timepoint,stationcode,longitude,latitude,area,positionname,primarypollutant,aqi,pm10,pm10_24h,pm2_5,pm2_5_24h,o3,o3_24h,o3_8h,o3_8h_24h,no2,no2_24h,so2,so2_24h,co,co_24h
2022-12-08T16:00:00,1001A,116.3621,39.8784,北京市,万寿西宫,,21,21,45,10,24,64,60,49,49,14,50,2,3,0.2,0.4
2022-12-08T16:00:00,1002A,116.2202,40.2915,北京市,定陵(对照点),,25,12,36,5,16,78,78,64,64,1,15,1,3,0.2,0.4
2022-12-08T16:00:00,1003A,116.4174,39.9289,北京市,东四,,20,19,40,7,20,65,64,55,55,11,31,3,2,0.2,0.5
2022-12-08T16:00:00,1004A,116.4072,39.8863,北京市,天坛,,20,16,39,7,22,67,64,54,54,11,41,1,2,0.2,0.4
2022-12-08T16:00:00,1005A,116.462,39.9365,北京市,农展馆,,21,21,36,8,18,66,61,52,52,11,46,1,2,0.2,0.4
2022-12-08T16:00:00,1006A,116.3392,39.9295,北京市,官园,,20,18,46,8,24,65,64,48,48,13,44,2,4,0.2,0.5
2022-12-08T16:00:00,1007A,116.2878,39.9611,北京市,海淀万柳,,20,20,56,7,28,63,63,44,44,9,52,1,3,0.2,0.5
2022-12-08T16:00:00,1008A,116.6636,40.135,北京市,顺义新城,,24,24,30,9,13,72,72,60,60,6,32,1,1,0.3,0.4
2022-12-08T16:00:00,1009A,116.6275,40.3275,北京市,怀柔镇,,24,24,25,10,13,57,50,45,45,13,17,4,2,0.3,0.3
2022-12-08T16:00:00,1010A,116.2296,40.217,北京市,昌平镇,,22,20,48,9,21,73,69,60,60,7,29,2,2,0.1,0.3
2022-12-08T16:00:00,1011A,116.3966,39.9821,北京市,奥体中心,,22,18,40,7,19,69,69,53,53,3,40,3,2,0.0,0.4
2022-12-08T16:00:00,1012A,116.184,39.9136,北京市,古城,颗粒物(PM10),58,66,60,29,28,61,32,38,38,41,46,3,2,0.5,0.7
2022-12-08T16:00:00,1015A,117.1444,39.1661,天津市,勤俭道,,31,31,132,15,79,53,51,28,28,28,77,4,8,0.4,1.1
2022-12-08T16:00:00,1017A,117.237,39.1082,天津市,大直沽八号路,,36,36,137,18,90,45,42,30,30,32,78,2,7,0.3,1
2022-12-08T16:00:00,1018A,117.202,39.0927,天津市,前进道,,27,27,135,15,92,52,51,36,36,32,77,6,10,0.5,1.2
2022-12-08T16:00:00,1019A,117.1837,39.2133,天津市,淮河道,,35,35,118,17,68,52,48,29,29,33,84,6,10,0.3,0.9
2022-12-08T16:00:00,1021A,117.307,39.0877,天津市,跃进路,,41,41,154,22,99,45,42,26,26,43,83,7,12,0.4,1.1
2022-12-08T16:00:00,1023A,117.707,39.0343,天津市,第四大街,颗粒物(PM10),56,61,158,34,101,24,22,15,15,62,101,10,14,0.6,1.3
2022-12-08T16:00:00,1024A,117.457,38.8394,天津市,永明路,细颗粒物(PM2.5),108,126,203,81,149,42,14,21,21,92,92,21,16,2.7,1.6
2022-12-08T16:00:00,1026A,117.764,39.1587,天津市,汉北路,颗粒物(PM10),71,92,137,44,74,18,18,10,10,61,82,8,11,0.5,1.1
2022-12-08T16:00:00,1027A,117.157,38.9194,天津市,团泊洼(对照点),颗粒物(PM10),68,85,221,47,150,106,26,27,27,70,101,7,13,0.8,1.4
2022-12-08T16:00:00,1029A,114.4422,38.0444,石家庄市,职工医院,"颗粒物(PM10),细颗粒物(PM2.5)",83,116,153,61,90,43,43,25,25,63,79,8,15,0.9,1.5
2022-12-08T16:00:00,1030A,114.6063,38.0266,石家庄市,高新区,,,,173,63,90,47,46,31,31,49,71,9,11,0.9,1.5
2022-12-08T16:00:00,1031A,114.4898,38.1328,石家庄市,西北水源,细颗粒物(PM2.5),95,117,148,71,75,45,39,24,24,54,67,10,12,1.0,1.5
2022-12-08T16:00:00,1032A,114.4586,38.0058,石家庄市,西南高教,细颗粒物(PM2.5),83,82,153,61,98,38,38,22,22,47,63,12,18,0.8,1.4
2022-12-08T16:00:00,1033A,114.5331,38.0178,石家庄市,世纪公园,细颗粒物(PM2.5),110,120,142,83,98,40,36,24,24,,84,12,13,1.0,1.6
2022-12-08T16:00:00,1034A,114.509,38.0457,石家庄市,人民会堂,细颗粒物(PM2.5),109,111,149,82,102,53,42,30,30,54,73,10,16,1.1,1.6
2022-12-08T16:00:00,1035A,114.3524,37.8911,石家庄市,封龙山(对照点),细颗粒物(PM2.5),79,98,92,58,56,63,36,52,41,76,62,18,23,1.9,2
2022-12-08T16:00:00,1037A,118.131,39.6363,唐山市,雷达站,,50,50,69,17,38,49,44,32,32,30,50,6,7,0.9,0.8
2022-12-08T16:00:00,1038A,118.1725,39.6334,唐山市,物资局,,48,42,59,33,37,42,37,27,27,38,62,7,10,0.8,0.8
2022-12-08T16:00:00,1040A,118.1705,39.6506,唐山市,十二中,,35,35,58,22,42,51,43,31,31,38,61,7,7,0.7,0.8
2022-12-08T16:00:00,1041A,118.1869,39.622,唐山市,小山,,36,36,60,5,33,45,42,29,29,33,55,8,10,0.7,0.8
2022-12-08T16:00:00,1042A,119.5134,39.8207,秦皇岛市,北戴河环保局,,30,30,36,15,16,56,47,45,45,24,30,14,15,0.1,0.4
2022-12-08T16:00:00,1043A,119.7493,40.0116,秦皇岛市,第一关,,50,50,54,28,25,59,47,43,43,33,52,14,15,0.6,0.7
2022-12-08T16:00:00,1044A,119.5897,39.9499,秦皇岛市,监测站,,48,48,51,27,26,54,47,39,39,17,37,15,16,0.4,0.7
2022-12-08T16:00:00,1046A,119.5251,39.9041,秦皇岛市,建设大厦,,39,39,45,8,13,56,50,34,34,21,44,12,10,0.4,0.7
2022-12-08T16:00:00,1047A,114.5129,36.61763,邯郸市,环保局,,,,,,,,,,,,,,,,
2022-12-08T16:00:00,1048A,114.5302,36.6116,邯郸市,东污水处理厂,,,,247,,187,45,42,32,32,,91,,17,1.1,2
2022-12-08T16:00:00,1049A,114.4918,36.5713,邯郸市,矿院,细颗粒物(PM2.5),153,155,230,117,192,32,32,21,21,84,95,10,15,0.8,2.4
2022-12-08T16:00:00,1050A,114.484,36.6133,邯郸市,丛台公园,细颗粒物(PM2.5),166,152,230,126,189,41,39,29,29,68,87,14,15,1.3,2.4
2022-12-08T16:00:00,1051A,115.493,38.8632,保定市,游泳馆,细颗粒物(PM2.5),160,139,153,122,127,55,48,37,37,58,90,14,12,0.4,1
2022-12-08T16:00:00,1052A,115.5213,38.8959,保定市,华电二区,细颗粒物(PM2.5),117,121,157,88,128,54,50,35,35,40,75,14,14,0.9,1.4
2022-12-08T16:00:00,1053A,115.4713,38.9108,保定市,接待中心,细颗粒物(PM2.5),148,156,190,113,121,51,51,32,32,44,69,13,12,0.8,1.2
2022-12-08T16:00:00,1054A,115.4612,38.8416,保定市,地表水厂,细颗粒物(PM2.5),128,158,223,97,120,50,39,29,29,57,85,13,12,0.8,1.5
2022-12-08T16:00:00,1055A,115.4323,38.8697,保定市,胶片厂,,,,,,,,,,,,,,,,
2022-12-08T16:00:00,1056A,115.5086,38.8639,保定市,监测站,细颗粒物(PM2.5),137,137,155,104,124,53,46,36,36,57,82,14,13,0.8,1.3
2022-12-08T16:00:00,1057A,114.8883,40.8336,张家口市,人民公园,,24,24,39,7,18,70,69,62,62,9,19,5,12,0.3,0.5
2022-12-08T16:00:00,1059A,114.8687,40.8042,张家口市,五金库,,20,19,32,12,20,65,61,57,57,10,17,10,14,0.4,0.7
2022-12-08T16:00:00,1060A,114.8902,40.762,张家口市,世纪豪园,,,22,34,9,17,62,61,57,57,,24,,6,0.3,0.5
2022-12-08T16:00:00,1061A,114.8916,40.8661,张家口市,北泵房(对照点),颗粒物(PM10),72,93,44,27,29,74,63,64,64,18,19,10,16,0.8,0.9
2022-12-08T16:00:00,1062A,117.9531,40.9081,承德市,铁路,,21,16,65,11,33,66,66,42,42,11,44,12,21,0.2,1.2
2022-12-08T16:00:00,1063A,117.9392,40.9763,承德市,中国银行,,20,19,54,2,30,63,63,38,38,10,39,5,9,0.3,0.9
2022-12-08T16:00:00,1064A,117.9503,40.928,承德市,开发区,,24,22,56,11,33,74,74,42,42,10,43,10,15,0.4,1.2
2022-12-08T16:00:00,1065A,117.8051,40.9655,承德市,文化中心,,28,28,69,9,35,64,61,39,39,11,40,12,18,0.3,1
2022-12-08T16:00:00,1066A,117.9268,41.0026,承德市,离宫(对照点),,28,28,44,14,30,65,65,41,41,5,33,8,12,0.2,0.6
2022-12-08T16:00:00,1067A,116.6708,39.5111,廊坊市,药材公司,,28,28,90,10,48,61,57,39,39,25,59,5,9,0.3,0.9
2022-12-08T16:00:00,1068A,116.7214,39.5589,廊坊市,开发区,,32,32,66,5,36,70,67,47,47,27,61,7,9,0.4,0.9
2022-12-08T16:00:00,1070A,116.7244,39.5269,廊坊市,北华航天学院,,32,32,83,6,44,65,63,43,43,22,65,7,9,0.3,1
2022-12-08T16:00:00,1071A,116.8842,38.2991,沧州市,沧县城建局,细颗粒物(PM2.5),290,281,292,240,271,42,32,25,25,98,83,18,17,2.1,1.8
2022-12-08T16:00:00,1072A,116.8584,38.3254,沧州市,电视转播站,细颗粒物(PM2.5),251,255,306,201,238,58,49,28,28,89,84,16,11,1.8,1.7
2022-12-08T16:00:00,1073A,116.8709,38.3228,沧州市,市环保局,细颗粒物(PM2.5),252,268,310,202,257,54,46,29,29,109,94,16,12,2.1,1.8
2022-12-08T16:00:00,1074A,115.6838,37.7541,衡水市,电机北厂,细颗粒物(PM2.5),302,330,330,252,238,50,37,22,22,63,75,6,8,1.4,1.6
2022-12-08T16:00:00,1075A,115.6303,37.7316,衡水市,市监测站,细颗粒物(PM2.5),307,356,339,257,236,54,45,25,25,54,76,11,11,1.6,1.8
2022-12-08T16:00:00,1077A,114.4704,37.0886,邢台市,达活泉,细颗粒物(PM2.5),168,161,229,127,178,50,42,35,35,82,87,4,8,1.2,1.8
2022-12-08T16:00:00,1078A,114.5062,37.0349,邢台市,邢师高专,细颗粒物(PM2.5),149,137,208,114,171,41,41,32,32,61,79,7,7,1.3,1.6
2022-12-08T16:00:00,1079A,114.5237,37.0851,邢台市,路桥公司,细颗粒物(PM2.5),183,192,234,138,166,47,42,31,31,63,75,10,12,1.3,1.8
2022-12-08T16:00:00,1080A,114.4725,37.0719,邢台市,市环保局,细颗粒物(PM2.5),163,163,232,124,177,48,42,35,35,66,81,13,13,1.3,1.7
2022-12-08T16:00:00,1081A,112.5139,37.8873,太原市,尖草坪,颗粒物(PM10),80,110,107,51,50,38,30,23,23,68,64,29,20,1.0,0.9
2022-12-08T16:00:00,1083A,112.434,38.0108,太原市,上兰(对照点),,,,,,,,,,,,,,,,
2022-12-08T16:00:00,1084A,112.469,37.7124,太原市,晋源,细颗粒物(PM2.5),132,184,129,100,68,24,18,14,14,105,83,38,22,2.0,1.8
2022-12-08T16:00:00,1085A,112.5583,37.7394,太原市,小店,细颗粒物(PM2.5),112,163,193,84,92,19,19,10,10,84,92,35,28,1.4,1.9
2022-12-08T16:00:00,1086A,112.5369,37.8692,太原市,桃园,细颗粒物(PM2.5),92,128,116,68,50,32,17,18,18,78,67,36,25,1.6,1.2
2022-12-08T16:00:00,1087A,112.57,37.8195,太原市,坞城,细颗粒物(PM2.5),102,143,134,76,67,30,18,19,19,79,76,36,40,1.4,1.9
2022-12-08T16:00:00,1088A,112.549,37.9854,太原市,南寨,颗粒物(PM10),68,85,122,36,48,57,57,35,35,31,54,12,10,0.6,1
2022-12-08T16:00:00,1089A,112.4701,37.782,太原市,金胜,,,,,,,,,,,,,,,,
2022-12-08T16:00:00,1090A,111.6507,40.7517,呼和浩特市,呼市一监,,,66,106,28,66,53,53,40,40,,47,12,22,0.5,1.3
2022-12-08T16:00:00,1091A,111.6572,40.8033,呼和浩特市,小召,颗粒物(PM10),68,85,101,32,53,60,44,30,30,42,64,21,28,0.7,1.2
2022-12-08T16:00:00,1094A,111.7516,40.8369,呼和浩特市,如意水处理厂,,,61,95,29,47,63,54,41,41,,61,18,19,0.6,1.2
2022-12-08T16:00:00,1095A,111.7276,40.8062,呼和浩特市,二十九中,颗粒物(PM10),62,74,91,30,52,56,53,35,35,26,55,16,19,0.7,1.2
2022-12-08T16:00:00,1096A,111.5512,40.7866,呼和浩特市,工大金川校区,颗粒物(PM10),65,80,111,32,55,50,49,30,30,27,51,18,27,0.5,0.9
2022-12-08T16:00:00,1097A,111.717,40.7612,呼和浩特市,化肥厂生活区,颗粒物(PM10),59,68,135,33,75,62,60,39,39,28,52,18,32,0.4,1.1
2022-12-08T16:00:00,1098A,123.6836,41.9339,沈阳市,森林路(对照点),,,,,,,,,,,,,,,,
2022-12-08T16:00:00,1099A,123.505,41.7406,沈阳市,浑南东路,,33,33,62,18,38,52,39,35,35,31,42,17,12,1.2,1.3
2022-12-08T16:00:00,1100A,123.4231,41.6989,沈阳市,新秀街,,29,29,74,13,43,53,28,33,33,50,50,17,18,1.0,1.1
2022-12-08T16:00:00,1102A,123.5903,41.8411,沈阳市,东陵路,,35,24,54,24,36,50,42,31,31,32,43,14,18,0.6,1
2022-12-08T16:00:00,1103A,123.4264,41.8467,沈阳市,陵东街,,31,31,58,17,30,55,44,33,33,37,51,17,19,0.7,0.8
2022-12-08T16:00:00,1104A,123.4114,41.7653,沈阳市,文化路,,32,32,67,21,43,53,42,35,35,33,50,18,24,1.1,1.2
2022-12-08T16:00:00,1105A,123.4678,41.7867,沈阳市,小河沿,,32,32,67,19,37,54,42,34,34,40,51,17,23,0.8,0.9
2022-12-08T16:00:00,1106A,123.4017,41.7972,沈阳市,太原街,,44,44,67,24,34,49,45,34,34,39,56,22,32,0.8,0.8
2022-12-08T16:00:00,1108A,123.3783,41.9228,沈阳市,京沈街,,46,46,58,23,32,52,47,38,38,34,42,20,23,0.9,0.9
2022-12-08T16:00:00,1109A,121.612,38.9741,大连市,甘井子,细颗粒物(PM2.5),79,70,58,58,45,57,42,31,31,47,63,14,21,1.3,1.5
2022-12-08T16:00:00,1110A,121.565,38.9511,大连市,周水子,,,102,79,55,37,43,38,25,25,46,60,18,27,,0.9
2022-12-08T16:00:00,1111A,121.5637,38.8845,大连市,星海三站,细颗粒物(PM2.5),63,73,59,45,33,58,34,34,34,54,50,17,12,1.2,1.4
2022-12-08T16:00:00,1112A,121.6302,38.9117,大连市,青泥洼桥,"颗粒物(PM10),细颗粒物(PM2.5)",57,64,49,40,29,62,23,30,30,68,60,13,14,1.2,1.4
2022-12-08T16:00:00,1113A,121.6251,38.8638,大连市,傅家庄,颗粒物(PM10),52,53,36,34,23,66,37,48,48,43,35,11,17,1.3,1.3
2022-12-08T16:00:00,1114A,121.5213,38.8661,大连市,七贤岭,细颗粒物(PM2.5),77,85,46,56,22,72,58,48,48,34,30,13,9,1.3,1.3
2022-12-08T16:00:00,1115A,121.2529,38.8061,大连市,旅顺,,,160,61,,36,85,73,55,55,28,27,10,9,1.0,0.9
2022-12-08T16:00:00,1116A,121.7485,39.1311,大连市,金州,颗粒物(PM10),63,75,57,42,33,56,44,46,35,42,32,18,13,1.1,1
2022-12-08T16:00:00,1117A,121.7811,39.0496,大连市,开发区,细颗粒物(PM2.5),68,65,56,49,43,50,38,25,25,54,72,15,11,0.9,1.2
2022-12-08T16:00:00,1118A,121.9762,39.0631,大连市,双D港,,43,43,34,27,23,58,32,49,41,40,22,11,10,0.8,0.7
2022-12-08T16:00:00,1119A,125.3325,43.9166,长春市,食品厂,,44,44,41,21,29,56,47,42,42,23,27,7,11,0.3,0.4
2022-12-08T16:00:00,1120A,125.2863,43.9027,长春市,客车厂,,42,42,41,15,19,55,51,49,49,22,30,9,21,0.2,0.2
2022-12-08T16:00:00,1121A,125.2841,43.8463,长春市,邮电学院,,,34,39,16,19,60,59,51,51,17,33,7,16,,0.4
2022-12-08T16:00:00,1122A,125.3716,43.8772,长春市,劳动公园,,35,35,31,15,14,63,57,47,47,22,30,14,22,0.3,0.4
2022-12-08T16:00:00,1123A,125.3297,43.8805,长春市,园林处,,35,35,34,17,17,59,48,43,43,30,32,16,22,0.4,0.3
2022-12-08T16:00:00,1124A,125.4605,43.79,长春市,净月潭,,30,30,28,11,12,63,56,53,53,15,18,12,8,0.4,0.4
2022-12-08T16:00:00,1125A,125.7194,43.515,长春市,甩湾子(对照点),,,,,,,,,,,,,,,,
2022-12-08T16:00:00,1126A,125.3863,43.8447,长春市,经开区环卫处,,34,34,29,12,13,69,63,49,49,17,30,9,14,0.4,0.4
2022-12-08T16:00:00,1127A,125.245,43.7783,长春市,高新区管委会,,32,32,32,15,17,64,62,55,55,13,24,6,9,0.2,0.3
2022-12-08T16:00:00,1128A,125.1761,43.8325,长春市,岱山公园,,34,34,31,13,15,71,58,59,59,16,18,5,5,0.3,0.3
2022-12-08T16:00:00,1129A,126.5422,45.755,哈尔滨市,岭北(对照点),,28,28,48,16,35,74,69,59,59,12,30,18,21,0,0.4
2022-12-08T16:00:00,1130A,126.561,45.8167,哈尔滨市,松北商大,,26,26,45,17,29,59,44,45,45,22,29,5,6,0.1,0.3
2022-12-08T16:00:00,1131A,126.979,45.5419,哈尔滨市,阿城会宁,,40,40,68,21,45,60,55,46,46,16,30,16,16,0.5,0.9
2022-12-08T16:00:00,1132A,126.599,45.7222,哈尔滨市,南岗学府路,,28,19,58,19,37,68,61,51,51,12,31,13,21,0.7,0.7
2022-12-08T16:00:00,1133A,126.689,45.7733,哈尔滨市,太平宏伟公园,,,40,42,16,30,68,62,53,53,18,30,13,16,,0.6
2022-12-08T16:00:00,1134A,126.635,45.7667,哈尔滨市,道外承德广场,,34,34,46,21,30,59,46,44,44,32,31,8,8,0.3,0.4
2022-12-08T16:00:00,1135A,126.685,45.7319,哈尔滨市,香坊红旗大街,,37,37,49,21,32,60,51,46,46,27,37,14,24,0.4,0.6
2022-12-08T16:00:00,1136A,126.6411,45.7258,哈尔滨市,动力和平路,,33,33,50,18,34,62,56,44,44,17,37,9,16,0.3,0.6
2022-12-08T16:00:00,1137A,126.593,45.7478,哈尔滨市,道里建国路,,,,49,,32,57,47,41,41,22,31,16,15,,0.7
2022-12-08T16:00:00,1138A,126.615,45.61,哈尔滨市,平房东轻厂,,36,36,53,19,38,61,54,48,48,17,39,10,16,0.1,0.4
2022-12-08T16:00:00,1139A,126.595,45.9855,哈尔滨市,呼兰师专,,33,23,62,23,58,69,64,56,56,12,31,8,17,0.3,0.9
2022-12-08T16:00:00,1140A,126.6206,45.6842,哈尔滨市,省农科院,,26,19,80,18,50,65,52,48,48,18,45,9,23,0.9,1.2
2022-12-08T16:00:00,1141A,121.4,31.238,上海市,普陀,,42,42,75,20,43,89,83,51,51,29,71,4,6,0.8,1
2022-12-08T16:00:00,1142A,121.478,31.2036,上海市,十五厂,,30,29,60,21,40,110,84,61,61,34,68,8,10,0.4,0.6
2022-12-08T16:00:00,1143A,121.467,31.3008,上海市,虹口,,39,39,77,25,42,99,67,51,51,45,76,7,9,0.6,0.8
2022-12-08T16:00:00,1144A,121.412,31.1654,上海市,徐汇上师大,,42,36,58,29,39,92,69,58,58,44,68,8,9,0.6,0.7
2022-12-08T16:00:00,1145A,121.536,31.2659,上海市,杨浦四漂,颗粒物(PM10),51,51,93,22,45,82,43,47,47,69,85,7,9,0.9,1
2022-12-08T16:00:00,1146A,120.978,31.0935,上海市,青浦淀山湖(对照点),,,,,,,,,,,,,,,,
2022-12-08T16:00:00,1147A,121.425,31.2261,上海市,静安监测站,,44,44,80,24,43,99,74,56,56,40,70,6,8,0.5,0.6
2022-12-08T16:00:00,1148A,121.703,31.1907,上海市,浦东川沙,颗粒物(PM10),55,60,85,19,40,98,52,61,61,48,64,6,6,0.5,0.7
2022-12-08T16:00:00,1149A,121.533,31.2284,上海市,浦东新区监测站,,41,41,76,19,41,98,70,53,53,31,56,6,7,0.6,0.9
2022-12-08T16:00:00,1150A,121.577,31.2071,上海市,浦东张江,,34,34,65,12,37,84,57,44,44,31,62,4,5,0.6,0.8
2022-12-08T16:00:00,1151A,118.8086,32.1065,南京市,迈皋桥,颗粒物(PM10),90,130,136,63,66,26,8,11,11,83,79,3,4,0.8,1.1
2022-12-08T16:00:00,1152A,118.7538,32.0551,南京市,草场门,细颗粒物(PM2.5),85,112,100,63,58,39,8,13,13,90,84,6,7,0.9,1
2022-12-08T16:00:00,1153A,118.7794,32.0745,南京市,山西路,细颗粒物(PM2.5),107,156,117,80,60,54,7,19,19,97,88,5,7,0.9,1
2022-12-08T16:00:00,1154A,118.7752,32.0023,南京市,中华门,"颗粒物(PM10),细颗粒物(PM2.5)",89,127,111,66,60,37,9,14,14,99,91,8,11,0.9,1.4
2022-12-08T16:00:00,1155A,118.8109,32.0309,南京市,瑞金路,细颗粒物(PM2.5),98,137,134,73,70,35,11,13,13,100,100,7,8,0.7,1.1
2022-12-08T16:00:00,1156A,118.7997,32.0754,南京市,玄武湖,,,,,,,,,,,,,,,,
2022-12-08T16:00:00,1157A,118.6414,32.0931,南京市,浦口,细颗粒物(PM2.5),113,161,120,85,59,36,8,9,9,83,82,6,7,1.3,1.3
2022-12-08T16:00:00,1158A,118.7356,31.9996,南京市,奥体中心,细颗粒物(PM2.5),110,145,130,83,67,37,10,16,16,,94,8,10,0.9,1
2022-12-08T16:00:00,1159A,118.9125,32.1028,南京市,仙林大学城,颗粒物(PM10),76,102,112,53,58,61,29,23,23,65,79,6,8,0.9,1.2
2022-12-08T16:00:00,1160A,120.561,31.2472,苏州市,上方山(对照点),颗粒物(PM10),62,74,91,42,50,57,12,25,25,74,75,8,9,0.8,1
2022-12-08T16:00:00,1161A,120.628,31.2864,苏州市,南门,,,,,,,,,,,,,,,,
2022-12-08T16:00:00,1162A,120.591,31.3019,苏州市,彩香,颗粒物(PM10),67,83,97,42,54,78,16,34,34,74,79,6,7,0.7,0.9
2022-12-08T16:00:00,1163A,120.596,31.3264,苏州市,轧钢厂,颗粒物(PM10),73,96,104,38,48,68,12,27,27,83,88,6,7,0.7,0.8
2022-12-08T16:00:00,1164A,120.613,31.2703,苏州市,吴中区,颗粒物(PM10),68,85,101,35,48,65,17,29,29,87,89,7,10,0.7,0.8
2022-12-08T16:00:00,1165A,120.543,31.2994,苏州市,苏州新区,颗粒物(PM10),69,87,89,47,52,69,10,33,32,83,78,8,9,0.8,0.9
2022-12-08T16:00:00,1166A,120.669,31.3097,苏州市,苏州工业园区,颗粒物(PM10),69,87,94,42,53,79,18,34,34,86,93,6,8,0.8,1.1
2022-12-08T16:00:00,1167A,120.641,31.3708,苏州市,相城区,颗粒物(PM10),65,79,96,37,52,70,7,27,27,99,89,8,10,0.8,0.8
2022-12-08T16:00:00,1168A,120.9098,31.9663,南通市,狼山街道,颗粒物(PM10),65,80,86,41,52,102,48,63,63,44,33,7,8,0.5,0.6
2022-12-08T16:00:00,1169A,120.86,32.0005,南通市,虹桥,细颗粒物(PM2.5),94,96,101,70,57,103,39,66,55,59,44,5,7,0.7,0.7
2022-12-08T16:00:00,1170A,120.87,32.02,南通市,城中,颗粒物(PM10),64,77,94,42,49,82,59,66,65,40,43,6,6,0.4,0.5
2022-12-08T16:00:00,1171A,120.94,31.93,南通市,星湖花园,颗粒物(PM10),59,67,85,36,48,102,55,68,68,39,35,7,8,0.5,0.5
2022-12-08T16:00:00,1172A,120.81,32.0417,南通市,紫琅学院,颗粒物(PM10),72,94,103,44,49,100,25,80,51,68,37,8,9,0.7,0.7
2022-12-08T16:00:00,1173A,119.176,34.5885,连云港市,市环境监测站,细颗粒物(PM2.5),128,127,133,97,87,73,24,64,32,69,53,11,13,0.6,0.7
2022-12-08T16:00:00,1177A,117.179,34.2761,徐州市,黄河新村,细颗粒物(PM2.5),114,144,134,86,85,85,36,34,34,55,64,12,13,1.0,1
2022-12-08T16:00:00,1178A,117.1918,34.2384,徐州市,淮塔,细颗粒物(PM2.5),110,142,145,83,88,70,49,40,40,52,71,6,8,1.0,1.1
2022-12-08T16:00:00,1180A,117.256,34.2153,徐州市,新城区,细颗粒物(PM2.5),108,129,136,81,84,88,50,40,40,49,65,10,11,0.9,0.9
2022-12-08T16:00:00,1181A,117.244,34.2911,徐州市,桃园路,细颗粒物(PM2.5),113,141,145,85,88,81,46,33,33,40,61,6,9,1.0,1
2022-12-08T16:00:00,1182A,117.2933,34.2778,徐州市,农科院,,,,142,,86,82,45,34,34,41,62,,11,1.0,1
2022-12-08T16:00:00,1186A,119.389,32.3761,扬州市,邗江监测站,细颗粒物(PM2.5),103,124,119,77,74,47,15,38,20,82,62,9,7,0.9,0.8
2022-12-08T16:00:00,1188A,120.269,31.4867,无锡市,雪浪,颗粒物(PM10),79,107,107,46,49,15,9,9,9,70,85,9,9,0.9,0.9
2022-12-08T16:00:00,1189A,120.275,31.6219,无锡市,黄巷,颗粒物(PM10),90,129,125,51,52,20,8,10,10,104,95,12,12,1.5,1.4
2022-12-08T16:00:00,1190A,120.294,31.56,无锡市,曹张,颗粒物(PM10),93,135,109,51,50,29,3,18,9,84,83,14,16,1.4,1.4
2022-12-08T16:00:00,1191A,120.242,31.5031,无锡市,漆塘,颗粒物(PM10),67,83,100,41,48,20,17,15,15,82,94,9,9,0.7,0.9
2022-12-08T16:00:00,1192A,120.3489,31.5863,无锡市,东亭,颗粒物(PM10),89,127,101,51,52,19,4,8,8,101,93,10,11,1.2,1.1
2022-12-08T16:00:00,1193A,120.354,31.5475,无锡市,旺庄,颗粒物(PM10),97,144,103,56,52,34,0,12,12,86,85,8,10,1.0,0.9
2022-12-08T16:00:00,1194A,120.245,31.5631,无锡市,荣巷,颗粒物(PM10),73,95,95,48,51,22,10,15,12,82,92,12,13,0.8,0.9
2022-12-08T16:00:00,1195A,120.299,31.6817,无锡市,堰桥,颗粒物(PM10),86,122,111,53,58,33,12,21,17,84,78,13,15,1.2,1.2
2022-12-08T16:00:00,1196A,119.9633,31.762,常州市,市监测站,细颗粒物(PM2.5),117,153,124,88,76,25,6,14,8,98,89,10,10,1.4,1.2
2022-12-08T16:00:00,1200A,119.9468,31.7069,常州市,武进监测站,细颗粒物(PM2.5),112,150,115,84,67,20,6,16,10,101,93,9,9,1.3,1.1
2022-12-08T16:00:00,1201A,119.9255,31.9087,常州市,安家,细颗粒物(PM2.5),95,121,111,71,69,28,10,17,13,83,77,10,9,1.0,1
2022-12-08T16:00:00,1203A,119.6707,32.1875,镇江市,新区办事处,细颗粒物(PM2.5),103,124,139,77,81,38,17,32,20,87,75,7,7,1.0,1
2022-12-08T16:00:00,1204A,119.4974,32.1968,镇江市,职教中心,细颗粒物(PM2.5),100,112,128,75,77,38,32,19,19,74,81,8,7,1.1,1.1
2022-12-08T16:00:00,1205A,119.4303,32.1328,镇江市,丹徒区监测站,细颗粒物(PM2.5),110,136,141,83,86,62,33,25,25,77,80,9,9,,1.1
2022-12-08T16:00:00,1206A,119.905,32.4878,泰州市,公园路,颗粒物(PM10),80,110,107,58,64,86,37,72,36,41,34,5,6,0.9,0.9
2022-12-08T16:00:00,1207A,119.9189,32.4625,泰州市,莲花,细颗粒物(PM2.5),94,103,100,70,70,104,50,74,58,45,34,7,9,1.1,1
2022-12-08T16:00:00,1209A,119.888,32.4639,泰州市,留学生创业园,颗粒物(PM10),89,127,116,63,58,98,49,72,55,49,34,10,10,0.9,0.9
2022-12-08T16:00:00,1210A,119.036,33.5981,淮安市,钵池山,细颗粒物(PM2.5),114,124,116,86,80,97,57,48,48,38,47,9,9,0.6,0.6
2022-12-08T16:00:00,1211A,119.007,33.575,淮安市,北京南路,细颗粒物(PM2.5),109,139,123,82,73,88,62,56,56,39,47,8,10,0.7,0.7
2022-12-08T16:00:00,1212A,118.989,33.6067,淮安市,市监测站,细颗粒物(PM2.5),110,144,126,83,76,91,53,43,40,51,53,6,7,0.9,0.8
2022-12-08T16:00:00,1213A,119.135,33.5039,淮安市,楚州区监测站,细颗粒物(PM2.5),142,171,127,108,77,79,50,55,54,41,44,9,10,0.7,0.6
2022-12-08T16:00:00,1214A,119.0186,33.6297,淮安市,淮阴区监测站,细颗粒物(PM2.5),130,154,139,99,87,82,48,35,35,43,54,9,10,0.8,0.7
2022-12-08T16:00:00,1215A,120.118,33.4022,盐城市,盐城电厂,颗粒物(PM10),73,95,107,44,61,96,76,72,72,44,48,7,8,0.5,0.6
2022-12-08T16:00:00,1216A,120.156,33.3942,盐城市,市监测站,,,88,103,41,54,116,,80,80,29,45,7,7,0.5,0.6
2022-12-08T16:00:00,1218A,120.2144,33.38,盐城市,开发区管委会,颗粒物(PM10),67,84,106,35,46,91,84,75,75,30,37,11,10,0.5,0.5
2022-12-08T16:00:00,1220A,118.293,33.9528,宿迁市,宿迁学院,颗粒物(PM10),114,177,139,83,83,89,45,40,36,50,65,8,9,0.7,0.6
2022-12-08T16:00:00,1221A,118.2442,33.9592,宿迁市,宿迁中学,细颗粒物(PM2.5),129,181,145,98,85,79,47,39,37,42,55,7,6,0.8,0.8
2022-12-08T16:00:00,1223A,120.2072,30.2111,杭州市,滨江,颗粒物(PM10),67,84,68,38,29,38,4,8,8,76,71,8,8,1.0,0.8
2022-12-08T16:00:00,1224A,120.0633,30.2747,杭州市,西溪,颗粒物(PM10),60,70,67,33,32,9,6,6,6,49,48,7,7,0.6,0.7
2022-12-08T16:00:00,1225A,119.026,29.635,杭州市,千岛湖(对照点),,,,,,,,,,,,,,,,
2022-12-08T16:00:00,1226A,120.3461,30.3153,杭州市,下沙,细颗粒物(PM2.5),74,96,72,54,35,37,4,6,6,85,76,6,6,0.8,0.7
2022-12-08T16:00:00,1227A,120.1269,30.2456,杭州市,卧龙桥,颗粒物(PM10),59,68,60,40,36,18,3,8,8,57,51,7,7,0.6,0.7
2022-12-08T16:00:00,1228A,120.1903,30.2692,杭州市,浙江农大,颗粒物(PM10),63,75,73,44,37,48,4,7,7,68,64,8,8,0.7,0.7
2022-12-08T16:00:00,1229A,120.157,30.2897,杭州市,朝晖五区,,,,,,,,,,,,,,,,
2022-12-08T16:00:00,1230A,120.1197,30.3119,杭州市,和睦小学,颗粒物(PM10),72,93,95,51,45,8,4,4,4,69,67,5,5,0.7,0.8
2022-12-08T16:00:00,1231A,120.3019,30.4183,杭州市,临平镇,细颗粒物(PM2.5),90,127,95,67,47,24,3,6,5,71,66,9,8,0.8,0.8
2022-12-08T16:00:00,1232A,120.2697,30.1819,杭州市,城厢镇,细颗粒物(PM2.5),74,84,67,54,37,26,4,7,7,84,72,7,7,1.0,0.8
2022-12-08T16:00:00,1233A,120.0883,30.1808,杭州市,云栖,,46,46,38,28,23,44,6,10,10,53,43,7,7,0.8,0.8
2022-12-08T16:00:00,1234A,121.8358,29.911,宁波市,区环保大楼,颗粒物(PM10),65,80,56,39,26,71,18,10,10,89,63,11,9,0.6,0.7
2022-12-08T16:00:00,1235A,121.56,29.82,宁波市,万里学院,颗粒物(PM10),75,99,71,42,29,57,13,13,13,91,70,10,9,0.7,0.5
2022-12-08T16:00:00,1236A,121.713,29.9572,宁波市,龙赛医院,,,,63,,28,62,32,12,12,80,70,13,13,0.4,0.7
2022-12-08T16:00:00,1239A,121.633,29.7733,宁波市,钱湖水厂,颗粒物(PM10),63,76,47,40,28,78,17,22,14,79,39,10,8,0.7,0.4
2022-12-08T16:00:00,1240A,121.5856,29.8635,宁波市,太古小学,颗粒物(PM10),80,110,73,48,24,60,13,8,8,88,67,11,10,0.7,0.7
2022-12-08T16:00:00,1241A,121.524,29.8674,宁波市,市环境监测中心,,,79,63,36,33,62,12,6,6,,65,9,7,0.6,0.6
2022-12-08T16:00:00,1242A,120.634,28.0089,温州市,瓯海,,44,44,56,23,28,108,78,70,70,28,41,7,7,0.3,0.4
2022-12-08T16:00:00,1243A,120.6748,27.9939,温州市,南浦,,39,39,42,17,23,81,81,59,59,23,37,7,7,0.3,0.3
2022-12-08T16:00:00,1244A,120.76,27.9747,温州市,龙湾,颗粒物(PM10),52,54,43,20,18,84,75,58,58,37,44,6,6,0.4,0.4
2022-12-08T16:00:00,1245A,120.6709,28.0167,温州市,市站,,40,40,41,16,19,80,79,63,58,25,34,7,8,0.3,0.3
2022-12-08T16:00:00,1246A,120.598,30.0911,绍兴市,袍江站,,,,,,,,,,,,,,,,
2022-12-08T16:00:00,1247A,120.6053,29.9928,绍兴市,城东开发委,,,97,67,48,35,39,10,13,13,,56,8,9,,0.7
2022-12-08T16:00:00,1250A,120.0751,30.8669,湖州市,城西水厂,细颗粒物(PM2.5),62,59,70,44,51,52,21,23,23,65,73,9,9,0.4,0.7
2022-12-08T16:00:00,1252A,120.7436,30.778,嘉兴市,清河小学,,,71,77,41,42,48,22,40,22,,64,8,6,0.6,0.5
2022-12-08T16:00:00,1253A,120.726,30.7478,嘉兴市,嘉兴学院,颗粒物(PM10),66,81,82,42,47,50,28,30,30,90,81,10,11,0.6,0.6
2022-12-08T16:00:00,1255A,121.273,28.6459,台州市,黄岩环保大楼,颗粒物(PM10),55,59,50,26,23,62,45,58,50,39,31,9,7,0.4,0.4
2022-12-08T16:00:00,1256A,121.419,28.6542,台州市,台州环保大楼,细颗粒物(PM2.5),53,54,44,37,23,94,54,49,46,34,29,9,9,0.5,0.4
2022-12-08T16:00:00,1257A,121.377,28.5773,台州市,路桥田洋王,,,,46,35,21,86,42,48,38,,25,7,6,0.4,0.3
2022-12-08T16:00:00,1258A,122.122,30.0203,舟山市,定海檀枫,,29,29,28,10,16,90,89,75,75,9,24,4,4,0.3,0.4
2022-12-08T16:00:00,1259A,122.3094,29.9558,舟山市,普陀东港,,43,26,30,30,27,108,92,108,90,12,12,6,6,0.3,0.3
2022-12-08T16:00:00,1260A,122.19,29.9944,舟山市,临城新区,,28,28,32,18,16,90,89,79,79,10,18,5,6,0.2,0.3
2022-12-08T16:00:00,1261A,119.649,29.1131,金华市,四中(停运161031),,,,,,,,,,,,,,,,
2022-12-08T16:00:00,1262A,119.647,29.077,金华市,十五中,细颗粒物(PM2.5),64,62,77,46,53,37,20,21,21,74,62,10,6,0.5,0.7
2022-12-08T16:00:00,1263A,119.686,29.1029,金华市,监测站,颗粒物(PM10),52,54,74,24,41,38,21,20,20,54,51,6,8,0.5,0.6
2022-12-08T16:00:00,1264A,118.8692,28.9398,衢州市,环保大楼,细颗粒物(PM2.5),68,61,54,49,46,28,28,20,20,41,39,8,7,0.7,0.7
2022-12-08T16:00:00,1265A,118.8709,28.9666,衢州市,实验学校,细颗粒物(PM2.5),58,57,52,41,37,36,36,25,22,37,36,7,7,0.7,0.7
2022-12-08T16:00:00,1266A,118.8621,28.9808,衢州市,衢州学院,颗粒物(PM10),54,57,50,27,35,36,36,26,20,36,39,7,6,0.7,0.5
2022-12-08T16:00:00,1267A,119.914,28.4514,丽水市,监测站大楼,,37,37,37,16,22,49,35,30,30,39,26,8,7,0.4,0.6
2022-12-08T16:00:00,1268A,119.93,28.4586,丽水市,莲都小学,,38,38,41,20,25,62,58,37,37,21,24,7,7,0.4,0.5
2022-12-08T16:00:00,1269A,119.879,28.4231,丽水市,余庄前,,44,44,35,24,18,47,46,30,30,36,19,5,5,0.5,0.5
2022-12-08T16:00:00,1270A,117.1959,31.7848,合肥市,明珠广场,,,107,111,58,54,22,20,14,14,61,68,11,12,,1
2022-12-08T16:00:00,1271A,117.3072,31.8764,合肥市,三里街,细颗粒物(PM2.5),89,122,118,66,61,25,22,15,15,65,72,14,12,0.9,1.2
2022-12-08T16:00:00,1272A,117.2588,31.8707,合肥市,琥珀山庄,颗粒物(PM10),84,117,108,61,51,29,27,16,16,61,67,11,11,0.8,1.1
2022-12-08T16:00:00,1273A,117.1604,31.9052,合肥市,董铺水库(对照点),,,,103,,47,8,,13,,,77,,4,,0.8
2022-12-08T16:00:00,1274A,117.25,31.8571,合肥市,长江中路,细颗粒物(PM2.5),94,114,108,70,67,34,26,17,17,54,64,11,11,1.1,1.3
2022-12-08T16:00:00,1275A,117.266,31.9436,合肥市,庐阳区,细颗粒物(PM2.5),85,105,118,63,60,36,33,20,20,65,70,15,12,0.8,1.1
2022-12-08T16:00:00,1276A,117.336,31.8586,合肥市,瑶海区,细颗粒物(PM2.5),110,127,129,83,73,28,26,19,19,61,70,9,9,1.0,1.4
2022-12-08T16:00:00,1277A,117.3027,31.7964,合肥市,包河区,细颗粒物(PM2.5),77,102,118,56,65,34,21,21,21,67,68,8,9,1.1,1.4
2022-12-08T16:00:00,1278A,117.2776,31.7385,合肥市,滨湖新区,,,119,116,61,60,28,,15,15,68,72,13,14,1.0,1.2
2022-12-08T16:00:00,1279A,117.1318,31.8403,合肥市,高新区,细颗粒物(PM2.5),92,107,105,68,62,40,40,24,24,46,61,8,8,0.7,1.2
2022-12-08T16:00:00,1280A,119.3903,26.0543,福州市,鼓山(对照点),,,,,,,,,,,,,,,,
2022-12-08T16:00:00,1282A,119.2681,26.0504,福州市,师大,颗粒物(PM10),51,51,40,19,15,82,78,70,70,23,15,4,4,0.5,0.5
2022-12-08T16:00:00,1283A,119.2984,26.1028,福州市,五四北路,颗粒物(PM10),55,59,37,25,14,81,49,66,62,45,15,5,3,0.4,0.4
2022-12-08T16:00:00,1284A,119.2648,26.0768,福州市,杨桥西路,,,51,39,17,17,88,81,72,72,,14,3,3,0.4,0.4
2022-12-08T16:00:00,1285A,119.317,26.0746,福州市,紫阳,颗粒物(PM10),52,54,42,21,15,77,72,73,63,27,15,4,4,0.4,0.5
2022-12-08T16:00:00,1286A,118.1608,24.8169,厦门市,溪东(对照点),,,,,,,,,,,,,,,,
2022-12-08T16:00:00,1287A,118.1514,24.4767,厦门市,洪文,,36,36,31,20,17,94,90,75,75,19,19,3,2,0.4,0.4
2022-12-08T16:00:00,1288A,118.0661,24.4444,厦门市,鼓浪屿,,30,24,31,11,15,99,94,67,67,22,31,3,5,0.4,0.4
2022-12-08T16:00:00,1290A,115.8931,28.6843,南昌市,省外办,细颗粒物(PM2.5),72,85,91,52,60,65,57,46,46,33,36,9,10,1.0,1
2022-12-08T16:00:00,1291A,115.8886,28.7003,南昌市,省林业公司,细颗粒物(PM2.5),70,70,78,51,58,62,57,46,46,33,38,8,8,0.8,0.8
2022-12-08T16:00:00,1292A,115.8126,28.7442,南昌市,林科所,,49,46,68,34,48,73,73,54,54,16,29,9,10,0.4,0.6
2022-12-08T16:00:00,1294A,115.8518,28.687,南昌市,建工学校,颗粒物(PM10),56,61,79,39,47,65,64,49,49,21,31,13,13,0.7,0.8
2022-12-08T16:00:00,1295A,115.8921,28.6424,南昌市,象湖,细颗粒物(PM2.5),77,64,65,56,63,64,59,47,47,24,37,8,8,0.7,0.9
2022-12-08T16:00:00,1296A,115.7423,28.7996,南昌市,武术学校(对照点),细颗粒物(PM2.5),54,30,36,38,34,64,64,50,50,13,16,7,6,0.7,0.8
2022-12-08T16:00:00,1298A,115.9314,28.6842,南昌市,省站,,,99,92,53,65,65,58,57,57,28,38,10,11,,1.1
2022-12-08T16:00:00,1299A,116.9862,36.6114,济南市,科干所,细颗粒物(PM2.5),102,114,102,76,66,86,78,80,68,32,28,10,11,0.9,0.9
2022-12-08T16:00:00,1300A,116.9376,36.665,济南市,农科所,细颗粒物(PM2.5),80,103,114,59,62,74,74,51,51,42,65,10,12,0.6,0.8
2022-12-08T16:00:00,1301A,117.1265,36.6734,济南市,开发区,细颗粒物(PM2.5),93,112,122,69,71,72,54,47,47,53,71,15,11,0.7,0.8
2022-12-08T16:00:00,1303A,117.0624,36.6868,济南市,省种子仓库,细颗粒物(PM2.5),94,110,135,70,80,73,71,50,50,33,67,12,12,0.6,1.1
2022-12-08T16:00:00,1304A,116.9489,36.6447,济南市,机床二厂,细颗粒物(PM2.5),110,120,140,83,84,83,81,60,60,32,66,11,24,0.6,0.9
2022-12-08T16:00:00,1305A,117.0495,36.663,济南市,市监测站,颗粒物(PM10),83,115,115,59,58,90,69,59,59,49,66,11,10,0.6,1.1
2022-12-08T16:00:00,1306A,116.7675,36.5484,济南市,长清党校,细颗粒物(PM2.5),104,115,114,78,72,90,87,68,68,30,55,13,11,0.9,0.7
2022-12-08T16:00:00,1307A,120.6659,36.2403,青岛市,仰口(对照点),细颗粒物(PM2.5),100,112,89,75,61,85,63,78,61,53,36,6,8,1.0,0.8
2022-12-08T16:00:00,1308A,120.3905,36.1851,青岛市,李沧区子站,,,,,,,,,,,,,,,,
2022-12-08T16:00:00,1309A,120.3471,36.0699,青岛市,市北区子站,,,,,,,,,,,,,,,,
2022-12-08T16:00:00,1310A,120.4134,36.0658,青岛市,市南区东部子站,细颗粒物(PM2.5),125,163,136,95,77,95,25,95,29,99,71,27,17,1.3,1.2
2022-12-08T16:00:00,1311A,120.3664,36.1032,青岛市,四方区子站,细颗粒物(PM2.5),138,180,148,105,90,44,19,22,22,100,88,29,20,1.2,1.5
2022-12-08T16:00:00,1312A,120.2994,36.054,青岛市,市南区西部子站,细颗粒物(PM2.5),123,151,151,93,84,79,41,31,31,81,90,17,19,1.3,1.3
2022-12-08T16:00:00,1313A,120.4581,36.0858,青岛市,崂山区子站,细颗粒物(PM2.5),138,190,135,105,78,67,32,66,29,90,68,16,20,1.1,1
2022-12-08T16:00:00,1314A,120.1983,35.9608,青岛市,黄岛区子站,细颗粒物(PM2.5),138,205,173,105,100,85,21,83,15,97,78,22,21,1.2,1.2
2022-12-08T16:00:00,1315A,120.3999,36.3083,青岛市,城阳区子站,颗粒物(PM10),129,207,175,90,83,46,8,11,11,118,97,15,12,1.6,2
2022-12-08T16:00:00,1316A,113.69031,34.76122,郑州市,烟厂,细颗粒物(PM2.5),247,238,154,197,130,91,20,12,12,92,66,10,7,1.5,1
2022-12-08T16:00:00,1317A,113.65724,34.77134,郑州市,郑纺机,细颗粒物(PM2.5),253,241,159,203,131,88,28,18,18,88,67,16,13,1.8,1.3
2022-12-08T16:00:00,1318A,113.67526,34.80246,郑州市,银行学校,细颗粒物(PM2.5),247,242,166,197,142,92,34,24,20,85,67,15,12,1.7,1.3
2022-12-08T16:00:00,1319A,113.56746,34.81334,郑州市,供水公司,细颗粒物(PM2.5),237,248,185,187,144,85,43,28,28,70,62,16,14,1.7,1.3
2022-12-08T16:00:00,1320A,113.7329,34.7178,郑州市,经开区管委,细颗粒物(PM2.5),257,239,152,207,126,95,28,18,18,82,59,13,9,1.5,1
2022-12-08T16:00:00,1321A,113.73961,34.77172,郑州市,四十七中,颗粒物(PM10),151,252,149,,127,95,41,21,21,39,48,11,5,1.5,1
2022-12-08T16:00:00,1322A,113.60532,34.74838,郑州市,市监测站,细颗粒物(PM2.5),221,235,163,171,108,90,35,29,29,79,53,13,9,1.5,0.9
2022-12-08T16:00:00,1323A,113.64164,34.7525,郑州市,河医大,细颗粒物(PM2.5),251,246,153,201,127,79,14,21,21,103,59,16,12,1.8,1.1
2022-12-08T16:00:00,1324A,113.51488,34.91089,郑州市,岗李水库(对照点),,,,,,,,,,,,,,,,
2022-12-08T16:00:00,1325A,114.3677,30.5584,武汉市,东湖梨园,细颗粒物(PM2.5),70,53,64,51,56,40,26,27,27,52,51,6,7,0.9,1
2022-12-08T16:00:00,1326A,114.2529,30.558,武汉市,汉阳月湖,细颗粒物(PM2.5),58,54,70,41,58,39,25,24,24,54,56,6,7,0.6,0.7
2022-12-08T16:00:00,1327A,114.282,30.6189,武汉市,汉口花桥,,49,41,61,34,41,52,38,32,32,50,59,6,7,0.6,0.8
2022-12-08T16:00:00,1328A,114.3025,30.5332,武汉市,武昌紫阳,细颗粒物(PM2.5),62,51,65,44,58,41,40,28,28,46,61,7,8,0.7,0.8
2022-12-08T16:00:00,1329A,114.3646,30.6217,武汉市,青山钢花,颗粒物(PM10),53,55,65,36,45,56,44,33,33,55,62,9,10,0.5,0.6
2022-12-08T16:00:00,1330A,114.1566,30.4825,武汉市,沌口新区,,50,49,71,35,43,32,32,23,23,42,56,6,8,0.6,0.8
2022-12-08T16:00:00,1331A,114.3014,30.5944,武汉市,汉口江滩,细颗粒物(PM2.5),67,49,55,48,52,43,29,29,29,55,54,7,8,0.7,0.8
2022-12-08T16:00:00,1333A,114.135,30.6319,武汉市,吴家山,,46,38,66,32,45,62,44,35,35,49,60,8,8,0.7,0.8
2022-12-08T16:00:00,1334A,113.8454,30.2917,武汉市,沉湖七壕(对照点),,26,19,34,18,21,73,69,49,49,13,19,8,8,0.6,0.7
2022-12-08T16:00:00,1335A,113.0833,28.2325,长沙市,经开区环保局,细颗粒物(PM2.5),93,81,62,69,55,90,58,38,38,29,34,7,6,0.7,0.8
2022-12-08T16:00:00,1336A,112.8872,28.2189,长沙市,高开区环保局,细颗粒物(PM2.5),70,55,57,51,46,71,63,44,44,29,33,7,6,0.5,0.5
2022-12-08T16:00:00,1337A,113.0792,28.2053,长沙市,马坡岭,细颗粒物(PM2.5),84,61,63,62,54,60,55,37,37,33,39,8,7,0.7,0.7
2022-12-08T16:00:00,1338A,112.9394,28.19,长沙市,湖南师范大学,细颗粒物(PM2.5),69,57,54,50,47,64,62,43,43,27,36,4,3,0.6,0.6
2022-12-08T16:00:00,1339A,113.0178,28.1322,长沙市,雨花区环保局,细颗粒物(PM2.5),65,60,61,47,46,63,60,42,42,27,39,3,2,0.6,0.6
2022-12-08T16:00:00,1340A,112.9792,28.2597,长沙市,伍家岭,细颗粒物(PM2.5),74,72,72,54,48,67,64,46,46,31,34,6,5,0.8,0.8
2022-12-08T16:00:00,1341A,113.0014,28.1944,长沙市,火车新站,,,,62,,44,61,56,43,43,,39,,6,0.7,0.7
2022-12-08T16:00:00,1342A,112.9844,28.1178,长沙市,天心区环保局,细颗粒物(PM2.5),64,60,67,46,46,74,70,45,45,29,43,8,7,0.6,0.7
2022-12-08T16:00:00,1343A,112.8908,28.1308,长沙市,湖南中医药大学,细颗粒物(PM2.5),65,65,71,47,54,70,65,41,41,22,32,4,4,0.6,0.7
2022-12-08T16:00:00,1344A,112.9581,28.3611,长沙市,沙坪(对照点),细颗粒物(PM2.5),54,52,46,38,36,61,56,36,36,26,23,3,3,0.6,0.5
2022-12-08T16:00:00,1345A,113.2347,23.1423,广州市,广雅中学,颗粒物(PM10),52,54,53,26,26,79,79,43,43,38,44,6,6,0.9,0.9
2022-12-08T16:00:00,1346A,113.2612,23.105,广州市,市五中,,45,45,41,29,27,97,97,55,55,27,34,9,8,0.7,0.7
2022-12-08T16:00:00,1348A,113.3478,23.0916,广州市,广东商学院,,36,36,30,20,20,89,83,53,53,30,30,6,5,0.4,0.4
2022-12-08T16:00:00,1349A,113.4332,23.1047,广州市,市八十六中,,41,41,47,23,23,86,86,44,44,24,40,4,4,0.7,0.8
2022-12-08T16:00:00,1350A,113.3505,22.9483,广州市,番禺中学,颗粒物(PM10),52,53,38,28,22,99,99,51,51,33,43,8,8,0.6,0.6
2022-12-08T16:00:00,1351A,113.2146,23.3916,广州市,花都师范,,27,24,31,16,22,84,84,55,55,17,20,9,9,0.7,0.7
2022-12-08T16:00:00,1352A,113.2597,23.1331,广州市,市监测站,,46,46,46,22,23,93,93,53,53,31,41,8,7,0.6,0.6
2022-12-08T16:00:00,1353A,113.5618,23.312,广州市,九龙镇镇龙,,29,29,40,16,24,81,76,45,45,16,27,6,6,0.6,0.7
2022-12-08T16:00:00,1354A,113.2765,23.1544,广州市,麓湖,,36,36,38,20,22,90,90,52,52,20,32,5,5,0.6,0.6
2022-12-08T16:00:00,1355A,113.443,23.3035,广州市,帽峰山森林公园(对照点),,45,45,49,26,31,98,98,60,60,10,14,5,5,0.5,0.5
2022-12-08T16:00:00,1356A,114.1063,22.5545,深圳市,通心岭子站,颗粒物(PM10),56,61,23,29,9,163,163,69,69,28,27,3,2,0.6,0.6
2022-12-08T16:00:00,1357A,114.117,22.5625,深圳市,洪湖,臭氧1小时,69,66,39,40,20,175,175,76,76,28,28,8,7,0.6,0.6
2022-12-08T16:00:00,1358A,113.987,22.5417,深圳市,华侨城,颗粒物(PM10),66,81,39,47,21,120,118,65,65,60,38,7,6,0.8,0.7
2022-12-08T16:00:00,1359A,113.9181,22.5171,深圳市,南海子站,颗粒物(PM10),76,102,51,51,25,129,129,65,65,55,39,5,4,0.6,0.6
2022-12-08T16:00:00,1360A,114.2458,22.5689,深圳市,盐田,,42,42,26,27,16,78,78,39,39,33,25,8,6,0.6,0.5
2022-12-08T16:00:00,1361A,114.2283,22.7244,深圳市,龙岗,颗粒物(PM10),53,56,35,27,17,147,147,76,76,18,22,5,5,0.7,0.7
2022-12-08T16:00:00,1362A,113.8953,22.5861,深圳市,西乡,,,,,,,,,,,,,,,,
2022-12-08T16:00:00,1363A,114.494,22.5422,深圳市,南澳,,42,39,28,27,16,134,134,101,101,20,18,4,3,0.6,0.5
2022-12-08T16:00:00,1364A,114.41,22.6342,深圳市,葵涌,,30,30,24,20,16,92,90,58,58,16,19,6,6,0.7,0.7
2022-12-08T16:00:00,1365A,114.297,22.5978,深圳市,梅沙,,,54,31,32,17,110,108,77,77,,16,6,6,0.6,0.6
2022-12-08T16:00:00,1366A,114.0678,22.738,深圳市,观澜,颗粒物(PM10),61,71,56,35,25,122,122,76,76,31,38,7,7,0.6,0.6
2022-12-08T16:00:00,1367A,113.5814,22.2618,珠海市,吉大,细颗粒物(PM2.5),63,48,43,45,24,137,137,77,77,51,33,8,8,0.7,0.8
2022-12-08T16:00:00,1368A,113.4881,22.2335,珠海市,前山,,46,46,43,25,21,102,102,57,57,32,48,8,9,0.6,0.7
2022-12-08T16:00:00,1369A,113.628,22.4251,珠海市,唐家,细颗粒物(PM2.5),63,49,41,45,28,162,162,82,82,25,34,10,9,0.4,0.4
2022-12-08T16:00:00,1370A,113.299,22.2281,珠海市,斗门,细颗粒物(PM2.5),64,71,43,46,45,108,108,58,58,34,48,11,12,0.6,0.7
2022-12-08T16:00:00,1371A,113.1294,23.0067,佛山市,湾梁,,46,46,39,22,21,110,102,61,61,28,36,9,8,0.5,0.5
2022-12-08T16:00:00,1372A,113.1083,23.0478,佛山市,华材职中,,39,39,40,23,25,95,84,54,54,26,40,8,8,0.5,0.6
2022-12-08T16:00:00,1373A,113.144,23.0453,佛山市,南海气象局,颗粒物(PM10),57,63,39,25,22,84,84,44,44,30,37,6,5,0.6,0.6
2022-12-08T16:00:00,1374A,113.2881,22.8094,佛山市,顺德苏岗,,49,49,27,24,17,90,90,46,46,35,44,7,7,0.6,0.6
2022-12-08T16:00:00,1375A,113.2544,22.7642,佛山市,容桂街道办,,,,,,,,,,,,,,,,
2022-12-08T16:00:00,1376A,112.8383,22.8678,佛山市,高明孔堂,,48,38,39,33,24,80,68,44,44,25,28,9,7,0.5,0.6
2022-12-08T16:00:00,1377A,112.8836,23.1588,佛山市,三水监测站,,36,31,34,25,30,70,68,40,40,18,34,9,11,0.7,0.7
2022-12-08T16:00:00,1378A,112.867,23.185,佛山市,三水云东海,,32,27,27,22,21,75,70,44,44,18,28,7,6,0.6,0.8
2022-12-08T16:00:00,1379A,113.3769,22.5211,中山市,华柏园,颗粒物(PM10),58,66,44,33,25,74,74,41,41,46,52,8,9,0.5,0.5
2022-12-08T16:00:00,1380A,113.3881,22.5497,中山市,张溪,颗粒物(PM10),55,59,46,37,28,75,75,42,42,38,46,9,10,0.6,0.6
2022-12-08T16:00:00,1381A,113.4075,22.5111,中山市,紫马岭,"颗粒物(PM10),细颗粒物(PM2.5)",53,55,42,37,22,72,71,44,44,37,41,12,11,0.6,0.7
2022-12-08T16:00:00,1382A,113.4411,22.4853,中山市,长江旅游区(对照点),,,,,,,,,,,,,,,,
2022-12-08T16:00:00,1383A,113.1064,22.6058,江门市,北街,颗粒物(PM10),53,55,48,32,25,108,108,60,60,44,50,9,9,0.8,0.8
2022-12-08T16:00:00,1384A,113.0731,22.5835,江门市,西区,颗粒物(PM10),53,56,52,28,27,114,110,65,65,42,52,8,8,0.6,0.7
2022-12-08T16:00:00,1385A,113.0219,22.5311,江门市,圭峰西,细颗粒物(PM2.5),60,66,40,43,26,116,112,73,73,44,41,8,6,0.7,0.6
2022-12-08T16:00:00,1386A,113.0828,22.5947,江门市,东湖,颗粒物(PM10),56,62,48,31,27,117,117,67,67,37,45,8,7,0.7,0.7
2022-12-08T16:00:00,1387A,113.7875,23.0457,东莞市,东城主山,,,,,,,,,,,,,,,,
2022-12-08T16:00:00,1388A,113.7533,23.0202,东莞市,南城元岭,,,,,,,,,,,,,,,,
2022-12-08T16:00:00,1389A,113.7547,23.0494,东莞市,莞城梨川,,40,40,31,28,29,92,89,58,58,28,34,8,9,0.8,0.8
2022-12-08T16:00:00,1390A,113.7944,23.0128,东莞市,东城石井,,30,30,32,18,19,108,95,64,64,18,26,11,12,0.5,0.6
2022-12-08T16:00:00,1391A,113.7383,22.9658,东莞市,南城西平,,45,45,37,23,19,107,96,66,66,23,38,9,10,0.7,0.7
2022-12-08T16:00:00,1392A,114.4183,23.0528,惠州市,河南岸金山湖子站,,37,37,26,23,15,82,82,47,47,17,18,7,8,0.4,0.5
2022-12-08T16:00:00,1393A,114.4053,23.0822,惠州市,下埔横江三路子站,,45,45,26,23,17,88,88,52,52,16,18,8,9,0.5,0.5
2022-12-08T16:00:00,1394A,114.4103,23.1142,惠州市,江北云山西路子站,,39,39,24,26,18,87,87,51,51,14,13,5,7,0.5,0.5
2022-12-08T16:00:00,1395A,114.4645,22.7833,惠州市,惠阳区承修路船湖子站,,46,46,36,23,20,88,88,55,55,15,18,4,5,0.5,0.5
2022-12-08T16:00:00,1396A,114.5317,22.7422,惠州市,大亚湾管委会子站,,38,38,29,18,18,86,86,54,54,19,21,5,4,0.7,0.7
2022-12-08T16:00:00,1397A,112.4267,23.0706,肇庆市,睦岗子站,,31,31,39,18,21,78,62,38,38,31,46,7,8,0.7,0.8
2022-12-08T16:00:00,1398A,112.4645,23.0475,肇庆市,城中子站,,32,32,33,19,19,84,59,48,48,35,26,10,11,0.7,0.7
2022-12-08T16:00:00,1399A,112.5544,23.1522,肇庆市,坑口子站,,39,39,31,24,18,81,73,41,41,26,29,7,7,0.7,0.7
2022-12-08T16:00:00,1400A,112.4753,23.1,肇庆市,七星岩子站(对照点),,32,32,31,18,16,84,62,38,38,20,21,5,4,0.5,0.5
2022-12-08T16:00:00,1401A,108.3103,22.7881,南宁市,二十一中,颗粒物(PM10),56,61,58,37,38,57,50,46,41,24,27,13,13,0.7,0.8
2022-12-08T16:00:00,1402A,108.3141,22.8528,南宁市,北湖,,,52,66,33,44,63,62,46,46,14,28,,21,0.8,0.8
2022-12-08T16:00:00,1403A,108.3206,22.8225,南宁市,市监测站,颗粒物(PM10),53,55,65,35,41,57,53,39,39,27,40,11,18,0.7,0.7
2022-12-08T16:00:00,1404A,108.3829,22.8037,南宁市,大自然花园,,47,47,56,31,36,57,54,45,42,16,26,6,12,0.8,0.9
2022-12-08T16:00:00,1405A,108.4394,22.7904,南宁市,仙葫(对照点),,,97,59,36,36,49,,42,38,24,28,10,12,,0.6
2022-12-08T16:00:00,1406A,108.2397,22.8467,南宁市,区农职院,颗粒物(PM10),51,52,59,29,36,62,62,49,49,19,32,13,11,0.6,0.7
2022-12-08T16:00:00,1407A,108.3275,22.735,南宁市,英华嘉园,"颗粒物(PM10),细颗粒物(PM2.5)",52,53,62,36,40,54,50,35,35,24,33,11,12,0.7,0.7
2022-12-08T16:00:00,1408A,108.2257,22.7757,南宁市,沙井镇街道办,颗粒物(PM10),56,62,69,34,38,44,43,34,34,26,44,8,10,0.8,0.8
2022-12-08T16:00:00,1409A,110.576,19.9507,海口市,东寨港(对照点),,,,,,,,,,,,,,,,
2022-12-08T16:00:00,1410A,110.3232,20.0574,海口市,海南大学,,43,43,32,25,17,124,124,90,81,12,12,5,5,0.7,0.7
2022-12-08T16:00:00,1411A,110.283,20.0053,海口市,秀英海南医院,,43,43,36,27,15,124,124,92,79,16,17,6,6,0.7,0.7
2022-12-08T16:00:00,1412A,110.338,19.9969,海口市,海南师范大学,,,47,37,17,14,107,107,94,76,16,15,6,5,,0.6
2022-12-08T16:00:00,1413A,110.33,20.0356,海口市,龙华路环保局宿舍,,41,41,34,24,15,121,121,88,78,14,15,5,5,0.7,0.7
2022-12-08T16:00:00,1414A,106.3787,29.8279,重庆市,缙云山(对照点),细颗粒物(PM2.5),63,60,54,45,35,63,24,56,17,31,23,7,7,0.6,0.5
2022-12-08T16:00:00,1416A,106.4213,29.8253,重庆市,天生,细颗粒物(PM2.5),78,81,118,57,94,20,20,10,10,38,33,10,16,0.7,0.8
2022-12-08T16:00:00,1417A,106.6263,29.7228,重庆市,两路,细颗粒物(PM2.5),73,85,63,53,43,19,12,12,11,58,37,10,8,0.9,0.7
2022-12-08T16:00:00,1418A,106.2953,29.5983,重庆市,虎溪,细颗粒物(PM2.5),97,81,99,72,95,23,17,14,14,38,35,12,13,0.9,0.9
2022-12-08T16:00:00,1419A,106.5777,29.5102,重庆市,南坪,细颗粒物(PM2.5),67,71,62,48,45,21,16,13,10,55,43,13,6,1.5,1.3
2022-12-08T16:00:00,1420A,106.6556,29.6277,重庆市,唐家沱,,,,67,,52,24,8,6,6,60,39,10,9,1.0,0.8
2022-12-08T16:00:00,1421A,106.6349,29.4906,重庆市,茶园,颗粒物(PM10),67,83,78,44,50,26,26,19,19,50,41,12,8,1.0,0.8
2022-12-08T16:00:00,1422A,106.3754,29.4572,重庆市,白市驿,细颗粒物(PM2.5),84,102,97,62,58,12,12,7,7,52,41,11,9,0.7,0.8
2022-12-08T16:00:00,1425A,106.6205,29.7166,重庆市,空港,细颗粒物(PM2.5),92,48,61,68,50,16,7,15,8,52,33,12,11,1.0,0.8
2022-12-08T16:00:00,1426A,106.4782,29.4875,重庆市,新山村,细颗粒物(PM2.5),77,95,76,56,50,11,10,8,8,59,52,8,6,0.8,0.8
2022-12-08T16:00:00,1427A,106.5616,29.6453,重庆市,礼嘉,颗粒物(PM10),68,86,70,47,41,21,11,20,7,60,44,10,9,1.2,1.1
2022-12-08T16:00:00,1428A,106.4522,29.7091,重庆市,蔡家,细颗粒物(PM2.5),79,78,81,58,55,22,22,10,10,40,40,12,7,0.6,0.7
2022-12-08T16:00:00,1429A,106.5093,29.3917,重庆市,鱼新街,细颗粒物(PM2.5),112,97,73,84,55,17,10,17,8,49,36,24,10,1.5,1.3
2022-12-08T16:00:00,1431A,103.9728,30.7236,成都市,金泉两河,细颗粒物(PM2.5),103,101,88,77,65,63,63,30,30,29,43,3,2,0.6,0.7
2022-12-08T16:00:00,1432A,104.1419,30.6764,成都市,十里店,颗粒物(PM10),67,84,74,47,56,52,46,23,23,41,49,4,4,0.6,0.7
2022-12-08T16:00:00,1433A,104.0594,30.5767,成都市,三瓦窑,细颗粒物(PM2.5),77,72,85,56,53,52,47,19,19,30,43,2,2,0.6,0.7
2022-12-08T16:00:00,1434A,104.1122,30.6306,成都市,沙河铺,细颗粒物(PM2.5),88,99,82,65,54,44,44,15,15,34,42,2,2,0.6,0.8
2022-12-08T16:00:00,1437A,104.0431,30.6556,成都市,君平街,细颗粒物(PM2.5),89,80,82,66,63,49,47,27,27,43,49,3,2,0.6,0.7
2022-12-08T16:00:00,1438A,103.6202,31.0201,成都市,灵岩寺(对照点),细颗粒物(PM2.5),57,61,47,40,41,76,75,71,55,18,17,2,4,0.5,0.5
2022-12-08T16:00:00,1439A,106.6899,26.5998,贵阳市,马鞍山,细颗粒物(PM2.5),85,68,56,63,49,37,29,30,17,24,22,12,8,0.8,0.7
2022-12-08T16:00:00,1440A,106.6971,26.5694,贵阳市,市环保站,细颗粒物(PM2.5),77,73,61,56,49,35,32,33,16,24,24,12,8,0.6,0.5
2022-12-08T16:00:00,1441A,106.6243,26.6266,贵阳市,鉴湖路,细颗粒物(PM2.5),64,61,63,46,42,47,47,30,29,24,25,11,8,1.0,0.9
2022-12-08T16:00:00,1442A,106.7487,26.6343,贵阳市,燕子冲,,,78,64,68,56,40,25,31,12,,16,8,7,0.5,0.7
2022-12-08T16:00:00,1443A,106.6555,26.4365,贵阳市,碧云窝,细颗粒物(PM2.5),89,85,72,66,49,32,26,24,14,33,29,18,18,0.7,0.6
2022-12-08T16:00:00,1444A,106.694,26.5161,贵阳市,中院村,细颗粒物(PM2.5),83,85,69,61,48,32,30,28,16,28,29,14,15,0.7,0.6
2022-12-08T16:00:00,1445A,106.7109,26.6027,贵阳市,红边门,细颗粒物(PM2.5),83,73,68,61,54,40,32,36,18,22,24,12,12,0.7,0.7
2022-12-08T16:00:00,1446A,106.7164,26.5699,贵阳市,新华路,细颗粒物(PM2.5),79,83,73,58,48,35,31,35,18,20,18,7,7,0.6,0.6
2022-12-08T16:00:00,1447A,106.674,26.5424,贵阳市,太慈桥,细颗粒物(PM2.5),79,90,74,58,46,29,29,28,16,30,29,14,9,0.7,0.6
2022-12-08T16:00:00,1450A,102.8204,24.8886,昆明市,呈贡新区,,26,21,20,7,9,84,81,73,73,7,13,4,8,0.5,0.6
2022-12-08T16:00:00,1451A,102.6251,24.9608,昆明市,西山森林公园(对照点),,29,11,13,8,7,95,91,83,83,5,6,8,9,0.6,0.6
2022-12-08T16:00:00,1452A,102.7252,25.0902,昆明市,龙泉镇,,25,11,31,3,13,84,78,61,61,8,32,5,6,0.4,0.6
2022-12-08T16:00:00,1453A,102.7266,25.0375,昆明市,东风东路,,27,18,19,7,8,86,86,66,66,15,18,10,8,0.5,0.4
2022-12-08T16:00:00,1454A,102.6742,25.0669,昆明市,金鼎山,,24,17,22,5,14,76,75,61,61,9,18,6,8,0.2,0.3
2022-12-08T16:00:00,1455A,102.6644,25.0401,昆明市,碧鸡广场,,26,16,25,4,13,81,81,66,66,9,23,8,8,0.5,0.5
2022-12-08T16:00:00,1456A,91.1319,29.6514,拉萨市,八廓街,,30,14,21,0,9,94,93,69,69,10,16,6,6,0.3,0.4
2022-12-08T16:00:00,1457A,91.1221,29.6747,拉萨市,市环保局,,28,14,31,2,16,92,89,61,61,8,24,4,6,0.3,0.8
2022-12-08T16:00:00,1458A,91.0874,29.6475,拉萨市,区监测站,,30,11,16,3,8,94,94,72,72,6,18,10,10,0.2,0.4
2022-12-08T16:00:00,1459A,91.1774,29.6541,拉萨市,西藏大学,,31,8,20,2,7,100,99,76,76,10,16,10,11,0.3,0.4
2022-12-08T16:00:00,1460A,90.9798,29.6588,拉萨市,区辐射站,,,12,1,,12,86,81,58,58,,25,,8,0.8,0.8
2022-12-08T16:00:00,1461A,91.0834,29.6292,拉萨市,拉萨火车站,,26,20,17,1,5,86,82,59,59,11,18,8,8,0.2,0.3
2022-12-08T16:00:00,1462A,108.882,34.2749,西安市,高压开关厂,细颗粒物(PM2.5),125,166,275,95,193,80,80,48,48,37,78,10,13,0.8,1.3
2022-12-08T16:00:00,1463A,108.993,34.2629,西安市,兴庆小区,细颗粒物(PM2.5),94,136,219,70,177,79,75,44,44,40,74,12,11,0.8,1.3
2022-12-08T16:00:00,1464A,109.06,34.2572,西安市,纺织城,颗粒物(PM10),103,156,233,67,150,81,81,39,39,39,65,13,12,0.8,1.3
2022-12-08T16:00:00,1465A,108.9356,34.2173,西安市,小寨,颗粒物(PM10),84,117,253,60,170,88,88,55,55,34,93,12,13,0.8,1.5
2022-12-08T16:00:00,1466A,108.954,34.2713,西安市,市人民体育场,颗粒物(PM10),102,154,249,75,172,79,79,48,48,48,108,,11,0.8,1.5
2022-12-08T16:00:00,1467A,108.8922,34.2322,西安市,高新西区,,,,252,,190,23,,19,,,88,,13,,1.9
2022-12-08T16:00:00,1468A,108.935,34.3474,西安市,经开区,细颗粒物(PM2.5),115,148,221,87,190,71,71,47,47,44,76,12,14,0.8,1.3
2022-12-08T16:00:00,1469A,108.906,34.1546,西安市,长安区,颗粒物(PM10),93,136,261,66,182,93,93,58,58,25,77,11,10,0.9,1.7
2022-12-08T16:00:00,1470A,109.2,34.6575,西安市,阎良区,,,,,,,,,,,,,,,,
2022-12-08T16:00:00,1471A,109.2186,34.3731,西安市,临潼区,颗粒物(PM10),121,192,232,79,159,71,57,49,38,44,65,11,12,1.0,1.7
2022-12-08T16:00:00,1472A,108.869,34.378,西安市,草滩(对照点),细颗粒物(PM2.5),133,149,231,101,197,77,71,38,38,45,79,19,14,1.3,2.1
2022-12-08T16:00:00,1473A,108.985,34.1978,西安市,曲江文化产业集团,颗粒物(PM10),104,158,263,,177,93,93,57,57,35,86,11,10,0.6,1.3
2022-12-08T16:00:00,1474A,109.051,34.3213,西安市,广运潭,细颗粒物(PM2.5),103,153,232,77,174,71,71,42,42,38,70,11,12,0.9,1.4
2022-12-08T16:00:00,1476A,103.631,36.1031,兰州市,兰炼宾馆,颗粒物(PM10),88,125,131,63,55,76,76,64,51,48,48,20,19,0.7,0.8
2022-12-08T16:00:00,1477A,104.1373,35.9454,兰州市,榆中兰大校区(对照点),,,,,,,,,,,,,,,,
2022-12-08T16:00:00,1478A,103.8412,36.0726,兰州市,生物制品所,颗粒物(PM10),77,103,120,54,50,80,67,43,43,40,43,18,16,0.7,0.5
2022-12-08T16:00:00,1479A,103.831,36.0464,兰州市,铁路设计院,颗粒物(PM10),82,113,121,56,52,83,82,56,48,42,47,22,23,1.0,1
2022-12-08T16:00:00,1480A,101.748,36.6428,西宁市,市环境监测站,,,,,,,,,,,,,,,,
2022-12-08T16:00:00,1482A,101.834,36.5819,西宁市,四陆医院,,,,,,,,,,,,,,,,
2022-12-08T16:00:00,1483A,101.524,36.6867,西宁市,第五水厂(对照点),,,,,,,,,,,,,,,,
2022-12-08T16:00:00,1484A,105.9512,38.6016,银川市,贺兰山马莲口(对照点),颗粒物(PM10),55,59,80,26,44,74,74,62,62,30,39,32,29,0.3,0.6
2022-12-08T16:00:00,1488A,106.2328,38.4975,银川市,贺兰山东路,颗粒物(PM10),71,92,110,45,56,84,76,44,44,32,64,26,27,0.8,1.3
2022-12-08T16:00:00,1489A,106.1358,38.5036,银川市,学院路,颗粒物(PM10),76,101,130,39,57,69,68,45,45,28,60,31,27,0.9,1.8
2022-12-08T16:00:00,1490A,87.5801,43.8303,乌鲁木齐市,监测站,细颗粒物(PM2.5),132,150,153,100,103,22,21,14,14,61,73,,5,1.4,1.6
2022-12-08T16:00:00,1491A,87.6046,43.768,乌鲁木齐市,收费所,,,,137,,109,33,19,18,18,71,73,5,2,1.4,1.4
2022-12-08T16:00:00,1492A,87.4754,43.9469,乌鲁木齐市,新疆农科院农场(对照点),细颗粒物(PM2.5),215,157,127,165,135,37,29,14,14,33,50,4,5,1.5,1.6
2022-12-08T16:00:00,1493A,87.5525,43.8711,乌鲁木齐市,铁路局,细颗粒物(PM2.5),178,164,161,134,132,29,27,16,16,53,67,3,3,1.2,1.4
2022-12-08T16:00:00,1494A,87.6432,43.831,乌鲁木齐市,三十一中学,细颗粒物(PM2.5),186,187,170,140,120,18,18,12,12,59,62,3,3,1.5,1.5
2022-12-08T16:00:00,1496A,87.7216,44.1747,乌鲁木齐市,米东区环保局,细颗粒物(PM2.5),179,194,160,135,116,50,50,28,26,17,34,14,9,1.3,1.3
2022-12-08T16:00:00,1508A,112.9433,27.8614,湘潭市,板塘,细颗粒物(PM2.5),64,62,57,46,50,71,71,47,47,28,41,2,4,0.7,0.5
2022-12-08T16:00:00,1511A,112.9118,27.8403,湘潭市,市监测站,细颗粒物(PM2.5),64,63,72,46,54,61,61,38,38,32,37,7,7,0.3,0.4
2022-12-08T16:00:00,1512A,112.8937,27.8728,湘潭市,江麓,细颗粒物(PM2.5),58,48,65,41,56,69,69,44,44,23,38,5,8,0.5,0.8
2022-12-08T16:00:00,1513A,112.9227,27.8159,湘潭市,岳塘,细颗粒物(PM2.5),62,61,68,44,54,68,68,44,44,35,40,2,3,0.6,0.7
2022-12-08T16:00:00,1514A,112.9074,27.9119,湘潭市,科大,,,55,50,,73,63,62,36,36,28,35,3,3,,0.2
2022-12-08T16:00:00,1515A,113.135,27.8244,株洲市,天台山庄,细颗粒物(PM2.5),72,50,64,52,50,54,37,36,36,49,45,5,6,0.6,0.7
2022-12-08T16:00:00,1518A,113.095,27.8867,株洲市,株冶医院,细颗粒物(PM2.5),73,66,66,53,49,58,57,39,39,50,44,4,5,0.9,0.8
2022-12-08T16:00:00,1519A,113.167,27.8667,株洲市,市四中,细颗粒物(PM2.5),70,48,61,51,55,59,51,38,38,39,41,4,6,0.4,0.6
2022-12-08T16:00:00,1520A,113.143,27.8381,株洲市,火车站,细颗粒物(PM2.5),70,66,69,51,54,55,41,36,36,43,44,8,9,0.8,0.9
2022-12-08T16:00:00,1524A,113.13,27.8528,株洲市,市监测站,细颗粒物(PM2.5),72,66,67,52,52,60,48,40,40,50,50,10,8,0.8,0.9
2022-12-08T16:00:00,1552A,106.805,26.3003,贵阳市,桐木岭(对照点),,,,,,,,,,,,,,,,
2022-12-08T16:00:00,1559A,113.251,27.8336,株洲市,大京风景区(对照点),,39,39,50,26,41,74,72,46,46,16,21,4,4,0.4,0.5
2022-12-08T16:00:00,1562A,113.0048,27.9153,湘潭市,昭山,细颗粒物(PM2.5),72,62,74,52,56,67,67,35,35,33,40,4,3,0.3,0.4
2022-12-08T16:00:00,1564A,112.4876,27.9164,湘潭市,韶山(对照点),,44,44,38,24,29,80,79,59,59,18,17,5,6,0.3,0.4
2022-12-08T16:00:00,1585A,109.8756,40.6532,包头市,市环境监测站,颗粒物(PM10),65,79,69,44,36,67,47,59,42,42,41,53,28,1.8,1.2
2022-12-08T16:00:00,1587A,109.9991,40.5842,包头市,包头八中,颗粒物(PM10),58,66,97,29,50,61,57,36,36,27,58,13,22,0.6,1.2
2022-12-08T16:00:00,1588A,109.8538,40.6821,包头市,青山宾馆,颗粒物(PM10),85,119,87,57,49,64,42,58,38,60,48,55,30,3.5,1.7
2022-12-08T16:00:00,1589A,109.8642,40.6288,包头市,惠龙物流,细颗粒物(PM2.5),73,85,96,53,47,66,51,66,33,37,46,44,31,0.9,1.1
2022-12-08T16:00:00,1590A,110.0377,40.5546,包头市,东河鸿龙湾,颗粒物(PM10),54,58,84,13,43,68,68,43,43,15,52,13,19,0.5,1.1
2022-12-08T16:00:00,1591A,110.0023,39.8129,鄂尔多斯市,综合楼,,46,46,65,12,25,71,71,62,57,13,36,8,19,0.6,0.8
2022-12-08T16:00:00,1592A,109.9486,39.8261,鄂尔多斯市,巴音孟克林场办事处,,39,39,62,14,28,79,79,62,61,8,35,7,17,0.5,0.6
2022-12-08T16:00:00,1593A,109.7736,39.5986,鄂尔多斯市,康泽苑,,36,36,59,9,23,78,76,63,63,12,26,7,11,0.6,0.7
2022-12-08T16:00:00,1594A,109.8119,39.5989,鄂尔多斯市,华泰汽车城,,41,41,61,14,30,82,82,66,66,10,33,10,14,0.5,0.7
2022-12-08T16:00:00,1595A,109.9734,39.7884,鄂尔多斯市,奥林花园,,46,46,64,14,23,79,79,70,56,9,33,7,17,0.4,0.6
2022-12-08T16:00:00,1596A,122.2414,40.6592,营口市,学府南路(停运211214),,,,,,,,,,,,,,,,
2022-12-08T16:00:00,1597A,122.2703,40.7094,营口市,大庆路,,44,44,155,16,86,66,58,36,36,30,57,16,45,0.8,3.5
2022-12-08T16:00:00,1598A,122.2150,40.6511,营口市,镜湖西路,颗粒物(PM10),56,61,96,14,52,72,64,47,47,20,60,7,23,1.2,1.8
2022-12-08T16:00:00,1599A,122.1658,40.6789,营口市,西炮台,,23,23,98,12,61,62,58,40,40,28,64,7,31,0.9,2.3
2022-12-08T16:00:00,1600A,124.3303,40.0625,丹东市,江湾东路,,42,42,95,25,66,57,57,33,33,19,45,15,35,0.9,2.4
2022-12-08T16:00:00,1601A,124.4256,40.1503,丹东市,临江后街,,26,26,101,16,72,59,59,34,34,17,46,15,31,0.7,1.8
2022-12-08T16:00:00,1602A,124.3933,40.1461,丹东市,元宝山,颗粒物(PM10),61,71,107,28,66,44,44,22,22,35,54,26,31,1.3,1.5
2022-12-08T16:00:00,1603A,124.3633,40.1092,丹东市,民主桥,颗粒物(PM10),53,56,89,28,55,54,54,27,27,25,54,30,27,1.5,1.7
2022-12-08T16:00:00,1604A,122.0303,41.1489,盘锦市,开发区,颗粒物(PM10),59,68,90,18,58,58,51,48,48,38,60,14,25,0.7,1.3
2022-12-08T16:00:00,1605A,122.0485,41.0883,盘锦市,兴隆台,,33,33,74,17,44,61,54,44,44,30,56,13,24,1.1,1.4
2022-12-08T16:00:00,1606A,121.8297,41.1028,盘锦市,新生街道,颗粒物(PM10),51,51,62,20,41,62,45,46,46,48,55,32,22,0.8,1
2022-12-08T16:00:00,1607A,120.9092,40.7136,葫芦岛市,龙港区,细颗粒物(PM2.5),67,59,106,48,56,58,43,41,41,48,50,43,132,1.3,1.5
2022-12-08T16:00:00,1608A,120.8392,40.7514,葫芦岛市,化工街,颗粒物(PM10),85,119,91,46,58,63,32,42,42,61,57,168,58,1.6,1.2
2022-12-08T16:00:00,1609A,120.8341,40.7073,葫芦岛市,新区,"颗粒物(PM10),细颗粒物(PM2.5)",57,63,81,40,47,55,34,39,39,52,58,29,55,1.5,1.3
2022-12-08T16:00:00,1610A,120.8695,40.7677,葫芦岛市,东城区,细颗粒物(PM2.5),64,72,94,46,47,62,33,44,44,60,50,39,56,1.6,1.4
2022-12-08T16:00:00,1611A,118.5819,24.9117,泉州市,涂山街,,36,36,28,10,12,97,84,79,79,12,12,7,7,0.5,0.5
2022-12-08T16:00:00,1612A,118.5972,24.8978,泉州市,津头埔,,37,37,28,13,14,86,73,72,72,27,17,7,7,0.5,0.5
2022-12-08T16:00:00,1613A,118.6663,24.9424,泉州市,万安,,43,43,28,25,17,101,97,84,84,18,12,8,8,0.5,0.4
2022-12-08T16:00:00,1614A,118.6117,24.9604,泉州市,清源山(对照点),,,,,,,,,,,,,,,,
2022-12-08T16:00:00,1616A,117.6795,36.229,济南市,技术学院,细颗粒物(PM2.5),90,85,193,67,120,99,97,57,57,28,76,11,16,0.9,1.8
2022-12-08T16:00:00,1618A,118.3429,35.0532,临沂市,沂河小区,细颗粒物(PM2.5),224,224,186,174,141,82,8,10,10,84,74,19,17,1.5,1.4
2022-12-08T16:00:00,1619A,118.295,35.0583,临沂市,鲁南制药厂,细颗粒物(PM2.5),196,197,194,147,134,77,8,14,8,96,92,21,29,1.8,2
2022-12-08T16:00:00,1620A,118.2794,34.9976,临沂市,新光毛纺厂,细颗粒物(PM2.5),182,200,202,137,135,82,9,8,8,88,99,13,20,1.6,1.8
2022-12-08T16:00:00,1621A,118.3956,35.0888,临沂市,河东保险公司,细颗粒物(PM2.5),223,215,206,173,150,65,8,9,9,87,87,16,16,1.6,1.7
2022-12-08T16:00:00,1622A,116.3032,37.4674,德州市,儿童乐园,细颗粒物(PM2.5),274,321,243,224,171,54,16,14,14,113,79,27,16,1.6,1.4
2022-12-08T16:00:00,1624A,116.2991,37.4451,德州市,监理站,细颗粒物(PM2.5),277,302,242,227,177,52,22,17,17,93,73,25,17,1.3,1.3
2022-12-08T16:00:00,1625A,115.9848,36.4372,聊城市,区政府,细颗粒物(PM2.5),236,237,151,186,106,75,48,41,41,59,51,18,25,1.2,0.9
2022-12-08T16:00:00,1628A,118.0062,37.3803,滨州市,市环保局,细颗粒物(PM2.5),207,229,239,157,153,66,39,40,40,74,86,32,39,1.7,1.8
2022-12-08T16:00:00,1629A,118.0018,37.3617,滨州市,第二水厂,细颗粒物(PM2.5),183,205,218,138,138,62,42,42,42,75,86,33,43,1.6,1.6
2022-12-08T16:00:00,1630A,117.9776,37.393,滨州市,北中新校,细颗粒物(PM2.5),199,212,214,149,145,68,36,41,41,78,84,30,32,1.5,1.5
2022-12-08T16:00:00,1631A,118.0414,36.8103,淄博市,人民公园,细颗粒物(PM2.5),135,124,181,103,118,75,75,46,46,36,74,26,23,0.9,1.4
2022-12-08T16:00:00,1632A,118.0253,36.8406,淄博市,东风化工厂,,,,,,,,,,,,,,,,
2022-12-08T16:00:00,1633A,117.8525,36.4847,淄博市,双山,细颗粒物(PM2.5),92,97,135,68,95,90,74,62,62,35,49,9,13,0.9,1.3
2022-12-08T16:00:00,1634A,117.9592,36.6331,淄博市,气象站,细颗粒物(PM2.5),89,119,158,66,88,87,66,55,55,42,59,20,23,1.1,1.3
2022-12-08T16:00:00,1635A,118.3092,36.8194,淄博市,莆田园,细颗粒物(PM2.5),113,114,165,85,95,86,61,56,56,47,57,20,19,0.7,2.6
2022-12-08T16:00:00,1636A,117.8661,36.805,淄博市,三金集团,,,,,,,,,,,,,,,,
2022-12-08T16:00:00,1637A,117.558,34.8438,枣庄市,市中区政府,细颗粒物(PM2.5),113,149,180,85,106,87,66,46,46,50,76,37,28,1.0,1.2
2022-12-08T16:00:00,1638A,117.2852,34.7837,枣庄市,薛城环保局,细颗粒物(PM2.5),98,125,135,73,89,78,78,55,51,47,70,18,18,1.1,1.2
2022-12-08T16:00:00,1639A,117.5852,34.7745,枣庄市,峄城区政府,颗粒物(PM10),108,166,204,80,109,81,60,36,36,56,78,28,22,0.8,1.1
2022-12-08T16:00:00,1640A,117.7276,34.5578,枣庄市,台儿庄区环保局,细颗粒物(PM2.5),170,193,182,129,124,61,43,23,23,70,84,18,17,1.5,1.6
2022-12-08T16:00:00,1641A,117.4518,35.0992,枣庄市,山亭区环保局,细颗粒物(PM2.5),95,114,118,71,78,87,86,71,71,38,46,16,16,1.0,1.1
2022-12-08T16:00:00,1642A,121.2514,37.5639,烟台市,开发区,细颗粒物(PM2.5),128,139,126,97,83,68,60,38,38,60,66,20,16,1.3,1.4
2022-12-08T16:00:00,1643A,121.3719,37.5433,烟台市,轴承厂,细颗粒物(PM2.5),158,149,114,120,83,72,60,55,55,55,54,22,18,1.2,1.1
2022-12-08T16:00:00,1644A,121.3181,37.5436,烟台市,西郊化工站,细颗粒物(PM2.5),122,151,133,92,77,78,64,43,43,63,62,23,22,1.4,1.6
2022-12-08T16:00:00,1645A,121.4478,37.4822,烟台市,莱山环保局,细颗粒物(PM2.5),127,149,121,96,80,80,52,47,47,64,51,17,17,1.2,1.2
2022-12-08T16:00:00,1646A,121.2611,37.4967,烟台市,福山环保局,细颗粒物(PM2.5),132,171,151,100,86,62,58,33,33,68,66,20,15,1.5,2
2022-12-08T16:00:00,1648A,119.12,36.7019,潍坊市,仲裁委,,,,,,,,,,,,,,,,
2022-12-08T16:00:00,1650A,119.1437,36.7023,潍坊市,环保局,细颗粒物(PM2.5),115,127,153,87,102,106,101,59,59,36,67,13,15,0.7,1.2
2022-12-08T16:00:00,1652A,119.1936,36.7729,潍坊市,寒亭监测站,,,,,,,,,,,,,,,,
2022-12-08T16:00:00,1653A,116.6251,35.4302,济宁市,火炬城,细颗粒物(PM2.5),110,94,113,83,100,101,100,66,66,16,43,15,15,0.7,0.9
2022-12-08T16:00:00,1655A,116.5491,35.4042,济宁市,电化厂,细颗粒物(PM2.5),94,96,120,70,92,103,100,68,68,27,44,17,20,0.8,1
2022-12-08T16:00:00,1656A,117.1437,36.1937,泰安市,监测站,细颗粒物(PM2.5),127,119,154,96,113,102,101,62,62,30,56,14,13,1.0,1.4
2022-12-08T16:00:00,1657A,117.0885,36.2017,泰安市,人口学校,,,,119,,85,73,73,56,56,,42,12,12,0.7,0.6
2022-12-08T16:00:00,1658A,117.1089,36.1758,泰安市,电力学校,细颗粒物(PM2.5),129,119,165,98,120,104,101,56,56,18,55,16,16,0.8,1.5
2022-12-08T16:00:00,1659A,119.471,35.4209,日照市,监测站,细颗粒物(PM2.5),129,161,175,98,109,44,4,5,5,98,82,22,20,1.6,2.3
2022-12-08T16:00:00,1660A,119.523,35.4216,日照市,市政府广场,细颗粒物(PM2.5),103,124,140,77,91,73,38,16,16,57,66,14,12,1.4,1.8
2022-12-08T16:00:00,1661A,119.5587,35.4044,日照市,港务局,细颗粒物(PM2.5),114,156,152,86,91,82,7,9,9,106,86,17,14,1.5,1.7
2022-12-08T16:00:00,1662A,122.1214,37.4236,威海市,华夏技校,细颗粒物(PM2.5),95,100,77,71,55,107,84,76,76,30,29,10,10,0.5,0.4
2022-12-08T16:00:00,1663A,122.0508,37.5236,威海市,山大分校,细颗粒物(PM2.5),98,117,82,73,47,102,90,76,76,40,38,10,9,1.0,0.8
2022-12-08T16:00:00,1664A,122.1067,37.5072,威海市,市监测站,细颗粒物(PM2.5),104,122,77,78,45,76,,56,56,35,49,8,6,,0.9
2022-12-08T16:00:00,1665A,118.5019,37.4658,东营市,西城阳光环保公司,,,,,,,,,,,,,,,,
2022-12-08T16:00:00,1666A,118.6614,37.4309,东营市,市环保局,细颗粒物(PM2.5),132,139,201,100,146,83,83,50,50,38,72,20,39,0.8,1.2
2022-12-08T16:00:00,1669A,113.5824,24.7733,韶关市,市八中,,25,20,22,17,16,48,41,39,39,10,10,12,11,0.5,0.5
2022-12-08T16:00:00,1670A,113.5556,24.8082,韶关市,碧湖山庄,,,,,,,,,,,,,,,,
2022-12-08T16:00:00,1671A,113.5917,24.7972,韶关市,园林处,,20,20,20,14,17,50,45,42,42,4,6,9,8,0.5,0.4
2022-12-08T16:00:00,1672A,113.6735,24.7791,韶关市,韶关学院,,25,17,20,17,19,55,49,39,39,11,16,10,10,0.6,0.6
2022-12-08T16:00:00,1673A,113.5971,24.6863,韶关市,曲江监测站,,20,17,26,14,21,52,48,40,40,9,14,9,11,0.4,0.4
2022-12-08T16:00:00,1674A,116.6794,23.3667,汕头市,金平子站,,35,34,33,12,21,115,109,79,79,14,25,10,15,0.6,0.7
2022-12-08T16:00:00,1675A,116.7244,23.3633,汕头市,龙湖子站,,36,32,40,14,17,113,113,82,82,11,21,10,11,0.5,0.6
2022-12-08T16:00:00,1676A,116.7258,23.2775,汕头市,濠江子站,,33,28,26,15,18,105,105,79,79,15,19,8,10,0.6,0.7
2022-12-08T16:00:00,1677A,116.7519,23.4714,汕头市,澄海子站,,34,32,29,18,21,107,107,74,74,16,23,5,6,0.5,0.6
2022-12-08T16:00:00,1678A,116.6092,23.2539,汕头市,潮阳子站,,33,28,33,9,18,106,105,70,70,11,20,7,9,0.5,0.7
2022-12-08T16:00:00,1679A,116.4069,23.2533,汕头市,潮南子站,,,,,,,,,,,,,,,,
2022-12-08T16:00:00,1680A,110.3539,21.2706,湛江市,湛江影剧院,细颗粒物(PM2.5),54,50,58,38,42,97,97,62,62,16,22,18,35,0.6,0.8
2022-12-08T16:00:00,1681A,110.3928,21.2228,湛江市,市环境监测站,颗粒物(PM10),80,109,68,52,52,93,93,56,56,16,20,12,24,0.6,0.7
2022-12-08T16:00:00,1682A,110.4019,21.1997,湛江市,环保局宿舍,,45,42,60,31,45,111,111,63,63,14,23,8,21,0.7,0.9
2022-12-08T16:00:00,1683A,110.4111,21.2028,湛江市,霞山游泳场,,48,46,64,33,46,112,112,71,71,12,20,10,26,0.6,0.8
2022-12-08T16:00:00,1684A,110.3316,21.2679,湛江市,麻章区环保局,细颗粒物(PM2.5),58,62,62,41,43,86,86,54,54,19,21,21,22,0.7,0.8
2022-12-08T16:00:00,1685A,110.4558,21.2567,湛江市,坡头区环保局,细颗粒物(PM2.5),54,53,58,38,47,104,104,64,64,15,18,11,20,0.7,0.8
2022-12-08T16:00:00,1686A,111.0286,21.4688,茂名市,电白南海,,44,44,52,24,23,116,116,81,81,19,22,9,14,0.4,0.6
2022-12-08T16:00:00,1687A,110.9294,21.6533,茂名市,茂石化七小,细颗粒物(PM2.5),58,53,59,41,37,111,111,70,70,11,22,16,21,0.6,0.8
2022-12-08T16:00:00,1688A,110.9107,21.6687,茂名市,健康路,,46,46,61,25,33,114,114,81,81,12,23,22,35,0.7,0.9
2022-12-08T16:00:00,1689A,110.8592,21.6828,茂名市,高岭,,49,34,58,34,41,101,101,66,66,14,24,22,35,0.6,0.7
2022-12-08T16:00:00,1690A,116.1231,24.3284,梅州市,梅江月梅,,25,25,31,16,23,57,57,28,28,12,21,5,5,0.6,0.7
2022-12-08T16:00:00,1691A,116.0797,24.2719,梅州市,梅县新城,,,,33,,23,46,,23,23,13,21,9,9,,0.6
2022-12-08T16:00:00,1692A,116.1248,24.2654,梅州市,环境监控中心,,30,30,30,17,20,54,54,26,26,18,20,8,9,0.4,0.5
2022-12-08T16:00:00,1693A,115.3653,22.775,汕尾市,市环保局,,36,33,29,22,20,113,113,74,74,10,13,8,8,0.5,0.6
2022-12-08T16:00:00,1694A,115.3706,22.7898,汕尾市,市政府,细颗粒物(PM2.5),53,28,24,37,21,121,121,81,81,10,13,8,8,0.5,0.5
2022-12-08T16:00:00,1695A,115.3622,22.7925,汕尾市,新城中学,,,28,30,20,17,111,105,75,75,7,11,,9,0.5,0.5
2022-12-08T16:00:00,1696A,114.6778,23.7569,河源市,源西(对照点),,32,32,25,16,18,72,72,44,44,12,19,5,5,0.6,0.6
2022-12-08T16:00:00,1697A,114.6944,23.7586,河源市,东埔,,36,36,25,18,19,77,77,43,43,14,19,6,6,0.6,0.6
2022-12-08T16:00:00,1698A,114.6892,23.7233,河源市,老城,,44,44,29,27,21,75,75,43,43,13,17,5,5,0.7,0.7
2022-12-08T16:00:00,1699A,111.9797,21.8593,阳江市,鸳鸯湖(对照点),,38,38,38,26,29,117,117,76,76,14,24,12,13,0.6,0.6
2022-12-08T16:00:00,1700A,111.9508,21.8536,阳江市,南恩路,,,,,,,,,,,,,,,,
2022-12-08T16:00:00,1701A,111.9491,21.8658,阳江市,马南垌,,37,34,35,22,24,116,116,72,72,18,29,6,7,0.6,0.6
2022-12-08T16:00:00,1702A,113.0426,23.691,清远市,环保大楼(对照点),,26,26,22,17,18,63,63,43,43,16,19,4,5,1.0,0.9
2022-12-08T16:00:00,1703A,113.0208,23.7106,清远市,凤城街办,,34,34,29,21,18,45,35,30,25,21,19,3,3,0.8,0.8
2022-12-08T16:00:00,1705A,116.6367,23.6719,潮州市,西园路(对照点),,42,34,22,29,19,114,114,70,70,12,10,12,14,0.6,0.5
2022-12-08T16:00:00,1706A,116.6447,23.6706,潮州市,档案局,细颗粒物(PM2.5),59,40,26,42,19,114,114,67,67,14,12,10,15,0.6,0.6
2022-12-08T16:00:00,1708A,116.3701,23.5345,揭阳市,新兴,颗粒物(PM10),53,55,39,34,30,141,141,96,96,14,18,11,9,0.5,0.8
2022-12-08T16:00:00,1709A,116.3264,23.5443,揭阳市,西马,颗粒物(PM10),51,51,40,32,26,145,145,82,82,12,19,8,9,0.7,0.6
2022-12-08T16:00:00,1710A,116.3611,23.5626,揭阳市,东兴,颗粒物(PM10),57,64,51,31,27,143,143,79,79,18,27,7,8,0.6,0.7
2022-12-08T16:00:00,1711A,116.4151,23.5294,揭阳市,渔湖,颗粒物(PM10),54,58,45,32,27,132,132,80,80,14,24,12,10,0.6,0.7
2022-12-08T16:00:00,1712A,112.0392,22.9169,云浮市,新市府(对照点),,40,40,28,20,20,75,52,50,50,32,22,32,13,0.6,0.6
2022-12-08T16:00:00,1713A,112.0369,22.9394,云浮市,市监测站,,,,,,,,,,,,,,,,
2022-12-08T16:00:00,1714A,112.0539,22.9539,云浮市,牧羊,,41,41,35,28,20,60,44,42,42,28,27,36,17,0.6,0.6
2022-12-08T16:00:00,1715A,102.575,24.3711,玉溪市,东风水库,,27,16,24,6,13,85,85,55,55,9,15,5,5,0.6,0.6
2022-12-08T16:00:00,1718A,115.4208,35.2464,菏泽市,气象局,细颗粒物(PM2.5),89,98,105,66,74,108,107,70,70,22,36,9,6,0.6,0.7
2022-12-08T16:00:00,1719A,115.4747,35.2375,菏泽市,市政协,细颗粒物(PM2.5),104,100,104,78,78,100,100,58,58,34,49,12,10,0.6,0.7
2022-12-08T16:00:00,1720A,115.455,35.27,菏泽市,菏泽学院,,,,,,,,,,,,,,,,
2022-12-08T16:00:00,1721A,113.3819,40.1097,大同市,果树场(对照点),,,,,,,,,,,,,,,,
2022-12-08T16:00:00,1723A,113.2994,40.0758,大同市,云冈宾馆,,,,,,,,,,,,,,,,
2022-12-08T16:00:00,1724A,113.3444,40.0917,大同市,大同大学,颗粒物(PM10),84,118,89,56,37,44,42,34,34,43,50,28,29,0.6,1.2
2022-12-08T16:00:00,1725A,113.2661,40.1269,大同市,安家小村,颗粒物(PM10),88,126,99,39,36,48,40,37,37,50,51,38,35,0.6,2.2
2022-12-08T16:00:00,1726A,113.2711,40.0844,大同市,教育学院,,,128,118,72,60,39,34,36,36,49,61,27,51,,1.2
2022-12-08T16:00:00,1727A,113.1147,36.1547,长治市,清华站,,,,117,,75,88,88,45,45,,55,27,16,0.7,1
2022-12-08T16:00:00,1728A,113.1031,36.1989,长治市,监测站,细颗粒物(PM2.5),85,86,104,63,72,79,77,43,43,40,52,27,23,0.9,1.1
2022-12-08T16:00:00,1730A,113.0886,36.2125,长治市,审计局,细颗粒物(PM2.5),89,89,109,66,77,76,64,55,40,47,51,29,20,1.1,1.2
2022-12-08T16:00:00,1731A,113.0844,36.1856,长治市,长治八中,细颗粒物(PM2.5),87,100,124,64,67,72,65,55,40,42,46,32,26,1.6,1.6
2022-12-08T16:00:00,1733A,111.5531,36.0783,临汾市,临钢医院,细颗粒物(PM2.5),223,275,211,173,125,78,60,35,35,76,56,23,12,3.1,2.4
2022-12-08T16:00:00,1734A,111.5028,36.0714,临汾市,技工学校,细颗粒物(PM2.5),238,276,219,188,137,75,60,34,34,70,63,32,24,2.2,1.9
2022-12-08T16:00:00,1735A,111.5169,36.0822,临汾市,工商学校,,,,,,,,,,,,,,,,
2022-12-08T16:00:00,1736A,111.5018,36.0855,临汾市,市委,细颗粒物(PM2.5),227,287,218,177,124,77,63,36,36,58,55,24,16,2.5,2
2022-12-08T16:00:00,1738A,113.5758,37.8572,阳泉市,市中心,颗粒物(PM10),78,105,153,32,65,48,37,25,25,55,72,27,48,0.8,1.7
2022-12-08T16:00:00,1739A,113.4894,37.8731,阳泉市,赛鱼,颗粒物(PM10),71,92,112,49,61,55,30,32,32,65,71,26,27,0.8,1.2
2022-12-08T16:00:00,1740A,113.5819,37.8486,阳泉市,南庄,颗粒物(PM10),63,76,148,44,71,49,39,27,27,56,68,27,38,0.9,1.7
2022-12-08T16:00:00,1741A,113.6292,37.8531,阳泉市,白羊墅,,,,,,,,,,,,,,,,
2022-12-08T16:00:00,1742A,113.5614,37.8703,阳泉市,平坦,颗粒物(PM10),79,107,151,47,75,47,39,24,24,55,74,25,50,0.9,1.7
2022-12-08T16:00:00,1743A,113.5158,37.8392,阳泉市,大阳泉,颗粒物(PM10),65,80,98,40,60,65,49,47,47,53,70,24,34,0.7,1
2022-12-08T16:00:00,1744A,118.9233,42.2816,赤峰市,松山一中,,,1,26,,4,77,77,61,61,15,35,7,17,0.5,0.9
2022-12-08T16:00:00,1745A,118.9576,42.2728,赤峰市,哈达街,,23,8,26,3,10,74,72,59,59,17,34,8,13,0.3,0.6
2022-12-08T16:00:00,1746A,118.8788,42.2554,赤峰市,天义路,,25,7,21,3,7,80,80,67,67,12,28,10,14,0.3,0.5
2022-12-08T16:00:00,1748A,123.044,41.1196,鞍山市,深沟寺,,32,32,43,16,23,64,53,54,54,32,36,18,18,1.4,1.3
2022-12-08T16:00:00,1749A,123.011,41.0931,鞍山市,太阳城,,34,34,41,15,19,64,50,48,48,27,30,21,21,1.2,1.6
2022-12-08T16:00:00,1750A,123.0485,41.1442,鞍山市,太平,,38,38,72,13,32,53,42,38,38,43,50,18,21,1.6,1.8
2022-12-08T16:00:00,1751A,122.9642,41.0971,鞍山市,铁西三道街,颗粒物(PM10),54,58,92,23,43,64,39,40,40,45,54,18,18,1.2,2.2
2022-12-08T16:00:00,1752A,122.9341,41.0833,鞍山市,铁西工业园区,,,,115,,54,70,50,46,46,37,55,14,18,1.3,2.3
2022-12-08T16:00:00,1753A,123.022,41.0821,鞍山市,明达新区,,29,29,46,14,24,68,49,50,50,30,35,15,16,0.9,1.3
2022-12-08T16:00:00,1754A,123.1289,41.0228,鞍山市,千山(对照点),,,,,,,,,,,,,,,,
2022-12-08T16:00:00,1755A,123.7977,41.8491,抚顺市,望花区,,32,32,83,16,44,58,45,34,34,30,39,6,7,1.8,2.3
2022-12-08T16:00:00,1756A,123.9161,41.8822,抚顺市,顺城区,,30,30,82,16,57,47,34,32,32,46,43,16,13,1.4,1.8
2022-12-08T16:00:00,1757A,124.0436,41.8611,抚顺市,东洲区,,37,37,72,11,39,59,39,36,36,33,34,11,12,0.8,1
2022-12-08T16:00:00,1758A,123.9247,41.8642,抚顺市,新抚区,颗粒物(PM10),52,54,83,21,46,60,38,45,45,51,36,11,8,0.7,0.8
2022-12-08T16:00:00,1759A,124.0972,41.8961,抚顺市,大伙房水库,,31,31,58,12,35,66,50,47,47,26,36,9,8,0.5,0.7
2022-12-08T16:00:00,1760A,123.7086,41.8391,抚顺市,沈抚新城,,41,41,82,11,41,52,46,34,34,22,32,14,17,1.2,1.8
2022-12-08T16:00:00,1761A,123.8275,41.3064,本溪市,大峪,颗粒物(PM10),52,54,69,21,34,47,27,18,18,56,47,26,21,2.0,2
2022-12-08T16:00:00,1762A,123.7567,41.3325,本溪市,溪湖,颗粒物(PM10),53,56,103,8,36,64,64,29,29,15,44,14,22,0.4,1.4
2022-12-08T16:00:00,1763A,123.7169,41.3094,本溪市,彩屯,颗粒物(PM10),55,60,94,13,50,64,56,30,29,31,45,16,28,0.6,1.9
2022-12-08T16:00:00,1764A,123.7669,41.2864,本溪市,东明,颗粒物(PM10),54,58,85,20,38,38,31,21,21,58,54,28,27,1.5,1.9
2022-12-08T16:00:00,1765A,123.7992,41.2664,本溪市,新立屯,颗粒物(PM10),55,60,67,20,41,47,21,25,25,56,54,14,21,1.3,2.2
2022-12-08T16:00:00,1766A,123.8142,41.3472,本溪市,威宁,,42,42,73,13,35,50,43,24,24,32,42,12,12,0.5,0.9
2022-12-08T16:00:00,1767A,121.1115,41.0879,锦州市,南山,颗粒物(PM10),51,51,75,28,60,60,56,47,47,33,56,17,44,0.8,1
2022-12-08T16:00:00,1768A,121.0533,40.8434,锦州市,开发区,,47,47,119,19,55,65,57,48,48,33,56,22,38,1.2,1.2
2022-12-08T16:00:00,1769A,121.1836,41.1119,锦州市,百股街道,颗粒物(PM10),56,61,89,27,62,54,52,41,41,29,51,15,51,0.8,1.3
2022-12-08T16:00:00,1770A,121.1178,41.1222,锦州市,天安街道,,50,50,79,24,53,48,44,35,35,40,56,17,38,1.0,1.3
2022-12-08T16:00:00,1771A,121.1303,41.1386,锦州市,北湖公园,细颗粒物(PM2.5),57,53,70,40,66,50,44,39,39,39,48,15,34,0.8,1
2022-12-08T16:00:00,1772A,126.54,43.8622,吉林市,哈达湾,,22,22,36,8,14,71,67,62,62,12,16,9,10,0.4,0.5
2022-12-08T16:00:00,1773A,126.5844,43.8358,吉林市,东局子,,20,17,40,8,15,66,63,59,59,16,20,6,8,0.4,0.5
2022-12-08T16:00:00,1774A,126.5052,43.8245,吉林市,电力学院,,22,20,48,15,17,71,67,62,62,8,20,9,12,0.8,1.1
2022-12-08T16:00:00,1775A,126.6133,43.8972,吉林市,江北,,20,19,35,10,15,69,61,58,58,15,19,12,15,0.7,0.8
2022-12-08T16:00:00,1776A,126.555,43.8306,吉林市,江南公园,,22,21,36,12,16,69,68,63,63,8,14,8,9,0.4,0.5
2022-12-08T16:00:00,1778A,126.7061,43.7133,吉林市,丰满(对照点),,,,,,,,,,,,,,,,
2022-12-08T16:00:00,1779A,123.9305,47.3636,齐齐哈尔市,安居小区,,28,28,26,16,17,63,46,54,54,28,21,8,9,0.6,0.5
2022-12-08T16:00:00,1780A,123.9488,47.3386,齐齐哈尔市,中心广场,,23,23,28,11,9,60,44,59,51,30,20,6,7,0.5,0.7
2022-12-08T16:00:00,1781A,123.9483,47.3227,齐齐哈尔市,农牧车辆厂,,34,34,28,22,18,60,41,60,46,41,27,11,11,0.4,0.5
2022-12-08T16:00:00,1783A,123.945,47.2988,齐齐哈尔市,市环境监测站,,36,23,28,25,30,65,55,59,52,18,25,6,11,0.3,0.5
2022-12-08T16:00:00,1784A,129.61,44.561,牡丹江市,环保大楼,,33,32,32,23,18,64,56,53,53,14,15,4,5,0.3,0.3
2022-12-08T16:00:00,1785A,129.6115,44.5782,牡丹江市,文化广场,,,0,34,8,18,61,55,49,49,,17,5,8,0.2,0.5
2022-12-08T16:00:00,1786A,129.5904,44.5963,牡丹江市,第一医院,,26,26,37,17,24,63,57,50,50,13,19,4,5,0.2,0.4
2022-12-08T16:00:00,1787A,129.6364,44.6075,牡丹江市,机车工厂,,36,36,48,22,20,68,61,54,54,10,25,1,5,0.5,0.6
2022-12-08T16:00:00,1788A,129.6386,44.5462,牡丹江市,第一中学,,26,26,31,11,21,68,63,58,58,10,14,3,4,0.5,0.6
2022-12-08T16:00:00,1789A,124.81117,46.03138,大庆市,大同区,,21,21,45,12,33,57,50,48,48,16,18,6,6,0.3,0.5
2022-12-08T16:00:00,1790A,125.129,46.533,大庆市,龙凤区,,35,35,46,13,26,53,40,46,41,26,33,8,10,0.3,0.5
2022-12-08T16:00:00,1791A,124.902,46.408,大庆市,红岗区,,26,19,26,18,18,55,48,50,45,17,19,12,12,0.1,0.3
2022-12-08T16:00:00,1792A,125.153,46.586,大庆市,萨尔图区,,26,26,33,15,25,42,38,38,35,26,39,6,6,0.2,0.4
2022-12-08T16:00:00,1793A,124.9042,46.6215,大庆市,让胡路区,,32,21,36,22,24,54,44,47,45,22,24,5,5,0.4,0.5
2022-12-08T16:00:00,1794A,118.3606,31.3519,芜湖市,监测站,细颗粒物(PM2.5),132,94,63,100,62,10,6,7,7,72,74,17,13,1.0,0.8
2022-12-08T16:00:00,1795A,118.3714,31.4134,芜湖市,科创中心,细颗粒物(PM2.5),97,107,87,72,59,9,5,5,5,75,77,12,10,0.9,0.9
2022-12-08T16:00:00,1796A,118.3673,31.3131,芜湖市,四水厂,细颗粒物(PM2.5),95,97,70,71,47,14,6,8,8,74,72,17,12,0.8,0.8
2022-12-08T16:00:00,1797A,118.4022,31.3839,芜湖市,济民医院(对照点),,,,,,,,,,,,,,,,
2022-12-08T16:00:00,1798A,118.5092,31.6837,马鞍山市,湖东路四小,细颗粒物(PM2.5),123,102,62,93,64,16,4,16,6,84,72,23,12,2.0,1.2
2022-12-08T16:00:00,1799A,118.5024,31.6449,马鞍山市,开发区,细颗粒物(PM2.5),112,81,67,84,64,18,8,15,8,81,78,14,10,1.4,1.2
2022-12-08T16:00:00,1800A,118.5228,31.7231,马鞍山市,慈湖,细颗粒物(PM2.5),118,130,86,89,66,25,7,10,8,84,76,27,16,1.6,1.3
2022-12-08T16:00:00,1801A,118.48,31.6928,马鞍山市,马钢动力厂,,,,,,,,,,,,,,,,
2022-12-08T16:00:00,1802A,118.6245,31.7241,马鞍山市,濮塘(对照点),,,,84,,43,10,,8,,,65,,8,,1.1
2022-12-08T16:00:00,1803A,115.9872,29.6815,九江市,十里,颗粒物(PM10),54,57,78,35,48,75,75,42,42,28,50,9,11,0.9,1.1
2022-12-08T16:00:00,1804A,115.9584,29.7046,九江市,茅山头,细颗粒物(PM2.5),62,60,73,44,53,73,66,41,41,36,43,8,10,1.0,1
2022-12-08T16:00:00,1805A,115.9877,29.7295,九江市,西园,细颗粒物(PM2.5),59,57,70,42,56,64,56,33,33,38,42,12,11,1.0,0.9
2022-12-08T16:00:00,1806A,116.0172,29.6547,九江市,五七二七厂,,50,50,66,32,52,74,69,48,48,33,31,8,10,0.8,0.9
2022-12-08T16:00:00,1808A,115.9114,29.6038,九江市,综合工业园,细颗粒物(PM2.5),77,61,82,56,69,70,60,42,42,50,58,12,11,1.1,0.9
2022-12-08T16:00:00,1809A,116.0721,29.7535,九江市,石化总厂,细颗粒物(PM2.5),63,71,87,45,51,72,56,43,43,44,44,10,13,0.9,1
2022-12-08T16:00:00,1810A,115.9773,29.5698,九江市,庐山气象台(对照点),细颗粒物(PM2.5),73,38,15,53,17,60,60,52,52,50,23,43,39,1.5,1.3
2022-12-08T16:00:00,1811A,112.3628,34.6692,洛阳市,中信二小,,,,,,,,,,,,,,,,
2022-12-08T16:00:00,1812A,112.3931,34.6516,洛阳市,市委党校,细颗粒物(PM2.5),202,242,197,152,126,90,68,38,38,52,57,17,13,1.1,1.1
2022-12-08T16:00:00,1814A,112.4657,34.6871,洛阳市,豫西宾馆,细颗粒物(PM2.5),185,227,213,139,139,75,71,45,45,52,67,15,15,1.3,1.7
2022-12-08T16:00:00,1815A,112.494,34.6886,洛阳市,河南林校,细颗粒物(PM2.5),183,199,196,138,131,82,63,45,45,52,58,10,8,1.2,1.3
2022-12-08T16:00:00,1816A,112.3844,34.623,洛阳市,开发区管委会,细颗粒物(PM2.5),203,218,161,153,113,95,77,47,47,49,50,15,10,1.0,0.9
2022-12-08T16:00:00,1817A,112.4267,34.6258,洛阳市,市委新办公区,细颗粒物(PM2.5),198,206,162,148,114,85,77,48,48,48,52,15,9,1.1,1
2022-12-08T16:00:00,1818A,114.4839,36.0621,安阳市,棉研所(对照点),,,,,,,,,,,,,,,,
2022-12-08T16:00:00,1819A,114.3551,36.1017,安阳市,红庙街,细颗粒物(PM2.5),189,178,252,142,183,66,34,24,24,80,82,12,14,1.6,2.2
2022-12-08T16:00:00,1820A,114.361,36.0681,安阳市,银杏小区,细颗粒物(PM2.5),188,158,243,141,200,65,39,28,28,74,81,16,16,1.6,2.2
2022-12-08T16:00:00,1824A,114.3389,34.7781,开封市,肿瘤医院,细颗粒物(PM2.5),254,295,158,204,109,74,60,34,34,59,51,8,5,1.9,1.3
2022-12-08T16:00:00,1826A,114.2885,34.7965,开封市,世纪星幼儿园,细颗粒物(PM2.5),290,247,121,240,114,86,67,38,38,59,43,12,7,1.5,0.9
2022-12-08T16:00:00,1828A,113.227,35.2125,焦作市,市环保局,细颗粒物(PM2.5),277,271,230,227,163,49,49,29,29,64,66,10,14,1.8,1.8
2022-12-08T16:00:00,1829A,113.2464,35.1764,焦作市,高新区政府（停运20220628）,,,,,,,,,,,,,,,,
2022-12-08T16:00:00,1830A,113.1992,35.2590,焦作市,影视城(对照点),,,,,,,,,,,,,,,,
2022-12-08T16:00:00,1832A,113.3257,33.742,平顶山市,新华旅馆,细颗粒物(PM2.5),178,178,120,134,82,72,60,44,44,47,35,22,12,0.9,0.7
2022-12-08T16:00:00,1833A,113.2919,33.737,平顶山市,规划设计院,细颗粒物(PM2.5),168,179,109,127,74,83,60,46,46,62,42,47,12,0.9,0.7
2022-12-08T16:00:00,1834A,113.182,33.774,平顶山市,平顶山工学院,细颗粒物(PM2.5),134,156,114,102,83,84,84,51,51,37,33,10,6,1.2,1
2022-12-08T16:00:00,1835A,111.1922,34.7752,三门峡市,市政府,细颗粒物(PM2.5),268,261,207,218,168,45,38,21,21,79,72,20,19,1.4,1.1
2022-12-08T16:00:00,1836A,111.1587,34.7942,三门峡市,开发区,细颗粒物(PM2.5),258,292,243,208,160,91,49,26,26,63,56,18,12,1.0,1.2
2022-12-08T16:00:00,1838A,111.143,34.7955,三门峡市,风景区(对照点),,,,,,,,,,,,,,,,
2022-12-08T16:00:00,1839A,111.3009,30.7157,宜昌市,四零三,,,,,,,,,,,,,,,,
2022-12-08T16:00:00,1840A,111.2992,30.6981,宜昌市,白龙岗,细颗粒物(PM2.5),73,70,74,53,61,74,74,45,45,33,30,8,2,0.6,0.6
2022-12-08T16:00:00,1841A,111.3549,30.6465,宜昌市,伍家岗,,,,77,,61,81,81,45,45,27,33,,4,0.6,0.7
2022-12-08T16:00:00,1842A,111.2628,30.6961,宜昌市,点军区,细颗粒物(PM2.5),70,69,78,51,62,85,85,48,48,26,24,10,6,0.5,0.6
2022-12-08T16:00:00,1843A,111.3275,30.7819,宜昌市,夷陵区,细颗粒物(PM2.5),64,68,68,46,58,88,88,52,52,23,29,7,6,0.5,0.6
2022-12-08T16:00:00,1844A,112.2494,30.3197,荆州市,市图书馆,,,,65,,58,92,92,44,44,32,50,8,6,0.6,1.1
2022-12-08T16:00:00,1845A,112.2008,30.3544,荆州市,市委党校,,,60,67,59,60,84,84,52,52,31,43,,7,0.7,1
2022-12-08T16:00:00,1847A,113.1094,29.3578,岳阳市,南湖风景区,,43,36,46,30,32,86,86,56,56,24,44,7,8,0.6,0.9
2022-12-08T16:00:00,1848A,113.1493,29.4251,岳阳市,城陵矶,,35,28,44,24,32,80,74,54,54,28,40,16,8,0.8,0.8
2022-12-08T16:00:00,1849A,113.1497,29.3575,岳阳市,开发区,细颗粒物(PM2.5),53,35,48,37,47,75,74,54,54,26,43,22,10,0.8,0.8
2022-12-08T16:00:00,1850A,113.2621,29.4758,岳阳市,云溪区,,31,31,43,18,30,83,83,62,62,18,30,7,7,0.5,0.7
2022-12-08T16:00:00,1851A,112.9943,29.4402,岳阳市,君山区,,35,25,36,24,31,92,91,66,66,19,27,8,7,0.3,0.5
2022-12-08T16:00:00,1852A,113.2117,29.355,岳阳市,金凤水库(对照点),,32,32,46,20,35,89,89,65,65,12,26,3,5,0.5,0.7
2022-12-08T16:00:00,1854A,111.6975,28.9703,常德市,市二中,细颗粒物(PM2.5),89,71,72,66,70,57,39,29,29,34,29,10,7,0.6,0.7
2022-12-08T16:00:00,1857A,111.7158,29.1456,常德市,白鹤山(对照点),细颗粒物(PM2.5),75,46,42,55,46,64,51,51,51,23,11,3,2,0.6,0.5
2022-12-08T16:00:00,1858A,110.5319,29.1217,张家界市,永定新区,细颗粒物(PM2.5),63,61,67,45,53,56,38,46,29,35,28,3,4,0.8,0.8
2022-12-08T16:00:00,1859A,110.4697,29.1242,张家界市,电业局,细颗粒物(PM2.5),70,69,62,51,50,44,44,32,30,32,23,12,6,0.6,0.5
2022-12-08T16:00:00,1860A,110.5594,29.3547,张家界市,未央路,,,64,63,55,52,66,47,42,42,,16,,2,0.6,0.6
2022-12-08T16:00:00,1861A,110.4417,29.315,张家界市,袁家界(对照点),颗粒物(PM10),51,51,44,25,34,71,54,50,50,15,14,10,9,0.2,0.2
2022-12-08T16:00:00,1862A,110.4144,25.3167,桂林市,电子科大尧山校区(对照点),,38,37,29,26,24,71,67,57,57,8,8,9,8,0.7,0.7
2022-12-08T16:00:00,1863A,110.2819,25.2697,桂林市,监测站,,,,32,,26,60,54,47,47,,15,,5,0.8,0.8
2022-12-08T16:00:00,1864A,110.3089,25.2708,桂林市,龙隐路小学,,48,44,29,33,27,63,55,47,47,15,12,6,6,0.5,0.5
2022-12-08T16:00:00,1865A,110.2869,25.2178,桂林市,八中,,48,45,31,33,27,59,50,42,42,16,15,5,5,0.5,0.5
2022-12-08T16:00:00,1866A,109.2262,21.588,北海市,牛尾岭水库(对照点),细颗粒物(PM2.5),63,63,49,45,41,63,61,44,44,13,16,9,9,0.7,0.7
2022-12-08T16:00:00,1867A,109.1436,21.4086,北海市,海滩公园,颗粒物(PM10),55,59,55,37,38,76,76,53,53,14,16,9,10,0.6,0.8
2022-12-08T16:00:00,1868A,109.0981,21.4661,北海市,新市环保局,细颗粒物(PM2.5),62,43,47,44,41,76,76,56,56,12,15,6,8,0.6,0.7
2022-12-08T16:00:00,1869A,109.1778,21.5233,北海市,北海工业园,"颗粒物(PM10),细颗粒物(PM2.5)",70,90,67,51,44,73,73,49,49,18,21,9,11,0.6,0.7
2022-12-08T16:00:00,1870A,109.4856,24.3895,柳州市,柳东小学,细颗粒物(PM2.5),113,65,35,85,32,71,63,51,51,11,10,5,8,0.6,0.4
2022-12-08T16:00:00,1871A,109.4157,24.3277,柳州市,环保监测站,细颗粒物(PM2.5),55,52,42,39,33,62,60,48,48,14,16,9,9,0.6,0.6
2022-12-08T16:00:00,1872A,109.389,24.341,柳州市,河西水厂,细颗粒物(PM2.5),54,53,47,38,35,63,59,47,38,15,20,12,15,0.1,0.3
2022-12-08T16:00:00,1873A,109.4311,24.2921,柳州市,市四中,颗粒物(PM10),51,51,46,27,27,64,60,48,48,9,13,11,12,0.6,0.7
2022-12-08T16:00:00,1874A,109.4006,24.3631,柳州市,市九中,,,,51,,34,68,64,48,48,,20,,15,0.7,0.6
2022-12-08T16:00:00,1875A,109.4958,24.3134,柳州市,古亭山,颗粒物(PM10),55,59,46,31,25,60,60,47,47,9,12,8,9,0.6,2
2022-12-08T16:00:00,1876A,109.5078,18.2489,三亚市,河东子站,,31,25,15,13,9,143,98,92,92,6,7,2,2,0.5,0.5
2022-12-08T16:00:00,1877A,109.4964,18.2681,三亚市,河西子站,,31,31,16,13,9,105,97,80,80,9,9,3,3,0.4,0.5
2022-12-08T16:00:00,1878A,104.7778,31.4741,绵阳市,富乐山,细颗粒物(PM2.5),83,89,71,61,51,83,83,34,34,19,30,14,7,0.6,0.8
2022-12-08T16:00:00,1879A,104.7563,31.4535,绵阳市,市人大,细颗粒物(PM2.5),77,91,76,56,53,66,60,37,29,30,36,12,5,0.6,0.7
2022-12-08T16:00:00,1880A,104.6697,31.4668,绵阳市,高新区自来水公司,细颗粒物(PM2.5),79,76,101,58,60,62,59,27,27,32,41,9,10,0.4,0.6
2022-12-08T16:00:00,1881A,104.7287,31.5075,绵阳市,三水厂,细颗粒物(PM2.5),80,90,95,59,63,67,67,27,27,30,42,27,8,0.7,0.9
2022-12-08T16:00:00,1882A,104.563,28.793,宜宾市,石马中学(对照点),细颗粒物(PM2.5),105,89,94,79,76,59,49,26,26,27,31,6,6,0.7,0.7
2022-12-08T16:00:00,1883A,104.6201,28.7728,宜宾市,市委,细颗粒物(PM2.5),107,103,102,80,78,52,52,24,24,26,34,10,10,0.7,0.8
2022-12-08T16:00:00,1884A,104.6055,28.793,宜宾市,宜宾四中,细颗粒物(PM2.5),112,102,106,84,87,59,56,28,28,22,35,9,9,0.7,0.8
2022-12-08T16:00:00,1885A,104.639,28.7562,宜宾市,市政府,细颗粒物(PM2.5),114,97,104,86,87,52,52,21,21,25,42,10,10,0.6,0.7
2022-12-08T16:00:00,1886A,104.5742,28.7199,宜宾市,黄金嘴,细颗粒物(PM2.5),94,85,95,70,77,58,57,26,26,21,37,10,10,0.5,0.7
2022-12-08T16:00:00,1888A,101.6891,26.571,攀枝花市,弄弄坪,,42,42,56,26,31,101,98,45,45,25,42,20,19,0.8,1.7
2022-12-08T16:00:00,1889A,101.5769,26.5928,攀枝花市,河门口,,,28,50,,27,104,103,65,65,20,31,31,20,1.4,1.5
2022-12-08T16:00:00,1890A,101.7169,26.585,攀枝花市,炳草岗,,42,42,65,14,27,97,97,44,44,21,58,36,27,1.0,1.7
2022-12-08T16:00:00,1891A,101.7369,26.5008,攀枝花市,仁和,,34,18,45,12,22,110,108,63,63,9,25,17,15,0.9,1.2
2022-12-08T16:00:00,1893A,105.4324,28.9634,泸州市,九狮山(对照点),细颗粒物(PM2.5),75,91,80,55,67,26,14,10,10,39,27,14,11,0.5,0.5
2022-12-08T16:00:00,1894A,105.4427,28.9063,泸州市,小市上码头,细颗粒物(PM2.5),115,128,119,87,84,30,30,13,13,35,39,8,11,0.7,0.7
2022-12-08T16:00:00,1895A,105.4241,28.8573,泸州市,兰田宪桥,细颗粒物(PM2.5),114,122,114,86,84,28,27,14,14,35,34,11,21,0.8,0.8
2022-12-08T16:00:00,1896A,105.4379,28.8833,泸州市,市环监站,细颗粒物(PM2.5),107,112,110,80,77,30,30,14,14,27,31,7,11,0.9,0.7
2022-12-08T16:00:00,1897A,104.7547,29.3628,自贡市,大塘山(对照点),,,,,,,,,,,,,,,,
2022-12-08T16:00:00,1900A,104.7692,29.3411,自贡市,春华路,,,,,,,,,,,,,,,,
2022-12-08T16:00:00,1901A,104.4239,31.1208,德阳市,东山公园,颗粒物(PM10),74,98,99,50,62,79,79,43,42,28,36,5,6,0.7,0.8
2022-12-08T16:00:00,1902A,104.3826,31.1317,德阳市,西小区,细颗粒物(PM2.5),78,83,92,57,65,75,75,37,37,31,45,5,6,0.5,0.8
2022-12-08T16:00:00,1903A,104.4053,31.1167,德阳市,市检察院,,,,,,,,,,,,,,,,
2022-12-08T16:00:00,1904A,104.3553,31.1091,德阳市,耐火材料厂,细颗粒物(PM2.5),84,91,121,62,69,77,73,44,44,32,41,6,8,0.6,0.8
2022-12-08T16:00:00,1905A,106.056,30.8064,南充市,西山风景区(对照点),"颗粒物(PM10),细颗粒物(PM2.5)",55,59,58,39,45,45,45,24,24,14,16,8,8,0.8,0.8
2022-12-08T16:00:00,1906A,106.0789,30.8023,南充市,南充市委,颗粒物(PM10),51,52,73,33,50,53,53,23,23,13,24,7,10,0.5,0.7
2022-12-08T16:00:00,1907A,106.1031,30.8217,南充市,南充炼油厂,细颗粒物(PM2.5),62,60,76,44,48,57,57,26,26,21,28,12,12,0.6,0.7
2022-12-08T16:00:00,1908A,106.1064,30.7856,南充市,高坪区监测站,,,62,75,43,53,47,47,17,17,,28,13,13,,0.7
2022-12-08T16:00:00,1909A,106.0642,30.7636,南充市,嘉陵区环保局,颗粒物(PM10),58,65,72,39,48,48,48,23,23,16,28,12,19,0.6,0.7
2022-12-08T16:00:00,1910A,106.1087,30.8388,南充市,市环境监测站,细颗粒物(PM2.5),64,58,72,46,52,48,48,22,22,19,24,12,10,0.6,0.7
2022-12-08T16:00:00,1911A,106.9222,27.6869,遵义市,丁字口,细颗粒物(PM2.5),55,48,49,39,43,61,56,40,40,29,24,19,21,0.8,0.8
2022-12-08T16:00:00,1912A,106.9242,27.7019,遵义市,凤凰山,,42,37,47,29,30,64,55,42,41,27,20,12,10,0.7,0.7
2022-12-08T16:00:00,1913A,106.8906,27.6486,遵义市,忠庄,颗粒物(PM10),53,56,66,28,38,59,58,32,32,24,22,8,5,0.7,0.7
2022-12-08T16:00:00,1914A,106.9231,27.6506,遵义市,舟水桥,细颗粒物(PM2.5),58,54,61,41,45,59,53,28,28,23,20,12,16,1.2,1.1
2022-12-08T16:00:00,1915A,106.9178,27.72,遵义市,干田坝,,38,38,44,16,33,64,57,38,38,26,22,12,12,0.9,0.9
2022-12-08T16:00:00,1916A,103.7897,25.5035,曲靖市,环境监测站,,40,12,46,28,29,105,105,54,54,7,18,5,8,0.6,0.9
2022-12-08T16:00:00,1917A,103.8,25.5364,曲靖市,烟厂办公区,,31,11,47,6,24,97,97,51,51,5,17,7,11,0.4,0.7
2022-12-08T16:00:00,1918A,108.7197,34.3956,咸阳市,气象站(对照点),细颗粒物(PM2.5),104,143,300,78,221,62,62,33,33,45,83,13,13,1.0,1.8
2022-12-08T16:00:00,1919A,108.673,34.3155,咸阳市,实验中学,颗粒物(PM10),122,194,304,88,225,77,77,37,37,44,85,9,7,0.7,1.5
2022-12-08T16:00:00,1920A,108.7233,34.3617,咸阳市,师范学院,细颗粒物(PM2.5),128,173,311,97,230,68,68,39,39,45,81,12,10,0.9,1.7
2022-12-08T16:00:00,1922A,109.0656,35.0994,铜川市,党校(对照点),细颗粒物(PM2.5),128,153,201,97,91,110,110,70,70,33,72,19,15,0.9,1.1
2022-12-08T16:00:00,1923A,109.0697,35.0697,铜川市,王益区政府,细颗粒物(PM2.5),159,164,185,121,125,103,100,61,61,,69,16,12,0.9,1.2
2022-12-08T16:00:00,1924A,108.9344,34.9058,铜川市,新区管委会,细颗粒物(PM2.5),182,185,166,137,114,125,125,73,73,24,46,16,18,0.8,0.9
2022-12-08T16:00:00,1925A,108.9589,34.8731,铜川市,新区兰芝公司,,,,,,,,,,,,,,,,
2022-12-08T16:00:00,1926A,109.4131,36.6275,延安市,枣园(对照点),颗粒物(PM10),58,66,92,30,55,83,83,48,48,20,41,6,4,0.7,1
2022-12-08T16:00:00,1927A,109.4761,36.6028,延安市,延大医附院,颗粒物(PM10),60,70,91,30,64,74,74,44,44,27,47,9,8,1.0,1.8
2022-12-08T16:00:00,1928A,109.4824,36.5767,延安市,市监测站,,,,,,,,,,,,,,,,
2022-12-08T16:00:00,1929A,109.5056,36.6106,延安市,百米大道,颗粒物(PM10),60,70,99,32,67,81,77,45,45,32,59,10,11,0.7,1.4
2022-12-08T16:00:00,1930A,107.185,34.3063,宝鸡市,庙沟村(对照点),颗粒物(PM10),79,108,134,54,86,88,78,78,78,21,33,8,7,0.7,0.9
2022-12-08T16:00:00,1931A,107.0708,34.3017,宝鸡市,竹园沟,颗粒物(PM10),78,106,136,54,103,105,103,67,67,19,35,12,10,0.6,0.9
2022-12-08T16:00:00,1932A,107.1906,34.3672,宝鸡市,三陆医院,颗粒物(PM10),97,143,184,57,132,93,90,53,53,27,45,13,10,0.7,1.2
2022-12-08T16:00:00,1933A,107.1431,34.3547,宝鸡市,监测站,颗粒物(PM10),81,112,148,52,111,101,90,53,53,34,47,11,7,0.7,1
2022-12-08T16:00:00,1934A,107.1186,34.3739,宝鸡市,技工学校,颗粒物(PM10),80,110,160,56,129,93,93,53,53,30,38,11,9,0.7,1
2022-12-08T16:00:00,1935A,107.3906,34.3528,宝鸡市,陈仓区环保局家属楼,颗粒物(PM10),82,113,215,48,150,96,94,54,54,28,63,16,13,0.7,1.5
2022-12-08T16:00:00,1936A,107.2058,34.3497,宝鸡市,文理学院,颗粒物(PM10),86,122,164,52,112,95,91,58,58,34,48,15,11,0.8,1.1
2022-12-08T16:00:00,1937A,107.2386,34.3622,宝鸡市,三迪小学,颗粒物(PM10),88,125,178,55,125,91,91,51,51,31,47,14,9,0.7,1.1
2022-12-08T16:00:00,1938A,109.5293,34.5101,渭南市,农科所(对照点),细颗粒物(PM2.5),250,290,286,200,192,128,65,31,31,66,76,14,12,1.4,1.5
2022-12-08T16:00:00,1939A,109.4974,34.4877,渭南市,日报社,细颗粒物(PM2.5),266,280,291,216,212,126,66,29,29,72,95,14,18,1.5,2
2022-12-08T16:00:00,1940A,109.4636,34.493,渭南市,体育馆,细颗粒物(PM2.5),263,305,282,213,214,100,43,20,20,73,86,9,11,1.6,1.7
2022-12-08T16:00:00,1941A,109.4259,34.5023,渭南市,高新一小,细颗粒物(PM2.5),254,285,290,204,213,107,47,26,26,75,81,13,15,1.5,1.6
2022-12-08T16:00:00,1943A,102.1725,38.5339,金昌市,新川苑,颗粒物(PM10),103,156,161,61,46,79,63,50,48,23,28,10,33,0.8,1
2022-12-08T16:00:00,1944A,102.1692,38.5167,金昌市,天庆家园,颗粒物(PM10),96,141,136,45,45,79,70,54,50,30,28,76,44,0.8,1
2022-12-08T16:00:00,1945A,98.2908,39.7711,嘉峪关市,气象局,颗粒物(PM10),85,119,143,39,48,87,87,64,64,16,42,4,16,0.4,0.6
2022-12-08T16:00:00,1947A,106.3394,38.817,石嘴山市,沙湖旅游区(对照点),颗粒物(PM10),80,110,100,45,63,75,71,47,47,23,42,35,27,0.9,1.2
2022-12-08T16:00:00,1948A,106.3668,39.0145,石嘴山市,大武口朝阳西街,细颗粒物(PM2.5),117,158,118,88,63,83,45,35,35,60,58,45,30,1.5,1
2022-12-08T16:00:00,1949A,106.7704,39.2282,石嘴山市,惠农南大街,细颗粒物(PM2.5),88,103,99,65,56,60,58,35,35,38,45,54,49,1.7,1.4
2022-12-08T16:00:00,1950A,106.7099,39.1325,石嘴山市,红果子镇惠新街,,,113,101,63,42,85,73,40,40,,45,33,39,1.0,1.2
2022-12-08T16:00:00,1951A,84.895,45.6094,克拉玛依市,长征新村,细颗粒物(PM2.5),102,122,104,76,70,32,23,22,13,50,45,,6,1.1,0.9
2022-12-08T16:00:00,1952A,84.8988,45.5893,克拉玛依市,南林小区,细颗粒物(PM2.5),104,117,110,78,70,35,31,15,15,31,37,,1,1.1,0.5
2022-12-08T16:00:00,1953A,85.1186,45.6886,克拉玛依市,白碱滩区,,,,,,,,,,,,,,,,
2022-12-08T16:00:00,1954A,84.905,44.3396,克拉玛依市,独山子区,细颗粒物(PM2.5),204,199,176,154,117,60,60,31,31,44,56,6,6,0.9,1.1
2022-12-08T16:00:00,1955A,85.6979,46.098,克拉玛依市,乌尔禾区商贸楼,细颗粒物(PM2.5),90,80,71,67,44,50,45,29,29,18,26,5,4,0.7,0.7
2022-12-08T16:00:00,1956A,86.1472,41.7538,巴音郭楞州,孔雀公园,颗粒物(PM10),150,249,227,68,66,79,46,34,34,32,47,17,13,0.5,0.7
2022-12-08T16:00:00,1957A,86.1972,41.7166,巴音郭楞州,棉纺厂,颗粒物(PM10),168,286,279,78,61,72,54,28,28,22,40,14,11,0.4,0.5
2022-12-08T16:00:00,1958A,86.2357,41.7173,巴音郭楞州,经济开发区,颗粒物(PM10),128,205,223,52,49,71,63,48,48,13,26,15,14,0.4,0.5
2022-12-08T16:00:00,1959A,118.746,36.881,寿光市,监测站,,,,,,,,,,,,,,,,
2022-12-08T16:00:00,1960A,118.780,36.864,寿光市,世纪学校,,,,,,,,,,,,,,,,
2022-12-08T16:00:00,1961A,117.532,36.6868,济南市,东山小学,细颗粒物(PM2.5),92,107,140,68,86,90,71,64,64,44,57,6,13,0.6,0.8
2022-12-08T16:00:00,1962A,117.541,36.710,章丘市,明水开发区,,,,,,,,,,,,,,,,
2022-12-08T16:00:00,1963A,120.610,36.440,即墨市,环保局子站,,,,,,,,,,,,,,,,
2022-12-08T16:00:00,1964A,120.470,36.390,即墨市,开发区子站,,,,,,,,,,,,,,,,
2022-12-08T16:00:00,1965A,120.005,35.878,胶南市,JN子站,,,,,,,,,,,,,,,,
2022-12-08T16:00:00,1966A,120.0405,35.8735,青岛市,黄岛区4号,细颗粒物(PM2.5),147,185,144,112,95,76,28,60,28,92,70,13,16,1.2,1.3
2022-12-08T16:00:00,1967A,120.008,36.283,胶州市,胶州环保局,,,,,,,,,,,,,,,,
2022-12-08T16:00:00,1968A,120.014,36.253,胶州市,胶州一中,,,,,,,,,,,,,,,,
2022-12-08T16:00:00,1969A,120.537,36.865,莱西市,环保局子站,,,,,,,,,,,,,,,,
2022-12-08T16:00:00,1970A,120.515,36.885,莱西市,人民广场子站,,,,,,,,,,,,,,,,
2022-12-08T16:00:00,1971A,119.952,36.792,平度市,1号,,,,,,,,,,,,,,,,
2022-12-08T16:00:00,1972A,119.976,36.799,平度市,2号,,,,,,,,,,,,,,,,
2022-12-08T16:00:00,1973A,120.747,37.825,蓬莱市,蓬莱环保局,,,,,,,,,,,,,,,,
2022-12-08T16:00:00,1974A,120.773,37.809,蓬莱市,蓬莱博物馆,,,,,,,,,,,,,,,,
2022-12-08T16:00:00,1975A,120.399,37.374,招远市,招远环保局,,,,,,,,,,,,,,,,
2022-12-08T16:00:00,1976A,120.394,37.364,招远市,招远教育局,,,,,,,,,,,,,,,,
2022-12-08T16:00:00,1977A,119.941,37.177,莱州市,莱州环保局,,,,,,,,,,,,,,,,
2022-12-08T16:00:00,1978A,119.959,37.180,莱州市,莱州外经委,,,,,,,,,,,,,,,,
2022-12-08T16:00:00,1979A,122.471,37.154,荣成市,荣成市环保局办公楼,,,,,,,,,,,,,,,,
2022-12-08T16:00:00,1980A,122.410,37.161,荣成市,山东成山轮胎公司,,,,,,,,,,,,,,,,
2022-12-08T16:00:00,1981A,122.038,37.197,文登市,文登市环保局,,,,,,,,,,,,,,,,
2022-12-08T16:00:00,1982A,122.0693,37.2174,威海市,文登开发区,细颗粒物(PM2.5),94,105,96,70,62,100,100,67,67,31,49,8,7,0.5,0.8
2022-12-08T16:00:00,1983A,121.531,36.913,乳山市,乳山市环保局,,,,,,,,,,,,,,,,
2022-12-08T16:00:00,1984A,121.544,36.907,乳山市,乳山市气象局,,,,,,,,,,,,,,,,
2022-12-08T16:00:00,1985A,120.636,31.155,吴江市,吴江市环保局,,,,,,,,,,,,,,,,
2022-12-08T16:00:00,1986A,120.635,31.170,吴江市,教师进修学校,,,,,,,,,,,,,,,,
2022-12-08T16:00:00,1987A,120.658,31.172,吴江市,吴江开发区,,,,,,,,,,,,,,,,
2022-12-08T16:00:00,1988A,120.953,31.388,昆山市,昆山实验小学,,,,,,,,,,,,,,,,
2022-12-08T16:00:00,1989A,120.999,31.381,昆山市,震川中学,,,,,,,,,,,,,,,,
2022-12-08T16:00:00,1990A,120.758,31.670,常熟市,海虞子站,,,,,,,,,,,,,,,,
2022-12-08T16:00:00,1991A,120.721,31.671,常熟市,兴福子站,,,,,,,,,,,,,,,,
2022-12-08T16:00:00,1992A,120.734,31.656,常熟市,菱塘子站,,,,,,,,,,,,,,,,
2022-12-08T16:00:00,1993A,120.526,31.874,张家港市,张家港市监测站,,,,,,,,,,,,,,,,
2022-12-08T16:00:00,1994A,120.550,31.882,张家港市,城北小学,,,,,,,,,,,,,,,,
2022-12-08T16:00:00,1995A,121.115,31.453,太仓市,太仓市监测站,,,,,,,,,,,,,,,,
2022-12-08T16:00:00,1996A,121.140,31.422,太仓市,科教新城实小,,,,,,,,,,,,,,,,
2022-12-08T16:00:00,1997A,119.146,31.955,句容市,消防指挥中心,,,,,,,,,,,,,,,,
2022-12-08T16:00:00,1998A,119.180,31.955,句容市,房家坝,,,,,,,,,,,,,,,,
2022-12-08T16:00:00,1999A,120.268,31.920,江阴市,虹桥邮政,,,,,,,,,,,,,,,,
2022-12-08T16:00:00,2000A,120.237,31.909,江阴市,五星公园,,,,,,,,,,,,,,,,
2022-12-08T16:00:00,2001A,120.302,31.920,江阴市,第二实验小学,,,,,,,,,,,,,,,,
2022-12-08T16:00:00,2002A,119.818,31.354,宜兴市,宜兴市环保局,,,,,,,,,,,,,,,,
2022-12-08T16:00:00,2003A,119.794,31.371,宜兴市,宜园,,,,,,,,,,,,,,,,
2022-12-08T16:00:00,2004A,119.579,31.751,金坛市,金坛市环境监测站,,,,,,,,,,,,,,,,
2022-12-08T16:00:00,2005A,119.579,31.737,金坛市,金坛市自来水公司,,,,,,,,,,,,,,,,
2022-12-08T16:00:00,2006A,119.460,31.400,溧阳市,溧阳市东门子站,,,,,,,,,,,,,,,,
2022-12-08T16:00:00,2007A,119.438,31.317,溧阳市,燕山子站,,,,,,,,,,,,,,,,
2022-12-08T16:00:00,2008A,121.173,31.896,海门市,海门市监测站,,,,,,,,,,,,,,,,
2022-12-08T16:00:00,2009A,121.1518,31.89708,海门市,社会福利院,,,,,,,,,,,,,,,,
2022-12-08T16:00:00,2010A,119.7183,30.2366,临安市,市政府,,,,,,,,,,,,,,,,
2022-12-08T16:00:00,2011A,119.6942,30.2311,临安市,四中,,,,,,,,,,,,,,,,
2022-12-08T16:00:00,2012A,119.954,30.054,富阳市,监测站,,,,,,,,,,,,,,,,
2022-12-08T16:00:00,2013A,119.946,30.049,富阳市,富春二小,,,,,,,,,,,,,,,,
2022-12-08T16:00:00,2014A,120.091,29.305,义乌市,江东,,,,,,,,,,,,,,,,
2022-12-08T16:00:00,2015A,120.040,29.334,义乌市,北苑,,,,,,,,,,,,,,,,
2022-12-08T16:00:00,2016A,120.251,29.719,诸暨市,图书馆,,,,,,,,,,,,,,,,
2022-12-08T16:00:00,2017A,120.209,29.732,诸暨市,富林印务,,,,,,,,,,,,,,,,
2022-12-08T16:00:00,2018A,121.989,39.625,瓦房店市,抱龙山庄,,,,,,,,,,,,,,,,
2022-12-08T16:00:00,2019A,122.011,39.617,瓦房店市,东山公园,,,,,,,,,,,,,,,,
2022-12-08T16:00:00,2031A,113.1817,27.9958,株洲市,云田中学,细颗粒物(PM2.5),65,58,78,47,52,67,58,41,41,34,35,7,9,1.1,1
2022-12-08T16:00:00,2054A,114.1099,32.1059,信阳市,平桥分局,颗粒物(PM10),54,57,81,37,54,63,63,39,39,25,44,9,8,0.5,0.7
2022-12-08T16:00:00,2064A,113.9956,32.1271,信阳市,南湾水厂,,45,42,57,31,39,81,72,65,65,20,20,8,7,0.8,0.7
2022-12-08T16:00:00,2065A,114.0775,32.1195,信阳市,市酿酒公司,,,46,69,39,51,66,64,43,43,24,52,9,7,,0.8
2022-12-08T16:00:00,2066A,114.0609,32.1399,信阳市,审计局,,49,47,70,34,51,71,70,48,48,22,47,10,8,0.7,0.8
2022-12-08T16:00:00,2067A,114.6613,33.6128,周口市,市环境监测站,细颗粒物(PM2.5),58,38,74,41,62,79,79,61,61,17,30,5,7,0.1,0.3
2022-12-08T16:00:00,2068A,114.6758,33.6347,周口市,周口师范,细颗粒物(PM2.5),58,39,68,41,59,82,81,64,64,16,27,5,7,0.5,0.7
2022-12-08T16:00:00,2069A,114.6546,33.5979,周口市,市运管处,细颗粒物(PM2.5),68,36,74,49,65,79,77,61,61,19,34,3,5,0.3,0.7
2022-12-08T16:00:00,2070A,114.6369,33.6406,周口市,川汇区环保局,细颗粒物(PM2.5),59,30,64,42,62,82,82,64,64,15,26,1,3,0.6,0.8
2022-12-08T16:00:00,2075A,117.6336,24.4674,漳州市,九湖(对照点),,,,,,,,,,,,,,,,
2022-12-08T16:00:00,2160A,112.85,35.5051,晋城市,自来水公司,颗粒物(PM10),112,174,131,53,76,98,80,60,60,46,54,21,19,1.5,1.8
2022-12-08T16:00:00,2161A,112.8318,35.4936,晋城市,白云商贸,颗粒物(PM10),120,190,144,44,77,100,77,59,59,58,59,18,14,1.5,1.6
2022-12-08T16:00:00,2162A,112.8508,35.4887,晋城市,市环保局,细颗粒物(PM2.5),185,214,156,139,89,97,76,58,58,56,64,21,20,1.4,1.7
2022-12-08T16:00:00,2163A,112.8676,35.4897,晋城市,技术学院,颗粒物(PM10),120,189,136,66,90,92,75,55,55,44,60,19,18,1.7,1.9
2022-12-08T16:00:00,2164A,112.8271,35.4828,晋城市,泽州一中,,,,,,,,,,,,,,,,
2022-12-08T16:00:00,2165A,112.8453,35.546,晋城市,白马寺 (对照点),,,,,,,,,,,,,,,,
2022-12-08T16:00:00,2166A,112.4397,39.3522,朔州市,平朔,颗粒物(PM10),67,83,150,37,54,67,67,37,37,19,48,21,40,0.6,0.8
2022-12-08T16:00:00,2167A,112.4575,39.3617,朔州市,朔唯,,,80,158,37,54,67,66,34,34,21,56,,41,0.6,0.8
2022-12-08T16:00:00,2168A,112.4258,39.3197,朔州市,区政府,颗粒物(PM10),69,88,135,30,60,64,64,37,37,21,49,14,27,0.4,1
2022-12-08T16:00:00,2169A,112.4072,39.3278,朔州市,市环保局,颗粒物(PM10),62,73,112,37,56,66,64,42,42,27,44,14,22,1.0,1.2
2022-12-08T16:00:00,2170A,112.4272,39.3681,朔州市,市二中,颗粒物(PM10),65,79,141,39,57,73,71,39,39,20,48,18,33,0.6,0.8
2022-12-08T16:00:00,2171A,112.7532,37.6945,晋中市,锦纶小区,细颗粒物(PM2.5),102,139,149,76,84,36,33,24,24,64,65,28,26,1.3,1.3
2022-12-08T16:00:00,2173A,112.7249,37.7067,晋中市,南都小区,颗粒物(PM10),100,150,172,66,71,33,33,22,22,64,71,31,28,1.1,1.4
2022-12-08T16:00:00,2174A,112.6991,37.6982,晋中市,榆次区政府,颗粒物(PM10),100,149,165,59,68,30,30,17,17,61,67,30,27,1.0,1.3
2022-12-08T16:00:00,2175A,110.9956,35.0147,运城市,运城中学,细颗粒物(PM2.5),225,251,248,175,179,119,96,47,47,40,49,20,20,1.4,2.1
2022-12-08T16:00:00,2176A,111.0233,35.0611,运城市,禹都开发区,,,,,,,,,,,,,,,,
2022-12-08T16:00:00,2178A,110.9686,35.0303,运城市,地区技校,细颗粒物(PM2.5),200,272,271,150,175,106,89,45,45,42,68,18,20,1.2,2.1
2022-12-08T16:00:00,2179A,111.0414,35.1147,运城市,空港新区,细颗粒物(PM2.5),192,263,291,144,188,76,76,45,45,44,67,18,20,1.4,2.1
2022-12-08T16:00:00,2181A,112.7383,38.4519,忻州市,开发区,细颗粒物(PM2.5),148,178,138,113,94,25,6,7,6,84,58,33,20,1.1,1.1
2022-12-08T16:00:00,2182A,112.7003,38.4928,忻州市,会展中心,细颗粒物(PM2.5),124,129,141,94,92,23,18,16,16,62,55,27,24,0.8,1
2022-12-08T16:00:00,2183A,111.1406,37.5211,吕梁市,环保局,颗粒物(PM10),100,149,146,52,43,16,16,10,10,67,59,33,18,0.6,0.8
2022-12-08T16:00:00,2185A,111.1297,37.5136,吕梁市,自来水公司,颗粒物(PM10),93,135,159,59,48,15,12,10,10,65,56,27,18,0.8,0.9
2022-12-08T16:00:00,2186A,106.8288,39.6778,乌海市,聚英学校,,,,,,,,,,,,,,,,
2022-12-08T16:00:00,2187A,106.8174,39.6973,乌海市,市林业局,,47,47,62,20,32,92,92,56,56,7,27,9,16,0.4,0.7
2022-12-08T16:00:00,2188A,106.7907,39.6667,乌海市,中海勃湾学校,,46,46,52,22,25,92,92,59,59,10,24,9,14,0.3,0.6
2022-12-08T16:00:00,2191A,122.2532,43.6801,通辽市,艺术职业学校,,28,28,39,8,13,63,61,58,51,15,18,5,6,0.2,0.3
2022-12-08T16:00:00,2192A,119.7594,49.2261,呼伦贝尔市,区环保局,,24,24,18,9,12,70,69,68,67,5,6,4,5,0.3,0.3
2022-12-08T16:00:00,2194A,107.5936,40.916,巴彦淖尔市,秋林养殖基地(对照点),,,,,,,,,,,,,,,,
2022-12-08T16:00:00,2195A,107.4212,40.761,巴彦淖尔市,附二中,颗粒物(PM10),51,51,85,7,35,72,72,59,59,11,27,4,10,0.4,0.6
2022-12-08T16:00:00,2196A,107.37,40.7372,巴彦淖尔市,市环保大楼,,46,46,75,17,39,78,78,61,61,7,27,4,9,0.4,0.6
2022-12-08T16:00:00,2197A,113.1306,40.9923,乌兰察布市,集宁新区,,26,26,35,13,18,70,65,56,56,11,25,21,19,0.4,0.5
2022-12-08T16:00:00,2200A,122.0392,46.0656,兴安盟,胜华新制药厂,,25,25,25,17,17,72,64,64,61,13,13,5,5,0.2,0.3
2022-12-08T16:00:00,2201A,121.9504,46.0741,兴安盟,科右前旗环保局,,28,18,19,19,22,74,71,62,62,8,14,2,3,0.3,0.3
2022-12-08T16:00:00,2202A,116.1042,43.9317,锡林郭勒盟,市环保监测站,,21,15,15,2,4,68,65,57,57,3,3,8,7,0.3,0.2
2022-12-08T16:00:00,2203A,116.0781,43.9311,锡林郭勒盟,市政府,细颗粒物(PM2.5),74,54,17,54,7,68,63,56,56,6,6,11,9,0.2,0.2
2022-12-08T16:00:00,2204A,105.6467,38.8363,阿拉善盟,西城区西花园(对照点),,,78,60,20,22,91,90,74,74,,20,12,13,0.2,0.3
2022-12-08T16:00:00,2205A,105.6985,38.8411,阿拉善盟,蒙二幼,颗粒物(PM10),62,74,54,39,35,88,88,78,78,9,17,10,10,0.2,0.6
2022-12-08T16:00:00,2206A,105.724,38.8516,阿拉善盟,环保局新楼,颗粒物(PM10),51,52,49,24,29,87,86,83,77,8,10,11,11,0.2,0.3
2022-12-08T16:00:00,2207A,121.6094,41.998,阜新市,工业园区,颗粒物(PM10),55,59,118,23,51,59,50,40,40,29,37,32,23,0.8,1.2
2022-12-08T16:00:00,2208A,121.6697,42.0279,阜新市,长青街,,,,84,,40,17,,19,,,33,,9,,1.8
2022-12-08T16:00:00,2209A,121.6673,42.0705,阜新市,农业园区,细颗粒物(PM2.5),105,58,51,79,40,63,54,50,50,21,15,32,15,0.7,0.7
2022-12-08T16:00:00,2210A,121.6717,42.0224,阜新市,东苑,颗粒物(PM10),63,75,106,29,52,68,50,41,41,32,39,34,23,0.7,2.3
2022-12-08T16:00:00,2211A,121.6506,42.0498,阜新市,玉龙新城,,44,44,76,19,36,53,47,34,34,26,40,33,17,0.8,0.8
2022-12-08T16:00:00,2212A,123.2,41.1953,辽阳市,宏伟区,颗粒物(PM10),65,80,90,35,41,56,27,34,34,60,51,27,24,1.5,1.5
2022-12-08T16:00:00,2213A,123.1683,41.2495,辽阳市,新华园,颗粒物(PM10),56,61,75,33,50,41,30,26,26,61,55,30,30,1.5,1.5
2022-12-08T16:00:00,2214A,123.2354,41.2639,辽阳市,滨河路,颗粒物(PM10),63,76,58,36,45,52,24,35,35,60,40,26,14,1.9,1.1
2022-12-08T16:00:00,2215A,123.149,41.2991,辽阳市,铁西工业园,颗粒物(PM10),58,66,107,31,93,45,34,28,28,44,51,17,18,1.3,1.8
2022-12-08T16:00:00,2216A,123.8139,42.3022,铁岭市,汇工街西,,45,33,65,31,46,66,35,41,41,43,40,14,24,0.7,1.1
2022-12-08T16:00:00,2217A,123.8649,42.2923,铁岭市,水上乐园,,45,45,49,17,29,67,35,49,49,44,30,16,12,0.4,0.4
2022-12-08T16:00:00,2218A,123.8486,42.2867,铁岭市,银州路东段,,44,44,38,20,32,64,28,48,48,50,33,11,8,0.8,1.1
2022-12-08T16:00:00,2219A,123.7153,42.2217,铁岭市,金沙江路北,,46,46,47,22,25,65,34,44,44,50,40,8,6,0.5,0.5
2022-12-08T16:00:00,2220A,120.4318,41.5881,朝阳市,西梁,颗粒物(PM10),61,72,141,20,61,48,44,31,31,32,50,22,29,0.8,1.5
2022-12-08T16:00:00,2221A,120.4521,41.5646,朝阳市,河畔小区,,49,49,81,18,50,54,49,36,36,18,39,18,17,0.6,1.2
2022-12-08T16:00:00,2222A,120.4176,41.5648,朝阳市,八里堡,颗粒物(PM10),57,64,102,29,54,68,39,36,36,40,48,32,22,1.0,1.5
2022-12-08T16:00:00,2223A,120.3806,41.5969,朝阳市,农业园区,颗粒物(PM10),53,56,77,25,36,61,61,37,37,20,44,16,18,0.6,1.1
2022-12-08T16:00:00,2225A,124.4002,43.1713,四平市,一商场,,31,31,32,17,18,60,54,50,50,21,24,8,7,0.2,0.4
2022-12-08T16:00:00,2226A,124.388,43.193,四平市,境园,,22,22,36,14,15,73,67,58,58,16,20,6,7,0.1,0.2
2022-12-08T16:00:00,2227A,125.1358,42.8845,辽源市,环保局,,23,8,21,8,16,74,73,64,64,5,11,9,10,0.4,0.5
2022-12-08T16:00:00,2229A,125.9358,41.7173,通化市,光明,,,24,40,2,18,68,61,50,50,15,44,14,20,,0.8
2022-12-08T16:00:00,2230A,125.9446,41.7325,通化市,铁路,,25,25,51,6,26,71,63,45,45,14,46,10,20,0.1,0.6
2022-12-08T16:00:00,2231A,126.4219,41.9171,白山市,喜丰,,32,32,79,12,21,70,65,51,51,17,28,21,22,0.6,0.7
2022-12-08T16:00:00,2232A,126.4077,41.9419,白山市,环保局,颗粒物(PM10),55,59,62,18,24,60,56,41,41,15,25,14,15,0.9,1.6
2022-12-08T16:00:00,2233A,124.8006,45.1214,松原市,江南,,26,14,34,18,21,54,50,46,46,10,23,7,12,0.4,0.5
2022-12-08T16:00:00,2234A,124.7965,45.1722,松原市,江北,,,,33,3,16,59,55,49,49,12,24,,5,0.3,0.4
2022-12-08T16:00:00,2235A,122.7911,45.6077,白城市,洮北区环保局,,24,24,29,4,13,76,65,67,66,14,13,5,6,0.2,0.3
2022-12-08T16:00:00,2236A,122.8738,45.5725,白城市,市环保局,,34,34,36,6,11,69,62,66,62,13,17,4,5,0.2,0.3
2022-12-08T16:00:00,2237A,129.47,42.8883,延边朝鲜族自治州,妇幼医院,,25,19,24,17,12,67,49,58,58,24,17,19,18,0.4,0.5
2022-12-08T16:00:00,2238A,129.5055,42.9108,延边朝鲜族自治州,延边医院,,18,10,21,9,10,63,57,58,58,12,11,7,7,0.4,0.5
2022-12-08T16:00:00,2239A,129.3964,42.8881,延边朝鲜族自治州,朝阳川镇医院,,19,12,24,3,13,69,59,66,66,9,9,7,8,0.4,0.5
2022-12-08T16:00:00,2240A,130.9762,45.3001,鸡西市,环保局,,24,24,28,14,14,58,48,51,50,20,15,5,6,0.5,0.4
2022-12-08T16:00:00,2243A,130.9429,45.3039,鸡西市,第一中学,,23,18,29,16,15,63,52,55,55,12,8,5,5,0.4,0.4
2022-12-08T16:00:00,2244A,130.2537,47.3416,鹤岗市,哈啤分公司,,33,28,29,23,22,61,54,56,49,10,11,6,8,0.3,0.4
2022-12-08T16:00:00,2245A,130.2684,47.3086,鹤岗市,斯达机电,,28,28,37,17,18,69,56,58,45,15,14,7,11,0.4,0.4
2022-12-08T16:00:00,2246A,130.3114,47.3388,鹤岗市,东山纸板厂,,37,37,56,17,29,56,44,35,35,14,22,12,13,0.8,0.7
2022-12-08T16:00:00,2247A,130.1097,47.3382,鹤岗市,五号水库(对照点),,22,22,20,15,15,69,66,56,56,5,9,7,7,0.2,0.2
2022-12-08T16:00:00,2248A,131.1511,46.6937,双鸭山市,双合村,,32,29,43,22,35,65,58,54,54,13,17,7,8,0.5,0.8
2022-12-08T16:00:00,2249A,131.1652,46.6191,双鸭山市,南小市,,46,29,39,32,21,63,56,57,57,14,16,7,11,0.3,0.4
2022-12-08T16:00:00,2250A,131.1524,46.6554,双鸭山市,环保局,细颗粒物(PM2.5),54,33,33,38,25,63,56,56,56,17,23,7,7,0.4,0.4
2022-12-08T16:00:00,2251A,131.12,46.5656,双鸭山市,苗圃(对照点),,26,24,30,18,24,68,64,65,65,10,8,5,6,0.4,0.3
2022-12-08T16:00:00,2252A,128.5159,47.4311,伊春市,环保局,,,23,31,8,22,61,58,44,44,10,15,8,5,,0.6
2022-12-08T16:00:00,2253A,128.9102,47.7412,伊春市,电力嘉园,,28,17,31,19,18,65,60,43,43,9,18,8,6,0.6,0.7
2022-12-08T16:00:00,2254A,129.5029,48.471,伊春市,汤旺河国家公园(对照点),,40,38,21,28,17,62,57,50,50,5,4,7,6,0.2,0.2
2022-12-08T16:00:00,2255A,130.2751,46.8028,佳木斯市,佳纺,细颗粒物(PM2.5),58,40,44,41,39,50,39,40,40,18,20,11,9,0.5,0.4
2022-12-08T16:00:00,2256A,130.3995,46.8307,佳木斯市,发电厂,,49,31,32,34,29,55,46,54,41,16,16,4,5,0.4,0.4
2022-12-08T16:00:00,2257A,130.3258,46.7975,佳木斯市,环保局,,46,37,42,32,33,54,43,40,40,21,28,6,9,0.4,0.4
2022-12-08T16:00:00,2258A,130.3648,46.8032,佳木斯市,十一中,,,42,37,26,27,54,45,43,43,24,30,4,6,,0.6
2022-12-08T16:00:00,2259A,130.3794,46.7588,佳木斯市,四丰(对照点),,29,22,23,20,17,63,62,60,60,8,12,1,1,0.2,0.3
2022-12-08T16:00:00,2262A,131.0518,45.8751,七台河市,新一中(对照点),,22,16,30,9,22,74,70,61,59,10,12,10,11,0.4,0.8
2022-12-08T16:00:00,2263A,127.4833,50.2524,黑河市,交通局,,36,36,37,17,31,29,10,24,21,56,40,11,11,0.7,0.7
2022-12-08T16:00:00,2264A,127.5144,50.2341,黑河市,环保局,,39,31,28,27,31,40,27,33,33,33,26,14,18,0.4,0.5
2022-12-08T16:00:00,2265A,127.5291,50.2472,黑河市,大黑河岛(对照点),细颗粒物(PM2.5),166,7,12,126,72,55,50,45,45,6,10,7,10,0.3,0.4
2022-12-08T16:00:00,2266A,126.9785,46.6365,绥化市,人和东街,,40,36,55,28,43,69,54,56,56,20,24,4,5,1.1,1.1
2022-12-08T16:00:00,2267A,126.964,46.6528,绥化市,党政办公中心,细颗粒物(PM2.5),57,44,58,40,45,73,60,62,62,18,22,6,7,0.8,0.8
2022-12-08T16:00:00,2269A,124.1069,50.4097,大兴安岭地区,科技局,,23,16,17,16,17,41,21,36,33,40,21,8,7,0.2,0.4
2022-12-08T16:00:00,2270A,117.396,32.939,蚌埠市,工人疗养院,细颗粒物(PM2.5),172,171,128,130,79,89,29,21,17,51,57,15,12,0.9,0.7
2022-12-08T16:00:00,2271A,117.3605,32.9427,蚌埠市,百货大楼,细颗粒物(PM2.5),158,185,126,120,82,84,22,12,12,60,64,15,14,0.9,0.8
2022-12-08T16:00:00,2273A,117.4185,32.8911,蚌埠市,蚌埠学院,细颗粒物(PM2.5),140,180,125,107,69,81,20,13,13,66,63,17,12,1.0,0.8
2022-12-08T16:00:00,2274A,117.3533,32.9673,蚌埠市,淮上区政府,细颗粒物(PM2.5),144,171,136,110,79,62,27,15,15,48,57,12,11,0.8,0.6
2022-12-08T16:00:00,2275A,117.3145,32.8977,蚌埠市,高新区,细颗粒物(PM2.5),138,,115,105,74,70,25,25,10,64,62,15,12,1.0,0.8
2022-12-08T16:00:00,2277A,116.8305,32.7727,淮南市,潘集区政府,细颗粒物(PM2.5),138,156,159,105,109,54,38,24,24,49,49,11,10,0.5,0.7
2022-12-08T16:00:00,2278A,117.0067,32.6524,淮南市,师范学院,细颗粒物(PM2.5),213,225,160,163,97,59,53,30,30,44,58,16,12,0.8,0.9
2022-12-08T16:00:00,2279A,116.8569,32.5951,淮南市,谢家集区政府,,,,132,,82,46,38,22,22,48,68,19,15,0.5,0.8
2022-12-08T16:00:00,2280A,116.8281,32.633,淮南市,八公山区政府,细颗粒物(PM2.5),113,117,112,85,94,48,48,26,26,34,50,18,15,0.6,0.8
2022-12-08T16:00:00,2281A,116.6325,32.6201,淮南市,焦岗湖风景区管理处(对照点),细颗粒物(PM2.5),169,184,128,128,87,58,58,31,31,5,9,20,17,0.8,0.7
2022-12-08T16:00:00,2282A,116.8004,33.975,淮北市,监测站,细颗粒物(PM2.5),132,157,122,100,80,82,73,62,62,30,38,11,9,0.7,0.7
2022-12-08T16:00:00,2283A,116.8091,33.9007,淮北市,烈山区政府,颗粒物(PM10),102,153,129,,79,93,79,66,66,30,47,6,8,0.7,0.6
2022-12-08T16:00:00,2284A,116.7856,33.9477,淮北市,职业技术学院,细颗粒物(PM2.5),150,154,124,115,84,86,78,64,64,28,38,10,10,0.7,0.6
2022-12-08T16:00:00,2285A,117.8177,30.9412,铜陵市,市第四中学,颗粒物(PM10),79,108,103,43,53,19,19,11,11,52,64,10,10,0.9,0.9
2022-12-08T16:00:00,2286A,117.8059,30.9273,铜陵市,市公路局,细颗粒物(PM2.5),88,72,86,65,63,24,21,13,13,55,66,15,14,0.9,0.9
2022-12-08T16:00:00,2287A,117.7807,30.9413,铜陵市,市新民污水厂,颗粒物(PM10),64,78,77,43,46,26,17,15,15,59,64,10,9,0.7,0.6
2022-12-08T16:00:00,2288A,117.7439,30.8792,铜陵市,市第九中学,颗粒物(PM10),69,88,97,48,50,15,8,10,10,66,62,10,9,1.0,1.1
2022-12-08T16:00:00,2289A,117.846,30.9413,铜陵市,车站新区,,,,74,,54,16,,8,8,58,60,,7,1.0,0.9
2022-12-08T16:00:00,2290A,117.8483,30.97,铜陵市,市职教基地,"颗粒物(PM10),细颗粒物(PM2.5)",80,109,99,59,54,17,13,10,10,49,47,10,7,0.8,0.7
2022-12-08T16:00:00,2291A,117.0809,30.5177,安庆市,环科院,细颗粒物(PM2.5),114,117,109,86,78,92,10,19,19,56,52,,9,0.9,1.1
2022-12-08T16:00:00,2292A,117.0331,30.5119,安庆市,马山宾馆,细颗粒物(PM2.5),93,103,108,69,67,33,17,10,10,55,53,8,10,0.8,1
2022-12-08T16:00:00,2294A,116.9896,30.6145,安庆市,安庆大学,细颗粒物(PM2.5),104,118,104,78,73,35,14,14,14,64,55,9,9,1.0,1
2022-12-08T16:00:00,2295A,118.2903,29.6963,黄山市,延安路89号,,30,28,34,21,29,38,35,20,20,15,19,5,5,0.3,0.4
2022-12-08T16:00:00,2296A,118.327,29.7178,黄山市,黄山东路89号,,,36,41,33,29,30,28,17,17,,25,5,5,,0.6
2022-12-08T16:00:00,2297A,118.1371,30.2756,黄山市,黄山区政府5号楼,,26,26,51,16,27,35,11,19,12,26,19,6,6,0.7,0.5
2022-12-08T16:00:00,2298A,118.3093,32.3153,滁州市,老年大学,细颗粒物(PM2.5),124,130,124,94,80,27,27,16,16,71,76,13,11,0.9,0.9
2022-12-08T16:00:00,2299A,118.3244,32.2786,滁州市,人大宾馆,颗粒物(PM10),91,132,134,64,61,30,30,16,16,65,73,12,10,0.9,1
2022-12-08T16:00:00,2301A,115.8277,32.8929,阜阳市,市监测站,细颗粒物(PM2.5),137,140,128,104,98,86,86,40,40,32,57,14,12,0.7,1
2022-12-08T16:00:00,2303A,115.8554,32.8605,阜阳市,开发区,细颗粒物(PM2.5),149,180,168,114,101,75,75,40,40,46,58,13,10,0.7,1
2022-12-08T16:00:00,2306A,116.989,33.6306,宿州市,火车站,,,,,,,,,,,,,,,,
2022-12-08T16:00:00,2307A,116.5079,31.737,六安市,监测大楼,细颗粒物(PM2.5),112,108,106,84,74,40,38,20,20,48,60,11,9,0.8,0.9
2022-12-08T16:00:00,2308A,116.4738,31.7643,六安市,皖西学院,细颗粒物(PM2.5),100,103,109,75,70,49,49,27,27,42,58,12,10,0.6,0.9
2022-12-08T16:00:00,2309A,116.4996,31.7905,六安市,朝阳厂,细颗粒物(PM2.5),108,,98,81,72,43,43,24,24,,67,10,14,0.7,0.9
2022-12-08T16:00:00,2310A,116.5567,31.7886,六安市,开发区,细颗粒物(PM2.5),105,116,122,79,70,34,33,19,19,52,61,11,10,0.7,0.9
2022-12-08T16:00:00,2311A,115.8072,33.8399,亳州市,污水处理厂,细颗粒物(PM2.5),92,105,118,68,87,99,96,77,77,16,34,12,12,0.7,0.7
2022-12-08T16:00:00,2312A,115.7789,33.8518,亳州市,三国揽胜宫,细颗粒物(PM2.5),89,116,125,66,82,100,97,68,68,22,36,9,6,0.8,0.8
2022-12-08T16:00:00,2314A,117.47,30.6618,池州市,池州学院,细颗粒物(PM2.5),80,96,101,59,65,39,39,17,17,27,44,8,9,0.9,1
2022-12-08T16:00:00,2315A,117.4974,30.6539,池州市,平天湖(对照点),,,,,,,,,,,,,,,,
2022-12-08T16:00:00,2316A,118.7581,30.9454,宣城市,鳌峰子站,细颗粒物(PM2.5),105,84,73,79,52,27,22,25,24,81,80,12,5,1.4,0.8
2022-12-08T16:00:00,2317A,118.7385,30.9743,宣城市,敬亭山子站,细颗粒物(PM2.5),92,87,66,68,47,25,16,20,18,71,71,5,7,1.1,0.8
2022-12-08T16:00:00,2318A,118.7173,30.9427,宣城市,开发区子站,细颗粒物(PM2.5),92,80,65,68,49,29,13,20,19,72,70,5,5,1.3,0.8
2022-12-08T16:00:00,2319A,119.0141,25.4325,莆田市,荔城区仓后路,,42,42,34,14,14,82,79,74,74,13,12,6,6,0.5,0.5
2022-12-08T16:00:00,2320A,119.0015,25.4553,莆田市,莆田市监测站,,27,27,29,14,13,82,82,77,77,7,8,6,6,0.5,0.5
2022-12-08T16:00:00,2321A,119.1119,25.4561,莆田市,涵江区六中,,39,39,33,17,17,84,84,76,74,12,11,4,4,0.6,0.5
