timepoint,stationcode,longitude,latitude,area,positionname,primarypollutant,aqi,pm10,pm10_24h,pm2_5,pm2_5_24h,o3,o3_24h,o3_8h,o3_8h_24h,no2,no2_24h,so2,so2_24h,co,co_24h
2026-02-03T0000,2568A,102.2503,31.8896,阿坝藏族羌族自治州,马师校,,29,29,19,10,10,24,,61,35,18,12,4,4,0.5,0.5
2026-02-03T0000,3994A,102.2174,31.9016,阿坝藏族羌族自治州,马尔康中学西区,,24,24,17,11,9,31,,63,45,17,10,7,7,0.6,0.5
2026-02-03T0000,2695A,80.2899,41.1684,阿克苏地区,电视台,颗粒物(PM10),223,366,207,159,81,8,,78,52,83,37,15,11,3.9,1.7
2026-02-03T0000,2696A,80.2592,41.1541,阿克苏地区,艺术中心,颗粒物(PM10),142,234,179,79,70,4,,79,52,85,38,6,5,0.9,0.8
2026-02-03T0000,2205A,105.699,38.8409,阿拉善盟,蒙二幼,颗粒物(PM10),73,95,44,34,14,65,,85,62,13,13,10,10,0.7,0.6
2026-02-03T0000,2206A,105.7198,38.8508,阿拉善盟,环保局新楼,颗粒物(PM10),68,86,37,33,17,80,,80,78,8,8,9,9,0.5,0.4
2026-02-03T0000,2708A,88.1266,47.8515,阿勒泰地区,市站,,22,16,13,7,5,68,,91,46,17,21,4,4,0.3,0.3
2026-02-03T0000,4166A,88.1198,47.7931,阿勒泰地区,阿勒泰路33号,,19,19,11,9,4,41,,90,54,38,15,8,5,0.5,0.4
2026-02-03T0000,2630A,80.1171,32.4999,阿里地区,阿里监测站,,27,,3,6,3,85,,90,,3,4,9,8,0.3,0.3
2026-02-03T0000,3192A,80.0906,32.5029,阿里地区,阿里藏医院,,30,6,8,3,2,93,,99,97,2,3,7,8,0.2,0.3
2026-02-03T0000,2644A,109.0088,32.6974,安康市,汉滨区检察院,颗粒物(PM10),77,103,82,51,45,23,,76,52,36,22,7,7,1.1,1
2026-02-03T0000,4054A,109.0324,32.6913,安康市,市邮政管理局,细颗粒物(PM2.5),88,122,98,65,48,2,,81,39,62,33,8,7,1.1,0.9
2026-02-03T0000,2291A,117.0806,30.5181,安庆市,环科院,细颗粒物(PM2.5),82,104,65,60,39,59,,95,74,24,24,7,6,0.8,0.7
2026-02-03T0000,2292A,117.0331,30.5118,安庆市,马山宾馆,细颗粒物(PM2.5),84,101,66,62,43,67,,99,84,23,20,6,5,0.9,0.8
2026-02-03T0000,2294A,116.9897,30.6146,安庆市,安庆大学,颗粒物(PM10),72,94,57,47,33,4,,96,61,61,31,4,4,1.0,0.8
2026-02-03T0000,3173A,117.0598,30.5351,安庆市,市人大,细颗粒物(PM2.5),80,106,72,59,38,57,,94,70,32,24,6,6,0.6,0.6
2026-02-03T0000,3123A,105.9408,26.2431,安顺市,凤凰山,,35,33,25,24,22,55,,64,61,11,12,10,13,0.8,0.8
2026-02-03T0000,3124A,105.9443,26.2567,安顺市,金钟山,,39,30,23,27,23,52,,64,61,13,10,14,14,0.9,0.8
2026-02-03T0000,3125A,105.8983,26.248,安顺市,娄家坡,,42,29,24,29,23,56,,62,60,10,12,10,17,0.8,0.8
2026-02-03T0000,1819A,114.3552,36.1017,安阳市,红庙街,细颗粒物(PM2.5),156,134,141,119,117,57,,96,77,42,42,13,8,1.0,1.4
2026-02-03T0000,1820A,114.361,36.0681,安阳市,银杏小区,细颗粒物(PM2.5),149,164,142,114,95,66,,100,81,36,37,7,9,0.9,1.3
2026-02-03T0000,3141A,114.3921,36.0879,安阳市,信访局,细颗粒物(PM2.5),150,147,149,115,113,92,,106,96,21,31,7,10,0.9,1.3
2026-02-03T0000,3669A,114.4706,36.0634,安阳市,左辅环卫站,细颗粒物(PM2.5),163,166,166,124,130,39,,100,67,53,45,6,8,0.8,1
2026-02-03T0000,4117A,114.2918,36.0769,安阳市,钢三路198号,细颗粒物(PM2.5),173,178,175,131,124,58,,84,67,29,37,5,8,0.8,1.3
2026-02-03T0000,1748A,123.0441,41.1201,鞍山市,深沟寺,,26,26,34,10,18,77,,72,68,10,19,8,13,0.5,0.8
2026-02-03T0000,1749A,123.011,41.0931,鞍山市,太阳城,,28,28,39,11,20,73,,67,63,8,23,9,22,0.6,1.3
2026-02-03T0000,1750A,123.0483,41.1445,鞍山市,太平,,24,21,40,8,19,76,,66,64,9,23,10,14,0.2,0.8
2026-02-03T0000,1751A,122.964,41.0968,鞍山市,铁西三道街,,32,32,42,11,19,67,,71,58,24,30,17,15,0.3,0.6
2026-02-03T0000,1753A,123.0219,41.0822,鞍山市,明达新区,,25,24,36,10,20,80,,70,68,10,22,8,20,0.6,1.3
2026-02-03T0000,4201A,122.944647,41.082639,鞍山市,兴盛南路290号,,24,24,55,13,22,64,,70,55,21,31,14,15,0.8,1.1
2026-02-03T0000,2195A,107.4206,40.7609,巴彦淖尔市,附二中,颗粒物(PM10),64,77,46,35,21,22,,68,43,35,24,11,10,0.6,0.5
2026-02-03T0000,2196A,107.37,40.7372,巴彦淖尔市,市环保大楼,颗粒物(PM10),54,58,42,27,18,32,,66,47,31,25,7,6,0.7,0.6
2026-02-03T0000,1956A,86.1476,41.7529,巴音郭楞蒙古自治州,孔雀公园,颗粒物(PM10),134,217,124,56,35,0,,75,58,80,40,9,8,1.2,0.6
2026-02-03T0000,1957A,86.1971,41.7166,巴音郭楞蒙古自治州,棉纺厂,颗粒物(PM10),155,260,152,59,30,11,,77,57,61,24,/,/,/,/
2026-02-03T0000,1958A,86.236,41.7172,巴音郭楞蒙古自治州,经济开发区,颗粒物(PM10),122,194,120,29,16,36,,70,53,25,15,5,6,0.6,0.4
2026-02-03T0000,3181A,106.776805,31.852614,巴中市,市五中,细颗粒物(PM2.5),83,82,64,61,46,7,,46,24,35,28,6,6,1.1,1.1
2026-02-03T0000,3183A,106.7419,31.8654,巴中市,圣泉水务公司,细颗粒物(PM2.5),69,69,63,50,47,3,,58,28,50,30,6,6,1.3,1.2
2026-02-03T0000,3616A,106.7617,31.8343,巴中市,市中心医院,细颗粒物(PM2.5),88,87,68,65,51,2,,50,22,43,30,5,5,1.2,1.1
2026-02-03T0000,2235A,122.7909,45.608,白城市,洮北区环保局,,30,30,42,12,29,57,,70,56,11,15,2,6,0.3,0.3
2026-02-03T0000,2236A,122.8741,45.5725,白城市,市环保局,,,24,42,6,19,42,,70,44,,17,6,5,0.3,0.4
2026-02-03T0000,2231A,126.4219,41.9172,白山市,喜丰,细颗粒物(PM2.5),78,71,72,57,45,7,,72,38,80,44,17,18,1.6,1.3
2026-02-03T0000,2232A,126.4082,41.9416,白山市,环保局,细颗粒物(PM2.5),59,54,58,42,44,34,,66,39,29,29,12,14,1.2,1.1
2026-02-03T0000,2647A,104.1727,36.5448,白银市,第三小学,颗粒物(PM10),78,105,115,54,57,40,,66,48,31,34,21,33,1.2,1.1
2026-02-03T0000,2648A,104.1467,36.5482,白银市,动力公司,颗粒物(PM10),77,104,106,50,47,49,,80,62,27,26,10,17,0.8,0.8
2026-02-03T0000,2512A,106.6102,23.901,百色市,市监测站,,24,24,32,13,23,9,,48,32,34,17,8,10,0.8,0.8
2026-02-03T0000,2513A,106.6524,23.8842,百色市,市中心血站,,46,42,43,32,31,20,,54,40,17,14,8,11,0.9,0.8
2026-02-03T0000,4133A,106.6273,23.8798,百色市,龙景西路,颗粒物(PM10),53,56,44,33,28,15,,45,28,16,15,8,10,0.8,0.7
2026-02-03T0000,2270A,117.396,32.9389,蚌埠市,工人疗养院,细颗粒物(PM2.5),166,159,110,126,77,33,,101,68,63,34,4,4,0.8,0.7
2026-02-03T0000,2271A,117.3606,32.9428,蚌埠市,百货大楼,细颗粒物(PM2.5),165,159,112,125,74,19,,101,68,71,30,8,8,0.9,0.7
2026-02-03T0000,2273A,117.4183,32.8909,蚌埠市,蚌埠学院,细颗粒物(PM2.5),169,156,101,128,76,56,,84,64,33,37,3,5,0.8,0.7
2026-02-03T0000,2274A,117.3534,32.9672,蚌埠市,淮上区政府,细颗粒物(PM2.5),180,156,110,136,84,38,,103,74,58,31,4,5,0.8,0.6
2026-02-03T0000,2275A,117.3143,32.8977,蚌埠市,高新区,细颗粒物(PM2.5),172,151,101,130,76,62,,86,60,25,35,5,6,0.8,0.6
2026-02-03T0000,3715A,117.3091,32.9314,蚌埠市,蚌埠田家炳中学,细颗粒物(PM2.5),166,158,115,126,78,55,,103,76,41,33,4,12,0.8,0.6
2026-02-03T0000,1585A,109.8761,40.6533,包头市,市环境监测站,细颗粒物(PM2.5),78,65,39,57,21,1,,72,24,76,41,11,17,1.5,0.9
2026-02-03T0000,1587A,109.9992,40.5843,包头市,包头八中,"颗粒物(PM10),细颗粒物(PM2.5)",63,76,45,45,24,4,,65,24,74,44,16,10,2.3,1.1
2026-02-03T0000,1589A,109.8641,40.6288,包头市,惠龙物流,颗粒物(PM10),62,73,40,41,21,4,,75,30,82,45,16,18,2.2,1.2
2026-02-03T0000,1590A,110.0376,40.5546,包头市,东河鸿龙湾,细颗粒物(PM2.5),74,87,44,54,20,13,,73,32,83,55,32,15,0.9,0.9
2026-02-03T0000,3283A,109.9154,40.5684,包头市,滨河大厦,颗粒物(PM10),61,72,37,40,23,1,,65,29,82,51,12,14,1.4,1
2026-02-03T0000,3419A,109.9449,40.6259,包头市,包头市委党校,,48,48,35,29,13,4,,67,27,81,45,14,13,1.7,0.9
2026-02-03T0000,3683A,109.8332,40.6577,包头市,昆区政府,细颗粒物(PM2.5),87,88,38,64,23,2,,72,24,92,42,17,20,2.2,1.1
2026-02-03T0000,1931A,107.0802,34.3129,宝鸡市,竹园沟,颗粒物(PM10),95,140,126,67,44,39,,88,68,25,20,6,7,0.7,0.6
2026-02-03T0000,1933A,107.1429,34.3549,宝鸡市,监测站,细颗粒物(PM2.5),118,166,148,89,61,33,,83,57,41,31,5,5,0.7,0.7
2026-02-03T0000,1934A,107.1172,34.3759,宝鸡市,技工学校,细颗粒物(PM2.5),119,161,149,90,64,53,,87,74,27,26,5,5,0.9,0.8
2026-02-03T0000,1936A,107.2025,34.3518,宝鸡市,文理学院,细颗粒物(PM2.5),135,165,147,103,65,35,,91,68,48,31,4,5,1.0,0.7
2026-02-03T0000,1937A,107.2396,34.3626,宝鸡市,三迪小学,细颗粒物(PM2.5),130,186,158,99,65,26,,87,62,69,42,4,4,0.9,0.8
2026-02-03T0000,4155A,107.1721,34.3558,宝鸡市,滨河北路,细颗粒物(PM2.5),124,186,153,94,66,45,,84,67,28,22,6,6,1.0,0.8
2026-02-03T0000,4308A,107.3898,34.3601,宝鸡市,陈仓区北开路21号,细颗粒物(PM2.5),137,178,180,104,83,29,,85,66,53,39,8,32,0.7,0.8
2026-02-03T0000,1051A,115.4803,38.8568,保定市,游泳馆,细颗粒物(PM2.5),102,92,71,76,65,38,,74,52,53,44,10,5,0.7,0.6
2026-02-03T0000,1052A,115.509,38.8895,保定市,华电二区,细颗粒物(PM2.5),97,82,71,72,63,45,,69,50,39,42,4,2,0.7,0.8
2026-02-03T0000,1053A,115.4588,38.9037,保定市,接待中心,细颗粒物(PM2.5),108,96,83,81,67,37,,68,50,40,35,5,2,0.4,0.4
2026-02-03T0000,1054A,115.4484,38.8344,保定市,地表水厂,细颗粒物(PM2.5),110,125,96,83,63,7,,71,43,79,44,13,6,0.6,0.5
2026-02-03T0000,3581A,115.3136,38.9511,保定市,满城区生态环境分局,细颗粒物(PM2.5),102,107,97,76,66,51,,74,49,35,41,7,4,0.8,0.7
2026-02-03T0000,3582A,115.4709,38.7628,保定市,清苑区第二中学,细颗粒物(PM2.5),113,117,98,85,66,38,,73,52,40,42,14,7,0.6,0.6
2026-02-03T0000,3583A,115.6231,39.0223,保定市,徐水物探局,细颗粒物(PM2.5),83,108,113,61,73,12,,72,33,64,46,6,5,0.7,0.8
2026-02-03T0000,4004A,115.4199,38.8665,保定市,双鹰农机,细颗粒物(PM2.5),120,126,104,91,71,17,,79,50,72,40,10,7,0.7,0.6
2026-02-03T0000,4034A,115.515,38.8589,保定市,植保所站,细颗粒物(PM2.5),97,93,85,72,60,26,,71,45,58,46,4,2,0.9,0.8
2026-02-03T0000,2594A,99.1589,25.1137,保山市,市环境监测站,,21,21,25,10,13,64,,90,75,6,10,2,3,0.2,0.3
2026-02-03T0000,2595A,99.1616,25.1381,保山市,市环保局,,30,30,26,15,12,72,,89,78,3,7,3,3,0.4,0.4
2026-02-03T0000,1867A,109.1435,21.4085,北海市,海滩公园,颗粒物(PM10),63,76,61,39,30,80,,110,99,17,16,12,10,1.0,0.9
2026-02-03T0000,1868A,109.0983,21.466,北海市,新市环保局,细颗粒物(PM2.5),63,69,57,45,35,75,,96,89,17,16,8,8,0.7,0.7
2026-02-03T0000,1869A,109.1775,21.5232,北海市,北海工业园,细颗粒物(PM2.5),79,69,59,58,37,69,,105,91,18,16,14,9,0.9,0.8
2026-02-03T0000,3400A,109.1844,21.4396,北海市,龙潭自来水厂,细颗粒物(PM2.5),70,84,71,51,42,70,,107,89,15,15,6,11,1.1,1
2026-02-03T0000,1001A,116.3611,39.8786,北京市,万寿西宫,颗粒物(PM10),63,75,32,40,17,14,,62,39,72,32,3,2,0.6,0.4
2026-02-03T0000,1003A,116.4174,39.9289,北京市,东四,颗粒物(PM10),59,67,30,38,14,30,,56,43,38,25,5,4,0.4,0.3
2026-02-03T0000,1004A,116.4073,39.8858,北京市,天坛,颗粒物(PM10),53,56,29,33,15,20,,61,40,42,26,1,2,0.6,0.4
2026-02-03T0000,1005A,116.4622,39.9364,北京市,农展馆,颗粒物(PM10),57,64,28,36,14,28,,64,46,40,22,4,3,0.6,0.4
2026-02-03T0000,1006A,116.3399,39.9293,北京市,官园,颗粒物(PM10),58,65,31,37,16,13,,57,38,61,28,3,3,0.7,0.4
2026-02-03T0000,1007A,116.2879,39.9613,北京市,海淀万柳,颗粒物(PM10),57,63,31,34,16,2,,51,28,73,41,2,2,0.7,0.4
2026-02-03T0000,1008A,116.6635,40.1349,北京市,顺义新城,颗粒物(PM10),57,63,24,27,10,4,,76,27,64,24,4,4,0.7,0.4
2026-02-03T0000,1009A,116.6275,40.327,北京市,怀柔镇,,25,25,15,14,7,39,,73,52,13,9,4,4,0.4,0.3
2026-02-03T0000,1010A,116.2295,40.217,北京市,昌平镇,,38,38,25,21,11,30,,65,38,32,21,2,2,0.5,0.4
2026-02-03T0000,1011A,116.3968,39.982,北京市,奥体中心,颗粒物(PM10),57,64,28,34,14,2,,61,37,90,35,4,4,0.6,0.3
2026-02-03T0000,3418A,116.8336,40.4095,北京市,密云新城,,16,15,14,7,6,51,,76,44,10,10,3,3,0.2,0.2
2026-02-03T0000,3671A,116.0879,39.9725,北京市,门头沟三家店,颗粒物(PM10),51,52,40,31,17,5,,51,22,37,30,3,3,0.5,0.5
2026-02-03T0000,3672A,116.1507,39.8246,北京市,丰台云岗,,,,32,,15,,,62,37,,35,,3,,0.4
2026-02-03T0000,3674A,115.9578,39.7602,北京市,房山燕山,,44,44,33,29,20,28,,55,42,27,25,5,5,0.9,0.5
2026-02-03T0000,3675A,116.4669,39.7734,北京市,大兴旧宫,颗粒物(PM10),58,65,32,29,12,15,,62,29,57,33,2,3,0.6,0.4
2026-02-03T0000,3694A,115.9859,40.4562,北京市,延庆石河营,,45,45,21,26,11,7,,74,36,50,27,3,4,0.9,0.5
2026-02-03T0000,3695A,116.6151,40.3052,北京市,怀柔新城,,28,24,12,19,7,41,,71,55,14,11,5,4,0.4,0.3
2026-02-03T0000,3696A,116.2542,39.8764,北京市,丰台小屯,颗粒物(PM10),67,84,36,39,16,1,,48,22,76,37,3,3,0.8,0.4
2026-02-03T0000,3697A,116.8399,40.3843,北京市,密云镇,,32,32,19,15,7,15,,77,28,44,21,2,2,0.5,0.4
2026-02-03T0000,4057A,115.9423,40.4431,北京市,延庆百泉,,38,34,18,26,10,28,,72,51,29,17,2,3,0.5,0.4
2026-02-03T0000,4058A,116.6598,39.9164,北京市,通州新华,颗粒物(PM10),55,60,30,29,11,1,,58,29,82,28,4,3,0.8,0.5
2026-02-03T0000,4182A,116.1942,39.9158,北京市,石景山八角,颗粒物(PM10),59,68,39,32,16,5,,51,26,58,39,3,2,0.5,0.3
2026-02-03T0000,4194A,117.078628,40.151726,北京市,平谷新城,,39,39,16,27,9,16,,74,36,27,12,3,3,0.8,0.4
2026-02-03T0000,1761A,123.8274146,41.31234549,本溪市,大峪,颗粒物(PM10),63,76,72,41,43,13,,62,30,51,41,7,9,1.0,1.5
2026-02-03T0000,1763A,123.7169,41.3094,本溪市,彩屯,细颗粒物(PM2.5),82,95,104,60,59,22,,72,37,43,38,10,10,1.6,1.5
2026-02-03T0000,1764A,123.7672166,41.28649327,本溪市,东明,细颗粒物(PM2.5),69,73,71,50,51,10,,68,22,63,54,8,12,1.2,1.7
2026-02-03T0000,1765A,123.799345,41.266614,本溪市,新立屯,,43,43,52,27,26,12,,64,21,61,44,9,15,1.2,1.6
2026-02-03T0000,1766A,123.829144,41.336777,本溪市,威宁,颗粒物(PM10),68,85,86,43,46,7,,60,22,53,41,5,7,1.5,1.4
2026-02-03T0000,2587A,105.287,27.3133,毕节市,八中,颗粒物(PM10),55,59,30,33,19,31,,48,35,18,16,8,9,1.1,1
2026-02-03T0000,2588A,105.3079,27.2987,毕节市,师专,颗粒物(PM10),52,53,30,34,17,33,,55,38,17,16,8,9,0.9,0.9
2026-02-03T0000,4263A,105.3688,27.3598,毕节市,工业大道,细颗粒物(PM2.5),53,47,26,37,20,40,,56,42,14,13,10,9,/,/
2026-02-03T0000,1629A,117.9961,37.3604,滨州市,第二水厂,细颗粒物(PM2.5),75,85,133,55,98,7,,59,38,83,48,16,10,0.5,1
2026-02-03T0000,1630A,117.9789,37.3931,滨州市,北中新校,细颗粒物(PM2.5),70,78,123,51,92,19,,65,40,54,40,9,7,0.8,1.1
2026-02-03T0000,3514A,117.9379,37.3959,滨州市,中海酒店,细颗粒物(PM2.5),68,75,103,49,87,11,,45,28,66,43,10,9,1.0,1.2
2026-02-03T0000,3515A,117.9381509,37.35547456,滨州市,开发区一中,颗粒物(PM10),84,117,137,53,97,2,,54,31,78,47,15,12,0.8,1.2
2026-02-03T0000,3516A,118.0914,37.6938,滨州市,金海六路,细颗粒物(PM2.5),102,80,100,76,79,5,,72,26,89,57,14,10,0.9,1.3
2026-02-03T0000,4028A,117.9955,37.3752,滨州市,滨州市西街道办事处,细颗粒物(PM2.5),83,73,123,61,95,4,,69,28,64,40,11,9,1.3,1.4
2026-02-03T0000,2311A,115.8071,33.8399,亳州市,污水处理厂,细颗粒物(PM2.5),147,147,137,112,92,46,,108,82,45,32,19,7,0.6,0.6
2026-02-03T0000,2312A,115.7789,33.8519,亳州市,三国揽胜宫,细颗粒物(PM2.5),155,182,164,118,94,56,,98,77,41,34,11,6,0.7,0.7
2026-02-03T0000,3332A,115.7631,33.803,亳州市,亳州学院,细颗粒物(PM2.5),135,144,140,103,91,79,,106,91,23,26,4,5,0.7,0.7
2026-02-03T0000,2693A,82.0482,44.8553,博尔塔拉蒙古自治州,市党校,细颗粒物(PM2.5),92,116,101,68,62,54,,62,56,26,27,2,3,0.6,0.7
2026-02-03T0000,2694A,82.0805,44.8966,博尔塔拉蒙古自治州,市环保局,细颗粒物(PM2.5),127,137,133,96,86,36,,62,56,48,36,5,7,1.4,1.2
2026-02-03T0000,1071A,116.8733,38.2922,沧州市,沧县城建局,细颗粒物(PM2.5),70,79,65,51,47,32,,71,46,60,45,8,4,0.6,0.5
2026-02-03T0000,1072A,116.8462,38.3189,沧州市,电视转播站,细颗粒物(PM2.5),74,65,68,54,59,43,,72,51,47,47,4,4,0.8,0.8
2026-02-03T0000,1073A,116.8588,38.3161,沧州市,市环保局,细颗粒物(PM2.5),68,65,73,49,45,39,,62,41,45,44,8,6,0.8,0.7
2026-02-03T0000,3324A,116.8011,38.294,沧州市,河北水利电力学院,细颗粒物(PM2.5),75,75,63,55,53,4,,65,32,92,47,8,4,0.8,0.5
2026-02-03T0000,2622A,97.1813,31.1289,昌都市,昌都监测站,细颗粒物(PM2.5),97,118,30,72,14,4,,78,56,57,16,7,4,1.8,0.5
2026-02-03T0000,3719A,97.1707,31.1428,昌都市,昌都会议中心,,25,22,12,17,9,38,,70,60,11,4,5,4,0.4,0.2
2026-02-03T0000,2692A,87.2722,44.0298,昌吉回族自治州,新区政务中心,细颗粒物(PM2.5),322,336,127,272,87,1,,64,35,85,56,8,8,2.1,1.3
2026-02-03T0000,3613A,87.3069,44.0093,昌吉回族自治州,亚心广场,细颗粒物(PM2.5),314,337,148,264,112,3,,62,39,66,47,9,8,2.2,1.4
2026-02-03T0000,4164A,87.2057,43.9289,昌吉回族自治州,财政所,细颗粒物(PM2.5),70,72,50,51,33,43,,79,55,32,19,5,5,1.1,0.7
2026-02-03T0000,1120A,125.2874,43.9024,长春市,客车厂,颗粒物(PM10),54,57,59,36,45,54,,62,51,31,43,12,11,0.6,0.7
2026-02-03T0000,1121A,125.2943,43.8508,长春市,邮电学院,细颗粒物(PM2.5),54,50,65,38,46,49,,62,53,25,40,9,12,0.7,0.8
2026-02-03T0000,1122A,125.3648,43.8745,长春市,劳动公园,颗粒物(PM10),55,59,72,36,45,53,,65,57,27,36,6,6,0.8,1
2026-02-03T0000,1123A,125.3233,43.8781,长春市,园林处,细颗粒物(PM2.5),53,54,62,37,46,59,,63,59,22,34,15,16,0.7,0.7
2026-02-03T0000,1124A,125.4604,43.7904,长春市,净月潭,,43,41,56,30,43,63,,66,62,16,23,8,7,0.6,0.6
2026-02-03T0000,1126A,125.38,43.8422,长春市,经开区环卫处,,49,49,66,32,46,48,,57,45,31,47,7,6,0.7,0.9
2026-02-03T0000,1127A,125.234,43.7761,长春市,高新区管委会,细颗粒物(PM2.5),53,52,76,37,56,48,,65,42,28,42,7,9,0.6,0.9
2026-02-03T0000,1128A,125.1695,43.83,长春市,岱山公园,细颗粒物(PM2.5),53,53,60,37,47,38,,68,32,44,47,9,8,0.5,0.6
2026-02-03T0000,4281A,125.334645,43.916281,长春市,北亚泰大街1068号,"颗粒物(PM10),细颗粒物(PM2.5)",59,68,66,42,48,37,,56,46,41,45,12,11,0.7,0.7
2026-02-03T0000,1335A,113.082,28.2421,长沙市,经开区环保局,颗粒物(PM10),73,96,70,49,39,55,,93,80,40,31,4,3,0.7,0.6
2026-02-03T0000,1336A,112.8873,28.2202,长沙市,高开区环保局,细颗粒物(PM2.5),79,97,71,58,50,65,,99,88,29,29,6,5,0.9,0.8
2026-02-03T0000,1337A,113.0785,28.2012,长沙市,马坡岭,细颗粒物(PM2.5),80,99,72,59,45,24,,103,83,78,34,6,6,0.9,0.9
2026-02-03T0000,1338A,112.9448,28.1894,长沙市,湖南师范大学,颗粒物(PM10),75,99,69,44,38,65,,113,103,35,26,5,4,0.9,0.8
2026-02-03T0000,1339A,113.0177,28.1322,长沙市,雨花区环保局,细颗粒物(PM2.5),77,92,66,56,41,62,,94,88,43,33,9,8,0.8,0.7
2026-02-03T0000,1340A,112.9795,28.2593,长沙市,伍家岭,颗粒物(PM10),77,104,77,55,47,55,,102,87,39,31,8,5,0.8,0.8
2026-02-03T0000,1341A,113.002,28.1944,长沙市,火车新站,细颗粒物(PM2.5),79,96,72,58,48,70,,104,95,38,35,4,3,0.9,0.9
2026-02-03T0000,1342A,112.9846,28.1177,长沙市,天心区环保局,细颗粒物(PM2.5),74,88,64,54,58,74,,105,98,37,36,7,6,0.7,0.6
2026-02-03T0000,1343A,112.8906,28.1307,长沙市,湖南中医药大学,颗粒物(PM10),72,94,67,45,38,63,,109,94,44,37,8,7,0.8,0.8
2026-02-03T0000,1727A,113.1146,36.1547,长治市,清华站,,,,43,,22,82,,77,76,20,29,18,13,0.9,0.8
2026-02-03T0000,1730A,113.0887,36.2126,长治市,审计局,细颗粒物(PM2.5),99,,46,74,32,74,,74,71,27,30,15,12,0.8,0.6
2026-02-03T0000,1731A,113.0845,36.1856,长治市,长治八中,细颗粒物(PM2.5),100,98,65,75,38,73,,72,68,20,26,18,14,1.0,0.8
2026-02-03T0000,2845A,113.1561,36.1912,长治市,德盛苑,细颗粒物(PM2.5),80,66,39,59,29,83,,80,79,15,17,16,13,0.7,0.6
2026-02-03T0000,3568A,113.0603,36.0464,长治市,向阳小学,细颗粒物(PM2.5),104,116,74,78,37,68,,80,75,39,32,17,14,0.8,0.7
2026-02-03T0000,3569A,112.8788,36.315,长治市,屯留一中,细颗粒物(PM2.5),75,83,49,55,27,56,,81,66,27,28,13,9,0.5,0.3
2026-02-03T0000,4189A,113.113092,36.199482,长治市,英华南巷50号,细颗粒物(PM2.5),88,76,60,65,36,73,,74,69,19,27,17,12,0.8,0.8
2026-02-03T0000,4190A,113.23666,36.33435,长治市,学府街1号,细颗粒物(PM2.5),68,75,58,49,32,4,,73,31,83,49,11,17,0.9,1
2026-02-03T0000,1854A,111.696,28.9725,常德市,市二中,细颗粒物(PM2.5),100,126,86,75,53,61,,97,78,29,24,8,6,1.1,1
2026-02-03T0000,3138A,111.7152,29.0288,常德市,武陵区永安,颗粒物(PM10),92,133,91,66,51,77,,103,87,25,23,12,5,0.9,0.9
2026-02-03T0000,3139A,111.6891,28.9881,常德市,鼎城区玉霞,颗粒物(PM10),86,121,86,62,51,82,,104,89,23,25,12,8,0.8,0.9
2026-02-03T0000,3140A,111.6651,29.0526,常德市,武陵区长庚,细颗粒物(PM2.5),87,112,86,64,55,86,,103,95,18,23,7,5,0.7,0.8
2026-02-03T0000,1196A,119.9524,31.7586,常州市,市监测站,细颗粒物(PM2.5),85,86,91,63,62,34,,87,51,57,48,7,6,0.6,0.7
2026-02-03T0000,1200A,119.9351,31.703,常州市,武进监测站,细颗粒物(PM2.5),105,107,88,79,64,35,,81,49,50,42,8,6,1.0,0.6
2026-02-03T0000,3002A,119.9701,31.813,常州市,行政中心,细颗粒物(PM2.5),69,76,93,50,65,37,,86,50,53,43,6,5,0.7,0.8
2026-02-03T0000,3003A,120.0434,31.7726,常州市,经开区,细颗粒物(PM2.5),75,89,105,55,61,29,,83,38,60,47,12,12,0.6,0.8
2026-02-03T0000,3010A,119.8919,31.7892,常州市,钟楼,细颗粒物(PM2.5),79,81,95,58,67,44,,82,54,42,41,7,7,0.7,0.8
2026-02-03T0000,3429A,119.8595,31.706,常州市,武进经发区,细颗粒物(PM2.5),113,114,89,85,67,35,,82,44,55,41,7,5,1.3,1
2026-02-03T0000,3430A,119.5812,31.7256,常州市,金坛城区,细颗粒物(PM2.5),140,144,89,107,66,17,,97,63,72,27,7,6,0.9,0.7
2026-02-03T0000,4089A,119.9551,31.863,常州市,崇义南街5-H号,细颗粒物(PM2.5),92,85,96,68,70,24,,86,41,62,49,5,5,0.8,0.9
2026-02-03T0000,2220A,120.4318,41.588,朝阳市,西梁,,45,39,45,31,22,41,,71,48,36,26,9,11,0.9,0.7
2026-02-03T0000,2221A,120.452,41.565,朝阳市,河畔小区,,31,31,32,20,16,56,,71,55,20,19,9,11,0.7,0.7
2026-02-03T0000,2222A,120.4176,41.5648,朝阳市,八里堡,细颗粒物(PM2.5),57,45,42,40,22,12,,66,32,60,31,13,14,1.2,0.8
2026-02-03T0000,3026A,116.6179,23.6608,潮州市,市政府,,42,38,31,29,18,72,,93,85,14,9,4,3,0.5,0.5
2026-02-03T0000,4036A,116.646,23.676,潮州市,金山,,42,37,27,29,19,76,,95,88,14,11,4,3,0.6,0.6
2026-02-03T0000,2473A,113.0116,25.8228,郴州市,市职中,细颗粒物(PM2.5),65,55,42,47,36,0,,58,25,36,18,7,6,0.9,0.6
2026-02-03T0000,2475A,113.0381,25.8074,郴州市,市审计局,细颗粒物(PM2.5),64,70,42,46,31,0,,47,26,50,22,5,5,/,/
2026-02-03T0000,2476A,113.0348,25.7757,郴州市,市环保局,细颗粒物(PM2.5),68,84,50,49,30,0,,50,24,51,25,8,7,0.8,0.6
2026-02-03T0000,4252A,113.0138,25.8011,郴州市,好美居路49号,细颗粒物(PM2.5),68,66,44,49,33,2,,59,26,44,20,7,7,/,/
2026-02-03T0000,1431A,103.9727,30.7242,成都市,金泉两河,细颗粒物(PM2.5),104,130,110,78,66,54,,71,56,32,52,2,3,0.9,1.1
2026-02-03T0000,1432A,104.1423,30.6765,成都市,十里店,细颗粒物(PM2.5),70,86,100,51,53,59,,61,60,28,52,4,4,0.7,0.9
2026-02-03T0000,1433A,104.0594,30.5765,成都市,三瓦窑,颗粒物(PM10),73,95,89,49,51,44,,74,64,40,51,4,4,1.0,1
2026-02-03T0000,1434A,104.1122,30.6306,成都市,沙河铺,细颗粒物(PM2.5),70,84,90,51,51,54,,61,57,26,50,2,3,0.8,0.9
2026-02-03T0000,2880A,104.0219,30.6561,成都市,大石西路,细颗粒物(PM2.5),104,119,101,78,64,36,,68,58,38,44,6,6,0.9,0.9
2026-02-03T0000,3136A,104.2724,30.559,成都市,龙泉驿区区政府,细颗粒物(PM2.5),67,58,71,48,47,68,,79,74,10,20,6,6,0.8,0.8
2026-02-03T0000,3357A,104.0028,30.6891,成都市,金博路,细颗粒物(PM2.5),107,112,96,80,59,48,,73,60,35,48,5,5,0.9,1.1
2026-02-03T0000,3359A,104.056,30.5228,成都市,华阳,细颗粒物(PM2.5),63,63,75,45,48,60,,76,66,23,42,3,3,1.0,1.1
2026-02-03T0000,3488A,104.387954,30.746684,成都市,青石路225号,细颗粒物(PM2.5),80,81,86,59,51,53,,78,59,26,44,4,4,0.9,0.9
2026-02-03T0000,3489A,104.0788,30.4054,成都市,科学城,颗粒物(PM10),56,62,71,35,45,50,,60,56,10,20,6,6,0.9,0.9
2026-02-03T0000,4011A,103.8505,30.6946,成都市,光华大道三段,细颗粒物(PM2.5),108,143,138,81,79,62,,82,70,30,44,4,4,0.9,1
2026-02-03T0000,4144A,104.3257,30.6406,成都市,八角井街185号,细颗粒物(PM2.5),74,84,93,54,47,64,,76,70,17,30,4,4,0.9,0.9
2026-02-03T0000,4224A,104.2433276,30.53529463,成都市,鲸龙路1057号,颗粒物(PM10),60,69,81,42,46,60,,80,67,22,35,5,5,0.8,0.8
2026-02-03T0000,1062A,117.9531,40.908,承德市,铁路,颗粒物(PM10),52,53,38,35,17,10,,65,17,40,23,7,6,1.2,0.6
2026-02-03T0000,1063A,117.9397,40.9763,承德市,中国银行,细颗粒物(PM2.5),58,63,30,41,13,7,,70,25,46,19,3,3,0.9,0.5
2026-02-03T0000,4073A,117.9462,40.95,承德市,杏林街1号,细颗粒物(PM2.5),60,52,28,43,20,4,,76,26,52,23,8,7,1.1,0.6
2026-02-03T0000,4274A,117.7994,40.9605,承德市,滨河大街98号,,46,46,28,22,14,18,,74,33,39,16,4,10,0.5,0.4
2026-02-03T0000,2314A,117.4698,30.6617,池州市,池州学院,细颗粒物(PM2.5),78,84,63,57,45,63,,85,66,25,29,3,5,1.1,1.2
2026-02-03T0000,3237A,117.4918,30.6617,池州市,展览馆,细颗粒物(PM2.5),78,84,64,57,41,46,,83,56,29,29,2,2,1.0,1.1
2026-02-03T0000,3333A,117.5626,30.695,池州市,第八中学,细颗粒物(PM2.5),75,91,63,55,41,63,,85,67,22,28,3,4,0.8,1
2026-02-03T0000,3334A,117.5037,30.6242,池州市,第十二中学,颗粒物(PM10),71,91,67,51,41,15,,87,50,57,38,2,3,1.2,1.5
2026-02-03T0000,1744A,118.9229,42.2816,赤峰市,松山一中,,21,20,30,8,15,66,,68,64,8,24,2,7,0.6,0.9
2026-02-03T0000,1745A,118.9588,42.2733,赤峰市,哈达街,,20,7,20,3,9,63,,68,64,10,15,6,7,0.6,0.6
2026-02-03T0000,1746A,118.8792,42.2551,赤峰市,天义路,,50,,12,35,11,63,,70,58,6,10,5,6,0.4,0.5
2026-02-03T0000,3058A,119.2656,42.0356,赤峰市,银河街,细颗粒物(PM2.5),100,126,65,75,29,25,,73,42,33,23,27,19,1.6,1.3
2026-02-03T0000,3286A,118.9359,42.3146,赤峰市,桥北物流园区,,23,13,21,10,15,73,,78,70,11,19,4,4,0.5,0.6
2026-02-03T0000,2521A,107.3473,22.4137,崇左市,市环保局江州分局,细颗粒物(PM2.5),79,72,52,58,40,20,,62,48,31,15,5,7,1.0,0.9
2026-02-03T0000,4256A,107.375,22.3736,崇左市,石景林东路7号,细颗粒物(PM2.5),73,75,51,53,40,16,,69,48,35,18,8,8,0.8,0.7
2026-02-03T0000,3207A,118.31131,32.3033,滁州市,市政府原办公楼,细颗粒物(PM2.5),142,121,83,108,64,36,,107,75,42,30,4,4,0.8,0.6
2026-02-03T0000,3331A,118.3268,32.2633,滁州市,图书馆,细颗粒物(PM2.5),114,123,72,86,48,39,,102,73,45,25,7,7,0.8,0.6
2026-02-03T0000,4101A,118.3196,32.3335,滁州市,银山路666号,细颗粒物(PM2.5),162,126,76,123,69,32,,114,73,47,25,7,9,0.8,0.6
2026-02-03T0000,4102A,118.3426,32.2979,滁州市,黄山路555号,细颗粒物(PM2.5),145,149,91,111,65,32,,116,78,64,28,4,5,0.7,0.5
2026-02-03T0000,2606A,101.5379,25.0492,楚雄彝族自治州,市经济开发区,,48,48,27,23,16,30,,71,62,34,19,4,4,1.0,0.8
2026-02-03T0000,4153A,101.5536,25.0343,楚雄彝族自治州,团结路562号,,29,22,24,20,16,68,,73,71,3,17,3,4,0.5,0.5
2026-02-03T0000,2549A,107.5087,31.2186,达州市,市环境监测站,细颗粒物(PM2.5),87,98,77,64,46,3,,41,19,50,34,7,6,1.2,1
2026-02-03T0000,2550A,107.4988,31.2132,达州市,凤凰小区,细颗粒物(PM2.5),88,102,77,65,48,4,,46,19,54,36,6,5,1.0,0.8
2026-02-03T0000,2551A,107.5081,31.1987,达州市,达县机关宾馆,细颗粒物(PM2.5),115,105,85,87,59,2,,36,11,50,38,6,5,1.0,1
2026-02-03T0000,2552A,107.4644,31.2124,达州市,市政中心,细颗粒物(PM2.5),82,107,84,60,45,8,,48,26,61,40,7,6,1.2,1
2026-02-03T0000,2614A,100.2168,25.5818,大理白族自治州,大理市环境监测站,,25,19,18,16,11,77,,81,80,5,7,7,7,0.4,0.4
2026-02-03T0000,2615A,100.1542,25.7055,大理白族自治州,大理古城,,28,28,22,18,13,59,,83,72,15,10,7,8,0.5,0.5
2026-02-03T0000,1109A,121.6119,38.974,大连市,甘井子,,28,28,29,11,14,59,,85,56,26,22,7,6,0.6,0.4
2026-02-03T0000,1110A,121.565,38.9509,大连市,周水子,,24,24,27,10,12,51,,78,56,26,21,7,5,0.7,0.4
2026-02-03T0000,1111A,121.5637,38.8849,大连市,星海三站,,24,24,25,14,13,56,,78,62,20,16,8,8,0.9,0.5
2026-02-03T0000,1112A,121.6301,38.9117,大连市,青泥洼桥,,21,21,24,11,13,59,,77,65,23,18,12,10,0.7,0.3
2026-02-03T0000,1113A,121.6248,38.8643,大连市,傅家庄,,21,21,21,9,11,56,,70,61,20,15,9,8,0.9,0.7
2026-02-03T0000,1114A,121.5117,38.8636,大连市,七贤岭,,20,20,26,8,9,63,,81,71,17,10,9,8,0.8,0.6
2026-02-03T0000,1116A,121.7507,39.1339,大连市,金州,,30,30,30,18,17,55,,77,58,26,19,12,10,0.6,0.4
2026-02-03T0000,1117A,121.7811,39.0495,大连市,开发区,细颗粒物(PM2.5),58,52,34,41,20,30,,79,40,45,20,9,9,0.9,0.5
2026-02-03T0000,1118A,121.9762,39.0631,大连市,双D港,,34,34,29,13,13,58,,88,65,26,16,11,9,0.7,0.5
2026-02-03T0000,4082A,121.2548,38.8188,大连市,旅顺,,30,30,26,17,14,38,,71,53,25,15,8,9,0.8,0.6
2026-02-03T0000,1789A,124.8085,46.0381,大庆市,大同区,颗粒物(PM10),53,55,55,24,28,45,,65,53,14,22,6,8,0.8,0.8
2026-02-03T0000,1790A,125.1166,46.5255,大庆市,龙凤区,,47,47,49,17,24,48,,65,49,12,27,8,10,0.6,0.7
2026-02-03T0000,1791A,124.8894,46.4007,大庆市,红岗区,,39,39,37,23,19,42,,63,49,15,22,5,5,0.5,0.7
2026-02-03T0000,1792A,125.1391,46.578,大庆市,萨尔图区,颗粒物(PM10),52,53,47,20,20,48,,57,49,11,28,9,9,0.4,0.5
2026-02-03T0000,1793A,124.9026,46.6217,大庆市,让胡路区,,34,34,31,13,17,55,,68,57,12,16,9,8,0.4,0.4
2026-02-03T0000,3481A,125.127,46.6277,大庆市,萨区政府监测点,,49,49,38,19,18,53,,66,55,13,23,10,10,0.7,0.8
2026-02-03T0000,1723A,113.2926,40.0759,大同市,云冈宾馆,颗粒物(PM10),76,102,51,55,21,6,,61,38,62,33,11,14,1.3,0.8
2026-02-03T0000,1724A,113.3437,40.0921,大同市,大同大学,颗粒物(PM10),70,90,45,47,24,19,,69,45,48,26,11,13,1.0,0.7
2026-02-03T0000,1725A,113.2637,40.129,大同市,安家小村,颗粒物(PM10),53,55,58,32,25,21,,56,40,50,35,14,18,0.6,1
2026-02-03T0000,3282A,113.3399,40.0586,大同市,大同市卫生学校,细颗粒物(PM2.5),85,110,45,63,20,2,,66,41,72,32,11,12,1.2,0.7
2026-02-03T0000,3565A,113.1371,40.1122,大同市,云冈站,颗粒物(PM10),68,85,53,34,24,2,,47,,54,35,16,14,0.7,0.6
2026-02-03T0000,3566A,113.1186,40.2556,大同市,图书馆,颗粒物(PM10),55,59,38,30,19,28,,75,40,22,19,3,6,0.6,0.6
2026-02-03T0000,3567A,113.5931,40.0459,大同市,区一中,细颗粒物(PM2.5),85,95,63,63,32,19,,66,33,36,31,27,24,1.0,0.6
2026-02-03T0000,4199A,113.2798248,40.09972476,大同市,魏都大道141号,颗粒物(PM10),94,137,68,51,31,11,,67,40,73,44,16,14,2.0,1.1
2026-02-03T0000,2269A,124.1068,50.4091,大兴安岭地区,科技局,,39,39,26,20,14,54,,66,58,8,6,5,5,0.3,0.3
2026-02-03T0000,3663A,124.117,50.4279,大兴安岭地区,红旗社区,细颗粒物(PM2.5),52,41,33,36,20,32,,73,44,31,26,6,8,0.8,0.6
2026-02-03T0000,1600A,124.33,40.0625,丹东市,江湾东路,细颗粒物(PM2.5),104,113,60,78,37,13,,74,32,49,27,26,14,2.8,1
2026-02-03T0000,1601A,124.4242,40.1513,丹东市,临江后街,细颗粒物(PM2.5),74,70,55,54,37,38,,74,37,17,25,9,14,1.1,0.8
2026-02-03T0000,1602A,124.3935,40.1461,丹东市,元宝山,细颗粒物(PM2.5),74,70,44,54,29,39,,73,43,18,16,12,11,1.2,0.8
2026-02-03T0000,1603A,124.3634,40.1093,丹东市,民主桥,细颗粒物(PM2.5),84,90,60,62,35,1,,69,18,63,33,11,11,1.4,0.9
2026-02-03T0000,3541A,109.5726195,19.51688767,儋州市,第一中学子站,细颗粒物(PM2.5),53,49,33,37,22,77,,100,93,8,8,4,4,0.8,0.8
2026-02-03T0000,3542A,109.5567,19.5187,儋州市,东坡学校子站,,46,43,31,32,18,94,,121,114,10,9,2,3,0.8,0.8
2026-02-03T0000,2616A,98.5611,24.4273,德宏傣族景颇族自治州,德宏州监测站,颗粒物(PM10),51,51,60,32,39,42,,97,66,20,26,6,6,0.9,1
2026-02-03T0000,3677A,98.5887,24.4366,德宏傣族景颇族自治州,芒市人民政府综合楼,,46,46,53,21,27,47,,81,61,10,15,4,4,0.7,0.8
2026-02-03T0000,1901A,104.424,31.1209,德阳市,东山公园,细颗粒物(PM2.5),112,95,77,84,61,21,,82,63,53,20,1,2,0.9,0.8
2026-02-03T0000,1902A,104.3827,31.1318,德阳市,西小区,细颗粒物(PM2.5),103,111,105,77,73,60,,79,63,20,41,3,4,1.1,1.2
2026-02-03T0000,1904A,104.3553,31.1091,德阳市,耐火材料厂,细颗粒物(PM2.5),104,86,102,78,80,58,,77,62,21,43,1,2,0.9,1.1
2026-02-03T0000,4145A,104.4144,31.1495,德阳市,市林业局,细颗粒物(PM2.5),109,98,91,82,66,55,,73,54,28,39,4,4,0.9,0.8
2026-02-03T0000,1622A,116.3034,37.4675,德州市,儿童乐园,细颗粒物(PM2.5),99,110,150,74,121,62,,77,66,38,45,12,12,1.0,1.4
2026-02-03T0000,1624A,116.2992,37.4449,德州市,监理站,细颗粒物(PM2.5),104,107,147,78,112,62,,88,74,50,47,10,10,0.8,1.1
2026-02-03T0000,3066A,116.2722,37.438,德州市,九衢泉纯净水厂,细颗粒物(PM2.5),132,122,151,100,122,37,,79,50,64,55,10,8,1.5,1.6
2026-02-03T0000,3371A,116.3693,37.44,德州市,开发区人民医院,细颗粒物(PM2.5),113,117,154,85,122,19,,80,53,85,46,15,13,0.7,1.1
2026-02-03T0000,3511A,116.5687,37.3331,德州市,陵城艺术中心,细颗粒物(PM2.5),115,100,167,87,144,47,,64,46,39,50,21,21,0.8,1.3
2026-02-03T0000,4292A,116.352738,37.420875,德州市,新河东路,细颗粒物(PM2.5),118,136,143,89,106,7,,76,36,104,61,16,12,1.0,1.2
2026-02-03T0000,2621A,99.7054,27.8319,迪庆藏族自治州,迪庆州站,,37,37,22,20,9,62,,75,72,12,8,5,5,0.8,0.5
2026-02-03T0000,3180A,99.7122,27.8129,迪庆藏族自治州,质量技术监督局,,24,16,24,8,13,75,,79,76,4,9,5,5,0.3,0.5
2026-02-03T0000,4257A,104.6092,35.5962,定西市,将台街,细颗粒物(PM2.5),92,119,98,68,50,8,,84,60,62,23,19,12,1.2,0.7
2026-02-03T0000,4309A,104.6159,35.5701,定西市,正龙路62号,细颗粒物(PM2.5),77,95,108,56,50,44,,82,66,18,12,10,8,1.0,0.8
2026-02-03T0000,1390A,113.7943,23.0132,东莞市,东城石井,,41,41,29,24,17,37,,97,61,42,23,6,6,0.7,0.7
2026-02-03T0000,1391A,113.7384,22.9659,东莞市,南城西平,,44,44,28,24,16,2,,91,38,88,41,7,7,0.8,0.7
2026-02-03T0000,3319A,113.7283,23.041,东莞市,万江金泰,,48,48,27,24,16,37,,89,63,41,20,5,5,0.8,0.8
2026-02-03T0000,4129A,113.8666,23.1062,东莞市,裕兴路,颗粒物(PM10),56,61,33,28,18,23,,97,54,52,24,8,5,0.9,0.8
2026-02-03T0000,4130A,114.0076,22.9739,东莞市,教育路1号,颗粒物(PM10),51,52,37,25,19,40,,100,56,42,29,5,5,0.7,0.7
2026-02-03T0000,4131A,113.7981,22.8124,东莞市,长怡路1号,颗粒物(PM10),58,66,39,32,19,7,,108,66,87,33,7,6,0.9,0.8
2026-02-03T0000,1666A,118.6612,37.4313,东营市,市环保局,颗粒物(PM10),60,70,97,39,76,5,,76,27,74,45,25,10,1.0,1.1
2026-02-03T0000,3036A,118.6903,37.4337,东营市,开发区管委会,颗粒物(PM10),63,76,96,32,68,2,,77,36,83,42,21,9,0.7,0.8
2026-02-03T0000,3365A,118.5721,37.5654,东营市,垦利区民丰路,细颗粒物(PM2.5),65,75,92,47,71,2,,78,22,82,48,17,8,0.8,1
2026-02-03T0000,3498A,118.5063,37.8606,东营市,河口城区,细颗粒物(PM2.5),78,90,79,57,56,11,,87,46,73,43,9,6,1.1,1.2
2026-02-03T0000,3646A,118.4979,37.4623,东营市,胜利站,细颗粒物(PM2.5),78,79,111,57,74,1,,64,18,90,54,27,10,1.1,1.3
2026-02-03T0000,3734A,118.5753,37.4405,东营市,理想之城,颗粒物(PM10),64,78,107,42,72,1,,73,22,77,50,16,6,0.9,1.1
2026-02-03T0000,1591A,110.0024,39.8127,鄂尔多斯市,综合楼,颗粒物(PM10),63,75,33,19,11,20,,75,50,57,29,16,12,0.6,0.6
2026-02-03T0000,1592A,109.9485,39.8259,鄂尔多斯市,巴音孟克林场办事处,,44,44,27,17,10,38,,76,60,44,28,14,10,0.5,0.6
2026-02-03T0000,1593A,109.7734,39.5987,鄂尔多斯市,康泽苑,,31,31,24,8,10,33,,87,63,25,18,3,3,0.4,0.4
2026-02-03T0000,1594A,109.8121,39.5987,鄂尔多斯市,华泰汽车城,,34,34,28,18,11,20,,93,52,46,27,8,7,0.4,0.4
2026-02-03T0000,1595A,109.9734,39.7884,鄂尔多斯市,奥林花园,颗粒物(PM10),65,80,41,24,10,5,,79,34,71,41,10,10,0.6,0.6
2026-02-03T0000,2436A,114.894,30.3989,鄂州市,市政府,细颗粒物(PM2.5),83,98,75,61,54,24,,89,48,59,44,6,7,0.9,0.9
2026-02-03T0000,2437A,114.8986,30.3714,鄂州市,赵家坝,细颗粒物(PM2.5),83,98,75,61,52,31,,97,60,49,35,9,11,0.9,0.8
2026-02-03T0000,3654A,114.8093,30.4091,鄂州市,精准医疗中心,细颗粒物(PM2.5),97,123,86,72,56,44,,100,65,56,43,8,14,0.6,0.7
2026-02-03T0000,2454A,109.4978,30.2979,恩施土家族苗族自治州,湖北民院,"颗粒物(PM10),细颗粒物(PM2.5)",68,85,52,49,38,33,,62,50,21,15,6,6,0.9,1
2026-02-03T0000,3549A,109.5061,30.3771,恩施土家族苗族自治州,龙凤新区,细颗粒物(PM2.5),77,77,44,56,30,8,,53,29,23,15,8,7,0.9,0.8
2026-02-03T0000,2499A,108.3411,21.6159,防城港市,沙万,细颗粒物(PM2.5),65,57,52,47,40,59,,89,80,20,17,7,7,1.1,1
2026-02-03T0000,2500A,108.3515,21.7733,防城港市,防城档案局,细颗粒物(PM2.5),68,71,64,49,46,57,,89,78,18,17,7,6,0.8,0.8
2026-02-03T0000,2501A,108.3506,21.6414,防城港市,大海花园,细颗粒物(PM2.5),69,55,49,50,42,64,,98,88,20,15,9,8,0.9,0.9
2026-02-03T0000,1371A,113.1293,23.0065,佛山市,湾梁,,44,44,34,21,14,42,,90,73,41,27,/,/,/,/
2026-02-03T0000,1372A,113.1082,23.0477,佛山市,华材职中,,48,48,37,28,23,33,,94,64,53,28,6,6,0.9,0.8
2026-02-03T0000,1373A,113.1439,23.045,佛山市,南海气象局,,47,47,31,25,20,28,,89,69,62,32,/,/,/,/
2026-02-03T0000,1374A,113.2879,22.8094,佛山市,顺德苏岗,颗粒物(PM10),52,54,27,22,17,23,,86,61,61,35,/,/,1.2,1
2026-02-03T0000,1376A,112.8384,22.8678,佛山市,高明孔堂,,46,46,36,23,22,34,,93,75,36,22,/,/,/,/
2026-02-03T0000,1377A,112.8835,23.1584,佛山市,三水监测站,颗粒物(PM10),56,61,39,27,24,37,,82,64,50,27,5,3,0.6,0.6
2026-02-03T0000,1378A,112.8668,23.185,佛山市,三水云东海,颗粒物(PM10),51,52,34,25,21,35,,85,60,37,24,/,/,/,/
2026-02-03T0000,3625A,113.2568,22.7629,佛山市,容桂街道办,颗粒物(PM10),52,53,35,23,18,28,,80,56,66,37,/,/,/,/
2026-02-03T0000,1282A,119.2681,26.0506,福州市,师大,,43,43,34,26,24,97,,78,78,13,20,3,3,0.5,0.7
2026-02-03T0000,1283A,119.2983,26.1028,福州市,五四北路,,40,40,33,24,27,97,,77,77,13,19,4,5,0.4,0.7
2026-02-03T0000,1284A,119.2648,26.0769,福州市,杨桥西路,,36,36,30,17,27,97,,78,78,10,17,4,4,/,/
2026-02-03T0000,3048A,119.5799,26.0937,福州市,九龙,,48,48,29,32,20,99,,99,99,12,17,4,4,0.6,0.5
2026-02-03T0000,3526A,119.5188,25.9666,福州市,吴航,颗粒物(PM10),51,52,32,31,21,98,,96,96,13,16,4,5,0.6,0.6
2026-02-03T0000,4104A,119.3106,26.0648,福州市,路通桥巷6号,,43,40,39,30,31,93,,73,73,12,18,/,/,/,/
2026-02-03T0000,1755A,123.7974,41.8494,抚顺市,望花区,细颗粒物(PM2.5),88,116,106,65,65,6,,61,29,70,50,10,17,1.3,1.3
2026-02-03T0000,1756A,123.9161,41.8827,抚顺市,顺城区,颗粒物(PM10),60,69,89,39,65,27,,64,30,51,53,13,13,1.1,1.5
2026-02-03T0000,1757A,124.0437,41.8615,抚顺市,东洲区,颗粒物(PM10),54,58,83,32,59,39,,66,48,31,34,15,16,1.0,1.1
2026-02-03T0000,1758A,123.9246,41.8638,抚顺市,新抚区,细颗粒物(PM2.5),78,77,76,57,61,7,,63,20,70,53,6,8,1.2,1.2
2026-02-03T0000,1759A,124.0972,41.8961,抚顺市,大伙房水库,细颗粒物(PM2.5),57,50,60,40,42,32,,70,55,36,33,11,13,0.9,0.9
2026-02-03T0000,1760A,123.708,41.8386,抚顺市,沈抚新城,细颗粒物(PM2.5),77,94,85,56,54,11,,65,43,81,49,14,11,1.8,1.1
2026-02-03T0000,2377A,116.3544,27.9833,抚州市,市站,"颗粒物(PM10),细颗粒物(PM2.5)",54,58,38,38,29,64,,97,87,23,15,14,10,0.9,0.9
2026-02-03T0000,2378A,116.3562,27.9631,抚州市,血防站,细颗粒物(PM2.5),62,63,40,44,29,72,,98,90,25,20,16,9,1.4,1.4
2026-02-03T0000,2379A,116.3561,28.0007,抚州市,采茶剧团,颗粒物(PM10),53,55,40,36,29,57,,93,78,23,11,5,6,0.8,0.8
2026-02-03T0000,2380A,116.3854,27.9648,抚州市,医学分院,颗粒物(PM10),60,70,43,39,26,68,,92,82,20,15,8,6,1.0,1
2026-02-03T0000,2207A,121.6095,41.9978,阜新市,工业园区,细颗粒物(PM2.5),74,68,57,54,21,16,,76,48,45,18,28,19,0.9,0.5
2026-02-03T0000,2208A,121.6567,42.0188,阜新市,长青街,细颗粒物(PM2.5),57,52,33,40,17,28,,75,52,38,16,32,15,0.6,0.4
2026-02-03T0000,2209A,121.6672,42.07,阜新市,农业园区,颗粒物(PM10),55,59,45,27,17,33,,72,53,35,14,52,18,0.6,0.5
2026-02-03T0000,2211A,121.6343,42.0455,阜新市,玉龙新城,颗粒物(PM10),58,66,47,40,19,7,,76,46,60,21,18,15,0.8,0.5
2026-02-03T0000,2301A,115.8276,32.8929,阜阳市,市监测站,细颗粒物(PM2.5),163,175,119,124,76,30,,71,42,55,35,4,5,0.9,0.8
2026-02-03T0000,2303A,115.8551,32.8606,阜阳市,开发区,细颗粒物(PM2.5),156,190,115,119,72,17,,74,47,65,37,5,6,0.8,0.6
2026-02-03T0000,2875A,115.783962,32.889217,阜阳市,阜阳职业技术学院,细颗粒物(PM2.5),138,156,101,105,67,46,,85,65,42,25,6,6,0.9,0.7
2026-02-03T0000,3468A,115.79,32.8614,阜阳市,市规划展馆,细颗粒物(PM2.5),138,160,106,105,71,47,,86,68,43,25,6,7,1.0,0.8
2026-02-03T0000,3469A,115.835101,32.918568,阜阳市,枣园社区,细颗粒物(PM2.5),149,178,118,114,76,3,,76,38,77,34,7,7,0.9,0.8
2026-02-03T0000,2669A,102.9097,34.9841,甘南藏族自治州,州政府,细颗粒物(PM2.5),80,78,74,59,58,64,,80,76,12,20,7,7,0.8,0.7
2026-02-03T0000,3380A,102.8915,34.9618,甘南藏族自治州,甘肃民族师范学院,颗粒物(PM10),70,90,73,45,34,37,,80,73,35,21,10,8,0.7,0.5
2026-02-03T0000,2570A,101.96,30.048,甘孜藏族自治州,水桥子,,19,19,14,7,5,51,,73,68,16,10,6,6,0.8,0.7
2026-02-03T0000,3065A,101.9534,29.9976,甘孜藏族自治州,州环保局,,20,,14,14,9,64,,78,73,13,13,6,6,0.6,0.6
2026-02-03T0000,2363A,114.9368,25.8663,赣州市,地委,颗粒物(PM10),90,130,41,31,24,62,,84,,22,13,8,7,0.8,0.7
2026-02-03T0000,2364A,114.946,25.8483,赣州市,气象台,颗粒物(PM10),55,60,45,34,27,60,,82,76,32,19,7,6,0.4,0.4
2026-02-03T0000,2365A,114.932,25.8332,赣州市,市图书馆,颗粒物(PM10),53,56,36,32,26,69,,73,72,20,17,3,4,0.7,0.7
2026-02-03T0000,2366A,114.8905,25.8472,赣州市,华坚鞋城,颗粒物(PM10),51,51,38,34,24,71,,78,78,22,16,5,5,0.4,0.4
2026-02-03T0000,3109A,115.0094,25.8614,赣州市,赣县区卫计委,,46,46,40,25,22,46,,80,67,28,9,7,8,0.7,0.6
2026-02-03T0000,2684A,106.2753,36.0057,固原市,监测站,颗粒物(PM10),78,106,86,40,33,57,,94,82,34,18,8,9,0.8,0.8
2026-02-03T0000,2685A,106.2384,36.0189,固原市,新区,颗粒物(PM10),77,104,90,44,34,78,,92,84,18,22,7,7,0.6,0.8
2026-02-03T0000,2544A,106.6307,30.4577,广安市,市委,细颗粒物(PM2.5),129,114,102,98,85,25,,26,19,28,30,6,6,1.2,1.2
2026-02-03T0000,2545A,106.6266,30.4662,广安市,友谊中学,细颗粒物(PM2.5),104,100,92,78,70,34,,28,23,22,25,6,7,1.2,1.2
2026-02-03T0000,2547A,106.6386,30.4551,广安市,广电花园,细颗粒物(PM2.5),147,,85,112,90,8,,25,12,32,24,6,7,1.2,1
2026-02-03T0000,2902A,106.6347,30.4868,广安市,北辰小学,细颗粒物(PM2.5),128,97,91,97,84,32,,27,26,14,18,5,5,1.1,1.1
2026-02-03T0000,2524A,105.8211,32.4444,广元市,老城,细颗粒物(PM2.5),95,107,96,71,60,6,,60,35,67,46,5,7,1.1,1.1
2026-02-03T0000,2526A,105.8629,32.429,广元市,监测站,细颗粒物(PM2.5),75,78,84,55,57,36,,54,48,19,27,5,9,1.0,1.1
2026-02-03T0000,3617A,105.8047,32.4167,广元市,经开区,细颗粒物(PM2.5),89,104,112,66,66,3,,51,33,59,41,4,18,1.1,1.2
2026-02-03T0000,1345A,113.2346,23.1423,广州市,广雅中学,颗粒物(PM10),58,65,41,32,23,8,,81,52,82,30,6,3,0.9,0.8
2026-02-03T0000,1346A,113.2611,23.105,广州市,市五中,,48,48,33,25,21,33,,95,68,54,27,8,8,/,/
2026-02-03T0000,1348A,113.3477,23.0916,广州市,广东商学院,,44,44,30,22,18,38,,88,63,44,25,6,5,0.6,0.6
2026-02-03T0000,1349A,113.4332,23.105,广州市,市八十六中,,38,38,26,26,17,18,,94,69,75,28,8,7,/,/
2026-02-03T0000,1350A,113.3506,22.9488,广州市,番禺中学,颗粒物(PM10),51,52,36,25,19,37,,86,60,52,32,3,3,0.7,0.7
2026-02-03T0000,1351A,113.2147,23.3918,广州市,花都师范,,46,46,31,24,18,71,,90,80,22,20,9,6,0.7,0.7
2026-02-03T0000,1352A,113.2599,23.1329,广州市,市监测站,颗粒物(PM10),52,54,38,26,22,34,,85,56,52,26,4,3,/,/
2026-02-03T0000,1353A,113.5618,23.3119,广州市,九龙镇镇龙,,42,42,27,23,17,55,,84,68,23,17,5,5,0.6,0.6
2026-02-03T0000,1354A,113.2764,23.1544,广州市,麓湖,,34,34,30,21,21,22,,84,57,61,28,10,10,0.7,0.7
2026-02-03T0000,2846A,113.3209,23.1323,广州市,体育西,,42,42,33,25,21,47,,89,70,36,21,7,7,0.8,0.8
2026-02-03T0000,3298A,113.5718,23.5493,广州市,从化街口,,36,36,25,21,16,58,,87,64,23,16,6,7,0.6,0.6
2026-02-03T0000,3299A,113.3463,23.369,广州市,白云竹料,颗粒物(PM10),51,52,29,31,19,24,,95,67,56,21,6,5,0.8,0.5
2026-02-03T0000,3300A,113.2981,23.2365,广州市,白云嘉禾,颗粒物(PM10),59,68,38,28,19,15,,90,47,78,36,7,6,/,/
2026-02-03T0000,3301A,113.4256,23.1716,广州市,黄埔科学城,,36,36,26,24,19,52,,97,77,32,18,4,3,0.8,0.8
2026-02-03T0000,3302A,113.3942,23.0485,广州市,番禺大学城,,43,43,30,22,16,31,,101,73,60,26,6,6,0.6,0.6
2026-02-03T0000,3303A,113.4923,22.8169,广州市,南沙黄阁,颗粒物(PM10),58,66,40,28,21,3,,70,40,86,40,6,6,/,/
2026-02-03T0000,3304A,113.534,22.7893,广州市,南沙街,颗粒物(PM10),53,56,37,30,18,11,,91,57,82,38,9,7,0.9,0.8
2026-02-03T0000,3443A,113.2905,23.5541,广州市,花都梯面,,33,33,24,18,16,70,,83,76,9,8,7,6,/,/
2026-02-03T0000,3445A,113.786,23.7479,广州市,从化良口,,21,21,18,12,13,54,,82,69,8,9,7,8,/,/
2026-02-03T0000,3446A,113.805,23.2614,广州市,增城荔城,,26,26,20,13,13,68,,87,66,15,15,6,6,0.7,0.7
2026-02-03T0000,2506A,109.604387,23.066791,贵港市,江南子站,细颗粒物(PM2.5),62,63,60,44,37,66,,82,72,15,13,5,5,0.8,0.8
2026-02-03T0000,2508A,109.5669,23.1065,贵港市,荷城子站,细颗粒物(PM2.5),55,58,57,39,36,63,,72,65,15,16,7,6,0.9,0.9
2026-02-03T0000,3405A,109.5886,23.1172,贵港市,新世纪学校,细颗粒物(PM2.5),69,68,64,50,45,64,,78,68,15,17,/,/,0.6,0.7
2026-02-03T0000,4260A,109.5933,23.095,贵港市,中山路155-3号,细颗粒物(PM2.5),63,52,53,45,43,67,,83,72,15,15,/,/,0.8,0.8
2026-02-03T0000,1439A,106.6863,26.6035,贵阳市,马鞍山,,46,46,36,29,26,54,,61,,15,14,7,7,/,/
2026-02-03T0000,1441A,106.6241,26.6266,贵阳市,鉴湖路,颗粒物(PM10),51,51,45,29,28,59,,68,59,22,18,5,4,0.7,0.8
2026-02-03T0000,1442A,106.7468,26.6344,贵阳市,燕子冲,,49,41,33,34,25,66,,69,63,13,13,9,11,0.6,0.7
2026-02-03T0000,1443A,106.6556,26.4362,贵阳市,碧云窝,,48,48,47,28,24,68,,64,56,10,17,13,15,/,/
2026-02-03T0000,1445A,106.6963,26.6063,贵阳市,红边门,,48,48,37,31,27,57,,61,54,18,19,12,13,/,/
2026-02-03T0000,1446A,106.7162383,26.56964667,贵阳市,新华路,,,,36,,24,,,,,,12,,7,,0.6
2026-02-03T0000,1447A,106.6742,26.542,贵阳市,太慈桥,,39,39,36,24,25,59,,61,55,17,19,6,5,/,/
2026-02-03T0000,4230A,106.688212,26.56952,贵阳市,花果园大街66号,,46,46,32,29,25,46,,58,46,16,17,6,3,/,/
2026-02-03T0000,4231A,106.687268,26.516892,贵阳市,漓江路57号,,44,44,39,28,24,56,,61,49,18,20,9,9,0.7,0.7
2026-02-03T0000,1864A,110.3091,25.2705,桂林市,龙隐路小学,"颗粒物(PM10),细颗粒物(PM2.5)",55,60,49,39,43,68,,73,69,14,14,3,3,0.6,0.6
2026-02-03T0000,1865A,110.2849361,25.22909545,桂林市,八中,颗粒物(PM10),56,61,52,23,22,57,,64,56,22,20,4,4,0.7,0.7
2026-02-03T0000,3531A,110.296,25.1254,桂林市,旅游学院,颗粒物(PM10),64,78,57,44,35,35,,80,69,45,17,4,4,0.6,0.5
2026-02-03T0000,4222A,110.1835,25.2444,桂林市,环湖路276号,颗粒物(PM10),54,58,55,37,34,70,,70,70,14,13,9,7,1.1,1.1
2026-02-03T0000,4301A,110.2803,25.2773,桂林市,信义路13号,细颗粒物(PM2.5),52,52,48,36,36,69,,70,67,19,18,5,6,0.9,0.9
2026-02-03T0000,2674A,100.2262,34.4854,果洛藏族自治州,玛沁县大武镇,颗粒物(PM10),54,58,38,16,19,49,,75,64,6,5,16,17,0.3,0.4
2026-02-03T0000,1130A,126.5557,45.8109,哈尔滨市,松北商大,细颗粒物(PM2.5),62,56,60,44,49,51,,69,53,23,28,9,8,0.8,0.9
2026-02-03T0000,1132A,126.6162,45.719,哈尔滨市,南岗学府路,"颗粒物(PM10),细颗粒物(PM2.5)",58,65,75,41,48,41,,73,49,27,28,8,11,0.8,0.9
2026-02-03T0000,1133A,126.6894,45.7733,哈尔滨市,太平宏伟公园,细颗粒物(PM2.5),54,54,90,38,63,53,,74,57,27,39,10,14,0.6,1
2026-02-03T0000,1134A,126.6361,45.7672,哈尔滨市,道外承德广场,颗粒物(PM10),64,78,82,41,45,54,,67,48,28,40,10,15,0.9,0.5
2026-02-03T0000,1136A,126.644,45.7261,哈尔滨市,动力和平路,细颗粒物(PM2.5),62,59,74,44,51,48,,68,48,25,33,11,15,1.0,1.1
2026-02-03T0000,1137A,126.5933,45.7479,哈尔滨市,道里建国路,细颗粒物(PM2.5),62,56,79,44,54,48,,62,48,31,40,3,21,0.9,0.8
2026-02-03T0000,1138A,126.6127,45.6119,哈尔滨市,平房东轻厂,细颗粒物(PM2.5),54,50,70,38,56,53,,68,52,20,35,8,10,0.8,0.9
2026-02-03T0000,1139A,126.5875,45.9827,哈尔滨市,呼兰师专,颗粒物(PM10),56,62,66,28,46,50,,65,53,21,29,19,16,0.8,1
2026-02-03T0000,1140A,126.6299,45.6799,哈尔滨市,省农科院,颗粒物(PM10),56,62,74,39,56,48,,63,41,25,39,12,17,0.8,1
2026-02-03T0000,4282A,126.6769,45.7379,哈尔滨市,华山路1号,颗粒物(PM10),53,56,75,36,46,40,,63,39,35,39,8,14,0.8,0.9
2026-02-03T0000,4283A,126.9717,45.5356,哈尔滨市,解放大街52号,颗粒物(PM10),51,51,89,22,65,44,,66,53,19,23,11,16,0.7,0.9
2026-02-03T0000,2688A,93.5124,42.8176,哈密市,地区监测站,,49,49,54,34,27,53,,72,59,20,18,9,9,0.6,0.2
2026-02-03T0000,2689A,93.5014,42.8312,哈密市,哈密师范学校,颗粒物(PM10),69,87,64,36,22,21,,65,50,48,25,6,7,1.1,0.6
2026-02-03T0000,2671A,100.9016,36.9464,海北藏族自治州,海晏县西海镇,,45,45,64,26,41,53,,84,71,14,11,10,11,0.5,0.7
2026-02-03T0000,3867A,102.074,36.5056,海东市,平安区公安局北苑,细颗粒物(PM2.5),93,107,98,69,58,48,,73,61,18,22,25,19,1.1,1.1
2026-02-03T0000,4163A,102.0984,36.5119,海东市,滨河路,细颗粒物(PM2.5),93,106,92,69,56,18,,79,42,50,41,13,15,1.0,1
2026-02-03T0000,1410A,110.3189,20.0596,海口市,海南大学,,31,24,30,18,20,97,,128,115,9,11,6,6,0.5,0.6
2026-02-03T0000,1411A,110.2827,20.0051,海口市,秀英海南医院,,29,28,30,17,22,92,,123,110,11,11,8,8,0.5,0.6
2026-02-03T0000,1412A,110.3391,19.9979,海口市,海南师范大学,,30,27,30,18,19,94,,130,114,10,11,6,6,0.7,0.7
2026-02-03T0000,1413A,110.3303,20.0359,海口市,龙华路环保局宿舍,,32,26,29,17,20,101,,138,122,8,9,/,/,0.8,0.8
2026-02-03T0000,3539A,110.5111,19.9737,海口市,桂林洋子站,,29,29,32,20,20,87,,128,108,10,11,/,/,/,/
2026-02-03T0000,4134A,110.1952,20.0451,海口市,长滨二路9号,,29,23,30,18,21,92,,127,114,11,10,/,/,/,/
2026-02-03T0000,2673A,100.6158,36.2985,海南藏族自治州,共和县恰卜恰镇,细颗粒物(PM2.5),59,46,55,42,36,16,,92,51,38,22,15,13,0.7,0.7
2026-02-03T0000,2676A,97.373,37.376,海西蒙古族藏族自治州,德令哈市,,25,17,22,8,9,77,,92,79,8,7,13,14,0.6,0.5
2026-02-03T0000,1049A,114.492,36.5712,邯郸市,矿院,细颗粒物(PM2.5),166,129,134,126,124,32,,84,65,47,43,7,8,0.9,1.3
2026-02-03T0000,1050A,114.4839,36.6136,邯郸市,丛台公园,细颗粒物(PM2.5),145,123,138,111,120,51,,86,73,39,43,7,8,0.8,1.2
2026-02-03T0000,3458A,114.7893,36.5592,邯郸市,香泉濮院小区,细颗粒物(PM2.5),130,118,159,99,109,42,,89,67,50,46,8,8,0.8,1.3
2026-02-03T0000,3580A,114.1998,36.4439,邯郸市,峰峰矿区临水派出所,细颗粒物(PM2.5),108,100,102,81,85,85,,112,100,13,18,11,16,1.4,1.6
2026-02-03T0000,4068A,114.5209,36.7697,邯郸市,建安街268号,细颗粒物(PM2.5),143,139,136,109,121,2,,75,32,92,57,6,6,0.9,1.1
2026-02-03T0000,4069A,114.5488,36.6177,邯郸市,丛台东路558号,细颗粒物(PM2.5),156,126,138,119,128,11,,92,68,73,46,7,6,1.0,1.3
2026-02-03T0000,2635A,107.0155,33.0707,汉中市,市监测站,细颗粒物(PM2.5),122,129,110,92,68,26,,80,54,44,35,6,6,1.5,1.3
2026-02-03T0000,2636A,107.0083,33.114,汉中市,鑫源开发区,细颗粒物(PM2.5),99,115,103,74,64,23,,86,59,56,37,13,7,1.2,1
2026-02-03T0000,2637A,107.0072,33.0323,汉中市,南郑大河坎水厂,细颗粒物(PM2.5),142,174,115,108,64,20,,78,46,38,30,4,6,1.5,1.2
2026-02-03T0000,1223A,120.2073,30.2111,杭州市,滨江,细颗粒物(PM2.5),117,144,77,88,46,5,,89,60,85,41,6,6,1.2,0.8
2026-02-03T0000,1224A,120.0625,30.2737,杭州市,西溪,"颗粒物(PM10),细颗粒物(PM2.5)",69,88,64,50,41,0,,87,37,49,29,8,9,0.8,0.8
2026-02-03T0000,1226A,120.3417,30.315,杭州市,下沙,细颗粒物(PM2.5),117,123,81,88,59,1,,93,33,111,55,8,8,0.6,0.5
2026-02-03T0000,1227A,120.1252,30.2465,杭州市,卧龙桥,细颗粒物(PM2.5),84,94,61,62,37,16,,85,39,17,13,8,9,0.6,0.5
2026-02-03T0000,1228A,120.1902,30.2691,杭州市,浙江农大,细颗粒物(PM2.5),109,135,81,82,45,2,,96,55,81,43,6,5,1.3,0.9
2026-02-03T0000,1230A,120.1195,30.3121,杭州市,和睦小学,细颗粒物(PM2.5),119,148,81,90,48,4,,94,49,78,34,5,5,1.4,1
2026-02-03T0000,1231A,120.3076,30.4146,杭州市,临平镇,细颗粒物(PM2.5),125,148,93,95,61,16,,96,50,65,35,6,6,1.2,0.8
2026-02-03T0000,1232A,120.2753,30.1839,杭州市,城厢镇,细颗粒物(PM2.5),109,128,69,82,48,0,,91,49,88,38,8,7,1.0,0.6
2026-02-03T0000,1233A,120.0883,30.1808,杭州市,云栖,细颗粒物(PM2.5),77,90,54,56,34,35,,85,48,17,17,4,4,1.0,0.8
2026-02-03T0000,3557A,119.9463,30.0496,杭州市,镇二中,细颗粒物(PM2.5),87,86,53,64,40,6,,76,47,55,34,4,4,1.1,0.8
2026-02-03T0000,3558A,119.7184,30.2367,杭州市,市府大楼,细颗粒物(PM2.5),95,89,49,71,37,16,,79,46,29,19,10,10,1.1,0.8
2026-02-03T0000,3656A,120.1554,30.2863,杭州市,消防大队,细颗粒物(PM2.5),117,120,69,88,49,12,,86,47,59,37,6,6,1.0,0.7
2026-02-03T0000,1270A,117.1957,31.7845,合肥市,明珠广场,颗粒物(PM10),86,122,83,61,44,3,,71,39,108,50,6,6,0.8,0.7
2026-02-03T0000,1271A,117.307,31.8765,合肥市,三里街,细颗粒物(PM2.5),94,127,82,70,45,4,,82,42,99,55,6,6,1.1,0.9
2026-02-03T0000,1272A,117.2587,31.8703,合肥市,琥珀山庄,细颗粒物(PM2.5),89,110,77,66,45,13,,92,52,95,49,7,7,1.3,1.1
2026-02-03T0000,1275A,117.2593,31.9376,合肥市,庐阳区,颗粒物(PM10),93,136,79,64,40,3,,84,41,111,55,3,3,1.0,0.9
2026-02-03T0000,1276A,117.345251,31.861615,合肥市,瑶海区,,,,71,62,39,13,,84,50,106,61,3,4,0.8,0.6
2026-02-03T0000,1277A,117.3033,31.7967,合肥市,包河区,颗粒物(PM10),93,136,82,65,39,3,,84,51,146,65,11,7,1.1,0.9
2026-02-03T0000,1278A,117.278,31.7392,合肥市,滨湖新区,颗粒物(PM10),75,100,74,54,37,79,,92,91,22,41,2,3,0.7,0.7
2026-02-03T0000,1279A,117.1324,31.8395,合肥市,高新区,颗粒物(PM10),78,105,72,52,38,48,,90,67,64,39,4,4,0.8,0.7
2026-02-03T0000,3464A,117.3802,31.9148,合肥市,高教基地,颗粒物(PM10),80,110,71,51,34,2,,90,43,78,42,5,6,0.8,0.7
2026-02-03T0000,4098A,117.2518,31.8404,合肥市,中国科学技术大学,颗粒物(PM10),86,122,75,59,38,24,,95,64,83,39,8,8,1.1,0.9
2026-02-03T0000,3614A,79.9241,37.0878,和田地区,地区环保局,颗粒物(PM10),377,481,445,112,134,43,,68,61,26,38,5,10,1.0,1.2
2026-02-03T0000,3615A,79.9132,37.1137,和田地区,市环保局,颗粒物(PM10),403,503,436,93,93,30,,86,73,49,31,7,5,1.0,0.8
2026-02-03T0000,2517A,108.0496,24.6957,河池市,市环保站,细颗粒物(PM2.5),59,54,42,42,29,56,,67,59,13,12,18,6,0.9,0.8
2026-02-03T0000,4302A,108.0901,24.6945,河池市,上任中路54号,,,,39,,26,,,63,,,10,,6,,0.9
2026-02-03T0000,1697A,114.6962,23.7538,河源市,东埔,,36,36,23,20,17,69,,83,76,24,16,6,6,0.5,0.6
2026-02-03T0000,1698A,114.6895,23.7232,河源市,老城,,42,42,27,22,18,70,,78,69,16,12,6,6,0.5,0.7
2026-02-03T0000,3374A,115.5562,35.089,菏泽市,定陶老年大学,细颗粒物(PM2.5),145,134,168,111,129,79,,94,84,26,38,6,7,0.6,0.8
2026-02-03T0000,4114A,115.4239,35.2593,菏泽市,黄河路600号,细颗粒物(PM2.5),134,134,172,102,126,94,,97,75,29,52,4,6,0.8,1.2
2026-02-03T0000,4115A,115.5025,35.2727,菏泽市,菏泽市人社局,细颗粒物(PM2.5),129,127,170,98,131,79,,87,78,35,48,9,12,0.8,1.1
2026-02-03T0000,4184A,115.479691,35.244011,菏泽市,永昌路1号,细颗粒物(PM2.5),123,130,168,93,122,84,,96,86,38,52,4,7,0.7,1
2026-02-03T0000,4193A,115.471542,35.280012,菏泽市,长城路999号,细颗粒物(PM2.5),120,128,165,91,123,91,,96,92,31,52,5,6,0.9,1.2
2026-02-03T0000,2514A,111.5264,24.4178,贺州市,环保小区,,48,42,42,33,29,58,,89,73,18,14,4,4,0.6,0.5
2026-02-03T0000,2515A,111.561,24.4074,贺州市,政协大楼,,46,46,42,32,29,63,,87,73,12,11,12,12,0.7,0.6
2026-02-03T0000,3534A,111.4744,24.455,贺州市,西湾,颗粒物(PM10),54,57,46,31,28,59,,79,67,17,17,9,9,0.8,0.8
2026-02-03T0000,2385A,114.17,35.9019,鹤壁市,市监测站,细颗粒物(PM2.5),143,140,143,109,113,43,,98,76,32,33,3,9,1.0,1.5
2026-02-03T0000,2386A,114.2953,35.7512,鹤壁市,市交警支队,细颗粒物(PM2.5),185,175,154,139,119,73,,90,78,39,35,5,8,0.9,1.2
2026-02-03T0000,2387A,114.2877,35.7302,鹤壁市,迎宾馆,细颗粒物(PM2.5),178,168,153,134,115,76,,97,85,39,34,17,10,1.0,1.3
2026-02-03T0000,3474A,114.2616,35.6824,鹤壁市,大新区,细颗粒物(PM2.5),183,,113,138,124,1,,100,50,113,44,9,12,1.2,1.4
2026-02-03T0000,3596A,114.1573,35.9607,鹤壁市,南山宾馆,细颗粒物(PM2.5),142,137,152,108,119,80,,102,90,19,29,7,14,0.7,1.4
2026-02-03T0000,2244A,130.2537,47.3416,鹤岗市,哈啤分公司,,30,30,31,18,27,81,,86,85,9,9,6,7,0.4,0.5
2026-02-03T0000,2245A,130.2683,47.3087,鹤岗市,斯达机电,,44,44,38,20,24,75,,79,79,10,12,6,7,0.7,0.7
2026-02-03T0000,2246A,130.3114,47.3388,鹤岗市,东山纸板厂,,38,38,53,23,36,81,,79,79,12,24,9,11,0.5,1.1
2026-02-03T0000,2263A,127.4832,50.2524,黑河市,交通局,,34,34,36,19,21,67,,60,51,10,22,8,9,0.4,0.5
2026-02-03T0000,2264A,127.5146,50.2339,黑河市,环保局,,22,15,43,15,25,70,,52,52,11,30,8,13,0.5,0.8
2026-02-03T0000,1074A,115.6839,37.754,衡水市,电机北厂,细颗粒物(PM2.5),95,78,128,71,107,69,,74,68,30,51,6,7,0.7,1
2026-02-03T0000,1075A,115.6303,37.7318,衡水市,市监测站,细颗粒物(PM2.5),88,85,127,65,108,64,,76,70,40,44,8,7,0.7,1
2026-02-03T0000,3188A,115.6684,37.7216,衡水市,市城管局,细颗粒物(PM2.5),97,108,124,72,99,34,,76,55,68,51,10,9,0.8,1
2026-02-03T0000,3459A,115.599,37.5491,衡水市,地表水厂,细颗粒物(PM2.5),127,110,132,96,129,9,,78,27,86,56,10,6,0.7,0.9
2026-02-03T0000,2457A,112.6209,26.9268,衡阳市,衡阳化工总厂,细颗粒物(PM2.5),77,80,59,56,42,38,,99,65,43,27,11,9,1.1,1
2026-02-03T0000,2458A,112.621,26.8957,衡阳市,珠晖区环保局,细颗粒物(PM2.5),70,83,57,51,42,27,,96,66,67,32,9,9,1.5,1.2
2026-02-03T0000,2459A,112.628,26.8654,衡阳市,市委党校,颗粒物(PM10),64,78,51,45,38,58,,102,83,31,18,15,13,1.3,1.2
2026-02-03T0000,2460A,112.6007,26.8977,衡阳市,市监测站,颗粒物(PM10),91,131,80,66,44,3,,95,56,77,27,9,10,1.9,1.2
2026-02-03T0000,2461A,112.5658,26.9013,衡阳市,真空机电公司,细颗粒物(PM2.5),85,100,72,63,46,23,,98,64,61,29,7,13,1.5,1.2
2026-02-03T0000,3399A,112.6703,26.8817,衡阳市,师范学院,颗粒物(PM10),63,75,60,38,36,74,,104,91,29,27,4,5,0.7,0.6
2026-02-03T0000,3038A,103.3757,23.3679,红河哈尼族彝族自治州,州图书馆,,18,13,16,11,13,56,,63,61,9,8,6,6,0.8,0.8
2026-02-03T0000,4154A,103.401,23.3561,红河哈尼族彝族自治州,蒙自市朝阳路,,18,14,15,12,15,56,,67,62,7,6,5,5,0.6,0.6
2026-02-03T0000,1090A,111.6506,40.7517,呼和浩特市,呼市一监,,44,44,28,27,13,0,,70,38,68,23,10,8,0.9,0.5
2026-02-03T0000,1094A,111.7516,40.8369,呼和浩特市,如意水处理厂,,37,37,26,20,14,4,,72,34,70,32,9,9,0.4,0.2
2026-02-03T0000,1095A,111.727798,40.806187,呼和浩特市,二十九中,,44,44,26,24,13,5,,67,35,66,25,12,11,0.6,0.4
2026-02-03T0000,1097A,111.717,40.7617,呼和浩特市,化肥厂生活区,颗粒物(PM10),51,52,33,28,16,4,,68,30,67,29,7,6,0.7,0.4
2026-02-03T0000,3699A,111.6519,40.8389,呼和浩特市,海东办,细颗粒物(PM2.5),83,102,30,61,16,5,,67,31,69,32,8,6,1.2,0.6
2026-02-03T0000,4275A,111.591512,40.827312,呼和浩特市,成吉思汗西街8号,,41,41,30,21,12,5,,62,34,62,31,11,9,0.7,0.5
2026-02-03T0000,4276A,111.6597,40.8077,呼和浩特市,公园东路75号,颗粒物(PM10),53,56,29,26,13,12,,67,40,66,28,7,7,0.7,0.5
2026-02-03T0000,4277A,111.5427,40.7846,呼和浩特市,金海路35号,,43,43,31,22,15,0,,65,33,75,34,8,10,0.8,0.6
2026-02-03T0000,3061A,119.7511,49.1576,呼伦贝尔市,国华电力东,,39,39,24,16,14,73,,73,,18,19,5,6,0.4,0.4
2026-02-03T0000,4279A,119.7569,49.2222,呼伦贝尔市,伊敏大街东7号,,33,33,24,15,14,73,,71,60,3,7,8,8,0.3,0.3
2026-02-03T0000,1250A,120.075,30.867,湖州市,城西水厂,细颗粒物(PM2.5),100,110,80,75,57,14,,104,47,73,50,5,6,0.7,0.6
2026-02-03T0000,2873A,120.083,30.8929,湖州市,仁皇山新区,细颗粒物(PM2.5),93,102,78,69,54,32,,101,58,47,39,5,6,1.0,0.8
2026-02-03T0000,2907A,120.1846,30.8592,湖州市,吴兴区站,细颗粒物(PM2.5),127,117,80,96,68,16,,102,62,69,39,5,5,0.8,0.6
2026-02-03T0000,3562A,120.4146,30.8538,湖州市,南浔区站,细颗粒物(PM2.5),118,124,87,89,63,30,,100,72,60,38,6,7,1.0,0.8
2026-02-03T0000,1607A,120.904878,40.721091,葫芦岛市,龙港区,,50,48,38,35,21,19,,70,47,55,24,17,14,0.9,0.7
2026-02-03T0000,1608A,120.8382,40.7521,葫芦岛市,化工街,细颗粒物(PM2.5),79,100,51,58,29,6,,59,28,81,47,24,20,0.9,0.6
2026-02-03T0000,1609A,120.8339,40.7078,葫芦岛市,新区,颗粒物(PM10),53,55,35,29,18,6,,63,34,73,37,16,13,0.8,0.7
2026-02-03T0000,1610A,120.8697,40.7679,葫芦岛市,东城区,细颗粒物(PM2.5),80,68,48,59,32,7,,63,27,77,45,20,21,1.7,1
2026-02-03T0000,2483A,109.9297,27.5383,怀化市,河西地税局,颗粒物(PM10),77,104,77,50,43,23,,75,45,26,24,3,2,/,/
2026-02-03T0000,2484A,109.9783,27.5342,怀化市,市四医院,颗粒物(PM10),85,119,90,57,50,12,,74,43,33,25,7,9,0.7,0.7
2026-02-03T0000,2485A,109.9971,27.5579,怀化市,监测楼,细颗粒物(PM2.5),104,126,91,78,58,0,,74,37,43,28,3,4,0.8,0.5
2026-02-03T0000,1210A,119.0566,33.5991,淮安市,钵池山,细颗粒物(PM2.5),68,63,77,49,56,40,,80,56,33,26,7,8,0.3,0.5
2026-02-03T0000,1211A,119.0083,33.578,淮安市,北京南路,细颗粒物(PM2.5),62,66,83,44,56,43,,78,58,33,31,6,7,0.6,0.7
2026-02-03T0000,1212A,118.9938,33.6083,淮安市,市监测站,细颗粒物(PM2.5),70,56,68,51,62,53,,81,62,28,28,9,9,0.5,0.7
2026-02-03T0000,1213A,119.135,33.5038,淮安市,楚州区监测站,细颗粒物(PM2.5),68,56,81,49,63,27,,80,46,47,38,5,6,0.5,0.6
2026-02-03T0000,3426A,118.8757,33.2897,淮安市,新华书店,细颗粒物(PM2.5),72,66,102,52,82,32,,78,61,44,35,8,8,0.5,0.6
2026-02-03T0000,4092A,119.119691,33.550006,淮安市,枚皋中路89号,细颗粒物(PM2.5),72,70,80,52,60,51,,88,64,29,29,8,9,0.8,0.9
2026-02-03T0000,4206A,119.028838,33.631911,淮安市,承德北路606号,细颗粒物(PM2.5),78,75,91,57,58,47,,77,56,32,29,6,7,0.5,0.7
2026-02-03T0000,2282A,116.8005,33.9749,淮北市,监测站,细颗粒物(PM2.5),163,175,155,124,102,63,,100,81,29,28,4,5,1.2,1
2026-02-03T0000,2283A,116.8094,33.9008,淮北市,烈山区政府,细颗粒物(PM2.5),176,172,150,133,104,77,,109,92,25,32,4,4,0.7,0.7
2026-02-03T0000,4017A,116.7926,33.9534,淮北市,市博物馆,细颗粒物(PM2.5),163,180,162,124,108,77,,102,90,18,27,7,6,1.1,1.1
2026-02-03T0000,4100A,116.8322,33.9884,淮北市,杜集区第一实验学校,细颗粒物(PM2.5),182,175,158,137,111,84,,106,86,16,26,7,5,0.9,1
2026-02-03T0000,2277A,116.8304,32.7726,淮南市,潘集区政府,细颗粒物(PM2.5),120,153,116,91,65,45,,89,70,36,29,5,5,0.7,0.6
2026-02-03T0000,2279A,116.8569,32.5949,淮南市,谢家集区政府,细颗粒物(PM2.5),102,119,82,76,53,69,,105,97,23,22,9,7,0.8,0.7
2026-02-03T0000,2280A,116.8279,32.6333,淮南市,八公山区政府,细颗粒物(PM2.5),112,120,96,84,60,67,,104,88,26,22,4,7,0.8,0.7
2026-02-03T0000,2894A,117.0561,32.6536,淮南市,经济技术开发区消防队,细颗粒物(PM2.5),123,122,93,93,56,49,,91,64,45,34,4,5,0.6,0.5
2026-02-03T0000,3329A,117.011,32.5891,淮南市,山南新区,细颗粒物(PM2.5),120,121,83,91,60,69,,94,82,30,32,7,7,0.6,0.6
2026-02-03T0000,4209A,117.003137,32.644456,淮南市,国庆中路369号,细颗粒物(PM2.5),124,121,98,94,61,62,,84,56,23,29,10,10,0.6,0.6
2026-02-03T0000,2446A,114.9021,30.474,黄冈市,职工中心,细颗粒物(PM2.5),87,81,67,64,54,55,,100,82,33,28,4,4,0.8,0.8
2026-02-03T0000,2929A,114.8858,30.4519,黄冈市,红卫路,细颗粒物(PM2.5),84,80,66,62,55,54,,103,76,36,30,6,6,0.7,0.7
2026-02-03T0000,3398A,114.9134,30.4446,黄冈市,市林业局,细颗粒物(PM2.5),92,100,70,68,53,43,,90,74,36,26,4,4,0.8,0.7
2026-02-03T0000,2672A,102.02,35.5101,黄南藏族自治州,同仁县隆务镇,细颗粒物(PM2.5),72,80,72,52,43,66,,81,75,10,7,9,9,0.7,0.5
2026-02-03T0000,2295A,118.2905,29.6965,黄山市,延安路89号,,40,38,35,28,25,16,,88,54,20,13,4,4,0.7,0.7
2026-02-03T0000,2297A,118.1369,30.2755,黄山市,黄山区政府5号楼,细颗粒物(PM2.5),93,82,37,69,20,16,,79,44,11,9,2,2,0.8,0.7
2026-02-03T0000,4210A,118.335445,29.720283,黄山市,滨江东路7-2号,,42,42,49,28,24,27,,88,56,12,13,/,/,/,/
2026-02-03T0000,2423A,115.0547,30.2332,黄石市,沈家营,颗粒物(PM10),68,86,71,43,43,26,,79,50,38,28,6,8,1.1,1.1
2026-02-03T0000,2426A,114.899,30.211,黄石市,铁山,细颗粒物(PM2.5),70,82,57,51,42,45,,98,74,33,27,6,7,1.1,0.9
2026-02-03T0000,2427A,115.0259,30.2108,黄石市,团城山,细颗粒物(PM2.5),68,82,67,49,48,73,,91,84,14,22,6,6,0.8,0.9
2026-02-03T0000,3149A,115.0174,30.1591,黄石市,笔架山北路,颗粒物(PM10),84,117,79,58,46,75,,96,83,19,18,9,8,1.0,0.9
2026-02-03T0000,4185A,115.078022,30.21118,黄石市,磁湖东路29号,细颗粒物(PM2.5),83,85,68,61,55,8,,84,70,64,19,6,7,1.1,1.1
2026-02-03T0000,1392A,114.4181,23.0528,惠州市,河南岸金山湖子站,,33,33,26,17,16,51,,82,69,23,16,4,4,0.8,0.8
2026-02-03T0000,1393A,114.4055,23.0824,惠州市,下埔横江三路子站,,30,30,25,18,16,61,,93,76,15,14,7,7,0.4,0.6
2026-02-03T0000,1395A,114.4645,22.7832,惠州市,惠阳区承修路船湖子站,颗粒物(PM10),64,77,33,41,20,21,,82,57,49,21,6,6,0.9,0.7
2026-02-03T0000,1396A,114.5316,22.7423,惠州市,大亚湾管委会子站,,41,41,31,23,18,20,,82,60,53,18,6,6,0.7,0.6
2026-02-03T0000,3314A,114.4334,22.8134,惠州市,惠阳秋长,颗粒物(PM10),52,53,30,33,18,41,,103,72,41,19,/,/,/,/
2026-02-03T0000,3452A,114.6521,22.7755,惠州市,大亚湾霞涌,,32,32,29,18,18,59,,92,71,31,19,/,/,/,/
2026-02-03T0000,4300A,114.4089,23.1147,惠州市,文华一路1号,,28,28,24,17,17,65,,92,79,15,15,/,/,/,/
2026-02-03T0000,2240A,130.9618,45.2926,鸡西市,环保局,,26,26,37,17,23,75,,75,73,8,10,7,6,0.3,0.4
2026-02-03T0000,2243A,130.9294,45.2959,鸡西市,第一中学,,32,23,30,22,23,78,,78,77,8,8,3,3,0.4,0.4
2026-02-03T0000,3707A,131.0069,45.2988,鸡西市,欧美日汽修厂,,33,29,40,23,28,56,,69,64,18,12,9,8,1.8,0.7
2026-02-03T0000,2367A,114.9753,27.0803,吉安市,红声器材厂,细颗粒物(PM2.5),60,63,44,43,31,65,,85,81,20,17,8,9,0.8,0.5
2026-02-03T0000,2369A,114.9903,27.1313,吉安市,市环境监测站,细颗粒物(PM2.5),60,57,42,43,31,54,,87,82,28,15,9,9,/,/
2026-02-03T0000,2370A,115.009527,27.096792,吉安市,青原区法院,细颗粒物(PM2.5),67,57,42,48,32,69,,84,81,18,16,9,10,0.8,0.7
2026-02-03T0000,1772A,126.54,43.8622,吉林市,哈达湾,,46,46,48,31,37,85,,94,87,15,20,8,10,0.9,0.9
2026-02-03T0000,1773A,126.5843,43.8358,吉林市,东局子,,43,34,47,30,35,70,,74,67,13,20,7,6,1.0,1
2026-02-03T0000,1774A,126.5051,43.8243,吉林市,电力学院,细颗粒物(PM2.5),53,49,53,37,44,67,,85,74,24,25,8,8,0.9,0.9
2026-02-03T0000,1775A,126.6133,43.8971,吉林市,江北,颗粒物(PM10),58,65,52,28,35,67,,72,62,20,23,8,9,0.8,1
2026-02-03T0000,1776A,126.5549,43.8304,吉林市,江南公园,细颗粒物(PM2.5),53,45,49,37,40,70,,81,70,15,21,8,9,0.6,0.6
2026-02-03T0000,2868A,126.4737,43.953,吉林市,九站,,43,35,54,30,44,71,,77,66,19,38,6,12,0.8,0.9
2026-02-03T0000,1299A,116.9866,36.6118,济南市,科干所,颗粒物(PM10),67,83,106,46,73,24,,74,43,54,40,23,13,0.8,0.8
2026-02-03T0000,1300A,116.9379,36.6652,济南市,农科所,细颗粒物(PM2.5),85,110,139,63,105,2,,68,33,78,51,22,15,1.2,1.2
2026-02-03T0000,1301A,117.1265,36.6736,济南市,开发区,颗粒物(PM10),72,93,116,51,89,6,,75,32,81,54,6,5,0.9,1
2026-02-03T0000,1303A,117.0616,36.6865,济南市,省种子仓库,颗粒物(PM10),73,95,141,51,102,7,,72,33,70,51,5,6,0.8,1.1
2026-02-03T0000,1304A,116.9495185,36.644937,济南市,机床二厂,细颗粒物(PM2.5),80,103,133,59,99,7,,72,31,70,53,41,21,0.8,1
2026-02-03T0000,1305A,117.0496,36.6629,济南市,市监测站,细颗粒物(PM2.5),70,85,123,51,97,13,,71,33,62,44,5,5,1.0,1
2026-02-03T0000,1306A,116.7674,36.5458,济南市,长清党校,颗粒物(PM10),56,61,100,36,72,22,,72,53,65,51,5,5,0.8,0.9
2026-02-03T0000,1961A,117.5323,36.6865,济南市,东山小学,颗粒物(PM10),57,63,98,36,66,32,,80,44,50,40,3,4,0.5,0.7
2026-02-03T0000,3059A,117.7181,36.205,济南市,泰兴公司,,,,137,,94,,,83,43,,44,,7,,1.2
2026-02-03T0000,3064A,117.6861,36.2172,济南市,莱芜战役纪念馆,细颗粒物(PM2.5),84,97,133,62,95,4,,81,40,74,47,12,11,1.0,1.2
2026-02-03T0000,3494A,117.1673,36.9782,济南市,济阳区政府,"颗粒物(PM10),细颗粒物(PM2.5)",70,90,150,51,119,19,,74,46,78,43,13,7,0.8,1.1
2026-02-03T0000,3495A,117.1168,36.6299,济南市,锦屏中学,细颗粒物(PM2.5),53,54,83,37,60,59,,79,57,21,26,4,4,0.4,0.5
2026-02-03T0000,4108A,117.7107,36.2385,济南市,山财大街5号,颗粒物(PM10),60,70,113,42,80,13,,85,45,89,58,11,10,0.8,1.1
2026-02-03T0000,4109A,116.9744,36.6889,济南市,无影山路12号,细颗粒物(PM2.5),85,117,145,63,110,2,,65,28,77,50,25,11,1.5,1.4
2026-02-03T0000,1653A,116.6229,35.4288,济宁市,火炬城,细颗粒物(PM2.5),94,79,142,70,110,66,,93,80,28,42,3,4,0.7,0.9
2026-02-03T0000,3500A,116.5808,35.3703,济宁市,北湖一中,细颗粒物(PM2.5),94,76,128,70,108,76,,96,84,27,39,5,5,0.6,0.9
2026-02-03T0000,3501A,116.8251,35.5592,济宁市,服务中心,细颗粒物(PM2.5),132,149,163,100,108,23,,81,50,56,41,8,7,1.0,1.1
2026-02-03T0000,3678A,116.5907,35.4054,济宁市,市第七中学,细颗粒物(PM2.5),124,124,141,94,116,25,,97,60,73,49,11,11,0.9,1
2026-02-03T0000,4111A,116.6075,35.4566,济宁市,任和路,细颗粒物(PM2.5),107,124,156,80,102,6,,88,55,81,52,4,6,0.7,0.9
2026-02-03T0000,4112A,116.5648,35.3921,济宁市,文体南路1号,细颗粒物(PM2.5),104,109,158,78,111,45,,96,71,48,46,4,4,0.8,1
2026-02-03T0000,2255A,130.2749,46.8028,佳木斯市,佳纺,,37,37,51,24,38,72,,77,65,7,14,5,8,0.4,0.5
2026-02-03T0000,2257A,130.3258,46.7975,佳木斯市,环保局,,42,34,41,29,35,76,,77,68,10,17,7,8,0.2,0.3
2026-02-03T0000,4285A,130.363,46.806,佳木斯市,顺和街,,39,35,41,27,35,69,,70,64,13,18,10,10,0.4,0.5
2026-02-03T0000,4286A,130.3952,46.8268,佳木斯市,长安路196号,,40,40,42,28,33,73,,77,70,13,16,6,7,0.6,0.7
2026-02-03T0000,1252A,120.7439,30.778,嘉兴市,清河小学,细颗粒物(PM2.5),159,168,106,121,76,19,,81,43,71,47,6,6,0.6,0.6
2026-02-03T0000,1253A,120.7261,30.7477,嘉兴市,嘉兴学院,细颗粒物(PM2.5),137,160,104,104,70,8,,87,44,75,49,5,5,1.2,0.9
2026-02-03T0000,2872A,120.7845,30.7524,嘉兴市,南湖区残联,细颗粒物(PM2.5),156,151,98,119,78,24,,85,48,68,43,4,5,0.8,0.7
2026-02-03T0000,3407A,120.6915,30.7741,嘉兴市,秀洲住建,细颗粒物(PM2.5),129,148,100,98,66,8,,92,47,75,46,7,7,1.0,0.8
2026-02-03T0000,1945A,98.291,39.7705,嘉峪关市,气象局,颗粒物(PM10),74,97,98,30,31,78,,78,78,9,21,12,11,0.3,0.5
2026-02-03T0000,2884A,98.2672,39.7978,嘉峪关市,酒钢宾馆,颗粒物(PM10),71,92,104,28,33,66,,75,74,13,21,15,23,0.5,1
2026-02-03T0000,3248A,98.2644,39.7723,嘉峪关市,雄关区,颗粒物(PM10),65,80,83,34,30,70,,73,72,17,26,15,14,0.3,0.5
2026-02-03T0000,1383A,113.1063,22.6058,江门市,北街,颗粒物(PM10),51,52,41,28,24,27,,99,78,68,39,/,/,/,/
2026-02-03T0000,1384A,113.073,22.5835,江门市,西区,颗粒物(PM10),55,60,60,32,25,26,,95,72,62,34,/,/,/,/
2026-02-03T0000,1385A,113.0218,22.531,江门市,圭峰西,,45,45,38,22,22,58,,106,94,32,28,/,/,/,/
2026-02-03T0000,1386A,113.0826,22.5947,江门市,东湖,颗粒物(PM10),51,51,39,35,24,33,,94,75,47,31,7,8,0.8,0.7
2026-02-03T0000,3311A,113.1077,22.5647,江门市,江海富民,颗粒物(PM10),52,53,43,29,24,32,,94,76,71,41,/,/,0.8,0.7
2026-02-03T0000,3449A,113.0496,22.4669,江门市,新会银湖,细颗粒物(PM2.5),63,54,45,45,26,3,,89,50,53,31,7,7,0.8,0.7
2026-02-03T0000,3335A,113.3137,35.2643,焦作市,马村街道办,细颗粒物(PM2.5),122,147,110,92,68,91,,102,95,17,23,6,8,0.8,0.8
2026-02-03T0000,3336A,113.2464,35.2374,焦作市,焦作技师学院,细颗粒物(PM2.5),128,156,107,97,71,80,,105,92,24,26,8,10,1.0,1
2026-02-03T0000,3477A,113.1656,35.2536,焦作市,中站许衡医院,细颗粒物(PM2.5),128,135,96,97,62,100,,112,109,19,22,8,10,0.9,0.8
2026-02-03T0000,3981A,113.2456,35.18,焦作市,原李万街道办,细颗粒物(PM2.5),129,150,109,98,69,100,,110,101,17,22,12,12,0.9,0.7
2026-02-03T0000,4264A,113.234,35.219,焦作市,新安路1731号,细颗粒物(PM2.5),124,164,117,94,69,79,,110,96,27,24,9,11,0.7,0.8
2026-02-03T0000,4295A,113.2722,35.2121,焦作市,人民路3066号,细颗粒物(PM2.5),142,160,109,108,70,91,,109,98,19,23,9,10,1.0,0.9
2026-02-03T0000,1708A,116.3701,23.5345,揭阳市,新兴,,38,37,35,26,20,64,,86,78,25,21,8,8,0.7,0.8
2026-02-03T0000,1709A,116.3261,23.5442,揭阳市,西马,,50,50,34,28,20,58,,92,82,23,16,7,5,0.9,0.7
2026-02-03T0000,1710A,116.361,23.5627,揭阳市,东兴,,41,41,36,28,23,68,,92,86,20,19,11,9,/,/
2026-02-03T0000,1711A,116.4151,23.5295,揭阳市,渔湖,,36,34,38,25,22,74,,101,89,19,20,5,6,/,/
2026-02-03T0000,3320A,116.4028,23.5699,揭阳市,曲溪,,44,44,37,26,22,71,,101,92,20,19,19,7,0.6,0.7
2026-02-03T0000,1944A,102.1691,38.5166,金昌市,天庆家园,细颗粒物(PM2.5),109,158,103,82,48,38,,79,64,30,17,12,12,0.9,0.8
2026-02-03T0000,4022A,102.1648,38.5369,金昌市,金川区人防中心,颗粒物(PM10),75,99,96,48,43,40,,82,68,25,12,15,16,1.0,0.5
2026-02-03T0000,4239A,102.193042,38.531887,金昌市,长春路96号,颗粒物(PM10),70,89,85,32,35,64,,78,68,14,13,9,35,0.7,0.7
2026-02-03T0000,1262A,119.6478,29.0773,金华市,十五中,细颗粒物(PM2.5),70,79,52,51,34,20,,86,54,67,40,4,3,0.6,0.5
2026-02-03T0000,1263A,119.6859,29.1032,金华市,监测站,细颗粒物(PM2.5),73,88,56,53,34,4,,60,28,72,43,2,2,0.5,0.4
2026-02-03T0000,3659A,119.656,29.1132,金华市,气象局,细颗粒物(PM2.5),72,83,57,52,33,11,,64,31,72,48,3,4,0.8,0.6
2026-02-03T0000,1767A,121.1114,41.0879,锦州市,南山,细颗粒物(PM2.5),94,,44,70,30,4,,74,30,79,36,19,18,1.6,1
2026-02-03T0000,1768A,121.060361,40.842794,锦州市,开发区,细颗粒物(PM2.5),94,120,76,70,28,2,,56,25,76,53,26,25,0.9,0.8
2026-02-03T0000,1769A,121.1836,41.1118,锦州市,百股街道,细颗粒物(PM2.5),62,59,43,44,28,4,,80,31,87,35,17,11,1.2,0.9
2026-02-03T0000,1770A,121.1176,41.1224,锦州市,天安街道,细颗粒物(PM2.5),82,74,52,60,34,5,,79,29,71,33,13,16,1.3,1.2
2026-02-03T0000,1771A,121.1303,41.1385,锦州市,北湖公园,细颗粒物(PM2.5),74,62,42,54,26,3,,74,29,79,28,16,17,1.1,0.8
2026-02-03T0000,2160A,112.8496,35.5051,晋城市,自来水公司,细颗粒物(PM2.5),93,131,70,69,32,57,,84,82,41,24,7,10,1.0,0.9
2026-02-03T0000,2162A,112.8509,35.4886,晋城市,市环保局,细颗粒物(PM2.5),118,128,71,89,38,64,,78,75,38,28,6,7,0.7,0.6
2026-02-03T0000,3620A,112.8258,35.4804,晋城市,泽州一中,细颗粒物(PM2.5),115,122,67,87,36,96,,89,89,17,18,6,6,0.9,0.7
2026-02-03T0000,4078A,112.8246,35.5152,晋城市,前书院路,细颗粒物(PM2.5),95,136,71,71,30,65,,76,69,28,24,7,8,1.0,0.8
2026-02-03T0000,4079A,112.8864,35.4773,晋城市,祥云街666号,细颗粒物(PM2.5),129,131,74,98,47,92,,94,94,23,24,9,11,0.7,0.7
2026-02-03T0000,2174A,112.6992,37.6984,晋中市,榆次区政府,颗粒物(PM10),74,97,61,41,26,4,,66,32,65,37,17,14,0.7,0.6
2026-02-03T0000,2865A,112.7195,37.683,晋中市,榆次三中,颗粒物(PM10),54,58,55,32,24,3,,70,32,61,39,14,14,0.4,0.5
2026-02-03T0000,4080A,112.7375,37.7215,晋中市,广安街188号,颗粒物(PM10),67,84,102,39,27,1,,66,25,74,47,18,18,0.7,0.6
2026-02-03T0000,4200A,112.7478,37.6954,晋中市,迎宾街26号,颗粒物(PM10),54,58,54,33,22,30,,72,40,31,28,14,14,0.5,0.6
2026-02-03T0000,2439A,112.2012,31.048,荆门市,竹园小学,细颗粒物(PM2.5),103,116,117,77,84,27,,85,57,59,40,1,2,0.8,0.8
2026-02-03T0000,2440A,112.1968,30.9892,荆门市,掇刀,细颗粒物(PM2.5),119,131,121,90,89,42,,102,68,48,29,2,5,0.9,0.8
2026-02-03T0000,3012A,112.1849,31.0361,荆门市,西山林语,细颗粒物(PM2.5),93,95,107,69,74,81,,89,80,19,25,2,2,0.8,1
2026-02-03T0000,3547A,112.1631,31.0134,荆门市,龙泉中学南校,细颗粒物(PM2.5),89,112,117,66,76,85,,101,91,18,23,5,5,0.0,0.2
2026-02-03T0000,4124A,112.2213,31.0654,荆门市,新台西路6号,细颗粒物(PM2.5),119,118,122,90,90,23,,92,67,60,35,8,10,1.1,0.9
2026-02-03T0000,1844A,112.2493,30.3198,荆州市,市图书馆,细颗粒物(PM2.5),104,129,82,78,72,6,,101,60,94,38,9,9,1.2,1.1
2026-02-03T0000,1845A,112.2009,30.3543,荆州市,市委党校,细颗粒物(PM2.5),110,127,92,83,77,1,,88,46,90,44,8,8,1.2,1.1
2026-02-03T0000,3194A,112.2749,30.3124,荆州市,管委会,细颗粒物(PM2.5),103,121,87,77,75,1,,97,56,86,40,7,9,1.0,0.9
2026-02-03T0000,4268A,112.1722,30.3366,荆州市,学苑路85号,细颗粒物(PM2.5),109,118,86,82,73,13,,106,73,62,27,10,10,0.9,0.8
2026-02-03T0000,2343A,117.2114,29.2931,景德镇市,老干部活动中心,颗粒物(PM10),56,61,35,33,21,0,,61,30,32,15,4,4,0.8,0.6
2026-02-03T0000,2344A,117.1893,29.2789,景德镇市,兽医站,颗粒物(PM10),59,68,42,34,21,11,,71,41,28,17,5,4,0.6,0.5
2026-02-03T0000,2346A,117.246,29.2958,景德镇市,陶研所,,46,46,29,26,20,0,,65,33,26,13,3,3,0.8,0.6
2026-02-03T0000,4289A,117.154766,29.256967,景德镇市,青少年活动中心,颗粒物(PM10),61,71,39,38,24,10,,71,30,36,23,3,7,/,/
2026-02-03T0000,1803A,115.9873,29.6816,九江市,十里,颗粒物(PM10),80,110,74,57,43,5,,99,42,82,47,6,6,1.1,1.1
2026-02-03T0000,1804A,115.9583,29.7047,九江市,茅山头,颗粒物(PM10),72,94,71,45,35,6,,102,52,82,38,4,4,0.6,0.8
2026-02-03T0000,1805A,115.9877,29.7295,九江市,西园,细颗粒物(PM2.5),62,62,59,44,49,11,,77,,101,43,5,6,1.0,0.9
2026-02-03T0000,1808A,115.9112,29.6038,九江市,综合工业园,,45,45,60,25,35,29,,91,59,49,34,1,3,0.3,0.5
2026-02-03T0000,3190A,116.0254,29.6995,九江市,外国语学校,细颗粒物(PM2.5),89,84,60,66,48,10,,87,64,89,37,8,7,0.9,0.8
2026-02-03T0000,4253A,116.010205,29.659402,九江市,莲花大道8号,细颗粒物(PM2.5),65,76,63,47,37,54,,99,85,20,12,3,3,0.7,0.7
2026-02-03T0000,4240A,98.495752,39.733935,酒泉市,玉门东路5号,颗粒物(PM10),75,100,114,42,42,66,,80,72,14,15,12,11,0.4,0.5
2026-02-03T0000,4241A,98.5099,39.7506,酒泉市,北大街108号,颗粒物(PM10),74,97,93,36,42,43,,73,60,29,20,11,11,0.4,0.5
2026-02-03T0000,2698A,76.0071,39.466,喀什地区,巡警大队,细颗粒物(PM2.5),235,323,217,185,98,3,,77,59,105,43,16,7,4.0,1.6
2026-02-03T0000,2699A,75.9756,39.4693,喀什地区,吾办,细颗粒物(PM2.5),234,288,209,184,104,4,,79,58,102,52,15,14,3.1,1.7
2026-02-03T0000,4027A,75.9485,39.4688,喀什地区,老干局,颗粒物(PM10),164,277,221,112,94,6,,81,60,85,40,9,5,2.4,1.9
2026-02-03T0000,1824A,114.3389,34.778,开封市,肿瘤医院,细颗粒物(PM2.5),173,163,154,131,116,56,,107,77,57,41,11,13,1.2,1.3
2026-02-03T0000,1826A,114.2884,34.7966,开封市,世纪星幼儿园,细颗粒物(PM2.5),166,153,138,126,119,77,,104,84,41,39,7,8,0.9,1
2026-02-03T0000,3147A,114.3434,34.8101,开封市,龙亭公园,细颗粒物(PM2.5),162,190,150,123,123,15,,108,68,102,44,11,10,1.2,1.2
2026-02-03T0000,3210A,114.3645,34.7955,开封市,汴京公园,细颗粒物(PM2.5),159,186,156,121,112,38,,105,75,78,42,5,7,0.9,0.9
2026-02-03T0000,3473A,114.2485,34.8306,开封市,技师学院,细颗粒物(PM2.5),134,137,129,102,102,95,,112,105,28,34,8,10,1.0,1.1
2026-02-03T0000,3592A,114.4518,34.7503,开封市,祥符区生态环境局,细颗粒物(PM2.5),160,195,166,122,112,18,,102,57,89,47,5,9,1.0,1.2
2026-02-03T0000,1951A,84.886,45.6029,克拉玛依市,长征新村,细颗粒物(PM2.5),160,154,144,122,106,36,,49,46,54,48,5,5,1.5,1.4
2026-02-03T0000,1952A,84.8894,45.5827,克拉玛依市,南林小区,细颗粒物(PM2.5),156,146,145,119,114,53,,50,50,16,26,2,2,1.3,1.4
2026-02-03T0000,1954A,84.896,44.3328,克拉玛依市,独山子区,细颗粒物(PM2.5),242,250,135,192,76,50,,80,63,40,30,2,3,1.1,0.9
2026-02-03T0000,1955A,85.6888,46.0909,克拉玛依市,乌尔禾区商贸楼,细颗粒物(PM2.5),133,135,122,101,96,25,,63,46,56,45,8,7,1.5,1.5
2026-02-03T0000,3612A,85.1045,45.6895,克拉玛依市,白碱滩区新站,细颗粒物(PM2.5),166,167,161,126,122,23,,48,43,47,40,8,9,1.3,1.3
2026-02-03T0000,2697A,76.1457,39.7143,克孜勒苏柯尔克孜自治州,市人民政府,颗粒物(PM10),127,204,187,66,59,57,,93,83,22,11,5,4,0.6,0.4
2026-02-03T0000,3665A,76.1654,39.7157,克孜勒苏柯尔克孜自治州,克州文化中心,颗粒物(PM10),103,156,176,58,57,61,,88,80,17,12,4,4,0.7,0.6
2026-02-03T0000,1450A,102.8203,24.889,昆明市,呈贡新区,,30,29,40,21,25,74,,83,74,12,25,4,5,0.5,0.6
2026-02-03T0000,1452A,102.7253,25.0904,昆明市,龙泉镇,颗粒物(PM10),52,54,39,29,23,33,,87,66,38,24,3,3,0.5,0.5
2026-02-03T0000,1453A,102.7267,25.0378,昆明市,东风东路,,,40,40,31,22,72,,89,75,14,23,6,6,,0.3
2026-02-03T0000,1454A,102.6744,25.0671,昆明市,金鼎山,颗粒物(PM10),51,52,48,30,24,62,,85,70,21,24,5,3,0.5,0.6
2026-02-03T0000,1455A,102.6643,25.0401,昆明市,碧鸡广场,,,45,41,42,23,40,,89,65,42,26,6,4,,0.5
2026-02-03T0000,3179A,102.7491,25.012,昆明市,官渡区博物馆,,37,37,44,22,25,75,,92,80,17,26,4,4,0.7,0.8
2026-02-03T0000,3375A,102.8016,24.8336,昆明市,青年创业园,,36,36,33,19,18,75,,94,83,10,19,6,6,0.6,0.5
2026-02-03T0000,3550A,102.8,24.9787,昆明市,昆明学院,,42,42,48,23,24,77,,95,85,13,24,4,4,0.7,0.7
2026-02-03T0000,3551A,102.5969,24.6738,昆明市,晋宁区生态环境分局,,48,48,38,22,24,71,,98,88,16,19,2,3,0.6,0.5
2026-02-03T0000,3552A,102.6673,24.9861,昆明市,云天化总部,,38,37,40,26,20,83,,90,83,9,26,6,6,0.5,0.5
2026-02-03T0000,1456A,91.132,29.6515,拉萨市,八廓街,细颗粒物(PM2.5),53,46,28,37,13,12,,87,64,65,25,10,8,1.8,0.7
2026-02-03T0000,1457A,91.1221,29.6748,拉萨市,市环保局,细颗粒物(PM2.5),65,67,39,47,17,14,,81,54,51,29,12,9,2.1,1.1
2026-02-03T0000,1458A,91.0874,29.6476,拉萨市,区监测站,,22,20,18,10,7,34,,83,63,43,21,5,4,1.2,0.9
2026-02-03T0000,1459A,91.1774,29.6541,拉萨市,西藏大学,,39,33,24,27,12,29,,76,55,47,26,5,5,1.3,0.8
2026-02-03T0000,1460A,90.9798,29.6586,拉萨市,区辐射站,细颗粒物(PM2.5),54,50,42,38,21,28,,82,61,51,24,6,4,1.4,0.7
2026-02-03T0000,1461A,91.0831,29.6292,拉萨市,拉萨火车站,,23,,20,16,7,49,,83,71,25,12,5,4,0.6,0.3
2026-02-03T0000,2520A,109.2203,23.7252,来宾市,来宾技工学校,细颗粒物(PM2.5),90,92,61,67,42,34,,70,60,29,14,12,12,0.9,0.8
2026-02-03T0000,3535A,109.1781,23.7293,来宾市,兴宾区政府,细颗粒物(PM2.5),82,86,58,60,39,34,,75,63,28,10,7,7,0.9,0.8
2026-02-03T0000,4002A,109.2312,23.7428,来宾市,中南小学,细颗粒物(PM2.5),98,90,60,73,44,10,,70,53,51,17,7,7,1.1,1
2026-02-03T0000,1479A,103.8309,36.0467,兰州市,铁路设计院,,,,,,,,,,,,,,,,
2026-02-03T0000,3241A,103.7439,36.0841,兰州市,百合公园,细颗粒物(PM2.5),97,102,116,72,65,19,,55,31,51,52,12,15,1.3,1.2
2026-02-03T0000,3242A,103.9613,35.9985,兰州市,和平,颗粒物(PM10),80,110,107,51,50,41,,82,60,39,30,10,13,1.0,1.1
2026-02-03T0000,4236A,103.629272,36.093822,兰州市,庄浪东路808号,细颗粒物(PM2.5),84,111,118,62,60,25,,76,52,67,49,13,18,1.0,1
2026-02-03T0000,4237A,103.7251,36.104344,兰州市,安宁西路88号,颗粒物(PM10),90,129,133,42,64,21,,72,42,58,53,10,19,0.8,0.9
2026-02-03T0000,4238A,103.846982,36.067567,兰州市,北滨河东路1号,细颗粒物(PM2.5),88,122,120,65,59,2,,74,32,84,61,11,14,1.1,1.4
2026-02-03T0000,1067A,116.6712,39.5109,廊坊市,药材公司,细颗粒物(PM2.5),65,65,26,47,16,22,,68,45,59,24,2,3,0.5,0.3
2026-02-03T0000,1068A,116.7215,39.5592,廊坊市,开发区,颗粒物(PM10),51,52,22,34,11,47,,68,50,31,21,2,2,0.4,0.3
2026-02-03T0000,1070A,116.7246,39.5273,廊坊市,北华航天学院,细颗粒物(PM2.5),53,54,26,37,13,45,,67,54,34,24,4,3,0.4,0.3
2026-02-03T0000,2919A,116.7022,39.5454,廊坊市,河北工业大学,颗粒物(PM10),54,57,25,36,13,47,,70,55,31,17,1,3,0.5,0.3
2026-02-03T0000,2536A,103.7629,29.5844,乐山市,牛耳桥,细颗粒物(PM2.5),94,112,96,70,63,75,,78,74,20,27,5,5,1.0,1
2026-02-03T0000,2537A,103.7501,29.6002,乐山市,市第三水厂,细颗粒物(PM2.5),95,108,103,71,66,77,,81,77,19,31,6,6,1.1,1.2
2026-02-03T0000,2538A,103.7571,29.5664,乐山市,市监测站,细颗粒物(PM2.5),95,111,102,71,63,69,,79,76,17,25,5,6,0.8,0.9
2026-02-03T0000,3361A,103.7313,29.563,乐山市,理工大学,细颗粒物(PM2.5),94,111,101,70,63,72,,78,75,13,24,2,3,0.9,0.9
2026-02-03T0000,2599A,100.2497,26.8802,丽江市,丽江古城,,24,18,22,8,11,76,,85,78,9,10,8,10,0.4,0.5
2026-02-03T0000,2600A,100.2203,26.8906,丽江市,市中心,,25,,15,11,10,80,,85,79,8,11,6,6,0.4,0.4
2026-02-03T0000,1267A,119.9141,28.4513,丽水市,监测站大楼,,45,45,37,28,26,30,,84,65,30,18,5,4,0.5,0.5
2026-02-03T0000,1268A,119.93,28.4589,丽水市,莲都小学,,49,49,38,27,24,48,,89,74,23,19,/,/,/,/
2026-02-03T0000,1269A,119.8794,28.4232,丽水市,余庄前,,38,38,32,22,21,16,,82,52,15,14,4,4,0.4,0.3
2026-02-03T0000,1173A,119.1759,34.5885,连云港市,市环境监测站,细颗粒物(PM2.5),73,70,83,53,67,53,,71,60,27,32,10,11,0.6,0.7
2026-02-03T0000,3000A,119.3577,34.6971,连云港市,德源药业,细颗粒物(PM2.5),70,80,95,51,66,49,,72,52,38,40,8,7,1.2,1.1
2026-02-03T0000,3007A,119.178,34.8442,连云港市,新城一中,细颗粒物(PM2.5),87,90,126,64,103,7,,69,34,94,58,10,13,1.1,1.3
2026-02-03T0000,3008A,119.3607,34.7519,连云港市,胡沟管理处,细颗粒物(PM2.5),62,56,111,44,85,67,,62,37,23,46,10,11,0.8,1.1
2026-02-03T0000,3009A,119.1478,34.5913,连云港市,矿山设计院,细颗粒物(PM2.5),73,73,88,53,62,56,,74,61,29,34,8,9,0.7,0.9
2026-02-03T0000,3434A,119.2414,34.6539,连云港市,工贸学校,细颗粒物(PM2.5),64,62,78,46,60,85,,78,76,12,28,13,12,0.7,0.7
2026-02-03T0000,3664A,119.4171,34.734,连云港市,连云街道,细颗粒物(PM2.5),68,77,89,49,70,8,,71,62,92,35,6,7,0.9,1
2026-02-03T0000,2573A,102.2629,27.8981,凉山彝族自治州,西昌市政府,,26,26,26,17,19,60,,86,77,16,10,10,7,0.6,0.7
2026-02-03T0000,2574A,102.2686,27.885,凉山彝族自治州,凉山州政府,,33,33,30,22,20,44,,78,63,18,13,8,8,0.8,0.8
2026-02-03T0000,4229A,102.2342,27.8859,凉山彝族自治州,凯乐南路30号,,40,40,34,22,18,35,,77,64,26,16,9,9,0.7,0.9
2026-02-03T0000,2212A,123.1978,41.2036,辽阳市,宏伟区,,24,24,45,15,17,63,,66,57,8,13,8,11,0.6,0.7
2026-02-03T0000,2213A,123.1684,41.2497,辽阳市,新华园,,24,24,50,14,25,63,,71,52,19,27,9,10,0.5,0.7
2026-02-03T0000,2214A,123.2355,41.2663,辽阳市,滨河路,,25,25,41,15,18,65,,69,54,10,20,11,12,0.6,0.7
2026-02-03T0000,4083A,123.153,41.2874,辽阳市,铁西路150号,,31,31,50,14,26,54,,69,53,22,24,12,14,0.7,0.9
2026-02-03T0000,2227A,125.1359,42.8845,辽源市,环保局,细颗粒物(PM2.5),80,84,73,59,53,20,,78,39,54,40,7,5,1.3,1.1
2026-02-03T0000,4085A,125.0998,42.9134,辽源市,安宁大街333号,"颗粒物(PM10),细颗粒物(PM2.5)",53,56,71,37,53,52,,74,56,23,28,14,7,0.8,0.9
2026-02-03T0000,1625A,115.9789,36.4372,聊城市,区政府,细颗粒物(PM2.5),78,91,165,57,116,37,,75,44,49,52,12,13,0.9,1.2
2026-02-03T0000,3200A,115.9772,36.4986,聊城市,监控中心,细颗粒物(PM2.5),104,103,165,78,133,6,,73,30,90,63,9,9,0.9,1.2
2026-02-03T0000,3513A,116.0443,36.436,聊城市,九州社区,细颗粒物(PM2.5),80,87,145,59,118,38,,94,72,54,37,7,6,0.6,1
2026-02-03T0000,4018A,116.0564,36.4609,聊城市,星美广场,细颗粒物(PM2.5),102,94,163,76,128,24,,79,52,56,42,7,7,0.7,1.1
2026-02-03T0000,4113A,116.0091,36.4495,聊城市,利民路,细颗粒物(PM2.5),74,85,161,54,117,39,,77,54,53,51,10,11,0.9,1.2
2026-02-03T0000,2632A,94.3683,29.6373,林芝市,林芝监测站,,27,12,16,9,11,86,,87,86,1,2,4,5,0.4,0.4
2026-02-03T0000,2633A,94.3616,29.6634,林芝市,林芝人民医院,,27,14,19,10,14,84,,85,83,1,2,4,5,0.3,0.3
2026-02-03T0000,2603A,100.0779,23.8981,临沧市,市环保局,细颗粒物(PM2.5),54,40,35,38,22,39,,83,61,23,16,7,8,0.8,0.6
2026-02-03T0000,2604A,100.0894,23.882,临沧市,市气象局,,49,49,46,34,23,44,,76,60,11,13,10,10,0.6,0.6
2026-02-03T0000,1733A,111.5552,36.0791,临汾市,临钢医院,颗粒物(PM10),57,64,82,35,44,27,,62,32,29,35,6,7,0.6,1
2026-02-03T0000,1734A,111.4984,36.0734,临汾市,技工学校,细颗粒物(PM2.5),68,75,90,49,60,22,,62,38,40,40,6,9,1.2,1.5
2026-02-03T0000,1736A,111.5017,36.0857,临汾市,市委,颗粒物(PM10),72,94,99,49,53,16,,64,39,45,42,8,9,0.7,0.9
2026-02-03T0000,3018A,111.5048,36.1015,临汾市,唐尧大酒店,颗粒物(PM10),74,98,97,39,50,11,,68,38,53,42,5,5,1.2,1.3
2026-02-03T0000,4244A,111.4879,36.053,临汾市,启星学校,细颗粒物(PM2.5),84,106,91,62,57,0,,61,29,74,56,5,8,0.9,0.9
2026-02-03T0000,4271A,103.2464,35.6123,临夏回族自治州,滨河东路1号,细颗粒物(PM2.5),176,256,163,133,89,8,,78,43,50,30,7,7,2.0,1.3
2026-02-03T0000,4310A,103.207136,35.599807,临夏回族自治州,新华街21号,细颗粒物(PM2.5),186,218,155,140,90,16,,80,58,55,27,11,8,2.1,1.4
2026-02-03T0000,1618A,118.3429,35.0532,临沂市,沂河小区,细颗粒物(PM2.5),69,73,144,50,104,48,,73,56,32,44,11,13,0.5,1
2026-02-03T0000,1619A,118.2962,35.0568,临沂市,鲁南制药厂,颗粒物(PM10),68,85,132,48,104,40,,73,51,44,50,21,17,0.6,0.9
2026-02-03T0000,1620A,118.2793,34.9976,临沂市,新光毛纺厂,细颗粒物(PM2.5),85,95,128,63,104,26,,77,48,52,49,22,16,0.8,1
2026-02-03T0000,1621A,118.3955,35.0889,临沂市,河东保险公司,细颗粒物(PM2.5),118,124,151,89,119,21,,78,42,70,57,10,11,1.0,1.2
2026-02-03T0000,3370A,118.3563,35.0215,临沂市,十里堡居委,细颗粒物(PM2.5),68,73,140,49,110,46,,77,52,35,52,12,17,0.6,1
2026-02-03T0000,3496A,118.359,35.1067,临沂市,南坊新区,细颗粒物(PM2.5),75,80,137,55,104,47,,80,60,40,51,11,11,0.7,1.1
2026-02-03T0000,3860A,118.3915,35.0297,临沂市,皇山花园小区,细颗粒物(PM2.5),83,73,146,61,126,46,,80,57,37,50,13,15,0.7,1.1
2026-02-03T0000,1870A,109.4854,24.3898,柳州市,柳东小学,颗粒物(PM10),54,58,53,34,37,62,,69,68,11,10,11,10,0.7,0.8
2026-02-03T0000,1871A,109.4109,24.3304,柳州市,环保监测站,细颗粒物(PM2.5),54,56,52,38,33,60,,67,65,18,17,6,5,0.8,0.9
2026-02-03T0000,1872A,109.3886,24.3408,柳州市,河西水厂,细颗粒物(PM2.5),97,93,62,72,38,51,,75,70,26,16,9,9,0.7,0.8
2026-02-03T0000,1873A,109.4263,24.2951,柳州市,市四中,颗粒物(PM10),53,56,49,34,36,62,,66,62,17,14,9,7,0.8,0.9
2026-02-03T0000,1874A,109.396,24.3658,柳州市,市九中,细颗粒物(PM2.5),97,113,58,72,39,46,,67,62,25,16,11,9,1.0,0.9
2026-02-03T0000,1875A,109.4912,24.3164,柳州市,古亭山,颗粒物(PM10),52,53,48,31,38,59,,70,69,17,13,8,7,0.4,0.5
2026-02-03T0000,3402A,109.5422,24.3994,柳州市,市二中,,,50,50,30,38,,,67,67,14,18,10,10,0.7,0.7
2026-02-03T0000,2307A,116.5078,31.7369,六安市,监测大楼,细颗粒物(PM2.5),72,83,65,52,40,76,,99,84,21,26,2,3,0.5,0.5
2026-02-03T0000,2308A,116.4738,31.7642,六安市,皖西学院,细颗粒物(PM2.5),79,93,73,58,40,76,,106,87,23,25,4,4,0.5,0.5
2026-02-03T0000,2309A,116.4997,31.7904,六安市,朝阳厂,细颗粒物(PM2.5),73,73,66,53,42,82,,105,89,21,18,7,5,0.5,0.5
2026-02-03T0000,2310A,116.5566,31.7885,六安市,开发区,细颗粒物(PM2.5),80,102,75,59,48,76,,110,84,28,34,4,5,0.6,0.6
2026-02-03T0000,2577A,104.8293,26.592,六盘水市,黄土坡,,16,10,19,10,14,49,,45,45,12,15,6,8,0.9,0.9
2026-02-03T0000,2579A,104.8481,26.5898,六盘水市,民中,,18,18,19,12,14,50,,46,46,10,14,2,3,0.9,0.9
2026-02-03T0000,2580A,104.9541,26.5506,六盘水市,双水,,17,14,19,8,11,53,,51,51,10,11,3,4,0.7,0.8
2026-02-03T0000,4151A,104.8899,26.5685,六盘水市,钟山大道中段564号,,16,11,20,11,12,50,,48,48,7,9,4,7,1.1,1.1
2026-02-03T0000,2336A,117.022,25.1031,龙岩市,龙岩市监测站,,35,32,25,24,19,48,,86,72,17,15,17,10,0.7,0.8
2026-02-03T0000,2337A,117.0257,25.0662,龙岩市,闽西职业技术学院,,32,26,24,22,17,48,,86,73,14,12,14,9,0.7,0.8
2026-02-03T0000,2338A,117.0195,25.0306,龙岩市,龙岩学院,,32,30,25,22,18,40,,81,67,11,12,9,8,/,/
2026-02-03T0000,2885A,104.9344,33.3827,陇南市,滨江中学,颗粒物(PM10),75,99,101,37,49,71,,70,69,10,18,3,6,0.9,1.1
2026-02-03T0000,3247A,104.9551,33.3709,陇南市,市总工会,颗粒物(PM10),67,84,96,36,44,70,,68,68,11,17,2,3,0.9,1
2026-02-03T0000,2488A,111.9984,27.7346,娄底市,市监测站,颗粒物(PM10),69,87,65,49,43,95,,106,102,19,21,6,8,0.8,0.8
2026-02-03T0000,2491A,111.9888,27.7035,娄底市,市政府,细颗粒物(PM2.5),67,81,57,48,35,72,,84,81,29,25,5,4,0.4,0.4
2026-02-03T0000,4127A,111.9812,27.7591,娄底市,涟钢职大,颗粒物(PM10),72,93,65,49,36,75,,102,,15,19,5,5,0.7,0.5
2026-02-03T0000,4128A,112.0303,27.7457,娄底市,娄底体校,颗粒物(PM10),71,91,58,51,40,87,,96,93,15,12,3,3,0.4,0.4
2026-02-03T0000,1894A,105.4427,28.9063,泸州市,小市上码头,细颗粒物(PM2.5),110,103,83,83,64,7,,75,50,47,23,8,6,1.3,1.2
2026-02-03T0000,1895A,105.4241,28.8573,泸州市,兰田宪桥,细颗粒物(PM2.5),95,110,85,71,54,13,,58,49,43,22,8,8,1.1,0.9
2026-02-03T0000,1896A,105.4378,28.8833,泸州市,市环监站,细颗粒物(PM2.5),128,120,96,97,76,9,,66,46,44,26,10,9,1.0,0.9
2026-02-03T0000,4272A,105.3689,28.7783,泸州市,纳溪中医医院,细颗粒物(PM2.5),133,118,92,101,74,20,,57,40,22,21,9,8,1.2,1
2026-02-03T0000,2183A,111.1447,37.5212,吕梁市,环保局,颗粒物(PM10),52,53,68,17,18,2,,49,15,58,48,4,9,0.4,0.5
2026-02-03T0000,2185A,111.1285,37.5338,吕梁市,自来水公司,颗粒物(PM10),79,108,78,30,29,2,,36,16,49,39,10,8,0.6,0.7
2026-02-03T0000,2867A,111.1225,37.5093,吕梁市,马茂庄小学,颗粒物(PM10),74,98,78,32,23,2,,41,14,56,48,13,7,0.5,0.5
2026-02-03T0000,1812A,112.3934,34.6517,洛阳市,市委党校,细颗粒物(PM2.5),99,113,91,74,52,2,,84,52,81,36,9,10,1.2,0.9
2026-02-03T0000,1815A,112.494,34.6883,洛阳市,河南林校,细颗粒物(PM2.5),118,130,91,89,51,46,,76,52,48,40,10,11,0.9,0.9
2026-02-03T0000,1816A,112.3843,34.623,洛阳市,开发区管委会,细颗粒物(PM2.5),99,120,96,74,48,67,,84,76,31,26,10,10,0.8,0.8
2026-02-03T0000,1817A,112.4263,34.6249,洛阳市,市委新办公区,细颗粒物(PM2.5),120,140,92,91,49,39,,80,67,53,31,10,10,0.8,0.6
2026-02-03T0000,3340A,112.6005,34.6323,洛阳市,伊滨,细颗粒物(PM2.5),112,131,96,84,46,8,,82,47,92,38,8,9,0.8,0.6
2026-02-03T0000,3341A,112.495,34.6338,洛阳市,中移产业园,细颗粒物(PM2.5),124,121,88,94,50,27,,74,47,57,37,11,10,1.0,0.8
2026-02-03T0000,3593A,112.5736,34.8993,洛阳市,吉利监测站,细颗粒物(PM2.5),117,91,68,88,41,18,,77,53,70,40,7,9,0.9,0.8
2026-02-03T0000,3635A,112.3678,34.6623,洛阳市,河科大西苑校区,细颗粒物(PM2.5),90,120,92,67,48,5,,86,46,81,42,10,10,1.0,0.8
2026-02-03T0000,3636A,112.4387,34.678,洛阳市,英才小学,细颗粒物(PM2.5),120,141,105,91,58,42,,81,50,66,49,11,12,1.0,1
2026-02-03T0000,4214A,112.460027,34.694929,洛阳市,春都路1号院,细颗粒物(PM2.5),128,147,114,97,58,41,,71,50,47,35,9,12,0.8,0.9
2026-02-03T0000,2399A,114.051,33.5721,漯河市,三五一五工厂,细颗粒物(PM2.5),152,198,145,116,79,37,,104,68,52,29,6,6,1.0,0.8
2026-02-03T0000,2400A,114.0055,33.5698,漯河市,漯河大学,细颗粒物(PM2.5),139,164,121,106,76,33,,107,68,60,29,6,7,1.0,0.8
2026-02-03T0000,2401A,114.0134,33.5826,漯河市,市水利局,细颗粒物(PM2.5),143,168,131,109,73,36,,81,57,39,27,6,6,0.8,0.7
2026-02-03T0000,2402A,114.0261,33.5697,漯河市,市广电局,细颗粒物(PM2.5),152,166,128,116,81,48,,100,71,40,22,7,7,0.7,0.6
2026-02-03T0000,3478A,113.9691,33.568,漯河市,市图书馆,细颗粒物(PM2.5),138,187,136,105,75,63,,106,76,30,23,7,7,0.8,0.7
2026-02-03T0000,4250A,114.089259,33.588274,漯河市,韶山路11号,细颗粒物(PM2.5),134,170,132,102,77,47,,105,72,52,28,7,7,0.7,0.6
2026-02-03T0000,1798A,118.5084,31.6838,马鞍山市,湖东路四小,细颗粒物(PM2.5),113,134,92,85,61,25,,74,55,56,44,3,7,1.3,1.1
2026-02-03T0000,1799A,118.5019,31.6449,马鞍山市,开发区,细颗粒物(PM2.5),112,153,93,84,60,34,,78,59,53,46,4,6,1.1,0.9
2026-02-03T0000,3633A,118.4914,31.681,马鞍山市,雨山,细颗粒物(PM2.5),105,127,95,79,57,38,,88,64,49,47,3,7,1.1,0.9
2026-02-03T0000,4191A,118.527362,31.722269,马鞍山市,慈湖高新区,细颗粒物(PM2.5),103,125,96,77,61,60,,84,64,36,44,4,6,1.0,1
2026-02-03T0000,1686A,111.0285,21.469,茂名市,电白南海,,36,36,50,20,26,97,,110,100,16,18,10,12,1.0,1
2026-02-03T0000,1687A,110.9294,21.6533,茂名市,茂石化七小,,41,41,53,24,29,86,,120,95,17,23,9,14,0.7,0.7
2026-02-03T0000,1688A,110.9108,21.6688,茂名市,健康路,,33,31,48,21,29,105,,134,114,16,20,10,18,0.9,1.1
2026-02-03T0000,1689A,110.8592,21.6826,茂名市,高岭,颗粒物(PM10),67,83,67,31,34,52,,116,85,36,20,8,13,/,/
2026-02-03T0000,3450A,111.0101,21.5165,茂名市,电白水东,,33,29,41,23,25,96,,115,108,21,21,8,11,/,/
2026-02-03T0000,2540A,103.8414,30.0871,眉山市,气象局,"颗粒物(PM10),细颗粒物(PM2.5)",63,76,88,45,51,69,,81,72,16,27,10,10,0.9,0.9
2026-02-03T0000,3148A,103.829,30.0563,眉山市,区人社局,细颗粒物(PM2.5),72,85,87,52,56,59,,73,64,17,27,8,8,0.7,0.9
2026-02-03T0000,4148A,103.8836,30.0695,眉山市,眉职院,颗粒物(PM10),68,86,90,46,49,67,,80,71,12,19,4,4,0.8,0.8
2026-02-03T0000,1690A,116.1248,24.3307,梅州市,梅江月梅,,27,27,20,14,13,46,,66,54,13,16,/,/,/,/
2026-02-03T0000,1691A,116.0798,24.2719,梅州市,梅县新城,,29,29,25,20,18,20,,60,39,33,21,7,7,0.7,0.7
2026-02-03T0000,3315A,116.1234,24.2994,梅州市,梅龙,,31,31,26,19,17,24,,56,37,22,18,10,8,0.7,0.7
2026-02-03T0000,1878A,104.7775,31.4741,绵阳市,富乐山,细颗粒物(PM2.5),79,83,88,58,59,40,,67,56,13,21,8,8,0.8,0.8
2026-02-03T0000,1880A,104.6698,31.4668,绵阳市,高新区自来水公司,细颗粒物(PM2.5),99,107,124,74,69,41,,72,61,28,34,8,9,0.9,1.1
2026-02-03T0000,3491A,104.6899,31.5324,绵阳市,西科大附属小学,细颗粒物(PM2.5),93,106,118,69,67,10,,72,56,55,36,9,9,0.7,0.8
2026-02-03T0000,3492A,104.5647,31.5343,绵阳市,安州区旅游局,细颗粒物(PM2.5),80,86,102,59,60,46,,60,55,19,27,10,10,1.2,1.1
2026-02-03T0000,4146A,104.7092,31.4972,绵阳市,科技城新区公安局,细颗粒物(PM2.5),80,96,113,59,61,38,,77,64,35,42,5,6,0.9,1
2026-02-03T0000,4226A,104.765114,31.453094,绵阳市,绵阳市气象局,细颗粒物(PM2.5),83,87,95,61,62,46,,69,62,17,27,9,9,0.8,0.9
2026-02-03T0000,1784A,129.61,44.561,牡丹江市,环保大楼,,46,43,50,32,36,52,,70,50,26,24,10,5,0.4,0.4
2026-02-03T0000,1787A,129.6364,44.6075,牡丹江市,机车工厂,细颗粒物(PM2.5),98,78,76,73,51,8,,72,30,51,31,7,7,1.1,0.6
2026-02-03T0000,1788A,129.6386,44.5462,牡丹江市,第一中学,,43,43,45,29,36,52,,71,39,26,28,6,6,0.4,0.5
2026-02-03T0000,4287A,129.5992,44.5964,牡丹江市,东晓云街98号,细颗粒物(PM2.5),74,70,81,54,53,34,,64,30,28,34,9,9,0.7,0.7
2026-02-03T0000,2531A,105.0703,29.61,内江市,市监测站,细颗粒物(PM2.5),119,,75,90,61,44,,83,72,21,24,5,5,1.1,1
2026-02-03T0000,2533A,105.0657,29.5807,内江市,内江二中,细颗粒物(PM2.5),118,110,85,89,60,32,,74,62,28,26,7,7,0.8,0.7
2026-02-03T0000,2534A,105.0407,29.5828,内江市,内江日报社,细颗粒物(PM2.5),117,,68,88,60,35,,77,65,30,36,5,5,1.0,0.9
2026-02-03T0000,4147A,105.0433,29.6105,内江市,玉峰路西段888号,细颗粒物(PM2.5),115,104,73,87,60,31,,69,57,25,30,3,3,1.0,0.9
2026-02-03T0000,2628A,92.0653,31.4846,那曲市,那曲监测站,细颗粒物(PM2.5),62,46,49,44,34,33,,76,64,48,22,9,9,1.9,1.2
2026-02-03T0000,4243A,92.0515,31.4787,那曲市,那曲市委宣传部,,20,20,30,10,22,49,,86,76,21,14,5,7,0.8,0.8
2026-02-03T0000,1291A,115.8887,28.7006,南昌市,省林业公司,细颗粒物(PM2.5),72,90,50,52,35,44,,88,63,53,32,4,4,0.6,0.5
2026-02-03T0000,1292A,115.813,28.7443,南昌市,林科所,颗粒物(PM10),65,80,43,40,25,75,,87,78,22,17,8,6,0.6,0.5
2026-02-03T0000,1294A,115.8518,28.687,南昌市,建工学校,颗粒物(PM10),72,93,55,46,31,70,,86,77,20,18,9,8,1.0,0.9
2026-02-03T0000,1295A,115.8926,28.6425,南昌市,象湖,细颗粒物(PM2.5),78,85,54,57,38,55,,82,66,32,23,8,8,0.9,0.8
2026-02-03T0000,3046A,115.9084,28.6062,南昌市,机电学校,颗粒物(PM10),76,102,62,54,34,42,,89,57,62,39,5,5,0.6,0.6
2026-02-03T0000,3690A,115.9718,28.7032,南昌市,外国语学校,细颗粒物(PM2.5),78,96,60,57,38,30,,90,72,69,30,12,12,0.8,0.8
2026-02-03T0000,4106A,115.7923,28.6873,南昌市,工业二路,颗粒物(PM10),69,87,63,49,31,5,,96,55,76,32,4,4,0.8,0.7
2026-02-03T0000,4192A,115.931587,28.686774,南昌市,南京东路235号,,,110,57,61,37,62,,89,70,28,26,9,7,,0.4
2026-02-03T0000,1906A,106.0791,30.8022,南充市,南充市委,细颗粒物(PM2.5),88,88,70,65,53,0,,31,16,44,31,4,4,0.9,0.9
2026-02-03T0000,1907A,106.1038,30.8215,南充市,南充炼油厂,细颗粒物(PM2.5),85,91,78,63,52,9,,28,18,34,29,6,6,0.9,0.9
2026-02-03T0000,4227A,106.108336,30.788436,南充市,梨树横街98号,细颗粒物(PM2.5),100,103,83,75,59,8,,35,23,45,34,6,6,0.8,0.8
2026-02-03T0000,4304A,106.1172,30.843,南充市,清泉寺北路188号,细颗粒物(PM2.5),78,73,61,57,48,27,,46,39,25,22,7,7,0.7,0.7
2026-02-03T0000,4305A,106.067,30.7616,南充市,同庆路1号,细颗粒物(PM2.5),89,86,68,66,50,0,,33,13,58,38,7,7,1.1,1
2026-02-03T0000,1151A,118.8033,32.1085,南京市,迈皋桥,细颗粒物(PM2.5),104,109,76,78,51,34,,95,56,47,39,6,6,0.7,0.6
2026-02-03T0000,1152A,118.7487,32.057,南京市,草场门,细颗粒物(PM2.5),98,100,70,73,44,42,,67,57,45,40,4,5,0.8,0.8
2026-02-03T0000,1154A,118.770105,32.004342,南京市,中华门,细颗粒物(PM2.5),117,127,75,88,51,53,,100,,25,38,4,4,0.6,0.6
2026-02-03T0000,1155A,118.8059,32.0329,南京市,瑞金路,细颗粒物(PM2.5),108,107,80,81,53,61,,127,95,46,27,4,4,1.0,1.1
2026-02-03T0000,1156A,118.7946,32.0774,南京市,玄武湖,细颗粒物(PM2.5),104,105,76,78,52,58,,88,67,36,41,4,4,0.7,0.8
2026-02-03T0000,1157A,118.6415,32.0964,南京市,浦口,细颗粒物(PM2.5),118,127,83,89,52,20,,94,62,81,32,4,4,0.7,0.5
2026-02-03T0000,1158A,118.730129,32.000956,南京市,奥体中心,细颗粒物(PM2.5),105,119,76,79,46,45,,104,76,49,41,4,5,0.7,0.5
2026-02-03T0000,1159A,118.9072,32.1047,南京市,仙林大学城,细颗粒物(PM2.5),115,127,85,87,54,49,,98,70,37,40,4,5,0.7,0.7
2026-02-03T0000,3422A,118.8443,31.919,南京市,江宁彩虹桥,细颗粒物(PM2.5),122,111,88,92,44,12,,97,59,86,49,4,4,0.9,0.8
2026-02-03T0000,3427A,118.8497,32.3599,南京市,六合雄州,细颗粒物(PM2.5),139,146,92,106,62,29,,95,66,50,32,9,9,0.9,0.7
2026-02-03T0000,4086A,118.7641,32.0841,南京市,新模范马路66号,细颗粒物(PM2.5),117,122,83,88,50,,,116,,20,39,4,4,1.0,1
2026-02-03T0000,4249A,118.8707617,31.34017673,南京市,汶溪路181号,细颗粒物(PM2.5),85,111,76,63,43,45,,92,75,35,27,5,6,1.0,1
2026-02-03T0000,4312A,119.019,31.6512,南京市,中山西路1号,细颗粒物(PM2.5),89,90,65,66,44,16,,86,51,43,26,4,4,1.1,0.9
2026-02-03T0000,1401A,108.3098,22.788,南宁市,二十一中,细颗粒物(PM2.5),78,,45,57,39,43,,60,53,27,23,7,7,0.7,0.7
2026-02-03T0000,1402A,108.3135,22.8529,南宁市,北湖,细颗粒物(PM2.5),84,75,46,62,42,41,,65,53,29,20,7,10,0.7,0.6
2026-02-03T0000,1403A,108.3205,22.8222,南宁市,市监测站,细颗粒物(PM2.5),74,68,50,54,38,39,,60,48,29,23,9,11,0.9,0.8
2026-02-03T0000,1404A,108.3828,22.8038,南宁市,大自然花园,细颗粒物(PM2.5),82,,40,60,38,52,,73,65,19,12,9,7,1.0,0.8
2026-02-03T0000,1406A,108.2397,22.8462,南宁市,区农职院,细颗粒物(PM2.5),63,58,48,45,35,12,,63,44,44,21,7,6,1.2,1.1
2026-02-03T0000,1407A,108.3285,22.7356,南宁市,英华嘉园,细颗粒物(PM2.5),73,59,47,53,39,48,,68,60,20,15,6,5,0.7,0.6
2026-02-03T0000,3401A,108.4829,22.762,南宁市,红星社区,细颗粒物(PM2.5),79,66,43,58,35,48,,80,69,25,14,8,6,1.0,0.8
2026-02-03T0000,4132A,108.2927,23.1477,南宁市,起凤路9号,细颗粒物(PM2.5),68,57,41,49,38,39,,64,55,25,14,2,4,0.6,0.6
2026-02-03T0000,4221A,108.2177,22.7774,南宁市,乐贤路16号,细颗粒物(PM2.5),74,78,58,54,40,3,,64,40,65,25,4,7,0.9,0.9
2026-02-03T0000,2332A,118.1682,26.6371,南平市,南平市监测站,,25,24,21,17,14,10,,52,29,26,15,3,3,0.5,0.5
2026-02-03T0000,2334A,118.1757,26.6276,南平市,南平七中,,23,18,21,16,14,15,,52,34,22,13,2,4,0.6,0.6
2026-02-03T0000,1168A,120.9056,31.9669,南通市,狼山街道,细颗粒物(PM2.5),129,123,88,98,68,34,,88,61,43,26,3,4,0.8,0.7
2026-02-03T0000,1170A,120.8635,32.0231,南通市,城中,细颗粒物(PM2.5),166,150,97,126,71,59,,88,73,40,28,4,5,0.8,0.6
2026-02-03T0000,1171A,120.9376,31.9301,南通市,星湖花园,细颗粒物(PM2.5),113,106,88,85,71,35,,93,71,52,33,4,4,0.8,0.8
2026-02-03T0000,1172A,120.8053,32.046,南通市,紫琅学院,细颗粒物(PM2.5),148,147,99,113,72,35,,88,59,66,36,3,5,1.1,0.9
2026-02-03T0000,3291A,121.0631,32.0644,南通市,通州监测站,细颗粒物(PM2.5),140,124,100,107,76,71,,98,90,30,32,3,3,0.8,0.7
2026-02-03T0000,3432A,120.9348,31.9874,南通市,环境教育馆,细颗粒物(PM2.5),102,117,85,76,69,1,,92,38,81,35,5,4,0.8,0.8
2026-02-03T0000,4091A,120.8692,31.9885,南通市,洪江路,细颗粒物(PM2.5),134,133,81,102,64,59,,85,70,45,34,4,4,0.8,0.5
2026-02-03T0000,2404A,112.5338,33.0086,南阳市,瓦房庄,细颗粒物(PM2.5),82,112,117,60,65,28,,87,51,47,34,5,5,1.2,1.1
2026-02-03T0000,2405A,112.5002,32.9734,南阳市,汉画馆,细颗粒物(PM2.5),124,109,107,94,84,24,,86,45,45,36,7,7,1.2,1
2026-02-03T0000,2406A,112.5778,33.0144,南阳市,气象站,细颗粒物(PM2.5),68,,125,49,64,69,,88,72,27,35,7,6,0.7,0.9
2026-02-03T0000,2407A,112.548,32.9687,南阳市,理工学院,细颗粒物(PM2.5),89,115,114,66,71,46,,88,65,45,40,7,6,0.7,0.9
2026-02-03T0000,4008A,112.5233,32.9921,南阳市,卧龙区政府,颗粒物(PM10),88,125,126,59,74,51,,84,56,34,35,6,6,1.0,1.1
2026-02-03T0000,1234A,121.8352,29.9111,宁波市,区环保大楼,细颗粒物(PM2.5),139,157,105,106,66,1,,86,34,79,46,5,6,1.1,0.8
2026-02-03T0000,1235A,121.5595,29.8208,宁波市,万里学院,细颗粒物(PM2.5),125,137,87,95,62,1,,88,48,86,38,3,3,1.2,0.9
2026-02-03T0000,1236A,121.713,29.9564,宁波市,龙赛医院,细颗粒物(PM2.5),137,150,89,104,57,57,,86,52,47,39,6,4,0.9,0.7
2026-02-03T0000,1240A,121.5855,29.8635,宁波市,太古小学,细颗粒物(PM2.5),129,150,92,98,62,2,,88,48,86,33,4,3,1.2,0.8
2026-02-03T0000,1241A,121.5239,29.8673,宁波市,市环境监测中心,细颗粒物(PM2.5),127,135,89,96,62,0,,79,40,75,35,6,6,1.4,0.7
2026-02-03T0000,2871A,121.6156,29.9015,宁波市,万里国际学校,细颗粒物(PM2.5),134,136,89,102,67,1,,86,38,85,44,4,4,1.1,0.6
2026-02-03T0000,3710A,121.5593,29.8976,宁波市,白沙活动中心,细颗粒物(PM2.5),119,113,74,90,64,0,,86,38,77,37,3,3,0.9,0.6
2026-02-03T0000,4095A,121.8962,29.7529,宁波市,中科路88号,细颗粒物(PM2.5),127,122,85,96,64,14,,97,34,56,41,5,6,0.8,0.6
2026-02-03T0000,2341A,119.5387,26.6611,宁德市,宁德市监测站,,47,47,34,29,25,90,,90,90,18,19,3,4,0.6,0.6
2026-02-03T0000,3209A,119.5231,26.6562,宁德市,宁德一中,,43,43,32,30,28,96,,92,92,11,15,3,3,0.5,0.5
2026-02-03T0000,2618A,98.859,25.8541,怒江傈僳族自治州,州监测站,,48,48,34,27,16,42,,81,66,17,11,6,6,0.5,0.4
2026-02-03T0000,2619A,98.8607,25.8168,怒江傈僳族自治州,泸水一中,,46,,30,32,20,25,,71,45,26,18,5,4,0.8,0.6
2026-02-03T0000,1888A,101.6891,26.571,攀枝花市,弄弄坪,颗粒物(PM10),72,94,81,26,26,6,,78,47,67,42,59,27,2.5,1.4
2026-02-03T0000,1889A,101.577,26.5914,攀枝花市,河门口,,36,36,47,16,22,30,,82,59,27,24,28,27,0.9,1.3
2026-02-03T0000,1891A,101.7365,26.4986,攀枝花市,仁和,颗粒物(PM10),54,58,43,37,25,29,,79,48,34,24,8,12,0.8,0.7
2026-02-03T0000,2835A,101.7222,26.567,攀枝花市,四十中小,颗粒物(PM10),53,55,56,28,26,29,,67,38,51,44,11,19,1.0,1.1
2026-02-03T0000,1604A,122.0303,41.1489,盘锦市,开发区,,28,26,31,19,20,47,,72,56,20,22,6,7,1.3,1
2026-02-03T0000,1605A,122.0486,41.0883,盘锦市,兴隆台,,31,31,31,20,18,38,,68,47,35,29,12,9,0.6,0.5
2026-02-03T0000,1606A,121.8297,41.1026,盘锦市,新生街道,,23,22,29,16,12,37,,72,44,22,26,6,10,0.3,0.2
2026-02-03T0000,1832A,113.3257,33.7423,平顶山市,新华旅馆,细颗粒物(PM2.5),135,181,112,103,56,41,,101,78,66,30,6,8,0.6,0.5
2026-02-03T0000,1833A,113.2917,33.737,平顶山市,规划设计院,细颗粒物(PM2.5),155,190,118,118,62,37,,97,79,60,25,7,9,0.8,0.6
2026-02-03T0000,1834A,113.182,33.7738,平顶山市,平顶山工学院,细颗粒物(PM2.5),127,158,102,96,57,77,,100,94,29,17,9,10,0.7,0.6
2026-02-03T0000,3594A,112.8736,33.9068,平顶山市,石龙区,细颗粒物(PM2.5),122,141,102,92,48,66,,100,78,31,21,9,9,0.8,0.5
2026-02-03T0000,4116A,113.284,33.7139,平顶山市,姚电大道23号,细颗粒物(PM2.5),137,178,121,104,64,90,,100,96,26,27,10,10,0.7,0.6
2026-02-03T0000,2656A,106.6633,35.5338,平凉市,聚贤嘉苑,颗粒物(PM10),72,93,93,43,33,81,,94,89,23,19,15,9,0.8,0.8
2026-02-03T0000,2657A,106.7021,35.5307,平凉市,博物馆,颗粒物(PM10),88,126,97,63,45,39,,89,78,57,23,19,12,0.9,0.6
2026-02-03T0000,2348A,113.8384,27.6436,萍乡市,中医院,颗粒物(PM10),58,65,71,36,41,82,,98,85,17,20,9,6,0.6,0.9
2026-02-03T0000,2350A,113.8677,27.6438,萍乡市,市环保局,"颗粒物(PM10),细颗粒物(PM2.5)",59,67,57,42,42,80,,101,88,15,18,25,15,0.5,0.7
2026-02-03T0000,2351A,113.8663,27.6202,萍乡市,安源区政府,颗粒物(PM10),59,68,65,39,42,58,,73,64,20,22,14,6,0.5,0.9
2026-02-03T0000,4107A,113.8686,27.6668,萍乡市,联洪村委会,颗粒物(PM10),59,67,58,40,39,63,,78,70,16,18,5,4,0.4,0.6
2026-02-03T0000,2319A,119.0142,25.4324,莆田市,荔城区仓后路,,34,34,37,14,22,93,,69,69,10,22,/,/,/,/
2026-02-03T0000,2320A,119.0016,25.4553,莆田市,莆田市监测站,,30,,32,14,23,94,,67,67,8,19,2,3,0.4,0.6
2026-02-03T0000,2321A,119.112,25.4561,莆田市,涵江区六中,,33,33,32,20,24,102,,80,80,7,15,/,/,0.5,0.6
2026-02-03T0000,2322A,119.1014,25.3215,莆田市,秀屿区政府,,32,32,31,20,21,101,,88,88,8,12,2,3,0.6,0.6
2026-02-03T0000,2392A,115.0312,35.7636,濮阳市,环保局,细颗粒物(PM2.5),143,129,134,109,116,60,,86,70,43,48,9,8,1.2,1.5
2026-02-03T0000,3021A,115,35.7667,濮阳市,濮水河管理处,细颗粒物(PM2.5),138,137,149,105,114,51,,89,68,42,42,7,7,1.2,1.3
2026-02-03T0000,4118A,115.0552,35.7816,濮阳市,中原东路68号,细颗粒物(PM2.5),152,164,167,116,116,69,,92,74,34,48,10,7,1.3,1.4
2026-02-03T0000,4216A,115.0923632,35.76857718,濮阳市,任丘路479号,细颗粒物(PM2.5),182,162,158,137,85,48,,87,69,53,56,10,9,0.9,1.1
2026-02-03T0000,2601A,100.9801,22.7634,普洱市,市环保局,颗粒物(PM10),55,60,59,20,27,46,,99,73,14,12,4,4,0.6,0.5
2026-02-03T0000,2602A,100.9763,22.8237,普洱市,普洱第二中学,,,76,59,40,31,13,,103,68,48,23,5,5,,0.6
2026-02-03T0000,3345A,131.0413,45.7795,七台河市,中波台,细颗粒物(PM2.5),52,47,53,36,38,49,,74,57,26,18,8,12,0.6,0.6
2026-02-03T0000,3637A,131.0136,45.7688,七台河市,人民广场,颗粒物(PM10),53,55,62,31,39,54,,72,54,26,26,7,10,0.6,0.7
2026-02-03T0000,3684A,130.8639,45.8144,七台河市,新建矿广场,,43,39,58,30,41,38,,68,50,27,19,6,6,0.5,0.6
2026-02-03T0000,1779A,123.9307,47.3641,齐齐哈尔市,安居小区,,48,48,44,15,12,58,,58,55,10,21,11,11,0.5,0.6
2026-02-03T0000,1780A,123.9497,47.3389,齐齐哈尔市,中心广场,,42,42,33,14,13,53,,62,52,12,19,8,8,0.5,0.7
2026-02-03T0000,1781A,123.9483,47.3229,齐齐哈尔市,农牧车辆厂,颗粒物(PM10),51,51,39,14,12,49,,62,53,12,18,7,7,0.3,0.5
2026-02-03T0000,1783A,123.9442,47.2994,齐齐哈尔市,市环境监测站,颗粒物(PM10),53,55,42,11,11,49,,66,54,15,16,6,5,0.4,0.4
2026-02-03T0000,3662A,123.6341,47.2079,齐齐哈尔市,富区青少年活动中心,,49,49,54,18,18,52,,67,58,7,16,5,9,0.5,1
2026-02-03T0000,2591A,107.9765,26.5724,黔东南苗族侗族自治州,市环境监测站,,46,42,42,32,33,55,,62,59,14,12,7,6,0.7,0.7
2026-02-03T0000,2881A,107.8909,26.531,黔东南苗族侗族自治州,凯里学院,颗粒物(PM10),52,53,48,31,33,60,,62,59,17,15,5,4,0.8,0.8
2026-02-03T0000,2593A,107.5223,26.2371,黔南布依族苗族自治州,小围寨,,27,27,33,15,28,51,,59,58,4,7,5,6,0.8,0.9
2026-02-03T0000,3538A,107.5175,26.2977,黔南布依族苗族自治州,沙坝,,35,29,42,24,30,53,,62,58,8,11,4,6,0.7,0.8
2026-02-03T0000,2589A,104.9022,25.0943,黔西南布依族苗族自治州,场坝街,,25,25,26,14,17,42,,50,49,8,13,4,6,0.9,0.9
2026-02-03T0000,2590A,104.8812,25.0994,黔西南布依族苗族自治州,坪东大道,,36,35,23,25,17,39,,50,47,8,12,4,6,1.0,1.1
2026-02-03T0000,2502A,108.6238,21.9667,钦州市,市环保站,"颗粒物(PM10),细颗粒物(PM2.5)",63,75,59,45,38,61,,88,78,19,14,4,4,0.9,1
2026-02-03T0000,2503A,108.655,21.9481,钦州市,沙埠小学,颗粒物(PM10),58,66,60,40,30,62,,92,80,22,17,7,6,0.6,0.6
2026-02-03T0000,2504A,108.5989,21.7435,钦州市,港区一小,颗粒物(PM10),61,71,64,35,36,59,,83,68,27,24,4,4,0.8,0.7
2026-02-03T0000,3404A,108.5959,21.9634,钦州市,北职校,细颗粒物(PM2.5),60,67,51,43,29,60,,88,77,17,13,6,4,1.5,0.8
2026-02-03T0000,1046A,119.5247,39.9346,秦皇岛市,建设大厦,颗粒物(PM10),51,52,46,19,19,49,,72,53,23,33,18,9,0.9,0.7
2026-02-03T0000,3132A,119.5979,39.938,秦皇岛市,文明里,,43,43,39,23,14,53,,62,51,24,31,20,11,1.0,0.5
2026-02-03T0000,4066A,119.7458,39.9952,秦皇岛市,南园路157号,,42,42,45,16,20,30,,65,30,52,50,10,10,0.7,0.7
2026-02-03T0000,4067A,119.5131,39.8858,秦皇岛市,翠岛大街1号,颗粒物(PM10),56,61,52,20,22,37,,69,38,30,49,15,11,0.8,0.7
2026-02-03T0000,4198A,119.509013,39.825305,秦皇岛市,北戴河轮滑馆,颗粒物(PM10),59,67,48,22,23,32,,69,44,40,40,12,9,0.9,0.8
2026-02-03T0000,1310A,120.404,36.0625,青岛市,市南区东部子站,,41,41,136,24,113,36,,75,64,43,29,9,9,0.7,0.9
2026-02-03T0000,1311A,120.362344,36.10282,青岛市,四方区子站,颗粒物(PM10),52,53,125,27,116,7,,76,56,83,30,9,4,0.9,1.2
2026-02-03T0000,1312A,120.294373,36.054183,青岛市,市南区西部子站,颗粒物(PM10),63,75,128,28,120,15,,78,66,74,28,6,3,0.6,0.9
2026-02-03T0000,1313A,120.4581,36.0858,青岛市,崂山区子站,,24,24,127,16,105,66,,80,72,25,31,9,9,0.5,0.9
2026-02-03T0000,1315A,120.3945,36.3083,青岛市,城阳区子站,细颗粒物(PM2.5),72,90,143,52,122,7,,78,49,85,37,10,7,1.2,1.1
2026-02-03T0000,3642A,120.3454,36.0735,青岛市,市北区南部,,44,44,156,22,114,47,,69,56,36,33,4,3,0.6,1
2026-02-03T0000,3643A,120.3897,36.18,青岛市,李沧区北部,颗粒物(PM10),52,53,134,34,115,7,,71,53,77,36,10,8,1.0,0.9
2026-02-03T0000,4110A,120.5222,36.4089,青岛市,盟旺路653号,细颗粒物(PM2.5),69,78,147,50,100,11,,77,50,81,38,8,3,1.1,1.2
2026-02-03T0000,4290A,120.196923,35.954556,青岛市,珠江路669号,颗粒物(PM10),57,63,133,39,107,10,,70,32,76,46,5,5,0.7,0.9
2026-02-03T0000,4291A,120.0424,35.8656,青岛市,黄岛区人民政府广场,细颗粒物(PM2.5),110,146,151,83,108,10,,82,46,73,40,10,7,1.9,1.3
2026-02-03T0000,1703A,113.0218,23.7086,清远市,凤城街办,,40,40,29,20,19,56,,90,79,34,20,/,/,/,/
2026-02-03T0000,3025A,113.0479,23.6343,清远市,技师学院,,37,37,31,16,17,69,,87,80,22,22,8,7,0.7,0.6
2026-02-03T0000,3318A,112.9898,23.7403,清远市,清新太和,,,36,28,19,19,,,90,,31,17,10,10,0.7,0.7
2026-02-03T0000,3455A,113.076,23.72,清远市,清城东城,,40,40,30,17,17,77,,93,89,19,17,/,/,/,/
2026-02-03T0000,2661A,107.6325,35.7357,庆阳市,庆阳五中,颗粒物(PM10),75,99,55,49,24,87,,96,88,17,16,6,8,0.6,0.6
2026-02-03T0000,2662A,107.6361,35.7067,庆阳市,市环保局,颗粒物(PM10),73,95,52,48,21,84,,96,88,18,13,9,5,0.6,0.5
2026-02-03T0000,1916A,103.7897,25.5036,曲靖市,环境监测站,,46,44,33,32,20,33,,45,35,20,17,6,8,1.0,1.1
2026-02-03T0000,1917A,103.8013,25.5357,曲靖市,烟厂办公区,,40,39,33,28,17,37,,48,42,17,15,5,9,0.9,0.9
2026-02-03T0000,3376A,103.7926,25.4651,曲靖市,南苑二区,,,46,33,30,20,34,,43,34,14,12,4,5,,1
2026-02-03T0000,3377A,103.7442,25.5259,曲靖市,曲靖师范学院,,50,48,38,35,25,14,,48,31,26,17,4,6,0.9,0.9
2026-02-03T0000,1264A,118.8694,28.94,衢州市,环保大楼,细颗粒物(PM2.5),64,64,50,46,38,41,,90,57,30,32,/,/,/,/
2026-02-03T0000,1266A,118.8622,28.9809,衢州市,衢州学院,细颗粒物(PM2.5),62,67,47,44,33,42,,84,51,32,30,4,5,0.6,0.5
2026-02-03T0000,4097A,118.9646,28.9832,衢州市,衢州三中,"颗粒物(PM10),细颗粒物(PM2.5)",62,74,52,44,33,35,,83,46,37,35,4,4,0.4,0.4
2026-02-03T0000,1611A,118.5818,24.9116,泉州市,涂山街,,27,27,33,15,25,76,,77,67,12,20,3,4,0.5,0.6
2026-02-03T0000,1612A,118.597,24.8976,泉州市,津头埔,,29,29,35,17,25,74,,77,66,16,19,3,4,0.5,0.6
2026-02-03T0000,1613A,118.6669,24.9422,泉州市,万安,,32,32,36,16,23,75,,71,65,13,19,4,4,0.8,0.8
2026-02-03T0000,4105A,118.6355,24.9148,泉州市,霞新路6号,,30,30,36,15,24,72,,74,64,19,22,/,/,0.6,0.6
2026-02-03T0000,2626A,88.8873,29.2723,日喀则市,日喀则监测站,,28,16,16,11,8,88,,87,86,2,6,6,7,0.2,0.4
2026-02-03T0000,3726A,88.8775,29.2425,日喀则市,林业技术推广中心,,26,22,24,6,5,82,,82,82,4,5,5,5,0.5,0.5
2026-02-03T0000,1659A,119.4711,35.421,日照市,监测站,细颗粒物(PM2.5),163,173,158,124,123,3,,80,35,92,52,16,10,2.4,1.3
2026-02-03T0000,1660A,119.523,35.4216,日照市,市政府广场,细颗粒物(PM2.5),117,117,140,88,110,34,,82,47,64,46,8,8,0.9,0.8
2026-02-03T0000,1661A,119.5511,35.4113,日照市,港务局,"颗粒物(PM10),细颗粒物(PM2.5)",109,168,146,82,105,4,,83,34,106,51,10,8,1.0,1
2026-02-03T0000,3507A,119.5326,35.4627,日照市,职业技术学院,细颗粒物(PM2.5),128,124,130,97,106,24,,85,48,64,41,9,8,1.3,1.2
2026-02-03T0000,3604A,119.3267,35.1043,日照市,岚山环保分局,细颗粒物(PM2.5),77,83,132,56,94,70,,74,72,32,42,10,18,0.9,1.6
2026-02-03T0000,1835A,111.1922,34.7752,三门峡市,市政府,细颗粒物(PM2.5),65,55,91,47,51,71,,90,82,25,39,12,12,0.6,0.7
2026-02-03T0000,1836A,111.1588,34.794,三门峡市,开发区,颗粒物(PM10),63,75,118,42,63,59,,82,69,22,37,12,9,0.5,0.7
2026-02-03T0000,3039A,111.1911,34.7829,三门峡市,三门峡市第一小学,颗粒物(PM10),56,62,102,37,56,66,,85,78,22,35,10,10,0.6,0.8
2026-02-03T0000,3598A,111.1031,34.719,三门峡市,富达温泉假日酒店,颗粒物(PM10),62,74,118,41,71,54,,86,76,32,34,10,11,0.5,0.8
2026-02-03T0000,2324A,117.621,26.2626,三明市,三钢,,30,28,25,21,19,14,,45,31,21,12,4,5,0.9,0.9
2026-02-03T0000,2325A,117.6352,26.2714,三明市,三明二中,,26,24,22,18,16,16,,44,34,20,12,1,2,0.7,0.8
2026-02-03T0000,2326A,117.6028,26.2377,三明市,三元区政府,颗粒物(PM10),52,53,25,22,15,2,,46,25,35,17,3,3,0.9,0.8
2026-02-03T0000,1877A,109.4962,18.2682,三亚市,河西子站,,42,42,25,25,12,106,,114,114,10,8,3,2,0.5,0.5
2026-02-03T0000,3540A,109.7348,18.3443,三亚市,君悦子站,,40,32,28,28,15,106,,121,120,9,8,6,6,0.4,0.3
2026-02-03T0000,4135A,109.1714,18.3739,三亚市,城东小学站,,32,32,21,18,10,63,,110,97,15,11,/,/,/,/
2026-02-03T0000,2624A,91.7592,29.234,山南市,山南监测站,,23,14,60,3,17,72,,74,74,2,4,4,5,0.3,0.4
2026-02-03T0000,2625A,91.7701,29.2436,山南市,山南人民医院,,23,17,61,12,19,72,,76,74,1,4,7,7,0.5,0.5
2026-02-03T0000,1674A,116.6795,23.3666,汕头市,金平子站,,30,30,29,19,18,68,,109,96,10,13,4,5,0.9,0.9
2026-02-03T0000,1675A,116.7248,23.3632,汕头市,龙湖子站,,30,30,27,21,20,65,,103,90,10,12,10,10,/,/
2026-02-03T0000,1676A,116.7257,23.2774,汕头市,濠江子站,,30,27,31,21,20,68,,98,86,12,16,7,8,/,/
2026-02-03T0000,1677A,116.7518,23.4712,汕头市,澄海子站,,35,34,33,24,20,55,,102,85,18,12,9,7,0.8,0.8
2026-02-03T0000,1678A,116.6088,23.2539,汕头市,潮阳子站,,26,26,27,14,19,75,,103,91,7,12,5,7,0.6,0.7
2026-02-03T0000,3444A,116.4539,23.2684,汕头市,潮南峡山,,26,26,28,14,17,78,,108,95,9,13,5,6,0.7,0.7
2026-02-03T0000,3624A,116.4069,23.2533,汕头市,潮南子站,,39,39,39,18,21,72,,95,85,12,15,6,7,/,/
2026-02-03T0000,1693A,115.3653,22.7751,汕尾市,市环保局,,32,32,23,17,16,83,,104,100,11,10,7,8,0.7,0.7
2026-02-03T0000,1695A,115.362,22.7926,汕尾市,新城中学,,28,25,24,19,15,67,,104,95,15,10,5,6,0.7,0.7
2026-02-03T0000,2645A,109.9155,33.8714,商洛市,监测站,颗粒物(PM10),54,58,96,26,31,79,,88,76,19,19,5,5,0.6,0.7
2026-02-03T0000,3045A,109.9647,33.8486,商洛市,商州区中学,,44,44,102,22,35,68,,85,71,24,29,6,6,0.4,0.6
2026-02-03T0000,2408A,115.6701,34.4283,商丘市,环境监测站,细颗粒物(PM2.5),165,140,145,125,110,86,,111,92,24,31,3,2,0.6,0.7
2026-02-03T0000,2409A,115.6458,34.4047,商丘市,粮食局,细颗粒物(PM2.5),152,148,149,116,106,74,,102,81,29,33,2,4,0.8,0.8
2026-02-03T0000,3171A,115.6069,34.4465,商丘市,梁园区档案局,细颗粒物(PM2.5),158,145,142,120,101,74,,105,84,26,29,1,3,0.8,0.7
2026-02-03T0000,4119A,115.6701,34.3767,商丘市,北海东路185号,细颗粒物(PM2.5),144,168,165,110,97,67,,104,75,35,38,2,3,0.8,0.8
2026-02-03T0000,4120A,115.6172,34.3704,商丘市,中山大街3号,细颗粒物(PM2.5),142,172,172,108,103,82,,107,91,27,32,3,4,0.6,0.7
2026-02-03T0000,1141A,121.401,31.2382,上海市,普陀,细颗粒物(PM2.5),83,71,94,61,69,43,,88,67,58,48,6,6,0.7,0.8
2026-02-03T0000,1142A,121.4774,31.2043,上海市,十五厂,细颗粒物(PM2.5),60,60,89,43,64,66,,90,74,38,37,7,8,0.3,0.6
2026-02-03T0000,1143A,121.4673,31.3011,上海市,虹口,细颗粒物(PM2.5),95,93,98,71,74,18,,78,55,83,48,7,8,0.6,0.8
2026-02-03T0000,1147A,121.4253,31.226,上海市,静安监测站,细颗粒物(PM2.5),63,57,91,45,66,63,,92,74,44,47,8,7,0.6,0.9
2026-02-03T0000,1148A,121.7029,31.1905,上海市,浦东川沙,细颗粒物(PM2.5),112,98,104,84,82,59,,86,72,38,39,8,8,0.7,0.8
2026-02-03T0000,1149A,121.5339,31.229,上海市,浦东新区监测站,细颗粒物(PM2.5),90,87,92,67,76,30,,85,60,77,41,6,6,0.9,1
2026-02-03T0000,1150A,121.5776,31.2038,上海市,浦东张江,细颗粒物(PM2.5),103,95,98,77,74,28,,90,56,71,43,6,7,0.5,0.6
2026-02-03T0000,3265A,121.4242,31.3303,上海市,宝山庙行,细颗粒物(PM2.5),85,86,98,63,72,6,,83,44,98,54,8,8,0.7,0.7
