timepoint,stationcode,longitude,latitude,area,positionname,primarypollutant,aqi,pm10,pm10_24h,pm2_5,pm2_5_24h,o3,o3_24h,o3_8h,o3_8h_24h,no2,no2_24h,so2,so2_24h,co,co_24h
2026-02-03T1300,2568A,102.2503,31.8896,阿坝藏族羌族自治州,马师校,,19,,23,13,12,60,,36,36,7,12,4,4,0.5,0.5
2026-02-03T1300,3994A,102.2174,31.9016,阿坝藏族羌族自治州,马尔康中学西区,,19,12,20,10,10,60,,40,40,6,10,7,7,0.5,0.5
2026-02-03T1300,2695A,80.2899,41.1684,阿克苏地区,电视台,颗粒物(PM10),111,172,209,55,74,50,,43,43,24,35,10,10,1.2,1.5
2026-02-03T1300,2696A,80.2592,41.1541,阿克苏地区,艺术中心,颗粒物(PM10),104,158,191,58,76,53,,41,41,22,42,6,6,0.6,0.9
2026-02-03T1300,2205A,105.699,38.8409,阿拉善盟,蒙二幼,颗粒物(PM10),67,83,85,24,27,91,,68,67,16,18,15,11,0.8,0.8
2026-02-03T1300,2206A,105.7198,38.8508,阿拉善盟,环保局新楼,,,,74,,30,84,,83,81,16,10,12,10,0.8,0.5
2026-02-03T1300,2708A,88.1266,47.8515,阿勒泰地区,市站,,28,14,15,3,5,87,,80,72,7,25,3,4,0.1,0.3
2026-02-03T1300,4166A,88.1198,47.7931,阿勒泰地区,阿勒泰路33号,,23,23,15,3,4,54,,74,63,40,21,8,6,0.6,0.4
2026-02-03T1300,2630A,80.1171,32.4999,阿里地区,阿里监测站,,26,,3,7,3,81,,79,73,3,3,10,9,0.2,0.3
2026-02-03T1300,3192A,80.0906,32.5029,阿里地区,阿里藏医院,,27,7,6,3,2,84,,88,82,3,2,9,9,0.3,0.2
2026-02-03T1300,2644A,109.0088,32.6974,安康市,汉滨区检察院,,,79,83,51,44,82,,36,36,17,31,,7,1.0,1
2026-02-03T1300,4054A,109.0324,32.6913,安康市,市邮政管理局,颗粒物(PM10),74,97,97,53,49,80,,33,32,20,45,6,6,0.6,0.9
2026-02-03T1300,2291A,117.0806,30.5181,安庆市,环科院,细颗粒物(PM2.5),72,89,94,52,56,70,,45,45,15,23,7,7,0.7,0.7
2026-02-03T1300,2292A,117.0331,30.5118,安庆市,马山宾馆,细颗粒物(PM2.5),87,99,95,64,58,68,,51,50,20,21,7,5,0.9,0.9
2026-02-03T1300,2294A,116.9897,30.6146,安庆市,安庆大学,,,101,86,57,49,56,,35,35,,35,6,4,0.8,0.8
2026-02-03T1300,3173A,117.0598,30.5351,安庆市,市人大,细颗粒物(PM2.5),77,99,101,56,54,69,,47,47,22,28,8,6,0.6,0.6
2026-02-03T1300,3123A,105.9408,26.2431,安顺市,凤凰山,,15,13,22,10,18,39,,50,43,11,11,12,12,0.8,0.8
2026-02-03T1300,3124A,105.9443,26.2567,安顺市,金钟山,,18,,21,12,20,39,,50,42,10,10,12,13,0.8,0.8
2026-02-03T1300,3125A,105.8983,26.248,安顺市,娄家坡,,26,,21,18,21,34,,46,38,13,12,15,13,0.8,0.8
2026-02-03T1300,1819A,114.3552,36.1017,安阳市,红庙街,细颗粒物(PM2.5),155,156,138,118,113,70,,37,37,34,40,7,5,0.8,1
2026-02-03T1300,1820A,114.361,36.0681,安阳市,银杏小区,细颗粒物(PM2.5),156,159,141,119,99,67,,35,35,33,38,9,7,0.8,0.9
2026-02-03T1300,3141A,114.3921,36.0879,安阳市,信访局,细颗粒物(PM2.5),150,154,143,115,114,76,,46,43,24,26,8,7,0.8,0.9
2026-02-03T1300,3669A,114.4706,36.0634,安阳市,左辅环卫站,细颗粒物(PM2.5),168,172,161,127,121,69,,46,46,26,36,8,6,0.7,0.8
2026-02-03T1300,4117A,114.2918,36.0769,安阳市,钢三路198号,细颗粒物(PM2.5),160,185,170,122,125,70,,29,29,24,34,7,6,0.8,0.9
2026-02-03T1300,1748A,123.0441,41.1201,鞍山市,深沟寺,,,91,37,61,22,84,,72,72,24,17,15,10,,0.7
2026-02-03T1300,1749A,123.011,41.0931,鞍山市,太阳城,细颗粒物(PM2.5),83,98,40,61,21,78,,67,66,24,17,18,14,1.0,0.8
2026-02-03T1300,1750A,123.0483,41.1445,鞍山市,太平,颗粒物(PM10),98,146,48,60,16,78,,65,64,24,19,17,14,0.7,0.5
2026-02-03T1300,1751A,122.964,41.0968,鞍山市,铁西三道街,颗粒物(PM10),102,154,53,63,21,81,,68,68,29,27,16,15,0.7,0.6
2026-02-03T1300,1753A,123.0219,41.0822,鞍山市,明达新区,颗粒物(PM10),91,131,42,62,20,80,,72,70,24,17,18,13,1.1,0.9
2026-02-03T1300,4201A,122.944647,41.082639,鞍山市,兴盛南路290号,颗粒物(PM10),116,181,59,79,25,80,,68,67,30,23,19,14,0.7,0.8
2026-02-03T1300,2195A,107.4206,40.7609,巴彦淖尔市,附二中,颗粒物(PM10),63,75,55,30,27,52,,20,20,16,28,13,11,0.5,0.6
2026-02-03T1300,2196A,107.37,40.7372,巴彦淖尔市,市环保大楼,颗粒物(PM10),60,69,52,29,26,57,,23,23,13,28,8,8,0.5,0.6
2026-02-03T1300,1956A,86.1476,41.7529,巴音郭楞蒙古自治州,孔雀公园,颗粒物(PM10),97,143,149,33,37,38,,11,11,41,43,11,9,0.8,0.8
2026-02-03T1300,1957A,86.1971,41.7166,巴音郭楞蒙古自治州,棉纺厂,颗粒物(PM10),97,143,187,23,36,58,,37,37,11,23,/,/,/,/
2026-02-03T1300,1958A,86.236,41.7172,巴音郭楞蒙古自治州,经济开发区,颗粒物(PM10),89,127,152,12,19,40,,30,19,24,19,6,6,0.5,0.5
2026-02-03T1300,3181A,106.776805,31.852614,巴中市,市五中,细颗粒物(PM2.5),97,94,69,72,51,7,,2,2,45,33,7,6,1.6,1.2
2026-02-03T1300,3183A,106.7419,31.8654,巴中市,圣泉水务公司,细颗粒物(PM2.5),85,79,65,63,49,11,,6,6,47,37,7,6,1.7,1.3
2026-02-03T1300,3616A,106.7617,31.8343,巴中市,市中心医院,,,80,75,65,57,13,,4,4,38,34,,5,,1.2
2026-02-03T1300,2235A,122.7909,45.608,白城市,洮北区环保局,,,38,33,15,16,83,,61,61,,12,,6,0.3,0.3
2026-02-03T1300,2236A,122.8741,45.5725,白城市,市环保局,,31,31,38,10,15,80,,55,55,11,15,7,6,0.3,0.3
2026-02-03T1300,2231A,126.4219,41.9172,白山市,喜丰,颗粒物(PM10),54,57,68,26,44,75,,36,36,21,46,20,17,1.2,1.3
2026-02-03T1300,2232A,126.4082,41.9416,白山市,环保局,细颗粒物(PM2.5),63,71,60,45,44,61,,33,33,32,32,14,14,1.2,1.2
2026-02-03T1300,2647A,104.1727,36.5448,白银市,第三小学,颗粒物(PM10),70,90,112,34,55,83,,51,51,12,29,13,22,0.8,1
2026-02-03T1300,2648A,104.1467,36.5482,白银市,动力公司,颗粒物(PM10),65,80,106,33,49,82,,57,57,10,23,5,12,0.5,0.7
2026-02-03T1300,2512A,106.6102,23.901,百色市,市监测站,细颗粒物(PM2.5),59,53,36,42,26,50,,39,39,16,21,15,11,0.9,0.9
2026-02-03T1300,2513A,106.6524,23.8842,百色市,市中心血站,细颗粒物(PM2.5),63,62,46,45,32,54,,45,45,13,14,15,12,0.9,0.9
2026-02-03T1300,4133A,106.6273,23.8798,百色市,龙景西路,细颗粒物(PM2.5),70,75,50,51,32,42,,32,32,16,17,19,12,0.7,0.7
2026-02-03T1300,2270A,117.396,32.9389,蚌埠市,工人疗养院,细颗粒物(PM2.5),95,103,139,71,104,110,,70,70,18,31,5,5,0.7,0.8
2026-02-03T1300,2271A,117.3606,32.9428,蚌埠市,百货大楼,细颗粒物(PM2.5),95,99,139,71,98,102,,58,58,18,34,5,9,0.6,0.8
2026-02-03T1300,2273A,117.4183,32.8909,蚌埠市,蚌埠学院,细颗粒物(PM2.5),93,85,129,69,103,113,,62,62,20,35,6,4,0.7,0.8
2026-02-03T1300,2274A,117.3534,32.9672,蚌埠市,淮上区政府,细颗粒物(PM2.5),104,95,138,78,111,110,,69,69,16,32,6,5,0.6,0.8
2026-02-03T1300,2275A,117.3143,32.8977,蚌埠市,高新区,细颗粒物(PM2.5),90,83,129,67,102,107,,66,66,12,30,8,7,0.6,0.7
2026-02-03T1300,3715A,117.3091,32.9314,蚌埠市,蚌埠田家炳中学,细颗粒物(PM2.5),92,92,139,68,103,112,,69,69,13,27,5,5,0.6,0.7
2026-02-03T1300,1585A,109.8761,40.6533,包头市,市环境监测站,颗粒物(PM10),68,85,65,44,35,16,,6,6,59,57,33,14,1.4,1.3
2026-02-03T1300,1587A,109.9992,40.5843,包头市,包头八中,,,,62,,35,,,65,,,56,,15,,1.7
2026-02-03T1300,1589A,109.8641,40.6288,包头市,惠龙物流,颗粒物(PM10),57,63,56,33,32,31,,12,12,46,60,20,19,0.9,1.5
2026-02-03T1300,1590A,110.0376,40.5546,包头市,东河鸿龙湾,颗粒物(PM10),52,54,58,22,29,36,,19,19,46,63,13,17,0.8,1
2026-02-03T1300,3283A,109.9154,40.5684,包头市,滨河大厦,,39,39,47,22,29,40,,19,19,46,60,14,14,0.9,1.1
2026-02-03T1300,3419A,109.9449,40.6259,包头市,包头市委党校,颗粒物(PM10),68,85,47,33,21,22,,8,8,58,58,34,15,1.2,1.2
2026-02-03T1300,3683A,109.8332,40.6577,包头市,昆区政府,颗粒物(PM10),61,71,65,40,41,23,,9,9,61,66,22,21,1.2,1.7
2026-02-03T1300,1931A,107.0802,34.3129,宝鸡市,竹园沟,颗粒物(PM10),111,172,144,83,63,67,,31,31,28,24,9,7,0.7,0.7
2026-02-03T1300,1933A,107.1429,34.3549,宝鸡市,监测站,细颗粒物(PM2.5),120,154,166,91,86,61,,30,30,34,34,9,6,0.7,0.7
2026-02-03T1300,1934A,107.1172,34.3759,宝鸡市,技工学校,细颗粒物(PM2.5),120,162,158,91,80,53,,38,33,33,30,10,7,0.8,0.9
2026-02-03T1300,1936A,107.2025,34.3518,宝鸡市,文理学院,细颗粒物(PM2.5),110,130,158,83,88,63,,27,27,34,38,8,6,1.0,0.9
2026-02-03T1300,1937A,107.2396,34.3626,宝鸡市,三迪小学,颗粒物(PM10),107,163,175,70,90,68,,24,24,39,54,10,10,0.8,0.9
2026-02-03T1300,4155A,107.1721,34.3558,宝鸡市,滨河北路,细颗粒物(PM2.5),104,143,167,78,83,61,,30,28,29,29,10,8,0.9,0.9
2026-02-03T1300,4308A,107.3898,34.3601,宝鸡市,陈仓区北开路21号,颗粒物(PM10),79,107,164,54,88,95,,57,57,26,44,15,29,0.4,0.7
2026-02-03T1300,1051A,115.4803,38.8568,保定市,游泳馆,细颗粒物(PM2.5),150,,85,115,80,71,,36,36,40,50,12,8,1.0,0.8
2026-02-03T1300,1052A,115.509,38.8895,保定市,华电二区,细颗粒物(PM2.5),128,99,78,97,70,62,,26,25,42,43,7,4,1.1,0.8
2026-02-03T1300,1053A,115.4588,38.9037,保定市,接待中心,细颗粒物(PM2.5),148,122,94,113,77,64,,31,29,36,36,6,5,0.8,0.5
2026-02-03T1300,1054A,115.4484,38.8344,保定市,地表水厂,细颗粒物(PM2.5),140,134,108,107,75,68,,27,27,37,52,11,9,1.0,0.6
2026-02-03T1300,3581A,115.3136,38.9511,保定市,满城区生态环境分局,细颗粒物(PM2.5),130,136,114,99,80,68,,32,32,40,40,7,6,0.8,0.8
2026-02-03T1300,3582A,115.4709,38.7628,保定市,清苑区第二中学,细颗粒物(PM2.5),125,139,111,95,74,72,,31,31,33,40,12,11,1.0,0.7
2026-02-03T1300,3583A,115.6231,39.0223,保定市,徐水物探局,细颗粒物(PM2.5),152,157,117,116,72,68,,24,24,38,46,11,7,1.0,0.8
2026-02-03T1300,4004A,115.4199,38.8665,保定市,双鹰农机,细颗粒物(PM2.5),137,163,119,104,83,72,,36,36,38,47,12,9,1.1,0.7
2026-02-03T1300,4034A,115.515,38.8589,保定市,植保所站,细颗粒物(PM2.5),132,102,96,100,73,67,,30,30,40,54,8,4,1.2,0.9
2026-02-03T1300,2594A,99.1589,25.1137,保山市,市环境监测站,,30,24,24,12,12,93,,54,54,12,9,3,3,0.3,0.3
2026-02-03T1300,2595A,99.1616,25.1381,保山市,市环保局,,34,34,27,20,12,90,,59,53,12,7,3,3,0.5,0.4
2026-02-03T1300,1867A,109.1435,21.4085,北海市,海滩公园,颗粒物(PM10),58,65,65,31,35,144,,82,82,16,17,12,10,0.9,0.9
2026-02-03T1300,1868A,109.0983,21.466,北海市,新市环保局,颗粒物(PM10),66,81,64,23,41,121,,67,67,21,18,9,8,0.7,0.7
2026-02-03T1300,1869A,109.1775,21.5232,北海市,北海工业园,,49,49,66,15,41,122,,66,66,12,18,8,10,0.7,0.8
2026-02-03T1300,3400A,109.1844,21.4396,北海市,龙潭自来水厂,,,77,80,28,48,134,,67,67,12,16,9,9,,1.1
2026-02-03T1300,1001A,116.3611,39.8786,北京市,万寿西宫,"颗粒物(PM10),细颗粒物(PM2.5)",53,56,52,37,30,38,,27,27,55,53,3,2,0.7,0.6
2026-02-03T1300,1003A,116.4174,39.9289,北京市,东四,颗粒物(PM10),54,58,49,29,25,38,,18,18,41,42,5,4,0.7,0.5
2026-02-03T1300,1004A,116.4073,39.8858,北京市,天坛,颗粒物(PM10),59,68,49,35,27,33,,14,14,45,47,4,2,0.6,0.6
2026-02-03T1300,1005A,116.4622,39.9364,北京市,农展馆,颗粒物(PM10),55,60,48,26,24,42,,19,19,30,40,4,3,1.0,0.6
2026-02-03T1300,1006A,116.3399,39.9293,北京市,官园,颗粒物(PM10),52,53,49,35,27,47,,16,16,32,50,4,3,0.6,0.6
2026-02-03T1300,1007A,116.2879,39.9613,北京市,海淀万柳,颗粒物(PM10),57,63,54,34,28,28,,9,9,58,56,4,3,0.6,0.6
2026-02-03T1300,1008A,116.6635,40.1349,北京市,顺义新城,颗粒物(PM10),62,74,42,38,19,53,,30,30,26,40,6,5,0.5,0.6
2026-02-03T1300,1009A,116.6275,40.327,北京市,怀柔镇,颗粒物(PM10),58,65,25,30,14,52,,35,35,22,13,5,4,0.5,0.4
2026-02-03T1300,1010A,116.2295,40.217,北京市,昌平镇,颗粒物(PM10),52,53,40,28,21,34,,27,23,40,30,4,2,0.6,0.5
2026-02-03T1300,1011A,116.3968,39.982,北京市,奥体中心,,49,49,44,26,23,45,,18,18,38,57,4,4,0.4,0.5
2026-02-03T1300,3418A,116.8336,40.4095,北京市,密云新城,颗粒物(PM10),51,51,25,31,12,58,,35,35,18,21,5,3,0.4,0.3
2026-02-03T1300,3671A,116.0879,39.9725,北京市,门头沟三家店,,46,46,51,18,23,37,,24,24,35,31,4,3,0.6,0.5
2026-02-03T1300,3672A,116.1507,39.8246,北京市,丰台云岗,,,,51,,23,,,62,22,,44,,3,,0.4
2026-02-03T1300,3674A,115.9578,39.7602,北京市,房山燕山,,49,49,41,29,26,63,,31,31,38,28,7,5,0.8,0.8
2026-02-03T1300,3675A,116.4669,39.7734,北京市,大兴旧宫,颗粒物(PM10),79,108,63,55,27,43,,16,16,51,50,5,3,0.8,0.6
2026-02-03T1300,3694A,115.9859,40.4562,北京市,延庆石河营,颗粒物(PM10),60,70,40,40,23,54,,19,19,30,36,9,4,0.8,0.8
2026-02-03T1300,3695A,116.6151,40.3052,北京市,怀柔新城,,50,50,22,25,14,50,,36,36,26,15,5,4,0.5,0.4
2026-02-03T1300,3696A,116.2542,39.8764,北京市,丰台小屯,颗粒物(PM10),60,69,61,37,29,31,,10,10,53,59,4,4,0.8,0.6
2026-02-03T1300,3697A,116.8399,40.3843,北京市,密云镇,颗粒物(PM10),54,58,30,27,14,55,,24,24,23,39,4,2,0.5,0.4
2026-02-03T1300,4057A,115.9423,40.4431,北京市,延庆百泉,"颗粒物(PM10),细颗粒物(PM2.5)",54,58,35,38,23,50,,17,17,32,29,8,3,0.7,0.6
2026-02-03T1300,4058A,116.6598,39.9164,北京市,通州新华,颗粒物(PM10),70,89,58,46,25,32,,12,12,53,55,4,4,0.8,0.7
2026-02-03T1300,4182A,116.1942,39.9158,北京市,石景山八角,颗粒物(PM10),53,55,57,27,26,34,,18,18,48,48,2,2,0.5,0.4
2026-02-03T1300,4194A,117.078628,40.151726,北京市,平谷新城,细颗粒物(PM2.5),72,79,39,52,25,50,,23,23,33,24,5,3,0.7,0.6
2026-02-03T1300,1761A,123.8274146,41.31234549,本溪市,大峪,颗粒物(PM10),53,56,64,27,35,76,,41,41,15,36,12,9,0.7,1.1
2026-02-03T1300,1763A,123.7169,41.3094,本溪市,彩屯,颗粒物(PM10),52,54,100,27,60,60,,31,31,34,44,28,14,3.1,2.9
2026-02-03T1300,1764A,123.7672166,41.28649327,本溪市,东明,颗粒物(PM10),60,69,65,38,47,75,,46,46,17,46,12,12,0.7,1.2
2026-02-03T1300,1765A,123.799345,41.266614,本溪市,新立屯,颗粒物(PM10),64,78,51,29,25,76,,64,64,18,40,14,12,0.9,1.2
2026-02-03T1300,1766A,123.829144,41.336777,本溪市,威宁,颗粒物(PM10),58,66,72,28,36,72,,41,41,16,37,14,9,0.8,1.2
2026-02-03T1300,2587A,105.287,27.3133,毕节市,八中,,25,,33,17,22,39,,25,25,15,18,9,9,1.0,1.1
2026-02-03T1300,2588A,105.3079,27.2987,毕节市,师专,,,23,35,13,20,35,,39,39,,17,,9,1.0,0.9
2026-02-03T1300,4263A,105.3688,27.3598,毕节市,工业大道,,19,15,27,13,22,44,,36,36,12,14,10,10,/,/
2026-02-03T1300,1629A,117.9961,37.3604,滨州市,第二水厂,,,,78,59,53,85,,27,27,23,57,14,16,,0.6
2026-02-03T1300,1630A,117.9789,37.3931,滨州市,北中新校,细颗粒物(PM2.5),78,80,81,57,52,88,,32,32,24,47,11,14,0.7,0.8
2026-02-03T1300,3514A,117.9379,37.3959,滨州市,中海酒店,细颗粒物(PM2.5),79,80,74,58,50,60,,23,23,27,50,18,19,0.8,0.9
2026-02-03T1300,3515A,117.9381509,37.35547456,滨州市,开发区一中,,,,91,,52,80,,24,24,20,54,17,19,,0.9
2026-02-03T1300,3516A,118.0914,37.6938,滨州市,金海六路,细颗粒物(PM2.5),82,93,83,60,56,102,,36,36,44,70,19,14,0.9,1
2026-02-03T1300,4028A,117.9955,37.3752,滨州市,滨州市西街道办事处,细颗粒物(PM2.5),77,78,77,56,57,92,,36,36,20,47,14,14,1.3,1.2
2026-02-03T1300,2311A,115.8071,33.8399,亳州市,污水处理厂,细颗粒物(PM2.5),107,102,143,80,105,101,,54,54,22,35,6,8,0.5,0.6
2026-02-03T1300,2312A,115.7789,33.8519,亳州市,三国揽胜宫,细颗粒物(PM2.5),100,136,170,75,106,97,,51,51,26,36,6,8,0.6,0.7
2026-02-03T1300,3332A,115.7631,33.803,亳州市,亳州学院,细颗粒物(PM2.5),98,97,142,73,101,105,,66,65,17,24,5,5,0.7,0.7
2026-02-03T1300,2693A,82.0482,44.8553,博尔塔拉蒙古自治州,市党校,细颗粒物(PM2.5),90,111,110,67,66,53,,48,45,22,29,3,3,0.9,0.7
2026-02-03T1300,2694A,82.0805,44.8966,博尔塔拉蒙古自治州,市环保局,细颗粒物(PM2.5),124,131,138,94,94,49,,48,36,32,37,6,6,1.2,1.3
2026-02-03T1300,1071A,116.8733,38.2922,沧州市,沧县城建局,细颗粒物(PM2.5),145,179,76,111,55,100,,57,57,21,39,7,8,0.7,0.5
2026-02-03T1300,1072A,116.8462,38.3189,沧州市,电视转播站,细颗粒物(PM2.5),152,162,75,116,61,105,,62,62,23,35,6,5,0.8,0.8
2026-02-03T1300,1073A,116.8588,38.3161,沧州市,市环保局,细颗粒物(PM2.5),113,158,80,85,51,92,,45,45,25,40,10,9,0.8,0.8
2026-02-03T1300,3324A,116.8011,38.294,沧州市,河北水利电力学院,细颗粒物(PM2.5),153,188,84,117,61,89,,44,44,20,47,7,7,0.7,0.6
2026-02-03T1300,2622A,97.1813,31.1289,昌都市,昌都监测站,,31,31,40,12,20,70,,34,34,13,26,3,4,0.4,0.6
2026-02-03T1300,3719A,97.1707,31.1428,昌都市,昌都会议中心,,20,9,15,6,10,63,,37,37,4,8,5,4,0.2,0.3
2026-02-03T1300,2692A,87.2722,44.0298,昌吉回族自治州,新区政务中心,细颗粒物(PM2.5),123,148,154,93,112,51,,13,13,38,60,8,8,1.7,1.7
2026-02-03T1300,3613A,87.3069,44.0093,昌吉回族自治州,亚心广场,细颗粒物(PM2.5),139,158,183,106,141,56,,22,22,27,50,10,8,1.6,1.6
2026-02-03T1300,4164A,87.2057,43.9289,昌吉回族自治州,财政所,细颗粒物(PM2.5),84,88,71,62,47,71,,60,60,20,25,5,5,1.1,1
2026-02-03T1300,1120A,125.2874,43.9024,长春市,客车厂,细颗粒物(PM2.5),54,56,48,38,30,70,,52,52,26,32,15,14,0.9,0.7
2026-02-03T1300,1121A,125.2943,43.8508,长春市,邮电学院,颗粒物(PM10),57,63,47,37,29,69,,52,52,25,28,16,13,1.1,0.8
2026-02-03T1300,1122A,125.3648,43.8745,长春市,劳动公园,颗粒物(PM10),63,75,52,34,29,72,,61,61,22,24,10,7,1.2,0.9
2026-02-03T1300,1123A,125.3233,43.8781,长春市,园林处,颗粒物(PM10),55,60,50,37,30,71,,58,58,22,23,17,16,1.0,0.7
2026-02-03T1300,1124A,125.4604,43.7904,长春市,净月潭,颗粒物(PM10),53,55,40,31,26,71,,70,70,20,16,12,8,0.8,0.5
2026-02-03T1300,1126A,125.38,43.8422,长春市,经开区环卫处,,,100,49,31,27,72,,53,53,22,31,12,8,,0.7
2026-02-03T1300,1127A,125.234,43.7761,长春市,高新区管委会,颗粒物(PM10),56,62,54,29,32,75,,51,51,20,36,13,9,0.8,0.6
2026-02-03T1300,1128A,125.1695,43.83,长春市,岱山公园,颗粒物(PM10),54,58,49,36,31,74,,54,54,20,37,12,10,0.7,0.5
2026-02-03T1300,4281A,125.334645,43.916281,长春市,北亚泰大街1068号,颗粒物(PM10),60,70,58,34,37,69,,48,48,25,35,15,13,0.8,0.6
2026-02-03T1300,1335A,113.082,28.2421,长沙市,经开区环保局,颗粒物(PM10),58,65,80,34,42,90,,49,49,11,34,4,4,0.5,0.6
2026-02-03T1300,1336A,112.8873,28.2202,长沙市,高开区环保局,颗粒物(PM10),56,61,87,38,53,85,,46,46,15,27,6,6,0.8,0.8
2026-02-03T1300,1337A,113.0785,28.2012,长沙市,马坡岭,颗粒物(PM10),56,61,85,36,49,104,,53,53,9,39,6,6,0.7,0.8
2026-02-03T1300,1338A,112.9448,28.1894,长沙市,湖南师范大学,颗粒物(PM10),61,71,81,30,39,98,,64,64,14,24,5,5,0.7,0.8
2026-02-03T1300,1339A,113.0177,28.1322,长沙市,雨花区环保局,颗粒物(PM10),56,62,77,30,42,85,,70,70,17,31,9,9,0.6,0.7
2026-02-03T1300,1340A,112.9795,28.2593,长沙市,伍家岭,颗粒物(PM10),57,63,91,36,50,87,,38,38,18,35,6,6,0.7,0.8
2026-02-03T1300,1341A,113.002,28.1944,长沙市,火车新站,颗粒物(PM10),58,65,86,38,51,94,,56,56,16,35,4,3,0.8,0.9
2026-02-03T1300,1342A,112.9846,28.1177,长沙市,天心区环保局,颗粒物(PM10),53,56,71,32,40,96,,83,83,15,27,6,6,0.5,0.6
2026-02-03T1300,1343A,112.8906,28.1307,长沙市,湖南中医药大学,,,56,77,30,39,95,,73,73,20,31,,7,,0.7
2026-02-03T1300,1727A,113.1146,36.1547,长治市,清华站,,,,67,,48,52,,54,41,,29,,14,1.0,0.9
2026-02-03T1300,1730A,113.0887,36.2126,长治市,审计局,细颗粒物(PM2.5),82,93,65,60,56,60,,62,34,38,33,17,12,0.9,0.7
2026-02-03T1300,1731A,113.0845,36.1856,长治市,长治八中,细颗粒物(PM2.5),105,112,85,79,61,52,,60,33,35,26,18,14,1.0,0.9
2026-02-03T1300,2845A,113.1561,36.1912,长治市,德盛苑,细颗粒物(PM2.5),129,101,56,98,52,48,,83,54,44,20,18,14,1.1,0.7
2026-02-03T1300,3568A,113.0603,36.0464,长治市,向阳小学,颗粒物(PM10),66,81,94,43,53,101,,75,71,23,32,12,12,0.4,0.6
2026-02-03T1300,3569A,112.8788,36.315,长治市,屯留一中,,,82,57,70,37,57,,18,18,,34,,13,0.6,0.3
2026-02-03T1300,4189A,113.113092,36.199482,长治市,英华南巷50号,细颗粒物(PM2.5),99,110,71,74,56,52,,68,39,38,29,17,12,1.0,0.8
2026-02-03T1300,4190A,113.23666,36.33435,长治市,学府街1号,细颗粒物(PM2.5),134,145,75,102,53,73,,51,51,43,45,31,14,1.7,1.2
2026-02-03T1300,1854A,111.696,28.9725,常德市,市二中,,,,110,,63,75,,61,51,25,24,,6,,1
2026-02-03T1300,3138A,111.7152,29.0288,常德市,武陵区永安,细颗粒物(PM2.5),107,126,113,80,60,72,,72,58,29,24,7,7,1.1,0.9
2026-02-03T1300,3139A,111.6891,28.9881,常德市,鼎城区玉霞,细颗粒物(PM2.5),102,123,105,76,58,72,,57,48,33,26,10,9,1.0,0.9
2026-02-03T1300,3140A,111.6651,29.0526,常德市,武陵区长庚,细颗粒物(PM2.5),109,124,105,82,65,78,,64,53,22,19,8,6,0.9,0.7
2026-02-03T1300,1196A,119.9524,31.7586,常州市,市监测站,细颗粒物(PM2.5),108,115,91,81,64,110,,52,52,19,51,7,8,0.5,0.6
2026-02-03T1300,1200A,119.9351,31.703,常州市,武进监测站,细颗粒物(PM2.5),107,105,90,80,66,104,,57,57,16,44,7,7,0.4,0.7
2026-02-03T1300,3002A,119.9701,31.813,常州市,行政中心,细颗粒物(PM2.5),112,108,92,84,63,102,,58,58,23,48,6,6,0.8,0.8
2026-02-03T1300,3003A,120.0434,31.7726,常州市,经开区,细颗粒物(PM2.5),102,128,106,76,64,101,,44,44,23,59,13,14,0.8,0.7
2026-02-03T1300,3010A,119.8919,31.7892,常州市,钟楼,细颗粒物(PM2.5),102,102,89,76,64,105,,59,59,18,39,8,8,0.6,0.8
2026-02-03T1300,3429A,119.8595,31.706,常州市,武进经发区,细颗粒物(PM2.5),107,103,94,80,71,102,,53,53,18,49,6,6,0.9,1.1
2026-02-03T1300,3430A,119.5812,31.7256,常州市,金坛城区,细颗粒物(PM2.5),98,103,105,73,75,108,,59,59,15,37,9,7,0.8,0.7
2026-02-03T1300,4089A,119.9551,31.863,常州市,崇义南街5-H号,细颗粒物(PM2.5),108,97,91,81,68,103,,52,52,22,51,6,6,0.9,0.8
2026-02-03T1300,2220A,120.4318,41.588,朝阳市,西梁,颗粒物(PM10),60,69,49,10,25,76,,48,48,16,29,10,11,0.7,0.9
2026-02-03T1300,2221A,120.452,41.565,朝阳市,河畔小区,颗粒物(PM10),54,57,37,6,18,76,,53,53,14,22,10,11,0.7,0.8
2026-02-03T1300,2222A,120.4176,41.5648,朝阳市,八里堡,,42,42,47,3,27,70,,42,42,19,36,15,14,0.9,0.9
2026-02-03T1300,3026A,116.6179,23.6608,潮州市,市政府,细颗粒物(PM2.5),52,49,46,36,31,100,,52,52,10,14,6,5,0.5,0.5
2026-02-03T1300,4036A,116.646,23.676,潮州市,金山,颗粒物(PM10),53,56,41,35,30,105,,48,48,15,16,6,4,0.6,0.6
2026-02-03T1300,2473A,113.0116,25.8228,郴州市,市职中,细颗粒物(PM2.5),57,51,55,40,42,85,,28,28,16,26,17,10,0.6,0.8
2026-02-03T1300,2475A,113.0381,25.8074,郴州市,市审计局,细颗粒物(PM2.5),59,52,57,42,41,71,,23,23,20,31,10,7,/,/
2026-02-03T1300,2476A,113.0348,25.7757,郴州市,市环保局,颗粒物(PM10),65,80,66,39,39,74,,26,26,23,34,13,9,0.6,0.7
2026-02-03T1300,4252A,113.0138,25.8011,郴州市,好美居路49号,,,,56,,42,,,59,,,30,,10,,
2026-02-03T1300,1431A,103.9727,30.7242,成都市,金泉两河,细颗粒物(PM2.5),114,120,106,86,68,56,,52,32,38,36,2,2,1.0,1
2026-02-03T1300,1432A,104.1423,30.6765,成都市,十里店,细颗粒物(PM2.5),88,104,112,65,60,72,,48,39,29,36,4,4,0.7,0.7
2026-02-03T1300,1433A,104.0594,30.5765,成都市,三瓦窑,细颗粒物(PM2.5),100,102,106,75,63,62,,42,32,34,37,4,4,1.1,1
2026-02-03T1300,1434A,104.1122,30.6306,成都市,沙河铺,细颗粒物(PM2.5),89,90,105,66,62,67,,42,33,28,38,4,3,0.9,0.8
2026-02-03T1300,2880A,104.0219,30.6561,成都市,大石西路,细颗粒物(PM2.5),119,119,112,90,76,52,,44,32,37,32,5,6,1.0,0.9
2026-02-03T1300,3136A,104.2724,30.559,成都市,龙泉驿区区政府,细颗粒物(PM2.5),73,70,79,53,56,82,,42,41,15,19,7,6,0.9,0.9
2026-02-03T1300,3357A,104.0028,30.6891,成都市,金博路,细颗粒物(PM2.5),110,115,100,83,66,54,,45,27,37,37,5,5,1.0,0.9
2026-02-03T1300,3359A,104.056,30.5228,成都市,华阳,细颗粒物(PM2.5),103,102,88,77,59,60,,43,38,33,31,3,3,1.1,1
2026-02-03T1300,3488A,104.387954,30.746684,成都市,青石路225号,,,,101,,61,61,,15,15,,38,,3,1.0,1
2026-02-03T1300,3489A,104.0788,30.4054,成都市,科学城,细颗粒物(PM2.5),78,83,84,57,54,48,,31,29,15,17,7,6,1.0,1
2026-02-03T1300,4011A,103.8505,30.6946,成都市,光华大道三段,细颗粒物(PM2.5),109,136,126,82,70,53,,51,30,39,34,4,3,0.9,0.9
2026-02-03T1300,4144A,104.3257,30.6406,成都市,八角井街185号,细颗粒物(PM2.5),89,98,105,66,60,75,,30,30,21,27,5,4,0.7,0.9
2026-02-03T1300,4224A,104.2433276,30.53529463,成都市,鲸龙路1057号,细颗粒物(PM2.5),69,74,89,50,57,86,,38,34,15,28,6,6,0.8,0.8
2026-02-03T1300,1062A,117.9531,40.908,承德市,铁路,,36,36,46,13,26,47,,20,20,23,34,14,8,0.9,1
2026-02-03T1300,1063A,117.9397,40.9763,承德市,中国银行,,36,36,50,13,25,50,,23,23,23,32,17,5,1.2,0.8
2026-02-03T1300,4073A,117.9462,40.95,承德市,杏林街1号,,38,38,42,20,28,49,,24,24,24,34,14,8,1.1,0.9
2026-02-03T1300,4274A,117.7994,40.9605,承德市,滨河大街98号,颗粒物(PM10),54,58,43,24,22,37,,20,20,36,29,30,14,1.9,0.9
2026-02-03T1300,2314A,117.4698,30.6617,池州市,池州学院,细颗粒物(PM2.5),64,71,82,46,57,72,,54,54,20,28,4,5,1.0,1.1
2026-02-03T1300,3237A,117.4918,30.6617,池州市,展览馆,颗粒物(PM10),55,60,80,35,49,74,,48,48,18,27,2,2,0.8,1
2026-02-03T1300,3333A,117.5626,30.695,池州市,第八中学,颗粒物(PM10),53,55,84,36,54,76,,54,54,18,24,3,3,0.7,0.8
2026-02-03T1300,3334A,117.5037,30.6242,池州市,第十二中学,颗粒物(PM10),57,64,84,38,50,75,,34,34,21,40,2,3,0.8,1.2
2026-02-03T1300,1744A,118.9229,42.2816,赤峰市,松山一中,,,42,25,6,11,73,,58,53,,18,4,6,0.7,0.7
2026-02-03T1300,1745A,118.9588,42.2733,赤峰市,哈达街,,33,33,18,3,7,72,,61,59,14,14,8,7,0.5,0.6
2026-02-03T1300,1746A,118.8792,42.2551,赤峰市,天义路,,24,15,11,3,14,74,,62,60,7,11,5,5,0.4,0.5
2026-02-03T1300,3058A,119.2656,42.0356,赤峰市,银河街,颗粒物(PM10),72,93,88,23,46,88,,40,40,11,28,13,24,0.8,1.5
2026-02-03T1300,3286A,118.9359,42.3146,赤峰市,桥北物流园区,,27,27,17,16,10,82,,60,60,8,16,4,4,0.6,0.6
2026-02-03T1300,2521A,107.3473,22.4137,崇左市,市环保局江州分局,细颗粒物(PM2.5),113,101,62,85,49,56,,19,19,30,23,10,6,1.4,0.9
2026-02-03T1300,4256A,107.375,22.3736,崇左市,石景林东路7号,细颗粒物(PM2.5),95,78,64,71,53,43,,18,18,26,24,9,8,0.9,0.8
2026-02-03T1300,3207A,118.31131,32.3033,滁州市,市政府原办公楼,细颗粒物(PM2.5),102,87,119,76,101,108,,40,40,18,40,,4,0.5,0.7
2026-02-03T1300,3331A,118.3268,32.2633,滁州市,图书馆,颗粒物(PM10),73,95,112,49,77,106,,40,40,22,39,9,7,0.5,0.8
2026-02-03T1300,4101A,118.3196,32.3335,滁州市,银山路666号,细颗粒物(PM2.5),110,,113,83,108,113,,37,37,16,35,12,9,0.6,0.8
2026-02-03T1300,4102A,118.3426,32.2979,滁州市,黄山路555号,细颗粒物(PM2.5),103,94,138,77,103,118,,44,44,18,46,,5,0.5,0.7
2026-02-03T1300,2606A,101.5379,25.0492,楚雄彝族自治州,市经济开发区,,,16,29,15,18,82,,24,24,,19,,4,0.7,0.8
2026-02-03T1300,4153A,101.5536,25.0343,楚雄彝族自治州,团结路562号,,30,30,31,12,19,83,,28,28,4,16,3,4,0.4,0.6
2026-02-03T1300,2549A,107.5087,31.2186,达州市,市环境监测站,细颗粒物(PM2.5),109,128,95,82,61,11,,4,4,45,40,8,7,1.1,1.1
2026-02-03T1300,2550A,107.4988,31.2132,达州市,凤凰小区,细颗粒物(PM2.5),110,132,96,83,61,7,,4,4,54,44,7,6,1.3,1
2026-02-03T1300,2551A,107.5081,31.1987,达州市,达县机关宾馆,细颗粒物(PM2.5),110,127,110,83,75,10,,4,4,53,47,6,6,1.3,1.1
2026-02-03T1300,2552A,107.4644,31.2124,达州市,市政中心,细颗粒物(PM2.5),104,150,108,78,59,10,,8,8,64,49,7,6,1.6,1.1
2026-02-03T1300,2614A,100.2168,25.5818,大理白族自治州,大理市环境监测站,,24,14,18,3,11,76,,67,65,6,7,6,6,0.5,0.4
2026-02-03T1300,2615A,100.1542,25.7055,大理白族自治州,大理古城,,26,21,21,3,12,83,,61,61,5,10,8,8,0.5,0.5
2026-02-03T1300,1109A,121.6119,38.974,大连市,甘井子,细颗粒物(PM2.5),62,61,39,44,25,92,,56,56,20,31,9,9,0.3,0.5
2026-02-03T1300,1110A,121.565,38.9509,大连市,周水子,细颗粒物(PM2.5),62,53,33,44,23,85,,55,55,18,26,1,4,0.5,0.6
2026-02-03T1300,1111A,121.5637,38.8849,大连市,星海三站,细颗粒物(PM2.5),72,52,30,52,27,84,,55,55,19,21,11,9,0.7,0.6
2026-02-03T1300,1112A,121.6301,38.9117,大连市,青泥洼桥,细颗粒物(PM2.5),73,65,38,53,25,88,,64,64,20,21,11,10,0.6,0.5
2026-02-03T1300,1113A,121.6248,38.8643,大连市,傅家庄,细颗粒物(PM2.5),67,82,42,48,22,78,,58,58,22,19,10,9,0.9,0.8
2026-02-03T1300,1114A,121.5117,38.8636,大连市,七贤岭,,,53,30,42,20,89,,62,62,,16,,8,0.9,0.8
2026-02-03T1300,1116A,121.7507,39.1339,大连市,金州,,,53,40,40,26,88,,47,47,18,28,9,11,,0.5
2026-02-03T1300,1117A,121.7811,39.0495,大连市,开发区,细颗粒物(PM2.5),73,63,43,53,32,81,,39,39,20,34,11,10,0.7,0.7
2026-02-03T1300,1118A,121.9762,39.0631,大连市,双D港,细颗粒物(PM2.5),72,64,36,52,21,91,,60,60,27,26,13,10,0.8,0.7
2026-02-03T1300,4082A,121.2548,38.8188,大连市,旅顺,细颗粒物(PM2.5),57,51,37,40,25,84,,57,57,14,18,8,8,0.6,0.6
2026-02-03T1300,1789A,124.8085,46.0381,大庆市,大同区,,,36,61,10,30,,,45,,9,14,,9,0.7,0.8
2026-02-03T1300,1790A,125.1166,46.5255,大庆市,龙凤区,颗粒物(PM10),52,53,58,17,28,67,,39,38,16,21,11,9,0.7,0.7
2026-02-03T1300,1791A,124.8894,46.4007,大庆市,红岗区,,25,25,41,9,23,63,,41,41,12,17,5,5,0.4,0.5
2026-02-03T1300,1792A,125.1391,46.578,大庆市,萨尔图区,,32,32,57,14,24,64,,39,37,17,21,13,10,0.3,0.4
2026-02-03T1300,1793A,124.9026,46.6217,大庆市,让胡路区,,27,27,36,16,19,73,,46,46,9,14,9,8,0.3,0.4
2026-02-03T1300,3481A,125.127,46.6277,大庆市,萨区政府监测点,,29,29,46,12,22,74,,40,40,9,19,14,11,0.6,0.7
2026-02-03T1300,1723A,113.2926,40.0759,大同市,云冈宾馆,颗粒物(PM10),67,84,72,37,33,42,,20,20,43,43,40,21,0.9,1.1
2026-02-03T1300,1724A,113.3437,40.0921,大同市,大同大学,颗粒物(PM10),56,62,59,35,31,46,,31,30,38,32,43,19,0.9,0.7
2026-02-03T1300,1725A,113.2637,40.129,大同市,安家小村,,,117,73,48,34,42,,16,16,41,41,51,24,,1.7
2026-02-03T1300,3282A,113.3399,40.0586,大同市,大同市卫生学校,颗粒物(PM10),66,81,64,36,30,35,,25,25,52,44,39,20,1.0,0.9
2026-02-03T1300,3565A,113.1371,40.1122,大同市,云冈站,颗粒物(PM10),74,97,68,37,30,40,,17,17,42,39,47,28,0.8,0.7
2026-02-03T1300,3566A,113.1186,40.2556,大同市,图书馆,颗粒物(PM10),58,66,50,26,31,45,,25,25,36,25,41,12,0.8,0.7
2026-02-03T1300,3567A,113.5931,40.0459,大同市,区一中,颗粒物(PM10),65,79,84,36,51,50,,25,25,37,38,33,27,0.4,0.8
2026-02-03T1300,4199A,113.2798248,40.09972476,大同市,魏都大道141号,颗粒物(PM10),63,76,96,3,44,48,,23,23,43,51,44,21,1.1,1.9
2026-02-03T1300,2269A,124.1068,50.4091,大兴安岭地区,科技局,,24,24,25,8,13,75,,58,58,1,6,5,5,0.2,0.3
2026-02-03T1300,3663A,124.117,50.4279,大兴安岭地区,红旗社区,,,,42,24,30,85,,54,54,2,29,4,8,0.1,0.6
2026-02-03T1300,1600A,124.33,40.0625,丹东市,江湾东路,,41,41,74,22,50,77,,43,43,10,31,10,19,0.5,1.5
2026-02-03T1300,1601A,124.4242,40.1513,丹东市,临江后街,颗粒物(PM10),55,60,68,33,48,72,,34,34,14,28,29,17,1.1,1
2026-02-03T1300,1602A,124.3935,40.1461,丹东市,元宝山,颗粒物(PM10),51,51,64,28,48,71,,29,29,14,27,16,17,0.8,1.2
2026-02-03T1300,1603A,124.3634,40.1093,丹东市,民主桥,,43,43,77,24,50,74,,32,32,10,42,14,15,0.6,1.2
2026-02-03T1300,3541A,109.5726195,19.51688767,儋州市,第一中学子站,,23,14,31,7,21,71,,68,67,4,7,4,4,0.6,0.8
2026-02-03T1300,3542A,109.5567,19.5187,儋州市,东坡学校子站,,27,19,33,3,17,86,,83,80,5,9,2,3,0.6,0.7
2026-02-03T1300,2616A,98.5611,24.4273,德宏傣族景颇族自治州,德宏州监测站,细颗粒物(PM2.5),55,57,56,39,38,72,,23,23,21,25,9,6,0.9,0.9
2026-02-03T1300,3677A,98.5887,24.4366,德宏傣族景颇族自治州,芒市人民政府综合楼,颗粒物(PM10),59,68,51,35,27,67,,32,28,15,15,5,4,0.8,0.7
2026-02-03T1300,1901A,104.424,31.1209,德阳市,东山公园,细颗粒物(PM2.5),95,83,83,71,70,52,,50,31,14,22,2,1,0.9,0.8
2026-02-03T1300,1902A,104.3827,31.1318,德阳市,西小区,细颗粒物(PM2.5),107,110,101,80,72,36,,46,19,40,29,4,3,1.3,1.1
2026-02-03T1300,1904A,104.3553,31.1091,德阳市,耐火材料厂,细颗粒物(PM2.5),108,98,88,81,76,26,,40,17,48,29,5,2,1.1,1
2026-02-03T1300,4145A,104.4144,31.1495,德阳市,市林业局,细颗粒物(PM2.5),100,92,93,75,70,36,,38,14,38,36,4,4,0.9,0.9
2026-02-03T1300,1622A,116.3034,37.4675,德州市,儿童乐园,细颗粒物(PM2.5),134,207,117,102,76,110,,71,71,26,40,13,14,1.2,1.1
2026-02-03T1300,1624A,116.2992,37.4449,德州市,监理站,颗粒物(PM10),137,224,120,103,77,115,,73,73,28,48,13,13,0.9,0.9
2026-02-03T1300,3066A,116.2722,37.438,德州市,九衢泉纯净水厂,细颗粒物(PM2.5),138,205,125,105,88,101,,53,53,32,56,8,11,1.4,1.4
2026-02-03T1300,3371A,116.3693,37.44,德州市,开发区人民医院,细颗粒物(PM2.5),139,197,119,106,79,109,,53,53,16,51,14,17,0.8,0.9
2026-02-03T1300,3511A,116.5687,37.3331,德州市,陵城艺术中心,细颗粒物(PM2.5),135,178,103,103,75,91,,51,51,35,47,22,19,1.0,0.8
2026-02-03T1300,4292A,116.352738,37.420875,德州市,新河东路,,,,117,,75,105,,44,44,20,68,16,17,0.4,0.9
2026-02-03T1300,2621A,99.7054,27.8319,迪庆藏族自治州,迪庆州站,,25,19,22,3,11,80,,63,63,6,9,5,5,0.4,0.5
2026-02-03T1300,3180A,99.7122,27.8129,迪庆藏族自治州,质量技术监督局,,27,27,22,3,11,85,,70,64,4,9,5,5,0.3,0.4
2026-02-03T1300,4257A,104.6092,35.5962,定西市,将台街,颗粒物(PM10),72,94,105,40,54,77,,25,25,9,30,12,13,0.6,0.9
2026-02-03T1300,4309A,104.6159,35.5701,定西市,正龙路62号,颗粒物(PM10),76,101,107,44,52,72,,35,35,14,15,12,10,0.8,0.9
2026-02-03T1300,1390A,113.7943,23.0132,东莞市,东城石井,,,52,38,,21,125,,68,68,23,29,8,7,0.6,0.6
2026-02-03T1300,1391A,113.7384,22.9659,东莞市,南城西平,颗粒物(PM10),51,51,40,32,22,115,,47,47,30,56,7,7,0.7,0.7
2026-02-03T1300,3319A,113.7283,23.041,东莞市,万江金泰,,48,48,39,29,21,117,,70,70,17,26,7,6,0.7,0.7
2026-02-03T1300,4129A,113.8666,23.1062,东莞市,裕兴路,,37,37,44,19,21,98,,61,61,13,28,7,7,0.8,0.8
2026-02-03T1300,4130A,114.0076,22.9739,东莞市,教育路1号,,50,50,46,28,23,121,,63,63,20,36,5,5,0.7,0.7
2026-02-03T1300,4131A,113.7981,22.8124,东莞市,长怡路1号,颗粒物(PM10),56,61,51,30,23,106,,54,54,25,43,7,7,0.7,0.8
2026-02-03T1300,1666A,118.6612,37.4313,东营市,市环保局,细颗粒物(PM2.5),93,95,70,69,44,103,,36,36,31,53,17,17,0.9,1
2026-02-03T1300,3036A,118.6903,37.4337,东营市,开发区管委会,细颗粒物(PM2.5),92,90,69,68,39,100,,34,34,25,53,14,13,0.6,0.7
2026-02-03T1300,3365A,118.5721,37.5654,东营市,垦利区民丰路,细颗粒物(PM2.5),114,90,76,86,48,111,,36,36,31,61,14,16,0.7,0.9
2026-02-03T1300,3498A,118.5063,37.8606,东营市,河口城区,细颗粒物(PM2.5),108,114,83,81,51,112,,44,44,34,58,14,18,1.0,1.2
2026-02-03T1300,3646A,118.4979,37.4623,东营市,胜利站,细颗粒物(PM2.5),80,94,78,59,49,97,,29,29,37,69,14,18,0.9,1.1
2026-02-03T1300,3734A,118.5753,37.4405,东营市,理想之城,细颗粒物(PM2.5),88,90,79,65,45,104,,33,33,36,58,16,15,0.9,1
2026-02-03T1300,1591A,110.0024,39.8127,鄂尔多斯市,综合楼,颗粒物(PM10),54,58,45,19,15,63,,42,42,26,34,14,11,0.6,0.5
2026-02-03T1300,1592A,109.9485,39.8259,鄂尔多斯市,巴音孟克林场办事处,颗粒物(PM10),52,53,33,22,14,74,,50,50,16,27,12,11,0.6,0.5
2026-02-03T1300,1593A,109.7734,39.5987,鄂尔多斯市,康泽苑,颗粒物(PM10),59,68,34,20,13,58,,30,30,26,25,8,4,0.6,0.4
2026-02-03T1300,1594A,109.8121,39.5987,鄂尔多斯市,华泰汽车城,,44,44,34,20,14,52,,18,18,29,36,10,7,0.5,0.5
2026-02-03T1300,1595A,109.9734,39.7884,鄂尔多斯市,奥林花园,颗粒物(PM10),51,51,54,17,18,60,,33,33,31,44,14,8,0.6,0.5
2026-02-03T1300,2436A,114.894,30.3989,鄂州市,市政府,"颗粒物(PM10),细颗粒物(PM2.5)",59,68,83,42,58,74,,37,37,22,46,7,7,0.6,0.7
2026-02-03T1300,2437A,114.8986,30.3714,鄂州市,赵家坝,颗粒物(PM10),63,76,84,42,57,79,,42,42,12,33,10,11,0.8,0.8
2026-02-03T1300,3654A,114.8093,30.4091,鄂州市,精准医疗中心,颗粒物(PM10),65,80,91,38,59,82,,40,40,18,46,32,18,0.4,0.7
2026-02-03T1300,2454A,109.4978,30.2979,恩施土家族苗族自治州,湖北民院,细颗粒物(PM2.5),70,79,65,51,44,52,,17,17,16,19,8,6,0.9,1
2026-02-03T1300,3549A,109.5061,30.3771,恩施土家族苗族自治州,龙凤新区,,,80,60,38,36,46,,10,10,21,17,,7,,0.8
2026-02-03T1300,2499A,108.3411,21.6159,防城港市,沙万,细颗粒物(PM2.5),63,60,60,45,45,116,,66,66,20,18,8,7,1.1,1
2026-02-03T1300,2500A,108.3515,21.7733,防城港市,防城档案局,细颗粒物(PM2.5),63,62,73,45,50,123,,66,66,14,17,8,6,0.8,0.8
2026-02-03T1300,2501A,108.3506,21.6414,防城港市,大海花园,细颗粒物(PM2.5),63,71,56,45,48,128,,73,73,19,16,11,8,1.1,0.9
2026-02-03T1300,1371A,113.1293,23.0065,佛山市,湾梁,颗粒物(PM10),51,51,42,29,21,76,,45,45,34,35,/,/,/,/
2026-02-03T1300,1372A,113.1082,23.0477,佛山市,华材职中,,42,34,49,29,27,96,,44,44,16,45,6,6,0.7,0.8
2026-02-03T1300,1373A,113.1439,23.045,佛山市,南海气象局,颗粒物(PM10),51,52,43,29,24,88,,44,44,29,47,/,/,/,/
2026-02-03T1300,1374A,113.2879,22.8094,佛山市,顺德苏岗,细颗粒物(PM2.5),54,41,42,38,24,101,,46,46,33,49,/,/,1.0,1
2026-02-03T1300,1376A,112.8384,22.8678,佛山市,高明孔堂,,,66,48,37,26,85,,45,45,,31,/,/,/,/
2026-02-03T1300,1377A,112.8835,23.1584,佛山市,三水监测站,颗粒物(PM10),52,53,55,35,27,88,,58,58,33,37,6,4,0.5,0.5
2026-02-03T1300,1378A,112.8668,23.185,佛山市,三水云东海,颗粒物(PM10),51,51,46,30,25,98,,56,56,28,31,/,/,/,/
2026-02-03T1300,3625A,113.2568,22.7629,佛山市,容桂街道办,,,,49,38,25,96,,44,44,,49,/,/,/,/
2026-02-03T1300,1282A,119.2681,26.0506,福州市,师大,,,,41,49,29,101,,87,85,,16,3,3,,0.6
2026-02-03T1300,1283A,119.2983,26.1028,福州市,五四北路,细颗粒物(PM2.5),63,47,41,45,32,100,,86,86,17,17,6,4,0.6,0.6
2026-02-03T1300,1284A,119.2648,26.0769,福州市,杨桥西路,细颗粒物(PM2.5),63,51,41,45,28,103,,88,88,12,13,5,4,/,/
2026-02-03T1300,3048A,119.5799,26.0937,福州市,九龙,,,54,42,50,31,102,,85,84,18,13,7,4,,0.6
2026-02-03T1300,3526A,119.5188,25.9666,福州市,吴航,细颗粒物(PM2.5),63,70,51,45,32,102,,86,86,18,15,6,5,0.8,0.7
2026-02-03T1300,4104A,119.3106,26.0648,福州市,路通桥巷6号,颗粒物(PM10),65,79,49,44,34,95,,83,83,16,15,/,/,/,/
2026-02-03T1300,1755A,123.7974,41.8494,抚顺市,望花区,颗粒物(PM10),83,116,93,31,49,72,,36,36,20,49,15,17,0.9,1.2
2026-02-03T1300,1756A,123.9161,41.8827,抚顺市,顺城区,颗粒物(PM10),73,96,68,25,47,75,,39,39,26,53,14,12,1.2,1.3
2026-02-03T1300,1757A,124.0437,41.8615,抚顺市,东洲区,,,,61,16,38,74,,53,53,20,28,,18,0.7,0.9
2026-02-03T1300,1758A,123.9246,41.8638,抚顺市,新抚区,颗粒物(PM10),52,53,63,26,51,81,,44,44,22,52,11,9,1.1,1.1
2026-02-03T1300,1759A,124.0972,41.8961,抚顺市,大伙房水库,颗粒物(PM10),55,59,51,36,33,85,,51,51,19,28,27,15,0.9,0.8
2026-02-03T1300,1760A,123.708,41.8386,抚顺市,沈抚新城,颗粒物(PM10),70,89,86,30,44,77,,43,43,27,51,11,16,0.6,1.4
2026-02-03T1300,2377A,116.3544,27.9833,抚州市,市站,细颗粒物(PM2.5),54,56,50,38,36,75,,56,50,18,18,11,13,1.0,1
2026-02-03T1300,2378A,116.3562,27.9631,抚州市,血防站,细颗粒物(PM2.5),60,57,50,43,36,69,,46,36,29,26,10,10,1.4,1.4
2026-02-03T1300,2379A,116.3561,28.0007,抚州市,采茶剧团,细颗粒物(PM2.5),57,61,52,40,35,71,,47,46,13,15,10,10,0.9,0.8
2026-02-03T1300,2380A,116.3854,27.9648,抚州市,医学分院,,,,54,,32,72,,45,41,15,19,,6,,1
2026-02-03T1300,2207A,121.6095,41.9978,阜新市,工业园区,颗粒物(PM10),68,86,102,40,50,72,,27,27,18,31,41,39,0.8,0.9
2026-02-03T1300,2208A,121.6567,42.0188,阜新市,长青街,颗粒物(PM10),55,59,61,35,42,71,,24,24,26,36,38,26,0.8,0.9
2026-02-03T1300,2209A,121.6672,42.07,阜新市,农业园区,"颗粒物(PM10),细颗粒物(PM2.5)",59,68,73,42,33,72,,46,46,19,26,39,38,0.7,0.8
2026-02-03T1300,2211A,121.6343,42.0455,阜新市,玉龙新城,颗粒物(PM10),66,82,77,38,41,73,,28,28,24,37,41,24,1.0,1
2026-02-03T1300,2301A,115.8276,32.8929,阜阳市,市监测站,细颗粒物(PM2.5),83,96,142,61,93,97,,47,47,16,45,6,5,0.7,0.8
2026-02-03T1300,2303A,115.8551,32.8606,阜阳市,开发区,细颗粒物(PM2.5),78,89,140,57,90,96,,49,49,22,46,6,6,0.5,0.7
2026-02-03T1300,2875A,115.783962,32.889217,阜阳市,阜阳职业技术学院,细颗粒物(PM2.5),74,81,119,54,78,104,,77,77,13,27,7,7,0.6,0.7
2026-02-03T1300,3468A,115.79,32.8614,阜阳市,市规划展馆,细颗粒物(PM2.5),97,99,125,72,83,100,,73,73,14,27,8,7,0.8,0.8
2026-02-03T1300,3469A,115.835101,32.918568,阜阳市,枣园社区,细颗粒物(PM2.5),88,99,140,65,88,98,,56,56,14,42,7,7,0.7,0.8
2026-02-03T1300,2669A,102.9097,34.9841,甘南藏族自治州,州政府,颗粒物(PM10),51,51,69,27,55,65,,34,34,11,18,9,7,0.5,0.7
2026-02-03T1300,3380A,102.8915,34.9618,甘南藏族自治州,甘肃民族师范学院,颗粒物(PM10),57,64,72,38,37,71,,38,38,15,22,10,9,0.6,0.6
2026-02-03T1300,2570A,101.96,30.048,甘孜藏族自治州,水桥子,,18,9,15,3,6,55,,47,36,9,11,7,6,0.8,0.7
2026-02-03T1300,3065A,101.9534,29.9976,甘孜藏族自治州,州环保局,,19,12,15,3,10,60,,52,45,11,13,6,6,0.5,0.5
2026-02-03T1300,2363A,114.9368,25.8663,赣州市,地委,,40,40,55,26,27,89,,59,59,18,19,8,8,0.9,0.8
2026-02-03T1300,2364A,114.946,25.8483,赣州市,气象台,,,48,53,27,31,91,,54,54,20,26,8,7,,0.4
2026-02-03T1300,2365A,114.932,25.8332,赣州市,市图书馆,,47,47,46,24,30,73,,56,56,20,21,3,4,0.8,0.7
2026-02-03T1300,2366A,114.8905,25.8472,赣州市,华坚鞋城,颗粒物(PM10),52,53,46,28,28,89,,64,64,18,18,7,6,0.5,0.4
2026-02-03T1300,3109A,115.0094,25.8614,赣州市,赣县区卫计委,颗粒物(PM10),60,69,53,24,24,79,,56,56,18,16,7,8,0.7,0.6
2026-02-03T1300,2684A,106.2753,36.0057,固原市,监测站,颗粒物(PM10),62,74,95,41,39,70,,75,71,14,16,8,8,0.8,0.7
2026-02-03T1300,2685A,106.2384,36.0189,固原市,新区,颗粒物(PM10),71,92,98,36,40,69,,66,60,13,17,8,7,0.6,0.6
2026-02-03T1300,2544A,106.6307,30.4577,广安市,市委,细颗粒物(PM2.5),140,133,110,107,93,17,,18,10,38,32,7,7,1.3,1.2
2026-02-03T1300,2545A,106.6266,30.4662,广安市,友谊中学,细颗粒物(PM2.5),117,119,104,88,78,19,,24,12,36,27,6,6,1.5,1.3
2026-02-03T1300,2547A,106.6386,30.4551,广安市,广电花园,细颗粒物(PM2.5),139,,95,106,101,14,,14,9,34,27,7,7,1.2,1.1
2026-02-03T1300,2902A,106.6347,30.4868,广安市,北辰小学,细颗粒物(PM2.5),133,126,101,101,95,23,,22,10,31,20,6,6,1.3,1.2
2026-02-03T1300,2524A,105.8211,32.4444,广元市,老城,细颗粒物(PM2.5),72,80,103,52,69,59,,16,16,27,50,7,9,1.1,1.2
2026-02-03T1300,2526A,105.8629,32.429,广元市,监测站,,,96,89,54,62,47,,13,12,,32,,10,1.2,1.3
2026-02-03T1300,3617A,105.8047,32.4167,广元市,经开区,细颗粒物(PM2.5),95,112,113,71,71,31,,8,8,46,46,20,17,1.5,1.3
2026-02-03T1300,1345A,113.2346,23.1423,广州市,广雅中学,颗粒物(PM10),55,60,50,31,26,87,,48,48,18,41,3,4,1.0,0.8
2026-02-03T1300,1346A,113.2611,23.105,广州市,市五中,颗粒物(PM10),53,56,42,31,23,94,,60,60,27,37,7,8,/,/
2026-02-03T1300,1348A,113.3477,23.0916,广州市,广东商学院,颗粒物(PM10),53,56,38,32,21,90,,57,57,27,33,6,6,0.5,0.5
2026-02-03T1300,1349A,113.4332,23.105,广州市,市八十六中,,49,49,35,28,23,90,,45,45,38,47,9,8,/,/
2026-02-03T1300,1350A,113.3506,22.9488,广州市,番禺中学,颗粒物(PM10),59,68,49,34,24,104,,49,49,24,45,4,4,0.7,0.7
2026-02-03T1300,1351A,113.2147,23.3918,广州市,花都师范,,49,49,42,23,21,89,,69,62,26,26,6,8,0.6,0.7
2026-02-03T1300,1352A,113.2599,23.1329,广州市,市监测站,颗粒物(PM10),54,57,47,31,25,87,,54,54,20,36,2,3,/,/
2026-02-03T1300,1353A,113.5618,23.3119,广州市,九龙镇镇龙,,44,44,40,26,22,92,,53,53,12,25,5,5,0.6,0.6
2026-02-03T1300,1354A,113.2764,23.1544,广州市,麓湖,颗粒物(PM10),55,59,35,32,21,87,,37,37,23,43,5,9,0.8,0.7
2026-02-03T1300,2846A,113.3209,23.1323,广州市,体育西,颗粒物(PM10),55,59,41,32,24,80,,52,52,27,29,7,7,0.8,0.8
2026-02-03T1300,3298A,113.5718,23.5493,广州市,从化街口,,37,37,36,22,21,98,,49,49,10,26,6,7,0.5,0.6
2026-02-03T1300,3299A,113.3463,23.369,广州市,白云竹料,,45,45,42,21,23,92,,60,60,19,30,4,5,0.4,0.5
2026-02-03T1300,3300A,113.2981,23.2365,广州市,白云嘉禾,,,71,52,52,25,,,39,,,49,,6,/,/
2026-02-03T1300,3301A,113.4256,23.1716,广州市,黄埔科学城,,44,44,32,26,21,95,,68,68,21,23,3,3,0.6,0.7
2026-02-03T1300,3302A,113.3942,23.0485,广州市,番禺大学城,颗粒物(PM10),51,51,40,30,21,107,,47,47,28,46,12,7,0.7,0.6
2026-02-03T1300,3303A,113.4923,22.8169,广州市,南沙黄阁,细颗粒物(PM2.5),55,56,55,39,28,96,,40,40,31,54,6,6,/,/
2026-02-03T1300,3304A,113.534,22.7893,广州市,南沙街,,,55,48,38,25,121,,47,47,22,45,,7,0.8,0.8
2026-02-03T1300,3443A,113.2905,23.5541,广州市,花都梯面,,37,37,31,20,17,89,,61,61,7,10,6,7,/,/
2026-02-03T1300,3445A,113.786,23.7479,广州市,从化良口,,32,32,23,21,14,89,,50,50,6,10,8,7,/,/
2026-02-03T1300,3446A,113.805,23.2614,广州市,增城荔城,,,39,29,23,16,100,,71,71,,17,7,6,0.4,0.7
2026-02-03T1300,2506A,109.604387,23.066791,贵港市,江南子站,颗粒物(PM10),59,68,78,38,47,96,,38,38,18,24,14,6,1.4,0.9
2026-02-03T1300,2508A,109.5669,23.1065,贵港市,荷城子站,颗粒物(PM10),74,97,69,37,40,89,,50,47,18,20,8,6,1.0,1
2026-02-03T1300,3405A,109.5886,23.1172,贵港市,新世纪学校,,,102,76,53,50,99,,55,55,,19,/,/,,0.7
2026-02-03T1300,4260A,109.5933,23.095,贵港市,中山路155-3号,细颗粒物(PM2.5),74,70,56,54,47,100,,56,56,15,17,/,/,0.9,0.8
2026-02-03T1300,1439A,106.6863,26.6035,贵阳市,马鞍山,,27,27,35,18,25,27,,43,29,19,16,5,6,/,/
2026-02-03T1300,1441A,106.6241,26.6266,贵阳市,鉴湖路,,31,31,43,20,25,25,,54,34,33,22,3,4,0.8,0.7
2026-02-03T1300,1442A,106.7468,26.6344,贵阳市,燕子冲,,29,27,37,20,28,42,,55,45,14,13,8,10,0.7,0.6
2026-02-03T1300,1443A,106.6556,26.4362,贵阳市,碧云窝,,41,41,43,27,25,40,,56,45,15,15,13,15,/,/
2026-02-03T1300,1445A,106.6963,26.6063,贵阳市,红边门,,36,29,40,25,29,30,,48,32,23,21,8,11,/,/
2026-02-03T1300,1446A,106.7162383,26.56964667,贵阳市,新华路,,,,,,,,,,,,,,,,
2026-02-03T1300,1447A,106.6742,26.542,贵阳市,太慈桥,,,36,37,27,27,20,,51,33,33,22,,5,/,/
2026-02-03T1300,4230A,106.688212,26.56952,贵阳市,花果园大街66号,,42,31,32,29,26,14,,37,19,27,20,2,3,/,/
2026-02-03T1300,4231A,106.687268,26.516892,贵阳市,漓江路57号,,38,31,39,26,24,9,,44,22,30,23,8,7,0.8,0.7
2026-02-03T1300,1864A,110.3091,25.2705,桂林市,龙隐路小学,细颗粒物(PM2.5),85,77,58,63,43,74,,56,50,18,17,7,4,0.7,0.6
2026-02-03T1300,1865A,110.2849361,25.22909545,桂林市,八中,颗粒物(PM10),60,69,64,34,25,68,,43,37,23,26,9,5,0.7,0.7
2026-02-03T1300,3531A,110.296,25.1254,桂林市,旅游学院,细颗粒物(PM2.5),58,60,69,41,46,81,,41,41,8,25,10,6,0.5,0.5
2026-02-03T1300,4222A,110.1835,25.2444,桂林市,环湖路276号,颗粒物(PM10),63,75,66,37,38,62,,46,39,27,23,8,13,1.1,1.1
2026-02-03T1300,4301A,110.2803,25.2773,桂林市,信义路13号,颗粒物(PM10),56,62,54,36,35,79,,66,52,19,22,9,6,1.0,0.9
2026-02-03T1300,2674A,100.2262,34.4854,果洛藏族自治州,玛沁县大武镇,,36,36,40,16,17,101,,42,42,2,4,12,15,0.1,0.3
2026-02-03T1300,1130A,126.5557,45.8109,哈尔滨市,松北商大,细颗粒物(PM2.5),54,53,52,38,39,74,,54,54,12,20,8,9,0.8,0.8
2026-02-03T1300,1132A,126.6162,45.719,哈尔滨市,南岗学府路,颗粒物(PM10),58,66,66,36,40,78,,50,50,14,22,13,10,0.8,0.8
2026-02-03T1300,1133A,126.6894,45.7733,哈尔滨市,太平宏伟公园,颗粒物(PM10),60,70,62,33,36,77,,58,58,16,23,14,13,0.7,0.6
2026-02-03T1300,1134A,126.6361,45.7672,哈尔滨市,道外承德广场,,,,75,47,40,70,,53,53,20,30,13,13,0.4,0.7
2026-02-03T1300,1136A,126.644,45.7261,哈尔滨市,动力和平路,,,127,68,38,41,69,,47,47,,26,12,13,0.9,1
2026-02-03T1300,1137A,126.5933,45.7479,哈尔滨市,道里建国路,颗粒物(PM10),63,76,69,40,45,68,,50,50,26,31,31,11,0.6,1
2026-02-03T1300,1138A,126.6127,45.6119,哈尔滨市,平房东轻厂,,45,44,53,31,40,78,,61,61,16,18,11,9,0.7,0.8
2026-02-03T1300,1139A,126.5875,45.9827,哈尔滨市,呼兰师专,颗粒物(PM10),56,62,53,25,29,70,,49,49,14,21,15,16,0.8,0.8
2026-02-03T1300,1140A,126.6299,45.6799,哈尔滨市,省农科院,,,60,63,37,42,69,,52,52,14,26,,15,0.8,0.9
2026-02-03T1300,4282A,126.6769,45.7379,哈尔滨市,华山路1号,颗粒物(PM10),69,88,68,36,38,68,,48,48,23,30,10,10,0.9,0.8
2026-02-03T1300,4283A,126.9717,45.5356,哈尔滨市,解放大街52号,细颗粒物(PM2.5),78,71,60,57,37,70,,59,59,18,17,17,14,1.0,0.7
2026-02-03T1300,2688A,93.5124,42.8176,哈密市,地区监测站,颗粒物(PM10),63,75,53,23,28,67,,54,54,7,20,10,9,0.2,0.5
2026-02-03T1300,2689A,93.5014,42.8312,哈密市,哈密师范学校,颗粒物(PM10),61,71,64,27,24,60,,43,43,12,32,8,8,0.4,0.7
2026-02-03T1300,2671A,100.9016,36.9464,海北藏族自治州,海晏县西海镇,,36,33,43,25,29,85,,60,60,6,9,12,11,0.9,0.6
2026-02-03T1300,3867A,102.074,36.5056,海东市,平安区公安局北苑,细颗粒物(PM2.5),102,102,95,76,64,55,,31,31,34,26,36,19,1.9,1.2
2026-02-03T1300,4163A,102.0984,36.5119,海东市,滨河路,细颗粒物(PM2.5),97,92,100,72,66,68,,27,27,35,45,30,17,1.6,1.2
2026-02-03T1300,1410A,110.3189,20.0596,海口市,海南大学,,41,41,26,24,18,129,,107,107,11,10,6,6,0.6,0.6
2026-02-03T1300,1411A,110.2827,20.0051,海口市,秀英海南医院,,40,35,29,24,19,125,,100,100,13,11,8,8,0.5,0.5
2026-02-03T1300,1412A,110.3391,19.9979,海口市,海南师范大学,,41,39,30,20,17,131,,104,104,13,11,6,6,0.7,0.6
2026-02-03T1300,1413A,110.3303,20.0359,海口市,龙华路环保局宿舍,,45,39,29,23,18,141,,113,113,11,8,/,/,0.8,0.8
2026-02-03T1300,3539A,110.5111,19.9737,海口市,桂林洋子站,,41,39,28,23,18,130,,102,102,11,10,/,/,/,/
2026-02-03T1300,4134A,110.1952,20.0451,海口市,长滨二路9号,,42,35,25,25,19,132,,106,106,10,9,/,/,/,/
2026-02-03T1300,2673A,100.6158,36.2985,海南藏族自治州,共和县恰卜恰镇,细颗粒物(PM2.5),57,42,55,40,35,87,,42,42,10,22,12,12,0.6,0.7
2026-02-03T1300,2676A,97.373,37.376,海西蒙古族藏族自治州,德令哈市,,29,27,22,8,10,91,,79,75,9,9,13,14,0.9,0.6
2026-02-03T1300,1049A,114.492,36.5712,邯郸市,矿院,细颗粒物(PM2.5),147,139,130,112,118,76,,30,30,22,41,8,5,0.9,0.9
2026-02-03T1300,1050A,114.4839,36.6136,邯郸市,丛台公园,细颗粒物(PM2.5),155,150,132,118,114,80,,43,43,27,39,10,7,0.9,0.9
2026-02-03T1300,3458A,114.7893,36.5592,邯郸市,香泉濮院小区,细颗粒物(PM2.5),119,144,139,90,93,83,,54,54,18,34,7,6,0.8,0.9
2026-02-03T1300,3580A,114.1998,36.4439,邯郸市,峰峰矿区临水派出所,,,117,84,72,68,87,,85,72,12,8,13,9,,1
2026-02-03T1300,4068A,114.5209,36.7697,邯郸市,建安街268号,细颗粒物(PM2.5),145,135,131,111,113,86,,34,34,26,59,9,6,0.8,0.9
2026-02-03T1300,4069A,114.5488,36.6177,邯郸市,丛台东路558号,细颗粒物(PM2.5),153,151,133,117,125,82,,33,33,25,39,7,4,0.9,1
2026-02-03T1300,2635A,107.0155,33.0707,汉中市,市监测站,颗粒物(PM10),74,97,116,46,74,57,,16,16,28,38,8,7,0.9,1.3
2026-02-03T1300,2636A,107.0083,33.114,汉中市,鑫源开发区,颗粒物(PM10),69,88,101,46,60,67,,22,22,21,42,8,9,0.7,1
2026-02-03T1300,2637A,107.0072,33.0323,汉中市,南郑大河坎水厂,颗粒物(PM10),86,122,122,52,75,50,,15,13,33,33,8,6,1.0,1.3
2026-02-03T1300,1223A,120.2073,30.2111,杭州市,滨江,细颗粒物(PM2.5),110,120,120,83,75,102,,36,36,22,48,7,6,0.8,0.9
2026-02-03T1300,1224A,120.0625,30.2737,杭州市,西溪,细颗粒物(PM2.5),93,102,95,69,55,98,,33,33,25,35,9,8,0.6,0.7
2026-02-03T1300,1226A,120.3417,30.315,杭州市,下沙,细颗粒物(PM2.5),93,91,120,69,89,97,,37,37,22,68,9,8,0.2,0.6
2026-02-03T1300,1227A,120.1252,30.2465,杭州市,卧龙桥,细颗粒物(PM2.5),104,124,101,78,63,98,,41,41,18,18,10,9,0.6,0.6
2026-02-03T1300,1228A,120.1902,30.2691,杭州市,浙江农大,细颗粒物(PM2.5),117,113,124,88,78,106,,44,44,30,50,6,6,0.7,1.1
2026-02-03T1300,1230A,120.1195,30.3121,杭州市,和睦小学,细颗粒物(PM2.5),114,136,130,86,80,96,,39,39,22,42,6,5,0.8,1.1
2026-02-03T1300,1231A,120.3076,30.4146,杭州市,临平镇,细颗粒物(PM2.5),99,99,128,74,88,95,,36,36,16,45,8,6,0.7,1
2026-02-03T1300,1232A,120.2753,30.1839,杭州市,城厢镇,细颗粒物(PM2.5),107,115,113,80,76,112,,37,37,21,51,8,7,0.6,0.8
2026-02-03T1300,1233A,120.0883,30.1808,杭州市,云栖,细颗粒物(PM2.5),94,106,92,70,55,90,,30,30,31,24,5,4,0.9,1
2026-02-03T1300,3557A,119.9463,30.0496,杭州市,镇二中,细颗粒物(PM2.5),118,115,82,89,62,99,,26,26,24,40,6,5,0.8,0.9
2026-02-03T1300,3558A,119.7184,30.2367,杭州市,市府大楼,细颗粒物(PM2.5),123,108,83,93,67,90,,36,36,16,23,10,10,0.9,0.9
2026-02-03T1300,3656A,120.1554,30.2863,杭州市,消防大队,细颗粒物(PM2.5),122,126,115,92,81,94,,36,36,23,46,7,6,0.7,0.8
2026-02-03T1300,1270A,117.1957,31.7845,合肥市,明珠广场,细颗粒物(PM2.5),79,92,114,58,64,91,,45,45,22,62,6,6,0.6,0.8
2026-02-03T1300,1271A,117.307,31.8765,合肥市,三里街,细颗粒物(PM2.5),75,80,110,55,66,89,,37,37,23,60,6,6,0.7,0.9
2026-02-03T1300,1272A,117.2587,31.8703,合肥市,琥珀山庄,,,80,105,62,66,93,,59,59,20,49,,7,0.7,1
2026-02-03T1300,1275A,117.2593,31.9376,合肥市,庐阳区,细颗粒物(PM2.5),72,78,120,52,66,95,,40,40,24,68,4,4,0.8,0.9
2026-02-03T1300,1276A,117.345251,31.861615,合肥市,瑶海区,细颗粒物(PM2.5),69,78,111,50,60,98,,41,41,23,71,5,4,0.5,0.7
2026-02-03T1300,1277A,117.3033,31.7967,合肥市,包河区,细颗粒物(PM2.5),82,95,114,60,61,91,,52,52,25,72,7,8,0.8,1
2026-02-03T1300,1278A,117.278,31.7392,合肥市,滨湖新区,细颗粒物(PM2.5),88,100,108,65,59,90,,66,66,18,23,3,2,0.8,0.8
2026-02-03T1300,1279A,117.1324,31.8395,合肥市,高新区,细颗粒物(PM2.5),65,78,102,47,57,98,,62,62,27,44,5,4,0.7,0.8
2026-02-03T1300,3464A,117.3802,31.9148,合肥市,高教基地,颗粒物(PM10),65,80,96,44,47,101,,44,44,25,49,8,6,0.6,0.8
2026-02-03T1300,4098A,117.2518,31.8404,合肥市,中国科学技术大学,细颗粒物(PM2.5),70,83,106,51,59,102,,66,66,16,38,8,8,0.8,0.9
2026-02-03T1300,3614A,79.9241,37.0878,和田地区,地区环保局,颗粒物(PM10),343,454,438,118,123,45,,34,21,34,31,9,7,1.4,1.4
2026-02-03T1300,3615A,79.9132,37.1137,和田地区,市环保局,颗粒物(PM10),455,555,452,110,96,58,,27,18,25,33,9,5,1.2,1.2
2026-02-03T1300,2517A,108.0496,24.6957,河池市,市环保站,,,58,53,34,35,62,,50,49,10,12,,9,0.8,0.8
2026-02-03T1300,4302A,108.0901,24.6945,河池市,上任中路54号,颗粒物(PM10),52,54,57,32,36,56,,36,36,10,15,17,12,1.0,1
2026-02-03T1300,1697A,114.6962,23.7538,河源市,东埔,,43,39,32,30,20,87,,60,60,13,20,7,6,0.5,0.5
2026-02-03T1300,1698A,114.6895,23.7232,河源市,老城,,42,42,36,23,21,86,,54,54,11,17,7,6,0.6,0.6
2026-02-03T1300,3374A,115.5562,35.089,菏泽市,定陶老年大学,细颗粒物(PM2.5),120,124,148,91,113,96,,67,62,18,26,6,7,0.6,0.6
2026-02-03T1300,4114A,115.4239,35.2593,菏泽市,黄河路600号,细颗粒物(PM2.5),118,139,145,89,104,103,,86,80,20,32,5,5,0.6,0.8
2026-02-03T1300,4115A,115.5025,35.2727,菏泽市,菏泽市人社局,细颗粒物(PM2.5),123,133,139,93,102,92,,77,77,22,30,9,9,0.7,0.8
2026-02-03T1300,4184A,115.479691,35.244011,菏泽市,永昌路1号,细颗粒物(PM2.5),118,135,137,89,96,101,,85,85,25,35,5,5,0.6,0.7
2026-02-03T1300,4193A,115.471542,35.280012,菏泽市,长城路999号,细颗粒物(PM2.5),107,129,134,80,92,93,,90,85,24,29,6,6,0.8,0.9
2026-02-03T1300,2514A,111.5264,24.4178,贺州市,环保小区,颗粒物(PM10),59,67,51,38,32,67,,45,45,26,18,7,5,0.7,0.6
2026-02-03T1300,2515A,111.561,24.4074,贺州市,政协大楼,颗粒物(PM10),58,66,48,38,31,67,,49,49,23,16,14,12,0.8,0.7
2026-02-03T1300,3534A,111.4744,24.455,贺州市,西湾,颗粒物(PM10),56,62,54,33,31,77,,46,46,20,22,10,10,0.9,0.8
2026-02-03T1300,2385A,114.17,35.9019,鹤壁市,市监测站,细颗粒物(PM2.5),179,171,136,135,107,60,,44,44,39,30,9,5,1.0,1
2026-02-03T1300,2386A,114.2953,35.7512,鹤壁市,市交警支队,细颗粒物(PM2.5),165,174,155,125,118,53,,67,54,42,35,5,7,0.9,0.8
2026-02-03T1300,2387A,114.2877,35.7302,鹤壁市,迎宾馆,细颗粒物(PM2.5),162,178,156,123,116,59,,67,56,40,35,8,8,1.0,1
2026-02-03T1300,3474A,114.2616,35.6824,鹤壁市,大新区,细颗粒物(PM2.5),173,,60,131,129,56,,35,35,43,59,10,10,1.2,1.1
2026-02-03T1300,3596A,114.1573,35.9607,鹤壁市,南山宾馆,细颗粒物(PM2.5),160,171,138,122,110,65,,74,66,32,22,10,9,0.8,0.7
2026-02-03T1300,2244A,130.2537,47.3416,鹤岗市,哈啤分公司,,32,26,34,22,29,89,,73,73,8,11,7,7,0.5,0.5
2026-02-03T1300,2245A,130.2683,47.3087,鹤岗市,斯达机电,,38,36,47,26,27,79,,69,69,8,13,7,7,0.5,0.7
2026-02-03T1300,2246A,130.3114,47.3388,鹤岗市,东山纸板厂,,30,24,36,21,31,86,,69,69,9,17,10,11,0.5,0.6
2026-02-03T1300,2263A,127.4832,50.2524,黑河市,交通局,,26,26,38,14,23,78,,60,60,7,21,6,9,0.4,0.5
2026-02-03T1300,2264A,127.5146,50.2339,黑河市,环保局,,21,18,33,3,23,67,,48,42,15,27,13,10,0.5,0.6
2026-02-03T1300,1074A,115.6839,37.754,衡水市,电机北厂,细颗粒物(PM2.5),144,183,100,110,75,97,,62,62,,34,12,8,0.9,0.7
2026-02-03T1300,1075A,115.6303,37.7318,衡水市,市监测站,细颗粒物(PM2.5),129,166,102,98,78,102,,50,50,27,39,9,9,0.8,0.7
2026-02-03T1300,3188A,115.6684,37.7216,衡水市,市城管局,细颗粒物(PM2.5),124,187,104,94,72,100,,59,59,31,46,13,11,0.9,0.8
2026-02-03T1300,3459A,115.599,37.5491,衡水市,地表水厂,细颗粒物(PM2.5),147,181,112,112,91,107,,44,44,18,58,10,9,0.6,0.7
2026-02-03T1300,2457A,112.6209,26.9268,衡阳市,衡阳化工总厂,颗粒物(PM10),63,76,66,35,41,89,,69,69,16,22,11,10,0.9,0.9
2026-02-03T1300,2458A,112.621,26.8957,衡阳市,珠晖区环保局,颗粒物(PM10),57,64,64,35,39,87,,60,60,17,31,7,7,1.2,1.1
2026-02-03T1300,2459A,112.628,26.8654,衡阳市,市委党校,颗粒物(PM10),61,72,60,37,36,82,,67,64,11,15,10,12,1.1,1.2
2026-02-03T1300,2460A,112.6007,26.8977,衡阳市,市监测站,颗粒物(PM10),62,73,89,34,43,85,,65,65,17,27,9,9,1.2,1.2
2026-02-03T1300,2461A,112.5658,26.9013,衡阳市,真空机电公司,,,79,80,47,48,79,,61,61,23,31,11,11,,1.2
2026-02-03T1300,3399A,112.6703,26.8817,衡阳市,师范学院,颗粒物(PM10),56,62,65,30,35,89,,66,66,20,24,5,5,0.6,0.6
2026-02-03T1300,3038A,103.3757,23.3679,红河哈尼族彝族自治州,州图书馆,,21,19,18,10,14,66,,62,62,5,8,6,6,0.6,0.8
2026-02-03T1300,4154A,103.401,23.3561,红河哈尼族彝族自治州,蒙自市朝阳路,,22,,16,13,17,70,,56,56,3,6,7,6,0.4,0.6
2026-02-03T1300,1090A,111.6506,40.7517,呼和浩特市,呼市一监,,48,48,38,30,18,45,,27,27,28,36,16,9,0.6,0.7
2026-02-03T1300,1094A,111.7516,40.8369,呼和浩特市,如意水处理厂,,43,43,41,22,22,54,,20,20,26,47,18,12,0.4,0.4
2026-02-03T1300,1095A,111.727798,40.806187,呼和浩特市,二十九中,,45,45,38,20,19,46,,23,23,26,40,18,12,0.6,0.5
2026-02-03T1300,1097A,111.717,40.7617,呼和浩特市,化肥厂生活区,,44,44,43,19,21,50,,27,27,30,43,15,8,0.5,0.6
2026-02-03T1300,3699A,111.6519,40.8389,呼和浩特市,海东办,颗粒物(PM10),51,51,49,24,26,43,,18,18,33,46,13,7,0.6,0.7
2026-02-03T1300,4275A,111.591512,40.827312,呼和浩特市,成吉思汗西街8号,颗粒物(PM10),56,61,40,30,18,38,,17,17,38,43,14,9,0.7,0.6
2026-02-03T1300,4276A,111.6597,40.8077,呼和浩特市,公园东路75号,颗粒物(PM10),53,56,43,24,20,46,,24,24,38,48,14,8,0.8,0.7
2026-02-03T1300,4277A,111.5427,40.7846,呼和浩特市,金海路35号,颗粒物(PM10),52,54,40,28,19,43,,18,18,37,46,16,9,0.9,0.7
2026-02-03T1300,3061A,119.7511,49.1576,呼伦贝尔市,国华电力东,,,23,27,14,16,82,,75,72,,19,6,6,0.3,0.4
2026-02-03T1300,4279A,119.7569,49.2222,呼伦贝尔市,伊敏大街东7号,,26,15,23,9,13,81,,75,75,1,6,8,8,0.4,0.4
2026-02-03T1300,1250A,120.075,30.867,湖州市,城西水厂,细颗粒物(PM2.5),112,112,104,84,73,100,,45,45,30,56,6,6,0.6,0.7
2026-02-03T1300,2873A,120.083,30.8929,湖州市,仁皇山新区,细颗粒物(PM2.5),117,112,104,88,74,96,,45,45,37,49,7,6,0.8,0.9
2026-02-03T1300,2907A,120.1846,30.8592,湖州市,吴兴区站,细颗粒物(PM2.5),105,107,110,79,93,98,,47,47,20,47,6,5,0.6,0.7
2026-02-03T1300,3562A,120.4146,30.8538,湖州市,南浔区站,细颗粒物(PM2.5),74,70,103,54,75,103,,61,61,19,42,6,7,0.5,0.8
2026-02-03T1300,1607A,120.904878,40.721091,葫芦岛市,龙港区,细颗粒物(PM2.5),80,88,47,59,28,56,,36,36,38,37,13,14,1.2,0.8
2026-02-03T1300,1608A,120.8382,40.7521,葫芦岛市,化工街,颗粒物(PM10),54,58,62,32,35,71,,31,31,20,54,17,23,0.5,0.7
2026-02-03T1300,1609A,120.8339,40.7078,葫芦岛市,新区,细颗粒物(PM2.5),80,75,44,59,28,56,,29,29,38,50,15,17,1.1,0.8
2026-02-03T1300,1610A,120.8697,40.7679,葫芦岛市,东城区,颗粒物(PM10),69,88,65,37,43,73,,29,29,24,52,12,20,0.9,1.3
2026-02-03T1300,2483A,109.9297,27.5383,怀化市,河西地税局,颗粒物(PM10),67,84,90,45,45,78,,69,69,18,23,2,2,/,/
2026-02-03T1300,2484A,109.9783,27.5342,怀化市,市四医院,颗粒物(PM10),67,83,97,40,46,80,,57,57,14,22,7,9,0.5,0.6
2026-02-03T1300,2485A,109.9971,27.5579,怀化市,监测楼,细颗粒物(PM2.5),74,81,95,54,55,72,,52,52,18,28,8,5,0.2,0.4
2026-02-03T1300,1210A,119.0566,33.5991,淮安市,钵池山,细颗粒物(PM2.5),104,97,62,78,46,81,,59,59,22,26,10,8,0.7,0.5
2026-02-03T1300,1211A,119.0083,33.578,淮安市,北京南路,细颗粒物(PM2.5),104,105,68,78,45,85,,57,57,20,26,9,8,0.9,0.7
2026-02-03T1300,1212A,118.9938,33.6083,淮安市,市监测站,细颗粒物(PM2.5),109,100,62,82,49,86,,64,63,23,24,12,10,0.9,0.6
2026-02-03T1300,1213A,119.135,33.5038,淮安市,楚州区监测站,细颗粒物(PM2.5),117,103,70,88,52,86,,35,35,22,43,9,6,0.9,0.6
2026-02-03T1300,3426A,118.8757,33.2897,淮安市,新华书店,细颗粒物(PM2.5),108,111,91,81,73,82,,55,55,22,30,10,9,0.8,0.6
2026-02-03T1300,4092A,119.119691,33.550006,淮安市,枚皋中路89号,细颗粒物(PM2.5),125,116,69,95,54,94,,56,56,20,26,12,10,1.1,0.9
2026-02-03T1300,4206A,119.028838,33.631911,淮安市,承德北路606号,细颗粒物(PM2.5),102,114,77,76,48,87,,67,67,23,27,10,8,1.0,0.7
2026-02-03T1300,2282A,116.8005,33.9749,淮北市,监测站,细颗粒物(PM2.5),120,157,164,91,116,100,,64,64,17,23,7,6,0.9,1
2026-02-03T1300,2283A,116.8094,33.9008,淮北市,烈山区政府,细颗粒物(PM2.5),114,116,156,86,119,101,,66,66,20,24,8,5,0.6,0.7
2026-02-03T1300,4017A,116.7926,33.9534,淮北市,市博物馆,细颗粒物(PM2.5),129,150,171,98,122,98,,69,67,14,17,9,8,0.9,1
2026-02-03T1300,4100A,116.8322,33.9884,淮北市,杜集区第一实验学校,,,,164,,125,78,,62,60,21,19,7,5,,0.9
2026-02-03T1300,2277A,116.8304,32.7726,淮南市,潘集区政府,细颗粒物(PM2.5),84,93,139,62,82,104,,52,52,16,32,9,6,0.6,0.7
2026-02-03T1300,2279A,116.8569,32.5949,淮南市,谢家集区政府,,,83,107,69,69,90,,65,65,,22,8,8,0.8,0.8
2026-02-03T1300,2280A,116.8279,32.6333,淮南市,八公山区政府,细颗粒物(PM2.5),94,94,115,70,75,90,,61,61,22,25,6,6,0.7,0.8
2026-02-03T1300,2894A,117.0561,32.6536,淮南市,经济技术开发区消防队,细颗粒物(PM2.5),89,103,123,66,80,99,,56,56,19,34,6,5,0.5,0.6
2026-02-03T1300,3329A,117.011,32.5891,淮南市,山南新区,细颗粒物(PM2.5),88,89,114,65,79,106,,63,63,21,28,8,7,0.5,0.6
2026-02-03T1300,4209A,117.003137,32.644456,淮南市,国庆中路369号,细颗粒物(PM2.5),89,87,118,66,79,88,,59,59,17,27,12,10,0.6,0.7
2026-02-03T1300,2446A,114.9021,30.474,黄冈市,职工中心,,,,75,,59,75,,44,44,19,25,,4,0.8,0.7
2026-02-03T1300,2929A,114.8858,30.4519,黄冈市,红卫路,细颗粒物(PM2.5),74,64,74,54,61,81,,58,58,20,24,7,6,0.6,0.6
2026-02-03T1300,3398A,114.9134,30.4446,黄冈市,市林业局,细颗粒物(PM2.5),70,75,83,51,59,67,,43,43,22,24,4,4,0.7,0.7
2026-02-03T1300,2672A,102.02,35.5101,黄南藏族自治州,同仁县隆务镇,细颗粒物(PM2.5),64,53,76,46,48,80,,65,65,13,10,10,10,0.6,0.6
2026-02-03T1300,2295A,118.2905,29.6965,黄山市,延安路89号,细颗粒物(PM2.5),64,60,43,46,31,82,,34,34,12,13,4,4,0.7,0.7
2026-02-03T1300,2297A,118.1369,30.2755,黄山市,黄山区政府5号楼,,45,45,43,23,24,63,,29,29,10,10,2,2,0.5,0.7
2026-02-03T1300,4210A,118.335445,29.720283,黄山市,滨江东路7-2号,颗粒物(PM10),58,66,58,39,31,100,,40,40,10,13,/,/,/,/
2026-02-03T1300,2423A,115.0547,30.2332,黄石市,沈家营,颗粒物(PM10),62,74,79,38,47,73,,39,39,9,33,9,8,1.1,1
2026-02-03T1300,2426A,114.899,30.211,黄石市,铁山,,,62,67,43,51,76,,73,73,13,25,,7,0.5,1
2026-02-03T1300,2427A,115.0259,30.2108,黄石市,团城山,,,67,76,37,52,53,,26,26,9,30,,7,0.8,0.9
2026-02-03T1300,3149A,115.0174,30.1591,黄石市,笔架山北路,颗粒物(PM10),70,89,110,37,57,76,,53,53,17,21,7,8,0.8,1
2026-02-03T1300,4185A,115.078022,30.21118,黄石市,磁湖东路29号,细颗粒物(PM2.5),63,60,77,45,61,78,,37,37,6,30,6,7,1.0,1.1
2026-02-03T1300,1392A,114.4181,23.0528,惠州市,河南岸金山湖子站,颗粒物(PM10),51,51,35,32,19,92,,60,60,11,19,4,4,0.8,0.8
2026-02-03T1300,1393A,114.4055,23.0824,惠州市,下埔横江三路子站,,47,47,34,26,19,98,,71,71,10,14,7,7,0.5,0.4
2026-02-03T1300,1395A,114.4645,22.7832,惠州市,惠阳区承修路船湖子站,,50,50,46,31,26,96,,52,52,17,30,7,7,0.7,0.7
2026-02-03T1300,1396A,114.5316,22.7423,惠州市,大亚湾管委会子站,,,60,43,35,25,105,,51,51,,31,7,6,0.6,0.7
2026-02-03T1300,3314A,114.4334,22.8134,惠州市,惠阳秋长,,36,36,42,24,24,115,,68,68,12,26,/,/,/,/
2026-02-03T1300,3452A,114.6521,22.7755,惠州市,大亚湾霞涌,,35,35,36,24,21,110,,62,62,13,22,/,/,/,/
2026-02-03T1300,4300A,114.4089,23.1147,惠州市,文华一路1号,颗粒物(PM10),51,51,33,28,19,98,,70,70,13,16,/,/,/,/
2026-02-03T1300,2240A,130.9618,45.2926,鸡西市,环保局,颗粒物(PM10),63,76,39,24,19,86,,75,75,8,10,8,6,0.3,0.3
2026-02-03T1300,2243A,130.9294,45.2959,鸡西市,第一中学,,43,43,31,22,19,85,,79,79,7,7,4,4,0.4,0.4
2026-02-03T1300,3707A,131.0069,45.2988,鸡西市,欧美日汽修厂,,43,43,42,20,25,80,,66,66,9,16,10,10,0.5,1
2026-02-03T1300,2367A,114.9753,27.0803,吉安市,红声器材厂,,,,52,,39,97,,58,58,,18,10,9,,0.7
2026-02-03T1300,2369A,114.9903,27.1313,吉安市,市环境监测站,,48,46,49,33,37,87,,61,61,18,18,12,8,/,/
2026-02-03T1300,2370A,115.009527,27.096792,吉安市,青原区法院,颗粒物(PM10),52,53,52,31,37,90,,59,59,18,17,11,10,0.7,0.7
2026-02-03T1300,1772A,126.54,43.8622,吉林市,哈达湾,,35,35,42,17,29,102,,84,84,10,15,9,11,0.9,0.9
2026-02-03T1300,1773A,126.5843,43.8358,吉林市,东局子,,26,26,41,17,29,82,,70,70,14,16,7,7,0.9,1
2026-02-03T1300,1774A,126.5051,43.8243,吉林市,电力学院,,30,22,40,17,31,95,,76,76,12,19,9,9,0.7,0.8
2026-02-03T1300,1775A,126.6133,43.8971,吉林市,江北,,38,38,51,20,27,79,,71,71,18,20,9,9,0.6,0.8
2026-02-03T1300,1776A,126.5549,43.8304,吉林市,江南公园,,31,31,43,19,33,89,,72,72,10,16,9,9,0.5,0.6
2026-02-03T1300,2868A,126.4737,43.953,吉林市,九站,,,36,39,21,30,88,,76,76,14,20,,7,0.8,0.8
2026-02-03T1300,1299A,116.9866,36.6118,济南市,科干所,细颗粒物(PM2.5),108,134,88,81,54,105,,103,103,,26,8,14,0.7,0.6
2026-02-03T1300,1300A,116.9379,36.6652,济南市,农科所,细颗粒物(PM2.5),140,154,98,107,66,99,,81,81,21,39,12,17,0.8,0.9
2026-02-03T1300,1301A,117.1265,36.6736,济南市,开发区,细颗粒物(PM2.5),97,93,84,72,56,115,,106,106,16,40,5,5,0.8,0.8
2026-02-03T1300,1303A,117.0616,36.6865,济南市,省种子仓库,细颗粒物(PM2.5),107,129,94,80,57,116,,79,79,14,49,6,7,0.6,0.8
2026-02-03T1300,1304A,116.9495185,36.644937,济南市,机床二厂,细颗粒物(PM2.5),134,151,102,102,65,101,,83,83,19,41,12,22,0.5,0.6
2026-02-03T1300,1305A,117.0496,36.6629,济南市,市监测站,细颗粒物(PM2.5),112,120,88,84,59,113,,103,103,14,35,5,5,0.8,0.8
2026-02-03T1300,1306A,116.7674,36.5458,济南市,长清党校,颗粒物(PM10),102,154,86,,54,94,,85,85,30,41,8,6,1.0,0.8
2026-02-03T1300,1961A,117.5323,36.6865,济南市,东山小学,细颗粒物(PM2.5),114,142,77,86,40,109,,84,84,23,34,13,6,0.9,0.5
2026-02-03T1300,3059A,117.7181,36.205,济南市,泰兴公司,细颗粒物(PM2.5),139,141,99,106,59,102,,42,42,27,49,10,10,1.4,1.2
2026-02-03T1300,3064A,117.6861,36.2172,济南市,莱芜战役纪念馆,细颗粒物(PM2.5),158,151,91,120,61,100,,30,30,,54,11,13,,1.1
2026-02-03T1300,3494A,117.1673,36.9782,济南市,济阳区政府,,,,90,,54,87,,53,53,16,53,8,8,,0.8
2026-02-03T1300,3495A,117.1168,36.6299,济南市,锦屏中学,细颗粒物(PM2.5),97,93,74,72,48,114,,107,107,14,22,4,4,0.5,0.4
2026-02-03T1300,4108A,117.7107,36.2385,济南市,山财大街5号,细颗粒物(PM2.5),134,144,80,102,50,105,,47,47,38,63,16,16,1.1,1
2026-02-03T1300,4109A,116.9744,36.6889,济南市,无影山路12号,细颗粒物(PM2.5),138,158,99,105,64,97,,82,82,14,36,11,13,1.0,1
2026-02-03T1300,1653A,116.6229,35.4288,济宁市,火炬城,细颗粒物(PM2.5),175,161,119,132,94,73,,52,52,26,30,,4,0.9,0.8
2026-02-03T1300,3500A,116.5808,35.3703,济宁市,北湖一中,细颗粒物(PM2.5),173,152,112,131,92,71,,55,52,29,30,6,5,1.1,0.8
2026-02-03T1300,3501A,116.8251,35.5592,济宁市,服务中心,细颗粒物(PM2.5),144,188,131,110,91,82,,45,45,17,39,6,6,1.0,0.9
2026-02-03T1300,3678A,116.5907,35.4054,济宁市,市第七中学,细颗粒物(PM2.5),168,154,128,127,103,81,,48,48,29,47,11,11,0.9,0.9
2026-02-03T1300,4111A,116.6075,35.4566,济宁市,任和路,细颗粒物(PM2.5),160,158,133,122,89,80,,61,61,28,40,7,6,0.9,0.7
2026-02-03T1300,4112A,116.5648,35.3921,济宁市,文体南路1号,细颗粒物(PM2.5),172,158,136,130,97,77,,55,55,30,37,5,5,0.9,0.8
2026-02-03T1300,2255A,130.2749,46.8028,佳木斯市,佳纺,,,81,46,29,30,81,,74,74,,9,7,6,0.4,0.5
2026-02-03T1300,2257A,130.3258,46.7975,佳木斯市,环保局,颗粒物(PM10),54,57,44,32,29,85,,76,76,11,14,8,8,0.2,0.2
2026-02-03T1300,4285A,130.363,46.806,佳木斯市,顺和街,颗粒物(PM10),52,53,43,30,31,78,,72,72,14,15,11,11,0.4,0.5
2026-02-03T1300,4286A,130.3952,46.8268,佳木斯市,长安路196号,颗粒物(PM10),54,58,46,26,31,85,,76,76,11,14,8,7,0.7,0.6
2026-02-03T1300,1252A,120.7439,30.778,嘉兴市,清河小学,细颗粒物(PM2.5),74,75,113,54,82,103,,64,64,22,44,8,7,0.2,0.5
2026-02-03T1300,1253A,120.7261,30.7477,嘉兴市,嘉兴学院,细颗粒物(PM2.5),72,74,110,52,74,115,,62,62,16,42,6,5,0.6,0.9
2026-02-03T1300,2872A,120.7845,30.7524,嘉兴市,南湖区残联,细颗粒物(PM2.5),75,69,104,55,79,112,,67,67,17,44,6,5,0.4,0.7
2026-02-03T1300,3407A,120.6915,30.7741,嘉兴市,秀洲住建,细颗粒物(PM2.5),72,76,106,52,72,119,,64,64,18,42,7,7,0.5,0.7
2026-02-03T1300,1945A,98.291,39.7705,嘉峪关市,气象局,颗粒物(PM10),82,114,109,30,31,80,,76,70,7,11,8,12,0.3,0.4
2026-02-03T1300,2884A,98.2672,39.7978,嘉峪关市,酒钢宾馆,颗粒物(PM10),102,153,118,38,35,83,,72,66,5,15,12,23,0.4,1
2026-02-03T1300,3248A,98.2644,39.7723,嘉峪关市,雄关区,颗粒物(PM10),78,105,95,38,33,82,,67,65,11,19,9,13,0.2,0.5
2026-02-03T1300,1383A,113.1063,22.6058,江门市,北街,颗粒物(PM10),58,66,56,40,31,110,,42,42,29,55,/,/,/,/
2026-02-03T1300,1384A,113.073,22.5835,江门市,西区,细颗粒物(PM2.5),62,70,60,44,32,110,,45,45,30,48,/,/,/,/
2026-02-03T1300,1385A,113.0218,22.531,江门市,圭峰西,细颗粒物(PM2.5),55,58,50,39,28,113,,53,53,27,38,/,/,/,/
2026-02-03T1300,1386A,113.0826,22.5947,江门市,东湖,颗粒物(PM10),65,79,53,40,30,108,,44,44,32,43,7,7,0.6,0.7
2026-02-03T1300,3311A,113.1077,22.5647,江门市,江海富民,细颗粒物(PM2.5),59,60,56,42,32,113,,42,42,33,60,/,/,0.6,0.7
2026-02-03T1300,3449A,113.0496,22.4669,江门市,新会银湖,,,66,55,46,37,,,19,19,19,37,8,8,0.6,0.7
2026-02-03T1300,3335A,113.3137,35.2643,焦作市,马村街道办,细颗粒物(PM2.5),145,151,146,111,95,82,,66,46,32,26,11,7,1.0,1
2026-02-03T1300,3336A,113.2464,35.2374,焦作市,焦作技师学院,细颗粒物(PM2.5),133,155,139,101,98,81,,64,49,34,30,,9,0.9,1.1
2026-02-03T1300,3477A,113.1656,35.2536,焦作市,中站许衡医院,细颗粒物(PM2.5),135,134,136,103,92,71,,82,64,46,29,18,10,1.0,0.9
2026-02-03T1300,3981A,113.2456,35.18,焦作市,原李万街道办,细颗粒物(PM2.5),137,178,148,104,104,77,,56,38,31,29,20,13,0.8,0.9
2026-02-03T1300,4264A,113.234,35.219,焦作市,新安路1731号,细颗粒物(PM2.5),138,151,151,105,97,83,,65,46,31,28,16,10,0.6,0.7
2026-02-03T1300,4295A,113.2722,35.2121,焦作市,人民路3066号,细颗粒物(PM2.5),143,160,150,109,104,76,,54,38,35,28,15,9,,1.1
2026-02-03T1300,1708A,116.3701,23.5345,揭阳市,新兴,颗粒物(PM10),54,58,44,34,27,99,,54,54,20,23,9,9,0.8,0.7
2026-02-03T1300,1709A,116.3261,23.5442,揭阳市,西马,颗粒物(PM10),55,59,48,35,29,106,,55,55,16,20,7,6,0.7,0.7
2026-02-03T1300,1710A,116.361,23.5627,揭阳市,东兴,颗粒物(PM10),57,63,44,36,29,105,,53,53,17,20,10,10,/,/
2026-02-03T1300,1711A,116.4151,23.5295,揭阳市,渔湖,,50,50,42,33,28,116,,60,60,17,20,7,6,/,/
2026-02-03T1300,3320A,116.4028,23.5699,揭阳市,曲溪,,50,47,44,35,29,112,,56,56,15,19,13,11,0.7,0.7
2026-02-03T1300,1944A,102.1691,38.5166,金昌市,天庆家园,颗粒物(PM10),60,70,105,28,46,90,,54,54,9,17,17,12,0.6,0.8
2026-02-03T1300,4022A,102.1648,38.5369,金昌市,金川区人防中心,颗粒物(PM10),70,90,103,34,41,91,,59,59,8,14,26,16,0.5,0.6
2026-02-03T1300,4239A,102.193042,38.531887,金昌市,长春路96号,颗粒物(PM10),67,84,96,34,39,83,,47,47,8,17,26,14,0.7,0.8
2026-02-03T1300,1262A,119.6478,29.0773,金华市,十五中,臭氧1小时(O3_1h),102,86,73,56,48,204,,54,54,21,42,,4,0.6,0.6
2026-02-03T1300,1263A,119.6859,29.1032,金华市,监测站,细颗粒物(PM2.5),83,86,80,61,50,83,,24,24,22,47,3,2,0.5,0.5
2026-02-03T1300,3659A,119.656,29.1132,金华市,气象局,细颗粒物(PM2.5),70,80,78,51,49,86,,30,30,24,51,4,4,0.9,0.8
2026-02-03T1300,1767A,121.1114,41.0879,锦州市,南山,颗粒物(PM10),57,63,79,34,65,61,,20,20,40,55,19,22,0.9,1.7
2026-02-03T1300,1768A,121.060361,40.842794,锦州市,开发区,颗粒物(PM10),107,164,117,61,41,45,,19,19,53,61,18,29,1.1,0.9
2026-02-03T1300,1769A,121.1836,41.1118,锦州市,百股街道,颗粒物(PM10),98,145,66,52,48,52,,19,19,55,60,19,14,1.1,1.3
2026-02-03T1300,1770A,121.1176,41.1224,锦州市,天安街道,颗粒物(PM10),81,112,79,57,59,57,,26,26,48,46,16,17,1.3,1.4
2026-02-03T1300,1771A,121.1303,41.1385,锦州市,北湖公园,,,,74,,53,53,,23,23,54,52,22,25,1.1,1.3
2026-02-03T1300,2160A,112.8496,35.5051,晋城市,自来水公司,颗粒物(PM10),84,117,111,53,61,72,,44,41,30,34,11,9,1.2,1.1
2026-02-03T1300,2162A,112.8509,35.4886,晋城市,市环保局,细颗粒物(PM2.5),85,95,111,63,71,67,,32,32,30,39,9,7,0.8,0.7
2026-02-03T1300,3620A,112.8258,35.4804,晋城市,泽州一中,颗粒物(PM10),98,146,113,69,71,74,,59,39,25,24,7,6,1.0,0.9
2026-02-03T1300,4078A,112.8246,35.5152,晋城市,前书院路,颗粒物(PM10),98,145,130,57,60,63,,54,41,34,28,10,8,0.9,0.9
2026-02-03T1300,4079A,112.8864,35.4773,晋城市,祥云街666号,细颗粒物(PM2.5),88,97,117,65,81,68,,53,32,28,33,12,10,0.8,0.8
2026-02-03T1300,2174A,112.6992,37.6984,晋中市,榆次区政府,颗粒物(PM10),62,73,69,39,32,67,,26,26,27,40,24,17,0.8,0.6
2026-02-03T1300,2865A,112.7195,37.683,晋中市,榆次三中,细颗粒物(PM2.5),62,68,58,44,29,72,,26,26,25,40,27,17,0.9,0.5
2026-02-03T1300,4080A,112.7375,37.7215,晋中市,广安街188号,颗粒物(PM10),62,73,81,40,37,70,,22,22,24,49,32,21,0.9,0.7
2026-02-03T1300,4200A,112.7478,37.6954,晋中市,迎宾街26号,颗粒物(PM10),62,73,58,37,29,75,,34,34,21,28,26,17,0.8,0.6
2026-02-03T1300,2439A,112.2012,31.048,荆门市,竹园小学,细颗粒物(PM2.5),132,151,120,100,81,71,,31,31,56,49,1,2,0.9,0.9
2026-02-03T1300,2440A,112.1968,30.9892,荆门市,掇刀,细颗粒物(PM2.5),120,142,125,91,87,71,,39,39,33,37,6,4,1.0,0.9
2026-02-03T1300,3012A,112.1849,31.0361,荆门市,西山林语,细颗粒物(PM2.5),104,136,101,78,68,75,,61,61,40,25,1,2,1.0,0.9
2026-02-03T1300,3547A,112.1631,31.0134,荆门市,龙泉中学南校,颗粒物(PM10),96,141,115,71,67,78,,76,66,36,23,7,5,0,0
2026-02-03T1300,4124A,112.2213,31.0654,荆门市,新台西路6号,细颗粒物(PM2.5),137,128,133,104,94,65,,28,28,46,50,10,9,1.1,1.1
2026-02-03T1300,1844A,112.2493,30.3198,荆州市,市图书馆,细颗粒物(PM2.5),117,106,100,88,76,58,,29,29,36,50,21,9,0.9,1
2026-02-03T1300,1845A,112.2009,30.3543,荆州市,市委党校,细颗粒物(PM2.5),113,124,108,85,79,44,,21,21,46,57,9,8,1.1,1.1
2026-02-03T1300,3194A,112.2749,30.3124,荆州市,管委会,细颗粒物(PM2.5),113,118,103,85,77,51,,22,22,41,54,34,10,0.9,0.9
2026-02-03T1300,4268A,112.1722,30.3366,荆州市,学苑路85号,细颗粒物(PM2.5),115,97,97,87,77,55,,23,23,39,41,10,10,0.8,0.8
2026-02-03T1300,2343A,117.2114,29.2931,景德镇市,老干部活动中心,,49,49,44,31,25,55,,29,29,10,17,3,4,0.5,0.6
2026-02-03T1300,2344A,117.1893,29.2789,景德镇市,兽医站,,48,48,47,17,23,63,,36,36,12,18,5,4,0.5,0.5
2026-02-03T1300,2346A,117.246,29.2958,景德镇市,陶研所,,37,37,36,22,20,63,,26,26,9,14,3,3,0.5,0.6
2026-02-03T1300,4289A,117.154766,29.256967,景德镇市,青少年活动中心,,42,42,48,26,26,66,,40,40,12,22,3,6,/,/
2026-02-03T1300,1803A,115.9873,29.6816,九江市,十里,细颗粒物(PM2.5),78,92,96,57,55,30,,23,20,54,54,12,8,1.3,1.1
2026-02-03T1300,1804A,115.9583,29.7047,九江市,茅山头,"颗粒物(PM10),细颗粒物(PM2.5)",72,93,92,52,46,39,,22,22,49,50,8,5,1.1,0.7
2026-02-03T1300,1805A,115.9877,29.7295,九江市,西园,细颗粒物(PM2.5),98,,60,73,48,34,,,,46,62,11,6,1.5,0.9
2026-02-03T1300,1808A,115.9112,29.6038,九江市,综合工业园,细颗粒物(PM2.5),98,92,79,73,47,50,,20,20,42,46,8,3,0.8,0.5
2026-02-03T1300,3190A,116.0254,29.6995,九江市,外国语学校,细颗粒物(PM2.5),99,78,83,74,65,38,,24,24,37,43,16,8,1.2,0.9
2026-02-03T1300,4253A,116.010205,29.659402,九江市,莲花大道8号,细颗粒物(PM2.5),100,101,90,75,57,36,,37,26,43,25,9,6,1.0,0.9
2026-02-03T1300,4240A,98.495752,39.733935,酒泉市,玉门东路5号,,,119,127,36,41,72,,49,44,12,16,15,14,,0.5
2026-02-03T1300,4241A,98.5099,39.7506,酒泉市,北大街108号,颗粒物(PM10),84,117,112,37,42,70,,42,42,12,19,15,15,0.6,0.6
2026-02-03T1300,2698A,76.0071,39.466,喀什地区,巡警大队,颗粒物(PM10),146,242,231,100,100,17,,20,20,60,46,8,7,2.1,1.8
2026-02-03T1300,2699A,75.9756,39.4693,喀什地区,吾办,细颗粒物(PM2.5),172,247,215,130,107,24,,18,18,69,53,14,12,2.2,1.7
2026-02-03T1300,4027A,75.9485,39.4688,喀什地区,老干局,颗粒物(PM10),184,318,247,82,102,34,,20,20,31,43,8,6,1.1,2.3
2026-02-03T1300,1824A,114.3389,34.778,开封市,肿瘤医院,细颗粒物(PM2.5),109,117,159,82,119,103,,60,60,23,41,14,12,1.0,1.2
2026-02-03T1300,1826A,114.2884,34.7966,开封市,世纪星幼儿园,细颗粒物(PM2.5),127,100,141,96,120,94,,64,63,23,34,9,7,0.8,0.9
2026-02-03T1300,3147A,114.3434,34.8101,开封市,龙亭公园,细颗粒物(PM2.5),90,113,157,67,96,99,,61,61,25,46,11,10,0.7,1
2026-02-03T1300,3210A,114.3645,34.7955,开封市,汴京公园,,,,160,,114,102,,57,57,19,48,,6,,0.8
2026-02-03T1300,3473A,114.2485,34.8306,开封市,技师学院,细颗粒物(PM2.5),108,120,136,81,101,101,,82,72,22,25,10,9,0.9,1
2026-02-03T1300,3592A,114.4518,34.7503,开封市,祥符区生态环境局,细颗粒物(PM2.5),95,116,167,71,111,108,,51,51,16,49,8,6,0.8,1
2026-02-03T1300,1951A,84.886,45.6029,克拉玛依市,长征新村,细颗粒物(PM2.5),134,143,147,102,109,42,,42,42,47,47,6,6,1.4,1.4
2026-02-03T1300,1952A,84.8894,45.5827,克拉玛依市,南林小区,细颗粒物(PM2.5),139,146,150,106,119,24,,34,28,32,24,4,2,1.5,1.4
2026-02-03T1300,1954A,84.896,44.3328,克拉玛依市,独山子区,细颗粒物(PM2.5),114,170,170,86,103,77,,67,67,22,31,3,2,1.1,1
2026-02-03T1300,1955A,85.6888,46.0909,克拉玛依市,乌尔禾区商贸楼,细颗粒物(PM2.5),125,108,123,95,98,50,,30,30,38,44,8,7,1.4,1.4
2026-02-03T1300,3612A,85.1045,45.6895,克拉玛依市,白碱滩区新站,细颗粒物(PM2.5),140,145,147,107,116,36,,36,28,43,37,10,9,1.4,1.3
2026-02-03T1300,2697A,76.1457,39.7143,克孜勒苏柯尔克孜自治州,市人民政府,颗粒物(PM10),116,181,189,56,59,68,,70,64,8,11,4,4,0.3,0.4
2026-02-03T1300,3665A,76.1654,39.7157,克孜勒苏柯尔克孜自治州,克州文化中心,颗粒物(PM10),120,189,176,,57,60,,69,58,19,12,4,4,0.7,0.7
2026-02-03T1300,1450A,102.8203,24.889,昆明市,呈贡新区,,32,31,33,22,22,83,,65,65,13,14,4,5,0.5,0.5
2026-02-03T1300,1452A,102.7253,25.0904,昆明市,龙泉镇,,28,10,47,9,25,87,,38,38,7,32,2,4,0.3,0.5
2026-02-03T1300,1453A,102.7267,25.0378,昆明市,东风东路,,28,25,37,10,23,88,,60,60,11,19,8,8,0.4,0.4
2026-02-03T1300,1454A,102.6744,25.0671,昆明市,金鼎山,,,,45,,25,,,85,,,23,,3,,0.5
2026-02-03T1300,1455A,102.6643,25.0401,昆明市,碧鸡广场,,28,22,38,11,27,89,,45,45,9,29,5,6,0.3,0.5
2026-02-03T1300,3179A,102.7491,25.012,昆明市,官渡区博物馆,,28,21,34,15,22,89,,59,54,13,18,9,4,0.7,0.7
2026-02-03T1300,3375A,102.8016,24.8336,昆明市,青年创业园,,32,24,34,22,21,96,,56,56,5,14,6,6,0.5,0.6
2026-02-03T1300,3550A,102.8,24.9787,昆明市,昆明学院,,32,32,38,15,22,95,,67,67,12,15,8,5,0.6,0.7
2026-02-03T1300,3551A,102.5969,24.6738,昆明市,晋宁区生态环境分局,,30,11,35,10,23,94,,68,68,3,10,1,2,0.3,0.5
2026-02-03T1300,3552A,102.6673,24.9861,昆明市,云天化总部,,29,24,36,10,22,91,,48,48,10,22,10,7,0.5,0.5
2026-02-03T1300,1456A,91.132,29.6515,拉萨市,八廓街,,26,14,26,6,12,82,,60,60,7,20,7,8,0.4,0.6
2026-02-03T1300,1457A,91.1221,29.6748,拉萨市,市环保局,,25,19,36,6,17,78,,56,51,10,24,7,9,0.3,0.8
2026-02-03T1300,1458A,91.0874,29.6476,拉萨市,区监测站,,25,14,16,3,8,80,,71,66,7,16,4,4,0.9,0.9
2026-02-03T1300,1459A,91.1774,29.6541,拉萨市,西藏大学,,24,15,23,6,11,76,,56,56,11,23,4,5,0.5,0.8
2026-02-03T1300,1460A,90.9798,29.6586,拉萨市,区辐射站,,,16,40,10,20,74,,40,39,,26,4,4,0.4,0.7
2026-02-03T1300,1461A,91.0831,29.6292,拉萨市,拉萨火车站,,26,7,14,6,7,81,,75,72,4,9,4,4,0.3,0.3
2026-02-03T1300,2520A,109.2203,23.7252,来宾市,来宾技工学校,"颗粒物(PM10),细颗粒物(PM2.5)",69,87,85,50,60,85,,33,33,15,25,13,13,0.7,0.9
2026-02-03T1300,3535A,109.1781,23.7293,来宾市,兴宾区政府,颗粒物(PM10),66,82,82,46,55,90,,45,45,13,15,9,7,0.9,0.9
2026-02-03T1300,4002A,109.2312,23.7428,来宾市,中南小学,细颗粒物(PM2.5),67,72,77,48,56,88,,32,32,14,30,8,7,0.9,1
2026-02-03T1300,1479A,103.8309,36.0467,兰州市,铁路设计院,,,,,,,,,,,,,,,,
2026-02-03T1300,3241A,103.7439,36.0841,兰州市,百合公园,颗粒物(PM10),87,123,116,45,70,51,,16,16,43,53,27,15,1.2,1.3
2026-02-03T1300,3242A,103.9613,35.9985,兰州市,和平,颗粒物(PM10),94,138,123,64,59,70,,30,28,24,35,24,15,1.3,1.3
2026-02-03T1300,4236A,103.629272,36.093822,兰州市,庄浪东路808号,,,,125,,65,63,,26,26,42,53,41,24,,1.2
2026-02-03T1300,4237A,103.7251,36.104344,兰州市,安宁西路88号,细颗粒物(PM2.5),120,147,137,91,72,52,,18,18,55,57,32,18,1.3,1
2026-02-03T1300,4238A,103.846982,36.067567,兰州市,北滨河东路1号,细颗粒物(PM2.5),74,92,119,54,62,82,,19,19,20,62,27,14,1.0,1.3
2026-02-03T1300,1067A,116.6712,39.5109,廊坊市,药材公司,细颗粒物(PM2.5),133,119,67,101,53,72,,32,32,40,44,10,4,0.8,0.6
2026-02-03T1300,1068A,116.7215,39.5592,廊坊市,开发区,细颗粒物(PM2.5),132,136,66,100,46,70,,30,27,44,40,11,3,0.9,0.5
2026-02-03T1300,1070A,116.7246,39.5273,廊坊市,北华航天学院,细颗粒物(PM2.5),139,126,68,106,51,70,,30,30,42,39,12,5,0.8,0.6
2026-02-03T1300,2919A,116.7022,39.5454,廊坊市,河北工业大学,细颗粒物(PM2.5),134,127,71,102,49,71,,36,36,38,35,11,4,0.9,0.6
2026-02-03T1300,2536A,103.7629,29.5844,乐山市,牛耳桥,细颗粒物(PM2.5),93,95,90,69,60,73,,53,43,17,21,6,5,1.0,1
2026-02-03T1300,2537A,103.7501,29.6002,乐山市,市第三水厂,细颗粒物(PM2.5),112,104,95,84,65,76,,55,45,16,22,,6,1.2,1.1
2026-02-03T1300,2538A,103.7571,29.5664,乐山市,市监测站,细颗粒物(PM2.5),92,98,89,68,59,69,,48,39,16,18,6,6,0.9,0.8
2026-02-03T1300,3361A,103.7313,29.563,乐山市,理工大学,细颗粒物(PM2.5),99,99,87,74,59,74,,47,38,12,16,4,3,1.0,0.9
2026-02-03T1300,2599A,100.2497,26.8802,丽江市,丽江古城,,,19,20,3,8,86,,73,72,7,11,,10,0.4,0.5
2026-02-03T1300,2600A,100.2203,26.8906,丽江市,市中心,,27,16,17,3,10,86,,76,74,9,10,5,6,0.4,0.4
2026-02-03T1300,1267A,119.9141,28.4513,丽水市,监测站大楼,颗粒物(PM10),53,55,42,27,27,96,,31,31,15,22,5,4,0.4,0.5
2026-02-03T1300,1268A,119.93,28.4589,丽水市,莲都小学,,,49,45,29,26,90,,29,,,21,/,/,/,/
2026-02-03T1300,1269A,119.8794,28.4232,丽水市,余庄前,颗粒物(PM10),53,56,40,35,25,72,,23,23,22,15,6,4,0.4,0.4
2026-02-03T1300,1173A,119.1759,34.5885,连云港市,市环境监测站,细颗粒物(PM2.5),100,102,68,75,54,86,,64,64,17,23,14,12,0.7,0.6
2026-02-03T1300,3000A,119.3577,34.6971,连云港市,德源药业,细颗粒物(PM2.5),98,102,80,73,55,78,,67,66,26,31,7,7,1.0,1
2026-02-03T1300,3007A,119.178,34.8442,连云港市,新城一中,细颗粒物(PM2.5),98,92,88,73,63,85,,70,70,31,52,10,11,1.0,1
2026-02-03T1300,3008A,119.3607,34.7519,连云港市,胡沟管理处,细颗粒物(PM2.5),70,66,72,51,53,64,,85,80,26,32,8,10,0.7,0.7
2026-02-03T1300,3009A,119.1478,34.5913,连云港市,矿山设计院,细颗粒物(PM2.5),92,107,70,68,48,84,,68,68,21,26,9,9,1.0,0.8
2026-02-03T1300,3434A,119.2414,34.6539,连云港市,工贸学校,细颗粒物(PM2.5),103,100,65,77,50,91,,88,83,22,17,12,12,0.7,0.6
2026-02-03T1300,3664A,119.4171,34.734,连云港市,连云街道,细颗粒物(PM2.5),89,90,77,66,56,69,,93,88,38,30,5,7,0.8,0.8
2026-02-03T1300,2573A,102.2629,27.8981,凉山彝族自治州,西昌市政府,,35,35,30,17,22,80,,37,37,12,18,10,8,0.6,0.7
2026-02-03T1300,2574A,102.2686,27.885,凉山彝族自治州,凉山州政府,,34,34,35,22,23,74,,37,37,14,20,10,8,0.2,0.8
2026-02-03T1300,4229A,102.2342,27.8859,凉山彝族自治州,凯乐南路30号,,36,36,38,18,20,68,,34,34,18,20,13,9,0.7,0.7
2026-02-03T1300,2212A,123.1978,41.2036,辽阳市,宏伟区,颗粒物(PM10),107,164,51,43,17,74,,68,68,15,11,10,10,0.8,0.7
2026-02-03T1300,2213A,123.1684,41.2497,辽阳市,新华园,颗粒物(PM10),90,130,46,50,21,75,,66,66,25,23,14,9,0.7,0.6
2026-02-03T1300,2214A,123.2355,41.2663,辽阳市,滨河路,细颗粒物(PM2.5),54,54,36,38,17,70,,67,66,18,16,10,18,0.7,0.7
2026-02-03T1300,4083A,123.153,41.2874,辽阳市,铁西路150号,颗粒物(PM10),98,145,52,48,18,68,,60,60,24,21,16,13,0.9,0.7
2026-02-03T1300,2227A,125.1359,42.8845,辽源市,环保局,,33,33,67,7,43,85,,46,46,9,38,6,7,0.6,1
2026-02-03T1300,4085A,125.0998,42.9134,辽源市,安宁大街333号,,,,51,,29,80,,56,56,9,22,8,10,,0.7
2026-02-03T1300,1625A,115.9789,36.4372,聊城市,区政府,细颗粒物(PM2.5),186,185,125,140,86,69,,62,62,35,40,15,14,1.2,1
2026-02-03T1300,3200A,115.9772,36.4986,聊城市,监控中心,细颗粒物(PM2.5),175,,118,132,91,77,,72,72,33,49,9,9,1.1,1
2026-02-03T1300,3513A,116.0443,36.436,聊城市,九州社区,细颗粒物(PM2.5),176,173,114,133,84,87,,64,64,20,30,7,7,0.9,0.7
2026-02-03T1300,4018A,116.0564,36.4609,聊城市,星美广场,细颗粒物(PM2.5),175,177,126,132,92,83,,64,64,22,31,6,7,1.0,0.9
2026-02-03T1300,4113A,116.0091,36.4495,聊城市,利民路,细颗粒物(PM2.5),168,181,119,127,80,74,,62,62,32,40,12,11,1.1,1
2026-02-03T1300,2632A,94.3683,29.6373,林芝市,林芝监测站,,29,14,15,6,12,91,,89,89,2,2,4,5,0.4,0.4
2026-02-03T1300,2633A,94.3616,29.6634,林芝市,林芝人民医院,,28,12,18,12,13,87,,84,81,2,2,4,5,0.3,0.3
2026-02-03T1300,2603A,100.0779,23.8981,临沧市,市环保局,颗粒物(PM10),56,61,35,28,25,94,,44,44,14,16,8,7,0.6,0.6
2026-02-03T1300,2604A,100.0894,23.882,临沧市,市气象局,颗粒物(PM10),57,63,47,28,25,81,,36,36,16,13,10,10,0.6,0.6
2026-02-03T1300,1733A,111.5552,36.0791,临汾市,临钢医院,细颗粒物(PM2.5),70,71,76,51,42,46,,15,15,30,36,11,7,1.3,0.9
2026-02-03T1300,1734A,111.4984,36.0734,临汾市,技工学校,细颗粒物(PM2.5),68,70,74,49,49,49,,16,16,34,39,11,7,1.6,1.4
2026-02-03T1300,1736A,111.5017,36.0857,临汾市,市委,细颗粒物(PM2.5),65,74,78,47,43,44,,15,15,28,40,12,9,1.1,0.8
2026-02-03T1300,3018A,111.5048,36.1015,临汾市,唐尧大酒店,颗粒物(PM10),64,78,83,42,37,46,,14,14,31,44,10,6,1.5,1.3
2026-02-03T1300,4244A,111.4879,36.053,临汾市,启星学校,,,69,77,55,49,47,,17,17,31,58,,7,0.9,0.7
2026-02-03T1300,4271A,103.2464,35.6123,临夏回族自治州,滨河东路1号,细颗粒物(PM2.5),112,169,178,84,101,82,,29,29,21,35,17,9,1.1,1.6
2026-02-03T1300,4310A,103.207136,35.599807,临夏回族自治州,新华街21号,细颗粒物(PM2.5),115,152,176,87,106,79,,31,31,21,34,16,10,1.0,1.6
2026-02-03T1300,1618A,118.3429,35.0532,临沂市,沂河小区,细颗粒物(PM2.5),148,163,96,113,62,57,,38,38,44,37,22,14,0.8,0.6
2026-02-03T1300,1619A,118.2962,35.0568,临沂市,鲁南制药厂,细颗粒物(PM2.5),156,158,102,119,67,46,,33,33,60,47,23,19,0.9,0.7
2026-02-03T1300,1620A,118.2793,34.9976,临沂市,新光毛纺厂,细颗粒物(PM2.5),142,136,99,108,69,53,,28,28,50,45,20,20,0.9,0.9
2026-02-03T1300,1621A,118.3955,35.0889,临沂市,河东保险公司,细颗粒物(PM2.5),173,151,110,131,81,64,,35,35,45,61,22,12,1.0,0.9
2026-02-03T1300,3370A,118.3563,35.0215,临沂市,十里堡居委,细颗粒物(PM2.5),148,146,88,113,59,62,,40,40,44,43,25,19,0.9,0.7
2026-02-03T1300,3496A,118.359,35.1067,临沂市,南坊新区,细颗粒物(PM2.5),143,149,91,109,63,63,,43,43,52,43,21,13,1.2,0.8
2026-02-03T1300,3860A,118.3915,35.0297,临沂市,皇山花园小区,细颗粒物(PM2.5),158,153,87,120,68,62,,42,42,44,42,24,16,1.0,0.7
2026-02-03T1300,1870A,109.4854,24.3898,柳州市,柳东小学,细颗粒物(PM2.5),64,66,62,46,38,65,,59,56,11,11,12,11,0.8,0.8
2026-02-03T1300,1871A,109.4109,24.3304,柳州市,环保监测站,颗粒物(PM10),68,86,69,42,40,58,,50,36,24,23,10,8,0.9,0.9
2026-02-03T1300,1872A,109.3886,24.3408,柳州市,河西水厂,,,,76,,44,,,75,,,17,,8,,0.6
2026-02-03T1300,1873A,109.4263,24.2951,柳州市,市四中,细颗粒物(PM2.5),65,78,62,47,41,57,,51,44,21,19,12,9,1.0,0.9
2026-02-03T1300,1874A,109.396,24.3658,柳州市,市九中,,,,80,,49,,,37,21,,21,,13,,0.9
2026-02-03T1300,1875A,109.4912,24.3164,柳州市,古亭山,颗粒物(PM10),60,69,58,36,36,75,,48,45,11,17,8,8,0.5,0.5
2026-02-03T1300,3402A,109.5422,24.3994,柳州市,市二中,细颗粒物(PM2.5),63,69,60,45,37,70,,47,47,17,19,12,10,0.7,0.7
2026-02-03T1300,2307A,116.5078,31.7369,六安市,监测大楼,细颗粒物(PM2.5),65,74,87,47,55,89,,52,52,18,26,4,3,0.5,0.5
2026-02-03T1300,2308A,116.4738,31.7642,六安市,皖西学院,细颗粒物(PM2.5),70,76,95,51,59,93,,57,57,18,26,5,5,0.5,0.6
2026-02-03T1300,2309A,116.4997,31.7904,六安市,朝阳厂,细颗粒物(PM2.5),69,83,88,50,58,92,,61,61,17,22,8,6,0.6,0.6
2026-02-03T1300,2310A,116.5566,31.7885,六安市,开发区,颗粒物(PM10),69,88,100,49,64,94,,49,49,28,38,6,6,0.6,0.6
2026-02-03T1300,2577A,104.8293,26.592,六盘水市,黄土坡,,29,25,20,20,14,32,,42,32,20,16,10,7,1.2,1
2026-02-03T1300,2579A,104.8481,26.5898,六盘水市,民中,,22,22,22,13,14,34,,43,32,14,13,5,3,0.9,0.9
2026-02-03T1300,2580A,104.9541,26.5506,六盘水市,双水,,19,,16,13,10,45,,48,40,9,11,3,4,0.7,0.8
2026-02-03T1300,4151A,104.8899,26.5685,六盘水市,钟山大道中段564号,,26,26,20,12,11,31,,41,31,11,9,8,5,1.3,1.2
2026-02-03T1300,2336A,117.022,25.1031,龙岩市,龙岩市监测站,,36,36,33,22,24,80,,47,47,10,15,8,13,0.7,0.8
2026-02-03T1300,2337A,117.0257,25.0662,龙岩市,闽西职业技术学院,,36,36,32,18,20,81,,37,37,11,14,6,10,0.8,0.8
2026-02-03T1300,2338A,117.0195,25.0306,龙岩市,龙岩学院,,39,39,32,18,21,76,,32,32,12,13,5,7,/,/
2026-02-03T1300,2885A,104.9344,33.3827,陇南市,滨江中学,颗粒物(PM10),66,82,87,36,40,75,,63,58,10,12,5,4,0.9,1
2026-02-03T1300,3247A,104.9551,33.3709,陇南市,市总工会,颗粒物(PM10),59,67,82,37,39,72,,63,59,11,12,3,2,1.0,0.9
2026-02-03T1300,2488A,111.9984,27.7346,娄底市,市监测站,颗粒物(PM10),62,73,84,43,46,95,,73,68,17,19,9,7,0.8,0.8
2026-02-03T1300,2491A,111.9888,27.7035,娄底市,市政府,颗粒物(PM10),57,64,78,36,42,81,,58,58,22,27,5,4,0.3,0.4
2026-02-03T1300,4127A,111.9812,27.7591,娄底市,涟钢职大,细颗粒物(PM2.5),55,58,82,39,43,97,,81,68,16,19,7,6,0.8,0.7
2026-02-03T1300,4128A,112.0303,27.7457,娄底市,娄底体校,细颗粒物(PM2.5),62,55,77,44,48,84,,63,63,10,11,4,3,0.3,0.3
2026-02-03T1300,1894A,105.4427,28.9063,泸州市,小市上码头,细颗粒物(PM2.5),63,56,84,45,65,33,,26,26,20,23,6,6,1.2,1.2
2026-02-03T1300,1895A,105.4241,28.8573,泸州市,兰田宪桥,颗粒物(PM10),51,51,86,33,55,41,,22,22,18,27,7,8,0.9,1
2026-02-03T1300,1896A,105.4378,28.8833,泸州市,市环监站,颗粒物(PM10),55,60,97,36,69,37,,22,22,23,29,9,10,0.9,0.9
2026-02-03T1300,4272A,105.3689,28.7783,泸州市,纳溪中医医院,,48,41,83,33,71,49,,31,31,15,22,8,8,0.9,1
2026-02-03T1300,2183A,111.1447,37.5212,吕梁市,环保局,,45,45,69,16,19,54,,18,18,30,47,8,14,0.5,0.5
2026-02-03T1300,2185A,111.1285,37.5338,吕梁市,自来水公司,,,46,70,,26,59,,17,17,,39,,11,0.5,0.6
2026-02-03T1300,2867A,111.1225,37.5093,吕梁市,马茂庄小学,颗粒物(PM10),52,53,73,20,23,45,,15,15,38,47,8,15,0.6,0.5
2026-02-03T1300,1812A,112.3934,34.6517,洛阳市,市委党校,细颗粒物(PM2.5),122,138,107,92,74,74,,31,31,28,45,23,10,1.0,1
2026-02-03T1300,1815A,112.494,34.6883,洛阳市,河南林校,细颗粒物(PM2.5),110,125,107,83,70,87,,30,30,23,44,19,11,0.9,0.9
2026-02-03T1300,1816A,112.3843,34.623,洛阳市,开发区管委会,细颗粒物(PM2.5),128,163,120,97,68,73,,32,32,26,36,14,11,0.9,0.9
2026-02-03T1300,1817A,112.4263,34.6249,洛阳市,市委新办公区,细颗粒物(PM2.5),134,152,111,102,73,66,,29,29,35,42,20,10,0.9,0.7
2026-02-03T1300,3340A,112.6005,34.6323,洛阳市,伊滨,细颗粒物(PM2.5),128,157,122,97,72,72,,27,27,39,52,13,9,0.8,0.8
2026-02-03T1300,3341A,112.495,34.6338,洛阳市,中移产业园,细颗粒物(PM2.5),132,127,103,100,73,66,,20,20,30,45,24,11,1.0,0.9
2026-02-03T1300,3593A,112.5736,34.8993,洛阳市,吉利监测站,细颗粒物(PM2.5),125,126,99,95,74,94,,50,50,30,43,13,9,0.9,0.9
2026-02-03T1300,3635A,112.3678,34.6623,洛阳市,河科大西苑校区,细颗粒物(PM2.5),119,136,104,90,58,89,,41,41,23,50,21,11,,0.9
2026-02-03T1300,3636A,112.4387,34.678,洛阳市,英才小学,细颗粒物(PM2.5),130,164,119,99,73,85,,28,28,40,60,20,11,1.1,1
2026-02-03T1300,4214A,112.460027,34.694929,洛阳市,春都路1号院,细颗粒物(PM2.5),135,181,130,103,75,70,,27,27,35,41,17,10,1.0,0.8
2026-02-03T1300,2399A,114.051,33.5721,漯河市,三五一五工厂,,,144,177,70,103,84,,47,47,21,40,,6,0.9,0.9
2026-02-03T1300,2400A,114.0055,33.5698,漯河市,漯河大学,细颗粒物(PM2.5),97,111,140,72,96,81,,55,55,24,37,8,7,0.8,0.9
2026-02-03T1300,2401A,114.0134,33.5826,漯河市,市水利局,细颗粒物(PM2.5),90,119,152,67,95,71,,46,46,24,31,6,6,0.6,0.7
2026-02-03T1300,2402A,114.0261,33.5697,漯河市,市广电局,细颗粒物(PM2.5),98,122,150,73,107,79,,49,49,16,30,8,7,0.6,0.6
2026-02-03T1300,3478A,113.9691,33.568,漯河市,市图书馆,细颗粒物(PM2.5),99,143,167,74,95,75,,55,55,22,26,9,8,0.8,0.8
2026-02-03T1300,4250A,114.089259,33.588274,漯河市,韶山路11号,"颗粒物(PM10),细颗粒物(PM2.5)",98,145,170,73,103,87,,43,43,19,40,8,7,0.6,0.7
2026-02-03T1300,1798A,118.5084,31.6838,马鞍山市,湖东路四小,细颗粒物(PM2.5),102,114,129,76,87,101,,49,49,17,42,4,7,,1.1
2026-02-03T1300,1799A,118.5019,31.6449,马鞍山市,开发区,细颗粒物(PM2.5),105,111,129,79,88,108,,49,49,15,41,5,6,0.6,1
2026-02-03T1300,3633A,118.4914,31.681,马鞍山市,雨山,细颗粒物(PM2.5),94,120,131,70,81,106,,57,57,18,39,8,7,0.7,1
2026-02-03T1300,4191A,118.527362,31.722269,马鞍山市,慈湖高新区,细颗粒物(PM2.5),98,98,127,73,85,103,,53,53,19,36,7,6,0.7,0.9
2026-02-03T1300,1686A,111.0285,21.469,茂名市,电白南海,颗粒物(PM10),53,56,51,23,24,113,,74,74,16,19,10,11,1.0,1
2026-02-03T1300,1687A,110.9294,21.6533,茂名市,茂石化七小,,46,46,53,20,28,109,,74,74,12,20,7,11,0.6,0.7
2026-02-03T1300,1688A,110.9108,21.6688,茂名市,健康路,,,,47,21,28,127,,85,81,14,20,,16,0.8,1
2026-02-03T1300,1689A,110.8592,21.6826,茂名市,高岭,颗粒物(PM10),56,61,68,25,35,117,,65,61,12,22,11,16,/,/
2026-02-03T1300,3450A,111.0101,21.5165,茂名市,电白水东,,48,48,42,23,25,117,,82,80,20,22,10,11,/,/
2026-02-03T1300,2540A,103.8414,30.0871,眉山市,气象局,细颗粒物(PM2.5),84,83,91,62,53,75,,38,36,18,25,10,10,0.9,0.9
2026-02-03T1300,3148A,103.829,30.0563,眉山市,区人社局,细颗粒物(PM2.5),105,90,86,79,57,74,,40,34,16,25,9,8,0.9,0.9
2026-02-03T1300,4148A,103.8836,30.0695,眉山市,眉职院,细颗粒物(PM2.5),79,97,87,58,48,76,,44,44,14,18,4,4,0.9,0.8
2026-02-03T1300,1690A,116.1248,24.3307,梅州市,梅江月梅,,42,42,33,27,18,73,,26,26,16,24,/,/,/,/
2026-02-03T1300,1691A,116.0798,24.2719,梅州市,梅县新城,,47,47,35,30,21,77,,36,36,18,28,10,8,0.6,0.7
2026-02-03T1300,3315A,116.1234,24.2994,梅州市,梅龙,,,,34,,20,71,,27,27,,24,10,9,,0.7
2026-02-03T1300,1878A,104.7775,31.4741,绵阳市,富乐山,细颗粒物(PM2.5),83,90,86,61,61,40,,22,22,26,20,9,8,0.9,0.8
2026-02-03T1300,1880A,104.6698,31.4668,绵阳市,高新区自来水公司,细颗粒物(PM2.5),89,107,103,66,66,30,,23,10,38,30,9,9,1.0,1
2026-02-03T1300,3491A,104.6899,31.5324,绵阳市,西科大附属小学,细颗粒物(PM2.5),93,114,108,69,70,36,,13,9,34,33,9,9,0.8,0.8
2026-02-03T1300,3492A,104.5647,31.5343,绵阳市,安州区旅游局,细颗粒物(PM2.5),85,100,89,63,59,28,,22,12,28,24,10,10,1.3,1.2
2026-02-03T1300,4146A,104.7092,31.4972,绵阳市,科技城新区公安局,细颗粒物(PM2.5),92,131,103,68,61,37,,26,12,39,33,6,5,1.0,0.9
2026-02-03T1300,4226A,104.765114,31.453094,绵阳市,绵阳市气象局,细颗粒物(PM2.5),79,88,92,58,62,41,,18,12,24,24,9,8,0.8,0.8
2026-02-03T1300,1784A,129.61,44.561,牡丹江市,环保大楼,颗粒物(PM10),53,55,54,24,36,86,,56,56,11,26,4,7,0.3,0.5
2026-02-03T1300,1787A,129.6364,44.6075,牡丹江市,机车工厂,,48,48,66,21,45,75,,48,48,15,36,8,11,0.4,0.7
2026-02-03T1300,1788A,129.6386,44.5462,牡丹江市,第一中学,颗粒物(PM10),53,55,43,17,29,84,,58,58,11,26,6,6,0.4,0.5
2026-02-03T1300,4287A,129.5992,44.5964,牡丹江市,东晓云街98号,,45,45,81,17,54,80,,45,45,13,36,6,8,0.4,0.7
2026-02-03T1300,2531A,105.0703,29.61,内江市,市监测站,细颗粒物(PM2.5),63,,94,45,81,92,,40,40,17,22,5,5,0.9,1.1
2026-02-03T1300,2533A,105.0657,29.5807,内江市,内江二中,细颗粒物(PM2.5),89,85,108,66,83,68,,28,28,26,26,8,8,0.7,0.8
2026-02-03T1300,2534A,105.0407,29.5828,内江市,内江日报社,细颗粒物(PM2.5),88,,87,65,78,75,,30,30,28,29,6,6,1.0,1
2026-02-03T1300,4147A,105.0433,29.6105,内江市,玉峰路西段888号,细颗粒物(PM2.5),67,48,88,48,77,76,,34,34,23,26,5,5,0.7,0.9
2026-02-03T1300,2628A,92.0653,31.4846,那曲市,那曲监测站,"颗粒物(PM10),细颗粒物(PM2.5)",53,56,39,37,29,64,,38,38,17,19,6,8,0.8,1
2026-02-03T1300,4243A,92.0515,31.4787,那曲市,那曲市委宣传部,,21,18,34,13,21,67,,35,32,10,14,6,8,0.5,0.9
2026-02-03T1300,1291A,115.8887,28.7006,南昌市,省林业公司,细颗粒物(PM2.5),65,68,70,47,43,46,,52,41,29,31,5,4,0.5,0.5
2026-02-03T1300,1292A,115.813,28.7443,南昌市,林科所,"颗粒物(PM10),细颗粒物(PM2.5)",58,66,70,41,37,59,,48,45,26,26,11,9,2.0,0.7
2026-02-03T1300,1294A,115.8518,28.687,南昌市,建工学校,细颗粒物(PM2.5),65,65,76,47,40,48,,63,46,20,17,12,9,1.1,1
2026-02-03T1300,1295A,115.8926,28.6425,南昌市,象湖,"颗粒物(PM10),细颗粒物(PM2.5)",63,76,70,45,47,54,,52,42,24,26,14,9,1.3,0.9
2026-02-03T1300,3046A,115.9084,28.6062,南昌市,机电学校,细颗粒物(PM2.5),63,68,83,45,43,63,,48,42,23,41,7,6,0.6,0.6
2026-02-03T1300,3690A,115.9718,28.7032,南昌市,外国语学校,细颗粒物(PM2.5),64,66,79,46,47,57,,55,48,23,29,13,12,0.7,0.8
2026-02-03T1300,4106A,115.7923,28.6873,南昌市,工业二路,颗粒物(PM10),68,85,85,47,43,63,,58,58,25,32,7,4,1.1,0.8
2026-02-03T1300,4192A,115.931587,28.686774,南昌市,南京东路235号,,,69,81,43,48,62,,58,47,17,24,9,9,,0.5
2026-02-03T1300,1906A,106.0791,30.8022,南充市,南充市委,细颗粒物(PM2.5),82,78,75,60,58,23,,9,9,35,32,6,4,1.0,0.9
2026-02-03T1300,1907A,106.1038,30.8215,南充市,南充炼油厂,细颗粒物(PM2.5),78,86,85,57,55,22,,6,6,26,32,7,7,1.0,1
2026-02-03T1300,4227A,106.108336,30.788436,南充市,梨树横街98号,细颗粒物(PM2.5),87,89,85,64,61,20,,9,9,40,37,7,6,1.0,0.8
2026-02-03T1300,4304A,106.1172,30.843,南充市,清泉寺北路188号,细颗粒物(PM2.5),75,66,65,55,51,32,,19,19,20,21,4,7,0.8,0.7
2026-02-03T1300,4305A,106.067,30.7616,南充市,同庆路1号,细颗粒物(PM2.5),80,73,75,59,57,25,,5,5,34,44,8,7,1.0,1
2026-02-03T1300,1151A,118.8033,32.1085,南京市,迈皋桥,细颗粒物(PM2.5),62,65,98,44,69,98,,54,54,19,38,7,7,0.4,0.7
2026-02-03T1300,1152A,118.7487,32.057,南京市,草场门,细颗粒物(PM2.5),73,73,99,53,68,72,,42,42,23,43,4,4,0.7,0.9
2026-02-03T1300,1154A,118.770105,32.004342,南京市,中华门,细颗粒物(PM2.5),73,78,105,53,77,102,,50,50,14,31,4,4,0.4,0.6
2026-02-03T1300,1155A,118.8059,32.0329,南京市,瑞金路,细颗粒物(PM2.5),87,90,108,64,77,135,,82,82,2,26,4,4,0.9,1
2026-02-03T1300,1156A,118.7946,32.0774,南京市,玄武湖,细颗粒物(PM2.5),70,73,104,51,74,100,,60,60,19,39,4,4,0.6,0.8
2026-02-03T1300,1157A,118.6415,32.0964,南京市,浦口,细颗粒物(PM2.5),79,96,122,58,84,92,,49,49,23,46,5,4,0.5,0.7
2026-02-03T1300,1158A,118.730129,32.000956,南京市,奥体中心,细颗粒物(PM2.5),63,73,108,45,71,116,,58,58,10,36,6,5,0.4,0.6
2026-02-03T1300,1159A,118.9072,32.1047,南京市,仙林大学城,,,73,101,,69,102,,55,55,,36,6,5,0.5,0.7
2026-02-03T1300,3422A,118.8443,31.919,南京市,江宁彩虹桥,颗粒物(PM10),73,95,111,40,62,109,,46,46,10,53,3,4,0.6,0.8
2026-02-03T1300,3427A,118.8497,32.3599,南京市,六合雄州,细颗粒物(PM2.5),63,73,108,45,73,93,,45,45,26,41,10,9,0.7,0.9
2026-02-03T1300,4086A,118.7641,32.0841,南京市,新模范马路66号,细颗粒物(PM2.5),72,88,114,52,75,126,,76,76,12,29,4,4,0.7,1
2026-02-03T1300,4249A,118.8707617,31.34017673,南京市,汶溪路181号,颗粒物(PM10),86,121,118,54,66,106,,45,45,15,33,7,6,0.8,1
2026-02-03T1300,4312A,119.019,31.6512,南京市,中山西路1号,细颗粒物(PM2.5),68,70,95,49,69,88,,45,45,22,33,4,4,0.7,1
2026-02-03T1300,1401A,108.3098,22.788,南宁市,二十一中,,,64,59,45,51,75,,43,43,20,25,6,7,,0.7
2026-02-03T1300,1402A,108.3135,22.8529,南宁市,北湖,细颗粒物(PM2.5),60,,62,43,55,87,,38,38,19,26,6,9,0.6,0.7
2026-02-03T1300,1403A,108.3205,22.8222,南宁市,市监测站,颗粒物(PM10),60,70,66,41,49,78,,43,43,23,28,9,11,0.9,0.9
2026-02-03T1300,1404A,108.3828,22.8038,南宁市,大自然花园,细颗粒物(PM2.5),60,56,56,43,49,98,,48,48,12,17,8,7,0.8,0.9
2026-02-03T1300,1406A,108.2397,22.8462,南宁市,区农职院,细颗粒物(PM2.5),69,59,60,50,47,77,,24,24,23,28,7,7,1.1,1.2
2026-02-03T1300,1407A,108.3285,22.7356,南宁市,英华嘉园,细颗粒物(PM2.5),65,72,64,47,50,89,,34,34,19,25,6,6,0.6,0.7
2026-02-03T1300,3401A,108.4829,22.762,南宁市,红星社区,细颗粒物(PM2.5),73,,58,53,48,113,,49,49,16,22,8,7,1.0,1
2026-02-03T1300,4132A,108.2927,23.1477,南宁市,起凤路9号,细颗粒物(PM2.5),83,77,63,61,55,84,,18,18,20,25,4,3,0.6,0.7
2026-02-03T1300,4221A,108.2177,22.7774,南宁市,乐贤路16号,细颗粒物(PM2.5),63,65,74,45,54,74,,20,20,26,36,5,5,1.0,1
2026-02-03T1300,2332A,118.1682,26.6371,南平市,南平市监测站,,37,37,28,21,19,93,,46,46,7,19,4,4,0.3,0.5
2026-02-03T1300,2334A,118.1757,26.6276,南平市,南平七中,,42,42,29,22,18,94,,49,49,6,15,2,3,0.4,0.6
2026-02-03T1300,1168A,120.9056,31.9669,南通市,狼山街道,,40,36,82,28,63,95,,54,54,11,34,3,3,0.4,0.6
2026-02-03T1300,1170A,120.8635,32.0231,南通市,城中,,45,45,84,20,61,95,,69,69,18,27,4,4,0.3,0.5
2026-02-03T1300,1171A,120.9376,31.9301,南通市,星湖花园,,,42,74,24,59,99,,60,60,11,31,5,4,,0.7
2026-02-03T1300,1172A,120.8053,32.046,南通市,紫琅学院,颗粒物(PM10),51,51,87,34,62,86,,62,62,28,37,4,4,0.7,0.9
2026-02-03T1300,3291A,121.0631,32.0644,南通市,通州监测站,,42,36,81,29,63,106,,76,76,16,25,4,3,0.4,0.6
2026-02-03T1300,3432A,120.9348,31.9874,南通市,环境教育馆,,49,41,87,34,64,101,,46,46,15,50,5,4,0.6,0.8
2026-02-03T1300,4091A,120.8692,31.9885,南通市,洪江路,,38,32,70,26,55,86,,56,56,22,32,4,4,0.3,0.6
2026-02-03T1300,2404A,112.5338,33.0086,南阳市,瓦房庄,细颗粒物(PM2.5),92,113,112,68,59,74,,31,31,19,34,5,5,0.9,1
2026-02-03T1300,2405A,112.5002,32.9734,南阳市,汉画馆,细颗粒物(PM2.5),115,115,110,87,85,74,,27,27,26,37,8,7,1.0,1
2026-02-03T1300,2406A,112.5778,33.0144,南阳市,气象站,颗粒物(PM10),95,139,120,59,56,67,,46,40,22,27,6,6,0.9,0.8
2026-02-03T1300,2407A,112.548,32.9687,南阳市,理工学院,细颗粒物(PM2.5),88,119,111,65,61,67,,39,38,33,34,7,6,0.8,0.7
2026-02-03T1300,4008A,112.5233,32.9921,南阳市,卧龙区政府,,,132,119,57,63,74,,29,28,,33,,6,0.8,0.9
2026-02-03T1300,1234A,121.8352,29.9111,宁波市,区环保大楼,"颗粒物(PM10),细颗粒物(PM2.5)",58,65,121,41,78,88,,40,40,39,58,8,6,0.5,0.9
2026-02-03T1300,1235A,121.5595,29.8208,宁波市,万里学院,细颗粒物(PM2.5),92,93,111,68,79,101,,35,35,26,53,5,4,0.9,1
2026-02-03T1300,1236A,121.713,29.9564,宁波市,龙赛医院,细颗粒物(PM2.5),75,80,118,55,78,79,,33,33,43,52,5,4,0.7,0.9
2026-02-03T1300,1240A,121.5855,29.8635,宁波市,太古小学,细颗粒物(PM2.5),83,86,117,61,80,105,,38,38,18,48,5,3,0.7,1
2026-02-03T1300,1241A,121.5239,29.8673,宁波市,市环境监测中心,细颗粒物(PM2.5),84,92,112,62,78,97,,35,35,20,46,9,7,0.7,0.9
2026-02-03T1300,2871A,121.6156,29.9015,宁波市,万里国际学校,细颗粒物(PM2.5),87,87,112,64,85,90,,36,36,33,54,6,4,0.6,0.8
2026-02-03T1300,3710A,121.5593,29.8976,宁波市,白沙活动中心,细颗粒物(PM2.5),92,80,97,68,82,103,,40,40,24,49,6,4,0.5,0.7
2026-02-03T1300,4095A,121.8962,29.7529,宁波市,中科路88号,,,61,103,53,80,109,,42,42,18,49,,6,0.4,0.7
2026-02-03T1300,2341A,119.5387,26.6611,宁德市,宁德市监测站,细颗粒物(PM2.5),55,50,46,39,32,100,,76,72,18,20,6,5,0.7,0.7
2026-02-03T1300,3209A,119.5231,26.6562,宁德市,宁德一中,细颗粒物(PM2.5),57,51,44,40,34,103,,80,79,14,14,4,4,0.5,0.6
2026-02-03T1300,2618A,98.859,25.8541,怒江傈僳族自治州,州监测站,,26,26,32,3,15,71,,52,52,8,10,6,6,0.3,0.4
2026-02-03T1300,2619A,98.8607,25.8168,怒江傈僳族自治州,泸水一中,,31,31,31,3,20,69,,33,33,8,18,5,5,0.5,0.6
2026-02-03T1300,1888A,101.6891,26.571,攀枝花市,弄弄坪,颗粒物(PM10),52,53,88,18,27,69,,17,17,24,45,27,58,1.1,2
2026-02-03T1300,1889A,101.577,26.5914,攀枝花市,河门口,,45,45,43,24,20,72,,33,33,21,24,26,26,1.7,1.2
2026-02-03T1300,1891A,101.7365,26.4986,攀枝花市,仁和,,43,43,44,28,26,85,,38,38,16,27,24,15,0.9,1.1
2026-02-03T1300,2835A,101.7222,26.567,攀枝花市,四十中小,颗粒物(PM10),55,60,55,18,26,72,,23,23,23,50,25,22,0.8,1.4
2026-02-03T1300,1604A,122.0303,41.1489,盘锦市,开发区,,,75,37,54,25,59,,42,42,32,20,11,7,,1.2
2026-02-03T1300,1605A,122.0486,41.0883,盘锦市,兴隆台,细颗粒物(PM2.5),72,76,35,52,25,55,,38,38,36,27,11,9,0.9,0.6
2026-02-03T1300,1606A,121.8297,41.1026,盘锦市,新生街道,细颗粒物(PM2.5),67,80,33,48,23,58,,36,36,34,22,11,7,0.9,0.4
2026-02-03T1300,1832A,113.3257,33.7423,平顶山市,新华旅馆,细颗粒物(PM2.5),147,165,163,112,102,66,,36,28,38,49,8,7,0.7,0.7
2026-02-03T1300,1833A,113.2917,33.737,平顶山市,规划设计院,细颗粒物(PM2.5),135,180,171,103,105,67,,36,36,27,38,8,8,0.6,0.7
2026-02-03T1300,1834A,113.182,33.7738,平顶山市,平顶山工学院,细颗粒物(PM2.5),128,151,141,97,90,62,,34,19,27,33,9,9,0.8,0.7
2026-02-03T1300,3594A,112.8736,33.9068,平顶山市,石龙区,细颗粒物(PM2.5),135,159,149,103,93,73,,37,37,20,38,9,10,1.0,0.8
2026-02-03T1300,4116A,113.284,33.7139,平顶山市,姚电大道23号,细颗粒物(PM2.5),148,214,181,113,106,53,,49,24,41,37,10,10,0.8,0.8
2026-02-03T1300,2656A,106.6633,35.5338,平凉市,聚贤嘉苑,,,69,94,31,38,,,42,,18,26,9,11,,0.8
2026-02-03T1300,2657A,106.7021,35.5307,平凉市,博物馆,细颗粒物(PM2.5),62,71,103,44,53,79,,50,48,18,29,13,15,0.7,0.7
2026-02-03T1300,2348A,113.8384,27.6436,萍乡市,中医院,颗粒物(PM10),67,84,69,40,34,112,,89,89,19,16,12,7,1.2,0.7
2026-02-03T1300,2350A,113.8677,27.6438,萍乡市,市环保局,颗粒物(PM10),66,81,62,42,39,115,,89,89,15,14,19,17,0.9,0.6
2026-02-03T1300,2351A,113.8663,27.6202,萍乡市,安源区政府,颗粒物(PM10),61,72,66,41,38,82,,60,60,22,22,14,9,1.6,0.8
2026-02-03T1300,4107A,113.8686,27.6668,萍乡市,联洪村委会,颗粒物(PM10),61,72,63,43,36,86,,69,69,16,15,7,6,0.5,0.5
2026-02-03T1300,2319A,119.0142,25.4324,莆田市,荔城区仓后路,颗粒物(PM10),51,52,47,35,27,106,,87,87,12,15,/,/,/,/
2026-02-03T1300,2320A,119.0016,25.4553,莆田市,莆田市监测站,颗粒物(PM10),55,60,38,36,28,108,,93,93,10,12,3,3,0.5,0.5
2026-02-03T1300,2321A,119.112,25.4561,莆田市,涵江区六中,细颗粒物(PM2.5),60,51,44,43,29,110,,94,94,10,11,/,/,0.6,0.6
2026-02-03T1300,2322A,119.1014,25.3215,莆田市,秀屿区政府,细颗粒物(PM2.5),72,69,46,52,30,113,,95,95,11,10,2,3,0.6,0.6
2026-02-03T1300,2392A,115.0312,35.7636,濮阳市,环保局,细颗粒物(PM2.5),122,122,119,92,99,73,,53,53,24,37,8,8,1.1,1.2
2026-02-03T1300,3021A,115,35.7667,濮阳市,濮水河管理处,细颗粒物(PM2.5),127,154,135,96,98,74,,48,48,16,31,8,7,1.0,1.1
2026-02-03T1300,4118A,115.0552,35.7816,濮阳市,中原东路68号,细颗粒物(PM2.5),133,171,155,101,102,67,,50,50,26,36,8,8,1.1,1.2
2026-02-03T1300,4216A,115.0923632,35.76857718,濮阳市,任丘路479号,细颗粒物(PM2.5),142,162,151,108,114,65,,40,40,28,44,10,9,0.9,0.9
2026-02-03T1300,2601A,100.9801,22.7634,普洱市,市环保局,,47,47,59,27,28,78,,34,34,6,11,4,5,0.6,0.6
2026-02-03T1300,2602A,100.9763,22.8237,普洱市,普洱第二中学,颗粒物(PM10),51,52,57,26,31,80,,30,30,6,21,5,5,0.3,0.4
2026-02-03T1300,3345A,131.0413,45.7795,七台河市,中波台,,36,36,48,15,21,86,,61,61,8,16,10,10,0.5,0.6
2026-02-03T1300,3637A,131.0136,45.7688,七台河市,人民广场,,41,41,43,24,20,83,,56,56,14,25,8,8,0.5,0.6
2026-02-03T1300,3684A,130.8639,45.8144,七台河市,新建矿广场,,,,40,,21,82,,62,62,13,18,4,5,0.5,0.5
2026-02-03T1300,1779A,123.9307,47.3641,齐齐哈尔市,安居小区,,26,26,50,3,16,80,,53,53,7,17,11,12,0.4,0.6
2026-02-03T1300,1780A,123.9497,47.3389,齐齐哈尔市,中心广场,,26,26,41,3,16,79,,48,48,7,18,6,8,0.5,0.6
2026-02-03T1300,1781A,123.9483,47.3229,齐齐哈尔市,农牧车辆厂,,25,24,50,8,18,77,,42,42,6,17,5,7,0.2,0.4
2026-02-03T1300,1783A,123.9442,47.2994,齐齐哈尔市,市环境监测站,,30,30,47,3,12,82,,51,51,7,15,4,5,0.3,0.4
2026-02-03T1300,3662A,123.6341,47.2079,齐齐哈尔市,富区青少年活动中心,,48,48,61,3,19,83,,50,50,6,18,5,7,0.3,0.7
2026-02-03T1300,2591A,107.9765,26.5724,黔东南苗族侗族自治州,市环境监测站,"颗粒物(PM10),细颗粒物(PM2.5)",60,70,46,43,33,59,,64,58,13,12,7,6,0.7,0.7
2026-02-03T1300,2881A,107.8909,26.531,黔东南苗族侗族自治州,凯里学院,颗粒物(PM10),62,73,56,38,33,65,,58,55,14,17,4,4,0.8,0.7
2026-02-03T1300,2593A,107.5223,26.2371,黔南布依族苗族自治州,小围寨,颗粒物(PM10),62,73,39,29,24,40,,48,45,14,7,7,6,0.9,0.9
2026-02-03T1300,3538A,107.5175,26.2977,黔南布依族苗族自治州,沙坝,颗粒物(PM10),64,78,46,27,27,51,,55,55,13,10,5,5,0.8,0.8
2026-02-03T1300,2589A,104.9022,25.0943,黔西南布依族苗族自治州,场坝街,,23,,22,16,16,24,,35,26,13,10,2,3,0.9,0.9
2026-02-03T1300,2590A,104.8812,25.0994,黔西南布依族苗族自治州,坪东大道,,22,22,24,11,17,26,,34,27,9,9,5,5,1.1,1
2026-02-03T1300,2502A,108.6238,21.9667,钦州市,市环保站,颗粒物(PM10),64,78,74,33,44,110,,57,57,16,17,5,4,0.9,0.9
2026-02-03T1300,2503A,108.655,21.9481,钦州市,沙埠小学,颗粒物(PM10),67,83,69,33,36,112,,63,63,18,18,7,6,0.6,0.6
2026-02-03T1300,2504A,108.5989,21.7435,钦州市,港区一小,颗粒物(PM10),58,65,73,36,44,98,,48,48,16,30,4,5,0.8,0.8
2026-02-03T1300,3404A,108.5959,21.9634,钦州市,北职校,颗粒物(PM10),55,60,60,27,36,112,,51,51,14,17,6,4,0.8,0.8
2026-02-03T1300,1046A,119.5247,39.9346,秦皇岛市,建设大厦,细颗粒物(PM2.5),112,109,58,84,28,71,,44,44,37,29,14,14,0.9,0.8
2026-02-03T1300,3132A,119.5979,39.938,秦皇岛市,文明里,细颗粒物(PM2.5),102,118,60,76,29,70,,44,44,46,35,17,17,0.9,0.8
2026-02-03T1300,4066A,119.7458,39.9952,秦皇岛市,南园路157号,颗粒物(PM10),118,185,67,75,29,84,,45,45,34,45,14,13,1.0,0.8
2026-02-03T1300,4067A,119.5131,39.8858,秦皇岛市,翠岛大街1号,细颗粒物(PM2.5),112,101,60,84,32,72,,39,39,33,35,15,14,0.9,0.8
2026-02-03T1300,4198A,119.509013,39.825305,秦皇岛市,北戴河轮滑馆,细颗粒物(PM2.5),103,137,69,77,32,64,,38,38,53,40,20,14,1.7,1
2026-02-03T1300,1310A,120.404,36.0625,青岛市,市南区东部子站,细颗粒物(PM2.5),90,88,68,67,47,68,,52,52,38,35,18,11,1.4,0.7
2026-02-03T1300,1311A,120.362344,36.10282,青岛市,四方区子站,细颗粒物(PM2.5),115,90,65,87,52,69,,53,53,41,40,14,7,1.8,1
2026-02-03T1300,1312A,120.294373,36.054183,青岛市,市南区西部子站,细颗粒物(PM2.5),100,95,68,75,50,64,,47,47,48,42,12,6,1.7,0.8
2026-02-03T1300,1313A,120.4581,36.0858,青岛市,崂山区子站,细颗粒物(PM2.5),88,88,54,65,39,75,,48,48,41,36,19,11,1.5,0.7
2026-02-03T1300,1315A,120.3945,36.3083,青岛市,城阳区子站,细颗粒物(PM2.5),117,122,73,88,53,75,,48,48,52,46,14,10,1.2,0.9
2026-02-03T1300,3642A,120.3454,36.0735,青岛市,市北区南部,细颗粒物(PM2.5),97,91,77,72,45,65,,53,53,38,36,11,5,1.6,0.8
2026-02-03T1300,3643A,120.3897,36.18,青岛市,李沧区北部,细颗粒物(PM2.5),105,112,64,79,46,67,,42,42,54,44,17,10,1.3,0.8
2026-02-03T1300,4110A,120.5222,36.4089,青岛市,盟旺路653号,细颗粒物(PM2.5),99,107,75,74,47,76,,58,58,46,42,10,6,1.1,0.9
2026-02-03T1300,4290A,120.196923,35.954556,青岛市,珠江路669号,细颗粒物(PM2.5),85,83,69,63,51,76,,60,60,34,44,17,7,1.6,0.8
2026-02-03T1300,4291A,120.0424,35.8656,青岛市,黄岛区人民政府广场,细颗粒物(PM2.5),88,95,99,65,63,91,,42,42,31,50,14,11,1.4,1.4
2026-02-03T1300,1703A,113.0218,23.7086,清远市,凤城街办,,41,41,38,25,21,100,,72,72,15,23,/,/,/,/
2026-02-03T1300,3025A,113.0479,23.6343,清远市,技师学院,,41,41,39,17,17,99,,61,61,15,25,6,7,0.5,0.6
2026-02-03T1300,3318A,112.9898,23.7403,清远市,清新太和,,49,49,38,30,21,102,,63,63,18,24,12,10,0.6,0.7
2026-02-03T1300,3455A,113.076,23.72,清远市,清城东城,,47,47,40,22,19,97,,69,69,14,20,/,/,/,/
2026-02-03T1300,2661A,107.6325,35.7357,庆阳市,庆阳五中,颗粒物(PM10),62,73,68,36,36,93,,86,78,18,20,8,8,0.6,0.5
2026-02-03T1300,2662A,107.6361,35.7067,庆阳市,市环保局,细颗粒物(PM2.5),60,67,68,43,36,92,,85,83,17,17,7,7,0.7,0.6
2026-02-03T1300,1916A,103.7897,25.5036,曲靖市,环境监测站,,30,22,38,11,28,95,,59,59,9,18,5,5,0.5,0.9
2026-02-03T1300,1917A,103.8013,25.5357,曲靖市,烟厂办公区,,29,28,38,13,22,90,,64,64,7,14,3,4,0.4,0.7
2026-02-03T1300,3376A,103.7926,25.4651,曲靖市,南苑二区,,44,24,41,16,27,139,,74,74,4,9,4,4,0.3,0.7
2026-02-03T1300,3377A,103.7442,25.5259,曲靖市,曲靖师范学院,,30,26,43,14,30,94,,57,57,8,16,5,4,0.3,0.7
2026-02-03T1300,1264A,118.8694,28.94,衢州市,环保大楼,细颗粒物(PM2.5),88,96,74,65,51,92,,43,43,20,30,/,/,/,/
2026-02-03T1300,1266A,118.8622,28.9809,衢州市,衢州学院,细颗粒物(PM2.5),83,85,69,61,48,96,,53,53,14,30,6,5,0.7,0.7
2026-02-03T1300,4097A,118.9646,28.9832,衢州市,衢州三中,细颗粒物(PM2.5),88,93,73,65,46,88,,36,36,23,38,5,4,0.4,0.4
2026-02-03T1300,1611A,118.5818,24.9116,泉州市,涂山街,细颗粒物(PM2.5),55,49,40,39,25,108,,86,86,11,14,3,3,0.5,0.6
2026-02-03T1300,1612A,118.597,24.8976,泉州市,津头埔,细颗粒物(PM2.5),57,57,42,40,26,109,,87,87,13,15,3,3,0.6,0.6
2026-02-03T1300,1613A,118.6669,24.9422,泉州市,万安,细颗粒物(PM2.5),57,61,45,40,26,104,,82,82,12,15,3,4,0.8,0.8
2026-02-03T1300,4105A,118.6355,24.9148,泉州市,霞新路6号,颗粒物(PM10),55,60,42,38,25,107,,84,84,11,16,/,/,0.6,0.6
2026-02-03T1300,2626A,88.8873,29.2723,日喀则市,日喀则监测站,,27,10,16,7,8,84,,62,54,2,6,5,7,0.3,0.3
2026-02-03T1300,3726A,88.8775,29.2425,日喀则市,林业技术推广中心,,25,16,24,3,6,78,,64,55,4,5,5,5,0.5,0.5
2026-02-03T1300,1659A,119.4711,35.421,日照市,监测站,细颗粒物(PM2.5),108,117,119,81,88,84,,34,34,31,57,13,13,1.0,1.4
2026-02-03T1300,1660A,119.523,35.4216,日照市,市政府广场,细颗粒物(PM2.5),98,112,112,73,77,67,,39,39,48,62,13,10,0.9,0.9
2026-02-03T1300,1661A,119.5511,35.4113,日照市,港务局,细颗粒物(PM2.5),97,136,126,72,78,51,,31,31,62,71,16,10,1.2,1.1
2026-02-03T1300,3507A,119.5326,35.4627,日照市,职业技术学院,细颗粒物(PM2.5),102,102,105,76,78,85,,45,45,37,52,11,10,1.2,1.2
2026-02-03T1300,3604A,119.3267,35.1043,日照市,岚山环保分局,细颗粒物(PM2.5),90,100,100,67,66,70,,42,42,42,46,16,19,0.9,1.1
2026-02-03T1300,1835A,111.1922,34.7752,三门峡市,市政府,细颗粒物(PM2.5),113,107,77,85,54,92,,68,68,19,25,14,13,0.7,0.6
2026-02-03T1300,1836A,111.1588,34.794,三门峡市,开发区,细颗粒物(PM2.5),110,125,97,83,54,84,,66,66,21,23,13,11,0.7,0.6
2026-02-03T1300,3039A,111.1911,34.7829,三门峡市,三门峡市第一小学,细颗粒物(PM2.5),112,126,82,84,52,84,,66,66,19,20,14,11,0.8,0.6
2026-02-03T1300,3598A,111.1031,34.719,三门峡市,富达温泉假日酒店,细颗粒物(PM2.5),108,119,90,81,57,79,,60,58,29,27,13,10,0.8,0.6
2026-02-03T1300,2324A,117.621,26.2626,三明市,三钢,,39,,31,27,24,88,,36,36,7,16,7,5,0.9,1
2026-02-03T1300,2325A,117.6352,26.2714,三明市,三明二中,,,,28,25,21,84,,30,30,12,16,5,3,,0.8
2026-02-03T1300,2326A,117.6028,26.2377,三明市,三元区政府,,42,42,37,25,22,89,,34,34,11,20,6,3,0.8,0.9
2026-02-03T1300,1877A,109.4962,18.2682,三亚市,河西子站,,30,22,33,8,18,94,,95,88,9,8,1,2,0.4,0.5
2026-02-03T1300,3540A,109.7348,18.3443,三亚市,君悦子站,颗粒物(PM10),54,58,36,9,21,95,,77,69,6,10,5,6,0.3,0.4
2026-02-03T1300,4135A,109.1714,18.3739,三亚市,城东小学站,,35,31,25,12,16,110,,84,84,9,10,/,/,/,/
2026-02-03T1300,2624A,91.7592,29.234,山南市,山南监测站,,21,15,61,8,18,66,,58,48,6,5,4,5,0.4,0.3
2026-02-03T1300,2625A,91.7701,29.2436,山南市,山南人民医院,,20,13,62,8,20,63,,62,56,5,4,7,7,0.4,0.5
2026-02-03T1300,1674A,116.6795,23.3666,汕头市,金平子站,,40,40,32,24,19,111,,78,78,9,12,5,5,0.9,0.9
2026-02-03T1300,1675A,116.7248,23.3632,汕头市,龙湖子站,,38,36,32,26,21,106,,76,76,10,12,10,10,/,/
2026-02-03T1300,1676A,116.7257,23.2774,汕头市,濠江子站,颗粒物(PM10),53,55,32,25,20,110,,80,80,12,14,7,7,/,/
2026-02-03T1300,1677A,116.7518,23.4712,汕头市,澄海子站,,49,49,40,27,22,103,,69,69,11,13,7,7,0.7,0.8
2026-02-03T1300,1678A,116.6088,23.2539,汕头市,潮阳子站,,42,42,29,23,18,111,,78,78,8,10,6,6,0.6,0.6
2026-02-03T1300,3444A,116.4539,23.2684,汕头市,潮南峡山,,45,45,33,22,19,111,,76,76,10,13,6,6,0.6,0.7
2026-02-03T1300,3624A,116.4069,23.2533,汕头市,潮南子站,,50,50,43,24,21,102,,66,66,11,14,7,7,/,/
2026-02-03T1300,1693A,115.3653,22.7751,汕尾市,市环保局,,43,43,32,30,22,100,,68,68,11,12,8,7,0.7,0.8
2026-02-03T1300,1695A,115.362,22.7926,汕尾市,新城中学,,43,43,32,29,22,101,,66,66,10,13,6,5,0.7,0.7
2026-02-03T1300,2645A,109.9155,33.8714,商洛市,监测站,颗粒物(PM10),66,82,63,44,28,101,,64,62,21,23,13,8,0.9,0.7
2026-02-03T1300,3045A,109.9647,33.8486,商洛市,商州区中学,颗粒物(PM10),66,82,67,45,29,94,,50,49,17,26,9,9,0.6,0.5
2026-02-03T1300,2408A,115.6701,34.4283,商丘市,环境监测站,细颗粒物(PM2.5),110,118,140,83,112,104,,70,70,15,24,3,3,0.5,0.6
2026-02-03T1300,2409A,115.6458,34.4047,商丘市,粮食局,细颗粒物(PM2.5),103,118,139,77,108,98,,69,68,17,26,2,2,0.6,0.8
2026-02-03T1300,3171A,115.6069,34.4465,商丘市,梁园区档案局,细颗粒物(PM2.5),135,,125,103,100,101,,78,78,12,18,1,2,0.6,0.7
2026-02-03T1300,4119A,115.6701,34.3767,商丘市,北海东路185号,细颗粒物(PM2.5),94,123,160,70,105,105,,57,57,13,32,4,3,0.6,0.7
2026-02-03T1300,4120A,115.6172,34.3704,商丘市,中山大街3号,细颗粒物(PM2.5),90,126,162,67,105,106,,75,70,17,23,3,3,0.5,0.6
2026-02-03T1300,1141A,121.401,31.2382,上海市,普陀,,38,38,71,26,55,87,,55,55,21,42,6,6,0.5,0.7
2026-02-03T1300,1142A,121.4774,31.2043,上海市,十五厂,,42,42,68,22,48,91,,52,52,19,41,6,7,0.6,0.4
2026-02-03T1300,1143A,121.4673,31.3011,上海市,虹口,,45,43,74,31,56,85,,45,45,17,46,8,7,0.3,0.6
2026-02-03T1300,1147A,121.4253,31.226,上海市,静安监测站,,36,36,66,25,49,92,,66,66,20,38,8,8,0.5,0.7
2026-02-03T1300,1148A,121.7029,31.1905,上海市,浦东川沙,,36,32,73,25,60,89,,52,52,14,32,8,8,0.4,0.6
2026-02-03T1300,1149A,121.5339,31.229,上海市,浦东新区监测站,,43,35,70,30,62,93,,60,60,16,47,6,6,0.6,0.8
2026-02-03T1300,1150A,121.5776,31.2038,上海市,浦东张江,,,36,77,27,60,94,,50,50,16,55,7,7,,0.4
2026-02-03T1300,3265A,121.4242,31.3303,上海市,宝山庙行,,44,44,74,21,50,84,,51,51,23,55,8,8,0.5,0.6
2026-02-03T1300,3266A,121.8789,31.4662,上海市,崇明上实东滩,,,34,71,28,59,104,,72,72,,8,,4,0.1,0.3
2026-02-03T1300,3268A,121.316,31.2839,上海市,嘉定南翔,,45,43,75,31,58,82,,39,39,27,58,4,4,0.2,0.4
2026-02-03T1300,3269A,121.3357,30.7455,上海市,金山新城,,29,,79,20,71,85,,62,62,20,34,8,9,0.8,1
2026-02-03T1300,3270A,121.4996,31.0741,上海市,闵行浦江,,29,25,83,20,67,89,,51,51,15,37,6,6,0.4,0.7
2026-02-03T1300,3271A,121.2886,31.1663,上海市,青浦徐泾,,43,41,80,30,63,88,,42,42,22,60,5,5,0.5,0.7
2026-02-03T1300,3272A,121.2193,31.0382,上海市,松江图书馆,,34,34,94,22,67,82,,42,42,26,65,7,6,0.4,0.8
