timepoint,stationcode,longitude,latitude,area,positionname,primarypollutant,aqi,pm10,pm10_24h,pm2_5,pm2_5_24h,o3,o3_24h,o3_8h,o3_8h_24h,no2,no2_24h,so2,so2_24h,co,co_24h
2026-02-03T1800,2568A,102.2503,31.8896,阿坝藏族羌族自治州,马师校,,25,23,24,17,12,66,,64,64,6,11,4,4,0.4,0.5
2026-02-03T1800,3994A,102.2174,31.9016,阿坝藏族羌族自治州,马尔康中学西区,颗粒物(PM10),52,54,22,8,10,69,,63,63,4,10,7,7,0.4,0.5
2026-02-03T1800,2695A,80.2899,41.1684,阿克苏地区,电视台,颗粒物(PM10),124,197,212,73,76,89,,66,66,13,36,11,10,0.9,1.6
2026-02-03T1800,2696A,80.2592,41.1541,阿克苏地区,艺术中心,颗粒物(PM10),123,195,195,70,77,80,,67,67,23,43,5,6,0.5,0.9
2026-02-03T1800,2205A,105.699,38.8409,阿拉善盟,蒙二幼,颗粒物(PM10),74,97,95,31,29,98,,90,90,12,19,11,11,0.6,0.8
2026-02-03T1800,2206A,105.7198,38.8508,阿拉善盟,环保局新楼,颗粒物(PM10),68,85,84,32,33,85,,83,83,12,11,9,10,0.6,0.6
2026-02-03T1800,2708A,88.1266,47.8515,阿勒泰地区,市站,,22,19,15,12,5,69,,80,74,30,23,6,6,0.4,0.3
2026-02-03T1800,4166A,88.1198,47.7931,阿勒泰地区,阿勒泰路33号,,22,22,18,10,5,67,,74,65,33,24,8,7,0.6,0.5
2026-02-03T1800,2630A,80.1171,32.4999,阿里地区,阿里监测站,,27,,3,8,5,84,,80,80,1,5,6,10,0.2,0.3
2026-02-03T1800,3192A,80.0906,32.5029,阿里地区,阿里藏医院,,29,10,7,3,2,90,,88,86,2,2,8,9,0.2,0.2
2026-02-03T1800,2644A,109.0088,32.6974,安康市,汉滨区检察院,颗粒物(PM10),63,76,81,42,44,75,,87,87,31,31,9,7,0.6,0.9
2026-02-03T1800,4054A,109.0324,32.6913,安康市,市邮政管理局,颗粒物(PM10),66,82,95,39,49,80,,75,75,26,44,5,6,0.7,0.9
2026-02-03T1800,2291A,117.0806,30.5181,安庆市,环科院,颗粒物(PM10),63,75,95,39,57,16,,56,53,68,29,7,7,0.7,0.7
2026-02-03T1800,2292A,117.0331,30.5118,安庆市,马山宾馆,颗粒物(PM10),62,73,97,40,60,20,,59,54,68,27,6,6,0.9,0.9
2026-02-03T1800,2294A,116.9897,30.6146,安庆市,安庆大学,颗粒物(PM10),73,96,93,51,53,52,,60,60,50,40,15,6,0.8,0.9
2026-02-03T1800,3173A,117.0598,30.5351,安庆市,市人大,颗粒物(PM10),60,70,102,36,56,45,,62,61,42,32,6,6,0.5,0.6
2026-02-03T1800,3123A,105.9408,26.2431,安顺市,凤凰山,,13,13,20,9,15,35,,50,37,12,11,8,11,0.8,0.8
2026-02-03T1800,3124A,105.9443,26.2567,安顺市,金钟山,,18,,18,12,17,32,,50,36,13,10,13,13,0.8,0.8
2026-02-03T1800,3125A,105.8983,26.248,安顺市,娄家坡,,16,12,19,11,18,32,,46,33,14,12,12,12,0.8,0.8
2026-02-03T1800,1819A,114.3552,36.1017,安阳市,红庙街,,,,145,,117,106,,81,81,18,40,8,5,0.6,0.9
2026-02-03T1800,1820A,114.361,36.0681,安阳市,银杏小区,细颗粒物(PM2.5),87,107,146,64,98,107,,83,83,18,40,9,7,0.6,0.9
2026-02-03T1800,3141A,114.3921,36.0879,安阳市,信访局,细颗粒物(PM2.5),95,104,147,71,113,113,,87,87,12,27,6,7,0.7,0.8
2026-02-03T1800,3669A,114.4706,36.0634,安阳市,左辅环卫站,细颗粒物(PM2.5),127,154,167,96,122,93,,81,81,28,37,7,6,0.6,0.8
2026-02-03T1800,4117A,114.2918,36.0769,安阳市,钢三路198号,细颗粒物(PM2.5),107,123,174,80,125,91,,74,74,20,34,6,6,0.6,0.9
2026-02-03T1800,1748A,123.0441,41.1201,鞍山市,深沟寺,细颗粒物(PM2.5),117,151,61,88,34,112,,98,98,27,18,14,11,1.1,0.8
2026-02-03T1800,1749A,123.011,41.0931,鞍山市,太阳城,细颗粒物(PM2.5),125,151,63,95,35,101,,91,91,28,19,21,15,1.1,0.9
2026-02-03T1800,1750A,123.0483,41.1445,鞍山市,太平,细颗粒物(PM2.5),152,186,81,116,36,107,,92,92,28,19,18,14,0.8,0.5
2026-02-03T1800,1751A,122.964,41.0968,鞍山市,铁西三道街,细颗粒物(PM2.5),127,187,84,96,35,103,,95,95,37,28,17,16,0.8,0.6
2026-02-03T1800,1753A,123.0219,41.0822,鞍山市,明达新区,细颗粒物(PM2.5),115,159,71,87,34,106,,94,94,25,19,15,13,1.2,0.9
2026-02-03T1800,4201A,122.944647,41.082639,鞍山市,兴盛南路290号,细颗粒物(PM2.5),153,230,95,117,43,100,,93,93,34,24,21,15,1.1,0.8
2026-02-03T1800,2195A,107.4206,40.7609,巴彦淖尔市,附二中,颗粒物(PM10),55,60,63,24,28,76,,58,58,11,28,7,10,0.3,0.6
2026-02-03T1800,2196A,107.37,40.7372,巴彦淖尔市,市环保大楼,颗粒物(PM10),56,62,59,24,28,73,,61,61,12,27,4,7,0.3,0.6
2026-02-03T1800,1956A,86.1476,41.7529,巴音郭楞蒙古自治州,孔雀公园,颗粒物(PM10),128,206,161,47,40,84,,54,54,3,43,8,9,0.4,0.8
2026-02-03T1800,1957A,86.1971,41.7166,巴音郭楞蒙古自治州,棉纺厂,颗粒物(PM10),138,225,202,43,38,86,,64,64,1,23,/,/,/,/
2026-02-03T1800,1958A,86.236,41.7172,巴音郭楞蒙古自治州,经济开发区,颗粒物(PM10),128,206,166,24,21,78,,52,52,2,19,6,5,0.4,0.5
2026-02-03T1800,3181A,106.776805,31.852614,巴中市,市五中,细颗粒物(PM2.5),78,78,77,57,57,44,,18,18,20,36,6,6,1.0,1.3
2026-02-03T1800,3183A,106.7419,31.8654,巴中市,圣泉水务公司,细颗粒物(PM2.5),77,72,71,56,54,49,,25,25,21,41,7,6,1.3,1.4
2026-02-03T1800,3616A,106.7617,31.8343,巴中市,市中心医院,细颗粒物(PM2.5),77,74,84,56,64,38,,23,23,29,37,6,6,1.1,1.2
2026-02-03T1800,2235A,122.7909,45.608,白城市,洮北区环保局,,32,32,30,13,16,68,,80,80,19,12,4,6,0.4,0.3
2026-02-03T1800,2236A,122.8741,45.5725,白城市,市环保局,颗粒物(PM10),59,68,36,22,14,38,,72,70,50,20,5,6,0.4,0.3
2026-02-03T1800,2231A,126.4219,41.9172,白山市,喜丰,,48,48,67,23,44,83,,72,72,12,46,16,17,1.2,1.4
2026-02-03T1800,2232A,126.4082,41.9416,白山市,环保局,,33,33,60,20,43,89,,71,71,11,32,17,14,0.9,1.2
2026-02-03T1800,2647A,104.1727,36.5448,白银市,第三小学,颗粒物(PM10),64,78,106,38,50,90,,86,86,17,27,24,18,0.7,0.9
2026-02-03T1800,2648A,104.1467,36.5482,白银市,动力公司,颗粒物(PM10),66,82,99,33,46,91,,86,86,11,21,6,8,0.4,0.6
2026-02-03T1800,2512A,106.6102,23.901,百色市,市监测站,细颗粒物(PM2.5),59,63,42,42,31,65,,58,58,17,22,12,12,0.9,0.9
2026-02-03T1800,2513A,106.6524,23.8842,百色市,市中心血站,细颗粒物(PM2.5),59,65,51,42,36,69,,60,60,15,15,11,12,0.8,0.9
2026-02-03T1800,4133A,106.6273,23.8798,百色市,龙景西路,颗粒物(PM10),66,81,58,46,38,61,,50,50,17,18,14,14,0.7,0.7
2026-02-03T1800,2270A,117.396,32.9389,蚌埠市,工人疗养院,细颗粒物(PM2.5),85,96,131,63,99,104,,106,106,24,30,6,4,0.7,0.8
2026-02-03T1800,2271A,117.3606,32.9428,蚌埠市,百货大楼,细颗粒物(PM2.5),88,103,131,65,96,100,,100,100,23,33,5,8,0.6,0.8
2026-02-03T1800,2273A,117.4183,32.8909,蚌埠市,蚌埠学院,细颗粒物(PM2.5),80,92,121,59,99,95,,107,107,33,32,6,4,0.8,0.8
2026-02-03T1800,2274A,117.3534,32.9672,蚌埠市,淮上区政府,细颗粒物(PM2.5),92,95,130,68,107,104,,108,108,26,31,6,5,0.6,0.8
2026-02-03T1800,2275A,117.3143,32.8977,蚌埠市,高新区,细颗粒物(PM2.5),89,100,121,66,98,95,,102,102,24,27,8,7,0.6,0.7
2026-02-03T1800,3715A,117.3091,32.9314,蚌埠市,蚌埠田家炳中学,细颗粒物(PM2.5),92,100,129,68,99,101,,105,105,25,26,10,5,0.6,0.7
2026-02-03T1800,1585A,109.8761,40.6533,包头市,市环境监测站,"颗粒物(PM10),细颗粒物(PM2.5)",72,93,72,52,41,21,,24,24,82,65,43,17,3.3,1.5
2026-02-03T1800,1587A,109.9992,40.5843,包头市,包头八中,颗粒物(PM10),55,60,71,36,39,23,,34,34,57,59,14,16,1.0,1.6
2026-02-03T1800,1589A,109.8641,40.6288,包头市,惠龙物流,颗粒物(PM10),66,82,62,36,34,26,,32,31,84,67,34,21,2.1,1.6
2026-02-03T1800,1590A,110.0376,40.5546,包头市,东河鸿龙湾,颗粒物(PM10),53,56,62,21,31,34,,43,43,56,67,14,16,0.9,0.9
2026-02-03T1800,3283A,109.9154,40.5684,包头市,滨河大厦,,,48,53,,33,35,,39,39,56,67,15,15,,1.1
2026-02-03T1800,3419A,109.9449,40.6259,包头市,包头市委党校,细颗粒物(PM2.5),55,54,54,39,26,34,,29,29,54,64,23,19,1.1,1.3
2026-02-03T1800,3683A,109.8332,40.6577,包头市,昆区政府,颗粒物(PM10),69,88,72,48,45,18,,26,26,98,75,47,21,4.6,2
2026-02-03T1800,1931A,107.0802,34.3129,宝鸡市,竹园沟,细颗粒物(PM2.5),93,122,138,69,66,84,,79,79,34,26,10,7,0.7,0.7
2026-02-03T1800,1933A,107.1429,34.3549,宝鸡市,监测站,细颗粒物(PM2.5),118,130,158,89,89,84,,70,70,36,36,8,7,0.7,0.7
2026-02-03T1800,1934A,107.1172,34.3759,宝鸡市,技工学校,细颗粒物(PM2.5),109,129,152,82,84,91,,77,77,30,30,8,7,0.6,0.8
2026-02-03T1800,1936A,107.2025,34.3518,宝鸡市,文理学院,细颗粒物(PM2.5),100,112,149,75,88,92,,75,75,38,40,10,7,0.8,1
2026-02-03T1800,1937A,107.2396,34.3626,宝鸡市,三迪小学,,,112,162,71,90,90,,77,77,46,55,,11,0.7,0.9
2026-02-03T1800,4155A,107.1721,34.3558,宝鸡市,滨河北路,细颗粒物(PM2.5),90,122,159,67,83,88,,71,71,34,30,12,8,0.9,0.9
2026-02-03T1800,4308A,107.3898,34.3601,宝鸡市,陈仓区北开路21号,细颗粒物(PM2.5),90,101,147,67,85,108,,98,98,30,43,10,29,0.4,0.7
2026-02-03T1800,1051A,115.4803,38.8568,保定市,游泳馆,细颗粒物(PM2.5),143,123,99,109,96,84,,74,74,44,54,16,11,1.0,0.9
2026-02-03T1800,1052A,115.509,38.8895,保定市,华电二区,细颗粒物(PM2.5),124,109,92,94,85,67,,66,66,48,46,10,6,1.2,1
2026-02-03T1800,1053A,115.4588,38.9037,保定市,接待中心,细颗粒物(PM2.5),130,116,108,99,90,68,,64,64,34,39,11,7,0.8,0.6
2026-02-03T1800,1054A,115.4484,38.8344,保定市,地表水厂,细颗粒物(PM2.5),130,145,124,99,88,59,,68,68,60,55,16,11,1.1,0.8
2026-02-03T1800,3581A,115.3136,38.9511,保定市,满城区生态环境分局,细颗粒物(PM2.5),102,110,126,76,90,51,,67,67,46,44,10,8,1.1,0.9
2026-02-03T1800,3582A,115.4709,38.7628,保定市,清苑区第二中学,细颗粒物(PM2.5),155,164,130,118,88,94,,78,78,35,43,23,14,1.3,0.8
2026-02-03T1800,3583A,115.6231,39.0223,保定市,徐水物探局,细颗粒物(PM2.5),138,154,138,105,89,65,,68,68,45,51,12,9,1.1,0.9
2026-02-03T1800,4004A,115.4199,38.8665,保定市,双鹰农机,细颗粒物(PM2.5),132,116,137,100,96,80,,78,78,50,52,16,11,1.1,0.8
2026-02-03T1800,4034A,115.515,38.8589,保定市,植保所站,细颗粒物(PM2.5),144,138,111,110,89,72,,70,70,54,58,14,6,1.5,1.1
2026-02-03T1800,2594A,99.1589,25.1137,保山市,市环境监测站,,30,18,22,10,11,94,,86,86,6,9,3,3,0.1,0.3
2026-02-03T1800,2595A,99.1616,25.1381,保山市,市环保局,,29,28,26,6,11,91,,83,83,3,7,3,3,0.4,0.4
2026-02-03T1800,1867A,109.1435,21.4085,北海市,海滩公园,"颗粒物(PM10),臭氧1小时(O3_1h)",52,53,64,22,35,161,,150,150,12,17,8,11,1.0,0.9
2026-02-03T1800,1868A,109.0983,21.466,北海市,新市环保局,,49,43,61,25,38,156,,129,129,18,19,8,8,0.6,0.7
2026-02-03T1800,1869A,109.1775,21.5232,北海市,北海工业园,颗粒物(PM10),53,55,64,22,39,156,,126,126,11,17,7,10,0.7,0.8
2026-02-03T1800,3400A,109.1844,21.4396,北海市,龙潭自来水厂,,48,44,76,19,46,153,,146,146,12,17,7,8,0.7,1
2026-02-03T1800,1001A,116.3611,39.8786,北京市,万寿西宫,细颗粒物(PM2.5),162,140,66,123,43,73,,50,50,54,58,6,3,0.8,0.6
2026-02-03T1800,1003A,116.4174,39.9289,北京市,东四,细颗粒物(PM2.5),125,139,64,95,35,69,,47,47,43,47,8,5,0.7,0.6
2026-02-03T1800,1004A,116.4073,39.8858,北京市,天坛,细颗粒物(PM2.5),132,143,66,100,39,65,,43,43,41,51,4,2,0.8,0.7
2026-02-03T1800,1005A,116.4622,39.9364,北京市,农展馆,细颗粒物(PM2.5),170,253,74,129,33,76,,49,49,39,44,8,4,1.0,0.8
2026-02-03T1800,1006A,116.3399,39.9293,北京市,官园,细颗粒物(PM2.5),139,144,61,106,36,68,,42,42,43,55,7,4,0.8,0.7
2026-02-03T1800,1007A,116.2879,39.9613,北京市,海淀万柳,细颗粒物(PM2.5),130,141,64,99,35,60,,32,32,48,61,5,3,0.8,0.6
2026-02-03T1800,1008A,116.6635,40.1349,北京市,顺义新城,细颗粒物(PM2.5),92,113,54,68,25,29,,48,47,63,44,6,5,0.7,0.6
2026-02-03T1800,1009A,116.6275,40.327,北京市,怀柔镇,细颗粒物(PM2.5),62,68,35,44,19,13,,46,44,2,12,7,4,0.7,0.5
2026-02-03T1800,1010A,116.2295,40.217,北京市,昌平镇,颗粒物(PM10),53,55,43,26,23,39,,40,40,47,34,4,3,0.6,0.6
2026-02-03T1800,1011A,116.3968,39.982,北京市,奥体中心,细颗粒物(PM2.5),112,138,55,84,30,67,,46,46,54,61,8,4,0.8,0.5
2026-02-03T1800,3418A,116.8336,40.4095,北京市,密云新城,颗粒物(PM10),69,88,37,45,18,35,,55,54,51,26,6,4,0.5,0.3
2026-02-03T1800,3671A,116.0879,39.9725,北京市,门头沟三家店,细颗粒物(PM2.5),72,90,53,52,26,20,,37,36,66,37,4,3,0.7,0.6
2026-02-03T1800,3672A,116.1507,39.8246,北京市,丰台云岗,,,,53,,26,,,62,,,49,,3,,0.5
2026-02-03T1800,3674A,115.9578,39.7602,北京市,房山燕山,颗粒物(PM10),68,85,46,48,29,29,,46,46,62,34,6,5,0.6,0.8
2026-02-03T1800,3675A,116.4669,39.7734,北京市,大兴旧宫,细颗粒物(PM2.5),118,138,83,89,42,67,,58,58,48,54,6,4,1.0,0.7
2026-02-03T1800,3694A,115.9859,40.4562,北京市,延庆石河营,颗粒物(PM10),58,65,49,37,29,36,,50,50,49,40,7,5,0.8,0.9
2026-02-03T1800,3695A,116.6151,40.3052,北京市,怀柔新城,,,,29,,17,,,70,49,,18,,5,,0.4
2026-02-03T1800,3696A,116.2542,39.8764,北京市,丰台小屯,细颗粒物(PM2.5),130,145,75,99,39,60,,36,36,47,63,6,4,0.9,0.7
2026-02-03T1800,3697A,116.8399,40.3843,北京市,密云镇,颗粒物(PM10),68,86,40,44,19,32,,48,48,56,44,4,3,0.7,0.5
2026-02-03T1800,4057A,115.9423,40.4431,北京市,延庆百泉,颗粒物(PM10),53,55,43,34,28,51,,50,50,36,33,8,4,0.7,0.6
2026-02-03T1800,4058A,116.6598,39.9164,北京市,通州新华,细颗粒物(PM2.5),133,149,80,101,39,36,,34,34,54,62,7,5,1.0,0.8
2026-02-03T1800,4182A,116.1942,39.9158,北京市,石景山八角,细颗粒物(PM2.5),99,127,65,74,31,49,,38,38,51,54,1,2,0.7,0.5
2026-02-03T1800,4194A,117.078628,40.151726,北京市,平谷新城,细颗粒物(PM2.5),142,158,62,108,38,48,,50,50,70,33,8,4,1.0,0.7
2026-02-03T1800,1761A,123.8274146,41.31234549,本溪市,大峪,细颗粒物(PM2.5),77,100,75,56,41,88,,78,78,24,36,14,10,0.9,1.1
2026-02-03T1800,1763A,123.7169,41.3094,本溪市,彩屯,"颗粒物(PM10),细颗粒物(PM2.5)",62,74,106,44,64,47,,57,57,46,49,21,18,3.0,3.5
2026-02-03T1800,1764A,123.7672166,41.28649327,本溪市,东明,,,,70,,51,79,,76,76,,46,14,11,,1.1
2026-02-03T1800,1765A,123.799345,41.266614,本溪市,新立屯,细颗粒物(PM2.5),69,57,54,50,28,83,,78,78,22,36,15,12,0.9,1
2026-02-03T1800,1766A,123.829144,41.336777,本溪市,威宁,细颗粒物(PM2.5),78,75,79,57,42,57,,67,67,35,38,16,10,1.0,1.2
2026-02-03T1800,2587A,105.287,27.3133,毕节市,八中,颗粒物(PM10),55,60,34,37,23,34,,31,31,22,17,9,9,1.0,1.1
2026-02-03T1800,2588A,105.3079,27.2987,毕节市,师专,颗粒物(PM10),55,59,34,29,21,31,,45,45,24,16,9,8,1.0,0.9
2026-02-03T1800,4263A,105.3688,27.3598,毕节市,工业大道,细颗粒物(PM2.5),55,58,29,39,23,25,,38,35,20,14,11,10,/,/
2026-02-03T1800,1629A,117.9961,37.3604,滨州市,第二水厂,细颗粒物(PM2.5),89,97,86,66,59,78,,88,88,31,56,14,17,0.5,0.6
2026-02-03T1800,1630A,117.9789,37.3931,滨州市,北中新校,细颗粒物(PM2.5),82,97,87,60,57,93,,90,90,25,46,10,15,0.7,0.8
2026-02-03T1800,3514A,117.9379,37.3959,滨州市,中海酒店,,,,80,71,57,59,,57,57,28,50,,20,0.8,0.9
2026-02-03T1800,3515A,117.9381509,37.35547456,滨州市,开发区一中,细颗粒物(PM2.5),97,117,101,72,61,70,,81,81,30,53,16,20,0.8,0.9
2026-02-03T1800,3516A,118.0914,37.6938,滨州市,金海六路,,,98,92,46,62,84,,92,92,,71,3,14,0.6,1
2026-02-03T1800,4028A,117.9955,37.3752,滨州市,滨州市西街道办事处,细颗粒物(PM2.5),83,100,86,61,62,89,,92,92,24,48,12,15,0.6,1.1
2026-02-03T1800,2311A,115.8071,33.8399,亳州市,污水处理厂,颗粒物(PM10),62,73,133,39,98,103,,98,98,25,35,5,8,0.3,0.6
2026-02-03T1800,2312A,115.7789,33.8519,亳州市,三国揽胜宫,颗粒物(PM10),70,90,159,45,99,95,,93,93,30,36,5,7,0.4,0.7
2026-02-03T1800,3332A,115.7631,33.803,亳州市,亳州学院,"颗粒物(PM10),细颗粒物(PM2.5)",62,74,132,44,94,98,,97,97,24,24,4,4,0.5,0.7
2026-02-03T1800,2693A,82.0482,44.8553,博尔塔拉蒙古自治州,市党校,细颗粒物(PM2.5),119,123,116,90,73,57,,53,53,38,30,7,3,0.7,0.7
2026-02-03T1800,2694A,82.0805,44.8966,博尔塔拉蒙古自治州,市环保局,细颗粒物(PM2.5),122,127,142,92,96,75,,61,61,31,36,6,6,1.2,1.3
2026-02-03T1800,1071A,116.8733,38.2922,沧州市,沧县城建局,细颗粒物(PM2.5),115,121,98,87,67,90,,96,95,27,39,6,9,0.5,0.6
2026-02-03T1800,1072A,116.8462,38.3189,沧州市,电视转播站,细颗粒物(PM2.5),130,136,98,99,76,101,,103,103,23,35,5,6,0.7,0.8
2026-02-03T1800,1073A,116.8588,38.3161,沧州市,市环保局,细颗粒物(PM2.5),108,148,102,81,64,82,,87,87,27,40,7,10,0.8,0.8
2026-02-03T1800,3324A,116.8011,38.294,沧州市,河北水利电力学院,细颗粒物(PM2.5),124,146,113,94,76,80,,85,85,28,47,7,8,0.5,0.7
2026-02-03T1800,2622A,97.1813,31.1289,昌都市,昌都监测站,,30,11,39,3,20,95,,75,75,2,26,3,4,0.1,0.6
2026-02-03T1800,3719A,97.1707,31.1428,昌都市,昌都会议中心,,24,6,15,6,11,76,,65,65,1,8,4,5,0.1,0.3
2026-02-03T1800,2692A,87.2722,44.0298,昌吉回族自治州,新区政务中心,细颗粒物(PM2.5),156,143,170,119,128,100,,66,66,26,59,11,8,1.8,1.8
2026-02-03T1800,3613A,87.3069,44.0093,昌吉回族自治州,亚心广场,细颗粒物(PM2.5),192,173,200,144,158,102,,70,70,19,46,10,8,1.9,1.7
2026-02-03T1800,4164A,87.2057,43.9289,昌吉回族自治州,财政所,细颗粒物(PM2.5),200,172,95,150,70,87,,67,,,24,5,5,,1.2
2026-02-03T1800,1120A,125.2874,43.9024,长春市,客车厂,细颗粒物(PM2.5),80,88,52,59,34,34,,62,61,68,35,20,16,1.2,0.8
2026-02-03T1800,1121A,125.2943,43.8508,长春市,邮电学院,细颗粒物(PM2.5),77,101,51,56,34,32,,63,59,66,32,19,14,1.2,0.9
2026-02-03T1800,1122A,125.3648,43.8745,长春市,劳动公园,细颗粒物(PM2.5),72,90,58,52,33,43,,67,65,54,26,13,8,1.2,1
2026-02-03T1800,1123A,125.3233,43.8781,长春市,园林处,细颗粒物(PM2.5),82,86,52,60,34,42,,65,62,51,26,20,17,1.1,0.8
2026-02-03T1800,1124A,125.4604,43.7904,长春市,净月潭,"颗粒物(PM10),细颗粒物(PM2.5)",67,84,46,48,30,55,,72,69,35,18,12,10,0.9,0.7
2026-02-03T1800,1126A,125.38,43.8422,长春市,经开区环卫处,细颗粒物(PM2.5),68,70,52,49,31,38,,64,62,56,32,14,9,1.0,0.8
2026-02-03T1800,1127A,125.234,43.7761,长春市,高新区管委会,颗粒物(PM10),64,78,58,45,35,21,,70,62,75,39,12,10,1.0,0.7
2026-02-03T1800,1128A,125.1695,43.83,长春市,岱山公园,细颗粒物(PM2.5),82,95,54,60,34,41,,67,66,54,39,12,11,0.9,0.6
2026-02-03T1800,4281A,125.334645,43.916281,长春市,北亚泰大街1068号,细颗粒物(PM2.5),93,100,61,69,40,32,,60,57,62,37,18,14,1.1,0.7
2026-02-03T1800,1335A,113.082,28.2421,长沙市,经开区环保局,颗粒物(PM10),56,62,82,33,42,80,,85,85,25,34,4,4,0.6,0.6
2026-02-03T1800,1336A,112.8873,28.2202,长沙市,高开区环保局,颗粒物(PM10),62,73,87,38,52,80,,81,81,25,29,6,6,0.9,0.8
2026-02-03T1800,1337A,113.0785,28.2012,长沙市,马坡岭,颗粒物(PM10),60,69,87,40,49,66,,95,95,42,40,6,6,0.8,0.8
2026-02-03T1800,1338A,112.9448,28.1894,长沙市,湖南师范大学,颗粒物(PM10),59,67,82,33,39,86,,93,93,28,25,5,5,0.8,0.8
2026-02-03T1800,1339A,113.0177,28.1322,长沙市,雨花区环保局,颗粒物(PM10),60,70,79,39,43,67,,79,79,38,33,9,9,0.7,0.7
2026-02-03T1800,1340A,112.9795,28.2593,长沙市,伍家岭,颗粒物(PM10),62,74,92,37,48,58,,81,81,42,37,6,6,0.9,0.8
2026-02-03T1800,1341A,113.002,28.1944,长沙市,火车新站,颗粒物(PM10),66,82,87,40,50,74,,88,88,39,36,4,3,0.9,0.9
2026-02-03T1800,1342A,112.9846,28.1177,长沙市,天心区环保局,颗粒物(PM10),61,71,73,38,41,75,,89,89,36,29,6,6,0.7,0.6
2026-02-03T1800,1343A,112.8906,28.1307,长沙市,湖南中医药大学,颗粒物(PM10),62,74,79,34,38,83,,92,92,32,31,7,7,0.8,0.7
2026-02-03T1800,1727A,113.1146,36.1547,长治市,清华站,细颗粒物(PM2.5),78,,84,57,58,94,,81,81,20,29,12,14,0.8,0.9
2026-02-03T1800,1730A,113.0887,36.2126,长治市,审计局,细颗粒物(PM2.5),74,,73,54,65,90,,73,73,21,34,11,13,0.8,0.8
2026-02-03T1800,1731A,113.0845,36.1856,长治市,长治八中,细颗粒物(PM2.5),79,82,96,58,71,88,,71,71,18,27,13,14,0.9,0.9
2026-02-03T1800,2845A,113.1561,36.1912,长治市,德盛苑,细颗粒物(PM2.5),69,57,64,50,61,95,,83,74,16,21,12,14,0.8,0.7
2026-02-03T1800,3568A,113.0603,36.0464,长治市,向阳小学,细颗粒物(PM2.5),84,112,103,62,61,86,,94,94,37,33,16,13,0.9,0.7
2026-02-03T1800,3569A,112.8788,36.315,长治市,屯留一中,细颗粒物(PM2.5),74,72,66,54,46,85,,81,81,19,36,8,13,0.6,0.3
2026-02-03T1800,4189A,113.113092,36.199482,长治市,英华南巷50号,细颗粒物(PM2.5),74,64,80,54,64,91,,71,71,27,29,11,12,0.8,0.9
2026-02-03T1800,4190A,113.23666,36.33435,长治市,学府街1号,"颗粒物(PM10),细颗粒物(PM2.5)",55,60,83,39,61,93,,80,80,18,45,8,13,0.7,1.2
2026-02-03T1800,1854A,111.696,28.9725,常德市,市二中,细颗粒物(PM2.5),100,121,120,75,70,94,,77,77,23,26,7,7,1.0,1.1
2026-02-03T1800,3138A,111.7152,29.0288,常德市,武陵区永安,细颗粒物(PM2.5),102,137,123,76,67,80,,75,75,25,26,7,7,1.0,1
2026-02-03T1800,3139A,111.6891,28.9881,常德市,鼎城区玉霞,细颗粒物(PM2.5),99,123,115,74,65,70,,73,73,33,29,16,10,1.1,0.9
2026-02-03T1800,3140A,111.6651,29.0526,常德市,武陵区长庚,细颗粒物(PM2.5),104,124,115,78,71,74,,74,74,25,22,6,6,0.8,0.8
2026-02-03T1800,1196A,119.9524,31.7586,常州市,市监测站,细颗粒物(PM2.5),92,104,92,68,64,110,,108,108,34,51,7,8,0.5,0.6
2026-02-03T1800,1200A,119.9351,31.703,常州市,武进监测站,细颗粒物(PM2.5),89,90,90,66,67,106,,102,102,26,42,7,7,0.4,0.6
2026-02-03T1800,3002A,119.9701,31.813,常州市,行政中心,细颗粒物(PM2.5),99,101,92,74,64,108,,102,102,32,48,6,7,0.9,0.8
2026-02-03T1800,3003A,120.0434,31.7726,常州市,经开区,细颗粒物(PM2.5),92,120,107,68,65,106,,101,101,33,58,11,14,0.7,0.8
2026-02-03T1800,3010A,119.8919,31.7892,常州市,钟楼,细颗粒物(PM2.5),98,108,89,73,65,107,,105,105,27,39,8,8,0.8,0.8
2026-02-03T1800,3429A,119.8595,31.706,常州市,武进经发区,细颗粒物(PM2.5),99,89,93,74,72,110,,106,106,29,48,6,7,0.9,1
2026-02-03T1800,3430A,119.5812,31.7256,常州市,金坛城区,细颗粒物(PM2.5),98,94,105,73,76,117,,111,111,21,37,7,7,0.6,0.7
2026-02-03T1800,4089A,119.9551,31.863,常州市,崇义南街5-H号,细颗粒物(PM2.5),99,96,92,74,69,99,,98,98,36,52,6,6,1.2,0.9
2026-02-03T1800,2220A,120.4318,41.588,朝阳市,西梁,颗粒物(PM10),53,56,51,33,25,65,,73,73,31,29,11,11,1.0,0.9
2026-02-03T1800,2221A,120.452,41.565,朝阳市,河畔小区,,38,38,39,16,18,68,,75,75,24,21,8,11,0.7,0.8
2026-02-03T1800,2222A,120.4176,41.5648,朝阳市,八里堡,细颗粒物(PM2.5),55,52,48,39,28,62,,69,69,31,36,8,13,0.7,1
2026-02-03T1800,3026A,116.6179,23.6608,潮州市,市政府,颗粒物(PM10),60,70,49,34,33,124,,109,109,16,14,5,5,0.5,0.5
2026-02-03T1800,4036A,116.646,23.676,潮州市,金山,颗粒物(PM10),62,73,46,34,32,137,,113,113,17,17,5,4,0.5,0.6
2026-02-03T1800,2473A,113.0116,25.8228,郴州市,市职中,颗粒物(PM10),53,55,58,29,43,98,,91,91,18,26,11,11,0.6,0.8
2026-02-03T1800,2475A,113.0381,25.8074,郴州市,市审计局,颗粒物(PM10),55,59,60,29,42,87,,79,79,19,32,9,6,/,/
2026-02-03T1800,2476A,113.0348,25.7757,郴州市,市环保局,颗粒物(PM10),53,56,69,28,40,93,,84,84,21,35,13,9,0.5,0.7
2026-02-03T1800,4252A,113.0138,25.8011,郴州市,好美居路49号,,,,63,,51,,,59,,,42,,9,,
2026-02-03T1800,1431A,103.9727,30.7242,成都市,金泉两河,细颗粒物(PM2.5),110,132,109,83,71,37,,52,50,58,38,2,2,1.1,1
2026-02-03T1800,1432A,104.1423,30.6765,成都市,十里店,细颗粒物(PM2.5),84,107,111,62,62,83,,72,72,29,34,4,4,0.7,0.7
2026-02-03T1800,1433A,104.0594,30.5765,成都市,三瓦窑,细颗粒物(PM2.5),83,102,108,61,64,78,,65,65,30,37,4,4,1.0,1
2026-02-03T1800,1434A,104.1122,30.6306,成都市,沙河铺,"颗粒物(PM10),细颗粒物(PM2.5)",80,109,106,59,63,67,,62,62,36,36,3,3,0.8,0.8
2026-02-03T1800,2880A,104.0219,30.6561,成都市,大石西路,细颗粒物(PM2.5),98,113,112,73,78,72,,56,56,27,31,6,5,0.8,0.9
2026-02-03T1800,3136A,104.2724,30.559,成都市,龙泉驿区区政府,细颗粒物(PM2.5),73,78,77,53,56,72,,75,75,20,18,6,6,0.9,0.9
2026-02-03T1800,3357A,104.0028,30.6891,成都市,金博路,细颗粒物(PM2.5),119,132,104,90,71,35,,49,49,60,39,5,4,1.0,0.9
2026-02-03T1800,3359A,104.056,30.5228,成都市,华阳,细颗粒物(PM2.5),78,95,90,57,61,74,,70,70,32,32,4,3,1.0,1
2026-02-03T1800,3488A,104.387954,30.746684,成都市,青石路225号,细颗粒物(PM2.5),85,104,102,63,64,77,,74,74,26,37,2,3,1.0,1
2026-02-03T1800,3489A,104.0788,30.4054,成都市,科学城,细颗粒物(PM2.5),98,141,90,73,55,58,,54,54,18,17,6,6,0.9,1
2026-02-03T1800,4011A,103.8505,30.6946,成都市,光华大道三段,细颗粒物(PM2.5),103,132,127,77,73,46,,53,53,51,37,3,3,0.9,0.9
2026-02-03T1800,4144A,104.3257,30.6406,成都市,八角井街185号,,,,106,53,61,69,,66,66,24,27,4,4,0.7,0.9
2026-02-03T1800,4224A,104.2433276,30.53529463,成都市,鲸龙路1057号,细颗粒物(PM2.5),69,78,87,50,56,77,,76,76,20,27,5,6,0.8,0.8
2026-02-03T1800,1062A,117.9531,40.908,承德市,铁路,细颗粒物(PM2.5),64,76,51,46,28,12,,40,40,59,36,13,8,0.9,1
2026-02-03T1800,1063A,117.9397,40.9763,承德市,中国银行,细颗粒物(PM2.5),63,73,55,45,29,10,,52,47,72,36,10,5,1.1,0.8
2026-02-03T1800,4073A,117.9462,40.95,承德市,杏林街1号,,46,44,47,32,32,48,,54,54,27,36,13,8,0.8,1
2026-02-03T1800,4274A,117.7994,40.9605,承德市,滨河大街98号,细颗粒物(PM2.5),72,70,51,52,28,34,,41,41,30,33,10,16,0.9,1.1
2026-02-03T1800,2314A,117.4698,30.6617,池州市,池州学院,细颗粒物(PM2.5),65,73,79,47,55,62,,68,68,30,28,4,4,0.9,1.1
2026-02-03T1800,3237A,117.4918,30.6617,池州市,展览馆,颗粒物(PM10),62,73,77,39,47,53,,69,69,34,27,2,2,0.8,1
2026-02-03T1800,3333A,117.5626,30.695,池州市,第八中学,,,76,80,48,52,46,,68,66,41,25,,3,0.7,0.8
2026-02-03T1800,3334A,117.5037,30.6242,池州市,第十二中学,颗粒物(PM10),65,80,81,45,47,54,,63,63,38,41,2,3,0.9,1.2
2026-02-03T1800,1744A,118.9229,42.2816,赤峰市,松山一中,,50,,29,35,12,60,,70,70,30,19,7,6,0.8,0.8
2026-02-03T1800,1745A,118.9588,42.2733,赤峰市,哈达街,,26,26,20,14,8,64,,70,70,9,13,7,8,1.1,0.6
2026-02-03T1800,1746A,118.8792,42.2551,赤峰市,天义路,,21,14,13,11,15,65,,72,72,14,10,5,5,0.5,0.5
2026-02-03T1800,3058A,119.2656,42.0356,赤峰市,银河街,,25,22,83,11,42,78,,83,83,12,26,13,23,0.8,1.4
2026-02-03T1800,3286A,118.9359,42.3146,赤峰市,桥北物流园区,,32,32,20,22,11,64,,77,77,23,17,3,4,0.7,0.6
2026-02-03T1800,2521A,107.3473,22.4137,崇左市,市环保局江州分局,细颗粒物(PM2.5),77,80,73,56,57,99,,74,74,18,25,6,6,1.0,1
2026-02-03T1800,4256A,107.375,22.3736,崇左市,石景林东路7号,细颗粒物(PM2.5),85,71,72,63,62,73,,54,54,22,26,8,8,0.8,0.8
2026-02-03T1800,3207A,118.31131,32.3033,滁州市,市政府原办公楼,,,74,114,57,100,96,,98,98,,43,6,5,0.4,0.7
2026-02-03T1800,3331A,118.3268,32.2633,滁州市,图书馆,颗粒物(PM10),58,65,108,38,75,92,,96,96,34,40,7,7,0.5,0.8
2026-02-03T1800,4101A,118.3196,32.3335,滁州市,银山路666号,细颗粒物(PM2.5),79,73,110,58,107,100,,101,101,26,35,12,9,0.5,0.8
2026-02-03T1800,4102A,118.3426,32.2979,滁州市,黄山路555号,,,83,132,51,100,104,,105,105,,49,6,5,0.5,0.7
2026-02-03T1800,2606A,101.5379,25.0492,楚雄彝族自治州,市经济开发区,,,,31,45,22,82,,74,74,9,22,2,4,,0.8
2026-02-03T1800,4153A,101.5536,25.0343,楚雄彝族自治州,团结路562号,,27,17,30,13,17,84,,75,75,3,15,3,4,0.4,0.6
2026-02-03T1800,2549A,107.5087,31.2186,达州市,市环境监测站,颗粒物(PM10),63,75,102,40,67,54,,20,20,27,45,7,7,0.8,1.1
2026-02-03T1800,2550A,107.4988,31.2132,达州市,凤凰小区,颗粒物(PM10),67,83,105,38,66,55,,20,20,25,47,6,6,0.5,1
2026-02-03T1800,2551A,107.5081,31.1987,达州市,达县机关宾馆,颗粒物(PM10),68,85,118,35,80,45,,23,23,36,49,5,6,0.9,1.2
2026-02-03T1800,2552A,107.4644,31.2124,达州市,市政中心,颗粒物(PM10),73,95,119,50,65,48,,21,21,36,54,7,7,0.7,1.2
2026-02-03T1800,2614A,100.2168,25.5818,大理白族自治州,大理市环境监测站,,27,14,17,7,10,86,,78,78,6,7,6,6,0.4,0.4
2026-02-03T1800,2615A,100.1542,25.7055,大理白族自治州,大理古城,,34,34,22,14,12,80,,78,78,7,10,8,8,0.5,0.5
2026-02-03T1800,1109A,121.6119,38.974,大连市,甘井子,细颗粒物(PM2.5),70,72,48,51,32,94,,91,91,32,34,11,9,0.4,0.5
2026-02-03T1800,1110A,121.565,38.9509,大连市,周水子,细颗粒物(PM2.5),67,55,38,48,30,86,,86,86,28,28,3,5,0.5,0.6
2026-02-03T1800,1111A,121.5637,38.8849,大连市,星海三站,,,66,38,58,35,86,,84,84,,23,7,10,,0.7
2026-02-03T1800,1112A,121.6301,38.9117,大连市,青泥洼桥,细颗粒物(PM2.5),75,68,48,55,34,92,,88,88,28,23,10,11,0.6,0.5
2026-02-03T1800,1113A,121.6248,38.8643,大连市,傅家庄,细颗粒物(PM2.5),74,86,54,54,30,81,,79,79,29,22,9,9,0.9,0.8
2026-02-03T1800,1114A,121.5117,38.8636,大连市,七贤岭,细颗粒物(PM2.5),77,69,38,56,28,86,,88,88,31,19,11,9,0.7,0.8
2026-02-03T1800,1116A,121.7507,39.1339,大连市,金州,细颗粒物(PM2.5),69,69,48,50,33,79,,79,79,38,30,12,12,0.5,0.6
2026-02-03T1800,1117A,121.7811,39.0495,大连市,开发区,细颗粒物(PM2.5),67,65,51,48,40,79,,78,78,32,36,9,10,0.7,0.8
2026-02-03T1800,1118A,121.9762,39.0631,大连市,双D港,细颗粒物(PM2.5),79,67,45,58,32,95,,90,90,32,29,12,11,0.8,0.7
2026-02-03T1800,4082A,121.2548,38.8188,大连市,旅顺,细颗粒物(PM2.5),69,65,44,50,33,89,,82,82,19,19,9,9,0.6,0.7
2026-02-03T1800,1789A,124.8085,46.0381,大庆市,大同区,颗粒物(PM10),51,52,61,30,30,56,,45,,32,14,9,8,0.6,0.8
2026-02-03T1800,1790A,125.1166,46.5255,大庆市,龙凤区,颗粒物(PM10),51,52,57,31,30,60,,65,65,28,21,11,9,0.7,0.7
2026-02-03T1800,1791A,124.8894,46.4007,大庆市,红岗区,,42,41,41,29,24,57,,63,63,19,17,6,5,0.6,0.5
2026-02-03T1800,1792A,125.1391,46.578,大庆市,萨尔图区,,39,39,55,24,25,67,,61,61,16,19,10,10,0.4,0.4
2026-02-03T1800,1793A,124.9026,46.6217,大庆市,让胡路区,,43,31,36,30,21,64,,70,70,23,15,11,9,0.4,0.4
2026-02-03T1800,3481A,125.127,46.6277,大庆市,萨区政府监测点,,33,33,54,17,23,77,,71,71,9,17,10,11,0.6,0.7
2026-02-03T1800,1723A,113.2926,40.0759,大同市,云冈宾馆,颗粒物(PM10),80,110,80,54,38,27,,37,37,72,49,16,21,0.8,1.2
2026-02-03T1800,1724A,113.3437,40.0921,大同市,大同大学,颗粒物(PM10),66,82,65,44,34,25,,42,42,65,37,19,22,0.8,0.7
2026-02-03T1800,1725A,113.2637,40.129,大同市,安家小村,颗粒物(PM10),94,138,81,58,38,30,,44,44,71,45,17,23,0.7,1.7
2026-02-03T1800,3282A,113.3399,40.0586,大同市,大同市卫生学校,颗粒物(PM10),68,85,71,46,34,29,,39,39,71,50,17,21,0.8,0.9
2026-02-03T1800,3565A,113.1371,40.1122,大同市,云冈站,颗粒物(PM10),94,137,81,55,34,26,,36,36,71,46,19,30,0.9,0.8
2026-02-03T1800,3566A,113.1186,40.2556,大同市,图书馆,细颗粒物(PM2.5),98,,57,73,36,23,,42,42,70,31,46,18,1.9,0.8
2026-02-03T1800,3567A,113.5931,40.0459,大同市,区一中,,,,92,,57,47,,48,48,37,41,28,30,0.8,0.9
2026-02-03T1800,4199A,113.2798248,40.09972476,大同市,魏都大道141号,细颗粒物(PM2.5),105,144,104,79,48,36,,46,46,82,57,14,22,1.0,2
2026-02-03T1800,2269A,124.1068,50.4091,大兴安岭地区,科技局,,26,26,25,15,12,68,,72,72,6,6,5,5,0.3,0.3
2026-02-03T1800,3663A,124.117,50.4279,大兴安岭地区,红旗社区,,26,,41,13,29,83,,82,82,2,28,5,8,0.1,0.6
2026-02-03T1800,1600A,124.33,40.0625,丹东市,江湾东路,颗粒物(PM10),53,56,77,35,52,75,,74,74,16,30,8,19,0.6,1.5
2026-02-03T1800,1601A,124.4242,40.1513,丹东市,临江后街,颗粒物(PM10),62,74,75,36,52,78,,73,73,12,26,10,18,0.5,1.1
2026-02-03T1800,1602A,124.3935,40.1461,丹东市,元宝山,颗粒物(PM10),57,64,71,32,51,75,,70,70,18,29,17,19,0.9,1.3
2026-02-03T1800,1603A,124.3634,40.1093,丹东市,民主桥,颗粒物(PM10),59,68,80,36,52,67,,70,70,19,40,9,15,0.7,1.2
2026-02-03T1800,3541A,109.5726195,19.51688767,儋州市,第一中学子站,,27,25,30,10,20,85,,76,76,6,6,4,4,0.7,0.7
2026-02-03T1800,3542A,109.5567,19.5187,儋州市,东坡学校子站,,33,21,31,8,16,104,,91,91,8,8,3,3,0.6,0.7
2026-02-03T1800,2616A,98.5611,24.4273,德宏傣族景颇族自治州,德宏州监测站,,50,43,57,35,39,108,,83,83,11,24,6,6,0.8,0.9
2026-02-03T1800,3677A,98.5887,24.4366,德宏傣族景颇族自治州,芒市人民政府综合楼,颗粒物(PM10),52,53,52,32,28,104,,78,78,11,15,4,4,0.7,0.8
2026-02-03T1800,1901A,104.424,31.1209,德阳市,东山公园,细颗粒物(PM2.5),90,83,82,67,72,52,,52,52,26,22,2,1,0.9,0.9
2026-02-03T1800,1902A,104.3827,31.1318,德阳市,西小区,细颗粒物(PM2.5),98,100,99,73,74,49,,46,44,28,30,4,3,1.2,1.1
2026-02-03T1800,1904A,104.3553,31.1091,德阳市,耐火材料厂,细颗粒物(PM2.5),100,80,90,75,79,51,,40,36,25,32,2,2,1.0,1
2026-02-03T1800,4145A,104.4144,31.1495,德阳市,市林业局,细颗粒物(PM2.5),95,94,92,71,72,53,,45,45,27,36,5,4,1.0,0.9
2026-02-03T1800,1622A,116.3034,37.4675,德州市,儿童乐园,细颗粒物(PM2.5),108,149,132,81,81,87,,102,102,35,40,12,14,1.1,1.1
2026-02-03T1800,1624A,116.2992,37.4449,德州市,监理站,细颗粒物(PM2.5),107,139,134,80,82,90,,107,107,43,48,12,14,0.9,0.9
2026-02-03T1800,3066A,116.2722,37.438,德州市,九衢泉纯净水厂,细颗粒物(PM2.5),118,132,137,89,93,83,,97,95,40,55,7,11,1.4,1.4
2026-02-03T1800,3371A,116.3693,37.44,德州市,开发区人民医院,细颗粒物(PM2.5),108,134,135,81,86,94,,104,104,24,50,13,17,0.8,0.9
2026-02-03T1800,3511A,116.5687,37.3331,德州市,陵城艺术中心,细颗粒物(PM2.5),152,151,122,116,87,77,,87,87,38,48,17,20,1.0,0.9
2026-02-03T1800,4292A,116.352738,37.420875,德州市,新河东路,细颗粒物(PM2.5),94,117,133,70,80,87,,99,99,28,64,14,17,0.8,0.9
2026-02-03T1800,2621A,99.7054,27.8319,迪庆藏族自治州,迪庆州站,,25,17,22,6,11,80,,78,78,5,9,4,5,0.4,0.5
2026-02-03T1800,3180A,99.7122,27.8129,迪庆藏族自治州,质量技术监督局,,27,15,21,3,11,85,,82,82,5,9,4,5,0.4,0.4
2026-02-03T1800,4257A,104.6092,35.5962,定西市,将台街,颗粒物(PM10),70,90,101,50,53,84,,74,74,6,30,9,13,0.8,1
2026-02-03T1800,4309A,104.6159,35.5701,定西市,正龙路62号,颗粒物(PM10),78,105,103,48,52,77,,70,70,10,16,8,10,0.6,1
2026-02-03T1800,1390A,113.7943,23.0132,东莞市,东城石井,臭氧1小时(O3_1h),59,50,43,30,25,167,,144,144,29,30,6,7,0.7,0.6
2026-02-03T1800,1391A,113.7384,22.9659,东莞市,南城西平,,,56,47,40,27,,,136,136,36,59,6,7,0.7,0.7
2026-02-03T1800,3319A,113.7283,23.041,东莞市,万江金泰,颗粒物(PM10),55,59,45,34,25,159,,129,129,25,27,6,6,0.8,0.8
2026-02-03T1800,4129A,113.8666,23.1062,东莞市,裕兴路,,45,45,47,24,23,130,,112,112,20,28,6,8,0.8,0.8
2026-02-03T1800,4130A,114.0076,22.9739,东莞市,教育路1号,颗粒物(PM10),56,62,51,32,26,154,,137,137,35,37,5,6,0.7,0.7
2026-02-03T1800,4131A,113.7981,22.8124,东莞市,长怡路1号,颗粒物(PM10),69,87,56,44,26,159,,122,122,46,44,7,7,0.8,0.8
2026-02-03T1800,1666A,118.6612,37.4313,东营市,市环保局,细颗粒物(PM2.5),82,90,81,60,53,81,,97,97,43,55,12,18,0.9,1.1
2026-02-03T1800,3036A,118.6903,37.4337,东营市,开发区管委会,,,91,80,57,48,91,,91,91,,57,,14,0.6,0.7
2026-02-03T1800,3365A,118.5721,37.5654,东营市,垦利区民丰路,细颗粒物(PM2.5),95,92,85,71,58,97,,100,100,37,63,12,17,0.7,0.9
2026-02-03T1800,3498A,118.5063,37.8606,东营市,河口城区,颗粒物(PM10),76,102,98,53,61,93,,102,102,35,60,12,19,0.9,1.2
2026-02-03T1800,3646A,118.4979,37.4623,东营市,胜利站,细颗粒物(PM2.5),80,78,87,59,56,70,,83,83,58,71,12,19,0.9,1.2
2026-02-03T1800,3734A,118.5753,37.4405,东营市,理想之城,细颗粒物(PM2.5),69,85,88,50,53,68,,94,94,53,60,9,16,0.7,1
2026-02-03T1800,1591A,110.0024,39.8127,鄂尔多斯市,综合楼,颗粒物(PM10),71,92,58,27,20,58,,67,67,38,36,12,12,0.6,0.6
2026-02-03T1800,1592A,109.9485,39.8259,鄂尔多斯市,巴音孟克林场办事处,颗粒物(PM10),58,66,42,22,17,52,,69,69,31,29,11,12,0.5,0.5
2026-02-03T1800,1593A,109.7734,39.5987,鄂尔多斯市,康泽苑,颗粒物(PM10),64,78,49,24,17,94,,78,78,11,25,6,5,0.5,0.5
2026-02-03T1800,1594A,109.8121,39.5987,鄂尔多斯市,华泰汽车城,颗粒物(PM10),63,75,48,23,18,103,,81,81,15,38,9,8,0.5,0.5
2026-02-03T1800,1595A,109.9734,39.7884,鄂尔多斯市,奥林花园,颗粒物(PM10),69,88,65,27,23,70,,66,66,27,46,7,8,0.5,0.6
2026-02-03T1800,2436A,114.894,30.3989,鄂州市,市政府,细颗粒物(PM2.5),63,65,82,45,56,60,,67,67,33,47,7,6,0.7,0.7
2026-02-03T1800,2437A,114.8986,30.3714,鄂州市,赵家坝,细颗粒物(PM2.5),73,75,83,53,54,59,,67,67,26,34,10,9,0.9,0.8
2026-02-03T1800,3654A,114.8093,30.4091,鄂州市,精准医疗中心,细颗粒物(PM2.5),72,78,88,52,56,49,,68,68,44,47,14,17,0.8,0.7
2026-02-03T1800,2454A,109.4978,30.2979,恩施土家族苗族自治州,湖北民院,颗粒物(PM10),59,68,71,38,45,94,,66,66,10,19,7,6,0.7,0.9
2026-02-03T1800,3549A,109.5061,30.3771,恩施土家族苗族自治州,龙凤新区,颗粒物(PM10),59,67,67,36,40,72,,56,56,17,18,8,7,0.6,0.8
2026-02-03T1800,2499A,108.3411,21.6159,防城港市,沙万,,49,49,61,20,44,108,,114,114,24,19,11,8,1.4,1.1
2026-02-03T1800,2500A,108.3515,21.7733,防城港市,防城档案局,,41,41,72,23,48,122,,125,125,17,18,7,7,0.9,0.9
2026-02-03T1800,2501A,108.3506,21.6414,防城港市,大海花园,,40,40,56,20,47,125,,127,127,15,16,10,8,0.8,0.9
2026-02-03T1800,1371A,113.1293,23.0065,佛山市,湾梁,颗粒物(PM10),56,61,45,37,24,158,,105,105,30,36,/,/,/,/
2026-02-03T1800,1372A,113.1082,23.0477,佛山市,华材职中,颗粒物(PM10),53,56,51,36,29,152,,107,107,24,46,6,6,0.8,0.8
2026-02-03T1800,1373A,113.1439,23.045,佛山市,南海气象局,颗粒物(PM10),53,56,46,33,26,134,,100,100,35,48,/,/,/,/
2026-02-03T1800,1374A,113.2879,22.8094,佛山市,顺德苏岗,,,64,46,,27,185,,131,131,32,50,/,/,0.6,1
2026-02-03T1800,1376A,112.8384,22.8678,佛山市,高明孔堂,细颗粒物(PM2.5),52,49,49,36,28,154,,115,115,26,32,/,/,/,/
2026-02-03T1800,1377A,112.8835,23.1584,佛山市,三水监测站,颗粒物(PM10),58,66,58,37,30,105,,100,100,49,40,2,5,0.5,0.5
2026-02-03T1800,1378A,112.8668,23.185,佛山市,三水云东海,颗粒物(PM10),52,53,50,32,27,114,,110,110,39,33,/,/,/,/
2026-02-03T1800,3625A,113.2568,22.7629,佛山市,容桂街道办,颗粒物(PM10),51,51,53,33,29,148,,125,125,29,49,/,/,/,/
2026-02-03T1800,1282A,119.2681,26.0506,福州市,师大,细颗粒物(PM2.5),62,70,47,44,34,84,,101,98,36,17,4,3,0.6,0.6
2026-02-03T1800,1283A,119.2983,26.1028,福州市,五四北路,,49,49,45,31,33,94,,100,100,20,16,5,5,0.5,0.5
2026-02-03T1800,1284A,119.2648,26.0769,福州市,杨桥西路,颗粒物(PM10),54,57,47,35,31,92,,100,100,25,14,5,5,/,/
2026-02-03T1800,3048A,119.5799,26.0937,福州市,九龙,,36,36,47,20,35,109,,104,104,13,14,4,5,0.5,0.6
2026-02-03T1800,3526A,119.5188,25.9666,福州市,吴航,,37,37,56,21,35,105,,102,102,16,15,5,5,0.5,0.7
2026-02-03T1800,4104A,119.3106,26.0648,福州市,路通桥巷6号,颗粒物(PM10),54,58,53,33,36,94,,96,96,17,15,/,/,/,/
2026-02-03T1800,1755A,123.7974,41.8494,抚顺市,望花区,细颗粒物(PM2.5),74,84,102,54,54,67,,66,66,29,48,22,17,1.0,1.2
2026-02-03T1800,1756A,123.9161,41.8827,抚顺市,顺城区,细颗粒物(PM2.5),70,68,73,51,50,78,,74,74,29,52,18,13,1.1,1.3
2026-02-03T1800,1757A,124.0437,41.8615,抚顺市,东洲区,颗粒物(PM10),63,76,67,37,40,76,,76,76,21,28,42,19,1.0,0.9
2026-02-03T1800,1758A,123.9246,41.8638,抚顺市,新抚区,细颗粒物(PM2.5),75,65,67,55,55,82,,80,80,28,50,15,9,1.0,1.1
2026-02-03T1800,1759A,124.0972,41.8961,抚顺市,大伙房水库,颗粒物(PM10),52,54,55,35,35,86,,81,81,14,28,17,18,0.7,0.8
2026-02-03T1800,1760A,123.708,41.8386,抚顺市,沈抚新城,细颗粒物(PM2.5),75,87,94,55,50,69,,76,76,40,52,19,18,1.3,1.5
2026-02-03T1800,2377A,116.3544,27.9833,抚州市,市站,颗粒物(PM10),52,53,54,35,38,83,,80,80,19,19,10,13,1.1,1
2026-02-03T1800,2378A,116.3562,27.9631,抚州市,血防站,颗粒物(PM10),52,54,55,34,39,82,,76,76,25,28,10,10,1.7,1.4
2026-02-03T1800,2379A,116.3561,28.0007,抚州市,采茶剧团,颗粒物(PM10),53,55,54,36,37,79,,75,75,15,17,9,11,1.0,0.9
2026-02-03T1800,2380A,116.3854,27.9648,抚州市,医学分院,颗粒物(PM10),55,60,60,30,35,78,,76,76,16,21,5,6,1.0,1
2026-02-03T1800,2207A,121.6095,41.9978,阜新市,工业园区,细颗粒物(PM2.5),93,133,110,69,56,40,,64,64,54,35,29,40,0.9,0.9
2026-02-03T1800,2208A,121.6567,42.0188,阜新市,长青街,细颗粒物(PM2.5),92,110,68,68,47,47,,64,64,55,40,26,27,0.9,0.9
2026-02-03T1800,2209A,121.6672,42.07,阜新市,农业园区,细颗粒物(PM2.5),88,124,81,65,39,52,,66,66,48,30,24,40,0.7,0.8
2026-02-03T1800,2211A,121.6343,42.0455,阜新市,玉龙新城,颗粒物(PM10),86,121,84,61,45,42,,65,65,60,42,23,25,1.0,1
2026-02-03T1800,2301A,115.8276,32.8929,阜阳市,市监测站,,,93,139,58,92,84,,92,92,24,43,,5,0.7,0.8
2026-02-03T1800,2303A,115.8551,32.8606,阜阳市,开发区,细颗粒物(PM2.5),73,90,137,53,90,80,,90,90,33,44,6,5,0.5,0.6
2026-02-03T1800,2875A,115.783962,32.889217,阜阳市,阜阳职业技术学院,细颗粒物(PM2.5),92,97,119,68,79,93,,101,101,19,26,7,7,0.7,0.7
2026-02-03T1800,3468A,115.79,32.8614,阜阳市,市规划展馆,细颗粒物(PM2.5),80,92,125,59,82,86,,97,97,21,26,6,6,0.8,0.8
2026-02-03T1800,3469A,115.835101,32.918568,阜阳市,枣园社区,细颗粒物(PM2.5),82,90,138,60,87,81,,92,92,23,42,7,7,0.7,0.8
2026-02-03T1800,2669A,102.9097,34.9841,甘南藏族自治州,州政府,颗粒物(PM10),57,64,75,33,50,85,,75,75,9,17,8,7,0.4,0.7
2026-02-03T1800,3380A,102.8915,34.9618,甘南藏族自治州,甘肃民族师范学院,颗粒物(PM10),56,62,77,21,37,90,,78,78,7,22,6,9,0.4,0.6
2026-02-03T1800,2570A,101.96,30.048,甘孜藏族自治州,水桥子,,24,7,15,7,7,76,,63,63,8,11,7,6,0.8,0.8
2026-02-03T1800,3065A,101.9534,29.9976,甘孜藏族自治州,州环保局,,26,12,16,12,10,82,,69,69,10,13,6,6,0.5,0.5
2026-02-03T1800,2363A,114.9368,25.8663,赣州市,地委,,45,36,54,31,29,132,,114,114,22,20,8,8,1.0,0.9
2026-02-03T1800,2364A,114.946,25.8483,赣州市,气象台,,,62,55,33,32,118,,120,120,,27,6,7,0.5,0.5
2026-02-03T1800,2365A,114.932,25.8332,赣州市,市图书馆,,50,49,49,35,32,109,,92,92,24,22,3,4,0.9,0.8
2026-02-03T1800,2366A,114.8905,25.8472,赣州市,华坚鞋城,颗粒物(PM10),56,62,51,35,31,98,,104,104,47,22,5,6,0.7,0.5
2026-02-03T1800,3109A,115.0094,25.8614,赣州市,赣县区卫计委,细颗粒物(PM2.5),53,48,51,37,25,114,,95,95,14,18,7,7,0.7,0.7
2026-02-03T1800,2684A,106.2753,36.0057,固原市,监测站,颗粒物(PM10),81,112,95,40,40,79,,75,75,16,17,8,8,0.7,0.7
2026-02-03T1800,2685A,106.2384,36.0189,固原市,新区,颗粒物(PM10),83,116,97,43,40,79,,73,73,14,17,9,7,0.5,0.6
2026-02-03T1800,2544A,106.6307,30.4577,广安市,市委,细颗粒物(PM2.5),74,92,106,54,86,63,,43,43,21,30,7,6,0.9,1.1
2026-02-03T1800,2545A,106.6266,30.4662,广安市,友谊中学,颗粒物(PM10),67,84,103,41,73,69,,39,39,20,26,7,6,1.0,1.3
2026-02-03T1800,2547A,106.6386,30.4551,广安市,广电花园,细颗粒物(PM2.5),78,76,94,57,94,58,,36,36,26,27,7,6,0.8,1.1
2026-02-03T1800,2902A,106.6347,30.4868,广安市,北辰小学,细颗粒物(PM2.5),72,81,98,52,89,65,,38,38,17,20,8,6,0.9,1.1
2026-02-03T1800,2524A,105.8211,32.4444,广元市,老城,细颗粒物(PM2.5),53,50,93,37,62,62,,54,54,29,48,6,6,1.0,1.1
2026-02-03T1800,2526A,105.8629,32.429,广元市,监测站,颗粒物(PM10),62,74,79,40,55,44,,49,49,31,29,6,7,1.0,1.2
2026-02-03T1800,3617A,105.8047,32.4167,广元市,经开区,"颗粒物(PM10),细颗粒物(PM2.5)",62,74,99,44,63,43,,43,43,31,44,3,8,1.0,1.1
2026-02-03T1800,1345A,113.2346,23.1423,广州市,广雅中学,颗粒物(PM10),67,83,56,38,29,140,,104,104,26,41,4,4,1.0,0.9
2026-02-03T1800,1346A,113.2611,23.105,广州市,市五中,颗粒物(PM10),61,72,48,36,26,167,,121,121,31,37,9,8,/,/
2026-02-03T1800,1348A,113.3477,23.0916,广州市,广东商学院,细颗粒物(PM2.5),58,63,44,41,25,153,,115,115,28,34,7,6,0.6,0.5
2026-02-03T1800,1349A,113.4332,23.105,广州市,市八十六中,颗粒物(PM10),54,58,42,37,27,152,,114,114,52,51,18,9,/,/
2026-02-03T1800,1350A,113.3506,22.9488,广州市,番禺中学,臭氧1小时(O3_1h),68,64,55,36,28,174,,131,131,24,44,3,4,0.7,0.7
2026-02-03T1800,1351A,113.2147,23.3918,广州市,花都师范,颗粒物(PM10),56,61,48,33,23,119,,100,100,39,28,6,7,0.6,0.6
2026-02-03T1800,1352A,113.2599,23.1329,广州市,市监测站,颗粒物(PM10),60,70,52,39,28,144,,108,108,28,36,4,3,/,/
2026-02-03T1800,1353A,113.5618,23.3119,广州市,九龙镇镇龙,颗粒物(PM10),61,72,45,40,24,135,,104,104,32,26,6,5,0.7,0.6
2026-02-03T1800,1354A,113.2764,23.1544,广州市,麓湖,颗粒物(PM10),56,62,42,36,24,142,,105,105,27,43,6,8,0.7,0.8
2026-02-03T1800,2846A,113.3209,23.1323,广州市,体育西,颗粒物(PM10),61,71,48,36,27,144,,104,104,24,30,8,7,0.9,0.8
2026-02-03T1800,3298A,113.5718,23.5493,广州市,从化街口,,40,40,40,22,23,119,,105,105,19,26,6,6,0.5,0.6
2026-02-03T1800,3299A,113.3463,23.369,广州市,白云竹料,颗粒物(PM10),60,69,49,34,26,116,,104,104,40,33,4,5,0.5,0.5
2026-02-03T1800,3300A,113.2981,23.2365,广州市,白云嘉禾,细颗粒物(PM2.5),65,78,60,47,32,123,,39,,37,51,5,6,/,/
2026-02-03T1800,3301A,113.4256,23.1716,广州市,黄埔科学城,颗粒物(PM10),63,75,41,44,26,135,,111,111,47,27,5,4,0.7,0.7
2026-02-03T1800,3302A,113.3942,23.0485,广州市,番禺大学城,臭氧1小时(O3_1h),62,60,45,28,24,169,,128,128,31,45,10,8,0.6,0.6
2026-02-03T1800,3303A,113.4923,22.8169,广州市,南沙黄阁,颗粒物(PM10),60,69,60,37,32,157,,122,122,35,54,5,6,/,/
2026-02-03T1800,3304A,113.534,22.7893,广州市,南沙街,臭氧1小时(O3_1h),60,60,53,33,29,168,,146,146,28,45,4,6,0.7,0.8
2026-02-03T1800,3443A,113.2905,23.5541,广州市,花都梯面,,43,43,35,24,19,92,,93,93,29,12,5,7,/,/
2026-02-03T1800,3445A,113.786,23.7479,广州市,从化良口,,38,37,26,26,16,101,,92,92,18,11,8,7,/,/
2026-02-03T1800,3446A,113.805,23.2614,广州市,增城荔城,,42,42,33,28,19,129,,113,113,16,17,7,6,0.5,0.7
2026-02-03T1800,2506A,109.604387,23.066791,贵港市,江南子站,颗粒物(PM10),56,61,80,33,48,147,,116,116,13,25,8,7,0.7,0.9
2026-02-03T1800,2508A,109.5669,23.1065,贵港市,荷城子站,细颗粒物(PM2.5),59,61,70,42,40,126,,104,104,18,20,8,7,0.9,1
2026-02-03T1800,3405A,109.5886,23.1172,贵港市,新世纪学校,颗粒物(PM10),58,66,78,39,51,143,,123,123,20,20,/,/,0.7,0.7
2026-02-03T1800,4260A,109.5933,23.095,贵港市,中山路155-3号,颗粒物(PM10),54,58,58,36,48,145,,118,118,16,18,/,/,0.8,0.8
2026-02-03T1800,1439A,106.6863,26.6035,贵阳市,马鞍山,,34,34,34,23,24,15,,43,24,27,18,5,5,/,/
2026-02-03T1800,1441A,106.6241,26.6266,贵阳市,鉴湖路,,38,36,41,26,25,20,,54,23,36,25,2,4,0.7,0.7
2026-02-03T1800,1442A,106.7468,26.6344,贵阳市,燕子冲,,,,37,,28,36,,55,40,17,14,8,10,0.7,0.7
2026-02-03T1800,1443A,106.6556,26.4362,贵阳市,碧云窝,颗粒物(PM10),53,56,44,34,27,11,,56,32,40,17,16,15,/,/
2026-02-03T1800,1445A,106.6963,26.6063,贵阳市,红边门,,40,29,39,28,29,14,,48,23,35,23,10,11,/,/
2026-02-03T1800,1446A,106.7162383,26.56964667,贵阳市,新华路,颗粒物(PM10),53,56,41,34,26,11,,46,23,44,25,8,5,0.9,0.7
2026-02-03T1800,1447A,106.6742,26.542,贵阳市,太慈桥,细颗粒物(PM2.5),55,41,37,39,28,17,,51,21,37,24,5,5,/,/
2026-02-03T1800,4230A,106.688212,26.56952,贵阳市,花果园大街66号,细颗粒物(PM2.5),52,,34,36,28,4,,37,11,40,24,3,3,/,/
2026-02-03T1800,4231A,106.687268,26.516892,贵阳市,漓江路57号,,39,36,38,27,25,1,,44,11,38,25,8,7,0.9,0.7
2026-02-03T1800,1864A,110.3091,25.2705,桂林市,龙隐路小学,细颗粒物(PM2.5),89,80,63,66,48,66,,72,72,32,20,23,5,0.7,0.6
2026-02-03T1800,1865A,110.2849361,25.22909545,桂林市,八中,颗粒物(PM10),70,90,67,29,27,61,,67,67,36,28,50,8,0.8,0.8
2026-02-03T1800,3531A,110.296,25.1254,桂林市,旅游学院,颗粒物(PM10),66,82,72,45,48,85,,82,82,22,25,6,6,0.6,0.5
2026-02-03T1800,4222A,110.1835,25.2444,桂林市,环湖路276号,颗粒物(PM10),65,80,70,46,41,61,,62,62,28,25,17,15,1.2,1.1
2026-02-03T1800,4301A,110.2803,25.2773,桂林市,信义路13号,,,,58,,36,74,,75,75,24,23,72,12,,0.9
2026-02-03T1800,2674A,100.2262,34.4854,果洛藏族自治州,玛沁县大武镇,,30,30,39,7,13,94,,86,86,1,4,9,14,0.2,0.3
2026-02-03T1800,1130A,126.5557,45.8109,哈尔滨市,松北商大,细颗粒物(PM2.5),60,50,55,43,40,41,,66,64,45,23,12,9,0.9,0.8
2026-02-03T1800,1132A,126.6162,45.719,哈尔滨市,南岗学府路,颗粒物(PM10),56,61,65,34,38,41,,66,66,32,23,13,11,0.9,0.8
2026-02-03T1800,1133A,126.6894,45.7733,哈尔滨市,太平宏伟公园,细颗粒物(PM2.5),70,54,63,51,37,57,,73,73,35,24,34,14,0.9,0.7
2026-02-03T1800,1134A,126.6361,45.7672,哈尔滨市,道外承德广场,颗粒物(PM10),67,83,80,33,40,53,,67,67,42,29,18,13,0.6,0.8
2026-02-03T1800,1136A,126.644,45.7261,哈尔滨市,动力和平路,细颗粒物(PM2.5),55,55,68,39,40,52,,64,64,32,27,11,13,1.1,1
2026-02-03T1800,1137A,126.5933,45.7479,哈尔滨市,道里建国路,细颗粒物(PM2.5),52,44,63,36,42,22,,62,60,78,33,32,14,0.8,0.8
2026-02-03T1800,1138A,126.6127,45.6119,哈尔滨市,平房东轻厂,细颗粒物(PM2.5),110,115,54,83,40,6,,70,61,93,23,24,10,1.3,0.8
2026-02-03T1800,1139A,126.5875,45.9827,哈尔滨市,呼兰师专,细颗粒物(PM2.5),77,63,57,56,32,51,,66,66,34,23,19,17,1.0,0.8
2026-02-03T1800,1140A,126.6299,45.6799,哈尔滨市,省农科院,细颗粒物(PM2.5),94,94,65,70,42,13,,62,58,70,27,32,16,1.3,0.9
2026-02-03T1800,4282A,126.6769,45.7379,哈尔滨市,华山路1号,颗粒物(PM10),54,58,67,35,38,48,,58,58,42,31,9,10,1.0,0.8
2026-02-03T1800,4283A,126.9717,45.5356,哈尔滨市,解放大街52号,细颗粒物(PM2.5),112,117,60,84,33,36,,62,60,50,20,29,15,1.3,0.8
2026-02-03T1800,2688A,93.5124,42.8176,哈密市,地区监测站,颗粒物(PM10),52,54,54,23,28,78,,72,72,10,20,10,9,0.2,0.5
2026-02-03T1800,2689A,93.5014,42.8312,哈密市,哈密师范学校,,,59,67,22,25,74,,66,66,,34,8,7,0.3,0.7
2026-02-03T1800,2671A,100.9016,36.9464,海北藏族自治州,海晏县西海镇,,28,28,40,6,25,87,,82,82,2,8,5,10,0.4,0.6
2026-02-03T1800,3867A,102.074,36.5056,海东市,平安区公安局北苑,细颗粒物(PM2.5),97,126,100,72,66,86,,64,64,22,28,37,22,1.1,1.3
2026-02-03T1800,4163A,102.0984,36.5119,海东市,滨河路,细颗粒物(PM2.5),98,132,103,73,68,87,,72,72,40,48,36,20,1.0,1.2
2026-02-03T1800,1410A,110.3189,20.0596,海口市,海南大学,,32,24,26,12,17,100,,126,120,8,10,5,6,0.5,0.5
2026-02-03T1800,1411A,110.2827,20.0051,海口市,秀英海南医院,,41,41,31,12,18,98,,116,116,8,11,8,8,0.4,0.5
2026-02-03T1800,1412A,110.3391,19.9979,海口市,海南师范大学,,37,37,31,11,16,103,,123,123,8,11,6,6,0.6,0.6
2026-02-03T1800,1413A,110.3303,20.0359,海口市,龙华路环保局宿舍,,43,43,31,13,17,110,,132,131,8,8,/,/,0.7,0.8
2026-02-03T1800,3539A,110.5111,19.9737,海口市,桂林洋子站,,32,27,28,15,18,101,,118,117,7,10,/,/,/,/
2026-02-03T1800,4134A,110.1952,20.0451,海口市,长滨二路9号,,32,22,24,13,18,101,,123,123,7,9,/,/,/,/
2026-02-03T1800,2673A,100.6158,36.2985,海南藏族自治州,共和县恰卜恰镇,,39,39,54,17,33,97,,84,84,1,22,12,12,0.4,0.6
2026-02-03T1800,2676A,97.373,37.376,海西蒙古族藏族自治州,德令哈市,,33,26,24,12,11,104,,95,95,7,8,13,14,0.4,0.5
2026-02-03T1800,1049A,114.492,36.5712,邯郸市,矿院,细颗粒物(PM2.5),152,122,134,116,118,88,,79,79,26,40,7,5,0.7,0.9
2026-02-03T1800,1050A,114.4839,36.6136,邯郸市,丛台公园,细颗粒物(PM2.5),124,123,136,94,116,90,,80,80,27,39,8,8,0.7,0.9
2026-02-03T1800,3458A,114.7893,36.5592,邯郸市,香泉濮院小区,细颗粒物(PM2.5),98,135,144,73,93,95,,88,88,20,33,4,6,0.7,0.9
2026-02-03T1800,3580A,114.1998,36.4439,邯郸市,峰峰矿区临水派出所,细颗粒物(PM2.5),102,89,88,76,71,104,,99,99,14,9,9,9,0.3,0.9
2026-02-03T1800,4068A,114.5209,36.7697,邯郸市,建安街268号,细颗粒物(PM2.5),120,108,136,91,113,85,,81,81,29,59,6,7,0.5,0.9
2026-02-03T1800,4069A,114.5488,36.6177,邯郸市,丛台东路558号,细颗粒物(PM2.5),128,122,139,97,128,80,,79,79,35,41,4,5,0.8,0.9
2026-02-03T1800,2635A,107.0155,33.0707,汉中市,市监测站,颗粒物(PM10),64,78,114,31,73,69,,58,58,25,39,8,7,0.9,1.3
2026-02-03T1800,2636A,107.0083,33.114,汉中市,鑫源开发区,颗粒物(PM10),57,64,100,32,60,78,,66,66,18,42,9,10,0.6,1
2026-02-03T1800,2637A,107.0072,33.0323,汉中市,南郑大河坎水厂,颗粒物(PM10),64,77,123,31,75,66,,53,53,28,34,6,6,0.9,1.3
2026-02-03T1800,1223A,120.2073,30.2111,杭州市,滨江,细颗粒物(PM2.5),94,100,120,70,79,92,,97,97,42,50,7,7,0.8,0.9
2026-02-03T1800,1224A,120.0625,30.2737,杭州市,西溪,细颗粒物(PM2.5),80,96,95,59,55,101,,97,97,34,37,9,8,0.7,0.7
2026-02-03T1800,1226A,120.3417,30.315,杭州市,下沙,细颗粒物(PM2.5),89,94,118,66,87,101,,95,95,38,70,9,9,0.2,0.5
2026-02-03T1800,1227A,120.1252,30.2465,杭州市,卧龙桥,细颗粒物(PM2.5),83,95,103,61,65,94,,95,95,31,21,10,9,0.5,0.6
2026-02-03T1800,1228A,120.1902,30.2691,杭州市,浙江农大,细颗粒物(PM2.5),83,97,119,61,79,100,,104,104,47,51,7,6,0.6,1
2026-02-03T1800,1230A,120.1195,30.3121,杭州市,和睦小学,细颗粒物(PM2.5),85,105,129,63,82,96,,99,99,35,44,6,5,0.7,1.1
2026-02-03T1800,1231A,120.3076,30.4146,杭州市,临平镇,细颗粒物(PM2.5),89,95,127,66,87,109,,97,97,20,46,8,7,0.7,1
2026-02-03T1800,1232A,120.2753,30.1839,杭州市,城厢镇,细颗粒物(PM2.5),89,106,118,66,77,87,,103,103,47,53,9,8,0.6,0.8
2026-02-03T1800,1233A,120.0883,30.1808,杭州市,云栖,,,,96,,57,,,90,90,,28,,4,,1.0
2026-02-03T1800,3557A,119.9463,30.0496,杭州市,镇二中,细颗粒物(PM2.5),75,63,85,55,67,91,,85,85,36,42,5,5,0.8,0.9
2026-02-03T1800,3558A,119.7184,30.2367,杭州市,市府大楼,细颗粒物(PM2.5),88,93,88,65,72,93,,91,91,25,25,10,10,0.8,1
2026-02-03T1800,3656A,120.1554,30.2863,杭州市,消防大队,细颗粒物(PM2.5),89,101,116,66,82,87,,92,92,40,47,7,6,0.7,0.8
2026-02-03T1800,1270A,117.1957,31.7845,合肥市,明珠广场,细颗粒物(PM2.5),83,95,110,61,63,87,,89,89,34,60,6,6,0.7,0.8
2026-02-03T1800,1271A,117.307,31.8765,合肥市,三里街,细颗粒物(PM2.5),77,92,108,56,65,80,,82,82,40,61,6,6,0.7,0.9
2026-02-03T1800,1272A,117.2587,31.8703,合肥市,琥珀山庄,细颗粒物(PM2.5),84,92,103,62,67,88,,96,96,34,49,8,7,0.8,1
2026-02-03T1800,1275A,117.2593,31.9376,合肥市,庐阳区,颗粒物(PM10),73,95,114,50,63,85,,92,92,42,66,5,4,0.8,0.9
2026-02-03T1800,1276A,117.345251,31.861615,合肥市,瑶海区,颗粒物(PM10),76,102,106,53,60,82,,92,92,50,68,5,5,0.5,0.7
2026-02-03T1800,1277A,117.3033,31.7967,合肥市,包河区,颗粒物(PM10),70,90,111,46,61,86,,91,91,41,72,7,8,0.8,0.9
2026-02-03T1800,1278A,117.278,31.7392,合肥市,滨湖新区,"颗粒物(PM10),细颗粒物(PM2.5)",64,78,104,46,59,98,,95,95,24,22,3,2,0.7,0.8
2026-02-03T1800,1279A,117.1324,31.8395,合肥市,高新区,颗粒物(PM10),71,92,100,48,56,78,,93,93,45,43,4,4,0.8,0.8
2026-02-03T1800,3464A,117.3802,31.9148,合肥市,高教基地,,,105,93,56,47,78,,94,94,,51,7,6,0.7,0.7
2026-02-03T1800,4098A,117.2518,31.8404,合肥市,中国科学技术大学,颗粒物(PM10),69,88,104,49,59,93,,97,97,32,39,9,9,0.8,0.9
2026-02-03T1800,3614A,79.9241,37.0878,和田地区,地区环保局,颗粒物(PM10),213,359,436,78,116,59,,52,52,13,32,1,6,0.4,1.4
2026-02-03T1800,3615A,79.9132,37.1137,和田地区,市环保局,颗粒物(PM10),215,360,444,69,93,84,,64,64,2,30,1,5,0.2,1.2
2026-02-03T1800,2517A,108.0496,24.6957,河池市,市环保站,细颗粒物(PM2.5),58,62,54,41,38,61,,58,58,15,13,14,11,0.9,0.9
2026-02-03T1800,4302A,108.0901,24.6945,河池市,上任中路54号,细颗粒物(PM2.5),58,55,59,41,39,60,,56,56,13,15,13,14,1.0,1
2026-02-03T1800,1697A,114.6962,23.7538,河源市,东埔,,37,30,35,21,22,117,,96,96,11,19,6,6,0.6,0.5
2026-02-03T1800,1698A,114.6895,23.7232,河源市,老城,,42,42,38,23,22,113,,97,97,12,17,6,6,0.6,0.6
2026-02-03T1800,3374A,115.5562,35.089,菏泽市,定陶老年大学,细颗粒物(PM2.5),87,100,147,64,109,100,,97,97,22,26,6,6,0.4,0.6
2026-02-03T1800,4114A,115.4239,35.2593,菏泽市,黄河路600号,颗粒物(PM10),75,100,147,53,103,117,,106,106,23,32,4,5,0.5,0.8
2026-02-03T1800,4115A,115.5025,35.2727,菏泽市,菏泽市人社局,细颗粒物(PM2.5),79,99,140,58,99,112,,98,98,22,31,9,9,0.6,0.8
2026-02-03T1800,4184A,115.479691,35.244011,菏泽市,永昌路1号,颗粒物(PM10),78,105,138,49,94,118,,106,106,39,33,5,4,0.8,0.7
2026-02-03T1800,4193A,115.471542,35.280012,菏泽市,长城路999号,细颗粒物(PM2.5),78,97,136,57,90,115,,101,101,23,27,8,6,0.7,0.9
2026-02-03T1800,2514A,111.5264,24.4178,贺州市,环保小区,颗粒物(PM10),54,57,55,25,33,82,,80,80,43,22,5,5,0.6,0.6
2026-02-03T1800,2515A,111.561,24.4074,贺州市,政协大楼,,43,43,49,22,31,114,,90,90,16,17,12,12,0.7,0.7
2026-02-03T1800,3534A,111.4744,24.455,贺州市,西湾,颗粒物(PM10),51,52,56,22,31,97,,86,86,25,23,7,9,0.8,0.8
2026-02-03T1800,2385A,114.17,35.9019,鹤壁市,市监测站,细颗粒物(PM2.5),107,112,138,80,105,95,,80,80,31,29,6,5,0.8,1
2026-02-03T1800,2386A,114.2953,35.7512,鹤壁市,市交警支队,,,,162,,121,93,,69,69,24,36,,6,0.8,0.8
2026-02-03T1800,2387A,114.2877,35.7302,鹤壁市,迎宾馆,细颗粒物(PM2.5),149,159,164,114,122,104,,76,76,24,36,1,8,0.8,1
2026-02-03T1800,3474A,114.2616,35.6824,鹤壁市,大新区,细颗粒物(PM2.5),134,117,73,102,131,97,,73,73,27,58,10,9,1.0,1.1
2026-02-03T1800,3596A,114.1573,35.9607,鹤壁市,南山宾馆,细颗粒物(PM2.5),102,97,142,76,108,98,,83,83,19,21,8,9,0.5,0.7
2026-02-03T1800,2244A,130.2537,47.3416,鹤岗市,哈啤分公司,细颗粒物(PM2.5),57,43,34,40,28,88,,88,88,13,11,10,7,0.6,0.5
2026-02-03T1800,2245A,130.2683,47.3087,鹤岗市,斯达机电,,41,41,43,27,25,74,,77,77,13,12,7,7,0.6,0.7
2026-02-03T1800,2246A,130.3114,47.3388,鹤岗市,东山纸板厂,,40,40,35,24,27,86,,84,84,8,14,8,10,0.6,0.6
2026-02-03T1800,2263A,127.4832,50.2524,黑河市,交通局,颗粒物(PM10),51,51,36,28,22,32,,70,66,40,18,12,8,0.8,0.5
2026-02-03T1800,2264A,127.5146,50.2339,黑河市,环保局,,45,42,31,31,22,47,,62,62,33,26,13,10,0.7,0.6
2026-02-03T1800,1074A,115.6839,37.754,衡水市,电机北厂,细颗粒物(PM2.5),113,125,119,85,83,99,,103,103,24,35,10,9,,0.7
2026-02-03T1800,1075A,115.6303,37.7318,衡水市,市监测站,细颗粒物(PM2.5),122,123,117,92,84,92,,94,94,25,38,8,9,0.7,0.7
2026-02-03T1800,3188A,115.6684,37.7216,衡水市,市城管局,细颗粒物(PM2.5),105,126,123,79,78,96,,98,98,24,45,11,11,0.7,0.8
2026-02-03T1800,3459A,115.599,37.5491,衡水市,地表水厂,细颗粒物(PM2.5),120,139,129,91,99,81,,98,98,28,58,8,9,0.6,0.8
2026-02-03T1800,2457A,112.6209,26.9268,衡阳市,衡阳化工总厂,细颗粒物(PM2.5),68,77,69,49,42,104,,94,94,19,23,15,10,1.0,0.9
2026-02-03T1800,2458A,112.621,26.8957,衡阳市,珠晖区环保局,颗粒物(PM10),63,76,67,31,40,89,,88,88,32,32,9,7,1.3,1.2
2026-02-03T1800,2459A,112.628,26.8654,衡阳市,市委党校,颗粒物(PM10),56,62,63,33,38,98,,88,88,15,16,12,12,1.3,1.2
2026-02-03T1800,2460A,112.6007,26.8977,衡阳市,市监测站,颗粒物(PM10),63,76,90,42,44,95,,87,87,24,29,13,9,1.3,1.2
2026-02-03T1800,2461A,112.5658,26.9013,衡阳市,真空机电公司,颗粒物(PM10),65,80,83,42,49,89,,87,87,27,32,11,10,1.1,1.2
2026-02-03T1800,3399A,112.6703,26.8817,衡阳市,师范学院,,,,67,,37,,,81,,,25,,5,,0.6
2026-02-03T1800,3038A,103.3757,23.3679,红河哈尼族彝族自治州,州图书馆,,35,30,19,24,16,70,,70,70,8,8,6,6,0.7,0.7
2026-02-03T1800,4154A,103.401,23.3561,红河哈尼族彝族自治州,蒙自市朝阳路,,29,,16,20,16,76,,73,73,4,6,6,6,0.5,0.6
2026-02-03T1800,1090A,111.6506,40.7517,呼和浩特市,呼市一监,颗粒物(PM10),54,58,44,32,22,44,,43,43,34,41,14,11,0.6,0.7
2026-02-03T1800,1094A,111.7516,40.8369,呼和浩特市,如意水处理厂,颗粒物(PM10),53,56,46,27,25,38,,47,47,42,52,19,14,0.5,0.4
2026-02-03T1800,1095A,111.727798,40.806187,呼和浩特市,二十九中,颗粒物(PM10),52,53,44,24,21,39,,45,45,38,44,18,14,0.6,0.6
2026-02-03T1800,1097A,111.717,40.7617,呼和浩特市,化肥厂生活区,颗粒物(PM10),53,56,48,25,23,46,,48,48,38,47,12,9,0.5,0.6
2026-02-03T1800,3699A,111.6519,40.8389,呼和浩特市,海东办,颗粒物(PM10),60,70,54,27,28,33,,42,42,44,50,17,9,0.7,0.8
2026-02-03T1800,4275A,111.591512,40.827312,呼和浩特市,成吉思汗西街8号,颗粒物(PM10),69,88,49,33,21,30,,39,38,47,48,14,10,0.6,0.6
2026-02-03T1800,4276A,111.6597,40.8077,呼和浩特市,公园东路75号,颗粒物(PM10),60,70,48,29,23,41,,44,44,40,52,18,10,0.7,0.8
2026-02-03T1800,4277A,111.5427,40.7846,呼和浩特市,金海路35号,颗粒物(PM10),58,65,47,30,23,32,,39,39,42,51,14,10,0.7,0.7
2026-02-03T1800,3061A,119.7511,49.1576,呼伦贝尔市,国华电力东,,27,27,29,18,16,73,,80,80,18,18,6,6,0.3,0.3
2026-02-03T1800,4279A,119.7569,49.2222,呼伦贝尔市,伊敏大街东7号,,35,27,24,24,14,74,,79,79,8,5,7,8,0.4,0.4
2026-02-03T1800,1250A,120.075,30.867,湖州市,城西水厂,细颗粒物(PM2.5),64,62,100,46,72,111,,104,104,27,58,6,6,0.4,0.7
2026-02-03T1800,2873A,120.083,30.8929,湖州市,仁皇山新区,,,60,100,47,72,112,,103,103,30,51,,6,0.7,0.9
2026-02-03T1800,2907A,120.1846,30.8592,湖州市,吴兴区站,细颗粒物(PM2.5),69,71,106,50,87,102,,102,102,25,47,5,6,0.5,0.7
2026-02-03T1800,3562A,120.4146,30.8538,湖州市,南浔区站,细颗粒物(PM2.5),62,64,97,44,71,107,,107,107,22,41,6,7,0.5,0.7
2026-02-03T1800,1607A,120.904878,40.721091,葫芦岛市,龙港区,细颗粒物(PM2.5),110,111,68,83,43,65,,56,56,45,44,16,16,1.1,1
2026-02-03T1800,1608A,120.8382,40.7521,葫芦岛市,化工街,细颗粒物(PM2.5),139,156,90,106,50,43,,51,51,67,61,29,24,1.0,0.9
2026-02-03T1800,1609A,120.8339,40.7078,葫芦岛市,新区,细颗粒物(PM2.5),125,119,65,95,44,59,,52,52,56,58,17,19,1.1,1
2026-02-03T1800,1610A,120.8697,40.7679,葫芦岛市,东城区,细颗粒物(PM2.5),133,146,83,101,57,47,,53,53,66,59,28,21,1.4,1.5
2026-02-03T1800,2483A,109.9297,27.5383,怀化市,河西地税局,细颗粒物(PM2.5),77,102,94,56,47,59,,74,72,36,24,2,2,/,/
2026-02-03T1800,2484A,109.9783,27.5342,怀化市,市四医院,颗粒物(PM10),75,99,101,42,48,75,,78,78,20,23,8,9,0.6,0.6
2026-02-03T1800,2485A,109.9971,27.5579,怀化市,监测楼,,,88,98,52,57,70,,73,73,,31,6,5,0.3,0.4
2026-02-03T1800,1210A,119.0566,33.5991,淮安市,钵池山,细颗粒物(PM2.5),87,83,67,64,51,96,,90,90,24,27,9,9,0.5,0.5
2026-02-03T1800,1211A,119.0083,33.578,淮安市,北京南路,细颗粒物(PM2.5),84,85,73,62,51,97,,88,88,22,27,8,8,0.5,0.7
2026-02-03T1800,1212A,118.9938,33.6083,淮安市,市监测站,细颗粒物(PM2.5),88,80,67,65,56,99,,88,88,24,25,10,10,0.7,0.6
2026-02-03T1800,1213A,119.135,33.5038,淮安市,楚州区监测站,细颗粒物(PM2.5),104,110,76,78,58,87,,88,88,35,45,7,7,0.7,0.6
2026-02-03T1800,3426A,118.8757,33.2897,淮安市,新华书店,细颗粒物(PM2.5),98,96,86,73,68,76,,81,81,35,31,9,9,0.7,0.6
2026-02-03T1800,4092A,119.119691,33.550006,淮安市,枚皋中路89号,细颗粒物(PM2.5),109,88,77,82,61,108,,98,98,22,27,,10,0.9,0.9
2026-02-03T1800,4206A,119.028838,33.631911,淮安市,承德北路606号,细颗粒物(PM2.5),77,90,82,56,53,105,,97,97,23,26,8,8,0.7,0.7
2026-02-03T1800,2282A,116.8005,33.9749,淮北市,监测站,细颗粒物(PM2.5),77,94,155,56,107,106,,101,101,17,24,6,6,0.6,1
2026-02-03T1800,2283A,116.8094,33.9008,淮北市,烈山区政府,颗粒物(PM10),70,90,144,48,110,108,,102,102,18,25,5,5,0.4,0.7
2026-02-03T1800,4017A,116.7926,33.9534,淮北市,市博物馆,细颗粒物(PM2.5),85,98,160,63,112,103,,98,98,15,18,7,8,0.6,1
2026-02-03T1800,4100A,116.8322,33.9884,淮北市,杜集区第一实验学校,细颗粒物(PM2.5),84,103,154,62,115,99,,94,94,16,19,4,5,0.5,0.8
2026-02-03T1800,2277A,116.8304,32.7726,淮南市,潘集区政府,细颗粒物(PM2.5),88,104,131,65,79,82,,90,90,27,32,6,6,0.6,0.6
2026-02-03T1800,2279A,116.8569,32.5949,淮南市,谢家集区政府,细颗粒物(PM2.5),117,111,105,88,72,85,,89,89,26,23,8,8,,0.8
2026-02-03T1800,2280A,116.8279,32.6333,淮南市,八公山区政府,细颗粒物(PM2.5),97,106,110,72,75,93,,93,93,25,25,4,5,0.8,0.7
2026-02-03T1800,2894A,117.0561,32.6536,淮南市,经济技术开发区消防队,细颗粒物(PM2.5),92,107,121,68,81,85,,92,92,32,34,6,5,0.6,0.6
2026-02-03T1800,3329A,117.011,32.5891,淮南市,山南新区,细颗粒物(PM2.5),94,103,110,70,79,92,,98,98,32,29,8,7,0.6,0.6
2026-02-03T1800,4209A,117.003137,32.644456,淮南市,国庆中路369号,细颗粒物(PM2.5),98,97,111,73,80,82,,86,86,25,27,12,11,0.6,0.7
2026-02-03T1800,2446A,114.9021,30.474,黄冈市,职工中心,细颗粒物(PM2.5),64,66,74,46,59,59,,70,70,31,27,7,5,0.6,0.8
2026-02-03T1800,2929A,114.8858,30.4519,黄冈市,红卫路,细颗粒物(PM2.5),62,61,74,44,60,69,,74,74,25,26,7,6,0.6,0.7
2026-02-03T1800,3398A,114.9134,30.4446,黄冈市,市林业局,细颗粒物(PM2.5),63,71,83,45,58,56,,60,60,28,26,4,4,0.7,0.7
2026-02-03T1800,2672A,102.02,35.5101,黄南藏族自治州,同仁县隆务镇,颗粒物(PM10),65,80,72,42,47,78,,79,79,15,10,11,10,0.6,0.6
2026-02-03T1800,2295A,118.2905,29.6965,黄山市,延安路89号,细颗粒物(PM2.5),57,58,45,40,34,91,,86,86,19,15,5,4,0.7,0.7
2026-02-03T1800,2297A,118.1369,30.2755,黄山市,黄山区政府5号楼,,50,50,39,19,22,69,,73,73,15,10,3,2,0.5,0.7
2026-02-03T1800,4210A,118.335445,29.720283,黄山市,滨江东路7-2号,颗粒物(PM10),84,117,62,43,33,77,,92,92,26,14,/,/,/,/
2026-02-03T1800,2423A,115.0547,30.2332,黄石市,沈家营,颗粒物(PM10),61,71,79,41,45,46,,61,61,31,34,11,9,1.2,1.1
2026-02-03T1800,2426A,114.899,30.211,黄石市,铁山,,,,68,,51,56,,75,70,34,28,8,7,1.0,1
2026-02-03T1800,2427A,115.0259,30.2108,黄石市,团城山,,,,80,48,53,52,,52,52,13,33,6,7,,1
2026-02-03T1800,3149A,115.0174,30.1591,黄石市,笔架山北路,颗粒物(PM10),74,98,107,44,56,53,,70,70,28,22,10,8,1.1,1
2026-02-03T1800,4185A,115.078022,30.21118,黄石市,磁湖东路29号,细颗粒物(PM2.5),70,67,76,51,58,46,,69,69,26,30,7,7,1.2,1.1
2026-02-03T1800,1392A,114.4181,23.0528,惠州市,河南岸金山湖子站,,40,40,39,27,22,112,,96,96,13,18,3,4,0.8,0.8
2026-02-03T1800,1393A,114.4055,23.0824,惠州市,下埔横江三路子站,,44,44,38,26,21,125,,108,108,16,14,6,7,0.5,0.5
2026-02-03T1800,1395A,114.4645,22.7832,惠州市,惠阳区承修路船湖子站,颗粒物(PM10),55,60,51,36,29,124,,110,110,24,30,6,7,0.7,0.7
2026-02-03T1800,1396A,114.5316,22.7423,惠州市,大亚湾管委会子站,颗粒物(PM10),53,56,49,31,28,121,,111,111,20,34,6,6,0.6,0.7
2026-02-03T1800,3314A,114.4334,22.8134,惠州市,惠阳秋长,颗粒物(PM10),57,63,45,33,26,156,,127,127,27,27,/,/,/,/
2026-02-03T1800,3452A,114.6521,22.7755,惠州市,大亚湾霞涌,,47,47,37,25,22,137,,113,113,16,23,/,/,/,/
2026-02-03T1800,4300A,114.4089,23.1147,惠州市,文华一路1号,,41,37,37,21,21,130,,112,112,15,15,/,/,/,/
2026-02-03T1800,2240A,130.9618,45.2926,鸡西市,环保局,细颗粒物(PM2.5),72,64,47,52,21,63,,81,80,24,11,9,7,0.4,0.3
2026-02-03T1800,2243A,130.9294,45.2959,鸡西市,第一中学,,46,46,36,24,19,80,,84,84,13,8,5,4,0.4,0.4
2026-02-03T1800,3707A,131.0069,45.2988,鸡西市,欧美日汽修厂,颗粒物(PM10),54,58,51,33,25,67,,78,77,21,16,11,10,0.6,1
2026-02-03T1800,2367A,114.9753,27.0803,吉安市,红声器材厂,颗粒物(PM10),54,58,53,36,39,98,,96,96,19,18,9,9,0.7,0.7
2026-02-03T1800,2369A,114.9903,27.1313,吉安市,市环境监测站,细颗粒物(PM2.5),54,46,50,38,37,97,,93,93,20,19,6,8,/,/
2026-02-03T1800,2370A,115.009527,27.096792,吉安市,青原区法院,,49,46,53,34,36,98,,96,96,19,18,10,10,0.7,0.7
2026-02-03T1800,1772A,126.54,43.8622,吉林市,哈达湾,,50,48,42,35,28,102,,104,104,21,16,10,10,1.0,0.9
2026-02-03T1800,1773A,126.5843,43.8358,吉林市,东局子,颗粒物(PM10),55,59,42,30,29,54,,81,79,47,18,12,8,1.2,1
2026-02-03T1800,1774A,126.5051,43.8243,吉林市,电力学院,细颗粒物(PM2.5),64,72,40,46,30,79,,95,95,41,20,10,9,1.0,0.8
2026-02-03T1800,1775A,126.6133,43.8971,吉林市,江北,细颗粒物(PM2.5),67,69,52,48,26,70,,79,79,34,22,12,9,1.0,0.7
2026-02-03T1800,1776A,126.5549,43.8304,吉林市,江南公园,颗粒物(PM10),58,65,44,38,32,77,,90,90,31,16,10,10,0.6,0.6
2026-02-03T1800,2868A,126.4737,43.953,吉林市,九站,,,,36,65,29,61,,86,84,,19,12,7,1.0,0.8
2026-02-03T1800,1299A,116.9866,36.6118,济南市,科干所,细颗粒物(PM2.5),85,117,99,63,60,106,,106,106,12,24,8,14,0.6,0.7
2026-02-03T1800,1300A,116.9379,36.6652,济南市,农科所,细颗粒物(PM2.5),104,122,112,78,75,91,,99,99,,40,10,18,0.8,0.9
2026-02-03T1800,1301A,117.1265,36.6736,济南市,开发区,细颗粒物(PM2.5),89,93,88,66,61,106,,114,113,23,37,5,5,0.9,0.8
2026-02-03T1800,1303A,117.0616,36.6865,济南市,省种子仓库,细颗粒物(PM2.5),74,88,100,54,61,104,,112,112,21,47,5,7,0.5,0.8
2026-02-03T1800,1304A,116.9495185,36.644937,济南市,机床二厂,细颗粒物(PM2.5),95,105,115,71,74,96,,101,101,22,40,13,24,0.4,0.6
2026-02-03T1800,1305A,117.0496,36.6629,济南市,市监测站,细颗粒物(PM2.5),77,88,94,56,64,106,,112,112,16,33,5,5,0.7,0.8
2026-02-03T1800,1306A,116.7674,36.5458,济南市,长清党校,细颗粒物(PM2.5),120,142,104,91,67,99,,95,95,31,41,5,6,0.9,0.9
2026-02-03T1800,1961A,117.5323,36.6865,济南市,东山小学,细颗粒物(PM2.5),113,139,92,85,52,103,,110,110,30,35,7,6,0.7,0.6
2026-02-03T1800,3059A,117.7181,36.205,济南市,泰兴公司,细颗粒物(PM2.5),133,166,121,101,77,71,,88,88,46,52,8,10,1.4,1.3
2026-02-03T1800,3064A,117.6861,36.2172,济南市,莱芜战役纪念馆,细颗粒物(PM2.5),125,146,110,95,77,94,,87,87,27,55,14,13,0.9,1.1
2026-02-03T1800,3494A,117.1673,36.9782,济南市,济阳区政府,细颗粒物(PM2.5),110,134,98,83,63,86,,88,88,25,53,6,9,0.8,0.8
2026-02-03T1800,3495A,117.1168,36.6299,济南市,锦屏中学,细颗粒物(PM2.5),93,95,79,69,55,104,,112,111,18,20,5,4,0.5,0.4
2026-02-03T1800,4108A,117.7107,36.2385,济南市,山财大街5号,,,,95,,62,96,,96,96,,65,6,16,,1.1
2026-02-03T1800,4109A,116.9744,36.6889,济南市,无影山路12号,细颗粒物(PM2.5),95,97,108,71,71,88,,97,97,19,35,9,13,0.9,1
2026-02-03T1800,1653A,116.6229,35.4288,济宁市,火炬城,细颗粒物(PM2.5),119,108,126,90,102,101,,83,83,19,32,5,4,0.7,0.8
2026-02-03T1800,3500A,116.5808,35.3703,济宁市,北湖一中,细颗粒物(PM2.5),114,95,119,86,98,106,,87,87,19,31,5,5,0.8,0.8
2026-02-03T1800,3501A,116.8251,35.5592,济宁市,服务中心,,,,151,,106,102,,87,87,18,39,4,7,,1
2026-02-03T1800,3678A,116.5907,35.4054,济宁市,市第七中学,细颗粒物(PM2.5),113,103,134,85,109,109,,91,91,23,48,10,11,0.7,0.9
2026-02-03T1800,4111A,116.6075,35.4566,济宁市,任和路,细颗粒物(PM2.5),112,146,152,84,103,109,,89,89,22,42,6,6,0.7,0.8
2026-02-03T1800,4112A,116.5648,35.3921,济宁市,文体南路1号,细颗粒物(PM2.5),112,138,148,84,105,108,,89,89,20,38,4,5,0.7,0.8
2026-02-03T1800,2255A,130.2749,46.8028,佳木斯市,佳纺,细颗粒物(PM2.5),70,58,48,51,30,58,,79,74,30,11,13,6,0.7,0.5
2026-02-03T1800,2257A,130.3258,46.7975,佳木斯市,环保局,细颗粒物(PM2.5),57,46,45,40,29,55,,81,78,31,14,10,9,0.4,0.2
2026-02-03T1800,4285A,130.363,46.806,佳木斯市,顺和街,细颗粒物(PM2.5),59,,43,42,30,50,,74,71,38,16,12,11,0.7,0.5
2026-02-03T1800,4286A,130.3952,46.8268,佳木斯市,长安路196号,,50,50,47,32,30,70,,82,80,23,15,9,7,0.7,0.7
2026-02-03T1800,1252A,120.7439,30.778,嘉兴市,清河小学,细颗粒物(PM2.5),70,71,106,51,77,92,,104,104,36,43,6,7,0.2,0.5
2026-02-03T1800,1253A,120.7261,30.7477,嘉兴市,嘉兴学院,细颗粒物(PM2.5),68,77,104,49,70,102,,108,108,27,41,6,5,0.7,0.9
2026-02-03T1800,2872A,120.7845,30.7524,嘉兴市,南湖区残联,细颗粒物(PM2.5),72,67,99,52,74,96,,114,114,36,43,6,5,0.4,0.6
2026-02-03T1800,3407A,120.6915,30.7741,嘉兴市,秀洲住建,细颗粒物(PM2.5),70,80,99,51,68,110,,114,114,28,41,7,7,0.5,0.7
2026-02-03T1800,1945A,98.291,39.7705,嘉峪关市,气象局,颗粒物(PM10),97,144,111,44,32,82,,82,82,15,11,13,9,0.6,0.3
2026-02-03T1800,2884A,98.2672,39.7978,嘉峪关市,酒钢宾馆,颗粒物(PM10),104,158,121,53,35,60,,72,71,38,15,48,20,2.6,0.8
2026-02-03T1800,3248A,98.2644,39.7723,嘉峪关市,雄关区,,,113,95,,32,79,,79,79,,18,15,11,0.9,0.4
2026-02-03T1800,1383A,113.1063,22.6058,江门市,北街,臭氧1小时(O3_1h),69,48,58,35,34,175,,137,137,26,53,/,/,/,/
2026-02-03T1800,1384A,113.073,22.5835,江门市,西区,臭氧1小时(O3_1h),69,64,65,34,35,175,,137,137,28,47,/,/,/,/
2026-02-03T1800,1385A,113.0218,22.531,江门市,圭峰西,臭氧1小时(O3_1h),69,59,51,35,31,175,,138,138,20,37,/,/,/,/
2026-02-03T1800,1386A,113.0826,22.5947,江门市,东湖,臭氧1小时(O3_1h),58,60,58,28,32,166,,135,135,24,43,7,7,0.6,0.7
2026-02-03T1800,3311A,113.1077,22.5647,江门市,江海富民,臭氧1小时(O3_1h),60,56,61,35,35,168,,137,137,29,58,/,/,0.6,0.7
2026-02-03T1800,3449A,113.0496,22.4669,江门市,新会银湖,臭氧1小时(O3_1h),65,73,59,43,40,172,,149,149,24,37,7,8,0.7,0.7
2026-02-03T1800,3335A,113.3137,35.2643,焦作市,马村街道办,细颗粒物(PM2.5),107,131,143,80,93,108,,91,91,26,27,7,7,0.7,1
2026-02-03T1800,3336A,113.2464,35.2374,焦作市,焦作技师学院,细颗粒物(PM2.5),107,101,136,80,96,113,,94,94,24,31,8,8,,1
2026-02-03T1800,3477A,113.1656,35.2536,焦作市,中站许衡医院,细颗粒物(PM2.5),117,123,134,88,91,101,,90,90,30,30,12,10,0.8,0.9
2026-02-03T1800,3981A,113.2456,35.18,焦作市,原李万街道办,细颗粒物(PM2.5),113,129,149,85,103,113,,95,95,26,29,15,14,0.6,0.9
2026-02-03T1800,4264A,113.234,35.219,焦作市,新安路1731号,细颗粒物(PM2.5),107,113,149,80,95,118,,97,97,23,28,8,10,0.4,0.7
2026-02-03T1800,4295A,113.2722,35.2121,焦作市,人民路3066号,细颗粒物(PM2.5),109,124,149,82,102,104,,96,96,28,29,8,9,0.7,1
2026-02-03T1800,1708A,116.3701,23.5345,揭阳市,新兴,颗粒物(PM10),65,79,48,32,29,115,,107,107,29,24,9,9,0.8,0.7
2026-02-03T1800,1709A,116.3261,23.5442,揭阳市,西马,颗粒物(PM10),65,80,51,31,31,122,,114,114,22,21,5,6,0.7,0.7
2026-02-03T1800,1710A,116.361,23.5627,揭阳市,东兴,颗粒物(PM10),56,61,48,31,31,124,,114,114,22,21,8,10,/,/
2026-02-03T1800,1711A,116.4151,23.5295,揭阳市,渔湖,颗粒物(PM10),64,77,46,36,30,137,,127,127,19,21,6,6,/,/
2026-02-03T1800,3320A,116.4028,23.5699,揭阳市,曲溪,,,88,48,37,31,,,121,121,23,20,7,11,1.2,0.7
2026-02-03T1800,1944A,102.1691,38.5166,金昌市,天庆家园,颗粒物(PM10),89,127,106,35,46,88,,88,88,6,17,7,14,0.5,0.8
2026-02-03T1800,4022A,102.1648,38.5369,金昌市,金川区人防中心,颗粒物(PM10),85,120,103,47,41,89,,89,89,6,14,7,17,0.4,0.6
2026-02-03T1800,4239A,102.193042,38.531887,金昌市,长春路96号,颗粒物(PM10),88,125,98,45,39,81,,82,82,4,16,7,15,0.6,0.8
2026-02-03T1800,1262A,119.6478,29.0773,金华市,十五中,颗粒物(PM10),61,72,78,40,52,102,,114,114,32,42,3,4,0.6,0.6
2026-02-03T1800,1263A,119.6859,29.1032,金华市,监测站,细颗粒物(PM2.5),70,84,88,51,55,82,,86,86,41,48,4,2,0.4,0.5
2026-02-03T1800,3659A,119.656,29.1132,金华市,气象局,颗粒物(PM10),65,80,83,40,53,79,,84,84,52,53,4,4,0.8,0.8
2026-02-03T1800,1767A,121.1114,41.0879,锦州市,南山,颗粒物(PM10),123,196,100,90,75,25,,50,50,91,61,28,23,1.4,1.8
2026-02-03T1800,1768A,121.060361,40.842794,锦州市,开发区,细颗粒物(PM2.5),124,168,154,94,55,44,,42,42,,70,28,31,1.1,1
2026-02-03T1800,1769A,121.1836,41.1118,锦州市,百股街道,细颗粒物(PM2.5),148,215,90,113,63,26,,43,43,89,66,18,15,1.6,1.5
2026-02-03T1800,1770A,121.1176,41.1224,锦州市,天安街道,细颗粒物(PM2.5),142,206,95,108,70,26,,54,54,78,51,19,18,1.8,1.5
2026-02-03T1800,1771A,121.1303,41.1385,锦州市,北湖公园,细颗粒物(PM2.5),139,190,90,106,65,28,,53,50,81,59,23,26,1.4,1.4
2026-02-03T1800,2160A,112.8496,35.5051,晋城市,自来水公司,细颗粒物(PM2.5),109,125,117,82,67,110,,81,81,23,34,11,9,1.0,1.1
2026-02-03T1800,2162A,112.8509,35.4886,晋城市,市环保局,细颗粒物(PM2.5),127,119,111,96,74,108,,80,80,23,38,9,7,0.7,0.7
2026-02-03T1800,3620A,112.8258,35.4804,晋城市,泽州一中,细颗粒物(PM2.5),102,98,122,76,77,114,,84,84,19,24,8,6,0.9,0.9
2026-02-03T1800,4078A,112.8246,35.5152,晋城市,前书院路,细颗粒物(PM2.5),98,142,138,73,65,107,,77,77,22,28,10,7,0.6,0.8
2026-02-03T1800,4079A,112.8864,35.4773,晋城市,祥云街666号,细颗粒物(PM2.5),133,136,123,101,87,111,,81,81,25,33,12,10,0.7,0.8
2026-02-03T1800,2174A,112.6992,37.6984,晋中市,榆次区政府,颗粒物(PM10),78,105,77,55,38,68,,69,68,42,42,18,18,0.9,0.7
2026-02-03T1800,2865A,112.7195,37.683,晋中市,榆次三中,细颗粒物(PM2.5),77,95,66,56,34,76,,72,72,35,42,20,17,0.7,0.6
2026-02-03T1800,4080A,112.7375,37.7215,晋中市,广安街188号,颗粒物(PM10),71,92,88,51,41,75,,71,71,36,51,22,22,0.6,0.7
2026-02-03T1800,4200A,112.7478,37.6954,晋中市,迎宾街26号,颗粒物(PM10),71,92,66,51,34,80,,75,75,32,30,18,17,0.8,0.7
2026-02-03T1800,2439A,112.2012,31.048,荆门市,竹园小学,细颗粒物(PM2.5),119,124,123,90,84,72,,74,74,33,52,3,2,0.9,1
2026-02-03T1800,2440A,112.1968,30.9892,荆门市,掇刀,细颗粒物(PM2.5),118,124,127,89,88,73,,78,78,31,39,7,5,1.1,1
2026-02-03T1800,3012A,112.1849,31.0361,荆门市,西山林语,细颗粒物(PM2.5),99,116,104,74,69,77,,77,77,31,27,2,2,1.1,0.9
2026-02-03T1800,3547A,112.1631,31.0134,荆门市,龙泉中学南校,细颗粒物(PM2.5),108,132,117,81,69,80,,80,80,30,25,8,5,0.1,0
2026-02-03T1800,4124A,112.2213,31.0654,荆门市,新台西路6号,,,,135,,97,80,,73,73,,53,9,9,1.0,1.2
2026-02-03T1800,1844A,112.2493,30.3198,荆州市,市图书馆,细颗粒物(PM2.5),110,98,102,83,79,73,,66,66,33,52,13,14,1.1,1
2026-02-03T1800,1845A,112.2009,30.3543,荆州市,市委党校,细颗粒物(PM2.5),125,126,116,95,82,32,,49,49,54,60,20,10,1.2,1.1
2026-02-03T1800,3194A,112.2749,30.3124,荆州市,管委会,细颗粒物(PM2.5),128,105,109,97,80,70,,63,63,34,56,14,14,0.9,0.9
2026-02-03T1800,4268A,112.1722,30.3366,荆州市,学苑路85号,细颗粒物(PM2.5),119,114,103,90,83,94,,69,69,22,43,24,12,0.8,0.9
2026-02-03T1800,2343A,117.2114,29.2931,景德镇市,老干部活动中心,,45,45,45,27,26,42,,52,52,24,19,5,4,0.7,0.6
2026-02-03T1800,2344A,117.1893,29.2789,景德镇市,兽医站,颗粒物(PM10),52,54,51,34,25,61,,62,62,22,20,4,4,0.7,0.5
2026-02-03T1800,2346A,117.246,29.2958,景德镇市,陶研所,,35,33,36,24,21,56,,61,61,16,15,4,3,0.6,0.6
2026-02-03T1800,4289A,117.154766,29.256967,景德镇市,青少年活动中心,细颗粒物(PM2.5),54,53,51,38,28,54,,61,61,29,25,4,7,/,/
2026-02-03T1800,1803A,115.9873,29.6816,九江市,十里,细颗粒物(PM2.5),77,86,98,56,59,29,,35,35,64,62,9,8,1.2,1.1
2026-02-03T1800,1804A,115.9583,29.7047,九江市,茅山头,细颗粒物(PM2.5),72,86,92,52,49,41,,44,44,56,57,6,5,0.9,0.8
2026-02-03T1800,1805A,115.9877,29.7295,九江市,西园,颗粒物(PM10),67,83,62,45,52,54,,48,48,52,70,8,8,0.8,1
2026-02-03T1800,1808A,115.9112,29.6038,九江市,综合工业园,细颗粒物(PM2.5),84,94,80,62,52,15,,36,35,80,52,6,3,0.7,0.5
2026-02-03T1800,3190A,116.0254,29.6995,九江市,外国语学校,细颗粒物(PM2.5),87,82,85,64,69,28,,37,37,64,50,8,9,1.1,0.9
2026-02-03T1800,4253A,116.010205,29.659402,九江市,莲花大道8号,细颗粒物(PM2.5),85,100,93,63,62,26,,37,35,52,32,6,7,0.9,0.9
2026-02-03T1800,4240A,98.495752,39.733935,酒泉市,玉门东路5号,颗粒物(PM10),92,134,133,53,43,82,,76,76,12,18,13,14,0.5,0.5
2026-02-03T1800,4241A,98.5099,39.7506,酒泉市,北大街108号,颗粒物(PM10),90,129,122,53,45,82,,74,74,12,19,14,16,0.5,0.7
2026-02-03T1800,2698A,76.0071,39.466,喀什地区,巡警大队,,,,237,,103,89,,47,47,,50,9,7,0.7,1.8
2026-02-03T1800,2699A,75.9756,39.4693,喀什地区,吾办,颗粒物(PM10),114,178,219,75,109,98,,53,53,14,55,11,11,0.5,1.7
2026-02-03T1800,4027A,75.9485,39.4688,喀什地区,老干局,颗粒物(PM10),120,190,246,65,99,98,,58,58,7,42,5,6,0.4,2.2
2026-02-03T1800,1824A,114.3389,34.778,开封市,肿瘤医院,细颗粒物(PM2.5),115,96,150,87,113,94,,96,96,35,40,10,12,1.0,1.1
2026-02-03T1800,1826A,114.2884,34.7966,开封市,世纪星幼儿园,,,,138,80,112,93,,93,93,26,33,8,7,0.8,0.9
2026-02-03T1800,3147A,114.3434,34.8101,开封市,龙亭公园,细颗粒物(PM2.5),104,95,149,78,88,95,,96,96,34,45,10,9,0.6,0.9
2026-02-03T1800,3210A,114.3645,34.7955,开封市,汴京公园,细颗粒物(PM2.5),83,102,151,61,104,96,,97,96,29,47,6,6,0.6,0.8
2026-02-03T1800,3473A,114.2485,34.8306,开封市,技师学院,细颗粒物(PM2.5),97,86,122,72,94,100,,97,97,26,24,8,8,0.9,1
2026-02-03T1800,3592A,114.4518,34.7503,开封市,祥符区生态环境局,细颗粒物(PM2.5),99,120,167,74,104,101,,99,99,31,49,6,6,0.8,0.9
2026-02-03T1800,1951A,84.886,45.6029,克拉玛依市,长征新村,细颗粒物(PM2.5),128,148,145,97,106,68,,46,46,36,46,6,6,1.3,1.4
2026-02-03T1800,1952A,84.8894,45.5827,克拉玛依市,南林小区,细颗粒物(PM2.5),155,138,148,118,117,67,,38,38,10,23,2,2,1.2,1.4
2026-02-03T1800,1954A,84.896,44.3328,克拉玛依市,独山子区,细颗粒物(PM2.5),257,322,210,207,130,66,,71,71,31,29,4,2,1.6,1
2026-02-03T1800,1955A,85.6888,46.0909,克拉玛依市,乌尔禾区商贸楼,细颗粒物(PM2.5),124,116,122,94,99,75,,55,55,34,45,9,7,1.3,1.4
2026-02-03T1800,3612A,85.1045,45.6895,克拉玛依市,白碱滩区新站,细颗粒物(PM2.5),144,128,144,110,114,68,,46,46,27,37,10,9,1.3,1.3
2026-02-03T1800,2697A,76.1457,39.7143,克孜勒苏柯尔克孜自治州,市人民政府,颗粒物(PM10),123,196,187,69,58,106,,82,82,8,12,5,4,0.4,0.4
2026-02-03T1800,3665A,76.1654,39.7157,克孜勒苏柯尔克孜自治州,克州文化中心,颗粒物(PM10),122,193,175,78,56,101,,73,73,7,13,6,4,0.6,0.7
2026-02-03T1800,1450A,102.8203,24.889,昆明市,呈贡新区,,31,31,32,15,21,84,,85,85,9,14,3,4,0.3,0.5
2026-02-03T1800,1452A,102.7253,25.0904,昆明市,龙泉镇,,27,24,44,14,24,86,,84,84,10,31,4,3,0.4,0.5
2026-02-03T1800,1453A,102.7267,25.0378,昆明市,东风东路,,27,22,36,15,22,84,,86,86,14,18,6,8,0.3,0.4
2026-02-03T1800,1454A,102.6744,25.0671,昆明市,金鼎山,,,,49,,27,,,85,,,28,,3,,0.6
2026-02-03T1800,1455A,102.6643,25.0401,昆明市,碧鸡广场,,27,21,37,8,26,84,,84,84,13,28,6,6,0.4,0.5
2026-02-03T1800,3179A,102.7491,25.012,昆明市,官渡区博物馆,,,31,34,11,22,88,,92,92,,19,4,5,0.3,0.7
2026-02-03T1800,3375A,102.8016,24.8336,昆明市,青年创业园,,29,17,34,16,21,92,,94,94,3,14,5,6,0.4,0.6
2026-02-03T1800,3550A,102.8,24.9787,昆明市,昆明学院,,30,19,38,15,21,95,,95,95,8,15,3,5,0.5,0.6
2026-02-03T1800,3551A,102.5969,24.6738,昆明市,晋宁区生态环境分局,,30,,34,18,23,96,,92,92,3,10,2,2,0.3,0.5
2026-02-03T1800,3552A,102.6673,24.9861,昆明市,云天化总部,,28,16,35,6,21,88,,90,90,11,22,8,8,0.3,0.5
2026-02-03T1800,1456A,91.132,29.6515,拉萨市,八廓街,,30,10,22,3,12,94,,85,85,4,20,8,8,0.3,0.6
2026-02-03T1800,1457A,91.1221,29.6748,拉萨市,市环保局,,29,14,28,3,17,90,,81,81,7,24,7,8,0.3,0.8
2026-02-03T1800,1458A,91.0874,29.6476,拉萨市,区监测站,,27,15,12,3,7,86,,81,81,6,16,4,4,0.8,0.9
2026-02-03T1800,1459A,91.1774,29.6541,拉萨市,西藏大学,,27,11,20,6,11,84,,76,76,8,23,5,5,0.5,0.8
2026-02-03T1800,1460A,90.9798,29.6586,拉萨市,区辐射站,,26,13,31,3,17,83,,76,76,9,26,3,4,0.2,0.7
2026-02-03T1800,1461A,91.0831,29.6292,拉萨市,拉萨火车站,,,8,11,7,7,87,,81,81,,9,4,4,0.2,0.3
2026-02-03T1800,2520A,109.2203,23.7252,来宾市,来宾技工学校,颗粒物(PM10),65,79,89,46,61,121,,97,97,16,26,14,14,0.8,0.9
2026-02-03T1800,3535A,109.1781,23.7293,来宾市,兴宾区政府,颗粒物(PM10),61,72,85,41,56,132,,104,104,15,17,8,7,0.8,0.9
2026-02-03T1800,4002A,109.2312,23.7428,来宾市,中南小学,细颗粒物(PM2.5),63,70,78,45,57,127,,102,102,16,30,9,7,1.0,1
2026-02-03T1800,1479A,103.8309,36.0467,兰州市,铁路设计院,,,,,,,,,,,,,,,,
2026-02-03T1800,3241A,103.7439,36.0841,兰州市,百合公园,颗粒物(PM10),80,109,118,55,69,97,,68,68,11,49,9,15,0.6,1.2
2026-02-03T1800,3242A,103.9613,35.9985,兰州市,和平,颗粒物(PM10),82,113,124,54,59,100,,83,83,14,34,11,16,0.8,1.3
2026-02-03T1800,4236A,103.629272,36.093822,兰州市,庄浪东路808号,颗粒物(PM10),84,118,125,53,68,97,,78,78,17,51,16,24,0.7,1.1
2026-02-03T1800,4237A,103.7251,36.104344,兰州市,安宁西路88号,颗粒物(PM10),83,115,134,57,70,104,,75,75,13,54,10,17,0.6,1
2026-02-03T1800,4238A,103.846982,36.067567,兰州市,北滨河东路1号,"颗粒物(PM10),细颗粒物(PM2.5)",80,109,121,59,63,103,,83,83,23,61,8,14,0.7,1.2
2026-02-03T1800,1067A,116.6712,39.5109,廊坊市,药材公司,细颗粒物(PM2.5),144,132,89,110,71,90,,78,78,36,48,8,5,0.9,0.7
2026-02-03T1800,1068A,116.7215,39.5592,廊坊市,开发区,细颗粒物(PM2.5),140,131,89,107,65,88,,75,75,40,44,9,5,0.9,0.7
2026-02-03T1800,1070A,116.7246,39.5273,廊坊市,北华航天学院,细颗粒物(PM2.5),145,132,89,111,70,89,,77,77,37,43,13,7,0.9,0.7
2026-02-03T1800,2919A,116.7022,39.5454,廊坊市,河北工业大学,细颗粒物(PM2.5),139,141,94,106,67,93,,80,80,34,39,8,5,0.9,0.7
2026-02-03T1800,2536A,103.7629,29.5844,乐山市,牛耳桥,细颗粒物(PM2.5),82,92,92,60,62,84,,77,77,22,21,5,5,1.0,1
2026-02-03T1800,2537A,103.7501,29.6002,乐山市,市第三水厂,,,95,96,68,67,84,,83,83,25,23,3,6,,1.2
2026-02-03T1800,2538A,103.7571,29.5664,乐山市,市监测站,细颗粒物(PM2.5),78,88,89,57,60,79,,72,72,16,17,5,6,0.8,0.9
2026-02-03T1800,3361A,103.7313,29.563,乐山市,理工大学,细颗粒物(PM2.5),77,88,86,56,59,88,,77,77,11,14,2,3,0.9,0.9
2026-02-03T1800,2599A,100.2497,26.8802,丽江市,丽江古城,,26,14,20,3,7,82,,83,83,8,11,10,10,0.5,0.5
2026-02-03T1800,2600A,100.2203,26.8906,丽江市,市中心,,,,18,,9,83,,84,84,,10,6,6,,0.4
2026-02-03T1800,1267A,119.9141,28.4513,丽水市,监测站大楼,颗粒物(PM10),54,58,44,30,29,92,,88,88,17,22,5,5,0.6,0.5
2026-02-03T1800,1268A,119.93,28.4589,丽水市,莲都小学,,48,48,48,28,28,100,,104,104,14,20,/,/,/,/
2026-02-03T1800,1269A,119.8794,28.4232,丽水市,余庄前,,43,43,43,22,26,94,,82,82,13,16,5,4,0.4,0.4
2026-02-03T1800,1173A,119.1759,34.5885,连云港市,市环境监测站,细颗粒物(PM2.5),113,110,79,85,63,94,,90,90,22,23,13,12,0.7,0.6
2026-02-03T1800,3000A,119.3577,34.6971,连云港市,德源药业,细颗粒物(PM2.5),107,122,87,80,60,86,,86,86,34,30,7,7,1.1,1
2026-02-03T1800,3007A,119.178,34.8442,连云港市,新城一中,细颗粒物(PM2.5),123,116,89,93,65,100,,94,94,37,50,10,10,1.0,0.9
2026-02-03T1800,3008A,119.3607,34.7519,连云港市,胡沟管理处,,,,74,,54,95,,85,78,,30,12,10,0.8,0.7
2026-02-03T1800,3009A,119.1478,34.5913,连云港市,矿山设计院,细颗粒物(PM2.5),94,110,82,70,57,101,,92,92,22,26,8,9,0.9,0.8
2026-02-03T1800,3434A,119.2414,34.6539,连云港市,工贸学校,细颗粒物(PM2.5),114,111,77,86,59,103,,95,95,26,18,14,12,0.8,0.6
2026-02-03T1800,3664A,119.4171,34.734,连云港市,连云街道,细颗粒物(PM2.5),104,117,86,78,60,99,,93,82,,30,,6,1.0,0.8
2026-02-03T1800,2573A,102.2629,27.8981,凉山彝族自治州,西昌市政府,,33,33,31,11,21,88,,77,77,9,18,13,8,0.6,0.7
2026-02-03T1800,2574A,102.2686,27.885,凉山彝族自治州,凉山州政府,,40,40,36,10,22,83,,72,72,9,20,16,9,0.5,0.7
2026-02-03T1800,4229A,102.2342,27.8859,凉山彝族自治州,凯乐南路30号,,47,47,39,9,19,87,,71,71,6,20,11,10,0.6,0.7
2026-02-03T1800,2212A,123.1978,41.2036,辽阳市,宏伟区,颗粒物(PM10),84,117,74,45,28,78,,83,83,15,12,11,10,0.8,0.7
2026-02-03T1800,2213A,123.1684,41.2497,辽阳市,新华园,细颗粒物(PM2.5),94,127,67,70,33,89,,86,86,29,24,16,10,0.6,0.6
2026-02-03T1800,2214A,123.2355,41.2663,辽阳市,滨河路,颗粒物(PM10),67,83,52,47,28,72,,80,80,18,16,30,20,0.9,0.7
2026-02-03T1800,4083A,123.153,41.2874,辽阳市,铁西路150号,细颗粒物(PM2.5),108,151,77,81,30,92,,80,80,32,24,19,14,0.9,0.8
2026-02-03T1800,2227A,125.1359,42.8845,辽源市,环保局,细颗粒物(PM2.5),53,53,68,37,43,61,,81,81,36,40,12,8,1.1,1.1
2026-02-03T1800,4085A,125.0998,42.9134,辽源市,安宁大街333号,颗粒物(PM10),75,99,57,40,31,70,,80,79,30,24,14,11,0.8,0.7
2026-02-03T1800,1625A,115.9789,36.4372,聊城市,区政府,细颗粒物(PM2.5),150,169,143,115,103,75,,71,71,33,42,14,14,1.0,1.1
2026-02-03T1800,3200A,115.9772,36.4986,聊城市,监控中心,细颗粒物(PM2.5),153,174,130,117,104,81,,78,78,32,51,10,9,1.1,1.1
2026-02-03T1800,3513A,116.0443,36.436,聊城市,九州社区,细颗粒物(PM2.5),148,160,134,113,100,96,,90,90,15,30,6,7,0.7,0.8
2026-02-03T1800,4018A,116.0564,36.4609,聊城市,星美广场,细颗粒物(PM2.5),148,166,146,113,106,82,,83,83,23,32,4,7,0.9,0.9
2026-02-03T1800,4113A,116.0091,36.4495,聊城市,利民路,细颗粒物(PM2.5),145,160,137,111,95,77,,76,76,31,41,10,11,1.0,1.1
2026-02-03T1800,2632A,94.3683,29.6373,林芝市,林芝监测站,,32,32,15,20,12,88,,91,91,2,2,5,5,0.4,0.4
2026-02-03T1800,2633A,94.3616,29.6634,林芝市,林芝人民医院,,41,41,17,19,12,87,,86,86,1,2,6,5,0.2,0.3
2026-02-03T1800,2603A,100.0779,23.8981,临沧市,市环保局,,43,43,38,28,27,102,,89,89,6,16,9,8,0.4,0.6
2026-02-03T1800,2604A,100.0894,23.882,临沧市,市气象局,,43,43,49,28,27,95,,80,80,5,13,11,10,0.4,0.6
2026-02-03T1800,1733A,111.5552,36.0791,临汾市,临钢医院,颗粒物(PM10),81,111,86,58,47,62,,52,52,40,39,9,8,1.0,1
2026-02-03T1800,1734A,111.4984,36.0734,临汾市,技工学校,细颗粒物(PM2.5),100,89,80,75,54,67,,55,55,38,41,9,8,1.5,1.5
2026-02-03T1800,1736A,111.5017,36.0857,临汾市,市委,细颗粒物(PM2.5),85,107,85,63,48,68,,54,54,34,42,10,9,0.9,0.9
2026-02-03T1800,3018A,111.5048,36.1015,临汾市,唐尧大酒店,颗粒物(PM10),76,101,89,55,42,72,,56,56,38,45,8,7,1.4,1.3
2026-02-03T1800,4244A,111.4879,36.053,临汾市,启星学校,细颗粒物(PM2.5),84,98,80,62,53,64,,54,54,45,57,12,7,0.9,0.8
2026-02-03T1800,4271A,103.2464,35.6123,临夏回族自治州,滨河东路1号,细颗粒物(PM2.5),82,106,180,60,100,97,,78,78,18,35,16,9,0.8,1.6
2026-02-03T1800,4310A,103.207136,35.599807,临夏回族自治州,新华街21号,细颗粒物(PM2.5),98,120,178,73,109,101,,82,82,19,35,24,11,0.7,1.6
2026-02-03T1800,1618A,118.3429,35.0532,临沂市,沂河小区,细颗粒物(PM2.5),117,134,110,88,74,97,,76,76,21,38,14,16,0.6,0.6
2026-02-03T1800,1619A,118.2962,35.0568,临沂市,鲁南制药厂,细颗粒物(PM2.5),122,136,115,92,79,89,,72,72,30,46,15,20,0.7,0.7
2026-02-03T1800,1620A,118.2793,34.9976,临沂市,新光毛纺厂,细颗粒物(PM2.5),125,134,112,95,80,97,,84,84,24,45,15,21,0.8,1
2026-02-03T1800,1621A,118.3955,35.0889,临沂市,河东保险公司,细颗粒物(PM2.5),123,129,123,93,94,106,,81,81,26,60,14,14,0.8,0.9
2026-02-03T1800,3370A,118.3563,35.0215,临沂市,十里堡居委,细颗粒物(PM2.5),113,119,100,85,71,100,,81,81,26,43,13,20,0.8,0.7
2026-02-03T1800,3496A,118.359,35.1067,临沂市,南坊新区,细颗粒物(PM2.5),118,119,104,89,76,105,,77,77,30,44,12,14,0.9,0.9
2026-02-03T1800,3860A,118.3915,35.0297,临沂市,皇山花园小区,细颗粒物(PM2.5),124,119,100,94,80,105,,84,84,26,43,15,17,0.9,0.8
2026-02-03T1800,1870A,109.4854,24.3898,柳州市,柳东小学,,,,64,,41,67,,64,64,,12,13,12,1.3,0.8
2026-02-03T1800,1871A,109.4109,24.3304,柳州市,环保监测站,颗粒物(PM10),70,90,74,50,42,65,,57,57,40,26,13,9,1.6,1
2026-02-03T1800,1872A,109.3886,24.3408,柳州市,河西水厂,,,,80,,47,,,75,,,18,,8,,0.6
2026-02-03T1800,1873A,109.4263,24.2951,柳州市,市四中,细颗粒物(PM2.5),75,87,66,55,43,65,,60,60,35,22,14,10,1.4,1
2026-02-03T1800,1874A,109.396,24.3658,柳州市,市九中,细颗粒物(PM2.5),88,118,89,65,53,55,,48,48,36,25,24,16,1.7,1.1
2026-02-03T1800,1875A,109.4912,24.3164,柳州市,古亭山,颗粒物(PM10),116,182,62,,37,62,,68,68,32,18,10,8,,0.5
2026-02-03T1800,3402A,109.5422,24.3994,柳州市,市二中,细颗粒物(PM2.5),88,90,63,65,40,68,,69,69,25,19,11,11,0.9,0.7
2026-02-03T1800,2307A,116.5078,31.7369,六安市,监测大楼,细颗粒物(PM2.5),60,66,84,43,55,82,,86,86,25,26,3,3,0.5,0.5
2026-02-03T1800,2308A,116.4738,31.7642,六安市,皖西学院,颗粒物(PM10),65,80,92,44,58,87,,90,90,26,27,5,5,0.5,0.6
2026-02-03T1800,2309A,116.4997,31.7904,六安市,朝阳厂,细颗粒物(PM2.5),65,77,85,47,57,89,,90,90,19,22,5,5,0.5,0.6
2026-02-03T1800,2310A,116.5566,31.7885,六安市,开发区,,,,96,,62,90,,94,94,32,37,,5,0.5,0.6
2026-02-03T1800,2577A,104.8293,26.592,六盘水市,黄土坡,,43,34,20,30,14,44,,42,38,18,16,6,7,0.9,1
2026-02-03T1800,2579A,104.8481,26.5898,六盘水市,民中,,40,31,21,28,15,45,,43,40,15,13,4,3,1.0,0.9
2026-02-03T1800,2580A,104.9541,26.5506,六盘水市,双水,,17,17,13,8,10,39,,48,43,12,10,3,3,0.8,0.7
2026-02-03T1800,4151A,104.8899,26.5685,六盘水市,钟山大道中段564号,,34,34,21,22,12,43,,41,35,11,9,6,6,1.2,1.2
2026-02-03T1800,2336A,117.022,25.1031,龙岩市,龙岩市监测站,,32,24,32,16,23,101,,88,88,13,15,7,13,0.7,0.8
2026-02-03T1800,2337A,117.0257,25.0662,龙岩市,闽西职业技术学院,,30,29,34,13,20,94,,89,89,16,14,6,9,0.7,0.8
2026-02-03T1800,2338A,117.0195,25.0306,龙岩市,龙岩学院,,30,30,31,13,21,95,,86,86,11,13,4,6,/,/
2026-02-03T1800,2885A,104.9344,33.3827,陇南市,滨江中学,颗粒物(PM10),70,89,84,43,40,64,,69,69,15,12,5,4,0.9,1
2026-02-03T1800,3247A,104.9551,33.3709,陇南市,市总工会,颗粒物(PM10),63,76,78,42,38,63,,66,66,13,12,2,2,1.0,0.9
2026-02-03T1800,2488A,111.9984,27.7346,娄底市,市监测站,,,73,87,44,48,87,,91,91,,22,8,8,0.8,0.8
2026-02-03T1800,2491A,111.9888,27.7035,娄底市,市政府,颗粒物(PM10),63,76,80,41,45,68,,74,74,39,29,6,5,0.4,0.4
2026-02-03T1800,4127A,111.9812,27.7591,娄底市,涟钢职大,颗粒物(PM10),65,80,85,45,45,89,,92,92,20,21,6,7,0.8,0.8
2026-02-03T1800,4128A,112.0303,27.7457,娄底市,娄底体校,颗粒物(PM10),58,65,81,39,50,82,,82,82,13,13,4,3,0.3,0.4
2026-02-03T1800,1894A,105.4427,28.9063,泸州市,小市上码头,,48,42,78,33,61,68,,46,46,10,25,6,6,1.1,1.2
2026-02-03T1800,1895A,105.4241,28.8573,泸州市,兰田宪桥,,48,48,82,30,52,53,,42,42,24,29,7,8,0.9,1
2026-02-03T1800,1896A,105.4378,28.8833,泸州市,市环监站,颗粒物(PM10),51,52,91,32,61,53,,43,43,23,30,10,9,0.8,0.9
2026-02-03T1800,4272A,105.3689,28.7783,泸州市,纳溪中医医院,细颗粒物(PM2.5),64,53,74,46,68,49,,46,46,18,21,8,8,0.9,1
2026-02-03T1800,2183A,111.1447,37.5212,吕梁市,环保局,颗粒物(PM10),53,55,71,35,23,61,,61,61,34,45,5,9,0.4,0.5
2026-02-03T1800,2185A,111.1285,37.5338,吕梁市,自来水公司,颗粒物(PM10),56,61,74,29,28,79,,74,74,17,35,4,11,0.4,0.6
2026-02-03T1800,2867A,111.1225,37.5093,吕梁市,马茂庄小学,颗粒物(PM10),64,78,78,28,25,47,,55,55,48,46,5,14,0.4,0.5
2026-02-03T1800,1812A,112.3934,34.6517,洛阳市,市委党校,细颗粒物(PM2.5),97,96,111,72,79,97,,82,82,27,45,11,10,0.8,1
2026-02-03T1800,1815A,112.494,34.6883,洛阳市,河南林校,细颗粒物(PM2.5),92,97,118,68,80,89,,84,84,31,46,15,12,0.8,0.9
2026-02-03T1800,1816A,112.3843,34.623,洛阳市,开发区管委会,细颗粒物(PM2.5),93,114,133,69,77,97,,82,82,25,35,14,11,0.7,0.9
2026-02-03T1800,1817A,112.4263,34.6249,洛阳市,市委新办公区,细颗粒物(PM2.5),117,121,124,88,84,,,58,,36,43,14,11,0.8,0.8
2026-02-03T1800,3340A,112.6005,34.6323,洛阳市,伊滨,细颗粒物(PM2.5),127,156,142,96,86,96,,82,82,38,54,16,10,0.8,0.8
2026-02-03T1800,3341A,112.495,34.6338,洛阳市,中移产业园,细颗粒物(PM2.5),139,128,117,106,89,92,,86,86,36,49,,13,1.0,1
2026-02-03T1800,3593A,112.5736,34.8993,洛阳市,吉利监测站,细颗粒物(PM2.5),79,90,108,58,84,101,,93,93,32,44,12,9,0.7,0.9
2026-02-03T1800,3635A,112.3678,34.6623,洛阳市,河科大西苑校区,细颗粒物(PM2.5),92,89,114,68,67,105,,92,92,23,49,10,11,0.8,0.9
2026-02-03T1800,3636A,112.4387,34.678,洛阳市,英才小学,细颗粒物(PM2.5),94,105,132,70,83,104,,84,84,31,61,11,12,0.8,1
2026-02-03T1800,4214A,112.460027,34.694929,洛阳市,春都路1号院,细颗粒物(PM2.5),99,108,142,74,86,94,,76,76,24,42,9,10,0.6,0.9
2026-02-03T1800,2399A,114.051,33.5721,漯河市,三五一五工厂,细颗粒物(PM2.5),95,107,173,71,104,84,,90,90,25,40,6,6,0.7,1
2026-02-03T1800,2400A,114.0055,33.5698,漯河市,漯河大学,细颗粒物(PM2.5),89,96,135,66,93,87,,91,91,21,38,7,7,0.8,0.9
2026-02-03T1800,2401A,114.0134,33.5826,漯河市,市水利局,细颗粒物(PM2.5),87,107,146,64,93,74,,78,78,24,31,6,6,0.5,0.7
2026-02-03T1800,2402A,114.0261,33.5697,漯河市,市广电局,细颗粒物(PM2.5),95,100,144,71,104,77,,84,84,20,30,7,7,0.5,0.6
2026-02-03T1800,3478A,113.9691,33.568,漯河市,市图书馆,,,114,160,72,93,78,,81,81,22,25,,8,0.7,0.8
2026-02-03T1800,4250A,114.089259,33.588274,漯河市,韶山路11号,细颗粒物(PM2.5),85,88,159,63,98,85,,87,87,21,38,7,7,0.6,0.7
2026-02-03T1800,1798A,118.5084,31.6838,马鞍山市,湖东路四小,细颗粒物(PM2.5),74,74,122,54,84,107,,109,109,25,39,4,5,0.5,0.9
2026-02-03T1800,1799A,118.5019,31.6449,马鞍山市,开发区,细颗粒物(PM2.5),79,78,126,58,87,110,,109,109,26,38,5,5,0.6,0.8
2026-02-03T1800,3633A,118.4914,31.681,马鞍山市,雨山,细颗粒物(PM2.5),67,81,125,48,79,103,,107,107,30,35,8,6,0.6,0.8
2026-02-03T1800,4191A,118.527362,31.722269,马鞍山市,慈湖高新区,"颗粒物(PM10),细颗粒物(PM2.5)",63,76,122,45,84,90,,101,101,40,36,5,6,0.7,0.9
2026-02-03T1800,1686A,111.0285,21.469,茂名市,电白南海,,44,44,54,17,24,116,,114,114,13,19,8,11,1.0,1
2026-02-03T1800,1687A,110.9294,21.6533,茂名市,茂石化七小,,46,46,51,15,25,105,,111,111,15,18,5,10,0.6,0.7
2026-02-03T1800,1688A,110.9108,21.6688,茂名市,健康路,,,36,45,16,25,122,,127,127,16,20,4,14,,1
2026-02-03T1800,1689A,110.8592,21.6826,茂名市,高岭,颗粒物(PM10),63,75,70,18,33,115,,116,116,12,22,7,15,/,/
2026-02-03T1800,3450A,111.0101,21.5165,茂名市,电白水东,,36,36,43,14,25,111,,113,113,27,22,9,10,/,/
2026-02-03T1800,2540A,103.8414,30.0871,眉山市,气象局,细颗粒物(PM2.5),72,87,92,52,54,89,,84,84,16,24,10,10,0.9,0.9
2026-02-03T1800,3148A,103.829,30.0563,眉山市,区人社局,细颗粒物(PM2.5),87,95,86,64,59,79,,76,76,19,25,9,8,0.8,0.9
2026-02-03T1800,4148A,103.8836,30.0695,眉山市,眉职院,细颗粒物(PM2.5),73,89,88,53,51,86,,79,79,14,18,4,4,0.8,0.8
2026-02-03T1800,1690A,116.1248,24.3307,梅州市,梅江月梅,,34,34,35,18,19,99,,85,85,15,24,/,/,/,/
2026-02-03T1800,1691A,116.0798,24.2719,梅州市,梅县新城,,42,42,38,16,22,95,,85,85,18,28,7,8,0.6,0.7
2026-02-03T1800,3315A,116.1234,24.2994,梅州市,梅龙,,31,31,36,20,21,90,,79,79,16,23,8,9,0.7,0.7
2026-02-03T1800,1878A,104.7775,31.4741,绵阳市,富乐山,细颗粒物(PM2.5),72,81,87,52,61,57,,50,50,34,23,8,8,0.9,0.8
2026-02-03T1800,1880A,104.6698,31.4668,绵阳市,高新区自来水公司,细颗粒物(PM2.5),84,98,103,62,68,58,,43,43,26,32,9,9,0.9,1
2026-02-03T1800,3491A,104.6899,31.5324,绵阳市,西科大附属小学,细颗粒物(PM2.5),94,97,106,70,69,63,,47,47,29,33,9,9,0.5,0.8
2026-02-03T1800,3492A,104.5647,31.5343,绵阳市,安州区旅游局,细颗粒物(PM2.5),70,88,88,51,59,57,,41,41,19,23,10,10,1.2,1.2
2026-02-03T1800,4146A,104.7092,31.4972,绵阳市,科技城新区公安局,颗粒物(PM10),69,87,103,49,61,61,,51,51,36,34,5,5,0.9,0.9
2026-02-03T1800,4226A,104.765114,31.453094,绵阳市,绵阳市气象局,细颗粒物(PM2.5),74,87,92,54,62,53,,46,46,38,27,9,9,0.9,0.9
2026-02-03T1800,1784A,129.61,44.561,牡丹江市,环保大楼,颗粒物(PM10),52,53,54,28,35,66,,83,83,30,26,9,7,0.5,0.5
2026-02-03T1800,1787A,129.6364,44.6075,牡丹江市,机车工厂,颗粒物(PM10),65,80,66,40,44,41,,72,70,48,34,14,12,0.7,0.7
2026-02-03T1800,1788A,129.6386,44.5462,牡丹江市,第一中学,,35,31,44,24,27,69,,81,81,26,26,8,6,0.5,0.5
2026-02-03T1800,4287A,129.5992,44.5964,牡丹江市,东晓云街98号,颗粒物(PM10),71,91,81,41,53,34,,68,65,60,38,10,9,0.5,0.7
2026-02-03T1800,2531A,105.0703,29.61,内江市,市监测站,细颗粒物(PM2.5),95,85,94,71,78,92,,88,88,27,22,5,5,1.1,1.1
2026-02-03T1800,2533A,105.0657,29.5807,内江市,内江二中,细颗粒物(PM2.5),94,98,107,70,82,86,,75,75,24,26,7,8,0.7,0.8
2026-02-03T1800,2534A,105.0407,29.5828,内江市,内江日报社,细颗粒物(PM2.5),97,92,86,72,76,86,,80,80,36,30,8,6,1.0,1
2026-02-03T1800,4147A,105.0433,29.6105,内江市,玉峰路西段888号,细颗粒物(PM2.5),92,99,87,68,74,83,,79,79,32,26,4,5,0.7,0.9
2026-02-03T1800,2628A,92.0653,31.4846,那曲市,那曲监测站,,24,15,38,3,27,74,,65,65,4,19,5,8,0.5,1
2026-02-03T1800,4243A,92.0515,31.4787,那曲市,那曲市委宣传部,,26,8,30,3,20,82,,68,68,1,14,5,8,0.4,0.8
2026-02-03T1800,1291A,115.8887,28.7006,南昌市,省林业公司,颗粒物(PM10),56,61,73,36,46,54,,53,53,27,34,4,4,0.4,0.5
2026-02-03T1800,1292A,115.813,28.7443,南昌市,林科所,颗粒物(PM10),53,56,69,34,38,59,,58,58,23,27,8,9,2.3,0.8
2026-02-03T1800,1294A,115.8518,28.687,南昌市,建工学校,,,,81,,43,57,,63,52,21,19,9,10,0.7,1
2026-02-03T1800,1295A,115.8926,28.6425,南昌市,象湖,"颗粒物(PM10),细颗粒物(PM2.5)",59,67,71,42,50,57,,54,54,24,28,10,10,0.9,1
2026-02-03T1800,3046A,115.9084,28.6062,南昌市,机电学校,颗粒物(PM10),65,79,87,41,46,55,,58,58,36,43,8,6,0.9,0.7
2026-02-03T1800,3690A,115.9718,28.7032,南昌市,外国语学校,颗粒物(PM10),56,62,81,37,49,65,,60,60,22,31,13,13,0.7,0.8
2026-02-03T1800,4106A,115.7923,28.6873,南昌市,工业二路,颗粒物(PM10),62,74,88,40,46,62,,66,66,25,34,4,5,0.7,0.8
2026-02-03T1800,4192A,115.931587,28.686774,南昌市,南京东路235号,,,65,83,39,50,60,,60,60,23,25,8,9,,
2026-02-03T1800,1906A,106.0791,30.8022,南充市,南充市委,细颗粒物(PM2.5),70,75,75,51,57,53,,39,39,23,31,5,4,0.7,0.9
2026-02-03T1800,1907A,106.1038,30.8215,南充市,南充炼油厂,颗粒物(PM10),67,83,83,44,53,64,,41,41,17,30,7,7,0.8,1
2026-02-03T1800,4227A,106.108336,30.788436,南充市,梨树横街98号,细颗粒物(PM2.5),65,78,85,47,61,64,,45,45,28,36,7,7,0.6,0.8
2026-02-03T1800,4304A,106.1172,30.843,南充市,清泉寺北路188号,"颗粒物(PM10),细颗粒物(PM2.5)",59,68,65,42,50,77,,51,51,11,21,4,6,0.6,0.7
2026-02-03T1800,4305A,106.067,30.7616,南充市,同庆路1号,细颗粒物(PM2.5),74,66,74,54,58,56,,41,41,33,43,7,7,0.8,1
2026-02-03T1800,1151A,118.8033,32.1085,南京市,迈皋桥,细颗粒物(PM2.5),67,70,93,48,65,105,,99,99,31,37,8,7,0.4,0.6
2026-02-03T1800,1152A,118.7487,32.057,南京市,草场门,细颗粒物(PM2.5),77,73,94,56,66,85,,73,73,25,41,4,4,0.7,0.8
2026-02-03T1800,1154A,118.770105,32.004342,南京市,中华门,细颗粒物(PM2.5),79,85,101,58,75,120,,104,104,11,27,4,4,0.4,0.5
2026-02-03T1800,1155A,118.8059,32.0329,南京市,瑞金路,细颗粒物(PM2.5),82,90,104,60,76,165,,141,141,2,25,4,4,0.9,1
2026-02-03T1800,1156A,118.7946,32.0774,南京市,玄武湖,,,,98,,71,107,,99,99,13,37,8,4,,0.7
2026-02-03T1800,1157A,118.6415,32.0964,南京市,浦口,细颗粒物(PM2.5),73,72,116,53,82,102,,92,92,32,46,5,4,0.4,0.6
2026-02-03T1800,1158A,118.730129,32.000956,南京市,奥体中心,细颗粒物(PM2.5),83,93,107,61,72,131,,114,114,18,36,6,5,0.5,0.6
2026-02-03T1800,1159A,118.9072,32.1047,南京市,仙林大学城,细颗粒物(PM2.5),77,85,94,56,68,116,,110,110,17,35,6,5,0.6,0.7
2026-02-03T1800,3422A,118.8443,31.919,南京市,江宁彩虹桥,细颗粒物(PM2.5),87,94,103,64,68,111,,107,107,27,53,3,4,0.7,0.8
2026-02-03T1800,3427A,118.8497,32.3599,南京市,六合雄州,细颗粒物(PM2.5),63,74,100,45,68,98,,94,94,32,43,10,10,0.6,0.8
2026-02-03T1800,4086A,118.7641,32.0841,南京市,新模范马路66号,细颗粒物(PM2.5),72,75,107,52,72,146,,129,129,11,24,5,4,0.7,0.9
2026-02-03T1800,4249A,118.8707617,31.34017673,南京市,汶溪路181号,细颗粒物(PM2.5),85,103,118,63,68,104,,111,111,26,33,7,6,0.9,1
2026-02-03T1800,4312A,119.019,31.6512,南京市,中山西路1号,细颗粒物(PM2.5),88,88,95,65,71,90,,91,91,28,33,4,4,0.8,1
2026-02-03T1800,1401A,108.3098,22.788,南宁市,二十一中,细颗粒物(PM2.5),62,50,61,44,53,105,,86,86,22,26,7,7,0.6,0.7
2026-02-03T1800,1402A,108.3135,22.8529,南宁市,北湖,细颗粒物(PM2.5),63,62,64,45,56,113,,96,96,29,28,6,8,0.7,0.7
2026-02-03T1800,1403A,108.3205,22.8222,南宁市,市监测站,"颗粒物(PM10),细颗粒物(PM2.5)",59,67,69,42,50,110,,92,92,26,28,9,11,0.9,0.9
2026-02-03T1800,1404A,108.3828,22.8038,南宁市,大自然花园,颗粒物(PM10),62,73,60,43,51,128,,111,111,18,17,7,8,0.9,0.9
2026-02-03T1800,1406A,108.2397,22.8462,南宁市,区农职院,细颗粒物(PM2.5),57,56,62,40,48,117,,87,87,19,30,6,6,1.2,1.2
2026-02-03T1800,1407A,108.3285,22.7356,南宁市,英华嘉园,,,58,67,44,52,116,,97,97,,26,7,6,0.7,0.7
2026-02-03T1800,3401A,108.4829,22.762,南宁市,红星社区,细颗粒物(PM2.5),68,70,65,49,52,134,,120,120,23,23,7,8,1.0,1
2026-02-03T1800,4132A,108.2927,23.1477,南宁市,起凤路9号,,,60,68,44,56,122,,99,99,20,27,5,3,,0.7
2026-02-03T1800,4221A,108.2177,22.7774,南宁市,乐贤路16号,细颗粒物(PM2.5),62,66,76,44,55,112,,84,84,25,38,8,5,1.0,1
2026-02-03T1800,2332A,118.1682,26.6371,南平市,南平市监测站,,40,40,32,19,21,82,,92,92,19,19,4,4,0.6,0.5
2026-02-03T1800,2334A,118.1757,26.6276,南平市,南平七中,,49,49,32,22,20,86,,92,92,16,16,2,3,0.6,0.6
2026-02-03T1800,1168A,120.9056,31.9669,南通市,狼山街道,,48,48,67,27,49,78,,89,89,27,34,4,3,0.5,0.6
2026-02-03T1800,1170A,120.8635,32.0231,南通市,城中,,47,47,70,24,50,89,,91,91,14,28,4,4,0.4,0.5
2026-02-03T1800,1171A,120.9376,31.9301,南通市,星湖花园,颗粒物(PM10),51,51,62,27,45,74,,94,94,39,32,5,4,0.5,0.6
2026-02-03T1800,1172A,120.8053,32.046,南通市,紫琅学院,,43,43,73,21,50,81,,81,81,30,39,4,4,0.7,0.8
2026-02-03T1800,3291A,121.0631,32.0644,南通市,通州监测站,颗粒物(PM10),51,51,69,30,54,105,,105,105,23,24,4,3,0.4,0.6
2026-02-03T1800,3432A,120.9348,31.9874,南通市,环境教育馆,细颗粒物(PM2.5),67,,74,48,52,78,,94,94,33,51,4,4,0.6,0.7
2026-02-03T1800,4091A,120.8692,31.9885,南通市,洪江路,,45,45,57,22,43,74,,80,80,33,34,5,4,0.4,0.5
2026-02-03T1800,2404A,112.5338,33.0086,南阳市,瓦房庄,"颗粒物(PM10),细颗粒物(PM2.5)",74,98,115,54,61,96,,78,78,15,35,6,5,0.8,1
2026-02-03T1800,2405A,112.5002,32.9734,南阳市,汉画馆,细颗粒物(PM2.5),109,107,113,82,88,95,,80,80,20,38,8,7,1.0,1
2026-02-03T1800,2406A,112.5778,33.0144,南阳市,气象站,颗粒物(PM10),84,117,124,59,59,95,,77,77,19,29,7,6,0.8,0.8
2026-02-03T1800,2407A,112.548,32.9687,南阳市,理工学院,细颗粒物(PM2.5),79,102,114,58,63,95,,77,77,20,35,7,6,0.7,0.8
2026-02-03T1800,4008A,112.5233,32.9921,南阳市,卧龙区政府,"颗粒物(PM10),细颗粒物(PM2.5)",85,120,128,63,64,88,,79,79,18,34,7,6,0.8,1
2026-02-03T1800,1234A,121.8352,29.9111,宁波市,区环保大楼,,29,27,108,12,71,92,,89,89,29,59,5,6,0.4,0.8
2026-02-03T1800,1235A,121.5595,29.8208,宁波市,万里学院,,36,36,107,18,76,100,,102,102,17,51,3,4,0.6,1
2026-02-03T1800,1236A,121.713,29.9564,宁波市,龙赛医院,,30,30,109,16,74,93,,81,81,25,55,2,5,0.5,0.8
2026-02-03T1800,1240A,121.5855,29.8635,宁波市,太古小学,,31,30,111,17,75,98,,103,103,15,46,3,4,0.4,0.9
2026-02-03T1800,1241A,121.5239,29.8673,宁波市,市环境监测中心,,49,49,110,21,75,89,,94,94,21,45,7,7,0.5,0.9
2026-02-03T1800,2871A,121.6156,29.9015,宁波市,万里国际学校,,43,43,106,18,79,96,,97,97,19,53,3,4,0.3,0.7
2026-02-03T1800,3710A,121.5593,29.8976,宁波市,白沙活动中心,,48,48,96,22,79,98,,102,102,20,49,4,4,0.2,0.7
2026-02-03T1800,4095A,121.8962,29.7529,宁波市,中科路88号,,33,13,88,8,70,105,,108,108,10,49,5,5,0.3,0.7
2026-02-03T1800,2341A,119.5387,26.6611,宁德市,宁德市监测站,,48,48,48,18,31,97,,99,99,21,19,4,5,0.6,0.7
2026-02-03T1800,3209A,119.5231,26.6562,宁德市,宁德一中,,48,48,45,21,33,98,,101,101,16,13,2,4,0.5,0.5
2026-02-03T1800,2618A,98.859,25.8541,怒江傈僳族自治州,州监测站,,27,23,30,14,15,86,,76,76,9,10,5,6,0.3,0.4
2026-02-03T1800,2619A,98.8607,25.8168,怒江傈僳族自治州,泸水一中,,38,38,31,21,20,75,,67,67,13,18,4,5,0.5,0.6
2026-02-03T1800,1888A,101.6891,26.571,攀枝花市,弄弄坪,,34,34,89,7,26,90,,74,74,12,45,10,58,0.5,2
2026-02-03T1800,1889A,101.577,26.5914,攀枝花市,河门口,,26,26,43,12,20,82,,78,78,18,24,20,26,0.9,1.2
2026-02-03T1800,1891A,101.7365,26.4986,攀枝花市,仁和,,27,17,43,8,26,86,,80,80,8,27,8,14,0.5,1
2026-02-03T1800,2835A,101.7222,26.567,攀枝花市,四十中小,,42,42,55,10,26,75,,71,71,25,49,12,21,0.6,1.3
2026-02-03T1800,1604A,122.0303,41.1489,盘锦市,开发区,细颗粒物(PM2.5),114,,52,86,39,60,,60,60,32,24,8,8,0,1.2
2026-02-03T1800,1605A,122.0486,41.0883,盘锦市,兴隆台,细颗粒物(PM2.5),97,,47,72,37,59,,57,57,39,32,8,10,0.8,0.7
2026-02-03T1800,1606A,121.8297,41.1026,盘锦市,新生街道,细颗粒物(PM2.5),92,72,46,68,35,60,,59,59,40,28,7,7,0.6,0.5
2026-02-03T1800,1832A,113.3257,33.7423,平顶山市,新华旅馆,细颗粒物(PM2.5),89,101,164,66,104,92,,78,78,23,48,6,7,0.6,0.7
2026-02-03T1800,1833A,113.2917,33.737,平顶山市,规划设计院,细颗粒物(PM2.5),100,107,176,75,106,91,,78,78,14,37,7,7,0.5,0.6
2026-02-03T1800,1834A,113.182,33.7738,平顶山市,平顶山工学院,细颗粒物(PM2.5),93,92,146,69,95,99,,74,74,13,33,8,9,0.6,0.7
2026-02-03T1800,3594A,112.8736,33.9068,平顶山市,石龙区,细颗粒物(PM2.5),82,95,153,60,97,101,,86,86,14,36,6,9,0.6,0.8
2026-02-03T1800,4116A,113.284,33.7139,平顶山市,姚电大道23号,细颗粒物(PM2.5),108,129,183,81,108,87,,71,71,24,37,8,9,0.7,0.8
2026-02-03T1800,2656A,106.6633,35.5338,平凉市,聚贤嘉苑,颗粒物(PM10),66,81,89,35,38,78,,42,,11,27,17,11,0.9,0.9
2026-02-03T1800,2657A,106.7021,35.5307,平凉市,博物馆,颗粒物(PM10),66,81,95,46,53,75,,79,79,12,30,9,15,0.6,0.7
2026-02-03T1800,2348A,113.8384,27.6436,萍乡市,中医院,颗粒物(PM10),63,75,73,36,36,97,,110,110,24,17,7,8,0.9,0.8
2026-02-03T1800,2350A,113.8677,27.6438,萍乡市,市环保局,,49,42,67,34,41,111,,116,116,16,15,14,18,0.6,0.6
2026-02-03T1800,2351A,113.8663,27.6202,萍乡市,安源区政府,颗粒物(PM10),57,64,70,36,40,85,,86,86,22,22,11,10,0.6,0.9
2026-02-03T1800,4107A,113.8686,27.6668,萍乡市,联洪村委会,颗粒物(PM10),60,69,66,30,37,84,,89,89,17,16,6,6,0.5,0.5
2026-02-03T1800,2319A,119.0142,25.4324,莆田市,荔城区仓后路,颗粒物(PM10),60,70,50,35,29,96,,104,104,18,14,/,/,/,/
2026-02-03T1800,2320A,119.0016,25.4553,莆田市,莆田市监测站,颗粒物(PM10),60,69,41,32,29,99,,109,108,16,11,4,3,0.6,0.5
2026-02-03T1800,2321A,119.112,25.4561,莆田市,涵江区六中,颗粒物(PM10),58,65,48,30,30,100,,107,107,13,10,/,/,0.6,0.5
2026-02-03T1800,2322A,119.1014,25.3215,莆田市,秀屿区政府,颗粒物(PM10),58,66,49,33,33,105,,110,110,12,10,3,2,0.6,0.6
2026-02-03T1800,2392A,115.0312,35.7636,濮阳市,环保局,,,,122,,99,102,,84,84,23,35,8,8,,1.2
2026-02-03T1800,3021A,115,35.7667,濮阳市,濮水河管理处,细颗粒物(PM2.5),92,102,139,68,97,100,,85,85,16,30,7,7,0.9,1.1
2026-02-03T1800,4118A,115.0552,35.7816,濮阳市,中原东路68号,颗粒物(PM10),78,106,156,56,99,106,,86,86,22,35,7,8,0.8,1.2
2026-02-03T1800,4216A,115.0923632,35.76857718,濮阳市,任丘路479号,细颗粒物(PM2.5),79,100,152,58,112,101,,79,79,31,42,8,9,0.5,0.9
2026-02-03T1800,2601A,100.9801,22.7634,普洱市,市环保局,颗粒物(PM10),52,54,58,27,28,92,,80,80,6,11,4,4,0.6,0.6
2026-02-03T1800,2602A,100.9763,22.8237,普洱市,普洱第二中学,颗粒物(PM10),54,57,58,26,32,91,,79,79,8,22,5,5,0.3,0.3
2026-02-03T1800,3345A,131.0413,45.7795,七台河市,中波台,,,50,51,50,24,,,84,84,30,18,15,10,0.8,0.6
2026-02-03T1800,3637A,131.0136,45.7688,七台河市,人民广场,颗粒物(PM10),59,67,46,40,23,50,,81,78,50,26,18,8,0.8,0.7
2026-02-03T1800,3684A,130.8639,45.8144,七台河市,新建矿广场,细颗粒物(PM2.5),77,97,47,56,25,64,,79,77,21,18,6,5,0.7,0.5
2026-02-03T1800,1779A,123.9307,47.3641,齐齐哈尔市,安居小区,颗粒物(PM10),62,74,47,19,15,22,,72,69,66,18,12,12,0.8,0.5
2026-02-03T1800,1780A,123.9497,47.3389,齐齐哈尔市,中心广场,,38,38,39,22,17,35,,68,67,51,19,10,8,0.8,0.6
2026-02-03T1800,1781A,123.9483,47.3229,齐齐哈尔市,农牧车辆厂,,48,48,48,17,18,46,,71,71,34,17,6,7,0.5,0.4
2026-02-03T1800,1783A,123.9442,47.2994,齐齐哈尔市,市环境监测站,细颗粒物(PM2.5),59,65,46,42,14,48,,74,74,39,16,9,5,0.8,0.4
2026-02-03T1800,3662A,123.6341,47.2079,齐齐哈尔市,富区青少年活动中心,颗粒物(PM10),55,60,57,27,18,49,,77,76,38,19,11,7,0.6,0.6
2026-02-03T1800,2591A,107.9765,26.5724,黔东南苗族侗族自治州,市环境监测站,细颗粒物(PM2.5),68,76,55,49,37,56,,64,58,16,13,6,6,0.7,0.7
2026-02-03T1800,2881A,107.8909,26.531,黔东南苗族侗族自治州,凯里学院,颗粒物(PM10),70,90,64,46,35,60,,63,63,17,17,4,5,0.8,0.8
2026-02-03T1800,2593A,107.5223,26.2371,黔南布依族苗族自治州,小围寨,颗粒物(PM10),63,75,48,38,26,32,,48,37,14,9,6,6,0.9,0.9
2026-02-03T1800,3538A,107.5175,26.2977,黔南布依族苗族自治州,沙坝,颗粒物(PM10),65,80,55,36,28,34,,55,45,25,12,5,5,0.9,0.8
2026-02-03T1800,2589A,104.9022,25.0943,黔西南布依族苗族自治州,场坝街,,39,34,22,27,16,37,,35,29,10,10,3,3,0.8,0.9
2026-02-03T1800,2590A,104.8812,25.0994,黔西南布依族苗族自治州,坪东大道,,48,43,26,33,18,32,,34,28,12,9,5,4,1.1,1
2026-02-03T1800,2502A,108.6238,21.9667,钦州市,市环保站,颗粒物(PM10),63,75,79,40,44,158,,122,122,17,18,7,4,0.8,0.9
2026-02-03T1800,2503A,108.655,21.9481,钦州市,沙埠小学,臭氧1小时(O3_1h),67,69,71,40,38,173,,127,127,20,19,9,6,0.5,0.6
2026-02-03T1800,2504A,108.5989,21.7435,钦州市,港区一小,颗粒物(PM10),78,105,76,37,45,136,,117,117,29,31,4,6,0.7,0.8
2026-02-03T1800,3404A,108.5959,21.9634,钦州市,北职校,细颗粒物(PM2.5),53,47,63,37,38,154,,133,133,16,18,7,5,0.7,0.9
2026-02-03T1800,1046A,119.5247,39.9346,秦皇岛市,建设大厦,细颗粒物(PM2.5),140,158,83,107,49,70,,81,80,46,34,12,15,0.9,0.9
2026-02-03T1800,3132A,119.5979,39.938,秦皇岛市,文明里,细颗粒物(PM2.5),132,150,81,100,46,56,,74,74,60,40,14,18,0.8,0.9
2026-02-03T1800,4066A,119.7458,39.9952,秦皇岛市,南园路157号,细颗粒物(PM2.5),127,147,84,96,45,54,,67,67,67,52,14,14,1.0,0.9
2026-02-03T1800,4067A,119.5131,39.8858,秦皇岛市,翠岛大街1号,细颗粒物(PM2.5),129,143,83,98,50,57,,72,72,51,40,13,14,1.0,1
2026-02-03T1800,4198A,119.509013,39.825305,秦皇岛市,北戴河轮滑馆,细颗粒物(PM2.5),110,130,90,83,48,56,,60,60,65,48,7,14,1.0,1.1
2026-02-03T1800,1310A,120.404,36.0625,青岛市,市南区东部子站,细颗粒物(PM2.5),88,85,68,65,48,82,,69,69,29,38,9,12,0.6,0.8
2026-02-03T1800,1311A,120.362344,36.10282,青岛市,四方区子站,细颗粒物(PM2.5),105,,68,79,56,75,,68,68,39,45,5,8,1.0,1.1
2026-02-03T1800,1312A,120.294373,36.054183,青岛市,市南区西部子站,细颗粒物(PM2.5),94,75,72,70,52,74,,58,58,38,49,5,7,0.8,0.9
2026-02-03T1800,1313A,120.4581,36.0858,青岛市,崂山区子站,细颗粒物(PM2.5),82,85,57,60,41,80,,74,74,38,40,10,12,0.7,0.7
2026-02-03T1800,1315A,120.3945,36.3083,青岛市,城阳区子站,细颗粒物(PM2.5),98,102,85,73,60,59,,70,70,61,54,10,11,1.1,1
2026-02-03T1800,3642A,120.3454,36.0735,青岛市,市北区南部,细颗粒物(PM2.5),89,90,64,66,47,72,,66,66,32,39,2,5,0.8,0.9
2026-02-03T1800,3643A,120.3897,36.18,青岛市,李沧区北部,细颗粒物(PM2.5),97,88,71,72,50,64,,65,65,54,50,10,11,1.0,0.9
2026-02-03T1800,4110A,120.5222,36.4089,青岛市,盟旺路653号,细颗粒物(PM2.5),90,96,84,67,53,77,,81,81,43,46,7,7,1.1,1
2026-02-03T1800,4290A,120.196923,35.954556,青岛市,珠江路669号,细颗粒物(PM2.5),89,78,70,66,54,77,,72,72,32,46,5,8,0.6,0.8
2026-02-03T1800,4291A,120.0424,35.8656,青岛市,黄岛区人民政府广场,细颗粒物(PM2.5),88,85,102,65,66,64,,74,74,46,54,8,12,1.0,1.5
2026-02-03T1800,1703A,113.0218,23.7086,清远市,凤城街办,颗粒物(PM10),52,54,42,30,22,131,,110,110,29,24,/,/,/,/
2026-02-03T1800,3025A,113.0479,23.6343,清远市,技师学院,颗粒物(PM10),55,60,43,27,19,138,,111,111,28,25,7,7,0.6,0.6
2026-02-03T1800,3318A,112.9898,23.7403,清远市,清新太和,,46,46,40,26,21,132,,111,111,20,24,10,10,0.6,0.7
2026-02-03T1800,3455A,113.076,23.72,清远市,清城东城,颗粒物(PM10),53,55,44,24,20,130,,108,108,24,21,/,/,/,/
2026-02-03T1800,2661A,107.6325,35.7357,庆阳市,庆阳五中,颗粒物(PM10),57,64,70,37,39,98,,93,93,15,20,6,8,0.6,0.6
2026-02-03T1800,2662A,107.6361,35.7067,庆阳市,市环保局,颗粒物(PM10),58,66,71,38,41,90,,92,92,20,17,6,7,0.8,0.7
2026-02-03T1800,1916A,103.7897,25.5036,曲靖市,环境监测站,,30,18,34,3,23,94,,95,95,6,16,4,5,0.4,0.8
2026-02-03T1800,1917A,103.8013,25.5357,曲靖市,烟厂办公区,,29,16,34,3,19,90,,89,89,4,12,5,4,0.2,0.6
2026-02-03T1800,3376A,103.7926,25.4651,曲靖市,南苑二区,,37,13,34,6,23,118,,121,121,3,8,4,4,0.1,0.5
2026-02-03T1800,3377A,103.7442,25.5259,曲靖市,曲靖师范学院,,,14,39,3,26,88,,89,89,5,15,,4,0.2,0.5
2026-02-03T1800,1264A,118.8694,28.94,衢州市,环保大楼,,,64,78,,54,94,,93,93,27,32,/,/,/,/
2026-02-03T1800,1266A,118.8622,28.9809,衢州市,衢州学院,细颗粒物(PM2.5),58,58,72,41,50,93,,97,97,23,31,6,5,0.7,0.7
2026-02-03T1800,4097A,118.9646,28.9832,衢州市,衢州三中,颗粒物(PM10),54,57,77,36,50,83,,87,87,32,39,5,4,0.4,0.4
2026-02-03T1800,1611A,118.5818,24.9116,泉州市,涂山街,颗粒物(PM10),59,67,43,40,27,101,,108,108,19,13,3,3,0.6,0.5
2026-02-03T1800,1612A,118.597,24.8976,泉州市,津头埔,颗粒物(PM10),58,66,46,38,28,101,,108,108,17,14,3,3,0.6,0.6
2026-02-03T1800,1613A,118.6669,24.9422,泉州市,万安,,,69,48,38,28,95,,102,102,18,14,,3,0.8,0.8
2026-02-03T1800,4105A,118.6355,24.9148,泉州市,霞新路6号,"颗粒物(PM10),细颗粒物(PM2.5)",54,58,46,38,27,95,,104,104,21,16,/,/,0.6,0.6
2026-02-03T1800,2626A,88.8873,29.2723,日喀则市,日喀则监测站,,29,11,14,3,8,92,,84,84,1,6,7,7,0.2,0.3
2026-02-03T1800,3726A,88.8775,29.2425,日喀则市,林业技术推广中心,,44,44,19,3,5,86,,76,76,4,5,6,5,0.5,0.5
2026-02-03T1800,1659A,119.4711,35.421,日照市,监测站,细颗粒物(PM2.5),110,146,127,83,91,31,,63,63,81,64,13,14,1.0,1.4
2026-02-03T1800,1660A,119.523,35.4216,日照市,市政府广场,细颗粒物(PM2.5),100,119,119,75,81,48,,54,54,70,70,11,11,0.6,1
2026-02-03T1800,1661A,119.5511,35.4113,日照市,港务局,细颗粒物(PM2.5),98,122,137,73,80,48,,48,48,66,79,8,10,0.8,1.1
2026-02-03T1800,3507A,119.5326,35.4627,日照市,职业技术学院,细颗粒物(PM2.5),100,122,113,75,82,53,,66,65,63,58,9,10,1.0,1.3
2026-02-03T1800,3604A,119.3267,35.1043,日照市,岚山环保分局,细颗粒物(PM2.5),99,114,100,74,64,78,,69,69,43,49,12,19,1.0,1.1
2026-02-03T1800,1835A,111.1922,34.7752,三门峡市,市政府,细颗粒物(PM2.5),79,68,80,58,60,104,,96,96,17,24,10,13,0.5,0.6
2026-02-03T1800,1836A,111.1588,34.794,三门峡市,开发区,细颗粒物(PM2.5),70,88,99,51,58,92,,86,86,22,22,9,11,0.5,0.6
2026-02-03T1800,3039A,111.1911,34.7829,三门峡市,三门峡市第一小学,细颗粒物(PM2.5),75,81,85,55,57,92,,87,87,18,20,10,12,0.6,0.6
2026-02-03T1800,3598A,111.1031,34.719,三门峡市,富达温泉假日酒店,细颗粒物(PM2.5),83,80,94,61,60,70,,80,80,45,28,11,10,0.6,0.6
2026-02-03T1800,2324A,117.621,26.2626,三明市,三钢,,46,46,34,22,25,95,,93,93,16,17,8,6,1.0,1
2026-02-03T1800,2325A,117.6352,26.2714,三明市,三明二中,,41,41,30,19,22,94,,93,93,15,17,4,3,0.6,0.7
2026-02-03T1800,2326A,117.6028,26.2377,三明市,三元区政府,,40,40,38,19,23,98,,93,93,16,20,6,4,0.7,0.8
2026-02-03T1800,1877A,109.4962,18.2682,三亚市,河西子站,,41,41,35,11,18,86,,95,92,13,9,1,2,0.4,0.5
2026-02-03T1800,3540A,109.7348,18.3443,三亚市,君悦子站,,35,35,37,11,20,99,,94,94,5,9,6,6,0.2,0.3
2026-02-03T1800,4135A,109.1714,18.3739,三亚市,城东小学站,,35,22,28,10,16,111,,108,108,8,10,/,/,/,/
2026-02-03T1800,2624A,91.7592,29.234,山南市,山南监测站,,27,27,34,3,9,84,,70,70,1,5,4,5,0.2,0.3
2026-02-03T1800,2625A,91.7701,29.2436,山南市,山南人民医院,,50,50,39,7,12,83,,72,72,2,4,5,7,0.4,0.5
2026-02-03T1800,1674A,116.6795,23.3666,汕头市,金平子站,,,69,37,34,22,,,118,118,14,12,5,5,,0.9
2026-02-03T1800,1675A,116.7248,23.3632,汕头市,龙湖子站,,,,36,,23,,,113,113,12,12,10,10,/,/
2026-02-03T1800,1676A,116.7257,23.2774,汕头市,濠江子站,颗粒物(PM10),60,69,39,40,24,130,,117,117,15,14,8,7,/,/
2026-02-03T1800,1677A,116.7518,23.4712,汕头市,澄海子站,颗粒物(PM10),59,68,44,34,24,129,,111,111,14,14,6,7,0.8,0.8
2026-02-03T1800,1678A,116.6088,23.2539,汕头市,潮阳子站,细颗粒物(PM2.5),58,58,34,41,21,135,,118,118,11,10,6,6,0.7,0.6
2026-02-03T1800,3444A,116.4539,23.2684,汕头市,潮南峡山,细颗粒物(PM2.5),59,66,39,42,22,140,,122,122,13,13,6,6,0.7,0.7
2026-02-03T1800,3624A,116.4069,23.2533,汕头市,潮南子站,颗粒物(PM10),69,88,49,42,23,127,,110,110,14,14,6,7,/,/
2026-02-03T1800,1693A,115.3653,22.7751,汕尾市,市环保局,颗粒物(PM10),53,55,36,26,23,133,,111,111,12,12,7,8,0.7,0.7
2026-02-03T1800,1695A,115.362,22.7926,汕尾市,新城中学,,48,48,36,27,24,134,,113,113,12,13,5,5,0.6,0.7
2026-02-03T1800,2645A,109.9155,33.8714,商洛市,监测站,细颗粒物(PM2.5),79,82,67,58,33,134,,100,100,29,24,35,10,0.9,0.7
2026-02-03T1800,3045A,109.9647,33.8486,商洛市,商州区中学,颗粒物(PM10),65,79,65,44,33,107,,94,94,21,27,19,9,0.7,0.5
2026-02-03T1800,2408A,115.6701,34.4283,商丘市,环境监测站,细颗粒物(PM2.5),97,93,134,72,108,107,,108,108,16,24,3,3,0.4,0.6
2026-02-03T1800,2409A,115.6458,34.4047,商丘市,粮食局,细颗粒物(PM2.5),92,81,131,68,102,97,,100,100,23,26,2,2,0.5,0.7
2026-02-03T1800,3171A,115.6069,34.4465,商丘市,梁园区档案局,细颗粒物(PM2.5),94,78,119,70,96,103,,105,105,15,19,3,2,0.5,0.7
2026-02-03T1800,4119A,115.6701,34.3767,商丘市,北海东路185号,细颗粒物(PM2.5),90,102,154,67,103,90,,102,102,28,32,3,3,0.6,0.7
2026-02-03T1800,4120A,115.6172,34.3704,商丘市,中山大街3号,,,,158,,103,83,,100,100,,24,3,3,0.4,0.6
2026-02-03T1800,1141A,121.401,31.2382,上海市,普陀,,24,22,55,16,45,74,,81,81,27,42,5,6,0.4,0.6
2026-02-03T1800,1142A,121.4774,31.2043,上海市,十五厂,,24,20,53,11,37,74,,83,83,29,39,6,7,0.6,0.4
2026-02-03T1800,1143A,121.4673,31.3011,上海市,虹口,,23,23,58,16,43,66,,75,75,31,45,6,7,0.2,0.5
2026-02-03T1800,1147A,121.4253,31.226,上海市,静安监测站,,25,19,51,13,38,78,,86,86,27,37,6,8,0.4,0.6
