timepoint,stationcode,longitude,latitude,area,positionname,primarypollutant,aqi,pm10,pm10_24h,pm2_5,pm2_5_24h,o3,o3_24h,o3_8h,o3_8h_24h,no2,no2_24h,so2,so2_24h,co,co_24h
2024-07-07T1800,2566A,102.1879,31.914,阿坝藏族羌族自治州,州农科所,,29,29,15,3,6,43,,52,52,44,12,7,5,0.2,0.2
2024-07-07T1800,2568A,102.2502,31.8896,阿坝藏族羌族自治州,马师校,,19,19,10,10,10,51,,55,55,15,14,5,5,0.2,0.2
2024-07-07T1800,3994A,102.2165,31.9024,阿坝藏族羌族自治州,马尔康中学西区,,26,26,17,13,10,53,,56,56,10,8,6,6,0.4,0.3
2024-07-07T1800,2695A,80.292,41.1694,阿克苏地区,电视台,,47,13,20,7,10,148,,139,139,4,9,5,5,0.2,0.2
2024-07-07T1800,2696A,80.2613,41.1551,阿克苏地区,艺术中心,,45,8,19,3,13,142,,133,133,2,8,4,4,0.2,0.3
2024-07-07T1800,2204A,105.6467,38.8363,阿拉善盟,西城区西花园,臭氧1小时,52,48,69,18,22,161,,161,161,10,10,9,9,0.5,0.5
2024-07-07T1800,2205A,105.6985,38.8411,阿拉善盟,蒙二幼,,49,49,65,18,22,144,,147,147,9,9,11,11,0.5,0.5
2024-07-07T1800,2206A,105.724,38.8516,阿拉善盟,环保局新楼,,47,45,56,17,20,150,,149,149,7,8,11,11,0.5,0.5
2024-07-07T1800,2708A,88.1264,47.8517,阿勒泰地区,市站,,36,16,17,11,7,114,,108,108,14,10,6,6,0.5,0.5
2024-07-07T1800,2630A,80.1161,32.5,阿里地区,阿里监测站,,40,6,7,3,4,126,,131,131,3,4,9,8,0.4,0.4
2024-07-07T1800,3192A,80.0903,32.5028,阿里地区,阿里藏医院,,42,8,9,3,3,134,,139,139,2,2,9,9,0.4,0.4
2024-07-07T1800,2642A,109.0318,32.6537,安康市,香溪洞,,39,39,26,18,12,53,,59,59,5,7,6,6,0.7,0.7
2024-07-07T1800,2643A,109.0281,32.6939,安康市,安康市监测站,,32,32,30,13,7,48,,62,62,10,11,6,6,0.5,0.5
2024-07-07T1800,2644A,109.0072,32.6975,安康市,汉滨区检察院,,30,30,25,15,13,35,,59,59,16,9,6,7,0.6,0.5
2024-07-07T1800,2291A,117.0809,30.5177,安庆市,环科院,,29,25,20,13,11,92,,100,100,19,15,5,5,0.4,0.4
2024-07-07T1800,2292A,117.0331,30.5119,安庆市,马山宾馆,,32,21,19,10,11,100,,102,102,17,15,8,8,0.4,0.4
2024-07-07T1800,2294A,116.9896,30.6145,安庆市,安庆大学,,35,22,26,11,12,110,,106,106,7,11,7,8,0.4,0.4
2024-07-07T1800,3173A,117.0598,30.5351,安庆市,市人大,,33,20,19,11,10,104,,102,102,7,7,7,8,0.3,0.3
2024-07-07T1800,3122A,105.9606,26.2611,安顺市,伍家关,,,,,,,,,,,,,,,,
2024-07-07T1800,3123A,105.9408,26.2431,安顺市,凤凰山,,22,11,12,8,11,69,,65,65,3,3,8,8,0.3,0.4
2024-07-07T1800,3124A,105.9439,26.2564,安顺市,金钟山,,23,13,14,8,9,72,,67,67,3,3,4,4,0.4,0.4
2024-07-07T1800,3125A,105.8983,26.2481,安顺市,娄家坡,,22,20,19,11,9,69,,64,64,2,2,5,5,0.4,0.4
2024-07-07T1800,1818A,114.4839,36.0621,安阳市,棉研所,,,,,,,,,,,,,,,,
2024-07-07T1800,1819A,114.3551,36.1017,安阳市,红庙街,,30,12,40,6,25,96,,110,110,2,5,3,2,0.3,0.6
2024-07-07T1800,1820A,114.361,36.0681,安阳市,银杏小区,,,,37,,,93,,107,107,2,5,3,2,0.4,0.7
2024-07-07T1800,3141A,114.3922,36.0878,安阳市,信访局,,,,38,7,18,103,,111,111,2,4,2,4,0.5,0.7
2024-07-07T1800,3669A,114.4705,36.0637,安阳市,左辅环卫站,,36,28,29,8,26,115,,93,93,1,6,3,3,0.5,0.7
2024-07-07T1800,3703A,114.2917,36.0949,安阳市,安钢职工学校,,,,50,3,30,89,,114,114,2,10,2,2,0.5,0.9
2024-07-07T1800,1748A,123.044,41.1196,鞍山市,深沟寺,,29,29,47,12,27,47,,83,79,8,16,4,5,0.5,1.2
2024-07-07T1800,1749A,123.011,41.0931,鞍山市,太阳城,,31,18,45,12,28,98,,105,105,7,14,6,7,0.5,1.2
2024-07-07T1800,1750A,123.0485,41.1442,鞍山市,太平,,36,23,67,14,32,114,,116,116,10,20,4,7,0.7,1.5
2024-07-07T1800,1751A,122.9642,41.0971,鞍山市,铁西三道街,,34,23,45,16,32,106,,120,120,18,17,10,5,1.0,1.3
2024-07-07T1800,1752A,122.9341,41.0833,鞍山市,铁西工业园区,,33,22,37,13,25,105,,120,120,16,13,5,4,1.0,1.3
2024-07-07T1800,1753A,123.022,41.0821,鞍山市,明达新区,,30,19,39,11,26,94,,119,116,10,13,6,6,0.7,1.1
2024-07-07T1800,1754A,123.1289,41.0228,鞍山市,千山,,,,,,,,,,,,,,,,
2024-07-07T1800,2195A,107.4212,40.761,巴彦淖尔市,附二中,臭氧1小时,55,36,47,15,23,164,,156,156,5,12,6,3,0.5,0.5
2024-07-07T1800,2196A,107.37,40.7372,巴彦淖尔市,市环保大楼,臭氧1小时,59,49,56,11,19,167,,158,158,7,13,4,5,0.4,0.5
2024-07-07T1800,1956A,86.1472,41.7538,巴音郭楞蒙古自治州,孔雀公园,,50,50,58,16,19,127,,114,114,2,17,3,4,0.2,0.3
2024-07-07T1800,1957A,86.1972,41.7166,巴音郭楞蒙古自治州,棉纺厂,,44,44,51,18,17,130,,118,118,4,13,4,4,0.2,0.3
2024-07-07T1800,1958A,86.2357,41.7173,巴音郭楞蒙古自治州,经济开发区,,42,24,38,23,20,132,,122,122,3,5,3,3,0.2,0.2
2024-07-07T1800,2914A,106.7677,31.8794,巴中市,苏山坪,,14,14,14,8,8,44,,59,39,4,4,3,4,0.4,0.4
2024-07-07T1800,3182A,106.7656,31.8545,巴中市,丽阳花园,,20,20,21,14,12,19,,31,14,15,16,5,6,0.6,0.6
2024-07-07T1800,3183A,106.7418,31.8654,巴中市,圣泉水务公司,,13,13,16,9,9,25,,38,25,13,13,4,4,0.5,0.5
2024-07-07T1800,3616A,106.7616,31.8344,巴中市,市中心医院,,18,18,17,11,12,27,,40,22,15,14,6,6,0.5,0.5
2024-07-07T1800,2235A,122.7911,45.6077,白城市,洮北区环保局,细颗粒物(PM2.5),60,45,40,43,32,153,,132,132,13,36,4,5,0.5,0.4
2024-07-07T1800,2236A,122.8738,45.5725,白城市,市环保局,细颗粒物(PM2.5),59,51,49,42,30,133,,119,119,12,30,3,4,0.5,0.4
2024-07-07T1800,2231A,126.4219,41.9171,白山市,喜丰,,24,14,17,3,8,76,,102,90,6,6,10,9,1.2,1.2
2024-07-07T1800,2232A,126.4077,41.9419,白山市,环保局,,23,22,19,3,7,72,,103,90,9,4,8,9,0.9,1
2024-07-07T1800,2647A,104.1724,36.5446,白银市,第三小学,,40,34,47,24,22,127,,132,125,8,10,7,13,0.6,0.5
2024-07-07T1800,2648A,104.1465,36.5482,白银市,动力公司,,39,32,44,20,20,124,,136,124,7,7,9,7,0.6,0.4
2024-07-07T1800,2512A,106.6103,23.9011,百色市,市监测站,,32,32,38,13,15,69,,77,77,10,12,6,14,0.7,0.8
2024-07-07T1800,2513A,106.6538,23.8859,百色市,市中心血站,,29,29,32,13,16,74,,76,76,9,10,4,12,0.6,0.7
2024-07-07T1800,3406A,106.6085,23.8798,百色市,祈福高中,,27,27,35,9,16,78,,81,81,7,13,9,18,0.9,0.9
2024-07-07T1800,2270A,117.396,32.939,蚌埠市,工人疗养院,,36,29,34,8,11,113,,101,101,2,5,8,9,0.4,0.4
2024-07-07T1800,2271A,117.3605,32.9427,蚌埠市,百货大楼,,34,28,32,6,13,106,,102,102,2,5,6,6,0.2,0.2
2024-07-07T1800,2273A,117.4185,32.8911,蚌埠市,蚌埠学院,,40,29,28,11,14,125,,104,104,2,4,6,10,0.4,0.5
2024-07-07T1800,2274A,117.3533,32.9673,蚌埠市,淮上区政府,,,24,28,9,14,107,,107,107,1,6,,5,0.3,0.4
2024-07-07T1800,2275A,117.3145,32.8977,蚌埠市,高新区,,35,17,32,12,14,111,,104,104,2,8,6,7,0.4,0.4
2024-07-07T1800,3715A,117.3092,32.9314,蚌埠市,蚌埠田家炳中学,,33,28,35,17,14,105,,102,102,2,6,7,8,0.3,0.3
2024-07-07T1800,1585A,109.8756,40.6532,包头市,市环境监测站,,50,16,50,3,21,157,,142,142,11,37,13,25,0.4,1
2024-07-07T1800,1587A,109.9991,40.5842,包头市,包头八中,,50,10,37,3,12,157,,145,145,13,22,10,14,0.4,0.6
2024-07-07T1800,1588A,109.8538,40.6821,包头市,青山宾馆,,,,,,,,,,,,,,,,
2024-07-07T1800,1589A,109.8642,40.6288,包头市,惠龙物流,臭氧1小时,55,18,40,6,15,164,,148,148,9,25,15,24,0.3,0.7
2024-07-07T1800,1590A,110.0377,40.5546,包头市,东河鸿龙湾,,50,20,37,3,17,159,,142,142,7,18,9,14,0.7,0.8
2024-07-07T1800,3283A,109.9154,40.5685,包头市,滨河大厦,臭氧1小时,59,17,30,3,15,167,,149,149,6,23,14,18,0.6,0.7
2024-07-07T1800,3419A,109.9447,40.6261,包头市,包头市委党校,,50,11,36,8,16,160,,151,151,13,25,9,13,0.3,0.6
2024-07-07T1800,3683A,109.8331,40.6576,包头市,昆区政府,,50,13,40,3,15,158,,142,142,10,30,11,22,0.6,1.2
2024-07-07T1800,1930A,107.185,34.3063,宝鸡市,庙沟村,,17,6,26,6,16,53,,76,49,5,9,8,8,0.5,0.4
2024-07-07T1800,1931A,107.0708,34.3017,宝鸡市,竹园沟,,24,12,25,7,15,75,,72,72,11,14,8,9,0.6,0.6
2024-07-07T1800,1932A,107.1906,34.3672,宝鸡市,三陆医院,,17,11,31,3,17,54,,49,49,17,22,7,8,0.6,0.7
2024-07-07T1800,1933A,107.1431,34.3547,宝鸡市,监测站,,24,12,29,8,19,74,,60,60,15,21,8,9,0.6,0.5
2024-07-07T1800,1934A,107.1186,34.3739,宝鸡市,技工学校,,18,8,27,8,20,56,,53,53,17,19,7,7,0.6,0.5
2024-07-07T1800,1935A,107.3906,34.3528,宝鸡市,陈仓区环保局家属楼,,,16,32,,21,61,,59,59,21,24,6,6,0.5,0.5
2024-07-07T1800,1936A,107.2058,34.3497,宝鸡市,文理学院,,23,,31,9,16,71,,66,66,16,21,8,8,0.6,0.6
2024-07-07T1800,1937A,107.2386,34.3622,宝鸡市,三迪小学,,25,20,32,17,19,57,,52,49,22,22,7,7,0.7,0.6
2024-07-07T1800,1051A,115.493,38.8632,保定市,游泳馆,,49,48,50,22,24,155,,116,116,2,6,5,6,0.1,0.1
2024-07-07T1800,1052A,115.5213,38.8959,保定市,华电二区,臭氧1小时,82,45,54,14,24,185,,145,145,6,10,9,9,0.4,0.5
2024-07-07T1800,1053A,115.4713,38.9108,保定市,接待中心,臭氧1小时,60,44,49,21,24,168,,135,135,7,8,1,3,0.3,0.4
2024-07-07T1800,1054A,115.4612,38.8416,保定市,地表水厂,臭氧1小时,62,52,64,32,34,169,,132,132,9,10,1,2,0.7,0.7
2024-07-07T1800,3581A,115.31981,38.95208,保定市,满城区生态环境分局,,46,36,63,12,27,147,,133,133,2,9,2,2,0.2,0.3
2024-07-07T1800,3582A,115.47694,38.76408,保定市,清苑区第二中学,颗粒物(PM10),76,102,77,37,34,169,,125,125,10,13,4,4,0.5,0.5
2024-07-07T1800,3583A,115.62909,39.02311,保定市,徐水物探局,臭氧1小时,75,45,52,19,23,180,,145,145,11,20,4,5,0.3,0.3
2024-07-07T1800,4004A,115.4202,38.8656,保定市,双鹰农机,臭氧1小时,63,42,48,15,24,170,,138,138,13,14,4,4,0.2,0.3
2024-07-07T1800,4034A,115.5150,38.8590,保定市,植保所站,臭氧1小时,95,34,43,22,28,196,,148,148,5,10,2,4,0.2,0.4
2024-07-07T1800,2594A,99.1678,25.1081,保山市,市环境监测站,,19,19,20,3,12,42,,43,43,5,8,6,6,0.4,0.5
2024-07-07T1800,2595A,99.1711,25.1328,保山市,市环保局,,20,20,23,3,7,47,,48,48,2,5,5,5,0.4,0.5
2024-07-07T1800,1866A,109.2262,21.588,北海市,牛尾岭水库,,,,,,,,,,,,,,,,
2024-07-07T1800,1867A,109.1436,21.4086,北海市,海滩公园,,32,32,22,3,2,62,,68,68,6,4,3,3,0.5,0.6
2024-07-07T1800,1868A,109.0981,21.4661,北海市,新市环保局,,21,21,14,3,4,64,,67,67,4,4,4,4,0.4,0.5
2024-07-07T1800,1869A,109.1778,21.5233,北海市,北海工业园,,19,17,12,7,7,60,,58,58,4,6,4,4,0.4,0.4
2024-07-07T1800,3400A,109.1911,21.4415,北海市,龙潭自来水厂,,20,14,10,7,6,61,,68,68,5,4,5,5,0.4,0.5
2024-07-07T1800,1001A,116.3621,39.8784,北京市,万寿西宫,臭氧1小时,109,55,28,47,23,218,,157,157,18,19,2,2,0.9,0.5
2024-07-07T1800,1002A,116.2202,40.2915,北京市,定陵,,50,36,21,16,9,158,,104,104,8,8,3,3,0.6,0.4
2024-07-07T1800,1003A,116.4174,39.9289,北京市,东四,臭氧1小时,110,64,33,35,18,220,,157,157,14,19,6,4,1.0,0.5
2024-07-07T1800,1004A,116.4072,39.8863,北京市,天坛,臭氧1小时,106,55,28,39,17,211,,154,154,14,20,2,3,1.0,0.5
2024-07-07T1800,1005A,116.462,39.9365,北京市,农展馆,臭氧1小时,102,65,34,38,17,203,,144,144,14,23,3,3,1.0,0.5
2024-07-07T1800,1006A,116.3392,39.9295,北京市,官园,臭氧1小时,111,57,33,30,18,221,,160,160,14,19,6,4,0.5,0.2
2024-07-07T1800,1007A,116.2878,39.9611,北京市,海淀万柳,臭氧1小时,73,44,32,25,16,178,,125,125,16,30,5,5,0.4,0.3
2024-07-07T1800,1008A,116.6636,40.135,北京市,顺义新城,臭氧1小时,112,81,32,47,18,224,,155,155,13,14,2,3,1.0,0.5
2024-07-07T1800,1009A,116.6275,40.3275,北京市,怀柔镇,臭氧1小时,88,41,23,26,13,190,,139,139,5,3,2,1,0.5,0.3
2024-07-07T1800,1010A,116.2296,40.217,北京市,昌平镇,颗粒物(PM10),52,53,29,24,13,138,,103,103,12,21,1,2,0.4,0.4
2024-07-07T1800,1011A,116.3966,39.9821,北京市,奥体中心,臭氧1小时,92,48,28,25,16,193,,130,130,15,26,1,3,0.8,0.5
2024-07-07T1800,1012A,116.184,39.9136,北京市,古城,臭氧1小时,75,45,37,20,16,180,,124,124,20,28,1,1,0.5,0.4
2024-07-07T1800,3281A,115.9718,40.4529,北京市,延庆夏都,,38,23,24,14,11,120,,112,112,9,9,1,3,0.3,0.3
2024-07-07T1800,3417A,117.0709,40.1465,北京市,平谷新城,臭氧1小时,87,79,39,55,25,189,,155,155,24,14,1,3,1.4,0.6
2024-07-07T1800,3418A,116.8336,40.4095,北京市,密云新城,臭氧1小时,107,60,26,29,13,214,,147,147,13,8,1,3,0.9,0.4
2024-07-07T1800,3671A,116.088,39.9726,北京市,门头沟三家店,,,,,,,,,,,,,,,,
2024-07-07T1800,3672A,116.1541,39.8204,北京市,丰台云岗,,48,41,35,26,18,153,,111,111,13,19,3,2,0.4,0.4
2024-07-07T1800,3673A,116.6804,39.9081,北京市,通州东关,臭氧1小时,109,96,43,61,26,217,,178,178,8,22,3,2,1.4,0.7
2024-07-07T1800,3674A,115.9577,39.7603,北京市,房山燕山,,48,44,32,19,20,153,,102,102,10,8,3,2,0.4,0.5
2024-07-07T1800,3675A,116.4672,39.7733,北京市,大兴旧宫,臭氧1小时,108,87,35,53,21,216,,154,154,11,23,3,3,1.2,0.6
2024-07-07T1800,3694A,115.986,40.4563,北京市,延庆石河营,,37,24,19,15,12,116,,104,104,7,9,3,3,0.3,0.3
2024-07-07T1800,3695A,116.6151,40.3053,北京市,怀柔新城,臭氧1小时,73,38,21,27,13,178,,128,128,9,6,1,2,0.7,0.5
2024-07-07T1800,3696A,116.2545,39.8768,北京市,丰台小屯,臭氧1小时,65,43,34,26,18,172,,116,116,7,21,3,3,0.6,0.5
2024-07-07T1800,3697A,116.84,40.3844,北京市,密云镇,臭氧1小时,107,57,25,34,16,214,,144,144,8,11,1,3,0.8,0.4
2024-07-07T1800,1761A,123.8275,41.3064,本溪市,大峪,,40,28,35,17,17,128,,128,128,12,12,10,10,0.6,1
2024-07-07T1800,1762A,123.7567,41.3325,本溪市,溪湖,,44,29,27,21,17,138,,127,127,11,13,6,6,0.6,0.8
2024-07-07T1800,1763A,123.7169,41.3094,本溪市,彩屯,,42,30,24,24,19,132,,125,125,20,15,7,7,0.8,0.8
2024-07-07T1800,1764A,123.7669,41.2864,本溪市,东明,,45,40,38,21,21,141,,127,127,14,19,8,8,0.6,1.1
2024-07-07T1800,1765A,123.7992,41.2664,本溪市,新立屯,,32,32,32,13,13,48,,78,72,17,13,4,4,0.7,0.9
2024-07-07T1800,1766A,123.8142,41.3472,本溪市,威宁,,38,36,32,19,22,120,,116,116,16,16,8,8,0.7,1.1
2024-07-07T1800,2587A,105.2864,27.3125,毕节市,八中,,27,24,19,10,11,84,,70,70,10,8,6,6,0.4,0.3
2024-07-07T1800,2588A,105.31,27.2944,毕节市,师专,,25,18,17,10,12,78,,67,67,9,9,4,4,0.5,0.4
2024-07-07T1800,3537A,105.3631,27.3533,毕节市,长征村,,29,13,15,8,10,90,,78,78,7,6,8,8,0.4,0.4
2024-07-07T1800,1629A,118.0018,37.3617,滨州市,第二水厂,,44,36,34,17,20,138,,158,158,9,14,2,2,0.5,0.5
2024-07-07T1800,1630A,117.9776,37.393,滨州市,北中新校,,46,41,36,19,19,146,,165,165,13,12,2,2,0.5,0.5
2024-07-07T1800,3514A,117.9378,37.3956,滨州市,中海酒店,,49,31,33,22,21,155,,174,174,12,13,7,4,0.4,0.5
2024-07-07T1800,3515A,117.9378,37.3553,滨州市,开发区一中,,38,29,36,17,22,119,,151,151,9,16,5,6,0.6,0.7
2024-07-07T1800,3516A,118.0917,37.694,滨州市,金海六路,颗粒物(PM10),54,58,39,31,17,146,,164,164,19,24,4,3,0.5,0.5
2024-07-07T1800,4028A,117.9956,37.3753,滨州市,滨州市西街道办事处,,47,31,32,22,23,148,,171,171,10,12,1,2,0.6,0.6
2024-07-07T1800,2311A,115.8072,33.8399,亳州市,污水处理厂,,29,26,16,8,10,92,,95,95,3,6,2,2,0.5,0.6
2024-07-07T1800,2312A,115.7789,33.8518,亳州市,三国揽胜宫,,30,19,19,3,6,93,,94,94,4,4,2,2,0.3,0.3
2024-07-07T1800,3332A,115.7633,33.8034,亳州市,亳州学院,,29,9,8,3,9,91,,96,96,3,5,3,2,0.4,0.4
2024-07-07T1800,2693A,82.0485,44.8556,博尔塔拉蒙古自治州,市党校,,,22,21,8,8,127,,123,123,8,9,10,9,,0.4
2024-07-07T1800,2694A,82.0806,44.8969,博尔塔拉蒙古自治州,市环保局,,40,26,24,12,10,128,,120,120,10,14,10,9,0.3,0.4
2024-07-07T1800,1071A,116.8842,38.2991,沧州市,沧县城建局,,45,40,37,26,23,142,,136,136,10,11,4,2,1.0,0.8
2024-07-07T1800,1072A,116.8584,38.3254,沧州市,电视转播站,颗粒物(PM10),53,55,43,36,26,131,,122,122,10,11,5,3,0.7,0.4
2024-07-07T1800,1073A,116.8709,38.3228,沧州市,市环保局,细颗粒物(PM2.5),54,51,47,38,28,137,,133,133,11,13,2,2,0.6,0.4
2024-07-07T1800,3324A,116.8136,38.3004,沧州市,河北水利电力学院,,50,46,40,35,29,142,,136,136,13,17,4,4,0.5,0.4
2024-07-07T1800,2622A,97.1806,31.1273,昌都市,昌都监测站,,17,15,9,3,5,53,,50,50,3,7,7,8,0.4,0.4
2024-07-07T1800,3719A,97.1714,31.1406,昌都市,昌都会议中心,,16,8,9,3,3,50,,55,55,4,5,6,6,0.4,0.4
2024-07-07T1800,2690A,88.1236,43.8886,昌吉回族自治州,天山天池,,41,6,4,3,2,131,,111,111,6,6,3,3,0.6,0.6
2024-07-07T1800,2692A,87.2717,44.0297,昌吉回族自治州,新区政务中心,,41,10,17,3,6,130,,123,123,7,15,7,8,0.4,0.5
2024-07-07T1800,3613A,87.3095,44.0142,昌吉回族自治州,亚心广场,,45,14,16,3,4,141,,129,129,11,22,7,7,0.2,0.3
2024-07-07T1800,1119A,125.3325,43.9166,长春市,食品厂,细颗粒物(PM2.5),62,63,38,44,28,84,,64,64,31,24,5,4,0.8,0.7
2024-07-07T1800,1120A,125.2863,43.9027,长春市,客车厂,细颗粒物(PM2.5),77,60,33,56,28,103,,73,73,28,20,2,2,0.7,0.6
2024-07-07T1800,1121A,125.2841,43.8463,长春市,邮电学院,细颗粒物(PM2.5),55,51,35,39,22,83,,66,63,11,15,6,6,0.6,0.5
2024-07-07T1800,1122A,125.3716,43.8772,长春市,劳动公园,细颗粒物(PM2.5),57,51,37,40,22,90,,72,72,12,15,1,3,0.8,0.7
2024-07-07T1800,1123A,125.3297,43.8805,长春市,园林处,细颗粒物(PM2.5),57,,32,40,28,78,,78,76,10,14,3,3,0.6,0.5
2024-07-07T1800,1124A,125.4605,43.79,长春市,净月潭,细颗粒物(PM2.5),54,51,35,38,20,85,,76,75,6,9,4,4,0.6,0.5
2024-07-07T1800,1125A,125.7194,43.515,长春市,甩湾子,,,,,,,,,,,,,,,,
2024-07-07T1800,1126A,125.3863,43.8447,长春市,经开区环卫处,细颗粒物(PM2.5),55,57,35,39,20,108,,92,92,11,13,2,3,0.6,0.5
2024-07-07T1800,1127A,125.245,43.7783,长春市,高新区管委会,细颗粒物(PM2.5),62,,31,44,21,95,,95,94,11,13,4,4,0.7,0.6
2024-07-07T1800,1128A,125.1761,43.8325,长春市,岱山公园,细颗粒物(PM2.5),75,,33,55,24,138,,83,83,10,12,3,3,0.6,0.5
2024-07-07T1800,1335A,113.0833,28.2325,长沙市,经开区环保局,,27,26,28,12,12,84,,96,96,4,9,4,5,0.4,0.3
2024-07-07T1800,1336A,112.8872,28.2189,长沙市,高开区环保局,,33,30,29,14,12,103,,103,103,4,8,6,8,0.6,0.6
2024-07-07T1800,1337A,113.0792,28.2053,长沙市,马坡岭,,32,24,27,12,12,101,,115,115,3,9,8,9,0.4,0.5
2024-07-07T1800,1338A,112.9394,28.19,长沙市,湖南师范大学,,31,28,33,13,16,99,,110,110,4,11,4,5,0.4,0.6
2024-07-07T1800,1339A,113.0178,28.1322,长沙市,雨花区环保局,,30,29,28,12,11,93,,111,110,2,7,4,5,0.5,0.6
2024-07-07T1800,1340A,112.9792,28.2597,长沙市,伍家岭,,32,27,28,17,15,101,,110,110,2,8,2,4,0.4,0.5
2024-07-07T1800,1341A,113.0014,28.1944,长沙市,火车新站,,32,25,28,9,13,100,,114,114,4,10,3,5,0.3,0.3
2024-07-07T1800,1342A,112.9844,28.1178,长沙市,天心区环保局,,35,35,31,11,15,86,,104,104,6,10,3,4,0.4,0.4
2024-07-07T1800,1343A,112.8908,28.1308,长沙市,湖南中医药大学,,37,37,32,21,13,101,,110,109,2,8,6,8,0.4,0.5
2024-07-07T1800,1344A,112.9581,28.3611,长沙市,沙坪,,33,24,21,6,12,104,,107,107,6,12,8,9,0.4,0.5
2024-07-07T1800,1727A,113.1147,36.1547,长治市,清华站,,45,23,35,12,20,142,,149,148,8,11,10,11,0.4,0.6
2024-07-07T1800,1728A,113.1031,36.1989,长治市,监测站,,46,22,43,14,20,145,,142,142,11,16,4,4,0.9,1
2024-07-07T1800,1730A,113.0886,36.2125,长治市,审计局,,49,26,34,19,21,155,,147,147,14,21,4,4,1.0,1
2024-07-07T1800,1731A,113.0844,36.1856,长治市,长治八中,,45,29,43,14,23,142,,145,145,14,15,4,5,0.7,0.9
2024-07-07T1800,2845A,113.1569,36.1911,长治市,德盛苑,,49,22,35,14,21,156,,153,153,5,10,8,9,0.9,1.2
2024-07-07T1800,3568A,113.06,36.0464,长治市,向阳小学,,44,38,57,28,45,140,,150,150,9,15,4,7,0.7,1
2024-07-07T1800,3569A,112.8792,36.3144,长治市,屯留一中,臭氧1小时,73,47,54,24,37,178,,170,170,9,15,12,12,0.6,0.7
2024-07-07T1800,3570A,113.235,36.3489,长治市,潞城四中,臭氧1小时,94,43,44,40,28,195,,174,174,5,14,8,7,1.1,1
2024-07-07T1800,1854A,111.6975,28.9703,常德市,市二中,,23,22,17,10,8,73,,69,69,6,7,6,7,0.4,0.4
2024-07-07T1800,1857A,111.7158,29.1456,常德市,白鹤山,,,,,,,,,,,,,,,,
2024-07-07T1800,3138A,111.7153,29.0289,常德市,武陵区永安,,22,22,16,10,8,70,,69,69,3,5,7,8,0.3,0.3
2024-07-07T1800,3139A,111.6892,28.9881,常德市,鼎城区玉霞,,22,17,16,15,10,69,,68,68,2,3,6,5,0.4,0.4
2024-07-07T1800,3140A,111.6625,29.0531,常德市,武陵区长庚,,22,16,15,12,10,70,,68,68,1,2,8,8,0.4,0.4
2024-07-07T1800,1196A,119.9633,31.762,常州市,市监测站,,43,32,20,7,10,136,,118,118,5,11,7,8,0.3,0.5
2024-07-07T1800,1200A,119.9468,31.7069,常州市,武进监测站,,46,18,19,13,9,146,,111,111,2,6,5,11,0.5,0.5
2024-07-07T1800,1201A,119.9255,31.9087,常州市,安家,,33,24,25,10,11,104,,101,101,4,18,6,9,0.4,0.5
2024-07-07T1800,3002A,119.9805,31.8174,常州市,行政中心,,36,16,18,13,12,114,,104,104,4,8,12,12,0.2,0.2
2024-07-07T1800,3003A,120.0522,31.7748,常州市,经开区,,44,25,24,9,11,139,,114,114,21,22,7,7,0.4,0.2
2024-07-07T1800,3010A,119.9025,31.7964,常州市,钟楼,,37,25,19,6,7,118,,101,101,5,10,5,5,0.4,0.5
2024-07-07T1800,3429A,119.8598,31.7066,常州市,武进经发区,,47,24,22,14,12,150,,111,111,3,7,8,10,0.4,0.4
2024-07-07T1800,3430A,119.5826,31.7245,常州市,金坛城区,,33,18,17,9,11,103,,102,102,5,7,8,6,0.3,0.3
2024-07-07T1800,2220A,120.4318,41.5881,朝阳市,西梁,,35,27,26,18,15,111,,109,109,8,12,10,9,0.7,0.7
2024-07-07T1800,2221A,120.4521,41.5646,朝阳市,河畔小区,,35,21,28,18,13,111,,113,113,5,10,7,7,0.5,0.6
2024-07-07T1800,2222A,120.4176,41.5648,朝阳市,八里堡,,36,31,27,20,14,114,,111,111,8,13,7,6,1.0,0.9
2024-07-07T1800,2223A,120.3806,41.5969,朝阳市,农业园区,,38,27,23,26,13,111,,111,111,7,11,8,6,0.6,0.6
2024-07-07T1800,1705A,116.6367,23.6719,潮州市,西园路,,17,10,17,6,7,54,,48,48,7,10,2,3,0.5,0.5
2024-07-07T1800,3026A,116.6183,23.6608,潮州市,市政府,,17,17,20,8,6,52,,57,57,5,6,3,4,0.7,0.7
2024-07-07T1800,4036A,116.6461,23.6761,潮州市,金山,,25,25,17,7,8,53,,46,46,6,7,5,6,0.5,0.5
2024-07-07T1800,2472A,113.0073,25.9061,郴州市,马头岭,,,,25,14,10,70,,82,71,4,6,10,11,0.5,0.5
2024-07-07T1800,2473A,113.0116,25.8226,郴州市,市职中,,27,9,15,3,11,85,,90,78,4,6,7,11,0.3,0.3
2024-07-07T1800,2474A,113.0161,25.8001,郴州市,兴隆步行街,,27,20,18,8,10,84,,88,77,4,5,6,12,0.4,0.4
2024-07-07T1800,2475A,113.0383,25.8071,郴州市,市审计局,,26,,16,8,12,83,,78,78,6,9,3,19,0.2,0.3
2024-07-07T1800,2476A,113.0348,25.7759,郴州市,市环保局,,28,12,17,7,11,88,,83,83,2,5,5,22,0.4,0.4
2024-07-07T1800,1431A,103.9728,30.7236,成都市,金泉两河,,21,19,37,10,23,65,,68,68,6,11,1,1,0.5,0.6
2024-07-07T1800,1432A,104.176,30.6872,成都市,十里店,,24,20,43,7,25,74,,82,82,9,14,3,3,0.4,0.5
2024-07-07T1800,1433A,104.079,30.5706,成都市,三瓦窑,,38,38,45,16,30,92,,102,102,11,16,1,1,0.4,0.5
2024-07-07T1800,1434A,104.1114,30.63,成都市,沙河铺,,29,29,43,20,26,83,,86,86,9,12,2,2,0.5,0.5
2024-07-07T1800,1437A,104.0786,30.6531,成都市,君平街,,28,22,40,7,24,89,,98,98,15,16,2,2,0.4,0.5
2024-07-07T1800,1438A,103.613,31.0283,成都市,灵岩寺,,,,,,,,,,,,,,,,
2024-07-07T1800,2880A,104.0239,30.65639,成都市,大石西路,,25,17,38,8,24,80,,84,84,9,13,5,4,0.5,0.5
2024-07-07T1800,3136A,104.2725,30.5589,成都市,龙泉驿区区政府,,20,19,28,12,18,63,,86,86,10,11,2,3,0.5,0.5
2024-07-07T1800,3357A,104.0106,30.6931,成都市,金博路,,20,11,34,3,21,61,,65,65,6,10,1,1,0.5,0.6
2024-07-07T1800,3359A,104.0578,30.5225,成都市,华阳,,35,29,36,24,31,92,,94,94,7,8,3,3,0.6,0.6
2024-07-07T1800,3487A,104.2394,30.5319,成都市,车城东七路,,33,27,42,23,30,64,,87,86,13,12,2,2,0.6,0.6
2024-07-07T1800,3488A,104.3853,30.7453,成都市,青白江技师分院,,23,,26,16,14,65,,75,75,2,8,5,5,0.6,0.6
2024-07-07T1800,3489A,104.0789,30.4072,成都市,科学城,,38,38,45,25,32,117,,115,115,10,12,3,3,0.5,0.5
2024-07-07T1800,4011A,103.8506,30.6947,成都市,光华大道三段,,23,13,42,8,23,72,,76,76,4,9,3,4,0.5,0.6
2024-07-07T1800,1062A,117.9531,40.9081,承德市,铁路,,42,38,27,29,16,108,,120,120,10,15,5,6,0.4,0.3
2024-07-07T1800,1063A,117.9392,40.9763,承德市,中国银行,,34,23,28,21,15,107,,113,113,9,15,5,5,0.3,0.2
2024-07-07T1800,1064A,117.9503,40.928,承德市,开发区,,36,32,35,24,19,113,,122,121,9,18,5,6,0.4,0.4
2024-07-07T1800,1065A,117.8051,40.9655,承德市,文化中心,颗粒物(PM10),53,56,34,3,13,104,,122,122,10,21,8,10,0.3,0.3
2024-07-07T1800,1066A,117.9268,41.0026,承德市,离宫,,42,42,24,29,21,100,,109,109,3,8,3,4,0.3,0.2
2024-07-07T1800,2314A,117.47,30.6618,池州市,池州学院,,31,24,21,12,10,99,,84,84,6,8,6,6,0.3,0.3
2024-07-07T1800,3237A,117.4918,30.6617,池州市,展览馆,,32,23,19,9,8,100,,86,86,4,5,4,4,0.4,0.3
2024-07-07T1800,3333A,117.5627,30.695,池州市,第八中学,,32,12,15,7,9,102,,88,88,4,6,4,4,0.2,0.2
2024-07-07T1800,3334A,117.5038,30.6243,池州市,第十二中学,,31,21,19,11,10,99,,86,86,7,9,6,6,0.4,0.5
2024-07-07T1800,1744A,118.9233,42.2816,赤峰市,松山一中,,42,42,16,16,8,113,,114,114,22,14,10,10,0.6,0.5
2024-07-07T1800,1745A,118.9576,42.2728,赤峰市,哈达街,,39,29,16,19,9,123,,121,121,14,12,12,12,0.6,0.5
2024-07-07T1800,1746A,118.8788,42.2554,赤峰市,天义路,,43,,15,26,7,135,,123,123,16,17,8,7,0.4,0.4
2024-07-07T1800,3058A,119.2658,42.0353,赤峰市,银河街,,36,31,15,23,15,114,,114,114,14,14,10,13,0.4,0.4
2024-07-07T1800,3286A,118.9359,42.3147,赤峰市,桥北物流园区,,48,,15,33,13,117,,112,112,20,13,7,6,0.4,0.3
2024-07-07T1800,2521A,107.3476,22.4136,崇左市,市环保局江州分局,,25,25,24,8,7,53,,56,56,4,9,5,5,0.6,0.6
2024-07-07T1800,2522A,107.3702,22.3707,崇左市,城南新区,,16,16,15,8,6,49,,58,58,4,6,2,2,0.7,0.6
2024-07-07T1800,2298A,118.3093,32.3153,滁州市,老年大学,,35,27,24,14,14,110,,111,111,6,6,6,6,0.5,0.5
2024-07-07T1800,2299A,118.3244,32.2786,滁州市,人大宾馆,,37,28,29,16,16,118,,117,117,8,9,6,6,0.4,0.5
2024-07-07T1800,3207A,118.3118,32.3038,滁州市,市政府原办公楼,,34,24,22,14,17,106,,108,108,8,7,7,7,0.6,0.5
2024-07-07T1800,3331A,118.3267,32.2634,滁州市,图书馆,,37,29,25,13,15,116,,114,114,4,5,9,10,0.7,0.7
2024-07-07T1800,2605A,101.5482,25.0441,楚雄彝族自治州,州环境监测站,,13,6,6,3,4,41,,40,40,2,3,4,4,0.4,0.4
2024-07-07T1800,2606A,101.538,25.0492,楚雄彝族自治州,市经济开发区,,13,,11,3,6,39,,38,38,3,4,5,4,0.5,0.5
2024-07-07T1800,2548A,107.5277,31.2827,达州市,达州职业技术学院,,20,20,27,3,5,27,,26,26,19,18,3,3,0.2,0.3
2024-07-07T1800,2549A,107.5086,31.2186,达州市,市环境监测站,,18,16,28,3,7,55,,48,48,19,25,6,6,0.5,0.6
2024-07-07T1800,2550A,107.4988,31.2132,达州市,凤凰小区,,20,17,21,9,10,63,,54,54,15,26,7,7,0.4,0.5
2024-07-07T1800,2551A,107.5082,31.1986,达州市,达县机关宾馆,,24,24,30,3,10,52,,46,46,22,29,3,4,0.2,0.3
2024-07-07T1800,2552A,107.4644,31.2124,达州市,市政中心,,30,30,30,3,8,53,,51,51,19,23,8,7,0.5,0.5
2024-07-07T1800,2614A,100.1542,25.7054,大理白族自治州,大理市环境监测站,,,,13,,8,45,,40,40,7,5,4,4,0.4,0.4
2024-07-07T1800,2615A,100.2171,25.5811,大理白族自治州,大理古城,,25,25,14,11,7,51,,50,50,7,7,6,6,0.6,0.6
2024-07-07T1800,1109A,121.612,38.9741,大连市,甘井子,细颗粒物(PM2.5),62,44,28,44,24,136,,146,146,28,22,8,8,0.6,0.5
2024-07-07T1800,1110A,121.565,38.9511,大连市,周水子,,,,21,36,23,123,,132,132,36,24,10,7,0.8,0.7
2024-07-07T1800,1111A,121.5637,38.8845,大连市,星海三站,细颗粒物(PM2.5),67,52,28,48,19,165,,150,150,17,12,9,9,0.7,0.5
2024-07-07T1800,1112A,121.6302,38.9117,大连市,青泥洼桥,细颗粒物(PM2.5),79,,30,58,25,97,,147,147,28,15,8,8,1.0,0.8
2024-07-07T1800,1113A,121.6251,38.8638,大连市,傅家庄,"细颗粒物(PM2.5),臭氧1小时",65,48,27,47,25,172,,156,156,18,12,8,8,0.6,0.5
2024-07-07T1800,1114A,121.5213,38.8661,大连市,七贤岭,细颗粒物(PM2.5),68,54,27,49,23,148,,133,133,20,17,6,6,0.6,0.5
2024-07-07T1800,1115A,121.2529,38.8061,大连市,旅顺,颗粒物(PM10),52,53,28,29,18,143,,151,151,26,21,9,9,0.6,0.5
2024-07-07T1800,1116A,121.7485,39.1311,大连市,金州,细颗粒物(PM2.5),57,42,27,40,27,97,,134,132,33,15,8,7,0.7,0.6
2024-07-07T1800,1117A,121.7811,39.0496,大连市,开发区,细颗粒物(PM2.5),59,47,30,42,26,111,,152,152,41,23,7,6,0.9,0.6
2024-07-07T1800,1118A,121.9762,39.0631,大连市,双D港,细颗粒物(PM2.5),67,,30,48,23,117,,115,115,32,20,7,7,0.7,0.7
2024-07-07T1800,1789A,124.81117,46.03138,大庆市,大同区,细颗粒物(PM2.5),80,66,58,59,45,123,,114,114,9,14,6,7,0.5,0.4
2024-07-07T1800,1790A,125.129,46.533,大庆市,龙凤区,细颗粒物(PM2.5),105,82,56,79,40,128,,113,113,11,17,5,5,0.9,0.6
2024-07-07T1800,1791A,124.902,46.408,大庆市,红岗区,细颗粒物(PM2.5),68,50,55,49,36,131,,130,130,13,16,7,7,0.9,0.7
2024-07-07T1800,1792A,125.153,46.586,大庆市,萨尔图区,细颗粒物(PM2.5),98,82,56,73,42,117,,104,104,11,11,7,7,0.8,0.5
2024-07-07T1800,1793A,124.9042,46.6215,大庆市,让胡路区,细颗粒物(PM2.5),79,102,72,58,26,126,,121,121,10,14,6,6,0.8,0.5
2024-07-07T1800,3481A,125.141,46.634,大庆市,萨区政府监测点,细颗粒物(PM2.5),87,93,65,64,36,124,,109,109,9,12,6,6,0.7,0.5
2024-07-07T1800,1721A,113.3819,40.1097,大同市,果树场,,,,,,,,,,,,,,,,
2024-07-07T1800,1723A,113.2994,40.0758,大同市,云冈宾馆,,48,48,41,16,24,101,,87,87,24,26,8,11,0.3,0.5
2024-07-07T1800,1724A,113.3444,40.0917,大同市,大同大学,,45,45,43,17,22,99,,87,87,24,28,11,16,0.5,0.6
2024-07-07T1800,1725A,113.2661,40.1269,大同市,安家小村,,50,50,44,3,14,111,,112,112,20,24,13,15,0.4,0.6
2024-07-07T1800,1726A,113.2711,40.0844,大同市,教育学院,,49,49,54,22,22,102,,91,91,33,35,9,12,0.4,0.7
2024-07-07T1800,3282A,113.3397,40.0597,大同市,大同市卫生学校,颗粒物(PM10),51,51,55,21,25,102,,82,82,27,30,12,15,0.6,0.8
2024-07-07T1800,3565A,113.1367,40.1122,大同市,云冈站,,39,31,38,14,17,123,,120,120,11,21,9,11,0.4,0.5
2024-07-07T1800,3566A,113.1186,40.2556,大同市,图书馆,,45,,25,19,16,143,,139,139,14,14,8,8,0.4,0.4
2024-07-07T1800,3567A,113.5931,40.0461,大同市,区一中,,44,44,42,16,16,123,,93,93,17,22,9,11,0.6,0.7
2024-07-07T1800,3676A,113.2802,40.0995,大同市,第二人民医院,,44,44,46,9,18,110,,104,104,24,24,10,13,0.5,0.8
2024-07-07T1800,2269A,124.1069,50.4097,大兴安岭地区,科技局,颗粒物(PM10),51,51,60,35,40,84,,99,81,6,6,7,7,0.4,0.6
2024-07-07T1800,3663A,124.1164,50.4278,大兴安岭地区,红旗社区,,39,39,43,26,38,85,,94,79,4,5,7,8,0.5,0.6
2024-07-07T1800,1600A,124.3303,40.0625,丹东市,江湾东路,,38,20,18,16,16,120,,119,119,10,10,6,5,0.4,0.5
2024-07-07T1800,1601A,124.4256,40.1503,丹东市,临江后街,,41,15,17,9,13,129,,118,118,6,8,8,9,0.6,0.9
2024-07-07T1800,1602A,124.3933,40.1461,丹东市,元宝山,,40,18,19,15,13,126,,115,115,10,7,6,6,0.3,0.4
2024-07-07T1800,1603A,124.3633,40.1092,丹东市,民主桥,,36,19,19,11,12,113,,110,110,5,9,5,5,0.5,0.6
2024-07-07T1800,3541A,109.5726,19.5167,儋州市,第一中学子站,,15,7,13,3,6,47,,42,42,2,3,5,6,0.4,0.5
2024-07-07T1800,3542A,109.5567,19.5187,儋州市,东坡学校子站,,14,7,13,3,8,44,,40,40,3,4,6,6,0.4,0.5
2024-07-07T1800,2616A,98.5842,24.428,德宏傣族景颇族自治州,德宏州监测站,,21,11,22,3,9,67,,41,41,9,10,4,5,0.6,0.7
2024-07-07T1800,3677A,98.5881,24.4368,德宏傣族景颇族自治州,芒市人民政府综合楼,,19,10,10,7,11,59,,38,38,8,9,18,13,0.4,0.5
2024-07-07T1800,1901A,104.4239,31.1208,德阳市,东山公园,,14,11,22,9,13,44,,60,47,8,9,2,3,0.5,0.5
2024-07-07T1800,1902A,104.3826,31.1317,德阳市,西小区,,15,6,22,6,16,46,,62,52,8,13,2,5,0.5,0.6
2024-07-07T1800,1904A,104.3553,31.1091,德阳市,耐火材料厂,,,8,23,7,17,46,,59,53,6,10,,5,0.5,0.6
2024-07-07T1800,3639A,104.4019,31.1244,德阳市,市教育局,,18,12,25,9,17,55,,80,80,6,11,3,5,0.5,0.6
2024-07-07T1800,1622A,116.3032,37.4674,德州市,儿童乐园,臭氧1小时,64,46,38,22,21,171,,159,159,10,9,10,8,0.8,0.8
2024-07-07T1800,1624A,116.2991,37.4451,德州市,监理站,臭氧1小时,52,41,33,17,19,161,,165,165,12,13,11,10,0.7,0.7
2024-07-07T1800,3066A,116.2721,37.4379,德州市,九衢泉纯净水厂,,46,46,38,22,22,147,,157,157,12,15,6,6,0.8,0.8
2024-07-07T1800,3371A,116.3728,37.4403,德州市,开发区人民医院,,44,44,36,14,16,135,,156,156,9,13,10,10,0.7,0.8
2024-07-07T1800,3372A,116.3572,37.4094,德州市,太阳城中学,,42,31,33,12,21,133,,161,161,10,14,8,9,0.7,0.7
2024-07-07T1800,3511A,116.5652,37.3319,德州市,陵城艺术中心,颗粒物(PM10),52,53,33,7,14,116,,163,162,17,18,7,7,0.6,0.7
2024-07-07T1800,2621A,99.7056,27.8317,迪庆藏族自治州,迪庆州站,,14,14,14,6,7,34,,36,36,8,8,10,10,0.2,0.2
2024-07-07T1800,3180A,99.7136,27.8094,迪庆藏族自治州,质量技术监督局,,20,20,14,9,7,37,,40,38,9,7,9,9,0.5,0.4
2024-07-07T1800,2663A,104.6241,35.5734,定西市,东关小学,,38,38,33,18,19,95,,100,100,9,8,5,5,0.1,0.2
2024-07-07T1800,2664A,104.6194,35.5934,定西市,供电公司,,32,32,34,21,21,101,,104,104,5,6,4,4,0.2,0.3
2024-07-07T1800,1389A,113.7547,23.0494,东莞市,莞城梨川,,20,20,16,10,6,64,,67,67,14,17,7,7,0.7,0.7
2024-07-07T1800,1390A,113.7944,23.0128,东莞市,东城石井,,19,14,17,6,6,59,,67,67,14,17,1,2,0.6,0.6
2024-07-07T1800,1391A,113.7383,22.9658,东莞市,南城西平,,17,16,18,7,6,54,,64,64,12,19,4,2,0.5,0.6
2024-07-07T1800,3319A,113.7338,23.0381,东莞市,万江金泰,,19,14,17,6,7,59,,67,66,8,14,6,6,0.7,0.7
2024-07-07T1800,3626A,113.7533,23.0202,东莞市,南城元岭,,25,25,20,9,7,57,,63,63,15,15,7,7,0.6,0.6
2024-07-07T1800,3627A,113.7875,23.0457,东莞市,东城主山,,20,19,18,7,7,63,,66,66,14,15,5,5,0.6,0.6
2024-07-07T1800,1666A,118.6614,37.4309,东营市,市环保局,,32,17,35,7,22,100,,143,139,8,19,9,13,0.3,0.5
2024-07-07T1800,3036A,118.6904,37.4338,东营市,开发区管委会,,34,27,40,9,21,108,,155,151,11,22,8,13,1.0,1
2024-07-07T1800,3365A,118.5719,37.565,东营市,垦利区民丰路,,44,41,41,22,24,138,,168,166,17,19,11,12,0.6,0.6
2024-07-07T1800,3498A,118.5055,37.8612,东营市,河口城区,,,36,25,22,25,108,,130,130,7,15,6,7,,0.4
2024-07-07T1800,3646A,118.4978,37.4623,东营市,胜利站,,36,35,39,12,22,114,,161,158,16,24,5,7,0.7,0.9
2024-07-07T1800,3734A,118.35,37.26,东营市,理想之城,,32,14,38,12,25,101,,149,146,8,22,7,8,0.3,0.5
2024-07-07T1800,1591A,110.0023,39.8129,鄂尔多斯市,综合楼,臭氧1小时,59,19,48,3,17,167,,153,153,8,24,7,11,0.4,0.6
2024-07-07T1800,1592A,109.9486,39.8261,鄂尔多斯市,巴音孟克林场办事处,,47,22,44,3,18,149,,135,135,7,25,6,8,0.5,0.7
2024-07-07T1800,1593A,109.7736,39.5986,鄂尔多斯市,康泽苑,,49,31,36,12,18,156,,143,143,6,16,9,11,0.4,0.5
2024-07-07T1800,1594A,109.8119,39.5989,鄂尔多斯市,华泰汽车城,,44,22,33,12,19,139,,125,125,5,18,8,9,0.3,0.4
2024-07-07T1800,1595A,109.9734,39.7884,鄂尔多斯市,奥林花园,,47,19,39,14,19,148,,134,134,8,25,6,7,0.5,0.6
2024-07-07T1800,2436A,114.8938,30.3994,鄂州市,市政府,,29,9,21,3,7,92,,85,85,4,6,6,6,0.4,0.2
2024-07-07T1800,2437A,114.8989,30.3714,鄂州市,赵家坝,,28,10,21,3,7,87,,84,84,4,6,7,7,0.5,0.5
2024-07-07T1800,3654A,114.8094,30.4089,鄂州市,精准医疗中心,,29,11,29,3,11,90,,83,83,1,9,6,6,0.4,0.4
2024-07-07T1800,2454A,109.4978,30.2981,恩施土家族苗族自治州,湖北民院,,22,16,23,3,10,69,,47,47,9,10,6,6,0.7,0.7
2024-07-07T1800,2455A,109.4707,30.2798,恩施土家族苗族自治州,州电力总公司,,30,,25,21,12,64,,43,43,34,29,8,8,0.6,0.7
2024-07-07T1800,3549A,109.5061,30.3772,恩施土家族苗族自治州,龙凤新区,,22,,19,15,10,43,,35,35,9,12,7,6,0.6,0.7
2024-07-07T1800,2499A,108.3411,21.6158,防城港市,沙万,,17,17,15,8,5,46,,46,46,4,7,8,10,0.5,0.5
2024-07-07T1800,2500A,108.3514,21.7731,防城港市,防城档案局,,15,15,15,8,6,47,,48,48,4,6,5,5,0.4,0.4
2024-07-07T1800,2501A,108.3506,21.6414,防城港市,大海花园,,19,19,15,7,4,47,,47,47,5,9,5,6,0.5,0.5
2024-07-07T1800,1371A,113.1294,23.0067,佛山市,湾梁,,28,14,13,10,10,89,,93,93,12,15,6,6,0.5,0.5
2024-07-07T1800,1372A,113.1083,23.0478,佛山市,华材职中,,29,14,11,6,7,90,,93,93,12,15,3,3,0.4,0.4
2024-07-07T1800,1373A,113.144,23.0453,佛山市,南海气象局,,29,25,18,12,9,91,,91,91,9,12,8,7,0.4,0.4
2024-07-07T1800,1374A,113.2881,22.8094,佛山市,顺德苏岗,,20,6,7,3,5,64,,69,69,3,9,6,6,0.3,0.3
2024-07-07T1800,1376A,112.8383,22.8678,佛山市,高明孔堂,,20,11,17,7,7,63,,64,64,5,10,6,7,0.5,0.6
2024-07-07T1800,1377A,112.8836,23.1588,佛山市,三水监测站,,21,12,18,3,11,66,,86,86,19,25,4,5,0.3,0.3
2024-07-07T1800,1378A,112.867,23.185,佛山市,三水云东海,,23,9,19,6,10,71,,88,88,16,22,4,6,0.2,0.3
2024-07-07T1800,3625A,113.2544,22.7642,佛山市,容桂街道办,,20,7,8,3,7,62,,65,65,11,14,6,6,0.4,0.4
2024-07-07T1800,1280A,119.3903,26.0543,福州市,鼓山,,,,,,,,,,,,,,,,
2024-07-07T1800,1282A,119.2681,26.0504,福州市,师大,,45,45,22,3,7,86,,74,74,7,7,4,4,0.4,0.4
2024-07-07T1800,1283A,119.2984,26.1028,福州市,五四北路,颗粒物(PM10),59,68,21,6,6,95,,84,84,7,7,4,4,0.3,0.3
2024-07-07T1800,1284A,119.2648,26.0768,福州市,杨桥西路,颗粒物(PM10),53,55,24,12,6,92,,79,79,7,7,4,3,0.5,0.5
2024-07-07T1800,1285A,119.317,26.0746,福州市,紫阳,,44,44,22,3,5,84,,77,77,8,9,3,3,0.4,0.4
2024-07-07T1800,3048A,119.5799,26.0936,福州市,九龙,,26,26,20,3,2,71,,91,91,2,4,4,5,0.2,0.2
2024-07-07T1800,3526A,119.5189,25.9664,福州市,吴航,,23,17,18,3,7,72,,89,89,1,3,5,5,0.4,0.3
2024-07-07T1800,1755A,123.7977,41.8491,抚顺市,望花区,,36,9,19,7,12,115,,114,114,9,15,4,3,0.4,0.5
2024-07-07T1800,1756A,123.9161,41.8822,抚顺市,顺城区,,32,32,25,22,17,96,,102,102,16,17,4,4,0.4,0.5
2024-07-07T1800,1757A,124.0436,41.8611,抚顺市,东洲区,,39,29,27,27,22,99,,97,97,11,14,8,6,0.5,0.7
2024-07-07T1800,1758A,123.9247,41.8642,抚顺市,新抚区,,32,32,25,19,16,87,,86,86,8,13,2,3,0.5,0.7
2024-07-07T1800,1759A,124.0972,41.8961,抚顺市,大伙房水库,,45,,27,31,20,88,,83,83,6,10,7,7,0.7,0.8
2024-07-07T1800,1760A,123.7086,41.8391,抚顺市,沈抚新城,,35,,21,24,17,104,,110,110,11,14,4,4,0.4,0.5
2024-07-07T1800,2376A,116.2127,28.0814,抚州市,桐源党溪,,19,19,19,3,9,54,,60,59,6,4,5,5,0.2,0.3
2024-07-07T1800,2377A,116.3544,27.9831,抚州市,市站,,19,19,20,9,9,57,,60,59,2,4,3,4,0.6,0.6
2024-07-07T1800,2378A,116.3565,27.963,抚州市,血防站,,18,18,22,8,9,52,,52,52,3,6,4,6,1.0,1.1
2024-07-07T1800,2379A,116.3564,28.0007,抚州市,采茶剧团,,18,18,18,3,8,53,,56,55,2,4,3,4,0.6,0.6
2024-07-07T1800,2380A,116.385,27.9647,抚州市,医学分院,,19,12,22,7,9,59,,61,61,3,7,4,5,0.5,0.7
2024-07-07T1800,2207A,121.6094,41.998,阜新市,工业园区,,33,33,26,19,16,96,,121,119,18,17,4,4,0.7,0.7
2024-07-07T1800,2208A,121.6697,42.0279,阜新市,长青街,,32,32,27,15,16,98,,112,110,11,11,4,4,0.6,0.7
2024-07-07T1800,2209A,121.6673,42.0705,阜新市,农业园区,,37,37,26,22,16,76,,106,101,13,11,4,4,0.7,0.8
2024-07-07T1800,2210A,121.6717,42.0224,阜新市,东苑,,31,30,26,18,17,98,,114,112,11,12,4,6,0.6,0.8
2024-07-07T1800,2211A,121.6506,42.0498,阜新市,玉龙新城,,47,47,29,23,15,83,,114,109,18,16,2,2,0.5,0.6
2024-07-07T1800,2301A,115.8277,32.8929,阜阳市,市监测站,,31,20,27,8,13,97,,96,96,7,8,4,5,0.4,0.4
2024-07-07T1800,2303A,115.8554,32.8605,阜阳市,开发区,,32,15,23,3,8,102,,98,98,7,9,5,5,0.2,0.2
2024-07-07T1800,2875A,115.784,32.8892,阜阳市,阜阳职业技术学院,,31,8,23,7,8,99,,101,101,7,8,6,6,0.1,0.1
2024-07-07T1800,3468A,115.7901,32.8613,阜阳市,市规划展馆,,27,21,27,9,13,86,,85,85,5,8,2,2,0.4,0.4
2024-07-07T1800,3469A,115.836,32.9183,阜阳市,枣园社区,,31,18,28,13,14,97,,96,96,8,10,1,1,0.3,0.4
2024-07-07T1800,2669A,102.9099,34.9841,甘南藏族自治州,州政府,,23,21,32,11,16,73,,98,84,9,7,8,7,0.4,0.3
2024-07-07T1800,3380A,102.8914,34.9617,甘南藏族自治州,甘肃民族师范学院,,21,14,23,10,12,67,,89,78,7,6,4,3,0.7,0.7
2024-07-07T1800,2570A,101.9603,30.0475,甘孜藏族自治州,水桥子,,20,,13,9,6,64,,55,55,2,13,4,4,0.3,0.3
2024-07-07T1800,3065A,101.9533,29.9972,甘孜藏族自治州,州环保局,,19,14,22,3,6,58,,52,52,8,16,2,2,0.2,0.2
2024-07-07T1800,3414A,115.8347,28.932,赣江新区,桑海产业园,,23,19,23,3,10,73,,96,96,11,18,9,12,0.2,0.3
2024-07-07T1800,2362A,114.9017,25.9149,赣州市,通天岩,,,,,,,,,,,,,,,,
2024-07-07T1800,2363A,114.9367,25.8664,赣州市,地委,,22,12,12,7,6,68,,60,60,4,3,11,8,0.6,0.6
2024-07-07T1800,2364A,114.9461,25.8481,赣州市,气象台,,21,11,11,8,6,65,,58,58,8,5,8,7,0.6,0.5
2024-07-07T1800,2365A,114.9322,25.8333,赣州市,市图书馆,,22,11,11,3,5,68,,62,62,5,4,6,17,0.8,1
2024-07-07T1800,2366A,114.8905,25.8471,赣州市,华坚鞋城,,20,13,14,3,6,62,,53,53,6,5,22,18,0.5,0.5
2024-07-07T1800,3109A,115.0093,25.8613,赣州市,赣县区卫计委,,21,18,15,3,6,65,,64,64,4,6,8,7,0.5,0.5
2024-07-07T1800,2683A,106.2319,36.1417,固原市,马园,,36,6,39,3,8,114,,119,108,10,17,5,5,0.8,0.8
2024-07-07T1800,2684A,106.2792,36.0022,固原市,监测站,,37,7,17,6,11,117,,116,116,9,10,6,6,0.2,0.2
2024-07-07T1800,2685A,106.2375,36.0211,固原市,新区,,29,9,16,3,10,91,,107,102,7,6,5,5,0.5,0.5
2024-07-07T1800,3522A,106.2177,35.9959,固原市,原州区十五小,,33,9,17,3,10,103,,110,107,9,8,6,6,0.4,0.6
2024-07-07T1800,2543A,106.6308,30.5278,广安市,小平旧居,,,,,,,,,,,,,,,,
2024-07-07T1800,2544A,106.6303,30.4576,广安市,市委,,30,30,31,15,15,77,,72,72,12,18,8,8,0.4,0.4
2024-07-07T1800,2545A,106.6271,30.4663,广安市,友谊中学,,27,22,22,15,14,84,,74,74,14,16,8,8,0.4,0.5
2024-07-07T1800,2547A,106.6388,30.4551,广安市,广电花园,,27,27,28,13,14,80,,69,69,11,18,7,7,0.5,0.5
2024-07-07T1800,2902A,106.6351,30.4865,广安市,北辰小学,,26,24,26,12,14,82,,74,74,10,13,9,8,0.3,0.3
2024-07-07T1800,2523A,105.8945,32.4535,广元市,黑石坡,,14,14,13,8,7,22,,33,22,7,8,14,14,0.3,0.3
2024-07-07T1800,2524A,105.821,32.4444,广元市,老城,,12,12,22,8,9,19,,29,15,24,26,6,6,0.6,0.5
2024-07-07T1800,2526A,105.8628,32.4287,广元市,监测站,,21,21,32,8,11,33,,38,34,15,15,6,7,0.4,0.4
2024-07-07T1800,3617A,105.8047,32.4166,广元市,经开区,,12,7,22,6,12,21,,30,24,23,18,4,4,0.6,0.6
2024-07-07T1800,1345A,113.2347,23.1423,广州市,广雅中学,,23,21,16,6,6,72,,76,76,17,15,4,4,0.6,0.5
2024-07-07T1800,1346A,113.2612,23.105,广州市,市五中,,26,14,14,9,7,83,,91,91,5,11,3,3,0.5,0.5
2024-07-07T1800,1348A,113.3478,23.0916,广州市,广东商学院,,23,13,14,8,6,71,,80,80,6,15,4,4,0.4,0.5
2024-07-07T1800,1349A,113.4332,23.1047,广州市,市八十六中,,16,15,19,3,6,49,,67,67,20,24,2,3,0.5,0.5
2024-07-07T1800,1350A,113.3505,22.9483,广州市,番禺中学,,23,17,15,10,6,71,,74,74,8,14,7,7,0.6,0.6
2024-07-07T1800,1351A,113.2146,23.3916,广州市,花都师范,,29,17,20,9,9,92,,98,98,10,18,5,7,0.4,0.4
2024-07-07T1800,1352A,113.2597,23.1331,广州市,市监测站,,26,26,16,11,7,78,,85,85,8,13,4,4,0.4,0.5
2024-07-07T1800,1353A,113.5618,23.312,广州市,九龙镇镇龙,,25,25,32,9,13,77,,94,94,14,26,7,7,0.4,0.5
2024-07-07T1800,1354A,113.2765,23.1544,广州市,麓湖,,25,15,16,9,7,77,,84,84,11,16,3,3,0.3,0.4
2024-07-07T1800,1355A,113.443,23.3035,广州市,帽峰山森林公园,,24,13,13,7,9,74,,84,84,8,20,5,5,0.4,0.5
2024-07-07T1800,2846A,113.3221,23.1322,广州市,体育西,,43,35,15,30,7,72,,81,81,10,16,4,4,0.5,0.5
2024-07-07T1800,3298A,113.5717,23.5491,广州市,从化街口,,37,15,21,8,10,118,,94,94,8,14,5,5,0.5,0.5
2024-07-07T1800,3299A,113.3472,23.3692,广州市,白云竹料,,27,27,24,10,9,81,,78,78,15,28,4,5,0.5,0.5
2024-07-07T1800,3300A,113.2981,23.237,广州市,白云嘉禾,,23,19,16,7,6,72,,80,80,15,22,5,5,0.6,0.6
2024-07-07T1800,3301A,113.4256,23.1716,广州市,黄埔科学城,,19,18,19,9,8,59,,73,73,11,22,6,8,0.5,0.6
2024-07-07T1800,3302A,113.3942,23.0483,广州市,番禺大学城,,18,17,17,3,5,56,,68,68,8,15,5,5,0.4,0.4
2024-07-07T1800,3303A,113.4922,22.8168,广州市,南沙黄阁,,15,9,17,8,5,45,,59,59,5,14,6,5,0.6,0.6
2024-07-07T1800,3304A,113.5342,22.7896,广州市,南沙街,,14,13,16,6,6,42,,58,58,7,15,4,5,0.5,0.6
2024-07-07T1800,3443A,113.2902,23.5544,广州市,花都梯面,,42,21,20,13,10,133,,104,104,12,21,4,5,0.6,0.6
2024-07-07T1800,3445A,113.7858,23.7478,广州市,从化良口,,29,10,13,7,8,92,,67,67,7,9,5,5,0.5,0.5
2024-07-07T1800,3446A,113.8051,23.2614,广州市,增城荔城,,30,24,24,10,11,96,,88,88,14,18,6,6,0.7,0.6
2024-07-07T1800,2505A,109.568,23.1478,贵港市,德智高中,,,,,,,,,,,,,,,,
2024-07-07T1800,2506A,109.6047,23.0666,贵港市,江南子站,,24,14,20,10,13,74,,67,67,5,8,7,7,0.5,0.5
2024-07-07T1800,2507A,109.6014,23.0948,贵港市,贵城子站,,22,14,27,7,17,69,,66,66,6,9,6,7,0.5,0.5
2024-07-07T1800,2508A,109.5669,23.1065,贵港市,荷城子站,,21,19,20,3,5,66,,68,68,5,5,10,10,0.4,0.4
2024-07-07T1800,3405A,109.5886,23.1172,贵港市,新世纪学校,,22,17,23,3,10,70,,68,68,5,7,6,7,0.5,0.6
2024-07-07T1800,1439A,106.6899,26.5998,贵阳市,马鞍山,,21,9,11,3,3,66,,66,66,4,4,5,5,0.1,0.2
2024-07-07T1800,1440A,106.6971,26.5694,贵阳市,市环保站,,29,29,23,12,13,58,,60,60,12,12,4,4,0.2,0.2
2024-07-07T1800,1441A,106.6243,26.6266,贵阳市,鉴湖路,,20,19,14,3,6,62,,58,58,4,4,1,3,0.4,0.3
2024-07-07T1800,1442A,106.7487,26.6343,贵阳市,燕子冲,,20,9,9,3,6,64,,64,64,5,5,6,7,0.5,0.5
2024-07-07T1800,1443A,106.6555,26.4365,贵阳市,碧云窝,,20,14,18,3,3,64,,64,64,4,5,6,6,0.5,0.5
2024-07-07T1800,1444A,106.694,26.5161,贵阳市,中院村,,20,17,18,3,5,61,,59,59,7,7,4,5,0.5,0.4
2024-07-07T1800,1445A,106.7109,26.6027,贵阳市,红边门,,20,14,19,12,14,62,,61,61,11,11,2,4,0.5,0.5
2024-07-07T1800,1446A,106.7164,26.5699,贵阳市,新华路,,,,10,,8,,,52,,,7,,6,,0.4
2024-07-07T1800,1447A,106.674,26.5424,贵阳市,太慈桥,,29,29,12,7,6,62,,60,60,6,5,7,7,0.3,0.3
2024-07-07T1800,1552A,106.805,26.3003,贵阳市,桐木岭,,,,,,,,,,,,,,,,
2024-07-07T1800,1862A,110.4144,25.3167,桂林市,电子科大尧山校区,,18,11,21,9,12,57,,56,56,3,6,4,4,0.3,0.3
2024-07-07T1800,1863A,110.2819,25.2697,桂林市,监测站,,18,18,22,8,9,55,,53,53,4,9,6,6,0.4,0.5
2024-07-07T1800,1864A,110.3089,25.2708,桂林市,龙隐路小学,,22,22,21,11,12,54,,56,55,5,9,6,5,0.4,0.5
2024-07-07T1800,1865A,110.2869,25.2178,桂林市,八中,,17,15,21,6,9,52,,52,52,4,10,6,6,0.4,0.6
2024-07-07T1800,3403A,110.1764,25.2381,桂林市,创业大厦,,19,6,16,3,9,58,,51,51,3,12,6,6,0.3,0.4
2024-07-07T1800,3531A,110.296,25.1253,桂林市,旅游学院,,18,,9,7,8,56,,57,57,2,8,5,6,0.4,0.4
2024-07-07T1800,2674A,100.2561,34.4714,果洛藏族自治州,玛沁县大武镇,,29,,20,20,8,74,,82,82,6,12,11,12,0.4,0.4
2024-07-07T1800,1129A,126.5422,45.755,哈尔滨市,岭北,细颗粒物(PM2.5),67,68,60,48,56,95,,105,105,16,30,3,5,1.4,1.2
2024-07-07T1800,1130A,126.561,45.8167,哈尔滨市,松北商大,颗粒物(PM10),67,83,84,43,36,77,,91,91,19,39,6,6,0.7,0.7
2024-07-07T1800,1131A,126.979,45.5419,哈尔滨市,阿城会宁,"颗粒物(PM10),细颗粒物(PM2.5)",79,108,76,58,49,122,,114,114,19,17,3,3,0.8,0.8
2024-07-07T1800,1132A,126.599,45.7222,哈尔滨市,南岗学府路,颗粒物(PM10),72,93,97,39,40,107,,125,125,18,22,10,10,0.7,0.7
2024-07-07T1800,1133A,126.689,45.7733,哈尔滨市,太平宏伟公园,颗粒物(PM10),70,89,96,36,38,104,,120,120,31,34,6,6,0.7,0.6
2024-07-07T1800,1134A,126.635,45.7667,哈尔滨市,道外承德广场,细颗粒物(PM2.5),79,90,97,58,35,102,,119,119,32,36,9,9,0.4,0.3
2024-07-07T1800,1135A,126.685,45.7319,哈尔滨市,香坊红旗大街,细颗粒物(PM2.5),64,61,75,46,53,125,,130,130,19,28,7,7,0.6,0.7
2024-07-07T1800,1136A,126.6411,45.7258,哈尔滨市,动力和平路,颗粒物(PM10),90,130,88,41,52,125,,133,133,18,25,5,7,0.5,0.5
2024-07-07T1800,1137A,126.593,45.7478,哈尔滨市,道里建国路,颗粒物(PM10),74,98,88,48,45,114,,126,126,19,31,6,7,1.1,1
2024-07-07T1800,1138A,126.615,45.61,哈尔滨市,平房东轻厂,颗粒物(PM10),85,119,91,44,37,122,,132,132,23,29,9,10,0.4,0.5
2024-07-07T1800,1139A,126.595,45.9855,哈尔滨市,呼兰师专,细颗粒物(PM2.5),92,97,87,68,45,75,,108,108,37,42,10,11,0.9,0.7
2024-07-07T1800,1140A,126.6206,45.6842,哈尔滨市,省农科院,细颗粒物(PM2.5),74,93,95,54,46,90,,109,109,48,29,8,5,0.6,0.8
2024-07-07T1800,2688A,93.5128,42.8172,哈密市,地区监测站,,46,46,113,19,33,122,,118,118,5,8,7,4,0.2,0.2
2024-07-07T1800,2689A,93.4961,42.8328,哈密市,哈密师范学校,,39,22,94,14,31,124,,121,121,2,9,4,4,0.2,0.3
2024-07-07T1800,2671A,100.9048,36.9639,海北藏族自治州,海晏县西海镇,,,29,81,28,29,118,,113,113,8,10,,14,0.7,0.5
2024-07-07T1800,3867A,102.0738,36.5056,海东市,平安区公安北苑,,,,54,28,29,,,128,128,6,19,4,14,0.6,1
2024-07-07T1800,1409A,110.576,19.9507,海口市,东寨港,,,,,,,,,,,,,,,,
2024-07-07T1800,1410A,110.3232,20.0574,海口市,海南大学,,14,14,11,3,4,42,,50,50,6,5,5,5,0.4,0.3
2024-07-07T1800,1411A,110.283,20.0053,海口市,秀英海南医院,,22,22,12,8,5,50,,54,54,10,8,6,6,0.2,0.2
2024-07-07T1800,1412A,110.338,19.9969,海口市,海南师范大学,,17,10,9,6,4,53,,53,53,8,4,7,6,0.3,0.3
2024-07-07T1800,1413A,110.33,20.0356,海口市,龙华路环保局宿舍,,16,16,12,6,5,44,,49,49,6,5,7,7,0.3,0.2
2024-07-07T1800,3539A,110.5111,19.9736,海口市,桂林洋子站,,14,7,11,3,6,43,,45,45,3,5,6,6,0.2,0.2
2024-07-07T1800,2673A,100.6188,36.2866,海南藏族自治州,共和县恰卜恰镇,,35,35,36,21,24,104,,110,110,8,9,3,6,0.6,0.6
2024-07-07T1800,2676A,97.3731,37.3753,海西蒙古族藏族自治州,德令哈市,,37,37,36,21,17,103,,95,95,11,8,6,7,0.5,0.5
2024-07-07T1800,1048A,114.5302,36.6116,邯郸市,东污水处理厂,颗粒物(PM10),51,52,50,17,26,130,,143,143,2,7,3,2,0.4,0.6
2024-07-07T1800,1049A,114.4918,36.5713,邯郸市,矿院,颗粒物(PM10),54,58,45,12,29,129,,155,155,7,11,4,4,0.5,0.8
2024-07-07T1800,1050A,114.484,36.6133,邯郸市,丛台公园,颗粒物(PM10),56,61,45,17,24,136,,135,135,2,10,6,6,0.4,0.7
2024-07-07T1800,3458A,114.7895,36.5593,邯郸市,香泉濮院小区,,27,27,35,13,20,80,,155,150,3,5,3,1,0.5,0.6
2024-07-07T1800,3579A,114.50634,36.77178,邯郸市,永年区实验高中,,49,45,64,23,37,154,,159,159,2,11,3,2,0.4,0.8
2024-07-07T1800,3580A,114.20016,36.44293,邯郸市,峰峰矿区临水派出所,,38,35,65,16,39,119,,170,170,2,9,2,5,0.3,1.3
2024-07-07T1800,2634A,106.9893,33.1842,汉中市,汉川机床厂子校,,19,19,18,8,8,31,,51,38,4,5,3,3,0.5,0.5
2024-07-07T1800,2635A,107.0154,33.0706,汉中市,市监测站,,17,17,23,7,9,43,,46,46,6,9,7,7,0.5,0.5
2024-07-07T1800,2636A,107.0089,33.1138,汉中市,鑫源开发区,,18,18,19,7,7,31,,38,36,6,10,8,8,0.5,0.5
2024-07-07T1800,2637A,107.007,33.0323,汉中市,南郑大河坎水厂,,19,14,24,13,12,34,,37,37,6,12,7,8,0.6,0.6
2024-07-07T1800,1223A,120.2072,30.2111,杭州市,滨江,,35,27,24,13,12,111,,95,95,7,13,3,3,0.6,0.6
2024-07-07T1800,1224A,120.0633,30.2747,杭州市,西溪,,26,24,15,18,12,78,,82,78,5,11,6,6,0.5,0.5
2024-07-07T1800,1226A,120.3461,30.3153,杭州市,下沙,,34,26,29,18,13,106,,101,100,6,11,6,5,0.2,0.3
2024-07-07T1800,1227A,120.1269,30.2456,杭州市,卧龙桥,,25,20,18,17,11,70,,87,83,9,11,5,5,0.6,0.7
2024-07-07T1800,1228A,120.1903,30.2692,杭州市,浙江农大,,45,45,40,12,13,101,,98,96,13,15,6,7,0.4,0.3
2024-07-07T1800,1230A,120.1197,30.3119,杭州市,和睦小学,,30,23,16,18,10,95,,86,85,9,13,5,6,0.4,0.4
2024-07-07T1800,1231A,120.3019,30.4183,杭州市,临平镇,,28,20,23,11,13,88,,106,103,6,11,5,5,0.4,0.4
2024-07-07T1800,1232A,120.2697,30.1819,杭州市,城厢镇,,37,26,26,20,15,117,,104,102,13,24,3,3,0.4,0.4
2024-07-07T1800,1233A,120.0883,30.1808,杭州市,云栖,,28,26,21,18,10,89,,96,94,5,13,8,7,0.4,0.5
2024-07-07T1800,3557A,119.9464,30.0494,杭州市,镇二中,,33,28,21,17,14,104,,97,97,7,20,7,7,0.5,0.5
2024-07-07T1800,3558A,119.7183,30.2367,杭州市,市府大楼,,22,18,16,8,10,69,,64,64,7,11,6,6,0.3,0.4
2024-07-07T1800,3656A,120.1556,30.2864,杭州市,消防大队,,35,24,18,15,12,109,,99,98,3,9,7,7,0.7,0.7
2024-07-07T1800,1270A,117.1959,31.7848,合肥市,明珠广场,,38,31,27,14,14,119,,116,116,7,9,7,7,0.2,0.2
2024-07-07T1800,1271A,117.3072,31.8764,合肥市,三里街,,34,19,23,14,12,108,,109,109,9,14,6,6,0.3,0.3
2024-07-07T1800,1272A,117.2588,31.8707,合肥市,琥珀山庄,,38,29,33,14,12,119,,123,123,6,7,5,6,0.4,0.4
2024-07-07T1800,1273A,117.1604,31.9052,合肥市,董铺水库,,33,31,28,19,13,104,,100,100,5,6,2,3,0.2,0.2
2024-07-07T1800,1274A,117.25,31.8571,合肥市,长江中路,,46,46,31,19,16,111,,116,116,8,7,6,6,0.4,0.4
2024-07-07T1800,1275A,117.266,31.9436,合肥市,庐阳区,,37,36,30,14,15,118,,122,122,8,8,6,5,0.3,0.3
2024-07-07T1800,1276A,117.336,31.8586,合肥市,瑶海区,,31,31,27,11,12,97,,99,99,6,9,9,9,0.1,0.1
2024-07-07T1800,1277A,117.3027,31.7964,合肥市,包河区,,35,27,20,7,8,110,,110,110,3,5,5,6,0.4,0.4
2024-07-07T1800,1278A,117.2776,31.7385,合肥市,滨湖新区,,33,24,21,12,10,104,,104,104,5,6,9,9,0.4,0.4
2024-07-07T1800,1279A,117.1318,31.8403,合肥市,高新区,,35,31,24,17,13,110,,104,104,5,7,8,8,0.4,0.4
2024-07-07T1800,3464A,117.3803,31.9147,合肥市,高教基地,,33,20,23,16,14,105,,108,108,4,6,7,7,0.3,0.3
2024-07-07T1800,3614A,79.924,37.0877,和田地区,地区环保局,颗粒物(PM10),71,91,178,16,40,142,,133,133,2,10,6,7,0.5,0.5
2024-07-07T1800,3615A,79.9131,37.113,和田地区,市环保局,颗粒物(PM10),75,99,178,43,52,136,,130,130,2,16,6,7,0.3,0.5
2024-07-07T1800,2516A,108.2011,24.715,河池市,东仁乐园,,26,26,24,6,10,62,,61,61,9,10,4,9,0.6,0.6
2024-07-07T1800,2517A,108.0497,24.6947,河池市,市环保站,,20,17,13,12,9,63,,61,61,5,6,7,8,0.4,0.4
2024-07-07T1800,2518A,108.0983,24.6989,河池市,市疾控中心,,20,10,18,8,11,61,,59,59,7,10,7,9,0.5,0.5
2024-07-07T1800,1696A,114.6778,23.7569,河源市,源西,细颗粒物(PM2.5),63,,17,45,19,55,,55,55,7,11,4,4,0.6,0.5
2024-07-07T1800,1697A,114.6944,23.7586,河源市,东埔,,17,,16,8,9,53,,54,54,6,8,6,6,0.5,0.5
2024-07-07T1800,1698A,114.6892,23.7233,河源市,老城,,18,16,19,3,8,56,,55,55,2,6,5,5,0.5,0.6
2024-07-07T1800,1718A,115.4208,35.2464,菏泽市,气象局,,30,15,30,9,14,95,,84,84,6,7,1,2,0.2,0.2
2024-07-07T1800,1719A,115.4747,35.2375,菏泽市,市政协,,31,16,24,16,18,99,,86,86,6,6,2,3,0.2,0.2
2024-07-07T1800,3374A,115.5564,35.0891,菏泽市,定陶老年大学,,35,14,23,3,6,111,,97,97,4,8,2,3,0.3,0.4
2024-07-07T1800,3647A,115.4702,35.2706,菏泽市,菏泽医专,,33,11,23,3,10,104,,93,93,6,6,3,2,0,0.1
2024-07-07T1800,2514A,111.5264,24.4172,贺州市,环保小区,,28,28,24,11,14,82,,76,76,7,14,7,8,0.6,0.6
2024-07-07T1800,2515A,111.5608,24.4078,贺州市,政协大楼,,25,20,30,9,15,77,,82,82,11,15,7,8,0.6,0.6
2024-07-07T1800,3534A,111.4744,24.4553,贺州市,西湾,,29,29,28,11,14,84,,77,77,7,17,7,10,0.6,1.2
2024-07-07T1800,2385A,114.17,35.9019,鹤壁市,市监测站,,33,,42,23,35,89,,139,137,5,10,8,5,0.6,0.9
2024-07-07T1800,2386A,114.2956,35.7511,鹤壁市,市交警支队,,30,26,47,17,28,95,,120,120,6,16,2,4,0.5,0.8
2024-07-07T1800,2387A,114.2878,35.7306,鹤壁市,迎宾馆,,35,,41,24,33,97,,127,127,9,18,4,5,0.4,0.6
2024-07-07T1800,3474A,114.2617,35.6822,鹤壁市,大新区,,,20,39,,17,95,,123,123,8,19,2,2,0.2,0.5
2024-07-07T1800,3596A,114.1572,35.9603,鹤壁市,南山宾馆,,27,15,43,15,42,86,,142,139,5,11,7,8,0.5,0.9
2024-07-07T1800,2244A,130.2537,47.3416,鹤岗市,哈啤分公司,细颗粒物(PM2.5),54,45,60,38,49,85,,98,98,5,10,14,14,0.5,0.7
2024-07-07T1800,2245A,130.2684,47.3086,鹤岗市,斯达机电,细颗粒物(PM2.5),53,44,64,37,48,89,,96,96,12,14,13,13,0.4,0.6
2024-07-07T1800,2246A,130.3114,47.3388,鹤岗市,东山纸板厂,细颗粒物(PM2.5),68,,61,49,58,72,,68,68,9,14,15,16,0.2,0.5
2024-07-07T1800,2247A,130.1097,47.3382,鹤岗市,五号水库,细颗粒物(PM2.5),82,,46,60,33,93,,92,92,5,6,10,10,0.0,0.5
2024-07-07T1800,2263A,127.4833,50.2524,黑河市,交通局,细颗粒物(PM2.5),105,107,117,79,81,106,,77,77,8,11,6,6,0.6,0.9
2024-07-07T1800,2264A,127.5144,50.2341,黑河市,环保局,细颗粒物(PM2.5),104,106,123,78,82,115,,79,79,9,11,4,6,0.6,0.9
2024-07-07T1800,2265A,127.5291,50.2472,黑河市,大黑河岛,细颗粒物(PM2.5),112,100,112,84,111,,,,,18,14,1,3,,
2024-07-07T1800,1074A,115.6838,37.7541,衡水市,电机北厂,,49,40,52,34,25,151,,152,152,7,7,2,4,0.4,0.4
2024-07-07T1800,1075A,115.6303,37.7316,衡水市,市监测站,,48,36,36,31,21,153,,154,154,8,10,6,6,0.6,0.7
2024-07-07T1800,3188A,115.6683,37.7217,衡水市,市城管局,臭氧1小时,58,34,36,22,24,166,,160,160,5,9,5,5,0.4,0.5
2024-07-07T1800,3459A,115.5989,37.5491,衡水市,地表水厂,臭氧1小时,77,36,51,13,18,181,,162,162,4,11,7,7,0.4,0.5
2024-07-07T1800,2456A,112.5003,26.9167,衡阳市,原169医院,,17,13,23,9,10,54,,73,69,3,14,6,14,0.6,0.7
2024-07-07T1800,2457A,112.6194,26.9258,衡阳市,衡阳化工总厂,,,23,26,,,70,,93,87,3,6,7,9,0.3,0.4
2024-07-07T1800,2458A,112.6211,26.8956,衡阳市,珠晖区环保局,,,17,24,,,73,,98,91,2,5,7,8,0.5,0.5
2024-07-07T1800,2459A,112.6197,26.8733,衡阳市,市委党校,,21,17,23,9,12,67,,95,88,4,7,8,9,0.4,0.5
2024-07-07T1800,2460A,112.6006,26.8919,衡阳市,市监测站,,23,15,27,3,16,72,,97,90,4,8,7,10,0.3,0.5
2024-07-07T1800,2461A,112.5664,26.9056,衡阳市,真空机电公司,,22,,35,13,16,68,,87,83,4,13,7,19,0.5,1.2
2024-07-07T1800,3399A,112.6703,26.882,衡阳市,师范学院,,21,11,22,8,12,66,,94,85,5,7,9,9,0.5,0.5
2024-07-07T1800,2608A,103.3772,23.3993,红河哈尼族彝族自治州,污水处理厂,,15,12,13,10,11,46,,46,46,4,5,4,4,0.4,0.4
2024-07-07T1800,2609A,103.3861,23.35,红河哈尼族彝族自治州,监测站,,16,6,11,3,8,49,,48,48,4,5,8,6,0.4,0.4
2024-07-07T1800,3038A,103.3758,23.368,红河哈尼族彝族自治州,州图书馆,,15,10,13,3,7,47,,46,46,3,4,2,2,0.4,0.4
2024-07-07T1800,1090A,111.6507,40.7517,呼和浩特市,呼市一监,,45,44,42,16,23,143,,136,136,15,20,10,10,0.5,0.5
2024-07-07T1800,1091A,111.6572,40.8033,呼和浩特市,小召,,40,36,44,19,22,128,,116,116,23,27,12,9,0.6,0.6
2024-07-07T1800,1094A,111.7516,40.8369,呼和浩特市,如意水处理厂,,47,30,37,13,18,149,,132,132,13,24,7,6,0.4,0.5
2024-07-07T1800,1095A,111.7276,40.8062,呼和浩特市,二十九中,,47,34,43,15,23,150,,133,133,16,24,6,5,0.5,0.6
2024-07-07T1800,1096A,111.5512,40.7866,呼和浩特市,工大金川校区,颗粒物(PM10),51,51,42,12,20,117,,123,123,24,27,11,8,0.5,0.5
2024-07-07T1800,1097A,111.717,40.7612,呼和浩特市,化肥厂生活区,,47,33,45,15,24,149,,133,133,15,24,10,10,0.5,0.6
2024-07-07T1800,3698A,111.5968,40.8178,呼和浩特市,红旗小学,,48,48,48,15,21,137,,131,131,23,36,11,5,0.4,0.5
2024-07-07T1800,3699A,111.6518,40.8389,呼和浩特市,海东办,颗粒物(PM10),51,51,46,21,24,139,,132,132,21,31,8,5,0.7,0.7
2024-07-07T1800,2192A,119.7594,49.2261,呼伦贝尔市,区环保局,细颗粒物(PM2.5),93,,69,69,46,118,,92,92,11,28,6,6,0.7,0.7
2024-07-07T1800,3061A,119.7512,49.1577,呼伦贝尔市,国华电力东,细颗粒物(PM2.5),74,,56,54,40,122,,100,100,7,18,3,3,0.6,0.5
2024-07-07T1800,1250A,120.0751,30.8669,湖州市,城西水厂,,25,17,23,8,11,77,,102,102,9,26,3,4,0.4,0.4
2024-07-07T1800,2873A,120.0875,30.8955,湖州市,仁皇山新区,,26,18,22,9,11,82,,109,109,8,21,6,6,0.5,0.5
2024-07-07T1800,2907A,120.1844,30.8596,湖州市,吴兴区站,,25,14,22,10,12,79,,101,96,5,18,6,6,0.4,0.5
2024-07-07T1800,3562A,120.4148,30.8538,湖州市,南浔区站,,28,20,22,8,11,87,,98,96,4,12,3,3,0.4,0.4
2024-07-07T1800,1607A,120.9092,40.7136,葫芦岛市,龙港区,,38,28,38,12,21,121,,122,122,10,14,7,7,0.6,0.6
2024-07-07T1800,1608A,120.8392,40.7514,葫芦岛市,化工街,,39,39,27,19,16,114,,111,111,20,20,13,13,1.1,1
2024-07-07T1800,1609A,120.8341,40.7073,葫芦岛市,新区,,41,30,35,17,17,131,,127,127,12,16,4,3,0.7,0.7
2024-07-07T1800,1610A,120.8695,40.7677,葫芦岛市,东城区,细颗粒物(PM2.5),53,38,26,37,28,133,,133,133,14,9,22,10,0.9,0.8
2024-07-07T1800,2482A,109.5981,27.5721,怀化市,林科所,,23,8,12,3,4,71,,75,71,4,3,5,6,0.6,0.7
2024-07-07T1800,2483A,109.9453,27.5444,怀化市,河西地税局,,19,8,13,7,7,58,,60,58,2,3,4,4,0.5,0.5
2024-07-07T1800,2484A,109.9781,27.5342,怀化市,市四医院,,18,18,16,10,8,54,,57,56,3,4,2,3,0.4,0.5
2024-07-07T1800,2485A,109.9972,27.5578,怀化市,监测楼,,17,11,15,6,7,52,,55,53,2,4,7,7,0.4,0.5
2024-07-07T1800,2486A,110.0394,27.583,怀化市,市委党校,,16,16,11,3,6,48,,51,49,2,3,5,5,0.4,0.4
2024-07-07T1800,1210A,119.036,33.5981,淮安市,钵池山,,40,29,26,17,17,125,,121,121,9,11,8,8,0.5,0.5
2024-07-07T1800,1211A,119.007,33.575,淮安市,北京南路,,39,39,30,16,15,111,,110,110,11,14,6,7,0.6,0.6
2024-07-07T1800,1212A,118.989,33.6067,淮安市,市监测站,颗粒物(PM10),51,51,33,19,18,112,,114,114,15,13,7,6,0.7,0.7
2024-07-07T1800,1213A,119.135,33.5039,淮安市,楚州区监测站,,36,34,33,14,17,113,,114,114,12,16,5,5,0.5,0.4
2024-07-07T1800,1214A,119.0186,33.6297,淮安市,淮阴区监测站,,36,36,32,17,18,108,,114,114,13,16,7,8,0.4,0.9
2024-07-07T1800,3426A,118.8755,33.2894,淮安市,新华书店,,35,18,23,13,16,112,,110,110,12,15,6,6,0.5,0.5
2024-07-07T1800,2282A,116.8004,33.975,淮北市,监测站,,28,26,24,12,15,87,,98,98,7,7,5,5,0.5,0.5
2024-07-07T1800,2283A,116.8091,33.9007,淮北市,烈山区政府,,29,29,29,12,17,80,,84,84,10,8,7,6,0.5,0.6
2024-07-07T1800,3330A,116.8873,33.9836,淮北市,杜集区检察院,,28,26,34,15,18,87,,106,105,7,5,5,5,0.5,0.6
2024-07-07T1800,4017A,116.7923,33.9535,淮北市,市博物馆,,36,36,26,15,17,98,,106,106,6,6,4,3,0.6,0.6
2024-07-07T1800,2277A,116.8305,32.7727,淮南市,潘集区政府,,28,23,30,11,16,87,,87,87,2,8,3,4,0.2,0.2
2024-07-07T1800,2278A,117.0067,32.6524,淮南市,师范学院,,40,29,30,28,23,118,,102,102,5,4,7,7,0.0,0
2024-07-07T1800,2279A,116.8569,32.5951,淮南市,谢家集区政府,,29,6,20,3,6,91,,90,90,1,4,5,5,0.1,0.1
2024-07-07T1800,2280A,116.8281,32.633,淮南市,八公山区政府,,28,18,30,3,14,87,,90,90,2,4,7,6,0.1,0.2
2024-07-07T1800,2281A,116.6325,32.6201,淮南市,焦岗湖风景区管理处,,16,9,14,3,6,51,,46,46,4,6,4,4,0.1,0.2
2024-07-07T1800,2894A,117.0566,32.6531,淮南市,经济技术开发区消防队,,36,22,21,11,8,115,,102,102,2,4,4,4,0.3,0.3
2024-07-07T1800,3329A,117.0108,32.5893,淮南市,山南新区,,38,28,32,8,6,121,,105,105,3,6,2,2,0.3,0.3
2024-07-07T1800,2446A,114.9028,30.4742,黄冈市,职工中心,,27,26,32,11,17,85,,78,78,7,18,7,11,0.5,0.4
2024-07-07T1800,2929A,114.8858,30.4519,黄冈市,红卫路,,29,22,29,10,16,90,,83,83,8,17,7,9,0.3,0.4
2024-07-07T1800,3398A,114.9136,30.4445,黄冈市,市林业局,,,37,30,11,15,89,,91,90,10,15,,10,0.2,0.4
2024-07-07T1800,2672A,102.0199,35.5102,黄南藏族自治州,同仁县隆务镇,,43,43,45,26,22,91,,99,99,14,5,4,8,0.4,0.3
2024-07-07T1800,2295A,118.2903,29.6963,黄山市,延安路89号,,22,20,24,3,8,70,,72,72,2,5,6,6,0.4,0.4
2024-07-07T1800,2296A,118.327,29.7178,黄山市,黄山东路89号,,22,13,20,9,5,68,,71,71,4,5,6,6,0.3,0.3
2024-07-07T1800,2297A,118.1371,30.2756,黄山市,黄山区政府5号楼,,25,18,20,8,10,80,,76,76,4,5,6,6,0.2,0.3
2024-07-07T1800,2423A,115.0601,30.2313,黄石市,沈家营,,34,34,26,3,8,79,,77,76,18,13,5,6,0.3,0.3
2024-07-07T1800,2424A,115.0817,30.2006,黄石市,陈家湾,,30,26,24,6,8,96,,88,82,3,4,7,5,0.3,0.3
2024-07-07T1800,2426A,114.8988,30.2019,黄石市,铁山,,29,9,28,3,9,92,,89,89,1,16,14,14,0.4,0.4
2024-07-07T1800,2427A,115.0307,30.2092,黄石市,团城山,,30,20,24,3,8,93,,87,86,2,3,6,7,0.3,0.4
2024-07-07T1800,3149A,115.0235,30.1578,黄石市,笔架山北路,,25,9,32,3,6,80,,81,79,2,6,7,7,0.5,0.5
2024-07-07T1800,1392A,114.4183,23.0528,惠州市,河南岸金山湖子站,,18,11,15,6,6,56,,59,59,2,5,4,5,0.3,0.4
2024-07-07T1800,1393A,114.4053,23.0822,惠州市,下埔横江三路子站,,19,15,18,3,5,60,,65,65,4,6,7,7,0.4,0.4
2024-07-07T1800,1394A,114.4103,23.1142,惠州市,江北云山西路子站,,20,9,14,3,6,62,,65,65,1,5,3,3,0.4,0.4
2024-07-07T1800,1395A,114.4645,22.7833,惠州市,惠阳区承修路船湖子站,,16,12,12,7,6,51,,47,47,8,10,1,1,0.5,0.5
2024-07-07T1800,1396A,114.5317,22.7422,惠州市,大亚湾管委会子站,,18,13,12,6,4,57,,52,52,7,9,5,5,0.4,0.4
2024-07-07T1800,3314A,114.4338,22.8134,惠州市,惠阳秋长,,20,12,11,3,6,61,,56,56,2,6,4,4,0.4,0.4
2024-07-07T1800,3452A,114.6517,22.775,惠州市,大亚湾霞涌,,17,14,10,6,5,52,,46,46,3,5,3,3,0.4,0.4
2024-07-07T1800,2240A,130.9762,45.3001,鸡西市,环保局,,32,32,59,18,40,65,,65,65,12,16,8,9,0.4,0.6
2024-07-07T1800,2243A,130.9429,45.3039,鸡西市,第一中学,,44,44,66,14,33,61,,77,77,13,14,8,8,0.5,0.6
2024-07-07T1800,3707A,131.0207,45.3073,鸡西市,欧美日汽修厂,,27,27,60,11,38,71,,73,73,5,12,4,5,0.4,0.6
2024-07-07T1800,3709A,130.9967,45.3106,鸡西市,市政设施管理处,,26,26,64,11,35,62,,67,67,13,18,8,8,0.4,0.5
2024-07-07T1800,2367A,114.9754,27.0803,吉安市,红声器材厂,,22,22,24,3,11,69,,69,69,6,8,12,14,0.4,0.5
2024-07-07T1800,2368A,114.9658,27.0999,吉安市,市森林工业局,,20,18,24,3,11,64,,68,68,11,10,10,13,0.3,0.4
2024-07-07T1800,2369A,114.99,27.1312,吉安市,市环境监测站,,24,20,21,6,9,75,,74,74,10,10,12,13,0.3,0.6
2024-07-07T1800,2370A,115.0093,27.0968,吉安市,青原区法院,,22,18,18,3,9,68,,66,66,8,9,12,15,0.5,0.5
2024-07-07T1800,1772A,126.54,43.8622,吉林市,哈达湾,细颗粒物(PM2.5),53,43,26,37,19,80,,97,96,11,9,4,6,0.7,0.6
2024-07-07T1800,1773A,126.5844,43.8358,吉林市,东局子,,50,45,26,35,18,79,,96,95,17,13,4,5,0.8,0.7
2024-07-07T1800,1774A,126.5052,43.8245,吉林市,电力学院,,43,32,22,30,18,65,,98,94,9,11,9,10,0.6,0.6
2024-07-07T1800,1775A,126.6133,43.8972,吉林市,江北,,48,48,26,32,17,60,,79,77,18,7,8,7,0.8,0.7
2024-07-07T1800,1776A,126.555,43.8306,吉林市,江南公园,细颗粒物(PM2.5),62,,22,44,20,75,,95,92,17,17,2,3,1.0,0.9
2024-07-07T1800,1778A,126.7061,43.7133,吉林市,丰满,,,,,,,,,,,,,,,,
2024-07-07T1800,2868A,126.4739,43.953,吉林市,九站,颗粒物(PM10),62,74,32,17,14,61,,88,86,15,8,5,14,0.6,0.6
2024-07-07T1800,1299A,116.9862,36.6114,济南市,科干所,,37,14,17,7,12,116,,100,100,10,11,7,7,0.4,0.5
2024-07-07T1800,1300A,116.9376,36.665,济南市,农科所,,38,17,26,3,8,119,,118,117,11,18,7,7,0.3,0.4
2024-07-07T1800,1301A,117.1265,36.6734,济南市,开发区,,39,15,21,10,9,124,,116,116,7,17,8,8,0.5,0.6
2024-07-07T1800,1303A,117.0624,36.6868,济南市,省种子仓库,,,,30,,12,,,114,114,,20,,6,,0.6
2024-07-07T1800,1304A,116.9489,36.6447,济南市,机床二厂,,43,15,26,3,7,135,,125,125,7,14,8,9,0.2,0.3
2024-07-07T1800,1305A,117.0495,36.663,济南市,市监测站,,37,15,24,7,14,118,,117,117,9,16,9,9,0.3,0.4
2024-07-07T1800,1306A,116.7675,36.5484,济南市,长清党校,,39,10,19,3,14,124,,107,107,4,7,8,8,0.5,0.5
2024-07-07T1800,1616A,117.6795,36.229,济南市,技术学院,,35,17,21,7,14,112,,94,94,15,19,8,9,0.7,0.9
2024-07-07T1800,1961A,117.532,36.6868,济南市,东山小学,,37,15,31,3,12,117,,112,112,12,24,5,5,0.5,0.6
2024-07-07T1800,3059A,117.7161,36.2049,济南市,泰兴公司,,35,12,28,7,15,112,,92,92,12,24,8,10,0.4,0.7
2024-07-07T1800,3064A,117.6867,36.2171,济南市,莱芜战役纪念馆,,30,14,31,3,12,96,,82,82,11,19,7,9,0.5,0.8
2024-07-07T1800,3494A,117.1673,36.9782,济南市,济阳区政府,,32,32,36,7,14,101,,137,133,15,18,5,6,0.4,0.4
2024-07-07T1800,3495A,117.1171,36.63,济南市,锦屏中学,,41,10,17,3,11,130,,113,113,10,11,8,9,0.2,0.3
2024-07-07T1800,3682A,116.9814,36.6819,济南市,济南四建,,37,,22,15,14,117,,109,109,7,16,7,7,0.5,0.6
2024-07-07T1800,1653A,116.6251,35.4302,济宁市,火炬城,,30,11,28,9,15,96,,82,82,7,11,9,9,0.6,0.7
2024-07-07T1800,1655A,116.5491,35.4042,济宁市,电化厂,,31,16,23,9,15,99,,84,84,7,8,5,5,0.5,0.6
2024-07-07T1800,3500A,116.5814,35.3707,济宁市,北湖一中,,32,9,26,3,8,100,,81,81,7,9,6,7,0.6,0.6
2024-07-07T1800,3501A,116.8249,35.5593,济宁市,服务中心,,33,7,25,3,13,104,,101,101,8,14,2,2,0.4,0.5
2024-07-07T1800,3678A,116.5907,35.4054,济宁市,市第七中学,,31,6,23,3,11,97,,78,78,12,16,4,4,0.5,0.6
2024-07-07T1800,2255A,130.2751,46.8028,佳木斯市,佳纺,细颗粒物(PM2.5),77,81,87,56,58,102,,90,90,13,23,10,9,0.8,0.8
2024-07-07T1800,2256A,130.3995,46.8307,佳木斯市,发电厂,细颗粒物(PM2.5),72,,68,52,54,78,,91,90,21,14,5,5,0.8,0.8
2024-07-07T1800,2257A,130.3258,46.7975,佳木斯市,环保局,细颗粒物(PM2.5),68,80,91,49,64,86,,78,78,14,25,7,7,0.9,1
2024-07-07T1800,2258A,130.3648,46.8032,佳木斯市,十一中,细颗粒物(PM2.5),70,67,74,51,62,81,,88,88,25,21,7,8,0.8,0.8
2024-07-07T1800,2259A,130.3794,46.7588,佳木斯市,四丰,颗粒物(PM10),58,65,73,36,46,51,,56,56,9,13,1,1,1.0,1.1
2024-07-07T1800,1252A,120.7436,30.778,嘉兴市,清河小学,,44,29,37,12,16,139,,138,138,7,17,5,6,0.4,0.6
2024-07-07T1800,1253A,120.726,30.7478,嘉兴市,嘉兴学院,,36,23,38,11,18,113,,128,128,8,23,2,2,0.4,0.5
2024-07-07T1800,2872A,120.7846,30.7525,嘉兴市,南湖区残联,臭氧1小时,74,35,36,20,22,179,,154,154,9,18,5,5,0.5,0.5
2024-07-07T1800,3407A,120.6916,30.7739,嘉兴市,秀洲住建,,39,34,40,11,17,123,,135,135,8,29,3,4,0.5,0.4
2024-07-07T1800,1945A,98.2908,39.7711,嘉峪关市,气象局,颗粒物(PM10),500,1467,131,425,42,106,,121,121,9,11,5,10,0.3,0.4
2024-07-07T1800,2884A,98.2672,39.7978,嘉峪关市,酒钢宾馆,颗粒物(PM10),500,1448,148,400,43,111,,118,118,7,16,14,29,0,0.6
2024-07-07T1800,3248A,98.2643,39.7724,嘉峪关市,雄关区,颗粒物(PM10),500,1227,115,330,35,106,,114,114,11,15,9,10,0.3,0.5
2024-07-07T1800,1383A,113.1064,22.6058,江门市,北街,,18,13,13,7,5,56,,69,69,5,9,3,3,0.4,0.4
2024-07-07T1800,1384A,113.0731,22.5835,江门市,西区,,21,13,15,9,6,67,,70,70,7,8,6,5,0.4,0.3
2024-07-07T1800,1385A,113.0219,22.5311,江门市,圭峰西,,15,15,14,8,7,43,,62,62,8,9,4,4,0.6,0.6
2024-07-07T1800,1386A,113.0828,22.5947,江门市,东湖,,21,13,13,6,6,65,,70,70,6,9,6,5,0.4,0.4
2024-07-07T1800,3311A,113.1075,22.5647,江门市,江海富民,,21,15,23,9,11,65,,75,75,5,10,5,5,0.5,0.5
2024-07-07T1800,3449A,113.05,22.4667,江门市,新会银湖,,15,14,17,3,6,46,,60,60,8,12,4,3,0.5,0.5
2024-07-07T1800,1828A,113.227,35.2125,焦作市,市环保局,颗粒物(PM10),58,65,47,32,28,136,,137,137,7,9,3,2,0.5,0.6
2024-07-07T1800,1830A,113.1992,35.2590,焦作市,影视城,,,,,,,,,,,,,,,,
2024-07-07T1800,3169A,113.2725,35.2067,焦作市,太极体育中心,颗粒物(PM10),58,66,51,34,29,135,,136,136,7,12,3,3,0.4,0.5
2024-07-07T1800,3335A,113.3137,35.2641,焦作市,马村街道办,颗粒物(PM10),67,84,49,39,32,130,,141,141,15,12,3,4,0.6,0.8
2024-07-07T1800,3336A,113.2465,35.2373,焦作市,焦作技师学院,颗粒物(PM10),53,55,47,36,28,128,,126,126,6,9,3,3,0.6,0.7
2024-07-07T1800,3477A,113.1656,35.2539,焦作市,中站许衡医院,细颗粒物(PM2.5),72,54,35,52,28,106,,132,132,13,13,4,4,0.6,0.6
2024-07-07T1800,3981A,113.2449,35.1803,焦作市,原李万街道办,颗粒物(PM10),65,80,44,34,30,123,,120,120,8,10,6,7,0.5,0.6
2024-07-07T1800,1708A,116.3701,23.5345,揭阳市,新兴,,21,21,23,9,7,52,,60,60,8,8,3,4,0.5,0.6
2024-07-07T1800,1709A,116.3264,23.5443,揭阳市,西马,,22,22,19,11,6,58,,61,61,1,3,3,2,0.5,0.6
2024-07-07T1800,1710A,116.3611,23.5626,揭阳市,东兴,,20,19,28,6,6,61,,65,65,3,4,2,2,0.7,0.7
2024-07-07T1800,1711A,116.4151,23.5294,揭阳市,渔湖,,29,29,27,3,6,49,,54,54,9,11,2,3,0.6,0.6
2024-07-07T1800,3320A,116.403,23.5699,揭阳市,曲溪,,27,27,12,6,8,59,,65,65,7,7,4,3,0.5,0.5
2024-07-07T1800,1944A,102.1692,38.5167,金昌市,天庆家园,,37,23,20,14,15,118,,123,123,12,8,10,11,0.6,0.8
2024-07-07T1800,3170A,102.1864,38.5253,金昌市,市委党校,,38,33,35,18,18,119,,125,125,11,9,27,12,0.5,0.6
2024-07-07T1800,4022A,102.1647,38.5371,金昌市,金川区人防中心,,42,22,23,16,20,134,,138,138,9,8,11,10,0.7,0.6
2024-07-07T1800,1262A,119.647,29.077,金华市,十五中,,43,32,35,16,15,136,,159,159,12,19,2,3,0.5,0.5
2024-07-07T1800,1263A,119.686,29.1029,金华市,监测站,,43,29,33,16,17,136,,151,151,10,14,3,3,0.4,0.4
2024-07-07T1800,3659A,119.656,29.1131,金华市,气象局,,45,35,35,12,13,144,,152,152,9,22,7,7,0.7,0.5
2024-07-07T1800,1767A,121.1115,41.0879,锦州市,南山,,35,33,23,23,14,110,,120,120,10,8,4,6,0.6,0.7
2024-07-07T1800,1768A,121.0533,40.8434,锦州市,开发区,颗粒物(PM10),53,55,31,22,18,93,,128,127,44,19,8,12,0.7,0.9
2024-07-07T1800,1769A,121.1836,41.1119,锦州市,百股街道,,34,28,22,12,11,108,,121,121,15,10,8,9,0.7,0.8
2024-07-07T1800,1770A,121.1178,41.1222,锦州市,天安街道,,32,32,25,18,18,97,,108,107,16,12,6,7,0.7,0.8
2024-07-07T1800,1771A,121.1303,41.1386,锦州市,北湖公园,颗粒物(PM10),54,57,23,31,12,97,,105,105,6,4,4,6,0.6,0.7
2024-07-07T1800,2160A,112.85,35.5051,晋城市,自来水公司,颗粒物(PM10),57,63,46,34,27,137,,159,159,15,19,6,7,0.9,0.9
2024-07-07T1800,2161A,112.8318,35.4936,晋城市,白云商贸,,46,46,50,31,26,127,,158,156,16,18,6,7,0.9,0.9
2024-07-07T1800,2162A,112.8508,35.4887,晋城市,市环保局,颗粒物(PM10),76,101,51,34,28,123,,156,155,17,21,6,7,0.8,0.9
2024-07-07T1800,2163A,112.8676,35.4897,晋城市,技术学院,,,68,46,36,28,132,,166,165,14,20,5,6,,0.8
2024-07-07T1800,2165A,112.8453,35.546,晋城市,白马寺,,,,,,,,,,,,,,,,
2024-07-07T1800,3620A,112.8271,35.4828,晋城市,泽州一中,细颗粒物(PM2.5),52,36,38,36,24,132,,160,160,17,19,9,9,1.0,1
2024-07-07T1800,2171A,112.7532,37.6945,晋中市,锦纶小区,臭氧1小时,69,46,60,14,27,175,,152,152,10,30,12,10,0.5,0.6
2024-07-07T1800,2173A,112.7249,37.7067,晋中市,南都小区,臭氧1小时,72,51,57,24,30,177,,153,153,10,28,11,9,0.6,0.6
2024-07-07T1800,2174A,112.6991,37.6982,晋中市,榆次区政府,臭氧1小时,68,53,58,26,29,174,,151,151,11,31,11,10,0.5,0.5
2024-07-07T1800,2865A,112.7195,37.6828,晋中市,榆次三中,臭氧1小时,69,53,62,24,23,175,,155,155,11,31,11,9,0.7,0.7
2024-07-07T1800,2439A,112.2014,31.0481,荆门市,竹园小学,,31,29,24,14,10,99,,86,86,8,8,8,9,0.5,0.4
2024-07-07T1800,2440A,112.1969,30.9891,荆门市,掇刀,,40,40,27,12,12,99,,89,89,14,11,9,9,0.5,0.5
2024-07-07T1800,2441A,112.2213,31.0386,荆门市,石化一小,,34,27,23,18,8,107,,93,93,6,9,19,14,0.4,0.4
2024-07-07T1800,3012A,112.1849,31.0362,荆门市,西山林语,,32,28,21,12,11,102,,87,87,5,5,10,10,0.6,0.5
2024-07-07T1800,3547A,112.1632,31.0138,荆门市,龙泉中学南校,,31,22,21,12,10,99,,85,85,8,8,7,8,0.5,0.4
2024-07-07T1800,1844A,112.2494,30.3197,荆州市,市图书馆,,32,26,17,11,10,101,,88,88,8,7,7,7,0.5,0.5
2024-07-07T1800,1845A,112.2008,30.3544,荆州市,市委党校,,,18,15,14,13,104,,90,90,,10,6,6,0.5,0.4
2024-07-07T1800,3194A,112.2747,30.3122,荆州市,管委会,,34,23,16,21,10,106,,94,94,10,9,5,6,0.4,0.4
2024-07-07T1800,3548A,112.1655,30.3364,荆州市,学苑路,,31,26,19,17,14,97,,91,91,11,8,6,7,0.5,0.4
2024-07-07T1800,2342A,117.3102,29.3867,景德镇市,王港中学,,,,,,,,,,,,,,,,
2024-07-07T1800,2343A,117.2117,29.2933,景德镇市,老干部活动中心,,25,14,19,14,11,78,,74,74,6,10,6,9,0.3,0.3
2024-07-07T1800,2344A,117.1894,29.2789,景德镇市,兽医站,,27,16,21,10,10,84,,79,79,6,15,6,13,0.1,0.3
2024-07-07T1800,2345A,117.1547,29.2617,景德镇市,台达陶瓷,,31,31,23,20,15,52,,53,53,22,18,34,29,0.2,0.2
2024-07-07T1800,2346A,117.2461,29.2956,景德镇市,陶研所,,24,22,19,12,8,74,,73,73,3,6,4,4,0.3,0.3
2024-07-07T1800,1803A,115.9872,29.6815,九江市,十里,,35,22,22,11,14,111,,106,106,8,13,10,11,0.5,0.6
2024-07-07T1800,1804A,115.9584,29.7046,九江市,茅山头,,37,15,19,8,9,116,,117,117,8,9,14,13,0.5,0.4
2024-07-07T1800,1805A,115.9877,29.7295,九江市,西园,,38,14,19,8,11,121,,120,120,14,22,12,13,0.7,0.7
2024-07-07T1800,1806A,116.0172,29.6547,九江市,五七二七厂,,37,,16,15,12,118,,108,108,9,9,10,10,0.6,0.6
2024-07-07T1800,1808A,115.9114,29.6038,九江市,综合工业园,,41,,17,11,11,130,,128,128,5,10,7,13,0.7,0.7
2024-07-07T1800,1809A,116.0721,29.7535,九江市,石化总厂,,34,28,29,11,13,106,,111,111,13,14,11,13,0.6,0.6
2024-07-07T1800,1810A,115.9773,29.5698,九江市,庐山气象台,,36,20,16,13,13,115,,107,107,1,2,6,13,0.8,0.9
2024-07-07T1800,3190A,116.0254,29.6994,九江市,外国语学校,,40,28,25,13,12,128,,119,119,10,15,10,17,0.5,0.5
2024-07-07T1800,2658A,98.5061,39.7443,酒泉市,仓门街子站,颗粒物(PM10),500,1045,76,225,29,114,,121,121,6,6,5,14,0.2,0.2
2024-07-07T1800,2659A,98.4989,39.7256,酒泉市,油田生活基地,颗粒物(PM10),500,1025,77,214,24,115,,122,122,8,9,5,15,0.2,0.2
2024-07-07T1800,2698A,76.0072,39.4467,喀什地区,巡警大队,颗粒物(PM10),64,77,88,14,14,140,,128,128,9,18,3,3,0.2,0.3
2024-07-07T1800,2699A,75.9755,39.4694,喀什地区,吾办,颗粒物(PM10),57,64,85,18,27,137,,125,125,11,18,3,3,0.4,0.4
2024-07-07T1800,4027A,75.9483,39.4689,喀什地区,老干局,颗粒物(PM10),62,73,102,6,15,140,,130,130,10,18,4,4,0.3,0.4
2024-07-07T1800,1824A,114.3389,34.7781,开封市,肿瘤医院,,40,40,30,15,10,73,,81,81,6,6,3,3,0.5,0.5
2024-07-07T1800,1826A,114.2885,34.7965,开封市,世纪星幼儿园,,47,47,33,17,10,86,,98,98,9,4,3,3,0.4,0.4
2024-07-07T1800,3147A,114.3438,34.8106,开封市,龙亭公园,,43,43,27,17,10,70,,78,78,10,7,2,2,0.5,0.5
2024-07-07T1800,3210A,114.3644,34.7964,开封市,汴京公园,,45,45,29,3,10,78,,83,83,4,6,3,3,0.5,0.5
2024-07-07T1800,3473A,114.2485,34.8306,开封市,技师学院,颗粒物(PM10),54,58,30,15,10,82,,91,91,12,7,2,2,0.4,0.5
2024-07-07T1800,3592A,114.4644,34.7556,开封市,祥符区生态环境局,,23,,24,16,13,72,,83,83,17,14,2,2,0.5,0.5
2024-07-07T1800,1951A,84.895,45.6094,克拉玛依市,长征新村,,40,18,17,9,7,126,,122,122,3,8,9,10,0.1,0.2
2024-07-07T1800,1952A,84.8988,45.5893,克拉玛依市,南林小区,,41,11,14,11,12,131,,122,122,1,10,5,5,0.1,0.2
2024-07-07T1800,1954A,84.905,44.3396,克拉玛依市,独山子区,,45,15,18,3,6,143,,125,125,5,13,6,7,0.4,0.4
2024-07-07T1800,1955A,85.6979,46.098,克拉玛依市,乌尔禾区商贸楼,,49,49,18,10,7,120,,115,115,7,11,4,4,0.4,0.3
2024-07-07T1800,3612A,85.1045,45.6899,克拉玛依市,白碱滩区新站,,42,17,20,8,11,134,,121,121,3,7,6,6,0.2,0.2
2024-07-07T1800,2697A,76.1454,39.7142,克孜勒苏柯尔克孜自治州,市人民政府,颗粒物(PM10),52,54,68,20,21,142,,134,134,2,10,8,8,0.3,0.3
2024-07-07T1800,3665A,76.1658,39.7157,克孜勒苏柯尔克孜自治州,克州文化中心,颗粒物(PM10),55,60,64,24,25,145,,137,137,3,9,10,10,0.3,0.3
2024-07-07T1800,1450A,102.8204,24.8886,昆明市,呈贡新区,,18,11,15,3,7,55,,54,54,4,7,5,7,0.1,0.2
2024-07-07T1800,1451A,102.6251,24.9608,昆明市,西山森林公园,,,,,,,,,,,,,,,,
2024-07-07T1800,1452A,102.7252,25.0902,昆明市,龙泉镇,,18,9,13,6,6,57,,58,58,6,8,7,7,0.5,0.5
2024-07-07T1800,1453A,102.7266,25.0375,昆明市,东风东路,,16,10,10,3,6,50,,50,50,8,9,2,2,0.2,0.3
2024-07-07T1800,1454A,102.6742,25.0669,昆明市,金鼎山,,20,20,13,3,4,54,,54,54,7,9,8,7,0.3,0.3
2024-07-07T1800,1455A,102.6644,25.0401,昆明市,碧鸡广场,,,10,16,3,4,51,,52,52,,10,4,3,0.4,0.4
2024-07-07T1800,3179A,102.7494,25.0119,昆明市,官渡区博物馆,,18,8,11,8,6,56,,56,56,6,6,6,6,0.3,0.4
2024-07-07T1800,3375A,102.8017,24.8336,昆明市,青年创业园,,17,,12,6,6,54,,53,53,2,6,7,8,0.2,0.3
2024-07-07T1800,3550A,102.7997,24.9786,昆明市,昆明学院,,19,9,12,3,6,59,,58,58,6,7,4,4,0.3,0.4
2024-07-07T1800,3551A,102.5967,24.6736,昆明市,晋宁区生态环境分局,,16,9,12,3,6,50,,48,48,3,5,6,6,0.3,0.4
2024-07-07T1800,3552A,102.6678,24.9856,昆明市,云天化总部,,17,6,8,3,5,54,,53,53,4,4,1,2,0.3,0.4
2024-07-07T1800,1456A,91.1319,29.6514,拉萨市,八廓街,,28,6,9,3,6,88,,77,77,8,12,6,6,0.2,0.2
2024-07-07T1800,1457A,91.1221,29.6747,拉萨市,市环保局,,27,6,9,3,6,86,,73,73,9,13,9,8,0.2,0.3
2024-07-07T1800,1458A,91.0874,29.6475,拉萨市,区监测站,,26,6,7,3,6,81,,70,70,6,10,7,6,0.3,0.4
2024-07-07T1800,1459A,91.1774,29.6541,拉萨市,西藏大学,,28,,9,8,10,88,,73,73,5,9,8,8,0.1,0.1
2024-07-07T1800,1460A,90.9798,29.6588,拉萨市,区辐射站,,24,7,9,6,6,75,,67,67,10,10,7,7,0.2,0.2
2024-07-07T1800,1461A,91.0834,29.6292,拉萨市,拉萨火车站,,25,10,7,3,5,78,,69,69,7,8,8,8,0.1,0.1
2024-07-07T1800,2520A,109.2203,23.7256,来宾市,来宾技工学校,,24,24,23,14,11,60,,65,65,4,8,6,6,0.5,0.6
2024-07-07T1800,3535A,109.1781,23.7297,来宾市,兴宾区政府,,17,14,17,8,10,52,,65,65,9,9,4,4,0.5,0.5
2024-07-07T1800,4002A,109.2416,23.7461,来宾市,中南小学,,20,12,22,12,10,61,,67,67,6,10,6,6,0.5,0.6
2024-07-07T1800,1476A,103.631,36.1031,兰州市,兰炼宾馆,颗粒物(PM10),54,58,54,36,28,145,,138,138,12,10,10,9,0.3,0.3
2024-07-07T1800,1477A,104.1373,35.9454,兰州市,榆中兰大校区,,,,,,,,,,,,,,,,
2024-07-07T1800,1478A,103.8412,36.0726,兰州市,生物制品所,,43,43,50,25,30,123,,129,128,15,12,10,12,0.3,0.3
2024-07-07T1800,1479A,103.831,36.0464,兰州市,铁路设计院,,41,41,52,22,26,130,,130,130,18,18,5,8,0.4,0.4
2024-07-07T1800,3186A,103.7158,36.1058,兰州市,教育港,颗粒物(PM10),56,61,52,24,25,146,,142,142,14,8,11,10,0.4,0.3
2024-07-07T1800,3241A,103.7439,36.0842,兰州市,百合公园,,48,48,50,21,27,129,,130,130,15,11,7,8,0.6,0.6
2024-07-07T1800,3242A,103.9611,35.998,兰州市,和平,颗粒物(PM10),56,62,50,18,25,138,,135,135,8,12,6,8,0.5,0.5
2024-07-07T1800,3245A,103.6633,36.533,兰州新区,新区管委会,,42,28,40,16,21,134,,150,143,4,5,9,15,0.4,0.4
2024-07-07T1800,3246A,103.6975,36.4789,兰州新区,舟曲中学,,40,33,56,16,24,128,,142,138,7,7,5,10,0.4,0.4
2024-07-07T1800,1067A,116.6708,39.5111,廊坊市,药材公司,臭氧1小时,83,66,57,41,31,186,,173,173,7,21,3,2,0.6,0.6
2024-07-07T1800,1068A,116.7214,39.5589,廊坊市,开发区,臭氧1小时,90,104,61,53,32,192,,170,170,16,24,3,2,0.9,0.6
2024-07-07T1800,1070A,116.7244,39.5269,廊坊市,北华航天学院,颗粒物(PM10),71,91,70,51,30,168,,157,157,18,22,3,2,0.9,0.6
2024-07-07T1800,2919A,116.7022,39.5453,廊坊市,河北工业大学,臭氧1小时,93,96,67,52,30,194,,170,170,16,25,3,2,0.9,0.6
2024-07-07T1800,2535A,103.7723,29.5462,乐山市,花湖湾,,36,,41,25,33,106,,76,76,11,17,3,3,0.4,0.5
2024-07-07T1800,2536A,103.7627,29.5844,乐山市,牛耳桥,,36,26,42,19,33,114,,82,82,14,19,2,3,0.8,0.9
2024-07-07T1800,2537A,103.7508,29.6006,乐山市,市第三水厂,,38,25,42,24,32,120,,87,87,9,18,2,3,0.5,0.6
2024-07-07T1800,2538A,103.7571,29.5664,乐山市,市监测站,,37,30,39,23,32,116,,88,88,11,17,2,2,0.6,0.7
2024-07-07T1800,3361A,103.7311,29.5628,乐山市,理工大学,,40,28,36,19,28,125,,98,98,6,14,4,4,0.5,0.6
2024-07-07T1800,2598A,100.2143,26.8576,丽江市,西南郊,,,,,,,,,,,,,,,,
2024-07-07T1800,2599A,100.2497,26.8802,丽江市,丽江古城,,16,16,15,7,9,42,,39,39,8,9,6,6,0.6,0.6
2024-07-07T1800,2600A,100.2203,26.8906,丽江市,市中心,,15,11,14,6,8,45,,42,42,7,8,10,10,0.5,0.5
2024-07-07T1800,1267A,119.914,28.4514,丽水市,监测站大楼,,50,50,32,19,16,96,,104,102,6,8,3,3,0.4,0.5
2024-07-07T1800,1268A,119.93,28.4586,丽水市,莲都小学,,39,39,34,8,14,100,,108,108,6,9,4,4,0.5,0.5
2024-07-07T1800,1269A,119.879,28.4231,丽水市,余庄前,,37,37,31,12,18,87,,85,84,4,8,2,2,0.5,0.6
2024-07-07T1800,1173A,119.176,34.5885,连云港市,市环境监测站,,35,9,16,7,12,109,,82,82,11,12,4,4,0.3,0.3
2024-07-07T1800,3000A,119.3581,34.6972,连云港市,德源药业,,36,6,11,3,6,114,,97,97,7,12,3,3,0.3,0.4
2024-07-07T1800,3007A,119.178,34.844,连云港市,新城一中,,40,8,39,3,6,128,,121,121,12,10,3,3,0.5,0.7
2024-07-07T1800,3008A,119.3608,34.7519,连云港市,胡沟管理处,,25,6,11,3,5,78,,89,89,44,14,9,5,0.6,0.6
2024-07-07T1800,3009A,119.1478,34.5911,连云港市,矿山设计院,,35,7,16,3,8,109,,87,87,9,11,3,3,0.2,0.2
2024-07-07T1800,3434A,119.2413,34.6539,连云港市,工贸学校,,42,6,14,3,11,134,,104,104,3,6,6,6,0.6,0.7
2024-07-07T1800,3664A,119.4172,34.7341,连云港市,连云街道,,50,6,14,3,8,160,,113,113,2,11,1,1,0.6,0.7
2024-07-07T1800,2571A,102.3431,27.8099,凉山彝族自治州,青龙寺,,18,6,10,3,6,55,,58,58,2,4,2,2,0.4,0.4
2024-07-07T1800,2572A,102.2721,27.8415,凉山彝族自治州,邛海宾馆,,22,19,15,9,8,68,,59,59,5,8,13,10,0.6,0.6
2024-07-07T1800,2573A,102.2625,27.898,凉山彝族自治州,西昌市政府,,21,15,16,3,8,66,,59,59,6,9,11,12,0.7,0.7
2024-07-07T1800,2574A,102.2685,27.8851,凉山彝族自治州,凉山州政府,,22,19,20,9,9,68,,60,60,6,9,11,10,0.7,0.6
2024-07-07T1800,2575A,102.237,27.8914,凉山彝族自治州,长安,,27,27,22,11,10,75,,66,66,10,9,17,15,0.8,0.7
2024-07-07T1800,2212A,123.2,41.1953,辽阳市,宏伟区,,,,44,14,19,93,,103,102,8,15,8,9,1.1,1.5
2024-07-07T1800,2213A,123.1683,41.2495,辽阳市,新华园,,36,24,34,17,19,114,,121,120,5,12,6,8,0.6,1.2
2024-07-07T1800,2214A,123.2354,41.2639,辽阳市,滨河路,,34,19,26,13,18,108,,112,112,6,12,8,8,0.6,1
2024-07-07T1800,2215A,123.149,41.2991,辽阳市,铁西工业园,,33,14,40,13,16,103,,106,106,4,9,8,9,0.9,1.3
2024-07-07T1800,2227A,125.1358,42.8845,辽源市,环保局,,39,33,16,27,12,88,,99,97,8,7,7,14,0.8,0.7
2024-07-07T1800,3239A,125.0764,42.9078,辽源市,银鹰制药,,42,34,17,29,13,95,,101,99,7,5,7,5,1.0,0.9
2024-07-07T1800,1625A,115.9848,36.4372,聊城市,区政府,,39,14,29,3,14,123,,105,105,6,12,7,9,0.5,0.5
2024-07-07T1800,2878A,116.0072,36.4343,聊城市,聊大东校,,41,,19,12,20,129,,110,110,5,11,4,6,0.5,0.5
2024-07-07T1800,3200A,115.9819,36.4978,聊城市,监控中心,,35,14,25,14,14,112,,106,106,9,12,6,8,0.3,0.9
2024-07-07T1800,3513A,116.0445,36.4361,聊城市,九州社区,,33,19,32,3,14,104,,89,89,8,10,5,5,0.5,0.6
2024-07-07T1800,4018A,116.0567,36.4608,聊城市,星美广场,,37,18,36,11,14,118,,100,100,7,12,7,5,0.6,0.7
2024-07-07T1800,2632A,94.3681,29.6376,林芝市,林芝监测站,,13,6,5,3,4,41,,43,43,5,2,8,7,0.3,0.3
2024-07-07T1800,2633A,94.3616,29.6616,林芝市,林芝人民医院,,14,6,5,3,3,42,,45,45,6,5,9,9,0.1,0.1
2024-07-07T1800,2603A,100.0781,23.8982,临沧市,市环保局,,25,18,15,17,15,33,,38,38,9,8,4,4,0.4,0.4
2024-07-07T1800,2604A,100.0894,23.8822,临沧市,市气象局,,20,18,13,14,13,34,,41,41,11,8,4,4,0.4,0.4
2024-07-07T1800,1733A,111.5531,36.0783,临汾市,临钢医院,颗粒物(PM10),57,63,55,20,22,124,,142,142,15,16,10,9,1.5,0.9
2024-07-07T1800,1734A,111.5028,36.0714,临汾市,技工学校,颗粒物(PM10),55,59,55,31,28,129,,150,150,15,23,8,10,0.9,0.8
2024-07-07T1800,1736A,111.5018,36.0855,临汾市,市委,颗粒物(PM10),58,66,65,20,23,139,,157,157,13,20,10,10,1.1,1
2024-07-07T1800,3018A,111.505,36.1014,临汾市,唐尧大酒店,颗粒物(PM10),52,54,45,20,20,132,,149,149,14,21,7,7,0.9,1
2024-07-07T1800,3668A,111.5036,36.0414,临汾市,城南,颗粒物(PM10),66,82,87,39,57,120,,,,14,17,6,8,1.7,1.6
2024-07-07T1800,2667A,103.2069,35.5993,临夏回族自治州,环保局,,45,,24,31,26,102,,107,107,7,6,7,8,0.3,0.3
2024-07-07T1800,2668A,103.2417,35.6057,临夏回族自治州,建设大厦,,38,38,34,21,19,108,,108,108,7,10,11,12,0.3,0.3
2024-07-07T1800,1618A,118.3429,35.0532,临沂市,沂河小区,,30,9,11,7,8,93,,92,92,20,16,7,9,0.3,0.3
2024-07-07T1800,1619A,118.295,35.0583,临沂市,鲁南制药厂,,30,,3,6,8,94,,86,86,9,8,7,9,0.5,0.5
2024-07-07T1800,1620A,118.2794,34.9976,临沂市,新光毛纺厂,,32,,8,6,8,102,,90,90,12,12,3,6,0.6,0.6
2024-07-07T1800,1621A,118.3956,35.0888,临沂市,河东保险公司,,,,9,3,5,88,,80,80,12,9,4,5,,0.4
2024-07-07T1800,3370A,118.3564,35.0215,临沂市,十里堡居委,,32,,8,3,5,102,,91,91,12,9,8,8,0.5,0.4
2024-07-07T1800,3496A,118.3604,35.1084,临沂市,南坊新区,,30,6,10,3,4,93,,88,88,16,11,6,7,0.6,0.6
2024-07-07T1800,3860A,118.3920,35.0300,临沂市,皇山花园小区,,34,,4,3,8,107,,88,88,16,15,5,20,0.7,0.6
2024-07-07T1800,1870A,109.4856,24.3895,柳州市,柳东小学,,28,17,18,11,11,88,,72,72,5,10,7,7,0.5,0.5
2024-07-07T1800,1871A,109.4157,24.3277,柳州市,环保监测站,,27,15,22,6,14,84,,71,71,6,9,6,7,0.4,0.5
2024-07-07T1800,1872A,109.389,24.341,柳州市,河西水厂,,26,16,23,13,13,83,,71,71,3,10,7,7,0.3,0.5
2024-07-07T1800,1873A,109.4311,24.2921,柳州市,市四中,,32,32,24,14,14,92,,76,76,5,12,5,5,0.3,0.4
2024-07-07T1800,1874A,109.4006,24.3631,柳州市,市九中,,26,24,29,7,14,83,,73,73,8,12,4,5,0.4,0.5
2024-07-07T1800,1875A,109.4958,24.3134,柳州市,古亭山,,30,23,21,8,10,94,,76,76,6,13,6,6,0.4,0.4
2024-07-07T1800,3402A,109.5422,24.3996,柳州市,市二中,,30,24,26,8,10,94,,74,74,6,13,7,6,0.5,0.5
2024-07-07T1800,2307A,116.5079,31.737,六安市,监测大楼,,29,11,16,10,12,91,,87,84,8,7,5,6,0.3,0.3
2024-07-07T1800,2308A,116.4738,31.7643,六安市,皖西学院,,29,23,23,9,11,92,,90,85,2,3,4,4,0.2,0.3
2024-07-07T1800,2309A,116.4996,31.7905,六安市,朝阳厂,,29,15,13,9,12,90,,85,80,2,2,8,8,0.2,0.2
2024-07-07T1800,2310A,116.5567,31.7886,六安市,开发区,,29,13,29,3,19,92,,82,82,2,5,6,6,0.5,0.6
2024-07-07T1800,2576A,104.8,26.5892,六盘水市,窑上,,,,,,,,,,,,,,,,
2024-07-07T1800,2577A,104.83,26.5917,六盘水市,黄土坡,,28,13,13,3,6,89,,69,69,6,5,6,5,0.4,0.3
2024-07-07T1800,2578A,104.89,26.5939,六盘水市,水钢,,28,18,17,10,8,89,,69,69,4,4,12,9,0.3,0.3
2024-07-07T1800,2579A,104.8475,26.5894,六盘水市,民中,,27,12,13,9,6,85,,68,68,12,7,7,6,0.4,0.3
2024-07-07T1800,2580A,104.9544,26.5506,六盘水市,双水,,28,14,15,3,8,88,,73,73,4,4,6,6,0.2,0.2
2024-07-07T1800,2335A,117.0189,25.1181,龙岩市,龙岩师专,,,,,,,,,,,,,,,,
2024-07-07T1800,2336A,117.0217,25.1033,龙岩市,龙岩市监测站,,16,11,18,7,11,49,,54,54,11,10,7,7,0.3,0.4
2024-07-07T1800,2337A,117.0258,25.0661,龙岩市,闽西职业技术学院,,17,17,19,9,10,47,,54,54,11,8,14,11,0.4,0.4
2024-07-07T1800,2338A,117.0196,25.0306,龙岩市,龙岩学院,,19,6,13,3,8,58,,54,54,3,4,2,4,0.4,0.3
2024-07-07T1800,2665A,105.0822,33.3261,陇南市,汉王镇固水子,,,,,,,,,,,,,,,,
2024-07-07T1800,2885A,104.9339,33.3826,陇南市,滨江中学,,30,30,33,9,11,76,,70,68,5,11,3,3,0.7,0.7
2024-07-07T1800,3247A,104.955,33.371,陇南市,市总工会,,24,23,25,3,8,75,,75,73,7,8,6,6,0.2,0.3
2024-07-07T1800,2487A,111.9589,27.8901,娄底市,电视发射台,,30,30,26,8,11,67,,69,69,6,5,10,7,1.2,0.9
2024-07-07T1800,2488A,111.9975,27.725,娄底市,市监测站,,30,30,21,15,10,71,,71,71,3,3,6,7,0.4,0.4
2024-07-07T1800,2489A,112.0194,27.7314,娄底市,市委党校,,20,20,20,10,12,62,,63,63,3,5,8,7,0.6,0.6
2024-07-07T1800,2490A,111.9561,27.7569,娄底市,涟钢,颗粒物(PM10),60,70,60,27,25,44,,46,46,25,28,26,24,0.8,0.9
2024-07-07T1800,2491A,111.9892,27.7044,娄底市,市政府,,22,,13,7,11,69,,69,69,3,5,10,10,0.2,0.2
2024-07-07T1800,1893A,105.4324,28.9634,泸州市,九狮山,,36,22,17,17,16,115,,103,103,14,14,4,4,0.5,0.6
2024-07-07T1800,1894A,105.4427,28.9063,泸州市,小市上码头,,41,41,45,25,31,100,,100,100,9,11,6,6,0.3,0.4
2024-07-07T1800,1895A,105.4241,28.8573,泸州市,兰田宪桥,臭氧1小时,78,34,37,34,36,182,,152,152,9,14,5,5,0.4,0.5
2024-07-07T1800,1896A,105.4379,28.8833,泸州市,市环监站,,,44,42,25,29,,,168,168,9,11,6,5,0.5,0.6
2024-07-07T1800,3490A,105.3617,28.7703,泸州市,纳溪区环保局,,42,38,40,27,32,134,,130,130,6,16,2,2,0.4,0.5
2024-07-07T1800,2183A,111.1406,37.5211,吕梁市,环保局,,42,39,61,20,22,133,,147,147,24,34,4,2,0.6,0.5
2024-07-07T1800,2185A,111.1297,37.5136,吕梁市,自来水公司,,44,36,70,18,23,140,,144,144,20,31,3,3,0.5,0.4
2024-07-07T1800,2867A,111.1283,37.51,吕梁市,马茂庄小学,,43,43,63,20,22,128,,155,155,34,36,2,3,0.5,0.5
2024-07-07T1800,1812A,112.3931,34.6516,洛阳市,市委党校,,40,31,35,28,25,88,,120,118,13,10,1,2,0.9,0.9
2024-07-07T1800,1814A,112.4657,34.6871,洛阳市,豫西宾馆,,39,39,42,24,24,95,,133,131,18,17,3,3,0.7,0.6
2024-07-07T1800,1815A,112.494,34.6886,洛阳市,河南林校,,42,,28,29,23,57,,117,110,14,15,1,2,0.6,0.6
2024-07-07T1800,1816A,112.3844,34.623,洛阳市,开发区管委会,,42,36,32,29,23,87,,125,122,10,11,6,7,0.5,0.5
2024-07-07T1800,1817A,112.4267,34.6258,洛阳市,市委新办公区,臭氧1小时,154,35,31,29,24,307,,211,211,15,9,4,6,0.6,0.6
2024-07-07T1800,3340A,112.6005,34.6326,洛阳市,伊滨,细颗粒物(PM2.5),55,57,42,39,28,86,,123,121,16,13,4,4,0.7,0.6
2024-07-07T1800,3341A,112.4951,34.6332,洛阳市,中移产业园,,50,50,40,31,27,58,,111,106,10,12,6,6,0.8,0.7
2024-07-07T1800,3593A,112.5736,34.8993,洛阳市,吉利监测站,颗粒物(PM10),61,71,50,32,30,106,,134,134,8,17,1,3,0.6,0.8
2024-07-07T1800,3635A,112.3677,34.662,洛阳市,河科大西苑校区,,36,36,40,23,18,75,,123,119,10,12,4,6,0.7,0.7
2024-07-07T1800,3636A,112.4388,34.6781,洛阳市,英才小学,,37,37,36,22,25,74,,115,112,10,8,1,3,0.7,0.7
2024-07-07T1800,2399A,114.051,33.5699,漯河市,三五一五工厂,,29,29,20,14,15,81,,84,84,12,13,6,6,0.4,0.4
2024-07-07T1800,2400A,114.0055,33.5698,漯河市,漯河大学,,30,23,24,12,13,94,,90,90,8,8,8,7,0.5,0.5
2024-07-07T1800,2401A,114.0138,33.5828,漯河市,市水利局,,27,24,23,14,13,86,,87,87,7,8,7,7,0.2,0.2
2024-07-07T1800,2402A,114.0261,33.5698,漯河市,市广电局,,29,22,20,10,10,90,,90,90,5,8,4,3,0.5,0.6
2024-07-07T1800,3478A,113.9749,33.5664,漯河市,市图书馆,,27,20,23,11,16,86,,88,88,4,7,3,4,0.3,0.4
2024-07-07T1800,3479A,114.0967,33.5906,漯河市,召陵区卫健委,,29,,19,20,16,62,,85,84,17,10,4,4,0.5,0.1
2024-07-07T1800,1798A,118.5092,31.6837,马鞍山市,湖东路四小,,38,26,28,10,15,121,,123,123,6,12,8,8,0.5,0.6
2024-07-07T1800,1799A,118.5024,31.6449,马鞍山市,开发区,,37,27,30,13,14,117,,121,121,13,22,9,10,0.6,0.7
2024-07-07T1800,1800A,118.5228,31.7231,马鞍山市,慈湖,,38,28,25,14,14,119,,120,120,11,18,11,11,0.5,0.6
2024-07-07T1800,1802A,118.6245,31.7241,马鞍山市,濮塘,,41,22,26,13,15,129,,126,126,8,11,4,4,0.7,0.7
2024-07-07T1800,3633A,118.4918,31.6809,马鞍山市,雨山,,36,23,25,14,13,115,,116,116,6,15,7,7,0.5,0.6
2024-07-07T1800,1686A,111.0286,21.4688,茂名市,电白南海,,,,8,2,5,41,,40,40,3,3,4,5,0.4,0.4
2024-07-07T1800,1687A,110.9294,21.6533,茂名市,茂石化七小,,13,,9,9,9,38,,46,45,3,5,10,9,0.5,0.6
2024-07-07T1800,1688A,110.9107,21.6687,茂名市,健康路,,15,12,9,3,3,46,,50,49,7,8,9,9,0.4,0.4
2024-07-07T1800,1689A,110.8592,21.6828,茂名市,高岭,,36,36,28,12,10,39,,41,41,7,10,9,10,0.5,0.5
2024-07-07T1800,3450A,111.01,21.5165,茂名市,电白水东,,13,6,4,3,4,39,,40,40,10,5,3,3,0.6,0.6
2024-07-07T1800,2539A,104.0308,30.0478,眉山市,黑龙滩水库,,45,41,50,31,37,93,,63,63,6,11,7,7,0.5,0.5
2024-07-07T1800,2540A,103.8416,30.0874,眉山市,气象局,,45,,31,31,33,144,,104,104,14,19,7,7,0.6,0.5
2024-07-07T1800,3137A,103.8578,30.0744,眉山市,市委党校,颗粒物(PM10),52,53,45,31,28,141,,98,98,16,20,8,8,0.6,0.6
2024-07-07T1800,3148A,103.8291,30.0564,眉山市,区人社局,细颗粒物(PM2.5),55,,39,39,32,150,,106,106,23,24,10,9,0.5,0.5
2024-07-07T1800,1690A,116.1231,24.3284,梅州市,梅江月梅,,16,14,14,3,7,51,,59,59,3,3,9,9,0.4,0.4
2024-07-07T1800,1691A,116.0797,24.2719,梅州市,梅县新城,,17,16,16,3,10,52,,57,57,2,8,4,4,0.3,0.4
2024-07-07T1800,1692A,116.1248,24.2654,梅州市,环境监控中心,,18,18,18,7,7,45,,52,52,6,10,4,5,0.3,0.3
2024-07-07T1800,3315A,116.1233,24.2991,梅州市,梅龙,,17,7,12,3,5,53,,60,60,2,4,8,13,0.4,0.4
2024-07-07T1800,1878A,104.7778,31.4741,绵阳市,富乐山,,19,16,22,13,16,38,,55,38,4,8,8,8,0.4,0.5
2024-07-07T1800,1879A,104.7563,31.4535,绵阳市,市人大,,,15,24,13,13,37,,58,35,,14,9,8,,0.5
2024-07-07T1800,1880A,104.6697,31.4668,绵阳市,高新区自来水公司,,27,27,23,14,13,45,,55,42,7,12,6,5,0.5,0.6
2024-07-07T1800,1881A,104.7287,31.5075,绵阳市,三水厂,,16,16,21,10,14,39,,48,37,5,14,6,6,0.5,0.6
2024-07-07T1800,3491A,104.69,31.5322,绵阳市,西科大附属小学,,22,22,22,14,14,42,,49,40,4,11,5,5,0.5,0.6
2024-07-07T1800,3492A,104.5648,31.5343,绵阳市,安州区旅游局,,18,13,15,12,12,45,,58,46,7,10,10,9,0.3,0.3
2024-07-07T1800,1784A,129.61,44.561,牡丹江市,环保大楼,,38,38,34,24,22,83,,96,96,9,11,7,7,0.5,0.5
2024-07-07T1800,1785A,129.6115,44.5782,牡丹江市,文化广场,,42,35,37,29,36,72,,89,87,19,14,7,8,0.7,0.6
2024-07-07T1800,1786A,129.5904,44.5963,牡丹江市,第一医院,,39,,35,27,26,73,,84,84,10,12,4,5,0.5,0.6
2024-07-07T1800,1787A,129.6364,44.6075,牡丹江市,机车工厂,,48,,34,33,28,77,,84,84,6,11,4,4,0.5,0.5
2024-07-07T1800,1788A,129.6386,44.5462,牡丹江市,第一中学,,35,35,36,14,17,80,,91,91,10,14,4,4,0.4,0.5
2024-07-07T1800,2531A,105.0703,29.61,内江市,市监测站,,42,32,25,29,28,54,,64,56,10,9,6,7,0.4,0.3
2024-07-07T1800,2532A,105.0717,29.5947,内江市,东兴区政府,,36,36,31,23,17,54,,71,67,11,10,9,10,0.5,0.5
2024-07-07T1800,2533A,105.0653,29.5817,内江市,内江二中,,38,30,23,26,17,65,,77,70,14,13,11,12,0.6,0.7
2024-07-07T1800,2534A,105.0406,29.5822,内江市,内江日报社,细颗粒物(PM2.5),73,,26,53,26,64,,66,66,8,11,6,6,0.7,0.6
2024-07-07T1800,2628A,92.0657,31.4846,那曲市,那曲监测站,,23,23,10,9,6,72,,71,68,5,5,7,6,0.5,0.5
2024-07-07T1800,3128A,92.0506,31.4797,那曲市,那曲会议中心,,26,26,11,3,6,76,,75,72,6,6,3,4,0.3,0.4
2024-07-07T1800,1290A,115.8931,28.6843,南昌市,省外办,,33,33,32,14,12,80,,83,83,8,12,7,8,0.4,0.3
2024-07-07T1800,1291A,115.8886,28.7003,南昌市,省林业公司,,26,9,17,7,7,81,,85,85,7,11,6,7,0.7,0.6
2024-07-07T1800,1292A,115.8126,28.7442,南昌市,林科所,,27,12,21,7,8,85,,97,97,5,26,5,9,0.5,0.5
2024-07-07T1800,1294A,115.8518,28.687,南昌市,建工学校,,27,7,17,3,8,85,,86,86,4,9,8,10,0.3,0.3
2024-07-07T1800,1295A,115.8921,28.6424,南昌市,象湖,,35,35,16,8,9,87,,92,92,3,7,5,7,0.5,0.5
2024-07-07T1800,1296A,115.7423,28.7996,南昌市,武术学校,,24,14,16,11,13,76,,93,93,3,6,6,7,0.4,0.4
2024-07-07T1800,1298A,115.9314,28.6842,南昌市,省站,,24,24,23,13,10,71,,82,82,6,11,5,7,0.4,0.5
2024-07-07T1800,3046A,115.9084,28.6062,南昌市,机电学校,,21,21,22,9,8,63,,85,83,8,7,7,9,0.6,0.6
2024-07-07T1800,3690A,115.9721,28.7031,南昌市,外国语学校,,22,13,21,3,8,70,,87,86,4,9,3,5,0.4,0.4
2024-07-07T1800,1905A,106.056,30.8064,南充市,西山风景区,,46,46,33,16,18,14,,28,14,64,61,4,4,0.5,0.5
2024-07-07T1800,1906A,106.0789,30.8023,南充市,南充市委,,28,,28,19,19,29,,50,35,14,15,5,5,0.4,0.4
2024-07-07T1800,1907A,106.1031,30.8217,南充市,南充炼油厂,,24,24,34,14,18,28,,46,29,9,14,4,4,0.1,0.2
2024-07-07T1800,1908A,106.1064,30.7856,南充市,高坪区监测站,,35,35,33,14,13,25,,38,30,12,15,5,5,0.3,0.4
2024-07-07T1800,1909A,106.0642,30.7636,南充市,嘉陵区环保局,,28,,30,19,18,28,,38,28,10,18,4,4,0.3,0.4
2024-07-07T1800,1910A,106.1087,30.8388,南充市,市环境监测站,,26,26,32,17,18,22,,40,24,8,15,3,4,0.4,0.4
2024-07-07T1800,1151A,118.8086,32.1065,南京市,迈皋桥,,30,14,21,7,10,96,,113,113,10,16,7,8,0.3,0.5
2024-07-07T1800,1152A,118.7538,32.0551,南京市,草场门,,26,17,22,9,11,81,,94,94,15,15,4,8,0.6,0.9
2024-07-07T1800,1153A,118.7794,32.0745,南京市,山西路,,31,14,24,3,9,98,,114,114,3,8,5,4,0.3,0.6
2024-07-07T1800,1154A,118.7752,32.0023,南京市,中华门,,31,19,19,7,9,97,,104,104,15,17,6,6,0.6,0.6
2024-07-07T1800,1155A,118.8109,32.0309,南京市,瑞金路,,35,14,23,12,12,112,,120,120,5,8,3,4,0.3,0.4
2024-07-07T1800,1156A,118.7997,32.0754,南京市,玄武湖,,28,28,28,7,9,83,,98,98,6,8,8,8,0.5,0.6
2024-07-07T1800,1157A,118.6414,32.0931,南京市,浦口,,31,22,24,8,9,98,,98,98,5,11,5,5,0.7,0.8
2024-07-07T1800,1158A,118.7356,31.9996,南京市,奥体中心,,31,20,26,12,14,99,,106,106,12,17,12,8,0.6,0.4
2024-07-07T1800,1159A,118.9125,32.1028,南京市,仙林大学城,,38,22,24,7,10,119,,128,128,7,17,7,7,0.4,0.5
2024-07-07T1800,3422A,118.8436,31.9198,南京市,江宁彩虹桥,,34,15,24,7,10,107,,122,122,5,10,3,4,0.5,0.5
2024-07-07T1800,3423A,119.0138,31.6494,南京市,溧水永阳,,27,12,12,6,9,85,,93,93,9,9,3,4,0.1,0.2
2024-07-07T1800,3424A,118.879,31.3302,南京市,高淳老职中,,25,23,15,7,8,80,,75,75,5,6,4,4,0.6,0.6
2024-07-07T1800,3427A,118.8554,32.3578,南京市,六合雄州,颗粒物(PM10),52,53,30,10,13,99,,109,109,7,11,5,9,0.7,0.8
2024-07-07T1800,1401A,108.3103,22.7881,南宁市,二十一中,,20,14,18,7,8,63,,66,66,8,11,2,3,0.7,0.7
2024-07-07T1800,1402A,108.3141,22.8528,南宁市,北湖,,20,20,17,10,8,59,,67,67,9,10,2,3,0.7,0.7
2024-07-07T1800,1403A,108.3206,22.8225,南宁市,市监测站,,,,27,10,9,62,,70,70,10,12,3,4,0.5,0.6
2024-07-07T1800,1404A,108.3829,22.8037,南宁市,大自然花园,,21,8,17,8,9,65,,63,63,7,9,4,5,0.4,0.5
2024-07-07T1800,1405A,108.4394,22.7904,南宁市,仙葫,,25,14,15,8,8,78,,72,72,12,13,4,4,0.3,0.2
2024-07-07T1800,1406A,108.2397,22.8467,南宁市,区农职院,,23,23,22,8,9,59,,71,71,11,11,6,7,0.7,0.7
2024-07-07T1800,1407A,108.3275,22.735,南宁市,英华嘉园,,17,,19,10,9,54,,52,52,13,18,5,6,0.5,0.5
2024-07-07T1800,1408A,108.2257,22.7757,南宁市,沙井镇街道办,,29,29,33,11,11,48,,60,60,17,19,3,3,0.6,0.6
2024-07-07T1800,3401A,108.4834,22.7618,南宁市,红星社区,,22,,18,9,10,70,,57,57,6,9,4,5,0.8,0.8
2024-07-07T1800,2331A,118.0966,26.6761,南平市,茫荡山,,,,,,,,,,,,,,,,
2024-07-07T1800,2332A,118.1681,26.6369,南平市,南平市监测站,,26,20,15,12,6,82,,75,75,6,13,5,4,0.6,0.6
2024-07-07T1800,2333A,118.1825,26.6489,南平市,南平铝业有限公司,,23,21,19,16,8,73,,73,73,7,12,7,8,0.5,0.5
2024-07-07T1800,2334A,118.1756,26.6272,南平市,南平七中,,27,13,18,8,9,86,,80,80,2,10,5,4,0.5,0.5
2024-07-07T1800,1168A,120.9098,31.9663,南通市,狼山街道,,35,17,24,6,10,112,,126,126,24,32,7,7,0.3,0.4
2024-07-07T1800,1169A,120.86,32.0005,南通市,虹桥,,32,23,30,6,12,102,,131,129,48,38,6,7,0.5,0.7
2024-07-07T1800,1170A,120.87,32.02,南通市,城中,,41,30,37,11,13,130,,145,145,33,31,7,7,0.6,0.9
2024-07-07T1800,1171A,120.94,31.93,南通市,星湖花园,,44,14,26,13,13,140,,142,142,22,35,6,8,0.3,0.4
2024-07-07T1800,1172A,120.81,32.0417,南通市,紫琅学院,,37,25,32,6,12,87,,122,118,74,55,8,9,0.3,0.4
2024-07-07T1800,3291A,121.067,32.062,南通市,通州监测站,臭氧1小时,58,29,39,9,16,166,,163,163,6,25,4,6,0.8,1
2024-07-07T1800,3432A,120.9348,31.9883,南通市,环境教育馆,,47,27,34,11,15,149,,149,149,13,31,9,10,0.5,0.6
2024-07-07T1800,2404A,112.5224,33.0122,南阳市,瓦房庄,,32,22,21,13,17,102,,93,93,8,11,2,2,0.4,0.4
2024-07-07T1800,2405A,112.5003,32.9735,南阳市,汉画馆,,31,31,26,11,12,98,,92,92,7,11,3,3,0.4,0.4
2024-07-07T1800,2406A,112.5573,33.027,南阳市,气象站,,,,14,12,11,106,,96,96,5,12,5,5,0.2,0.2
2024-07-07T1800,2407A,112.5481,32.9689,南阳市,理工学院,,31,22,25,13,18,99,,96,96,9,13,4,4,0.3,0.3
2024-07-07T1800,4008A,112.5234,32.9922,南阳市,卧龙区政府,,33,25,23,14,15,103,,96,96,8,11,4,4,0.6,0.6
2024-07-07T1800,1234A,121.8358,29.911,宁波市,区环保大楼,颗粒物(PM10),51,51,37,13,15,94,,111,111,17,14,6,6,0.5,0.5
2024-07-07T1800,1235A,121.56,29.82,宁波市,万里学院,细颗粒物(PM2.5),67,,30,48,20,124,,122,122,13,11,6,7,0.5,0.6
2024-07-07T1800,1236A,121.713,29.9572,宁波市,龙赛医院,,39,32,26,15,14,123,,123,123,12,10,6,6,0.2,0.2
2024-07-07T1800,1239A,121.633,29.7733,宁波市,钱湖水厂,,41,30,28,28,20,131,,120,120,6,6,6,6,0.6,0.6
2024-07-07T1800,1240A,121.5856,29.8635,宁波市,太古小学,,41,38,32,25,15,130,,122,122,6,8,6,6,0.6,0.6
2024-07-07T1800,1241A,121.524,29.8674,宁波市,市环境监测中心,,,39,30,18,15,134,,129,129,,15,5,6,0.5,0.5
2024-07-07T1800,2871A,121.6147,29.9017,宁波市,万里国际学校,,43,26,25,20,15,136,,128,128,5,9,5,5,0.2,0.2
2024-07-07T1800,3710A,121.5594,29.8975,宁波市,白沙活动中心,,42,28,26,18,13,133,,128,128,5,8,7,9,0.3,0.3
2024-07-07T1800,2339A,119.5001,26.6946,宁德市,金涵水库,,,,,,,,,,,,,,,,
2024-07-07T1800,2341A,119.5388,26.6612,宁德市,宁德市监测站,,39,39,31,13,12,103,,118,118,16,17,12,9,2.0,1.2
2024-07-07T1800,3209A,119.5231,26.6562,宁德市,宁德一中,,42,42,31,12,12,110,,124,124,14,12,13,8,2.0,1.2
2024-07-07T1800,2618A,98.8601,25.8567,怒江傈僳族自治州,州监测站,,20,16,21,7,11,61,,56,56,10,8,9,9,0.5,0.6
2024-07-07T1800,2619A,98.8546,25.8417,怒江傈僳族自治州,泸水一中,,26,,22,18,10,44,,45,45,14,12,5,5,0.3,0.4
2024-07-07T1800,1888A,101.6891,26.571,攀枝花市,弄弄坪,,27,27,35,9,10,68,,64,64,14,22,11,12,0.5,0.6
2024-07-07T1800,1889A,101.5769,26.5928,攀枝花市,河门口,,25,14,25,6,11,77,,74,74,10,21,9,13,0.6,1
2024-07-07T1800,1890A,101.7169,26.585,攀枝花市,炳草岗,,31,31,33,3,9,72,,68,68,11,17,12,11,0.4,0.6
2024-07-07T1800,1891A,101.7369,26.5008,攀枝花市,仁和,,21,7,15,3,8,66,,61,61,7,11,7,8,0.4,0.4
2024-07-07T1800,2835A,101.7227,26.567,攀枝花市,四十中小,,22,17,23,11,11,69,,67,67,5,15,5,8,0.5,0.7
2024-07-07T1800,1604A,122.0303,41.1489,盘锦市,开发区,,35,25,26,8,17,110,,121,121,8,9,4,5,0.3,0.4
2024-07-07T1800,1605A,122.0485,41.0883,盘锦市,兴隆台,,22,18,28,11,18,64,,128,122,43,15,3,4,0.7,0.4
2024-07-07T1800,1606A,121.8297,41.1028,盘锦市,新生街道,,30,20,22,12,15,96,,106,106,12,13,2,3,0.4,0.4
2024-07-07T1800,1832A,113.3257,33.742,平顶山市,新华旅馆,,,10,22,,18,98,,95,95,5,11,2,3,0.3,0.4
2024-07-07T1800,1833A,113.2919,33.737,平顶山市,规划设计院,,29,27,19,14,13,91,,88,88,8,12,4,4,0.6,0.6
2024-07-07T1800,1834A,113.182,33.774,平顶山市,平顶山工学院,,25,19,17,7,8,77,,82,82,4,7,5,5,0.6,0.6
2024-07-07T1800,3204A,113.3025,33.73,平顶山市,规划局,,25,24,21,14,13,78,,79,79,10,14,2,2,0.1,0.1
2024-07-07T1800,3594A,112.8867,33.9116,平顶山市,石龙区,,40,40,25,24,16,72,,86,86,6,5,5,5,0.3,0.3
2024-07-07T1800,2656A,106.6692,35.5461,平凉市,聚贤嘉苑,,30,26,28,9,15,93,,103,103,13,14,9,9,0.3,0.3
2024-07-07T1800,2657A,106.7021,35.5307,平凉市,博物馆,,31,25,35,3,13,99,,113,113,24,19,7,5,0.5,0.5
2024-07-07T1800,2347A,114.0997,27.5002,萍乡市,武功山,,25,12,7,3,3,79,,89,80,3,4,9,9,0.7,0.5
2024-07-07T1800,2348A,113.8385,27.6434,萍乡市,中医院,,27,18,18,9,10,85,,93,90,7,10,7,4,0.6,0.6
2024-07-07T1800,2349A,113.8493,27.6253,萍乡市,市政府车库,,24,15,20,3,13,76,,85,82,3,6,10,10,0.4,0.5
2024-07-07T1800,2350A,113.8676,27.6435,萍乡市,市环保局,,26,,24,7,14,82,,88,85,1,8,10,11,0.3,0.5
2024-07-07T1800,2351A,113.866,27.6198,萍乡市,安源区政府,,25,24,21,3,6,78,,87,83,6,9,3,7,0.3,0.3
2024-07-07T1800,2319A,119.0141,25.4325,莆田市,荔城区仓后路,,41,41,24,13,6,68,,78,78,10,9,8,8,0.6,0.6
2024-07-07T1800,2320A,119.0015,25.4553,莆田市,莆田市监测站,,31,31,21,3,5,75,,81,81,7,5,10,10,0.5,0.5
2024-07-07T1800,2321A,119.1119,25.4561,莆田市,涵江区六中,,34,34,20,6,5,63,,79,79,8,8,11,11,0.5,0.5
2024-07-07T1800,2322A,119.1013,25.3215,莆田市,秀屿区政府,,33,33,17,3,4,53,,67,67,4,5,11,11,0.6,0.6
2024-07-07T1800,2323A,118.981,25.4792,莆田市,东圳水库,,,,,,,,,,,,,,,,
2024-07-07T1800,2392A,115.0312,35.7636,濮阳市,环保局,,23,6,22,6,18,73,,65,,6,9,6,6,0.6,0.6
2024-07-07T1800,2394A,115.0574,35.7609,濮阳市,油田运输公司,,22,10,29,3,16,68,,76,76,7,9,3,4,0.5,0.6
2024-07-07T1800,2395A,115.0866,35.7754,濮阳市,油田物探公司,,,20,24,6,21,71,,76,76,7,6,,3,0.6,0.9
2024-07-07T1800,3021A,115,35.7668,濮阳市,濮水河管理处,,16,12,28,10,23,50,,61,61,9,9,4,5,0.5,0.6
2024-07-07T1800,2601A,100.98,22.7633,普洱市,市环保局,,17,8,11,3,8,53,,43,43,4,4,4,4,0.4,0.4
2024-07-07T1800,2602A,100.9817,22.8322,普洱市,普洱第二中学,,19,,11,13,13,56,,44,44,4,5,9,9,0.4,0.5
2024-07-07T1800,2262A,131.0518,45.8751,七台河市,新一中,颗粒物(PM10),55,60,54,33,48,105,,102,102,11,9,11,10,0.8,0.8
2024-07-07T1800,3345A,131.0577,45.7879,七台河市,中波台,,37,37,53,23,34,79,,74,74,9,16,12,12,0.2,0.3
2024-07-07T1800,3637A,131.0176,45.7761,七台河市,人民广场,,48,45,57,33,38,68,,70,70,13,16,12,13,0.5,0.6
2024-07-07T1800,3684A,130.8781,45.8222,七台河市,新建矿广场,细颗粒物(PM2.5),55,58,85,39,42,71,,84,84,14,25,9,9,0.3,0.5
2024-07-07T1800,1779A,123.9305,47.3636,齐齐哈尔市,安居小区,细颗粒物(PM2.5),68,77,55,49,36,138,,130,130,12,17,16,11,0.7,0.5
2024-07-07T1800,1780A,123.9488,47.3386,齐齐哈尔市,中心广场,细颗粒物(PM2.5),63,74,62,45,28,132,,124,124,14,17,10,11,0.7,0.5
2024-07-07T1800,1781A,123.9483,47.3227,齐齐哈尔市,农牧车辆厂,细颗粒物(PM2.5),62,68,65,44,26,137,,128,128,9,16,7,9,0.5,0.4
2024-07-07T1800,1783A,123.945,47.2988,齐齐哈尔市,市环境监测站,细颗粒物(PM2.5),75,71,62,55,38,136,,127,127,8,15,6,7,0.6,0.4
2024-07-07T1800,3662A,123.6333,47.2075,齐齐哈尔市,富区青少年活动中心,细颗粒物(PM2.5),57,47,67,40,36,131,,134,134,10,24,5,11,0.7,0.9
2024-07-07T1800,2591A,107.9783,26.5747,黔东南苗族侗族自治州,市环境监测站,,19,12,10,9,7,60,,59,59,4,3,3,3,0.3,0.3
2024-07-07T1800,2881A,107.8908,26.5311,黔东南苗族侗族自治州,凯里学院,,19,,4,8,7,59,,55,55,4,3,5,4,0.4,0.4
2024-07-07T1800,2593A,107.5228,26.2403,黔南布依族苗族自治州,小围寨,,19,7,5,3,2,59,,59,59,2,2,4,5,0.4,0.4
2024-07-07T1800,3538A,107.5175,26.2978,黔南布依族苗族自治州,沙坝,,17,6,7,3,2,52,,55,55,3,3,3,4,0.4,0.4
2024-07-07T1800,2589A,104.9022,25.0925,黔西南布依族苗族自治州,场坝街,,22,10,12,8,7,69,,59,59,4,4,4,3,0.3,0.2
2024-07-07T1800,2590A,104.8811,25.0992,黔西南布依族苗族自治州,坪东大道,,20,14,11,8,6,64,,55,55,2,2,4,4,0.3,0.3
2024-07-07T1800,2502A,108.6236,21.9667,钦州市,市环保站,,17,14,17,3,4,53,,66,66,9,14,6,6,0.6,0.7
2024-07-07T1800,2503A,108.6549,21.9481,钦州市,沙埠小学,,27,27,21,16,9,55,,68,68,5,14,5,5,0.5,0.6
2024-07-07T1800,2504A,108.5989,21.7431,钦州市,港区一小,,22,22,21,3,8,54,,52,52,5,13,7,8,0.4,0.5
2024-07-07T1800,3404A,108.5959,21.9633,钦州市,北职校,,18,10,21,7,8,57,,68,68,5,14,8,7,0.6,0.6
2024-07-07T1800,1042A,119.5134,39.8207,秦皇岛市,北戴河环保局,,40,33,38,6,9,128,,121,121,7,15,4,3,0.4,0.4
2024-07-07T1800,1043A,119.7493,40.0116,秦皇岛市,第一关,,44,44,39,25,22,109,,118,118,12,23,4,2,0.4,0.4
2024-07-07T1800,1044A,119.5897,39.9499,秦皇岛市,监测站,,41,41,41,13,16,104,,118,118,26,22,7,5,0.6,0.5
2024-07-07T1800,1046A,119.5251,39.9041,秦皇岛市,建设大厦,,34,32,35,9,13,106,,115,115,8,14,3,3,0.2,0.2
2024-07-07T1800,3132A,119.610547,39.943889,秦皇岛市,文明里,,35,23,32,19,18,110,,118,118,17,19,4,3,0.4,0.5
2024-07-07T1800,1307A,120.6659,36.2403,青岛市,仰口,,23,,23,14,20,71,,61,61,4,7,3,3,0.4,0.5
2024-07-07T1800,1310A,120.4134,36.0658,青岛市,市南区东部子站,,27,7,11,3,3,85,,79,79,25,13,7,7,0.6,0.6
2024-07-07T1800,1311A,120.3664,36.1032,青岛市,四方区子站,,27,12,16,7,9,40,,65,61,53,20,11,10,0.7,0.6
2024-07-07T1800,1312A,120.2994,36.054,青岛市,市南区西部子站,,31,17,16,3,7,45,,58,52,61,25,9,8,0.7,0.6
2024-07-07T1800,1313A,120.4581,36.0858,青岛市,崂山区子站,,24,9,11,3,7,76,,76,76,27,17,7,7,0.5,0.5
2024-07-07T1800,1314A,120.1983,35.9608,青岛市,黄岛区子站,,36,7,12,3,7,115,,84,84,21,16,6,6,0.5,0.6
2024-07-07T1800,1315A,120.3999,36.3083,青岛市,城阳区子站,,19,12,19,10,12,48,,64,42,38,27,6,6,0.8,0.7
2024-07-07T1800,1966A,120.0405,35.8735,青岛市,黄岛区4号,,32,6,11,3,5,101,,83,83,24,17,11,9,0.8,0.6
2024-07-07T1800,3362A,120.5014,36.4034,青岛市,即墨2号,,20,12,24,8,14,62,,84,57,32,22,5,5,0.6,0.6
2024-07-07T1800,3642A,120.3503,36.0736,青岛市,市北区南部,,21,12,15,7,8,59,,69,69,42,15,7,6,0.6,0.6
2024-07-07T1800,3643A,120.3948,36.1805,青岛市,李沧区北部,,21,9,19,9,14,50,,62,53,42,27,10,10,0.5,0.5
2024-07-07T1800,1702A,113.0426,23.691,清远市,环保大楼,,34,13,17,12,13,107,,93,93,11,17,4,11,0.7,0.7
2024-07-07T1800,1703A,113.0208,23.7106,清远市,凤城街办,,32,21,25,14,12,101,,90,90,10,16,4,3,0.4,0.4
2024-07-07T1800,3025A,113.0477,23.6344,清远市,技师学院,,30,24,29,11,12,93,,106,106,14,19,4,6,0.3,0.3
2024-07-07T1800,3318A,112.9903,23.7403,清远市,清新太和,,,,28,14,11,103,,91,91,6,12,8,7,0.5,0.6
2024-07-07T1800,3455A,113.076,23.7198,清远市,清城东城,,32,26,31,10,11,102,,86,86,4,12,4,4,0.5,0.5
2024-07-07T1800,2661A,107.6325,35.7357,庆阳市,庆阳五中,,31,22,26,12,14,99,,126,111,13,9,3,3,0.4,0.4
2024-07-07T1800,2662A,107.6364,35.7067,庆阳市,市环保局,,33,24,32,8,12,105,,126,111,8,9,2,3,0.3,0.4
2024-07-07T1800,1916A,103.7897,25.5035,曲靖市,环境监测站,,23,22,14,6,6,71,,62,62,4,5,4,4,0.1,0.3
2024-07-07T1800,1917A,103.8,25.5364,曲靖市,烟厂办公区,,23,7,11,3,6,73,,64,64,5,6,4,4,0.3,0.3
2024-07-07T1800,3376A,103.7947,25.462,曲靖市,南苑二区,,23,6,9,3,6,71,,64,64,4,5,4,4,0.5,0.5
2024-07-07T1800,3377A,103.7444,25.5261,曲靖市,曲靖师范学院,,25,12,12,3,6,79,,69,69,4,5,5,5,0.3,0.3
2024-07-07T1800,1264A,118.8692,28.9398,衢州市,环保大楼,,31,24,27,13,14,98,,85,85,8,14,7,8,0.3,0.3
2024-07-07T1800,1265A,118.8709,28.9666,衢州市,实验学校,,32,25,29,21,15,101,,89,89,8,18,11,11,0.3,0.4
2024-07-07T1800,1266A,118.8621,28.9808,衢州市,衢州学院,,34,23,27,12,14,107,,97,97,9,20,4,4,0.3,0.4
2024-07-07T1800,1611A,118.5819,24.9117,泉州市,涂山街,,29,29,22,10,7,43,,59,59,9,8,4,4,0.5,0.6
2024-07-07T1800,1612A,118.5972,24.8978,泉州市,津头埔,,32,28,20,22,9,42,,59,56,12,9,2,3,0.6,0.6
2024-07-07T1800,1613A,118.6663,24.9424,泉州市,万安,,26,26,20,11,6,48,,58,58,4,4,2,2,0.6,0.6
2024-07-07T1800,1614A,118.6117,24.9604,泉州市,清源山,,,,,,,,,,,,,,,,
2024-07-07T1800,3529A,118.6333,24.9264,泉州市,城华南路,,21,21,20,9,7,44,,56,56,9,9,2,2,0.4,0.4
2024-07-07T1800,2626A,88.8876,29.2718,日喀则市,日喀则监测站,,28,6,9,3,4,88,,85,85,3,7,5,5,0.3,0.4
2024-07-07T1800,3726A,88.8781,29.2426,日喀则市,林业技术推广中心,,26,6,4,3,4,83,,82,82,6,8,5,6,0.5,0.5
2024-07-07T1800,1659A,119.471,35.4209,日照市,监测站,,38,6,12,3,11,121,,97,97,18,23,9,9,0.2,0.4
2024-07-07T1800,1660A,119.523,35.4216,日照市,市政府广场,,34,9,17,3,8,108,,84,84,23,26,8,9,0.5,0.6
2024-07-07T1800,1661A,119.5587,35.4044,日照市,港务局,,30,17,22,3,5,95,,88,88,43,33,9,10,0.6,0.7
2024-07-07T1800,3507A,119.5328,35.4625,日照市,职业技术学院,,,12,19,9,13,93,,85,85,31,27,,8,0.7,0.7
2024-07-07T1800,3604A,119.3266,35.1044,日照市,岚山环保分局,,14,12,12,3,6,44,,46,38,20,18,7,7,0.7,1.1
2024-07-07T1800,1835A,111.1922,34.7752,三门峡市,市政府,,31,31,36,16,19,64,,97,94,18,12,6,7,0.7,0.6
2024-07-07T1800,1836A,111.1587,34.7942,三门峡市,开发区,,35,35,48,22,22,88,,95,95,15,16,8,10,0.5,0.5
2024-07-07T1800,1838A,111.143,34.7955,三门峡市,风景区,,,,,,,,,,,,,,,,
2024-07-07T1800,3039A,111.1911,34.7829,三门峡市,三门峡市第一小学,,34,34,40,19,18,80,,100,99,12,10,7,7,0.7,0.7
2024-07-07T1800,3598A,111.1,34.7167,三门峡市,富达温泉假日酒店,,38,38,38,17,15,57,,78,77,19,16,11,12,0.6,0.6
2024-07-07T1800,2324A,117.6211,26.2625,三明市,三钢,,24,24,22,11,10,66,,71,71,20,15,17,10,1.6,1
2024-07-07T1800,2325A,117.635,26.2714,三明市,三明二中,,,30,22,10,10,80,,77,77,,13,7,5,0.8,0.7
2024-07-07T1800,2326A,117.6028,26.2378,三明市,三元区政府,,26,22,23,6,12,82,,73,73,7,13,6,7,0.3,0.3
2024-07-07T1800,2327A,117.7275,26.3108,三明市,洋溪,,,,,,,,,,,,,,,,
2024-07-07T1800,1876A,109.5078,18.2489,三亚市,河东子站,,13,6,14,3,6,40,,45,45,5,6,2,2,0.3,0.3
2024-07-07T1800,1877A,109.4964,18.2681,三亚市,河西子站,,13,8,11,3,3,39,,44,44,3,5,2,2,0.3,0.4
2024-07-07T1800,3540A,109.7348,18.3443,三亚市,君悦子站,,12,6,10,3,2,37,,47,46,6,6,2,3,0.3,0.4
2024-07-07T1800,2624A,91.7608,29.2313,山南市,山南监测站,,23,9,9,3,3,73,,67,67,2,6,5,5,0.2,0.3
2024-07-07T1800,2625A,91.7706,29.2436,山南市,山南人民医院,,24,9,13,3,4,75,,66,66,5,11,5,5,0.3,0.3
2024-07-07T1800,1674A,116.6794,23.3667,汕头市,金平子站,,20,13,14,3,4,61,,54,54,4,6,6,6,0.6,0.7
2024-07-07T1800,1675A,116.7244,23.3633,汕头市,龙湖子站,,16,16,13,6,4,48,,49,49,8,8,6,5,0.6,0.6
2024-07-07T1800,1676A,116.7258,23.2775,汕头市,濠江子站,,20,20,12,3,5,56,,62,62,4,6,4,4,0.4,0.5
2024-07-07T1800,1677A,116.7519,23.4714,汕头市,澄海子站,,19,19,16,3,6,41,,44,44,7,7,4,4,0.6,0.7
2024-07-07T1800,1678A,116.6092,23.2539,汕头市,潮阳子站,,17,16,12,6,6,54,,52,52,1,3,5,5,0.6,0.6
2024-07-07T1800,3444A,116.454,23.2684,汕头市,潮南峡山,,16,15,15,10,4,49,,49,49,2,3,4,4,0.6,0.6
2024-07-07T1800,3624A,116.4069,23.2533,汕头市,潮南子站,,19,19,13,6,4,50,,48,48,3,4,7,7,0.5,0.5
2024-07-07T1800,1693A,115.3653,22.775,汕尾市,市环保局,,19,9,10,3,4,60,,48,48,6,6,5,5,0.5,0.5
2024-07-07T1800,1694A,115.3706,22.7898,汕尾市,市政府,,19,9,10,3,5,59,,49,49,2,3,7,6,0.5,0.5
2024-07-07T1800,1695A,115.3622,22.7925,汕尾市,新城中学,,20,8,11,8,4,61,,50,50,2,3,4,4,0.5,0.5
2024-07-07T1800,2645A,109.9154,33.8715,商洛市,监测站,,22,,18,15,10,37,,36,36,5,17,6,6,0.8,0.7
2024-07-07T1800,3045A,109.9643,33.8471,商洛市,商州区中学,,30,30,29,16,13,39,,44,43,9,19,4,5,0.7,0.7
2024-07-07T1800,2408A,115.6702,34.4285,商丘市,环境监测站,,27,13,24,13,13,86,,92,92,3,4,8,9,0.4,0.5
2024-07-07T1800,2409A,115.6458,34.4045,商丘市,粮食局,,25,24,25,13,12,79,,91,91,4,4,4,4,0.3,0.3
2024-07-07T1800,2410A,115.6293,34.3948,商丘市,睢阳区环保局,,22,19,27,13,15,68,,95,93,3,4,5,5,0.3,0.3
2024-07-07T1800,3171A,115.6071,34.4465,商丘市,梁园区档案局,,,19,25,,6,82,,88,88,6,5,6,6,0.4,0.4
2024-07-07T1800,1141A,121.4,31.238,上海市,普陀,臭氧1小时,77,45,44,23,24,181,,146,146,13,18,5,6,0.5,0.5
2024-07-07T1800,1142A,121.478,31.2036,上海市,十五厂,臭氧1小时,94,51,44,26,24,195,,160,160,21,24,12,10,0.5,0.5
2024-07-07T1800,1143A,121.467,31.3008,上海市,虹口,臭氧1小时,58,31,41,18,40,166,,135,135,13,20,6,6,0.6,0.7
2024-07-07T1800,1144A,121.412,31.1654,上海市,徐汇上师大,臭氧1小时,87,45,42,28,24,189,,150,150,18,22,5,5,0.7,0.7
2024-07-07T1800,1145A,121.536,31.2659,上海市,杨浦四漂,臭氧1小时,100,65,41,33,26,200,,159,159,21,21,8,9,0.5,0.6
2024-07-07T1800,1147A,121.425,31.2261,上海市,静安监测站,臭氧1小时,85,43,46,22,24,188,,152,152,13,22,7,9,0.6,0.6
2024-07-07T1800,1148A,121.703,31.1907,上海市,浦东川沙,,,,48,,44,192,,208,208,14,20,6,6,0.7,0.7
2024-07-07T1800,1149A,121.533,31.2284,上海市,浦东新区监测站,臭氧1小时,82,42,41,28,24,185,,154,154,17,24,4,6,0.6,0.7
2024-07-07T1800,1150A,121.577,31.2071,上海市,浦东张江,臭氧1小时,65,50,47,35,28,172,,145,145,20,23,6,5,0.8,0.8
2024-07-07T1800,3265A,121.4316,31.3322,上海市,宝山庙行,,49,34,41,19,25,155,,143,143,14,17,8,10,0.6,0.7
2024-07-07T1800,3266A,121.8791,31.4662,上海市,崇明上实东滩,臭氧1小时,90,39,42,22,23,192,,229,229,14,23,9,9,0.6,0.6
2024-07-07T1800,3268A,121.3162,31.2838,上海市,嘉定南翔,,,33,43,20,25,153,,128,128,12,25,5,6,,0.6
2024-07-07T1800,3269A,121.3359,30.7456,上海市,金山新城,臭氧1小时,112,36,43,34,36,223,,197,197,15,15,8,9,0.4,0.5
2024-07-07T1800,3270A,121.4996,31.0739,上海市,闵行浦江,臭氧1小时,75,41,40,32,26,180,,161,161,12,17,6,6,0.4,0.4
2024-07-07T1800,3271A,121.2886,31.1663,上海市,青浦徐泾,臭氧1小时,79,46,41,23,27,183,,156,156,16,21,6,5,0.5,0.5
2024-07-07T1800,3272A,121.2186,31.0378,上海市,松江图书馆,臭氧1小时,78,44,42,43,27,182,,160,160,17,20,7,6,0.5,0.6
2024-07-07T1800,3273A,121.3902,31.2059,上海市,长宁仙霞,臭氧1小时,70,44,39,22,23,176,,147,147,21,23,8,7,0.8,0.9
2024-07-07T1800,3274A,121.7965,31.0507,上海市,浦东惠南,臭氧1小时,79,44,40,31,26,183,,186,186,19,22,7,8,0.5,0.6
2024-07-07T1800,3544A,121.4891,30.925,上海市,奉贤南桥新城,臭氧1小时,102,46,44,26,24,204,,190,190,21,23,5,5,0.7,0.7
2024-07-07T1800,2381A,118.005,28.4572,上饶市,百草园,,20,18,23,14,14,62,,78,76,2,8,5,7,0.9,0.6
