timepoint,stationcode,longitude,latitude,area,positionname,primarypollutant,aqi,pm10,pm10_24h,pm2_5,pm2_5_24h,o3,o3_24h,o3_8h,o3_8h_24h,no2,no2_24h,so2,so2_24h,co,co_24h
2023-03-01T13:00:00,1001A,116.3621,39.8784,北京市,万寿西宫,,25,15,14,4,5,81,78,60,60,7,18,3,3,0.2,0.2
2023-03-01T13:00:00,1002A,116.2202,40.2915,北京市,定陵,,25,7,8,3,4,82,78,66,66,2,5,3,2,0.1,0.1
2023-03-01T13:00:00,1003A,116.4174,39.9289,北京市,东四,,27,21,17,4,5,91,86,70,70,4,18,3,2,0.1,0.2
2023-03-01T13:00:00,1004A,116.4072,39.8863,北京市,天坛,,25,19,16,4,5,81,77,60,60,6,18,3,2,0.1,0.2
2023-03-01T13:00:00,1005A,116.462,39.9365,北京市,农展馆,,24,13,13,2,5,80,76,56,56,7,22,1,2,0.1,0.1
2023-03-01T13:00:00,1006A,116.3392,39.9295,北京市,官园,,28,17,17,3,5,93,89,72,72,10,24,2,2,0.1,0.3
2023-03-01T13:00:00,1007A,116.2878,39.9611,北京市,海淀万柳,,19,16,17,3,5,64,60,48,48,9,28,1,2,0.1,0.2
2023-03-01T13:00:00,1008A,116.6636,40.135,北京市,顺义新城,,26,8,12,2,5,89,83,56,54,5,22,3,3,0.1,0.1
2023-03-01T13:00:00,1009A,116.6275,40.3275,北京市,怀柔镇,,23,8,10,2,4,75,72,58,55,3,12,3,2,0.2,0.2
2023-03-01T13:00:00,1010A,116.2296,40.217,北京市,昌平镇,,26,9,10,4,5,86,83,68,64,3,14,3,2,0,0.1
2023-03-01T13:00:00,1011A,116.3966,39.9821,北京市,奥体中心,,23,19,16,5,6,74,71,55,55,7,26,1,2,0.2,0.2
2023-03-01T13:00:00,1012A,116.184,39.9136,北京市,古城,,27,24,16,5,5,89,85,69,69,6,14,3,3,0.2,0.3
2023-03-01T13:00:00,1015A,117.1444,39.1661,天津市,勤俭道,,,27,74,5,34,90,74,35,35,8,41,4,7,,0.6
2023-03-01T13:00:00,1017A,117.237,39.1082,天津市,大直沽八号路,,34,34,76,5,34,88,81,39,39,4,38,4,7,0.4,0.7
2023-03-01T13:00:00,1018A,117.202,39.0927,天津市,前进道,,27,25,65,4,31,93,85,43,43,9,39,2,5,0.4,0.7
2023-03-01T13:00:00,1019A,117.1837,39.2133,天津市,淮河道,,48,48,88,5,33,93,87,43,43,8,44,4,7,0.3,0.7
2023-03-01T13:00:00,1021A,117.307,39.0877,天津市,跃进路,,43,43,82,6,40,92,85,39,39,7,43,5,9,0.3,0.6
2023-03-01T13:00:00,1023A,117.707,39.0343,天津市,第四大街,,33,33,106,4,52,79,76,29,29,6,64,6,10,0.3,0.7
2023-03-01T13:00:00,1024A,117.457,38.8394,天津市,永明路,,33,33,96,5,54,95,75,32,32,9,47,5,9,0.5,0.8
2023-03-01T13:00:00,1026A,117.764,39.1587,天津市,汉北路,,28,28,114,4,60,93,82,32,32,8,52,6,10,0.3,0.7
2023-03-01T13:00:00,1027A,117.157,38.9194,天津市,团泊洼,,23,22,79,4,41,80,72,32,32,14,46,3,6,0.5,0.8
2023-03-01T13:00:00,1029A,114.4422,38.0444,石家庄市,职工医院,,,,145,,76,121,86,40,35,,57,4,8,0.1,0.6
2023-03-01T13:00:00,1030A,114.6063,38.0266,石家庄市,高新区,,45,45,130,21,67,124,88,39,39,9,57,3,6,0.2,0.6
2023-03-01T13:00:00,1031A,114.4898,38.1328,石家庄市,西北水源,,49,49,148,17,77,119,85,39,39,7,52,2,4,0.2,0.6
2023-03-01T13:00:00,1032A,114.4586,38.0058,石家庄市,西南高教,颗粒物(PM10),54,58,149,4,69,120,87,38,38,11,61,5,8,0.3,0.8
2023-03-01T13:00:00,1033A,114.5331,38.0178,石家庄市,世纪公园,,,53,114,28,65,115,84,35,35,10,52,5,6,,1.1
2023-03-01T13:00:00,1034A,114.509,38.0457,石家庄市,人民会堂,,50,50,129,9,74,122,89,40,40,10,47,5,7,0.2,0.6
2023-03-01T13:00:00,1035A,114.3524,37.8911,石家庄市,封龙山,颗粒物(PM10),62,74,105,28,55,113,69,82,69,15,18,7,9,0.3,0.4
2023-03-01T13:00:00,1037A,118.131,39.6363,唐山市,雷达站,颗粒物(PM10),55,60,111,0,51,112,88,42,42,4,42,1,8,0.2,0.9
2023-03-01T13:00:00,1038A,118.1725,39.6334,唐山市,物资局,,42,42,105,11,55,108,83,43,43,22,52,3,8,0.3,0.9
2023-03-01T13:00:00,1040A,118.1705,39.6506,唐山市,十二中,颗粒物(PM10),51,52,113,14,55,101,84,42,42,9,53,1,9,0.2,0.8
2023-03-01T13:00:00,1041A,118.1869,39.622,唐山市,小山,颗粒物(PM10),55,60,110,4,49,118,86,40,40,15,52,1,9,0.2,0.8
2023-03-01T13:00:00,1042A,119.5134,39.8207,秦皇岛市,北戴河环保局,,33,33,73,6,36,84,84,60,60,3,28,2,7,0.1,0.6
2023-03-01T13:00:00,1043A,119.7493,40.0116,秦皇岛市,第一关,,45,45,56,8,15,83,78,47,47,6,54,3,5,0.2,0.3
2023-03-01T13:00:00,1044A,119.5897,39.9499,秦皇岛市,监测站,,,44,74,7,30,81,81,39,39,12,52,,6,0.2,0.5
2023-03-01T13:00:00,1046A,119.5251,39.9041,秦皇岛市,建设大厦,,46,46,75,6,21,83,83,40,40,12,53,3,7,0.2,0.5
2023-03-01T13:00:00,1048A,114.5302,36.6116,邯郸市,东污水处理厂,,,61,123,25,67,112,84,40,40,20,49,,11,0.5,0.7
2023-03-01T13:00:00,1049A,114.4918,36.5713,邯郸市,矿院,颗粒物(PM10),60,70,119,31,70,114,80,42,42,15,42,7,9,0.4,0.9
2023-03-01T13:00:00,1050A,114.484,36.6133,邯郸市,丛台公园,颗粒物(PM10),54,58,109,27,68,112,81,42,42,14,44,11,13,0.7,1
2023-03-01T13:00:00,1051A,115.493,38.8632,保定市,游泳馆,,30,30,68,0,32,96,93,53,53,1,35,3,3,0.3,0.4
2023-03-01T13:00:00,1052A,115.5213,38.8959,保定市,华电二区,,26,23,67,10,36,92,81,51,51,2,27,4,8,0.3,0.5
2023-03-01T13:00:00,1053A,115.4713,38.9108,保定市,接待中心,,34,34,68,7,31,88,83,51,50,4,36,4,7,0.1,0.3
2023-03-01T13:00:00,1054A,115.4612,38.8416,保定市,地表水厂,,40,40,100,10,37,89,87,48,48,7,47,5,8,0,0.1
2023-03-01T13:00:00,1056A,115.5086,38.8639,保定市,监测站,,31,31,76,6,35,97,93,54,54,7,42,2,6,0,0.3
2023-03-01T13:00:00,1057A,114.8883,40.8336,张家口市,人民公园,,28,12,18,2,5,92,88,81,81,7,13,4,4,0.3,0.3
2023-03-01T13:00:00,1059A,114.8687,40.8042,张家口市,五金库,,26,24,17,10,9,84,82,74,74,7,15,2,3,0.1,0.2
2023-03-01T13:00:00,1060A,114.8902,40.762,张家口市,世纪豪园,,,,22,,9,88,82,75,75,5,16,,3,0.5,0.5
2023-03-01T13:00:00,1061A,114.8916,40.8661,张家口市,北泵房,,29,20,22,3,9,97,91,82,82,2,4,6,7,0.2,0.3
2023-03-01T13:00:00,1062A,117.9531,40.9081,承德市,铁路,,26,7,31,11,17,88,81,52,52,4,23,6,8,0.2,0.4
2023-03-01T13:00:00,1063A,117.9392,40.9763,承德市,中国银行,,25,12,27,2,11,85,80,47,47,5,20,6,6,0.2,0.3
2023-03-01T13:00:00,1064A,117.9503,40.928,承德市,开发区,,,24,33,13,21,94,86,49,49,6,27,,7,0.2,0.5
2023-03-01T13:00:00,1065A,117.8051,40.9655,承德市,文化中心,,25,23,35,2,14,81,80,52,52,4,21,6,7,0.2,0.4
2023-03-01T13:00:00,1066A,117.9268,41.0026,承德市,离宫,,26,4,16,6,12,88,82,56,56,6,13,9,9,0.2,0.3
2023-03-01T13:00:00,1067A,116.6708,39.5111,廊坊市,药材公司,,,,43,2,10,91,37,56,48,10,26,3,3,0.3,0.4
2023-03-01T13:00:00,1068A,116.7214,39.5589,廊坊市,开发区,,,,49,,16,96,79,52,49,,36,8,8,,0.4
2023-03-01T13:00:00,1070A,116.7244,39.5269,廊坊市,北华航天学院,,36,36,48,5,14,89,83,54,54,11,33,3,3,0.3,0.4
2023-03-01T13:00:00,1071A,116.8842,38.2991,沧州市,沧县城建局,颗粒物(PM10),64,78,117,19,70,94,88,48,48,14,50,8,14,0.3,0.7
2023-03-01T13:00:00,1072A,116.8584,38.3254,沧州市,电视转播站,,,30,103,12,63,90,81,29,29,22,51,,9,,1
2023-03-01T13:00:00,1073A,116.8709,38.3228,沧州市,市环保局,颗粒物(PM10),54,57,115,26,58,91,83,38,38,26,59,2,8,0.2,0.6
2023-03-01T13:00:00,1074A,115.6838,37.7541,衡水市,电机北厂,颗粒物(PM10),78,105,130,35,70,94,87,41,41,1,41,2,9,0.4,0.7
2023-03-01T13:00:00,1075A,115.6303,37.7316,衡水市,市监测站,颗粒物(PM10),62,74,123,5,64,92,86,43,43,4,40,4,8,0.3,0.7
2023-03-01T13:00:00,1077A,114.4704,37.0886,邢台市,达活泉,颗粒物(PM10),74,97,135,36,82,107,77,46,46,14,44,8,7,0.5,0.8
2023-03-01T13:00:00,1078A,114.5062,37.0349,邢台市,邢师高专,,,84,129,40,80,105,76,33,33,10,46,8,7,,0.9
2023-03-01T13:00:00,1079A,114.5237,37.0851,邢台市,路桥公司,颗粒物(PM10),69,87,113,30,62,104,78,51,51,20,40,6,5,0.4,0.7
2023-03-01T13:00:00,1080A,114.4725,37.0719,邢台市,市环保局,颗粒物(PM10),65,80,132,22,72,109,80,46,46,11,40,8,7,0.6,0.7
2023-03-01T13:00:00,1081A,112.522,37.8873,太原市,尖草坪,颗粒物(PM10),58,65,55,12,11,84,75,75,69,18,22,13,9,0.7,0.6
2023-03-01T13:00:00,1083A,112.434,38.0108,太原市,上兰,,,,,,,,,,,,,,,,
2023-03-01T13:00:00,1084A,112.469,37.7124,太原市,晋源,,47,47,40,9,10,89,76,74,71,20,21,7,8,0.5,0.4
2023-03-01T13:00:00,1085A,112.5583,37.7394,太原市,小店,颗粒物(PM10),54,58,54,12,13,92,79,78,68,18,26,8,7,0.4,0.3
2023-03-01T13:00:00,1086A,112.5369,37.8692,太原市,桃园,,43,43,40,13,11,88,76,74,65,15,22,11,7,0.6,0.4
2023-03-01T13:00:00,1087A,112.57,37.8195,太原市,坞城,颗粒物(PM10),51,52,48,11,11,88,76,79,68,21,25,11,10,0.4,0.3
2023-03-01T13:00:00,1088A,112.549,37.9854,太原市,南寨,颗粒物(PM10),51,52,94,9,16,94,80,36,36,16,44,5,5,0.7,0.7
2023-03-01T13:00:00,1090A,111.6507,40.7517,呼和浩特市,呼市一监,,29,29,25,13,8,82,80,66,60,12,16,9,9,0.4,0.5
2023-03-01T13:00:00,1091A,111.6572,40.8033,呼和浩特市,小召,,39,39,26,12,5,87,70,67,63,20,19,12,11,0.4,0.4
2023-03-01T13:00:00,1094A,111.7516,40.8369,呼和浩特市,如意水处理厂,,28,28,20,6,4,90,78,72,65,12,15,9,10,0.4,0.3
2023-03-01T13:00:00,1095A,111.7276,40.8062,呼和浩特市,二十九中,,,,24,10,5,89,68,70,60,18,16,,8,0.5,0.4
2023-03-01T13:00:00,1096A,111.5512,40.7866,呼和浩特市,工大金川校区,颗粒物(PM10),53,56,34,9,6,86,77,66,53,7,16,11,7,0.4,0.4
2023-03-01T13:00:00,1097A,111.717,40.7612,呼和浩特市,化肥厂生活区,,34,34,24,9,6,89,79,69,66,11,14,8,8,0.4,0.4
2023-03-01T13:00:00,1098A,123.6836,41.9339,沈阳市,森林路,,,,,,,,,,,,,,,,
2023-03-01T13:00:00,1099A,123.505,41.7406,沈阳市,浑南东路,,27,27,44,9,17,78,78,62,53,10,24,8,11,0.4,0.5
2023-03-01T13:00:00,1100A,123.4231,41.6989,沈阳市,新秀街,,28,28,51,6,12,84,84,59,47,5,27,8,13,0.3,0.4
2023-03-01T13:00:00,1102A,123.5903,41.8411,沈阳市,东陵路,,35,35,47,13,22,82,81,49,49,10,32,6,10,0.3,0.5
2023-03-01T13:00:00,1103A,123.4264,41.8467,沈阳市,陵东街,,28,22,43,6,12,91,89,62,60,6,20,7,9,0.3,0.5
2023-03-01T13:00:00,1104A,123.4114,41.7653,沈阳市,文化路,,26,26,48,10,17,83,82,52,52,12,28,9,14,0.4,0.5
2023-03-01T13:00:00,1105A,123.4678,41.7867,沈阳市,小河沿,,26,26,36,8,12,83,83,56,56,10,24,7,11,0.5,0.5
2023-03-01T13:00:00,1106A,123.4017,41.7972,沈阳市,太原街,,36,36,58,14,21,75,75,45,45,13,33,7,9,0.3,0.4
2023-03-01T13:00:00,1108A,123.3783,41.9228,沈阳市,京沈街,,41,41,64,14,31,84,84,54,54,8,25,7,9,0.3,0.7
2023-03-01T13:00:00,1109A,121.612,38.9741,大连市,甘井子,颗粒物(PM10),59,67,102,28,58,86,73,60,52,21,40,14,16,0.5,0.7
2023-03-01T13:00:00,1110A,121.565,38.9511,大连市,周水子,颗粒物(PM10),57,64,129,19,60,84,74,46,46,24,51,8,12,0.6,0.9
2023-03-01T13:00:00,1111A,121.5637,38.8845,大连市,星海三站,,33,33,86,13,53,84,75,48,48,19,46,7,17,0.6,1
2023-03-01T13:00:00,1112A,121.6302,38.9117,大连市,青泥洼桥,,30,30,99,15,63,85,71,50,35,16,56,7,18,0.5,1
2023-03-01T13:00:00,1113A,121.6251,38.8638,大连市,傅家庄,,48,48,101,10,54,92,79,65,59,11,34,8,16,0.4,0.7
2023-03-01T13:00:00,1114A,121.5213,38.8661,大连市,七贤岭,,,,98,,69,104,,45,,,35,,14,,0.9
2023-03-01T13:00:00,1115A,121.2529,38.8061,大连市,旅顺,,44,44,68,15,46,88,78,59,55,10,19,14,14,0.8,0.8
2023-03-01T13:00:00,1116A,121.7485,39.1311,大连市,金州,,43,43,92,18,60,72,72,58,50,22,41,15,17,0.8,1
2023-03-01T13:00:00,1117A,121.7811,39.0496,大连市,开发区,颗粒物(PM10),61,72,88,28,63,77,62,65,38,35,60,7,8,1.0,1.1
2023-03-01T13:00:00,1118A,121.9762,39.0631,大连市,双D港,,49,49,74,15,50,96,85,75,75,16,32,15,10,0.9,0.9
2023-03-01T13:00:00,1119A,125.3325,43.9166,长春市,食品厂,颗粒物(PM10),52,54,49,9,23,81,75,54,54,12,33,2,6,0.2,0.6
2023-03-01T13:00:00,1120A,125.2863,43.9027,长春市,客车厂,,41,41,50,9,22,76,73,51,51,14,36,4,13,0.4,0.5
2023-03-01T13:00:00,1121A,125.2841,43.8463,长春市,邮电学院,,46,46,44,9,19,89,85,57,57,8,31,7,12,0.3,0.4
2023-03-01T13:00:00,1122A,125.3716,43.8772,长春市,劳动公园,,,,44,,19,85,82,57,57,9,29,6,9,0.3,0.4
2023-03-01T13:00:00,1123A,125.3297,43.8805,长春市,园林处,,48,48,41,12,18,82,79,58,58,7,26,5,5,0.2,0.3
2023-03-01T13:00:00,1124A,125.4605,43.79,长春市,净月潭,,39,39,35,3,20,82,79,58,58,2,10,3,4,0.2,0.3
2023-03-01T13:00:00,1125A,125.7194,43.515,长春市,甩湾子,,,,,,,,,,,,,,,,
2023-03-01T13:00:00,1126A,125.3863,43.8447,长春市,经开区环卫处,,40,40,46,10,21,86,81,59,59,9,30,6,9,0.4,0.6
2023-03-01T13:00:00,1127A,125.245,43.7783,长春市,高新区管委会,颗粒物(PM10),52,54,44,13,20,82,82,63,63,7,28,6,9,0.6,0.7
2023-03-01T13:00:00,1128A,125.1761,43.8325,长春市,岱山公园,颗粒物(PM10),51,52,47,12,21,84,79,59,59,8,30,4,6,0.4,0.6
2023-03-01T13:00:00,1129A,126.5422,45.755,哈尔滨市,岭北,,,,51,23,31,85,74,30,30,14,29,23,17,0.8,0.9
2023-03-01T13:00:00,1130A,126.561,45.8167,哈尔滨市,松北商大,,46,46,45,22,28,78,64,26,26,24,44,22,7,0.5,0.6
2023-03-01T13:00:00,1131A,126.979,45.5419,哈尔滨市,阿城会宁,颗粒物(PM10),53,56,48,24,32,74,58,42,42,12,31,18,5,0.5,0.7
2023-03-01T13:00:00,1132A,126.599,45.7222,哈尔滨市,南岗学府路,细颗粒物(PM2.5),84,88,51,62,30,78,45,28,28,30,42,24,21,0.4,0.6
2023-03-01T13:00:00,1133A,126.689,45.7733,哈尔滨市,太平宏伟公园,,43,43,58,19,34,86,75,30,30,17,43,6,8,0.3,0.7
2023-03-01T13:00:00,1134A,126.635,45.7667,哈尔滨市,道外承德广场,,,43,42,23,27,83,,42,30,,38,,12,,0.7
2023-03-01T13:00:00,1135A,126.685,45.7319,哈尔滨市,香坊红旗大街,,,132,55,55,42,82,47,27,27,,41,13,18,,0.8
2023-03-01T13:00:00,1136A,126.6411,45.7258,哈尔滨市,动力和平路,细颗粒物(PM2.5),72,75,45,52,33,77,43,32,32,28,40,14,14,0.7,0.7
2023-03-01T13:00:00,1137A,126.593,45.7478,哈尔滨市,道里建国路,颗粒物(PM10),56,61,42,36,31,77,59,28,28,26,46,14,11,0.7,1
2023-03-01T13:00:00,1138A,126.615,45.61,哈尔滨市,平房东轻厂,细颗粒物(PM2.5),68,83,51,49,36,78,41,43,41,28,38,11,11,1.0,1
2023-03-01T13:00:00,1139A,126.595,45.9855,哈尔滨市,呼兰师专,,45,45,48,31,35,76,65,42,32,21,34,14,12,0.4,0.6
2023-03-01T13:00:00,1140A,126.6206,45.6842,哈尔滨市,省农科院,颗粒物(PM10),66,82,58,46,35,87,51,30,30,18,37,13,14,0.6,0.8
2023-03-01T13:00:00,1141A,121.4,31.238,上海市,普陀,细颗粒物(PM2.5),125,118,72,95,48,122,89,29,29,58,72,11,7,1.1,0.9
2023-03-01T13:00:00,1142A,121.478,31.2036,上海市,十五厂,细颗粒物(PM2.5),122,85,52,92,43,107,68,35,31,71,71,18,9,1.6,0.9
2023-03-01T13:00:00,1143A,121.467,31.3008,上海市,虹口,细颗粒物(PM2.5),140,127,72,107,53,108,87,35,24,56,64,17,7,1.4,0.9
2023-03-01T13:00:00,1144A,121.412,31.1654,上海市,徐汇上师大,细颗粒物(PM2.5),117,70,53,88,44,112,96,31,31,52,72,14,11,0.7,0.7
2023-03-01T13:00:00,1145A,121.536,31.2659,上海市,杨浦四漂,细颗粒物(PM2.5),134,117,71,102,48,110,104,37,37,51,71,12,8,1.0,0.9
2023-03-01T13:00:00,1147A,121.425,31.2261,上海市,静安监测站,细颗粒物(PM2.5),120,123,74,91,46,115,94,30,30,60,78,14,10,1.0,0.8
2023-03-01T13:00:00,1148A,121.703,31.1907,上海市,浦东川沙,细颗粒物(PM2.5),128,86,60,97,47,121,85,25,25,50,70,9,7,0.8,0.7
2023-03-01T13:00:00,1149A,121.533,31.2284,上海市,浦东新区监测站,细颗粒物(PM2.5),125,127,71,95,48,110,85,32,32,52,59,12,7,1.2,1
2023-03-01T13:00:00,1150A,121.577,31.2071,上海市,浦东张江,细颗粒物(PM2.5),125,74,52,95,40,141,101,31,31,49,64,7,5,0.9,0.9
2023-03-01T13:00:00,1151A,118.8086,32.1065,南京市,迈皋桥,细颗粒物(PM2.5),113,130,99,85,56,161,161,63,63,18,60,10,12,0.4,0.8
2023-03-01T13:00:00,1152A,118.7538,32.0551,南京市,草场门,细颗粒物(PM2.5),100,122,99,75,52,137,137,37,37,32,72,14,12,1.0,0.9
2023-03-01T13:00:00,1153A,118.7794,32.0745,南京市,山西路,细颗粒物(PM2.5),100,117,96,75,58,161,161,58,58,22,55,11,11,0.6,0.9
2023-03-01T13:00:00,1154A,118.7752,32.0023,南京市,中华门,细颗粒物(PM2.5),104,122,97,78,55,144,144,48,48,25,64,18,14,1.2,1.1
2023-03-01T13:00:00,1155A,118.8109,32.0309,南京市,瑞金路,细颗粒物(PM2.5),107,85,81,80,54,152,152,52,52,36,64,14,14,0.5,0.9
2023-03-01T13:00:00,1156A,118.7997,32.0754,南京市,玄武湖,细颗粒物(PM2.5),132,132,95,100,65,151,151,50,50,24,69,6,6,0.4,0.7
2023-03-01T13:00:00,1157A,118.6414,32.0931,南京市,浦口,细颗粒物(PM2.5),89,115,105,66,56,150,150,68,68,18,63,8,9,0.5,0.7
2023-03-01T13:00:00,1158A,118.7356,31.9996,南京市,奥体中心,,,,107,,54,121,121,39,39,28,81,,12,0.9,0.9
2023-03-01T13:00:00,1159A,118.9125,32.1028,南京市,仙林大学城,细颗粒物(PM2.5),113,112,90,85,57,150,150,58,58,24,66,10,12,0.6,0.9
2023-03-01T13:00:00,1160A,120.561,31.2472,苏州市,上方山,细颗粒物(PM2.5),87,81,55,64,47,93,49,41,29,46,37,11,6,1.0,0.6
2023-03-01T13:00:00,1162A,120.591,31.3019,苏州市,彩香,细颗粒物(PM2.5),120,114,68,91,49,112,112,39,39,45,59,12,6,0.9,0.6
2023-03-01T13:00:00,1163A,120.596,31.3264,苏州市,轧钢厂,细颗粒物(PM2.5),117,126,80,88,50,114,114,38,38,35,54,12,6,1.0,0.8
2023-03-01T13:00:00,1164A,120.613,31.2703,苏州市,吴中区,细颗粒物(PM2.5),117,110,71,88,50,100,75,35,35,51,61,,7,1.0,0.7
2023-03-01T13:00:00,1165A,120.543,31.2994,苏州市,苏州新区,细颗粒物(PM2.5),118,109,66,89,50,99,70,45,42,53,40,11,6,1.2,0.8
2023-03-01T13:00:00,1166A,120.669,31.3097,苏州市,苏州工业园区,细颗粒物(PM2.5),124,127,69,94,48,98,94,31,31,47,62,14,8,0.9,0.6
2023-03-01T13:00:00,1167A,120.641,31.3708,苏州市,相城区,细颗粒物(PM2.5),124,102,65,94,54,122,122,40,40,35,53,13,7,0.9,0.8
2023-03-01T13:00:00,1168A,120.9098,31.9663,南通市,狼山街道,细颗粒物(PM2.5),145,137,89,111,70,145,145,54,54,24,73,9,8,0.6,0.8
2023-03-01T13:00:00,1169A,120.86,32.0005,南通市,虹桥,,,,111,,71,18,,28,,,93,,12,,0.8
2023-03-01T13:00:00,1170A,120.87,32.02,南通市,城中,细颗粒物(PM2.5),112,119,110,84,74,137,137,50,50,23,84,10,12,0.5,0.7
2023-03-01T13:00:00,1171A,120.94,31.93,南通市,星湖花园,细颗粒物(PM2.5),113,127,93,85,61,137,137,49,49,,76,9,9,0.7,0.7
2023-03-01T13:00:00,1172A,120.81,32.0417,南通市,紫琅学院,细颗粒物(PM2.5),110,139,124,83,73,145,145,50,50,21,92,9,13,0.6,0.9
2023-03-01T13:00:00,1173A,119.176,34.5885,连云港市,市环境监测站,颗粒物(PM10),67,83,124,41,91,124,112,69,69,19,46,13,13,0.5,0.7
2023-03-01T13:00:00,1177A,117.179,34.2761,徐州市,黄河新村,,,127,173,36,107,83,75,29,29,,71,9,16,,1.5
2023-03-01T13:00:00,1178A,117.1918,34.2384,徐州市,淮塔,,,92,154,36,96,114,114,52,52,,65,9,12,,1.1
2023-03-01T13:00:00,1180A,117.256,34.2153,徐州市,新城区,颗粒物(PM10),73,95,147,51,115,110,110,49,49,20,69,12,14,0.8,1.3
2023-03-01T13:00:00,1181A,117.244,34.2911,徐州市,桃园路,颗粒物(PM10),80,110,170,27,104,103,103,44,44,12,68,8,13,0.8,1.3
2023-03-01T13:00:00,1182A,117.2933,34.2778,徐州市,农科院,,,,175,,107,107,107,44,44,6,66,,13,0.7,1.1
2023-03-01T13:00:00,1186A,119.389,32.3761,扬州市,邗江监测站,细颗粒物(PM2.5),156,129,111,119,79,140,140,73,73,28,70,8,11,0.7,0.7
2023-03-01T13:00:00,1188A,120.269,31.4867,无锡市,雪浪,细颗粒物(PM2.5),94,102,65,70,45,108,108,46,46,36,31,13,10,0.9,0.8
2023-03-01T13:00:00,1189A,120.275,31.6219,无锡市,黄巷,细颗粒物(PM2.5),94,116,78,70,48,98,98,35,35,58,74,16,9,1.5,1.1
2023-03-01T13:00:00,1190A,120.294,31.56,无锡市,曹张,细颗粒物(PM2.5),100,131,84,75,51,94,94,31,31,50,70,12,8,1.4,1.1
2023-03-01T13:00:00,1191A,120.242,31.5031,无锡市,漆塘,细颗粒物(PM2.5),94,107,60,70,45,105,105,44,44,43,33,15,11,0.9,0.7
2023-03-01T13:00:00,1192A,120.3489,31.5863,无锡市,东亭,细颗粒物(PM2.5),104,119,75,78,50,91,91,30,30,59,75,16,10,1.2,1.2
2023-03-01T13:00:00,1193A,120.354,31.5475,无锡市,旺庄,细颗粒物(PM2.5),94,110,72,70,50,91,91,28,28,48,65,12,7,1.1,1
2023-03-01T13:00:00,1194A,120.245,31.5631,无锡市,荣巷,细颗粒物(PM2.5),92,107,66,68,46,116,116,42,40,40,37,16,12,0.9,0.8
2023-03-01T13:00:00,1195A,120.299,31.6817,无锡市,堰桥,细颗粒物(PM2.5),85,105,86,63,53,113,113,36,36,49,87,17,11,1.0,1.1
2023-03-01T13:00:00,1196A,119.9633,31.762,常州市,市监测站,细颗粒物(PM2.5),104,135,108,78,69,138,138,48,48,24,62,10,9,0.6,0.7
2023-03-01T13:00:00,1200A,119.9468,31.7069,常州市,武进监测站,细颗粒物(PM2.5),119,148,110,90,69,127,127,49,49,32,66,12,13,0.7,0.8
2023-03-01T13:00:00,1201A,119.9255,31.9087,常州市,安家,细颗粒物(PM2.5),139,163,113,106,75,130,130,48,48,37,71,13,14,0.8,0.8
2023-03-01T13:00:00,1203A,119.6707,32.1875,镇江市,新区办事处,细颗粒物(PM2.5),153,164,114,117,77,131,131,41,41,36,62,8,9,1.0,1.1
2023-03-01T13:00:00,1204A,119.4974,32.1968,镇江市,职教中心,细颗粒物(PM2.5),145,130,90,111,66,149,149,58,58,28,54,11,10,0.5,0.7
2023-03-01T13:00:00,1205A,119.4303,32.1328,镇江市,丹徒区监测站,细颗粒物(PM2.5),153,159,107,117,74,139,139,62,62,29,57,14,10,0.6,0.8
2023-03-01T13:00:00,1206A,119.905,32.4878,泰州市,公园路,细颗粒物(PM2.5),122,112,102,92,76,136,136,48,48,21,62,15,13,0.9,1.2
2023-03-01T13:00:00,1207A,119.9189,32.4625,泰州市,莲花,细颗粒物(PM2.5),117,112,103,88,74,133,133,48,48,24,69,17,15,0.9,1.1
2023-03-01T13:00:00,1209A,119.888,32.4639,泰州市,留学生创业园,细颗粒物(PM2.5),143,201,139,109,79,131,131,46,46,26,75,16,14,0.8,1
2023-03-01T13:00:00,1210A,119.036,33.5981,淮安市,钵池山,细颗粒物(PM2.5),168,,130,127,126,145,135,55,55,26,63,12,9,1.2,1
2023-03-01T13:00:00,1211A,119.007,33.575,淮安市,北京南路,细颗粒物(PM2.5),170,153,129,129,102,142,131,44,44,30,67,16,11,1.2,1.1
2023-03-01T13:00:00,1212A,118.989,33.6067,淮安市,市监测站,细颗粒物(PM2.5),175,175,157,132,118,154,136,48,48,32,70,14,9,1.4,1.2
2023-03-01T13:00:00,1213A,119.135,33.5039,淮安市,楚州区监测站,细颗粒物(PM2.5),178,168,130,134,99,144,134,52,52,30,60,14,10,1.1,0.9
2023-03-01T13:00:00,1214A,119.0186,33.6297,淮安市,淮阴区监测站,细颗粒物(PM2.5),215,187,158,165,135,148,136,47,47,25,64,16,12,1.1,0.9
2023-03-01T13:00:00,1215A,120.118,33.4022,盐城市,盐城电厂,细颗粒物(PM2.5),84,114,84,62,45,156,156,82,82,23,35,11,9,0.8,0.6
2023-03-01T13:00:00,1216A,120.156,33.3942,盐城市,市监测站,细颗粒物(PM2.5),88,108,72,65,46,148,148,76,76,25,37,12,9,0.6,0.4
2023-03-01T13:00:00,1218A,120.2144,33.38,盐城市,开发区管委会,细颗粒物(PM2.5),117,135,94,88,58,151,151,76,76,23,37,5,4,0.9,0.7
2023-03-01T13:00:00,1220A,118.293,33.9528,宿迁市,宿迁学院,细颗粒物(PM2.5),127,107,148,96,116,135,125,73,73,17,55,14,14,0.6,0.9
2023-03-01T13:00:00,1221A,118.2442,33.9592,宿迁市,宿迁中学,细颗粒物(PM2.5),117,110,164,88,119,125,123,56,56,20,69,10,9,0.6,0.8
2023-03-01T13:00:00,1223A,120.2072,30.2111,杭州市,滨江,颗粒物(PM10),65,80,45,46,22,90,86,28,28,27,40,9,6,0.7,0.6
2023-03-01T13:00:00,1224A,120.0633,30.2747,杭州市,西溪,,,,38,,24,104,,13,7,,32,,5,,0.6
2023-03-01T13:00:00,1226A,120.3461,30.3153,杭州市,下沙,细颗粒物(PM2.5),93,88,52,69,35,78,72,22,22,33,56,11,6,0.9,0.7
2023-03-01T13:00:00,1227A,120.1269,30.2456,杭州市,卧龙桥,细颗粒物(PM2.5),64,56,30,46,22,90,90,28,28,24,25,8,6,0.8,0.7
2023-03-01T13:00:00,1228A,120.1903,30.2692,杭州市,浙江农大,细颗粒物(PM2.5),84,62,38,62,30,96,83,34,34,32,34,7,7,0.5,0.6
2023-03-01T13:00:00,1230A,120.1197,30.3119,杭州市,和睦小学,,,79,52,56,34,93,74,21,19,27,38,6,5,,0.9
2023-03-01T13:00:00,1231A,120.3019,30.4183,杭州市,临平镇,细颗粒物(PM2.5),84,82,59,62,39,98,98,35,35,24,40,12,7,0.8,0.7
2023-03-01T13:00:00,1232A,120.2697,30.1819,杭州市,城厢镇,细颗粒物(PM2.5),75,65,51,55,33,80,78,23,23,34,46,7,6,0.8,0.7
2023-03-01T13:00:00,1233A,120.0883,30.1808,杭州市,云栖,细颗粒物(PM2.5),80,56,24,59,21,97,87,27,27,21,19,7,6,0.6,0.5
2023-03-01T13:00:00,1234A,121.8358,29.911,宁波市,区环保大楼,,,51,46,37,28,103,87,80,26,34,43,,7,0.5,0.5
2023-03-01T13:00:00,1235A,121.56,29.82,宁波市,万里学院,细颗粒物(PM2.5),57,60,61,40,44,108,105,48,48,24,39,8,7,0.6,0.5
2023-03-01T13:00:00,1236A,121.713,29.9572,宁波市,龙赛医院,,,80,55,39,25,105,71,39,27,46,43,9,7,,0.9
2023-03-01T13:00:00,1239A,121.633,29.7733,宁波市,钱湖水厂,细颗粒物(PM2.5),65,58,49,47,36,130,130,67,40,27,22,8,6,0.6,0.5
2023-03-01T13:00:00,1240A,121.5856,29.8635,宁波市,太古小学,,43,38,54,30,47,109,109,41,41,16,34,8,8,0.7,0.7
2023-03-01T13:00:00,1241A,121.524,29.8674,宁波市,市环境监测中心,,,48,55,25,35,95,91,29,29,24,40,8,6,,0.4
2023-03-01T13:00:00,1242A,120.634,28.0089,温州市,瓯海,,50,50,65,26,33,104,83,31,31,26,42,7,7,0.4,0.5
2023-03-01T13:00:00,1243A,120.6748,27.9939,温州市,南浦,,39,39,52,19,23,110,82,34,34,18,39,6,6,0.5,0.5
2023-03-01T13:00:00,1244A,120.76,27.9747,温州市,龙湾,颗粒物(PM10),52,54,64,26,27,88,57,24,24,37,50,8,8,0.4,0.4
2023-03-01T13:00:00,1245A,120.6709,28.0167,温州市,市站,颗粒物(PM10),51,52,65,22,27,105,80,35,35,25,46,7,6,0.6,0.6
2023-03-01T13:00:00,1247A,120.6053,29.9928,绍兴市,城东开发委,细颗粒物(PM2.5),74,81,59,54,35,110,73,32,32,47,52,11,6,0.9,0.7
2023-03-01T13:00:00,1250A,120.0751,30.8669,湖州市,城西水厂,细颗粒物(PM2.5),99,65,45,74,50,85,58,23,23,41,57,15,8,0.8,0.6
2023-03-01T13:00:00,1252A,120.7436,30.778,嘉兴市,清河小学,细颗粒物(PM2.5),104,92,82,78,60,87,72,34,34,30,50,14,7,0.9,0.5
2023-03-01T13:00:00,1253A,120.726,30.7478,嘉兴市,嘉兴学院,细颗粒物(PM2.5),112,102,81,84,56,97,76,46,46,33,47,13,6,0.9,0.6
2023-03-01T13:00:00,1255A,121.273,28.6459,台州市,黄岩环保大楼,,,,43,38,28,136,,48,28,12,23,,8,0.4,0.4
2023-03-01T13:00:00,1256A,121.419,28.6542,台州市,台州环保大楼,,38,30,38,26,27,111,106,55,55,11,23,5,5,0.4,0.4
2023-03-01T13:00:00,1257A,121.377,28.5773,台州市,路桥田洋王,,50,38,37,35,33,125,91,44,44,13,21,8,9,0.4,0.5
2023-03-01T13:00:00,1258A,122.122,30.0203,舟山市,定海檀枫,,49,49,37,27,16,100,100,66,48,30,30,8,5,0.6,0.5
2023-03-01T13:00:00,1259A,122.3094,29.9558,舟山市,普陀东港,细颗粒物(PM2.5),60,66,38,43,27,90,90,74,50,23,22,6,6,0.5,0.5
2023-03-01T13:00:00,1260A,122.19,29.9944,舟山市,临城新区,,40,40,38,25,20,105,105,69,47,23,33,6,6,0.6,0.4
2023-03-01T13:00:00,1262A,119.647,29.077,金华市,十五中,细颗粒物(PM2.5),92,74,75,68,59,77,54,24,24,44,55,20,21,0.7,0.8
2023-03-01T13:00:00,1263A,119.686,29.1029,金华市,监测站,细颗粒物(PM2.5),89,70,68,66,54,82,54,23,23,45,57,20,15,1.0,0.9
2023-03-01T13:00:00,1264A,118.8692,28.9398,衢州市,环保大楼,细颗粒物(PM2.5),68,67,87,49,63,55,55,16,16,34,54,11,14,0.7,0.8
2023-03-01T13:00:00,1265A,118.8709,28.9666,衢州市,实验学校,,,82,82,49,47,43,36,10,10,,52,,8,0.6,0.7
2023-03-01T13:00:00,1266A,118.8621,28.9808,衢州市,衢州学院,细颗粒物(PM2.5),79,83,80,58,49,37,21,8,8,59,55,11,9,0.7,0.7
2023-03-01T13:00:00,1267A,119.914,28.4514,丽水市,监测站大楼,颗粒物(PM10),53,56,69,36,40,109,109,48,48,15,39,10,10,0.4,0.8
2023-03-01T13:00:00,1268A,119.93,28.4586,丽水市,莲都小学,颗粒物(PM10),61,72,77,37,32,110,110,47,47,21,49,9,8,0.4,0.5
2023-03-01T13:00:00,1269A,119.879,28.4231,丽水市,余庄前,颗粒物(PM10),51,51,45,30,26,112,112,41,41,16,34,11,9,0.3,0.3
2023-03-01T13:00:00,1270A,117.1959,31.7848,合肥市,明珠广场,细颗粒物(PM2.5),98,129,105,73,57,128,128,47,47,27,62,15,9,0.9,1
2023-03-01T13:00:00,1271A,117.3072,31.8764,合肥市,三里街,细颗粒物(PM2.5),98,129,108,73,58,115,115,44,44,26,68,10,8,0.8,1
2023-03-01T13:00:00,1272A,117.2588,31.8707,合肥市,琥珀山庄,细颗粒物(PM2.5),98,132,98,73,54,120,120,48,48,32,63,9,6,0.7,0.8
2023-03-01T13:00:00,1273A,117.1604,31.9052,合肥市,董铺水库,细颗粒物(PM2.5),119,134,101,90,57,118,118,51,51,18,49,7,6,0.5,0.5
2023-03-01T13:00:00,1274A,117.25,31.8571,合肥市,长江中路,细颗粒物(PM2.5),140,129,100,107,71,120,120,47,47,22,61,16,13,1.0,1.1
2023-03-01T13:00:00,1275A,117.266,31.9436,合肥市,庐阳区,细颗粒物(PM2.5),117,127,107,88,59,116,116,50,50,21,61,10,10,0.7,0.7
2023-03-01T13:00:00,1276A,117.336,31.8586,合肥市,瑶海区,细颗粒物(PM2.5),124,136,115,94,63,116,116,45,45,22,66,10,9,0.7,0.9
2023-03-01T13:00:00,1277A,117.3027,31.7964,合肥市,包河区,细颗粒物(PM2.5),98,124,95,73,56,116,116,44,44,28,53,14,13,1.0,1
2023-03-01T13:00:00,1278A,117.2776,31.7385,合肥市,滨湖新区,细颗粒物(PM2.5),100,132,97,75,54,118,118,44,44,28,51,11,10,1.1,1
2023-03-01T13:00:00,1279A,117.1318,31.8403,合肥市,高新区,细颗粒物(PM2.5),117,127,99,88,61,122,122,66,66,26,55,11,9,1.0,1
2023-03-01T13:00:00,1280A,119.3903,26.0543,福州市,鼓山,,,,,,,,,,,,,,,,
2023-03-01T13:00:00,1282A,119.2681,26.0504,福州市,师大,,33,33,47,17,21,109,101,48,48,13,29,7,7,0.4,0.5
2023-03-01T13:00:00,1283A,119.2984,26.1028,福州市,五四北路,,32,22,47,15,22,110,101,44,44,9,31,4,4,0.4,0.5
2023-03-01T13:00:00,1284A,119.2648,26.0768,福州市,杨桥西路,,30,27,46,17,21,106,95,44,44,10,28,6,5,0.4,0.5
2023-03-01T13:00:00,1285A,119.317,26.0746,福州市,紫阳,,37,37,50,16,21,107,95,40,40,14,31,4,4,0.4,0.5
2023-03-01T13:00:00,1286A,118.1608,24.8169,厦门市,溪东,,,,,,,,,,,,,,,,
2023-03-01T13:00:00,1287A,118.1514,24.4767,厦门市,洪文,细颗粒物(PM2.5),73,68,53,53,34,132,86,42,42,43,42,7,5,0.5,0.4
2023-03-01T13:00:00,1288A,118.0661,24.4444,厦门市,鼓浪屿,细颗粒物(PM2.5),77,80,53,56,30,125,87,52,52,49,47,10,7,0.5,0.4
2023-03-01T13:00:00,1290A,115.8931,28.6843,南昌市,省外办,细颗粒物(PM2.5),78,85,75,57,50,111,111,44,44,24,39,14,13,0.7,0.5
2023-03-01T13:00:00,1291A,115.8886,28.7003,南昌市,省林业公司,,,61,62,56,50,113,113,42,42,,51,,11,0.7,0.5
2023-03-01T13:00:00,1292A,115.8126,28.7442,南昌市,林科所,细颗粒物(PM2.5),64,63,72,46,48,118,118,51,51,15,38,11,11,0.6,0.6
2023-03-01T13:00:00,1294A,115.8518,28.687,南昌市,建工学校,细颗粒物(PM2.5),77,88,85,56,46,111,111,49,49,17,32,10,9,0.8,0.7
2023-03-01T13:00:00,1295A,115.8921,28.6424,南昌市,象湖,,,75,58,,48,94,94,41,41,22,35,12,10,,0.8
2023-03-01T13:00:00,1296A,115.7423,28.7996,南昌市,武术学校,细颗粒物(PM2.5),58,30,37,41,33,129,129,44,44,13,14,9,5,0.6,0.5
2023-03-01T13:00:00,1298A,115.9314,28.6842,南昌市,省站,细颗粒物(PM2.5),78,103,77,57,50,118,118,51,51,19,28,13,11,1.0,0.8
2023-03-01T13:00:00,1299A,116.9862,36.6114,济南市,科干所,颗粒物(PM10),59,68,169,22,101,120,95,56,48,23,58,8,15,0.6,1.2
2023-03-01T13:00:00,1300A,116.9376,36.665,济南市,农科所,颗粒物(PM10),62,73,184,22,99,123,91,36,36,19,62,5,11,0.5,1.1
2023-03-01T13:00:00,1301A,117.1265,36.6734,济南市,开发区,颗粒物(PM10),62,73,165,21,102,116,84,38,38,16,55,10,16,0.4,1
2023-03-01T13:00:00,1303A,117.0624,36.6868,济南市,省种子仓库,,,,188,,118,125,95,40,40,13,61,9,18,0.4,1
2023-03-01T13:00:00,1304A,116.9489,36.6447,济南市,机床二厂,颗粒物(PM10),58,66,178,24,113,122,94,40,40,14,55,8,17,0.6,1.2
2023-03-01T13:00:00,1305A,117.0495,36.663,济南市,市监测站,颗粒物(PM10),58,66,168,29,109,126,94,39,39,35,69,8,16,0.5,1.1
2023-03-01T13:00:00,1306A,116.7675,36.5484,济南市,长清党校,颗粒物(PM10),64,78,186,32,110,128,96,44,42,25,67,10,16,0.8,1.2
2023-03-01T13:00:00,1307A,120.6659,36.2403,青岛市,仰口,细颗粒物(PM2.5),92,124,107,68,77,128,106,91,91,29,32,7,5,0.8,0.9
2023-03-01T13:00:00,1310A,120.4134,36.0658,青岛市,市南区东部子站,细颗粒物(PM2.5),149,207,115,114,76,118,97,69,44,52,53,15,12,1.0,1
2023-03-01T13:00:00,1311A,120.3664,36.1032,青岛市,四方区子站,细颗粒物(PM2.5),140,180,132,107,87,116,91,39,39,54,60,11,9,1.0,1
2023-03-01T13:00:00,1312A,120.2994,36.054,青岛市,市南区西部子站,细颗粒物(PM2.5),108,139,100,81,64,122,82,43,42,51,53,17,10,0.9,0.9
2023-03-01T13:00:00,1313A,120.4581,36.0858,青岛市,崂山区子站,细颗粒物(PM2.5),119,178,129,90,76,115,91,65,47,57,47,14,10,0.8,0.7
2023-03-01T13:00:00,1314A,120.1983,35.9608,青岛市,黄岛区子站,细颗粒物(PM2.5),104,141,128,78,86,116,93,47,47,55,53,13,8,0.8,0.8
2023-03-01T13:00:00,1315A,120.3999,36.3083,青岛市,城阳区子站,细颗粒物(PM2.5),119,171,149,90,78,112,108,45,45,28,71,12,7,0.8,1.1
2023-03-01T13:00:00,1316A,113.69031,34.76122,郑州市,烟厂,细颗粒物(PM2.5),114,129,132,86,102,139,75,82,39,44,40,15,12,1.0,0.9
2023-03-01T13:00:00,1317A,113.65724,34.77134,郑州市,郑纺机,细颗粒物(PM2.5),114,127,132,86,104,141,81,81,30,48,50,13,9,0.9,0.9
2023-03-01T13:00:00,1318A,113.67526,34.80246,郑州市,银行学校,细颗粒物(PM2.5),175,120,143,132,114,136,74,75,37,46,44,15,11,0.8,0.8
2023-03-01T13:00:00,1319A,113.56746,34.81334,郑州市,供水公司,细颗粒物(PM2.5),100,142,144,75,106,141,92,82,39,30,38,13,10,0.7,1
2023-03-01T13:00:00,1320A,113.7329,34.7178,郑州市,经开区管委,细颗粒物(PM2.5),108,118,134,81,102,139,81,80,36,37,38,15,13,0.6,0.7
2023-03-01T13:00:00,1321A,113.73961,34.77172,郑州市,四十七中,细颗粒物(PM2.5),119,120,146,90,112,126,72,70,41,38,34,13,10,0.8,0.9
2023-03-01T13:00:00,1322A,113.60532,34.74838,郑州市,市监测站,细颗粒物(PM2.5),109,127,151,82,109,146,92,85,33,26,38,16,12,0.9,0.9
2023-03-01T13:00:00,1323A,113.64164,34.7525,郑州市,河医大,细颗粒物(PM2.5),123,132,148,93,109,134,73,61,31,43,42,12,9,1.0,0.9
2023-03-01T13:00:00,1324A,113.51488,34.91089,郑州市,岗李水库,,,,,,,,,,,,,,,,
2023-03-01T13:00:00,1325A,114.3677,30.5584,武汉市,东湖梨园,细颗粒物(PM2.5),129,120,96,98,69,123,123,39,39,29,71,12,10,0.8,1
2023-03-01T13:00:00,1326A,114.2529,30.558,武汉市,汉阳月湖,细颗粒物(PM2.5),153,149,126,117,94,98,98,30,30,35,80,11,10,1.0,1.1
2023-03-01T13:00:00,1327A,114.282,30.6189,武汉市,汉口花桥,细颗粒物(PM2.5),113,139,121,85,78,116,116,28,28,,89,,12,0.9,1.2
2023-03-01T13:00:00,1328A,114.3025,30.5332,武汉市,武昌紫阳,细颗粒物(PM2.5),169,126,105,128,93,103,103,30,30,33,81,14,15,0.9,0.9
2023-03-01T13:00:00,1329A,114.3646,30.6217,武汉市,青山钢花,细颗粒物(PM2.5),134,136,119,102,87,126,126,33,33,21,82,14,15,1.0,1.2
2023-03-01T13:00:00,1330A,114.1566,30.4825,武汉市,沌口新区,细颗粒物(PM2.5),155,137,101,118,91,89,89,26,26,42,77,13,13,0.9,0.9
2023-03-01T13:00:00,1331A,114.3014,30.5944,武汉市,汉口江滩,细颗粒物(PM2.5),163,128,105,124,82,120,120,32,32,26,82,12,11,0.9,1
2023-03-01T13:00:00,1333A,114.135,30.6319,武汉市,吴家山,,,,135,,87,107,107,28,28,33,88,12,10,0.9,0.9
2023-03-01T13:00:00,1334A,113.8454,30.2917,武汉市,沉湖七壕,细颗粒物(PM2.5),99,117,87,74,54,102,94,45,45,30,32,14,12,1.0,0.8
2023-03-01T13:00:00,1335A,113.0833,28.2325,长沙市,经开区环保局,细颗粒物(PM2.5),122,108,86,92,72,77,77,35,35,21,41,6,3,0.6,0.6
2023-03-01T13:00:00,1336A,112.8872,28.2189,长沙市,高开区环保局,细颗粒物(PM2.5),102,114,98,76,65,92,92,55,55,18,36,10,8,0.6,0.7
2023-03-01T13:00:00,1337A,113.0792,28.2053,长沙市,马坡岭,细颗粒物(PM2.5),107,106,86,80,67,80,80,36,36,24,46,10,8,0.5,0.5
2023-03-01T13:00:00,1338A,112.9394,28.19,长沙市,湖南师范大学,细颗粒物(PM2.5),118,97,85,89,82,82,82,46,46,20,38,8,5,0.4,0.5
2023-03-01T13:00:00,1339A,113.0178,28.1322,长沙市,雨花区环保局,细颗粒物(PM2.5),109,92,82,82,70,87,87,50,50,23,46,8,6,0.6,0.7
2023-03-01T13:00:00,1340A,112.9792,28.2597,长沙市,伍家岭,,,,85,,71,91,91,47,47,20,41,9,7,0.7,1
2023-03-01T13:00:00,1341A,113.0014,28.1944,长沙市,火车新站,细颗粒物(PM2.5),109,96,83,82,69,65,65,38,38,26,45,9,8,0.6,0.7
2023-03-01T13:00:00,1342A,112.9844,28.1178,长沙市,天心区环保局,细颗粒物(PM2.5),108,97,90,81,72,85,85,45,45,23,44,6,5,0.6,0.6
2023-03-01T13:00:00,1343A,112.8908,28.1308,长沙市,湖南中医药大学,细颗粒物(PM2.5),103,99,89,77,72,94,94,55,55,21,42,8,5,0.8,0.9
2023-03-01T13:00:00,1344A,112.9581,28.3611,长沙市,沙坪,细颗粒物(PM2.5),82,85,67,60,50,94,94,57,46,19,24,9,7,0.9,0.9
2023-03-01T13:00:00,1345A,113.2347,23.1423,广州市,广雅中学,颗粒物(PM10),94,138,98,53,48,187,170,46,46,61,92,7,8,0.8,0.8
2023-03-01T13:00:00,1346A,113.2612,23.105,广州市,市五中,细颗粒物(PM2.5),93,105,85,69,54,190,187,52,52,49,74,9,11,0.8,0.9
2023-03-01T13:00:00,1348A,113.3478,23.0916,广州市,广东商学院,颗粒物(PM10),75,100,92,48,46,194,152,44,44,76,86,8,8,0.6,0.7
2023-03-01T13:00:00,1349A,113.4332,23.1047,广州市,市八十六中,颗粒物(PM10),80,110,105,57,49,194,150,40,40,42,76,8,12,0.7,0.8
2023-03-01T13:00:00,1350A,113.3505,22.9483,广州市,番禺中学,颗粒物(PM10),72,93,72,48,40,223,127,59,50,72,56,9,8,0.8,0.7
2023-03-01T13:00:00,1351A,113.2146,23.3916,广州市,花都师范,,,102,109,58,56,206,199,59,59,38,84,,8,0.7,0.9
2023-03-01T13:00:00,1352A,113.2597,23.1331,广州市,市监测站,臭氧1小时,87,96,85,51,45,189,189,50,50,42,85,9,9,0.6,0.8
2023-03-01T13:00:00,1353A,113.5618,23.312,广州市,九龙镇镇龙,臭氧1小时,82,106,100,57,46,185,185,61,61,33,65,7,5,0.7,0.7
2023-03-01T13:00:00,1354A,113.2765,23.1544,广州市,麓湖,,,,83,,44,206,206,60,60,40,89,9,8,,0.8
2023-03-01T13:00:00,1355A,113.443,23.3035,广州市,帽峰山森林公园,臭氧1小时,105,88,63,51,31,209,209,95,95,24,35,8,8,0.6,0.6
2023-03-01T13:00:00,1356A,114.1063,22.5545,深圳市,通心岭子站,颗粒物(PM10),63,76,41,39,21,152,152,73,55,40,27,5,4,0.7,0.6
2023-03-01T13:00:00,1357A,114.117,22.5625,深圳市,洪湖,臭氧1小时,93,95,57,56,27,194,194,60,60,36,39,9,8,0.7,0.6
2023-03-01T13:00:00,1358A,113.987,22.5417,深圳市,华侨城,细颗粒物(PM2.5),67,82,50,48,26,118,104,70,46,65,41,9,7,0.7,0.6
2023-03-01T13:00:00,1359A,113.9181,22.5171,深圳市,南海子站,颗粒物(PM10),88,126,67,40,26,115,115,73,57,69,45,6,5,0.8,0.7
2023-03-01T13:00:00,1360A,114.2458,22.5689,深圳市,盐田,颗粒物(PM10),51,52,34,28,15,129,129,76,76,37,32,8,7,0.7,0.6
2023-03-01T13:00:00,1361A,114.2283,22.7244,深圳市,龙岗,臭氧1小时,84,77,59,33,27,187,187,82,72,17,32,6,4,0.5,0.5
2023-03-01T13:00:00,1363A,114.494,22.5422,深圳市,南澳,,48,44,28,21,12,153,153,80,80,21,13,10,7,0.6,0.6
2023-03-01T13:00:00,1364A,114.41,22.6342,深圳市,葵涌,颗粒物(PM10),51,52,36,25,14,143,124,74,74,34,19,8,6,0.6,0.6
2023-03-01T13:00:00,1365A,114.297,22.5978,深圳市,梅沙,颗粒物(PM10),51,52,36,29,17,144,144,91,89,40,15,8,5,0.7,0.6
2023-03-01T13:00:00,1366A,114.0678,22.738,深圳市,观澜,臭氧1小时,103,93,76,50,33,205,205,78,78,34,45,9,8,0.7,0.7
2023-03-01T13:00:00,1367A,113.5814,22.2618,珠海市,吉大,细颗粒物(PM2.5),64,58,37,46,24,169,169,96,75,34,24,6,4,0.7,0.6
2023-03-01T13:00:00,1368A,113.4881,22.2335,珠海市,前山,,,,53,,20,146,146,46,46,38,48,,4,0.5,0.5
2023-03-01T13:00:00,1369A,113.628,22.4251,珠海市,唐家,细颗粒物(PM2.5),99,69,38,74,26,173,173,69,69,56,26,12,4,0.4,0.2
2023-03-01T13:00:00,1370A,113.299,22.2281,珠海市,斗门,臭氧1小时,63,58,46,29,27,170,170,74,72,24,24,8,5,0.4,0.3
2023-03-01T13:00:00,1371A,113.1294,23.0067,佛山市,湾梁,颗粒物(PM10),92,134,83,60,35,218,182,61,61,70,74,6,5,0.8,0.7
2023-03-01T13:00:00,1372A,113.1083,23.0478,佛山市,华材职中,臭氧1小时,104,,80,46,48,233,207,67,67,,67,14,8,0.5,0.5
2023-03-01T13:00:00,1373A,113.144,23.0453,佛山市,南海气象局,细颗粒物(PM2.5),79,97,71,58,40,205,151,41,41,81,78,4,3,0.8,0.7
2023-03-01T13:00:00,1374A,113.2881,22.8094,佛山市,顺德苏岗,颗粒物(PM10),54,58,53,36,28,190,151,54,54,44,49,12,10,0.6,0.6
2023-03-01T13:00:00,1376A,112.8383,22.8678,佛山市,高明孔堂,细颗粒物(PM2.5),110,113,71,83,43,204,204,85,85,45,33,18,8,,0.5
2023-03-01T13:00:00,1377A,112.8836,23.1588,佛山市,三水监测站,臭氧1小时,108,112,123,58,62,216,216,75,75,36,94,14,11,0.7,0.8
2023-03-01T13:00:00,1378A,112.867,23.185,佛山市,三水云东海,,,,94,,,79,,79,,,59,,7,,0.8
2023-03-01T13:00:00,1379A,113.3769,22.5211,中山市,华柏园,臭氧1小时,113,102,49,64,29,226,226,75,75,37,29,14,8,0.7,0.6
2023-03-01T13:00:00,1380A,113.3881,22.5497,中山市,张溪,细颗粒物(PM2.5),105,125,66,79,36,201,201,68,68,45,44,11,6,0.6,0.5
2023-03-01T13:00:00,1381A,113.4075,22.5111,中山市,紫马岭,臭氧1小时,103,98,41,47,24,205,205,72,72,33,26,13,6,0.6,0.4
2023-03-01T13:00:00,1382A,113.4411,22.4853,中山市,长江旅游区,细颗粒物(PM2.5),109,84,32,82,24,179,179,67,67,43,18,20,11,0.5,0.3
2023-03-01T13:00:00,1383A,113.1064,22.6058,江门市,北街,臭氧1小时,75,83,50,50,27,180,180,75,75,34,33,11,8,0.5,0.5
2023-03-01T13:00:00,1384A,113.0731,22.5835,江门市,西区,臭氧1小时,102,84,65,53,35,204,204,80,71,28,44,10,7,0.5,0.6
2023-03-01T13:00:00,1385A,113.0219,22.5311,江门市,圭峰西,臭氧1小时,95,80,56,46,36,196,196,96,96,31,32,9,6,0.5,0.5
2023-03-01T13:00:00,1386A,113.0828,22.5947,江门市,东湖,臭氧1小时,104,82,61,59,34,208,208,82,77,29,33,9,7,0.5,0.6
2023-03-01T13:00:00,1389A,113.7547,23.0494,东莞市,莞城梨川,臭氧1小时,80,82,84,42,42,192,184,69,69,35,64,14,12,0.8,0.8
2023-03-01T13:00:00,1390A,113.7944,23.0128,东莞市,东城石井,臭氧1小时,98,78,67,46,36,218,198,72,72,40,50,14,10,0.7,0.7
2023-03-01T13:00:00,1391A,113.7383,22.9658,东莞市,南城西平,臭氧1小时,72,86,79,41,34,196,177,61,61,38,58,12,10,0.6,0.6
2023-03-01T13:00:00,1392A,114.4183,23.0528,惠州市,河南岸金山湖子站,颗粒物(PM10),62,73,63,41,34,138,138,68,60,26,31,7,6,0.5,0.5
2023-03-01T13:00:00,1393A,114.4053,23.0822,惠州市,下埔横江三路子站,颗粒物(PM10),66,82,57,42,33,155,155,82,76,30,29,7,7,0.6,0.4
2023-03-01T13:00:00,1394A,114.4103,23.1142,惠州市,江北云山西路子站,颗粒物(PM10),63,76,53,44,37,150,150,67,59,33,32,8,7,0.5,0.4
2023-03-01T13:00:00,1395A,114.4645,22.7833,惠州市,惠阳区承修路船湖子站,颗粒物(PM10),53,56,51,28,26,158,158,79,71,19,34,6,6,0.6,0.7
2023-03-01T13:00:00,1396A,114.5317,22.7422,惠州市,大亚湾管委会子站,颗粒物(PM10),55,60,72,23,26,121,121,45,45,18,42,6,5,0.7,0.7
2023-03-01T13:00:00,1397A,112.4267,23.0706,肇庆市,睦岗子站,臭氧1小时,105,73,70,39,36,209,209,79,79,32,63,15,13,0.6,0.6
2023-03-01T13:00:00,1398A,112.4645,23.0475,肇庆市,城中子站,臭氧1小时,107,77,77,43,43,213,213,76,76,28,69,13,12,0.5,0.6
2023-03-01T13:00:00,1399A,112.5544,23.1522,肇庆市,坑口子站,臭氧1小时,104,92,60,59,38,207,207,114,100,34,37,21,11,0.5,0.5
2023-03-01T13:00:00,1400A,112.4753,23.1,肇庆市,七星岩子站,,,,,,,,,,,,,,,,
2023-03-01T13:00:00,1401A,108.3103,22.7881,南宁市,二十一中,颗粒物(PM10),51,51,48,28,28,149,94,74,74,14,18,6,8,0.8,0.8
2023-03-01T13:00:00,1402A,108.3141,22.8528,南宁市,北湖,,48,48,59,29,34,146,86,50,50,15,27,7,10,0.6,0.8
2023-03-01T13:00:00,1403A,108.3206,22.8225,南宁市,市监测站,颗粒物(PM10),59,68,54,29,32,142,89,64,64,23,31,7,9,0.7,0.8
2023-03-01T13:00:00,1404A,108.3829,22.8037,南宁市,大自然花园,颗粒物(PM10),53,56,49,25,28,135,88,72,64,12,18,6,7,0.6,0.7
2023-03-01T13:00:00,1405A,108.4394,22.7904,南宁市,仙葫,颗粒物(PM10),58,65,51,32,30,139,89,80,56,18,20,7,8,0.4,0.4
2023-03-01T13:00:00,1406A,108.2397,22.8467,南宁市,区农职院,颗粒物(PM10),52,54,58,31,31,143,88,74,38,23,40,7,9,0.7,0.8
2023-03-01T13:00:00,1407A,108.3275,22.735,南宁市,英华嘉园,,48,48,51,31,33,134,83,64,64,18,25,6,7,0.7,0.8
2023-03-01T13:00:00,1408A,108.2257,22.7757,南宁市,沙井镇街道办,,46,41,68,32,30,133,90,90,90,17,42,5,9,0.6,0.4
2023-03-01T13:00:00,1409A,110.576,19.9507,海口市,东寨港,,,26,28,18,15,71,66,48,48,,,5,5,0.5,0.6
2023-03-01T13:00:00,1410A,110.3232,20.0574,海口市,海南大学,,35,27,36,18,16,109,109,94,94,5,9,5,5,0.5,0.5
2023-03-01T13:00:00,1411A,110.283,20.0053,海口市,秀英海南医院,,38,38,36,14,14,105,105,88,88,5,9,4,4,0.6,0.6
2023-03-01T13:00:00,1412A,110.338,19.9969,海口市,海南师范大学,,,,30,8,11,104,,103,103,6,9,3,3,0.5,0.3
2023-03-01T13:00:00,1413A,110.33,20.0356,海口市,龙华路环保局宿舍,,35,35,35,16,16,104,104,86,86,7,8,6,5,0.6,0.6
2023-03-01T13:00:00,1414A,106.3787,29.8279,重庆市,缙云山,细颗粒物(PM2.5),63,50,64,45,45,115,64,98,68,14,15,6,8,0.6,0.7
2023-03-01T13:00:00,1416A,106.4213,29.8253,重庆市,天生,细颗粒物(PM2.5),102,117,96,76,69,85,8,7,7,51,46,14,16,1.0,0.8
2023-03-01T13:00:00,1417A,106.6263,29.7228,重庆市,两路,细颗粒物(PM2.5),87,102,88,64,64,85,47,27,20,31,45,12,11,0.9,1
2023-03-01T13:00:00,1418A,106.2953,29.5983,重庆市,虎溪,细颗粒物(PM2.5),89,72,76,66,66,112,28,24,24,43,49,6,10,0.9,0.8
2023-03-01T13:00:00,1419A,106.5777,29.5102,重庆市,南坪,细颗粒物(PM2.5),142,154,103,108,73,76,18,18,18,57,52,17,11,0.8,0.7
2023-03-01T13:00:00,1420A,106.6556,29.6277,重庆市,唐家沱,细颗粒物(PM2.5),102,114,92,76,69,51,6,5,5,57,58,7,8,1.2,1
2023-03-01T13:00:00,1421A,106.6349,29.4906,重庆市,茶园,细颗粒物(PM2.5),133,133,112,101,75,44,24,12,12,50,63,11,7,1.2,1.3
2023-03-01T13:00:00,1422A,106.3754,29.4572,重庆市,白市驿,细颗粒物(PM2.5),112,,91,84,67,120,30,20,20,59,48,,12,,0.7
2023-03-01T13:00:00,1425A,106.6205,29.7166,重庆市,空港,细颗粒物(PM2.5),100,89,89,75,66,93,58,46,22,37,49,11,11,0.9,0.8
2023-03-01T13:00:00,1426A,106.4782,29.4875,重庆市,新山村,细颗粒物(PM2.5),163,163,114,124,78,73,13,8,8,74,77,18,14,1.0,0.9
2023-03-01T13:00:00,1427A,106.5616,29.6453,重庆市,礼嘉,,,,117,,64,74,62,17,17,,64,10,11,,1
2023-03-01T13:00:00,1428A,106.4522,29.7091,重庆市,蔡家,细颗粒物(PM2.5),83,107,100,61,59,100,27,19,19,45,42,9,10,0.8,0.8
2023-03-01T13:00:00,1429A,106.5093,29.3917,重庆市,鱼新街,细颗粒物(PM2.5),156,163,108,119,82,109,18,27,10,70,61,34,16,1.3,1.2
2023-03-01T13:00:00,1431A,103.9728,30.7236,成都市,金泉两河,,,75,88,8,52,80,80,36,36,,46,1,4,0.4,0.7
2023-03-01T13:00:00,1432A,104.176,30.6872,成都市,十里店,颗粒物(PM10),60,69,96,12,53,70,70,28,28,26,56,5,5,0.6,0.8
2023-03-01T13:00:00,1433A,104.079,30.5706,成都市,三瓦窑,颗粒物(PM10),64,77,90,11,46,72,69,39,39,29,46,2,2,0.4,0.5
2023-03-01T13:00:00,1434A,104.1114,30.63,成都市,沙河铺,颗粒物(PM10),61,72,91,24,51,70,70,33,33,27,47,5,5,0.4,0.6
2023-03-01T13:00:00,1437A,104.0786,30.6531,成都市,君平街,颗粒物(PM10),63,75,91,25,54,84,84,47,47,20,52,4,6,0.5,0.7
2023-03-01T13:00:00,1438A,103.613,31.0283,成都市,灵岩寺,,39,39,49,17,31,87,86,79,78,13,17,5,6,0.2,0.4
2023-03-01T13:00:00,1439A,106.6899,26.5998,贵阳市,马鞍山,细颗粒物(PM2.5),58,48,81,41,66,139,76,94,63,20,19,6,9,0.8,0.8
2023-03-01T13:00:00,1440A,106.6971,26.5694,贵阳市,市环保站,细颗粒物(PM2.5),63,48,85,45,78,141,72,110,63,24,23,6,11,0.5,0.5
2023-03-01T13:00:00,1441A,106.6243,26.6266,贵阳市,鉴湖路,,41,41,88,27,60,129,73,103,64,19,19,5,9,0.8,0.7
2023-03-01T13:00:00,1442A,106.7487,26.6343,贵阳市,燕子冲,细颗粒物(PM2.5),77,63,92,56,81,137,66,101,61,20,19,4,10,0.6,0.6
2023-03-01T13:00:00,1443A,106.6555,26.4365,贵阳市,碧云窝,,,,94,,65,148,61,106,69,28,20,13,14,0.8,0.7
2023-03-01T13:00:00,1444A,106.694,26.5161,贵阳市,中院村,细颗粒物(PM2.5),58,63,94,41,68,139,70,98,64,22,24,16,16,0.7,0.7
2023-03-01T13:00:00,1445A,106.7109,26.6027,贵阳市,红边门,,,58,90,,84,139,77,102,71,21,23,12,14,0.7,0.7
2023-03-01T13:00:00,1446A,106.7164,26.5699,贵阳市,新华路,细颗粒物(PM2.5),70,53,86,51,71,136,69,104,65,19,17,8,11,0.6,0.6
2023-03-01T13:00:00,1447A,106.674,26.5424,贵阳市,太慈桥,"颗粒物(PM10),细颗粒物(PM2.5)",58,66,94,41,62,143,76,105,80,22,20,5,9,0.6,0.6
2023-03-01T13:00:00,1450A,102.8204,24.8886,昆明市,呈贡新区,,,,45,,34,126,,92,67,10,23,8,7,,0.7
2023-03-01T13:00:00,1451A,102.6251,24.9608,昆明市,西山森林公园,,,36,29,32,29,126,126,103,103,,11,6,7,,0.8
2023-03-01T13:00:00,1452A,102.7252,25.0902,昆明市,龙泉镇,,38,30,54,22,34,119,119,74,74,6,41,8,8,0.6,0.8
2023-03-01T13:00:00,1453A,102.7266,25.0375,昆明市,东风东路,,40,40,47,26,33,118,118,85,79,13,28,6,8,0.6,0.8
2023-03-01T13:00:00,1454A,102.6742,25.0669,昆明市,金鼎山,,39,39,49,23,34,118,118,86,86,10,25,5,5,0.5,0.6
2023-03-01T13:00:00,1455A,102.6644,25.0401,昆明市,碧鸡广场,,38,35,52,24,34,121,121,74,74,8,35,5,6,0.3,0.5
2023-03-01T13:00:00,1456A,91.1319,29.6514,拉萨市,八廓街,,26,18,18,15,8,98,83,82,73,12,13,3,4,0.4,0.4
2023-03-01T13:00:00,1457A,91.1221,29.6747,拉萨市,市环保局,,28,14,11,6,6,115,88,82,74,11,12,5,5,0.3,0.3
2023-03-01T13:00:00,1458A,91.0874,29.6475,拉萨市,区监测站,,,18,13,6,5,110,95,93,82,13,11,,6,0.8,0.6
2023-03-01T13:00:00,1459A,91.1774,29.6541,拉萨市,西藏大学,,29,12,10,5,4,102,90,85,78,9,10,2,3,0.6,0.4
2023-03-01T13:00:00,1460A,90.9798,29.6588,拉萨市,区辐射站,,30,30,18,17,9,110,86,62,54,18,19,7,6,0.5,0.5
2023-03-01T13:00:00,1461A,91.0834,29.6292,拉萨市,拉萨火车站,,28,18,13,14,6,104,87,84,71,11,10,5,5,0.3,0.3
2023-03-01T13:00:00,1462A,108.882,34.2749,西安市,高压开关厂,颗粒物(PM10),85,120,156,29,49,93,64,27,27,30,53,10,12,0.5,0.7
2023-03-01T13:00:00,1463A,108.993,34.2629,西安市,兴庆小区,颗粒物(PM10),90,129,143,23,39,86,67,34,26,27,47,8,18,0.4,0.8
2023-03-01T13:00:00,1464A,109.06,34.2572,西安市,纺织城,,,,179,,39,86,73,24,24,24,58,8,7,0.4,0.7
2023-03-01T13:00:00,1465A,108.9356,34.2173,西安市,小寨,,,107,120,28,43,86,57,24,23,,52,8,8,0.2,0.6
2023-03-01T13:00:00,1466A,108.954,34.2713,西安市,市人民体育场,颗粒物(PM10),102,153,152,24,47,82,61,24,24,30,55,10,11,0.3,0.7
2023-03-01T13:00:00,1467A,108.8922,34.2322,西安市,高新西区,颗粒物(PM10),90,129,151,32,46,94,49,22,22,40,47,10,10,0.5,0.6
2023-03-01T13:00:00,1468A,108.935,34.3474,西安市,经开区,颗粒物(PM10),88,126,154,23,44,87,57,44,23,30,48,6,7,0.3,0.6
2023-03-01T13:00:00,1469A,108.906,34.1546,西安市,长安区,颗粒物(PM10),113,176,182,37,41,86,54,22,22,31,48,10,9,0.4,0.5
2023-03-01T13:00:00,1471A,109.2186,34.3731,西安市,临潼区,颗粒物(PM10),83,115,131,16,25,90,84,71,71,15,25,9,10,0.3,0.4
2023-03-01T13:00:00,1472A,108.869,34.378,西安市,草滩,颗粒物(PM10),86,121,162,8,37,70,61,20,20,15,48,11,12,0.0,0.1
2023-03-01T13:00:00,1473A,108.985,34.1978,西安市,曲江文化产业集团,颗粒物(PM10),96,142,169,24,38,91,58,21,21,32,54,6,6,0.5,0.7
2023-03-01T13:00:00,1474A,109.051,34.3213,西安市,广运潭,颗粒物(PM10),86,122,159,21,36,80,67,23,23,22,54,7,9,0.6,0.9
2023-03-01T13:00:00,1476A,103.631,36.1031,兰州市,兰炼宾馆,,,95,107,41,36,105,102,53,47,,29,23,18,1.1,0.6
2023-03-01T13:00:00,1477A,104.1373,35.9454,兰州市,榆中兰大校区,,,,,,,,,,,,,,,,
2023-03-01T13:00:00,1478A,103.8412,36.0726,兰州市,生物制品所,颗粒物(PM10),57,64,83,38,32,103,68,28,24,34,35,10,6,1.2,0.8
2023-03-01T13:00:00,1479A,103.831,36.0464,兰州市,铁路设计院,颗粒物(PM10),65,79,82,38,36,100,64,42,28,41,38,13,8,1.4,1
2023-03-01T13:00:00,1483A,101.524,36.6867,西宁市,第五水厂,,,,,,,,,,,,,,,,
2023-03-01T13:00:00,1484A,105.9512,38.6016,银川市,贺兰山马莲口,颗粒物(PM10),104,158,154,30,43,99,90,78,78,15,16,16,15,0.2,0.2
2023-03-01T13:00:00,1488A,106.2328,38.4975,银川市,贺兰山东路,颗粒物(PM10),136,222,241,45,52,91,75,54,33,21,37,12,9,0.5,0.6
2023-03-01T13:00:00,1489A,106.1358,38.5036,银川市,学院路,颗粒物(PM10),133,215,246,35,42,102,72,32,32,22,47,10,13,0.8,0.9
2023-03-01T13:00:00,1490A,87.5801,43.8303,乌鲁木齐市,监测站,细颗粒物(PM2.5),127,124,99,96,72,85,52,28,11,52,68,8,4,1.7,1.5
2023-03-01T13:00:00,1491A,87.6046,43.768,乌鲁木齐市,收费所,,,,135,,85,27,,27,,,64,,2,,1.2
2023-03-01T13:00:00,1492A,87.4754,43.9469,乌鲁木齐市,新疆农科院农场,细颗粒物(PM2.5),125,89,69,95,66,104,49,34,13,44,52,9,10,1.2,1.1
2023-03-01T13:00:00,1493A,87.5525,43.8711,乌鲁木齐市,铁路局,细颗粒物(PM2.5),134,120,81,102,70,95,38,13,13,59,56,6,4,1.8,1.2
2023-03-01T13:00:00,1494A,87.6432,43.831,乌鲁木齐市,三十一中学,细颗粒物(PM2.5),122,127,112,92,85,90,79,64,24,19,43,10,6,1.1,1.1
2023-03-01T13:00:00,1496A,87.7216,44.1747,乌鲁木齐市,米东区环保局,,,,116,,95,36,,31,,,51,,12,,1.1
2023-03-01T13:00:00,1508A,112.9433,27.8614,湘潭市,板塘,细颗粒物(PM2.5),95,84,75,71,74,84,84,50,50,17,40,8,7,0.6,0.7
2023-03-01T13:00:00,1511A,112.9118,27.8403,湘潭市,市监测站,细颗粒物(PM2.5),90,83,78,67,66,85,85,48,48,26,46,10,9,0.7,0.7
2023-03-01T13:00:00,1512A,112.8937,27.8728,湘潭市,江麓,细颗粒物(PM2.5),92,82,80,68,70,103,103,63,63,13,30,11,12,0.6,0.7
2023-03-01T13:00:00,1513A,112.9227,27.8159,湘潭市,岳塘,,,,82,,69,89,89,49,49,,47,9,9,,0.7
2023-03-01T13:00:00,1514A,112.9074,27.9119,湘潭市,科大,细颗粒物(PM2.5),97,83,84,72,72,88,88,50,50,13,38,9,6,0.7,0.7
2023-03-01T13:00:00,1515A,113.135,27.8244,株洲市,天台山庄,细颗粒物(PM2.5),117,92,78,88,67,97,70,44,44,36,43,7,8,0.8,0.8
2023-03-01T13:00:00,1518A,113.095,27.8867,株洲市,株冶医院,细颗粒物(PM2.5),110,100,77,83,65,99,69,38,38,44,50,7,7,0.7,0.7
2023-03-01T13:00:00,1519A,113.167,27.8667,株洲市,市四中,细颗粒物(PM2.5),85,77,75,63,63,97,73,27,27,31,44,14,13,0.8,0.9
2023-03-01T13:00:00,1520A,113.143,27.8381,株洲市,火车站,细颗粒物(PM2.5),119,105,85,90,71,80,65,38,38,40,48,10,8,0.7,0.8
2023-03-01T13:00:00,1524A,113.13,27.8528,株洲市,市监测站,细颗粒物(PM2.5),130,97,77,99,73,95,65,39,39,37,44,12,12,0.7,0.7
2023-03-01T13:00:00,1552A,106.805,26.3003,贵阳市,桐木岭,,,,,,,,,,,,,,,,
2023-03-01T13:00:00,1559A,113.251,27.8336,株洲市,大京风景区,细颗粒物(PM2.5),80,68,62,59,54,93,70,37,34,24,23,9,7,0.6,0.6
2023-03-01T13:00:00,1562A,113.0048,27.9153,湘潭市,昭山,细颗粒物(PM2.5),104,97,87,78,71,82,82,43,43,24,44,5,4,0.8,0.8
2023-03-01T13:00:00,1564A,112.4876,27.9164,湘潭市,韶山,细颗粒物(PM2.5),80,63,62,59,49,108,108,86,86,16,24,10,11,0.6,0.8
2023-03-01T13:00:00,1585A,109.8756,40.6532,包头市,市环境监测站,颗粒物(PM10),60,70,42,29,13,91,68,67,49,34,28,35,15,1.4,0.6
2023-03-01T13:00:00,1587A,109.9991,40.5842,包头市,包头八中,颗粒物(PM10),56,62,49,20,12,94,77,57,49,28,34,24,8,1.0,0.6
2023-03-01T13:00:00,1588A,109.8538,40.6821,包头市,青山宾馆,颗粒物(PM10),58,66,42,27,13,88,68,61,48,36,30,31,13,1.5,0.7
2023-03-01T13:00:00,1589A,109.8642,40.6288,包头市,惠龙物流,颗粒物(PM10),59,68,45,36,15,89,70,64,50,32,33,30,15,1.4,0.8
2023-03-01T13:00:00,1590A,110.0377,40.5546,包头市,东河鸿龙湾,颗粒物(PM10),53,56,45,16,13,90,78,52,52,19,27,23,12,0.8,0.5
2023-03-01T13:00:00,1591A,110.0023,39.8129,鄂尔多斯市,综合楼,,27,27,66,5,11,88,76,82,64,18,20,12,8,0.4,0.4
2023-03-01T13:00:00,1592A,109.9486,39.8261,鄂尔多斯市,巴音孟克林场办事处,,31,31,58,7,13,91,81,77,60,11,19,7,9,0.4,0.4
2023-03-01T13:00:00,1593A,109.7736,39.5986,鄂尔多斯市,康泽苑,,29,29,54,2,9,87,78,64,59,14,15,6,3,0.7,0.6
2023-03-01T13:00:00,1594A,109.8119,39.5989,鄂尔多斯市,华泰汽车城,,,31,57,0,15,92,76,66,45,14,17,,8,0.6,0.5
2023-03-01T13:00:00,1595A,109.9734,39.7884,鄂尔多斯市,奥林花园,,36,36,59,9,13,93,83,72,72,11,17,5,6,0.4,0.4
2023-03-01T13:00:00,1597A,122.2703,40.7094,营口市,大庆路,颗粒物(PM10),51,52,113,11,32,88,80,47,47,10,38,9,13,0.4,1
2023-03-01T13:00:00,1598A,122.2150,40.6511,营口市,镜湖西路,,27,27,63,11,17,89,85,58,58,12,26,9,12,0.5,0.7
2023-03-01T13:00:00,1599A,122.1658,40.6789,营口市,西炮台,,41,41,66,13,22,97,90,56,56,16,32,13,14,0.5,0.7
2023-03-01T13:00:00,1600A,124.3303,40.0625,丹东市,江湾东路,,26,12,77,7,57,92,82,46,46,9,30,12,14,0.6,1.7
2023-03-01T13:00:00,1601A,124.4256,40.1503,丹东市,临江后街,,25,13,78,5,50,94,80,41,41,9,31,12,13,0.4,0.9
2023-03-01T13:00:00,1602A,124.3933,40.1461,丹东市,元宝山,,24,24,67,6,43,82,75,50,50,8,24,13,15,0.6,0.9
2023-03-01T13:00:00,1603A,124.3633,40.1092,丹东市,民主桥,,23,17,72,7,44,91,73,41,41,13,35,11,11,0.5,1.1
2023-03-01T13:00:00,1604A,122.0303,41.1489,盘锦市,开发区,,32,32,50,13,12,89,80,71,64,6,20,9,8,0.4,0.5
2023-03-01T13:00:00,1605A,122.0485,41.0883,盘锦市,兴隆台,,27,27,49,14,14,81,76,68,55,11,18,12,10,0.3,0.4
2023-03-01T13:00:00,1606A,121.8297,41.1028,盘锦市,新生街道,颗粒物(PM10),56,61,70,23,28,87,77,35,35,20,42,12,14,0.4,0.7
2023-03-01T13:00:00,1607A,120.9092,40.7136,葫芦岛市,龙港区,颗粒物(PM10),78,105,95,36,37,83,74,40,40,20,42,106,110,0.6,1
2023-03-01T13:00:00,1608A,120.8392,40.7514,葫芦岛市,化工街,颗粒物(PM10),54,58,86,17,34,82,73,38,38,16,53,12,21,0.7,1
2023-03-01T13:00:00,1609A,120.8341,40.7073,葫芦岛市,新区,颗粒物(PM10),61,71,89,18,43,81,74,37,37,14,56,19,35,0.3,0.8
2023-03-01T13:00:00,1610A,120.8695,40.7677,葫芦岛市,东城区,颗粒物(PM10),57,63,76,7,26,86,76,40,40,11,46,13,24,0.6,1
2023-03-01T13:00:00,1611A,118.5819,24.9117,泉州市,涂山街,,,92,74,65,42,147,147,57,57,40,39,,11,0.8,0.7
2023-03-01T13:00:00,1612A,118.5972,24.8978,泉州市,津头埔,细颗粒物(PM2.5),99,88,74,74,44,147,147,53,53,42,43,10,10,0.7,0.7
2023-03-01T13:00:00,1613A,118.6663,24.9424,泉州市,万安,细颗粒物(PM2.5),80,57,57,59,46,125,125,47,47,23,35,9,9,0.5,0.6
2023-03-01T13:00:00,1614A,118.6117,24.9604,泉州市,清源山,,,,,,,,,,,,,,,,
2023-03-01T13:00:00,1616A,117.6795,36.229,济南市,技术学院,颗粒物(PM10),78,105,171,14,112,147,101,65,57,21,51,6,14,0.5,1.2
2023-03-01T13:00:00,1618A,118.3429,35.0532,临沂市,沂河小区,细颗粒物(PM2.5),89,112,174,66,122,103,103,55,55,20,70,7,15,0.4,0.9
2023-03-01T13:00:00,1619A,118.295,35.0583,临沂市,鲁南制药厂,颗粒物(PM10),63,75,188,40,132,110,110,56,56,19,89,9,23,0.2,0.9
2023-03-01T13:00:00,1620A,118.2794,34.9976,临沂市,新光毛纺厂,颗粒物(PM10),65,80,190,41,129,102,102,52,52,17,81,6,15,0.4,1
2023-03-01T13:00:00,1621A,118.3956,35.0888,临沂市,河东保险公司,细颗粒物(PM2.5),77,92,168,56,119,112,112,57,57,18,73,11,14,0.6,1.2
2023-03-01T13:00:00,1622A,116.3032,37.4674,德州市,儿童乐园,颗粒物(PM10),85,119,146,29,84,104,96,44,44,17,54,5,10,0.4,0.9
2023-03-01T13:00:00,1624A,116.2991,37.4451,德州市,监理站,颗粒物(PM10),71,91,155,36,91,101,97,53,46,23,58,6,12,0.4,0.9
2023-03-01T13:00:00,1625A,115.9848,36.4372,聊城市,区政府,颗粒物(PM10),71,92,176,45,111,110,92,56,56,25,40,13,15,0.7,1
2023-03-01T13:00:00,1628A,118.0062,37.3803,滨州市,市环保局,颗粒物(PM10),54,58,146,23,90,115,87,61,48,13,44,6,16,0.5,0.9
2023-03-01T13:00:00,1629A,118.0018,37.3617,滨州市,第二水厂,颗粒物(PM10),54,58,149,33,91,119,90,55,51,17,48,4,15,0.3,0.8
2023-03-01T13:00:00,1630A,117.9776,37.393,滨州市,北中新校,颗粒物(PM10),54,57,147,20,87,116,91,43,43,15,51,7,14,0.3,0.8
2023-03-01T13:00:00,1631A,118.0414,36.8103,淄博市,人民公园,细颗粒物(PM2.5),77,70,163,56,127,138,95,60,41,19,54,13,25,0.5,1
2023-03-01T13:00:00,1633A,117.8525,36.4847,淄博市,双山,颗粒物(PM10),55,59,167,24,121,138,90,39,39,14,57,9,17,0.5,1.1
2023-03-01T13:00:00,1634A,117.9592,36.6331,淄博市,气象站,颗粒物(PM10),74,97,192,41,119,142,94,45,42,31,62,24,25,0.8,1.1
2023-03-01T13:00:00,1635A,118.3092,36.8194,淄博市,莆田园,颗粒物(PM10),56,61,144,29,103,120,34,54,32,73,64,8,19,0.9,1.1
2023-03-01T13:00:00,1637A,117.558,34.8438,枣庄市,市中区政府,颗粒物(PM10),62,73,181,22,107,112,112,55,55,19,70,7,14,0.7,1.3
2023-03-01T13:00:00,1638A,117.2852,34.7837,枣庄市,薛城环保局,颗粒物(PM10),66,81,132,34,90,113,113,85,85,32,71,10,15,0.6,1.1
2023-03-01T13:00:00,1639A,117.5852,34.7745,枣庄市,峄城区政府,颗粒物(PM10),60,70,167,12,96,112,111,71,71,47,76,11,17,0.4,0.8
2023-03-01T13:00:00,1640A,117.7276,34.5578,枣庄市,台儿庄区环保局,颗粒物(PM10),62,73,179,22,110,108,108,49,49,29,80,9,13,0.9,1.4
2023-03-01T13:00:00,1641A,117.4518,35.0992,枣庄市,山亭区环保局,颗粒物(PM10),57,63,138,22,86,119,114,103,103,26,47,11,16,0.6,1
2023-03-01T13:00:00,1642A,121.2514,37.5639,烟台市,开发区,,,117,117,,86,104,73,38,38,34,53,6,11,0.4,0.6
2023-03-01T13:00:00,1643A,121.3719,37.5433,烟台市,轴承厂,细颗粒物(PM2.5),93,127,131,69,101,142,98,51,51,32,49,11,8,0.7,0.9
2023-03-01T13:00:00,1644A,121.3181,37.5436,烟台市,西郊化工站,颗粒物(PM10),91,132,137,62,84,146,94,48,48,30,50,11,17,0.9,1.1
2023-03-01T13:00:00,1645A,121.4478,37.4822,烟台市,莱山环保局,颗粒物(PM10),64,78,124,36,89,132,99,41,41,22,46,11,11,0.9,1.3
2023-03-01T13:00:00,1646A,121.2611,37.4967,烟台市,福山环保局,细颗粒物(PM2.5),73,78,133,53,91,139,92,42,42,25,53,9,10,0.8,1.3
2023-03-01T13:00:00,1650A,119.1437,36.7023,潍坊市,环保局,颗粒物(PM10),62,73,106,36,73,136,94,49,49,24,38,14,12,0.6,0.9
2023-03-01T13:00:00,1653A,116.6251,35.4302,济宁市,火炬城,细颗粒物(PM2.5),52,51,116,36,94,129,113,77,77,15,42,6,12,0.5,1
2023-03-01T13:00:00,1655A,116.5491,35.4042,济宁市,电化厂,颗粒物(PM10),64,78,134,44,100,119,107,77,77,20,42,6,11,0.5,0.9
2023-03-01T13:00:00,1656A,117.1437,36.1937,泰安市,监测站,颗粒物(PM10),57,63,127,15,100,128,98,82,80,12,32,1,6,0.7,1
2023-03-01T13:00:00,1657A,117.0885,36.2017,泰安市,人口学校,颗粒物(PM10),57,63,119,19,81,147,107,73,73,20,51,8,12,0.8,1.1
2023-03-01T13:00:00,1658A,117.1089,36.1758,泰安市,电力学校,,,68,136,17,93,134,,39,39,,70,,16,,1.3
2023-03-01T13:00:00,1659A,119.471,35.4209,日照市,监测站,颗粒物(PM10),58,66,122,28,77,100,100,79,79,17,64,8,12,0.5,1
2023-03-01T13:00:00,1660A,119.523,35.4216,日照市,市政府广场,颗粒物(PM10),63,75,120,27,80,104,100,87,87,8,36,6,8,0.6,1
2023-03-01T13:00:00,1661A,119.5587,35.4044,日照市,港务局,颗粒物(PM10),65,80,110,34,74,113,105,94,94,18,40,10,10,0.5,0.8
2023-03-01T13:00:00,1662A,122.1214,37.4236,威海市,华夏技校,细颗粒物(PM2.5),70,88,89,51,65,122,104,68,68,22,34,4,3,0.5,0.5
2023-03-01T13:00:00,1663A,122.0508,37.5236,威海市,山大分校,细颗粒物(PM2.5),110,132,111,83,82,79,65,47,37,38,39,6,4,0.6,0.6
2023-03-01T13:00:00,1664A,122.1067,37.5072,威海市,市监测站,细颗粒物(PM2.5),98,125,98,73,70,133,96,45,44,28,38,11,8,0.8,0.7
2023-03-01T13:00:00,1666A,118.6614,37.4309,东营市,市环保局,颗粒物(PM10),60,70,93,19,50,144,92,74,60,12,29,13,14,0.6,0.7
2023-03-01T13:00:00,1669A,113.5824,24.7733,韶关市,市八中,细颗粒物(PM2.5),65,64,86,47,56,218,161,57,57,16,43,23,18,0.6,0.8
2023-03-01T13:00:00,1671A,113.5917,24.7972,韶关市,园林处,细颗粒物(PM2.5),77,83,77,56,55,189,136,54,54,19,38,25,22,0.7,0.9
2023-03-01T13:00:00,1672A,113.6735,24.7791,韶关市,韶关学院,颗粒物(PM10),64,77,95,39,65,184,159,57,57,24,44,28,19,0.9,1.1
2023-03-01T13:00:00,1673A,113.5971,24.6863,韶关市,曲江监测站,"颗粒物(PM10),细颗粒物(PM2.5)",70,90,80,51,54,190,174,64,64,31,45,37,17,0.9,1
2023-03-01T13:00:00,1674A,116.6794,23.3667,汕头市,金平子站,细颗粒物(PM2.5),84,106,50,62,34,162,162,81,59,44,31,25,17,1.1,0.7
2023-03-01T13:00:00,1675A,116.7244,23.3633,汕头市,龙湖子站,颗粒物(PM10),75,99,51,41,29,171,171,86,83,46,28,14,9,1.1,0.8
2023-03-01T13:00:00,1676A,116.7258,23.2775,汕头市,濠江子站,颗粒物(PM10),66,81,44,41,31,165,165,76,73,37,24,18,13,0.9,0.8
2023-03-01T13:00:00,1677A,116.7519,23.4714,汕头市,澄海子站,,,,49,,25,137,,,,,22,,6,,0.5
2023-03-01T13:00:00,1678A,116.6092,23.2539,汕头市,潮阳子站,,40,40,45,17,23,112,107,72,66,17,19,8,7,0.7,0.7
2023-03-01T13:00:00,1680A,110.3539,21.2706,湛江市,湛江影剧院,,45,45,39,19,19,120,120,104,86,8,12,9,11,0.4,0.5
2023-03-01T13:00:00,1681A,110.3928,21.2228,湛江市,市环境监测站,,38,38,38,12,21,118,108,100,89,7,12,9,9,0.5,0.5
2023-03-01T13:00:00,1682A,110.4019,21.1997,湛江市,环保局宿舍,,36,31,35,12,19,116,115,100,90,8,13,9,8,0.5,0.5
2023-03-01T13:00:00,1683A,110.4111,21.2028,湛江市,霞山游泳场,,37,26,39,16,22,122,117,98,82,13,14,8,9,0.5,0.5
2023-03-01T13:00:00,1684A,110.3316,21.2679,湛江市,麻章区环保局,颗粒物(PM10),54,57,45,22,26,120,120,100,71,12,19,8,10,0.4,0.5
2023-03-01T13:00:00,1685A,110.4558,21.2567,湛江市,坡头区环保局,,34,34,37,12,22,119,108,104,85,6,11,13,12,0.4,0.5
2023-03-01T13:00:00,1686A,111.0286,21.4688,茂名市,电白南海,颗粒物(PM10),53,56,53,19,25,129,129,67,67,14,17,8,8,0.5,0.5
2023-03-01T13:00:00,1687A,110.9294,21.6533,茂名市,茂石化七小,颗粒物(PM10),59,68,50,39,28,122,122,101,75,8,15,15,13,0.5,0.5
2023-03-01T13:00:00,1688A,110.9107,21.6687,茂名市,健康路,,41,41,44,18,21,121,120,102,68,9,17,22,15,0.5,0.5
2023-03-01T13:00:00,1689A,110.8592,21.6828,茂名市,高岭,,,,54,,32,127,107,80,60,,19,11,18,,0.9
2023-03-01T13:00:00,1690A,116.1231,24.3284,梅州市,梅江月梅,,50,50,49,26,29,132,132,56,56,18,36,10,8,0.6,0.6
2023-03-01T13:00:00,1691A,116.0797,24.2719,梅州市,梅县新城,颗粒物(PM10),55,60,51,28,32,132,132,55,55,18,42,11,9,0.7,0.8
2023-03-01T13:00:00,1692A,116.1248,24.2654,梅州市,环境监控中心,颗粒物(PM10),55,60,53,30,33,142,142,60,60,14,46,10,9,0.7,0.7
2023-03-01T13:00:00,1693A,115.3653,22.775,汕尾市,市环保局,颗粒物(PM10),57,64,46,28,31,133,128,90,81,15,15,11,11,0.6,0.5
2023-03-01T13:00:00,1694A,115.3706,22.7898,汕尾市,市政府,细颗粒物(PM2.5),92,54,35,68,40,128,127,88,80,16,18,10,10,0.8,0.8
2023-03-01T13:00:00,1695A,115.3622,22.7925,汕尾市,新城中学,颗粒物(PM10),56,62,49,33,26,133,131,83,81,15,16,8,8,0.8,0.6
2023-03-01T13:00:00,1696A,114.6778,23.7569,河源市,源西,,,54,57,24,28,147,126,54,54,,47,10,7,0.6,0.8
2023-03-01T13:00:00,1697A,114.6944,23.7586,河源市,东埔,颗粒物(PM10),55,59,68,24,32,135,122,47,47,17,45,8,5,0.6,0.8
2023-03-01T13:00:00,1698A,114.6892,23.7233,河源市,老城,颗粒物(PM10),62,73,72,27,31,138,128,55,55,15,32,7,5,0.7,0.6
2023-03-01T13:00:00,1699A,111.9797,21.8593,阳江市,鸳鸯湖,颗粒物(PM10),66,81,39,29,24,157,157,101,66,15,18,9,8,0.7,0.7
2023-03-01T13:00:00,1701A,111.9491,21.8658,阳江市,马南垌,,,80,48,37,23,136,136,75,60,32,23,,6,,0.6
2023-03-01T13:00:00,1702A,113.0426,23.691,清远市,环保大楼,臭氧1小时,88,67,78,57,58,217,190,100,100,28,39,9,7,0.7,0.7
2023-03-01T13:00:00,1703A,113.0208,23.7106,清远市,凤城街办,臭氧1小时,68,77,83,47,47,175,174,99,99,26,37,6,5,0.5,0.6
2023-03-01T13:00:00,1705A,116.6367,23.6719,潮州市,西园路,颗粒物(PM10),64,77,50,38,46,136,130,62,62,19,18,4,4,0.7,0.5
2023-03-01T13:00:00,1706A,116.6447,23.6706,潮州市,档案局,颗粒物(PM10),70,89,51,38,39,155,155,71,71,19,20,9,10,0.6,0.5
2023-03-01T13:00:00,1708A,116.3701,23.5345,揭阳市,新兴,颗粒物(PM10),58,65,59,25,43,152,144,76,63,12,22,10,11,0.7,0.8
2023-03-01T13:00:00,1709A,116.3264,23.5443,揭阳市,西马,,40,33,67,18,40,156,126,73,57,10,24,10,12,0.5,0.6
2023-03-01T13:00:00,1710A,116.3611,23.5626,揭阳市,东兴,颗粒物(PM10),52,53,62,23,37,183,153,68,68,12,30,6,9,0.8,0.9
2023-03-01T13:00:00,1711A,116.4151,23.5294,揭阳市,渔湖,颗粒物(PM10),63,75,62,43,36,152,152,71,62,20,25,12,12,0.8,0.8
2023-03-01T13:00:00,1712A,112.0392,22.9169,云浮市,新市府,细颗粒物(PM2.5),59,63,50,42,36,164,164,86,86,20,20,11,5,0.7,0.7
2023-03-01T13:00:00,1714A,112.0539,22.9539,云浮市,牧羊,颗粒物(PM10),58,66,92,35,45,161,161,62,62,20,47,21,17,0.5,0.6
2023-03-01T13:00:00,1715A,102.575,24.3711,玉溪市,东风水库,,50,50,54,32,39,115,114,52,50,15,19,9,8,0.8,0.9
2023-03-01T13:00:00,1718A,115.4208,35.2464,菏泽市,气象局,颗粒物(PM10),69,88,174,42,111,145,101,60,60,22,42,18,21,0.5,0.8
2023-03-01T13:00:00,1719A,115.4747,35.2375,菏泽市,市政协,颗粒物(PM10),64,78,153,27,94,155,111,84,84,28,39,10,17,0.6,0.8
2023-03-01T13:00:00,1721A,113.3819,40.1097,大同市,果树场,,,,,,,,,,,,,,,,
2023-03-01T13:00:00,1723A,113.2994,40.0758,大同市,云冈宾馆,,30,24,33,4,10,95,95,85,85,4,20,8,12,0.1,0.3
2023-03-01T13:00:00,1724A,113.3444,40.0917,大同市,大同大学,,27,24,27,7,9,87,86,74,74,8,18,7,11,0.4,0.5
2023-03-01T13:00:00,1725A,113.2661,40.1269,大同市,安家小村,,,,38,,10,88,86,79,79,2,14,6,7,0.3,0.6
2023-03-01T13:00:00,1726A,113.2711,40.0844,大同市,教育学院,,30,30,38,8,9,82,81,71,71,8,21,6,11,0.3,0.4
2023-03-01T13:00:00,1727A,113.1147,36.1547,长治市,清华站,颗粒物(PM10),55,59,99,9,62,131,84,62,62,9,33,8,12,0.5,1
2023-03-01T13:00:00,1728A,113.1031,36.1989,长治市,监测站,,50,50,93,14,60,124,81,59,59,13,29,5,11,0.7,1.2
2023-03-01T13:00:00,1730A,113.0886,36.2125,长治市,审计局,,46,46,89,9,62,131,83,58,58,11,29,8,15,0.3,0.8
2023-03-01T13:00:00,1731A,113.0844,36.1856,长治市,长治八中,,47,47,103,12,50,128,82,55,55,7,23,5,11,0.5,1
2023-03-01T13:00:00,1733A,111.5531,36.0783,临汾市,临钢医院,,47,47,95,17,27,86,77,75,58,13,18,3,3,0.2,0.3
2023-03-01T13:00:00,1734A,111.5028,36.0714,临汾市,技工学校,颗粒物(PM10),52,54,88,15,24,82,76,72,66,12,14,4,4,0.0,0.1
2023-03-01T13:00:00,1736A,111.5018,36.0855,临汾市,市委,,50,50,88,9,23,86,80,74,70,10,12,2,3,0.4,0.4
2023-03-01T13:00:00,1738A,113.5758,37.8572,阳泉市,市中心,,43,43,92,7,34,91,78,42,42,7,47,6,12,0.3,0.5
2023-03-01T13:00:00,1739A,113.4894,37.8731,阳泉市,赛鱼,颗粒物(PM10),52,53,82,5,16,93,89,50,50,15,50,7,12,0.4,0.6
2023-03-01T13:00:00,1740A,113.5819,37.8486,阳泉市,南庄,,35,35,67,11,41,94,89,63,63,10,38,8,12,0.4,0.7
2023-03-01T13:00:00,1742A,113.5614,37.8703,阳泉市,平坦,,35,35,90,5,19,95,89,50,50,12,51,8,15,0.5,0.7
2023-03-01T13:00:00,1743A,113.5158,37.8392,阳泉市,大阳泉,,,20,38,5,27,94,88,69,69,16,28,7,11,,0.6
2023-03-01T13:00:00,1744A,118.9233,42.2816,赤峰市,松山一中,颗粒物(PM10),51,51,26,3,7,85,85,65,51,11,23,8,10,0.5,0.6
2023-03-01T13:00:00,1745A,118.9576,42.2728,赤峰市,哈达街,,33,33,26,4,6,84,82,67,52,12,21,12,10,0.4,0.5
2023-03-01T13:00:00,1746A,118.8788,42.2554,赤峰市,天义路,,29,29,19,4,7,84,80,70,53,16,20,12,13,0.4,0.4
2023-03-01T13:00:00,1748A,123.044,41.1196,鞍山市,深沟寺,,33,33,62,12,21,90,80,55,55,8,19,8,12,0.4,0.7
2023-03-01T13:00:00,1749A,123.011,41.0931,鞍山市,太阳城,,33,33,58,14,18,90,78,59,59,14,24,12,17,0.6,0.9
2023-03-01T13:00:00,1750A,123.0485,41.1442,鞍山市,太平,,23,22,82,9,30,82,72,40,40,12,33,11,15,0.5,0.9
2023-03-01T13:00:00,1751A,122.9642,41.0971,鞍山市,铁西三道街,,35,35,63,15,22,86,75,48,48,14,41,10,29,0.9,2
2023-03-01T13:00:00,1752A,122.9341,41.0833,鞍山市,铁西工业园区,,25,23,68,10,25,85,78,46,46,15,39,9,22,0.3,1.1
2023-03-01T13:00:00,1753A,123.022,41.0821,鞍山市,明达新区,,36,36,62,14,19,91,79,60,60,15,24,9,12,0.5,0.7
2023-03-01T13:00:00,1754A,123.1289,41.0228,鞍山市,千山,,,,,,,,,,,,,,,,
2023-03-01T13:00:00,1755A,123.7977,41.8491,抚顺市,望花区,,28,28,63,6,28,83,83,44,44,7,27,4,8,0.6,0.7
2023-03-01T13:00:00,1756A,123.9161,41.8822,抚顺市,顺城区,,32,30,61,6,23,102,102,58,58,1,25,4,6,0.3,0.5
2023-03-01T13:00:00,1757A,124.0436,41.8611,抚顺市,东洲区,颗粒物(PM10),81,111,93,7,29,96,95,51,51,5,23,6,8,0.3,0.6
2023-03-01T13:00:00,1758A,123.9247,41.8642,抚顺市,新抚区,,30,30,72,8,25,85,85,47,47,7,26,6,7,0.4,0.6
2023-03-01T13:00:00,1759A,124.0972,41.8961,抚顺市,大伙房水库,,32,28,79,7,29,102,100,56,56,6,23,5,6,0.4,0.6
2023-03-01T13:00:00,1760A,123.7086,41.8391,抚顺市,沈抚新城,,33,33,55,6,19,89,89,51,51,4,28,6,9,0.3,0.4
2023-03-01T13:00:00,1761A,123.8275,41.3064,本溪市,大峪,,24,22,47,6,12,82,74,44,44,13,25,5,6,0.6,0.7
2023-03-01T13:00:00,1762A,123.7567,41.3325,本溪市,溪湖,,47,47,69,8,17,91,78,46,46,14,35,11,13,0.4,0.6
2023-03-01T13:00:00,1763A,123.7169,41.3094,本溪市,彩屯,,45,45,63,10,21,86,75,47,47,16,29,10,11,0.5,0.6
2023-03-01T13:00:00,1764A,123.7669,41.2864,本溪市,东明,,,40,64,14,20,86,71,40,40,,40,11,11,0.5,0.8
2023-03-01T13:00:00,1765A,123.7992,41.2664,本溪市,新立屯,,38,38,53,14,16,87,72,43,43,20,44,8,9,0.6,0.6
2023-03-01T13:00:00,1766A,123.8142,41.3472,本溪市,威宁,,39,39,92,8,27,81,76,36,36,13,42,7,8,0.5,0.8
2023-03-01T13:00:00,1767A,121.1115,41.0879,锦州市,南山,,34,34,62,12,30,92,82,43,43,9,32,9,16,0.3,0.7
2023-03-01T13:00:00,1768A,121.0533,40.8434,锦州市,开发区,,48,48,94,10,37,89,78,42,42,8,43,14,46,0.5,0.9
2023-03-01T13:00:00,1769A,121.1836,41.1119,锦州市,百股街道,颗粒物(PM10),54,58,90,7,31,89,83,45,45,10,36,8,18,0.1,0.5
2023-03-01T13:00:00,1770A,121.1178,41.1222,锦州市,天安街道,,26,25,63,10,24,90,83,42,42,8,32,10,15,0.4,0.6
2023-03-01T13:00:00,1771A,121.1303,41.1386,锦州市,北湖公园,,34,34,56,7,21,89,81,47,47,6,27,10,16,0.5,0.7
2023-03-01T13:00:00,1772A,126.54,43.8622,吉林市,哈达湾,,26,24,38,8,20,96,83,63,63,8,23,5,7,0.4,0.7
2023-03-01T13:00:00,1773A,126.5844,43.8358,吉林市,东局子,,25,25,42,12,24,91,80,58,58,13,27,6,8,0.4,0.6
2023-03-01T13:00:00,1774A,126.5052,43.8245,吉林市,电力学院,,28,16,48,12,32,101,89,66,66,6,20,7,10,0.5,0.8
2023-03-01T13:00:00,1775A,126.6133,43.8972,吉林市,江北,,27,24,46,11,28,97,85,63,63,12,31,7,9,0.5,0.7
2023-03-01T13:00:00,1776A,126.555,43.8306,吉林市,江南公园,,26,17,41,9,25,93,83,63,63,11,23,5,7,0.4,0.6
2023-03-01T13:00:00,1778A,126.7061,43.7133,吉林市,丰满,,,,,,,,,,,,,,,,
2023-03-01T13:00:00,1779A,123.9305,47.3636,齐齐哈尔市,安居小区,,30,17,22,15,15,97,93,78,78,2,12,4,5,0.1,0.2
2023-03-01T13:00:00,1780A,123.9488,47.3386,齐齐哈尔市,中心广场,,25,22,18,5,6,80,79,69,69,6,12,4,5,0.4,0.4
2023-03-01T13:00:00,1781A,123.9483,47.3227,齐齐哈尔市,农牧车辆厂,,24,14,23,11,10,77,74,62,62,6,15,5,6,0.3,0.4
2023-03-01T13:00:00,1783A,123.945,47.2988,齐齐哈尔市,市环境监测站,,26,21,20,8,13,86,83,73,73,6,14,6,8,0.2,0.3
2023-03-01T13:00:00,1784A,129.61,44.561,牡丹江市,环保大楼,,41,41,40,22,28,92,69,73,56,18,17,5,4,0.3,0.3
2023-03-01T13:00:00,1785A,129.6115,44.5782,牡丹江市,文化广场,颗粒物(PM10),54,58,43,22,30,86,63,67,39,22,26,6,5,0.4,0.4
2023-03-01T13:00:00,1786A,129.5904,44.5963,牡丹江市,第一医院,,48,34,43,33,37,91,64,78,43,24,19,4,3,0.4,0.5
2023-03-01T13:00:00,1787A,129.6364,44.6075,牡丹江市,机车工厂,,49,49,52,21,31,87,62,67,37,24,22,2,3,0.3,0.5
2023-03-01T13:00:00,1788A,129.6386,44.5462,牡丹江市,第一中学,,36,36,36,25,28,92,73,75,55,13,15,4,3,0.3,0.4
2023-03-01T13:00:00,1789A,124.81117,46.03138,大庆市,大同区,,25,25,29,14,18,77,73,65,65,8,12,5,4,0.4,0.5
2023-03-01T13:00:00,1790A,125.129,46.533,大庆市,龙凤区,,25,20,25,17,18,79,72,57,57,11,22,7,10,0.4,0.5
2023-03-01T13:00:00,1791A,124.902,46.408,大庆市,红岗区,,26,26,24,11,15,82,76,64,64,7,17,7,8,0.3,0.4
2023-03-01T13:00:00,1792A,125.153,46.586,大庆市,萨尔图区,,,,23,,16,76,,53,52,12,20,8,8,0.3,0.4
2023-03-01T13:00:00,1793A,124.9042,46.6215,大庆市,让胡路区,,30,25,27,21,20,87,83,68,68,6,18,5,5,0.3,0.4
2023-03-01T13:00:00,1794A,118.3606,31.3519,芜湖市,监测站,细颗粒物(PM2.5),112,116,81,84,60,90,90,30,30,62,91,15,13,0.7,0.9
2023-03-01T13:00:00,1795A,118.3714,31.4134,芜湖市,科创中心,细颗粒物(PM2.5),127,107,107,96,71,103,103,33,33,38,80,14,11,0.8,1.1
2023-03-01T13:00:00,1796A,118.3673,31.3131,芜湖市,四水厂,细颗粒物(PM2.5),124,114,96,94,61,84,84,33,33,58,81,17,13,0.7,0.9
2023-03-01T13:00:00,1798A,118.5092,31.6837,马鞍山市,湖东路四小,细颗粒物(PM2.5),114,83,72,86,68,127,127,44,44,24,66,14,14,0.9,1.1
2023-03-01T13:00:00,1799A,118.5024,31.6449,马鞍山市,开发区,细颗粒物(PM2.5),127,82,92,96,71,122,122,38,38,30,74,17,14,1.0,1.1
2023-03-01T13:00:00,1800A,118.5228,31.7231,马鞍山市,慈湖,细颗粒物(PM2.5),133,88,83,101,71,124,124,47,47,23,61,12,14,0.9,1.2
2023-03-01T13:00:00,1802A,118.6245,31.7241,马鞍山市,濮塘,颗粒物(PM10),81,111,82,59,49,125,125,54,54,25,47,12,9,1.3,1.1
2023-03-01T13:00:00,1803A,115.9872,29.6815,九江市,十里,细颗粒物(PM2.5),124,122,82,94,54,83,72,36,36,57,63,19,13,1.2,0.9
2023-03-01T13:00:00,1804A,115.9584,29.7046,九江市,茅山头,细颗粒物(PM2.5),110,112,82,83,50,94,76,29,29,50,77,29,14,1.2,0.8
2023-03-01T13:00:00,1805A,115.9877,29.7295,九江市,西园,细颗粒物(PM2.5),115,126,83,87,61,62,62,27,27,60,66,24,16,0.9,0.8
2023-03-01T13:00:00,1806A,116.0172,29.6547,九江市,五七二七厂,,,,70,,54,50,,46,,,37,,12,,0.7
2023-03-01T13:00:00,1808A,115.9114,29.6038,九江市,综合工业园,细颗粒物(PM2.5),117,106,75,88,60,90,74,43,43,47,52,21,16,1.2,1.1
2023-03-01T13:00:00,1809A,116.0721,29.7535,九江市,石化总厂,细颗粒物(PM2.5),122,140,93,92,53,76,57,20,20,61,65,29,25,1.3,0.9
2023-03-01T13:00:00,1810A,115.9773,29.5698,九江市,庐山气象台,细颗粒物(PM2.5),83,51,38,61,40,115,91,108,95,48,25,12,9,0.7,0.5
2023-03-01T13:00:00,1812A,112.3931,34.6516,洛阳市,市委党校,颗粒物(PM10),64,78,174,25,95,127,71,91,38,18,49,9,12,0.4,1
2023-03-01T13:00:00,1814A,112.4657,34.6871,洛阳市,豫西宾馆,,,,166,29,108,128,83,77,33,10,44,4,8,0.2,0.9
2023-03-01T13:00:00,1815A,112.494,34.6886,洛阳市,河南林校,颗粒物(PM10),65,79,161,32,107,137,85,81,35,12,38,6,9,0.4,1
2023-03-01T13:00:00,1816A,112.3844,34.623,洛阳市,开发区管委会,颗粒物(PM10),60,70,150,25,87,137,84,95,52,17,34,8,9,0.3,0.7
2023-03-01T13:00:00,1817A,112.4267,34.6258,洛阳市,市委新办公区,,,83,157,34,104,135,80,91,48,,35,8,9,0.4,0.9
2023-03-01T13:00:00,1818A,114.4839,36.0621,安阳市,棉研所,,,,,,,,,,,,,,,,
2023-03-01T13:00:00,1819A,114.3551,36.1017,安阳市,红庙街,细颗粒物(PM2.5),75,75,145,55,96,130,96,44,44,27,61,15,14,1.0,1.2
2023-03-01T13:00:00,1820A,114.361,36.0681,安阳市,银杏小区,细颗粒物(PM2.5),87,94,139,64,99,129,96,44,44,22,55,14,13,0.8,1.1
2023-03-01T13:00:00,1824A,114.3389,34.7781,开封市,肿瘤医院,细颗粒物(PM2.5),75,65,134,55,99,136,104,69,57,14,30,11,16,0.9,1.2
2023-03-01T13:00:00,1826A,114.2885,34.7965,开封市,世纪星幼儿园,细颗粒物(PM2.5),83,88,148,61,110,134,103,71,58,17,30,15,19,0.8,1.2
2023-03-01T13:00:00,1828A,113.227,35.2125,焦作市,市环保局,,,,194,,127,129,85,49,40,,40,11,13,0.8,1.1
2023-03-01T13:00:00,1830A,113.1992,35.2590,焦作市,影视城,,,,,,,,,,,,,,,,
2023-03-01T13:00:00,1832A,113.3257,33.742,平顶山市,新华旅馆,细颗粒物(PM2.5),94,125,156,70,100,145,115,92,84,21,34,9,10,0.8,0.9
2023-03-01T13:00:00,1833A,113.2919,33.737,平顶山市,规划设计院,,,127,168,68,110,143,115,100,78,,41,7,8,0.6,0.9
2023-03-01T13:00:00,1834A,113.182,33.774,平顶山市,平顶山工学院,细颗粒物(PM2.5),104,156,193,78,113,144,114,98,76,17,27,8,9,0.7,0.9
2023-03-01T13:00:00,1835A,111.1922,34.7752,三门峡市,市政府,颗粒物(PM10),59,68,118,17,36,104,87,68,64,9,31,9,11,0.4,0.5
2023-03-01T13:00:00,1836A,111.1587,34.7942,三门峡市,开发区,颗粒物(PM10),54,57,105,22,44,116,91,76,73,15,24,13,14,0.3,0.4
2023-03-01T13:00:00,1838A,111.143,34.7955,三门峡市,风景区,,,,,,,,,,,,,,,,
2023-03-01T13:00:00,1840A,111.2992,30.6981,宜昌市,白龙岗,细颗粒物(PM2.5),107,97,120,80,102,88,42,27,21,30,52,4,5,0.7,0.9
2023-03-01T13:00:00,1841A,111.3549,30.6465,宜昌市,伍家岗,细颗粒物(PM2.5),122,122,138,92,111,102,40,16,15,30,50,8,9,0.7,0.9
2023-03-01T13:00:00,1842A,111.2628,30.6961,宜昌市,点军区,细颗粒物(PM2.5),104,98,120,78,101,92,42,26,12,21,33,5,6,0.7,0.8
2023-03-01T13:00:00,1843A,111.3275,30.7819,宜昌市,夷陵区,细颗粒物(PM2.5),119,88,98,90,102,109,32,13,13,36,43,6,7,0.6,0.7
2023-03-01T13:00:00,1844A,112.2494,30.3197,荆州市,市图书馆,细颗粒物(PM2.5),144,120,113,110,129,122,102,52,38,21,52,10,8,0.7,0.8
2023-03-01T13:00:00,1845A,112.2008,30.3544,荆州市,市委党校,细颗粒物(PM2.5),150,122,130,115,133,121,110,46,43,16,39,10,9,0.9,1
2023-03-01T13:00:00,1847A,113.1094,29.3578,岳阳市,南湖风景区,细颗粒物(PM2.5),102,104,70,76,55,117,117,76,76,21,35,14,11,0.5,0.5
2023-03-01T13:00:00,1848A,113.1493,29.4251,岳阳市,城陵矶,细颗粒物(PM2.5),108,111,74,81,56,104,104,66,66,,52,18,9,0.6,1
2023-03-01T13:00:00,1849A,113.1497,29.3575,岳阳市,开发区,细颗粒物(PM2.5),142,96,72,108,76,120,116,76,76,22,35,15,12,0.8,0.8
2023-03-01T13:00:00,1850A,113.2621,29.4758,岳阳市,云溪区,细颗粒物(PM2.5),89,87,69,66,51,113,113,78,78,24,33,14,12,0.6,0.5
2023-03-01T13:00:00,1851A,112.9943,29.4402,岳阳市,君山区,细颗粒物(PM2.5),115,92,71,87,63,116,116,55,55,22,35,14,10,0.7,0.7
2023-03-01T13:00:00,1852A,113.2117,29.355,岳阳市,金凤水库,细颗粒物(PM2.5),84,93,80,62,53,115,113,73,73,17,31,10,6,0.7,0.7
2023-03-01T13:00:00,1854A,111.6975,28.9703,常德市,市二中,细颗粒物(PM2.5),88,87,115,65,85,62,28,16,16,20,37,11,10,0.8,0.8
2023-03-01T13:00:00,1857A,111.7158,29.1456,常德市,白鹤山,细颗粒物(PM2.5),124,101,86,94,63,79,52,65,37,19,17,8,6,0.9,0.8
2023-03-01T13:00:00,1858A,110.5319,29.1217,张家界市,永定新区,细颗粒物(PM2.5),85,72,79,63,64,70,9,20,7,33,24,4,4,0.7,0.6
2023-03-01T13:00:00,1859A,110.4697,29.1242,张家界市,电业局,细颗粒物(PM2.5),84,73,78,62,63,72,8,13,5,22,27,5,4,0.8,0.8
2023-03-01T13:00:00,1860A,110.5594,29.3547,张家界市,未央路,细颗粒物(PM2.5),55,54,64,39,48,86,19,13,10,30,17,5,5,0.7,0.7
2023-03-01T13:00:00,1861A,110.4417,29.315,张家界市,袁家界,颗粒物(PM10),56,61,39,38,35,98,98,85,85,15,15,8,9,0.7,0.7
2023-03-01T13:00:00,1862A,110.4144,25.3167,桂林市,电子科大尧山校区,细颗粒物(PM2.5),69,66,66,50,51,156,130,92,92,10,12,12,6,0.8,0.8
2023-03-01T13:00:00,1863A,110.2819,25.2697,桂林市,监测站,细颗粒物(PM2.5),75,84,106,55,73,157,115,67,67,14,40,15,17,0.9,1.1
2023-03-01T13:00:00,1864A,110.3089,25.2708,桂林市,龙隐路小学,,,102,89,61,69,153,,74,74,14,33,16,24,,0.8
2023-03-01T13:00:00,1865A,110.2869,25.2178,桂林市,八中,细颗粒物(PM2.5),80,82,99,59,72,146,113,63,63,19,48,15,13,0.5,0.7
2023-03-01T13:00:00,1866A,109.2262,21.588,北海市,牛尾岭水库,,37,37,38,22,25,107,98,75,75,8,12,13,13,0.6,0.5
2023-03-01T13:00:00,1867A,109.1436,21.4086,北海市,海滩公园,,35,32,46,24,20,155,112,104,83,5,11,6,9,0.5,0.6
2023-03-01T13:00:00,1868A,109.0981,21.4661,北海市,新市环保局,,36,27,38,19,21,132,113,96,83,12,13,6,6,0.5,0.5
2023-03-01T13:00:00,1869A,109.1778,21.5233,北海市,北海工业园,颗粒物(PM10),51,52,52,24,28,140,110,86,78,12,13,10,10,0.7,0.6
2023-03-01T13:00:00,1870A,109.4856,24.3895,柳州市,柳东小学,细颗粒物(PM2.5),109,89,89,82,71,158,135,98,98,12,20,23,15,1.0,0.8
2023-03-01T13:00:00,1871A,109.4157,24.3277,柳州市,环保监测站,细颗粒物(PM2.5),132,104,111,100,74,146,128,46,46,19,48,14,11,0.8,0.9
2023-03-01T13:00:00,1872A,109.389,24.341,柳州市,河西水厂,细颗粒物(PM2.5),137,126,124,104,85,151,118,48,48,29,44,20,14,1.2,1.1
2023-03-01T13:00:00,1873A,109.4311,24.2921,柳州市,市四中,细颗粒物(PM2.5),90,96,105,67,68,158,126,60,60,21,39,20,13,0.9,1.1
2023-03-01T13:00:00,1874A,109.4006,24.3631,柳州市,市九中,细颗粒物(PM2.5),98,93,124,73,73,143,130,47,47,21,50,16,13,1.0,1.1
2023-03-01T13:00:00,1875A,109.4958,24.3134,柳州市,古亭山,细颗粒物(PM2.5),74,76,70,54,49,153,138,56,56,11,40,10,6,0.7,0.6
2023-03-01T13:00:00,1876A,109.5078,18.2489,三亚市,河东子站,,30,24,32,15,16,93,93,85,83,5,6,2,2,0.4,0.4
2023-03-01T13:00:00,1877A,109.4964,18.2681,三亚市,河西子站,,30,28,35,14,14,98,95,86,79,4,5,3,3,0.3,0.3
2023-03-01T13:00:00,1878A,104.7778,31.4741,绵阳市,富乐山,,,70,66,23,32,106,,69,56,11,24,,3,,0.4
2023-03-01T13:00:00,1879A,104.7563,31.4535,绵阳市,市人大,颗粒物(PM10),66,81,76,15,35,97,78,56,38,16,41,4,7,0.3,0.5
2023-03-01T13:00:00,1880A,104.6697,31.4668,绵阳市,高新区自来水公司,细颗粒物(PM2.5),65,73,85,47,38,105,88,73,38,8,34,4,5,0.3,0.5
2023-03-01T13:00:00,1881A,104.7287,31.5075,绵阳市,三水厂,颗粒物(PM10),74,98,75,32,27,101,83,62,28,12,39,3,3,0.2,0.5
2023-03-01T13:00:00,1882A,104.563,28.793,宜宾市,石马中学,细颗粒物(PM2.5),75,73,92,55,69,95,61,50,50,16,27,7,8,0.6,0.7
2023-03-01T13:00:00,1883A,104.6201,28.7728,宜宾市,市委,细颗粒物(PM2.5),88,86,97,65,69,97,58,43,43,23,40,10,10,0.6,0.7
2023-03-01T13:00:00,1884A,104.6055,28.793,宜宾市,宜宾四中,细颗粒物(PM2.5),89,86,102,66,74,99,64,52,52,26,40,10,11,0.6,0.6
2023-03-01T13:00:00,1885A,104.639,28.7562,宜宾市,市政府,细颗粒物(PM2.5),85,83,100,63,71,105,66,50,50,20,40,8,9,0.7,0.8
2023-03-01T13:00:00,1886A,104.5742,28.7199,宜宾市,黄金嘴,细颗粒物(PM2.5),75,75,95,55,68,105,66,53,53,23,42,8,9,0.5,0.6
2023-03-01T13:00:00,1888A,101.6891,26.571,攀枝花市,弄弄坪,细颗粒物(PM2.5),63,66,61,45,35,130,98,60,58,44,35,47,13,3.3,1.2
2023-03-01T13:00:00,1889A,101.5769,26.5928,攀枝花市,河门口,,45,45,45,29,28,136,120,76,53,11,27,10,17,0.8,1.1
2023-03-01T13:00:00,1890A,101.7169,26.585,攀枝花市,炳草岗,颗粒物(PM10),51,52,60,32,30,120,106,56,37,31,49,44,14,2.3,1.1
2023-03-01T13:00:00,1891A,101.7369,26.5008,攀枝花市,仁和,,42,39,44,29,29,126,123,66,65,11,21,12,10,0.7,0.7
2023-03-01T13:00:00,1893A,105.4324,28.9634,泸州市,九狮山,细颗粒物(PM2.5),89,104,92,66,68,98,52,44,17,21,23,17,11,0.4,0.5
2023-03-01T13:00:00,1894A,105.4427,28.9063,泸州市,小市上码头,,,,129,,87,97,46,57,24,27,38,20,16,,0.8
2023-03-01T13:00:00,1895A,105.4241,28.8573,泸州市,兰田宪桥,细颗粒物(PM2.5),109,101,127,82,99,103,54,26,17,20,36,14,17,0.5,0.7
2023-03-01T13:00:00,1896A,105.4379,28.8833,泸州市,市环监站,细颗粒物(PM2.5),107,114,122,80,85,93,43,47,18,24,34,21,19,0.8,0.8
2023-03-01T13:00:00,1901A,104.4239,31.1208,德阳市,东山公园,颗粒物(PM10),76,102,96,23,44,99,92,62,59,8,31,2,5,0.4,0.6
2023-03-01T13:00:00,1902A,104.3826,31.1317,德阳市,西小区,颗粒物(PM10),85,120,112,34,62,87,87,43,40,9,47,1,5,0.3,0.7
2023-03-01T13:00:00,1904A,104.3553,31.1091,德阳市,耐火材料厂,颗粒物(PM10),75,99,117,27,64,88,88,47,42,6,42,2,6,0.3,0.6
2023-03-01T13:00:00,1905A,106.056,30.8064,南充市,西山风景区,,,,,,,,,,,,,,,,
2023-03-01T13:00:00,1906A,106.0789,30.8023,南充市,南充市委,细颗粒物(PM2.5),88,97,71,65,43,85,22,34,20,48,33,12,10,0.9,0.7
2023-03-01T13:00:00,1907A,106.1031,30.8217,南充市,南充炼油厂,颗粒物(PM10),73,96,72,43,46,89,27,15,15,37,36,15,15,0.9,0.8
2023-03-01T13:00:00,1908A,106.1064,30.7856,南充市,高坪区监测站,细颗粒物(PM2.5),80,89,77,59,51,87,20,16,16,42,43,12,11,0.8,0.8
2023-03-01T13:00:00,1909A,106.0642,30.7636,南充市,嘉陵区环保局,细颗粒物(PM2.5),73,90,73,53,48,85,18,21,21,41,45,11,9,0.7,0.7
2023-03-01T13:00:00,1910A,106.1087,30.8388,南充市,市环境监测站,细颗粒物(PM2.5),78,94,72,57,52,84,20,28,20,47,36,17,21,0.8,0.6
2023-03-01T13:00:00,1911A,106.9222,27.6869,遵义市,丁字口,细颗粒物(PM2.5),77,71,75,56,59,118,64,81,62,29,29,16,20,0.8,0.8
2023-03-01T13:00:00,1912A,106.9242,27.7019,遵义市,凤凰山,细颗粒物(PM2.5),77,62,75,56,59,130,70,88,69,20,22,5,8,0.8,0.6
2023-03-01T13:00:00,1913A,106.8906,27.6486,遵义市,忠庄,,,52,81,56,57,117,56,71,54,18,24,4,8,,0.8
2023-03-01T13:00:00,1914A,106.9231,27.6506,遵义市,舟水桥,细颗粒物(PM2.5),78,78,94,57,65,120,52,69,53,31,28,16,17,1.0,0.9
2023-03-01T13:00:00,1915A,106.9178,27.72,遵义市,干田坝,细颗粒物(PM2.5),72,68,79,52,59,126,67,74,55,21,25,9,11,0.8,0.7
2023-03-01T13:00:00,1916A,103.7897,25.5035,曲靖市,环境监测站,细颗粒物(PM2.5),77,79,52,56,31,123,123,75,67,13,18,12,8,1.0,0.8
2023-03-01T13:00:00,1917A,103.8,25.5364,曲靖市,烟厂办公区,细颗粒物(PM2.5),74,89,56,54,30,125,125,98,64,14,21,10,7,0.8,0.7
2023-03-01T13:00:00,1918A,108.7197,34.3956,咸阳市,气象站,颗粒物(PM10),91,131,156,23,37,87,68,26,26,18,40,11,10,0.2,0.4
2023-03-01T13:00:00,1919A,108.673,34.3155,咸阳市,实验中学,颗粒物(PM10),106,161,165,40,50,86,51,32,20,46,50,8,7,0,0.3
2023-03-01T13:00:00,1920A,108.7233,34.3617,咸阳市,师范学院,,,,156,42,38,83,48,32,23,41,40,7,7,0.4,0.5
2023-03-01T13:00:00,1922A,109.0656,35.0994,铜川市,党校,颗粒物(PM10),59,68,148,16,23,95,91,76,66,13,31,12,12,0.5,0.6
2023-03-01T13:00:00,1923A,109.0697,35.0697,铜川市,王益区政府,颗粒物(PM10),64,77,139,18,32,92,88,43,43,8,30,5,6,0.5,0.7
2023-03-01T13:00:00,1924A,108.9344,34.9058,铜川市,新区管委会,颗粒物(PM10),75,99,125,18,24,96,89,80,61,10,18,8,10,0.4,0.4
2023-03-01T13:00:00,1926A,109.4131,36.6275,延安市,枣园,颗粒物(PM10),57,64,102,17,22,104,89,39,39,13,32,5,6,0.5,0.6
2023-03-01T13:00:00,1927A,109.4761,36.6028,延安市,延大医附院,,,89,90,14,22,92,76,31,31,,42,,6,0.6,0.8
2023-03-01T13:00:00,1929A,109.5056,36.6106,延安市,百米大道,颗粒物(PM10),65,80,109,14,24,91,78,31,31,14,35,4,5,0.3,0.5
2023-03-01T13:00:00,1930A,107.185,34.3063,宝鸡市,庙沟村,颗粒物(PM10),97,143,115,31,30,92,72,66,64,10,16,5,5,0.6,0.5
2023-03-01T13:00:00,1931A,107.0708,34.3017,宝鸡市,竹园沟,颗粒物(PM10),102,154,102,35,27,106,82,58,58,11,21,8,6,0.3,0.3
2023-03-01T13:00:00,1932A,107.1906,34.3672,宝鸡市,三陆医院,颗粒物(PM10),103,155,143,35,41,99,75,25,25,,47,6,10,0.3,0.5
2023-03-01T13:00:00,1933A,107.1431,34.3547,宝鸡市,监测站,颗粒物(PM10),95,140,116,30,28,101,70,31,28,19,37,5,5,0.4,0.5
2023-03-01T13:00:00,1934A,107.1186,34.3739,宝鸡市,技工学校,颗粒物(PM10),102,153,120,35,39,96,64,33,33,26,34,6,9,0.4,0.5
2023-03-01T13:00:00,1935A,107.3906,34.3528,宝鸡市,陈仓区环保局家属楼,颗粒物(PM10),102,153,138,35,46,102,70,30,30,22,49,8,8,0.6,0.7
2023-03-01T13:00:00,1936A,107.2058,34.3497,宝鸡市,文理学院,颗粒物(PM10),97,144,124,29,27,100,76,36,36,15,38,9,10,0.4,0.5
2023-03-01T13:00:00,1937A,107.2386,34.3622,宝鸡市,三迪小学,颗粒物(PM10),100,150,134,30,33,100,74,32,32,19,47,10,11,0.4,0.5
2023-03-01T13:00:00,1938A,109.5293,34.5101,渭南市,农科所,颗粒物(PM10),78,105,147,27,44,84,81,46,46,14,36,6,7,0.4,0.5
2023-03-01T13:00:00,1939A,109.4974,34.4877,渭南市,日报社,颗粒物(PM10),75,100,145,15,42,80,78,50,50,16,42,5,8,0.4,0.4
2023-03-01T13:00:00,1940A,109.4636,34.493,渭南市,体育馆,,,,148,,45,90,84,56,56,14,46,5,6,0.3,0.5
2023-03-01T13:00:00,1941A,109.4259,34.5023,渭南市,高新一小,颗粒物(PM10),70,89,144,20,34,84,83,55,55,13,34,7,9,0.3,0.4
2023-03-01T13:00:00,1943A,102.1725,38.5339,金昌市,新川苑,颗粒物(PM10),60,70,70,17,15,91,91,56,54,12,22,33,17,0.7,0.8
2023-03-01T13:00:00,1944A,102.1692,38.5167,金昌市,天庆家园,颗粒物(PM10),56,62,49,18,20,91,88,60,53,14,23,69,16,0.8,0.9
2023-03-01T13:00:00,1945A,98.2908,39.7711,嘉峪关市,气象局,颗粒物(PM10),67,83,76,31,26,102,102,58,58,14,33,30,5,0.5,0.3
2023-03-01T13:00:00,1947A,106.3394,38.817,石嘴山市,沙湖旅游区,颗粒物(PM10),142,234,281,47,57,99,99,45,38,23,23,31,15,0.6,0.5
2023-03-01T13:00:00,1948A,106.3668,39.0145,石嘴山市,大武口朝阳西街,颗粒物(PM10),120,189,230,39,46,87,87,82,46,10,17,21,14,0.4,0.5
2023-03-01T13:00:00,1949A,106.7704,39.2282,石嘴山市,惠农南大街,颗粒物(PM10),166,282,210,56,45,84,76,48,28,25,34,38,35,0.9,1.3
2023-03-01T13:00:00,1950A,106.7099,39.1325,石嘴山市,红果子镇惠新街,颗粒物(PM10),158,266,206,65,55,85,77,36,31,26,33,57,51,1.1,0.8
2023-03-01T13:00:00,1951A,84.895,45.6094,克拉玛依市,长征新村,,,,32,,12,89,38,60,32,,19,5,5,0.4,0.4
2023-03-01T13:00:00,1952A,84.8988,45.5893,克拉玛依市,南林小区,颗粒物(PM10),52,53,33,24,22,88,47,56,19,25,27,2,1,0.3,0.3
2023-03-01T13:00:00,1954A,84.905,44.3396,克拉玛依市,独山子区,细颗粒物(PM2.5),98,95,64,73,41,113,98,92,92,13,15,5,5,0.7,0.5
2023-03-01T13:00:00,1955A,85.6979,46.098,克拉玛依市,乌尔禾区商贸楼,,41,41,34,27,16,92,63,42,42,20,19,5,5,0.4,0.6
2023-03-01T13:00:00,1956A,86.1472,41.7538,巴音郭楞州,孔雀公园,颗粒物(PM10),132,214,279,58,66,91,77,18,18,23,53,5,3,0.5,0.7
2023-03-01T13:00:00,1957A,86.1972,41.7166,巴音郭楞州,棉纺厂,颗粒物(PM10),179,308,299,64,70,90,76,27,27,18,41,4,2,0.2,0.4
2023-03-01T13:00:00,1958A,86.2357,41.7173,巴音郭楞州,经济开发区,颗粒物(PM10),183,316,262,54,47,92,83,77,42,16,20,6,4,0.3,0.3
2023-03-01T13:00:00,1961A,117.532,36.6868,济南市,东山小学,颗粒物(PM10),58,66,180,32,110,130,97,47,47,18,56,8,13,0.5,1
2023-03-01T13:00:00,1966A,120.0405,35.8735,青岛市,黄岛区4号,细颗粒物(PM2.5),98,117,111,73,84,113,113,99,61,39,54,14,14,0.8,1.1
2023-03-01T13:00:00,1982A,122.0693,37.2174,威海市,文登开发区,颗粒物(PM10),69,88,90,34,61,110,95,47,47,21,34,6,5,0.4,0.7
2023-03-01T13:00:00,2031A,113.1817,27.9958,株洲市,云田中学,细颗粒物(PM2.5),100,88,71,75,61,104,73,32,32,33,44,9,8,0.7,0.7
2023-03-01T13:00:00,2054A,114.1099,32.1059,信阳市,平桥分局,细颗粒物(PM2.5),163,,132,124,97,129,128,80,80,22,30,,14,0.8,0.7
2023-03-01T13:00:00,2064A,113.9956,32.1271,信阳市,南湾水厂,细颗粒物(PM2.5),128,150,123,97,93,142,137,99,89,19,19,15,11,0.9,0.8
2023-03-01T13:00:00,2065A,114.0775,32.1195,信阳市,市酿酒公司,细颗粒物(PM2.5),153,135,120,117,104,141,141,86,86,20,41,16,13,0.8,0.9
2023-03-01T13:00:00,2066A,114.0609,32.1399,信阳市,审计局,细颗粒物(PM2.5),150,143,129,115,104,130,130,74,74,23,38,15,11,0.7,0.8
2023-03-01T13:00:00,2067A,114.6613,33.6128,周口市,市环境监测站,颗粒物(PM10),90,129,157,53,119,130,96,66,64,18,35,11,14,0.5,1
2023-03-01T13:00:00,2068A,114.6758,33.6347,周口市,周口师范,颗粒物(PM10),77,103,157,52,120,134,99,64,64,24,40,11,13,0.4,0.9
2023-03-01T13:00:00,2069A,114.6546,33.5979,周口市,市运管处,细颗粒物(PM2.5),82,100,155,60,126,137,101,72,67,20,37,10,14,0.5,0.8
2023-03-01T13:00:00,2070A,114.6369,33.6406,周口市,川汇区环保局,细颗粒物(PM2.5),70,79,146,51,112,128,96,59,59,21,38,8,8,0.5,0.8
2023-03-01T13:00:00,2075A,117.6336,24.4674,漳州市,九湖,,,,,,,,,,,,,,,,
2023-03-01T13:00:00,2160A,112.85,35.5051,晋城市,自来水公司,,48,48,89,7,36,132,89,70,66,15,28,10,12,0.4,0.7
2023-03-01T13:00:00,2161A,112.8318,35.4936,晋城市,白云商贸,,44,44,89,5,33,124,88,71,66,6,18,8,9,0.7,0.8
2023-03-01T13:00:00,2162A,112.8508,35.4887,晋城市,市环保局,,45,45,92,7,38,132,90,73,69,19,29,9,10,0.7,0.8
2023-03-01T13:00:00,2163A,112.8676,35.4897,晋城市,技术学院,,42,42,92,9,43,127,88,70,68,14,24,8,9,0.5,0.6
2023-03-01T13:00:00,2165A,112.8453,35.546,晋城市,白马寺,,,,,,,,,,,,,,,,
2023-03-01T13:00:00,2166A,112.4397,39.3522,朔州市,平朔,,29,29,54,5,13,93,82,61,61,1,17,4,7,0.2,0.3
2023-03-01T13:00:00,2167A,112.4575,39.3617,朔州市,朔唯,,,51,59,8,15,98,91,64,63,2,15,,9,0.4,0.5
2023-03-01T13:00:00,2168A,112.4258,39.3197,朔州市,区政府,,24,22,49,2,8,195,76,192,102,2,13,3,5,0.6,0.6
2023-03-01T13:00:00,2169A,112.4072,39.3278,朔州市,市环保局,,34,34,56,11,18,95,87,67,66,7,20,6,11,0.4,0.5
2023-03-01T13:00:00,2170A,112.4272,39.3681,朔州市,市二中,,32,32,62,4,14,86,86,58,58,1,15,4,6,0.3,0.4
2023-03-01T13:00:00,2171A,112.7532,37.6945,晋中市,锦纶小区,颗粒物(PM10),57,63,88,11,20,104,87,43,43,13,32,9,10,0.2,0.3
2023-03-01T13:00:00,2173A,112.7249,37.7067,晋中市,南都小区,颗粒物(PM10),53,56,66,15,24,99,82,77,77,17,24,9,10,0.3,0.3
2023-03-01T13:00:00,2174A,112.6991,37.6982,晋中市,榆次区政府,颗粒物(PM10),52,53,74,12,22,94,78,36,36,15,39,8,9,0.3,0.4
2023-03-01T13:00:00,2175A,110.9956,35.0147,运城市,运城中学,细颗粒物(PM2.5),77,83,128,56,37,110,81,71,59,11,19,15,10,0.2,0.4
2023-03-01T13:00:00,2178A,110.9686,35.0303,运城市,地区技校,颗粒物(PM10),75,99,146,18,34,123,92,80,66,13,22,12,8,0.4,0.5
2023-03-01T13:00:00,2179A,111.0414,35.1147,运城市,空港新区,颗粒物(PM10),74,97,121,32,36,111,90,72,52,10,23,13,13,0.3,0.4
2023-03-01T13:00:00,2181A,112.7383,38.4519,忻州市,开发区,,29,25,48,7,15,98,90,72,62,2,13,4,6,0.3,0.4
2023-03-01T13:00:00,2182A,112.7003,38.4928,忻州市,会展中心,,,,49,,15,85,80,64,54,,23,,6,0.3,0.3
2023-03-01T13:00:00,2183A,111.1406,37.5211,吕梁市,环保局,颗粒物(PM10),61,72,94,17,16,87,81,65,35,9,28,9,10,0.4,0.4
2023-03-01T13:00:00,2185A,111.1297,37.5136,吕梁市,自来水公司,颗粒物(PM10),64,77,79,11,14,85,80,67,46,11,21,12,13,0.4,0.5
2023-03-01T13:00:00,2187A,106.8174,39.6973,乌海市,市林业局,,42,42,115,18,33,96,96,68,58,6,15,9,11,0.4,0.7
2023-03-01T13:00:00,2188A,106.7907,39.6667,乌海市,中海勃湾学校,,31,29,121,8,30,99,99,74,42,8,20,12,10,0.4,0.4
2023-03-01T13:00:00,2191A,122.2532,43.6801,通辽市,艺术职业学校,颗粒物(PM10),114,177,70,38,11,90,90,76,76,7,12,5,6,0.3,0.3
2023-03-01T13:00:00,2192A,119.7594,49.2261,呼伦贝尔市,区环保局,,37,37,30,20,18,88,83,81,71,4,7,5,5,0.2,0.3
2023-03-01T13:00:00,2195A,107.4212,40.761,巴彦淖尔市,附二中,颗粒物(PM10),57,63,82,13,21,85,71,68,49,13,20,4,7,0.4,0.5
2023-03-01T13:00:00,2196A,107.37,40.7372,巴彦淖尔市,市环保大楼,颗粒物(PM10),64,77,78,18,23,85,76,58,41,14,23,4,5,0.4,0.4
2023-03-01T13:00:00,2197A,113.1306,40.9923,乌兰察布市,集宁新区,,27,15,23,8,12,88,86,81,81,4,7,6,7,0.5,0.5
2023-03-01T13:00:00,2200A,122.0392,46.0656,兴安盟,胜华新制药厂,,31,31,24,15,12,82,82,81,81,10,9,2,3,0.6,0.6
2023-03-01T13:00:00,2201A,121.9504,46.0741,兴安盟,科右前旗环保局,,27,20,24,8,14,85,85,82,82,8,8,3,2,0.4,0.4
2023-03-01T13:00:00,2202A,116.1042,43.9317,锡林郭勒盟,市环保监测站,,,,26,3,5,87,84,70,70,,8,8,7,0.3,0.2
2023-03-01T13:00:00,2203A,116.0781,43.9311,锡林郭勒盟,市政府,颗粒物(PM10),59,67,35,4,5,91,88,71,71,4,11,8,7,0.2,0.2
2023-03-01T13:00:00,2204A,105.6467,38.8363,阿拉善盟,西城区西花园,颗粒物(PM10),67,84,173,10,36,87,87,80,72,7,13,9,9,0.4,0.5
2023-03-01T13:00:00,2205A,105.6985,38.8411,阿拉善盟,蒙二幼,颗粒物(PM10),72,94,196,27,46,90,90,82,74,8,12,8,9,0.4,0.5
2023-03-01T13:00:00,2206A,105.724,38.8516,阿拉善盟,环保局新楼,,,,134,,41,90,90,85,83,5,6,14,9,0.3,0.5
2023-03-01T13:00:00,2207A,121.6094,41.998,阜新市,工业园区,,44,44,95,18,54,89,89,52,52,13,40,6,11,0.4,0.6
2023-03-01T13:00:00,2208A,121.6697,42.0279,阜新市,长青街,,28,19,44,4,18,88,87,44,44,6,24,7,8,0.5,0.9
2023-03-01T13:00:00,2209A,121.6673,42.0705,阜新市,农业园区,,34,34,39,8,11,78,78,71,71,8,10,7,7,0.4,0.4
2023-03-01T13:00:00,2210A,121.6717,42.0224,阜新市,东苑,颗粒物(PM10),53,55,70,6,18,87,85,47,47,6,23,3,9,0.5,0.7
2023-03-01T13:00:00,2211A,121.6506,42.0498,阜新市,玉龙新城,,,44,51,9,18,85,81,39,39,,32,,9,0.5,0.6
2023-03-01T13:00:00,2212A,123.2,41.1953,辽阳市,宏伟区,,37,37,60,14,17,86,81,53,53,8,19,8,18,0.5,0.6
2023-03-01T13:00:00,2213A,123.1683,41.2495,辽阳市,新华园,,29,29,63,17,26,92,87,56,56,1,19,9,13,0.7,1
2023-03-01T13:00:00,2214A,123.2354,41.2639,辽阳市,滨河路,,25,22,73,10,27,80,77,45,45,8,28,4,8,0.3,0.7
2023-03-01T13:00:00,2215A,123.149,41.2991,辽阳市,铁西工业园,,24,21,69,9,28,80,76,42,42,7,32,5,8,0.6,0.8
2023-03-01T13:00:00,2216A,123.8139,42.3022,铁岭市,汇工街西,颗粒物(PM10),61,72,68,29,40,92,90,52,52,8,27,6,15,0.4,0.6
2023-03-01T13:00:00,2217A,123.8649,42.2923,铁岭市,水上乐园,颗粒物(PM10),54,58,50,9,19,89,89,60,59,4,20,10,12,0.2,0.7
2023-03-01T13:00:00,2218A,123.8486,42.2867,铁岭市,银州路东段,,41,41,59,9,22,83,83,55,50,12,29,6,8,0.4,0.5
2023-03-01T13:00:00,2219A,123.7153,42.2217,铁岭市,金沙江路北,颗粒物(PM10),55,59,66,12,30,84,84,51,51,11,32,9,9,0.5,0.6
2023-03-01T13:00:00,2220A,120.4318,41.5881,朝阳市,西梁,,26,26,61,5,22,82,72,33,33,11,33,8,13,1.0,1.3
2023-03-01T13:00:00,2221A,120.4521,41.5646,朝阳市,河畔小区,,37,37,51,5,17,92,84,48,48,10,27,5,8,0.3,0.5
2023-03-01T13:00:00,2222A,120.4176,41.5648,朝阳市,八里堡,,35,35,64,3,19,94,82,38,38,11,37,10,14,0.5,0.8
2023-03-01T13:00:00,2223A,120.3806,41.5969,朝阳市,农业园区,,27,27,61,4,19,84,76,38,38,6,33,8,11,0.4,0.7
2023-03-01T13:00:00,2225A,124.4002,43.1713,四平市,一商场,颗粒物(PM10),105,159,63,11,24,88,77,56,56,5,18,4,6,0.2,0.4
2023-03-01T13:00:00,2226A,124.388,43.193,四平市,境园,颗粒物(PM10),120,189,68,12,16,85,83,66,66,4,10,5,6,0.6,0.9
2023-03-01T13:00:00,2227A,125.1358,42.8845,辽源市,环保局,,37,37,38,13,25,92,90,74,74,3,13,8,12,0.3,0.5
2023-03-01T13:00:00,2229A,125.9358,41.7173,通化市,光明,,27,16,42,8,27,85,84,54,54,8,25,9,13,0.1,0.4
2023-03-01T13:00:00,2230A,125.9446,41.7325,通化市,铁路,,28,15,40,10,32,88,88,54,54,8,25,7,12,0.1,0.4
2023-03-01T13:00:00,2231A,126.4219,41.9171,白山市,喜丰,,,19,72,6,37,83,77,45,45,,27,10,14,,1.3
2023-03-01T13:00:00,2232A,126.4077,41.9419,白山市,环保局,,28,28,80,2,45,77,74,47,47,5,26,9,15,1.0,1.5
2023-03-01T13:00:00,2233A,124.8006,45.1214,松原市,江南,,37,37,46,12,22,75,66,56,56,5,20,4,8,0.3,0.4
2023-03-01T13:00:00,2234A,124.7965,45.1722,松原市,江北,,36,36,43,14,17,76,62,57,57,5,19,2,4,0.4,0.5
2023-03-01T13:00:00,2235A,122.7911,45.6077,白城市,洮北区环保局,颗粒物(PM10),62,74,47,14,14,82,82,75,75,9,11,2,3,0.2,0.2
2023-03-01T13:00:00,2236A,122.8738,45.5725,白城市,市环保局,颗粒物(PM10),52,53,43,7,13,92,83,79,73,9,12,4,5,0.3,0.3
2023-03-01T13:00:00,2237A,129.47,42.8883,延边朝鲜族自治州,妇幼医院,颗粒物(PM10),52,54,52,8,36,96,82,68,47,12,25,6,16,0.4,0.8
2023-03-01T13:00:00,2238A,129.5055,42.9108,延边朝鲜族自治州,延边医院,,43,43,47,5,36,96,85,88,53,9,21,7,11,0.5,0.7
2023-03-01T13:00:00,2239A,129.3964,42.8881,延边朝鲜族自治州,朝阳川镇医院,颗粒物(PM10),52,53,54,5,31,101,86,59,55,7,16,7,10,0.4,0.6
2023-03-01T13:00:00,2240A,130.9762,45.3001,鸡西市,环保局,,38,38,42,25,28,88,69,74,49,12,20,14,5,0.4,0.3
2023-03-01T13:00:00,2243A,130.9429,45.3039,鸡西市,第一中学,,26,26,37,12,24,94,73,75,51,7,12,8,6,0.3,0.3
2023-03-01T13:00:00,2244A,130.2537,47.3416,鹤岗市,哈啤分公司,,23,16,22,9,16,84,73,77,64,12,10,14,11,0.3,0.3
2023-03-01T13:00:00,2245A,130.2684,47.3086,鹤岗市,斯达机电,,25,8,30,6,16,80,77,76,55,6,12,8,7,0.3,0.3
2023-03-01T13:00:00,2246A,130.3114,47.3388,鹤岗市,东山纸板厂,,,24,52,7,21,84,74,77,42,2,9,,11,0.2,0.3
2023-03-01T13:00:00,2247A,130.1097,47.3382,鹤岗市,五号水库,,24,19,17,13,13,85,74,77,67,7,4,11,7,0.2,0.1
2023-03-01T13:00:00,2248A,131.1511,46.6937,双鸭山市,双合村,,46,42,46,32,25,84,80,75,54,12,14,13,17,0.3,0.7
2023-03-01T13:00:00,2249A,131.1652,46.6191,双鸭山市,南小市,颗粒物(PM10),102,153,40,16,12,88,67,78,53,7,14,11,10,0.6,0.4
2023-03-01T13:00:00,2250A,131.1524,46.6554,双鸭山市,环保局,,31,31,33,21,22,93,87,86,56,12,23,13,12,0.4,0.3
2023-03-01T13:00:00,2251A,131.12,46.5656,双鸭山市,苗圃,,29,21,33,13,27,93,92,82,79,10,13,6,8,0.1,0.3
2023-03-01T13:00:00,2252A,128.5159,47.4311,伊春市,环保局,,45,20,17,31,19,69,57,47,42,16,20,7,6,0.7,0.7
2023-03-01T13:00:00,2253A,128.9102,47.7412,伊春市,电力嘉园,,,21,20,6,12,83,65,47,47,,16,,6,0.4,0.5
2023-03-01T13:00:00,2254A,129.5029,48.471,伊春市,汤旺河国家公园,,26,25,22,18,13,77,77,59,59,3,3,7,6,0.2,0.1
2023-03-01T13:00:00,2255A,130.2751,46.8028,佳木斯市,佳纺,细颗粒物(PM2.5),83,75,43,61,30,78,71,54,41,30,29,7,6,0.6,0.6
2023-03-01T13:00:00,2256A,130.3995,46.8307,佳木斯市,发电厂,细颗粒物(PM2.5),55,45,21,39,18,84,77,54,54,21,24,13,4,0.5,0.5
2023-03-01T13:00:00,2257A,130.3258,46.7975,佳木斯市,环保局,细颗粒物(PM2.5),73,63,34,53,26,72,54,52,28,37,37,8,6,0.6,0.7
2023-03-01T13:00:00,2258A,130.3648,46.8032,佳木斯市,十一中,细颗粒物(PM2.5),57,57,31,40,23,77,69,43,34,28,41,9,9,0.6,0.7
2023-03-01T13:00:00,2259A,130.3794,46.7588,佳木斯市,四丰,,41,30,16,23,14,131,131,126,120,14,11,1,1,0.3,0.3
2023-03-01T13:00:00,2262A,131.0518,45.8751,七台河市,新一中,,29,5,29,8,24,91,91,86,76,8,12,8,6,0.3,0.4
2023-03-01T13:00:00,2263A,127.4833,50.2524,黑河市,交通局,,25,9,16,12,15,80,80,67,67,6,12,6,6,0.3,0.4
2023-03-01T13:00:00,2264A,127.5144,50.2341,黑河市,环保局,,,6,15,8,15,82,,76,74,7,11,4,6,,0.3
2023-03-01T13:00:00,2265A,127.5291,50.2472,黑河市,大黑河岛,,26,15,15,10,11,83,83,70,70,1,4,4,7,0.3,0.3
2023-03-01T13:00:00,2266A,126.9785,46.6365,绥化市,人和东街,,38,38,49,26,29,96,79,67,51,18,24,5,3,0.4,0.5
2023-03-01T13:00:00,2267A,126.964,46.6528,绥化市,党政办公中心,,,,49,,33,96,,79,38,17,21,9,4,0.3,0.3
2023-03-01T13:00:00,2269A,124.1069,50.4097,大兴安岭地区,科技局,,27,12,14,7,13,87,86,81,68,3,5,5,6,0.2,0.2
2023-03-01T13:00:00,2270A,117.396,32.939,蚌埠市,工人疗养院,细颗粒物(PM2.5),150,159,120,115,92,131,131,71,71,28,55,18,14,0.7,0.7
2023-03-01T13:00:00,2271A,117.3605,32.9427,蚌埠市,百货大楼,细颗粒物(PM2.5),158,186,139,120,94,129,129,60,60,29,77,12,7,,1.2
2023-03-01T13:00:00,2273A,117.4185,32.8911,蚌埠市,蚌埠学院,细颗粒物(PM2.5),140,153,123,107,83,128,128,57,57,29,57,,13,0.8,0.8
2023-03-01T13:00:00,2274A,117.3533,32.9673,蚌埠市,淮上区政府,细颗粒物(PM2.5),140,171,141,107,92,132,132,71,71,23,57,13,10,0.8,0.8
2023-03-01T13:00:00,2275A,117.3145,32.8977,蚌埠市,高新区,细颗粒物(PM2.5),140,141,128,107,94,126,126,49,49,30,63,17,11,0.9,0.9
2023-03-01T13:00:00,2277A,116.8305,32.7727,淮南市,潘集区政府,细颗粒物(PM2.5),188,182,144,141,108,114,113,40,40,29,46,16,13,0.7,0.6
2023-03-01T13:00:00,2278A,117.0067,32.6524,淮南市,师范学院,细颗粒物(PM2.5),190,184,142,143,92,113,113,42,42,,68,25,17,0.8,0.8
2023-03-01T13:00:00,2279A,116.8569,32.5951,淮南市,谢家集区政府,细颗粒物(PM2.5),168,158,102,127,76,117,110,83,60,39,39,20,16,0.8,0.6
2023-03-01T13:00:00,2280A,116.8281,32.633,淮南市,八公山区政府,细颗粒物(PM2.5),169,174,108,128,78,119,118,85,65,28,26,18,11,0.6,0.5
2023-03-01T13:00:00,2281A,116.6325,32.6201,淮南市,焦岗湖风景区管理处,细颗粒物(PM2.5),162,169,117,123,86,116,106,50,40,28,47,13,8,0.9,0.8
2023-03-01T13:00:00,2282A,116.8004,33.975,淮北市,监测站,颗粒物(PM10),92,134,154,52,103,106,106,59,59,15,44,7,9,0.5,0.9
2023-03-01T13:00:00,2283A,116.8091,33.9007,淮北市,烈山区政府,,,89,161,40,111,97,97,45,45,,69,6,9,0.6,0.8
2023-03-01T13:00:00,2284A,116.7856,33.9477,淮北市,职业技术学院,颗粒物(PM10),79,107,167,54,115,108,108,56,56,21,60,9,9,0.5,1.2
2023-03-01T13:00:00,2285A,117.8177,30.9412,铜陵市,市第四中学,细颗粒物(PM2.5),90,94,96,67,60,80,80,24,24,36,62,21,18,0.4,1.1
2023-03-01T13:00:00,2286A,117.8059,30.9273,铜陵市,市公路局,细颗粒物(PM2.5),100,103,88,75,59,85,85,35,35,29,49,26,14,0.9,1.3
2023-03-01T13:00:00,2287A,117.7807,30.9413,铜陵市,市新民污水厂,细颗粒物(PM2.5),82,90,84,60,49,94,94,29,29,23,59,9,13,0.6,0.7
2023-03-01T13:00:00,2288A,117.7439,30.8792,铜陵市,市第九中学,细颗粒物(PM2.5),83,94,91,61,47,72,72,25,25,45,67,12,11,0.6,0.7
2023-03-01T13:00:00,2289A,117.846,30.9413,铜陵市,车站新区,,,,81,,48,76,76,29,29,,58,16,12,0.5,1.1
2023-03-01T13:00:00,2290A,117.8483,30.97,铜陵市,市职教基地,细颗粒物(PM2.5),67,80,80,48,51,90,90,30,30,24,50,13,6,0.2,0.6
2023-03-01T13:00:00,2291A,117.0809,30.5177,安庆市,环科院,细颗粒物(PM2.5),113,94,65,85,55,123,123,32,32,17,59,11,10,0.7,0.7
2023-03-01T13:00:00,2292A,117.0331,30.5119,安庆市,马山宾馆,细颗粒物(PM2.5),109,91,64,82,50,65,,18,9,16,55,11,10,0.6,0.7
2023-03-01T13:00:00,2294A,116.9896,30.6145,安庆市,安庆大学,细颗粒物(PM2.5),100,86,62,75,42,123,123,39,39,18,45,15,10,0.8,0.7
2023-03-01T13:00:00,2295A,118.2903,29.6963,黄山市,延安路89号,细颗粒物(PM2.5),65,55,51,47,49,81,81,26,26,17,22,6,5,0.5,0.5
2023-03-01T13:00:00,2296A,118.327,29.7178,黄山市,黄山东路89号,颗粒物(PM10),59,68,61,40,51,69,69,21,21,24,28,6,5,0.6,0.6
2023-03-01T13:00:00,2297A,118.1371,30.2756,黄山市,黄山区政府5号楼,细颗粒物(PM2.5),59,55,40,42,32,124,124,36,36,14,16,9,6,0.5,0.5
2023-03-01T13:00:00,2298A,118.3093,32.3153,滁州市,老年大学,细颗粒物(PM2.5),119,104,82,90,69,149,149,68,68,22,34,15,11,1.0,1
2023-03-01T13:00:00,2299A,118.3244,32.2786,滁州市,人大宾馆,细颗粒物(PM2.5),120,115,100,91,75,139,139,75,75,25,46,14,9,0.5,0.6
2023-03-01T13:00:00,2301A,115.8277,32.8929,阜阳市,市监测站,细颗粒物(PM2.5),88,75,122,65,100,126,101,57,57,16,52,7,10,0.4,0.9
2023-03-01T13:00:00,2303A,115.8554,32.8605,阜阳市,开发区,细颗粒物(PM2.5),118,85,151,89,93,122,102,57,57,18,50,8,12,0.7,0.9
2023-03-01T13:00:00,2307A,116.5079,31.737,六安市,监测大楼,细颗粒物(PM2.5),138,124,124,105,69,116,116,67,67,19,39,12,8,,0.5
2023-03-01T13:00:00,2308A,116.4738,31.7643,六安市,皖西学院,细颗粒物(PM2.5),117,131,91,88,60,124,124,66,66,22,45,10,6,0.6,0.5
2023-03-01T13:00:00,2309A,116.4996,31.7905,六安市,朝阳厂,细颗粒物(PM2.5),132,105,79,100,65,131,131,80,80,22,41,15,8,0.7,0.6
2023-03-01T13:00:00,2310A,116.5567,31.7886,六安市,开发区,细颗粒物(PM2.5),132,142,106,100,66,123,123,62,62,20,41,14,10,0.6,0.5
2023-03-01T13:00:00,2311A,115.8072,33.8399,亳州市,污水处理厂,,,80,145,32,106,102,,53,53,11,37,7,11,0.5,0.8
2023-03-01T13:00:00,2312A,115.7789,33.8518,亳州市,三国揽胜宫,颗粒物(PM10),86,122,167,62,102,126,106,63,63,17,42,6,10,0.3,0.9
2023-03-01T13:00:00,2314A,117.47,30.6618,池州市,池州学院,细颗粒物(PM2.5),97,97,65,72,48,113,113,38,38,18,37,10,10,0.7,0.8
2023-03-01T13:00:00,2316A,118.7581,30.9454,宣城市,鳌峰子站,细颗粒物(PM2.5),100,74,47,75,36,89,89,54,54,19,30,4,6,1.0,0.6
2023-03-01T13:00:00,2317A,118.7385,30.9743,宣城市,敬亭山子站,细颗粒物(PM2.5),103,73,46,77,36,92,82,44,44,23,31,22,11,1.0,0.6
2023-03-01T13:00:00,2318A,118.7173,30.9427,宣城市,开发区子站,,,,39,,32,82,,35,34,,37,,5,,0.6
2023-03-01T13:00:00,2319A,119.0141,25.4325,莆田市,荔城区仓后路,颗粒物(PM10),73,95,57,47,30,133,133,55,55,24,24,10,9,0.7,0.8
2023-03-01T13:00:00,2320A,119.0015,25.4553,莆田市,莆田市监测站,颗粒物(PM10),63,75,45,38,23,138,138,55,55,21,18,11,8,0.7,0.7
2023-03-01T13:00:00,2321A,119.1119,25.4561,莆田市,涵江区六中,细颗粒物(PM2.5),118,97,51,89,33,135,135,54,54,18,26,12,8,0.8,0.7
2023-03-01T13:00:00,2322A,119.1013,25.3215,莆田市,秀屿区政府,细颗粒物(PM2.5),68,66,54,49,37,123,116,50,50,19,25,10,8,0.7,0.8
2023-03-01T13:00:00,2323A,118.981,25.4792,莆田市,东圳水库,,,,,,,,,,,,,,,,
2023-03-01T13:00:00,2324A,117.6211,26.2625,三明市,三钢,,36,30,37,22,25,115,115,41,41,13,30,17,10,0.6,0.6
2023-03-01T13:00:00,2325A,117.635,26.2714,三明市,三明二中,,47,47,35,22,20,112,112,40,40,20,33,19,9,1.2,0.8
2023-03-01T13:00:00,2326A,117.6028,26.2378,三明市,三元区政府,,49,49,43,19,29,107,107,39,39,16,31,16,9,0.7,0.8
2023-03-01T13:00:00,2327A,117.7275,26.3108,三明市,洋溪,,,,,,,,,,,,,,,,
2023-03-01T13:00:00,2331A,118.0966,26.6761,南平市,茫荡山,,,,,,,,,,,,,,,,
2023-03-01T13:00:00,2332A,118.1681,26.6369,南平市,南平市监测站,,32,28,32,17,19,102,100,28,28,11,27,6,4,0.5,0.6
2023-03-01T13:00:00,2333A,118.1825,26.6489,南平市,南平铝业有限公司,,36,36,34,14,21,98,97,34,34,14,32,8,9,0.5,0.6
2023-03-01T13:00:00,2334A,118.1756,26.6272,南平市,南平七中,,41,41,31,16,20,106,103,38,38,12,25,8,5,0.5,0.5
2023-03-01T13:00:00,2335A,117.0189,25.1181,龙岩市,龙岩师专,,,,,,,,,,,,,,,,
2023-03-01T13:00:00,2336A,117.0217,25.1033,龙岩市,龙岩市监测站,,41,41,46,25,30,131,117,49,49,17,35,12,8,0.6,0.7
2023-03-01T13:00:00,2337A,117.0258,25.0661,龙岩市,闽西职业技术学院,颗粒物(PM10),52,54,55,23,28,122,122,46,42,16,34,9,16,0.5,0.6
2023-03-01T13:00:00,2338A,117.0196,25.0306,龙岩市,龙岩学院,,50,50,36,22,21,124,123,57,57,17,17,7,6,0.6,0.5
2023-03-01T13:00:00,2339A,119.5001,26.6946,宁德市,金涵水库,,,,,,,,,,,,,,,,
2023-03-01T13:00:00,2341A,119.5388,26.6612,宁德市,宁德市监测站,,49,49,34,15,19,100,83,41,41,15,22,1,2,0.5,0.6
2023-03-01T13:00:00,2342A,117.3102,29.3867,景德镇市,王港中学,,26,26,30,9,22,45,40,12,12,6,8,4,4,0.3,0.4
2023-03-01T13:00:00,2343A,117.2117,29.2933,景德镇市,老干部活动中心,细颗粒物(PM2.5),52,42,47,36,33,54,54,36,33,17,18,5,5,0.6,0.6
2023-03-01T13:00:00,2344A,117.1894,29.2789,景德镇市,兽医站,,39,36,35,27,27,68,68,41,40,19,18,6,6,0.5,0.4
2023-03-01T13:00:00,2345A,117.1547,29.2617,景德镇市,台达陶瓷,,,44,35,26,23,66,66,39,35,,21,10,8,0.8,0.9
2023-03-01T13:00:00,2346A,117.2461,29.2956,景德镇市,陶研所,,38,38,45,19,20,56,56,32,32,13,14,5,5,0.7,0.7
2023-03-01T13:00:00,2347A,114.0997,27.5002,萍乡市,武功山,细颗粒物(PM2.5),55,50,48,39,39,113,94,54,54,17,22,14,11,0.8,0.8
2023-03-01T13:00:00,2348A,113.8385,27.6434,萍乡市,中医院,细颗粒物(PM2.5),88,92,80,65,50,89,65,42,28,23,33,37,22,0.8,0.9
2023-03-01T13:00:00,2349A,113.8493,27.6253,萍乡市,市政府车库,细颗粒物(PM2.5),102,92,78,76,59,112,77,39,28,19,31,34,20,1.3,1.4
2023-03-01T13:00:00,2350A,113.8676,27.6435,萍乡市,市环保局,细颗粒物(PM2.5),88,92,79,65,55,115,83,56,36,15,25,40,28,0.7,0.7
2023-03-01T13:00:00,2351A,113.866,27.6198,萍乡市,安源区政府,细颗粒物(PM2.5),77,99,88,56,60,104,69,29,29,23,32,41,29,0.8,0.9
2023-03-01T13:00:00,2352A,115.0861,27.9317,新余市,北岗,细颗粒物(PM2.5),69,64,64,50,50,93,47,30,24,46,45,43,38,0.7,0.6
2023-03-01T13:00:00,2353A,114.9886,27.8431,新余市,飞宇,颗粒物(PM10),61,72,79,42,44,82,58,32,29,28,39,29,39,0.7,0.7
2023-03-01T13:00:00,2354A,114.9231,27.8246,新余市,第二水厂,颗粒物(PM10),66,81,84,42,47,95,60,35,33,30,44,23,33,0.5,0.5
2023-03-01T13:00:00,2355A,114.9308,27.8036,新余市,市气象局,"颗粒物(PM10),细颗粒物(PM2.5)",67,84,91,48,50,99,54,38,33,33,41,27,30,0.8,0.7
2023-03-01T13:00:00,2357A,116.9822,28.1136,鹰潭市,龙虎山,,49,39,48,34,33,124,124,40,40,2,16,8,14,0.4,0.7
2023-03-01T13:00:00,2358A,117.0564,28.2642,鹰潭市,新监测站,,45,45,45,30,28,104,96,30,30,14,37,10,15,0.4,0.4
2023-03-01T13:00:00,2359A,117.0311,28.2475,鹰潭市,财苑宾馆,细颗粒物(PM2.5),57,49,50,40,28,100,99,32,32,14,39,11,19,0.4,0.6
2023-03-01T13:00:00,2360A,117.0222,28.2264,鹰潭市,体育馆,,50,44,55,35,34,112,112,36,36,13,40,10,23,0.3,0.5
2023-03-01T13:00:00,2361A,117.0017,28.2131,鹰潭市,三川水表,细颗粒物(PM2.5),62,46,60,44,37,105,105,35,35,15,45,10,11,0.6,0.6
2023-03-01T13:00:00,2362A,114.9017,25.9149,赣州市,通天岩,颗粒物(PM10),57,63,62,34,35,200,128,80,80,16,22,16,11,0.9,0.9
2023-03-01T13:00:00,2363A,114.9367,25.8664,赣州市,地委,颗粒物(PM10),60,69,96,37,45,200,135,117,117,2,42,25,15,1.0,1.1
2023-03-01T13:00:00,2364A,114.9461,25.8481,赣州市,气象台,,,71,77,50,47,192,128,58,58,,61,,15,0.7,0.8
2023-03-01T13:00:00,2365A,114.9322,25.8333,赣州市,市图书馆,细颗粒物(PM2.5),65,70,85,47,46,195,127,53,53,16,46,35,15,1.1,1.3
2023-03-01T13:00:00,2366A,114.8905,25.8471,赣州市,华坚鞋城,颗粒物(PM10),70,89,109,44,50,198,126,61,61,12,55,13,13,0.8,1
2023-03-01T13:00:00,2367A,114.9754,27.0803,吉安市,红声器材厂,颗粒物(PM10),65,79,71,40,44,140,101,72,56,23,30,18,19,0.7,0.6
2023-03-01T13:00:00,2368A,114.9658,27.0999,吉安市,市森林工业局,,,,69,,48,140,92,66,55,26,32,,15,,0.3
2023-03-01T13:00:00,2369A,114.99,27.1312,吉安市,市环境监测站,细颗粒物(PM2.5),62,64,67,44,44,144,98,68,54,28,37,16,20,0.6,0.6
2023-03-01T13:00:00,2370A,115.0093,27.0968,吉安市,青原区法院,细颗粒物(PM2.5),64,72,70,46,45,137,103,75,58,24,30,16,19,0.5,0.6
2023-03-01T13:00:00,2371A,114.3408,27.8064,宜春市,槟榔水业,细颗粒物(PM2.5),70,88,72,51,44,110,66,40,27,28,30,15,10,0.8,0.7
2023-03-01T13:00:00,2373A,114.3956,27.7844,宜春市,市石油公司,细颗粒物(PM2.5),82,91,86,60,54,129,90,35,35,32,40,22,15,0.8,0.9
2023-03-01T13:00:00,2374A,114.3703,27.7914,宜春市,市气象局,细颗粒物(PM2.5),79,90,77,58,49,130,86,54,36,32,37,27,18,1.2,1.1
2023-03-01T13:00:00,2375A,114.4013,27.8074,宜春市,市广电局,,,,68,,49,108,,102,,,44,,14,,1.0
2023-03-01T13:00:00,2376A,116.2127,28.0814,抚州市,桐源党溪,,45,45,49,26,33,117,117,47,47,4,8,7,6,0.6,0.5
2023-03-01T13:00:00,2377A,116.3544,27.9831,抚州市,市站,,50,50,56,32,36,113,113,47,47,13,22,7,6,0.6,0.7
2023-03-01T13:00:00,2378A,116.3565,27.963,抚州市,血防站,颗粒物(PM10),52,54,61,32,35,108,108,48,48,13,24,9,9,0.4,0.5
2023-03-01T13:00:00,2379A,116.3564,28.0007,抚州市,采茶剧团,,49,47,52,34,35,110,110,48,48,13,22,5,6,0.9,0.9
2023-03-01T13:00:00,2380A,116.385,27.9647,抚州市,医学分院,,48,48,53,33,31,115,115,47,47,14,27,8,8,0.6,0.6
2023-03-01T13:00:00,2381A,118.005,28.4572,上饶市,百草园,,,,58,,29,25,,31,,,24,,14,,0.6
2023-03-01T13:00:00,2382A,117.9756,28.4436,上饶市,市监测站,细颗粒物(PM2.5),68,81,67,49,34,85,85,22,22,32,40,17,27,0.6,0.6
2023-03-01T13:00:00,2383A,117.9519,28.4628,上饶市,凤凰光学,颗粒物(PM10),73,95,67,44,32,72,72,20,20,44,50,20,32,0.7,0.7
2023-03-01T13:00:00,2385A,114.17,35.9019,鹤壁市,市监测站,细颗粒物(PM2.5),83,78,143,61,93,127,93,50,50,20,35,20,16,1.0,1.1
2023-03-01T13:00:00,2386A,114.2956,35.7511,鹤壁市,市交警支队,细颗粒物(PM2.5),115,129,146,87,94,124,100,44,44,34,49,15,17,0.8,1
2023-03-01T13:00:00,2387A,114.2878,35.7306,鹤壁市,迎宾馆,细颗粒物(PM2.5),104,111,129,78,93,135,101,45,45,32,50,16,19,0.8,1
2023-03-01T13:00:00,2389A,113.836,35.311,新乡市,环保西院,细颗粒物(PM2.5),104,131,173,78,101,129,97,42,42,30,44,15,16,0.8,1
2023-03-01T13:00:00,2390A,113.884,35.272,新乡市,开发区,,,,163,,103,124,105,69,43,26,40,22,14,,1.1
2023-03-01T13:00:00,2391A,113.883,35.303,新乡市,环保东院,细颗粒物(PM2.5),87,116,147,64,89,124,106,45,42,26,46,17,14,1.0,1.1
2023-03-01T13:00:00,2392A,115.0312,35.7636,濮阳市,环保局,细颗粒物(PM2.5),112,78,116,84,114,108,108,73,73,22,40,10,17,0.6,0.9
2023-03-01T13:00:00,2394A,115.0574,35.7609,濮阳市,油田运输公司,细颗粒物(PM2.5),109,134,178,82,119,110,110,74,74,23,39,10,15,0.5,0.9
2023-03-01T13:00:00,2395A,115.0866,35.7754,濮阳市,油田物探公司,细颗粒物(PM2.5),105,83,126,79,121,106,106,62,62,18,39,11,17,0.4,0.8
2023-03-01T13:00:00,2396A,113.8276,34.0159,许昌市,监测站,细颗粒物(PM2.5),92,102,154,68,114,149,111,69,69,16,30,5,8,0.5,0.9
2023-03-01T13:00:00,2398A,113.7906,33.9953,许昌市,开发区,细颗粒物(PM2.5),79,73,149,58,116,147,106,63,56,18,34,5,7,0.3,0.7
2023-03-01T13:00:00,2399A,114.051,33.5699,漯河市,三五一五工厂,颗粒物(PM10),67,83,166,41,114,145,97,72,72,16,31,10,12,0.5,0.8
2023-03-01T13:00:00,2400A,114.0055,33.5698,漯河市,漯河大学,"颗粒物(PM10),细颗粒物(PM2.5)",70,90,169,51,114,149,102,79,79,15,32,9,12,0.5,0.9
2023-03-01T13:00:00,2401A,114.0138,33.5828,漯河市,市水利局,颗粒物(PM10),65,80,156,44,113,149,102,78,78,15,30,10,13,0.4,0.8
2023-03-01T13:00:00,2402A,114.0261,33.5698,漯河市,市广电局,细颗粒物(PM2.5),69,85,156,50,114,146,97,75,75,17,31,11,13,0.5,0.9
2023-03-01T13:00:00,2404A,112.5224,33.0122,南阳市,瓦房庄,细颗粒物(PM2.5),89,123,152,66,117,103,94,74,74,22,41,9,8,0.6,0.9
2023-03-01T13:00:00,2405A,112.5003,32.9735,南阳市,汉画馆,细颗粒物(PM2.5),90,126,148,67,118,102,90,66,66,21,37,8,7,0.7,1
