timepoint,stationcode,longitude,latitude,area,positionname,primarypollutant,aqi,pm10,pm10_24h,pm2_5,pm2_5_24h,o3,o3_24h,o3_8h,o3_8h_24h,no2,no2_24h,so2,so2_24h,co,co_24h
2025-11-17T1400,2566A,102.1879,31.914,阿坝藏族羌族自治州,州农科所,,,,,,,,,,,,,,,,
2025-11-17T1400,2568A,102.2502,31.8896,阿坝藏族羌族自治州,马师校,,22,14,20,6,16,70,70,43,40,8,17,6,6,0.4,0.5
2025-11-17T1400,3994A,102.2165,31.9024,阿坝藏族羌族自治州,马尔康中学西区,,25,19,20,3,12,77,77,57,53,6,12,5,5,0.3,0.4
2025-11-17T1400,2695A,80.292,41.1694,阿克苏地区,电视台,颗粒物(PM10),87,123,231,44,53,81,81,58,57,14,22,6,6,0.4,0.4
2025-11-17T1400,2696A,80.2613,41.1551,阿克苏地区,艺术中心,颗粒物(PM10),62,74,200,37,56,88,88,69,68,14,15,7,5,0.5,0.5
2025-11-17T1400,2204A,105.6467,38.8363,阿拉善盟,西城区西花园,,,,,,,,,,,,,,,,
2025-11-17T1400,2205A,105.6985,38.8411,阿拉善盟,蒙二幼,,19,9,14,3,3,59,59,58,55,6,5,7,7,0.7,0.6
2025-11-17T1400,2206A,105.724,38.8516,阿拉善盟,环保局新楼,,18,9,9,3,3,57,57,59,55,4,3,8,8,0.6,0.6
2025-11-17T1400,2708A,88.1264,47.8517,阿勒泰地区,市站,,23,23,13,9,7,49,49,69,41,38,34,17,6,0.4,0.4
2025-11-17T1400,2630A,80.1161,32.5,阿里地区,阿里监测站,,25,6,3,3,3,78,78,59,57,2,13,5,7,0.4,0.5
2025-11-17T1400,3192A,80.0903,32.5028,阿里地区,阿里藏医院,,23,,17,10,11,73,73,52,52,6,13,9,11,0.4,0.5
2025-11-17T1400,2642A,109.0318,32.6537,安康市,香溪洞,,,,,,,,,,,,,,,,
2025-11-17T1400,2644A,109.0072,32.6975,安康市,汉滨区检察院,,19,6,20,3,12,60,60,63,62,6,15,6,6,0.4,0.4
2025-11-17T1400,4054A,109.0325,32.6913,安康市,市邮政管理局,,18,8,23,3,12,57,57,62,60,7,13,4,4,0.4,0.5
2025-11-17T1400,2291A,117.0809,30.5177,安庆市,环科院,,37,37,88,7,52,52,52,82,53,12,19,3,6,0.2,0.6
2025-11-17T1400,2292A,117.0331,30.5119,安庆市,马山宾馆,,32,32,80,7,50,49,49,85,50,10,20,2,5,0.2,0.6
2025-11-17T1400,2294A,116.9896,30.6145,安庆市,安庆大学,,27,27,81,6,48,48,48,74,52,16,19,6,7,0.3,0.6
2025-11-17T1400,3173A,117.0598,30.5351,安庆市,市人大,,38,38,84,8,53,51,51,83,53,16,22,4,7,0.2,0.5
2025-11-17T1400,3122A,105.9606,26.2611,安顺市,伍家关,,38,35,34,26,21,66,66,47,47,7,12,6,21,0.4,0.3
2025-11-17T1400,3123A,105.9408,26.2431,安顺市,凤凰山,,,35,32,,19,66,66,50,50,8,11,8,24,0.6,0.5
2025-11-17T1400,3124A,105.9439,26.2564,安顺市,金钟山,,36,30,27,25,23,70,70,60,55,7,7,9,22,0.7,0.6
2025-11-17T1400,3125A,105.8983,26.2481,安顺市,娄家坡,,45,35,29,31,25,67,67,52,47,9,9,10,17,0.7,0.5
2025-11-17T1400,1818A,114.4839,36.0621,安阳市,棉研所,,,,,,,,,,,,,,,,
2025-11-17T1400,1819A,114.3551,36.1017,安阳市,红庙街,,39,39,62,7,10,43,43,40,40,10,14,3,1,0.5,0.4
2025-11-17T1400,1820A,114.361,36.0681,安阳市,银杏小区,,40,40,59,8,9,43,43,39,39,7,12,4,3,0.2,0.2
2025-11-17T1400,3141A,114.3922,36.0878,安阳市,信访局,,34,34,51,11,17,46,46,40,40,9,12,5,3,0.3,0.2
2025-11-17T1400,3669A,114.4705,36.0637,安阳市,左辅环卫站,颗粒物(PM10),54,57,79,7,9,50,50,43,43,8,12,3,1,0.5,0.3
2025-11-17T1400,3703A,114.2917,36.0949,安阳市,安钢职工学校,,49,49,64,10,12,38,38,47,47,8,14,4,2,0.2,0.3
2025-11-17T1400,1748A,123.044,41.1196,鞍山市,深沟寺,,34,34,34,14,10,54,54,43,43,10,16,7,11,0.5,0.8
2025-11-17T1400,1749A,123.011,41.0931,鞍山市,太阳城,,35,35,40,15,13,52,52,40,40,14,19,14,20,0.8,1.1
2025-11-17T1400,1750A,123.0485,41.1442,鞍山市,太平,,,51,41,16,10,56,56,42,42,,14,7,10,,0.6
2025-11-17T1400,1751A,122.9642,41.0971,鞍山市,铁西三道街,,40,40,48,12,14,52,52,38,38,11,18,8,11,0.4,0.6
2025-11-17T1400,1753A,123.022,41.0821,鞍山市,明达新区,,34,34,34,13,9,52,52,40,40,12,15,14,17,0.8,1
2025-11-17T1400,1754A,123.1289,41.0228,鞍山市,千山,,,,20,,7,,,50,,,10,,6,,0.4
2025-11-17T1400,4201A,122.9446,41.0826,鞍山市,兴盛南路290号,,37,37,46,14,16,52,52,37,37,17,25,10,8,0.4,0.5
2025-11-17T1400,2195A,107.4212,40.761,巴彦淖尔市,附二中,,29,29,30,17,16,52,52,38,38,4,9,4,3,0.4,0.4
2025-11-17T1400,2196A,107.37,40.7372,巴彦淖尔市,市环保大楼,,20,20,27,11,18,54,54,37,37,4,11,10,8,0.6,0.6
2025-11-17T1400,1956A,86.1472,41.7538,巴音郭楞蒙古自治州,孔雀公园,颗粒物(PM10),51,52,56,9,16,65,65,73,68,9,9,6,7,0.1,0.1
2025-11-17T1400,1957A,86.1972,41.7166,巴音郭楞蒙古自治州,棉纺厂,,,,58,,10,66,66,65,56,10,16,,7,0.3,0.4
2025-11-17T1400,1958A,86.2357,41.7173,巴音郭楞蒙古自治州,经济开发区,颗粒物(PM10),63,76,46,8,9,68,68,68,61,5,6,4,5,0.3,0.4
2025-11-17T1400,2914A,106.7677,31.8794,巴中市,苏山坪,,,,,,,,,,,,,,,,
2025-11-17T1400,3181A,106.7768,31.8526,巴中市,市五中,,20,11,21,6,13,64,64,50,50,8,11,8,8,0.3,0.5
2025-11-17T1400,3183A,106.7418,31.8654,巴中市,圣泉水务公司,,22,9,19,6,13,69,69,61,61,5,11,8,9,0.4,0.6
2025-11-17T1400,3616A,106.7616,31.8344,巴中市,市中心医院,,21,9,19,3,18,67,67,54,54,5,12,5,5,0.4,0.6
2025-11-17T1400,2235A,122.7911,45.6077,白城市,洮北区环保局,,,15,32,8,10,56,56,44,44,2,5,,3,,0.2
2025-11-17T1400,2236A,122.8738,45.5725,白城市,市环保局,,24,24,26,7,12,53,53,42,42,2,6,2,4,0.2,0.2
2025-11-17T1400,2231A,126.4219,41.9171,白山市,喜丰,,39,39,47,11,9,47,47,43,43,5,7,7,7,0.3,0.3
2025-11-17T1400,2232A,126.4077,41.9419,白山市,环保局,,26,26,31,15,12,46,46,43,43,4,6,8,8,0.3,0.4
2025-11-17T1400,2647A,104.1724,36.5446,白银市,第三小学,,42,42,42,10,9,60,60,55,55,7,9,26,18,0.2,0.1
2025-11-17T1400,2648A,104.1465,36.5482,白银市,动力公司,,39,39,36,10,9,60,60,56,56,6,8,10,11,0.5,0.4
2025-11-17T1400,2512A,106.6103,23.9011,百色市,市监测站,,26,26,40,14,23,64,64,25,25,8,22,5,6,0.5,0.6
2025-11-17T1400,2513A,106.6538,23.8859,百色市,市中心血站,,36,,58,25,38,59,59,20,20,17,36,7,9,0.7,0.8
2025-11-17T1400,3406A,106.6085,23.8798,百色市,祈福高中,,28,,63,19,33,59,59,19,19,10,26,4,6,0.5,0.7
2025-11-17T1400,2270A,117.396,32.939,蚌埠市,工人疗养院,,27,27,98,3,43,52,52,47,42,12,23,4,5,0.1,0.4
2025-11-17T1400,2271A,117.3605,32.9427,蚌埠市,百货大楼,,20,20,92,3,43,57,57,44,43,13,24,7,8,0.3,0.5
2025-11-17T1400,2273A,117.4185,32.8911,蚌埠市,蚌埠学院,,19,19,82,7,44,53,53,50,46,14,32,4,6,0.2,0.5
2025-11-17T1400,2274A,117.3533,32.9673,蚌埠市,淮上区政府,,19,19,86,10,43,58,58,50,45,12,25,6,7,0.1,0.3
2025-11-17T1400,2275A,117.3145,32.8977,蚌埠市,高新区,,17,9,81,8,43,52,52,45,38,18,26,6,7,0.2,0.4
2025-11-17T1400,3715A,117.3092,32.9314,蚌埠市,蚌埠田家炳中学,,26,26,96,8,45,54,54,48,42,18,23,3,5,0.2,0.4
2025-11-17T1400,1585A,109.8756,40.6532,包头市,市环境监测站,,,43,19,13,7,55,55,46,46,,7,6,8,0.6,0.6
2025-11-17T1400,1587A,109.9991,40.5842,包头市,包头八中,,47,47,18,6,4,54,54,,,5,5,3,4,0.3,0.4
2025-11-17T1400,1588A,109.8538,40.6821,包头市,青山宾馆,,,37,18,3,4,53,53,44,44,5,9,,8,0.6,0.7
2025-11-17T1400,1589A,109.8642,40.6288,包头市,惠龙物流,,30,30,14,6,6,58,58,48,48,4,7,5,6,0.4,0.5
2025-11-17T1400,1590A,110.0377,40.5546,包头市,东河鸿龙湾,,31,31,12,3,4,52,52,43,43,5,11,2,3,0.5,0.5
2025-11-17T1400,3283A,109.9154,40.5685,包头市,滨河大厦,,21,21,14,3,5,56,56,45,45,4,8,5,6,0.5,0.6
2025-11-17T1400,3419A,109.9447,40.6261,包头市,包头市委党校,,43,43,18,3,4,58,58,47,47,2,6,6,7,0.3,0.4
2025-11-17T1400,3683A,109.8331,40.6576,包头市,昆区政府,,36,36,16,3,6,53,53,44,44,6,10,7,10,0.2,0.4
2025-11-17T1400,1930A,107.185,34.3063,宝鸡市,庙沟村,,,,,,,,,,,,,,,,
2025-11-17T1400,1931A,107.0708,34.3017,宝鸡市,竹园沟,,30,30,44,10,15,64,64,54,52,6,10,7,7,0.3,0.3
2025-11-17T1400,1932A,107.1906,34.3672,宝鸡市,三陆医院,颗粒物(PM10),51,52,50,8,14,59,59,55,49,12,16,5,6,0.4,0.4
2025-11-17T1400,1933A,107.1431,34.3547,宝鸡市,监测站,,42,42,52,12,18,56,56,55,48,9,16,5,5,0.3,0.4
2025-11-17T1400,1934A,107.1186,34.3739,宝鸡市,技工学校,颗粒物(PM10),60,70,55,13,19,58,58,54,49,9,17,5,5,0.2,0.3
2025-11-17T1400,1936A,107.2058,34.3497,宝鸡市,文理学院,,36,36,50,13,16,61,61,57,51,8,13,5,5,0.3,0.3
2025-11-17T1400,1937A,107.2386,34.3622,宝鸡市,三迪小学,颗粒物(PM10),57,64,49,15,18,60,60,56,50,13,19,4,5,0.4,0.4
2025-11-17T1400,4308A,107.3898,34.3601,宝鸡市,陈仓区北开路21号,,48,48,47,16,20,62,62,55,54,9,12,5,5,0.2,0.3
2025-11-17T1400,1051A,115.493,38.8632,保定市,游泳馆,,19,18,34,6,4,59,59,50,50,2,2,3,3,0.6,0.5
2025-11-17T1400,1052A,115.5213,38.8959,保定市,华电二区,,20,,28,13,16,62,62,50,50,10,11,3,2,0.2,0.3
2025-11-17T1400,1053A,115.4713,38.9108,保定市,接待中心,,,,34,,5,,,53,,,9,,2,,0.2
2025-11-17T1400,1054A,115.4612,38.8416,保定市,地表水厂,,25,25,40,3,3,58,58,47,47,10,13,2,2,0.0,0
2025-11-17T1400,3581A,115.31981,38.95208,保定市,满城区生态环境分局,,20,14,30,3,4,62,62,56,56,2,3,3,3,0.3,0.4
2025-11-17T1400,3582A,115.47694,38.76408,保定市,清苑区第二中学,,20,17,39,3,7,63,63,49,49,2,4,2,2,0.2,0.2
2025-11-17T1400,3583A,115.62909,39.02311,保定市,徐水物探局,,19,19,30,6,11,57,57,42,42,2,5,3,2,0.3,0.3
2025-11-17T1400,4004A,115.4202,38.8656,保定市,双鹰农机,,21,15,29,13,16,65,65,53,53,2,5,2,2,0.4,0.3
2025-11-17T1400,4034A,115.5150,38.8590,保定市,植保所站,,19,19,45,6,16,57,57,48,48,4,3,2,2,0.2,0.3
2025-11-17T1400,2594A,99.1678,25.1081,保山市,市环境监测站,,30,22,20,10,15,94,94,49,49,6,8,2,2,0.3,0.4
2025-11-17T1400,2595A,99.1711,25.1328,保山市,市环保局,,31,22,21,16,18,98,98,56,56,5,6,6,6,0.4,0.4
2025-11-17T1400,1866A,109.2262,21.588,北海市,牛尾岭水库,,43,34,33,27,33,135,135,77,77,6,10,5,7,0.2,0.3
2025-11-17T1400,1867A,109.1436,21.4086,北海市,海滩公园,臭氧1小时,64,61,55,32,29,171,171,123,123,10,12,8,10,0.8,0.7
2025-11-17T1400,1868A,109.0981,21.4661,北海市,新市环保局,颗粒物(PM10),63,76,55,36,34,162,162,126,126,26,17,3,8,0.7,0.6
2025-11-17T1400,1869A,109.1778,21.5233,北海市,北海工业园,臭氧1小时,65,72,62,42,36,172,172,123,123,17,16,10,15,0.3,0.3
2025-11-17T1400,3400A,109.1911,21.4415,北海市,龙潭自来水厂,臭氧1小时,78,70,58,51,37,182,182,113,113,8,9,11,10,0.7,0.6
2025-11-17T1400,1001A,116.3621,39.8784,北京市,万寿西宫,,18,18,15,3,2,51,51,48,48,9,8,2,2,0.3,0.4
2025-11-17T1400,1002A,116.2202,40.2915,北京市,定陵,,,,,,,,,,,,,,,,
2025-11-17T1400,1003A,116.4174,39.9289,北京市,东四,,,16,20,3,2,46,46,43,43,6,8,,2,0.2,0.3
2025-11-17T1400,1004A,116.4072,39.8863,北京市,天坛,,23,23,20,3,3,49,49,46,46,3,3,3,2,0.2,0.2
2025-11-17T1400,1005A,116.462,39.9365,北京市,农展馆,,17,17,13,3,0,48,48,45,45,2,5,4,3,0.2,0.2
2025-11-17T1400,1006A,116.3392,39.9295,北京市,官园,,19,19,16,3,3,45,45,40,40,3,4,3,2,0.1,0.4
2025-11-17T1400,1007A,116.2878,39.9611,北京市,海淀万柳,,16,16,14,3,2,43,43,40,40,9,9,3,3,0.3,0.3
2025-11-17T1400,1008A,116.6636,40.135,北京市,顺义新城,,16,14,13,3,2,49,49,44,44,4,4,5,5,0.3,0.3
2025-11-17T1400,1009A,116.6275,40.3275,北京市,怀柔镇,,15,12,9,3,2,46,46,43,43,2,2,5,5,0.6,0.5
2025-11-17T1400,1010A,116.2296,40.217,北京市,昌平镇,,26,26,20,6,4,45,45,41,41,1,2,5,5,0.2,0.1
2025-11-17T1400,1011A,116.3966,39.9821,北京市,奥体中心,,,16,15,3,2,46,46,43,43,3,8,6,5,,0.4
2025-11-17T1400,3281A,115.9718,40.4529,北京市,延庆夏都,,21,21,14,3,3,47,47,45,45,2,2,3,2,0.4,0.3
2025-11-17T1400,3418A,116.8336,40.4095,北京市,密云新城,,15,12,10,3,3,47,47,42,42,2,2,2,2,0.4,0.4
2025-11-17T1400,3671A,116.088,39.9726,北京市,门头沟三家店,,23,23,20,3,2,46,46,45,45,2,2,1,1,0.2,0.3
2025-11-17T1400,3672A,116.1541,39.8204,北京市,丰台云岗,,16,16,13,3,2,51,51,48,48,2,2,1,2,0.2,0.2
2025-11-17T1400,3673A,116.6804,39.9081,北京市,通州东关,,23,23,18,3,1,46,46,44,44,2,3,4,3,0.6,0.6
2025-11-17T1400,3674A,115.9577,39.7603,北京市,房山燕山,,16,12,14,3,2,49,49,48,48,2,2,3,3,0.1,0.2
2025-11-17T1400,3675A,116.4672,39.7733,北京市,大兴旧宫,,18,18,15,3,2,51,51,48,48,3,4,3,2,0.3,0.3
2025-11-17T1400,3694A,115.986,40.4563,北京市,延庆石河营,,19,19,13,6,3,45,45,44,44,6,6,3,2,0.2,0.3
2025-11-17T1400,3695A,116.6151,40.3053,北京市,怀柔新城,,16,10,8,3,3,51,51,47,47,2,2,4,4,0.2,0.2
2025-11-17T1400,3696A,116.2545,39.8768,北京市,丰台小屯,,18,18,18,3,2,46,46,43,43,2,2,4,3,0.4,0.3
2025-11-17T1400,3697A,116.84,40.3844,北京市,密云镇,,16,13,14,3,3,49,49,40,40,6,9,1,1,0.3,0.3
2025-11-17T1400,4182A,116.1942,39.9158,北京市,八角北路9号,,25,25,21,3,3,37,37,36,36,7,7,3,3,0,0
2025-11-17T1400,4194A,117.0790,40.1518,北京市,洳河巡河路,,15,15,12,3,2,44,44,40,40,2,2,4,4,0.2,0.2
2025-11-17T1400,1761A,123.8275,41.3064,本溪市,大峪,,35,35,33,10,7,50,50,43,43,8,9,9,10,0.6,0.5
2025-11-17T1400,1762A,123.7567,41.3325,本溪市,溪湖,,29,29,38,10,6,52,52,44,44,10,10,6,8,0.5,0.5
2025-11-17T1400,1763A,123.7169,41.3094,本溪市,彩屯,,,32,40,9,7,48,48,41,41,9,8,7,8,,0.6
2025-11-17T1400,1764A,123.7669,41.2864,本溪市,东明,,43,43,50,9,4,49,49,42,42,8,8,9,8,0.4,0.4
2025-11-17T1400,1765A,123.7992,41.2664,本溪市,新立屯,,32,32,46,14,6,52,52,44,44,9,8,7,8,0.4,0.4
2025-11-17T1400,1766A,123.8142,41.3472,本溪市,威宁,,33,33,58,9,5,48,48,41,41,11,10,7,6,0.5,0.5
2025-11-17T1400,2587A,105.2864,27.3125,毕节市,八中,,17,13,35,3,20,53,53,46,46,4,8,8,8,0.6,0.6
2025-11-17T1400,2588A,105.31,27.2944,毕节市,师专,,16,8,30,3,21,50,50,45,45,7,10,8,9,0.7,0.6
2025-11-17T1400,4263A,105.3688,27.3598,毕节市,工业大道,,17,6,30,3,20,53,53,47,47,4,7,9,9,0.6,0.6
2025-11-17T1400,1629A,118.0018,37.3617,滨州市,第二水厂,,24,24,33,3,2,40,40,35,35,10,13,6,6,0,0
2025-11-17T1400,1630A,117.9776,37.393,滨州市,北中新校,,27,27,31,3,2,41,41,35,35,1,5,4,4,0,0
2025-11-17T1400,3514A,117.9378,37.3956,滨州市,中海酒店,,29,29,28,9,5,46,46,42,42,5,11,4,3,0.2,0.2
2025-11-17T1400,3515A,117.9378,37.3553,滨州市,开发区一中,,34,34,38,3,3,46,46,42,42,4,8,4,3,0.5,0.5
2025-11-17T1400,3516A,118.0917,37.694,滨州市,金海六路,,37,37,33,3,0,51,51,44,44,8,11,4,3,0.1,0.1
2025-11-17T1400,4028A,117.9956,37.3753,滨州市,滨州市西街道办事处,,24,24,29,7,6,44,44,40,40,13,16,5,6,0.1,0.1
2025-11-17T1400,2311A,115.8072,33.8399,亳州市,污水处理厂,,40,40,101,20,51,40,40,42,39,12,19,6,7,0.3,0.5
2025-11-17T1400,2312A,115.7789,33.8518,亳州市,三国揽胜宫,,32,32,100,6,47,39,39,42,38,17,21,4,3,0.3,0.5
2025-11-17T1400,3332A,115.7633,33.8034,亳州市,亳州学院,,29,29,93,6,46,42,42,46,42,18,21,3,3,0.3,0.5
2025-11-17T1400,2693A,82.0485,44.8556,博尔塔拉蒙古自治州,市党校,,35,30,44,24,14,47,47,19,19,4,15,2,4,0.4,0.3
2025-11-17T1400,2694A,82.0806,44.8969,博尔塔拉蒙古自治州,市环保局,,37,37,54,12,16,46,46,20,20,13,19,5,3,0.4,0.4
2025-11-17T1400,1071A,116.8842,38.2991,沧州市,沧县城建局,,36,36,40,9,18,59,59,49,49,10,13,6,3,0.1,0.1
2025-11-17T1400,1072A,116.8584,38.3254,沧州市,电视转播站,,34,34,40,17,9,55,55,44,44,9,11,6,5,0.4,0.4
2025-11-17T1400,1073A,116.8709,38.3228,沧州市,市环保局,,,41,41,21,20,55,55,45,45,,5,3,3,0.3,0.2
2025-11-17T1400,3324A,116.8136,38.3004,沧州市,河北水利电力学院,,39,39,37,7,10,54,54,42,42,4,7,3,3,0.2,0.2
2025-11-17T1400,2622A,97.1806,31.1273,昌都市,昌都监测站,,41,41,29,3,15,96,96,58,58,3,15,2,2,0.3,0.6
2025-11-17T1400,3719A,97.1714,31.1406,昌都市,昌都会议中心,,29,6,17,3,8,92,92,61,61,2,3,3,4,0.2,0.4
2025-11-17T1400,2690A,88.1236,43.8886,昌吉回族自治州,天山天池,,,,,,,,,,,,,,,,
2025-11-17T1400,2692A,87.2717,44.0297,昌吉回族自治州,新区政务中心,,41,41,45,19,20,36,36,24,24,20,29,16,10,0.4,0.5
2025-11-17T1400,3613A,87.3095,44.0142,昌吉回族自治州,亚心广场,颗粒物(PM10),53,56,53,27,22,39,39,28,28,16,25,17,12,0.6,0.7
2025-11-17T1400,1120A,125.2863,43.9027,长春市,客车厂,,,,57,,14,,,48,,,10,,6,,0.3
2025-11-17T1400,1121A,125.2841,43.8463,长春市,邮电学院,"颗粒物(PM10),细颗粒物(PM2.5)",500,732,91,704,54,147,147,74,74,52,13,9,7,1.8,0.4
2025-11-17T1400,1122A,125.3716,43.8772,长春市,劳动公园,细颗粒物(PM2.5),500,,72,714,54,136,136,70,70,42,13,10,9,1.4,0.3
2025-11-17T1400,1123A,125.3297,43.8805,长春市,园林处,细颗粒物(PM2.5),500,,74,640,54,130,130,63,63,37,13,7,5,1.7,0.4
2025-11-17T1400,1124A,125.4605,43.79,长春市,净月潭,细颗粒物(PM2.5),500,,58,693,44,130,130,69,69,29,10,5,5,1.4,0.4
2025-11-17T1400,1125A,125.7194,43.515,长春市,甩湾子,细颗粒物(PM2.5),94,,29,70,12,57,57,53,53,8,6,4,4,0.4,0.3
2025-11-17T1400,1126A,125.3863,43.8447,长春市,经开区环卫处,细颗粒物(PM2.5),500,,73,658,46,95,95,59,59,41,16,6,8,1.5,0.3
2025-11-17T1400,1127A,125.245,43.7783,长春市,高新区管委会,细颗粒物(PM2.5),500,,63,840,58,164,164,78,78,42,10,6,5,1.7,0.3
2025-11-17T1400,1128A,125.1761,43.8325,长春市,岱山公园,"颗粒物(PM10),细颗粒物(PM2.5)",500,,88,1301,93,95,95,59,59,70,11,10,6,2.5,0.5
2025-11-17T1400,4281A,125.3346,43.9164,长春市,北亚泰大街1068号,细颗粒物(PM2.5),458,,66,436,47,78,78,53,53,38,15,8,6,1.1,0.3
2025-11-17T1400,1335A,113.0833,28.2325,长沙市,经开区环保局,颗粒物(PM10),58,65,78,16,52,36,36,47,43,15,30,4,6,0.2,0.5
2025-11-17T1400,1336A,112.8872,28.2189,长沙市,高开区环保局,颗粒物(PM10),59,68,79,13,53,34,34,47,42,10,22,4,7,0.3,0.5
2025-11-17T1400,1337A,113.0792,28.2053,长沙市,马坡岭,颗粒物(PM10),65,80,96,16,50,39,39,49,46,12,41,4,6,0.2,0.5
2025-11-17T1400,1338A,112.9394,28.19,长沙市,湖南师范大学,颗粒物(PM10),63,76,87,16,41,39,39,54,46,10,20,3,5,0.4,0.6
2025-11-17T1400,1339A,113.0178,28.1322,长沙市,雨花区环保局,颗粒物(PM10),62,73,82,19,52,41,41,50,47,10,31,6,8,0.5,0.6
2025-11-17T1400,1340A,112.9792,28.2597,长沙市,伍家岭,颗粒物(PM10),61,71,96,18,49,37,37,47,43,17,34,4,6,0.2,0.5
2025-11-17T1400,1341A,113.0014,28.1944,长沙市,火车新站,颗粒物(PM10),66,81,87,27,50,40,40,51,46,16,30,8,11,0.3,0.5
2025-11-17T1400,1342A,112.9844,28.1178,长沙市,天心区环保局,颗粒物(PM10),65,80,84,18,46,41,41,53,49,14,29,5,7,0.2,0.4
2025-11-17T1400,1343A,112.8908,28.1308,长沙市,湖南中医药大学,颗粒物(PM10),70,90,97,15,48,38,38,55,46,15,29,4,6,0.4,0.7
2025-11-17T1400,1344A,112.9581,28.3611,长沙市,沙坪,,,,,,,,,,,,,,,,
2025-11-17T1400,1727A,113.1147,36.1547,长治市,清华站,,20,20,33,3,6,60,60,45,45,2,12,2,6,0.3,0.4
2025-11-17T1400,1730A,113.0886,36.2125,长治市,审计局,,18,14,27,3,5,57,57,44,44,8,16,5,9,0.2,0.3
2025-11-17T1400,1731A,113.0844,36.1856,长治市,长治八中,,26,26,37,8,10,55,55,42,42,3,11,5,9,0.2,0.3
2025-11-17T1400,2845A,113.1569,36.1911,长治市,德盛苑,,,29,37,3,9,55,55,43,43,,16,6,8,0.4,0.6
2025-11-17T1400,3568A,113.06,36.0464,长治市,向阳小学,,24,24,52,8,13,58,58,48,48,8,16,1,6,0,0.1
2025-11-17T1400,3569A,112.8792,36.3144,长治市,屯留一中,,18,18,33,3,10,52,52,46,46,7,12,8,8,0.8,0.8
2025-11-17T1400,4189A,113.1131,36.19948,长治市,英华南巷50号,,23,23,37,3,9,58,58,43,43,3,13,4,7,0.5,0.5
2025-11-17T1400,4190A,113.2367,36.3344,长治市,学府街1号,,,56,32,,7,48,48,45,41,9,11,9,7,0.4,0.3
2025-11-17T1400,1854A,111.6975,28.9703,常德市,市二中,,18,18,80,3,43,42,42,73,50,10,14,4,7,0.5,0.4
2025-11-17T1400,1857A,111.7158,29.1456,常德市,白鹤山,,,,,,,,,,,,,,,,
2025-11-17T1400,3138A,111.7153,29.0289,常德市,武陵区永安,,16,16,80,6,40,42,42,72,50,11,11,5,8,0.3,0.5
2025-11-17T1400,3139A,111.6892,28.9881,常德市,鼎城区玉霞,,14,13,80,6,49,44,44,75,51,10,11,5,8,0.5,0.6
2025-11-17T1400,3140A,111.6625,29.0531,常德市,武陵区长庚,,17,17,78,3,42,40,40,66,50,14,14,2,4,0.4,0.6
2025-11-17T1400,1196A,119.9633,31.762,常州市,市监测站,,15,15,74,8,39,44,44,69,52,20,25,5,7,0.2,0.4
2025-11-17T1400,1200A,119.9468,31.7069,常州市,武进监测站,,,14,75,,34,47,47,76,54,18,24,9,11,0.3,0.5
2025-11-17T1400,1201A,119.9255,31.9087,常州市,安家,,30,30,84,3,39,42,42,66,50,18,29,11,13,0.3,0.4
2025-11-17T1400,3002A,119.9805,31.8174,常州市,行政中心,,39,39,84,8,42,43,43,69,52,18,24,5,7,0.3,0.5
2025-11-17T1400,3003A,120.0522,31.7748,常州市,经开区,,,18,80,,42,40,40,72,50,10,21,8,8,,0.6
2025-11-17T1400,3010A,119.9025,31.7964,常州市,钟楼,,26,26,74,7,39,40,40,66,49,22,28,9,10,0.5,0.6
2025-11-17T1400,3429A,119.8598,31.7066,常州市,武进经发区,,17,17,61,3,33,43,43,66,47,24,37,8,10,0.6,0.9
2025-11-17T1400,3430A,119.5826,31.7245,常州市,金坛城区,,17,17,52,3,30,49,49,69,51,14,18,6,7,0.6,0.7
2025-11-17T1400,2220A,120.4318,41.5881,朝阳市,西梁,,25,25,50,3,3,51,51,44,44,5,7,3,2,0.4,0.4
2025-11-17T1400,2221A,120.4521,41.5646,朝阳市,河畔小区,,30,30,51,7,5,51,51,46,46,8,9,5,4,0.3,0.3
2025-11-17T1400,2222A,120.4176,41.5648,朝阳市,八里堡,,36,36,54,6,7,51,51,45,45,6,7,6,7,0.3,0.3
2025-11-17T1400,2223A,120.3806,41.5969,朝阳市,农业园区,,25,25,40,7,7,55,55,49,49,5,6,5,6,0.3,0.4
2025-11-17T1400,1705A,116.6367,23.6719,潮州市,西园路,,,,,,,,,,,,,,,,
2025-11-17T1400,3026A,116.6183,23.6608,潮州市,市政府,,32,32,51,12,27,97,97,71,71,1,13,4,7,0.3,0.4
2025-11-17T1400,4036A,116.6461,23.6761,潮州市,金山,,35,35,40,10,25,88,88,62,62,3,10,2,3,0.3,0.5
2025-11-17T1400,2472A,113.0073,25.9061,郴州市,马头岭,,,,,,,,,,,,,,,,
2025-11-17T1400,2473A,113.0116,25.8226,郴州市,市职中,细颗粒物(PM2.5),105,102,62,79,47,78,78,54,54,11,24,4,10,0.6,0.7
2025-11-17T1400,2475A,113.0383,25.8071,郴州市,市审计局,细颗粒物(PM2.5),104,116,67,78,49,75,75,53,53,15,27,4,10,0.4,0.5
2025-11-17T1400,2476A,113.0348,25.7759,郴州市,市环保局,细颗粒物(PM2.5),127,107,74,96,52,81,81,58,58,15,28,6,15,0.6,0.6
2025-11-17T1400,4252A,113.0138,25.8011,郴州市,好美居路49号,细颗粒物(PM2.5),102,102,58,76,45,84,84,61,61,15,31,2,11,0.6,0.6
2025-11-17T1400,1431A,103.9728,30.7236,成都市,金泉两河,颗粒物(PM10),53,56,37,12,20,51,51,48,48,18,22,3,2,0.4,0.5
2025-11-17T1400,1432A,104.176,30.6872,成都市,十里店,颗粒物(PM10),51,51,53,3,30,50,50,54,45,27,28,4,3,0.4,0.5
2025-11-17T1400,1433A,104.079,30.5706,成都市,三瓦窑,,49,49,53,3,25,64,64,61,61,19,26,4,3,0.3,0.5
2025-11-17T1400,1434A,104.1114,30.63,成都市,沙河铺,,45,45,55,17,35,53,53,50,50,24,31,1,2,0.2,0.4
2025-11-17T1400,1437A,104.0786,30.6531,成都市,君平街,,48,48,53,22,33,47,47,52,49,21,23,4,4,0.5,0.6
2025-11-17T1400,1438A,103.613,31.0283,成都市,灵岩寺,,,,,,,,,,,,,,,,
2025-11-17T1400,2880A,104.0239,30.65639,成都市,大石西路,,46,46,45,13,30,52,52,53,52,23,26,3,3,0.5,0.6
2025-11-17T1400,3136A,104.2725,30.5589,成都市,龙泉驿区区政府,,39,39,34,9,19,63,63,62,58,16,22,6,6,0.3,0.4
2025-11-17T1400,3357A,104.0106,30.6931,成都市,金博路,,39,39,39,11,23,49,49,51,50,21,26,5,5,0.4,0.5
2025-11-17T1400,3359A,104.0578,30.5225,成都市,华阳,颗粒物(PM10),52,53,42,17,26,59,59,54,54,18,26,5,5,0.2,0.3
2025-11-17T1400,3488A,104.3880,30.7467,成都市,青石路225号,,40,40,47,3,27,71,71,64,63,11,18,5,5,0.2,0.7
2025-11-17T1400,3489A,104.0789,30.4072,成都市,科学城,,35,35,35,13,22,60,60,58,56,16,20,5,5,0.3,0.4
2025-11-17T1400,4011A,103.8506,30.6947,成都市,光华大道三段,,50,50,45,11,28,56,56,48,48,16,21,1,1,0.5,0.6
2025-11-17T1400,4224A,104.2433,30.5353,成都市,鲸龙路1057号,,30,30,34,15,22,61,61,61,56,15,24,6,5,0.5,0.6
2025-11-17T1400,1062A,117.9531,40.9081,承德市,铁路,,19,19,32,3,5,49,49,44,,3,3,1,1,0.2,0.2
2025-11-17T1400,1063A,117.9392,40.9763,承德市,中国银行,,15,10,32,3,4,47,47,42,42,2,4,2,2,0.2,0.2
2025-11-17T1400,1064A,117.9503,40.928,承德市,开发区,,26,26,36,9,12,50,50,47,47,2,2,2,1,0.0,0
2025-11-17T1400,1066A,117.9268,41.0026,承德市,离宫,,,,,,,,,,,,,,,,
2025-11-17T1400,4274A,117.7994,40.9605,承德市,滨河大街98号,,14,14,18,7,7,42,42,41,40,2,2,3,3,0.2,0.2
2025-11-17T1400,2314A,117.47,30.6618,池州市,池州学院,,19,19,81,7,59,50,50,52,46,15,37,5,10,0.3,0.8
2025-11-17T1400,3237A,117.4918,30.6617,池州市,展览馆,,17,16,73,6,49,53,53,55,48,14,32,5,8,0.6,1
2025-11-17T1400,3333A,117.5627,30.695,池州市,第八中学,,21,21,71,7,43,52,52,56,46,21,38,7,10,0.4,0.9
2025-11-17T1400,3334A,117.5038,30.6243,池州市,第十二中学,,24,24,68,6,44,55,55,68,50,17,32,5,8,0.5,1
2025-11-17T1400,1744A,118.9233,42.2816,赤峰市,松山一中,,19,16,33,3,3,60,60,50,50,5,7,4,4,0.3,0.3
2025-11-17T1400,1745A,118.9576,42.2728,赤峰市,哈达街,,17,14,38,3,6,54,54,45,45,7,9,4,4,0.3,0.3
2025-11-17T1400,1746A,118.8788,42.2554,赤峰市,天义路,,,,27,0,10,38,38,41,36,,5,5,7,0.2,0.4
2025-11-17T1400,3058A,119.2658,42.0353,赤峰市,银河街,,18,18,41,6,10,56,56,48,48,1,2,6,6,0.3,0.3
2025-11-17T1400,3286A,118.9359,42.3147,赤峰市,桥北物流园区,,17,14,29,7,6,53,53,44,44,6,6,8,7,0.2,0.2
2025-11-17T1400,2521A,107.3476,22.4136,崇左市,市环保局江州分局,颗粒物(PM10),64,78,58,34,31,79,79,26,26,19,22,16,6,0.8,0.8
2025-11-17T1400,4256A,107.3750,22.3736,崇左市,石景林东路7号,,,62,48,36,32,96,96,38,38,,21,10,7,0.8,0.7
2025-11-17T1400,2298A,118.3093,32.3153,滁州市,老年大学,,22,22,69,9,35,46,46,55,50,14,17,11,12,0.2,0.3
2025-11-17T1400,2299A,118.3244,32.2786,滁州市,人大宾馆,,,25,71,6,31,49,49,56,52,8,16,,6,0.1,0.3
2025-11-17T1400,3207A,118.3118,32.3038,滁州市,市政府原办公楼,,27,27,73,11,37,51,51,60,55,14,18,4,6,0.3,0.5
2025-11-17T1400,3331A,118.3267,32.2634,滁州市,图书馆,,,26,72,3,30,52,52,59,54,12,20,,8,0.2,0.4
2025-11-17T1400,2605A,101.5482,25.0441,楚雄彝族自治州,州环境监测站,,21,9,25,3,19,67,67,28,28,2,14,6,9,0.5,0.6
2025-11-17T1400,2606A,101.538,25.0492,楚雄彝族自治州,市经济开发区,,21,7,25,3,20,66,66,26,26,3,17,6,11,0.6,0.7
2025-11-17T1400,2548A,107.5277,31.2827,达州市,达州职业技术学院,,,,,,,,,,,,,,,,
2025-11-17T1400,2549A,107.5086,31.2186,达州市,市环境监测站,,17,6,25,3,13,53,53,52,52,12,17,13,7,0.4,0.5
2025-11-17T1400,2550A,107.4988,31.2132,达州市,凤凰小区,,19,6,22,3,14,60,60,59,59,9,16,16,7,0.2,0.4
2025-11-17T1400,2551A,107.5082,31.1986,达州市,达县机关宾馆,,15,9,24,3,17,48,48,47,47,16,17,14,6,0.4,0.5
2025-11-17T1400,2552A,107.4644,31.2124,达州市,市政中心,,21,21,39,3,15,55,55,54,54,12,17,12,7,0.3,0.5
2025-11-17T1400,2614A,100.1542,25.7054,大理白族自治州,大理市环境监测站,,21,12,15,10,17,67,67,53,51,7,8,6,6,0.4,0.4
2025-11-17T1400,2615A,100.2171,25.5811,大理白族自治州,大理古城,,33,33,21,8,13,95,95,59,59,5,13,7,7,0.2,0.2
2025-11-17T1400,1109A,121.612,38.9741,大连市,甘井子,,30,30,34,3,3,49,49,45,45,15,17,6,7,0.3,0.3
2025-11-17T1400,1110A,121.565,38.9511,大连市,周水子,,27,27,31,3,4,56,56,64,62,14,13,6,3,0.3,0.2
2025-11-17T1400,1111A,121.5637,38.8845,大连市,星海三站,,31,31,37,10,6,49,49,44,44,9,10,6,7,0.3,0.2
2025-11-17T1400,1112A,121.6302,38.9117,大连市,青泥洼桥,,18,18,17,3,3,48,48,45,44,13,14,10,10,0.3,0.3
2025-11-17T1400,1113A,121.6251,38.8638,大连市,傅家庄,,22,22,21,6,4,47,47,44,44,8,9,8,9,0.3,0.2
2025-11-17T1400,1114A,121.5213,38.8661,大连市,七贤岭,,30,30,36,3,4,51,51,48,47,9,8,6,6,0.4,0.4
2025-11-17T1400,1115A,121.2529,38.8061,大连市,旅顺,,19,19,21,3,4,53,53,51,50,4,4,8,7,0.3,0.2
2025-11-17T1400,1116A,121.7485,39.1311,大连市,金州,,21,21,19,3,5,49,49,45,44,11,11,5,5,0.2,0.2
2025-11-17T1400,1117A,121.7811,39.0496,大连市,开发区,,28,28,34,3,4,46,46,41,41,7,8,11,10,0.1,0.1
2025-11-17T1400,1118A,121.9762,39.0631,大连市,双D港,,26,26,39,3,3,55,55,49,49,8,9,9,9,0.3,0.3
2025-11-17T1400,1789A,124.81117,46.03138,大庆市,大同区,,24,24,46,3,18,60,60,50,50,6,11,8,9,0.4,0.5
2025-11-17T1400,1790A,125.129,46.533,大庆市,龙凤区,,27,27,30,15,17,56,56,48,48,10,11,6,5,0.3,0.4
2025-11-17T1400,1791A,124.902,46.408,大庆市,红岗区,,26,20,27,18,15,62,62,52,52,6,10,4,4,0.3,0.3
2025-11-17T1400,1792A,125.153,46.586,大庆市,萨尔图区,,,14,23,3,11,61,61,50,50,,15,6,7,,0.3
2025-11-17T1400,1793A,124.9042,46.6215,大庆市,让胡路区,,24,24,36,12,29,64,64,54,54,2,6,6,7,0.3,0.4
2025-11-17T1400,3481A,125.141,46.634,大庆市,萨区政府监测点,,21,15,24,3,6,66,66,57,57,2,6,7,12,0.2,0.2
2025-11-17T1400,1721A,113.3819,40.1097,大同市,果树场,,23,23,18,3,9,57,57,47,47,8,12,8,11,0.4,0.4
2025-11-17T1400,1723A,113.2994,40.0758,大同市,云冈宾馆,,18,18,17,3,5,52,52,45,45,2,4,4,5,0.4,0.4
2025-11-17T1400,1724A,113.3444,40.0917,大同市,大同大学,,18,13,19,3,7,56,56,46,46,7,10,5,5,0.3,0.4
2025-11-17T1400,1725A,113.2661,40.1269,大同市,安家小村,,16,6,16,3,5,50,50,41,41,3,7,5,8,0.2,0.3
2025-11-17T1400,1726A,113.2711,40.0844,大同市,教育学院,,18,9,19,3,8,55,55,44,44,4,9,2,4,0.3,0.5
2025-11-17T1400,3282A,113.3397,40.0597,大同市,大同市卫生学校,,17,,18,6,6,54,54,46,46,5,7,2,3,0.4,0.4
2025-11-17T1400,3565A,113.1367,40.1122,大同市,云冈站,,18,9,14,8,5,56,56,43,43,2,5,3,4,0.4,0.4
2025-11-17T1400,3566A,113.1186,40.2556,大同市,图书馆,,32,32,26,3,7,58,58,44,44,4,8,2,4,0.4,0.5
2025-11-17T1400,3567A,113.5931,40.0461,大同市,区一中,,20,12,16,3,4,61,61,52,52,6,8,6,5,0.3,0.3
2025-11-17T1400,4199A,113.2798,40.0997,大同市,魏都大道141号,,18,14,20,6,9,56,56,46,46,4,8,2,4,0.4,0.5
2025-11-17T1400,2269A,124.1069,50.4097,大兴安岭地区,科技局,,,11,16,9,14,60,60,66,62,4,4,,5,0.2,0.2
2025-11-17T1400,3663A,124.1164,50.4278,大兴安岭地区,红旗社区,,21,6,3,3,2,65,65,70,66,2,3,3,4,0.3,0.3
2025-11-17T1400,1600A,124.3303,40.0625,丹东市,江湾东路,,32,32,33,11,7,47,47,42,42,10,11,6,7,0.4,0.4
2025-11-17T1400,1601A,124.4256,40.1503,丹东市,临江后街,颗粒物(PM10),52,53,40,7,6,46,46,40,40,8,9,5,5,0.4,0.5
2025-11-17T1400,1602A,124.3933,40.1461,丹东市,元宝山,,30,30,32,7,9,46,46,40,40,8,9,8,9,0.4,0.4
2025-11-17T1400,1603A,124.3633,40.1092,丹东市,民主桥,,34,34,38,3,3,40,40,33,33,10,11,5,6,0.8,0.7
2025-11-17T1400,3541A,109.5726,19.5167,儋州市,第一中学子站,,28,28,36,14,15,72,72,68,68,2,2,7,7,0.3,0.4
2025-11-17T1400,3542A,109.5567,19.5187,儋州市,东坡学校子站,,34,34,35,14,14,83,83,78,78,7,8,2,3,0.3,0.4
2025-11-17T1400,2616A,98.5842,24.428,德宏傣族景颇族自治州,德宏州监测站,,35,35,33,22,21,90,90,36,36,15,20,10,9,0.6,0.7
2025-11-17T1400,3677A,98.5881,24.4368,德宏傣族景颇族自治州,芒市人民政府综合楼,,33,31,31,23,17,84,84,35,35,12,13,8,7,0.7,0.7
2025-11-17T1400,1901A,104.4239,31.1208,德阳市,东山公园,颗粒物(PM10),52,54,35,18,23,65,65,61,56,8,13,2,1,0.4,0.6
2025-11-17T1400,1902A,104.3826,31.1317,德阳市,西小区,颗粒物(PM10),58,66,48,22,23,62,62,58,53,9,15,1,1,0.3,0.4
2025-11-17T1400,1904A,104.3553,31.1091,德阳市,耐火材料厂,颗粒物(PM10),54,58,45,16,22,61,61,54,52,14,20,2,3,0.4,0.6
2025-11-17T1400,3639A,104.4019,31.1244,德阳市,市教育局,颗粒物(PM10),52,54,38,14,20,62,62,55,52,7,14,1,2,0.4,0.5
2025-11-17T1400,1622A,116.3032,37.4674,德州市,儿童乐园,,27,27,57,3,8,55,55,34,34,8,21,8,8,0.3,0.4
2025-11-17T1400,1624A,116.2991,37.4451,德州市,监理站,,,24,43,,3,61,61,43,43,10,22,11,12,0.4,0.4
2025-11-17T1400,3066A,116.2721,37.4379,德州市,九衢泉纯净水厂,,34,34,48,3,7,52,52,36,36,9,19,9,10,0.4,0.5
2025-11-17T1400,3371A,116.3728,37.4403,德州市,开发区人民医院,,27,27,52,3,7,68,68,54,54,10,21,12,15,0.4,0.5
2025-11-17T1400,3511A,116.5652,37.3319,德州市,陵城艺术中心,,,48,53,7,5,41,41,36,35,,25,,11,0.3,0.5
2025-11-17T1400,4292A,116.3525,37.4209,德州市,新河东路,,34,34,53,3,9,51,51,38,38,14,26,8,10,0.6,0.5
2025-11-17T1400,2621A,99.7056,27.8317,迪庆藏族自治州,迪庆州站,,30,,29,16,18,93,93,68,68,5,13,5,5,0.4,0.6
2025-11-17T1400,3180A,99.7136,27.8094,迪庆藏族自治州,质量技术监督局,,32,26,29,10,13,102,102,66,66,8,16,7,7,0.5,0.6
2025-11-17T1400,4257A,104.6092,35.5962,定西市,将台街,,,30,48,6,19,70,70,66,65,,2,8,7,0.3,0.2
2025-11-17T1400,4309A,104.6159,35.5701,定西市,正龙路62号,,41,41,59,15,22,70,70,66,65,7,8,5,6,0.3,0.2
2025-11-17T1400,1389A,113.7547,23.0494,东莞市,莞城梨川,,44,26,57,20,33,140,140,87,87,12,43,3,5,0.4,0.6
2025-11-17T1400,1390A,113.7944,23.0128,东莞市,东城石井,,,31,51,18,33,154,154,82,82,,36,,8,0.6,0.7
2025-11-17T1400,1391A,113.7383,22.9658,东莞市,南城西平,,50,29,63,20,35,158,158,82,82,16,45,11,10,0.6,0.7
2025-11-17T1400,3319A,113.7338,23.0381,东莞市,万江金泰,,42,28,55,17,31,132,132,82,82,10,34,7,7,0.7,0.8
2025-11-17T1400,3626A,113.7533,23.0202,东莞市,南城元岭,,46,26,60,16,35,146,146,91,91,7,35,9,8,0.5,0.7
2025-11-17T1400,3627A,113.7875,23.0457,东莞市,东城主山,,47,33,67,22,35,150,150,91,91,3,36,8,10,0.5,0.7
2025-11-17T1400,1666A,118.6614,37.4309,东营市,市环保局,,19,19,26,3,0,44,44,44,42,15,14,6,5,0.6,0.5
2025-11-17T1400,3036A,118.6904,37.4338,东营市,开发区管委会,,,27,30,7,3,47,47,47,45,11,12,8,8,,2.3
2025-11-17T1400,3365A,118.5719,37.565,东营市,垦利区民丰路,,22,22,24,3,1,47,47,46,45,9,8,1,2,0.5,0.5
2025-11-17T1400,3498A,118.5055,37.8612,东营市,河口城区,,24,24,29,3,0,50,50,51,48,10,10,5,4,0.2,0.2
2025-11-17T1400,3646A,118.4978,37.4623,东营市,胜利站,,28,28,30,3,2,44,44,43,42,20,18,9,8,0.2,0.2
2025-11-17T1400,3734A,118.35,37.26,东营市,理想之城,,31,31,31,3,4,41,41,42,40,19,18,3,2,0.4,0.3
2025-11-17T1400,1591A,110.0023,39.8129,鄂尔多斯市,综合楼,,19,19,22,3,2,58,58,46,46,4,12,6,8,0.3,0.4
2025-11-17T1400,1592A,109.9486,39.8261,鄂尔多斯市,巴音孟克林场办事处,,24,24,25,3,6,62,62,47,47,3,12,5,6,0.5,0.6
2025-11-17T1400,1593A,109.7736,39.5986,鄂尔多斯市,康泽苑,,20,14,14,3,8,64,64,54,54,4,6,1,2,0.2,0.2
2025-11-17T1400,1594A,109.8119,39.5989,鄂尔多斯市,华泰汽车城,,20,14,16,3,6,63,63,53,53,3,6,5,5,0.1,0.1
2025-11-17T1400,1595A,109.9734,39.7884,鄂尔多斯市,奥林花园,,27,27,34,3,3,60,60,45,45,6,14,5,6,0.2,0.5
2025-11-17T1400,2436A,114.8938,30.3994,鄂州市,市政府,,32,32,89,3,59,30,30,50,43,17,35,9,10,0.4,0.7
2025-11-17T1400,2437A,114.8989,30.3714,鄂州市,赵家坝,,33,33,89,7,58,35,35,54,46,13,28,7,9,0.3,0.7
2025-11-17T1400,3654A,114.8094,30.4089,鄂州市,精准医疗中心,,30,30,87,6,58,35,35,52,44,11,32,4,7,0.5,0.9
2025-11-17T1400,2454A,109.4978,30.2981,恩施土家族苗族自治州,湖北民院,,17,13,43,3,52,53,53,52,52,9,16,6,7,0.4,0.7
2025-11-17T1400,2455A,109.4707,30.2798,恩施土家族苗族自治州,州电力总公司,,15,6,62,3,50,48,48,45,45,8,22,5,6,0.4,0.6
2025-11-17T1400,3549A,109.5061,30.3772,恩施土家族苗族自治州,龙凤新区,,14,6,60,3,49,44,44,46,46,6,13,6,6,0.3,0.4
2025-11-17T1400,2499A,108.3411,21.6158,防城港市,沙万,颗粒物(PM10),70,90,65,43,40,161,161,88,88,12,20,9,8,0.6,0.6
2025-11-17T1400,2500A,108.3514,21.7731,防城港市,防城档案局,细颗粒物(PM2.5),74,72,73,54,42,119,119,71,71,8,20,10,8,0.6,0.6
2025-11-17T1400,2501A,108.3506,21.6414,防城港市,大海花园,颗粒物(PM10),71,91,68,44,40,167,167,96,96,12,19,9,8,0.7,0.7
2025-11-17T1400,1371A,113.1294,23.0067,佛山市,湾梁,,40,34,64,15,33,127,127,60,60,19,57,8,8,0.4,0.7
2025-11-17T1400,1372A,113.1083,23.0478,佛山市,华材职中,,46,46,72,27,42,131,131,65,65,18,60,8,8,0.6,0.9
2025-11-17T1400,1373A,113.144,23.0453,佛山市,南海气象局,,44,40,64,27,34,139,139,66,66,15,50,8,9,0.7,1
2025-11-17T1400,1374A,113.2881,22.8094,佛山市,顺德苏岗,,,46,68,19,38,134,134,60,60,,48,10,10,,0.6
2025-11-17T1400,1376A,112.8383,22.8678,佛山市,高明孔堂,臭氧1小时,75,48,62,33,35,180,180,75,75,17,25,8,6,0.4,0.5
2025-11-17T1400,1377A,112.8836,23.1588,佛山市,三水监测站,,38,31,69,17,38,120,120,68,68,13,57,9,12,0.6,0.8
2025-11-17T1400,1378A,112.867,23.185,佛山市,三水云东海,,40,23,66,19,39,126,126,71,71,14,45,6,6,0.5,0.6
2025-11-17T1400,3625A,113.2544,22.7642,佛山市,容桂街道办,,38,34,77,14,43,121,121,71,71,21,50,8,8,0.5,0.7
2025-11-17T1400,1280A,119.3903,26.0543,福州市,鼓山,,,,25,,10,,,91,,,9,,2,,0.6
2025-11-17T1400,1282A,119.2681,26.0504,福州市,师大,,31,29,39,11,17,98,98,65,65,8,16,8,7,0.6,0.5
2025-11-17T1400,1283A,119.2984,26.1028,福州市,五四北路,,32,32,34,13,16,91,91,66,66,12,18,6,5,0.7,0.5
2025-11-17T1400,1284A,119.2648,26.0768,福州市,杨桥西路,,31,27,37,10,17,98,98,62,62,8,19,6,4,0.5,0.4
2025-11-17T1400,1285A,119.317,26.0746,福州市,紫阳,,37,37,50,11,18,84,84,64,64,19,26,9,8,0.6,0.5
2025-11-17T1400,3048A,119.5799,26.0936,福州市,九龙,,29,26,25,13,8,91,91,82,82,11,10,6,5,0.3,0.4
2025-11-17T1400,3526A,119.5189,25.9664,福州市,吴航,,29,27,27,13,12,92,92,71,71,10,14,8,7,0.4,0.4
2025-11-17T1400,1755A,123.7977,41.8491,抚顺市,望花区,,21,21,60,9,7,50,50,42,42,7,8,1,2,0.6,0.5
2025-11-17T1400,1756A,123.9161,41.8822,抚顺市,顺城区,,21,21,49,8,6,53,53,43,43,7,10,6,6,0.5,0.4
2025-11-17T1400,1757A,124.0436,41.8611,抚顺市,东洲区,,23,23,54,9,7,54,54,45,45,6,7,6,6,0.6,0.5
2025-11-17T1400,1758A,123.9247,41.8642,抚顺市,新抚区,,19,19,49,8,6,50,50,41,41,6,8,6,7,0.5,0.5
2025-11-17T1400,1759A,124.0972,41.8961,抚顺市,大伙房水库,,29,29,51,13,8,56,56,45,45,8,12,9,9,0.5,0.5
2025-11-17T1400,1760A,123.7086,41.8391,抚顺市,沈抚新城,,24,24,56,7,4,56,56,46,46,6,9,4,5,0.3,0.3
2025-11-17T1400,2376A,116.2127,28.0814,抚州市,桐源党溪,,,,,,,,,,,,,,,,
2025-11-17T1400,2377A,116.3544,27.9831,抚州市,市站,颗粒物(PM10),68,85,75,32,50,77,77,86,86,8,14,7,18,0.8,0.9
2025-11-17T1400,2378A,116.3565,27.963,抚州市,血防站,颗粒物(PM10),62,74,75,38,50,81,81,89,89,9,18,2,12,0.5,0.6
2025-11-17T1400,2379A,116.3564,28.0007,抚州市,采茶剧团,颗粒物(PM10),66,82,79,34,54,76,76,84,84,4,11,3,20,0.6,0.8
2025-11-17T1400,2380A,116.385,27.9647,抚州市,医学分院,颗粒物(PM10),72,94,80,30,48,79,79,85,85,7,13,5,16,0.6,0.8
2025-11-17T1400,2207A,121.6094,41.998,阜新市,工业园区,,32,32,56,3,4,54,54,48,48,9,10,6,7,0.2,0.2
2025-11-17T1400,2208A,121.6697,42.0279,阜新市,长青街,,27,27,46,3,2,53,53,46,46,5,7,6,6,0.2,0.2
2025-11-17T1400,2209A,121.6673,42.0705,阜新市,农业园区,,31,31,46,3,4,52,52,47,47,7,8,4,4,0.3,0.3
2025-11-17T1400,2210A,121.6717,42.0224,阜新市,东苑,,38,38,69,8,8,54,54,48,48,7,9,4,3,0.2,0.4
2025-11-17T1400,2211A,121.6506,42.0498,阜新市,玉龙新城,,,34,56,3,3,55,55,47,47,6,8,,6,,0.3
2025-11-17T1400,2301A,115.8277,32.8929,阜阳市,市监测站,,23,23,88,3,51,51,51,41,41,15,31,5,5,0.2,0.4
2025-11-17T1400,2303A,115.8554,32.8605,阜阳市,开发区,,35,35,101,6,41,49,49,45,45,16,23,4,4,0.2,0.3
2025-11-17T1400,2875A,115.784,32.8892,阜阳市,阜阳职业技术学院,,18,,78,10,48,55,55,49,49,12,21,6,7,0.2,0.4
2025-11-17T1400,3468A,115.7901,32.8613,阜阳市,市规划展馆,,18,18,86,3,37,48,48,42,42,12,20,5,6,0.3,0.5
2025-11-17T1400,3469A,115.836,32.9183,阜阳市,枣园社区,,18,18,88,3,38,54,54,46,46,12,25,4,5,0.4,0.5
2025-11-17T1400,2669A,102.9099,34.9841,甘南藏族自治州,州政府,,30,21,64,21,33,80,80,50,49,6,15,3,4,0.2,0.5
2025-11-17T1400,3380A,102.8914,34.9617,甘南藏族自治州,甘肃民族师范学院,,49,49,75,3,30,75,75,38,34,6,17,4,8,0.4,0.6
2025-11-17T1400,2570A,101.9603,30.0475,甘孜藏族自治州,水桥子,,21,8,6,3,5,65,65,51,45,7,11,8,8,0.5,0.4
2025-11-17T1400,3065A,101.9533,29.9972,甘孜藏族自治州,州环保局,,20,8,10,3,5,64,64,49,43,8,13,5,5,0.4,0.4
2025-11-17T1400,3414A,115.8347,28.932,赣江新区,桑海产业园,颗粒物(PM10),75,100,106,21,54,49,49,77,59,12,33,6,10,0.5,0.8
2025-11-17T1400,2362A,114.9017,25.9149,赣州市,通天岩,,48,48,36,31,22,147,147,92,92,5,7,51,45,0.8,0.7
2025-11-17T1400,2363A,114.9367,25.8664,赣州市,地委,,,51,47,34,29,163,163,99,99,10,18,9,7,,0.5
2025-11-17T1400,2364A,114.9461,25.8481,赣州市,气象台,,50,50,52,33,26,138,138,84,84,9,26,9,8,0.6,0.6
2025-11-17T1400,2365A,114.9322,25.8333,赣州市,市图书馆,,49,49,44,32,30,137,137,85,85,7,21,8,6,0.7,0.7
2025-11-17T1400,2366A,114.8905,25.8471,赣州市,华坚鞋城,颗粒物(PM10),53,56,49,33,26,123,123,77,77,12,22,8,5,0.5,0.5
2025-11-17T1400,3109A,115.0093,25.8613,赣州市,赣县区卫计委,细颗粒物(PM2.5),58,57,47,41,35,136,136,78,78,4,26,8,7,0.6,0.6
2025-11-17T1400,2683A,106.2319,36.1417,固原市,马园,,,,,,,,,,,,,,,,
2025-11-17T1400,2684A,106.2792,36.0022,固原市,监测站,,,35,56,,16,53,53,39,39,8,16,7,8,0.4,0.8
2025-11-17T1400,2685A,106.2375,36.0211,固原市,新区,,30,30,54,3,15,56,56,38,38,8,17,7,9,0.1,0.3
2025-11-17T1400,3522A,106.2177,35.9959,固原市,原州区十五小,,30,30,61,9,19,55,55,39,39,8,16,6,10,0.3,0.4
2025-11-17T1400,2543A,106.6308,30.5278,广安市,小平旧居,,,,,,,,,,,,,,,,
2025-11-17T1400,2544A,106.6303,30.4576,广安市,市委,,19,9,25,8,21,59,59,55,55,10,11,2,3,0.4,0.5
2025-11-17T1400,2545A,106.6271,30.4663,广安市,友谊中学,,20,6,28,3,21,61,61,56,56,8,11,6,6,0.4,0.5
2025-11-17T1400,2547A,106.6388,30.4551,广安市,广电花园,,18,8,20,3,20,57,57,53,53,9,11,1,2,0.4,0.5
2025-11-17T1400,2902A,106.6351,30.4865,广安市,北辰小学,,20,7,24,3,20,61,61,57,57,6,8,5,7,0.4,0.6
2025-11-17T1400,2523A,105.8945,32.4535,广元市,黑石坡,,,,,,,,,,,,,,,,
2025-11-17T1400,2524A,105.821,32.4444,广元市,老城,,29,29,39,12,16,64,64,70,63,9,11,2,4,0.5,0.5
2025-11-17T1400,2526A,105.8628,32.4287,广元市,监测站,,21,21,41,12,17,60,60,67,60,6,10,3,4,0.6,0.7
2025-11-17T1400,3617A,105.8047,32.4166,广元市,经开区,,46,46,46,14,18,57,57,63,58,7,12,2,5,0.3,0.5
2025-11-17T1400,1345A,113.2347,23.1423,广州市,广雅中学,,44,44,66,22,36,134,134,70,70,14,61,8,8,0.4,0.6
2025-11-17T1400,1346A,113.2612,23.105,广州市,市五中,,46,32,60,21,39,145,145,5,,15,73,7,7,0.5,0.9
2025-11-17T1400,1348A,113.3478,23.0916,广州市,广东商学院,,40,30,59,17,32,126,126,66,66,9,56,5,5,0.1,0.3
2025-11-17T1400,1349A,113.4332,23.1047,广州市,市八十六中,,37,21,50,16,30,118,118,65,65,10,58,7,7,0.1,0.5
2025-11-17T1400,1350A,113.3505,22.9483,广州市,番禺中学,,38,34,68,14,36,121,121,67,67,10,43,6,8,0.2,0.6
2025-11-17T1400,1351A,113.2146,23.3916,广州市,花都师范,,32,27,51,16,28,101,101,74,74,13,39,6,8,0.3,0.6
2025-11-17T1400,1352A,113.2597,23.1331,广州市,市监测站,,44,37,53,19,31,138,138,72,72,11,50,8,7,0.4,0.6
2025-11-17T1400,1353A,113.5618,23.312,广州市,九龙镇镇龙,,31,30,57,18,32,99,99,57,57,9,34,6,6,0.5,0.6
2025-11-17T1400,1354A,113.2765,23.1544,广州市,麓湖,,43,42,41,23,29,136,136,68,68,12,52,8,7,0.3,0.5
2025-11-17T1400,1355A,113.443,23.3035,广州市,帽峰山森林公园,,,,,,,,,,,,,,,,
2025-11-17T1400,2846A,113.3221,23.1322,广州市,体育西,,39,33,52,21,34,124,124,71,71,10,48,8,7,0.4,0.7
2025-11-17T1400,3298A,113.5717,23.5491,广州市,从化街口,,30,23,45,14,29,94,94,59,59,6,31,6,7,0.5,0.7
2025-11-17T1400,3299A,113.3472,23.3692,广州市,白云竹料,,38,26,51,14,30,119,119,78,78,8,34,5,5,0.4,0.6
2025-11-17T1400,3300A,113.2981,23.237,广州市,白云嘉禾,,43,38,53,20,28,136,136,74,74,11,44,8,8,0.4,0.6
2025-11-17T1400,3301A,113.4256,23.1716,广州市,黄埔科学城,,43,28,39,18,24,136,136,85,85,10,28,5,5,0.4,0.5
2025-11-17T1400,3302A,113.3942,23.0483,广州市,番禺大学城,,40,38,69,11,32,126,126,16,,5,48,10,11,0.3,0.6
2025-11-17T1400,3303A,113.4922,22.8168,广州市,南沙黄阁,臭氧1小时,69,61,64,25,35,175,175,93,93,24,41,15,10,0.6,0.8
2025-11-17T1400,3304A,113.5342,22.7896,广州市,南沙街,臭氧1小时,97,66,54,25,32,197,197,97,97,22,27,12,8,0.5,0.5
2025-11-17T1400,3443A,113.2902,23.5544,广州市,花都梯面,,35,24,30,17,20,112,112,97,97,6,22,6,7,0.4,0.4
2025-11-17T1400,3445A,113.7858,23.7478,广州市,从化良口,,33,26,22,23,16,100,100,68,68,7,16,8,7,0.6,0.6
2025-11-17T1400,3446A,113.8051,23.2614,广州市,增城荔城,,31,17,32,11,22,99,99,75,75,6,16,9,9,0.4,0.5
2025-11-17T1400,2505A,109.568,23.1478,贵港市,德智高中,,,,,,,,,,,,,,,,
2025-11-17T1400,2506A,109.6047,23.0666,贵港市,江南子站,"颗粒物(PM10),细颗粒物(PM2.5)",67,83,93,48,60,103,103,51,51,17,35,12,9,0.8,0.9
2025-11-17T1400,2508A,109.5669,23.1065,贵港市,荷城子站,颗粒物(PM10),53,56,72,36,43,95,95,54,54,14,31,8,8,0.8,0.8
2025-11-17T1400,3405A,109.5886,23.1172,贵港市,新世纪学校,细颗粒物(PM2.5),63,66,70,45,45,107,107,56,56,10,21,8,8,0.5,0.6
2025-11-17T1400,4260A,109.5933,23.0951,贵港市,中山路155-3号,,,89,72,45,48,111,111,56,56,14,29,9,9,,0.8
2025-11-17T1400,1439A,106.6899,26.5998,贵阳市,马鞍山,,31,31,35,14,21,37,37,15,15,10,16,4,5,0.6,0.5
2025-11-17T1400,1441A,106.6243,26.6266,贵阳市,鉴湖路,,39,39,42,14,16,31,31,46,25,14,17,6,8,0.5,0.4
2025-11-17T1400,1442A,106.7487,26.6343,贵阳市,燕子冲,,42,,28,29,26,39,39,25,25,13,18,4,5,0.4,0.3
2025-11-17T1400,1443A,106.6555,26.4365,贵阳市,碧云窝,,48,48,52,24,23,36,36,17,17,13,17,4,4,0.6,0.4
2025-11-17T1400,1445A,106.7109,26.6027,贵阳市,红边门,,29,29,42,19,27,39,39,18,18,10,26,6,11,0.7,0.8
2025-11-17T1400,1446A,106.7164,26.5699,贵阳市,新华路,,39,39,50,17,25,45,45,27,27,19,32,13,23,0.5,0.5
2025-11-17T1400,1447A,106.674,26.5424,贵阳市,太慈桥,,42,29,38,29,24,35,35,15,15,14,21,5,5,0.3,0.2
2025-11-17T1400,1552A,106.805,26.3003,贵阳市,桐木岭,,46,46,34,31,21,52,52,70,64,13,5,15,16,0.8,0.6
2025-11-17T1400,4230A,106.6882,26.5695,贵阳市,花果园大街66号,,,27,41,3,19,30,30,13,13,12,28,3,8,,1
2025-11-17T1400,4231A,106.6873,26.5169,贵阳市,漓江路57号,,45,39,40,31,30,28,28,11,11,12,24,9,16,0.6,0.6
2025-11-17T1400,1862A,110.4144,25.3167,桂林市,电子科大尧山校区,,,,,,,,,,,,,,,,
2025-11-17T1400,1864A,110.3089,25.2708,桂林市,龙隐路小学,颗粒物(PM10),51,51,45,35,34,118,118,109,109,9,14,10,8,0.6,0.6
2025-11-17T1400,1865A,110.2869,25.2178,桂林市,八中,细颗粒物(PM2.5),53,51,54,37,40,111,111,101,101,12,20,10,9,0.1,0.2
2025-11-17T1400,3531A,110.296,25.1253,桂林市,旅游学院,颗粒物(PM10),52,53,51,29,35,123,123,109,109,9,27,8,7,0.4,0.4
2025-11-17T1400,4222A,110.1835,25.2444,桂林市,环湖路276号,颗粒物(PM10),51,51,55,34,39,109,109,105,105,15,19,8,15,0.4,0.4
2025-11-17T1400,4301A,110.2803,25.2773,桂林市,信义路13号,,,60,50,39,31,120,120,112,112,11,20,10,9,,0.7
2025-11-17T1400,2674A,100.2561,34.4714,果洛藏族自治州,玛沁县大武镇,颗粒物(PM10),57,63,41,3,7,96,96,62,62,2,3,7,12,0.2,0.4
2025-11-17T1400,1129A,126.5422,45.755,哈尔滨市,岭北,,,,,,,,,,,,,,,,
2025-11-17T1400,1130A,126.561,45.8167,哈尔滨市,松北商大,,20,20,46,3,27,54,54,52,52,10,11,18,7,0.5,0.5
2025-11-17T1400,1131A,126.979,45.5419,哈尔滨市,阿城会宁,,31,31,47,12,16,66,66,56,56,9,13,7,5,0.4,0.5
2025-11-17T1400,1132A,126.599,45.7222,哈尔滨市,南岗学府路,,24,24,57,3,25,55,55,50,50,5,13,8,11,0.3,0.4
2025-11-17T1400,1133A,126.689,45.7733,哈尔滨市,太平宏伟公园,,30,30,52,12,26,63,63,59,59,3,6,7,13,0.5,0.6
2025-11-17T1400,1134A,126.635,45.7667,哈尔滨市,道外承德广场,,38,38,77,14,25,61,61,59,59,9,10,7,8,0.4,0.5
2025-11-17T1400,1135A,126.685,45.7319,哈尔滨市,香坊红旗大街,,24,24,69,7,23,57,57,57,57,8,10,6,5,0.4,0.5
2025-11-17T1400,1136A,126.6411,45.7258,哈尔滨市,动力和平路,,27,27,59,3,23,62,62,60,60,5,10,4,6,0.5,0.5
2025-11-17T1400,1137A,126.593,45.7478,哈尔滨市,道里建国路,,,,52,,31,,,50,,,11,,9,,0.6
2025-11-17T1400,1138A,126.615,45.61,哈尔滨市,平房东轻厂,,35,35,50,15,20,58,58,50,50,10,16,7,8,0.5,0.4
2025-11-17T1400,1139A,126.595,45.9855,哈尔滨市,呼兰师专,,28,28,54,10,41,51,51,48,48,7,11,6,7,0.3,0.5
2025-11-17T1400,1140A,126.6206,45.6842,哈尔滨市,省农科院,,32,32,63,12,23,56,56,59,59,17,14,6,6,0.4,0.5
2025-11-17T1400,2688A,93.5128,42.8172,哈密市,地区监测站,颗粒物(PM10),60,70,43,20,12,53,53,37,30,12,15,3,3,0.2,0.3
2025-11-17T1400,2689A,93.4961,42.8328,哈密市,哈密师范学校,颗粒物(PM10),55,59,50,19,10,54,54,29,26,12,20,6,4,0.3,0.4
2025-11-17T1400,2671A,100.9048,36.9639,海北藏族自治州,海晏县西海镇,,42,42,47,21,19,74,74,54,54,9,7,20,12,0.5,0.5
2025-11-17T1400,3867A,102.0738,36.5056,海东市,平安区公安北苑,,32,32,63,21,19,69,69,61,57,6,9,19,15,0.5,0.5
2025-11-17T1400,1409A,110.576,19.9507,海口市,东寨港,,,,,,,,,,,,,,,,
2025-11-17T1400,1410A,110.3232,20.0574,海口市,海南大学,,40,40,42,19,18,109,109,114,114,6,6,6,6,0.4,0.3
2025-11-17T1400,1411A,110.283,20.0053,海口市,秀英海南医院,,,38,41,18,16,106,106,91,,,6,7,7,0.3,0.2
2025-11-17T1400,1412A,110.338,19.9969,海口市,海南师范大学,,39,39,40,17,17,112,112,112,112,5,6,5,5,0.4,0.4
2025-11-17T1400,1413A,110.33,20.0356,海口市,龙华路环保局宿舍,,43,43,40,18,18,116,116,118,118,6,7,7,7,0.4,0.4
2025-11-17T1400,3539A,110.5111,19.9736,海口市,桂林洋子站,,34,33,38,14,18,107,107,104,104,6,6,7,7,0.3,0.3
2025-11-17T1400,2673A,100.6188,36.2866,海南藏族自治州,共和县恰卜恰镇,颗粒物(PM10),123,195,50,14,8,104,104,94,86,1,4,10,10,0.3,0.4
2025-11-17T1400,2676A,97.3731,37.3753,海西蒙古族藏族自治州,德令哈市,,29,24,28,10,13,90,90,69,69,4,7,17,16,0.3,0.6
2025-11-17T1400,1048A,114.5302,36.6116,邯郸市,东污水处理厂,,16,13,37,11,20,47,47,41,41,10,15,5,3,0.3,0.3
2025-11-17T1400,1049A,114.4918,36.5713,邯郸市,矿院,,25,,43,17,20,46,46,40,40,8,13,4,2,0.3,0.3
2025-11-17T1400,1050A,114.484,36.6133,邯郸市,丛台公园,,,,41,12,16,53,53,47,47,9,14,3,3,0.2,0.2
2025-11-17T1400,3458A,114.7895,36.5593,邯郸市,香泉濮院小区,,17,12,56,11,17,54,54,46,46,6,12,7,6,0.4,0.2
2025-11-17T1400,3579A,114.50634,36.77178,邯郸市,永年区实验高中,,,,43,,12,48,48,39,39,11,19,,6,,0.4
2025-11-17T1400,3580A,114.20016,36.44293,邯郸市,峰峰矿区临水派出所,,22,22,42,14,20,48,48,44,42,12,16,7,5,0.6,0.5
2025-11-17T1400,2634A,106.9893,33.1842,汉中市,汉川机床厂子校,,,,,,,,,,,,,,,,
2025-11-17T1400,2635A,107.0154,33.0706,汉中市,市监测站,,20,20,27,3,13,51,51,55,51,11,15,4,4,0.4,0.4
2025-11-17T1400,2636A,107.0089,33.1138,汉中市,鑫源开发区,,20,20,26,11,17,52,52,57,52,12,17,5,5,0.2,0.3
2025-11-17T1400,2637A,107.007,33.0323,汉中市,南郑大河坎水厂,,16,16,29,10,16,50,50,56,49,13,16,1,3,0.4,0.4
2025-11-17T1400,1223A,120.2072,30.2111,杭州市,滨江,,16,16,87,9,42,36,36,44,44,27,50,6,7,0.3,0.5
2025-11-17T1400,1224A,120.0633,30.2747,杭州市,西溪,,,35,65,3,36,40,40,53,51,26,34,7,7,,0.8
2025-11-17T1400,1226A,120.3417,30.3150,杭州市,下沙,,31,31,73,12,45,45,45,49,49,20,64,4,6,0.4,0.5
2025-11-17T1400,1227A,120.1269,30.2456,杭州市,卧龙桥,,22,22,60,6,38,41,41,49,48,22,30,9,9,0.3,0.5
2025-11-17T1400,1228A,120.1903,30.2692,杭州市,浙江农大,,15,12,72,7,46,45,45,49,49,27,56,6,7,0.7,0.9
2025-11-17T1400,1230A,120.1197,30.3119,杭州市,和睦小学,,23,17,65,16,42,43,43,57,54,21,38,8,9,0.7,0.8
2025-11-17T1400,1231A,120.3019,30.4183,杭州市,临平镇,,16,16,95,10,68,51,51,56,56,12,32,6,7,0.4,0.6
2025-11-17T1400,1232A,120.2753,30.1839,杭州市,城厢镇,,34,34,77,8,53,50,50,53,53,19,53,7,8,0.5,0.6
2025-11-17T1400,1233A,120.0883,30.1808,杭州市,云栖,,22,22,63,6,40,47,47,54,54,18,29,6,6,0.5,0.6
2025-11-17T1400,3557A,119.9464,30.0494,杭州市,镇二中,,15,9,80,3,54,45,45,51,51,17,40,4,5,0.5,0.8
2025-11-17T1400,3558A,119.7183,30.2367,杭州市,市府大楼,,15,14,79,6,47,47,47,45,45,16,30,8,9,0.7,0.9
2025-11-17T1400,3656A,120.1556,30.2864,杭州市,消防大队,,33,33,82,12,54,36,36,49,48,34,46,8,9,0.4,0.6
2025-11-17T1400,1270A,117.1959,31.7848,合肥市,明珠广场,,14,9,69,7,34,43,43,58,42,17,24,6,8,0.4,0.6
2025-11-17T1400,1271A,117.3072,31.8764,合肥市,三里街,,15,12,69,9,34,48,48,52,42,16,29,6,7,0.4,0.6
2025-11-17T1400,1272A,117.2588,31.8707,合肥市,琥珀山庄,,17,17,71,6,31,50,50,54,45,17,26,6,7,0.4,0.6
2025-11-17T1400,1273A,117.1604,31.9052,合肥市,董铺水库,,,,,,,,,,,,,,,,
2025-11-17T1400,1274A,117.25,31.8571,合肥市,长江中路,,19,19,75,11,40,51,51,55,45,10,19,6,7,0.6,0.7
2025-11-17T1400,1275A,117.266,31.9436,合肥市,庐阳区,,16,12,77,3,39,49,49,53,44,15,28,2,5,0.4,0.8
2025-11-17T1400,1276A,117.3453,31.8616,合肥市,瑶海区,,16,6,78,3,45,49,49,,,15,30,3,5,0.4,0.5
2025-11-17T1400,1277A,117.3027,31.7964,合肥市,包河区,,14,14,76,7,37,44,44,52,38,21,50,4,7,0.4,0.6
2025-11-17T1400,1278A,117.2776,31.7385,合肥市,滨湖新区,,,12,81,12,46,,,60,43,17,25,3,5,0.4,0.6
2025-11-17T1400,1279A,117.1318,31.8403,合肥市,高新区,,15,9,71,6,34,48,48,56,44,18,26,3,5,0.5,0.7
2025-11-17T1400,3464A,117.3803,31.9147,合肥市,高教基地,,16,7,68,7,31,49,49,55,46,16,20,4,6,0.3,0.5
2025-11-17T1400,3614A,79.924,37.0877,和田地区,地区环保局,颗粒物(PM10),144,237,158,67,67,81,81,60,60,9,32,6,13,0.5,1.1
2025-11-17T1400,3615A,79.9131,37.113,和田地区,市环保局,颗粒物(PM10),130,210,170,58,68,85,85,57,57,10,41,1,6,0.6,1.8
2025-11-17T1400,2516A,108.2011,24.715,河池市,东仁乐园,,,,,,,,,,,,,,,,
2025-11-17T1400,2517A,108.0497,24.6947,河池市,市环保站,,45,45,37,27,26,94,94,40,40,10,21,7,6,0.6,0.6
2025-11-17T1400,2518A,108.0983,24.6989,河池市,市疾控中心,,40,33,44,28,29,94,94,35,35,10,29,6,6,0.7,0.7
2025-11-17T1400,1696A,114.6778,23.7569,河源市,源西,,,,,,,,,,,,,,,,
2025-11-17T1400,1697A,114.6944,23.7586,河源市,东埔,,32,24,34,19,23,101,101,72,72,6,22,6,7,0.5,0.7
2025-11-17T1400,1698A,114.6892,23.7233,河源市,老城,,34,23,36,22,22,106,106,64,64,5,19,6,6,0.5,0.7
2025-11-17T1400,1718A,115.4208,35.2464,菏泽市,气象局,,44,44,72,12,15,54,54,46,46,8,14,1,3,0.3,0.3
2025-11-17T1400,3374A,115.5564,35.0891,菏泽市,定陶老年大学,,31,31,63,3,11,48,48,40,40,15,20,5,4,0,0
2025-11-17T1400,4184A,115.4797,35.24401,菏泽市,永昌路1号,,45,45,72,11,16,56,56,48,48,12,18,2,3,0.3,0.3
2025-11-17T1400,4193A,115.4715,35.2800,菏泽市,长城路999号,,36,36,74,3,7,49,49,40,40,9,17,3,2,0.5,0.5
2025-11-17T1400,2514A,111.5264,24.4172,贺州市,环保小区,细颗粒物(PM2.5),67,55,57,48,42,94,94,64,64,15,20,8,5,0.7,0.8
2025-11-17T1400,2515A,111.5608,24.4078,贺州市,政协大楼,,49,49,53,33,35,88,88,62,62,11,26,10,8,0.7,0.7
2025-11-17T1400,3534A,111.4744,24.4553,贺州市,西湾,颗粒物(PM10),52,53,47,31,34,94,94,68,68,12,16,8,6,0.9,0.8
2025-11-17T1400,2385A,114.17,35.9019,鹤壁市,市监测站,,31,31,52,12,21,40,40,35,35,15,19,5,4,0.3,0.3
2025-11-17T1400,2386A,114.2956,35.7511,鹤壁市,市交警支队,,31,31,56,8,12,42,42,36,36,20,22,4,3,0.2,0.2
2025-11-17T1400,2387A,114.2878,35.7306,鹤壁市,迎宾馆,,38,38,67,12,16,42,42,37,37,13,16,6,4,0.4,0.3
2025-11-17T1400,3474A,114.2617,35.6822,鹤壁市,大新区,颗粒物(PM10),106,161,61,11,7,40,40,38,37,17,20,,4,0.4,0.2
2025-11-17T1400,3596A,114.1572,35.9603,鹤壁市,南山宾馆,,29,29,69,3,18,46,46,40,40,11,15,3,3,0.4,0.4
2025-11-17T1400,2244A,130.2537,47.3416,鹤岗市,哈啤分公司,,27,16,41,3,30,84,84,78,78,2,14,13,14,0.5,0.7
2025-11-17T1400,2245A,130.2684,47.3086,鹤岗市,斯达机电,,27,15,41,6,22,84,84,78,78,3,13,12,14,0.5,0.7
2025-11-17T1400,2246A,130.3114,47.3388,鹤岗市,东山纸板厂,,46,46,63,3,22,82,82,77,77,4,14,12,14,0.2,0.9
2025-11-17T1400,2247A,130.1097,47.3382,鹤岗市,五号水库,,,,,,,,,,,,,,,,
2025-11-17T1400,2263A,127.4833,50.2524,黑河市,交通局,,22,12,16,8,12,70,70,71,68,10,7,4,4,0.2,0.3
2025-11-17T1400,2264A,127.5144,50.2341,黑河市,环保局,,21,,29,11,15,65,65,66,66,9,10,2,6,0.3,0.3
2025-11-17T1400,2265A,127.5291,50.2472,黑河市,大黑河岛,,,,,,,,,,,,,,,,
2025-11-17T1400,1074A,115.6838,37.7541,衡水市,电机北厂,,23,,56,16,17,53,53,44,44,6,12,3,5,0.3,0.3
2025-11-17T1400,1075A,115.6303,37.7316,衡水市,市监测站,,19,19,36,3,10,56,56,46,46,10,16,8,8,0.3,0.3
2025-11-17T1400,3188A,115.6683,37.7217,衡水市,市城管局,,35,35,51,12,16,52,52,44,44,11,17,3,5,0.4,0.3
2025-11-17T1400,3459A,115.5989,37.5491,衡水市,地表水厂,,19,10,42,7,10,60,60,51,51,4,12,4,5,0.3,0.3
2025-11-17T1400,2456A,112.5003,26.9167,衡阳市,原169医院,,,,,,,,,,,,,,,,
2025-11-17T1400,2457A,112.6194,26.9258,衡阳市,衡阳化工总厂,,,127,83,32,54,59,59,55,55,14,23,,11,,0.9
2025-11-17T1400,2458A,112.6211,26.8956,衡阳市,珠晖区环保局,颗粒物(PM10),68,85,79,46,57,60,60,53,53,8,33,9,13,0.9,1.2
2025-11-17T1400,2459A,112.6197,26.8733,衡阳市,市委党校,颗粒物(PM10),71,92,70,28,45,62,62,64,62,11,18,6,9,0.6,0.8
2025-11-17T1400,2460A,112.6006,26.8919,衡阳市,市监测站,颗粒物(PM10),84,117,95,43,57,60,60,57,57,11,29,5,8,0.7,1.1
2025-11-17T1400,2461A,112.5664,26.9056,衡阳市,真空机电公司,颗粒物(PM10),80,110,84,28,56,59,59,50,50,10,30,7,14,0.7,1.1
2025-11-17T1400,3399A,112.6703,26.882,衡阳市,师范学院,颗粒物(PM10),72,93,78,18,48,60,60,62,62,15,24,9,12,0.7,1
2025-11-17T1400,2608A,103.3772,23.3993,红河哈尼族彝族自治州,污水处理厂,,40,29,38,28,27,89,89,52,52,7,11,28,28,0.4,0.4
2025-11-17T1400,2609A,103.3861,23.35,红河哈尼族彝族自治州,监测站,细颗粒物(PM2.5),58,47,37,41,28,99,99,56,55,9,8,42,17,0.3,0.1
2025-11-17T1400,3038A,103.3758,23.368,红河哈尼族彝族自治州,州图书馆,细颗粒物(PM2.5),55,46,33,39,21,90,90,59,53,7,8,34,29,0.6,0.5
2025-11-17T1400,1090A,111.6507,40.7517,呼和浩特市,呼市一监,,23,,9,16,4,53,53,52,52,4,3,6,2,0.2,0.3
2025-11-17T1400,1091A,111.6572,40.8033,呼和浩特市,小召,,18,9,12,3,3,56,56,55,55,7,7,5,5,0.3,0.4
2025-11-17T1400,1094A,111.7516,40.8369,呼和浩特市,如意水处理厂,,17,11,10,3,3,53,53,50,50,2,3,6,6,0.2,0.2
2025-11-17T1400,1095A,111.7276,40.8062,呼和浩特市,二十九中,,18,6,14,3,2,55,55,52,52,3,4,8,8,0.6,0.6
2025-11-17T1400,1096A,111.5512,40.7866,呼和浩特市,工大金川校区,,17,13,14,3,2,54,54,53,53,8,4,10,5,0.3,0.3
2025-11-17T1400,1097A,111.717,40.7612,呼和浩特市,化肥厂生活区,,17,12,14,3,2,54,54,54,54,5,5,2,2,0.2,0.2
2025-11-17T1400,3698A,111.5968,40.8178,呼和浩特市,红旗小学,,18,,3,3,3,57,57,55,55,1,2,6,6,0.4,0.3
2025-11-17T1400,3699A,111.6518,40.8389,呼和浩特市,海东办,,,,8,,2,57,57,54,54,3,5,3,3,0.3,0
2025-11-17T1400,3061A,119.7512,49.1577,呼伦贝尔市,国华电力东,,18,9,23,3,13,55,55,58,51,6,9,8,6,0.4,0.4
2025-11-17T1400,4279A,119.7569,49.2222,呼伦贝尔市,伊敏大街东7号,,19,19,23,13,20,53,53,57,48,2,4,6,5,0.3,0.3
2025-11-17T1400,1250A,120.0751,30.8669,湖州市,城西水厂,,24,24,56,11,27,52,52,84,68,22,42,8,8,0.3,0.5
2025-11-17T1400,2873A,120.0830,30.8929,湖州市,仁皇山新区,,20,20,54,7,34,54,54,82,66,17,30,7,6,0.0,0.3
2025-11-17T1400,2907A,120.1844,30.8596,湖州市,吴兴区站,,,33,78,6,39,46,46,73,60,23,28,,7,0.6,0.7
2025-11-17T1400,3562A,120.4148,30.8538,湖州市,南浔区站,,18,18,85,7,49,50,50,68,59,22,35,4,5,0.5,0.6
2025-11-17T1400,1607A,120.9049,40.7211,葫芦岛市,龙港区,,41,41,52,3,4,51,51,44,44,18,17,7,8,0.3,0.3
2025-11-17T1400,1608A,120.8392,40.7514,葫芦岛市,化工街,,19,19,46,7,5,47,47,39,39,12,21,5,7,0.3,0.3
2025-11-17T1400,1609A,120.8341,40.7073,葫芦岛市,新区,,20,20,39,3,4,51,51,41,41,11,17,5,6,0.4,0.5
2025-11-17T1400,1610A,120.8695,40.7677,葫芦岛市,东城区,,22,22,38,3,5,52,52,42,42,11,15,5,8,0.5,0.5
2025-11-17T1400,2482A,109.5981,27.5721,怀化市,林科所,,,,,,,,,,,,,,,,
2025-11-17T1400,2483A,109.9453,27.5444,怀化市,河西地税局,颗粒物(PM10),60,70,61,30,40,49,49,79,68,11,17,4,5,0.3,0.4
2025-11-17T1400,2484A,109.9781,27.5342,怀化市,市四医院,颗粒物(PM10),56,61,74,18,44,45,45,65,63,8,16,10,14,0.4,0.6
2025-11-17T1400,2485A,109.9972,27.5578,怀化市,监测楼,,41,41,65,17,42,43,43,54,54,11,20,2,6,0.1,0.2
2025-11-17T1400,2486A,110.0394,27.583,怀化市,市委党校,,,53,64,17,43,,,64,64,9,20,8,17,0.2,0.3
2025-11-17T1400,1210A,119.036,33.5981,淮安市,钵池山,,44,44,62,12,39,35,35,45,37,24,26,8,8,0.2,0.3
2025-11-17T1400,1211A,119.007,33.575,淮安市,北京南路,,44,44,68,11,37,34,34,43,36,15,15,8,9,0.4,0.5
2025-11-17T1400,1212A,118.989,33.6067,淮安市,市监测站,,29,29,66,7,28,37,37,47,39,18,21,7,7,0.5,0.6
2025-11-17T1400,1213A,119.135,33.5039,淮安市,楚州区监测站,,39,39,66,7,29,38,38,49,40,19,20,8,9,0.4,0.5
2025-11-17T1400,3426A,118.8755,33.2894,淮安市,新华书店,,41,41,78,6,25,38,38,42,39,19,21,9,10,0.3,0.5
2025-11-17T1400,4206A,119.0288,33.6319,淮安市,承德北路606号,,,,70,,40,38,38,46,38,13,18,6,8,,0.5
2025-11-17T1400,2282A,116.8004,33.975,淮北市,监测站,,31,31,91,3,36,47,47,51,43,18,25,6,12,0.3,0.4
2025-11-17T1400,2283A,116.8091,33.9007,淮北市,烈山区政府,,21,21,91,7,41,48,48,48,45,18,25,8,9,0.2,0.4
2025-11-17T1400,3330A,116.8873,33.9836,淮北市,杜集区检察院,颗粒物(PM10),54,57,96,6,36,47,47,52,45,17,21,4,5,0.1,0.3
2025-11-17T1400,4017A,116.7923,33.9535,淮北市,市博物馆,,30,30,89,3,38,48,48,52,44,11,21,8,11,0,0.2
2025-11-17T1400,2277A,116.8305,32.7727,淮南市,潘集区政府,,27,27,96,10,48,53,53,47,47,10,19,6,6,0.4,0.6
2025-11-17T1400,2279A,116.8569,32.5951,淮南市,谢家集区政府,,17,7,81,7,38,52,52,46,45,13,24,6,8,0.3,0.5
2025-11-17T1400,2280A,116.8281,32.633,淮南市,八公山区政府,,17,17,88,3,39,52,52,48,45,12,18,5,8,0.3,0.5
2025-11-17T1400,2281A,116.6325,32.6201,淮南市,焦岗湖风景区管理处,,,,,,,,,,,,,,,,
2025-11-17T1400,2894A,117.0566,32.6531,淮南市,经济技术开发区消防队,,20,20,97,3,41,46,46,44,42,21,30,7,9,0.2,0.4
2025-11-17T1400,3329A,117.0108,32.5893,淮南市,山南新区,,18,18,96,3,45,54,54,50,48,16,26,2,5,0.2,0.4
2025-11-17T1400,4209A,117.0031,32.6445,淮南市,国庆中路369号,,25,25,83,3,41,46,46,42,40,13,24,14,17,0.5,0.7
2025-11-17T1400,2446A,114.9028,30.4742,黄冈市,职工中心,,18,18,66,8,47,40,40,59,50,14,20,4,5,0.1,0.5
2025-11-17T1400,2929A,114.8858,30.4519,黄冈市,红卫路,,15,15,64,10,52,36,36,56,47,12,19,4,6,0.5,0.7
2025-11-17T1400,3398A,114.9136,30.4445,黄冈市,市林业局,,18,18,76,10,52,38,38,61,49,13,20,4,4,0.4,0.6
2025-11-17T1400,2672A,102.0199,35.5102,黄南藏族自治州,同仁县隆务镇,颗粒物(PM10),62,74,68,30,25,66,66,54,52,9,8,11,11,0.5,0.5
2025-11-17T1400,2295A,118.2903,29.6963,黄山市,延安路89号,,15,6,43,3,33,46,46,32,32,9,16,4,4,0.4,0.5
2025-11-17T1400,2297A,118.1371,30.2756,黄山市,黄山区政府5号楼,,,35,60,21,44,40,40,42,42,,9,5,5,0.5,0.6
2025-11-17T1400,4210A,118.3354,29.7203,黄山市,滨江东路7-2号,,26,24,59,18,46,43,43,30,30,10,18,4,4,0.3,0.6
2025-11-17T1400,2423A,115.0601,30.2313,黄石市,沈家营,,32,32,91,12,50,42,42,54,52,4,26,7,9,0.6,0.8
2025-11-17T1400,2426A,114.8988,30.2019,黄石市,铁山,,25,24,73,17,50,30,30,50,42,13,24,5,7,1.1,0.6
2025-11-17T1400,2427A,115.0307,30.2092,黄石市,团城山,,36,36,90,13,52,45,45,59,56,10,24,6,8,0.4,0.7
2025-11-17T1400,3149A,115.0235,30.1578,黄石市,笔架山北路,,45,45,99,6,45,44,44,58,52,5,13,6,9,0.4,0.6
2025-11-17T1400,4185A,115.0780,30.21118,黄石市,磁湖东路29号,,33,33,85,17,54,39,39,50,48,13,32,9,10,0.3,0.6
2025-11-17T1400,1392A,114.4183,23.0528,惠州市,河南岸金山湖子站,,31,25,48,16,28,98,98,62,62,14,25,6,8,0.5,0.7
2025-11-17T1400,1393A,114.4053,23.0822,惠州市,下埔横江三路子站,,34,27,55,14,29,108,108,71,71,4,18,6,8,0.4,0.9
2025-11-17T1400,1394A,114.4103,23.1142,惠州市,江北云山西路子站,,36,22,52,13,28,115,115,81,81,8,22,6,8,0.5,0.6
2025-11-17T1400,1395A,114.4645,22.7833,惠州市,惠阳区承修路船湖子站,,40,31,54,18,26,126,126,81,81,12,20,6,6,0.5,0.5
2025-11-17T1400,1396A,114.5317,22.7422,惠州市,大亚湾管委会子站,,36,32,52,20,25,115,115,74,74,9,23,12,11,0.5,0.5
2025-11-17T1400,3314A,114.4338,22.8134,惠州市,惠阳秋长,,41,34,51,20,29,129,129,91,91,8,20,8,9,0.7,0.6
2025-11-17T1400,3452A,114.6517,22.775,惠州市,大亚湾霞涌,,48,48,41,21,19,107,107,79,79,10,17,11,10,0.7,0.6
2025-11-17T1400,2240A,130.9762,45.3001,鸡西市,环保局,,19,18,43,6,21,59,59,46,46,5,8,5,5,0.6,0.6
2025-11-17T1400,2243A,130.9429,45.3039,鸡西市,第一中学,,20,15,37,8,20,61,61,48,48,4,6,5,5,0.5,0.6
2025-11-17T1400,3707A,131.0207,45.3073,鸡西市,欧美日汽修厂,,32,32,48,7,23,57,57,43,43,8,10,6,7,0.6,0.7
2025-11-17T1400,3709A,130.9967,45.3106,鸡西市,市政设施管理处,,19,19,44,12,22,59,59,46,46,9,9,8,8,0.5,0.6
2025-11-17T1400,2367A,114.9754,27.0803,吉安市,红声器材厂,细颗粒物(PM2.5),69,80,67,50,42,156,156,89,89,15,28,8,8,0.7,0.7
2025-11-17T1400,2368A,114.9658,27.0999,吉安市,市森林工业局,细颗粒物(PM2.5),68,84,67,49,43,150,150,90,90,15,24,10,11,0.6,0.6
2025-11-17T1400,2369A,114.99,27.1312,吉安市,市环境监测站,颗粒物(PM10),62,73,62,42,41,156,156,98,98,11,21,16,17,0.8,0.7
2025-11-17T1400,2370A,115.0093,27.0968,吉安市,青原区法院,细颗粒物(PM2.5),68,78,71,49,46,150,150,79,79,17,40,11,11,0.8,0.7
2025-11-17T1400,1772A,126.54,43.8622,吉林市,哈达湾,,44,44,37,15,12,70,70,55,55,8,7,7,7,0.4,0.3
2025-11-17T1400,1773A,126.5844,43.8358,吉林市,东局子,颗粒物(PM10),53,55,37,35,8,70,70,57,57,9,9,7,7,0.6,0.5
2025-11-17T1400,1774A,126.5052,43.8245,吉林市,电力学院,颗粒物(PM10),69,88,32,26,14,72,72,58,58,8,6,7,6,0.5,0.4
2025-11-17T1400,1775A,126.6133,43.8972,吉林市,江北,颗粒物(PM10),55,59,32,27,9,68,68,55,55,8,7,6,5,0.6,0.5
2025-11-17T1400,1776A,126.555,43.8306,吉林市,江南公园,颗粒物(PM10),53,55,26,25,10,66,66,54,54,9,7,4,4,0.5,0.3
2025-11-17T1400,1778A,126.7061,43.7133,吉林市,丰满,,28,28,24,13,6,52,52,48,48,3,3,8,8,0.3,0.3
2025-11-17T1400,2868A,126.4739,43.953,吉林市,九站,颗粒物(PM10),95,140,36,25,14,73,73,55,55,11,11,2,2,0.5,0.3
2025-11-17T1400,1299A,116.9862,36.6114,济南市,科干所,,,,43,,4,,,54,,,13,,7,,0.3
2025-11-17T1400,1300A,116.9376,36.665,济南市,农科所,,24,24,45,3,3,44,44,38,38,12,21,8,7,0.4,0.6
2025-11-17T1400,1301A,117.1265,36.6734,济南市,开发区,,24,24,42,3,8,44,44,39,39,17,19,5,3,0.5,0.5
2025-11-17T1400,1303A,117.0624,36.6868,济南市,省种子仓库,,36,36,48,3,5,50,50,43,43,12,20,8,7,0.3,0.4
2025-11-17T1400,1304A,116.9489,36.6447,济南市,机床二厂,,34,34,50,3,5,43,43,36,36,12,19,9,8,0.2,0.1
2025-11-17T1400,1305A,117.0495,36.663,济南市,市监测站,,22,22,42,7,4,47,47,40,40,14,18,4,3,0.2,0.2
2025-11-17T1400,1306A,116.7675,36.5484,济南市,长清党校,,27,27,47,3,3,45,45,40,40,7,16,7,6,0.4,0.4
2025-11-17T1400,1616A,117.6795,36.229,济南市,技术学院,,19,19,39,3,5,47,47,44,44,15,21,8,10,0.3,0.4
2025-11-17T1400,1961A,117.532,36.6868,济南市,东山小学,,29,29,44,3,5,48,48,43,43,13,18,7,9,0.4,0.4
2025-11-17T1400,3059A,117.7161,36.2049,济南市,泰兴公司,,34,34,48,7,7,49,49,48,48,8,14,5,5,0,0.1
2025-11-17T1400,3064A,117.6867,36.2171,济南市,莱芜战役纪念馆,颗粒物(PM10),51,51,41,7,10,48,48,46,46,12,20,8,10,0.2,0.3
2025-11-17T1400,3494A,117.1673,36.9782,济南市,济阳区政府,,29,29,41,3,4,44,44,36,36,9,15,8,7,0.2,0.3
2025-11-17T1400,3495A,117.1171,36.63,济南市,锦屏中学,,29,29,38,3,3,46,46,41,41,16,18,1,2,0.4,0.4
2025-11-17T1400,3682A,116.9814,36.6819,济南市,济南四建,,27,27,40,3,6,44,44,37,37,11,17,6,5,0.4,0.4
2025-11-17T1400,1653A,116.6251,35.4302,济宁市,火炬城,,36,36,58,3,18,49,49,44,44,12,14,5,5,0,0
2025-11-17T1400,1655A,116.5491,35.4042,济宁市,电化厂,,,,89,12,18,46,46,42,42,15,20,,4,0,0
2025-11-17T1400,3500A,116.5814,35.3707,济宁市,北湖一中,,33,33,55,11,23,46,46,41,41,10,14,3,4,0.0,0.1
2025-11-17T1400,3501A,116.8249,35.5593,济宁市,服务中心,,34,34,69,3,10,47,47,44,44,8,13,6,7,0,0
2025-11-17T1400,3678A,116.5907,35.4054,济宁市,市第七中学,颗粒物(PM10),63,75,73,3,14,50,50,45,45,15,20,6,8,0.2,0.2
2025-11-17T1400,2255A,130.2751,46.8028,佳木斯市,佳纺,,50,50,93,17,68,64,64,58,58,7,16,1,5,0.6,0.8
2025-11-17T1400,2256A,130.3995,46.8307,佳木斯市,发电厂,,33,33,70,9,53,68,68,63,63,2,13,6,7,0.4,0.5
2025-11-17T1400,2257A,130.3258,46.7975,佳木斯市,环保局,,35,35,76,11,63,67,67,60,60,5,14,2,3,0.3,0.5
2025-11-17T1400,2258A,130.3648,46.8032,佳木斯市,十一中,,26,26,81,3,60,65,65,58,58,6,12,5,6,0.3,0.5
2025-11-17T1400,2259A,130.3794,46.7588,佳木斯市,四丰,,,,,,,,,,,,,,,,
2025-11-17T1400,1252A,120.7436,30.778,嘉兴市,清河小学,,23,23,58,10,32,54,54,63,57,14,38,7,9,0.5,0.4
2025-11-17T1400,1253A,120.726,30.7478,嘉兴市,嘉兴学院,,,18,54,6,29,56,56,67,60,17,38,,6,0.4,0.4
2025-11-17T1400,2872A,120.7846,30.7525,嘉兴市,南湖区残联,,31,31,55,6,31,58,58,68,64,13,37,6,7,0.6,0.6
2025-11-17T1400,3407A,120.6916,30.7739,嘉兴市,秀洲住建,,25,25,60,8,37,57,57,64,58,14,49,6,6,0.4,0.5
2025-11-17T1400,1945A,98.2908,39.7711,嘉峪关市,气象局,,31,31,31,7,12,64,64,48,48,3,7,4,4,0.4,0.4
2025-11-17T1400,2884A,98.2672,39.7978,嘉峪关市,酒钢宾馆,,41,41,32,9,10,62,62,52,52,1,7,11,13,0,0.3
2025-11-17T1400,3248A,98.2643,39.7724,嘉峪关市,雄关区,,23,23,32,15,18,58,58,44,44,8,14,12,12,0.4,0.4
2025-11-17T1400,1383A,113.1064,22.6058,江门市,北街,,,47,72,19,47,148,148,89,89,21,36,9,8,,0.6
2025-11-17T1400,1384A,113.0731,22.5835,江门市,西区,,49,31,76,22,42,154,154,81,81,22,43,9,8,0.5,0.7
2025-11-17T1400,1385A,113.0219,22.5311,江门市,圭峰西,臭氧1小时,57,58,67,26,47,165,165,104,104,23,32,8,6,0.5,0.6
2025-11-17T1400,1386A,113.0828,22.5947,江门市,东湖,,48,37,71,33,42,131,131,59,59,22,35,11,10,0.4,0.6
2025-11-17T1400,3311A,113.1075,22.5647,江门市,江海富民,颗粒物(PM10),67,83,90,37,39,158,158,95,95,27,36,14,12,0.4,0.5
2025-11-17T1400,3449A,113.05,22.4667,江门市,新会银湖,臭氧1小时,97,77,65,36,46,197,197,90,90,24,29,10,6,0.6,0.7
2025-11-17T1400,1830A,113.1992,35.2590,焦作市,影视城,,,,66,,26,,,58,,,26,,5,,0.5
2025-11-17T1400,3335A,113.3137,35.2641,焦作市,马村街道办,,45,45,83,3,21,51,51,36,36,9,17,5,5,0,0.1
2025-11-17T1400,3336A,113.2465,35.2373,焦作市,焦作技师学院,颗粒物(PM10),52,54,93,3,22,48,48,34,34,7,18,4,6,0.2,0.4
2025-11-17T1400,3477A,113.1656,35.2539,焦作市,中站许衡医院,,26,26,74,7,34,48,48,37,37,6,17,4,5,0.2,0.3
2025-11-17T1400,3981A,113.2449,35.1803,焦作市,原李万街道办,,50,50,85,3,18,47,47,35,35,15,21,5,4,0.3,0.3
2025-11-17T1400,4264A,113.2340,35.2190,焦作市,新安路1731号,,47,47,91,3,25,52,52,40,39,6,18,6,8,0.2,0.8
2025-11-17T1400,4295A,113.2722,35.2121,焦作市,人民路3066号,,48,48,78,3,18,51,51,34,34,24,17,5,5,0.3,0.3
2025-11-17T1400,1708A,116.3701,23.5345,揭阳市,新兴,颗粒物(PM10),51,52,58,25,35,130,130,75,75,10,25,11,10,0.6,0.7
2025-11-17T1400,1709A,116.3264,23.5443,揭阳市,西马,,,51,61,12,36,124,124,67,67,,23,8,6,,0.8
2025-11-17T1400,1710A,116.3611,23.5626,揭阳市,东兴,颗粒物(PM10),52,53,57,21,30,122,122,62,62,10,24,11,9,0.3,0.5
2025-11-17T1400,1711A,116.4151,23.5294,揭阳市,渔湖,,42,42,55,19,26,124,124,74,74,7,23,8,8,0.5,0.6
2025-11-17T1400,3320A,116.403,23.5699,揭阳市,曲溪,,43,43,59,20,29,135,135,77,77,7,22,10,8,0.5,0.6
2025-11-17T1400,1944A,102.1692,38.5167,金昌市,天庆家园,颗粒物(PM10),52,53,41,15,11,48,48,41,41,9,7,80,8,0.8,0.6
2025-11-17T1400,4022A,102.1647,38.5371,金昌市,金川区人防中心,,44,44,36,15,12,50,50,38,38,5,4,4,3,0.7,0.6
2025-11-17T1400,4239A,102.1930,38.5319,金昌市,长春路96号,,39,39,35,14,11,49,49,36,36,5,5,4,4,0.6,0.5
2025-11-17T1400,1262A,119.647,29.077,金华市,十五中,,16,12,84,7,54,51,51,33,33,21,48,3,3,0.4,0.6
2025-11-17T1400,1263A,119.686,29.1029,金华市,监测站,,14,7,89,3,53,42,42,21,21,25,62,2,3,0.4,0.6
2025-11-17T1400,3659A,119.656,29.1131,金华市,气象局,,13,8,99,3,64,34,34,23,23,25,68,4,5,0.5,0.8
2025-11-17T1400,1767A,121.1115,41.0879,锦州市,南山,,,30,43,3,2,57,57,48,48,8,11,8,9,,0.5
2025-11-17T1400,1768A,121.0604,40.8428,锦州市,开发区,,37,37,57,9,10,52,52,39,39,13,25,10,15,0.4,0.5
2025-11-17T1400,1769A,121.1836,41.1119,锦州市,百股街道,,,42,44,,4,56,56,49,49,7,8,8,8,0.5,0.5
2025-11-17T1400,1770A,121.1178,41.1222,锦州市,天安街道,,30,30,40,3,8,59,59,51,51,4,6,8,9,0.5,0.5
2025-11-17T1400,1771A,121.1303,41.1386,锦州市,北湖公园,,32,32,42,3,3,56,56,48,48,9,9,7,7,0.4,0.4
2025-11-17T1400,2160A,112.85,35.5051,晋城市,自来水公司,,45,45,55,3,7,40,40,48,39,15,18,11,10,0.7,0.7
2025-11-17T1400,2161A,112.8318,35.4936,晋城市,白云商贸,,,31,58,,1,41,41,49,40,12,15,5,3,0.5,0.5
2025-11-17T1400,2162A,112.8508,35.4887,晋城市,市环保局,,39,39,55,9,7,44,44,51,42,10,13,7,6,0.6,0.6
2025-11-17T1400,2163A,112.8676,35.4897,晋城市,技术学院,,31,31,49,3,5,38,38,44,36,12,17,8,7,0.5,0.5
2025-11-17T1400,2165A,112.8453,35.546,晋城市,白马寺,,27,27,40,6,17,50,50,54,46,9,12,10,9,0.1,0.1
2025-11-17T1400,3620A,112.8271,35.4828,晋城市,泽州一中,,27,27,45,3,4,46,46,54,45,13,16,6,4,0.2,0.2
2025-11-17T1400,2173A,112.7249,37.7067,晋中市,南都小区,,16,12,36,3,14,51,51,42,42,10,12,5,6,0.2,0.3
2025-11-17T1400,2174A,112.6991,37.6982,晋中市,榆次区政府,,17,17,35,7,10,52,52,42,42,7,12,5,6,0.1,0.1
2025-11-17T1400,2865A,112.7195,37.6828,晋中市,榆次三中,,17,14,35,3,3,52,52,42,42,7,11,5,6,0.2,0.2
2025-11-17T1400,4200A,112.7478,37.6954,晋中市,迎宾街26号,,17,17,37,3,6,54,54,44,44,8,13,6,7,0.2,0.2
2025-11-17T1400,2439A,112.2014,31.0481,荆门市,竹园小学,,25,23,87,17,48,38,38,50,40,16,21,1,1,0,0.2
2025-11-17T1400,2440A,112.1969,30.9891,荆门市,掇刀,,33,,84,23,55,39,39,55,42,12,16,1,1,0.2,0.4
2025-11-17T1400,2441A,112.2213,31.0386,荆门市,石化一小,,33,33,100,12,45,34,34,44,35,16,21,5,7,0.4,0.5
2025-11-17T1400,3012A,112.1849,31.0362,荆门市,西山林语,,26,,82,18,46,37,37,52,40,14,18,3,5,0.4,0.6
2025-11-17T1400,3547A,112.1632,31.0138,荆门市,龙泉中学南校,,29,23,88,20,45,40,40,52,42,13,19,4,7,0.6,0.6
2025-11-17T1400,1844A,112.2494,30.3197,荆州市,市图书馆,,22,,80,15,52,42,42,64,48,11,17,4,9,0.5,0.7
2025-11-17T1400,1845A,112.2008,30.3544,荆州市,市委党校,,20,16,77,14,52,37,37,55,41,17,22,4,9,0.4,0.6
2025-11-17T1400,3194A,112.2747,30.3122,荆州市,管委会,,20,16,77,14,53,39,39,60,45,12,17,5,10,0.4,0.6
2025-11-17T1400,4268A,112.1722,30.3366,荆州市,学苑路85号,,20,20,73,11,64,46,46,,,11,28,2,11,0.3,0.6
2025-11-17T1400,2342A,117.3102,29.3867,景德镇市,王港中学,,,,,,,,,,,,,,,,
2025-11-17T1400,2343A,117.2117,29.2933,景德镇市,老干部活动中心,,33,33,47,15,34,49,49,57,57,2,13,4,5,0.6,0.8
2025-11-17T1400,2344A,117.1894,29.2789,景德镇市,兽医站,,47,47,53,10,29,57,57,74,74,8,15,6,7,0.3,0.4
2025-11-17T1400,2346A,117.2461,29.2956,景德镇市,陶研所,,27,27,46,14,40,59,59,49,49,2,15,3,4,0.3,0.5
2025-11-17T1400,4289A,117.1542,29.2566,景德镇市,青少年活动中心,,39,39,53,12,33,56,56,72,72,8,23,2,6,0.6,0.8
2025-11-17T1400,1803A,115.9872,29.6815,九江市,十里,,,,85,,57,55,55,89,61,16,36,3,6,0.3,1
2025-11-17T1400,1804A,115.9584,29.7046,九江市,茅山头,,32,32,91,11,58,49,49,84,53,12,32,4,6,0.5,0.9
2025-11-17T1400,1805A,115.9877,29.7295,九江市,西园,,31,31,79,8,54,55,55,95,61,15,41,2,5,0.4,0.8
2025-11-17T1400,1808A,115.9114,29.6038,九江市,综合工业园,,29,29,75,11,54,60,60,100,64,15,42,1,4,0.2,0.5
2025-11-17T1400,1809A,116.0721,29.7535,九江市,石化总厂,,41,41,97,12,60,53,53,85,57,14,30,2,5,0.4,0.8
2025-11-17T1400,1810A,115.9773,29.5698,九江市,庐山气象台,,,,,,,,,,,,,,,,
2025-11-17T1400,3190A,116.0254,29.6994,九江市,外国语学校,,23,23,83,15,55,51,51,86,54,19,30,3,6,0.4,0.7
2025-11-17T1400,4253A,116.0102,29.6594,九江市,莲花大道8号,,42,42,82,9,51,48,48,95,54,12,19,6,8,0.3,0.6
2025-11-17T1400,4240A,98.4958,39.7339,酒泉市,玉门东路5号,,44,44,41,6,18,69,69,49,46,1,8,7,7,0.2,0.3
2025-11-17T1400,4241A,98.5099,39.7506,酒泉市,北大街108号,,36,36,33,3,15,62,62,40,40,2,4,6,8,0.3,0.2
2025-11-17T1400,2698A,76.0072,39.4467,喀什地区,巡警大队,颗粒物(PM10),176,302,235,72,74,71,71,60,47,20,46,5,9,0.5,1
2025-11-17T1400,2699A,75.9755,39.4694,喀什地区,吾办,颗粒物(PM10),169,287,225,74,74,70,70,49,39,16,45,8,12,0.4,1
2025-11-17T1400,4027A,75.9483,39.4689,喀什地区,老干局,颗粒物(PM10),181,311,251,58,66,69,69,53,43,18,47,5,10,0.5,1.7
2025-11-17T1400,1824A,114.3389,34.7781,开封市,肿瘤医院,,42,42,74,10,17,43,43,43,40,18,19,11,10,0.3,0.3
2025-11-17T1400,1826A,114.2885,34.7965,开封市,世纪星幼儿园,,43,43,66,8,15,40,40,42,38,22,22,9,8,0.5,0.5
2025-11-17T1400,3147A,114.3438,34.8106,开封市,龙亭公园,,42,42,71,6,12,41,41,41,38,17,19,10,9,0.5,0.5
2025-11-17T1400,3210A,114.3644,34.7964,开封市,汴京公园,颗粒物(PM10),54,58,82,8,13,39,39,40,37,21,20,10,9,0.4,0.5
2025-11-17T1400,3473A,114.2485,34.8306,开封市,技师学院,,36,36,58,9,12,41,41,40,38,18,19,8,8,0.6,0.6
2025-11-17T1400,3592A,114.4644,34.7556,开封市,祥符区生态环境局,,,,64,,14,39,39,40,36,,24,7,11,0.7,0.6
2025-11-17T1400,1951A,84.895,45.6094,克拉玛依市,长征新村,颗粒物(PM10),129,208,46,17,8,56,56,55,53,6,8,7,6,0.2,0.1
2025-11-17T1400,1952A,84.8988,45.5893,克拉玛依市,南林小区,颗粒物(PM10),116,182,41,30,10,54,54,58,53,3,5,7,6,0.5,0.5
2025-11-17T1400,1954A,84.905,44.3396,克拉玛依市,独山子区,,27,27,30,10,11,48,48,43,43,6,11,5,5,0.1,0.2
2025-11-17T1400,1955A,85.6979,46.098,克拉玛依市,乌尔禾区商贸楼,颗粒物(PM10),158,266,48,26,8,56,56,54,46,9,14,7,5,0.3,0.3
2025-11-17T1400,3612A,85.1045,45.6899,克拉玛依市,白碱滩区新站,颗粒物(PM10),150,249,50,28,11,59,59,61,60,7,6,5,4,0.3,0.3
2025-11-17T1400,2697A,76.1454,39.7142,克孜勒苏柯尔克孜自治州,市人民政府,颗粒物(PM10),176,301,193,109,72,78,78,79,58,7,19,7,8,0.2,0.2
2025-11-17T1400,3665A,76.1658,39.7157,克孜勒苏柯尔克孜自治州,克州文化中心,颗粒物(PM10),179,307,206,89,67,77,77,79,63,6,17,7,8,0.2,0.4
2025-11-17T1400,1450A,102.8204,24.8886,昆明市,呈贡新区,,30,,24,13,22,93,93,46,46,5,22,7,6,0.3,0.5
2025-11-17T1400,1451A,102.6251,24.9608,昆明市,西山森林公园,,,,,,,,,,,,,,,,
2025-11-17T1400,1452A,102.7252,25.0902,昆明市,龙泉镇,,,10,28,7,14,92,92,44,44,,24,5,3,0.3,0.5
2025-11-17T1400,1453A,102.7266,25.0375,昆明市,东风东路,,33,19,25,11,16,105,105,47,47,8,19,10,3,0.3,0.5
2025-11-17T1400,1454A,102.6742,25.0669,昆明市,金鼎山,,31,15,39,11,18,99,99,51,51,6,25,8,3,0.3,0.5
2025-11-17T1400,1455A,102.6644,25.0401,昆明市,碧鸡广场,,,18,29,13,18,90,90,41,41,9,25,,4,,0.5
2025-11-17T1400,3179A,102.7494,25.0119,昆明市,官渡区博物馆,,31,,29,15,19,97,97,44,44,9,22,9,4,0.2,0.5
2025-11-17T1400,3375A,102.8017,24.8336,昆明市,青年创业园,,28,12,21,9,13,88,88,46,46,3,19,3,4,0.7,0.8
2025-11-17T1400,3550A,102.7997,24.9786,昆明市,昆明学院,,31,29,42,16,22,98,98,43,43,12,25,2,2,0.5,0.7
2025-11-17T1400,3551A,102.5967,24.6736,昆明市,晋宁区生态环境分局,,25,13,31,3,21,80,80,45,45,4,22,2,2,0.3,0.6
2025-11-17T1400,3552A,102.6678,24.9856,昆明市,云天化总部,,31,22,23,12,14,97,97,45,45,10,12,6,6,0.4,0.6
2025-11-17T1400,1456A,91.1319,29.6514,拉萨市,八廓街,,33,13,12,8,8,104,104,75,75,4,10,5,5,0.1,0.2
2025-11-17T1400,1457A,91.1221,29.6747,拉萨市,市环保局,,30,7,17,3,8,93,93,58,58,9,15,6,6,0.5,0.6
2025-11-17T1400,1458A,91.0874,29.6475,拉萨市,区监测站,,31,11,9,3,6,99,99,70,70,7,16,4,4,0.3,0.3
2025-11-17T1400,1459A,91.1774,29.6541,拉萨市,西藏大学,,31,11,11,6,7,98,98,69,67,7,13,3,4,0.2,0.3
2025-11-17T1400,1460A,90.9798,29.6588,拉萨市,区辐射站,,28,8,15,7,8,88,88,69,60,12,16,5,5,0.3,0.3
2025-11-17T1400,1461A,91.0834,29.6292,拉萨市,拉萨火车站,,33,,12,9,8,105,105,61,61,7,17,5,5,0.3,0.5
2025-11-17T1400,2520A,109.2203,23.7256,来宾市,来宾技工学校,颗粒物(PM10),52,53,58,35,38,104,104,66,66,10,21,14,13,0.6,0.7
2025-11-17T1400,3535A,109.1781,23.7297,来宾市,兴宾区政府,细颗粒物(PM2.5),52,52,44,36,30,106,106,59,59,11,12,16,12,0.6,0.5
2025-11-17T1400,4002A,109.2416,23.7461,来宾市,中南小学,细颗粒物(PM2.5),58,56,63,41,39,105,105,62,62,11,29,13,12,0.7,0.9
2025-11-17T1400,1477A,104.1373,35.9454,兰州市,榆中兰大校区,,,,,,,,,,,,,,,,
2025-11-17T1400,1479A,103.831,36.0464,兰州市,铁路设计院,,,,,,,,,,,,,,,,
2025-11-17T1400,3241A,103.7439,36.0842,兰州市,百合公园,,40,40,48,14,19,62,62,54,54,2,4,9,8,0.3,0.3
2025-11-17T1400,3242A,103.9611,35.998,兰州市,和平,,32,32,49,6,14,60,60,52,50,3,8,2,2,0.2,0.2
2025-11-17T1400,4236A,103.6293,36.0938,兰州市,庄浪东路808号,,43,43,55,17,23,66,66,59,55,11,16,9,10,0.3,0.3
2025-11-17T1400,4237A,103.7251,36.1043,兰州市,安宁西路88号,,46,46,59,20,27,73,73,63,63,2,6,5,5,0.3,0.3
2025-11-17T1400,4238A,103.8470,36.0676,兰州市,北滨河东路1号,,26,26,52,14,24,69,69,59,59,7,11,4,9,0.4,0.4
2025-11-17T1400,3245A,103.6633,36.533,兰州新区,新区管委会,,32,32,44,15,20,64,64,60,59,4,6,5,11,0.2,0.2
2025-11-17T1400,3246A,103.6975,36.4789,兰州新区,舟曲中学,,38,38,41,11,9,71,71,64,62,1,3,1,2,0.2,0.3
2025-11-17T1400,1067A,116.6708,39.5111,廊坊市,药材公司,,16,12,28,3,1,51,51,48,48,9,8,2,1,0.2,0.2
2025-11-17T1400,1068A,116.7214,39.5589,廊坊市,开发区,,17,13,21,3,2,52,52,47,47,12,15,1,2,0.2,0.2
2025-11-17T1400,1070A,116.7244,39.5269,廊坊市,北华航天学院,,25,25,27,3,2,48,48,45,45,10,12,3,2,0.2,0.2
2025-11-17T1400,2919A,116.7022,39.5453,廊坊市,河北工业大学,,19,19,21,6,5,49,49,45,45,8,6,2,2,0.3,0.2
2025-11-17T1400,2535A,103.7723,29.5462,乐山市,花湖湾,,,,,,,,,,,,,,,,
2025-11-17T1400,2536A,103.7627,29.5844,乐山市,牛耳桥,,20,20,32,9,24,51,51,44,43,20,23,7,6,0.5,0.6
2025-11-17T1400,2537A,103.7508,29.6006,乐山市,市第三水厂,,18,18,32,8,22,54,54,48,47,16,20,6,6,0.5,0.7
2025-11-17T1400,2538A,103.7571,29.5664,乐山市,市监测站,,21,21,29,10,22,51,51,46,46,15,17,6,6,0.5,0.6
2025-11-17T1400,3361A,103.7311,29.5628,乐山市,理工大学,,24,24,29,12,21,49,49,47,46,14,15,8,8,0.4,0.5
2025-11-17T1400,2598A,100.2143,26.8576,丽江市,西南郊,,31,26,26,20,14,99,99,68,68,4,11,6,6,0.6,0.7
2025-11-17T1400,2599A,100.2497,26.8802,丽江市,丽江古城,,32,28,31,13,16,100,100,65,65,12,14,9,10,0.5,0.1
2025-11-17T1400,2600A,100.2203,26.8906,丽江市,市中心,,,19,18,11,11,102,102,63,63,11,14,,11,0.4,0.4
2025-11-17T1400,1267A,119.914,28.4514,丽水市,监测站大楼,,49,48,51,34,33,105,105,48,48,17,33,5,6,0.4,0.5
2025-11-17T1400,1268A,119.93,28.4586,丽水市,莲都小学,颗粒物(PM10),53,55,46,25,22,99,99,46,46,14,30,4,4,0.3,0.3
2025-11-17T1400,1269A,119.879,28.4231,丽水市,余庄前,,43,43,49,30,36,112,112,44,44,18,20,4,3,0.4,0.4
2025-11-17T1400,1173A,119.176,34.5885,连云港市,市环境监测站,,29,29,69,3,20,43,43,45,40,14,16,9,11,0.8,0.8
2025-11-17T1400,3000A,119.3581,34.6972,连云港市,德源药业,,36,36,74,9,17,36,36,45,38,18,16,6,6,0.5,0.5
2025-11-17T1400,3007A,119.178,34.844,连云港市,新城一中,,38,38,64,3,17,43,43,42,42,14,22,8,10,0.6,0.6
2025-11-17T1400,3008A,119.3608,34.7519,连云港市,胡沟管理处,,29,29,53,3,14,40,40,47,41,17,18,9,9,0.5,0.4
2025-11-17T1400,3009A,119.1478,34.5911,连云港市,矿山设计院,,27,27,68,7,21,46,46,49,44,9,10,2,4,0.4,0.6
2025-11-17T1400,3434A,119.2413,34.6539,连云港市,工贸学校,,23,23,43,3,18,40,40,38,37,9,13,10,11,0.5,0.6
2025-11-17T1400,3664A,119.4172,34.7341,连云港市,连云街道,,29,29,38,3,16,37,37,47,38,25,25,7,8,0.2,0.3
2025-11-17T1400,2571A,102.3431,27.8099,凉山彝族自治州,青龙寺,,,,,,,,,,,,,,,,
2025-11-17T1400,2572A,102.2721,27.8415,凉山彝族自治州,邛海宾馆,,48,48,27,26,17,77,77,41,41,15,14,12,7,1.0,0.6
2025-11-17T1400,2573A,102.2625,27.898,凉山彝族自治州,西昌市政府,,38,38,30,23,18,73,73,34,34,12,17,12,11,0.8,0.8
2025-11-17T1400,2574A,102.2685,27.8851,凉山彝族自治州,凉山州政府,,32,32,31,18,16,73,73,36,36,9,12,12,10,0.8,0.7
2025-11-17T1400,4229A,102.2342,27.8859,凉山彝族自治州,凯乐南路30号,,36,36,35,23,19,81,81,33,33,20,25,11,10,0.9,0.9
2025-11-17T1400,2212A,123.2,41.1953,辽阳市,宏伟区,,,35,52,11,11,51,51,40,40,5,8,,6,0.4,0.4
2025-11-17T1400,2213A,123.1683,41.2495,辽阳市,新华园,,43,43,53,9,8,49,49,38,38,5,10,4,4,0.5,0.5
2025-11-17T1400,2214A,123.2354,41.2639,辽阳市,滨河路,,38,38,55,13,11,49,49,41,41,3,5,3,3,0.4,0.4
2025-11-17T1400,2215A,123.149,41.2991,辽阳市,铁西工业园,,30,30,53,11,20,52,52,41,41,5,11,6,7,0.4,0.4
2025-11-17T1400,2227A,125.1358,42.8845,辽源市,环保局,,46,46,79,3,7,53,53,44,44,6,8,2,2,0.6,0.6
2025-11-17T1400,3239A,125.0764,42.9078,辽源市,银鹰制药,,27,27,47,8,10,52,52,43,43,7,8,3,4,0.4,0.4
2025-11-17T1400,1625A,115.9848,36.4372,聊城市,区政府,,28,28,41,3,5,50,50,40,40,14,19,7,7,0.3,0.4
2025-11-17T1400,2878A,116.0072,36.4343,聊城市,聊大东校,,29,29,45,3,8,57,57,48,48,7,13,8,7,0.4,0.4
2025-11-17T1400,3200A,115.9819,36.4978,聊城市,监控中心,,33,33,43,3,6,57,57,47,47,2,8,8,8,0.4,0.4
2025-11-17T1400,3513A,116.0445,36.4361,聊城市,九州社区,,37,37,52,3,6,60,60,50,50,2,8,2,3,0.4,0.4
2025-11-17T1400,4018A,116.0567,36.4608,聊城市,星美广场,,36,36,57,3,10,56,56,46,46,4,13,2,4,0.1,0.2
2025-11-17T1400,2632A,94.3681,29.6376,林芝市,林芝监测站,,26,6,9,3,6,82,82,52,52,5,4,3,3,0.3,0.3
2025-11-17T1400,2633A,94.3616,29.6616,林芝市,林芝人民医院,,23,6,15,3,5,72,72,46,46,6,5,2,2,0.4,0.4
2025-11-17T1400,2603A,100.0781,23.8982,临沧市,市环保局,,26,16,23,7,25,81,81,35,35,3,7,5,5,0.4,0.5
2025-11-17T1400,2604A,100.0894,23.8822,临沧市,市气象局,,26,11,22,6,15,83,83,37,37,6,10,2,3,0.4,0.5
2025-11-17T1400,1733A,111.5531,36.0783,临汾市,临钢医院,,19,19,36,3,6,46,46,39,39,8,14,2,4,0.3,0.4
2025-11-17T1400,1734A,111.5028,36.0714,临汾市,技工学校,,14,8,39,6,11,44,44,39,38,10,15,4,4,0.1,0.2
2025-11-17T1400,1736A,111.5018,36.0855,临汾市,市委,,,16,36,,3,46,46,41,41,7,12,3,2,0.3,0.3
2025-11-17T1400,3018A,111.505,36.1014,临汾市,唐尧大酒店,,29,29,46,3,3,47,47,41,41,9,12,2,3,0.4,0.5
2025-11-17T1400,4244A,111.4879,36.0530,临汾市,启星学校,,16,10,29,8,8,49,49,43,43,9,16,4,5,0.4,0.4
2025-11-17T1400,4271A,103.2464,35.6123,临夏回族自治州,滨河东路1号,,48,48,66,17,18,46,46,47,46,6,7,4,4,0.4,0.3
2025-11-17T1400,4310A,103.2093,35.5995,临夏回族自治州,新华街21号,,50,50,67,13,19,55,55,53,50,6,10,9,11,0.3,0.3
2025-11-17T1400,1618A,118.3429,35.0532,临沂市,沂河小区,,29,29,60,16,24,43,43,40,40,18,23,8,8,0.4,0.4
2025-11-17T1400,1619A,118.295,35.0583,临沂市,鲁南制药厂,,19,19,59,9,18,47,47,43,43,16,22,9,8,0.1,0.1
2025-11-17T1400,1620A,118.2794,34.9976,临沂市,新光毛纺厂,,24,24,60,9,24,43,43,39,38,16,24,8,8,0.3,0.4
2025-11-17T1400,1621A,118.3956,35.0888,临沂市,河东保险公司,,27,27,49,3,10,47,47,44,43,20,24,8,7,0.2,0.2
2025-11-17T1400,3370A,118.3564,35.0215,临沂市,十里堡居委,,19,19,59,3,7,47,47,43,43,17,23,9,8,0.4,0.4
2025-11-17T1400,3496A,118.3604,35.1084,临沂市,南坊新区,,34,34,53,3,9,46,46,42,42,20,25,10,9,0.3,0.3
2025-11-17T1400,3860A,118.3920,35.0300,临沂市,皇山花园小区,,27,27,71,3,13,48,48,44,44,14,18,10,9,0.2,0.3
2025-11-17T1400,1870A,109.4856,24.3895,柳州市,柳东小学,,48,48,43,33,31,117,117,95,95,14,13,14,13,0.7,0.5
2025-11-17T1400,1871A,109.4157,24.3277,柳州市,环保监测站,,,46,63,,22,112,112,74,74,9,25,13,12,0.8,0.8
2025-11-17T1400,1872A,109.389,24.341,柳州市,河西水厂,颗粒物(PM10),52,54,82,28,45,120,120,71,71,12,34,11,14,0.6,0.8
2025-11-17T1400,1873A,109.4311,24.2921,柳州市,市四中,颗粒物(PM10),53,55,59,30,35,106,106,82,82,15,33,13,12,0.8,0.9
2025-11-17T1400,1874A,109.4006,24.3631,柳州市,市九中,颗粒物(PM10),53,55,69,30,42,118,118,66,66,10,30,10,8,0.6,0.7
2025-11-17T1400,1875A,109.4958,24.3134,柳州市,古亭山,,50,50,45,31,28,112,112,96,96,9,30,13,13,0.7,0.6
2025-11-17T1400,3402A,109.5422,24.3996,柳州市,市二中,细颗粒物(PM2.5),54,52,47,38,31,117,117,98,98,14,21,14,12,0.6,0.5
2025-11-17T1400,2307A,116.5079,31.737,六安市,监测大楼,,16,16,61,11,41,48,48,54,42,12,19,2,4,0.2,0.4
2025-11-17T1400,2308A,116.4738,31.7643,六安市,皖西学院,,18,18,73,11,42,50,50,53,44,12,20,1,3,0.2,0.4
2025-11-17T1400,2309A,116.4996,31.7905,六安市,朝阳厂,,15,12,62,9,38,47,47,52,43,12,21,3,4,0.3,0.4
2025-11-17T1400,2310A,116.5567,31.7886,六安市,开发区,,17,17,77,9,44,41,41,49,36,20,29,1,2,0.3,0.4
2025-11-17T1400,2576A,104.8,26.5892,六盘水市,窑上,,43,43,34,16,25,52,52,41,41,6,5,6,5,0.5,0.5
2025-11-17T1400,2577A,104.83,26.5917,六盘水市,黄土坡,,18,13,31,12,21,54,54,40,40,9,12,8,5,0.6,0.5
2025-11-17T1400,2578A,104.89,26.5939,六盘水市,水钢,,21,21,37,12,23,54,54,54,42,8,7,8,7,0.5,0.4
2025-11-17T1400,2579A,104.8475,26.5894,六盘水市,民中,,16,14,29,3,19,49,49,42,36,11,11,4,4,0.5,0.5
2025-11-17T1400,2580A,104.9544,26.5506,六盘水市,双水,,24,24,35,6,21,54,54,57,44,7,8,3,3,0.5,0.3
2025-11-17T1400,2335A,117.0189,25.1181,龙岩市,龙岩师专,,,,,,,,,,,,,,,,
2025-11-17T1400,2336A,117.0217,25.1033,龙岩市,龙岩市监测站,,29,29,31,8,20,91,91,63,63,4,19,8,15,0.2,0.4
2025-11-17T1400,2337A,117.0258,25.0661,龙岩市,闽西职业技术学院,,29,27,42,12,19,91,91,57,57,1,24,5,11,0.2,0.5
2025-11-17T1400,2338A,117.0196,25.0306,龙岩市,龙岩学院,颗粒物(PM10),94,137,44,3,24,91,91,60,60,2,17,4,8,0.1,0.4
2025-11-17T1400,2665A,105.0822,33.3261,陇南市,汉王镇固水子,,,,,,,,,,,,,,,,
2025-11-17T1400,2885A,104.9339,33.3826,陇南市,滨江中学,颗粒物(PM10),57,63,68,23,27,74,74,62,61,4,9,6,6,0.6,0.6
2025-11-17T1400,3247A,104.955,33.371,陇南市,市总工会,颗粒物(PM10),60,69,64,23,25,74,74,60,60,7,10,6,7,0.5,0.5
2025-11-17T1400,2487A,111.9589,27.8901,娄底市,电视发射台,,,,,,,,,,,,,,,,
2025-11-17T1400,2488A,111.9975,27.725,娄底市,市监测站,,41,41,78,17,48,48,48,92,59,8,16,8,14,0.6,0.9
2025-11-17T1400,2489A,112.0194,27.7314,娄底市,市委党校,颗粒物(PM10),54,57,82,24,47,41,41,86,51,12,18,3,6,0.5,0.7
2025-11-17T1400,2490A,111.9561,27.7569,娄底市,涟钢,,50,50,84,23,53,47,47,60,52,11,18,4,8,0.7,1.1
2025-11-17T1400,2491A,111.9892,27.7044,娄底市,市政府,,36,28,88,25,63,46,46,61,54,10,20,7,10,0.6,0.9
2025-11-17T1400,1893A,105.4324,28.9634,泸州市,九狮山,,,,,,,,,,,,,,,,
2025-11-17T1400,1894A,105.4427,28.9063,泸州市,小市上码头,,16,,32,11,24,47,47,39,39,7,13,8,8,0.4,0.5
2025-11-17T1400,1895A,105.4241,28.8573,泸州市,兰田宪桥,,14,10,33,3,23,44,44,38,38,10,14,6,6,0.3,0.5
2025-11-17T1400,1896A,105.4379,28.8833,泸州市,市环监站,,13,10,32,3,22,40,40,36,34,12,17,6,7,0.4,0.6
2025-11-17T1400,4272A,105.3689,28.7783,泸州市,纳溪中医医院,,26,26,31,6,21,50,50,42,42,11,16,6,6,0.4,0.6
2025-11-17T1400,2183A,111.1406,37.5211,吕梁市,环保局,,,,30,,11,47,47,42,42,4,7,1,2,0.3,0.3
2025-11-17T1400,2185A,111.1297,37.5136,吕梁市,自来水公司,,17,17,30,3,6,50,50,44,44,5,11,3,3,0.3,0.3
2025-11-17T1400,2867A,111.1283,37.51,吕梁市,马茂庄小学,,22,22,31,3,7,49,49,45,45,3,8,3,2,0.4,0.4
2025-11-17T1400,1812A,112.3931,34.6516,洛阳市,市委党校,,33,33,59,11,28,43,43,40,34,15,23,8,8,0.4,0.5
2025-11-17T1400,1815A,112.494,34.6886,洛阳市,河南林校,,,49,69,12,24,43,43,40,34,18,24,8,7,,0.4
2025-11-17T1400,1816A,112.3844,34.623,洛阳市,开发区管委会,,29,29,57,9,25,48,48,41,36,14,21,5,5,0.4,0.5
2025-11-17T1400,1817A,112.4267,34.6258,洛阳市,市委新办公区,,32,32,59,16,22,42,42,42,33,18,22,8,7,0.5,0.6
2025-11-17T1400,3340A,112.6005,34.6326,洛阳市,伊滨,,44,44,68,15,26,40,40,43,35,17,21,8,8,0.2,0.3
2025-11-17T1400,3341A,112.4951,34.6332,洛阳市,中移产业园,,,53,68,17,25,37,37,39,30,21,23,,7,0.1,0.2
2025-11-17T1400,3593A,112.5736,34.8993,洛阳市,吉利监测站,,34,34,69,3,19,45,45,41,33,16,22,9,7,0.5,0.4
2025-11-17T1400,3635A,112.3677,34.662,洛阳市,河科大西苑校区,,33,29,58,23,27,48,48,42,36,13,21,8,8,0.3,0.4
2025-11-17T1400,3636A,112.4388,34.6781,洛阳市,英才小学,,38,38,61,23,31,38,38,35,27,19,27,8,7,0.2,0.3
2025-11-17T1400,4214A,112.4600,34.6949,洛阳市,春都路1号院,,44,44,74,10,20,40,40,34,30,16,23,9,8,0.4,0.4
2025-11-17T1400,2399A,114.051,33.5699,漯河市,三五一五工厂,,34,34,96,7,38,45,45,48,44,14,18,7,7,0.1,0.3
2025-11-17T1400,2400A,114.0055,33.5698,漯河市,漯河大学,,40,40,96,17,35,47,47,50,46,16,20,7,7,0.4,0.4
2025-11-17T1400,2401A,114.0138,33.5828,漯河市,市水利局,,27,27,89,12,35,46,46,49,44,15,20,8,8,0.1,0.1
2025-11-17T1400,2402A,114.0261,33.5698,漯河市,市广电局,,39,39,97,8,28,48,48,51,46,12,17,6,6,0.3,0.3
2025-11-17T1400,3478A,113.9749,33.5664,漯河市,市图书馆,,31,31,101,3,34,43,43,46,42,15,20,5,5,0.4,0.4
2025-11-17T1400,4250A,114.0892,33.5882,漯河市,韶山路11号,,42,32,90,29,52,44,44,46,42,15,21,7,8,0.3,0.3
2025-11-17T1400,1798A,118.5092,31.6837,马鞍山市,湖东路四小,,28,28,64,3,30,46,46,62,48,22,28,8,8,0.5,0.7
2025-11-17T1400,1799A,118.5024,31.6449,马鞍山市,开发区,,37,37,69,3,28,42,42,65,46,29,28,9,9,0.7,0.8
2025-11-17T1400,1802A,118.6245,31.7241,马鞍山市,濮塘,,,,,,,,,,,,,,,,
2025-11-17T1400,3633A,118.4918,31.6809,马鞍山市,雨山,,27,27,66,3,26,41,41,64,47,28,28,18,10,1.2,0.8
2025-11-17T1400,4191A,118.5274,31.72227,马鞍山市,慈湖高新区,,19,19,62,3,31,48,48,61,48,22,26,3,6,0.3,0.6
2025-11-17T1400,1686A,111.0286,21.4688,茂名市,电白南海,臭氧1小时,107,112,72,73,28,213,213,129,129,30,18,18,12,0.9,0.7
2025-11-17T1400,1687A,110.9294,21.6533,茂名市,茂石化七小,,44,41,67,22,34,139,139,106,106,9,16,12,15,0.6,0.7
2025-11-17T1400,1688A,110.9107,21.6687,茂名市,健康路,,45,34,60,22,27,141,141,113,113,9,16,11,15,0.7,0.8
2025-11-17T1400,1689A,110.8592,21.6828,茂名市,高岭,,48,48,87,12,33,127,127,85,85,11,24,9,16,0.6,0.9
2025-11-17T1400,3450A,111.01,21.5165,茂名市,电白水东,臭氧1小时,93,97,59,48,29,194,194,119,119,24,16,14,14,0.8,0.7
2025-11-17T1400,2539A,104.0308,30.0478,眉山市,黑龙滩水库,,,,,,,,,,,,,,,,
2025-11-17T1400,2540A,103.8416,30.0874,眉山市,气象局,,33,33,48,17,25,68,68,47,47,12,22,8,8,0.3,0.5
2025-11-17T1400,3137A,103.8578,30.0744,眉山市,市委党校,,41,41,36,7,19,63,63,45,44,11,18,5,6,0.4,0.6
2025-11-17T1400,3148A,103.8291,30.0564,眉山市,区人社局,,40,40,47,12,21,63,63,46,41,14,22,6,7,0.6,0.8
2025-11-17T1400,1690A,116.1231,24.3284,梅州市,梅江月梅,,33,25,40,20,24,103,103,58,58,8,25,6,6,0.6,0.7
2025-11-17T1400,1691A,116.0797,24.2719,梅州市,梅县新城,,35,27,47,16,26,110,110,61,61,10,26,9,8,0.7,0.7
2025-11-17T1400,1692A,116.1248,24.2654,梅州市,环境监控中心,,,,46,,32,,,47,47,,31,,15,,0.7
2025-11-17T1400,3315A,116.1233,24.2991,梅州市,梅龙,,32,24,40,15,25,100,100,56,56,5,17,8,9,0.7,0.8
2025-11-17T1400,1878A,104.7778,31.4741,绵阳市,富乐山,,50,50,33,16,18,66,66,60,58,7,9,10,9,0.4,0.5
2025-11-17T1400,1880A,104.6697,31.4668,绵阳市,高新区自来水公司,,49,49,33,17,20,62,62,54,51,8,14,9,9,0.4,0.5
2025-11-17T1400,1881A,104.7287,31.5075,绵阳市,三水厂,,46,46,35,18,21,64,64,58,53,8,15,8,8,0.5,0.6
2025-11-17T1400,3491A,104.69,31.5322,绵阳市,西科大附属小学,,,50,34,15,15,,,,,8,16,7,5,0.4,0.5
2025-11-17T1400,3492A,104.5648,31.5343,绵阳市,安州区旅游局,,44,44,34,17,21,56,56,51,50,5,10,8,9,0.3,0.5
2025-11-17T1400,4226A,104.7651,31.4531,绵阳市,绵阳市气象局,颗粒物(PM10),51,52,34,12,16,63,63,58,55,8,11,8,8,0.3,0.4
2025-11-17T1400,1784A,129.61,44.561,牡丹江市,环保大楼,,28,20,50,19,26,61,61,51,51,7,11,5,5,0.3,0.3
2025-11-17T1400,1785A,129.6115,44.5782,牡丹江市,文化广场,,26,18,51,18,29,57,57,50,50,13,13,5,6,0.3,0.4
2025-11-17T1400,1786A,129.5904,44.5963,牡丹江市,第一医院,,46,46,52,12,28,60,60,51,51,5,8,2,2,0.3,0.3
2025-11-17T1400,1787A,129.6364,44.6075,牡丹江市,机车工厂,,21,21,46,13,23,61,61,54,54,10,13,4,6,0.3,0.3
2025-11-17T1400,1788A,129.6386,44.5462,牡丹江市,第一中学,,22,,51,15,25,59,59,49,49,4,9,2,3,0.3,0.4
2025-11-17T1400,2531A,105.0703,29.61,内江市,市监测站,,28,28,36,10,20,76,76,65,65,10,11,2,3,0.5,0.6
2025-11-17T1400,2532A,105.0717,29.5947,内江市,东兴区政府,,19,13,29,6,16,60,60,52,52,11,14,7,7,0.3,0.4
2025-11-17T1400,2533A,105.0653,29.5817,内江市,内江二中,,29,29,36,3,20,57,57,48,48,15,17,4,4,0.5,0.6
2025-11-17T1400,2534A,105.0406,29.5822,内江市,内江日报社,,21,18,33,3,18,66,66,55,55,10,17,4,4,0.3,0.5
2025-11-17T1400,2628A,92.0657,31.4846,那曲市,那曲监测站,,28,18,58,6,36,87,87,40,40,11,29,5,10,0.6,1.6
2025-11-17T1400,4243A,92.0515,31.4787,那曲市,那曲市委宣传部,,26,6,26,3,15,82,82,38,38,4,13,5,8,0.4,0.8
2025-11-17T1400,1290A,115.8931,28.6843,南昌市,省外办,颗粒物(PM10),63,76,89,22,57,49,49,85,60,20,24,5,8,0.7,1.2
2025-11-17T1400,1291A,115.8886,28.7003,南昌市,省林业公司,颗粒物(PM10),79,107,97,27,56,54,54,82,64,11,25,3,6,0.7,1.1
2025-11-17T1400,1292A,115.8126,28.7442,南昌市,林科所,颗粒物(PM10),62,73,83,14,47,52,52,104,65,12,18,3,6,0.4,0.7
2025-11-17T1400,1294A,115.8518,28.687,南昌市,建工学校,颗粒物(PM10),74,98,104,20,54,50,50,94,60,15,25,8,12,0.4,0.7
2025-11-17T1400,1295A,115.8921,28.6424,南昌市,象湖,,,,89,19,54,54,54,93,63,13,23,8,11,0.5,0.9
2025-11-17T1400,1296A,115.7423,28.7996,南昌市,武术学校,,,,,,,,,,,,,,,,
2025-11-17T1400,3046A,115.9084,28.6062,南昌市,机电学校,颗粒物(PM10),94,138,113,27,62,55,55,96,68,15,26,8,11,0.4,0.7
2025-11-17T1400,3690A,115.9721,28.7031,南昌市,外国语学校,颗粒物(PM10),83,116,104,24,67,49,49,86,63,20,28,8,12,0.5,0.8
2025-11-17T1400,4192A,115.9316,28.68677,南昌市,南京东路235号,颗粒物(PM10),83,115,102,22,62,55,55,94,68,20,28,6,8,0.5,0.9
2025-11-17T1400,1905A,106.056,30.8064,南充市,西山风景区,,,,,,,,,,,,,,,,
2025-11-17T1400,1906A,106.0789,30.8023,南充市,南充市委,,19,6,26,3,18,59,59,45,43,11,16,4,4,0.3,0.4
2025-11-17T1400,1907A,106.1031,30.8217,南充市,南充炼油厂,,29,29,39,9,26,58,58,44,43,6,9,6,6,0.5,0.5
2025-11-17T1400,4227A,106.1083,30.7884,南充市,梨树横街98号,,19,6,24,6,19,59,59,47,47,7,10,4,4,0.3,0.4
2025-11-17T1400,4304A,106.1172,30.843,南充市,清泉寺北路188号,,20,10,29,3,12,64,64,47,47,7,10,7,7,0.3,0.4
2025-11-17T1400,4305A,106.067,30.7616,南充市,同庆路1号,,18,15,24,3,19,56,56,44,42,8,13,6,6,0.3,0.4
2025-11-17T1400,1151A,118.8086,32.1065,南京市,迈皋桥,,19,12,60,3,28,59,59,57,54,15,22,3,4,0.3,0.4
2025-11-17T1400,1152A,118.7538,32.0551,南京市,草场门,,19,19,69,3,30,49,49,52,46,22,28,4,6,0.3,0.6
2025-11-17T1400,1153A,118.7794,32.0745,南京市,山西路,,24,24,78,3,30,55,55,57,52,13,22,3,5,0.3,0.5
2025-11-17T1400,1154A,118.7752,32.0023,南京市,中华门,,22,22,85,3,33,47,47,54,46,11,21,3,4,0.3,0.5
2025-11-17T1400,1155A,118.8109,32.0309,南京市,瑞金路,,19,19,69,7,32,51,51,57,49,2,14,4,4,0.6,0.8
2025-11-17T1400,1156A,118.7997,32.0754,南京市,玄武湖,,,24,62,,39,51,51,52,47,25,27,4,4,0.2,0.5
2025-11-17T1400,1157A,118.6414,32.0931,南京市,浦口,,24,24,72,8,35,55,55,52,50,18,24,7,9,0.3,0.5
2025-11-17T1400,1158A,118.7356,31.9996,南京市,奥体中心,,24,24,75,3,32,56,56,59,53,18,26,4,6,0.2,0.5
2025-11-17T1400,1159A,118.9125,32.1028,南京市,仙林大学城,,14,14,69,3,29,44,44,50,45,11,19,7,5,0.3,0.5
2025-11-17T1400,3422A,118.8436,31.9198,南京市,江宁彩虹桥,,23,23,53,7,25,57,57,64,55,14,20,3,4,0.3,0.5
2025-11-17T1400,3427A,118.8554,32.3578,南京市,六合雄州,,19,9,53,3,34,58,58,50,49,9,16,5,6,0.0,0.4
2025-11-17T1400,4249A,118.8708,31.3402,南京市,汶溪路181号,,32,32,64,12,32,50,50,69,50,20,24,4,4,0.3,0.5
2025-11-17T1400,4312A,119.019,31.6512,南京市,中山西路1号,,29,29,59,10,28,46,46,56,45,15,18,4,4,0.4,0.6
2025-11-17T1400,1401A,108.3103,22.7881,南宁市,二十一中,颗粒物(PM10),64,78,90,40,53,121,121,41,41,11,51,8,8,0.9,1.2
2025-11-17T1400,1402A,108.3141,22.8528,南宁市,北湖,"颗粒物(PM10),细颗粒物(PM2.5)",55,59,91,39,56,117,117,45,45,16,48,12,15,0.7,0.9
2025-11-17T1400,1403A,108.3206,22.8225,南宁市,市监测站,"颗粒物(PM10),细颗粒物(PM2.5)",62,73,103,44,63,104,104,38,38,17,55,12,16,0.7,0.9
2025-11-17T1400,1404A,108.3829,22.8037,南宁市,大自然花园,细颗粒物(PM2.5),62,71,83,44,50,114,114,44,44,10,45,9,7,0.6,0.8
2025-11-17T1400,1405A,108.4394,22.7904,南宁市,仙葫,,,,,,,,,,,,,,,,
2025-11-17T1400,1406A,108.2397,22.8467,南宁市,区农职院,细颗粒物(PM2.5),79,90,72,58,48,96,96,32,32,22,31,14,17,0.8,0.7
2025-11-17T1400,1407A,108.3275,22.735,南宁市,英华嘉园,颗粒物(PM10),62,74,78,39,55,117,117,42,42,12,43,7,5,0.6,0.7
2025-11-17T1400,3401A,108.4834,22.7618,南宁市,红星社区,细颗粒物(PM2.5),63,67,67,45,50,125,125,51,51,10,32,10,6,0.8,0.8
2025-11-17T1400,4221A,108.2177,22.7774,南宁市,乐贤路16号,"颗粒物(PM10),细颗粒物(PM2.5)",87,124,81,64,49,96,96,37,37,30,41,36,9,0.8,0.6
2025-11-17T1400,2331A,118.0966,26.6761,南平市,茫荡山,,,,25,,59,,,117,,,,,1,,0.3
2025-11-17T1400,2332A,118.1681,26.6369,南平市,南平市监测站,,31,17,32,10,25,97,97,54,54,5,21,4,4,0.5,0.7
2025-11-17T1400,2333A,118.1825,26.6489,南平市,南平铝业有限公司,,30,22,33,8,24,93,93,49,49,6,24,3,4,0.4,0.6
2025-11-17T1400,2334A,118.1756,26.6272,南平市,南平七中,,34,34,33,11,22,98,98,48,48,5,16,4,4,0.4,0.6
2025-11-17T1400,1168A,120.9098,31.9663,南通市,狼山街道,,36,36,46,3,15,42,42,73,55,16,16,3,3,0.5,0.6
2025-11-17T1400,1169A,120.86,32.0005,南通市,虹桥,,27,27,42,9,23,42,42,76,55,14,17,4,4,0.4,0.6
2025-11-17T1400,1170A,120.87,32.02,南通市,城中,,41,41,58,8,20,40,40,72,53,20,20,4,5,0.3,0.4
2025-11-17T1400,1171A,120.94,31.93,南通市,星湖花园,,34,34,51,9,19,42,42,70,54,16,18,4,4,0.2,0.4
2025-11-17T1400,1172A,120.81,32.0417,南通市,紫琅学院,,38,38,59,3,21,41,41,68,52,16,26,4,4,0.3,0.5
2025-11-17T1400,3291A,121.067,32.062,南通市,通州监测站,,22,22,34,3,15,44,44,77,60,16,16,1,2,0.3,0.5
2025-11-17T1400,3432A,120.9348,31.9883,南通市,环境教育馆,,44,44,47,7,18,43,43,74,57,13,17,3,4,0.4,0.5
2025-11-17T1400,2404A,112.5224,33.0122,南阳市,瓦房庄,,24,24,82,16,41,40,40,55,42,14,17,5,7,0.3,0.5
2025-11-17T1400,2405A,112.5003,32.9735,南阳市,汉画馆,,29,23,83,20,43,40,40,54,41,12,19,5,6,0.5,0.6
2025-11-17T1400,2406A,112.5573,33.027,南阳市,气象站,,19,19,86,12,34,41,41,53,41,17,22,7,9,0.3,0.4
2025-11-17T1400,2407A,112.5481,32.9689,南阳市,理工学院,,26,26,92,14,31,41,41,53,41,12,20,4,5,0.3,0.5
2025-11-17T1400,4008A,112.5234,32.9922,南阳市,卧龙区政府,,22,17,71,15,42,36,36,51,38,15,19,4,6,0.4,0.5
2025-11-17T1400,1234A,121.8358,29.911,宁波市,区环保大楼,,26,26,40,17,16,59,59,54,54,21,43,6,6,0.5,0.6
2025-11-17T1400,1235A,121.56,29.82,宁波市,万里学院,,29,29,52,11,33,64,64,59,59,14,35,6,7,0.6,0.7
2025-11-17T1400,1236A,121.713,29.9572,宁波市,龙赛医院,,33,33,64,7,26,65,65,68,68,12,43,4,5,0.5,0.7
2025-11-17T1400,1239A,121.633,29.7733,宁波市,钱湖水厂,,21,19,45,9,26,65,65,55,55,15,22,6,6,0.4,0.5
2025-11-17T1400,1240A,121.5856,29.8635,宁波市,太古小学,,22,22,55,8,26,65,65,65,65,7,30,3,4,0.7,0.8
2025-11-17T1400,1241A,121.524,29.8674,宁波市,市环境监测中心,,31,31,49,13,25,64,64,61,61,13,32,6,7,0.5,0.6
2025-11-17T1400,2871A,121.6147,29.9017,宁波市,万里国际学校,,30,30,47,7,28,65,65,69,69,13,36,4,5,0.6,0.7
2025-11-17T1400,3710A,121.5594,29.8975,宁波市,白沙活动中心,,29,29,43,6,22,65,65,67,67,15,32,5,5,0.4,0.5
2025-11-17T1400,2339A,119.5001,26.6946,宁德市,金涵水库,,,,27,,14,,,47,,,10,,2,,0.8
2025-11-17T1400,2341A,119.5388,26.6612,宁德市,宁德市监测站,,43,43,26,24,18,65,65,46,46,24,16,8,6,0.4,0.4
2025-11-17T1400,3209A,119.5231,26.6562,宁德市,宁德一中,,38,34,28,26,18,73,73,49,49,19,12,8,7,0.5,0.4
2025-11-17T1400,2618A,98.8601,25.8567,怒江傈僳族自治州,州监测站,,25,12,23,10,16,77,77,51,51,4,8,4,5,0.3,0.3
2025-11-17T1400,2619A,98.8546,25.8417,怒江傈僳族自治州,泸水一中,,35,27,27,24,16,70,70,32,32,6,14,6,6,0.4,0.5
2025-11-17T1400,1888A,101.6891,26.571,攀枝花市,弄弄坪,,30,29,45,21,24,81,81,29,29,15,27,17,16,1.1,1.2
2025-11-17T1400,1889A,101.5769,26.5928,攀枝花市,河门口,,33,33,35,19,19,78,78,31,31,13,15,27,18,1.6,1
2025-11-17T1400,1890A,101.7169,26.585,攀枝花市,炳草岗,,39,39,51,17,24,78,78,26,26,20,32,23,11,1.7,1.1
2025-11-17T1400,1891A,101.7369,26.5008,攀枝花市,仁和,,49,48,36,34,22,80,80,31,31,13,16,24,12,0.9,0.9
2025-11-17T1400,2835A,101.7227,26.567,攀枝花市,四十中小,,47,47,46,27,24,69,69,23,23,24,33,28,25,1.9,1.3
2025-11-17T1400,1604A,122.0303,41.1489,盘锦市,开发区,,34,34,40,6,5,55,55,47,47,6,10,1,2,0.3,0
2025-11-17T1400,1605A,122.0485,41.0883,盘锦市,兴隆台,,31,31,37,7,6,52,52,44,44,6,12,6,6,0.4,0.4
2025-11-17T1400,1606A,121.8297,41.1028,盘锦市,新生街道,,34,34,45,3,3,52,52,39,39,9,24,7,7,0.0,0.1
2025-11-17T1400,1832A,113.3257,33.742,平顶山市,新华旅馆,,38,38,84,11,31,42,42,46,40,14,18,22,8,0.6,0.5
2025-11-17T1400,1833A,113.2919,33.737,平顶山市,规划设计院,,29,29,78,17,31,43,43,48,42,14,15,6,6,0.2,0.2
2025-11-17T1400,1834A,113.182,33.774,平顶山市,平顶山工学院,,26,26,72,14,29,43,43,47,41,15,18,6,7,0.2,0.3
2025-11-17T1400,3204A,113.3025,33.73,平顶山市,规划局,,39,39,91,15,31,42,42,48,42,14,16,9,8,0.4,0.5
2025-11-17T1400,3594A,112.8867,33.9116,平顶山市,石龙区,,,,94,,35,40,40,55,,16,23,4,6,0.7,0.6
2025-11-17T1400,2656A,106.6692,35.5461,平凉市,聚贤嘉苑,,,36,60,13,21,59,59,52,49,4,7,,7,0.4,0.4
2025-11-17T1400,2657A,106.7021,35.5307,平凉市,博物馆,,36,36,58,12,20,60,60,53,51,4,7,4,5,0.3,0.3
2025-11-17T1400,2347A,114.0997,27.5002,萍乡市,武功山,,,,,,,,,,,,,,,,
2025-11-17T1400,2348A,113.8385,27.6434,萍乡市,中医院,颗粒物(PM10),84,117,80,51,47,56,56,53,53,26,39,6,9,0.8,1.1
2025-11-17T1400,2349A,113.8493,27.6253,萍乡市,市政府车库,颗粒物(PM10),89,127,70,59,51,55,55,48,48,23,30,9,10,0.6,0.9
2025-11-17T1400,2350A,113.8676,27.6435,萍乡市,市环保局,颗粒物(PM10),75,99,65,44,42,59,59,50,50,20,29,11,17,0.6,0.8
2025-11-17T1400,2351A,113.866,27.6198,萍乡市,安源区政府,细颗粒物(PM2.5),100,129,69,75,58,59,59,50,50,22,31,10,12,0.6,0.8
2025-11-17T1400,2319A,119.0141,25.4325,莆田市,荔城区仓后路,,30,27,29,12,10,96,96,82,82,8,9,4,4,0.4,0.4
2025-11-17T1400,2320A,119.0015,25.4553,莆田市,莆田市监测站,,32,32,22,13,9,96,96,86,86,9,7,5,4,0.5,0.4
2025-11-17T1400,2321A,119.1119,25.4561,莆田市,涵江区六中,,30,30,29,10,10,95,95,72,72,7,10,4,4,0.4,0.4
2025-11-17T1400,2322A,119.1013,25.3215,莆田市,秀屿区政府,,31,26,29,14,12,97,97,85,85,8,12,5,5,0.5,0.5
2025-11-17T1400,2323A,118.981,25.4792,莆田市,东圳水库,,,,19,,20,,,93,,,8,,4,,0.9
2025-11-17T1400,2392A,115.0312,35.7636,濮阳市,环保局,,23,23,48,3,8,46,46,41,41,25,27,9,8,0.5,0.4
2025-11-17T1400,2394A,115.0574,35.7609,濮阳市,油田运输公司,,27,27,51,3,7,48,48,43,43,6,9,10,10,0.5,0.5
2025-11-17T1400,3021A,115,35.7668,濮阳市,濮水河管理处,,20,20,47,3,7,46,46,42,42,19,22,9,8,0.1,0.2
2025-11-17T1400,4216A,115.0924,35.7686,濮阳市,任丘路479号,,34,34,56,3,7,46,46,42,42,20,21,9,9,0.1,0.3
2025-11-17T1400,2601A,100.98,22.7633,普洱市,市环保局,,31,31,33,10,17,70,70,35,35,7,9,5,4,0.4,0.4
2025-11-17T1400,2602A,100.9817,22.8322,普洱市,普洱第二中学,,,26,28,14,15,53,53,26,26,7,13,,5,0.4,0.3
2025-11-17T1400,2262A,131.0518,45.8751,七台河市,新一中,,,,,,,,,,,,,,,,
2025-11-17T1400,3345A,131.0577,45.7879,七台河市,中波台,,22,22,57,6,36,59,59,44,44,4,16,6,7,0.4,0.6
2025-11-17T1400,3637A,131.0176,45.7761,七台河市,人民广场,,22,22,56,10,37,59,59,45,45,7,17,6,7,0.4,0.5
2025-11-17T1400,3684A,130.8781,45.8222,七台河市,新建矿广场,,41,41,54,19,37,59,59,45,45,5,11,6,6,0.2,0.3
2025-11-17T1400,1779A,123.9305,47.3636,齐齐哈尔市,安居小区,,20,19,23,3,12,64,64,55,55,5,8,1,2,0.4,0.5
2025-11-17T1400,1780A,123.9488,47.3386,齐齐哈尔市,中心广场,,21,9,18,3,6,65,65,55,55,9,11,4,5,0.4,0.4
2025-11-17T1400,1781A,123.9483,47.3227,齐齐哈尔市,农牧车辆厂,,20,19,24,3,7,62,62,53,53,4,6,4,4,0.4,0.4
2025-11-17T1400,1783A,123.945,47.2988,齐齐哈尔市,市环境监测站,,31,31,27,3,10,64,64,56,56,5,7,5,6,0.4,0.4
2025-11-17T1400,3662A,123.6333,47.2075,齐齐哈尔市,富区青少年活动中心,,40,40,39,3,10,60,60,50,50,11,12,4,4,0.4,0.4
2025-11-17T1400,2591A,107.9783,26.5747,黔东南苗族侗族自治州,市环境监测站,细颗粒物(PM2.5),53,51,37,37,30,83,83,46,46,8,22,6,5,0.6,0.6
2025-11-17T1400,2881A,107.8908,26.5311,黔东南苗族侗族自治州,凯里学院,,50,39,29,35,23,85,85,57,57,11,13,6,4,0.5,0.4
2025-11-17T1400,2593A,107.5228,26.2403,黔南布依族苗族自治州,小围寨,,42,36,34,29,26,68,68,33,33,7,11,5,5,0.4,0.4
2025-11-17T1400,3538A,107.5175,26.2978,黔南布依族苗族自治州,沙坝,,42,34,35,29,28,77,77,36,36,8,16,5,5,0.6,0.7
2025-11-17T1400,2589A,104.9022,25.0925,黔西南布依族苗族自治州,场坝街,,31,31,43,17,31,77,77,36,36,10,13,8,16,0.5,0.5
2025-11-17T1400,2590A,104.8811,25.0992,黔西南布依族苗族自治州,坪东大道,,33,33,36,22,31,74,74,36,36,11,14,8,5,0.4,0.5
2025-11-17T1400,2502A,108.6236,21.9667,钦州市,市环保站,细颗粒物(PM2.5),62,66,89,44,52,133,133,80,80,10,24,7,6,0.7,1.6
2025-11-17T1400,2503A,108.6549,21.9481,钦州市,沙埠小学,颗粒物(PM10),64,78,105,42,58,140,140,79,79,8,30,9,8,0.6,0.9
2025-11-17T1400,2504A,108.5989,21.7431,钦州市,港区一小,细颗粒物(PM2.5),63,70,93,45,51,143,143,75,75,12,37,7,7,0.9,1
2025-11-17T1400,3404A,108.5959,21.9633,钦州市,北职校,"颗粒物(PM10),细颗粒物(PM2.5)",62,74,81,44,54,133,133,75,75,10,24,10,8,1.2,1.8
2025-11-17T1400,1043A,119.7493,40.0116,秦皇岛市,第一关,,18,,19,9,14,57,57,45,45,10,18,4,4,0.2,0.1
2025-11-17T1400,1044A,119.5897,39.9499,秦皇岛市,监测站,,19,19,32,9,10,58,58,47,47,11,18,5,4,0.6,0.5
2025-11-17T1400,1046A,119.5251,39.9041,秦皇岛市,建设大厦,,17,16,29,3,15,52,52,44,44,13,16,3,3,0.2,0.2
2025-11-17T1400,3132A,119.610547,39.943889,秦皇岛市,文明里,,17,11,23,6,13,52,52,42,42,8,10,6,6,0.2,0.1
2025-11-17T1400,4198A,119.5090,39.8253,秦皇岛市,北戴河轮滑馆,,17,6,24,3,7,52,52,41,41,3,7,2,2,0.3,0.3
2025-11-17T1400,1307A,120.6659,36.2403,青岛市,仰口,,,,,,,,,,,,,,,,
2025-11-17T1400,1310A,120.4134,36.0658,青岛市,市南区东部子站,,34,34,55,7,11,51,51,52,46,10,17,6,7,0.5,0.5
2025-11-17T1400,1311A,120.3664,36.1032,青岛市,四方区子站,,41,41,59,7,11,54,54,54,49,2,6,2,3,0.2,0.2
2025-11-17T1400,1312A,120.2994,36.054,青岛市,市南区西部子站,,29,29,50,3,9,48,48,45,44,9,15,7,7,0.3,0.4
2025-11-17T1400,1313A,120.4581,36.0858,青岛市,崂山区子站,,34,34,50,3,8,50,50,51,44,8,14,8,8,0.4,0.4
2025-11-17T1400,1315A,120.3999,36.3083,青岛市,城阳区子站,,44,44,46,3,10,55,55,55,49,5,10,3,4,0.4,0.4
2025-11-17T1400,3362A,120.5014,36.4034,青岛市,即墨2号,,34,34,41,3,11,47,47,48,44,11,12,3,4,0.3,0.3
2025-11-17T1400,3642A,120.3503,36.0736,青岛市,市北区南部,,37,37,56,7,8,43,43,43,39,18,21,4,5,0.1,0.2
2025-11-17T1400,3643A,120.3948,36.1805,青岛市,李沧区北部,,31,31,54,14,14,48,48,45,42,8,14,6,6,0.4,0.4
2025-11-17T1400,4290A,120.1969,35.9546,青岛市,珠江路669号,,39,39,61,10,11,52,52,47,45,7,13,9,9,0.2,0.3
2025-11-17T1400,4291A,120.0424,35.8656,青岛市,黄岛区人民政府广场,,34,34,43,3,5,55,55,54,51,9,12,6,6,0.5,0.5
2025-11-17T1400,1702A,113.0426,23.691,清远市,环保大楼,,,,,,,,,,,,,,,,
2025-11-17T1400,1703A,113.0208,23.7106,清远市,凤城街办,,35,26,38,20,23,111,111,77,77,10,31,8,8,0.5,0.6
2025-11-17T1400,3025A,113.0477,23.6344,清远市,技师学院,,38,28,46,15,25,119,119,86,86,9,36,7,8,0.5,0.7
2025-11-17T1400,3318A,112.9903,23.7403,清远市,清新太和,,36,26,30,18,19,114,114,80,80,6,17,8,10,0.4,0.5
2025-11-17T1400,3455A,113.076,23.7198,清远市,清城东城,,37,26,33,16,19,118,118,94,94,11,20,8,8,0.5,0.5
2025-11-17T1400,2661A,107.6325,35.7357,庆阳市,庆阳五中,,23,23,45,11,13,54,54,47,47,6,8,5,4,0.2,0.3
2025-11-17T1400,2662A,107.6364,35.7067,庆阳市,市环保局,,23,23,49,6,10,59,59,49,49,7,9,2,3,0.3,0.2
2025-11-17T1400,1916A,103.7897,25.5035,曲靖市,环境监测站,,29,29,30,18,14,83,83,43,43,17,14,4,4,0.7,0.7
2025-11-17T1400,1917A,103.8,25.5364,曲靖市,烟厂办公区,,28,25,31,19,18,77,77,38,38,15,21,4,4,0.5,0.5
2025-11-17T1400,3376A,103.7947,25.462,曲靖市,南苑二区,,,39,20,23,13,88,88,47,47,14,9,,4,0.6,0.4
2025-11-17T1400,3377A,103.7444,25.5261,曲靖市,曲靖师范学院,,35,,35,24,22,75,75,42,42,26,22,3,4,0.6,0.4
2025-11-17T1400,1264A,118.8692,28.9398,衢州市,环保大楼,,21,21,96,12,62,64,64,68,68,14,48,4,6,0.5,0.8
2025-11-17T1400,1265A,118.8709,28.9666,衢州市,实验学校,,26,26,85,14,58,65,65,57,57,15,44,2,4,0.5,0.6
2025-11-17T1400,1266A,118.8621,28.9808,衢州市,衢州学院,,,25,85,19,58,67,67,69,69,12,40,4,6,,0.6
2025-11-17T1400,1611A,118.5819,24.9117,泉州市,涂山街,,33,30,34,15,16,104,104,72,72,6,11,3,4,0.4,0.4
2025-11-17T1400,1612A,118.5972,24.8978,泉州市,津头埔,,33,33,31,17,16,102,102,71,71,13,15,4,4,0.4,0.4
2025-11-17T1400,1613A,118.6663,24.9424,泉州市,万安,,39,39,34,16,14,111,111,81,81,8,11,5,4,0.4,0.3
2025-11-17T1400,1614A,118.6117,24.9604,泉州市,清源山,,,,26,,14,,,93,,,7,,4,,0.5
2025-11-17T1400,3529A,118.6333,24.9264,泉州市,城华南路,,36,36,30,16,14,108,108,74,74,12,16,5,4,0.4,0.4
2025-11-17T1400,2626A,88.8876,29.2718,日喀则市,日喀则监测站,,31,8,20,3,9,98,98,61,61,6,15,4,6,0.3,0.4
2025-11-17T1400,3726A,88.8781,29.2426,日喀则市,林业技术推广中心,,29,10,23,3,6,91,91,55,55,4,7,4,5,0.4,0.4
2025-11-17T1400,1659A,119.471,35.4209,日照市,监测站,,29,29,42,3,8,45,45,45,41,13,18,6,7,0.4,0.4
2025-11-17T1400,1660A,119.523,35.4216,日照市,市政府广场,,29,29,40,6,7,47,47,45,42,10,14,9,9,0.5,0.6
2025-11-17T1400,1661A,119.5587,35.4044,日照市,港务局,,31,31,45,15,19,49,49,47,44,11,14,8,8,0.4,0.5
2025-11-17T1400,3507A,119.5328,35.4625,日照市,职业技术学院,,24,24,42,3,7,48,48,46,43,12,15,5,5,0.5,0.5
2025-11-17T1400,3604A,119.3266,35.1044,日照市,岚山环保分局,,29,29,66,6,18,46,46,46,43,11,19,7,17,0.6,1.2
2025-11-17T1400,1835A,111.1922,34.7752,三门峡市,市政府,,29,29,40,10,11,42,42,41,37,10,13,9,9,0.4,0.4
2025-11-17T1400,1836A,111.1587,34.7942,三门峡市,开发区,,32,32,38,7,10,44,44,44,40,10,14,10,10,0.3,0.3
2025-11-17T1400,1838A,111.143,34.7955,三门峡市,风景区,,41,41,45,6,13,46,46,45,41,12,13,10,9,0.3,0.3
2025-11-17T1400,3039A,111.1911,34.7829,三门峡市,三门峡市第一小学,,36,36,53,7,10,44,44,44,38,14,16,12,12,0.4,0.3
2025-11-17T1400,3598A,111.1,34.7167,三门峡市,富达温泉假日酒店,,28,28,48,9,13,46,46,44,39,12,14,9,10,0.5,0.5
2025-11-17T1400,2324A,117.6211,26.2625,三明市,三钢,,32,30,36,13,29,100,100,51,51,6,21,2,3,0.6,0.8
2025-11-17T1400,2325A,117.635,26.2714,三明市,三明二中,,43,43,35,17,26,96,96,48,48,4,16,8,8,0.6,0.7
2025-11-17T1400,2326A,117.6028,26.2378,三明市,三元区政府,,32,30,39,18,25,101,101,48,48,6,25,5,5,0.6,0.9
2025-11-17T1400,2327A,117.7275,26.3108,三明市,洋溪,,,,25,,26,,,64,,,10,,13,,1.3
2025-11-17T1400,1876A,109.5078,18.2489,三亚市,河东子站,,35,35,28,10,12,73,73,73,70,5,6,4,4,0.3,0.5
2025-11-17T1400,1877A,109.4964,18.2681,三亚市,河西子站,,28,28,31,10,11,79,79,75,74,4,4,6,6,0.4,0.4
2025-11-17T1400,3540A,109.7348,18.3443,三亚市,君悦子站,,30,30,39,10,12,75,75,71,70,3,4,4,5,0.5,0.5
2025-11-17T1400,2624A,91.7608,29.2313,山南市,山南监测站,,,6,16,3,6,90,90,54,51,5,9,,4,0.3,0.3
2025-11-17T1400,2625A,91.7706,29.2436,山南市,山南人民医院,,27,7,21,3,8,86,86,58,53,3,9,5,5,0.3,0.3
2025-11-17T1400,1674A,116.6794,23.3667,汕头市,金平子站,,35,30,40,13,21,112,112,76,76,8,21,4,8,0.8,0.9
2025-11-17T1400,1675A,116.7244,23.3633,汕头市,龙湖子站,,34,30,36,14,17,108,108,75,75,5,14,8,10,0.4,0.5
2025-11-17T1400,1676A,116.7258,23.2775,汕头市,濠江子站,,36,29,33,17,20,114,114,76,76,7,11,7,7,0.7,0.7
2025-11-17T1400,1677A,116.7519,23.4714,汕头市,澄海子站,,46,46,41,12,22,113,113,77,77,8,16,7,8,0.6,0.7
2025-11-17T1400,1678A,116.6092,23.2539,汕头市,潮阳子站,,,26,36,8,21,113,113,74,74,,14,6,7,0.6,0.7
2025-11-17T1400,3444A,116.454,23.2684,汕头市,潮南峡山,,37,22,42,11,23,117,117,85,85,5,12,8,9,0.6,0.7
2025-11-17T1400,3624A,116.4069,23.2533,汕头市,潮南子站,,36,28,52,12,24,113,113,82,82,8,15,6,7,0.4,0.5
2025-11-17T1400,1693A,115.3653,22.775,汕尾市,市环保局,颗粒物(PM10),53,56,39,19,21,113,113,91,91,7,10,6,6,0.6,0.6
2025-11-17T1400,1694A,115.3706,22.7898,汕尾市,市政府,,38,37,38,20,22,121,121,90,90,8,12,8,8,0.4,0.4
2025-11-17T1400,1695A,115.3622,22.7925,汕尾市,新城中学,颗粒物(PM10),51,52,40,21,21,121,121,92,92,6,10,9,8,0.6,0.6
2025-11-17T1400,2645A,109.9154,33.8715,商洛市,监测站,,20,11,29,3,14,61,61,61,56,6,13,2,2,0.5,0.5
2025-11-17T1400,3045A,109.9643,33.8471,商洛市,商州区中学,,26,26,26,6,14,57,57,58,54,9,16,4,4,0.4,0.5
2025-11-17T1400,2408A,115.6702,34.4285,商丘市,环境监测站,颗粒物(PM10),59,67,95,13,41,44,44,40,40,15,23,3,3,0.1,0.3
2025-11-17T1400,2409A,115.6458,34.4045,商丘市,粮食局,颗粒物(PM10),83,115,87,11,32,41,41,37,37,15,22,2,4,0.2,0.4
2025-11-17T1400,2410A,115.6293,34.3948,商丘市,睢阳区环保局,,41,41,93,11,38,45,45,40,40,14,22,4,5,0.3,0.4
2025-11-17T1400,3171A,115.6071,34.4465,商丘市,梁园区档案局,,35,35,86,8,41,43,43,33,,24,32,4,5,0.1,0.2
2025-11-17T1400,1141A,121.4,31.238,上海市,普陀,,30,30,40,9,18,57,57,72,62,15,28,6,5,0.4,0.4
2025-11-17T1400,1142A,121.478,31.2036,上海市,十五厂,,28,28,44,8,20,59,59,75,,11,30,7,8,0.5,0.5
2025-11-17T1400,1143A,121.467,31.3008,上海市,虹口,,27,27,41,13,18,56,56,69,60,12,32,9,9,0.5,0.6
2025-11-17T1400,1147A,121.425,31.2261,上海市,静安监测站,,27,27,38,8,19,57,57,76,65,16,27,6,5,0.4,0.4
2025-11-17T1400,1148A,121.703,31.1907,上海市,浦东川沙,,26,26,37,6,18,61,61,70,64,12,43,9,10,0.4,0.5
2025-11-17T1400,1149A,121.533,31.2284,上海市,浦东新区监测站,,25,25,39,13,18,58,58,64,58,9,32,6,7,0.4,0.4
2025-11-17T1400,1150A,121.577,31.2071,上海市,浦东张江,,24,24,39,13,16,67,67,79,69,13,30,6,6,0.2,0.3
2025-11-17T1400,3265A,121.4316,31.3322,上海市,宝山庙行,,28,28,42,12,18,49,49,70,58,20,40,5,4,0.9,0.5
2025-11-17T1400,3266A,121.8791,31.4662,上海市,崇明上实东滩,,21,18,23,3,12,65,65,73,68,8,16,4,4,0.3,0.3
2025-11-17T1400,3268A,121.3162,31.2838,上海市,嘉定南翔,,25,25,40,11,18,57,57,73,62,13,39,6,7,0.3,0.4
2025-11-17T1400,3269A,121.3359,30.7456,上海市,金山新城,,24,24,34,8,22,56,56,60,59,16,27,5,5,0.3,0.4
2025-11-17T1400,3270A,121.4996,31.0739,上海市,闵行浦江,,26,26,41,7,20,63,63,70,64,10,28,4,5,0.7,0.8
2025-11-17T1400,3271A,121.2886,31.1663,上海市,青浦徐泾,,23,23,42,8,21,61,61,70,63,11,36,8,9,0.3,0.4
