timepoint,stationcode,longitude,latitude,area,positionname,primarypollutant,aqi,pm10,pm10_24h,pm2_5,pm2_5_24h,o3,o3_24h,o3_8h,o3_8h_24h,no2,no2_24h,so2,so2_24h,co,co_24h
2026-03-25T2100,2568A,102.2503,31.8896,阿坝藏族羌族自治州,马师校,,29,29,20,6,7,73,73,90,89,5,5,5,5,0.4,0.3
2026-03-25T2100,3994A,102.2174,31.9016,阿坝藏族羌族自治州,马尔康中学西区,,28,28,17,3,6,85,85,91,91,5,6,2,3,0.3,0.2
2026-03-25T2100,2695A,80.2899,41.1684,阿克苏地区,电视台,颗粒物(PM10),139,220,133,45,38,105,105,116,116,11,13,2,3,0.3,0.8
2026-03-25T2100,2696A,80.2592,41.1541,阿克苏地区,艺术中心,颗粒物(PM10),140,223,138,28,35,108,108,121,121,11,15,3,4,0.2,0.3
2026-03-25T2100,2205A,105.699,38.8409,阿拉善盟,蒙二幼,颗粒物(PM10),65,70,66,23,21,111,111,115,114,9,5,9,7,0.5,0.5
2026-03-25T2100,2206A,105.7198,38.8508,阿拉善盟,环保局新楼,颗粒物(PM10),61,65,66,24,21,103,103,107,107,9,4,9,8,0.6,0.5
2026-03-25T2100,2708A,88.1266,47.8515,阿勒泰地区,市站,,23,23,11,8,2,57,57,79,73,22,6,6,5,0.4,0.3
2026-03-25T2100,4166A,88.1198,47.7931,阿勒泰地区,阿勒泰路33号,,24,18,10,7,3,74,74,78,78,6,6,5,5,0.1,0.2
2026-03-25T2100,2630A,80.1171,32.4999,阿里地区,阿里监测站,,36,8,10,3,4,114,114,117,101,1,5,9,9,0.2,0.2
2026-03-25T2100,3192A,80.0906,32.5029,阿里地区,阿里藏医院,NA,NA,8,9,3,3,124,124,128,127,1,3,4,5,NA,0.1
2026-03-25T2100,2644A,109.0088,32.6974,安康市,汉滨区检察院,,44,44,36,21,23,9,9,55,50,44,19,4,5,0.8,0.6
2026-03-25T2100,4054A,109.0324,32.6913,安康市,市邮政管理局,,43,43,38,24,27,2,2,51,41,48,20,4,10,1.0,0.7
2026-03-25T2100,2291A,117.0806,30.5181,安庆市,环科院,颗粒物(PM10),58,60,46,24,34,31,31,124,104,78,30,8,8,0.9,0.8
2026-03-25T2100,2292A,117.0331,30.5118,安庆市,马山宾馆,"二氧化氮(NO2),颗粒物(PM10)",59,62,47,32,41,12,12,114,99,118,28,6,6,0.9,0.9
2026-03-25T2100,2294A,116.9897,30.6146,安庆市,安庆大学,颗粒物(PM10),58,60,56,19,36,52,52,124,110,54,25,4,4,0.5,0.7
2026-03-25T2100,3173A,117.0598,30.5351,安庆市,市人大,颗粒物(PM10),64,69,49,25,31,24,24,122,109,93,30,6,7,0.7,0.8
2026-03-25T2100,3123A,105.9408,26.2431,安顺市,凤凰山,细颗粒物(PM2.5),56,55,39,38,26,64,64,69,69,9,12,9,12,0.6,0.7
2026-03-25T2100,3124A,105.9443,26.2567,安顺市,金钟山,细颗粒物(PM2.5),52,45,37,36,25,62,62,64,64,6,9,6,12,0.7,0.7
2026-03-25T2100,3125A,105.8983,26.248,安顺市,娄家坡,,50,NA,34,35,28,63,63,48,NA,7,11,10,14,0.9,0.8
2026-03-25T2100,1819A,114.3552,36.1017,安阳市,红庙街,细颗粒物(PM2.5),100,103,94,60,69,106,106,132,130,23,23,6,6,0.6,0.6
2026-03-25T2100,1820A,114.361,36.0681,安阳市,银杏小区,细颗粒物(PM2.5),103,100,99,63,74,106,106,133,132,22,24,5,6,0.3,0.3
2026-03-25T2100,3141A,114.3921,36.0879,安阳市,信访局,细颗粒物(PM2.5),96,110,100,58,72,120,120,138,138,21,24,3,5,0.5,0.4
2026-03-25T2100,3669A,114.4706,36.0634,安阳市,左辅环卫站,颗粒物(PM10),119,169,134,67,80,94,94,119,118,20,20,4,6,0.5,0.5
2026-03-25T2100,4117A,114.2918,36.0769,安阳市,钢三路198号,细颗粒物(PM2.5),92,106,115,56,68,96,96,120,119,22,23,5,5,0.4,0.7
2026-03-25T2100,1748A,123.0441,41.1201,鞍山市,深沟寺,细颗粒物(PM2.5),213,249,134,163,88,82,82,133,121,53,23,19,13,2.8,1.1
2026-03-25T2100,1749A,123.011,41.0931,鞍山市,太阳城,细颗粒物(PM2.5),229,264,133,179,93,78,78,134,122,55,22,24,12,2.9,1.1
2026-03-25T2100,1750A,123.0483,41.1445,鞍山市,太平,细颗粒物(PM2.5),204,239,134,154,84,91,91,129,113,45,23,23,15,2.4,1.2
2026-03-25T2100,1751A,122.964,41.0968,鞍山市,铁西三道街,细颗粒物(PM2.5),250,285,143,200,96,76,76,135,122,66,28,26,13,3.3,1.2
2026-03-25T2100,1753A,123.0219,41.0822,鞍山市,明达新区,细颗粒物(PM2.5),232,271,131,182,91,63,63,132,117,61,22,27,14,2.9,1
2026-03-25T2100,4201A,122.944647,41.082639,鞍山市,兴盛南路290号,细颗粒物(PM2.5),262,321,157,212,98,69,69,131,116,64,27,23,14,3.8,1.3
2026-03-25T2100,2195A,107.4206,40.7609,巴彦淖尔市,附二中,颗粒物(PM10),63,68,62,31,25,72,72,119,114,37,11,9,8,0.5,0.3
2026-03-25T2100,2196A,107.37,40.7372,巴彦淖尔市,市环保大楼,颗粒物(PM10),73,82,67,33,26,71,71,123,114,32,14,7,6,0.6,0.4
2026-03-25T2100,1956A,86.1476,41.7529,巴音郭楞蒙古自治州,孔雀公园,颗粒物(PM10),106,134,109,36,19,77,77,97,95,11,7,9,9,0.3,0.2
2026-03-25T2100,1957A,86.1971,41.7166,巴音郭楞蒙古自治州,棉纺厂,颗粒物(PM10),228,369,148,39,24,88,88,102,100,6,6,/,/,/,/
2026-03-25T2100,1958A,86.236,41.7172,巴音郭楞蒙古自治州,经济开发区,颗粒物(PM10),104,128,135,35,23,85,85,94,91,3,4,6,7,0.3,0.3
2026-03-25T2100,3181A,106.776805,31.852614,巴中市,市五中,,45,36,20,31,12,33,33,44,43,29,17,8,8,0.8,0.8
2026-03-25T2100,3183A,106.7419,31.8654,巴中市,圣泉水务公司,,43,43,24,30,12,19,19,44,42,31,20,9,9,0.8,0.8
2026-03-25T2100,3616A,106.7617,31.8343,巴中市,市中心医院,,34,34,20,10,7,37,37,49,49,22,15,10,10,0.7,0.7
2026-03-25T2100,2235A,122.7909,45.608,白城市,洮北区环保局,细颗粒物(PM2.5),130,148,120,93,70,83,83,104,88,30,22,7,11,1.0,0.6
2026-03-25T2100,2236A,122.8741,45.5725,白城市,市环保局,细颗粒物(PM2.5),131,136,127,94,65,23,23,104,78,64,20,6,6,0.8,0.4
2026-03-25T2100,2231A,126.4219,41.9172,白山市,喜丰,细颗粒物(PM2.5),102,95,88,62,48,65,65,124,116,43,27,12,11,0.9,1
2026-03-25T2100,2232A,126.4082,41.9416,白山市,环保局,细颗粒物(PM2.5),107,95,66,67,43,56,56,123,114,24,17,10,10,1.1,0.9
2026-03-25T2100,2647A,104.1727,36.5448,白银市,第三小学,颗粒物(PM10),56,58,98,24,40,92,92,103,103,16,35,5,66,0.3,0.7
2026-03-25T2100,2648A,104.1467,36.5482,白银市,动力公司,,47,47,103,25,39,100,100,103,103,10,34,4,15,0.5,0.6
2026-03-25T2100,2512A,106.6102,23.901,百色市,市监测站,,50,48,48,35,35,90,90,95,95,12,13,17,20,0.6,0.7
2026-03-25T2100,2513A,106.6524,23.8842,百色市,市中心血站,,42,42,51,26,36,96,96,97,97,12,12,9,17,0.6,0.7
2026-03-25T2100,4133A,106.6273,23.8798,百色市,龙景西路,颗粒物(PM10),58,61,63,32,39,93,93,100,100,14,14,17,23,0.6,0.6
2026-03-25T2100,2270A,117.396,32.9389,蚌埠市,工人疗养院,细颗粒物(PM2.5),88,81,96,54,63,124,124,141,139,19,24,5,5,0.4,0.5
2026-03-25T2100,2271A,117.3606,32.9428,蚌埠市,百货大楼,细颗粒物(PM2.5),76,72,87,48,62,119,119,147,144,20,23,6,6,0.6,0.5
2026-03-25T2100,2273A,117.4183,32.8909,蚌埠市,蚌埠学院,细颗粒物(PM2.5),88,70,77,54,61,106,106,140,134,26,24,5,5,0.5,0.7
2026-03-25T2100,2274A,117.3534,32.9672,蚌埠市,淮上区政府,细颗粒物(PM2.5),96,88,90,58,67,99,99,148,141,40,29,6,6,0.6,0.5
2026-03-25T2100,2275A,117.3143,32.8977,蚌埠市,高新区,细颗粒物(PM2.5),96,70,78,58,58,102,102,138,133,27,25,8,7,0.6,0.6
2026-03-25T2100,3715A,117.3091,32.9314,蚌埠市,蚌埠田家炳中学,细颗粒物(PM2.5),94,88,102,57,68,109,109,148,142,26,26,8,10,0.5,0.4
2026-03-25T2100,1585A,109.8761,40.6533,包头市,市环境监测站,,36,36,88,24,38,101,101,142,132,28,45,4,11,0.4,0.7
2026-03-25T2100,1587A,109.9992,40.5843,包头市,包头八中,颗粒物(PM10),58,61,90,27,41,43,43,135,118,72,48,9,17,0.5,0.8
2026-03-25T2100,1589A,109.8641,40.6288,包头市,惠龙物流,,35,NA,87,21,47,109,109,147,130,17,42,4,14,0.3,0.9
2026-03-25T2100,1590A,110.0376,40.5546,包头市,东河鸿龙湾,,42,33,78,29,37,81,81,135,126,50,52,8,12,0.4,0.6
2026-03-25T2100,3283A,109.9154,40.5684,包头市,滨河大厦,,33,27,78,18,39,104,104,135,128,22,38,6,13,0.3,0.5
2026-03-25T2100,3419A,109.9449,40.6259,包头市,包头市委党校,,32,32,67,12,28,61,61,150,128,64,42,6,12,0.4,0.5
2026-03-25T2100,3683A,109.8332,40.6577,包头市,昆区政府,,36,36,71,12,30,108,108,137,131,27,42,2,9,0.4,0.9
2026-03-25T2100,1931A,107.0802,34.3129,宝鸡市,竹园沟,细颗粒物(PM2.5),92,95,75,56,39,46,46,90,81,29,21,7,7,0.6,0.5
2026-03-25T2100,1933A,107.1429,34.3549,宝鸡市,监测站,细颗粒物(PM2.5),108,129,94,68,48,39,39,87,81,43,31,6,7,0.5,0.4
2026-03-25T2100,1934A,107.1172,34.3759,宝鸡市,技工学校,颗粒物(PM10),95,112,100,56,51,49,49,91,84,36,22,5,6,0.7,0.6
2026-03-25T2100,1936A,107.2025,34.3518,宝鸡市,文理学院,颗粒物(PM10),100,119,99,59,53,22,22,89,81,54,26,4,6,0.8,0.6
2026-03-25T2100,1937A,107.2396,34.3626,宝鸡市,三迪小学,细颗粒物(PM2.5),111,117,103,72,54,NA,NA,92,92,61,32,5,6,0.9,0.7
2026-03-25T2100,4155A,107.1721,34.3558,宝鸡市,滨河北路,细颗粒物(PM2.5),130,156,118,93,68,46,46,86,82,38,26,6,7,0.9,0.8
2026-03-25T2100,4308A,107.3898,34.3601,宝鸡市,陈仓区北开路21号,"颗粒物(PM10),细颗粒物(PM2.5)",119,167,111,80,60,15,15,97,90,88,37,9,27,0.8,0.7
2026-03-25T2100,1051A,115.4803,38.8568,保定市,游泳馆,细颗粒物(PM2.5),141,162,148,105,110,110,110,154,152,32,26,10,8,0.7,0.7
2026-03-25T2100,1052A,115.509,38.8895,保定市,华电二区,细颗粒物(PM2.5),122,137,129,84,99,120,120,162,161,21,20,6,5,0.9,0.9
2026-03-25T2100,1053A,115.4588,38.9037,保定市,接待中心,细颗粒物(PM2.5),138,162,142,101,105,113,113,162,159,34,27,8,6,0.7,0.6
2026-03-25T2100,1054A,115.4484,38.8344,保定市,地表水厂,细颗粒物(PM2.5),119,165,160,80,93,118,118,166,161,30,27,11,9,0.6,0.6
2026-03-25T2100,3581A,115.3136,38.9511,保定市,满城区生态环境分局,"颗粒物(PM10),细颗粒物(PM2.5)",127,188,182,89,104,100,100,174,159,32,30,7,10,0.8,0.6
2026-03-25T2100,3582A,115.4709,38.7628,保定市,清苑区第二中学,细颗粒物(PM2.5),126,180,163,88,100,95,95,154,149,29,22,11,11,0.5,0.6
2026-03-25T2100,3583A,115.6231,39.0223,保定市,徐水物探局,细颗粒物(PM2.5),140,209,186,104,115,110,110,170,164,38,27,6,5,0.6,0.6
2026-03-25T2100,4004A,115.4199,38.8665,保定市,双鹰农机,细颗粒物(PM2.5),143,213,184,107,112,NA,NA,170,170,38,30,8,7,0.5,0.6
2026-03-25T2100,4034A,115.515,38.8589,保定市,植保所站,细颗粒物(PM2.5),132,164,160,95,103,109,109,158,156,32,27,5,3,0.4,0.4
2026-03-25T2100,2594A,99.1589,25.1137,保山市,市环境监测站,,40,32,29,28,23,93,93,117,111,7,8,5,5,0.3,0.3
2026-03-25T2100,2595A,99.1616,25.1381,保山市,市环保局,细颗粒物(PM2.5),82,53,34,51,26,95,95,119,115,3,6,5,5,0.2,0.3
2026-03-25T2100,1867A,109.1435,21.4085,北海市,海滩公园,细颗粒物(PM2.5),64,NA,26,42,14,57,57,78,73,21,9,7,7,0.4,0.5
2026-03-25T2100,1868A,109.0983,21.466,北海市,新市环保局,,20,20,24,8,12,60,60,68,67,13,8,9,9,0.5,0.6
2026-03-25T2100,1869A,109.1775,21.5232,北海市,北海工业园,,28,28,36,16,16,51,51,74,72,15,8,6,7,0.7,0.7
2026-03-25T2100,3400A,109.1844,21.4396,北海市,龙潭自来水厂,,23,23,22,10,12,51,51,73,72,13,6,4,5,0.9,0.6
2026-03-25T2100,1001A,116.3611,39.8786,北京市,万寿西宫,细颗粒物(PM2.5),131,166,201,94,140,113,113,178,170,52,42,4,5,1.1,1
2026-03-25T2100,1003A,116.4174,39.9289,北京市,东四,细颗粒物(PM2.5),146,179,215,110,147,124,124,187,180,50,47,8,8,0.9,0.8
2026-03-25T2100,1004A,116.4073,39.8858,北京市,天坛,细颗粒物(PM2.5),132,149,190,95,134,77,77,160,148,40,37,4,5,1.0,1.2
2026-03-25T2100,1005A,116.4622,39.9364,北京市,农展馆,细颗粒物(PM2.5),141,165,205,105,144,84,84,174,160,56,49,5,6,1.0,1
2026-03-25T2100,1006A,116.3399,39.9293,北京市,官园,细颗粒物(PM2.5),141,168,201,105,146,119,119,166,162,48,49,4,4,0.9,0.8
2026-03-25T2100,1007A,116.2879,39.9613,北京市,海淀万柳,细颗粒物(PM2.5),150,183,192,115,136,69,69,147,138,54,44,4,5,1.0,0.7
2026-03-25T2100,1008A,116.6635,40.1349,北京市,顺义新城,细颗粒物(PM2.5),143,175,183,107,127,127,127,166,161,31,29,5,5,0.6,0.6
2026-03-25T2100,1009A,116.6275,40.327,北京市,怀柔镇,细颗粒物(PM2.5),123,138,155,85,112,105,105,143,131,27,23,6,5,0.8,0.8
2026-03-25T2100,1010A,116.2295,40.217,北京市,昌平镇,细颗粒物(PM2.5),138,155,178,101,127,140,140,170,168,26,41,4,4,0.8,0.9
2026-03-25T2100,1011A,116.3968,39.982,北京市,奥体中心,颗粒物(PM10),144,234,209,94,128,95,95,152,140,57,53,5,5,0.8,0.8
2026-03-25T2100,3418A,116.8336,40.4095,北京市,密云新城,细颗粒物(PM2.5),112,143,161,73,107,67,67,138,127,62,25,3,3,0.7,0.7
2026-03-25T2100,3671A,116.0879,39.9725,北京市,门头沟三家店,细颗粒物(PM2.5),189,230,201,142,134,89,89,172,163,54,40,5,5,0.8,0.8
2026-03-25T2100,3672A,116.1507,39.8246,北京市,丰台云岗,细颗粒物(PM2.5),156,207,204,119,137,161,161,184,182,32,37,7,6,0.8,0.9
2026-03-25T2100,3674A,115.9578,39.7602,北京市,房山燕山,细颗粒物(PM2.5),130,151,179,93,123,136,136,176,172,20,24,5,5,0.6,0.8
2026-03-25T2100,3675A,116.4669,39.7734,北京市,大兴旧宫,细颗粒物(PM2.5),136,168,199,99,129,134,134,159,158,28,39,5,5,0.7,0.8
2026-03-25T2100,3694A,115.9859,40.4562,北京市,延庆石河营,细颗粒物(PM2.5),136,173,155,99,107,158,158,156,156,26,28,1,2,0.6,0.7
2026-03-25T2100,3695A,116.6151,40.3052,北京市,怀柔新城,细颗粒物(PM2.5),127,139,155,89,118,109,109,137,130,18,17,4,4,0.7,0.7
2026-03-25T2100,3696A,116.2542,39.8764,北京市,丰台小屯,细颗粒物(PM2.5),140,167,214,103,141,102,102,165,157,50,55,3,5,0.7,0.7
2026-03-25T2100,3697A,116.8399,40.3843,北京市,密云镇,细颗粒物(PM2.5),114,144,159,75,111,53,53,138,125,75,38,6,5,0.7,0.7
2026-03-25T2100,4057A,115.9423,40.4431,北京市,延庆百泉,细颗粒物(PM2.5),135,156,145,98,98,154,154,142,142,24,32,2,2,0.7,0.7
2026-03-25T2100,4058A,116.6598,39.9164,北京市,通州新华,细颗粒物(PM2.5),135,176,219,98,140,82,82,147,139,76,61,5,6,0.6,0.7
2026-03-25T2100,4182A,116.1942,39.9158,北京市,石景山八角,细颗粒物(PM2.5),150,NA,219,115,131,74,74,171,159,80,45,5,4,0.9,0.8
2026-03-25T2100,4194A,117.078628,40.151726,北京市,平谷新城,细颗粒物(PM2.5),135,166,188,98,130,88,88,153,141,41,26,3,3,0.9,0.9
2026-03-25T2100,1761A,123.8274146,41.31234549,本溪市,大峪,细颗粒物(PM2.5),116,122,104,77,62,69,69,146,127,32,19,11,12,0.9,0.9
2026-03-25T2100,1763A,123.7169,41.3094,本溪市,彩屯,细颗粒物(PM2.5),116,107,107,77,75,64,64,153,128,30,30,10,18,1.1,2.3
2026-03-25T2100,1764A,123.7672166,41.28649327,本溪市,东明,细颗粒物(PM2.5),139,145,96,102,63,64,64,152,129,54,20,9,11,1.1,0.8
2026-03-25T2100,1765A,123.799345,41.266614,本溪市,新立屯,细颗粒物(PM2.5),130,107,90,92,62,51,51,151,116,74,20,9,9,0.9,0.7
2026-03-25T2100,1766A,123.829144,41.336777,本溪市,威宁,颗粒物(PM10),101,121,113,60,57,37,37,156,125,55,21,7,9,0.8,0.7
2026-03-25T2100,2587A,105.287,27.3133,毕节市,八中,,23,NA,32,16,17,36,36,50,47,6,8,9,10,0.6,0.6
2026-03-25T2100,2588A,105.3079,27.2987,毕节市,师专,,20,17,31,14,17,37,37,46,43,8,9,8,9,0.6,0.6
2026-03-25T2100,4263A,105.3688,27.3598,毕节市,工业大道,,13,9,22,7,10,41,41,48,45,7,9,10,10,/,/
2026-03-25T2100,1629A,117.9961,37.3604,滨州市,第二水厂,细颗粒物(PM2.5),120,144,114,81,68,117,117,158,154,27,34,14,14,0.8,0.8
2026-03-25T2100,1630A,117.9789,37.3931,滨州市,北中新校,细颗粒物(PM2.5),124,141,103,86,67,104,104,157,152,41,34,14,12,0.6,0.4
2026-03-25T2100,3514A,117.9379,37.3959,滨州市,中海酒店,细颗粒物(PM2.5),123,136,107,85,65,86,86,153,141,51,35,14,14,0.9,0.7
2026-03-25T2100,3515A,117.9381509,37.35547456,滨州市,开发区一中,细颗粒物(PM2.5),127,153,119,89,71,87,87,141,135,43,40,17,14,0.8,0.7
2026-03-25T2100,3516A,118.0914,37.6938,滨州市,金海六路,细颗粒物(PM2.5),135,151,114,98,73,122,122,149,146,33,41,10,12,0.7,0.6
2026-03-25T2100,4028A,117.9955,37.3752,滨州市,滨州市西街道办事处,NA,NA,NA,118,NA,69,89,89,154,143,34,31,13,13,0.8,1
2026-03-25T2100,2311A,115.8071,33.8399,亳州市,污水处理厂,NA,NA,79,99,35,59,NA,NA,129,125,17,16,5,8,0.2,0.2
2026-03-25T2100,2312A,115.7789,33.8519,亳州市,三国揽胜宫,颗粒物(PM10),68,74,95,34,59,92,92,124,118,14,12,6,8,0.1,0.2
2026-03-25T2100,3332A,115.7631,33.803,亳州市,亳州学院,颗粒物(PM10),69,76,95,34,61,90,90,124,118,13,11,6,11,0.2,0.3
2026-03-25T2100,2693A,82.0482,44.8553,博尔塔拉蒙古自治州,市党校,颗粒物(PM10),112,150,256,10,17,89,89,89,89,5,4,2,2,0,0.1
2026-03-25T2100,2694A,82.0805,44.8966,博尔塔拉蒙古自治州,市环保局,颗粒物(PM10),114,155,236,19,21,80,80,80,80,13,14,3,3,0.4,0.4
2026-03-25T2100,1071A,116.8733,38.2922,沧州市,沧县城建局,细颗粒物(PM2.5),176,170,134,133,93,104,104,157,151,37,26,7,7,0.6,0.5
2026-03-25T2100,1072A,116.8462,38.3189,沧州市,电视转播站,细颗粒物(PM2.5),165,169,133,125,103,109,109,160,155,31,23,6,5,0.6,0.6
2026-03-25T2100,1073A,116.8588,38.3161,沧州市,市环保局,细颗粒物(PM2.5),159,171,143,121,98,113,113,164,160,30,22,10,10,0.6,0.6
2026-03-25T2100,3324A,116.8011,38.294,沧州市,河北水利电力学院,细颗粒物(PM2.5),170,178,148,129,104,99,99,143,138,33,27,14,12,0.6,0.6
2026-03-25T2100,2622A,97.1813,31.1289,昌都市,昌都监测站,,40,16,17,7,6,126,126,128,128,6,12,5,4,0.7,0.7
2026-03-25T2100,3719A,97.1707,31.1428,昌都市,昌都会议中心,,41,11,12,9,6,131,131,139,139,4,6,4,5,0.4,0.4
2026-03-25T2100,2692A,87.2722,44.0298,昌吉回族自治州,新区政务中心,,26,NA,18,11,12,82,82,84,84,12,9,6,5,0.3,0.3
2026-03-25T2100,3613A,87.3069,44.0093,昌吉回族自治州,亚心广场,NA,NA,12,20,3,8,NA,NA,91,89,10,8,9,9,0.3,0.3
2026-03-25T2100,4164A,87.2057,43.9289,昌吉回族自治州,财政所,,27,27,33,14,8,77,77,86,84,14,5,7,7,0.3,0.2
2026-03-25T2100,1120A,125.2874,43.9024,长春市,客车厂,细颗粒物(PM2.5),236,231,124,186,97,24,24,138,100,108,33,15,12,1.7,0.9
2026-03-25T2100,1121A,125.2943,43.8508,长春市,邮电学院,细颗粒物(PM2.5),265,290,143,215,104,32,32,145,115,97,25,10,11,1.6,0.9
2026-03-25T2100,1122A,125.3648,43.8745,长春市,劳动公园,细颗粒物(PM2.5),223,225,130,173,96,35,35,144,113,70,22,10,10,1.5,0.8
2026-03-25T2100,1123A,125.3233,43.8781,长春市,园林处,细颗粒物(PM2.5),217,225,133,167,100,34,34,147,112,74,22,14,10,1.6,0.8
2026-03-25T2100,1124A,125.4604,43.7904,长春市,净月潭,细颗粒物(PM2.5),208,208,126,158,95,92,92,146,130,34,19,8,8,1.1,0.8
2026-03-25T2100,1126A,125.38,43.8422,长春市,经开区环卫处,细颗粒物(PM2.5),220,240,132,170,99,27,27,149,116,78,23,8,8,1.4,0.9
2026-03-25T2100,1127A,125.234,43.7761,长春市,高新区管委会,细颗粒物(PM2.5),239,248,131,189,96,29,29,144,109,92,31,10,10,1.3,0.8
2026-03-25T2100,1128A,125.1695,43.83,长春市,岱山公园,细颗粒物(PM2.5),244,246,132,194,100,60,60,138,100,68,40,12,8,1.3,0.8
2026-03-25T2100,4281A,125.334645,43.916281,长春市,北亚泰大街1068号,细颗粒物(PM2.5),243,285,132,193,99,6,6,129,87,114,35,15,12,1.6,0.7
2026-03-25T2100,1335A,113.082,28.2421,长沙市,经开区环保局,颗粒物(PM10),55,56,71,36,43,48,48,72,65,18,28,3,4,0.6,0.6
2026-03-25T2100,1336A,112.8873,28.2202,长沙市,高开区环保局,细颗粒物(PM2.5),111,107,93,72,66,43,43,63,55,26,30,5,5,0.9,0.9
2026-03-25T2100,1337A,113.0785,28.2012,长沙市,马坡岭,细颗粒物(PM2.5),72,57,78,46,55,50,50,75,66,21,30,4,4,0.8,0.8
2026-03-25T2100,1338A,112.9448,28.1894,长沙市,湖南师范大学,细颗粒物(PM2.5),98,103,89,59,62,42,42,70,60,27,24,4,4,1.1,1
2026-03-25T2100,1339A,113.0177,28.1322,长沙市,雨花区环保局,细颗粒物(PM2.5),74,65,83,47,55,44,44,80,67,25,28,3,4,0.8,0.8
2026-03-25T2100,1340A,112.9795,28.2593,长沙市,伍家岭,细颗粒物(PM2.5),116,114,90,77,71,30,30,63,52,33,32,4,4,0.6,0.6
2026-03-25T2100,1341A,113.002,28.1944,长沙市,火车新站,细颗粒物(PM2.5),112,87,90,73,73,36,36,75,61,33,32,4,4,0.8,0.8
2026-03-25T2100,1342A,112.9846,28.1177,长沙市,天心区环保局,细颗粒物(PM2.5),117,96,90,78,81,45,45,68,64,32,35,6,6,1.0,0.9
2026-03-25T2100,1343A,112.8906,28.1307,长沙市,湖南中医药大学,细颗粒物(PM2.5),118,100,71,79,57,43,43,81,71,28,27,5,5,0.8,0.8
2026-03-25T2100,1727A,113.1146,36.1547,长治市,清华站,颗粒物(PM10),61,65,77,26,50,120,120,131,131,13,19,5,5,0.5,0.7
2026-03-25T2100,1730A,113.0887,36.2126,长治市,审计局,颗粒物(PM10),63,67,75,33,53,120,120,132,131,16,25,9,10,0.4,0.7
2026-03-25T2100,1731A,113.0845,36.1856,长治市,长治八中,颗粒物(PM10),77,87,95,33,56,117,117,125,125,15,22,11,11,0.5,0.8
2026-03-25T2100,2845A,113.1561,36.1912,长治市,德盛苑,颗粒物(PM10),74,83,71,35,47,122,122,139,138,17,15,11,10,0.5,0.7
2026-03-25T2100,3568A,113.0603,36.0464,长治市,向阳小学,NA,NA,NA,108,33,50,127,127,144,142,17,20,9,13,0.5,0.7
2026-03-25T2100,3569A,112.8788,36.315,长治市,屯留一中,颗粒物(PM10),83,96,81,49,52,98,98,134,130,26,26,12,8,0.7,0.8
2026-03-25T2100,4189A,113.113092,36.199482,长治市,英华南巷50号,颗粒物(PM10),70,77,81,27,51,126,126,136,136,18,23,8,9,0.7,1
2026-03-25T2100,4190A,113.23666,36.33435,长治市,学府街1号,颗粒物(PM10),71,79,86,28,50,130,130,139,139,10,24,4,9,0.5,1
2026-03-25T2100,1854A,111.696,28.9725,常德市,市二中,细颗粒物(PM2.5),78,58,65,49,36,89,89,86,86,10,15,6,10,0.9,0.9
2026-03-25T2100,3138A,111.7152,29.0288,常德市,武陵区永安,细颗粒物(PM2.5),80,NA,58,50,47,98,98,97,97,12,21,5,6,0.8,0.8
2026-03-25T2100,3139A,111.6891,28.9881,常德市,鼎城区玉霞,细颗粒物(PM2.5),80,53,50,50,38,92,92,90,90,15,22,7,11,1.0,0.9
2026-03-25T2100,3140A,111.6651,29.0526,常德市,武陵区长庚,细颗粒物(PM2.5),92,NA,55,56,45,103,103,85,85,11,25,6,7,1.0,1
2026-03-25T2100,1196A,119.9524,31.7586,常州市,市监测站,细颗粒物(PM2.5),115,131,88,76,59,35,35,136,120,81,31,9,10,1.4,0.8
2026-03-25T2100,1200A,119.9351,31.703,常州市,武进监测站,细颗粒物(PM2.5),102,92,83,62,54,67,67,128,121,42,23,7,6,1.1,0.8
2026-03-25T2100,3002A,119.9701,31.813,常州市,行政中心,细颗粒物(PM2.5),115,115,85,76,61,83,83,140,134,44,28,5,6,0.8,0.5
2026-03-25T2100,3003A,120.0434,31.7726,常州市,经开区,细颗粒物(PM2.5),114,113,91,75,53,82,82,149,142,46,23,8,9,1.0,0.8
2026-03-25T2100,3010A,119.8919,31.7892,常州市,钟楼,细颗粒物(PM2.5),109,98,82,69,55,58,58,142,132,64,33,6,7,0.8,0.6
2026-03-25T2100,3429A,119.8595,31.706,常州市,武进经发区,细颗粒物(PM2.5),104,77,66,64,54,89,89,136,133,46,28,8,8,1.2,1
2026-03-25T2100,3430A,119.5812,31.7256,常州市,金坛城区,NA,NA,NA,64,NA,61,NA,NA,129,129,23,18,8,8,0.9,0.9
2026-03-25T2100,4089A,119.9551,31.863,常州市,崇义南街5-H号,NA,NA,NA,78,NA,56,20,20,146,124,NA,33,6,7,1.2,0.7
2026-03-25T2100,2220A,120.4318,41.588,朝阳市,西梁,颗粒物(PM10),69,76,105,39,84,44,44,101,90,40,21,12,11,0.8,0.7
2026-03-25T2100,2221A,120.452,41.565,朝阳市,河畔小区,,40,40,83,15,73,84,84,119,101,17,18,8,10,0.5,0.8
2026-03-25T2100,2222A,120.4176,41.5648,朝阳市,八里堡,细颗粒物(PM2.5),56,56,90,38,83,55,55,106,94,36,22,12,10,0.6,0.8
2026-03-25T2100,3026A,116.6179,23.6608,潮州市,市政府,细颗粒物(PM2.5),80,NA,61,50,39,126,126,129,128,14,16,4,5,0.6,0.7
2026-03-25T2100,4036A,116.646,23.676,潮州市,金山,细颗粒物(PM2.5),76,NA,48,48,36,124,124,133,132,18,18,5,3,0.5,0.5
2026-03-25T2100,2473A,113.0116,25.8228,郴州市,市职中,,42,42,40,26,35,54,54,83,79,14,13,12,6,0.8,0.7
2026-03-25T2100,2475A,113.0381,25.8074,郴州市,市审计局,颗粒物(PM10),51,51,39,25,33,70,70,78,78,10,10,39,6,/,/
2026-03-25T2100,2476A,113.0348,25.7757,郴州市,市环保局,颗粒物(PM10),65,70,46,31,32,52,52,77,74,21,13,18,9,0.5,0.4
2026-03-25T2100,4252A,113.0138,25.8011,郴州市,好美居路49号,细颗粒物(PM2.5),64,NA,37,42,36,72,72,88,87,14,13,46,7,/,/
2026-03-25T2100,1431A,103.9727,30.7242,成都市,金泉两河,,48,48,56,19,34,48,48,70,64,32,26,1,1,0.5,0.4
2026-03-25T2100,1432A,104.1423,30.6765,成都市,十里店,颗粒物(PM10),56,58,62,24,35,47,47,73,68,38,29,4,4,0.4,0.4
2026-03-25T2100,1433A,104.0594,30.5765,成都市,三瓦窑,颗粒物(PM10),55,56,56,27,34,47,47,70,67,32,28,2,2,1.0,0.8
2026-03-25T2100,1434A,104.1122,30.6306,成都市,沙河铺,,45,45,64,27,36,38,38,63,58,44,36,5,5,0.6,0.5
2026-03-25T2100,2880A,104.0219,30.6561,成都市,大石西路,颗粒物(PM10),54,55,60,25,36,36,36,60,55,39,28,6,7,0.7,0.6
2026-03-25T2100,3136A,104.2724,30.559,成都市,龙泉驿区区政府,,48,44,43,33,30,53,53,83,77,19,15,6,6,0.6,0.5
2026-03-25T2100,3357A,104.0028,30.6891,成都市,金博路,,42,42,48,22,37,31,31,67,60,47,34,5,5,0.7,0.7
2026-03-25T2100,3359A,104.056,30.5228,成都市,华阳,,41,41,53,26,35,59,59,79,77,30,28,3,3,0.7,0.6
2026-03-25T2100,3488A,104.387954,30.746684,成都市,青石路225号,细颗粒物(PM2.5),82,84,49,51,33,22,22,81,67,42,21,4,5,0.9,0.7
2026-03-25T2100,3489A,104.0788,30.4054,成都市,科学城,,29,29,55,20,31,68,68,79,79,20,23,7,8,0.8,0.8
2026-03-25T2100,4011A,103.8505,30.6946,成都市,光华大道三段,颗粒物(PM10),53,53,54,33,34,59,59,68,64,30,28,3,3,0.5,0.6
2026-03-25T2100,4144A,104.3257,30.6406,成都市,八角井街185号,颗粒物(PM10),63,67,52,37,33,23,23,71,62,34,19,4,4,0.7,0.6
2026-03-25T2100,4224A,104.2433276,30.53529463,成都市,鲸龙路1057号,"颗粒物(PM10),细颗粒物(PM2.5)",58,61,60,39,33,36,36,83,70,44,25,6,6,0.7,0.5
2026-03-25T2100,1062A,117.9531,40.908,承德市,铁路,颗粒物(PM10),65,70,137,28,80,58,58,119,88,22,30,5,5,0.5,0.6
2026-03-25T2100,1063A,117.9397,40.9763,承德市,中国银行,颗粒物(PM10),60,63,114,32,68,46,46,117,86,27,25,3,3,0.5,0.6
2026-03-25T2100,4073A,117.9462,40.95,承德市,杏林街1号,颗粒物(PM10),60,63,121,31,78,50,50,132,106,40,23,5,5,0.5,0.6
2026-03-25T2100,4274A,117.7994,40.9605,承德市,滨河大街98号,颗粒物(PM10),65,70,101,25,80,46,46,120,95,30,27,6,9,0.3,0.7
2026-03-25T2100,2314A,117.4698,30.6617,池州市,池州学院,颗粒物(PM10),55,57,40,37,27,79,79,136,127,56,29,5,4,0.7,0.9
2026-03-25T2100,3237A,117.4918,30.6617,池州市,展览馆,,30,27,38,17,27,35,35,132,114,59,28,2,3,0.6,1
2026-03-25T2100,3333A,117.5626,30.695,池州市,第八中学,细颗粒物(PM2.5),62,63,42,41,28,72,72,132,118,52,31,5,4,0.7,0.8
2026-03-25T2100,3334A,117.5037,30.6242,池州市,第十二中学,颗粒物(PM10),52,52,42,25,26,48,48,130,114,73,38,3,3,0.4,0.8
2026-03-25T2100,1744A,118.9229,42.2816,赤峰市,松山一中,细颗粒物(PM2.5),80,51,60,50,55,32,32,93,77,51,17,10,6,0.8,0.5
2026-03-25T2100,1745A,118.9588,42.2733,赤峰市,哈达街,颗粒物(PM10),57,59,68,38,40,46,46,86,68,39,23,47,18,0.7,0.6
2026-03-25T2100,1746A,118.8792,42.2551,赤峰市,天义路,NA,NA,44,55,29,37,40,40,109,89,NA,15,13,7,0.6,0.4
2026-03-25T2100,3058A,119.2656,42.0356,赤峰市,银河街,NA,NA,56,85,29,56,58,58,102,92,NA,16,10,11,0.6,0.6
2026-03-25T2100,3286A,118.9359,42.3146,赤峰市,桥北物流园区,细颗粒物(PM2.5),74,58,58,47,36,33,33,98,81,63,19,3,4,0.4,0.4
2026-03-25T2100,2521A,107.3473,22.4137,崇左市,市环保局江州分局,颗粒物(PM10),58,61,54,37,30,76,76,106,103,7,10,6,8,0.6,0.6
2026-03-25T2100,4256A,107.375,22.3736,崇左市,石景林东路7号,细颗粒物(PM2.5),62,59,42,41,29,94,94,114,114,16,10,5,5,0.6,0.6
2026-03-25T2100,3207A,118.31131,32.3033,滁州市,市政府原办公楼,"颗粒物(PM10),细颗粒物(PM2.5)",70,78,68,45,55,68,68,134,122,48,26,4,5,0.6,0.5
2026-03-25T2100,3331A,118.3268,32.2633,滁州市,图书馆,细颗粒物(PM2.5),70,65,77,45,45,94,94,128,126,28,25,9,9,0.5,0.6
2026-03-25T2100,4101A,118.3196,32.3335,滁州市,银山路666号,颗粒物(PM10),79,90,59,34,45,56,56,134,122,50,24,10,10,0.7,0.6
2026-03-25T2100,4102A,118.3426,32.2979,滁州市,黄山路555号,颗粒物(PM10),90,106,86,49,53,78,78,142,132,51,33,7,6,0.8,0.8
2026-03-25T2100,2606A,101.5379,25.0492,楚雄彝族自治州,市经济开发区,,42,35,38,29,29,100,100,110,108,14,18,4,4,0.6,0.6
2026-03-25T2100,4153A,101.5536,25.0343,楚雄彝族自治州,团结路562号,NA,NA,53,33,26,24,NA,NA,117,117,7,12,2,2,0.4,0.4
2026-03-25T2100,2549A,107.5087,31.2186,达州市,市环境监测站,,45,45,31,13,9,2,2,17,12,43,29,8,6,0.4,0.4
2026-03-25T2100,2550A,107.4988,31.2132,达州市,凤凰小区,颗粒物(PM10),51,51,28,16,10,2,2,20,14,45,30,9,5,0.6,0.5
2026-03-25T2100,2551A,107.5081,31.1987,达州市,达县机关宾馆,,48,48,29,23,13,2,2,21,15,44,32,10,5,0.7,0.6
2026-03-25T2100,2552A,107.4644,31.2124,达州市,市政中心,颗粒物(PM10),58,61,39,16,10,4,4,21,18,48,32,6,5,0.8,0.7
2026-03-25T2100,2614A,100.2168,25.5818,大理白族自治州,大理市环境监测站,,33,25,23,23,20,103,103,101,101,4,5,7,7,0.4,0.4
2026-03-25T2100,2615A,100.1542,25.7055,大理白族自治州,大理古城,,35,NA,21,20,18,111,111,111,111,5,5,5,5,0.3,0.3
2026-03-25T2100,1109A,121.6119,38.974,大连市,甘井子,细颗粒物(PM2.5),142,145,109,106,86,88,88,128,108,48,39,12,12,0.7,0.8
2026-03-25T2100,1110A,121.565,38.9509,大连市,周水子,细颗粒物(PM2.5),138,137,108,101,86,54,54,138,115,74,41,13,11,1.0,0.9
2026-03-25T2100,1111A,121.5637,38.8849,大连市,星海三站,细颗粒物(PM2.5),137,122,104,100,85,80,80,94,93,38,34,10,7,0.6,0.8
2026-03-25T2100,1112A,121.6301,38.9117,大连市,青泥洼桥,细颗粒物(PM2.5),131,138,107,94,81,80,80,134,126,52,30,11,9,1.0,0.9
2026-03-25T2100,1113A,121.6248,38.8643,大连市,傅家庄,细颗粒物(PM2.5),110,94,101,71,79,81,81,116,114,42,34,12,10,0.9,0.9
2026-03-25T2100,1114A,121.5117,38.8636,大连市,七贤岭,细颗粒物(PM2.5),136,142,99,99,78,89,89,127,109,42,33,8,9,0.9,0.9
2026-03-25T2100,1116A,121.7507,39.1339,大连市,金州,细颗粒物(PM2.5),149,174,108,113,81,91,91,169,162,48,29,16,14,1.2,0.9
2026-03-25T2100,1117A,121.7811,39.0495,大连市,开发区,细颗粒物(PM2.5),136,126,119,99,96,20,20,144,126,99,48,8,9,1.0,0.9
2026-03-25T2100,1118A,121.9762,39.0631,大连市,双D港,细颗粒物(PM2.5),122,107,108,84,89,46,46,105,89,48,35,6,7,1.0,1
2026-03-25T2100,4082A,121.2548,38.8188,大连市,旅顺,细颗粒物(PM2.5),130,119,98,93,81,86,86,147,137,37,28,6,8,0.7,0.7
2026-03-25T2100,1789A,124.8085,46.0381,大庆市,大同区,细颗粒物(PM2.5),140,117,149,103,92,NA,NA,123,123,35,17,7,12,0.7,0.4
2026-03-25T2100,1790A,125.1166,46.5255,大庆市,龙凤区,细颗粒物(PM2.5),105,78,157,65,103,86,86,127,117,23,23,6,7,0.4,0.6
2026-03-25T2100,1791A,124.8894,46.4007,大庆市,红岗区,细颗粒物(PM2.5),123,103,119,85,79,79,79,109,104,25,15,15,13,1.1,0.7
2026-03-25T2100,1792A,125.1391,46.578,大庆市,萨尔图区,细颗粒物(PM2.5),104,91,175,64,100,94,94,121,112,18,25,7,10,0.6,0.8
2026-03-25T2100,1793A,124.9026,46.6217,大庆市,让胡路区,细颗粒物(PM2.5),127,108,145,89,91,63,63,115,103,36,18,8,7,0.7,0.8
2026-03-25T2100,3481A,125.127,46.6277,大庆市,萨区政府监测点,细颗粒物(PM2.5),101,92,194,61,105,88,88,116,108,7,14,12,11,0.4,0.6
2026-03-25T2100,1723A,113.2926,40.0759,大同市,云冈宾馆,颗粒物(PM10),60,64,89,26,34,75,75,120,110,36,26,7,12,0.6,1
2026-03-25T2100,1724A,113.3437,40.0921,大同市,大同大学,颗粒物(PM10),68,74,101,36,31,61,61,129,115,61,38,6,11,0.8,0.8
2026-03-25T2100,1725A,113.2637,40.129,大同市,安家小村,颗粒物(PM10),53,53,118,28,42,108,108,119,117,15,34,16,25,0.4,2.8
2026-03-25T2100,3282A,113.3399,40.0586,大同市,大同市卫生学校,颗粒物(PM10),71,79,107,40,41,63,63,132,120,57,34,5,11,0.8,0.6
2026-03-25T2100,3565A,113.1371,40.1122,大同市,云冈站,颗粒物(PM10),63,67,87,20,25,26,26,118,99,63,38,10,15,0.6,0.6
2026-03-25T2100,3566A,113.1186,40.2556,大同市,图书馆,颗粒物(PM10),55,56,68,30,24,64,64,119,108,13,11,5,6,0.8,0.8
2026-03-25T2100,3567A,113.5931,40.0459,大同市,区一中,颗粒物(PM10),73,82,101,42,45,70,70,132,120,24,20,9,19,0.6,0.6
2026-03-25T2100,4199A,113.2798248,40.09972476,大同市,魏都大道141号,颗粒物(PM10),92,108,125,47,38,68,68,123,110,40,38,10,15,0.7,1.3
2026-03-25T2100,2269A,124.1068,50.4091,大兴安岭地区,科技局,,27,27,65,15,45,77,77,88,85,4,8,8,8,0.6,0.7
2026-03-25T2100,3663A,124.117,50.4279,大兴安岭地区,红旗社区,,26,9,53,7,51,83,83,89,87,3,15,8,8,0.6,0.8
2026-03-25T2100,1600A,124.33,40.0625,丹东市,江湾东路,细颗粒物(PM2.5),120,115,142,82,115,78,78,124,99,27,29,11,12,0.6,1.3
2026-03-25T2100,1601A,124.4242,40.1513,丹东市,临江后街,细颗粒物(PM2.5),125,122,130,87,107,56,56,115,93,24,23,6,8,1.5,1.2
2026-03-25T2100,1602A,124.3935,40.1461,丹东市,元宝山,细颗粒物(PM2.5),126,122,138,88,102,44,44,118,92,33,27,7,8,1.3,1.2
2026-03-25T2100,1603A,124.3634,40.1093,丹东市,民主桥,细颗粒物(PM2.5),103,91,139,63,107,77,77,124,101,19,33,5,11,0.6,1.2
2026-03-25T2100,3541A,109.5726195,19.51688767,儋州市,第一中学子站,,35,35,30,19,17,70,70,71,71,4,5,6,6,0.4,0.5
2026-03-25T2100,3542A,109.5567,19.5187,儋州市,东坡学校子站,,33,33,31,20,19,73,73,77,77,5,5,8,6,0.5,0.4
2026-03-25T2100,2616A,98.5611,24.4273,德宏傣族景颇族自治州,德宏州监测站,细颗粒物(PM2.5),92,63,38,56,37,52,52,97,95,26,16,9,8,0.9,0.6
2026-03-25T2100,3677A,98.5887,24.4366,德宏傣族景颇族自治州,芒市人民政府综合楼,颗粒物(PM10),81,93,57,50,32,53,53,88,86,20,17,3,2,0.9,0.8
2026-03-25T2100,1901A,104.424,31.1209,德阳市,东山公园,,36,36,41,18,27,61,61,68,61,19,14,2,3,0.6,0.6
2026-03-25T2100,1902A,104.3827,31.1318,德阳市,西小区,颗粒物(PM10),53,54,55,19,27,60,60,70,63,21,20,2,4,0.6,0.7
2026-03-25T2100,1904A,104.3553,31.1091,德阳市,耐火材料厂,,49,49,52,22,32,58,58,70,67,21,22,2,2,0.6,0.5
2026-03-25T2100,4145A,104.4144,31.1495,德阳市,市林业局,,25,20,42,17,27,56,56,67,52,24,23,5,6,0.6,0.6
2026-03-25T2100,1622A,116.3034,37.4675,德州市,儿童乐园,细颗粒物(PM2.5),135,175,145,98,88,118,118,148,146,27,23,16,14,0.8,0.8
2026-03-25T2100,1624A,116.2992,37.4449,德州市,监理站,细颗粒物(PM2.5),133,175,146,96,88,122,122,153,150,33,27,9,8,0.9,0.8
2026-03-25T2100,3066A,116.2722,37.438,德州市,九衢泉纯净水厂,细颗粒物(PM2.5),142,175,137,106,90,94,94,136,132,49,32,10,7,0.8,0.7
2026-03-25T2100,3371A,116.3693,37.44,德州市,开发区人民医院,细颗粒物(PM2.5),132,161,142,95,89,112,112,143,141,33,25,11,10,0.7,0.7
2026-03-25T2100,3511A,116.5687,37.3331,德州市,陵城艺术中心,细颗粒物(PM2.5),136,149,128,99,95,106,106,140,138,22,21,8,12,0.9,0.8
2026-03-25T2100,4292A,116.352738,37.420875,德州市,新河东路,细颗粒物(PM2.5),136,171,142,99,87,99,99,131,129,28,25,15,13,0.8,0.7
2026-03-25T2100,2621A,99.7054,27.8319,迪庆藏族自治州,迪庆州站,,31,15,16,14,9,99,99,102,102,9,7,5,4,0.6,0.5
2026-03-25T2100,3180A,99.7122,27.8129,迪庆藏族自治州,质量技术监督局,,35,16,16,9,8,109,109,114,112,11,8,6,6,0.6,0.5
2026-03-25T2100,4257A,104.6092,35.5962,定西市,将台街,颗粒物(PM10),53,53,73,24,34,101,101,116,115,16,18,10,11,0.4,0.6
2026-03-25T2100,4309A,104.6159,35.5701,定西市,正龙路62号,颗粒物(PM10),58,61,72,19,30,103,103,112,112,10,13,6,5,0.3,0.4
2026-03-25T2100,4071A,114.9883,38.5232,定州市,交通局,细颗粒物(PM2.5),136,170,149,99,74,97,97,151,141,38,26,7,6,0.8,0.7
2026-03-25T2100,4072A,115.0045,38.5136,定州市,第五中学,颗粒物(PM10),127,190,160,84,74,57,57,145,132,69,29,11,10,0.7,0.6
2026-03-25T2100,1390A,113.7943,23.0132,东莞市,东城石井,,40,40,47,24,31,95,95,219,202,26,29,4,4,0.6,0.6
2026-03-25T2100,1391A,113.7384,22.9659,东莞市,南城西平,,27,26,46,14,30,86,86,180,170,18,29,4,5,0.6,0.6
2026-03-25T2100,3319A,113.7283,23.041,东莞市,万江金泰,,45,33,60,31,63,98,98,200,186,22,33,6,7,0.7,0.7
2026-03-25T2100,4129A,113.8666,23.1062,东莞市,裕兴路,颗粒物(PM10),58,60,61,32,35,100,100,207,193,31,32,5,7,0.8,0.8
2026-03-25T2100,4130A,114.0076,22.9739,东莞市,教育路1号,NA,NA,NA,65,NA,34,86,86,215,193,37,36,NA,6,0.8,0.8
2026-03-25T2100,4131A,113.7981,22.8124,东莞市,长怡路1号,,46,46,50,24,28,62,62,175,153,37,28,6,5,0.7,0.7
2026-03-25T2100,1666A,118.6612,37.4313,东营市,市环保局,NA,NA,NA,109,NA,67,NA,NA,178,178,43,38,18,17,0.8,0.7
2026-03-25T2100,3036A,118.6903,37.4337,东营市,开发区管委会,细颗粒物(PM2.5),128,129,108,90,72,117,117,167,164,37,42,14,17,0.7,0.7
2026-03-25T2100,3365A,118.5721,37.5654,东营市,垦利区民丰路,细颗粒物(PM2.5),125,136,106,87,69,106,106,184,172,44,36,8,6,1.0,1
2026-03-25T2100,3498A,118.5063,37.8606,东营市,河口城区,细颗粒物(PM2.5),129,134,122,91,76,140,140,172,169,22,32,10,14,0.9,0.9
2026-03-25T2100,3646A,118.4979,37.4623,东营市,胜利站,细颗粒物(PM2.5),122,148,115,84,68,87,87,154,138,54,42,13,14,1.0,0.9
2026-03-25T2100,3734A,118.5753,37.4405,东营市,理想之城,细颗粒物(PM2.5),120,158,120,81,70,40,40,178,154,113,52,12,11,1.1,1.1
2026-03-25T2100,1591A,110.0024,39.8127,鄂尔多斯市,综合楼,颗粒物(PM10),56,58,59,24,20,108,108,126,122,22,18,6,6,0.5,0.5
2026-03-25T2100,1592A,109.9485,39.8259,鄂尔多斯市,巴音孟克林场办事处,颗粒物(PM10),55,56,51,24,19,94,94,132,122,33,16,6,5,0.3,0.3
2026-03-25T2100,1593A,109.7734,39.5987,鄂尔多斯市,康泽苑,,46,46,68,16,22,83,83,136,126,31,15,5,6,0.4,0.2
2026-03-25T2100,1594A,109.8121,39.5987,鄂尔多斯市,华泰汽车城,,44,44,65,20,20,64,64,139,121,46,20,5,5,0.5,0.3
2026-03-25T2100,1595A,109.9734,39.7884,鄂尔多斯市,奥林花园,颗粒物(PM10),58,61,64,20,17,100,100,127,115,27,32,6,5,0.4,0.3
2026-03-25T2100,2436A,114.894,30.3989,鄂州市,市政府,细颗粒物(PM2.5),106,95,93,66,56,65,65,109,102,48,22,8,10,0.6,0.6
2026-03-25T2100,2437A,114.8986,30.3714,鄂州市,赵家坝,细颗粒物(PM2.5),92,89,97,56,56,69,69,128,121,34,12,9,8,1.1,0.9
2026-03-25T2100,3654A,114.8093,30.4091,鄂州市,精准医疗中心,细颗粒物(PM2.5),102,96,94,62,60,82,82,135,128,42,13,12,11,0.9,0.7
2026-03-25T2100,2454A,109.4978,30.2979,恩施土家族苗族自治州,湖北民院,,32,28,22,22,14,11,11,31,28,26,15,6,6,1.0,0.8
2026-03-25T2100,3549A,109.5061,30.3771,恩施土家族苗族自治州,龙凤新区,,21,21,13,8,9,8,8,33,25,14,5,7,7,0.6,0.5
2026-03-25T2100,2499A,108.3411,21.6159,防城港市,沙万,NA,NA,NA,66,24,18,65,65,60,60,NA,16,5,7,0.5,0.5
2026-03-25T2100,2500A,108.3515,21.7733,防城港市,防城档案局,,41,41,40,28,21,59,59,75,73,7,11,6,12,0.5,0.7
2026-03-25T2100,2501A,108.3506,21.6414,防城港市,大海花园,,39,NA,35,27,20,66,66,65,65,21,20,7,10,0.4,0.5
2026-03-25T2100,1371A,113.1293,23.0065,佛山市,湾梁,NA,NA,NA,47,NA,32,101,101,186,182,22,27,/,/,/,/
2026-03-25T2100,1372A,113.1082,23.0477,佛山市,华材职中,"颗粒物(PM10),细颗粒物(PM2.5)",58,61,48,39,38,108,108,180,179,27,30,8,8,0.5,0.4
2026-03-25T2100,1373A,113.1439,23.045,佛山市,南海气象局,颗粒物(PM10),75,84,50,42,36,97,97,171,168,28,29,/,/,/,/
2026-03-25T2100,1374A,113.2879,22.8094,佛山市,顺德苏岗,颗粒物(PM10),53,54,47,26,30,90,90,162,157,20,22,/,/,0.6,0.6
2026-03-25T2100,1376A,112.8384,22.8678,佛山市,高明孔堂,颗粒物(PM10),53,53,40,24,26,91,91,139,135,15,17,/,/,/,/
2026-03-25T2100,1377A,112.8835,23.1584,佛山市,三水监测站,颗粒物(PM10),65,70,68,40,46,67,67,135,130,63,44,4,7,0.6,0.5
2026-03-25T2100,1378A,112.8668,23.185,佛山市,三水云东海,颗粒物(PM10),67,73,75,41,44,90,90,156,152,43,37,/,/,/,/
2026-03-25T2100,3625A,113.2568,22.7629,佛山市,容桂街道办,,44,44,43,24,33,79,79,165,159,26,30,/,/,/,/
2026-03-25T2100,1282A,119.2681,26.0506,福州市,师大,,34,27,34,20,27,107,107,101,100,20,24,3,4,0.3,0.4
2026-03-25T2100,1283A,119.2983,26.1028,福州市,五四北路,,32,24,26,13,25,101,101,100,99,17,23,4,4,0.4,0.6
2026-03-25T2100,1284A,119.2648,26.0769,福州市,杨桥西路,,35,26,32,22,27,109,109,105,104,18,21,3,4,/,/
2026-03-25T2100,3048A,119.5799,26.0937,福州市,九龙,,38,21,22,11,20,119,119,114,114,11,15,4,4,0.4,0.4
2026-03-25T2100,3526A,119.5188,25.9666,福州市,吴航,,37,21,30,17,22,117,117,106,106,13,20,4,4,0.6,0.8
2026-03-25T2100,4104A,119.3106,26.0648,福州市,路通桥巷6号,,38,30,37,26,29,97,97,95,95,16,21,/,/,/,/
2026-03-25T2100,1755A,123.7974,41.8494,抚顺市,望花区,细颗粒物(PM2.5),119,149,110,80,61,60,60,140,111,55,24,18,22,0.9,1
2026-03-25T2100,1756A,123.9161,41.8827,抚顺市,顺城区,细颗粒物(PM2.5),158,123,82,120,61,9,9,138,97,90,32,14,13,1.5,1
2026-03-25T2100,1757A,124.0437,41.8615,抚顺市,东洲区,细颗粒物(PM2.5),122,140,100,84,61,40,40,142,114,50,20,15,10,1.3,0.9
2026-03-25T2100,1758A,123.9246,41.8638,抚顺市,新抚区,颗粒物(PM10),104,130,112,56,63,16,16,148,111,81,28,12,12,1.1,0.8
2026-03-25T2100,1759A,124.0972,41.8961,抚顺市,大伙房水库,细颗粒物(PM2.5),94,102,91,57,59,99,99,152,133,17,14,10,10,0.7,0.6
2026-03-25T2100,1760A,123.708,41.8386,抚顺市,沈抚新城,细颗粒物(PM2.5),136,134,104,99,61,16,16,132,97,101,28,15,10,1.2,0.8
2026-03-25T2100,2377A,116.3544,27.9833,抚州市,市站,,50,48,50,35,37,95,95,118,114,7,10,15,9,1.0,0.9
2026-03-25T2100,2378A,116.3562,27.9631,抚州市,血防站,NA,NA,56,48,38,35,NA,NA,118,115,12,15,8,7,0.8,0.9
2026-03-25T2100,2379A,116.3561,28.0007,抚州市,采茶剧团,颗粒物(PM10),55,56,45,35,35,88,88,112,106,8,13,19,10,0.8,0.7
2026-03-25T2100,2380A,116.3854,27.9648,抚州市,医学分院,颗粒物(PM10),66,72,52,30,31,96,96,118,114,7,11,7,7,1.2,1.1
2026-03-25T2100,2207A,121.6095,41.9978,阜新市,工业园区,颗粒物(PM10),75,85,83,45,62,27,27,97,81,57,23,10,11,0.8,0.6
2026-03-25T2100,2208A,121.6567,42.0188,阜新市,长青街,,29,29,72,9,60,51,51,97,90,28,20,5,9,0.5,0.7
2026-03-25T2100,2209A,121.6672,42.07,阜新市,农业园区,,35,35,92,3,56,83,83,97,95,18,19,4,7,0.4,0.6
2026-03-25T2100,2211A,121.6343,42.0455,阜新市,玉龙新城,颗粒物(PM10),96,114,91,51,66,16,16,96,75,69,26,10,11,0.9,0.7
2026-03-25T2100,2301A,115.8276,32.8929,阜阳市,市监测站,颗粒物(PM10),70,78,97,32,57,77,77,126,112,26,21,6,6,0.4,0.5
2026-03-25T2100,2303A,115.8551,32.8606,阜阳市,开发区,颗粒物(PM10),68,75,112,23,56,96,96,127,120,21,21,7,6,0.5,0.5
2026-03-25T2100,2875A,115.783962,32.889217,阜阳市,阜阳职业技术学院,颗粒物(PM10),67,73,89,20,48,108,108,136,131,18,22,7,8,0.4,0.6
2026-03-25T2100,3468A,115.79,32.8614,阜阳市,市规划展馆,颗粒物(PM10),63,68,92,26,54,100,100,136,129,21,17,8,8,0.4,0.5
2026-03-25T2100,3469A,115.835101,32.918568,阜阳市,枣园社区,颗粒物(PM10),65,71,95,26,60,91,91,130,119,21,35,5,6,0.5,0.4
2026-03-25T2100,2669A,102.9097,34.9841,甘南藏族自治州,州政府,,41,41,37,21,21,82,82,95,91,9,8,4,5,0.4,0.3
2026-03-25T2100,3380A,102.8915,34.9618,甘南藏族自治州,甘肃民族师范学院,,35,17,36,14,17,111,111,121,118,6,12,1,1,0.4,0.4
2026-03-25T2100,2570A,101.96,30.048,甘孜藏族自治州,水桥子,,17,16,9,3,2,52,52,74,71,18,8,6,6,0.2,0.2
2026-03-25T2100,3065A,101.9534,29.9976,甘孜藏族自治州,州环保局,,18,8,7,3,5,57,57,76,73,17,11,5,5,0.3,0.3
2026-03-25T2100,2363A,114.9368,25.8663,赣州市,地委,,23,23,19,9,11,53,53,84,81,12,10,2,3,0.8,0.9
2026-03-25T2100,2364A,114.946,25.8483,赣州市,气象台,,31,31,24,17,15,56,56,91,87,21,13,5,6,0.9,0.9
2026-03-25T2100,2365A,114.932,25.8332,赣州市,市图书馆,,30,30,19,9,11,59,59,88,85,13,10,4,4,1.1,1.1
2026-03-25T2100,2366A,114.8905,25.8472,赣州市,华坚鞋城,,32,32,22,14,12,52,52,83,79,19,11,5,6,0.7,0.7
2026-03-25T2100,3109A,115.0094,25.8614,赣州市,赣县区卫计委,,20,20,17,9,10,51,51,81,77,13,12,1,3,1.0,1.1
2026-03-25T2100,2684A,106.2753,36.0057,固原市,监测站,颗粒物(PM10),65,70,84,29,33,89,89,106,105,15,28,10,10,0.4,0.5
2026-03-25T2100,2685A,106.2384,36.0189,固原市,新区,颗粒物(PM10),53,54,98,26,33,82,82,109,106,22,28,8,8,0.5,0.6
2026-03-25T2100,2544A,106.6307,30.4577,广安市,市委,NA,NA,19,23,12,17,50,50,47,47,11,16,6,6,NA,0.6
2026-03-25T2100,2545A,106.6266,30.4662,广安市,友谊中学,NA,NA,31,21,9,13,NA,NA,52,52,9,14,6,6,0.7,0.8
2026-03-25T2100,2547A,106.6386,30.4551,广安市,广电花园,,18,18,26,12,16,48,48,46,46,13,17,5,5,0.8,0.8
2026-03-25T2100,2902A,106.6347,30.4868,广安市,北辰小学,,20,20,23,12,16,48,48,46,46,10,12,6,6,0.8,0.8
2026-03-25T2100,2524A,105.8211,32.4444,广元市,老城,,28,28,38,11,16,51,51,73,72,23,37,9,12,0.8,0.8
2026-03-25T2100,2526A,105.8629,32.429,广元市,监测站,,41,41,36,10,14,49,49,70,69,24,23,10,11,0.6,0.7
2026-03-25T2100,3617A,105.8047,32.4167,广元市,经开区,,32,32,40,18,21,46,46,73,71,28,35,6,9,0.6,0.7
2026-03-25T2100,1345A,113.2346,23.1423,广州市,广雅中学,颗粒物(PM10),59,62,51,39,30,99,99,144,144,30,33,2,3,0.8,0.8
2026-03-25T2100,1346A,113.2611,23.105,广州市,市五中,颗粒物(PM10),53,53,47,36,33,107,107,185,181,32,34,7,7,/,/
2026-03-25T2100,1348A,113.3477,23.0916,广州市,广东商学院,颗粒物(PM10),51,51,51,30,32,79,79,168,162,39,38,6,6,0.7,0.7
2026-03-25T2100,1349A,113.4332,23.105,广州市,市八十六中,NA,NA,NA,45,19,22,54,54,174,162,58,50,6,6,/,/
2026-03-25T2100,1350A,113.3506,22.9488,广州市,番禺中学,,44,44,50,29,28,83,83,159,153,27,27,4,4,0.8,0.8
2026-03-25T2100,1351A,113.2147,23.3918,广州市,花都师范,细颗粒物(PM2.5),80,82,72,50,41,144,144,187,187,36,46,7,8,0.9,0.9
2026-03-25T2100,1352A,113.2599,23.1329,广州市,市监测站,颗粒物(PM10),56,58,51,36,30,102,102,154,154,28,32,2,2,/,/
2026-03-25T2100,1353A,113.5618,23.3119,广州市,九龙镇镇龙,细颗粒物(PM2.5),88,80,61,54,39,91,91,180,175,73,38,7,6,0.6,0.5
2026-03-25T2100,1354A,113.2764,23.1544,广州市,麓湖,颗粒物(PM10),58,60,52,38,33,117,117,146,146,32,44,3,4,0.5,0.6
2026-03-25T2100,2846A,113.3209,23.1323,广州市,体育西,颗粒物(PM10),58,60,53,35,28,94,94,164,164,44,40,6,6,0.9,0.8
2026-03-25T2100,3298A,113.5718,23.5493,广州市,从化街口,细颗粒物(PM2.5),96,87,65,58,48,109,109,151,147,40,32,6,6,0.9,0.8
2026-03-25T2100,3299A,113.3463,23.369,广州市,白云竹料,细颗粒物(PM2.5),111,100,70,72,41,145,145,178,178,37,39,4,4,0.8,0.7
2026-03-25T2100,3300A,113.2981,23.2365,广州市,白云嘉禾,细颗粒物(PM2.5),78,87,66,49,35,106,106,178,173,59,45,8,8,/,/
2026-03-25T2100,3301A,113.4256,23.1716,广州市,黄埔科学城,,48,48,52,33,35,75,75,194,188,54,38,6,6,0.5,0.5
2026-03-25T2100,3302A,113.3942,23.0485,广州市,番禺大学城,颗粒物(PM10),52,52,52,28,30,68,68,16,NA,41,35,7,7,0.7,0.6
2026-03-25T2100,3303A,113.4923,22.8169,广州市,南沙黄阁,,37,37,47,15,31,84,84,180,158,21,29,6,7,/,/
2026-03-25T2100,3304A,113.534,22.7893,广州市,南沙街,,44,44,45,13,28,78,78,154,137,12,21,8,9,0.5,0.6
2026-03-25T2100,3443A,113.2905,23.5541,广州市,花都梯面,细颗粒物(PM2.5),74,65,51,47,38,63,63,133,130,38,28,8,9,/,/
2026-03-25T2100,3445A,113.786,23.7479,广州市,从化良口,,45,42,39,31,31,105,105,120,116,15,14,4,4,/,/
2026-03-25T2100,3446A,113.805,23.2614,广州市,增城荔城,细颗粒物(PM2.5),80,80,53,50,35,136,136,165,164,33,29,6,6,0.6,0.5
2026-03-25T2100,2506A,109.604387,23.066791,贵港市,江南子站,NA,NA,80,83,54,53,NA,NA,84,80,27,22,7,9,0.8,0.8
2026-03-25T2100,2508A,109.5669,23.1065,贵港市,荷城子站,细颗粒物(PM2.5),78,75,68,49,51,44,44,85,76,27,21,8,13,0.8,0.8
2026-03-25T2100,3405A,109.5886,23.1172,贵港市,新世纪学校,颗粒物(PM10),65,70,70,42,51,49,49,84,77,22,24,/,/,0.7,0.7
2026-03-25T2100,4260A,109.5933,23.095,贵港市,中山路155-3号,颗粒物(PM10),76,86,92,42,52,51,51,86,78,16,20,/,/,0.7,0.8
2026-03-25T2100,1439A,106.6863,26.6035,贵阳市,马鞍山,,25,24,28,17,20,12,12,34,15,12,15,4,4,/,/
2026-03-25T2100,1441A,106.6241,26.6266,贵阳市,鉴湖路,,36,36,38,23,22,30,30,44,27,24,18,6,4,0.6,0.5
2026-03-25T2100,1442A,106.7468,26.6344,贵阳市,燕子冲,,29,29,31,16,15,21,21,48,30,12,13,5,6,0.6,0.7
2026-03-25T2100,1443A,106.6556,26.4362,贵阳市,碧云窝,,29,29,38,16,23,45,45,44,42,14,15,8,8,/,/
2026-03-25T2100,1445A,106.6963,26.6063,贵阳市,红边门,,41,41,36,27,19,10,10,46,18,44,21,16,10,/,/
2026-03-25T2100,1446A,106.7162383,26.56964667,贵阳市,新华路,NA,NA,NA,37,20,20,26,26,44,26,30,20,9,7,0.8,0.6
2026-03-25T2100,1447A,106.6742,26.542,贵阳市,太慈桥,,32,27,34,22,21,26,26,42,40,18,17,6,5,/,/
2026-03-25T2100,4230A,106.688212,26.56952,贵阳市,花果园大街66号,NA,NA,NA,24,30,22,27,27,42,20,34,19,3,2,/,/
2026-03-25T2100,4231A,106.687268,26.516892,贵阳市,漓江路57号,,26,NA,27,18,20,27,27,41,27,20,19,7,7,0.9,0.9
2026-03-25T2100,1864A,110.3091,25.2705,桂林市,龙隐路小学,,48,48,23,23,14,45,45,57,55,20,12,5,4,0.9,0.9
2026-03-25T2100,1865A,110.2849361,25.22909545,桂林市,八中,颗粒物(PM10),60,64,24,14,12,38,38,48,47,23,15,8,4,1.0,1
2026-03-25T2100,3531A,110.296,25.1254,桂林市,旅游学院,颗粒物(PM10),60,64,31,30,17,35,35,59,56,24,16,9,5,1.1,1
2026-03-25T2100,4222A,110.1835,25.2444,桂林市,环湖路276号,细颗粒物(PM2.5),70,66,23,45,14,30,30,58,54,31,12,80,12,1.1,1
2026-03-25T2100,4301A,110.2803,25.2773,桂林市,信义路13号,,43,38,24,30,15,34,34,54,50,28,14,16,5,1.1,1
2026-03-25T2100,2674A,100.2262,34.4854,果洛藏族自治州,玛沁县大武镇,,36,29,22,19,10,114,114,113,113,2,1,19,17,0.4,0.3
2026-03-25T2100,1130A,126.5557,45.8109,哈尔滨市,松北商大,细颗粒物(PM2.5),304,289,152,254,125,86,86,141,119,44,24,15,12,1.1,0.6
2026-03-25T2100,1132A,126.6162,45.719,哈尔滨市,南岗学府路,细颗粒物(PM2.5),251,242,171,201,114,96,96,149,131,38,25,21,12,0.5,0.2
2026-03-25T2100,1133A,126.6894,45.7733,哈尔滨市,太平宏伟公园,细颗粒物(PM2.5),290,261,156,240,119,83,83,146,127,51,27,18,5,0.8,0.4
2026-03-25T2100,1134A,126.6361,45.7672,哈尔滨市,道外承德广场,细颗粒物(PM2.5),270,310,188,220,116,99,99,146,132,38,31,15,15,0.4,0.2
2026-03-25T2100,1136A,126.644,45.7261,哈尔滨市,动力和平路,细颗粒物(PM2.5),254,246,154,204,110,94,94,146,128,40,26,18,20,1.9,1.5
2026-03-25T2100,1137A,126.5933,45.7479,哈尔滨市,道里建国路,细颗粒物(PM2.5),252,232,159,202,115,96,96,140,121,52,35,24,21,1.1,0.9
2026-03-25T2100,1138A,126.6127,45.6119,哈尔滨市,平房东轻厂,颗粒物(PM10),172,293,159,NA,124,33,33,119,92,167,91,14,27,1.7,0.7
2026-03-25T2100,1139A,126.5875,45.9827,哈尔滨市,呼兰师专,细颗粒物(PM2.5),381,412,190,331,143,69,69,126,106,43,31,17,14,1.9,1.1
2026-03-25T2100,1140A,126.6299,45.6799,哈尔滨市,省农科院,细颗粒物(PM2.5),238,238,177,188,113,104,104,140,127,26,26,14,13,0.5,0.3
2026-03-25T2100,4282A,126.6769,45.7379,哈尔滨市,华山路1号,细颗粒物(PM2.5),255,273,159,205,113,101,101,144,131,38,26,14,12,1.5,1.1
2026-03-25T2100,4283A,126.9717,45.5356,哈尔滨市,解放大街52号,细颗粒物(PM2.5),436,478,223,404,127,40,40,172,136,100,25,30,15,2.0,0.7
2026-03-25T2100,2688A,93.5124,42.8176,哈密市,地区监测站,,25,NA,48,7,18,78,78,84,79,10,12,6,6,0.0,0.1
2026-03-25T2100,2689A,93.5014,42.8312,哈密市,哈密师范学校,NA,NA,20,37,NA,18,81,81,90,85,12,13,8,8,0.2,0.3
2026-03-25T2100,2671A,100.9016,36.9464,海北藏族自治州,海晏县西海镇,颗粒物(PM10),61,65,53,36,28,110,110,120,120,6,5,9,9,0.5,0.5
2026-03-25T2100,3867A,102.074,36.5056,海东市,平安区公安局北苑,NA,NA,NA,80,NA,35,95,95,129,126,10,13,6,20,NA,0.8
2026-03-25T2100,4163A,102.0984,36.5119,海东市,滨河路,颗粒物(PM10),71,79,85,42,37,31,31,103,94,87,36,10,22,1.1,1.2
2026-03-25T2100,1410A,110.3189,20.0596,海口市,海南大学,,30,30,26,17,14,49,49,68,64,5,4,6,5,0.3,0.3
2026-03-25T2100,1411A,110.2827,20.0051,海口市,秀英海南医院,NA,NA,30,22,NA,15,34,34,70,62,17,7,NA,8,0.3,0.3
2026-03-25T2100,1412A,110.3391,19.9979,海口市,海南师范大学,,32,32,26,22,15,50,50,75,68,6,6,6,6,0.4,0.4
2026-03-25T2100,1413A,110.3303,20.0359,海口市,龙华路环保局宿舍,,30,30,27,17,15,51,51,71,66,7,6,/,/,0.5,0.4
2026-03-25T2100,3539A,110.5111,19.9737,海口市,桂林洋子站,,33,33,27,19,15,38,38,71,64,15,6,/,/,/,/
2026-03-25T2100,4134A,110.1952,20.0451,海口市,长滨二路9号,,30,30,23,21,14,50,50,64,61,5,4,/,/,/,/
2026-03-25T2100,2673A,100.6158,36.2985,海南藏族自治州,共和县恰卜恰镇,颗粒物(PM10),72,80,45,45,24,87,87,127,122,39,8,14,13,0.4,0.3
2026-03-25T2100,2676A,97.373,37.376,海西蒙古族藏族自治州,德令哈市,NA,NA,34,25,16,12,NA,NA,149,149,7,3,15,15,0.5,0.4
2026-03-25T2100,1049A,114.492,36.5712,邯郸市,矿院,细颗粒物(PM2.5),94,95,91,57,58,107,107,123,123,15,21,6,6,0.5,0.6
2026-03-25T2100,1050A,114.4839,36.6136,邯郸市,丛台公园,细颗粒物(PM2.5),96,101,101,58,70,116,116,137,135,15,19,9,10,0.5,0.7
2026-03-25T2100,3458A,114.7893,36.5592,邯郸市,香泉濮院小区,颗粒物(PM10),110,144,122,39,52,115,115,136,135,18,16,3,3,0.5,0.6
2026-03-25T2100,3580A,114.1998,36.4439,邯郸市,峰峰矿区临水派出所,颗粒物(PM10),85,99,79,49,44,109,109,144,139,24,19,8,8,0.7,0.7
2026-03-25T2100,4068A,114.5209,36.7697,邯郸市,建安街268号,细颗粒物(PM2.5),100,106,102,60,74,108,108,141,137,22,26,5,6,0.5,0.8
2026-03-25T2100,4069A,114.5488,36.6177,邯郸市,丛台东路558号,细颗粒物(PM2.5),116,109,101,77,78,102,102,137,134,25,20,4,4,0.5,0.6
2026-03-25T2100,2635A,107.0155,33.0707,汉中市,市监测站,颗粒物(PM10),51,51,37,30,20,43,43,61,60,25,19,7,7,0.6,0.6
2026-03-25T2100,2636A,107.0083,33.114,汉中市,鑫源开发区,颗粒物(PM10),55,57,33,36,20,14,14,64,54,50,20,4,4,0.6,0.5
2026-03-25T2100,2637A,107.0072,33.0323,汉中市,南郑大河坎水厂,颗粒物(PM10),59,62,43,36,24,32,32,59,55,29,22,5,4,0.7,0.6
2026-03-25T2100,1223A,120.2073,30.2111,杭州市,滨江,细颗粒物(PM2.5),76,81,44,48,31,89,89,129,126,50,27,8,7,0.4,0.9
2026-03-25T2100,1224A,120.0625,30.2737,杭州市,西溪,细颗粒物(PM2.5),66,67,49,43,28,92,92,125,122,22,21,8,8,0.8,0.7
2026-03-25T2100,1226A,120.3417,30.315,杭州市,下沙,细颗粒物(PM2.5),68,70,66,44,35,76,76,123,116,46,24,8,8,0.8,0.8
2026-03-25T2100,1227A,120.1252,30.2465,杭州市,卧龙桥,,49,49,44,31,27,43,43,129,110,38,23,6,7,0.5,0.4
2026-03-25T2100,1228A,120.1902,30.2691,杭州市,浙江农大,细颗粒物(PM2.5),66,67,41,43,32,100,100,129,126,44,34,6,6,0.6,0.5
2026-03-25T2100,1230A,120.1195,30.3121,杭州市,和睦小学,颗粒物(PM10),70,77,62,44,32,91,91,124,121,35,22,6,6,0.9,0.8
2026-03-25T2100,1231A,120.3076,30.4146,杭州市,临平镇,细颗粒物(PM2.5),86,78,51,53,43,96,96,133,128,37,24,7,6,0.8,0.8
2026-03-25T2100,1232A,120.2753,30.1839,杭州市,城厢镇,细颗粒物(PM2.5),88,71,40,54,33,77,77,119,115,57,30,11,9,0.8,0.7
2026-03-25T2100,1233A,120.0883,30.1808,杭州市,云栖,颗粒物(PM10),57,59,34,18,17,38,38,127,115,51,26,6,5,0.9,0.7
2026-03-25T2100,3557A,119.9463,30.0496,杭州市,镇二中,细颗粒物(PM2.5),60,46,25,40,31,102,102,122,121,25,19,4,4,0.9,0.8
2026-03-25T2100,3558A,119.7184,30.2367,杭州市,市府大楼,颗粒物(PM10),68,74,36,40,30,116,116,130,129,24,17,7,6,0.2,0.3
2026-03-25T2100,3656A,120.1554,30.2863,杭州市,消防大队,NA,NA,64,42,NA,38,88,88,124,120,38,23,8,8,1.0,0.9
2026-03-25T2100,1270A,117.1957,31.7845,合肥市,明珠广场,颗粒物(PM10),62,66,88,31,50,98,98,138,134,28,27,5,6,0.6,0.7
2026-03-25T2100,1271A,117.307,31.8765,合肥市,三里街,颗粒物(PM10),65,70,90,26,55,72,72,131,122,50,34,6,6,0.8,0.9
2026-03-25T2100,1272A,117.2587,31.8703,合肥市,琥珀山庄,颗粒物(PM10),60,63,85,24,48,99,99,141,137,36,34,7,7,0.7,0.8
2026-03-25T2100,1275A,117.2593,31.9376,合肥市,庐阳区,颗粒物(PM10),67,73,89,27,50,79,79,136,128,44,35,4,5,0.7,0.8
2026-03-25T2100,1276A,117.345251,31.861615,合肥市,瑶海区,颗粒物(PM10),88,102,96,23,44,50,50,134,120,79,40,5,6,0.6,0.8
2026-03-25T2100,1277A,117.3033,31.7967,合肥市,包河区,颗粒物(PM10),53,53,90,17,46,96,96,134,132,37,42,8,9,0.5,0.9
2026-03-25T2100,1278A,117.278,31.7392,合肥市,滨湖新区,,44,44,87,19,48,110,110,133,132,8,24,4,5,0.7,0.9
2026-03-25T2100,1279A,117.1324,31.8395,合肥市,高新区,颗粒物(PM10),63,68,86,26,47,113,113,135,133,19,29,5,5,0.7,0.9
2026-03-25T2100,3464A,117.3802,31.9148,合肥市,高教基地,颗粒物(PM10),63,68,81,23,45,80,80,139,129,32,30,8,8,0.5,0.7
2026-03-25T2100,4098A,117.2518,31.8404,合肥市,中国科学技术大学,颗粒物(PM10),58,61,87,26,52,97,97,146,139,40,32,6,6,0.7,0.9
2026-03-25T2100,3614A,79.9241,37.0878,和田地区,地区环保局,颗粒物(PM10),86,100,166,17,19,116,116,120,120,7,5,1,2,0.5,0.4
2026-03-25T2100,3615A,79.9132,37.1137,和田地区,市环保局,颗粒物(PM10),97,115,165,22,21,110,110,114,114,5,9,3,2,0.3,0.3
2026-03-25T2100,2517A,108.0496,24.6957,河池市,市环保站,NA,NA,76,34,49,21,12,12,31,27,17,8,7,8,NA,0.7
2026-03-25T2100,4302A,108.0901,24.6945,河池市,上任中路54号,细颗粒物(PM2.5),66,68,40,43,20,4,4,27,23,29,14,6,9,0.9,0.8
2026-03-25T2100,1697A,114.6962,23.7538,河源市,东埔,颗粒物(PM10),58,61,42,38,31,41,41,116,105,43,18,6,6,1.2,0.8
2026-03-25T2100,1698A,114.6895,23.7232,河源市,老城,,48,42,42,33,31,73,73,119,112,15,16,6,7,0.8,0.7
2026-03-25T2100,3374A,115.5562,35.089,菏泽市,定陶老年大学,颗粒物(PM10),90,105,118,52,75,104,104,128,126,16,15,5,5,0.5,0.5
2026-03-25T2100,4114A,115.4239,35.2593,菏泽市,黄河路600号,颗粒物(PM10),104,129,141,60,75,84,84,120,115,22,17,5,4,0.5,0.5
2026-03-25T2100,4115A,115.5025,35.2727,菏泽市,菏泽市人社局,细颗粒物(PM2.5),105,106,121,65,80,108,108,126,123,16,17,5,6,0.4,0.4
2026-03-25T2100,4184A,115.479691,35.244011,菏泽市,永昌路1号,颗粒物(PM10),94,111,125,55,75,106,106,137,133,19,18,3,4,0.5,0.5
2026-03-25T2100,4193A,115.471542,35.280012,菏泽市,长城路999号,颗粒物(PM10),95,112,129,57,76,103,103,130,127,15,14,9,6,0.3,0.4
2026-03-25T2100,2514A,111.5264,24.4178,贺州市,环保小区,颗粒物(PM10),60,64,28,39,18,51,51,86,84,24,12,7,5,1.3,0.4
2026-03-25T2100,2515A,111.561,24.4074,贺州市,政协大楼,颗粒物(PM10),65,70,30,41,19,33,33,89,84,47,15,6,5,1.5,1.2
2026-03-25T2100,3534A,111.4744,24.455,贺州市,西湾,细颗粒物(PM2.5),98,109,31,59,19,34,34,72,68,31,12,7,7,1.5,1
2026-03-25T2100,2385A,114.17,35.9019,鹤壁市,市监测站,细颗粒物(PM2.5),88,96,100,54,64,110,110,134,133,26,24,8,8,0.6,0.7
2026-03-25T2100,2386A,114.2953,35.7512,鹤壁市,市交警支队,"颗粒物(PM10),细颗粒物(PM2.5)",101,121,118,61,78,88,88,128,126,25,29,8,10,0.5,0.6
2026-03-25T2100,2387A,114.2877,35.7302,鹤壁市,迎宾馆,细颗粒物(PM2.5),105,126,125,65,74,84,84,128,126,26,31,10,12,0.5,0.6
2026-03-25T2100,3474A,114.2616,35.6824,鹤壁市,大新区,细颗粒物(PM2.5),107,116,111,67,80,59,59,118,113,36,34,6,9,0.8,0.9
2026-03-25T2100,3596A,114.1573,35.9607,鹤壁市,南山宾馆,颗粒物(PM10),88,103,115,51,60,106,106,135,133,20,16,11,12,0.5,0.6
2026-03-25T2100,2244A,130.2537,47.3416,鹤岗市,哈啤分公司,细颗粒物(PM2.5),92,56,162,56,184,86,86,88,88,14,28,9,13,0.6,0.9
2026-03-25T2100,2245A,130.2683,47.3087,鹤岗市,斯达机电,细颗粒物(PM2.5),101,76,189,61,178,76,76,89,84,22,29,12,16,0.5,0.8
2026-03-25T2100,2246A,130.3114,47.3388,鹤岗市,东山纸板厂,细颗粒物(PM2.5),101,79,209,61,187,61,61,83,80,24,29,14,14,1.0,1.6
2026-03-25T2100,2263A,127.4832,50.2524,黑河市,交通局,颗粒物(PM10),63,68,62,36,36,67,67,108,87,23,13,8,7,0.7,0.3
2026-03-25T2100,2264A,127.5146,50.2339,黑河市,环保局,细颗粒物(PM2.5),107,86,60,67,51,47,47,108,84,51,22,11,7,0.9,0.6
2026-03-25T2100,1074A,115.6839,37.754,衡水市,电机北厂,细颗粒物(PM2.5),119,150,132,80,82,124,124,148,148,25,22,10,7,0.6,0.7
2026-03-25T2100,1075A,115.6303,37.7318,衡水市,市监测站,细颗粒物(PM2.5),130,134,128,92,82,115,115,149,148,23,19,11,9,0.5,0.5
2026-03-25T2100,3188A,115.6684,37.7216,衡水市,市城管局,细颗粒物(PM2.5),124,121,126,86,75,121,121,147,146,22,21,14,11,0.5,0.5
2026-03-25T2100,3459A,115.599,37.5491,衡水市,地表水厂,细颗粒物(PM2.5),131,148,130,94,87,84,84,142,137,38,25,9,8,0.5,0.5
2026-03-25T2100,2457A,112.6209,26.9268,衡阳市,衡阳化工总厂,细颗粒物(PM2.5),94,68,90,57,76,69,69,76,74,10,9,8,13,1.1,1.1
2026-03-25T2100,2458A,112.621,26.8957,衡阳市,珠晖区环保局,细颗粒物(PM2.5),68,58,81,44,61,60,60,74,70,17,18,8,10,1.0,1.1
2026-03-25T2100,2459A,112.628,26.8654,衡阳市,市委党校,细颗粒物(PM2.5),74,61,72,47,61,64,64,84,79,13,11,26,13,0.9,1
2026-03-25T2100,2460A,112.6007,26.8977,衡阳市,市监测站,细颗粒物(PM2.5),102,65,71,62,67,66,66,77,73,17,16,11,16,0.9,0.9
2026-03-25T2100,2461A,112.5658,26.9013,衡阳市,真空机电公司,细颗粒物(PM2.5),96,60,75,58,72,70,70,62,51,15,16,10,13,1.1,1.2
2026-03-25T2100,3399A,112.6703,26.8817,衡阳市,师范学院,颗粒物(PM10),62,66,77,40,47,70,70,91,86,8,9,66,20,0.9,0.9
2026-03-25T2100,3038A,103.3757,23.3679,红河哈尼族彝族自治州,州图书馆,细颗粒物(PM2.5),64,61,54,42,45,100,100,127,123,9,8,4,5,0.6,0.5
2026-03-25T2100,4154A,103.401,23.3561,红河哈尼族彝族自治州,蒙自市朝阳路,细颗粒物(PM2.5),66,60,43,43,43,106,106,134,130,10,8,10,10,0.5,0.5
2026-03-25T2100,1090A,111.6506,40.7517,呼和浩特市,呼市一监,细颗粒物(PM2.5),100,105,109,60,54,106,106,131,130,29,38,14,12,0.7,0.7
2026-03-25T2100,1094A,111.7516,40.8369,呼和浩特市,如意水处理厂,细颗粒物(PM2.5),82,90,91,51,47,86,86,134,132,52,45,13,13,0.7,0.6
2026-03-25T2100,1095A,111.727798,40.806187,呼和浩特市,二十九中,颗粒物(PM10),79,90,102,46,48,102,102,123,123,32,32,14,12,0.6,0.6
2026-03-25T2100,1097A,111.717,40.7617,呼和浩特市,化肥厂生活区,细颗粒物(PM2.5),129,152,120,91,71,91,91,129,127,54,41,12,10,0.8,0.6
2026-03-25T2100,3699A,111.6519,40.8389,呼和浩特市,海东办,颗粒物(PM10),80,92,80,47,35,70,70,124,122,56,38,7,8,0.6,0.5
2026-03-25T2100,4275A,111.591512,40.827312,呼和浩特市,成吉思汗西街8号,颗粒物(PM10),56,58,95,24,36,68,68,120,117,47,41,2,6,0.4,0.5
2026-03-25T2100,4276A,111.6597,40.8077,呼和浩特市,公园东路75号,细颗粒物(PM2.5),98,114,100,59,43,95,95,120,120,37,32,15,12,0.9,0.7
2026-03-25T2100,4277A,111.5427,40.7846,呼和浩特市,金海路35号,颗粒物(PM10),85,99,93,37,45,95,95,122,122,32,36,8,11,0.5,0.5
2026-03-25T2100,3061A,119.7511,49.1576,呼伦贝尔市,国华电力东,,26,25,28,12,16,82,82,94,92,6,11,5,5,0.2,0.3
2026-03-25T2100,4279A,119.7569,49.2222,呼伦贝尔市,伊敏大街东7号,,28,28,25,11,13,83,83,96,93,12,11,6,6,0.3,0.3
2026-03-25T2100,1250A,120.075,30.867,湖州市,城西水厂,细颗粒物(PM2.5),101,74,64,61,54,72,72,151,143,52,31,6,6,1.0,0.9
2026-03-25T2100,2873A,120.083,30.8929,湖州市,仁皇山新区,细颗粒物(PM2.5),78,74,70,49,49,109,109,149,147,23,29,5,5,1.0,1
2026-03-25T2100,2907A,120.1846,30.8592,湖州市,吴兴区站,NA,NA,NA,75,NA,45,120,120,159,156,30,22,6,6,1.0,0.9
2026-03-25T2100,3562A,120.4146,30.8538,湖州市,南浔区站,细颗粒物(PM2.5),103,80,63,63,51,120,120,150,148,30,21,5,5,1.0,0.9
2026-03-25T2100,1607A,120.904878,40.721091,葫芦岛市,龙港区,细颗粒物(PM2.5),176,179,125,133,86,77,77,134,124,45,32,14,35,1.6,1
2026-03-25T2100,1608A,120.8382,40.7521,葫芦岛市,化工街,细颗粒物(PM2.5),205,232,144,155,101,16,16,126,95,126,47,26,21,1.5,0.8
2026-03-25T2100,1609A,120.8339,40.7078,葫芦岛市,新区,细颗粒物(PM2.5),192,NA,116,144,117,39,39,98,86,56,36,9,13,1.2,0.9
2026-03-25T2100,1610A,120.8697,40.7679,葫芦岛市,东城区,细颗粒物(PM2.5),234,192,116,184,106,5,5,122,96,140,46,20,17,1.9,1
2026-03-25T2100,2483A,109.9297,27.5383,怀化市,河西地税局,,16,16,24,8,16,47,47,43,43,9,16,3,3,/,/
2026-03-25T2100,2484A,109.9783,27.5342,怀化市,市四医院,,16,16,28,10,21,39,39,39,39,9,13,6,7,0.5,0.6
2026-03-25T2100,2485A,109.9971,27.5579,怀化市,监测楼,,15,15,25,10,20,36,36,41,41,12,16,4,4,0.3,0.4
2026-03-25T2100,1210A,119.0566,33.5991,淮安市,钵池山,颗粒物(PM10),72,80,94,44,66,105,105,136,131,27,36,9,9,0.4,0.4
2026-03-25T2100,1211A,119.0083,33.578,淮安市,北京南路,细颗粒物(PM2.5),84,88,90,52,73,54,54,119,110,53,33,8,10,0.6,0.6
2026-03-25T2100,1212A,118.9938,33.6083,淮安市,市监测站,细颗粒物(PM2.5),80,80,84,50,74,106,106,138,133,35,38,7,7,0.4,0.5
2026-03-25T2100,1213A,119.135,33.5038,淮安市,楚州区监测站,细颗粒物(PM2.5),107,85,99,67,74,NA,NA,120,116,28,29,6,6,0.4,0.9
2026-03-25T2100,3426A,118.8757,33.2897,淮安市,新华书店,细颗粒物(PM2.5),102,95,96,62,52,73,73,116,109,40,27,7,7,0.3,0.4
2026-03-25T2100,4092A,119.119691,33.550006,淮安市,枚皋中路89号,细颗粒物(PM2.5),98,86,97,59,69,92,92,117,117,21,26,11,11,0.6,0.7
2026-03-25T2100,4206A,119.028838,33.631911,淮安市,承德北路606号,颗粒物(PM10),91,107,115,51,73,69,69,126,118,49,32,10,9,0.7,0.5
2026-03-25T2100,2282A,116.8005,33.9749,淮北市,监测站,NA,NA,NA,104,NA,65,NA,NA,137,130,18,22,7,7,0.5,0.7
2026-03-25T2100,2283A,116.8094,33.9008,淮北市,烈山区政府,颗粒物(PM10),72,80,97,45,70,102,102,124,119,20,33,6,7,0.3,0.5
2026-03-25T2100,4017A,116.7926,33.9534,淮北市,市博物馆,颗粒物(PM10),77,87,99,46,68,98,98,127,118,21,23,6,7,0.6,0.6
2026-03-25T2100,4100A,116.8322,33.9884,淮北市,杜集区第一实验学校,颗粒物(PM10),86,100,106,44,61,84,84,123,112,23,22,7,8,0.4,0.4
2026-03-25T2100,2277A,116.8304,32.7726,淮南市,潘集区政府,颗粒物(PM10),74,83,86,23,54,67,67,127,115,38,28,6,8,0.5,0.5
2026-03-25T2100,2279A,116.8569,32.5949,淮南市,谢家集区政府,颗粒物(PM10),62,66,69,27,51,88,88,123,120,31,23,9,8,0.5,0.5
2026-03-25T2100,2280A,116.8279,32.6333,淮南市,八公山区政府,颗粒物(PM10),85,99,78,25,51,73,73,122,117,23,14,7,8,0.5,0.5
2026-03-25T2100,2894A,117.0561,32.6536,淮南市,经济技术开发区消防队,颗粒物(PM10),57,59,74,34,52,71,71,123,114,48,30,8,8,0.4,0.4
2026-03-25T2100,3329A,117.011,32.5891,淮南市,山南新区,颗粒物(PM10),66,72,80,42,55,108,108,130,125,22,21,8,8,0.4,0.5
2026-03-25T2100,4209A,117.003137,32.644456,淮南市,国庆中路369号,细颗粒物(PM2.5),60,57,71,40,50,102,102,115,113,18,19,9,10,0.6,0.5
2026-03-25T2100,2446A,114.9021,30.474,黄冈市,职工中心,细颗粒物(PM2.5),102,84,98,62,59,97,97,138,135,22,12,6,6,1.1,1
2026-03-25T2100,2929A,114.8858,30.4519,黄冈市,红卫路,细颗粒物(PM2.5),88,80,90,54,55,93,93,142,138,22,12,5,5,0.7,0.4
2026-03-25T2100,3398A,114.9134,30.4446,黄冈市,市林业局,NA,NA,NA,106,NA,59,NA,NA,132,132,NA,11,NA,4,NA,0.7
2026-03-25T2100,2672A,102.02,35.5101,黄南藏族自治州,同仁县隆务镇,,42,42,42,24,23,108,108,119,119,1,3,9,9,0.3,0.4
2026-03-25T2100,2295A,118.2905,29.6965,黄山市,延安路89号,,36,36,19,21,9,62,62,115,101,13,11,4,4,0.4,0.4
2026-03-25T2100,2297A,118.1369,30.2755,黄山市,黄山区政府5号楼,,18,18,32,8,13,42,42,98,86,12,9,3,3,0.4,0.5
2026-03-25T2100,4210A,118.335445,29.720283,黄山市,滨江东路7-2号,颗粒物(PM10),60,64,35,18,7,33,33,110,93,30,11,/,/,/,/
2026-03-25T2100,2423A,115.0547,30.2332,黄石市,沈家营,细颗粒物(PM2.5),78,72,100,49,52,52,52,102,88,31,18,6,6,1.0,1
2026-03-25T2100,2426A,114.899,30.211,黄石市,铁山,细颗粒物(PM2.5),105,68,63,65,57,98,98,119,116,16,17,9,10,1.2,0.9
2026-03-25T2100,2427A,115.0259,30.2108,黄石市,团城山,细颗粒物(PM2.5),101,78,93,61,59,98,98,110,110,13,12,4,4,1.1,0.9
2026-03-25T2100,3149A,115.0174,30.1591,黄石市,笔架山北路,"颗粒物(PM10),细颗粒物(PM2.5)",100,119,114,60,57,101,101,128,126,12,16,9,8,0.9,0.8
2026-03-25T2100,4185A,115.078022,30.21118,黄石市,磁湖东路29号,细颗粒物(PM2.5),96,98,109,58,57,109,109,116,116,15,17,16,8,1.2,1.2
2026-03-25T2100,1392A,114.4181,23.0528,惠州市,河南岸金山湖子站,,48,48,49,28,31,136,136,164,162,13,15,8,7,0.7,0.6
2026-03-25T2100,1393A,114.4055,23.0824,惠州市,下埔横江三路子站,颗粒物(PM10),58,61,56,33,30,138,138,169,165,16,15,6,5,0.7,0.5
2026-03-25T2100,1395A,114.4645,22.7832,惠州市,惠阳区承修路船湖子站,,48,48,49,24,26,74,74,157,142,24,18,8,6,0.4,0.5
2026-03-25T2100,1396A,114.5316,22.7423,惠州市,大亚湾管委会子站,,39,39,40,21,24,58,58,144,126,28,18,4,3,0.5,0.5
2026-03-25T2100,3314A,114.4334,22.8134,惠州市,惠阳秋长,,41,41,47,25,28,88,88,163,153,27,22,/,/,/,/
2026-03-25T2100,3452A,114.6521,22.7755,惠州市,大亚湾霞涌,,27,20,26,17,21,84,84,113,98,10,14,/,/,/,/
2026-03-25T2100,4300A,114.4089,23.1147,惠州市,文华一路1号,,48,48,48,30,30,140,140,167,166,17,18,/,/,/,/
2026-03-25T2100,2240A,130.9618,45.2926,鸡西市,环保局,细颗粒物(PM2.5),147,130,128,111,90,40,40,115,98,42,31,22,11,0.7,0.5
2026-03-25T2100,2243A,130.9294,45.2959,鸡西市,第一中学,细颗粒物(PM2.5),150,157,113,114,87,32,32,115,105,54,25,16,10,0.9,0.5
2026-03-25T2100,3707A,131.0069,45.2988,鸡西市,欧美日汽修厂,细颗粒物(PM2.5),150,168,150,114,96,58,58,110,94,24,28,15,14,1.3,1.1
2026-03-25T2100,2367A,114.9753,27.0803,吉安市,红声器材厂,,50,50,37,19,20,76,76,100,95,18,18,6,7,1.0,1.1
2026-03-25T2100,2369A,114.9903,27.1313,吉安市,市环境监测站,,37,37,33,15,20,74,74,95,91,15,14,9,9,/,/
2026-03-25T2100,2370A,115.009527,27.096792,吉安市,青原区法院,,36,36,36,22,20,73,73,96,91,15,16,3,4,0.8,0.9
2026-03-25T2100,1772A,126.54,43.8622,吉林市,哈达湾,细颗粒物(PM2.5),338,414,108,288,80,116,116,146,140,55,17,21,9,1.9,0.8
2026-03-25T2100,1773A,126.5843,43.8358,吉林市,东局子,细颗粒物(PM2.5),278,357,110,228,79,91,91,140,130,46,17,12,6,1.8,1
2026-03-25T2100,1774A,126.5051,43.8243,吉林市,电力学院,细颗粒物(PM2.5),275,387,115,225,74,78,78,161,145,61,20,15,8,2.2,0.9
2026-03-25T2100,1775A,126.6133,43.8971,吉林市,江北,细颗粒物(PM2.5),366,368,111,316,93,77,77,151,133,58,19,18,10,1.7,0.8
2026-03-25T2100,1776A,126.5549,43.8304,吉林市,江南公园,细颗粒物(PM2.5),256,282,97,206,73,99,99,143,136,45,17,16,9,1.5,0.8
2026-03-25T2100,2868A,126.4737,43.953,吉林市,九站,颗粒物(PM10),404,504,128,350,93,61,61,149,124,87,24,24,11,2.2,0.8
2026-03-25T2100,1299A,116.9866,36.6118,济南市,科干所,细颗粒物(PM2.5),104,112,96,64,54,NA,NA,153,153,15,14,9,8,0.7,0.7
2026-03-25T2100,1300A,116.9379,36.6652,济南市,农科所,细颗粒物(PM2.5),98,105,100,59,60,128,128,147,146,17,17,7,7,0.5,0.5
2026-03-25T2100,1301A,117.1265,36.6736,济南市,开发区,细颗粒物(PM2.5),114,105,85,75,54,142,142,158,158,13,13,7,6,0.7,0.7
2026-03-25T2100,1303A,117.0616,36.6865,济南市,省种子仓库,细颗粒物(PM2.5),101,114,98,61,51,136,136,154,154,15,14,6,5,0.7,0.6
2026-03-25T2100,1304A,116.9495185,36.644937,济南市,机床二厂,细颗粒物(PM2.5),100,110,101,60,58,128,128,146,145,15,16,8,7,0.6,0.6
2026-03-25T2100,1305A,117.0496,36.6629,济南市,市监测站,颗粒物(PM10),95,112,93,57,50,135,135,148,148,15,15,6,5,0.6,0.6
2026-03-25T2100,1306A,116.7674,36.5458,济南市,长清党校,颗粒物(PM10),91,107,108,49,61,121,121,142,141,11,16,8,8,0.5,0.6
2026-03-25T2100,1961A,117.5323,36.6865,济南市,东山小学,NA,NA,117,92,NA,48,NA,NA,156,NA,22,20,5,5,0.6,0.6
2026-03-25T2100,3059A,117.7181,36.205,济南市,泰兴公司,"颗粒物(PM10),细颗粒物(PM2.5)",100,119,110,60,60,130,130,151,149,20,44,12,13,0.8,1
2026-03-25T2100,3064A,117.6861,36.2172,济南市,莱芜战役纪念馆,颗粒物(PM10),95,112,107,54,52,136,136,152,151,17,31,7,8,0.6,0.7
2026-03-25T2100,3494A,117.1673,36.9782,济南市,济阳区政府,细颗粒物(PM2.5),108,122,109,68,62,115,115,132,131,24,24,8,9,0.4,0.4
2026-03-25T2100,3495A,117.1168,36.6299,济南市,锦屏中学,细颗粒物(PM2.5),104,88,82,64,53,129,129,146,146,15,14,6,6,0.2,0.3
2026-03-25T2100,4108A,117.7107,36.2385,济南市,山财大街5号,细颗粒物(PM2.5),103,112,102,63,58,143,143,156,155,19,35,10,13,0.6,0.6
2026-03-25T2100,4109A,116.9744,36.6889,济南市,无影山路12号,细颗粒物(PM2.5),102,92,87,62,59,122,122,140,138,17,17,7,6,0.7,0.7
2026-03-25T2100,1653A,116.6229,35.4288,济宁市,火炬城,细颗粒物(PM2.5),96,83,84,58,61,99,99,128,124,17,17,5,5,0.7,0.7
2026-03-25T2100,3500A,116.5808,35.3703,济宁市,北湖一中,细颗粒物(PM2.5),90,75,84,55,62,105,105,131,128,14,15,12,9,0.7,0.6
2026-03-25T2100,3501A,116.8251,35.5592,济宁市,服务中心,细颗粒物(PM2.5),100,98,117,60,72,114,114,136,134,15,19,4,6,0.6,0.8
2026-03-25T2100,3678A,116.5907,35.4054,济宁市,市第七中学,细颗粒物(PM2.5),82,76,84,51,58,112,112,142,138,15,17,8,7,0.7,0.6
2026-03-25T2100,4111A,116.6075,35.4566,济宁市,任和路,细颗粒物(PM2.5),96,110,114,58,62,123,123,139,138,13,16,6,6,0.7,0.6
2026-03-25T2100,4112A,116.5648,35.3921,济宁市,文体南路1号,颗粒物(PM10),87,101,108,45,61,121,121,138,136,14,18,5,6,0.6,0.6
2026-03-25T2100,4122A,112.6071,35.1015,济源市,市委党校,颗粒物(PM10),108,140,113,61,50,49,49,130,117,56,28,7,10,0.4,0.6
2026-03-25T2100,4123A,112.596,35.0702,济源市,沁园中路1号,颗粒物(PM10),83,96,95,47,49,71,71,123,115,34,33,5,9,0.6,1
2026-03-25T2100,2255A,130.2749,46.8028,佳木斯市,佳纺,细颗粒物(PM2.5),119,117,200,80,169,NA,NA,127,108,65,33,11,7,0.7,1
2026-03-25T2100,2257A,130.3258,46.7975,佳木斯市,环保局,细颗粒物(PM2.5),104,88,145,64,127,50,50,126,100,24,28,9,7,0.5,0.7
2026-03-25T2100,4285A,130.363,46.806,佳木斯市,顺和街,细颗粒物(PM2.5),100,80,140,60,129,58,58,112,91,16,25,6,6,0.5,0.8
2026-03-25T2100,4286A,130.3952,46.8268,佳木斯市,长安路196号,细颗粒物(PM2.5),86,86,164,53,141,47,47,105,84,13,25,6,6,0.5,0.8
2026-03-25T2100,1252A,120.7439,30.778,嘉兴市,清河小学,颗粒物(PM10),71,79,51,36,33,78,78,138,131,56,27,6,6,0.6,0.5
2026-03-25T2100,1253A,120.7261,30.7477,嘉兴市,嘉兴学院,细颗粒物(PM2.5),84,84,67,52,41,103,103,142,138,38,24,6,6,1.0,0.9
2026-03-25T2100,2872A,120.7845,30.7524,嘉兴市,南湖区残联,NA,NA,NA,45,NA,43,77,77,141,134,46,23,4,4,0.9,0.7
2026-03-25T2100,3407A,120.6915,30.7741,嘉兴市,秀洲住建,细颗粒物(PM2.5),82,87,57,51,42,86,86,142,135,41,26,8,8,0.7,0.6
2026-03-25T2100,1945A,98.291,39.7705,嘉峪关市,气象局,颗粒物(PM10),80,92,90,40,33,121,121,130,130,11,16,8,9,0.4,0.6
2026-03-25T2100,2884A,98.2672,39.7978,嘉峪关市,酒钢宾馆,颗粒物(PM10),88,102,97,42,35,108,108,121,121,22,17,78,27,1.5,0.8
2026-03-25T2100,3248A,98.2644,39.7723,嘉峪关市,雄关区,颗粒物(PM10),80,92,92,35,30,109,109,122,121,17,18,10,13,0.5,0.4
2026-03-25T2100,1383A,113.1063,22.6058,江门市,北街,,34,34,37,23,22,66,66,131,119,18,18,/,/,/,/
2026-03-25T2100,1384A,113.073,22.5835,江门市,西区,,49,49,41,21,22,57,57,129,116,21,19,/,/,/,/
2026-03-25T2100,1385A,113.0218,22.531,江门市,圭峰西,,25,NA,34,17,22,66,66,124,113,9,11,/,/,/,/
2026-03-25T2100,1386A,113.0826,22.5947,江门市,东湖,,48,36,35,33,21,58,58,127,115,18,16,8,8,0.6,0.5
2026-03-25T2100,3311A,113.1077,22.5647,江门市,江海富民,,48,48,44,21,25,66,66,130,117,19,20,/,/,0.6,0.5
2026-03-25T2100,3449A,113.0496,22.4669,江门市,新会银湖,,28,28,38,13,22,58,58,112,102,20,26,8,7,0.2,0.3
2026-03-25T2100,3335A,113.3137,35.2643,焦作市,马村街道办,颗粒物(PM10),90,105,105,50,63,79,79,125,118,30,25,8,10,0.4,0.9
2026-03-25T2100,3336A,113.2464,35.2374,焦作市,焦作技师学院,颗粒物(PM10),91,107,100,50,57,62,62,117,112,42,29,8,10,0.6,0.7
2026-03-25T2100,3477A,113.1656,35.2536,焦作市,中站许衡医院,颗粒物(PM10),62,66,90,34,45,97,97,120,120,26,21,10,13,0.6,0.9
2026-03-25T2100,3981A,113.2456,35.18,焦作市,原李万街道办,颗粒物(PM10),100,119,93,41,52,52,52,114,105,54,28,12,12,0.5,0.6
2026-03-25T2100,4264A,113.234,35.219,焦作市,新安路1731号,颗粒物(PM10),79,90,104,41,59,77,77,125,121,42,29,10,14,0.7,0.9
2026-03-25T2100,4295A,113.2722,35.2121,焦作市,人民路3066号,颗粒物(PM10),77,87,100,42,59,78,78,126,121,37,27,9,11,0.4,0.6
2026-03-25T2100,1708A,116.3701,23.5345,揭阳市,新兴,细颗粒物(PM2.5),72,53,64,46,39,94,94,126,117,23,29,15,10,1.0,0.9
2026-03-25T2100,1709A,116.3261,23.5442,揭阳市,西马,NA,NA,NA,65,NA,39,NA,NA,128,122,18,25,9,7,1.0,1
2026-03-25T2100,1710A,116.361,23.5627,揭阳市,东兴,细颗粒物(PM2.5),60,42,66,40,41,94,94,140,128,20,26,8,8,/,/
2026-03-25T2100,1711A,116.4151,23.5295,揭阳市,渔湖,细颗粒物(PM2.5),80,54,68,50,50,114,114,153,143,17,29,4,8,/,/
2026-03-25T2100,3320A,116.4028,23.5699,揭阳市,曲溪,细颗粒物(PM2.5),54,53,64,37,41,105,105,140,133,14,27,5,11,0.6,0.9
2026-03-25T2100,1944A,102.1691,38.5166,金昌市,天庆家园,颗粒物(PM10),80,92,105,39,37,108,108,126,124,17,22,192,28,0.5,0.8
2026-03-25T2100,4022A,102.1648,38.5369,金昌市,金川区人防中心,颗粒物(PM10),88,102,109,37,42,116,116,123,123,12,18,8,12,0.5,0.7
2026-03-25T2100,4239A,102.193042,38.531887,金昌市,长春路96号,颗粒物(PM10),76,86,95,33,33,113,113,121,121,9,17,8,15,1.0,0.8
2026-03-25T2100,1262A,119.6478,29.0773,金华市,十五中,,43,43,29,21,19,52,52,116,105,44,26,3,3,0.7,0.6
2026-03-25T2100,1263A,119.6859,29.1032,金华市,监测站,,40,36,24,28,25,45,45,122,110,61,33,4,3,0.7,0.6
2026-03-25T2100,3659A,119.656,29.1132,金华市,气象局,,46,45,34,25,26,32,32,109,104,91,33,3,3,0.8,0.8
2026-03-25T2100,1767A,121.1114,41.0879,锦州市,南山,细颗粒物(PM2.5),163,137,104,124,93,51,51,133,110,65,32,14,13,1.1,0.8
2026-03-25T2100,1768A,121.060361,40.842794,锦州市,开发区,细颗粒物(PM2.5),198,206,141,148,104,5,5,99,70,140,53,15,16,1.6,1
2026-03-25T2100,1769A,121.1836,41.1118,锦州市,百股街道,细颗粒物(PM2.5),159,122,107,121,99,64,64,129,104,50,35,15,16,1.3,1
2026-03-25T2100,1770A,121.1176,41.1224,锦州市,天安街道,细颗粒物(PM2.5),179,176,110,135,96,20,20,126,102,90,36,22,13,1.5,0.7
2026-03-25T2100,1771A,121.1303,41.1385,锦州市,北湖公园,细颗粒物(PM2.5),149,143,107,113,96,50,50,135,112,63,31,18,11,1.4,0.8
2026-03-25T2100,2160A,112.8496,35.5051,晋城市,自来水公司,颗粒物(PM10),75,84,104,27,43,117,117,136,134,21,21,6,6,0.3,0.7
2026-03-25T2100,2162A,112.8509,35.4886,晋城市,市环保局,颗粒物(PM10),75,85,94,38,51,115,115,139,136,17,17,8,8,0.4,0.9
2026-03-25T2100,3620A,112.8258,35.4804,晋城市,泽州一中,颗粒物(PM10),73,81,99,28,48,116,116,137,135,18,21,5,6,0.8,1.2
2026-03-25T2100,4078A,112.8246,35.5152,晋城市,前书院路,颗粒物(PM10),83,96,105,30,43,104,104,132,129,22,20,8,8,0.7,1.4
2026-03-25T2100,4079A,112.8864,35.4773,晋城市,祥云街666号,颗粒物(PM10),63,67,92,40,57,122,122,133,132,12,18,9,7,0.4,0.7
2026-03-25T2100,2174A,112.6992,37.6984,晋中市,榆次区政府,颗粒物(PM10),108,139,125,57,66,43,43,124,108,68,30,13,17,0.6,0.8
2026-03-25T2100,2865A,112.7195,37.683,晋中市,榆次三中,颗粒物(PM10),132,202,136,72,60,25,25,127,102,73,32,14,16,1.2,0.9
2026-03-25T2100,4080A,112.7375,37.7215,晋中市,广安街188号,颗粒物(PM10),134,206,138,81,62,20,20,124,103,66,30,12,15,0.7,0.7
2026-03-25T2100,4200A,112.7478,37.6954,晋中市,迎宾街26号,颗粒物(PM10),119,168,130,68,66,48,48,128,111,55,29,14,16,1.1,0.8
2026-03-25T2100,2439A,112.2012,31.048,荆门市,竹园小学,细颗粒物(PM2.5),96,106,103,58,58,86,86,110,101,20,25,1,1,1.2,1
2026-03-25T2100,2440A,112.1968,30.9892,荆门市,掇刀,细颗粒物(PM2.5),111,112,98,72,57,92,92,116,114,14,26,9,7,0.6,0.7
2026-03-25T2100,3012A,112.1849,31.0361,荆门市,西山林语,颗粒物(PM10),75,85,76,33,40,79,79,106,95,17,14,5,4,0.7,0.7
2026-03-25T2100,3547A,112.1631,31.0134,荆门市,龙泉中学南校,颗粒物(PM10),90,105,91,52,45,92,92,112,107,13,15,3,4,0.4,0.3
2026-03-25T2100,4124A,112.2213,31.0654,荆门市,新台西路6号,细颗粒物(PM2.5),82,76,99,51,65,86,86,104,98,27,31,6,6,0.6,0.6
2026-03-25T2100,1844A,112.2493,30.3198,荆州市,市图书馆,颗粒物(PM10),51,51,60,34,44,78,78,111,107,35,26,6,7,0.6,0.6
2026-03-25T2100,1845A,112.2009,30.3543,荆州市,市委党校,颗粒物(PM10),53,54,74,28,54,58,58,95,87,42,30,7,7,0.8,0.8
2026-03-25T2100,3194A,112.2749,30.3124,荆州市,管委会,细颗粒物(PM2.5),80,63,70,50,53,65,65,105,96,36,23,11,10,0.7,0.7
2026-03-25T2100,4268A,112.1722,30.3366,荆州市,学苑路85号,细颗粒物(PM2.5),60,46,74,40,46,72,72,114,108,20,16,1,1,0.8,0.8
2026-03-25T2100,2343A,117.2114,29.2931,景德镇市,老干部活动中心,细颗粒物(PM2.5),64,62,36,42,27,58,58,111,104,26,11,11,6,0.9,0.5
2026-03-25T2100,2344A,117.1893,29.2789,景德镇市,兽医站,细颗粒物(PM2.5),64,65,40,42,25,56,56,122,112,35,13,4,4,1.1,0.8
2026-03-25T2100,2346A,117.246,29.2958,景德镇市,陶研所,细颗粒物(PM2.5),60,52,30,40,26,49,49,111,98,30,20,6,4,1.2,0.9
2026-03-25T2100,4289A,117.154766,29.256967,景德镇市,青少年活动中心,细颗粒物(PM2.5),66,62,42,43,33,72,72,120,112,23,19,24,14,/,/
2026-03-25T2100,1803A,115.9873,29.6816,九江市,十里,细颗粒物(PM2.5),108,98,78,68,52,88,88,115,110,35,33,10,7,1.1,1.1
2026-03-25T2100,1804A,115.9583,29.7047,九江市,茅山头,细颗粒物(PM2.5),114,99,73,75,58,80,80,114,110,36,32,3,4,0.8,0.7
2026-03-25T2100,1805A,115.9877,29.7295,九江市,西园,细颗粒物(PM2.5),96,92,72,58,51,86,86,131,121,53,48,4,5,0.8,0.8
2026-03-25T2100,1808A,115.9112,29.6038,九江市,综合工业园,细颗粒物(PM2.5),88,95,82,54,55,46,46,118,102,38,39,9,9,0.8,0.8
2026-03-25T2100,3190A,116.0254,29.6995,九江市,外国语学校,细颗粒物(PM2.5),107,83,66,67,57,79,79,119,111,27,28,8,7,0.9,0.9
2026-03-25T2100,4253A,116.010205,29.659402,九江市,莲花大道8号,细颗粒物(PM2.5),103,91,81,63,57,103,103,122,121,16,28,6,5,0.7,0.8
2026-03-25T2100,4240A,98.495752,39.733935,酒泉市,玉门东路5号,NA,NA,117,105,43,39,96,96,111,110,12,12,NA,10,NA,0.4
2026-03-25T2100,4241A,98.5099,39.7506,酒泉市,北大街108号,细颗粒物(PM2.5),100,114,95,60,41,88,88,104,102,14,15,9,11,0.4,0.4
2026-03-25T2100,2698A,76.0071,39.466,喀什地区,巡警大队,,37,37,42,9,8,118,118,119,119,8,12,4,3,0.2,0.3
2026-03-25T2100,2699A,75.9756,39.4693,喀什地区,吾办,,36,36,59,7,17,109,109,113,113,16,18,3,3,0.3,0.4
2026-03-25T2100,4027A,75.9485,39.4688,喀什地区,老干局,,37,30,83,7,15,118,118,119,119,11,20,3,3,0.3,0.4
2026-03-25T2100,1824A,114.3389,34.778,开封市,肿瘤医院,细颗粒物(PM2.5),84,94,108,52,80,80,80,132,120,24,25,7,9,0.6,0.7
2026-03-25T2100,1826A,114.2884,34.7966,开封市,世纪星幼儿园,细颗粒物(PM2.5),86,92,103,53,67,82,82,132,121,24,24,12,11,0.6,0.7
2026-03-25T2100,3147A,114.3434,34.8101,开封市,龙亭公园,细颗粒物(PM2.5),106,84,113,66,69,88,88,140,128,24,26,10,10,0.9,1
2026-03-25T2100,3210A,114.3645,34.7955,开封市,汴京公园,细颗粒物(PM2.5),101,95,109,61,79,78,78,139,126,26,25,6,6,0.6,0.7
2026-03-25T2100,3473A,114.2485,34.8306,开封市,技师学院,细颗粒物(PM2.5),78,NA,111,49,72,89,89,138,127,17,20,8,17,1.0,1.2
2026-03-25T2100,3592A,114.4518,34.7503,开封市,祥符区生态环境局,细颗粒物(PM2.5),103,107,112,63,77,70,70,131,117,33,26,6,10,0.6,0.7
2026-03-25T2100,1951A,84.886,45.6029,克拉玛依市,长征新村,,28,26,24,11,6,88,88,89,89,5,3,5,5,0.3,0.3
2026-03-25T2100,1952A,84.8894,45.5827,克拉玛依市,南林小区,NA,NA,35,24,3,1,NA,NA,96,96,NA,2,NA,4,0.2,0.1
2026-03-25T2100,1954A,84.896,44.3328,克拉玛依市,独山子区,,29,16,54,11,10,91,91,100,99,7,4,5,4,0.4,0.4
2026-03-25T2100,1955A,85.6888,46.0909,克拉玛依市,乌尔禾区商贸楼,,32,32,27,15,12,80,80,86,86,5,2,1,2,0.2,0.1
2026-03-25T2100,3612A,85.1045,45.6895,克拉玛依市,白碱滩区新站,,36,36,28,14,5,95,95,98,98,3,2,4,4,0.5,0.5
2026-03-25T2100,2697A,76.1457,39.7143,克孜勒苏柯尔克孜自治州,市人民政府,,41,41,51,16,14,113,113,117,116,4,2,4,4,0.3,0.2
2026-03-25T2100,3665A,76.1654,39.7157,克孜勒苏柯尔克孜自治州,克州文化中心,,48,48,56,21,15,112,112,120,112,8,3,7,6,0.2,0.2
2026-03-25T2100,1450A,102.8203,24.889,昆明市,呈贡新区,,49,44,61,34,51,111,111,139,128,13,17,1,7,0.6,0.9
2026-03-25T2100,1452A,102.7253,25.0904,昆明市,龙泉镇,,45,45,56,28,42,100,100,117,111,11,23,5,4,0.7,0.7
2026-03-25T2100,1453A,102.7267,25.0378,昆明市,东风东路,,38,33,59,26,45,99,99,126,115,16,13,4,4,0.5,0.7
2026-03-25T2100,1454A,102.6744,25.0671,昆明市,金鼎山,,44,44,63,28,46,110,110,122,116,10,22,4,4,0.6,0.8
2026-03-25T2100,1455A,102.6643,25.0401,昆明市,碧鸡广场,,50,NA,60,35,44,101,101,120,111,15,23,6,6,0.5,0.6
2026-03-25T2100,3179A,102.7491,25.012,昆明市,官渡区博物馆,,39,37,59,27,47,108,108,126,117,11,17,3,4,0.5,0.7
2026-03-25T2100,3375A,102.8016,24.8336,昆明市,青年创业园,,46,39,64,32,52,113,113,136,124,5,13,4,8,0.5,0.7
2026-03-25T2100,3550A,102.8,24.9787,昆明市,昆明学院,,42,38,63,29,42,103,103,130,121,12,14,4,5,0.6,0.8
2026-03-25T2100,3551A,102.5969,24.6738,昆明市,晋宁区生态环境分局,NA,NA,69,74,44,57,NA,NA,144,134,10,12,3,9,0.6,0.8
2026-03-25T2100,3552A,102.6673,24.9861,昆明市,云天化总部,,42,30,59,29,38,111,111,127,119,8,20,3,5,0.4,0.6
2026-03-25T2100,1456A,91.132,29.6515,拉萨市,八廓街,,43,30,22,13,7,137,137,149,149,10,7,6,5,0.3,0.3
2026-03-25T2100,1457A,91.1221,29.6748,拉萨市,市环保局,,37,18,24,3,8,116,116,140,139,20,8,4,4,0.4,0.4
2026-03-25T2100,1458A,91.0874,29.6476,拉萨市,区监测站,,40,10,14,6,7,128,128,138,138,15,9,4,4,0.5,0.4
2026-03-25T2100,1459A,91.1774,29.6541,拉萨市,西藏大学,,41,22,22,6,12,130,130,133,133,11,9,4,4,0.3,0.3
2026-03-25T2100,1460A,90.9798,29.6586,拉萨市,区辐射站,,35,16,18,7,8,111,111,132,132,22,11,5,5,0.4,0.3
2026-03-25T2100,1461A,91.0831,29.6292,拉萨市,拉萨火车站,,41,16,18,7,7,129,129,140,140,10,8,3,4,0.5,0.4
2026-03-25T2100,2520A,109.2203,23.7252,来宾市,来宾技工学校,细颗粒物(PM2.5),68,60,44,44,29,66,66,93,93,16,12,6,10,1.0,1.1
2026-03-25T2100,3535A,109.1781,23.7293,来宾市,兴宾区政府,细颗粒物(PM2.5),92,79,50,56,30,55,55,96,96,32,12,10,11,0.8,1
2026-03-25T2100,4002A,109.2312,23.7428,来宾市,中南小学,细颗粒物(PM2.5),94,75,45,57,29,54,54,98,96,27,12,9,11,0.9,0.9
2026-03-25T2100,1479A,103.8309,36.0467,兰州市,铁路设计院,颗粒物(PM10),62,66,89,29,38,96,96,97,97,20,51,4,11,0.3,0.9
2026-03-25T2100,3241A,103.7439,36.0841,兰州市,百合公园,颗粒物(PM10),64,69,85,27,44,81,81,93,93,21,45,8,9,0.4,0.7
2026-03-25T2100,3242A,103.9613,35.9985,兰州市,和平,,45,45,81,30,34,93,93,111,111,15,21,11,12,0.6,0.6
2026-03-25T2100,4236A,103.629272,36.093822,兰州市,庄浪东路808号,颗粒物(PM10),60,63,93,33,40,93,93,94,94,24,38,6,10,0.3,0.6
2026-03-25T2100,4237A,103.7251,36.104344,兰州市,安宁西路88号,颗粒物(PM10),69,76,101,37,49,92,92,105,105,25,42,8,10,0.3,0.6
2026-03-25T2100,4238A,103.846982,36.067567,兰州市,北滨河东路1号,颗粒物(PM10),58,61,89,33,43,85,85,98,98,28,51,9,11,0.7,1
2026-03-25T2100,1067A,116.6712,39.5109,廊坊市,药材公司,细颗粒物(PM2.5),155,197,178,118,126,138,138,181,178,33,27,8,5,0.8,0.8
2026-03-25T2100,1068A,116.7215,39.5592,廊坊市,开发区,细颗粒物(PM2.5),170,200,178,129,126,139,139,172,172,28,25,4,4,0.6,0.6
2026-03-25T2100,1070A,116.7246,39.5273,廊坊市,北华航天学院,细颗粒物(PM2.5),156,204,179,119,117,80,80,184,173,71,28,6,7,1.0,0.7
2026-03-25T2100,2919A,116.7022,39.5454,廊坊市,河北工业大学,细颗粒物(PM2.5),153,208,188,117,120,131,131,179,177,33,24,5,6,0.7,0.7
2026-03-25T2100,2536A,103.7629,29.5844,乐山市,牛耳桥,细颗粒物(PM2.5),66,62,54,43,35,44,44,65,65,37,28,6,7,0.6,0.6
2026-03-25T2100,2537A,103.7501,29.6002,乐山市,市第三水厂,"颗粒物(PM10),细颗粒物(PM2.5)",58,60,54,39,34,34,34,65,64,46,31,4,5,0.8,0.7
2026-03-25T2100,2538A,103.7571,29.5664,乐山市,市监测站,颗粒物(PM10),61,65,59,39,33,33,33,71,62,40,25,2,3,0.5,0.6
2026-03-25T2100,3361A,103.7313,29.563,乐山市,理工大学,细颗粒物(PM2.5),60,57,49,40,191,26,26,62,59,45,30,6,7,0.8,0.7
2026-03-25T2100,2599A,100.2497,26.8802,丽江市,丽江古城,,30,21,23,15,9,96,96,105,103,14,9,10,9,0.4,0.5
2026-03-25T2100,2600A,100.2203,26.8906,丽江市,市中心,,32,NA,11,12,12,102,102,105,102,13,13,7,8,0.5,0.4
2026-03-25T2100,1267A,119.9141,28.4513,丽水市,监测站大楼,,33,33,19,18,12,69,69,94,93,19,14,4,4,0.6,0.5
2026-03-25T2100,1268A,119.93,28.4589,丽水市,莲都小学,,28,28,18,14,11,81,81,96,96,19,15,/,/,/,/
2026-03-25T2100,1269A,119.8794,28.4232,丽水市,余庄前,,26,26,20,13,11,29,29,80,73,12,14,4,4,0.4,0.6
2026-03-25T2100,1173A,119.1759,34.5885,连云港市,市环境监测站,细颗粒物(PM2.5),114,107,94,75,71,107,107,129,129,31,26,9,11,0.6,0.6
2026-03-25T2100,3000A,119.3577,34.6971,连云港市,德源药业,细颗粒物(PM2.5),101,102,96,61,59,114,114,128,128,27,40,6,7,0.7,0.9
2026-03-25T2100,3007A,119.178,34.8442,连云港市,新城一中,细颗粒物(PM2.5),123,109,97,85,77,74,74,134,124,56,41,8,12,0.7,0.7
2026-03-25T2100,3008A,119.3607,34.7519,连云港市,胡沟管理处,颗粒物(PM10),79,90,99,48,62,135,135,122,122,23,39,11,14,0.3,0.6
2026-03-25T2100,3009A,119.1478,34.5913,连云港市,矿山设计院,细颗粒物(PM2.5),103,105,101,63,66,131,131,135,135,32,38,11,10,0.8,0.9
2026-03-25T2100,3434A,119.2414,34.6539,连云港市,工贸学校,细颗粒物(PM2.5),108,102,92,68,66,127,127,132,132,24,21,11,12,0.5,0.5
2026-03-25T2100,3664A,119.4171,34.734,连云港市,连云街道,细颗粒物(PM2.5),106,105,110,66,69,139,139,128,128,19,30,6,8,0.5,0.7
2026-03-25T2100,2573A,102.2629,27.8981,凉山彝族自治州,西昌市政府,,35,26,23,14,15,109,109,115,114,8,11,11,10,0.9,0.6
2026-03-25T2100,2574A,102.2686,27.885,凉山彝族自治州,凉山州政府,,30,23,22,12,12,93,93,100,100,9,11,10,5,0.8,0.5
2026-03-25T2100,4229A,102.2342,27.8859,凉山彝族自治州,凯乐南路30号,,33,23,25,9,11,105,105,107,107,6,13,1,6,0.3,0.5
2026-03-25T2100,2212A,123.1978,41.2036,辽阳市,宏伟区,细颗粒物(PM2.5),198,176,111,148,88,95,95,144,133,33,16,15,12,1.3,0.9
2026-03-25T2100,2213A,123.1684,41.2497,辽阳市,新华园,细颗粒物(PM2.5),228,248,124,178,91,75,75,141,125,51,23,18,15,1.5,0.9
2026-03-25T2100,2214A,123.2355,41.2663,辽阳市,滨河路,细颗粒物(PM2.5),218,224,105,168,82,60,60,137,108,61,26,13,10,1.5,0.9
2026-03-25T2100,4083A,123.153,41.2874,辽阳市,铁西路150号,细颗粒物(PM2.5),254,296,130,204,92,45,45,124,107,72,25,22,14,1.9,0.9
2026-03-25T2100,2227A,125.1359,42.8845,辽源市,环保局,细颗粒物(PM2.5),206,205,105,156,76,26,26,139,108,67,23,11,9,1.5,0.8
2026-03-25T2100,4085A,125.0998,42.9134,辽源市,安宁大街333号,细颗粒物(PM2.5),226,237,124,176,82,60,60,140,114,38,20,8,7,1.2,0.8
2026-03-25T2100,1625A,115.9789,36.4372,聊城市,区政府,颗粒物(PM10),102,125,131,56,79,94,94,130,125,22,18,8,8,0.8,0.8
2026-03-25T2100,3200A,115.9772,36.4986,聊城市,监控中心,颗粒物(PM10),102,123,132,61,82,115,115,147,145,17,17,14,13,0.8,0.8
2026-03-25T2100,3513A,116.0443,36.436,聊城市,九州社区,细颗粒物(PM2.5),104,108,118,64,80,108,108,143,140,20,20,7,5,0.7,0.8
2026-03-25T2100,4018A,116.0564,36.4609,聊城市,星美广场,颗粒物(PM10),102,125,133,59,78,102,102,134,132,21,19,8,8,0.7,0.8
2026-03-25T2100,4113A,116.0091,36.4495,聊城市,利民路,细颗粒物(PM2.5),107,106,118,67,80,111,111,146,144,19,17,8,8,0.6,0.6
2026-03-25T2100,2632A,94.3683,29.6373,林芝市,林芝监测站,,34,12,6,10,4,107,107,117,117,3,2,3,3,0.4,0.4
2026-03-25T2100,2633A,94.3616,29.6634,林芝市,林芝人民医院,,36,14,7,13,4,114,114,122,122,3,3,3,3,0.5,0.5
2026-03-25T2100,2603A,100.0779,23.8981,临沧市,市环保局,细颗粒物(PM2.5),80,66,39,50,32,100,100,124,120,10,10,12,9,0.5,0.6
2026-03-25T2100,2604A,100.0894,23.882,临沧市,市气象局,细颗粒物(PM2.5),56,43,37,38,31,99,99,126,122,11,10,8,8,0.4,0.3
2026-03-25T2100,1733A,111.5552,36.0791,临汾市,临钢医院,细颗粒物(PM2.5),124,168,111,86,64,104,104,145,140,42,29,15,10,1.7,1
2026-03-25T2100,1734A,111.4984,36.0734,临汾市,技工学校,细颗粒物(PM2.5),158,172,110,120,74,87,87,135,126,46,27,13,10,1.8,0.8
2026-03-25T2100,1736A,111.5017,36.0857,临汾市,市委,细颗粒物(PM2.5),136,184,120,99,63,99,99,140,133,42,27,14,8,1.9,1.1
2026-03-25T2100,3018A,111.5048,36.1015,临汾市,唐尧大酒店,细颗粒物(PM2.5),132,174,122,95,62,100,100,134,130,40,27,17,10,1.8,1
2026-03-25T2100,4244A,111.4879,36.053,临汾市,启星学校,细颗粒物(PM2.5),134,178,108,97,62,88,88,137,127,60,36,14,8,1.9,1
2026-03-25T2100,4271A,103.2464,35.6123,临夏回族自治州,滨河东路1号,,35,35,112,20,48,76,76,98,96,16,29,8,10,0.3,0.6
2026-03-25T2100,4310A,103.207136,35.599807,临夏回族自治州,新华街21号,,33,NA,97,23,50,79,79,83,83,9,16,6,9,0.7,0.9
2026-03-25T2100,1618A,118.3429,35.0532,临沂市,沂河小区,细颗粒物(PM2.5),104,119,119,64,74,94,94,139,132,31,30,22,17,0.5,0.6
2026-03-25T2100,1619A,118.2962,35.0568,临沂市,鲁南制药厂,细颗粒物(PM2.5),100,100,124,60,82,103,103,143,138,30,41,18,17,0.5,0.6
2026-03-25T2100,1620A,118.2793,34.9976,临沂市,新光毛纺厂,细颗粒物(PM2.5),102,117,116,62,83,92,92,140,132,40,42,16,19,0.4,0.6
2026-03-25T2100,1621A,118.3955,35.0889,临沂市,河东保险公司,细颗粒物(PM2.5),106,114,116,66,82,111,111,152,146,25,32,17,12,0.3,0.5
2026-03-25T2100,3370A,118.3563,35.0215,临沂市,十里堡居委,细颗粒物(PM2.5),110,117,115,71,82,91,91,143,135,41,44,20,16,0.6,0.7
2026-03-25T2100,3496A,118.359,35.1067,临沂市,南坊新区,NA,NA,90,104,59,77,115,115,147,142,24,31,12,14,NA,0.7
2026-03-25T2100,3860A,118.3915,35.0297,临沂市,皇山花园小区,细颗粒物(PM2.5),111,114,114,72,82,109,109,145,140,29,42,17,16,0.6,0.7
2026-03-25T2100,1870A,109.4854,24.3898,柳州市,柳东小学,细颗粒物(PM2.5),64,56,27,42,19,52,52,81,80,16,8,5,5,1.1,1
2026-03-25T2100,1871A,109.4109,24.3304,柳州市,环保监测站,细颗粒物(PM2.5),119,98,39,80,28,21,21,74,70,43,18,14,12,1.4,1.2
2026-03-25T2100,1872A,109.3886,24.3408,柳州市,河西水厂,细颗粒物(PM2.5),109,93,52,69,32,19,19,50,NA,42,23,16,22,1.2,1.1
2026-03-25T2100,1873A,109.4263,24.2951,柳州市,市四中,细颗粒物(PM2.5),113,102,40,74,26,NA,NA,92,92,40,14,13,11,1.4,1.3
2026-03-25T2100,1874A,109.396,24.3658,柳州市,市九中,细颗粒物(PM2.5),125,124,50,87,29,21,21,58,56,32,18,17,19,1.2,1.2
2026-03-25T2100,1875A,109.4912,24.3164,柳州市,古亭山,细颗粒物(PM2.5),66,62,40,43,18,45,45,90,89,21,10,7,7,1.1,0.9
2026-03-25T2100,3402A,109.5422,24.3994,柳州市,市二中,细颗粒物(PM2.5),76,62,35,48,19,47,47,74,74,17,11,7,7,1.0,0.9
2026-03-25T2100,2307A,116.5078,31.7369,六安市,监测大楼,,49,48,54,34,35,113,113,122,118,14,21,4,4,0.4,0.4
2026-03-25T2100,2308A,116.4738,31.7642,六安市,皖西学院,颗粒物(PM10),58,61,57,31,37,121,121,132,131,12,17,4,4,0.4,0.4
2026-03-25T2100,2309A,116.4997,31.7904,六安市,朝阳厂,,43,42,59,30,41,112,112,127,125,24,25,5,5,0.4,0.4
2026-03-25T2100,2310A,116.5566,31.7885,六安市,开发区,,49,48,64,34,44,120,120,139,133,12,24,5,5,0.4,0.4
2026-03-25T2100,2577A,104.8293,26.592,六盘水市,黄土坡,,34,34,44,23,29,103,103,124,122,15,13,11,6,0.4,0.5
2026-03-25T2100,2579A,104.8481,26.5898,六盘水市,民中,,42,42,43,27,31,89,89,120,116,18,11,7,5,0.7,0.6
2026-03-25T2100,2580A,104.9541,26.5506,六盘水市,双水,,48,48,51,31,29,87,87,114,113,14,11,6,5,0.6,0.6
2026-03-25T2100,4151A,104.8899,26.5685,六盘水市,钟山大道中段564号,,45,44,54,31,31,87,87,121,118,15,9,10,8,0.7,0.6
2026-03-25T2100,2336A,117.022,25.1031,龙岩市,龙岩市监测站,,30,NA,28,21,22,78,78,109,102,10,12,12,12,0.7,0.7
2026-03-25T2100,2337A,117.0257,25.0662,龙岩市,闽西职业技术学院,,45,45,37,28,22,47,47,104,94,25,13,6,7,0.7,0.7
2026-03-25T2100,2338A,117.0195,25.0306,龙岩市,龙岩学院,,36,NA,33,25,22,59,59,106,97,9,11,5,5,/,/
2026-03-25T2100,2885A,104.9344,33.3827,陇南市,滨江中学,NA,NA,65,64,34,26,60,60,74,63,19,15,7,7,NA,0.7
2026-03-25T2100,3247A,104.9551,33.3709,陇南市,市总工会,,44,44,63,29,24,60,60,77,63,17,13,6,6,0.8,0.7
2026-03-25T2100,2488A,111.9984,27.7346,娄底市,市监测站,,39,39,63,24,49,67,67,68,68,11,24,2,7,0.4,0.9
2026-03-25T2100,2491A,111.9888,27.7035,娄底市,市政府,,47,47,50,29,46,79,79,66,66,13,16,6,6,0.6,0.8
2026-03-25T2100,4127A,111.9812,27.7591,娄底市,涟钢职大,细颗粒物(PM2.5),70,NA,76,45,59,80,80,81,81,14,25,1,4,0.6,1
2026-03-25T2100,4128A,112.0303,27.7457,娄底市,娄底体校,颗粒物(PM10),55,57,64,28,43,74,74,65,65,8,11,3,3,0.2,0.5
2026-03-25T2100,1894A,105.4427,28.9063,泸州市,小市上码头,细颗粒物(PM2.5),90,62,46,55,39,47,47,52,52,22,20,10,10,0.8,0.8
2026-03-25T2100,1895A,105.4241,28.8573,泸州市,兰田宪桥,细颗粒物(PM2.5),66,66,47,43,29,7,7,44,41,46,22,8,8,1.1,0.9
2026-03-25T2100,1896A,105.4378,28.8833,泸州市,市环监站,细颗粒物(PM2.5),88,86,58,54,35,17,17,38,36,51,29,6,6,0.9,0.8
2026-03-25T2100,4272A,105.3689,28.7783,泸州市,纳溪中医医院,细颗粒物(PM2.5),68,53,44,44,28,22,22,46,45,30,23,7,8,1.0,0.8
2026-03-25T2100,2183A,111.1447,37.5212,吕梁市,环保局,颗粒物(PM10),113,152,96,59,34,18,18,87,72,68,47,7,8,0.5,0.5
2026-03-25T2100,2185A,111.1285,37.5338,吕梁市,自来水公司,颗粒物(PM10),107,137,124,63,39,50,50,92,85,37,40,8,7,0.7,0.5
2026-03-25T2100,2867A,111.1225,37.5093,吕梁市,马茂庄小学,颗粒物(PM10),117,162,120,53,34,11,11,83,60,78,53,6,6,0.7,0.5
2026-03-25T2100,1812A,112.3934,34.6517,洛阳市,市委党校,颗粒物(PM10),73,82,69,41,38,100,100,116,116,19,18,9,9,0.7,0.6
2026-03-25T2100,1815A,112.494,34.6883,洛阳市,河南林校,颗粒物(PM10),78,89,76,34,35,100,100,117,117,26,25,12,12,0.7,0.6
2026-03-25T2100,1816A,112.3843,34.623,洛阳市,开发区管委会,颗粒物(PM10),95,112,81,43,38,98,98,118,117,20,20,14,13,0.6,0.5
2026-03-25T2100,1817A,112.4263,34.6249,洛阳市,市委新办公区,颗粒物(PM10),91,107,88,46,43,99,99,118,117,21,19,10,10,0.7,0.6
2026-03-25T2100,3340A,112.6005,34.6323,洛阳市,伊滨,颗粒物(PM10),78,88,82,38,43,118,118,123,123,13,21,8,10,0.6,0.6
2026-03-25T2100,3341A,112.495,34.6338,洛阳市,中移产业园,颗粒物(PM10),73,81,73,37,37,105,105,117,116,28,25,11,11,0.5,0.5
2026-03-25T2100,3593A,112.5736,34.8993,洛阳市,吉利监测站,颗粒物(PM10),71,79,72,41,40,63,63,117,112,46,24,16,10,0.6,0.5
2026-03-25T2100,3635A,112.3678,34.6623,洛阳市,河科大西苑校区,颗粒物(PM10),82,94,76,39,39,106,106,121,121,18,21,12,10,0.6,0.5
2026-03-25T2100,3636A,112.4387,34.678,洛阳市,英才小学,颗粒物(PM10),85,98,91,38,46,107,107,118,118,25,30,11,12,0.8,0.7
2026-03-25T2100,4214A,112.460027,34.694929,洛阳市,春都路1号院,颗粒物(PM10),81,93,93,44,48,107,107,119,119,22,28,10,11,0.8,0.8
2026-03-25T2100,2399A,114.051,33.5721,漯河市,三五一五工厂,细颗粒物(PM2.5),68,70,111,44,62,89,89,117,114,22,23,6,6,0.4,0.4
2026-03-25T2100,2400A,114.0055,33.5698,漯河市,漯河大学,细颗粒物(PM2.5),78,64,94,49,63,98,98,118,116,20,25,6,7,0.6,0.7
2026-03-25T2100,2401A,114.0134,33.5826,漯河市,市水利局,颗粒物(PM10),65,70,92,41,58,96,96,116,115,18,21,6,6,0.6,0.6
2026-03-25T2100,2402A,114.0261,33.5697,漯河市,市广电局,颗粒物(PM10),67,73,91,42,60,88,88,116,113,19,19,6,7,0.6,0.6
2026-03-25T2100,3478A,113.9691,33.568,漯河市,市图书馆,颗粒物(PM10),63,67,107,41,61,86,86,108,106,20,21,7,7,0.7,0.7
2026-03-25T2100,4250A,114.089259,33.588274,漯河市,韶山路11号,颗粒物(PM10),78,89,106,39,62,82,82,116,112,20,18,7,7,0.5,0.5
2026-03-25T2100,1798A,118.5084,31.6838,马鞍山市,湖东路四小,细颗粒物(PM2.5),114,120,71,75,60,91,91,119,119,37,34,8,8,1.1,0.9
2026-03-25T2100,1799A,118.5019,31.6449,马鞍山市,开发区,细颗粒物(PM2.5),116,124,70,77,49,70,70,121,118,55,39,6,5,1.0,0.8
2026-03-25T2100,3633A,118.4914,31.681,马鞍山市,雨山,细颗粒物(PM2.5),104,122,68,64,42,100,100,123,123,38,34,6,6,1.0,0.7
2026-03-25T2100,4191A,118.527362,31.722269,马鞍山市,慈湖高新区,细颗粒物(PM2.5),100,106,92,60,60,90,90,111,111,42,39,8,9,0.8,1
2026-03-25T2100,1686A,111.0285,21.469,茂名市,电白南海,,22,22,30,9,15,49,49,64,61,9,9,5,5,0.9,0.9
2026-03-25T2100,1687A,110.9294,21.6533,茂名市,茂石化七小,,29,29,36,14,19,46,46,70,61,12,13,5,7,0.4,0.5
2026-03-25T2100,1688A,110.9108,21.6688,茂名市,健康路,,24,24,27,12,19,51,51,73,65,10,12,3,6,0.5,0.5
2026-03-25T2100,1689A,110.8592,21.6826,茂名市,高岭,,24,24,42,14,20,34,34,72,59,24,14,4,9,/,/
2026-03-25T2100,3450A,111.0101,21.5165,茂名市,电白水东,,16,14,23,10,16,51,51,60,58,9,11,3,4,/,/
2026-03-25T2100,2540A,103.8414,30.0871,眉山市,气象局,颗粒物(PM10),73,81,65,29,25,69,69,81,81,23,25,8,8,0.6,0.6
2026-03-25T2100,3148A,103.829,30.0563,眉山市,区人社局,颗粒物(PM10),70,77,67,39,33,65,65,74,74,32,32,10,10,0.7,0.7
2026-03-25T2100,4148A,103.8836,30.0695,眉山市,眉职院,颗粒物(PM10),68,74,69,36,32,66,66,76,76,28,27,8,7,0.7,0.7
2026-03-25T2100,1690A,116.1248,24.3307,梅州市,梅江月梅,,45,NA,33,31,27,60,60,102,92,17,22,/,/,/,/
2026-03-25T2100,1691A,116.0798,24.2719,梅州市,梅县新城,细颗粒物(PM2.5),82,79,38,51,25,38,38,106,94,41,20,8,9,0.8,0.7
2026-03-25T2100,3315A,116.1234,24.2994,梅州市,梅龙,细颗粒物(PM2.5),74,68,38,47,28,51,51,106,97,27,19,8,12,1.2,1
2026-03-25T2100,1878A,104.7775,31.4741,绵阳市,富乐山,,25,NA,40,17,20,34,34,84,77,15,11,6,7,0.9,0.8
2026-03-25T2100,1880A,104.6698,31.4668,绵阳市,高新区自来水公司,,26,26,43,15,22,50,50,77,71,24,19,8,8,0.5,0.6
2026-03-25T2100,3491A,104.6899,31.5324,绵阳市,西科大附属小学,,34,34,47,20,25,27,27,79,68,40,22,6,7,0.6,0.7
2026-03-25T2100,3492A,104.5647,31.5343,绵阳市,安州区旅游局,,44,44,51,16,26,53,53,80,76,19,19,6,6,0.6,0.6
2026-03-25T2100,4146A,104.7092,31.4972,绵阳市,科技城新区公安局,,28,28,48,15,22,54,54,73,69,16,17,7,7,0.6,0.7
2026-03-25T2100,4226A,104.765114,31.453094,绵阳市,绵阳市气象局,,33,33,45,19,25,36,36,72,68,36,19,6,10,0.8,0.7
2026-03-25T2100,1784A,129.61,44.561,牡丹江市,环保大楼,细颗粒物(PM2.5),121,96,87,83,66,95,95,118,110,23,30,6,5,0.6,0.7
2026-03-25T2100,1787A,129.6364,44.6075,牡丹江市,机车工厂,细颗粒物(PM2.5),115,95,99,76,65,68,68,107,96,31,37,18,12,0.9,0.9
2026-03-25T2100,1788A,129.6386,44.5462,牡丹江市,第一中学,细颗粒物(PM2.5),107,105,66,67,51,67,67,115,102,39,30,6,5,0.6,0.6
2026-03-25T2100,4287A,129.5992,44.5964,牡丹江市,东晓云街98号,细颗粒物(PM2.5),183,174,93,138,71,45,45,109,94,40,26,8,4,1.4,0.8
2026-03-25T2100,2531A,105.0703,29.61,内江市,市监测站,,49,49,36,20,28,69,69,84,84,13,16,7,8,0.6,0.6
2026-03-25T2100,2533A,105.0657,29.5807,内江市,内江二中,,37,37,45,18,27,73,73,87,87,14,20,8,9,0.5,0.5
2026-03-25T2100,2534A,105.0407,29.5828,内江市,内江日报社,,37,37,37,20,28,64,64,91,90,20,19,8,14,0.6,0.5
2026-03-25T2100,4147A,105.0433,29.6105,内江市,玉峰路西段888号,,37,37,36,19,32,79,79,93,93,15,19,10,10,0.4,0.4
2026-03-25T2100,2628A,92.0653,31.4846,那曲市,那曲监测站,,48,48,19,25,17,100,100,127,124,22,8,10,8,0.7,0.6
2026-03-25T2100,4243A,92.0515,31.4787,那曲市,那曲市委宣传部,,37,29,17,9,8,117,117,134,132,2,3,7,8,0.4,0.5
2026-03-25T2100,1291A,115.8887,28.7006,南昌市,省林业公司,颗粒物(PM10),67,73,64,36,43,76,76,130,123,29,26,4,5,0.3,0.4
2026-03-25T2100,1292A,115.813,28.7443,南昌市,林科所,NA,NA,58,63,NA,43,NA,NA,138,NA,18,18,7,8,0.7,0.6
2026-03-25T2100,1294A,115.8518,28.687,南昌市,建工学校,颗粒物(PM10),74,83,88,38,47,97,97,136,129,26,27,8,9,0.9,0.9
2026-03-25T2100,1295A,115.8926,28.6425,南昌市,象湖,细颗粒物(PM2.5),64,64,69,42,45,85,85,132,126,32,32,8,8,1.0,1
2026-03-25T2100,3046A,115.9084,28.6062,南昌市,机电学校,细颗粒物(PM2.5),76,85,93,48,48,62,62,136,124,41,28,4,5,0.9,0.8
2026-03-25T2100,3690A,115.9718,28.7032,南昌市,外国语学校,细颗粒物(PM2.5),56,54,68,38,55,93,93,130,126,24,22,7,8,0.8,0.9
2026-03-25T2100,4106A,115.7923,28.6873,南昌市,工业二路,颗粒物(PM10),95,112,92,47,47,84,84,129,121,34,28,5,5,1.1,0.9
2026-03-25T2100,4192A,115.931587,28.686774,南昌市,南京东路235号,颗粒物(PM10),78,89,85,40,49,84,84,136,128,23,20,6,7,0.8,0.8
2026-03-25T2100,1906A,106.0791,30.8022,南充市,南充市委,,21,21,21,12,12,43,43,55,55,20,19,7,7,0.6,0.6
2026-03-25T2100,1907A,106.1038,30.8215,南充市,南充炼油厂,,23,23,26,12,12,41,41,52,51,18,16,4,5,0.5,0.5
2026-03-25T2100,4227A,106.108336,30.788436,南充市,梨树横街98号,,19,19,20,12,12,53,53,59,59,14,16,6,6,0.4,0.4
2026-03-25T2100,4304A,106.1172,30.843,南充市,清泉寺北路188号,,26,26,20,12,12,55,55,65,65,11,11,5,6,0.5,0.5
2026-03-25T2100,4305A,106.067,30.7616,南充市,同庆路1号,,20,20,22,13,13,47,47,58,58,17,18,7,6,0.6,0.6
2026-03-25T2100,1151A,118.8033,32.1085,南京市,迈皋桥,细颗粒物(PM2.5),110,101,82,71,62,117,117,151,142,17,27,NA,12,0.6,0.9
2026-03-25T2100,1152A,118.7487,32.057,南京市,草场门,细颗粒物(PM2.5),86,90,71,53,50,105,105,127,125,41,41,10,9,0.8,0.6
2026-03-25T2100,1154A,118.770105,32.004342,南京市,中华门,细颗粒物(PM2.5),86,85,77,53,49,99,99,128,126,30,31,5,5,1.1,1
2026-03-25T2100,1155A,118.8059,32.0329,南京市,瑞金路,NA,NA,90,86,59,58,88,88,123,121,NA,75,4,5,1.2,1.2
2026-03-25T2100,1156A,118.7946,32.0774,南京市,玄武湖,细颗粒物(PM2.5),100,98,72,60,60,107,107,133,131,19,24,8,9,1.0,1
2026-03-25T2100,1157A,118.6415,32.0964,南京市,浦口,颗粒物(PM10),72,80,75,41,51,99,99,121,120,20,27,4,5,0.9,0.8
2026-03-25T2100,1158A,118.730129,32.000956,南京市,奥体中心,颗粒物(PM10),82,94,81,50,51,109,109,129,126,21,31,7,7,0.7,0.6
2026-03-25T2100,1159A,118.9072,32.1047,南京市,仙林大学城,细颗粒物(PM2.5),104,100,82,64,59,96,96,153,148,36,36,8,8,1.0,0.8
2026-03-25T2100,3422A,118.8443,31.919,南京市,江宁彩虹桥,颗粒物(PM10),78,89,68,46,46,79,79,123,120,66,40,3,4,0.9,1.1
2026-03-25T2100,3427A,118.8497,32.3599,南京市,六合雄州,颗粒物(PM10),52,52,60,29,48,41,41,118,109,76,41,4,4,0.6,0.7
2026-03-25T2100,4086A,118.7641,32.0841,南京市,新模范马路66号,细颗粒物(PM2.5),96,97,79,58,48,107,107,134,132,23,37,4,4,1.0,1.2
2026-03-25T2100,4249A,118.8707617,31.34017673,南京市,汶溪路181号,颗粒物(PM10),74,83,55,23,32,56,56,122,115,64,23,5,5,0.5,0.7
2026-03-25T2100,4312A,119.019,31.6512,南京市,中山西路1号,颗粒物(PM10),72,80,60,34,40,30,30,114,100,58,19,4,4,0.9,0.8
2026-03-25T2100,1401A,108.3098,22.788,南宁市,二十一中,,29,NA,33,20,24,67,67,76,76,9,9,4,4,0.6,0.7
2026-03-25T2100,1402A,108.3135,22.8529,南宁市,北湖,,26,NA,40,18,29,72,72,83,81,8,12,2,3,0.6,0.7
2026-03-25T2100,1403A,108.3205,22.8222,南宁市,市监测站,,30,30,36,16,22,73,73,82,82,2,3,2,2,0.6,0.6
2026-03-25T2100,1404A,108.3828,22.8038,南宁市,大自然花园,,28,28,35,17,23,82,82,91,91,8,9,6,5,0.7,0.5
2026-03-25T2100,1406A,108.2397,22.8462,南宁市,区农职院,,36,36,38,18,21,64,64,78,77,12,12,8,6,0.6,0.6
2026-03-25T2100,1407A,108.3285,22.7356,南宁市,英华嘉园,颗粒物(PM10),57,59,49,23,23,62,62,76,75,22,16,4,5,0.5,0.5
2026-03-25T2100,3401A,108.4829,22.762,南宁市,红星社区,,36,36,41,20,25,77,77,89,89,9,11,7,5,0.6,0.6
2026-03-25T2100,4132A,108.2927,23.1477,南宁市,起凤路9号,,32,32,46,22,35,76,76,88,88,6,8,3,4,0.4,0.5
2026-03-25T2100,4221A,108.2177,22.7774,南宁市,乐贤路16号,,31,31,39,16,23,65,65,81,80,12,14,4,5,0.8,0.8
2026-03-25T2100,2332A,118.1682,26.6371,南平市,南平市监测站,,20,18,11,14,5,35,35,81,71,22,9,3,3,0.8,0.6
2026-03-25T2100,2334A,118.1757,26.6276,南平市,南平七中,,18,NA,15,12,5,41,41,86,76,20,11,2,2,0.8,0.7
2026-03-25T2100,1168A,120.9056,31.9669,南通市,狼山街道,细颗粒物(PM2.5),70,69,80,45,52,55,55,125,108,48,28,4,5,0.7,0.6
2026-03-25T2100,1170A,120.8635,32.0231,南通市,城中,细颗粒物(PM2.5),74,75,87,47,58,66,66,123,113,34,21,4,6,1.0,0.7
2026-03-25T2100,1171A,120.9376,31.9301,南通市,星湖花园,细颗粒物(PM2.5),106,NA,69,66,54,41,41,129,112,65,23,4,5,0.9,0.6
2026-03-25T2100,1172A,120.8053,32.046,南通市,紫琅学院,细颗粒物(PM2.5),117,150,84,78,60,4,4,129,97,125,34,8,6,1.1,0.9
2026-03-25T2100,3291A,121.0631,32.0644,南通市,通州监测站,,44,44,59,25,42,68,68,124,112,20,14,3,3,0.9,0.6
2026-03-25T2100,3432A,120.9348,31.9874,南通市,环境教育馆,,49,46,69,34,55,55,55,132,120,41,21,4,5,0.7,0.6
2026-03-25T2100,4091A,120.8692,31.9885,南通市,洪江路,细颗粒物(PM2.5),88,84,75,54,59,49,49,113,92,58,29,4,5,1.1,0.8
2026-03-25T2100,2404A,112.5338,33.0086,南阳市,瓦房庄,颗粒物(PM10),60,64,73,39,40,79,79,88,88,18,18,6,6,0.7,0.7
2026-03-25T2100,2405A,112.5002,32.9734,南阳市,汉画馆,细颗粒物(PM2.5),80,75,77,50,55,60,60,89,84,35,25,6,7,0.7,0.7
2026-03-25T2100,2406A,112.5778,33.0144,南阳市,气象站,颗粒物(PM10),60,63,82,26,37,83,83,92,92,22,21,7,7,0.6,0.6
2026-03-25T2100,2407A,112.548,32.9687,南阳市,理工学院,颗粒物(PM10),63,68,75,36,45,74,74,86,85,20,18,6,7,0.6,0.6
2026-03-25T2100,4008A,112.5233,32.9921,南阳市,卧龙区政府,颗粒物(PM10),60,64,82,37,44,62,62,84,82,37,23,12,8,0.7,0.6
2026-03-25T2100,1234A,121.8352,29.9111,宁波市,区环保大楼,细颗粒物(PM2.5),60,62,53,40,41,38,38,132,117,90,32,7,7,0.6,0.6
2026-03-25T2100,1235A,121.5595,29.8208,宁波市,万里学院,细颗粒物(PM2.5),111,132,62,72,35,93,93,142,138,54,21,6,5,0.8,0.7
2026-03-25T2100,1236A,121.713,29.9564,宁波市,龙赛医院,颗粒物(PM10),60,64,53,36,34,87,87,132,127,41,29,10,8,0.6,0.6
2026-03-25T2100,1240A,121.5855,29.8635,宁波市,太古小学,细颗粒物(PM2.5),110,106,49,70,35,107,107,145,143,47,27,5,4,0.9,0.7
2026-03-25T2100,1241A,121.5239,29.8673,宁波市,市环境监测中心,细颗粒物(PM2.5),112,113,59,73,40,114,114,140,139,37,24,8,7,0.7,0.6
2026-03-25T2100,2871A,121.6156,29.9015,宁波市,万里国际学校,细颗粒物(PM2.5),118,109,59,79,37,90,90,146,141,55,25,5,4,0.8,0.7
2026-03-25T2100,3710A,121.5593,29.8976,宁波市,白沙活动中心,细颗粒物(PM2.5),127,91,38,89,40,92,92,137,134,51,26,5,5,0.7,0.5
2026-03-25T2100,4095A,121.8962,29.7529,宁波市,中科路88号,细颗粒物(PM2.5),54,50,39,37,34,59,59,144,131,55,25,6,7,0.6,0.6
2026-03-25T2100,2341A,119.5387,26.6611,宁德市,宁德市监测站,,30,20,18,17,18,93,93,92,92,15,20,4,4,0.5,0.7
2026-03-25T2100,3209A,119.5231,26.6562,宁德市,宁德一中,,30,19,22,13,18,94,94,93,93,11,16,5,5,0.3,0.4
2026-03-25T2100,2618A,98.859,25.8541,怒江傈僳族自治州,州监测站,,31,25,31,20,20,97,97,99,99,4,11,7,7,0.5,0.6
2026-03-25T2100,2619A,98.8607,25.8168,怒江傈僳族自治州,泸水一中,,29,NA,27,18,22,92,92,88,88,10,19,5,5,0.5,0.6
2026-03-25T2100,1888A,101.6891,26.571,攀枝花市,弄弄坪,,34,29,38,11,18,107,107,110,106,11,21,6,19,1.0,1.4
2026-03-25T2100,1889A,101.577,26.5914,攀枝花市,河门口,,35,32,47,14,21,112,112,118,117,7,14,7,18,0.5,0.8
2026-03-25T2100,1891A,101.7365,26.4986,攀枝花市,仁和,,30,23,29,16,19,93,93,115,114,12,9,4,5,0.5,0.5
2026-03-25T2100,2835A,101.7222,26.567,攀枝花市,四十中小,,34,26,26,13,15,106,106,116,114,14,16,10,8,1.0,0.8
2026-03-25T2100,1604A,122.0303,41.1489,盘锦市,开发区,细颗粒物(PM2.5),162,NA,88,123,81,62,62,119,108,18,18,9,8,0.8,0.6
2026-03-25T2100,1605A,122.0486,41.0883,盘锦市,兴隆台,细颗粒物(PM2.5),162,NA,81,123,88,38,38,109,96,56,29,6,8,1.1,0.8
2026-03-25T2100,1606A,121.8297,41.1026,盘锦市,新生街道,细颗粒物(PM2.5),142,NA,78,106,91,28,28,110,83,52,30,14,12,0.9,0.6
2026-03-25T2100,1832A,113.3257,33.7423,平顶山市,新华旅馆,颗粒物(PM10),71,79,92,38,45,80,80,108,102,15,19,4,4,0.4,0.3
2026-03-25T2100,1833A,113.2917,33.737,平顶山市,规划设计院,颗粒物(PM10),78,89,97,47,41,74,74,105,97,21,24,7,7,0.7,0.6
2026-03-25T2100,1834A,113.182,33.7738,平顶山市,平顶山工学院,细颗粒物(PM2.5),70,76,86,45,43,71,71,111,106,16,14,6,5,0.6,0.5
2026-03-25T2100,3594A,112.8736,33.9068,平顶山市,石龙区,NA,NA,67,88,38,45,85,85,120,113,NA,23,6,7,0.5,0.6
2026-03-25T2100,4116A,113.284,33.7139,平顶山市,姚电大道23号,颗粒物(PM10),83,95,100,45,46,71,71,104,97,27,33,7,7,0.4,0.4
2026-03-25T2100,2656A,106.6633,35.5338,平凉市,聚贤嘉苑,颗粒物(PM10),82,94,98,36,37,88,88,108,108,23,25,7,7,0.5,0.5
2026-03-25T2100,2657A,106.7021,35.5307,平凉市,博物馆,颗粒物(PM10),65,70,96,34,39,86,86,109,109,26,26,10,9,0.6,0.5
2026-03-25T2100,2348A,113.8384,27.6436,萍乡市,中医院,,48,45,60,33,37,70,70,81,80,10,13,4,6,0.8,1
2026-03-25T2100,2350A,113.8677,27.6438,萍乡市,市环保局,,46,37,45,32,40,73,73,89,86,7,11,7,8,0.6,0.9
2026-03-25T2100,2351A,113.8663,27.6202,萍乡市,安源区政府,,48,41,44,33,38,59,59,72,70,16,12,6,6,0.8,0.7
2026-03-25T2100,4107A,113.8686,27.6668,萍乡市,联洪村委会,,42,41,62,29,39,64,64,75,74,6,11,2,4,0.4,0.7
2026-03-25T2100,2319A,119.0142,25.4324,莆田市,荔城区仓后路,,45,NA,41,31,32,88,88,114,108,23,25,/,/,/,/
2026-03-25T2100,2320A,119.0016,25.4553,莆田市,莆田市监测站,,50,NA,34,35,29,94,94,114,111,19,16,2,3,0.6,0.5
2026-03-25T2100,2321A,119.112,25.4561,莆田市,涵江区六中,,33,29,35,23,26,96,96,110,108,18,32,/,/,0.6,0.6
2026-03-25T2100,2322A,119.1014,25.3215,莆田市,秀屿区政府,,36,NA,29,13,25,115,115,116,116,7,14,3,4,0.7,0.5
2026-03-25T2100,2392A,115.0312,35.7636,濮阳市,环保局,细颗粒物(PM2.5),96,75,99,58,71,98,98,135,133,16,17,7,7,0.7,0.7
2026-03-25T2100,3021A,115,35.7667,濮阳市,濮水河管理处,颗粒物(PM10),93,109,105,48,74,100,100,146,143,22,21,8,9,0.7,0.7
2026-03-25T2100,4118A,115.0552,35.7816,濮阳市,中原东路68号,颗粒物(PM10),97,115,127,51,68,100,100,139,137,15,14,7,8,0.7,0.7
2026-03-25T2100,4216A,115.0923632,35.76857718,濮阳市,任丘路479号,颗粒物(PM10),86,100,121,52,74,101,101,139,137,24,24,6,8,0.8,0.9
2026-03-25T2100,2601A,100.9801,22.7634,普洱市,市环保局,细颗粒物(PM2.5),112,129,124,73,71,118,118,162,151,14,15,7,7,0.9,0.9
2026-03-25T2100,2602A,100.9763,22.8237,普洱市,普洱第二中学,细颗粒物(PM2.5),106,119,119,66,75,91,91,156,139,26,24,6,7,0.7,0.7
2026-03-25T2100,3345A,131.0413,45.7795,七台河市,中波台,细颗粒物(PM2.5),129,133,107,91,85,80,80,118,99,16,23,7,8,0.5,0.6
2026-03-25T2100,3637A,131.0136,45.7688,七台河市,人民广场,细颗粒物(PM2.5),150,214,120,114,75,34,34,114,100,NA,26,NA,12,1.5,0.8
2026-03-25T2100,3684A,130.8639,45.8144,七台河市,新建矿广场,细颗粒物(PM2.5),142,168,146,106,94,84,84,113,106,23,33,13,18,0.9,0.8
2026-03-25T2100,1779A,123.9307,47.3641,齐齐哈尔市,安居小区,细颗粒物(PM2.5),84,75,140,52,96,78,78,105,95,14,16,10,12,0.5,0.9
2026-03-25T2100,1780A,123.9497,47.3389,齐齐哈尔市,中心广场,颗粒物(PM10),58,61,134,36,79,87,87,103,96,16,17,12,14,0.7,0.9
2026-03-25T2100,1781A,123.9483,47.3229,齐齐哈尔市,农牧车辆厂,细颗粒物(PM2.5),64,58,133,42,88,85,85,105,97,11,15,8,9,0.2,0.4
2026-03-25T2100,1783A,123.9442,47.2994,齐齐哈尔市,市环境监测站,细颗粒物(PM2.5),66,61,164,43,88,88,88,110,100,13,17,4,5,0.5,0.8
2026-03-25T2100,3662A,123.6341,47.2079,齐齐哈尔市,富区青少年活动中心,细颗粒物(PM2.5),102,84,159,62,107,73,73,104,92,16,18,5,7,0.6,0.8
2026-03-25T2100,2591A,107.9765,26.5724,黔东南苗族侗族自治州,市环境监测站,,32,32,18,12,13,23,23,48,32,13,11,2,2,0.9,0.8
2026-03-25T2100,2881A,107.8909,26.531,黔东南苗族侗族自治州,凯里学院,,16,12,13,11,11,26,26,51,35,15,11,4,4,1.0,0.9
2026-03-25T2100,2593A,107.5223,26.2371,黔南布依族苗族自治州,小围寨,,16,12,9,11,8,9,9,45,24,18,9,4,4,0.8,0.7
2026-03-25T2100,3538A,107.5175,26.2977,黔南布依族苗族自治州,沙坝,,19,NA,14,13,8,10,10,38,19,12,10,4,4,0.6,0.5
2026-03-25T2100,2589A,104.9022,25.0943,黔西南布依族苗族自治州,场坝街,细颗粒物(PM2.5),101,96,44,61,38,128,128,142,142,8,8,9,8,0.6,0.5
2026-03-25T2100,2590A,104.8812,25.0994,黔西南布依族苗族自治州,坪东大道,细颗粒物(PM2.5),104,93,47,64,40,89,89,139,137,23,9,6,7,0.9,0.6
2026-03-25T2100,2502A,108.6238,21.9667,钦州市,市环保站,,46,46,40,26,16,40,40,75,70,32,14,7,6,0.5,0.4
2026-03-25T2100,2503A,108.655,21.9481,钦州市,沙埠小学,,32,32,42,21,21,55,55,72,69,15,16,7,5,0.6,0.6
2026-03-25T2100,2504A,108.5989,21.7435,钦州市,港区一小,颗粒物(PM10),55,57,45,25,19,41,41,69,65,15,10,2,3,0.6,0.5
2026-03-25T2100,3404A,108.5959,21.9634,钦州市,北职校,,48,48,36,24,20,54,54,77,74,19,12,4,6,0.5,0.5
2026-03-25T2100,1046A,119.5247,39.9346,秦皇岛市,建设大厦,细颗粒物(PM2.5),195,193,176,146,134,36,36,122,98,87,32,9,17,0.9,1.3
2026-03-25T2100,3132A,119.5979,39.938,秦皇岛市,文明里,细颗粒物(PM2.5),188,226,176,141,121,12,12,106,88,109,44,13,16,0.8,1
2026-03-25T2100,4066A,119.7458,39.9952,秦皇岛市,南园路157号,颗粒物(PM10),133,204,168,NA,124,32,32,106,93,85,50,20,13,0.8,1
2026-03-25T2100,4067A,119.5131,39.8858,秦皇岛市,翠岛大街1号,细颗粒物(PM2.5),168,161,157,127,130,72,72,126,110,41,36,9,15,0.6,1.1
2026-03-25T2100,4198A,119.509013,39.825305,秦皇岛市,北戴河轮滑馆,细颗粒物(PM2.5),172,187,159,130,103,70,70,105,101,51,62,8,10,0.5,0.8
2026-03-25T2100,1310A,120.404,36.0625,青岛市,市南区东部子站,细颗粒物(PM2.5),128,114,72,90,59,100,100,84,84,19,21,10,10,0.7,0.8
2026-03-25T2100,1311A,120.362344,36.10282,青岛市,四方区子站,细颗粒物(PM2.5),148,129,100,112,80,128,128,120,120,26,32,7,8,0.9,1.1
2026-03-25T2100,1312A,120.294373,36.054183,青岛市,市南区西部子站,细颗粒物(PM2.5),110,85,56,70,49,99,99,78,78,17,20,3,4,0.8,0.9
2026-03-25T2100,1313A,120.4581,36.0858,青岛市,崂山区子站,细颗粒物(PM2.5),107,102,69,67,51,85,85,87,87,37,31,8,8,0.8,0.9
2026-03-25T2100,1315A,120.3945,36.3083,青岛市,城阳区子站,细颗粒物(PM2.5),106,105,95,66,56,136,136,143,143,31,40,8,8,0.8,0.9
2026-03-25T2100,3642A,120.3454,36.0735,青岛市,市北区南部,细颗粒物(PM2.5),137,107,75,100,59,122,122,103,103,14,14,4,5,1.1,1.3
2026-03-25T2100,3643A,120.3897,36.18,青岛市,李沧区北部,细颗粒物(PM2.5),122,124,97,84,64,127,127,126,126,32,41,10,11,0.8,1
2026-03-25T2100,4110A,120.5222,36.4089,青岛市,盟旺路653号,颗粒物(PM10),81,93,87,45,52,143,143,158,157,17,18,6,5,0.8,0.8
2026-03-25T2100,4290A,120.196923,35.954556,青岛市,珠江路669号,细颗粒物(PM2.5),130,110,83,93,63,93,93,79,79,24,26,4,7,0.7,0.9
2026-03-25T2100,4291A,120.0424,35.8656,青岛市,黄岛区人民政府广场,细颗粒物(PM2.5),137,127,90,100,60,97,97,80,80,32,36,8,9,0.8,0.9
2026-03-25T2100,1703A,113.0218,23.7086,清远市,凤城街办,细颗粒物(PM2.5),94,94,57,57,41,99,99,147,145,48,28,/,/,/,/
2026-03-25T2100,3025A,113.0479,23.6343,清远市,技师学院,细颗粒物(PM2.5),117,110,75,78,47,118,118,166,166,55,40,6,8,0.7,0.5
2026-03-25T2100,3318A,112.9898,23.7403,清远市,清新太和,细颗粒物(PM2.5),68,73,54,44,35,149,149,153,153,24,19,7,7,0.7,0.6
2026-03-25T2100,3455A,113.076,23.72,清远市,清城东城,细颗粒物(PM2.5),76,84,63,48,39,109,109,152,152,26,21,/,/,/,/
2026-03-25T2100,2661A,107.6325,35.7357,庆阳市,庆阳五中,颗粒物(PM10),79,90,107,44,46,99,99,116,113,20,23,6,15,0.4,0.4
2026-03-25T2100,2662A,107.6361,35.7067,庆阳市,市环保局,颗粒物(PM10),80,92,96,49,45,98,98,119,113,22,20,8,12,0.6,0.6
2026-03-25T2100,1916A,103.7897,25.5036,曲靖市,环境监测站,,50,44,63,35,47,108,108,144,134,12,13,7,7,0.7,0.6
2026-03-25T2100,1917A,103.8013,25.5357,曲靖市,烟厂办公区,,46,46,61,29,41,98,98,125,122,13,13,4,4,0.5,0.7
2026-03-25T2100,3376A,103.7926,25.4651,曲靖市,南苑二区,,39,35,60,27,46,101,101,125,120,14,14,4,4,0.5,0.6
2026-03-25T2100,3377A,103.7442,25.5259,曲靖市,曲靖师范学院,颗粒物(PM10),52,52,62,31,51,102,102,130,124,11,12,2,4,0.5,0.6
2026-03-25T2100,1264A,118.8694,28.94,衢州市,环保大楼,,40,40,28,27,22,52,52,114,103,37,19,/,/,/,/
2026-03-25T2100,1266A,118.8622,28.9809,衢州市,衢州学院,,31,30,25,18,18,22,22,112,96,61,25,4,4,0.5,0.5
2026-03-25T2100,4097A,118.9646,28.9832,衢州市,衢州三中,,35,34,24,24,18,31,31,121,102,45,24,6,6,0.6,0.6
2026-03-25T2100,1611A,118.5818,24.9116,泉州市,涂山街,,38,34,44,26,27,74,74,104,90,19,22,3,4,0.6,0.7
2026-03-25T2100,1612A,118.597,24.8976,泉州市,津头埔,NA,NA,30,43,28,30,82,82,113,100,16,21,3,3,NA,0.6
2026-03-25T2100,1613A,118.6669,24.9422,泉州市,万安,,49,36,34,34,30,79,79,108,95,13,24,4,4,0.5,0.6
2026-03-25T2100,4105A,118.6355,24.9148,泉州市,霞新路6号,,43,43,41,28,28,76,76,107,93,17,23,/,/,0.6,0.6
2026-03-25T2100,2626A,88.8873,29.2723,日喀则市,日喀则监测站,NA,NA,18,23,11,5,NA,NA,121,NA,10,8,8,7,0.3,0.3
2026-03-25T2100,3726A,88.8775,29.2425,日喀则市,林业技术推广中心,,38,22,26,10,4,121,121,139,136,9,6,2,4,0.4,0.3
2026-03-25T2100,1659A,119.4711,35.421,日照市,监测站,细颗粒物(PM2.5),140,149,120,103,80,67,67,130,124,57,52,14,14,1.2,1
2026-03-25T2100,1660A,119.523,35.4216,日照市,市政府广场,细颗粒物(PM2.5),145,136,137,109,85,87,87,105,105,43,52,15,14,1.1,1
