timepoint,stationcode,longitude,latitude,area,positionname,primarypollutant,aqi,pm10,pm10_24h,pm2_5,pm2_5_24h,o3,o3_24h,o3_8h,o3_8h_24h,no2,no2_24h,so2,so2_24h,co,co_24h
2026-03-25T2200,2568A,102.2503,31.8896,阿坝藏族羌族自治州,马师校,,31,28,20,3,7,97,97,90,90,4,5,5,5,0.3,0.3
2026-03-25T2200,3994A,102.2174,31.9016,阿坝藏族羌族自治州,马尔康中学西区,,30,22,17,3,6,94,94,92,92,6,6,2,3,0.3,0.2
2026-03-25T2200,2695A,80.2899,41.1684,阿克苏地区,电视台,颗粒物(PM10),102,124,103,43,34,88,88,116,113,20,13,2,3,0.4,0.8
2026-03-25T2200,2696A,80.2592,41.1541,阿克苏地区,艺术中心,颗粒物(PM10),104,130,104,28,30,89,89,121,118,21,15,4,4,0.2,0.3
2026-03-25T2200,2205A,105.699,38.8409,阿拉善盟,蒙二幼,颗粒物(PM10),65,71,65,20,20,106,106,115,114,6,5,8,7,0.5,0.5
2026-03-25T2200,2206A,105.7198,38.8508,阿拉善盟,环保局新楼,颗粒物(PM10),60,64,65,20,20,106,106,107,107,7,4,8,8,0.5,0.5
2026-03-25T2200,2708A,88.1266,47.8515,阿勒泰地区,市站,,25,25,12,8,3,60,60,79,72,14,7,5,5,0.3,0.3
2026-03-25T2200,4166A,88.1198,47.7931,阿勒泰地区,阿勒泰路33号,,20,20,11,7,3,56,56,78,76,20,6,5,5,0.2,0.2
2026-03-25T2200,2630A,80.1171,32.4999,阿里地区,阿里监测站,NA,NA,9,10,3,4,115,115,117,100,NA,5,9,9,0.2,0.2
2026-03-25T2200,3192A,80.0906,32.5029,阿里地区,阿里藏医院,,38,10,9,3,3,121,121,128,125,1,3,4,5,0.2,0.1
2026-03-25T2200,2644A,109.0088,32.6974,安康市,汉滨区检察院,,39,39,36,16,23,9,9,55,45,36,20,4,5,0.7,0.6
2026-03-25T2200,4054A,109.0324,32.6913,安康市,市邮政管理局,颗粒物(PM10),55,56,39,31,27,0,0,51,34,41,21,6,10,1.1,0.7
2026-03-25T2200,2291A,117.0806,30.5181,安庆市,环科院,颗粒物(PM10),68,75,47,28,33,45,45,124,94,50,31,8,8,0.8,0.8
2026-03-25T2200,2292A,117.0331,30.5118,安庆市,马山宾馆,颗粒物(PM10),64,69,48,30,40,37,37,114,88,74,30,6,6,0.8,0.9
2026-03-25T2200,2294A,116.9897,30.6146,安庆市,安庆大学,颗粒物(PM10),55,57,56,18,35,46,46,124,98,50,25,3,4,0.5,0.7
2026-03-25T2200,3173A,117.0598,30.5351,安庆市,市人大,颗粒物(PM10),69,76,50,31,31,43,43,122,99,68,31,6,7,0.7,0.7
2026-03-25T2200,3123A,105.9408,26.2431,安顺市,凤凰山,颗粒物(PM10),55,57,39,36,26,64,64,71,71,8,11,9,12,0.6,0.7
2026-03-25T2200,3124A,105.9443,26.2567,安顺市,金钟山,,48,48,37,33,26,60,60,66,66,5,8,6,11,0.7,0.7
2026-03-25T2200,3125A,105.8983,26.248,安顺市,娄家坡,细颗粒物(PM2.5),52,36,34,36,28,54,54,48,NA,8,10,12,14,1.0,0.8
2026-03-25T2200,1819A,114.3552,36.1017,安阳市,红庙街,细颗粒物(PM2.5),98,112,95,59,68,90,90,132,126,22,23,5,6,0.6,0.6
2026-03-25T2200,1820A,114.361,36.0681,安阳市,银杏小区,细颗粒物(PM2.5),94,110,99,57,73,90,90,133,128,23,25,5,6,0.3,0.3
2026-03-25T2200,3141A,114.3921,36.0879,安阳市,信访局,细颗粒物(PM2.5),98,103,101,59,72,96,96,138,134,24,24,3,5,0.5,0.4
2026-03-25T2200,3669A,114.4706,36.0634,安阳市,左辅环卫站,"颗粒物(PM10),细颗粒物(PM2.5)",100,120,135,60,80,82,82,119,114,21,20,4,6,0.4,0.5
2026-03-25T2200,4117A,114.2918,36.0769,安阳市,钢三路198号,颗粒物(PM10),93,110,114,55,67,80,80,120,114,23,23,6,6,0.5,0.6
2026-03-25T2200,1748A,123.0441,41.1201,鞍山市,深沟寺,细颗粒物(PM2.5),218,253,140,168,92,99,99,133,115,42,24,17,14,2.4,1.2
2026-03-25T2200,1749A,123.011,41.0931,鞍山市,太阳城,细颗粒物(PM2.5),224,248,140,174,98,99,99,134,116,38,23,23,13,2.6,1.2
2026-03-25T2200,1750A,123.0483,41.1445,鞍山市,太平,细颗粒物(PM2.5),218,256,140,168,89,86,86,129,106,47,25,28,16,3.4,1.3
2026-03-25T2200,1751A,122.964,41.0968,鞍山市,铁西三道街,细颗粒物(PM2.5),238,252,150,188,101,90,90,135,114,46,29,21,13,2.3,1.3
2026-03-25T2200,1753A,123.0219,41.0822,鞍山市,明达新区,细颗粒物(PM2.5),232,266,138,182,96,74,74,132,108,48,23,28,14,3.2,1.1
2026-03-25T2200,4201A,122.944647,41.082639,鞍山市,兴盛南路290号,细颗粒物(PM2.5),242,273,164,192,104,83,83,131,108,43,28,19,14,2.4,1.4
2026-03-25T2200,2195A,107.4206,40.7609,巴彦淖尔市,附二中,颗粒物(PM10),87,101,63,35,25,56,56,119,105,43,12,12,8,0.7,0.3
2026-03-25T2200,2196A,107.37,40.7372,巴彦淖尔市,市环保大楼,颗粒物(PM10),63,67,66,29,25,83,83,123,109,24,14,10,6,0.5,0.4
2026-03-25T2200,1956A,86.1476,41.7529,巴音郭楞蒙古自治州,孔雀公园,颗粒物(PM10),88,103,106,28,19,75,75,97,91,12,7,9,9,0.3,0.2
2026-03-25T2200,1957A,86.1971,41.7166,巴音郭楞蒙古自治州,棉纺厂,颗粒物(PM10),114,155,146,26,23,90,90,102,99,2,6,/,/,/,/
2026-03-25T2200,1958A,86.236,41.7172,巴音郭楞蒙古自治州,经济开发区,颗粒物(PM10),73,81,133,23,23,86,86,94,90,3,3,6,7,0.3,0.3
2026-03-25T2200,3181A,106.776805,31.852614,巴中市,市五中,,45,36,21,31,13,25,25,44,40,29,18,7,8,0.8,0.8
2026-03-25T2200,3183A,106.7419,31.8654,巴中市,圣泉水务公司,,40,40,25,26,13,8,8,44,38,37,21,9,9,0.8,0.8
2026-03-25T2200,3616A,106.7617,31.8343,巴中市,市中心医院,,36,36,21,11,7,32,32,49,47,22,15,10,10,0.8,0.7
2026-03-25T2200,2235A,122.7909,45.608,白城市,洮北区环保局,细颗粒物(PM2.5),150,165,119,114,72,76,76,104,84,29,23,6,6,1.0,0.6
2026-03-25T2200,2236A,122.8741,45.5725,白城市,市环保局,细颗粒物(PM2.5),169,175,125,128,67,55,55,104,71,26,20,7,6,1.0,0.4
2026-03-25T2200,2231A,126.4219,41.9172,白山市,喜丰,细颗粒物(PM2.5),98,105,89,59,49,65,65,124,108,31,26,11,11,0.9,1
2026-03-25T2200,2232A,126.4082,41.9416,白山市,环保局,细颗粒物(PM2.5),101,93,67,61,44,52,52,123,103,23,18,11,10,1.1,0.9
2026-03-25T2200,2647A,104.1727,36.5448,白银市,第三小学,,43,43,94,23,39,96,96,104,104,11,34,6,57,0.2,0.6
2026-03-25T2200,2648A,104.1467,36.5482,白银市,动力公司,,44,44,100,23,38,90,90,103,103,12,34,5,14,0.5,0.6
2026-03-25T2200,2512A,106.6102,23.901,百色市,市监测站,细颗粒物(PM2.5),52,43,48,36,35,93,93,95,94,12,13,12,20,0.6,0.7
2026-03-25T2200,2513A,106.6524,23.8842,百色市,市中心血站,,39,39,51,27,36,98,98,97,97,11,12,13,17,0.6,0.7
2026-03-25T2200,4133A,106.6273,23.8798,百色市,龙景西路,颗粒物(PM10),60,64,64,35,39,100,100,100,100,12,15,14,23,0.6,0.6
2026-03-25T2200,2270A,117.396,32.9389,蚌埠市,工人疗养院,细颗粒物(PM2.5),86,89,95,53,62,96,96,141,133,32,24,5,5,0.4,0.5
2026-03-25T2200,2271A,117.3606,32.9428,蚌埠市,百货大楼,细颗粒物(PM2.5),78,79,87,49,61,108,108,147,139,25,23,6,6,0.6,0.6
2026-03-25T2200,2273A,117.4183,32.8909,蚌埠市,蚌埠学院,细颗粒物(PM2.5),84,66,77,52,60,86,86,140,127,33,24,5,5,0.5,0.7
2026-03-25T2200,2274A,117.3534,32.9672,蚌埠市,淮上区政府,细颗粒物(PM2.5),100,88,90,60,67,88,88,148,132,42,30,6,6,0.5,0.5
2026-03-25T2200,2275A,117.3143,32.8977,蚌埠市,高新区,细颗粒物(PM2.5),104,83,77,64,58,89,89,138,127,33,25,8,7,0.6,0.6
2026-03-25T2200,3715A,117.3091,32.9314,蚌埠市,蚌埠田家炳中学,细颗粒物(PM2.5),96,87,101,58,67,104,104,148,135,26,26,7,11,0.5,0.5
2026-03-25T2200,1585A,109.8761,40.6533,包头市,市环境监测站,,43,40,86,30,38,71,71,142,121,48,45,5,11,0.5,0.8
2026-03-25T2200,1587A,109.9992,40.5843,包头市,包头八中,颗粒物(PM10),59,62,89,29,40,57,57,135,106,52,48,9,17,0.5,0.7
2026-03-25T2200,1589A,109.8641,40.6288,包头市,惠龙物流,,33,32,84,21,47,103,103,147,123,19,42,4,14,0.3,0.8
2026-03-25T2200,1590A,110.0376,40.5546,包头市,东河鸿龙湾,,41,41,76,15,36,90,90,135,120,36,50,9,12,0.4,0.6
2026-03-25T2200,3283A,109.9154,40.5684,包头市,滨河大厦,,30,30,75,20,38,63,63,135,118,56,40,7,13,0.4,0.5
2026-03-25T2200,3419A,109.9449,40.6259,包头市,包头市委党校,,37,36,65,16,28,43,43,150,112,74,44,7,12,0.5,0.5
2026-03-25T2200,3683A,109.8332,40.6577,包头市,昆区政府,,35,31,69,13,30,112,112,137,126,22,42,2,9,0.4,0.9
2026-03-25T2200,1931A,107.0802,34.3129,宝鸡市,竹园沟,细颗粒物(PM2.5),78,83,75,49,39,42,42,90,74,25,21,7,7,0.5,0.5
2026-03-25T2200,1933A,107.1429,34.3549,宝鸡市,监测站,细颗粒物(PM2.5),110,116,94,70,49,29,29,87,73,46,31,6,7,0.6,0.4
2026-03-25T2200,1934A,107.1172,34.3759,宝鸡市,技工学校,颗粒物(PM10),95,113,100,54,50,46,46,91,77,32,22,6,7,0.6,0.6
2026-03-25T2200,1936A,107.2025,34.3518,宝鸡市,文理学院,细颗粒物(PM2.5),94,110,99,57,53,36,36,89,73,39,26,4,6,0.7,0.6
2026-03-25T2200,1937A,107.2396,34.3626,宝鸡市,三迪小学,NA,NA,NA,103,NA,53,14,14,92,80,68,33,5,6,0.8,0.7
2026-03-25T2200,4155A,107.1721,34.3558,宝鸡市,滨河北路,细颗粒物(PM2.5),126,155,119,88,68,24,24,86,73,51,27,6,7,0.9,0.8
2026-03-25T2200,4308A,107.3898,34.3601,宝鸡市,陈仓区北开路21号,细颗粒物(PM2.5),131,170,114,94,61,33,33,97,81,50,37,9,27,0.8,0.7
2026-03-25T2200,1051A,115.4803,38.8568,保定市,游泳馆,细颗粒物(PM2.5),137,134,149,100,110,108,108,154,147,27,26,10,9,0.7,0.7
2026-03-25T2200,1052A,115.509,38.8895,保定市,华电二区,细颗粒物(PM2.5),126,133,130,88,100,114,114,162,156,20,20,5,5,0.9,0.9
2026-03-25T2200,1053A,115.4588,38.9037,保定市,接待中心,细颗粒物(PM2.5),125,158,143,87,105,115,115,162,154,26,27,8,6,0.6,0.6
2026-03-25T2200,1054A,115.4484,38.8344,保定市,地表水厂,细颗粒物(PM2.5),120,165,161,82,93,113,113,166,156,28,27,11,9,0.6,0.6
2026-03-25T2200,3581A,115.3136,38.9511,保定市,满城区生态环境分局,细颗粒物(PM2.5),125,166,180,87,103,106,106,174,149,24,29,8,10,0.8,0.6
2026-03-25T2200,3582A,115.4709,38.7628,保定市,清苑区第二中学,细颗粒物(PM2.5),128,160,163,90,100,107,107,154,143,14,21,12,11,0.5,0.6
2026-03-25T2200,3583A,115.6231,39.0223,保定市,徐水物探局,细颗粒物(PM2.5),145,199,186,109,115,95,95,170,155,42,27,7,5,0.6,0.6
2026-03-25T2200,4004A,115.4199,38.8665,保定市,双鹰农机,细颗粒物(PM2.5),141,198,185,105,113,NA,NA,172,172,26,30,8,7,0.5,0.6
2026-03-25T2200,4034A,115.515,38.8589,保定市,植保所站,细颗粒物(PM2.5),140,175,161,104,104,112,112,158,150,26,27,6,3,0.4,0.4
2026-03-25T2200,2594A,99.1589,25.1137,保山市,市环境监测站,,29,28,29,20,23,88,88,117,108,7,8,5,5,0.3,0.3
2026-03-25T2200,2595A,99.1616,25.1381,保山市,市环保局,细颗粒物(PM2.5),54,NA,35,37,27,98,98,119,112,3,6,5,5,0.2,0.3
2026-03-25T2200,1867A,109.1435,21.4085,北海市,海滩公园,,28,28,26,6,13,64,64,78,71,15,9,7,7,0.4,0.5
2026-03-25T2200,1868A,109.0983,21.466,北海市,新市环保局,,20,19,24,3,12,61,61,68,67,13,8,9,9,0.5,0.6
2026-03-25T2200,1869A,109.1775,21.5232,北海市,北海工业园,,16,13,35,8,15,49,49,74,70,13,8,6,7,0.7,0.7
2026-03-25T2200,3400A,109.1844,21.4396,北海市,龙潭自来水厂,,18,17,22,12,12,49,49,73,69,14,6,4,5,0.9,0.6
2026-03-25T2200,1001A,116.3611,39.8786,北京市,万寿西宫,细颗粒物(PM2.5),133,171,199,96,138,102,102,178,159,54,42,4,5,0.8,1
2026-03-25T2200,1003A,116.4174,39.9289,北京市,东四,细颗粒物(PM2.5),145,177,212,109,144,113,113,187,170,50,47,8,8,0.8,0.8
2026-03-25T2200,1004A,116.4073,39.8858,北京市,天坛,细颗粒物(PM2.5),132,146,188,95,132,52,52,160,133,37,38,4,5,1.0,1.1
2026-03-25T2200,1005A,116.4622,39.9364,北京市,农展馆,细颗粒物(PM2.5),144,170,201,108,142,71,71,174,146,58,50,5,6,1.0,1
2026-03-25T2200,1006A,116.3399,39.9293,北京市,官园,细颗粒物(PM2.5),150,182,199,114,142,93,93,166,152,57,50,3,4,1.0,0.8
2026-03-25T2200,1007A,116.2879,39.9613,北京市,海淀万柳,细颗粒物(PM2.5),163,210,191,124,134,39,39,147,124,84,46,4,5,1.2,0.8
2026-03-25T2200,1008A,116.6635,40.1349,北京市,顺义新城,细颗粒物(PM2.5),142,178,182,106,125,119,119,166,156,28,28,5,5,0.6,0.6
2026-03-25T2200,1009A,116.6275,40.327,北京市,怀柔镇,细颗粒物(PM2.5),123,139,153,85,109,109,109,143,128,21,23,5,5,0.7,0.8
2026-03-25T2200,1010A,116.2295,40.217,北京市,昌平镇,细颗粒物(PM2.5),139,155,176,102,126,140,140,170,164,20,40,4,4,0.7,0.8
2026-03-25T2200,1011A,116.3968,39.982,北京市,奥体中心,颗粒物(PM10),135,209,209,93,125,75,75,152,130,65,54,5,5,0.7,0.8
2026-03-25T2200,3418A,116.8336,40.4095,北京市,密云新城,细颗粒物(PM2.5),115,153,159,76,104,75,75,138,120,46,26,3,3,0.7,0.7
2026-03-25T2200,3671A,116.0879,39.9725,北京市,门头沟三家店,细颗粒物(PM2.5),183,225,201,138,134,71,71,172,150,60,40,5,5,0.8,0.8
2026-03-25T2200,3672A,116.1507,39.8246,北京市,丰台云岗,细颗粒物(PM2.5),152,213,203,116,136,121,121,184,174,48,37,6,6,0.8,0.9
2026-03-25T2200,3674A,115.9578,39.7602,北京市,房山燕山,细颗粒物(PM2.5),138,163,179,101,122,130,130,176,166,21,24,5,5,0.7,0.8
2026-03-25T2200,3675A,116.4669,39.7734,北京市,大兴旧宫,细颗粒物(PM2.5),139,175,197,102,127,92,92,159,150,43,39,5,5,0.8,0.8
2026-03-25T2200,3694A,115.9859,40.4562,北京市,延庆石河营,细颗粒物(PM2.5),137,197,155,100,105,90,90,156,151,67,30,3,2,0.6,0.7
2026-03-25T2200,3695A,116.6151,40.3052,北京市,怀柔新城,细颗粒物(PM2.5),132,143,154,95,116,121,121,137,128,12,16,4,4,0.7,0.7
2026-03-25T2200,3696A,116.2542,39.8764,北京市,丰台小屯,细颗粒物(PM2.5),148,186,212,112,139,43,43,165,141,93,55,3,5,1.0,0.7
2026-03-25T2200,3697A,116.8399,40.3843,北京市,密云镇,细颗粒物(PM2.5),114,148,157,75,108,43,43,138,116,72,37,5,5,0.7,0.7
2026-03-25T2200,4057A,115.9423,40.4431,北京市,延庆百泉,细颗粒物(PM2.5),130,149,143,92,96,141,141,145,145,21,32,2,2,0.7,0.7
2026-03-25T2200,4058A,116.6598,39.9164,北京市,通州新华,细颗粒物(PM2.5),139,186,217,102,138,72,72,147,130,85,61,5,6,0.6,0.7
2026-03-25T2200,4182A,116.1942,39.9158,北京市,石景山八角,细颗粒物(PM2.5),163,217,216,124,130,36,36,171,142,94,46,5,4,1.2,0.8
2026-03-25T2200,4194A,117.078628,40.151726,北京市,平谷新城,细颗粒物(PM2.5),129,156,186,91,128,77,77,153,131,33,27,2,3,0.9,0.9
2026-03-25T2200,1761A,123.8274146,41.31234549,本溪市,大峪,细颗粒物(PM2.5),117,126,105,78,62,56,56,146,114,40,20,10,12,0.9,0.9
2026-03-25T2200,1763A,123.7169,41.3094,本溪市,彩屯,细颗粒物(PM2.5),114,106,107,75,75,73,73,153,116,25,29,10,17,1.1,2.2
2026-03-25T2200,1764A,123.7672166,41.28649327,本溪市,东明,细颗粒物(PM2.5),150,160,100,114,66,48,48,152,115,69,23,9,10,1.2,0.8
2026-03-25T2200,1765A,123.799345,41.266614,本溪市,新立屯,细颗粒物(PM2.5),134,113,92,97,65,63,63,151,104,56,22,9,9,0.9,0.8
2026-03-25T2200,1766A,123.829144,41.336777,本溪市,威宁,细颗粒物(PM2.5),108,134,115,68,58,42,42,156,109,43,22,6,9,0.9,0.7
2026-03-25T2200,2587A,105.287,27.3133,毕节市,八中,,15,NA,32,10,17,36,36,50,46,5,8,9,10,0.6,0.6
2026-03-25T2200,2588A,105.3079,27.2987,毕节市,师专,,19,NA,31,13,17,38,38,46,43,7,9,8,9,0.6,0.6
2026-03-25T2200,4263A,105.3688,27.3598,毕节市,工业大道,,14,6,21,3,9,44,44,48,44,6,9,9,10,/,/
2026-03-25T2200,1629A,117.9961,37.3604,滨州市,第二水厂,细颗粒物(PM2.5),125,151,115,87,69,92,92,158,146,40,35,13,14,0.9,0.8
2026-03-25T2200,1630A,117.9789,37.3931,滨州市,北中新校,细颗粒物(PM2.5),126,141,104,88,68,103,103,157,145,38,34,16,12,0.7,0.4
2026-03-25T2200,3514A,117.9379,37.3959,滨州市,中海酒店,细颗粒物(PM2.5),124,144,108,86,66,94,94,153,134,43,35,17,14,0.8,0.7
2026-03-25T2200,3515A,117.9381509,37.35547456,滨州市,开发区一中,细颗粒物(PM2.5),150,168,122,114,73,82,82,141,128,46,40,14,14,0.8,0.7
2026-03-25T2200,3516A,118.0914,37.6938,滨州市,金海六路,细颗粒物(PM2.5),135,149,115,98,74,105,105,149,141,45,40,11,12,0.7,0.6
2026-03-25T2200,4028A,117.9955,37.3752,滨州市,滨州市西街道办事处,NA,NA,NA,116,NA,68,72,72,154,133,38,31,13,13,0.3,1
2026-03-25T2200,2311A,115.8071,33.8399,亳州市,污水处理厂,NA,NA,81,98,40,58,NA,NA,129,123,16,16,6,8,0.2,0.2
2026-03-25T2200,2312A,115.7789,33.8519,亳州市,三国揽胜宫,颗粒物(PM10),71,79,94,38,57,92,92,124,113,14,12,6,8,0.1,0.2
2026-03-25T2200,3332A,115.7631,33.803,亳州市,亳州学院,颗粒物(PM10),68,75,93,37,58,95,95,124,114,11,11,6,11,0.2,0.3
2026-03-25T2200,2693A,82.0482,44.8553,博尔塔拉蒙古自治州,市党校,颗粒物(PM10),115,159,256,10,17,88,88,91,91,8,4,4,2,0.1,0.1
2026-03-25T2200,2694A,82.0805,44.8966,博尔塔拉蒙古自治州,市环保局,颗粒物(PM10),105,133,237,17,20,78,78,82,82,14,14,3,3,0.4,0.4
2026-03-25T2200,1071A,116.8733,38.2922,沧州市,沧县城建局,细颗粒物(PM2.5),178,167,137,134,95,105,105,157,144,30,26,7,7,0.6,0.5
2026-03-25T2200,1072A,116.8462,38.3189,沧州市,电视转播站,细颗粒物(PM2.5),178,162,135,134,105,97,97,160,147,30,24,6,5,0.7,0.6
2026-03-25T2200,1073A,116.8588,38.3161,沧州市,市环保局,细颗粒物(PM2.5),242,NA,145,192,103,98,98,164,151,31,22,11,10,0.7,0.6
2026-03-25T2200,3324A,116.8011,38.294,沧州市,河北水利电力学院,细颗粒物(PM2.5),175,183,150,132,106,96,96,143,132,28,27,13,12,0.7,0.6
2026-03-25T2200,2622A,97.1813,31.1289,昌都市,昌都监测站,,39,14,16,3,5,124,124,128,128,6,11,5,4,0.7,0.7
2026-03-25T2200,3719A,97.1707,31.1428,昌都市,昌都会议中心,,40,16,12,10,6,127,127,139,138,5,6,4,4,0.4,0.4
2026-03-25T2200,2692A,87.2722,44.0298,昌吉回族自治州,新区政务中心,,25,12,16,12,11,77,77,84,84,16,10,5,5,0.4,0.3
2026-03-25T2200,3613A,87.3069,44.0093,昌吉回族自治州,亚心广场,NA,NA,NA,19,NA,7,NA,NA,91,90,12,9,8,8,NA,0.3
2026-03-25T2200,4164A,87.2057,43.9289,昌吉回族自治州,财政所,,36,36,32,14,7,66,66,86,82,13,5,7,7,0.2,0.2
2026-03-25T2200,1120A,125.2874,43.9024,长春市,客车厂,细颗粒物(PM2.5),262,244,130,212,103,23,23,138,85,107,36,16,12,1.9,1
2026-03-25T2200,1121A,125.2943,43.8508,长春市,邮电学院,细颗粒物(PM2.5),265,321,152,215,110,16,16,145,99,115,29,11,10,1.6,0.9
2026-03-25T2200,1122A,125.3648,43.8745,长春市,劳动公园,细颗粒物(PM2.5),224,261,135,174,99,10,10,144,96,102,26,12,10,2.1,0.9
2026-03-25T2200,1123A,125.3233,43.8781,长春市,园林处,细颗粒物(PM2.5),254,229,138,204,106,20,20,147,96,88,26,12,10,2.1,0.8
2026-03-25T2200,1124A,125.4604,43.7904,长春市,净月潭,细颗粒物(PM2.5),251,224,130,201,99,76,76,146,121,47,20,8,8,1.3,0.8
2026-03-25T2200,1126A,125.38,43.8422,长春市,经开区环卫处,细颗粒物(PM2.5),242,271,138,192,102,3,3,149,98,127,27,9,8,1.8,0.9
2026-03-25T2200,1127A,125.234,43.7761,长春市,高新区管委会,细颗粒物(PM2.5),300,286,138,250,103,11,11,144,93,125,35,11,10,1.8,0.9
2026-03-25T2200,1128A,125.1695,43.83,长春市,岱山公园,细颗粒物(PM2.5),310,277,138,260,107,17,17,138,85,133,43,14,8,1.7,0.8
2026-03-25T2200,4281A,125.334645,43.916281,长春市,北亚泰大街1068号,细颗粒物(PM2.5),263,297,140,213,105,7,7,129,71,111,38,16,12,1.7,0.8
2026-03-25T2200,1335A,113.082,28.2421,长沙市,经开区环保局,颗粒物(PM10),56,58,70,31,42,49,49,72,62,17,27,3,4,0.5,0.6
2026-03-25T2200,1336A,112.8873,28.2202,长沙市,高开区环保局,细颗粒物(PM2.5),68,72,92,44,65,74,74,63,57,11,30,4,5,0.8,0.9
2026-03-25T2200,1337A,113.0785,28.2012,长沙市,马坡岭,细颗粒物(PM2.5),60,47,76,40,53,53,53,75,62,21,30,4,4,0.8,0.8
2026-03-25T2200,1338A,112.9448,28.1894,长沙市,湖南师范大学,"颗粒物(PM10),细颗粒物(PM2.5)",58,61,88,39,60,66,66,70,59,19,24,4,4,1.0,1
2026-03-25T2200,1339A,113.0177,28.1322,长沙市,雨花区环保局,,44,44,81,30,53,51,51,80,62,17,28,3,4,0.8,0.8
2026-03-25T2200,1340A,112.9795,28.2593,长沙市,伍家岭,细颗粒物(PM2.5),94,85,89,57,69,61,61,63,51,18,32,4,4,0.5,0.6
2026-03-25T2200,1341A,113.002,28.1944,长沙市,火车新站,细颗粒物(PM2.5),72,57,89,46,72,89,89,75,61,20,32,4,4,0.7,0.8
2026-03-25T2200,1342A,112.9846,28.1177,长沙市,天心区环保局,细颗粒物(PM2.5),76,68,88,48,78,54,54,68,61,23,35,5,6,0.9,0.9
2026-03-25T2200,1343A,112.8906,28.1307,长沙市,湖南中医药大学,细颗粒物(PM2.5),78,49,69,49,56,74,74,81,70,16,27,5,5,0.7,0.8
2026-03-25T2200,1727A,113.1146,36.1547,长治市,清华站,颗粒物(PM10),57,59,76,27,48,119,119,131,130,12,18,5,5,0.4,0.7
2026-03-25T2200,1730A,113.0887,36.2126,长治市,审计局,颗粒物(PM10),58,61,74,26,52,120,120,132,130,15,24,10,10,0.5,0.7
2026-03-25T2200,1731A,113.0845,36.1856,长治市,长治八中,颗粒物(PM10),70,77,94,32,54,113,113,125,124,17,21,12,11,0.6,0.8
2026-03-25T2200,2845A,113.1561,36.1912,长治市,德盛苑,颗粒物(PM10),64,69,70,35,46,127,127,139,137,15,15,11,10,0.5,0.7
2026-03-25T2200,3568A,113.0603,36.0464,长治市,向阳小学,NA,NA,NA,107,32,49,122,122,144,140,21,19,9,12,0.5,0.7
2026-03-25T2200,3569A,112.8788,36.315,长治市,屯留一中,细颗粒物(PM2.5),96,93,82,58,53,88,88,134,124,29,26,13,9,0.8,0.8
2026-03-25T2200,4189A,113.113092,36.199482,长治市,英华南巷50号,颗粒物(PM10),63,67,80,31,50,127,127,136,135,17,23,8,9,0.7,1
2026-03-25T2200,4190A,113.23666,36.33435,长治市,学府街1号,颗粒物(PM10),64,69,85,27,49,122,122,139,138,13,24,4,9,0.5,1
2026-03-25T2200,1854A,111.696,28.9725,常德市,市二中,细颗粒物(PM2.5),82,58,64,51,37,88,88,88,88,8,14,7,9,1.0,0.9
2026-03-25T2200,3138A,111.7152,29.0288,常德市,武陵区永安,细颗粒物(PM2.5),80,NA,57,50,48,91,91,97,97,13,21,5,6,0.8,0.8
2026-03-25T2200,3139A,111.6891,28.9881,常德市,鼎城区玉霞,细颗粒物(PM2.5),84,NA,49,52,38,80,80,93,93,18,22,7,11,0.9,0.9
2026-03-25T2200,3140A,111.6651,29.0526,常德市,武陵区长庚,细颗粒物(PM2.5),88,NA,54,54,46,93,93,89,89,12,24,6,7,1.0,1
2026-03-25T2200,1196A,119.9524,31.7586,常州市,市监测站,细颗粒物(PM2.5),122,141,92,84,61,9,9,136,104,107,34,10,10,1.4,0.9
2026-03-25T2200,1200A,119.9351,31.703,常州市,武进监测站,细颗粒物(PM2.5),111,104,85,72,55,51,51,128,111,54,25,7,6,1.1,0.8
2026-03-25T2200,3002A,119.9701,31.813,常州市,行政中心,细颗粒物(PM2.5),118,116,88,79,63,63,63,140,124,57,29,5,6,0.9,0.6
2026-03-25T2200,3003A,120.0434,31.7726,常州市,经开区,细颗粒物(PM2.5),131,146,94,94,56,40,40,149,129,83,26,11,9,1.2,0.8
2026-03-25T2200,3010A,119.8919,31.7892,常州市,钟楼,细颗粒物(PM2.5),111,102,85,72,57,37,37,142,119,81,36,7,7,0.9,0.6
2026-03-25T2200,3429A,119.8595,31.706,常州市,武进经发区,细颗粒物(PM2.5),117,97,68,78,56,62,62,136,123,60,28,13,9,1.3,1.1
2026-03-25T2200,3430A,119.5812,31.7256,常州市,金坛城区,NA,NA,NA,65,NA,62,111,111,129,127,24,18,8,8,0.9,0.9
2026-03-25T2200,4089A,119.9551,31.863,常州市,崇义南街5-H号,细颗粒物(PM2.5),117,130,81,78,58,2,2,146,104,99,36,6,7,1.2,0.8
2026-03-25T2200,2220A,120.4318,41.588,朝阳市,西梁,颗粒物(PM10),87,101,104,46,81,14,14,101,78,66,23,13,11,0.8,0.7
2026-03-25T2200,2221A,120.452,41.565,朝阳市,河畔小区,,33,32,79,23,69,58,58,119,94,32,18,8,9,0.6,0.8
2026-03-25T2200,2222A,120.4176,41.5648,朝阳市,八里堡,细颗粒物(PM2.5),102,96,90,62,80,16,16,106,82,65,23,10,10,0.9,0.8
2026-03-25T2200,3026A,116.6179,23.6608,潮州市,市政府,细颗粒物(PM2.5),84,NA,61,52,40,120,120,129,127,15,16,5,5,0.6,0.7
2026-03-25T2200,4036A,116.646,23.676,潮州市,金山,细颗粒物(PM2.5),90,NA,48,55,36,110,110,133,131,19,17,6,3,0.5,0.5
2026-03-25T2200,2473A,113.0116,25.8228,郴州市,市职中,,49,45,41,34,35,49,49,83,75,18,13,12,6,0.7,0.7
2026-03-25T2200,2475A,113.0381,25.8074,郴州市,市审计局,,46,46,40,23,33,56,56,78,76,9,10,25,7,/,/
2026-03-25T2200,2476A,113.0348,25.7757,郴州市,市环保局,颗粒物(PM10),63,68,47,30,33,44,44,77,70,22,13,20,10,0.5,0.4
2026-03-25T2200,4252A,113.0138,25.8011,郴州市,好美居路49号,细颗粒物(PM2.5),58,NA,37,39,37,55,55,88,82,18,14,31,9,/,/
2026-03-25T2200,1431A,103.9727,30.7242,成都市,金泉两河,,46,46,54,22,34,32,32,70,59,44,26,1,1,0.5,0.4
2026-03-25T2200,1432A,104.1423,30.6765,成都市,十里店,颗粒物(PM10),52,52,61,26,34,42,42,73,61,39,29,4,4,0.5,0.4
2026-03-25T2200,1433A,104.0594,30.5765,成都市,三瓦窑,颗粒物(PM10),55,56,55,26,34,45,45,70,65,30,26,2,2,1.0,0.8
2026-03-25T2200,1434A,104.1122,30.6306,成都市,沙河铺,,49,49,63,27,36,35,35,63,54,48,36,5,5,0.6,0.5
2026-03-25T2200,2880A,104.0219,30.6561,成都市,大石西路,颗粒物(PM10),56,58,60,24,35,35,35,60,52,41,28,7,7,0.7,0.6
2026-03-25T2200,3136A,104.2724,30.559,成都市,龙泉驿区区政府,,50,41,42,35,30,46,46,83,72,22,15,6,6,0.6,0.5
2026-03-25T2200,3357A,104.0028,30.6891,成都市,金博路,颗粒物(PM10),52,52,47,24,36,28,28,67,55,52,34,4,5,0.7,0.7
2026-03-25T2200,3359A,104.056,30.5228,成都市,华阳,,48,48,52,28,35,39,39,79,71,46,28,3,3,0.8,0.6
2026-03-25T2200,3488A,104.387954,30.746684,成都市,青石路225号,细颗粒物(PM2.5),76,76,50,48,34,11,11,81,57,48,22,5,5,1.0,0.7
2026-03-25T2200,3489A,104.0788,30.4054,成都市,科学城,,38,37,54,26,31,43,43,79,75,26,23,7,8,0.8,0.8
2026-03-25T2200,4011A,103.8505,30.6946,成都市,光华大道三段,,37,37,53,24,34,67,67,68,65,22,28,3,3,0.5,0.5
2026-03-25T2200,4144A,104.3257,30.6406,成都市,八角井街185号,"颗粒物(PM10),细颗粒物(PM2.5)",60,64,51,40,34,17,17,71,55,32,20,4,4,0.7,0.6
2026-03-25T2200,4224A,104.2433276,30.53529463,成都市,鲸龙路1057号,颗粒物(PM10),54,55,60,35,33,34,34,83,64,44,25,6,6,0.6,0.5
2026-03-25T2200,1062A,117.9531,40.908,承德市,铁路,颗粒物(PM10),67,73,134,36,78,58,58,119,80,17,29,4,5,0.5,0.6
2026-03-25T2200,1063A,117.9397,40.9763,承德市,中国银行,颗粒物(PM10),65,70,111,28,65,39,39,117,75,29,25,2,3,0.5,0.6
2026-03-25T2200,4073A,117.9462,40.95,承德市,杏林街1号,细颗粒物(PM2.5),68,68,118,44,76,47,47,132,95,33,24,4,5,0.5,0.6
2026-03-25T2200,4274A,117.7994,40.9605,承德市,滨河大街98号,,43,43,98,20,77,45,45,120,86,26,27,4,9,0.3,0.6
2026-03-25T2200,2314A,117.4698,30.6617,池州市,池州学院,细颗粒物(PM2.5),76,68,40,48,28,82,82,136,120,50,30,5,4,0.7,0.9
2026-03-25T2200,3237A,117.4918,30.6617,池州市,展览馆,,50,50,38,33,27,63,63,132,104,46,29,3,3,0.7,1
2026-03-25T2200,3333A,117.5626,30.695,池州市,第八中学,细颗粒物(PM2.5),62,61,43,41,29,75,75,132,111,45,32,4,4,0.7,0.8
2026-03-25T2200,3334A,117.5037,30.6242,池州市,第十二中学,颗粒物(PM10),60,63,42,32,25,68,68,130,105,53,39,4,3,0.5,0.8
2026-03-25T2200,1744A,118.9229,42.2816,赤峰市,松山一中,细颗粒物(PM2.5),62,61,59,41,51,16,16,93,67,67,20,6,6,0.8,0.5
2026-03-25T2200,1745A,118.9588,42.2733,赤峰市,哈达街,颗粒物(PM10),63,67,67,40,39,21,21,86,60,60,25,20,18,0.9,0.6
2026-03-25T2200,1746A,118.8792,42.2551,赤峰市,天义路,颗粒物(PM10),54,55,54,36,36,24,24,109,79,57,17,8,7,0.6,0.4
2026-03-25T2200,3058A,119.2656,42.0356,赤峰市,银河街,NA,NA,57,82,30,53,47,47,102,85,NA,16,120,15,0.7,0.6
2026-03-25T2200,3286A,118.9359,42.3146,赤峰市,桥北物流园区,细颗粒物(PM2.5),84,66,56,52,36,14,14,98,70,72,20,4,4,0.5,0.4
2026-03-25T2200,2521A,107.3473,22.4137,崇左市,市环保局江州分局,颗粒物(PM10),53,53,53,35,30,69,69,106,99,6,9,6,8,0.6,0.5
2026-03-25T2200,4256A,107.375,22.3736,崇左市,石景林东路7号,细颗粒物(PM2.5),52,49,42,36,28,82,82,114,111,13,9,6,5,0.6,0.6
2026-03-25T2200,3207A,118.31131,32.3033,滁州市,市政府原办公楼,细颗粒物(PM2.5),88,85,69,54,55,37,37,134,111,68,28,5,5,0.8,0.5
2026-03-25T2200,3331A,118.3268,32.2633,滁州市,图书馆,颗粒物(PM10),67,73,77,41,45,67,67,128,118,39,25,9,9,0.5,0.6
2026-03-25T2200,4101A,118.3196,32.3335,滁州市,银山路666号,颗粒物(PM10),79,90,59,37,45,39,39,134,112,56,25,10,10,0.7,0.6
2026-03-25T2200,4102A,118.3426,32.2979,滁州市,黄山路555号,颗粒物(PM10),94,111,88,56,53,59,59,142,121,57,34,7,6,0.8,0.8
2026-03-25T2200,2606A,101.5379,25.0492,楚雄彝族自治州,市经济开发区,,42,36,38,29,28,103,103,110,108,9,18,4,4,0.6,0.6
2026-03-25T2200,4153A,101.5536,25.0343,楚雄彝族自治州,团结路562号,,37,27,33,22,23,116,116,117,117,6,12,2,2,0.4,0.4
2026-03-25T2200,2549A,107.5087,31.2186,达州市,市环境监测站,,50,50,32,17,9,2,2,17,10,41,29,8,6,0.5,0.4
2026-03-25T2200,2550A,107.4988,31.2132,达州市,凤凰小区,,48,48,29,18,10,2,2,20,12,44,29,9,5,0.7,0.5
2026-03-25T2200,2551A,107.5081,31.1987,达州市,达县机关宾馆,颗粒物(PM10),51,51,30,22,13,2,2,21,12,36,31,7,5,0.7,0.6
2026-03-25T2200,2552A,107.4644,31.2124,达州市,市政中心,颗粒物(PM10),55,56,39,17,10,4,4,21,16,46,32,7,5,0.9,0.7
2026-03-25T2200,2614A,100.2168,25.5818,大理白族自治州,大理市环境监测站,,32,24,24,20,20,101,101,101,101,4,5,7,7,0.4,0.4
2026-03-25T2200,2615A,100.1542,25.7055,大理白族自治州,大理古城,,35,18,21,18,18,112,112,111,111,3,5,4,5,0.3,0.3
2026-03-25T2200,1109A,121.6119,38.974,大连市,甘井子,细颗粒物(PM2.5),145,149,112,109,88,45,45,128,100,67,41,12,12,0.7,0.8
2026-03-25T2200,1110A,121.565,38.9509,大连市,周水子,细颗粒物(PM2.5),140,136,110,103,87,60,60,138,102,61,43,12,11,1.1,0.9
2026-03-25T2200,1111A,121.5637,38.8849,大连市,星海三站,细颗粒物(PM2.5),133,125,105,96,85,56,56,94,87,44,34,9,7,0.7,0.8
2026-03-25T2200,1112A,121.6301,38.9117,大连市,青泥洼桥,细颗粒物(PM2.5),130,133,110,92,82,62,62,134,116,57,31,8,9,1.0,0.9
2026-03-25T2200,1113A,121.6248,38.8643,大连市,傅家庄,细颗粒物(PM2.5),111,92,101,72,80,96,96,116,112,34,34,12,11,0.9,0.9
2026-03-25T2200,1114A,121.5117,38.8636,大连市,七贤岭,细颗粒物(PM2.5),130,130,101,93,79,93,93,127,101,38,33,8,9,0.9,0.9
2026-03-25T2200,1116A,121.7507,39.1339,大连市,金州,细颗粒物(PM2.5),159,184,115,121,85,53,53,169,148,63,31,15,14,1.2,0.9
2026-03-25T2200,1117A,121.7811,39.0495,大连市,开发区,细颗粒物(PM2.5),138,128,120,101,96,16,16,144,111,94,50,8,9,0.9,0.9
2026-03-25T2200,1118A,121.9762,39.0631,大连市,双D港,细颗粒物(PM2.5),124,102,108,86,88,37,37,105,78,53,36,6,7,1.0,1
2026-03-25T2200,4082A,121.2548,38.8188,大连市,旅顺,细颗粒物(PM2.5),126,109,99,88,80,91,91,147,130,36,28,8,8,0.7,0.7
2026-03-25T2200,1789A,124.8085,46.0381,大庆市,大同区,细颗粒物(PM2.5),169,187,147,128,94,65,65,123,115,59,19,9,12,0.9,0.4
2026-03-25T2200,1790A,125.1166,46.5255,大庆市,龙凤区,细颗粒物(PM2.5),111,89,152,72,102,84,84,127,110,25,23,7,7,0.4,0.6
2026-03-25T2200,1791A,124.8894,46.4007,大庆市,红岗区,细颗粒物(PM2.5),132,123,116,95,79,49,49,109,95,44,16,14,13,1.1,0.7
2026-03-25T2200,1792A,125.1391,46.578,大庆市,萨尔图区,细颗粒物(PM2.5),110,75,168,70,99,90,90,121,106,19,25,7,9,0.7,0.8
2026-03-25T2200,1793A,124.9026,46.6217,大庆市,让胡路区,细颗粒物(PM2.5),122,106,140,84,91,68,68,115,96,30,19,8,7,0.7,0.8
2026-03-25T2200,3481A,125.127,46.6277,大庆市,萨区政府监测点,细颗粒物(PM2.5),110,94,185,70,104,84,84,116,101,8,14,12,11,0.4,0.6
2026-03-25T2200,1723A,113.2926,40.0759,大同市,云冈宾馆,颗粒物(PM10),78,88,89,29,34,64,64,120,103,37,26,9,12,0.7,1
2026-03-25T2200,1724A,113.3437,40.0921,大同市,大同大学,颗粒物(PM10),90,106,101,36,31,38,38,129,104,80,38,10,12,1.0,0.8
2026-03-25T2200,1725A,113.2637,40.129,大同市,安家小村,颗粒物(PM10),63,68,111,36,42,60,60,119,109,42,35,19,26,0.8,2.8
2026-03-25T2200,3282A,113.3399,40.0586,大同市,大同市卫生学校,颗粒物(PM10),73,82,106,33,40,51,51,132,110,62,34,6,11,0.7,0.6
2026-03-25T2200,3565A,113.1371,40.1122,大同市,云冈站,颗粒物(PM10),74,83,86,19,24,22,22,118,87,61,38,10,15,0.6,0.6
2026-03-25T2200,3566A,113.1186,40.2556,大同市,图书馆,颗粒物(PM10),61,65,68,38,24,56,56,119,100,15,11,4,6,0.9,0.8
2026-03-25T2200,3567A,113.5931,40.0459,大同市,区一中,颗粒物(PM10),67,73,99,34,44,71,71,132,112,15,20,6,18,0.4,0.6
2026-03-25T2200,4199A,113.2798248,40.09972476,大同市,魏都大道141号,颗粒物(PM10),91,107,122,33,37,70,70,123,102,35,37,10,15,0.6,1.3
2026-03-25T2200,2269A,124.1068,50.4091,大兴安岭地区,科技局,,31,31,61,9,43,72,72,88,82,4,8,8,8,0.6,0.7
2026-03-25T2200,3663A,124.117,50.4279,大兴安岭地区,红旗社区,,19,14,50,8,45,60,60,89,82,12,15,9,8,0.7,0.8
2026-03-25T2200,1600A,124.33,40.0625,丹东市,江湾东路,细颗粒物(PM2.5),98,83,137,59,111,78,78,124,92,22,28,8,12,0.7,1.3
2026-03-25T2200,1601A,124.4242,40.1513,丹东市,临江后街,细颗粒物(PM2.5),115,116,126,76,105,50,50,115,84,23,23,4,8,1.8,1.2
2026-03-25T2200,1602A,124.3935,40.1461,丹东市,元宝山,细颗粒物(PM2.5),126,131,136,88,101,40,40,118,81,32,27,6,8,1.4,1.2
2026-03-25T2200,1603A,124.3634,40.1093,丹东市,民主桥,细颗粒物(PM2.5),76,76,133,48,102,73,73,124,94,18,30,4,10,0.6,1.1
2026-03-25T2200,3541A,109.5726195,19.51688767,儋州市,第一中学子站,,28,28,30,15,17,64,64,71,71,4,5,6,6,0.4,0.5
2026-03-25T2200,3542A,109.5567,19.5187,儋州市,东坡学校子站,,31,31,31,17,18,66,66,77,77,4,5,6,6,0.4,0.4
2026-03-25T2200,2616A,98.5611,24.4273,德宏傣族景颇族自治州,德宏州监测站,细颗粒物(PM2.5),102,75,39,62,38,29,29,97,87,28,16,8,8,0.9,0.6
2026-03-25T2200,3677A,98.5887,24.4366,德宏傣族景颇族自治州,芒市人民政府综合楼,细颗粒物(PM2.5),70,73,57,45,33,51,51,88,81,17,17,3,2,0.9,0.8
2026-03-25T2200,1901A,104.424,31.1209,德阳市,东山公园,,28,28,40,13,26,65,65,68,60,8,14,2,3,0.6,0.6
2026-03-25T2200,1902A,104.3827,31.1318,德阳市,西小区,,48,48,53,13,26,66,66,70,62,14,19,2,4,0.5,0.7
2026-03-25T2200,1904A,104.3553,31.1091,德阳市,耐火材料厂,,47,47,51,12,31,71,71,70,66,14,22,1,2,0.5,0.5
2026-03-25T2200,4145A,104.4144,31.1495,德阳市,市林业局,,25,25,40,15,27,55,55,67,49,16,22,5,6,0.5,0.6
2026-03-25T2200,1622A,116.3034,37.4675,德州市,儿童乐园,细颗粒物(PM2.5),128,166,147,90,89,104,104,148,140,30,23,16,14,0.8,0.8
2026-03-25T2200,1624A,116.2992,37.4449,德州市,监理站,细颗粒物(PM2.5),125,163,148,87,89,105,105,153,144,38,27,8,8,0.9,0.8
2026-03-25T2200,3066A,116.2722,37.438,德州市,九衢泉纯净水厂,细颗粒物(PM2.5),132,151,139,95,91,94,94,136,126,41,32,9,7,0.8,0.7
2026-03-25T2200,3371A,116.3693,37.44,德州市,开发区人民医院,细颗粒物(PM2.5),125,151,144,87,90,110,110,143,137,26,25,11,10,0.7,0.7
2026-03-25T2200,3511A,116.5687,37.3331,德州市,陵城艺术中心,细颗粒物(PM2.5),127,129,128,89,95,92,92,140,132,21,21,10,12,0.8,0.8
2026-03-25T2200,4292A,116.352738,37.420875,德州市,新河东路,细颗粒物(PM2.5),124,161,144,86,88,94,94,131,124,24,24,14,13,0.8,0.7
2026-03-25T2200,2621A,99.7054,27.8319,迪庆藏族自治州,迪庆州站,,33,20,16,12,9,104,104,103,103,8,7,5,4,0.6,0.5
2026-03-25T2200,3180A,99.7122,27.8129,迪庆藏族自治州,质量技术监督局,,35,14,16,7,8,109,109,114,111,11,8,6,6,0.5,0.5
2026-03-25T2200,4257A,104.6092,35.5962,定西市,将台街,颗粒物(PM10),61,65,72,22,33,90,90,116,111,15,18,11,11,0.5,0.5
2026-03-25T2200,4309A,104.6159,35.5701,定西市,正龙路62号,颗粒物(PM10),58,60,71,22,29,86,86,112,108,16,13,11,5,0.5,0.4
2026-03-25T2200,4071A,114.9883,38.5232,定州市,交通局,细颗粒物(PM2.5),127,184,151,89,75,64,64,151,129,59,27,6,6,0.8,0.7
2026-03-25T2200,4072A,115.0045,38.5136,定州市,第五中学,细颗粒物(PM2.5),128,187,162,90,75,53,53,145,119,71,31,11,10,0.7,0.6
2026-03-25T2200,1390A,113.7943,23.0132,东莞市,东城石井,,50,50,48,30,31,70,70,219,184,34,30,4,4,0.6,0.6
2026-03-25T2200,1391A,113.7384,22.9659,东莞市,南城西平,,30,30,46,16,30,55,55,180,152,30,29,5,5,0.6,0.6
2026-03-25T2200,3319A,113.7283,23.041,东莞市,万江金泰,,39,32,59,27,61,68,68,200,171,26,33,6,7,0.7,0.7
2026-03-25T2200,4129A,113.8666,23.1062,东莞市,裕兴路,颗粒物(PM10),52,52,62,28,36,66,66,207,179,37,32,6,7,0.8,0.8
2026-03-25T2200,4130A,114.0076,22.9739,东莞市,教育路1号,NA,NA,57,66,30,34,66,66,215,174,NA,36,7,6,0.8,0.8
2026-03-25T2200,4131A,113.7981,22.8124,东莞市,长怡路1号,,44,44,51,22,28,48,48,175,136,35,28,6,5,0.7,0.7
2026-03-25T2200,1666A,118.6612,37.4313,东营市,市环保局,细颗粒物(PM2.5),131,149,110,94,68,NA,NA,178,NA,63,39,16,17,0.7,0.7
2026-03-25T2200,3036A,118.6903,37.4337,东营市,开发区管委会,细颗粒物(PM2.5),133,146,110,96,73,92,92,167,154,51,43,15,18,0.7,0.7
2026-03-25T2200,3365A,118.5721,37.5654,东营市,垦利区民丰路,细颗粒物(PM2.5),126,144,108,88,70,98,98,184,159,45,36,7,6,1.0,1
2026-03-25T2200,3498A,118.5063,37.8606,东营市,河口城区,细颗粒物(PM2.5),140,149,124,104,77,127,127,172,163,23,32,11,13,0.9,0.9
2026-03-25T2200,3646A,118.4979,37.4623,东营市,胜利站,细颗粒物(PM2.5),127,146,116,89,69,94,94,154,128,41,42,13,14,1.0,0.9
2026-03-25T2200,3734A,118.5753,37.4405,东营市,理想之城,细颗粒物(PM2.5),121,156,122,83,70,32,32,178,134,107,55,12,11,1.1,1.1
2026-03-25T2200,1591A,110.0024,39.8127,鄂尔多斯市,综合楼,颗粒物(PM10),62,66,58,31,20,97,97,126,118,33,19,6,6,0.5,0.5
2026-03-25T2200,1592A,109.9485,39.8259,鄂尔多斯市,巴音孟克林场办事处,颗粒物(PM10),70,78,51,40,20,80,80,132,116,49,17,8,5,0.4,0.3
2026-03-25T2200,1593A,109.7734,39.5987,鄂尔多斯市,康泽苑,,41,41,66,14,21,95,95,136,122,15,15,4,6,0.3,0.2
2026-03-25T2200,1594A,109.8121,39.5987,鄂尔多斯市,华泰汽车城,,46,46,64,22,20,38,38,139,108,60,22,5,5,0.5,0.3
2026-03-25T2200,1595A,109.9734,39.7884,鄂尔多斯市,奥林花园,颗粒物(PM10),60,63,63,19,17,93,93,127,110,33,32,6,5,0.4,0.3
2026-03-25T2200,2436A,114.894,30.3989,鄂州市,市政府,细颗粒物(PM2.5),86,90,93,53,57,67,67,109,96,34,23,8,10,0.5,0.5
2026-03-25T2200,2437A,114.8986,30.3714,鄂州市,赵家坝,细颗粒物(PM2.5),88,94,97,54,56,63,63,128,112,30,13,9,8,1.0,0.9
2026-03-25T2200,3654A,114.8093,30.4091,鄂州市,精准医疗中心,细颗粒物(PM2.5),105,92,94,65,61,74,74,135,118,38,14,59,13,1.2,0.7
2026-03-25T2200,2454A,109.4978,30.2979,恩施土家族苗族自治州,湖北民院,,26,26,22,14,13,19,19,31,26,22,15,6,6,0.9,0.8
2026-03-25T2200,3549A,109.5061,30.3771,恩施土家族苗族自治州,龙凤新区,,20,20,13,10,9,9,9,33,20,12,6,7,7,0.6,0.5
2026-03-25T2200,2499A,108.3411,21.6159,防城港市,沙万,NA,NA,NA,76,26,19,62,62,61,61,NA,16,5,7,0.5,0.5
2026-03-25T2200,2500A,108.3515,21.7733,防城港市,防城档案局,颗粒物(PM10),53,53,40,30,22,56,56,75,70,8,11,7,12,0.5,0.7
2026-03-25T2200,2501A,108.3506,21.6414,防城港市,大海花园,,36,NA,34,25,20,69,69,66,66,20,20,7,10,0.4,0.5
2026-03-25T2200,1371A,113.1293,23.0065,佛山市,湾梁,,44,44,47,25,33,82,82,186,173,17,27,/,/,/,/
2026-03-25T2200,1372A,113.1082,23.0477,佛山市,华材职中,,44,44,48,30,38,88,88,180,171,20,29,7,8,0.5,0.4
2026-03-25T2200,1373A,113.1439,23.045,佛山市,南海气象局,颗粒物(PM10),53,54,50,34,37,82,82,171,160,19,29,/,/,/,/
2026-03-25T2200,1374A,113.2879,22.8094,佛山市,顺德苏岗,,46,46,46,23,31,70,70,162,146,18,23,/,/,0.6,0.6
2026-03-25T2200,1376A,112.8384,22.8678,佛山市,高明孔堂,,43,43,40,24,26,74,74,139,127,16,17,/,/,/,/
2026-03-25T2200,1377A,112.8835,23.1584,佛山市,三水监测站,,45,41,67,31,46,78,78,135,124,29,43,4,7,0.7,0.5
2026-03-25T2200,1378A,112.8668,23.185,佛山市,三水云东海,颗粒物(PM10),69,76,75,35,44,93,93,156,145,31,36,/,/,/,/
2026-03-25T2200,3625A,113.2568,22.7629,佛山市,容桂街道办,,41,41,44,23,33,61,61,165,145,24,30,/,/,/,/
2026-03-25T2200,1282A,119.2681,26.0506,福州市,师大,,33,21,34,17,27,103,103,101,101,19,24,3,4,0.3,0.4
2026-03-25T2200,1283A,119.2983,26.1028,福州市,五四北路,,30,20,25,11,24,93,93,100,97,17,22,4,4,0.4,0.6
2026-03-25T2200,1284A,119.2648,26.0769,福州市,杨桥西路,,34,21,32,19,27,106,106,105,104,16,20,3,4,/,/
2026-03-25T2200,3048A,119.5799,26.0937,福州市,九龙,,38,20,22,15,21,121,121,117,117,12,15,5,4,0.4,0.4
2026-03-25T2200,3526A,119.5188,25.9666,福州市,吴航,,36,21,30,17,22,114,114,110,110,14,20,4,4,0.7,0.8
2026-03-25T2200,4104A,119.3106,26.0648,福州市,路通桥巷6号,,32,24,36,22,29,94,94,96,96,15,20,/,/,/,/
2026-03-25T2200,1755A,123.7974,41.8494,抚顺市,望花区,细颗粒物(PM2.5),139,158,113,102,63,40,40,140,96,59,26,18,22,1.2,1
2026-03-25T2200,1756A,123.9161,41.8827,抚顺市,顺城区,细颗粒物(PM2.5),170,174,87,129,64,10,10,138,79,78,34,14,13,1.5,1
2026-03-25T2200,1757A,124.0437,41.8615,抚顺市,东洲区,细颗粒物(PM2.5),136,177,104,99,63,29,29,142,98,46,21,12,10,1.2,0.9
2026-03-25T2200,1758A,123.9246,41.8638,抚顺市,新抚区,"颗粒物(PM10),细颗粒物(PM2.5)",117,164,115,78,64,5,5,148,91,80,30,13,12,1.2,0.9
2026-03-25T2200,1759A,124.0972,41.8961,抚顺市,大伙房水库,细颗粒物(PM2.5),103,100,92,63,60,86,86,152,123,17,14,9,10,0.7,0.6
2026-03-25T2200,1760A,123.708,41.8386,抚顺市,沈抚新城,细颗粒物(PM2.5),163,177,108,124,64,10,10,132,81,101,32,17,11,1.4,0.8
2026-03-25T2200,2377A,116.3544,27.9833,抚州市,市站,颗粒物(PM10),51,51,50,32,38,95,95,118,110,7,10,5,9,1.0,0.9
2026-03-25T2200,2378A,116.3562,27.9631,抚州市,血防站,细颗粒物(PM2.5),54,47,48,37,36,90,90,118,110,14,15,6,7,0.8,0.9
2026-03-25T2200,2379A,116.3561,28.0007,抚州市,采茶剧团,颗粒物(PM10),53,54,46,36,35,87,87,112,103,10,12,17,11,0.8,0.7
2026-03-25T2200,2380A,116.3854,27.9648,抚州市,医学分院,颗粒物(PM10),59,62,53,30,31,100,100,118,112,7,11,5,7,1.2,1.1
2026-03-25T2200,2207A,121.6095,41.9978,阜新市,工业园区,颗粒物(PM10),92,108,82,55,58,16,16,97,71,62,25,12,11,0.9,0.6
2026-03-25T2200,2208A,121.6567,42.0188,阜新市,长青街,,48,48,68,20,55,31,31,97,81,39,21,6,9,0.6,0.6
2026-03-25T2200,2209A,121.6672,42.07,阜新市,农业园区,,27,26,86,3,51,85,85,97,94,12,18,4,7,0.4,0.6
2026-03-25T2200,2211A,121.6343,42.0455,阜新市,玉龙新城,颗粒物(PM10),89,104,89,43,62,9,9,96,64,69,27,10,11,0.9,0.7
2026-03-25T2200,2301A,115.8276,32.8929,阜阳市,市监测站,颗粒物(PM10),65,70,95,28,55,74,74,126,106,26,20,6,6,0.4,0.5
2026-03-25T2200,2303A,115.8551,32.8606,阜阳市,开发区,颗粒物(PM10),73,82,110,29,55,79,79,127,114,26,21,6,6,0.5,0.5
2026-03-25T2200,2875A,115.783962,32.889217,阜阳市,阜阳职业技术学院,颗粒物(PM10),63,67,88,21,46,94,94,136,127,21,22,8,8,0.4,0.6
2026-03-25T2200,3468A,115.79,32.8614,阜阳市,市规划展馆,颗粒物(PM10),64,69,91,27,52,104,104,136,125,21,17,9,8,0.4,0.5
2026-03-25T2200,3469A,115.835101,32.918568,阜阳市,枣园社区,颗粒物(PM10),63,68,93,32,59,87,87,130,113,22,34,5,6,0.5,0.4
2026-03-25T2200,2669A,102.9097,34.9841,甘南藏族自治州,州政府,,39,39,37,24,22,84,84,95,89,6,8,4,5,0.3,0.3
2026-03-25T2200,3380A,102.8915,34.9618,甘南藏族自治州,甘肃民族师范学院,,34,28,35,20,17,108,108,121,116,6,11,1,1,0.4,0.4
2026-03-25T2200,2570A,101.96,30.048,甘孜藏族自治州,水桥子,,18,18,9,6,2,38,38,74,66,25,9,6,6,0.2,0.2
2026-03-25T2200,3065A,101.9534,29.9976,甘孜藏族自治州,州环保局,,16,14,8,7,4,39,39,76,68,32,12,4,5,0.4,0.3
2026-03-25T2200,2363A,114.9368,25.8663,赣州市,地委,,21,21,20,12,11,44,44,84,76,18,11,3,3,0.8,0.9
2026-03-25T2200,2364A,114.946,25.8483,赣州市,气象台,,26,25,25,18,15,51,51,91,81,22,14,5,6,0.9,0.9
2026-03-25T2200,2365A,114.932,25.8332,赣州市,市图书馆,,25,25,19,17,11,53,53,88,81,16,10,4,4,1.1,1.1
2026-03-25T2200,2366A,114.8905,25.8472,赣州市,华坚鞋城,,24,24,22,16,12,54,54,83,75,12,11,5,6,0.6,0.7
2026-03-25T2200,3109A,115.0094,25.8614,赣州市,赣县区卫计委,,28,28,18,12,10,29,29,81,69,22,12,2,3,1.0,1.1
2026-03-25T2200,2684A,106.2753,36.0057,固原市,监测站,颗粒物(PM10),53,54,81,26,32,90,90,106,104,14,28,10,10,0.4,0.5
2026-03-25T2200,2685A,106.2384,36.0189,固原市,新区,颗粒物(PM10),56,58,94,27,32,62,62,109,100,33,26,7,8,0.6,0.6
2026-03-25T2200,2544A,106.6307,30.4577,广安市,市委,NA,NA,19,23,15,17,45,45,47,47,12,16,5,6,NA,0.6
2026-03-25T2200,2545A,106.6266,30.4662,广安市,友谊中学,,18,18,20,12,13,35,35,52,49,11,13,6,6,0.6,0.8
2026-03-25T2200,2547A,106.6386,30.4551,广安市,广电花园,,22,22,25,15,16,46,46,46,46,13,16,4,4,0.8,0.8
2026-03-25T2200,2902A,106.6347,30.4868,广安市,北辰小学,,22,18,23,15,16,44,44,46,46,10,12,6,6,0.8,0.8
2026-03-25T2200,2524A,105.8211,32.4444,广元市,老城,,29,29,38,17,17,4,4,73,64,58,39,10,12,0.9,0.8
2026-03-25T2200,2526A,105.8629,32.429,广元市,监测站,,36,36,36,10,14,36,36,70,65,24,23,9,11,0.6,0.7
2026-03-25T2200,3617A,105.8047,32.4167,广元市,经开区,,31,31,40,17,21,32,32,73,66,35,36,5,9,0.6,0.7
2026-03-25T2200,1345A,113.2346,23.1423,广州市,广雅中学,,50,50,51,32,31,74,74,144,139,29,33,3,3,0.8,0.8
2026-03-25T2200,1346A,113.2611,23.105,广州市,市五中,,45,45,47,31,33,86,86,185,170,32,34,7,7,/,/
2026-03-25T2200,1348A,113.3477,23.0916,广州市,广东商学院,,46,46,51,26,32,69,69,168,152,34,39,6,6,0.7,0.7
2026-03-25T2200,1349A,113.4332,23.105,广州市,市八十六中,,31,31,45,18,22,44,44,174,145,58,49,5,6,/,/
2026-03-25T2200,1350A,113.3506,22.9488,广州市,番禺中学,,39,39,50,25,28,65,65,159,141,29,27,4,4,0.8,0.8
2026-03-25T2200,1351A,113.2147,23.3918,广州市,花都师范,"颗粒物(PM10),细颗粒物(PM2.5)",70,77,72,45,41,118,118,187,181,35,46,6,8,0.9,0.9
2026-03-25T2200,1352A,113.2599,23.1329,广州市,市监测站,,47,47,51,29,30,78,78,154,147,27,31,2,2,/,/
2026-03-25T2200,1353A,113.5618,23.3119,广州市,九龙镇镇龙,颗粒物(PM10),55,56,62,35,40,77,77,180,166,50,38,7,6,0.5,0.5
2026-03-25T2200,1354A,113.2764,23.1544,广州市,麓湖,,48,48,52,31,33,89,89,146,140,29,43,4,4,0.5,0.6
2026-03-25T2200,2846A,113.3209,23.1323,广州市,体育西,颗粒物(PM10),53,54,53,32,29,66,66,164,154,48,40,6,6,0.9,0.8
2026-03-25T2200,3298A,113.5718,23.5493,广州市,从化街口,细颗粒物(PM2.5),104,96,66,64,48,93,93,151,142,42,32,6,6,0.9,0.8
2026-03-25T2200,3299A,113.3463,23.369,广州市,白云竹料,细颗粒物(PM2.5),100,82,71,60,44,97,97,178,170,39,39,4,4,0.8,0.7
2026-03-25T2200,3300A,113.2981,23.2365,广州市,白云嘉禾,颗粒物(PM10),63,67,66,38,36,71,71,178,160,55,45,8,8,/,/
2026-03-25T2200,3301A,113.4256,23.1716,广州市,黄埔科学城,,49,49,52,31,35,54,54,194,174,51,39,6,6,0.5,0.5
2026-03-25T2200,3302A,113.3942,23.0485,广州市,番禺大学城,,43,43,53,23,31,79,79,142,142,36,35,7,7,0.6,0.6
2026-03-25T2200,3303A,113.4923,22.8169,广州市,南沙黄阁,,40,40,47,14,31,60,60,180,139,26,29,6,7,/,/
2026-03-25T2200,3304A,113.534,22.7893,广州市,南沙街,,34,34,45,12,28,60,60,154,121,15,21,8,9,0.5,0.5
2026-03-25T2200,3443A,113.2905,23.5541,广州市,花都梯面,细颗粒物(PM2.5),104,82,53,64,39,89,89,133,128,49,28,9,9,/,/
2026-03-25T2200,3445A,113.786,23.7479,广州市,从化良口,,43,40,40,30,31,104,104,120,116,16,14,4,4,/,/
2026-03-25T2200,3446A,113.805,23.2614,广州市,增城荔城,颗粒物(PM10),60,63,54,39,36,106,106,165,159,31,29,6,6,0.6,0.5
2026-03-25T2200,2506A,109.604387,23.066791,贵港市,江南子站,NA,NA,78,82,56,53,NA,NA,84,76,28,22,7,9,0.8,0.8
2026-03-25T2200,2508A,109.5669,23.1065,贵港市,荷城子站,细颗粒物(PM2.5),68,61,68,44,50,52,52,85,70,23,21,9,13,0.8,0.8
2026-03-25T2200,3405A,109.5886,23.1172,贵港市,新世纪学校,"颗粒物(PM10),细颗粒物(PM2.5)",60,63,70,40,50,51,51,84,70,21,24,/,/,0.7,0.7
2026-03-25T2200,4260A,109.5933,23.095,贵港市,中山路155-3号,颗粒物(PM10),68,75,90,38,51,58,58,86,72,13,20,/,/,0.6,0.8
2026-03-25T2200,1439A,106.6863,26.6035,贵阳市,马鞍山,,29,22,28,20,21,6,6,34,13,14,15,4,4,/,/
2026-03-25T2200,1441A,106.6241,26.6266,贵阳市,鉴湖路,,31,31,38,21,22,17,17,44,26,25,19,4,4,0.7,0.5
2026-03-25T2200,1442A,106.7468,26.6344,贵阳市,燕子冲,,34,34,31,17,15,21,21,48,28,11,13,5,6,0.6,0.7
2026-03-25T2200,1443A,106.6556,26.4362,贵阳市,碧云窝,,39,39,38,22,23,47,47,44,44,11,15,7,8,/,/
2026-03-25T2200,1445A,106.6963,26.6063,贵阳市,红边门,颗粒物(PM10),55,56,37,34,20,1,1,46,16,47,23,28,10,/,/
2026-03-25T2200,1446A,106.7162383,26.56964667,贵阳市,新华路,NA,NA,NA,37,20,20,11,11,44,24,40,21,8,7,1.0,0.6
2026-03-25T2200,1447A,106.6742,26.542,贵阳市,太慈桥,,34,34,34,18,21,19,19,42,37,21,17,5,5,/,/
2026-03-25T2200,4230A,106.688212,26.56952,贵阳市,花果园大街66号,,48,46,25,33,23,9,9,42,18,47,21,3,2,/,/
2026-03-25T2200,4231A,106.687268,26.516892,贵阳市,漓江路57号,,35,29,27,24,21,17,17,41,26,20,19,7,7,1.1,1
2026-03-25T2200,1864A,110.3091,25.2705,桂林市,龙隐路小学,,43,41,24,30,15,38,38,57,53,20,12,4,4,1.0,0.9
2026-03-25T2200,1865A,110.2849361,25.22909545,桂林市,八中,,41,41,25,21,12,33,33,48,45,22,16,8,4,1.1,1
2026-03-25T2200,3531A,110.296,25.1254,桂林市,旅游学院,颗粒物(PM10),58,60,32,33,18,23,23,59,52,35,17,9,5,1.1,1
2026-03-25T2200,4222A,110.1835,25.2444,桂林市,环湖路276号,细颗粒物(PM2.5),62,61,25,41,16,28,28,58,50,29,13,68,14,1.2,1
2026-03-25T2200,4301A,110.2803,25.2773,桂林市,信义路13号,,45,42,25,31,16,36,36,54,48,24,15,11,6,1.1,1
2026-03-25T2200,2674A,100.2262,34.4854,果洛藏族自治州,玛沁县大武镇,,34,32,23,18,10,108,108,113,113,5,1,20,17,0.4,0.3
2026-03-25T2200,1130A,126.5557,45.8109,哈尔滨市,松北商大,细颗粒物(PM2.5),304,319,160,254,131,74,74,141,109,39,25,15,12,1.1,0.6
2026-03-25T2200,1132A,126.6162,45.719,哈尔滨市,南岗学府路,细颗粒物(PM2.5),287,277,176,237,121,77,77,149,121,39,25,17,12,0.8,0.3
2026-03-25T2200,1133A,126.6894,45.7733,哈尔滨市,太平宏伟公园,细颗粒物(PM2.5),316,327,164,266,125,82,82,146,118,35,27,4,5,0.9,0.4
2026-03-25T2200,1134A,126.6361,45.7672,哈尔滨市,道外承德广场,细颗粒物(PM2.5),301,356,195,251,124,79,79,146,123,40,31,15,15,0.7,0.2
2026-03-25T2200,1136A,126.644,45.7261,哈尔滨市,动力和平路,细颗粒物(PM2.5),291,312,162,241,116,82,82,146,118,42,27,28,20,2.0,1.5
2026-03-25T2200,1137A,126.5933,45.7479,哈尔滨市,道里建国路,细颗粒物(PM2.5),286,278,165,236,121,78,78,140,112,50,35,25,21,1.3,0.9
2026-03-25T2200,1138A,126.6127,45.6119,哈尔滨市,平房东轻厂,颗粒物(PM10),172,293,167,NA,125,30,30,119,81,138,94,12,20,1.6,0.8
2026-03-25T2200,1139A,126.5875,45.9827,哈尔滨市,呼兰师专,细颗粒物(PM2.5),307,319,198,257,149,63,63,126,97,33,31,15,14,1.7,1.2
2026-03-25T2200,1140A,126.6299,45.6799,哈尔滨市,省农科院,细颗粒物(PM2.5),278,283,184,228,119,85,85,140,119,35,26,18,13,0.8,0.4
2026-03-25T2200,4282A,126.6769,45.7379,哈尔滨市,华山路1号,细颗粒物(PM2.5),286,327,169,236,117,82,82,144,122,40,26,18,12,1.7,1.2
2026-03-25T2200,4283A,126.9717,45.5356,哈尔滨市,解放大街52号,细颗粒物(PM2.5),324,408,236,274,137,53,53,172,117,67,27,26,16,1.4,0.8
2026-03-25T2200,2688A,93.5124,42.8176,哈密市,地区监测站,,24,13,45,6,17,76,76,84,78,8,12,5,6,0.0,0.1
2026-03-25T2200,2689A,93.5014,42.8312,哈密市,哈密师范学校,NA,NA,8,34,NA,17,73,73,90,83,13,13,7,8,0.2,0.3
2026-03-25T2200,2671A,100.9016,36.9464,海北藏族自治州,海晏县西海镇,颗粒物(PM10),67,73,55,38,29,100,100,120,117,9,5,10,9,0.5,0.5
2026-03-25T2200,3867A,102.074,36.5056,海东市,平安区公安局北苑,NA,NA,NA,80,NA,35,98,98,129,122,17,13,16,20,NA,0.8
2026-03-25T2200,4163A,102.0984,36.5119,海东市,滨河路,细颗粒物(PM2.5),70,67,84,45,37,63,63,103,88,46,35,21,21,1.1,1.2
2026-03-25T2200,1410A,110.3189,20.0596,海口市,海南大学,,29,29,26,17,14,50,50,68,62,5,4,6,6,0.3,0.3
2026-03-25T2200,1411A,110.2827,20.0051,海口市,秀英海南医院,NA,NA,NA,22,16,15,36,36,70,57,14,7,8,8,0.2,0.3
2026-03-25T2200,1412A,110.3391,19.9979,海口市,海南师范大学,,32,32,26,18,15,46,46,75,65,6,6,6,6,0.4,0.4
2026-03-25T2200,1413A,110.3303,20.0359,海口市,龙华路环保局宿舍,,30,30,27,15,15,51,51,71,64,6,6,/,/,0.5,0.4
2026-03-25T2200,3539A,110.5111,19.9737,海口市,桂林洋子站,,41,41,27,24,15,29,29,71,58,17,7,/,/,/,/
2026-03-25T2200,4134A,110.1952,20.0451,海口市,长滨二路9号,,30,30,24,20,15,48,48,64,59,6,4,/,/,/,/
2026-03-25T2200,2673A,100.6158,36.2985,海南藏族自治州,共和县恰卜恰镇,细颗粒物(PM2.5),76,68,46,48,25,80,80,127,116,38,9,13,13,0.5,0.3
2026-03-25T2200,2676A,97.373,37.376,海西蒙古族藏族自治州,德令哈市,NA,NA,29,25,6,12,NA,NA,150,150,NA,3,NA,15,NA,0.4
2026-03-25T2200,1049A,114.492,36.5712,邯郸市,矿院,细颗粒物(PM2.5),96,97,92,58,57,95,95,123,118,18,21,7,6,0.5,0.6
2026-03-25T2200,1050A,114.4839,36.6136,邯郸市,丛台公园,细颗粒物(PM2.5),108,105,101,68,70,105,105,137,130,17,19,7,10,0.5,0.7
2026-03-25T2200,3458A,114.7893,36.5592,邯郸市,香泉濮院小区,颗粒物(PM10),104,128,123,54,53,97,97,136,130,18,16,3,3,0.5,0.6
2026-03-25T2200,3580A,114.1998,36.4439,邯郸市,峰峰矿区临水派出所,颗粒物(PM10),78,89,80,47,43,103,103,144,134,22,19,7,8,0.6,0.8
2026-03-25T2200,4068A,114.5209,36.7697,邯郸市,建安街268号,细颗粒物(PM2.5),105,98,103,65,74,95,95,141,130,31,26,4,6,0.4,0.8
2026-03-25T2200,4069A,114.5488,36.6177,邯郸市,丛台东路558号,细颗粒物(PM2.5),111,109,102,72,77,104,104,137,129,16,19,4,5,0.5,0.6
2026-03-25T2200,2635A,107.0155,33.0707,汉中市,市监测站,颗粒物(PM10),56,58,38,30,21,26,26,61,55,32,20,7,7,0.7,0.6
2026-03-25T2200,2636A,107.0083,33.114,汉中市,鑫源开发区,颗粒物(PM10),55,57,34,34,21,18,18,64,48,40,21,4,4,0.6,0.5
2026-03-25T2200,2637A,107.0072,33.0323,汉中市,南郑大河坎水厂,细颗粒物(PM2.5),92,69,44,56,25,8,8,59,48,38,22,5,4,0.8,0.6
2026-03-25T2200,1223A,120.2073,30.2111,杭州市,滨江,细颗粒物(PM2.5),96,94,46,58,32,87,87,129,121,44,27,8,7,0.4,0.8
2026-03-25T2200,1224A,120.0625,30.2737,杭州市,西溪,细颗粒物(PM2.5),70,68,50,45,28,73,73,125,116,21,20,8,8,0.8,0.7
2026-03-25T2200,1226A,120.3417,30.315,杭州市,下沙,细颗粒物(PM2.5),86,84,66,53,36,46,46,123,106,75,26,9,8,0.9,0.8
2026-03-25T2200,1227A,120.1252,30.2465,杭州市,卧龙桥,颗粒物(PM10),51,51,45,34,28,36,36,129,97,33,23,6,7,0.5,0.4
2026-03-25T2200,1228A,120.1902,30.2691,杭州市,浙江农大,细颗粒物(PM2.5),72,73,42,46,32,75,75,129,119,50,34,6,6,0.6,0.5
2026-03-25T2200,1230A,120.1195,30.3121,杭州市,和睦小学,细颗粒物(PM2.5),78,84,62,49,33,67,67,124,114,48,23,7,6,1.0,0.8
2026-03-25T2200,1231A,120.3076,30.4146,杭州市,临平镇,细颗粒物(PM2.5),90,83,53,55,43,64,64,133,120,56,25,7,7,0.9,0.8
2026-03-25T2200,1232A,120.2753,30.1839,杭州市,城厢镇,细颗粒物(PM2.5),104,78,41,64,34,43,43,119,105,87,32,11,9,0.8,0.7
2026-03-25T2200,1233A,120.0883,30.1808,杭州市,云栖,颗粒物(PM10),63,68,36,19,18,39,39,127,104,43,27,5,5,0.8,0.7
2026-03-25T2200,3557A,119.9463,30.0496,杭州市,镇二中,细颗粒物(PM2.5),74,50,26,47,31,80,80,122,116,32,19,4,4,1.0,0.8
2026-03-25T2200,3558A,119.7184,30.2367,杭州市,市府大楼,颗粒物(PM10),68,74,37,42,30,101,101,130,126,25,17,6,6,0.3,0.2
2026-03-25T2200,3656A,120.1554,30.2863,杭州市,消防大队,颗粒物(PM10),63,67,43,41,38,77,77,124,112,44,23,8,8,1.0,0.9
2026-03-25T2200,1270A,117.1957,31.7845,合肥市,明珠广场,颗粒物(PM10),55,56,86,26,49,96,96,138,129,25,27,5,6,0.5,0.7
2026-03-25T2200,1271A,117.307,31.8765,合肥市,三里街,颗粒物(PM10),70,78,90,29,54,68,68,131,116,51,34,6,6,0.8,0.9
2026-03-25T2200,1272A,117.2587,31.8703,合肥市,琥珀山庄,颗粒物(PM10),65,70,85,24,47,87,87,141,132,43,34,6,7,0.6,0.8
2026-03-25T2200,1275A,117.2593,31.9376,合肥市,庐阳区,颗粒物(PM10),67,73,88,26,49,69,69,136,121,50,35,4,5,0.7,0.8
2026-03-25T2200,1276A,117.345251,31.861615,合肥市,瑶海区,颗粒物(PM10),72,80,95,27,43,73,73,134,113,56,41,6,6,0.7,0.8
2026-03-25T2200,1277A,117.3033,31.7967,合肥市,包河区,颗粒物(PM10),56,58,88,21,45,99,99,134,127,35,42,9,9,0.6,0.9
2026-03-25T2200,1278A,117.278,31.7392,合肥市,滨湖新区,,48,48,85,20,46,110,110,133,130,7,24,4,5,0.7,0.9
2026-03-25T2200,1279A,117.1324,31.8395,合肥市,高新区,颗粒物(PM10),58,61,84,25,46,85,85,135,125,39,30,4,5,0.7,0.9
2026-03-25T2200,3464A,117.3802,31.9148,合肥市,高教基地,颗粒物(PM10),70,78,81,28,44,77,77,139,120,33,30,9,8,0.6,0.7
2026-03-25T2200,4098A,117.2518,31.8404,合肥市,中国科学技术大学,颗粒物(PM10),58,61,86,25,50,96,96,146,134,34,32,6,6,0.7,0.9
2026-03-25T2200,3614A,79.9241,37.0878,和田地区,地区环保局,颗粒物(PM10),105,132,148,26,17,95,95,120,117,18,5,2,2,0.6,0.4
2026-03-25T2200,3615A,79.9132,37.1137,和田地区,市环保局,颗粒物(PM10),110,144,158,28,20,96,96,114,112,6,9,3,2,0.4,0.3
2026-03-25T2200,2517A,108.0496,24.6957,河池市,市环保站,细颗粒物(PM2.5),86,73,36,53,22,10,10,31,24,15,8,7,8,0.8,0.7
2026-03-25T2200,4302A,108.0901,24.6945,河池市,上任中路54号,颗粒物(PM10),73,82,42,46,22,0,0,27,20,32,15,6,9,1.0,0.8
2026-03-25T2200,1697A,114.6962,23.7538,河源市,东埔,细颗粒物(PM2.5),58,59,42,39,31,45,45,116,96,44,19,6,6,1.0,0.8
2026-03-25T2200,1698A,114.6895,23.7232,河源市,老城,,49,37,42,34,31,63,63,119,104,28,16,6,6,0.9,0.8
2026-03-25T2200,3374A,115.5562,35.089,菏泽市,定陶老年大学,细颗粒物(PM2.5),86,97,118,53,74,90,90,128,120,17,15,5,5,0.5,0.5
2026-03-25T2200,4114A,115.4239,35.2593,菏泽市,黄河路600号,颗粒物(PM10),103,126,139,62,74,81,81,120,109,22,17,5,4,0.5,0.5
2026-03-25T2200,4115A,115.5025,35.2727,菏泽市,菏泽市人社局,细颗粒物(PM2.5),103,99,120,63,79,103,103,126,121,15,16,5,6,0.4,0.4
2026-03-25T2200,4184A,115.479691,35.244011,菏泽市,永昌路1号,颗粒物(PM10),90,105,123,54,74,102,102,137,128,18,18,3,4,0.5,0.5
2026-03-25T2200,4193A,115.471542,35.280012,菏泽市,长城路999号,细颗粒物(PM2.5),94,108,127,57,74,96,96,130,122,16,13,13,6,0.3,0.4
2026-03-25T2200,2514A,111.5264,24.4178,贺州市,环保小区,细颗粒物(PM2.5),88,82,30,54,19,33,33,86,77,32,13,6,5,1.3,0.4
2026-03-25T2200,2515A,111.561,24.4074,贺州市,政协大楼,细颗粒物(PM2.5),84,81,32,52,21,13,13,89,74,49,16,5,5,1.5,1.2
2026-03-25T2200,3534A,111.4744,24.455,贺州市,西湾,颗粒物(PM10),91,107,33,52,21,18,18,72,62,36,13,7,7,1.0,1
2026-03-25T2200,2385A,114.17,35.9019,鹤壁市,市监测站,颗粒物(PM10),91,107,101,52,63,101,101,134,130,26,24,8,8,0.8,0.7
2026-03-25T2200,2386A,114.2953,35.7512,鹤壁市,市交警支队,颗粒物(PM10),101,121,118,55,77,76,76,128,121,26,29,9,10,0.6,0.6
2026-03-25T2200,2387A,114.2877,35.7302,鹤壁市,迎宾馆,细颗粒物(PM2.5),110,128,127,70,74,72,72,128,120,28,31,11,12,0.5,0.6
2026-03-25T2200,3474A,114.2616,35.6824,鹤壁市,大新区,"颗粒物(PM10),细颗粒物(PM2.5)",92,108,112,56,80,62,62,118,106,29,33,10,9,0.8,0.9
2026-03-25T2200,3596A,114.1573,35.9607,鹤壁市,南山宾馆,细颗粒物(PM2.5),98,115,114,59,59,98,98,135,129,22,16,11,12,0.6,0.6
2026-03-25T2200,2244A,130.2537,47.3416,鹤岗市,哈啤分公司,细颗粒物(PM2.5),84,61,146,52,166,90,90,88,86,13,26,9,13,0.4,0.8
2026-03-25T2200,2245A,130.2683,47.3087,鹤岗市,斯达机电,细颗粒物(PM2.5),101,67,163,61,160,74,74,89,81,22,26,11,15,0.5,0.7
2026-03-25T2200,2246A,130.3114,47.3388,鹤岗市,东山纸板厂,颗粒物(PM10),105,132,199,57,175,46,46,83,74,33,29,15,14,1.3,1.6
2026-03-25T2200,2263A,127.4832,50.2524,黑河市,交通局,颗粒物(PM10),53,54,63,33,36,67,67,108,81,21,13,8,7,0.7,0.3
2026-03-25T2200,2264A,127.5146,50.2339,黑河市,环保局,细颗粒物(PM2.5),111,90,62,72,52,29,29,108,73,65,24,9,8,1.1,0.6
2026-03-25T2200,1074A,115.6839,37.754,衡水市,电机北厂,细颗粒物(PM2.5),121,144,133,83,82,120,120,148,144,21,22,9,6,0.6,0.7
2026-03-25T2200,1075A,115.6303,37.7318,衡水市,市监测站,细颗粒物(PM2.5),130,142,130,92,83,95,95,149,141,28,20,10,9,0.5,0.5
2026-03-25T2200,3188A,115.6684,37.7216,衡水市,市城管局,细颗粒物(PM2.5),121,154,128,83,75,104,104,147,142,23,21,12,11,0.5,0.5
2026-03-25T2200,3459A,115.599,37.5491,衡水市,地表水厂,细颗粒物(PM2.5),142,153,131,106,88,65,65,142,127,41,26,9,8,0.5,0.5
2026-03-25T2200,2457A,112.6209,26.9268,衡阳市,衡阳化工总厂,细颗粒物(PM2.5),110,72,89,71,76,50,50,76,71,18,10,9,14,1.2,1.1
2026-03-25T2200,2458A,112.621,26.8957,衡阳市,珠晖区环保局,细颗粒物(PM2.5),84,57,81,52,60,53,53,74,68,21,18,8,10,1.1,1.1
2026-03-25T2200,2459A,112.628,26.8654,衡阳市,市委党校,细颗粒物(PM2.5),74,53,72,47,61,58,58,84,76,19,11,12,13,1.0,1
2026-03-25T2200,2460A,112.6007,26.8977,衡阳市,市监测站,细颗粒物(PM2.5),98,72,72,59,67,56,56,77,70,20,16,11,17,1.0,0.9
2026-03-25T2200,2461A,112.5658,26.9013,衡阳市,真空机电公司,细颗粒物(PM2.5),102,NA,74,62,72,51,51,62,55,24,17,9,13,1.2,1.2
2026-03-25T2200,3399A,112.6703,26.8817,衡阳市,师范学院,颗粒物(PM10),66,72,77,40,47,65,65,91,83,9,9,42,21,0.9,0.9
2026-03-25T2200,3038A,103.3757,23.3679,红河哈尼族彝族自治州,州图书馆,细颗粒物(PM2.5),70,66,54,45,45,101,101,127,120,8,8,4,5,0.6,0.5
2026-03-25T2200,4154A,103.401,23.3561,红河哈尼族彝族自治州,蒙自市朝阳路,细颗粒物(PM2.5),66,55,44,43,43,106,106,134,126,9,8,9,9,0.5,0.5
2026-03-25T2200,1090A,111.6506,40.7517,呼和浩特市,呼市一监,细颗粒物(PM2.5),94,102,108,57,55,76,76,131,124,40,35,12,12,0.7,0.7
2026-03-25T2200,1094A,111.7516,40.8369,呼和浩特市,如意水处理厂,颗粒物(PM10),64,69,90,31,47,38,38,134,121,76,44,9,13,0.5,0.6
2026-03-25T2200,1095A,111.727798,40.806187,呼和浩特市,二十九中,颗粒物(PM10),88,102,104,53,50,66,66,123,117,51,33,12,12,0.7,0.6
2026-03-25T2200,1097A,111.717,40.7617,呼和浩特市,化肥厂生活区,细颗粒物(PM2.5),113,144,121,74,72,66,66,129,120,63,40,12,11,0.9,0.6
2026-03-25T2200,3699A,111.6519,40.8389,呼和浩特市,海东办,,44,44,80,26,35,63,63,124,116,41,38,4,8,0.4,0.5
2026-03-25T2200,4275A,111.591512,40.827312,呼和浩特市,成吉思汗西街8号,,31,31,94,14,36,75,75,120,112,30,40,3,6,0.3,0.5
2026-03-25T2200,4276A,111.6597,40.8077,呼和浩特市,公园东路75号,颗粒物(PM10),55,56,100,28,43,77,77,120,117,34,32,9,12,0.6,0.7
2026-03-25T2200,4277A,111.5427,40.7846,呼和浩特市,金海路35号,颗粒物(PM10),60,63,93,20,45,72,72,122,117,35,37,6,11,0.3,0.5
2026-03-25T2200,3061A,119.7511,49.1576,呼伦贝尔市,国华电力东,,33,27,27,10,16,104,104,94,93,5,10,5,5,0.2,0.3
2026-03-25T2200,4279A,119.7569,49.2222,呼伦贝尔市,伊敏大街东7号,,27,18,24,13,13,85,85,96,91,10,10,6,6,0.3,0.3
2026-03-25T2200,1250A,120.075,30.867,湖州市,城西水厂,细颗粒物(PM2.5),104,78,66,64,55,12,12,151,128,103,34,8,6,1.1,0.9
2026-03-25T2200,2873A,120.083,30.8929,湖州市,仁皇山新区,细颗粒物(PM2.5),70,70,71,45,49,90,90,149,140,26,29,5,5,1.0,1
2026-03-25T2200,2907A,120.1846,30.8592,湖州市,吴兴区站,NA,NA,NA,75,NA,45,101,101,159,149,48,23,6,6,1.0,0.9
2026-03-25T2200,3562A,120.4146,30.8538,湖州市,南浔区站,细颗粒物(PM2.5),110,79,64,70,52,112,112,150,144,31,22,5,5,1.0,0.9
2026-03-25T2200,1607A,120.904878,40.721091,葫芦岛市,龙港区,细颗粒物(PM2.5),182,163,127,137,88,68,68,134,114,43,33,13,35,1.4,1
2026-03-25T2200,1608A,120.8382,40.7521,葫芦岛市,化工街,细颗粒物(PM2.5),180,210,147,136,102,5,5,126,77,120,50,22,21,1.5,0.9
2026-03-25T2200,1609A,120.8339,40.7078,葫芦岛市,新区,细颗粒物(PM2.5),223,NA,118,173,119,14,14,98,73,78,38,10,13,2.0,0.9
2026-03-25T2200,1610A,120.8697,40.7679,葫芦岛市,东城区,细颗粒物(PM2.5),199,182,119,149,107,5,5,122,78,103,49,27,18,1.7,1
2026-03-25T2200,2483A,109.9297,27.5383,怀化市,河西地税局,,15,12,23,6,16,45,45,43,43,8,15,3,3,/,/
2026-03-25T2200,2484A,109.9783,27.5342,怀化市,市四医院,,16,16,27,11,20,33,33,39,38,10,13,7,7,0.5,0.6
2026-03-25T2200,2485A,109.9971,27.5579,怀化市,监测楼,,18,14,25,12,20,26,26,41,38,17,16,3,4,0.4,0.4
2026-03-25T2200,1210A,119.0566,33.5991,淮安市,钵池山,细颗粒物(PM2.5),90,80,93,55,66,100,100,136,126,27,35,8,9,0.4,0.4
2026-03-25T2200,1211A,119.0083,33.578,淮安市,北京南路,细颗粒物(PM2.5),94,88,90,57,72,74,74,119,103,32,33,8,10,0.5,0.6
2026-03-25T2200,1212A,118.9938,33.6083,淮安市,市监测站,细颗粒物(PM2.5),92,68,83,56,73,108,108,138,128,27,38,7,7,0.4,0.5
2026-03-25T2200,1213A,119.135,33.5038,淮安市,楚州区监测站,细颗粒物(PM2.5),108,93,99,68,73,59,59,120,105,43,29,6,6,0.4,0.9
2026-03-25T2200,3426A,118.8757,33.2897,淮安市,新华书店,细颗粒物(PM2.5),109,107,96,69,53,69,69,116,103,40,27,8,7,0.4,0.4
2026-03-25T2200,4092A,119.119691,33.550006,淮安市,枚皋中路89号,细颗粒物(PM2.5),101,88,96,61,68,81,81,117,114,17,25,10,11,0.7,0.7
2026-03-25T2200,4206A,119.028838,33.631911,淮安市,承德北路606号,细颗粒物(PM2.5),94,92,113,57,72,87,87,126,112,30,31,10,9,0.5,0.5
2026-03-25T2200,2282A,116.8005,33.9749,淮北市,监测站,NA,NA,NA,105,NA,65,100,100,137,123,23,22,7,7,0.4,0.7
2026-03-25T2200,2283A,116.8094,33.9008,淮北市,烈山区政府,细颗粒物(PM2.5),92,91,97,56,69,101,101,124,114,24,33,6,7,0.4,0.5
2026-03-25T2200,4017A,116.7926,33.9534,淮北市,市博物馆,细颗粒物(PM2.5),84,80,99,52,68,92,92,127,113,23,23,5,7,0.6,0.6
2026-03-25T2200,4100A,116.8322,33.9884,淮北市,杜集区第一实验学校,颗粒物(PM10),82,94,106,48,61,83,83,123,106,25,22,7,8,0.4,0.4
2026-03-25T2200,2277A,116.8304,32.7726,淮南市,潘集区政府,颗粒物(PM10),75,85,86,34,53,67,67,127,106,45,29,8,8,0.6,0.5
2026-03-25T2200,2279A,116.8569,32.5949,淮南市,谢家集区政府,颗粒物(PM10),66,72,67,38,50,85,85,123,114,35,23,9,8,0.5,0.5
2026-03-25T2200,2280A,116.8279,32.6333,淮南市,八公山区政府,颗粒物(PM10),70,77,76,41,49,85,85,122,112,21,14,10,8,0.5,0.5
2026-03-25T2200,2894A,117.0561,32.6536,淮南市,经济技术开发区消防队,颗粒物(PM10),65,71,74,36,51,86,86,123,108,34,30,8,8,0.4,0.4
2026-03-25T2200,3329A,117.011,32.5891,淮南市,山南新区,细颗粒物(PM2.5),66,64,78,43,54,110,110,130,121,22,20,7,8,0.4,0.4
2026-03-25T2200,4209A,117.003137,32.644456,淮南市,国庆中路369号,细颗粒物(PM2.5),62,61,69,41,49,99,99,115,110,19,19,9,10,0.6,0.5
2026-03-25T2200,2446A,114.9021,30.474,黄冈市,职工中心,细颗粒物(PM2.5),96,76,98,58,60,98,98,138,130,17,12,7,6,0.9,1
2026-03-25T2200,2929A,114.8858,30.4519,黄冈市,红卫路,细颗粒物(PM2.5),101,78,89,61,56,84,84,142,129,25,13,5,5,0.5,0.4
2026-03-25T2200,3398A,114.9134,30.4446,黄冈市,市林业局,细颗粒物(PM2.5),104,91,105,64,60,79,79,132,124,32,12,3,4,0.6,0.7
2026-03-25T2200,2672A,102.02,35.5101,黄南藏族自治州,同仁县隆务镇,,35,30,42,24,23,97,97,119,118,1,3,9,9,0.3,0.4
2026-03-25T2200,2295A,118.2905,29.6965,黄山市,延安路89号,,28,28,20,15,10,58,58,115,94,15,11,4,4,0.4,0.4
2026-03-25T2200,2297A,118.1369,30.2755,黄山市,黄山区政府5号楼,,27,27,32,10,13,30,30,98,76,15,10,3,3,0.4,0.5
2026-03-25T2200,4210A,118.335445,29.720283,黄山市,滨江东路7-2号,颗粒物(PM10),65,71,36,23,8,33,33,110,82,25,12,/,/,/,/
2026-03-25T2200,2423A,115.0547,30.2332,黄石市,沈家营,细颗粒物(PM2.5),76,76,99,48,51,56,56,102,81,35,19,5,6,0.9,1
2026-03-25T2200,2426A,114.899,30.211,黄石市,铁山,细颗粒物(PM2.5),100,NA,63,60,57,102,102,119,113,13,16,9,10,1.2,0.9
2026-03-25T2200,2427A,115.0259,30.2108,黄石市,团城山,细颗粒物(PM2.5),80,77,93,50,59,91,91,110,107,11,12,4,4,0.7,0.9
2026-03-25T2200,3149A,115.0174,30.1591,黄石市,笔架山北路,颗粒物(PM10),99,118,113,58,57,91,91,128,120,12,15,10,8,0.8,0.8
2026-03-25T2200,4185A,115.078022,30.21118,黄石市,磁湖东路29号,颗粒物(PM10),73,81,108,43,57,98,98,116,112,19,17,7,8,1.3,1.2
2026-03-25T2200,1392A,114.4181,23.0528,惠州市,河南岸金山湖子站,,50,50,50,27,31,106,106,164,155,18,15,8,7,0.7,0.6
2026-03-25T2200,1393A,114.4055,23.0824,惠州市,下埔横江三路子站,颗粒物(PM10),58,60,57,33,31,119,119,169,159,17,15,6,5,0.6,0.6
2026-03-25T2200,1395A,114.4645,22.7832,惠州市,惠阳区承修路船湖子站,,48,48,50,24,27,60,60,157,129,28,19,7,6,0.4,0.5
2026-03-25T2200,1396A,114.5316,22.7423,惠州市,大亚湾管委会子站,,37,37,40,18,24,54,54,144,112,27,19,5,3,0.5,0.5
2026-03-25T2200,3314A,114.4334,22.8134,惠州市,惠阳秋长,,46,46,48,28,28,69,69,163,142,31,23,/,/,/,/
2026-03-25T2200,3452A,114.6521,22.7755,惠州市,大亚湾霞涌,,26,21,26,13,21,83,83,113,96,8,14,/,/,/,/
2026-03-25T2200,4300A,114.4089,23.1147,惠州市,文华一路1号,颗粒物(PM10),52,52,48,33,31,113,113,167,160,21,18,/,/,/,/
2026-03-25T2200,2240A,130.9618,45.2926,鸡西市,环保局,细颗粒物(PM2.5),137,138,128,100,90,38,38,115,88,44,32,16,11,0.7,0.5
2026-03-25T2200,2243A,130.9294,45.2959,鸡西市,第一中学,细颗粒物(PM2.5),129,136,113,91,86,82,82,115,101,21,25,13,10,0.5,0.5
2026-03-25T2200,3707A,131.0069,45.2988,鸡西市,欧美日汽修厂,细颗粒物(PM2.5),137,130,149,100,95,55,55,110,87,22,28,12,14,1.1,1.1
2026-03-25T2200,2367A,114.9753,27.0803,吉安市,红声器材厂,,50,50,37,24,20,71,71,100,90,19,18,6,7,1.0,1.1
2026-03-25T2200,2369A,114.9903,27.1313,吉安市,市环境监测站,,36,36,33,13,20,72,72,95,87,12,13,8,9,/,/
2026-03-25T2200,2370A,115.009527,27.096792,吉安市,青原区法院,,40,40,36,21,20,68,68,96,86,15,15,3,4,0.8,0.8
2026-03-25T2200,1772A,126.54,43.8622,吉林市,哈达湾,颗粒物(PM10),398,498,126,331,92,110,110,146,136,58,18,22,10,2.0,0.9
2026-03-25T2200,1773A,126.5843,43.8358,吉林市,东局子,细颗粒物(PM2.5),284,337,121,234,86,50,50,140,119,66,18,8,6,1.9,1.1
2026-03-25T2200,1774A,126.5051,43.8243,吉林市,电力学院,细颗粒物(PM2.5),287,383,128,237,82,69,69,161,133,55,21,13,9,2.1,1
2026-03-25T2200,1775A,126.6133,43.8971,吉林市,江北,细颗粒物(PM2.5),426,449,127,388,107,50,50,151,120,64,21,14,10,2.0,0.8
2026-03-25T2200,1776A,126.5549,43.8304,吉林市,江南公园,细颗粒物(PM2.5),297,342,108,247,81,79,79,143,127,55,19,16,9,1.7,0.9
2026-03-25T2200,2868A,126.4737,43.953,吉林市,九站,颗粒物(PM10),469,569,149,403,108,47,47,149,110,94,27,24,12,2.3,0.9
2026-03-25T2200,1299A,116.9866,36.6118,济南市,科干所,NA,NA,NA,97,NA,55,128,128,153,150,14,14,NA,8,0.7,0.7
2026-03-25T2200,1300A,116.9379,36.6652,济南市,农科所,颗粒物(PM10),85,98,101,51,62,123,123,147,143,16,17,7,8,0.5,0.5
2026-03-25T2200,1301A,117.1265,36.6736,济南市,开发区,细颗粒物(PM2.5),105,98,87,65,56,136,136,158,156,11,13,6,6,0.7,0.7
2026-03-25T2200,1303A,117.0616,36.6865,济南市,省种子仓库,颗粒物(PM10),93,110,99,56,52,128,128,154,151,16,14,6,6,0.6,0.6
2026-03-25T2200,1304A,116.9495185,36.644937,济南市,机床二厂,"颗粒物(PM10),细颗粒物(PM2.5)",88,103,103,54,59,123,123,146,142,14,16,8,7,0.6,0.6
2026-03-25T2200,1305A,117.0496,36.6629,济南市,市监测站,颗粒物(PM10),93,110,95,51,51,129,129,148,146,13,14,6,5,0.6,0.6
2026-03-25T2200,1306A,116.7674,36.5458,济南市,长清党校,颗粒物(PM10),88,103,109,47,61,114,114,142,137,12,16,7,8,0.5,0.6
2026-03-25T2200,1961A,117.5323,36.6865,济南市,东山小学,颗粒物(PM10),97,115,94,54,49,131,131,156,NA,21,20,6,5,0.6,0.6
2026-03-25T2200,3059A,117.7181,36.205,济南市,泰兴公司,细颗粒物(PM2.5),109,124,111,69,61,122,122,151,145,22,42,11,13,0.8,0.9
2026-03-25T2200,3064A,117.6861,36.2172,济南市,莱芜战役纪念馆,颗粒物(PM10),102,124,109,61,53,128,128,152,148,19,31,6,8,0.6,0.7
2026-03-25T2200,3494A,117.1673,36.9782,济南市,济阳区政府,细颗粒物(PM2.5),110,122,111,71,63,108,108,132,127,24,24,8,9,0.4,0.4
2026-03-25T2200,3495A,117.1168,36.6299,济南市,锦屏中学,细颗粒物(PM2.5),96,88,83,58,54,124,124,146,144,14,14,7,6,0.2,0.3
2026-03-25T2200,4108A,117.7107,36.2385,济南市,山财大街5号,细颗粒物(PM2.5),109,114,103,69,60,135,135,156,152,19,34,10,13,0.6,0.6
2026-03-25T2200,4109A,116.9744,36.6889,济南市,无影山路12号,细颗粒物(PM2.5),86,90,89,53,60,118,118,140,136,15,16,6,6,0.7,0.7
2026-03-25T2200,1653A,116.6229,35.4288,济宁市,火炬城,细颗粒物(PM2.5),100,75,84,60,61,87,87,128,119,19,17,6,5,0.7,0.7
2026-03-25T2200,3500A,116.5808,35.3703,济宁市,北湖一中,细颗粒物(PM2.5),90,80,85,55,62,98,98,131,124,16,14,13,9,0.7,0.6
2026-03-25T2200,3501A,116.8251,35.5592,济宁市,服务中心,细颗粒物(PM2.5),101,91,117,61,72,106,106,136,130,17,19,4,6,0.6,0.8
2026-03-25T2200,3678A,116.5907,35.4054,济宁市,市第七中学,细颗粒物(PM2.5),82,76,85,51,58,100,100,142,132,18,17,11,7,0.7,0.6
2026-03-25T2200,4111A,116.6075,35.4566,济宁市,任和路,细颗粒物(PM2.5),100,103,114,60,63,110,110,139,133,16,16,8,6,0.7,0.6
2026-03-25T2200,4112A,116.5648,35.3921,济宁市,文体南路1号,颗粒物(PM10),85,98,109,48,60,113,113,138,132,16,17,6,6,0.6,0.6
2026-03-25T2200,4122A,112.6071,35.1015,济源市,市委党校,颗粒物(PM10),104,128,113,47,50,38,38,130,105,59,29,7,10,0.7,0.6
2026-03-25T2200,4123A,112.596,35.0702,济源市,沁园中路1号,颗粒物(PM10),99,118,96,53,49,27,27,123,102,66,35,6,9,0.7,1
2026-03-25T2200,2255A,130.2749,46.8028,佳木斯市,佳纺,细颗粒物(PM2.5),116,124,200,77,167,21,21,127,90,45,33,9,7,0.6,1
2026-03-25T2200,2257A,130.3258,46.7975,佳木斯市,环保局,细颗粒物(PM2.5),88,77,143,54,124,56,56,126,89,23,28,8,7,0.5,0.7
2026-03-25T2200,4285A,130.363,46.806,佳木斯市,顺和街,细颗粒物(PM2.5),94,69,137,57,126,62,62,112,81,15,24,5,6,0.5,0.8
2026-03-25T2200,4286A,130.3952,46.8268,佳木斯市,长安路196号,细颗粒物(PM2.5),88,78,160,54,138,52,52,105,73,14,23,5,6,0.5,0.8
2026-03-25T2200,1252A,120.7439,30.778,嘉兴市,清河小学,细颗粒物(PM2.5),90,95,53,55,34,54,54,138,121,74,29,6,6,0.6,0.5
2026-03-25T2200,1253A,120.7261,30.7477,嘉兴市,嘉兴学院,细颗粒物(PM2.5),90,92,69,55,42,69,69,142,129,53,24,6,6,1.1,0.9
2026-03-25T2200,2872A,120.7845,30.7524,嘉兴市,南湖区残联,细颗粒物(PM2.5),106,84,47,66,44,NA,NA,141,132,52,24,4,4,0.8,0.8
2026-03-25T2200,3407A,120.6915,30.7741,嘉兴市,秀洲住建,细颗粒物(PM2.5),84,88,59,52,43,28,28,142,121,84,28,8,8,0.7,0.6
2026-03-25T2200,1945A,98.291,39.7705,嘉峪关市,气象局,颗粒物(PM10),95,112,90,36,33,117,117,130,129,11,15,7,9,0.7,0.6
2026-03-25T2200,2884A,98.2672,39.7978,嘉峪关市,酒钢宾馆,颗粒物(PM10),96,114,97,36,35,106,106,121,120,19,17,35,27,1.1,0.8
2026-03-25T2200,3248A,98.2644,39.7723,嘉峪关市,雄关区,颗粒物(PM10),88,102,91,31,30,105,105,122,120,20,18,16,13,0.6,0.4
2026-03-25T2200,1383A,113.1063,22.6058,江门市,北街,,29,29,37,20,22,52,52,131,105,19,18,/,/,/,/
2026-03-25T2200,1384A,113.073,22.5835,江门市,西区,,37,37,41,17,22,56,56,129,103,17,19,/,/,/,/
2026-03-25T2200,1385A,113.0218,22.531,江门市,圭峰西,,26,26,35,18,22,56,56,124,102,12,11,/,/,/,/
2026-03-25T2200,1386A,113.0826,22.5947,江门市,东湖,,35,26,35,24,21,55,55,127,102,15,16,7,8,0.5,0.5
2026-03-25T2200,3311A,113.1077,22.5647,江门市,江海富民,颗粒物(PM10),51,51,45,18,25,53,53,130,105,18,20,/,/,0.6,0.5
2026-03-25T2200,3449A,113.0496,22.4669,江门市,新会银湖,,27,27,37,14,22,59,59,112,95,17,26,7,7,0.2,0.3
2026-03-25T2200,3335A,113.3137,35.2643,焦作市,马村街道办,颗粒物(PM10),93,110,106,48,62,71,71,125,112,32,25,9,10,0.4,0.9
2026-03-25T2200,3336A,113.2464,35.2374,焦作市,焦作技师学院,颗粒物(PM10),88,103,100,43,55,60,60,117,104,40,28,8,10,0.5,0.7
2026-03-25T2200,3477A,113.1656,35.2536,焦作市,中站许衡医院,颗粒物(PM10),66,72,89,35,45,72,72,120,114,41,22,10,13,0.6,0.8
2026-03-25T2200,3981A,113.2456,35.18,焦作市,原李万街道办,颗粒物(PM10),92,108,94,41,51,64,64,114,98,36,28,10,12,0.5,0.6
2026-03-25T2200,4264A,113.234,35.219,焦作市,新安路1731号,颗粒物(PM10),97,115,104,50,59,53,53,125,112,55,30,11,14,0.8,0.9
2026-03-25T2200,4295A,113.2722,35.2121,焦作市,人民路3066号,颗粒物(PM10),106,134,101,47,59,73,73,126,113,35,27,9,11,0.4,0.6
2026-03-25T2200,1708A,116.3701,23.5345,揭阳市,新兴,细颗粒物(PM2.5),62,51,65,41,40,96,96,126,113,19,29,7,10,0.8,0.9
2026-03-25T2200,1709A,116.3261,23.5442,揭阳市,西马,NA,NA,NA,66,NA,39,NA,NA,128,119,19,25,8,8,0.9,1
2026-03-25T2200,1710A,116.361,23.5627,揭阳市,东兴,细颗粒物(PM2.5),62,47,66,41,42,101,101,140,121,18,26,9,8,/,/
2026-03-25T2200,1711A,116.4151,23.5295,揭阳市,渔湖,细颗粒物(PM2.5),80,NA,68,50,51,117,117,153,137,15,29,4,8,/,/
2026-03-25T2200,3320A,116.4028,23.5699,揭阳市,曲溪,细颗粒物(PM2.5),66,NA,64,43,42,110,110,140,129,13,26,5,11,0.6,0.9
2026-03-25T2200,1944A,102.1691,38.5166,金昌市,天庆家园,颗粒物(PM10),84,97,106,51,37,93,93,126,120,28,22,291,40,0.5,0.8
2026-03-25T2200,4022A,102.1648,38.5369,金昌市,金川区人防中心,NA,NA,88,109,33,43,112,112,123,121,10,19,12,12,NA,0.7
2026-03-25T2200,4239A,102.193042,38.531887,金昌市,长春路96号,颗粒物(PM10),72,80,95,29,33,105,105,121,119,11,17,8,15,0.9,0.8
2026-03-25T2200,1262A,119.6478,29.0773,金华市,十五中,颗粒物(PM10),56,58,31,31,20,45,45,116,95,48,27,3,3,0.6,0.6
2026-03-25T2200,1263A,119.6859,29.1032,金华市,监测站,,49,46,26,34,26,44,44,122,98,60,34,3,3,0.6,0.6
2026-03-25T2200,3659A,119.656,29.1132,金华市,气象局,颗粒物(PM10),56,58,35,34,27,54,54,109,100,65,34,4,3,0.8,0.8
2026-03-25T2200,1767A,121.1114,41.0879,锦州市,南山,细颗粒物(PM2.5),168,141,105,127,93,40,40,133,96,63,34,12,13,1.1,0.8
2026-03-25T2200,1768A,121.060361,40.842794,锦州市,开发区,细颗粒物(PM2.5),170,206,143,129,104,0,0,99,54,100,56,8,16,1.2,1
2026-03-25T2200,1769A,121.1836,41.1118,锦州市,百股街道,细颗粒物(PM2.5),205,NA,108,155,100,25,25,129,89,78,37,15,16,1.7,1
2026-03-25T2200,1770A,121.1176,41.1224,锦州市,天安街道,细颗粒物(PM2.5),188,179,111,141,96,5,5,126,86,99,39,17,13,1.8,0.8
2026-03-25T2200,1771A,121.1303,41.1385,锦州市,北湖公园,细颗粒物(PM2.5),165,171,108,125,96,31,31,135,98,66,33,12,11,1.3,0.8
2026-03-25T2200,2160A,112.8496,35.5051,晋城市,自来水公司,颗粒物(PM10),75,84,103,27,42,92,92,136,128,31,22,5,6,0.4,0.7
2026-03-25T2200,2162A,112.8509,35.4886,晋城市,市环保局,颗粒物(PM10),83,95,95,37,50,74,74,139,126,34,18,7,8,0.6,0.9
2026-03-25T2200,3620A,112.8258,35.4804,晋城市,泽州一中,颗粒物(PM10),76,86,100,38,48,97,97,137,130,24,21,5,6,0.8,1.2
2026-03-25T2200,4078A,112.8246,35.5152,晋城市,前书院路,颗粒物(PM10),101,122,106,42,43,57,57,132,119,45,21,7,8,0.7,1.4
2026-03-25T2200,4079A,112.8864,35.4773,晋城市,祥云街666号,颗粒物(PM10),64,69,92,37,56,110,110,133,130,18,19,9,7,0.4,0.7
2026-03-25T2200,2174A,112.6992,37.6984,晋中市,榆次区政府,颗粒物(PM10),127,190,127,80,66,19,19,124,92,80,32,15,17,1.0,0.8
2026-03-25T2200,2865A,112.7195,37.683,晋中市,榆次三中,颗粒物(PM10),125,185,137,60,60,5,5,127,83,85,34,13,16,0.7,0.8
2026-03-25T2200,4080A,112.7375,37.7215,晋中市,广安街188号,颗粒物(PM10),123,179,140,61,62,3,3,124,86,84,32,12,15,0.7,0.7
2026-03-25T2200,4200A,112.7478,37.6954,晋中市,迎宾街26号,颗粒物(PM10),112,151,130,61,66,18,18,128,94,75,30,13,16,0.7,0.8
2026-03-25T2200,2439A,112.2012,31.048,荆门市,竹园小学,细颗粒物(PM2.5),98,96,101,59,57,85,85,110,98,16,24,1,1,1.1,1
2026-03-25T2200,2440A,112.1968,30.9892,荆门市,掇刀,颗粒物(PM10),85,98,95,49,55,87,87,116,108,15,24,8,7,1.0,0.7
2026-03-25T2200,3012A,112.1849,31.0361,荆门市,西山林语,颗粒物(PM10),74,83,75,38,39,79,79,106,92,14,14,4,4,0.7,0.7
2026-03-25T2200,3547A,112.1631,31.0134,荆门市,龙泉中学南校,细颗粒物(PM2.5),94,102,89,57,44,92,92,112,104,11,15,3,4,0.4,0.3
2026-03-25T2200,4124A,112.2213,31.0654,荆门市,新台西路6号,"颗粒物(PM10),细颗粒物(PM2.5)",76,86,98,48,64,85,85,104,95,22,31,6,6,0.5,0.6
2026-03-25T2200,1844A,112.2493,30.3198,荆州市,市图书馆,颗粒物(PM10),55,56,59,35,44,61,61,111,98,41,26,6,7,0.6,0.6
2026-03-25T2200,1845A,112.2009,30.3543,荆州市,市委党校,颗粒物(PM10),56,58,71,31,52,70,70,95,82,26,28,6,7,0.8,0.8
2026-03-25T2200,3194A,112.2749,30.3124,荆州市,管委会,颗粒物(PM10),57,59,67,34,51,70,70,105,89,29,23,9,10,0.7,0.7
2026-03-25T2200,4268A,112.1722,30.3366,荆州市,学苑路85号,颗粒物(PM10),55,57,72,24,45,82,82,114,102,14,16,1,1,0.8,0.8
2026-03-25T2200,2343A,117.2114,29.2931,景德镇市,老干部活动中心,细颗粒物(PM2.5),76,67,37,48,28,51,51,111,96,21,11,10,6,1.0,0.5
2026-03-25T2200,2344A,117.1893,29.2789,景德镇市,兽医站,细颗粒物(PM2.5),86,73,42,53,27,43,43,122,102,42,15,4,4,1.2,0.8
2026-03-25T2200,2346A,117.246,29.2958,景德镇市,陶研所,细颗粒物(PM2.5),68,46,31,44,27,44,44,111,89,25,20,4,4,1.1,0.9
2026-03-25T2200,4289A,117.154766,29.256967,景德镇市,青少年活动中心,细颗粒物(PM2.5),74,64,43,47,34,47,47,120,103,37,20,47,16,/,/
2026-03-25T2200,1803A,115.9873,29.6816,九江市,十里,细颗粒物(PM2.5),112,97,78,73,53,86,86,115,105,35,33,11,7,1.2,1.1
2026-03-25T2200,1804A,115.9583,29.7047,九江市,茅山头,细颗粒物(PM2.5),119,98,73,80,59,82,82,114,107,30,31,4,4,0.9,0.7
2026-03-25T2200,1805A,115.9877,29.7295,九江市,西园,细颗粒物(PM2.5),102,95,74,62,52,79,79,131,114,50,47,7,5,0.9,0.8
2026-03-25T2200,1808A,115.9112,29.6038,九江市,综合工业园,细颗粒物(PM2.5),78,78,81,49,54,34,34,118,90,61,40,8,9,0.7,0.8
2026-03-25T2200,3190A,116.0254,29.6995,九江市,外国语学校,细颗粒物(PM2.5),112,79,66,73,58,67,67,119,103,31,28,17,7,1.0,0.9
2026-03-25T2200,4253A,116.010205,29.659402,九江市,莲花大道8号,细颗粒物(PM2.5),98,84,81,59,57,90,90,122,117,14,28,6,6,0.7,0.8
2026-03-25T2200,4240A,98.495752,39.733935,酒泉市,玉门东路5号,NA,NA,NA,104,NA,39,NA,NA,111,111,9,11,8,10,0.4,0.4
2026-03-25T2200,4241A,98.5099,39.7506,酒泉市,北大街108号,颗粒物(PM10),100,119,96,53,41,82,82,104,100,12,14,9,11,0.4,0.4
2026-03-25T2200,2698A,76.0071,39.466,喀什地区,巡警大队,,42,42,42,15,8,105,105,119,118,13,12,3,3,0.3,0.3
2026-03-25T2200,2699A,75.9756,39.4693,喀什地区,吾办,,44,44,59,16,17,95,95,113,112,23,18,2,3,0.3,0.4
2026-03-25T2200,4027A,75.9485,39.4688,喀什地区,老干局,,41,41,83,15,15,92,92,119,117,27,21,2,3,0.4,0.4
2026-03-25T2200,1824A,114.3389,34.778,开封市,肿瘤医院,细颗粒物(PM2.5),96,84,106,58,77,69,69,132,110,26,24,7,9,0.6,0.7
2026-03-25T2200,1826A,114.2884,34.7966,开封市,世纪星幼儿园,细颗粒物(PM2.5),82,80,101,51,65,79,79,132,113,24,24,11,11,0.6,0.7
2026-03-25T2200,3147A,114.3434,34.8101,开封市,龙亭公园,细颗粒物(PM2.5),135,NA,110,98,69,78,78,140,118,28,26,10,10,1.0,1
2026-03-25T2200,3210A,114.3645,34.7955,开封市,汴京公园,细颗粒物(PM2.5),100,89,107,60,77,71,71,139,115,26,25,6,6,0.7,0.7
2026-03-25T2200,3473A,114.2485,34.8306,开封市,技师学院,细颗粒物(PM2.5),74,NA,106,47,70,89,89,138,120,16,20,9,17,0.9,1.1
2026-03-25T2200,3592A,114.4518,34.7503,开封市,祥符区生态环境局,细颗粒物(PM2.5),98,92,108,59,74,70,70,131,107,33,26,7,10,0.6,0.6
2026-03-25T2200,1951A,84.886,45.6029,克拉玛依市,长征新村,,26,17,22,13,6,82,82,89,89,8,2,4,5,0.3,0.3
2026-03-25T2200,1952A,84.8894,45.5827,克拉玛依市,南林小区,NA,NA,25,24,3,1,87,87,96,95,NA,2,5,4,NA,0.1
2026-03-25T2200,1954A,84.896,44.3328,克拉玛依市,独山子区,,26,19,53,8,10,82,82,100,98,9,4,4,4,0.4,0.4
2026-03-25T2200,1955A,85.6888,46.0909,克拉玛依市,乌尔禾区商贸楼,,41,41,27,8,11,70,70,86,84,7,2,1,2,0.3,0.1
2026-03-25T2200,3612A,85.1045,45.6895,克拉玛依市,白碱滩区新站,颗粒物(PM10),58,60,30,16,6,75,75,98,95,16,2,5,4,0.6,0.5
2026-03-25T2200,2697A,76.1457,39.7143,克孜勒苏柯尔克孜自治州,市人民政府,颗粒物(PM10),63,68,53,26,14,94,94,117,114,16,3,4,4,0.3,0.2
2026-03-25T2200,3665A,76.1654,39.7157,克孜勒苏柯尔克孜自治州,克州文化中心,颗粒物(PM10),61,65,58,27,16,98,98,120,112,16,3,6,6,0.3,0.2
2026-03-25T2200,1450A,102.8203,24.889,昆明市,呈贡新区,,50,36,60,35,51,107,107,139,122,14,17,2,7,0.7,0.9
2026-03-25T2200,1452A,102.7253,25.0904,昆明市,龙泉镇,,50,50,56,28,42,68,68,117,104,28,24,4,4,0.7,0.7
2026-03-25T2200,1453A,102.7267,25.0378,昆明市,东风东路,,38,34,58,26,44,100,100,126,110,14,13,4,4,0.5,0.7
2026-03-25T2200,1454A,102.6744,25.0671,昆明市,金鼎山,,43,38,62,30,46,103,103,122,112,14,21,6,4,0.7,0.8
2026-03-25T2200,1455A,102.6643,25.0401,昆明市,碧鸡广场,细颗粒物(PM2.5),54,39,60,37,45,83,83,120,106,25,23,6,6,0.5,0.6
2026-03-25T2200,3179A,102.7491,25.012,昆明市,官渡区博物馆,,45,38,58,31,47,106,106,126,114,12,16,3,4,0.5,0.7
2026-03-25T2200,3375A,102.8016,24.8336,昆明市,青年创业园,细颗粒物(PM2.5),56,50,63,38,51,100,100,136,119,14,13,5,7,0.6,0.7
2026-03-25T2200,3550A,102.8,24.9787,昆明市,昆明学院,,43,40,63,30,42,98,98,130,115,14,14,5,5,0.6,0.8
2026-03-25T2200,3551A,102.5969,24.6738,昆明市,晋宁区生态环境分局,NA,NA,76,75,57,58,NA,NA,144,131,17,12,6,8,1.0,0.8
2026-03-25T2200,3552A,102.6673,24.9861,昆明市,云天化总部,,39,33,58,27,38,108,108,127,116,9,20,4,5,0.4,0.6
2026-03-25T2200,1456A,91.132,29.6515,拉萨市,八廓街,,43,28,22,15,8,135,135,149,147,9,7,5,5,0.3,0.3
2026-03-25T2200,1457A,91.1221,29.6748,拉萨市,市环保局,,40,17,23,3,8,128,128,140,137,9,8,3,4,0.4,0.4
2026-03-25T2200,1458A,91.0874,29.6476,拉萨市,区监测站,,42,14,13,7,6,134,134,138,137,9,9,4,4,0.3,0.4
2026-03-25T2200,1459A,91.1774,29.6541,拉萨市,西藏大学,,42,18,21,12,12,133,133,134,134,9,9,4,4,0.3,0.3
2026-03-25T2200,1460A,90.9798,29.6586,拉萨市,区辐射站,,35,21,18,12,8,110,110,132,130,22,11,4,5,0.4,0.3
2026-03-25T2200,1461A,91.0831,29.6292,拉萨市,拉萨火车站,,44,22,18,6,7,139,139,140,140,5,8,4,4,0.5,0.4
2026-03-25T2200,2520A,109.2203,23.7252,来宾市,来宾技工学校,细颗粒物(PM2.5),62,54,44,41,28,63,63,93,90,13,12,5,10,1.0,1.1
2026-03-25T2200,3535A,109.1781,23.7293,来宾市,兴宾区政府,细颗粒物(PM2.5),90,84,51,55,31,52,52,96,92,24,12,9,11,0.8,1
2026-03-25T2200,4002A,109.2312,23.7428,来宾市,中南小学,细颗粒物(PM2.5),94,75,46,57,29,46,46,98,90,28,13,10,11,0.9,0.9
2026-03-25T2200,1479A,103.8309,36.0467,兰州市,铁路设计院,颗粒物(PM10),55,56,87,27,37,83,83,99,99,28,50,4,11,0.7,0.9
2026-03-25T2200,3241A,103.7439,36.0841,兰州市,百合公园,颗粒物(PM10),52,52,83,34,43,76,76,94,94,20,45,9,9,0.4,0.7
2026-03-25T2200,3242A,103.9613,35.9985,兰州市,和平,,43,43,78,27,34,92,92,111,109,11,20,10,12,0.5,0.6
2026-03-25T2200,4236A,103.629272,36.093822,兰州市,庄浪东路808号,颗粒物(PM10),62,66,92,29,40,94,94,97,97,18,36,7,10,0.3,0.6
2026-03-25T2200,4237A,103.7251,36.104344,兰州市,安宁西路88号,颗粒物(PM10),65,71,100,30,47,88,88,106,106,24,42,8,10,0.3,0.6
2026-03-25T2200,4238A,103.846982,36.067567,兰州市,北滨河东路1号,,48,48,86,32,42,87,87,100,100,23,50,10,11,0.7,1
2026-03-25T2200,1067A,116.6712,39.5109,廊坊市,药材公司,细颗粒物(PM2.5),166,197,176,126,124,118,118,181,171,34,27,12,6,0.8,0.7
2026-03-25T2200,1068A,116.7215,39.5592,廊坊市,开发区,细颗粒物(PM2.5),185,208,177,139,125,84,84,172,162,65,26,4,4,0.6,0.6
2026-03-25T2200,1070A,116.7246,39.5273,廊坊市,北华航天学院,细颗粒物(PM2.5),168,225,178,127,116,63,63,184,159,68,29,7,7,1.0,0.7
2026-03-25T2200,2919A,116.7022,39.5454,廊坊市,河北工业大学,细颗粒物(PM2.5),178,216,187,134,119,92,92,179,168,52,25,6,6,0.8,0.6
2026-03-25T2200,2536A,103.7629,29.5844,乐山市,牛耳桥,细颗粒物(PM2.5),72,64,55,46,35,41,41,65,62,38,28,6,7,0.7,0.6
2026-03-25T2200,2537A,103.7501,29.6002,乐山市,市第三水厂,"颗粒物(PM10),细颗粒物(PM2.5)",60,64,54,40,35,31,31,65,61,46,31,4,5,0.8,0.7
2026-03-25T2200,2538A,103.7571,29.5664,乐山市,市监测站,细颗粒物(PM2.5),70,74,60,45,34,39,39,71,60,34,24,3,3,0.6,0.6
2026-03-25T2200,3361A,103.7313,29.563,乐山市,理工大学,细颗粒物(PM2.5),80,68,50,50,183,24,24,62,56,43,30,6,7,1.1,0.7
2026-03-25T2200,2599A,100.2497,26.8802,丽江市,丽江古城,,32,20,23,15,9,101,101,105,102,11,9,10,9,0.4,0.5
2026-03-25T2200,2600A,100.2203,26.8906,丽江市,市中心,,33,6,11,3,12,105,105,105,102,11,13,8,7,0.4,0.4
2026-03-25T2200,1267A,119.9141,28.4513,丽水市,监测站大楼,,35,35,19,18,12,56,56,94,90,23,14,4,4,0.5,0.5
2026-03-25T2200,1268A,119.93,28.4589,丽水市,莲都小学,,28,28,18,14,11,69,69,96,94,20,15,/,/,/,/
2026-03-25T2200,1269A,119.8794,28.4232,丽水市,余庄前,,27,27,20,14,11,19,19,80,65,13,13,3,4,0.4,0.6
2026-03-25T2200,1173A,119.1759,34.5885,连云港市,市环境监测站,细颗粒物(PM2.5),126,122,97,88,73,87,87,129,124,41,27,9,11,0.6,0.6
2026-03-25T2200,3000A,119.3577,34.6971,连云港市,德源药业,细颗粒物(PM2.5),110,107,98,70,60,108,108,128,126,NA,40,NA,7,0.8,0.9
2026-03-25T2200,3007A,119.178,34.8442,连云港市,新城一中,细颗粒物(PM2.5),124,110,98,86,78,55,55,134,114,72,41,8,12,0.7,0.7
2026-03-25T2200,3008A,119.3607,34.7519,连云港市,胡沟管理处,细颗粒物(PM2.5),92,85,97,56,62,131,131,124,124,23,36,11,14,0.3,0.6
2026-03-25T2200,3009A,119.1478,34.5913,连云港市,矿山设计院,细颗粒物(PM2.5),114,119,103,75,68,118,118,136,136,38,38,10,10,0.9,0.9
2026-03-25T2200,3434A,119.2414,34.6539,连云港市,工贸学校,细颗粒物(PM2.5),113,110,94,74,67,115,115,132,132,28,22,13,12,0.5,0.5
2026-03-25T2200,3664A,119.4171,34.734,连云港市,连云街道,细颗粒物(PM2.5),110,114,110,71,70,134,134,134,134,20,29,8,8,0.6,0.6
2026-03-25T2200,2573A,102.2629,27.8981,凉山彝族自治州,西昌市政府,,35,24,23,12,15,109,109,115,113,6,11,9,10,0.7,0.6
2026-03-25T2200,2574A,102.2686,27.885,凉山彝族自治州,凉山州政府,,29,20,22,10,12,92,92,100,99,9,11,10,5,0.8,0.5
2026-03-25T2200,4229A,102.2342,27.8859,凉山彝族自治州,凯乐南路30号,,33,19,25,7,11,103,103,107,106,7,12,3,5,0.3,0.5
2026-03-25T2200,2212A,123.1978,41.2036,辽阳市,宏伟区,细颗粒物(PM2.5),236,233,118,186,94,91,91,144,125,38,17,18,12,2.2,1
2026-03-25T2200,2213A,123.1684,41.2497,辽阳市,新华园,细颗粒物(PM2.5),244,275,132,194,96,91,91,141,118,44,24,23,15,1.8,0.9
2026-03-25T2200,2214A,123.2355,41.2663,辽阳市,滨河路,细颗粒物(PM2.5),228,242,112,178,87,101,101,137,102,40,27,19,10,2.1,0.9
2026-03-25T2200,4083A,123.153,41.2874,辽阳市,铁西路150号,细颗粒物(PM2.5),248,297,139,198,97,62,62,124,98,53,26,22,14,2.2,1
2026-03-25T2200,2227A,125.1359,42.8845,辽源市,环保局,细颗粒物(PM2.5),233,235,109,183,80,16,16,139,91,77,24,11,9,1.7,0.9
2026-03-25T2200,4085A,125.0998,42.9134,辽源市,安宁大街333号,细颗粒物(PM2.5),226,228,130,176,86,17,17,140,98,81,23,8,7,1.4,0.8
2026-03-25T2200,1625A,115.9789,36.4372,聊城市,区政府,颗粒物(PM10),98,116,130,55,78,84,84,130,120,20,18,8,8,0.8,0.8
2026-03-25T2200,3200A,115.9772,36.4986,聊城市,监控中心,颗粒物(PM10),99,118,132,59,81,103,103,147,141,16,17,13,13,0.8,0.8
2026-03-25T2200,3513A,116.0443,36.436,聊城市,九州社区,细颗粒物(PM2.5),107,111,117,67,79,92,92,143,134,24,20,7,5,0.7,0.8
2026-03-25T2200,4018A,116.0564,36.4609,聊城市,星美广场,颗粒物(PM10),104,128,132,61,77,88,88,134,127,23,19,8,8,0.8,0.8
2026-03-25T2200,4113A,116.0091,36.4495,聊城市,利民路,细颗粒物(PM2.5),106,108,117,66,80,100,100,146,139,20,17,8,8,0.6,0.6
2026-03-25T2200,2632A,94.3683,29.6373,林芝市,林芝监测站,,31,NA,6,14,4,97,97,117,116,2,2,3,3,0.4,0.4
2026-03-25T2200,2633A,94.3616,29.6634,林芝市,林芝人民医院,,33,NA,7,12,4,104,104,122,121,3,3,3,3,0.5,0.5
2026-03-25T2200,2603A,100.0779,23.8981,临沧市,市环保局,细颗粒物(PM2.5),74,NA,39,47,32,80,80,124,115,16,10,9,9,0.6,0.6
2026-03-25T2200,2604A,100.0894,23.882,临沧市,市气象局,细颗粒物(PM2.5),64,48,38,42,31,89,89,126,117,11,10,7,8,0.4,0.3
2026-03-25T2200,1733A,111.5552,36.0791,临汾市,临钢医院,细颗粒物(PM2.5),124,162,113,86,65,87,87,145,131,39,30,13,10,1.6,1.1
2026-03-25T2200,1734A,111.4984,36.0734,临汾市,技工学校,细颗粒物(PM2.5),147,188,113,111,76,70,70,135,117,51,28,13,10,1.5,0.9
2026-03-25T2200,1736A,111.5017,36.0857,临汾市,市委,细颗粒物(PM2.5),140,173,122,103,65,79,79,140,124,49,27,13,8,1.7,1.1
2026-03-25T2200,3018A,111.5048,36.1015,临汾市,唐尧大酒店,细颗粒物(PM2.5),126,178,125,88,63,66,66,134,120,51,28,15,11,1.5,1.1
2026-03-25T2200,4244A,111.4879,36.053,临汾市,启星学校,细颗粒物(PM2.5),141,184,110,105,64,65,65,137,117,74,38,15,8,1.7,1.1
2026-03-25T2200,4271A,103.2464,35.6123,临夏回族自治州,滨河东路1号,,36,27,108,25,47,45,45,98,90,37,27,7,9,0.5,0.6
2026-03-25T2200,4310A,103.207136,35.599807,临夏回族自治州,新华街21号,,35,NA,94,24,49,80,80,83,82,11,16,7,9,0.7,0.9
2026-03-25T2200,1618A,118.3429,35.0532,临沂市,沂河小区,细颗粒物(PM2.5),108,129,120,68,74,84,84,139,124,34,30,24,17,0.5,0.6
2026-03-25T2200,1619A,118.2962,35.0568,临沂市,鲁南制药厂,细颗粒物(PM2.5),103,107,123,63,82,90,90,143,130,34,41,16,17,0.5,0.6
2026-03-25T2200,1620A,118.2793,34.9976,临沂市,新光毛纺厂,细颗粒物(PM2.5),109,114,116,69,83,82,82,140,124,44,42,15,19,0.4,0.6
2026-03-25T2200,1621A,118.3955,35.0889,临沂市,河东保险公司,细颗粒物(PM2.5),106,110,115,66,81,106,106,152,140,26,32,23,13,0.3,0.5
2026-03-25T2200,3370A,118.3563,35.0215,临沂市,十里堡居委,细颗粒物(PM2.5),113,117,116,74,82,86,86,143,127,42,44,32,17,0.7,0.7
2026-03-25T2200,3496A,118.359,35.1067,临沂市,南坊新区,细颗粒物(PM2.5),100,92,103,60,77,106,106,147,136,24,30,12,13,0.3,0.7
2026-03-25T2200,3860A,118.3915,35.0297,临沂市,皇山花园小区,细颗粒物(PM2.5),119,119,116,80,82,96,96,145,133,35,42,18,17,0.6,0.7
2026-03-25T2200,1870A,109.4854,24.3898,柳州市,柳东小学,细颗粒物(PM2.5),92,57,28,56,21,44,44,81,78,17,9,6,5,1.1,1
2026-03-25T2200,1871A,109.4109,24.3304,柳州市,环保监测站,细颗粒物(PM2.5),130,103,42,93,31,15,15,74,64,43,19,14,12,1.4,1.2
2026-03-25T2200,1872A,109.3886,24.3408,柳州市,河西水厂,细颗粒物(PM2.5),110,112,55,70,34,13,13,50,NA,41,23,14,21,1.3,1.1
2026-03-25T2200,1873A,109.4263,24.2951,柳州市,市四中,细颗粒物(PM2.5),128,110,43,90,30,8,8,92,82,52,16,14,11,1.4,1.3
2026-03-25T2200,1874A,109.396,24.3658,柳州市,市九中,细颗粒物(PM2.5),125,115,54,87,32,17,17,58,51,29,19,15,19,1.2,1.2
2026-03-25T2200,1875A,109.4912,24.3164,柳州市,古亭山,细颗粒物(PM2.5),72,57,41,46,20,33,33,90,84,23,10,7,7,1.1,0.9
2026-03-25T2200,3402A,109.5422,24.3994,柳州市,市二中,细颗粒物(PM2.5),90,65,36,55,21,39,39,74,69,19,12,8,7,1.1,1
2026-03-25T2200,2307A,116.5078,31.7369,六安市,监测大楼,细颗粒物(PM2.5),56,49,53,38,35,107,107,122,115,15,21,4,4,0.4,0.4
2026-03-25T2200,2308A,116.4738,31.7642,六安市,皖西学院,细颗粒物(PM2.5),52,43,56,36,36,117,117,132,128,11,17,4,4,0.4,0.4
2026-03-25T2200,2309A,116.4997,31.7904,六安市,朝阳厂,,50,50,58,32,39,117,117,127,122,20,24,6,5,0.4,0.4
2026-03-25T2200,2310A,116.5566,31.7885,六安市,开发区,,48,48,62,33,43,121,121,139,129,11,23,5,5,0.4,0.4
2026-03-25T2200,2577A,104.8293,26.592,六盘水市,黄土坡,颗粒物(PM10),54,55,44,31,29,78,78,124,116,25,13,9,6,0.6,0.5
2026-03-25T2200,2579A,104.8481,26.5898,六盘水市,民中,细颗粒物(PM2.5),52,44,43,36,31,71,71,120,110,23,12,5,5,0.8,0.6
2026-03-25T2200,2580A,104.9541,26.5506,六盘水市,双水,,48,48,51,23,29,83,83,114,108,12,11,4,5,0.6,0.6
2026-03-25T2200,4151A,104.8899,26.5685,六盘水市,钟山大道中段564号,颗粒物(PM10),56,58,54,32,31,81,81,121,112,13,9,11,8,0.7,0.6
2026-03-25T2200,2336A,117.022,25.1031,龙岩市,龙岩市监测站,,38,NA,28,26,22,59,59,109,96,17,11,9,12,0.8,0.7
2026-03-25T2200,2337A,117.0257,25.0662,龙岩市,闽西职业技术学院,颗粒物(PM10),51,51,37,28,22,60,60,104,88,21,13,8,8,0.7,0.7
2026-03-25T2200,2338A,117.0195,25.0306,龙岩市,龙岩学院,,36,27,32,25,23,53,53,106,91,9,11,4,5,/,/
2026-03-25T2200,2885A,104.9344,33.3827,陇南市,滨江中学,NA,NA,49,64,24,26,76,76,74,63,13,15,7,7,NA,0.8
2026-03-25T2200,3247A,104.9551,33.3709,陇南市,市总工会,,42,42,62,20,23,76,76,77,64,14,14,6,6,0.7,0.7
2026-03-25T2200,2488A,111.9984,27.7346,娄底市,市监测站,NA,NA,NA,63,NA,49,76,76,74,74,8,24,1,7,0.4,0.9
2026-03-25T2200,2491A,111.9888,27.7035,娄底市,市政府,,38,34,49,26,45,87,87,73,73,8,15,5,6,0.4,0.8
2026-03-25T2200,4127A,111.9812,27.7591,娄底市,涟钢职大,,43,39,74,30,58,77,77,85,85,19,25,4,5,0.5,1
2026-03-25T2200,4128A,112.0303,27.7457,娄底市,娄底体校,,42,42,62,27,42,81,81,72,72,2,10,2,3,0.2,0.5
2026-03-25T2200,1894A,105.4427,28.9063,泸州市,小市上码头,细颗粒物(PM2.5),90,62,47,55,40,38,38,52,51,25,20,9,10,0.8,0.8
2026-03-25T2200,1895A,105.4241,28.8573,泸州市,兰田宪桥,细颗粒物(PM2.5),68,67,48,44,31,5,5,44,36,40,23,7,8,1.2,0.9
2026-03-25T2200,1896A,105.4378,28.8833,泸州市,市环监站,细颗粒物(PM2.5),78,79,60,49,36,26,26,38,35,36,29,5,6,0.9,0.8
2026-03-25T2200,4272A,105.3689,28.7783,泸州市,纳溪中医医院,细颗粒物(PM2.5),76,58,45,48,29,9,9,46,40,33,23,7,8,1.0,0.8
2026-03-25T2200,2183A,111.1447,37.5212,吕梁市,环保局,颗粒物(PM10),108,139,97,50,34,18,18,87,62,64,46,6,8,0.4,0.5
2026-03-25T2200,2185A,111.1285,37.5338,吕梁市,自来水公司,颗粒物(PM10),116,161,127,63,40,42,42,92,79,38,40,6,7,0.5,0.5
2026-03-25T2200,2867A,111.1225,37.5093,吕梁市,马茂庄小学,颗粒物(PM10),113,152,121,47,34,10,10,83,50,72,53,4,6,0.5,0.5
2026-03-25T2200,1812A,112.3934,34.6517,洛阳市,市委党校,颗粒物(PM10),74,83,70,46,38,94,94,116,113,19,18,9,9,0.8,0.6
2026-03-25T2200,1815A,112.494,34.6883,洛阳市,河南林校,颗粒物(PM10),82,94,77,41,35,85,85,117,113,26,24,11,12,0.7,0.6
2026-03-25T2200,1816A,112.3843,34.623,洛阳市,开发区管委会,颗粒物(PM10),94,111,82,46,38,95,95,118,113,19,20,13,13,0.5,0.5
2026-03-25T2200,1817A,112.4263,34.6249,洛阳市,市委新办公区,颗粒物(PM10),80,92,88,46,42,95,95,118,114,20,18,10,10,0.6,0.6
2026-03-25T2200,3340A,112.6005,34.6323,洛阳市,伊滨,颗粒物(PM10),73,82,82,38,43,118,118,123,122,13,20,8,10,0.6,0.6
2026-03-25T2200,3341A,112.495,34.6338,洛阳市,中移产业园,颗粒物(PM10),70,78,72,34,36,105,105,117,114,28,25,9,11,0.5,0.5
2026-03-25T2200,3593A,112.5736,34.8993,洛阳市,吉利监测站,颗粒物(PM10),82,94,73,42,39,19,19,117,100,83,26,13,11,0.7,0.5
2026-03-25T2200,3635A,112.3678,34.6623,洛阳市,河科大西苑校区,颗粒物(PM10),77,87,76,46,39,99,99,121,118,18,21,10,10,0.6,0.5
2026-03-25T2200,3636A,112.4387,34.678,洛阳市,英才小学,颗粒物(PM10),78,89,91,44,46,100,100,118,116,23,30,11,12,0.8,0.7
2026-03-25T2200,4214A,112.460027,34.694929,洛阳市,春都路1号院,颗粒物(PM10),83,96,94,34,47,91,91,119,115,27,28,9,11,0.8,0.8
2026-03-25T2200,2399A,114.051,33.5721,漯河市,三五一五工厂,细颗粒物(PM2.5),100,78,108,60,60,75,75,117,108,27,23,6,6,0.4,0.4
2026-03-25T2200,2400A,114.0055,33.5698,漯河市,漯河大学,细颗粒物(PM2.5),88,63,90,54,61,87,87,118,111,22,25,6,7,0.6,0.7
2026-03-25T2200,2401A,114.0134,33.5826,漯河市,市水利局,"颗粒物(PM10),细颗粒物(PM2.5)",70,78,90,45,56,86,86,116,110,21,21,6,6,0.6,0.6
2026-03-25T2200,2402A,114.0261,33.5697,漯河市,市广电局,细颗粒物(PM2.5),82,73,88,51,58,78,78,116,107,21,19,6,7,0.6,0.6
2026-03-25T2200,3478A,113.9691,33.568,漯河市,市图书馆,细颗粒物(PM2.5),70,72,103,45,59,81,81,108,101,21,20,8,7,0.7,0.7
2026-03-25T2200,4250A,114.089259,33.588274,漯河市,韶山路11号,细颗粒物(PM2.5),80,90,104,50,60,54,54,116,104,37,18,7,7,0.5,0.5
2026-03-25T2200,1798A,118.5084,31.6838,马鞍山市,湖东路四小,细颗粒物(PM2.5),108,110,73,68,60,82,82,119,114,39,34,7,8,1.0,0.9
2026-03-25T2200,1799A,118.5019,31.6449,马鞍山市,开发区,细颗粒物(PM2.5),110,115,72,71,50,65,65,121,111,56,39,6,5,0.8,0.8
2026-03-25T2200,3633A,118.4914,31.681,马鞍山市,雨山,细颗粒物(PM2.5),100,100,70,60,42,98,98,123,120,34,34,6,6,0.9,0.7
2026-03-25T2200,4191A,118.527362,31.722269,马鞍山市,慈湖高新区,细颗粒物(PM2.5),80,84,91,50,59,98,98,111,111,33,38,8,9,0.6,1
2026-03-25T2200,1686A,111.0285,21.469,茂名市,电白南海,,24,24,30,9,15,51,51,64,59,9,9,5,5,0.9,0.9
2026-03-25T2200,1687A,110.9294,21.6533,茂名市,茂石化七小,,31,31,35,16,19,41,41,70,56,14,13,5,7,0.5,0.5
2026-03-25T2200,1688A,110.9108,21.6688,茂名市,健康路,,19,19,27,12,18,49,49,73,61,11,11,3,5,0.5,0.5
2026-03-25T2200,1689A,110.8592,21.6826,茂名市,高岭,,29,29,42,13,20,34,34,72,54,23,14,3,9,/,/
2026-03-25T2200,3450A,111.0101,21.5165,茂名市,电白水东,,16,14,22,11,16,51,51,60,57,7,11,3,4,/,/
2026-03-25T2200,2540A,103.8414,30.0871,眉山市,气象局,颗粒物(PM10),74,83,65,39,25,49,49,81,78,29,24,9,8,0.6,0.6
2026-03-25T2200,3148A,103.829,30.0563,眉山市,区人社局,细颗粒物(PM2.5),74,76,67,47,34,45,45,74,72,37,31,10,10,0.7,0.7
2026-03-25T2200,4148A,103.8836,30.0695,眉山市,眉职院,颗粒物(PM10),67,73,69,36,33,54,54,76,75,30,27,7,7,0.7,0.7
2026-03-25T2200,1690A,116.1248,24.3307,梅州市,梅江月梅,,39,NA,32,27,27,63,63,102,84,19,22,/,/,/,/
2026-03-25T2200,1691A,116.0798,24.2719,梅州市,梅县新城,细颗粒物(PM2.5),76,60,38,48,26,32,32,106,83,38,20,8,9,0.8,0.7
2026-03-25T2200,3315A,116.1234,24.2994,梅州市,梅龙,细颗粒物(PM2.5),70,63,39,45,29,64,64,106,90,23,18,8,12,1.1,1
2026-03-25T2200,1878A,104.7775,31.4741,绵阳市,富乐山,,23,20,38,16,19,44,44,84,70,12,11,6,7,0.8,0.8
2026-03-25T2200,1880A,104.6698,31.4668,绵阳市,高新区自来水公司,,31,31,41,18,22,30,30,77,64,34,19,8,8,0.6,0.6
2026-03-25T2200,3491A,104.6899,31.5324,绵阳市,西科大附属小学,,32,32,45,19,24,14,14,79,59,44,21,6,7,0.6,0.7
2026-03-25T2200,3492A,104.5647,31.5343,绵阳市,安州区旅游局,,42,42,48,15,25,55,55,80,72,16,18,6,6,0.5,0.6
2026-03-25T2200,4146A,104.7092,31.4972,绵阳市,科技城新区公安局,,32,32,46,18,22,31,31,73,62,26,17,7,7,0.7,0.7
2026-03-25T2200,4226A,104.765114,31.453094,绵阳市,绵阳市气象局,,41,41,42,18,23,38,38,72,64,27,19,6,9,0.7,0.7
2026-03-25T2200,1784A,129.61,44.561,牡丹江市,环保大楼,细颗粒物(PM2.5),113,78,86,74,67,90,90,118,105,25,29,6,4,0.6,0.7
2026-03-25T2200,1787A,129.6364,44.6075,牡丹江市,机车工厂,细颗粒物(PM2.5),132,155,102,95,66,38,38,107,86,36,36,12,12,1.2,0.9
2026-03-25T2200,1788A,129.6386,44.5462,牡丹江市,第一中学,细颗粒物(PM2.5),104,72,67,64,52,54,54,115,93,46,31,6,5,0.6,0.6
2026-03-25T2200,4287A,129.5992,44.5964,牡丹江市,东晓云街98号,细颗粒物(PM2.5),192,175,97,144,73,29,29,109,82,47,27,5,4,1.4,0.8
2026-03-25T2200,2531A,105.0703,29.61,内江市,市监测站,,42,42,36,19,28,62,62,84,81,15,15,7,8,0.6,0.6
2026-03-25T2200,2533A,105.0657,29.5807,内江市,内江二中,颗粒物(PM10),64,69,46,20,27,62,62,87,84,20,19,8,9,0.5,0.5
2026-03-25T2200,2534A,105.0407,29.5828,内江市,内江日报社,,29,27,36,20,28,62,62,91,86,18,19,8,14,0.5,0.5
2026-03-25T2200,4147A,105.0433,29.6105,内江市,玉峰路西段888号,,33,33,36,20,31,74,74,93,90,16,19,10,10,0.4,0.4
2026-03-25T2200,2628A,92.0653,31.4846,那曲市,那曲监测站,,49,46,21,34,17,79,79,127,118,30,8,15,9,1.2,0.6
2026-03-25T2200,4243A,92.0515,31.4787,那曲市,那曲市委宣传部,,32,26,17,8,8,100,100,134,128,4,3,7,8,0.4,0.5
2026-03-25T2200,1291A,115.8887,28.7006,南昌市,省林业公司,颗粒物(PM10),63,68,65,37,43,67,67,130,115,33,26,4,5,0.3,0.4
2026-03-25T2200,1292A,115.813,28.7443,南昌市,林科所,细颗粒物(PM2.5),60,48,63,40,43,72,72,138,NA,17,18,7,8,0.6,0.6
2026-03-25T2200,1294A,115.8518,28.687,南昌市,建工学校,颗粒物(PM10),72,80,88,38,47,83,83,136,123,34,28,8,9,0.9,0.9
2026-03-25T2200,1295A,115.8926,28.6425,南昌市,象湖,细颗粒物(PM2.5),68,67,70,44,45,56,56,132,116,52,33,7,8,1.1,1
2026-03-25T2200,3046A,115.9084,28.6062,南昌市,机电学校,细颗粒物(PM2.5),74,75,93,47,49,54,54,136,114,31,28,4,5,0.9,0.8
2026-03-25T2200,3690A,115.9718,28.7032,南昌市,外国语学校,细颗粒物(PM2.5),62,64,68,41,55,78,78,130,119,31,22,7,8,0.8,0.9
2026-03-25T2200,4106A,115.7923,28.6873,南昌市,工业二路,颗粒物(PM10),93,109,93,47,48,51,51,129,111,44,28,5,5,1.0,0.9
2026-03-25T2200,4192A,115.931587,28.686774,南昌市,南京东路235号,颗粒物(PM10),78,88,86,40,49,74,74,136,120,22,20,6,7,0.8,0.8
2026-03-25T2200,1906A,106.0791,30.8022,南充市,南充市委,,21,21,21,12,12,42,42,55,54,21,19,6,7,0.6,0.6
2026-03-25T2200,1907A,106.1038,30.8215,南充市,南充炼油厂,,24,24,26,12,12,46,46,52,51,12,15,4,5,0.4,0.5
2026-03-25T2200,4227A,106.108336,30.788436,南充市,梨树横街98号,,18,17,20,10,12,57,57,60,60,13,16,5,6,0.3,0.4
2026-03-25T2200,4304A,106.1172,30.843,南充市,清泉寺北路188号,,22,22,20,12,12,57,57,65,65,8,10,6,6,0.5,0.5
2026-03-25T2200,4305A,106.067,30.7616,南充市,同庆路1号,,22,22,22,12,13,48,48,58,58,16,18,6,6,0.6,0.6
2026-03-25T2200,1151A,118.8033,32.1085,南京市,迈皋桥,细颗粒物(PM2.5),105,88,83,65,61,105,105,151,138,23,26,8,11,NA,0.9
2026-03-25T2200,1152A,118.7487,32.057,南京市,草场门,细颗粒物(PM2.5),84,83,71,52,52,99,99,127,122,46,40,9,9,0.7,0.6
2026-03-25T2200,1154A,118.770105,32.004342,南京市,中华门,细颗粒物(PM2.5),88,85,77,54,48,79,79,128,120,39,31,6,5,1.1,1
2026-03-25T2200,1155A,118.8059,32.0329,南京市,瑞金路,细颗粒物(PM2.5),103,97,86,63,58,50,50,123,111,NA,75,4,5,1.2,1.2
2026-03-25T2200,1156A,118.7946,32.0774,南京市,玄武湖,细颗粒物(PM2.5),102,93,73,62,60,101,101,133,127,18,23,8,9,1.0,1
2026-03-25T2200,1157A,118.6415,32.0964,南京市,浦口,细颗粒物(PM2.5),80,86,76,50,50,68,68,121,114,32,27,5,5,1.0,0.9
2026-03-25T2200,1158A,118.730129,32.000956,南京市,奥体中心,颗粒物(PM10),77,87,81,45,51,108,108,129,124,21,30,7,7,0.7,0.6
2026-03-25T2200,1159A,118.9072,32.1047,南京市,仙林大学城,细颗粒物(PM2.5),102,100,83,62,59,94,94,153,138,36,36,8,8,0.9,0.9
2026-03-25T2200,3422A,118.8443,31.919,南京市,江宁彩虹桥,"颗粒物(PM10),细颗粒物(PM2.5)",78,89,70,49,46,62,62,123,113,74,41,3,4,0.9,1.1
2026-03-25T2200,3427A,118.8497,32.3599,南京市,六合雄州,颗粒物(PM10),55,56,59,31,47,23,23,118,96,85,42,4,4,0.6,0.7
2026-03-25T2200,4086A,118.7641,32.0841,南京市,新模范马路66号,细颗粒物(PM2.5),92,100,80,56,49,93,93,134,127,30,37,4,4,1.0,1.2
2026-03-25T2200,4249A,118.8707617,31.34017673,南京市,汶溪路181号,颗粒物(PM10),76,86,58,25,32,78,78,122,108,37,24,5,5,0.5,0.6
2026-03-25T2200,4312A,119.019,31.6512,南京市,中山西路1号,颗粒物(PM10),67,73,61,30,40,25,25,114,90,56,20,4,4,0.8,0.8
2026-03-25T2200,1401A,108.3098,22.788,南宁市,二十一中,,32,23,33,22,23,60,60,76,74,12,9,4,4,0.7,0.6
2026-03-25T2200,1402A,108.3135,22.8529,南宁市,北湖,,30,30,39,20,28,69,69,83,80,10,12,4,3,0.7,0.7
2026-03-25T2200,1403A,108.3205,22.8222,南宁市,市监测站,,29,29,35,19,21,68,68,82,81,3,3,3,2,0.6,0.6
2026-03-25T2200,1404A,108.3828,22.8038,南宁市,大自然花园,,29,29,35,18,23,76,76,91,89,8,9,5,5,0.7,0.5
2026-03-25T2200,1406A,108.2397,22.8462,南宁市,区农职院,,31,31,38,17,21,61,61,78,75,13,12,7,6,0.6,0.6
2026-03-25T2200,1407A,108.3285,22.7356,南宁市,英华嘉园,颗粒物(PM10),55,57,49,21,22,49,49,76,71,30,17,7,5,0.5,0.5
2026-03-25T2200,3401A,108.4829,22.762,南宁市,红星社区,,40,40,41,21,24,72,72,89,87,10,10,6,6,0.6,0.6
2026-03-25T2200,4132A,108.2927,23.1477,南宁市,起凤路9号,,33,33,44,23,34,73,73,88,86,7,8,4,4,0.4,0.5
2026-03-25T2200,4221A,108.2177,22.7774,南宁市,乐贤路16号,,33,33,38,19,23,55,55,81,77,20,15,5,5,0.8,0.8
2026-03-25T2200,2332A,118.1682,26.6371,南平市,南平市监测站,,20,17,11,14,6,34,34,81,66,19,9,3,3,0.8,0.6
2026-03-25T2200,2334A,118.1757,26.6276,南平市,南平七中,,18,18,15,12,6,35,35,86,70,21,12,2,2,0.7,0.7
2026-03-25T2200,1168A,120.9056,31.9669,南通市,狼山街道,,47,47,78,27,52,59,59,125,100,34,29,4,5,0.5,0.6
2026-03-25T2200,1170A,120.8635,32.0231,南通市,城中,颗粒物(PM10),57,59,88,28,58,66,66,123,107,26,22,4,6,0.7,0.7
2026-03-25T2200,1171A,120.9376,31.9301,南通市,星湖花园,NA,NA,NA,71,30,54,64,64,129,102,28,24,4,5,0.5,0.6
2026-03-25T2200,1172A,120.8053,32.046,南通市,紫琅学院,细颗粒物(PM2.5),70,67,86,45,60,49,49,129,86,49,35,6,6,0.9,0.9
2026-03-25T2200,3291A,121.0631,32.0644,南通市,通州监测站,,36,36,59,22,42,64,64,124,104,17,14,2,3,0.6,0.6
2026-03-25T2200,3432A,120.9348,31.9874,南通市,环境教育馆,,44,44,69,26,55,51,51,132,110,38,22,4,5,0.5,0.6
2026-03-25T2200,4091A,120.8692,31.9885,南通市,洪江路,,47,47,76,31,59,61,61,113,87,32,29,4,5,0.8,0.9
2026-03-25T2200,2404A,112.5338,33.0086,南阳市,瓦房庄,颗粒物(PM10),58,60,73,29,40,78,78,88,87,19,18,5,6,0.7,0.7
2026-03-25T2200,2405A,112.5002,32.9734,南阳市,汉画馆,细颗粒物(PM2.5),78,71,77,49,54,50,50,89,79,35,26,6,7,0.7,0.7
2026-03-25T2200,2406A,112.5778,33.0144,南阳市,气象站,颗粒物(PM10),65,70,81,30,37,80,80,92,90,24,21,8,7,0.6,0.6
2026-03-25T2200,2407A,112.548,32.9687,南阳市,理工学院,颗粒物(PM10),64,69,75,37,45,72,72,86,84,20,18,6,7,0.6,0.6
2026-03-25T2200,4008A,112.5233,32.9921,南阳市,卧龙区政府,颗粒物(PM10),64,69,81,39,44,56,56,84,79,38,24,9,8,0.7,0.6
2026-03-25T2200,1234A,121.8352,29.9111,宁波市,区环保大楼,,41,41,53,26,41,65,65,132,109,54,33,6,7,0.5,0.6
2026-03-25T2200,1235A,121.5595,29.8208,宁波市,万里学院,细颗粒物(PM2.5),112,123,66,73,37,80,80,142,131,52,23,8,5,1.0,0.7
2026-03-25T2200,1236A,121.713,29.9564,宁波市,龙赛医院,颗粒物(PM10),60,63,54,35,35,48,48,132,116,62,30,8,8,0.7,0.6
2026-03-25T2200,1240A,121.5855,29.8635,宁波市,太古小学,细颗粒物(PM2.5),110,109,52,71,37,66,66,145,134,67,29,6,4,1.0,0.7
2026-03-25T2200,1241A,121.5239,29.8673,宁波市,市环境监测中心,细颗粒物(PM2.5),118,120,63,79,42,89,89,140,133,47,25,8,7,0.8,0.6
2026-03-25T2200,2871A,121.6156,29.9015,宁波市,万里国际学校,细颗粒物(PM2.5),104,91,61,64,39,78,78,146,133,46,26,5,4,0.8,0.7
2026-03-25T2200,3710A,121.5593,29.8976,宁波市,白沙活动中心,细颗粒物(PM2.5),130,96,41,93,43,75,75,137,126,52,27,5,5,0.7,0.5
2026-03-25T2200,4095A,121.8962,29.7529,宁波市,中科路88号,细颗粒物(PM2.5),96,78,42,58,35,48,48,144,118,55,26,6,7,0.8,0.7
2026-03-25T2200,2341A,119.5387,26.6611,宁德市,宁德市监测站,,30,22,18,18,18,96,96,94,94,14,19,4,4,0.5,0.7
2026-03-25T2200,3209A,119.5231,26.6562,宁德市,宁德一中,,30,30,22,17,18,92,92,94,94,12,15,5,5,0.3,0.4
2026-03-25T2200,2618A,98.859,25.8541,怒江傈僳族自治州,州监测站,,30,23,31,20,20,93,93,99,99,4,10,7,7,0.5,0.5
2026-03-25T2200,2619A,98.8607,25.8168,怒江傈僳族自治州,泸水一中,,28,NA,26,14,21,89,89,88,88,9,17,5,5,0.5,0.6
2026-03-25T2200,1888A,101.6891,26.571,攀枝花市,弄弄坪,,32,23,38,13,18,102,102,110,104,13,21,10,19,1.4,1.5
2026-03-25T2200,1889A,101.577,26.5914,攀枝花市,河门口,,35,35,47,16,21,108,108,118,116,7,14,6,18,0.5,0.8
2026-03-25T2200,1891A,101.7365,26.4986,攀枝花市,仁和,,26,25,28,18,19,79,79,115,109,11,9,5,5,0.5,0.5
2026-03-25T2200,2835A,101.7222,26.567,攀枝花市,四十中小,,32,26,26,13,15,102,102,116,113,14,16,12,8,1.4,0.9
2026-03-25T2200,1604A,122.0303,41.1489,盘锦市,开发区,细颗粒物(PM2.5),176,NA,90,133,83,34,34,119,96,22,18,8,8,1.0,0.6
2026-03-25T2200,1605A,122.0486,41.0883,盘锦市,兴隆台,细颗粒物(PM2.5),169,NA,80,128,90,28,28,109,84,63,30,6,8,1.1,0.9
2026-03-25T2200,1606A,121.8297,41.1026,盘锦市,新生街道,细颗粒物(PM2.5),136,NA,77,99,92,8,8,110,69,70,32,14,12,0.9,0.7
2026-03-25T2200,1832A,113.3257,33.7423,平顶山市,新华旅馆,颗粒物(PM10),75,84,91,40,44,75,75,108,97,15,19,5,4,0.4,0.3
2026-03-25T2200,1833A,113.2917,33.737,平顶山市,规划设计院,颗粒物(PM10),64,69,95,40,40,72,72,105,92,22,23,8,7,0.6,0.6
2026-03-25T2200,1834A,113.182,33.7738,平顶山市,平顶山工学院,颗粒物(PM10),62,66,84,40,42,70,70,111,100,16,14,6,5,0.5,0.5
2026-03-25T2200,3594A,112.8736,33.9068,平顶山市,石龙区,NA,NA,86,88,40,45,77,77,120,106,NA,24,6,7,0.5,0.7
2026-03-25T2200,4116A,113.284,33.7139,平顶山市,姚电大道23号,颗粒物(PM10),76,86,98,35,45,70,70,104,91,25,32,7,7,0.4,0.4
2026-03-25T2200,2656A,106.6633,35.5338,平凉市,聚贤嘉苑,颗粒物(PM10),66,72,96,38,36,94,94,108,107,18,24,8,7,0.5,0.5
2026-03-25T2200,2657A,106.7021,35.5307,平凉市,博物馆,颗粒物(PM10),73,82,93,40,38,78,78,109,107,30,25,9,9,0.6,0.5
2026-03-25T2200,2348A,113.8384,27.6436,萍乡市,中医院,细颗粒物(PM2.5),54,39,59,37,37,71,71,81,78,10,13,4,6,0.8,1
2026-03-25T2200,2350A,113.8677,27.6438,萍乡市,市环保局,,49,37,44,34,39,72,72,89,84,8,11,7,8,0.6,0.8
2026-03-25T2200,2351A,113.8663,27.6202,萍乡市,安源区政府,细颗粒物(PM2.5),54,NA,44,37,38,56,56,72,69,16,12,5,6,0.9,0.7
2026-03-25T2200,4107A,113.8686,27.6668,萍乡市,联洪村委会,,41,41,61,28,39,65,65,75,74,6,11,2,4,0.4,0.7
2026-03-25T2200,2319A,119.0142,25.4324,莆田市,荔城区仓后路,,35,27,41,24,32,87,87,114,104,22,24,/,/,/,/
2026-03-25T2200,2320A,119.0016,25.4553,莆田市,莆田市监测站,,42,NA,34,29,30,89,89,114,106,19,16,3,3,0.5,0.5
2026-03-25T2200,2321A,119.112,25.4561,莆田市,涵江区六中,,34,22,34,16,25,106,106,110,107,13,31,/,/,0.5,0.6
2026-03-25T2200,2322A,119.1014,25.3215,莆田市,秀屿区政府,,36,19,28,14,24,115,115,116,116,7,14,4,4,0.7,0.5
2026-03-25T2200,2392A,115.0312,35.7636,濮阳市,环保局,细颗粒物(PM2.5),80,73,99,50,71,93,93,135,128,14,17,7,7,0.7,0.7
2026-03-25T2200,3021A,115,35.7667,濮阳市,濮水河管理处,颗粒物(PM10),88,102,104,51,73,94,94,146,137,21,21,8,9,0.7,0.7
2026-03-25T2200,4118A,115.0552,35.7816,濮阳市,中原东路68号,颗粒物(PM10),92,108,127,50,67,97,97,139,132,14,14,7,8,0.7,0.7
2026-03-25T2200,4216A,115.0923632,35.76857718,濮阳市,任丘路479号,颗粒物(PM10),84,97,120,48,73,92,92,139,131,24,24,7,8,0.8,0.9
2026-03-25T2200,2601A,100.9801,22.7634,普洱市,市环保局,细颗粒物(PM2.5),113,139,126,74,71,120,120,162,145,14,15,7,7,0.9,0.9
2026-03-25T2200,2602A,100.9763,22.8237,普洱市,普洱第二中学,颗粒物(PM10),90,105,119,51,74,91,91,156,131,24,24,6,7,0.6,0.7
2026-03-25T2200,3345A,131.0413,45.7795,七台河市,中波台,细颗粒物(PM2.5),110,107,106,70,84,70,70,118,91,14,23,6,8,0.5,0.6
2026-03-25T2200,3637A,131.0136,45.7688,七台河市,人民广场,细颗粒物(PM2.5),122,152,122,84,75,59,59,114,90,24,26,14,12,0.8,0.8
2026-03-25T2200,3684A,130.8639,45.8144,七台河市,新建矿广场,细颗粒物(PM2.5),156,183,146,119,92,65,65,113,98,44,33,20,17,1.0,0.8
2026-03-25T2200,1779A,123.9307,47.3641,齐齐哈尔市,安居小区,细颗粒物(PM2.5),84,55,132,52,94,79,79,105,92,11,16,9,12,0.4,0.8
2026-03-25T2200,1780A,123.9497,47.3389,齐齐哈尔市,中心广场,颗粒物(PM10),55,56,125,34,77,89,89,103,94,12,17,12,14,0.7,0.9
2026-03-25T2200,1781A,123.9483,47.3229,齐齐哈尔市,农牧车辆厂,细颗粒物(PM2.5),62,48,126,41,86,84,84,105,94,10,15,7,8,0.2,0.4
2026-03-25T2200,1783A,123.9442,47.2994,齐齐哈尔市,市环境监测站,细颗粒物(PM2.5),52,44,155,36,85,86,86,110,97,11,16,4,5,0.5,0.8
2026-03-25T2200,3662A,123.6341,47.2079,齐齐哈尔市,富区青少年活动中心,细颗粒物(PM2.5),110,89,154,70,105,72,72,104,88,16,18,5,7,0.6,0.8
2026-03-25T2200,2591A,107.9765,26.5724,黔东南苗族侗族自治州,市环境监测站,,34,34,19,15,13,27,27,48,30,9,10,2,2,0.8,0.8
2026-03-25T2200,2881A,107.8909,26.531,黔东南苗族侗族自治州,凯里学院,,20,14,13,14,11,31,31,51,33,10,11,4,4,1.0,0.9
2026-03-25T2200,2593A,107.5223,26.2371,黔南布依族苗族自治州,小围寨,,16,14,9,11,8,10,10,45,21,16,9,5,4,0.8,0.7
2026-03-25T2200,3538A,107.5175,26.2977,黔南布依族苗族自治州,沙坝,,13,12,14,9,8,8,8,38,16,16,10,5,4,0.7,0.5
2026-03-25T2200,2589A,104.9022,25.0943,黔西南布依族苗族自治州,场坝街,细颗粒物(PM2.5),105,100,46,65,39,113,113,142,141,10,8,8,8,0.6,0.5
2026-03-25T2200,2590A,104.8812,25.0994,黔西南布依族苗族自治州,坪东大道,细颗粒物(PM2.5),100,87,49,60,41,68,68,139,128,30,10,6,7,1.0,0.6
2026-03-25T2200,2502A,108.6238,21.9667,钦州市,市环保站,颗粒物(PM10),53,53,41,26,17,46,46,75,66,22,14,12,6,0.5,0.4
2026-03-25T2200,2503A,108.655,21.9481,钦州市,沙埠小学,,45,NA,42,31,21,35,35,72,64,26,16,5,5,0.6,0.6
2026-03-25T2200,2504A,108.5989,21.7435,钦州市,港区一小,颗粒物(PM10),63,67,46,22,19,47,47,69,62,17,10,2,3,0.6,0.5
2026-03-25T2200,3404A,108.5959,21.9634,钦州市,北职校,,44,44,37,23,20,41,41,77,68,24,13,8,6,0.6,0.5
2026-03-25T2200,1046A,119.5247,39.9346,秦皇岛市,建设大厦,细颗粒物(PM2.5),186,183,177,140,135,43,43,122,88,64,33,8,17,0.8,1.2
2026-03-25T2200,3132A,119.5979,39.938,秦皇岛市,文明里,细颗粒物(PM2.5),195,218,180,146,124,40,40,106,79,63,46,10,16,0.7,1
2026-03-25T2200,4066A,119.7458,39.9952,秦皇岛市,南园路157号,细颗粒物(PM2.5),196,194,169,147,125,7,7,106,80,104,52,12,13,0.9,1
2026-03-25T2200,4067A,119.5131,39.8858,秦皇岛市,翠岛大街1号,细颗粒物(PM2.5),201,158,157,151,131,62,62,126,102,44,37,10,15,0.7,1.1
2026-03-25T2200,4198A,119.509013,39.825305,秦皇岛市,北戴河轮滑馆,细颗粒物(PM2.5),179,188,160,135,104,54,54,105,95,55,62,7,9,0.5,0.8
2026-03-25T2200,1310A,120.404,36.0625,青岛市,市南区东部子站,细颗粒物(PM2.5),133,119,74,96,60,109,109,87,87,16,20,10,10,0.7,0.8
2026-03-25T2200,1311A,120.362344,36.10282,青岛市,四方区子站,细颗粒物(PM2.5),146,132,102,110,82,128,128,120,120,24,32,7,8,0.9,1.1
2026-03-25T2200,1312A,120.294373,36.054183,青岛市,市南区西部子站,细颗粒物(PM2.5),110,80,56,71,49,96,96,81,81,19,20,3,4,0.8,0.9
2026-03-25T2200,1313A,120.4581,36.0858,青岛市,崂山区子站,细颗粒物(PM2.5),110,114,70,71,51,105,105,89,89,33,32,8,8,0.8,0.9
2026-03-25T2200,1315A,120.3945,36.3083,青岛市,城阳区子站,细颗粒物(PM2.5),123,127,96,85,57,136,136,143,142,31,39,8,8,0.8,0.9
2026-03-25T2200,3642A,120.3454,36.0735,青岛市,市北区南部,细颗粒物(PM2.5),133,111,77,96,60,119,119,106,106,11,14,4,5,1.1,1.3
2026-03-25T2200,3643A,120.3897,36.18,青岛市,李沧区北部,细颗粒物(PM2.5),130,124,99,92,66,134,134,127,127,30,41,10,11,0.8,1
2026-03-25T2200,4110A,120.5222,36.4089,青岛市,盟旺路653号,细颗粒物(PM2.5),100,93,86,60,52,142,142,158,155,14,18,5,5,0.7,0.8
2026-03-25T2200,4290A,120.196923,35.954556,青岛市,珠江路669号,细颗粒物(PM2.5),137,136,85,100,65,110,110,82,82,20,27,6,7,0.7,0.9
2026-03-25T2200,4291A,120.0424,35.8656,青岛市,黄岛区人民政府广场,细颗粒物(PM2.5),136,134,92,99,62,97,97,84,84,30,37,9,9,0.8,0.9
2026-03-25T2200,1703A,113.0218,23.7086,清远市,凤城街办,细颗粒物(PM2.5),80,78,58,50,42,99,99,147,143,36,27,/,/,/,/
2026-03-25T2200,3025A,113.0479,23.6343,清远市,技师学院,细颗粒物(PM2.5),119,116,77,80,48,101,101,166,162,52,40,7,8,0.6,0.5
2026-03-25T2200,3318A,112.9898,23.7403,清远市,清新太和,细颗粒物(PM2.5),74,73,55,47,36,143,143,154,154,22,19,7,7,0.7,0.6
2026-03-25T2200,3455A,113.076,23.72,清远市,清城东城,细颗粒物(PM2.5),76,80,63,48,40,93,93,152,148,25,20,/,/,/,/
2026-03-25T2200,2661A,107.6325,35.7357,庆阳市,庆阳五中,颗粒物(PM10),70,77,106,37,46,99,99,116,110,16,22,6,15,0.4,0.4
2026-03-25T2200,2662A,107.6361,35.7067,庆阳市,市环保局,颗粒物(PM10),70,77,94,41,44,99,99,119,110,17,20,7,12,0.5,0.6
2026-03-25T2200,1916A,103.7897,25.5036,曲靖市,环境监测站,细颗粒物(PM2.5),54,51,63,37,47,106,106,144,127,12,13,7,7,0.6,0.6
2026-03-25T2200,1917A,103.8013,25.5357,曲靖市,烟厂办公区,,47,47,61,32,41,94,94,125,116,12,13,4,4,0.5,0.7
2026-03-25T2200,3376A,103.7926,25.4651,曲靖市,南苑二区,,48,42,60,33,46,89,89,125,113,17,14,4,4,0.5,0.6
2026-03-25T2200,3377A,103.7442,25.5259,曲靖市,曲靖师范学院,,49,49,61,31,50,100,100,130,118,11,12,2,4,0.5,0.6
2026-03-25T2200,1264A,118.8694,28.94,衢州市,环保大楼,,39,39,29,26,22,47,47,114,95,36,19,/,/,/,/
2026-03-25T2200,1266A,118.8622,28.9809,衢州市,衢州学院,,32,32,25,19,18,21,21,112,84,52,26,3,4,0.5,0.5
2026-03-25T2200,4097A,118.9646,28.9832,衢州市,衢州三中,,33,33,25,22,19,35,35,121,92,35,24,6,6,0.6,0.6
2026-03-25T2200,1611A,118.5818,24.9116,泉州市,涂山街,,49,34,44,34,28,79,79,104,88,15,22,3,4,0.7,0.7
2026-03-25T2200,1612A,118.597,24.8976,泉州市,津头埔,,49,NA,43,34,31,87,87,113,97,14,21,2,3,0.6,0.6
2026-03-25T2200,1613A,118.6669,24.9422,泉州市,万安,,49,NA,35,34,30,81,81,108,92,13,24,4,4,0.5,0.6
2026-03-25T2200,4105A,118.6355,24.9148,泉州市,霞新路6号,,43,43,41,30,28,81,81,107,90,14,23,/,/,0.6,0.6
2026-03-25T2200,2626A,88.8873,29.2723,日喀则市,日喀则监测站,NA,NA,15,22,8,5,NA,NA,121,NA,6,7,7,7,0.3,0.3
2026-03-25T2200,3726A,88.8775,29.2425,日喀则市,林业技术推广中心,,38,19,26,7,4,121,121,139,133,8,6,3,4,0.4,0.3
2026-03-25T2200,1659A,119.4711,35.421,日照市,监测站,细颗粒物(PM2.5),140,136,121,103,81,26,26,130,112,86,53,12,14,1.2,1
2026-03-25T2200,1660A,119.523,35.4216,日照市,市政府广场,细颗粒物(PM2.5),133,134,138,96,87,72,72,105,100,49,53,15,14,0.9,1
2026-03-25T2200,1661A,119.5511,35.4113,日照市,港务局,细颗粒物(PM2.5),139,153,139,102,88,48,48,113,103,74,58,9,12,1.0,1.1
