timepoint,stationcode,longitude,latitude,area,positionname,primarypollutant,aqi,pm10,pm10_24h,pm2_5,pm2_5_24h,o3,o3_24h,o3_8h,o3_8h_24h,no2,no2_24h,so2,so2_24h,co,co_24h
2026-03-25T0000,2568A,102.2503,31.8896,阿坝藏族羌族自治州,马师校,,25,16,15,3,6,80,80,91,78,4,5,5,5,0.3,0.3
2026-03-25T0000,3994A,102.2174,31.9016,阿坝藏族羌族自治州,马尔康中学西区,,25,22,14,6,7,78,78,94,83,6,5,2,3,0.2,0.2
2026-03-25T0000,2695A,80.2899,41.1684,阿克苏地区,电视台,,38,34,197,26,64,102,102,111,108,8,20,2,3,0.8,1
2026-03-25T0000,2696A,80.2592,41.1541,阿克苏地区,艺术中心,,36,36,194,25,63,109,109,114,112,7,27,3,5,0.4,0.7
2026-03-25T0000,2205A,105.699,38.8409,阿拉善盟,蒙二幼,颗粒物(PM10),70,78,76,24,23,90,90,107,94,2,5,7,7,0.5,0.5
2026-03-25T0000,2206A,105.7198,38.8508,阿拉善盟,环保局新楼,颗粒物(PM10),67,73,72,22,23,95,95,99,94,3,5,8,7,0.5,0.4
2026-03-25T0000,2708A,88.1266,47.8515,阿勒泰地区,市站,,26,6,17,3,4,83,83,92,78,2,8,5,6,0.2,0.3
2026-03-25T0000,4166A,88.1198,47.7931,阿勒泰地区,阿勒泰路33号,,25,9,15,6,4,80,80,94,75,3,8,5,6,0.2,0.2
2026-03-25T0000,2630A,80.1171,32.4999,阿里地区,阿里监测站,NA,NA,NA,7,8,5,134,134,135,135,10,3,9,8,0.3,0.3
2026-03-25T0000,3192A,80.0906,32.5029,阿里地区,阿里藏医院,,47,7,6,3,3,150,150,144,144,1,2,4,5,0.1,0.1
2026-03-25T0000,2644A,109.0088,32.6974,安康市,汉滨区检察院,,29,29,40,15,25,26,26,98,72,16,14,4,4,0.5,0.5
2026-03-25T0000,4054A,109.0324,32.6913,安康市,市邮政管理局,,31,31,41,19,25,28,28,97,71,19,13,22,6,0.7,0.6
2026-03-25T0000,2291A,117.0806,30.5181,安庆市,环科院,细颗粒物(PM2.5),78,50,36,49,28,20,20,74,35,39,20,8,9,0.9,0.8
2026-03-25T0000,2292A,117.0331,30.5118,安庆市,马山宾馆,细颗粒物(PM2.5),82,NA,36,51,29,25,25,73,38,31,18,7,7,1.1,0.8
2026-03-25T0000,2294A,116.9897,30.6146,安庆市,安庆大学,细颗粒物(PM2.5),60,50,40,40,28,26,26,70,31,26,19,4,4,0.7,0.7
2026-03-25T0000,3173A,117.0598,30.5351,安庆市,市人大,细颗粒物(PM2.5),68,54,36,44,25,32,32,71,41,29,23,7,7,0.8,0.7
2026-03-25T0000,3123A,105.9408,26.2431,安顺市,凤凰山,,29,29,21,17,18,64,64,88,82,11,10,13,12,0.7,0.7
2026-03-25T0000,3124A,105.9443,26.2567,安顺市,金钟山,,31,31,20,20,16,61,61,84,79,9,8,10,9,0.7,0.7
2026-03-25T0000,3125A,105.8983,26.248,安顺市,娄家坡,,42,31,24,29,18,62,62,85,80,10,10,13,13,0.8,0.8
2026-03-25T0000,1819A,114.3552,36.1017,安阳市,红庙街,细颗粒物(PM2.5),111,81,96,72,82,74,74,128,104,25,17,4,3,0.5,0.5
2026-03-25T0000,1820A,114.361,36.0681,安阳市,银杏小区,细颗粒物(PM2.5),114,81,97,75,86,75,75,130,104,24,17,4,4,0.2,0.3
2026-03-25T0000,3141A,114.3921,36.0879,安阳市,信访局,细颗粒物(PM2.5),103,72,95,63,80,80,80,134,106,20,17,4,3,0.2,0.3
2026-03-25T0000,3669A,114.4706,36.0634,安阳市,左辅环卫站,细颗粒物(PM2.5),113,114,123,74,84,70,70,125,99,20,19,4,4,0.4,0.5
2026-03-25T0000,4117A,114.2918,36.0769,安阳市,钢三路198号,细颗粒物(PM2.5),118,118,120,79,84,57,57,117,92,30,18,4,3,1.0,0.6
2026-03-25T0000,1748A,123.0441,41.1201,鞍山市,深沟寺,细颗粒物(PM2.5),98,81,83,59,62,132,132,125,122,11,19,9,10,0.8,0.9
2026-03-25T0000,1749A,123.011,41.0931,鞍山市,太阳城,细颗粒物(PM2.5),100,83,75,60,61,132,132,125,124,10,20,8,12,0.7,0.9
2026-03-25T0000,1750A,123.0483,41.1445,鞍山市,太平,细颗粒物(PM2.5),96,85,93,58,63,118,118,125,120,12,21,9,11,0.8,1
2026-03-25T0000,1751A,122.964,41.0968,鞍山市,铁西三道街,细颗粒物(PM2.5),96,86,99,58,71,127,127,123,118,19,40,13,11,0.8,1.1
2026-03-25T0000,1753A,123.0219,41.0822,鞍山市,明达新区,细颗粒物(PM2.5),92,80,78,56,60,132,132,124,124,12,20,10,11,0.7,1
2026-03-25T0000,4201A,122.944647,41.082639,鞍山市,兴盛南路290号,细颗粒物(PM2.5),98,95,111,59,74,121,121,124,119,18,36,10,11,1.3,1.1
2026-03-25T0000,2195A,107.4206,40.7609,巴彦淖尔市,附二中,颗粒物(PM10),53,53,88,29,32,99,99,111,103,9,9,7,8,0.3,0.3
2026-03-25T0000,2196A,107.37,40.7372,巴彦淖尔市,市环保大楼,颗粒物(PM10),66,72,94,30,29,80,80,114,104,20,10,6,6,0.4,0.4
2026-03-25T0000,1956A,86.1476,41.7529,巴音郭楞蒙古自治州,孔雀公园,,30,26,148,13,44,96,96,101,98,7,38,9,10,0.3,0.4
2026-03-25T0000,1957A,86.1971,41.7166,巴音郭楞蒙古自治州,棉纺厂,颗粒物(PM10),83,95,165,18,48,94,94,108,103,10,18,/,/,/,/
2026-03-25T0000,1958A,86.236,41.7172,巴音郭楞蒙古自治州,经济开发区,,39,39,133,18,39,91,91,93,90,5,16,7,7,0.3,0.3
2026-03-25T0000,3181A,106.776805,31.852614,巴中市,市五中,,16,16,18,8,8,39,39,90,74,12,12,8,8,0.7,0.7
2026-03-25T0000,3183A,106.7419,31.8654,巴中市,圣泉水务公司,,30,30,27,10,6,26,26,92,74,25,12,10,9,0.7,0.7
2026-03-25T0000,3616A,106.7617,31.8343,巴中市,市中心医院,,16,16,13,7,8,33,33,92,78,17,9,10,10,0.7,0.7
2026-03-25T0000,2235A,122.7909,45.608,白城市,洮北区环保局,颗粒物(PM10),125,184,134,71,74,112,112,150,141,14,15,6,12,0.6,0.3
2026-03-25T0000,2236A,122.8741,45.5725,白城市,市环保局,颗粒物(PM10),131,200,156,71,71,94,94,135,116,17,18,6,6,0.4,0.4
2026-03-25T0000,2231A,126.4219,41.9172,白山市,喜丰,颗粒物(PM10),71,79,69,43,41,37,37,109,72,34,24,8,9,1.2,1.1
2026-03-25T0000,2232A,126.4082,41.9416,白山市,环保局,颗粒物(PM10),55,56,54,37,39,49,49,109,71,17,15,10,9,0.9,0.8
2026-03-25T0000,2647A,104.1727,36.5448,白银市,第三小学,颗粒物(PM10),107,138,101,51,40,37,37,119,102,68,28,44,36,1.0,0.6
2026-03-25T0000,2648A,104.1467,36.5482,白银市,动力公司,颗粒物(PM10),132,203,107,54,37,36,36,116,87,58,30,6,8,0.6,0.6
2026-03-25T0000,2512A,106.6102,23.901,百色市,市监测站,,45,43,46,31,35,83,83,105,88,12,14,21,15,0.7,0.6
2026-03-25T0000,2513A,106.6524,23.8842,百色市,市中心血站,细颗粒物(PM2.5),54,52,55,37,36,93,93,106,93,12,21,18,16,0.6,0.7
2026-03-25T0000,4133A,106.6273,23.8798,百色市,龙景西路,细颗粒物(PM2.5),54,46,62,37,36,87,87,113,96,12,16,24,17,0.6,0.6
2026-03-25T0000,2270A,117.396,32.9389,蚌埠市,工人疗养院,细颗粒物(PM2.5),107,94,91,67,65,56,56,85,64,37,23,4,4,0.4,0.4
2026-03-25T0000,2271A,117.3606,32.9428,蚌埠市,百货大楼,细颗粒物(PM2.5),114,86,82,75,69,30,30,87,63,44,24,5,5,0.5,0.5
2026-03-25T0000,2273A,117.4183,32.8909,蚌埠市,蚌埠学院,细颗粒物(PM2.5),88,58,66,54,63,61,61,85,68,20,34,4,6,0.5,0.5
2026-03-25T0000,2274A,117.3534,32.9672,蚌埠市,淮上区政府,细颗粒物(PM2.5),111,95,86,72,70,24,24,91,68,47,21,5,5,0.4,0.4
2026-03-25T0000,2275A,117.3143,32.8977,蚌埠市,高新区,细颗粒物(PM2.5),98,70,73,59,60,49,49,87,70,23,25,6,7,0.5,0.5
2026-03-25T0000,3715A,117.3091,32.9314,蚌埠市,蚌埠田家炳中学,细颗粒物(PM2.5),111,94,91,72,74,45,45,90,71,25,20,4,5,0.4,0.4
2026-03-25T0000,1585A,109.8761,40.6533,包头市,市环境监测站,颗粒物(PM10),67,73,116,26,39,44,44,124,100,61,36,7,10,0.6,0.7
2026-03-25T0000,1587A,109.9992,40.5843,包头市,包头八中,颗粒物(PM10),98,116,112,54,43,22,22,112,69,68,41,11,12,0.8,0.6
2026-03-25T0000,1589A,109.8641,40.6288,包头市,惠龙物流,细颗粒物(PM2.5),84,64,106,52,45,55,55,115,95,49,38,21,13,1.2,0.7
2026-03-25T0000,1590A,110.0376,40.5546,包头市,东河鸿龙湾,颗粒物(PM10),95,112,104,53,42,35,35,116,75,58,51,10,11,0.6,0.6
2026-03-25T0000,3283A,109.9154,40.5684,包头市,滨河大厦,细颗粒物(PM2.5),110,103,98,70,39,23,23,118,90,62,37,11,10,0.6,0.6
2026-03-25T0000,3419A,109.9449,40.6259,包头市,包头市委党校,颗粒物(PM10),54,55,90,19,34,38,38,114,95,66,35,8,13,0.4,0.4
2026-03-25T0000,3683A,109.8332,40.6577,包头市,昆区政府,颗粒物(PM10),58,60,104,35,40,51,51,122,101,67,41,16,10,1.2,0.8
2026-03-25T0000,1931A,107.0802,34.3129,宝鸡市,竹园沟,颗粒物(PM10),69,76,102,36,53,49,49,110,73,20,19,6,7,0.4,0.5
2026-03-25T0000,1933A,107.1429,34.3549,宝鸡市,监测站,细颗粒物(PM2.5),90,89,119,55,59,38,38,108,79,33,28,6,8,0.4,0.4
2026-03-25T0000,1934A,107.1172,34.3759,宝鸡市,技工学校,细颗粒物(PM2.5),106,112,116,66,59,55,55,118,71,20,21,6,5,0.6,0.6
2026-03-25T0000,1936A,107.2025,34.3518,宝鸡市,文理学院,细颗粒物(PM2.5),103,106,115,63,63,44,44,115,86,33,23,4,5,0.6,0.6
2026-03-25T0000,1937A,107.2396,34.3626,宝鸡市,三迪小学,细颗粒物(PM2.5),102,110,114,62,64,37,37,116,91,42,27,4,5,0.7,0.6
2026-03-25T0000,4155A,107.1721,34.3558,宝鸡市,滨河北路,细颗粒物(PM2.5),120,140,137,82,75,47,47,113,84,28,25,6,6,0.8,0.8
2026-03-25T0000,4308A,107.3898,34.3601,宝鸡市,陈仓区北开路21号,细颗粒物(PM2.5),106,116,117,66,65,30,30,118,89,64,32,7,8,0.6,0.6
2026-03-25T0000,1051A,115.4803,38.8568,保定市,游泳馆,细颗粒物(PM2.5),138,111,156,101,132,90,90,151,128,22,40,7,13,0.6,0.8
2026-03-25T0000,1052A,115.509,38.8895,保定市,华电二区,细颗粒物(PM2.5),128,107,144,90,122,89,89,154,130,19,34,5,5,0.8,0.9
2026-03-25T0000,1053A,115.4588,38.9037,保定市,接待中心,细颗粒物(PM2.5),130,113,152,93,121,92,92,151,128,20,38,5,6,0.5,0.7
2026-03-25T0000,1054A,115.4484,38.8344,保定市,地表水厂,细颗粒物(PM2.5),127,174,180,89,120,91,91,154,123,21,44,8,8,0.4,0.7
2026-03-25T0000,3581A,115.3136,38.9511,保定市,满城区生态环境分局,细颗粒物(PM2.5),142,158,179,106,109,85,85,154,119,27,36,12,10,0.6,0.8
2026-03-25T0000,3582A,115.4709,38.7628,保定市,清苑区第二中学,细颗粒物(PM2.5),136,136,170,99,116,73,73,147,112,25,36,10,10,0.5,0.6
2026-03-25T0000,3583A,115.6231,39.0223,保定市,徐水物探局,细颗粒物(PM2.5),137,158,202,100,140,90,90,159,121,22,37,5,5,0.6,0.7
2026-03-25T0000,4004A,115.4199,38.8665,保定市,双鹰农机,细颗粒物(PM2.5),137,162,165,100,99,82,82,158,129,28,43,6,7,0.6,0.7
2026-03-25T0000,4034A,115.515,38.8589,保定市,植保所站,细颗粒物(PM2.5),130,148,176,92,126,93,93,155,129,22,45,2,4,0.3,0.5
2026-03-25T0000,2594A,99.1589,25.1137,保山市,市环境监测站,,24,22,23,10,16,74,74,112,93,6,8,5,5,0.3,0.3
2026-03-25T0000,2595A,99.1616,25.1381,保山市,市环保局,,29,21,26,19,19,90,90,114,100,3,5,5,5,0.3,0.3
2026-03-25T0000,1867A,109.1435,21.4085,北海市,海滩公园,,29,28,28,20,12,62,62,73,68,7,9,7,7,0.5,0.5
2026-03-25T0000,1868A,109.0983,21.466,北海市,新市环保局,,26,21,30,18,13,53,53,56,53,8,9,8,8,0.5,0.5
2026-03-25T0000,1869A,109.1775,21.5232,北海市,北海工业园,,33,33,29,21,13,48,48,63,58,9,6,6,6,0.7,0.7
2026-03-25T0000,3400A,109.1844,21.4396,北海市,龙潭自来水厂,NA,NA,NA,25,14,10,NA,NA,64,64,7,6,5,5,0.4,0.4
2026-03-25T0000,1001A,116.3611,39.8786,北京市,万寿西宫,细颗粒物(PM2.5),217,240,168,167,125,86,86,151,133,49,44,4,5,1.1,1
2026-03-25T0000,1003A,116.4174,39.9289,北京市,东四,细颗粒物(PM2.5),222,250,176,172,126,110,110,160,146,47,48,8,9,0.9,0.9
2026-03-25T0000,1004A,116.4073,39.8858,北京市,天坛,细颗粒物(PM2.5),205,209,158,155,116,34,34,135,98,42,40,3,5,1.4,1.2
2026-03-25T0000,1005A,116.4622,39.9364,北京市,农展馆,细颗粒物(PM2.5),220,235,166,170,124,94,94,152,134,44,46,5,8,1.2,1
2026-03-25T0000,1006A,116.3399,39.9293,北京市,官园,细颗粒物(PM2.5),215,227,160,165,120,84,84,138,129,50,49,4,5,0.9,0.8
2026-03-25T0000,1007A,116.2879,39.9613,北京市,海淀万柳,细颗粒物(PM2.5),203,221,154,153,112,36,36,114,98,55,42,3,6,0.9,0.7
2026-03-25T0000,1008A,116.6635,40.1349,北京市,顺义新城,细颗粒物(PM2.5),212,238,159,162,112,51,51,140,103,52,33,5,12,0.8,0.7
2026-03-25T0000,1009A,116.6275,40.327,北京市,怀柔镇,细颗粒物(PM2.5),180,179,138,136,103,92,92,120,105,20,27,6,9,0.9,0.9
2026-03-25T0000,1010A,116.2295,40.217,北京市,昌平镇,细颗粒物(PM2.5),183,184,135,138,98,108,108,132,122,20,37,3,6,0.9,0.8
2026-03-25T0000,1011A,116.3968,39.982,北京市,奥体中心,细颗粒物(PM2.5),211,232,160,161,115,81,81,130,120,40,49,5,7,1.0,0.9
2026-03-25T0000,3418A,116.8336,40.4095,北京市,密云新城,细颗粒物(PM2.5),185,214,149,139,98,27,27,138,105,70,30,3,4,0.9,0.8
2026-03-25T0000,3671A,116.0879,39.9725,北京市,门头沟三家店,细颗粒物(PM2.5),185,218,159,139,102,43,43,121,95,47,46,4,6,0.8,0.8
2026-03-25T0000,3672A,116.1507,39.8246,北京市,丰台云岗,细颗粒物(PM2.5),189,235,163,142,111,85,85,144,122,44,46,4,6,1.0,0.9
2026-03-25T0000,3674A,115.9578,39.7602,北京市,房山燕山,细颗粒物(PM2.5),148,160,149,112,105,97,97,136,126,19,33,5,5,0.9,0.8
2026-03-25T0000,3675A,116.4669,39.7734,北京市,大兴旧宫,细颗粒物(PM2.5),206,233,170,156,121,64,64,148,119,46,39,4,7,0.9,0.9
2026-03-25T0000,3694A,115.9859,40.4562,北京市,延庆石河营,细颗粒物(PM2.5),188,196,128,141,88,100,100,129,123,25,27,1,2,0.8,0.6
2026-03-25T0000,3695A,116.6151,40.3052,北京市,怀柔新城,细颗粒物(PM2.5),190,184,140,143,104,98,98,129,114,16,22,5,8,0.9,0.8
2026-03-25T0000,3696A,116.2542,39.8764,北京市,丰台小屯,细颗粒物(PM2.5),220,266,170,170,113,46,46,127,101,80,54,4,6,0.8,0.7
2026-03-25T0000,3697A,116.8399,40.3843,北京市,密云镇,细颗粒物(PM2.5),185,196,140,139,97,54,54,137,90,50,41,5,6,0.8,0.7
2026-03-25T0000,4057A,115.9423,40.4431,北京市,延庆百泉,细颗粒物(PM2.5),172,185,122,130,77,92,92,116,98,26,28,1,2,0.9,0.7
2026-03-25T0000,4058A,116.6598,39.9164,北京市,通州新华,细颗粒物(PM2.5),202,240,188,152,129,80,80,134,112,56,44,6,8,0.7,0.8
2026-03-25T0000,4182A,116.1942,39.9158,北京市,石景山八角,细颗粒物(PM2.5),204,267,193,154,107,33,33,128,100,65,43,4,6,1.0,0.7
2026-03-25T0000,4194A,117.078628,40.151726,北京市,平谷新城,细颗粒物(PM2.5),190,203,135,143,94,99,99,137,120,22,23,2,4,1.0,0.8
2026-03-25T0000,1761A,123.8274146,41.31234549,本溪市,大峪,细颗粒物(PM2.5),74,69,87,47,53,99,99,126,115,16,28,10,10,0.7,0.8
2026-03-25T0000,1763A,123.7169,41.3094,本溪市,彩屯,细颗粒物(PM2.5),101,92,98,61,67,108,108,131,112,31,32,18,17,2.7,2.3
2026-03-25T0000,1764A,123.7672166,41.28649327,本溪市,东明,颗粒物(PM10),65,70,85,37,53,113,113,126,122,14,30,10,11,0.6,0.8
2026-03-25T0000,1765A,123.799345,41.266614,本溪市,新立屯,颗粒物(PM10),53,53,66,32,48,114,114,127,122,7,26,7,8,0.5,0.7
2026-03-25T0000,1766A,123.829144,41.336777,本溪市,威宁,颗粒物(PM10),74,83,92,40,48,93,93,134,116,24,23,7,7,0.6,0.8
2026-03-25T0000,2587A,105.287,27.3133,毕节市,八中,,32,32,11,10,8,55,55,74,67,6,7,10,10,0.6,0.6
2026-03-25T0000,2588A,105.3079,27.2987,毕节市,师专,,28,28,17,8,10,54,54,68,63,7,8,9,9,0.5,0.5
2026-03-25T0000,4263A,105.3688,27.3598,毕节市,工业大道,,24,24,10,9,8,59,59,78,71,7,7,9,9,/,/
2026-03-25T0000,1629A,117.9961,37.3604,滨州市,第二水厂,细颗粒物(PM2.5),112,112,134,73,92,79,79,160,121,37,40,11,14,0.7,0.9
2026-03-25T0000,1630A,117.9789,37.3931,滨州市,北中新校,细颗粒物(PM2.5),103,97,122,63,90,79,79,156,125,45,40,9,12,0.4,0.6
2026-03-25T0000,3514A,117.9379,37.3959,滨州市,中海酒店,细颗粒物(PM2.5),100,95,123,60,86,68,68,111,111,52,40,15,14,0.7,0.9
2026-03-25T0000,3515A,117.9381509,37.35547456,滨州市,开发区一中,细颗粒物(PM2.5),104,102,133,64,89,54,54,142,102,64,39,9,17,0.6,0.9
2026-03-25T0000,3516A,118.0914,37.6938,滨州市,金海六路,细颗粒物(PM2.5),120,122,127,82,94,48,48,152,103,83,37,13,14,0.7,0.6
2026-03-25T0000,4028A,117.9955,37.3752,滨州市,滨州市西街道办事处,细颗粒物(PM2.5),117,134,142,78,93,39,39,156,96,42,38,10,13,1.4,1.3
2026-03-25T0000,2311A,115.8071,33.8399,亳州市,污水处理厂,细颗粒物(PM2.5),113,112,113,74,74,97,97,129,110,16,17,5,7,0.2,0.2
2026-03-25T0000,2312A,115.7789,33.8519,亳州市,三国揽胜宫,细颗粒物(PM2.5),114,112,112,75,80,94,94,120,105,13,14,5,6,0.2,0.2
2026-03-25T0000,3332A,115.7631,33.803,亳州市,亳州学院,细颗粒物(PM2.5),118,116,113,79,76,88,88,127,108,12,12,7,7,0.3,0.3
2026-03-25T0000,2693A,82.0482,44.8553,博尔塔拉蒙古自治州,市党校,颗粒物(PM10),352,461,113,31,15,86,86,102,92,2,5,2,3,0.1,0.2
2026-03-25T0000,2694A,82.0805,44.8966,博尔塔拉蒙古自治州,市环保局,颗粒物(PM10),338,450,104,38,20,77,77,92,82,10,16,3,3,0.3,0.4
2026-03-25T0000,1071A,116.8733,38.2922,沧州市,沧县城建局,细颗粒物(PM2.5),118,116,119,79,80,83,83,137,110,26,32,5,6,0.4,0.6
2026-03-25T0000,1072A,116.8462,38.3189,沧州市,电视转播站,细颗粒物(PM2.5),120,99,114,81,91,97,97,142,123,24,30,5,4,0.7,0.6
2026-03-25T0000,1073A,116.8588,38.3161,沧州市,市环保局,细颗粒物(PM2.5),111,109,125,72,75,95,95,142,118,20,29,8,9,0.7,0.5
2026-03-25T0000,3324A,116.8011,38.294,沧州市,河北水利电力学院,细颗粒物(PM2.5),126,127,128,88,93,71,71,127,102,36,28,10,12,1.2,0.6
2026-03-25T0000,2622A,97.1813,31.1289,昌都市,昌都监测站,,20,20,12,10,5,47,47,96,69,19,9,4,5,0.9,0.7
2026-03-25T0000,3719A,97.1707,31.1428,昌都市,昌都会议中心,,22,12,9,8,5,69,69,103,89,8,5,6,5,0.5,0.4
2026-03-25T0000,2692A,87.2722,44.0298,昌吉回族自治州,新区政务中心,,48,48,52,29,47,93,93,117,103,8,21,5,9,0.2,0.6
2026-03-25T0000,3613A,87.3069,44.0093,昌吉回族自治州,亚心广场,,31,22,74,17,47,98,98,122,108,4,19,10,13,0.3,0.6
2026-03-25T0000,4164A,87.2057,43.9289,昌吉回族自治州,财政所,,44,44,73,3,37,93,93,118,98,2,10,7,10,0.2,0.5
2026-03-25T0000,1120A,125.2874,43.9024,长春市,客车厂,细颗粒物(PM2.5),120,100,84,81,71,104,104,134,108,26,27,12,11,0.8,0.8
2026-03-25T0000,1121A,125.2943,43.8508,长春市,邮电学院,细颗粒物(PM2.5),124,121,93,86,74,107,107,132,103,19,26,10,12,0.9,0.8
2026-03-25T0000,1122A,125.3648,43.8745,长春市,劳动公园,细颗粒物(PM2.5),130,137,104,92,79,98,98,137,111,19,26,9,9,0.8,0.8
2026-03-25T0000,1123A,125.3233,43.8781,长春市,园林处,细颗粒物(PM2.5),128,116,89,90,74,107,107,138,120,17,21,9,11,0.7,0.6
2026-03-25T0000,1124A,125.4604,43.7904,长春市,净月潭,细颗粒物(PM2.5),129,110,83,91,70,101,101,133,111,20,18,8,8,0.8,0.7
2026-03-25T0000,1126A,125.38,43.8422,长春市,经开区环卫处,细颗粒物(PM2.5),125,126,103,87,78,104,104,137,108,17,29,7,7,0.8,0.8
2026-03-25T0000,1127A,125.234,43.7761,长春市,高新区管委会,细颗粒物(PM2.5),142,123,101,106,80,70,70,138,93,36,35,9,9,0.9,0.8
2026-03-25T0000,1128A,125.1695,43.83,长春市,岱山公园,细颗粒物(PM2.5),127,104,96,89,74,86,86,134,82,40,41,7,7,0.8,0.7
2026-03-25T0000,4281A,125.334645,43.916281,长春市,北亚泰大街1068号,细颗粒物(PM2.5),130,128,97,92,74,93,93,124,102,24,30,9,11,0.7,0.6
2026-03-25T0000,1335A,113.082,28.2421,长沙市,经开区环保局,细颗粒物(PM2.5),80,84,45,50,31,58,58,73,67,30,23,4,3,0.6,0.6
2026-03-25T0000,1336A,112.8873,28.2202,长沙市,高开区环保局,细颗粒物(PM2.5),103,86,55,63,41,55,55,70,67,28,16,5,4,0.8,0.8
2026-03-25T0000,1337A,113.0785,28.2012,长沙市,马坡岭,细颗粒物(PM2.5),109,99,51,69,41,38,38,70,62,39,17,5,4,0.8,0.8
2026-03-25T0000,1338A,112.9448,28.1894,长沙市,湖南师范大学,细颗粒物(PM2.5),96,93,54,58,38,53,53,77,76,17,13,6,4,1.0,1
2026-03-25T0000,1339A,113.0177,28.1322,长沙市,雨花区环保局,细颗粒物(PM2.5),110,95,49,70,38,61,61,74,74,24,12,6,3,0.8,0.8
2026-03-25T0000,1340A,112.9795,28.2593,长沙市,伍家岭,细颗粒物(PM2.5),123,103,62,85,50,37,37,71,60,42,19,4,3,0.6,0.6
2026-03-25T0000,1341A,113.002,28.1944,长沙市,火车新站,细颗粒物(PM2.5),112,90,52,73,44,79,79,76,76,20,14,4,3,0.7,0.7
2026-03-25T0000,1342A,112.9846,28.1177,长沙市,天心区环保局,细颗粒物(PM2.5),129,104,58,91,52,51,51,75,72,35,17,6,5,0.9,0.9
2026-03-25T0000,1343A,112.8906,28.1307,长沙市,湖南中医药大学,细颗粒物(PM2.5),104,78,48,64,43,12,12,81,65,51,14,5,5,0.8,0.8
2026-03-25T0000,1727A,113.1146,36.1547,长治市,清华站,细颗粒物(PM2.5),98,72,92,59,67,95,95,136,106,10,17,6,9,0.9,0.8
2026-03-25T0000,1730A,113.0887,36.2126,长治市,审计局,细颗粒物(PM2.5),100,76,84,60,69,89,89,133,105,25,22,11,11,0.8,0.7
2026-03-25T0000,1731A,113.0845,36.1856,长治市,长治八中,细颗粒物(PM2.5),105,94,109,65,75,82,82,130,100,20,16,12,11,1.1,0.8
2026-03-25T0000,2845A,113.1561,36.1912,长治市,德盛苑,细颗粒物(PM2.5),90,72,96,55,74,104,104,142,118,15,17,12,10,0.8,0.8
2026-03-25T0000,3568A,113.0603,36.0464,长治市,向阳小学,细颗粒物(PM2.5),96,101,127,58,69,89,89,138,108,25,31,17,17,0.7,0.6
2026-03-25T0000,3569A,112.8788,36.315,长治市,屯留一中,细颗粒物(PM2.5),94,106,81,57,50,99,99,133,109,19,24,8,8,0.8,0.6
2026-03-25T0000,4189A,113.113092,36.199482,长治市,英华南巷50号,细颗粒物(PM2.5),100,83,93,60,70,91,91,138,111,20,21,8,9,1.1,1
2026-03-25T0000,4190A,113.23666,36.33435,长治市,学府街1号,细颗粒物(PM2.5),94,83,95,57,67,86,86,136,112,19,17,8,6,0.9,0.8
2026-03-25T0000,1854A,111.696,28.9725,常德市,市二中,颗粒物(PM10),75,85,70,47,41,86,86,117,104,26,12,30,10,0.9,0.9
2026-03-25T0000,3138A,111.7152,29.0288,常德市,武陵区永安,细颗粒物(PM2.5),96,63,61,58,43,99,99,118,109,16,13,6,6,0.7,0.7
2026-03-25T0000,3139A,111.6891,28.9881,常德市,鼎城区玉霞,细颗粒物(PM2.5),88,76,60,54,43,58,58,117,101,29,17,59,11,1.0,0.8
2026-03-25T0000,3140A,111.6651,29.0526,常德市,武陵区长庚,细颗粒物(PM2.5),80,62,60,50,42,44,44,116,97,31,12,7,7,1.1,0.9
2026-03-25T0000,1196A,119.9524,31.7586,常州市,市监测站,"颗粒物(PM10),细颗粒物(PM2.5)",60,63,69,40,42,53,53,70,59,26,30,9,11,0.6,0.8
2026-03-25T0000,1200A,119.9351,31.703,常州市,武进监测站,颗粒物(PM10),60,64,70,38,46,36,36,63,53,29,28,6,8,0.5,0.6
2026-03-25T0000,3002A,119.9701,31.813,常州市,行政中心,细颗粒物(PM2.5),66,61,64,43,42,48,48,65,57,30,30,5,7,0.3,0.6
2026-03-25T0000,3003A,120.0434,31.7726,常州市,经开区,颗粒物(PM10),76,86,79,40,39,35,35,67,49,31,31,8,11,0.7,1
2026-03-25T0000,3010A,119.8919,31.7892,常州市,钟楼,颗粒物(PM10),55,57,61,32,36,37,37,71,57,47,30,7,8,0.4,0.4
2026-03-25T0000,3429A,119.8595,31.706,常州市,武进经发区,,50,45,61,35,43,31,31,63,38,44,39,8,10,0.8,1
2026-03-25T0000,3430A,119.5812,31.7256,常州市,金坛城区,细颗粒物(PM2.5),86,56,52,53,49,44,44,67,64,21,24,7,8,0.8,0.7
2026-03-25T0000,4089A,119.9551,31.863,常州市,崇义南街5-H号,细颗粒物(PM2.5),72,55,62,46,45,54,54,62,60,25,33,5,7,0.5,0.8
2026-03-25T0000,2220A,120.4318,41.588,朝阳市,西梁,细颗粒物(PM2.5),192,150,112,144,89,108,108,144,125,27,29,15,14,1.2,0.9
2026-03-25T0000,2221A,120.452,41.565,朝阳市,河畔小区,细颗粒物(PM2.5),165,NA,97,125,81,124,124,147,135,21,23,14,19,1.3,0.9
2026-03-25T0000,2222A,120.4176,41.5648,朝阳市,八里堡,细颗粒物(PM2.5),185,NA,93,139,86,101,101,139,119,28,27,14,13,1.2,0.9
2026-03-25T0000,3026A,116.6179,23.6608,潮州市,市政府,颗粒物(PM10),58,60,52,34,31,53,53,119,83,25,15,6,4,0.7,0.6
2026-03-25T0000,4036A,116.646,23.676,潮州市,金山,颗粒物(PM10),61,65,46,34,31,24,24,130,88,42,19,3,4,0.7,0.5
2026-03-25T0000,2473A,113.0116,25.8228,郴州市,市职中,,42,30,18,29,14,30,30,37,34,15,15,4,3,0.7,0.8
2026-03-25T0000,2475A,113.0381,25.8074,郴州市,市审计局,,39,27,20,27,14,38,38,36,36,6,12,2,3,/,/
2026-03-25T0000,2476A,113.0348,25.7757,郴州市,市环保局,NA,NA,43,25,27,14,NA,NA,34,NA,6,16,5,7,0.5,0.4
2026-03-25T0000,4252A,113.0138,25.8011,郴州市,好美居路49号,,43,NA,17,30,13,42,42,44,42,11,17,1,3,/,/
2026-03-25T0000,1431A,103.9727,30.7242,成都市,金泉两河,颗粒物(PM10),75,84,56,37,32,49,49,121,91,34,25,1,1,0.4,0.3
2026-03-25T0000,1432A,104.1423,30.6765,成都市,十里店,颗粒物(PM10),72,80,64,34,32,63,63,120,96,40,25,4,4,0.4,0.4
2026-03-25T0000,1433A,104.0594,30.5765,成都市,三瓦窑,颗粒物(PM10),59,62,60,33,33,53,53,120,90,33,26,2,2,0.9,0.8
2026-03-25T0000,1434A,104.1122,30.6306,成都市,沙河铺,颗粒物(PM10),68,74,61,38,32,38,38,107,76,48,32,5,4,0.6,0.5
2026-03-25T0000,2880A,104.0219,30.6561,成都市,大石西路,颗粒物(PM10),63,68,64,37,35,29,29,118,86,40,26,6,7,0.7,0.3
2026-03-25T0000,3136A,104.2724,30.559,成都市,龙泉驿区区政府,,44,44,52,23,28,84,84,121,102,13,15,6,6,0.4,0.5
2026-03-25T0000,3357A,104.0028,30.6891,成都市,金博路,细颗粒物(PM2.5),52,49,53,36,32,52,52,126,96,40,32,5,5,0.8,0.7
2026-03-25T0000,3359A,104.056,30.5228,成都市,华阳,细颗粒物(PM2.5),54,51,57,37,30,35,35,123,91,45,28,3,3,0.7,0.5
2026-03-25T0000,3488A,104.387954,30.746684,成都市,青石路225号,,41,41,57,21,30,92,92,121,109,10,19,6,5,0.6,0.6
2026-03-25T0000,3489A,104.0788,30.4054,成都市,科学城,颗粒物(PM10),52,52,52,22,29,63,63,115,97,21,18,8,7,0.8,0.7
2026-03-25T0000,4011A,103.8505,30.6946,成都市,光华大道三段,,44,44,56,30,29,57,57,129,98,34,25,3,4,0.6,0.5
2026-03-25T0000,4144A,104.3257,30.6406,成都市,八角井街185号,颗粒物(PM10),53,54,64,24,29,73,73,103,84,13,15,4,4,0.6,0.6
2026-03-25T0000,4224A,104.2433276,30.53529463,成都市,鲸龙路1057号,颗粒物(PM10),55,57,55,24,29,86,86,121,97,15,20,6,6,0.4,0.5
2026-03-25T0000,1062A,117.9531,40.908,承德市,铁路,细颗粒物(PM2.5),129,147,113,91,70,91,91,132,118,28,28,4,5,0.7,0.6
2026-03-25T0000,1063A,117.9397,40.9763,承德市,中国银行,细颗粒物(PM2.5),129,137,120,91,72,65,65,130,110,24,22,2,4,0.8,0.7
2026-03-25T0000,4073A,117.9462,40.95,承德市,杏林街1号,细颗粒物(PM2.5),142,150,122,106,81,83,83,148,133,38,22,5,6,0.8,0.7
2026-03-25T0000,4274A,117.7994,40.9605,承德市,滨河大街98号,细颗粒物(PM2.5),130,107,98,92,70,84,84,140,109,23,22,9,15,0.6,0.9
2026-03-25T0000,2314A,117.4698,30.6617,池州市,池州学院,细颗粒物(PM2.5),52,49,36,36,25,26,26,76,41,29,27,3,4,0.9,0.7
2026-03-25T0000,3237A,117.4918,30.6617,池州市,展览馆,,49,47,33,34,26,21,21,77,33,28,24,2,3,0.9,0.7
2026-03-25T0000,3333A,117.5626,30.695,池州市,第八中学,,42,40,30,29,22,12,12,70,34,36,27,3,3,0.8,0.6
2026-03-25T0000,3334A,117.5037,30.6242,池州市,第十二中学,,50,48,32,35,21,22,22,72,33,34,29,3,4,0.7,0.4
2026-03-25T0000,1744A,118.9229,42.2816,赤峰市,松山一中,细颗粒物(PM2.5),150,NA,86,114,72,105,105,118,105,14,19,6,6,0.6,0.6
2026-03-25T0000,1745A,118.9588,42.2733,赤峰市,哈达街,细颗粒物(PM2.5),86,89,94,53,60,101,101,106,100,19,23,12,12,0.7,0.7
2026-03-25T0000,1746A,118.8792,42.2551,赤峰市,天义路,细颗粒物(PM2.5),94,72,77,57,59,134,134,133,131,13,17,5,5,0.5,0.5
2026-03-25T0000,3058A,119.2656,42.0356,赤峰市,银河街,细颗粒物(PM2.5),139,134,123,102,85,106,106,140,114,18,24,14,16,0.8,0.8
2026-03-25T0000,3286A,118.9359,42.3146,赤峰市,桥北物流园区,细颗粒物(PM2.5),100,91,86,60,61,125,125,124,118,8,18,3,4,0.7,0.4
2026-03-25T0000,2521A,107.3473,22.4137,崇左市,市环保局江州分局,颗粒物(PM10),58,61,41,32,23,54,54,97,82,12,8,11,9,0.7,0.5
2026-03-25T0000,4256A,107.375,22.3736,崇左市,石景林东路7号,,42,42,34,29,21,65,65,102,88,8,10,5,5,0.6,0.6
2026-03-25T0000,3207A,118.31131,32.3033,滁州市,市政府原办公楼,细颗粒物(PM2.5),105,74,58,65,61,46,46,85,70,28,18,5,5,0.5,0.4
2026-03-25T0000,3331A,118.3268,32.2633,滁州市,图书馆,细颗粒物(PM2.5),90,81,65,55,45,34,34,86,66,38,19,9,9,0.6,0.4
2026-03-25T0000,4101A,118.3196,32.3335,滁州市,银山路666号,细颗粒物(PM2.5),86,NA,53,53,51,23,23,89,62,38,18,9,9,0.6,0.5
2026-03-25T0000,4102A,118.3426,32.2979,滁州市,黄山路555号,细颗粒物(PM2.5),101,93,74,61,53,30,30,91,68,48,26,6,7,0.8,0.7
2026-03-25T0000,2606A,101.5379,25.0492,楚雄彝族自治州,市经济开发区,细颗粒物(PM2.5),66,64,37,43,27,62,62,118,97,22,16,4,5,0.9,0.6
2026-03-25T0000,4153A,101.5536,25.0343,楚雄彝族自治州,团结路562号,,49,NA,31,34,24,97,97,126,116,7,12,3,2,0.4,0.4
2026-03-25T0000,2549A,107.5087,31.2186,达州市,市环境监测站,,30,30,21,6,6,2,2,64,29,32,23,5,6,0.4,0.3
2026-03-25T0000,2550A,107.4988,31.2132,达州市,凤凰小区,,19,19,19,6,5,3,3,64,28,35,23,4,6,0.5,0.4
2026-03-25T0000,2551A,107.5081,31.1987,达州市,达县机关宾馆,,36,36,20,16,8,1,1,64,24,36,31,4,5,0.7,0.5
2026-03-25T0000,2552A,107.4644,31.2124,达州市,市政中心,,33,33,26,9,6,3,3,64,31,40,25,4,5,0.7,0.5
2026-03-25T0000,2614A,100.2168,25.5818,大理白族自治州,大理市环境监测站,,32,17,17,16,15,102,102,101,101,3,7,7,7,0.4,0.5
2026-03-25T0000,2615A,100.1542,25.7055,大理白族自治州,大理古城,,32,NA,17,18,14,102,102,111,104,4,8,5,5,0.3,0.3
2026-03-25T0000,1109A,121.6119,38.974,大连市,甘井子,细颗粒物(PM2.5),102,67,119,62,103,97,97,150,123,27,40,7,10,0.6,0.7
2026-03-25T0000,1110A,121.565,38.9509,大连市,周水子,细颗粒物(PM2.5),115,90,120,76,102,93,93,154,120,29,42,8,10,0.8,1.1
2026-03-25T0000,1111A,121.5637,38.8849,大连市,星海三站,细颗粒物(PM2.5),115,93,135,76,113,97,97,148,130,25,31,5,6,0.9,1.1
2026-03-25T0000,1112A,121.6301,38.9117,大连市,青泥洼桥,细颗粒物(PM2.5),112,88,112,73,100,94,94,163,124,25,24,5,6,0.7,0.9
2026-03-25T0000,1113A,121.6248,38.8643,大连市,傅家庄,细颗粒物(PM2.5),116,95,142,77,114,77,77,155,130,40,32,8,10,0.7,1
2026-03-25T0000,1114A,121.5117,38.8636,大连市,七贤岭,细颗粒物(PM2.5),107,74,126,67,106,99,99,152,125,25,28,7,9,0.9,1
2026-03-25T0000,1116A,121.7507,39.1339,大连市,金州,细颗粒物(PM2.5),76,55,72,48,65,115,115,140,113,15,22,8,10,0.7,0.8
2026-03-25T0000,1117A,121.7811,39.0495,大连市,开发区,细颗粒物(PM2.5),133,114,126,96,110,61,61,172,101,57,41,8,10,0.9,1
2026-03-25T0000,1118A,121.9762,39.0631,大连市,双D港,细颗粒物(PM2.5),130,104,126,92,104,96,96,140,130,20,34,4,6,0.9,1
2026-03-25T0000,4082A,121.2548,38.8188,大连市,旅顺,细颗粒物(PM2.5),124,93,140,86,125,84,84,149,122,29,29,6,7,0.6,0.9
2026-03-25T0000,1789A,124.8085,46.0381,大庆市,大同区,颗粒物(PM10),121,173,269,75,109,96,96,163,112,14,22,12,15,0.3,0.6
2026-03-25T0000,1790A,125.1166,46.5255,大庆市,龙凤区,细颗粒物(PM2.5),125,150,236,87,120,96,96,158,115,17,22,6,10,0.5,0.7
2026-03-25T0000,1791A,124.8894,46.4007,大庆市,红岗区,细颗粒物(PM2.5),125,171,206,87,109,97,97,144,112,13,17,12,13,0.7,0.8
2026-03-25T0000,1792A,125.1391,46.578,大庆市,萨尔图区,颗粒物(PM10),125,184,244,76,105,97,97,152,116,18,24,19,11,0.7,0.9
2026-03-25T0000,1793A,124.9026,46.6217,大庆市,让胡路区,颗粒物(PM10),125,185,202,86,110,108,108,146,121,15,23,7,8,0.8,0.9
2026-03-25T0000,3481A,125.127,46.6277,大庆市,萨区政府监测点,颗粒物(PM10),150,248,267,78,116,101,101,152,120,10,14,10,12,0.5,0.7
2026-03-25T0000,1723A,113.2926,40.0759,大同市,云冈宾馆,颗粒物(PM10),93,109,98,44,44,38,38,109,85,40,31,8,12,0.8,0.8
2026-03-25T0000,1724A,113.3437,40.0921,大同市,大同大学,颗粒物(PM10),107,138,105,30,40,30,30,118,75,66,36,9,9,0.9,0.8
2026-03-25T0000,1725A,113.2637,40.129,大同市,安家小村,颗粒物(PM10),109,142,120,44,41,37,37,110,84,56,28,27,21,5.5,1.1
2026-03-25T0000,3282A,113.3399,40.0586,大同市,大同市卫生学校,颗粒物(PM10),110,144,110,38,48,22,22,118,74,67,31,8,11,0.6,0.5
2026-03-25T0000,3565A,113.1371,40.1122,大同市,云冈站,颗粒物(PM10),108,139,102,37,30,6,6,109,56,73,28,13,10,0.8,0.6
2026-03-25T0000,3566A,113.1186,40.2556,大同市,图书馆,颗粒物(PM10),66,72,88,27,32,50,50,110,80,13,13,4,8,0.8,0.8
2026-03-25T0000,3567A,113.5931,40.0459,大同市,区一中,,39,NA,114,27,55,52,52,126,89,10,17,10,17,0.5,0.8
2026-03-25T0000,4199A,113.2798248,40.09972476,大同市,魏都大道141号,颗粒物(PM10),119,167,124,39,44,14,14,110,64,74,35,10,13,1.2,0.7
2026-03-25T0000,2269A,124.1068,50.4091,大兴安岭地区,科技局,细颗粒物(PM2.5),117,115,105,78,78,85,85,97,89,13,12,8,9,0.9,0.8
2026-03-25T0000,3663A,124.117,50.4279,大兴安岭地区,红旗社区,细颗粒物(PM2.5),125,95,88,87,79,55,55,98,75,20,17,8,9,1.0,0.9
2026-03-25T0000,1600A,124.33,40.0625,丹东市,江湾东路,细颗粒物(PM2.5),200,191,129,150,96,68,68,114,73,34,32,10,16,1.5,1.1
2026-03-25T0000,1601A,124.4242,40.1513,丹东市,临江后街,细颗粒物(PM2.5),224,201,156,174,100,31,31,110,83,41,28,6,14,2.0,1.1
2026-03-25T0000,1602A,124.3935,40.1461,丹东市,元宝山,细颗粒物(PM2.5),193,193,110,145,90,62,62,108,89,37,35,7,13,1.6,1
2026-03-25T0000,1603A,124.3634,40.1093,丹东市,民主桥,细颗粒物(PM2.5),190,188,122,143,94,16,16,116,69,78,40,7,11,1.4,0.9
2026-03-25T0000,3541A,109.5726195,19.51688767,儋州市,第一中学子站,,27,27,34,14,19,65,65,87,71,4,6,6,8,0.4,0.4
2026-03-25T0000,3542A,109.5567,19.5187,儋州市,东坡学校子站,,33,33,32,20,22,74,74,86,76,3,6,5,6,0.4,0.4
2026-03-25T0000,2616A,98.5611,24.4273,德宏傣族景颇族自治州,德宏州监测站,,30,27,26,21,24,68,68,106,84,7,11,7,7,0.4,0.6
2026-03-25T0000,3677A,98.5887,24.4366,德宏傣族景颇族自治州,芒市人民政府综合楼,颗粒物(PM10),58,61,48,26,25,52,52,94,77,14,15,2,3,0.8,0.8
2026-03-25T0000,1901A,104.424,31.1209,德阳市,东山公园,颗粒物(PM10),58,60,59,22,33,87,87,124,114,12,20,4,3,0.5,0.6
2026-03-25T0000,1902A,104.3827,31.1318,德阳市,西小区,颗粒物(PM10),65,71,74,22,36,78,78,120,105,23,26,6,5,0.7,0.7
2026-03-25T0000,1904A,104.3553,31.1091,德阳市,耐火材料厂,颗粒物(PM10),68,74,70,34,40,68,68,127,108,30,29,2,2,0.5,0.5
2026-03-25T0000,4145A,104.4144,31.1495,德阳市,市林业局,颗粒物(PM10),55,57,65,22,35,65,65,128,98,36,30,7,6,0.5,0.6
2026-03-25T0000,1622A,116.3034,37.4675,德州市,儿童乐园,细颗粒物(PM2.5),117,136,126,78,77,96,96,141,117,26,24,12,13,0.7,0.7
2026-03-25T0000,1624A,116.2992,37.4449,德州市,监理站,细颗粒物(PM2.5),120,136,128,81,77,95,95,145,119,32,25,7,8,0.7,0.9
2026-03-25T0000,3066A,116.2722,37.438,德州市,九衢泉纯净水厂,细颗粒物(PM2.5),116,127,119,77,77,90,90,136,106,34,33,6,8,0.6,0.7
2026-03-25T0000,3371A,116.3693,37.44,德州市,开发区人民医院,细颗粒物(PM2.5),123,139,124,85,77,79,79,140,112,34,25,9,10,0.5,0.6
2026-03-25T0000,3511A,116.5687,37.3331,德州市,陵城艺术中心,细颗粒物(PM2.5),126,119,119,88,86,79,79,131,103,25,22,5,7,0.7,0.8
2026-03-25T0000,4292A,116.352738,37.420875,德州市,新河东路,细颗粒物(PM2.5),116,132,122,77,74,64,64,136,101,41,28,10,11,0.7,0.7
2026-03-25T0000,2621A,99.7054,27.8319,迪庆藏族自治州,迪庆州站,,29,18,14,12,7,90,90,95,91,7,7,5,5,0.5,0.6
2026-03-25T0000,3180A,99.7122,27.8129,迪庆藏族自治州,质量技术监督局,,30,14,17,3,6,95,95,103,98,5,8,6,6,0.4,0.5
2026-03-25T0000,4257A,104.6092,35.5962,定西市,将台街,颗粒物(PM10),78,88,95,46,41,57,57,126,100,33,22,15,11,0.8,0.6
2026-03-25T0000,4309A,104.6159,35.5701,定西市,正龙路62号,颗粒物(PM10),73,82,95,34,36,60,60,117,100,18,14,6,5,0.7,0.5
2026-03-25T0000,4071A,114.9883,38.5232,定州市,交通局,细颗粒物(PM2.5),132,127,164,95,102,86,86,152,121,26,43,4,13,0.6,0.8
2026-03-25T0000,4072A,115.0045,38.5136,定州市,第五中学,细颗粒物(PM2.5),122,125,174,84,95,90,90,149,122,21,42,10,10,0.5,0.7
2026-03-25T0000,1390A,113.7943,23.0132,东莞市,东城石井,,31,31,32,19,20,33,33,121,76,30,26,4,4,0.6,0.6
2026-03-25T0000,1391A,113.7384,22.9659,东莞市,南城西平,,37,37,31,20,19,40,40,101,69,27,26,4,5,0.5,0.6
2026-03-25T0000,3319A,113.7283,23.041,东莞市,万江金泰,颗粒物(PM10),55,56,38,33,29,46,46,105,81,26,22,6,6,0.7,0.7
2026-03-25T0000,4129A,113.8666,23.1062,东莞市,裕兴路,,42,42,40,18,21,44,44,118,81,27,22,7,7,0.7,0.7
2026-03-25T0000,4130A,114.0076,22.9739,东莞市,教育路1号,,41,41,39,19,21,29,29,112,68,33,24,6,5,0.7,0.6
2026-03-25T0000,4131A,113.7981,22.8124,东莞市,长怡路1号,,34,34,34,16,17,43,43,87,61,29,27,5,5,0.6,0.7
2026-03-25T0000,1666A,118.6612,37.4313,东营市,市环保局,细颗粒物(PM2.5),106,90,120,66,89,62,62,174,118,NA,34,14,22,0.8,0.9
2026-03-25T0000,3036A,118.6903,37.4337,东营市,开发区管委会,细颗粒物(PM2.5),110,102,113,70,88,63,63,183,120,41,38,26,17,0.8,0.8
2026-03-25T0000,3365A,118.5721,37.5654,东营市,垦利区民丰路,细颗粒物(PM2.5),102,112,112,62,87,70,70,183,131,43,33,6,7,1.3,1.1
2026-03-25T0000,3498A,118.5063,37.8606,东营市,河口城区,细颗粒物(PM2.5),110,119,134,71,96,75,75,172,132,36,26,9,11,0.9,1
2026-03-25T0000,3646A,118.4979,37.4623,东营市,胜利站,细颗粒物(PM2.5),109,115,128,69,83,60,60,154,106,39,38,14,16,1.2,1
2026-03-25T0000,3734A,118.5753,37.4405,东营市,理想之城,细颗粒物(PM2.5),104,105,130,64,88,59,59,184,117,51,45,7,15,0.9,1.1
2026-03-25T0000,1591A,110.0024,39.8127,鄂尔多斯市,综合楼,颗粒物(PM10),62,66,98,20,30,92,92,109,98,18,20,4,7,0.5,0.5
2026-03-25T0000,1592A,109.9485,39.8259,鄂尔多斯市,巴音孟克林场办事处,颗粒物(PM10),62,66,87,20,27,83,83,114,96,21,15,5,6,0.4,0.3
2026-03-25T0000,1593A,109.7734,39.5987,鄂尔多斯市,康泽苑,颗粒物(PM10),70,78,85,30,28,84,84,118,101,12,12,6,7,0.2,0.3
2026-03-25T0000,1594A,109.8121,39.5987,鄂尔多斯市,华泰汽车城,颗粒物(PM10),72,80,84,22,23,66,66,121,96,21,16,4,5,0.4,0.4
2026-03-25T0000,1595A,109.9734,39.7884,鄂尔多斯市,奥林花园,颗粒物(PM10),75,85,96,19,24,69,69,110,78,32,37,4,5,0.3,0.4
2026-03-25T0000,2436A,114.894,30.3989,鄂州市,市政府,颗粒物(PM10),87,101,88,44,48,46,46,57,54,18,30,11,10,0.5,0.7
2026-03-25T0000,2437A,114.8986,30.3714,鄂州市,赵家坝,颗粒物(PM10),86,100,92,42,52,62,62,80,75,11,20,7,9,0.8,1.1
2026-03-25T0000,3654A,114.8093,30.4091,鄂州市,精准医疗中心,颗粒物(PM10),75,84,82,45,47,60,60,80,73,11,19,41,12,0.6,0.8
2026-03-25T0000,2454A,109.4978,30.2979,恩施土家族苗族自治州,湖北民院,,30,30,23,19,16,17,17,70,46,16,13,6,6,0.8,0.8
2026-03-25T0000,3549A,109.5061,30.3771,恩施土家族苗族自治州,龙凤新区,NA,NA,NA,14,NA,11,12,12,60,NA,5,6,NA,7,NA,0.5
2026-03-25T0000,2499A,108.3411,21.6159,防城港市,沙万,NA,NA,NA,48,17,18,26,26,55,42,33,18,6,7,0.4,0.6
2026-03-25T0000,2500A,108.3515,21.7733,防城港市,防城档案局,,36,36,39,20,22,39,39,71,58,14,11,7,7,0.5,0.6
2026-03-25T0000,2501A,108.3506,21.6414,防城港市,大海花园,,26,26,38,16,21,35,35,63,54,22,22,8,10,0.4,0.5
2026-03-25T0000,1371A,113.1293,23.0065,佛山市,湾梁,,34,34,34,19,24,38,38,122,79,22,17,/,/,/,/
2026-03-25T0000,1372A,113.1082,23.0477,佛山市,华材职中,,36,36,37,25,29,31,31,120,67,32,21,7,7,0.5,0.4
2026-03-25T0000,1373A,113.1439,23.045,佛山市,南海气象局,,32,26,36,22,28,38,38,117,74,22,20,/,/,/,/
2026-03-25T0000,1374A,113.2879,22.8094,佛山市,顺德苏岗,,41,41,39,19,22,37,37,107,65,23,14,/,/,0.6,0.5
2026-03-25T0000,1376A,112.8384,22.8678,佛山市,高明孔堂,,34,34,33,20,20,41,41,86,65,14,13,/,/,/,/
2026-03-25T0000,1377A,112.8835,23.1584,佛山市,三水监测站,细颗粒物(PM2.5),90,95,44,55,32,10,10,84,45,62,29,6,5,0.6,0.5
2026-03-25T0000,1378A,112.8668,23.185,佛山市,三水云东海,颗粒物(PM10),56,58,55,34,28,5,5,88,44,51,25,/,/,/,/
2026-03-25T0000,3625A,113.2568,22.7629,佛山市,容桂街道办,,29,29,28,20,22,34,34,101,63,32,21,/,/,/,/
2026-03-25T0000,1282A,119.2681,26.0506,福州市,师大,,48,36,24,33,16,29,29,78,59,35,21,4,3,0.4,0.4
2026-03-25T0000,1283A,119.2983,26.1028,福州市,五四北路,,49,NA,21,34,18,30,30,76,56,37,23,4,4,0.5,0.5
2026-03-25T0000,1284A,119.2648,26.0769,福州市,杨桥西路,,42,NA,21,29,17,35,35,82,66,26,20,4,4,/,/
2026-03-25T0000,3048A,119.5799,26.0937,福州市,九龙,,26,23,12,18,7,60,60,97,80,9,11,4,4,0.3,0.3
2026-03-25T0000,3526A,119.5188,25.9666,福州市,吴航,,30,30,20,20,13,32,32,88,71,22,16,4,5,0.6,0.6
2026-03-25T0000,4104A,119.3106,26.0648,福州市,路通桥巷6号,,49,38,27,34,20,36,36,72,53,27,19,/,/,/,/
2026-03-25T0000,1755A,123.7974,41.8494,抚顺市,望花区,细颗粒物(PM2.5),102,101,100,62,59,108,108,133,119,26,29,47,17,0.8,0.8
2026-03-25T0000,1756A,123.9161,41.8827,抚顺市,顺城区,细颗粒物(PM2.5),100,68,71,60,56,114,114,132,114,19,31,12,11,1.0,0.9
2026-03-25T0000,1757A,124.0437,41.8615,抚顺市,东洲区,细颗粒物(PM2.5),90,73,75,55,54,122,122,136,126,13,17,14,11,0.8,0.8
2026-03-25T0000,1758A,123.9246,41.8638,抚顺市,新抚区,细颗粒物(PM2.5),96,94,94,58,55,87,87,140,114,25,28,10,10,1.0,0.8
2026-03-25T0000,1759A,124.0972,41.8961,抚顺市,大伙房水库,细颗粒物(PM2.5),94,69,82,57,50,133,133,150,139,10,19,8,9,0.5,0.8
2026-03-25T0000,1760A,123.708,41.8386,抚顺市,沈抚新城,细颗粒物(PM2.5),90,84,100,55,60,110,110,128,112,16,37,8,13,0.8,1.5
2026-03-25T0000,2377A,116.3544,27.9833,抚州市,市站,,48,42,22,33,17,40,40,73,66,14,9,9,7,1.0,1
2026-03-25T0000,2378A,116.3562,27.9631,抚州市,血防站,,43,43,25,29,12,36,36,72,64,22,13,10,5,0.8,0.9
2026-03-25T0000,2379A,116.3561,28.0007,抚州市,采茶剧团,,46,45,23,32,14,45,45,70,61,9,10,11,7,0.7,0.7
2026-03-25T0000,2380A,116.3854,27.9648,抚州市,医学分院,,45,45,25,29,11,47,47,73,65,14,11,6,8,1.1,1.2
2026-03-25T0000,2207A,121.6095,41.9978,阜新市,工业园区,细颗粒物(PM2.5),148,134,125,112,99,123,123,152,142,21,27,11,20,0.8,0.9
2026-03-25T0000,2208A,121.6567,42.0188,阜新市,长青街,细颗粒物(PM2.5),155,118,110,118,93,124,124,152,143,23,27,10,16,0.9,0.9
2026-03-25T0000,2209A,121.6672,42.07,阜新市,农业园区,细颗粒物(PM2.5),160,166,140,122,93,123,123,158,146,24,26,7,14,0.9,0.8
2026-03-25T0000,2211A,121.6343,42.0455,阜新市,玉龙新城,细颗粒物(PM2.5),160,156,129,122,100,121,121,155,142,23,32,11,16,0.9,1
2026-03-25T0000,2301A,115.8276,32.8929,阜阳市,市监测站,细颗粒物(PM2.5),108,119,105,68,70,30,30,100,75,41,22,5,6,0.6,0.5
2026-03-25T0000,2303A,115.8551,32.8606,阜阳市,开发区,细颗粒物(PM2.5),107,131,118,67,68,23,23,108,84,46,19,5,5,0.7,0.6
2026-03-25T0000,2875A,115.783962,32.889217,阜阳市,阜阳职业技术学院,细颗粒物(PM2.5),98,112,93,59,58,34,34,118,97,56,18,7,7,0.8,0.7
2026-03-25T0000,3468A,115.79,32.8614,阜阳市,市规划展馆,细颗粒物(PM2.5),107,106,105,67,70,56,56,122,108,36,17,7,8,0.6,0.5
2026-03-25T0000,3469A,115.835101,32.918568,阜阳市,枣园社区,细颗粒物(PM2.5),111,112,101,72,72,18,18,108,82,71,20,6,6,0.5,0.4
2026-03-25T0000,2669A,102.9097,34.9841,甘南藏族自治州,州政府,,46,46,62,20,31,72,72,100,90,9,8,5,4,0.3,0.3
2026-03-25T0000,3380A,102.8915,34.9618,甘南藏族自治州,甘肃民族师范学院,,44,44,72,8,28,90,90,120,109,17,14,1,2,0.4,0.4
2026-03-25T0000,2570A,101.96,30.048,甘孜藏族自治州,水桥子,,17,6,8,3,1,53,53,62,58,9,10,5,6,0.1,0.2
2026-03-25T0000,3065A,101.9534,29.9976,甘孜藏族自治州,州环保局,,18,6,5,3,3,56,56,64,58,10,16,4,5,0.3,0.3
2026-03-25T0000,2363A,114.9368,25.8663,赣州市,地委,,16,16,15,11,9,49,49,56,56,10,11,3,3,0.9,1.1
2026-03-25T0000,2364A,114.946,25.8483,赣州市,气象台,,23,23,26,14,11,56,56,63,63,13,14,5,4,0.9,0.9
2026-03-25T0000,2365A,114.932,25.8332,赣州市,市图书馆,,20,20,16,10,10,56,56,61,61,9,12,4,4,1.1,1
2026-03-25T0000,2366A,114.8905,25.8472,赣州市,华坚鞋城,,19,19,18,9,10,50,50,56,56,8,13,4,5,0.7,0.7
2026-03-25T0000,3109A,115.0094,25.8614,赣州市,赣县区卫计委,,14,9,17,8,12,44,44,49,48,11,14,2,2,1.1,0.9
2026-03-25T0000,2684A,106.2753,36.0057,固原市,监测站,颗粒物(PM10),88,103,99,44,37,30,30,112,76,58,25,10,10,0.7,0.6
2026-03-25T0000,2685A,106.2384,36.0189,固原市,新区,颗粒物(PM10),87,101,108,40,35,82,82,116,76,23,34,8,8,0.5,0.7
2026-03-25T0000,2544A,106.6307,30.4577,广安市,市委,,30,30,19,18,15,34,34,61,NA,19,13,5,5,0.6,0.6
2026-03-25T0000,2545A,106.6266,30.4662,广安市,友谊中学,,22,22,18,12,12,41,41,67,55,12,11,3,5,0.8,0.8
2026-03-25T0000,2547A,106.6386,30.4551,广安市,广电花园,,30,30,21,15,15,25,25,65,54,20,14,4,4,0.8,0.7
2026-03-25T0000,2902A,106.6347,30.4868,广安市,北辰小学,,21,21,17,14,15,41,41,60,53,11,9,5,5,0.8,0.7
2026-03-25T0000,2524A,105.8211,32.4444,广元市,老城,,47,47,37,13,12,10,10,116,82,68,16,10,9,0.6,0.5
2026-03-25T0000,2526A,105.8629,32.429,广元市,监测站,,33,33,39,8,12,66,66,110,96,14,13,6,6,0.5,0.5
2026-03-25T0000,3617A,105.8047,32.4167,广元市,经开区,,41,41,35,18,15,18,18,109,86,62,14,4,3,0.5,0.5
2026-03-25T0000,1345A,113.2346,23.1423,广州市,广雅中学,,44,44,38,27,23,24,24,116,75,41,20,4,3,0.8,0.7
2026-03-25T0000,1346A,113.2611,23.105,广州市,市五中,,42,42,35,28,26,21,21,138,82,49,23,8,7,/,/
2026-03-25T0000,1348A,113.3477,23.0916,广州市,广东商学院,,48,48,36,29,25,2,2,124,64,59,27,5,5,0.7,0.6
2026-03-25T0000,1349A,113.4332,23.105,广州市,市八十六中,,36,36,30,10,16,2,2,111,40,68,39,5,5,/,/
2026-03-25T0000,1350A,113.3506,22.9488,广州市,番禺中学,,43,43,34,25,21,20,20,122,62,42,18,4,4,0.8,0.7
2026-03-25T0000,1351A,113.2147,23.3918,广州市,花都师范,颗粒物(PM10),59,62,49,32,28,25,25,131,94,50,27,6,6,0.9,0.8
2026-03-25T0000,1352A,113.2599,23.1329,广州市,市监测站,,43,43,37,23,22,23,23,116,72,40,20,2,2,/,/
2026-03-25T0000,1353A,113.5618,23.3119,广州市,九龙镇镇龙,颗粒物(PM10),57,59,45,33,26,25,25,128,80,43,36,6,6,0.5,0.5
2026-03-25T0000,1354A,113.2764,23.1544,广州市,麓湖,,45,45,36,26,23,2,2,132,70,60,22,3,4,0.6,0.6
2026-03-25T0000,2846A,113.3209,23.1323,广州市,体育西,,49,49,36,24,21,5,5,125,68,66,25,6,6,0.8,0.7
2026-03-25T0000,3298A,113.5718,23.5493,广州市,从化街口,细颗粒物(PM2.5),80,70,51,50,35,30,30,129,100,46,29,6,6,0.8,0.7
2026-03-25T0000,3299A,113.3463,23.369,广州市,白云竹料,,49,49,44,27,27,20,20,136,91,44,27,4,4,0.7,0.6
2026-03-25T0000,3300A,113.2981,23.2365,广州市,白云嘉禾,颗粒物(PM10),58,60,44,30,26,2,2,133,71,69,33,8,8,/,/
2026-03-25T0000,3301A,113.4256,23.1716,广州市,黄埔科学城,,39,39,38,21,25,10,10,137,66,46,31,6,7,0.5,0.5
2026-03-25T0000,3302A,113.3942,23.0485,广州市,番禺大学城,,43,43,36,25,23,35,35,132,72,33,23,6,6,0.5,0.5
2026-03-25T0000,3303A,113.4923,22.8169,广州市,南沙黄阁,,37,37,34,23,19,46,46,97,66,29,27,7,6,/,/
2026-03-25T0000,3304A,113.534,22.7893,广州市,南沙街,,42,37,30,29,19,43,43,87,61,19,21,8,8,0.5,0.5
2026-03-25T0000,3443A,113.2905,23.5541,广州市,花都梯面,细颗粒物(PM2.5),58,50,44,39,30,10,10,125,76,45,24,8,9,/,/
2026-03-25T0000,3445A,113.786,23.7479,广州市,从化良口,,39,36,38,27,30,71,71,121,98,16,16,4,4,/,/
2026-03-25T0000,3446A,113.805,23.2614,广州市,增城荔城,,39,39,43,21,27,7,7,144,83,50,27,5,6,0.5,0.5
2026-03-25T0000,2506A,109.604387,23.066791,贵港市,江南子站,细颗粒物(PM2.5),106,105,71,66,39,18,18,60,41,32,20,9,9,0.9,0.8
2026-03-25T0000,2508A,109.5669,23.1065,贵港市,荷城子站,细颗粒物(PM2.5),106,88,60,66,39,28,28,56,44,28,21,14,10,0.8,0.7
2026-03-25T0000,3405A,109.5886,23.1172,贵港市,新世纪学校,细颗粒物(PM2.5),90,95,68,55,41,24,24,60,47,34,27,/,/,0.8,0.7
2026-03-25T0000,4260A,109.5933,23.095,贵港市,中山路155-3号,细颗粒物(PM2.5),94,106,83,57,42,23,23,60,42,27,20,/,/,0.8,0.7
2026-03-25T0000,1439A,106.6863,26.6035,贵阳市,马鞍山,,27,27,23,18,17,47,47,63,59,8,9,3,4,/,/
2026-03-25T0000,1441A,106.6241,26.6266,贵阳市,鉴湖路,,39,39,26,20,11,57,57,64,61,11,11,4,4,0.5,0.5
2026-03-25T0000,1442A,106.7468,26.6344,贵阳市,燕子冲,,34,34,29,12,19,54,54,65,63,8,11,6,6,0.6,0.9
2026-03-25T0000,1443A,106.6556,26.4362,贵阳市,碧云窝,,36,36,27,14,18,53,53,72,67,16,15,9,9,/,/
2026-03-25T0000,1445A,106.6963,26.6063,贵阳市,红边门,,36,36,29,12,19,53,53,64,62,11,13,8,9,/,/
2026-03-25T0000,1446A,106.7162383,26.56964667,贵阳市,新华路,,44,44,32,19,16,52,52,70,67,14,12,8,9,0.4,0.5
2026-03-25T0000,1447A,106.6742,26.542,贵阳市,太慈桥,,34,34,27,13,18,58,58,73,71,12,13,4,4,/,/
2026-03-25T0000,4230A,106.688212,26.56952,贵阳市,花果园大街66号,,29,24,17,20,18,53,53,63,62,10,12,3,2,/,/
2026-03-25T0000,4231A,106.687268,26.516892,贵阳市,漓江路57号,,27,27,18,17,16,53,53,72,68,14,14,8,7,0.9,0.9
2026-03-25T0000,1864A,110.3091,25.2705,桂林市,龙隐路小学,,26,20,14,18,10,43,43,38,38,9,16,4,3,0.9,1
2026-03-25T0000,1865A,110.2849361,25.22909545,桂林市,八中,,22,22,16,10,8,33,33,27,27,14,19,4,3,1.0,1.2
2026-03-25T0000,3531A,110.296,25.1254,桂林市,旅游学院,,28,28,26,15,12,25,25,25,24,22,22,5,5,1.0,1.1
2026-03-25T0000,4222A,110.1835,25.2444,桂林市,环湖路276号,,17,17,13,8,10,45,45,41,41,8,17,4,4,1.0,1.1
2026-03-25T0000,4301A,110.2803,25.2773,桂林市,信义路13号,,18,12,15,12,8,43,43,40,40,11,16,4,3,1.0,1.3
2026-03-25T0000,2674A,100.2262,34.4854,果洛藏族自治州,玛沁县大武镇,,33,26,32,12,14,105,105,128,117,1,2,11,11,0.3,0.3
2026-03-25T0000,1130A,126.5557,45.8109,哈尔滨市,松北商大,细颗粒物(PM2.5),168,151,221,127,168,90,90,165,111,20,32,13,14,0.6,0.9
2026-03-25T0000,1132A,126.6162,45.719,哈尔滨市,南岗学府路,细颗粒物(PM2.5),125,141,273,87,160,85,85,170,96,23,47,10,14,0.1,0.5
2026-03-25T0000,1133A,126.6894,45.7733,哈尔滨市,太平宏伟公园,细颗粒物(PM2.5),119,NA,279,80,192,83,83,152,92,21,46,2,8,0.2,0.8
2026-03-25T0000,1134A,126.6361,45.7672,哈尔滨市,道外承德广场,细颗粒物(PM2.5),122,144,299,84,161,77,77,154,90,35,51,17,20,0,0.6
2026-03-25T0000,1136A,126.644,45.7261,哈尔滨市,动力和平路,细颗粒物(PM2.5),107,91,247,67,169,77,77,155,91,20,42,20,24,1.2,1.8
2026-03-25T0000,1137A,126.5933,45.7479,哈尔滨市,道里建国路,细颗粒物(PM2.5),130,127,236,92,162,75,75,159,96,34,50,16,19,1.2,1
2026-03-25T0000,1138A,126.6127,45.6119,哈尔滨市,平房东轻厂,细颗粒物(PM2.5),113,125,208,74,169,53,53,94,63,87,89,NA,103,0.3,0.8
2026-03-25T0000,1139A,126.5875,45.9827,哈尔滨市,呼兰师专,细颗粒物(PM2.5),179,165,258,135,173,78,78,140,100,29,51,15,17,1.1,1.3
2026-03-25T0000,1140A,126.6299,45.6799,哈尔滨市,省农科院,细颗粒物(PM2.5),106,89,339,66,177,64,64,141,73,26,49,12,15,0.3,0.8
2026-03-25T0000,4282A,126.6769,45.7379,哈尔滨市,华山路1号,细颗粒物(PM2.5),105,90,251,65,170,85,85,140,96,21,45,11,18,0.9,1.4
2026-03-25T0000,4283A,126.9717,45.5356,哈尔滨市,解放大街52号,颗粒物(PM10),89,104,216,34,102,106,106,139,106,10,19,11,13,0.3,0.7
2026-03-25T0000,2688A,93.5124,42.8176,哈密市,地区监测站,颗粒物(PM10),95,112,83,46,36,38,38,106,86,35,20,6,7,0.7,0.3
2026-03-25T0000,2689A,93.5014,42.8312,哈密市,哈密师范学校,NA,NA,NA,89,NA,29,45,45,116,91,36,31,8,8,0.5,0.4
2026-03-25T0000,2671A,100.9016,36.9464,海北藏族自治州,海晏县西海镇,,22,21,40,11,21,68,68,113,91,7,4,5,7,0.5,0.5
2026-03-25T0000,3867A,102.074,36.5056,海东市,平安区公安局北苑,颗粒物(PM10),85,98,80,38,37,109,109,134,122,10,11,25,13,1.0,0.7
2026-03-25T0000,4163A,102.0984,36.5119,海东市,滨河路,颗粒物(PM10),90,106,88,44,36,86,86,62,54,23,96,28,13,0.6,1
2026-03-25T0000,1410A,110.3189,20.0596,海口市,海南大学,,28,28,27,14,14,52,52,70,58,5,5,5,5,0.4,0.4
2026-03-25T0000,1411A,110.2827,20.0051,海口市,秀英海南医院,,23,21,22,16,15,45,45,65,51,7,9,7,8,0.3,0.3
2026-03-25T0000,1412A,110.3391,19.9979,海口市,海南师范大学,,31,31,27,14,14,48,48,75,61,7,5,6,6,0.4,0.3
2026-03-25T0000,1413A,110.3303,20.0359,海口市,龙华路环保局宿舍,,27,27,26,15,14,53,53,74,61,6,6,/,/,0.3,0.4
2026-03-25T0000,3539A,110.5111,19.9737,海口市,桂林洋子站,,30,30,26,18,14,42,42,71,56,6,6,/,/,/,/
2026-03-25T0000,4134A,110.1952,20.0451,海口市,长滨二路9号,,24,24,25,15,15,50,50,70,58,3,5,/,/,/,/
2026-03-25T0000,2673A,100.6158,36.2985,海南藏族自治州,共和县恰卜恰镇,,35,27,31,11,13,111,111,121,115,4,7,11,11,0.3,0.2
2026-03-25T0000,2676A,97.373,37.376,海西蒙古族藏族自治州,德令哈市,,40,17,22,7,11,127,127,145,133,4,5,15,16,0.4,0.4
2026-03-25T0000,1049A,114.492,36.5712,邯郸市,矿院,细颗粒物(PM2.5),88,84,113,54,78,84,84,138,111,20,25,4,5,0.5,0.6
2026-03-25T0000,1050A,114.4839,36.6136,邯郸市,丛台公园,细颗粒物(PM2.5),111,90,124,72,99,88,88,137,111,15,20,5,6,0.4,0.6
2026-03-25T0000,3458A,114.7893,36.5592,邯郸市,香泉濮院小区,颗粒物(PM10),96,114,127,50,58,84,84,132,111,19,17,2,2,0.5,0.6
2026-03-25T0000,3580A,114.1998,36.4439,邯郸市,峰峰矿区临水派出所,细颗粒物(PM2.5),107,84,104,67,77,93,93,144,113,22,13,4,6,0.6,0.5
2026-03-25T0000,4068A,114.5209,36.7697,邯郸市,建安街268号,细颗粒物(PM2.5),123,96,133,85,105,82,82,141,111,21,29,2,3,0.4,0.6
2026-03-25T0000,4069A,114.5488,36.6177,邯郸市,丛台东路558号,细颗粒物(PM2.5),115,81,115,76,107,87,87,138,107,19,25,2,3,0.4,0.6
2026-03-25T0000,2635A,107.0155,33.0707,汉中市,市监测站,,27,27,33,11,19,72,72,108,88,11,12,7,6,0.5,0.5
2026-03-25T0000,2636A,107.0083,33.114,汉中市,鑫源开发区,,21,21,34,14,24,65,65,114,86,18,16,4,4,0.4,0.4
2026-03-25T0000,2637A,107.0072,33.0323,汉中市,南郑大河坎水厂,颗粒物(PM10),55,57,39,23,23,36,36,110,74,19,15,4,4,0.6,0.5
2026-03-25T0000,1223A,120.2073,30.2111,杭州市,滨江,,50,46,46,35,28,29,29,56,40,35,33,6,7,1.0,1
2026-03-25T0000,1224A,120.0625,30.2737,杭州市,西溪,颗粒物(PM10),55,56,56,30,29,26,26,67,36,30,28,8,8,0.6,0.6
2026-03-25T0000,1226A,120.3417,30.315,杭州市,下沙,NA,NA,94,62,41,28,33,33,66,43,28,28,NA,8,NA,0.6
2026-03-25T0000,1227A,120.1252,30.2465,杭州市,卧龙桥,,49,49,49,31,28,30,30,67,40,26,28,7,7,0.4,0.3
2026-03-25T0000,1228A,120.1902,30.2691,杭州市,浙江农大,,50,41,34,35,27,35,35,70,38,33,38,6,7,0.5,0.5
2026-03-25T0000,1230A,120.1195,30.3121,杭州市,和睦小学,颗粒物(PM10),65,70,65,34,31,30,30,69,38,29,27,6,7,0.7,0.6
2026-03-25T0000,1231A,120.3076,30.4146,杭州市,临平镇,细颗粒物(PM2.5),70,54,46,45,32,42,42,80,56,26,23,6,6,0.8,0.6
2026-03-25T0000,1232A,120.2753,30.1839,杭州市,城厢镇,细颗粒物(PM2.5),58,40,50,39,32,31,31,54,45,34,33,8,9,0.6,0.6
2026-03-25T0000,1233A,120.0883,30.1808,杭州市,云栖,,34,34,43,17,22,17,17,54,34,28,32,5,6,0.6,0.6
2026-03-25T0000,3557A,119.9463,30.0496,杭州市,镇二中,细颗粒物(PM2.5),62,NA,33,41,38,28,28,45,38,27,31,4,5,0.7,0.7
2026-03-25T0000,3558A,119.7184,30.2367,杭州市,市府大楼,,48,36,38,33,33,36,36,72,44,23,23,6,6,0.3,0.3
2026-03-25T0000,3656A,120.1554,30.2863,杭州市,消防大队,细颗粒物(PM2.5),66,50,55,43,36,30,30,63,36,33,30,7,8,0.8,0.8
2026-03-25T0000,1270A,117.1957,31.7845,合肥市,明珠广场,细颗粒物(PM2.5),101,95,72,61,42,27,27,102,76,34,18,6,7,0.8,0.6
2026-03-25T0000,1271A,117.307,31.8765,合肥市,三里街,细颗粒物(PM2.5),109,102,71,69,45,36,36,95,74,36,22,6,6,1.0,0.8
2026-03-25T0000,1272A,117.2587,31.8703,合肥市,琥珀山庄,细颗粒物(PM2.5),101,95,70,61,46,48,48,102,86,43,26,6,7,0.9,0.7
2026-03-25T0000,1275A,117.2593,31.9376,合肥市,庐阳区,细颗粒物(PM2.5),88,88,73,54,46,45,45,99,79,40,21,5,5,0.7,0.7
2026-03-25T0000,1276A,117.345251,31.861615,合肥市,瑶海区,细颗粒物(PM2.5),100,105,74,60,42,22,22,97,70,41,27,6,6,0.9,0.7
2026-03-25T0000,1277A,117.3033,31.7967,合肥市,包河区,细颗粒物(PM2.5),105,105,75,65,43,35,35,83,67,38,44,9,9,1.1,0.9
2026-03-25T0000,1278A,117.278,31.7392,合肥市,滨湖新区,细颗粒物(PM2.5),104,100,77,64,47,33,33,89,72,19,14,5,5,1.0,0.8
2026-03-25T0000,1279A,117.1324,31.8395,合肥市,高新区,细颗粒物(PM2.5),102,92,72,62,44,48,48,104,86,32,18,4,5,1.0,0.8
2026-03-25T0000,3464A,117.3802,31.9148,合肥市,高教基地,细颗粒物(PM2.5),114,102,67,75,49,28,28,98,74,36,22,7,9,0.8,0.6
2026-03-25T0000,4098A,117.2518,31.8404,合肥市,中国科学技术大学,细颗粒物(PM2.5),98,95,68,59,45,42,42,106,84,33,19,5,6,0.9,0.8
2026-03-25T0000,3614A,79.9241,37.0878,和田地区,地区环保局,颗粒物(PM10),118,166,696,21,92,106,106,109,109,5,7,2,2,0.4,0.4
2026-03-25T0000,3615A,79.9132,37.1137,和田地区,市环保局,颗粒物(PM10),109,142,619,14,96,96,96,97,95,11,12,3,4,0.3,0.4
2026-03-25T0000,2517A,108.0496,24.6957,河池市,市环保站,,18,18,52,8,37,16,16,42,26,8,9,4,4,0.8,1
2026-03-25T0000,4302A,108.0901,24.6945,河池市,上任中路54号,,27,27,47,8,33,6,6,37,20,18,14,6,6,0.8,0.9
2026-03-25T0000,1697A,114.6962,23.7538,河源市,东埔,,39,39,32,24,24,54,54,103,87,18,11,6,6,0.8,0.7
2026-03-25T0000,1698A,114.6895,23.7232,河源市,老城,,39,39,35,24,25,55,55,108,82,19,11,7,7,0.7,0.7
2026-03-25T0000,3374A,115.5562,35.089,菏泽市,定陶老年大学,细颗粒物(PM2.5),118,127,118,79,81,83,83,133,110,20,16,5,6,0.5,0.5
2026-03-25T0000,4114A,115.4239,35.2593,菏泽市,黄河路600号,细颗粒物(PM2.5),120,146,138,81,86,78,78,126,105,22,16,4,4,0.5,0.5
2026-03-25T0000,4115A,115.5025,35.2727,菏泽市,菏泽市人社局,细颗粒物(PM2.5),120,123,120,82,88,97,97,125,108,19,21,5,6,0.4,0.4
2026-03-25T0000,4184A,115.479691,35.244011,菏泽市,永昌路1号,细颗粒物(PM2.5),123,135,121,85,88,100,100,143,121,21,22,3,4,0.4,0.4
2026-03-25T0000,4193A,115.471542,35.280012,菏泽市,长城路999号,细颗粒物(PM2.5),124,139,128,86,86,98,98,135,118,16,17,7,6,0.4,0.4
2026-03-25T0000,2514A,111.5264,24.4178,贺州市,环保小区,,26,25,61,18,42,35,35,45,35,11,25,5,6,0,0.7
2026-03-25T0000,2515A,111.561,24.4074,贺州市,政协大楼,,33,33,54,18,40,33,33,60,38,9,26,5,6,1.3,1.1
2026-03-25T0000,3534A,111.4744,24.455,贺州市,西湾,,33,33,73,17,41,30,30,32,30,10,23,7,8,1.0,0.9
2026-03-25T0000,2385A,114.17,35.9019,鹤壁市,市监测站,细颗粒物(PM2.5),107,97,104,67,73,75,75,125,110,26,17,7,6,0.8,0.7
2026-03-25T0000,2386A,114.2953,35.7512,鹤壁市,市交警支队,细颗粒物(PM2.5),115,98,105,76,77,65,65,119,98,36,20,11,9,0.5,0.6
2026-03-25T0000,2387A,114.2877,35.7302,鹤壁市,迎宾馆,细颗粒物(PM2.5),116,112,108,77,75,61,61,118,96,40,19,12,10,0.5,0.5
2026-03-25T0000,3474A,114.2616,35.6824,鹤壁市,大新区,细颗粒物(PM2.5),118,96,93,79,83,24,24,111,71,53,23,8,7,0.7,0.8
2026-03-25T0000,3596A,114.1573,35.9607,鹤壁市,南山宾馆,颗粒物(PM10),110,144,117,68,77,75,75,125,106,24,13,10,9,0.6,0.6
2026-03-25T0000,2244A,130.2537,47.3416,鹤岗市,哈啤分公司,细颗粒物(PM2.5),500,NA,130,555,130,110,110,114,112,55,26,20,12,2.1,0.8
2026-03-25T0000,2245A,130.2683,47.3087,鹤岗市,斯达机电,细颗粒物(PM2.5),500,NA,169,546,145,72,72,124,94,59,24,25,14,1.9,0.8
2026-03-25T0000,2246A,130.3114,47.3388,鹤岗市,东山纸板厂,颗粒物(PM10),488,588,190,469,120,59,59,109,86,50,34,18,13,2.4,1.3
2026-03-25T0000,2263A,127.4832,50.2524,黑河市,交通局,颗粒物(PM10),53,54,37,33,20,94,94,91,82,9,9,7,8,0.2,0.2
2026-03-25T0000,2264A,127.5146,50.2339,黑河市,环保局,细颗粒物(PM2.5),68,56,28,44,22,107,107,96,91,13,12,6,6,0.5,0.4
2026-03-25T0000,1074A,115.6839,37.754,衡水市,电机北厂,细颗粒物(PM2.5),110,124,137,71,90,106,106,150,127,20,25,9,10,0.9,0.7
2026-03-25T0000,1075A,115.6303,37.7318,衡水市,市监测站,细颗粒物(PM2.5),109,106,123,69,86,99,99,146,124,16,23,4,6,0.5,0.6
2026-03-25T0000,3188A,115.6684,37.7216,衡水市,市城管局,细颗粒物(PM2.5),109,108,126,69,82,99,99,145,122,18,24,12,13,0.5,0.6
2026-03-25T0000,3459A,115.599,37.5491,衡水市,地表水厂,细颗粒物(PM2.5),116,104,128,77,90,78,78,145,108,26,34,6,6,0.5,0.5
2026-03-25T0000,2457A,112.6209,26.9268,衡阳市,衡阳化工总厂,细颗粒物(PM2.5),118,96,27,79,21,74,74,66,66,9,11,4,4,1.0,1.1
2026-03-25T0000,2458A,112.621,26.8957,衡阳市,珠晖区环保局,细颗粒物(PM2.5),102,75,26,62,18,59,59,55,55,17,14,6,6,1.0,1.1
2026-03-25T0000,2459A,112.628,26.8654,衡阳市,市委党校,细颗粒物(PM2.5),101,63,24,61,18,65,65,61,61,10,10,10,4,1.0,1.3
2026-03-25T0000,2460A,112.6007,26.8977,衡阳市,市监测站,细颗粒物(PM2.5),106,NA,24,66,21,73,73,64,63,12,16,7,6,0.8,0.9
2026-03-25T0000,2461A,112.5658,26.9013,衡阳市,真空机电公司,细颗粒物(PM2.5),102,68,22,62,16,61,61,64,59,16,16,6,6,1.2,1.2
2026-03-25T0000,3399A,112.6703,26.8817,衡阳市,师范学院,细颗粒物(PM2.5),74,73,25,47,17,71,71,65,65,11,9,23,7,0.9,1
2026-03-25T0000,3038A,103.3757,23.3679,红河哈尼族彝族自治州,州图书馆,细颗粒物(PM2.5),60,60,48,40,38,84,84,119,106,10,8,6,4,0.6,0.5
2026-03-25T0000,4154A,103.401,23.3561,红河哈尼族彝族自治州,蒙自市朝阳路,细颗粒物(PM2.5),62,44,37,41,37,99,99,130,115,8,8,9,10,0.4,0.4
2026-03-25T0000,1090A,111.6506,40.7517,呼和浩特市,呼市一监,细颗粒物(PM2.5),118,136,124,79,57,4,4,118,70,78,34,11,13,1.1,0.6
2026-03-25T0000,1094A,111.7516,40.8369,呼和浩特市,如意水处理厂,颗粒物(PM10),117,162,112,75,48,6,6,119,75,90,45,11,12,1.0,0.5
2026-03-25T0000,1095A,111.727798,40.806187,呼和浩特市,二十九中,细颗粒物(PM2.5),150,NA,121,115,50,17,17,110,85,81,32,13,11,1.0,0.6
2026-03-25T0000,1097A,111.717,40.7617,呼和浩特市,化肥厂生活区,细颗粒物(PM2.5),228,266,136,178,66,19,19,114,68,84,37,11,10,1.2,0.6
2026-03-25T0000,3699A,111.6519,40.8389,呼和浩特市,海东办,,48,48,106,14,43,51,51,109,90,51,34,4,8,0.3,0.5
2026-03-25T0000,4275A,111.591512,40.827312,呼和浩特市,成吉思汗西街8号,,48,48,103,13,42,71,71,103,82,32,41,2,7,0.2,0.4
2026-03-25T0000,4276A,111.6597,40.8077,呼和浩特市,公园东路75号,颗粒物(PM10),53,53,120,17,49,76,76,105,94,28,31,8,12,0.5,0.7
2026-03-25T0000,4277A,111.5427,40.7846,呼和浩特市,金海路35号,颗粒物(PM10),54,55,111,12,48,76,76,98,80,21,35,6,11,0.3,0.5
2026-03-25T0000,3061A,119.7511,49.1576,呼伦贝尔市,国华电力东,,33,33,27,20,12,54,54,82,66,14,10,6,6,0.4,0.2
2026-03-25T0000,4279A,119.7569,49.2222,呼伦贝尔市,伊敏大街东7号,,28,28,19,11,10,66,66,80,72,17,10,6,5,0.3,0.3
2026-03-25T0000,1250A,120.075,30.867,湖州市,城西水厂,细颗粒物(PM2.5),86,66,46,53,34,19,19,88,51,51,26,6,6,0.8,0.6
2026-03-25T0000,2873A,120.083,30.8929,湖州市,仁皇山新区,细颗粒物(PM2.5),74,74,47,47,29,13,13,79,50,65,28,4,5,0.9,0.6
2026-03-25T0000,2907A,120.1846,30.8592,湖州市,吴兴区站,颗粒物(PM10),64,69,56,39,29,48,48,90,60,22,22,4,6,0.8,0.5
2026-03-25T0000,3562A,120.4146,30.8538,湖州市,南浔区站,细颗粒物(PM2.5),70,58,51,45,36,52,52,84,60,26,27,4,6,0.9,0.7
2026-03-25T0000,1607A,120.904878,40.721091,葫芦岛市,龙港区,细颗粒物(PM2.5),137,NA,121,100,117,106,106,132,128,27,22,8,11,0.7,1
2026-03-25T0000,1608A,120.8382,40.7521,葫芦岛市,化工街,细颗粒物(PM2.5),135,119,152,98,132,110,110,126,115,31,37,15,18,0.7,1
2026-03-25T0000,1609A,120.8339,40.7078,葫芦岛市,新区,细颗粒物(PM2.5),130,97,131,93,145,113,113,122,118,25,26,9,10,0.7,1.1
2026-03-25T0000,1610A,120.8697,40.7679,葫芦岛市,东城区,细颗粒物(PM2.5),137,NA,125,100,130,111,111,126,115,26,42,10,13,0.7,1.1
2026-03-25T0000,2483A,109.9297,27.5383,怀化市,河西地税局,颗粒物(PM10),52,52,16,16,10,16,16,72,47,19,13,3,3,/,/
2026-03-25T0000,2484A,109.9783,27.5342,怀化市,市四医院,,32,32,16,21,10,32,32,66,49,17,11,7,6,0.7,0.6
2026-03-25T0000,2485A,109.9971,27.5579,怀化市,监测楼,,29,27,15,20,13,37,37,69,49,14,12,3,3,0.4,0.3
2026-03-25T0000,1210A,119.0566,33.5991,淮安市,钵池山,细颗粒物(PM2.5),117,110,78,78,63,35,35,73,60,48,28,7,6,0.5,0.3
2026-03-25T0000,1211A,119.0083,33.578,淮安市,北京南路,细颗粒物(PM2.5),130,102,76,92,73,40,40,67,56,30,20,8,6,0.5,0.5
2026-03-25T0000,1212A,118.9938,33.6083,淮安市,市监测站,细颗粒物(PM2.5),128,100,68,90,70,39,39,75,63,42,26,6,4,0.5,0.4
2026-03-25T0000,1213A,119.135,33.5038,淮安市,楚州区监测站,细颗粒物(PM2.5),126,105,83,88,72,38,38,74,56,32,19,6,5,0.9,0.7
2026-03-25T0000,3426A,118.8757,33.2897,淮安市,新华书店,细颗粒物(PM2.5),102,120,85,62,48,30,30,73,55,36,20,6,6,0.4,0.3
2026-03-25T0000,4092A,119.119691,33.550006,淮安市,枚皋中路89号,细颗粒物(PM2.5),135,115,96,98,87,22,22,63,44,33,21,9,9,0.7,0.6
2026-03-25T0000,4206A,119.028838,33.631911,淮安市,承德北路606号,细颗粒物(PM2.5),123,132,101,85,68,39,39,68,51,33,24,8,7,0.4,0.3
2026-03-25T0000,2282A,116.8005,33.9749,淮北市,监测站,细颗粒物(PM2.5),100,94,100,60,66,63,63,124,98,27,18,8,6,0.6,0.6
2026-03-25T0000,2283A,116.8094,33.9008,淮北市,烈山区政府,细颗粒物(PM2.5),109,115,84,69,64,32,32,122,90,54,18,6,5,0.4,0.4
2026-03-25T0000,4017A,116.7926,33.9534,淮北市,市博物馆,细颗粒物(PM2.5),103,93,94,63,67,56,56,120,90,27,17,7,6,0.6,0.6
2026-03-25T0000,4100A,116.8322,33.9884,淮北市,杜集区第一实验学校,细颗粒物(PM2.5),94,98,102,57,70,59,59,112,88,21,16,10,8,0.3,0.5
2026-03-25T0000,2277A,116.8304,32.7726,淮南市,潘集区政府,细颗粒物(PM2.5),110,103,85,70,58,26,26,90,69,43,23,6,7,0.5,0.5
2026-03-25T0000,2279A,116.8569,32.5949,淮南市,谢家集区政府,细颗粒物(PM2.5),117,112,79,78,58,53,53,90,76,30,23,11,8,0.6,0.6
2026-03-25T0000,2280A,116.8279,32.6333,淮南市,八公山区政府,细颗粒物(PM2.5),114,107,82,75,56,62,62,94,81,15,14,10,9,0.6,0.6
2026-03-25T0000,2894A,117.0561,32.6536,淮南市,经济技术开发区消防队,细颗粒物(PM2.5),103,74,79,63,58,37,37,87,64,35,23,7,7,0.5,0.5
2026-03-25T0000,3329A,117.011,32.5891,淮南市,山南新区,细颗粒物(PM2.5),108,90,84,68,62,47,47,101,80,31,21,7,7,0.5,0.5
2026-03-25T0000,4209A,117.003137,32.644456,淮南市,国庆中路369号,细颗粒物(PM2.5),103,93,83,63,61,39,39,78,65,26,18,9,9,0.5,0.5
2026-03-25T0000,2446A,114.9021,30.474,黄冈市,职工中心,颗粒物(PM10),83,96,88,46,50,53,53,76,67,13,20,5,6,0.9,1
2026-03-25T0000,2929A,114.8858,30.4519,黄冈市,红卫路,颗粒物(PM10),80,91,83,47,49,53,53,77,67,14,20,4,5,0.2,0.3
2026-03-25T0000,3398A,114.9134,30.4446,黄冈市,市林业局,颗粒物(PM10),91,107,101,45,50,63,63,80,74,9,19,4,4,0.6,0.8
2026-03-25T0000,2672A,102.02,35.5101,黄南藏族自治州,同仁县隆务镇,,31,31,42,12,22,85,85,115,103,2,3,10,10,0.4,0.3
2026-03-25T0000,2295A,118.2905,29.6965,黄山市,延安路89号,,15,9,25,3,17,46,46,52,49,13,12,4,4,0.4,0.5
2026-03-25T0000,2297A,118.1369,30.2755,黄山市,黄山区政府5号楼,,32,32,28,12,16,20,20,50,42,15,11,2,3,0.6,0.6
2026-03-25T0000,4210A,118.335445,29.720283,黄山市,滨江东路7-2号,,27,27,37,3,16,50,50,52,50,10,15,/,/,/,/
2026-03-25T0000,2423A,115.0547,30.2332,黄石市,沈家营,颗粒物(PM10),90,105,89,48,42,50,50,76,67,14,16,7,7,1.0,1
2026-03-25T0000,2426A,114.899,30.211,黄石市,铁山,细颗粒物(PM2.5),80,61,61,50,52,25,25,72,48,19,22,8,9,1.1,1.1
2026-03-25T0000,2427A,115.0259,30.2108,黄石市,团城山,"颗粒物(PM10),细颗粒物(PM2.5)",86,100,76,53,53,50,50,68,60,12,17,4,10,0.9,1
2026-03-25T0000,3149A,115.0174,30.1591,黄石市,笔架山北路,颗粒物(PM10),106,134,108,61,52,57,57,77,67,20,26,7,9,0.8,1
2026-03-25T0000,4185A,115.078022,30.21118,黄石市,磁湖东路29号,颗粒物(PM10),98,117,92,47,48,61,61,80,74,9,15,7,6,1.2,1.3
2026-03-25T0000,1392A,114.4181,23.0528,惠州市,河南岸金山湖子站,,43,43,35,21,21,49,49,112,74,16,11,6,7,0.6,0.6
2026-03-25T0000,1393A,114.4055,23.0824,惠州市,下埔横江三路子站,颗粒物(PM10),52,52,41,25,25,47,47,121,76,18,12,4,4,0.5,0.5
2026-03-25T0000,1395A,114.4645,22.7832,惠州市,惠阳区承修路船湖子站,,36,36,32,17,18,62,62,86,75,13,9,6,6,0.5,0.5
2026-03-25T0000,1396A,114.5316,22.7423,惠州市,大亚湾管委会子站,,32,32,32,18,18,65,65,84,79,8,9,3,3,0.4,0.4
2026-03-25T0000,3314A,114.4334,22.8134,惠州市,惠阳秋长,,33,31,28,23,17,58,58,91,74,16,12,/,/,/,/
2026-03-25T0000,3452A,114.6521,22.7755,惠州市,大亚湾霞涌,,26,20,23,15,15,82,82,91,87,11,10,/,/,/,/
2026-03-25T0000,4300A,114.4089,23.1147,惠州市,文华一路1号,,43,43,34,23,22,48,48,124,80,20,12,/,/,/,/
2026-03-25T0000,2240A,130.9618,45.2926,鸡西市,环保局,细颗粒物(PM2.5),148,130,110,112,81,39,39,121,68,35,22,10,8,0.7,0.5
2026-03-25T0000,2243A,130.9294,45.2959,鸡西市,第一中学,细颗粒物(PM2.5),130,112,113,92,89,64,64,120,75,19,17,10,9,0.5,0.5
2026-03-25T0000,3707A,131.0069,45.2988,鸡西市,欧美日汽修厂,细颗粒物(PM2.5),144,128,126,108,86,54,54,111,63,21,30,13,11,1.1,1
2026-03-25T0000,2367A,114.9753,27.0803,吉安市,红声器材厂,,36,36,26,25,11,37,37,44,40,22,24,9,6,1.4,1.3
2026-03-25T0000,2369A,114.9903,27.1313,吉安市,市环境监测站,,32,32,20,16,9,40,40,48,48,15,18,10,8,/,/
2026-03-25T0000,2370A,115.009527,27.096792,吉安市,青原区法院,,39,39,23,17,10,32,32,44,40,22,23,6,3,1.1,1
2026-03-25T0000,1772A,126.54,43.8622,吉林市,哈达湾,细颗粒物(PM2.5),76,59,60,48,46,99,99,117,109,12,15,7,7,0.7,0.7
2026-03-25T0000,1773A,126.5843,43.8358,吉林市,东局子,细颗粒物(PM2.5),100,NA,51,60,51,100,100,114,103,11,16,4,4,0.8,0.8
2026-03-25T0000,1774A,126.5051,43.8243,吉林市,电力学院,细颗粒物(PM2.5),74,58,62,47,52,96,96,128,110,18,24,6,7,0.7,0.9
2026-03-25T0000,1775A,126.6133,43.8971,吉林市,江北,细颗粒物(PM2.5),76,59,60,48,50,112,112,120,113,9,15,7,7,0.5,0.6
2026-03-25T0000,1776A,126.5549,43.8304,吉林市,江南公园,细颗粒物(PM2.5),70,54,55,45,45,96,96,115,104,13,16,7,7,0.7,0.7
2026-03-25T0000,2868A,126.4737,43.953,吉林市,九站,细颗粒物(PM2.5),76,56,60,48,51,94,94,121,111,15,19,8,10,0.5,0.7
2026-03-25T0000,1299A,116.9866,36.6118,济南市,科干所,颗粒物(PM10),68,75,86,36,52,110,110,138,124,16,16,7,8,0.6,0.7
2026-03-25T0000,1300A,116.9379,36.6652,济南市,农科所,细颗粒物(PM2.5),78,76,89,49,61,98,98,131,114,23,21,6,8,0.4,0.5
2026-03-25T0000,1301A,117.1265,36.6736,济南市,开发区,颗粒物(PM10),62,66,77,29,51,119,119,150,130,17,17,5,6,0.6,0.7
2026-03-25T0000,1303A,117.0616,36.6865,济南市,省种子仓库,颗粒物(PM10),70,78,93,41,56,105,105,146,123,22,18,5,6,0.5,0.6
2026-03-25T0000,1304A,116.9495185,36.644937,济南市,机床二厂,颗粒物(PM10),69,76,92,44,57,103,103,137,120,21,19,7,8,0.6,0.7
2026-03-25T0000,1305A,117.0496,36.6629,济南市,市监测站,颗粒物(PM10),65,71,88,37,54,105,105,142,123,23,17,4,5,0.5,0.6
2026-03-25T0000,1306A,116.7674,36.5458,济南市,长清党校,细颗粒物(PM2.5),90,93,91,55,55,100,100,128,113,21,20,13,7,0.5,0.5
2026-03-25T0000,1961A,117.5323,36.6865,济南市,东山小学,颗粒物(PM10),62,66,88,33,50,122,122,154,132,18,20,4,6,0.6,0.7
2026-03-25T0000,3059A,117.7181,36.205,济南市,泰兴公司,颗粒物(PM10),93,110,102,48,58,8,8,141,84,103,39,14,12,0.9,1.1
2026-03-25T0000,3064A,117.6861,36.2172,济南市,莱芜战役纪念馆,颗粒物(PM10),75,85,101,40,58,97,97,154,NA,22,26,8,10,0.5,1
2026-03-25T0000,3494A,117.1673,36.9782,济南市,济阳区政府,细颗粒物(PM2.5),80,88,109,50,69,80,80,124,98,34,34,11,10,0.5,0.6
2026-03-25T0000,3495A,117.1168,36.6299,济南市,锦屏中学,细颗粒物(PM2.5),58,59,81,39,54,116,116,142,125,15,16,6,9,0.3,0.7
2026-03-25T0000,4108A,117.7107,36.2385,济南市,山财大街5号,颗粒物(PM10),68,75,94,40,58,88,88,141,104,32,32,11,12,0.5,0.8
2026-03-25T0000,4109A,116.9744,36.6889,济南市,无影山路12号,"颗粒物(PM10),细颗粒物(PM2.5)",68,75,83,44,58,100,100,130,114,20,20,6,7,0.6,0.7
2026-03-25T0000,1653A,116.6229,35.4288,济宁市,火炬城,颗粒物(PM10),71,79,77,44,52,87,87,132,116,19,14,6,5,0.6,0.6
2026-03-25T0000,3500A,116.5808,35.3703,济宁市,北湖一中,细颗粒物(PM2.5),72,64,63,46,52,92,92,140,120,16,14,9,10,0.5,0.5
2026-03-25T0000,3501A,116.8251,35.5592,济宁市,服务中心,颗粒物(PM10),92,108,93,54,52,70,70,126,101,28,18,7,3,0.8,0.6
2026-03-25T0000,3678A,116.5907,35.4054,济宁市,市第七中学,细颗粒物(PM2.5),80,63,63,50,52,102,102,145,128,16,15,8,8,0.5,0.6
2026-03-25T0000,4111A,116.6075,35.4566,济宁市,任和路,颗粒物(PM10),78,89,89,44,50,100,100,136,124,15,13,8,8,0.5,0.6
2026-03-25T0000,4112A,116.5648,35.3921,济宁市,文体南路1号,细颗粒物(PM2.5),78,84,84,49,50,95,95,142,121,22,17,5,6,0.5,0.5
2026-03-25T0000,4122A,112.6071,35.1015,济源市,市委党校,颗粒物(PM10),110,146,122,67,69,15,15,120,78,57,25,6,8,0.6,0.7
2026-03-25T0000,4123A,112.596,35.0702,济源市,沁园中路1号,细颗粒物(PM2.5),105,108,98,65,66,20,20,117,75,59,25,4,5,0.8,0.7
2026-03-25T0000,2255A,130.2749,46.8028,佳木斯市,佳纺,细颗粒物(PM2.5),163,127,97,124,80,101,101,117,88,18,34,7,7,0.7,0.7
2026-03-25T0000,2257A,130.3258,46.7975,佳木斯市,环保局,细颗粒物(PM2.5),146,127,93,110,81,107,107,126,121,14,33,5,6,0.5,0.6
2026-03-25T0000,4285A,130.363,46.806,佳木斯市,顺和街,细颗粒物(PM2.5),150,130,97,114,92,100,100,115,109,18,36,6,6,0.6,0.7
2026-03-25T0000,4286A,130.3952,46.8268,佳木斯市,长安路196号,细颗粒物(PM2.5),160,151,92,122,81,82,82,106,67,35,40,6,7,0.6,0.5
2026-03-25T0000,1252A,120.7439,30.778,嘉兴市,清河小学,细颗粒物(PM2.5),66,44,37,43,19,32,32,78,54,41,29,5,6,0.4,0.4
2026-03-25T0000,1253A,120.7261,30.7477,嘉兴市,嘉兴学院,颗粒物(PM10),65,71,48,40,25,31,31,82,56,41,26,5,6,0.8,0.7
2026-03-25T0000,2872A,120.7845,30.7524,嘉兴市,南湖区残联,细颗粒物(PM2.5),60,NA,27,40,24,40,40,80,56,30,24,4,5,0.7,0.6
2026-03-25T0000,3407A,120.6915,30.7741,嘉兴市,秀洲住建,细颗粒物(PM2.5),60,45,43,40,26,32,32,83,49,36,30,7,8,0.4,0.3
2026-03-25T0000,1945A,98.291,39.7705,嘉峪关市,气象局,颗粒物(PM10),67,73,82,31,30,72,72,111,94,26,12,8,12,0.4,0.5
2026-03-25T0000,2884A,98.2672,39.7978,嘉峪关市,酒钢宾馆,颗粒物(PM10),78,88,92,32,33,66,66,103,91,17,11,14,30,0.5,0.7
2026-03-25T0000,3248A,98.2644,39.7723,嘉峪关市,雄关区,NA,NA,74,83,NA,24,65,65,108,94,29,14,8,11,0.2,0.3
2026-03-25T0000,1383A,113.1063,22.6058,江门市,北街,,28,28,30,16,19,40,40,92,56,19,14,/,/,/,/
2026-03-25T0000,1384A,113.073,22.5835,江门市,西区,,35,35,30,16,19,48,48,92,56,20,14,/,/,/,/
2026-03-25T0000,1385A,113.0218,22.531,江门市,圭峰西,,35,35,30,17,20,41,41,82,52,17,14,/,/,/,/
2026-03-25T0000,1386A,113.0826,22.5947,江门市,东湖,,26,25,29,18,20,51,51,92,60,15,11,8,9,0.4,0.4
2026-03-25T0000,3311A,113.1077,22.5647,江门市,江海富民,,33,33,44,17,22,42,42,96,56,21,14,/,/,0.4,0.4
2026-03-25T0000,3449A,113.0496,22.4669,江门市,新会银湖,,39,39,32,23,20,41,41,81,52,26,21,6,7,0.3,0.3
2026-03-25T0000,3335A,113.3137,35.2643,焦作市,马村街道办,细颗粒物(PM2.5),106,98,130,66,100,46,46,115,88,31,23,7,9,0.8,0.9
2026-03-25T0000,3336A,113.2464,35.2374,焦作市,焦作技师学院,细颗粒物(PM2.5),82,81,126,51,95,62,62,113,79,24,24,8,8,0.9,0.7
2026-03-25T0000,3477A,113.1656,35.2536,焦作市,中站许衡医院,细颗粒物(PM2.5),78,77,122,49,92,83,83,119,100,13,18,12,11,0.8,0.9
2026-03-25T0000,3981A,113.2456,35.18,焦作市,原李万街道办,细颗粒物(PM2.5),113,130,126,74,112,13,13,107,75,62,22,10,9,0.7,0.6
2026-03-25T0000,4264A,113.234,35.219,焦作市,新安路1731号,细颗粒物(PM2.5),108,106,134,68,99,56,56,119,89,35,24,13,11,1.1,0.8
2026-03-25T0000,4295A,113.2722,35.2121,焦作市,人民路3066号,细颗粒物(PM2.5),113,117,132,74,97,43,43,124,84,44,22,10,8,0.7,0.5
2026-03-25T0000,1708A,116.3701,23.5345,揭阳市,新兴,,49,49,47,28,30,45,45,106,79,28,18,9,7,1.4,0.8
2026-03-25T0000,1709A,116.3261,23.5442,揭阳市,西马,颗粒物(PM10),56,58,52,31,30,46,46,101,76,24,16,8,6,1.3,0.8
2026-03-25T0000,1710A,116.361,23.5627,揭阳市,东兴,颗粒物(PM10),51,51,46,28,28,57,57,109,84,19,15,7,6,/,/
2026-03-25T0000,1711A,116.4151,23.5295,揭阳市,渔湖,,48,42,46,33,34,43,43,128,96,32,13,5,4,/,/
2026-03-25T0000,3320A,116.4028,23.5699,揭阳市,曲溪,,48,48,39,30,28,45,45,116,86,24,12,7,5,1.0,0.6
2026-03-25T0000,1944A,102.1691,38.5166,金昌市,天庆家园,颗粒物(PM10),79,90,76,44,28,56,56,120,95,20,11,3,12,0.8,0.7
2026-03-25T0000,4022A,102.1648,38.5369,金昌市,金川区人防中心,颗粒物(PM10),94,111,81,45,28,56,56,115,95,25,11,7,5,0.5,0.5
2026-03-25T0000,4239A,102.193042,38.531887,金昌市,长春路96号,颗粒物(PM10),83,95,77,34,25,68,68,111,97,13,9,6,7,0.8,0.7
2026-03-25T0000,1262A,119.6478,29.0773,金华市,十五中,,24,24,28,15,21,7,7,42,18,38,28,3,10,0.7,0.6
2026-03-25T0000,1263A,119.6859,29.1032,金华市,监测站,,30,NA,24,21,24,6,6,36,17,54,40,4,4,0.9,0.6
2026-03-25T0000,3659A,119.656,29.1132,金华市,气象局,,35,30,28,24,22,7,7,24,11,47,37,2,3,0.8,0.7
2026-03-25T0000,1767A,121.1114,41.0879,锦州市,南山,细颗粒物(PM2.5),140,NA,121,104,118,114,114,137,122,29,34,18,18,0.8,1
2026-03-25T0000,1768A,121.060361,40.842794,锦州市,开发区,细颗粒物(PM2.5),108,107,158,68,131,95,95,116,106,36,35,5,8,0.6,1
2026-03-25T0000,1769A,121.1836,41.1118,锦州市,百股街道,细颗粒物(PM2.5),130,NA,131,92,134,119,119,133,124,26,40,12,11,0.8,1.1
2026-03-25T0000,1770A,121.1176,41.1224,锦州市,天安街道,细颗粒物(PM2.5),145,122,129,109,120,113,113,133,120,26,39,15,15,0.7,0.9
2026-03-25T0000,1771A,121.1303,41.1385,锦州市,北湖公园,细颗粒物(PM2.5),144,110,129,108,123,121,121,146,128,26,34,13,14,0.8,1
2026-03-25T0000,2160A,112.8496,35.5051,晋城市,自来水公司,颗粒物(PM10),103,126,95,42,42,37,37,126,98,37,18,4,4,0.5,0.4
2026-03-25T0000,2162A,112.8509,35.4886,晋城市,市环保局,颗粒物(PM10),93,109,88,54,50,50,50,124,102,28,12,6,6,0.7,0.6
2026-03-25T0000,3620A,112.8258,35.4804,晋城市,泽州一中,NA,NA,92,80,58,46,54,54,127,105,NA,22,3,5,0.6,0.4
2026-03-25T0000,4078A,112.8246,35.5152,晋城市,前书院路,颗粒物(PM10),88,102,88,44,43,44,44,114,90,25,17,4,5,0.8,0.8
2026-03-25T0000,4079A,112.8864,35.4773,晋城市,祥云街666号,细颗粒物(PM2.5),114,85,86,75,62,82,82,126,110,24,17,6,6,0.5,0.6
2026-03-25T0000,2174A,112.6992,37.6984,晋中市,榆次区政府,细颗粒物(PM2.5),120,136,122,82,58,59,59,134,102,33,26,13,16,0.8,0.8
2026-03-25T0000,2865A,112.7195,37.683,晋中市,榆次三中,细颗粒物(PM2.5),127,156,128,89,52,66,66,135,103,32,26,15,17,1.2,0.7
2026-03-25T0000,4080A,112.7375,37.7215,晋中市,广安街188号,细颗粒物(PM2.5),118,143,118,79,51,67,67,131,104,31,24,14,19,1.0,0.6
2026-03-25T0000,4200A,112.7478,37.6954,晋中市,迎宾街26号,细颗粒物(PM2.5),117,139,128,78,59,68,68,138,107,37,26,16,16,0.8,0.7
2026-03-25T0000,2439A,112.2012,31.048,荆门市,竹园小学,细颗粒物(PM2.5),110,133,124,71,66,52,52,115,82,32,21,2,1,1.1,0.8
2026-03-25T0000,2440A,112.1968,30.9892,荆门市,掇刀,细颗粒物(PM2.5),113,138,120,74,69,50,50,124,93,39,18,6,6,0.8,0.7
2026-03-25T0000,3012A,112.1849,31.0361,荆门市,西山林语,细颗粒物(PM2.5),96,112,113,58,59,70,70,115,93,12,14,4,5,0.7,0.8
2026-03-25T0000,3547A,112.1631,31.0134,荆门市,龙泉中学南校,细颗粒物(PM2.5),117,135,127,78,75,88,88,126,111,12,12,4,4,0.4,0.5
2026-03-25T0000,4124A,112.2213,31.0654,荆门市,新台西路6号,细颗粒物(PM2.5),111,114,103,72,69,46,46,113,85,37,21,5,6,0.6,0.6
2026-03-25T0000,1844A,112.2493,30.3198,荆州市,市图书馆,细颗粒物(PM2.5),70,76,77,45,55,47,47,105,78,44,22,6,6,0.6,0.7
2026-03-25T0000,1845A,112.2009,30.3543,荆州市,市委党校,细颗粒物(PM2.5),109,95,92,69,66,NA,NA,92,NA,44,25,7,7,0.9,0.8
2026-03-25T0000,3194A,112.2749,30.3124,荆州市,管委会,颗粒物(PM10),76,86,90,44,65,61,61,98,68,32,22,8,9,0.8,0.8
2026-03-25T0000,4268A,112.1722,30.3366,荆州市,学苑路85号,颗粒物(PM10),89,104,89,51,60,45,45,116,91,28,11,2,1,0.8,0.9
2026-03-25T0000,2343A,117.2114,29.2931,景德镇市,老干部活动中心,,36,29,22,25,22,56,56,57,57,7,9,6,5,0.4,0.5
2026-03-25T0000,2344A,117.1893,29.2789,景德镇市,兽医站,,38,28,28,26,16,59,59,62,62,10,11,4,4,0.7,0.8
2026-03-25T0000,2346A,117.246,29.2958,景德镇市,陶研所,,29,26,20,20,16,49,49,52,52,22,19,4,4,0.8,0.9
2026-03-25T0000,4289A,117.154766,29.256967,景德镇市,青少年活动中心,,32,31,22,22,22,45,45,56,56,15,15,6,7,/,/
2026-03-25T0000,1803A,115.9873,29.6816,九江市,十里,细颗粒物(PM2.5),76,80,70,48,44,10,10,83,58,63,29,8,7,1.1,1
2026-03-25T0000,1804A,115.9583,29.7047,九江市,茅山头,细颗粒物(PM2.5),80,62,64,50,47,10,10,86,54,66,27,3,4,0.8,0.7
2026-03-25T0000,1805A,115.9877,29.7295,九江市,西园,细颗粒物(PM2.5),76,61,64,48,44,9,9,73,39,84,47,8,4,0.8,0.8
2026-03-25T0000,1808A,115.9112,29.6038,九江市,综合工业园,细颗粒物(PM2.5),107,100,73,67,47,15,15,83,55,59,31,10,9,1.0,0.7
2026-03-25T0000,3190A,116.0254,29.6995,九江市,外国语学校,细颗粒物(PM2.5),80,62,54,50,44,8,8,77,48,65,28,12,6,1.0,0.9
2026-03-25T0000,4253A,116.010205,29.659402,九江市,莲花大道8号,细颗粒物(PM2.5),88,83,71,54,47,25,25,85,60,25,22,4,5,0.9,0.7
2026-03-25T0000,4240A,98.495752,39.733935,酒泉市,玉门东路5号,颗粒物(PM10),95,112,94,45,36,70,70,103,83,8,9,7,8,0.3,0.3
2026-03-25T0000,4241A,98.5099,39.7506,酒泉市,北大街108号,颗粒物(PM10),91,107,91,46,37,63,63,96,77,14,12,9,10,0.4,0.3
2026-03-25T0000,2698A,76.0071,39.466,喀什地区,巡警大队,颗粒物(PM10),54,55,61,6,12,135,135,132,132,5,7,3,3,0.2,0.3
2026-03-25T0000,2699A,75.9756,39.4693,喀什地区,吾办,,41,35,55,23,14,130,130,134,134,8,6,1,2,0.3,0.3
2026-03-25T0000,4027A,75.9485,39.4688,喀什地区,老干局,颗粒物(PM10),80,92,59,3,8,131,131,136,136,8,6,2,2,0.3,0.2
2026-03-25T0000,1824A,114.3389,34.778,开封市,肿瘤医院,细颗粒物(PM2.5),147,138,117,111,93,75,75,129,104,28,30,9,10,0.8,0.8
2026-03-25T0000,1826A,114.2884,34.7966,开封市,世纪星幼儿园,细颗粒物(PM2.5),128,129,103,90,75,74,74,126,105,27,23,10,11,0.9,0.9
2026-03-25T0000,3147A,114.3434,34.8101,开封市,龙亭公园,细颗粒物(PM2.5),140,154,118,104,81,78,78,135,113,32,27,9,11,1.0,0.8
2026-03-25T0000,3210A,114.3645,34.7955,开封市,汴京公园,细颗粒物(PM2.5),150,126,114,115,90,78,78,134,112,28,26,5,6,0.7,0.7
2026-03-25T0000,3473A,114.2485,34.8306,开封市,技师学院,细颗粒物(PM2.5),136,126,110,99,83,88,88,132,117,22,24,7,8,1.3,1.2
2026-03-25T0000,3592A,114.4518,34.7503,开封市,祥符区生态环境局,细颗粒物(PM2.5),146,141,127,110,91,76,76,130,105,27,33,7,7,0.7,0.7
2026-03-25T0000,1951A,84.886,45.6029,克拉玛依市,长征新村,,33,33,40,3,11,93,93,100,99,1,8,5,6,0.3,0.3
2026-03-25T0000,1952A,84.8894,45.5827,克拉玛依市,南林小区,,30,28,32,7,3,96,96,102,101,2,6,3,4,0.1,0.1
2026-03-25T0000,1954A,84.896,44.3328,克拉玛依市,独山子区,,25,25,97,11,33,77,77,100,86,2,11,5,5,0.4,0.5
2026-03-25T0000,1955A,85.6888,46.0909,克拉玛依市,乌尔禾区商贸楼,,28,21,64,15,18,89,89,91,90,2,6,1,2,0.1,0.2
2026-03-25T0000,3612A,85.1045,45.6895,克拉玛依市,白碱滩区新站,,32,22,39,10,12,102,102,107,106,1,10,5,6,0.5,0.5
2026-03-25T0000,2697A,76.1457,39.7143,克孜勒苏柯尔克孜自治州,市人民政府,,45,38,29,8,10,143,143,132,132,2,2,4,4,0.1,0.1
2026-03-25T0000,3665A,76.1654,39.7157,克孜勒苏柯尔克孜自治州,克州文化中心,,43,29,23,8,10,137,137,130,130,2,2,6,6,0.2,0.2
2026-03-25T0000,1450A,102.8203,24.889,昆明市,呈贡新区,细颗粒物(PM2.5),68,51,41,44,31,95,95,151,120,39,18,7,8,0.9,0.7
2026-03-25T0000,1452A,102.7253,25.0904,昆明市,龙泉镇,细颗粒物(PM2.5),58,51,43,39,26,106,106,136,120,16,26,5,4,0.7,0.6
2026-03-25T0000,1453A,102.7267,25.0378,昆明市,东风东路,颗粒物(PM10),61,65,43,40,26,111,111,141,123,14,15,3,5,0.7,0.5
2026-03-25T0000,1454A,102.6744,25.0671,昆明市,金鼎山,细颗粒物(PM2.5),74,58,45,47,28,104,104,136,116,20,22,6,3,0.7,0.6
2026-03-25T0000,1455A,102.6643,25.0401,昆明市,碧鸡广场,颗粒物(PM10),64,69,41,41,26,93,93,134,114,30,20,7,5,0.6,0.4
2026-03-25T0000,3179A,102.7491,25.012,昆明市,官渡区博物馆,细颗粒物(PM2.5),62,53,41,41,28,120,120,137,121,14,20,4,5,0.7,0.6
2026-03-25T0000,3375A,102.8016,24.8336,昆明市,青年创业园,细颗粒物(PM2.5),68,65,40,44,30,111,111,142,120,18,17,4,7,0.6,0.5
2026-03-25T0000,3550A,102.8,24.9787,昆明市,昆明学院,颗粒物(PM10),63,68,46,38,25,116,116,144,125,15,18,5,6,0.7,0.6
2026-03-25T0000,3551A,102.5969,24.6738,昆明市,晋宁区生态环境分局,细颗粒物(PM2.5),101,78,43,61,33,116,116,140,126,16,16,11,11,0.9,0.7
2026-03-25T0000,3552A,102.6673,24.9861,昆明市,云天化总部,颗粒物(PM10),58,60,43,36,25,116,116,139,126,12,23,6,7,0.6,0.5
2026-03-25T0000,1456A,91.132,29.6515,拉萨市,八廓街,,37,23,21,6,7,117,117,116,116,6,9,5,6,0.3,0.4
2026-03-25T0000,1457A,91.1221,29.6748,拉萨市,市环保局,,34,26,21,6,7,108,108,109,109,8,13,4,4,0.4,0.5
2026-03-25T0000,1458A,91.0874,29.6476,拉萨市,区监测站,,36,19,16,11,8,115,115,111,111,9,14,5,5,0.4,0.5
2026-03-25T0000,1459A,91.1774,29.6541,拉萨市,西藏大学,,36,28,16,14,8,115,115,115,115,8,11,4,5,0.3,0.3
2026-03-25T0000,1460A,90.9798,29.6586,拉萨市,区辐射站,,30,11,30,6,9,96,96,100,100,11,13,4,4,0.4,0.4
2026-03-25T0000,1461A,91.0831,29.6292,拉萨市,拉萨火车站,,37,21,19,11,7,118,118,113,113,8,11,4,4,0.4,0.5
2026-03-25T0000,2520A,109.2203,23.7252,来宾市,来宾技工学校,,39,39,53,27,32,31,31,77,56,12,8,12,6,1.2,0.8
2026-03-25T0000,3535A,109.1781,23.7293,来宾市,兴宾区政府,颗粒物(PM10),59,62,57,29,33,33,33,85,60,12,11,10,8,1.0,0.7
2026-03-25T0000,4002A,109.2312,23.7428,来宾市,中南小学,,39,39,52,24,35,31,31,84,58,13,11,12,8,1.0,0.7
2026-03-25T0000,1479A,103.8309,36.0467,兰州市,铁路设计院,颗粒物(PM10),85,98,100,42,40,41,41,120,98,73,48,4,12,0.7,0.9
2026-03-25T0000,3241A,103.7439,36.0841,兰州市,百合公园,细颗粒物(PM2.5),88,101,86,54,40,33,33,118,95,61,34,6,8,0.6,0.5
2026-03-25T0000,3242A,103.9613,35.9985,兰州市,和平,颗粒物(PM10),80,91,105,31,38,86,86,123,102,22,23,10,14,0.5,0.7
2026-03-25T0000,4236A,103.629272,36.093822,兰州市,庄浪东路808号,颗粒物(PM10),83,96,92,43,38,70,70,126,102,34,28,7,12,0.3,0.5
2026-03-25T0000,4237A,103.7251,36.104344,兰州市,安宁西路88号,细颗粒物(PM2.5),98,108,106,59,54,65,65,137,118,45,28,9,12,0.5,0.4
2026-03-25T0000,4238A,103.846982,36.067567,兰州市,北滨河东路1号,细颗粒物(PM2.5),80,86,95,50,43,36,36,123,99,66,44,8,13,0.7,0.9
2026-03-25T0000,1067A,116.6712,39.5109,廊坊市,药材公司,细颗粒物(PM2.5),178,202,163,134,132,68,68,148,120,39,42,13,6,0.9,0.9
2026-03-25T0000,1068A,116.7215,39.5592,廊坊市,开发区,细颗粒物(PM2.5),175,193,169,132,130,80,80,151,125,33,39,7,5,0.8,0.8
2026-03-25T0000,1070A,116.7246,39.5273,廊坊市,北华航天学院,细颗粒物(PM2.5),149,211,171,113,122,86,86,154,130,32,42,12,8,0.7,0.9
2026-03-25T0000,2919A,116.7022,39.5454,廊坊市,河北工业大学,细颗粒物(PM2.5),175,239,179,132,128,79,79,154,128,35,40,11,8,0.8,0.9
2026-03-25T0000,2536A,103.7629,29.5844,乐山市,牛耳桥,颗粒物(PM10),53,53,41,27,23,44,44,99,71,28,22,6,7,0.5,0.5
2026-03-25T0000,2537A,103.7501,29.6002,乐山市,市第三水厂,颗粒物(PM10),58,60,45,32,22,37,37,103,72,36,24,4,4,0.7,0.6
2026-03-25T0000,2538A,103.7571,29.5664,乐山市,市监测站,,50,50,44,24,20,67,67,98,77,20,21,3,4,0.8,0.7
2026-03-25T0000,3361A,103.7313,29.563,乐山市,理工大学,细颗粒物(PM2.5),328,NA,43,278,47,25,25,105,70,49,24,8,7,0.7,0.6
2026-03-25T0000,2599A,100.2497,26.8802,丽江市,丽江古城,,32,25,22,14,8,101,101,106,104,7,9,10,9,0.5,0.5
2026-03-25T0000,2600A,100.2203,26.8906,丽江市,市中心,NA,NA,NA,8,14,7,101,101,109,NA,NA,11,NA,12,0.4,0.2
2026-03-25T0000,1267A,119.9141,28.4513,丽水市,监测站大楼,,18,16,12,12,7,38,38,56,40,16,19,4,4,0.5,0.5
2026-03-25T0000,1268A,119.93,28.4589,丽水市,莲都小学,,16,16,12,11,7,42,42,59,40,16,21,/,/,/,/
2026-03-25T0000,1269A,119.8794,28.4232,丽水市,余庄前,,25,25,14,16,6,10,10,43,22,26,18,4,4,0.6,0.5
2026-03-25T0000,1173A,119.1759,34.5885,连云港市,市环境监测站,细颗粒物(PM2.5),96,75,70,58,51,66,66,96,80,19,23,9,10,0.6,0.6
2026-03-25T0000,3000A,119.3577,34.6971,连云港市,德源药业,颗粒物(PM10),112,149,76,61,46,23,23,89,66,58,25,6,5,0.9,0.8
2026-03-25T0000,3007A,119.178,34.8442,连云港市,新城一中,细颗粒物(PM2.5),112,87,83,73,66,31,31,90,54,48,28,7,6,0.7,0.6
2026-03-25T0000,3008A,119.3607,34.7519,连云港市,胡沟管理处,细颗粒物(PM2.5),92,97,76,56,48,22,22,81,25,68,39,12,9,0.9,0.9
2026-03-25T0000,3009A,119.1478,34.5913,连云港市,矿山设计院,细颗粒物(PM2.5),82,80,78,51,48,64,64,94,82,32,34,9,9,0.8,0.8
2026-03-25T0000,3434A,119.2414,34.6539,连云港市,工贸学校,细颗粒物(PM2.5),64,63,76,42,52,101,101,100,99,12,25,10,10,0.7,0.6
2026-03-25T0000,3664A,119.4171,34.734,连云港市,连云街道,颗粒物(PM10),74,83,97,44,58,58,58,63,49,30,38,4,5,0.7,0.6
2026-03-25T0000,2573A,102.2629,27.8981,凉山彝族自治州,西昌市政府,,36,19,17,18,12,114,114,122,116,8,10,19,11,0.6,0.6
2026-03-25T0000,2574A,102.2686,27.885,凉山彝族自治州,凉山州政府,,31,24,19,15,9,98,98,107,99,7,12,13,6,0.4,0.5
2026-03-25T0000,4229A,102.2342,27.8859,凉山彝族自治州,凯乐南路30号,,30,28,20,15,8,94,94,114,107,16,15,17,9,0.9,0.6
2026-03-25T0000,2212A,123.1978,41.2036,辽阳市,宏伟区,细颗粒物(PM2.5),90,56,87,55,70,129,129,134,131,8,15,7,9,0.6,0.8
2026-03-25T0000,2213A,123.1684,41.2497,辽阳市,新华园,细颗粒物(PM2.5),94,70,102,57,71,128,128,132,129,12,26,9,11,0.5,0.8
2026-03-25T0000,2214A,123.2355,41.2663,辽阳市,滨河路,细颗粒物(PM2.5),76,49,81,48,67,110,110,127,116,15,22,5,8,0.6,0.8
2026-03-25T0000,4083A,123.153,41.2874,辽阳市,铁西路150号,细颗粒物(PM2.5),92,73,99,56,70,124,124,125,124,11,24,8,12,0.5,0.9
2026-03-25T0000,2227A,125.1359,42.8845,辽源市,环保局,细颗粒物(PM2.5),74,72,84,47,63,100,100,129,88,12,28,7,8,0.6,0.8
2026-03-25T0000,4085A,125.0998,42.9134,辽源市,安宁大街333号,细颗粒物(PM2.5),86,71,89,53,63,99,99,131,105,18,27,5,7,0.6,0.8
2026-03-25T0000,1625A,115.9789,36.4372,聊城市,区政府,细颗粒物(PM2.5),116,124,117,77,77,80,80,120,101,21,18,8,7,0.8,0.8
2026-03-25T0000,3200A,115.9772,36.4986,聊城市,监控中心,细颗粒物(PM2.5),120,132,119,82,77,101,101,134,118,19,19,13,12,0.9,0.8
2026-03-25T0000,3513A,116.0443,36.436,聊城市,九州社区,细颗粒物(PM2.5),112,104,109,73,75,93,93,134,112,24,20,4,4,0.8,0.8
2026-03-25T0000,4018A,116.0564,36.4609,聊城市,星美广场,细颗粒物(PM2.5),112,117,118,73,75,90,90,124,108,20,19,7,7,0.8,0.8
2026-03-25T0000,4113A,116.0091,36.4495,聊城市,利民路,细颗粒物(PM2.5),98,107,111,59,73,107,107,135,119,18,20,8,8,0.6,0.7
2026-03-25T0000,2632A,94.3683,29.6373,林芝市,林芝监测站,,30,NA,6,10,5,94,94,96,96,1,2,3,3,0.4,0.4
2026-03-25T0000,2633A,94.3616,29.6634,林芝市,林芝人民医院,,31,6,7,3,3,98,98,98,98,1,3,3,2,0.5,0.5
2026-03-25T0000,2603A,100.0779,23.8981,临沧市,市环保局,,33,NA,37,23,30,66,66,121,96,9,9,7,8,0.5,0.6
2026-03-25T0000,2604A,100.0894,23.882,临沧市,市气象局,,42,33,34,29,31,70,70,124,99,9,10,7,7,0.1,0.2
2026-03-25T0000,1733A,111.5552,36.0791,临汾市,临钢医院,细颗粒物(PM2.5),102,102,105,62,54,26,26,129,91,46,24,8,11,1.1,0.9
2026-03-25T0000,1734A,111.4984,36.0734,临汾市,技工学校,细颗粒物(PM2.5),118,108,96,79,62,60,60,122,95,31,23,13,12,0.7,0.6
2026-03-25T0000,1736A,111.5017,36.0857,临汾市,市委,细颗粒物(PM2.5),106,111,104,66,53,69,69,127,102,30,20,9,9,1.1,0.8
2026-03-25T0000,3018A,111.5048,36.1015,临汾市,唐尧大酒店,细颗粒物(PM2.5),103,110,112,63,52,67,67,125,102,32,28,12,12,1.0,0.9
2026-03-25T0000,4244A,111.4879,36.053,临汾市,启星学校,细颗粒物(PM2.5),110,107,100,70,54,65,65,126,90,38,29,8,10,1.0,0.8
2026-03-25T0000,4271A,103.2464,35.6123,临夏回族自治州,滨河东路1号,颗粒物(PM10),125,183,136,82,55,6,6,117,74,65,28,9,9,1.2,0.6
2026-03-25T0000,4310A,103.207136,35.599807,临夏回族自治州,新华街21号,细颗粒物(PM2.5),110,134,122,71,53,41,41,98,79,22,14,8,8,1.1,0.9
2026-03-25T0000,1618A,118.3429,35.0532,临沂市,沂河小区,细颗粒物(PM2.5),118,124,118,79,77,41,41,117,85,39,24,18,16,0.5,0.7
2026-03-25T0000,1619A,118.2962,35.0568,临沂市,鲁南制药厂,细颗粒物(PM2.5),125,136,115,87,78,42,42,119,85,45,28,16,16,0.5,0.7
2026-03-25T0000,1620A,118.2793,34.9976,临沂市,新光毛纺厂,细颗粒物(PM2.5),129,129,110,91,84,31,31,117,78,54,32,28,14,0.5,0.5
2026-03-25T0000,1621A,118.3955,35.0889,临沂市,河东保险公司,细颗粒物(PM2.5),135,132,132,98,90,30,30,121,80,55,35,9,15,0.7,0.9
2026-03-25T0000,3370A,118.3563,35.0215,临沂市,十里堡居委,细颗粒物(PM2.5),119,119,107,80,82,41,41,119,84,44,31,17,13,0.6,0.9
2026-03-25T0000,3496A,118.359,35.1067,临沂市,南坊新区,细颗粒物(PM2.5),120,112,116,82,87,51,51,120,102,36,32,12,15,0.7,1.1
2026-03-25T0000,3860A,118.3915,35.0297,临沂市,皇山花园小区,细颗粒物(PM2.5),119,100,113,80,84,48,48,126,90,39,31,13,15,0.6,0.9
2026-03-25T0000,1870A,109.4854,24.3898,柳州市,柳东小学,,20,20,50,10,35,36,36,79,46,8,14,5,6,0.9,0.9
2026-03-25T0000,1871A,109.4109,24.3304,柳州市,环保监测站,,16,16,62,9,38,37,37,66,39,10,22,10,7,1.0,1
2026-03-25T0000,1872A,109.3886,24.3408,柳州市,河西水厂,,25,25,68,11,42,29,29,70,32,18,24,17,12,1.1,0.9
2026-03-25T0000,1873A,109.4263,24.2951,柳州市,市四中,,20,20,55,12,37,33,33,68,40,10,19,12,9,1.1,1.1
2026-03-25T0000,1874A,109.396,24.3658,柳州市,市九中,,15,NA,54,10,37,26,26,60,30,13,19,19,12,0.9,1
2026-03-25T0000,1875A,109.4912,24.3164,柳州市,古亭山,NA,NA,NA,56,8,34,38,38,76,49,6,13,6,7,0.8,0.8
2026-03-25T0000,3402A,109.5422,24.3994,柳州市,市二中,,22,22,66,7,33,24,24,68,38,10,18,6,8,0.8,0.8
2026-03-25T0000,2307A,116.5078,31.7369,六安市,监测大楼,细颗粒物(PM2.5),74,63,57,47,45,50,50,92,79,28,17,4,4,0.5,0.4
2026-03-25T0000,2308A,116.4738,31.7642,六安市,皖西学院,细颗粒物(PM2.5),92,73,65,56,52,48,48,98,81,28,14,5,5,0.4,0.4
2026-03-25T0000,2309A,116.4997,31.7904,六安市,朝阳厂,细颗粒物(PM2.5),92,79,65,56,49,42,42,95,78,40,25,5,6,0.5,0.4
2026-03-25T0000,2310A,116.5566,31.7885,六安市,开发区,细颗粒物(PM2.5),100,89,60,60,47,39,39,96,79,45,18,5,5,0.5,0.4
2026-03-25T0000,2577A,104.8293,26.592,六盘水市,黄土坡,,44,44,31,29,20,58,58,74,64,15,13,8,7,0.7,0.7
2026-03-25T0000,2579A,104.8481,26.5898,六盘水市,民中,,47,47,35,30,22,69,69,67,62,13,14,6,5,0.7,0.8
2026-03-25T0000,2580A,104.9541,26.5506,六盘水市,双水,,41,41,35,26,20,80,80,73,73,10,12,5,7,0.6,0.7
2026-03-25T0000,4151A,104.8899,26.5685,六盘水市,钟山大道中段564号,,46,46,37,26,21,81,81,72,72,8,10,8,8,0.6,0.8
2026-03-25T0000,2336A,117.022,25.1031,龙岩市,龙岩市监测站,细颗粒物(PM2.5),52,NA,36,36,32,47,47,96,70,19,14,14,9,0.7,0.8
2026-03-25T0000,2337A,117.0257,25.0662,龙岩市,闽西职业技术学院,,44,44,38,25,27,36,36,92,65,16,11,5,7,0.6,0.6
2026-03-25T0000,2338A,117.0195,25.0306,龙岩市,龙岩学院,,35,29,36,24,28,34,34,93,69,16,8,4,5,/,/
2026-03-25T0000,2885A,104.9344,33.3827,陇南市,滨江中学,颗粒物(PM10),68,74,63,28,25,68,68,91,86,19,17,9,7,0.9,0.7
2026-03-25T0000,3247A,104.9551,33.3709,陇南市,市总工会,颗粒物(PM10),67,73,65,23,24,87,87,98,94,8,14,6,6,0.6,0.7
2026-03-25T0000,2488A,111.9984,27.7346,娄底市,市监测站,细颗粒物(PM2.5),86,69,32,53,24,33,33,75,68,33,20,5,7,0.7,0.7
2026-03-25T0000,2491A,111.9888,27.7035,娄底市,市政府,细颗粒物(PM2.5),64,45,23,42,21,16,16,60,43,17,13,4,5,0.6,0.7
2026-03-25T0000,4127A,111.9812,27.7591,娄底市,涟钢职大,细颗粒物(PM2.5),110,94,37,71,25,24,24,68,59,35,16,2,2,0.9,1
2026-03-25T0000,4128A,112.0303,27.7457,娄底市,娄底体校,细颗粒物(PM2.5),74,79,41,47,23,25,25,66,52,6,10,2,2,0.4,0.5
2026-03-25T0000,1894A,105.4427,28.9063,泸州市,小市上码头,,42,36,31,29,23,52,52,89,75,17,14,9,8,0.7,0.7
2026-03-25T0000,1895A,105.4241,28.8573,泸州市,兰田宪桥,,36,36,33,21,19,41,41,83,60,21,13,6,6,0.8,0.7
2026-03-25T0000,1896A,105.4378,28.8833,泸州市,市环监站,,44,44,40,24,21,40,40,82,60,29,19,6,4,0.7,0.7
2026-03-25T0000,4272A,105.3689,28.7783,泸州市,纳溪中医医院,,42,42,34,23,21,13,13,90,50,28,17,6,7,0.8,0.7
2026-03-25T0000,2183A,111.1447,37.5212,吕梁市,环保局,颗粒物(PM10),82,94,90,28,30,8,8,111,55,77,40,6,7,0.4,0.5
2026-03-25T0000,2185A,111.1285,37.5338,吕梁市,自来水公司,颗粒物(PM10),93,110,125,42,40,32,32,112,70,49,35,5,8,0.5,0.6
2026-03-25T0000,2867A,111.1225,37.5093,吕梁市,马茂庄小学,颗粒物(PM10),78,89,100,26,29,3,3,106,51,79,42,4,5,0.5,0.5
2026-03-25T0000,1812A,112.3934,34.6517,洛阳市,市委党校,细颗粒物(PM2.5),111,104,91,72,75,81,81,107,90,22,21,10,8,0.7,0.8
2026-03-25T0000,1815A,112.494,34.6883,洛阳市,河南林校,细颗粒物(PM2.5),100,98,96,60,71,77,77,113,92,29,26,14,12,0.7,0.7
2026-03-25T0000,1816A,112.3843,34.623,洛阳市,开发区管委会,细颗粒物(PM2.5),109,117,106,69,70,71,71,106,82,27,19,12,11,0.6,0.6
2026-03-25T0000,1817A,112.4263,34.6249,洛阳市,市委新办公区,细颗粒物(PM2.5),109,123,108,69,75,78,78,111,91,22,14,10,9,0.7,0.6
2026-03-25T0000,3340A,112.6005,34.6323,洛阳市,伊滨,细颗粒物(PM2.5),103,88,93,63,63,74,74,113,95,26,21,8,7,0.7,0.7
2026-03-25T0000,3341A,112.495,34.6338,洛阳市,中移产业园,细颗粒物(PM2.5),105,109,98,65,74,79,79,109,93,32,25,14,10,0.6,0.6
2026-03-25T0000,3593A,112.5736,34.8993,洛阳市,吉利监测站,细颗粒物(PM2.5),88,67,84,54,69,29,29,112,72,49,21,8,9,0.6,0.5
2026-03-25T0000,3635A,112.3678,34.6623,洛阳市,河科大西苑校区,细颗粒物(PM2.5),90,101,90,55,74,85,85,114,98,22,21,11,10,0.5,0.6
2026-03-25T0000,3636A,112.4387,34.678,洛阳市,英才小学,细颗粒物(PM2.5),106,116,115,66,74,85,85,112,93,27,27,13,11,0.8,0.8
2026-03-25T0000,4214A,112.460027,34.694929,洛阳市,春都路1号院,细颗粒物(PM2.5),102,103,89,62,74,81,81,112,92,26,25,12,10,0.8,0.8
2026-03-25T0000,2399A,114.051,33.5721,漯河市,三五一五工厂,细颗粒物(PM2.5),130,150,142,92,85,84,84,141,110,34,23,6,6,0.5,0.5
2026-03-25T0000,2400A,114.0055,33.5698,漯河市,漯河大学,细颗粒物(PM2.5),139,129,123,102,89,80,80,141,111,31,25,6,7,0.7,0.7
2026-03-25T0000,2401A,114.0134,33.5826,漯河市,市水利局,细颗粒物(PM2.5),132,122,116,95,85,83,83,133,107,28,24,6,6,0.6,0.7
2026-03-25T0000,2402A,114.0261,33.5697,漯河市,市广电局,细颗粒物(PM2.5),132,132,118,95,88,86,86,138,115,29,20,7,7,0.6,0.6
2026-03-25T0000,3478A,113.9691,33.568,漯河市,市图书馆,细颗粒物(PM2.5),137,150,138,100,88,86,86,130,101,22,24,6,7,0.7,0.7
2026-03-25T0000,4250A,114.089259,33.588274,漯河市,韶山路11号,细颗粒物(PM2.5),133,134,138,96,87,95,95,130,108,21,27,8,7,0.5,0.5
2026-03-25T0000,1798A,118.5084,31.6838,马鞍山市,湖东路四小,细颗粒物(PM2.5),98,64,65,59,58,36,36,53,37,29,27,7,8,0.8,0.7
2026-03-25T0000,1799A,118.5019,31.6449,马鞍山市,开发区,细颗粒物(PM2.5),82,60,65,51,53,26,26,51,34,36,30,4,6,0.8,0.6
2026-03-25T0000,3633A,118.4914,31.681,马鞍山市,雨山,细颗粒物(PM2.5),58,52,58,39,39,33,33,54,36,31,27,6,6,0.7,0.6
2026-03-25T0000,4191A,118.527362,31.722269,马鞍山市,慈湖高新区,细颗粒物(PM2.5),106,95,90,66,58,12,12,55,24,48,28,6,7,0.9,0.6
2026-03-25T0000,1686A,111.0285,21.469,茂名市,电白南海,,24,24,30,13,14,63,63,69,65,7,8,5,5,0.9,0.9
2026-03-25T0000,1687A,110.9294,21.6533,茂名市,茂石化七小,,31,31,37,19,20,51,51,67,55,13,13,6,8,0.4,0.5
2026-03-25T0000,1688A,110.9108,21.6688,茂名市,健康路,,26,24,30,18,18,55,55,73,59,11,11,4,6,0.5,0.6
2026-03-25T0000,1689A,110.8592,21.6826,茂名市,高岭,,34,34,38,20,18,53,53,70,55,11,12,4,4,/,/
2026-03-25T0000,3450A,111.0101,21.5165,茂名市,电白水东,,22,19,24,15,16,58,58,64,61,8,10,3,3,/,/
2026-03-25T0000,2540A,103.8414,30.0871,眉山市,气象局,颗粒物(PM10),60,64,50,25,22,42,42,117,87,27,25,6,8,0.6,0.7
2026-03-25T0000,3148A,103.829,30.0563,眉山市,区人社局,颗粒物(PM10),61,65,59,29,24,59,59,109,82,34,25,8,10,0.8,0.7
2026-03-25T0000,4148A,103.8836,30.0695,眉山市,眉职院,颗粒物(PM10),65,70,54,28,24,50,50,113,82,32,23,6,6,0.7,0.7
2026-03-25T0000,1690A,116.1248,24.3307,梅州市,梅江月梅,,40,32,35,28,28,45,45,94,61,18,14,/,/,/,/
2026-03-25T0000,1691A,116.0798,24.2719,梅州市,梅县新城,,45,41,39,31,30,37,37,91,52,26,17,8,9,0.6,0.6
2026-03-25T0000,3315A,116.1234,24.2994,梅州市,梅龙,,42,41,38,29,28,38,38,87,54,25,13,8,9,0.9,0.8
2026-03-25T0000,1878A,104.7775,31.4741,绵阳市,富乐山,颗粒物(PM10),66,72,44,26,24,80,80,120,104,13,14,12,7,0.7,0.7
2026-03-25T0000,1880A,104.6698,31.4668,绵阳市,高新区自来水公司,颗粒物(PM10),59,62,58,28,29,74,74,114,96,21,22,10,9,0.6,0.6
2026-03-25T0000,3491A,104.6899,31.5324,绵阳市,西科大附属小学,颗粒物(PM10),60,63,56,28,29,68,68,114,93,29,28,8,8,0.7,0.7
2026-03-25T0000,3492A,104.5647,31.5343,绵阳市,安州区旅游局,颗粒物(PM10),84,97,64,37,30,32,32,118,89,47,19,9,9,0.7,0.6
2026-03-25T0000,4146A,104.7092,31.4972,绵阳市,科技城新区公安局,颗粒物(PM10),70,77,54,28,26,72,72,109,96,21,24,9,8,0.7,0.7
2026-03-25T0000,4226A,104.765114,31.453094,绵阳市,绵阳市气象局,细颗粒物(PM2.5),100,112,56,60,30,52,52,104,86,32,24,33,10,0.8,0.7
2026-03-25T0000,1784A,129.61,44.561,牡丹江市,环保大楼,细颗粒物(PM2.5),112,109,60,73,48,10,10,111,56,58,26,11,4,1.2,0.6
2026-03-25T0000,1787A,129.6364,44.6075,牡丹江市,机车工厂,细颗粒物(PM2.5),90,96,80,55,55,8,8,103,46,51,32,7,6,0.9,0.7
2026-03-25T0000,1788A,129.6386,44.5462,牡丹江市,第一中学,细颗粒物(PM2.5),56,45,48,38,39,2,2,106,52,66,25,6,4,0.6,0.5
2026-03-25T0000,4287A,129.5992,44.5964,牡丹江市,东晓云街98号,细颗粒物(PM2.5),86,NA,81,53,62,47,47,105,58,19,24,4,5,0.7,0.8
2026-03-25T0000,2531A,105.0703,29.61,内江市,市监测站,细颗粒物(PM2.5),56,52,38,38,27,68,68,103,87,16,14,8,7,0.6,0.5
2026-03-25T0000,2533A,105.0657,29.5807,内江市,内江二中,细颗粒物(PM2.5),56,50,52,38,26,64,64,106,89,22,21,9,8,0.5,0.4
2026-03-25T0000,2534A,105.0407,29.5828,内江市,内江日报社,细颗粒物(PM2.5),58,52,39,39,25,51,51,108,89,33,18,14,14,0.5,0.5
2026-03-25T0000,4147A,105.0433,29.6105,内江市,玉峰路西段888号,细颗粒物(PM2.5),66,NA,35,43,29,72,72,109,95,24,16,8,8,0.4,0.4
2026-03-25T0000,2628A,92.0653,31.4846,那曲市,那曲监测站,,34,NA,18,14,19,108,108,102,100,7,13,8,10,0.5,0.7
2026-03-25T0000,4243A,92.0515,31.4787,那曲市,那曲市委宣传部,,37,NA,11,8,11,116,116,109,108,3,6,8,8,0.5,0.6
2026-03-25T0000,1291A,115.8887,28.7006,南昌市,省林业公司,,48,48,40,33,30,18,18,82,62,56,19,4,4,0.2,0.3
2026-03-25T0000,1292A,115.813,28.7443,南昌市,林科所,,44,44,41,24,27,34,34,78,51,18,18,7,7,0.5,0.5
2026-03-25T0000,1294A,115.8518,28.687,南昌市,建工学校,颗粒物(PM10),69,76,56,38,32,24,24,81,67,58,24,8,8,0.9,0.9
2026-03-25T0000,1295A,115.8926,28.6425,南昌市,象湖,颗粒物(PM10),60,63,37,37,31,7,7,86,69,72,20,8,7,0.9,0.9
2026-03-25T0000,3046A,115.9084,28.6062,南昌市,机电学校,颗粒物(PM10),74,83,58,41,31,19,19,86,62,52,19,4,4,0.8,0.7
2026-03-25T0000,3690A,115.9718,28.7032,南昌市,外国语学校,细颗粒物(PM2.5),76,55,42,48,43,38,38,88,72,31,19,7,7,0.7,0.8
2026-03-25T0000,4106A,115.7923,28.6873,南昌市,工业二路,颗粒物(PM10),67,73,60,36,32,1,1,75,47,63,22,4,4,0.8,0.8
2026-03-25T0000,4192A,115.931587,28.686774,南昌市,南京东路235号,细颗粒物(PM2.5),76,49,55,48,32,38,38,86,70,25,11,4,5,0.7,0.7
2026-03-25T0000,1906A,106.0791,30.8022,南充市,南充市委,,26,26,17,16,10,36,36,89,66,26,14,6,6,0.6,0.5
2026-03-25T0000,1907A,106.1038,30.8215,南充市,南充炼油厂,,37,37,22,14,9,39,39,84,64,20,14,5,5,0.4,0.4
2026-03-25T0000,4227A,106.108336,30.788436,南充市,梨树横街98号,,21,21,14,14,8,48,48,96,75,19,14,6,5,0.3,0.3
2026-03-25T0000,4304A,106.1172,30.843,南充市,清泉寺北路188号,,19,17,16,12,7,60,60,98,79,10,9,6,6,0.4,0.4
2026-03-25T0000,4305A,106.067,30.7616,南充市,同庆路1号,,24,24,17,15,11,22,22,94,69,40,14,6,6,0.6,0.5
2026-03-25T0000,1151A,118.8033,32.1085,南京市,迈皋桥,细颗粒物(PM2.5),108,82,71,68,55,37,37,76,65,34,29,NA,6,0.6,0.5
2026-03-25T0000,1152A,118.7487,32.057,南京市,草场门,细颗粒物(PM2.5),102,73,61,62,44,26,26,68,51,48,39,8,10,0.6,0.5
2026-03-25T0000,1154A,118.770105,32.004342,南京市,中华门,细颗粒物(PM2.5),86,70,68,53,47,26,26,67,43,32,26,4,5,1.1,0.9
2026-03-25T0000,1155A,118.8059,32.0329,南京市,瑞金路,细颗粒物(PM2.5),102,80,69,62,49,24,24,61,40,63,51,3,4,1.2,1.1
2026-03-25T0000,1156A,118.7946,32.0774,南京市,玄武湖,细颗粒物(PM2.5),104,75,72,64,52,24,24,60,50,36,27,9,9,1.0,0.9
2026-03-25T0000,1157A,118.6415,32.0964,南京市,浦口,细颗粒物(PM2.5),111,73,81,72,61,1,1,59,40,57,36,5,6,0.8,3.9
2026-03-25T0000,1158A,118.730129,32.000956,南京市,奥体中心,细颗粒物(PM2.5),94,90,71,57,47,28,28,71,47,36,29,6,7,0.5,0.5
2026-03-25T0000,1159A,118.9072,32.1047,南京市,仙林大学城,细颗粒物(PM2.5),96,83,74,58,54,20,20,60,43,49,35,7,8,0.8,0.7
2026-03-25T0000,3422A,118.8443,31.919,南京市,江宁彩虹桥,细颗粒物(PM2.5),72,49,59,46,42,36,36,70,40,34,35,4,4,0.9,0.9
2026-03-25T0000,3427A,118.8497,32.3599,南京市,六合雄州,细颗粒物(PM2.5),84,63,54,52,47,3,3,80,43,68,28,4,4,0.6,0.6
2026-03-25T0000,4086A,118.7641,32.0841,南京市,新模范马路66号,细颗粒物(PM2.5),102,88,72,62,47,17,17,60,50,54,37,4,4,1.3,1.1
2026-03-25T0000,4249A,118.8707617,31.34017673,南京市,汶溪路181号,,42,33,35,29,26,50,50,73,52,21,25,4,6,0.6,0.6
2026-03-25T0000,4312A,119.019,31.6512,南京市,中山西路1号,,46,44,58,32,47,37,37,53,49,16,19,4,4,0.7,0.7
2026-03-25T0000,1401A,108.3098,22.788,南宁市,二十一中,,28,21,36,19,23,42,42,76,63,10,12,5,9,0.7,0.7
2026-03-25T0000,1402A,108.3135,22.8529,南宁市,北湖,,41,41,36,25,28,49,49,82,66,11,11,4,4,0.8,0.7
2026-03-25T0000,1403A,108.3205,22.8222,南宁市,市监测站,,27,27,34,18,22,48,48,82,67,3,4,2,4,0.6,0.6
2026-03-25T0000,1404A,108.3828,22.8038,南宁市,大自然花园,,32,32,36,21,25,52,52,86,72,12,10,6,6,0.4,0.4
2026-03-25T0000,1406A,108.2397,22.8462,南宁市,区农职院,,35,35,35,21,21,43,43,80,64,14,16,6,6,0.7,0.5
2026-03-25T0000,1407A,108.3285,22.7356,南宁市,英华嘉园,,27,27,43,17,24,45,45,84,70,15,17,4,6,0.6,0.6
2026-03-25T0000,3401A,108.4829,22.762,南宁市,红星社区,,36,36,40,24,25,43,43,86,70,18,11,6,6,0.6,0.7
2026-03-25T0000,4132A,108.2927,23.1477,南宁市,起凤路9号,细颗粒物(PM2.5),62,62,42,41,29,57,57,88,71,8,11,4,4,0.5,0.5
2026-03-25T0000,4221A,108.2177,22.7774,南宁市,乐贤路16号,,39,39,39,20,22,40,40,84,68,19,17,5,4,0.8,0.7
2026-03-25T0000,2332A,118.1682,26.6371,南平市,南平市监测站,,10,10,19,3,11,32,32,81,47,11,9,3,3,0.6,0.5
2026-03-25T0000,2334A,118.1757,26.6276,南平市,南平七中,,21,21,21,6,10,10,10,82,42,18,9,2,2,0.7,0.6
2026-03-25T0000,1168A,120.9056,31.9669,南通市,狼山街道,NA,NA,NA,47,24,26,60,60,85,74,18,20,4,4,0.5,0.5
2026-03-25T0000,1170A,120.8635,32.0231,南通市,城中,,42,40,54,29,33,68,68,83,74,16,15,7,5,0.6,0.7
2026-03-25T0000,1171A,120.9376,31.9301,南通市,星湖花园,,32,29,40,22,24,67,67,84,72,19,18,4,4,0.4,0.4
2026-03-25T0000,1172A,120.8053,32.046,南通市,紫琅学院,,45,42,50,31,32,64,64,87,72,22,18,5,5,0.8,0.8
2026-03-25T0000,3291A,121.0631,32.0644,南通市,通州监测站,,39,34,42,27,28,71,71,92,78,14,12,2,3,0.5,0.6
2026-03-25T0000,3432A,120.9348,31.9874,南通市,环境教育馆,,35,31,45,24,27,60,60,83,72,18,17,4,5,0.5,0.6
2026-03-25T0000,4091A,120.8692,31.9885,南通市,洪江路,,39,34,44,27,33,67,67,84,73,17,16,5,5,0.7,0.7
2026-03-25T0000,2404A,112.5338,33.0086,南阳市,瓦房庄,颗粒物(PM10),72,80,103,41,61,70,70,120,94,19,14,5,5,0.7,0.7
2026-03-25T0000,2405A,112.5002,32.9734,南阳市,汉画馆,细颗粒物(PM2.5),98,93,110,59,77,32,32,122,81,51,21,6,6,0.6,0.7
2026-03-25T0000,2406A,112.5778,33.0144,南阳市,气象站,颗粒物(PM10),81,93,124,40,60,73,73,122,100,27,17,9,6,0.6,0.6
2026-03-25T0000,2407A,112.548,32.9687,南阳市,理工学院,颗粒物(PM10),72,80,105,45,65,72,72,116,93,15,14,6,6,0.5,0.6
2026-03-25T0000,4008A,112.5233,32.9921,南阳市,卧龙区政府,颗粒物(PM10),83,96,118,46,68,56,56,116,83,30,16,6,7,0.6,0.6
2026-03-25T0000,1234A,121.8352,29.9111,宁波市,区环保大楼,细颗粒物(PM2.5),72,52,36,46,19,65,65,78,54,24,43,6,7,0.4,0.4
2026-03-25T0000,1235A,121.5595,29.8208,宁波市,万里学院,,42,37,28,29,20,67,67,70,60,16,26,4,4,0.6,0.5
2026-03-25T0000,1236A,121.713,29.9564,宁波市,龙赛医院,,40,40,37,25,16,68,68,64,54,19,36,6,6,0.5,0.4
2026-03-25T0000,1240A,121.5855,29.8635,宁波市,太古小学,,35,34,31,24,17,70,70,80,66,22,30,3,4,0.6,0.6
2026-03-25T0000,1241A,121.5239,29.8673,宁波市,市环境监测中心,,50,44,35,35,23,64,64,69,59,22,32,6,7,0.6,0.6
2026-03-25T0000,2871A,121.6156,29.9015,宁波市,万里国际学校,,46,46,35,26,18,61,61,76,60,27,29,3,4,0.5,0.5
2026-03-25T0000,3710A,121.5593,29.8976,宁波市,白沙活动中心,,39,NA,25,27,20,65,65,74,63,22,27,4,4,0.4,0.3
2026-03-25T0000,4095A,121.8962,29.7529,宁波市,中科路88号,,42,31,26,29,15,70,70,103,72,22,23,7,6,0.5,0.5
2026-03-25T0000,2341A,119.5387,26.6611,宁德市,宁德市监测站,,35,NA,15,24,11,36,36,74,53,24,22,4,4,0.6,0.5
2026-03-25T0000,3209A,119.5231,26.6562,宁德市,宁德一中,,36,NA,17,25,12,33,33,72,49,19,18,4,4,0.4,0.3
2026-03-25T0000,2618A,98.859,25.8541,怒江傈僳族自治州,州监测站,,39,38,27,27,17,54,54,102,85,18,11,7,7,0.7,0.6
2026-03-25T0000,2619A,98.8607,25.8168,怒江傈僳族自治州,泸水一中,,30,25,25,21,19,34,34,91,59,24,17,5,5,0.7,0.6
2026-03-25T0000,1888A,101.6891,26.571,攀枝花市,弄弄坪,,32,24,28,14,12,100,100,126,113,10,17,3,8,0.5,0.9
2026-03-25T0000,1889A,101.577,26.5914,攀枝花市,河门口,,34,24,35,15,16,106,106,117,114,5,15,7,11,0.5,0.8
2026-03-25T0000,1891A,101.7365,26.4986,攀枝花市,仁和,,31,31,22,15,16,94,94,119,112,6,9,4,8,0.4,0.5
2026-03-25T0000,2835A,101.7222,26.567,攀枝花市,四十中小,,35,22,23,12,14,111,111,125,115,7,19,4,8,0.5,0.8
2026-03-25T0000,1604A,122.0303,41.1489,盘锦市,开发区,细颗粒物(PM2.5),72,52,99,46,101,108,108,144,121,19,22,6,7,0.4,0.7
2026-03-25T0000,1605A,122.0486,41.0883,盘锦市,兴隆台,细颗粒物(PM2.5),70,69,98,45,104,101,101,141,108,23,31,7,8,0.7,0.7
2026-03-25T0000,1606A,121.8297,41.1026,盘锦市,新生街道,细颗粒物(PM2.5),92,58,85,56,101,99,99,148,124,18,24,7,9,0.5,0.7
2026-03-25T0000,1832A,113.3257,33.7423,平顶山市,新华旅馆,细颗粒物(PM2.5),86,99,131,53,69,92,92,126,107,16,25,4,4,0.3,0.4
2026-03-25T0000,1833A,113.2917,33.737,平顶山市,规划设计院,颗粒物(PM10),86,100,141,42,72,90,90,123,105,20,22,6,8,0.5,0.6
2026-03-25T0000,1834A,113.182,33.7738,平顶山市,平顶山工学院,颗粒物(PM10),81,93,123,43,68,97,97,131,112,11,16,5,7,0.5,0.6
2026-03-25T0000,3594A,112.8736,33.9068,平顶山市,石龙区,颗粒物(PM10),77,87,104,47,55,96,96,132,111,16,28,7,8,0.5,0.5
2026-03-25T0000,4116A,113.284,33.7139,平顶山市,姚电大道23号,颗粒物(PM10),88,103,140,49,68,84,84,129,97,29,32,6,8,0.3,0.4
2026-03-25T0000,2656A,106.6633,35.5338,平凉市,聚贤嘉苑,颗粒物(PM10),90,105,114,40,41,35,35,113,89,45,29,8,8,0.7,0.6
2026-03-25T0000,2657A,106.7021,35.5307,平凉市,博物馆,颗粒物(PM10),96,114,124,54,47,36,36,118,86,46,30,10,11,0.6,0.6
2026-03-25T0000,2348A,113.8384,27.6436,萍乡市,中医院,颗粒物(PM10),65,71,25,39,16,42,42,60,52,20,14,8,5,1.6,1.1
2026-03-25T0000,2350A,113.8677,27.6438,萍乡市,市环保局,细颗粒物(PM2.5),62,43,21,41,18,46,46,66,58,14,11,9,6,0.9,1
2026-03-25T0000,2351A,113.8663,27.6202,萍乡市,安源区政府,细颗粒物(PM2.5),56,40,21,38,20,42,42,49,46,13,14,9,6,0.5,0.7
2026-03-25T0000,4107A,113.8686,27.6668,萍乡市,联洪村委会,细颗粒物(PM2.5),54,NA,23,37,14,45,45,51,48,13,13,6,3,1.3,0.6
2026-03-25T0000,2319A,119.0142,25.4324,莆田市,荔城区仓后路,细颗粒物(PM2.5),54,41,27,37,14,43,43,105,76,35,20,/,/,/,/
2026-03-25T0000,2320A,119.0016,25.4553,莆田市,莆田市监测站,,36,NA,28,25,13,52,52,109,81,13,14,3,3,0.4,0.5
2026-03-25T0000,2321A,119.112,25.4561,莆田市,涵江区六中,,45,40,21,31,9,10,10,108,70,71,21,/,/,0.5,0.5
2026-03-25T0000,2322A,119.1014,25.3215,莆田市,秀屿区政府,,35,34,24,24,14,80,80,120,93,10,11,4,4,0.3,0.4
2026-03-25T0000,2392A,115.0312,35.7636,濮阳市,环保局,细颗粒物(PM2.5),132,109,99,95,78,95,95,122,112,19,19,6,8,0.7,0.7
2026-03-25T0000,3021A,115,35.7667,濮阳市,濮水河管理处,细颗粒物(PM2.5),121,132,122,83,78,93,93,131,116,22,21,8,10,0.7,0.6
2026-03-25T0000,4118A,115.0552,35.7816,濮阳市,中原东路68号,细颗粒物(PM2.5),125,136,125,87,78,95,95,124,113,14,14,6,9,0.6,0.7
2026-03-25T0000,4216A,115.0923632,35.76857718,濮阳市,任丘路479号,细颗粒物(PM2.5),124,127,124,86,81,79,79,126,102,28,24,8,8,0.8,0.9
2026-03-25T0000,2601A,100.9801,22.7634,普洱市,市环保局,细颗粒物(PM2.5),113,144,87,74,47,116,116,153,142,14,13,7,7,0.9,0.7
2026-03-25T0000,2602A,100.9763,22.8237,普洱市,普洱第二中学,细颗粒物(PM2.5),111,117,80,72,49,101,101,153,135,20,19,6,6,0.7,0.5
2026-03-25T0000,3345A,131.0413,45.7795,七台河市,中波台,细颗粒物(PM2.5),150,NA,146,115,119,65,65,139,102,24,26,8,8,0.6,0.7
2026-03-25T0000,3637A,131.0136,45.7688,七台河市,人民广场,细颗粒物(PM2.5),129,105,166,91,106,64,64,122,93,27,33,11,11,0.8,0.9
2026-03-25T0000,3684A,130.8639,45.8144,七台河市,新建矿广场,细颗粒物(PM2.5),183,156,178,138,122,43,43,124,76,40,37,77,17,0.9,0.9
2026-03-25T0000,1779A,123.9307,47.3641,齐齐哈尔市,安居小区,细颗粒物(PM2.5),137,183,178,100,78,102,102,128,116,18,20,14,12,1.0,0.9
2026-03-25T0000,1780A,123.9497,47.3389,齐齐哈尔市,中心广场,细颗粒物(PM2.5),132,194,192,95,83,101,101,125,115,18,21,16,13,1.1,1.1
2026-03-25T0000,1781A,123.9483,47.3229,齐齐哈尔市,农牧车辆厂,细颗粒物(PM2.5),136,188,178,99,87,96,96,130,117,18,17,10,10,0.5,0.4
2026-03-25T0000,1783A,123.9442,47.2994,齐齐哈尔市,市环境监测站,细颗粒物(PM2.5),134,201,182,97,87,91,91,124,110,18,17,6,5,0.9,0.8
2026-03-25T0000,3662A,123.6341,47.2079,齐齐哈尔市,富区青少年活动中心,细颗粒物(PM2.5),208,255,205,158,106,87,87,136,104,23,16,9,6,1.3,0.8
2026-03-25T0000,2591A,107.9765,26.5724,黔东南苗族侗族自治州,市环境监测站,,18,16,11,12,10,38,38,58,48,10,9,2,3,0.7,0.7
2026-03-25T0000,2881A,107.8909,26.531,黔东南苗族侗族自治州,凯里学院,,20,14,10,14,8,46,46,62,55,10,8,5,4,0.9,0.9
2026-03-25T0000,2593A,107.5223,26.2371,黔南布依族苗族自治州,小围寨,,22,NA,14,15,15,47,47,60,54,5,6,4,5,0.6,0.6
2026-03-25T0000,3538A,107.5175,26.2977,黔南布依族苗族自治州,沙坝,,19,17,22,13,16,38,38,57,46,6,6,4,5,0.5,0.9
2026-03-25T0000,2589A,104.9022,25.0943,黔西南布依族苗族自治州,场坝街,,49,49,36,25,30,66,66,108,90,10,8,9,7,0.5,0.4
2026-03-25T0000,2590A,104.8812,25.0994,黔西南布依族苗族自治州,坪东大道,,46,39,35,32,30,63,63,105,89,11,8,8,6,0.6,0.5
2026-03-25T0000,2502A,108.6238,21.9667,钦州市,市环保站,,36,36,38,20,19,38,38,70,46,18,15,5,6,0.4,0.6
2026-03-25T0000,2503A,108.655,21.9481,钦州市,沙埠小学,,48,48,37,24,20,12,12,67,47,38,18,4,4,0.8,0.6
2026-03-25T0000,2504A,108.5989,21.7435,钦州市,港区一小,颗粒物(PM10),68,74,50,22,22,36,36,65,52,14,11,2,4,0.5,0.7
2026-03-25T0000,3404A,108.5959,21.9634,钦州市,北职校,,18,17,37,12,21,48,48,69,54,11,15,3,6,0.4,0.5
2026-03-25T0000,1046A,119.5247,39.9346,秦皇岛市,建设大厦,细颗粒物(PM2.5),202,202,149,152,120,68,68,118,108,44,31,28,16,2.0,1.2
2026-03-25T0000,3132A,119.5979,39.938,秦皇岛市,文明里,细颗粒物(PM2.5),183,168,169,138,128,93,93,116,114,34,42,15,13,1.1,1
2026-03-25T0000,4066A,119.7458,39.9952,秦皇岛市,南园路157号,细颗粒物(PM2.5),160,156,171,122,141,98,98,115,113,29,52,8,12,0.7,0.9
2026-03-25T0000,4067A,119.5131,39.8858,秦皇岛市,翠岛大街1号,细颗粒物(PM2.5),189,152,149,142,132,78,78,121,106,39,45,16,14,1.4,1.1
2026-03-25T0000,4198A,119.509013,39.825305,秦皇岛市,北戴河轮滑馆,细颗粒物(PM2.5),136,124,172,99,130,110,110,112,112,50,61,7,8,0.6,0.9
2026-03-25T0000,1310A,120.404,36.0625,青岛市,市南区东部子站,细颗粒物(PM2.5),103,73,81,63,68,92,92,93,80,10,21,8,9,0.7,0.7
2026-03-25T0000,1311A,120.362344,36.10282,青岛市,四方区子站,细颗粒物(PM2.5),113,85,82,74,67,86,86,111,89,19,24,5,6,0.8,0.8
2026-03-25T0000,1312A,120.294373,36.054183,青岛市,市南区西部子站,细颗粒物(PM2.5),102,68,84,62,74,88,88,83,76,10,28,3,4,0.7,0.8
2026-03-25T0000,1313A,120.4581,36.0858,青岛市,崂山区子站,细颗粒物(PM2.5),88,80,78,54,59,85,85,91,85,26,29,7,8,0.7,0.7
2026-03-25T0000,1315A,120.3945,36.3083,青岛市,城阳区子站,细颗粒物(PM2.5),96,92,105,58,72,73,73,113,83,41,39,6,6,1.0,0.9
2026-03-25T0000,3642A,120.3454,36.0735,青岛市,市北区南部,细颗粒物(PM2.5),104,74,81,64,61,98,98,104,87,4,15,2,2,1.1,1
2026-03-25T0000,3643A,120.3897,36.18,青岛市,李沧区北部,细颗粒物(PM2.5),105,80,83,65,61,81,81,114,89,30,30,8,8,0.8,0.8
2026-03-25T0000,4110A,120.5222,36.4089,青岛市,盟旺路653号,细颗粒物(PM2.5),102,82,85,62,63,89,89,127,96,9,13,2,3,0.8,0.8
2026-03-25T0000,4290A,120.196923,35.954556,青岛市,珠江路669号,细颗粒物(PM2.5),103,75,87,63,73,89,89,101,91,13,18,4,4,0.7,0.7
2026-03-25T0000,4291A,120.0424,35.8656,青岛市,黄岛区人民政府广场,细颗粒物(PM2.5),94,92,84,57,59,53,53,93,78,25,19,7,7,0.8,0.7
2026-03-25T0000,1703A,113.0218,23.7086,清远市,凤城街办,细颗粒物(PM2.5),62,62,55,41,40,27,27,103,68,49,31,/,/,/,/
2026-03-25T0000,3025A,113.0479,23.6343,清远市,技师学院,细颗粒物(PM2.5),78,84,63,49,38,10,10,114,71,75,32,6,5,0.6,0.5
2026-03-25T0000,3318A,112.9898,23.7403,清远市,清新太和,,37,37,57,20,35,62,62,114,86,14,22,7,7,0.5,0.6
2026-03-25T0000,3455A,113.076,23.72,清远市,清城东城,颗粒物(PM10),60,63,63,37,39,32,32,116,72,25,25,/,/,/,/
2026-03-25T0000,2661A,107.6325,35.7357,庆阳市,庆阳五中,颗粒物(PM10),101,122,103,57,47,98,98,114,106,22,17,6,6,0.4,0.4
2026-03-25T0000,2662A,107.6361,35.7067,庆阳市,市环保局,细颗粒物(PM2.5),102,114,96,62,49,99,99,119,113,23,18,7,10,0.6,0.6
2026-03-25T0000,1916A,103.7897,25.5036,曲靖市,环境监测站,细颗粒物(PM2.5),52,44,39,36,23,123,123,154,147,10,13,7,8,0.5,0.2
2026-03-25T0000,1917A,103.8013,25.5357,曲靖市,烟厂办公区,,50,50,38,32,22,108,108,141,134,9,11,4,4,0.6,0.5
2026-03-25T0000,3376A,103.7926,25.4651,曲靖市,南苑二区,细颗粒物(PM2.5),60,58,39,40,22,106,106,133,129,12,13,4,4,0.6,0.5
2026-03-25T0000,3377A,103.7442,25.5259,曲靖市,曲靖师范学院,细颗粒物(PM2.5),66,51,44,43,30,123,123,147,142,7,16,2,3,0.5,0.5
2026-03-25T0000,1264A,118.8694,28.94,衢州市,环保大楼,,20,18,20,14,16,7,7,54,24,35,21,/,/,/,/
2026-03-25T0000,1266A,118.8622,28.9809,衢州市,衢州学院,,23,19,15,16,13,12,12,57,28,35,22,3,3,0.4,0.4
2026-03-25T0000,4097A,118.9646,28.9832,衢州市,衢州三中,,27,10,17,8,14,0,0,48,30,53,19,6,6,0.6,0.5
2026-03-25T0000,1611A,118.5818,24.9116,泉州市,涂山街,,36,30,29,25,18,56,56,102,73,23,20,3,4,0.6,0.7
2026-03-25T0000,1612A,118.597,24.8976,泉州市,津头埔,,43,34,28,30,20,46,46,106,73,28,20,3,4,0.6,0.6
2026-03-25T0000,1613A,118.6669,24.9422,泉州市,万安,,42,35,27,29,19,34,34,105,68,38,18,3,4,0.5,0.6
2026-03-25T0000,4105A,118.6355,24.9148,泉州市,霞新路6号,,39,39,26,27,18,42,42,97,68,26,18,/,/,0.5,0.6
2026-03-25T0000,2626A,88.8873,29.2723,日喀则市,日喀则监测站,颗粒物(PM10),59,62,21,3,5,113,113,122,119,15,7,7,7,0.3,0.5
2026-03-25T0000,3726A,88.8775,29.2425,日喀则市,林业技术推广中心,,45,27,18,3,2,142,142,138,138,3,4,4,5,0.3,0.4
2026-03-25T0000,1659A,119.4711,35.421,日照市,监测站,细颗粒物(PM2.5),108,90,112,68,77,58,58,75,55,36,55,8,8,0.8,0.8
2026-03-25T0000,1660A,119.523,35.4216,日照市,市政府广场,细颗粒物(PM2.5),108,100,101,68,75,36,36,93,72,65,27,6,6,0.7,0.7
2026-03-25T0000,1661A,119.5511,35.4113,日照市,港务局,细颗粒物(PM2.5),113,139,96,74,68,18,18,96,70,76,26,4,5,0.8,0.7
2026-03-25T0000,3507A,119.5326,35.4627,日照市,职业技术学院,细颗粒物(PM2.5),105,85,96,65,72,63,63,99,87,27,26,8,7,0.9,0.9
2026-03-25T0000,3604A,119.3267,35.1043,日照市,岚山环保分局,颗粒物(PM10),65,70,110,38,67,78,78,87,57,36,42,10,13,0.6,0.8
2026-03-25T0000,1835A,111.1922,34.7752,三门峡市,市政府,颗粒物(PM10),60,64,64,38,47,25,25,98,65,46,28,7,8,0.4,0.5
2026-03-25T0000,1836A,111.1588,34.794,三门峡市,开发区,细颗粒物(PM2.5),80,76,80,50,50,18,18,103,82,51,16,10,10,0.5,0.4
2026-03-25T0000,3039A,111.1911,34.7829,三门峡市,三门峡市第一小学,颗粒物(PM10),59,62,68,34,49,42,42,105,78,36,25,11,13,0.5,0.5
2026-03-25T0000,3598A,111.1031,34.719,三门峡市,富达温泉假日酒店,细颗粒物(PM2.5),72,60,70,46,50,42,42,103,76,22,21,12,13,0.6,0.6
2026-03-25T0000,2324A,117.621,26.2626,三明市,三钢,,19,19,38,9,27,25,25,91,47,21,18,5,10,1.9,1.2
2026-03-25T0000,2325A,117.6352,26.2714,三明市,三明二中,,22,22,36,3,24,24,24,90,52,19,15,2,7,0.8,0.7
