timepoint,stationcode,longitude,latitude,area,positionname,primarypollutant,aqi,pm10,pm10_24h,pm2_5,pm2_5_24h,o3,o3_24h,o3_8h,o3_8h_24h,no2,no2_24h,so2,so2_24h,co,co_24h
2025-01-23T1400,2566A,102.1879,31.914,阿坝藏族羌族自治州,州农科所,,27,27,32,6,10,75,,51,51,6,15,6,6,0.9,0.9
2025-01-23T1400,2568A,102.2502,31.8896,阿坝藏族羌族自治州,马师校,,23,13,20,3,15,72,,42,42,20,25,6,6,0.5,0.5
2025-01-23T1400,3994A,102.2165,31.9024,阿坝藏族羌族自治州,马尔康中学西区,,25,6,25,6,14,77,,48,48,6,13,5,5,0.3,0.4
2025-01-23T1400,2695A,80.292,41.1694,阿克苏地区,电视台,细颗粒物(PM2.5),85,102,152,63,102,65,,21,21,26,62,7,5,0.8,2.1
2025-01-23T1400,2696A,80.2613,41.1551,阿克苏地区,艺术中心,细颗粒物(PM2.5),122,140,144,92,94,45,,24,24,43,50,4,4,1.6,1.8
2025-01-23T1400,2204A,105.6467,38.8363,阿拉善盟,西城区西花园,颗粒物(PM10),53,55,60,29,32,88,,89,89,16,27,18,14,0.9,0.9
2025-01-23T1400,2205A,105.6985,38.8411,阿拉善盟,蒙二幼,,,60,43,,20,85,,83,82,17,21,9,8,0.9,0.8
2025-01-23T1400,2206A,105.724,38.8516,阿拉善盟,环保局新楼,,36,36,23,18,12,90,,102,101,11,9,9,8,0.6,0.5
2025-01-23T1400,2708A,88.1264,47.8517,阿勒泰地区,市站,,20,12,18,3,13,63,,59,58,16,26,13,11,0.3,0.4
2025-01-23T1400,2630A,80.1161,32.5,阿里地区,阿里监测站,,38,6,7,3,3,119,,105,105,1,2,9,9,0.5,0.6
2025-01-23T1400,3192A,80.0903,32.5028,阿里地区,阿里藏医院,,33,17,9,3,2,104,,96,96,1,1,5,6,0.6,0.5
2025-01-23T1400,2642A,109.0318,32.6537,安康市,香溪洞,细颗粒物(PM2.5),209,178,138,159,128,101,,116,107,23,31,14,13,1.2,1.2
2025-01-23T1400,2644A,109.0072,32.6975,安康市,汉滨区检察院,细颗粒物(PM2.5),227,196,161,177,132,110,,69,69,22,45,11,8,1.1,1.4
2025-01-23T1400,4054A,109.0325,32.6913,安康市,市邮政管理局,细颗粒物(PM2.5),218,201,189,168,154,99,,67,67,26,53,10,10,1.1,1.7
2025-01-23T1400,2291A,117.0809,30.5177,安庆市,环科院,细颗粒物(PM2.5),215,206,199,165,163,139,,95,92,28,35,15,13,1.3,1.2
2025-01-23T1400,2292A,117.0331,30.5119,安庆市,马山宾馆,细颗粒物(PM2.5),218,195,193,168,164,140,,102,100,27,37,16,15,1.5,1.3
2025-01-23T1400,2294A,116.9896,30.6145,安庆市,安庆大学,细颗粒物(PM2.5),219,204,200,169,159,119,,109,100,29,34,14,12,1.3,1.1
2025-01-23T1400,3173A,117.0598,30.5351,安庆市,市人大,细颗粒物(PM2.5),214,203,210,164,161,135,,99,98,32,44,15,13,1.3,1.2
2025-01-23T1400,3122A,105.9606,26.2611,安顺市,伍家关,细颗粒物(PM2.5),70,69,74,51,50,105,,140,117,12,13,9,13,1.0,0.9
2025-01-23T1400,3123A,105.9408,26.2431,安顺市,凤凰山,细颗粒物(PM2.5),80,78,77,59,58,100,,131,109,16,16,14,19,0.7,0.7
2025-01-23T1400,3124A,105.9439,26.2564,安顺市,金钟山,细颗粒物(PM2.5),82,84,78,60,54,99,,129,110,16,14,16,19,0.9,0.9
2025-01-23T1400,3125A,105.8983,26.2481,安顺市,娄家坡,细颗粒物(PM2.5),72,72,73,52,57,110,,126,112,13,16,3,14,0.8,0.8
2025-01-23T1400,1818A,114.4839,36.0621,安阳市,棉研所,细颗粒物(PM2.5),93,90,78,69,47,67,,33,33,23,33,12,12,0.6,0.7
2025-01-23T1400,1819A,114.3551,36.1017,安阳市,红庙街,细颗粒物(PM2.5),63,47,64,45,50,61,,42,42,16,17,7,9,0.7,0.7
2025-01-23T1400,1820A,114.361,36.0681,安阳市,银杏小区,细颗粒物(PM2.5),65,52,67,47,51,62,,43,43,23,25,6,9,0.7,0.8
2025-01-23T1400,3141A,114.3922,36.0878,安阳市,信访局,细颗粒物(PM2.5),70,62,69,51,43,62,,44,44,24,23,5,8,0.6,0.5
2025-01-23T1400,3669A,114.4705,36.0637,安阳市,左辅环卫站,细颗粒物(PM2.5),89,87,84,66,51,73,,43,43,19,24,7,7,0.6,0.6
2025-01-23T1400,3703A,114.2917,36.0949,安阳市,安钢职工学校,细颗粒物(PM2.5),73,74,75,53,52,65,,40,40,30,38,16,16,1.4,1.2
2025-01-23T1400,1748A,123.044,41.1196,鞍山市,深沟寺,,42,42,62,23,42,64,,47,47,13,21,11,9,0.5,0.7
2025-01-23T1400,1749A,123.011,41.0931,鞍山市,太阳城,,29,29,65,18,43,62,,49,49,18,28,6,6,0.6,0.8
2025-01-23T1400,1750A,123.0485,41.1442,鞍山市,太平,,41,41,88,21,57,69,,38,38,19,37,13,12,0.7,1.1
2025-01-23T1400,1751A,122.9642,41.0971,鞍山市,铁西三道街,,47,47,104,18,63,54,,37,37,34,43,34,13,1.1,1.2
2025-01-23T1400,1753A,123.022,41.0821,鞍山市,明达新区,,26,26,63,17,43,69,,54,54,18,29,12,12,0.4,0.8
2025-01-23T1400,1754A,123.1289,41.0228,鞍山市,千山,,,,50,,23,,,39,,,16,,5,,0.4
2025-01-23T1400,4201A,122.9446,41.0826,鞍山市,兴盛南路290号,,43,43,137,19,87,43,,30,30,42,47,27,17,0.8,1.4
2025-01-23T1400,2195A,107.4212,40.761,巴彦淖尔市,附二中,,,114,96,48,49,50,,26,24,,48,18,15,0.9,0.9
2025-01-23T1400,2196A,107.37,40.7372,巴彦淖尔市,市环保大楼,颗粒物(PM10),72,93,82,36,44,61,,34,34,21,51,34,11,0.7,0.7
2025-01-23T1400,1956A,86.1472,41.7538,巴音郭楞蒙古自治州,孔雀公园,细颗粒物(PM2.5),95,104,93,71,66,70,,37,37,36,47,7,5,1.1,1.1
2025-01-23T1400,1957A,86.1972,41.7166,巴音郭楞蒙古自治州,棉纺厂,颗粒物(PM10),87,124,116,56,62,61,,30,30,29,58,4,3,0.8,1
2025-01-23T1400,1958A,86.2357,41.7173,巴音郭楞蒙古自治州,经济开发区,颗粒物(PM10),68,85,79,45,52,67,,52,52,24,37,5,4,0.8,0.8
2025-01-23T1400,2914A,106.7677,31.8794,巴中市,苏山坪,细颗粒物(PM2.5),198,168,138,148,121,28,,32,31,15,18,8,5,1.2,0.9
2025-01-23T1400,3182A,106.7656,31.8545,巴中市,丽阳花园,细颗粒物(PM2.5),190,172,192,143,149,4,,3,3,41,39,6,5,1.9,1.9
2025-01-23T1400,3183A,106.7418,31.8654,巴中市,圣泉水务公司,细颗粒物(PM2.5),178,155,152,134,126,5,,4,4,33,35,5,5,1.3,1.3
2025-01-23T1400,3616A,106.7616,31.8344,巴中市,市中心医院,细颗粒物(PM2.5),208,188,203,158,170,4,,3,3,41,41,5,5,1.9,1.9
2025-01-23T1400,2235A,122.7911,45.6077,白城市,洮北区环保局,细颗粒物(PM2.5),78,,87,57,88,69,,32,32,12,31,5,5,0.4,0.8
2025-01-23T1400,2236A,122.8738,45.5725,白城市,市环保局,细颗粒物(PM2.5),60,56,84,43,67,71,,31,31,10,39,3,3,0.6,0.7
2025-01-23T1400,2231A,126.4219,41.9171,白山市,喜丰,,29,29,64,12,32,82,,46,46,8,23,18,36,0.5,0.7
2025-01-23T1400,2232A,126.4077,41.9419,白山市,环保局,,,,70,,35,82,,42,42,,13,18,21,,0.8
2025-01-23T1400,2647A,104.1724,36.5446,白银市,第三小学,细颗粒物(PM2.5),105,,113,79,88,,,35,34,26,46,,46,1.2,1.4
2025-01-23T1400,2648A,104.1465,36.5482,白银市,动力公司,细颗粒物(PM2.5),90,74,84,67,65,82,,50,50,24,36,24,33,1.2,1.2
2025-01-23T1400,2512A,106.6103,23.9011,百色市,市监测站,细颗粒物(PM2.5),99,94,72,74,53,78,,67,60,27,22,19,12,1.2,1.1
2025-01-23T1400,2513A,106.6538,23.8859,百色市,市中心血站,细颗粒物(PM2.5),117,103,72,88,58,74,,78,64,32,24,18,13,1.1,0.9
2025-01-23T1400,3406A,106.6085,23.8798,百色市,祈福高中,,,,81,,48,,,114,,,31,,8,,1.2
2025-01-23T1400,2270A,117.396,32.939,蚌埠市,工人疗养院,细颗粒物(PM2.5),94,85,98,70,73,39,,53,52,34,26,3,5,0.8,0.8
2025-01-23T1400,2271A,117.3605,32.9427,蚌埠市,百货大楼,细颗粒物(PM2.5),93,89,97,69,69,39,,50,49,30,23,4,6,0.5,0.5
2025-01-23T1400,2273A,117.4185,32.8911,蚌埠市,蚌埠学院,,,,90,,77,59,,51,51,14,38,6,9,0.6,0.6
2025-01-23T1400,2274A,117.3533,32.9673,蚌埠市,淮上区政府,细颗粒物(PM2.5),83,83,96,61,74,49,,51,51,21,23,7,8,0.8,0.8
2025-01-23T1400,2275A,117.3145,32.8977,蚌埠市,高新区,细颗粒物(PM2.5),84,73,88,62,75,45,,51,48,34,32,6,8,0.8,0.8
2025-01-23T1400,3715A,117.3092,32.9314,蚌埠市,蚌埠田家炳中学,细颗粒物(PM2.5),97,92,105,72,74,40,,54,52,31,28,5,7,0.6,0.5
2025-01-23T1400,1585A,109.8756,40.6532,包头市,市环境监测站,细颗粒物(PM2.5),110,111,110,83,66,52,,24,24,61,63,70,30,2.1,1.9
2025-01-23T1400,1587A,109.9991,40.5842,包头市,包头八中,细颗粒物(PM2.5),139,165,127,106,87,41,,20,20,51,62,73,35,2.0,2.5
2025-01-23T1400,1588A,109.8538,40.6821,包头市,青山宾馆,细颗粒物(PM2.5),114,104,97,86,72,43,,23,23,69,58,47,25,2.4,2
2025-01-23T1400,1589A,109.8642,40.6288,包头市,惠龙物流,细颗粒物(PM2.5),105,111,117,79,76,66,,28,28,53,65,63,30,1.5,2.1
2025-01-23T1400,1590A,110.0377,40.5546,包头市,东河鸿龙湾,细颗粒物(PM2.5),109,112,139,82,91,53,,21,21,41,56,32,26,1.2,2
2025-01-23T1400,3283A,109.9154,40.5685,包头市,滨河大厦,细颗粒物(PM2.5),89,100,106,66,68,63,,23,23,35,65,35,30,1.2,1.9
2025-01-23T1400,3419A,109.9447,40.6261,包头市,包头市委党校,细颗粒物(PM2.5),127,117,104,96,54,46,,21,21,61,65,80,24,2.6,2.1
2025-01-23T1400,3683A,109.8331,40.6576,包头市,昆区政府,细颗粒物(PM2.5),135,110,110,103,77,58,,25,25,62,63,53,35,2.0,2.2
2025-01-23T1400,1930A,107.185,34.3063,宝鸡市,庙沟村,细颗粒物(PM2.5),267,242,214,217,197,52,,45,45,50,50,12,14,1.6,1.5
2025-01-23T1400,1931A,107.0708,34.3017,宝鸡市,竹园沟,细颗粒物(PM2.5),252,257,205,202,176,,,45,45,,39,15,12,1.5,1.4
2025-01-23T1400,1932A,107.1906,34.3672,宝鸡市,三陆医院,细颗粒物(PM2.5),249,229,228,199,197,72,,55,55,47,54,15,15,1.6,1.6
2025-01-23T1400,1933A,107.1431,34.3547,宝鸡市,监测站,细颗粒物(PM2.5),250,251,232,200,195,64,,47,47,42,46,16,15,1.7,1.7
2025-01-23T1400,1934A,107.1186,34.3739,宝鸡市,技工学校,细颗粒物(PM2.5),255,240,210,205,184,64,,50,50,46,47,14,14,1.6,1.5
2025-01-23T1400,1935A,107.3906,34.3528,宝鸡市,陈仓区环保局家属楼,细颗粒物(PM2.5),220,221,234,170,209,87,,50,50,37,59,16,17,1.4,1.6
2025-01-23T1400,1936A,107.2058,34.3497,宝鸡市,文理学院,细颗粒物(PM2.5),241,242,248,191,208,75,,55,55,42,50,15,15,1.5,1.6
2025-01-23T1400,1937A,107.2386,34.3622,宝鸡市,三迪小学,细颗粒物(PM2.5),242,230,220,192,198,66,,48,48,44,48,16,17,1.6,1.6
2025-01-23T1400,1051A,115.493,38.8632,保定市,游泳馆,,,,64,,44,57,,25,25,16,42,6,8,0.6,0.8
2025-01-23T1400,1052A,115.5213,38.8959,保定市,华电二区,细颗粒物(PM2.5),95,,65,71,52,55,,21,21,24,37,5,3,0.5,0.6
2025-01-23T1400,1053A,115.4713,38.9108,保定市,接待中心,细颗粒物(PM2.5),65,,73,47,54,51,,25,25,29,43,3,4,0.5,0.5
2025-01-23T1400,1054A,115.4612,38.8416,保定市,地表水厂,细颗粒物(PM2.5),53,52,73,37,49,76,,35,35,27,46,3,3,0.4,0.5
2025-01-23T1400,3581A,115.31981,38.95208,保定市,满城区生态环境分局,颗粒物(PM10),60,70,93,41,62,72,,36,36,21,44,6,7,0.6,1
2025-01-23T1400,3582A,115.47694,38.76408,保定市,清苑区第二中学,颗粒物(PM10),80,110,93,35,57,73,,26,26,17,43,6,7,0.4,0.6
2025-01-23T1400,3583A,115.62909,39.02311,保定市,徐水物探局,,42,,59,29,51,70,,28,28,24,46,10,10,0.5,0.6
2025-01-23T1400,4004A,115.4202,38.8656,保定市,双鹰农机,颗粒物(PM10),56,61,70,32,49,64,,33,33,23,37,3,3,0.4,0.8
2025-01-23T1400,4034A,115.5150,38.8590,保定市,植保所站,,,,73,,48,35,,16,16,,44,5,5,,0.6
2025-01-23T1400,2594A,99.1678,25.1081,保山市,市环境监测站,,28,28,32,15,20,87,,66,66,5,8,5,5,0.3,0.4
2025-01-23T1400,2595A,99.1711,25.1328,保山市,市环保局,,40,34,33,28,24,89,,71,71,4,5,6,6,0.3,0.3
2025-01-23T1400,1866A,109.2262,21.588,北海市,牛尾岭水库,,,57,60,44,60,47,,50,50,,11,5,5,0.5,0.5
2025-01-23T1400,1867A,109.1436,21.4086,北海市,海滩公园,细颗粒物(PM2.5),77,68,63,56,45,134,,110,106,13,14,6,7,1.0,0.9
2025-01-23T1400,1868A,109.0981,21.4661,北海市,新市环保局,细颗粒物(PM2.5),52,49,57,36,43,113,,104,98,14,19,5,7,0.5,0.7
2025-01-23T1400,1869A,109.1778,21.5233,北海市,北海工业园,颗粒物(PM10),65,80,87,39,70,119,,88,88,8,16,7,9,0.7,0.8
2025-01-23T1400,3400A,109.1911,21.4415,北海市,龙潭自来水厂,细颗粒物(PM2.5),82,62,60,60,58,112,,92,92,10,11,6,6,0.8,0.8
2025-01-23T1400,1001A,116.3621,39.8784,北京市,万寿西宫,细颗粒物(PM2.5),59,49,63,42,46,58,,21,20,34,50,8,8,0.5,0.8
2025-01-23T1400,1002A,116.2202,40.2915,北京市,定陵,,,,,,,,,,,,,,,,
2025-01-23T1400,1003A,116.4174,39.9289,北京市,东四,,,,76,,49,,,35,,,40,,7,,0.8
2025-01-23T1400,1004A,116.4072,39.8863,北京市,天坛,细颗粒物(PM2.5),60,63,72,43,55,61,,22,22,23,37,5,3,0.6,0.8
2025-01-23T1400,1005A,116.462,39.9365,北京市,农展馆,细颗粒物(PM2.5),92,97,82,68,55,44,,24,17,51,48,5,6,1.1,1.1
2025-01-23T1400,1006A,116.3392,39.9295,北京市,官园,细颗粒物(PM2.5),72,76,76,52,49,43,,18,16,46,45,8,8,0.8,0.8
2025-01-23T1400,1007A,116.2878,39.9611,北京市,海淀万柳,细颗粒物(PM2.5),93,97,78,69,52,28,,15,15,56,54,8,6,1.1,1.1
2025-01-23T1400,1008A,116.6636,40.135,北京市,顺义新城,细颗粒物(PM2.5),78,83,93,57,59,58,,28,28,26,48,4,4,0.6,1.1
2025-01-23T1400,1009A,116.6275,40.3275,北京市,怀柔镇,细颗粒物(PM2.5),80,81,60,59,41,59,,33,33,29,29,6,4,0.7,0.7
2025-01-23T1400,1010A,116.2296,40.217,北京市,昌平镇,细颗粒物(PM2.5),88,106,71,65,44,39,,23,23,41,36,5,2,1.1,1.1
2025-01-23T1400,1011A,116.3966,39.9821,北京市,奥体中心,细颗粒物(PM2.5),104,112,82,78,53,23,,15,15,62,48,6,6,1.1,0.9
2025-01-23T1400,3281A,115.9718,40.4529,北京市,延庆夏都,细颗粒物(PM2.5),95,98,67,71,44,53,,23,23,27,32,7,5,0.8,0.7
2025-01-23T1400,3417A,117.0709,40.1465,北京市,平谷新城,细颗粒物(PM2.5),59,59,77,42,55,65,,30,30,15,25,4,5,0.6,1.3
2025-01-23T1400,3418A,116.8336,40.4095,北京市,密云新城,细颗粒物(PM2.5),68,65,72,49,47,65,,33,33,23,29,4,4,0.6,0.9
2025-01-23T1400,3671A,116.088,39.9726,北京市,门头沟三家店,细颗粒物(PM2.5),79,86,70,58,44,40,,28,28,44,30,6,4,0.8,0.7
2025-01-23T1400,3672A,116.1541,39.8204,北京市,丰台云岗,细颗粒物(PM2.5),63,73,82,45,50,63,,25,25,22,40,7,7,0.4,0.7
2025-01-23T1400,3673A,116.6804,39.9081,北京市,通州东关,细颗粒物(PM2.5),83,82,93,61,63,47,,17,17,23,23,5,4,0.4,0.7
2025-01-23T1400,3674A,115.9577,39.7603,北京市,房山燕山,细颗粒物(PM2.5),79,90,68,58,46,49,,29,29,36,30,1,3,0.6,0.7
2025-01-23T1400,3675A,116.4672,39.7733,北京市,大兴旧宫,细颗粒物(PM2.5),57,58,74,40,46,55,,20,20,19,36,3,3,0.5,0.7
2025-01-23T1400,3694A,115.986,40.4563,北京市,延庆石河营,细颗粒物(PM2.5),95,96,64,71,46,47,,20,20,32,35,6,4,0.7,0.8
2025-01-23T1400,3695A,116.6151,40.3053,北京市,怀柔新城,细颗粒物(PM2.5),74,77,59,54,42,54,,32,32,24,23,4,3,0.6,0.6
2025-01-23T1400,3696A,116.2545,39.8768,北京市,丰台小屯,细颗粒物(PM2.5),65,61,82,47,59,53,,16,16,35,67,6,6,0.4,0.8
2025-01-23T1400,3697A,116.84,40.3844,北京市,密云镇,细颗粒物(PM2.5),68,65,74,49,50,66,,26,26,16,41,4,3,0.5,0.9
2025-01-23T1400,4182A,116.1942,39.91583,北京市,八角,细颗粒物(PM2.5),75,80,79,55,49,33,,17,17,41,44,4,3,0.7,0.9
2025-01-23T1400,1761A,123.8275,41.3064,本溪市,大峪,,40,32,86,28,53,64,,30,30,18,36,11,8,0.7,1.4
2025-01-23T1400,1762A,123.7567,41.3325,本溪市,溪湖,颗粒物(PM10),55,59,102,28,58,58,,24,24,23,40,11,10,1.1,1.3
2025-01-23T1400,1763A,123.7169,41.3094,本溪市,彩屯,,43,35,92,30,69,61,,22,22,27,41,12,11,1.3,1.7
2025-01-23T1400,1764A,123.7669,41.2864,本溪市,东明,颗粒物(PM10),59,67,117,35,76,52,,20,20,29,48,12,13,1.8,2.1
2025-01-23T1400,1765A,123.7992,41.2664,本溪市,新立屯,,41,41,81,13,43,64,,32,32,26,49,10,10,0.9,1.8
2025-01-23T1400,1766A,123.8142,41.3472,本溪市,威宁,,45,45,100,12,58,71,,32,32,10,36,6,4,0.5,1.1
2025-01-23T1400,2587A,105.2864,27.3125,毕节市,八中,细颗粒物(PM2.5),129,116,91,98,73,80,,55,55,23,20,11,8,1.0,1.1
2025-01-23T1400,2588A,105.31,27.2944,毕节市,师专,细颗粒物(PM2.5),120,119,94,91,67,84,,59,59,23,20,14,9,1.0,1.1
2025-01-23T1400,3537A,105.3631,27.3533,毕节市,长征村,细颗粒物(PM2.5),135,117,90,103,73,100,,74,74,12,11,11,9,1.0,1.1
2025-01-23T1400,1629A,118.0018,37.3617,滨州市,第二水厂,细颗粒物(PM2.5),62,70,45,44,26,64,,42,42,17,21,18,10,0.7,0.5
2025-01-23T1400,1630A,117.9776,37.393,滨州市,北中新校,细颗粒物(PM2.5),67,78,48,48,25,69,,40,40,24,26,9,6,0.2,0.1
2025-01-23T1400,3514A,117.9378,37.3956,滨州市,中海酒店,细颗粒物(PM2.5),79,,39,58,29,70,,45,45,24,22,9,5,0.6,0.5
2025-01-23T1400,3515A,117.9378,37.3553,滨州市,开发区一中,细颗粒物(PM2.5),70,70,46,51,26,74,,50,50,23,25,12,11,0.6,0.4
2025-01-23T1400,3516A,118.0917,37.694,滨州市,金海六路,颗粒物(PM10),51,51,30,31,17,66,,48,48,16,17,16,6,0.4,0.4
2025-01-23T1400,4028A,117.9956,37.3753,滨州市,滨州市西街道办事处,,,70,41,56,30,69,,40,40,18,24,10,6,,0
2025-01-23T1400,2311A,115.8072,33.8399,亳州市,污水处理厂,细颗粒物(PM2.5),99,98,151,74,114,46,,32,32,17,33,5,8,0.8,1.1
2025-01-23T1400,2312A,115.7789,33.8518,亳州市,三国揽胜宫,细颗粒物(PM2.5),108,120,178,81,110,47,,36,36,24,36,4,7,0.8,1
2025-01-23T1400,3332A,115.7633,33.8034,亳州市,亳州学院,,,105,152,64,103,49,,38,38,,35,3,7,0.9,1.2
2025-01-23T1400,2693A,82.0485,44.8556,博尔塔拉蒙古自治州,市党校,,31,31,59,17,35,80,,82,79,12,21,6,9,0.3,0.6
2025-01-23T1400,2694A,82.0806,44.8969,博尔塔拉蒙古自治州,市环保局,,38,38,53,18,26,69,,70,68,14,27,7,8,0.7,1
2025-01-23T1400,1071A,116.8842,38.2991,沧州市,沧县城建局,,,47,56,28,34,60,,36,36,20,37,7,4,,0.5
2025-01-23T1400,1072A,116.8584,38.3254,沧州市,电视转播站,,38,38,57,22,32,60,,27,27,19,40,7,6,0.4,0.5
2025-01-23T1400,1073A,116.8709,38.3228,沧州市,市环保局,,35,35,54,23,36,59,,28,28,20,38,6,4,0.3,0.4
2025-01-23T1400,3324A,116.8136,38.3004,沧州市,河北水利电力学院,,50,41,45,35,31,52,,34,34,19,28,7,9,0.3,0.4
2025-01-23T1400,2622A,97.1806,31.1273,昌都市,昌都监测站,,20,20,42,3,22,64,,42,42,8,25,6,8,0.5,1.1
2025-01-23T1400,3719A,97.1714,31.1406,昌都市,昌都会议中心,颗粒物(PM10),152,253,121,3,8,65,,51,50,7,5,4,4,0.4,0.4
2025-01-23T1400,2690A,88.1236,43.8886,昌吉回族自治州,天山天池,,35,35,16,18,10,86,,91,82,9,6,5,6,0.8,0.6
2025-01-23T1400,2692A,87.2717,44.0297,昌吉回族自治州,新区政务中心,颗粒物(PM10),104,157,167,,137,,,57,56,30,49,,2,1.2,1.4
2025-01-23T1400,3613A,87.3095,44.0142,昌吉回族自治州,亚心广场,细颗粒物(PM2.5),175,146,164,132,144,75,,70,70,17,34,6,6,1.3,1.3
2025-01-23T1400,1119A,125.3325,43.9166,长春市,食品厂,,,61,110,47,86,57,,28,28,31,54,,10,0.5,1
2025-01-23T1400,1120A,125.2863,43.9027,长春市,客车厂,细颗粒物(PM2.5),67,54,113,48,86,54,,34,34,34,62,11,11,0.6,1
2025-01-23T1400,1121A,125.2841,43.8463,长春市,邮电学院,,49,46,90,34,79,64,,34,34,21,43,17,12,0.7,1
2025-01-23T1400,1122A,125.3716,43.8772,长春市,劳动公园,颗粒物(PM10),55,59,100,35,74,63,,31,31,30,49,14,10,0.5,0.9
2025-01-23T1400,1123A,125.3297,43.8805,长春市,园林处,细颗粒物(PM2.5),60,54,87,43,74,58,,32,32,27,43,13,13,0.4,0.7
2025-01-23T1400,1124A,125.4605,43.79,长春市,净月潭,,49,40,64,34,46,76,,55,55,9,19,8,7,0.5,0.6
2025-01-23T1400,1125A,125.7194,43.515,长春市,甩湾子,,,,,,,,,,,,,,,,
2025-01-23T1400,1126A,125.3863,43.8447,长春市,经开区环卫处,,,,127,34,72,62,,28,28,23,50,13,14,0.4,1.3
2025-01-23T1400,1127A,125.245,43.7783,长春市,高新区管委会,,42,33,108,29,101,71,,36,36,14,43,9,9,0.3,1.1
2025-01-23T1400,1128A,125.1761,43.8325,长春市,岱山公园,,,34,119,27,100,,,19,19,24,62,15,11,0.5,1.4
2025-01-23T1400,1335A,113.0833,28.2325,长沙市,经开区环保局,细颗粒物(PM2.5),314,322,191,264,150,68,,40,40,34,39,8,7,1.4,1.1
2025-01-23T1400,1336A,112.8872,28.2189,长沙市,高开区环保局,细颗粒物(PM2.5),303,300,189,253,159,57,,43,42,34,32,9,9,1.5,1.2
2025-01-23T1400,1337A,113.0792,28.2053,长沙市,马坡岭,细颗粒物(PM2.5),303,305,188,253,152,72,,43,43,35,45,8,7,1.4,1
2025-01-23T1400,1338A,112.9394,28.19,长沙市,湖南师范大学,细颗粒物(PM2.5),281,302,187,231,142,64,,44,44,34,33,11,10,1.6,1.3
2025-01-23T1400,1339A,113.0178,28.1322,长沙市,雨花区环保局,细颗粒物(PM2.5),297,271,174,247,151,70,,45,45,38,45,10,9,1.5,1.2
2025-01-23T1400,1340A,112.9792,28.2597,长沙市,伍家岭,细颗粒物(PM2.5),306,337,213,256,142,61,,40,40,38,36,7,8,1.7,1.3
2025-01-23T1400,1341A,113.0014,28.1944,长沙市,火车新站,细颗粒物(PM2.5),299,303,189,249,146,73,,48,48,38,44,7,7,1.6,1.2
2025-01-23T1400,1342A,112.9844,28.1178,长沙市,天心区环保局,细颗粒物(PM2.5),275,279,175,225,136,71,,46,46,35,42,5,5,1.6,1.3
2025-01-23T1400,1343A,112.8908,28.1308,长沙市,湖南中医药大学,细颗粒物(PM2.5),287,303,185,237,152,68,,50,50,28,32,10,10,1.6,1.3
2025-01-23T1400,1344A,112.9581,28.3611,长沙市,沙坪,细颗粒物(PM2.5),329,361,201,279,152,59,,39,39,30,29,11,11,2.0,1.5
2025-01-23T1400,1727A,113.1147,36.1547,长治市,清华站,细颗粒物(PM2.5),134,118,92,102,70,76,,31,31,46,38,25,22,1.5,1.4
2025-01-23T1400,1730A,113.0886,36.2125,长治市,审计局,细颗粒物(PM2.5),149,,90,114,73,96,,29,29,32,39,20,19,1.3,1.2
2025-01-23T1400,1731A,113.0844,36.1856,长治市,长治八中,细颗粒物(PM2.5),158,155,116,120,86,87,,28,28,34,38,22,21,1.5,1.4
2025-01-23T1400,2845A,113.1569,36.1911,长治市,德盛苑,细颗粒物(PM2.5),138,118,92,105,71,104,,48,48,36,32,18,14,1.4,1.3
2025-01-23T1400,3568A,113.06,36.0464,长治市,向阳小学,细颗粒物(PM2.5),165,153,133,125,99,97,,41,41,36,41,26,30,1.8,2.1
2025-01-23T1400,3569A,112.8792,36.3144,长治市,屯留一中,细颗粒物(PM2.5),125,105,89,95,70,94,,34,34,49,58,,27,2.0,1.6
2025-01-23T1400,4189A,113.1131,36.19948,长治市,英华南巷50号,细颗粒物(PM2.5),138,108,89,105,70,103,,35,35,40,45,22,18,1.4,1.3
2025-01-23T1400,4190A,113.2367,36.3344,长治市,学府街1号,细颗粒物(PM2.5),84,,68,62,45,77,,37,37,25,44,20,19,1.1,1.2
2025-01-23T1400,1854A,111.6975,28.9703,常德市,市二中,细颗粒物(PM2.5),272,236,221,222,208,70,,63,63,22,22,12,11,1.2,1.2
2025-01-23T1400,1857A,111.7158,29.1456,常德市,白鹤山,,,,,,,,,,,,,,,,
2025-01-23T1400,3138A,111.7153,29.0289,常德市,武陵区永安,细颗粒物(PM2.5),263,266,246,213,204,71,,68,67,29,29,11,12,1.0,1
2025-01-23T1400,3139A,111.6892,28.9881,常德市,鼎城区玉霞,细颗粒物(PM2.5),261,292,206,211,199,,,65,65,,26,9,14,1.4,1.3
2025-01-23T1400,3140A,111.6625,29.0531,常德市,武陵区长庚,细颗粒物(PM2.5),263,276,262,213,209,58,,58,57,30,28,7,9,1.2,1.1
2025-01-23T1400,1196A,119.9633,31.762,常州市,市监测站,颗粒物(PM10),57,64,79,34,53,70,,31,31,29,66,7,8,0.7,0.8
2025-01-23T1400,1200A,119.9468,31.7069,常州市,武进监测站,颗粒物(PM10),56,61,69,36,43,64,,27,27,24,46,10,12,1.1,0.9
2025-01-23T1400,1201A,119.9255,31.9087,常州市,安家,细颗粒物(PM2.5),60,57,79,43,56,52,,28,28,42,58,10,10,1.1,1
2025-01-23T1400,3002A,119.9805,31.8174,常州市,行政中心,细颗粒物(PM2.5),55,53,65,39,49,63,,21,21,18,42,13,14,0.7,0.7
2025-01-23T1400,3003A,120.0522,31.7748,常州市,经开区,颗粒物(PM10),61,71,83,31,42,76,,30,30,23,54,9,10,0.5,0.7
2025-01-23T1400,3010A,119.9025,31.7964,常州市,钟楼,颗粒物(PM10),62,74,78,39,53,65,,26,26,23,50,6,8,0.9,0.9
2025-01-23T1400,3429A,119.8598,31.7066,常州市,武进经发区,细颗粒物(PM2.5),57,61,75,40,53,66,,32,32,27,56,6,6,0.8,0.8
2025-01-23T1400,3430A,119.5826,31.7245,常州市,金坛城区,细颗粒物(PM2.5),75,80,85,55,62,62,,27,27,23,40,6,7,0.9,0.8
2025-01-23T1400,2220A,120.4318,41.5881,朝阳市,西梁,颗粒物(PM10),63,75,79,43,56,58,,32,32,33,44,26,20,0.9,1.4
2025-01-23T1400,2221A,120.4521,41.5646,朝阳市,河畔小区,颗粒物(PM10),68,85,85,47,64,53,,27,27,24,33,22,15,1.1,1.3
2025-01-23T1400,2222A,120.4176,41.5648,朝阳市,八里堡,颗粒物(PM10),81,111,88,45,67,66,,34,34,25,41,26,19,0.9,1.7
2025-01-23T1400,2223A,120.3806,41.5969,朝阳市,农业园区,细颗粒物(PM2.5),74,68,79,54,65,63,,31,31,22,34,26,18,1.0,1.2
2025-01-23T1400,1705A,116.6367,23.6719,潮州市,西园路,细颗粒物(PM2.5),79,,47,58,49,122,,56,56,15,21,5,4,0.4,0.5
2025-01-23T1400,3026A,116.6183,23.6608,潮州市,市政府,细颗粒物(PM2.5),72,58,56,52,47,124,,60,60,11,21,4,4,0.5,0.7
2025-01-23T1400,4036A,116.6461,23.6761,潮州市,金山,细颗粒物(PM2.5),99,,49,74,46,121,,52,52,15,18,6,5,0.6,0.6
2025-01-23T1400,2472A,113.0073,25.9061,郴州市,马头岭,细颗粒物(PM2.5),70,80,71,51,37,111,,77,77,24,30,38,22,1.1,0.9
2025-01-23T1400,2473A,113.0116,25.8226,郴州市,市职中,,,70,88,50,55,125,,57,57,17,40,20,12,,1
2025-01-23T1400,2474A,113.0161,25.8001,郴州市,兴隆步行街,,,,,,0,,,,,,12,,7,,1.0
2025-01-23T1400,2475A,113.0383,25.8071,郴州市,市审计局,细颗粒物(PM2.5),75,73,83,55,59,116,,48,48,19,46,15,10,0.8,1.3
2025-01-23T1400,2476A,113.0348,25.7759,郴州市,市环保局,细颗粒物(PM2.5),68,82,86,49,58,118,,48,48,24,56,18,12,0.7,0.8
2025-01-23T1400,1431A,103.9728,30.7236,成都市,金泉两河,细颗粒物(PM2.5),220,195,175,170,153,11,,4,4,54,59,7,3,1.2,1.3
2025-01-23T1400,1432A,104.176,30.6872,成都市,十里店,细颗粒物(PM2.5),229,215,185,179,154,12,,6,6,53,55,3,2,1.1,1
2025-01-23T1400,1433A,104.079,30.5706,成都市,三瓦窑,细颗粒物(PM2.5),228,220,181,178,148,2,,2,2,75,59,2,2,1.5,1.1
2025-01-23T1400,1434A,104.1114,30.63,成都市,沙河铺,细颗粒物(PM2.5),244,232,175,194,154,4,,5,4,,51,3,4,1.4,1.2
2025-01-23T1400,1437A,104.0786,30.6531,成都市,君平街,细颗粒物(PM2.5),226,190,172,176,159,25,,9,8,51,62,6,5,1.0,1.2
2025-01-23T1400,1438A,103.613,31.0283,成都市,灵岩寺,,,,,,,,,,,,,,,,
2025-01-23T1400,2880A,104.0239,30.65639,成都市,大石西路,细颗粒物(PM2.5),228,195,170,178,148,9,,4,4,66,57,4,4,1.3,1.2
2025-01-23T1400,3136A,104.2725,30.5589,成都市,龙泉驿区区政府,细颗粒物(PM2.5),203,185,152,153,129,13,,32,18,50,32,3,3,1.3,1.1
2025-01-23T1400,3357A,104.0106,30.6931,成都市,金博路,细颗粒物(PM2.5),217,209,181,167,137,9,,4,4,60,59,3,2,1.3,1.3
2025-01-23T1400,3359A,104.0578,30.5225,成都市,华阳,细颗粒物(PM2.5),203,185,168,153,142,11,,8,7,,43,1,1,1.4,1.2
2025-01-23T1400,3488A,104.3853,30.7453,成都市,青白江技师分院,细颗粒物(PM2.5),228,185,170,178,152,6,,3,3,37,37,5,5,1.1,1
2025-01-23T1400,3489A,104.0789,30.4072,成都市,科学城,细颗粒物(PM2.5),182,153,157,137,134,26,,10,10,26,25,4,4,1.1,1.1
2025-01-23T1400,4011A,103.8506,30.6947,成都市,光华大道三段,细颗粒物(PM2.5),216,192,176,166,142,18,,5,5,47,51,3,3,1.1,1.2
2025-01-23T1400,4224A,104.2433,30.5353,成都市,鲸龙路1057号,细颗粒物(PM2.5),207,198,173,157,134,22,,12,9,48,42,2,2,1.4,1.2
2025-01-23T1400,1062A,117.9531,40.9081,承德市,铁路,细颗粒物(PM2.5),64,68,49,46,32,43,,20,20,32,40,19,11,1.1,1
2025-01-23T1400,1063A,117.9392,40.9763,承德市,中国银行,细颗粒物(PM2.5),72,89,72,52,33,45,,21,21,25,33,17,6,1.2,0.9
2025-01-23T1400,1064A,117.9503,40.928,承德市,开发区,细颗粒物(PM2.5),65,73,61,47,39,54,,26,26,28,39,18,9,1.1,1
2025-01-23T1400,1065A,117.8051,40.9655,承德市,文化中心,细颗粒物(PM2.5),123,133,96,93,51,52,,20,20,38,46,69,20,2.7,1.3
2025-01-23T1400,1066A,117.9268,41.0026,承德市,离宫,细颗粒物(PM2.5),77,82,58,56,40,40,,23,23,33,31,18,7,1.2,0.7
2025-01-23T1400,2314A,117.47,30.6618,池州市,池州学院,细颗粒物(PM2.5),235,211,190,185,165,82,,58,51,,48,,13,1.4,1.2
2025-01-23T1400,3237A,117.4918,30.6617,池州市,展览馆,细颗粒物(PM2.5),212,210,177,162,135,80,,52,52,56,58,16,8,1.4,1.2
2025-01-23T1400,3333A,117.5627,30.695,池州市,第八中学,细颗粒物(PM2.5),212,192,196,162,162,80,,56,47,47,49,14,13,1.2,1
2025-01-23T1400,3334A,117.5038,30.6243,池州市,第十二中学,细颗粒物(PM2.5),237,221,192,187,160,85,,56,56,53,56,12,10,1.4,1.1
2025-01-23T1400,1744A,118.9233,42.2816,赤峰市,松山一中,颗粒物(PM10),56,61,84,28,48,36,,22,22,52,46,79,25,2.1,1.3
2025-01-23T1400,1745A,118.9576,42.2728,赤峰市,哈达街,细颗粒物(PM2.5),68,78,92,49,63,31,,20,20,63,51,102,27,1.9,1.4
2025-01-23T1400,1746A,118.8788,42.2554,赤峰市,天义路,颗粒物(PM10),61,71,85,36,56,36,,20,20,47,38,49,17,1.1,1
2025-01-23T1400,3058A,119.2658,42.0353,赤峰市,银河街,细颗粒物(PM2.5),117,116,140,88,101,61,,28,28,33,44,27,40,1.6,1.9
2025-01-23T1400,3286A,118.9359,42.3147,赤峰市,桥北物流园区,颗粒物(PM10),118,185,68,49,62,40,,23,23,39,45,39,24,1.6,1
2025-01-23T1400,2521A,107.3476,22.4136,崇左市,市环保局江州分局,颗粒物(PM10),53,56,79,21,50,108,,84,84,7,18,5,6,0.7,1
2025-01-23T1400,2522A,107.3702,22.3707,崇左市,城南新区,,44,44,77,21,59,115,,85,85,8,22,6,8,0.7,0.9
2025-01-23T1400,2298A,118.3093,32.3153,滁州市,老年大学,细颗粒物(PM2.5),72,62,90,52,69,57,,50,50,26,38,1,4,0.5,0.5
2025-01-23T1400,2299A,118.3244,32.2786,滁州市,人大宾馆,细颗粒物(PM2.5),80,64,82,59,71,52,,46,44,35,39,8,8,0.7,0.7
2025-01-23T1400,3207A,118.3118,32.3038,滁州市,市政府原办公楼,细颗粒物(PM2.5),69,54,78,50,66,56,,48,48,26,32,4,5,0.3,0.3
2025-01-23T1400,3331A,118.3267,32.2634,滁州市,图书馆,细颗粒物(PM2.5),73,67,92,53,63,53,,44,44,20,28,5,6,0.6,0.5
2025-01-23T1400,2605A,101.5482,25.0441,楚雄彝族自治州,州环境监测站,,28,28,34,16,26,82,,44,44,3,19,7,7,0.4,0.6
2025-01-23T1400,2606A,101.538,25.0492,楚雄彝族自治州,市经济开发区,,26,,40,17,30,83,,44,44,5,22,5,6,0.5,0.7
2025-01-23T1400,2548A,107.5277,31.2827,达州市,达州职业技术学院,细颗粒物(PM2.5),268,259,254,218,208,4,,3,3,41,37,9,8,1.5,1.7
2025-01-23T1400,2549A,107.5086,31.2186,达州市,市环境监测站,细颗粒物(PM2.5),247,242,238,197,198,6,,5,5,52,50,11,9,1.7,2.1
2025-01-23T1400,2550A,107.4988,31.2132,达州市,凤凰小区,细颗粒物(PM2.5),250,241,237,200,194,7,,5,5,,52,,12,1.6,2
2025-01-23T1400,2551A,107.5082,31.1986,达州市,达县机关宾馆,细颗粒物(PM2.5),238,217,232,188,186,6,,4,4,53,54,11,10,1.7,2.1
2025-01-23T1400,2552A,107.4644,31.2124,达州市,市政中心,细颗粒物(PM2.5),250,247,248,200,192,3,,2,2,59,63,7,9,1.9,2.4
2025-01-23T1400,2614A,100.1542,25.7054,大理白族自治州,大理市环境监测站,,36,29,33,25,28,82,,80,78,7,7,7,7,0.6,0.6
2025-01-23T1400,2615A,100.2171,25.5811,大理白族自治州,大理古城,,31,23,36,13,27,97,,75,75,7,13,6,6,0.8,0.8
2025-01-23T1400,1109A,121.612,38.9741,大连市,甘井子,,,31,42,15,27,71,,43,43,,30,7,11,0.6,0.5
2025-01-23T1400,1110A,121.565,38.9511,大连市,周水子,,32,32,41,21,35,70,,37,37,14,37,11,14,0.7,1
2025-01-23T1400,1111A,121.5637,38.8845,大连市,星海三站,,25,24,42,12,31,78,,45,45,6,24,9,14,0.5,1
2025-01-23T1400,1112A,121.6302,38.9117,大连市,青泥洼桥,,23,15,41,11,25,71,,44,44,2,25,12,14,0.5,0.7
2025-01-23T1400,1113A,121.6251,38.8638,大连市,傅家庄,,24,21,37,8,24,74,,56,56,3,24,9,14,0.4,0.6
2025-01-23T1400,1114A,121.5213,38.8661,大连市,七贤岭,,25,18,37,12,25,78,,49,49,8,19,9,10,0.5,0.7
2025-01-23T1400,1115A,121.2529,38.8061,大连市,旅顺,,25,18,36,10,28,79,,59,59,5,18,8,11,0.6,0.8
2025-01-23T1400,1116A,121.7485,39.1311,大连市,金州,,26,25,40,18,33,72,,54,54,20,22,9,10,0.7,0.9
2025-01-23T1400,1117A,121.7811,39.0496,大连市,开发区,,35,35,38,23,26,60,,46,41,24,28,14,14,0.5,0.5
2025-01-23T1400,1118A,121.9762,39.0631,大连市,双D港,,40,31,34,28,25,84,,75,75,12,16,10,12,0.8,0.9
2025-01-23T1400,1789A,124.81117,46.03138,大庆市,大同区,细颗粒物(PM2.5),137,109,117,104,107,72,,40,40,27,31,13,9,1.1,1.1
2025-01-23T1400,1790A,125.129,46.533,大庆市,龙凤区,细颗粒物(PM2.5),103,103,110,77,86,66,,36,36,25,57,7,10,0.8,1.2
2025-01-23T1400,1791A,124.902,46.408,大庆市,红岗区,细颗粒物(PM2.5),82,69,78,60,58,62,,29,29,33,35,13,8,0.7,0.8
2025-01-23T1400,1792A,125.153,46.586,大庆市,萨尔图区,细颗粒物(PM2.5),182,162,108,137,91,45,,29,29,60,54,8,7,0.8,1
2025-01-23T1400,1793A,124.9042,46.6215,大庆市,让胡路区,细颗粒物(PM2.5),108,100,94,81,81,46,,29,29,48,52,8,9,0.7,1
2025-01-23T1400,3481A,125.141,46.634,大庆市,萨区政府监测点,颗粒物(PM10),138,226,96,,74,48,,27,20,,43,11,6,1.1,1
2025-01-23T1400,1721A,113.3819,40.1097,大同市,果树场,,,,,,,,,,,,,,,,
2025-01-23T1400,1723A,113.2994,40.0758,大同市,云冈宾馆,细颗粒物(PM2.5),98,140,121,73,64,54,,23,23,43,50,30,27,1.0,1.2
2025-01-23T1400,1724A,113.3444,40.0917,大同市,大同大学,细颗粒物(PM2.5),92,99,86,68,53,57,,26,26,36,45,34,28,0.9,1
2025-01-23T1400,1725A,113.2661,40.1269,大同市,安家小村,细颗粒物(PM2.5),94,105,120,70,62,52,,27,27,44,47,35,31,1.0,2.2
2025-01-23T1400,1726A,113.2711,40.0844,大同市,教育学院,细颗粒物(PM2.5),95,124,139,71,76,45,,18,18,48,58,30,29,1.0,2.2
2025-01-23T1400,3282A,113.3397,40.0597,大同市,大同市卫生学校,细颗粒物(PM2.5),100,106,90,75,55,47,,21,21,50,48,44,27,1.2,1.3
2025-01-23T1400,3565A,113.1367,40.1122,大同市,云冈站,细颗粒物(PM2.5),102,133,132,76,65,55,,23,23,44,48,32,31,1.3,1.3
2025-01-23T1400,3566A,113.1186,40.2556,大同市,图书馆,细颗粒物(PM2.5),112,127,99,84,67,52,,23,23,42,34,52,22,1.0,1.3
2025-01-23T1400,3567A,113.5931,40.0461,大同市,区一中,颗粒物(PM10),90,129,100,50,47,66,,40,40,39,33,72,26,0.9,0.9
2025-01-23T1400,4199A,113.2798,40.0997,大同市,魏都大道141号,细颗粒物(PM2.5),95,132,137,71,70,50,,23,23,48,54,37,34,1.4,1.9
2025-01-23T1400,2269A,124.1069,50.4097,大兴安岭地区,科技局,,23,21,40,16,28,56,,54,54,6,11,9,8,0.4,0.5
2025-01-23T1400,3663A,124.1164,50.4278,大兴安岭地区,红旗社区,,19,9,52,9,41,58,,48,48,8,29,2,7,0.5,0.7
2025-01-23T1400,1600A,124.3303,40.0625,丹东市,江湾东路,颗粒物(PM10),54,58,58,32,41,74,,47,47,16,24,9,13,0.8,1
2025-01-23T1400,1601A,124.4256,40.1503,丹东市,临江后街,,37,37,54,21,38,81,,49,49,9,23,6,11,0.5,0.8
2025-01-23T1400,1602A,124.3933,40.1461,丹东市,元宝山,,38,36,42,26,28,68,,41,41,12,17,7,11,0.8,1
2025-01-23T1400,1603A,124.3633,40.1092,丹东市,民主桥,颗粒物(PM10),53,55,50,29,31,75,,48,48,14,25,12,14,0.8,0.9
2025-01-23T1400,3541A,109.5726,19.5167,儋州市,第一中学子站,,28,15,39,10,23,87,,100,86,3,6,5,5,0.6,0.7
2025-01-23T1400,3542A,109.5567,19.5187,儋州市,东坡学校子站,,30,16,36,10,26,96,,106,91,2,5,6,6,0.5,0.7
2025-01-23T1400,2616A,98.5842,24.428,德宏傣族景颇族自治州,德宏州监测站,细颗粒物(PM2.5),60,59,68,43,44,99,,37,37,15,26,9,7,0.8,1
2025-01-23T1400,3677A,98.5881,24.4368,德宏傣族景颇族自治州,芒市人民政府综合楼,细颗粒物(PM2.5),60,66,62,43,40,88,,31,31,15,19,6,6,0.6,0.6
2025-01-23T1400,1901A,104.4239,31.1208,德阳市,东山公园,细颗粒物(PM2.5),233,198,180,183,167,17,,16,11,28,33,3,2,1.1,1.2
2025-01-23T1400,1902A,104.3826,31.1317,德阳市,西小区,细颗粒物(PM2.5),236,212,199,186,177,15,,5,5,29,42,4,4,1.2,1.3
2025-01-23T1400,1904A,104.3553,31.1091,德阳市,耐火材料厂,细颗粒物(PM2.5),237,199,184,187,180,10,,4,4,33,40,5,5,1.1,1.1
2025-01-23T1400,3639A,104.4019,31.1244,德阳市,市教育局,细颗粒物(PM2.5),236,192,174,186,170,17,,7,7,28,42,5,5,1.3,1.3
2025-01-23T1400,1622A,116.3032,37.4674,德州市,儿童乐园,细颗粒物(PM2.5),113,112,68,85,41,52,,26,26,22,29,17,10,0.9,0.7
2025-01-23T1400,1624A,116.2991,37.4451,德州市,监理站,细颗粒物(PM2.5),100,105,60,75,34,57,,33,33,30,32,24,17,1.0,0.8
2025-01-23T1400,3066A,116.2721,37.4379,德州市,九衢泉纯净水厂,细颗粒物(PM2.5),100,110,61,75,37,53,,32,32,29,31,18,15,0.9,0.6
2025-01-23T1400,3371A,116.3728,37.4403,德州市,开发区人民医院,细颗粒物(PM2.5),113,114,68,85,40,,,26,26,30,37,20,13,0.4,0.2
2025-01-23T1400,3372A,116.3572,37.4094,德州市,太阳城中学,细颗粒物(PM2.5),117,112,60,88,40,55,,36,36,29,28,19,13,0.9,0.7
2025-01-23T1400,3511A,116.5652,37.3319,德州市,陵城艺术中心,细颗粒物(PM2.5),125,117,75,95,48,49,,28,28,34,30,23,15,0.9,0.8
2025-01-23T1400,2621A,99.7056,27.8317,迪庆藏族自治州,迪庆州站,,30,30,33,12,22,81,,53,53,8,13,9,9,0.3,0.5
2025-01-23T1400,3180A,99.7136,27.8094,迪庆藏族自治州,质量技术监督局,,26,24,23,8,15,82,,53,53,7,11,8,8,0.4,0.5
2025-01-23T1400,2663A,104.6241,35.5734,定西市,东关小学,细颗粒物(PM2.5),60,53,78,43,58,52,,36,36,5,21,15,14,0.6,1
2025-01-23T1400,2664A,104.6194,35.5934,定西市,供电公司,,,,,,,,,,,,,,,,
2025-01-23T1400,1389A,113.7547,23.0494,东莞市,莞城梨川,,41,41,56,26,33,100,,67,67,18,24,5,5,0.6,0.6
2025-01-23T1400,1390A,113.7944,23.0128,东莞市,东城石井,细颗粒物(PM2.5),52,45,47,36,33,100,,56,56,20,22,6,6,0.5,0.5
2025-01-23T1400,1391A,113.7383,22.9658,东莞市,南城西平,,,55,54,45,32,90,,46,46,,31,6,3,,0.7
2025-01-23T1400,3319A,113.7338,23.0381,东莞市,万江金泰,,41,41,55,27,30,105,,68,68,15,21,3,4,0.5,0.5
2025-01-23T1400,3626A,113.7533,23.0202,东莞市,南城元岭,,43,40,48,30,32,97,,64,64,13,20,6,6,0.7,0.6
2025-01-23T1400,3627A,113.7875,23.0457,东莞市,东城主山,,35,35,47,24,26,48,,54,54,12,21,6,6,0.5,0.7
2025-01-23T1400,1666A,118.6614,37.4309,东营市,市环保局,细颗粒物(PM2.5),67,70,34,48,21,72,,46,46,23,27,12,5,0.7,0.5
2025-01-23T1400,3036A,118.6904,37.4338,东营市,开发区管委会,细颗粒物(PM2.5),77,77,35,56,22,65,,45,45,25,21,15,4,0.8,0.5
2025-01-23T1400,3365A,118.5719,37.565,东营市,垦利区民丰路,颗粒物(PM10),52,53,28,34,13,71,,43,43,22,21,10,9,0.5,0.3
2025-01-23T1400,3498A,118.5055,37.8612,东营市,河口城区,,46,46,35,22,14,81,,56,56,12,20,1,3,0.8,0.8
2025-01-23T1400,3646A,118.4978,37.4623,东营市,胜利站,细颗粒物(PM2.5),67,68,36,48,19,69,,41,41,25,23,15,7,1.0,0.8
2025-01-23T1400,3734A,118.35,37.26,东营市,理想之城,颗粒物(PM10),64,78,38,44,21,86,,47,47,25,27,10,3,0.7,0.4
2025-01-23T1400,1591A,110.0023,39.8129,鄂尔多斯市,综合楼,颗粒物(PM10),56,61,110,34,61,86,,44,44,32,58,24,26,0.9,1.4
2025-01-23T1400,1592A,109.9486,39.8261,鄂尔多斯市,巴音孟克林场办事处,,46,46,101,29,64,93,,46,46,27,57,22,22,0.7,1.2
2025-01-23T1400,1593A,109.7736,39.5986,鄂尔多斯市,康泽苑,细颗粒物(PM2.5),73,78,63,53,39,56,,27,27,43,43,19,12,1.0,0.9
2025-01-23T1400,1594A,109.8119,39.5989,鄂尔多斯市,华泰汽车城,细颗粒物(PM2.5),67,80,69,48,42,62,,22,22,43,45,20,9,0.8,0.7
2025-01-23T1400,1595A,109.9734,39.7884,鄂尔多斯市,奥林花园,颗粒物(PM10),52,53,128,34,67,88,,35,35,28,60,22,17,0.8,1.4
2025-01-23T1400,2436A,114.8938,30.3994,鄂州市,市政府,细颗粒物(PM2.5),275,240,213,225,193,58,,43,42,43,52,10,11,1.8,1.7
2025-01-23T1400,2437A,114.8989,30.3714,鄂州市,赵家坝,细颗粒物(PM2.5),261,237,175,211,163,,,73,73,35,26,,11,2.1,1.9
2025-01-23T1400,3654A,114.8094,30.4089,鄂州市,精准医疗中心,细颗粒物(PM2.5),272,246,193,222,186,87,,75,68,43,40,4,11,1.2,1.1
2025-01-23T1400,2454A,109.4978,30.2981,恩施土家族苗族自治州,湖北民院,细颗粒物(PM2.5),153,136,122,117,126,8,,3,3,,42,7,8,1.5,1.5
2025-01-23T1400,2455A,109.4707,30.2798,恩施土家族苗族自治州,州电力总公司,细颗粒物(PM2.5),150,118,131,115,119,12,,8,8,60,61,8,8,1.5,1.5
2025-01-23T1400,3549A,109.5061,30.3772,恩施土家族苗族自治州,龙凤新区,细颗粒物(PM2.5),108,93,115,81,93,10,,7,7,25,24,6,6,1.3,1.4
2025-01-23T1400,2499A,108.3411,21.6158,防城港市,沙万,细颗粒物(PM2.5),59,52,62,42,43,89,,77,77,19,22,7,12,0.7,1.3
2025-01-23T1400,2500A,108.3514,21.7731,防城港市,防城档案局,细颗粒物(PM2.5),70,77,73,51,50,64,,50,50,29,26,8,7,1.1,0.9
2025-01-23T1400,2501A,108.3506,21.6414,防城港市,大海花园,颗粒物(PM10),52,53,63,35,43,49,,51,50,25,23,4,4,0.8,1
2025-01-23T1400,1371A,113.1294,23.0067,佛山市,湾梁,颗粒物(PM10),85,119,98,41,42,78,,34,34,51,54,7,6,0.7,0.6
2025-01-23T1400,1372A,113.1083,23.0478,佛山市,华材职中,细颗粒物(PM2.5),72,90,86,52,53,93,,36,36,49,52,8,7,0.7,0.7
2025-01-23T1400,1373A,113.144,23.0453,佛山市,南海气象局,颗粒物(PM10),61,72,69,43,45,79,,32,32,47,44,8,7,0.9,0.9
2025-01-23T1400,1374A,113.2881,22.8094,佛山市,顺德苏岗,,45,37,56,31,40,78,,47,47,26,35,9,8,0.7,0.7
2025-01-23T1400,1376A,112.8383,22.8678,佛山市,高明孔堂,细颗粒物(PM2.5),64,,61,46,46,106,,53,53,23,34,6,10,0.6,0.6
2025-01-23T1400,1377A,112.8836,23.1588,佛山市,三水监测站,细颗粒物(PM2.5),82,80,86,60,59,70,,27,27,35,63,8,8,0.9,0.9
2025-01-23T1400,1378A,112.867,23.185,佛山市,三水云东海,细颗粒物(PM2.5),73,60,64,53,50,109,,45,45,36,64,9,8,0.8,0.9
2025-01-23T1400,3625A,113.2544,22.7642,佛山市,容桂街道办,,35,31,48,24,37,86,,54,52,24,37,7,7,0.6,0.6
2025-01-23T1400,1280A,119.3903,26.0543,福州市,鼓山,,,,51,,23,,,85,,,13,,1,,0.5
2025-01-23T1400,1282A,119.2681,26.0504,福州市,师大,,43,43,66,24,42,112,,64,64,12,33,4,4,0.5,0.7
2025-01-23T1400,1283A,119.2984,26.1028,福州市,五四北路,细颗粒物(PM2.5),54,51,62,38,44,101,,55,55,19,39,1,2,0.6,0.7
2025-01-23T1400,1284A,119.2648,26.0768,福州市,杨桥西路,,48,48,63,31,39,109,,61,61,16,33,2,1,0.5,0.6
2025-01-23T1400,1285A,119.317,26.0746,福州市,紫阳,,,,79,,48,,,62,,,54,,4,,0.7
2025-01-23T1400,3048A,119.5799,26.0936,福州市,九龙,,40,39,44,28,27,114,,59,59,10,25,7,3,0.8,0.7
2025-01-23T1400,3526A,119.5189,25.9664,福州市,吴航,,34,21,48,13,31,107,,52,52,10,36,4,2,0.6,0.9
2025-01-23T1400,1755A,123.7977,41.8491,抚顺市,望花区,细颗粒物(PM2.5),67,75,146,48,104,68,,32,32,26,43,6,7,1.0,1.4
2025-01-23T1400,1756A,123.9161,41.8822,抚顺市,顺城区,细颗粒物(PM2.5),62,72,141,44,79,72,,37,37,25,44,8,8,0.8,1.3
2025-01-23T1400,1757A,124.0436,41.8611,抚顺市,东洲区,颗粒物(PM10),63,75,117,36,84,78,,46,46,10,28,11,11,0.7,1.1
2025-01-23T1400,1758A,123.9247,41.8642,抚顺市,新抚区,颗粒物(PM10),72,94,129,50,98,74,,39,39,25,38,8,5,0.9,1.2
2025-01-23T1400,1759A,124.0972,41.8961,抚顺市,大伙房水库,"颗粒物(PM10),细颗粒物(PM2.5)",62,73,96,44,73,79,,41,41,11,33,9,9,0.7,1
2025-01-23T1400,1760A,123.7086,41.8391,抚顺市,沈抚新城,细颗粒物(PM2.5),117,134,122,88,95,60,,30,30,44,44,31,10,3.2,1.7
2025-01-23T1400,2376A,116.2127,28.0814,抚州市,桐源党溪,"颗粒物(PM10),细颗粒物(PM2.5)",67,84,74,48,46,103,,48,48,4,9,8,7,0.6,0.6
2025-01-23T1400,2377A,116.3544,27.9831,抚州市,市站,,,88,91,40,51,110,,53,53,21,41,19,17,,0.9
2025-01-23T1400,2378A,116.3565,27.963,抚州市,血防站,颗粒物(PM10),55,60,79,32,47,104,,44,44,19,45,11,9,1.1,1.2
2025-01-23T1400,2379A,116.3564,28.0007,抚州市,采茶剧团,颗粒物(PM10),59,67,73,32,46,88,,40,40,16,28,10,9,1.8,1.9
2025-01-23T1400,2380A,116.385,27.9647,抚州市,医学分院,颗粒物(PM10),52,54,71,27,37,83,,41,41,14,31,7,6,1.2,1.1
2025-01-23T1400,2207A,121.6094,41.998,阜新市,工业园区,细颗粒物(PM2.5),60,63,124,43,78,86,,50,50,15,30,15,29,0.7,1.2
2025-01-23T1400,2208A,121.6697,42.0279,阜新市,长青街,颗粒物(PM10),54,58,107,36,76,74,,34,34,15,33,13,34,0.7,1.7
2025-01-23T1400,2209A,121.6673,42.0705,阜新市,农业园区,颗粒物(PM10),57,63,87,29,55,75,,54,54,13,18,14,34,0.5,0.8
2025-01-23T1400,2210A,121.6717,42.0224,阜新市,东苑,颗粒物(PM10),54,58,118,36,86,69,,35,35,23,40,14,38,0.5,1.7
2025-01-23T1400,2211A,121.6506,42.0498,阜新市,玉龙新城,,,62,122,40,60,82,,41,41,12,34,13,18,,1.6
2025-01-23T1400,2301A,115.8277,32.8929,阜阳市,市监测站,细颗粒物(PM2.5),72,52,165,52,142,37,,43,43,19,35,5,8,0.5,1
2025-01-23T1400,2303A,115.8554,32.8605,阜阳市,开发区,细颗粒物(PM2.5),67,60,199,48,142,32,,40,39,19,37,6,10,0.6,1
2025-01-23T1400,2875A,115.784,32.8892,阜阳市,阜阳职业技术学院,细颗粒物(PM2.5),63,56,165,45,134,28,,40,39,15,29,5,8,0.5,1
2025-01-23T1400,3468A,115.7901,32.8613,阜阳市,市规划展馆,细颗粒物(PM2.5),68,60,178,49,141,38,,46,44,18,32,5,9,0.6,1.1
2025-01-23T1400,3469A,115.836,32.9183,阜阳市,枣园社区,细颗粒物(PM2.5),87,68,186,64,142,43,,51,51,16,29,4,8,0.6,1
2025-01-23T1400,2669A,102.9099,34.9841,甘南藏族自治州,州政府,,40,40,74,19,42,71,,33,33,10,23,15,15,0.3,0.8
2025-01-23T1400,3380A,102.8914,34.9617,甘南藏族自治州,甘肃民族师范学院,颗粒物(PM10),53,55,66,22,34,67,,33,33,18,27,10,9,0.4,0.6
2025-01-23T1400,2570A,101.9603,30.0475,甘孜藏族自治州,水桥子,,27,27,31,9,17,82,,44,44,5,13,3,3,0.6,0.7
2025-01-23T1400,3065A,101.9533,29.9972,甘孜藏族自治州,州环保局,,27,24,28,8,10,86,,61,61,5,7,4,4,0.5,0.5
2025-01-23T1400,3414A,115.8347,28.932,赣江新区,桑海产业园,细颗粒物(PM2.5),107,100,97,80,67,127,,58,58,25,63,16,15,0.8,0.7
2025-01-23T1400,2362A,114.9017,25.9149,赣州市,通天岩,臭氧1小时,55,56,41,12,9,164,,92,92,18,15,12,9,0.6,0.5
2025-01-23T1400,2363A,114.9367,25.8664,赣州市,地委,,49,49,59,33,38,137,,68,68,15,36,13,6,1.2,1.3
2025-01-23T1400,2364A,114.9461,25.8481,赣州市,气象台,,50,50,66,30,34,145,,67,67,22,50,9,9,0.6,0.8
2025-01-23T1400,2365A,114.9322,25.8333,赣州市,市图书馆,颗粒物(PM10),52,53,66,33,37,142,,59,59,21,52,4,5,1.0,1.1
2025-01-23T1400,2366A,114.8905,25.8471,赣州市,华坚鞋城,颗粒物(PM10),51,51,74,31,41,142,,63,63,16,42,7,7,0.5,0.6
2025-01-23T1400,3109A,115.0093,25.8613,赣州市,赣县区卫计委,,43,43,57,28,40,128,,64,64,12,32,5,5,0.7,0.9
2025-01-23T1400,2683A,106.2319,36.1417,固原市,马园,细颗粒物(PM2.5),118,114,95,89,62,88,,88,87,29,34,12,12,1.2,1
2025-01-23T1400,2684A,106.2792,36.0022,固原市,监测站,细颗粒物(PM2.5),152,,81,116,70,105,,95,95,25,29,12,12,1.0,0.9
2025-01-23T1400,2685A,106.2375,36.0211,固原市,新区,细颗粒物(PM2.5),138,,80,105,62,100,,86,86,26,34,10,10,1.0,0.8
2025-01-23T1400,3522A,106.2177,35.9959,固原市,原州区十五小,细颗粒物(PM2.5),134,136,92,102,60,99,,91,82,34,25,12,12,1.2,0.9
2025-01-23T1400,2543A,106.6308,30.5278,广安市,小平旧居,,,,,,,,,,,,,,,,
2025-01-23T1400,2544A,106.6303,30.4576,广安市,市委,细颗粒物(PM2.5),283,262,243,233,206,12,,10,10,35,40,8,7,1.6,1.5
2025-01-23T1400,2545A,106.6271,30.4663,广安市,友谊中学,细颗粒物(PM2.5),268,250,227,218,191,6,,5,5,39,42,8,7,1.6,1.5
2025-01-23T1400,2547A,106.6388,30.4551,广安市,广电花园,细颗粒物(PM2.5),261,246,221,211,193,7,,5,5,32,41,6,5,1.5,1.5
2025-01-23T1400,2902A,106.6351,30.4865,广安市,北辰小学,细颗粒物(PM2.5),252,249,223,202,182,8,,5,5,36,40,9,8,1.7,1.7
2025-01-23T1400,2523A,105.8945,32.4535,广元市,黑石坡,颗粒物(PM10),56,61,110,39,69,0,,0,0,44,54,6,4,1.2,1.3
2025-01-23T1400,2524A,105.821,32.4444,广元市,老城,细颗粒物(PM2.5),52,39,101,36,69,2,,7,2,42,48,3,3,1.0,1.2
2025-01-23T1400,2526A,105.8628,32.4287,广元市,监测站,细颗粒物(PM2.5),64,54,76,46,62,6,,15,8,47,48,5,7,1.2,1.1
2025-01-23T1400,3617A,105.8047,32.4166,广元市,经开区,细颗粒物(PM2.5),98,76,126,73,101,5,,4,4,47,53,6,9,1.5,1.6
2025-01-23T1400,1345A,113.2347,23.1423,广州市,广雅中学,细颗粒物(PM2.5),104,92,92,78,70,87,,32,32,55,67,5,4,1.0,1
2025-01-23T1400,1346A,113.2612,23.105,广州市,市五中,颗粒物(PM10),56,61,77,38,47,90,,36,36,40,51,3,3,1.0,1
2025-01-23T1400,1348A,113.3478,23.0916,广州市,广东商学院,,46,43,63,32,46,91,,47,47,29,53,4,4,0.9,1
2025-01-23T1400,1349A,113.4332,23.1047,广州市,市八十六中,颗粒物(PM10),54,57,68,37,39,87,,44,44,36,73,3,4,0.8,0.8
2025-01-23T1400,1350A,113.3505,22.9483,广州市,番禺中学,,47,47,64,31,51,80,,40,40,40,51,4,4,0.8,0.9
2025-01-23T1400,1351A,113.2146,23.3916,广州市,花都师范,细颗粒物(PM2.5),64,65,83,46,54,102,,39,39,27,53,6,6,0.7,0.8
2025-01-23T1400,1352A,113.2597,23.1331,广州市,市监测站,颗粒物(PM10),53,56,65,34,39,94,,45,45,44,56,5,5,0.9,0.9
2025-01-23T1400,1353A,113.5618,23.312,广州市,九龙镇镇龙,,40,40,65,28,41,100,,47,47,15,43,4,4,0.6,0.7
2025-01-23T1400,1354A,113.2765,23.1544,广州市,麓湖,,43,41,54,30,37,98,,36,36,28,60,2,2,0.8,0.9
2025-01-23T1400,1355A,113.443,23.3035,广州市,帽峰山森林公园,,48,48,42,21,27,105,,61,61,21,28,6,6,0.6,0.6
2025-01-23T1400,2846A,113.3221,23.1322,广州市,体育西,,50,50,66,31,43,90,,48,48,27,34,4,5,0.8,0.8
2025-01-23T1400,3298A,113.5717,23.5491,广州市,从化街口,细颗粒物(PM2.5),92,85,82,68,63,99,,36,36,27,42,7,7,0.8,0.9
2025-01-23T1400,3299A,113.3472,23.3692,广州市,白云竹料,"颗粒物(PM10),细颗粒物(PM2.5)",57,63,79,40,49,110,,45,45,17,45,6,6,0.7,0.9
2025-01-23T1400,3300A,113.2981,23.237,广州市,白云嘉禾,颗粒物(PM10),64,78,88,43,47,98,,40,40,34,69,7,7,1.0,1.6
2025-01-23T1400,3301A,113.4256,23.1716,广州市,黄埔科学城,,,,66,,39,,,45,45,16,55,6,6,,0.9
2025-01-23T1400,3302A,113.3942,23.0483,广州市,番禺大学城,颗粒物(PM10),60,69,98,25,36,79,,35,35,30,52,8,9,1.6,1.4
2025-01-23T1400,3303A,113.4922,22.8168,广州市,南沙黄阁,细颗粒物(PM2.5),55,56,46,39,36,95,,49,43,28,43,4,3,1.5,1
2025-01-23T1400,3304A,113.5342,22.7896,广州市,南沙街,颗粒物(PM10),51,51,36,33,29,79,,56,50,31,32,6,4,0.8,0.8
2025-01-23T1400,3443A,113.2902,23.5544,广州市,花都梯面,细颗粒物(PM2.5),73,82,60,53,40,114,,56,56,26,37,6,5,0.9,0.8
2025-01-23T1400,3445A,113.7858,23.7478,广州市,从化良口,,33,27,30,20,23,104,,59,59,7,16,5,5,0.6,0.7
2025-01-23T1400,3446A,113.8051,23.2614,广州市,增城荔城,,39,35,58,27,40,90,,56,56,14,23,4,4,0.4,0.5
2025-01-23T1400,2505A,109.568,23.1478,贵港市,德智高中,,,,,,,,,,,,,,,,
2025-01-23T1400,2506A,109.6047,23.0666,贵港市,江南子站,细颗粒物(PM2.5),63,70,107,45,73,112,,86,86,14,28,7,10,0.7,1
2025-01-23T1400,2507A,109.6014,23.0948,贵港市,贵城子站,颗粒物(PM10),72,94,117,47,68,106,,70,70,18,35,15,15,0.7,0.9
2025-01-23T1400,2508A,109.5669,23.1065,贵港市,荷城子站,细颗粒物(PM2.5),67,73,100,48,65,106,,80,76,18,35,16,16,0.7,0.9
2025-01-23T1400,3405A,109.5886,23.1172,贵港市,新世纪学校,细颗粒物(PM2.5),72,83,109,52,69,116,,80,78,24,38,10,11,1.1,1
2025-01-23T1400,1439A,106.6899,26.5998,贵阳市,马鞍山,,,34,81,,53,63,,73,73,,23,3,6,0.8,0.7
2025-01-23T1400,1441A,106.6243,26.6266,贵阳市,鉴湖路,,,27,77,27,54,60,,104,83,17,24,,9,0.6,0.7
2025-01-23T1400,1442A,106.7487,26.6343,贵阳市,燕子冲,细颗粒物(PM2.5),62,,83,44,70,64,,74,56,32,26,9,14,0.9,0.9
2025-01-23T1400,1443A,106.6555,26.4365,贵阳市,碧云窝,,34,34,87,22,56,86,,111,103,15,21,8,20,0.6,0.7
2025-01-23T1400,1445A,106.7109,26.6027,贵阳市,红边门,细颗粒物(PM2.5),67,51,89,48,67,64,,97,77,40,37,8,20,1.1,1
2025-01-23T1400,1446A,106.7164,26.5699,贵阳市,新华路,,,51,84,41,59,,,108,,23,24,43,28,,0.8
2025-01-23T1400,1447A,106.674,26.5424,贵阳市,太慈桥,细颗粒物(PM2.5),55,39,82,39,60,74,,79,79,22,28,9,12,0.7,0.7
2025-01-23T1400,1552A,106.805,26.3003,贵阳市,桐木岭,,39,38,82,27,55,90,,120,102,1,3,6,12,0.9,0.9
2025-01-23T1400,4230A,106.6882,26.5695,贵阳市,花果园大街66号,细颗粒物(PM2.5),70,51,84,51,67,53,,93,77,40,42,6,16,0.4,0.4
2025-01-23T1400,4231A,106.6873,26.5169,贵阳市,漓江路57号,细颗粒物(PM2.5),58,53,92,41,69,62,,77,77,23,35,15,22,0.7,0.7
2025-01-23T1400,1862A,110.4144,25.3167,桂林市,电子科大尧山校区,细颗粒物(PM2.5),90,85,71,67,53,97,,66,66,15,16,8,8,0.9,0.8
2025-01-23T1400,1863A,110.2819,25.2697,桂林市,监测站,细颗粒物(PM2.5),102,113,93,76,69,79,,86,59,37,34,11,13,1.5,1.4
2025-01-23T1400,1864A,110.3089,25.2708,桂林市,龙隐路小学,细颗粒物(PM2.5),103,86,86,77,72,99,,97,74,25,24,12,16,0.8,0.8
2025-01-23T1400,1865A,110.2869,25.2178,桂林市,八中,细颗粒物(PM2.5),100,97,91,75,72,86,,82,57,30,32,11,14,1.0,0.9
2025-01-23T1400,3403A,110.1764,25.2381,桂林市,创业大厦,细颗粒物(PM2.5),89,83,93,66,69,84,,64,44,32,39,11,14,0.5,0.9
2025-01-23T1400,3531A,110.296,25.1253,桂林市,旅游学院,细颗粒物(PM2.5),125,117,93,95,73,64,,58,30,42,41,12,12,1.2,1.2
2025-01-23T1400,2674A,100.2561,34.4714,果洛藏族自治州,玛沁县大武镇,,48,48,73,10,19,71,,45,45,2,5,22,14,0.4,0.5
2025-01-23T1400,1129A,126.5422,45.755,哈尔滨市,岭北,细颗粒物(PM2.5),92,85,150,68,132,84,,48,48,27,56,30,19,1.0,0.9
2025-01-23T1400,1130A,126.561,45.8167,哈尔滨市,松北商大,细颗粒物(PM2.5),122,121,118,92,110,52,,36,36,47,51,20,7,1.0,1.1
2025-01-23T1400,1131A,126.979,45.5419,哈尔滨市,阿城会宁,细颗粒物(PM2.5),124,98,147,94,149,83,,57,57,23,33,19,11,0.5,1
2025-01-23T1400,1132A,126.599,45.7222,哈尔滨市,南岗学府路,细颗粒物(PM2.5),150,168,135,115,104,45,,34,31,57,50,14,6,0.9,0.9
2025-01-23T1400,1133A,126.689,45.7733,哈尔滨市,太平宏伟公园,细颗粒物(PM2.5),88,87,157,65,124,47,,18,18,47,65,31,10,0.8,1.3
2025-01-23T1400,1134A,126.635,45.7667,哈尔滨市,道外承德广场,细颗粒物(PM2.5),94,92,141,70,103,55,,32,32,38,50,38,8,0.7,1
2025-01-23T1400,1135A,126.685,45.7319,哈尔滨市,香坊红旗大街,细颗粒物(PM2.5),308,290,185,258,164,25,,19,19,96,67,46,18,2.2,1.5
2025-01-23T1400,1136A,126.6411,45.7258,哈尔滨市,动力和平路,细颗粒物(PM2.5),108,108,113,81,101,51,,31,31,38,41,9,4,1.0,1
2025-01-23T1400,1137A,126.593,45.7478,哈尔滨市,道里建国路,细颗粒物(PM2.5),84,81,122,62,113,61,,29,29,25,48,44,13,0.7,1.2
2025-01-23T1400,1138A,126.615,45.61,哈尔滨市,平房东轻厂,细颗粒物(PM2.5),123,116,124,93,108,72,,37,37,30,64,10,11,0.8,1
2025-01-23T1400,1139A,126.595,45.9855,哈尔滨市,呼兰师专,细颗粒物(PM2.5),144,122,170,110,153,66,,39,39,27,52,15,17,1.0,1.3
2025-01-23T1400,1140A,126.6206,45.6842,哈尔滨市,省农科院,细颗粒物(PM2.5),166,173,150,126,129,48,,26,26,50,67,15,12,1.0,1.3
2025-01-23T1400,2688A,93.5128,42.8172,哈密市,地区监测站,颗粒物(PM10),62,73,107,32,42,64,,37,37,20,38,13,7,0.1,0.8
2025-01-23T1400,2689A,93.4961,42.8328,哈密市,哈密师范学校,颗粒物(PM10),60,70,86,32,43,60,,25,25,22,46,10,10,0.3,0.8
2025-01-23T1400,2671A,100.9048,36.9639,海北藏族自治州,海晏县西海镇,,25,24,32,8,17,77,,62,62,3,6,12,14,0.4,0.5
2025-01-23T1400,3867A,102.0738,36.5056,海东市,平安区公安北苑,细颗粒物(PM2.5),64,48,71,46,70,72,,35,35,32,39,53,32,1.6,1.4
2025-01-23T1400,1409A,110.576,19.9507,海口市,东寨港,,39,38,50,27,26,86,,101,80,6,6,10,12,0.4,0.4
2025-01-23T1400,1410A,110.3232,20.0574,海口市,海南大学,颗粒物(PM10),59,67,67,36,32,94,,116,94,13,12,4,5,0.5,0.5
2025-01-23T1400,1411A,110.283,20.0053,海口市,秀英海南医院,颗粒物(PM10),54,58,60,34,31,94,,116,94,13,12,3,3,0.5,0.5
2025-01-23T1400,1412A,110.338,19.9969,海口市,海南师范大学,颗粒物(PM10),59,68,63,32,30,94,,118,95,10,9,5,5,0.5,0.5
2025-01-23T1400,1413A,110.33,20.0356,海口市,龙华路环保局宿舍,颗粒物(PM10),56,62,60,36,32,94,,117,94,15,12,5,5,0.5,0.5
2025-01-23T1400,3539A,110.5111,19.9736,海口市,桂林洋子站,,48,48,63,31,32,97,,114,92,7,7,4,5,0.4,0.4
2025-01-23T1400,2673A,100.6188,36.2866,海南藏族自治州,共和县恰卜恰镇,细颗粒物(PM2.5),64,,46,46,25,70,,40,34,10,22,17,15,0.6,0.7
2025-01-23T1400,2676A,97.3731,37.3753,海西蒙古族藏族自治州,德令哈市,,40,40,32,3,12,76,,71,71,1,6,14,17,0.4,0.4
2025-01-23T1400,1048A,114.5302,36.6116,邯郸市,东污水处理厂,细颗粒物(PM2.5),58,,58,41,42,65,,35,35,18,29,8,6,0.6,0.6
2025-01-23T1400,1049A,114.4918,36.5713,邯郸市,矿院,,48,48,57,29,35,63,,37,37,14,22,6,4,0.5,0.6
2025-01-23T1400,1050A,114.484,36.6133,邯郸市,丛台公园,,46,36,65,32,40,63,,39,39,21,31,6,5,0.5,0.6
2025-01-23T1400,3458A,114.7895,36.5593,邯郸市,香泉濮院小区,"颗粒物(PM10),细颗粒物(PM2.5)",52,54,70,36,42,76,,45,45,15,30,8,7,0.5,0.6
2025-01-23T1400,3579A,114.50634,36.77178,邯郸市,永年区实验高中,颗粒物(PM10),52,54,73,26,40,56,,30,30,20,39,10,8,0.7,0.8
2025-01-23T1400,3580A,114.20016,36.44293,邯郸市,峰峰矿区临水派出所,颗粒物(PM10),52,53,55,34,35,70,,45,45,16,21,16,12,0.9,0.9
2025-01-23T1400,2634A,106.9893,33.1842,汉中市,汉川机床厂子校,细颗粒物(PM2.5),249,199,166,199,173,34,,12,12,32,31,7,6,2.0,2.1
2025-01-23T1400,2635A,107.0154,33.0706,汉中市,市监测站,细颗粒物(PM2.5),263,255,215,213,199,17,,13,12,65,61,9,8,3.1,2.9
2025-01-23T1400,2636A,107.0089,33.1138,汉中市,鑫源开发区,细颗粒物(PM2.5),297,260,203,247,207,13,,13,12,64,47,7,7,2.7,2.1
2025-01-23T1400,2637A,107.007,33.0323,汉中市,南郑大河坎水厂,细颗粒物(PM2.5),306,289,233,256,213,17,,14,14,60,49,7,7,2.8,2.2
2025-01-23T1400,1223A,120.2072,30.2111,杭州市,滨江,颗粒物(PM10),66,82,95,46,64,77,,39,39,32,58,7,6,0.5,0.9
2025-01-23T1400,1224A,120.0633,30.2747,杭州市,西溪,细颗粒物(PM2.5),72,82,86,52,64,82,,39,39,31,40,7,6,0.6,0.8
2025-01-23T1400,1226A,120.3461,30.3153,杭州市,下沙,细颗粒物(PM2.5),62,48,55,44,47,84,,34,34,12,53,7,8,0.5,0.6
2025-01-23T1400,1227A,120.1269,30.2456,杭州市,卧龙桥,细颗粒物(PM2.5),93,84,76,69,67,77,,45,45,38,44,6,6,0.5,0.7
2025-01-23T1400,1228A,120.1903,30.2692,杭州市,浙江农大,细颗粒物(PM2.5),82,81,100,60,73,71,,32,32,33,59,8,7,0.5,0.7
2025-01-23T1400,1230A,120.1197,30.3119,杭州市,和睦小学,细颗粒物(PM2.5),73,85,101,53,76,85,,40,40,30,65,7,7,0.5,0.9
2025-01-23T1400,1231A,120.3019,30.4183,杭州市,临平镇,细颗粒物(PM2.5),78,80,78,57,50,80,,35,35,24,44,6,7,0.5,0.7
2025-01-23T1400,1232A,120.2697,30.1819,杭州市,城厢镇,细颗粒物(PM2.5),92,90,109,68,80,80,,38,38,34,62,6,6,0.9,1.2
2025-01-23T1400,1233A,120.0883,30.1808,杭州市,云栖,细颗粒物(PM2.5),77,78,79,56,57,86,,41,41,41,38,7,6,0.6,0.7
2025-01-23T1400,3557A,119.9464,30.0494,杭州市,镇二中,细颗粒物(PM2.5),95,,81,71,84,79,,41,41,38,56,8,7,0.8,1.2
2025-01-23T1400,3558A,119.7183,30.2367,杭州市,市府大楼,细颗粒物(PM2.5),95,81,109,71,97,110,,61,61,27,42,9,9,0.6,1
2025-01-23T1400,3656A,120.1556,30.2864,杭州市,消防大队,细颗粒物(PM2.5),87,85,101,64,75,85,,41,41,32,58,10,10,0.5,0.8
2025-01-23T1400,1270A,117.1959,31.7848,合肥市,明珠广场,细颗粒物(PM2.5),117,102,197,88,166,23,,16,16,40,64,7,12,,1.1
2025-01-23T1400,1271A,117.3072,31.8764,合肥市,三里街,细颗粒物(PM2.5),113,95,171,85,140,27,,22,22,28,51,4,8,0.7,1
2025-01-23T1400,1272A,117.2588,31.8707,合肥市,琥珀山庄,,,95,181,,151,30,,26,26,30,59,5,8,0.8,1.1
2025-01-23T1400,1273A,117.1604,31.9052,合肥市,董铺水库,细颗粒物(PM2.5),79,92,203,58,147,38,,28,28,24,49,3,7,0.6,0.9
2025-01-23T1400,1274A,117.25,31.8571,合肥市,长江中路,细颗粒物(PM2.5),102,95,187,76,158,31,,28,28,32,58,6,10,0.8,1.1
2025-01-23T1400,1275A,117.266,31.9436,合肥市,庐阳区,细颗粒物(PM2.5),113,97,176,85,141,36,,30,30,22,44,3,6,0.7,0.9
2025-01-23T1400,1276A,117.336,31.8586,合肥市,瑶海区,细颗粒物(PM2.5),94,83,164,70,139,30,,24,24,21,53,5,8,0.5,0.8
2025-01-23T1400,1277A,117.3027,31.7964,合肥市,包河区,,,,173,,145,24,,14,14,29,75,,7,0.9,1.1
2025-01-23T1400,1278A,117.2776,31.7385,合肥市,滨湖新区,细颗粒物(PM2.5),83,95,196,61,136,42,,31,31,30,67,4,9,0.7,1
2025-01-23T1400,1279A,117.1318,31.8403,合肥市,高新区,细颗粒物(PM2.5),107,102,190,80,160,30,,27,22,30,54,5,11,1.0,1.3
2025-01-23T1400,3464A,117.3803,31.9147,合肥市,高教基地,细颗粒物(PM2.5),119,,151,90,123,36,,32,31,23,39,6,8,0.6,0.8
2025-01-23T1400,3614A,79.924,37.0877,和田地区,地区环保局,细颗粒物(PM2.5),75,96,136,55,58,74,,59,59,25,26,1,6,0.9,0.8
2025-01-23T1400,3615A,79.9131,37.113,和田地区,市环保局,,,,135,,57,80,,36,36,13,41,,11,1.1,2.2
2025-01-23T1400,2516A,108.2011,24.715,河池市,东仁乐园,细颗粒物(PM2.5),170,165,150,129,105,80,,39,39,42,56,9,9,1.2,1.2
2025-01-23T1400,2517A,108.0497,24.6947,河池市,市环保站,细颗粒物(PM2.5),169,146,105,128,89,77,,34,34,25,38,11,11,1.2,1.1
2025-01-23T1400,2518A,108.0983,24.6989,河池市,市疾控中心,,,,124,,95,72,,18,18,28,51,10,7,1.2,1.1
2025-01-23T1400,1696A,114.6778,23.7569,河源市,源西,,32,30,34,22,24,96,,54,54,12,24,5,5,0.5,0.5
2025-01-23T1400,1697A,114.6944,23.7586,河源市,东埔,,35,31,40,24,28,105,,59,59,17,30,4,3,0.6,0.6
2025-01-23T1400,1698A,114.6892,23.7233,河源市,老城,,37,37,37,25,29,103,,53,53,8,22,4,3,0.5,0.6
2025-01-23T1400,1718A,115.4208,35.2464,菏泽市,气象局,细颗粒物(PM2.5),119,135,117,90,71,39,,34,28,35,34,16,12,0.8,0.7
2025-01-23T1400,3374A,115.5564,35.0891,菏泽市,定陶老年大学,细颗粒物(PM2.5),113,117,105,85,67,40,,28,28,35,38,14,18,0.7,0.7
2025-01-23T1400,4184A,115.4797,35.24401,菏泽市,永昌路1号,细颗粒物(PM2.5),125,134,117,95,72,38,,35,30,37,34,11,13,0.8,0.7
2025-01-23T1400,4193A,115.4715,35.2800,菏泽市,长城路999号,细颗粒物(PM2.5),125,,104,95,61,37,,30,28,35,33,,10,0.8,1
2025-01-23T1400,2514A,111.5264,24.4172,贺州市,环保小区,细颗粒物(PM2.5),70,83,80,51,57,110,,68,68,32,31,9,8,1.1,1.1
2025-01-23T1400,2515A,111.5608,24.4078,贺州市,政协大楼,细颗粒物(PM2.5),64,68,71,46,43,111,,70,68,16,24,8,8,0.7,0.8
2025-01-23T1400,3534A,111.4744,24.4553,贺州市,西湾,,,78,88,51,62,101,,67,67,26,37,,8,0.8,0.8
2025-01-23T1400,2385A,114.17,35.9019,鹤壁市,市监测站,,47,47,70,29,42,73,,47,47,7,16,8,10,0.6,1
2025-01-23T1400,2386A,114.2956,35.7511,鹤壁市,市交警支队,,42,42,73,26,39,72,,45,45,16,27,12,11,0.6,0.9
2025-01-23T1400,2387A,114.2878,35.7306,鹤壁市,迎宾馆,,50,50,81,23,36,74,,44,44,24,33,6,7,1.0,1
2025-01-23T1400,3474A,114.2617,35.6822,鹤壁市,大新区,颗粒物(PM10),53,55,64,32,35,71,,47,47,19,27,12,12,0.7,0.8
2025-01-23T1400,3596A,114.1572,35.9603,鹤壁市,南山宾馆,细颗粒物(PM2.5),65,50,77,47,56,71,,50,50,8,20,7,11,0.8,1.3
2025-01-23T1400,2244A,130.2537,47.3416,鹤岗市,哈啤分公司,,36,36,40,20,31,61,,52,52,13,16,18,16,0.7,0.8
2025-01-23T1400,2245A,130.2684,47.3086,鹤岗市,斯达机电,,44,44,46,29,35,54,,51,51,24,18,18,16,0.6,0.7
2025-01-23T1400,2246A,130.3114,47.3388,鹤岗市,东山纸板厂,,49,49,166,14,22,47,,40,40,31,42,22,17,0.6,2
2025-01-23T1400,2247A,130.1097,47.3382,鹤岗市,五号水库,,34,34,27,23,20,95,,79,79,9,9,9,7,0.4,0.4
2025-01-23T1400,2263A,127.4833,50.2524,黑河市,交通局,颗粒物(PM10),53,56,49,31,33,45,,36,36,22,28,12,8,0.8,0.8
2025-01-23T1400,2264A,127.5144,50.2341,黑河市,环保局,细颗粒物(PM2.5),58,47,56,41,43,44,,28,28,17,33,11,9,0.7,0.8
2025-01-23T1400,2265A,127.5291,50.2472,黑河市,大黑河岛,,,75,50,52,42,31,,15,15,21,16,2,2,,
2025-01-23T1400,1074A,115.6838,37.7541,衡水市,电机北厂,颗粒物(PM10),61,71,62,35,37,54,,25,25,21,34,12,12,0.5,0.5
2025-01-23T1400,1075A,115.6303,37.7316,衡水市,市监测站,细颗粒物(PM2.5),64,55,48,46,31,58,,27,27,26,36,12,10,0.6,0.5
2025-01-23T1400,3188A,115.6683,37.7217,衡水市,市城管局,细颗粒物(PM2.5),72,80,50,52,34,52,,31,31,24,30,10,9,0.6,0.5
2025-01-23T1400,3459A,115.5989,37.5491,衡水市,地表水厂,细颗粒物(PM2.5),63,55,39,45,28,66,,35,35,16,25,12,7,0.6,0.4
2025-01-23T1400,2456A,112.5003,26.9167,衡阳市,原169医院,,,142,99,111,76,82,,69,66,29,31,15,31,,0.9
2025-01-23T1400,2457A,112.6194,26.9258,衡阳市,衡阳化工总厂,细颗粒物(PM2.5),221,189,134,171,114,76,,60,60,29,31,11,12,1.4,1.1
2025-01-23T1400,2458A,112.6211,26.8956,衡阳市,珠晖区环保局,细颗粒物(PM2.5),206,178,114,156,94,68,,55,55,39,41,12,11,1.7,1.4
2025-01-23T1400,2459A,112.6197,26.8733,衡阳市,市委党校,细颗粒物(PM2.5),218,189,115,168,101,74,,78,66,38,28,17,14,1.5,1.1
2025-01-23T1400,2460A,112.6006,26.8919,衡阳市,市监测站,细颗粒物(PM2.5),223,213,136,173,113,70,,61,61,36,32,11,13,1.4,1.3
2025-01-23T1400,2461A,112.5664,26.9056,衡阳市,真空机电公司,细颗粒物(PM2.5),183,171,135,138,98,71,,56,56,,34,9,10,,1.3
2025-01-23T1400,3399A,112.6703,26.882,衡阳市,师范学院,细颗粒物(PM2.5),214,193,118,164,91,81,,80,66,32,26,14,15,1.2,1
2025-01-23T1400,2608A,103.3772,23.3993,红河哈尼族彝族自治州,污水处理厂,,41,41,57,26,49,97,,91,91,8,10,6,7,0.5,0.5
2025-01-23T1400,2609A,103.3861,23.35,红河哈尼族彝族自治州,监测站,细颗粒物(PM2.5),55,51,56,39,49,97,,97,95,7,7,8,8,0.5,0.5
2025-01-23T1400,3038A,103.3758,23.368,红河哈尼族彝族自治州,州图书馆,,40,40,45,23,43,88,,89,88,10,10,7,8,0.5,0.5
2025-01-23T1400,1090A,111.6507,40.7517,呼和浩特市,呼市一监,细颗粒物(PM2.5),79,70,107,58,77,89,,43,43,23,43,16,14,0.7,1
2025-01-23T1400,1091A,111.6572,40.8033,呼和浩特市,小召,细颗粒物(PM2.5),78,75,102,57,69,73,,35,35,35,58,17,18,0.9,1.1
2025-01-23T1400,1094A,111.7516,40.8369,呼和浩特市,如意水处理厂,,,,75,,45,67,,29,29,,59,15,14,,1
2025-01-23T1400,1095A,111.7276,40.8062,呼和浩特市,二十九中,细颗粒物(PM2.5),72,65,82,52,52,63,,30,30,29,51,8,7,0.8,0.9
2025-01-23T1400,1096A,111.5512,40.7866,呼和浩特市,工大金川校区,细颗粒物(PM2.5),75,73,75,55,48,68,,28,28,30,54,18,14,0.8,0.8
2025-01-23T1400,1097A,111.717,40.7612,呼和浩特市,化肥厂生活区,细颗粒物(PM2.5),80,95,105,59,69,87,,48,48,30,51,16,15,0.7,1.1
2025-01-23T1400,3698A,111.5968,40.8178,呼和浩特市,红旗小学,颗粒物(PM10),76,102,94,52,57,61,,25,25,42,60,18,14,1.1,1.1
2025-01-23T1400,3699A,111.6518,40.8389,呼和浩特市,海东办,细颗粒物(PM2.5),77,68,107,56,77,52,,22,22,44,60,14,11,1.1,1.1
2025-01-23T1400,2192A,119.7594,49.2261,呼伦贝尔市,区环保局,,32,28,41,22,38,46,,41,41,20,34,10,14,0.5,0.6
2025-01-23T1400,3061A,119.7512,49.1577,呼伦贝尔市,国华电力东,,27,27,46,16,36,52,,43,43,13,24,8,5,0.3,0.4
2025-01-23T1400,1250A,120.0751,30.8669,湖州市,城西水厂,细颗粒物(PM2.5),78,80,80,57,59,53,,24,24,35,57,7,9,0.4,0.5
2025-01-23T1400,2873A,120.0875,30.8955,湖州市,仁皇山新区,细颗粒物(PM2.5),78,74,68,57,50,47,,22,22,46,52,7,7,0.7,0.8
2025-01-23T1400,2907A,120.1844,30.8596,湖州市,吴兴区站,细颗粒物(PM2.5),77,101,59,56,42,38,,26,21,38,36,5,6,1.1,0.4
2025-01-23T1400,3562A,120.4148,30.8538,湖州市,南浔区站,细颗粒物(PM2.5),78,90,51,57,34,28,,16,16,53,47,7,7,0.5,0.4
2025-01-23T1400,1607A,120.9092,40.7136,葫芦岛市,龙港区,颗粒物(PM10),63,75,98,36,84,58,,27,27,22,48,18,60,0.4,1
2025-01-23T1400,1608A,120.8392,40.7514,葫芦岛市,化工街,,35,34,105,24,68,59,,22,22,18,49,13,30,0.8,1.5
2025-01-23T1400,1609A,120.8341,40.7073,葫芦岛市,新区,,,,91,,74,62,,30,30,26,60,16,16,0.8,1.7
2025-01-23T1400,1610A,120.8695,40.7677,葫芦岛市,东城区,颗粒物(PM10),98,146,96,59,75,57,,24,24,29,47,29,37,0.8,0.9
2025-01-23T1400,2482A,109.5981,27.5721,怀化市,林科所,细颗粒物(PM2.5),144,122,118,110,93,91,,72,72,17,28,27,14,1.2,1.3
2025-01-23T1400,2483A,109.9453,27.5444,怀化市,河西地税局,细颗粒物(PM2.5),199,163,157,149,126,81,,45,45,22,46,17,7,1.1,1.2
2025-01-23T1400,2484A,109.9781,27.5342,怀化市,市四医院,细颗粒物(PM2.5),215,188,182,165,148,86,,75,75,20,45,6,11,1.9,2.3
2025-01-23T1400,2485A,109.9972,27.5578,怀化市,监测楼,细颗粒物(PM2.5),176,167,178,133,133,78,,57,57,25,46,5,8,1.3,1.6
2025-01-23T1400,2486A,110.0394,27.583,怀化市,市委党校,细颗粒物(PM2.5),162,163,166,123,129,85,,68,68,20,40,9,14,1.3,1.6
2025-01-23T1400,1210A,119.036,33.5981,淮安市,钵池山,,40,31,35,28,36,96,,70,70,12,17,7,7,0.5,0.6
2025-01-23T1400,1211A,119.007,33.575,淮安市,北京南路,,41,41,36,26,32,90,,65,65,12,17,8,7,0.6,0.6
2025-01-23T1400,1212A,118.989,33.6067,淮安市,市监测站,,49,,34,34,35,97,,70,70,15,19,6,6,0.5,0.6
2025-01-23T1400,1213A,119.135,33.5039,淮安市,楚州区监测站,,36,32,37,25,31,96,,69,69,12,17,7,7,0.5,0.5
2025-01-23T1400,1214A,119.0186,33.6297,淮安市,淮阴区监测站,,46,36,44,32,40,93,,63,63,20,27,6,6,0.4,0.5
2025-01-23T1400,3426A,118.8755,33.2894,淮安市,新华书店,,36,36,41,22,31,95,,69,69,15,21,7,8,0.5,0.5
2025-01-23T1400,2282A,116.8004,33.975,淮北市,监测站,细颗粒物(PM2.5),74,75,94,54,65,62,,56,56,12,21,4,6,0.5,0.6
2025-01-23T1400,2283A,116.8091,33.9007,淮北市,烈山区政府,细颗粒物(PM2.5),69,57,68,50,53,71,,70,68,16,19,3,4,0.5,0.6
2025-01-23T1400,3330A,116.8873,33.9836,淮北市,杜集区检察院,细颗粒物(PM2.5),68,71,77,49,53,68,,67,64,10,14,2,3,0.7,0.7
2025-01-23T1400,4017A,116.7923,33.9535,淮北市,市博物馆,细颗粒物(PM2.5),64,55,80,46,56,65,,65,62,17,22,6,7,0.7,0.8
2025-01-23T1400,2277A,116.8305,32.7727,淮南市,潘集区政府,细颗粒物(PM2.5),118,108,145,89,120,39,,39,39,21,34,7,10,0.6,0.8
2025-01-23T1400,2279A,116.8569,32.5951,淮南市,谢家集区政府,细颗粒物(PM2.5),105,98,143,79,112,37,,34,30,17,36,4,9,0.5,0.8
2025-01-23T1400,2280A,116.8281,32.633,淮南市,八公山区政府,细颗粒物(PM2.5),109,114,151,82,118,43,,41,41,18,26,10,13,0.5,0.7
2025-01-23T1400,2281A,116.6325,32.6201,淮南市,焦岗湖风景区管理处,细颗粒物(PM2.5),84,87,142,62,101,0,,18,14,27,29,8,8,0.3,0.5
2025-01-23T1400,2894A,117.0566,32.6531,淮南市,经济技术开发区消防队,,,105,146,74,103,44,,44,44,,32,4,7,0.5,0.7
2025-01-23T1400,3329A,117.0108,32.5893,淮南市,山南新区,细颗粒物(PM2.5),105,90,120,79,97,53,,45,45,17,31,6,8,0.7,0.8
2025-01-23T1400,4209A,117.0031,32.6445,淮南市,国庆中路369号,细颗粒物(PM2.5),118,102,147,89,110,38,,38,38,26,41,8,12,0.6,0.7
2025-01-23T1400,2446A,114.9028,30.4742,黄冈市,职工中心,,,,191,,156,77,,68,59,40,36,10,11,1.8,0.9
2025-01-23T1400,2929A,114.8858,30.4519,黄冈市,红卫路,细颗粒物(PM2.5),247,236,194,197,158,77,,64,58,35,35,10,10,1.5,1.3
2025-01-23T1400,3398A,114.9136,30.4445,黄冈市,市林业局,细颗粒物(PM2.5),248,228,180,198,153,82,,68,64,34,31,13,13,1.2,1.1
2025-01-23T1400,2672A,102.0199,35.5102,黄南藏族自治州,同仁县隆务镇,,,58,62,35,38,62,,58,52,7,9,,10,0.7,0.8
2025-01-23T1400,2295A,118.2903,29.6963,黄山市,延安路89号,颗粒物(PM10),56,62,68,27,42,123,,51,51,8,20,6,5,0.6,0.6
2025-01-23T1400,2296A,118.327,29.7178,黄山市,黄山东路89号,,,,87,,49,,,45,,,28,,5,,0.6
2025-01-23T1400,2297A,118.1371,30.2756,黄山市,黄山区政府5号楼,细颗粒物(PM2.5),87,83,64,64,49,138,,62,62,11,15,11,8,0.9,0.8
2025-01-23T1400,2423A,115.0601,30.2313,黄石市,沈家营,,,,153,,119,92,,38,38,52,57,46,14,1.2,1.2
2025-01-23T1400,2426A,114.8988,30.2019,黄石市,铁山,细颗粒物(PM2.5),189,,165,142,138,132,,80,80,37,64,14,13,0.9,1.1
2025-01-23T1400,2427A,115.0307,30.2092,黄石市,团城山,细颗粒物(PM2.5),220,204,153,170,128,79,,41,41,66,53,20,14,1.3,1.2
2025-01-23T1400,3149A,115.0235,30.1578,黄石市,笔架山北路,细颗粒物(PM2.5),198,,134,148,119,125,,108,108,43,52,13,13,1.1,1.3
2025-01-23T1400,4185A,115.0780,30.21118,黄石市,磁湖东路29号,细颗粒物(PM2.5),221,206,189,171,145,78,,39,39,62,70,18,10,1.5,1.5
2025-01-23T1400,1392A,114.4183,23.0528,惠州市,河南岸金山湖子站,,32,26,43,22,34,96,,51,51,8,17,7,6,0.5,0.6
2025-01-23T1400,1393A,114.4053,23.0822,惠州市,下埔横江三路子站,,33,27,51,20,38,105,,56,56,10,21,6,5,0.6,0.7
2025-01-23T1400,1394A,114.4103,23.1142,惠州市,江北云山西路子站,,34,26,51,20,35,106,,54,54,10,23,6,6,0.9,1
2025-01-23T1400,1395A,114.4645,22.7833,惠州市,惠阳区承修路船湖子站,,32,27,45,22,30,92,,44,44,10,19,7,7,0.6,0.7
2025-01-23T1400,1396A,114.5317,22.7422,惠州市,大亚湾管委会子站,,32,28,40,22,26,100,,56,56,21,24,6,6,0.6,0.6
2025-01-23T1400,3314A,114.4338,22.8134,惠州市,惠阳秋长,,32,29,42,21,28,102,,56,56,9,22,11,12,0.7,0.8
2025-01-23T1400,3452A,114.6517,22.775,惠州市,大亚湾霞涌,,,,24,20,24,77,,46,46,15,15,,5,0.3,0.2
2025-01-23T1400,2240A,130.9762,45.3001,鸡西市,环保局,,,,126,,100,77,,62,62,15,25,7,8,0.7,1
2025-01-23T1400,2243A,130.9429,45.3039,鸡西市,第一中学,细颗粒物(PM2.5),83,66,107,61,92,90,,75,75,8,17,4,5,0.4,0.7
2025-01-23T1400,3707A,131.0207,45.3073,鸡西市,欧美日汽修厂,细颗粒物(PM2.5),113,93,152,85,134,80,,65,65,26,36,14,25,1.1,1.3
2025-01-23T1400,3709A,130.9967,45.3106,鸡西市,市政设施管理处,细颗粒物(PM2.5),92,88,137,68,113,85,,68,68,18,38,7,9,0.7,1
2025-01-23T1400,2367A,114.9754,27.0803,吉安市,红声器材厂,颗粒物(PM10),58,66,77,37,45,135,,82,82,17,24,16,13,0.5,0.6
2025-01-23T1400,2368A,114.9658,27.0999,吉安市,市森林工业局,颗粒物(PM10),61,72,77,40,46,123,,81,80,6,17,18,15,0.5,0.6
2025-01-23T1400,2369A,114.99,27.1312,吉安市,市环境监测站,细颗粒物(PM2.5),57,61,70,40,45,132,,88,88,19,24,16,14,0.4,0.4
2025-01-23T1400,2370A,115.0093,27.0968,吉安市,青原区法院,细颗粒物(PM2.5),73,73,74,53,45,136,,84,84,22,32,16,14,0.7,0.6
2025-01-23T1400,1772A,126.54,43.8622,吉林市,哈达湾,,,,96,,78,63,,42,42,,45,14,11,,1.2
2025-01-23T1400,1773A,126.5844,43.8358,吉林市,东局子,细颗粒物(PM2.5),69,66,86,50,70,57,,42,42,38,35,68,14,0.5,0.7
2025-01-23T1400,1774A,126.5052,43.8245,吉林市,电力学院,,49,,87,34,80,73,,38,38,20,38,12,10,0.8,1.4
2025-01-23T1400,1775A,126.6133,43.8972,吉林市,江北,细颗粒物(PM2.5),60,59,113,43,88,84,,49,49,24,46,16,13,1.1,1.3
2025-01-23T1400,1776A,126.555,43.8306,吉林市,江南公园,细颗粒物(PM2.5),70,58,99,51,87,55,,32,32,41,47,28,8,0.7,1.3
2025-01-23T1400,1778A,126.7061,43.7133,吉林市,丰满,,,,,,,,,,,,,,,,
2025-01-23T1400,2868A,126.4739,43.953,吉林市,九站,细颗粒物(PM2.5),135,130,125,103,98,48,,37,37,57,56,36,21,1.2,1.4
2025-01-23T1400,1299A,116.9862,36.6114,济南市,科干所,细颗粒物(PM2.5),125,161,110,95,68,26,,13,13,79,61,18,16,1.3,1.2
2025-01-23T1400,1300A,116.9376,36.665,济南市,农科所,细颗粒物(PM2.5),123,161,98,93,47,32,,14,14,64,53,17,16,1.1,0.9
2025-01-23T1400,1301A,117.1265,36.6734,济南市,开发区,细颗粒物(PM2.5),144,156,113,110,68,30,,14,14,66,51,21,16,1.3,1.1
2025-01-23T1400,1303A,117.0624,36.6868,济南市,省种子仓库,细颗粒物(PM2.5),134,166,110,102,58,23,,11,11,62,47,19,19,1.0,1.1
2025-01-23T1400,1304A,116.9489,36.6447,济南市,机床二厂,细颗粒物(PM2.5),150,156,105,115,60,33,,16,16,62,50,20,21,1.3,1.2
2025-01-23T1400,1305A,117.0495,36.663,济南市,市监测站,细颗粒物(PM2.5),125,161,108,95,58,25,,14,14,77,56,25,21,1.4,1.1
2025-01-23T1400,1306A,116.7675,36.5484,济南市,长清党校,,,,106,,56,,,38,,,57,,14,,1.0
2025-01-23T1400,1616A,117.6795,36.229,济南市,技术学院,细颗粒物(PM2.5),70,61,136,51,108,73,,39,39,27,54,13,14,0.8,1.3
2025-01-23T1400,1961A,117.532,36.6868,济南市,东山小学,细颗粒物(PM2.5),158,193,130,120,77,53,,24,24,55,50,17,11,1.4,1.2
2025-01-23T1400,3059A,117.7161,36.2049,济南市,泰兴公司,细颗粒物(PM2.5),67,68,165,48,117,70,,33,33,18,53,13,15,0.6,1.3
2025-01-23T1400,3064A,117.6867,36.2171,济南市,莱芜战役纪念馆,细颗粒物(PM2.5),70,73,147,51,107,75,,40,40,19,50,11,12,0.8,1.2
2025-01-23T1400,3494A,117.1673,36.9782,济南市,济阳区政府,细颗粒物(PM2.5),168,176,75,127,48,33,,19,19,47,30,21,15,1.4,0.8
2025-01-23T1400,3495A,117.1171,36.63,济南市,锦屏中学,细颗粒物(PM2.5),138,156,121,105,81,29,,20,20,77,52,13,11,1.2,1
2025-01-23T1400,3682A,116.9814,36.6819,济南市,济南四建,,,,,,,,,,,,,,,,
2025-01-23T1400,1653A,116.6251,35.4302,济宁市,火炬城,细颗粒物(PM2.5),79,88,127,58,90,63,,29,29,27,52,10,15,1.0,1.3
2025-01-23T1400,1655A,116.5491,35.4042,济宁市,电化厂,细颗粒物(PM2.5),100,127,159,75,91,57,,24,24,40,62,13,18,1.0,1.3
2025-01-23T1400,3500A,116.5814,35.3707,济宁市,北湖一中,细颗粒物(PM2.5),113,110,131,85,94,59,,29,29,91,80,6,11,1.5,1.9
2025-01-23T1400,3501A,116.8249,35.5593,济宁市,服务中心,细颗粒物(PM2.5),104,111,156,78,96,72,,41,41,,54,8,13,1.2,1.4
2025-01-23T1400,3678A,116.5907,35.4054,济宁市,市第七中学,,,,131,,103,,,47,,,56,,11,,1.6
2025-01-23T1400,2255A,130.2751,46.8028,佳木斯市,佳纺,细颗粒物(PM2.5),105,83,167,79,152,87,,55,55,11,52,3,11,0.8,1.6
2025-01-23T1400,2256A,130.3995,46.8307,佳木斯市,发电厂,细颗粒物(PM2.5),118,,161,89,150,80,,55,55,10,56,6,11,0.6,1.5
2025-01-23T1400,2257A,130.3258,46.7975,佳木斯市,环保局,细颗粒物(PM2.5),97,79,147,72,137,78,,52,52,13,45,10,12,0.8,1.5
2025-01-23T1400,2258A,130.3648,46.8032,佳木斯市,十一中,,,,147,68,150,75,,47,47,,70,8,10,0.8,1.6
2025-01-23T1400,2259A,130.3794,46.7588,佳木斯市,四丰,细颗粒物(PM2.5),77,69,126,56,90,83,,70,70,11,19,1,1,1.0,1.4
2025-01-23T1400,1252A,120.7436,30.778,嘉兴市,清河小学,,,33,36,13,18,69,,23,23,,40,,3,0.8,0.5
2025-01-23T1400,1253A,120.726,30.7478,嘉兴市,嘉兴学院,,50,50,48,32,25,62,,20,20,16,34,7,7,0.6,0.7
2025-01-23T1400,2872A,120.7846,30.7525,嘉兴市,南湖区残联,,42,42,46,28,22,70,,26,26,15,41,8,8,0.6,0.6
2025-01-23T1400,3407A,120.6916,30.7739,嘉兴市,秀洲住建,,39,39,37,27,23,68,,18,18,20,34,5,5,0.4,0.3
2025-01-23T1400,1945A,98.2908,39.7711,嘉峪关市,气象局,颗粒物(PM10),78,105,81,36,32,74,,46,46,23,28,21,8,1.0,0.6
2025-01-23T1400,2884A,98.2672,39.7978,嘉峪关市,酒钢宾馆,颗粒物(PM10),92,134,94,39,32,71,,52,52,23,28,123,31,2.3,1
2025-01-23T1400,3248A,98.2643,39.7724,嘉峪关市,雄关区,颗粒物(PM10),76,102,69,36,28,66,,47,47,48,36,37,10,3.9,0.6
2025-01-23T1400,1383A,113.1064,22.6058,江门市,北街,细颗粒物(PM2.5),113,,47,85,54,,,51,,31,30,4,3,0.7,0.7
2025-01-23T1400,1384A,113.0731,22.5835,江门市,西区,细颗粒物(PM2.5),53,,49,37,43,80,,47,47,27,32,6,6,0.7,0.8
2025-01-23T1400,1385A,113.0219,22.5311,江门市,圭峰西,细颗粒物(PM2.5),58,44,43,41,45,77,,47,47,27,32,4,3,0.5,0.6
2025-01-23T1400,1386A,113.0828,22.5947,江门市,东湖,颗粒物(PM10),56,61,64,27,34,83,,46,46,26,26,5,5,0.5,0.6
2025-01-23T1400,3311A,113.1075,22.5647,江门市,江海富民,颗粒物(PM10),58,65,67,36,47,74,,53,50,31,32,5,5,0.8,0.8
2025-01-23T1400,3449A,113.05,22.4667,江门市,新会银湖,细颗粒物(PM2.5),60,,42,43,60,70,,35,35,29,38,6,5,0.7,0.8
2025-01-23T1400,1828A,113.227,35.2125,焦作市,市环保局,细颗粒物(PM2.5),99,104,129,74,83,35,,28,28,39,43,14,25,0.9,0.8
2025-01-23T1400,1830A,113.1992,35.2590,焦作市,影视城,细颗粒物(PM2.5),104,109,122,78,86,29,,47,40,50,37,35,20,1.3,1.2
2025-01-23T1400,3169A,113.2725,35.2067,焦作市,太极体育中心,,,,118,,70,37,,29,29,34,45,16,16,,0.8
2025-01-23T1400,3335A,113.3137,35.2641,焦作市,马村街道办,细颗粒物(PM2.5),103,83,126,77,100,36,,31,31,44,49,17,20,1.1,1.1
2025-01-23T1400,3336A,113.2465,35.2373,焦作市,焦作技师学院,细颗粒物(PM2.5),89,100,130,66,78,38,,34,34,33,37,16,22,1.2,1.2
2025-01-23T1400,3477A,113.1656,35.2539,焦作市,中站许衡医院,细颗粒物(PM2.5),97,101,121,72,88,25,,35,33,52,46,42,23,1.4,1.4
2025-01-23T1400,3981A,113.2449,35.1803,焦作市,原李万街道办,细颗粒物(PM2.5),85,105,116,63,68,42,,34,34,30,37,16,14,0.9,0.8
2025-01-23T1400,1708A,116.3701,23.5345,揭阳市,新兴,,,68,67,50,57,134,,61,61,13,26,5,5,,0.9
2025-01-23T1400,1709A,116.3264,23.5443,揭阳市,西马,细颗粒物(PM2.5),62,56,72,44,67,147,,71,71,15,29,6,6,0.8,1
2025-01-23T1400,1710A,116.3611,23.5626,揭阳市,东兴,细颗粒物(PM2.5),59,55,74,42,53,142,,71,71,9,26,6,5,0.8,0.9
2025-01-23T1400,1711A,116.4151,23.5294,揭阳市,渔湖,细颗粒物(PM2.5),53,51,65,37,38,156,,74,74,11,23,7,6,0.7,0.7
2025-01-23T1400,3320A,116.403,23.5699,揭阳市,曲溪,细颗粒物(PM2.5),60,,64,43,46,148,,72,72,14,35,2,3,0.7,0.9
2025-01-23T1400,1944A,102.1692,38.5167,金昌市,天庆家园,细颗粒物(PM2.5),74,70,61,54,43,92,,66,63,21,17,36,43,1.6,1
2025-01-23T1400,4022A,102.1647,38.5371,金昌市,金川区人防中心,细颗粒物(PM2.5),72,80,69,52,41,93,,68,68,22,15,34,20,0.8,1
2025-01-23T1400,4239A,102.1930,38.5319,金昌市,长春路96号,细颗粒物(PM2.5),65,60,52,47,38,93,,71,71,21,17,33,36,0.9,0.6
2025-01-23T1400,1262A,119.647,29.077,金华市,十五中,细颗粒物(PM2.5),75,81,86,55,52,139,,62,62,21,50,5,4,0.6,0.9
2025-01-23T1400,1263A,119.686,29.1029,金华市,监测站,细颗粒物(PM2.5),69,74,82,50,50,142,,51,51,19,56,6,5,0.5,0.7
2025-01-23T1400,3659A,119.656,29.1131,金华市,气象局,细颗粒物(PM2.5),74,80,94,54,58,134,,42,42,17,65,5,6,0.7,1
2025-01-23T1400,1767A,121.1115,41.0879,锦州市,南山,细颗粒物(PM2.5),82,88,80,60,76,64,,37,37,29,45,19,19,1.1,1.5
2025-01-23T1400,1768A,121.0533,40.8434,锦州市,开发区,细颗粒物(PM2.5),112,153,116,84,83,35,,22,22,52,61,26,21,2.3,2
2025-01-23T1400,1769A,121.1836,41.1119,锦州市,百股街道,细颗粒物(PM2.5),73,62,91,53,82,71,,36,36,23,43,18,20,1.0,1.2
2025-01-23T1400,1770A,121.1178,41.1222,锦州市,天安街道,细颗粒物(PM2.5),73,83,94,53,76,62,,33,33,30,49,18,25,1.2,1.1
2025-01-23T1400,1771A,121.1303,41.1386,锦州市,北湖公园,细颗粒物(PM2.5),67,69,93,48,80,64,,38,38,28,45,19,24,1.1,1
2025-01-23T1400,2160A,112.85,35.5051,晋城市,自来水公司,细颗粒物(PM2.5),104,92,179,78,144,79,,30,30,33,57,14,21,1.1,1.8
2025-01-23T1400,2161A,112.8318,35.4936,晋城市,白云商贸,细颗粒物(PM2.5),79,93,185,58,123,94,,38,38,25,49,13,15,0.9,1.6
2025-01-23T1400,2162A,112.8508,35.4887,晋城市,市环保局,细颗粒物(PM2.5),98,90,197,73,140,84,,34,34,22,54,13,18,1.0,1.6
2025-01-23T1400,2163A,112.8676,35.4897,晋城市,技术学院,细颗粒物(PM2.5),104,91,189,78,147,91,,36,36,25,58,13,19,1.0,1.7
2025-01-23T1400,2165A,112.8453,35.546,晋城市,白马寺,,,,,,,,,,,,,,,,
2025-01-23T1400,3620A,112.8271,35.4828,晋城市,泽州一中,,,,168,,135,90,,35,35,,49,12,16,0.7,1.4
2025-01-23T1400,2173A,112.7249,37.7067,晋中市,南都小区,细颗粒物(PM2.5),120,142,95,91,57,78,,36,36,44,49,26,15,1.2,0.9
2025-01-23T1400,2174A,112.6991,37.6982,晋中市,榆次区政府,颗粒物(PM10),96,141,102,71,52,71,,33,32,45,45,21,15,1.2,0.9
2025-01-23T1400,2865A,112.7195,37.6828,晋中市,榆次三中,细颗粒物(PM2.5),134,146,105,102,60,78,,34,34,42,44,25,17,1.2,0.9
2025-01-23T1400,4200A,112.7478,37.6954,晋中市,榆次一中,细颗粒物(PM2.5),128,141,97,97,57,74,,36,36,41,43,23,14,1.1,0.7
2025-01-23T1400,2439A,112.2014,31.0481,荆门市,竹园小学,细颗粒物(PM2.5),145,154,218,111,161,58,,67,51,20,29,6,9,1.0,1.2
2025-01-23T1400,2440A,112.1969,30.9891,荆门市,掇刀,细颗粒物(PM2.5),163,164,196,124,164,73,,80,64,23,29,15,15,0.9,1
2025-01-23T1400,2441A,112.2213,31.0386,荆门市,石化一小,细颗粒物(PM2.5),137,148,214,104,150,60,,67,53,19,28,,12,0.9,1.1
2025-01-23T1400,3012A,112.1849,31.0362,荆门市,西山林语,细颗粒物(PM2.5),143,164,208,109,157,65,,77,61,20,26,3,6,1.2,1.2
2025-01-23T1400,3547A,112.1632,31.0138,荆门市,龙泉中学南校,细颗粒物(PM2.5),201,182,220,151,172,75,,82,70,18,24,13,17,1.0,1.2
2025-01-23T1400,1844A,112.2494,30.3197,荆州市,市图书馆,细颗粒物(PM2.5),207,,191,157,202,58,,61,52,29,38,,10,1.2,1.5
2025-01-23T1400,1845A,112.2008,30.3544,荆州市,市委党校,细颗粒物(PM2.5),203,,216,153,202,60,,62,55,28,36,9,13,0.9,1.1
2025-01-23T1400,3194A,112.2747,30.3122,荆州市,管委会,细颗粒物(PM2.5),219,,226,169,216,73,,73,66,26,36,8,12,1.0,1.3
2025-01-23T1400,3548A,112.1655,30.3364,荆州市,学苑路,细颗粒物(PM2.5),182,150,212,137,204,68,,62,59,26,37,8,12,1.4,1.7
2025-01-23T1400,2342A,117.3102,29.3867,景德镇市,王港中学,,,,,,,,,,,,,,,,
2025-01-23T1400,2343A,117.2117,29.2933,景德镇市,老干部活动中心,,36,32,55,25,37,110,,54,54,11,35,4,4,0.4,0.6
2025-01-23T1400,2344A,117.1894,29.2789,景德镇市,兽医站,,37,37,65,21,34,114,,68,68,10,30,3,4,0.6,0.7
2025-01-23T1400,2345A,117.1547,29.2617,景德镇市,台达陶瓷,,35,33,54,22,33,112,,72,72,11,31,4,6,0.3,0.5
2025-01-23T1400,2346A,117.2461,29.2956,景德镇市,陶研所,,37,35,49,21,46,118,,56,56,11,31,4,5,0.5,0.7
2025-01-23T1400,1803A,115.9872,29.6815,九江市,十里,细颗粒物(PM2.5),182,200,134,137,96,157,,104,104,29,45,12,11,1.2,1.2
2025-01-23T1400,1804A,115.9584,29.7046,九江市,茅山头,细颗粒物(PM2.5),205,206,163,155,120,155,,105,105,32,53,8,5,1.3,1.2
2025-01-23T1400,1805A,115.9877,29.7295,九江市,西园,细颗粒物(PM2.5),216,226,140,166,114,146,,92,92,34,54,19,17,1.2,1.1
2025-01-23T1400,1808A,115.9114,29.6038,九江市,综合工业园,细颗粒物(PM2.5),245,196,128,195,118,139,,88,88,42,57,18,11,1.2,1.1
2025-01-23T1400,1809A,116.0721,29.7535,九江市,石化总厂,细颗粒物(PM2.5),214,214,150,164,115,146,,93,93,36,51,18,16,1.4,1.2
2025-01-23T1400,1810A,115.9773,29.5698,九江市,庐山气象台,,,121,41,72,32,136,,124,121,14,11,,8,1.3,1
2025-01-23T1400,3190A,116.0254,29.6994,九江市,外国语学校,细颗粒物(PM2.5),224,213,142,174,105,159,,105,105,,29,14,17,1.1,0.6
2025-01-23T1400,4253A,116.0102,29.6594,九江市,莲花大道8号,细颗粒物(PM2.5),234,208,133,184,112,137,,98,98,38,32,14,14,0.8,0.8
2025-01-23T1400,2658A,98.5061,39.7443,酒泉市,仓门街子站,,,102,98,49,37,90,,53,53,9,18,,28,0.6,0.7
2025-01-23T1400,4240A,98.4958,39.7339,酒泉市,玉门东路5号,颗粒物(PM10),78,105,98,31,34,88,,48,48,8,21,16,14,0.5,0.7
2025-01-23T1400,2698A,76.0072,39.4467,喀什地区,巡警大队,细颗粒物(PM2.5),124,168,161,94,78,42,,21,21,74,69,14,10,2.4,2.7
2025-01-23T1400,2699A,75.9755,39.4694,喀什地区,吾办,细颗粒物(PM2.5),150,199,163,115,106,36,,19,19,76,75,10,5,2.1,2.4
2025-01-23T1400,4027A,75.9483,39.4689,喀什地区,老干局,颗粒物(PM10),140,229,203,72,87,54,,19,19,46,68,12,7,1.7,3.3
2025-01-23T1400,1824A,114.3389,34.7781,开封市,肿瘤医院,,,72,80,57,52,,,42,41,19,18,6,4,0.7,0.7
2025-01-23T1400,1826A,114.2885,34.7965,开封市,世纪星幼儿园,细颗粒物(PM2.5),85,67,75,63,58,51,,40,40,24,25,9,8,0.6,0.6
2025-01-23T1400,3147A,114.3438,34.8106,开封市,龙亭公园,细颗粒物(PM2.5),69,69,80,50,50,54,,40,40,23,25,8,7,0.3,0.3
2025-01-23T1400,3210A,114.3644,34.7964,开封市,汴京公园,细颗粒物(PM2.5),75,92,85,55,55,55,,40,40,24,24,9,8,0.7,0.8
2025-01-23T1400,3473A,114.2485,34.8306,开封市,技师学院,颗粒物(PM10),70,90,79,50,49,54,,38,38,27,27,7,6,0.6,1
2025-01-23T1400,3592A,114.4644,34.7556,开封市,祥符区生态环境局,细颗粒物(PM2.5),94,93,103,70,67,52,,30,30,16,24,8,7,0.7,0.7
2025-01-23T1400,1951A,84.895,45.6094,克拉玛依市,长征新村,细颗粒物(PM2.5),113,113,114,85,83,61,,70,66,45,37,11,8,1.2,1
2025-01-23T1400,1952A,84.8988,45.5893,克拉玛依市,南林小区,细颗粒物(PM2.5),113,112,110,85,87,57,,69,60,30,20,7,5,1.4,1.2
2025-01-23T1400,1954A,84.905,44.3396,克拉玛依市,独山子区,,,,46,,47,,,94,82,,23,6,4,,0.6
2025-01-23T1400,1955A,85.6979,46.098,克拉玛依市,乌尔禾区商贸楼,细颗粒物(PM2.5),148,,128,113,129,91,,84,84,24,29,5,5,1.3,1.4
2025-01-23T1400,3612A,85.1045,45.6899,克拉玛依市,白碱滩区新站,,,,124,,96,56,,66,58,25,24,5,7,,1.4
2025-01-23T1400,2697A,76.1454,39.7142,克孜勒苏柯尔克孜自治州,市人民政府,细颗粒物(PM2.5),85,116,102,63,58,89,,69,69,21,22,8,6,1.3,1.2
2025-01-23T1400,3665A,76.1658,39.7157,克孜勒苏柯尔克孜自治州,克州文化中心,,,,69,64,59,80,,69,69,38,28,13,11,1.3,0.9
2025-01-23T1400,1450A,102.8204,24.8886,昆明市,呈贡新区,,29,29,31,17,21,92,,73,73,7,18,4,5,0.4,0.5
2025-01-23T1400,1451A,102.6251,24.9608,昆明市,西山森林公园,,,,,,,,,,,,,,,,
2025-01-23T1400,1452A,102.7252,25.0902,昆明市,龙泉镇,,,,41,16,27,95,,42,42,10,30,10,7,,1
2025-01-23T1400,1453A,102.7266,25.0375,昆明市,东风东路,,33,28,36,23,26,93,,46,46,12,23,8,7,0.5,0.5
2025-01-23T1400,1454A,102.6742,25.0669,昆明市,金鼎山,,28,24,41,11,28,87,,45,45,12,30,10,9,0.5,0.7
2025-01-23T1400,1455A,102.6644,25.0401,昆明市,碧鸡广场,,29,28,42,18,29,91,,47,47,10,32,8,6,0.5,0.6
2025-01-23T1400,3179A,102.7494,25.0119,昆明市,官渡区博物馆,,34,34,36,17,23,96,,51,51,8,21,8,7,0.4,0.6
2025-01-23T1400,3375A,102.8017,24.8336,昆明市,青年创业园,,31,23,29,18,20,99,,78,78,4,22,7,6,0.5,0.5
2025-01-23T1400,3550A,102.7997,24.9786,昆明市,昆明学院,,,,38,17,24,93,,58,58,,21,8,10,0.2,0.4
2025-01-23T1400,3551A,102.5967,24.6736,昆明市,晋宁区生态环境分局,,30,12,30,12,19,95,,70,70,6,16,3,4,0.5,0.6
2025-01-23T1400,3552A,102.6678,24.9856,昆明市,云天化总部,,33,25,35,16,23,103,,63,63,6,18,8,7,0.4,0.5
2025-01-23T1400,1456A,91.1319,29.6514,拉萨市,八廓街,,29,15,27,11,15,92,,54,48,9,28,6,7,0.4,0.7
2025-01-23T1400,1457A,91.1221,29.6747,拉萨市,市环保局,,30,19,34,10,20,96,,56,54,15,28,4,7,0.7,1.2
2025-01-23T1400,1458A,91.0874,29.6475,拉萨市,区监测站,,32,16,16,9,9,102,,80,62,6,18,6,6,0.4,0.5
2025-01-23T1400,1459A,91.1774,29.6541,拉萨市,西藏大学,,31,24,26,14,11,97,,71,62,7,17,5,6,0.3,0.6
2025-01-23T1400,1460A,90.9798,29.6588,拉萨市,区辐射站,,31,18,29,9,16,99,,64,57,6,24,6,8,0.5,0.7
2025-01-23T1400,1461A,91.0834,29.6292,拉萨市,拉萨火车站,,34,12,13,6,6,107,,98,82,3,8,4,4,0.4,0.5
2025-01-23T1400,2520A,109.2203,23.7256,来宾市,来宾技工学校,细颗粒物(PM2.5),139,146,135,106,95,131,,45,45,18,40,14,30,1.3,1.3
2025-01-23T1400,3535A,109.1781,23.7297,来宾市,兴宾区政府,细颗粒物(PM2.5),219,183,117,169,102,122,,64,64,29,23,26,12,1.3,1.1
2025-01-23T1400,4002A,109.2416,23.7461,来宾市,中南小学,细颗粒物(PM2.5),137,140,144,104,91,130,,40,40,21,54,23,29,1.2,1.2
2025-01-23T1400,1477A,104.1373,35.9454,兰州市,榆中兰大校区,,,,,,,,,,,,,,,,
2025-01-23T1400,1478A,103.8412,36.0726,兰州市,生物制品所,,,,114,,100,,,,,,124,,30,,2.0
2025-01-23T1400,1479A,103.831,36.0464,兰州市,铁路设计院,细颗粒物(PM2.5),133,124,121,101,85,46,,14,14,88,97,35,25,1.7,2.2
2025-01-23T1400,3241A,103.7439,36.0842,兰州市,百合公园,细颗粒物(PM2.5),129,127,110,98,79,71,,24,24,72,77,37,25,2.5,1.8
2025-01-23T1400,3242A,103.9611,35.998,兰州市,和平,细颗粒物(PM2.5),156,175,104,119,76,33,,45,22,71,48,26,23,2.4,1.7
2025-01-23T1400,4236A,103.6293,36.0938,兰州市,庄浪东路808号,细颗粒物(PM2.5),114,118,110,86,76,68,,23,23,69,76,39,23,1.6,1.5
2025-01-23T1400,4237A,103.7251,36.1043,兰州市,安宁西路88号,细颗粒物(PM2.5),140,144,126,107,80,83,,28,28,71,78,45,33,2.1,1.5
2025-01-23T1400,3245A,103.6633,36.533,兰州新区,新区管委会,细颗粒物(PM2.5),90,86,82,67,63,84,,42,42,25,26,47,23,1.1,1.1
2025-01-23T1400,3246A,103.6975,36.4789,兰州新区,舟曲中学,细颗粒物(PM2.5),99,102,111,74,70,84,,42,42,27,45,39,32,1.1,1.2
2025-01-23T1400,1067A,116.6708,39.5111,廊坊市,药材公司,,49,42,71,34,50,73,,30,30,22,41,6,7,0.4,0.6
2025-01-23T1400,1068A,116.7214,39.5589,廊坊市,开发区,细颗粒物(PM2.5),55,55,77,39,50,72,,30,30,18,44,7,7,0.6,0.8
2025-01-23T1400,1070A,116.7244,39.5269,廊坊市,北华航天学院,细颗粒物(PM2.5),63,58,70,45,46,71,,32,32,16,33,7,7,0.5,0.6
2025-01-23T1400,2919A,116.7022,39.5453,廊坊市,河北工业大学,,,57,70,39,49,,,24,24,14,42,9,10,,0.7
2025-01-23T1400,2535A,103.7723,29.5462,乐山市,花湖湾,细颗粒物(PM2.5),189,160,201,142,180,56,,26,26,16,25,6,6,0.9,1.2
2025-01-23T1400,2536A,103.7627,29.5844,乐山市,牛耳桥,细颗粒物(PM2.5),185,160,193,139,177,51,,15,15,22,34,6,6,0.8,1.1
2025-01-23T1400,2537A,103.7508,29.6006,乐山市,市第三水厂,细颗粒物(PM2.5),163,157,186,124,144,53,,18,18,24,38,5,4,1.1,1.3
2025-01-23T1400,2538A,103.7571,29.5664,乐山市,市监测站,细颗粒物(PM2.5),145,134,158,111,129,48,,19,18,15,28,5,5,0.9,1.1
2025-01-23T1400,3361A,103.7311,29.5628,乐山市,理工大学,细颗粒物(PM2.5),173,150,169,131,150,52,,18,18,22,31,9,10,1.2,1.3
2025-01-23T1400,2598A,100.2143,26.8576,丽江市,西南郊,,27,15,30,11,18,84,,79,79,2,4,5,5,0.6,0.6
2025-01-23T1400,2599A,100.2497,26.8802,丽江市,丽江古城,,25,17,29,8,20,80,,71,71,7,10,8,8,0.9,1
2025-01-23T1400,2600A,100.2203,26.8906,丽江市,市中心,,25,22,23,11,19,79,,70,70,7,10,8,8,0.6,0.6
2025-01-23T1400,1267A,119.914,28.4514,丽水市,监测站大楼,,41,41,64,26,49,113,,53,53,8,38,4,7,0.5,1.3
2025-01-23T1400,1268A,119.93,28.4586,丽水市,莲都小学,,,44,65,25,38,,,46,46,64,44,6,8,0.7,1
2025-01-23T1400,1269A,119.879,28.4231,丽水市,余庄前,,41,31,48,26,34,130,,59,59,12,25,4,4,0.5,0.6
2025-01-23T1400,1173A,119.176,34.5885,连云港市,市环境监测站,细颗粒物(PM2.5),64,61,42,46,29,94,,79,79,8,13,7,6,0.8,0.6
2025-01-23T1400,3000A,119.3581,34.6972,连云港市,德源药业,颗粒物(PM10),53,56,42,34,27,93,,81,81,13,19,6,5,0.5,0.4
2025-01-23T1400,3007A,119.178,34.844,连云港市,新城一中,细颗粒物(PM2.5),60,62,63,43,42,83,,62,62,29,29,8,7,0.6,0.6
2025-01-23T1400,3008A,119.3608,34.7519,连云港市,胡沟管理处,细颗粒物(PM2.5),55,48,40,39,25,77,,54,54,23,29,5,6,0.8,0.7
2025-01-23T1400,3009A,119.1478,34.5911,连云港市,矿山设计院,,,,50,,32,,,61,61,12,20,4,6,0.8,0.6
2025-01-23T1400,3434A,119.2413,34.6539,连云港市,工贸学校,细颗粒物(PM2.5),52,48,41,36,30,97,,84,84,8,12,8,8,0.8,0.8
2025-01-23T1400,3664A,119.4172,34.7341,连云港市,连云街道,细颗粒物(PM2.5),60,68,50,43,33,75,,75,75,31,21,7,7,0.7,0.6
2025-01-23T1400,2571A,102.3431,27.8099,凉山彝族自治州,青龙寺,,48,48,43,18,17,100,,54,54,7,7,17,9,1.2,0.9
2025-01-23T1400,2572A,102.2721,27.8415,凉山彝族自治州,邛海宾馆,,49,45,49,34,37,91,,48,48,10,14,18,11,1.0,0.8
2025-01-23T1400,2573A,102.2625,27.898,凉山彝族自治州,西昌市政府,,50,48,46,35,37,90,,47,47,11,13,18,12,1.1,0.9
2025-01-23T1400,2574A,102.2685,27.8851,凉山彝族自治州,凉山州政府,,42,38,48,29,38,90,,49,49,9,13,18,11,0.9,0.8
2025-01-23T1400,2575A,102.237,27.8914,凉山彝族自治州,长安,细颗粒物(PM2.5),52,50,52,36,38,89,,37,37,16,20,18,13,1.1,1
2025-01-23T1400,2212A,123.2,41.1953,辽阳市,宏伟区,细颗粒物(PM2.5),58,,86,41,69,75,,44,44,12,32,11,53,0.5,1
2025-01-23T1400,2213A,123.1683,41.2495,辽阳市,新华园,,45,36,98,31,75,61,,32,32,20,43,14,50,0.7,1.5
2025-01-23T1400,2214A,123.2354,41.2639,辽阳市,滨河路,,38,31,79,26,61,69,,38,38,15,37,6,8,0.6,0.9
2025-01-23T1400,2215A,123.149,41.2991,辽阳市,铁西工业园,,44,44,130,30,99,73,,37,37,17,43,7,7,0.5,1.3
2025-01-23T1400,2227A,125.1358,42.8845,辽源市,环保局,细颗粒物(PM2.5),63,59,106,45,72,80,,37,37,17,35,12,15,0.9,1.5
2025-01-23T1400,3239A,125.0764,42.9078,辽源市,银鹰制药,细颗粒物(PM2.5),64,55,83,46,67,68,,30,30,14,32,23,8,0.9,1.4
2025-01-23T1400,1625A,115.9848,36.4372,聊城市,区政府,细颗粒物(PM2.5),122,134,82,92,48,42,,36,30,36,28,19,19,1.2,1
2025-01-23T1400,2878A,116.0072,36.4343,聊城市,聊大东校,细颗粒物(PM2.5),118,136,91,89,56,36,,26,24,42,37,17,16,1.3,1
2025-01-23T1400,3200A,115.9819,36.4978,聊城市,监控中心,细颗粒物(PM2.5),138,150,92,105,53,46,,29,29,40,34,20,16,1.2,1
2025-01-23T1400,3513A,116.0445,36.4361,聊城市,九州社区,细颗粒物(PM2.5),104,120,81,78,52,47,,30,27,36,33,22,17,1.0,0.8
2025-01-23T1400,4018A,116.0567,36.4608,聊城市,星美广场,细颗粒物(PM2.5),125,134,90,95,54,39,,22,21,36,33,24,21,1.1,0.8
2025-01-23T1400,2632A,94.3681,29.6376,林芝市,林芝监测站,,25,12,36,3,9,79,,71,71,1,2,6,6,0.2,0.2
2025-01-23T1400,2633A,94.3616,29.6616,林芝市,林芝人民医院,,24,9,26,3,9,76,,67,66,1,2,6,6,0.2,0.2
2025-01-23T1400,2603A,100.0781,23.8982,临沧市,市环保局,,43,43,38,11,26,102,,48,48,10,14,11,10,0.5,0.6
2025-01-23T1400,2604A,100.0894,23.8822,临沧市,市气象局,,37,37,40,24,31,103,,52,52,9,13,9,8,0.4,0.5
2025-01-23T1400,1733A,111.5531,36.0783,临汾市,临钢医院,细颗粒物(PM2.5),132,167,182,100,104,62,,23,23,46,55,36,30,1.7,1.8
2025-01-23T1400,1734A,111.5028,36.0714,临汾市,技工学校,细颗粒物(PM2.5),142,148,167,108,111,,,18,18,42,63,31,32,1.5,1.9
2025-01-23T1400,1736A,111.5018,36.0855,临汾市,市委,细颗粒物(PM2.5),139,154,174,106,104,,,21,21,44,61,30,32,1.5,1.3
2025-01-23T1400,3018A,111.505,36.1014,临汾市,唐尧大酒店,细颗粒物(PM2.5),134,156,163,102,105,63,,25,25,43,62,32,32,1.4,1.5
2025-01-23T1400,4244A,111.4879,36.0530,临汾市,启星学校,细颗粒物(PM2.5),183,178,173,138,117,21,,12,12,67,64,30,27,2.2,1.9
2025-01-23T1400,2667A,103.2069,35.5993,临夏回族自治州,环保局,颗粒物(PM10),73,95,150,35,46,73,,26,26,26,41,21,22,1.2,2.1
2025-01-23T1400,2668A,103.2417,35.6057,临夏回族自治州,建设大厦,颗粒物(PM10),92,133,139,43,54,76,,40,38,35,31,26,23,2.1,1.7
2025-01-23T1400,1618A,118.3429,35.0532,临沂市,沂河小区,细颗粒物(PM2.5),62,51,84,44,65,98,,54,54,12,24,11,12,0.4,0.8
2025-01-23T1400,1619A,118.295,35.0583,临沂市,鲁南制药厂,颗粒物(PM10),63,75,79,41,55,79,,55,52,31,23,10,10,0.3,0.7
2025-01-23T1400,1620A,118.2794,34.9976,临沂市,新光毛纺厂,细颗粒物(PM2.5),57,51,69,40,52,97,,60,60,12,22,8,10,0.4,0.8
2025-01-23T1400,1621A,118.3956,35.0888,临沂市,河东保险公司,颗粒物(PM10),57,63,83,39,59,97,,50,50,10,28,8,8,0.3,0.8
2025-01-23T1400,3370A,118.3564,35.0215,临沂市,十里堡居委,细颗粒物(PM2.5),52,51,75,36,54,103,,54,54,10,23,10,10,0.6,1
2025-01-23T1400,3496A,118.3604,35.1084,临沂市,南坊新区,细颗粒物(PM2.5),67,70,81,48,62,86,,45,45,19,32,7,7,0.6,0.9
2025-01-23T1400,3860A,118.3920,35.0300,临沂市,皇山花园小区,,44,44,75,27,52,103,,51,51,18,35,5,7,0.5,0.9
2025-01-23T1400,1870A,109.4856,24.3895,柳州市,柳东小学,细颗粒物(PM2.5),143,128,110,109,85,88,,67,64,38,34,16,18,1.2,1.1
2025-01-23T1400,1871A,109.4157,24.3277,柳州市,环保监测站,细颗粒物(PM2.5),137,143,133,104,91,72,,36,36,47,49,18,16,1.3,1.2
2025-01-23T1400,1872A,109.389,24.341,柳州市,河西水厂,细颗粒物(PM2.5),135,173,174,103,105,70,,34,34,50,53,17,14,1.4,1.4
2025-01-23T1400,1873A,109.4311,24.2921,柳州市,市四中,细颗粒物(PM2.5),162,172,129,123,83,68,,31,31,56,59,17,17,1.4,1.4
2025-01-23T1400,1874A,109.4006,24.3631,柳州市,市九中,细颗粒物(PM2.5),115,138,118,87,81,77,,48,48,36,42,16,12,1.3,1.2
2025-01-23T1400,1875A,109.4958,24.3134,柳州市,古亭山,细颗粒物(PM2.5),144,156,84,110,59,68,,36,31,57,47,23,23,1.4,1.1
2025-01-23T1400,3402A,109.5422,24.3996,柳州市,市二中,细颗粒物(PM2.5),145,126,104,111,84,69,,31,31,29,47,14,12,1.2,1.1
2025-01-23T1400,2307A,116.5079,31.737,六安市,监测大楼,细颗粒物(PM2.5),133,,227,101,230,16,,51,23,21,37,4,10,0.8,1.3
2025-01-23T1400,2308A,116.4738,31.7643,六安市,皖西学院,细颗粒物(PM2.5),110,110,246,83,221,18,,43,21,26,44,4,10,0.8,1.3
2025-01-23T1400,2309A,116.4996,31.7905,六安市,朝阳厂,细颗粒物(PM2.5),109,91,226,82,216,14,,47,20,22,44,1,8,0.6,1.1
2025-01-23T1400,2310A,116.5567,31.7886,六安市,开发区,细颗粒物(PM2.5),82,86,267,60,198,22,,40,20,25,49,3,8,0.8,1.4
2025-01-23T1400,2576A,104.8,26.5892,六盘水市,窑上,颗粒物(PM10),55,59,65,38,42,84,,84,82,14,16,5,4,0.9,0.9
2025-01-23T1400,2577A,104.83,26.5917,六盘水市,黄土坡,细颗粒物(PM2.5),64,58,60,46,51,89,,98,88,17,23,10,9,0.9,1.1
2025-01-23T1400,2578A,104.89,26.5939,六盘水市,水钢,细颗粒物(PM2.5),83,63,77,61,68,89,,110,103,18,15,11,7,0.7,0.8
2025-01-23T1400,2579A,104.8475,26.5894,六盘水市,民中,细颗粒物(PM2.5),58,44,54,41,54,89,,98,91,15,18,9,9,0.8,1
2025-01-23T1400,2580A,104.9544,26.5506,六盘水市,双水,,46,46,58,29,46,103,,123,118,14,13,7,7,0.7,0.8
2025-01-23T1400,2335A,117.0189,25.1181,龙岩市,龙岩师专,,,,,,,,,,,,,,,,
2025-01-23T1400,2336A,117.0217,25.1033,龙岩市,龙岩市监测站,,41,35,42,22,31,130,,79,79,12,26,5,6,0.5,0.7
2025-01-23T1400,2337A,117.0258,25.0661,龙岩市,闽西职业技术学院,,40,32,49,20,26,126,,66,66,8,30,4,2,0.4,0.5
2025-01-23T1400,2338A,117.0196,25.0306,龙岩市,龙岩学院,,41,35,36,19,25,130,,66,66,11,20,6,3,0.5,0.5
2025-01-23T1400,2665A,105.0822,33.3261,陇南市,汉王镇固水子,,,,,,,,,,,,,,,,
2025-01-23T1400,2885A,104.9339,33.3826,陇南市,滨江中学,细颗粒物(PM2.5),69,65,86,50,56,45,,25,25,30,44,37,21,1.1,1.7
2025-01-23T1400,3247A,104.955,33.371,陇南市,市总工会,,,94,74,66,53,43,,44,34,38,29,,10,,0.9
2025-01-23T1400,2487A,111.9589,27.8901,娄底市,电视发射台,细颗粒物(PM2.5),205,,88,155,87,71,,85,70,27,19,11,11,1.2,1
2025-01-23T1400,2488A,111.9975,27.725,娄底市,市监测站,细颗粒物(PM2.5),226,215,152,176,121,75,,84,65,34,33,15,17,1.1,1.1
2025-01-23T1400,2489A,112.0194,27.7314,娄底市,市委党校,细颗粒物(PM2.5),223,224,161,173,119,71,,82,67,44,36,8,8,1.1,1
2025-01-23T1400,2490A,111.9561,27.7569,娄底市,涟钢,细颗粒物(PM2.5),219,204,154,169,122,73,,83,64,,26,16,19,,1.3
2025-01-23T1400,2491A,111.9892,27.7044,娄底市,市政府,细颗粒物(PM2.5),229,206,150,179,122,71,,54,54,40,40,13,12,1.1,1.1
2025-01-23T1400,1893A,105.4324,28.9634,泸州市,九狮山,,,,,,,,,,,,,,,,
2025-01-23T1400,1894A,105.4427,28.9063,泸州市,小市上码头,细颗粒物(PM2.5),213,198,177,163,143,27,,26,24,27,35,4,4,1.1,1.1
2025-01-23T1400,1895A,105.4241,28.8573,泸州市,兰田宪桥,细颗粒物(PM2.5),192,160,141,144,131,32,,25,22,24,30,4,3,1.2,1.2
2025-01-23T1400,1896A,105.4379,28.8833,泸州市,市环监站,细颗粒物(PM2.5),200,174,150,150,129,30,,34,22,20,33,6,6,1.0,1
2025-01-23T1400,3490A,105.3617,28.7703,泸州市,纳溪区环保局,细颗粒物(PM2.5),140,132,124,107,103,30,,18,12,27,34,5,5,1.2,1.2
2025-01-23T1400,2183A,111.1406,37.5211,吕梁市,环保局,细颗粒物(PM2.5),108,127,157,81,70,85,,33,33,42,57,21,10,1.9,1
2025-01-23T1400,2185A,111.1297,37.5136,吕梁市,自来水公司,细颗粒物(PM2.5),117,130,140,88,79,83,,32,32,44,56,19,16,1.7,1.1
2025-01-23T1400,2867A,111.1283,37.51,吕梁市,马茂庄小学,细颗粒物(PM2.5),114,134,157,86,78,82,,31,31,45,60,21,20,1.7,1.1
2025-01-23T1400,1812A,112.3931,34.6516,洛阳市,市委党校,细颗粒物(PM2.5),75,86,124,55,79,36,,29,23,33,45,6,10,0.9,1
2025-01-23T1400,1815A,112.494,34.6886,洛阳市,河南林校,细颗粒物(PM2.5),83,69,106,61,95,42,,38,32,30,39,4,9,0.8,0.9
2025-01-23T1400,1816A,112.3844,34.623,洛阳市,开发区管委会,细颗粒物(PM2.5),85,87,136,63,107,39,,37,34,34,40,7,11,0.8,1
2025-01-23T1400,1817A,112.4267,34.6258,洛阳市,市委新办公区,,,97,146,65,93,37,,32,29,,46,,11,,0.9
2025-01-23T1400,3340A,112.6005,34.6326,洛阳市,伊滨,细颗粒物(PM2.5),90,108,141,67,86,42,,31,28,30,37,8,11,0.6,0.8
2025-01-23T1400,3341A,112.4951,34.6332,洛阳市,中移产业园,细颗粒物(PM2.5),87,85,109,64,81,35,,38,27,41,50,7,12,0.8,1
2025-01-23T1400,3593A,112.5736,34.8993,洛阳市,吉利监测站,细颗粒物(PM2.5),82,80,121,60,70,55,,36,29,27,40,6,11,0.8,1
2025-01-23T1400,3635A,112.3677,34.662,洛阳市,河科大西苑校区,细颗粒物(PM2.5),70,84,129,51,81,41,,30,30,34,46,8,11,0.8,1.1
2025-01-23T1400,3636A,112.4388,34.6781,洛阳市,英才小学,细颗粒物(PM2.5),69,76,109,50,69,43,,30,26,36,46,10,14,0.7,0.9
2025-01-23T1400,4214A,112.4600,34.6949,洛阳市,春都路1号院,细颗粒物(PM2.5),68,72,115,49,67,46,,42,36,41,51,8,11,1.0,1.2
2025-01-23T1400,2399A,114.051,33.5699,漯河市,三五一五工厂,细颗粒物(PM2.5),120,98,127,91,101,28,,37,29,24,26,3,8,0.7,0.7
2025-01-23T1400,2400A,114.0055,33.5698,漯河市,漯河大学,细颗粒物(PM2.5),113,94,122,85,86,28,,38,30,25,27,5,10,0.8,0.8
2025-01-23T1400,2401A,114.0138,33.5828,漯河市,市水利局,,,,130,,89,27,,35,28,23,24,3,7,0.7,0.7
2025-01-23T1400,2402A,114.0261,33.5698,漯河市,市广电局,细颗粒物(PM2.5),117,100,127,88,87,27,,35,29,22,24,6,11,0.7,0.7
2025-01-23T1400,3478A,113.9749,33.5664,漯河市,市图书馆,细颗粒物(PM2.5),117,97,135,88,96,26,,36,30,28,31,3,8,1.0,0.8
2025-01-23T1400,3479A,114.0967,33.5906,漯河市,召陵区卫健委,细颗粒物(PM2.5),117,111,136,88,97,29,,31,24,18,23,2,6,0.7,0.7
2025-01-23T1400,1798A,118.5092,31.6837,马鞍山市,湖东路四小,细颗粒物(PM2.5),87,81,138,64,91,46,,22,22,27,76,2,8,0.9,1.3
2025-01-23T1400,1799A,118.5024,31.6449,马鞍山市,开发区,细颗粒物(PM2.5),98,75,141,73,108,41,,18,18,24,66,6,9,0.8,1
2025-01-23T1400,1802A,118.6245,31.7241,马鞍山市,濮塘,细颗粒物(PM2.5),89,68,105,66,88,48,,38,22,24,45,4,5,0.7,0.7
2025-01-23T1400,3633A,118.4918,31.6809,马鞍山市,雨山,细颗粒物(PM2.5),92,70,139,68,101,43,,20,20,23,66,5,8,1.1,1.4
2025-01-23T1400,4191A,118.5274,31.72227,马鞍山市,慈湖高新区,,,73,124,44,80,53,,23,23,18,58,6,10,,1.2
2025-01-23T1400,1686A,111.0286,21.4688,茂名市,电白南海,,39,39,56,22,29,91,,90,86,17,18,7,7,0.4,0.5
2025-01-23T1400,1687A,110.9294,21.6533,茂名市,茂石化七小,,36,36,54,14,23,90,,78,78,11,15,7,8,0.5,0.5
2025-01-23T1400,1688A,110.9107,21.6687,茂名市,健康路,,39,39,50,27,32,95,,83,83,11,16,6,8,0.7,0.8
2025-01-23T1400,1689A,110.8592,21.6828,茂名市,高岭,,,51,61,27,29,91,,81,81,14,18,,9,0.7,0.7
2025-01-23T1400,3450A,111.01,21.5165,茂名市,电白水东,,29,29,51,14,26,90,,81,81,7,12,6,11,0.6,0.7
2025-01-23T1400,2539A,104.0308,30.0478,眉山市,黑龙滩水库,细颗粒物(PM2.5),213,,145,163,130,41,,26,26,11,13,2,2,0.9,0.9
2025-01-23T1400,2540A,103.8416,30.0874,眉山市,气象局,细颗粒物(PM2.5),195,183,215,146,169,42,,12,12,25,37,6,6,1.1,1.3
2025-01-23T1400,3137A,103.8578,30.0744,眉山市,市委党校,细颗粒物(PM2.5),178,161,191,134,166,43,,12,12,26,42,7,7,1.1,1.3
2025-01-23T1400,3148A,103.8291,30.0564,眉山市,区人社局,细颗粒物(PM2.5),156,,156,119,171,41,,12,12,32,51,7,9,,1.5
2025-01-23T1400,1690A,116.1231,24.3284,梅州市,梅江月梅,,,,38,,29,125,,62,62,9,21,10,8,,0.9
2025-01-23T1400,1691A,116.0797,24.2719,梅州市,梅县新城,,43,43,57,23,40,128,,59,59,12,37,7,5,0.5,0.8
2025-01-23T1400,1692A,116.1248,24.2654,梅州市,环境监控中心,,37,24,48,22,39,117,,62,62,8,30,6,11,0.4,0.6
2025-01-23T1400,3315A,116.1233,24.2991,梅州市,梅龙,,40,24,41,19,31,125,,64,64,10,27,7,8,0.6,0.8
2025-01-23T1400,1878A,104.7778,31.4741,绵阳市,富乐山,细颗粒物(PM2.5),166,151,137,126,111,,,5,5,27,34,,3,1.4,1.4
2025-01-23T1400,1880A,104.6697,31.4668,绵阳市,高新区自来水公司,细颗粒物(PM2.5),153,153,169,117,110,6,,3,3,39,45,5,7,1.1,1.3
2025-01-23T1400,1881A,104.7287,31.5075,绵阳市,三水厂,细颗粒物(PM2.5),192,182,167,144,131,5,,4,4,38,37,3,3,1.2,1.4
2025-01-23T1400,3491A,104.69,31.5322,绵阳市,西科大附属小学,细颗粒物(PM2.5),188,171,157,141,123,9,,8,8,34,34,6,6,1.2,1.1
2025-01-23T1400,3492A,104.5648,31.5343,绵阳市,安州区旅游局,细颗粒物(PM2.5),156,143,143,119,123,19,,8,8,25,34,10,10,1.2,1.3
2025-01-23T1400,4226A,104.7651,31.4531,绵阳市,绵阳市气象局,细颗粒物(PM2.5),139,167,158,106,110,8,,4,4,31,41,12,4,0.9,1.1
2025-01-23T1400,1784A,129.61,44.561,牡丹江市,环保大楼,细颗粒物(PM2.5),62,67,97,44,75,70,,46,46,25,42,9,9,0.5,0.9
2025-01-23T1400,1785A,129.6115,44.5782,牡丹江市,文化广场,细颗粒物(PM2.5),67,67,109,48,84,70,,47,47,26,38,11,10,0.7,1
2025-01-23T1400,1786A,129.5904,44.5963,牡丹江市,第一医院,细颗粒物(PM2.5),100,,95,75,86,62,,42,42,31,36,13,10,0.7,0.9
2025-01-23T1400,1787A,129.6364,44.6075,牡丹江市,机车工厂,细颗粒物(PM2.5),68,64,122,49,81,71,,42,42,21,38,11,11,0.8,1.2
2025-01-23T1400,1788A,129.6386,44.5462,牡丹江市,第一中学,,,,97,,81,,,39,39,16,35,9,8,,1
2025-01-23T1400,2531A,105.0703,29.61,内江市,市监测站,细颗粒物(PM2.5),231,,159,181,178,9,,5,5,26,31,8,7,0.9,1.2
2025-01-23T1400,2532A,105.0717,29.5947,内江市,东兴区政府,细颗粒物(PM2.5),225,,158,175,169,17,,10,10,27,32,6,5,0.9,1.6
2025-01-23T1400,2533A,105.0653,29.5817,内江市,内江二中,细颗粒物(PM2.5),228,194,182,178,176,12,,8,8,34,36,10,10,1.5,1.5
2025-01-23T1400,2534A,105.0406,29.5822,内江市,内江日报社,细颗粒物(PM2.5),234,,170,184,178,10,,6,6,25,34,10,10,1.1,1.3
2025-01-23T1400,2628A,92.0657,31.4846,那曲市,那曲监测站,细颗粒物(PM2.5),64,74,44,46,35,96,,44,44,1,10,8,11,0.5,1.3
2025-01-23T1400,3128A,92.0506,31.4797,那曲市,那曲会议中心,,,71,38,3,15,,,38,38,2,11,,4,1.0,1.1
2025-01-23T1400,1290A,115.8931,28.6843,南昌市,省外办,,,,112,,77,108,,64,64,,50,11,10,0.7,0.9
2025-01-23T1400,1291A,115.8886,28.7003,南昌市,省林业公司,细颗粒物(PM2.5),104,92,99,78,68,122,,74,74,29,52,11,11,0.6,0.7
2025-01-23T1400,1292A,115.8126,28.7442,南昌市,林科所,,,73,76,56,52,136,,76,76,26,61,6,6,,1.9
2025-01-23T1400,1294A,115.8518,28.687,南昌市,建工学校,细颗粒物(PM2.5),103,94,102,77,68,125,,79,79,33,51,15,15,1.0,1.1
2025-01-23T1400,1295A,115.8921,28.6424,南昌市,象湖,细颗粒物(PM2.5),100,92,107,75,69,127,,80,80,37,57,12,11,1.2,1.2
2025-01-23T1400,1296A,115.7423,28.7996,南昌市,武术学校,颗粒物(PM10),56,61,42,22,33,109,,54,54,21,20,6,4,0.6,0.5
2025-01-23T1400,3046A,115.9084,28.6062,南昌市,机电学校,细颗粒物(PM2.5),79,99,113,58,65,123,,70,70,29,55,13,12,1.1,0.9
2025-01-23T1400,3690A,115.9721,28.7031,南昌市,外国语学校,细颗粒物(PM2.5),95,89,100,71,65,124,,77,77,16,39,9,10,0.6,0.7
2025-01-23T1400,4192A,115.9316,28.68677,南昌市,南京东路235号,细颗粒物(PM2.5),97,95,106,72,71,117,,73,73,32,50,8,8,0.7,0.8
2025-01-23T1400,1905A,106.056,30.8064,南充市,西山风景区,细颗粒物(PM2.5),209,,134,159,132,2,,8,0,19,24,1,2,1.4,1.4
2025-01-23T1400,1906A,106.0789,30.8023,南充市,南充市委,细颗粒物(PM2.5),217,220,168,167,132,3,,3,3,24,29,4,3,1.2,1.1
2025-01-23T1400,1907A,106.1031,30.8217,南充市,南充炼油厂,细颗粒物(PM2.5),221,187,163,171,142,3,,2,2,26,38,4,4,1.3,1.2
2025-01-23T1400,1909A,106.0642,30.7636,南充市,嘉陵区环保局,细颗粒物(PM2.5),199,176,160,149,128,3,,3,3,35,42,4,4,1.4,1.3
2025-01-23T1400,1910A,106.1087,30.8388,南充市,市环境监测站,细颗粒物(PM2.5),202,191,168,152,132,4,,4,2,18,32,5,6,1.1,1.1
2025-01-23T1400,4227A,106.1083,30.7884,南充市,梨树横街98号,细颗粒物(PM2.5),210,192,161,160,135,2,,2,1,31,40,9,8,1.3,1.3
2025-01-23T1400,1151A,118.8086,32.1065,南京市,迈皋桥,细颗粒物(PM2.5),64,64,89,46,58,49,,31,31,43,77,5,7,0.9,0.7
2025-01-23T1400,1152A,118.7538,32.0551,南京市,草场门,细颗粒物(PM2.5),58,61,85,41,64,45,,22,22,25,63,6,7,0.9,0.7
2025-01-23T1400,1153A,118.7794,32.0745,南京市,山西路,细颗粒物(PM2.5),73,66,99,53,73,64,,46,46,14,65,4,5,0.8,0.6
2025-01-23T1400,1154A,118.7752,32.0023,南京市,中华门,细颗粒物(PM2.5),70,66,96,51,71,38,,22,22,33,66,6,9,1.1,1
2025-01-23T1400,1155A,118.8109,32.0309,南京市,瑞金路,,,53,107,41,72,56,,25,25,5,64,6,4,,0.8
2025-01-23T1400,1156A,118.7997,32.0754,南京市,玄武湖,颗粒物(PM10),61,71,101,41,67,53,,24,24,20,39,7,8,0.9,0.8
2025-01-23T1400,1157A,118.6414,32.0931,南京市,浦口,细颗粒物(PM2.5),69,75,110,50,68,33,,25,25,27,33,5,8,1.1,1.1
2025-01-23T1400,1158A,118.7356,31.9996,南京市,奥体中心,,,,,,,,,,,,,,,,
2025-01-23T1400,1159A,118.9125,32.1028,南京市,仙林大学城,细颗粒物(PM2.5),52,51,83,36,63,67,,31,31,19,63,5,7,1.0,0.8
2025-01-23T1400,3422A,118.8436,31.9198,南京市,江宁彩虹桥,,,71,110,46,69,48,,23,23,,67,4,4,0.9,0.9
2025-01-23T1400,3423A,119.0138,31.6494,南京市,溧水永阳,细颗粒物(PM2.5),72,63,87,52,85,32,,17,17,32,59,3,4,1.1,1.1
2025-01-23T1400,3424A,118.879,31.3302,南京市,高淳老职中,,,,108,,98,,,98,,,20,,13,,0.5
2025-01-23T1400,3427A,118.8554,32.3578,南京市,六合雄州,,49,49,70,33,40,64,,48,48,6,14,4,5,0.5,0.6
2025-01-23T1400,1401A,108.3103,22.7881,南宁市,二十一中,细颗粒物(PM2.5),67,75,77,48,52,100,,95,84,17,20,6,6,0.8,0.9
2025-01-23T1400,1402A,108.3141,22.8528,南宁市,北湖,细颗粒物(PM2.5),82,73,96,60,60,90,,66,66,17,40,6,7,1.0,1.1
2025-01-23T1400,1403A,108.3206,22.8225,南宁市,市监测站,细颗粒物(PM2.5),70,80,69,51,47,93,,82,79,19,22,9,10,1.0,1
2025-01-23T1400,1404A,108.3829,22.8037,南宁市,大自然花园,细颗粒物(PM2.5),73,71,71,53,54,101,,84,84,13,18,6,6,1.2,1.1
2025-01-23T1400,1405A,108.4394,22.7904,南宁市,仙葫,细颗粒物(PM2.5),78,65,66,57,55,91,,69,69,13,23,4,4,0.7,0.7
2025-01-23T1400,1406A,108.2397,22.8467,南宁市,区农职院,细颗粒物(PM2.5),74,93,90,54,55,96,,61,61,19,38,7,7,0.9,0.8
2025-01-23T1400,1407A,108.3275,22.735,南宁市,英华嘉园,颗粒物(PM10),114,177,76,53,48,88,,72,72,17,23,7,8,1.1,1
2025-01-23T1400,3401A,108.4834,22.7618,南宁市,红星社区,细颗粒物(PM2.5),82,103,74,60,54,96,,45,45,15,39,9,9,0.9,1
2025-01-23T1400,4221A,108.2177,22.7774,南宁市,乐贤路16号,颗粒物(PM10),56,62,78,39,46,98,,67,67,10,38,2,4,0.8,0.9
2025-01-23T1400,2331A,118.0966,26.6761,南平市,茫荡山,,,,,,,,,,,,,,,,
2025-01-23T1400,2332A,118.1681,26.6369,南平市,南平市监测站,,45,38,62,31,45,99,,42,42,16,33,11,7,0.7,1
2025-01-23T1400,2333A,118.1825,26.6489,南平市,南平铝业有限公司,颗粒物(PM10),55,59,52,24,44,102,,39,39,18,35,9,8,0.7,0.8
2025-01-23T1400,2334A,118.1756,26.6272,南平市,南平七中,颗粒物(PM10),53,56,52,24,39,107,,44,44,12,29,10,8,0.8,0.9
2025-01-23T1400,1168A,120.9098,31.9663,南通市,狼山街道,,29,25,32,18,19,90,,67,67,7,16,5,5,0.4,0.6
2025-01-23T1400,1169A,120.86,32.0005,南通市,虹桥,,29,25,41,19,21,90,,63,63,8,18,4,4,0.4,0.6
2025-01-23T1400,1170A,120.87,32.02,南通市,城中,,33,33,39,16,20,91,,62,62,13,25,6,6,0.5,0.6
2025-01-23T1400,1171A,120.94,31.93,南通市,星湖花园,,28,26,29,17,19,87,,65,65,10,18,5,5,0.4,0.5
2025-01-23T1400,1172A,120.81,32.0417,南通市,紫琅学院,,26,24,31,9,17,81,,58,58,21,27,4,3,1.0,0.8
2025-01-23T1400,3291A,121.067,32.062,南通市,通州监测站,,31,27,31,9,16,99,,76,76,13,20,2,4,0.6,0.8
2025-01-23T1400,3432A,120.9348,31.9883,南通市,环境教育馆,,,31,33,8,17,98,,,,7,32,5,5,,0.2
2025-01-23T1400,2404A,112.5224,33.0122,南阳市,瓦房庄,细颗粒物(PM2.5),84,74,136,62,105,49,,55,49,16,25,7,12,0.8,1
2025-01-23T1400,2405A,112.5003,32.9735,南阳市,汉画馆,细颗粒物(PM2.5),72,68,130,52,92,52,,57,50,20,29,6,11,0.6,0.8
2025-01-23T1400,2406A,112.5573,33.027,南阳市,气象站,细颗粒物(PM2.5),77,79,152,56,96,52,,55,49,15,26,6,12,0.7,1
2025-01-23T1400,2407A,112.5481,32.9689,南阳市,理工学院,,,,133,,96,54,,54,53,,30,6,10,,0.9
2025-01-23T1400,4008A,112.5234,32.9922,南阳市,卧龙区政府,细颗粒物(PM2.5),82,71,141,60,99,44,,54,46,23,31,6,12,0.7,0.9
2025-01-23T1400,1234A,121.8358,29.911,宁波市,区环保大楼,颗粒物(PM10),56,62,34,23,15,28,,14,14,49,44,14,8,0.9,0.9
2025-01-23T1400,1235A,121.56,29.82,宁波市,万里学院,"颗粒物(PM10),细颗粒物(PM2.5)",63,76,32,45,19,73,,30,30,30,45,5,5,0.5,0.6
2025-01-23T1400,1236A,121.713,29.9572,宁波市,龙赛医院,,30,30,31,20,22,47,,23,23,36,39,9,9,0.5,0.5
2025-01-23T1400,1239A,121.633,29.7733,宁波市,钱湖水厂,"颗粒物(PM10),细颗粒物(PM2.5)",58,66,21,41,16,64,,39,34,30,17,6,5,0.9,0.8
2025-01-23T1400,1240A,121.5856,29.8635,宁波市,太古小学,,,80,31,41,18,66,,31,31,23,34,8,7,,0.8
2025-01-23T1400,1241A,121.524,29.8674,宁波市,市环境监测中心,颗粒物(PM10),61,72,33,37,19,71,,36,36,18,34,6,6,0.7,0.7
2025-01-23T1400,2871A,121.6147,29.9017,宁波市,万里国际学校,颗粒物(PM10),61,72,37,36,16,53,,30,30,36,32,8,6,0.7,0.6
2025-01-23T1400,3710A,121.5594,29.8975,宁波市,白沙活动中心,颗粒物(PM10),54,58,38,23,16,70,,37,37,18,27,6,5,0.5,0.6
2025-01-23T1400,2339A,119.5001,26.6946,宁德市,金涵水库,,,,,,,,,,,,,,,,
2025-01-23T1400,2341A,119.5388,26.6612,宁德市,宁德市监测站,,46,46,105,27,73,98,,48,48,8,21,4,7,0.4,0.8
2025-01-23T1400,3209A,119.5231,26.6562,宁德市,宁德一中,,48,40,82,33,62,102,,56,56,7,26,3,5,0.2,0.6
2025-01-23T1400,2618A,98.8601,25.8567,怒江傈僳族自治州,州监测站,,38,38,45,19,26,85,,44,44,7,14,5,5,0.5,0.5
2025-01-23T1400,2619A,98.8546,25.8417,怒江傈僳族自治州,泸水一中,,48,40,36,33,30,76,,34,34,9,17,8,8,0.4,0.6
2025-01-23T1400,1888A,101.6891,26.571,攀枝花市,弄弄坪,细颗粒物(PM2.5),80,63,78,59,69,93,,30,30,33,34,31,20,1.5,1.3
2025-01-23T1400,1889A,101.5769,26.5928,攀枝花市,河门口,细颗粒物(PM2.5),64,59,72,46,51,100,,38,38,27,30,34,16,2.1,1.4
2025-01-23T1400,1890A,101.7169,26.585,攀枝花市,炳草岗,细颗粒物(PM2.5),59,54,91,42,62,110,,30,30,20,48,21,17,1.3,1.2
2025-01-23T1400,1891A,101.7369,26.5008,攀枝花市,仁和,细颗粒物(PM2.5),80,80,76,59,57,120,,43,43,25,28,44,17,1.7,1.3
2025-01-23T1400,2835A,101.7227,26.567,攀枝花市,四十中小,细颗粒物(PM2.5),84,101,100,62,62,101,,28,28,32,58,38,21,1.7,1.7
2025-01-23T1400,1604A,122.0303,41.1489,盘锦市,开发区,,,,117,,100,,,49,,,45,,32,,1.5
2025-01-23T1400,1605A,122.0485,41.0883,盘锦市,兴隆台,细颗粒物(PM2.5),62,72,109,44,90,66,,39,33,29,39,19,17,1.3,1.4
2025-01-23T1400,1606A,121.8297,41.1028,盘锦市,新生街道,颗粒物(PM10),57,63,86,36,72,79,,36,36,26,55,20,14,1.2,1.2
2025-01-23T1400,1832A,113.3257,33.742,平顶山市,新华旅馆,颗粒物(PM10),66,82,117,44,70,44,,52,47,20,25,4,8,0.4,0.5
2025-01-23T1400,1833A,113.2919,33.737,平顶山市,规划设计院,细颗粒物(PM2.5),69,78,119,50,70,46,,59,52,20,22,5,10,0.6,0.6
2025-01-23T1400,1834A,113.182,33.774,平顶山市,平顶山工学院,细颗粒物(PM2.5),73,85,132,53,64,37,,53,47,28,24,6,11,0.6,0.6
2025-01-23T1400,3204A,113.3025,33.73,平顶山市,规划局,细颗粒物(PM2.5),77,73,111,56,69,44,,55,50,19,22,2,7,1.1,1.1
2025-01-23T1400,3594A,112.8867,33.9116,平顶山市,石龙区,细颗粒物(PM2.5),79,78,150,58,96,46,,40,40,19,29,7,14,0.8,1.1
2025-01-23T1400,2656A,106.6692,35.5461,平凉市,聚贤嘉苑,细颗粒物(PM2.5),144,163,132,110,88,113,,102,102,30,50,15,19,1.3,1.3
2025-01-23T1400,2657A,106.7021,35.5307,平凉市,博物馆,细颗粒物(PM2.5),193,194,144,145,97,112,,109,109,38,60,16,25,1.4,1.4
2025-01-23T1400,2347A,114.0997,27.5002,萍乡市,武功山,,,65,43,50,33,,,65,65,17,14,14,13,1.0,0.9
2025-01-23T1400,2348A,113.8385,27.6434,萍乡市,中医院,颗粒物(PM10),62,74,101,33,58,111,,85,85,14,33,11,12,0.8,1.2
2025-01-23T1400,2349A,113.8493,27.6253,萍乡市,市政府车库,细颗粒物(PM2.5),73,63,98,53,78,108,,70,70,15,48,15,18,0.7,1.6
2025-01-23T1400,2350A,113.8676,27.6435,萍乡市,市环保局,细颗粒物(PM2.5),68,75,92,49,63,105,,76,76,18,38,15,15,0.8,1
2025-01-23T1400,2351A,113.866,27.6198,萍乡市,安源区政府,,,80,96,43,59,103,,77,77,,37,16,15,1.0,1.3
2025-01-23T1400,2319A,119.0141,25.4325,莆田市,荔城区仓后路,,50,50,46,29,32,112,,58,58,12,18,2,2,0.8,0.8
2025-01-23T1400,2320A,119.0015,25.4553,莆田市,莆田市监测站,颗粒物(PM10),54,57,31,26,21,115,,61,61,13,13,4,3,0.5,0.4
2025-01-23T1400,2321A,119.1119,25.4561,莆田市,涵江区六中,颗粒物(PM10),52,53,46,33,30,119,,63,63,12,28,4,2,0.7,0.6
2025-01-23T1400,2322A,119.1013,25.3215,莆田市,秀屿区政府,,49,39,49,34,44,122,,58,58,13,29,4,2,0.9,0.7
2025-01-23T1400,2323A,118.981,25.4792,莆田市,东圳水库,,,,,,,,,,,,,,,,
2025-01-23T1400,2392A,115.0312,35.7636,濮阳市,环保局,细颗粒物(PM2.5),69,55,58,50,46,59,,39,39,23,29,9,8,0.7,0.7
2025-01-23T1400,2394A,115.0574,35.7609,濮阳市,油田运输公司,细颗粒物(PM2.5),90,77,73,67,48,56,,34,34,18,28,9,6,0.8,0.7
2025-01-23T1400,3021A,115,35.7668,濮阳市,濮水河管理处,"颗粒物(PM10),细颗粒物(PM2.5)",63,76,84,45,49,59,,31,31,19,32,8,6,0.8,0.9
2025-01-23T1400,4216A,115.0924,35.7686,濮阳市,任丘路479号,细颗粒物(PM2.5),73,77,83,53,49,57,,34,34,18,24,12,9,1.1,1
2025-01-23T1400,2601A,100.98,22.7633,普洱市,市环保局,,37,37,47,3,10,88,,49,49,5,11,5,6,0.4,0.6
2025-01-23T1400,2602A,100.9817,22.8322,普洱市,普洱第二中学,,,38,44,11,18,87,,42,42,,21,,5,0.4,0.6
2025-01-23T1400,2262A,131.0518,45.8751,七台河市,新一中,细颗粒物(PM2.5),83,67,131,61,111,102,,74,71,19,32,16,16,2.0,2.3
2025-01-23T1400,3345A,131.0577,45.7879,七台河市,中波台,细颗粒物(PM2.5),125,107,143,95,132,82,,57,57,29,45,10,9,1.0,1.3
2025-01-23T1400,3637A,131.0176,45.7761,七台河市,人民广场,细颗粒物(PM2.5),152,168,187,116,135,75,,48,48,40,51,11,9,,
2025-01-23T1400,3684A,130.8781,45.8222,七台河市,新建矿广场,细颗粒物(PM2.5),134,,152,102,126,69,,44,44,29,45,9,8,0.8,1.2
2025-01-23T1400,1779A,123.9305,47.3636,齐齐哈尔市,安居小区,细颗粒物(PM2.5),204,181,126,154,122,50,,25,25,38,47,12,8,1.3,1
2025-01-23T1400,1780A,123.9488,47.3386,齐齐哈尔市,中心广场,细颗粒物(PM2.5),162,145,141,123,111,46,,20,20,37,57,5,5,1.0,1.3
2025-01-23T1400,1781A,123.9483,47.3227,齐齐哈尔市,农牧车辆厂,细颗粒物(PM2.5),149,,134,114,101,55,,18,18,31,59,9,8,0.8,1.2
2025-01-23T1400,1783A,123.945,47.2988,齐齐哈尔市,市环境监测站,细颗粒物(PM2.5),165,,170,125,144,60,,22,22,26,58,6,3,0.7,1.1
2025-01-23T1400,3662A,123.6333,47.2075,齐齐哈尔市,富区青少年活动中心,细颗粒物(PM2.5),278,240,195,228,144,49,,29,29,39,42,15,12,1.9,1.8
2025-01-23T1400,2591A,107.9783,26.5747,黔东南苗族侗族自治州,市环境监测站,细颗粒物(PM2.5),130,124,146,99,96,54,,46,45,26,26,7,8,1.0,1
2025-01-23T1400,2881A,107.8908,26.5311,黔东南苗族侗族自治州,凯里学院,细颗粒物(PM2.5),109,105,92,82,75,62,,53,53,16,14,4,6,1.1,1.2
2025-01-23T1400,2593A,107.5228,26.2403,黔南布依族苗族自治州,小围寨,细颗粒物(PM2.5),85,63,74,63,63,31,,37,22,23,23,5,10,1.0,0.8
2025-01-23T1400,3538A,107.5175,26.2978,黔南布依族苗族自治州,沙坝,细颗粒物(PM2.5),98,75,83,73,66,31,,37,27,30,27,5,9,1.0,0.8
2025-01-23T1400,2589A,104.9022,25.0925,黔西南布依族苗族自治州,场坝街,细颗粒物(PM2.5),84,88,87,62,71,90,,123,100,20,17,6,6,0.6,0.6
2025-01-23T1400,2590A,104.8811,25.0992,黔西南布依族苗族自治州,坪东大道,细颗粒物(PM2.5),85,84,82,63,73,82,,116,90,23,20,6,6,0.6,0.5
2025-01-23T1400,2502A,108.6236,21.9667,钦州市,市环保站,,46,46,89,29,49,101,,49,49,17,42,7,9,0.8,1
2025-01-23T1400,2503A,108.6549,21.9481,钦州市,沙埠小学,,50,50,96,32,54,102,,42,42,14,52,5,6,0.7,0.9
2025-01-23T1400,2504A,108.5989,21.7431,钦州市,港区一小,颗粒物(PM10),51,52,79,31,40,92,,66,66,25,41,7,7,0.8,0.9
2025-01-23T1400,3404A,108.5959,21.9633,钦州市,北职校,细颗粒物(PM2.5),62,53,73,44,53,93,,55,55,22,40,7,8,0.8,0.9
2025-01-23T1400,1042A,119.5134,39.8207,秦皇岛市,北戴河环保局,,,,,,,,,,,,,,,,
2025-01-23T1400,1043A,119.7493,40.0116,秦皇岛市,第一关,细颗粒物(PM2.5),55,,50,39,37,69,,28,28,16,47,10,9,0.9,0.9
2025-01-23T1400,1044A,119.5897,39.9499,秦皇岛市,监测站,颗粒物(PM10),51,52,60,29,33,65,,32,32,38,48,13,8,1.3,1.1
2025-01-23T1400,1046A,119.5251,39.9041,秦皇岛市,建设大厦,颗粒物(PM10),71,91,64,51,41,75,,34,34,27,44,20,9,1.9,1.1
