timepoint,stationcode,longitude,latitude,area,positionname,primarypollutant,aqi,pm10,pm10_24h,pm2_5,pm2_5_24h,o3,o3_24h,o3_8h,o3_8h_24h,no2,no2_24h,so2,so2_24h,co,co_24h
2025-01-23T1600,2566A,102.1879,31.914,阿坝藏族羌族自治州,州农科所,,25,10,33,3,10,77,,61,61,14,15,7,6,0.9,0.9
2025-01-23T1600,2568A,102.2502,31.8896,阿坝藏族羌族自治州,马师校,,26,14,20,3,14,83,,55,55,20,26,5,6,0.5,0.5
2025-01-23T1600,3994A,102.2165,31.9024,阿坝藏族羌族自治州,马尔康中学西区,,26,20,24,12,14,83,,59,59,4,13,4,5,0.3,0.4
2025-01-23T1600,2695A,80.292,41.1694,阿克苏地区,电视台,细颗粒物(PM2.5),78,101,149,57,100,69,,36,36,25,59,7,5,0.6,2
2025-01-23T1600,2696A,80.2613,41.1551,阿克苏地区,艺术中心,细颗粒物(PM2.5),89,110,139,66,92,70,,36,36,24,48,4,4,1.0,1.7
2025-01-23T1600,2204A,105.6467,38.8363,阿拉善盟,西城区西花园,细颗粒物(PM2.5),57,59,62,40,33,90,,90,90,20,27,26,15,1.1,0.9
2025-01-23T1600,2205A,105.6985,38.8411,阿拉善盟,蒙二幼,颗粒物(PM10),51,52,46,21,21,84,,83,78,20,22,12,8,1.0,0.8
2025-01-23T1600,2206A,105.724,38.8516,阿拉善盟,环保局新楼,,39,39,25,18,12,90,,102,94,10,9,10,8,0.7,0.5
2025-01-23T1600,2708A,88.1264,47.8517,阿勒泰地区,市站,,23,,18,10,12,73,,61,61,8,24,8,10,0.3,0.4
2025-01-23T1600,2630A,80.1161,32.5,阿里地区,阿里监测站,,40,40,9,7,4,114,,108,108,1,2,8,9,0.5,0.6
2025-01-23T1600,3192A,80.0903,32.5028,阿里地区,阿里藏医院,,,100,14,10,3,95,,97,97,,1,5,6,0.5,0.5
2025-01-23T1600,2642A,109.0318,32.6537,安康市,香溪洞,细颗粒物(PM2.5),192,148,142,144,132,109,,116,103,20,28,14,13,1.1,1.2
2025-01-23T1600,2644A,109.0072,32.6975,安康市,汉滨区检察院,细颗粒物(PM2.5),208,184,166,158,137,116,,94,94,20,42,10,8,1.1,1.4
2025-01-23T1600,4054A,109.0325,32.6913,安康市,市邮政管理局,细颗粒物(PM2.5),202,183,193,152,158,107,,92,92,24,51,10,10,1.1,1.7
2025-01-23T1600,2291A,117.0809,30.5177,安庆市,环科院,细颗粒物(PM2.5),207,197,205,157,170,112,,104,104,28,33,10,13,1.1,1.2
2025-01-23T1600,2292A,117.0331,30.5119,安庆市,马山宾馆,细颗粒物(PM2.5),203,183,196,153,168,122,,108,108,27,36,,14,,1.3
2025-01-23T1600,2294A,116.9896,30.6145,安庆市,安庆大学,细颗粒物(PM2.5),231,227,204,181,164,98,,109,102,30,32,8,11,1.1,1.1
2025-01-23T1600,3173A,117.0598,30.5351,安庆市,市人大,细颗粒物(PM2.5),201,197,215,151,165,115,,106,106,32,42,11,13,1.1,1.2
2025-01-23T1600,3122A,105.9606,26.2611,安顺市,伍家关,,,,71,,49,,,136,,,13,,12,,0.9
2025-01-23T1600,3123A,105.9408,26.2431,安顺市,凤凰山,细颗粒物(PM2.5),89,84,77,66,57,96,,131,103,16,16,18,19,0.7,0.7
2025-01-23T1600,3124A,105.9439,26.2564,安顺市,金钟山,细颗粒物(PM2.5),89,93,78,66,54,90,,129,102,18,15,17,18,1.0,0.9
2025-01-23T1600,3125A,105.8983,26.2481,安顺市,娄家坡,细颗粒物(PM2.5),80,79,71,59,56,103,,126,108,13,15,2,13,0.8,0.8
2025-01-23T1600,1818A,114.4839,36.0621,安阳市,棉研所,细颗粒物(PM2.5),125,102,79,95,52,72,,50,50,25,33,13,12,0.7,0.7
2025-01-23T1600,1819A,114.3551,36.1017,安阳市,红庙街,细颗粒物(PM2.5),119,,68,90,54,77,,53,53,16,18,7,9,0.6,0.7
2025-01-23T1600,1820A,114.361,36.0681,安阳市,银杏小区,细颗粒物(PM2.5),97,,68,72,53,75,,53,53,23,26,6,9,0.7,0.8
2025-01-23T1600,3141A,114.3922,36.0878,安阳市,信访局,细颗粒物(PM2.5),99,74,70,74,46,80,,57,57,20,23,6,8,0.6,0.5
2025-01-23T1600,3669A,114.4705,36.0637,安阳市,左辅环卫站,细颗粒物(PM2.5),105,102,85,79,54,83,,57,57,16,24,7,7,0.6,0.6
2025-01-23T1600,3703A,114.2917,36.0949,安阳市,安钢职工学校,细颗粒物(PM2.5),84,95,78,62,54,70,,52,52,36,39,7,16,0.6,1.2
2025-01-23T1600,1748A,123.044,41.1196,鞍山市,深沟寺,,,50,62,28,42,43,,50,50,44,22,,9,2.0,0.7
2025-01-23T1600,1749A,123.011,41.0931,鞍山市,太阳城,,39,39,63,25,42,28,,53,53,60,30,65,9,1.0,0.7
2025-01-23T1600,1750A,123.0485,41.1442,鞍山市,太平,,47,47,88,24,57,63,,51,51,28,38,16,12,0.9,1.1
2025-01-23T1600,1751A,122.9642,41.0971,鞍山市,铁西三道街,颗粒物(PM10),56,61,105,28,63,32,,45,45,56,46,23,15,1.3,1.3
2025-01-23T1600,1753A,123.022,41.0821,鞍山市,明达新区,,35,35,62,23,42,39,,58,58,48,30,30,12,0.7,0.7
2025-01-23T1600,1754A,123.1289,41.0228,鞍山市,千山,,,,46,,21,,,40,,,14,,4,,0.3
2025-01-23T1600,4201A,122.9446,41.0826,鞍山市,兴盛南路290号,颗粒物(PM10),57,64,138,33,87,38,,37,37,52,48,24,18,1.1,1.4
2025-01-23T1600,2195A,107.4212,40.761,巴彦淖尔市,附二中,,,,98,,51,64,,36,36,26,48,18,16,1.0,0.9
2025-01-23T1600,2196A,107.37,40.7372,巴彦淖尔市,市环保大楼,颗粒物(PM10),81,112,86,42,44,74,,44,44,24,52,19,12,0.8,0.8
2025-01-23T1600,1956A,86.1472,41.7538,巴音郭楞蒙古自治州,孔雀公园,细颗粒物(PM2.5),117,110,91,88,66,89,,58,58,33,46,8,5,1.0,1
2025-01-23T1600,1957A,86.1972,41.7166,巴音郭楞蒙古自治州,棉纺厂,颗粒物(PM10),71,92,111,50,58,79,,47,47,23,55,4,3,0.7,1
2025-01-23T1600,1958A,86.2357,41.7173,巴音郭楞蒙古自治州,经济开发区,细颗粒物(PM2.5),94,95,79,70,51,102,,67,67,20,35,5,4,0.9,0.8
2025-01-23T1600,2914A,106.7677,31.8794,巴中市,苏山坪,细颗粒物(PM2.5),198,171,144,148,126,27,,32,30,19,18,5,5,1.2,0.9
2025-01-23T1600,3182A,106.7656,31.8545,巴中市,丽阳花园,细颗粒物(PM2.5),183,165,191,138,149,3,,4,4,40,37,5,5,1.8,1.9
2025-01-23T1600,3183A,106.7418,31.8654,巴中市,圣泉水务公司,细颗粒物(PM2.5),169,146,154,128,129,4,,4,4,32,33,4,5,1.3,1.3
2025-01-23T1600,3616A,106.7616,31.8344,巴中市,市中心医院,细颗粒物(PM2.5),215,198,202,165,171,4,,4,4,42,39,5,5,1.8,1.9
2025-01-23T1600,2235A,122.7911,45.6077,白城市,洮北区环保局,细颗粒物(PM2.5),58,56,88,41,89,73,,48,48,11,31,6,5,0.4,0.8
2025-01-23T1600,2236A,122.8738,45.5725,白城市,市环保局,细颗粒物(PM2.5),58,48,84,41,67,71,,46,46,12,38,1,3,0.5,0.7
2025-01-23T1600,2231A,126.4219,41.9171,白山市,喜丰,,30,30,64,13,32,78,,59,59,9,24,15,37,0.5,0.7
2025-01-23T1600,2232A,126.4077,41.9419,白山市,环保局,,36,36,71,18,35,76,,59,59,5,13,12,21,0.5,0.8
2025-01-23T1600,2647A,104.1724,36.5446,白银市,第三小学,细颗粒物(PM2.5),114,89,116,86,90,86,,49,49,33,46,39,46,1.4,1.4
2025-01-23T1600,2648A,104.1465,36.5482,白银市,动力公司,细颗粒物(PM2.5),84,67,84,62,66,110,,66,66,22,36,21,32,1.1,1.2
2025-01-23T1600,2512A,106.6103,23.9011,百色市,市监测站,细颗粒物(PM2.5),72,72,74,52,55,111,,72,72,17,23,20,13,1.1,1.1
2025-01-23T1600,2513A,106.6538,23.8859,百色市,市中心血站,细颗粒物(PM2.5),77,63,72,56,60,110,,80,80,16,24,18,14,0.9,0.9
2025-01-23T1600,3406A,106.6085,23.8798,百色市,祈福高中,细颗粒物(PM2.5),256,,83,206,58,110,,34,,16,33,18,9,1.3,1.2
2025-01-23T1600,2270A,117.396,32.939,蚌埠市,工人疗养院,细颗粒物(PM2.5),78,74,92,57,67,46,,53,51,30,27,4,4,0.7,0.7
2025-01-23T1600,2271A,117.3605,32.9427,蚌埠市,百货大楼,细颗粒物(PM2.5),80,80,91,59,65,44,,50,48,30,23,4,5,0.5,0.5
2025-01-23T1600,2273A,117.4185,32.8911,蚌埠市,蚌埠学院,细颗粒物(PM2.5),72,58,84,52,70,54,,53,53,24,37,6,9,0.6,0.6
2025-01-23T1600,2274A,117.3533,32.9673,蚌埠市,淮上区政府,细颗粒物(PM2.5),70,61,89,51,69,58,,52,52,19,22,7,8,0.7,0.8
2025-01-23T1600,2275A,117.3145,32.8977,蚌埠市,高新区,细颗粒物(PM2.5),65,53,82,47,69,58,,51,47,28,32,6,7,0.7,0.8
2025-01-23T1600,3715A,117.3092,32.9314,蚌埠市,蚌埠田家炳中学,,,82,99,64,70,40,,54,49,32,28,5,6,,0.5
2025-01-23T1600,1585A,109.8756,40.6532,包头市,市环境监测站,细颗粒物(PM2.5),110,120,116,83,71,59,,36,36,53,65,49,33,1.7,2
2025-01-23T1600,1587A,109.9991,40.5842,包头市,包头八中,颗粒物(PM10),148,246,136,,91,78,,38,38,,64,28,36,0.9,2.5
2025-01-23T1600,1588A,109.8538,40.6821,包头市,青山宾馆,细颗粒物(PM2.5),122,107,101,92,76,47,,33,33,66,61,58,27,2.1,2.1
2025-01-23T1600,1589A,109.8642,40.6288,包头市,惠龙物流,细颗粒物(PM2.5),105,111,122,79,78,72,,43,43,48,66,37,32,1.4,2.1
2025-01-23T1600,1590A,110.0377,40.5546,包头市,东河鸿龙湾,细颗粒物(PM2.5),144,116,144,110,97,86,,39,39,42,57,30,26,1.1,2
2025-01-23T1600,3283A,109.9154,40.5685,包头市,滨河大厦,细颗粒物(PM2.5),124,137,111,94,72,99,,44,44,40,66,31,31,1.2,1.9
2025-01-23T1600,3419A,109.9447,40.6261,包头市,包头市委党校,细颗粒物(PM2.5),127,131,97,96,59,68,,34,34,51,67,33,27,1.6,2.2
2025-01-23T1600,3683A,109.8331,40.6576,包头市,昆区政府,细颗粒物(PM2.5),100,103,115,75,80,56,,36,36,54,64,46,37,1.7,2.2
2025-01-23T1600,1930A,107.185,34.3063,宝鸡市,庙沟村,细颗粒物(PM2.5),254,240,222,204,203,66,,52,52,47,51,13,14,1.5,1.5
2025-01-23T1600,1931A,107.0708,34.3017,宝鸡市,竹园沟,细颗粒物(PM2.5),246,248,213,196,182,63,,56,56,55,40,16,12,1.5,1.5
2025-01-23T1600,1932A,107.1906,34.3672,宝鸡市,三陆医院,细颗粒物(PM2.5),222,231,232,172,200,94,,64,64,40,54,14,14,1.5,1.6
2025-01-23T1600,1933A,107.1431,34.3547,宝鸡市,监测站,细颗粒物(PM2.5),271,253,239,221,201,49,,53,53,47,47,15,15,1.7,1.7
2025-01-23T1600,1934A,107.1186,34.3739,宝鸡市,技工学校,细颗粒物(PM2.5),249,220,215,199,189,63,,56,56,48,48,12,14,1.6,1.5
2025-01-23T1600,1935A,107.3906,34.3528,宝鸡市,陈仓区环保局家属楼,细颗粒物(PM2.5),212,197,235,162,210,101,,68,68,34,58,16,17,1.4,1.6
2025-01-23T1600,1936A,107.2058,34.3497,宝鸡市,文理学院,细颗粒物(PM2.5),213,212,246,163,206,101,,68,68,32,49,15,15,1.4,1.6
2025-01-23T1600,1937A,107.2386,34.3622,宝鸡市,三迪小学,细颗粒物(PM2.5),221,188,222,171,200,90,,61,61,34,47,16,17,1.5,1.6
2025-01-23T1600,1051A,115.493,38.8632,保定市,游泳馆,细颗粒物(PM2.5),64,71,66,46,46,74,,44,44,8,40,10,8,0.6,0.8
2025-01-23T1600,1052A,115.5213,38.8959,保定市,华电二区,细颗粒物(PM2.5),75,,65,55,53,72,,38,38,15,36,6,3,0.4,0.6
2025-01-23T1600,1053A,115.4713,38.9108,保定市,接待中心,细颗粒物(PM2.5),57,47,72,40,54,68,,40,40,22,42,4,3,0.4,0.5
2025-01-23T1600,1054A,115.4612,38.8416,保定市,地表水厂,颗粒物(PM10),55,60,72,36,49,93,,54,54,19,46,3,3,0.4,0.5
2025-01-23T1600,3581A,115.31981,38.95208,保定市,满城区生态环境分局,颗粒物(PM10),59,68,95,41,64,74,,52,52,26,45,7,7,0.5,1
2025-01-23T1600,3582A,115.47694,38.76408,保定市,清苑区第二中学,,49,42,93,34,58,78,,44,44,15,43,8,7,0.5,0.6
2025-01-23T1600,3583A,115.62909,39.02311,保定市,徐水物探局,,39,27,58,27,51,83,,47,47,20,46,10,10,0.5,0.6
2025-01-23T1600,4004A,115.4202,38.8656,保定市,双鹰农机,颗粒物(PM10),55,59,71,29,49,81,,52,52,16,37,3,3,0.4,0.8
2025-01-23T1600,4034A,115.5150,38.8590,保定市,植保所站,细颗粒物(PM2.5),54,49,73,38,48,50,,28,28,12,45,4,5,0.4,0.6
2025-01-23T1600,2594A,99.1678,25.1081,保山市,市环境监测站,,35,35,32,21,20,88,,74,74,5,8,5,5,0.3,0.4
2025-01-23T1600,2595A,99.1711,25.1328,保山市,市环保局,,40,38,34,28,24,89,,77,77,4,5,6,6,0.4,0.3
2025-01-23T1600,1866A,109.2262,21.588,北海市,牛尾岭水库,,,35,59,,63,40,,59,59,,11,5,5,0.4,0.5
2025-01-23T1600,1867A,109.1436,21.4086,北海市,海滩公园,颗粒物(PM10),57,64,63,37,45,144,,117,117,12,14,6,7,1.0,0.9
2025-01-23T1600,1868A,109.0981,21.4661,北海市,新市环保局,,49,49,56,27,43,114,,104,103,16,19,5,7,0.5,0.7
2025-01-23T1600,1869A,109.1778,21.5233,北海市,北海工业园,细颗粒物(PM2.5),53,,86,37,69,117,,101,101,7,16,6,9,0.6,0.8
2025-01-23T1600,3400A,109.1911,21.4415,北海市,龙潭自来水厂,细颗粒物(PM2.5),67,53,60,48,58,118,,101,101,9,11,5,6,0.7,0.8
2025-01-23T1600,1001A,116.3621,39.8784,北京市,万寿西宫,细颗粒物(PM2.5),63,51,63,45,47,67,,34,34,27,50,9,8,0.5,0.8
2025-01-23T1600,1002A,116.2202,40.2915,北京市,定陵,,,,,,,,,,,,,,,,
2025-01-23T1600,1003A,116.4174,39.9289,北京市,东四,,,67,77,43,50,59,,19,,20,40,6,7,,0.8
2025-01-23T1600,1004A,116.4072,39.8863,北京市,天坛,细颗粒物(PM2.5),63,66,73,45,55,70,,38,38,16,36,5,3,0.7,0.8
2025-01-23T1600,1005A,116.462,39.9365,北京市,农展馆,细颗粒物(PM2.5),63,66,82,45,55,71,,33,33,24,48,6,5,0.8,1.1
2025-01-23T1600,1006A,116.3392,39.9295,北京市,官园,细颗粒物(PM2.5),62,65,77,44,50,67,,32,32,21,44,8,8,0.5,0.8
2025-01-23T1600,1007A,116.2878,39.9611,北京市,海淀万柳,细颗粒物(PM2.5),58,59,78,41,53,63,,28,28,30,54,7,6,0.7,1.1
2025-01-23T1600,1008A,116.6636,40.135,北京市,顺义新城,细颗粒物(PM2.5),80,87,95,59,61,51,,40,40,38,49,4,4,0.7,1
2025-01-23T1600,1009A,116.6275,40.3275,北京市,怀柔镇,细颗粒物(PM2.5),74,74,62,54,43,61,,44,44,32,29,5,3,0.6,0.7
2025-01-23T1600,1010A,116.2296,40.217,北京市,昌平镇,细颗粒物(PM2.5),83,101,76,61,47,41,,31,31,46,37,4,2,1.1,1.1
2025-01-23T1600,1011A,116.3966,39.9821,北京市,奥体中心,细颗粒物(PM2.5),83,90,86,61,56,38,,23,23,52,50,6,6,0.8,0.9
2025-01-23T1600,3281A,115.9718,40.4529,北京市,延庆夏都,细颗粒物(PM2.5),97,97,72,72,48,52,,35,35,32,33,7,5,0.8,0.8
2025-01-23T1600,3417A,117.0709,40.1465,北京市,平谷新城,细颗粒物(PM2.5),75,77,79,55,57,61,,44,44,23,26,11,5,0.7,1.2
2025-01-23T1600,3418A,116.8336,40.4095,北京市,密云新城,细颗粒物(PM2.5),74,72,74,54,48,70,,47,47,24,30,4,4,0.5,0.9
2025-01-23T1600,3671A,116.088,39.9726,北京市,门头沟三家店,细颗粒物(PM2.5),73,75,71,53,46,61,,37,37,28,31,5,4,0.5,0.7
2025-01-23T1600,3672A,116.1541,39.8204,北京市,丰台云岗,细颗粒物(PM2.5),68,72,83,49,51,74,,40,40,19,40,7,6,0.4,0.6
2025-01-23T1600,3673A,116.6804,39.9081,北京市,通州东关,细颗粒物(PM2.5),68,70,94,49,64,55,,30,30,15,23,5,4,0.6,0.7
2025-01-23T1600,3674A,115.9577,39.7603,北京市,房山燕山,细颗粒物(PM2.5),69,76,70,50,48,69,,42,42,22,30,1,2,0.4,0.7
2025-01-23T1600,3675A,116.4672,39.7733,北京市,大兴旧宫,细颗粒物(PM2.5),58,59,74,41,47,60,,35,35,20,36,2,3,0.5,0.7
2025-01-23T1600,3694A,115.986,40.4563,北京市,延庆石河营,细颗粒物(PM2.5),97,93,69,72,50,49,,31,31,35,35,6,4,0.8,0.8
2025-01-23T1600,3695A,116.6151,40.3053,北京市,怀柔新城,细颗粒物(PM2.5),78,78,62,57,45,52,,41,41,32,24,3,3,0.6,0.6
2025-01-23T1600,3696A,116.2545,39.8768,北京市,丰台小屯,细颗粒物(PM2.5),62,58,83,44,60,70,,32,32,22,66,6,6,0.4,0.8
2025-01-23T1600,3697A,116.84,40.3844,北京市,密云镇,细颗粒物(PM2.5),82,80,76,60,52,66,,42,42,21,42,5,3,0.5,0.9
2025-01-23T1600,4182A,116.1942,39.91583,北京市,八角,细颗粒物(PM2.5),62,65,80,44,50,70,,33,33,17,44,3,2,0.6,0.9
2025-01-23T1600,1761A,123.8275,41.3064,本溪市,大峪,,42,33,83,29,51,66,,46,46,18,35,9,8,0.7,1.4
2025-01-23T1600,1762A,123.7567,41.3325,本溪市,溪湖,,47,47,100,20,57,57,,37,37,25,41,44,12,0.6,1.3
2025-01-23T1600,1763A,123.7169,41.3094,本溪市,彩屯,,40,34,92,28,69,60,,36,36,28,41,16,12,1.1,1.8
2025-01-23T1600,1764A,123.7669,41.2864,本溪市,东明,,39,38,114,27,74,59,,34,34,23,47,12,12,1.3,2
2025-01-23T1600,1765A,123.7992,41.2664,本溪市,新立屯,,49,49,79,27,42,71,,46,46,23,48,8,9,0.7,1.8
2025-01-23T1600,1766A,123.8142,41.3472,本溪市,威宁,,32,30,96,22,56,69,,48,48,15,35,5,4,0.5,1.1
2025-01-23T1600,2587A,105.2864,27.3125,毕节市,八中,,,,92,,73,103,,70,70,12,20,9,9,0.8,1.1
2025-01-23T1600,2588A,105.31,27.2944,毕节市,师专,细颗粒物(PM2.5),58,51,92,41,66,105,,75,75,12,19,7,8,0.8,1.1
2025-01-23T1600,3537A,105.3631,27.3533,毕节市,长征村,细颗粒物(PM2.5),105,91,90,79,74,109,,93,93,11,11,9,9,1.0,1.1
2025-01-23T1600,1629A,118.0018,37.3617,滨州市,第二水厂,细颗粒物(PM2.5),89,90,48,66,30,61,,50,50,25,22,17,11,0.9,0.6
2025-01-23T1600,1630A,117.9776,37.393,滨州市,北中新校,细颗粒物(PM2.5),70,85,51,51,28,65,,51,51,31,27,16,7,0.4,0.1
2025-01-23T1600,3514A,117.9378,37.3956,滨州市,中海酒店,细颗粒物(PM2.5),73,68,41,53,32,72,,56,56,28,23,13,6,0.7,0.5
2025-01-23T1600,3515A,117.9378,37.3553,滨州市,开发区一中,细颗粒物(PM2.5),70,80,48,51,29,70,,58,58,27,26,13,11,0.7,0.4
2025-01-23T1600,3516A,118.0917,37.694,滨州市,金海六路,颗粒物(PM10),57,63,33,36,20,70,,57,57,17,18,7,6,0.5,0.5
2025-01-23T1600,4028A,117.9956,37.3753,滨州市,滨州市西街道办事处,细颗粒物(PM2.5),92,85,45,68,34,68,,54,54,23,24,14,7,0.8,0.1
2025-01-23T1600,2311A,115.8072,33.8399,亳州市,污水处理厂,细颗粒物(PM2.5),108,124,142,81,106,36,,38,38,20,31,5,8,0.9,1
2025-01-23T1600,2312A,115.7789,33.8518,亳州市,三国揽胜宫,细颗粒物(PM2.5),123,145,167,93,102,41,,41,41,25,35,3,6,0.9,1
2025-01-23T1600,3332A,115.7633,33.8034,亳州市,亳州学院,细颗粒物(PM2.5),120,125,142,91,96,38,,40,40,19,32,2,6,,1.2
2025-01-23T1600,2693A,82.0485,44.8556,博尔塔拉蒙古自治州,市党校,,34,34,56,18,32,82,,82,79,12,18,7,8,0.3,0.6
2025-01-23T1600,2694A,82.0806,44.8969,博尔塔拉蒙古自治州,市环保局,,45,45,51,18,25,71,,70,68,14,26,9,8,0.5,0.9
2025-01-23T1600,1071A,116.8842,38.2991,沧州市,沧县城建局,,,39,55,28,34,66,,47,47,,39,5,4,0.4,0.5
2025-01-23T1600,1072A,116.8584,38.3254,沧州市,电视转播站,,29,29,56,17,32,68,,43,43,15,40,6,6,0.4,0.5
2025-01-23T1600,1073A,116.8709,38.3228,沧州市,市环保局,,35,35,52,21,35,65,,43,43,17,37,4,4,0.3,0.4
2025-01-23T1600,3324A,116.8136,38.3004,沧州市,河北水利电力学院,,38,29,45,26,32,61,,44,44,16,29,6,9,0.3,0.4
2025-01-23T1600,2622A,97.1806,31.1273,昌都市,昌都监测站,,25,8,42,3,23,80,,52,52,5,25,6,8,0.5,1.1
2025-01-23T1600,3719A,97.1714,31.1406,昌都市,昌都会议中心,,,,121,1,8,81,,58,58,4,5,4,4,0.4,0.4
2025-01-23T1600,2690A,88.1236,43.8886,昌吉回族自治州,天山天池,颗粒物(PM10),58,66,20,33,12,90,,91,84,11,7,4,6,0.9,0.7
2025-01-23T1600,2692A,87.2717,44.0297,昌吉回族自治州,新区政务中心,细颗粒物(PM2.5),90,73,153,67,125,72,,58,58,16,48,5,2,0.6,1.4
2025-01-23T1600,3613A,87.3095,44.0142,昌吉回族自治州,亚心广场,细颗粒物(PM2.5),70,58,149,51,130,85,,70,70,2,33,5,6,0.6,1.2
2025-01-23T1600,1119A,125.3325,43.9166,长春市,食品厂,细颗粒物(PM2.5),68,75,111,49,87,53,,39,39,35,56,14,11,0.5,1
2025-01-23T1600,1120A,125.2863,43.9027,长春市,客车厂,细颗粒物(PM2.5),65,55,114,47,88,45,,40,40,46,62,11,11,0.7,1
2025-01-23T1600,1121A,125.2841,43.8463,长春市,邮电学院,细颗粒物(PM2.5),57,54,90,40,79,62,,48,48,26,44,17,12,0.7,1
2025-01-23T1600,1122A,125.3716,43.8772,长春市,劳动公园,"颗粒物(PM10),细颗粒物(PM2.5)",55,60,101,39,74,63,,45,45,30,49,14,10,0.5,0.9
2025-01-23T1600,1123A,125.3297,43.8805,长春市,园林处,细颗粒物(PM2.5),62,58,88,44,75,53,,43,43,34,44,16,13,0.4,0.7
2025-01-23T1600,1124A,125.4605,43.79,长春市,净月潭,,50,38,63,35,46,82,,67,67,8,18,9,7,0.5,0.6
2025-01-23T1600,1125A,125.7194,43.515,长春市,甩湾子,,,,,,,,,,,,,,,,
2025-01-23T1600,1126A,125.3863,43.8447,长春市,经开区环卫处,细颗粒物(PM2.5),125,,129,95,77,59,,44,44,22,51,12,13,0.4,1.2
2025-01-23T1600,1127A,125.245,43.7783,长春市,高新区管委会,,35,33,107,24,99,73,,52,52,12,42,8,9,0.2,1.1
2025-01-23T1600,1128A,125.1761,43.8325,长春市,岱山公园,,39,38,118,27,99,67,,38,38,24,63,11,11,0.5,1.4
2025-01-23T1600,1335A,113.0833,28.2325,长沙市,经开区环保局,细颗粒物(PM2.5),311,345,213,261,168,63,,49,49,38,40,7,7,1.4,1.1
2025-01-23T1600,1336A,112.8872,28.2189,长沙市,高开区环保局,细颗粒物(PM2.5),308,312,207,258,176,70,,50,50,37,32,8,9,1.5,1.2
2025-01-23T1600,1337A,113.0792,28.2053,长沙市,马坡岭,细颗粒物(PM2.5),316,322,208,266,168,67,,53,53,43,45,7,7,1.4,1.1
2025-01-23T1600,1338A,112.9394,28.19,长沙市,湖南师范大学,细颗粒物(PM2.5),287,304,205,237,157,65,,52,52,40,33,10,10,1.7,1.4
2025-01-23T1600,1339A,113.0178,28.1322,长沙市,雨花区环保局,细颗粒物(PM2.5),306,278,190,256,167,68,,54,54,44,45,9,9,1.5,1.3
2025-01-23T1600,1340A,112.9792,28.2597,长沙市,伍家岭,细颗粒物(PM2.5),304,346,235,254,163,59,,47,47,44,35,8,8,1.7,1.4
2025-01-23T1600,1341A,113.0014,28.1944,长沙市,火车新站,细颗粒物(PM2.5),313,325,208,263,163,70,,57,57,47,45,7,7,1.6,1.3
2025-01-23T1600,1342A,112.9844,28.1178,长沙市,天心区环保局,细颗粒物(PM2.5),296,278,191,246,150,72,,55,55,40,42,5,5,1.7,1.4
2025-01-23T1600,1343A,112.8908,28.1308,长沙市,湖南中医药大学,细颗粒物(PM2.5),292,287,202,242,167,74,,58,58,26,33,7,10,1.6,1.3
2025-01-23T1600,1344A,112.9581,28.3611,长沙市,沙坪,细颗粒物(PM2.5),319,339,225,269,171,60,,47,47,32,30,10,11,1.9,1.6
2025-01-23T1600,1727A,113.1147,36.1547,长治市,清华站,细颗粒物(PM2.5),178,134,93,134,73,100,,51,51,34,39,20,23,1.5,1.4
2025-01-23T1600,1730A,113.0886,36.2125,长治市,审计局,细颗粒物(PM2.5),178,140,93,134,75,105,,53,53,33,40,18,20,1.4,1.2
2025-01-23T1600,1731A,113.0844,36.1856,长治市,长治八中,细颗粒物(PM2.5),188,152,118,141,88,104,,52,52,28,38,18,21,1.6,1.4
2025-01-23T1600,2845A,113.1569,36.1911,长治市,德盛苑,细颗粒物(PM2.5),149,141,94,114,73,92,,62,62,44,33,21,15,1.6,1.4
2025-01-23T1600,3568A,113.06,36.0464,长治市,向阳小学,细颗粒物(PM2.5),201,160,137,151,104,100,,61,61,33,41,21,29,1.5,2.1
2025-01-23T1600,3569A,112.8792,36.3144,长治市,屯留一中,细颗粒物(PM2.5),137,,91,104,72,130,,64,64,35,58,16,27,,1.6
2025-01-23T1600,4189A,113.1131,36.19948,长治市,英华南巷50号,细颗粒物(PM2.5),160,,91,122,73,114,,60,60,37,46,20,19,1.4,1.4
2025-01-23T1600,4190A,113.2367,36.3344,长治市,学府街1号,细颗粒物(PM2.5),112,,66,84,44,96,,59,59,26,44,17,19,1.0,1.2
2025-01-23T1600,1854A,111.6975,28.9703,常德市,市二中,细颗粒物(PM2.5),268,238,225,218,212,67,,65,65,25,22,10,11,1.3,1.2
2025-01-23T1600,1857A,111.7158,29.1456,常德市,白鹤山,,,,,,,,,,,,,,,,
2025-01-23T1600,3138A,111.7153,29.0289,常德市,武陵区永安,细颗粒物(PM2.5),269,270,251,219,207,71,,68,68,31,29,10,12,1.1,1
2025-01-23T1600,3139A,111.6892,28.9881,常德市,鼎城区玉霞,细颗粒物(PM2.5),261,308,215,211,203,70,,69,69,30,27,6,13,1.4,1.3
2025-01-23T1600,3140A,111.6625,29.0531,常德市,武陵区长庚,细颗粒物(PM2.5),262,264,267,212,213,71,,60,60,29,29,8,8,1.2,1.1
2025-01-23T1600,1196A,119.9633,31.762,常州市,市监测站,颗粒物(PM10),51,51,77,33,52,78,,45,45,30,65,7,8,0.4,0.8
2025-01-23T1600,1200A,119.9468,31.7069,常州市,武进监测站,,49,49,68,29,41,67,,42,42,26,47,6,12,0.8,1
2025-01-23T1600,1201A,119.9255,31.9087,常州市,安家,,45,45,77,30,55,70,,42,42,31,59,10,10,0.9,1.1
2025-01-23T1600,3002A,119.9805,31.8174,常州市,行政中心,,49,45,64,34,47,74,,38,38,16,42,14,14,0.5,0.7
2025-01-23T1600,3003A,120.0522,31.7748,常州市,经开区,颗粒物(PM10),56,61,81,23,40,88,,50,50,18,53,8,10,0.4,0.6
2025-01-23T1600,3010A,119.9025,31.7964,常州市,钟楼,颗粒物(PM10),54,57,78,36,52,76,,42,42,19,50,7,8,0.7,0.9
2025-01-23T1600,3429A,119.8598,31.7066,常州市,武进经发区,,45,45,73,29,51,72,,48,48,29,56,7,6,0.8,0.8
2025-01-23T1600,3430A,119.5826,31.7245,常州市,金坛城区,细颗粒物(PM2.5),69,74,84,50,61,60,,40,40,25,40,6,7,0.8,0.8
2025-01-23T1600,2220A,120.4318,41.5881,朝阳市,西梁,细颗粒物(PM2.5),67,73,83,48,59,72,,50,50,24,44,21,21,0.7,1.4
2025-01-23T1600,2221A,120.4521,41.5646,朝阳市,河畔小区,细颗粒物(PM2.5),63,55,87,45,66,67,,41,41,19,34,20,16,1.0,1.3
2025-01-23T1600,2222A,120.4176,41.5648,朝阳市,八里堡,颗粒物(PM10),68,85,93,47,69,73,,49,49,23,42,21,19,0.8,1.6
2025-01-23T1600,2223A,120.3806,41.5969,朝阳市,农业园区,细颗粒物(PM2.5),75,57,81,55,68,69,,46,46,21,35,20,19,0.9,1.2
2025-01-23T1600,1705A,116.6367,23.6719,潮州市,西园路,细颗粒物(PM2.5),75,,50,55,52,140,,87,87,17,21,5,4,0.5,0.5
2025-01-23T1600,3026A,116.6183,23.6608,潮州市,市政府,细颗粒物(PM2.5),68,62,58,49,49,141,,92,92,12,21,5,4,0.5,0.7
2025-01-23T1600,4036A,116.6461,23.6761,潮州市,金山,细颗粒物(PM2.5),90,,51,67,50,137,,83,83,16,19,7,5,0.7,0.6
2025-01-23T1600,2472A,113.0073,25.9061,郴州市,马头岭,细颗粒物(PM2.5),73,83,74,53,40,115,,88,88,30,31,22,23,1.1,1
2025-01-23T1600,2473A,113.0116,25.8226,郴州市,市职中,细颗粒物(PM2.5),80,79,90,59,57,123,,84,84,17,41,26,13,1.0,1
2025-01-23T1600,2474A,113.0161,25.8001,郴州市,兴隆步行街,,,,,,,,,,,,,,,,
2025-01-23T1600,2475A,113.0383,25.8071,郴州市,市审计局,细颗粒物(PM2.5),80,73,84,59,61,117,,76,76,15,46,27,12,0.8,1.3
2025-01-23T1600,2476A,113.0348,25.7759,郴州市,市环保局,细颗粒物(PM2.5),84,78,87,62,60,119,,75,75,22,56,51,14,0.8,0.8
2025-01-23T1600,1431A,103.9728,30.7236,成都市,金泉两河,细颗粒物(PM2.5),190,169,179,143,156,16,,8,8,48,59,8,3,1.0,1.4
2025-01-23T1600,1432A,104.176,30.6872,成都市,十里店,细颗粒物(PM2.5),220,199,189,170,157,13,,9,9,55,55,4,2,1.0,1
2025-01-23T1600,1433A,104.079,30.5706,成都市,三瓦窑,细颗粒物(PM2.5),234,219,186,184,153,4,,2,2,69,61,2,2,1.4,1.2
2025-01-23T1600,1434A,104.1114,30.63,成都市,沙河铺,细颗粒物(PM2.5),250,230,181,200,160,8,,5,5,61,52,4,4,,1.2
2025-01-23T1600,1437A,104.0786,30.6531,成都市,君平街,细颗粒物(PM2.5),216,176,174,166,162,23,,13,13,52,61,7,5,1.0,1.2
2025-01-23T1600,1438A,103.613,31.0283,成都市,灵岩寺,,,,,,,,,,,,,,,,
2025-01-23T1600,2880A,104.0239,30.65639,成都市,大石西路,细颗粒物(PM2.5),204,186,174,154,152,17,,8,8,53,58,5,4,1.0,1.2
2025-01-23T1600,3136A,104.2725,30.5589,成都市,龙泉驿区区政府,细颗粒物(PM2.5),216,195,157,166,134,17,,32,16,52,34,2,3,1.3,1.1
2025-01-23T1600,3357A,104.0106,30.6931,成都市,金博路,细颗粒物(PM2.5),178,169,185,134,141,18,,7,7,47,60,5,2,1.0,1.3
2025-01-23T1600,3359A,104.0578,30.5225,成都市,华阳,细颗粒物(PM2.5),221,200,170,171,146,8,,8,7,63,45,1,1,,1.2
2025-01-23T1600,3488A,104.3853,30.7453,成都市,青白江技师分院,细颗粒物(PM2.5),244,213,176,194,158,10,,5,5,41,39,5,5,1.2,1
2025-01-23T1600,3489A,104.0789,30.4072,成都市,科学城,细颗粒物(PM2.5),169,161,158,128,135,38,,18,18,24,25,4,4,1.1,1.1
2025-01-23T1600,4011A,103.8506,30.6947,成都市,光华大道三段,细颗粒物(PM2.5),202,190,180,152,145,13,,9,9,47,52,5,3,1.1,1.2
2025-01-23T1600,4224A,104.2433,30.5353,成都市,鲸龙路1057号,细颗粒物(PM2.5),218,210,178,168,138,32,,15,15,42,44,2,2,1.3,1.2
2025-01-23T1600,1062A,117.9531,40.9081,承德市,铁路,细颗粒物(PM2.5),69,69,53,50,36,59,,33,33,30,40,14,12,0.9,1
2025-01-23T1600,1063A,117.9392,40.9763,承德市,中国银行,细颗粒物(PM2.5),78,82,77,57,37,58,,34,34,23,34,12,7,1.0,1
2025-01-23T1600,1064A,117.9503,40.928,承德市,开发区,细颗粒物(PM2.5),72,84,65,52,42,72,,44,44,25,39,13,9,0.9,1
2025-01-23T1600,1065A,117.8051,40.9655,承德市,文化中心,细颗粒物(PM2.5),99,119,104,74,56,59,,33,33,40,47,58,21,2.7,1.5
2025-01-23T1600,1066A,117.9268,41.0026,承德市,离宫,细颗粒物(PM2.5),100,96,64,75,45,49,,33,33,32,32,17,8,1.2,0.8
2025-01-23T1600,2314A,117.47,30.6618,池州市,池州学院,细颗粒物(PM2.5),189,155,195,142,170,89,,64,64,42,49,13,13,1.1,1.2
2025-01-23T1600,3237A,117.4918,30.6617,池州市,展览馆,细颗粒物(PM2.5),155,162,183,118,139,83,,63,63,48,58,12,9,1.2,1.2
2025-01-23T1600,3333A,117.5627,30.695,池州市,第八中学,细颗粒物(PM2.5),178,158,204,134,168,78,,57,57,42,50,10,13,1.1,1
2025-01-23T1600,3334A,117.5038,30.6243,池州市,第十二中学,细颗粒物(PM2.5),185,167,194,139,162,86,,66,66,46,57,9,10,1.2,1.2
2025-01-23T1600,1744A,118.9233,42.2816,赤峰市,松山一中,颗粒物(PM10),66,82,89,37,50,40,,30,30,51,49,52,29,1.6,1.4
2025-01-23T1600,1745A,118.9576,42.2728,赤峰市,哈达街,颗粒物(PM10),61,72,96,40,65,37,,27,27,65,55,85,33,1.2,1.4
2025-01-23T1600,1746A,118.8788,42.2554,赤峰市,天义路,颗粒物(PM10),60,69,90,34,59,48,,29,29,32,41,15,18,0.7,1
2025-01-23T1600,3058A,119.2658,42.0353,赤峰市,银河街,细颗粒物(PM2.5),107,104,145,80,105,54,,40,40,41,46,27,41,1.9,2
2025-01-23T1600,3286A,118.9359,42.3147,赤峰市,桥北物流园区,细颗粒物(PM2.5),82,68,73,60,66,48,,37,37,40,46,45,27,1.2,1.1
2025-01-23T1600,2521A,107.3476,22.4136,崇左市,市环保局江州分局,颗粒物(PM10),51,52,76,20,47,103,,94,94,7,17,4,6,0.7,1
2025-01-23T1600,2522A,107.3702,22.3707,崇左市,城南新区,,39,39,75,19,57,111,,98,98,7,21,5,8,0.7,0.9
2025-01-23T1600,2298A,118.3093,32.3153,滁州市,老年大学,,,59,84,37,63,49,,52,52,,36,,3,0.4,0.5
2025-01-23T1600,2299A,118.3244,32.2786,滁州市,人大宾馆,细颗粒物(PM2.5),78,67,76,57,65,52,,48,48,39,37,7,7,0.6,0.7
2025-01-23T1600,3207A,118.3118,32.3038,滁州市,市政府原办公楼,细颗粒物(PM2.5),70,57,73,51,61,57,,52,52,30,31,4,5,0.2,0.3
2025-01-23T1600,3331A,118.3267,32.2634,滁州市,图书馆,细颗粒物(PM2.5),70,79,85,51,58,52,,48,48,29,26,5,5,0.5,0.5
2025-01-23T1600,2605A,101.5482,25.0441,楚雄彝族自治州,州环境监测站,,28,24,34,14,26,88,,63,63,3,19,7,7,0.4,0.6
2025-01-23T1600,2606A,101.538,25.0492,楚雄彝族自治州,市经济开发区,,29,15,40,14,30,90,,63,63,5,22,5,6,0.4,0.7
2025-01-23T1600,2548A,107.5277,31.2827,达州市,达州职业技术学院,细颗粒物(PM2.5),271,270,257,221,212,6,,4,4,42,36,9,7,1.5,1.7
2025-01-23T1600,2549A,107.5086,31.2186,达州市,市环境监测站,细颗粒物(PM2.5),240,237,239,190,200,5,,5,5,58,50,15,10,1.7,2.1
2025-01-23T1600,2550A,107.4988,31.2132,达州市,凤凰小区,细颗粒物(PM2.5),238,237,240,188,196,6,,6,6,54,51,16,12,,2
2025-01-23T1600,2551A,107.5082,31.1986,达州市,达县机关宾馆,细颗粒物(PM2.5),220,202,231,170,186,6,,5,5,58,53,14,10,1.7,2
2025-01-23T1600,2552A,107.4644,31.2124,达州市,市政中心,细颗粒物(PM2.5),243,248,249,193,194,2,,3,3,67,62,8,8,1.9,2.3
2025-01-23T1600,2614A,100.1542,25.7054,大理白族自治州,大理市环境监测站,,33,30,33,23,28,85,,80,79,7,7,7,7,0.6,0.6
2025-01-23T1600,2615A,100.2171,25.5811,大理白族自治州,大理古城,,31,31,36,16,26,98,,83,83,4,12,5,6,0.6,0.8
2025-01-23T1600,1109A,121.612,38.9741,大连市,甘井子,,,,40,,26,75,,55,55,13,29,6,11,0.5,0.5
2025-01-23T1600,1110A,121.565,38.9511,大连市,周水子,,25,25,40,10,32,71,,52,52,14,36,7,14,0.7,1
2025-01-23T1600,1111A,121.5637,38.8845,大连市,星海三站,,25,20,39,7,29,80,,63,63,6,23,7,13,0.5,1
2025-01-23T1600,1112A,121.6302,38.9117,大连市,青泥洼桥,,23,10,37,7,23,72,,59,59,2,23,11,13,0.4,0.7
2025-01-23T1600,1113A,121.6251,38.8638,大连市,傅家庄,,25,18,35,3,22,77,,69,69,4,22,9,13,0.3,0.6
2025-01-23T1600,1114A,121.5213,38.8661,大连市,七贤岭,,25,14,33,7,23,78,,64,64,8,19,8,9,0.4,0.7
2025-01-23T1600,1115A,121.2529,38.8061,大连市,旅顺,,25,13,34,6,26,79,,67,67,7,17,7,10,0.6,0.8
2025-01-23T1600,1116A,121.7485,39.1311,大连市,金州,,26,26,40,18,32,65,,60,60,25,23,9,10,0.7,0.9
2025-01-23T1600,1117A,121.7811,39.0496,大连市,开发区,,30,30,38,14,25,56,,51,51,29,29,13,14,0.4,0.5
2025-01-23T1600,1118A,121.9762,39.0631,大连市,双D港,,28,19,33,9,24,88,,80,80,10,15,8,12,0.6,0.9
2025-01-23T1600,1789A,124.81117,46.03138,大庆市,大同区,细颗粒物(PM2.5),105,89,120,79,109,60,,52,52,34,32,12,10,0.9,1.1
2025-01-23T1600,1790A,125.129,46.533,大庆市,龙凤区,细颗粒物(PM2.5),87,94,112,64,88,66,,49,49,31,56,9,10,0.8,1.2
2025-01-23T1600,1791A,124.902,46.408,大庆市,红岗区,细颗粒物(PM2.5),94,92,79,70,59,71,,45,45,34,37,11,8,0.8,0.8
2025-01-23T1600,1792A,125.153,46.586,大庆市,萨尔图区,细颗粒物(PM2.5),156,138,116,119,100,45,,35,35,64,58,6,6,0.6,1
2025-01-23T1600,1793A,124.9042,46.6215,大庆市,让胡路区,细颗粒物(PM2.5),113,105,100,85,86,32,,34,34,66,57,8,8,0.8,1
2025-01-23T1600,3481A,125.141,46.634,大庆市,萨区政府监测点,细颗粒物(PM2.5),218,203,110,168,86,41,,30,30,64,46,7,6,,1
2025-01-23T1600,1721A,113.3819,40.1097,大同市,果树场,,,,,,,,,,,,,,,,
2025-01-23T1600,1723A,113.2994,40.0758,大同市,云冈宾馆,细颗粒物(PM2.5),115,147,126,87,68,65,,37,37,47,51,44,29,1.0,1.2
2025-01-23T1600,1724A,113.3444,40.0917,大同市,大同大学,细颗粒物(PM2.5),104,120,91,78,56,76,,42,42,34,46,48,30,0.9,1
2025-01-23T1600,1725A,113.2661,40.1269,大同市,安家小村,细颗粒物(PM2.5),97,130,126,72,65,56,,38,38,50,49,31,32,1.0,2.2
2025-01-23T1600,1726A,113.2711,40.0844,大同市,教育学院,细颗粒物(PM2.5),92,125,144,68,79,48,,29,29,52,59,30,30,0.9,2.2
2025-01-23T1600,3282A,113.3397,40.0597,大同市,大同市卫生学校,细颗粒物(PM2.5),115,129,96,87,59,68,,36,36,40,49,60,31,1.1,1.3
2025-01-23T1600,3565A,113.1367,40.1122,大同市,云冈站,细颗粒物(PM2.5),119,161,136,90,68,51,,34,34,,49,31,31,,1.3
2025-01-23T1600,3566A,113.1186,40.2556,大同市,图书馆,细颗粒物(PM2.5),99,116,104,74,71,50,,36,36,51,36,40,22,1.3,1.3
2025-01-23T1600,3567A,113.5931,40.0461,大同市,区一中,颗粒物(PM10),97,144,105,44,49,73,,50,50,38,34,73,30,0.8,0.9
2025-01-23T1600,4199A,113.2798,40.0997,大同市,魏都大道141号,细颗粒物(PM2.5),92,130,142,68,73,56,,35,35,54,55,36,35,1.1,2
2025-01-23T1600,2269A,124.1069,50.4097,大兴安岭地区,科技局,,26,26,39,14,28,59,,55,55,7,11,9,8,0.3,0.5
2025-01-23T1600,3663A,124.1164,50.4278,大兴安岭地区,红旗社区,,17,12,52,11,41,54,,51,51,14,28,3,7,0.5,0.7
2025-01-23T1600,1600A,124.3303,40.0625,丹东市,江湾东路,颗粒物(PM10),55,59,59,30,42,74,,60,60,20,24,12,13,0.9,1.1
2025-01-23T1600,1601A,124.4256,40.1503,丹东市,临江后街,,48,48,57,20,40,81,,65,65,10,23,5,10,0.5,0.8
2025-01-23T1600,1602A,124.3933,40.1461,丹东市,元宝山,,35,30,43,24,29,70,,50,50,9,17,7,11,0.7,1
2025-01-23T1600,1603A,124.3633,40.1092,丹东市,民主桥,颗粒物(PM10),54,57,52,24,32,75,,60,60,15,25,12,14,0.8,0.9
2025-01-23T1600,3541A,109.5726,19.5167,儋州市,第一中学子站,,27,14,38,10,23,86,,100,85,3,6,5,5,0.6,0.7
2025-01-23T1600,3542A,109.5567,19.5187,儋州市,东坡学校子站,,31,16,36,10,25,97,,106,93,2,5,6,6,0.5,0.7
2025-01-23T1600,2616A,98.5842,24.428,德宏傣族景颇族自治州,德宏州监测站,,36,36,68,25,44,100,,60,60,8,26,6,7,0.7,1
2025-01-23T1600,3677A,98.5881,24.4368,德宏傣族景颇族自治州,芒市人民政府综合楼,,47,47,62,24,40,88,,52,52,8,19,5,6,0.4,0.6
2025-01-23T1600,1901A,104.4239,31.1208,德阳市,东山公园,细颗粒物(PM2.5),210,188,183,160,170,20,,16,13,31,33,3,2,1.0,1.2
2025-01-23T1600,1902A,104.3826,31.1317,德阳市,西小区,细颗粒物(PM2.5),202,182,200,152,177,14,,8,8,32,40,4,4,1.1,1.3
2025-01-23T1600,1904A,104.3553,31.1091,德阳市,耐火材料厂,细颗粒物(PM2.5),202,,184,152,181,19,,8,8,29,39,5,5,0.9,1.1
2025-01-23T1600,3639A,104.4019,31.1244,德阳市,市教育局,细颗粒物(PM2.5),211,177,176,161,173,16,,10,10,32,42,5,5,1.2,1.3
2025-01-23T1600,1622A,116.3032,37.4674,德州市,儿童乐园,细颗粒物(PM2.5),125,129,74,95,47,59,,38,38,23,29,15,10,0.9,0.8
2025-01-23T1600,1624A,116.2991,37.4451,德州市,监理站,细颗粒物(PM2.5),119,124,66,90,41,63,,43,43,32,33,22,17,1.0,0.8
2025-01-23T1600,3066A,116.2721,37.4379,德州市,九衢泉纯净水厂,细颗粒物(PM2.5),107,122,67,80,41,60,,41,41,32,32,18,15,1.0,0.7
2025-01-23T1600,3371A,116.3728,37.4403,德州市,开发区人民医院,细颗粒物(PM2.5),110,122,74,83,45,59,,35,35,32,39,19,14,0.4,0.2
2025-01-23T1600,3372A,116.3572,37.4094,德州市,太阳城中学,细颗粒物(PM2.5),138,127,67,105,47,63,,44,44,28,29,18,13,1.0,0.7
2025-01-23T1600,3511A,116.5652,37.3319,德州市,陵城艺术中心,细颗粒物(PM2.5),122,129,81,92,54,55,,38,38,35,31,22,16,0.9,0.8
2025-01-23T1600,2621A,99.7056,27.8317,迪庆藏族自治州,迪庆州站,,26,20,33,10,21,82,,65,65,8,13,9,9,0.3,0.5
2025-01-23T1600,3180A,99.7136,27.8094,迪庆藏族自治州,质量技术监督局,,27,24,24,9,16,84,,65,65,6,11,8,8,0.3,0.5
2025-01-23T1600,2663A,104.6241,35.5734,定西市,东关小学,,,63,78,43,59,58,,43,43,,22,17,14,0.6,1
2025-01-23T1600,2664A,104.6194,35.5934,定西市,供电公司,,,,,,,,,,,,,,,,
2025-01-23T1600,1389A,113.7547,23.0494,东莞市,莞城梨川,,39,39,55,26,33,104,,79,79,18,24,5,5,0.6,0.6
2025-01-23T1600,1390A,113.7944,23.0128,东莞市,东城石井,细颗粒物(PM2.5),59,52,47,42,34,110,,78,78,19,22,6,6,0.5,0.5
2025-01-23T1600,1391A,113.7383,22.9658,东莞市,南城西平,,,,55,,32,106,,65,65,20,31,5,3,0.8,0.7
2025-01-23T1600,3319A,113.7338,23.0381,东莞市,万江金泰,,40,40,54,25,30,110,,83,83,16,21,3,4,0.6,0.5
2025-01-23T1600,3626A,113.7533,23.0202,东莞市,南城元岭,,45,43,48,31,32,101,,80,80,15,19,6,6,0.7,0.7
2025-01-23T1600,3627A,113.7875,23.0457,东莞市,东城主山,,,40,47,24,27,,,57,57,12,21,6,6,0.4,0.7
2025-01-23T1600,1666A,118.6614,37.4309,东营市,市环保局,细颗粒物(PM2.5),77,90,40,56,25,66,,56,56,34,29,12,5,0.6,0.6
2025-01-23T1600,3036A,118.6904,37.4338,东营市,开发区管委会,细颗粒物(PM2.5),92,94,40,68,26,58,,52,52,36,22,10,4,0.7,0.6
2025-01-23T1600,3365A,118.5719,37.565,东营市,垦利区民丰路,颗粒物(PM10),57,63,31,39,16,71,,56,56,24,21,10,9,0.5,0.3
2025-01-23T1600,3498A,118.5055,37.8612,东营市,河口城区,颗粒物(PM10),51,51,36,24,16,83,,66,66,12,20,3,3,0.9,0.8
2025-01-23T1600,3646A,118.4978,37.4623,东营市,胜利站,,,90,40,48,22,61,,50,50,33,24,,7,1.1,0.8
2025-01-23T1600,3734A,118.35,37.26,东营市,理想之城,细颗粒物(PM2.5),73,80,42,53,24,74,,63,63,33,28,8,4,0.7,0.5
2025-01-23T1600,1591A,110.0023,39.8129,鄂尔多斯市,综合楼,颗粒物(PM10),73,95,114,44,63,71,,64,64,41,59,22,27,1.0,1.4
2025-01-23T1600,1592A,109.9486,39.8261,鄂尔多斯市,巴音孟克林场办事处,颗粒物(PM10),67,83,104,39,66,89,,68,68,36,58,19,23,0.8,1.2
2025-01-23T1600,1593A,109.7736,39.5986,鄂尔多斯市,康泽苑,细颗粒物(PM2.5),70,78,66,51,41,83,,48,48,43,44,22,12,1.0,0.9
2025-01-23T1600,1594A,109.8119,39.5989,鄂尔多斯市,华泰汽车城,细颗粒物(PM2.5),70,78,72,51,44,88,,41,41,39,46,21,9,0.8,0.8
2025-01-23T1600,1595A,109.9734,39.7884,鄂尔多斯市,奥林花园,颗粒物(PM10),60,70,130,31,68,102,,60,60,29,60,18,18,0.8,1.4
2025-01-23T1600,2436A,114.8938,30.3994,鄂州市,市政府,细颗粒物(PM2.5),258,220,219,208,200,63,,49,49,46,51,10,10,1.7,1.7
2025-01-23T1600,2437A,114.8989,30.3714,鄂州市,赵家坝,细颗粒物(PM2.5),234,220,185,184,173,88,,80,80,35,28,8,10,,1.8
2025-01-23T1600,3654A,114.8094,30.4089,鄂州市,精准医疗中心,细颗粒物(PM2.5),249,217,202,199,197,76,,75,72,53,41,20,10,1.1,1.1
2025-01-23T1600,2454A,109.4978,30.2981,恩施土家族苗族自治州,湖北民院,细颗粒物(PM2.5),169,130,123,128,128,12,,6,6,,38,,8,1.4,1.5
2025-01-23T1600,2455A,109.4707,30.2798,恩施土家族苗族自治州,州电力总公司,细颗粒物(PM2.5),140,111,129,107,119,19,,11,11,67,59,8,8,1.3,1.5
2025-01-23T1600,3549A,109.5061,30.3772,恩施土家族苗族自治州,龙凤新区,细颗粒物(PM2.5),104,92,113,78,92,9,,8,8,26,25,6,6,1.4,1.4
2025-01-23T1600,2499A,108.3411,21.6158,防城港市,沙万,,42,39,60,29,44,78,,79,79,28,22,10,12,0.6,1.2
2025-01-23T1600,2500A,108.3514,21.7731,防城港市,防城档案局,颗粒物(PM10),53,55,73,36,49,81,,64,64,16,26,6,7,0.7,0.9
2025-01-23T1600,2501A,108.3506,21.6414,防城港市,大海花园,颗粒物(PM10),56,62,61,37,44,56,,54,54,34,23,4,4,0.7,0.9
2025-01-23T1600,1371A,113.1294,23.0067,佛山市,湾梁,颗粒物(PM10),79,107,102,36,42,82,,51,51,55,55,6,6,0.6,0.6
2025-01-23T1600,1372A,113.1083,23.0478,佛山市,华材职中,"颗粒物(PM10),细颗粒物(PM2.5)",68,85,89,49,54,102,,58,58,49,53,7,7,0.7,0.7
2025-01-23T1600,1373A,113.144,23.0453,佛山市,南海气象局,,,57,69,,45,86,,50,50,46,45,7,7,0.9,0.9
2025-01-23T1600,1374A,113.2881,22.8094,佛山市,顺德苏岗,颗粒物(PM10),57,63,54,34,39,84,,60,60,27,35,9,8,0.7,0.7
2025-01-23T1600,1376A,112.8383,22.8678,佛山市,高明孔堂,细颗粒物(PM2.5),58,43,58,41,46,122,,75,75,24,32,5,9,0.5,0.6
2025-01-23T1600,1377A,112.8836,23.1588,佛山市,三水监测站,细颗粒物(PM2.5),69,68,88,50,60,80,,43,43,34,64,9,8,0.9,0.9
2025-01-23T1600,1378A,112.867,23.185,佛山市,三水云东海,"颗粒物(PM10),细颗粒物(PM2.5)",60,69,65,43,50,113,,72,72,37,63,8,8,0.9,0.9
2025-01-23T1600,3625A,113.2544,22.7642,佛山市,容桂街道办,细颗粒物(PM2.5),55,46,47,39,36,72,,60,60,37,37,7,7,0.6,0.6
2025-01-23T1600,1280A,119.3903,26.0543,福州市,鼓山,,,,50,,23,,,81,,,12,,1,,0.5
2025-01-23T1600,1282A,119.2681,26.0504,福州市,师大,,40,34,64,19,41,126,,89,89,13,33,5,4,0.6,0.7
2025-01-23T1600,1283A,119.2984,26.1028,福州市,五四北路,,38,32,61,26,44,120,,79,79,17,39,2,2,0.7,0.7
2025-01-23T1600,1284A,119.2648,26.0768,福州市,杨桥西路,,39,36,61,25,39,124,,87,87,15,33,2,1,0.6,0.6
2025-01-23T1600,1285A,119.317,26.0746,福州市,紫阳,,,,81,,50,,,55,,,56,,4,,0.7
2025-01-23T1600,3048A,119.5799,26.0936,福州市,九龙,,40,37,44,21,27,125,,86,86,9,24,5,3,0.9,0.7
2025-01-23T1600,3526A,119.5189,25.9664,福州市,吴航,,40,28,45,16,29,126,,80,80,13,34,4,2,0.9,0.9
2025-01-23T1600,1755A,123.7977,41.8491,抚顺市,望花区,颗粒物(PM10),56,62,144,38,102,55,,46,46,38,43,6,6,1.0,1.4
2025-01-23T1600,1756A,123.9161,41.8822,抚顺市,顺城区,颗粒物(PM10),51,51,136,26,77,72,,52,52,20,44,7,8,0.7,1.3
2025-01-23T1600,1757A,124.0436,41.8611,抚顺市,东洲区,细颗粒物(PM2.5),64,57,114,46,84,81,,61,61,10,27,11,11,0.7,1
2025-01-23T1600,1758A,123.9247,41.8642,抚顺市,新抚区,颗粒物(PM10),56,61,129,26,98,71,,54,54,18,37,5,5,0.7,1.2
2025-01-23T1600,1759A,124.0972,41.8961,抚顺市,大伙房水库,,45,45,94,27,73,80,,58,58,9,32,8,9,0.5,1
2025-01-23T1600,1760A,123.7086,41.8391,抚顺市,沈抚新城,颗粒物(PM10),64,77,124,28,95,64,,43,43,26,45,8,10,1.1,1.8
2025-01-23T1600,2376A,116.2127,28.0814,抚州市,桐源党溪,颗粒物(PM10),59,68,76,40,47,120,,73,73,2,9,5,5,0.5,0.6
2025-01-23T1600,2377A,116.3544,27.9831,抚州市,市站,,,78,91,44,53,103,,70,70,,42,6,17,0.5,0.9
2025-01-23T1600,2378A,116.3565,27.963,抚州市,血防站,颗粒物(PM10),54,58,80,30,48,132,,72,72,11,44,10,9,1.0,1.2
2025-01-23T1600,2379A,116.3564,28.0007,抚州市,采茶剧团,细颗粒物(PM2.5),53,54,74,37,47,118,,64,64,10,29,10,9,1.7,1.9
2025-01-23T1600,2380A,116.385,27.9647,抚州市,医学分院,颗粒物(PM10),54,58,72,29,38,103,,62,62,8,31,6,6,1.1,1.1
2025-01-23T1600,2207A,121.6094,41.998,阜新市,工业园区,细颗粒物(PM2.5),84,84,128,62,82,85,,68,68,19,31,19,29,0.9,1.3
2025-01-23T1600,2208A,121.6697,42.0279,阜新市,长青街,细颗粒物(PM2.5),79,89,112,58,79,75,,50,50,22,34,14,34,1.0,1.8
2025-01-23T1600,2209A,121.6673,42.0705,阜新市,农业园区,细颗粒物(PM2.5),89,89,91,66,59,77,,63,63,21,19,20,35,0.8,0.8
2025-01-23T1600,2210A,121.6717,42.0224,阜新市,东苑,细颗粒物(PM2.5),87,96,122,64,90,68,,49,49,34,42,15,39,0.7,1.8
2025-01-23T1600,2211A,121.6506,42.0498,阜新市,玉龙新城,,,,127,,64,84,,62,62,18,35,16,19,1.0,1.6
2025-01-23T1600,2301A,115.8277,32.8929,阜阳市,市监测站,细颗粒物(PM2.5),68,,153,49,132,40,,43,40,17,33,5,7,0.6,0.9
2025-01-23T1600,2303A,115.8554,32.8605,阜阳市,开发区,细颗粒物(PM2.5),72,64,186,52,134,32,,40,36,20,35,6,9,0.6,1
2025-01-23T1600,2875A,115.784,32.8892,阜阳市,阜阳职业技术学院,细颗粒物(PM2.5),64,54,153,46,124,31,,40,35,17,28,5,7,0.6,0.9
2025-01-23T1600,3468A,115.7901,32.8613,阜阳市,市规划展馆,细颗粒物(PM2.5),58,44,165,41,130,45,,46,43,17,30,4,8,0.6,1
2025-01-23T1600,3469A,115.836,32.9183,阜阳市,枣园社区,细颗粒物(PM2.5),74,59,175,54,133,42,,51,48,18,27,4,7,0.6,1
2025-01-23T1600,2669A,102.9099,34.9841,甘南藏族自治州,州政府,,39,39,74,11,41,67,,46,46,7,23,13,15,0.1,0.8
2025-01-23T1600,3380A,102.8914,34.9617,甘南藏族自治州,甘肃民族师范学院,,48,48,66,10,33,84,,48,48,7,27,5,8,0.2,0.6
2025-01-23T1600,2570A,101.9603,30.0475,甘孜藏族自治州,水桥子,,29,29,30,10,17,85,,58,58,5,13,3,3,0.6,0.7
2025-01-23T1600,3065A,101.9533,29.9972,甘孜藏族自治州,州环保局,,28,27,27,10,10,88,,70,70,4,7,4,4,0.5,0.5
2025-01-23T1600,3414A,115.8347,28.932,赣江新区,桑海产业园,细颗粒物(PM2.5),103,102,101,77,71,139,,88,88,25,62,15,15,0.7,0.8
2025-01-23T1600,2362A,114.9017,25.9149,赣州市,通天岩,臭氧1小时,63,56,42,14,9,170,,124,124,16,16,12,9,0.5,0.5
2025-01-23T1600,2363A,114.9367,25.8664,赣州市,地委,,48,44,58,28,37,152,,100,100,9,35,4,6,1.2,1.3
2025-01-23T1600,2364A,114.9461,25.8481,赣州市,气象台,臭氧1小时,54,45,65,24,33,163,,103,103,17,49,10,9,0.6,0.8
2025-01-23T1600,2365A,114.9322,25.8333,赣州市,市图书馆,臭氧1小时,57,40,65,27,37,165,,96,96,14,52,3,4,1.0,1.1
2025-01-23T1600,2366A,114.8905,25.8471,赣州市,华坚鞋城,,48,41,73,27,40,153,,97,97,15,42,7,7,0.5,0.6
2025-01-23T1600,3109A,115.0093,25.8613,赣州市,赣县区卫计委,,45,45,56,28,40,136,,92,92,10,32,5,5,0.7,0.9
2025-01-23T1600,2683A,106.2319,36.1417,固原市,马园,细颗粒物(PM2.5),148,145,101,113,69,90,,88,87,33,35,10,12,1.3,1.1
2025-01-23T1600,2684A,106.2792,36.0022,固原市,监测站,细颗粒物(PM2.5),188,,88,141,78,102,,99,99,30,30,11,12,1.1,0.9
2025-01-23T1600,2685A,106.2375,36.0211,固原市,新区,细颗粒物(PM2.5),169,,86,128,70,98,,90,90,32,35,9,10,1.1,0.9
2025-01-23T1600,3522A,106.2177,35.9959,固原市,原州区十五小,细颗粒物(PM2.5),158,162,97,120,66,97,,91,86,41,27,11,12,1.4,1
2025-01-23T1600,2543A,106.6308,30.5278,广安市,小平旧居,,,,,,,,,,,,,,,,
2025-01-23T1600,2544A,106.6303,30.4576,广安市,市委,细颗粒物(PM2.5),282,248,248,232,212,11,,11,11,25,40,6,7,1.5,1.6
2025-01-23T1600,2545A,106.6271,30.4663,广安市,友谊中学,细颗粒物(PM2.5),260,246,230,210,195,7,,5,5,29,42,6,7,1.5,1.5
2025-01-23T1600,2547A,106.6388,30.4551,广安市,广电花园,细颗粒物(PM2.5),265,231,226,215,198,7,,6,6,24,41,4,5,1.5,1.6
2025-01-23T1600,2902A,106.6351,30.4865,广安市,北辰小学,细颗粒物(PM2.5),243,236,228,193,185,8,,6,6,26,40,8,8,1.4,1.7
2025-01-23T1600,2523A,105.8945,32.4535,广元市,黑石坡,颗粒物(PM10),55,60,106,28,66,0,,0,0,43,54,6,5,1.1,1.3
2025-01-23T1600,2524A,105.821,32.4444,广元市,老城,颗粒物(PM10),51,51,95,31,65,1,,7,2,43,48,1,2,1.0,1.2
2025-01-23T1600,2526A,105.8628,32.4287,广元市,监测站,细颗粒物(PM2.5),64,50,73,46,61,7,,15,7,44,47,6,7,1.0,1.1
2025-01-23T1600,3617A,105.8047,32.4166,广元市,经开区,细颗粒物(PM2.5),69,52,120,50,98,5,,5,5,46,51,5,8,1.4,1.6
2025-01-23T1600,1345A,113.2347,23.1423,广州市,广雅中学,细颗粒物(PM2.5),68,79,94,49,72,101,,56,56,43,68,4,4,1.0,1
2025-01-23T1600,1346A,113.2612,23.105,广州市,市五中,颗粒物(PM10),52,54,76,34,47,103,,60,60,31,51,3,3,1.0,1
2025-01-23T1600,1348A,113.3478,23.0916,广州市,广东商学院,,45,44,62,31,45,97,,67,67,31,53,4,4,1.0,1
2025-01-23T1600,1349A,113.4332,23.1047,广州市,市八十六中,,,58,67,38,40,70,,62,62,60,73,,4,0.9,0.9
2025-01-23T1600,1350A,113.3505,22.9483,广州市,番禺中学,,47,47,64,31,50,91,,56,56,36,51,4,3,0.8,0.9
2025-01-23T1600,1351A,113.2146,23.3916,广州市,花都师范,细颗粒物(PM2.5),58,60,84,41,55,110,,65,65,30,54,6,6,0.7,0.8
2025-01-23T1600,1352A,113.2597,23.1331,广州市,市监测站,,,44,63,26,39,106,,68,68,32,58,5,5,,0.9
2025-01-23T1600,1353A,113.5618,23.312,广州市,九龙镇镇龙,,34,29,64,20,41,106,,69,69,14,43,4,4,0.6,0.7
2025-01-23T1600,1354A,113.2765,23.1544,广州市,麓湖,,42,42,54,29,37,106,,62,62,30,60,2,2,0.9,0.9
2025-01-23T1600,1355A,113.443,23.3035,广州市,帽峰山森林公园,,42,42,44,16,28,116,,83,83,19,29,6,6,0.6,0.6
2025-01-23T1600,2846A,113.3221,23.1322,广州市,体育西,,38,38,65,23,42,97,,69,69,22,34,5,5,0.7,0.8
2025-01-23T1600,3298A,113.5717,23.5491,广州市,从化街口,,38,33,81,26,62,116,,67,67,14,42,6,7,0.7,0.9
2025-01-23T1600,3299A,113.3472,23.3692,广州市,白云竹料,,47,47,79,30,49,122,,75,75,15,45,6,6,0.7,0.9
2025-01-23T1600,3300A,113.2981,23.237,广州市,白云嘉禾,,49,49,89,27,47,114,,71,71,27,69,7,7,0.9,1.6
2025-01-23T1600,3301A,113.4256,23.1716,广州市,黄埔科学城,,47,47,67,29,40,95,,70,70,27,56,6,6,0.4,0.9
2025-01-23T1600,3302A,113.3942,23.0483,广州市,番禺大学城,颗粒物(PM10),64,77,99,29,36,74,,52,52,41,53,9,9,1.6,1.5
2025-01-23T1600,3303A,113.4922,22.8168,广州市,南沙黄阁,,,76,48,46,37,88,,63,63,,43,3,3,0.8,1
2025-01-23T1600,3304A,113.5342,22.7896,广州市,南沙街,细颗粒物(PM2.5),54,49,35,38,28,83,,62,62,30,32,4,4,0.8,0.8
2025-01-23T1600,3443A,113.2902,23.5544,广州市,花都梯面,,,62,62,40,42,,,81,81,,38,,5,,0.8
2025-01-23T1600,3445A,113.7858,23.7478,广州市,从化良口,,36,26,29,21,22,113,,79,79,6,16,5,5,0.5,0.7
2025-01-23T1600,3446A,113.8051,23.2614,广州市,增城荔城,,38,33,58,26,40,96,,73,73,13,23,4,4,0.4,0.5
2025-01-23T1600,2505A,109.568,23.1478,贵港市,德智高中,,,,,,,,,,,,,,,,
2025-01-23T1600,2506A,109.6047,23.0666,贵港市,江南子站,,,,109,,74,,,88,88,18,28,6,10,0.7,1
2025-01-23T1600,2507A,109.6014,23.0948,贵港市,贵城子站,颗粒物(PM10),89,128,121,36,68,86,,81,81,20,35,11,15,0.8,0.9
2025-01-23T1600,2508A,109.5669,23.1065,贵港市,荷城子站,颗粒物(PM10),54,58,100,31,65,83,,83,83,23,36,12,16,0.8,0.9
2025-01-23T1600,3405A,109.5886,23.1172,贵港市,新世纪学校,颗粒物(PM10),57,63,109,34,69,96,,90,90,20,38,4,10,0.8,1
2025-01-23T1600,1439A,106.6899,26.5998,贵阳市,马鞍山,,,29,75,19,49,65,,73,67,19,23,3,5,,0.8
2025-01-23T1600,1441A,106.6243,26.6266,贵阳市,鉴湖路,,,,71,22,50,64,,104,72,,24,6,9,0.6,0.7
2025-01-23T1600,1442A,106.7487,26.6343,贵阳市,燕子冲,细颗粒物(PM2.5),64,,79,46,68,66,,74,58,25,26,8,14,0.8,0.9
2025-01-23T1600,1443A,106.6555,26.4365,贵阳市,碧云窝,,31,31,81,19,52,86,,111,92,14,20,7,20,0.6,0.7
2025-01-23T1600,1445A,106.7109,26.6027,贵阳市,红边门,,45,41,84,31,64,67,,97,72,32,37,7,19,1.0,1
2025-01-23T1600,1446A,106.7164,26.5699,贵阳市,新华路,,,,79,34,56,64,,108,,19,24,,18,0.7,0.8
2025-01-23T1600,1447A,106.674,26.5424,贵阳市,太慈桥,,42,29,77,29,57,73,,83,83,19,28,11,12,0.6,0.7
2025-01-23T1600,1552A,106.805,26.3003,贵阳市,桐木岭,,,,78,,52,,,123,,,3,,11,,0.9
2025-01-23T1600,4230A,106.6882,26.5695,贵阳市,花果园大街66号,,43,,78,30,63,58,,93,68,36,42,6,15,0.4,0.4
2025-01-23T1600,4231A,106.6873,26.5169,贵阳市,漓江路57号,,42,36,86,29,66,68,,77,76,19,34,16,22,0.6,0.7
2025-01-23T1600,1862A,110.4144,25.3167,桂林市,电子科大尧山校区,细颗粒物(PM2.5),83,77,72,61,53,109,,81,81,12,16,8,8,0.8,0.8
2025-01-23T1600,1863A,110.2819,25.2697,桂林市,监测站,,,,93,,71,111,,86,65,,34,,13,1.5,1.4
2025-01-23T1600,1864A,110.3089,25.2708,桂林市,龙隐路小学,细颗粒物(PM2.5),94,84,87,70,74,120,,97,80,15,24,10,16,0.7,0.8
2025-01-23T1600,1865A,110.2869,25.2178,桂林市,八中,细颗粒物(PM2.5),79,76,91,58,73,114,,82,68,18,32,8,13,0.8,0.9
2025-01-23T1600,3403A,110.1764,25.2381,桂林市,创业大厦,细颗粒物(PM2.5),92,80,92,68,69,108,,64,61,22,39,10,13,0.4,0.9
2025-01-23T1600,3531A,110.296,25.1253,桂林市,旅游学院,细颗粒物(PM2.5),55,48,93,39,74,111,,58,50,13,41,9,12,0.9,1.2
2025-01-23T1600,2674A,100.2561,34.4714,果洛藏族自治州,玛沁县大武镇,,38,38,71,7,18,87,,58,58,1,5,12,15,0.4,0.5
2025-01-23T1600,1129A,126.5422,45.755,哈尔滨市,岭北,细颗粒物(PM2.5),100,86,150,75,132,82,,63,63,32,56,32,21,1.4,0.9
2025-01-23T1600,1130A,126.561,45.8167,哈尔滨市,松北商大,细颗粒物(PM2.5),77,86,118,56,109,61,,47,47,36,51,25,8,0.7,1.1
2025-01-23T1600,1131A,126.979,45.5419,哈尔滨市,阿城会宁,细颗粒物(PM2.5),145,122,149,111,149,83,,68,68,30,33,17,12,0.6,1
2025-01-23T1600,1132A,126.599,45.7222,哈尔滨市,南岗学府路,细颗粒物(PM2.5),103,104,137,77,105,41,,35,35,62,53,24,7,0.7,0.9
2025-01-23T1600,1133A,126.689,45.7733,哈尔滨市,太平宏伟公园,细颗粒物(PM2.5),229,231,166,179,132,22,,23,23,79,67,23,12,1.3,1.4
2025-01-23T1600,1134A,126.635,45.7667,哈尔滨市,道外承德广场,细颗粒物(PM2.5),117,128,142,88,104,47,,41,41,49,50,39,11,0.8,1
2025-01-23T1600,1135A,126.685,45.7319,哈尔滨市,香坊红旗大街,细颗粒物(PM2.5),262,234,195,212,173,20,,21,21,89,72,42,20,1.7,1.6
2025-01-23T1600,1136A,126.6411,45.7258,哈尔滨市,动力和平路,细颗粒物(PM2.5),97,94,114,72,100,42,,37,37,47,43,24,5,0.9,1
2025-01-23T1600,1137A,126.593,45.7478,哈尔滨市,道里建国路,细颗粒物(PM2.5),107,90,118,80,112,60,,42,42,33,47,32,15,0.8,1.2
2025-01-23T1600,1138A,126.615,45.61,哈尔滨市,平房东轻厂,细颗粒物(PM2.5),142,138,128,108,111,64,,52,52,44,65,10,11,0.9,1
2025-01-23T1600,1139A,126.595,45.9855,哈尔滨市,呼兰师专,细颗粒物(PM2.5),180,143,173,136,158,68,,53,53,33,53,15,18,0.9,1.3
2025-01-23T1600,1140A,126.6206,45.6842,哈尔滨市,省农科院,细颗粒物(PM2.5),185,158,155,139,134,34,,34,34,69,70,25,13,1.1,1.3
2025-01-23T1600,2688A,93.5128,42.8172,哈密市,地区监测站,颗粒物(PM10),66,82,104,31,41,73,,47,47,21,38,18,7,0.3,0.7
2025-01-23T1600,2689A,93.4961,42.8328,哈密市,哈密师范学校,细颗粒物(PM2.5),55,52,84,39,43,71,,40,40,23,46,14,10,0.4,0.8
2025-01-23T1600,2671A,100.9048,36.9639,海北藏族自治州,海晏县西海镇,,26,24,31,8,17,82,,68,68,2,6,10,14,0.4,0.5
2025-01-23T1600,3867A,102.0738,36.5056,海东市,平安区公安北苑,细颗粒物(PM2.5),57,43,71,40,71,88,,48,48,23,40,36,33,1.3,1.5
2025-01-23T1600,1409A,110.576,19.9507,海口市,东寨港,颗粒物(PM10),52,54,49,22,25,91,,101,80,7,6,10,12,0.4,0.4
2025-01-23T1600,1410A,110.3232,20.0574,海口市,海南大学,颗粒物(PM10),53,56,65,29,32,104,,116,94,14,12,5,5,0.5,0.5
2025-01-23T1600,1411A,110.283,20.0053,海口市,秀英海南医院,颗粒物(PM10),58,65,60,32,30,101,,116,92,15,12,3,3,0.5,0.5
2025-01-23T1600,1412A,110.338,19.9969,海口市,海南师范大学,颗粒物(PM10),60,69,63,26,30,109,,118,95,9,9,5,5,0.5,0.5
2025-01-23T1600,1413A,110.33,20.0356,海口市,龙华路环保局宿舍,颗粒物(PM10),57,64,59,27,31,106,,117,94,13,12,5,5,0.5,0.5
2025-01-23T1600,3539A,110.5111,19.9736,海口市,桂林洋子站,,46,46,60,26,31,103,,114,92,9,8,5,5,0.4,0.4
2025-01-23T1600,2673A,100.6188,36.2866,海南藏族自治州,共和县恰卜恰镇,,45,35,47,31,25,85,,49,49,5,22,12,16,0.5,0.7
2025-01-23T1600,2676A,97.3731,37.3753,海西蒙古族藏族自治州,德令哈市,,40,40,33,3,12,76,,73,73,2,6,12,17,0.3,0.4
2025-01-23T1600,1048A,114.5302,36.6116,邯郸市,东污水处理厂,细颗粒物(PM2.5),79,65,60,58,45,72,,48,48,19,30,7,7,0.8,0.7
2025-01-23T1600,1049A,114.4918,36.5713,邯郸市,矿院,颗粒物(PM10),68,86,59,48,37,71,,48,48,17,22,6,4,0.6,0.6
2025-01-23T1600,1050A,114.484,36.6133,邯郸市,丛台公园,细颗粒物(PM2.5),77,90,68,56,42,75,,50,50,21,31,6,5,0.6,0.6
2025-01-23T1600,3458A,114.7895,36.5593,邯郸市,香泉濮院小区,细颗粒物(PM2.5),58,60,70,41,43,81,,61,61,15,30,7,7,0.5,0.6
2025-01-23T1600,3579A,114.50634,36.77178,邯郸市,永年区实验高中,细颗粒物(PM2.5),68,81,75,49,42,67,,44,44,22,40,13,9,0.8,0.8
2025-01-23T1600,3580A,114.20016,36.44293,邯郸市,峰峰矿区临水派出所,,,,56,,36,75,,55,55,,21,,12,0.9,0.9
2025-01-23T1600,2634A,106.9893,33.1842,汉中市,汉川机床厂子校,细颗粒物(PM2.5),195,159,171,146,176,86,,31,31,19,31,8,7,1.4,2.1
2025-01-23T1600,2635A,107.0154,33.0706,汉中市,市监测站,细颗粒物(PM2.5),218,173,215,168,199,40,,18,18,50,60,10,8,2.1,2.9
2025-01-23T1600,2636A,107.0089,33.1138,汉中市,鑫源开发区,细颗粒物(PM2.5),238,194,208,188,210,39,,17,17,40,47,7,7,1.8,2.1
2025-01-23T1600,2637A,107.007,33.0323,汉中市,南郑大河坎水厂,细颗粒物(PM2.5),201,193,236,151,213,45,,20,20,38,48,6,7,1.3,2.2
2025-01-23T1600,1223A,120.2072,30.2111,杭州市,滨江,颗粒物(PM10),55,60,94,37,62,96,,61,61,20,58,6,6,0.5,0.8
2025-01-23T1600,1224A,120.0633,30.2747,杭州市,西溪,细颗粒物(PM2.5),64,74,87,46,64,101,,63,63,27,41,6,6,0.6,0.8
2025-01-23T1600,1226A,120.3461,30.3153,杭州市,下沙,细颗粒物(PM2.5),54,43,54,38,46,76,,54,54,14,52,7,8,0.5,0.6
2025-01-23T1600,1227A,120.1269,30.2456,杭州市,卧龙桥,细颗粒物(PM2.5),68,62,76,49,65,98,,64,64,29,44,6,6,0.4,0.7
2025-01-23T1600,1228A,120.1903,30.2692,杭州市,浙江农大,细颗粒物(PM2.5),53,50,98,37,72,92,,53,53,20,58,7,7,0.4,0.7
2025-01-23T1600,1230A,120.1197,30.3119,杭州市,和睦小学,细颗粒物(PM2.5),69,74,99,50,74,97,,62,62,29,63,6,7,0.5,0.8
2025-01-23T1600,1231A,120.3019,30.4183,杭州市,临平镇,细颗粒物(PM2.5),64,65,77,46,50,91,,60,60,18,44,6,7,0.5,0.7
2025-01-23T1600,1232A,120.2697,30.1819,杭州市,城厢镇,细颗粒物(PM2.5),78,74,108,57,79,89,,59,59,25,62,6,6,0.9,1.2
2025-01-23T1600,1233A,120.0883,30.1808,杭州市,云栖,细颗粒物(PM2.5),73,71,79,53,57,104,,64,64,32,41,7,6,0.5,0.7
2025-01-23T1600,3557A,119.9464,30.0494,杭州市,镇二中,细颗粒物(PM2.5),94,,80,70,83,90,,62,62,38,56,7,7,0.7,1.1
2025-01-23T1600,3558A,119.7183,30.2367,杭州市,市府大楼,细颗粒物(PM2.5),84,73,105,62,94,106,,81,81,26,41,8,9,0.6,1
2025-01-23T1600,3656A,120.1556,30.2864,杭州市,消防大队,细颗粒物(PM2.5),65,63,100,47,73,106,,65,65,22,57,10,10,0.5,0.8
2025-01-23T1600,1270A,117.1959,31.7848,合肥市,明珠广场,细颗粒物(PM2.5),125,110,197,95,166,25,,19,19,34,65,7,12,0.8,1.1
2025-01-23T1600,1271A,117.3072,31.8764,合肥市,三里街,细颗粒物(PM2.5),134,127,169,102,139,29,,24,24,28,50,3,7,0.7,0.9
2025-01-23T1600,1272A,117.2588,31.8707,合肥市,琥珀山庄,细颗粒物(PM2.5),153,,179,117,153,35,,27,27,26,58,5,8,0.8,1.1
2025-01-23T1600,1273A,117.1604,31.9052,合肥市,董铺水库,,,,204,,149,39,,32,32,22,49,3,6,0.6,0.9
2025-01-23T1600,1274A,117.25,31.8571,合肥市,长江中路,细颗粒物(PM2.5),133,114,186,101,158,34,,29,29,28,57,6,10,0.8,1.1
2025-01-23T1600,1275A,117.266,31.9436,合肥市,庐阳区,细颗粒物(PM2.5),128,119,175,97,140,38,,33,33,22,43,3,5,0.7,0.9
2025-01-23T1600,1276A,117.336,31.8586,合肥市,瑶海区,细颗粒物(PM2.5),129,119,161,98,134,28,,25,25,23,50,5,8,0.5,0.8
2025-01-23T1600,1277A,117.3027,31.7964,合肥市,包河区,细颗粒物(PM2.5),128,119,173,97,145,20,,18,18,44,74,3,7,0.6,1.1
2025-01-23T1600,1278A,117.2776,31.7385,合肥市,滨湖新区,细颗粒物(PM2.5),100,110,195,75,136,28,,32,31,37,67,4,8,0.7,1
2025-01-23T1600,1279A,117.1318,31.8403,合肥市,高新区,细颗粒物(PM2.5),120,112,188,91,159,34,,27,26,25,54,5,11,0.9,1.3
2025-01-23T1600,3464A,117.3803,31.9147,合肥市,高教基地,细颗粒物(PM2.5),140,122,149,107,123,37,,33,33,25,38,5,8,0.6,0.8
2025-01-23T1600,3614A,79.924,37.0877,和田地区,地区环保局,颗粒物(PM10),66,81,136,41,58,98,,68,68,5,25,1,6,0.3,0.8
2025-01-23T1600,3615A,79.9131,37.113,和田地区,市环保局,,,102,138,36,57,,,47,47,,45,1,10,0.7,2.2
2025-01-23T1600,2516A,108.2011,24.715,河池市,东仁乐园,细颗粒物(PM2.5),134,152,152,102,107,100,,58,58,30,57,9,9,1.1,1.2
2025-01-23T1600,2517A,108.0497,24.6947,河池市,市环保站,细颗粒物(PM2.5),172,,107,130,92,82,,45,45,25,37,12,11,1.2,1.1
2025-01-23T1600,2518A,108.0983,24.6989,河池市,市疾控中心,细颗粒物(PM2.5),138,124,126,105,98,85,,39,39,25,52,10,7,1.1,1.1
2025-01-23T1600,1696A,114.6778,23.7569,河源市,源西,,34,23,35,19,24,107,,72,72,10,24,5,5,0.4,0.5
2025-01-23T1600,1697A,114.6944,23.7586,河源市,东埔,,35,,39,22,28,111,,79,79,15,30,4,3,0.6,0.7
2025-01-23T1600,1698A,114.6892,23.7233,河源市,老城,,34,25,37,21,29,107,,74,74,7,22,4,3,0.5,0.6
2025-01-23T1600,1718A,115.4208,35.2464,菏泽市,气象局,细颗粒物(PM2.5),127,135,116,96,72,50,,35,35,31,34,10,12,0.8,0.7
2025-01-23T1600,3374A,115.5564,35.0891,菏泽市,定陶老年大学,细颗粒物(PM2.5),110,114,102,83,66,45,,34,34,36,37,12,18,0.7,0.7
2025-01-23T1600,4184A,115.4797,35.24401,菏泽市,永昌路1号,细颗粒物(PM2.5),118,116,113,89,72,47,,35,35,37,34,8,12,0.7,0.7
2025-01-23T1600,4193A,115.4715,35.2800,菏泽市,长城路999号,细颗粒物(PM2.5),124,,104,94,63,44,,32,32,32,33,,9,0.7,1
2025-01-23T1600,2514A,111.5264,24.4172,贺州市,环保小区,细颗粒物(PM2.5),75,85,82,55,57,115,,88,88,26,32,9,8,1.0,1.1
2025-01-23T1600,2515A,111.5608,24.4078,贺州市,政协大楼,颗粒物(PM10),68,85,73,41,44,95,,86,86,33,25,8,8,0.9,0.8
2025-01-23T1600,3534A,111.4744,24.4553,贺州市,西湾,,,82,89,59,63,112,,84,84,,39,7,8,0.8,0.8
2025-01-23T1600,2385A,114.17,35.9019,鹤壁市,市监测站,细颗粒物(PM2.5),52,42,69,36,44,78,,59,59,9,16,8,10,0.6,1
2025-01-23T1600,2386A,114.2956,35.7511,鹤壁市,市交警支队,细颗粒物(PM2.5),60,67,72,43,40,64,,55,55,26,28,10,11,0.7,0.9
2025-01-23T1600,2387A,114.2878,35.7306,鹤壁市,迎宾馆,颗粒物(PM10),62,74,79,34,36,65,,55,55,34,34,2,7,0.8,1
2025-01-23T1600,3474A,114.2617,35.6822,鹤壁市,大新区,细颗粒物(PM2.5),67,56,62,48,36,63,,55,55,27,28,8,12,0.5,0.8
2025-01-23T1600,3596A,114.1572,35.9603,鹤壁市,南山宾馆,细颗粒物(PM2.5),57,,75,40,56,74,,61,61,7,19,9,11,0.8,1.3
2025-01-23T1600,2244A,130.2537,47.3416,鹤岗市,哈啤分公司,颗粒物(PM10),75,99,41,48,30,36,,54,53,47,16,24,16,1.1,0.8
2025-01-23T1600,2245A,130.2684,47.3086,鹤岗市,斯达机电,细颗粒物(PM2.5),78,97,47,57,35,57,,55,55,39,19,20,16,0.9,0.7
2025-01-23T1600,2246A,130.3114,47.3388,鹤岗市,东山纸板厂,颗粒物(PM10),83,116,167,23,22,44,,45,45,50,43,25,17,0.8,2
2025-01-23T1600,2247A,130.1097,47.3382,鹤岗市,五号水库,颗粒物(PM10),65,80,29,42,20,101,,88,88,16,9,10,7,0.7,0.4
2025-01-23T1600,2263A,127.4833,50.2524,黑河市,交通局,颗粒物(PM10),55,59,50,36,34,38,,38,38,27,27,8,8,0.8,0.8
2025-01-23T1600,2264A,127.5144,50.2341,黑河市,环保局,"颗粒物(PM10),细颗粒物(PM2.5)",58,66,57,41,44,40,,32,32,20,32,8,9,0.6,0.8
2025-01-23T1600,2265A,127.5291,50.2472,黑河市,大黑河岛,,,60,51,41,42,30,,21,21,21,16,2,2,,
2025-01-23T1600,1074A,115.6838,37.7541,衡水市,电机北厂,细颗粒物(PM2.5),85,78,65,63,40,66,,38,38,19,35,12,12,0.5,0.5
2025-01-23T1600,1075A,115.6303,37.7316,衡水市,市监测站,细颗粒物(PM2.5),80,,50,59,34,69,,39,39,26,36,11,10,0.6,0.6
2025-01-23T1600,3188A,115.6683,37.7217,衡水市,市城管局,细颗粒物(PM2.5),82,75,54,60,37,61,,43,43,27,31,9,9,0.6,0.5
2025-01-23T1600,3459A,115.5989,37.5491,衡水市,地表水厂,细颗粒物(PM2.5),83,65,42,61,32,62,,44,44,24,26,10,8,0.6,0.5
2025-01-23T1600,2456A,112.5003,26.9167,衡阳市,原169医院,细颗粒物(PM2.5),130,120,104,99,81,100,,76,76,29,32,14,31,1.1,1
2025-01-23T1600,2457A,112.6194,26.9258,衡阳市,衡阳化工总厂,细颗粒物(PM2.5),222,,140,172,121,95,,67,67,25,31,10,12,1.3,1.1
2025-01-23T1600,2458A,112.6211,26.8956,衡阳市,珠晖区环保局,细颗粒物(PM2.5),214,,118,164,102,82,,63,63,39,42,11,11,1.6,1.4
2025-01-23T1600,2459A,112.6197,26.8733,衡阳市,市委党校,细颗粒物(PM2.5),221,178,122,171,110,93,,78,72,32,28,13,13,1.4,1.1
2025-01-23T1600,2460A,112.6006,26.8919,衡阳市,市监测站,细颗粒物(PM2.5),208,182,141,158,117,90,,68,68,29,33,12,12,1.3,1.3
2025-01-23T1600,2461A,112.5664,26.9056,衡阳市,真空机电公司,细颗粒物(PM2.5),199,190,140,149,104,86,,63,63,29,33,9,10,1.3,1.3
2025-01-23T1600,3399A,112.6703,26.882,衡阳市,师范学院,细颗粒物(PM2.5),222,203,127,172,98,97,,80,73,31,26,15,14,1.3,1
2025-01-23T1600,2608A,103.3772,23.3993,红河哈尼族彝族自治州,污水处理厂,,,37,56,25,48,96,,94,94,,10,7,7,0.5,0.5
2025-01-23T1600,2609A,103.3861,23.35,红河哈尼族彝族自治州,监测站,颗粒物(PM10),51,51,54,35,48,93,,97,96,9,7,10,9,0.5,0.5
2025-01-23T1600,3038A,103.3758,23.368,红河哈尼族彝族自治州,州图书馆,,45,40,44,31,41,87,,89,88,10,10,8,8,0.5,0.5
2025-01-23T1600,1090A,111.6507,40.7517,呼和浩特市,呼市一监,细颗粒物(PM2.5),72,66,107,52,78,89,,61,61,28,43,17,15,0.7,1
2025-01-23T1600,1091A,111.6572,40.8033,呼和浩特市,小召,细颗粒物(PM2.5),69,73,103,50,69,78,,51,51,36,58,16,18,0.8,1.1
2025-01-23T1600,1094A,111.7516,40.8369,呼和浩特市,如意水处理厂,细颗粒物(PM2.5),80,74,77,59,48,76,,50,50,26,59,15,14,0.7,1
2025-01-23T1600,1095A,111.7276,40.8062,呼和浩特市,二十九中,细颗粒物(PM2.5),64,65,82,46,54,72,,43,43,27,51,9,7,0.7,0.9
2025-01-23T1600,1096A,111.5512,40.7866,呼和浩特市,工大金川校区,细颗粒物(PM2.5),77,74,75,56,49,56,,40,40,52,55,23,14,1.2,0.9
2025-01-23T1600,1097A,111.717,40.7612,呼和浩特市,化肥厂生活区,细颗粒物(PM2.5),75,88,105,55,70,88,,63,63,38,51,16,15,0.7,1.1
2025-01-23T1600,3698A,111.5968,40.8178,呼和浩特市,红旗小学,细颗粒物(PM2.5),64,75,94,46,57,64,,39,39,47,62,20,15,1.2,1.1
2025-01-23T1600,3699A,111.6518,40.8389,呼和浩特市,海东办,细颗粒物(PM2.5),68,61,107,49,78,61,,36,36,40,61,12,12,1.0,1.1
2025-01-23T1600,2192A,119.7594,49.2261,呼伦贝尔市,区环保局,,48,42,42,33,39,39,,42,42,29,34,9,15,0.6,0.6
2025-01-23T1600,3061A,119.7512,49.1577,呼伦贝尔市,国华电力东,,42,36,46,29,37,44,,47,47,20,24,8,5,0.3,0.4
2025-01-23T1600,1250A,120.0751,30.8669,湖州市,城西水厂,细颗粒物(PM2.5),79,81,81,58,59,47,,35,35,38,58,7,9,0.4,0.5
2025-01-23T1600,2873A,120.0875,30.8955,湖州市,仁皇山新区,细颗粒物(PM2.5),75,79,69,55,51,38,,31,31,55,54,7,7,0.7,0.8
2025-01-23T1600,2907A,120.1844,30.8596,湖州市,吴兴区站,颗粒物(PM10),78,105,64,56,43,37,,29,29,44,38,5,6,0.7,0.4
2025-01-23T1600,3562A,120.4148,30.8538,湖州市,南浔区站,细颗粒物(PM2.5),64,73,54,46,35,48,,26,26,44,48,6,7,0.4,0.4
2025-01-23T1600,1607A,120.9092,40.7136,葫芦岛市,龙港区,,39,,90,27,79,64,,40,40,18,45,12,55,0.3,0.9
2025-01-23T1600,1608A,120.8392,40.7514,葫芦岛市,化工街,,,31,106,,71,62,,36,36,19,49,9,29,0.8,1.5
2025-01-23T1600,1609A,120.8341,40.7073,葫芦岛市,新区,,49,45,90,34,73,66,,50,50,23,56,11,16,1.0,1.7
2025-01-23T1600,1610A,120.8695,40.7677,葫芦岛市,东城区,,39,39,95,18,75,70,,39,39,16,47,10,35,0.0,0.9
2025-01-23T1600,2482A,109.5981,27.5721,怀化市,林科所,细颗粒物(PM2.5),130,104,118,99,94,96,,78,78,18,24,30,15,1.3,1.3
2025-01-23T1600,2483A,109.9453,27.5444,怀化市,河西地税局,细颗粒物(PM2.5),199,174,159,149,129,88,,58,58,23,41,14,8,1.1,1.2
2025-01-23T1600,2484A,109.9781,27.5342,怀化市,市四医院,细颗粒物(PM2.5),204,181,183,154,151,95,,81,81,18,41,6,10,,2.3
2025-01-23T1600,2485A,109.9972,27.5578,怀化市,监测楼,细颗粒物(PM2.5),163,151,178,124,135,86,,67,67,25,44,5,7,1.3,1.6
2025-01-23T1600,2486A,110.0394,27.583,怀化市,市委党校,细颗粒物(PM2.5),152,159,167,116,130,92,,75,75,22,38,9,12,1.3,1.5
2025-01-23T1600,1210A,119.036,33.5981,淮安市,钵池山,,39,34,34,27,35,93,,81,81,14,17,6,6,0.5,0.5
2025-01-23T1600,1211A,119.007,33.575,淮安市,北京南路,,39,36,35,27,31,91,,76,76,14,17,7,7,0.6,0.6
2025-01-23T1600,1212A,118.989,33.6067,淮安市,市监测站,,42,31,33,29,34,94,,83,83,17,19,6,6,0.2,0.6
2025-01-23T1600,1213A,119.135,33.5039,淮安市,楚州区监测站,,42,42,36,26,30,93,,83,83,14,17,7,6,0.5,0.5
2025-01-23T1600,1214A,119.0186,33.6297,淮安市,淮阴区监测站,,45,34,42,31,38,86,,77,77,24,26,6,6,0.4,0.5
2025-01-23T1600,3426A,118.8755,33.2894,淮安市,新华书店,,38,34,39,26,29,92,,80,80,19,21,7,7,0.5,0.5
2025-01-23T1600,2282A,116.8004,33.975,淮北市,监测站,细颗粒物(PM2.5),70,66,88,51,63,56,,56,56,16,21,4,6,0.5,0.6
2025-01-23T1600,2283A,116.8091,33.9007,淮北市,烈山区政府,细颗粒物(PM2.5),73,65,68,53,53,71,,70,67,17,19,3,4,0.5,0.6
2025-01-23T1600,3330A,116.8873,33.9836,淮北市,杜集区检察院,,,65,76,44,52,70,,67,65,,14,3,3,0.7,0.7
2025-01-23T1600,4017A,116.7923,33.9535,淮北市,市博物馆,细颗粒物(PM2.5),69,60,76,50,54,61,,65,61,21,22,6,7,0.7,0.7
2025-01-23T1600,2277A,116.8305,32.7727,淮南市,潘集区政府,细颗粒物(PM2.5),125,111,138,95,113,33,,39,38,26,33,7,9,0.7,0.7
2025-01-23T1600,2279A,116.8569,32.5951,淮南市,谢家集区政府,细颗粒物(PM2.5),117,107,137,88,106,31,,34,31,21,33,4,8,0.5,0.8
2025-01-23T1600,2280A,116.8281,32.633,淮南市,八公山区政府,细颗粒物(PM2.5),112,106,144,84,112,38,,41,41,20,24,12,12,0.6,0.7
2025-01-23T1600,2281A,116.6325,32.6201,淮南市,焦岗湖风景区管理处,细颗粒物(PM2.5),77,88,137,56,97,0,,18,9,27,29,9,8,0.3,0.5
2025-01-23T1600,2894A,117.0566,32.6531,淮南市,经济技术开发区消防队,细颗粒物(PM2.5),104,86,136,78,96,,,46,46,19,30,4,6,0.6,0.6
2025-01-23T1600,3329A,117.0108,32.5893,淮南市,山南新区,细颗粒物(PM2.5),109,97,113,82,92,45,,47,47,23,28,6,8,0.7,0.8
2025-01-23T1600,4209A,117.0031,32.6445,淮南市,国庆中路369号,细颗粒物(PM2.5),120,,139,91,104,28,,39,38,35,39,8,11,0.6,0.7
2025-01-23T1600,2446A,114.9028,30.4742,黄冈市,职工中心,细颗粒物(PM2.5),235,,206,185,167,80,,68,66,38,37,12,11,1.7,1
2025-01-23T1600,2929A,114.8858,30.4519,黄冈市,红卫路,细颗粒物(PM2.5),227,224,205,177,168,79,,65,65,,36,,10,1.5,1.3
2025-01-23T1600,3398A,114.9136,30.4445,黄冈市,市林业局,细颗粒物(PM2.5),226,207,191,176,162,88,,70,70,31,33,11,12,1.2,1.1
2025-01-23T1600,2672A,102.0199,35.5102,黄南藏族自治州,同仁县隆务镇,颗粒物(PM10),55,60,63,29,39,75,,58,56,5,8,12,11,0.7,0.8
2025-01-23T1600,2295A,118.2903,29.6963,黄山市,延安路89号,,,,67,,40,140,,78,78,8,19,6,5,,0.6
2025-01-23T1600,2296A,118.327,29.7178,黄山市,黄山东路89号,,,,77,,49,,,45,,,28,,4,,0.7
2025-01-23T1600,2297A,118.1371,30.2756,黄山市,黄山区政府5号楼,细颗粒物(PM2.5),98,108,68,73,51,147,,95,95,16,15,11,8,1.0,0.8
2025-01-23T1600,2423A,115.0601,30.2313,黄石市,沈家营,细颗粒物(PM2.5),222,207,161,172,129,110,,68,68,44,58,7,13,1.2,1.2
2025-01-23T1600,2426A,114.8988,30.2019,黄石市,铁山,细颗粒物(PM2.5),210,,168,160,143,127,,110,110,42,65,16,13,1.1,1.1
2025-01-23T1600,2427A,115.0307,30.2092,黄石市,团城山,细颗粒物(PM2.5),230,202,160,180,135,104,,63,63,51,54,11,13,1.2,1.2
2025-01-23T1600,3149A,115.0235,30.1578,黄石市,笔架山北路,细颗粒物(PM2.5),200,,139,150,125,135,,121,121,46,52,11,13,1.1,1.3
2025-01-23T1600,4185A,115.0780,30.21118,黄石市,磁湖东路29号,细颗粒物(PM2.5),241,206,189,191,153,92,,60,60,56,72,10,10,1.4,1.5
2025-01-23T1600,1392A,114.4183,23.0528,惠州市,河南岸金山湖子站,,33,27,41,23,33,100,,70,70,9,17,7,6,0.5,0.6
2025-01-23T1600,1393A,114.4053,23.0822,惠州市,下埔横江三路子站,,35,25,49,19,37,109,,77,77,11,21,6,6,0.6,0.7
2025-01-23T1600,1394A,114.4103,23.1142,惠州市,江北云山西路子站,,35,25,50,18,34,110,,78,78,11,22,6,6,0.8,1
2025-01-23T1600,1395A,114.4645,22.7833,惠州市,惠阳区承修路船湖子站,,36,31,44,25,30,96,,64,64,12,18,7,7,0.7,0.7
2025-01-23T1600,1396A,114.5317,22.7422,惠州市,大亚湾管委会子站,,30,24,39,18,26,96,,69,69,17,24,6,6,0.6,0.6
2025-01-23T1600,3314A,114.4338,22.8134,惠州市,惠阳秋长,,38,29,40,18,28,121,,78,78,12,21,12,11,0.7,0.8
2025-01-23T1600,3452A,114.6517,22.775,惠州市,大亚湾霞涌,,,52,26,27,24,102,,63,63,9,16,5,5,,0.2
2025-01-23T1600,2240A,130.9762,45.3001,鸡西市,环保局,细颗粒物(PM2.5),54,49,118,38,92,73,,68,68,16,23,6,8,0.7,0.9
2025-01-23T1600,2243A,130.9429,45.3039,鸡西市,第一中学,,,66,102,59,89,,,79,79,6,15,6,5,0.6,0.6
2025-01-23T1600,3707A,131.0207,45.3073,鸡西市,欧美日汽修厂,细颗粒物(PM2.5),95,,146,71,129,80,,73,73,26,35,11,24,0.9,1.3
2025-01-23T1600,3709A,130.9967,45.3106,鸡西市,市政设施管理处,细颗粒物(PM2.5),74,74,131,54,110,80,,74,74,21,35,6,8,0.7,1
2025-01-23T1600,2367A,114.9754,27.0803,吉安市,红声器材厂,细颗粒物(PM2.5),58,58,77,41,45,138,,101,101,20,24,16,14,0.4,0.5
2025-01-23T1600,2368A,114.9658,27.0999,吉安市,市森林工业局,颗粒物(PM10),57,63,76,37,45,133,,98,98,2,17,16,15,0.5,0.6
2025-01-23T1600,2369A,114.99,27.1312,吉安市,市环境监测站,细颗粒物(PM2.5),55,56,70,39,45,133,,105,105,21,23,15,14,0.3,0.4
2025-01-23T1600,2370A,115.0093,27.0968,吉安市,青原区法院,颗粒物(PM10),57,64,74,39,46,135,,106,106,26,32,18,14,0.5,0.6
2025-01-23T1600,1772A,126.54,43.8622,吉林市,哈达湾,细颗粒物(PM2.5),78,76,98,57,80,69,,56,56,36,47,27,13,1.3,1.2
2025-01-23T1600,1773A,126.5844,43.8358,吉林市,东局子,细颗粒物(PM2.5),84,78,88,62,71,70,,54,54,39,37,32,16,0.8,0.7
2025-01-23T1600,1774A,126.5052,43.8245,吉林市,电力学院,细颗粒物(PM2.5),85,72,89,63,81,54,,51,51,51,40,31,11,1.0,1.4
2025-01-23T1600,1775A,126.6133,43.8972,吉林市,江北,细颗粒物(PM2.5),68,61,112,49,87,69,,65,65,27,46,26,14,2.1,1.4
2025-01-23T1600,1776A,126.555,43.8306,吉林市,江南公园,细颗粒物(PM2.5),94,79,101,70,89,56,,43,43,53,48,20,10,0.8,1.2
2025-01-23T1600,1778A,126.7061,43.7133,吉林市,丰满,,,,,,,,,,,,,,,,
2025-01-23T1600,2868A,126.4739,43.953,吉林市,九站,,38,37,124,26,97,74,,52,52,18,55,14,21,1.0,1.4
2025-01-23T1600,1299A,116.9862,36.6114,济南市,科干所,细颗粒物(PM2.5),123,144,112,93,69,31,,20,20,70,63,16,16,1.2,1.2
2025-01-23T1600,1300A,116.9376,36.665,济南市,农科所,细颗粒物(PM2.5),110,139,99,83,49,47,,23,23,57,54,16,15,1.0,0.9
2025-01-23T1600,1301A,117.1265,36.6734,济南市,开发区,细颗粒物(PM2.5),144,159,115,110,70,30,,20,20,68,53,14,16,1.2,1.1
2025-01-23T1600,1303A,117.0624,36.6868,济南市,省种子仓库,细颗粒物(PM2.5),144,161,111,110,61,36,,19,19,56,49,16,18,0.9,1
2025-01-23T1600,1304A,116.9489,36.6447,济南市,机床二厂,细颗粒物(PM2.5),144,151,105,110,63,44,,25,25,53,51,18,20,1.2,1.2
2025-01-23T1600,1305A,117.0495,36.663,济南市,市监测站,细颗粒物(PM2.5),138,154,109,105,60,41,,21,21,65,58,20,21,1.2,1.1
2025-01-23T1600,1306A,116.7675,36.5484,济南市,长清党校,细颗粒物(PM2.5),138,147,107,105,60,56,,32,32,40,55,16,14,1.1,1
2025-01-23T1600,1616A,117.6795,36.229,济南市,技术学院,,,78,130,66,103,,,51,51,24,54,10,13,,1.2
2025-01-23T1600,1961A,117.532,36.6868,济南市,东山小学,细颗粒物(PM2.5),196,215,135,147,82,62,,36,36,51,50,15,11,1.3,1.2
2025-01-23T1600,3059A,117.7161,36.2049,济南市,泰兴公司,细颗粒物(PM2.5),70,73,154,51,109,76,,52,52,19,52,13,14,0.4,1.2
2025-01-23T1600,3064A,117.6867,36.2171,济南市,莱芜战役纪念馆,细颗粒物(PM2.5),89,95,139,66,100,76,,55,55,23,49,12,11,1.2,1.2
2025-01-23T1600,3494A,117.1673,36.9782,济南市,济阳区政府,细颗粒物(PM2.5),158,156,81,120,55,50,,28,28,40,32,16,15,1.1,0.8
2025-01-23T1600,3495A,117.1171,36.63,济南市,锦屏中学,细颗粒物(PM2.5),144,156,123,110,83,30,,25,25,75,54,13,10,1.1,1
2025-01-23T1600,3682A,116.9814,36.6819,济南市,济南四建,,,,,,,,,,,,,,,,
2025-01-23T1600,1653A,116.6251,35.4302,济宁市,火炬城,细颗粒物(PM2.5),85,81,121,63,86,64,,44,44,25,50,9,14,0.9,1.3
2025-01-23T1600,1655A,116.5491,35.4042,济宁市,电化厂,细颗粒物(PM2.5),94,118,154,70,88,64,,39,39,32,60,10,17,0.9,1.2
2025-01-23T1600,3500A,116.5814,35.3707,济宁市,北湖一中,细颗粒物(PM2.5),83,76,122,61,89,77,,47,47,84,81,5,10,1.3,1.9
2025-01-23T1600,3501A,116.8249,35.5593,济宁市,服务中心,,,108,151,66,92,79,,56,56,,56,5,12,0.9,1.4
2025-01-23T1600,3678A,116.5907,35.4054,济宁市,市第七中学,,,,129,,101,,,45,,,57,,11,,1.6
2025-01-23T1600,2255A,130.2751,46.8028,佳木斯市,佳纺,细颗粒物(PM2.5),78,57,158,57,143,82,,67,67,15,47,6,10,0.9,1.6
2025-01-23T1600,2256A,130.3995,46.8307,佳木斯市,发电厂,细颗粒物(PM2.5),77,56,153,56,143,71,,66,66,18,52,7,10,0.6,1.4
2025-01-23T1600,2257A,130.3258,46.7975,佳木斯市,环保局,细颗粒物(PM2.5),77,67,142,56,132,70,,61,61,19,43,10,12,0.9,1.5
2025-01-23T1600,2258A,130.3648,46.8032,佳木斯市,十一中,,,,147,,150,,,58,58,29,65,7,9,,1.6
2025-01-23T1600,2259A,130.3794,46.7588,佳木斯市,四丰,细颗粒物(PM2.5),54,55,124,38,86,85,,76,76,17,17,2,1,1.6,1.4
2025-01-23T1600,1252A,120.7436,30.778,嘉兴市,清河小学,,,,36,,18,75,,42,42,14,41,4,3,,0.5
2025-01-23T1600,1253A,120.726,30.7478,嘉兴市,嘉兴学院,,39,39,48,19,25,70,,36,36,16,34,6,7,0.6,0.7
2025-01-23T1600,2872A,120.7846,30.7525,嘉兴市,南湖区残联,,39,39,44,17,22,77,,43,43,17,41,7,8,0.6,0.6
2025-01-23T1600,3407A,120.6916,30.7739,嘉兴市,秀洲住建,,28,23,39,19,23,73,,36,36,20,33,4,5,0.5,0.3
2025-01-23T1600,1945A,98.2908,39.7711,嘉峪关市,气象局,颗粒物(PM10),76,102,84,36,33,82,,58,58,17,28,27,10,0.8,0.6
2025-01-23T1600,2884A,98.2672,39.7978,嘉峪关市,酒钢宾馆,颗粒物(PM10),87,124,97,44,33,56,,55,55,40,29,112,36,2.9,1
2025-01-23T1600,3248A,98.2643,39.7724,嘉峪关市,雄关区,颗粒物(PM10),70,89,74,40,29,74,,57,57,29,38,25,12,0.7,0.8
2025-01-23T1600,1383A,113.1064,22.6058,江门市,北街,细颗粒物(PM2.5),102,,46,76,56,80,,51,,31,29,3,3,0.7,0.7
2025-01-23T1600,1384A,113.0731,22.5835,江门市,西区,细颗粒物(PM2.5),58,,46,41,42,78,,61,61,33,31,5,5,0.8,0.8
2025-01-23T1600,1385A,113.0219,22.5311,江门市,圭峰西,细颗粒物(PM2.5),65,,42,47,45,80,,61,61,31,30,3,3,0.6,0.6
2025-01-23T1600,1386A,113.0828,22.5947,江门市,东湖,颗粒物(PM10),58,66,63,27,33,76,,57,57,31,26,5,5,0.5,0.6
2025-01-23T1600,3311A,113.1075,22.5647,江门市,江海富民,细颗粒物(PM2.5),75,74,66,55,48,73,,59,59,35,31,4,4,0.9,0.8
2025-01-23T1600,3449A,113.05,22.4667,江门市,新会银湖,细颗粒物(PM2.5),68,,40,49,59,75,,52,52,32,37,5,5,0.8,0.8
2025-01-23T1600,1828A,113.227,35.2125,焦作市,市环保局,细颗粒物(PM2.5),103,114,121,77,77,40,,35,35,36,42,12,24,0.8,0.8
2025-01-23T1600,1830A,113.1992,35.2590,焦作市,影视城,细颗粒物(PM2.5),110,148,118,83,82,30,,47,37,49,36,26,21,1.2,1.1
2025-01-23T1600,3169A,113.2725,35.2067,焦作市,太极体育中心,细颗粒物(PM2.5),89,89,108,66,63,44,,33,33,36,43,13,15,1.1,0.8
2025-01-23T1600,3335A,113.3137,35.2641,焦作市,马村街道办,,,,119,,94,35,,34,34,46,49,17,20,1.1,1
2025-01-23T1600,3336A,113.2465,35.2373,焦作市,焦作技师学院,细颗粒物(PM2.5),92,118,121,68,72,41,,38,38,31,35,12,22,1.1,1.1
2025-01-23T1600,3477A,113.1656,35.2539,焦作市,中站许衡医院,细颗粒物(PM2.5),90,86,116,67,82,32,,35,32,44,46,22,23,1.3,1.4
2025-01-23T1600,3981A,113.2449,35.1803,焦作市,原李万街道办,颗粒物(PM10),91,131,109,66,62,49,,39,39,25,36,14,13,0.8,0.8
2025-01-23T1600,1708A,116.3701,23.5345,揭阳市,新兴,细颗粒物(PM2.5),62,50,69,44,59,156,,97,97,13,26,6,5,0.7,0.9
2025-01-23T1600,1709A,116.3264,23.5443,揭阳市,西马,,50,43,72,30,66,160,,108,108,13,28,7,6,0.9,1
2025-01-23T1600,1710A,116.3611,23.5626,揭阳市,东兴,细颗粒物(PM2.5),58,59,76,41,54,165,,108,108,11,26,6,5,1.0,0.9
2025-01-23T1600,1711A,116.4151,23.5294,揭阳市,渔湖,臭氧1小时,58,59,68,38,40,166,,111,111,10,23,8,7,0.7,0.7
2025-01-23T1600,3320A,116.403,23.5699,揭阳市,曲溪,臭氧1小时,70,63,66,41,47,176,,113,113,20,35,4,3,1.0,0.9
2025-01-23T1600,1944A,102.1692,38.5167,金昌市,天庆家园,细颗粒物(PM2.5),74,81,62,54,45,98,,73,73,23,18,34,38,1.3,1
2025-01-23T1600,4022A,102.1647,38.5371,金昌市,金川区人防中心,细颗粒物(PM2.5),80,97,70,59,43,98,,77,77,24,16,32,22,1.1,1
2025-01-23T1600,4239A,102.1930,38.5319,金昌市,长春路96号,细颗粒物(PM2.5),87,66,53,64,40,104,,79,79,22,18,35,37,0.7,0.7
2025-01-23T1600,1262A,119.647,29.077,金华市,十五中,,48,48,87,31,53,143,,95,95,18,49,4,4,0.6,0.9
2025-01-23T1600,1263A,119.686,29.1029,金华市,监测站,,,54,83,33,51,140,,86,86,,56,5,5,,0.7
2025-01-23T1600,3659A,119.656,29.1131,金华市,气象局,颗粒物(PM10),51,51,95,32,58,143,,78,78,12,64,4,5,0.6,1
2025-01-23T1600,1767A,121.1115,41.0879,锦州市,南山,细颗粒物(PM2.5),67,81,83,48,79,63,,50,50,27,46,13,19,0.8,1.6
2025-01-23T1600,1768A,121.0533,40.8434,锦州市,开发区,细颗粒物(PM2.5),69,82,122,50,84,40,,30,30,42,63,16,21,2.2,2.1
2025-01-23T1600,1769A,121.1836,41.1119,锦州市,百股街道,细颗粒物(PM2.5),58,58,93,41,83,70,,51,51,23,44,15,19,0.8,1.2
2025-01-23T1600,1770A,121.1178,41.1222,锦州市,天安街道,颗粒物(PM10),61,71,98,43,78,56,,46,46,33,50,15,25,1.1,1.1
2025-01-23T1600,1771A,121.1303,41.1386,锦州市,北湖公园,细颗粒物(PM2.5),57,53,95,40,83,58,,48,48,31,46,15,23,1.0,1
2025-01-23T1600,2160A,112.85,35.5051,晋城市,自来水公司,细颗粒物(PM2.5),117,110,176,88,142,76,,49,49,57,59,16,21,1.1,1.8
2025-01-23T1600,2161A,112.8318,35.4936,晋城市,白云商贸,颗粒物(PM10),88,125,182,63,120,97,,59,59,26,48,12,15,0.9,1.6
2025-01-23T1600,2162A,112.8508,35.4887,晋城市,市环保局,细颗粒物(PM2.5),104,110,193,78,137,92,,56,56,24,54,13,18,0.9,1.6
2025-01-23T1600,2163A,112.8676,35.4897,晋城市,技术学院,细颗粒物(PM2.5),119,126,186,90,145,101,,62,62,26,57,13,19,1.0,1.7
2025-01-23T1600,2165A,112.8453,35.546,晋城市,白马寺,,,,,,,,,,,,,,,,
2025-01-23T1600,3620A,112.8271,35.4828,晋城市,泽州一中,细颗粒物(PM2.5),92,,162,68,130,94,,59,59,25,49,12,16,0.7,1.4
2025-01-23T1600,2173A,112.7249,37.7067,晋中市,南都小区,细颗粒物(PM2.5),152,163,101,116,61,105,,55,55,48,50,22,15,1.2,0.9
2025-01-23T1600,2174A,112.6991,37.6982,晋中市,榆次区政府,细颗粒物(PM2.5),124,166,107,94,55,93,,53,53,50,46,29,15,1.2,0.9
2025-01-23T1600,2865A,112.7195,37.6828,晋中市,榆次三中,细颗粒物(PM2.5),134,161,110,102,63,100,,52,52,43,45,23,17,1.4,0.9
2025-01-23T1600,4200A,112.7478,37.6954,晋中市,榆次一中,细颗粒物(PM2.5),149,168,102,114,61,96,,59,59,48,44,24,14,1.2,0.8
2025-01-23T1600,2439A,112.2014,31.0481,荆门市,竹园小学,细颗粒物(PM2.5),142,152,212,108,155,62,,67,52,20,28,6,9,0.9,1.2
2025-01-23T1600,2440A,112.1969,30.9891,荆门市,掇刀,细颗粒物(PM2.5),155,158,193,118,159,75,,80,65,22,29,14,15,0.9,1
2025-01-23T1600,2441A,112.2213,31.0386,荆门市,石化一小,细颗粒物(PM2.5),135,143,207,103,145,63,,67,55,,28,7,11,,1.1
2025-01-23T1600,3012A,112.1849,31.0362,荆门市,西山林语,细颗粒物(PM2.5),142,144,203,108,152,70,,77,63,20,26,3,6,1.0,1.2
2025-01-23T1600,3547A,112.1632,31.0138,荆门市,龙泉中学南校,细颗粒物(PM2.5),180,167,217,136,170,71,,82,70,19,24,11,16,0.9,1.1
2025-01-23T1600,1844A,112.2494,30.3197,荆州市,市图书馆,细颗粒物(PM2.5),188,,187,141,198,59,,61,55,,37,6,10,1.2,1.4
2025-01-23T1600,1845A,112.2008,30.3544,荆州市,市委党校,细颗粒物(PM2.5),198,,210,148,197,62,,62,57,28,35,8,12,0.9,1.1
2025-01-23T1600,3194A,112.2747,30.3122,荆州市,管委会,细颗粒物(PM2.5),202,163,223,152,212,75,,73,70,28,36,7,11,1.1,1.2
2025-01-23T1600,3548A,112.1655,30.3364,荆州市,学苑路,细颗粒物(PM2.5),188,,207,141,197,67,,62,62,27,36,8,12,1.4,1.6
2025-01-23T1600,2342A,117.3102,29.3867,景德镇市,王港中学,,,,,,,,,,,,,,,,
2025-01-23T1600,2343A,117.2117,29.2933,景德镇市,老干部活动中心,,39,36,55,20,37,123,,79,79,9,35,4,4,0.4,0.6
2025-01-23T1600,2344A,117.1894,29.2789,景德镇市,兽医站,,42,42,63,18,33,124,,89,89,8,29,4,4,0.6,0.7
2025-01-23T1600,2345A,117.1547,29.2617,景德镇市,台达陶瓷,,38,37,52,24,32,121,,93,93,18,30,10,5,0.4,0.4
2025-01-23T1600,2346A,117.2461,29.2956,景德镇市,陶研所,,39,34,49,22,43,124,,84,84,11,30,4,5,0.5,0.7
2025-01-23T1600,1803A,115.9872,29.6815,九江市,十里,细颗粒物(PM2.5),180,188,144,136,104,170,,126,126,29,46,14,12,1.2,1.2
2025-01-23T1600,1804A,115.9584,29.7046,九江市,茅山头,细颗粒物(PM2.5),190,194,169,143,125,167,,127,127,29,51,8,5,1.3,1.2
2025-01-23T1600,1805A,115.9877,29.7295,九江市,西园,细颗粒物(PM2.5),207,186,149,157,122,157,,114,114,32,52,18,17,1.2,1.1
2025-01-23T1600,1808A,115.9114,29.6038,九江市,综合工业园,细颗粒物(PM2.5),239,194,140,189,128,153,,112,112,42,56,16,11,1.3,1.1
2025-01-23T1600,1809A,116.0721,29.7535,九江市,石化总厂,细颗粒物(PM2.5),195,194,160,146,123,156,,115,115,40,53,17,16,1.3,1.3
2025-01-23T1600,1810A,115.9773,29.5698,九江市,庐山气象台,细颗粒物(PM2.5),102,151,50,76,36,131,,124,123,22,11,22,9,2.0,1
2025-01-23T1600,3190A,116.0254,29.6994,九江市,外国语学校,细颗粒物(PM2.5),196,198,155,147,115,172,,136,136,24,30,19,17,1.0,0.7
2025-01-23T1600,4253A,116.0102,29.6594,九江市,莲花大道8号,细颗粒物(PM2.5),216,208,145,166,122,154,,114,114,34,33,14,14,0.7,0.8
2025-01-23T1600,2658A,98.5061,39.7443,酒泉市,仓门街子站,,,44,98,33,37,,,59,59,7,19,14,28,0.4,0.7
2025-01-23T1600,4240A,98.4958,39.7339,酒泉市,玉门东路5号,颗粒物(PM10),76,102,100,34,34,83,,57,57,8,20,12,14,0.4,0.7
2025-01-23T1600,2698A,76.0072,39.4467,喀什地区,巡警大队,细颗粒物(PM2.5),119,184,163,90,80,70,,34,34,38,69,10,10,1.1,2.7
2025-01-23T1600,2699A,75.9755,39.4694,喀什地区,吾办,颗粒物(PM10),117,183,164,70,103,67,,32,32,34,74,7,5,1.0,2.3
2025-01-23T1600,4027A,75.9483,39.4689,喀什地区,老干局,颗粒物(PM10),105,159,198,40,85,76,,34,34,28,65,7,7,0.8,3.2
2025-01-23T1600,1824A,114.3389,34.7781,开封市,肿瘤医院,,,,79,60,51,57,,47,47,19,18,6,4,,0.7
2025-01-23T1600,1826A,114.2885,34.7965,开封市,世纪星幼儿园,细颗粒物(PM2.5),98,,72,73,58,51,,45,45,28,25,9,8,0.6,0.6
2025-01-23T1600,3147A,114.3438,34.8106,开封市,龙亭公园,细颗粒物(PM2.5),79,73,77,58,50,56,,47,47,26,25,8,7,0.4,0.3
2025-01-23T1600,3210A,114.3644,34.7964,开封市,汴京公园,细颗粒物(PM2.5),84,93,82,62,55,57,,46,46,26,25,8,8,0.8,0.8
2025-01-23T1600,3473A,114.2485,34.8306,开封市,技师学院,细颗粒物(PM2.5),74,90,80,54,49,57,,47,47,30,27,7,6,0.7,0.9
2025-01-23T1600,3592A,114.4644,34.7556,开封市,祥符区生态环境局,细颗粒物(PM2.5),115,110,102,87,69,51,,37,37,21,25,8,8,0.8,0.7
2025-01-23T1600,1951A,84.895,45.6094,克拉玛依市,长征新村,细颗粒物(PM2.5),85,102,112,63,81,83,,70,64,30,37,8,8,1.0,1
2025-01-23T1600,1952A,84.8988,45.5893,克拉玛依市,南林小区,细颗粒物(PM2.5),105,99,107,79,85,78,,69,56,21,21,6,5,1.2,1.2
2025-01-23T1600,1954A,84.905,44.3396,克拉玛依市,独山子区,,,,43,,43,75,,94,80,12,22,6,5,0.3,0.5
2025-01-23T1600,1955A,85.6979,46.098,克拉玛依市,乌尔禾区商贸楼,细颗粒物(PM2.5),144,,132,110,132,90,,84,84,23,30,5,5,1.3,1.4
2025-01-23T1600,3612A,85.1045,45.6899,克拉玛依市,白碱滩区新站,细颗粒物(PM2.5),152,129,123,116,96,65,,66,53,31,25,6,6,1.5,1.4
2025-01-23T1600,2697A,76.1454,39.7142,克孜勒苏柯尔克孜自治州,市人民政府,,,,104,87,60,86,,74,74,8,21,4,5,0.7,1.2
2025-01-23T1600,3665A,76.1658,39.7157,克孜勒苏柯尔克孜自治州,克州文化中心,,,,69,51,59,181,,87,87,24,28,8,10,0.4,0.9
2025-01-23T1600,1450A,102.8204,24.8886,昆明市,呈贡新区,,29,28,31,14,21,92,,82,82,7,17,4,5,0.4,0.5
2025-01-23T1600,1451A,102.6251,24.9608,昆明市,西山森林公园,,,,,,,,,,,,,,,,
2025-01-23T1600,1452A,102.7252,25.0902,昆明市,龙泉镇,,30,,40,14,26,95,,67,67,8,30,9,7,0.4,1
2025-01-23T1600,1453A,102.7266,25.0375,昆明市,东风东路,,29,23,36,20,26,92,,69,69,13,23,7,7,0.5,0.5
2025-01-23T1600,1454A,102.6742,25.0669,昆明市,金鼎山,,27,25,41,7,28,85,,65,65,14,30,10,9,0.5,0.7
2025-01-23T1600,1455A,102.6644,25.0401,昆明市,碧鸡广场,,29,19,42,15,29,91,,68,68,8,32,8,6,0.4,0.6
2025-01-23T1600,3179A,102.7494,25.0119,昆明市,官渡区博物馆,,31,22,36,16,23,98,,75,75,7,21,8,7,0.4,0.6
2025-01-23T1600,3375A,102.8017,24.8336,昆明市,青年创业园,,31,21,29,16,20,97,,86,86,4,21,6,6,0.4,0.5
2025-01-23T1600,3550A,102.7997,24.9786,昆明市,昆明学院,,,23,38,15,25,,,75,75,7,21,8,9,,0.4
2025-01-23T1600,3551A,102.5967,24.6736,昆明市,晋宁区生态环境分局,,30,15,31,14,20,96,,82,82,6,15,4,3,0.4,0.6
2025-01-23T1600,3552A,102.6678,24.9856,昆明市,云天化总部,,32,19,35,11,23,102,,81,81,6,18,8,7,0.3,0.5
2025-01-23T1600,1456A,91.1319,29.6514,拉萨市,八廓街,,31,14,26,7,15,98,,65,65,6,28,7,7,0.4,0.7
2025-01-23T1600,1457A,91.1221,29.6747,拉萨市,市环保局,,33,25,34,3,20,103,,66,66,11,28,5,7,0.5,1.1
2025-01-23T1600,1458A,91.0874,29.6475,拉萨市,区监测站,,33,21,16,3,9,105,,80,71,5,17,6,6,0.4,0.5
2025-01-23T1600,1459A,91.1774,29.6541,拉萨市,西藏大学,,32,30,27,7,12,102,,73,73,2,16,5,6,0.3,0.6
2025-01-23T1600,1460A,90.9798,29.6588,拉萨市,区辐射站,,32,20,29,8,16,101,,70,70,6,23,6,8,0.4,0.7
2025-01-23T1600,1461A,91.0834,29.6292,拉萨市,拉萨火车站,,35,11,13,3,6,111,,98,89,3,8,4,4,0.4,0.5
2025-01-23T1600,2520A,109.2203,23.7256,来宾市,来宾技工学校,细颗粒物(PM2.5),110,110,137,83,97,99,,71,71,,43,9,30,1.2,1.3
2025-01-23T1600,3535A,109.1781,23.7297,来宾市,兴宾区政府,细颗粒物(PM2.5),192,156,122,144,108,113,,80,80,30,24,11,13,1.3,1.1
2025-01-23T1600,4002A,109.2416,23.7461,来宾市,中南小学,细颗粒物(PM2.5),127,112,146,96,93,109,,69,69,24,54,20,30,1.2,1.3
2025-01-23T1600,1477A,104.1373,35.9454,兰州市,榆中兰大校区,,,,,,,,,,,,,,,,
2025-01-23T1600,1478A,103.8412,36.0726,兰州市,生物制品所,,,,114,,100,,,,,,124,,30,,2.0
2025-01-23T1600,1479A,103.831,36.0464,兰州市,铁路设计院,细颗粒物(PM2.5),134,135,122,102,86,55,,29,29,88,97,29,25,1.7,2.2
2025-01-23T1600,3241A,103.7439,36.0842,兰州市,百合公园,,,,112,,81,79,,41,41,,79,,24,1.8,1.9
2025-01-23T1600,3242A,103.9611,35.998,兰州市,和平,细颗粒物(PM2.5),138,150,108,105,81,29,,45,27,91,52,25,22,2.5,1.8
2025-01-23T1600,4236A,103.6293,36.0938,兰州市,庄浪东路808号,细颗粒物(PM2.5),125,112,112,95,78,84,,42,42,66,77,27,23,2.5,1.6
2025-01-23T1600,4237A,103.7251,36.1043,兰州市,安宁西路88号,细颗粒物(PM2.5),137,141,130,104,84,88,,50,50,81,80,37,32,1.8,1.6
2025-01-23T1600,3245A,103.6633,36.533,兰州新区,新区管委会,细颗粒物(PM2.5),70,56,82,51,63,93,,60,60,23,26,36,24,1.2,1.1
2025-01-23T1600,3246A,103.6975,36.4789,兰州新区,舟曲中学,细颗粒物(PM2.5),80,74,111,59,71,103,,60,60,24,44,38,32,1.0,1.2
2025-01-23T1600,1067A,116.6708,39.5111,廊坊市,药材公司,细颗粒物(PM2.5),59,57,71,42,51,72,,48,48,24,41,7,6,0.4,0.6
2025-01-23T1600,1068A,116.7214,39.5589,廊坊市,开发区,颗粒物(PM10),56,62,77,39,51,72,,47,47,14,42,8,7,0.6,0.8
2025-01-23T1600,1070A,116.7244,39.5269,廊坊市,北华航天学院,细颗粒物(PM2.5),58,64,72,41,46,73,,50,50,16,33,7,7,0.5,0.6
2025-01-23T1600,2919A,116.7022,39.5453,廊坊市,河北工业大学,细颗粒物(PM2.5),63,57,71,45,50,68,,43,43,17,42,8,9,0.5,0.7
2025-01-23T1600,2535A,103.7723,29.5462,乐山市,花湖湾,细颗粒物(PM2.5),193,155,198,145,178,61,,33,33,,24,,6,1.0,1.1
2025-01-23T1600,2536A,103.7627,29.5844,乐山市,牛耳桥,细颗粒物(PM2.5),163,142,189,124,173,60,,31,31,23,33,5,6,0.7,1
2025-01-23T1600,2537A,103.7508,29.6006,乐山市,市第三水厂,细颗粒物(PM2.5),129,119,183,98,142,73,,34,34,19,38,4,4,1.0,1.3
2025-01-23T1600,2538A,103.7571,29.5664,乐山市,市监测站,细颗粒物(PM2.5),125,115,156,95,127,59,,29,29,15,27,5,5,0.8,1.1
2025-01-23T1600,3361A,103.7311,29.5628,乐山市,理工大学,细颗粒物(PM2.5),139,128,167,106,148,69,,31,31,13,30,10,9,1.0,1.3
2025-01-23T1600,2598A,100.2143,26.8576,丽江市,西南郊,,27,14,30,11,19,86,,81,81,2,4,5,5,0.5,0.6
2025-01-23T1600,2599A,100.2497,26.8802,丽江市,丽江古城,,26,19,29,3,20,83,,75,75,7,10,8,8,0.9,1
2025-01-23T1600,2600A,100.2203,26.8906,丽江市,市中心,,26,13,23,8,18,82,,74,74,7,10,9,8,0.6,0.6
2025-01-23T1600,1267A,119.914,28.4514,丽水市,监测站大楼,,37,37,63,24,48,118,,78,78,9,37,4,6,0.5,1.3
2025-01-23T1600,1268A,119.93,28.4586,丽水市,莲都小学,,,35,63,18,37,128,,71,71,28,45,,7,,1
2025-01-23T1600,1269A,119.879,28.4231,丽水市,余庄前,,43,30,46,24,33,136,,91,91,12,24,4,4,0.5,0.6
2025-01-23T1600,1173A,119.176,34.5885,连云港市,市环境监测站,颗粒物(PM10),53,56,44,36,30,94,,90,90,8,13,7,6,0.7,0.6
2025-01-23T1600,3000A,119.3581,34.6972,连云港市,德源药业,颗粒物(PM10),51,51,45,34,29,93,,88,88,14,19,6,5,0.5,0.5
2025-01-23T1600,3007A,119.178,34.844,连云港市,新城一中,"颗粒物(PM10),细颗粒物(PM2.5)",55,60,63,39,42,90,,72,72,25,29,8,7,0.6,0.6
2025-01-23T1600,3008A,119.3608,34.7519,连云港市,胡沟管理处,细颗粒物(PM2.5),58,53,43,41,28,85,,63,63,19,28,4,6,0.8,0.7
2025-01-23T1600,3009A,119.1478,34.5911,连云港市,矿山设计院,,,63,52,41,34,94,,81,81,19,20,4,6,,0.6
2025-01-23T1600,3434A,119.2413,34.6539,连云港市,工贸学校,细颗粒物(PM2.5),55,52,44,39,32,97,,94,94,8,12,8,8,0.8,0.8
2025-01-23T1600,3664A,119.4172,34.7341,连云港市,连云街道,细颗粒物(PM2.5),63,70,55,45,36,94,,80,80,17,21,7,7,0.7,0.6
2025-01-23T1600,2571A,102.3431,27.8099,凉山彝族自治州,青龙寺,,34,32,42,12,17,106,,72,72,4,7,9,9,0.7,0.9
2025-01-23T1600,2572A,102.2721,27.8415,凉山彝族自治州,邛海宾馆,,33,33,48,23,37,96,,65,65,6,14,10,11,0.7,0.8
2025-01-23T1600,2573A,102.2625,27.898,凉山彝族自治州,西昌市政府,,41,41,46,26,37,89,,65,65,8,13,13,12,0.7,0.9
2025-01-23T1600,2574A,102.2685,27.8851,凉山彝族自治州,凉山州政府,,30,29,48,21,37,91,,64,64,6,13,11,11,0.6,0.8
2025-01-23T1600,2575A,102.237,27.8914,凉山彝族自治州,长安,,36,36,51,23,37,90,,56,56,13,20,12,12,1.0,1
2025-01-23T1600,2212A,123.2,41.1953,辽阳市,宏伟区,细颗粒物(PM2.5),54,,86,38,69,73,,58,58,14,33,9,54,0.5,1
2025-01-23T1600,2213A,123.1683,41.2495,辽阳市,新华园,,43,35,99,30,75,61,,46,46,23,44,12,50,0.8,1.5
2025-01-23T1600,2214A,123.2354,41.2639,辽阳市,滨河路,,35,30,79,24,61,71,,53,53,16,38,6,8,0.7,0.9
2025-01-23T1600,2215A,123.149,41.2991,辽阳市,铁西工业园,,48,48,132,25,100,80,,54,54,14,43,7,7,0.5,1.3
2025-01-23T1600,2227A,125.1358,42.8845,辽源市,环保局,,44,44,106,28,71,74,,55,55,23,36,13,14,1.0,1.5
2025-01-23T1600,3239A,125.0764,42.9078,辽源市,银鹰制药,,43,38,83,30,68,67,,46,46,20,33,9,8,0.8,1.4
2025-01-23T1600,1625A,115.9848,36.4372,聊城市,区政府,细颗粒物(PM2.5),90,103,84,67,50,68,,38,38,21,28,17,19,1.0,1
2025-01-23T1600,2878A,116.0072,36.4343,聊城市,聊大东校,细颗粒物(PM2.5),100,107,93,75,57,66,,34,34,24,36,13,16,1.0,1.1
2025-01-23T1600,3200A,115.9819,36.4978,聊城市,监控中心,细颗粒物(PM2.5),110,128,95,83,57,58,,39,39,38,34,18,16,1.1,1
2025-01-23T1600,3513A,116.0445,36.4361,聊城市,九州社区,细颗粒物(PM2.5),93,97,83,69,54,69,,37,37,25,33,13,16,0.8,0.8
2025-01-23T1600,4018A,116.0567,36.4608,聊城市,星美广场,细颗粒物(PM2.5),105,112,93,79,57,61,,33,33,24,33,16,20,0.8,0.8
2025-01-23T1600,2632A,94.3681,29.6376,林芝市,林芝监测站,,25,22,34,8,9,79,,73,73,1,2,6,6,0.2,0.2
2025-01-23T1600,2633A,94.3616,29.6616,林芝市,林芝人民医院,,25,16,26,6,9,77,,69,69,1,2,6,6,0.2,0.2
2025-01-23T1600,2603A,100.0781,23.8982,临沧市,市环保局,,31,28,38,16,25,99,,66,66,8,14,10,10,0.4,0.6
2025-01-23T1600,2604A,100.0894,23.8822,临沧市,市气象局,,35,33,40,24,32,101,,70,70,8,13,7,8,0.3,0.5
2025-01-23T1600,1733A,111.5531,36.0783,临汾市,临钢医院,细颗粒物(PM2.5),176,230,190,133,108,20,,31,31,75,58,33,31,2.0,1.8
2025-01-23T1600,1734A,111.5028,36.0714,临汾市,技工学校,细颗粒物(PM2.5),180,196,174,136,115,19,,24,24,64,65,31,33,1.9,1.9
2025-01-23T1600,1736A,111.5018,36.0855,临汾市,市委,,,,178,,107,20,,29,29,74,63,29,32,1.9,1.3
2025-01-23T1600,3018A,111.505,36.1014,临汾市,唐尧大酒店,细颗粒物(PM2.5),165,188,167,125,108,20,,34,34,74,64,31,32,1.8,1.6
2025-01-23T1600,4244A,111.4879,36.0530,临汾市,启星学校,细颗粒物(PM2.5),186,208,178,140,119,24,,18,18,69,67,30,28,2.1,2
2025-01-23T1600,2667A,103.2069,35.5993,临夏回族自治州,环保局,颗粒物(PM10),65,80,151,22,46,90,,44,44,18,41,18,21,0.9,2.2
2025-01-23T1600,2668A,103.2417,35.6057,临夏回族自治州,建设大厦,颗粒物(PM10),78,106,141,45,54,100,,53,53,17,32,25,23,1.2,1.8
2025-01-23T1600,1618A,118.3429,35.0532,临沂市,沂河小区,细颗粒物(PM2.5),65,61,81,47,63,93,,68,68,14,24,10,11,0.4,0.8
2025-01-23T1600,1619A,118.295,35.0583,临沂市,鲁南制药厂,颗粒物(PM10),63,75,77,43,53,77,,60,60,30,24,9,10,0.3,0.7
2025-01-23T1600,1620A,118.2794,34.9976,临沂市,新光毛纺厂,细颗粒物(PM2.5),59,51,67,42,51,92,,71,71,15,22,8,9,0.5,0.8
2025-01-23T1600,1621A,118.3956,35.0888,临沂市,河东保险公司,"颗粒物(PM10),细颗粒物(PM2.5)",52,53,79,36,57,98,,69,69,12,28,6,7,0.3,0.7
2025-01-23T1600,3370A,118.3564,35.0215,临沂市,十里堡居委,细颗粒物(PM2.5),52,48,73,36,53,95,,69,69,13,23,9,10,0.6,1
2025-01-23T1600,3496A,118.3604,35.1084,临沂市,南坊新区,细颗粒物(PM2.5),52,51,76,36,59,101,,68,68,16,31,5,7,0.4,0.8
2025-01-23T1600,3860A,118.3920,35.0300,临沂市,皇山花园小区,细颗粒物(PM2.5),52,44,72,36,51,95,,69,69,22,35,5,6,0.5,0.9
2025-01-23T1600,1870A,109.4856,24.3895,柳州市,柳东小学,细颗粒物(PM2.5),147,,114,112,89,96,,76,76,27,35,14,18,1.2,1.1
2025-01-23T1600,1871A,109.4157,24.3277,柳州市,环保监测站,细颗粒物(PM2.5),132,129,138,100,94,94,,53,53,35,51,17,16,1.2,1.3
2025-01-23T1600,1872A,109.389,24.341,柳州市,河西水厂,细颗粒物(PM2.5),114,148,179,86,108,91,,52,52,36,55,17,15,1.2,1.4
2025-01-23T1600,1873A,109.4311,24.2921,柳州市,市四中,细颗粒物(PM2.5),133,138,133,101,87,87,,50,50,45,60,18,18,1.3,1.5
2025-01-23T1600,1874A,109.4006,24.3631,柳州市,市九中,细颗粒物(PM2.5),135,117,122,103,83,102,,63,63,,43,12,12,1.2,1.3
2025-01-23T1600,1875A,109.4958,24.3134,柳州市,古亭山,细颗粒物(PM2.5),117,121,90,88,64,92,,47,47,37,50,19,24,1.3,1.1
2025-01-23T1600,3402A,109.5422,24.3996,柳州市,市二中,细颗粒物(PM2.5),125,104,106,95,87,79,,50,50,28,48,13,12,1.2,1.2
2025-01-23T1600,2307A,116.5079,31.737,六安市,监测大楼,,,,225,,228,24,,51,22,17,36,4,9,0.7,1.2
2025-01-23T1600,2308A,116.4738,31.7643,六安市,皖西学院,细颗粒物(PM2.5),107,98,240,80,214,26,,43,22,21,43,3,9,0.8,1.2
2025-01-23T1600,2309A,116.4996,31.7905,六安市,朝阳厂,细颗粒物(PM2.5),104,,219,78,210,21,,47,18,20,43,1,7,0.6,1.1
2025-01-23T1600,2310A,116.5567,31.7886,六安市,开发区,细颗粒物(PM2.5),94,100,260,70,193,28,,40,22,23,48,3,7,0.9,1.4
2025-01-23T1600,2576A,104.8,26.5892,六盘水市,窑上,"颗粒物(PM10),细颗粒物(PM2.5)",55,60,65,39,42,81,,84,82,15,16,4,4,0.9,0.9
2025-01-23T1600,2577A,104.83,26.5917,六盘水市,黄土坡,细颗粒物(PM2.5),52,46,59,36,51,87,,98,85,17,22,9,9,0.9,1.1
2025-01-23T1600,2578A,104.89,26.5939,六盘水市,水钢,细颗粒物(PM2.5),74,67,75,54,66,86,,110,97,17,15,7,7,0.8,0.8
2025-01-23T1600,2579A,104.8475,26.5894,六盘水市,民中,细颗粒物(PM2.5),67,,53,48,53,85,,98,88,14,18,7,9,0.8,1
2025-01-23T1600,2580A,104.9544,26.5506,六盘水市,双水,,48,36,56,33,44,100,,123,111,14,13,6,7,0.7,0.8
2025-01-23T1600,2335A,117.0189,25.1181,龙岩市,龙岩师专,,,,,,,,,,,,,,,,
2025-01-23T1600,2336A,117.0217,25.1033,龙岩市,龙岩市监测站,,43,35,43,21,30,135,,102,102,12,26,3,6,0.5,0.7
2025-01-23T1600,2337A,117.0258,25.0661,龙岩市,闽西职业技术学院,,41,37,49,20,26,130,,94,94,8,30,3,3,0.4,0.5
2025-01-23T1600,2338A,117.0196,25.0306,龙岩市,龙岩学院,,42,39,37,18,25,133,,92,92,9,19,5,3,0.5,0.5
2025-01-23T1600,2665A,105.0822,33.3261,陇南市,汉王镇固水子,,,,,,,,,,,,,,,,
2025-01-23T1600,2885A,104.9339,33.3826,陇南市,滨江中学,细颗粒物(PM2.5),63,70,85,45,55,68,,36,36,18,44,11,22,0.8,1.7
2025-01-23T1600,3247A,104.955,33.371,陇南市,市总工会,细颗粒物(PM2.5),73,66,72,53,53,74,,44,42,17,29,10,11,0.7,0.9
2025-01-23T1600,2487A,111.9589,27.8901,娄底市,电视发射台,细颗粒物(PM2.5),214,,95,164,96,110,,85,76,25,20,11,10,1.1,1
2025-01-23T1600,2488A,111.9975,27.725,娄底市,市监测站,细颗粒物(PM2.5),224,193,161,174,130,108,,84,72,27,34,16,16,1.1,1.1
2025-01-23T1600,2489A,112.0194,27.7314,娄底市,市委党校,细颗粒物(PM2.5),218,207,170,168,127,96,,82,71,42,37,8,8,1.0,1
2025-01-23T1600,2490A,111.9561,27.7569,娄底市,涟钢,细颗粒物(PM2.5),220,198,162,170,130,90,,83,70,25,27,15,18,1.0,1.1
2025-01-23T1600,2491A,111.9892,27.7044,娄底市,市政府,细颗粒物(PM2.5),215,194,156,165,129,103,,62,62,31,39,12,11,0.9,1
2025-01-23T1600,1893A,105.4324,28.9634,泸州市,九狮山,,,,,,,,,,,,,,,,
2025-01-23T1600,1894A,105.4427,28.9063,泸州市,小市上码头,细颗粒物(PM2.5),220,201,183,170,148,32,,26,25,29,35,4,4,1.0,1.1
2025-01-23T1600,1895A,105.4241,28.8573,泸州市,兰田宪桥,细颗粒物(PM2.5),212,177,146,162,136,31,,25,24,27,30,4,3,1.3,1.2
2025-01-23T1600,1896A,105.4379,28.8833,泸州市,市环监站,细颗粒物(PM2.5),206,184,155,156,134,26,,34,22,28,33,7,6,1.1,1
2025-01-23T1600,3490A,105.3617,28.7703,泸州市,纳溪区环保局,细颗粒物(PM2.5),169,140,126,128,106,32,,18,18,21,34,5,5,1.2,1.2
2025-01-23T1600,2183A,111.1406,37.5211,吕梁市,环保局,细颗粒物(PM2.5),128,163,162,97,74,83,,52,52,47,59,18,10,1.0,1
2025-01-23T1600,2185A,111.1297,37.5136,吕梁市,自来水公司,细颗粒物(PM2.5),130,167,145,99,83,68,,47,47,65,58,17,16,1.2,1.1
2025-01-23T1600,2867A,111.1283,37.51,吕梁市,马茂庄小学,细颗粒物(PM2.5),125,,161,95,80,87,,54,54,49,61,18,20,1.0,1.2
2025-01-23T1600,1812A,112.3931,34.6516,洛阳市,市委党校,细颗粒物(PM2.5),79,82,111,58,71,26,,29,29,38,43,4,9,1.0,1
2025-01-23T1600,1815A,112.494,34.6886,洛阳市,河南林校,细颗粒物(PM2.5),83,64,96,61,85,42,,38,33,28,37,3,8,0.9,0.9
2025-01-23T1600,1816A,112.3844,34.623,洛阳市,开发区管委会,,,89,123,68,95,,,37,36,37,39,8,10,0.8,1
2025-01-23T1600,1817A,112.4267,34.6258,洛阳市,市委新办公区,细颗粒物(PM2.5),95,123,134,71,84,33,,32,32,35,44,4,10,0.7,0.8
2025-01-23T1600,3340A,112.6005,34.6326,洛阳市,伊滨,细颗粒物(PM2.5),83,94,130,61,79,38,,31,30,31,36,7,10,0.7,0.7
2025-01-23T1600,3341A,112.4951,34.6332,洛阳市,中移产业园,细颗粒物(PM2.5),82,73,100,60,73,43,,38,31,36,48,7,11,0.9,1
2025-01-23T1600,3593A,112.5736,34.8993,洛阳市,吉利监测站,细颗粒物(PM2.5),95,,109,71,64,41,,36,34,29,38,4,10,0.8,0.9
2025-01-23T1600,3635A,112.3677,34.662,洛阳市,河科大西苑校区,细颗粒物(PM2.5),84,80,117,62,73,31,,32,32,40,45,5,10,1.0,1.1
2025-01-23T1600,3636A,112.4388,34.6781,洛阳市,英才小学,细颗粒物(PM2.5),70,74,106,51,68,40,,34,34,37,44,10,13,0.8,0.9
2025-01-23T1600,4214A,112.4600,34.6949,洛阳市,春都路1号院,细颗粒物(PM2.5),70,75,105,51,60,42,,42,39,41,48,8,10,1.2,1.2
2025-01-23T1600,2399A,114.051,33.5699,漯河市,三五一五工厂,细颗粒物(PM2.5),130,103,119,99,95,24,,37,28,26,26,,7,0.8,0.7
2025-01-23T1600,2400A,114.0055,33.5698,漯河市,漯河大学,细颗粒物(PM2.5),119,99,115,90,82,24,,38,28,29,27,5,9,0.9,0.8
2025-01-23T1600,2401A,114.0138,33.5828,漯河市,市水利局,细颗粒物(PM2.5),117,95,122,88,84,23,,35,26,26,24,3,6,0.8,0.7
2025-01-23T1600,2402A,114.0261,33.5698,漯河市,市广电局,细颗粒物(PM2.5),120,100,119,91,83,23,,35,27,26,23,6,10,0.8,0.7
2025-01-23T1600,3478A,113.9749,33.5664,漯河市,市图书馆,细颗粒物(PM2.5),125,126,126,95,89,25,,36,28,32,31,2,7,0.9,0.8
2025-01-23T1600,3479A,114.0967,33.5906,漯河市,召陵区卫健委,细颗粒物(PM2.5),125,118,129,95,92,21,,31,24,26,23,2,5,0.8,0.7
2025-01-23T1600,1798A,118.5092,31.6837,马鞍山市,湖东路四小,细颗粒物(PM2.5),72,68,129,52,87,64,,36,36,24,71,2,5,0.8,1.1
2025-01-23T1600,1799A,118.5024,31.6449,马鞍山市,开发区,细颗粒物(PM2.5),82,65,136,60,105,64,,32,32,20,64,6,8,0.7,1
2025-01-23T1600,1802A,118.6245,31.7241,马鞍山市,濮塘,细颗粒物(PM2.5),70,53,99,51,85,73,,39,39,20,43,4,5,0.6,0.7
2025-01-23T1600,3633A,118.4918,31.6809,马鞍山市,雨山,细颗粒物(PM2.5),74,65,132,54,97,62,,35,35,20,63,4,7,1.1,1.3
2025-01-23T1600,4191A,118.5274,31.72227,马鞍山市,慈湖高新区,,,,122,39,76,65,,41,41,19,54,6,8,0.7,1.1
2025-01-23T1600,1686A,111.0286,21.4688,茂名市,电白南海,,34,34,54,12,28,94,,90,89,20,18,6,7,0.5,0.5
2025-01-23T1600,1687A,110.9294,21.6533,茂名市,茂石化七小,,48,48,54,24,24,88,,84,84,12,15,7,8,0.5,0.5
2025-01-23T1600,1688A,110.9107,21.6687,茂名市,健康路,,45,41,50,31,32,92,,88,88,13,16,6,8,0.8,0.8
2025-01-23T1600,1689A,110.8592,21.6828,茂名市,高岭,,,,62,,30,,,85,85,21,18,7,9,,0.7
2025-01-23T1600,3450A,111.01,21.5165,茂名市,电白水东,,30,29,50,19,26,93,,86,86,10,12,6,10,0.6,0.7
2025-01-23T1600,2539A,104.0308,30.0478,眉山市,黑龙滩水库,细颗粒物(PM2.5),147,135,151,112,129,74,,38,38,7,12,2,2,0.7,0.9
2025-01-23T1600,2540A,103.8416,30.0874,眉山市,气象局,细颗粒物(PM2.5),160,155,211,122,166,71,,27,27,14,36,5,6,1.0,1.3
2025-01-23T1600,3137A,103.8578,30.0744,眉山市,市委党校,细颗粒物(PM2.5),153,144,188,117,163,65,,26,26,17,40,7,7,1.0,1.3
2025-01-23T1600,3148A,103.8291,30.0564,眉山市,区人社局,细颗粒物(PM2.5),168,,155,127,171,61,,28,28,26,49,9,8,1.1,1.4
2025-01-23T1600,1690A,116.1231,24.3284,梅州市,梅江月梅,,,32,39,28,30,131,,92,92,8,21,,8,0.4,0.9
2025-01-23T1600,1691A,116.0797,24.2719,梅州市,梅县新城,,41,36,57,26,40,130,,90,90,12,37,5,5,0.5,0.8
2025-01-23T1600,1692A,116.1248,24.2654,梅州市,环境监控中心,,40,32,48,24,38,128,,90,90,8,30,6,11,0.5,0.6
2025-01-23T1600,3315A,116.1233,24.2991,梅州市,梅龙,,42,34,41,22,31,132,,93,93,12,26,7,8,0.6,0.8
2025-01-23T1600,1878A,104.7778,31.4741,绵阳市,富乐山,细颗粒物(PM2.5),168,154,137,127,112,24,,10,10,17,32,3,3,0.9,1.4
2025-01-23T1600,1880A,104.6697,31.4668,绵阳市,高新区自来水公司,细颗粒物(PM2.5),156,170,168,119,111,12,,5,5,32,44,4,7,1.0,1.3
2025-01-23T1600,1881A,104.7287,31.5075,绵阳市,三水厂,细颗粒物(PM2.5),182,168,168,137,133,17,,7,7,25,35,2,3,1.0,1.3
2025-01-23T1600,3491A,104.69,31.5322,绵阳市,西科大附属小学,细颗粒物(PM2.5),152,144,157,116,124,23,,10,10,16,31,5,6,1.0,1.1
2025-01-23T1600,3492A,104.5648,31.5343,绵阳市,安州区旅游局,细颗粒物(PM2.5),178,145,145,134,125,14,,11,11,38,33,10,10,1.2,1.3
2025-01-23T1600,4226A,104.7651,31.4531,绵阳市,绵阳市气象局,细颗粒物(PM2.5),139,161,158,106,110,22,,8,8,19,37,11,5,0.8,1.1
2025-01-23T1600,1784A,129.61,44.561,牡丹江市,环保大楼,细颗粒物(PM2.5),109,,93,82,72,60,,56,56,33,40,11,9,0.6,0.8
2025-01-23T1600,1785A,129.6115,44.5782,牡丹江市,文化广场,细颗粒物(PM2.5),82,80,106,60,81,62,,56,56,32,37,11,10,0.7,1
2025-01-23T1600,1786A,129.5904,44.5963,牡丹江市,第一医院,细颗粒物(PM2.5),92,68,93,68,85,59,,52,52,33,37,11,10,0.7,0.9
2025-01-23T1600,1787A,129.6364,44.6075,牡丹江市,机车工厂,细颗粒物(PM2.5),79,77,119,58,78,61,,54,54,32,37,11,11,0.8,1.2
2025-01-23T1600,1788A,129.6386,44.5462,牡丹江市,第一中学,细颗粒物(PM2.5),69,55,94,50,78,65,,51,51,21,34,8,8,0.7,1
2025-01-23T1600,2531A,105.0703,29.61,内江市,市监测站,细颗粒物(PM2.5),201,,158,151,178,27,,9,9,24,29,7,7,0.7,1.1
2025-01-23T1600,2532A,105.0717,29.5947,内江市,东兴区政府,细颗粒物(PM2.5),186,,157,140,168,37,,17,17,22,30,5,5,0.7,1.5
2025-01-23T1600,2533A,105.0653,29.5817,内江市,内江二中,细颗粒物(PM2.5),189,,181,142,174,32,,13,13,26,35,10,10,1.2,1.5
2025-01-23T1600,2534A,105.0406,29.5822,内江市,内江日报社,细颗粒物(PM2.5),215,,169,165,178,27,,10,10,24,33,10,10,1.0,1.3
2025-01-23T1600,2628A,92.0657,31.4846,那曲市,那曲监测站,细颗粒物(PM2.5),196,194,52,147,41,99,,62,62,2,10,8,11,0.6,1.2
2025-01-23T1600,3128A,92.0506,31.4797,那曲市,那曲会议中心,,,,43,,16,97,,57,57,1,11,2,4,1.0,1.1
2025-01-23T1600,1290A,115.8931,28.6843,南昌市,省外办,细颗粒物(PM2.5),94,86,113,70,78,113,,85,85,17,49,9,9,0.6,0.9
2025-01-23T1600,1291A,115.8886,28.7003,南昌市,省林业公司,细颗粒物(PM2.5),83,85,99,61,69,127,,95,95,28,51,10,11,0.5,0.6
2025-01-23T1600,1292A,115.8126,28.7442,南昌市,林科所,细颗粒物(PM2.5),64,70,75,46,52,140,,105,105,29,57,4,6,1.2,1.8
2025-01-23T1600,1294A,115.8518,28.687,南昌市,建工学校,细颗粒物(PM2.5),84,90,100,62,68,135,,101,101,28,50,13,14,1.0,1.1
2025-01-23T1600,1295A,115.8921,28.6424,南昌市,象湖,细颗粒物(PM2.5),85,83,109,63,70,135,,101,101,31,57,10,11,1.0,1.2
2025-01-23T1600,1296A,115.7423,28.7996,南昌市,武术学校,颗粒物(PM10),52,54,41,30,33,104,,78,78,18,20,5,4,0.5,0.5
2025-01-23T1600,3046A,115.9084,28.6062,南昌市,机电学校,颗粒物(PM10),71,92,115,51,66,128,,93,93,27,55,12,12,0.9,1
2025-01-23T1600,3690A,115.9721,28.7031,南昌市,外国语学校,细颗粒物(PM2.5),69,73,101,50,65,130,,99,99,12,38,8,10,0.5,0.7
2025-01-23T1600,4192A,115.9316,28.68677,南昌市,南京东路235号,细颗粒物(PM2.5),84,90,106,62,72,127,,94,94,27,49,6,8,0.7,0.8
2025-01-23T1600,1905A,106.056,30.8064,南充市,西山风景区,细颗粒物(PM2.5),170,133,135,129,134,6,,8,1,15,22,3,2,1.5,1.4
2025-01-23T1600,1906A,106.0789,30.8023,南充市,南充市委,细颗粒物(PM2.5),225,233,174,175,135,8,,4,4,22,27,3,3,1.2,1.2
2025-01-23T1600,1907A,106.1031,30.8217,南充市,南充炼油厂,细颗粒物(PM2.5),219,192,166,169,146,11,,3,3,23,36,3,4,1.3,1.2
2025-01-23T1600,1909A,106.0642,30.7636,南充市,嘉陵区环保局,细颗粒物(PM2.5),218,186,163,168,131,4,,3,3,29,41,3,4,1.3,1.3
2025-01-23T1600,1910A,106.1087,30.8388,南充市,市环境监测站,细颗粒物(PM2.5),212,194,172,162,135,7,,4,3,19,30,5,6,1.2,1.1
2025-01-23T1600,4227A,106.1083,30.7884,南充市,梨树横街98号,细颗粒物(PM2.5),216,196,164,166,139,7,,2,2,24,39,7,8,1.1,1.3
2025-01-23T1600,1151A,118.8086,32.1065,南京市,迈皋桥,细颗粒物(PM2.5),58,63,83,41,55,52,,41,41,47,74,3,6,0.7,0.7
2025-01-23T1600,1152A,118.7538,32.0551,南京市,草场门,,,56,82,39,62,,,26,26,29,60,6,7,0.8,0.7
2025-01-23T1600,1153A,118.7794,32.0745,南京市,山西路,细颗粒物(PM2.5),64,58,93,46,69,76,,56,56,11,61,4,5,0.6,0.6
2025-01-23T1600,1154A,118.7752,32.0023,南京市,中华门,细颗粒物(PM2.5),64,58,92,46,68,51,,32,32,32,64,7,9,1.0,1
2025-01-23T1600,1155A,118.8109,32.0309,南京市,瑞金路,颗粒物(PM10),59,68,101,39,68,53,,34,34,12,62,6,4,0.6,0.8
2025-01-23T1600,1156A,118.7997,32.0754,南京市,玄武湖,细颗粒物(PM2.5),55,56,95,39,62,58,,37,37,20,38,7,8,0.8,0.8
2025-01-23T1600,1157A,118.6414,32.0931,南京市,浦口,细颗粒物(PM2.5),69,76,104,50,64,40,,30,30,29,32,5,7,1.1,1.1
2025-01-23T1600,1158A,118.7356,31.9996,南京市,奥体中心,,,,,,,,,,,,,,,,
2025-01-23T1600,1159A,118.9125,32.1028,南京市,仙林大学城,细颗粒物(PM2.5),67,66,79,48,59,52,,42,42,31,61,5,7,1.0,0.8
2025-01-23T1600,3422A,118.8436,31.9198,南京市,江宁彩虹桥,颗粒物(PM10),71,91,106,46,67,51,,38,38,13,66,4,4,0.8,0.9
2025-01-23T1600,3423A,119.0138,31.6494,南京市,溧水永阳,细颗粒物(PM2.5),68,61,85,49,80,51,,28,28,27,59,3,4,0.9,1.1
2025-01-23T1600,3424A,118.879,31.3302,南京市,高淳老职中,,,,,,,,,,,,,,,,
2025-01-23T1600,3427A,118.8554,32.3578,南京市,六合雄州,颗粒物(PM10),51,51,63,30,36,59,,54,54,15,12,3,4,0.5,0.5
2025-01-23T1600,1401A,108.3103,22.7881,南宁市,二十一中,"颗粒物(PM10),细颗粒物(PM2.5)",53,55,77,37,51,107,,95,90,14,20,5,6,0.7,0.8
2025-01-23T1600,1402A,108.3141,22.8528,南宁市,北湖,细颗粒物(PM2.5),60,56,97,43,60,98,,74,74,14,39,6,7,0.9,1.1
2025-01-23T1600,1403A,108.3206,22.8225,南宁市,市监测站,细颗粒物(PM2.5),55,52,68,39,47,100,,85,85,15,22,8,10,0.9,1
2025-01-23T1600,1404A,108.3829,22.8037,南宁市,大自然花园,细颗粒物(PM2.5),55,53,67,39,54,105,,88,88,11,18,5,6,1.1,1.1
2025-01-23T1600,1405A,108.4394,22.7904,南宁市,仙葫,细颗粒物(PM2.5),54,51,68,38,56,94,,76,76,10,23,3,4,0.6,0.8
2025-01-23T1600,1406A,108.2397,22.8467,南宁市,区农职院,细颗粒物(PM2.5),53,49,90,37,54,102,,76,76,17,38,6,7,0.7,0.8
2025-01-23T1600,1407A,108.3275,22.735,南宁市,英华嘉园,细颗粒物(PM2.5),63,,76,45,49,95,,82,82,14,23,7,8,1.1,1
2025-01-23T1600,3401A,108.4834,22.7618,南宁市,红星社区,细颗粒物(PM2.5),55,53,76,39,56,100,,68,68,11,40,9,9,0.8,1
2025-01-23T1600,4221A,108.2177,22.7774,南宁市,乐贤路16号,细颗粒物(PM2.5),53,42,76,37,45,102,,81,81,10,37,2,4,0.8,0.9
2025-01-23T1600,2331A,118.0966,26.6761,南平市,茫荡山,,,,,,,,,,,,,,,,
2025-01-23T1600,2332A,118.1681,26.6369,南平市,南平市监测站,,38,24,60,23,44,120,,69,69,10,32,5,6,0.4,0.9
2025-01-23T1600,2333A,118.1825,26.6489,南平市,南平铝业有限公司,,40,40,51,15,43,117,,66,66,18,34,5,8,0.6,0.8
2025-01-23T1600,2334A,118.1756,26.6272,南平市,南平七中,,45,45,51,20,38,121,,71,71,11,29,7,8,0.6,0.9
2025-01-23T1600,1168A,120.9098,31.9663,南通市,狼山街道,,32,32,30,18,18,90,,77,77,7,15,5,5,0.4,0.5
2025-01-23T1600,1169A,120.86,32.0005,南通市,虹桥,,28,28,40,12,20,89,,74,74,8,17,4,4,0.4,0.6
2025-01-23T1600,1170A,120.87,32.02,南通市,城中,,,,39,,20,,,70,70,,25,,6,,0.6
2025-01-23T1600,1171A,120.94,31.93,南通市,星湖花园,,28,25,28,19,19,88,,74,74,10,17,5,5,0.4,0.5
2025-01-23T1600,1172A,120.81,32.0417,南通市,紫琅学院,,28,28,30,13,17,78,,70,70,25,26,3,2,1.0,0.8
2025-01-23T1600,3291A,121.067,32.062,南通市,通州监测站,,36,36,31,19,16,95,,86,86,12,20,5,4,1.0,0.8
2025-01-23T1600,3432A,120.9348,31.9883,南通市,环境教育馆,,,22,31,10,16,97,,,,11,26,4,4,,0.2
2025-01-23T1600,2404A,112.5224,33.0122,南阳市,瓦房庄,细颗粒物(PM2.5),97,81,127,72,98,47,,55,48,16,24,6,11,0.8,1
2025-01-23T1600,2405A,112.5003,32.9735,南阳市,汉画馆,细颗粒物(PM2.5),77,70,119,56,85,49,,57,50,21,27,6,10,0.7,0.8
2025-01-23T1600,2406A,112.5573,33.027,南阳市,气象站,细颗粒物(PM2.5),79,72,140,58,88,52,,55,51,15,24,7,11,0.8,1
2025-01-23T1600,2407A,112.5481,32.9689,南阳市,理工学院,细颗粒物(PM2.5),82,65,121,60,88,54,,54,54,18,28,6,9,0.7,0.8
2025-01-23T1600,4008A,112.5234,32.9922,南阳市,卧龙区政府,细颗粒物(PM2.5),84,67,130,62,92,45,,54,45,22,30,5,11,0.7,0.9
2025-01-23T1600,1234A,121.8358,29.911,宁波市,区环保大楼,,27,27,36,3,16,44,,24,24,47,47,8,8,0.8,0.9
2025-01-23T1600,1235A,121.56,29.82,宁波市,万里学院,颗粒物(PM10),51,51,37,29,22,67,,46,46,39,46,6,5,0.5,0.5
2025-01-23T1600,1236A,121.713,29.9572,宁波市,龙赛医院,,23,23,31,15,22,50,,34,34,46,41,9,9,0.4,0.5
2025-01-23T1600,1239A,121.633,29.7733,宁波市,钱湖水厂,,33,33,24,18,18,70,,46,46,24,19,6,5,0.8,0.8
2025-01-23T1600,1240A,121.5856,29.8635,宁波市,太古小学,,34,34,34,19,19,66,,48,48,31,36,9,7,0.6,0.8
2025-01-23T1600,1241A,121.524,29.8674,宁波市,市环境监测中心,,,48,37,10,20,,,49,49,,35,8,6,,0.7
2025-01-23T1600,2871A,121.6147,29.9017,宁波市,万里国际学校,,47,47,39,15,17,62,,45,45,39,34,9,6,0.7,0.6
2025-01-23T1600,3710A,121.5594,29.8975,宁波市,白沙活动中心,,42,42,39,14,16,73,,53,53,26,28,8,5,0.5,0.6
2025-01-23T1600,2339A,119.5001,26.6946,宁德市,金涵水库,,,,,,,,,,,,,,,,
2025-01-23T1600,2341A,119.5388,26.6612,宁德市,宁德市监测站,,41,41,100,26,70,108,,74,74,9,20,5,7,0.4,0.8
2025-01-23T1600,3209A,119.5231,26.6562,宁德市,宁德一中,,46,34,77,32,59,109,,76,76,10,23,4,5,0.3,0.6
2025-01-23T1600,2618A,98.8601,25.8567,怒江傈僳族自治州,州监测站,,44,44,46,18,26,96,,61,61,6,14,5,5,0.5,0.5
2025-01-23T1600,2619A,98.8546,25.8417,怒江傈僳族自治州,泸水一中,,42,39,37,29,30,84,,51,51,9,17,8,8,0.4,0.6
2025-01-23T1600,1888A,101.6891,26.571,攀枝花市,弄弄坪,细颗粒物(PM2.5),73,73,80,53,70,123,,58,58,19,35,26,21,1.1,1.3
2025-01-23T1600,1889A,101.5769,26.5928,攀枝花市,河门口,细颗粒物(PM2.5),62,58,73,44,52,132,,70,70,20,30,29,18,1.6,1.5
2025-01-23T1600,1890A,101.7169,26.585,攀枝花市,炳草岗,颗粒物(PM10),62,74,93,37,63,126,,61,61,20,49,23,18,0.8,1.2
2025-01-23T1600,1891A,101.7369,26.5008,攀枝花市,仁和,细颗粒物(PM2.5),67,65,78,48,59,138,,74,74,17,28,26,18,1.0,1.3
2025-01-23T1600,2835A,101.7227,26.567,攀枝花市,四十中小,细颗粒物(PM2.5),70,83,101,51,63,125,,58,58,18,58,28,22,0.9,1.6
2025-01-23T1600,1604A,122.0303,41.1489,盘锦市,开发区,,,,127,,110,,,46,,,48,,35,,1.6
2025-01-23T1600,1605A,122.0485,41.0883,盘锦市,兴隆台,颗粒物(PM10),54,57,113,29,92,79,,50,50,20,39,15,17,0.9,1.4
2025-01-23T1600,1606A,121.8297,41.1028,盘锦市,新生街道,,35,34,88,24,74,85,,55,55,15,55,12,15,0.7,1.2
2025-01-23T1600,1832A,113.3257,33.742,平顶山市,新华旅馆,,,82,107,59,64,,,52,44,,24,,8,,0.5
2025-01-23T1600,1833A,113.2919,33.737,平顶山市,规划设计院,细颗粒物(PM2.5),78,83,107,57,62,48,,59,49,20,21,5,9,0.6,0.6
2025-01-23T1600,1834A,113.182,33.774,平顶山市,平顶山工学院,细颗粒物(PM2.5),89,101,120,66,57,39,,53,46,25,24,6,10,0.6,0.6
2025-01-23T1600,3204A,113.3025,33.73,平顶山市,规划局,细颗粒物(PM2.5),87,80,99,64,61,44,,55,47,21,21,2,6,1.3,1.1
2025-01-23T1600,3594A,112.8867,33.9116,平顶山市,石龙区,细颗粒物(PM2.5),83,76,140,61,89,47,,43,43,14,27,6,12,0.8,1.1
2025-01-23T1600,2656A,106.6692,35.5461,平凉市,聚贤嘉苑,细颗粒物(PM2.5),178,197,139,134,94,103,,110,110,36,50,27,20,1.6,1.3
2025-01-23T1600,2657A,106.7021,35.5307,平凉市,博物馆,细颗粒物(PM2.5),210,211,151,160,104,104,,115,115,40,60,19,25,1.5,1.4
2025-01-23T1600,2347A,114.0997,27.5002,萍乡市,武功山,细颗粒物(PM2.5),59,62,47,42,34,106,,82,82,23,15,14,13,1.1,0.9
2025-01-23T1600,2348A,113.8385,27.6434,萍乡市,中医院,颗粒物(PM10),60,69,101,34,58,108,,97,97,18,33,12,12,0.9,1.2
2025-01-23T1600,2349A,113.8493,27.6253,萍乡市,市政府车库,细颗粒物(PM2.5),63,65,100,45,76,104,,88,88,18,47,15,18,0.6,1.5
2025-01-23T1600,2350A,113.8676,27.6435,萍乡市,市环保局,细颗粒物(PM2.5),60,65,91,43,63,102,,88,88,21,37,15,15,0.8,1
2025-01-23T1600,2351A,113.866,27.6198,萍乡市,安源区政府,,,75,96,48,59,102,,90,90,18,37,14,15,,1.3
2025-01-23T1600,2319A,119.0141,25.4325,莆田市,荔城区仓后路,颗粒物(PM10),51,52,48,26,32,123,,85,85,14,19,5,2,1.0,0.8
2025-01-23T1600,2320A,119.0015,25.4553,莆田市,莆田市监测站,,46,46,32,21,22,130,,93,93,13,13,7,3,0.8,0.4
2025-01-23T1600,2321A,119.1119,25.4561,莆田市,涵江区六中,,43,43,47,20,30,118,,88,88,14,28,5,3,0.6,0.6
2025-01-23T1600,2322A,119.1013,25.3215,莆田市,秀屿区政府,,38,32,49,14,44,120,,87,87,10,28,3,2,0.6,0.8
2025-01-23T1600,2323A,118.981,25.4792,莆田市,东圳水库,,,,,,,,,,,,,,,,
2025-01-23T1600,2392A,115.0312,35.7636,濮阳市,环保局,细颗粒物(PM2.5),83,61,58,61,46,64,,48,48,24,29,10,8,0.8,0.7
2025-01-23T1600,2394A,115.0574,35.7609,濮阳市,油田运输公司,细颗粒物(PM2.5),84,88,73,62,49,61,,45,45,19,27,9,6,0.8,0.7
2025-01-23T1600,3021A,115,35.7668,濮阳市,濮水河管理处,细颗粒物(PM2.5),69,84,83,50,50,64,,45,45,19,32,9,6,0.9,0.9
2025-01-23T1600,4216A,115.0924,35.7686,濮阳市,任丘路479号,细颗粒物(PM2.5),82,91,84,60,50,61,,45,45,18,24,12,9,1.0,1
2025-01-23T1600,2601A,100.98,22.7633,普洱市,市环保局,,34,34,46,21,10,89,,66,66,5,10,5,6,0.4,0.6
2025-01-23T1600,2602A,100.9817,22.8322,普洱市,普洱第二中学,,37,37,44,20,19,85,,62,62,4,21,5,5,0.4,0.6
2025-01-23T1600,2262A,131.0518,45.8751,七台河市,新一中,细颗粒物(PM2.5),67,66,124,48,105,100,,80,80,18,31,16,16,2.0,2.3
2025-01-23T1600,3345A,131.0577,45.7879,七台河市,中波台,细颗粒物(PM2.5),90,75,137,67,127,79,,68,68,34,45,11,9,1.0,1.3
2025-01-23T1600,3637A,131.0176,45.7761,七台河市,人民广场,,,122,182,74,129,71,,59,59,47,51,10,9,,
2025-01-23T1600,3684A,130.8781,45.8222,七台河市,新建矿广场,细颗粒物(PM2.5),110,95,147,83,122,62,,54,54,40,45,9,8,0.8,1.1
2025-01-23T1600,1779A,123.9305,47.3636,齐齐哈尔市,安居小区,细颗粒物(PM2.5),257,224,144,207,139,28,,32,32,72,50,11,9,1.5,1.2
2025-01-23T1600,1780A,123.9488,47.3386,齐齐哈尔市,中心广场,细颗粒物(PM2.5),139,131,150,106,118,50,,31,31,39,58,4,5,1.1,1.4
2025-01-23T1600,1781A,123.9483,47.3227,齐齐哈尔市,农牧车辆厂,细颗粒物(PM2.5),100,110,140,75,105,49,,30,30,42,60,11,8,0.9,1.3
2025-01-23T1600,1783A,123.945,47.2988,齐齐哈尔市,市环境监测站,细颗粒物(PM2.5),123,102,175,93,149,67,,37,37,26,58,5,3,0.7,1.1
2025-01-23T1600,3662A,123.6333,47.2075,齐齐哈尔市,富区青少年活动中心,细颗粒物(PM2.5),252,219,212,202,158,58,,40,40,36,44,10,12,1.7,1.8
2025-01-23T1600,2591A,107.9783,26.5747,黔东南苗族侗族自治州,市环境监测站,细颗粒物(PM2.5),122,116,147,92,98,59,,48,48,25,26,6,7,0.9,1
2025-01-23T1600,2881A,107.8908,26.5311,黔东南苗族侗族自治州,凯里学院,细颗粒物(PM2.5),114,92,94,86,78,63,,55,55,13,14,4,6,1.0,1.2
2025-01-23T1600,2593A,107.5228,26.2403,黔南布依族苗族自治州,小围寨,细颗粒物(PM2.5),100,75,74,75,64,48,,37,29,20,23,6,9,1.0,0.9
2025-01-23T1600,3538A,107.5175,26.2978,黔南布依族苗族自治州,沙坝,细颗粒物(PM2.5),70,56,83,51,66,39,,37,29,24,28,4,8,0.9,0.8
2025-01-23T1600,2589A,104.9022,25.0925,黔西南布依族苗族自治州,场坝街,,,60,84,35,68,95,,123,95,12,17,,6,0.5,0.6
2025-01-23T1600,2590A,104.8811,25.0992,黔西南布依族苗族自治州,坪东大道,细颗粒物(PM2.5),62,53,80,44,70,90,,116,86,15,20,5,6,0.4,0.5
2025-01-23T1600,2502A,108.6236,21.9667,钦州市,市环保站,,48,48,89,27,49,91,,70,70,24,42,8,9,0.7,1
2025-01-23T1600,2503A,108.6549,21.9481,钦州市,沙埠小学,,46,43,96,32,54,76,,60,60,45,53,9,6,0.8,0.9
2025-01-23T1600,2504A,108.5989,21.7431,钦州市,港区一小,颗粒物(PM10),53,55,78,33,40,97,,80,80,26,41,6,7,0.7,0.9
2025-01-23T1600,3404A,108.5959,21.9633,钦州市,北职校,颗粒物(PM10),51,51,73,32,52,92,,71,71,17,39,7,7,0.8,0.9
2025-01-23T1600,1042A,119.5134,39.8207,秦皇岛市,北戴河环保局,,,,,,,,,,,,,,,,
2025-01-23T1600,1043A,119.7493,40.0116,秦皇岛市,第一关,,30,28,50,21,38,70,,44,44,13,47,5,9,0.4,0.9
2025-01-23T1600,1044A,119.5897,39.9499,秦皇岛市,监测站,,,,62,,34,,,41,41,23,49,7,8,0.6,1.1
2025-01-23T1600,1046A,119.5251,39.9041,秦皇岛市,建设大厦,,50,41,67,35,43,71,,51,51,21,45,9,10,0.8,1.1
2025-01-23T1600,3132A,119.610547,39.943889,秦皇岛市,文明里,,45,45,71,18,29,67,,42,42,12,40,6,9,0.2,0.9
