timepoint,stationcode,longitude,latitude,area,positionname,primarypollutant,aqi,pm10,pm10_24h,pm2_5,pm2_5_24h,o3,o3_24h,o3_8h,o3_8h_24h,no2,no2_24h,so2,so2_24h,co,co_24h
2025-01-23T1100,2566A,102.1879,31.914,阿坝藏族羌族自治州,州农科所,,45,45,33,17,11,50,,46,43,15,15,6,6,1.0,0.9
2025-01-23T1100,2568A,102.2502,31.8896,阿坝藏族羌族自治州,马师校,,15,11,20,10,15,42,,34,32,23,23,6,6,0.6,0.5
2025-01-23T1100,3994A,102.2165,31.9024,阿坝藏族羌族自治州,马尔康中学西区,,14,12,25,9,14,43,,38,38,14,13,4,5,0.4,0.4
2025-01-23T1100,2695A,80.292,41.1694,阿克苏地区,电视台,细颗粒物(PM2.5),102,126,154,76,104,12,,12,12,50,64,5,5,1.6,2.1
2025-01-23T1100,2696A,80.2613,41.1551,阿克苏地区,艺术中心,细颗粒物(PM2.5),88,104,145,65,96,21,,18,18,34,51,3,4,1.6,1.8
2025-01-23T1100,2204A,105.6467,38.8363,阿拉善盟,西城区西花园,颗粒物(PM10),53,56,56,36,29,74,,84,84,28,26,16,14,1.0,0.8
2025-01-23T1100,2205A,105.6985,38.8411,阿拉善盟,蒙二幼,,,60,40,28,18,74,,83,80,33,20,,8,,0.7
2025-01-23T1100,2206A,105.724,38.8516,阿拉善盟,环保局新楼,,32,30,22,16,11,101,,102,102,10,9,8,8,0.5,0.5
2025-01-23T1100,2708A,88.1264,47.8517,阿勒泰地区,市站,,24,24,18,11,13,43,,59,58,33,28,10,11,0.4,0.5
2025-01-23T1100,2630A,80.1161,32.5,阿里地区,阿里监测站,,27,7,7,3,3,85,,99,98,18,2,13,9,0.8,0.6
2025-01-23T1100,3192A,80.0903,32.5028,阿里地区,阿里藏医院,,28,11,9,3,3,89,,90,90,5,2,7,6,0.6,0.5
2025-01-23T1100,2642A,109.0318,32.6537,安康市,香溪洞,细颗粒物(PM2.5),213,,129,163,118,96,,116,116,25,32,14,13,1.2,1.2
2025-01-23T1100,2644A,109.0072,32.6975,安康市,汉滨区检察院,细颗粒物(PM2.5),223,195,152,173,124,101,,36,36,24,49,12,8,1.1,1.4
2025-01-23T1100,4054A,109.0325,32.6913,安康市,市邮政管理局,细颗粒物(PM2.5),233,205,180,183,144,93,,32,32,28,56,11,10,1.2,1.8
2025-01-23T1100,2291A,117.0809,30.5177,安庆市,环科院,细颗粒物(PM2.5),252,245,191,202,156,91,,95,82,32,42,14,14,1.3,1.2
2025-01-23T1100,2292A,117.0331,30.5119,安庆市,马山宾馆,细颗粒物(PM2.5),242,236,191,192,160,92,,102,89,31,44,14,15,1.3,1.3
2025-01-23T1100,2294A,116.9896,30.6145,安庆市,安庆大学,细颗粒物(PM2.5),223,240,199,173,158,91,,109,97,26,38,11,14,1.1,1.1
2025-01-23T1100,3173A,117.0598,30.5351,安庆市,市人大,细颗粒物(PM2.5),241,252,204,191,155,88,,99,87,34,48,13,14,1.2,1.2
2025-01-23T1100,3122A,105.9606,26.2611,安顺市,伍家关,颗粒物(PM10),61,71,75,43,51,114,,140,132,14,13,13,13,1.0,0.9
2025-01-23T1100,3123A,105.9408,26.2431,安顺市,凤凰山,细颗粒物(PM2.5),77,78,77,56,58,104,,131,121,20,16,22,19,0.7,0.7
2025-01-23T1100,3124A,105.9439,26.2564,安顺市,金钟山,细颗粒物(PM2.5),79,81,78,58,53,107,,129,120,16,14,21,19,0.9,0.9
2025-01-23T1100,3125A,105.8983,26.2481,安顺市,娄家坡,,,66,73,48,58,,,126,120,17,16,,15,0.8,0.9
2025-01-23T1100,1818A,114.4839,36.0621,安阳市,棉研所,,,,78,,43,35,,19,19,33,33,,12,0.9,0.7
2025-01-23T1100,1819A,114.3551,36.1017,安阳市,红庙街,细颗粒物(PM2.5),75,95,60,55,49,45,,34,34,21,16,12,10,0.9,0.7
2025-01-23T1100,1820A,114.361,36.0681,安阳市,银杏小区,细颗粒物(PM2.5),84,64,68,62,49,45,,34,34,27,24,11,9,1.0,0.8
2025-01-23T1100,3141A,114.3922,36.0878,安阳市,信访局,细颗粒物(PM2.5),72,70,67,52,40,44,,35,35,9,23,10,8,0.7,0.4
2025-01-23T1100,3669A,114.4705,36.0637,安阳市,左辅环卫站,细颗粒物(PM2.5),92,90,84,68,48,44,,30,29,30,23,9,7,0.7,0.6
2025-01-23T1100,3703A,114.2917,36.0949,安阳市,安钢职工学校,细颗粒物(PM2.5),90,90,73,67,49,46,,28,28,35,37,18,15,1.5,1.1
2025-01-23T1100,1748A,123.044,41.1196,鞍山市,深沟寺,,45,45,64,29,44,46,,38,38,26,21,10,10,0.6,0.7
2025-01-23T1100,1749A,123.011,41.0931,鞍山市,太阳城,,27,27,70,15,46,66,,40,40,10,31,4,10,0.5,1
2025-01-23T1100,1750A,123.0485,41.1442,鞍山市,太平,颗粒物(PM10),55,60,92,32,60,36,,26,26,44,37,13,12,0.9,1.1
2025-01-23T1100,1751A,122.9642,41.0971,鞍山市,铁西三道街,,36,36,106,10,65,64,,17,17,15,42,5,12,0.6,1.2
2025-01-23T1100,1753A,123.022,41.0821,鞍山市,明达新区,,25,25,69,16,47,71,,42,42,9,32,9,15,0.4,1
2025-01-23T1100,1754A,123.1289,41.0228,鞍山市,千山,,,,56,,28,,,39,,,23,,8,,0.6
2025-01-23T1100,4201A,122.9446,41.0826,鞍山市,兴盛南路290号,,50,50,139,24,88,41,,15,15,32,46,23,16,0.8,1.5
2025-01-23T1100,2195A,107.4212,40.761,巴彦淖尔市,附二中,颗粒物(PM10),78,105,91,53,48,23,,26,14,36,46,18,15,0.9,0.9
2025-01-23T1100,2196A,107.37,40.7372,巴彦淖尔市,市环保大楼,颗粒物(PM10),83,115,77,55,41,25,,23,22,40,50,14,9,0.8,0.7
2025-01-23T1100,1956A,86.1472,41.7538,巴音郭楞蒙古自治州,孔雀公园,细颗粒物(PM2.5),105,102,93,79,66,49,,17,17,41,51,4,5,1.0,1.1
2025-01-23T1100,1957A,86.1972,41.7166,巴音郭楞蒙古自治州,棉纺厂,细颗粒物(PM2.5),107,138,121,80,65,29,,11,11,69,62,3,3,1.0,1.1
2025-01-23T1100,1958A,86.2357,41.7173,巴音郭楞蒙古自治州,经济开发区,细颗粒物(PM2.5),108,105,80,81,54,53,,39,36,39,40,4,4,0.9,0.9
2025-01-23T1100,2914A,106.7677,31.8794,巴中市,苏山坪,细颗粒物(PM2.5),170,146,133,129,116,35,,32,32,10,20,5,4,1.0,0.9
2025-01-23T1100,3182A,106.7656,31.8545,巴中市,丽阳花园,细颗粒物(PM2.5),169,160,193,128,149,4,,3,3,28,41,6,5,2.0,1.9
2025-01-23T1100,3183A,106.7418,31.8654,巴中市,圣泉水务公司,细颗粒物(PM2.5),165,146,146,125,120,4,,3,3,24,36,5,5,1.4,1.3
2025-01-23T1100,3616A,106.7616,31.8344,巴中市,市中心医院,细颗粒物(PM2.5),213,183,203,163,168,3,,3,3,27,44,5,5,2.0,1.9
2025-01-23T1100,2235A,122.7911,45.6077,白城市,洮北区环保局,细颗粒物(PM2.5),228,184,86,178,84,28,,17,17,46,29,7,4,1.4,0.8
2025-01-23T1100,2236A,122.8738,45.5725,白城市,市环保局,细颗粒物(PM2.5),143,139,84,109,68,22,,15,14,37,40,1,3,1.3,0.7
2025-01-23T1100,2231A,126.4219,41.9171,白山市,喜丰,颗粒物(PM10),74,97,64,50,32,40,,34,32,30,23,76,31,0.9,0.8
2025-01-23T1100,2232A,126.4077,41.9419,白山市,环保局,颗粒物(PM10),73,96,66,49,33,36,,36,29,19,13,85,19,1.1,0.8
2025-01-23T1100,2647A,104.1724,36.5446,白银市,第三小学,细颗粒物(PM2.5),125,125,120,95,87,29,,33,31,61,47,48,54,1.8,1.4
2025-01-23T1100,2648A,104.1465,36.5482,白银市,动力公司,细颗粒物(PM2.5),95,84,84,71,63,49,,48,42,40,37,27,36,1.6,1.2
2025-01-23T1100,2512A,106.6103,23.9011,百色市,市监测站,细颗粒物(PM2.5),93,87,71,69,51,61,,67,60,27,22,16,12,1.2,1.1
2025-01-23T1100,2513A,106.6538,23.8859,百色市,市中心血站,细颗粒物(PM2.5),63,60,71,45,56,86,,78,57,19,24,17,14,0.9,0.9
2025-01-23T1100,3406A,106.6085,23.8798,百色市,祈福高中,,,,82,,49,,,101,,,30,,10,,1.2
2025-01-23T1100,2270A,117.396,32.939,蚌埠市,工人疗养院,细颗粒物(PM2.5),63,65,113,45,84,58,,50,50,14,29,3,6,0.7,0.8
2025-01-23T1100,2271A,117.3605,32.9427,蚌埠市,百货大楼,细颗粒物(PM2.5),64,66,112,46,81,53,,48,48,11,25,4,7,0.4,0.6
2025-01-23T1100,2273A,117.4185,32.8911,蚌埠市,蚌埠学院,细颗粒物(PM2.5),84,73,100,62,85,43,,44,44,26,44,6,12,0.6,0.7
2025-01-23T1100,2274A,117.3533,32.9673,蚌埠市,淮上区政府,细颗粒物(PM2.5),70,66,110,51,86,54,,48,48,14,25,7,9,0.7,0.8
2025-01-23T1100,2275A,117.3145,32.8977,蚌埠市,高新区,细颗粒物(PM2.5),78,68,102,57,87,46,,51,51,27,35,5,9,0.7,0.8
2025-01-23T1100,3715A,117.3092,32.9314,蚌埠市,蚌埠田家炳中学,,,70,120,52,87,55,,52,52,11,30,,8,0.4,0.6
2025-01-23T1100,1585A,109.8756,40.6532,包头市,市环境监测站,颗粒物(PM10),73,95,106,38,63,26,,15,15,58,60,41,26,2.3,1.8
2025-01-23T1100,1587A,109.9991,40.5842,包头市,包头八中,细颗粒物(PM2.5),173,163,120,131,80,15,,9,9,78,59,,28,,2.3
2025-01-23T1100,1588A,109.8538,40.6821,包头市,青山宾馆,细颗粒物(PM2.5),94,88,92,70,67,25,,17,15,47,55,45,22,2.3,1.9
2025-01-23T1100,1589A,109.8642,40.6288,包头市,惠龙物流,细颗粒物(PM2.5),89,112,113,66,75,28,,14,14,61,62,44,26,2.7,1.9
2025-01-23T1100,1590A,110.0377,40.5546,包头市,东河鸿龙湾,细颗粒物(PM2.5),127,112,135,96,85,17,,9,9,56,54,54,23,1.8,2
2025-01-23T1100,3283A,109.9154,40.5685,包头市,滨河大厦,细颗粒物(PM2.5),102,120,102,76,65,16,,7,7,65,64,104,26,2.4,1.9
2025-01-23T1100,3419A,109.9447,40.6261,包头市,包头市委党校,细颗粒物(PM2.5),97,107,102,72,50,18,,9,9,65,62,36,19,3.2,1.9
2025-01-23T1100,3683A,109.8331,40.6576,包头市,昆区政府,细颗粒物(PM2.5),118,98,104,89,70,20,,22,16,60,60,54,32,2.3,2.1
2025-01-23T1100,1930A,107.185,34.3063,宝鸡市,庙沟村,细颗粒物(PM2.5),266,232,197,216,183,51,,42,40,45,47,12,14,1.5,1.4
2025-01-23T1100,1931A,107.0708,34.3017,宝鸡市,竹园沟,细颗粒物(PM2.5),245,249,189,195,164,56,,40,40,47,37,15,12,1.5,1.4
2025-01-23T1100,1932A,107.1906,34.3672,宝鸡市,三陆医院,细颗粒物(PM2.5),263,252,219,213,187,48,,46,46,55,54,14,14,1.7,1.5
2025-01-23T1100,1933A,107.1431,34.3547,宝鸡市,监测站,细颗粒物(PM2.5),259,238,220,209,184,48,,37,37,43,45,15,15,1.7,1.6
2025-01-23T1100,1934A,107.1186,34.3739,宝鸡市,技工学校,细颗粒物(PM2.5),254,233,202,204,173,47,,46,45,50,47,13,14,1.6,1.5
2025-01-23T1100,1935A,107.3906,34.3528,宝鸡市,陈仓区环保局家属楼,细颗粒物(PM2.5),256,239,230,206,204,45,,26,26,53,59,16,19,1.5,1.6
2025-01-23T1100,1936A,107.2058,34.3497,宝鸡市,文理学院,细颗粒物(PM2.5),254,249,237,204,200,53,,44,44,47,50,14,15,1.5,1.6
2025-01-23T1100,1937A,107.2386,34.3622,宝鸡市,三迪小学,细颗粒物(PM2.5),259,231,210,209,188,44,,41,39,51,48,16,17,1.7,1.6
2025-01-23T1100,1051A,115.493,38.8632,保定市,游泳馆,细颗粒物(PM2.5),78,81,63,57,43,32,,18,14,36,43,9,8,0.8,0.7
2025-01-23T1100,1052A,115.5213,38.8959,保定市,华电二区,细颗粒物(PM2.5),92,75,62,68,50,23,,14,8,42,37,3,3,0.8,0.6
2025-01-23T1100,1053A,115.4713,38.9108,保定市,接待中心,细颗粒物(PM2.5),99,90,72,74,51,30,,13,12,33,43,4,4,0.7,0.5
2025-01-23T1100,1054A,115.4612,38.8416,保定市,地表水厂,细颗粒物(PM2.5),94,94,74,70,47,29,,24,18,58,45,3,3,0.8,0.5
2025-01-23T1100,3581A,115.31981,38.95208,保定市,满城区生态环境分局,细颗粒物(PM2.5),94,107,89,70,58,39,,17,17,33,43,10,7,0.9,0.9
2025-01-23T1100,3582A,115.47694,38.76408,保定市,清苑区第二中学,细颗粒物(PM2.5),83,111,90,61,56,15,,12,9,50,44,8,7,0.7,0.6
2025-01-23T1100,3583A,115.62909,39.02311,保定市,徐水物探局,细颗粒物(PM2.5),100,87,58,75,52,26,,16,11,45,47,9,10,0.9,0.6
2025-01-23T1100,4004A,115.4202,38.8656,保定市,双鹰农机,,,96,67,54,47,30,,16,15,35,37,,3,,0.8
2025-01-23T1100,4034A,115.5150,38.8590,保定市,植保所站,细颗粒物(PM2.5),74,81,72,54,46,27,,15,10,36,43,4,5,0.7,0.6
2025-01-23T1100,2594A,99.1678,25.1081,保山市,市环境监测站,细颗粒物(PM2.5),53,51,31,37,20,63,,64,58,22,8,6,5,0.6,0.4
2025-01-23T1100,2595A,99.1711,25.1328,保山市,市环保局,,48,48,33,21,23,67,,70,64,19,5,7,6,0.6,0.3
2025-01-23T1100,1866A,109.2262,21.588,北海市,牛尾岭水库,,,,60,68,61,198,,42,42,,11,5,5,0.5,0.5
2025-01-23T1100,1867A,109.1436,21.4086,北海市,海滩公园,"颗粒物(PM10),细颗粒物(PM2.5)",53,55,62,37,43,100,,110,101,13,14,6,7,0.9,0.9
2025-01-23T1100,1868A,109.0981,21.4661,北海市,新市环保局,,50,50,59,34,44,94,,104,96,18,20,6,7,0.7,0.7
2025-01-23T1100,1869A,109.1778,21.5233,北海市,北海工业园,细颗粒物(PM2.5),85,84,89,63,68,95,,81,76,15,16,9,10,0.8,0.8
2025-01-23T1100,3400A,109.1911,21.4415,北海市,龙潭自来水厂,细颗粒物(PM2.5),57,50,61,40,57,89,,85,79,10,11,6,7,0.8,0.8
2025-01-23T1100,1001A,116.3621,39.8784,北京市,万寿西宫,细颗粒物(PM2.5),87,84,61,64,43,13,,21,15,75,48,7,9,1.3,0.8
2025-01-23T1100,1002A,116.2202,40.2915,北京市,定陵,,,,,,,,,,,,,,,,
2025-01-23T1100,1003A,116.4174,39.9289,北京市,东四,颗粒物(PM10),85,119,73,56,46,10,,19,13,65,38,7,7,1.3,0.8
2025-01-23T1100,1004A,116.4072,39.8863,北京市,天坛,细颗粒物(PM2.5),94,98,69,70,52,18,,14,12,60,35,3,3,1.0,1
2025-01-23T1100,1005A,116.462,39.9365,北京市,农展馆,细颗粒物(PM2.5),108,116,74,81,48,16,,24,16,67,44,5,6,1.4,1.1
2025-01-23T1100,1006A,116.3392,39.9295,北京市,官园,细颗粒物(PM2.5),94,105,70,70,45,18,,18,13,54,42,8,9,1.2,0.8
2025-01-23T1100,1007A,116.2878,39.9611,北京市,海淀万柳,细颗粒物(PM2.5),95,102,71,71,47,18,,7,6,48,52,7,7,1.2,1.1
2025-01-23T1100,1008A,116.6636,40.135,北京市,顺义新城,细颗粒物(PM2.5),95,92,88,71,55,30,,10,10,27,47,3,5,0.8,1.1
2025-01-23T1100,1009A,116.6275,40.3275,北京市,怀柔镇,细颗粒物(PM2.5),64,65,53,46,36,30,,28,25,33,26,3,4,0.8,0.7
2025-01-23T1100,1010A,116.2296,40.217,北京市,昌平镇,细颗粒物(PM2.5),82,99,65,60,39,23,,20,16,43,34,3,3,1.4,1.1
2025-01-23T1100,1011A,116.3966,39.9821,北京市,奥体中心,细颗粒物(PM2.5),95,106,75,71,48,20,,12,9,46,45,6,7,1.0,0.9
2025-01-23T1100,3281A,115.9718,40.4529,北京市,延庆夏都,细颗粒物(PM2.5),94,103,59,70,38,20,,18,13,41,29,6,5,1.0,0.7
2025-01-23T1100,3417A,117.0709,40.1465,北京市,平谷新城,细颗粒物(PM2.5),90,87,74,67,52,32,,16,16,23,24,2,6,1.0,1.3
2025-01-23T1100,3418A,116.8336,40.4095,北京市,密云新城,细颗粒物(PM2.5),64,66,65,46,42,38,,22,21,25,27,2,5,0.7,0.9
2025-01-23T1100,3671A,116.088,39.9726,北京市,门头沟三家店,细颗粒物(PM2.5),67,79,67,48,42,32,,20,20,21,29,3,4,0.6,0.6
2025-01-23T1100,3672A,116.1541,39.8204,北京市,丰台云岗,颗粒物(PM10),72,94,79,49,48,21,,14,14,47,40,7,7,0.9,0.6
2025-01-23T1100,3673A,116.6804,39.9081,北京市,通州东关,细颗粒物(PM2.5),147,153,87,112,58,12,,8,4,26,22,3,5,0.9,0.7
2025-01-23T1100,3674A,115.9577,39.7603,北京市,房山燕山,颗粒物(PM10),63,75,64,41,45,32,,18,18,29,30,2,4,0.8,0.7
2025-01-23T1100,3675A,116.4672,39.7733,北京市,大兴旧宫,细颗粒物(PM2.5),74,77,73,54,45,23,,4,4,42,36,1,3,0.7,0.7
2025-01-23T1100,3694A,115.986,40.4563,北京市,延庆石河营,,,104,56,75,40,19,,8,8,44,32,,4,1.0,0.7
2025-01-23T1100,3695A,116.6151,40.3053,北京市,怀柔新城,细颗粒物(PM2.5),64,67,54,46,37,29,,24,24,25,22,2,4,0.8,0.6
2025-01-23T1100,3696A,116.2545,39.8768,北京市,丰台小屯,细颗粒物(PM2.5),110,100,80,83,55,14,,4,4,66,65,7,6,1.2,0.8
2025-01-23T1100,3697A,116.84,40.3844,北京市,密云镇,细颗粒物(PM2.5),73,75,68,53,44,27,,7,7,27,39,2,4,0.9,0.9
2025-01-23T1100,4182A,116.1942,39.91583,北京市,八角,细颗粒物(PM2.5),85,96,74,63,45,19,,9,9,43,42,3,3,1.1,0.8
2025-01-23T1100,1761A,123.8275,41.3064,本溪市,大峪,细颗粒物(PM2.5),124,152,88,94,54,34,,14,14,41,37,15,8,2.3,1.5
2025-01-23T1100,1762A,123.7567,41.3325,本溪市,溪湖,细颗粒物(PM2.5),113,133,103,85,59,20,,9,9,44,40,19,10,2.7,1.3
2025-01-23T1100,1763A,123.7169,41.3094,本溪市,彩屯,细颗粒物(PM2.5),153,165,87,117,64,16,,14,11,61,37,36,10,5.5,1.4
2025-01-23T1100,1764A,123.7669,41.2864,本溪市,东明,细颗粒物(PM2.5),162,222,121,123,76,18,,6,6,50,48,22,13,4.1,2
2025-01-23T1100,1765A,123.7992,41.2664,本溪市,新立屯,颗粒物(PM10),141,231,88,85,43,28,,14,14,59,50,17,12,4.2,2.1
2025-01-23T1100,1766A,123.8142,41.3472,本溪市,威宁,颗粒物(PM10),106,161,105,72,61,32,,14,14,30,37,6,4,1.5,1.1
2025-01-23T1100,2587A,105.2864,27.3125,毕节市,八中,细颗粒物(PM2.5),140,132,81,107,65,59,,38,38,25,20,9,8,1.0,1.1
2025-01-23T1100,2588A,105.31,27.2944,毕节市,师专,细颗粒物(PM2.5),132,132,81,100,58,61,,41,41,28,20,9,8,1.1,1.1
2025-01-23T1100,3537A,105.3631,27.3533,毕节市,长征村,细颗粒物(PM2.5),155,138,81,118,65,92,,50,50,12,11,12,8,0.9,1.1
2025-01-23T1100,1629A,118.0018,37.3617,滨州市,第二水厂,细颗粒物(PM2.5),67,70,45,48,23,41,,32,31,20,20,22,9,0.8,0.5
2025-01-23T1100,1630A,117.9776,37.393,滨州市,北中新校,颗粒物(PM10),63,75,44,44,21,43,,30,30,28,26,18,6,0.4,0
2025-01-23T1100,3514A,117.9378,37.3956,滨州市,中海酒店,细颗粒物(PM2.5),83,,36,61,24,48,,35,35,24,20,17,5,0.8,0.4
2025-01-23T1100,3515A,117.9378,37.3553,滨州市,开发区一中,细颗粒物(PM2.5),64,70,44,46,22,47,,38,38,26,25,19,10,0.7,0.4
2025-01-23T1100,3516A,118.0917,37.694,滨州市,金海六路,,,,27,,14,36,,48,43,,17,6,5,0.4,0.4
2025-01-23T1100,4028A,117.9956,37.3753,滨州市,滨州市西街道办事处,,,66,39,56,27,42,,28,28,21,23,,5,0.2,0
2025-01-23T1100,2311A,115.8072,33.8399,亳州市,污水处理厂,细颗粒物(PM2.5),104,115,169,78,129,38,,20,20,19,36,5,9,0.8,1.2
2025-01-23T1100,2312A,115.7789,33.8518,亳州市,三国揽胜宫,细颗粒物(PM2.5),113,139,199,85,126,34,,29,29,30,40,3,8,0.9,1.2
2025-01-23T1100,3332A,115.7633,33.8034,亳州市,亳州学院,,,98,169,,117,,,34,34,23,38,,8,0.9,1.3
2025-01-23T1100,2693A,82.0485,44.8556,博尔塔拉蒙古自治州,市党校,,32,32,62,13,38,78,,82,81,12,23,7,9,0.3,0.7
2025-01-23T1100,2694A,82.0806,44.8969,博尔塔拉蒙古自治州,市环保局,,30,30,56,13,29,67,,70,69,15,28,7,8,0.5,1
2025-01-23T1100,1071A,116.8842,38.2991,沧州市,沧县城建局,"颗粒物(PM10),细颗粒物(PM2.5)",54,57,55,38,33,36,,24,24,38,35,6,4,0.6,0.5
2025-01-23T1100,1072A,116.8584,38.3254,沧州市,电视转播站,细颗粒物(PM2.5),55,56,56,39,31,28,,8,8,40,38,8,5,0.5,0.5
2025-01-23T1100,1073A,116.8709,38.3228,沧州市,市环保局,颗粒物(PM10),52,53,54,34,37,32,,11,11,36,37,5,4,0.5,0.4
2025-01-23T1100,3324A,116.8136,38.3004,沧州市,河北水利电力学院,,,41,44,36,29,38,,24,24,26,27,,9,0.4,0.4
2025-01-23T1100,2622A,97.1806,31.1273,昌都市,昌都监测站,,32,32,41,21,24,38,,34,34,20,24,8,8,0.9,1.1
2025-01-23T1100,3719A,97.1714,31.1406,昌都市,昌都会议中心,,,,77,10,8,45,,51,47,7,4,4,4,0.5,0.4
2025-01-23T1100,2690A,88.1236,43.8886,昌吉回族自治州,天山天池,,26,20,12,10,8,81,,91,84,9,5,5,6,0.7,0.6
2025-01-23T1100,2692A,87.2717,44.0297,昌吉回族自治州,新区政务中心,细颗粒物(PM2.5),139,153,178,106,144,59,,47,47,30,51,3,2,1.3,1.5
2025-01-23T1100,3613A,87.3095,44.0142,昌吉回族自治州,亚心广场,细颗粒物(PM2.5),185,149,177,139,155,71,,63,63,12,36,6,6,1.2,1.4
2025-01-23T1100,1119A,125.3325,43.9166,长春市,食品厂,细颗粒物(PM2.5),98,122,115,73,87,31,,11,11,51,52,15,10,0.9,1.1
2025-01-23T1100,1120A,125.2863,43.9027,长春市,客车厂,细颗粒物(PM2.5),89,78,112,66,86,36,,18,18,48,60,24,10,0.8,1
2025-01-23T1100,1121A,125.2841,43.8463,长春市,邮电学院,细颗粒物(PM2.5),97,75,91,72,82,38,,14,14,41,43,20,12,1.0,1.1
2025-01-23T1100,1122A,125.3716,43.8772,长春市,劳动公园,细颗粒物(PM2.5),94,93,101,70,74,31,,13,13,53,48,16,9,0.9,0.9
2025-01-23T1100,1123A,125.3297,43.8805,长春市,园林处,细颗粒物(PM2.5),99,100,87,74,74,29,,16,16,51,42,26,12,0.8,0.7
2025-01-23T1100,1124A,125.4605,43.79,长春市,净月潭,细颗粒物(PM2.5),70,68,68,51,48,60,,41,41,16,23,11,8,0.6,0.6
2025-01-23T1100,1125A,125.7194,43.515,长春市,甩湾子,,,,,,,,,,,,,,,,
2025-01-23T1100,1126A,125.3863,43.8447,长春市,经开区环卫处,,,123,125,64,74,,,6,6,41,52,18,15,,1.3
2025-01-23T1100,1127A,125.245,43.7783,长春市,高新区管委会,细颗粒物(PM2.5),87,82,113,64,104,41,,16,16,30,43,17,8,0.7,1.1
2025-01-23T1100,1128A,125.1761,43.8325,长春市,岱山公园,,,114,118,72,101,27,,12,12,55,60,,10,1.0,1.3
2025-01-23T1100,1335A,113.0833,28.2325,长沙市,经开区环保局,细颗粒物(PM2.5),271,270,165,221,126,35,,33,31,31,39,8,7,1.2,1
2025-01-23T1100,1336A,112.8872,28.2189,长沙市,高开区环保局,细颗粒物(PM2.5),302,288,162,252,135,37,,43,39,34,33,10,8,1.5,1.1
2025-01-23T1100,1337A,113.0792,28.2053,长沙市,马坡岭,细颗粒物(PM2.5),272,273,162,222,130,38,,36,33,34,45,8,7,1.3,0.9
2025-01-23T1100,1338A,112.9394,28.19,长沙市,湖南师范大学,细颗粒物(PM2.5),273,274,162,223,122,39,,41,38,34,34,12,10,1.6,1.3
2025-01-23T1100,1339A,113.0178,28.1322,长沙市,雨花区环保局,细颗粒物(PM2.5),284,260,152,234,129,39,,38,35,37,46,10,9,1.5,1.2
2025-01-23T1100,1340A,112.9792,28.2597,长沙市,伍家岭,细颗粒物(PM2.5),272,306,185,222,115,37,,36,34,35,40,9,8,1.6,1.3
2025-01-23T1100,1341A,113.0014,28.1944,长沙市,火车新站,细颗粒物(PM2.5),272,280,164,222,124,41,,39,38,36,45,8,7,1.5,1.1
2025-01-23T1100,1342A,112.9844,28.1178,长沙市,天心区环保局,细颗粒物(PM2.5),264,268,153,214,117,41,,39,36,34,43,6,5,1.6,1.2
2025-01-23T1100,1343A,112.8908,28.1308,长沙市,湖南中医药大学,细颗粒物(PM2.5),273,282,161,223,129,46,,46,43,25,34,11,9,1.6,1.2
2025-01-23T1100,1344A,112.9581,28.3611,长沙市,沙坪,细颗粒物(PM2.5),286,318,163,236,125,35,,33,32,27,27,12,11,1.8,1.4
2025-01-23T1100,1727A,113.1147,36.1547,长治市,清华站,细颗粒物(PM2.5),119,118,94,90,71,28,,27,15,46,38,30,22,1.8,1.3
2025-01-23T1100,1730A,113.0886,36.2125,长治市,审计局,细颗粒物(PM2.5),122,121,89,92,73,18,,16,8,50,39,25,19,1.6,1.2
2025-01-23T1100,1731A,113.0844,36.1856,长治市,长治八中,细颗粒物(PM2.5),139,138,115,106,84,20,,19,10,51,38,28,20,1.8,1.3
2025-01-23T1100,2845A,113.1569,36.1911,长治市,德盛苑,细颗粒物(PM2.5),100,100,93,75,72,32,,46,41,42,33,22,14,1.9,1.3
2025-01-23T1100,3568A,113.06,36.0464,长治市,向阳小学,细颗粒物(PM2.5),149,152,132,114,98,31,,35,30,48,41,38,30,2.6,2
2025-01-23T1100,3569A,112.8792,36.3144,长治市,屯留一中,细颗粒物(PM2.5),93,94,90,69,71,29,,12,12,60,59,49,27,2.3,1.6
2025-01-23T1100,4189A,113.1131,36.19948,长治市,英华南巷50号,细颗粒物(PM2.5),122,131,88,92,70,24,,28,21,53,45,23,18,1.8,1.3
2025-01-23T1100,4190A,113.2367,36.3344,长治市,学府街1号,细颗粒物(PM2.5),82,80,74,60,51,38,,18,18,40,45,14,19,1.1,1.2
2025-01-23T1100,1854A,111.6975,28.9703,常德市,市二中,细颗粒物(PM2.5),271,233,216,221,202,63,,54,54,23,22,11,11,1.2,1.1
2025-01-23T1100,1857A,111.7158,29.1456,常德市,白鹤山,,,,,,,,,,,,,,,,
2025-01-23T1100,3138A,111.7153,29.0289,常德市,武陵区永安,细颗粒物(PM2.5),270,266,240,220,199,66,,64,64,31,29,12,12,1.0,1
2025-01-23T1100,3139A,111.6892,28.9881,常德市,鼎城区玉霞,细颗粒物(PM2.5),260,291,196,210,194,68,,52,52,24,26,15,14,1.3,1.2
2025-01-23T1100,3140A,111.6625,29.0531,常德市,武陵区长庚,细颗粒物(PM2.5),265,267,255,215,203,63,,58,58,30,28,9,9,1.1,1.1
2025-01-23T1100,1196A,119.9633,31.762,常州市,市监测站,细颗粒物(PM2.5),93,115,80,69,55,22,,14,14,52,66,7,9,0.9,0.8
2025-01-23T1100,1200A,119.9468,31.7069,常州市,武进监测站,细颗粒物(PM2.5),77,92,71,56,45,21,,9,9,44,45,10,11,1.0,0.9
2025-01-23T1100,1201A,119.9255,31.9087,常州市,安家,细颗粒物(PM2.5),100,109,83,75,59,25,,12,12,38,58,8,10,1.4,1
2025-01-23T1100,3002A,119.9805,31.8174,常州市,行政中心,细颗粒物(PM2.5),82,98,67,60,52,18,,8,8,39,42,13,15,0.7,0.7
2025-01-23T1100,3003A,120.0522,31.7748,常州市,经开区,颗粒物(PM10),78,106,87,50,45,36,,9,9,40,54,9,10,0.7,0.7
2025-01-23T1100,3010A,119.9025,31.7964,常州市,钟楼,细颗粒物(PM2.5),93,109,78,69,54,27,,12,12,38,48,7,8,0.9,0.9
2025-01-23T1100,3429A,119.8598,31.7066,常州市,武进经发区,细颗粒物(PM2.5),87,91,78,64,56,30,,13,13,41,56,5,6,0.9,0.7
2025-01-23T1100,3430A,119.5826,31.7245,常州市,金坛城区,细颗粒物(PM2.5),94,94,88,70,65,24,,10,10,31,39,6,7,0.9,0.8
2025-01-23T1100,2220A,120.4318,41.5881,朝阳市,西梁,细颗粒物(PM2.5),90,99,76,67,52,33,,15,15,41,41,29,20,1.3,1.4
2025-01-23T1100,2221A,120.4521,41.5646,朝阳市,河畔小区,细颗粒物(PM2.5),119,125,80,90,58,27,,16,16,33,31,19,14,1.7,1.2
2025-01-23T1100,2222A,120.4176,41.5648,朝阳市,八里堡,细颗粒物(PM2.5),107,123,82,80,63,25,,18,18,38,39,24,18,1.9,1.6
2025-01-23T1100,2223A,120.3806,41.5969,朝阳市,农业园区,细颗粒物(PM2.5),163,176,78,124,61,27,,18,16,44,33,55,17,2.9,1.2
2025-01-23T1100,1705A,116.6367,23.6719,潮州市,西园路,颗粒物(PM10),51,51,47,29,50,58,,23,23,13,21,5,4,0.5,0.5
2025-01-23T1100,3026A,116.6183,23.6608,潮州市,市政府,细颗粒物(PM2.5),63,67,54,45,46,71,,26,26,16,21,4,4,0.9,0.7
2025-01-23T1100,4036A,116.6461,23.6761,潮州市,金山,,,60,46,26,44,55,,18,18,,18,5,5,0.5,0.6
2025-01-23T1100,2472A,113.0073,25.9061,郴州市,马头岭,颗粒物(PM10),72,94,68,46,34,87,,71,66,32,30,52,18,1.2,0.9
2025-01-23T1100,2473A,113.0116,25.8226,郴州市,市职中,,,,88,,54,54,,24,24,,41,27,12,1.1,1
2025-01-23T1100,2474A,113.0161,25.8001,郴州市,兴隆步行街,,,,,,0,,,,,,12,,7,,1.0
2025-01-23T1100,2475A,113.0383,25.8071,郴州市,市审计局,细颗粒物(PM2.5),88,88,83,65,58,44,,14,14,36,48,16,10,1.1,1.3
2025-01-23T1100,2476A,113.0348,25.7759,郴州市,市环保局,细颗粒物(PM2.5),98,88,88,73,58,43,,14,14,53,59,23,11,1.0,0.8
2025-01-23T1100,1431A,103.9728,30.7236,成都市,金泉两河,细颗粒物(PM2.5),228,196,170,178,147,4,,2,2,53,58,5,3,1.3,1.3
2025-01-23T1100,1432A,104.176,30.6872,成都市,十里店,细颗粒物(PM2.5),235,229,176,185,147,7,,6,5,52,54,3,2,1.3,1
2025-01-23T1100,1433A,104.079,30.5706,成都市,三瓦窑,细颗粒物(PM2.5),214,197,176,164,142,2,,2,1,61,57,3,2,1.4,1.1
2025-01-23T1100,1434A,104.1114,30.63,成都市,沙河铺,细颗粒物(PM2.5),223,212,166,173,146,4,,5,4,61,50,,4,1.5,1.2
2025-01-23T1100,1437A,104.0786,30.6531,成都市,君平街,细颗粒物(PM2.5),231,187,166,181,153,12,,9,6,62,60,4,5,1.2,1.1
2025-01-23T1100,1438A,103.613,31.0283,成都市,灵岩寺,,,,,,,,,,,,,,,,
2025-01-23T1100,2880A,104.0239,30.65639,成都市,大石西路,细颗粒物(PM2.5),227,198,166,177,142,7,,4,3,61,56,4,4,1.4,1.1
2025-01-23T1100,3136A,104.2725,30.5589,成都市,龙泉驿区区政府,细颗粒物(PM2.5),175,158,149,132,126,22,,32,28,34,31,2,3,1.2,1
2025-01-23T1100,3357A,104.0106,30.6931,成都市,金博路,细颗粒物(PM2.5),206,222,175,156,131,4,,2,2,56,58,3,2,1.5,1.3
2025-01-23T1100,3359A,104.0578,30.5225,成都市,华阳,细颗粒物(PM2.5),203,183,166,153,139,7,,8,6,48,43,1,1,1.3,1.2
2025-01-23T1100,3488A,104.3853,30.7453,成都市,青白江技师分院,细颗粒物(PM2.5),210,182,166,160,146,3,,3,2,33,38,4,5,1.1,1
2025-01-23T1100,3489A,104.0789,30.4072,成都市,科学城,细颗粒物(PM2.5),182,159,156,137,133,5,,7,5,25,26,4,4,1.1,1.1
2025-01-23T1100,4011A,103.8506,30.6947,成都市,光华大道三段,细颗粒物(PM2.5),218,208,172,168,136,4,,1,1,50,50,4,3,1.3,1.1
2025-01-23T1100,4224A,104.2433,30.5353,成都市,鲸龙路1057号,细颗粒物(PM2.5),182,173,171,137,132,5,,12,7,52,39,2,2,1.4,1.1
2025-01-23T1100,1062A,117.9531,40.9081,承德市,铁路,,36,36,44,24,29,22,,8,8,31,40,10,10,0.9,0.9
2025-01-23T1100,1063A,117.9392,40.9763,承德市,中国银行,颗粒物(PM10),54,57,63,30,28,22,,8,8,23,31,4,4,0.8,0.8
2025-01-23T1100,1064A,117.9503,40.928,承德市,开发区,,,,53,,35,28,,12,12,26,36,8,6,,0.8
2025-01-23T1100,1065A,117.8051,40.9655,承德市,文化中心,颗粒物(PM10),97,143,82,46,41,16,,9,9,48,42,10,14,1.1,1.1
2025-01-23T1100,1066A,117.9268,41.0026,承德市,离宫,颗粒物(PM10),54,58,50,31,35,27,,13,13,22,28,7,6,0.7,0.6
2025-01-23T1100,2314A,117.47,30.6618,池州市,池州学院,细颗粒物(PM2.5),283,256,180,233,155,53,,58,47,51,47,20,13,1.5,1.1
2025-01-23T1100,3237A,117.4918,30.6617,池州市,展览馆,细颗粒物(PM2.5),263,271,167,213,125,56,,44,44,49,58,14,8,1.4,1.2
2025-01-23T1100,3333A,117.5627,30.695,池州市,第八中学,细颗粒物(PM2.5),280,271,186,230,152,49,,56,42,48,49,14,15,1.3,1
2025-01-23T1100,3334A,117.5038,30.6243,池州市,第十二中学,细颗粒物(PM2.5),241,229,176,191,144,62,,53,51,44,55,10,10,1.8,1.2
2025-01-23T1100,1744A,118.9233,42.2816,赤峰市,松山一中,颗粒物(PM10),60,69,80,37,46,26,,13,13,43,43,19,22,1.3,1.2
2025-01-23T1100,1745A,118.9576,42.2728,赤峰市,哈达街,"颗粒物(PM10),细颗粒物(PM2.5)",60,69,89,43,59,21,,12,11,59,47,23,21,1.5,1.3
2025-01-23T1100,1746A,118.8788,42.2554,赤峰市,天义路,颗粒物(PM10),63,75,81,42,55,23,,12,12,42,35,19,15,1.2,0.9
2025-01-23T1100,3058A,119.2658,42.0353,赤峰市,银河街,细颗粒物(PM2.5),155,177,135,118,98,32,,13,13,46,42,38,38,2.2,1.8
2025-01-23T1100,3286A,118.9359,42.3147,赤峰市,桥北物流园区,,,58,53,49,58,,,7,7,31,43,16,23,0.8,1
2025-01-23T1100,2521A,107.3476,22.4136,崇左市,市环保局江州分局,细颗粒物(PM2.5),90,84,81,67,50,88,,76,69,20,19,8,7,1.1,1
2025-01-23T1100,2522A,107.3702,22.3707,崇左市,城南新区,,,80,76,72,61,,,77,64,,23,8,8,0.9,0.9
2025-01-23T1100,2298A,118.3093,32.3153,滁州市,老年大学,"颗粒物(PM10),细颗粒物(PM2.5)",54,58,102,38,79,49,,42,42,23,41,2,5,0.4,0.5
2025-01-23T1100,2299A,118.3244,32.2786,滁州市,人大宾馆,细颗粒物(PM2.5),74,,94,54,82,43,,46,42,30,43,6,10,0.7,0.7
2025-01-23T1100,3207A,118.3118,32.3038,滁州市,市政府原办公楼,细颗粒物(PM2.5),62,51,89,44,76,49,,46,44,18,36,4,6,0.3,0.4
2025-01-23T1100,3331A,118.3267,32.2634,滁州市,图书馆,细颗粒物(PM2.5),78,62,105,57,71,44,,41,41,15,33,5,7,0.6,0.6
2025-01-23T1100,2605A,101.5482,25.0441,楚雄彝族自治州,州环境监测站,,38,33,34,26,26,53,,18,17,19,19,8,7,0.7,0.6
2025-01-23T1100,2606A,101.538,25.0492,楚雄彝族自治州,市经济开发区,,41,41,41,28,29,50,,17,17,22,23,6,6,0.7,0.7
2025-01-23T1100,2548A,107.5277,31.2827,达州市,达州职业技术学院,细颗粒物(PM2.5),247,237,247,197,202,3,,2,2,22,38,6,8,1.6,1.7
2025-01-23T1100,2549A,107.5086,31.2186,达州市,市环境监测站,细颗粒物(PM2.5),235,235,234,185,192,4,,4,4,36,52,8,9,2.0,2.1
2025-01-23T1100,2550A,107.4988,31.2132,达州市,凤凰小区,细颗粒物(PM2.5),235,227,234,185,190,5,,5,5,36,53,11,12,1.9,2
2025-01-23T1100,2551A,107.5082,31.1986,达州市,达县机关宾馆,细颗粒物(PM2.5),226,224,231,176,182,4,,4,4,41,55,8,10,1.9,2.1
2025-01-23T1100,2552A,107.4644,31.2124,达州市,市政中心,细颗粒物(PM2.5),240,256,245,190,187,2,,2,2,48,65,7,9,2.5,2.4
2025-01-23T1100,2614A,100.1542,25.7054,大理白族自治州,大理市环境监测站,,40,28,35,28,29,77,,80,78,7,7,7,7,0.6,0.6
2025-01-23T1100,2615A,100.2171,25.5811,大理白族自治州,大理古城,,31,31,37,15,27,77,,70,67,9,12,6,6,0.8,0.8
2025-01-23T1100,1109A,121.612,38.9741,大连市,甘井子,,42,38,44,29,28,49,,36,34,24,30,8,11,0.5,0.6
2025-01-23T1100,1110A,121.565,38.9511,大连市,周水子,细颗粒物(PM2.5),53,42,43,37,36,42,,30,25,37,38,18,15,1.1,1
2025-01-23T1100,1111A,121.5637,38.8845,大连市,星海三站,,33,33,43,23,32,67,,36,32,11,26,10,14,0.6,1.1
2025-01-23T1100,1112A,121.6302,38.9117,大连市,青泥洼桥,,27,27,45,18,26,59,,28,28,6,27,12,14,0.6,0.7
2025-01-23T1100,1113A,121.6251,38.8638,大连市,傅家庄,,28,28,39,17,25,67,,44,44,6,26,10,14,0.5,0.7
2025-01-23T1100,1114A,121.5213,38.8661,大连市,七贤岭,,35,28,38,24,26,65,,42,37,13,20,10,10,0.6,0.7
2025-01-23T1100,1115A,121.2529,38.8061,大连市,旅顺,,33,33,36,23,28,62,,54,51,16,18,10,11,0.8,0.8
2025-01-23T1100,1116A,121.7485,39.1311,大连市,金州,,22,21,42,14,34,68,,46,43,15,22,7,10,0.7,0.9
2025-01-23T1100,1117A,121.7811,39.0496,大连市,开发区,,36,35,38,25,25,56,,46,37,23,27,14,14,0.6,0.5
2025-01-23T1100,1118A,121.9762,39.0631,大连市,双D港,,45,42,33,31,24,74,,71,71,14,16,11,12,1.0,0.8
2025-01-23T1100,1789A,124.81117,46.03138,大庆市,大同区,细颗粒物(PM2.5),160,126,116,122,105,43,,25,20,36,29,20,9,1.4,1.1
2025-01-23T1100,1790A,125.129,46.533,大庆市,龙凤区,细颗粒物(PM2.5),115,117,100,87,76,34,,19,19,49,56,17,9,1.1,1.1
2025-01-23T1100,1791A,124.902,46.408,大庆市,红岗区,细颗粒物(PM2.5),142,125,75,108,54,29,,20,16,44,33,8,7,1.2,0.7
2025-01-23T1100,1792A,125.153,46.586,大庆市,萨尔图区,细颗粒物(PM2.5),262,249,90,212,75,28,,20,20,72,51,6,7,1.4,1
2025-01-23T1100,1793A,124.9042,46.6215,大庆市,让胡路区,细颗粒物(PM2.5),115,105,86,87,76,31,,18,18,56,49,10,9,1.0,0.9
2025-01-23T1100,3481A,125.141,46.634,大庆市,萨区政府监测点,细颗粒物(PM2.5),160,137,77,122,59,21,,27,21,63,40,,6,1.3,0.9
2025-01-23T1100,1721A,113.3819,40.1097,大同市,果树场,,,,,,,,,,,,,,,,
2025-01-23T1100,1723A,113.2994,40.0758,大同市,云冈宾馆,细颗粒物(PM2.5),117,178,112,88,58,20,,8,8,48,48,48,26,1.7,1.2
2025-01-23T1100,1724A,113.3444,40.0917,大同市,大同大学,细颗粒物(PM2.5),99,120,79,74,48,20,,10,10,42,43,66,25,1.4,1
2025-01-23T1100,1725A,113.2661,40.1269,大同市,安家小村,颗粒物(PM10),139,227,115,91,57,20,,11,11,48,46,37,30,5.0,2.2
2025-01-23T1100,1726A,113.2711,40.0844,大同市,教育学院,颗粒物(PM10),127,203,131,91,71,14,,6,6,55,56,46,28,2.9,2.2
2025-01-23T1100,3282A,113.3397,40.0597,大同市,大同市卫生学校,细颗粒物(PM2.5),95,111,83,71,50,17,,15,12,52,45,78,25,1.8,1.3
2025-01-23T1100,3565A,113.1367,40.1122,大同市,云冈站,细颗粒物(PM2.5),127,158,125,96,60,19,,9,9,44,47,63,29,1.5,1.2
2025-01-23T1100,3566A,113.1186,40.2556,大同市,图书馆,细颗粒物(PM2.5),132,132,94,100,62,26,,11,11,28,33,32,21,1.4,1.3
2025-01-23T1100,3567A,113.5931,40.0461,大同市,区一中,颗粒物(PM10),110,170,88,68,42,32,,40,33,53,32,44,20,1.2,0.9
2025-01-23T1100,4199A,113.2798,40.0997,大同市,魏都大道141号,细颗粒物(PM2.5),133,192,128,101,66,19,,10,10,50,52,50,33,2.2,1.9
2025-01-23T1100,2269A,124.1069,50.4097,大兴安岭地区,科技局,,,16,39,13,27,,,51,51,5,11,,8,0.4,0.5
2025-01-23T1100,3663A,124.1164,50.4278,大兴安岭地区,红旗社区,,16,14,53,9,41,50,,36,36,11,30,2,8,0.5,0.7
2025-01-23T1100,1600A,124.3303,40.0625,丹东市,江湾东路,细颗粒物(PM2.5),78,88,54,57,38,53,,41,36,25,23,15,12,1.2,1
2025-01-23T1100,1601A,124.4256,40.1503,丹东市,临江后街,,50,50,52,34,36,61,,35,34,14,23,7,10,0.7,0.8
2025-01-23T1100,1602A,124.3933,40.1461,丹东市,元宝山,细颗粒物(PM2.5),62,64,40,44,27,37,,40,32,27,16,11,11,1.2,0.9
2025-01-23T1100,1603A,124.3633,40.1092,丹东市,民主桥,细颗粒物(PM2.5),68,63,48,49,28,50,,46,40,26,25,15,14,1.1,0.8
2025-01-23T1100,3541A,109.5726,19.5167,儋州市,第一中学子站,,,23,40,15,24,,,100,93,,7,5,5,0.6,0.7
2025-01-23T1100,3542A,109.5567,19.5187,儋州市,东坡学校子站,,29,25,37,16,26,92,,106,95,4,5,6,6,0.6,0.7
2025-01-23T1100,2616A,98.5842,24.428,德宏傣族景颇族自治州,德宏州监测站,细颗粒物(PM2.5),85,96,67,63,43,27,,17,14,30,26,9,7,1.1,0.9
2025-01-23T1100,3677A,98.5881,24.4368,德宏傣族景颇族自治州,芒市人民政府综合楼,细颗粒物(PM2.5),75,80,61,55,39,19,,20,12,34,19,5,7,0.9,0.6
2025-01-23T1100,1901A,104.4239,31.1208,德阳市,东山公园,细颗粒物(PM2.5),225,185,176,175,162,,,16,12,28,34,2,2,,1.3
2025-01-23T1100,1902A,104.3826,31.1317,德阳市,西小区,细颗粒物(PM2.5),220,201,197,170,172,3,,2,2,40,44,4,4,1.4,1.3
2025-01-23T1100,1904A,104.3553,31.1091,德阳市,耐火材料厂,细颗粒物(PM2.5),222,187,180,172,175,2,,3,3,35,41,7,5,1.3,1.1
2025-01-23T1100,3639A,104.4019,31.1244,德阳市,市教育局,细颗粒物(PM2.5),223,185,172,173,165,4,,3,3,39,44,6,5,1.5,1.2
2025-01-23T1100,1622A,116.3032,37.4674,德州市,儿童乐园,细颗粒物(PM2.5),70,80,61,51,34,25,,20,18,33,28,15,9,0.9,0.7
2025-01-23T1100,1624A,116.2991,37.4451,德州市,监理站,细颗粒物(PM2.5),64,73,53,46,28,32,,31,27,38,30,20,16,0.9,0.7
2025-01-23T1100,3066A,116.2721,37.4379,德州市,九衢泉纯净水厂,细颗粒物(PM2.5),64,75,54,46,30,30,,30,27,39,29,17,14,0.9,0.6
2025-01-23T1100,3371A,116.3728,37.4403,德州市,开发区人民医院,细颗粒物(PM2.5),73,80,61,53,33,28,,21,20,40,36,17,12,0.4,0.1
2025-01-23T1100,3372A,116.3572,37.4094,德州市,太阳城中学,细颗粒物(PM2.5),70,75,53,51,33,31,,34,30,37,26,17,12,0.8,0.7
2025-01-23T1100,3511A,116.5652,37.3319,德州市,陵城艺术中心,细颗粒物(PM2.5),79,90,68,58,40,29,,22,21,29,27,20,14,0.9,0.7
2025-01-23T1100,2621A,99.7056,27.8317,迪庆藏族自治州,迪庆州站,细颗粒物(PM2.5),63,68,32,45,21,59,,38,38,23,13,10,9,0.9,0.5
2025-01-23T1100,3180A,99.7136,27.8094,迪庆藏族自治州,质量技术监督局,,35,35,22,24,15,54,,44,40,18,11,8,8,0.7,0.5
2025-01-23T1100,2663A,104.6241,35.5734,定西市,东关小学,细颗粒物(PM2.5),89,85,80,66,59,31,,24,24,18,22,15,15,1.4,1.1
2025-01-23T1100,2664A,104.6194,35.5934,定西市,供电公司,,,,,,,,,,,,,,,,
2025-01-23T1100,1389A,113.7547,23.0494,东莞市,莞城梨川,颗粒物(PM10),54,58,56,37,33,69,,63,53,26,24,5,5,0.7,0.7
2025-01-23T1100,1390A,113.7944,23.0128,东莞市,东城石井,细颗粒物(PM2.5),59,53,47,42,32,61,,36,31,24,22,6,6,0.6,0.5
2025-01-23T1100,1391A,113.7383,22.9658,东莞市,南城西平,细颗粒物(PM2.5),64,72,53,46,30,53,,37,26,26,31,2,3,0.8,0.7
2025-01-23T1100,3319A,113.7338,23.0381,东莞市,万江金泰,颗粒物(PM10),56,61,55,38,30,70,,67,56,25,21,3,4,0.6,0.5
2025-01-23T1100,3626A,113.7533,23.0202,东莞市,南城元岭,细颗粒物(PM2.5),55,49,49,39,33,69,,56,50,19,20,6,6,0.7,0.6
2025-01-23T1100,3627A,113.7875,23.0457,东莞市,东城主山,,,45,48,29,26,65,,,,17,21,,6,0.7,0.7
2025-01-23T1100,1666A,118.6614,37.4309,东营市,市环保局,颗粒物(PM10),51,51,29,31,17,57,,44,39,31,24,7,4,0.6,0.5
2025-01-23T1100,3036A,118.6904,37.4338,东营市,开发区管委会,细颗粒物(PM2.5),55,56,31,39,18,53,,45,39,27,20,7,3,0.6,0.5
2025-01-23T1100,3365A,118.5719,37.565,东营市,垦利区民丰路,,46,46,25,27,11,47,,34,32,19,19,10,9,0.4,0.2
2025-01-23T1100,3498A,118.5055,37.8612,东营市,河口城区,,29,29,33,7,12,56,,50,49,22,19,1,3,0.8,0.8
2025-01-23T1100,3646A,118.4978,37.4623,东营市,胜利站,细颗粒物(PM2.5),58,54,32,41,16,38,,39,33,34,22,11,6,1.1,0.8
2025-01-23T1100,3734A,118.35,37.26,东营市,理想之城,颗粒物(PM10),53,56,34,31,17,61,,39,34,26,26,8,2,0.5,0.4
2025-01-23T1100,1591A,110.0023,39.8129,鄂尔多斯市,综合楼,颗粒物(PM10),57,63,109,24,61,54,,19,19,43,58,19,26,1.0,1.4
2025-01-23T1100,1592A,109.9486,39.8261,鄂尔多斯市,巴音孟克林场办事处,颗粒物(PM10),54,58,102,36,64,59,,20,20,39,58,14,22,1.0,1.3
2025-01-23T1100,1593A,109.7736,39.5986,鄂尔多斯市,康泽苑,,,,61,,38,,,18,17,38,42,14,12,1.1,0.9
2025-01-23T1100,1594A,109.8119,39.5989,鄂尔多斯市,华泰汽车城,颗粒物(PM10),73,95,66,46,40,17,,9,9,35,43,7,8,1.0,0.7
2025-01-23T1100,1595A,109.9734,39.7884,鄂尔多斯市,奥林花园,颗粒物(PM10),80,110,127,53,67,29,,9,9,61,59,21,17,1.3,1.4
2025-01-23T1100,2436A,114.8938,30.3994,鄂州市,市政府,细颗粒物(PM2.5),289,276,191,239,172,37,,43,39,48,53,10,12,1.8,1.7
2025-01-23T1100,2437A,114.8989,30.3714,鄂州市,赵家坝,细颗粒物(PM2.5),276,226,158,226,146,70,,70,66,35,26,8,11,2.1,1.9
2025-01-23T1100,3654A,114.8094,30.4089,鄂州市,精准医疗中心,细颗粒物(PM2.5),303,256,184,253,172,64,,75,66,44,40,6,12,1.3,1.2
2025-01-23T1100,2454A,109.4978,30.2981,恩施土家族苗族自治州,湖北民院,细颗粒物(PM2.5),158,,123,120,128,2,,2,2,9,41,8,8,1.4,1.5
2025-01-23T1100,2455A,109.4707,30.2798,恩施土家族苗族自治州,州电力总公司,细颗粒物(PM2.5),138,115,134,105,120,7,,6,6,34,62,8,9,1.4,1.5
2025-01-23T1100,3549A,109.5061,30.3772,恩施土家族苗族自治州,龙凤新区,细颗粒物(PM2.5),99,85,117,74,94,5,,6,6,15,26,6,6,1.5,1.4
2025-01-23T1100,2499A,108.3411,21.6158,防城港市,沙万,"颗粒物(PM10),细颗粒物(PM2.5)",55,60,66,39,45,66,,72,72,32,22,14,12,1.2,1.4
2025-01-23T1100,2500A,108.3514,21.7731,防城港市,防城档案局,细颗粒物(PM2.5),70,71,78,51,52,70,,32,32,18,26,6,7,0.8,0.9
2025-01-23T1100,2501A,108.3506,21.6414,防城港市,大海花园,,46,38,67,32,45,64,,48,48,14,23,4,4,0.8,1
2025-01-23T1100,1371A,113.1294,23.0067,佛山市,湾梁,颗粒物(PM10),92,134,89,53,39,27,,24,21,69,52,6,6,0.7,0.6
2025-01-23T1100,1372A,113.1083,23.0478,佛山市,华材职中,细颗粒物(PM2.5),92,127,81,68,52,31,,28,21,65,49,7,7,0.7,0.6
2025-01-23T1100,1373A,113.144,23.0453,佛山市,南海气象局,颗粒物(PM10),74,97,67,48,43,28,,24,20,55,42,8,7,1.0,0.8
2025-01-23T1100,1374A,113.2881,22.8094,佛山市,顺德苏岗,,,,58,,41,38,,43,39,40,36,8,8,,0.7
2025-01-23T1100,1376A,112.8383,22.8678,佛山市,高明孔堂,细颗粒物(PM2.5),60,62,63,43,47,45,,48,38,35,37,4,10,0.6,0.7
2025-01-23T1100,1377A,112.8836,23.1588,佛山市,三水监测站,细颗粒物(PM2.5),82,85,84,60,60,23,,14,14,63,65,8,8,1.0,0.9
2025-01-23T1100,1378A,112.867,23.185,佛山市,三水云东海,细颗粒物(PM2.5),94,84,63,70,50,45,,13,13,63,67,8,8,0.9,0.9
2025-01-23T1100,3625A,113.2544,22.7642,佛山市,容桂街道办,,45,41,52,31,39,50,,54,47,35,38,7,7,0.6,0.6
2025-01-23T1100,1280A,119.3903,26.0543,福州市,鼓山,,,,50,,22,,,92,,,12,,1,,0.5
2025-01-23T1100,1282A,119.2681,26.0504,福州市,师大,细颗粒物(PM2.5),55,51,67,39,42,73,,34,34,12,35,4,4,0.6,0.7
2025-01-23T1100,1283A,119.2984,26.1028,福州市,五四北路,细颗粒物(PM2.5),74,60,62,54,41,61,,24,24,28,40,1,2,0.7,0.7
2025-01-23T1100,1284A,119.2648,26.0768,福州市,杨桥西路,细颗粒物(PM2.5),59,53,64,42,38,71,,34,34,17,34,1,1,0.6,0.6
2025-01-23T1100,1285A,119.317,26.0746,福州市,紫阳,,,,77,,45,,,69,,,50,,4,,0.7
2025-01-23T1100,3048A,119.5799,26.0936,福州市,九龙,细颗粒物(PM2.5),55,52,45,39,25,69,,28,28,16,25,6,2,0.7,0.6
2025-01-23T1100,3526A,119.5189,25.9664,福州市,吴航,细颗粒物(PM2.5),55,56,51,39,32,54,,19,19,28,39,3,2,0.9,0.9
2025-01-23T1100,1755A,123.7977,41.8491,抚顺市,望花区,细颗粒物(PM2.5),132,144,147,100,102,28,,13,13,44,45,8,8,1.6,1.5
2025-01-23T1100,1756A,123.9161,41.8822,抚顺市,顺城区,细颗粒物(PM2.5),107,126,140,80,78,36,,18,18,33,46,9,8,1.2,1.3
2025-01-23T1100,1757A,124.0436,41.8611,抚顺市,东洲区,细颗粒物(PM2.5),94,94,115,70,83,51,,27,27,13,30,12,12,1.0,1.1
2025-01-23T1100,1758A,123.9247,41.8642,抚顺市,新抚区,细颗粒物(PM2.5),117,120,130,88,97,39,,18,18,26,41,8,6,1.2,1.3
2025-01-23T1100,1759A,124.0972,41.8961,抚顺市,大伙房水库,细颗粒物(PM2.5),97,91,93,72,70,47,,18,18,19,33,11,9,0.9,1
2025-01-23T1100,1760A,123.7086,41.8391,抚顺市,沈抚新城,细颗粒物(PM2.5),134,177,116,102,90,27,,14,14,48,43,26,7,2.9,1.5
2025-01-23T1100,2376A,116.2127,28.0814,抚州市,桐源党溪,细颗粒物(PM2.5),110,119,72,83,44,51,,27,25,14,9,21,7,0.8,0.6
2025-01-23T1100,2377A,116.3544,27.9831,抚州市,市站,细颗粒物(PM2.5),80,103,90,59,50,43,,32,32,40,42,20,16,0.9,0.8
2025-01-23T1100,2378A,116.3565,27.963,抚州市,血防站,细颗粒物(PM2.5),72,84,77,52,46,38,,13,12,44,45,11,8,1.2,1.2
2025-01-23T1100,2379A,116.3564,28.0007,抚州市,采茶剧团,细颗粒物(PM2.5),77,88,70,56,44,31,,25,22,38,29,10,8,2.2,1.9
2025-01-23T1100,2380A,116.385,27.9647,抚州市,医学分院,颗粒物(PM10),61,72,71,39,37,39,,18,18,36,31,7,6,1.1,1
2025-01-23T1100,2207A,121.6094,41.998,阜新市,工业园区,细颗粒物(PM2.5),139,189,116,106,73,51,,25,25,36,29,42,28,1.5,1.2
2025-01-23T1100,2208A,121.6697,42.0279,阜新市,长青街,细颗粒物(PM2.5),149,159,98,114,70,33,,15,15,43,31,51,32,1.8,1.7
2025-01-23T1100,2209A,121.6673,42.0705,阜新市,农业园区,细颗粒物(PM2.5),100,126,80,75,52,59,,44,44,20,17,28,33,1.0,0.8
2025-01-23T1100,2210A,121.6717,42.0224,阜新市,东苑,细颗粒物(PM2.5),183,178,109,138,81,36,,19,19,48,38,82,35,1.7,1.7
2025-01-23T1100,2211A,121.6506,42.0498,阜新市,玉龙新城,"颗粒物(PM10),细颗粒物(PM2.5)",113,176,114,85,55,45,,15,15,40,32,36,17,,1.5
2025-01-23T1100,2301A,115.8277,32.8929,阜阳市,市监测站,细颗粒物(PM2.5),59,58,181,42,157,44,,39,39,17,39,5,9,0.5,1.1
2025-01-23T1100,2303A,115.8554,32.8605,阜阳市,开发区,,,72,214,56,152,40,,37,37,,42,7,11,,1.1
2025-01-23T1100,2875A,115.784,32.8892,阜阳市,阜阳职业技术学院,细颗粒物(PM2.5),60,58,181,43,146,41,,38,38,16,32,4,8,0.5,1.1
2025-01-23T1100,3468A,115.7901,32.8613,阜阳市,市规划展馆,,,61,197,57,156,44,,44,44,,36,4,10,0.6,1.2
2025-01-23T1100,3469A,115.836,32.9183,阜阳市,枣园社区,细颗粒物(PM2.5),82,62,204,60,156,51,,45,45,13,32,4,8,0.5,1.1
2025-01-23T1100,2669A,102.9099,34.9841,甘南藏族自治州,州政府,细颗粒物(PM2.5),93,133,75,69,43,22,,22,18,45,25,22,17,1.7,0.8
2025-01-23T1100,3380A,102.8914,34.9617,甘南藏族自治州,甘肃民族师范学院,细颗粒物(PM2.5),85,84,67,63,35,22,,28,23,42,28,20,9,1.0,0.7
2025-01-23T1100,2570A,101.9603,30.0475,甘孜藏族自治州,水桥子,,38,38,32,16,17,31,,35,33,20,13,3,3,0.8,0.7
2025-01-23T1100,3065A,101.9533,29.9972,甘孜藏族自治州,州环保局,,30,30,28,3,11,54,,51,50,8,7,4,4,0.5,0.5
2025-01-23T1100,3414A,115.8347,28.932,赣江新区,桑海产业园,细颗粒物(PM2.5),192,185,91,144,62,68,,20,20,44,62,22,15,1.3,0.7
2025-01-23T1100,2362A,114.9017,25.9149,赣州市,通天岩,颗粒物(PM10),53,56,39,13,8,93,,59,59,22,14,11,9,0.6,0.5
2025-01-23T1100,2363A,114.9367,25.8664,赣州市,地委,"颗粒物(PM10),细颗粒物(PM2.5)",52,54,60,36,39,73,,35,35,29,36,10,6,1.2,1.3
2025-01-23T1100,2364A,114.9461,25.8481,赣州市,气象台,颗粒物(PM10),57,64,69,33,36,72,,29,29,35,51,10,9,0.7,0.9
2025-01-23T1100,2365A,114.9322,25.8333,赣州市,市图书馆,颗粒物(PM10),59,67,68,35,39,57,,20,20,47,52,5,5,1.0,1.1
2025-01-23T1100,2366A,114.8905,25.8471,赣州市,华坚鞋城,颗粒物(PM10),62,73,76,40,41,67,,25,25,33,42,7,8,0.6,0.6
2025-01-23T1100,3109A,115.0093,25.8613,赣州市,赣县区卫计委,细颗粒物(PM2.5),57,53,60,40,42,64,,36,36,26,34,8,5,0.8,0.9
2025-01-23T1100,2683A,106.2319,36.1417,固原市,马园,细颗粒物(PM2.5),118,139,91,89,56,83,,88,88,35,34,12,12,1.1,1
2025-01-23T1100,2684A,106.2792,36.0022,固原市,监测站,细颗粒物(PM2.5),128,,75,97,61,98,,91,91,24,29,12,13,1.0,0.8
2025-01-23T1100,2685A,106.2375,36.0211,固原市,新区,细颗粒物(PM2.5),115,94,74,87,54,84,,85,85,32,32,10,10,1.0,0.8
2025-01-23T1100,3522A,106.2177,35.9959,固原市,原州区十五小,细颗粒物(PM2.5),102,108,84,76,53,78,,91,84,32,23,12,12,1.1,0.9
2025-01-23T1100,2543A,106.6308,30.5278,广安市,小平旧居,,,,,,,,,,,,,,,,
2025-01-23T1100,2544A,106.6303,30.4576,广安市,市委,细颗粒物(PM2.5),273,255,235,223,199,10,,9,9,32,39,8,7,1.7,1.5
2025-01-23T1100,2545A,106.6271,30.4663,广安市,友谊中学,细颗粒物(PM2.5),257,234,222,207,186,5,,4,4,32,42,7,7,1.6,1.4
2025-01-23T1100,2547A,106.6388,30.4551,广安市,广电花园,细颗粒物(PM2.5),253,229,213,203,181,4,,4,4,30,40,5,5,1.6,1.5
2025-01-23T1100,2902A,106.6351,30.4865,广安市,北辰小学,细颗粒物(PM2.5),247,248,217,197,176,5,,5,4,36,41,8,8,1.8,1.6
2025-01-23T1100,2523A,105.8945,32.4535,广元市,黑石坡,细颗粒物(PM2.5),73,73,116,53,71,0,,0,0,44,55,5,4,1.2,1.3
2025-01-23T1100,2524A,105.821,32.4444,广元市,老城,细颗粒物(PM2.5),60,49,114,43,75,2,,7,4,42,49,1,5,1.1,1.3
2025-01-23T1100,2526A,105.8628,32.4287,广元市,监测站,细颗粒物(PM2.5),55,57,83,39,66,8,,15,12,42,49,5,8,1.3,1.2
2025-01-23T1100,3617A,105.8047,32.4166,广元市,经开区,细颗粒物(PM2.5),117,93,132,88,104,4,,4,4,44,54,5,10,1.4,1.7
2025-01-23T1100,1345A,113.2347,23.1423,广州市,广雅中学,细颗粒物(PM2.5),78,78,88,57,65,35,,18,14,74,64,5,4,1.0,1
2025-01-23T1100,1346A,113.2612,23.105,广州市,市五中,细颗粒物(PM2.5),65,73,76,47,46,30,,26,24,64,49,3,3,1.1,1
2025-01-23T1100,1348A,113.3478,23.0916,广州市,广东商学院,细颗粒物(PM2.5),52,47,63,36,46,51,,29,29,44,53,4,4,1.0,1
2025-01-23T1100,1349A,113.4332,23.1047,广州市,市八十六中,颗粒物(PM10),54,57,68,35,39,53,,18,18,46,73,3,4,0.8,0.8
2025-01-23T1100,1350A,113.3505,22.9483,广州市,番禺中学,细颗粒物(PM2.5),57,48,65,40,51,37,,38,33,58,49,4,4,0.9,0.9
2025-01-23T1100,1351A,113.2146,23.3916,广州市,花都师范,细颗粒物(PM2.5),97,107,80,72,52,26,,14,14,78,52,7,6,0.9,0.8
2025-01-23T1100,1352A,113.2597,23.1331,广州市,市监测站,颗粒物(PM10),55,60,64,38,38,46,,36,28,65,55,6,5,0.9,0.9
2025-01-23T1100,1353A,113.5618,23.312,广州市,九龙镇镇龙,细颗粒物(PM2.5),68,65,65,49,41,52,,19,19,29,43,4,4,0.7,0.7
2025-01-23T1100,1354A,113.2765,23.1544,广州市,麓湖,细颗粒物(PM2.5),60,56,53,43,36,36,,13,11,63,59,3,2,1.0,0.9
2025-01-23T1100,1355A,113.443,23.3035,广州市,帽峰山森林公园,颗粒物(PM10),65,79,38,41,29,63,,40,40,35,27,6,5,0.7,0.6
2025-01-23T1100,2846A,113.3221,23.1322,广州市,体育西,颗粒物(PM10),55,59,66,38,43,49,,32,32,35,35,4,5,0.8,0.8
2025-01-23T1100,3298A,113.5717,23.5491,广州市,从化街口,细颗粒物(PM2.5),80,79,79,59,60,42,,14,14,42,41,7,6,0.9,1
2025-01-23T1100,3299A,113.3472,23.3692,广州市,白云竹料,细颗粒物(PM2.5),90,103,76,67,46,49,,14,14,36,45,6,6,0.9,0.8
2025-01-23T1100,3300A,113.2981,23.237,广州市,白云嘉禾,,,92,84,55,44,,,11,10,54,68,8,7,1.6,1.6
2025-01-23T1100,3301A,113.4256,23.1716,广州市,黄埔科学城,细颗粒物(PM2.5),57,61,65,40,38,56,,21,21,33,54,5,6,0.9,0.9
2025-01-23T1100,3302A,113.3942,23.0483,广州市,番禺大学城,颗粒物(PM10),71,92,97,32,37,30,,20,17,60,52,8,9,1.6,1.4
2025-01-23T1100,3303A,113.4922,22.8168,广州市,南沙黄阁,,,,47,28,36,38,,49,36,,44,4,4,1.3,0.9
2025-01-23T1100,3304A,113.5342,22.7896,广州市,南沙街,,45,,39,31,30,50,,56,47,35,34,5,4,0.8,0.8
2025-01-23T1100,3443A,113.2902,23.5544,广州市,花都梯面,细颗粒物(PM2.5),100,116,55,75,37,72,,19,19,31,35,7,5,0.9,0.8
2025-01-23T1100,3445A,113.7858,23.7478,广州市,从化良口,,30,28,31,21,24,52,,41,39,13,17,5,5,0.6,0.7
2025-01-23T1100,3446A,113.8051,23.2614,广州市,增城荔城,,49,44,59,34,40,55,,36,36,20,22,4,4,0.5,0.6
2025-01-23T1100,2505A,109.568,23.1478,贵港市,德智高中,,,,,,,,,,,,,,,,
2025-01-23T1100,2506A,109.6047,23.0666,贵港市,江南子站,,,110,107,68,73,73,,80,75,39,28,10,11,,1
2025-01-23T1100,2507A,109.6014,23.0948,贵港市,贵城子站,细颗粒物(PM2.5),94,112,117,70,68,60,,64,57,45,34,17,16,1.0,0.9
2025-01-23T1100,2508A,109.5669,23.1065,贵港市,荷城子站,细颗粒物(PM2.5),83,100,102,61,65,64,,80,72,41,35,18,16,1.0,0.9
2025-01-23T1100,3405A,109.5886,23.1172,贵港市,新世纪学校,细颗粒物(PM2.5),95,117,109,71,69,73,,80,69,43,37,10,11,1.0,1
2025-01-23T1100,1439A,106.6899,26.5998,贵阳市,马鞍山,,,70,83,39,52,,,63,63,34,23,8,6,0.8,0.7
2025-01-23T1100,1441A,106.6243,26.6266,贵阳市,鉴湖路,,49,44,84,34,57,74,,104,99,19,25,6,10,0.7,0.7
2025-01-23T1100,1442A,106.7487,26.6343,贵阳市,燕子冲,细颗粒物(PM2.5),92,78,87,68,71,65,,74,61,40,25,13,16,1.0,0.9
2025-01-23T1100,1443A,106.6555,26.4365,贵阳市,碧云窝,,,,93,,58,94,,111,111,,21,8,21,,0.7
2025-01-23T1100,1445A,106.7109,26.6027,贵阳市,红边门,细颗粒物(PM2.5),77,80,93,56,69,75,,97,92,48,35,9,21,1.1,1
2025-01-23T1100,1446A,106.7164,26.5699,贵阳市,新华路,细颗粒物(PM2.5),73,75,88,53,60,101,,108,106,27,23,24,31,1.0,0.8
2025-01-23T1100,1447A,106.674,26.5424,贵阳市,太慈桥,细颗粒物(PM2.5),62,61,87,44,66,84,,68,68,29,28,12,12,0.7,0.8
2025-01-23T1100,1552A,106.805,26.3003,贵阳市,桐木岭,,50,50,89,34,59,95,,120,113,1,4,6,12,0.9,0.9
2025-01-23T1100,4230A,106.6882,26.5695,贵阳市,花果园大街66号,细颗粒物(PM2.5),77,61,89,56,68,74,,93,90,42,43,6,16,0.4,0.4
2025-01-23T1100,4231A,106.6873,26.5169,贵阳市,漓江路57号,细颗粒物(PM2.5),70,66,97,51,71,81,,73,73,27,34,12,23,0.6,0.7
2025-01-23T1100,1862A,110.4144,25.3167,桂林市,电子科大尧山校区,细颗粒物(PM2.5),82,77,68,60,51,71,,61,61,16,16,6,8,0.8,0.8
2025-01-23T1100,1863A,110.2819,25.2697,桂林市,监测站,细颗粒物(PM2.5),109,114,94,82,67,33,,86,68,64,34,12,13,1.7,1.4
2025-01-23T1100,1864A,110.3089,25.2708,桂林市,龙隐路小学,细颗粒物(PM2.5),104,104,83,78,71,64,,97,83,36,23,12,17,0.9,0.7
2025-01-23T1100,1865A,110.2869,25.2178,桂林市,八中,细颗粒物(PM2.5),115,108,89,87,71,35,,82,65,54,31,13,15,1.2,0.9
2025-01-23T1100,3403A,110.1764,25.2381,桂林市,创业大厦,细颗粒物(PM2.5),117,117,93,88,69,33,,64,46,,39,14,14,0.9,0.9
2025-01-23T1100,3531A,110.296,25.1253,桂林市,旅游学院,细颗粒物(PM2.5),132,144,88,100,69,16,,58,35,73,37,13,12,1.4,1.2
2025-01-23T1100,2674A,100.2561,34.4714,果洛藏族自治州,玛沁县大武镇,颗粒物(PM10),65,80,72,14,19,38,,37,34,13,5,22,13,0.7,0.5
2025-01-23T1100,1129A,126.5422,45.755,哈尔滨市,岭北,细颗粒物(PM2.5),231,,147,181,130,45,,27,27,54,56,30,17,0.7,0.9
2025-01-23T1100,1130A,126.561,45.8167,哈尔滨市,松北商大,细颗粒物(PM2.5),189,151,114,142,109,35,,25,25,52,49,13,3,1.4,1.1
2025-01-23T1100,1131A,126.979,45.5419,哈尔滨市,阿城会宁,细颗粒物(PM2.5),201,174,141,151,144,59,,42,42,28,32,18,12,1.0,1
2025-01-23T1100,1132A,126.599,45.7222,哈尔滨市,南岗学府路,细颗粒物(PM2.5),166,166,129,126,98,35,,34,32,55,46,9,5,1.1,0.8
2025-01-23T1100,1133A,126.689,45.7733,哈尔滨市,太平宏伟公园,细颗粒物(PM2.5),219,238,151,169,122,8,,4,4,91,64,9,10,2.2,1.3
2025-01-23T1100,1134A,126.635,45.7667,哈尔滨市,道外承德广场,细颗粒物(PM2.5),140,168,141,107,104,36,,20,16,45,51,8,7,1.3,1
2025-01-23T1100,1135A,126.685,45.7319,哈尔滨市,香坊红旗大街,细颗粒物(PM2.5),361,361,153,311,136,22,,14,14,91,59,43,12,3.0,1.3
2025-01-23T1100,1136A,126.6411,45.7258,哈尔滨市,动力和平路,细颗粒物(PM2.5),125,133,110,95,99,39,,25,24,37,39,5,4,1.0,0.9
2025-01-23T1100,1137A,126.593,45.7478,哈尔滨市,道里建国路,细颗粒物(PM2.5),230,208,119,180,114,25,,14,12,57,49,23,11,2.0,1.2
2025-01-23T1100,1138A,126.615,45.61,哈尔滨市,平房东轻厂,细颗粒物(PM2.5),189,171,118,142,103,34,,16,16,50,64,14,12,1.1,0.9
2025-01-23T1100,1139A,126.595,45.9855,哈尔滨市,呼兰师专,细颗粒物(PM2.5),178,171,169,134,151,,,20,20,35,51,16,17,1.2,1.2
2025-01-23T1100,1140A,126.6206,45.6842,哈尔滨市,省农科院,细颗粒物(PM2.5),231,194,138,181,120,27,,14,14,66,64,16,11,1.6,1.2
2025-01-23T1100,2688A,93.5128,42.8172,哈密市,地区监测站,颗粒物(PM10),109,167,112,54,42,26,,30,22,53,39,3,8,1.7,0.8
2025-01-23T1100,2689A,93.4961,42.8328,哈密市,哈密师范学校,颗粒物(PM10),84,118,89,49,43,18,,13,10,58,47,11,10,1.7,0.8
2025-01-23T1100,2671A,100.9048,36.9639,海北藏族自治州,海晏县西海镇,,33,32,32,23,18,60,,54,54,9,7,16,15,0.6,0.5
2025-01-23T1100,3867A,102.0738,36.5056,海东市,平安区公安北苑,细颗粒物(PM2.5),108,111,70,81,70,20,,31,27,66,38,37,31,3.0,1.4
2025-01-23T1100,1409A,110.576,19.9507,海口市,东寨港,,45,45,51,17,25,72,,101,88,7,6,10,13,0.4,0.4
2025-01-23T1100,1410A,110.3232,20.0574,海口市,海南大学,颗粒物(PM10),56,62,68,35,32,89,,116,103,12,12,4,5,0.5,0.5
2025-01-23T1100,1411A,110.283,20.0053,海口市,秀英海南医院,,43,41,62,30,30,87,,116,104,14,11,3,3,0.5,0.5
2025-01-23T1100,1412A,110.338,19.9969,海口市,海南师范大学,,46,46,64,30,30,90,,118,106,10,9,5,5,0.5,0.5
2025-01-23T1100,1413A,110.33,20.0356,海口市,龙华路环保局宿舍,,48,47,60,33,32,90,,117,104,13,11,5,5,0.5,0.5
2025-01-23T1100,3539A,110.5111,19.9736,海口市,桂林洋子站,颗粒物(PM10),53,55,65,33,33,83,,114,100,9,7,5,5,0.4,0.4
2025-01-23T1100,2673A,100.6188,36.2866,海南藏族自治州,共和县恰卜恰镇,颗粒物(PM10),74,98,46,46,24,24,,40,28,38,21,28,15,1.2,0.6
2025-01-23T1100,2676A,97.3731,37.3753,海西蒙古族藏族自治州,德令哈市,,34,34,31,8,12,70,,68,68,2,6,18,17,0.4,0.4
2025-01-23T1100,1048A,114.5302,36.6116,邯郸市,东污水处理厂,细颗粒物(PM2.5),89,83,57,66,39,28,,26,24,39,28,10,6,0.9,0.6
2025-01-23T1100,1049A,114.4918,36.5713,邯郸市,矿院,细颗粒物(PM2.5),79,73,55,58,33,39,,27,27,25,20,8,4,0.9,0.6
2025-01-23T1100,1050A,114.484,36.6133,邯郸市,丛台公园,细颗粒物(PM2.5),84,80,65,62,37,34,,27,27,36,30,8,5,0.9,0.6
2025-01-23T1100,3458A,114.7895,36.5593,邯郸市,香泉濮院小区,细颗粒物(PM2.5),63,72,71,45,40,56,,28,28,19,30,8,7,0.6,0.6
2025-01-23T1100,3579A,114.50634,36.77178,邯郸市,永年区实验高中,细颗粒物(PM2.5),69,85,72,50,38,35,,14,14,31,38,12,8,0.9,0.8
2025-01-23T1100,3580A,114.20016,36.44293,邯郸市,峰峰矿区临水派出所,细颗粒物(PM2.5),74,79,56,54,34,38,,44,36,32,20,16,12,1.4,0.9
2025-01-23T1100,2634A,106.9893,33.1842,汉中市,汉川机床厂子校,细颗粒物(PM2.5),249,,155,199,161,10,,8,8,26,30,6,7,2.1,2
2025-01-23T1100,2635A,107.0154,33.0706,汉中市,市监测站,细颗粒物(PM2.5),269,226,205,219,189,12,,13,11,48,62,7,8,3.2,2.9
2025-01-23T1100,2636A,107.0089,33.1138,汉中市,鑫源开发区,细颗粒物(PM2.5),269,,192,219,195,10,,13,12,42,44,6,7,2.2,2
2025-01-23T1100,2637A,107.007,33.0323,汉中市,南郑大河坎水厂,细颗粒物(PM2.5),267,228,225,217,206,14,,12,12,37,49,7,7,2.3,2.1
2025-01-23T1100,1223A,120.2072,30.2111,杭州市,滨江,,,89,100,54,69,,,15,15,42,59,8,7,0.8,0.9
2025-01-23T1100,1224A,120.0633,30.2747,杭州市,西溪,细颗粒物(PM2.5),79,79,90,58,70,45,,12,12,40,41,8,7,0.6,0.8
2025-01-23T1100,1226A,120.3461,30.3153,杭州市,下沙,细颗粒物(PM2.5),72,56,55,52,49,38,,11,11,27,52,9,8,0.6,0.6
2025-01-23T1100,1227A,120.1269,30.2456,杭州市,卧龙桥,细颗粒物(PM2.5),79,72,80,58,71,52,,21,21,38,45,8,6,0.6,0.7
2025-01-23T1100,1228A,120.1903,30.2692,杭州市,浙江农大,细颗粒物(PM2.5),74,78,105,54,79,36,,13,13,42,60,8,7,0.5,0.8
2025-01-23T1100,1230A,120.1197,30.3119,杭州市,和睦小学,细颗粒物(PM2.5),80,90,105,59,81,46,,17,17,41,67,8,7,0.6,0.9
2025-01-23T1100,1231A,120.3019,30.4183,杭州市,临平镇,,,90,78,61,50,,,13,13,34,43,8,7,,0.8
2025-01-23T1100,1232A,120.2697,30.1819,杭州市,城厢镇,细颗粒物(PM2.5),100,106,113,75,85,45,,16,16,43,62,7,6,1.0,1.2
2025-01-23T1100,1233A,120.0883,30.1808,杭州市,云栖,细颗粒物(PM2.5),89,93,82,66,61,47,,13,13,48,37,7,6,0.8,0.7
2025-01-23T1100,3557A,119.9464,30.0494,杭州市,镇二中,细颗粒物(PM2.5),119,,82,90,86,54,,19,19,40,56,8,7,1.0,1.2
2025-01-23T1100,3558A,119.7183,30.2367,杭州市,市府大楼,细颗粒物(PM2.5),119,96,112,90,100,69,,39,39,32,43,10,9,0.9,1
2025-01-23T1100,3656A,120.1556,30.2864,杭州市,消防大队,细颗粒物(PM2.5),80,80,107,59,79,49,,19,19,38,61,11,10,0.6,0.8
2025-01-23T1100,1270A,117.1959,31.7848,合肥市,明珠广场,细颗粒物(PM2.5),107,114,197,80,165,16,,13,13,48,65,8,12,0.9,1.1
2025-01-23T1100,1271A,117.3072,31.8764,合肥市,三里街,细颗粒物(PM2.5),89,78,180,66,145,18,,19,19,29,57,3,8,0.7,1
2025-01-23T1100,1272A,117.2588,31.8707,合肥市,琥珀山庄,细颗粒物(PM2.5),132,,190,100,150,21,,24,22,34,62,5,9,0.8,1.1
2025-01-23T1100,1273A,117.1604,31.9052,合肥市,董铺水库,细颗粒物(PM2.5),64,66,211,46,153,28,,21,21,25,52,3,7,0.6,0.9
2025-01-23T1100,1274A,117.25,31.8571,合肥市,长江中路,细颗粒物(PM2.5),95,85,194,71,163,24,,22,22,33,62,6,10,0.8,1.1
2025-01-23T1100,1275A,117.266,31.9436,合肥市,庐阳区,细颗粒物(PM2.5),94,80,183,70,144,31,,26,26,20,47,3,7,0.6,0.9
2025-01-23T1100,1276A,117.336,31.8586,合肥市,瑶海区,细颗粒物(PM2.5),83,70,172,61,143,23,,21,21,21,59,5,9,0.5,0.9
2025-01-23T1100,1277A,117.3027,31.7964,合肥市,包河区,细颗粒物(PM2.5),89,85,176,66,146,19,,11,11,33,77,3,8,0.8,1.1
2025-01-23T1100,1278A,117.2776,31.7385,合肥市,滨湖新区,细颗粒物(PM2.5),83,102,201,61,139,25,,23,23,38,69,4,9,0.7,1
2025-01-23T1100,1279A,117.1318,31.8403,合肥市,高新区,细颗粒物(PM2.5),87,75,195,64,163,25,,27,21,28,56,5,12,0.9,1.3
2025-01-23T1100,3464A,117.3803,31.9147,合肥市,高教基地,细颗粒物(PM2.5),89,,160,66,127,32,,32,32,20,44,6,10,0.5,0.8
2025-01-23T1100,3614A,79.924,37.0877,和田地区,地区环保局,颗粒物(PM10),95,140,133,55,59,57,,53,53,5,24,1,8,0.3,0.8
2025-01-23T1100,3615A,79.9131,37.113,和田地区,市环保局,颗粒物(PM10),128,205,135,76,57,14,,20,19,80,40,23,12,5.7,2.2
2025-01-23T1100,2516A,108.2011,24.715,河池市,东仁乐园,颗粒物(PM10),154,257,150,116,103,28,,25,25,62,56,9,10,1.4,1.2
2025-01-23T1100,2517A,108.0497,24.6947,河池市,市环保站,细颗粒物(PM2.5),125,136,106,95,88,15,,32,29,61,39,14,11,1.3,1.1
2025-01-23T1100,2518A,108.0983,24.6989,河池市,市疾控中心,细颗粒物(PM2.5),148,136,125,113,97,10,,11,8,,52,8,7,1.3,1.1
2025-01-23T1100,1696A,114.6778,23.7569,河源市,源西,,43,43,33,28,24,51,,35,35,22,24,5,5,0.5,0.5
2025-01-23T1100,1697A,114.6944,23.7586,河源市,东埔,,45,45,41,30,28,62,,36,36,25,29,4,3,0.6,0.6
2025-01-23T1100,1698A,114.6892,23.7233,河源市,老城,,50,,36,35,28,61,,28,28,18,22,4,3,0.6,0.6
2025-01-23T1100,1718A,115.4208,35.2464,菏泽市,气象局,细颗粒物(PM2.5),94,104,119,70,73,24,,34,29,37,34,11,12,0.8,0.7
2025-01-23T1100,3374A,115.5564,35.0891,菏泽市,定陶老年大学,细颗粒物(PM2.5),92,97,111,68,72,27,,27,24,36,38,19,19,0.7,0.7
2025-01-23T1100,4184A,115.4797,35.24401,菏泽市,永昌路1号,细颗粒物(PM2.5),103,117,117,77,72,25,,35,30,39,33,14,13,0.8,0.6
2025-01-23T1100,4193A,115.4715,35.2800,菏泽市,长城路999号,,,,109,,62,,,30,27,,33,7,10,1.2,1.1
2025-01-23T1100,2514A,111.5264,24.4172,贺州市,环保小区,细颗粒物(PM2.5),79,74,79,58,57,68,,63,52,38,30,8,8,1.1,1
2025-01-23T1100,2515A,111.5608,24.4078,贺州市,政协大楼,颗粒物(PM10),58,66,71,40,43,79,,70,57,26,23,7,8,0.8,0.8
2025-01-23T1100,3534A,111.4744,24.4553,贺州市,西湾,细颗粒物(PM2.5),89,84,88,66,62,68,,47,47,33,36,8,8,0.8,0.8
2025-01-23T1100,2385A,114.17,35.9019,鹤壁市,市监测站,细颗粒物(PM2.5),67,77,75,48,44,52,,38,36,15,16,14,10,1.2,1
2025-01-23T1100,2386A,114.2956,35.7511,鹤壁市,市交警支队,细颗粒物(PM2.5),68,81,77,49,39,49,,32,32,26,27,21,11,1.5,0.9
2025-01-23T1100,2387A,114.2878,35.7306,鹤壁市,迎宾馆,颗粒物(PM10),73,96,85,44,37,48,,32,31,33,33,15,7,1.5,1
2025-01-23T1100,3474A,114.2617,35.6822,鹤壁市,大新区,颗粒物(PM10),66,81,66,45,35,47,,37,36,29,27,17,12,1.2,0.7
2025-01-23T1100,3596A,114.1572,35.9603,鹤壁市,南山宾馆,,,,79,71,57,,,43,41,16,20,13,11,1.5,1.3
2025-01-23T1100,2244A,130.2537,47.3416,鹤岗市,哈啤分公司,,40,31,43,28,32,59,,40,40,6,16,17,17,0.6,0.8
2025-01-23T1100,2245A,130.2684,47.3086,鹤岗市,斯达机电,,33,27,49,23,35,55,,51,49,12,19,16,16,0.6,0.7
2025-01-23T1100,2246A,130.3114,47.3388,鹤岗市,东山纸板厂,,50,50,169,12,22,58,,28,28,9,44,16,17,0.5,2
2025-01-23T1100,2247A,130.1097,47.3382,鹤岗市,五号水库,,25,16,28,6,20,79,,69,69,7,9,8,7,0.4,0.4
2025-01-23T1100,2263A,127.4833,50.2524,黑河市,交通局,,25,25,45,9,31,34,,35,35,22,26,7,8,0.7,0.7
2025-01-23T1100,2264A,127.5144,50.2341,黑河市,环保局,,,,51,,40,25,,27,25,37,32,17,9,,0.8
2025-01-23T1100,2265A,127.5291,50.2472,黑河市,大黑河岛,,,,45,12,38,16,,7,7,31,15,2,2,,
2025-01-23T1100,1074A,115.6838,37.7541,衡水市,电机北厂,细颗粒物(PM2.5),70,76,60,51,35,17,,12,12,38,33,10,11,0.8,0.5
2025-01-23T1100,1075A,115.6303,37.7316,衡水市,市监测站,细颗粒物(PM2.5),68,70,45,49,28,18,,21,14,48,35,10,10,0.8,0.5
2025-01-23T1100,3188A,115.6683,37.7217,衡水市,市城管局,,,54,47,26,32,,,26,22,33,30,13,9,0.7,0.5
2025-01-23T1100,3459A,115.5989,37.5491,衡水市,地表水厂,细颗粒物(PM2.5),67,50,37,48,24,25,,26,23,32,25,9,7,0.7,0.4
2025-01-23T1100,2456A,112.5003,26.9167,衡阳市,原169医院,,,115,91,99,70,,,69,63,39,30,13,31,1.1,0.9
2025-01-23T1100,2457A,112.6194,26.9258,衡阳市,衡阳化工总厂,细颗粒物(PM2.5),210,180,127,160,105,56,,55,55,26,32,9,13,1.2,1.1
2025-01-23T1100,2458A,112.6211,26.8956,衡阳市,珠晖区环保局,细颗粒物(PM2.5),193,164,107,145,85,53,,52,49,32,42,11,11,1.4,1.4
2025-01-23T1100,2459A,112.6197,26.8733,衡阳市,市委党校,细颗粒物(PM2.5),204,,109,154,89,63,,78,62,27,28,12,14,1.2,1.1
2025-01-23T1100,2460A,112.6006,26.8919,衡阳市,市监测站,细颗粒物(PM2.5),206,180,129,156,102,,,54,54,30,34,12,13,1.5,1.3
2025-01-23T1100,2461A,112.5664,26.9056,衡阳市,真空机电公司,细颗粒物(PM2.5),173,185,132,131,93,50,,48,48,32,37,11,11,1.5,1.4
2025-01-23T1100,3399A,112.6703,26.882,衡阳市,师范学院,细颗粒物(PM2.5),168,176,108,127,85,60,,80,64,29,25,13,15,1.2,0.9
2025-01-23T1100,2608A,103.3772,23.3993,红河哈尼族彝族自治州,污水处理厂,细颗粒物(PM2.5),59,,61,42,53,94,,87,87,10,11,6,7,0.5,0.6
2025-01-23T1100,2609A,103.3861,23.35,红河哈尼族彝族自治州,监测站,,50,42,60,35,53,95,,97,96,6,8,8,8,0.6,0.6
2025-01-23T1100,3038A,103.3758,23.368,红河哈尼族彝族自治州,州图书馆,,48,37,51,33,48,87,,89,89,9,11,7,8,0.5,0.5
2025-01-23T1100,1090A,111.6507,40.7517,呼和浩特市,呼市一监,"颗粒物(PM10),细颗粒物(PM2.5)",60,70,108,43,76,46,,27,27,31,43,11,15,0.9,1
2025-01-23T1100,1091A,111.6572,40.8033,呼和浩特市,小召,细颗粒物(PM2.5),60,63,103,43,68,42,,18,18,45,58,12,18,1.1,1.1
2025-01-23T1100,1094A,111.7516,40.8369,呼和浩特市,如意水处理厂,,,90,72,55,43,,,5,5,61,56,15,14,1.5,1
2025-01-23T1100,1095A,111.7276,40.8062,呼和浩特市,二十九中,颗粒物(PM10),62,74,82,40,51,23,,18,18,46,50,4,7,0.9,0.9
2025-01-23T1100,1096A,111.5512,40.7866,呼和浩特市,工大金川校区,细颗粒物(PM2.5),100,112,74,75,45,16,,15,15,63,54,11,13,1.5,0.8
2025-01-23T1100,1097A,111.717,40.7612,呼和浩特市,化肥厂生活区,细颗粒物(PM2.5),64,73,103,46,67,47,,32,32,33,52,10,15,0.9,1.1
2025-01-23T1100,3698A,111.5968,40.8178,呼和浩特市,红旗小学,颗粒物(PM10),96,141,85,63,52,22,,12,12,69,58,13,14,1.7,1
2025-01-23T1100,3699A,111.6518,40.8389,呼和浩特市,海东办,细颗粒物(PM2.5),65,66,104,47,73,22,,7,7,54,58,7,11,1.2,1
2025-01-23T1100,2192A,119.7594,49.2261,呼伦贝尔市,区环保局,,38,30,41,26,38,46,,37,37,18,34,10,14,0.5,0.6
2025-01-23T1100,3061A,119.7512,49.1577,呼伦贝尔市,国华电力东,,29,29,44,19,36,47,,34,34,14,23,8,5,0.3,0.4
2025-01-23T1100,1250A,120.0751,30.8669,湖州市,城西水厂,细颗粒物(PM2.5),99,97,84,74,62,23,,12,12,51,55,9,9,0.4,0.5
2025-01-23T1100,2873A,120.0875,30.8955,湖州市,仁皇山新区,细颗粒物(PM2.5),85,85,72,63,54,25,,22,18,59,52,7,7,0.7,0.8
2025-01-23T1100,2907A,120.1844,30.8596,湖州市,吴兴区站,,,79,55,48,43,,,26,19,50,34,,6,0.4,0.4
2025-01-23T1100,3562A,120.4148,30.8538,湖州市,南浔区站,细颗粒物(PM2.5),78,91,48,57,33,18,,11,10,57,44,7,7,0.6,0.4
2025-01-23T1100,1607A,120.9092,40.7136,葫芦岛市,龙港区,细颗粒物(PM2.5),244,221,77,194,81,23,,16,15,79,48,404,42,1.8,1
2025-01-23T1100,1608A,120.8392,40.7514,葫芦岛市,化工街,细颗粒物(PM2.5),178,193,93,134,60,18,,9,9,61,46,43,26,2.3,1.4
2025-01-23T1100,1609A,120.8341,40.7073,葫芦岛市,新区,细颗粒物(PM2.5),211,170,83,161,74,18,,7,7,80,61,75,13,,1.8
2025-01-23T1100,1610A,120.8695,40.7677,葫芦岛市,东城区,细颗粒物(PM2.5),188,184,82,141,65,24,,12,12,59,44,30,36,1.3,0.8
2025-01-23T1100,2482A,109.5981,27.5721,怀化市,林科所,细颗粒物(PM2.5),156,127,125,119,89,75,,69,69,22,34,10,13,1.4,1.4
2025-01-23T1100,2483A,109.9453,27.5444,怀化市,河西地税局,细颗粒物(PM2.5),195,167,153,146,119,31,,30,30,53,48,8,7,1.3,1.2
2025-01-23T1100,2484A,109.9781,27.5342,怀化市,市四医院,细颗粒物(PM2.5),214,205,180,164,142,68,,63,63,27,50,8,11,2.0,2.3
2025-01-23T1100,2485A,109.9972,27.5578,怀化市,监测楼,细颗粒物(PM2.5),208,199,174,158,127,49,,38,38,34,51,5,9,1.5,1.7
2025-01-23T1100,2486A,110.0394,27.583,怀化市,市委党校,细颗粒物(PM2.5),192,188,166,144,129,69,,61,61,24,45,9,14,1.4,1.6
2025-01-23T1100,1210A,119.036,33.5981,淮安市,钵池山,,38,27,39,26,40,80,,59,58,12,18,7,7,0.5,0.6
2025-01-23T1100,1211A,119.007,33.575,淮安市,北京南路,,35,31,40,24,36,72,,59,55,15,18,8,8,0.6,0.6
2025-01-23T1100,1212A,118.989,33.6067,淮安市,市监测站,,35,29,39,24,38,78,,59,58,17,20,6,7,0.5,0.6
2025-01-23T1100,1213A,119.135,33.5039,淮安市,楚州区监测站,,,,42,22,34,,,58,55,12,18,7,7,,0.5
2025-01-23T1100,1214A,119.0186,33.6297,淮安市,淮阴区监测站,,40,29,49,28,44,80,,50,48,16,28,6,6,0.4,0.6
2025-01-23T1100,3426A,118.8755,33.2894,淮安市,新华书店,,45,38,45,31,35,70,,60,60,17,22,7,8,0.5,0.6
2025-01-23T1100,2282A,116.8004,33.975,淮北市,监测站,细颗粒物(PM2.5),80,88,108,59,73,51,,56,54,15,23,4,7,0.5,0.7
2025-01-23T1100,2283A,116.8091,33.9007,淮北市,烈山区政府,细颗粒物(PM2.5),73,68,77,53,61,62,,70,67,16,22,3,5,0.6,0.6
2025-01-23T1100,3330A,116.8873,33.9836,淮北市,杜集区检察院,细颗粒物(PM2.5),72,77,88,52,62,60,,67,62,11,15,2,4,0.7,0.7
2025-01-23T1100,4017A,116.7923,33.9535,淮北市,市博物馆,细颗粒物(PM2.5),72,75,92,52,66,58,,65,62,18,24,6,8,0.7,0.8
2025-01-23T1100,2277A,116.8305,32.7727,淮南市,潘集区政府,细颗粒物(PM2.5),98,96,158,73,130,37,,34,34,19,38,8,11,0.5,0.9
2025-01-23T1100,2279A,116.8569,32.5951,淮南市,谢家集区政府,细颗粒物(PM2.5),99,105,153,74,121,26,,34,29,20,41,5,10,0.5,0.9
2025-01-23T1100,2280A,116.8281,32.633,淮南市,八公山区政府,细颗粒物(PM2.5),94,98,162,70,127,37,,40,37,18,30,13,13,0.5,0.8
2025-01-23T1100,2281A,116.6325,32.6201,淮南市,焦岗湖风景区管理处,细颗粒物(PM2.5),60,64,152,43,109,15,,18,18,27,29,7,8,0.2,0.6
2025-01-23T1100,2894A,117.0566,32.6531,淮南市,经济技术开发区消防队,颗粒物(PM10),111,171,155,66,112,49,,36,36,12,35,4,8,0.5,0.7
2025-01-23T1100,3329A,117.0108,32.5893,淮南市,山南新区,细颗粒物(PM2.5),84,85,132,62,107,47,,40,39,15,35,5,10,0.6,0.9
2025-01-23T1100,4209A,117.0031,32.6445,淮南市,国庆中路369号,细颗粒物(PM2.5),74,80,160,54,120,45,,32,32,18,44,8,18,0.5,0.8
2025-01-23T1100,2446A,114.9028,30.4742,黄冈市,职工中心,细颗粒物(PM2.5),257,256,174,207,141,57,,68,60,37,35,11,12,,0.8
2025-01-23T1100,2929A,114.8858,30.4519,黄冈市,红卫路,细颗粒物(PM2.5),254,248,176,204,142,55,,64,57,38,34,9,10,1.6,1.2
2025-01-23T1100,3398A,114.9136,30.4445,黄冈市,市林业局,细颗粒物(PM2.5),262,240,163,212,136,59,,68,61,37,30,11,13,1.2,1
2025-01-23T1100,2672A,102.0199,35.5102,黄南藏族自治州,同仁县隆务镇,细颗粒物(PM2.5),140,,60,107,37,42,,58,52,26,8,16,10,1.3,0.8
2025-01-23T1100,2295A,118.2903,29.6963,黄山市,延安路89号,细颗粒物(PM2.5),65,76,69,47,43,44,,15,15,19,20,5,5,0.6,0.6
2025-01-23T1100,2296A,118.327,29.7178,黄山市,黄山东路89号,,,,87,,49,,,45,,,29,,5,,0.6
2025-01-23T1100,2297A,118.1371,30.2756,黄山市,黄山区政府5号楼,细颗粒物(PM2.5),58,56,60,41,46,66,,26,26,10,15,8,8,0.8,0.8
2025-01-23T1100,2423A,115.0601,30.2313,黄石市,沈家营,细颗粒物(PM2.5),219,219,146,169,113,44,,22,22,67,57,12,13,1.2,1.2
2025-01-23T1100,2426A,114.8988,30.2019,黄石市,铁山,细颗粒物(PM2.5),185,141,161,139,131,109,,37,37,41,65,12,15,0.9,1.2
2025-01-23T1100,2427A,115.0307,30.2092,黄石市,团城山,细颗粒物(PM2.5),228,207,142,178,117,46,,31,27,70,52,12,15,1.2,1.2
2025-01-23T1100,3149A,115.0235,30.1578,黄石市,笔架山北路,细颗粒物(PM2.5),179,,130,135,114,115,,74,74,36,52,12,13,1.1,1.3
2025-01-23T1100,4185A,115.0780,30.21118,黄石市,磁湖东路29号,细颗粒物(PM2.5),231,218,185,181,140,37,,19,19,68,71,11,11,1.5,1.5
2025-01-23T1100,1392A,114.4183,23.0528,惠州市,河南岸金山湖子站,细颗粒物(PM2.5),52,40,43,36,34,53,,40,37,14,17,7,6,0.6,0.6
2025-01-23T1100,1393A,114.4053,23.0822,惠州市,下埔横江三路子站,,49,42,52,34,38,60,,41,41,19,21,6,5,0.7,0.7
2025-01-23T1100,1394A,114.4103,23.1142,惠州市,江北云山西路子站,,49,42,52,34,35,57,,35,35,20,23,6,6,1.0,0.9
2025-01-23T1100,1395A,114.4645,22.7833,惠州市,惠阳区承修路船湖子站,,42,37,46,29,30,38,,35,31,16,19,7,7,0.7,0.7
2025-01-23T1100,1396A,114.5317,22.7422,惠州市,大亚湾管委会子站,,40,36,42,28,26,41,,41,39,33,24,6,6,0.7,0.6
2025-01-23T1100,3314A,114.4338,22.8134,惠州市,惠阳秋长,,41,41,42,26,29,53,,41,41,15,22,10,12,0.7,0.8
2025-01-23T1100,3452A,114.6517,22.775,惠州市,大亚湾霞涌,,,27,26,22,23,57,,40,36,,14,4,5,0.2,0.2
2025-01-23T1100,2240A,130.9762,45.3001,鸡西市,环保局,细颗粒物(PM2.5),114,104,130,86,103,64,,59,58,20,28,8,9,0.8,1
2025-01-23T1100,2243A,130.9429,45.3039,鸡西市,第一中学,细颗粒物(PM2.5),103,92,116,77,98,73,,70,70,10,20,5,5,0.5,0.7
2025-01-23T1100,3707A,131.0207,45.3073,鸡西市,欧美日汽修厂,细颗粒物(PM2.5),123,112,160,93,139,73,,61,61,27,38,16,26,1.0,1.2
2025-01-23T1100,3709A,130.9967,45.3106,鸡西市,市政设施管理处,细颗粒物(PM2.5),117,102,148,88,118,70,,60,60,23,41,8,10,0.9,1
2025-01-23T1100,2367A,114.9754,27.0803,吉安市,红声器材厂,颗粒物(PM10),71,91,80,51,48,82,,67,66,23,24,17,13,0.5,0.6
2025-01-23T1100,2368A,114.9658,27.0999,吉安市,市森林工业局,细颗粒物(PM2.5),73,87,79,53,48,74,,81,71,25,19,20,15,0.6,0.6
2025-01-23T1100,2369A,114.99,27.1312,吉安市,市环境监测站,"颗粒物(PM10),细颗粒物(PM2.5)",68,85,73,49,48,93,,84,77,20,25,19,14,0.5,0.4
2025-01-23T1100,2370A,115.0093,27.0968,吉安市,青原区法院,细颗粒物(PM2.5),73,86,75,53,47,83,,84,77,35,33,19,14,0.6,0.6
2025-01-23T1100,1772A,126.54,43.8622,吉林市,哈达湾,细颗粒物(PM2.5),105,96,97,79,80,49,,36,36,45,43,11,11,1.4,1.2
2025-01-23T1100,1773A,126.5844,43.8358,吉林市,东局子,细颗粒物(PM2.5),108,96,90,81,74,44,,30,30,34,34,11,7,0.8,0.7
2025-01-23T1100,1774A,126.5052,43.8245,吉林市,电力学院,细颗粒物(PM2.5),104,94,90,78,83,37,,20,20,41,38,14,10,1.4,1.4
2025-01-23T1100,1775A,126.6133,43.8972,吉林市,江北,,,,115,,90,,,22,22,40,45,14,13,1.0,1.3
2025-01-23T1100,1776A,126.555,43.8306,吉林市,江南公园,细颗粒物(PM2.5),144,117,100,110,89,30,,17,17,54,45,9,7,2.5,1.3
2025-01-23T1100,1778A,126.7061,43.7133,吉林市,丰满,,,,,,,,,,,,,,,,
2025-01-23T1100,2868A,126.4739,43.953,吉林市,九站,细颗粒物(PM2.5),180,164,122,136,96,49,,20,20,54,53,15,18,1.5,1.4
2025-01-23T1100,1299A,116.9862,36.6114,济南市,科干所,细颗粒物(PM2.5),119,158,110,90,67,9,,6,5,77,59,23,16,1.8,1.1
2025-01-23T1100,1300A,116.9376,36.665,济南市,农科所,颗粒物(PM10),84,117,99,56,47,12,,9,8,53,52,15,18,1.1,0.9
2025-01-23T1100,1301A,117.1265,36.6734,济南市,开发区,细颗粒物(PM2.5),104,149,110,78,67,13,,8,8,55,49,14,17,1.5,1.1
2025-01-23T1100,1303A,117.0624,36.6868,济南市,省种子仓库,,,,110,,57,9,,7,7,53,45,,20,1.0,1.1
2025-01-23T1100,1304A,116.9489,36.6447,济南市,机床二厂,细颗粒物(PM2.5),110,134,106,83,60,15,,10,10,60,48,24,22,1.5,1.2
2025-01-23T1100,1305A,117.0495,36.663,济南市,市监测站,颗粒物(PM10),97,144,108,66,59,13,,9,9,61,54,22,21,1.5,1.1
2025-01-23T1100,1306A,116.7675,36.5484,济南市,长清党校,,,139,113,71,61,,,9,9,60,57,11,15,1.3,1.1
2025-01-23T1100,1616A,117.6795,36.229,济南市,技术学院,细颗粒物(PM2.5),113,107,152,85,119,45,,20,20,43,57,14,16,1.2,1.4
2025-01-23T1100,1961A,117.532,36.6868,济南市,东山小学,细颗粒物(PM2.5),160,188,129,122,75,21,,17,13,65,48,11,12,1.6,1.2
2025-01-23T1100,3059A,117.7161,36.2049,济南市,泰兴公司,,,,176,,125,51,,16,16,,54,,17,1.3,1.5
2025-01-23T1100,3064A,117.6867,36.2171,济南市,莱芜战役纪念馆,细颗粒物(PM2.5),110,122,162,83,118,45,,21,21,41,53,13,14,1.1,1.4
2025-01-23T1100,3494A,117.1673,36.9782,济南市,济阳区政府,细颗粒物(PM2.5),135,154,65,103,39,21,,15,12,40,26,25,15,1.3,0.7
2025-01-23T1100,3495A,117.1171,36.63,济南市,锦屏中学,细颗粒物(PM2.5),144,164,120,110,81,19,,14,14,62,49,9,12,1.3,0.9
2025-01-23T1100,3682A,116.9814,36.6819,济南市,济南四建,,,,,,,,,,,,,,,,
2025-01-23T1100,1653A,116.6251,35.4302,济宁市,火炬城,细颗粒物(PM2.5),92,101,140,68,99,32,,9,9,44,55,11,17,1.1,1.4
2025-01-23T1100,1655A,116.5491,35.4042,济宁市,电化厂,细颗粒物(PM2.5),128,155,171,97,100,16,,6,6,63,64,17,19,1.3,1.3
2025-01-23T1100,3500A,116.5814,35.3707,济宁市,北湖一中,细颗粒物(PM2.5),117,130,145,88,105,28,,8,8,82,79,10,13,2.0,2
2025-01-23T1100,3501A,116.8249,35.5593,济宁市,服务中心,颗粒物(PM10),82,114,169,54,105,55,,19,19,27,55,7,14,0.9,1.5
2025-01-23T1100,3678A,116.5907,35.4054,济宁市,市第七中学,,,,142,,111,,,44,,,57,,12,,1.6
2025-01-23T1100,2255A,130.2751,46.8028,佳木斯市,佳纺,细颗粒物(PM2.5),163,154,180,124,164,65,,39,39,29,57,16,13,1.2,1.7
2025-01-23T1100,2256A,130.3995,46.8307,佳木斯市,发电厂,细颗粒物(PM2.5),135,116,170,103,156,58,,30,30,31,61,11,12,1.0,1.6
2025-01-23T1100,2257A,130.3258,46.7975,佳木斯市,环保局,细颗粒物(PM2.5),145,116,153,111,141,54,,42,42,31,49,13,13,1.1,1.6
2025-01-23T1100,2258A,130.3648,46.8032,佳木斯市,十一中,细颗粒物(PM2.5),129,102,155,98,157,58,,30,30,30,75,11,11,1.0,1.7
2025-01-23T1100,2259A,130.3794,46.7588,佳木斯市,四丰,细颗粒物(PM2.5),112,102,125,84,89,71,,63,63,15,19,1,1,1.2,1.4
2025-01-23T1100,1252A,120.7436,30.778,嘉兴市,清河小学,,,54,38,28,21,,,11,4,51,38,3,4,1.0,0.5
2025-01-23T1100,1253A,120.726,30.7478,嘉兴市,嘉兴学院,细颗粒物(PM2.5),64,66,49,46,25,16,,10,8,46,33,7,7,0.8,0.7
2025-01-23T1100,2872A,120.7846,30.7525,嘉兴市,南湖区残联,细颗粒物(PM2.5),60,50,50,43,23,18,,13,11,52,40,8,8,0.7,0.6
2025-01-23T1100,3407A,120.6916,30.7739,嘉兴市,秀洲住建,,,74,33,39,23,15,,5,5,46,32,6,6,,0.3
2025-01-23T1100,1945A,98.2908,39.7711,嘉峪关市,气象局,颗粒物(PM10),67,83,79,31,31,49,,37,33,35,27,4,8,0.7,0.6
2025-01-23T1100,2884A,98.2672,39.7978,嘉峪关市,酒钢宾馆,颗粒物(PM10),70,90,91,29,31,41,,42,42,33,28,13,25,0.9,0.9
2025-01-23T1100,3248A,98.2643,39.7724,嘉峪关市,雄关区,颗粒物(PM10),52,54,68,27,28,45,,34,34,38,35,8,9,0.6,0.4
2025-01-23T1100,1383A,113.1064,22.6058,江门市,北街,细颗粒物(PM2.5),59,62,45,42,51,44,,51,46,30,32,3,3,0.8,0.8
2025-01-23T1100,1384A,113.0731,22.5835,江门市,西区,,46,37,52,32,45,48,,47,41,30,34,5,6,0.8,0.8
2025-01-23T1100,1385A,113.0219,22.5311,江门市,圭峰西,颗粒物(PM10),52,54,45,32,46,47,,47,42,30,34,4,3,0.6,0.6
2025-01-23T1100,1386A,113.0828,22.5947,江门市,东湖,,45,45,65,27,35,43,,39,36,24,28,5,6,0.5,0.6
2025-01-23T1100,3311A,113.1075,22.5647,江门市,江海富民,细颗粒物(PM2.5),55,50,68,39,47,45,,53,46,31,34,5,5,0.8,0.8
2025-01-23T1100,3449A,113.05,22.4667,江门市,新会银湖,细颗粒物(PM2.5),60,,44,43,61,38,,19,18,39,39,6,5,0.9,0.8
2025-01-23T1100,1828A,113.227,35.2125,焦作市,市环保局,细颗粒物(PM2.5),77,85,143,56,94,39,,23,22,31,46,13,25,0.7,0.9
2025-01-23T1100,1830A,113.1992,35.2590,焦作市,影视城,细颗粒物(PM2.5),78,99,134,57,95,38,,47,45,43,38,24,20,1.1,1.2
2025-01-23T1100,3169A,113.2725,35.2067,焦作市,太极体育中心,细颗粒物(PM2.5),78,77,129,57,79,32,,28,26,39,48,14,16,0.9,0.9
2025-01-23T1100,3335A,113.3137,35.2641,焦作市,马村街道办,细颗粒物(PM2.5),78,83,138,57,112,42,,25,25,36,50,16,20,0.9,1.2
2025-01-23T1100,3336A,113.2465,35.2373,焦作市,焦作技师学院,细颗粒物(PM2.5),73,83,144,53,88,43,,28,28,24,39,13,23,1.0,1.2
2025-01-23T1100,3477A,113.1656,35.2539,焦作市,中站许衡医院,细颗粒物(PM2.5),89,96,134,66,97,37,,35,35,40,47,24,22,1.2,1.4
2025-01-23T1100,3981A,113.2449,35.1803,焦作市,原李万街道办,细颗粒物(PM2.5),77,61,128,56,78,34,,30,29,32,40,16,14,0.8,0.9
2025-01-23T1100,1708A,116.3701,23.5345,揭阳市,新兴,细颗粒物(PM2.5),113,107,62,85,54,76,,38,38,24,25,6,5,1.0,0.9
2025-01-23T1100,1709A,116.3264,23.5443,揭阳市,西马,细颗粒物(PM2.5),104,85,69,78,65,77,,28,28,29,30,6,6,1.0,1
2025-01-23T1100,1710A,116.3611,23.5626,揭阳市,东兴,细颗粒物(PM2.5),94,112,70,70,50,85,,33,33,18,26,6,5,0.9,0.9
2025-01-23T1100,1711A,116.4151,23.5294,揭阳市,渔湖,颗粒物(PM10),76,102,61,52,37,81,,39,39,19,22,8,6,0.7,0.7
2025-01-23T1100,3320A,116.403,23.5699,揭阳市,曲溪,细颗粒物(PM2.5),82,86,62,60,44,80,,32,32,28,35,4,3,0.9,0.9
2025-01-23T1100,1944A,102.1692,38.5167,金昌市,天庆家园,细颗粒物(PM2.5),72,85,65,52,41,57,,66,53,22,17,33,49,1.0,0.9
2025-01-23T1100,4022A,102.1647,38.5371,金昌市,金川区人防中心,颗粒物(PM10),64,77,74,45,41,61,,68,59,16,16,34,25,0.9,1
2025-01-23T1100,4239A,102.1930,38.5319,金昌市,长春路96号,细颗粒物(PM2.5),55,52,54,39,38,65,,70,61,16,17,21,39,0.7,0.6
2025-01-23T1100,1262A,119.647,29.077,金华市,十五中,细颗粒物(PM2.5),90,100,81,67,48,67,,25,25,35,49,5,4,0.7,0.9
2025-01-23T1100,1263A,119.686,29.1029,金华市,监测站,细颗粒物(PM2.5),92,103,80,68,49,38,,10,10,56,56,6,5,0.7,0.7
2025-01-23T1100,3659A,119.656,29.1131,金华市,气象局,细颗粒物(PM2.5),99,113,90,74,55,36,,7,7,53,63,5,6,0.8,1
2025-01-23T1100,1767A,121.1115,41.0879,锦州市,南山,细颗粒物(PM2.5),156,128,69,119,68,,,18,18,51,42,59,18,1.5,1.5
2025-01-23T1100,1768A,121.0533,40.8434,锦州市,开发区,细颗粒物(PM2.5),196,199,101,147,70,28,,11,11,54,57,21,21,2.3,1.9
2025-01-23T1100,1769A,121.1836,41.1119,锦州市,百股街道,细颗粒物(PM2.5),192,190,83,144,75,36,,16,16,53,41,52,20,1.3,1.1
2025-01-23T1100,1770A,121.1178,41.1222,锦州市,天安街道,细颗粒物(PM2.5),182,137,85,137,69,35,,17,17,56,46,42,26,1.3,1
2025-01-23T1100,1771A,121.1303,41.1386,锦州市,北湖公园,细颗粒物(PM2.5),169,155,90,128,74,42,,24,24,47,44,42,23,1.2,0.9
2025-01-23T1100,2160A,112.85,35.5051,晋城市,自来水公司,细颗粒物(PM2.5),225,213,182,175,145,19,,9,9,59,57,22,23,2.7,1.9
2025-01-23T1100,2161A,112.8318,35.4936,晋城市,白云商贸,细颗粒物(PM2.5),203,201,188,153,125,25,,20,20,56,50,16,16,2.4,1.7
2025-01-23T1100,2162A,112.8508,35.4887,晋城市,市环保局,细颗粒物(PM2.5),221,203,201,171,141,23,,10,10,55,55,21,20,2.3,1.7
2025-01-23T1100,2163A,112.8676,35.4897,晋城市,技术学院,细颗粒物(PM2.5),238,227,192,188,148,23,,10,10,63,59,22,21,2.6,1.8
2025-01-23T1100,2165A,112.8453,35.546,晋城市,白马寺,,,,,,,,,,,,,,,,
2025-01-23T1100,3620A,112.8271,35.4828,晋城市,泽州一中,细颗粒物(PM2.5),211,175,165,161,132,27,,20,19,52,48,17,18,2.0,1.4
2025-01-23T1100,2173A,112.7249,37.7067,晋中市,南都小区,颗粒物(PM10),76,101,90,51,55,29,,33,27,53,46,13,14,1.1,0.8
2025-01-23T1100,2174A,112.6991,37.6982,晋中市,榆次区政府,颗粒物(PM10),84,117,95,55,48,31,,33,23,51,43,15,14,0.9,0.9
2025-01-23T1100,2865A,112.7195,37.6828,晋中市,榆次三中,颗粒物(PM10),80,110,101,56,57,29,,32,26,46,41,17,16,1.0,0.9
2025-01-23T1100,4200A,112.7478,37.6954,晋中市,榆次一中,,,105,93,63,55,31,,34,30,,41,,13,0.7,0.7
2025-01-23T1100,2439A,112.2014,31.0481,荆门市,竹园小学,细颗粒物(PM2.5),134,152,228,102,170,45,,67,55,23,30,6,10,1.0,1.2
2025-01-23T1100,2440A,112.1969,30.9891,荆门市,掇刀,细颗粒物(PM2.5),144,156,201,110,170,54,,80,68,25,30,13,16,0.9,1
2025-01-23T1100,2441A,112.2213,31.0386,荆门市,石化一小,细颗粒物(PM2.5),120,137,226,91,159,48,,67,56,22,29,9,12,0.9,1.1
2025-01-23T1100,3012A,112.1849,31.0362,荆门市,西山林语,细颗粒物(PM2.5),140,134,216,107,164,54,,77,64,20,27,1,6,0.9,1.2
2025-01-23T1100,3547A,112.1632,31.0138,荆门市,龙泉中学南校,细颗粒物(PM2.5),185,175,224,139,174,63,,82,72,21,25,11,17,1.0,1.2
2025-01-23T1100,1844A,112.2494,30.3197,荆州市,市图书馆,细颗粒物(PM2.5),240,,195,190,203,54,,61,55,32,39,6,11,1.4,1.5
2025-01-23T1100,1845A,112.2008,30.3544,荆州市,市委党校,细颗粒物(PM2.5),231,,221,181,205,56,,62,57,29,37,9,13,1.0,1.1
2025-01-23T1100,3194A,112.2747,30.3122,荆州市,管委会,细颗粒物(PM2.5),249,,230,199,217,72,,73,68,28,37,8,12,1.2,1.3
2025-01-23T1100,3548A,112.1655,30.3364,荆州市,学苑路,细颗粒物(PM2.5),214,183,217,164,209,62,,62,60,27,38,8,13,1.5,1.7
2025-01-23T1100,2342A,117.3102,29.3867,景德镇市,王港中学,,,,,,,,,,,,,,,,
2025-01-23T1100,2343A,117.2117,29.2933,景德镇市,老干部活动中心,颗粒物(PM10),53,56,56,32,38,60,,20,20,21,36,4,4,0.5,0.6
2025-01-23T1100,2344A,117.1894,29.2789,景德镇市,兽医站,颗粒物(PM10),56,61,67,24,34,58,,41,41,29,31,3,4,0.8,0.7
2025-01-23T1100,2345A,117.1547,29.2617,景德镇市,台达陶瓷,,43,43,56,26,34,68,,50,50,19,33,2,7,0.4,0.5
2025-01-23T1100,2346A,117.2461,29.2956,景德镇市,陶研所,,41,41,52,25,51,66,,21,21,19,32,4,5,0.6,0.7
2025-01-23T1100,1803A,115.9872,29.6815,九江市,十里,细颗粒物(PM2.5),198,193,122,148,88,94,,88,88,34,47,15,11,1.2,1.1
2025-01-23T1100,1804A,115.9584,29.7046,九江市,茅山头,细颗粒物(PM2.5),212,202,148,162,107,100,,80,80,37,59,4,5,1.3,1.3
2025-01-23T1100,1805A,115.9877,29.7295,九江市,西园,细颗粒物(PM2.5),216,180,126,166,103,79,,62,62,47,57,19,17,1.0,1.1
2025-01-23T1100,1808A,115.9114,29.6038,九江市,综合工业园,细颗粒物(PM2.5),229,192,111,179,100,95,,54,54,39,57,19,10,1.1,1
2025-01-23T1100,1809A,116.0721,29.7535,九江市,石化总厂,细颗粒物(PM2.5),215,219,138,165,107,85,,60,60,40,52,19,16,1.4,1.2
2025-01-23T1100,1810A,115.9773,29.5698,九江市,庐山气象台,,36,36,36,23,28,113,,124,122,10,10,7,8,1.2,1
2025-01-23T1100,3190A,116.0254,29.6994,九江市,外国语学校,,,,126,,93,,,89,86,,29,,17,,0.5
2025-01-23T1100,4253A,116.0102,29.6594,九江市,莲花大道8号,细颗粒物(PM2.5),228,202,119,178,97,86,,90,90,40,34,16,13,0.8,0.8
2025-01-23T1100,2658A,98.5061,39.7443,酒泉市,仓门街子站,颗粒物(PM10),90,129,95,35,35,35,,45,44,37,19,51,17,1.3,0.7
2025-01-23T1100,4240A,98.4958,39.7339,酒泉市,玉门东路5号,颗粒物(PM10),84,117,102,30,34,27,,39,38,41,22,28,12,1.0,0.7
2025-01-23T1100,2698A,76.0072,39.4467,喀什地区,巡警大队,颗粒物(PM10),121,191,164,87,81,7,,14,12,77,71,8,10,4.4,2.9
2025-01-23T1100,2699A,75.9755,39.4694,喀什地区,吾办,细颗粒物(PM2.5),150,154,158,115,102,8,,15,14,83,75,3,5,3.1,2.3
2025-01-23T1100,4027A,75.9483,39.4689,喀什地区,老干局,细颗粒物(PM2.5),182,238,215,137,96,8,,9,9,66,71,4,7,4.8,3.5
2025-01-23T1100,1824A,114.3389,34.7781,开封市,肿瘤医院,细颗粒物(PM2.5),64,66,86,46,55,45,,42,39,19,18,5,5,0.7,0.8
2025-01-23T1100,1826A,114.2885,34.7965,开封市,世纪星幼儿园,细颗粒物(PM2.5),67,64,86,48,60,43,,38,36,24,25,8,8,0.5,0.7
2025-01-23T1100,3147A,114.3438,34.8106,开封市,龙亭公园,细颗粒物(PM2.5),60,68,87,43,52,46,,36,35,23,25,7,7,0.3,0.3
2025-01-23T1100,3210A,114.3644,34.7964,开封市,汴京公园,细颗粒物(PM2.5),74,76,90,54,58,38,,40,36,30,24,8,8,0.8,0.8
2025-01-23T1100,3473A,114.2485,34.8306,开封市,技师学院,,,44,82,44,50,,,37,33,,27,,6,1.3,1
2025-01-23T1100,3592A,114.4644,34.7556,开封市,祥符区生态环境局,细颗粒物(PM2.5),98,99,107,73,68,29,,26,24,29,23,8,7,0.9,0.7
2025-01-23T1100,1951A,84.895,45.6094,克拉玛依市,长征新村,细颗粒物(PM2.5),105,108,117,79,85,52,,70,69,56,36,8,10,1.2,1
2025-01-23T1100,1952A,84.8988,45.5893,克拉玛依市,南林小区,细颗粒物(PM2.5),113,104,112,85,87,32,,69,65,45,18,5,5,1.5,1.2
2025-01-23T1100,1954A,84.905,44.3396,克拉玛依市,独山子区,,25,22,55,12,54,79,,94,84,16,26,4,4,0.3,0.6
2025-01-23T1100,1955A,85.6979,46.098,克拉玛依市,乌尔禾区商贸楼,细颗粒物(PM2.5),183,152,118,138,120,71,,81,81,42,28,5,5,1.5,1.3
2025-01-23T1100,3612A,85.1045,45.6899,克拉玛依市,白碱滩区新站,细颗粒物(PM2.5),129,124,124,98,95,46,,66,63,37,23,5,7,1.6,1.3
2025-01-23T1100,2697A,76.1454,39.7142,克孜勒苏柯尔克孜自治州,市人民政府,细颗粒物(PM2.5),83,101,101,61,58,61,,66,65,18,22,4,5,1.3,1.2
2025-01-23T1100,3665A,76.1658,39.7157,克孜勒苏柯尔克孜自治州,克州文化中心,,,,69,55,58,64,,68,68,24,28,10,11,1.0,0.9
2025-01-23T1100,1450A,102.8204,24.8886,昆明市,呈贡新区,,30,30,31,21,21,77,,54,54,8,18,4,5,0.5,0.5
2025-01-23T1100,1451A,102.6251,24.9608,昆明市,西山森林公园,,,,,,,,,,,,,,,,
2025-01-23T1100,1452A,102.7252,25.0902,昆明市,龙泉镇,,,,40,,27,,,11,11,22,29,8,7,0.9,1
2025-01-23T1100,1453A,102.7266,25.0375,昆明市,东风东路,,36,36,36,24,26,68,,30,20,16,23,8,7,0.5,0.5
2025-01-23T1100,1454A,102.6742,25.0669,昆明市,金鼎山,,34,34,41,15,29,67,,18,18,13,30,8,9,0.5,0.7
2025-01-23T1100,1455A,102.6644,25.0401,昆明市,碧鸡广场,,37,37,42,22,29,66,,28,28,14,32,7,6,0.5,0.5
2025-01-23T1100,3179A,102.7494,25.0119,昆明市,官渡区博物馆,,29,29,36,19,23,74,,25,24,10,21,8,7,0.5,0.6
2025-01-23T1100,3375A,102.8017,24.8336,昆明市,青年创业园,,32,31,29,22,20,84,,54,54,5,22,6,6,0.5,0.5
2025-01-23T1100,3550A,102.7997,24.9786,昆明市,昆明学院,,38,37,37,26,24,76,,34,32,10,20,9,10,0.4,0.4
2025-01-23T1100,3551A,102.5967,24.6736,昆明市,晋宁区生态环境分局,,35,,31,24,19,76,,55,55,14,17,4,4,0.7,0.6
2025-01-23T1100,3552A,102.6678,24.9856,昆明市,云天化总部,,39,37,36,27,24,76,,30,30,10,18,8,7,0.6,0.5
2025-01-23T1100,1456A,91.1319,29.6514,拉萨市,八廓街,,40,40,27,23,15,42,,54,41,37,28,7,7,1.0,0.7
2025-01-23T1100,1457A,91.1221,29.6747,拉萨市,市环保局,颗粒物(PM10),62,73,34,38,20,40,,56,47,43,28,9,7,1.7,1.1
2025-01-23T1100,1458A,91.0874,29.6475,拉萨市,区监测站,,31,31,17,14,9,38,,80,63,47,18,8,6,1.0,0.5
2025-01-23T1100,1459A,91.1774,29.6541,拉萨市,西藏大学,,,35,26,9,10,50,,71,60,,15,,6,0.7,0.6
2025-01-23T1100,1460A,90.9798,29.6588,拉萨市,区辐射站,细颗粒物(PM2.5),63,71,32,45,19,48,,64,48,51,26,12,8,1.2,0.7
2025-01-23T1100,1461A,91.0834,29.6292,拉萨市,拉萨火车站,,21,15,14,7,7,66,,98,82,26,9,4,4,0.9,0.5
2025-01-23T1100,2520A,109.2203,23.7256,来宾市,来宾技工学校,细颗粒物(PM2.5),214,191,128,164,88,33,,15,15,60,39,136,29,1.6,1.2
2025-01-23T1100,3535A,109.1781,23.7297,来宾市,兴宾区政府,细颗粒物(PM2.5),193,,113,145,96,40,,58,49,37,20,10,9,1.4,1.1
2025-01-23T1100,4002A,109.2416,23.7461,来宾市,中南小学,细颗粒物(PM2.5),206,258,135,156,84,18,,5,5,76,53,133,26,1.6,1.2
2025-01-23T1100,1477A,104.1373,35.9454,兰州市,榆中兰大校区,,,,,,,,,,,,,,,,
2025-01-23T1100,1478A,103.8412,36.0726,兰州市,生物制品所,,,,114,,100,,,,,,124,,30,,2.0
2025-01-23T1100,1479A,103.831,36.0464,兰州市,铁路设计院,细颗粒物(PM2.5),128,129,119,97,82,,,5,5,84,95,42,25,3.9,2.2
2025-01-23T1100,3241A,103.7439,36.0842,兰州市,百合公园,细颗粒物(PM2.5),128,135,105,97,74,16,,12,11,83,75,31,25,2.1,1.7
2025-01-23T1100,3242A,103.9611,35.998,兰州市,和平,细颗粒物(PM2.5),129,140,100,98,72,,,45,31,69,46,32,24,,1.6
2025-01-23T1100,4236A,103.6293,36.0938,兰州市,庄浪东路808号,细颗粒物(PM2.5),115,142,107,87,73,18,,21,14,85,74,33,23,1.9,1.4
2025-01-23T1100,4237A,103.7251,36.1043,兰州市,安宁西路88号,细颗粒物(PM2.5),124,145,121,94,75,24,,5,5,68,76,43,34,1.6,1.4
2025-01-23T1100,3245A,103.6633,36.533,兰州新区,新区管委会,细颗粒物(PM2.5),105,98,81,79,60,38,,39,32,,25,24,23,1.3,1.1
2025-01-23T1100,3246A,103.6975,36.4789,兰州新区,舟曲中学,细颗粒物(PM2.5),100,114,110,75,68,28,,28,25,52,46,23,30,1.5,1.2
2025-01-23T1100,1067A,116.6708,39.5111,廊坊市,药材公司,细颗粒物(PM2.5),84,80,71,62,50,31,,11,8,44,40,7,8,0.7,0.7
2025-01-23T1100,1068A,116.7214,39.5589,廊坊市,开发区,细颗粒物(PM2.5),89,104,78,66,51,26,,11,7,44,47,6,7,0.8,0.9
2025-01-23T1100,1070A,116.7244,39.5269,廊坊市,北华航天学院,细颗粒物(PM2.5),80,87,70,59,45,31,,18,10,35,32,7,8,0.7,0.6
2025-01-23T1100,2919A,116.7022,39.5453,廊坊市,河北工业大学,细颗粒物(PM2.5),77,82,68,56,47,34,,15,9,39,41,9,11,0.6,0.7
2025-01-23T1100,2535A,103.7723,29.5462,乐山市,花湖湾,细颗粒物(PM2.5),215,186,202,165,180,15,,22,19,25,26,6,6,1.1,1.2
2025-01-23T1100,2536A,103.7627,29.5844,乐山市,牛耳桥,细颗粒物(PM2.5),217,180,193,167,177,,,7,6,36,35,6,6,1.2,1.1
2025-01-23T1100,2537A,103.7508,29.6006,乐山市,市第三水厂,细颗粒物(PM2.5),178,175,185,134,143,13,,9,9,40,39,4,4,1.3,1.4
2025-01-23T1100,2538A,103.7571,29.5664,乐山市,市监测站,细颗粒物(PM2.5),168,148,157,127,127,11,,19,14,31,30,5,5,1.1,1.2
2025-01-23T1100,3361A,103.7311,29.5628,乐山市,理工大学,细颗粒物(PM2.5),193,155,168,145,149,8,,13,11,32,32,9,10,1.4,1.4
2025-01-23T1100,2598A,100.2143,26.8576,丽江市,西南郊,,33,33,31,23,19,77,,78,78,2,4,4,5,0.6,0.6
2025-01-23T1100,2599A,100.2497,26.8802,丽江市,丽江古城,,23,20,29,12,21,71,,69,69,8,10,8,8,1.0,1
2025-01-23T1100,2600A,100.2203,26.8906,丽江市,市中心,,22,14,23,14,19,70,,69,68,8,10,9,8,0.6,0.6
2025-01-23T1100,1267A,119.914,28.4514,丽水市,监测站大楼,细颗粒物(PM2.5),55,50,66,39,51,59,,25,25,17,39,8,7,0.6,1.3
2025-01-23T1100,1268A,119.93,28.4586,丽水市,莲都小学,颗粒物(PM10),52,53,67,33,40,65,,25,25,17,42,8,8,0.7,1
2025-01-23T1100,1269A,119.879,28.4231,丽水市,余庄前,细颗粒物(PM2.5),67,59,51,48,37,67,,18,18,24,26,4,4,0.6,0.6
2025-01-23T1100,1173A,119.176,34.5885,连云港市,市环境监测站,细颗粒物(PM2.5),62,66,40,44,27,88,,62,62,8,13,7,7,0.7,0.5
2025-01-23T1100,3000A,119.3581,34.6972,连云港市,德源药业,颗粒物(PM10),57,63,39,39,25,84,,69,69,17,19,5,5,0.6,0.4
2025-01-23T1100,3007A,119.178,34.844,连云港市,新城一中,"颗粒物(PM10),细颗粒物(PM2.5)",54,57,62,38,40,61,,57,55,33,28,8,7,0.6,0.6
2025-01-23T1100,3008A,119.3608,34.7519,连云港市,胡沟管理处,细颗粒物(PM2.5),58,58,35,41,22,39,,52,47,61,29,13,6,0.8,0.7
2025-01-23T1100,3009A,119.1478,34.5911,连云港市,矿山设计院,细颗粒物(PM2.5),62,68,49,44,31,78,,51,51,12,19,10,7,0.7,0.6
2025-01-23T1100,3434A,119.2413,34.6539,连云港市,工贸学校,,50,47,40,35,30,95,,68,68,7,12,8,8,0.8,0.7
2025-01-23T1100,3664A,119.4172,34.7341,连云港市,连云街道,细颗粒物(PM2.5),63,67,44,45,29,78,,68,68,22,18,10,7,0.7,0.6
2025-01-23T1100,2571A,102.3431,27.8099,凉山彝族自治州,青龙寺,,45,45,43,21,17,52,,42,37,9,7,13,8,0.9,0.8
2025-01-23T1100,2572A,102.2721,27.8415,凉山彝族自治州,邛海宾馆,细颗粒物(PM2.5),64,56,50,46,38,47,,38,33,12,15,11,11,0.9,0.8
2025-01-23T1100,2573A,102.2625,27.898,凉山彝族自治州,西昌市政府,细颗粒物(PM2.5),79,63,47,58,38,35,,46,36,27,13,13,12,1.2,0.9
2025-01-23T1100,2574A,102.2685,27.8851,凉山彝族自治州,凉山州政府,细颗粒物(PM2.5),64,61,49,46,38,45,,39,35,20,14,12,12,1.0,0.8
2025-01-23T1100,2575A,102.237,27.8914,凉山彝族自治州,长安,细颗粒物(PM2.5),70,63,54,51,38,28,,35,23,34,21,12,13,1.0,1
2025-01-23T1100,2212A,123.2,41.1953,辽阳市,宏伟区,细颗粒物(PM2.5),85,86,89,63,70,49,,22,22,35,33,21,52,0.8,1
2025-01-23T1100,2213A,123.1683,41.2495,辽阳市,新华园,细颗粒物(PM2.5),70,77,100,51,75,38,,15,15,35,43,25,50,1.1,1.5
2025-01-23T1100,2214A,123.2354,41.2639,辽阳市,滨河路,细颗粒物(PM2.5),63,64,81,45,62,52,,20,20,23,37,10,8,0.7,0.9
2025-01-23T1100,2215A,123.149,41.2991,辽阳市,铁西工业园,颗粒物(PM10),82,113,128,55,98,41,,14,14,37,42,12,7,0.9,1.3
2025-01-23T1100,2227A,125.1358,42.8845,辽源市,环保局,细颗粒物(PM2.5),134,145,105,102,69,37,,13,13,39,35,18,15,1.6,1.5
2025-01-23T1100,3239A,125.0764,42.9078,辽源市,银鹰制药,细颗粒物(PM2.5),132,132,81,100,65,31,,11,11,37,31,12,7,1.5,1.4
2025-01-23T1100,1625A,115.9848,36.4372,聊城市,区政府,细颗粒物(PM2.5),117,139,75,88,43,24,,36,30,36,26,28,19,1.7,0.9
2025-01-23T1100,2878A,116.0072,36.4343,聊城市,聊大东校,细颗粒物(PM2.5),110,122,84,83,50,26,,26,22,38,35,29,16,1.8,1
2025-01-23T1100,3200A,115.9819,36.4978,聊城市,监控中心,细颗粒物(PM2.5),89,106,86,66,48,30,,26,24,32,33,17,16,1.0,0.9
2025-01-23T1100,3513A,116.0445,36.4361,聊城市,九州社区,细颗粒物(PM2.5),92,100,76,68,46,25,,30,24,36,32,20,16,1.0,0.7
2025-01-23T1100,4018A,116.0567,36.4608,聊城市,星美广场,细颗粒物(PM2.5),100,118,81,75,45,20,,22,18,34,31,26,20,1.0,0.7
2025-01-23T1100,2632A,94.3681,29.6376,林芝市,林芝监测站,,,,34,9,9,66,,71,69,4,2,6,6,0.3,0.2
2025-01-23T1100,2633A,94.3616,29.6616,林芝市,林芝人民医院,,20,16,26,10,8,64,,67,64,2,2,6,6,0.3,0.2
2025-01-23T1100,2603A,100.0781,23.8982,临沧市,市环保局,,36,36,37,16,26,39,,35,28,17,14,24,10,0.7,0.6
2025-01-23T1100,2604A,100.0894,23.8822,临沧市,市气象局,,49,48,40,34,31,44,,35,30,17,14,9,8,0.6,0.5
2025-01-23T1100,1733A,111.5531,36.0783,临汾市,临钢医院,细颗粒物(PM2.5),156,219,177,119,99,18,,11,7,58,54,45,29,2.3,1.7
2025-01-23T1100,1734A,111.5028,36.0714,临汾市,技工学校,细颗粒物(PM2.5),140,161,162,107,105,24,,8,8,,62,,32,2.3,1.9
2025-01-23T1100,1736A,111.5018,36.0855,临汾市,市委,细颗粒物(PM2.5),137,182,170,104,101,26,,10,10,50,59,42,31,1.6,1.2
2025-01-23T1100,3018A,111.505,36.1014,临汾市,唐尧大酒店,细颗粒物(PM2.5),140,162,158,107,101,23,,10,10,52,61,44,31,2.0,1.5
2025-01-23T1100,4244A,111.4879,36.0530,临汾市,启星学校,细颗粒物(PM2.5),152,191,165,116,110,14,,4,4,61,62,36,26,2.3,1.9
2025-01-23T1100,2667A,103.2069,35.5993,临夏回族自治州,环保局,颗粒物(PM10),107,164,147,47,44,11,,20,18,59,39,17,22,2.6,2.1
2025-01-23T1100,2668A,103.2417,35.6057,临夏回族自治州,建设大厦,颗粒物(PM10),101,152,135,48,53,23,,40,35,43,30,19,24,2.0,1.7
2025-01-23T1100,1618A,118.3429,35.0532,临沂市,沂河小区,细颗粒物(PM2.5),92,107,94,68,72,47,,46,41,30,26,13,13,1.0,0.9
2025-01-23T1100,1619A,118.295,35.0583,临沂市,鲁南制药厂,"颗粒物(PM10),细颗粒物(PM2.5)",80,110,86,59,63,44,,55,47,38,23,12,11,0.9,0.8
2025-01-23T1100,1620A,118.2794,34.9976,临沂市,新光毛纺厂,细颗粒物(PM2.5),82,85,78,60,60,52,,56,51,27,25,12,10,1.0,0.9
2025-01-23T1100,1621A,118.3956,35.0888,临沂市,河东保险公司,细颗粒物(PM2.5),93,100,91,69,65,48,,35,33,29,30,11,9,0.9,0.8
2025-01-23T1100,3370A,118.3564,35.0215,临沂市,十里堡居委,细颗粒物(PM2.5),98,102,85,73,61,46,,46,40,28,24,12,11,1.2,1
2025-01-23T1100,3496A,118.3604,35.1084,临沂市,南坊新区,细颗粒物(PM2.5),94,92,88,70,66,51,,42,39,32,32,8,8,0.9,0.9
2025-01-23T1100,3860A,118.3920,35.0300,临沂市,皇山花园小区,细颗粒物(PM2.5),89,100,84,66,58,46,,36,32,38,37,10,8,1.2,1
2025-01-23T1100,1870A,109.4856,24.3895,柳州市,柳东小学,细颗粒物(PM2.5),125,127,106,95,83,70,,67,61,42,33,26,17,1.2,1.1
2025-01-23T1100,1871A,109.4157,24.3277,柳州市,环保监测站,细颗粒物(PM2.5),172,171,132,130,89,39,,24,24,60,46,22,16,1.4,1.2
2025-01-23T1100,1872A,109.389,24.341,柳州市,河西水厂,细颗粒物(PM2.5),203,230,169,153,101,41,,22,22,53,50,17,15,1.5,1.3
2025-01-23T1100,1873A,109.4311,24.2921,柳州市,市四中,细颗粒物(PM2.5),115,150,122,87,78,30,,12,12,68,56,19,17,1.3,1.4
2025-01-23T1100,1874A,109.4006,24.3631,柳州市,市九中,细颗粒物(PM2.5),123,132,117,93,81,43,,36,35,53,40,14,12,1.4,1.2
2025-01-23T1100,1875A,109.4958,24.3134,柳州市,古亭山,细颗粒物(PM2.5),112,99,79,84,53,23,,36,25,84,42,37,22,1.3,1
2025-01-23T1100,3402A,109.5422,24.3996,柳州市,市二中,细颗粒物(PM2.5),172,,100,130,80,39,,12,12,65,46,18,12,1.4,1.1
2025-01-23T1100,2307A,116.5079,31.737,六安市,监测大楼,细颗粒物(PM2.5),242,,235,192,235,29,,51,36,34,38,6,11,1.1,1.3
2025-01-23T1100,2308A,116.4738,31.7643,六安市,皖西学院,细颗粒物(PM2.5),201,159,255,151,229,27,,43,29,33,44,4,11,0.9,1.3
2025-01-23T1100,2309A,116.4996,31.7905,六安市,朝阳厂,细颗粒物(PM2.5),175,,235,132,224,21,,47,30,30,45,2,8,0.7,1.2
2025-01-23T1100,2310A,116.5567,31.7886,六安市,开发区,细颗粒物(PM2.5),143,130,278,109,205,23,,40,28,29,50,4,9,0.9,1.4
2025-01-23T1100,2576A,104.8,26.5892,六盘水市,窑上,颗粒物(PM10),59,67,66,36,43,90,,84,84,15,16,5,4,0.8,0.9
2025-01-23T1100,2577A,104.83,26.5917,六盘水市,黄土坡,细颗粒物(PM2.5),79,70,61,58,52,77,,98,92,36,24,12,9,1.3,1.1
2025-01-23T1100,2578A,104.89,26.5939,六盘水市,水钢,细颗粒物(PM2.5),72,68,81,52,70,105,,110,109,15,15,7,7,0.7,0.8
2025-01-23T1100,2579A,104.8475,26.5894,六盘水市,民中,细颗粒物(PM2.5),73,,55,53,55,88,,98,95,23,18,10,9,1.0,1
2025-01-23T1100,2580A,104.9544,26.5506,六盘水市,双水,,48,48,63,33,49,112,,123,122,13,14,7,7,0.7,0.8
2025-01-23T1100,2335A,117.0189,25.1181,龙岩市,龙岩师专,,,,,,,,,,,,,,,,
2025-01-23T1100,2336A,117.0217,25.1033,龙岩市,龙岩市监测站,颗粒物(PM10),51,51,44,32,33,84,,66,57,21,28,8,6,0.7,0.7
2025-01-23T1100,2337A,117.0258,25.0661,龙岩市,闽西职业技术学院,颗粒物(PM10),51,51,51,32,29,78,,30,30,19,32,6,2,0.6,0.5
2025-01-23T1100,2338A,117.0196,25.0306,龙岩市,龙岩学院,,49,49,37,29,26,54,,36,36,34,20,4,2,0.6,0.5
2025-01-23T1100,2665A,105.0822,33.3261,陇南市,汉王镇固水子,,,,,,,,,,,,,,,,
2025-01-23T1100,2885A,104.9339,33.3826,陇南市,滨江中学,颗粒物(PM10),86,121,86,58,55,21,,17,17,46,44,24,20,1.6,1.7
2025-01-23T1100,3247A,104.955,33.371,陇南市,市总工会,,,115,72,74,52,23,,44,39,,26,22,10,1.4,0.8
2025-01-23T1100,2487A,111.9589,27.8901,娄底市,电视发射台,细颗粒物(PM2.5),186,,77,140,75,66,,85,75,24,18,9,11,1.1,1
2025-01-23T1100,2488A,111.9975,27.725,娄底市,市监测站,细颗粒物(PM2.5),186,197,148,140,115,59,,84,72,39,35,15,21,1.1,1.2
2025-01-23T1100,2489A,112.0194,27.7314,娄底市,市委党校,细颗粒物(PM2.5),209,203,153,159,112,55,,82,71,51,35,7,8,1.1,1
2025-01-23T1100,2490A,111.9561,27.7569,娄底市,涟钢,细颗粒物(PM2.5),228,223,151,178,117,63,,83,67,29,33,17,27,1.2,1.4
2025-01-23T1100,2491A,111.9892,27.7044,娄底市,市政府,细颗粒物(PM2.5),214,188,147,164,117,44,,48,47,46,43,12,17,1.0,1.3
2025-01-23T1100,1893A,105.4324,28.9634,泸州市,九狮山,,,,,,,,,,,,,,,,
2025-01-23T1100,1894A,105.4427,28.9063,泸州市,小市上码头,细颗粒物(PM2.5),166,162,172,126,139,27,,26,26,33,37,4,4,1.0,1.1
2025-01-23T1100,1895A,105.4241,28.8573,泸州市,兰田宪桥,细颗粒物(PM2.5),162,134,138,123,128,21,,25,24,36,29,3,3,1.2,1.1
2025-01-23T1100,1896A,105.4379,28.8833,泸州市,市环监站,细颗粒物(PM2.5),158,141,147,120,127,27,,34,31,30,34,6,6,0.9,1
2025-01-23T1100,3490A,105.3617,28.7703,泸州市,纳溪区环保局,细颗粒物(PM2.5),129,127,126,98,104,9,,18,15,34,33,4,5,1.2,1.2
2025-01-23T1100,2183A,111.1406,37.5211,吕梁市,环保局,颗粒物(PM10),103,155,152,66,67,30,,6,6,42,57,15,10,1.1,0.9
2025-01-23T1100,2185A,111.1297,37.5136,吕梁市,自来水公司,颗粒物(PM10),98,146,135,65,75,23,,8,8,46,56,21,16,1.2,1
2025-01-23T1100,2867A,111.1283,37.51,吕梁市,马茂庄小学,颗粒物(PM10),94,138,154,61,75,31,,8,8,42,60,23,20,1.2,1.1
2025-01-23T1100,1812A,112.3931,34.6516,洛阳市,市委党校,,,,138,,90,,,29,19,38,47,7,11,0.8,1.1
2025-01-23T1100,1815A,112.494,34.6886,洛阳市,河南林校,细颗粒物(PM2.5),77,77,121,56,111,24,,38,33,41,42,8,10,0.8,1
2025-01-23T1100,1816A,112.3844,34.623,洛阳市,开发区管委会,细颗粒物(PM2.5),80,82,157,59,126,35,,37,29,36,43,8,12,0.8,1.1
2025-01-23T1100,1817A,112.4267,34.6258,洛阳市,市委新办公区,细颗粒物(PM2.5),75,85,166,55,105,29,,32,25,39,48,8,11,0.6,1
2025-01-23T1100,3340A,112.6005,34.6326,洛阳市,伊滨,细颗粒物(PM2.5),100,109,158,75,98,24,,31,28,33,39,8,11,0.7,0.9
2025-01-23T1100,3341A,112.4951,34.6332,洛阳市,中移产业园,细颗粒物(PM2.5),74,73,121,54,92,24,,38,30,48,51,10,13,0.8,1.1
2025-01-23T1100,3593A,112.5736,34.8993,洛阳市,吉利监测站,细颗粒物(PM2.5),67,76,137,48,80,27,,36,28,43,42,9,12,0.8,1
2025-01-23T1100,3635A,112.3677,34.662,洛阳市,河科大西苑校区,颗粒物(PM10),73,96,145,46,92,31,,25,25,40,49,8,12,0.8,1.2
2025-01-23T1100,3636A,112.4388,34.6781,洛阳市,英才小学,细颗粒物(PM2.5),68,82,124,49,80,26,,30,25,46,48,13,15,0.7,1
2025-01-23T1100,4214A,112.4600,34.6949,洛阳市,春都路1号院,颗粒物(PM10),67,83,130,41,79,36,,42,38,46,55,10,12,1.0,1.3
2025-01-23T1100,2399A,114.051,33.5699,漯河市,三五一五工厂,细颗粒物(PM2.5),88,78,142,65,112,27,,37,33,25,28,4,9,0.6,0.7
2025-01-23T1100,2400A,114.0055,33.5698,漯河市,漯河大学,细颗粒物(PM2.5),89,75,136,66,95,28,,38,33,26,28,6,11,0.7,0.9
2025-01-23T1100,2401A,114.0138,33.5828,漯河市,市水利局,细颗粒物(PM2.5),85,80,144,63,97,26,,35,32,23,25,3,9,0.6,0.8
2025-01-23T1100,2402A,114.0261,33.5698,漯河市,市广电局,细颗粒物(PM2.5),89,78,141,66,96,26,,35,32,23,25,6,12,0.7,0.8
2025-01-23T1100,3478A,113.9749,33.5664,漯河市,市图书馆,,,,151,,106,31,,36,33,23,32,3,9,1.0,0.9
2025-01-23T1100,3479A,114.0967,33.5906,漯河市,召陵区卫健委,细颗粒物(PM2.5),89,97,151,66,108,22,,31,27,22,24,2,7,0.7,0.8
2025-01-23T1100,1798A,118.5092,31.6837,马鞍山市,湖东路四小,细颗粒物(PM2.5),98,94,146,73,94,24,,10,10,37,79,2,10,0.9,1.3
2025-01-23T1100,1799A,118.5024,31.6449,马鞍山市,开发区,细颗粒物(PM2.5),119,102,149,90,113,22,,8,8,34,67,6,10,0.8,1.1
2025-01-23T1100,1802A,118.6245,31.7241,马鞍山市,濮塘,细颗粒物(PM2.5),95,,110,71,90,28,,38,15,34,47,4,6,0.8,0.7
2025-01-23T1100,3633A,118.4918,31.6809,马鞍山市,雨山,细颗粒物(PM2.5),108,92,152,81,107,23,,7,7,33,70,4,10,1.2,1.4
2025-01-23T1100,4191A,118.5274,31.72227,马鞍山市,慈湖高新区,,,92,130,51,85,,,6,6,27,59,6,11,1.0,1.2
2025-01-23T1100,1686A,111.0286,21.4688,茂名市,电白南海,,48,48,59,29,30,89,,90,87,13,17,6,7,0.5,0.5
2025-01-23T1100,1687A,110.9294,21.6533,茂名市,茂石化七小,,36,36,56,14,23,82,,76,73,13,15,7,9,0.5,0.6
2025-01-23T1100,1688A,110.9107,21.6687,茂名市,健康路,,34,34,51,22,31,84,,80,77,15,16,7,8,0.8,0.8
2025-01-23T1100,1689A,110.8592,21.6828,茂名市,高岭,颗粒物(PM10),51,51,63,24,30,80,,77,71,19,18,8,9,0.8,0.7
2025-01-23T1100,3450A,111.01,21.5165,茂名市,电白水东,,36,36,53,17,28,84,,80,78,9,12,6,11,0.6,0.7
2025-01-23T1100,2539A,104.0308,30.0478,眉山市,黑龙滩水库,细颗粒物(PM2.5),152,131,145,116,128,22,,25,24,14,14,1,2,0.9,0.9
2025-01-23T1100,2540A,103.8416,30.0874,眉山市,气象局,细颗粒物(PM2.5),233,226,218,183,171,7,,5,5,34,39,6,6,1.4,1.4
2025-01-23T1100,3137A,103.8578,30.0744,眉山市,市委党校,细颗粒物(PM2.5),201,180,194,151,169,6,,5,5,36,43,7,7,1.3,1.3
2025-01-23T1100,3148A,103.8291,30.0564,眉山市,区人社局,细颗粒物(PM2.5),221,,157,171,174,6,,6,5,47,51,8,9,1.7,1.4
2025-01-23T1100,1690A,116.1231,24.3284,梅州市,梅江月梅,,44,44,39,30,30,78,,36,36,13,21,9,8,0.9,0.9
2025-01-23T1100,1691A,116.0797,24.2719,梅州市,梅县新城,颗粒物(PM10),54,58,59,34,42,72,,19,19,20,38,8,4,0.7,0.8
2025-01-23T1100,1692A,116.1248,24.2654,梅州市,环境监控中心,,43,39,51,30,42,81,,28,28,12,31,8,10,0.5,0.7
2025-01-23T1100,3315A,116.1233,24.2991,梅州市,梅龙,,49,36,43,34,32,67,,34,34,16,28,8,8,0.7,0.8
2025-01-23T1100,1878A,104.7778,31.4741,绵阳市,富乐山,细颗粒物(PM2.5),158,145,135,120,108,5,,3,3,27,37,3,3,1.5,1.5
2025-01-23T1100,1880A,104.6697,31.4668,绵阳市,高新区自来水公司,细颗粒物(PM2.5),163,168,166,124,107,3,,2,2,40,45,8,7,1.6,1.3
2025-01-23T1100,1881A,104.7287,31.5075,绵阳市,三水厂,细颗粒物(PM2.5),199,182,164,149,128,4,,3,3,30,39,4,4,1.3,1.5
2025-01-23T1100,3491A,104.69,31.5322,绵阳市,西科大附属小学,细颗粒物(PM2.5),180,164,155,136,119,8,,7,7,23,35,6,6,1.2,1.1
2025-01-23T1100,3492A,104.5648,31.5343,绵阳市,安州区旅游局,细颗粒物(PM2.5),170,146,138,129,118,6,,6,6,27,34,10,10,1.5,1.3
2025-01-23T1100,4226A,104.7651,31.4531,绵阳市,绵阳市气象局,细颗粒物(PM2.5),186,165,156,140,107,4,,2,2,,43,,3,1.3,1.2
2025-01-23T1100,1784A,129.61,44.561,牡丹江市,环保大楼,细颗粒物(PM2.5),104,78,103,78,81,47,,31,31,36,44,14,10,0.8,0.9
2025-01-23T1100,1785A,129.6115,44.5782,牡丹江市,文化广场,细颗粒物(PM2.5),92,88,114,68,88,55,,34,34,30,40,15,11,0.9,1
2025-01-23T1100,1786A,129.5904,44.5963,牡丹江市,第一医院,细颗粒物(PM2.5),80,85,102,59,92,51,,35,34,29,38,13,11,0.8,0.9
2025-01-23T1100,1787A,129.6364,44.6075,牡丹江市,机车工厂,细颗粒物(PM2.5),78,84,129,57,85,49,,24,24,33,40,14,11,1.1,1.3
2025-01-23T1100,1788A,129.6386,44.5462,牡丹江市,第一中学,细颗粒物(PM2.5),108,103,100,81,83,49,,33,30,27,36,11,9,1.0,1.1
2025-01-23T1100,2531A,105.0703,29.61,内江市,市监测站,细颗粒物(PM2.5),216,,157,166,175,5,,4,4,21,34,7,7,0.9,1.3
2025-01-23T1100,2532A,105.0717,29.5947,内江市,东兴区政府,,,,155,,165,,,7,7,24,33,,5,1.6,1.6
2025-01-23T1100,2533A,105.0653,29.5817,内江市,内江二中,细颗粒物(PM2.5),214,170,180,164,174,8,,6,6,26,37,10,10,1.4,1.5
2025-01-23T1100,2534A,105.0406,29.5822,内江市,内江日报社,细颗粒物(PM2.5),221,,168,171,174,5,,5,4,21,36,10,10,1.3,1.3
2025-01-23T1100,2628A,92.0657,31.4846,那曲市,那曲监测站,细颗粒物(PM2.5),84,79,42,62,34,29,,28,28,12,11,15,11,1.1,1.2
2025-01-23T1100,3128A,92.0506,31.4797,那曲市,那曲会议中心,颗粒物(PM10),61,71,33,37,15,34,,32,29,16,11,8,4,1.3,1
2025-01-23T1100,1290A,115.8931,28.6843,南昌市,省外办,细颗粒物(PM2.5),134,131,110,102,76,58,,47,47,43,48,,11,,1
2025-01-23T1100,1291A,115.8886,28.7003,南昌市,省林业公司,细颗粒物(PM2.5),138,136,99,105,66,78,,54,53,43,53,15,12,0.9,0.7
2025-01-23T1100,1292A,115.8126,28.7442,南昌市,林科所,细颗粒物(PM2.5),117,117,76,88,50,95,,47,47,46,64,10,7,2.2,1.9
2025-01-23T1100,1294A,115.8518,28.687,南昌市,建工学校,细颗粒物(PM2.5),140,160,103,107,65,79,,64,63,54,53,18,15,1.4,1.2
2025-01-23T1100,1295A,115.8921,28.6424,南昌市,象湖,细颗粒物(PM2.5),119,120,108,90,67,77,,62,62,48,58,14,11,1.3,1.2
2025-01-23T1100,1296A,115.7423,28.7996,南昌市,武术学校,颗粒物(PM10),66,81,40,45,31,68,,24,24,33,21,7,4,0.8,0.5
2025-01-23T1100,3046A,115.9084,28.6062,南昌市,机电学校,细颗粒物(PM2.5),104,115,110,78,63,76,,49,49,37,54,15,13,1.1,0.9
2025-01-23T1100,3690A,115.9721,28.7031,南昌市,外国语学校,细颗粒物(PM2.5),132,134,100,100,63,88,,56,56,27,41,13,10,0.8,0.7
2025-01-23T1100,4192A,115.9316,28.68677,南昌市,南京东路235号,细颗粒物(PM2.5),123,140,105,93,69,78,,52,52,43,51,10,9,0.9,0.8
2025-01-23T1100,1905A,106.056,30.8064,南充市,西山风景区,细颗粒物(PM2.5),178,,129,134,128,0,,8,1,25,25,1,2,1.7,1.4
2025-01-23T1100,1906A,106.0789,30.8023,南充市,南充市委,细颗粒物(PM2.5),193,192,162,145,128,4,,3,2,25,30,3,3,1.5,1.1
2025-01-23T1100,1907A,106.1031,30.8217,南充市,南充炼油厂,细颗粒物(PM2.5),201,177,158,151,138,2,,2,1,33,39,4,4,1.3,1.2
2025-01-23T1100,1909A,106.0642,30.7636,南充市,嘉陵区环保局,细颗粒物(PM2.5),192,184,157,144,124,3,,2,2,34,42,4,4,1.3,1.3
2025-01-23T1100,1910A,106.1087,30.8388,南充市,市环境监测站,细颗粒物(PM2.5),182,171,165,137,127,2,,4,2,29,34,6,6,1.2,1.1
2025-01-23T1100,4227A,106.1083,30.7884,南充市,梨树横街98号,细颗粒物(PM2.5),196,171,157,147,131,1,,2,1,36,40,8,8,1.5,1.2
2025-01-23T1100,1151A,118.8086,32.1065,南京市,迈皋桥,细颗粒物(PM2.5),62,62,96,44,62,28,,23,23,50,78,4,8,0.8,0.6
2025-01-23T1100,1152A,118.7538,32.0551,南京市,草场门,细颗粒物(PM2.5),67,51,92,48,69,21,,13,13,30,65,6,8,0.8,0.7
2025-01-23T1100,1153A,118.7794,32.0745,南京市,山西路,细颗粒物(PM2.5),73,68,107,53,78,45,,38,38,28,68,4,5,0.7,0.6
2025-01-23T1100,1154A,118.7752,32.0023,南京市,中华门,细颗粒物(PM2.5),52,51,103,36,75,28,,11,11,29,67,7,10,0.9,0.9
2025-01-23T1100,1155A,118.8109,32.0309,南京市,瑞金路,,,,115,,78,30,,10,10,10,61,,4,0.5,0.8
2025-01-23T1100,1156A,118.7997,32.0754,南京市,玄武湖,细颗粒物(PM2.5),68,72,109,49,72,22,,12,12,23,39,7,8,0.9,0.8
2025-01-23T1100,1157A,118.6414,32.0931,南京市,浦口,颗粒物(PM10),56,62,119,34,73,30,,19,19,17,34,5,8,1.0,1
2025-01-23T1100,1158A,118.7356,31.9996,南京市,奥体中心,,,,,,,,,,,,,,,,
2025-01-23T1100,1159A,118.9125,32.1028,南京市,仙林大学城,颗粒物(PM10),56,61,90,39,68,26,,15,15,27,65,5,8,1.1,0.8
2025-01-23T1100,3422A,118.8436,31.9198,南京市,江宁彩虹桥,,,70,120,48,74,,,10,10,28,64,6,4,0.8,0.9
2025-01-23T1100,3423A,119.0138,31.6494,南京市,溧水永阳,细颗粒物(PM2.5),69,66,91,50,94,21,,6,6,34,58,4,4,1.3,1.1
2025-01-23T1100,3424A,118.879,31.3302,南京市,高淳老职中,,,,107,,107,,,82,,,21,,13,,0.6
2025-01-23T1100,3427A,118.8554,32.3578,南京市,六合雄州,,43,43,81,23,46,45,,39,39,4,18,4,5,0.5,0.6
2025-01-23T1100,1401A,108.3103,22.7881,南宁市,二十一中,"颗粒物(PM10),细颗粒物(PM2.5)",78,106,78,57,51,84,,95,85,23,20,7,6,0.9,0.9
2025-01-23T1100,1402A,108.3141,22.8528,南宁市,北湖,细颗粒物(PM2.5),87,98,98,64,58,65,,39,39,28,40,8,7,1.1,1.1
2025-01-23T1100,1403A,108.3206,22.8225,南宁市,市监测站,细颗粒物(PM2.5),75,78,68,55,46,76,,82,78,23,22,11,10,1.1,1
2025-01-23T1100,1404A,108.3829,22.8037,南宁市,大自然花园,细颗粒物(PM2.5),84,78,69,62,53,75,,84,84,23,18,7,6,1.3,1.1
2025-01-23T1100,1405A,108.4394,22.7904,南宁市,仙葫,细颗粒物(PM2.5),102,85,62,76,52,68,,62,62,22,23,5,4,0.8,0.7
2025-01-23T1100,1406A,108.2397,22.8467,南宁市,区农职院,颗粒物(PM10),88,126,90,58,53,75,,34,34,25,38,8,7,0.9,0.8
2025-01-23T1100,1407A,108.3275,22.735,南宁市,英华嘉园,,,80,77,74,47,,,68,67,,23,8,8,1.1,1
2025-01-23T1100,3401A,108.4834,22.7618,南宁市,红星社区,细颗粒物(PM2.5),102,96,70,76,51,53,,18,18,34,39,9,9,1.1,1
2025-01-23T1100,4221A,108.2177,22.7774,南宁市,乐贤路16号,细颗粒物(PM2.5),78,101,80,57,46,69,,53,53,25,38,4,4,1.0,0.9
2025-01-23T1100,2331A,118.0966,26.6761,南平市,茫荡山,,,,,,,,,,,,,,,,
2025-01-23T1100,2332A,118.1681,26.6369,南平市,南平市监测站,细颗粒物(PM2.5),75,74,62,55,44,36,,12,12,25,33,12,6,1.1,0.9
2025-01-23T1100,2333A,118.1825,26.6489,南平市,南平铝业有限公司,细颗粒物(PM2.5),104,,50,78,43,28,,11,11,30,34,27,6,1.3,0.7
2025-01-23T1100,2334A,118.1756,26.6272,南平市,南平七中,细颗粒物(PM2.5),77,64,52,56,39,36,,14,14,26,30,12,8,1.2,0.9
2025-01-23T1100,1168A,120.9098,31.9663,南通市,狼山街道,,35,35,36,19,20,68,,56,56,17,18,6,6,0.9,0.6
2025-01-23T1100,1169A,120.86,32.0005,南通市,虹桥,,33,33,43,20,23,66,,57,52,18,20,4,5,0.6,0.6
2025-01-23T1100,1170A,120.87,32.02,南通市,城中,,34,34,42,18,21,70,,54,51,23,27,6,7,0.6,0.6
2025-01-23T1100,1171A,120.94,31.93,南通市,星湖花园,,33,31,32,23,20,63,,60,58,19,20,6,6,0.8,0.5
2025-01-23T1100,1172A,120.81,32.0417,南通市,紫琅学院,,25,25,33,16,19,70,,45,45,21,28,3,3,0.7,0.8
2025-01-23T1100,3291A,121.067,32.062,南通市,通州监测站,,27,27,32,12,17,78,,64,64,25,21,4,4,0.9,0.7
2025-01-23T1100,3432A,120.9348,31.9883,南通市,环境教育馆,,,,35,,20,,,69,,,36,,6,,0.2
2025-01-23T1100,2404A,112.5224,33.0122,南阳市,瓦房庄,细颗粒物(PM2.5),82,75,153,60,118,51,,55,51,15,27,7,14,0.8,1.1
2025-01-23T1100,2405A,112.5003,32.9735,南阳市,汉画馆,细颗粒物(PM2.5),73,70,146,53,103,50,,57,52,20,31,6,12,0.6,1
2025-01-23T1100,2406A,112.5573,33.027,南阳市,气象站,细颗粒物(PM2.5),70,74,171,51,110,52,,55,51,15,29,7,13,0.7,1.1
2025-01-23T1100,2407A,112.5481,32.9689,南阳市,理工学院,细颗粒物(PM2.5),70,69,147,51,107,54,,54,53,18,32,7,12,0.6,0.9
2025-01-23T1100,4008A,112.5234,32.9922,南阳市,卧龙区政府,细颗粒物(PM2.5),78,69,159,57,111,46,,54,49,22,34,6,13,0.7,1
2025-01-23T1100,1234A,121.8358,29.911,宁波市,区环保大楼,颗粒物(PM10),56,61,28,33,11,24,,5,5,58,39,12,7,0.9,0.9
2025-01-23T1100,1235A,121.56,29.82,宁波市,万里学院,,44,44,27,30,16,31,,6,6,48,43,5,5,0.6,0.6
2025-01-23T1100,1236A,121.713,29.9572,宁波市,龙赛医院,,50,50,27,34,21,29,,18,13,53,37,11,9,0.6,0.5
2025-01-23T1100,1239A,121.633,29.7733,宁波市,钱湖水厂,,46,45,17,32,13,39,,39,29,31,13,6,5,0.9,0.7
2025-01-23T1100,1240A,121.5856,29.8635,宁波市,太古小学,,46,46,25,25,15,44,,13,11,33,31,8,7,0.9,0.8
2025-01-23T1100,1241A,121.524,29.8674,宁波市,市环境监测中心,颗粒物(PM10),52,54,28,27,17,43,,18,16,31,33,6,6,0.7,0.7
2025-01-23T1100,2871A,121.6147,29.9017,宁波市,万里国际学校,,42,42,35,22,13,39,,24,15,41,29,6,6,0.7,0.6
2025-01-23T1100,3710A,121.5594,29.8975,宁波市,白沙活动中心,,42,42,35,21,15,45,,13,13,28,26,6,5,0.6,0.6
2025-01-23T1100,2339A,119.5001,26.6946,宁德市,金涵水库,,,,,,,,,,,,,,,,
2025-01-23T1100,2341A,119.5388,26.6612,宁德市,宁德市监测站,细颗粒物(PM2.5),64,70,108,46,78,59,,19,19,11,22,5,7,0.4,0.9
2025-01-23T1100,3209A,119.5231,26.6562,宁德市,宁德一中,细颗粒物(PM2.5),67,72,86,48,66,60,,32,32,22,30,5,5,0.5,0.7
2025-01-23T1100,2618A,98.8601,25.8567,怒江傈僳族自治州,州监测站,颗粒物(PM10),51,52,45,35,25,38,,31,30,14,14,5,5,0.5,0.5
2025-01-23T1100,2619A,98.8546,25.8417,怒江傈僳族自治州,泸水一中,,49,,36,34,29,29,,23,20,14,17,8,8,0.6,0.6
2025-01-23T1100,1888A,101.6891,26.571,攀枝花市,弄弄坪,细颗粒物(PM2.5),107,115,74,80,64,17,,20,14,55,32,36,20,2.7,1.5
2025-01-23T1100,1889A,101.5769,26.5928,攀枝花市,河门口,细颗粒物(PM2.5),92,87,71,68,50,34,,18,18,36,29,23,15,1.9,1.3
2025-01-23T1100,1890A,101.7169,26.585,攀枝花市,炳草岗,细颗粒物(PM2.5),117,133,87,88,60,15,,5,5,53,48,19,17,1.7,1.3
2025-01-23T1100,1891A,101.7369,26.5008,攀枝花市,仁和,细颗粒物(PM2.5),87,84,70,64,52,31,,19,16,39,26,29,15,2.6,1.2
2025-01-23T1100,2835A,101.7227,26.567,攀枝花市,四十中小,细颗粒物(PM2.5),103,128,97,77,59,11,,2,2,60,58,29,21,2.0,1.7
2025-01-23T1100,1604A,122.0303,41.1489,盘锦市,开发区,,,,105,,89,,,50,,,40,,29,,1.4
2025-01-23T1100,1605A,122.0485,41.0883,盘锦市,兴隆台,细颗粒物(PM2.5),143,156,99,109,85,32,,39,26,55,36,27,15,3.0,1.2
2025-01-23T1100,1606A,121.8297,41.1028,盘锦市,新生街道,细颗粒物(PM2.5),145,156,79,111,68,35,,14,14,60,54,26,13,1.9,1.1
2025-01-23T1100,1832A,113.3257,33.742,平顶山市,新华旅馆,颗粒物(PM10),65,80,133,40,79,42,,52,51,24,28,4,10,0.4,0.6
2025-01-23T1100,1833A,113.2919,33.737,平顶山市,规划设计院,颗粒物(PM10),59,68,139,41,81,50,,59,57,19,25,5,11,0.5,0.7
2025-01-23T1100,1834A,113.182,33.774,平顶山市,平顶山工学院,颗粒物(PM10),63,75,152,39,76,50,,53,51,21,24,6,13,0.5,0.7
2025-01-23T1100,3204A,113.3025,33.73,平顶山市,规划局,细颗粒物(PM2.5),63,61,128,45,81,49,,55,54,15,25,3,9,0.9,1.2
2025-01-23T1100,3594A,112.8867,33.9116,平顶山市,石龙区,细颗粒物(PM2.5),89,95,167,66,109,42,,37,35,23,30,8,15,1.0,1.2
2025-01-23T1100,2656A,106.6692,35.5461,平凉市,聚贤嘉苑,细颗粒物(PM2.5),153,173,119,117,77,123,,76,76,32,50,14,21,1.2,1.2
2025-01-23T1100,2657A,106.7021,35.5307,平凉市,博物馆,细颗粒物(PM2.5),163,168,130,124,85,,,87,87,48,60,17,26,1.2,1.3
2025-01-23T1100,2347A,114.0997,27.5002,萍乡市,武功山,,,61,41,42,31,77,,57,55,16,14,,12,,0.9
2025-01-23T1100,2348A,113.8385,27.6434,萍乡市,中医院,细颗粒物(PM2.5),67,80,106,48,61,90,,80,78,19,35,13,13,0.9,1.3
2025-01-23T1100,2349A,113.8493,27.6253,萍乡市,市政府车库,细颗粒物(PM2.5),89,84,102,66,80,81,,48,48,24,52,19,19,1.2,1.8
2025-01-23T1100,2350A,113.8676,27.6435,萍乡市,市环保局,细颗粒物(PM2.5),89,92,95,66,66,81,,66,63,24,39,13,16,0.9,1.1
2025-01-23T1100,2351A,113.866,27.6198,萍乡市,安源区政府,,,,101,,62,,,65,61,22,37,15,16,0.9,1.4
2025-01-23T1100,2319A,119.0141,25.4325,莆田市,荔城区仓后路,颗粒物(PM10),54,57,45,29,31,64,,28,28,13,18,1,2,0.8,0.8
2025-01-23T1100,2320A,119.0015,25.4553,莆田市,莆田市监测站,,,,29,21,21,58,,28,28,,13,3,3,,0.3
2025-01-23T1100,2321A,119.1119,25.4561,莆田市,涵江区六中,颗粒物(PM10),53,56,45,27,30,72,,30,30,16,29,2,2,0.4,0.6
2025-01-23T1100,2322A,119.1013,25.3215,莆田市,秀屿区政府,颗粒物(PM10),51,52,50,30,45,64,,19,19,15,29,2,2,0.6,0.7
2025-01-23T1100,2323A,118.981,25.4792,莆田市,东圳水库,,,,,,,,,,,,,,,,
2025-01-23T1100,2392A,115.0312,35.7636,濮阳市,环保局,细颗粒物(PM2.5),63,57,59,45,45,41,,33,32,26,29,9,7,0.7,0.7
2025-01-23T1100,2394A,115.0574,35.7609,濮阳市,油田运输公司,,,66,72,45,47,37,,27,26,,28,,6,0.7,0.6
2025-01-23T1100,3021A,115,35.7668,濮阳市,濮水河管理处,细颗粒物(PM2.5),72,75,84,52,48,35,,19,17,27,32,8,6,0.9,0.9
2025-01-23T1100,4216A,115.0924,35.7686,濮阳市,任丘路479号,细颗粒物(PM2.5),67,80,84,48,47,35,,28,24,26,24,9,8,1.2,1
2025-01-23T1100,2601A,100.98,22.7633,普洱市,市环保局,颗粒物(PM10),55,60,46,15,11,49,,29,28,18,11,6,5,0.8,0.6
2025-01-23T1100,2602A,100.9817,22.8322,普洱市,普洱第二中学,颗粒物(PM10),60,69,44,14,19,55,,12,12,18,21,6,5,0.6,0.6
2025-01-23T1100,2262A,131.0518,45.8751,七台河市,新一中,细颗粒物(PM2.5),149,130,141,114,119,70,,74,63,36,33,17,16,2.4,2.4
2025-01-23T1100,3345A,131.0577,45.7879,七台河市,中波台,细颗粒物(PM2.5),142,115,147,108,135,62,,49,49,36,46,8,9,1.2,1.4
2025-01-23T1100,3637A,131.0176,45.7761,七台河市,人民广场,细颗粒物(PM2.5),205,184,189,155,139,44,,45,40,55,50,9,9,,
2025-01-23T1100,3684A,130.8781,45.8222,七台河市,新建矿广场,细颗粒物(PM2.5),104,90,159,78,128,52,,36,34,33,46,10,8,0.9,1.2
2025-01-23T1100,1779A,123.9305,47.3636,齐齐哈尔市,安居小区,细颗粒物(PM2.5),224,181,110,174,107,19,,18,17,54,46,9,7,1.4,1
2025-01-23T1100,1780A,123.9488,47.3386,齐齐哈尔市,中心广场,细颗粒物(PM2.5),180,200,128,136,102,16,,8,8,58,55,,5,2.0,1.3
2025-01-23T1100,1781A,123.9483,47.3227,齐齐哈尔市,农牧车辆厂,细颗粒物(PM2.5),169,200,125,128,91,12,,6,6,62,57,8,8,1.7,1.2
2025-01-23T1100,1783A,123.945,47.2988,齐齐哈尔市,市环境监测站,细颗粒物(PM2.5),271,253,155,221,127,15,,10,10,60,57,3,4,1.3,1
2025-01-23T1100,3662A,123.6333,47.2075,齐齐哈尔市,富区青少年活动中心,细颗粒物(PM2.5),277,299,167,227,118,28,,19,19,46,39,19,11,2.2,1.6
2025-01-23T1100,2591A,107.9783,26.5747,黔东南苗族侗族自治州,市环境监测站,细颗粒物(PM2.5),118,118,143,89,94,50,,46,46,22,27,8,8,0.9,1
2025-01-23T1100,2881A,107.8908,26.5311,黔东南苗族侗族自治州,凯里学院,细颗粒物(PM2.5),103,85,91,77,73,47,,52,49,16,14,6,7,1.1,1
2025-01-23T1100,2593A,107.5228,26.2403,黔南布依族苗族自治州,小围寨,细颗粒物(PM2.5),98,75,75,73,61,15,,37,22,33,23,7,11,1.0,0.8
2025-01-23T1100,3538A,107.5175,26.2978,黔南布依族苗族自治州,沙坝,细颗粒物(PM2.5),104,92,84,78,64,29,,37,28,35,27,10,10,1.0,0.8
2025-01-23T1100,2589A,104.9022,25.0925,黔西南布依族苗族自治州,场坝街,细颗粒物(PM2.5),80,86,90,59,75,92,,123,114,22,17,4,6,0.6,0.6
