timepoint,stationcode,longitude,latitude,area,positionname,primarypollutant,aqi,pm10,pm10_24h,pm2_5,pm2_5_24h,o3,o3_24h,o3_8h,o3_8h_24h,no2,no2_24h,so2,so2_24h,co,co_24h
2024-12-22T1600,2566A,102.1879,31.914,阿坝藏族羌族自治州,州农科所,,27,10,27,6,8,86,,62,62,7,14,6,6,0.5,0.7
2024-12-22T1600,2568A,102.2502,31.8896,阿坝藏族羌族自治州,马师校,,22,15,24,3,18,69,,44,44,12,26,4,4,0.4,0.5
2024-12-22T1600,3994A,102.2165,31.9024,阿坝藏族羌族自治州,马尔康中学西区,,29,29,30,12,15,72,,47,47,9,23,6,6,0.5,0.5
2024-12-22T1600,2695A,80.292,41.1694,阿克苏地区,电视台,细颗粒物(PM2.5),75,63,111,55,83,56,,23,23,23,44,5,4,0.9,2.6
2024-12-22T1600,2696A,80.2613,41.1551,阿克苏地区,艺术中心,细颗粒物(PM2.5),74,77,74,54,69,61,,26,26,24,45,4,4,0.9,1.6
2024-12-22T1600,2204A,105.6467,38.8363,阿拉善盟,西城区西花园,,38,38,43,24,32,75,,64,64,18,27,13,11,0.7,0.8
2024-12-22T1600,2205A,105.6985,38.8411,阿拉善盟,蒙二幼,,26,26,38,15,23,79,,70,70,16,26,6,6,0.6,0.7
2024-12-22T1600,2206A,105.724,38.8516,阿拉善盟,环保局新楼,,29,24,26,16,17,90,,91,89,10,12,8,9,0.6,0.6
2024-12-22T1600,2708A,88.1264,47.8517,阿勒泰地区,市站,,28,28,20,16,7,53,,67,49,20,19,12,9,0.3,0.2
2024-12-22T1600,2630A,80.1161,32.5,阿里地区,阿里监测站,,29,,11,10,6,90,,71,71,1,7,4,7,0.4,0.5
2024-12-22T1600,3192A,80.0903,32.5028,阿里地区,阿里藏医院,,29,7,12,3,8,90,,67,61,1,8,4,6,0.4,0.6
2024-12-22T1600,2642A,109.0318,32.6537,安康市,香溪洞,细颗粒物(PM2.5),67,59,58,48,43,66,,73,66,14,16,10,11,0.5,0.5
2024-12-22T1600,2644A,109.0072,32.6975,安康市,汉滨区检察院,细颗粒物(PM2.5),67,78,86,48,54,71,,75,71,16,34,8,10,0.6,0.8
2024-12-22T1600,4054A,109.0325,32.6913,安康市,市邮政管理局,细颗粒物(PM2.5),68,78,87,49,54,63,,66,61,20,37,8,8,0.6,0.9
2024-12-22T1600,2291A,117.0809,30.5177,安庆市,环科院,颗粒物(PM10),59,68,72,37,36,65,,48,48,21,23,8,7,0.5,0.5
2024-12-22T1600,2292A,117.0331,30.5119,安庆市,马山宾馆,颗粒物(PM10),55,60,69,33,36,63,,46,46,24,28,10,9,0.3,0.3
2024-12-22T1600,2294A,116.9896,30.6145,安庆市,安庆大学,颗粒物(PM10),59,68,69,36,35,59,,52,52,26,27,14,13,0.5,0.4
2024-12-22T1600,3173A,117.0598,30.5351,安庆市,市人大,颗粒物(PM10),56,62,69,34,37,64,,49,49,26,30,9,8,0.4,0.5
2024-12-22T1600,3122A,105.9606,26.2611,安顺市,伍家关,,35,31,67,24,57,38,,50,42,21,23,18,12,1.1,1
2024-12-22T1600,3123A,105.9408,26.2431,安顺市,凤凰山,,40,36,68,28,61,35,,43,38,20,22,24,19,0.5,0.5
2024-12-22T1600,3124A,105.9439,26.2564,安顺市,金钟山,,42,,66,29,62,38,,46,41,17,19,24,20,0.7,0.8
2024-12-22T1600,3125A,105.8983,26.2481,安顺市,娄家坡,细颗粒物(PM2.5),53,39,68,37,63,36,,42,36,20,22,17,20,0.8,0.8
2024-12-22T1600,1818A,114.4839,36.0621,安阳市,棉研所,,48,48,64,22,34,69,,48,48,16,37,9,10,0.3,0.7
2024-12-22T1600,1819A,114.3551,36.1017,安阳市,红庙街,,49,49,61,25,36,68,,52,52,6,25,5,5,0.7,0.9
2024-12-22T1600,1820A,114.361,36.0681,安阳市,银杏小区,,,48,60,21,29,68,,48,48,16,33,5,7,,0.6
2024-12-22T1600,3141A,114.3922,36.0878,安阳市,信访局,"颗粒物(PM10),细颗粒物(PM2.5)",52,54,60,36,30,66,,50,50,20,33,8,9,0.7,0.9
2024-12-22T1600,3669A,114.4705,36.0637,安阳市,左辅环卫站,,41,41,72,18,34,72,,51,51,11,33,6,7,0.6,0.7
2024-12-22T1600,3703A,114.2917,36.0949,安阳市,安钢职工学校,颗粒物(PM10),51,52,71,27,42,63,,46,46,17,34,7,5,0.6,0.9
2024-12-22T1600,1748A,123.044,41.1196,鞍山市,深沟寺,,40,40,47,20,27,62,,46,46,24,34,13,18,0.6,1.1
2024-12-22T1600,1749A,123.011,41.0931,鞍山市,太阳城,,45,45,57,22,34,46,,38,38,32,43,8,17,0.6,1.2
2024-12-22T1600,1750A,123.0485,41.1442,鞍山市,太平,,38,38,68,17,38,58,,42,42,33,43,17,16,0.6,1.2
2024-12-22T1600,1751A,122.9642,41.0971,鞍山市,铁西三道街,,37,37,101,15,55,64,,47,47,23,49,6,21,0.6,1.3
2024-12-22T1600,1752A,122.9341,41.0833,鞍山市,铁西工业园区,,38,38,103,14,58,72,,55,55,20,51,7,11,0.3,1.5
2024-12-22T1600,1753A,123.022,41.0821,鞍山市,明达新区,,40,40,57,21,32,62,,51,51,18,30,18,20,0.5,1.2
2024-12-22T1600,1754A,123.1289,41.0228,鞍山市,千山,,,,45,,21,,,35,,,22,,6,,0.8
2024-12-22T1600,2195A,107.4212,40.761,巴彦淖尔市,附二中,颗粒物(PM10),60,70,59,37,29,46,,35,35,31,33,17,11,0.7,0.6
2024-12-22T1600,2196A,107.37,40.7372,巴彦淖尔市,市环保大楼,颗粒物(PM10),69,87,51,39,24,47,,38,38,27,25,16,12,0.7,0.5
2024-12-22T1600,1956A,86.1472,41.7538,巴音郭楞蒙古自治州,孔雀公园,颗粒物(PM10),56,62,68,39,50,62,,46,46,21,33,5,4,0.6,0.7
2024-12-22T1600,1957A,86.1972,41.7166,巴音郭楞蒙古自治州,棉纺厂,颗粒物(PM10),58,65,79,24,39,72,,40,40,16,54,4,3,0.5,0.7
2024-12-22T1600,1958A,86.2357,41.7173,巴音郭楞蒙古自治州,经济开发区,,45,45,52,29,34,77,,53,46,15,31,4,3,0.5,0.6
2024-12-22T1600,2914A,106.7677,31.8794,巴中市,苏山坪,细颗粒物(PM2.5),84,68,52,62,45,61,,55,55,12,12,2,3,0.7,0.6
2024-12-22T1600,3182A,106.7656,31.8545,巴中市,丽阳花园,细颗粒物(PM2.5),67,55,60,48,50,55,,42,42,20,29,5,4,0.5,0.6
2024-12-22T1600,3183A,106.7418,31.8654,巴中市,圣泉水务公司,细颗粒物(PM2.5),64,54,53,46,46,59,,50,50,19,26,3,3,0.4,0.5
2024-12-22T1600,3616A,106.7616,31.8344,巴中市,市中心医院,细颗粒物(PM2.5),75,57,68,55,67,46,,36,36,33,34,4,3,0.5,0.7
2024-12-22T1600,2235A,122.7911,45.6077,白城市,洮北区环保局,,,27,35,17,24,66,,67,67,20,20,,7,0.6,0.5
2024-12-22T1600,2236A,122.8738,45.5725,白城市,市环保局,,24,24,30,9,17,65,,60,60,14,24,5,5,0.2,0.3
2024-12-22T1600,2231A,126.4219,41.9171,白山市,喜丰,,41,41,44,25,24,61,,53,53,17,21,18,18,0.7,0.8
2024-12-22T1600,2232A,126.4077,41.9419,白山市,环保局,,50,50,65,23,33,51,,43,43,22,25,14,13,0.8,0.9
2024-12-22T1600,2647A,104.1724,36.5446,白银市,第三小学,细颗粒物(PM2.5),102,,75,76,63,82,,47,47,23,39,18,17,1.1,1.2
2024-12-22T1600,2648A,104.1465,36.5482,白银市,动力公司,细颗粒物(PM2.5),104,82,68,78,62,91,,55,55,24,33,12,8,1.0,1.4
2024-12-22T1600,2512A,106.6103,23.9011,百色市,市监测站,细颗粒物(PM2.5),73,63,78,53,62,96,,61,61,15,28,13,14,0.9,1
2024-12-22T1600,2513A,106.6538,23.8859,百色市,市中心血站,细颗粒物(PM2.5),83,69,98,61,74,93,,60,60,16,31,12,16,0.8,0.9
2024-12-22T1600,3406A,106.6085,23.8798,百色市,祈福高中,细颗粒物(PM2.5),74,65,90,54,56,99,,60,60,14,34,10,10,0.8,0.9
2024-12-22T1600,2270A,117.396,32.939,蚌埠市,工人疗养院,细颗粒物(PM2.5),64,68,59,46,32,61,,43,43,33,32,8,7,0.4,0.4
2024-12-22T1600,2271A,117.3605,32.9427,蚌埠市,百货大楼,颗粒物(PM10),62,74,60,42,31,58,,44,44,32,32,9,7,0.4,0.4
2024-12-22T1600,2273A,117.4185,32.8911,蚌埠市,蚌埠学院,细颗粒物(PM2.5),65,73,57,47,29,48,,48,48,49,28,13,8,0.4,0.3
2024-12-22T1600,2274A,117.3533,32.9673,蚌埠市,淮上区政府,"颗粒物(PM10),细颗粒物(PM2.5)",63,75,71,45,37,55,,44,44,33,36,10,9,0.4,0.4
2024-12-22T1600,2275A,117.3145,32.8977,蚌埠市,高新区,颗粒物(PM10),53,56,66,30,34,55,,47,47,37,39,10,13,0.4,0.4
2024-12-22T1600,3715A,117.3092,32.9314,蚌埠市,蚌埠田家炳中学,细颗粒物(PM2.5),59,63,71,42,38,59,,44,44,29,37,8,9,0.5,0.5
2024-12-22T1600,1585A,109.8756,40.6532,包头市,市环境监测站,,47,47,56,27,28,47,,29,29,36,52,19,22,1.0,1.4
2024-12-22T1600,1587A,109.9991,40.5842,包头市,包头八中,,,43,65,26,37,51,,31,31,,37,10,26,0.6,1.6
2024-12-22T1600,1588A,109.8538,40.6821,包头市,青山宾馆,,49,49,47,27,34,42,,28,28,40,49,26,21,1.1,1.3
2024-12-22T1600,1589A,109.8642,40.6288,包头市,惠龙物流,,29,29,52,20,31,50,,32,32,30,49,11,21,0.8,1.4
2024-12-22T1600,1590A,110.0377,40.5546,包头市,东河鸿龙湾,,33,33,57,19,37,48,,30,30,27,51,12,16,0.7,1.4
2024-12-22T1600,3283A,109.9154,40.5685,包头市,滨河大厦,,21,21,51,14,31,56,,36,36,24,46,10,16,0.4,1.2
2024-12-22T1600,3419A,109.9447,40.6261,包头市,包头市委党校,颗粒物(PM10),54,58,58,36,32,51,,30,30,35,53,19,27,0.7,1.5
2024-12-22T1600,3683A,109.8331,40.6576,包头市,昆区政府,,42,42,47,24,33,44,,29,29,36,47,18,22,0.9,1.3
2024-12-22T1600,1930A,107.185,34.3063,宝鸡市,庙沟村,细颗粒物(PM2.5),65,64,82,47,60,45,,40,40,34,32,10,8,0.7,0.7
2024-12-22T1600,1931A,107.0708,34.3017,宝鸡市,竹园沟,颗粒物(PM10),64,77,83,43,55,49,,48,48,34,31,11,9,0.6,0.6
2024-12-22T1600,1932A,107.1906,34.3672,宝鸡市,三陆医院,颗粒物(PM10),58,66,77,38,51,42,,43,43,40,35,9,7,0.8,0.8
2024-12-22T1600,1933A,107.1431,34.3547,宝鸡市,监测站,颗粒物(PM10),60,69,84,42,50,49,,46,46,33,32,11,9,0.7,0.6
2024-12-22T1600,1934A,107.1186,34.3739,宝鸡市,技工学校,颗粒物(PM10),60,69,69,42,51,47,,46,46,35,33,8,6,0.9,0.9
2024-12-22T1600,1935A,107.3906,34.3528,宝鸡市,陈仓区环保局家属楼,颗粒物(PM10),55,59,91,27,62,56,,41,41,28,54,11,9,0.7,0.8
2024-12-22T1600,1936A,107.2058,34.3497,宝鸡市,文理学院,颗粒物(PM10),54,58,81,34,54,51,,48,48,33,32,10,8,0.5,0.5
2024-12-22T1600,1937A,107.2386,34.3622,宝鸡市,三迪小学,颗粒物(PM10),52,53,78,32,55,48,,42,42,32,38,10,9,0.7,0.7
2024-12-22T1600,1051A,115.493,38.8632,保定市,游泳馆,,31,31,59,12,34,60,,41,41,21,48,4,3,0.3,0.4
2024-12-22T1600,1052A,115.5213,38.8959,保定市,华电二区,,49,42,43,34,33,53,,36,36,15,36,4,4,0.3,0.3
2024-12-22T1600,1053A,115.4713,38.9108,保定市,接待中心,,48,48,52,23,31,52,,34,34,16,41,6,3,0.5,0.5
2024-12-22T1600,1054A,115.4612,38.8416,保定市,地表水厂,,39,39,63,12,36,64,,42,42,14,43,6,3,0.2,0.3
2024-12-22T1600,3581A,115.31981,38.95208,保定市,满城区生态环境分局,,,44,49,,31,68,,46,46,8,47,3,3,0,0.2
2024-12-22T1600,3582A,115.47694,38.76408,保定市,清苑区第二中学,,20,19,45,9,26,64,,42,42,11,38,4,4,0.4,0.5
2024-12-22T1600,3583A,115.62909,39.02311,保定市,徐水物探局,,25,25,50,9,30,60,,39,39,14,42,4,4,0.2,0.4
2024-12-22T1600,4004A,115.4202,38.8656,保定市,双鹰农机,,45,45,56,24,33,60,,43,43,18,39,8,4,0.5,0.4
2024-12-22T1600,4034A,115.5150,38.8590,保定市,植保所站,,44,44,56,27,36,58,,38,38,16,45,7,5,0.4,0.4
2024-12-22T1600,2594A,99.1678,25.1081,保山市,市环境监测站,,25,12,16,3,9,80,,54,54,5,10,4,4,0.2,0.4
2024-12-22T1600,2595A,99.1711,25.1328,保山市,市环保局,,26,12,18,8,16,82,,58,58,2,6,6,6,0.4,0.5
2024-12-22T1600,1866A,109.2262,21.588,北海市,牛尾岭水库,,46,44,61,32,60,125,,103,103,7,10,8,9,0.9,1
2024-12-22T1600,1867A,109.1436,21.4086,北海市,海滩公园,细颗粒物(PM2.5),64,69,79,46,59,154,,125,125,17,22,11,13,1.0,0.9
2024-12-22T1600,1868A,109.0981,21.4661,北海市,新市环保局,细颗粒物(PM2.5),67,67,78,48,64,145,,118,118,25,25,11,12,0.7,0.7
2024-12-22T1600,1869A,109.1778,21.5233,北海市,北海工业园,细颗粒物(PM2.5),59,65,86,42,64,140,,113,113,18,23,14,14,0.7,0.8
2024-12-22T1600,3400A,109.1911,21.4415,北海市,龙潭自来水厂,细颗粒物(PM2.5),79,67,78,58,69,141,,113,113,21,21,14,14,0.8,0.8
2024-12-22T1600,1001A,116.3621,39.8784,北京市,万寿西宫,,29,28,19,20,10,29,,46,44,45,24,4,3,0.3,0.4
2024-12-22T1600,1002A,116.2202,40.2915,北京市,定陵,,19,19,15,12,8,47,,48,46,9,6,7,6,0.3,0.2
2024-12-22T1600,1003A,116.4174,39.9289,北京市,东四,,24,24,19,11,9,51,,49,49,16,15,1,3,0.7,0.7
2024-12-22T1600,1004A,116.4072,39.8863,北京市,天坛,,33,33,20,12,9,43,,51,51,34,19,1,2,0.3,0.3
2024-12-22T1600,1005A,116.462,39.9365,北京市,农展馆,,24,24,17,10,7,60,,56,56,20,21,1,2,0.4,0.3
2024-12-22T1600,1006A,116.3392,39.9295,北京市,官园,,30,30,21,14,9,35,,46,46,36,24,4,4,0.7,0.6
2024-12-22T1600,1007A,116.2878,39.9611,北京市,海淀万柳,,35,35,21,14,9,39,,46,46,44,35,3,3,0.6,0.5
2024-12-22T1600,1008A,116.6636,40.135,北京市,顺义新城,,20,20,13,7,6,57,,60,60,14,10,3,2,0.3,0.2
2024-12-22T1600,1009A,116.6275,40.3275,北京市,怀柔镇,,19,14,11,7,5,58,,56,56,14,8,1,2,0.3,0.3
2024-12-22T1600,1010A,116.2296,40.217,北京市,昌平镇,,21,17,17,9,8,65,,62,61,6,6,2,2,0.3,0.3
2024-12-22T1600,1011A,116.3966,39.9821,北京市,奥体中心,,22,22,19,10,8,53,,50,50,20,20,4,4,0.4,0.3
2024-12-22T1600,1012A,116.184,39.9136,北京市,古城,,34,34,26,13,10,37,,35,35,36,34,5,6,0.2,0.2
2024-12-22T1600,3281A,115.9718,40.4529,北京市,延庆夏都,,30,30,28,16,12,51,,46,46,15,12,5,3,0.3,0.3
2024-12-22T1600,3417A,117.0709,40.1465,北京市,平谷新城,,19,14,12,6,5,60,,61,61,5,7,3,3,0.3,0.3
2024-12-22T1600,3418A,116.8336,40.4095,北京市,密云新城,,21,7,10,3,5,65,,62,62,3,4,1,2,0.1,0.2
2024-12-22T1600,3671A,116.088,39.9726,北京市,门头沟三家店,,37,37,22,15,10,32,,43,30,37,20,4,4,0.3,0.3
2024-12-22T1600,3672A,116.1541,39.8204,北京市,丰台云岗,,40,40,29,19,11,43,,39,39,27,33,2,2,0.4,0.3
2024-12-22T1600,3673A,116.6804,39.9081,北京市,通州东关,,40,40,22,18,9,41,,50,46,26,13,3,2,0.2,0.1
2024-12-22T1600,3674A,115.9577,39.7603,北京市,房山燕山,,37,37,22,19,13,50,,47,47,23,16,1,2,0.2,0.3
2024-12-22T1600,3675A,116.4672,39.7733,北京市,大兴旧宫,,30,30,19,12,8,38,,40,40,30,24,3,2,0.3,0.3
2024-12-22T1600,3694A,115.986,40.4563,北京市,延庆石河营,,30,30,22,16,11,51,,46,46,16,12,4,2,0.3,0.3
2024-12-22T1600,3695A,116.6151,40.3053,北京市,怀柔新城,,17,15,9,9,7,52,,54,54,16,6,3,2,0.1,0.1
2024-12-22T1600,3696A,116.2545,39.8768,北京市,丰台小屯,,31,31,24,13,10,33,,33,33,35,26,3,4,0.3,0.3
2024-12-22T1600,3697A,116.84,40.3844,北京市,密云镇,,20,10,11,3,5,63,,62,62,6,10,3,3,0.1,0.1
2024-12-22T1600,1761A,123.8275,41.3064,本溪市,大峪,,36,36,59,24,36,45,,34,34,37,43,21,14,1.6,2.3
2024-12-22T1600,1762A,123.7567,41.3325,本溪市,溪湖,,41,41,69,16,40,50,,39,39,31,39,16,10,1.2,1.5
2024-12-22T1600,1763A,123.7169,41.3094,本溪市,彩屯,,36,31,74,25,56,54,,40,40,31,44,16,11,1.1,1.5
2024-12-22T1600,1764A,123.7669,41.2864,本溪市,东明,,48,48,78,15,48,43,,34,34,39,46,22,14,1.6,1.8
2024-12-22T1600,1765A,123.7992,41.2664,本溪市,新立屯,,43,36,65,30,36,42,,50,50,43,51,13,11,0.8,1.7
2024-12-22T1600,1766A,123.8142,41.3472,本溪市,威宁,,44,44,82,20,39,60,,44,44,31,42,11,5,1.1,1.3
2024-12-22T1600,2587A,105.2864,27.3125,毕节市,八中,,29,21,23,20,21,35,,31,31,20,17,8,8,0.8,0.8
2024-12-22T1600,2588A,105.31,27.2944,毕节市,师专,,26,19,23,18,19,38,,32,32,17,16,7,8,0.7,0.7
2024-12-22T1600,3537A,105.3631,27.3533,毕节市,长征村,,16,13,17,11,15,42,,36,36,14,11,14,9,0.7,0.6
2024-12-22T1600,1629A,118.0018,37.3617,滨州市,第二水厂,,31,31,60,14,29,66,,48,48,15,39,11,21,0.3,0.6
2024-12-22T1600,1630A,117.9776,37.393,滨州市,北中新校,,36,36,57,9,28,71,,52,52,13,37,9,16,0.1,0.3
2024-12-22T1600,3514A,117.9378,37.3956,滨州市,中海酒店,,25,22,55,17,38,70,,53,53,13,41,5,15,0.2,0.5
2024-12-22T1600,3515A,117.9378,37.3553,滨州市,开发区一中,,44,44,64,14,31,62,,49,49,23,48,8,17,0.3,0.5
2024-12-22T1600,3516A,118.0917,37.694,滨州市,金海六路,,37,37,53,22,29,65,,52,52,19,45,11,9,0.4,0.6
2024-12-22T1600,4028A,117.9956,37.3753,滨州市,滨州市西街道办事处,,28,27,53,19,36,70,,52,52,14,32,10,15,0.2,0.4
2024-12-22T1600,2311A,115.8072,33.8399,亳州市,污水处理厂,,39,39,59,14,30,67,,51,51,15,28,4,5,0.3,0.4
2024-12-22T1600,2312A,115.7789,33.8518,亳州市,三国揽胜宫,,38,38,63,15,29,66,,53,53,19,30,5,5,0.3,0.3
2024-12-22T1600,3332A,115.7633,33.8034,亳州市,亳州学院,,36,36,58,22,32,67,,55,55,17,23,3,4,0.3,0.3
2024-12-22T1600,2693A,82.0485,44.8556,博尔塔拉蒙古自治州,市党校,颗粒物(PM10),51,52,59,35,49,55,,31,29,15,23,10,10,0.7,1
2024-12-22T1600,2694A,82.0806,44.8969,博尔塔拉蒙古自治州,市环保局,细颗粒物(PM2.5),58,58,70,41,38,49,,32,31,21,26,8,7,1.0,1
2024-12-22T1600,1071A,116.8842,38.2991,沧州市,沧县城建局,,46,41,45,32,27,56,,44,44,27,46,6,6,0.7,0.8
2024-12-22T1600,1072A,116.8584,38.3254,沧州市,电视转播站,,39,35,47,27,24,64,,49,49,23,48,6,8,0.4,0.4
2024-12-22T1600,1073A,116.8709,38.3228,沧州市,市环保局,细颗粒物(PM2.5),55,40,45,39,33,62,,45,45,19,44,4,5,0.3,0.6
2024-12-22T1600,3324A,116.8136,38.3004,沧州市,河北水利电力学院,,41,41,54,27,34,56,,37,37,25,48,5,5,0.3,0.5
2024-12-22T1600,2622A,97.1806,31.1273,昌都市,昌都监测站,,25,11,30,3,21,77,,55,55,7,38,6,6,0.3,0.8
2024-12-22T1600,3719A,97.1714,31.1406,昌都市,昌都会议中心,,28,8,8,3,8,87,,70,70,2,8,4,4,0.4,0.5
2024-12-22T1600,2690A,88.1236,43.8886,昌吉回族自治州,天山天池,,27,17,11,7,7,86,,72,72,5,3,8,8,0.5,0.4
2024-12-22T1600,2692A,87.2717,44.0297,昌吉回族自治州,新区政务中心,细颗粒物(PM2.5),158,156,175,120,118,32,,20,20,40,56,7,10,1.6,1.6
2024-12-22T1600,3613A,87.3095,44.0142,昌吉回族自治州,亚心广场,细颗粒物(PM2.5),228,217,198,178,156,21,,18,18,72,65,9,11,1.9,1.6
2024-12-22T1600,1119A,125.3325,43.9166,长春市,食品厂,,30,30,44,15,32,38,,44,44,33,37,13,15,0.3,0.5
2024-12-22T1600,1120A,125.2863,43.9027,长春市,客车厂,,26,,41,18,36,49,,48,48,20,33,9,16,0.3,0.4
2024-12-22T1600,1121A,125.2841,43.8463,长春市,邮电学院,,27,27,43,13,33,55,,52,52,19,37,13,21,0.3,0.5
2024-12-22T1600,1122A,125.3716,43.8772,长春市,劳动公园,,31,31,40,11,29,61,,55,55,17,35,19,16,0.5,0.8
2024-12-22T1600,1123A,125.3297,43.8805,长春市,园林处,,22,22,43,15,32,51,,50,50,18,31,14,12,0.6,0.8
2024-12-22T1600,1124A,125.4605,43.79,长春市,净月潭,,24,24,36,11,23,56,,52,52,13,27,8,8,0.4,0.6
2024-12-22T1600,1125A,125.7194,43.515,长春市,甩湾子,,,,,,,,,,,,,,,,
2024-12-22T1600,1126A,125.3863,43.8447,长春市,经开区环卫处,,28,28,42,12,27,44,,46,46,28,41,16,21,0.4,0.5
2024-12-22T1600,1127A,125.245,43.7783,长春市,高新区管委会,,21,21,38,10,29,60,,58,58,15,33,7,8,0.2,0.5
2024-12-22T1600,1128A,125.1761,43.8325,长春市,岱山公园,,24,24,37,10,33,52,,52,52,17,30,7,8,0.4,0.6
2024-12-22T1600,1335A,113.0833,28.2325,长沙市,经开区环保局,颗粒物(PM10),72,93,120,42,61,42,,55,35,28,32,3,5,0.5,0.7
2024-12-22T1600,1336A,112.8872,28.2189,长沙市,高开区环保局,颗粒物(PM10),70,90,113,44,61,51,,53,44,20,22,8,7,0.5,0.5
2024-12-22T1600,1337A,113.0792,28.2053,长沙市,马坡岭,颗粒物(PM10),72,94,113,44,66,47,,58,42,26,29,5,6,0.6,0.8
2024-12-22T1600,1338A,112.9394,28.19,长沙市,湖南师范大学,颗粒物(PM10),70,90,117,49,69,50,,53,44,25,27,8,8,0.7,0.7
2024-12-22T1600,1339A,113.0178,28.1322,长沙市,雨花区环保局,颗粒物(PM10),68,86,111,48,68,46,,52,43,30,35,7,8,0.5,0.6
2024-12-22T1600,1340A,112.9792,28.2597,长沙市,伍家岭,颗粒物(PM10),68,86,116,42,60,47,,49,39,24,28,5,6,0.5,0.6
2024-12-22T1600,1341A,113.0014,28.1944,长沙市,火车新站,细颗粒物(PM2.5),73,94,113,53,74,48,,52,43,29,33,4,5,0.5,0.6
2024-12-22T1600,1342A,112.9844,28.1178,长沙市,天心区环保局,颗粒物(PM10),77,104,126,45,63,50,,54,45,26,31,4,5,0.8,0.9
2024-12-22T1600,1343A,112.8908,28.1308,长沙市,湖南中医药大学,细颗粒物(PM2.5),85,92,117,63,65,52,,55,47,24,25,10,9,0.7,0.8
2024-12-22T1600,1344A,112.9581,28.3611,长沙市,沙坪,细颗粒物(PM2.5),73,61,82,53,75,44,,48,38,23,23,9,10,0.8,0.9
2024-12-22T1600,1727A,113.1147,36.1547,长治市,清华站,,30,30,50,14,24,62,,40,40,23,37,14,18,0.5,0.8
2024-12-22T1600,1728A,113.1031,36.1989,长治市,监测站,,28,27,52,19,30,64,,38,38,18,39,11,19,0.7,0.9
2024-12-22T1600,1730A,113.0886,36.2125,长治市,审计局,,30,30,50,19,29,64,,39,39,21,39,11,18,0.5,0.6
2024-12-22T1600,1731A,113.0844,36.1856,长治市,长治八中,颗粒物(PM10),54,57,74,23,34,62,,36,36,16,38,11,18,0.7,0.9
2024-12-22T1600,2845A,113.1569,36.1911,长治市,德盛苑,,28,,39,19,22,71,,48,48,17,29,6,12,0.5,0.8
2024-12-22T1600,3568A,113.06,36.0464,长治市,向阳小学,颗粒物(PM10),55,60,60,28,32,65,,53,53,22,27,9,16,0.5,0.8
2024-12-22T1600,3569A,112.8792,36.3144,长治市,屯留一中,,37,37,33,22,20,66,,48,48,33,38,22,15,0.6,0.5
2024-12-22T1600,3570A,113.235,36.3489,长治市,潞城四中,颗粒物(PM10),55,59,66,37,32,71,,48,48,29,36,20,27,1.3,1.3
2024-12-22T1600,1854A,111.6975,28.9703,常德市,市二中,,48,47,88,33,61,64,,63,63,14,16,5,6,0.5,0.6
2024-12-22T1600,1857A,111.7158,29.1456,常德市,白鹤山,,,,,,,,,,,,,,,,
2024-12-22T1600,3138A,111.7153,29.0289,常德市,武陵区永安,颗粒物(PM10),52,54,95,33,58,59,,61,59,15,16,5,5,0.5,0.7
2024-12-22T1600,3139A,111.6892,28.9881,常德市,鼎城区玉霞,,49,49,95,31,59,62,,62,60,13,15,4,6,0.4,0.6
2024-12-22T1600,3140A,111.6625,29.0531,常德市,武陵区长庚,细颗粒物(PM2.5),55,58,103,39,62,57,,62,59,13,16,3,4,0.4,0.5
2024-12-22T1600,1196A,119.9633,31.762,常州市,市监测站,,41,41,58,24,40,75,,61,61,16,28,8,10,0.5,0.5
2024-12-22T1600,1200A,119.9468,31.7069,常州市,武进监测站,,38,38,56,22,34,73,,61,61,19,32,6,8,0.4,0.5
2024-12-22T1600,1201A,119.9255,31.9087,常州市,安家,,39,39,68,22,38,75,,57,57,16,38,9,9,0.4,0.6
2024-12-22T1600,3002A,119.9805,31.8174,常州市,行政中心,,38,32,50,26,38,70,,56,56,15,28,5,7,0.4,0.5
2024-12-22T1600,3003A,120.0522,31.7748,常州市,经开区,,47,47,66,25,36,74,,63,63,22,34,10,10,0.7,0.7
2024-12-22T1600,3010A,119.9025,31.7964,常州市,钟楼,,36,36,56,22,39,73,,58,58,17,38,8,10,0.4,0.6
2024-12-22T1600,3429A,119.8598,31.7066,常州市,武进经发区,,37,37,66,24,40,75,,58,58,20,38,7,9,0.4,0.6
2024-12-22T1600,3430A,119.5826,31.7245,常州市,金坛城区,,48,41,64,33,42,80,,60,60,18,27,7,8,0.4,0.6
2024-12-22T1600,2220A,120.4318,41.5881,朝阳市,西梁,,31,31,36,11,15,72,,55,55,12,20,4,9,0.6,0.8
2024-12-22T1600,2221A,120.4521,41.5646,朝阳市,河畔小区,,33,33,33,8,12,67,,53,53,16,18,5,10,0.7,1.1
2024-12-22T1600,2222A,120.4176,41.5648,朝阳市,八里堡,,33,33,35,13,13,70,,55,55,12,15,8,13,0.5,0.7
2024-12-22T1600,2223A,120.3806,41.5969,朝阳市,农业园区,,26,23,28,9,13,81,,64,64,5,10,5,11,0.4,0.6
2024-12-22T1600,1705A,116.6367,23.6719,潮州市,西园路,细颗粒物(PM2.5),75,82,42,55,31,122,,90,90,16,13,7,6,0.6,0.5
2024-12-22T1600,3026A,116.6183,23.6608,潮州市,市政府,细颗粒物(PM2.5),82,71,41,60,27,121,,90,90,18,15,6,5,0.5,0.4
2024-12-22T1600,4036A,116.6461,23.6761,潮州市,金山,细颗粒物(PM2.5),102,,40,76,35,114,,83,83,17,16,8,6,0.6,0.5
2024-12-22T1600,2472A,113.0073,25.9061,郴州市,马头岭,颗粒物(PM10),86,122,122,50,72,104,,82,82,25,30,13,12,0.7,0.8
2024-12-22T1600,2473A,113.0116,25.8226,郴州市,市职中,细颗粒物(PM2.5),75,71,101,55,82,124,,84,84,17,34,6,6,0.7,0.9
2024-12-22T1600,2474A,113.0161,25.8001,郴州市,兴隆步行街,细颗粒物(PM2.5),68,74,115,49,89,121,,82,82,19,29,9,8,0.7,0.9
2024-12-22T1600,2475A,113.0383,25.8071,郴州市,市审计局,细颗粒物(PM2.5),69,64,99,50,84,124,,87,87,17,25,9,9,0.8,1
2024-12-22T1600,2476A,113.0348,25.7759,郴州市,市环保局,细颗粒物(PM2.5),73,76,106,53,89,121,,87,87,13,29,8,7,0.7,0.9
2024-12-22T1600,1431A,103.9728,30.7236,成都市,金泉两河,细颗粒物(PM2.5),79,,56,58,40,18,,28,18,36,34,2,2,0.8,0.8
2024-12-22T1600,1432A,104.176,30.6872,成都市,十里店,细颗粒物(PM2.5),58,55,58,41,48,27,,24,20,21,26,1,1,0.9,0.9
2024-12-22T1600,1433A,104.079,30.5706,成都市,三瓦窑,颗粒物(PM10),53,55,53,34,42,27,,26,,23,23,1,2,0.8,0.7
2024-12-22T1600,1434A,104.1114,30.63,成都市,沙河铺,细颗粒物(PM2.5),67,,55,48,41,28,,30,24,21,23,2,3,0.6,0.5
2024-12-22T1600,1437A,104.0786,30.6531,成都市,君平街,细颗粒物(PM2.5),64,61,57,46,47,10,,27,15,35,26,4,4,0.9,0.7
2024-12-22T1600,1438A,103.613,31.0283,成都市,灵岩寺,,,,,,,,,,,,,,,,
2024-12-22T1600,2880A,104.0239,30.65639,成都市,大石西路,细颗粒物(PM2.5),64,59,59,46,47,15,,26,19,33,27,2,3,0.6,0.5
2024-12-22T1600,3136A,104.2725,30.5589,成都市,龙泉驿区区政府,细颗粒物(PM2.5),55,,50,39,42,21,,23,19,24,21,2,3,0.8,0.7
2024-12-22T1600,3357A,104.0106,30.6931,成都市,金博路,细颗粒物(PM2.5),67,59,55,48,43,17,,22,16,30,29,1,1,0.9,0.8
2024-12-22T1600,3359A,104.0578,30.5225,成都市,华阳,,48,48,55,31,43,18,,22,18,29,27,3,3,0.7,0.6
2024-12-22T1600,3487A,104.2394,30.5319,成都市,车城东七路,,50,41,51,35,43,15,,19,16,31,24,1,1,0.7,0.6
2024-12-22T1600,3488A,104.3853,30.7453,成都市,青白江技师分院,细颗粒物(PM2.5),54,48,50,38,44,36,,30,26,17,19,2,2,0.6,0.6
2024-12-22T1600,3489A,104.0789,30.4072,成都市,科学城,,49,42,54,34,46,29,,23,20,19,27,3,4,0.6,0.6
2024-12-22T1600,4011A,103.8506,30.6947,成都市,光华大道三段,,,62,58,41,42,,,27,20,,29,3,2,,0.7
2024-12-22T1600,1062A,117.9531,40.9081,承德市,铁路,,21,13,23,6,7,66,,52,52,9,11,6,4,0.2,0.3
2024-12-22T1600,1063A,117.9392,40.9763,承德市,中国银行,,28,28,27,3,7,59,,47,47,8,10,1,2,0.2,0.3
2024-12-22T1600,1064A,117.9503,40.928,承德市,开发区,,24,24,35,12,14,67,,52,52,7,13,3,2,0.3,0.3
2024-12-22T1600,1065A,117.8051,40.9655,承德市,文化中心,,30,30,31,12,7,64,,57,57,12,15,3,2,0.2,0.2
2024-12-22T1600,1066A,117.9268,41.0026,承德市,离宫,,39,39,23,16,22,50,,48,48,12,9,3,2,0.3,0.3
2024-12-22T1600,2314A,117.47,30.6618,池州市,池州学院,"颗粒物(PM10),细颗粒物(PM2.5)",67,83,79,48,50,52,,43,43,32,29,10,9,0.4,0.4
2024-12-22T1600,3237A,117.4918,30.6617,池州市,展览馆,颗粒物(PM10),64,78,76,43,49,49,,45,45,34,29,13,8,0.5,0.5
2024-12-22T1600,3333A,117.5627,30.695,池州市,第八中学,颗粒物(PM10),63,75,79,43,51,54,,46,46,32,31,8,7,0.6,0.6
2024-12-22T1600,3334A,117.5038,30.6243,池州市,第十二中学,颗粒物(PM10),59,68,81,41,57,64,,52,52,24,36,6,6,0.4,0.4
2024-12-22T1600,1744A,118.9233,42.2816,赤峰市,松山一中,,23,13,20,3,10,71,,57,57,10,21,6,12,0.4,0.7
2024-12-22T1600,1745A,118.9576,42.2728,赤峰市,哈达街,,22,7,12,3,5,68,,60,60,21,17,5,7,0.5,0.6
2024-12-22T1600,1746A,118.8788,42.2554,赤峰市,天义路,,20,12,17,7,6,61,,58,58,20,17,8,9,0.5,0.6
2024-12-22T1600,3058A,119.2658,42.0353,赤峰市,银河街,颗粒物(PM10),58,66,35,25,20,60,,48,48,31,22,19,19,1.2,0.9
2024-12-22T1600,3286A,118.9359,42.3147,赤峰市,桥北物流园区,,24,6,11,3,10,76,,65,65,13,15,6,9,0.6,0.7
2024-12-22T1600,2521A,107.3476,22.4136,崇左市,市环保局江州分局,细颗粒物(PM2.5),79,89,112,58,64,144,,101,101,20,30,10,8,0.9,1.2
2024-12-22T1600,2522A,107.3702,22.3707,崇左市,城南新区,细颗粒物(PM2.5),82,80,88,60,79,149,,106,106,16,26,10,10,0.9,1
2024-12-22T1600,2298A,118.3093,32.3153,滁州市,老年大学,颗粒物(PM10),52,53,59,34,33,78,,58,58,21,28,8,5,0.3,0.3
2024-12-22T1600,2299A,118.3244,32.2786,滁州市,人大宾馆,细颗粒物(PM2.5),63,54,61,45,35,74,,56,56,16,17,10,9,0.4,0.4
2024-12-22T1600,3207A,118.3118,32.3038,滁州市,市政府原办公楼,"颗粒物(PM10),细颗粒物(PM2.5)",52,54,57,36,36,75,,56,56,24,31,7,6,0.4,0.4
2024-12-22T1600,3331A,118.3267,32.2634,滁州市,图书馆,颗粒物(PM10),53,55,64,31,27,74,,56,56,20,23,8,7,0.6,0.3
2024-12-22T1600,2605A,101.5482,25.0441,楚雄彝族自治州,州环境监测站,,27,6,18,3,19,86,,74,74,4,5,6,6,0.3,0.4
2024-12-22T1600,2606A,101.538,25.0492,楚雄彝族自治州,市经济开发区,,27,,22,3,18,86,,71,71,3,8,5,6,0.3,0.5
2024-12-22T1600,2548A,107.5277,31.2827,达州市,达州职业技术学院,细颗粒物(PM2.5),74,58,144,54,132,55,,15,15,22,26,5,6,0.4,0.7
2024-12-22T1600,2549A,107.5086,31.2186,达州市,市环境监测站,颗粒物(PM10),57,64,138,39,107,55,,14,14,28,41,5,7,0.7,1.2
2024-12-22T1600,2550A,107.4988,31.2132,达州市,凤凰小区,细颗粒物(PM2.5),64,63,132,46,109,60,,18,18,26,40,7,9,0.6,1.1
2024-12-22T1600,2551A,107.5082,31.1986,达州市,达县机关宾馆,"颗粒物(PM10),细颗粒物(PM2.5)",54,58,134,38,111,56,,18,18,32,43,5,8,0.8,1.3
2024-12-22T1600,2552A,107.4644,31.2124,达州市,市政中心,"颗粒物(PM10),细颗粒物(PM2.5)",52,54,132,36,104,60,,20,20,24,46,5,7,0.6,1.2
2024-12-22T1600,2614A,100.1542,25.7054,大理白族自治州,大理市环境监测站,,28,7,13,6,10,87,,71,71,4,8,7,7,0.5,0.5
2024-12-22T1600,2615A,100.2171,25.5811,大理白族自治州,大理古城,,,,20,19,10,85,,75,75,4,9,,5,0.5,0.6
2024-12-22T1600,1109A,121.612,38.9741,大连市,甘井子,,26,26,39,7,12,75,,61,61,15,35,7,10,0.8,0.8
2024-12-22T1600,1110A,121.565,38.9511,大连市,周水子,,22,22,34,6,17,67,,56,56,19,40,5,8,0.5,0.7
2024-12-22T1600,1111A,121.5637,38.8845,大连市,星海三站,,24,19,30,3,15,75,,63,63,9,23,11,12,0.4,0.7
2024-12-22T1600,1112A,121.6302,38.9117,大连市,青泥洼桥,,21,11,31,6,12,66,,52,52,12,27,10,12,0.4,0.4
2024-12-22T1600,1113A,121.6251,38.8638,大连市,傅家庄,,24,19,28,6,10,75,,69,69,10,21,12,14,0.3,0.3
2024-12-22T1600,1114A,121.5213,38.8661,大连市,七贤岭,,26,12,23,3,10,82,,72,72,7,15,8,8,0.6,0.7
2024-12-22T1600,1115A,121.2529,38.8061,大连市,旅顺,,23,12,18,3,10,72,,69,69,16,16,9,12,0.6,0.7
2024-12-22T1600,1116A,121.7485,39.1311,大连市,金州,,24,17,33,3,18,75,,66,66,11,15,5,7,0.7,0.8
2024-12-22T1600,1117A,121.7811,39.0496,大连市,开发区,,,19,25,6,10,69,,64,64,15,17,7,9,,0.4
2024-12-22T1600,1118A,121.9762,39.0631,大连市,双D港,,28,14,27,3,12,87,,82,82,10,12,7,11,0.5,0.6
2024-12-22T1600,1789A,124.81117,46.03138,大庆市,大同区,,41,41,34,26,24,57,,61,61,23,19,5,6,0.6,0.6
2024-12-22T1600,1790A,125.129,46.533,大庆市,龙凤区,,23,23,34,11,21,56,,60,60,27,24,8,10,0.4,0.6
2024-12-22T1600,1791A,124.902,46.408,大庆市,红岗区,,32,29,25,22,17,49,,54,54,28,25,7,6,0.4,0.4
2024-12-22T1600,1792A,125.153,46.586,大庆市,萨尔图区,,28,28,30,9,17,41,,52,48,42,32,7,6,0.7,0.6
2024-12-22T1600,1793A,124.9042,46.6215,大庆市,让胡路区,,38,29,32,26,24,67,,64,64,12,15,7,6,0.3,0.4
2024-12-22T1600,3481A,125.141,46.634,大庆市,萨区政府监测点,,24,24,25,7,10,45,,53,53,36,28,6,5,0.4,0.4
2024-12-22T1600,1721A,113.3819,40.1097,大同市,果树场,颗粒物(PM10),61,71,71,30,44,33,,29,29,49,44,31,16,0.8,1.1
2024-12-22T1600,1723A,113.2994,40.0758,大同市,云冈宾馆,细颗粒物(PM2.5),73,90,62,53,32,37,,31,31,48,41,28,29,0.8,1.2
2024-12-22T1600,1724A,113.3444,40.0917,大同市,大同大学,颗粒物(PM10),60,70,56,35,29,37,,32,32,39,40,31,29,1.0,1
2024-12-22T1600,1725A,113.2661,40.1269,大同市,安家小村,颗粒物(PM10),79,108,75,52,32,36,,33,33,47,36,43,30,1.1,1.6
2024-12-22T1600,1726A,113.2711,40.0844,大同市,教育学院,颗粒物(PM10),69,88,84,42,36,37,,30,30,49,48,30,34,0.9,1.4
2024-12-22T1600,3282A,113.3397,40.0597,大同市,大同市卫生学校,颗粒物(PM10),66,81,64,40,31,33,,27,27,47,40,23,35,0.9,1
2024-12-22T1600,3565A,113.1367,40.1122,大同市,云冈站,颗粒物(PM10),84,117,67,46,27,36,,37,37,46,36,30,32,0.8,0.8
2024-12-22T1600,3566A,113.1186,40.2556,大同市,图书馆,,23,23,35,14,31,55,,45,45,26,20,34,18,0.7,1
2024-12-22T1600,3567A,113.5931,40.0461,大同市,区一中,颗粒物(PM10),51,52,103,13,40,48,,32,32,34,43,55,50,0.8,1.3
2024-12-22T1600,3676A,113.2802,40.0995,大同市,第二人民医院,颗粒物(PM10),68,86,87,44,39,42,,37,37,46,47,33,31,0.9,1.4
2024-12-22T1600,2269A,124.1069,50.4097,大兴安岭地区,科技局,,26,19,13,18,14,77,,73,73,6,4,5,5,0.3,0.3
2024-12-22T1600,3663A,124.1164,50.4278,大兴安岭地区,红旗社区,,24,,13,6,7,76,,61,61,5,12,7,5,0.3,0.4
2024-12-22T1600,1600A,124.3303,40.0625,丹东市,江湾东路,,41,41,46,20,28,57,,50,50,13,19,16,15,0.6,0.9
2024-12-22T1600,1601A,124.4256,40.1503,丹东市,临江后街,,33,29,35,23,26,69,,56,56,11,22,12,13,0.7,0.9
2024-12-22T1600,1602A,124.3933,40.1461,丹东市,元宝山,,33,33,38,18,22,60,,48,48,12,18,8,10,0.7,0.9
2024-12-22T1600,1603A,124.3633,40.1092,丹东市,民主桥,颗粒物(PM10),53,56,54,20,29,58,,48,48,17,27,21,19,1.0,1.1
2024-12-22T1600,3541A,109.5726,19.5167,儋州市,第一中学子站,,46,46,48,29,29,109,,98,98,10,14,6,8,0.6,0.6
2024-12-22T1600,3542A,109.5567,19.5187,儋州市,东坡学校子站,,46,46,46,29,30,120,,105,105,8,12,6,7,0.5,0.6
2024-12-22T1600,2616A,98.5842,24.428,德宏傣族景颇族自治州,德宏州监测站,,45,45,88,29,59,85,,40,40,15,31,10,16,0.7,1
2024-12-22T1600,3677A,98.5881,24.4368,德宏傣族景颇族自治州,芒市人民政府综合楼,颗粒物(PM10),51,52,78,27,58,81,,36,36,13,27,9,10,0.6,1
2024-12-22T1600,1901A,104.4239,31.1208,德阳市,东山公园,细颗粒物(PM2.5),65,59,69,47,48,41,,39,36,18,17,1,1,0.7,0.6
2024-12-22T1600,1902A,104.3826,31.1317,德阳市,西小区,细颗粒物(PM2.5),69,56,60,50,52,36,,36,32,23,20,1,1,0.7,0.7
2024-12-22T1600,1904A,104.3553,31.1091,德阳市,耐火材料厂,细颗粒物(PM2.5),64,,51,46,49,37,,34,30,19,18,3,3,0.5,0.5
2024-12-22T1600,3639A,104.4019,31.1244,德阳市,市教育局,细颗粒物(PM2.5),60,49,56,43,48,37,,36,34,22,20,2,2,0.8,0.7
2024-12-22T1600,1622A,116.3032,37.4674,德州市,儿童乐园,,34,34,58,17,27,78,,51,51,14,43,9,10,0.8,0.9
2024-12-22T1600,1624A,116.2991,37.4451,德州市,监理站,,27,27,48,14,25,83,,56,56,17,45,11,11,0.7,0.8
2024-12-22T1600,3066A,116.2721,37.4379,德州市,九衢泉纯净水厂,,34,34,57,17,32,65,,48,48,34,48,12,12,0.4,0.5
2024-12-22T1600,3371A,116.3728,37.4403,德州市,开发区人民医院,,39,39,54,12,25,78,,54,54,16,42,12,11,0.5,0.7
2024-12-22T1600,3372A,116.3572,37.4094,德州市,太阳城中学,,36,36,62,17,34,82,,56,56,29,57,10,11,0.5,0.7
2024-12-22T1600,3511A,116.5652,37.3319,德州市,陵城艺术中心,,,34,58,14,32,73,,51,51,19,44,,11,0.6,0.8
2024-12-22T1600,2621A,99.7056,27.8317,迪庆藏族自治州,迪庆州站,,28,18,18,8,15,88,,83,83,6,10,7,8,0.4,0.6
2024-12-22T1600,3180A,99.7136,27.8094,迪庆藏族自治州,质量技术监督局,,25,21,15,3,9,78,,74,74,5,7,7,7,0.5,0.6
2024-12-22T1600,2663A,104.6241,35.5734,定西市,东关小学,细颗粒物(PM2.5),52,47,58,36,36,57,,54,54,13,18,5,6,0.5,0.7
2024-12-22T1600,2664A,104.6194,35.5934,定西市,供电公司,,47,47,60,24,30,67,,60,60,13,22,8,11,0.8,1.1
2024-12-22T1600,1389A,113.7547,23.0494,东莞市,莞城梨川,,48,48,51,31,34,125,,111,111,19,24,8,8,0.7,0.7
2024-12-22T1600,1390A,113.7944,23.0128,东莞市,东城石井,,,55,46,42,31,124,,104,104,,26,8,8,0.6,0.6
2024-12-22T1600,1391A,113.7383,22.9658,东莞市,南城西平,颗粒物(PM10),55,60,51,37,30,129,,105,105,19,45,7,7,0.6,0.6
2024-12-22T1600,3319A,113.7338,23.0381,东莞市,万江金泰,细颗粒物(PM2.5),52,51,48,36,33,120,,108,108,19,21,8,8,0.6,0.6
2024-12-22T1600,3626A,113.7533,23.0202,东莞市,南城元岭,,50,50,49,33,33,133,,116,116,15,19,9,9,0.6,0.6
2024-12-22T1600,3627A,113.7875,23.0457,东莞市,东城主山,,49,49,48,32,33,119,,104,104,22,27,11,11,0.6,0.6
2024-12-22T1600,1666A,118.6614,37.4309,东营市,市环保局,,36,36,40,24,20,69,,59,59,20,36,7,11,0.6,0.7
2024-12-22T1600,3036A,118.6904,37.4338,东营市,开发区管委会,,43,43,43,27,23,75,,64,64,20,38,6,9,0.8,0.8
2024-12-22T1600,3365A,118.5719,37.565,东营市,垦利区民丰路,,36,36,42,17,20,68,,52,52,19,39,13,19,0.4,0.6
2024-12-22T1600,3498A,118.5055,37.8612,东营市,河口城区,,36,36,46,17,20,68,,58,58,17,38,5,4,0.4,0.6
2024-12-22T1600,3646A,118.4978,37.4623,东营市,胜利站,,35,35,47,22,26,56,,52,52,33,44,9,12,0.7,0.8
2024-12-22T1600,3734A,118.35,37.26,东营市,理想之城,,39,39,46,22,25,70,,60,60,24,40,8,12,0.4,0.7
2024-12-22T1600,1591A,110.0023,39.8129,鄂尔多斯市,综合楼,,,36,44,9,16,61,,47,47,29,42,12,15,,0.8
2024-12-22T1600,1592A,109.9486,39.8261,鄂尔多斯市,巴音孟克林场办事处,,34,34,38,9,15,64,,53,53,24,37,11,12,0.5,0.6
2024-12-22T1600,1593A,109.7736,39.5986,鄂尔多斯市,康泽苑,颗粒物(PM10),51,51,37,24,15,42,,31,31,33,33,14,8,0.8,0.6
2024-12-22T1600,1594A,109.8119,39.5989,鄂尔多斯市,华泰汽车城,,41,41,46,24,17,44,,29,29,34,40,14,9,0.7,0.6
2024-12-22T1600,1595A,109.9734,39.7884,鄂尔多斯市,奥林花园,,44,44,41,12,10,55,,43,43,30,46,12,11,0.6,0.5
2024-12-22T1600,2436A,114.8938,30.3994,鄂州市,市政府,细颗粒物(PM2.5),69,79,75,50,48,50,,44,44,33,30,12,10,1.0,0.8
2024-12-22T1600,2437A,114.8989,30.3714,鄂州市,赵家坝,细颗粒物(PM2.5),69,81,79,50,50,54,,51,45,30,29,10,9,0.7,0.6
2024-12-22T1600,3654A,114.8094,30.4089,鄂州市,精准医疗中心,细颗粒物(PM2.5),89,80,73,66,47,53,,51,51,33,24,12,12,0.7,0.6
2024-12-22T1600,2454A,109.4978,30.2981,恩施土家族苗族自治州,湖北民院,细颗粒物(PM2.5),68,,72,49,101,68,,47,47,14,20,8,7,0.2,0.6
2024-12-22T1600,2455A,109.4707,30.2798,恩施土家族苗族自治州,州电力总公司,细颗粒物(PM2.5),60,52,112,43,98,66,,44,44,18,27,8,7,0.8,1
2024-12-22T1600,3549A,109.5061,30.3772,恩施土家族苗族自治州,龙凤新区,细颗粒物(PM2.5),69,63,119,50,99,64,,38,38,19,27,6,6,0.7,1
2024-12-22T1600,2499A,108.3411,21.6158,防城港市,沙万,"颗粒物(PM10),细颗粒物(PM2.5)",60,70,73,43,64,136,,108,108,21,21,12,11,1.2,1.2
2024-12-22T1600,2500A,108.3514,21.7731,防城港市,防城档案局,细颗粒物(PM2.5),68,72,96,49,67,133,,105,105,22,29,9,10,0.7,0.8
2024-12-22T1600,2501A,108.3506,21.6414,防城港市,大海花园,细颗粒物(PM2.5),63,70,79,45,64,138,,110,110,22,20,13,10,1.1,1
2024-12-22T1600,1371A,113.1294,23.0067,佛山市,湾梁,颗粒物(PM10),60,70,55,37,31,114,,103,103,34,32,8,8,1.0,1
2024-12-22T1600,1372A,113.1083,23.0478,佛山市,华材职中,细颗粒物(PM2.5),60,66,64,43,40,119,,103,103,36,42,8,9,0.7,0.7
2024-12-22T1600,1373A,113.144,23.0453,佛山市,南海气象局,细颗粒物(PM2.5),59,53,48,42,36,116,,101,101,31,33,7,8,0.5,0.6
2024-12-22T1600,1374A,113.2881,22.8094,佛山市,顺德苏岗,,50,50,44,29,29,114,,96,96,24,26,8,9,0.5,0.5
2024-12-22T1600,1376A,112.8383,22.8678,佛山市,高明孔堂,细颗粒物(PM2.5),79,68,56,58,40,124,,105,105,36,31,12,11,0.7,0.7
2024-12-22T1600,1377A,112.8836,23.1588,佛山市,三水监测站,细颗粒物(PM2.5),64,63,54,46,41,124,,105,105,28,30,11,12,0.7,0.7
2024-12-22T1600,1378A,112.867,23.185,佛山市,三水云东海,细颗粒物(PM2.5),59,65,51,42,38,126,,104,104,27,30,12,11,0.7,0.7
2024-12-22T1600,3625A,113.2544,22.7642,佛山市,容桂街道办,颗粒物(PM10),53,56,52,36,33,115,,100,100,29,29,7,8,0.6,0.6
2024-12-22T1600,1280A,119.3903,26.0543,福州市,鼓山,,,,47,,39,,,93,,,19,,3,,0.4
2024-12-22T1600,1282A,119.2681,26.0504,福州市,师大,细颗粒物(PM2.5),58,54,53,41,47,120,,104,104,20,20,5,5,0.4,0.4
2024-12-22T1600,1283A,119.2984,26.1028,福州市,五四北路,细颗粒物(PM2.5),58,49,49,41,47,117,,101,101,21,21,3,3,0.6,0.6
2024-12-22T1600,1284A,119.2648,26.0768,福州市,杨桥西路,细颗粒物(PM2.5),62,62,55,44,47,122,,104,104,15,16,3,3,0.5,0.5
2024-12-22T1600,1285A,119.317,26.0746,福州市,紫阳,细颗粒物(PM2.5),59,53,55,42,48,109,,90,90,22,25,5,4,0.6,0.5
2024-12-22T1600,3048A,119.5799,26.0936,福州市,九龙,,40,40,48,23,43,110,,102,102,13,14,2,3,0.5,0.6
2024-12-22T1600,3526A,119.5189,25.9664,福州市,吴航,,39,39,62,26,44,115,,106,106,17,17,4,5,0.4,0.6
2024-12-22T1600,1755A,123.7977,41.8491,抚顺市,望花区,颗粒物(PM10),54,58,104,28,57,53,,42,42,30,43,8,8,0.7,1.3
2024-12-22T1600,1756A,123.9161,41.8822,抚顺市,顺城区,颗粒物(PM10),53,56,108,23,61,53,,40,40,34,44,10,10,0.5,1.1
2024-12-22T1600,1757A,124.0436,41.8611,抚顺市,东洲区,颗粒物(PM10),54,57,92,18,56,47,,39,39,36,55,6,5,0.5,0.8
2024-12-22T1600,1758A,123.9247,41.8642,抚顺市,新抚区,颗粒物(PM10),60,69,107,30,67,52,,41,41,31,39,7,6,0.6,0.9
2024-12-22T1600,1759A,124.0972,41.8961,抚顺市,大伙房水库,颗粒物(PM10),53,55,75,26,49,55,,42,42,26,42,11,10,0.7,0.8
2024-12-22T1600,1760A,123.7086,41.8391,抚顺市,沈抚新城,颗粒物(PM10),55,59,84,17,49,55,,46,46,31,38,9,7,0.5,0.9
2024-12-22T1600,2376A,116.2127,28.0814,抚州市,桐源党溪,细颗粒物(PM2.5),72,74,88,52,57,74,,64,64,3,3,8,7,0.8,0.8
2024-12-22T1600,2377A,116.3544,27.9831,抚州市,市站,细颗粒物(PM2.5),72,79,83,52,54,83,,76,76,21,19,9,6,1.0,1.2
2024-12-22T1600,2378A,116.3565,27.963,抚州市,血防站,细颗粒物(PM2.5),72,88,87,52,53,82,,72,72,15,15,6,8,1.3,1.3
2024-12-22T1600,2379A,116.3564,28.0007,抚州市,采茶剧团,细颗粒物(PM2.5),69,83,81,50,57,69,,61,61,19,17,5,4,1.1,1.1
2024-12-22T1600,2380A,116.385,27.9647,抚州市,医学分院,细颗粒物(PM2.5),69,83,83,50,49,70,,64,64,18,17,8,10,1.0,0.9
2024-12-22T1600,2207A,121.6094,41.998,阜新市,工业园区,,33,33,48,10,19,69,,61,61,17,21,6,14,0.6,0.7
2024-12-22T1600,2208A,121.6697,42.0279,阜新市,长青街,,28,28,39,10,12,69,,56,56,13,15,7,13,0.4,0.4
2024-12-22T1600,2209A,121.6673,42.0705,阜新市,农业园区,,23,23,30,3,11,68,,58,58,10,13,9,15,0.5,0.7
2024-12-22T1600,2210A,121.6717,42.0224,阜新市,东苑,,30,30,38,3,11,69,,54,54,8,14,8,11,0.4,0.5
2024-12-22T1600,2211A,121.6506,42.0498,阜新市,玉龙新城,,25,25,49,16,17,72,,63,63,13,29,4,13,0.5,0.7
2024-12-22T1600,2301A,115.8277,32.8929,阜阳市,市监测站,细颗粒物(PM2.5),52,42,56,36,37,61,,48,48,22,29,9,8,0.5,0.5
2024-12-22T1600,2303A,115.8554,32.8605,阜阳市,开发区,颗粒物(PM10),61,71,76,33,33,58,,48,48,24,29,15,11,0.3,0.4
2024-12-22T1600,2875A,115.784,32.8892,阜阳市,阜阳职业技术学院,颗粒物(PM10),55,60,62,38,36,57,,47,47,23,26,13,9,0.6,0.6
2024-12-22T1600,3468A,115.7901,32.8613,阜阳市,市规划展馆,颗粒物(PM10),53,55,59,36,31,60,,52,52,21,23,16,9,0.3,0.3
2024-12-22T1600,3469A,115.836,32.9183,阜阳市,枣园社区,,50,50,64,33,33,65,,51,51,23,29,7,6,0.4,0.5
2024-12-22T1600,2669A,102.9099,34.9841,甘南藏族自治州,州政府,,29,27,75,20,47,78,,43,43,5,35,10,12,0.3,0.9
2024-12-22T1600,3380A,102.8914,34.9617,甘南藏族自治州,甘肃民族师范学院,,34,34,83,20,46,71,,42,42,26,44,35,12,0.4,0.8
2024-12-22T1600,2570A,101.9603,30.0475,甘孜藏族自治州,水桥子,,19,10,9,3,7,59,,50,44,10,16,2,2,0.6,0.6
2024-12-22T1600,3065A,101.9533,29.9972,甘孜藏族自治州,州环保局,,20,14,14,3,4,63,,55,51,11,15,4,4,0.8,0.8
2024-12-22T1600,3414A,115.8347,28.932,赣江新区,桑海产业园,,,,93,,48,,,67,,,23,,12,,0.7
2024-12-22T1600,2362A,114.9017,25.9149,赣州市,通天岩,细颗粒物(PM2.5),82,61,64,60,59,126,,102,102,13,14,9,6,0.5,0.5
2024-12-22T1600,2363A,114.9367,25.8664,赣州市,地委,细颗粒物(PM2.5),59,65,81,42,50,105,,87,87,18,20,8,13,1.0,0.9
2024-12-22T1600,2364A,114.9461,25.8481,赣州市,气象台,颗粒物(PM10),61,71,86,38,46,126,,106,106,30,30,14,18,0.9,0.8
2024-12-22T1600,2365A,114.9322,25.8333,赣州市,市图书馆,颗粒物(PM10),57,63,76,37,52,110,,90,90,20,22,7,9,0.8,0.8
2024-12-22T1600,2366A,114.8905,25.8471,赣州市,华坚鞋城,细颗粒物(PM2.5),57,61,73,40,49,118,,101,101,13,16,8,9,0.6,0.6
2024-12-22T1600,3109A,115.0093,25.8613,赣州市,赣县区卫计委,细颗粒物(PM2.5),79,80,85,58,65,108,,87,87,12,26,7,6,0.5,0.6
2024-12-22T1600,2683A,106.2319,36.1417,固原市,马园,颗粒物(PM10),60,70,57,36,32,47,,61,54,37,24,8,8,0.4,0.4
2024-12-22T1600,2684A,106.2792,36.0022,固原市,监测站,细颗粒物(PM2.5),53,54,47,37,34,68,,72,71,22,18,8,7,0.7,0.7
2024-12-22T1600,2685A,106.2375,36.0211,固原市,新区,"颗粒物(PM10),细颗粒物(PM2.5)",53,56,50,37,35,60,,64,63,26,21,9,8,0.6,0.6
2024-12-22T1600,3522A,106.2177,35.9959,固原市,原州区十五小,颗粒物(PM10),61,71,62,41,37,62,,63,62,23,21,8,6,0.7,0.7
2024-12-22T1600,2543A,106.6308,30.5278,广安市,小平旧居,,,,,,,,,,,,,,,,
2024-12-22T1600,2544A,106.6303,30.4576,广安市,市委,细颗粒物(PM2.5),95,77,99,71,87,63,,49,49,20,25,2,2,0.7,0.8
2024-12-22T1600,2545A,106.6271,30.4663,广安市,友谊中学,细颗粒物(PM2.5),95,76,101,71,87,62,,46,46,28,34,2,2,0.7,0.9
2024-12-22T1600,2547A,106.6388,30.4551,广安市,广电花园,细颗粒物(PM2.5),90,79,94,67,87,55,,42,42,23,26,4,4,0.6,0.7
2024-12-22T1600,2902A,106.6351,30.4865,广安市,北辰小学,细颗粒物(PM2.5),93,70,96,69,87,60,,47,47,20,24,5,5,0.8,0.9
2024-12-22T1600,2523A,105.8945,32.4535,广元市,黑石坡,细颗粒物(PM2.5),62,,55,44,48,12,,13,13,24,22,3,3,0.6,0.7
2024-12-22T1600,2524A,105.821,32.4444,广元市,老城,细颗粒物(PM2.5),62,66,68,44,47,28,,45,37,42,33,3,2,0.7,0.8
2024-12-22T1600,2526A,105.8628,32.4287,广元市,监测站,细颗粒物(PM2.5),52,47,60,36,51,45,,56,50,29,29,2,2,0.7,0.8
2024-12-22T1600,3617A,105.8047,32.4166,广元市,经开区,细颗粒物(PM2.5),68,52,62,49,54,40,,47,46,32,30,4,4,0.7,0.8
2024-12-22T1600,1345A,113.2347,23.1423,广州市,广雅中学,颗粒物(PM10),60,70,69,41,41,113,,102,102,33,39,10,10,0.6,0.6
2024-12-22T1600,1346A,113.2612,23.105,广州市,市五中,细颗粒物(PM2.5),68,65,59,49,43,123,,108,108,22,23,5,5,0.6,0.6
2024-12-22T1600,1348A,113.3478,23.0916,广州市,广东商学院,细颗粒物(PM2.5),57,61,49,40,35,128,,108,108,23,21,6,6,0.4,0.4
2024-12-22T1600,1349A,113.4332,23.1047,广州市,市八十六中,颗粒物(PM10),68,86,62,35,33,113,,97,97,23,22,6,6,0.5,0.6
2024-12-22T1600,1350A,113.3505,22.9483,广州市,番禺中学,颗粒物(PM10),54,57,54,34,33,122,,107,107,25,26,5,5,0.4,0.5
2024-12-22T1600,1351A,113.2146,23.3916,广州市,花都师范,细颗粒物(PM2.5),58,54,51,41,36,115,,102,102,21,18,11,8,0.6,0.5
2024-12-22T1600,1352A,113.2597,23.1331,广州市,市监测站,颗粒物(PM10),56,62,60,39,37,115,,103,103,32,32,7,7,0.5,0.5
2024-12-22T1600,1353A,113.5618,23.312,广州市,九龙镇镇龙,细颗粒物(PM2.5),60,60,48,43,33,112,,102,102,23,15,7,7,0.6,0.6
2024-12-22T1600,1354A,113.2765,23.1544,广州市,麓湖,细颗粒物(PM2.5),62,63,55,44,40,122,,106,106,24,29,6,6,0.6,0.6
2024-12-22T1600,1355A,113.443,23.3035,广州市,帽峰山森林公园,,50,48,41,35,25,126,,114,114,15,14,8,8,0.7,0.7
2024-12-22T1600,2846A,113.3221,23.1322,广州市,体育西,细颗粒物(PM2.5),59,64,56,42,37,114,,101,101,20,19,7,7,0.6,0.6
2024-12-22T1600,3298A,113.5717,23.5491,广州市,从化街口,细颗粒物(PM2.5),60,57,51,43,35,118,,112,112,18,14,5,5,0.6,0.5
2024-12-22T1600,3299A,113.3472,23.3692,广州市,白云竹料,颗粒物(PM10),53,55,51,35,35,129,,117,117,14,13,9,8,0.6,0.6
2024-12-22T1600,3300A,113.2981,23.237,广州市,白云嘉禾,颗粒物(PM10),62,73,69,39,38,119,,101,101,30,43,8,8,0.5,0.6
2024-12-22T1600,3301A,113.4256,23.1716,广州市,黄埔科学城,颗粒物(PM10),54,57,49,37,33,127,,107,107,21,18,9,8,0.7,0.7
2024-12-22T1600,3302A,113.3942,23.0483,广州市,番禺大学城,颗粒物(PM10),51,52,48,35,30,120,,101,101,20,27,11,11,0.6,0.4
2024-12-22T1600,3303A,113.4922,22.8168,广州市,南沙黄阁,"颗粒物(PM10),细颗粒物(PM2.5)",62,74,59,44,35,112,,99,99,34,36,9,9,0.8,0.8
2024-12-22T1600,3304A,113.5342,22.7896,广州市,南沙街,颗粒物(PM10),62,74,55,41,34,122,,105,105,34,33,12,9,0.7,0.7
2024-12-22T1600,3443A,113.2902,23.5544,广州市,花都梯面,细颗粒物(PM2.5),59,59,51,42,36,130,,115,115,12,10,13,11,0.6,0.6
2024-12-22T1600,3445A,113.7858,23.7478,广州市,从化良口,细颗粒物(PM2.5),57,50,50,40,37,124,,112,112,14,13,8,8,0.5,0.5
2024-12-22T1600,3446A,113.8051,23.2614,广州市,增城荔城,,46,43,45,32,33,122,,112,112,16,15,7,7,0.6,0.6
2024-12-22T1600,2505A,109.568,23.1478,贵港市,德智高中,,,,,,,,,,,,,,,,
2024-12-22T1600,2506A,109.6047,23.0666,贵港市,江南子站,细颗粒物(PM2.5),74,88,98,54,68,142,,109,109,24,26,11,12,0.9,0.9
2024-12-22T1600,2507A,109.6014,23.0948,贵港市,贵城子站,细颗粒物(PM2.5),79,69,84,58,73,133,,102,102,21,25,11,12,0.8,0.9
2024-12-22T1600,2508A,109.5669,23.1065,贵港市,荷城子站,颗粒物(PM10),71,92,90,48,61,133,,106,106,21,22,15,17,0.7,0.8
2024-12-22T1600,3405A,109.5886,23.1172,贵港市,新世纪学校,细颗粒物(PM2.5),80,85,97,59,67,137,,106,106,19,22,9,12,0.8,0.8
2024-12-22T1600,1439A,106.6899,26.5998,贵阳市,马鞍山,,45,44,70,31,53,44,,59,54,27,19,5,4,1.0,0.9
2024-12-22T1600,1440A,106.6971,26.5694,贵阳市,市环保站,细颗粒物(PM2.5),73,56,79,53,72,44,,68,53,37,20,4,5,0.6,0.6
2024-12-22T1600,1441A,106.6243,26.6266,贵阳市,鉴湖路,细颗粒物(PM2.5),62,,65,44,54,41,,52,46,20,14,6,6,0.6,0.6
2024-12-22T1600,1442A,106.7487,26.6343,贵阳市,燕子冲,细颗粒物(PM2.5),58,,65,41,65,57,,67,63,18,16,6,7,0.6,0.6
2024-12-22T1600,1443A,106.6555,26.4365,贵阳市,碧云窝,细颗粒物(PM2.5),67,61,83,48,62,29,,55,33,43,29,10,10,0.7,0.6
2024-12-22T1600,1444A,106.694,26.5161,贵阳市,中院村,细颗粒物(PM2.5),64,53,76,46,65,38,,57,44,30,21,8,10,0.7,0.7
2024-12-22T1600,1445A,106.7109,26.6027,贵阳市,红边门,细颗粒物(PM2.5),67,51,76,48,69,47,,64,56,32,28,8,8,0.8,0.8
2024-12-22T1600,1446A,106.7164,26.5699,贵阳市,新华路,细颗粒物(PM2.5),67,51,76,48,64,46,,63,55,27,20,3,5,0.6,0.6
2024-12-22T1600,1447A,106.674,26.5424,贵阳市,太慈桥,细颗粒物(PM2.5),58,48,71,41,59,39,,60,49,32,23,6,6,0.7,0.6
2024-12-22T1600,1552A,106.805,26.3003,贵阳市,桐木岭,细颗粒物(PM2.5),94,85,99,70,79,45,,50,50,9,8,14,12,0.8,0.8
2024-12-22T1600,1862A,110.4144,25.3167,桂林市,电子科大尧山校区,细颗粒物(PM2.5),84,85,67,62,54,124,,109,109,18,16,10,9,0.8,0.7
2024-12-22T1600,1863A,110.2819,25.2697,桂林市,监测站,细颗粒物(PM2.5),100,83,77,75,62,120,,103,103,27,23,14,12,1.0,0.9
2024-12-22T1600,1864A,110.3089,25.2708,桂林市,龙隐路小学,细颗粒物(PM2.5),102,78,70,76,69,130,,111,111,24,23,14,16,0.7,0.6
2024-12-22T1600,1865A,110.2869,25.2178,桂林市,八中,细颗粒物(PM2.5),99,79,70,74,67,125,,104,104,20,21,12,13,0.7,0.7
2024-12-22T1600,3403A,110.1764,25.2381,桂林市,创业大厦,细颗粒物(PM2.5),98,100,90,73,70,125,,106,106,27,23,14,12,0.7,0.7
2024-12-22T1600,3531A,110.296,25.1253,桂林市,旅游学院,细颗粒物(PM2.5),94,88,77,70,66,129,,110,110,26,24,13,11,0.7,0.7
2024-12-22T1600,2674A,100.2561,34.4714,果洛藏族自治州,玛沁县大武镇,,30,27,39,14,15,95,,58,58,2,5,4,6,0.4,0.5
2024-12-22T1600,1129A,126.5422,45.755,哈尔滨市,岭北,,38,29,38,26,32,62,,61,61,25,25,10,13,0.9,0.3
2024-12-22T1600,1130A,126.561,45.8167,哈尔滨市,松北商大,,47,47,44,30,35,36,,47,46,42,27,7,9,0.7,0.6
2024-12-22T1600,1131A,126.979,45.5419,哈尔滨市,阿城会宁,,48,44,57,33,48,53,,53,53,24,31,7,8,0.7,0.8
2024-12-22T1600,1132A,126.599,45.7222,哈尔滨市,南岗学府路,颗粒物(PM10),53,56,54,26,30,57,,47,47,24,30,6,8,0.4,0.4
2024-12-22T1600,1133A,126.689,45.7733,哈尔滨市,太平宏伟公园,细颗粒物(PM2.5),53,54,42,37,32,52,,46,46,27,26,5,9,0.7,0.6
2024-12-22T1600,1134A,126.635,45.7667,哈尔滨市,道外承德广场,,48,48,43,30,27,55,,51,51,36,33,8,10,0.2,0.2
2024-12-22T1600,1135A,126.685,45.7319,哈尔滨市,香坊红旗大街,,42,39,40,29,34,51,,46,46,30,31,9,13,0.6,0.6
2024-12-22T1600,1136A,126.6411,45.7258,哈尔滨市,动力和平路,颗粒物(PM10),51,51,41,31,45,38,,39,39,39,30,9,8,0.4,0.5
2024-12-22T1600,1137A,126.593,45.7478,哈尔滨市,道里建国路,,45,45,41,31,30,51,,48,48,32,28,4,4,0.4,0.4
2024-12-22T1600,1138A,126.615,45.61,哈尔滨市,平房东轻厂,,50,50,50,32,40,38,,48,48,44,37,10,14,0.6,0.5
2024-12-22T1600,1139A,126.595,45.9855,哈尔滨市,呼兰师专,,31,31,48,17,38,55,,52,52,21,30,5,6,0.4,0.6
2024-12-22T1600,1140A,126.6206,45.6842,哈尔滨市,省农科院,细颗粒物(PM2.5),69,64,60,50,47,50,,44,44,29,38,10,8,0.7,0.8
2024-12-22T1600,2688A,93.5128,42.8172,哈密市,地区监测站,"颗粒物(PM10),细颗粒物(PM2.5)",64,78,107,46,59,57,,36,36,22,42,11,8,0.5,0.8
2024-12-22T1600,2689A,93.4961,42.8328,哈密市,哈密师范学校,细颗粒物(PM2.5),63,62,99,45,58,52,,30,30,24,44,12,10,0.6,1
2024-12-22T1600,2671A,100.9048,36.9639,海北藏族自治州,海晏县西海镇,,28,26,29,15,18,87,,72,72,6,10,12,12,0.4,0.5
2024-12-22T1600,3867A,102.0738,36.5056,海东市,平安区公安北苑,细颗粒物(PM2.5),75,60,117,55,107,74,,43,43,51,47,56,30,1.8,2.1
2024-12-22T1600,1409A,110.576,19.9507,海口市,东寨港,,42,41,41,29,27,124,,101,101,6,7,8,8,0.5,0.6
2024-12-22T1600,1410A,110.3232,20.0574,海口市,海南大学,,48,48,41,27,23,138,,115,115,12,16,6,7,0.5,0.5
2024-12-22T1600,1411A,110.283,20.0053,海口市,秀英海南医院,颗粒物(PM10),51,52,48,27,25,140,,117,117,14,18,5,6,0.3,0.4
2024-12-22T1600,1412A,110.338,19.9969,海口市,海南师范大学,,47,47,45,27,25,141,,118,118,12,15,6,7,0.4,0.4
2024-12-22T1600,1413A,110.33,20.0356,海口市,龙华路环保局宿舍,,48,48,44,27,26,141,,117,117,12,14,7,8,0.4,0.4
2024-12-22T1600,3539A,110.5111,19.9736,海口市,桂林洋子站,颗粒物(PM10),52,53,43,30,26,144,,118,118,11,13,7,8,0.4,0.4
2024-12-22T1600,2673A,100.6188,36.2866,海南藏族自治州,共和县恰卜恰镇,,45,34,44,31,25,81,,48,48,9,25,8,7,0.5,0.7
2024-12-22T1600,2676A,97.3731,37.3753,海西蒙古族藏族自治州,德令哈市,,36,36,27,6,11,79,,77,73,5,8,16,16,0.4,0.4
2024-12-22T1600,1048A,114.5302,36.6116,邯郸市,东污水处理厂,,21,17,42,7,21,67,,51,51,16,36,3,5,0.4,0.6
2024-12-22T1600,1049A,114.4918,36.5713,邯郸市,矿院,,35,35,49,12,21,65,,44,44,20,43,4,3,0.4,0.7
2024-12-22T1600,1050A,114.484,36.6133,邯郸市,丛台公园,,43,43,60,12,28,61,,44,44,13,38,2,5,0.3,0.7
2024-12-22T1600,3458A,114.7895,36.5593,邯郸市,香泉濮院小区,,25,22,46,3,22,80,,58,58,4,27,2,8,0.3,0.6
2024-12-22T1600,3579A,114.50634,36.77178,邯郸市,永年区实验高中,,34,34,63,9,28,66,,46,46,13,42,7,12,0.3,1
2024-12-22T1600,3580A,114.20016,36.44293,邯郸市,峰峰矿区临水派出所,颗粒物(PM10),53,55,54,33,23,64,,58,58,18,23,13,14,0.8,0.8
2024-12-22T1600,2634A,106.9893,33.1842,汉中市,汉川机床厂子校,,43,43,91,28,86,81,,54,54,15,26,8,7,0.5,1
2024-12-22T1600,2635A,107.0154,33.0706,汉中市,市监测站,细颗粒物(PM2.5),82,62,105,60,101,68,,51,51,17,36,6,6,0.8,1.4
2024-12-22T1600,2636A,107.0089,33.1138,汉中市,鑫源开发区,细颗粒物(PM2.5),59,56,120,42,124,75,,44,44,13,40,6,6,0.6,1.4
2024-12-22T1600,2637A,107.007,33.0323,汉中市,南郑大河坎水厂,细颗粒物(PM2.5),79,69,114,58,95,69,,49,49,15,28,4,6,0.7,1.2
2024-12-22T1600,1223A,120.2072,30.2111,杭州市,滨江,细颗粒物(PM2.5),68,78,76,49,43,42,,41,39,42,36,9,10,0.6,0.6
2024-12-22T1600,1224A,120.0633,30.2747,杭州市,西溪,细颗粒物(PM2.5),73,76,69,53,51,51,,46,46,42,37,10,10,0.7,0.7
2024-12-22T1600,1226A,120.3461,30.3153,杭州市,下沙,"颗粒物(PM10),细颗粒物(PM2.5)",63,75,83,45,47,60,,44,44,32,46,7,7,0.7,0.7
2024-12-22T1600,1227A,120.1269,30.2456,杭州市,卧龙桥,细颗粒物(PM2.5),68,71,63,49,47,48,,46,46,42,37,8,7,0.8,0.7
2024-12-22T1600,1228A,120.1903,30.2692,杭州市,浙江农大,细颗粒物(PM2.5),74,82,71,54,46,38,,35,35,43,43,7,8,0.7,0.7
2024-12-22T1600,1230A,120.1197,30.3119,杭州市,和睦小学,细颗粒物(PM2.5),65,65,64,47,46,49,,43,43,40,39,8,9,0.8,0.8
2024-12-22T1600,1231A,120.3019,30.4183,杭州市,临平镇,颗粒物(PM10),56,62,72,36,40,63,,50,50,22,29,7,9,0.6,0.7
2024-12-22T1600,1232A,120.2697,30.1819,杭州市,城厢镇,细颗粒物(PM2.5),65,74,72,47,48,47,,44,44,38,36,6,7,0.8,0.8
2024-12-22T1600,1233A,120.0883,30.1808,杭州市,云栖,,,,73,,43,,,,,,36,,5,,0.6
2024-12-22T1600,3557A,119.9464,30.0494,杭州市,镇二中,细颗粒物(PM2.5),58,49,56,41,49,49,,44,43,30,29,7,8,0.7,0.8
2024-12-22T1600,3558A,119.7183,30.2367,杭州市,市府大楼,,46,44,71,32,54,68,,53,53,29,32,7,8,0.7,0.9
2024-12-22T1600,3656A,120.1556,30.2864,杭州市,消防大队,细颗粒物(PM2.5),72,80,74,52,48,50,,44,44,36,36,9,10,0.7,0.7
2024-12-22T1600,1270A,117.1959,31.7848,合肥市,明珠广场,颗粒物(PM10),59,68,66,34,31,56,,37,37,31,34,12,11,0.7,0.7
2024-12-22T1600,1271A,117.3072,31.8764,合肥市,三里街,颗粒物(PM10),51,51,61,31,30,62,,42,42,25,33,6,7,0.4,0.5
2024-12-22T1600,1272A,117.2588,31.8707,合肥市,琥珀山庄,颗粒物(PM10),54,58,67,34,34,65,,47,47,26,35,8,8,0.6,0.6
2024-12-22T1600,1273A,117.1604,31.9052,合肥市,董铺水库,颗粒物(PM10),58,66,73,24,28,58,,39,39,27,33,6,6,0.4,0.4
2024-12-22T1600,1274A,117.25,31.8571,合肥市,长江中路,颗粒物(PM10),58,66,65,40,36,55,,40,40,32,33,8,8,0.7,0.7
2024-12-22T1600,1275A,117.266,31.9436,合肥市,庐阳区,颗粒物(PM10),59,68,69,34,29,69,,47,47,26,33,6,5,0.5,0.5
2024-12-22T1600,1276A,117.336,31.8586,合肥市,瑶海区,颗粒物(PM10),54,58,69,35,32,61,,45,45,29,37,7,8,0.6,0.6
2024-12-22T1600,1277A,117.3027,31.7964,合肥市,包河区,颗粒物(PM10),59,68,64,36,31,53,,42,42,34,42,5,5,0.3,0.3
2024-12-22T1600,1278A,117.2776,31.7385,合肥市,滨湖新区,颗粒物(PM10),60,70,66,34,27,58,,44,44,24,33,8,7,0.4,0.5
2024-12-22T1600,1279A,117.1318,31.8403,合肥市,高新区,颗粒物(PM10),58,66,67,34,30,52,,38,38,38,37,4,3,0.6,0.7
2024-12-22T1600,3464A,117.3803,31.9147,合肥市,高教基地,颗粒物(PM10),52,54,64,35,27,73,,50,50,20,29,8,9,0.4,0.4
2024-12-22T1600,3614A,79.924,37.0877,和田地区,地区环保局,颗粒物(PM10),101,152,108,61,39,56,,39,36,20,21,14,13,0.5,0.5
2024-12-22T1600,3615A,79.9131,37.113,和田地区,市环保局,颗粒物(PM10),78,105,84,56,40,56,,38,30,28,36,15,13,0.7,0.8
2024-12-22T1600,2516A,108.2011,24.715,河池市,东仁乐园,细颗粒物(PM2.5),85,71,79,63,64,83,,69,69,9,16,6,6,0.6,0.7
2024-12-22T1600,2517A,108.0497,24.6947,河池市,市环保站,细颗粒物(PM2.5),80,68,67,59,59,89,,78,78,18,18,9,10,0.7,0.7
2024-12-22T1600,2518A,108.0983,24.6989,河池市,市疾控中心,细颗粒物(PM2.5),82,,68,60,62,90,,73,73,16,22,10,10,0.7,0.7
2024-12-22T1600,1696A,114.6778,23.7569,河源市,源西,细颗粒物(PM2.5),54,51,45,38,40,108,,101,101,15,18,8,9,0.7,0.7
2024-12-22T1600,1697A,114.6944,23.7586,河源市,东埔,细颗粒物(PM2.5),58,61,54,41,44,119,,111,111,18,18,8,8,0.6,0.6
2024-12-22T1600,1698A,114.6892,23.7233,河源市,老城,颗粒物(PM10),53,55,50,36,41,115,,107,107,16,17,7,7,0.6,0.6
2024-12-22T1600,1718A,115.4208,35.2464,菏泽市,气象局,,38,38,68,14,36,75,,51,51,15,30,2,5,0.4,0.5
2024-12-22T1600,1719A,115.4747,35.2375,菏泽市,市政协,,33,31,64,23,34,81,,56,56,13,28,5,7,0.4,0.6
2024-12-22T1600,3374A,115.5564,35.0891,菏泽市,定陶老年大学,,36,36,63,19,30,82,,64,64,18,38,8,9,0.3,0.5
2024-12-22T1600,3647A,115.4702,35.2706,菏泽市,菏泽医专,,42,42,57,13,26,76,,65,65,21,27,7,8,0.4,0.4
2024-12-22T1600,2514A,111.5264,24.4172,贺州市,环保小区,细颗粒物(PM2.5),105,92,91,79,81,119,,86,86,21,22,11,11,0.8,0.8
2024-12-22T1600,2515A,111.5608,24.4078,贺州市,政协大楼,细颗粒物(PM2.5),80,84,94,59,68,133,,100,100,19,21,10,9,0.8,0.8
2024-12-22T1600,3534A,111.4744,24.4553,贺州市,西湾,细颗粒物(PM2.5),109,103,103,82,82,126,,95,95,20,17,9,9,0.8,0.8
2024-12-22T1600,2385A,114.17,35.9019,鹤壁市,市监测站,颗粒物(PM10),59,68,67,30,37,61,,46,46,20,26,4,3,0.1,0.3
2024-12-22T1600,2386A,114.2956,35.7511,鹤壁市,市交警支队,颗粒物(PM10),54,58,64,30,27,64,,43,43,16,33,4,3,0.1,0.5
2024-12-22T1600,2387A,114.2878,35.7306,鹤壁市,迎宾馆,颗粒物(PM10),58,65,64,34,25,65,,43,43,11,25,9,6,0.3,0.4
2024-12-22T1600,3474A,114.2617,35.6822,鹤壁市,大新区,颗粒物(PM10),65,80,63,38,29,60,,41,41,31,37,11,6,0.3,0.4
2024-12-22T1600,3596A,114.1572,35.9603,鹤壁市,南山宾馆,细颗粒物(PM2.5),59,65,60,42,44,58,,52,52,16,10,4,3,0.2,0.3
2024-12-22T1600,2244A,130.2537,47.3416,鹤岗市,哈啤分公司,,33,33,28,23,24,36,,48,45,23,11,13,12,0.7,0.7
2024-12-22T1600,2245A,130.2684,47.3086,鹤岗市,斯达机电,,42,37,30,29,22,34,,58,50,38,17,32,16,0.5,0.5
2024-12-22T1600,2246A,130.3114,47.3388,鹤岗市,东山纸板厂,颗粒物(PM10),91,131,48,47,40,15,,38,36,52,27,19,14,0.8,1.1
2024-12-22T1600,2247A,130.1097,47.3382,鹤岗市,五号水库,颗粒物(PM10),53,56,24,19,17,47,,63,60,26,12,9,7,0.1,0.4
2024-12-22T1600,2263A,127.4833,50.2524,黑河市,交通局,颗粒物(PM10),58,65,31,34,20,11,,49,33,39,16,6,7,0.9,0.6
2024-12-22T1600,2264A,127.5144,50.2341,黑河市,环保局,细颗粒物(PM2.5),54,,39,38,29,21,,36,24,27,24,11,7,0.4,1
2024-12-22T1600,2265A,127.5291,50.2472,黑河市,大黑河岛,,,13,13,,,16,,44,16,34,18,1,2,,
2024-12-22T1600,1074A,115.6838,37.7541,衡水市,电机北厂,,42,42,49,26,28,77,,57,57,15,26,9,8,0.6,0.4
2024-12-22T1600,1075A,115.6303,37.7316,衡水市,市监测站,,41,41,46,23,29,66,,48,48,21,38,16,12,0.7,0.5
2024-12-22T1600,3188A,115.6683,37.7217,衡水市,市城管局,,36,28,51,25,30,70,,48,48,17,35,8,9,0.7,0.5
2024-12-22T1600,3459A,115.5989,37.5491,衡水市,地表水厂,,35,24,49,24,36,75,,47,47,8,44,6,14,0.4,0.7
2024-12-22T1600,2456A,112.5003,26.9167,衡阳市,原169医院,细颗粒物(PM2.5),94,84,85,70,75,45,,60,60,29,28,12,31,0.4,0.4
2024-12-22T1600,2457A,112.6194,26.9258,衡阳市,衡阳化工总厂,细颗粒物(PM2.5),98,80,101,73,82,77,,68,68,19,21,12,13,0.8,0.8
2024-12-22T1600,2458A,112.6211,26.8956,衡阳市,珠晖区环保局,细颗粒物(PM2.5),97,77,92,72,79,75,,66,66,28,29,12,11,0.8,0.9
2024-12-22T1600,2459A,112.6197,26.8733,衡阳市,市委党校,细颗粒物(PM2.5),93,82,94,69,75,80,,71,71,22,24,13,11,0.9,0.9
2024-12-22T1600,2460A,112.6006,26.8919,衡阳市,市监测站,细颗粒物(PM2.5),115,107,118,87,94,83,,72,72,18,21,12,10,0.8,0.8
2024-12-22T1600,2461A,112.5664,26.9056,衡阳市,真空机电公司,细颗粒物(PM2.5),99,114,124,74,80,83,,70,70,23,23,10,8,0.8,0.8
2024-12-22T1600,3399A,112.6703,26.882,衡阳市,师范学院,细颗粒物(PM2.5),109,103,114,82,92,79,,67,67,20,20,13,11,0.8,0.8
2024-12-22T1600,2608A,103.3772,23.3993,红河哈尼族彝族自治州,污水处理厂,细颗粒物(PM2.5),72,,45,52,43,79,,81,81,9,9,6,6,0.7,0.8
2024-12-22T1600,2609A,103.3861,23.35,红河哈尼族彝族自治州,监测站,细颗粒物(PM2.5),62,45,49,44,45,86,,89,89,11,11,8,7,0.7,0.7
2024-12-22T1600,3038A,103.3758,23.368,红河哈尼族彝族自治州,州图书馆,,,,45,,50,,,75,,,13,,7,,0.8
2024-12-22T1600,1090A,111.6507,40.7517,呼和浩特市,呼市一监,,29,27,42,20,29,63,,39,39,17,38,13,9,0.4,0.7
2024-12-22T1600,1091A,111.6572,40.8033,呼和浩特市,小召,细颗粒物(PM2.5),60,68,41,43,24,40,,37,37,44,55,20,13,0.7,1.2
2024-12-22T1600,1094A,111.7516,40.8369,呼和浩特市,如意水处理厂,,23,23,32,13,20,55,,42,42,33,57,10,9,0.3,0.5
2024-12-22T1600,1095A,111.7276,40.8062,呼和浩特市,二十九中,,28,28,33,11,18,53,,41,41,23,43,9,8,0.5,0.6
2024-12-22T1600,1096A,111.5512,40.7866,呼和浩特市,工大金川校区,,49,49,46,28,25,54,,31,31,29,50,13,8,0.4,0.6
2024-12-22T1600,1097A,111.717,40.7612,呼和浩特市,化肥厂生活区,,20,20,35,9,22,60,,43,43,13,37,9,9,0.3,0.7
2024-12-22T1600,3698A,111.5968,40.8178,呼和浩特市,红旗小学,,,51,44,37,26,44,,31,31,35,52,,10,,0.7
2024-12-22T1600,3699A,111.6518,40.8389,呼和浩特市,海东办,细颗粒物(PM2.5),65,66,47,47,29,43,,32,32,36,51,21,10,0.9,1
2024-12-22T1600,2192A,119.7594,49.2261,呼伦贝尔市,区环保局,,40,36,33,28,24,16,,34,34,48,30,7,6,0.7,0.6
2024-12-22T1600,3061A,119.7512,49.1577,呼伦贝尔市,国华电力东,,22,22,22,14,16,45,,60,55,15,7,5,4,0.4,0.4
2024-12-22T1600,1250A,120.0751,30.8669,湖州市,城西水厂,颗粒物(PM10),53,55,69,34,40,63,,50,50,25,37,8,10,0.5,0.5
2024-12-22T1600,2873A,120.0875,30.8955,湖州市,仁皇山新区,细颗粒物(PM2.5),57,57,64,40,45,62,,51,51,24,28,9,10,0.4,0.4
2024-12-22T1600,2907A,120.1844,30.8596,湖州市,吴兴区站,"颗粒物(PM10),细颗粒物(PM2.5)",54,58,59,38,40,55,,53,53,32,32,7,8,0.6,0.6
2024-12-22T1600,3562A,120.4148,30.8538,湖州市,南浔区站,细颗粒物(PM2.5),53,50,57,37,43,56,,52,52,28,27,7,8,0.6,0.8
2024-12-22T1600,1607A,120.9092,40.7136,葫芦岛市,龙港区,,21,21,45,10,18,61,,62,62,19,32,12,18,0.4,0.6
2024-12-22T1600,1608A,120.8392,40.7514,葫芦岛市,化工街,,29,29,58,14,20,57,,61,61,24,43,31,32,0.7,0.9
2024-12-22T1600,1609A,120.8341,40.7073,葫芦岛市,新区,,35,35,34,15,13,53,,54,54,29,33,17,16,0.5,0.7
2024-12-22T1600,1610A,120.8695,40.7677,葫芦岛市,东城区,,37,37,51,18,25,52,,52,52,26,47,10,32,0.3,0.7
2024-12-22T1600,2482A,109.5981,27.5721,怀化市,林科所,细颗粒物(PM2.5),79,,64,58,61,76,,66,66,16,17,24,26,1.0,1
2024-12-22T1600,2483A,109.9453,27.5444,怀化市,河西地税局,细颗粒物(PM2.5),92,97,101,68,67,70,,60,60,16,18,8,17,0.6,0.6
2024-12-22T1600,2484A,109.9781,27.5342,怀化市,市四医院,颗粒物(PM10),80,109,107,38,52,72,,62,62,16,18,13,16,0.7,0.7
2024-12-22T1600,2485A,109.9972,27.5578,怀化市,监测楼,细颗粒物(PM2.5),80,81,93,59,66,72,,64,64,16,18,5,7,0.6,0.6
2024-12-22T1600,2486A,110.0394,27.583,怀化市,市委党校,颗粒物(PM10),72,94,100,38,50,66,,60,60,17,15,8,9,0.3,0.5
2024-12-22T1600,1210A,119.036,33.5981,淮安市,钵池山,,35,24,63,24,43,70,,55,55,17,39,4,7,0.3,0.5
2024-12-22T1600,1211A,119.007,33.575,淮安市,北京南路,,35,29,65,24,40,66,,54,54,22,40,6,10,0.6,0.8
2024-12-22T1600,1212A,118.989,33.6067,淮安市,市监测站,,39,27,64,27,46,73,,55,55,16,41,5,8,0.5,0.7
2024-12-22T1600,1213A,119.135,33.5039,淮安市,楚州区监测站,,25,24,74,17,39,63,,54,54,23,42,6,8,0.5,0.7
2024-12-22T1600,1214A,119.0186,33.6297,淮安市,淮阴区监测站,,39,31,71,27,45,69,,55,55,24,44,6,9,0.6,0.8
2024-12-22T1600,3426A,118.8755,33.2894,淮安市,新华书店,颗粒物(PM10),53,55,84,30,50,62,,48,48,29,42,10,12,0.7,0.8
2024-12-22T1600,2282A,116.8004,33.975,淮北市,监测站,,,,59,,27,58,,47,47,,28,10,8,0.4,0.4
2024-12-22T1600,2283A,116.8091,33.9007,淮北市,烈山区政府,颗粒物(PM10),55,59,61,35,31,59,,49,49,29,27,10,7,0.5,0.5
2024-12-22T1600,3330A,116.8873,33.9836,淮北市,杜集区检察院,颗粒物(PM10),62,74,68,41,31,62,,48,48,24,25,8,4,0.4,0.4
2024-12-22T1600,4017A,116.7923,33.9535,淮北市,市博物馆,颗粒物(PM10),61,71,58,38,29,60,,50,50,31,30,11,8,0.5,0.4
2024-12-22T1600,2277A,116.8305,32.7727,淮南市,潘集区政府,细颗粒物(PM2.5),73,84,77,53,45,59,,50,50,30,29,12,14,0.5,0.5
2024-12-22T1600,2278A,117.0067,32.6524,淮南市,师范学院,颗粒物(PM10),68,86,72,40,40,62,,49,49,26,26,7,5,0.7,0.6
2024-12-22T1600,2279A,116.8569,32.5951,淮南市,谢家集区政府,颗粒物(PM10),58,66,68,40,35,69,,52,52,16,21,8,10,0.6,0.6
2024-12-22T1600,2280A,116.8281,32.633,淮南市,八公山区政府,细颗粒物(PM2.5),62,72,67,44,33,72,,51,51,21,27,10,9,0.7,0.6
2024-12-22T1600,2281A,116.6325,32.6201,淮南市,焦岗湖风景区管理处,,48,48,52,25,29,43,,34,34,27,32,4,3,0.3,0.3
2024-12-22T1600,2894A,117.0566,32.6531,淮南市,经济技术开发区消防队,细颗粒物(PM2.5),63,73,80,45,40,68,,54,54,25,26,9,8,0.6,0.5
2024-12-22T1600,3329A,117.0108,32.5893,淮南市,山南新区,颗粒物(PM10),62,74,70,35,31,71,,56,56,16,19,11,9,0.4,0.4
2024-12-22T1600,2446A,114.9028,30.4742,黄冈市,职工中心,细颗粒物(PM2.5),74,95,76,54,46,44,,48,48,46,28,17,10,0.8,0.6
2024-12-22T1600,2929A,114.8858,30.4519,黄冈市,红卫路,细颗粒物(PM2.5),74,88,71,54,46,46,,49,49,38,26,13,8,1.0,0.8
2024-12-22T1600,3398A,114.9136,30.4445,黄冈市,市林业局,细颗粒物(PM2.5),67,82,71,48,46,52,,53,53,38,22,18,12,0.9,0.7
2024-12-22T1600,2672A,102.0199,35.5102,黄南藏族自治州,同仁县隆务镇,颗粒物(PM10),61,71,63,40,47,77,,62,62,13,9,8,9,0.7,0.7
2024-12-22T1600,2295A,118.2903,29.6963,黄山市,延安路89号,细颗粒物(PM2.5),70,70,66,51,51,78,,68,68,17,21,11,10,0.3,0.4
2024-12-22T1600,2296A,118.327,29.7178,黄山市,黄山东路89号,细颗粒物(PM2.5),67,76,84,48,55,80,,66,66,12,18,8,8,0.3,0.4
2024-12-22T1600,2297A,118.1371,30.2756,黄山市,黄山区政府5号楼,颗粒物(PM10),57,63,87,30,58,70,,58,58,20,23,10,8,0.5,0.7
2024-12-22T1600,2423A,115.0601,30.2313,黄石市,沈家营,细颗粒物(PM2.5),64,70,78,46,50,59,,56,56,24,22,13,11,0.7,0.6
2024-12-22T1600,2424A,115.0817,30.2006,黄石市,陈家湾,细颗粒物(PM2.5),63,66,74,45,54,66,,59,59,21,25,13,11,0.7,0.7
2024-12-22T1600,2426A,114.8988,30.2019,黄石市,铁山,细颗粒物(PM2.5),68,62,78,49,51,66,,59,59,22,25,14,16,1.1,0.9
2024-12-22T1600,2427A,115.0307,30.2092,黄石市,团城山,细颗粒物(PM2.5),57,62,83,40,48,64,,59,59,24,29,13,9,0.9,0.8
2024-12-22T1600,3149A,115.0235,30.1578,黄石市,笔架山北路,细颗粒物(PM2.5),58,53,66,41,48,68,,58,58,21,24,7,10,0.7,0.8
2024-12-22T1600,1392A,114.4183,23.0528,惠州市,河南岸金山湖子站,,48,46,54,33,36,115,,103,103,17,16,10,11,0.5,0.5
2024-12-22T1600,1393A,114.4053,23.0822,惠州市,下埔横江三路子站,,45,45,53,30,37,121,,109,109,16,16,9,10,0.5,0.6
2024-12-22T1600,1394A,114.4103,23.1142,惠州市,江北云山西路子站,,43,43,53,30,36,125,,112,112,19,18,9,10,0.5,0.6
2024-12-22T1600,1395A,114.4645,22.7833,惠州市,惠阳区承修路船湖子站,颗粒物(PM10),54,57,59,33,32,110,,96,96,14,15,11,11,0.6,0.6
2024-12-22T1600,1396A,114.5317,22.7422,惠州市,大亚湾管委会子站,颗粒物(PM10),51,52,45,33,28,110,,100,100,27,17,9,10,0.6,0.5
2024-12-22T1600,3314A,114.4338,22.8134,惠州市,惠阳秋长,,42,39,42,29,30,124,,111,111,16,15,13,12,0.6,0.5
2024-12-22T1600,3452A,114.6517,22.775,惠州市,大亚湾霞涌,,50,50,48,28,32,115,,100,100,12,12,9,10,0.4,0.5
2024-12-22T1600,2240A,130.9762,45.3001,鸡西市,环保局,,31,31,27,17,22,48,,52,51,7,5,6,6,0.4,0.4
2024-12-22T1600,2243A,130.9429,45.3039,鸡西市,第一中学,颗粒物(PM10),55,59,32,18,22,56,,57,57,12,8,7,6,0.2,0.2
2024-12-22T1600,3707A,131.0207,45.3073,鸡西市,欧美日汽修厂,,39,33,38,27,30,52,,56,56,20,20,13,27,0.2,0.4
2024-12-22T1600,3709A,130.9967,45.3106,鸡西市,市政设施管理处,,,40,37,24,23,,,48,,20,18,6,6,0.4,0.4
2024-12-22T1600,2367A,114.9754,27.0803,吉安市,红声器材厂,细颗粒物(PM2.5),69,86,93,50,63,88,,76,76,33,35,14,16,0.7,0.7
2024-12-22T1600,2368A,114.9658,27.0999,吉安市,市森林工业局,细颗粒物(PM2.5),67,77,89,48,62,89,,78,78,31,35,17,20,0.7,0.7
2024-12-22T1600,2369A,114.99,27.1312,吉安市,市环境监测站,细颗粒物(PM2.5),62,69,87,44,59,93,,80,80,32,37,15,17,0.7,0.7
2024-12-22T1600,2370A,115.0093,27.0968,吉安市,青原区法院,细颗粒物(PM2.5),84,80,101,62,68,96,,82,82,31,34,14,19,0.7,0.8
2024-12-22T1600,1772A,126.54,43.8622,吉林市,哈达湾,,30,30,36,18,22,59,,56,56,20,22,9,9,0.5,0.6
2024-12-22T1600,1773A,126.5844,43.8358,吉林市,东局子,,28,26,28,19,23,61,,58,58,16,19,6,6,0.6,0.6
2024-12-22T1600,1774A,126.5052,43.8245,吉林市,电力学院,,36,35,34,25,31,60,,55,55,17,21,9,9,0.6,0.7
2024-12-22T1600,1775A,126.6133,43.8972,吉林市,江北,,37,37,37,20,24,58,,54,54,26,24,15,17,0.6,0.6
2024-12-22T1600,1776A,126.555,43.8306,吉林市,江南公园,,32,30,30,22,23,59,,57,57,18,20,9,10,0.6,0.7
2024-12-22T1600,1778A,126.7061,43.7133,吉林市,丰满,,23,18,22,16,19,61,,61,61,10,11,10,10,0.4,0.5
2024-12-22T1600,2868A,126.4739,43.953,吉林市,九站,,39,39,37,25,25,53,,57,57,27,25,6,6,0.7,0.7
2024-12-22T1600,1299A,116.9862,36.6114,济南市,科干所,,27,27,34,10,13,69,,,,23,34,7,10,0.5,0.6
2024-12-22T1600,1300A,116.9376,36.665,济南市,农科所,,24,24,55,3,13,76,,54,54,15,45,7,12,0.6,0.9
2024-12-22T1600,1301A,117.1265,36.6734,济南市,开发区,,37,37,33,12,15,61,,57,57,32,34,8,6,0.5,0.5
2024-12-22T1600,1303A,117.0624,36.6868,济南市,省种子仓库,,,29,48,3,14,60,,59,59,31,39,,7,0.4,0.6
2024-12-22T1600,1304A,116.9489,36.6447,济南市,机床二厂,,27,27,67,3,21,78,,60,60,10,38,7,23,0.6,1
2024-12-22T1600,1305A,117.0495,36.663,济南市,市监测站,,27,27,39,7,11,68,,61,61,23,40,7,6,0.4,0.5
2024-12-22T1600,1306A,116.7675,36.5484,济南市,长清党校,,29,20,36,20,19,79,,63,63,13,37,7,8,0.6,0.7
2024-12-22T1600,1616A,117.6795,36.229,济南市,技术学院,,29,29,45,19,24,61,,47,47,20,36,12,10,0.6,0.6
2024-12-22T1600,1961A,117.532,36.6868,济南市,东山小学,,32,32,40,10,11,69,,60,60,21,35,8,7,0.5,0.5
2024-12-22T1600,3059A,117.7161,36.2049,济南市,泰兴公司,,36,36,56,24,28,63,,46,46,27,46,14,12,0.9,0.6
2024-12-22T1600,3064A,117.6867,36.2171,济南市,莱芜战役纪念馆,,44,44,52,17,23,64,,48,48,16,34,11,9,0.6,0.6
2024-12-22T1600,3494A,117.1673,36.9782,济南市,济阳区政府,,27,27,51,12,20,68,,52,52,16,45,10,12,0.3,0.4
2024-12-22T1600,3495A,117.1171,36.63,济南市,锦屏中学,,22,22,23,10,8,68,,67,67,29,28,7,5,0.3,0.3
2024-12-22T1600,3682A,116.9814,36.6819,济南市,济南四建,,21,14,44,7,18,67,,53,53,23,46,6,12,0.5,0.7
2024-12-22T1600,1653A,116.6251,35.4302,济宁市,火炬城,,36,36,45,17,21,57,,54,54,30,34,10,9,0.4,0.5
2024-12-22T1600,1655A,116.5491,35.4042,济宁市,电化厂,,37,37,63,14,31,65,,52,52,29,40,10,14,0.4,0.8
2024-12-22T1600,3500A,116.5814,35.3707,济宁市,北湖一中,,34,34,47,12,21,60,,53,53,38,40,8,7,0.5,0.5
2024-12-22T1600,3501A,116.8249,35.5593,济宁市,服务中心,,27,27,64,10,28,64,,46,46,27,46,10,14,0.7,0.9
2024-12-22T1600,3678A,116.5907,35.4054,济宁市,市第七中学,,36,36,51,12,20,64,,56,56,25,34,3,5,0.6,0.7
2024-12-22T1600,2255A,130.2751,46.8028,佳木斯市,佳纺,细颗粒物(PM2.5),62,52,56,44,49,34,,49,49,41,26,9,14,0.9,0.8
2024-12-22T1600,2256A,130.3995,46.8307,佳木斯市,发电厂,细颗粒物(PM2.5),63,49,39,45,41,33,,49,48,41,22,6,9,0.7,0.7
2024-12-22T1600,2257A,130.3258,46.7975,佳木斯市,环保局,,38,36,52,26,42,24,,39,38,51,32,16,15,0.6,0.6
2024-12-22T1600,2258A,130.3648,46.8032,佳木斯市,十一中,细颗粒物(PM2.5),53,38,39,37,37,21,,41,40,61,33,8,12,0.8,0.6
2024-12-22T1600,2259A,130.3794,46.7588,佳木斯市,四丰,,30,26,39,21,32,32,,55,48,38,13,1,1,0.6,0.5
2024-12-22T1600,1252A,120.7436,30.778,嘉兴市,清河小学,,,32,59,19,37,62,,50,50,,34,6,7,,0.5
2024-12-22T1600,1253A,120.726,30.7478,嘉兴市,嘉兴学院,,37,37,65,20,41,66,,53,53,15,27,6,7,0.4,0.6
2024-12-22T1600,2872A,120.7846,30.7525,嘉兴市,南湖区残联,颗粒物(PM10),55,59,87,24,42,66,,54,54,17,27,9,9,0.5,0.6
2024-12-22T1600,3407A,120.6916,30.7739,嘉兴市,秀洲住建,,25,19,61,17,39,69,,55,55,15,30,5,10,0.4,0.7
2024-12-22T1600,1945A,98.2908,39.7711,嘉峪关市,气象局,颗粒物(PM10),107,163,132,48,38,56,,39,39,26,32,35,29,1.1,0.8
2024-12-22T1600,2884A,98.2672,39.7978,嘉峪关市,酒钢宾馆,颗粒物(PM10),103,156,139,41,37,56,,33,33,24,32,26,32,0.7,0.9
2024-12-22T1600,3248A,98.2643,39.7724,嘉峪关市,雄关区,颗粒物(PM10),91,132,105,45,32,53,,36,36,33,38,23,17,0.8,0.7
2024-12-22T1600,1383A,113.1064,22.6058,江门市,北街,细颗粒物(PM2.5),69,58,54,50,36,119,,103,103,31,31,6,6,0.7,0.7
2024-12-22T1600,1384A,113.0731,22.5835,江门市,西区,细颗粒物(PM2.5),68,71,63,49,37,118,,104,104,34,31,9,10,0.6,0.6
2024-12-22T1600,1385A,113.0219,22.5311,江门市,圭峰西,细颗粒物(PM2.5),62,59,48,44,36,118,,102,102,32,29,5,6,0.7,0.7
2024-12-22T1600,1386A,113.0828,22.5947,江门市,东湖,颗粒物(PM10),62,74,57,28,26,117,,102,102,30,30,7,8,0.5,0.5
2024-12-22T1600,3311A,113.1075,22.5647,江门市,江海富民,颗粒物(PM10),61,71,64,37,33,124,,105,105,37,39,8,9,0.9,0.9
2024-12-22T1600,3449A,113.05,22.4667,江门市,新会银湖,细颗粒物(PM2.5),67,57,50,48,39,120,,100,100,29,33,8,8,0.6,0.6
2024-12-22T1600,1828A,113.227,35.2125,焦作市,市环保局,细颗粒物(PM2.5),68,61,75,49,38,59,,42,42,25,30,9,7,0.5,0.6
2024-12-22T1600,1830A,113.1992,35.2590,焦作市,影视城,细颗粒物(PM2.5),68,62,53,49,34,57,,58,58,30,18,13,9,0.8,0.7
2024-12-22T1600,3169A,113.2725,35.2067,焦作市,太极体育中心,颗粒物(PM10),72,93,82,37,38,55,,39,39,35,40,15,10,0.5,0.6
2024-12-22T1600,3335A,113.3137,35.2641,焦作市,马村街道办,细颗粒物(PM2.5),69,82,78,50,41,56,,43,43,31,31,13,9,0.6,0.7
2024-12-22T1600,3336A,113.2465,35.2373,焦作市,焦作技师学院,颗粒物(PM10),65,80,67,44,35,58,,47,47,33,33,12,8,0.6,0.7
2024-12-22T1600,3477A,113.1656,35.2539,焦作市,中站许衡医院,颗粒物(PM10),61,71,62,42,36,55,,51,51,25,29,13,10,0.4,0.3
2024-12-22T1600,3981A,113.2449,35.1803,焦作市,原李万街道办,颗粒物(PM10),69,88,77,44,40,53,,41,41,24,30,11,8,0.7,0.8
2024-12-22T1600,1708A,116.3701,23.5345,揭阳市,新兴,细颗粒物(PM2.5),74,76,55,54,38,132,,93,93,20,25,8,8,0.7,0.6
2024-12-22T1600,1709A,116.3264,23.5443,揭阳市,西马,细颗粒物(PM2.5),77,88,55,56,33,143,,103,103,18,23,10,10,0.8,0.6
2024-12-22T1600,1710A,116.3611,23.5626,揭阳市,东兴,细颗粒物(PM2.5),69,79,61,50,33,139,,97,97,19,35,10,9,0.8,0.7
2024-12-22T1600,1711A,116.4151,23.5294,揭阳市,渔湖,颗粒物(PM10),68,85,49,44,29,138,,105,105,20,22,11,12,0.5,0.5
2024-12-22T1600,3320A,116.403,23.5699,揭阳市,曲溪,颗粒物(PM10),62,74,47,43,29,144,,112,112,23,26,6,4,0.7,0.6
2024-12-22T1600,1944A,102.1692,38.5167,金昌市,天庆家园,,47,47,79,26,45,52,,41,41,10,18,14,21,0.8,0.9
2024-12-22T1600,3170A,102.1864,38.5253,金昌市,市委党校,颗粒物(PM10),55,60,100,27,39,58,,47,47,11,18,11,23,0.6,0.8
2024-12-22T1600,4022A,102.1647,38.5371,金昌市,金川区人防中心,颗粒物(PM10),51,52,94,31,41,62,,53,53,11,16,12,12,0.6,0.8
2024-12-22T1600,1262A,119.647,29.077,金华市,十五中,颗粒物(PM10),54,58,83,32,49,60,,56,56,36,49,4,5,0.3,0.5
2024-12-22T1600,1263A,119.686,29.1029,金华市,监测站,颗粒物(PM10),58,65,91,37,58,60,,55,55,35,58,5,6,0.5,0.7
2024-12-22T1600,3659A,119.656,29.1131,金华市,气象局,颗粒物(PM10),53,55,97,32,55,60,,53,53,34,60,4,5,0.5,0.6
2024-12-22T1600,1767A,121.1115,41.0879,锦州市,南山,,28,28,41,18,29,76,,,,15,24,4,18,0.3,1
2024-12-22T1600,1768A,121.0533,40.8434,锦州市,开发区,颗粒物(PM10),74,97,105,23,43,19,,30,30,60,59,19,29,0.5,1
2024-12-22T1600,1769A,121.1836,41.1119,锦州市,百股街道,,25,25,46,3,23,78,,64,64,12,23,8,15,0.6,1
2024-12-22T1600,1770A,121.1178,41.1222,锦州市,天安街道,,24,18,38,10,14,76,,65,65,12,16,21,23,0.4,0.6
2024-12-22T1600,1771A,121.1303,41.1386,锦州市,北湖公园,,23,,33,14,16,72,,61,61,9,17,10,23,0.5,0.7
2024-12-22T1600,2160A,112.85,35.5051,晋城市,自来水公司,颗粒物(PM10),59,67,61,36,38,54,,42,42,30,40,15,17,0.9,1.2
2024-12-22T1600,2161A,112.8318,35.4936,晋城市,白云商贸,颗粒物(PM10),61,71,77,27,32,57,,46,46,31,42,14,12,1.0,1.3
2024-12-22T1600,2162A,112.8508,35.4887,晋城市,市环保局,颗粒物(PM10),75,100,72,41,39,51,,42,42,31,41,14,16,0.9,1.2
2024-12-22T1600,2163A,112.8676,35.4897,晋城市,技术学院,细颗粒物(PM2.5),52,48,57,36,35,55,,41,41,30,39,13,16,0.9,1.1
2024-12-22T1600,2165A,112.8453,35.546,晋城市,白马寺,,42,42,66,25,40,51,,42,42,24,32,17,21,1.1,1.6
2024-12-22T1600,3620A,112.8271,35.4828,晋城市,泽州一中,细颗粒物(PM2.5),55,46,70,39,36,55,,46,46,30,41,16,13,1.0,0.9
2024-12-22T1600,2171A,112.7532,37.6945,晋中市,锦纶小区,,,58,60,34,26,60,,43,43,29,36,,10,0.8,0.6
2024-12-22T1600,2173A,112.7249,37.7067,晋中市,南都小区,颗粒物(PM10),56,61,60,39,33,56,,38,38,29,39,16,11,0.9,0.8
2024-12-22T1600,2174A,112.6991,37.6982,晋中市,榆次区政府,颗粒物(PM10),58,66,65,37,28,54,,36,36,32,38,14,10,1.0,0.9
2024-12-22T1600,2865A,112.7195,37.6828,晋中市,榆次三中,颗粒物(PM10),58,66,62,29,27,57,,38,38,28,37,18,12,1.1,0.8
2024-12-22T1600,2439A,112.2014,31.0481,荆门市,竹园小学,颗粒物(PM10),60,69,84,40,46,55,,57,52,23,22,14,15,0.4,0.5
2024-12-22T1600,2440A,112.1969,30.9891,荆门市,掇刀,颗粒物(PM10),59,68,80,38,45,58,,63,57,24,22,12,13,0.6,0.6
2024-12-22T1600,2441A,112.2213,31.0386,荆门市,石化一小,颗粒物(PM10),63,76,91,35,48,58,,55,53,23,25,9,11,0.5,0.5
2024-12-22T1600,3012A,112.1849,31.0362,荆门市,西山林语,颗粒物(PM10),57,63,74,32,42,59,,62,56,20,18,9,11,0.4,0.5
2024-12-22T1600,3547A,112.1632,31.0138,荆门市,龙泉中学南校,颗粒物(PM10),61,71,81,39,50,57,,63,56,24,20,11,15,0.5,0.5
2024-12-22T1600,1844A,112.2494,30.3197,荆州市,市图书馆,细颗粒物(PM2.5),52,51,64,36,57,68,,61,61,19,21,5,7,0.4,0.5
2024-12-22T1600,1845A,112.2008,30.3544,荆州市,市委党校,,50,50,71,30,53,66,,63,63,22,25,4,5,0.3,0.4
2024-12-22T1600,3194A,112.2747,30.3122,荆州市,管委会,颗粒物(PM10),55,59,74,36,56,67,,62,62,17,20,5,6,0.5,0.6
2024-12-22T1600,3548A,112.1655,30.3364,荆州市,学苑路,颗粒物(PM10),55,59,81,29,51,64,,64,64,23,23,8,9,0.6,0.7
2024-12-22T1600,2342A,117.3102,29.3867,景德镇市,王港中学,,,,,,,,,,,,,,,,
2024-12-22T1600,2343A,117.2117,29.2933,景德镇市,老干部活动中心,细颗粒物(PM2.5),64,66,71,46,60,72,,60,60,17,20,9,9,0.7,0.7
2024-12-22T1600,2344A,117.1894,29.2789,景德镇市,兽医站,颗粒物(PM10),62,74,78,35,41,76,,64,64,10,17,5,5,0.5,0.6
2024-12-22T1600,2345A,117.1547,29.2617,景德镇市,台达陶瓷,颗粒物(PM10),61,72,75,34,44,76,,62,62,13,16,5,5,0.8,0.8
2024-12-22T1600,2346A,117.2461,29.2956,景德镇市,陶研所,颗粒物(PM10),62,74,72,38,46,68,,57,57,18,19,5,8,0.3,0.4
2024-12-22T1600,1803A,115.9872,29.6815,九江市,十里,,44,44,61,29,38,61,,53,53,20,22,10,9,0.5,0.6
2024-12-22T1600,1804A,115.9584,29.7046,九江市,茅山头,颗粒物(PM10),51,51,68,31,38,61,,55,55,22,25,11,12,0.8,0.8
2024-12-22T1600,1805A,115.9877,29.7295,九江市,西园,,46,46,58,25,36,57,,50,50,24,26,8,8,0.4,0.4
2024-12-22T1600,1806A,116.0172,29.6547,九江市,五七二七厂,颗粒物(PM10),53,56,76,30,41,60,,53,53,23,23,8,9,0.6,0.5
2024-12-22T1600,1808A,115.9114,29.6038,九江市,综合工业园,颗粒物(PM10),54,57,66,36,45,53,,56,56,37,28,11,10,0.5,0.5
2024-12-22T1600,1809A,116.0721,29.7535,九江市,石化总厂,颗粒物(PM10),51,52,66,34,46,52,,46,46,23,28,9,8,0.6,0.6
2024-12-22T1600,1810A,115.9773,29.5698,九江市,庐山气象台,,38,38,74,14,56,86,,84,82,10,17,7,10,0.7,1
2024-12-22T1600,3190A,116.0254,29.6994,九江市,外国语学校,颗粒物(PM10),61,72,74,26,40,59,,52,52,21,23,14,8,0.5,0.5
2024-12-22T1600,2658A,98.5061,39.7443,酒泉市,仓门街子站,颗粒物(PM10),92,134,105,35,25,67,,59,56,13,13,16,8,0.6,0.5
2024-12-22T1600,2659A,98.4989,39.7256,酒泉市,油田生活基地,颗粒物(PM10),102,153,133,41,31,66,,47,47,14,19,15,9,0.6,0.5
2024-12-22T1600,2698A,76.0072,39.4467,喀什地区,巡警大队,细颗粒物(PM2.5),110,122,94,83,52,49,,39,35,42,36,5,2,1.4,1
2024-12-22T1600,2699A,75.9755,39.4694,喀什地区,吾办,细颗粒物(PM2.5),90,108,94,67,60,60,,37,37,29,41,3,3,1.1,1.1
2024-12-22T1600,4027A,75.9483,39.4689,喀什地区,老干局,颗粒物(PM10),80,109,100,50,45,66,,44,44,23,38,4,2,0.9,1
2024-12-22T1600,1824A,114.3389,34.7781,开封市,肿瘤医院,,44,44,64,19,33,57,,50,50,22,36,5,5,0.4,0.6
2024-12-22T1600,1826A,114.2885,34.7965,开封市,世纪星幼儿园,,39,36,53,27,33,59,,54,54,22,36,3,3,0.2,0.4
2024-12-22T1600,3147A,114.3438,34.8106,开封市,龙亭公园,,40,40,65,26,32,57,,56,56,26,42,3,6,0.3,0.4
2024-12-22T1600,3210A,114.3644,34.7964,开封市,汴京公园,颗粒物(PM10),57,63,71,28,36,59,,57,57,33,42,4,4,0.2,0.6
2024-12-22T1600,3473A,114.2485,34.8306,开封市,技师学院,,36,36,56,16,30,62,,52,52,25,50,4,4,0.5,0.7
2024-12-22T1600,3592A,114.4644,34.7556,开封市,祥符区生态环境局,,44,44,77,25,39,64,,58,58,23,39,2,4,0.4,0.5
2024-12-22T1600,1951A,84.895,45.6094,克拉玛依市,长征新村,细颗粒物(PM2.5),79,86,82,58,56,41,,38,38,28,32,7,6,0.7,0.7
2024-12-22T1600,1952A,84.8988,45.5893,克拉玛依市,南林小区,细颗粒物(PM2.5),93,71,75,69,56,39,,32,32,20,25,3,4,0.8,1
2024-12-22T1600,1954A,84.905,44.3396,克拉玛依市,独山子区,,49,,92,34,79,74,,60,60,18,37,5,4,0.4,0.9
2024-12-22T1600,1955A,85.6979,46.098,克拉玛依市,乌尔禾区商贸楼,细颗粒物(PM2.5),80,65,71,59,55,51,,35,35,28,36,7,6,0.7,0.9
2024-12-22T1600,3612A,85.1045,45.6899,克拉玛依市,白碱滩区新站,细颗粒物(PM2.5),80,88,83,59,53,45,,26,26,24,41,9,8,0.8,0.8
2024-12-22T1600,2697A,76.1454,39.7142,克孜勒苏柯尔克孜自治州,市人民政府,细颗粒物(PM2.5),84,97,74,62,48,73,,58,58,11,16,4,4,1.1,0.9
2024-12-22T1600,3665A,76.1658,39.7157,克孜勒苏柯尔克孜自治州,克州文化中心,,,85,65,56,44,66,,54,54,,18,9,8,1.0,0.9
2024-12-22T1600,1450A,102.8204,24.8886,昆明市,呈贡新区,,25,18,24,3,20,77,,67,67,11,16,5,7,0.3,0.4
2024-12-22T1600,1451A,102.6251,24.9608,昆明市,西山森林公园,,,,,,,,,,,,,,,,
2024-12-22T1600,1452A,102.7252,25.0902,昆明市,龙泉镇,,27,,23,6,19,85,,69,69,6,14,7,8,0.4,0.5
2024-12-22T1600,1453A,102.7266,25.0375,昆明市,东风东路,,24,9,25,7,17,75,,60,60,7,14,6,8,0.4,0.6
2024-12-22T1600,1454A,102.6742,25.0669,昆明市,金鼎山,,26,13,23,3,15,81,,69,69,8,15,10,11,0.4,0.5
2024-12-22T1600,1455A,102.6644,25.0401,昆明市,碧鸡广场,,25,9,26,3,16,78,,63,63,7,17,10,10,0.5,0.6
2024-12-22T1600,3179A,102.7494,25.0119,昆明市,官渡区博物馆,,27,27,24,8,19,76,,67,67,10,11,9,9,0.3,0.5
2024-12-22T1600,3375A,102.8017,24.8336,昆明市,青年创业园,,29,7,27,3,17,90,,78,78,2,10,6,8,0.3,0.5
2024-12-22T1600,3550A,102.7997,24.9786,昆明市,昆明学院,,26,9,28,3,17,82,,71,71,7,13,8,9,0.3,0.5
2024-12-22T1600,3551A,102.5967,24.6736,昆明市,晋宁区生态环境分局,,28,12,35,7,23,88,,73,73,2,10,1,4,0.5,0.8
2024-12-22T1600,3552A,102.6678,24.9856,昆明市,云天化总部,,28,7,22,3,15,89,,76,76,4,9,7,9,0.2,0.4
2024-12-22T1600,1456A,91.1319,29.6514,拉萨市,八廓街,,30,8,23,8,15,95,,72,72,7,28,6,10,0.1,0.5
2024-12-22T1600,1457A,91.1221,29.6747,拉萨市,市环保局,,34,9,36,3,22,107,,77,77,12,30,4,8,0.3,1
2024-12-22T1600,1458A,91.0874,29.6475,拉萨市,区监测站,,32,6,16,6,10,100,,66,66,7,32,6,8,0.4,0.5
2024-12-22T1600,1459A,91.1774,29.6541,拉萨市,西藏大学,,31,,22,3,12,98,,72,72,4,20,4,9,0.4,0.6
2024-12-22T1600,1460A,90.9798,29.6588,拉萨市,区辐射站,,30,8,19,8,14,93,,72,70,12,23,7,8,0.5,0.6
2024-12-22T1600,1461A,91.0834,29.6292,拉萨市,拉萨火车站,,33,7,16,3,9,104,,61,61,6,26,5,6,0.3,0.6
2024-12-22T1600,2520A,109.2203,23.7256,来宾市,来宾技工学校,细颗粒物(PM2.5),92,75,88,68,78,142,,106,106,19,24,9,14,0.9,1
2024-12-22T1600,3535A,109.1781,23.7297,来宾市,兴宾区政府,细颗粒物(PM2.5),87,91,101,64,75,143,,108,108,20,22,10,13,0.8,0.8
2024-12-22T1600,4002A,109.2416,23.7461,来宾市,中南小学,细颗粒物(PM2.5),93,78,91,69,78,143,,105,105,17,24,8,12,1.0,1.1
2024-12-22T1600,1476A,103.631,36.1031,兰州市,兰炼宾馆,细颗粒物(PM2.5),110,110,118,83,81,91,,45,45,63,72,37,38,1.2,1.5
2024-12-22T1600,1477A,104.1373,35.9454,兰州市,榆中兰大校区,,,,,,,,,,,,,,,,
2024-12-22T1600,1478A,103.8412,36.0726,兰州市,生物制品所,细颗粒物(PM2.5),107,103,106,80,74,68,,32,32,62,74,19,16,1.2,1.3
2024-12-22T1600,1479A,103.831,36.0464,兰州市,铁路设计院,细颗粒物(PM2.5),140,144,116,107,84,45,,28,28,99,86,29,16,1.6,1.7
2024-12-22T1600,3186A,103.7158,36.1058,兰州市,教育港,细颗粒物(PM2.5),112,117,119,84,76,82,,45,45,66,78,35,26,1.2,1.4
2024-12-22T1600,3241A,103.7439,36.0842,兰州市,百合公园,细颗粒物(PM2.5),113,101,105,85,77,79,,42,42,59,74,33,24,1.2,1.6
2024-12-22T1600,3242A,103.9611,35.998,兰州市,和平,细颗粒物(PM2.5),134,130,116,102,89,42,,28,28,70,62,15,15,1.5,1.4
2024-12-22T1600,3245A,103.6633,36.533,兰州新区,新区管委会,细颗粒物(PM2.5),130,103,99,99,75,107,,64,64,25,43,19,21,0.7,1.1
2024-12-22T1600,3246A,103.6975,36.4789,兰州新区,舟曲中学,细颗粒物(PM2.5),114,101,111,86,77,98,,57,57,29,46,19,21,0.8,1
2024-12-22T1600,1067A,116.6708,39.5111,廊坊市,药材公司,,17,16,15,11,8,48,,50,48,33,26,2,3,0.3,0.3
2024-12-22T1600,1068A,116.7214,39.5589,廊坊市,开发区,,22,22,14,12,6,52,,54,54,26,24,2,2,0.3,0.3
2024-12-22T1600,1070A,116.7244,39.5269,廊坊市,北华航天学院,,24,24,16,11,6,53,,56,56,21,16,9,5,0.4,0.3
2024-12-22T1600,2919A,116.7022,39.5453,廊坊市,河北工业大学,,21,21,22,13,9,53,,54,54,26,24,4,4,0.3,0.3
2024-12-22T1600,2535A,103.7723,29.5462,乐山市,花湖湾,细颗粒物(PM2.5),83,,69,61,63,18,,24,15,22,19,4,4,0.5,0.5
2024-12-22T1600,2536A,103.7627,29.5844,乐山市,牛耳桥,细颗粒物(PM2.5),82,67,77,60,66,20,,19,13,29,27,4,5,0.7,0.7
2024-12-22T1600,2537A,103.7508,29.6006,乐山市,市第三水厂,细颗粒物(PM2.5),72,69,66,52,56,24,,24,17,29,27,3,3,0.9,0.8
2024-12-22T1600,2538A,103.7571,29.5664,乐山市,市监测站,细颗粒物(PM2.5),57,40,60,40,53,17,,23,13,23,20,3,3,0.7,0.6
2024-12-22T1600,3361A,103.7311,29.5628,乐山市,理工大学,,49,,61,34,59,14,,27,14,25,21,5,6,0.8,0.7
2024-12-22T1600,2598A,100.2143,26.8576,丽江市,西南郊,,28,,25,3,14,89,,90,90,19,6,4,24,2.3,0.9
2024-12-22T1600,2599A,100.2497,26.8802,丽江市,丽江古城,,39,39,25,8,16,84,,76,76,7,11,8,10,0.4,0.5
2024-12-22T1600,2600A,100.2203,26.8906,丽江市,市中心,,27,8,11,3,8,84,,74,74,6,10,5,6,0.3,0.4
2024-12-22T1600,1267A,119.914,28.4514,丽水市,监测站大楼,细颗粒物(PM2.5),52,43,61,36,51,85,,73,73,19,27,6,6,0.5,0.6
2024-12-22T1600,1268A,119.93,28.4586,丽水市,莲都小学,颗粒物(PM10),61,72,77,41,50,86,,74,74,25,36,8,8,0.7,0.7
2024-12-22T1600,1269A,119.879,28.4231,丽水市,余庄前,,48,47,65,33,49,93,,74,74,20,26,6,6,0.4,0.5
2024-12-22T1600,1173A,119.176,34.5885,连云港市,市环境监测站,,46,46,58,27,31,49,,42,42,36,40,13,13,1.0,0.9
2024-12-22T1600,3000A,119.3581,34.6972,连云港市,德源药业,,46,46,56,22,29,43,,38,38,45,44,11,12,0.5,0.5
2024-12-22T1600,3007A,119.178,34.844,连云港市,新城一中,颗粒物(PM10),52,53,63,21,36,68,,50,50,29,44,14,17,1.0,0.9
2024-12-22T1600,3008A,119.3608,34.7519,连云港市,胡沟管理处,,20,19,46,9,22,63,,46,46,22,24,12,10,0.8,0.8
2024-12-22T1600,3009A,119.1478,34.5911,连云港市,矿山设计院,颗粒物(PM10),51,51,63,24,36,51,,45,45,35,37,12,14,0.7,0.5
2024-12-22T1600,3434A,119.2413,34.6539,连云港市,工贸学校,,47,47,52,25,30,51,,42,42,38,37,13,14,0.6,0.6
2024-12-22T1600,3664A,119.4172,34.7341,连云港市,连云街道,,37,37,52,18,26,32,,41,41,44,35,17,14,0.7,0.8
2024-12-22T1600,2571A,102.3431,27.8099,凉山彝族自治州,青龙寺,,30,13,38,3,15,94,,65,65,4,12,5,5,0.6,0.9
2024-12-22T1600,2572A,102.2721,27.8415,凉山彝族自治州,邛海宾馆,,29,24,42,9,25,90,,62,62,5,17,11,11,0.6,0.9
2024-12-22T1600,2573A,102.2625,27.898,凉山彝族自治州,西昌市政府,,31,31,41,14,33,87,,55,55,8,20,14,12,0.8,1
2024-12-22T1600,2574A,102.2685,27.8851,凉山彝族自治州,凉山州政府,,27,20,43,9,30,86,,56,56,7,20,15,10,0.5,0.9
2024-12-22T1600,2575A,102.237,27.8914,凉山彝族自治州,长安,,32,32,49,13,31,84,,50,50,12,27,11,10,0.9,1.1
2024-12-22T1600,2212A,123.2,41.1953,辽阳市,宏伟区,颗粒物(PM10),61,71,59,27,26,46,,34,34,34,35,15,18,0.5,0.9
2024-12-22T1600,2213A,123.1683,41.2495,辽阳市,新华园,,44,44,81,26,50,54,,35,35,28,51,19,21,0.9,1.7
2024-12-22T1600,2214A,123.2354,41.2639,辽阳市,滨河路,颗粒物(PM10),55,60,53,25,31,56,,45,45,37,41,22,26,1.2,1.1
2024-12-22T1600,2215A,123.149,41.2991,辽阳市,铁西工业园,颗粒物(PM10),52,53,94,25,58,60,,43,43,23,48,19,20,0.7,1.4
2024-12-22T1600,2227A,125.1358,42.8845,辽源市,环保局,,23,23,41,7,24,58,,57,57,18,28,7,8,0.5,0.8
2024-12-22T1600,3239A,125.0764,42.9078,辽源市,银鹰制药,,24,24,56,11,43,60,,66,66,16,36,8,10,0.5,0.7
2024-12-22T1600,1625A,115.9848,36.4372,聊城市,区政府,,24,22,54,16,33,75,,57,57,18,40,7,10,0.5,0.8
2024-12-22T1600,2878A,116.0072,36.4343,聊城市,聊大东校,,29,29,62,18,37,73,,52,52,20,41,5,8,0.6,0.8
2024-12-22T1600,3200A,115.9819,36.4978,聊城市,监控中心,,24,19,64,14,41,74,,56,56,27,54,8,12,0.6,0.9
2024-12-22T1600,3513A,116.0445,36.4361,聊城市,九州社区,,27,27,55,12,34,80,,57,57,16,33,3,11,0.6,0.8
2024-12-22T1600,4018A,116.0567,36.4608,聊城市,星美广场,,33,33,66,13,34,80,,60,60,15,36,9,11,0.5,0.7
2024-12-22T1600,2632A,94.3681,29.6376,林芝市,林芝监测站,,27,23,10,3,4,84,,78,78,2,3,6,7,0.3,0.3
2024-12-22T1600,2633A,94.3616,29.6616,林芝市,林芝人民医院,,25,8,9,3,3,79,,72,72,2,2,6,6,0.3,0.2
2024-12-22T1600,2603A,100.0781,23.8982,临沧市,市环保局,,26,23,24,14,22,81,,55,55,10,14,6,6,0.4,0.5
2024-12-22T1600,2604A,100.0894,23.8822,临沧市,市气象局,,24,24,24,16,19,73,,52,52,17,14,7,7,0.5,0.5
2024-12-22T1600,1733A,111.5531,36.0783,临汾市,临钢医院,颗粒物(PM10),57,63,64,33,35,65,,38,38,28,33,12,9,0.6,0.6
2024-12-22T1600,1734A,111.5028,36.0714,临汾市,技工学校,细颗粒物(PM2.5),65,61,79,47,46,58,,38,38,30,37,14,11,0.9,1
2024-12-22T1600,1736A,111.5018,36.0855,临汾市,市委,颗粒物(PM10),68,85,81,37,39,64,,40,40,31,40,14,11,0.8,0.9
2024-12-22T1600,3018A,111.505,36.1014,临汾市,唐尧大酒店,颗粒物(PM10),59,67,74,36,39,59,,35,35,29,39,17,13,0.7,0.8
2024-12-22T1600,3668A,111.5036,36.0414,临汾市,城南,细颗粒物(PM2.5),57,62,77,40,42,60,,36,36,30,36,15,9,0.9,0.9
2024-12-22T1600,2667A,103.2069,35.5993,临夏回族自治州,环保局,细颗粒物(PM2.5),99,121,172,74,104,78,,44,44,24,37,13,11,1.0,1.8
2024-12-22T1600,2668A,103.2417,35.6057,临夏回族自治州,建设大厦,细颗粒物(PM2.5),119,107,147,90,91,95,,52,52,19,30,15,13,1.3,1.6
2024-12-22T1600,1618A,118.3429,35.0532,临沂市,沂河小区,颗粒物(PM10),54,58,53,29,29,57,,51,51,42,43,16,14,0.5,0.5
2024-12-22T1600,1619A,118.295,35.0583,临沂市,鲁南制药厂,颗粒物(PM10),56,61,66,35,30,65,,46,46,43,49,12,14,0.5,0.6
2024-12-22T1600,1620A,118.2794,34.9976,临沂市,新光毛纺厂,颗粒物(PM10),52,53,71,32,33,67,,48,48,41,56,14,15,0.8,1
2024-12-22T1600,1621A,118.3956,35.0888,临沂市,河东保险公司,,36,36,44,14,21,69,,56,56,24,34,7,9,0.4,0.5
2024-12-22T1600,3370A,118.3564,35.0215,临沂市,十里堡居委,细颗粒物(PM2.5),52,51,49,36,24,60,,51,51,39,37,21,14,0.7,0.8
2024-12-22T1600,3496A,118.3604,35.1084,临沂市,南坊新区,,39,39,50,24,25,67,,54,54,35,43,6,10,0.7,0.7
2024-12-22T1600,3860A,118.3920,35.0300,临沂市,皇山花园小区,,36,36,46,21,20,65,,53,53,35,39,9,7,0.5,0.6
2024-12-22T1600,1870A,109.4856,24.3895,柳州市,柳东小学,细颗粒物(PM2.5),85,72,71,63,59,119,,105,105,20,19,14,14,0.6,0.6
2024-12-22T1600,1871A,109.4157,24.3277,柳州市,环保监测站,细颗粒物(PM2.5),83,81,88,61,63,120,,104,104,22,21,16,14,0.7,0.7
2024-12-22T1600,1872A,109.389,24.341,柳州市,河西水厂,颗粒物(PM10),74,98,94,53,62,114,,99,99,20,20,14,12,0.5,0.6
2024-12-22T1600,1873A,109.4311,24.2921,柳州市,市四中,细颗粒物(PM2.5),84,76,68,62,64,130,,108,108,21,21,12,12,0.5,0.6
2024-12-22T1600,1874A,109.4006,24.3631,柳州市,市九中,细颗粒物(PM2.5),94,87,80,70,70,116,,101,101,21,23,12,10,0.9,0.9
2024-12-22T1600,1875A,109.4958,24.3134,柳州市,古亭山,细颗粒物(PM2.5),77,70,61,56,54,130,,109,109,21,20,15,14,0.9,0.9
2024-12-22T1600,3402A,109.5422,24.3996,柳州市,市二中,细颗粒物(PM2.5),73,64,61,53,56,116,,98,98,23,24,13,13,0.7,0.7
2024-12-22T1600,2307A,116.5079,31.737,六安市,监测大楼,颗粒物(PM10),51,51,56,29,28,57,,48,48,21,23,7,7,0.5,0.5
2024-12-22T1600,2308A,116.4738,31.7643,六安市,皖西学院,颗粒物(PM10),54,57,62,26,30,57,,50,50,25,23,6,6,0.6,0.7
2024-12-22T1600,2309A,116.4996,31.7905,六安市,朝阳厂,,46,46,51,23,30,54,,46,46,24,25,4,3,0.7,0.7
2024-12-22T1600,2310A,116.5567,31.7886,六安市,开发区,颗粒物(PM10),58,66,72,27,34,59,,48,48,23,31,5,6,0.4,0.5
2024-12-22T1600,2576A,104.8,26.5892,六盘水市,窑上,,33,27,29,23,23,49,,44,44,12,14,6,6,0.8,0.8
2024-12-22T1600,2577A,104.83,26.5917,六盘水市,黄土坡,,26,26,24,11,13,51,,45,42,14,16,6,8,0.8,0.9
2024-12-22T1600,2578A,104.89,26.5939,六盘水市,水钢,,40,40,40,23,35,48,,49,45,13,13,6,5,0.9,0.9
2024-12-22T1600,2579A,104.8475,26.5894,六盘水市,民中,,20,20,25,14,18,49,,44,41,15,17,8,8,0.8,0.9
2024-12-22T1600,2580A,104.9544,26.5506,六盘水市,双水,,17,17,28,9,21,51,,53,51,10,11,7,7,0.7,0.8
2024-12-22T1600,2335A,117.0189,25.1181,龙岩市,龙岩师专,,,,,,,,,,,,,,,,
2024-12-22T1600,2336A,117.0217,25.1033,龙岩市,龙岩市监测站,,43,32,35,30,32,104,,93,93,18,16,8,11,0.5,0.5
2024-12-22T1600,2337A,117.0258,25.0661,龙岩市,闽西职业技术学院,,40,40,37,25,26,104,,94,94,13,13,7,7,0.5,0.5
2024-12-22T1600,2338A,117.0196,25.0306,龙岩市,龙岩学院,,39,39,36,22,27,105,,93,93,14,14,8,11,0.5,0.4
2024-12-22T1600,2665A,105.0822,33.3261,陇南市,汉王镇固水子,,,,,,,,,,,,,,,,
2024-12-22T1600,2885A,104.9339,33.3826,陇南市,滨江中学,,31,31,54,18,29,56,,55,55,21,26,4,16,0.5,0.7
2024-12-22T1600,3247A,104.955,33.371,陇南市,市总工会,,27,27,43,10,25,65,,69,69,17,20,4,7,0.2,0.3
2024-12-22T1600,2487A,111.9589,27.8901,娄底市,电视发射台,细颗粒物(PM2.5),74,68,67,54,54,70,,82,79,27,24,9,10,0.9,0.9
2024-12-22T1600,2488A,111.9975,27.725,娄底市,市监测站,细颗粒物(PM2.5),87,96,102,64,70,80,,80,79,18,18,10,10,0.5,0.5
2024-12-22T1600,2489A,112.0194,27.7314,娄底市,市委党校,细颗粒物(PM2.5),90,92,104,67,70,75,,76,70,24,32,6,8,0.6,0.7
2024-12-22T1600,2490A,111.9561,27.7569,娄底市,涟钢,细颗粒物(PM2.5),80,85,107,59,74,69,,76,72,28,24,7,5,1.6,1.2
2024-12-22T1600,2491A,111.9892,27.7044,娄底市,市政府,细颗粒物(PM2.5),94,91,99,70,71,81,,77,74,23,26,8,8,0.6,0.7
2024-12-22T1600,1893A,105.4324,28.9634,泸州市,九狮山,,,,,,,,,,,,,,,,
2024-12-22T1600,1894A,105.4427,28.9063,泸州市,小市上码头,细颗粒物(PM2.5),80,70,132,59,107,31,,28,28,28,41,2,3,0.6,0.8
2024-12-22T1600,1895A,105.4241,28.8573,泸州市,兰田宪桥,细颗粒物(PM2.5),67,53,131,48,109,43,,28,28,21,40,3,3,0.7,0.9
2024-12-22T1600,1896A,105.4379,28.8833,泸州市,市环监站,,,,132,,103,24,,23,23,,37,,4,0.8,0.9
2024-12-22T1600,3490A,105.3617,28.7703,泸州市,纳溪区环保局,细颗粒物(PM2.5),58,,112,41,94,34,,20,20,20,36,4,4,0.6,0.8
2024-12-22T1600,2183A,111.1406,37.5211,吕梁市,环保局,,38,38,74,23,26,44,,31,31,38,38,7,4,0.8,0.6
2024-12-22T1600,2185A,111.1297,37.5136,吕梁市,自来水公司,颗粒物(PM10),53,56,84,34,28,33,,30,30,49,35,10,8,0.9,0.6
2024-12-22T1600,2867A,111.1283,37.51,吕梁市,马茂庄小学,颗粒物(PM10),58,66,76,24,26,34,,31,31,47,41,9,6,0.8,0.6
2024-12-22T1600,1812A,112.3931,34.6516,洛阳市,市委党校,颗粒物(PM10),62,73,95,31,42,54,,30,30,28,48,12,8,0.8,0.9
2024-12-22T1600,1814A,112.4657,34.6871,洛阳市,豫西宾馆,颗粒物(PM10),67,84,91,46,46,63,,38,38,24,43,18,9,0.6,0.6
2024-12-22T1600,1815A,112.494,34.6886,洛阳市,河南林校,细颗粒物(PM2.5),80,72,81,59,57,53,,30,30,23,42,10,4,0.5,0.6
2024-12-22T1600,1816A,112.3844,34.623,洛阳市,开发区管委会,细颗粒物(PM2.5),80,82,88,59,58,51,,33,33,28,37,11,7,0.6,0.7
2024-12-22T1600,1817A,112.4267,34.6258,洛阳市,市委新办公区,细颗粒物(PM2.5),70,84,90,51,57,55,,38,38,29,41,12,6,0.4,0.5
2024-12-22T1600,3340A,112.6005,34.6326,洛阳市,伊滨,颗粒物(PM10),69,87,107,37,48,55,,34,34,29,40,9,6,0.5,0.7
2024-12-22T1600,3341A,112.4951,34.6332,洛阳市,中移产业园,颗粒物(PM10),60,69,78,33,37,58,,37,37,28,43,21,7,0.5,0.6
2024-12-22T1600,3593A,112.5736,34.8993,洛阳市,吉利监测站,细颗粒物(PM2.5),72,78,85,52,52,48,,36,36,36,44,12,8,0.4,0.6
2024-12-22T1600,3635A,112.3677,34.662,洛阳市,河科大西苑校区,颗粒物(PM10),64,77,102,43,59,58,,38,38,28,45,12,10,0.6,0.8
2024-12-22T1600,3636A,112.4388,34.6781,洛阳市,英才小学,颗粒物(PM10),59,67,90,34,46,54,,28,28,27,46,12,7,0.4,0.5
2024-12-22T1600,2399A,114.051,33.5699,漯河市,三五一五工厂,,46,46,83,27,50,68,,53,53,15,30,8,9,0.5,0.6
2024-12-22T1600,2400A,114.0055,33.5698,漯河市,漯河大学,颗粒物(PM10),51,52,81,29,49,71,,54,54,19,34,6,6,0.2,0.3
2024-12-22T1600,2401A,114.0138,33.5828,漯河市,市水利局,颗粒物(PM10),54,58,87,29,49,70,,50,50,12,26,7,8,0.6,0.8
2024-12-22T1600,2402A,114.0261,33.5698,漯河市,市广电局,,46,46,80,29,53,70,,52,52,17,32,6,7,0.5,0.7
2024-12-22T1600,3478A,113.9749,33.5664,漯河市,市图书馆,颗粒物(PM10),56,62,88,27,48,63,,50,50,29,37,8,6,0.2,0.4
2024-12-22T1600,3479A,114.0967,33.5906,漯河市,召陵区卫健委,,50,50,97,26,57,68,,52,52,15,34,8,8,0.2,0.4
2024-12-22T1600,1798A,118.5092,31.6837,马鞍山市,湖东路四小,颗粒物(PM10),53,55,66,33,28,76,,57,57,20,31,2,5,0.7,0.8
2024-12-22T1600,1799A,118.5024,31.6449,马鞍山市,开发区,细颗粒物(PM2.5),64,51,68,46,43,72,,54,54,26,31,7,9,0.6,0.7
2024-12-22T1600,1800A,118.5228,31.7231,马鞍山市,慈湖,细颗粒物(PM2.5),57,51,63,40,41,76,,54,54,21,41,5,6,0.9,0.9
2024-12-22T1600,1802A,118.6245,31.7241,马鞍山市,濮塘,细颗粒物(PM2.5),57,49,58,40,38,79,,58,58,16,24,8,8,0.8,0.7
2024-12-22T1600,3633A,118.4918,31.6809,马鞍山市,雨山,细颗粒物(PM2.5),60,59,70,43,36,72,,55,55,23,31,9,12,0.6,1.1
2024-12-22T1600,1686A,111.0286,21.4688,茂名市,电白南海,颗粒物(PM10),54,58,65,24,36,120,,101,101,18,26,9,10,0.6,0.8
2024-12-22T1600,1687A,110.9294,21.6533,茂名市,茂石化七小,颗粒物(PM10),51,51,65,31,42,122,,98,98,13,23,10,21,0.5,0.7
2024-12-22T1600,1688A,110.9107,21.6687,茂名市,健康路,,45,41,61,31,40,130,,104,104,14,25,13,33,0.6,0.8
2024-12-22T1600,1689A,110.8592,21.6828,茂名市,高岭,,46,46,78,29,46,117,,95,95,16,34,16,24,0.5,0.7
2024-12-22T1600,3450A,111.01,21.5165,茂名市,电白水东,颗粒物(PM10),51,51,52,29,35,113,,100,100,12,16,10,13,0.4,0.5
2024-12-22T1600,2539A,104.0308,30.0478,眉山市,黑龙滩水库,颗粒物(PM10),54,57,94,36,55,33,,36,36,12,14,2,1,0.6,0.6
2024-12-22T1600,2540A,103.8416,30.0874,眉山市,气象局,细颗粒物(PM2.5),58,50,68,41,68,31,,17,17,20,31,4,4,0.7,0.8
2024-12-22T1600,3137A,103.8578,30.0744,眉山市,市委党校,细颗粒物(PM2.5),52,41,68,36,63,26,,16,16,27,37,5,4,0.5,0.6
2024-12-22T1600,3148A,103.8291,30.0564,眉山市,区人社局,细颗粒物(PM2.5),52,37,59,36,62,26,,18,18,33,37,5,4,0.6,0.6
2024-12-22T1600,1690A,116.1231,24.3284,梅州市,梅江月梅,,41,41,37,28,29,108,,90,90,15,17,10,10,0.4,0.4
2024-12-22T1600,1691A,116.0797,24.2719,梅州市,梅县新城,,47,47,41,30,29,111,,80,80,17,34,7,6,0.6,0.6
2024-12-22T1600,1692A,116.1248,24.2654,梅州市,环境监控中心,,43,39,41,30,30,109,,78,78,15,32,8,8,0.5,0.5
2024-12-22T1600,3315A,116.1233,24.2991,梅州市,梅龙,,41,41,43,25,30,108,,83,83,16,23,8,10,0.5,0.6
2024-12-22T1600,1878A,104.7778,31.4741,绵阳市,富乐山,,45,37,45,31,37,31,,37,32,17,16,2,2,0.7,0.7
2024-12-22T1600,1879A,104.7563,31.4535,绵阳市,市人大,,45,41,53,31,40,27,,38,24,20,18,2,4,0.8,0.7
2024-12-22T1600,1880A,104.6697,31.4668,绵阳市,高新区自来水公司,,,31,44,27,38,30,,42,30,,17,4,2,0.7,0.7
2024-12-22T1600,1881A,104.7287,31.5075,绵阳市,三水厂,,46,34,41,32,38,30,,46,36,24,18,4,4,0.6,0.6
2024-12-22T1600,3491A,104.69,31.5322,绵阳市,西科大附属小学,,40,30,43,28,35,32,,38,31,17,18,4,4,0.6,0.6
2024-12-22T1600,3492A,104.5648,31.5343,绵阳市,安州区旅游局,,49,,38,34,40,32,,44,37,20,19,8,6,0.8,0.8
2024-12-22T1600,1784A,129.61,44.561,牡丹江市,环保大楼,,40,40,38,28,26,45,,53,53,31,19,7,8,0.5,0.5
2024-12-22T1600,1785A,129.6115,44.5782,牡丹江市,文化广场,,33,29,41,23,36,52,,53,53,29,22,10,10,0.7,0.7
2024-12-22T1600,1786A,129.5904,44.5963,牡丹江市,第一医院,细颗粒物(PM2.5),57,,40,40,45,65,,56,56,14,19,7,7,0.5,0.6
2024-12-22T1600,1787A,129.6364,44.6075,牡丹江市,机车工厂,,42,42,47,26,32,68,,55,55,11,25,9,11,0.6,0.6
2024-12-22T1600,1788A,129.6386,44.5462,牡丹江市,第一中学,,48,,32,33,27,49,,58,58,26,22,6,6,0.4,0.5
2024-12-22T1600,2531A,105.0703,29.61,内江市,市监测站,细颗粒物(PM2.5),68,61,96,49,102,32,,20,20,26,27,6,6,0.6,0.7
2024-12-22T1600,2532A,105.0717,29.5947,内江市,东兴区政府,细颗粒物(PM2.5),54,45,94,38,92,35,,19,19,23,31,4,4,0.7,0.9
2024-12-22T1600,2533A,105.0653,29.5817,内江市,内江二中,细颗粒物(PM2.5),67,,112,48,104,37,,21,21,23,30,8,8,0.8,0.9
2024-12-22T1600,2534A,105.0406,29.5822,内江市,内江日报社,细颗粒物(PM2.5),62,56,101,44,94,28,,16,16,30,37,9,9,0.8,0.9
2024-12-22T1600,2628A,92.0657,31.4846,那曲市,那曲监测站,,30,18,44,6,24,94,,57,57,5,23,10,13,0.5,1.3
2024-12-22T1600,3128A,92.0506,31.4797,那曲市,那曲会议中心,,30,6,36,3,22,93,,57,57,1,12,1,4,0.6,1
2024-12-22T1600,1290A,115.8931,28.6843,南昌市,省外办,细颗粒物(PM2.5),62,64,87,44,60,64,,53,53,29,30,8,9,0.6,0.7
2024-12-22T1600,1291A,115.8886,28.7003,南昌市,省林业公司,颗粒物(PM10),57,63,92,36,53,70,,56,56,18,23,11,12,0.5,0.5
2024-12-22T1600,1292A,115.8126,28.7442,南昌市,林科所,颗粒物(PM10),57,63,85,36,49,66,,59,59,26,27,11,12,0.4,0.5
2024-12-22T1600,1294A,115.8518,28.687,南昌市,建工学校,颗粒物(PM10),56,61,93,28,50,68,,54,54,19,27,11,11,0.6,0.7
2024-12-22T1600,1295A,115.8921,28.6424,南昌市,象湖,细颗粒物(PM2.5),62,56,79,44,56,64,,56,56,27,28,10,10,0.3,0.4
2024-12-22T1600,1296A,115.7423,28.7996,南昌市,武术学校,颗粒物(PM10),56,61,72,29,45,58,,50,50,23,22,3,3,0.6,0.7
2024-12-22T1600,1298A,115.9314,28.6842,南昌市,省站,细颗粒物(PM2.5),62,62,94,44,56,56,,50,50,32,32,11,11,0.5,0.5
2024-12-22T1600,3046A,115.9084,28.6062,南昌市,机电学校,颗粒物(PM10),65,80,100,41,56,58,,52,52,26,25,12,12,0.3,0.4
2024-12-22T1600,3690A,115.9721,28.7031,南昌市,外国语学校,颗粒物(PM10),62,74,96,33,48,61,,55,55,28,26,10,11,0.6,0.6
2024-12-22T1600,1905A,106.056,30.8064,南充市,西山风景区,细颗粒物(PM2.5),82,61,80,60,76,41,,29,29,15,16,1,3,0.5,0.6
2024-12-22T1600,1906A,106.0789,30.8023,南充市,南充市委,细颗粒物(PM2.5),94,74,102,70,93,44,,36,36,20,23,3,3,0.5,0.7
2024-12-22T1600,1907A,106.1031,30.8217,南充市,南充炼油厂,细颗粒物(PM2.5),99,82,101,74,92,49,,38,38,20,22,3,3,0.2,0.3
2024-12-22T1600,1908A,106.1064,30.7856,南充市,高坪区监测站,细颗粒物(PM2.5),92,79,106,68,86,38,,29,29,23,26,2,2,0.4,0.5
2024-12-22T1600,1909A,106.0642,30.7636,南充市,嘉陵区环保局,细颗粒物(PM2.5),89,85,104,66,86,30,,24,24,34,31,3,4,0.8,0.8
2024-12-22T1600,1910A,106.1087,30.8388,南充市,市环境监测站,细颗粒物(PM2.5),95,92,106,71,82,47,,36,36,20,21,4,4,0.6,0.6
2024-12-22T1600,1151A,118.8086,32.1065,南京市,迈皋桥,,,,53,27,31,67,,50,50,59,39,,4,0.7,0.5
2024-12-22T1600,1152A,118.7538,32.0551,南京市,草场门,颗粒物(PM10),51,51,61,31,34,61,,47,47,32,38,5,7,0.2,0.3
2024-12-22T1600,1153A,118.7794,32.0745,南京市,山西路,"颗粒物(PM10),细颗粒物(PM2.5)",52,53,68,36,36,65,,48,48,31,42,4,4,0.4,0.5
2024-12-22T1600,1154A,118.7752,32.0023,南京市,中华门,"颗粒物(PM10),细颗粒物(PM2.5)",52,53,57,36,35,59,,51,51,11,18,4,5,0.7,0.8
2024-12-22T1600,1155A,118.8109,32.0309,南京市,瑞金路,颗粒物(PM10),56,61,61,39,35,64,,56,56,22,33,3,6,0.8,0.8
2024-12-22T1600,1156A,118.7997,32.0754,南京市,玄武湖,,47,47,65,30,32,56,,41,41,25,33,8,9,0.1,0.2
2024-12-22T1600,1157A,118.6414,32.0931,南京市,浦口,,47,47,62,30,30,66,,53,53,20,15,9,8,0.7,0.4
2024-12-22T1600,1158A,118.7356,31.9996,南京市,奥体中心,颗粒物(PM10),56,62,62,34,34,72,,60,60,30,39,8,11,0.5,0.6
2024-12-22T1600,1159A,118.9125,32.1028,南京市,仙林大学城,颗粒物(PM10),51,51,62,34,35,61,,48,48,29,38,7,7,0.5,0.5
2024-12-22T1600,3422A,118.8436,31.9198,南京市,江宁彩虹桥,颗粒物(PM10),53,56,68,29,34,69,,55,55,18,32,6,9,0.2,0.3
2024-12-22T1600,3423A,119.0138,31.6494,南京市,溧水永阳,细颗粒物(PM2.5),60,61,61,43,41,70,,52,52,22,31,4,4,0.7,0.6
2024-12-22T1600,3424A,118.879,31.3302,南京市,高淳老职中,细颗粒物(PM2.5),60,58,56,43,44,71,,57,57,21,27,5,6,0.4,0.4
2024-12-22T1600,3427A,118.8554,32.3578,南京市,六合雄州,颗粒物(PM10),51,52,51,23,30,68,,50,50,14,22,8,7,0.4,0.4
2024-12-22T1600,1401A,108.3103,22.7881,南宁市,二十一中,细颗粒物(PM2.5),77,72,71,56,61,143,,111,111,23,26,8,9,0.9,1
2024-12-22T1600,1402A,108.3141,22.8528,南宁市,北湖,细颗粒物(PM2.5),78,79,81,57,63,134,,96,96,25,46,11,12,1.0,1
2024-12-22T1600,1403A,108.3206,22.8225,南宁市,市监测站,细颗粒物(PM2.5),75,65,76,55,61,135,,101,101,24,30,13,13,1.0,1.1
2024-12-22T1600,1404A,108.3829,22.8037,南宁市,大自然花园,,,66,70,53,60,,,99,99,21,22,9,11,0.7,0.8
2024-12-22T1600,1405A,108.4394,22.7904,南宁市,仙葫,细颗粒物(PM2.5),69,58,63,50,57,126,,100,100,16,17,7,9,0.9,0.9
2024-12-22T1600,1406A,108.2397,22.8467,南宁市,区农职院,细颗粒物(PM2.5),83,70,76,61,59,139,,88,88,19,32,11,12,0.8,0.8
2024-12-22T1600,1407A,108.3275,22.735,南宁市,英华嘉园,细颗粒物(PM2.5),73,68,71,53,55,132,,105,105,17,21,10,12,0.8,0.8
2024-12-22T1600,1408A,108.2257,22.7757,南宁市,沙井镇街道办,细颗粒物(PM2.5),77,66,96,56,69,132,,85,85,28,54,11,12,0.7,0.8
2024-12-22T1600,3401A,108.4834,22.7618,南宁市,红星社区,细颗粒物(PM2.5),73,70,70,53,57,137,,108,108,19,19,12,13,0.9,1
2024-12-22T1600,2331A,118.0966,26.6761,南平市,茫荡山,,,,,,,,,,,,,,,,
2024-12-22T1600,2332A,118.1681,26.6369,南平市,南平市监测站,,43,40,41,30,31,111,,91,91,13,26,6,5,0.4,0.4
2024-12-22T1600,2333A,118.1825,26.6489,南平市,南平铝业有限公司,,50,43,41,35,35,109,,93,93,16,27,6,7,0.5,0.6
2024-12-22T1600,2334A,118.1756,26.6272,南平市,南平七中,细颗粒物(PM2.5),53,45,41,37,32,112,,91,91,15,24,4,3,0.3,0.5
2024-12-22T1600,1168A,120.9098,31.9663,南通市,狼山街道,,26,24,56,18,39,74,,61,61,7,15,6,7,0.5,0.6
2024-12-22T1600,1169A,120.86,32.0005,南通市,虹桥,,26,25,51,18,38,67,,55,55,17,22,4,6,0.4,0.6
2024-12-22T1600,1170A,120.87,32.02,南通市,城中,,32,32,61,19,37,71,,60,60,15,21,6,7,0.4,0.6
2024-12-22T1600,1171A,120.94,31.93,南通市,星湖花园,,26,25,53,18,37,69,,57,57,13,19,4,6,0.4,0.6
2024-12-22T1600,1172A,120.81,32.0417,南通市,紫琅学院,,25,22,54,17,35,69,,56,56,15,26,2,4,0.5,0.7
2024-12-22T1600,3291A,121.067,32.062,南通市,通州监测站,,36,36,58,19,37,71,,62,62,18,21,3,3,0.5,0.7
2024-12-22T1600,3432A,120.9348,31.9883,南通市,环境教育馆,,25,24,56,17,36,74,,61,61,6,15,3,5,0.6,0.8
2024-12-22T1600,2404A,112.5224,33.0122,南阳市,瓦房庄,"颗粒物(PM10),细颗粒物(PM2.5)",58,66,86,41,51,65,,58,58,21,25,9,8,0.7,0.6
2024-12-22T1600,2405A,112.5003,32.9735,南阳市,汉画馆,细颗粒物(PM2.5),60,60,82,43,55,67,,57,57,20,29,8,7,0.3,0.4
2024-12-22T1600,2406A,112.5573,33.027,南阳市,气象站,颗粒物(PM10),62,74,96,36,46,71,,60,60,17,24,9,7,0.5,0.5
2024-12-22T1600,2407A,112.5481,32.9689,南阳市,理工学院,,,,80,,49,,,50,,,28,,7,,0.7
2024-12-22T1600,4008A,112.5234,32.9922,南阳市,卧龙区政府,颗粒物(PM10),54,57,79,34,45,70,,58,58,18,26,6,6,0.7,0.7
2024-12-22T1600,1234A,121.8358,29.911,宁波市,区环保大楼,,45,45,69,23,41,48,,46,46,34,33,11,12,0.7,0.8
2024-12-22T1600,1235A,121.56,29.82,宁波市,万里学院,细颗粒物(PM2.5),68,71,81,49,56,43,,42,42,38,38,6,7,0.7,0.7
2024-12-22T1600,1236A,121.713,29.9572,宁波市,龙赛医院,,46,46,70,28,41,50,,48,48,31,38,8,11,0.5,0.6
2024-12-22T1600,1239A,121.633,29.7733,宁波市,钱湖水厂,细颗粒物(PM2.5),70,75,87,51,58,37,,42,42,40,33,6,7,0.9,0.9
2024-12-22T1600,1240A,121.5856,29.8635,宁波市,太古小学,细颗粒物(PM2.5),63,66,89,45,53,43,,40,40,38,38,8,10,0.8,0.9
2024-12-22T1600,1241A,121.524,29.8674,宁波市,市环境监测中心,细颗粒物(PM2.5),64,66,82,46,53,40,,39,39,35,35,8,9,0.7,0.8
2024-12-22T1600,2871A,121.6147,29.9017,宁波市,万里国际学校,颗粒物(PM10),54,57,79,34,51,36,,35,35,41,38,8,8,0.7,0.7
2024-12-22T1600,3710A,121.5594,29.8975,宁波市,白沙活动中心,颗粒物(PM10),53,55,74,35,50,49,,40,40,32,37,9,10,0.7,0.8
2024-12-22T1600,2339A,119.5001,26.6946,宁德市,金涵水库,,,,,,,,,,,,,,,,
2024-12-22T1600,2341A,119.5388,26.6612,宁德市,宁德市监测站,细颗粒物(PM2.5),79,61,57,58,52,116,,87,87,21,24,6,7,0.4,0.3
2024-12-22T1600,3209A,119.5231,26.6562,宁德市,宁德一中,细颗粒物(PM2.5),82,64,59,60,47,125,,94,94,17,19,5,5,0.5,0.4
2024-12-22T1600,2618A,98.8601,25.8567,怒江傈僳族自治州,州监测站,,24,23,39,10,20,74,,47,47,8,15,6,5,0.4,0.5
2024-12-22T1600,2619A,98.8546,25.8417,怒江傈僳族自治州,泸水一中,,26,26,30,13,22,47,,32,32,22,18,7,7,0.4,0.5
2024-12-22T1600,1888A,101.6891,26.571,攀枝花市,弄弄坪,,45,45,74,9,44,73,,56,56,22,45,30,35,1.8,2.1
2024-12-22T1600,1889A,101.5769,26.5928,攀枝花市,河门口,,28,11,56,3,31,89,,64,64,10,36,7,18,0.4,1.8
2024-12-22T1600,1890A,101.7169,26.585,攀枝花市,炳草岗,,28,24,71,3,39,89,,58,58,9,50,16,27,0.9,1.5
2024-12-22T1600,1891A,101.7369,26.5008,攀枝花市,仁和,,31,6,79,3,56,98,,62,62,9,40,7,21,0.3,1.9
2024-12-22T1600,2835A,101.7227,26.567,攀枝花市,四十中小,,43,43,71,24,41,89,,60,60,10,53,6,28,0.4,1.9
2024-12-22T1600,1604A,122.0303,41.1489,盘锦市,开发区,细颗粒物(PM2.5),80,68,43,59,23,54,,52,52,31,36,15,15,1.1,1
2024-12-22T1600,1605A,122.0485,41.0883,盘锦市,兴隆台,细颗粒物(PM2.5),77,88,45,56,27,56,,52,52,32,45,17,16,0.7,1
2024-12-22T1600,1606A,121.8297,41.1028,盘锦市,新生街道,,23,21,33,14,17,71,,63,63,16,40,11,23,0.4,0.5
2024-12-22T1600,1832A,113.3257,33.742,平顶山市,新华旅馆,"颗粒物(PM10),细颗粒物(PM2.5)",73,96,116,53,54,58,,41,41,28,45,10,10,0.6,0.7
2024-12-22T1600,1833A,113.2919,33.737,平顶山市,规划设计院,细颗粒物(PM2.5),69,82,109,50,59,63,,42,42,19,35,9,8,0.4,0.5
2024-12-22T1600,1834A,113.182,33.774,平顶山市,平顶山工学院,颗粒物(PM10),75,100,116,48,52,59,,45,45,24,34,10,10,0.7,0.7
2024-12-22T1600,3204A,113.3025,33.73,平顶山市,规划局,细颗粒物(PM2.5),74,88,111,54,64,56,,39,39,23,38,10,9,0.5,0.5
2024-12-22T1600,3594A,112.8867,33.9116,平顶山市,石龙区,颗粒物(PM10),69,88,120,40,55,68,,49,49,8,31,9,9,0.6,0.7
2024-12-22T1600,2656A,106.6692,35.5461,平凉市,聚贤嘉苑,颗粒物(PM10),61,72,70,37,40,73,,70,68,25,34,18,19,0.6,0.7
2024-12-22T1600,2657A,106.7021,35.5307,平凉市,博物馆,颗粒物(PM10),58,65,75,33,43,75,,72,69,24,30,17,20,0.6,0.6
2024-12-22T1600,2347A,114.0997,27.5002,萍乡市,武功山,细颗粒物(PM2.5),88,102,75,65,57,101,,87,87,20,17,13,11,0.3,0.4
2024-12-22T1600,2348A,113.8385,27.6434,萍乡市,中医院,细颗粒物(PM2.5),93,121,110,69,65,98,,82,82,21,24,13,16,0.8,0.9
2024-12-22T1600,2349A,113.8493,27.6253,萍乡市,市政府车库,细颗粒物(PM2.5),107,100,99,80,79,94,,82,82,20,24,16,17,0.8,0.9
2024-12-22T1600,2350A,113.8676,27.6435,萍乡市,市环保局,细颗粒物(PM2.5),108,112,106,81,76,95,,83,83,19,22,15,18,0.8,0.8
2024-12-22T1600,2351A,113.866,27.6198,萍乡市,安源区政府,细颗粒物(PM2.5),102,112,107,76,73,92,,82,82,28,28,10,16,0.9,1.3
2024-12-22T1600,2319A,119.0141,25.4325,莆田市,荔城区仓后路,细颗粒物(PM2.5),75,90,58,55,47,115,,100,100,18,14,4,3,0.4,0.5
2024-12-22T1600,2320A,119.0015,25.4553,莆田市,莆田市监测站,细颗粒物(PM2.5),67,71,57,48,45,122,,106,106,21,17,6,5,0.5,0.4
2024-12-22T1600,2321A,119.1119,25.4561,莆田市,涵江区六中,细颗粒物(PM2.5),64,76,63,46,47,120,,105,105,22,18,3,2,0.6,0.5
2024-12-22T1600,2322A,119.1013,25.3215,莆田市,秀屿区政府,颗粒物(PM10),64,77,57,42,45,115,,104,104,18,13,5,3,0.6,0.6
2024-12-22T1600,2323A,118.981,25.4792,莆田市,东圳水库,,,,,,,,,,,,,,,,
2024-12-22T1600,2392A,115.0312,35.7636,濮阳市,环保局,,25,24,51,10,24,77,,52,52,9,35,2,2,0.1,0.5
2024-12-22T1600,2394A,115.0574,35.7609,濮阳市,油田运输公司,,33,33,61,10,24,76,,50,50,13,38,1,2,0.3,0.6
2024-12-22T1600,2395A,115.0866,35.7754,濮阳市,油田物探公司,,26,26,57,11,26,75,,54,54,13,35,2,3,0.3,0.6
2024-12-22T1600,3021A,115,35.7668,濮阳市,濮水河管理处,,24,17,63,10,27,76,,47,47,6,34,3,4,0.2,0.5
2024-12-22T1600,2601A,100.98,22.7633,普洱市,市环保局,,39,39,39,18,20,60,,49,49,5,10,5,5,0.4,0.5
2024-12-22T1600,2602A,100.9817,22.8322,普洱市,普洱第二中学,,40,40,35,19,18,58,,52,52,6,17,8,8,0.6,0.6
2024-12-22T1600,2262A,131.0518,45.8751,七台河市,新一中,,47,47,58,20,45,68,,65,65,15,19,11,11,1.6,1.7
2024-12-22T1600,3345A,131.0577,45.7879,七台河市,中波台,细颗粒物(PM2.5),68,60,69,49,58,39,,44,44,40,38,13,11,0.8,0.8
2024-12-22T1600,3637A,131.0176,45.7761,七台河市,人民广场,细颗粒物(PM2.5),79,81,91,58,64,28,,40,40,56,44,10,8,0.9,0.8
2024-12-22T1600,3684A,130.8781,45.8222,七台河市,新建矿广场,细颗粒物(PM2.5),112,88,70,84,61,17,,41,41,68,43,12,11,0.9,0.8
2024-12-22T1600,1779A,123.9305,47.3636,齐齐哈尔市,安居小区,,29,29,28,15,14,60,,63,63,15,16,8,8,0.4,0.4
2024-12-22T1600,1780A,123.9488,47.3386,齐齐哈尔市,中心广场,,20,18,18,14,11,51,,65,59,22,15,3,4,0.6,0.5
2024-12-22T1600,1781A,123.9483,47.3227,齐齐哈尔市,农牧车辆厂,,19,19,19,7,9,60,,66,63,14,14,5,6,0.2,0.4
2024-12-22T1600,1783A,123.945,47.2988,齐齐哈尔市,市环境监测站,,20,19,23,8,12,61,,66,66,16,13,4,5,0.5,0.5
2024-12-22T1600,3662A,123.6333,47.2075,齐齐哈尔市,富区青少年活动中心,,25,25,32,8,14,63,,67,67,19,18,9,14,0.5,0.6
2024-12-22T1600,2591A,107.9783,26.5747,黔东南苗族侗族自治州,市环境监测站,细颗粒物(PM2.5),77,69,84,56,71,65,,68,66,26,21,7,5,0.5,0.5
2024-12-22T1600,2881A,107.8908,26.5311,黔东南苗族侗族自治州,凯里学院,细颗粒物(PM2.5),69,83,85,50,60,74,,72,72,22,21,8,6,0.6,0.6
2024-12-22T1600,2593A,107.5228,26.2403,黔南布依族苗族自治州,小围寨,细颗粒物(PM2.5),89,85,76,66,64,66,,67,62,25,18,10,6,0.8,0.7
2024-12-22T1600,3538A,107.5175,26.2978,黔南布依族苗族自治州,沙坝,细颗粒物(PM2.5),94,107,89,70,68,68,,66,64,28,21,8,6,0.6,0.6
2024-12-22T1600,2589A,104.9022,25.0925,黔西南布依族苗族自治州,场坝街,细颗粒物(PM2.5),73,54,63,53,54,58,,63,60,11,11,4,3,0.6,0.6
2024-12-22T1600,2590A,104.8811,25.0992,黔西南布依族苗族自治州,坪东大道,细颗粒物(PM2.5),74,,59,54,54,57,,57,54,11,11,3,3,0.7,0.7
2024-12-22T1600,2502A,108.6236,21.9667,钦州市,市环保站,颗粒物(PM10),70,90,107,48,66,134,,105,105,22,28,10,17,0.8,1.2
2024-12-22T1600,2503A,108.6549,21.9481,钦州市,沙埠小学,细颗粒物(PM2.5),75,91,88,55,67,146,,112,112,25,30,10,11,0.7,0.8
2024-12-22T1600,2504A,108.5989,21.7431,钦州市,港区一小,细颗粒物(PM2.5),79,96,102,58,64,131,,98,98,32,35,11,14,0.9,0.9
2024-12-22T1600,3404A,108.5959,21.9633,钦州市,北职校,细颗粒物(PM2.5),80,82,87,59,75,134,,104,104,25,29,11,13,1.0,1.2
2024-12-22T1600,1042A,119.5134,39.8207,秦皇岛市,北戴河环保局,,26,26,32,10,17,65,,54,54,13,32,3,2,0.3,0.6
2024-12-22T1600,1043A,119.7493,40.0116,秦皇岛市,第一关,,43,43,24,27,20,49,,43,43,25,37,8,4,0.5,0.4
2024-12-22T1600,1044A,119.5897,39.9499,秦皇岛市,监测站,,28,28,36,14,16,58,,45,45,18,45,6,4,0.4,0.5
2024-12-22T1600,1046A,119.5251,39.9041,秦皇岛市,建设大厦,,34,34,38,14,23,58,,46,46,17,40,4,3,0.3,0.5
2024-12-22T1600,3132A,119.610547,39.943889,秦皇岛市,文明里,,46,46,40,19,24,56,,47,47,23,47,7,5,0.3,0.5
2024-12-22T1600,1307A,120.6659,36.2403,青岛市,仰口,,32,28,24,22,15,71,,73,73,20,10,9,9,0.8,0.8
2024-12-22T1600,1310A,120.4134,36.0658,青岛市,市南区东部子站,,36,36,56,17,23,66,,49,49,25,32,13,14,0.6,0.7
2024-12-22T1600,1311A,120.3664,36.1032,青岛市,四方区子站,,29,29,44,17,26,68,,53,53,28,35,13,15,0.7,0.8
2024-12-22T1600,1312A,120.2994,36.054,青岛市,市南区西部子站,颗粒物(PM10),51,51,52,20,20,64,,54,54,23,28,13,13,0.7,0.8
2024-12-22T1600,1313A,120.4581,36.0858,青岛市,崂山区子站,,23,17,45,12,21,71,,54,54,19,32,12,14,0.6,0.7
2024-12-22T1600,1314A,120.1983,35.9608,青岛市,黄岛区子站,,31,31,39,17,22,66,,56,56,24,30,9,11,0.7,0.8
2024-12-22T1600,1315A,120.3999,36.3083,青岛市,城阳区子站,,39,39,49,17,24,68,,53,53,24,36,10,13,0.8,0.9
2024-12-22T1600,1966A,120.0405,35.8735,青岛市,黄岛区4号,,27,27,45,12,20,75,,60,60,21,30,9,12,0.5,0.6
2024-12-22T1600,3362A,120.5014,36.4034,青岛市,即墨2号,,42,42,55,22,30,56,,45,45,33,40,10,14,0.7,0.8
2024-12-22T1600,3642A,120.3503,36.0736,青岛市,市北区南部,,45,45,54,14,21,63,,50,50,31,38,9,13,0.6,0.7
2024-12-22T1600,3643A,120.3948,36.1805,青岛市,李沧区北部,,36,36,50,19,30,60,,48,48,33,39,14,16,0.8,0.9
2024-12-22T1600,1702A,113.0426,23.691,清远市,环保大楼,细颗粒物(PM2.5),53,43,44,37,37,128,,116,116,12,10,6,7,0.6,0.6
2024-12-22T1600,1703A,113.0208,23.7106,清远市,凤城街办,细颗粒物(PM2.5),59,54,52,42,40,122,,109,109,16,15,11,12,0.6,0.6
2024-12-22T1600,3025A,113.0477,23.6344,清远市,技师学院,,50,50,51,33,34,121,,111,111,24,18,9,11,0.6,0.6
2024-12-22T1600,3318A,112.9903,23.7403,清远市,清新太和,"颗粒物(PM10),细颗粒物(PM2.5)",53,55,51,37,35,127,,112,112,13,13,10,10,0.7,0.7
2024-12-22T1600,3455A,113.076,23.7198,清远市,清城东城,颗粒物(PM10),54,58,54,37,35,125,,112,112,16,12,10,12,0.6,0.6
2024-12-22T1600,2661A,107.6325,35.7357,庆阳市,庆阳五中,颗粒物(PM10),51,52,54,31,36,66,,61,61,15,20,7,10,0.6,0.6
2024-12-22T1600,2662A,107.6364,35.7067,庆阳市,市环保局,颗粒物(PM10),52,53,54,24,31,70,,66,66,13,13,4,4,0.6,0.7
2024-12-22T1600,1916A,103.7897,25.5035,曲靖市,环境监测站,,28,18,44,9,27,89,,57,57,8,17,5,8,0.3,0.7
2024-12-22T1600,1917A,103.8,25.5364,曲靖市,烟厂办公区,,27,11,43,10,27,85,,59,59,7,16,4,4,0.1,0.4
2024-12-22T1600,3376A,103.7947,25.462,曲靖市,南苑二区,,28,12,44,12,30,89,,62,62,5,12,3,6,0.5,0.9
2024-12-22T1600,3377A,103.7444,25.5261,曲靖市,曲靖师范学院,,29,11,41,3,35,91,,66,66,9,16,12,7,0.2,0.5
