timepoint,stationcode,longitude,latitude,area,positionname,primarypollutant,aqi,pm10,pm10_24h,pm2_5,pm2_5_24h,o3,o3_24h,o3_8h,o3_8h_24h,no2,no2_24h,so2,so2_24h,co,co_24h
2023-02-26T08:00:00,1001A,116.3621,39.8784,北京市,万寿西宫,,37,37,42,19,21,76,15,11,6,52,41,1,2,0.3,0.3
2023-02-26T08:00:00,1002A,116.2202,40.2915,北京市,定陵,,30,30,20,15,11,82,40,49,45,9,8,3,3,0.2,0.2
2023-02-26T08:00:00,1003A,116.4174,39.9289,北京市,东四,,31,31,40,14,19,74,21,23,10,38,33,3,2,0.4,0.4
2023-02-26T08:00:00,1004A,116.4072,39.8863,北京市,天坛,,40,40,36,21,20,78,5,28,9,49,33,3,2,0.4,0.3
2023-02-26T08:00:00,1005A,116.462,39.9365,北京市,农展馆,,46,46,43,20,19,74,3,32,8,61,40,2,3,0.4,0.3
2023-02-26T08:00:00,1006A,116.3392,39.9295,北京市,官园,,36,36,38,15,17,90,17,21,10,50,39,3,3,0.4,0.3
2023-02-26T08:00:00,1007A,116.2878,39.9611,北京市,海淀万柳,颗粒物(PM10),59,67,41,24,17,64,0,0,0,67,40,1,3,0.5,0.3
2023-02-26T08:00:00,1008A,116.6636,40.135,北京市,顺义新城,,31,31,33,13,15,82,22,10,10,34,37,3,2,0.3,0.3
2023-02-26T08:00:00,1009A,116.6275,40.3275,北京市,怀柔镇,,32,32,29,17,14,64,22,38,29,20,18,1,2,0.3,0.3
2023-02-26T08:00:00,1010A,116.2296,40.217,北京市,昌平镇,,31,31,24,18,12,83,41,52,35,19,18,1,1,0.2,0.1
2023-02-26T08:00:00,1011A,116.3966,39.9821,北京市,奥体中心,,28,28,33,13,16,70,17,18,9,40,35,3,3,0.3,0.3
2023-02-26T08:00:00,1012A,116.184,39.9136,北京市,古城,,44,44,41,18,17,86,19,10,10,40,35,3,2,0.5,0.4
2023-02-26T08:00:00,1015A,117.1444,39.1661,天津市,勤俭道,细颗粒物(PM2.5),119,132,60,90,33,81,10,34,23,80,41,11,6,1.0,0.5
2023-02-26T08:00:00,1017A,117.237,39.1082,天津市,大直沽八号路,细颗粒物(PM2.5),87,99,55,64,29,77,32,38,28,59,32,9,6,0.7,0.5
2023-02-26T08:00:00,1018A,117.202,39.0927,天津市,前进道,细颗粒物(PM2.5),93,102,52,69,29,80,18,14,10,78,45,8,4,0.9,0.6
2023-02-26T08:00:00,1019A,117.1837,39.2133,天津市,淮河道,细颗粒物(PM2.5),114,156,72,86,34,83,15,38,27,80,43,10,6,0.9,0.4
2023-02-26T08:00:00,1021A,117.307,39.0877,天津市,跃进路,细颗粒物(PM2.5),114,135,63,86,35,78,5,21,12,77,42,10,8,0.8,0.5
2023-02-26T08:00:00,1023A,117.707,39.0343,天津市,第四大街,细颗粒物(PM2.5),82,98,54,60,27,71,11,21,20,76,47,8,7,0.8,0.7
2023-02-26T08:00:00,1024A,117.457,38.8394,天津市,永明路,细颗粒物(PM2.5),88,90,55,65,35,71,6,14,6,81,49,10,8,1.0,0.5
2023-02-26T08:00:00,1026A,117.764,39.1587,天津市,汉北路,细颗粒物(PM2.5),92,106,60,68,28,76,16,4,4,75,51,16,8,2.5,0.7
2023-02-26T08:00:00,1027A,117.157,38.9194,天津市,团泊洼,细颗粒物(PM2.5),80,90,60,59,35,72,24,30,29,64,42,8,7,0.8,0.6
2023-02-26T08:00:00,1029A,114.4422,38.0444,石家庄市,职工医院,细颗粒物(PM2.5),160,165,144,122,97,90,6,6,5,58,50,9,8,1.2,0.8
2023-02-26T08:00:00,1030A,114.6063,38.0266,石家庄市,高新区,细颗粒物(PM2.5),142,178,128,108,78,95,5,20,8,70,52,5,5,1.4,0.8
2023-02-26T08:00:00,1031A,114.4898,38.1328,石家庄市,西北水源,细颗粒物(PM2.5),175,174,141,132,92,83,4,4,3,61,48,4,4,1.2,0.7
2023-02-26T08:00:00,1032A,114.4586,38.0058,石家庄市,西南高教,细颗粒物(PM2.5),162,185,152,123,101,88,2,3,2,60,54,9,8,1.5,1.1
2023-02-26T08:00:00,1033A,114.5331,38.0178,石家庄市,世纪公园,细颗粒物(PM2.5),137,137,122,104,88,85,2,23,10,67,43,5,7,1.2,1
2023-02-26T08:00:00,1034A,114.509,38.0457,石家庄市,人民会堂,细颗粒物(PM2.5),163,178,135,124,94,89,6,36,11,60,45,6,6,1.4,0.9
2023-02-26T08:00:00,1035A,114.3524,37.8911,石家庄市,封龙山,细颗粒物(PM2.5),124,129,127,94,84,80,71,76,73,30,37,11,8,1.4,1.3
2023-02-26T08:00:00,1037A,118.131,39.6363,唐山市,雷达站,细颗粒物(PM2.5),73,90,53,53,29,82,11,5,5,72,44,8,4,0.7,0.5
2023-02-26T08:00:00,1038A,118.1725,39.6334,唐山市,物资局,颗粒物(PM10),90,130,49,57,32,78,6,18,12,94,53,8,3,1.1,0.5
2023-02-26T08:00:00,1040A,118.1705,39.6506,唐山市,十二中,颗粒物(PM10),81,111,49,56,33,79,6,10,6,79,58,6,3,0.8,0.4
2023-02-26T08:00:00,1041A,118.1869,39.622,唐山市,小山,颗粒物(PM10),72,94,50,50,25,78,7,8,6,77,52,5,4,0.8,0.5
2023-02-26T08:00:00,1042A,119.5134,39.8207,秦皇岛市,北戴河环保局,颗粒物(PM10),56,62,52,33,28,79,37,19,19,36,36,31,11,1.1,0.7
2023-02-26T08:00:00,1043A,119.7493,40.0116,秦皇岛市,第一关,颗粒物(PM10),53,55,50,30,28,75,5,3,2,57,42,8,5,1.0,0.8
2023-02-26T08:00:00,1044A,119.5897,39.9499,秦皇岛市,监测站,颗粒物(PM10),53,56,48,27,25,78,9,9,9,58,45,9,7,0.8,0.6
2023-02-26T08:00:00,1046A,119.5251,39.9041,秦皇岛市,建设大厦,颗粒物(PM10),57,64,50,34,21,82,25,32,20,55,43,15,10,0.9,0.6
2023-02-26T08:00:00,1048A,114.5302,36.6116,邯郸市,东污水处理厂,细颗粒物(PM2.5),132,163,92,100,56,99,7,39,17,71,42,23,16,1.0,0.6
2023-02-26T08:00:00,1049A,114.4918,36.5713,邯郸市,矿院,细颗粒物(PM2.5),128,121,88,97,61,94,5,15,6,64,43,11,24,0.9,0.7
2023-02-26T08:00:00,1050A,114.484,36.6133,邯郸市,丛台公园,细颗粒物(PM2.5),103,126,74,77,48,91,7,31,13,61,34,12,17,1.1,0.8
2023-02-26T08:00:00,1051A,115.493,38.8632,保定市,游泳馆,细颗粒物(PM2.5),173,154,94,131,65,93,7,28,10,73,43,18,13,1.0,0.5
2023-02-26T08:00:00,1052A,115.5213,38.8959,保定市,华电二区,细颗粒物(PM2.5),169,138,82,128,63,85,6,30,20,62,28,11,9,1.1,0.6
2023-02-26T08:00:00,1053A,115.4713,38.9108,保定市,接待中心,细颗粒物(PM2.5),140,138,88,107,60,82,10,30,24,72,38,10,8,0.9,0.4
2023-02-26T08:00:00,1054A,115.4612,38.8416,保定市,地表水厂,细颗粒物(PM2.5),134,168,114,102,55,82,13,9,9,78,57,13,10,0.6,0.2
2023-02-26T08:00:00,1056A,115.5086,38.8639,保定市,监测站,细颗粒物(PM2.5),176,153,97,133,66,93,10,40,16,78,52,13,8,1.4,0.6
2023-02-26T08:00:00,1057A,114.8883,40.8336,张家口市,人民公园,,20,16,20,14,8,87,59,66,62,12,14,7,7,0.3,0.3
2023-02-26T08:00:00,1059A,114.8687,40.8042,张家口市,五金库,,22,17,17,15,13,86,62,69,68,14,16,3,3,0.2,0.2
2023-02-26T08:00:00,1060A,114.8902,40.762,张家口市,世纪豪园,,25,25,21,14,13,88,59,63,62,11,13,3,4,0.5,0.6
2023-02-26T08:00:00,1061A,114.8916,40.8661,张家口市,北泵房,,22,22,21,14,14,90,52,67,61,17,13,32,12,0.7,0.8
2023-02-26T08:00:00,1062A,117.9531,40.9081,承德市,铁路,,48,39,35,33,23,73,10,24,14,37,30,7,13,0.9,0.6
2023-02-26T08:00:00,1063A,117.9392,40.9763,承德市,中国银行,,48,48,37,24,16,79,12,7,7,36,34,5,8,0.7,0.6
2023-02-26T08:00:00,1064A,117.9503,40.928,承德市,开发区,颗粒物(PM10),57,63,41,39,27,84,8,6,6,45,38,8,9,1.1,0.7
2023-02-26T08:00:00,1065A,117.8051,40.9655,承德市,文化中心,细颗粒物(PM2.5),57,62,55,40,22,76,12,8,8,43,40,7,14,0.9,0.7
2023-02-26T08:00:00,1066A,117.9268,41.0026,承德市,离宫,,33,33,24,18,17,79,22,16,16,18,19,8,9,0.4,0.4
2023-02-26T08:00:00,1067A,116.6708,39.5111,廊坊市,药材公司,细颗粒物(PM2.5),105,118,51,79,25,84,12,40,21,78,40,6,3,0.8,0.5
2023-02-26T08:00:00,1068A,116.7214,39.5589,廊坊市,开发区,细颗粒物(PM2.5),97,112,54,72,31,90,12,62,27,84,47,10,9,0.8,0.5
2023-02-26T08:00:00,1070A,116.7244,39.5269,廊坊市,北华航天学院,细颗粒物(PM2.5),120,139,58,91,31,84,10,64,30,90,40,6,4,0.9,0.4
2023-02-26T08:00:00,1071A,116.8842,38.2991,沧州市,沧县城建局,细颗粒物(PM2.5),73,90,68,53,31,92,45,39,39,53,46,16,12,0.8,0.6
2023-02-26T08:00:00,1072A,116.8584,38.3254,沧州市,电视转播站,颗粒物(PM10),72,93,51,50,27,88,47,30,30,52,47,14,6,0.9,0.7
2023-02-26T08:00:00,1073A,116.8709,38.3228,沧州市,市环保局,颗粒物(PM10),72,94,55,49,30,89,34,29,29,67,52,13,7,0.5,0.3
2023-02-26T08:00:00,1074A,115.6838,37.7541,衡水市,电机北厂,细颗粒物(PM2.5),82,97,72,60,45,99,42,49,48,47,29,14,9,0.6,0.5
2023-02-26T08:00:00,1075A,115.6303,37.7316,衡水市,市监测站,细颗粒物(PM2.5),92,93,79,68,47,99,34,49,36,58,34,25,13,0.7,0.4
2023-02-26T08:00:00,1077A,114.4704,37.0886,邢台市,达活泉,细颗粒物(PM2.5),109,114,110,82,76,85,3,33,10,48,44,6,9,1.6,1.2
2023-02-26T08:00:00,1078A,114.5062,37.0349,邢台市,邢师高专,细颗粒物(PM2.5),107,121,106,80,74,83,5,6,5,41,45,7,11,1.5,1
2023-02-26T08:00:00,1079A,114.5237,37.0851,邢台市,路桥公司,细颗粒物(PM2.5),105,120,101,79,68,88,2,18,6,68,51,6,8,1.1,0.9
2023-02-26T08:00:00,1080A,114.4725,37.0719,邢台市,市环保局,细颗粒物(PM2.5),107,129,116,80,73,89,4,35,8,54,48,8,14,1.5,1.2
2023-02-26T08:00:00,1081A,112.522,37.8873,太原市,尖草坪,细颗粒物(PM2.5),120,136,118,91,82,77,5,5,4,78,76,5,10,0.9,0.9
2023-02-26T08:00:00,1083A,112.434,38.0108,太原市,上兰,,,,,,,,,,,,,,,,
2023-02-26T08:00:00,1084A,112.469,37.7124,太原市,晋源,细颗粒物(PM2.5),135,129,118,103,94,106,16,16,13,54,51,9,10,1.1,1
2023-02-26T08:00:00,1085A,112.5583,37.7394,太原市,小店,细颗粒物(PM2.5),133,142,127,101,92,113,6,8,8,68,58,7,6,1.1,0.9
2023-02-26T08:00:00,1086A,112.5369,37.8692,太原市,桃园,细颗粒物(PM2.5),118,134,120,89,85,96,3,2,2,63,56,4,8,0.8,0.9
2023-02-26T08:00:00,1087A,112.57,37.8195,太原市,坞城,细颗粒物(PM2.5),129,128,115,98,88,101,35,37,30,44,51,10,9,1.0,0.8
2023-02-26T08:00:00,1088A,112.549,37.9854,太原市,南寨,细颗粒物(PM2.5),110,119,108,83,74,88,4,3,3,49,46,3,6,0.8,0.9
2023-02-26T08:00:00,1090A,111.6507,40.7517,呼和浩特市,呼市一监,,39,39,26,13,13,91,12,22,20,56,35,9,9,0.7,0.5
2023-02-26T08:00:00,1091A,111.6572,40.8033,呼和浩特市,小召,,36,36,30,12,13,84,7,16,15,67,45,19,15,0.7,0.6
2023-02-26T08:00:00,1094A,111.7516,40.8369,呼和浩特市,如意水处理厂,,39,39,32,17,14,92,5,20,12,62,42,14,11,0.5,0.4
2023-02-26T08:00:00,1095A,111.7276,40.8062,呼和浩特市,二十九中,,32,32,29,16,13,90,15,24,22,50,36,10,9,0.7,0.5
2023-02-26T08:00:00,1096A,111.5512,40.7866,呼和浩特市,工大金川校区,,39,39,41,14,13,86,10,30,20,49,34,7,11,0.6,0.5
2023-02-26T08:00:00,1097A,111.717,40.7612,呼和浩特市,化肥厂生活区,,39,39,36,17,14,92,25,34,31,39,29,10,10,0.9,0.5
2023-02-26T08:00:00,1098A,123.6836,41.9339,沈阳市,森林路,,,,,,,,,,,,,,,,
2023-02-26T08:00:00,1099A,123.505,41.7406,沈阳市,浑南东路,细颗粒物(PM2.5),82,87,57,60,35,66,13,19,11,57,48,32,20,2.1,1
2023-02-26T08:00:00,1100A,123.4231,41.6989,沈阳市,新秀街,细颗粒物(PM2.5),72,86,58,52,35,77,7,14,12,61,44,27,23,1.9,0.9
2023-02-26T08:00:00,1102A,123.5903,41.8411,沈阳市,东陵路,"颗粒物(PM10),细颗粒物(PM2.5)",83,115,62,61,40,77,10,14,9,46,42,26,16,2.5,1
2023-02-26T08:00:00,1103A,123.4264,41.8467,沈阳市,陵东街,细颗粒物(PM2.5),64,75,44,46,27,81,14,16,13,66,44,37,21,2.2,1.1
2023-02-26T08:00:00,1104A,123.4114,41.7653,沈阳市,文化路,细颗粒物(PM2.5),67,76,54,48,34,79,16,31,25,56,34,43,20,1.8,0.9
2023-02-26T08:00:00,1105A,123.4678,41.7867,沈阳市,小河沿,细颗粒物(PM2.5),82,96,49,60,29,73,12,31,21,62,39,27,21,2.0,0.9
2023-02-26T08:00:00,1106A,123.4017,41.7972,沈阳市,太原街,细颗粒物(PM2.5),65,68,51,47,39,71,20,16,13,51,43,48,27,2.3,1.2
2023-02-26T08:00:00,1108A,123.3783,41.9228,沈阳市,京沈街,细颗粒物(PM2.5),68,70,53,49,33,81,22,35,23,55,39,42,21,2.3,1
2023-02-26T08:00:00,1109A,121.612,38.9741,大连市,甘井子,细颗粒物(PM2.5),63,67,36,45,20,81,19,50,29,68,35,17,34,0.9,0.5
2023-02-26T08:00:00,1110A,121.565,38.9511,大连市,周水子,颗粒物(PM10),62,74,40,35,17,82,24,52,37,55,31,26,9,0.9,0.7
2023-02-26T08:00:00,1111A,121.5637,38.8845,大连市,星海三站,,44,44,22,30,13,75,27,52,44,50,23,17,10,0.7,0.6
2023-02-26T08:00:00,1112A,121.6302,38.9117,大连市,青泥洼桥,颗粒物(PM10),64,78,31,30,15,79,16,57,41,65,29,28,13,0.7,0.5
2023-02-26T08:00:00,1113A,121.6251,38.8638,大连市,傅家庄,,45,40,27,31,13,80,49,60,52,27,18,14,12,0.6,1
2023-02-26T08:00:00,1114A,121.5213,38.8661,大连市,七贤岭,细颗粒物(PM2.5),52,41,24,36,15,90,35,57,53,48,18,12,7,0.9,0.8
2023-02-26T08:00:00,1115A,121.2529,38.8061,大连市,旅顺,细颗粒物(PM2.5),79,31,44,58,21,81,37,47,43,2,5,23,10,0.8,0.7
2023-02-26T08:00:00,1116A,121.7485,39.1311,大连市,金州,,42,41,34,29,19,78,38,42,40,40,29,21,12,0.8,0.8
2023-02-26T08:00:00,1117A,121.7811,39.0496,大连市,开发区,,40,37,29,28,19,75,26,44,39,61,34,6,4,0.9,0.8
2023-02-26T08:00:00,1118A,121.9762,39.0631,大连市,双D港,,28,26,21,19,11,82,48,59,50,33,16,11,7,0.8,0.7
2023-02-26T08:00:00,1119A,125.3325,43.9166,长春市,食品厂,细颗粒物(PM2.5),77,77,67,56,34,73,21,33,24,47,41,19,10,0.9,0.7
2023-02-26T08:00:00,1120A,125.2863,43.9027,长春市,客车厂,细颗粒物(PM2.5),89,78,61,66,39,72,23,34,27,52,40,16,10,0.9,0.7
2023-02-26T08:00:00,1121A,125.2841,43.8463,长春市,邮电学院,细颗粒物(PM2.5),74,77,68,54,35,84,29,44,31,44,40,18,14,0.8,0.6
2023-02-26T08:00:00,1122A,125.3716,43.8772,长春市,劳动公园,细颗粒物(PM2.5),65,76,64,47,33,80,25,20,18,52,46,27,19,0.8,0.6
2023-02-26T08:00:00,1123A,125.3297,43.8805,长春市,园林处,细颗粒物(PM2.5),73,74,62,53,34,76,26,34,26,54,46,41,25,0.9,0.7
2023-02-26T08:00:00,1124A,125.4605,43.79,长春市,净月潭,颗粒物(PM10),58,66,49,34,21,82,36,50,44,20,14,6,5,0.6,0.5
2023-02-26T08:00:00,1125A,125.7194,43.515,长春市,甩湾子,,,,,,,,,,,,,,,,
2023-02-26T08:00:00,1126A,125.3863,43.8447,长春市,经开区环卫处,细颗粒物(PM2.5),62,72,60,44,31,80,22,28,22,40,37,12,10,0.7,0.6
2023-02-26T08:00:00,1127A,125.245,43.7783,长春市,高新区管委会,细颗粒物(PM2.5),80,70,62,59,40,81,30,13,13,39,44,16,10,0.7,0.5
2023-02-26T08:00:00,1128A,125.1761,43.8325,长春市,岱山公园,细颗粒物(PM2.5),80,76,68,59,39,77,21,24,20,46,38,16,9,1.0,0.7
2023-02-26T08:00:00,1129A,126.5422,45.755,哈尔滨市,岭北,,45,45,30,22,20,87,50,70,56,14,13,32,22,0.3,0.4
2023-02-26T08:00:00,1130A,126.561,45.8167,哈尔滨市,松北商大,,27,27,36,18,21,87,43,61,53,23,22,9,8,0.5,0.5
2023-02-26T08:00:00,1131A,126.979,45.5419,哈尔滨市,阿城会宁,细颗粒物(PM2.5),55,50,50,39,31,83,40,55,44,21,20,12,14,0.7,0.6
2023-02-26T08:00:00,1132A,126.599,45.7222,哈尔滨市,南岗学府路,,37,37,46,20,24,88,36,59,46,35,24,26,17,0.6,0.7
2023-02-26T08:00:00,1133A,126.689,45.7733,哈尔滨市,太平宏伟公园,,40,40,40,20,22,93,37,53,45,27,22,19,12,0.5,0.6
2023-02-26T08:00:00,1134A,126.635,45.7667,哈尔滨市,道外承德广场,颗粒物(PM10),51,51,41,21,23,85,20,44,34,47,31,19,14,0.6,0.6
2023-02-26T08:00:00,1135A,126.685,45.7319,哈尔滨市,香坊红旗大街,,,,44,,31,63,,62,,,30,,18,,0.6
2023-02-26T08:00:00,1136A,126.6411,45.7258,哈尔滨市,动力和平路,,37,37,37,22,26,83,28,46,36,36,28,16,13,0.6,0.6
2023-02-26T08:00:00,1137A,126.593,45.7478,哈尔滨市,道里建国路,,42,42,43,29,27,81,26,42,35,38,32,19,11,0.7,0.5
2023-02-26T08:00:00,1138A,126.615,45.61,哈尔滨市,平房东轻厂,,49,43,45,34,28,82,33,44,37,27,30,13,13,0.9,0.8
2023-02-26T08:00:00,1139A,126.595,45.9855,哈尔滨市,呼兰师专,,39,31,42,27,25,79,35,52,43,19,19,13,10,0.4,0.4
2023-02-26T08:00:00,1140A,126.6206,45.6842,哈尔滨市,省农科院,,49,49,47,34,30,88,26,38,27,39,34,27,24,0.7,0.5
2023-02-26T08:00:00,1141A,121.4,31.238,上海市,普陀,,44,44,33,14,14,91,17,74,51,65,24,5,5,0.7,0.6
2023-02-26T08:00:00,1142A,121.478,31.2036,上海市,十五厂,,28,28,27,7,15,81,55,74,67,30,19,7,6,0.6,0.5
2023-02-26T08:00:00,1143A,121.467,31.3008,上海市,虹口,,36,36,29,15,13,88,47,79,70,29,9,7,6,0.7,0.6
2023-02-26T08:00:00,1144A,121.412,31.1654,上海市,徐汇上师大,,36,36,30,11,10,82,19,82,59,68,24,8,9,0.5,0.4
2023-02-26T08:00:00,1145A,121.536,31.2659,上海市,杨浦四漂,,31,31,30,15,13,88,53,78,68,34,17,7,6,0.2,0.4
2023-02-26T08:00:00,1147A,121.425,31.2261,上海市,静安监测站,,37,37,33,14,12,67,17,64,46,66,26,8,9,1.0,0.9
2023-02-26T08:00:00,1148A,121.703,31.1907,上海市,浦东川沙,,44,44,32,17,11,84,35,73,59,48,18,5,5,0.7,0.5
2023-02-26T08:00:00,1149A,121.533,31.2284,上海市,浦东新区监测站,,31,31,30,16,12,77,41,72,62,40,18,6,6,0.8,0.7
2023-02-26T08:00:00,1150A,121.577,31.2071,上海市,浦东张江,,38,38,29,11,8,81,50,69,60,24,14,6,4,0.6,0.6
2023-02-26T08:00:00,1151A,118.8086,32.1065,南京市,迈皋桥,,33,33,36,14,14,101,46,60,45,20,21,4,4,0.6,0.3
2023-02-26T08:00:00,1152A,118.7538,32.0551,南京市,草场门,,31,31,36,12,14,93,30,54,31,53,26,4,3,0.3,0.2
2023-02-26T08:00:00,1153A,118.7794,32.0745,南京市,山西路,,36,36,40,17,18,97,40,66,60,27,16,4,4,0.4,0.3
2023-02-26T08:00:00,1154A,118.7752,32.0023,南京市,中华门,,36,36,36,17,14,92,47,55,50,43,30,11,7,0.7,0.5
2023-02-26T08:00:00,1155A,118.8109,32.0309,南京市,瑞金路,,31,31,36,14,16,91,21,53,28,51,28,5,5,0.6,0.4
2023-02-26T08:00:00,1156A,118.7997,32.0754,南京市,玄武湖,,32,32,37,20,18,90,12,64,32,58,25,3,4,0.5,0.2
2023-02-26T08:00:00,1157A,118.6414,32.0931,南京市,浦口,,27,27,43,14,17,97,62,50,50,18,23,2,6,0.3,0.5
2023-02-26T08:00:00,1158A,118.7356,31.9996,南京市,奥体中心,,36,36,41,17,18,96,21,58,40,64,35,4,4,0.4,0.3
2023-02-26T08:00:00,1159A,118.9125,32.1028,南京市,仙林大学城,,28,22,30,19,17,96,23,51,37,31,23,4,4,0.4,0.3
2023-02-26T08:00:00,1160A,120.561,31.2472,苏州市,上方山,,25,25,36,16,27,81,31,68,50,29,19,5,7,0.5,0.5
2023-02-26T08:00:00,1162A,120.591,31.3019,苏州市,彩香,,34,34,28,15,15,92,42,72,52,43,22,7,6,0.7,0.7
2023-02-26T08:00:00,1163A,120.596,31.3264,苏州市,轧钢厂,,37,37,30,18,14,86,31,70,33,38,20,7,7,0.7,0.6
2023-02-26T08:00:00,1164A,120.613,31.2703,苏州市,吴中区,,30,30,26,13,13,89,44,72,58,37,20,6,6,0.6,0.5
2023-02-26T08:00:00,1165A,120.543,31.2994,苏州市,苏州新区,,38,38,26,18,14,91,26,65,51,49,24,6,6,0.6,0.6
2023-02-26T08:00:00,1166A,120.669,31.3097,苏州市,苏州工业园区,,31,31,26,16,14,91,35,73,50,42,17,8,7,0.5,0.7
2023-02-26T08:00:00,1167A,120.641,31.3708,苏州市,相城区,,32,32,30,14,14,93,50,62,52,29,19,7,6,0.5,0.6
2023-02-26T08:00:00,1168A,120.9098,31.9663,南通市,狼山街道,,30,30,27,14,10,97,66,66,56,18,12,5,5,0.4,0.4
2023-02-26T08:00:00,1169A,120.86,32.0005,南通市,虹桥,,34,34,27,20,14,96,53,77,63,32,16,7,5,0.4,0.3
2023-02-26T08:00:00,1170A,120.87,32.02,南通市,城中,,32,32,28,21,16,89,52,72,56,30,15,7,6,0.4,0.3
2023-02-26T08:00:00,1171A,120.94,31.93,南通市,星湖花园,,27,27,28,14,14,92,50,63,55,25,12,4,4,0.5,0.4
2023-02-26T08:00:00,1172A,120.81,32.0417,南通市,紫琅学院,颗粒物(PM10),51,52,34,34,16,91,39,50,42,43,20,8,6,0.6,0.3
2023-02-26T08:00:00,1173A,119.176,34.5885,连云港市,市环境监测站,"颗粒物(PM10),细颗粒物(PM2.5)",67,83,54,48,30,81,26,55,49,54,25,17,13,0.6,0.5
2023-02-26T08:00:00,1177A,117.179,34.2761,徐州市,黄河新村,颗粒物(PM10),97,144,77,70,43,101,2,19,14,86,48,15,13,1.4,0.9
2023-02-26T08:00:00,1178A,117.1918,34.2384,徐州市,淮塔,细颗粒物(PM2.5),85,104,68,63,36,104,1,23,15,66,34,10,10,1.2,0.8
2023-02-26T08:00:00,1180A,117.256,34.2153,徐州市,新城区,细颗粒物(PM2.5),88,103,73,65,39,105,6,3,2,66,49,10,11,1.0,0.8
2023-02-26T08:00:00,1181A,117.244,34.2911,徐州市,桃园路,"颗粒物(PM10),细颗粒物(PM2.5)",89,127,78,66,38,96,5,8,5,70,46,10,10,1.2,0.8
2023-02-26T08:00:00,1182A,117.2933,34.2778,徐州市,农科院,颗粒物(PM10),84,117,71,61,34,97,6,34,17,62,36,10,10,0.9,0.6
2023-02-26T08:00:00,1186A,119.389,32.3761,扬州市,邗江监测站,颗粒物(PM10),58,66,38,33,16,94,9,54,37,70,27,3,3,0.6,0.3
2023-02-26T08:00:00,1188A,120.269,31.4867,无锡市,雪浪,,29,29,37,14,15,92,31,52,42,32,22,9,8,0.6,0.5
2023-02-26T08:00:00,1189A,120.275,31.6219,无锡市,黄巷,,,74,46,27,15,97,12,58,32,80,33,11,8,0.9,0.7
2023-02-26T08:00:00,1190A,120.294,31.56,无锡市,曹张,,50,50,37,22,17,88,23,52,37,52,25,13,7,1.4,0.9
2023-02-26T08:00:00,1191A,120.242,31.5031,无锡市,漆塘,,29,29,33,17,16,93,29,49,33,40,23,8,8,1.0,0.6
2023-02-26T08:00:00,1192A,120.3489,31.5863,无锡市,东亭,颗粒物(PM10),53,56,41,22,18,88,21,48,37,60,32,12,10,1.3,0.8
2023-02-26T08:00:00,1193A,120.354,31.5475,无锡市,旺庄,,44,44,36,19,17,89,27,60,46,47,24,12,6,1.1,0.6
2023-02-26T08:00:00,1194A,120.245,31.5631,无锡市,荣巷,颗粒物(PM10),69,88,37,29,17,93,27,62,43,32,19,14,11,1.8,0.7
2023-02-26T08:00:00,1195A,120.299,31.6817,无锡市,堰桥,,34,34,36,17,16,96,36,57,47,41,19,10,9,0.7,0.7
2023-02-26T08:00:00,1196A,119.9633,31.762,常州市,市监测站,,40,40,26,27,20,97,9,62,39,67,22,7,5,0.8,0.2
2023-02-26T08:00:00,1200A,119.9468,31.7069,常州市,武进监测站,,43,41,26,30,18,94,19,52,37,57,21,6,6,0.7,0.5
2023-02-26T08:00:00,1201A,119.9255,31.9087,常州市,安家,细颗粒物(PM2.5),67,72,28,48,20,97,7,56,36,63,28,9,6,0.7,0.4
2023-02-26T08:00:00,1203A,119.6707,32.1875,镇江市,新区办事处,颗粒物(PM10),67,84,41,46,22,94,11,43,21,42,25,8,9,0.8,0.5
2023-02-26T08:00:00,1204A,119.4974,32.1968,镇江市,职教中心,细颗粒物(PM2.5),54,56,36,38,16,98,25,66,42,45,20,6,6,1.0,0.7
2023-02-26T08:00:00,1205A,119.4303,32.1328,镇江市,丹徒区监测站,,40,40,28,25,16,89,30,40,24,50,27,5,8,0.5,0.4
2023-02-26T08:00:00,1206A,119.905,32.4878,泰州市,公园路,细颗粒物(PM2.5),64,66,33,46,19,97,19,60,41,49,16,11,7,0.9,0.6
2023-02-26T08:00:00,1207A,119.9189,32.4625,泰州市,莲花,,,66,34,41,22,94,22,65,47,55,18,,8,1.1,0.8
2023-02-26T08:00:00,1209A,119.888,32.4639,泰州市,留学生创业园,颗粒物(PM10),67,84,32,36,13,93,5,52,32,67,19,12,8,0.8,0.5
2023-02-26T08:00:00,1210A,119.036,33.5981,淮安市,钵池山,,49,41,40,34,21,102,54,53,53,32,24,8,7,0.6,0.5
2023-02-26T08:00:00,1211A,119.007,33.575,淮安市,北京南路,颗粒物(PM10),60,70,44,32,27,96,20,43,29,58,33,12,9,0.7,0.6
2023-02-26T08:00:00,1212A,118.989,33.6067,淮安市,市监测站,颗粒物(PM10),56,61,43,34,24,104,33,61,39,61,32,16,9,1.0,0.6
2023-02-26T08:00:00,1213A,119.135,33.5039,淮安市,楚州区监测站,颗粒物(PM10),52,54,46,31,25,95,29,10,10,44,38,9,8,0.5,0.5
2023-02-26T08:00:00,1214A,119.0186,33.6297,淮安市,淮阴区监测站,颗粒物(PM10),59,67,48,38,21,99,25,58,43,59,30,20,11,1.1,0.5
2023-02-26T08:00:00,1215A,120.118,33.4022,盐城市,盐城电厂,,,,44,,20,104,,28,28,,21,,8,,0.4
2023-02-26T08:00:00,1216A,120.156,33.3942,盐城市,市监测站,颗粒物(PM10),52,53,38,30,20,100,45,46,41,31,21,12,5,0.5,0.4
2023-02-26T08:00:00,1218A,120.2144,33.38,盐城市,开发区管委会,颗粒物(PM10),58,66,44,36,18,100,39,51,41,38,25,10,5,0.6,0.5
2023-02-26T08:00:00,1220A,118.293,33.9528,宿迁市,宿迁学院,细颗粒物(PM2.5),104,106,59,78,39,95,12,23,21,66,40,8,9,0.7,0.6
2023-02-26T08:00:00,1221A,118.2442,33.9592,宿迁市,宿迁中学,细颗粒物(PM2.5),88,93,57,65,37,95,27,60,34,56,38,14,7,0.6,0.6
2023-02-26T08:00:00,1223A,120.2072,30.2111,杭州市,滨江,,33,33,41,18,30,96,49,59,54,33,27,9,8,0.4,0.5
2023-02-26T08:00:00,1224A,120.0633,30.2747,杭州市,西溪,,26,26,45,18,34,97,14,60,36,37,30,4,5,0.6,0.7
2023-02-26T08:00:00,1226A,120.3461,30.3153,杭州市,下沙,,38,38,50,17,29,96,31,40,28,51,39,7,7,0.5,0.6
2023-02-26T08:00:00,1227A,120.1269,30.2456,杭州市,卧龙桥,,31,31,43,18,27,92,10,65,33,45,30,7,7,0.8,0.7
2023-02-26T08:00:00,1228A,120.1903,30.2692,杭州市,浙江农大,,31,31,39,19,29,100,52,60,51,30,29,7,6,0.6,0.7
2023-02-26T08:00:00,1230A,120.1197,30.3119,杭州市,和睦小学,,36,36,50,22,35,88,50,57,46,23,30,7,6,0.6,0.7
2023-02-26T08:00:00,1231A,120.3019,30.4183,杭州市,临平镇,,41,41,45,18,24,101,42,60,48,38,23,8,8,0.4,0.5
2023-02-26T08:00:00,1232A,120.2697,30.1819,杭州市,城厢镇,,40,40,53,20,30,93,36,56,45,46,30,6,6,0.5,0.5
2023-02-26T08:00:00,1233A,120.0883,30.1808,杭州市,云栖,,26,26,42,13,26,97,11,64,34,36,26,5,6,0.5,0.6
2023-02-26T08:00:00,1234A,121.8358,29.911,宁波市,区环保大楼,,19,17,20,6,7,93,59,79,72,32,18,4,4,0.4,0.4
2023-02-26T08:00:00,1235A,121.56,29.82,宁波市,万里学院,,26,26,33,9,15,96,58,79,70,27,19,5,5,0.6,0.6
2023-02-26T08:00:00,1236A,121.713,29.9572,宁波市,龙赛医院,,26,26,32,8,14,87,72,83,77,15,16,4,5,0.4,0.4
2023-02-26T08:00:00,1239A,121.633,29.7733,宁波市,钱湖水厂,,23,14,22,7,14,94,71,82,71,16,17,6,6,0.4,0.5
2023-02-26T08:00:00,1240A,121.5856,29.8635,宁波市,太古小学,,22,22,24,6,13,95,56,78,70,26,18,6,6,0.6,0.5
2023-02-26T08:00:00,1241A,121.524,29.8674,宁波市,市环境监测中心,,23,23,29,2,7,88,52,70,61,23,17,5,5,0.4,0.4
2023-02-26T08:00:00,1242A,120.634,28.0089,温州市,瓯海,,34,34,86,23,62,119,58,77,67,25,23,7,7,0.4,0.5
2023-02-26T08:00:00,1243A,120.6748,27.9939,温州市,南浦,,32,31,74,22,59,131,65,79,71,17,18,6,6,0.4,0.5
2023-02-26T08:00:00,1244A,120.76,27.9747,温州市,龙湾,,32,32,78,17,51,119,45,78,58,33,28,7,7,0.3,0.4
2023-02-26T08:00:00,1245A,120.6709,28.0167,温州市,市站,,41,41,76,21,51,116,54,70,66,34,25,6,6,0.4,0.5
2023-02-26T08:00:00,1247A,120.6053,29.9928,绍兴市,城东开发委,,35,35,50,16,30,95,22,72,54,41,31,5,6,0.6,0.5
2023-02-26T08:00:00,1250A,120.0751,30.8669,湖州市,城西水厂,,30,30,38,20,17,94,11,72,30,48,28,6,6,0.6,0.6
2023-02-26T08:00:00,1252A,120.7436,30.778,嘉兴市,清河小学,,28,28,31,9,13,82,44,63,59,40,23,6,6,0.6,0.5
2023-02-26T08:00:00,1253A,120.726,30.7478,嘉兴市,嘉兴学院,,30,30,40,10,15,90,68,66,66,23,23,5,4,0.2,0.3
2023-02-26T08:00:00,1255A,121.273,28.6459,台州市,黄岩环保大楼,,22,19,60,8,43,116,70,71,68,12,19,8,8,0.2,0.4
2023-02-26T08:00:00,1256A,121.419,28.6542,台州市,台州环保大楼,,22,20,51,8,30,131,68,75,71,19,16,5,5,0.2,0.4
2023-02-26T08:00:00,1257A,121.377,28.5773,台州市,路桥田洋王,,24,22,57,10,41,125,74,75,74,13,16,10,8,0.3,0.4
2023-02-26T08:00:00,1258A,122.122,30.0203,舟山市,定海檀枫,,26,18,19,6,7,94,81,85,83,9,10,4,5,0.2,0.2
2023-02-26T08:00:00,1259A,122.3094,29.9558,舟山市,普陀东港,,23,21,18,8,7,91,73,83,81,13,7,5,5,0.4,0.4
2023-02-26T08:00:00,1260A,122.19,29.9944,舟山市,临城新区,,25,20,18,6,6,96,80,88,85,14,12,5,5,0.3,0.3
2023-02-26T08:00:00,1262A,119.647,29.077,金华市,十五中,,36,36,79,3,49,109,48,54,51,31,39,6,7,0.3,0.5
2023-02-26T08:00:00,1263A,119.686,29.1029,金华市,监测站,,32,32,71,19,62,114,36,46,44,38,39,6,11,0.5,0.6
2023-02-26T08:00:00,1264A,118.8692,28.9398,衢州市,环保大楼,颗粒物(PM10),51,52,88,32,75,101,29,44,39,30,26,7,8,0.6,0.8
2023-02-26T08:00:00,1265A,118.8709,28.9666,衢州市,实验学校,,50,50,96,30,74,117,39,50,41,26,30,12,10,0.5,0.6
2023-02-26T08:00:00,1266A,118.8621,28.9808,衢州市,衢州学院,细颗粒物(PM2.5),57,57,104,40,81,108,29,42,37,30,30,13,8,0.6,0.7
2023-02-26T08:00:00,1267A,119.914,28.4514,丽水市,监测站大楼,,49,39,71,34,62,108,24,37,36,36,25,9,8,0.4,0.5
2023-02-26T08:00:00,1268A,119.93,28.4586,丽水市,莲都小学,,46,46,90,23,65,120,35,37,36,39,34,8,7,0.4,0.5
2023-02-26T08:00:00,1269A,119.879,28.4231,丽水市,余庄前,,50,50,83,30,59,113,17,28,22,19,21,8,8,0.4,0.5
2023-02-26T08:00:00,1270A,117.1959,31.7848,合肥市,明珠广场,颗粒物(PM10),52,53,62,27,32,92,6,39,26,65,38,6,8,0.8,0.7
2023-02-26T08:00:00,1271A,117.3072,31.8764,合肥市,三里街,颗粒物(PM10),65,80,60,29,31,82,12,14,13,66,41,7,5,0.8,0.6
2023-02-26T08:00:00,1272A,117.2588,31.8707,合肥市,琥珀山庄,颗粒物(PM10),51,51,55,29,31,85,25,45,30,56,38,5,5,0.6,0.5
2023-02-26T08:00:00,1273A,117.1604,31.9052,合肥市,董铺水库,,44,44,57,22,29,79,11,54,25,31,22,4,5,0.3,0.3
2023-02-26T08:00:00,1274A,117.25,31.8571,合肥市,长江中路,细颗粒物(PM2.5),64,61,63,46,47,85,22,47,32,48,27,12,10,0.9,0.8
2023-02-26T08:00:00,1275A,117.266,31.9436,合肥市,庐阳区,颗粒物(PM10),64,78,59,39,31,81,8,42,22,66,33,7,6,0.8,0.5
2023-02-26T08:00:00,1276A,117.336,31.8586,合肥市,瑶海区,颗粒物(PM10),64,78,63,33,37,84,10,36,19,71,30,9,6,0.9,0.5
2023-02-26T08:00:00,1277A,117.3027,31.7964,合肥市,包河区,,,78,67,41,39,80,4,5,4,63,51,19,9,1.0,0.8
2023-02-26T08:00:00,1278A,117.2776,31.7385,合肥市,滨湖新区,颗粒物(PM10),56,61,65,29,32,83,24,47,36,42,31,8,5,0.8,0.7
2023-02-26T08:00:00,1279A,117.1318,31.8403,合肥市,高新区,颗粒物(PM10),51,51,58,27,33,86,19,60,42,56,31,7,6,0.8,0.7
2023-02-26T08:00:00,1280A,119.3903,26.0543,福州市,鼓山,,,,,,,,,,,,,,,,
2023-02-26T08:00:00,1282A,119.2681,26.0504,福州市,师大,细颗粒物(PM2.5),60,50,64,43,57,142,84,112,97,19,20,5,5,0.6,0.6
2023-02-26T08:00:00,1283A,119.2984,26.1028,福州市,五四北路,细颗粒物(PM2.5),65,49,58,47,57,141,80,111,94,17,18,3,4,0.6,0.6
2023-02-26T08:00:00,1284A,119.2648,26.0768,福州市,杨桥西路,细颗粒物(PM2.5),62,52,64,44,56,142,83,113,95,11,12,4,4,0.6,0.5
2023-02-26T08:00:00,1285A,119.317,26.0746,福州市,紫阳,细颗粒物(PM2.5),55,48,64,39,53,136,80,105,91,15,16,3,4,0.5,0.5
2023-02-26T08:00:00,1286A,118.1608,24.8169,厦门市,溪东,,,,,,,,,,,,,,,,
2023-02-26T08:00:00,1287A,118.1514,24.4767,厦门市,洪文,细颗粒物(PM2.5),64,73,92,46,50,130,70,115,93,34,29,5,4,0.4,0.4
2023-02-26T08:00:00,1288A,118.0661,24.4444,厦门市,鼓浪屿,细颗粒物(PM2.5),64,69,84,46,48,154,92,137,116,31,26,7,4,0.3,0.3
2023-02-26T08:00:00,1290A,115.8931,28.6843,南昌市,省外办,细颗粒物(PM2.5),102,103,119,76,86,120,37,75,57,30,22,16,10,0.9,0.8
2023-02-26T08:00:00,1291A,115.8886,28.7003,南昌市,省林业公司,细颗粒物(PM2.5),113,97,105,85,89,119,33,72,52,40,26,14,7,0.9,0.6
2023-02-26T08:00:00,1292A,115.8126,28.7442,南昌市,林科所,细颗粒物(PM2.5),77,80,115,56,84,122,63,86,72,16,15,9,8,0.8,0.8
2023-02-26T08:00:00,1294A,115.8518,28.687,南昌市,建工学校,细颗粒物(PM2.5),104,100,117,78,78,120,46,78,61,21,17,7,5,0.9,0.8
2023-02-26T08:00:00,1295A,115.8921,28.6424,南昌市,象湖,细颗粒物(PM2.5),103,72,89,77,90,115,41,73,57,24,18,8,7,0.9,0.8
2023-02-26T08:00:00,1296A,115.7423,28.7996,南昌市,武术学校,细颗粒物(PM2.5),75,51,72,55,68,133,38,68,56,15,14,4,4,0.7,0.6
2023-02-26T08:00:00,1298A,115.9314,28.6842,南昌市,省站,细颗粒物(PM2.5),102,102,117,76,83,129,45,86,65,21,16,9,8,0.8,0.8
2023-02-26T08:00:00,1299A,116.9862,36.6114,济南市,科干所,颗粒物(PM10),71,92,76,49,34,104,41,39,38,53,42,15,14,0.9,0.8
2023-02-26T08:00:00,1300A,116.9376,36.665,济南市,农科所,颗粒物(PM10),69,88,80,42,36,104,15,17,16,67,50,7,10,0.9,0.8
2023-02-26T08:00:00,1301A,117.1265,36.6734,济南市,开发区,细颗粒物(PM2.5),84,98,75,62,36,99,29,35,34,56,44,10,11,0.9,0.6
2023-02-26T08:00:00,1303A,117.0624,36.6868,济南市,省种子仓库,细颗粒物(PM2.5),77,102,75,56,35,119,21,21,21,82,54,10,10,0.7,0.5
2023-02-26T08:00:00,1304A,116.9489,36.6447,济南市,机床二厂,颗粒物(PM10),81,112,89,54,39,108,21,21,21,66,48,23,17,1.1,0.8
2023-02-26T08:00:00,1305A,117.0495,36.663,济南市,市监测站,细颗粒物(PM2.5),83,100,67,61,38,111,13,42,35,88,50,8,8,0.9,0.7
2023-02-26T08:00:00,1306A,116.7675,36.5484,济南市,长清党校,"颗粒物(PM10),细颗粒物(PM2.5)",62,73,73,44,36,108,47,44,40,53,42,11,9,0.8,0.8
2023-02-26T08:00:00,1307A,120.6659,36.2403,青岛市,仰口,,34,34,27,22,17,102,62,82,79,19,10,5,5,0.6,0.5
2023-02-26T08:00:00,1310A,120.4134,36.0658,青岛市,市南区东部子站,细颗粒物(PM2.5),77,80,64,56,36,97,29,58,38,75,44,17,13,0.9,0.7
2023-02-26T08:00:00,1311A,120.3664,36.1032,青岛市,四方区子站,细颗粒物(PM2.5),94,112,74,70,41,89,17,28,22,86,58,19,13,1.0,0.8
2023-02-26T08:00:00,1312A,120.2994,36.054,青岛市,市南区西部子站,细颗粒物(PM2.5),83,88,62,61,32,95,25,60,19,71,42,17,13,0.8,0.5
2023-02-26T08:00:00,1313A,120.4581,36.0858,青岛市,崂山区子站,细颗粒物(PM2.5),70,85,62,51,28,96,52,62,55,53,35,19,13,0.5,0.4
2023-02-26T08:00:00,1314A,120.1983,35.9608,青岛市,黄岛区子站,细颗粒物(PM2.5),68,70,61,49,34,95,28,60,40,80,52,15,10,0.5,0.4
2023-02-26T08:00:00,1315A,120.3999,36.3083,青岛市,城阳区子站,细颗粒物(PM2.5),95,122,77,71,38,99,12,10,9,71,43,12,11,1.4,0.8
2023-02-26T08:00:00,1316A,113.69031,34.76122,郑州市,烟厂,细颗粒物(PM2.5),140,138,143,107,123,98,26,45,28,51,42,7,8,0.8,0.9
2023-02-26T08:00:00,1317A,113.65724,34.77134,郑州市,郑纺机,细颗粒物(PM2.5),143,142,134,109,122,106,32,41,32,61,44,5,6,0.7,0.8
2023-02-26T08:00:00,1318A,113.67526,34.80246,郑州市,银行学校,细颗粒物(PM2.5),150,130,130,115,125,96,36,47,41,47,37,5,8,1.1,0.8
2023-02-26T08:00:00,1319A,113.56746,34.81334,郑州市,供水公司,细颗粒物(PM2.5),172,169,136,130,115,101,35,45,41,46,38,9,9,0.8,0.8
2023-02-26T08:00:00,1320A,113.7329,34.7178,郑州市,经开区管委,细颗粒物(PM2.5),137,130,137,104,122,104,21,32,15,52,42,10,10,0.6,0.7
2023-02-26T08:00:00,1321A,113.73961,34.77172,郑州市,四十七中,细颗粒物(PM2.5),133,136,144,101,126,93,31,45,34,43,36,5,7,0.7,0.7
2023-02-26T08:00:00,1322A,113.60532,34.74838,郑州市,市监测站,细颗粒物(PM2.5),153,153,149,117,127,107,41,42,31,38,40,10,11,0.8,0.8
2023-02-26T08:00:00,1323A,113.64164,34.7525,郑州市,河医大,细颗粒物(PM2.5),155,161,147,118,130,105,33,42,30,40,38,6,7,0.8,0.9
2023-02-26T08:00:00,1324A,113.51488,34.91089,郑州市,岗李水库,,,,,,,,,,,,,,,,
2023-02-26T08:00:00,1325A,114.3677,30.5584,武汉市,东湖梨园,细颗粒物(PM2.5),138,109,83,105,78,119,28,68,37,48,39,10,11,0.7,1
2023-02-26T08:00:00,1326A,114.2529,30.558,武汉市,汉阳月湖,细颗粒物(PM2.5),149,117,79,114,77,116,35,80,43,51,38,9,7,0.9,0.8
2023-02-26T08:00:00,1327A,114.282,30.6189,武汉市,汉口花桥,细颗粒物(PM2.5),119,116,77,90,60,115,30,73,30,53,40,8,6,1.1,0.7
2023-02-26T08:00:00,1328A,114.3025,30.5332,武汉市,武昌紫阳,细颗粒物(PM2.5),128,107,78,97,83,106,24,60,36,59,41,12,10,1.0,1
2023-02-26T08:00:00,1329A,114.3646,30.6217,武汉市,青山钢花,细颗粒物(PM2.5),138,120,81,105,75,118,32,67,36,61,45,17,11,0.9,0.9
2023-02-26T08:00:00,1330A,114.1566,30.4825,武汉市,沌口新区,细颗粒物(PM2.5),139,102,72,106,73,99,26,62,37,64,43,11,8,1.0,0.8
2023-02-26T08:00:00,1331A,114.3014,30.5944,武汉市,汉口江滩,细颗粒物(PM2.5),127,118,75,96,77,118,42,77,46,46,35,10,7,0.8,0.7
2023-02-26T08:00:00,1333A,114.135,30.6319,武汉市,吴家山,细颗粒物(PM2.5),119,120,79,90,65,109,11,72,41,70,43,6,5,1.1,0.6
2023-02-26T08:00:00,1334A,113.8454,30.2917,武汉市,沉湖七壕,颗粒物(PM10),69,87,59,49,34,107,16,58,36,42,27,8,8,1.0,0.8
2023-02-26T08:00:00,1335A,113.0833,28.2325,长沙市,经开区环保局,细颗粒物(PM2.5),120,101,74,91,61,100,5,72,43,58,28,2,2,0.6,0.5
2023-02-26T08:00:00,1336A,112.8872,28.2189,长沙市,高开区环保局,细颗粒物(PM2.5),89,100,78,66,53,103,29,44,32,40,28,6,6,0.6,0.5
2023-02-26T08:00:00,1337A,113.0792,28.2053,长沙市,马坡岭,细颗粒物(PM2.5),107,109,74,80,57,99,4,8,7,64,41,7,7,0.6,0.5
2023-02-26T08:00:00,1338A,112.9394,28.19,长沙市,湖南师范大学,细颗粒物(PM2.5),143,76,59,109,68,98,39,57,45,24,22,4,4,0.3,0.3
2023-02-26T08:00:00,1339A,113.0178,28.1322,长沙市,雨花区环保局,细颗粒物(PM2.5),117,100,67,88,57,100,55,57,56,41,29,5,5,0.7,0.6
2023-02-26T08:00:00,1340A,112.9792,28.2597,长沙市,伍家岭,细颗粒物(PM2.5),92,97,77,68,55,108,14,46,14,47,36,6,6,0.8,0.7
2023-02-26T08:00:00,1341A,113.0014,28.1944,长沙市,火车新站,细颗粒物(PM2.5),104,87,67,78,57,98,13,50,32,53,33,5,6,0.6,0.5
2023-02-26T08:00:00,1342A,112.9844,28.1178,长沙市,天心区环保局,细颗粒物(PM2.5),118,99,73,89,59,100,16,45,29,50,32,3,3,0.5,0.5
2023-02-26T08:00:00,1343A,112.8908,28.1308,长沙市,湖南中医药大学,细颗粒物(PM2.5),93,87,70,69,53,106,29,54,43,37,26,3,4,0.8,0.8
2023-02-26T08:00:00,1344A,112.9581,28.3611,长沙市,沙坪,细颗粒物(PM2.5),87,90,60,64,41,106,40,53,39,22,19,6,6,0.7,0.7
2023-02-26T08:00:00,1345A,113.2347,23.1423,广州市,广雅中学,细颗粒物(PM2.5),67,60,41,48,28,102,73,68,68,27,24,5,5,0.5,0.6
2023-02-26T08:00:00,1346A,113.2612,23.105,广州市,市五中,细颗粒物(PM2.5),67,55,37,48,29,111,75,69,69,17,15,7,7,0.8,0.7
2023-02-26T08:00:00,1348A,113.3478,23.0916,广州市,广东商学院,细颗粒物(PM2.5),55,55,35,39,23,107,69,66,66,22,18,6,4,0.5,0.5
2023-02-26T08:00:00,1349A,113.4332,23.1047,广州市,市八十六中,细颗粒物(PM2.5),69,60,42,50,28,103,64,60,60,19,15,5,4,0.5,0.5
2023-02-26T08:00:00,1350A,113.3505,22.9483,广州市,番禺中学,细颗粒物(PM2.5),60,53,34,43,24,116,61,61,60,28,23,5,5,0.7,0.7
2023-02-26T08:00:00,1351A,113.2146,23.3916,广州市,花都师范,细颗粒物(PM2.5),60,54,34,43,26,91,78,75,75,21,17,8,7,0.7,0.7
2023-02-26T08:00:00,1352A,113.2597,23.1331,广州市,市监测站,细颗粒物(PM2.5),63,58,37,45,26,107,77,67,67,23,18,7,6,0.5,0.5
2023-02-26T08:00:00,1353A,113.5618,23.312,广州市,九龙镇镇龙,细颗粒物(PM2.5),59,51,31,42,25,93,68,61,61,13,11,5,5,0.7,0.7
2023-02-26T08:00:00,1354A,113.2765,23.1544,广州市,麓湖,细颗粒物(PM2.5),60,55,34,43,24,109,71,62,62,23,19,5,5,0.7,0.7
2023-02-26T08:00:00,1355A,113.443,23.3035,广州市,帽峰山森林公园,细颗粒物(PM2.5),54,55,32,38,23,104,79,72,72,14,12,6,5,0.6,0.6
2023-02-26T08:00:00,1356A,114.1063,22.5545,深圳市,通心岭子站,,43,41,44,30,28,97,42,44,43,16,15,5,4,0.6,0.6
2023-02-26T08:00:00,1357A,114.117,22.5625,深圳市,洪湖,颗粒物(PM10),51,51,53,31,30,111,48,50,49,18,17,9,8,0.7,0.7
2023-02-26T08:00:00,1358A,113.987,22.5417,深圳市,华侨城,,42,42,48,29,28,114,41,49,47,20,20,7,6,0.6,0.7
2023-02-26T08:00:00,1359A,113.9181,22.5171,深圳市,南海子站,,45,42,49,31,30,115,39,46,44,21,19,4,4,0.9,0.9
2023-02-26T08:00:00,1360A,114.2458,22.5689,深圳市,盐田,,42,37,40,29,26,110,58,56,55,12,13,6,6,0.7,0.7
2023-02-26T08:00:00,1361A,114.2283,22.7244,深圳市,龙岗,颗粒物(PM10),51,51,44,34,28,100,56,50,49,10,8,5,4,0.6,0.6
2023-02-26T08:00:00,1363A,114.494,22.5422,深圳市,南澳,,32,32,36,22,25,102,48,49,48,14,15,8,6,0.7,0.7
2023-02-26T08:00:00,1364A,114.41,22.6342,深圳市,葵涌,,39,39,42,27,26,94,50,49,49,14,14,6,6,0.7,0.7
2023-02-26T08:00:00,1365A,114.297,22.5978,深圳市,梅沙,,46,46,43,30,25,108,60,56,56,11,11,5,5,0.8,0.8
2023-02-26T08:00:00,1366A,114.0678,22.738,深圳市,观澜,,48,46,49,33,30,99,62,56,56,15,16,7,7,0.7,0.7
2023-02-26T08:00:00,1367A,113.5814,22.2618,珠海市,吉大,颗粒物(PM10),51,52,64,22,24,155,50,52,51,18,21,5,4,0.6,0.5
2023-02-26T08:00:00,1368A,113.4881,22.2335,珠海市,前山,,36,36,42,22,23,141,37,48,42,29,29,4,5,0.6,0.6
2023-02-26T08:00:00,1369A,113.628,22.4251,珠海市,唐家,,38,38,43,26,27,138,48,51,49,20,19,5,4,0.5,0.5
2023-02-26T08:00:00,1370A,113.299,22.2281,珠海市,斗门,,41,41,39,26,22,134,38,53,49,29,24,8,7,0.6,0.5
2023-02-26T08:00:00,1371A,113.1294,23.0067,佛山市,湾梁,,46,46,36,29,18,112,70,72,68,24,19,7,7,0.6,0.6
2023-02-26T08:00:00,1372A,113.1083,23.0478,佛山市,华材职中,细颗粒物(PM2.5),58,44,38,41,27,109,69,70,64,28,22,6,5,0.4,0.4
2023-02-26T08:00:00,1373A,113.144,23.0453,佛山市,南海气象局,细颗粒物(PM2.5),53,36,34,37,23,104,64,65,63,26,22,8,8,0.6,0.6
2023-02-26T08:00:00,1374A,113.2881,22.8094,佛山市,顺德苏岗,,40,40,24,27,19,104,54,60,56,24,19,7,7,0.6,0.6
2023-02-26T08:00:00,1376A,112.8383,22.8678,佛山市,高明孔堂,,41,41,37,28,20,111,72,71,71,14,12,8,6,0.7,0.6
2023-02-26T08:00:00,1377A,112.8836,23.1588,佛山市,三水监测站,,46,46,32,27,22,101,68,66,66,20,18,7,7,0.7,0.7
2023-02-26T08:00:00,1378A,112.867,23.185,佛山市,三水云东海,细颗粒物(PM2.5),54,44,32,38,23,95,68,66,66,15,13,6,5,0.6,0.6
2023-02-26T08:00:00,1379A,113.3769,22.5211,中山市,华柏园,,36,30,37,25,25,126,47,60,53,24,19,9,8,0.7,0.6
2023-02-26T08:00:00,1380A,113.3881,22.5497,中山市,张溪,,43,34,42,30,27,120,45,56,50,28,23,8,8,0.7,0.6
2023-02-26T08:00:00,1381A,113.4075,22.5111,中山市,紫马岭,,50,40,38,35,26,121,40,54,49,28,20,10,8,0.7,0.6
2023-02-26T08:00:00,1382A,113.4411,22.4853,中山市,长江旅游区,,50,36,39,35,28,118,39,50,46,30,23,15,13,0.7,0.6
2023-02-26T08:00:00,1383A,113.1064,22.6058,江门市,北街,,42,33,35,29,21,129,64,66,64,21,21,8,8,0.8,0.8
2023-02-26T08:00:00,1384A,113.0731,22.5835,江门市,西区,,48,43,42,33,20,128,59,65,62,25,24,6,6,0.5,0.5
2023-02-26T08:00:00,1385A,113.0219,22.5311,江门市,圭峰西,,49,31,37,34,24,128,58,66,62,26,25,5,5,0.8,0.8
2023-02-26T08:00:00,1386A,113.0828,22.5947,江门市,东湖,,50,50,41,30,18,131,62,68,64,22,20,6,5,0.6,0.6
2023-02-26T08:00:00,1389A,113.7547,23.0494,东莞市,莞城梨川,细颗粒物(PM2.5),54,48,33,38,25,101,64,64,62,21,16,9,8,0.7,0.7
2023-02-26T08:00:00,1390A,113.7944,23.0128,东莞市,东城石井,,49,43,33,34,24,107,60,62,60,21,17,9,8,0.7,0.7
2023-02-26T08:00:00,1391A,113.7383,22.9658,东莞市,南城西平,,46,44,35,32,24,100,51,49,47,25,20,8,7,0.9,0.9
2023-02-26T08:00:00,1392A,114.4183,23.0528,惠州市,河南岸金山湖子站,细颗粒物(PM2.5),62,54,40,44,31,74,57,52,52,19,15,10,6,0.7,0.7
2023-02-26T08:00:00,1393A,114.4053,23.0822,惠州市,下埔横江三路子站,细颗粒物(PM2.5),58,43,35,41,29,88,71,63,63,18,15,6,5,0.5,0.5
2023-02-26T08:00:00,1394A,114.4103,23.1142,惠州市,江北云山西路子站,细颗粒物(PM2.5),64,46,39,46,32,83,68,58,58,17,14,7,5,0.5,0.4
2023-02-26T08:00:00,1395A,114.4645,22.7833,惠州市,惠阳区承修路船湖子站,,49,43,38,34,32,86,43,48,46,20,13,6,5,0.8,0.8
2023-02-26T08:00:00,1396A,114.5317,22.7422,惠州市,大亚湾管委会子站,,43,28,42,30,30,75,40,42,40,16,15,5,5,0.7,0.7
2023-02-26T08:00:00,1397A,112.4267,23.0706,肇庆市,睦岗子站,,36,34,34,25,22,93,67,77,72,24,16,8,8,0.5,0.5
2023-02-26T08:00:00,1398A,112.4645,23.0475,肇庆市,城中子站,,36,33,31,25,23,94,76,75,74,17,15,6,6,0.5,0.5
2023-02-26T08:00:00,1399A,112.5544,23.1522,肇庆市,坑口子站,,36,30,30,25,24,90,72,75,72,16,14,6,6,0.5,0.5
2023-02-26T08:00:00,1400A,112.4753,23.1,肇庆市,七星岩子站,,,,,,,,,,,,,,,,
2023-02-26T08:00:00,1401A,108.3103,22.7881,南宁市,二十一中,,34,34,43,21,22,128,86,83,83,10,15,10,10,0.6,0.7
2023-02-26T08:00:00,1402A,108.3141,22.8528,南宁市,北湖,,35,29,45,24,22,118,76,68,68,14,20,9,13,0.5,0.6
2023-02-26T08:00:00,1403A,108.3206,22.8225,南宁市,市监测站,,49,34,46,34,35,115,73,71,71,27,31,10,13,0.6,0.6
2023-02-26T08:00:00,1404A,108.3829,22.8037,南宁市,大自然花园,,36,33,40,25,26,99,75,78,76,16,18,10,10,0.5,0.6
2023-02-26T08:00:00,1405A,108.4394,22.7904,南宁市,仙葫,,42,34,44,29,24,105,81,78,72,13,17,9,9,0.2,0.3
2023-02-26T08:00:00,1406A,108.2397,22.8467,南宁市,区农职院,,43,34,44,30,26,126,61,30,29,29,30,10,15,0.5,0.6
2023-02-26T08:00:00,1407A,108.3275,22.735,南宁市,英华嘉园,,40,40,40,25,22,111,76,80,69,13,19,9,9,0.6,0.7
2023-02-26T08:00:00,1408A,108.2257,22.7757,南宁市,沙井镇街道办,,48,47,52,33,30,117,52,51,51,34,30,8,9,0.6,0.7
2023-02-26T08:00:00,1409A,110.576,19.9507,海口市,东寨港,,,33,41,15,27,79,42,78,60,,,5,4,0.8,0.8
2023-02-26T08:00:00,1410A,110.3232,20.0574,海口市,海南大学,,32,32,36,14,27,113,70,106,83,12,11,6,7,0.6,0.6
2023-02-26T08:00:00,1411A,110.283,20.0053,海口市,秀英海南医院,,35,35,51,19,30,112,70,109,85,12,13,5,5,0.5,0.5
2023-02-26T08:00:00,1412A,110.338,19.9969,海口市,海南师范大学,,36,36,51,21,30,116,69,111,85,12,11,4,5,0.7,0.8
2023-02-26T08:00:00,1413A,110.33,20.0356,海口市,龙华路环保局宿舍,,34,34,46,18,29,109,68,106,81,11,12,6,7,0.8,0.8
2023-02-26T08:00:00,1414A,106.3787,29.8279,重庆市,缙云山,,43,43,38,27,24,88,74,69,68,16,24,5,6,0.7,0.9
2023-02-26T08:00:00,1416A,106.4213,29.8253,重庆市,天生,细颗粒物(PM2.5),64,72,58,46,39,93,24,17,17,50,51,6,7,0.7,0.7
2023-02-26T08:00:00,1417A,106.6263,29.7228,重庆市,两路,,46,46,51,31,40,90,22,58,51,82,50,9,9,0.8,0.8
2023-02-26T08:00:00,1418A,106.2953,29.5983,重庆市,虎溪,,,58,54,,36,114,5,6,4,55,50,5,6,0.8,0.7
2023-02-26T08:00:00,1419A,106.5777,29.5102,重庆市,南坪,颗粒物(PM10),51,51,46,34,33,92,57,84,73,31,21,7,7,0.6,0.6
2023-02-26T08:00:00,1420A,106.6556,29.6277,重庆市,唐家沱,细颗粒物(PM2.5),55,48,55,39,38,94,4,27,9,44,50,5,8,1.1,0.8
2023-02-26T08:00:00,1421A,106.6349,29.4906,重庆市,茶园,颗粒物(PM10),66,81,73,44,41,92,6,8,7,58,57,5,7,1.2,0.9
2023-02-26T08:00:00,1422A,106.3754,29.4572,重庆市,白市驿,,45,45,52,29,26,104,82,86,83,16,28,8,10,0.5,0.5
2023-02-26T08:00:00,1425A,106.6205,29.7166,重庆市,空港,,49,49,53,33,40,101,34,60,57,76,52,7,7,0.7,0.8
2023-02-26T08:00:00,1426A,106.4782,29.4875,重庆市,新山村,颗粒物(PM10),53,55,59,33,35,91,45,67,64,52,49,8,9,0.6,0.7
2023-02-26T08:00:00,1427A,106.5616,29.6453,重庆市,礼嘉,颗粒物(PM10),58,66,70,20,32,89,28,19,19,70,67,8,9,0.6,0.8
2023-02-26T08:00:00,1428A,106.4522,29.7091,重庆市,蔡家,颗粒物(PM10),65,79,67,45,41,102,8,11,10,47,49,6,6,0.7,0.8
2023-02-26T08:00:00,1429A,106.5093,29.3917,重庆市,鱼新街,细颗粒物(PM2.5),55,52,56,39,37,95,33,55,39,54,46,9,10,0.9,1
2023-02-26T08:00:00,1431A,103.9728,30.7236,成都市,金泉两河,细颗粒物(PM2.5),99,112,78,74,53,124,0,16,4,51,39,3,3,0.8,0.6
2023-02-26T08:00:00,1432A,104.176,30.6872,成都市,十里店,细颗粒物(PM2.5),113,102,81,85,51,119,2,2,2,54,46,4,4,1.0,0.8
2023-02-26T08:00:00,1433A,104.079,30.5706,成都市,三瓦窑,,,74,56,33,30,128,0,70,23,76,39,5,5,0.7,0.5
2023-02-26T08:00:00,1434A,104.1114,30.63,成都市,沙河铺,细颗粒物(PM2.5),114,99,62,86,42,126,1,15,6,50,43,5,5,1.1,0.8
2023-02-26T08:00:00,1437A,104.0786,30.6531,成都市,君平街,细颗粒物(PM2.5),109,106,79,82,60,123,2,3,2,59,52,6,6,0.9,0.7
2023-02-26T08:00:00,1438A,103.613,31.0283,成都市,灵岩寺,"颗粒物(PM10),细颗粒物(PM2.5)",52,53,55,36,34,104,70,74,70,17,20,15,11,0.7,0.6
2023-02-26T08:00:00,1439A,106.6899,26.5998,贵阳市,马鞍山,,49,48,38,34,26,117,57,71,66,11,12,4,6,0.5,0.6
2023-02-26T08:00:00,1440A,106.6971,26.5694,贵阳市,市环保站,细颗粒物(PM2.5),75,68,47,55,38,121,81,96,94,22,18,5,9,0.4,0.4
2023-02-26T08:00:00,1441A,106.6243,26.6266,贵阳市,鉴湖路,颗粒物(PM10),56,61,50,36,28,118,80,89,87,11,13,4,7,0.3,0.4
2023-02-26T08:00:00,1442A,106.7487,26.6343,贵阳市,燕子冲,细颗粒物(PM2.5),73,61,51,53,43,113,52,86,79,13,13,4,7,0.4,0.4
2023-02-26T08:00:00,1443A,106.6555,26.4365,贵阳市,碧云窝,细颗粒物(PM2.5),62,61,56,44,32,109,78,85,84,18,20,12,16,0.6,0.6
2023-02-26T08:00:00,1444A,106.694,26.5161,贵阳市,中院村,细颗粒物(PM2.5),67,66,56,48,33,107,76,90,80,22,23,12,13,0.5,0.5
2023-02-26T08:00:00,1445A,106.7109,26.6027,贵阳市,红边门,细颗粒物(PM2.5),67,56,48,48,40,118,76,91,89,23,18,10,13,0.6,0.5
2023-02-26T08:00:00,1446A,106.7164,26.5699,贵阳市,新华路,细颗粒物(PM2.5),73,56,48,53,34,113,77,88,86,16,13,6,7,0.4,0.4
2023-02-26T08:00:00,1447A,106.674,26.5424,贵阳市,太慈桥,"颗粒物(PM10),细颗粒物(PM2.5)",58,66,54,41,28,112,28,87,74,36,18,1,5,0.5,0.4
2023-02-26T08:00:00,1450A,102.8204,24.8886,昆明市,呈贡新区,,43,43,49,30,46,70,70,63,63,15,17,5,7,0.6,0.7
2023-02-26T08:00:00,1451A,102.6251,24.9608,昆明市,西山森林公园,,45,45,51,20,31,71,69,60,60,13,20,6,6,1.0,1.1
2023-02-26T08:00:00,1452A,102.7252,25.0902,昆明市,龙泉镇,,48,48,48,30,43,71,71,51,51,16,17,8,6,0.6,0.8
2023-02-26T08:00:00,1453A,102.7266,25.0375,昆明市,东风东路,,49,49,56,31,48,75,68,64,64,23,25,8,7,0.7,0.8
2023-02-26T08:00:00,1454A,102.6742,25.0669,昆明市,金鼎山,颗粒物(PM10),54,57,51,34,44,84,72,71,71,16,17,6,6,0.5,0.6
2023-02-26T08:00:00,1455A,102.6644,25.0401,昆明市,碧鸡广场,,50,50,56,31,44,79,68,67,67,24,25,6,5,0.5,0.6
2023-02-26T08:00:00,1456A,91.1319,29.6514,拉萨市,八廓街,,28,8,16,5,7,110,88,91,89,12,13,4,4,0.4,0.5
2023-02-26T08:00:00,1457A,91.1221,29.6747,拉萨市,市环保局,,27,7,15,8,8,118,85,92,88,10,11,6,6,0.2,0.2
2023-02-26T08:00:00,1458A,91.0874,29.6475,拉萨市,区监测站,,30,12,14,5,4,122,96,102,98,12,11,6,6,0.5,0.6
2023-02-26T08:00:00,1459A,91.1774,29.6541,拉萨市,西藏大学,,26,10,15,4,4,118,82,92,88,8,10,3,4,0.1,0.4
2023-02-26T08:00:00,1460A,90.9798,29.6588,拉萨市,区辐射站,,30,5,15,2,6,120,93,103,99,13,13,6,6,0.4,0.5
2023-02-26T08:00:00,1461A,91.0834,29.6292,拉萨市,拉萨火车站,,29,7,16,0,4,111,90,94,92,10,11,8,8,0.3,0.3
2023-02-26T08:00:00,1462A,108.882,34.2749,西安市,高压开关厂,细颗粒物(PM2.5),117,117,138,88,104,101,23,36,32,37,33,9,8,0.7,0.7
2023-02-26T08:00:00,1463A,108.993,34.2629,西安市,兴庆小区,细颗粒物(PM2.5),124,96,112,94,109,103,20,33,30,36,30,7,7,0.7,0.8
2023-02-26T08:00:00,1464A,109.06,34.2572,西安市,纺织城,,,127,125,88,107,99,4,30,20,49,39,6,6,0.9,0.8
2023-02-26T08:00:00,1465A,108.9356,34.2173,西安市,小寨,细颗粒物(PM2.5),114,119,138,86,102,95,14,28,26,45,36,9,8,0.7,0.7
2023-02-26T08:00:00,1466A,108.954,34.2713,西安市,市人民体育场,细颗粒物(PM2.5),122,104,118,92,110,98,10,27,25,44,34,10,10,0.6,0.6
2023-02-26T08:00:00,1467A,108.8922,34.2322,西安市,高新西区,细颗粒物(PM2.5),123,100,121,93,110,101,23,34,33,38,34,9,9,0.4,0.4
2023-02-26T08:00:00,1468A,108.935,34.3474,西安市,经开区,细颗粒物(PM2.5),127,112,124,96,118,108,22,36,32,34,28,8,7,0.8,0.7
2023-02-26T08:00:00,1469A,108.906,34.1546,西安市,长安区,细颗粒物(PM2.5),138,151,164,105,120,89,5,24,18,46,51,8,9,0.9,0.9
2023-02-26T08:00:00,1471A,109.2186,34.3731,西安市,临潼区,细颗粒物(PM2.5),124,112,140,94,109,101,26,33,31,27,25,8,9,0.7,0.7
2023-02-26T08:00:00,1472A,108.869,34.378,西安市,草滩,细颗粒物(PM2.5),82,110,124,60,68,93,24,31,28,27,24,16,12,0.6,0.4
2023-02-26T08:00:00,1473A,108.985,34.1978,西安市,曲江文化产业集团,细颗粒物(PM2.5),110,112,133,83,97,96,11,24,22,44,37,6,6,0.9,0.8
2023-02-26T08:00:00,1474A,109.051,34.3213,西安市,广运潭,细颗粒物(PM2.5),120,113,132,91,109,98,8,24,21,40,30,11,9,0.9,0.9
2023-02-26T08:00:00,1476A,103.631,36.1031,兰州市,兰炼宾馆,颗粒物(PM10),90,129,122,54,57,109,5,24,11,51,61,12,16,1.1,1
2023-02-26T08:00:00,1477A,104.1373,35.9454,兰州市,榆中兰大校区,,,,,,,,,,,,,,,,
2023-02-26T08:00:00,1478A,103.8412,36.0726,兰州市,生物制品所,细颗粒物(PM2.5),77,80,106,56,50,101,4,49,13,51,50,6,12,1.4,1
2023-02-26T08:00:00,1479A,103.831,36.0464,兰州市,铁路设计院,细颗粒物(PM2.5),78,77,108,57,57,105,5,34,13,69,61,8,13,1.5,1.3
2023-02-26T08:00:00,1483A,101.524,36.6867,西宁市,第五水厂,,,,,,,,,,,,,,,,
2023-02-26T08:00:00,1484A,105.9512,38.6016,银川市,贺兰山马莲口,颗粒物(PM10),53,56,48,27,21,119,83,116,104,18,20,17,22,0.3,0.4
2023-02-26T08:00:00,1488A,106.2328,38.4975,银川市,贺兰山东路,颗粒物(PM10),82,114,86,47,39,115,12,53,35,66,52,9,11,1.0,0.8
2023-02-26T08:00:00,1489A,106.1358,38.5036,银川市,学院路,颗粒物(PM10),71,91,81,39,35,124,13,46,36,63,47,10,14,1.0,1
2023-02-26T08:00:00,1490A,87.5801,43.8303,乌鲁木齐市,监测站,颗粒物(PM10),81,111,240,34,169,141,76,139,90,26,95,6,8,0.8,2.1
2023-02-26T08:00:00,1491A,87.6046,43.768,乌鲁木齐市,收费所,颗粒物(PM10),88,126,247,34,131,127,77,123,90,26,80,3,6,0.4,1.4
2023-02-26T08:00:00,1492A,87.4754,43.9469,乌鲁木齐市,新疆农科院农场,细颗粒物(PM2.5),93,66,185,69,227,200,75,78,71,31,78,12,13,0.9,2.1
2023-02-26T08:00:00,1493A,87.5525,43.8711,乌鲁木齐市,铁路局,颗粒物(PM10),85,120,238,41,196,155,81,136,90,6,72,6,7,0.6,1.9
2023-02-26T08:00:00,1494A,87.6432,43.831,乌鲁木齐市,三十一中学,颗粒物(PM10),82,114,219,37,154,151,78,151,116,11,51,8,12,0.4,1.4
2023-02-26T08:00:00,1496A,87.7216,44.1747,乌鲁木齐市,米东区环保局,颗粒物(PM10),105,160,280,55,223,213,95,158,124,24,53,15,13,0.7,1.8
2023-02-26T08:00:00,1508A,112.9433,27.8614,湘潭市,板塘,细颗粒物(PM2.5),123,95,60,93,58,91,10,44,20,53,27,2,2,0.4,0.4
2023-02-26T08:00:00,1511A,112.9118,27.8403,湘潭市,市监测站,细颗粒物(PM2.5),110,98,63,83,54,92,21,62,37,45,28,8,6,0.6,0.5
2023-02-26T08:00:00,1512A,112.8937,27.8728,湘潭市,江麓,细颗粒物(PM2.5),104,82,67,78,52,110,42,74,57,24,16,6,7,0.5,0.5
2023-02-26T08:00:00,1513A,112.9227,27.8159,湘潭市,岳塘,细颗粒物(PM2.5),98,86,62,73,55,97,6,68,38,44,34,2,3,0.6,0.5
2023-02-26T08:00:00,1514A,112.9074,27.9119,湘潭市,科大,细颗粒物(PM2.5),110,90,64,83,55,100,24,66,38,36,23,6,6,0.6,0.5
2023-02-26T08:00:00,1515A,113.135,27.8244,株洲市,天台山庄,细颗粒物(PM2.5),113,110,66,85,54,105,56,45,43,39,35,6,6,0.7,0.5
2023-02-26T08:00:00,1518A,113.095,27.8867,株洲市,株冶医院,细颗粒物(PM2.5),117,107,72,88,54,92,24,26,25,55,38,4,3,0.7,0.7
2023-02-26T08:00:00,1519A,113.167,27.8667,株洲市,市四中,细颗粒物(PM2.5),115,103,64,87,53,96,27,50,25,48,32,12,10,0.9,0.7
2023-02-26T08:00:00,1520A,113.143,27.8381,株洲市,火车站,细颗粒物(PM2.5),117,122,70,88,53,99,21,43,26,53,36,7,6,1.0,0.7
2023-02-26T08:00:00,1524A,113.13,27.8528,株洲市,市监测站,细颗粒物(PM2.5),130,102,67,99,64,100,30,40,38,53,32,11,9,0.9,0.7
2023-02-26T08:00:00,1552A,106.805,26.3003,贵阳市,桐木岭,,,,,,,,,,,,,,,,
2023-02-26T08:00:00,1559A,113.251,27.8336,株洲市,大京风景区,细颗粒物(PM2.5),74,63,44,54,35,100,19,43,36,12,13,5,5,0.5,0.4
2023-02-26T08:00:00,1562A,113.0048,27.9153,湘潭市,昭山,细颗粒物(PM2.5),103,100,75,77,59,92,1,24,4,57,42,2,2,0.4,0.2
2023-02-26T08:00:00,1564A,112.4876,27.9164,湘潭市,韶山,细颗粒物(PM2.5),67,58,44,48,39,107,28,96,66,26,18,5,5,0.6,0.4
2023-02-26T08:00:00,1585A,109.8756,40.6532,包头市,市环境监测站,颗粒物(PM10),60,70,57,36,28,88,30,15,13,48,54,95,35,1.6,1.2
2023-02-26T08:00:00,1587A,109.9991,40.5842,包头市,包头八中,颗粒物(PM10),55,60,63,30,30,89,26,31,25,55,43,135,58,1.5,0.8
2023-02-26T08:00:00,1588A,109.8538,40.6821,包头市,青山宾馆,颗粒物(PM10),62,74,52,41,35,87,9,8,6,68,56,27,24,1.5,1.4
2023-02-26T08:00:00,1589A,109.8642,40.6288,包头市,惠龙物流,,46,46,49,26,26,88,27,37,21,49,44,55,31,0.6,0.5
2023-02-26T08:00:00,1590A,110.0377,40.5546,包头市,东河鸿龙湾,,37,37,56,15,23,90,34,28,28,30,29,19,14,0.5,0.6
2023-02-26T08:00:00,1591A,110.0023,39.8129,鄂尔多斯市,综合楼,细颗粒物(PM2.5),132,136,77,100,32,81,49,43,43,38,43,11,16,1.0,0.7
2023-02-26T08:00:00,1592A,109.9486,39.8261,鄂尔多斯市,巴音孟克林场办事处,细颗粒物(PM2.5),122,129,73,92,33,81,46,39,39,37,39,12,16,1.3,0.9
2023-02-26T08:00:00,1593A,109.7736,39.5986,鄂尔多斯市,康泽苑,颗粒物(PM10),108,166,80,66,27,89,6,5,5,68,48,19,14,1.4,0.9
2023-02-26T08:00:00,1594A,109.8119,39.5989,鄂尔多斯市,华泰汽车城,颗粒物(PM10),115,180,81,73,32,93,8,6,6,68,46,32,16,1.6,0.8
2023-02-26T08:00:00,1595A,109.9734,39.7884,鄂尔多斯市,奥林花园,细颗粒物(PM2.5),140,151,82,107,37,84,38,32,32,42,45,9,15,1.4,1
2023-02-26T08:00:00,1597A,122.2703,40.7094,营口市,大庆路,细颗粒物(PM2.5),54,46,35,38,18,78,17,44,31,52,27,12,14,1.3,0.7
2023-02-26T08:00:00,1598A,122.2150,40.6511,营口市,镜湖西路,颗粒物(PM10),58,66,36,31,16,82,33,42,36,35,26,13,13,1.3,0.9
2023-02-26T08:00:00,1599A,122.1658,40.6789,营口市,西炮台,细颗粒物(PM2.5),54,56,32,38,19,84,26,45,31,55,32,11,14,1.0,0.7
2023-02-26T08:00:00,1600A,124.3303,40.0625,丹东市,江湾东路,"颗粒物(PM10),细颗粒物(PM2.5)",53,55,44,37,26,86,30,56,33,29,19,28,21,1.2,0.9
2023-02-26T08:00:00,1601A,124.4256,40.1503,丹东市,临江后街,颗粒物(PM10),61,72,46,43,24,83,23,45,26,34,23,25,15,1.1,0.8
2023-02-26T08:00:00,1602A,124.3933,40.1461,丹东市,元宝山,细颗粒物(PM2.5),82,99,40,60,22,74,12,57,28,48,21,46,18,1.5,1
2023-02-26T08:00:00,1603A,124.3633,40.1092,丹东市,民主桥,颗粒物(PM10),52,53,42,31,22,75,18,45,31,54,24,39,13,0.9,0.6
2023-02-26T08:00:00,1604A,122.0303,41.1489,盘锦市,开发区,细颗粒物(PM2.5),73,43,31,53,22,86,15,41,23,39,23,6,9,1.0,0.6
2023-02-26T08:00:00,1605A,122.0485,41.0883,盘锦市,兴隆台,细颗粒物(PM2.5),67,60,33,48,21,81,11,32,19,47,30,9,11,1.0,0.5
2023-02-26T08:00:00,1606A,121.8297,41.1028,盘锦市,新生街道,,22,4,27,15,16,82,22,34,23,31,28,7,10,0.9,0.6
2023-02-26T08:00:00,1607A,120.9092,40.7136,葫芦岛市,龙港区,细颗粒物(PM2.5),185,126,45,139,28,79,9,7,7,61,35,41,17,2.0,1.1
2023-02-26T08:00:00,1608A,120.8392,40.7514,葫芦岛市,化工街,细颗粒物(PM2.5),117,136,74,88,38,81,12,10,10,82,46,48,18,1.6,1
2023-02-26T08:00:00,1609A,120.8341,40.7073,葫芦岛市,新区,细颗粒物(PM2.5),70,70,45,51,28,78,10,8,8,77,42,26,18,1.8,0.9
2023-02-26T08:00:00,1610A,120.8695,40.7677,葫芦岛市,东城区,细颗粒物(PM2.5),97,138,56,72,33,79,8,8,7,60,35,35,17,1.7,0.9
2023-02-26T08:00:00,1611A,118.5819,24.9117,泉州市,涂山街,,47,47,67,32,42,141,79,124,98,20,18,9,9,0.5,0.5
2023-02-26T08:00:00,1612A,118.5972,24.8978,泉州市,津头埔,,48,48,64,28,44,140,74,124,95,25,22,10,9,0.4,0.5
2023-02-26T08:00:00,1613A,118.6663,24.9424,泉州市,万安,,46,46,65,28,45,152,80,126,98,20,18,9,8,0.4,0.5
2023-02-26T08:00:00,1614A,118.6117,24.9604,泉州市,清源山,,,,,,,,,,,,,,,,
2023-02-26T08:00:00,1616A,117.6795,36.229,济南市,技术学院,颗粒物(PM10),57,63,62,29,26,95,16,7,7,54,46,7,8,0.8,0.7
2023-02-26T08:00:00,1618A,118.3429,35.0532,临沂市,沂河小区,细颗粒物(PM2.5),92,90,75,68,44,90,5,20,13,64,45,19,13,1.2,0.8
2023-02-26T08:00:00,1619A,118.295,35.0583,临沂市,鲁南制药厂,"颗粒物(PM10),细颗粒物(PM2.5)",70,90,78,51,36,97,15,20,12,68,51,28,18,0.8,0.5
2023-02-26T08:00:00,1620A,118.2794,34.9976,临沂市,新光毛纺厂,细颗粒物(PM2.5),90,107,76,67,37,94,10,20,10,66,45,19,13,1.2,0.6
2023-02-26T08:00:00,1621A,118.3956,35.0888,临沂市,河东保险公司,细颗粒物(PM2.5),85,90,75,63,43,99,13,9,9,67,49,21,16,1.5,1.1
2023-02-26T08:00:00,1622A,116.3032,37.4674,德州市,儿童乐园,细颗粒物(PM2.5),77,90,63,56,38,100,37,63,54,60,33,10,5,0.8,0.5
2023-02-26T08:00:00,1624A,116.2991,37.4451,德州市,监理站,颗粒物(PM10),73,95,67,51,42,96,31,52,42,66,41,9,5,0.7,0.5
2023-02-26T08:00:00,1625A,115.9848,36.4372,聊城市,区政府,细颗粒物(PM2.5),84,103,93,62,54,99,48,46,42,43,39,16,15,0.7,0.7
2023-02-26T08:00:00,1628A,118.0062,37.3803,滨州市,市环保局,细颗粒物(PM2.5),73,94,61,53,40,78,5,6,5,74,50,43,21,1.1,0.7
2023-02-26T08:00:00,1629A,118.0018,37.3617,滨州市,第二水厂,颗粒物(PM10),73,95,71,48,37,80,5,4,4,77,55,26,17,1.3,0.9
2023-02-26T08:00:00,1630A,117.9776,37.393,滨州市,北中新校,细颗粒物(PM2.5),87,102,65,64,36,80,17,10,10,64,47,49,18,1.0,0.6
2023-02-26T08:00:00,1631A,118.0414,36.8103,淄博市,人民公园,颗粒物(PM10),96,141,84,56,40,82,5,4,4,71,50,26,21,1.5,0.9
2023-02-26T08:00:00,1633A,117.8525,36.4847,淄博市,双山,细颗粒物(PM2.5),74,80,48,54,23,90,21,30,22,53,35,15,12,0.8,0.5
2023-02-26T08:00:00,1634A,117.9592,36.6331,淄博市,气象站,颗粒物(PM10),81,111,72,56,32,85,15,9,9,66,46,30,21,0.9,0.6
2023-02-26T08:00:00,1635A,118.3092,36.8194,淄博市,莆田园,颗粒物(PM10),71,92,72,39,32,62,19,14,14,45,72,19,19,2.2,1.5
2023-02-26T08:00:00,1637A,117.558,34.8438,枣庄市,市中区政府,细颗粒物(PM2.5),117,166,102,88,47,107,10,16,15,64,44,19,25,1.3,0.8
2023-02-26T08:00:00,1638A,117.2852,34.7837,枣庄市,薛城环保局,颗粒物(PM10),72,93,78,48,44,100,18,9,9,77,55,35,18,1.0,0.8
2023-02-26T08:00:00,1639A,117.5852,34.7745,枣庄市,峄城区政府,细颗粒物(PM2.5),110,163,91,83,41,102,12,45,16,63,45,24,21,0.8,0.6
2023-02-26T08:00:00,1640A,117.7276,34.5578,枣庄市,台儿庄区环保局,"颗粒物(PM10),细颗粒物(PM2.5)",100,149,102,75,49,97,9,6,6,76,56,15,11,1.3,1
2023-02-26T08:00:00,1641A,117.4518,35.0992,枣庄市,山亭区环保局,细颗粒物(PM2.5),68,70,61,49,37,108,30,42,39,39,30,14,11,0.8,0.7
2023-02-26T08:00:00,1642A,121.2514,37.5639,烟台市,开发区,细颗粒物(PM2.5),62,68,48,44,29,77,10,41,23,60,31,14,11,1.0,0.5
2023-02-26T08:00:00,1643A,121.3719,37.5433,烟台市,轴承厂,,44,44,44,19,22,88,46,68,61,34,21,7,7,0.8,0.6
2023-02-26T08:00:00,1644A,121.3181,37.5436,烟台市,西郊化工站,,48,48,48,20,24,81,46,71,62,29,20,10,11,1.4,1.2
2023-02-26T08:00:00,1645A,121.4478,37.4822,烟台市,莱山环保局,细颗粒物(PM2.5),54,51,40,38,24,86,34,64,45,33,19,14,11,1.1,1
2023-02-26T08:00:00,1646A,121.2611,37.4967,烟台市,福山环保局,颗粒物(PM10),62,73,59,39,29,87,20,48,33,43,28,9,9,1.1,0.9
2023-02-26T08:00:00,1650A,119.1437,36.7023,潍坊市,环保局,细颗粒物(PM2.5),82,102,76,60,51,84,8,11,7,64,49,10,11,1.1,0.8
2023-02-26T08:00:00,1653A,116.6251,35.4302,济宁市,火炬城,细颗粒物(PM2.5),85,73,65,63,45,97,35,52,37,51,35,10,9,0.7,0.6
2023-02-26T08:00:00,1655A,116.5491,35.4042,济宁市,电化厂,细颗粒物(PM2.5),89,93,71,66,50,96,29,49,23,60,40,13,9,0.8,0.6
2023-02-26T08:00:00,1656A,117.1437,36.1937,泰安市,监测站,细颗粒物(PM2.5),67,70,69,48,45,100,29,31,26,31,27,3,5,1.0,0.9
2023-02-26T08:00:00,1657A,117.0885,36.2017,泰安市,人口学校,颗粒物(PM10),63,75,67,39,33,111,20,73,42,47,28,9,10,1.1,1
2023-02-26T08:00:00,1658A,117.1089,36.1758,泰安市,电力学校,颗粒物(PM10),71,92,77,50,44,105,15,28,12,56,45,12,12,1.3,1.2
2023-02-26T08:00:00,1659A,119.471,35.4209,日照市,监测站,颗粒物(PM10),74,97,56,48,26,87,4,2,2,57,42,13,11,1.1,0.9
2023-02-26T08:00:00,1660A,119.523,35.4216,日照市,市政府广场,颗粒物(PM10),62,73,56,38,26,88,8,20,12,54,39,7,9,1.3,0.9
2023-02-26T08:00:00,1661A,119.5587,35.4044,日照市,港务局,颗粒物(PM10),78,105,61,50,26,86,6,26,11,75,50,12,9,1.2,0.9
2023-02-26T08:00:00,1662A,122.1214,37.4236,威海市,华夏技校,,29,29,31,12,17,92,74,73,72,17,12,5,3,0.4,0.5
2023-02-26T08:00:00,1663A,122.0508,37.5236,威海市,山大分校,,39,34,34,27,16,92,67,59,59,16,13,8,4,0.3,0.4
2023-02-26T08:00:00,1664A,122.1067,37.5072,威海市,市监测站,颗粒物(PM10),55,59,37,24,18,87,29,53,46,52,18,10,8,0.7,0.6
2023-02-26T08:00:00,1666A,118.6614,37.4309,东营市,市环保局,细颗粒物(PM2.5),79,105,69,58,45,87,12,49,18,86,47,35,22,1.5,0.9
2023-02-26T08:00:00,1669A,113.5824,24.7733,韶关市,市八中,细颗粒物(PM2.5),54,46,27,38,22,86,54,70,57,20,12,12,14,0.6,0.6
2023-02-26T08:00:00,1671A,113.5917,24.7972,韶关市,园林处,细颗粒物(PM2.5),54,49,27,38,26,84,62,71,60,13,11,12,13,0.5,0.6
2023-02-26T08:00:00,1672A,113.6735,24.7791,韶关市,韶关学院,细颗粒物(PM2.5),64,45,27,46,25,88,31,53,33,33,19,9,8,0.6,0.6
2023-02-26T08:00:00,1673A,113.5971,24.6863,韶关市,曲江监测站,细颗粒物(PM2.5),57,45,27,40,21,92,70,71,68,14,12,17,11,0.7,0.7
2023-02-26T08:00:00,1674A,116.6794,23.3667,汕头市,金平子站,细颗粒物(PM2.5),79,54,64,58,43,132,107,113,112,24,20,14,14,0.8,0.7
2023-02-26T08:00:00,1675A,116.7244,23.3633,汕头市,龙湖子站,细颗粒物(PM2.5),79,66,71,58,38,133,113,114,113,21,23,4,5,0.8,0.7
2023-02-26T08:00:00,1676A,116.7258,23.2775,汕头市,濠江子站,细颗粒物(PM2.5),74,58,61,54,38,135,113,114,113,18,18,10,11,0.7,0.6
2023-02-26T08:00:00,1677A,116.7519,23.4714,汕头市,澄海子站,细颗粒物(PM2.5),90,64,65,67,44,137,101,106,105,31,25,6,8,0.7,0.6
2023-02-26T08:00:00,1678A,116.6092,23.2539,汕头市,潮阳子站,细颗粒物(PM2.5),62,59,63,44,30,126,102,104,103,18,19,7,7,0.7,0.7
2023-02-26T08:00:00,1680A,110.3539,21.2706,湛江市,湛江影剧院,,40,38,48,28,33,86,56,82,66,15,20,14,22,0.5,0.6
2023-02-26T08:00:00,1681A,110.3928,21.2228,湛江市,市环境监测站,,39,35,46,27,31,83,57,72,66,16,20,16,15,0.7,0.7
2023-02-26T08:00:00,1682A,110.4019,21.1997,湛江市,环保局宿舍,,43,33,46,30,34,83,54,71,64,15,19,14,14,0.6,0.7
2023-02-26T08:00:00,1683A,110.4111,21.2028,湛江市,霞山游泳场,,42,39,46,29,34,90,59,75,66,12,17,19,17,0.8,0.7
2023-02-26T08:00:00,1684A,110.3316,21.2679,湛江市,麻章区环保局,细颗粒物(PM2.5),52,41,53,36,40,83,39,68,55,24,25,54,22,0.6,0.6
2023-02-26T08:00:00,1685A,110.4558,21.2567,湛江市,坡头区环保局,,,37,48,36,37,80,,64,59,16,16,19,12,0.6,0.6
2023-02-26T08:00:00,1686A,111.0286,21.4688,茂名市,电白南海,,44,44,56,24,32,88,56,69,57,10,16,6,9,0.6,0.7
2023-02-26T08:00:00,1687A,110.9294,21.6533,茂名市,茂石化七小,,42,36,45,29,33,96,67,73,72,13,13,19,10,0.5,0.5
2023-02-26T08:00:00,1688A,110.9107,21.6687,茂名市,健康路,,27,27,45,18,30,103,68,74,73,13,14,19,19,0.7,0.6
2023-02-26T08:00:00,1689A,110.8592,21.6828,茂名市,高岭,,42,36,57,29,38,102,36,68,62,28,20,22,18,0.7,0.7
2023-02-26T08:00:00,1690A,116.1231,24.3284,梅州市,梅江月梅,,43,33,27,30,23,58,31,46,36,26,17,7,7,0.6,0.7
2023-02-26T08:00:00,1691A,116.0797,24.2719,梅州市,梅县新城,,39,30,31,27,25,53,19,47,23,28,20,6,6,0.9,0.8
2023-02-26T08:00:00,1692A,116.1248,24.2654,梅州市,环境监控中心,,39,27,28,27,25,52,7,48,19,30,19,11,8,0.8,0.8
2023-02-26T08:00:00,1693A,115.3653,22.775,汕尾市,市环保局,,35,22,35,24,32,80,41,45,44,13,11,10,9,0.8,0.8
2023-02-26T08:00:00,1694A,115.3706,22.7898,汕尾市,市政府,,29,21,34,20,30,81,36,46,43,17,11,9,9,0.7,0.7
2023-02-26T08:00:00,1695A,115.3622,22.7925,汕尾市,新城中学,,35,26,37,24,33,79,42,48,46,11,9,7,7,0.7,0.7
2023-02-26T08:00:00,1696A,114.6778,23.7569,河源市,源西,细颗粒物(PM2.5),59,42,32,42,28,91,91,79,79,13,12,7,6,0.7,0.7
2023-02-26T08:00:00,1697A,114.6944,23.7586,河源市,东埔,颗粒物(PM10),76,101,46,51,33,81,77,71,71,18,14,5,4,0.6,0.6
2023-02-26T08:00:00,1698A,114.6892,23.7233,河源市,老城,细颗粒物(PM2.5),75,74,46,55,34,82,79,72,72,14,12,6,5,0.7,0.7
2023-02-26T08:00:00,1699A,111.9797,21.8593,阳江市,鸳鸯湖,,36,33,39,25,26,113,57,70,63,18,15,12,10,0.8,0.8
2023-02-26T08:00:00,1701A,111.9491,21.8658,阳江市,马南垌,,38,35,43,26,26,109,45,76,66,23,17,7,7,0.7,0.6
2023-02-26T08:00:00,1702A,113.0426,23.691,清远市,环保大楼,细颗粒物(PM2.5),63,50,27,45,25,98,90,83,83,14,11,8,5,0.6,0.6
2023-02-26T08:00:00,1703A,113.0208,23.7106,清远市,凤城街办,细颗粒物(PM2.5),59,54,31,42,23,84,82,77,77,12,10,2,5,0.5,0.5
2023-02-26T08:00:00,1705A,116.6367,23.6719,潮州市,西园路,,48,30,41,33,34,104,35,35,32,19,14,2,3,0.8,0.8
2023-02-26T08:00:00,1706A,116.6447,23.6706,潮州市,档案局,,43,43,43,27,30,95,34,33,29,27,18,6,7,0.6,0.6
2023-02-26T08:00:00,1708A,116.3701,23.5345,揭阳市,新兴,细颗粒物(PM2.5),83,79,44,61,39,74,63,42,42,26,15,16,10,0.7,0.8
2023-02-26T08:00:00,1709A,116.3264,23.5443,揭阳市,西马,细颗粒物(PM2.5),73,69,50,53,37,66,62,36,36,25,18,15,9,0.6,0.7
2023-02-26T08:00:00,1710A,116.3611,23.5626,揭阳市,东兴,细颗粒物(PM2.5),72,79,43,52,34,74,53,36,36,37,24,17,7,0.7,0.8
2023-02-26T08:00:00,1711A,116.4151,23.5294,揭阳市,渔湖,细颗粒物(PM2.5),85,71,50,63,39,96,67,50,50,31,17,15,10,0.6,0.7
2023-02-26T08:00:00,1712A,112.0392,22.9169,云浮市,新市府,,39,29,29,27,28,98,54,59,54,11,11,7,4,0.6,0.6
2023-02-26T08:00:00,1714A,112.0539,22.9539,云浮市,牧羊,,28,27,29,19,22,95,65,61,61,11,12,9,7,0.6,0.6
2023-02-26T08:00:00,1715A,102.575,24.3711,玉溪市,东风水库,,32,26,29,22,30,73,73,66,66,8,9,6,5,0.6,0.7
2023-02-26T08:00:00,1718A,115.4208,35.2464,菏泽市,气象局,细颗粒物(PM2.5),130,133,88,99,52,106,38,58,42,46,38,124,25,0.7,0.6
2023-02-26T08:00:00,1719A,115.4747,35.2375,菏泽市,市政协,细颗粒物(PM2.5),105,108,85,79,51,111,46,64,50,50,38,92,23,0.7,0.6
2023-02-26T08:00:00,1721A,113.3819,40.1097,大同市,果树场,,,,,,,,,,,,,,,,
2023-02-26T08:00:00,1723A,113.2994,40.0758,大同市,云冈宾馆,颗粒物(PM10),64,77,52,40,28,88,6,14,8,57,42,26,15,1.3,0.8
2023-02-26T08:00:00,1724A,113.3444,40.0917,大同市,大同大学,,49,49,36,27,19,85,24,42,37,44,34,54,20,0.8,0.5
2023-02-26T08:00:00,1725A,113.2661,40.1269,大同市,安家小村,颗粒物(PM10),83,115,70,48,28,82,7,5,5,40,33,26,17,2.4,1.4
2023-02-26T08:00:00,1726A,113.2711,40.0844,大同市,教育学院,细颗粒物(PM2.5),87,117,62,64,30,81,10,8,8,63,45,39,18,3.4,1.5
2023-02-26T08:00:00,1727A,113.1147,36.1547,长治市,清华站,细颗粒物(PM2.5),117,94,98,88,91,86,78,72,70,14,23,6,7,0.8,0.9
2023-02-26T08:00:00,1728A,113.1031,36.1989,长治市,监测站,细颗粒物(PM2.5),125,87,92,95,91,83,62,67,60,19,22,4,4,0.9,1
2023-02-26T08:00:00,1730A,113.0886,36.2125,长治市,审计局,细颗粒物(PM2.5),132,79,89,100,98,85,70,65,55,14,23,6,8,1.0,1.2
2023-02-26T08:00:00,1731A,113.0844,36.1856,长治市,长治八中,细颗粒物(PM2.5),97,100,104,72,78,84,74,66,62,11,20,4,5,0.9,1.1
2023-02-26T08:00:00,1733A,111.5531,36.0783,临汾市,临钢医院,细颗粒物(PM2.5),160,173,154,122,115,95,22,24,24,44,36,2,7,0.8,1
2023-02-26T08:00:00,1734A,111.5028,36.0714,临汾市,技工学校,细颗粒物(PM2.5),163,166,154,124,120,98,45,33,33,25,34,5,10,1.3,1.3
2023-02-26T08:00:00,1736A,111.5018,36.0855,临汾市,市委,细颗粒物(PM2.5),180,156,153,136,120,100,52,37,37,28,37,2,6,1.0,1.1
2023-02-26T08:00:00,1738A,113.5758,37.8572,阳泉市,市中心,细颗粒物(PM2.5),142,181,166,108,111,67,2,1,1,49,48,9,18,1.2,1.2
2023-02-26T08:00:00,1739A,113.4894,37.8731,阳泉市,赛鱼,细颗粒物(PM2.5),152,164,147,116,112,65,5,4,4,47,50,9,11,1.1,1.1
2023-02-26T08:00:00,1740A,113.5819,37.8486,阳泉市,南庄,细颗粒物(PM2.5),145,189,176,111,111,69,5,12,5,44,45,13,19,1.4,1.3
2023-02-26T08:00:00,1742A,113.5614,37.8703,阳泉市,平坦,细颗粒物(PM2.5),149,164,169,114,116,68,7,6,6,58,55,14,19,1.3,1.3
2023-02-26T08:00:00,1743A,113.5158,37.8392,阳泉市,大阳泉,细颗粒物(PM2.5),163,146,140,124,114,66,54,59,56,27,36,13,15,1.1,1.1
2023-02-26T08:00:00,1744A,118.9233,42.2816,赤峰市,松山一中,,38,38,38,14,21,89,12,20,15,52,40,13,15,1.3,1.1
2023-02-26T08:00:00,1745A,118.9576,42.2728,赤峰市,哈达街,,34,34,29,13,16,86,30,43,40,34,30,10,11,0.7,0.7
2023-02-26T08:00:00,1746A,118.8788,42.2554,赤峰市,天义路,,18,18,25,8,13,86,33,46,30,32,32,18,14,0.9,0.8
2023-02-26T08:00:00,1748A,123.044,41.1196,鞍山市,深沟寺,,41,41,47,24,28,84,45,58,49,22,24,12,21,1.0,1.2
2023-02-26T08:00:00,1749A,123.011,41.0931,鞍山市,太阳城,,45,45,57,21,32,96,51,54,50,26,29,16,23,1.0,1.2
2023-02-26T08:00:00,1750A,123.0485,41.1442,鞍山市,太平,颗粒物(PM10),57,64,51,34,28,85,19,48,35,54,36,16,23,1.2,1.1
2023-02-26T08:00:00,1751A,122.9642,41.0971,鞍山市,铁西三道街,颗粒物(PM10),68,86,63,41,32,93,19,34,25,64,41,25,23,1.7,1.3
2023-02-26T08:00:00,1752A,122.9341,41.0833,鞍山市,铁西工业园区,颗粒物(PM10),57,63,59,33,35,93,33,47,42,48,35,16,23,1.1,1.1
2023-02-26T08:00:00,1753A,123.022,41.0821,鞍山市,明达新区,,41,41,52,21,29,96,40,58,51,37,34,12,21,1.0,1
2023-02-26T08:00:00,1754A,123.1289,41.0228,鞍山市,千山,,,,,,,,,,,,,,,,
2023-02-26T08:00:00,1755A,123.7977,41.8491,抚顺市,望花区,细颗粒物(PM2.5),79,77,76,58,47,77,9,36,10,48,38,6,11,1.0,0.8
2023-02-26T08:00:00,1756A,123.9161,41.8822,抚顺市,顺城区,细颗粒物(PM2.5),64,70,83,46,46,94,21,7,7,37,42,8,15,1.1,0.9
2023-02-26T08:00:00,1757A,124.0436,41.8611,抚顺市,东洲区,细颗粒物(PM2.5),62,58,64,44,40,86,32,34,30,20,25,9,9,1.1,0.9
2023-02-26T08:00:00,1758A,123.9247,41.8642,抚顺市,新抚区,细颗粒物(PM2.5),75,61,75,55,48,79,14,10,10,36,38,6,8,1.3,1
2023-02-26T08:00:00,1759A,124.0972,41.8961,抚顺市,大伙房水库,细颗粒物(PM2.5),72,64,60,52,33,96,33,49,26,21,24,5,7,1.1,0.7
2023-02-26T08:00:00,1760A,123.7086,41.8391,抚顺市,沈抚新城,细颗粒物(PM2.5),88,106,73,65,45,85,13,27,12,51,40,33,14,3.2,1.2
2023-02-26T08:00:00,1761A,123.8275,41.3064,本溪市,大峪,颗粒物(PM10),71,91,65,38,30,70,8,3,3,52,40,8,12,1.5,1.3
2023-02-26T08:00:00,1762A,123.7567,41.3325,本溪市,溪湖,细颗粒物(PM2.5),69,84,66,50,34,87,11,19,8,55,36,22,15,1.9,1.2
2023-02-26T08:00:00,1763A,123.7169,41.3094,本溪市,彩屯,细颗粒物(PM2.5),137,137,74,104,49,81,11,28,11,61,40,26,16,3.9,2
2023-02-26T08:00:00,1764A,123.7669,41.2864,本溪市,东明,颗粒物(PM10),63,75,73,39,35,80,13,6,6,53,51,14,18,1.4,1.5
2023-02-26T08:00:00,1765A,123.7992,41.2664,本溪市,新立屯,,33,29,45,23,27,81,19,17,15,41,46,9,20,0.8,1.1
2023-02-26T08:00:00,1766A,123.8142,41.3472,本溪市,威宁,颗粒物(PM10),74,98,70,49,32,73,17,10,9,43,37,7,8,1.2,1
2023-02-26T08:00:00,1767A,121.1115,41.0879,锦州市,南山,细颗粒物(PM2.5),113,90,65,85,49,92,17,12,12,40,31,29,24,1.3,0.9
2023-02-26T08:00:00,1768A,121.0533,40.8434,锦州市,开发区,,,166,106,116,48,76,14,10,10,74,50,68,36,1.7,0.8
2023-02-26T08:00:00,1769A,121.1836,41.1119,锦州市,百股街道,细颗粒物(PM2.5),95,112,72,71,41,88,14,11,11,43,43,27,22,1.6,1
2023-02-26T08:00:00,1770A,121.1178,41.1222,锦州市,天安街道,细颗粒物(PM2.5),124,129,70,94,45,90,13,22,18,54,35,37,24,2.0,1.1
2023-02-26T08:00:00,1771A,121.1303,41.1386,锦州市,北湖公园,细颗粒物(PM2.5),89,95,65,66,42,88,14,15,12,61,42,30,23,1.4,0.9
2023-02-26T08:00:00,1772A,126.54,43.8622,吉林市,哈达湾,,49,49,44,26,21,86,62,64,63,20,18,10,9,0.7,0.6
2023-02-26T08:00:00,1773A,126.5844,43.8358,吉林市,东局子,,46,46,41,26,23,81,42,63,56,33,24,22,11,0.6,0.6
2023-02-26T08:00:00,1774A,126.5052,43.8245,吉林市,电力学院,,44,44,46,28,31,89,62,61,60,19,23,12,14,0.9,1
2023-02-26T08:00:00,1775A,126.6133,43.8972,吉林市,江北,,46,46,38,25,23,86,52,72,68,30,22,33,17,0.7,0.7
2023-02-26T08:00:00,1776A,126.555,43.8306,吉林市,江南公园,颗粒物(PM10),51,52,43,29,27,82,42,61,56,36,23,22,11,0.5,0.4
2023-02-26T08:00:00,1778A,126.7061,43.7133,吉林市,丰满,,,,,,,,,,,,,,,,
2023-02-26T08:00:00,1779A,123.9305,47.3636,齐齐哈尔市,安居小区,,32,30,35,22,20,94,55,72,62,26,14,7,9,0.5,0.4
2023-02-26T08:00:00,1780A,123.9488,47.3386,齐齐哈尔市,中心广场,,28,28,22,6,11,88,35,72,54,46,18,8,9,0.8,0.5
2023-02-26T08:00:00,1781A,123.9483,47.3227,齐齐哈尔市,农牧车辆厂,,44,44,42,25,19,81,22,66,35,56,26,10,12,1.0,0.5
2023-02-26T08:00:00,1783A,123.945,47.2988,齐齐哈尔市,市环境监测站,颗粒物(PM10),59,67,41,28,24,93,47,63,56,34,19,27,13,1.3,0.4
2023-02-26T08:00:00,1784A,129.61,44.561,牡丹江市,环保大楼,"颗粒物(PM10),细颗粒物(PM2.5)",55,59,33,39,21,81,21,60,42,35,15,10,6,0.9,0.4
2023-02-26T08:00:00,1785A,129.6115,44.5782,牡丹江市,文化广场,颗粒物(PM10),67,84,34,44,26,76,12,55,39,56,21,6,4,1.3,0.4
2023-02-26T08:00:00,1786A,129.5904,44.5963,牡丹江市,第一医院,细颗粒物(PM2.5),55,58,33,39,25,84,22,43,32,44,17,7,3,1.1,0.5
2023-02-26T08:00:00,1787A,129.6364,44.6075,牡丹江市,机车工厂,颗粒物(PM10),81,112,42,51,25,82,15,15,12,45,24,1,3,1.1,0.5
2023-02-26T08:00:00,1788A,129.6386,44.5462,牡丹江市,第一中学,,43,43,25,23,20,81,19,62,40,39,16,6,3,0.6,0.3
2023-02-26T08:00:00,1789A,124.81117,46.03138,大庆市,大同区,细颗粒物(PM2.5),83,90,44,61,24,84,31,50,40,23,13,17,7,0.9,0.5
2023-02-26T08:00:00,1790A,125.129,46.533,大庆市,龙凤区,细颗粒物(PM2.5),62,69,41,44,28,77,29,45,34,23,23,8,10,0.7,0.6
2023-02-26T08:00:00,1791A,124.902,46.408,大庆市,红岗区,细颗粒物(PM2.5),64,48,32,46,28,88,20,58,43,35,16,7,7,0.5,0.3
2023-02-26T08:00:00,1792A,125.153,46.586,大庆市,萨尔图区,细颗粒物(PM2.5),124,115,45,94,31,81,12,50,35,50,24,8,8,1.1,0.5
2023-02-26T08:00:00,1793A,124.9042,46.6215,大庆市,让胡路区,细颗粒物(PM2.5),72,64,47,52,31,94,28,67,56,42,18,5,5,0.9,0.5
2023-02-26T08:00:00,1794A,118.3606,31.3519,芜湖市,监测站,,42,42,57,22,30,78,32,49,41,57,45,7,6,0.8,0.7
2023-02-26T08:00:00,1795A,118.3714,31.4134,芜湖市,科创中心,,44,44,62,27,32,77,19,55,32,58,46,6,6,0.5,0.6
2023-02-26T08:00:00,1796A,118.3673,31.3131,芜湖市,四水厂,,43,43,62,22,31,83,38,58,43,41,34,9,7,0.7,0.6
2023-02-26T08:00:00,1798A,118.5092,31.6837,马鞍山市,湖东路四小,,30,24,38,19,25,93,19,60,49,59,30,9,8,0.7,0.6
2023-02-26T08:00:00,1799A,118.5024,31.6449,马鞍山市,开发区,颗粒物(PM10),71,91,48,29,27,90,23,35,28,59,35,7,8,0.8,0.6
2023-02-26T08:00:00,1800A,118.5228,31.7231,马鞍山市,慈湖,颗粒物(PM10),72,93,51,41,31,88,9,68,44,75,32,11,10,1.0,0.7
2023-02-26T08:00:00,1802A,118.6245,31.7241,马鞍山市,濮塘,,28,22,44,19,25,94,77,72,72,9,16,4,4,0.7,0.7
2023-02-26T08:00:00,1803A,115.9872,29.6815,九江市,十里,细颗粒物(PM2.5),55,57,94,39,72,111,31,62,48,42,31,8,8,0.7,0.8
2023-02-26T08:00:00,1804A,115.9584,29.7046,九江市,茅山头,"颗粒物(PM10),细颗粒物(PM2.5)",55,59,88,39,69,104,39,72,56,30,27,14,11,0.8,0.9
2023-02-26T08:00:00,1805A,115.9877,29.7295,九江市,西园,细颗粒物(PM2.5),63,57,88,45,77,99,33,66,50,35,28,8,7,0.7,0.8
2023-02-26T08:00:00,1806A,116.0172,29.6547,九江市,五七二七厂,颗粒物(PM10),57,64,92,35,77,110,46,66,56,27,25,9,7,0.7,0.9
2023-02-26T08:00:00,1808A,115.9114,29.6038,九江市,综合工业园,细颗粒物(PM2.5),67,70,94,48,89,118,30,66,40,39,28,9,9,0.7,0.8
2023-02-26T08:00:00,1809A,116.0721,29.7535,九江市,石化总厂,颗粒物(PM10),54,58,98,34,70,104,34,68,47,39,35,9,7,0.6,0.7
2023-02-26T08:00:00,1810A,115.9773,29.5698,九江市,庐山气象台,,29,28,64,20,67,110,84,76,76,21,24,7,6,0.1,0.5
2023-02-26T08:00:00,1812A,112.3931,34.6516,洛阳市,市委党校,细颗粒物(PM2.5),137,161,119,104,74,60,10,59,39,65,41,8,10,1.1,0.8
2023-02-26T08:00:00,1814A,112.4657,34.6871,洛阳市,豫西宾馆,细颗粒物(PM2.5),145,133,103,111,72,64,6,4,4,58,47,5,5,1.0,0.8
2023-02-26T08:00:00,1815A,112.494,34.6886,洛阳市,河南林校,细颗粒物(PM2.5),125,135,103,95,67,70,4,2,2,56,50,4,6,1.1,0.8
2023-02-26T08:00:00,1816A,112.3844,34.623,洛阳市,开发区管委会,细颗粒物(PM2.5),158,160,113,120,81,72,11,60,41,50,38,4,8,0.8,0.6
2023-02-26T08:00:00,1817A,112.4267,34.6258,洛阳市,市委新办公区,细颗粒物(PM2.5),195,158,112,146,94,66,13,54,37,47,44,4,7,0.9,0.7
2023-02-26T08:00:00,1818A,114.4839,36.0621,安阳市,棉研所,,,,,,,,,,,,,,,,
2023-02-26T08:00:00,1819A,114.3551,36.1017,安阳市,红庙街,细颗粒物(PM2.5),138,148,89,105,63,93,5,4,4,85,58,10,12,1.2,0.9
2023-02-26T08:00:00,1820A,114.361,36.0681,安阳市,银杏小区,细颗粒物(PM2.5),142,150,84,108,65,94,6,5,5,72,52,9,10,1.1,0.8
2023-02-26T08:00:00,1824A,114.3389,34.7781,开封市,肿瘤医院,细颗粒物(PM2.5),176,221,137,133,112,100,5,30,19,57,38,8,9,1.0,1
2023-02-26T08:00:00,1826A,114.2885,34.7965,开封市,世纪星幼儿园,细颗粒物(PM2.5),128,120,131,97,113,104,24,46,32,43,35,12,11,0.9,0.9
2023-02-26T08:00:00,1828A,113.227,35.2125,焦作市,市环保局,细颗粒物(PM2.5),175,186,139,132,96,101,25,60,47,43,28,22,11,1.1,0.9
2023-02-26T08:00:00,1830A,113.1992,35.2590,焦作市,影视城,,,,,,,,,,,,,,,,
2023-02-26T08:00:00,1832A,113.3257,33.742,平顶山市,新华旅馆,细颗粒物(PM2.5),180,199,178,136,123,82,8,10,5,67,48,8,10,0.9,0.9
2023-02-26T08:00:00,1833A,113.2919,33.737,平顶山市,规划设计院,细颗粒物(PM2.5),155,155,174,118,125,78,17,5,5,58,53,5,7,0.9,1
2023-02-26T08:00:00,1834A,113.182,33.774,平顶山市,平顶山工学院,细颗粒物(PM2.5),170,187,171,129,109,68,4,9,5,49,43,7,7,0.8,0.8
2023-02-26T08:00:00,1835A,111.1922,34.7752,三门峡市,市政府,细颗粒物(PM2.5),183,119,111,138,101,54,33,43,40,30,30,13,10,1.0,0.9
2023-02-26T08:00:00,1836A,111.1587,34.7942,三门峡市,开发区,细颗粒物(PM2.5),183,190,147,138,102,58,40,46,44,33,32,17,13,1.0,0.7
2023-02-26T08:00:00,1838A,111.143,34.7955,三门峡市,风景区,,,,,,,,,,,,,,,,
2023-02-26T08:00:00,1840A,111.2992,30.6981,宜昌市,白龙岗,细颗粒物(PM2.5),138,124,91,105,75,89,58,39,39,33,35,7,4,0.7,0.6
2023-02-26T08:00:00,1841A,111.3549,30.6465,宜昌市,伍家岗,细颗粒物(PM2.5),144,125,98,110,78,97,62,28,28,27,33,13,9,0.6,0.6
2023-02-26T08:00:00,1842A,111.2628,30.6961,宜昌市,点军区,细颗粒物(PM2.5),134,120,102,102,76,94,59,26,26,28,28,8,5,0.7,0.6
2023-02-26T08:00:00,1843A,111.3275,30.7819,宜昌市,夷陵区,细颗粒物(PM2.5),117,73,72,88,75,95,51,54,42,31,29,8,7,0.5,0.5
2023-02-26T08:00:00,1844A,112.2494,30.3197,荆州市,市图书馆,细颗粒物(PM2.5),178,112,79,134,85,123,41,78,64,44,24,8,5,0.8,0.6
2023-02-26T08:00:00,1845A,112.2008,30.3544,荆州市,市委党校,细颗粒物(PM2.5),166,124,77,126,82,118,40,66,56,41,25,6,6,1.0,0.8
2023-02-26T08:00:00,1847A,113.1094,29.3578,岳阳市,南湖风景区,细颗粒物(PM2.5),102,82,66,76,52,114,38,80,62,37,24,8,7,0.8,0.5
2023-02-26T08:00:00,1848A,113.1493,29.4251,岳阳市,城陵矶,细颗粒物(PM2.5),97,89,66,72,46,103,27,64,47,54,39,8,6,0.7,0.6
2023-02-26T08:00:00,1849A,113.1497,29.3575,岳阳市,开发区,细颗粒物(PM2.5),125,92,68,95,71,107,3,10,6,46,26,9,8,0.8,0.8
2023-02-26T08:00:00,1850A,113.2621,29.4758,岳阳市,云溪区,细颗粒物(PM2.5),83,83,60,61,39,121,16,90,66,38,18,6,7,0.7,0.4
2023-02-26T08:00:00,1851A,112.9943,29.4402,岳阳市,君山区,细颗粒物(PM2.5),118,102,60,89,54,114,40,59,49,36,26,8,7,0.6,0.6
2023-02-26T08:00:00,1852A,113.2117,29.355,岳阳市,金凤水库,细颗粒物(PM2.5),90,84,62,67,45,112,70,96,76,10,12,5,6,0.7,0.7
2023-02-26T08:00:00,1854A,111.6975,28.9703,常德市,市二中,细颗粒物(PM2.5),100,89,72,75,60,88,20,32,28,23,20,8,5,0.6,0.5
2023-02-26T08:00:00,1857A,111.7158,29.1456,常德市,白鹤山,细颗粒物(PM2.5),108,119,71,81,49,106,67,106,88,12,10,6,5,0.8,0.7
2023-02-26T08:00:00,1858A,110.5319,29.1217,张家界市,永定新区,细颗粒物(PM2.5),72,63,75,52,58,93,18,53,36,27,17,4,4,0.7,0.6
2023-02-26T08:00:00,1859A,110.4697,29.1242,张家界市,电业局,细颗粒物(PM2.5),77,75,76,56,58,96,12,50,36,24,17,4,5,0.5,0.5
2023-02-26T08:00:00,1860A,110.5594,29.3547,张家界市,未央路,细颗粒物(PM2.5),67,62,75,48,59,86,13,44,28,22,16,5,5,0.8,0.8
2023-02-26T08:00:00,1861A,110.4417,29.315,张家界市,袁家界,细颗粒物(PM2.5),68,61,64,49,53,97,48,97,70,14,14,7,8,0.5,0.5
2023-02-26T08:00:00,1862A,110.4144,25.3167,桂林市,电子科大尧山校区,细颗粒物(PM2.5),54,44,31,38,27,105,91,97,96,13,10,6,5,0.7,0.6
2023-02-26T08:00:00,1863A,110.2819,25.2697,桂林市,监测站,细颗粒物(PM2.5),84,55,48,62,39,95,78,85,84,17,10,6,6,0.5,0.4
2023-02-26T08:00:00,1864A,110.3089,25.2708,桂林市,龙隐路小学,细颗粒物(PM2.5),79,51,41,58,38,100,84,85,85,14,11,8,8,0.5,0.4
2023-02-26T08:00:00,1865A,110.2869,25.2178,桂林市,八中,细颗粒物(PM2.5),82,39,36,60,38,91,73,81,80,21,14,6,6,0.6,0.3
2023-02-26T08:00:00,1866A,109.2262,21.588,北海市,牛尾岭水库,,38,24,41,26,33,101,51,71,60,9,12,8,10,0.6,0.6
2023-02-26T08:00:00,1867A,109.1436,21.4086,北海市,海滩公园,,42,34,47,29,31,126,62,100,76,9,11,6,8,0.4,0.5
2023-02-26T08:00:00,1868A,109.0981,21.4661,北海市,新市环保局,,42,30,49,29,36,130,66,98,77,10,12,5,6,0.5,0.6
2023-02-26T08:00:00,1869A,109.1778,21.5233,北海市,北海工业园,,39,33,50,27,38,122,63,93,73,9,12,10,8,0.5,0.6
2023-02-26T08:00:00,1870A,109.4856,24.3895,柳州市,柳东小学,,45,44,41,31,30,103,73,86,80,11,8,9,10,0.7,0.7
2023-02-26T08:00:00,1871A,109.4157,24.3277,柳州市,环保监测站,,40,33,37,28,28,101,73,86,80,12,10,6,7,0.3,0.3
2023-02-26T08:00:00,1872A,109.389,24.341,柳州市,河西水厂,细颗粒物(PM2.5),53,36,41,37,28,98,72,85,76,10,10,7,7,0.5,0.4
2023-02-26T08:00:00,1873A,109.4311,24.2921,柳州市,市四中,细颗粒物(PM2.5),53,36,36,37,27,104,76,89,81,14,11,11,9,0.6,0.6
2023-02-26T08:00:00,1874A,109.4006,24.3631,柳州市,市九中,,50,49,40,35,30,98,55,84,69,25,13,7,9,0.7,0.6
2023-02-26T08:00:00,1875A,109.4958,24.3134,柳州市,古亭山,,48,26,42,33,29,95,48,55,49,9,8,5,7,0.5,0.4
2023-02-26T08:00:00,1876A,109.5078,18.2489,三亚市,河东子站,,45,45,62,31,42,124,112,122,120,10,10,3,3,0.7,0.7
2023-02-26T08:00:00,1877A,109.4964,18.2681,三亚市,河西子站,,49,46,62,34,45,126,113,119,118,9,8,3,3,0.5,0.6
2023-02-26T08:00:00,1878A,104.7778,31.4741,绵阳市,富乐山,细颗粒物(PM2.5),90,76,67,67,53,124,27,8,8,21,30,3,4,0.6,0.5
2023-02-26T08:00:00,1879A,104.7563,31.4535,绵阳市,市人大,细颗粒物(PM2.5),84,79,76,62,57,110,1,1,1,48,45,5,6,0.9,0.7
2023-02-26T08:00:00,1880A,104.6697,31.4668,绵阳市,高新区自来水公司,细颗粒物(PM2.5),83,73,73,61,59,114,8,15,14,44,42,6,6,0.8,0.7
2023-02-26T08:00:00,1881A,104.7287,31.5075,绵阳市,三水厂,细颗粒物(PM2.5),80,84,82,59,56,115,0,4,3,41,42,5,4,1.0,0.7
2023-02-26T08:00:00,1882A,104.563,28.793,宜宾市,石马中学,颗粒物(PM10),58,65,43,36,26,92,0,1,0,45,37,11,8,0.8,0.6
2023-02-26T08:00:00,1883A,104.6201,28.7728,宜宾市,市委,颗粒物(PM10),66,81,55,47,34,93,2,2,2,51,43,20,14,0.6,0.7
2023-02-26T08:00:00,1884A,104.6055,28.793,宜宾市,宜宾四中,细颗粒物(PM2.5),72,82,60,52,36,97,2,1,0,56,46,19,14,1.1,0.8
2023-02-26T08:00:00,1885A,104.639,28.7562,宜宾市,市政府,细颗粒物(PM2.5),67,78,58,48,35,100,0,0,0,49,46,22,16,0.7,0.7
2023-02-26T08:00:00,1886A,104.5742,28.7199,宜宾市,黄金嘴,"颗粒物(PM10),细颗粒物(PM2.5)",55,60,55,39,34,92,2,2,2,38,41,8,9,0.6,0.5
2023-02-26T08:00:00,1888A,101.6891,26.571,攀枝花市,弄弄坪,颗粒物(PM10),52,53,47,29,25,98,40,56,53,27,21,26,14,1.1,0.9
2023-02-26T08:00:00,1889A,101.5769,26.5928,攀枝花市,河门口,细颗粒物(PM2.5),64,70,57,46,34,94,45,54,52,29,30,63,41,1.9,1.9
2023-02-26T08:00:00,1890A,101.7169,26.585,攀枝花市,炳草岗,颗粒物(PM10),52,53,45,28,23,98,28,54,49,43,29,32,17,1.3,0.8
2023-02-26T08:00:00,1891A,101.7369,26.5008,攀枝花市,仁和,细颗粒物(PM2.5),63,66,54,45,32,102,36,43,42,28,20,33,24,1.3,0.9
2023-02-26T08:00:00,1893A,105.4324,28.9634,泸州市,九狮山,,41,41,42,26,25,98,53,44,44,16,21,9,10,0.4,0.4
2023-02-26T08:00:00,1894A,105.4427,28.9063,泸州市,小市上码头,,50,50,43,31,29,94,54,40,40,28,28,7,10,0.7,0.7
2023-02-26T08:00:00,1895A,105.4241,28.8573,泸州市,兰田宪桥,颗粒物(PM10),54,58,47,36,32,100,17,20,19,44,34,9,9,0.7,0.6
2023-02-26T08:00:00,1896A,105.4379,28.8833,泸州市,市环监站,颗粒物(PM10),52,54,43,27,23,93,15,37,34,50,30,17,10,0.6,0.6
2023-02-26T08:00:00,1901A,104.4239,31.1208,德阳市,东山公园,细颗粒物(PM2.5),98,89,83,73,65,125,27,52,26,39,36,4,4,0.8,0.8
2023-02-26T08:00:00,1902A,104.3826,31.1317,德阳市,西小区,细颗粒物(PM2.5),109,90,83,82,68,117,9,7,7,54,43,4,5,1.0,0.7
2023-02-26T08:00:00,1904A,104.3553,31.1091,德阳市,耐火材料厂,细颗粒物(PM2.5),102,107,92,76,70,129,4,12,8,57,40,3,5,0.8,0.7
2023-02-26T08:00:00,1905A,106.056,30.8064,南充市,西山风景区,,,,,,,,,,,,,,,,
2023-02-26T08:00:00,1906A,106.0789,30.8023,南充市,南充市委,细颗粒物(PM2.5),77,84,87,56,50,116,3,10,6,28,44,8,11,1.0,0.8
2023-02-26T08:00:00,1907A,106.1031,30.8217,南充市,南充炼油厂,细颗粒物(PM2.5),72,77,83,52,56,114,0,0,0,33,41,8,12,0.9,0.8
2023-02-26T08:00:00,1908A,106.1064,30.7856,南充市,高坪区监测站,细颗粒物(PM2.5),72,72,78,52,57,109,3,4,3,34,50,9,12,0.8,0.9
2023-02-26T08:00:00,1909A,106.0642,30.7636,南充市,嘉陵区环保局,颗粒物(PM10),71,91,81,51,50,117,3,3,2,40,48,9,12,1.0,0.9
2023-02-26T08:00:00,1910A,106.1087,30.8388,南充市,市环境监测站,细颗粒物(PM2.5),74,75,80,54,57,107,1,19,8,44,47,10,16,0.8,0.7
2023-02-26T08:00:00,1911A,106.9222,27.6869,遵义市,丁字口,,49,38,44,34,34,105,9,19,15,37,35,25,36,1.0,1
2023-02-26T08:00:00,1912A,106.9242,27.7019,遵义市,凤凰山,颗粒物(PM10),52,54,43,33,27,107,52,100,67,25,21,12,10,0.7,0.7
2023-02-26T08:00:00,1913A,106.8906,27.6486,遵义市,忠庄,颗粒物(PM10),68,86,73,41,37,98,4,38,13,41,31,14,10,1.2,1
2023-02-26T08:00:00,1914A,106.9231,27.6506,遵义市,舟水桥,颗粒物(PM10),60,69,56,21,32,105,8,11,8,20,20,6,13,0.8,0.7
2023-02-26T08:00:00,1915A,106.9178,27.72,遵义市,干田坝,,38,38,40,23,27,106,7,14,10,36,39,10,18,0.8,0.8
2023-02-26T08:00:00,1916A,103.7897,25.5035,曲靖市,环境监测站,细颗粒物(PM2.5),59,65,45,42,28,78,76,71,71,17,15,18,8,0.6,0.6
2023-02-26T08:00:00,1917A,103.8,25.5364,曲靖市,烟厂办公区,,47,47,42,28,24,89,82,82,82,15,12,12,6,0.8,0.7
2023-02-26T08:00:00,1918A,108.7197,34.3956,咸阳市,气象站,细颗粒物(PM2.5),134,98,113,102,119,103,16,39,32,36,22,12,10,0.4,0.2
2023-02-26T08:00:00,1919A,108.673,34.3155,咸阳市,实验中学,细颗粒物(PM2.5),129,114,140,98,117,110,35,42,40,23,22,8,7,1.0,0.9
2023-02-26T08:00:00,1920A,108.7233,34.3617,咸阳市,师范学院,细颗粒物(PM2.5),128,116,132,97,115,102,16,43,37,42,25,8,7,0.9,0.8
2023-02-26T08:00:00,1922A,109.0656,35.0994,铜川市,党校,颗粒物(PM10),70,89,104,37,51,127,36,61,51,40,25,14,14,0.9,0.9
2023-02-26T08:00:00,1923A,109.0697,35.0697,铜川市,王益区政府,细颗粒物(PM2.5),105,108,108,79,94,120,8,56,31,50,28,7,7,0.9,0.8
2023-02-26T08:00:00,1924A,108.9344,34.9058,铜川市,新区管委会,细颗粒物(PM2.5),119,92,126,90,108,125,34,52,45,24,25,7,10,0.6,0.7
2023-02-26T08:00:00,1926A,109.4131,36.6275,延安市,枣园,细颗粒物(PM2.5),170,117,93,129,91,136,11,39,21,59,38,6,6,1.3,0.9
2023-02-26T08:00:00,1927A,109.4761,36.6028,延安市,延大医附院,细颗粒物(PM2.5),140,116,93,107,88,127,22,18,15,58,44,6,7,1.3,1.1
2023-02-26T08:00:00,1929A,109.5056,36.6106,延安市,百米大道,细颗粒物(PM2.5),156,139,105,119,95,113,8,23,13,64,48,5,6,1.4,1.2
2023-02-26T08:00:00,1930A,107.185,34.3063,宝鸡市,庙沟村,细颗粒物(PM2.5),143,120,137,109,125,107,23,44,33,32,35,4,5,0.9,0.9
2023-02-26T08:00:00,1931A,107.0708,34.3017,宝鸡市,竹园沟,细颗粒物(PM2.5),148,136,135,113,127,113,24,33,30,40,35,9,8,0.7,0.7
2023-02-26T08:00:00,1932A,107.1906,34.3672,宝鸡市,三陆医院,细颗粒物(PM2.5),125,112,153,95,134,111,43,52,43,26,34,7,8,0.8,0.9
2023-02-26T08:00:00,1933A,107.1431,34.3547,宝鸡市,监测站,细颗粒物(PM2.5),134,122,138,102,125,116,37,51,40,30,40,6,6,0.9,1
2023-02-26T08:00:00,1934A,107.1186,34.3739,宝鸡市,技工学校,细颗粒物(PM2.5),145,121,137,111,119,110,34,51,39,34,40,7,8,0.8,0.9
2023-02-26T08:00:00,1935A,107.3906,34.3528,宝鸡市,陈仓区环保局家属楼,细颗粒物(PM2.5),139,119,159,106,140,101,32,36,30,34,44,8,7,0.8,1
2023-02-26T08:00:00,1936A,107.2058,34.3497,宝鸡市,文理学院,细颗粒物(PM2.5),129,130,150,98,127,111,40,49,39,25,36,10,10,0.7,0.8
2023-02-26T08:00:00,1937A,107.2386,34.3622,宝鸡市,三迪小学,细颗粒物(PM2.5),125,123,152,95,133,106,39,46,39,29,40,11,11,0.8,0.9
2023-02-26T08:00:00,1938A,109.5293,34.5101,渭南市,农科所,细颗粒物(PM2.5),110,119,149,83,99,101,13,28,19,35,29,6,6,0.8,0.7
2023-02-26T08:00:00,1939A,109.4974,34.4877,渭南市,日报社,细颗粒物(PM2.5),124,129,144,94,97,101,5,37,15,39,34,12,11,0.6,0.7
2023-02-26T08:00:00,1940A,109.4636,34.493,渭南市,体育馆,细颗粒物(PM2.5),134,119,148,102,111,116,23,44,34,40,30,7,5,0.9,0.7
2023-02-26T08:00:00,1941A,109.4259,34.5023,渭南市,高新一小,细颗粒物(PM2.5),128,107,133,97,113,104,28,41,32,32,28,10,9,0.9,0.7
2023-02-26T08:00:00,1943A,102.1725,38.5339,金昌市,新川苑,颗粒物(PM10),76,102,113,33,40,106,45,47,47,33,29,7,20,0.9,0.9
2023-02-26T08:00:00,1944A,102.1692,38.5167,金昌市,天庆家园,颗粒物(PM10),74,98,102,46,45,111,34,46,45,46,37,7,32,1.0,1
2023-02-26T08:00:00,1945A,98.2908,39.7711,嘉峪关市,气象局,颗粒物(PM10),76,102,76,22,23,100,55,57,57,23,35,15,6,0.3,0.2
2023-02-26T08:00:00,1947A,106.3394,38.817,石嘴山市,沙湖旅游区,颗粒物(PM10),71,92,134,49,42,158,9,35,22,37,36,18,27,1.0,1
2023-02-26T08:00:00,1948A,106.3668,39.0145,石嘴山市,大武口朝阳西街,细颗粒物(PM2.5),83,82,78,61,39,134,16,62,28,54,40,77,55,1.4,0.9
2023-02-26T08:00:00,1949A,106.7704,39.2282,石嘴山市,惠农南大街,细颗粒物(PM2.5),87,73,57,64,34,112,25,60,39,40,28,16,19,0.7,0.5
2023-02-26T08:00:00,1950A,106.7099,39.1325,石嘴山市,红果子镇惠新街,细颗粒物(PM2.5),77,64,56,56,31,112,30,60,37,33,24,6,12,0.7,0.5
2023-02-26T08:00:00,1951A,84.895,45.6094,克拉玛依市,长征新村,,29,23,78,2,38,122,90,88,88,2,31,5,7,0.2,0.5
2023-02-26T08:00:00,1952A,84.8988,45.5893,克拉玛依市,南林小区,,28,28,84,13,49,120,88,87,87,7,31,1,2,0.1,0.5
2023-02-26T08:00:00,1954A,84.905,44.3396,克拉玛依市,独山子区,颗粒物(PM10),51,52,141,10,77,212,90,122,100,4,26,5,6,0.3,0.8
2023-02-26T08:00:00,1955A,85.6979,46.098,克拉玛依市,乌尔禾区商贸楼,颗粒物(PM10),97,144,93,3,52,121,86,97,85,5,25,4,6,0.2,0.8
2023-02-26T08:00:00,1956A,86.1472,41.7538,巴音郭楞州,孔雀公园,颗粒物(PM10),97,143,213,55,60,107,58,19,19,33,49,4,5,0.7,0.7
2023-02-26T08:00:00,1957A,86.1972,41.7166,巴音郭楞州,棉纺厂,颗粒物(PM10),119,187,281,42,63,96,59,27,27,29,37,3,4,0.3,0.3
2023-02-26T08:00:00,1958A,86.2357,41.7173,巴音郭楞州,经济开发区,颗粒物(PM10),91,131,216,35,47,97,81,56,56,12,20,5,6,0.5,0.4
2023-02-26T08:00:00,1961A,117.532,36.6868,济南市,东山小学,颗粒物(PM10),74,98,54,44,18,94,32,40,32,60,37,7,6,0.7,0.5
2023-02-26T08:00:00,1966A,120.0405,35.8735,青岛市,黄岛区4号,细颗粒物(PM2.5),58,63,54,41,31,94,58,48,48,46,40,17,14,0.7,0.7
2023-02-26T08:00:00,1982A,122.0693,37.2174,威海市,文登开发区,细颗粒物(PM2.5),83,100,47,61,26,79,10,57,36,47,20,6,5,1.5,0.6
2023-02-26T08:00:00,2031A,113.1817,27.9958,株洲市,云田中学,细颗粒物(PM2.5),122,110,64,92,54,98,63,59,59,26,25,7,6,0.6,0.5
2023-02-26T08:00:00,2054A,114.1099,32.1059,信阳市,平桥分局,细颗粒物(PM2.5),99,85,152,74,117,82,3,38,8,30,34,8,10,0.8,0.7
2023-02-26T08:00:00,2064A,113.9956,32.1271,信阳市,南湾水厂,细颗粒物(PM2.5),62,67,138,44,109,85,24,48,39,15,24,6,8,0.8,0.9
2023-02-26T08:00:00,2065A,114.0775,32.1195,信阳市,市酿酒公司,细颗粒物(PM2.5),98,89,136,73,119,94,1,32,4,32,39,8,9,0.9,0.8
2023-02-26T08:00:00,2066A,114.0609,32.1399,信阳市,审计局,细颗粒物(PM2.5),139,143,154,106,127,85,6,4,4,47,45,8,9,1.0,1
2023-02-26T08:00:00,2067A,114.6613,33.6128,周口市,市环境监测站,颗粒物(PM10),57,64,92,30,60,94,40,46,45,38,31,8,11,0.5,0.6
2023-02-26T08:00:00,2068A,114.6758,33.6347,周口市,周口师范,,41,41,80,27,54,99,50,60,58,32,27,10,13,0.6,0.6
2023-02-26T08:00:00,2069A,114.6546,33.5979,周口市,市运管处,"颗粒物(PM10),细颗粒物(PM2.5)",55,59,91,39,65,99,38,56,50,36,28,8,10,0.4,0.5
2023-02-26T08:00:00,2070A,114.6369,33.6406,周口市,川汇区环保局,细颗粒物(PM2.5),52,48,80,36,61,96,51,53,52,29,27,7,10,0.4,0.5
2023-02-26T08:00:00,2075A,117.6336,24.4674,漳州市,九湖,,,,,,,,,,,,,,,,
2023-02-26T08:00:00,2160A,112.85,35.5051,晋城市,自来水公司,细颗粒物(PM2.5),134,156,126,102,90,102,14,28,12,50,39,9,9,1.3,0.8
2023-02-26T08:00:00,2161A,112.8318,35.4936,晋城市,白云商贸,细颗粒物(PM2.5),149,164,130,114,89,94,17,34,26,49,43,6,7,1.5,1
2023-02-26T08:00:00,2162A,112.8508,35.4887,晋城市,市环保局,细颗粒物(PM2.5),132,144,130,100,92,101,6,15,7,65,48,10,10,1.2,1
2023-02-26T08:00:00,2163A,112.8676,35.4897,晋城市,技术学院,细颗粒物(PM2.5),140,155,126,107,95,101,11,36,16,61,43,8,7,1.3,1.1
2023-02-26T08:00:00,2165A,112.8453,35.546,晋城市,白马寺,,,,,,,,,,,,,,,,
2023-02-26T08:00:00,2166A,112.4397,39.3522,朔州市,平朔,颗粒物(PM10),147,244,111,74,51,84,7,8,7,70,42,47,20,1.1,0.7
2023-02-26T08:00:00,2167A,112.4575,39.3617,朔州市,朔唯,颗粒物(PM10),144,237,157,79,58,88,3,3,2,52,37,37,28,0.8,0.8
2023-02-26T08:00:00,2168A,112.4258,39.3197,朔州市,区政府,细颗粒物(PM2.5),97,101,84,72,50,88,17,17,17,54,34,19,16,0.9,0.8
2023-02-26T08:00:00,2169A,112.4072,39.3278,朔州市,市环保局,细颗粒物(PM2.5),117,131,85,88,55,82,5,28,16,58,38,24,18,0.9,0.7
2023-02-26T08:00:00,2170A,112.4272,39.3681,朔州市,市二中,颗粒物(PM10),150,249,138,78,52,83,6,6,6,59,38,38,18,1.0,0.7
2023-02-26T08:00:00,2171A,112.7532,37.6945,晋中市,锦纶小区,细颗粒物(PM2.5),128,118,97,97,90,109,6,22,11,47,39,9,9,0.8,0.7
2023-02-26T08:00:00,2173A,112.7249,37.7067,晋中市,南都小区,细颗粒物(PM2.5),105,129,113,79,80,106,8,37,17,49,40,8,8,0.8,0.7
2023-02-26T08:00:00,2174A,112.6991,37.6982,晋中市,榆次区政府,细颗粒物(PM2.5),105,129,121,79,74,103,7,47,20,52,39,7,7,0.9,0.8
2023-02-26T08:00:00,2175A,110.9956,35.0147,运城市,运城中学,细颗粒物(PM2.5),108,96,118,81,82,70,64,66,65,14,16,6,6,0.4,0.4
2023-02-26T08:00:00,2178A,110.9686,35.0303,运城市,地区技校,细颗粒物(PM2.5),95,114,126,71,80,82,50,70,66,29,18,5,5,0.8,0.7
2023-02-26T08:00:00,2179A,111.0414,35.1147,运城市,空港新区,细颗粒物(PM2.5),148,136,134,113,101,80,29,69,50,42,20,29,13,0.9,0.7
2023-02-26T08:00:00,2181A,112.7383,38.4519,忻州市,开发区,细颗粒物(PM2.5),84,100,78,62,60,83,9,9,9,40,40,6,8,1.6,1.5
2023-02-26T08:00:00,2182A,112.7003,38.4928,忻州市,会展中心,细颗粒物(PM2.5),82,87,73,60,54,80,6,7,5,44,45,5,6,0.6,0.5
2023-02-26T08:00:00,2183A,111.1406,37.5211,吕梁市,环保局,颗粒物(PM10),92,134,127,66,65,82,5,8,5,62,61,12,14,0.8,0.8
2023-02-26T08:00:00,2185A,111.1297,37.5136,吕梁市,自来水公司,颗粒物(PM10),106,161,132,60,60,83,4,20,8,60,53,17,17,0.9,0.9
2023-02-26T08:00:00,2187A,106.8174,39.6973,乌海市,市林业局,颗粒物(PM10),79,108,89,51,38,114,4,85,18,54,35,16,19,1.6,1.2
2023-02-26T08:00:00,2188A,106.7907,39.6667,乌海市,中海勃湾学校,颗粒物(PM10),91,132,77,55,35,115,7,42,24,41,32,11,20,1.2,0.9
2023-02-26T08:00:00,2191A,122.2532,43.6801,通辽市,艺术职业学校,,35,35,36,11,12,85,45,58,55,20,16,9,9,0.3,0.3
2023-02-26T08:00:00,2192A,119.7594,49.2261,呼伦贝尔市,区环保局,,23,23,29,12,17,78,72,51,51,6,18,5,5,0.4,0.5
2023-02-26T08:00:00,2195A,107.4212,40.761,巴彦淖尔市,附二中,颗粒物(PM10),83,116,95,37,29,81,33,41,37,31,24,8,11,0.8,0.6
2023-02-26T08:00:00,2196A,107.37,40.7372,巴彦淖尔市,市环保大楼,颗粒物(PM10),77,103,78,45,34,91,42,47,44,28,25,16,10,0.8,0.6
2023-02-26T08:00:00,2197A,113.1306,40.9923,乌兰察布市,集宁新区,,33,31,29,23,17,86,10,12,9,54,36,12,12,0.8,0.7
2023-02-26T08:00:00,2200A,122.0392,46.0656,兴安盟,胜华新制药厂,,36,27,19,25,12,84,31,75,65,40,12,6,4,0.8,0.5
2023-02-26T08:00:00,2201A,121.9504,46.0741,兴安盟,科右前旗环保局,,22,22,17,14,12,85,50,77,70,30,10,2,2,0.6,0.4
2023-02-26T08:00:00,2202A,116.1042,43.9317,锡林郭勒盟,市环保监测站,,20,5,14,14,6,86,60,56,56,8,7,8,7,0.3,0.2
2023-02-26T08:00:00,2203A,116.0781,43.9311,锡林郭勒盟,市政府,,16,16,17,10,6,88,37,58,53,28,12,4,7,0.4,0.2
2023-02-26T08:00:00,2204A,105.6467,38.8363,阿拉善盟,西城区西花园,,44,44,64,22,27,117,54,91,78,34,20,9,12,0.7,0.6
2023-02-26T08:00:00,2205A,105.6985,38.8411,阿拉善盟,蒙二幼,,40,36,58,28,34,119,71,98,85,22,15,11,12,0.6,0.5
2023-02-26T08:00:00,2206A,105.724,38.8516,阿拉善盟,环保局新楼,,40,36,46,28,30,120,93,102,97,6,9,8,10,0.5,0.5
2023-02-26T08:00:00,2207A,121.6094,41.998,阜新市,工业园区,颗粒物(PM10),169,288,127,76,56,70,6,8,5,38,33,19,18,1.7,1.2
2023-02-26T08:00:00,2208A,121.6697,42.0279,阜新市,长青街,细颗粒物(PM2.5),99,126,70,74,39,89,9,9,8,44,31,20,16,1.6,1.1
2023-02-26T08:00:00,2209A,121.6673,42.0705,阜新市,农业园区,细颗粒物(PM2.5),77,58,53,56,35,80,44,33,33,26,20,73,22,1.4,0.8
2023-02-26T08:00:00,2210A,121.6717,42.0224,阜新市,东苑,细颗粒物(PM2.5),108,138,85,81,52,82,5,6,4,48,31,22,17,1.5,0.9
2023-02-26T08:00:00,2211A,121.6506,42.0498,阜新市,玉龙新城,细颗粒物(PM2.5),100,100,84,75,42,86,7,6,5,40,28,17,13,1.3,1
2023-02-26T08:00:00,2212A,123.2,41.1953,辽阳市,宏伟区,,32,25,39,22,26,88,41,44,42,28,29,12,18,0.9,0.9
2023-02-26T08:00:00,2213A,123.1683,41.2495,辽阳市,新华园,细颗粒物(PM2.5),60,51,54,43,35,96,18,37,29,54,41,27,26,1.6,1.3
2023-02-26T08:00:00,2214A,123.2354,41.2639,辽阳市,滨河路,细颗粒物(PM2.5),58,46,51,41,37,82,36,40,39,34,33,22,16,1.1,0.9
2023-02-26T08:00:00,2215A,123.149,41.2991,辽阳市,铁西工业园,细颗粒物(PM2.5),110,93,68,83,44,84,5,24,16,58,42,16,20,2.0,1.4
2023-02-26T08:00:00,2216A,123.8139,42.3022,铁岭市,汇工街西,细颗粒物(PM2.5),189,132,69,142,50,90,15,14,14,62,44,44,35,1.9,0.8
2023-02-26T08:00:00,2217A,123.8649,42.2923,铁岭市,水上乐园,细颗粒物(PM2.5),95,97,70,71,47,92,30,29,24,42,36,30,18,1.6,0.8
2023-02-26T08:00:00,2218A,123.8486,42.2867,铁岭市,银州路东段,细颗粒物(PM2.5),82,97,67,60,40,88,16,24,17,54,45,26,14,1.4,0.7
2023-02-26T08:00:00,2219A,123.7153,42.2217,铁岭市,金沙江路北,细颗粒物(PM2.5),89,85,81,66,47,82,16,12,12,61,50,33,19,1.8,0.8
2023-02-26T08:00:00,2220A,120.4318,41.5881,朝阳市,西梁,细颗粒物(PM2.5),117,115,69,88,48,82,9,14,11,45,39,32,16,2.0,1.2
2023-02-26T08:00:00,2221A,120.4521,41.5646,朝阳市,河畔小区,颗粒物(PM10),58,66,54,30,31,88,30,30,30,30,30,26,13,1.1,0.9
2023-02-26T08:00:00,2222A,120.4176,41.5648,朝阳市,八里堡,细颗粒物(PM2.5),65,77,61,47,37,93,12,9,9,44,38,27,17,1.4,1
2023-02-26T08:00:00,2223A,120.3806,41.5969,朝阳市,农业园区,颗粒物(PM10),71,92,64,50,35,84,10,9,7,43,37,23,14,1.5,1
2023-02-26T08:00:00,2225A,124.4002,43.1713,四平市,一商场,细颗粒物(PM2.5),72,81,81,52,47,76,40,26,26,45,36,25,12,1.0,0.5
2023-02-26T08:00:00,2226A,124.388,43.193,四平市,境园,颗粒物(PM10),65,79,70,44,39,79,30,26,25,42,33,20,10,0.9,0.4
2023-02-26T08:00:00,2227A,125.1358,42.8845,辽源市,环保局,细颗粒物(PM2.5),67,63,43,48,31,89,22,18,17,46,29,17,10,0.9,0.5
2023-02-26T08:00:00,2229A,125.9358,41.7173,通化市,光明,颗粒物(PM10),54,57,46,36,26,86,14,34,21,56,36,37,18,0.6,0.6
2023-02-26T08:00:00,2230A,125.9446,41.7325,通化市,铁路,颗粒物(PM10),74,97,49,37,32,92,13,6,6,51,40,16,20,1.0,0.6
2023-02-26T08:00:00,2231A,126.4219,41.9171,白山市,喜丰,颗粒物(PM10),59,68,57,35,28,82,28,35,33,35,26,26,15,1.0,0.9
2023-02-26T08:00:00,2232A,126.4077,41.9419,白山市,环保局,颗粒物(PM10),77,104,75,41,31,80,21,19,15,39,33,30,19,1.1,1
2023-02-26T08:00:00,2233A,124.8006,45.1214,松原市,江南,,48,35,43,33,17,73,28,43,38,18,13,7,7,0.4,0.3
2023-02-26T08:00:00,2234A,124.7965,45.1722,松原市,江北,,32,32,32,14,13,75,38,47,43,17,12,6,5,0.5,0.5
2023-02-26T08:00:00,2235A,122.7911,45.6077,白城市,洮北区环保局,,36,36,37,15,16,96,54,67,64,19,12,4,3,0.3,0.3
2023-02-26T08:00:00,2236A,122.8738,45.5725,白城市,市环保局,,48,48,39,16,19,97,36,53,49,34,20,8,4,0.5,0.3
2023-02-26T08:00:00,2237A,129.47,42.8883,延边朝鲜族自治州,妇幼医院,细颗粒物(PM2.5),69,54,29,50,17,88,32,75,60,42,16,35,16,0.9,0.5
2023-02-26T08:00:00,2238A,129.5055,42.9108,延边朝鲜族自治州,延边医院,,46,46,24,30,13,88,36,78,61,43,13,18,10,0.8,0.5
2023-02-26T08:00:00,2239A,129.3964,42.8881,延边朝鲜族自治州,朝阳川镇医院,,42,34,28,29,12,90,55,73,64,15,7,7,7,0.8,0.5
2023-02-26T08:00:00,2240A,130.9762,45.3001,鸡西市,环保局,,36,36,23,24,14,75,38,74,66,43,13,11,4,0.4,0.1
2023-02-26T08:00:00,2243A,130.9429,45.3039,鸡西市,第一中学,,46,46,20,22,14,80,53,79,67,20,5,8,5,0.4,0.3
2023-02-26T08:00:00,2244A,130.2537,47.3416,鹤岗市,哈啤分公司,,49,49,20,28,15,86,67,86,78,27,8,14,9,0.6,0.3
2023-02-26T08:00:00,2245A,130.2684,47.3086,鹤岗市,斯达机电,颗粒物(PM10),68,85,34,38,19,88,49,88,73,44,12,12,7,0.4,0.3
2023-02-26T08:00:00,2246A,130.3114,47.3388,鹤岗市,东山纸板厂,,,,35,47,17,85,27,83,60,40,8,17,9,1.2,0.3
2023-02-26T08:00:00,2247A,130.1097,47.3382,鹤岗市,五号水库,,21,14,18,14,15,92,66,92,79,6,5,6,7,0.5,0.4
2023-02-26T08:00:00,2248A,131.1511,46.6937,双鸭山市,双合村,细颗粒物(PM2.5),72,80,24,52,21,87,49,87,67,38,11,16,11,1.2,0.3
2023-02-26T08:00:00,2249A,131.1652,46.6191,双鸭山市,南小市,颗粒物(PM10),59,68,34,19,18,88,59,77,68,22,10,20,10,0.4,0.3
2023-02-26T08:00:00,2250A,131.1524,46.6554,双鸭山市,环保局,,42,34,29,29,21,91,51,81,64,40,18,13,12,0.4,0.3
2023-02-26T08:00:00,2251A,131.12,46.5656,双鸭山市,苗圃,,42,38,33,29,29,94,81,92,82,10,9,5,5,0.2,0.1
2023-02-26T08:00:00,2252A,128.5159,47.4311,伊春市,环保局,,45,34,27,31,22,84,38,70,58,33,13,5,6,0.7,0.5
2023-02-26T08:00:00,2253A,128.9102,47.7412,伊春市,电力嘉园,,29,29,32,18,23,97,46,66,58,27,10,6,6,0.7,0.5
2023-02-26T08:00:00,2254A,129.5029,48.471,伊春市,汤旺河国家公园,,22,22,21,11,11,82,46,49,43,7,3,5,6,0.1,0.2
2023-02-26T08:00:00,2255A,130.2751,46.8028,佳木斯市,佳纺,颗粒物(PM10),58,66,40,40,20,79,28,64,48,58,22,18,7,1.1,0.4
2023-02-26T08:00:00,2256A,130.3995,46.8307,佳木斯市,发电厂,,48,48,21,31,15,82,30,80,46,49,20,7,4,0.7,0.4
2023-02-26T08:00:00,2257A,130.3258,46.7975,佳木斯市,环保局,,35,35,23,22,15,74,19,68,51,63,19,10,5,0.8,0.5
2023-02-26T08:00:00,2258A,130.3648,46.8032,佳木斯市,十一中,,43,31,23,30,18,77,25,76,51,63,24,8,7,0.9,0.5
2023-02-26T08:00:00,2259A,130.3794,46.7588,佳木斯市,四丰,,43,17,16,12,13,138,136,138,135,5,6,1,1,0.2,0.2
2023-02-26T08:00:00,2262A,131.0518,45.8751,七台河市,新一中,,32,30,19,22,14,93,68,89,79,18,9,7,6,0.1,0.2
2023-02-26T08:00:00,2263A,127.4833,50.2524,黑河市,交通局,,29,29,16,17,12,85,50,64,62,19,12,7,5,0.7,0.5
2023-02-26T08:00:00,2264A,127.5144,50.2341,黑河市,环保局,,48,46,20,33,15,87,29,65,54,37,14,11,5,0.8,0.4
2023-02-26T08:00:00,2265A,127.5291,50.2472,黑河市,大黑河岛,,16,13,15,11,10,88,48,62,60,4,5,14,10,0.6,0.4
2023-02-26T08:00:00,2266A,126.9785,46.6365,绥化市,人和东街,细颗粒物(PM2.5),59,62,52,42,36,98,28,37,29,30,25,5,6,0.6,0.4
2023-02-26T08:00:00,2267A,126.964,46.6528,绥化市,党政办公中心,细颗粒物(PM2.5),70,62,42,51,37,96,44,53,42,19,18,6,6,0.4,0.3
2023-02-26T08:00:00,2269A,124.1069,50.4097,大兴安岭地区,科技局,,22,12,14,10,15,95,68,82,74,6,8,5,7,0.2,0.3
2023-02-26T08:00:00,2270A,117.396,32.939,蚌埠市,工人疗养院,细颗粒物(PM2.5),89,90,43,66,31,93,56,78,66,31,21,38,9,0.8,0.3
2023-02-26T08:00:00,2271A,117.3605,32.9427,蚌埠市,百货大楼,细颗粒物(PM2.5),57,56,49,40,26,91,48,75,68,36,20,10,3,0.6,0.5
2023-02-26T08:00:00,2273A,117.4185,32.8911,蚌埠市,蚌埠学院,细颗粒物(PM2.5),62,70,50,44,24,93,49,58,49,33,29,11,7,0.6,0.3
2023-02-26T08:00:00,2274A,117.3533,32.9673,蚌埠市,淮上区政府,颗粒物(PM10),56,61,48,29,22,92,64,72,70,27,21,12,5,0.5,0.4
2023-02-26T08:00:00,2275A,117.3145,32.8977,蚌埠市,高新区,颗粒物(PM10),57,63,43,36,25,90,13,38,31,51,26,5,4,0.5,0.4
2023-02-26T08:00:00,2277A,116.8305,32.7727,淮南市,潘集区政府,细颗粒物(PM2.5),63,65,62,45,43,80,49,45,45,27,24,11,5,0.5,0.4
2023-02-26T08:00:00,2278A,117.0067,32.6524,淮南市,师范学院,细颗粒物(PM2.5),75,56,52,55,33,77,52,75,66,25,23,11,10,0.4,0.4
2023-02-26T08:00:00,2279A,116.8569,32.5951,淮南市,谢家集区政府,颗粒物(PM10),56,61,56,38,32,83,40,74,62,40,27,21,13,0.4,0.4
2023-02-26T08:00:00,2280A,116.8281,32.633,淮南市,八公山区政府,颗粒物(PM10),57,63,51,31,26,79,44,73,64,32,19,10,8,0.4,0.3
2023-02-26T08:00:00,2281A,116.6325,32.6201,淮南市,焦岗湖风景区管理处,,50,50,56,35,34,72,23,30,27,38,40,5,5,0.6,0.5
2023-02-26T08:00:00,2282A,116.8004,33.975,淮北市,监测站,颗粒物(PM10),63,76,56,43,26,93,25,50,44,56,27,7,7,0.8,0.6
2023-02-26T08:00:00,2283A,116.8091,33.9007,淮北市,烈山区政府,颗粒物(PM10),79,108,72,48,36,99,20,10,10,72,54,16,9,0.5,0.4
2023-02-26T08:00:00,2284A,116.7856,33.9477,淮北市,职业技术学院,颗粒物(PM10),69,87,59,48,29,94,18,41,31,67,37,10,9,0.6,0.5
2023-02-26T08:00:00,2285A,117.8177,30.9412,铜陵市,市第四中学,,48,48,76,31,49,96,18,52,41,43,31,6,7,0.4,0.4
2023-02-26T08:00:00,2286A,117.8059,30.9273,铜陵市,市公路局,,49,49,73,29,53,96,28,52,43,33,26,2,2,0.7,0.7
2023-02-26T08:00:00,2287A,117.7807,30.9413,铜陵市,市新民污水厂,,50,38,74,35,44,103,29,57,46,35,32,3,4,0.5,0.5
2023-02-26T08:00:00,2288A,117.7439,30.8792,铜陵市,市第九中学,,43,28,80,30,55,100,46,43,42,39,35,8,8,0.7,0.8
2023-02-26T08:00:00,2289A,117.846,30.9413,铜陵市,车站新区,,46,46,70,28,46,107,15,56,42,44,28,6,7,0.8,0.8
2023-02-26T08:00:00,2290A,117.8483,30.97,铜陵市,市职教基地,,50,50,71,33,43,97,34,54,46,23,22,1,2,0.2,0.2
2023-02-26T08:00:00,2291A,117.0809,30.5177,安庆市,环科院,颗粒物(PM10),51,52,97,29,70,108,42,61,40,30,32,8,7,0.6,0.7
2023-02-26T08:00:00,2292A,117.0331,30.5119,安庆市,马山宾馆,颗粒物(PM10),53,56,101,25,67,106,43,61,47,29,29,9,7,0.6,0.7
2023-02-26T08:00:00,2294A,116.9896,30.6145,安庆市,安庆大学,颗粒物(PM10),51,52,94,26,62,104,40,58,48,26,26,8,7,0.6,0.8
2023-02-26T08:00:00,2295A,118.2903,29.6963,黄山市,延安路89号,细颗粒物(PM2.5),72,47,65,52,68,123,10,46,25,16,16,5,5,0.4,0.5
2023-02-26T08:00:00,2296A,118.327,29.7178,黄山市,黄山东路89号,细颗粒物(PM2.5),74,49,74,54,64,120,24,57,31,25,19,5,5,0.4,0.5
2023-02-26T08:00:00,2297A,118.1371,30.2756,黄山市,黄山区政府5号楼,,42,40,75,29,55,107,25,26,22,18,21,6,6,0.4,0.5
2023-02-26T08:00:00,2298A,118.3093,32.3153,滁州市,老年大学,细颗粒物(PM2.5),62,70,45,44,32,98,10,37,18,35,29,6,6,0.7,0.5
2023-02-26T08:00:00,2299A,118.3244,32.2786,滁州市,人大宾馆,颗粒物(PM10),56,61,48,38,32,94,14,33,26,37,27,5,5,0.6,0.3
2023-02-26T08:00:00,2301A,115.8277,32.8929,阜阳市,市监测站,颗粒物(PM10),56,61,57,39,40,85,46,29,28,28,34,6,6,0.4,0.4
2023-02-26T08:00:00,2303A,115.8554,32.8605,阜阳市,开发区,颗粒物(PM10),62,73,72,39,41,81,48,47,42,30,34,7,8,0.5,0.6
2023-02-26T08:00:00,2307A,116.5079,31.737,六安市,监测大楼,颗粒物(PM10),53,55,67,33,48,101,45,68,55,31,26,6,6,0.4,0.4
2023-02-26T08:00:00,2308A,116.4738,31.7643,六安市,皖西学院,细颗粒物(PM2.5),57,57,71,40,45,102,51,74,58,23,24,5,4,0.4,0.4
2023-02-26T08:00:00,2309A,116.4996,31.7905,六安市,朝阳厂,细颗粒物(PM2.5),65,51,59,47,45,108,46,72,58,31,31,5,6,0.5,0.5
2023-02-26T08:00:00,2310A,116.5567,31.7886,六安市,开发区,细颗粒物(PM2.5),79,93,80,58,48,102,26,59,41,34,27,6,6,0.4,0.4
2023-02-26T08:00:00,2311A,115.8072,33.8399,亳州市,污水处理厂,颗粒物(PM10),59,68,58,35,39,79,32,36,28,40,26,8,11,0.4,0.4
2023-02-26T08:00:00,2312A,115.7789,33.8518,亳州市,三国揽胜宫,细颗粒物(PM2.5),60,60,67,43,42,90,54,56,32,20,25,6,8,0.4,0.4
2023-02-26T08:00:00,2314A,117.47,30.6618,池州市,池州学院,,48,46,89,33,71,105,44,52,50,21,27,6,7,0.6,0.8
2023-02-26T08:00:00,2316A,118.7581,30.9454,宣城市,鳌峰子站,颗粒物(PM10),57,64,71,38,41,90,18,60,39,41,22,13,7,0.8,0.6
2023-02-26T08:00:00,2317A,118.7385,30.9743,宣城市,敬亭山子站,,50,50,69,31,41,95,45,49,47,22,25,8,7,0.5,0.4
2023-02-26T08:00:00,2318A,118.7173,30.9427,宣城市,开发区子站,颗粒物(PM10),52,54,69,34,43,86,24,57,40,37,24,7,5,0.8,0.7
2023-02-26T08:00:00,2319A,119.0141,25.4325,莆田市,荔城区仓后路,,49,49,66,29,43,141,86,112,99,10,10,7,8,0.6,0.7
2023-02-26T08:00:00,2320A,119.0015,25.4553,莆田市,莆田市监测站,,50,43,64,35,44,150,85,116,100,10,11,6,7,0.5,0.5
2023-02-26T08:00:00,2321A,119.1119,25.4561,莆田市,涵江区六中,,39,39,64,24,47,145,82,108,94,13,17,6,7,0.5,0.5
2023-02-26T08:00:00,2322A,119.1013,25.3215,莆田市,秀屿区政府,,46,46,63,29,49,140,79,106,92,14,14,5,5,0.4,0.5
2023-02-26T08:00:00,2323A,118.981,25.4792,莆田市,东圳水库,,,,,,,,,,,,,,,,
2023-02-26T08:00:00,2324A,117.6211,26.2625,三明市,三钢,细颗粒物(PM2.5),85,57,38,63,32,105,84,87,87,23,21,9,7,0.6,0.5
2023-02-26T08:00:00,2325A,117.635,26.2714,三明市,三明二中,细颗粒物(PM2.5),75,49,37,55,30,100,82,89,88,25,27,6,4,0.6,0.5
2023-02-26T08:00:00,2326A,117.6028,26.2378,三明市,三元区政府,细颗粒物(PM2.5),102,63,45,76,38,96,85,73,73,23,23,13,11,0.5,0.6
2023-02-26T08:00:00,2327A,117.7275,26.3108,三明市,洋溪,,,,,,,,,,,,,,,,
2023-02-26T08:00:00,2331A,118.0966,26.6761,南平市,茫荡山,,,,,,,,,,,,,,,,
2023-02-26T08:00:00,2332A,118.1681,26.6369,南平市,南平市监测站,细颗粒物(PM2.5),74,76,51,54,36,111,76,99,91,19,14,4,4,0.7,0.5
2023-02-26T08:00:00,2333A,118.1825,26.6489,南平市,南平铝业有限公司,细颗粒物(PM2.5),92,67,51,68,44,104,65,94,88,24,15,5,6,0.5,0.5
2023-02-26T08:00:00,2334A,118.1756,26.6272,南平市,南平七中,细颗粒物(PM2.5),82,58,44,60,38,116,63,108,94,25,14,5,5,0.6,0.5
2023-02-26T08:00:00,2335A,117.0189,25.1181,龙岩市,龙岩师专,,,,,,,,,,,,,,,,
2023-02-26T08:00:00,2336A,117.0217,25.1033,龙岩市,龙岩市监测站,细颗粒物(PM2.5),85,52,31,63,26,102,102,66,66,15,17,11,10,0.6,0.6
2023-02-26T08:00:00,2337A,117.0258,25.0661,龙岩市,闽西职业技术学院,细颗粒物(PM2.5),87,65,33,64,26,97,97,58,58,15,16,9,9,0.6,0.6
2023-02-26T08:00:00,2338A,117.0196,25.0306,龙岩市,龙岩学院,细颗粒物(PM2.5),75,64,33,55,23,96,96,54,54,17,18,4,5,0.5,0.5
2023-02-26T08:00:00,2339A,119.5001,26.6946,宁德市,金涵水库,,,,,,,,,,,,,,,,
2023-02-26T08:00:00,2341A,119.5388,26.6612,宁德市,宁德市监测站,细颗粒物(PM2.5),98,54,60,73,57,146,57,105,68,20,18,4,3,0.8,0.7
2023-02-26T08:00:00,2342A,117.3102,29.3867,景德镇市,王港中学,,35,35,65,19,45,81,10,19,10,9,9,4,4,0.9,0.8
2023-02-26T08:00:00,2343A,117.2117,29.2933,景德镇市,老干部活动中心,细颗粒物(PM2.5),82,107,91,60,59,102,22,71,52,28,17,5,5,0.7,0.7
2023-02-26T08:00:00,2344A,117.1894,29.2789,景德镇市,兽医站,细颗粒物(PM2.5),58,57,68,41,54,109,33,84,56,24,15,8,5,0.7,0.7
2023-02-26T08:00:00,2345A,117.1547,29.2617,景德镇市,台达陶瓷,细颗粒物(PM2.5),73,44,65,53,52,102,45,80,61,22,18,11,11,0.9,1
2023-02-26T08:00:00,2346A,117.2461,29.2956,景德镇市,陶研所,颗粒物(PM10),66,82,85,46,48,109,7,52,33,27,16,4,5,0.8,0.8
2023-02-26T08:00:00,2347A,114.0997,27.5002,萍乡市,武功山,细颗粒物(PM2.5),87,69,39,64,37,114,37,40,39,14,16,6,5,0.6,0.6
2023-02-26T08:00:00,2348A,113.8385,27.6434,萍乡市,中医院,细颗粒物(PM2.5),109,124,82,82,59,106,72,106,93,17,14,23,16,0.7,0.8
2023-02-26T08:00:00,2349A,113.8493,27.6253,萍乡市,市政府车库,细颗粒物(PM2.5),109,131,87,82,66,106,78,95,88,22,17,16,13,1.2,1.8
2023-02-26T08:00:00,2350A,113.8676,27.6435,萍乡市,市环保局,细颗粒物(PM2.5),130,117,81,99,64,110,75,108,93,23,18,20,15,0.7,0.6
2023-02-26T08:00:00,2351A,113.866,27.6198,萍乡市,安源区政府,细颗粒物(PM2.5),123,124,92,93,65,95,63,86,76,30,23,21,15,2.5,1.3
2023-02-26T08:00:00,2352A,115.0861,27.9317,新余市,北岗,细颗粒物(PM2.5),83,65,67,61,55,100,43,74,56,24,20,21,10,0.9,0.6
2023-02-26T08:00:00,2353A,114.9886,27.8431,新余市,飞宇,细颗粒物(PM2.5),82,91,77,60,53,93,43,60,53,23,17,26,15,0.7,0.6
2023-02-26T08:00:00,2354A,114.9231,27.8246,新余市,第二水厂,细颗粒物(PM2.5),79,94,78,58,53,86,44,67,54,22,16,12,10,0.5,0.5
2023-02-26T08:00:00,2355A,114.9308,27.8036,新余市,市气象局,细颗粒物(PM2.5),83,96,85,61,60,99,47,74,62,21,18,10,8,1.0,0.6
2023-02-26T08:00:00,2357A,116.9822,28.1136,鹰潭市,龙虎山,细颗粒物(PM2.5),88,64,68,65,67,146,65,101,84,6,5,16,12,0.6,0.6
2023-02-26T08:00:00,2358A,117.0564,28.2642,鹰潭市,新监测站,细颗粒物(PM2.5),69,51,71,50,69,152,73,94,74,26,22,15,14,0.5,0.6
2023-02-26T08:00:00,2359A,117.0311,28.2475,鹰潭市,财苑宾馆,细颗粒物(PM2.5),73,51,72,53,64,213,164,213,172,22,18,14,20,0.5,0.6
2023-02-26T08:00:00,2360A,117.0222,28.2264,鹰潭市,体育馆,细颗粒物(PM2.5),54,49,74,38,68,144,60,100,82,21,20,14,23,0.2,0.4
2023-02-26T08:00:00,2361A,117.0017,28.2131,鹰潭市,三川水表,细颗粒物(PM2.5),79,57,80,58,80,139,51,81,72,32,26,9,13,0.3,0.3
2023-02-26T08:00:00,2362A,114.9017,25.9149,赣州市,通天岩,,,,41,,30,53,,58,,,8,,9,,0.8
2023-02-26T08:00:00,2363A,114.9367,25.8664,赣州市,地委,细颗粒物(PM2.5),110,106,57,83,40,89,82,80,80,16,15,8,9,0.9,0.8
2023-02-26T08:00:00,2364A,114.9461,25.8481,赣州市,气象台,细颗粒物(PM2.5),110,93,50,83,42,82,68,74,73,20,18,18,14,0.6,0.6
2023-02-26T08:00:00,2365A,114.9322,25.8333,赣州市,市图书馆,细颗粒物(PM2.5),88,104,53,65,36,86,79,83,82,15,16,10,11,1.1,1
2023-02-26T08:00:00,2366A,114.8905,25.8471,赣州市,华坚鞋城,细颗粒物(PM2.5),104,97,56,78,40,92,80,92,88,16,14,8,6,1.0,0.9
2023-02-26T08:00:00,2367A,114.9754,27.0803,吉安市,红声器材厂,细颗粒物(PM2.5),112,107,78,84,51,121,63,90,75,26,22,10,9,0.9,0.8
2023-02-26T08:00:00,2368A,114.9658,27.0999,吉安市,市森林工业局,细颗粒物(PM2.5),122,104,73,92,58,121,62,88,74,24,21,7,6,0.6,0.6
2023-02-26T08:00:00,2369A,114.99,27.1312,吉安市,市环境监测站,细颗粒物(PM2.5),115,107,76,87,55,126,60,91,75,25,21,7,9,0.9,0.8
2023-02-26T08:00:00,2370A,115.0093,27.0968,吉安市,青原区法院,细颗粒物(PM2.5),117,104,73,88,54,119,60,88,72,28,26,10,9,0.8,0.7
2023-02-26T08:00:00,2371A,114.3408,27.8064,宜春市,槟榔水业,细颗粒物(PM2.5),89,83,61,66,45,94,61,84,74,14,12,9,6,0.7,0.6
2023-02-26T08:00:00,2373A,114.3956,27.7844,宜春市,市石油公司,细颗粒物(PM2.5),89,88,70,66,49,127,38,95,77,31,21,3,3,0.9,0.7
2023-02-26T08:00:00,2374A,114.3703,27.7914,宜春市,市气象局,细颗粒物(PM2.5),94,86,64,70,49,118,54,100,88,28,22,5,6,1.0,1
2023-02-26T08:00:00,2375A,114.4013,27.8074,宜春市,市广电局,细颗粒物(PM2.5),105,91,64,79,55,133,82,120,105,22,20,1,5,1.1,0.9
2023-02-26T08:00:00,2376A,116.2127,28.0814,抚州市,桐源党溪,细颗粒物(PM2.5),92,68,71,68,59,125,34,76,55,12,4,2,2,1.0,0.6
2023-02-26T08:00:00,2377A,116.3544,27.9831,抚州市,市站,细颗粒物(PM2.5),92,88,80,68,61,117,58,75,68,23,18,5,4,0.8,0.8
2023-02-26T08:00:00,2378A,116.3565,27.963,抚州市,血防站,细颗粒物(PM2.5),98,94,88,73,60,113,59,76,70,18,16,10,6,0.7,0.6
2023-02-26T08:00:00,2379A,116.3564,28.0007,抚州市,采茶剧团,细颗粒物(PM2.5),103,90,81,77,66,109,50,68,58,17,16,4,5,0.8,0.8
2023-02-26T08:00:00,2380A,116.385,27.9647,抚州市,医学分院,细颗粒物(PM2.5),94,88,80,70,57,121,59,74,67,19,20,8,6,0.8,0.7
2023-02-26T08:00:00,2381A,118.005,28.4572,上饶市,百草园,,,,,,,,,,,,,,,,
2023-02-26T08:00:00,2382A,117.9756,28.4436,上饶市,市监测站,颗粒物(PM10),59,67,93,41,57,132,54,59,55,29,25,32,23,0.5,0.7
2023-02-26T08:00:00,2383A,117.9519,28.4628,上饶市,凤凰光学,细颗粒物(PM2.5),69,75,91,50,55,110,41,52,42,28,24,30,17,0.6,0.7
2023-02-26T08:00:00,2385A,114.17,35.9019,鹤壁市,市监测站,细颗粒物(PM2.5),170,190,99,129,66,86,11,14,12,39,33,6,10,0.9,0.7
2023-02-26T08:00:00,2386A,114.2956,35.7511,鹤壁市,市交警支队,细颗粒物(PM2.5),188,213,116,141,77,87,4,19,9,72,56,11,14,0.9,0.7
2023-02-26T08:00:00,2387A,114.2878,35.7306,鹤壁市,迎宾馆,细颗粒物(PM2.5),201,187,103,151,82,92,3,28,9,66,60,8,9,1.0,0.8
2023-02-26T08:00:00,2389A,113.836,35.311,新乡市,环保西院,细颗粒物(PM2.5),163,172,139,124,96,101,22,11,8,51,48,6,7,1.0,0.7
2023-02-26T08:00:00,2390A,113.884,35.272,新乡市,开发区,细颗粒物(PM2.5),153,147,142,117,105,112,41,30,30,44,47,8,9,0.8,0.8
2023-02-26T08:00:00,2391A,113.883,35.303,新乡市,环保东院,细颗粒物(PM2.5),139,124,116,106,91,103,34,28,28,45,42,8,10,0.9,0.8
2023-02-26T08:00:00,2392A,115.0312,35.7636,濮阳市,环保局,细颗粒物(PM2.5),140,111,63,107,58,100,33,54,36,46,34,12,12,0.8,0.7
2023-02-26T08:00:00,2394A,115.0574,35.7609,濮阳市,油田运输公司,细颗粒物(PM2.5),168,168,93,127,66,105,24,63,30,60,39,11,12,1.0,0.7
2023-02-26T08:00:00,2395A,115.0866,35.7754,濮阳市,油田物探公司,细颗粒物(PM2.5),149,110,73,114,65,98,14,52,29,62,38,17,14,0.7,0.5
2023-02-26T08:00:00,2396A,113.8276,34.0159,许昌市,监测站,细颗粒物(PM2.5),92,102,119,68,72,106,7,41,31,61,34,8,7,0.6,0.7
