timepoint,stationcode,longitude,latitude,area,positionname,primarypollutant,aqi,pm10,pm10_24h,pm2_5,pm2_5_24h,o3,o3_24h,o3_8h,o3_8h_24h,no2,no2_24h,so2,so2_24h,co,co_24h
2023-08-30T03:00:00,1001A,116.3621,39.8784,北京市,万寿西宫,,47,47,27,21,12,100,7,33,18,58,23,3,3,0.6,0.4
2023-08-30T03:00:00,1002A,116.2202,40.2915,北京市,定陵,,17,17,15,11,11,88,35,40,36,4,5,3,3,0.3,0.3
2023-08-30T03:00:00,1003A,116.4174,39.9289,北京市,东四,,36,36,27,16,12,110,23,52,31,49,19,1,2,0.4,0.3
2023-08-30T03:00:00,1004A,116.4072,39.8863,北京市,天坛,,44,44,25,23,13,100,2,26,10,43,22,3,3,0.4,0.3
2023-08-30T03:00:00,1005A,116.462,39.9365,北京市,农展馆,,48,48,25,21,11,106,4,38,19,69,23,3,3,0.5,0.3
2023-08-30T03:00:00,1006A,116.3392,39.9295,北京市,官园,,38,38,28,15,13,122,25,41,33,42,24,4,4,0.4,0.4
2023-08-30T03:00:00,1007A,116.2878,39.9611,北京市,海淀万柳,,36,36,29,13,12,98,17,29,24,59,30,1,3,0.3,0.3
2023-08-30T03:00:00,1008A,116.6636,40.135,北京市,顺义新城,,45,45,26,14,10,87,17,15,15,34,19,3,3,0.3,0.3
2023-08-30T03:00:00,1009A,116.6275,40.3275,北京市,怀柔镇,,15,15,13,7,7,79,41,46,44,6,7,3,3,0.2,0.2
2023-08-30T03:00:00,1010A,116.2296,40.217,北京市,昌平镇,,19,9,11,8,8,94,59,59,58,8,9,3,3,0.2,0.2
2023-08-30T03:00:00,1011A,116.3966,39.9821,北京市,奥体中心,,39,39,26,17,12,89,2,4,2,61,31,2,2,0.4,0.3
2023-08-30T03:00:00,1012A,116.184,39.9136,北京市,古城,,36,36,29,15,13,104,30,66,41,34,18,1,3,0.4,0.4
2023-08-30T03:00:00,1015A,117.1444,39.1661,天津市,勤俭道,颗粒物(PM10),67,84,41,30,17,152,3,3,3,81,36,9,7,0.6,0.5
2023-08-30T03:00:00,1017A,117.237,39.1082,天津市,大直沽八号路,颗粒物(PM10),53,56,35,25,14,137,19,56,36,69,27,4,4,0.6,0.5
2023-08-30T03:00:00,1018A,117.202,39.0927,天津市,前进道,颗粒物(PM10),56,61,34,26,12,140,25,34,26,63,25,6,6,0.5,0.4
2023-08-30T03:00:00,1019A,117.1837,39.2133,天津市,淮河道,颗粒物(PM10),67,83,40,36,17,151,4,5,5,90,40,6,5,0.7,0.5
2023-08-30T03:00:00,1021A,117.307,39.0877,天津市,跃进路,颗粒物(PM10),58,65,39,30,16,144,1,37,15,79,33,6,6,0.7,0.6
2023-08-30T03:00:00,1023A,117.707,39.0343,天津市,第四大街,颗粒物(PM10),54,57,32,25,13,115,42,66,55,55,31,6,6,0.7,0.6
2023-08-30T03:00:00,1024A,117.457,38.8394,天津市,永明路,,49,49,30,25,13,129,61,93,70,37,25,7,8,0.5,0.6
2023-08-30T03:00:00,1026A,117.764,39.1587,天津市,汉北路,颗粒物(PM10),54,58,36,27,14,128,38,35,35,46,33,7,7,0.7,0.7
2023-08-30T03:00:00,1027A,117.157,38.9194,天津市,团泊洼,颗粒物(PM10),70,90,36,50,16,145,34,32,32,63,36,8,4,0.6,0.5
2023-08-30T03:00:00,1029A,114.4422,38.0444,石家庄市,职工医院,,45,32,40,31,26,178,43,29,29,36,34,6,4,0.7,0.6
2023-08-30T03:00:00,1030A,114.6063,38.0266,石家庄市,高新区,颗粒物(PM10),67,84,47,37,21,171,4,55,25,81,30,1,1,0.7,0.5
2023-08-30T03:00:00,1031A,114.4898,38.1328,石家庄市,西北水源,颗粒物(PM10),65,80,47,33,24,170,31,32,32,41,29,3,2,0.7,0.6
2023-08-30T03:00:00,1032A,114.4586,38.0058,石家庄市,西南高教,,43,40,44,30,19,174,55,41,41,22,26,4,3,0.6,0.6
2023-08-30T03:00:00,1033A,114.5331,38.0178,石家庄市,世纪公园,颗粒物(PM10),57,64,44,22,24,150,37,66,46,39,23,2,3,0.7,0.5
2023-08-30T03:00:00,1034A,114.509,38.0457,石家庄市,人民会堂,,47,47,44,29,20,172,47,47,41,37,29,6,5,0.7,0.5
2023-08-30T03:00:00,1035A,114.3524,37.8911,石家庄市,封龙山,,49,28,28,12,19,155,155,151,151,7,9,3,2,0.8,0.7
2023-08-30T03:00:00,1037A,118.131,39.6363,唐山市,雷达站,,,55,32,19,11,107,0,26,14,,13,3,2,0.7,0.4
2023-08-30T03:00:00,1038A,118.1725,39.6334,唐山市,物资局,,33,33,26,18,14,105,44,58,53,28,17,6,5,0.5,0.3
2023-08-30T03:00:00,1040A,118.1705,39.6506,唐山市,十二中,,25,25,20,15,13,104,45,60,55,30,16,5,3,0.5,0.6
2023-08-30T03:00:00,1041A,118.1869,39.622,唐山市,小山,,28,28,27,5,7,108,60,68,65,22,15,5,3,0.4,0.3
2023-08-30T03:00:00,1042A,119.5134,39.8207,秦皇岛市,北戴河环保局,,20,20,21,7,6,120,49,58,55,28,23,9,9,0.1,0.2
2023-08-30T03:00:00,1043A,119.7493,40.0116,秦皇岛市,第一关,,21,17,16,11,11,86,34,52,45,42,28,9,9,0.2,0.2
2023-08-30T03:00:00,1044A,119.5897,39.9499,秦皇岛市,监测站,,28,28,26,6,11,86,50,42,42,18,24,6,6,0.3,0.3
2023-08-30T03:00:00,1046A,119.5251,39.9041,秦皇岛市,建设大厦,,33,33,36,9,8,87,21,30,27,36,25,1,2,0.4,0.3
2023-08-30T03:00:00,1048A,114.5302,36.6116,邯郸市,东污水处理厂,,44,44,51,29,27,171,40,72,56,28,29,11,17,2.2,1.9
2023-08-30T03:00:00,1049A,114.4918,36.5713,邯郸市,矿院,,35,34,37,24,27,145,40,73,53,29,28,10,16,2.0,1.9
2023-08-30T03:00:00,1050A,114.484,36.6133,邯郸市,丛台公园,,48,48,39,20,20,154,30,59,45,36,27,8,12,2.1,2.1
2023-08-30T03:00:00,1051A,115.493,38.8632,保定市,游泳馆,,37,37,46,23,18,167,36,72,54,43,33,5,6,0.2,0.2
2023-08-30T03:00:00,1052A,115.5213,38.8959,保定市,华电二区,,41,41,35,11,14,152,38,78,63,36,23,8,5,0.5,0.3
2023-08-30T03:00:00,1053A,115.4713,38.9108,保定市,接待中心,颗粒物(PM10),54,58,44,9,13,157,45,28,28,34,25,11,10,0.4,0.4
2023-08-30T03:00:00,1054A,115.4612,38.8416,保定市,地表水厂,颗粒物(PM10),59,67,55,18,19,155,26,22,19,52,40,8,9,0.1,0
2023-08-30T03:00:00,1056A,115.5086,38.8639,保定市,监测站,,34,34,42,17,18,158,47,85,71,40,27,10,7,0.4,0.3
2023-08-30T03:00:00,1057A,114.8883,40.8336,张家口市,人民公园,,13,13,16,5,3,110,40,47,44,5,7,2,2,0.1,0.1
2023-08-30T03:00:00,1059A,114.8687,40.8042,张家口市,五金库,,,13,21,4,8,106,46,49,48,3,9,,2,0.2,0.3
2023-08-30T03:00:00,1060A,114.8902,40.762,张家口市,世纪豪园,,18,18,22,2,8,114,44,52,49,8,11,4,5,0,0
2023-08-30T03:00:00,1061A,114.8916,40.8661,张家口市,北泵房,,14,13,13,5,6,111,43,49,46,4,5,5,6,0.1,0.2
2023-08-30T03:00:00,1062A,117.9531,40.9081,承德市,铁路,,12,11,19,8,5,86,8,12,10,24,20,7,8,0.2,0.3
2023-08-30T03:00:00,1063A,117.9392,40.9763,承德市,中国银行,,30,30,19,10,6,82,1,1,1,31,19,8,8,0.3,0.3
2023-08-30T03:00:00,1064A,117.9503,40.928,承德市,开发区,,23,23,27,12,11,91,8,10,9,31,20,4,4,0.2,0.2
2023-08-30T03:00:00,1065A,117.8051,40.9655,承德市,文化中心,,36,36,25,13,8,87,0,0,0,44,29,5,4,0.4,0.3
2023-08-30T03:00:00,1066A,117.9268,41.0026,承德市,离宫,,29,19,16,20,16,87,10,12,10,21,12,1,2,0.2,0.3
2023-08-30T03:00:00,1067A,116.6708,39.5111,廊坊市,药材公司,,35,35,29,19,10,99,24,30,25,51,24,1,1,0.3,0.3
2023-08-30T03:00:00,1068A,116.7214,39.5589,廊坊市,开发区,,30,30,27,17,13,102,22,18,18,47,26,1,1,0.3,0.3
2023-08-30T03:00:00,1070A,116.7244,39.5269,廊坊市,北华航天学院,,50,50,32,17,10,99,41,44,43,45,24,4,3,0.4,0.3
2023-08-30T03:00:00,1071A,116.8842,38.2991,沧州市,沧县城建局,,44,44,41,22,17,151,97,92,92,17,24,11,7,0.6,0.5
2023-08-30T03:00:00,1072A,116.8584,38.3254,沧州市,电视转播站,,33,33,37,12,15,142,101,98,98,16,25,9,10,0.5,0.4
2023-08-30T03:00:00,1073A,116.8709,38.3228,沧州市,市环保局,,48,48,47,20,22,143,105,97,97,24,35,8,5,0.4,0.3
2023-08-30T03:00:00,1074A,115.6838,37.7541,衡水市,电机北厂,,39,39,43,26,20,159,81,82,82,20,27,2,6,0.3,0.4
2023-08-30T03:00:00,1075A,115.6303,37.7316,衡水市,市监测站,,42,42,40,18,13,156,33,82,62,42,23,2,4,0.4,0.4
2023-08-30T03:00:00,1077A,114.4704,37.0886,邢台市,达活泉,,30,30,32,7,13,175,35,54,42,24,12,1,3,0.5,0.7
2023-08-30T03:00:00,1078A,114.5062,37.0349,邢台市,邢师高专,,33,33,36,15,16,166,7,36,18,44,19,6,7,0.9,0.8
2023-08-30T03:00:00,1079A,114.5237,37.0851,邢台市,路桥公司,,30,30,32,7,11,154,54,57,55,15,14,6,7,0.6,0.7
2023-08-30T03:00:00,1080A,114.4725,37.0719,邢台市,市环保局,,25,25,35,9,14,168,31,55,40,20,10,4,5,0.7,0.7
2023-08-30T03:00:00,1081A,112.522,37.8873,太原市,尖草坪,,27,27,37,12,17,177,8,10,9,47,39,3,7,0.5,0.7
2023-08-30T03:00:00,1083A,112.434,38.0108,太原市,上兰,,,,,,,,,,,,,,,,
2023-08-30T03:00:00,1084A,112.469,37.7124,太原市,晋源,,31,31,45,15,22,171,14,22,15,48,36,2,5,0.8,0.8
2023-08-30T03:00:00,1085A,112.5583,37.7394,太原市,小店,颗粒物(PM10),53,56,52,23,23,176,2,4,3,63,45,5,8,0.8,0.9
2023-08-30T03:00:00,1086A,112.5369,37.8692,太原市,桃园,,31,31,36,12,19,171,5,10,8,51,44,3,7,0.5,0.8
2023-08-30T03:00:00,1087A,112.57,37.8195,太原市,坞城,,38,38,44,16,23,172,12,8,8,53,47,7,9,0.8,1
2023-08-30T03:00:00,1088A,112.549,37.9854,太原市,南寨,,34,34,40,16,19,130,5,5,5,27,35,3,6,0.6,0.7
2023-08-30T03:00:00,1090A,111.6507,40.7517,呼和浩特市,呼市一监,,15,14,17,9,8,116,46,48,47,24,18,3,5,0.5,0.5
2023-08-30T03:00:00,1091A,111.6572,40.8033,呼和浩特市,小召,,19,19,21,9,7,113,38,48,44,36,23,4,4,0.4,0.6
2023-08-30T03:00:00,1094A,111.7516,40.8369,呼和浩特市,如意水处理厂,,24,24,20,9,7,114,40,35,35,35,25,6,6,0.4,0.4
2023-08-30T03:00:00,1095A,111.7276,40.8062,呼和浩特市,二十九中,,26,26,22,10,8,118,39,44,42,39,23,5,6,0.5,0.5
2023-08-30T03:00:00,1096A,111.5512,40.7866,呼和浩特市,工大金川校区,,18,16,28,6,7,110,55,76,63,20,23,3,4,0.3,0.3
2023-08-30T03:00:00,1097A,111.717,40.7612,呼和浩特市,化肥厂生活区,,30,30,24,9,8,126,41,50,47,29,19,6,6,0.4,0.5
2023-08-30T03:00:00,1098A,123.6836,41.9339,沈阳市,森林路,,,,,,,,,,,,,,,,
2023-08-30T03:00:00,1099A,123.505,41.7406,沈阳市,浑南东路,,17,12,12,6,7,73,52,51,51,11,14,9,8,0.4,0.5
2023-08-30T03:00:00,1100A,123.4231,41.6989,沈阳市,新秀街,,18,18,12,6,6,72,39,31,31,17,15,6,6,0.6,0.6
2023-08-30T03:00:00,1102A,123.5903,41.8411,沈阳市,东陵路,,16,16,11,4,6,67,38,33,33,14,12,7,6,0.3,0.4
2023-08-30T03:00:00,1103A,123.4264,41.8467,沈阳市,陵东街,,12,12,10,8,7,74,24,30,28,11,11,5,5,0.4,0.5
2023-08-30T03:00:00,1104A,123.4114,41.7653,沈阳市,文化路,,15,12,10,6,6,72,48,44,44,12,13,5,5,0.4,0.4
2023-08-30T03:00:00,1105A,123.4678,41.7867,沈阳市,小河沿,,15,12,10,4,4,70,45,44,44,14,16,5,5,0.5,0.6
2023-08-30T03:00:00,1106A,123.4017,41.7972,沈阳市,太原街,,15,15,12,8,6,65,27,35,32,23,16,6,6,0.4,0.5
2023-08-30T03:00:00,1108A,123.3783,41.9228,沈阳市,京沈街,,14,14,10,7,7,76,36,40,37,13,9,7,6,0.4,0.5
2023-08-30T03:00:00,1109A,121.612,38.9741,大连市,甘井子,,25,10,14,3,6,102,77,81,78,11,12,4,4,0.5,0.5
2023-08-30T03:00:00,1110A,121.565,38.9511,大连市,周水子,,20,14,14,6,7,106,61,74,68,26,19,11,10,0.4,0.4
2023-08-30T03:00:00,1111A,121.5637,38.8845,大连市,星海三站,,24,17,20,5,9,108,76,81,78,8,10,6,7,0.1,0.2
2023-08-30T03:00:00,1112A,121.6302,38.9117,大连市,青泥洼桥,,24,10,17,5,8,99,75,78,77,11,15,6,5,0.4,0.5
2023-08-30T03:00:00,1113A,121.6251,38.8638,大连市,傅家庄,,25,10,15,5,7,106,80,79,79,10,10,10,9,0.1,0.4
2023-08-30T03:00:00,1114A,121.5213,38.8661,大连市,七贤岭,,27,7,20,5,8,120,86,89,88,10,11,5,5,0.4,0.4
2023-08-30T03:00:00,1115A,121.2529,38.8061,大连市,旅顺,,25,13,14,6,9,111,80,89,84,7,5,5,5,0.5,0.5
2023-08-30T03:00:00,1116A,121.7485,39.1311,大连市,金州,,21,13,13,8,7,101,66,71,68,11,11,12,7,0.6,0.6
2023-08-30T03:00:00,1117A,121.7811,39.0496,大连市,开发区,,21,17,15,7,6,97,67,70,69,12,11,7,6,0.4,0.4
2023-08-30T03:00:00,1118A,121.9762,39.0631,大连市,双D港,,21,14,16,10,7,104,66,63,63,14,11,8,7,0.4,0.3
2023-08-30T03:00:00,1119A,125.3325,43.9166,长春市,食品厂,,12,3,5,5,6,56,37,44,40,11,11,3,3,0.3,0.4
2023-08-30T03:00:00,1120A,125.2863,43.9027,长春市,客车厂,,14,1,6,5,6,51,42,47,44,6,13,4,4,0.4,0.4
2023-08-30T03:00:00,1121A,125.2841,43.8463,长春市,邮电学院,,14,3,7,3,4,53,44,50,46,4,9,5,4,0.3,0.3
2023-08-30T03:00:00,1122A,125.3716,43.8772,长春市,劳动公园,,15,1,10,2,5,49,46,49,47,5,13,6,6,0.1,0.2
2023-08-30T03:00:00,1123A,125.3297,43.8805,长春市,园林处,,15,7,10,1,4,51,45,49,46,4,11,4,4,0.3,0.4
2023-08-30T03:00:00,1124A,125.4605,43.79,长春市,净月潭,,14,3,4,2,3,58,42,46,45,5,6,5,5,0.3,0.3
2023-08-30T03:00:00,1125A,125.7194,43.515,长春市,甩湾子,,,,,,,,,,,,,,,,
2023-08-30T03:00:00,1126A,125.3863,43.8447,长春市,经开区环卫处,,14,2,7,1,3,50,42,46,44,6,12,4,4,0.3,0.4
2023-08-30T03:00:00,1127A,125.245,43.7783,长春市,高新区管委会,,14,3,8,2,4,48,42,47,44,5,14,4,4,0.4,0.5
2023-08-30T03:00:00,1128A,125.1761,43.8325,长春市,岱山公园,,14,3,6,3,6,49,43,47,44,6,16,3,3,0.4,0.5
2023-08-30T03:00:00,1129A,126.5422,45.755,哈尔滨市,岭北,,11,5,8,1,4,79,34,49,42,11,9,13,13,0.4,0.4
2023-08-30T03:00:00,1130A,126.561,45.8167,哈尔滨市,松北商大,,11,4,10,2,4,67,33,36,35,5,6,5,6,0.3,0.4
2023-08-30T03:00:00,1131A,126.979,45.5419,哈尔滨市,阿城会宁,,11,11,11,3,5,52,22,26,23,18,11,4,5,0.6,0.6
2023-08-30T03:00:00,1132A,126.599,45.7222,哈尔滨市,南岗学府路,,11,11,17,3,5,67,26,31,29,9,8,6,6,0.4,0.4
2023-08-30T03:00:00,1133A,126.689,45.7733,哈尔滨市,太平宏伟公园,,9,1,15,6,6,62,28,34,31,12,13,7,7,0.4,0.4
2023-08-30T03:00:00,1134A,126.635,45.7667,哈尔滨市,道外承德广场,,12,4,14,8,9,52,29,32,31,13,20,7,7,0.3,0.5
2023-08-30T03:00:00,1135A,126.685,45.7319,哈尔滨市,香坊红旗大街,,11,3,14,6,4,70,33,36,35,12,14,9,11,0.5,0.5
2023-08-30T03:00:00,1136A,126.6411,45.7258,哈尔滨市,动力和平路,,,4,12,,,69,28,39,34,15,12,5,6,0.4,0.4
2023-08-30T03:00:00,1137A,126.593,45.7478,哈尔滨市,道里建国路,,10,5,17,4,7,67,31,38,35,13,13,4,4,1.0,0.5
2023-08-30T03:00:00,1138A,126.615,45.61,哈尔滨市,平房东轻厂,,,,30,,10,27,,30,,,18,,6,,0.2
2023-08-30T03:00:00,1139A,126.595,45.9855,哈尔滨市,呼兰师专,,15,2,10,1,5,51,46,47,46,8,10,7,7,0.4,0.4
2023-08-30T03:00:00,1140A,126.6206,45.6842,哈尔滨市,省农科院,,10,8,19,4,7,66,29,32,30,16,15,4,5,0.4,0.5
2023-08-30T03:00:00,1141A,121.4,31.238,上海市,普陀,,24,5,12,4,9,85,75,61,61,14,30,4,4,0.6,0.8
2023-08-30T03:00:00,1142A,121.478,31.2036,上海市,十五厂,,26,5,11,3,8,81,81,75,75,19,28,10,10,0.3,0.5
2023-08-30T03:00:00,1143A,121.467,31.3008,上海市,虹口,,21,5,11,5,11,82,66,70,69,29,36,5,5,0.5,0.6
2023-08-30T03:00:00,1144A,121.412,31.1654,上海市,徐汇上师大,,27,5,14,6,13,88,86,77,77,13,29,4,4,0.6,0.8
2023-08-30T03:00:00,1145A,121.536,31.2659,上海市,杨浦四漂,,26,7,11,3,11,91,83,79,79,13,24,6,6,0.7,0.8
2023-08-30T03:00:00,1147A,121.425,31.2261,上海市,静安监测站,,25,6,12,6,11,87,77,78,77,17,28,2,2,0.4,0.7
2023-08-30T03:00:00,1148A,121.703,31.1907,上海市,浦东川沙,,28,5,11,5,9,90,88,88,88,8,23,5,6,0.5,0.6
2023-08-30T03:00:00,1149A,121.533,31.2284,上海市,浦东新区监测站,,23,6,15,3,7,72,72,63,63,18,28,5,5,0.4,0.6
2023-08-30T03:00:00,1150A,121.577,31.2071,上海市,浦东张江,,29,5,11,0,7,92,92,69,69,10,24,5,5,0.5,0.7
2023-08-30T03:00:00,1151A,118.8086,32.1065,南京市,迈皋桥,,24,24,20,9,10,116,65,77,68,19,12,4,4,0.3,0.4
2023-08-30T03:00:00,1152A,118.7538,32.0551,南京市,草场门,,26,26,22,9,11,125,62,91,77,23,17,2,3,0.4,0.5
2023-08-30T03:00:00,1153A,118.7794,32.0745,南京市,山西路,,27,27,26,9,9,128,65,83,76,19,13,3,4,0.3,0.4
2023-08-30T03:00:00,1154A,118.7752,32.0023,南京市,中华门,,24,22,22,9,11,118,76,81,79,11,13,4,4,0.7,0.9
2023-08-30T03:00:00,1155A,118.8109,32.0309,南京市,瑞金路,,25,24,23,9,10,115,79,76,76,9,13,6,7,0.3,0.4
2023-08-30T03:00:00,1156A,118.7997,32.0754,南京市,玄武湖,,26,26,23,9,10,114,52,71,63,23,13,5,5,0.0,0.8
2023-08-30T03:00:00,1157A,118.6414,32.0931,南京市,浦口,,,19,24,,13,116,77,78,77,15,14,8,7,0.7,0.6
2023-08-30T03:00:00,1158A,118.7356,31.9996,南京市,奥体中心,,28,28,23,9,15,137,84,86,85,14,13,6,6,0.4,0.5
2023-08-30T03:00:00,1159A,118.9125,32.1028,南京市,仙林大学城,,22,22,20,12,10,122,60,82,72,20,12,8,8,0.5,0.6
2023-08-30T03:00:00,1160A,120.561,31.2472,苏州市,上方山,,20,20,21,10,10,81,46,66,56,7,15,6,6,0.5,0.7
2023-08-30T03:00:00,1162A,120.591,31.3019,苏州市,彩香,,20,20,22,14,16,105,49,75,63,10,16,6,6,0.7,0.9
2023-08-30T03:00:00,1163A,120.596,31.3264,苏州市,轧钢厂,,19,19,23,13,16,104,50,71,59,17,18,8,9,0.7,0.8
2023-08-30T03:00:00,1164A,120.613,31.2703,苏州市,吴中区,,25,13,22,8,15,100,77,84,81,5,17,8,8,0.6,0.7
2023-08-30T03:00:00,1165A,120.543,31.2994,苏州市,苏州新区,,19,19,22,12,16,101,56,76,65,12,18,7,7,0.7,0.8
2023-08-30T03:00:00,1166A,120.669,31.3097,苏州市,苏州工业园区,,25,12,19,6,14,97,79,78,78,4,17,6,7,0.6,0.8
2023-08-30T03:00:00,1167A,120.641,31.3708,苏州市,相城区,,19,15,16,12,16,92,59,63,61,11,14,8,8,0.7,0.8
2023-08-30T03:00:00,1168A,120.9098,31.9663,南通市,狼山街道,,26,12,15,2,8,94,82,82,82,14,14,8,8,0.4,0.5
2023-08-30T03:00:00,1169A,120.86,32.0005,南通市,虹桥,,26,15,21,9,16,95,83,85,84,10,13,6,5,0.5,0.7
2023-08-30T03:00:00,1170A,120.87,32.02,南通市,城中,,26,13,19,6,13,93,82,83,83,3,6,6,6,0.4,0.5
2023-08-30T03:00:00,1171A,120.94,31.93,南通市,星湖花园,,24,18,17,7,11,89,76,74,74,10,16,5,5,0.6,0.7
2023-08-30T03:00:00,1172A,120.81,32.0417,南通市,紫琅学院,,23,21,17,5,10,92,73,77,74,8,12,7,6,0.6,0.7
2023-08-30T03:00:00,1173A,119.176,34.5885,连云港市,市环境监测站,,31,31,39,14,21,143,31,70,52,38,16,9,9,0.6,0.6
2023-08-30T03:00:00,1177A,117.179,34.2761,徐州市,黄河新村,细颗粒物(PM2.5),57,53,44,40,25,148,63,87,74,29,23,12,12,0.5,0.4
2023-08-30T03:00:00,1178A,117.1918,34.2384,徐州市,淮塔,颗粒物(PM10),51,52,42,31,23,152,61,77,70,23,16,11,11,0.4,0.5
2023-08-30T03:00:00,1180A,117.256,34.2153,徐州市,新城区,颗粒物(PM10),58,66,44,29,22,164,64,70,67,34,23,8,7,0.6,0.5
2023-08-30T03:00:00,1181A,117.244,34.2911,徐州市,桃园路,颗粒物(PM10),57,63,48,32,22,146,50,60,57,34,24,11,11,0.8,0.6
2023-08-30T03:00:00,1182A,117.2933,34.2778,徐州市,农科院,颗粒物(PM10),58,66,39,37,26,151,48,71,63,36,22,9,9,0.6,0.5
2023-08-30T03:00:00,1186A,119.389,32.3761,扬州市,邗江监测站,,34,34,26,17,13,118,87,88,87,10,9,9,3,0.3,0.5
2023-08-30T03:00:00,1188A,120.269,31.4867,无锡市,雪浪,,23,19,27,12,17,85,71,76,75,12,17,5,4,0.6,0.8
2023-08-30T03:00:00,1189A,120.275,31.6219,无锡市,黄巷,,21,15,29,14,18,95,67,70,69,18,31,6,5,1.0,1
2023-08-30T03:00:00,1190A,120.294,31.56,无锡市,曹张,,22,22,25,12,18,82,60,69,65,19,25,7,6,0.6,0.8
2023-08-30T03:00:00,1191A,120.242,31.5031,无锡市,漆塘,,24,24,25,9,18,83,66,64,64,19,25,6,6,0.4,0.6
2023-08-30T03:00:00,1192A,120.3489,31.5863,无锡市,东亭,,34,34,28,17,22,91,61,71,67,23,30,6,5,0.5,0.7
2023-08-30T03:00:00,1193A,120.354,31.5475,无锡市,旺庄,,27,27,26,12,19,98,69,69,69,12,20,11,10,0.8,1
2023-08-30T03:00:00,1194A,120.245,31.5631,无锡市,荣巷,,27,27,22,9,16,84,71,71,71,10,16,10,10,0.9,1
2023-08-30T03:00:00,1195A,120.299,31.6817,无锡市,堰桥,,24,24,20,9,13,90,59,66,62,12,15,6,6,1.1,1
2023-08-30T03:00:00,1196A,119.9633,31.762,常州市,市监测站,,28,18,21,14,17,120,88,86,86,10,18,7,8,0.4,0.5
2023-08-30T03:00:00,1200A,119.9468,31.7069,常州市,武进监测站,,29,23,26,9,14,130,90,90,90,5,13,5,6,0.4,0.5
2023-08-30T03:00:00,1201A,119.9255,31.9087,常州市,安家,,28,28,27,17,19,122,82,84,83,13,14,5,5,0.6,0.7
2023-08-30T03:00:00,1203A,119.6707,32.1875,镇江市,新区办事处,,29,28,22,16,13,105,91,86,86,12,18,4,4,0.5,0.5
2023-08-30T03:00:00,1204A,119.4974,32.1968,镇江市,职教中心,,31,25,20,16,16,127,98,90,90,10,11,3,3,0.4,0.5
2023-08-30T03:00:00,1205A,119.4303,32.1328,镇江市,丹徒区监测站,,33,23,24,16,15,142,104,102,102,5,9,3,3,0.5,0.6
2023-08-30T03:00:00,1206A,119.905,32.4878,泰州市,公园路,,32,22,21,22,15,113,81,92,85,9,9,7,8,0.8,0.8
2023-08-30T03:00:00,1207A,119.9189,32.4625,泰州市,莲花,,30,27,23,12,13,110,93,95,94,9,8,8,7,0.6,0.6
2023-08-30T03:00:00,1209A,119.888,32.4639,泰州市,留学生创业园,,33,33,20,22,14,109,86,91,87,10,10,8,7,0.6,0.6
2023-08-30T03:00:00,1210A,119.036,33.5981,淮安市,钵池山,,49,46,32,34,20,115,28,44,38,46,19,8,8,1.0,0.8
2023-08-30T03:00:00,1211A,119.007,33.575,淮安市,北京南路,,50,39,41,35,22,114,41,23,23,34,26,7,8,0.7,0.7
2023-08-30T03:00:00,1212A,118.989,33.6067,淮安市,市监测站,颗粒物(PM10),62,73,42,27,24,121,63,25,25,35,22,7,6,0.8,0.7
2023-08-30T03:00:00,1213A,119.135,33.5039,淮安市,楚州区监测站,颗粒物(PM10),53,56,39,35,25,112,18,8,8,49,22,8,8,1.0,0.9
2023-08-30T03:00:00,1214A,119.0186,33.6297,淮安市,淮阴区监测站,,48,46,40,33,20,115,2,16,6,73,24,7,7,0.8,0.7
2023-08-30T03:00:00,1215A,120.118,33.4022,盐城市,盐城电厂,,31,31,28,19,15,112,93,100,97,10,8,7,8,0.5,0.6
2023-08-30T03:00:00,1216A,120.156,33.3942,盐城市,市监测站,,31,31,23,18,12,122,97,92,92,7,7,6,6,0.4,0.4
2023-08-30T03:00:00,1218A,120.2144,33.38,盐城市,开发区管委会,,30,30,19,20,13,122,92,93,93,9,9,5,5,0.3,0.4
2023-08-30T03:00:00,1220A,118.293,33.9528,宿迁市,宿迁学院,细颗粒物(PM2.5),52,46,34,36,24,147,49,80,66,30,17,9,11,0.6,0.6
2023-08-30T03:00:00,1221A,118.2442,33.9592,宿迁市,宿迁中学,细颗粒物(PM2.5),59,50,41,42,28,168,62,70,67,22,17,5,7,0.7,0.6
2023-08-30T03:00:00,1223A,120.2072,30.2111,杭州市,滨江,,27,4,17,4,8,88,84,80,80,6,13,6,6,0.5,0.7
2023-08-30T03:00:00,1224A,120.0633,30.2747,杭州市,西溪,,24,12,17,11,13,81,76,81,78,6,12,4,4,0.6,0.8
2023-08-30T03:00:00,1226A,120.3461,30.3153,杭州市,下沙,,20,13,15,4,7,88,61,80,69,21,23,4,4,0.7,0.8
2023-08-30T03:00:00,1227A,120.1269,30.2456,杭州市,卧龙桥,,20,12,11,2,9,79,64,76,72,7,12,3,4,0.5,0.7
2023-08-30T03:00:00,1228A,120.1903,30.2692,杭州市,浙江农大,,21,7,10,5,10,76,66,74,71,11,17,6,7,0.4,0.5
2023-08-30T03:00:00,1230A,120.1197,30.3119,杭州市,和睦小学,,26,11,13,8,9,86,83,86,84,13,23,6,6,0.9,0.9
2023-08-30T03:00:00,1231A,120.3019,30.4183,杭州市,临平镇,,26,8,25,6,9,92,82,89,85,6,14,3,4,0.6,0.7
2023-08-30T03:00:00,1232A,120.2697,30.1819,杭州市,城厢镇,,25,4,13,2,9,86,79,76,76,8,15,5,5,0.7,0.8
2023-08-30T03:00:00,1233A,120.0883,30.1808,杭州市,云栖,,28,11,10,3,4,90,88,76,76,1,8,6,6,0.8,0.9
2023-08-30T03:00:00,1234A,121.8358,29.911,宁波市,区环保大楼,,18,14,22,12,11,71,26,22,22,35,41,3,4,0.9,1
2023-08-30T03:00:00,1235A,121.56,29.82,宁波市,万里学院,,,11,12,4,6,71,,52,52,10,23,4,4,0.7,0.8
2023-08-30T03:00:00,1236A,121.713,29.9572,宁波市,龙赛医院,,14,10,22,5,7,69,44,41,41,16,27,6,6,0.7,0.8
2023-08-30T03:00:00,1239A,121.633,29.7733,宁波市,钱湖水厂,,20,20,18,9,8,61,44,46,45,14,21,5,5,0.7,0.7
2023-08-30T03:00:00,1240A,121.5856,29.8635,宁波市,太古小学,,19,7,11,4,7,72,60,58,58,13,22,5,5,0.9,1
2023-08-30T03:00:00,1241A,121.524,29.8674,宁波市,市环境监测中心,,20,5,12,4,6,81,64,63,63,8,17,6,6,0.5,0.6
2023-08-30T03:00:00,1242A,120.634,28.0089,温州市,瓯海,,24,24,22,14,15,116,10,25,16,40,17,6,6,0.6,0.5
2023-08-30T03:00:00,1243A,120.6748,27.9939,温州市,南浦,,19,19,27,10,13,113,31,44,40,20,13,5,5,0.6,0.5
2023-08-30T03:00:00,1244A,120.76,27.9747,温州市,龙湾,,30,30,26,10,12,84,44,57,49,22,21,6,6,0.6,0.5
2023-08-30T03:00:00,1245A,120.6709,28.0167,温州市,市站,,22,18,29,15,15,98,27,34,32,17,20,5,5,0.6,0.5
2023-08-30T03:00:00,1247A,120.6053,29.9928,绍兴市,城东开发委,,21,16,20,14,16,71,67,65,65,16,25,5,5,0.4,0.5
2023-08-30T03:00:00,1250A,120.0751,30.8669,湖州市,城西水厂,,21,14,25,9,19,95,66,72,70,18,30,2,2,0.6,0.7
2023-08-30T03:00:00,1252A,120.7436,30.778,嘉兴市,清河小学,,21,8,14,3,7,93,66,63,63,9,17,5,5,1.0,1
2023-08-30T03:00:00,1253A,120.726,30.7478,嘉兴市,嘉兴学院,,23,7,9,7,12,93,73,63,62,11,18,3,3,0.5,0.7
2023-08-30T03:00:00,1255A,121.273,28.6459,台州市,黄岩环保大楼,,13,13,23,8,13,51,30,36,33,10,17,5,5,0.9,0.8
2023-08-30T03:00:00,1256A,121.419,28.6542,台州市,台州环保大楼,,16,16,20,7,12,58,40,40,40,12,14,6,6,0.7,0.6
2023-08-30T03:00:00,1257A,121.377,28.5773,台州市,路桥田洋王,,16,14,23,7,14,52,50,51,51,12,15,4,3,0.6,0.5
2023-08-30T03:00:00,1258A,122.122,30.0203,舟山市,定海檀枫,,11,10,10,2,5,74,35,36,35,8,15,6,6,0.7,0.8
2023-08-30T03:00:00,1259A,122.3094,29.9558,舟山市,普陀东港,,20,10,11,5,5,76,61,56,56,5,12,4,4,0.6,0.7
2023-08-30T03:00:00,1260A,122.19,29.9944,舟山市,临城新区,,16,8,10,4,4,78,49,40,40,6,13,6,6,0.5,0.7
2023-08-30T03:00:00,1262A,119.647,29.077,金华市,十五中,,30,30,14,10,5,93,58,53,53,16,19,2,3,0.5,0.5
2023-08-30T03:00:00,1263A,119.686,29.1029,金华市,监测站,,26,26,15,14,7,84,50,49,49,18,19,3,3,0.7,0.7
2023-08-30T03:00:00,1264A,118.8692,28.9398,衢州市,环保大楼,,43,43,13,22,6,67,55,61,58,11,11,3,3,0.6,0.6
2023-08-30T03:00:00,1265A,118.8709,28.9666,衢州市,实验学校,,35,35,10,19,7,70,41,54,48,20,12,3,3,0.4,0.4
2023-08-30T03:00:00,1266A,118.8621,28.9808,衢州市,衢州学院,,28,27,9,19,5,68,41,46,44,24,16,3,3,0.5,0.5
2023-08-30T03:00:00,1267A,119.914,28.4514,丽水市,监测站大楼,,13,13,12,2,3,84,35,33,33,14,12,4,5,0.6,0.5
2023-08-30T03:00:00,1268A,119.93,28.4586,丽水市,莲都小学,,15,7,9,3,5,88,45,46,45,12,10,5,5,0.6,0.5
2023-08-30T03:00:00,1269A,119.879,28.4231,丽水市,余庄前,,21,21,16,6,7,82,33,32,32,11,13,4,4,0.6,0.5
2023-08-30T03:00:00,1270A,117.1959,31.7848,合肥市,明珠广场,,29,29,32,14,20,118,89,94,93,12,14,7,7,0.7,0.7
2023-08-30T03:00:00,1271A,117.3072,31.8764,合肥市,三里街,,39,34,32,27,22,105,78,82,79,15,16,4,4,0.4,0.4
2023-08-30T03:00:00,1272A,117.2588,31.8707,合肥市,琥珀山庄,,34,34,36,22,19,117,87,90,89,13,14,5,5,0.6,0.6
2023-08-30T03:00:00,1273A,117.1604,31.9052,合肥市,董铺水库,,31,31,32,17,16,121,76,78,78,10,9,5,4,0.4,0.4
2023-08-30T03:00:00,1274A,117.25,31.8571,合肥市,长江中路,,36,36,38,23,22,117,87,96,93,10,10,6,6,0.5,0.5
2023-08-30T03:00:00,1275A,117.266,31.9436,合肥市,庐阳区,,36,36,37,24,22,113,77,77,77,12,13,5,5,0.6,0.5
2023-08-30T03:00:00,1276A,117.336,31.8586,合肥市,瑶海区,,39,39,39,16,19,106,84,88,87,6,12,4,4,0.6,0.6
2023-08-30T03:00:00,1277A,117.3027,31.7964,合肥市,包河区,,34,34,35,22,21,109,78,78,78,19,28,8,9,0.5,0.5
2023-08-30T03:00:00,1278A,117.2776,31.7385,合肥市,滨湖新区,,34,34,34,22,19,115,83,88,86,13,17,6,5,0.5,0.5
2023-08-30T03:00:00,1279A,117.1318,31.8403,合肥市,高新区,,39,39,36,26,25,118,85,88,87,17,17,8,8,0.7,0.7
2023-08-30T03:00:00,1280A,119.3903,26.0543,福州市,鼓山,,,,,,,,,,,,,,,,
2023-08-30T03:00:00,1282A,119.2681,26.0504,福州市,师大,,13,13,27,0,11,120,17,23,19,3,8,5,4,0.2,0.3
2023-08-30T03:00:00,1283A,119.2984,26.1028,福州市,五四北路,,7,7,26,0,12,149,19,19,19,3,11,3,3,0.3,0.4
2023-08-30T03:00:00,1284A,119.2648,26.0768,福州市,杨桥西路,,13,13,28,0,11,129,12,19,15,9,9,3,3,0.3,0.4
2023-08-30T03:00:00,1285A,119.317,26.0746,福州市,紫阳,,10,10,26,1,10,106,15,16,15,4,10,3,4,0.2,0.3
2023-08-30T03:00:00,1286A,118.1608,24.8169,厦门市,溪东,,,,,,,,,,,,,,,,
2023-08-30T03:00:00,1287A,118.1514,24.4767,厦门市,洪文,,35,35,25,15,13,66,18,15,15,18,12,3,2,0.4,0.2
2023-08-30T03:00:00,1288A,118.0661,24.4444,厦门市,鼓浪屿,,36,36,20,24,13,82,34,56,44,25,18,5,4,0.4,0.2
2023-08-30T03:00:00,1290A,115.8931,28.6843,南昌市,省外办,,35,29,34,24,19,99,56,66,61,18,13,5,4,0.7,0.6
2023-08-30T03:00:00,1291A,115.8886,28.7003,南昌市,省林业公司,,32,19,24,22,20,93,54,58,57,15,13,5,5,0.7,0.6
2023-08-30T03:00:00,1292A,115.8126,28.7442,南昌市,林科所,,26,17,16,17,13,101,82,90,86,7,7,7,6,0.7,0.7
2023-08-30T03:00:00,1294A,115.8518,28.687,南昌市,建工学校,,31,31,31,10,12,109,76,83,80,10,10,9,8,0.7,0.7
2023-08-30T03:00:00,1295A,115.8921,28.6424,南昌市,象湖,,36,31,28,25,20,105,63,75,70,15,13,6,6,0.8,0.7
2023-08-30T03:00:00,1296A,115.7423,28.7996,南昌市,武术学校,,21,15,21,12,11,90,66,64,64,6,6,5,7,0.2,0.3
2023-08-30T03:00:00,1298A,115.9314,28.6842,南昌市,省站,,27,27,31,18,18,102,59,76,68,14,12,8,7,0.8,0.7
2023-08-30T03:00:00,1299A,116.9862,36.6114,济南市,科干所,,48,48,41,29,20,157,20,38,32,50,27,7,8,0.6,0.5
2023-08-30T03:00:00,1300A,116.9376,36.665,济南市,农科所,,44,44,40,20,17,166,26,18,18,44,36,5,7,0.5,0.5
2023-08-30T03:00:00,1301A,117.1265,36.6734,济南市,开发区,,29,29,37,15,15,158,30,39,29,55,32,5,6,0.6,0.6
2023-08-30T03:00:00,1303A,117.0624,36.6868,济南市,省种子仓库,颗粒物(PM10),51,51,43,17,17,153,9,15,11,66,33,8,9,0.8,0.6
2023-08-30T03:00:00,1304A,116.9489,36.6447,济南市,机床二厂,颗粒物(PM10),51,51,47,24,17,166,17,25,22,51,37,6,8,0.8,0.7
2023-08-30T03:00:00,1305A,117.0495,36.663,济南市,市监测站,,35,34,42,24,19,156,24,47,36,62,38,3,5,0.5,0.5
2023-08-30T03:00:00,1306A,116.7675,36.5484,济南市,长清党校,,44,44,43,24,23,162,64,59,59,42,28,5,8,0.3,0.4
2023-08-30T03:00:00,1307A,120.6659,36.2403,青岛市,仰口,,27,27,15,9,11,83,77,78,77,2,3,7,6,0.2,0.2
2023-08-30T03:00:00,1310A,120.4134,36.0658,青岛市,市南区东部子站,,29,29,26,12,10,112,55,63,56,31,20,5,6,0.5,0.5
2023-08-30T03:00:00,1311A,120.3664,36.1032,青岛市,四方区子站,,36,36,34,14,9,112,44,48,46,47,24,6,5,0.5,0.5
2023-08-30T03:00:00,1312A,120.2994,36.054,青岛市,市南区西部子站,,27,27,27,7,8,109,72,78,76,18,16,5,5,0.5,0.5
2023-08-30T03:00:00,1313A,120.4581,36.0858,青岛市,崂山区子站,,24,24,24,14,10,108,62,82,71,24,18,7,7,0.3,0.3
2023-08-30T03:00:00,1314A,120.1983,35.9608,青岛市,黄岛区子站,,34,34,29,20,13,110,51,56,54,36,31,8,10,0.4,0.5
2023-08-30T03:00:00,1315A,120.3999,36.3083,青岛市,城阳区子站,,46,46,26,20,10,104,29,34,33,41,19,7,6,0.6,0.5
2023-08-30T03:00:00,1316A,113.69031,34.76122,郑州市,烟厂,,33,33,50,16,22,220,97,108,102,20,30,3,5,0.5,0.6
2023-08-30T03:00:00,1317A,113.65724,34.77134,郑州市,郑纺机,,,34,53,,,216,91,108,98,19,27,3,5,0.7,0.8
2023-08-30T03:00:00,1318A,113.67526,34.80246,郑州市,银行学校,,34,34,44,14,24,205,93,103,97,13,22,4,6,0.7,0.8
2023-08-30T03:00:00,1319A,113.56746,34.81334,郑州市,供水公司,,32,31,49,15,23,181,101,103,102,17,29,3,4,0.5,0.7
2023-08-30T03:00:00,1320A,113.7329,34.7178,郑州市,经开区管委,,31,29,47,19,24,219,97,100,97,13,19,4,5,0.5,0.7
2023-08-30T03:00:00,1321A,113.73961,34.77172,郑州市,四十七中,,,38,42,,43,209,82,104,92,21,29,3,5,0.5,0.5
2023-08-30T03:00:00,1322A,113.60532,34.74838,郑州市,市监测站,,38,38,59,21,29,191,87,113,100,24,28,6,6,0.5,0.7
2023-08-30T03:00:00,1323A,113.64164,34.7525,郑州市,河医大,,32,32,53,19,27,203,90,99,96,18,24,5,7,0.6,0.7
2023-08-30T03:00:00,1324A,113.51488,34.91089,郑州市,岗李水库,,,,,,,,,,,,,,,,
2023-08-30T03:00:00,1325A,114.3677,30.5584,武汉市,东湖梨园,,31,20,24,10,17,128,97,102,100,12,12,7,7,0.7,0.7
2023-08-30T03:00:00,1326A,114.2529,30.558,武汉市,汉阳月湖,,29,22,25,14,15,120,90,89,89,14,15,5,6,0.5,0.5
2023-08-30T03:00:00,1327A,114.282,30.6189,武汉市,汉口花桥,,29,22,29,15,19,123,92,89,89,10,13,5,6,0.5,0.5
2023-08-30T03:00:00,1328A,114.3025,30.5332,武汉市,武昌紫阳,,29,27,26,16,17,132,92,94,94,12,12,8,9,0.4,0.4
2023-08-30T03:00:00,1329A,114.3646,30.6217,武汉市,青山钢花,,35,26,30,24,22,128,78,81,80,17,15,7,8,0.4,0.4
2023-08-30T03:00:00,1330A,114.1566,30.4825,武汉市,沌口新区,,35,24,25,24,22,127,78,83,81,17,16,7,7,0.5,0.5
2023-08-30T03:00:00,1331A,114.3014,30.5944,武汉市,汉口江滩,,30,21,28,12,17,129,96,99,96,7,9,6,6,0.4,0.4
2023-08-30T03:00:00,1333A,114.135,30.6319,武汉市,吴家山,,27,20,27,12,16,127,85,90,89,12,13,8,8,0.6,0.6
2023-08-30T03:00:00,1334A,113.8454,30.2917,武汉市,沉湖七壕,,30,30,25,19,17,140,74,76,75,19,15,4,4,0.7,0.7
2023-08-30T03:00:00,1335A,113.0833,28.2325,长沙市,经开区环保局,,30,20,30,21,19,125,72,99,88,26,17,6,6,0.4,0.5
2023-08-30T03:00:00,1336A,112.8872,28.2189,长沙市,高开区环保局,,39,39,31,21,19,142,85,102,96,11,7,8,6,0.6,0.6
2023-08-30T03:00:00,1337A,113.0792,28.2053,长沙市,马坡岭,,46,46,45,24,24,131,66,93,82,27,19,6,6,0.7,0.8
2023-08-30T03:00:00,1338A,112.9394,28.19,长沙市,湖南师范大学,,42,39,38,29,30,141,101,96,96,11,15,5,4,0.7,0.7
2023-08-30T03:00:00,1339A,113.0178,28.1322,长沙市,雨花区环保局,,35,35,33,19,17,126,85,86,86,21,18,6,6,0.4,0.5
2023-08-30T03:00:00,1340A,112.9792,28.2597,长沙市,伍家岭,颗粒物(PM10),61,72,40,26,21,139,82,80,80,18,19,5,3,0.8,0.9
2023-08-30T03:00:00,1341A,113.0014,28.1944,长沙市,火车新站,,37,37,32,22,23,131,87,91,86,15,17,6,6,0.7,0.7
2023-08-30T03:00:00,1342A,112.9844,28.1178,长沙市,天心区环保局,,34,34,34,18,23,132,78,90,81,21,17,3,3,0.5,0.5
2023-08-30T03:00:00,1343A,112.8908,28.1308,长沙市,湖南中医药大学,颗粒物(PM10),51,52,45,29,28,145,67,64,64,21,21,4,3,0.9,0.9
2023-08-30T03:00:00,1344A,112.9581,28.3611,长沙市,沙坪,,41,41,40,24,20,142,100,98,98,8,9,8,6,0.7,0.7
2023-08-30T03:00:00,1345A,113.2347,23.1423,广州市,广雅中学,,26,26,23,12,15,74,30,28,28,28,31,7,6,0.9,0.9
2023-08-30T03:00:00,1346A,113.2612,23.105,广州市,市五中,,20,20,22,12,16,98,43,42,42,16,19,6,6,0.9,1
2023-08-30T03:00:00,1348A,113.3478,23.0916,广州市,广东商学院,,18,18,23,10,12,89,44,42,42,14,18,4,3,0.7,0.7
2023-08-30T03:00:00,1349A,113.4332,23.1047,广州市,市八十六中,,20,20,20,10,12,88,51,46,46,10,15,4,4,0.7,0.7
2023-08-30T03:00:00,1350A,113.3505,22.9483,广州市,番禺中学,,17,17,21,7,11,122,43,37,37,17,24,5,5,0.8,0.8
2023-08-30T03:00:00,1351A,113.2146,23.3916,广州市,花都师范,,24,24,20,14,10,69,38,42,39,11,12,8,8,1.0,1
2023-08-30T03:00:00,1352A,113.2597,23.1331,广州市,市监测站,,13,8,19,8,14,84,33,33,33,26,26,7,7,0.7,0.8
2023-08-30T03:00:00,1353A,113.5618,23.312,广州市,九龙镇镇龙,,21,21,23,13,14,78,56,53,53,6,11,6,6,0.6,0.6
2023-08-30T03:00:00,1354A,113.2765,23.1544,广州市,麓湖,,15,11,14,10,12,82,32,31,31,19,21,6,6,0.9,0.9
2023-08-30T03:00:00,1355A,113.443,23.3035,广州市,帽峰山森林公园,,21,12,12,8,8,74,67,58,58,7,10,6,7,0.4,0.5
2023-08-30T03:00:00,1356A,114.1063,22.5545,深圳市,通心岭子站,,18,18,23,9,12,92,32,31,31,23,25,4,4,0.7,0.6
2023-08-30T03:00:00,1357A,114.117,22.5625,深圳市,洪湖,,25,25,30,8,12,102,42,39,39,13,27,5,5,0.7,0.6
2023-08-30T03:00:00,1358A,113.987,22.5417,深圳市,华侨城,,21,21,23,9,13,111,19,24,23,20,24,6,6,0.8,0.7
2023-08-30T03:00:00,1359A,113.9181,22.5171,深圳市,南海子站,,32,22,32,22,24,76,33,32,32,16,29,4,4,0.9,0.8
2023-08-30T03:00:00,1360A,114.2458,22.5689,深圳市,盐田,,32,14,19,22,13,117,51,49,49,5,19,4,4,0.7,0.7
2023-08-30T03:00:00,1361A,114.2283,22.7244,深圳市,龙岗,,19,15,23,13,13,107,52,52,52,8,18,8,8,0.8,0.8
2023-08-30T03:00:00,1363A,114.494,22.5422,深圳市,南澳,,23,23,15,16,10,78,34,46,38,8,10,8,7,0.9,0.8
2023-08-30T03:00:00,1364A,114.41,22.6342,深圳市,葵涌,,22,22,21,7,7,88,46,46,45,8,14,4,4,0.7,0.6
2023-08-30T03:00:00,1365A,114.297,22.5978,深圳市,梅沙,,29,19,18,20,11,96,51,51,51,7,9,5,5,0.7,0.6
2023-08-30T03:00:00,1366A,114.0678,22.738,深圳市,观澜,,21,21,22,12,13,126,30,26,26,19,22,8,8,0.7,0.6
2023-08-30T03:00:00,1367A,113.5814,22.2618,珠海市,吉大,,31,31,72,19,27,118,39,49,44,15,20,4,12,0.7,1.2
2023-08-30T03:00:00,1368A,113.4881,22.2335,珠海市,前山,,19,10,16,13,14,110,35,28,28,13,26,8,7,0.5,0.5
2023-08-30T03:00:00,1369A,113.628,22.4251,珠海市,唐家,,15,15,19,5,9,172,32,35,34,14,20,6,5,0.5,0.4
2023-08-30T03:00:00,1370A,113.299,22.2281,珠海市,斗门,,11,8,19,6,21,113,33,28,28,12,23,7,6,0.6,0.7
2023-08-30T03:00:00,1371A,113.1294,23.0067,佛山市,湾梁,,17,17,14,9,10,99,31,41,37,18,18,9,9,0.7,0.7
2023-08-30T03:00:00,1372A,113.1083,23.0478,佛山市,华材职中,,29,29,20,13,12,83,24,33,27,24,24,12,10,0.6,0.6
2023-08-30T03:00:00,1373A,113.144,23.0453,佛山市,南海气象局,,16,16,19,10,10,79,30,33,32,17,20,6,6,0.7,0.7
2023-08-30T03:00:00,1374A,113.2881,22.8094,佛山市,顺德苏岗,,18,18,16,7,11,142,31,32,32,16,18,6,7,0.7,0.8
2023-08-30T03:00:00,1376A,112.8383,22.8678,佛山市,高明孔堂,,20,20,21,11,9,97,38,37,37,21,20,8,7,0.7,0.8
2023-08-30T03:00:00,1377A,112.8836,23.1588,佛山市,三水监测站,,15,14,12,10,8,77,36,36,35,16,14,4,4,0.7,0.7
2023-08-30T03:00:00,1378A,112.867,23.185,佛山市,三水云东海,,16,15,18,11,10,74,25,33,30,17,12,5,5,0.7,0.7
2023-08-30T03:00:00,1379A,113.3769,22.5211,中山市,华柏园,,18,18,26,9,16,157,26,37,31,23,29,5,5,0.6,0.6
2023-08-30T03:00:00,1380A,113.3881,22.5497,中山市,张溪,,14,14,34,3,18,162,24,35,28,21,28,4,4,0.6,0.6
2023-08-30T03:00:00,1381A,113.4075,22.5111,中山市,紫马岭,,17,17,26,10,21,136,21,35,28,19,24,5,5,0.5,0.5
2023-08-30T03:00:00,1382A,113.4411,22.4853,中山市,长江旅游区,,,,,,,,,,,,,,,,
2023-08-30T03:00:00,1383A,113.1064,22.6058,江门市,北街,,22,22,23,10,15,143,33,30,30,20,23,6,6,0.5,0.5
2023-08-30T03:00:00,1384A,113.0731,22.5835,江门市,西区,,16,16,20,11,12,144,25,27,26,26,24,8,7,0.6,0.6
2023-08-30T03:00:00,1385A,113.0219,22.5311,江门市,圭峰西,,22,22,22,11,14,119,29,33,32,23,18,6,5,0.6,0.6
2023-08-30T03:00:00,1386A,113.0828,22.5947,江门市,东湖,,20,20,23,8,12,150,31,34,32,19,18,9,7,0.6,0.6
2023-08-30T03:00:00,1389A,113.7547,23.0494,东莞市,莞城梨川,,20,19,22,14,19,78,43,36,36,10,18,9,9,0.7,0.8
2023-08-30T03:00:00,1390A,113.7944,23.0128,东莞市,东城石井,,20,20,19,8,9,84,31,30,30,10,16,6,6,0.8,0.8
2023-08-30T03:00:00,1391A,113.7383,22.9658,东莞市,南城西平,,17,17,19,9,11,82,19,11,11,25,25,4,4,1.0,1
2023-08-30T03:00:00,1392A,114.4183,23.0528,惠州市,河南岸金山湖子站,,24,24,17,6,7,93,52,54,53,11,13,5,4,0.5,0.4
2023-08-30T03:00:00,1393A,114.4053,23.0822,惠州市,下埔横江三路子站,,23,20,16,16,10,100,60,59,59,5,9,5,4,0.5,0.4
2023-08-30T03:00:00,1394A,114.4103,23.1142,惠州市,江北云山西路子站,,24,24,18,12,10,96,59,58,58,2,8,5,5,0.5,0.4
2023-08-30T03:00:00,1395A,114.4645,22.7833,惠州市,惠阳区承修路船湖子站,,25,25,23,17,12,86,22,22,22,7,14,4,3,0.8,0.8
2023-08-30T03:00:00,1396A,114.5317,22.7422,惠州市,大亚湾管委会子站,,24,24,20,8,9,76,40,44,41,8,18,4,4,0.9,0.8
2023-08-30T03:00:00,1397A,112.4267,23.0706,肇庆市,睦岗子站,,19,19,15,11,8,68,46,44,44,6,10,8,9,0.4,0.4
2023-08-30T03:00:00,1398A,112.4645,23.0475,肇庆市,城中子站,,18,18,17,10,8,80,44,41,41,8,9,8,9,0.6,0.6
2023-08-30T03:00:00,1399A,112.5544,23.1522,肇庆市,坑口子站,,15,15,13,10,8,74,48,48,48,8,11,4,4,0.5,0.5
2023-08-30T03:00:00,1400A,112.4753,23.1,肇庆市,七星岩子站,,,,,,,,,,,,,,,,
2023-08-30T03:00:00,1401A,108.3103,22.7881,南宁市,二十一中,,33,33,16,18,8,86,18,51,37,34,14,5,6,0.9,0.8
2023-08-30T03:00:00,1402A,108.3141,22.8528,南宁市,北湖,,30,28,21,21,15,82,57,62,60,12,11,26,8,0.6,0.6
2023-08-30T03:00:00,1403A,108.3206,22.8225,南宁市,市监测站,,29,29,17,13,8,73,56,48,48,12,16,7,8,0.6,0.6
2023-08-30T03:00:00,1404A,108.3829,22.8037,南宁市,大自然花园,,25,19,14,17,9,73,50,45,45,13,12,7,6,0.7,0.7
2023-08-30T03:00:00,1405A,108.4394,22.7904,南宁市,仙葫,,22,11,12,11,6,77,70,67,67,8,9,7,6,0.9,0.8
2023-08-30T03:00:00,1406A,108.2397,22.8467,南宁市,区农职院,,23,21,21,16,10,92,43,40,40,14,14,7,9,0.5,0.5
2023-08-30T03:00:00,1407A,108.3275,22.735,南宁市,英华嘉园,,35,27,18,24,13,72,28,51,41,20,13,8,6,0.6,0.6
2023-08-30T03:00:00,1408A,108.2257,22.7757,南宁市,沙井镇街道办,,29,29,22,18,10,86,24,21,21,22,20,7,5,0.8,0.8
2023-08-30T03:00:00,1409A,110.576,19.9507,海口市,东寨港,,,,,,,,,,,,,,,,
2023-08-30T03:00:00,1410A,110.3232,20.0574,海口市,海南大学,,22,14,17,15,8,86,64,63,63,13,10,6,6,0.5,0.4
2023-08-30T03:00:00,1411A,110.283,20.0053,海口市,秀英海南医院,,22,15,23,14,8,70,70,61,61,6,12,6,6,0.5,0.3
2023-08-30T03:00:00,1412A,110.338,19.9969,海口市,海南师范大学,,21,17,16,12,9,78,67,61,61,6,10,7,7,0.4,0.4
2023-08-30T03:00:00,1413A,110.33,20.0356,海口市,龙华路环保局宿舍,,25,15,18,17,10,79,68,62,62,5,10,6,7,0.4,0.5
2023-08-30T03:00:00,1414A,106.3787,29.8279,重庆市,缙云山,,28,17,26,5,10,164,89,92,91,7,13,8,9,0.3,0.4
2023-08-30T03:00:00,1416A,106.4213,29.8253,重庆市,天生,,35,35,31,23,22,171,46,68,57,16,25,5,6,0.6,0.7
2023-08-30T03:00:00,1417A,106.6263,29.7228,重庆市,两路,,28,19,30,19,20,148,74,82,79,21,38,8,9,0.8,1
2023-08-30T03:00:00,1418A,106.2953,29.5983,重庆市,虎溪,,33,33,40,22,25,153,36,65,47,34,37,6,5,0.8,0.9
2023-08-30T03:00:00,1419A,106.5777,29.5102,重庆市,南坪,,31,26,34,18,19,160,97,93,93,6,20,6,8,0.7,0.8
2023-08-30T03:00:00,1420A,106.6556,29.6277,重庆市,唐家沱,,25,21,35,17,21,149,74,66,66,26,40,6,7,0.6,0.7
2023-08-30T03:00:00,1421A,106.6349,29.4906,重庆市,茶园,,25,19,39,8,17,165,78,91,83,15,33,4,5,0.7,0.9
2023-08-30T03:00:00,1422A,106.3754,29.4572,重庆市,白市驿,,27,22,26,14,19,140,84,77,77,17,20,10,8,0.6,0.7
2023-08-30T03:00:00,1425A,106.6205,29.7166,重庆市,空港,,27,27,37,17,20,158,86,94,91,13,34,6,7,0.6,0.8
2023-08-30T03:00:00,1426A,106.4782,29.4875,重庆市,新山村,,25,25,43,13,22,142,80,92,82,15,42,11,11,0.5,0.7
2023-08-30T03:00:00,1427A,106.5616,29.6453,重庆市,礼嘉,,28,28,38,15,21,151,62,79,72,35,41,8,9,0.9,1
2023-08-30T03:00:00,1428A,106.4522,29.7091,重庆市,蔡家,,43,43,46,14,22,159,53,71,62,14,29,6,6,0.9,1
2023-08-30T03:00:00,1429A,106.5093,29.3917,重庆市,鱼新街,,26,15,32,18,22,132,61,78,70,13,36,5,9,0.9,1.1
2023-08-30T03:00:00,1431A,103.9728,30.7236,成都市,金泉两河,,21,21,34,11,21,83,17,8,8,12,23,3,5,0.5,0.6
2023-08-30T03:00:00,1432A,104.176,30.6872,成都市,十里店,,28,26,35,19,22,86,25,18,18,22,30,2,3,0.7,0.7
2023-08-30T03:00:00,1433A,104.079,30.5706,成都市,三瓦窑,,23,23,32,10,18,89,29,22,22,27,40,3,3,0.3,0.5
2023-08-30T03:00:00,1434A,104.1114,30.63,成都市,沙河铺,,34,34,36,17,23,76,4,8,7,31,33,2,2,0.8,0.8
2023-08-30T03:00:00,1437A,104.0786,30.6531,成都市,君平街,,35,35,45,24,33,89,28,26,26,26,33,3,3,0.6,0.8
2023-08-30T03:00:00,1438A,103.613,31.0283,成都市,灵岩寺,,15,13,14,10,10,114,48,52,49,15,8,28,14,0.7,0.7
2023-08-30T03:00:00,1439A,106.6899,26.5998,贵阳市,马鞍山,,17,17,15,2,3,111,37,38,37,8,7,5,5,0.4,0.4
2023-08-30T03:00:00,1440A,106.6971,26.5694,贵阳市,市环保站,,22,14,12,15,9,110,68,70,69,6,9,3,3,0.3,0.3
2023-08-30T03:00:00,1441A,106.6243,26.6266,贵阳市,鉴湖路,,24,24,17,12,6,104,64,61,61,8,7,4,4,0.5,0.5
2023-08-30T03:00:00,1442A,106.7487,26.6343,贵阳市,燕子冲,,19,14,10,9,9,104,58,58,57,5,5,5,5,0.6,0.5
2023-08-30T03:00:00,1443A,106.6555,26.4365,贵阳市,碧云窝,,27,27,20,7,6,112,68,67,67,5,7,5,4,0.5,0.5
2023-08-30T03:00:00,1444A,106.694,26.5161,贵阳市,中院村,,19,14,18,12,8,103,58,57,57,6,9,6,5,0.4,0.4
2023-08-30T03:00:00,1445A,106.7109,26.6027,贵阳市,红边门,,24,24,17,12,13,109,60,65,63,5,7,4,4,0.5,0.6
2023-08-30T03:00:00,1446A,106.7164,26.5699,贵阳市,新华路,,21,17,16,14,9,112,65,66,64,2,3,5,6,0.4,0.4
2023-08-30T03:00:00,1447A,106.674,26.5424,贵阳市,太慈桥,,21,9,11,7,6,99,66,65,65,6,8,4,4,0.4,0.4
2023-08-30T03:00:00,1450A,102.8204,24.8886,昆明市,呈贡新区,,31,31,34,15,19,107,80,78,78,8,14,6,10,0.7,0.8
2023-08-30T03:00:00,1451A,102.6251,24.9608,昆明市,西山森林公园,,30,25,19,12,15,148,93,89,89,8,11,11,9,0.8,0.8
2023-08-30T03:00:00,1452A,102.7252,25.0902,昆明市,龙泉镇,,30,26,27,21,20,114,65,63,63,15,14,8,9,0.6,0.6
2023-08-30T03:00:00,1453A,102.7266,25.0375,昆明市,东风东路,,35,34,31,24,16,117,73,68,68,16,19,6,7,0.5,0.5
2023-08-30T03:00:00,1454A,102.6742,25.0669,昆明市,金鼎山,,26,26,31,18,14,128,74,71,71,11,16,5,6,0.5,0.5
2023-08-30T03:00:00,1455A,102.6644,25.0401,昆明市,碧鸡广场,,34,34,33,21,14,130,81,73,73,7,11,6,7,0.5,0.5
2023-08-30T03:00:00,1456A,91.1319,29.6514,拉萨市,八廓街,,20,18,11,8,8,109,62,57,57,12,11,9,7,0.2,0.2
2023-08-30T03:00:00,1457A,91.1221,29.6747,拉萨市,市环保局,,18,18,13,9,7,104,43,38,38,21,18,8,7,0.2,0.3
2023-08-30T03:00:00,1458A,91.0874,29.6475,拉萨市,区监测站,,30,30,13,12,7,99,14,30,21,53,24,9,8,0.5,0.3
2023-08-30T03:00:00,1459A,91.1774,29.6541,拉萨市,西藏大学,,18,7,8,6,5,104,55,65,59,11,10,11,8,0.2,0.3
2023-08-30T03:00:00,1460A,90.9798,29.6588,拉萨市,区辐射站,,13,11,14,7,6,98,40,45,43,23,15,10,10,0.1,0.2
2023-08-30T03:00:00,1461A,91.0834,29.6292,拉萨市,拉萨火车站,,16,16,20,8,7,99,50,56,54,17,13,8,6,0.4,0.2
2023-08-30T03:00:00,1462A,108.882,34.2749,西安市,高压开关厂,,46,46,36,26,19,188,46,51,49,38,31,8,8,0.8,0.7
2023-08-30T03:00:00,1463A,108.993,34.2629,西安市,兴庆小区,,31,31,31,14,14,189,42,49,45,20,20,7,7,0.5,0.6
2023-08-30T03:00:00,1464A,109.06,34.2572,西安市,纺织城,,37,37,39,13,18,190,1,4,3,43,32,4,4,0.6,0.8
2023-08-30T03:00:00,1465A,108.9356,34.2173,西安市,小寨,,28,28,31,12,14,189,26,40,34,31,24,7,6,0.7,0.7
2023-08-30T03:00:00,1466A,108.954,34.2713,西安市,市人民体育场,,38,38,33,18,18,181,29,34,33,24,23,6,7,0.6,0.6
2023-08-30T03:00:00,1467A,108.8922,34.2322,西安市,高新西区,,31,31,30,18,17,193,62,58,58,20,27,6,6,0.6,0.7
2023-08-30T03:00:00,1468A,108.935,34.3474,西安市,经开区,,35,35,35,19,17,173,49,40,40,23,30,4,3,0.7,0.7
2023-08-30T03:00:00,1469A,108.906,34.1546,西安市,长安区,,32,32,34,15,15,217,18,33,24,30,22,6,7,0.5,0.6
2023-08-30T03:00:00,1471A,109.2186,34.3731,西安市,临潼区,颗粒物(PM10),51,51,36,20,18,176,33,69,45,38,22,4,5,0.5,0.6
2023-08-30T03:00:00,1472A,108.869,34.378,西安市,草滩,颗粒物(PM10),57,63,42,15,10,198,13,14,14,64,37,14,14,0.8,0.7
2023-08-30T03:00:00,1473A,108.985,34.1978,西安市,曲江文化产业集团,,18,15,33,10,15,197,29,30,30,35,34,6,6,0.6,0.8
2023-08-30T03:00:00,1474A,109.051,34.3213,西安市,广运潭,,22,22,32,13,15,171,33,38,36,24,23,6,7,0.5,0.6
2023-08-30T03:00:00,1476A,103.631,36.1031,兰州市,兰炼宾馆,颗粒物(PM10),51,52,36,30,19,172,43,41,41,44,31,8,5,1.0,0.5
2023-08-30T03:00:00,1477A,104.1373,35.9454,兰州市,榆中兰大校区,,,,,,,,,,,,,,,,
2023-08-30T03:00:00,1478A,103.8412,36.0726,兰州市,生物制品所,,46,43,31,32,21,142,57,23,23,42,31,8,5,0.9,0.8
2023-08-30T03:00:00,1479A,103.831,36.0464,兰州市,铁路设计院,,42,42,35,29,21,149,15,20,19,82,49,10,9,0.9,0.8
2023-08-30T03:00:00,1483A,101.524,36.6867,西宁市,第五水厂,,,,,,,,,,,,,,,,
2023-08-30T03:00:00,1484A,105.9512,38.6016,银川市,贺兰山马莲口,,33,15,27,11,16,179,104,111,106,5,13,6,20,0.2,0.5
2023-08-30T03:00:00,1488A,106.2328,38.4975,银川市,贺兰山东路,颗粒物(PM10),51,52,46,27,23,173,52,65,56,32,38,19,17,0.9,0.7
2023-08-30T03:00:00,1489A,106.1358,38.5036,银川市,学院路,,49,49,51,20,26,176,42,49,45,27,35,20,23,1.0,0.8
2023-08-30T03:00:00,1490A,87.5801,43.8303,乌鲁木齐市,监测站,,40,40,31,3,6,93,42,50,43,37,19,5,5,0.6,0.5
2023-08-30T03:00:00,1491A,87.6046,43.768,乌鲁木齐市,收费所,,37,37,29,18,10,94,38,40,39,34,22,3,3,0.4,0.3
2023-08-30T03:00:00,1492A,87.4754,43.9469,乌鲁木齐市,新疆农科院农场,颗粒物(PM10),85,119,42,28,9,80,0,14,7,73,17,5,3,1.0,0.9
2023-08-30T03:00:00,1493A,87.5525,43.8711,乌鲁木齐市,铁路局,,36,36,31,14,8,97,43,57,52,37,16,5,5,0.5,0.4
2023-08-30T03:00:00,1494A,87.6432,43.831,乌鲁木齐市,三十一中学,颗粒物(PM10),52,54,27,8,6,90,57,53,53,15,11,5,5,0.6,0.6
2023-08-30T03:00:00,1496A,87.7216,44.1747,乌鲁木齐市,米东区环保局,,37,37,34,16,11,108,38,54,48,29,10,7,8,0.5,0.2
2023-08-30T03:00:00,1508A,112.9433,27.8614,湘潭市,板塘,,47,47,42,28,28,120,65,54,54,22,17,6,5,0.6,0.6
2023-08-30T03:00:00,1511A,112.9118,27.8403,湘潭市,市监测站,,49,49,41,26,24,133,69,50,50,13,17,4,4,0.9,0.8
2023-08-30T03:00:00,1512A,112.8937,27.8728,湘潭市,江麓,,48,48,44,31,25,126,68,60,60,16,19,5,7,0.4,0.4
2023-08-30T03:00:00,1513A,112.9227,27.8159,湘潭市,岳塘,,49,49,45,24,24,117,58,43,43,22,22,5,5,0.5,0.4
2023-08-30T03:00:00,1514A,112.9074,27.9119,湘潭市,科大,,49,49,44,25,25,124,63,47,47,16,18,5,5,0.9,0.9
2023-08-30T03:00:00,1515A,113.135,27.8244,株洲市,天台山庄,颗粒物(PM10),51,52,44,30,22,99,51,54,51,28,19,5,5,0.7,0.7
2023-08-30T03:00:00,1518A,113.095,27.8867,株洲市,株冶医院,颗粒物(PM10),54,57,44,32,25,105,22,24,21,39,23,4,4,0.7,0.7
2023-08-30T03:00:00,1519A,113.167,27.8667,株洲市,市四中,颗粒物(PM10),54,58,40,33,22,95,15,26,19,43,19,7,7,0.9,0.8
2023-08-30T03:00:00,1520A,113.143,27.8381,株洲市,火车站,细颗粒物(PM2.5),80,55,45,59,32,93,51,60,55,25,20,5,7,0.5,0.6
2023-08-30T03:00:00,1524A,113.13,27.8528,株洲市,市监测站,颗粒物(PM10),57,63,47,37,28,101,38,43,39,38,21,5,7,0.9,0.9
2023-08-30T03:00:00,1552A,106.805,26.3003,贵阳市,桐木岭,,,,,,,,,,,,,,,,
2023-08-30T03:00:00,1559A,113.251,27.8336,株洲市,大京风景区,,36,36,27,22,19,84,6,12,10,9,6,5,5,0.5,0.5
2023-08-30T03:00:00,1562A,113.0048,27.9153,湘潭市,昭山,颗粒物(PM10),51,51,42,27,21,116,35,44,39,25,20,5,5,0.7,0.7
2023-08-30T03:00:00,1564A,112.4876,27.9164,湘潭市,韶山,,42,42,34,6,13,117,106,113,111,7,7,9,9,0.3,0.3
2023-08-30T03:00:00,1585A,109.8756,40.6532,包头市,市环境监测站,,25,25,32,9,9,115,59,75,67,18,16,7,8,0.5,0.5
2023-08-30T03:00:00,1587A,109.9991,40.5842,包头市,包头八中,,29,29,39,8,9,134,55,78,69,34,29,10,13,0.5,0.6
2023-08-30T03:00:00,1588A,109.8538,40.6821,包头市,青山宾馆,,19,19,21,6,6,116,55,71,60,16,14,7,7,0.4,0.4
2023-08-30T03:00:00,1589A,109.8642,40.6288,包头市,惠龙物流,,21,16,25,2,10,118,65,93,81,21,20,9,10,0.5,0.5
2023-08-30T03:00:00,1590A,110.0377,40.5546,包头市,东河鸿龙湾,,33,33,30,5,10,142,55,74,63,30,21,17,16,1.7,0.9
2023-08-30T03:00:00,1591A,110.0023,39.8129,鄂尔多斯市,综合楼,颗粒物(PM10),59,68,59,17,19,136,13,14,14,85,47,83,80,0.5,0.6
2023-08-30T03:00:00,1592A,109.9486,39.8261,鄂尔多斯市,巴音孟克林场办事处,二氧化硫,51,34,55,17,19,147,49,66,53,53,45,151,37,0.4,0.6
2023-08-30T03:00:00,1593A,109.7736,39.5986,鄂尔多斯市,康泽苑,,29,29,26,11,8,124,38,41,37,25,20,11,11,0.5,0.5
2023-08-30T03:00:00,1594A,109.8119,39.5989,鄂尔多斯市,华泰汽车城,,29,29,31,12,15,118,12,18,16,45,31,7,8,0.4,0.4
2023-08-30T03:00:00,1595A,109.9734,39.7884,鄂尔多斯市,奥林花园,,44,44,48,12,18,131,43,52,45,46,36,30,22,0.7,0.8
2023-08-30T03:00:00,1597A,122.2703,40.7094,营口市,大庆路,,22,22,18,9,9,82,45,50,46,17,8,5,4,0.7,0.7
2023-08-30T03:00:00,1598A,122.2150,40.6511,营口市,镜湖西路,,14,14,14,6,5,72,41,48,44,15,10,6,6,0.4,0.3
2023-08-30T03:00:00,1599A,122.1658,40.6789,营口市,西炮台,,16,16,16,5,7,76,36,51,42,26,12,6,5,0.4,0.4
2023-08-30T03:00:00,1600A,124.3303,40.0625,丹东市,江湾东路,,17,4,4,4,4,92,53,48,48,11,9,5,5,0.6,0.6
2023-08-30T03:00:00,1601A,124.4256,40.1503,丹东市,临江后街,,15,11,6,10,4,79,47,46,46,12,12,7,6,0.5,0.5
2023-08-30T03:00:00,1602A,124.3933,40.1461,丹东市,元宝山,,15,10,9,5,4,73,45,48,46,9,8,8,8,0.7,0.7
2023-08-30T03:00:00,1603A,124.3633,40.1092,丹东市,民主桥,,18,7,6,4,3,83,56,55,55,2,5,4,3,0.6,0.5
2023-08-30T03:00:00,1604A,122.0303,41.1489,盘锦市,开发区,,23,16,16,12,9,87,12,18,16,45,13,4,3,0.7,0.7
2023-08-30T03:00:00,1605A,122.0485,41.0883,盘锦市,兴隆台,,23,21,16,11,8,85,13,27,22,46,17,5,5,0.6,0.4
2023-08-30T03:00:00,1606A,121.8297,41.1028,盘锦市,新生街道,,21,19,14,7,6,86,10,35,24,42,22,8,6,0.7,0.5
2023-08-30T03:00:00,1607A,120.9092,40.7136,葫芦岛市,龙港区,,38,38,36,19,8,91,4,13,7,58,22,10,21,0.5,0.4
2023-08-30T03:00:00,1608A,120.8392,40.7514,葫芦岛市,化工街,,27,27,38,8,15,88,6,6,6,44,18,20,11,0.4,0.4
2023-08-30T03:00:00,1609A,120.8341,40.7073,葫芦岛市,新区,,24,22,33,12,11,85,6,6,6,47,18,7,8,0.9,0.4
2023-08-30T03:00:00,1610A,120.8695,40.7677,葫芦岛市,东城区,,24,24,38,7,8,86,17,14,14,29,24,46,13,0.3,0.3
2023-08-30T03:00:00,1611A,118.5819,24.9117,泉州市,涂山街,,21,21,35,7,17,180,40,51,46,9,16,4,6,0.7,0.8
2023-08-30T03:00:00,1612A,118.5972,24.8978,泉州市,津头埔,,20,20,32,11,19,171,36,49,43,11,20,4,5,0.5,0.6
2023-08-30T03:00:00,1613A,118.6663,24.9424,泉州市,万安,,16,16,35,7,20,186,31,39,35,12,17,3,4,0.5,0.6
2023-08-30T03:00:00,1614A,118.6117,24.9604,泉州市,清源山,,,,,,,,,,,,,,,,
2023-08-30T03:00:00,1616A,117.6795,36.229,济南市,技术学院,,36,36,34,20,16,147,40,35,35,39,20,7,8,0.8,0.7
2023-08-30T03:00:00,1618A,118.3429,35.0532,临沂市,沂河小区,,41,41,41,23,22,138,48,47,47,22,19,6,6,0.3,0.4
2023-08-30T03:00:00,1619A,118.295,35.0583,临沂市,鲁南制药厂,,31,31,37,17,14,144,72,72,69,18,19,5,5,0.3,0.4
2023-08-30T03:00:00,1620A,118.2794,34.9976,临沂市,新光毛纺厂,,31,31,35,19,15,128,68,65,64,18,25,7,7,0.5,0.6
2023-08-30T03:00:00,1621A,118.3956,35.0888,临沂市,河东保险公司,,45,27,34,31,19,127,46,45,45,21,21,3,3,0.5,0.4
2023-08-30T03:00:00,1622A,116.3032,37.4674,德州市,儿童乐园,,36,36,48,14,18,160,97,100,99,15,25,11,9,0.7,0.7
2023-08-30T03:00:00,1624A,116.2991,37.4451,德州市,监理站,,38,38,42,17,16,150,76,86,80,27,26,9,7,0.6,0.6
2023-08-30T03:00:00,1625A,115.9848,36.4372,聊城市,区政府,,45,45,44,30,24,169,26,40,35,42,26,2,5,0.4,0.3
2023-08-30T03:00:00,1628A,118.0062,37.3803,滨州市,市环保局,,33,33,30,14,11,129,46,61,51,24,13,8,8,0.6,0.6
2023-08-30T03:00:00,1629A,118.0018,37.3617,滨州市,第二水厂,,29,29,29,16,13,138,31,50,40,38,14,5,6,0.6,0.5
2023-08-30T03:00:00,1630A,117.9776,37.393,滨州市,北中新校,,30,30,34,18,14,138,25,52,37,25,15,5,7,0.5,0.4
2023-08-30T03:00:00,1631A,118.0414,36.8103,淄博市,人民公园,颗粒物(PM10),60,70,41,29,18,145,8,19,12,62,23,8,8,0.7,0.4
2023-08-30T03:00:00,1633A,117.8525,36.4847,淄博市,双山,,25,25,35,10,16,146,44,40,40,24,22,5,6,0.1,0.2
2023-08-30T03:00:00,1634A,117.9592,36.6331,淄博市,气象站,细颗粒物(PM2.5),55,56,44,39,24,143,24,26,25,28,23,23,9,0.6,0.4
2023-08-30T03:00:00,1635A,118.3092,36.8194,淄博市,莆田园,颗粒物(PM10),56,61,45,31,22,143,24,16,16,46,28,18,10,2.7,0.9
2023-08-30T03:00:00,1637A,117.558,34.8438,枣庄市,市中区政府,,46,46,40,27,21,156,74,70,70,29,22,11,7,0.4,0.4
2023-08-30T03:00:00,1638A,117.2852,34.7837,枣庄市,薛城环保局,颗粒物(PM10),55,59,52,29,26,143,71,58,58,40,27,16,14,0.6,0.6
2023-08-30T03:00:00,1639A,117.5852,34.7745,枣庄市,峄城区政府,颗粒物(PM10),53,56,46,22,16,148,76,74,74,25,21,14,14,0.5,0.6
2023-08-30T03:00:00,1640A,117.7276,34.5578,枣庄市,台儿庄区环保局,颗粒物(PM10),64,78,42,36,20,142,28,46,39,52,30,10,9,0.8,0.7
2023-08-30T03:00:00,1641A,117.4518,35.0992,枣庄市,山亭区环保局,,35,34,32,24,21,149,77,75,75,15,15,10,8,0.3,0.4
2023-08-30T03:00:00,1642A,121.2514,37.5639,烟台市,开发区,,28,19,49,7,9,121,88,90,89,6,4,4,4,0.7,0.6
2023-08-30T03:00:00,1643A,121.3719,37.5433,烟台市,轴承厂,,24,24,25,14,13,118,71,70,70,14,9,6,6,0.4,0.4
2023-08-30T03:00:00,1644A,121.3181,37.5436,烟台市,西郊化工站,,28,27,26,19,12,116,65,64,64,20,12,10,9,0.6,0.5
2023-08-30T03:00:00,1645A,121.4478,37.4822,烟台市,莱山环保局,,30,14,16,8,6,117,95,96,95,6,3,7,6,0.4,0.3
2023-08-30T03:00:00,1646A,121.2611,37.4967,烟台市,福山环保局,,19,19,25,2,3,115,48,56,54,27,13,6,6,0.6,0.6
2023-08-30T03:00:00,1650A,119.1437,36.7023,潍坊市,环保局,,35,31,30,24,15,129,18,38,26,40,19,7,10,0.6,0.6
2023-08-30T03:00:00,1653A,116.6251,35.4302,济宁市,火炬城,颗粒物(PM10),54,57,38,29,19,150,35,87,60,48,15,9,9,0.5,0.6
2023-08-30T03:00:00,1655A,116.5491,35.4042,济宁市,电化厂,,49,49,49,27,22,133,71,76,75,18,19,9,11,0.5,0.6
2023-08-30T03:00:00,1656A,117.1437,36.1937,泰安市,监测站,,48,46,36,33,20,163,57,74,59,17,9,7,8,0.5,0.5
2023-08-30T03:00:00,1657A,117.0885,36.2017,泰安市,人口学校,,31,24,26,17,13,156,98,117,109,10,10,6,5,0.5,0.4
2023-08-30T03:00:00,1658A,117.1089,36.1758,泰安市,电力学校,,39,39,35,20,15,159,45,34,34,22,16,8,8,0.4,0.4
2023-08-30T03:00:00,1659A,119.471,35.4209,日照市,监测站,,17,17,24,10,13,139,39,44,41,30,18,5,6,0.6,0.6
2023-08-30T03:00:00,1660A,119.523,35.4216,日照市,市政府广场,,27,22,24,6,11,141,86,89,88,7,7,5,5,0.3,0.4
2023-08-30T03:00:00,1661A,119.5587,35.4044,日照市,港务局,,30,14,24,9,12,141,95,93,93,7,9,7,7,0.3,0.4
2023-08-30T03:00:00,1662A,122.1214,37.4236,威海市,华夏技校,,28,19,14,7,8,111,88,86,86,5,6,4,4,0.3,0.3
2023-08-30T03:00:00,1663A,122.0508,37.5236,威海市,山大分校,,29,12,18,7,6,115,90,90,90,4,3,8,8,0.4,0.4
2023-08-30T03:00:00,1664A,122.1067,37.5072,威海市,市监测站,,26,17,17,2,8,106,83,81,81,3,4,7,8,0.4,0.4
2023-08-30T03:00:00,1666A,118.6614,37.4309,东营市,市环保局,,24,17,22,9,10,123,75,73,73,15,12,14,8,0.1,0.2
2023-08-30T03:00:00,1669A,113.5824,24.7733,韶关市,市八中,,18,14,18,8,7,62,55,47,47,4,7,11,10,0.6,0.7
2023-08-30T03:00:00,1671A,113.5917,24.7972,韶关市,园林处,,24,24,19,14,13,64,54,46,46,3,4,10,9,0.6,0.6
2023-08-30T03:00:00,1672A,113.6735,24.7791,韶关市,韶关学院,,26,26,18,18,11,54,48,39,39,9,8,8,11,0.5,0.6
2023-08-30T03:00:00,1673A,113.5971,24.6863,韶关市,曲江监测站,,18,18,19,8,6,60,51,42,42,7,9,9,9,0.6,0.6
2023-08-30T03:00:00,1674A,116.6794,23.3667,汕头市,金平子站,,,,32,4,17,175,50,53,49,13,22,9,10,0.6,0.9
2023-08-30T03:00:00,1675A,116.7244,23.3633,汕头市,龙湖子站,,16,6,29,4,17,167,50,60,57,12,20,6,8,0.7,0.9
2023-08-30T03:00:00,1676A,116.7258,23.2775,汕头市,濠江子站,,16,6,30,6,17,142,49,57,53,10,19,12,11,0.5,0.7
2023-08-30T03:00:00,1677A,116.7519,23.4714,汕头市,澄海子站,,18,9,24,4,16,145,55,62,58,7,13,4,11,0.6,0.7
2023-08-30T03:00:00,1678A,116.6092,23.2539,汕头市,潮阳子站,,16,16,31,5,13,160,42,44,43,11,15,9,10,0.6,0.9
2023-08-30T03:00:00,1680A,110.3539,21.2706,湛江市,湛江影剧院,,14,14,25,6,13,80,38,39,39,5,7,9,17,0.7,0.8
2023-08-30T03:00:00,1681A,110.3928,21.2228,湛江市,市环境监测站,,25,18,22,17,18,79,36,38,37,8,9,10,9,0.6,0.6
2023-08-30T03:00:00,1682A,110.4019,21.1997,湛江市,环保局宿舍,,16,16,22,5,14,81,38,38,38,5,8,5,7,0.6,0.6
2023-08-30T03:00:00,1683A,110.4111,21.2028,湛江市,霞山游泳场,,16,16,25,6,13,83,38,39,39,8,8,7,9,0.7,0.7
2023-08-30T03:00:00,1684A,110.3316,21.2679,湛江市,麻章区环保局,,17,17,26,4,16,71,28,32,30,8,10,14,10,0.8,0.8
2023-08-30T03:00:00,1685A,110.4558,21.2567,湛江市,坡头区环保局,,19,12,23,13,14,83,40,42,41,7,7,9,9,0.6,0.6
2023-08-30T03:00:00,1686A,111.0286,21.4688,茂名市,电白南海,,19,19,20,7,13,77,33,34,34,10,9,8,8,0.7,0.7
2023-08-30T03:00:00,1687A,110.9294,21.6533,茂名市,茂石化七小,,13,7,16,9,13,70,31,33,32,7,8,8,8,0.6,0.6
2023-08-30T03:00:00,1688A,110.9107,21.6687,茂名市,健康路,,19,19,15,9,7,82,34,34,33,6,6,5,8,0.6,0.6
2023-08-30T03:00:00,1689A,110.8592,21.6828,茂名市,高岭,,20,19,20,14,16,82,31,32,31,13,9,20,9,0.7,0.6
2023-08-30T03:00:00,1690A,116.1231,24.3284,梅州市,梅江月梅,,21,21,16,6,7,69,30,26,26,16,14,7,4,0.7,0.7
2023-08-30T03:00:00,1691A,116.0797,24.2719,梅州市,梅县新城,,14,14,18,6,9,70,44,41,41,7,8,6,7,0.7,0.6
2023-08-30T03:00:00,1692A,116.1248,24.2654,梅州市,环境监控中心,,13,13,16,9,8,81,39,38,38,12,13,8,8,0.6,0.6
2023-08-30T03:00:00,1693A,115.3653,22.775,汕尾市,市环保局,,15,7,12,9,8,77,48,48,48,3,6,5,5,0.8,0.7
2023-08-30T03:00:00,1694A,115.3706,22.7898,汕尾市,市政府,,16,10,12,3,5,73,50,49,49,4,5,5,5,0.7,0.6
2023-08-30T03:00:00,1695A,115.3622,22.7925,汕尾市,新城中学,,22,5,16,15,8,67,42,42,42,3,4,7,6,0.8,0.7
2023-08-30T03:00:00,1696A,114.6778,23.7569,河源市,源西,,26,20,18,18,12,68,54,60,56,9,7,6,5,0.8,0.7
2023-08-30T03:00:00,1697A,114.6944,23.7586,河源市,东埔,,32,18,16,22,12,67,52,56,54,7,8,7,5,0.7,0.6
2023-08-30T03:00:00,1698A,114.6892,23.7233,河源市,老城,,39,39,20,10,9,70,55,58,56,8,9,6,4,0.6,0.6
2023-08-30T03:00:00,1699A,111.9797,21.8593,阳江市,鸳鸯湖,,18,18,18,4,5,66,28,31,29,7,10,4,4,0.7,0.7
2023-08-30T03:00:00,1701A,111.9491,21.8658,阳江市,马南垌,,28,28,20,8,12,62,31,32,31,5,9,5,4,0.3,0.4
2023-08-30T03:00:00,1702A,113.0426,23.691,清远市,环保大楼,,16,15,14,4,6,62,50,48,48,4,5,6,6,0.8,0.8
2023-08-30T03:00:00,1703A,113.0208,23.7106,清远市,凤城街办,,17,17,16,8,7,57,44,44,44,6,7,8,6,0.6,0.6
2023-08-30T03:00:00,1705A,116.6367,23.6719,潮州市,西园路,,15,15,19,8,9,77,36,45,40,5,8,3,3,0.3,0.3
2023-08-30T03:00:00,1706A,116.6447,23.6706,潮州市,档案局,,15,3,19,2,11,78,47,55,51,2,7,5,6,0.4,0.5
2023-08-30T03:00:00,1708A,116.3701,23.5345,揭阳市,新兴,,12,10,20,8,14,108,36,46,41,6,9,7,7,0.7,0.7
2023-08-30T03:00:00,1709A,116.3264,23.5443,揭阳市,西马,,11,6,22,4,11,106,35,46,41,6,9,6,6,0.8,0.8
2023-08-30T03:00:00,1710A,116.3611,23.5626,揭阳市,东兴,,22,22,23,6,10,95,28,38,33,20,16,12,6,0.8,0.9
2023-08-30T03:00:00,1711A,116.4151,23.5294,揭阳市,渔湖,,13,13,25,1,11,100,37,45,42,16,15,8,8,0.6,0.7
2023-08-30T03:00:00,1712A,112.0392,22.9169,云浮市,新市府,,24,24,17,10,8,50,23,26,25,16,11,21,11,0.9,0.9
2023-08-30T03:00:00,1714A,112.0539,22.9539,云浮市,牧羊,,32,32,16,6,3,51,7,12,11,27,15,5,7,0.7,0.7
2023-08-30T03:00:00,1715A,102.575,24.3711,玉溪市,东风水库,,24,18,20,16,14,104,74,73,73,9,8,5,6,0.7,0.8
2023-08-30T03:00:00,1718A,115.4208,35.2464,菏泽市,气象局,,50,50,46,27,21,163,62,82,76,27,25,5,8,0.5,0.4
2023-08-30T03:00:00,1719A,115.4747,35.2375,菏泽市,市政协,颗粒物(PM10),52,53,47,29,23,170,73,67,67,22,15,4,7,0.5,0.5
2023-08-30T03:00:00,1721A,113.3819,40.1097,大同市,果树场,,,,,,,,,,,,,,,,
2023-08-30T03:00:00,1723A,113.2994,40.0758,大同市,云冈宾馆,,38,38,30,10,15,138,23,35,28,36,27,11,12,1.0,0.7
2023-08-30T03:00:00,1724A,113.3444,40.0917,大同市,大同大学,,37,37,28,15,15,138,45,61,54,24,21,26,19,0.5,0.5
2023-08-30T03:00:00,1725A,113.2661,40.1269,大同市,安家小村,,50,50,31,10,13,132,4,6,5,39,22,10,12,0.4,0.8
2023-08-30T03:00:00,1726A,113.2711,40.0844,大同市,教育学院,颗粒物(PM10),55,59,37,20,16,133,11,31,21,48,33,14,10,2.0,1
2023-08-30T03:00:00,1727A,113.1147,36.1547,长治市,清华站,,23,23,33,7,13,159,57,59,58,16,20,8,9,0.8,0.9
2023-08-30T03:00:00,1728A,113.1031,36.1989,长治市,监测站,,23,23,30,9,15,166,61,73,67,21,22,6,6,1.2,0.8
2023-08-30T03:00:00,1730A,113.0886,36.2125,长治市,审计局,,24,24,26,12,15,157,68,81,73,17,19,7,8,1.0,0.9
2023-08-30T03:00:00,1731A,113.0844,36.1856,长治市,长治八中,,20,20,34,8,16,158,63,75,68,17,21,10,11,1.0,0.9
2023-08-30T03:00:00,1733A,111.5531,36.0783,临汾市,临钢医院,颗粒物(PM10),56,62,55,23,22,166,40,43,42,25,21,10,8,0.8,0.9
2023-08-30T03:00:00,1734A,111.5028,36.0714,临汾市,技工学校,颗粒物(PM10),56,61,57,7,13,190,45,50,48,28,26,8,12,1.3,1.3
2023-08-30T03:00:00,1736A,111.5018,36.0855,临汾市,市委,颗粒物(PM10),61,72,62,27,26,150,41,43,42,29,28,8,11,0.8,0.9
2023-08-30T03:00:00,1738A,113.5758,37.8572,阳泉市,市中心,,35,35,38,18,19,126,2,2,2,52,42,9,16,0.7,0.8
2023-08-30T03:00:00,1739A,113.4894,37.8731,阳泉市,赛鱼,,40,40,37,17,18,129,3,3,3,48,41,7,8,0.7,0.7
2023-08-30T03:00:00,1740A,113.5819,37.8486,阳泉市,南庄,,46,46,55,7,19,132,4,4,4,51,36,11,17,0.7,0.8
2023-08-30T03:00:00,1742A,113.5614,37.8703,阳泉市,平坦,,41,41,39,18,19,128,3,3,3,64,48,9,14,0.5,0.6
2023-08-30T03:00:00,1743A,113.5158,37.8392,阳泉市,大阳泉,,47,47,35,29,24,130,67,64,64,20,23,8,13,0.6,0.5
2023-08-30T03:00:00,1744A,118.9233,42.2816,赤峰市,松山一中,,34,34,18,8,8,87,39,52,45,22,16,9,9,0.3,0.3
2023-08-30T03:00:00,1745A,118.9576,42.2728,赤峰市,哈达街,,15,10,16,8,5,84,45,59,51,18,16,14,13,0.1,0.1
2023-08-30T03:00:00,1746A,118.8788,42.2554,赤峰市,天义路,,20,5,10,3,6,90,64,68,65,7,15,8,8,0.1,0.2
2023-08-30T03:00:00,1748A,123.044,41.1196,鞍山市,深沟寺,,20,20,21,9,10,68,34,37,35,14,13,2,3,0.7,0.8
2023-08-30T03:00:00,1749A,123.011,41.0931,鞍山市,太阳城,,24,24,20,16,14,66,37,44,36,18,23,6,7,0.8,1.2
2023-08-30T03:00:00,1750A,123.0485,41.1442,鞍山市,太平,,25,25,18,14,12,71,42,45,42,20,14,11,8,1.1,0.7
2023-08-30T03:00:00,1751A,122.9642,41.0971,鞍山市,铁西三道街,,26,26,22,14,12,59,21,22,18,38,21,27,14,2.2,1.5
2023-08-30T03:00:00,1752A,122.9341,41.0833,鞍山市,铁西工业园区,颗粒物(PM10),60,70,35,20,10,70,5,5,5,27,16,6,7,1.3,1
2023-08-30T03:00:00,1753A,123.022,41.0821,鞍山市,明达新区,,18,18,21,9,12,64,38,43,38,14,17,5,5,0.8,0.9
2023-08-30T03:00:00,1754A,123.1289,41.0228,鞍山市,千山,,,,,,,,,,,,,,,,
2023-08-30T03:00:00,1755A,123.7977,41.8491,抚顺市,望花区,,14,10,10,6,6,75,43,58,48,10,8,8,8,0.3,0.3
2023-08-30T03:00:00,1756A,123.9161,41.8822,抚顺市,顺城区,,14,14,9,6,5,73,39,61,50,9,7,4,4,0.3,0.4
2023-08-30T03:00:00,1757A,124.0436,41.8611,抚顺市,东洲区,,16,14,12,8,4,74,49,70,59,13,9,6,4,0.3,0.4
2023-08-30T03:00:00,1758A,123.9247,41.8642,抚顺市,新抚区,,14,10,7,5,4,76,43,66,54,9,8,5,5,0.4,0.5
2023-08-30T03:00:00,1759A,124.0972,41.8961,抚顺市,大伙房水库,,14,14,7,9,3,70,37,57,50,17,5,6,5,0.4,0.3
2023-08-30T03:00:00,1760A,123.7086,41.8391,抚顺市,沈抚新城,,15,15,6,5,3,70,40,47,39,7,9,6,5,0.4,0.4
2023-08-30T03:00:00,1761A,123.8275,41.3064,本溪市,大峪,,14,14,14,5,6,68,41,60,50,9,14,4,4,0.4,0.5
2023-08-30T03:00:00,1762A,123.7567,41.3325,本溪市,溪湖,,12,11,12,5,6,63,25,56,36,24,22,7,7,0.5,0.6
2023-08-30T03:00:00,1763A,123.7169,41.3094,本溪市,彩屯,,18,18,13,10,10,66,24,49,33,19,16,6,6,0.6,0.7
2023-08-30T03:00:00,1764A,123.7669,41.2864,本溪市,东明,,15,11,12,6,8,62,45,60,51,25,19,6,6,0.7,0.8
2023-08-30T03:00:00,1765A,123.7992,41.2664,本溪市,新立屯,,12,12,12,6,8,57,31,57,43,3,8,7,7,0.9,1
2023-08-30T03:00:00,1766A,123.8142,41.3472,本溪市,威宁,,15,15,12,10,8,51,16,37,25,12,12,6,6,0.5,0.6
2023-08-30T03:00:00,1767A,121.1115,41.0879,锦州市,南山,,18,18,25,4,10,84,41,40,39,13,15,14,6,0.5,0.5
2023-08-30T03:00:00,1768A,121.0533,40.8434,锦州市,开发区,颗粒物(PM10),64,78,44,28,14,84,5,7,6,42,19,37,11,1.1,0.8
2023-08-30T03:00:00,1769A,121.1836,41.1119,锦州市,百股街道,,19,19,27,7,8,84,16,24,21,24,14,10,9,0.6,0.5
2023-08-30T03:00:00,1770A,121.1178,41.1222,锦州市,天安街道,,21,21,26,9,9,82,38,42,40,11,13,25,10,0.6,0.4
2023-08-30T03:00:00,1771A,121.1303,41.1386,锦州市,北湖公园,,28,28,22,14,9,83,16,30,18,35,12,13,9,0.6,0.4
2023-08-30T03:00:00,1772A,126.54,43.8622,吉林市,哈达湾,,13,13,13,6,4,66,41,39,39,7,11,6,6,0.5,0.5
2023-08-30T03:00:00,1773A,126.5844,43.8358,吉林市,东局子,,13,5,7,6,6,67,40,38,38,6,13,6,6,0.6,0.6
2023-08-30T03:00:00,1774A,126.5052,43.8245,吉林市,电力学院,,14,10,8,2,4,65,42,40,40,6,12,7,8,0.5,0.6
2023-08-30T03:00:00,1775A,126.6133,43.8972,吉林市,江北,,11,10,11,6,4,64,35,35,33,7,6,8,7,0.6,0.6
2023-08-30T03:00:00,1776A,126.555,43.8306,吉林市,江南公园,,12,8,10,5,8,64,38,38,37,8,18,5,5,0.5,0.6
2023-08-30T03:00:00,1778A,126.7061,43.7133,吉林市,丰满,,,,,,,,,,,,,,,,
2023-08-30T03:00:00,1779A,123.9305,47.3636,齐齐哈尔市,安居小区,,13,10,22,2,11,58,41,41,40,3,6,5,5,0.3,0.3
2023-08-30T03:00:00,1780A,123.9488,47.3386,齐齐哈尔市,中心广场,,16,8,16,8,9,58,50,50,49,1,7,2,2,0.3,0.4
2023-08-30T03:00:00,1781A,123.9483,47.3227,齐齐哈尔市,农牧车辆厂,,16,12,27,2,4,58,50,51,49,2,7,5,6,0.3,0.3
2023-08-30T03:00:00,1783A,123.945,47.2988,齐齐哈尔市,市环境监测站,,17,4,17,5,8,59,52,51,50,2,7,2,5,0.2,0.2
2023-08-30T03:00:00,1784A,129.61,44.561,牡丹江市,环保大楼,,16,11,9,8,9,63,51,55,53,4,6,5,5,0.3,0.4
2023-08-30T03:00:00,1785A,129.6115,44.5782,牡丹江市,文化广场,,19,7,11,13,12,57,48,52,50,4,10,6,6,0.3,0.4
2023-08-30T03:00:00,1786A,129.5904,44.5963,牡丹江市,第一医院,,18,6,10,12,10,58,47,52,50,2,7,5,5,0.2,0.3
2023-08-30T03:00:00,1787A,129.6364,44.6075,牡丹江市,机车工厂,,15,15,16,5,7,60,46,49,47,1,6,2,2,0.4,0.5
2023-08-30T03:00:00,1788A,129.6386,44.5462,牡丹江市,第一中学,,15,5,8,6,6,61,47,50,48,5,5,5,5,0.2,0.2
2023-08-30T03:00:00,1789A,124.81117,46.03138,大庆市,大同区,,16,8,12,4,10,54,51,50,50,4,7,5,6,0.2,0.2
2023-08-30T03:00:00,1790A,125.129,46.533,大庆市,龙凤区,,17,4,8,5,7,56,52,54,53,4,5,2,2,0.1,0.2
2023-08-30T03:00:00,1791A,124.902,46.408,大庆市,红岗区,,19,6,15,13,9,60,52,60,55,3,8,2,3,0.3,0.4
2023-08-30T03:00:00,1792A,125.153,46.586,大庆市,萨尔图区,,16,6,11,7,6,54,51,52,51,2,4,5,5,0.1,0.2
2023-08-30T03:00:00,1793A,124.9042,46.6215,大庆市,让胡路区,,17,9,13,4,6,54,54,51,51,2,6,4,4,0.4,0.4
2023-08-30T03:00:00,1794A,118.3606,31.3519,芜湖市,监测站,,27,15,31,6,16,139,84,79,79,5,21,4,6,0.5,0.8
2023-08-30T03:00:00,1795A,118.3714,31.4134,芜湖市,科创中心,,24,13,30,10,17,136,75,78,77,18,30,6,9,0.5,0.8
2023-08-30T03:00:00,1796A,118.3673,31.3131,芜湖市,四水厂,,28,9,30,6,17,147,89,87,87,9,27,3,5,0.5,0.8
2023-08-30T03:00:00,1798A,118.5092,31.6837,马鞍山市,湖东路四小,,20,18,27,13,18,129,63,68,65,13,18,7,11,0.4,0.6
2023-08-30T03:00:00,1799A,118.5024,31.6449,马鞍山市,开发区,,24,24,23,10,15,139,70,71,71,13,14,6,8,0.6,0.9
2023-08-30T03:00:00,1800A,118.5228,31.7231,马鞍山市,慈湖,,25,25,29,15,18,132,72,77,75,13,21,16,11,0.8,0.9
2023-08-30T03:00:00,1802A,118.6245,31.7241,马鞍山市,濮塘,,25,16,20,17,19,138,54,53,51,6,10,3,4,0.8,0.9
2023-08-30T03:00:00,1803A,115.9872,29.6815,九江市,十里,,26,26,30,17,19,103,71,71,71,12,15,7,8,0.5,0.6
2023-08-30T03:00:00,1804A,115.9584,29.7046,九江市,茅山头,,25,24,27,17,23,98,68,77,71,17,19,5,11,0.7,0.8
2023-08-30T03:00:00,1805A,115.9877,29.7295,九江市,西园,,23,18,28,15,20,109,71,84,79,21,21,9,12,0.5,0.6
2023-08-30T03:00:00,1806A,116.0172,29.6547,九江市,五七二七厂,,21,21,26,13,15,86,42,76,56,8,8,8,8,0.5,0.6
2023-08-30T03:00:00,1808A,115.9114,29.6038,九江市,综合工业园,,25,23,28,17,19,100,56,58,57,21,28,11,12,0.6,0.7
2023-08-30T03:00:00,1809A,116.0721,29.7535,九江市,石化总厂,,29,29,30,14,18,106,63,72,68,14,14,9,9,0.7,0.7
2023-08-30T03:00:00,1810A,115.9773,29.5698,九江市,庐山气象台,,33,12,15,6,11,103,103,73,73,9,38,7,8,0.7,0.6
2023-08-30T03:00:00,1812A,112.3931,34.6516,洛阳市,市委党校,细颗粒物(PM2.5),53,53,38,37,29,151,49,57,54,32,16,8,8,0.5,0.5
2023-08-30T03:00:00,1814A,112.4657,34.6871,洛阳市,豫西宾馆,,,,42,36,27,154,67,64,64,18,22,4,4,0.7,0.8
2023-08-30T03:00:00,1815A,112.494,34.6886,洛阳市,河南林校,,47,47,37,31,24,157,70,65,65,20,22,6,5,0.5,0.6
2023-08-30T03:00:00,1816A,112.3844,34.623,洛阳市,开发区管委会,颗粒物(PM10),53,55,36,31,22,150,22,78,49,41,15,3,3,0.6,0.5
2023-08-30T03:00:00,1817A,112.4267,34.6258,洛阳市,市委新办公区,颗粒物(PM10),55,60,38,32,26,153,44,66,58,31,11,5,6,0.6,0.5
2023-08-30T03:00:00,1818A,114.4839,36.0621,安阳市,棉研所,,,,,,,,,,,,,,,,
2023-08-30T03:00:00,1819A,114.3551,36.1017,安阳市,红庙街,,31,31,37,9,16,177,81,89,82,7,10,4,8,0.9,1
2023-08-30T03:00:00,1820A,114.361,36.0681,安阳市,银杏小区,,,34,37,,16,182,75,93,84,11,10,6,7,1.3,0.8
2023-08-30T03:00:00,1824A,114.3389,34.7781,开封市,肿瘤医院,,34,34,40,18,22,168,68,96,79,15,11,5,7,0.4,0.5
2023-08-30T03:00:00,1826A,114.2885,34.7965,开封市,世纪星幼儿园,,26,26,37,12,16,166,68,96,79,23,17,7,11,0.7,0.9
2023-08-30T03:00:00,1828A,113.227,35.2125,焦作市,市环保局,,30,30,41,16,22,163,82,112,102,16,14,14,7,0.5,0.6
2023-08-30T03:00:00,1830A,113.1992,35.2590,焦作市,影视城,,,,,,,,,,,,,,,,
2023-08-30T03:00:00,1832A,113.3257,33.742,平顶山市,新华旅馆,颗粒物(PM10),72,94,41,28,21,159,12,32,24,66,28,4,5,1.0,1
2023-08-30T03:00:00,1833A,113.2919,33.737,平顶山市,规划设计院,颗粒物(PM10),54,58,47,24,22,150,12,15,11,58,27,6,7,0.7,0.7
2023-08-30T03:00:00,1834A,113.182,33.774,平顶山市,平顶山工学院,,48,48,46,27,18,158,36,95,59,37,19,4,8,0.6,0.5
2023-08-30T03:00:00,1835A,111.1922,34.7752,三门峡市,市政府,,38,38,37,17,20,147,19,19,19,34,25,6,6,0.7,0.7
2023-08-30T03:00:00,1836A,111.1587,34.7942,三门峡市,开发区,,47,47,42,22,23,136,28,34,26,17,15,5,5,0.6,0.6
2023-08-30T03:00:00,1838A,111.143,34.7955,三门峡市,风景区,,,,,,,,,,,,,,,,
2023-08-30T03:00:00,1840A,111.2992,30.6981,宜昌市,白龙岗,,29,29,30,14,12,140,71,65,65,10,20,2,2,0.5,0.5
2023-08-30T03:00:00,1841A,111.3549,30.6465,宜昌市,伍家岗,,35,27,27,24,15,156,53,45,45,24,22,4,4,0.5,0.5
2023-08-30T03:00:00,1842A,111.2628,30.6961,宜昌市,点军区,,34,34,28,19,13,150,39,55,46,13,13,7,7,0.5,0.5
2023-08-30T03:00:00,1843A,111.3275,30.7819,宜昌市,夷陵区,,24,24,26,14,10,128,49,56,52,15,16,4,5,0.4,0.4
2023-08-30T03:00:00,1844A,112.2494,30.3197,荆州市,市图书馆,,31,31,33,20,19,144,80,94,89,16,12,10,10,0.8,0.7
2023-08-30T03:00:00,1845A,112.2008,30.3544,荆州市,市委党校,,31,31,34,14,20,145,50,99,77,27,12,10,9,0.8,0.7
2023-08-30T03:00:00,1847A,113.1094,29.3578,岳阳市,南湖风景区,,30,30,30,19,20,136,74,73,73,12,12,12,8,0.8,0.8
2023-08-30T03:00:00,1848A,113.1493,29.4251,岳阳市,城陵矶,,30,30,30,19,18,130,70,74,72,18,17,11,9,0.6,0.7
2023-08-30T03:00:00,1849A,113.1497,29.3575,岳阳市,开发区,,35,35,38,20,19,136,73,65,65,11,14,9,8,0.5,0.7
2023-08-30T03:00:00,1850A,113.2621,29.4758,岳阳市,云溪区,,36,36,37,20,22,128,66,63,63,9,10,15,13,0.7,0.8
2023-08-30T03:00:00,1851A,112.9943,29.4402,岳阳市,君山区,,29,25,29,20,23,130,73,79,75,11,13,8,8,0.5,0.6
2023-08-30T03:00:00,1852A,113.2117,29.355,岳阳市,金凤水库,,43,43,32,26,17,71,66,68,62,13,10,6,5,0.5,0.6
2023-08-30T03:00:00,1854A,111.6975,28.9703,常德市,市二中,颗粒物(PM10),55,59,37,35,25,148,51,46,46,16,11,8,6,0.8,0.7
2023-08-30T03:00:00,1857A,111.7158,29.1456,常德市,白鹤山,,32,21,19,5,6,144,102,112,107,8,7,9,8,0.5,0.5
2023-08-30T03:00:00,1858A,110.5319,29.1217,张家界市,永定新区,,33,25,28,23,18,123,40,49,44,10,10,5,6,0.4,0.3
2023-08-30T03:00:00,1859A,110.4697,29.1242,张家界市,电业局,,30,24,26,21,17,125,51,54,52,7,10,3,4,0.4,0.4
2023-08-30T03:00:00,1860A,110.5594,29.3547,张家界市,未央路,,29,24,24,20,16,124,33,33,33,3,5,3,3,0.3,0.3
2023-08-30T03:00:00,1861A,110.4417,29.315,张家界市,袁家界,,26,24,19,18,13,123,61,68,65,3,4,8,8,0.7,0.7
2023-08-30T03:00:00,1862A,110.4144,25.3167,桂林市,电子科大尧山校区,,39,39,27,26,15,99,88,91,90,8,7,4,4,0.7,0.6
2023-08-30T03:00:00,1863A,110.2819,25.2697,桂林市,监测站,,36,36,33,22,17,102,90,94,92,7,9,7,7,0.7,0.6
2023-08-30T03:00:00,1864A,110.3089,25.2708,桂林市,龙隐路小学,,39,39,25,21,40,103,83,83,83,7,6,6,6,0.6,0.5
2023-08-30T03:00:00,1865A,110.2869,25.2178,桂林市,八中,,36,33,30,25,14,107,93,94,93,7,9,5,5,0.7,0.6
2023-08-30T03:00:00,1866A,109.2262,21.588,北海市,牛尾岭水库,,10,9,12,7,7,96,0,1,0,5,6,4,23,0.5,0.8
2023-08-30T03:00:00,1867A,109.1436,21.4086,北海市,海滩公园,,17,7,14,2,5,61,52,50,50,5,6,4,3,0.5,0.5
2023-08-30T03:00:00,1868A,109.0981,21.4661,北海市,新市环保局,,18,9,15,2,6,66,57,56,56,3,5,4,4,0.6,0.6
2023-08-30T03:00:00,1869A,109.1778,21.5233,北海市,北海工业园,,16,6,15,2,9,60,49,50,49,7,8,28,10,0.6,0.6
2023-08-30T03:00:00,1870A,109.4856,24.3895,柳州市,柳东小学,,32,32,24,22,25,95,77,74,74,5,4,7,6,0.5,0.5
2023-08-30T03:00:00,1871A,109.4157,24.3277,柳州市,环保监测站,,39,39,21,19,11,90,62,67,64,7,6,11,6,0.4,0.4
2023-08-30T03:00:00,1872A,109.389,24.341,柳州市,河西水厂,,36,36,24,23,13,91,43,68,59,23,13,14,7,1.0,0.7
2023-08-30T03:00:00,1873A,109.4311,24.2921,柳州市,市四中,,31,31,25,19,10,97,70,69,69,8,9,12,9,0.7,0.7
2023-08-30T03:00:00,1874A,109.4006,24.3631,柳州市,市九中,,43,43,29,18,12,92,50,66,59,11,6,7,7,0.7,0.6
2023-08-30T03:00:00,1875A,109.4958,24.3134,柳州市,古亭山,,28,28,25,19,10,103,71,66,66,7,8,6,6,0.6,0.5
2023-08-30T03:00:00,1876A,109.5078,18.2489,三亚市,河东子站,,18,18,19,7,9,79,24,24,24,9,8,3,3,0.4,0.4
2023-08-30T03:00:00,1877A,109.4964,18.2681,三亚市,河西子站,,22,22,16,7,8,82,15,20,17,10,7,2,2,0.2,0.4
2023-08-30T03:00:00,1878A,104.7778,31.4741,绵阳市,富乐山,,28,27,32,19,20,98,18,9,9,11,21,4,4,0.6,0.7
2023-08-30T03:00:00,1879A,104.7563,31.4535,绵阳市,市人大,,38,36,38,26,21,99,29,12,12,22,31,9,8,0.5,0.6
2023-08-30T03:00:00,1880A,104.6697,31.4668,绵阳市,高新区自来水公司,,34,34,40,23,21,86,4,22,12,40,29,7,9,0.4,0.4
2023-08-30T03:00:00,1881A,104.7287,31.5075,绵阳市,三水厂,,33,32,49,23,30,95,1,10,6,35,33,7,8,0.7,0.7
2023-08-30T03:00:00,1882A,104.563,28.793,宜宾市,石马中学,,,,,,,,,,,,,,,,
2023-08-30T03:00:00,1883A,104.6201,28.7728,宜宾市,市委,,35,34,48,24,27,123,58,67,64,17,23,8,8,0.6,0.7
2023-08-30T03:00:00,1884A,104.6055,28.793,宜宾市,宜宾四中,,35,33,50,24,33,126,68,76,72,14,23,6,7,0.6,0.7
2023-08-30T03:00:00,1885A,104.639,28.7562,宜宾市,市政府,,38,30,49,26,30,136,70,76,74,15,22,8,9,0.7,0.8
2023-08-30T03:00:00,1886A,104.5742,28.7199,宜宾市,黄金嘴,,33,31,37,23,25,132,51,76,66,14,18,7,8,0.5,0.6
2023-08-30T03:00:00,1888A,101.6891,26.571,攀枝花市,弄弄坪,,28,28,56,18,24,66,54,56,55,9,24,11,20,0.7,1.2
2023-08-30T03:00:00,1889A,101.5769,26.5928,攀枝花市,河门口,,37,37,45,17,20,50,34,31,31,14,24,9,10,0.9,1.1
2023-08-30T03:00:00,1890A,101.7169,26.585,攀枝花市,炳草岗,,41,41,58,22,31,49,14,10,10,38,35,20,51,1.2,1.3
2023-08-30T03:00:00,1891A,101.7369,26.5008,攀枝花市,仁和,,48,44,54,33,33,65,15,17,16,23,27,8,16,1.0,1.1
2023-08-30T03:00:00,1893A,105.4324,28.9634,泸州市,九狮山,,25,25,34,9,14,137,38,46,41,16,21,5,7,0.5,0.6
2023-08-30T03:00:00,1894A,105.4427,28.9063,泸州市,小市上码头,,32,32,45,19,25,171,58,67,62,8,14,4,9,0.6,0.7
2023-08-30T03:00:00,1895A,105.4241,28.8573,泸州市,兰田宪桥,,36,27,43,25,28,172,59,66,62,8,14,28,8,0.7,0.7
2023-08-30T03:00:00,1896A,105.4379,28.8833,泸州市,市环监站,,30,30,41,12,20,156,58,64,60,5,15,3,9,0.7,0.8
2023-08-30T03:00:00,1901A,104.4239,31.1208,德阳市,东山公园,,29,29,47,14,18,92,25,24,24,13,23,1,2,0.7,0.7
2023-08-30T03:00:00,1902A,104.3826,31.1317,德阳市,西小区,,44,44,44,25,23,86,18,16,16,30,28,5,3,0.7,0.7
2023-08-30T03:00:00,1904A,104.3553,31.1091,德阳市,耐火材料厂,,33,33,49,18,21,89,18,13,13,23,26,3,3,0.7,0.7
2023-08-30T03:00:00,1905A,106.056,30.8064,南充市,西山风景区,,24,15,25,11,16,130,74,71,71,5,10,2,3,0.5,0.6
2023-08-30T03:00:00,1906A,106.0789,30.8023,南充市,南充市委,,35,13,33,24,14,134,53,61,58,11,16,8,9,0.4,0.5
2023-08-30T03:00:00,1907A,106.1031,30.8217,南充市,南充炼油厂,,23,22,36,16,16,130,49,61,55,12,15,8,9,0.5,0.5
2023-08-30T03:00:00,1908A,106.1064,30.7856,南充市,高坪区监测站,,27,27,31,12,20,121,57,62,59,14,16,8,8,0.4,0.5
2023-08-30T03:00:00,1909A,106.0642,30.7636,南充市,嘉陵区环保局,,25,18,34,17,19,124,61,66,64,14,18,6,8,0.3,0.5
2023-08-30T03:00:00,1910A,106.1087,30.8388,南充市,市环境监测站,,32,27,34,22,22,112,50,54,52,16,19,8,7,0.5,0.5
2023-08-30T03:00:00,1911A,106.9222,27.6869,遵义市,丁字口,,22,19,21,15,12,80,27,23,23,22,20,5,5,0.7,0.7
2023-08-30T03:00:00,1912A,106.9242,27.7019,遵义市,凤凰山,,39,39,23,18,17,90,26,30,27,20,12,8,8,0.9,0.7
2023-08-30T03:00:00,1913A,106.8906,27.6486,遵义市,忠庄,,33,33,26,22,12,88,21,36,28,39,20,2,2,0.9,0.6
2023-08-30T03:00:00,1914A,106.9231,27.6506,遵义市,舟水桥,,28,28,18,13,9,92,19,18,18,12,11,1,1,0.5,0.5
2023-08-30T03:00:00,1915A,106.9178,27.72,遵义市,干田坝,,24,24,19,15,13,87,13,16,15,21,16,4,6,0.8,0.7
2023-08-30T03:00:00,1916A,103.7897,25.5035,曲靖市,环境监测站,,29,19,33,6,18,123,92,91,91,8,16,2,6,0.5,0.8
2023-08-30T03:00:00,1917A,103.8,25.5364,曲靖市,烟厂办公区,,30,22,33,12,18,124,96,93,93,5,12,4,6,0.5,0.7
2023-08-30T03:00:00,1918A,108.7197,34.3956,咸阳市,气象站,,,,,,,,,,,,,,,,
2023-08-30T03:00:00,1919A,108.673,34.3155,咸阳市,实验中学,,31,31,43,19,19,186,18,23,17,40,27,6,5,0.7,0.8
2023-08-30T03:00:00,1920A,108.7233,34.3617,咸阳市,师范学院,颗粒物(PM10),55,59,44,28,20,200,17,11,11,54,36,2,3,0.7,0.8
2023-08-30T03:00:00,1922A,109.0656,35.0994,铜川市,党校,,39,39,37,27,19,143,5,5,5,25,24,9,9,0.7,0.9
2023-08-30T03:00:00,1923A,109.0697,35.0697,铜川市,王益区政府,,30,30,35,15,19,142,14,15,15,24,20,6,7,0.6,0.7
2023-08-30T03:00:00,1924A,108.9344,34.9058,铜川市,新区管委会,,23,22,35,16,18,159,50,48,48,9,16,4,6,0.5,0.7
2023-08-30T03:00:00,1926A,109.4131,36.6275,延安市,枣园,,28,28,20,10,8,130,8,11,9,27,21,6,6,0.5,0.5
2023-08-30T03:00:00,1927A,109.4761,36.6028,延安市,延大医附院,,33,33,21,8,5,126,13,16,14,26,19,4,5,0.6,0.7
2023-08-30T03:00:00,1929A,109.5056,36.6106,延安市,百米大道,,27,27,24,9,9,127,11,20,17,36,23,4,5,0.5,0.6
2023-08-30T03:00:00,1930A,107.185,34.3063,宝鸡市,庙沟村,,20,14,21,10,12,134,64,82,75,13,8,4,5,0.3,0.3
2023-08-30T03:00:00,1931A,107.0708,34.3017,宝鸡市,竹园沟,,21,11,18,8,10,167,67,77,74,10,13,5,5,0.5,0.6
2023-08-30T03:00:00,1932A,107.1906,34.3672,宝鸡市,三陆医院,,40,36,35,28,20,160,35,33,33,32,25,14,10,0.7,0.7
2023-08-30T03:00:00,1933A,107.1431,34.3547,宝鸡市,监测站,,25,25,27,16,15,157,44,72,58,28,22,6,6,0.4,0.5
2023-08-30T03:00:00,1934A,107.1186,34.3739,宝鸡市,技工学校,,38,36,32,26,20,153,45,54,49,19,17,8,8,0.5,0.6
2023-08-30T03:00:00,1935A,107.3906,34.3528,宝鸡市,陈仓区环保局家属楼,,29,29,37,17,17,155,55,53,53,24,26,6,8,0.5,0.6
2023-08-30T03:00:00,1936A,107.2058,34.3497,宝鸡市,文理学院,,30,30,31,17,16,158,55,62,58,18,20,5,7,0.5,0.6
2023-08-30T03:00:00,1937A,107.2386,34.3622,宝鸡市,三迪小学,,33,31,34,23,17,159,46,54,51,20,19,6,7,0.5,0.6
2023-08-30T03:00:00,1938A,109.5293,34.5101,渭南市,农科所,,32,22,30,22,21,162,50,66,55,17,18,4,4,0.4,0.5
2023-08-30T03:00:00,1939A,109.4974,34.4877,渭南市,日报社,,29,22,35,20,23,172,46,52,50,23,28,3,5,0.4,0.5
2023-08-30T03:00:00,1940A,109.4636,34.493,渭南市,体育馆,,24,24,32,10,17,177,57,61,54,26,32,2,4,0.5,0.6
2023-08-30T03:00:00,1941A,109.4259,34.5023,渭南市,高新一小,,41,41,41,24,23,183,44,43,37,29,28,5,6,0.5,0.6
2023-08-30T03:00:00,1943A,102.1725,38.5339,金昌市,新川苑,,30,30,34,7,8,144,86,122,106,22,15,24,19,0.7,0.6
2023-08-30T03:00:00,1944A,102.1692,38.5167,金昌市,天庆家园,,29,20,31,7,11,146,90,121,101,24,21,8,14,0.8,0.7
2023-08-30T03:00:00,1945A,98.2908,39.7711,嘉峪关市,气象局,颗粒物(PM10),89,127,142,41,36,146,115,122,119,5,7,4,6,0.2,0.3
2023-08-30T03:00:00,1947A,106.3394,38.817,石嘴山市,沙湖旅游区,,44,44,42,22,21,193,48,54,52,27,20,44,22,1.3,0.8
2023-08-30T03:00:00,1948A,106.3668,39.0145,石嘴山市,大武口朝阳西街,,49,49,50,21,23,194,28,48,40,68,39,36,29,0.9,0.7
2023-08-30T03:00:00,1949A,106.7704,39.2282,石嘴山市,惠农南大街,颗粒物(PM10),74,97,64,18,14,187,28,33,28,48,39,90,46,1.4,0.9
2023-08-30T03:00:00,1950A,106.7099,39.1325,石嘴山市,红果子镇惠新街,颗粒物(PM10),58,66,42,8,11,215,57,55,54,33,30,50,23,0.5,0.6
2023-08-30T03:00:00,1951A,84.895,45.6094,克拉玛依市,长征新村,,22,21,19,10,5,112,69,62,62,8,10,9,9,0.2,0.2
2023-08-30T03:00:00,1952A,84.8988,45.5893,克拉玛依市,南林小区,,21,21,17,13,7,114,56,47,47,16,16,6,7,0.2,0.3
2023-08-30T03:00:00,1954A,84.905,44.3396,克拉玛依市,独山子区,,22,6,9,7,6,101,68,66,60,3,6,7,7,0.3,0.3
2023-08-30T03:00:00,1955A,85.6979,46.098,克拉玛依市,乌尔禾区商贸楼,,17,17,23,4,5,99,52,59,56,5,6,7,7,0.2,0.2
2023-08-30T03:00:00,1956A,86.1472,41.7538,巴音郭楞州,孔雀公园,,49,49,126,7,28,126,106,93,93,9,15,10,8,0.3,0.3
2023-08-30T03:00:00,1957A,86.1972,41.7166,巴音郭楞州,棉纺厂,颗粒物(PM10),51,51,122,19,39,111,91,81,81,16,17,10,8,0.3,0.4
2023-08-30T03:00:00,1958A,86.2357,41.7173,巴音郭楞州,经济开发区,,44,44,121,20,27,120,109,109,108,4,6,7,8,0.2,0.3
2023-08-30T03:00:00,1961A,117.532,36.6868,济南市,东山小学,,39,39,41,10,14,156,47,70,57,39,21,5,6,0.4,0.5
2023-08-30T03:00:00,1966A,120.0405,35.8735,青岛市,黄岛区4号,,31,31,28,12,10,114,62,63,63,24,16,7,6,0.4,0.4
2023-08-30T03:00:00,1982A,122.0693,37.2174,威海市,文登开发区,,29,29,23,7,6,110,71,75,71,10,7,7,6,0.7,0.7
2023-08-30T03:00:00,2031A,113.1817,27.9958,株洲市,云田中学,,46,46,38,26,22,102,48,42,42,28,15,6,6,0.9,0.9
2023-08-30T03:00:00,2054A,114.1099,32.1059,信阳市,平桥分局,,31,31,25,18,15,117,28,65,37,41,12,2,3,0.6,0.6
2023-08-30T03:00:00,2064A,113.9956,32.1271,信阳市,南湾水厂,,40,40,35,16,15,118,81,90,86,8,8,4,4,0.6,0.6
2023-08-30T03:00:00,2065A,114.0775,32.1195,信阳市,市酿酒公司,,35,33,29,24,20,118,56,49,49,20,16,3,3,0.6,0.6
2023-08-30T03:00:00,2066A,114.0609,32.1399,信阳市,审计局,,46,46,38,19,20,125,52,46,46,24,16,4,4,0.6,0.6
2023-08-30T03:00:00,2067A,114.6613,33.6128,周口市,市环境监测站,,43,43,35,25,20,156,74,88,83,23,17,8,8,0.5,0.4
2023-08-30T03:00:00,2068A,114.6758,33.6347,周口市,周口师范,,38,38,34,22,18,146,69,67,67,7,7,8,5,0.6,0.5
2023-08-30T03:00:00,2069A,114.6546,33.5979,周口市,市运管处,,40,40,38,19,15,148,75,90,85,23,20,9,8,0.6,0.5
2023-08-30T03:00:00,2070A,114.6369,33.6406,周口市,川汇区环保局,,42,42,38,24,15,148,48,60,56,26,18,9,6,0.6,0.5
2023-08-30T03:00:00,2075A,117.6336,24.4674,漳州市,九湖,,,,,,,,,,,,,,,,
2023-08-30T03:00:00,2160A,112.85,35.5051,晋城市,自来水公司,颗粒物(PM10),54,57,50,19,25,206,76,109,95,28,25,10,12,0.9,1.2
2023-08-30T03:00:00,2161A,112.8318,35.4936,晋城市,白云商贸,颗粒物(PM10),53,55,71,27,20,198,61,96,84,30,23,8,11,0.9,1.3
2023-08-30T03:00:00,2162A,112.8508,35.4887,晋城市,市环保局,,45,43,58,31,25,191,80,88,85,23,23,10,11,0.6,0.8
2023-08-30T03:00:00,2163A,112.8676,35.4897,晋城市,技术学院,,47,47,44,24,21,194,72,81,78,29,26,8,10,0.9,1
2023-08-30T03:00:00,2165A,112.8453,35.546,晋城市,白马寺,,,,,,,,,,,,,,,,
2023-08-30T03:00:00,2166A,112.4397,39.3522,朔州市,平朔,颗粒物(PM10),63,76,61,28,26,136,5,4,4,52,28,17,11,0.6,0.6
2023-08-30T03:00:00,2167A,112.4575,39.3617,朔州市,朔唯,颗粒物(PM10),89,127,78,39,28,130,1,2,1,60,36,27,14,0.8,0.7
2023-08-30T03:00:00,2168A,112.4258,39.3197,朔州市,区政府,颗粒物(PM10),51,52,60,19,18,133,28,24,20,32,27,5,9,0.5,0.6
2023-08-30T03:00:00,2169A,112.4072,39.3278,朔州市,市环保局,,39,39,60,11,22,143,30,38,35,28,27,7,12,0.5,0.6
2023-08-30T03:00:00,2170A,112.4272,39.3681,朔州市,市二中,颗粒物(PM10),66,82,72,29,30,127,7,3,3,47,33,16,11,0.7,0.7
2023-08-30T03:00:00,2171A,112.7532,37.6945,晋中市,锦纶小区,,22,19,36,11,13,208,6,15,11,44,30,8,12,0.3,0.4
2023-08-30T03:00:00,2173A,112.7249,37.7067,晋中市,南都小区,,27,27,42,12,20,209,13,30,20,39,28,6,10,0.4,0.6
2023-08-30T03:00:00,2174A,112.6991,37.6982,晋中市,榆次区政府,,32,32,38,18,20,208,14,28,19,40,28,7,11,0.3,0.6
2023-08-30T03:00:00,2175A,110.9956,35.0147,运城市,运城中学,,46,46,45,29,25,145,39,31,31,20,15,4,5,0.7,0.8
2023-08-30T03:00:00,2178A,110.9686,35.0303,运城市,地区技校,颗粒物(PM10),61,71,52,24,23,131,16,14,12,36,22,4,4,0.8,0.8
2023-08-30T03:00:00,2179A,111.0414,35.1147,运城市,空港新区,,47,47,53,27,29,151,33,51,42,32,24,6,6,0.7,0.7
2023-08-30T03:00:00,2181A,112.7383,38.4519,忻州市,开发区,,25,25,33,14,19,88,25,24,24,26,30,7,11,0.5,0.6
2023-08-30T03:00:00,2182A,112.7003,38.4928,忻州市,会展中心,,28,22,34,19,22,104,18,39,26,32,32,8,11,0.4,0.5
2023-08-30T03:00:00,2183A,111.1406,37.5211,吕梁市,环保局,,39,39,56,16,15,131,16,11,11,47,42,2,3,0.5,0.5
2023-08-30T03:00:00,2185A,111.1297,37.5136,吕梁市,自来水公司,颗粒物(PM10),57,64,47,17,14,132,10,15,12,42,33,4,4,0.7,0.7
2023-08-30T03:00:00,2187A,106.8174,39.6973,乌海市,市林业局,,32,32,34,13,12,125,92,100,97,7,15,9,10,0.5,0.6
2023-08-30T03:00:00,2188A,106.7907,39.6667,乌海市,中海勃湾学校,,26,24,27,18,14,131,53,96,81,38,17,9,10,0.3,0.4
2023-08-30T03:00:00,2191A,122.2532,43.6801,通辽市,艺术职业学校,,19,19,19,13,7,90,38,38,38,9,9,4,5,0.2,0.3
2023-08-30T03:00:00,2192A,119.7594,49.2261,呼伦贝尔市,区环保局,,38,38,40,23,21,71,16,20,17,19,20,6,7,0.7,0.4
2023-08-30T03:00:00,2195A,107.4212,40.761,巴彦淖尔市,附二中,,36,36,51,16,12,126,50,58,55,20,20,6,6,0.4,0.5
2023-08-30T03:00:00,2196A,107.37,40.7372,巴彦淖尔市,市环保大楼,,46,46,42,24,17,124,79,75,75,7,16,10,6,0.4,0.5
2023-08-30T03:00:00,2197A,113.1306,40.9923,乌兰察布市,集宁新区,,22,19,25,9,11,121,69,70,70,9,16,16,14,0.2,0.3
2023-08-30T03:00:00,2200A,122.0392,46.0656,兴安盟,胜华新制药厂,,19,11,18,13,12,61,58,60,59,5,6,2,3,0.3,0.3
2023-08-30T03:00:00,2201A,121.9504,46.0741,兴安盟,科右前旗环保局,,20,20,20,14,15,62,48,56,53,5,6,3,3,0.4,0.4
2023-08-30T03:00:00,2202A,116.1042,43.9317,锡林郭勒盟,市环保监测站,,11,11,22,2,7,90,28,24,24,13,13,9,11,0.2,0.3
2023-08-30T03:00:00,2203A,116.0781,43.9311,锡林郭勒盟,市政府,,14,6,24,4,5,95,42,44,42,11,16,12,13,0.2,0.3
2023-08-30T03:00:00,2204A,105.6467,38.8363,阿拉善盟,西城区西花园,,38,31,32,22,16,160,120,150,137,9,11,20,11,0.7,0.6
2023-08-30T03:00:00,2205A,105.6985,38.8411,阿拉善盟,蒙二幼,,40,40,30,16,14,155,126,134,132,6,8,7,7,0.3,0.2
2023-08-30T03:00:00,2206A,105.724,38.8516,阿拉善盟,环保局新楼,,41,41,24,16,16,150,126,148,139,6,6,17,12,0.5,0.4
2023-08-30T03:00:00,2207A,121.6094,41.998,阜新市,工业园区,,20,20,36,8,6,85,29,27,26,16,17,4,4,0.6,0.6
2023-08-30T03:00:00,2208A,121.6697,42.0279,阜新市,长青街,,26,26,22,8,6,83,23,20,20,18,13,4,4,0.3,0.4
2023-08-30T03:00:00,2209A,121.6673,42.0705,阜新市,农业园区,,10,9,10,5,6,78,32,40,37,9,10,5,6,0.7,0.8
2023-08-30T03:00:00,2210A,121.6717,42.0224,阜新市,东苑,,24,24,25,8,9,83,34,28,28,10,9,4,4,0.3,0.4
2023-08-30T03:00:00,2211A,121.6506,42.0498,阜新市,玉龙新城,,15,15,38,2,5,71,11,8,8,28,19,4,4,0.4,0.5
2023-08-30T03:00:00,2212A,123.2,41.1953,辽阳市,宏伟区,,17,17,14,7,8,70,34,30,30,13,9,6,6,0.4,0.4
2023-08-30T03:00:00,2213A,123.1683,41.2495,辽阳市,新华园,,19,19,14,9,8,59,26,28,27,19,10,6,5,0.5,0.4
2023-08-30T03:00:00,2214A,123.2354,41.2639,辽阳市,滨河路,,17,17,12,4,7,66,37,31,27,14,10,7,6,0.6,0.6
2023-08-30T03:00:00,2215A,123.149,41.2991,辽阳市,铁西工业园,,27,27,13,8,7,66,7,21,15,36,11,6,6,0.7,0.7
2023-08-30T03:00:00,2216A,123.8139,42.3022,铁岭市,汇工街西,,12,9,7,2,4,81,38,40,37,7,7,8,8,0.5,0.5
2023-08-30T03:00:00,2217A,123.8649,42.2923,铁岭市,水上乐园,,17,17,11,2,2,78,34,40,36,10,9,2,2,0.6,0.6
2023-08-30T03:00:00,2218A,123.8486,42.2867,铁岭市,银州路东段,,12,11,10,4,6,80,38,46,40,12,12,6,6,0.5,0.5
2023-08-30T03:00:00,2219A,123.7153,42.2217,铁岭市,金沙江路北,,15,15,8,5,6,82,43,49,45,12,10,7,6,0.5,0.6
2023-08-30T03:00:00,2220A,120.4318,41.5881,朝阳市,西梁,,38,38,29,14,8,80,12,12,11,30,18,9,10,0.4,0.4
2023-08-30T03:00:00,2221A,120.4521,41.5646,朝阳市,河畔小区,,19,18,24,13,7,82,22,25,19,19,11,8,8,0.4,0.4
2023-08-30T03:00:00,2222A,120.4176,41.5648,朝阳市,八里堡,,28,28,39,18,10,81,7,10,7,31,18,8,8,0.5,0.5
2023-08-30T03:00:00,2223A,120.3806,41.5969,朝阳市,农业园区,,23,23,22,10,6,76,6,14,12,27,14,4,4,0.5,0.5
2023-08-30T03:00:00,2225A,124.4002,43.1713,四平市,一商场,,19,10,12,7,6,62,60,58,58,6,11,7,6,1.4,0.8
2023-08-30T03:00:00,2226A,124.388,43.193,四平市,境园,,21,14,10,6,5,63,56,55,55,4,5,3,3,2.1,0.7
2023-08-30T03:00:00,2227A,125.1358,42.8845,辽源市,环保局,,17,8,8,6,2,71,53,54,53,3,7,7,9,0.4,0.5
2023-08-30T03:00:00,2229A,125.9358,41.7173,通化市,光明,,13,3,5,0,3,83,40,42,42,3,11,7,7,0.4,0.5
2023-08-30T03:00:00,2230A,125.9446,41.7325,通化市,铁路,,13,6,5,2,2,82,39,38,38,4,9,7,6,0.4,0.5
2023-08-30T03:00:00,2231A,126.4219,41.9171,白山市,喜丰,,25,24,15,17,5,79,32,36,34,12,12,9,8,0.8,0.7
2023-08-30T03:00:00,2232A,126.4077,41.9419,白山市,环保局,,14,10,15,6,4,93,42,44,43,5,12,8,7,0.9,0.9
2023-08-30T03:00:00,2233A,124.8006,45.1214,松原市,江南,,18,2,7,4,5,70,56,58,57,2,7,5,5,0.4,0.5
2023-08-30T03:00:00,2234A,124.7965,45.1722,松原市,江北,,17,5,10,1,4,63,53,54,54,4,9,2,4,0.4,0.4
2023-08-30T03:00:00,2235A,122.7911,45.6077,白城市,洮北区环保局,,14,4,12,3,7,65,42,36,36,5,9,5,6,0.1,0.1
2023-08-30T03:00:00,2236A,122.8738,45.5725,白城市,市环保局,,18,10,17,5,4,70,55,60,57,4,6,7,6,0.2,0.2
2023-08-30T03:00:00,2237A,129.47,42.8883,延边朝鲜族自治州,妇幼医院,,12,4,7,4,3,79,38,33,33,4,10,8,8,0.5,0.5
2023-08-30T03:00:00,2238A,129.5055,42.9108,延边朝鲜族自治州,延边医院,,15,5,5,6,6,83,45,39,39,6,11,10,9,0.5,0.6
2023-08-30T03:00:00,2239A,129.3964,42.8881,延边朝鲜族自治州,朝阳川镇医院,,14,6,5,3,2,83,42,34,34,3,6,8,8,0.5,0.5
2023-08-30T03:00:00,2240A,130.9762,45.3001,鸡西市,环保局,,14,2,9,3,3,63,43,43,43,2,9,4,5,0.2,0.2
2023-08-30T03:00:00,2243A,130.9429,45.3039,鸡西市,第一中学,,15,1,6,0,2,75,48,50,49,5,11,6,6,0.2,0.3
2023-08-30T03:00:00,2244A,130.2537,47.3416,鹤岗市,哈啤分公司,,18,5,10,5,6,63,56,60,59,4,6,10,10,0.2,0.2
2023-08-30T03:00:00,2245A,130.2684,47.3086,鹤岗市,斯达机电,,17,6,16,5,7,56,53,55,54,3,9,7,7,0.3,0.3
2023-08-30T03:00:00,2246A,130.3114,47.3388,鹤岗市,东山纸板厂,,18,13,20,4,7,62,55,60,59,3,8,10,10,0.3,0.4
2023-08-30T03:00:00,2247A,130.1097,47.3382,鹤岗市,五号水库,,19,4,8,4,6,63,60,60,60,4,5,11,11,0.2,0.2
2023-08-30T03:00:00,2248A,131.1511,46.6937,双鸭山市,双合村,,15,1,19,0,7,52,47,52,50,2,6,6,7,0.0,0.4
2023-08-30T03:00:00,2249A,131.1652,46.6191,双鸭山市,南小市,,17,2,26,0,7,58,53,57,55,1,6,6,5,0.2,0.3
2023-08-30T03:00:00,2250A,131.1524,46.6554,双鸭山市,环保局,,15,9,22,4,8,55,47,55,51,4,9,8,9,0.1,0.3
2023-08-30T03:00:00,2251A,131.12,46.5656,双鸭山市,苗圃,,,,8,,8,36,,29,,,7,,3,,0.4
2023-08-30T03:00:00,2252A,128.5159,47.4311,伊春市,环保局,,15,15,16,1,6,56,44,56,50,2,6,4,5,0.2,0.3
2023-08-30T03:00:00,2253A,128.9102,47.7412,伊春市,电力嘉园,,16,16,13,10,9,57,46,57,51,1,4,5,5,0,0.3
2023-08-30T03:00:00,2254A,129.5029,48.471,伊春市,汤旺河国家公园,,23,23,18,11,12,57,35,33,33,1,1,15,15,0,0.1
2023-08-30T03:00:00,2255A,130.2751,46.8028,佳木斯市,佳纺,,16,3,18,2,7,49,49,48,48,2,9,3,2,0.4,0.4
2023-08-30T03:00:00,2256A,130.3995,46.8307,佳木斯市,发电厂,,17,17,20,4,5,52,51,51,51,3,6,4,6,0.4,0.4
2023-08-30T03:00:00,2257A,130.3258,46.7975,佳木斯市,环保局,,15,7,18,0,8,48,47,46,46,5,16,3,4,0.3,0.5
2023-08-30T03:00:00,2258A,130.3648,46.8032,佳木斯市,十一中,,16,4,15,3,7,50,49,49,49,2,9,6,6,0.4,0.5
2023-08-30T03:00:00,2259A,130.3794,46.7588,佳木斯市,四丰,,19,2,22,0,6,60,59,57,57,3,10,1,1,0.3,0.3
2023-08-30T03:00:00,2262A,131.0518,45.8751,七台河市,新一中,,20,5,9,0,4,91,64,67,65,2,4,7,7,0.5,0.6
2023-08-30T03:00:00,2263A,127.4833,50.2524,黑河市,交通局,,8,5,9,5,6,53,18,18,18,2,8,4,4,0.3,0.4
2023-08-30T03:00:00,2264A,127.5144,50.2341,黑河市,环保局,,20,20,21,5,7,51,20,21,20,3,10,2,2,0.3,0.4
2023-08-30T03:00:00,2265A,127.5291,50.2472,黑河市,大黑河岛,,,6,28,8,10,12,,,,2,2,3,2,0.4,0.5
2023-08-30T03:00:00,2266A,126.9785,46.6365,绥化市,人和东街,,15,8,16,2,5,49,45,49,47,8,11,4,5,0.2,0.3
2023-08-30T03:00:00,2267A,126.964,46.6528,绥化市,党政办公中心,,16,3,14,1,4,51,51,51,51,4,9,7,6,0.3,0.3
2023-08-30T03:00:00,2269A,124.1069,50.4097,大兴安岭地区,科技局,,13,10,18,9,10,54,15,17,16,2,5,3,5,0.3,0.3
2023-08-30T03:00:00,2270A,117.396,32.939,蚌埠市,工人疗养院,,47,47,39,22,17,116,56,92,75,14,10,2,4,0.5,0.5
2023-08-30T03:00:00,2271A,117.3605,32.9427,蚌埠市,百货大楼,颗粒物(PM10),72,94,46,42,21,119,10,83,58,59,13,5,5,0.6,0.4
2023-08-30T03:00:00,2273A,117.4185,32.8911,蚌埠市,蚌埠学院,,46,46,33,28,24,121,52,35,35,14,14,3,4,0.4,0.4
2023-08-30T03:00:00,2274A,117.3533,32.9673,蚌埠市,淮上区政府,颗粒物(PM10),56,61,40,32,25,118,7,33,23,58,19,5,5,0.5,0.5
2023-08-30T03:00:00,2275A,117.3145,32.8977,蚌埠市,高新区,细颗粒物(PM2.5),58,51,36,41,24,118,6,15,10,52,20,4,14,0.6,0.5
2023-08-30T03:00:00,2277A,116.8305,32.7727,淮南市,潘集区政府,颗粒物(PM10),54,57,34,32,21,112,25,59,41,36,16,29,8,0.5,0.3
2023-08-30T03:00:00,2278A,117.0067,32.6524,淮南市,师范学院,颗粒物(PM10),52,54,38,28,20,116,32,38,36,30,16,8,8,0.5,0.5
2023-08-30T03:00:00,2279A,116.8569,32.5951,淮南市,谢家集区政府,,38,38,26,10,8,114,51,52,48,24,17,13,9,0.3,0.3
2023-08-30T03:00:00,2280A,116.8281,32.633,淮南市,八公山区政府,颗粒物(PM10),54,57,38,33,23,114,67,78,73,14,11,10,8,0.4,0.3
2023-08-30T03:00:00,2281A,116.6325,32.6201,淮南市,焦岗湖风景区管理处,,32,32,29,13,16,102,0,0,0,36,21,3,3,0.4,0.4
2023-08-30T03:00:00,2282A,116.8004,33.975,淮北市,监测站,,48,48,31,23,18,135,100,117,102,17,15,6,6,0.7,0.6
2023-08-30T03:00:00,2283A,116.8091,33.9007,淮北市,烈山区政府,颗粒物(PM10),55,60,43,31,22,144,102,89,89,15,10,7,4,0.5,0.4
2023-08-30T03:00:00,2285A,117.8177,30.9412,铜陵市,市第四中学,,33,33,31,16,19,94,67,34,34,7,20,5,6,0.3,0.3
2023-08-30T03:00:00,2286A,117.8059,30.9273,铜陵市,市公路局,,33,19,30,23,19,104,65,39,39,14,17,9,11,0.5,0.5
2023-08-30T03:00:00,2287A,117.7807,30.9413,铜陵市,市新民污水厂,,40,40,37,9,16,106,70,57,57,14,13,4,6,0.5,0.4
2023-08-30T03:00:00,2288A,117.7439,30.8792,铜陵市,市第九中学,颗粒物(PM10),55,60,44,28,19,102,39,64,49,42,20,12,4,0.6,0.5
2023-08-30T03:00:00,2289A,117.846,30.9413,铜陵市,车站新区,,21,21,30,5,21,104,67,50,50,9,17,4,4,0.4,0.4
2023-08-30T03:00:00,2290A,117.8483,30.97,铜陵市,市职教基地,,24,4,23,1,11,98,76,58,58,7,11,4,4,0.6,0.6
2023-08-30T03:00:00,2291A,117.0809,30.5177,安庆市,环科院,,27,18,27,11,19,116,86,86,84,8,11,5,5,0.9,0.8
2023-08-30T03:00:00,2292A,117.0331,30.5119,安庆市,马山宾馆,,28,17,30,12,18,118,89,88,86,9,13,3,3,0.8,0.8
2023-08-30T03:00:00,2294A,116.9896,30.6145,安庆市,安庆大学,,27,25,26,17,19,112,85,85,85,9,8,4,4,0.6,0.6
2023-08-30T03:00:00,2295A,118.2903,29.6963,黄山市,延安路89号,,24,22,21,6,5,86,75,59,59,2,4,3,4,0.5,0.6
2023-08-30T03:00:00,2296A,118.327,29.7178,黄山市,黄山东路89号,,18,1,9,1,4,81,56,53,53,4,4,4,4,0.5,0.6
2023-08-30T03:00:00,2297A,118.1371,30.2756,黄山市,黄山区政府5号楼,,34,34,25,12,9,92,52,41,41,7,7,6,6,0.5,0.5
2023-08-30T03:00:00,2298A,118.3093,32.3153,滁州市,老年大学,,33,33,26,20,15,116,33,48,40,19,13,5,6,0.4,0.4
2023-08-30T03:00:00,2299A,118.3244,32.2786,滁州市,人大宾馆,,29,29,25,17,14,117,49,79,68,22,14,16,8,0.5,0.4
2023-08-30T03:00:00,2301A,115.8277,32.8929,阜阳市,市监测站,,35,34,26,24,15,125,78,74,74,22,17,9,7,0.5,0.5
2023-08-30T03:00:00,2303A,115.8554,32.8605,阜阳市,开发区,,38,23,27,26,22,121,65,62,61,24,18,8,8,0.5,0.5
2023-08-30T03:00:00,2307A,116.5079,31.737,六安市,监测大楼,,27,27,29,11,13,113,66,74,71,11,7,5,5,0.4,0.5
2023-08-30T03:00:00,2308A,116.4738,31.7643,六安市,皖西学院,,32,32,33,9,11,115,58,61,60,13,9,6,6,0.3,0.3
2023-08-30T03:00:00,2309A,116.4996,31.7905,六安市,朝阳厂,,26,16,20,18,14,117,58,45,45,11,10,7,8,0.5,0.5
2023-08-30T03:00:00,2310A,116.5567,31.7886,六安市,开发区,,45,45,41,24,19,106,44,59,53,21,13,6,7,0.6,0.5
2023-08-30T03:00:00,2311A,115.8072,33.8399,亳州市,污水处理厂,,48,48,35,26,17,130,67,68,67,14,10,8,7,0.5,0.4
2023-08-30T03:00:00,2312A,115.7789,33.8518,亳州市,三国揽胜宫,,44,44,33,26,18,138,78,90,86,18,13,8,7,0.5,0.4
2023-08-30T03:00:00,2314A,117.47,30.6618,池州市,池州学院,,20,18,22,12,16,103,61,77,67,10,8,4,5,0.5,0.5
2023-08-30T03:00:00,2316A,118.7581,30.9454,宣城市,鳌峰子站,,29,10,24,4,15,104,91,87,87,16,13,4,4,0.5,0.7
2023-08-30T03:00:00,2317A,118.7385,30.9743,宣城市,敬亭山子站,,24,15,30,5,17,99,75,73,73,16,16,7,8,0.3,0.6
2023-08-30T03:00:00,2318A,118.7173,30.9427,宣城市,开发区子站,,30,7,26,5,15,107,95,89,89,6,14,4,5,0.4,0.6
2023-08-30T03:00:00,2319A,119.0141,25.4325,莆田市,荔城区仓后路,,14,14,30,0,21,148,18,25,21,4,9,8,8,0.8,0.9
2023-08-30T03:00:00,2320A,119.0015,25.4553,莆田市,莆田市监测站,,10,10,30,0,15,157,19,25,21,3,7,6,7,0.5,0.6
2023-08-30T03:00:00,2321A,119.1119,25.4561,莆田市,涵江区六中,,7,7,30,0,14,132,17,18,17,4,10,6,8,0.4,0.6
2023-08-30T03:00:00,2322A,119.1013,25.3215,莆田市,秀屿区政府,,,7,31,0,15,129,16,16,16,4,9,7,9,,0.8
2023-08-30T03:00:00,2323A,118.981,25.4792,莆田市,东圳水库,,,,,,,,,,,,,,,,
2023-08-30T03:00:00,2324A,117.6211,26.2625,三明市,三钢,,16,16,13,9,10,83,36,37,37,6,8,6,7,0.5,0.6
2023-08-30T03:00:00,2325A,117.635,26.2714,三明市,三明二中,,15,5,12,10,10,79,38,38,38,8,10,2,3,0.6,0.7
2023-08-30T03:00:00,2326A,117.6028,26.2378,三明市,三元区政府,,13,13,16,5,4,98,25,25,25,10,10,6,8,0.9,0.8
2023-08-30T03:00:00,2327A,117.7275,26.3108,三明市,洋溪,,,,,,,,,,,,,,,,
2023-08-30T03:00:00,2331A,118.0966,26.6761,南平市,茫荡山,,,,,,,,,,,,,,,,
2023-08-30T03:00:00,2332A,118.1681,26.6369,南平市,南平市监测站,,14,14,12,3,5,71,29,34,31,5,5,5,5,0.7,0.7
2023-08-30T03:00:00,2333A,118.1825,26.6489,南平市,南平铝业有限公司,,20,20,11,2,5,72,32,35,33,6,6,3,3,0.7,0.6
2023-08-30T03:00:00,2334A,118.1756,26.6272,南平市,南平七中,,18,18,14,5,5,75,16,22,18,7,4,4,4,0.7,0.6
2023-08-30T03:00:00,2335A,117.0189,25.1181,龙岩市,龙岩师专,,,,,,,,,,,,,,,,
2023-08-30T03:00:00,2336A,117.0217,25.1033,龙岩市,龙岩市监测站,,16,8,17,4,11,94,49,61,51,8,12,2,3,0.5,0.5
2023-08-30T03:00:00,2337A,117.0258,25.0661,龙岩市,闽西职业技术学院,,19,19,17,2,9,100,43,60,52,5,11,3,4,0.6,0.4
2023-08-30T03:00:00,2338A,117.0196,25.0306,龙岩市,龙岩学院,,15,0,16,0,7,106,48,64,57,4,10,1,2,0.4,0.4
2023-08-30T03:00:00,2339A,119.5001,26.6946,宁德市,金涵水库,,,,,,,,,,,,,,,,
2023-08-30T03:00:00,2341A,119.5388,26.6612,宁德市,宁德市监测站,,10,10,18,4,11,101,6,12,9,8,8,4,4,0.5,0.5
2023-08-30T03:00:00,2342A,117.3102,29.3867,景德镇市,王港中学,,25,25,13,13,8,76,18,15,15,2,3,2,3,0.5,0.6
2023-08-30T03:00:00,2343A,117.2117,29.2933,景德镇市,老干部活动中心,,26,22,18,18,13,76,65,65,65,5,7,3,3,0.4,0.4
2023-08-30T03:00:00,2344A,117.1894,29.2789,景德镇市,兽医站,细颗粒物(PM2.5),73,61,38,53,25,78,68,70,69,6,9,5,6,0.6,0.5
2023-08-30T03:00:00,2345A,117.1547,29.2617,景德镇市,台达陶瓷,,22,14,17,9,12,79,70,73,71,7,10,7,9,0.6,0.5
2023-08-30T03:00:00,2346A,117.2461,29.2956,景德镇市,陶研所,,42,42,28,11,8,77,47,40,40,4,6,5,6,0.5,0.5
2023-08-30T03:00:00,2347A,114.0997,27.5002,萍乡市,武功山,,9,9,7,1,4,66,15,18,17,3,4,12,12,0.5,0.5
2023-08-30T03:00:00,2348A,113.8385,27.6434,萍乡市,中医院,,35,24,25,24,17,62,19,25,21,13,17,14,9,0.9,0.7
2023-08-30T03:00:00,2349A,113.8493,27.6253,萍乡市,市政府车库,,36,36,29,18,15,68,9,16,13,16,16,12,10,0.6,0.5
2023-08-30T03:00:00,2350A,113.8676,27.6435,萍乡市,市环保局,,35,35,23,19,16,74,19,25,22,14,14,14,7,0.7,0.6
2023-08-30T03:00:00,2351A,113.866,27.6198,萍乡市,安源区政府,,34,34,26,21,17,65,9,13,11,15,13,7,7,0.6,0.6
2023-08-30T03:00:00,2352A,115.0861,27.9317,新余市,北岗,,38,38,22,25,14,82,38,41,40,6,6,22,12,0.6,0.7
2023-08-30T03:00:00,2353A,114.9886,27.8431,新余市,飞宇,,42,42,34,23,17,90,61,59,59,7,11,7,8,0.5,0.4
2023-08-30T03:00:00,2354A,114.9231,27.8246,新余市,第二水厂,,41,41,34,24,17,90,60,61,61,16,14,14,10,0.2,0.2
2023-08-30T03:00:00,2355A,114.9308,27.8036,新余市,市气象局,,40,40,36,25,20,81,63,61,61,9,9,12,10,0.7,0.8
2023-08-30T03:00:00,2357A,116.9822,28.1136,鹰潭市,龙虎山,,25,25,20,10,13,59,28,28,28,12,5,11,6,0.5,0.4
2023-08-30T03:00:00,2358A,117.0564,28.2642,鹰潭市,新监测站,,22,20,20,15,9,74,34,35,33,9,5,35,6,0.7,0.5
2023-08-30T03:00:00,2359A,117.0311,28.2475,鹰潭市,财苑宾馆,,14,14,20,3,8,76,41,44,41,9,6,40,7,0.6,0.4
2023-08-30T03:00:00,2360A,117.0222,28.2264,鹰潭市,体育馆,,19,14,22,13,9,79,35,41,37,12,7,33,6,0.7,0.5
2023-08-30T03:00:00,2361A,117.0017,28.2131,鹰潭市,三川水表,,17,17,23,11,12,81,36,40,36,14,8,24,5,0.7,0.6
2023-08-30T03:00:00,2362A,114.9017,25.9149,赣州市,通天岩,,,,,,,,,,,,,,,,
2023-08-30T03:00:00,2363A,114.9367,25.8664,赣州市,地委,,36,36,23,20,16,83,74,76,75,3,4,14,10,1.0,1
2023-08-30T03:00:00,2364A,114.9461,25.8481,赣州市,气象台,,32,32,17,22,15,83,78,77,77,6,8,6,6,0.8,0.8
2023-08-30T03:00:00,2365A,114.9322,25.8333,赣州市,市图书馆,,49,45,34,34,18,79,71,74,73,8,8,7,8,1.0,1.2
2023-08-30T03:00:00,2366A,114.8905,25.8471,赣州市,华坚鞋城,,34,34,23,17,14,74,70,72,71,4,5,2,2,0.6,0.6
2023-08-30T03:00:00,2367A,114.9754,27.0803,吉安市,红声器材厂,,42,42,34,19,16,91,48,43,43,10,10,22,7,0.7,0.8
2023-08-30T03:00:00,2368A,114.9658,27.0999,吉安市,市森林工业局,,38,38,30,21,18,87,48,43,43,5,7,8,8,0.3,0.3
2023-08-30T03:00:00,2369A,114.99,27.1312,吉安市,市环境监测站,,36,36,31,19,17,88,34,31,31,10,11,9,10,0.7,0.7
2023-08-30T03:00:00,2370A,115.0093,27.0968,吉安市,青原区法院,,35,35,31,23,19,85,45,42,42,12,13,19,15,0.8,0.8
2023-08-30T03:00:00,2371A,114.3408,27.8064,宜春市,槟榔水业,,31,31,31,21,16,36,19,32,25,21,18,3,5,0.7,0.4
2023-08-30T03:00:00,2373A,114.3956,27.7844,宜春市,市石油公司,,48,48,31,20,17,76,18,17,17,18,12,12,6,0.9,0.9
2023-08-30T03:00:00,2374A,114.3703,27.7914,宜春市,市气象局,,32,32,29,22,17,76,15,15,14,23,13,9,10,0.8,0.8
2023-08-30T03:00:00,2375A,114.4013,27.8074,宜春市,市广电局,,34,34,30,21,15,74,24,24,22,16,12,22,9,0.8,0.8
2023-08-30T03:00:00,2376A,116.2127,28.0814,抚州市,桐源党溪,,25,25,29,13,16,88,41,60,52,2,2,3,3,0.8,0.9
2023-08-30T03:00:00,2377A,116.3544,27.9831,抚州市,市站,,22,22,29,14,18,88,56,60,56,4,5,1,1,0.9,0.8
2023-08-30T03:00:00,2378A,116.3565,27.963,抚州市,血防站,,31,31,34,13,16,91,54,60,54,2,2,1,2,0.9,1
2023-08-30T03:00:00,2379A,116.3564,28.0007,抚州市,采茶剧团,,29,29,29,13,17,86,54,57,55,3,7,2,4,0.9,0.9
2023-08-30T03:00:00,2380A,116.385,27.9647,抚州市,医学分院,,27,27,31,15,16,92,49,56,50,1,5,6,7,0.9,1
2023-08-30T03:00:00,2381A,118.005,28.4572,上饶市,百草园,,,,,,,,,,,,,,,,
2023-08-30T03:00:00,2382A,117.9756,28.4436,上饶市,市监测站,细颗粒物(PM2.5),67,12,16,48,11,71,63,58,58,9,10,5,9,0.6,0.6
2023-08-30T03:00:00,2383A,117.9519,28.4628,上饶市,凤凰光学,,15,9,17,5,8,68,46,53,48,9,11,17,13,0.5,0.5
2023-08-30T03:00:00,2385A,114.17,35.9019,鹤壁市,市监测站,,32,32,31,15,20,184,44,102,71,21,13,2,6,0.4,0.4
2023-08-30T03:00:00,2386A,114.2956,35.7511,鹤壁市,市交警支队,,29,29,28,8,15,171,51,79,66,26,21,6,5,0.5,0.6
2023-08-30T03:00:00,2387A,114.2878,35.7306,鹤壁市,迎宾馆,,25,11,26,17,17,169,57,83,70,26,18,10,6,0.6,0.6
2023-08-30T03:00:00,2389A,113.836,35.311,新乡市,环保西院,,25,25,44,13,22,155,72,90,79,13,15,7,8,1.0,0.8
2023-08-30T03:00:00,2390A,113.884,35.272,新乡市,开发区,,27,16,31,12,19,167,84,120,100,28,25,5,6,0.8,0.9
2023-08-30T03:00:00,2391A,113.883,35.303,新乡市,环保东院,,33,33,46,15,20,160,87,111,97,12,20,6,7,0.7,0.8
2023-08-30T03:00:00,2392A,115.0312,35.7636,濮阳市,环保局,,30,12,34,11,23,167,96,99,98,12,20,6,10,0.6,0.7
2023-08-30T03:00:00,2394A,115.0574,35.7609,濮阳市,油田运输公司,,30,12,43,15,25,166,95,102,99,9,20,7,10,0.6,0.7
2023-08-30T03:00:00,2395A,115.0866,35.7754,濮阳市,油田物探公司,,39,26,47,27,26,162,80,92,88,9,18,6,10,0.5,0.6
2023-08-30T03:00:00,2396A,113.8276,34.0159,许昌市,监测站,颗粒物(PM10),51,51,43,31,21,160,2,67,38,64,27,5,6,0.6,0.5
2023-08-30T03:00:00,2398A,113.7906,33.9953,许昌市,开发区,颗粒物(PM10),64,77,44,29,23,160,5,40,18,57,31,4,6,0.8,0.6
2023-08-30T03:00:00,2399A,114.051,33.5699,漯河市,三五一五工厂,,44,44,36,29,20,155,36,56,46,36,14,10,11,0.7,0.7
2023-08-30T03:00:00,2400A,114.0055,33.5698,漯河市,漯河大学,,46,46,35,24,21,161,8,15,13,68,25,6,4,0.7,0.6
2023-08-30T03:00:00,2401A,114.0138,33.5828,漯河市,市水利局,,46,46,37,27,19,155,31,25,25,46,23,7,8,0.7,0.6
2023-08-30T03:00:00,2402A,114.0261,33.5698,漯河市,市广电局,颗粒物(PM10),53,56,40,30,22,158,25,40,35,50,22,6,6,0.7,0.5
2023-08-30T03:00:00,2404A,112.5224,33.0122,南阳市,瓦房庄,颗粒物(PM10),52,53,40,34,23,146,68,59,59,20,19,5,6,0.6,0.6
2023-08-30T03:00:00,2405A,112.5003,32.9735,南阳市,汉画馆,,43,43,34,29,21,149,28,18,18,29,22,7,8,0.7,0.6
2023-08-30T03:00:00,2406A,112.5573,33.027,南阳市,气象站,,47,47,30,28,15,142,51,64,59,25,16,6,7,0.7,0.7
2023-08-30T03:00:00,2407A,112.5481,32.9689,南阳市,理工学院,,50,50,34,33,19,150,45,94,66,31,14,7,8,0.6,0.5
2023-08-30T03:00:00,2408A,115.6702,34.4285,商丘市,环境监测站,颗粒物(PM10),51,51,38,28,20,148,52,85,70,24,15,6,7,0.8,0.7
2023-08-30T03:00:00,2409A,115.6458,34.4045,商丘市,粮食局,颗粒物(PM10),66,81,65,38,21,110,40,72,56,37,21,3,2,0.8,0.7
2023-08-30T03:00:00,2410A,115.6293,34.3948,商丘市,睢阳区环保局,颗粒物(PM10),60,70,49,25,21,149,3,53,25,61,18,6,7,0.6,0.5
2023-08-30T03:00:00,2420A,114.0189,32.9656,驻马店市,市一纸厂,,33,26,34,23,21,144,57,64,57,16,17,5,6,0.4,0.4
2023-08-30T03:00:00,2421A,114.0114,33.015,驻马店市,市彩印厂,,33,32,42,23,20,142,65,63,63,13,15,6,8,0.4,0.4
2023-08-30T03:00:00,2422A,113.9976,32.9771,驻马店市,天方二分厂,,39,39,36,21,23,136,54,53,53,15,13,5,6,0.3,0.4
2023-08-30T03:00:00,2423A,115.0601,30.2313,黄石市,沈家营,颗粒物(PM10),56,61,49,23,22,129,32,39,31,23,14,4,5,0.5,0.6
2023-08-30T03:00:00,2424A,115.0817,30.2006,黄石市,陈家湾,,42,42,45,19,23,127,32,60,46,12,10,5,8,0.7,0.4
2023-08-30T03:00:00,2426A,114.8988,30.2019,黄石市,铁山,,39,39,38,24,23,136,42,40,40,16,17,6,8,0.7,0.8
2023-08-30T03:00:00,2427A,115.0307,30.2092,黄石市,团城山,颗粒物(PM10),57,63,46,21,20,135,29,37,33,28,14,6,7,0.7,0.7
2023-08-30T03:00:00,2428A,111.0419,32.395,十堰市,武当山,,28,12,14,9,8,112,88,87,87,6,6,10,9,0.7,0.7
2023-08-30T03:00:00,2429A,110.78,32.6494,十堰市,滨河新村,,38,38,34,20,20,130,36,45,40,11,11,10,7,0.6,0.6
2023-08-30T03:00:00,2430A,110.7258,32.6389,十堰市,刘家沟,,31,31,26,13,15,139,42,44,42,2,5,6,7,0.7,0.7
2023-08-30T03:00:00,2431A,110.8839,32.5714,十堰市,铁二处,,23,23,25,10,10,130,37,44,40,3,5,5,5,0.6,0.6
2023-08-30T03:00:00,2432A,112.155,32.0197,襄阳市,襄城运动路,,48,48,38,20,17,143,54,42,42,21,19,8,9,0.6,0.7
2023-08-30T03:00:00,2433A,112.1392,32.0564,襄阳市,樊城新华路,细颗粒物(PM2.5),58,60,41,41,23,144,32,36,35,34,26,8,10,0.6,0.6
2023-08-30T03:00:00,2434A,112.1825,32.1142,襄阳市,高新管委会,颗粒物(PM10),56,61,45,36,30,147,6,61,30,68,23,7,9,1.0,0.8
2023-08-30T03:00:00,2435A,112.2106,32.0903,襄阳市,襄州航空路,细颗粒物(PM2.5),60,58,42,43,24,148,21,38,31,42,22,8,9,1.0,0.9
2023-08-30T03:00:00,2436A,114.8938,30.3994,鄂州市,市政府,,25,21,32,13,18,110,80,79,79,8,12,2,2,0.8,0.8
2023-08-30T03:00:00,2437A,114.8989,30.3714,鄂州市,赵家坝,,42,42,37,10,17,125,82,76,76,14,14,3,4,0.5,0.5
2023-08-30T03:00:00,2439A,112.2014,31.0481,荆门市,竹园小学,,42,42,45,23,23,158,97,104,101,11,14,11,11,0.9,0.7
2023-08-30T03:00:00,2440A,112.1969,30.9891,荆门市,掇刀,,41,41,38,26,21,149,102,103,103,11,12,8,9,0.7,0.6
2023-08-30T03:00:00,2441A,112.2213,31.0386,荆门市,石化一小,,43,43,43,25,25,159,99,108,104,12,14,9,10,0.5,0.5
2023-08-30T03:00:00,2443A,113.9153,30.9285,孝感市,文化路,,32,28,32,22,18,122,66,72,69,10,9,7,8,0.7,0.7
2023-08-30T03:00:00,2444A,113.942,30.9075,孝感市,东城区,,25,25,45,15,15,128,63,68,66,8,9,7,8,0.7,0.8
2023-08-30T03:00:00,2446A,114.9028,30.4742,黄冈市,职工中心,,33,33,36,21,23,123,71,85,77,4,2,10,9,0.7,0.7
2023-08-30T03:00:00,2447A,114.3175,29.8142,咸宁市,森林公园,,46,46,38,24,21,140,68,84,74,4,4,5,6,0.7,0.7
2023-08-30T03:00:00,2448A,114.3107,29.8454,咸宁市,市发改委,,38,34,35,26,21,151,57,56,56,4,7,8,8,0.5,0.6
2023-08-30T03:00:00,2449A,114.2936,29.8566,咸宁市,咸安区政府,,42,36,44,29,31,142,53,54,53,8,14,8,9,0.6,0.6
2023-08-30T03:00:00,2451A,113.3583,31.7275,随州市,市委党校,,37,37,32,22,19,131,45,61,54,19,9,8,7,0.7,0.7
2023-08-30T03:00:00,2452A,113.3833,31.6908,随州市,市林业局,,37,37,28,22,19,131,39,54,46,25,10,6,5,0.7,0.7
2023-08-30T03:00:00,2453A,113.3983,31.7308,随州市,市立交桥水厂,,23,23,27,16,17,126,51,56,51,17,13,8,8,0.6,0.7
2023-08-30T03:00:00,2454A,109.4978,30.2981,恩施土家族苗族自治州,湖北民院,,,,,,,,,,,,,,,,
2023-08-30T03:00:00,2455A,109.4707,30.2798,恩施土家族苗族自治州,州电力总公司,,39,22,17,27,13,94,22,31,26,15,12,8,8,0.7,0.8
2023-08-30T03:00:00,2456A,112.5003,26.9167,衡阳市,原169医院,,36,19,35,25,22,80,67,64,64,10,14,5,6,0.5,0.5
2023-08-30T03:00:00,2457A,112.6194,26.9258,衡阳市,衡阳化工总厂,颗粒物(PM10),52,53,61,34,48,99,54,60,58,15,14,8,9,0.9,1
2023-08-30T03:00:00,2458A,112.6211,26.8956,衡阳市,珠晖区环保局,,,54,54,,,98,51,66,59,17,16,6,6,1.0,0.9
2023-08-30T03:00:00,2459A,112.6197,26.8733,衡阳市,市委党校,颗粒物(PM10),62,74,62,37,44,111,30,36,32,24,16,10,8,2.0,1.1
2023-08-30T03:00:00,2460A,112.6006,26.8919,衡阳市,市监测站,细颗粒物(PM2.5),70,60,50,51,37,103,49,51,49,18,16,7,9,1.0,1
2023-08-30T03:00:00,2461A,112.5664,26.9056,衡阳市,真空机电公司,,47,47,46,25,26,105,63,55,55,13,13,6,7,0.8,0.9
2023-08-30T03:00:00,2462A,111.5239,27.3033,邵阳市,市水土所,,40,31,31,28,23,109,75,98,90,6,6,6,6,0.9,0.8
2023-08-30T03:00:00,2463A,111.4733,27.2317,邵阳市,市一中,,50,50,47,27,22,127,116,119,117,8,9,4,4,0.4,0.4
2023-08-30T03:00:00,2464A,111.5283,27.2442,邵阳市,市化工厂,,40,36,33,21,19,125,125,122,122,5,9,6,6,0.4,0.6
2023-08-30T03:00:00,2465A,111.4503,27.2537,邵阳市,市罐头厂,,39,35,40,27,24,121,88,94,92,8,8,6,6,0.5,0.5
2023-08-30T03:00:00,2466A,111.4328,27.2272,邵阳市,市环保局,,38,37,36,26,22,138,95,100,99,8,8,6,7,0.5,0.5
2023-08-30T03:00:00,2467A,112.4067,28.6428,益阳市,甘溪港,,48,48,35,8,6,109,53,46,46,10,10,7,5,0.6,0.5
2023-08-30T03:00:00,2468A,112.3458,28.5808,益阳市,市环保局,,46,46,34,30,23,136,78,84,82,11,12,10,8,0.8,0.8
2023-08-30T03:00:00,2469A,112.3437,28.5531,益阳市,市特殊教育学校,细颗粒物(PM2.5),53,47,35,37,22,136,87,85,85,12,13,8,6,0.9,0.9
2023-08-30T03:00:00,2470A,112.3347,28.6047,益阳市,资阳区政务中心,,43,43,29,25,19,135,70,67,67,15,13,5,5,1.1,1
2023-08-30T03:00:00,2471A,112.3744,28.5819,益阳市,赫山环保分局,,50,50,33,31,23,132,84,90,88,11,11,8,8,0.8,0.7
2023-08-30T03:00:00,2472A,113.0073,25.9061,郴州市,马头岭,,25,25,32,15,19,65,57,56,56,5,5,3,4,0.6,0.8
2023-08-30T03:00:00,2473A,113.0116,25.8226,郴州市,市职中,,27,27,32,14,26,65,56,58,57,8,10,4,4,0.5,0.6
2023-08-30T03:00:00,2474A,113.0161,25.8001,郴州市,兴隆步行街,,35,35,35,16,21,63,56,58,57,9,12,2,4,0.7,0.8
2023-08-30T03:00:00,2475A,113.0383,25.8071,郴州市,市审计局,,30,30,32,16,24,62,56,56,56,10,12,3,3,0.6,0.6
2023-08-30T03:00:00,2476A,113.0348,25.7759,郴州市,市环保局,,36,34,27,25,29,64,54,54,54,8,11,2,2,0.6,0.7
2023-08-30T03:00:00,2477A,111.6217,26.2081,永州市,零陵南津渡,细颗粒物(PM2.5),58,44,40,41,28,109,48,105,81,9,7,8,9,0.6,0.6
2023-08-30T03:00:00,2478A,111.6156,26.4214,永州市,市环境监测站,细颗粒物(PM2.5),67,57,43,48,31,98,72,78,76,7,8,15,9,0.9,0.7
2023-08-30T03:00:00,2479A,111.6236,26.2331,永州市,零陵区环保局,,50,46,42,35,31,100,85,98,93,7,8,10,11,0.7,0.7
2023-08-30T03:00:00,2480A,111.5992,26.4364,永州市,永州市环保局,,,54,39,,34,99,69,77,72,7,7,8,8,0.8,0.7
2023-08-30T03:00:00,2481A,111.5989,26.4519,永州市,冷水滩区环保局,细颗粒物(PM2.5),69,67,52,50,37,100,62,77,71,11,11,11,10,0.9,0.8
2023-08-30T03:00:00,2482A,109.5981,27.5721,怀化市,林科所,,28,28,22,15,11,111,58,76,64,2,3,11,11,0.5,0.5
2023-08-30T03:00:00,2483A,109.9453,27.5444,怀化市,河西地税局,颗粒物(PM10),51,51,36,31,24,109,24,24,24,14,12,11,14,0.8,0.7
2023-08-30T03:00:00,2484A,109.9781,27.5342,怀化市,市四医院,,50,50,40,29,26,111,63,67,65,11,8,14,13,0.8,0.7
2023-08-30T03:00:00,2485A,109.9972,27.5578,怀化市,监测楼,,49,49,46,24,27,99,27,52,42,16,9,8,10,0.8,0.8
2023-08-30T03:00:00,2486A,110.0394,27.583,怀化市,市委党校,颗粒物(PM10),55,59,41,34,26,101,18,36,27,26,12,19,17,0.8,0.7
2023-08-30T03:00:00,2487A,111.9589,27.8901,娄底市,电视发射台,,36,36,37,17,17,103,72,88,80,3,3,4,4,0.9,0.9
2023-08-30T03:00:00,2488A,111.9975,27.725,娄底市,市监测站,颗粒物(PM10),67,83,41,45,24,128,66,104,84,32,15,8,10,2.0,0.9
2023-08-30T03:00:00,2489A,112.0194,27.7314,娄底市,市委党校,颗粒物(PM10),56,61,36,34,23,118,91,110,99,9,7,3,3,3.8,0.9
2023-08-30T03:00:00,2490A,111.9561,27.7569,娄底市,涟钢,颗粒物(PM10),53,56,38,30,27,116,85,90,89,8,9,5,5,0.6,0.8
2023-08-30T03:00:00,2491A,111.9892,27.7044,娄底市,市政府,细颗粒物(PM2.5),53,46,34,37,23,130,96,111,100,10,6,11,8,0.8,0.5
2023-08-30T03:00:00,2492A,109.6414,28.2558,湘西州,跃进水库,,31,31,24,4,15,81,3,5,4,2,2,5,6,0.8,0.8
