timepoint,stationcode,longitude,latitude,area,positionname,primarypollutant,aqi,pm10,pm10_24h,pm2_5,pm2_5_24h,o3,o3_24h,o3_8h,o3_8h_24h,no2,no2_24h,so2,so2_24h,co,co_24h
2022-05-27T13:00:00,1001A,116.3621,39.8784,北京市,万寿西宫,,48,20,30,10,14,152,152,102,102,8,19,1,3,0.4,0.5
2022-05-27T13:00:00,1002A,116.2202,40.2915,北京市,定陵(对照点),,37,19,22,5,7,116,116,77,77,6,8,3,2,0.1,0.1
2022-05-27T13:00:00,1003A,116.4174,39.9289,北京市,东四,,47,20,37,7,13,150,149,99,99,7,25,2,4,0.3,0.4
2022-05-27T13:00:00,1004A,116.4072,39.8863,北京市,天坛,,47,22,37,7,13,148,148,96,96,13,20,2,3,0.2,0.4
2022-05-27T13:00:00,1005A,116.462,39.9365,北京市,农展馆,,48,23,34,8,13,151,151,97,97,10,26,3,3,0.3,0.6
2022-05-27T13:00:00,1006A,116.3392,39.9295,北京市,官园,,46,20,30,8,10,145,145,88,88,5,18,4,4,0.2,0.3
2022-05-27T13:00:00,1007A,116.2878,39.9611,北京市,海淀万柳,,41,16,27,5,8,135,130,66,66,10,30,1,2,0.2,0.3
2022-05-27T13:00:00,1008A,116.6636,40.135,北京市,顺义新城,,39,22,37,8,11,123,123,68,68,8,16,3,3,0.2,0.3
2022-05-27T13:00:00,1009A,116.6275,40.3275,北京市,怀柔镇,,47,32,22,7,5,148,148,78,78,10,7,4,2,0.3,0.2
2022-05-27T13:00:00,1010A,116.2296,40.217,北京市,昌平镇,,33,16,27,7,8,113,103,62,62,4,13,3,2,0.2,0.2
2022-05-27T13:00:00,1011A,116.3966,39.9821,北京市,奥体中心,,44,23,35,8,11,139,139,82,82,9,32,3,4,0.2,0.4
2022-05-27T13:00:00,1012A,116.184,39.9136,北京市,古城,,43,22,28,9,9,150,137,78,72,6,24,1,3,0.3,0.3
2022-05-27T13:00:00,1015A,117.1444,39.1661,天津市,勤俭道,,50,26,55,9,18,158,158,103,103,12,23,5,6,0.4,0.6
2022-05-27T13:00:00,1017A,117.237,39.1082,天津市,大直沽八号路,,45,27,56,10,17,141,141,93,93,12,24,7,15,0.5,0.6
2022-05-27T13:00:00,1018A,117.202,39.0927,天津市,前进道,,45,30,53,11,17,148,144,92,92,14,24,6,14,0.5,0.6
2022-05-27T13:00:00,1019A,117.1837,39.2133,天津市,淮河道,,48,27,63,14,23,152,152,99,99,10,25,8,8,0.5,0.6
2022-05-27T13:00:00,1021A,117.307,39.0877,天津市,跃进路,,50,36,56,13,17,160,160,93,93,12,22,8,9,0.5,0.6
2022-05-27T13:00:00,1023A,117.707,39.0343,天津市,第四大街,颗粒物(PM10),57,64,58,20,17,137,137,69,69,39,37,15,8,1.9,0.7
2022-05-27T13:00:00,1024A,117.457,38.8394,天津市,永明路,,45,28,54,12,23,152,143,90,90,15,29,9,14,0.3,0.8
2022-05-27T13:00:00,1026A,117.764,39.1587,天津市,汉北路,,48,27,47,7,15,153,153,79,79,11,26,14,9,0.6,0.9
2022-05-27T13:00:00,1027A,117.157,38.9194,天津市,团泊洼(对照点),臭氧1小时,93,38,60,20,27,194,194,91,91,24,24,11,10,0.8,0.9
2022-05-27T13:00:00,1029A,114.4422,38.0444,石家庄市,职工医院,,,18,48,6,16,142,121,82,82,,38,4,14,0.4,0.5
2022-05-27T13:00:00,1030A,114.6063,38.0266,石家庄市,高新区,,39,29,51,11,14,129,123,81,81,14,36,5,9,0.2,0.3
2022-05-27T13:00:00,1031A,114.4898,38.1328,石家庄市,西北水源,,,29,61,14,25,125,117,68,68,8,28,,16,,0.5
2022-05-27T13:00:00,1032A,114.4586,38.0058,石家庄市,西南高教,,39,25,36,5,20,141,124,83,83,8,33,5,7,0.3,0.4
2022-05-27T13:00:00,1033A,114.5331,38.0178,石家庄市,世纪公园,,40,20,47,7,14,141,125,82,82,6,28,3,6,0.4,0.5
2022-05-27T13:00:00,1034A,114.509,38.0457,石家庄市,人民会堂,,40,21,50,6,13,138,126,81,81,10,31,11,16,0.3,0.4
2022-05-27T13:00:00,1035A,114.3524,37.8911,石家庄市,封龙山(对照点),,32,20,31,17,14,141,102,97,96,2,2,13,14,0.5,0.5
2022-05-27T13:00:00,1037A,118.131,39.6363,唐山市,雷达站,,38,32,49,7,13,120,120,91,86,8,19,3,8,0.4,0.8
2022-05-27T13:00:00,1038A,118.1725,39.6334,唐山市,物资局,,38,38,48,9,16,117,117,91,85,7,22,6,11,0.4,0.8
2022-05-27T13:00:00,1040A,118.1705,39.6506,唐山市,十二中,,37,33,40,19,19,120,118,86,86,10,21,6,11,0.4,0.8
2022-05-27T13:00:00,1041A,118.1869,39.622,唐山市,小山,,40,37,46,6,16,125,125,91,88,6,19,6,11,0.4,0.8
2022-05-27T13:00:00,1042A,119.5134,39.8207,秦皇岛市,北戴河环保局,,,,24,,4,129,124,90,90,,13,8,8,,0.7
2022-05-27T13:00:00,1043A,119.7493,40.0116,秦皇岛市,第一关,,41,28,28,7,8,130,130,82,82,5,33,15,16,0.1,0.3
2022-05-27T13:00:00,1044A,119.5897,39.9499,秦皇岛市,监测站,,39,16,45,5,10,122,122,70,70,13,35,6,13,0.1,0.3
2022-05-27T13:00:00,1046A,119.5251,39.9041,秦皇岛市,建设大厦,,40,15,40,5,16,132,128,79,79,2,29,6,8,0.4,0.6
2022-05-27T13:00:00,1048A,114.5302,36.6116,邯郸市,东污水处理厂,,38,17,36,7,18,150,120,92,92,3,22,3,12,0.1,0.7
2022-05-27T13:00:00,1049A,114.4918,36.5713,邯郸市,矿院,,41,29,47,17,22,156,131,71,71,6,26,4,7,0.2,0.5
2022-05-27T13:00:00,1050A,114.484,36.6133,邯郸市,丛台公园,,,40,40,0,20,152,129,93,93,,23,5,16,,1
2022-05-27T13:00:00,1051A,115.493,38.8632,保定市,游泳馆,,40,34,72,7,19,127,127,62,62,7,34,8,8,0.2,0.3
2022-05-27T13:00:00,1053A,115.4713,38.9108,保定市,接待中心,,39,28,63,6,15,123,123,62,62,12,35,8,8,0.4,0.4
2022-05-27T13:00:00,1054A,115.4612,38.8416,保定市,地表水厂,,50,50,93,15,24,138,138,55,55,7,38,10,11,0.4,0.4
2022-05-27T13:00:00,1055A,115.4323,38.8697,保定市,胶片厂,,44,42,59,7,16,138,138,58,58,10,32,14,14,0.5,0.5
2022-05-27T13:00:00,1056A,115.5086,38.8639,保定市,监测站,,38,37,80,12,21,120,120,56,56,9,34,9,8,0.2,0.3
2022-05-27T13:00:00,1057A,114.8883,40.8336,张家口市,人民公园,,39,20,26,2,3,124,124,84,84,7,7,6,5,0.4,0.3
2022-05-27T13:00:00,1059A,114.8687,40.8042,张家口市,五金库,,40,34,30,10,7,125,125,84,84,2,5,5,5,0.2,0.3
2022-05-27T13:00:00,1060A,114.8902,40.762,张家口市,世纪豪园,,39,18,26,1,6,122,122,83,83,9,16,5,4,0.3,0.3
2022-05-27T13:00:00,1061A,114.8916,40.8661,张家口市,北泵房(对照点),,40,20,19,2,6,128,128,88,88,4,4,10,10,0.6,0.5
2022-05-27T13:00:00,1062A,117.9531,40.9081,承德市,铁路,,36,36,36,8,14,106,106,44,44,14,24,22,10,0.4,0.3
2022-05-27T13:00:00,1063A,117.9392,40.9763,承德市,中国银行,,,27,31,,12,111,111,51,51,19,30,35,6,0.6,0.3
2022-05-27T13:00:00,1064A,117.9503,40.928,承德市,开发区,,36,31,38,7,13,115,115,54,54,14,31,24,10,0.6,0.4
2022-05-27T13:00:00,1065A,117.8051,40.9655,承德市,文化中心,,33,24,44,5,15,104,104,54,54,9,22,30,10,0.6,0.3
2022-05-27T13:00:00,1066A,117.9268,41.0026,承德市,离宫(对照点),,35,19,28,6,16,111,111,50,50,6,21,17,7,0.3,0.2
2022-05-27T13:00:00,1067A,116.6708,39.5111,廊坊市,药材公司,,49,28,42,11,16,156,156,102,102,16,32,8,8,0.4,0.5
2022-05-27T13:00:00,1068A,116.7214,39.5589,廊坊市,开发区,,46,32,45,5,13,146,146,98,98,18,33,8,9,0.4,0.6
2022-05-27T13:00:00,1070A,116.7244,39.5269,廊坊市,北华航天学院,,47,28,50,27,20,149,149,94,94,15,32,8,9,0.3,0.5
2022-05-27T13:00:00,1071A,116.8842,38.2991,沧州市,沧县城建局,,47,38,51,12,15,149,149,89,81,17,34,14,14,0.2,0.3
2022-05-27T13:00:00,1072A,116.8584,38.3254,沧州市,电视转播站,,49,32,40,16,14,154,154,80,80,17,24,3,8,0.6,0.6
2022-05-27T13:00:00,1073A,116.8709,38.3228,沧州市,市环保局,臭氧1小时,52,37,44,8,12,161,161,93,88,21,31,10,10,0.4,0.5
2022-05-27T13:00:00,1074A,115.6838,37.7541,衡水市,电机北厂,颗粒物(PM10),57,63,58,18,12,154,154,96,96,12,16,12,11,0.5,0.7
2022-05-27T13:00:00,1075A,115.6303,37.7316,衡水市,市监测站,颗粒物(PM10),54,58,55,19,15,160,160,90,90,10,17,18,19,0.2,0.3
2022-05-27T13:00:00,1077A,114.4704,37.0886,邢台市,达活泉,,43,30,37,4,10,155,136,93,93,9,17,11,13,0.6,1.5
2022-05-27T13:00:00,1078A,114.5062,37.0349,邢台市,邢师高专,,,18,42,,17,152,134,68,68,7,30,8,5,0.6,0.6
2022-05-27T13:00:00,1079A,114.5237,37.0851,邢台市,路桥公司,,42,23,36,9,14,149,134,90,80,8,21,10,10,0.6,0.7
2022-05-27T13:00:00,1081A,112.5139,37.8873,太原市,尖草坪,颗粒物(PM10),54,57,57,19,22,193,110,51,51,18,40,7,9,0.4,0.6
2022-05-27T13:00:00,1083A,112.434,38.0108,太原市,上兰(对照点),,44,44,35,18,14,174,107,74,69,20,16,7,7,0.5,0.4
2022-05-27T13:00:00,1084A,112.469,37.7124,太原市,晋源,,,33,48,15,23,229,112,58,50,,38,9,10,0.4,0.5
2022-05-27T13:00:00,1085A,112.5583,37.7394,太原市,小店,,47,47,68,20,25,222,118,57,57,19,53,9,13,0.4,0.5
2022-05-27T13:00:00,1086A,112.5369,37.8692,太原市,桃园,,43,43,50,14,16,194,114,50,50,14,43,7,10,0.4,0.6
2022-05-27T13:00:00,1087A,112.57,37.8195,太原市,坞城,颗粒物(PM10),54,57,64,28,23,212,114,52,52,21,48,9,12,0.3,0.5
2022-05-27T13:00:00,1088A,112.549,37.9854,太原市,南寨,,33,33,60,14,16,171,105,47,47,19,39,13,10,0.8,0.6
2022-05-27T13:00:00,1090A,111.6507,40.7517,呼和浩特市,呼市一监,颗粒物(PM10),64,78,42,16,13,114,114,57,57,11,27,12,10,0.4,0.3
2022-05-27T13:00:00,1091A,111.6572,40.8033,呼和浩特市,小召,,,,28,,9,112,112,51,51,20,34,10,7,,0.4
2022-05-27T13:00:00,1094A,111.7516,40.8369,呼和浩特市,如意水处理厂,颗粒物(PM10),51,52,34,13,9,114,114,58,58,17,33,11,10,0.4,0.3
2022-05-27T13:00:00,1095A,111.7276,40.8062,呼和浩特市,二十九中,颗粒物(PM10),57,64,32,9,4,112,112,56,56,18,35,14,12,0.4,0.4
2022-05-27T13:00:00,1096A,111.5512,40.7866,呼和浩特市,工大金川校区,颗粒物(PM10),58,65,38,14,9,128,128,57,57,11,28,10,8,0.4,0.3
2022-05-27T13:00:00,1097A,111.717,40.7612,呼和浩特市,化肥厂生活区,颗粒物(PM10),65,79,38,6,6,118,118,61,61,13,26,14,18,0.3,0.3
2022-05-27T13:00:00,1098A,123.6836,41.9339,沈阳市,森林路(对照点),,42,17,13,9,8,134,134,76,76,12,16,8,7,0.5,0.5
2022-05-27T13:00:00,1099A,123.505,41.7406,沈阳市,浑南东路,,43,21,22,15,14,135,135,67,67,9,19,13,11,0.6,0.5
2022-05-27T13:00:00,1100A,123.4231,41.6989,沈阳市,新秀街,,40,32,28,14,14,125,125,63,63,15,28,12,10,0.4,0.5
2022-05-27T13:00:00,1102A,123.5903,41.8411,沈阳市,东陵路,,48,48,22,18,9,132,132,58,58,17,18,13,9,0.7,0.6
2022-05-27T13:00:00,1103A,123.4264,41.8467,沈阳市,陵东街,,42,31,22,16,11,133,133,66,66,20,27,10,9,0.5,0.4
2022-05-27T13:00:00,1104A,123.4114,41.7653,沈阳市,文化路,,42,26,32,14,19,134,134,68,68,6,18,9,8,0.6,0.6
2022-05-27T13:00:00,1105A,123.4678,41.7867,沈阳市,小河沿,,44,34,25,20,13,138,138,70,70,12,22,8,7,0.5,0.5
2022-05-27T13:00:00,1106A,123.4017,41.7972,沈阳市,太原街,,44,28,28,18,16,140,140,70,70,14,25,9,9,0.5,0.5
2022-05-27T13:00:00,1108A,123.3783,41.9228,沈阳市,京沈街,,44,21,22,16,15,140,140,70,70,8,17,10,11,0.5,0.5
2022-05-27T13:00:00,1109A,121.612,38.9741,大连市,甘井子,,43,33,29,14,10,174,135,101,101,17,26,10,9,0.5,0.5
2022-05-27T13:00:00,1110A,121.565,38.9511,大连市,周水子,,,44,29,16,12,123,123,77,77,26,24,,7,0.7,0.8
2022-05-27T13:00:00,1111A,121.5637,38.8845,大连市,星海三站,,43,43,26,30,13,129,127,102,102,30,24,9,8,0.4,0.4
2022-05-27T13:00:00,1112A,121.6302,38.9117,大连市,青泥洼桥,,46,46,26,14,4,145,145,115,115,37,22,11,8,0.5,0.3
2022-05-27T13:00:00,1113A,121.6251,38.8638,大连市,傅家庄,,33,33,25,23,9,125,104,91,91,20,16,16,17,0.6,0.5
2022-05-27T13:00:00,1115A,121.2529,38.8061,大连市,旅顺,,40,29,24,18,13,152,125,100,100,45,23,10,7,0.8,0.8
2022-05-27T13:00:00,1116A,121.7485,39.1311,大连市,金州,,,75,33,33,14,146,146,73,73,,25,9,6,0.6,0.5
2022-05-27T13:00:00,1117A,121.7811,39.0496,大连市,开发区,,46,25,25,15,10,146,146,86,86,27,29,13,7,0.7,0.7
2022-05-27T13:00:00,1118A,121.9762,39.0631,大连市,双D港,,49,40,18,23,9,154,154,88,88,31,22,12,9,0.7,0.6
2022-05-27T13:00:00,1119A,125.3325,43.9166,长春市,食品厂,,27,22,16,12,8,86,86,46,46,21,26,6,5,0.4,0.4
2022-05-27T13:00:00,1120A,125.2863,43.9027,长春市,客车厂,,31,31,16,7,7,89,89,48,48,18,22,5,5,0.5,0.5
2022-05-27T13:00:00,1121A,125.2841,43.8463,长春市,邮电学院,,29,15,14,3,7,91,91,50,50,12,17,1,1,0.6,0.6
2022-05-27T13:00:00,1122A,125.3716,43.8772,长春市,劳动公园,,30,16,18,8,7,93,93,50,50,10,14,2,2,0.7,0.6
2022-05-27T13:00:00,1123A,125.3297,43.8805,长春市,园林处,,29,10,10,4,5,92,92,50,50,13,16,4,4,0.4,0.4
2022-05-27T13:00:00,1124A,125.4605,43.79,长春市,净月潭,,29,10,9,4,5,92,92,47,47,3,6,6,6,0.4,0.4
2022-05-27T13:00:00,1125A,125.7194,43.515,长春市,甩湾子(对照点),,26,16,12,2,7,81,81,48,48,5,9,6,5,0.4,0.4
2022-05-27T13:00:00,1126A,125.3863,43.8447,长春市,经开区环卫处,,,17,11,5,5,89,89,39,39,5,10,,7,,0.7
2022-05-27T13:00:00,1127A,125.245,43.7783,长春市,高新区管委会,,31,13,11,4,6,98,98,55,55,6,12,5,5,0.4,0.4
2022-05-27T13:00:00,1128A,125.1761,43.8325,长春市,岱山公园,,26,25,15,8,7,83,83,42,42,12,22,5,5,0.5,0.4
2022-05-27T13:00:00,1129A,126.5422,45.755,哈尔滨市,岭北(对照点),,29,16,15,1,16,91,91,62,62,10,16,7,7,0.3,0.3
2022-05-27T13:00:00,1130A,126.561,45.8167,哈尔滨市,松北商大,,36,24,14,25,9,92,92,62,62,4,8,3,4,0.9,1
2022-05-27T13:00:00,1131A,126.979,45.5419,哈尔滨市,阿城会宁,,30,11,15,11,12,94,94,68,68,6,9,13,8,0.4,0.7
2022-05-27T13:00:00,1132A,126.599,45.7222,哈尔滨市,南岗学府路,,27,25,14,9,9,86,86,62,62,14,20,11,5,0.6,0.6
2022-05-27T13:00:00,1133A,126.689,45.7733,哈尔滨市,太平宏伟公园,,29,20,21,8,10,90,90,63,63,11,20,18,15,0.5,0.6
2022-05-27T13:00:00,1134A,126.635,45.7667,哈尔滨市,道外承德广场,,,,26,,16,98,98,69,69,16,24,14,13,0.3,0.6
2022-05-27T13:00:00,1135A,126.685,45.7319,哈尔滨市,香坊红旗大街,,,,20,,16,84,84,56,56,21,30,8,7,0.5,0.5
2022-05-27T13:00:00,1136A,126.6411,45.7258,哈尔滨市,动力和平路,,28,19,20,11,16,88,88,62,62,12,17,16,13,0.5,0.6
2022-05-27T13:00:00,1137A,126.593,45.7478,哈尔滨市,道里建国路,,29,29,19,14,12,74,74,54,54,22,23,10,12,1.2,1.2
2022-05-27T13:00:00,1138A,126.615,45.61,哈尔滨市,平房东轻厂,,27,26,16,11,12,86,86,62,62,6,10,7,8,0.9,0.9
2022-05-27T13:00:00,1139A,126.595,45.9855,哈尔滨市,呼兰师专,,29,23,23,12,16,92,92,65,65,14,18,10,10,0.4,0.4
2022-05-27T13:00:00,1140A,126.6206,45.6842,哈尔滨市,省农科院,,27,22,18,6,10,84,84,60,60,14,21,12,10,0.7,0.6
2022-05-27T13:00:00,1141A,121.4,31.238,上海市,普陀,臭氧1小时,110,56,37,40,29,220,220,118,118,17,26,4,8,1.2,1.2
2022-05-27T13:00:00,1142A,121.478,31.2036,上海市,十五厂,臭氧1小时,108,55,37,46,30,216,216,109,109,15,24,7,6,1.3,1.2
2022-05-27T13:00:00,1143A,121.467,31.3008,上海市,虹口,臭氧1小时,94,51,30,40,27,195,195,109,109,11,22,7,9,1.4,1.3
2022-05-27T13:00:00,1144A,121.412,31.1654,上海市,徐汇上师大,臭氧1小时,100,62,40,48,32,200,200,98,98,21,31,5,5,0.7,0.7
2022-05-27T13:00:00,1145A,121.536,31.2659,上海市,杨浦四漂,臭氧1小时,106,44,26,45,27,212,212,114,114,9,17,8,8,0.3,0.2
2022-05-27T13:00:00,1147A,121.425,31.2261,上海市,静安监测站,臭氧1小时,104,61,41,44,31,208,208,110,110,23,32,6,8,0.3,0.3
2022-05-27T13:00:00,1148A,121.703,31.1907,上海市,浦东川沙,臭氧1小时,101,64,46,50,31,202,202,100,100,15,24,7,5,1.3,1.2
2022-05-27T13:00:00,1149A,121.533,31.2284,上海市,浦东新区监测站,臭氧1小时,98,53,37,41,29,198,198,108,108,13,20,7,6,0.8,0.7
2022-05-27T13:00:00,1150A,121.577,31.2071,上海市,浦东张江,臭氧1小时,78,45,28,42,30,182,182,93,93,16,20,6,5,0.9,0.8
2022-05-27T13:00:00,1151A,118.8086,32.1065,南京市,迈皋桥,,,55,70,17,41,181,181,78,78,,51,,8,1.7,1.4
2022-05-27T13:00:00,1152A,118.7538,32.0551,南京市,草场门,臭氧1小时,77,48,64,27,41,181,181,95,95,26,50,12,6,1.0,0.8
2022-05-27T13:00:00,1153A,118.7794,32.0745,南京市,山西路,臭氧1小时,100,56,76,34,51,200,200,98,98,32,63,3,4,1.4,0.8
2022-05-27T13:00:00,1154A,118.7752,32.0023,南京市,中华门,,,56,75,27,42,198,198,86,86,16,46,3,4,,0.8
2022-05-27T13:00:00,1155A,118.8109,32.0309,南京市,瑞金路,臭氧1小时,108,54,81,34,45,215,215,77,77,,37,9,5,1.0,0.7
2022-05-27T13:00:00,1156A,118.7997,32.0754,南京市,玄武湖,臭氧1小时,107,27,57,39,47,213,213,96,96,23,46,4,4,1.0,0.8
2022-05-27T13:00:00,1157A,118.6414,32.0931,南京市,浦口,,,27,52,13,33,160,160,92,92,,27,3,4,0.2,0.4
2022-05-27T13:00:00,1158A,118.7356,31.9996,南京市,奥体中心,臭氧1小时,72,44,73,19,42,177,177,96,96,19,48,2,2,0.3,0.6
2022-05-27T13:00:00,1159A,118.9125,32.1028,南京市,仙林大学城,臭氧1小时,103,58,59,44,45,232,205,123,123,21,35,9,6,0.8,1.1
2022-05-27T13:00:00,1160A,120.561,31.2472,苏州市,上方山(对照点),臭氧1小时,103,85,63,39,34,206,206,99,99,20,37,7,7,0.7,0.6
2022-05-27T13:00:00,1162A,120.591,31.3019,苏州市,彩香,臭氧1小时,103,60,46,33,36,206,206,106,106,12,27,6,6,0.6,0.6
2022-05-27T13:00:00,1163A,120.596,31.3264,苏州市,轧钢厂,臭氧1小时,110,46,52,26,27,220,220,108,108,17,34,6,7,0.6,0.6
2022-05-27T13:00:00,1164A,120.613,31.2703,苏州市,吴中区,臭氧1小时,119,63,49,52,52,238,238,112,112,14,31,7,7,0.5,0.6
2022-05-27T13:00:00,1165A,120.543,31.2994,苏州市,苏州新区,臭氧1小时,89,37,44,37,53,193,191,105,105,8,31,6,6,0.7,0.7
2022-05-27T13:00:00,1166A,120.669,31.3097,苏州市,苏州工业园区,臭氧1小时,106,59,40,41,27,212,212,92,92,25,31,6,6,0.7,0.7
2022-05-27T13:00:00,1167A,120.641,31.3708,苏州市,相城区,臭氧1小时,102,59,44,46,38,204,204,84,84,18,35,7,6,0.6,0.6
2022-05-27T13:00:00,1168A,120.9098,31.9663,南通市,狼山街道,臭氧1小时,77,37,34,22,24,181,181,88,88,11,26,13,12,0.8,0.7
2022-05-27T13:00:00,1169A,120.86,32.0005,南通市,虹桥,臭氧1小时,83,46,36,45,46,186,186,92,92,22,31,11,10,1.0,0.7
2022-05-27T13:00:00,1170A,120.87,32.02,南通市,城中,臭氧1小时,75,51,35,36,42,180,180,90,90,26,35,11,9,0.9,0.6
2022-05-27T13:00:00,1171A,120.94,31.93,南通市,星湖花园,臭氧1小时,83,45,34,29,25,186,186,94,94,12,30,8,7,0.9,0.8
2022-05-27T13:00:00,1172A,120.81,32.0417,南通市,紫琅学院,细颗粒物(PM2.5),100,54,38,75,27,183,183,89,89,46,37,23,10,1.9,0.7
2022-05-27T13:00:00,1173A,119.176,34.5885,连云港市,市环境监测站,,49,29,34,12,15,156,156,120,119,9,14,10,9,0.1,0.2
2022-05-27T13:00:00,1177A,117.179,34.2761,徐州市,黄河新村,臭氧1小时,67,39,54,12,24,173,173,128,128,11,25,5,7,0.3,0.5
2022-05-27T13:00:00,1178A,117.1918,34.2384,徐州市,淮塔,臭氧1小时,95,34,42,17,19,196,196,140,140,7,24,11,10,0.5,0.5
2022-05-27T13:00:00,1180A,117.256,34.2153,徐州市,新城区,,,,51,,20,186,186,101,101,15,30,,8,,0.7
2022-05-27T13:00:00,1181A,117.244,34.2911,徐州市,桃园路,,,46,50,49,21,182,182,119,119,14,30,,11,,0.6
2022-05-27T13:00:00,1182A,117.2933,34.2778,徐州市,农科院,臭氧1小时,94,36,46,14,15,195,195,120,120,13,28,7,7,0.4,0.5
2022-05-27T13:00:00,1186A,119.389,32.3761,扬州市,邗江监测站,臭氧1小时,74,44,53,20,26,179,179,100,100,10,25,8,8,0.5,0.8
2022-05-27T13:00:00,1188A,120.269,31.4867,无锡市,雪浪,臭氧1小时,82,68,65,39,40,185,185,102,102,7,30,9,10,0.7,0.8
2022-05-27T13:00:00,1189A,120.275,31.6219,无锡市,黄巷,臭氧1小时,105,61,64,39,39,209,209,93,93,16,45,8,8,0.8,0.7
2022-05-27T13:00:00,1190A,120.294,31.56,无锡市,曹张,臭氧1小时,104,45,53,36,34,207,207,105,105,9,36,6,7,0.8,0.9
2022-05-27T13:00:00,1191A,120.242,31.5031,无锡市,漆塘,臭氧1小时,106,66,62,38,35,212,212,115,115,13,37,6,6,0.9,0.9
2022-05-27T13:00:00,1192A,120.3489,31.5863,无锡市,东亭,臭氧1小时,103,61,58,36,39,205,205,98,98,14,25,7,8,0.8,0.9
2022-05-27T13:00:00,1193A,120.354,31.5475,无锡市,旺庄,臭氧1小时,106,48,58,36,42,211,211,105,105,12,36,5,6,0.9,1
2022-05-27T13:00:00,1194A,120.245,31.5631,无锡市,荣巷,,,,60,,43,213,213,100,100,,43,8,10,0.4,0.5
2022-05-27T13:00:00,1195A,120.299,31.6817,无锡市,堰桥,臭氧1小时,114,63,59,41,42,227,227,106,106,20,36,10,7,1.2,1
2022-05-27T13:00:00,1196A,119.9633,31.762,常州市,市监测站,臭氧1小时,107,86,97,53,47,213,213,100,100,22,50,6,7,0.9,1
2022-05-27T13:00:00,1200A,119.9468,31.7069,常州市,武进监测站,臭氧1小时,118,100,109,86,89,235,235,113,113,16,43,8,9,0.9,1.2
2022-05-27T13:00:00,1201A,119.9255,31.9087,常州市,安家,臭氧1小时,116,76,74,60,61,231,231,103,103,14,38,7,6,1.1,1.2
2022-05-27T13:00:00,1203A,119.6707,32.1875,镇江市,新区办事处,臭氧1小时,102,57,50,46,35,204,204,95,95,41,44,9,7,0.8,0.8
2022-05-27T13:00:00,1204A,119.4974,32.1968,镇江市,职教中心,臭氧1小时,102,43,44,38,37,204,204,97,97,21,39,5,5,0.7,0.9
2022-05-27T13:00:00,1205A,119.4303,32.1328,镇江市,丹徒区监测站,臭氧1小时,101,22,48,22,56,202,202,110,110,18,34,4,5,0.5,0.8
2022-05-27T13:00:00,1206A,119.905,32.4878,泰州市,公园路,臭氧1小时,94,61,44,44,32,195,195,103,103,17,21,6,6,0.9,0.9
2022-05-27T13:00:00,1207A,119.9189,32.4625,泰州市,莲花,臭氧1小时,90,56,46,51,39,192,192,103,103,12,17,5,5,1.0,0.9
2022-05-27T13:00:00,1209A,119.888,32.4639,泰州市,留学生创业园,臭氧1小时,100,58,51,43,37,200,200,102,102,15,18,7,6,0.7,0.6
2022-05-27T13:00:00,1210A,119.036,33.5981,淮安市,钵池山,臭氧1小时,64,36,39,13,24,172,171,131,131,10,19,7,10,0.4,0.6
2022-05-27T13:00:00,1211A,119.007,33.575,淮安市,北京南路,臭氧1小时,53,41,45,16,28,162,162,114,114,9,30,9,16,0.5,0.7
2022-05-27T13:00:00,1212A,118.989,33.6067,淮安市,市监测站,臭氧1小时,58,41,53,19,21,166,166,113,113,13,28,12,16,0.6,0.7
2022-05-27T13:00:00,1213A,119.135,33.5039,淮安市,楚州区监测站,,,,39,,46,221,171,102,102,16,25,13,10,0.5,0.5
2022-05-27T13:00:00,1214A,119.0186,33.6297,淮安市,淮阴区监测站,,50,32,37,12,26,158,158,117,117,14,23,10,12,0.6,0.6
2022-05-27T13:00:00,1215A,120.118,33.4022,盐城市,盐城电厂,臭氧1小时,58,34,46,22,21,166,166,121,121,9,15,4,5,0.6,0.7
2022-05-27T13:00:00,1216A,120.156,33.3942,盐城市,市监测站,,49,32,33,21,18,155,155,117,117,10,13,11,12,0.4,0.4
2022-05-27T13:00:00,1218A,120.2144,33.38,盐城市,开发区管委会,,49,35,38,11,21,155,155,113,113,8,15,8,9,0.4,0.4
2022-05-27T13:00:00,1220A,118.293,33.9528,宿迁市,宿迁学院,,,,58,,22,156,142,109,109,,23,,7,0.2,0.6
2022-05-27T13:00:00,1221A,118.2442,33.9592,宿迁市,宿迁中学,,44,14,57,2,22,174,138,121,117,4,16,5,7,0.3,0.4
2022-05-27T13:00:00,1223A,120.2072,30.2111,杭州市,滨江,臭氧1小时,99,46,47,26,28,199,199,101,101,18,29,4,4,0.7,0.7
2022-05-27T13:00:00,1224A,120.0633,30.2747,杭州市,西溪,臭氧1小时,67,40,41,25,25,176,173,84,84,15,23,8,8,0.7,0.7
2022-05-27T13:00:00,1226A,120.3461,30.3153,杭州市,下沙,臭氧1小时,105,58,53,31,28,210,210,116,116,26,32,7,8,0.6,0.6
2022-05-27T13:00:00,1227A,120.1269,30.2456,杭州市,卧龙桥,臭氧1小时,85,39,37,25,29,198,188,85,85,14,21,6,5,0.6,0.6
2022-05-27T13:00:00,1228A,120.1903,30.2692,杭州市,浙江农大,臭氧1小时,99,42,43,26,32,201,199,104,104,18,27,5,6,0.6,0.6
2022-05-27T13:00:00,1230A,120.1197,30.3119,杭州市,和睦小学,臭氧1小时,92,47,50,28,32,203,193,100,100,21,32,4,4,0.7,0.7
2022-05-27T13:00:00,1231A,120.3019,30.4183,杭州市,临平镇,臭氧1小时,108,60,70,36,41,215,215,103,103,14,35,4,4,0.7,0.7
2022-05-27T13:00:00,1232A,120.2697,30.1819,杭州市,城厢镇,,,44,49,26,32,190,190,89,89,19,29,,7,0.6,0.6
2022-05-27T13:00:00,1233A,120.0883,30.1808,杭州市,云栖,臭氧1小时,92,42,42,21,22,201,193,89,89,18,32,7,8,0.6,0.6
2022-05-27T13:00:00,1234A,121.8358,29.911,宁波市,区环保大楼,颗粒物(PM10),55,60,31,34,17,158,158,80,80,45,35,12,8,0.6,0.5
2022-05-27T13:00:00,1235A,121.56,29.82,宁波市,万里学院,臭氧1小时,107,40,30,34,20,214,214,85,85,17,24,8,9,0.5,0.5
2022-05-27T13:00:00,1236A,121.713,29.9572,宁波市,龙赛医院,,50,36,34,20,19,157,157,84,84,23,36,7,8,0.5,0.5
2022-05-27T13:00:00,1239A,121.633,29.7733,宁波市,钱湖水厂,臭氧1小时,104,42,26,31,18,207,207,97,97,22,15,9,7,0.6,0.6
2022-05-27T13:00:00,1240A,121.5856,29.8635,宁波市,太古小学,臭氧1小时,98,45,25,33,17,198,198,82,82,23,27,10,9,0.6,0.5
2022-05-27T13:00:00,1241A,121.524,29.8674,宁波市,市环境监测中心,臭氧1小时,101,43,31,24,19,201,201,83,83,16,22,8,15,0.4,0.4
2022-05-27T13:00:00,1242A,120.634,28.0089,温州市,瓯海,臭氧1小时,72,24,34,18,23,177,177,92,92,22,35,5,5,0.5,0.5
2022-05-27T13:00:00,1243A,120.6748,27.9939,温州市,南浦,臭氧1小时,73,34,34,23,21,178,178,95,95,22,31,6,6,0.5,0.6
2022-05-27T13:00:00,1244A,120.76,27.9747,温州市,龙湾,"颗粒物(PM10),臭氧1小时",55,59,42,12,21,164,164,76,76,26,50,6,5,0.5,0.4
2022-05-27T13:00:00,1245A,120.6709,28.0167,温州市,市站,臭氧1小时,57,38,39,15,24,165,165,89,89,16,28,5,5,0.4,0.5
2022-05-27T13:00:00,1247A,120.6053,29.9928,绍兴市,城东开发委,臭氧1小时,74,34,32,12,23,179,179,108,108,8,16,6,7,0.4,0.5
2022-05-27T13:00:00,1250A,120.0751,30.8669,湖州市,城西水厂,臭氧1小时,105,64,49,35,29,210,210,92,92,14,25,6,6,0.6,0.5
2022-05-27T13:00:00,1252A,120.7436,30.778,嘉兴市,清河小学,臭氧1小时,127,73,39,45,24,253,253,121,121,17,27,8,8,0.4,0.5
2022-05-27T13:00:00,1253A,120.726,30.7478,嘉兴市,嘉兴学院,臭氧1小时,109,56,42,40,29,219,217,103,103,17,32,5,7,0.4,0.5
2022-05-27T13:00:00,1255A,121.273,28.6459,台州市,黄岩环保大楼,,46,34,32,14,13,145,145,84,84,13,21,6,5,0.4,0.5
2022-05-27T13:00:00,1256A,121.419,28.6542,台州市,台州环保大楼,,,39,31,24,18,169,169,90,90,13,15,5,5,,0.4
2022-05-27T13:00:00,1257A,121.377,28.5773,台州市,路桥田洋王,臭氧1小时,62,30,22,26,19,169,169,92,92,14,18,6,6,0.4,0.5
2022-05-27T13:00:00,1258A,122.122,30.0203,舟山市,定海檀枫,,49,40,28,24,16,156,156,72,72,13,20,4,3,0.5,0.3
2022-05-27T13:00:00,1259A,122.3094,29.9558,舟山市,普陀东港,,33,30,23,18,15,124,105,76,71,21,22,4,4,0.5,0.4
2022-05-27T13:00:00,1260A,122.19,29.9944,舟山市,临城新区,,44,40,23,19,12,138,138,73,73,35,20,5,4,0.5,0.3
2022-05-27T13:00:00,1262A,119.647,29.077,金华市,十五中,,,35,30,33,25,160,160,76,76,,14,5,6,0.5,0.5
2022-05-27T13:00:00,1263A,119.686,29.1029,金华市,监测站,,48,31,35,13,21,152,152,81,81,11,22,4,5,0.6,0.6
2022-05-27T13:00:00,1264A,118.8692,28.9398,衢州市,环保大楼,,41,36,42,17,24,137,130,59,59,13,22,3,10,0.4,0.5
2022-05-27T13:00:00,1265A,118.8709,28.9666,衢州市,实验学校,,44,23,33,15,20,141,139,67,67,11,22,5,6,0.4,0.5
2022-05-27T13:00:00,1266A,118.8621,28.9808,衢州市,衢州学院,,44,21,35,15,20,147,140,67,67,13,32,4,5,0.5,0.5
2022-05-27T13:00:00,1267A,119.914,28.4514,丽水市,监测站大楼,,34,26,19,23,12,108,108,61,61,8,14,5,5,0.4,0.3
2022-05-27T13:00:00,1268A,119.93,28.4586,丽水市,莲都小学,,37,30,22,16,9,117,117,72,72,8,14,6,5,0.4,0.3
2022-05-27T13:00:00,1269A,119.879,28.4231,丽水市,余庄前,,35,26,22,9,8,110,110,50,50,13,11,5,5,0.4,0.3
2022-05-27T13:00:00,1270A,117.1959,31.7848,合肥市,明珠广场,臭氧1小时,89,75,64,41,31,191,191,82,82,19,41,6,6,0.7,0.6
2022-05-27T13:00:00,1271A,117.3072,31.8764,合肥市,三里街,臭氧1小时,75,75,72,36,35,180,180,90,90,23,32,9,9,0.5,0.5
2022-05-27T13:00:00,1272A,117.2588,31.8707,合肥市,琥珀山庄,臭氧1小时,83,80,59,29,29,186,186,89,89,16,32,8,9,0.7,0.7
2022-05-27T13:00:00,1273A,117.1604,31.9052,合肥市,董铺水库(对照点),,,,47,,23,169,169,77,77,19,29,8,8,0.5,0.5
2022-05-27T13:00:00,1274A,117.25,31.8571,合肥市,长江中路,臭氧1小时,90,68,64,51,40,192,192,92,92,21,34,7,8,0.5,0.5
2022-05-27T13:00:00,1275A,117.266,31.9436,合肥市,庐阳区,臭氧1小时,104,97,76,58,50,207,207,94,94,22,34,10,11,0.7,0.7
2022-05-27T13:00:00,1276A,117.336,31.8586,合肥市,瑶海区,臭氧1小时,82,75,79,42,43,185,185,93,93,13,38,7,8,0.5,0.6
2022-05-27T13:00:00,1277A,117.3027,31.7964,合肥市,包河区,臭氧1小时,65,70,74,34,43,173,172,96,96,13,51,7,8,0.5,0.5
2022-05-27T13:00:00,1278A,117.2776,31.7385,合肥市,滨湖新区,臭氧1小时,72,66,75,46,41,177,177,102,102,8,35,8,8,0.3,0.3
2022-05-27T13:00:00,1279A,117.1318,31.8403,合肥市,高新区,臭氧1小时,102,68,60,41,33,203,203,90,90,22,38,8,9,0.7,0.7
2022-05-27T13:00:00,1280A,119.3903,26.0543,福州市,鼓山(对照点),,22,20,9,10,5,124,70,78,67,18,7,2,2,0.2,0.2
2022-05-27T13:00:00,1282A,119.2681,26.0504,福州市,师大,,26,26,16,13,10,91,80,81,64,20,17,2,2,0.3,0.3
2022-05-27T13:00:00,1283A,119.2984,26.1028,福州市,五四北路,,39,27,17,27,13,88,66,70,53,25,19,2,2,0.5,0.5
2022-05-27T13:00:00,1284A,119.2648,26.0768,福州市,杨桥西路,,25,24,16,17,13,83,74,79,59,22,20,2,2,0.4,0.4
2022-05-27T13:00:00,1285A,119.317,26.0746,福州市,紫阳,,32,32,19,17,13,78,68,67,52,26,24,4,4,0.6,0.6
2022-05-27T13:00:00,1286A,118.1608,24.8169,厦门市,溪东(对照点),,23,14,25,15,31,71,71,58,58,3,5,2,2,0.5,0.5
2022-05-27T13:00:00,1287A,118.1514,24.4767,厦门市,洪文,,43,43,21,23,12,98,98,84,71,32,20,4,4,0.8,0.6
2022-05-27T13:00:00,1288A,118.0661,24.4444,厦门市,鼓浪屿,,40,21,15,28,12,100,100,86,74,20,7,1,2,0.5,0.5
2022-05-27T13:00:00,1290A,115.8931,28.6843,南昌市,省外办,颗粒物(PM10),51,52,39,26,26,125,125,89,89,18,21,7,5,1.1,1.1
2022-05-27T13:00:00,1291A,115.8886,28.7003,南昌市,省林业公司,颗粒物(PM10),51,52,53,22,20,132,132,64,64,21,40,9,5,1.1,1.1
2022-05-27T13:00:00,1292A,115.8126,28.7442,南昌市,林科所,,41,36,31,27,22,131,131,66,66,13,29,8,6,0.9,0.8
2022-05-27T13:00:00,1294A,115.8518,28.687,南昌市,建工学校,颗粒物(PM10),52,53,43,26,30,128,128,82,82,22,32,14,11,1.0,0.8
2022-05-27T13:00:00,1295A,115.8921,28.6424,南昌市,象湖,颗粒物(PM10),51,52,38,26,20,126,102,73,73,32,30,9,5,1.7,1
2022-05-27T13:00:00,1296A,115.7423,28.7996,南昌市,武术学校(对照点),,34,34,25,18,18,107,107,53,53,8,5,17,14,0.7,0.5
2022-05-27T13:00:00,1298A,115.9314,28.6842,南昌市,省站,,50,50,49,26,22,135,135,90,90,15,24,9,11,0.5,0.6
2022-05-27T13:00:00,1299A,116.9862,36.6114,济南市,科干所,臭氧1小时,74,48,45,12,12,185,179,160,160,8,10,15,16,0.5,0.4
2022-05-27T13:00:00,1300A,116.9376,36.665,济南市,农科所,臭氧1小时,72,46,51,10,11,177,177,133,133,15,25,12,13,0.4,0.3
2022-05-27T13:00:00,1301A,117.1265,36.6734,济南市,开发区,臭氧1小时,79,63,46,17,14,188,183,167,167,15,15,13,13,0.4,0.3
2022-05-27T13:00:00,1303A,117.0624,36.6868,济南市,省种子仓库,臭氧1小时,67,66,49,24,18,178,173,151,151,6,12,14,14,0.5,0.5
2022-05-27T13:00:00,1304A,116.9489,36.6447,济南市,机床二厂,,,,71,,13,183,182,137,137,14,24,9,11,0.4,0.3
2022-05-27T13:00:00,1305A,117.0495,36.663,济南市,市监测站,,,,45,,10,171,171,150,150,,13,10,12,0.5,0.4
2022-05-27T13:00:00,1306A,116.7675,36.5484,济南市,长清党校,臭氧1小时,80,49,53,10,14,184,184,146,146,9,20,14,18,0.7,0.7
2022-05-27T13:00:00,1307A,120.6659,36.2403,青岛市,仰口(对照点),颗粒物(PM10),57,63,38,12,16,133,133,109,109,7,10,6,7,0.1,0.2
2022-05-27T13:00:00,1310A,120.4134,36.0658,青岛市,市南区东部子站,臭氧1小时,58,61,42,19,14,166,166,91,91,31,34,12,9,0.6,0.5
2022-05-27T13:00:00,1311A,120.3664,36.1032,青岛市,四方区子站,臭氧1小时,63,63,46,14,18,170,170,92,92,38,41,10,10,0.8,0.8
2022-05-27T13:00:00,1312A,120.2994,36.054,青岛市,市南区西部子站,臭氧1小时,82,90,57,24,14,185,185,92,92,38,45,14,11,0.7,0.6
2022-05-27T13:00:00,1313A,120.4581,36.0858,青岛市,崂山区子站,颗粒物(PM10),59,68,39,19,11,153,153,88,88,35,30,14,10,0.9,0.6
2022-05-27T13:00:00,1314A,120.1983,35.9608,青岛市,黄岛区子站,臭氧1小时,72,70,39,32,18,177,177,116,116,30,31,12,8,0.6,0.5
2022-05-27T13:00:00,1315A,120.3999,36.3083,青岛市,城阳区子站,,47,44,56,10,16,150,150,105,105,10,33,6,7,0.4,0.5
2022-05-27T13:00:00,1316A,113.69031,34.76122,郑州市,烟厂,臭氧1小时,113,85,68,31,31,225,225,123,123,15,25,15,16,0.6,0.5
2022-05-27T13:00:00,1317A,113.65724,34.77134,郑州市,郑纺机,臭氧1小时,107,85,66,36,29,213,213,114,114,17,29,16,18,0.8,0.7
2022-05-27T13:00:00,1318A,113.67526,34.80246,郑州市,银行学校,臭氧1小时,112,66,57,40,30,224,224,126,126,20,26,16,16,0.7,0.6
2022-05-27T13:00:00,1319A,113.56746,34.81334,郑州市,供水公司,臭氧1小时,108,77,69,34,29,215,215,123,123,18,32,16,13,0.6,0.5
2022-05-27T13:00:00,1320A,113.7329,34.7178,郑州市,经开区管委,臭氧1小时,108,108,63,34,33,216,216,93,92,24,33,,13,0.4,0.5
2022-05-27T13:00:00,1321A,113.73961,34.77172,郑州市,四十七中,臭氧1小时,111,76,66,35,27,221,221,111,111,18,34,15,14,0.6,0.5
2022-05-27T13:00:00,1322A,113.60532,34.74838,郑州市,市监测站,臭氧1小时,105,75,75,29,28,209,209,102,102,15,32,17,17,0.6,0.5
2022-05-27T13:00:00,1323A,113.64164,34.7525,郑州市,河医大,臭氧1小时,109,74,72,39,26,218,218,112,112,11,25,15,15,0.7,0.5
2022-05-27T13:00:00,1324A,113.51488,34.91089,郑州市,岗李水库(对照点),臭氧1小时,100,79,58,28,20,200,200,104,104,12,21,13,9,0.5,0.5
2022-05-27T13:00:00,1325A,114.3677,30.5584,武汉市,东湖梨园,"颗粒物(PM10),细颗粒物(PM2.5)",62,74,52,44,32,174,157,93,93,15,18,11,9,1.2,0.9
2022-05-27T13:00:00,1326A,114.2529,30.558,武汉市,汉阳月湖,颗粒物(PM10),64,78,52,34,30,171,114,70,70,43,34,10,8,1.4,0.9
2022-05-27T13:00:00,1327A,114.282,30.6189,武汉市,汉口花桥,细颗粒物(PM2.5),64,73,44,46,33,155,88,69,69,61,32,11,8,1.4,1
2022-05-27T13:00:00,1328A,114.3025,30.5332,武汉市,武昌紫阳,,,,55,,29,166,132,71,70,,35,11,8,,1.2
2022-05-27T13:00:00,1329A,114.3646,30.6217,武汉市,青山钢花,颗粒物(PM10),75,99,61,48,39,156,130,65,65,43,37,14,9,1.4,0.9
2022-05-27T13:00:00,1330A,114.1566,30.4825,武汉市,沌口新区,颗粒物(PM10),66,81,66,42,34,169,120,77,65,40,38,12,9,1.2,0.9
2022-05-27T13:00:00,1331A,114.3014,30.5944,武汉市,汉口江滩,,,114,62,59,35,148,43,43,39,136,56,13,7,1.4,0.9
2022-05-27T13:00:00,1333A,114.135,30.6319,武汉市,吴家山,颗粒物(PM10),78,105,59,34,27,168,91,60,54,45,25,8,7,0.8,0.8
2022-05-27T13:00:00,1334A,113.8454,30.2917,武汉市,沉湖七壕(对照点),颗粒物(PM10),58,66,46,18,22,147,117,84,84,8,10,6,6,0.8,0.8
2022-05-27T13:00:00,1335A,113.0833,28.2325,长沙市,经开区环保局,细颗粒物(PM2.5),55,43,31,39,35,90,71,63,55,13,18,3,3,0.6,0.6
2022-05-27T13:00:00,1336A,112.8872,28.2189,长沙市,高开区环保局,细颗粒物(PM2.5),58,40,28,41,30,106,54,66,62,29,18,6,7,0.3,0.2
2022-05-27T13:00:00,1337A,113.0792,28.2053,长沙市,马坡岭,细颗粒物(PM2.5),67,53,39,48,35,94,71,63,59,21,20,5,4,0.6,0.5
2022-05-27T13:00:00,1338A,112.9394,28.19,长沙市,湖南师范大学,细颗粒物(PM2.5),79,36,39,58,49,100,81,72,68,18,13,3,2,0.9,0.8
2022-05-27T13:00:00,1339A,113.0178,28.1322,长沙市,雨花区环保局,臭氧1小时,80,44,35,32,31,184,184,95,95,15,17,4,4,0.5,0.5
2022-05-27T13:00:00,1340A,112.9792,28.2597,长沙市,伍家岭,细颗粒物(PM2.5),58,43,40,41,29,88,50,66,46,31,21,7,7,0.6,0.4
2022-05-27T13:00:00,1341A,113.0014,28.1944,长沙市,火车新站,细颗粒物(PM2.5),68,52,42,49,44,98,62,77,58,30,17,6,5,0.5,0.4
2022-05-27T13:00:00,1342A,112.9844,28.1178,长沙市,天心区环保局,,,,36,29,37,87,43,48,35,15,12,4,4,0.7,0.5
2022-05-27T13:00:00,1343A,112.8908,28.1308,长沙市,湖南中医药大学,细颗粒物(PM2.5),53,49,39,37,27,74,43,52,41,28,18,2,3,0.8,0.7
2022-05-27T13:00:00,1344A,112.9581,28.3611,长沙市,沙坪(对照点),颗粒物(PM10),56,61,52,31,29,97,57,67,49,8,7,4,4,0.7,0.6
2022-05-27T13:00:00,1345A,113.2347,23.1423,广州市,广雅中学,,18,12,30,7,18,167,57,42,42,10,23,4,4,0.6,0.7
2022-05-27T13:00:00,1346A,113.2612,23.105,广州市,市五中,,16,15,27,8,16,170,51,42,42,14,23,4,5,0.6,0.6
2022-05-27T13:00:00,1348A,113.3478,23.0916,广州市,广东商学院,,18,18,27,7,13,130,52,34,34,15,30,4,4,0.6,0.7
2022-05-27T13:00:00,1349A,113.4332,23.1047,广州市,市八十六中,,19,19,26,9,13,80,40,25,25,23,39,6,7,0.4,0.4
2022-05-27T13:00:00,1350A,113.3505,22.9483,广州市,番禺中学,,14,13,23,7,11,106,43,37,37,14,20,8,9,0.5,0.5
2022-05-27T13:00:00,1351A,113.2146,23.3916,广州市,花都师范,,36,36,35,16,16,187,54,33,33,23,28,3,3,0.7,0.6
2022-05-27T13:00:00,1352A,113.2597,23.1331,广州市,市监测站,,18,17,32,9,14,171,56,43,43,10,23,5,6,0.6,0.6
2022-05-27T13:00:00,1353A,113.5618,23.312,广州市,九龙镇镇龙,,,29,38,16,16,90,38,23,23,,36,5,6,0.6,0.6
2022-05-27T13:00:00,1354A,113.2765,23.1544,广州市,麓湖,,19,16,29,9,15,171,58,42,42,8,22,3,4,0.7,0.7
2022-05-27T13:00:00,1355A,113.443,23.3035,广州市,帽峰山森林公园(对照点),颗粒物(PM10),65,80,27,17,14,154,59,33,33,19,27,4,5,0.7,0.6
2022-05-27T13:00:00,1356A,114.1063,22.5545,深圳市,通心岭子站,,15,15,16,10,9,68,26,29,27,27,17,3,3,0.6,0.5
2022-05-27T13:00:00,1357A,114.117,22.5625,深圳市,洪湖,,18,16,19,8,11,75,17,42,24,35,19,6,6,0.4,0.4
2022-05-27T13:00:00,1358A,113.987,22.5417,深圳市,华侨城,,19,12,17,7,8,57,20,29,25,37,25,3,4,0.8,0.7
2022-05-27T13:00:00,1359A,113.9181,22.5171,深圳市,南海子站,,24,24,17,16,10,70,38,51,41,47,24,3,3,0.7,0.6
2022-05-27T13:00:00,1360A,114.2458,22.5689,深圳市,盐田,,13,13,18,6,9,70,37,20,20,17,28,2,3,0.6,0.6
2022-05-27T13:00:00,1361A,114.2283,22.7244,深圳市,龙岗,,20,8,31,2,15,77,24,23,23,40,39,3,4,0.6,0.6
2022-05-27T13:00:00,1363A,114.494,22.5422,深圳市,南澳,,,9,14,4,6,89,43,45,34,,7,,5,0.9,0.7
2022-05-27T13:00:00,1364A,114.41,22.6342,深圳市,葵涌,,11,10,17,5,8,72,34,49,21,16,13,5,5,0.3,0.3
2022-05-27T13:00:00,1365A,114.297,22.5978,深圳市,梅沙,,17,11,18,4,8,93,20,38,27,34,13,5,5,0.4,0.3
2022-05-27T13:00:00,1366A,114.0678,22.738,深圳市,观澜,,,19,32,11,17,36,10,9,9,,36,5,5,0.5,0.5
2022-05-27T13:00:00,1367A,113.5814,22.2618,珠海市,吉大,,14,12,12,8,6,75,43,43,42,7,8,6,6,0.4,0.4
2022-05-27T13:00:00,1368A,113.4881,22.2335,珠海市,前山,,13,9,14,4,11,64,41,51,45,21,15,7,8,0.3,0.3
2022-05-27T13:00:00,1369A,113.628,22.4251,珠海市,唐家,,19,7,11,6,6,89,58,56,56,5,8,7,7,0.3,0.3
2022-05-27T13:00:00,1370A,113.299,22.2281,珠海市,斗门,,12,7,14,3,8,65,38,44,40,14,10,8,8,0.4,0.4
2022-05-27T13:00:00,1371A,113.1294,23.0067,佛山市,湾梁,,34,34,32,10,14,155,43,34,34,7,15,5,5,0.5,0.6
2022-05-27T13:00:00,1372A,113.1083,23.0478,佛山市,华材职中,,41,41,28,5,14,181,63,50,50,9,16,6,7,0.5,0.6
2022-05-27T13:00:00,1373A,113.144,23.0453,佛山市,南海气象局,,33,33,33,12,15,165,51,40,40,14,24,4,5,0.5,0.6
2022-05-27T13:00:00,1374A,113.2881,22.8094,佛山市,顺德苏岗,,18,18,20,9,13,97,37,30,30,22,24,4,5,0.8,0.8
2022-05-27T13:00:00,1376A,112.8383,22.8678,佛山市,高明孔堂,,18,5,23,5,12,134,56,37,37,5,9,5,5,0.4,0.4
2022-05-27T13:00:00,1377A,112.8836,23.1588,佛山市,三水监测站,,39,39,31,14,16,123,50,28,28,15,32,5,5,0.6,0.6
2022-05-27T13:00:00,1378A,112.867,23.185,佛山市,三水云东海,,,33,30,7,10,151,69,35,35,17,27,6,5,,0.4
2022-05-27T13:00:00,1379A,113.3769,22.5211,中山市,华柏园,,25,25,18,9,9,66,44,40,32,10,12,2,2,0.5,0.5
2022-05-27T13:00:00,1380A,113.3881,22.5497,中山市,张溪,,17,10,29,9,11,75,52,37,37,8,13,5,3,0.6,0.6
2022-05-27T13:00:00,1381A,113.4075,22.5111,中山市,紫马岭,,15,4,18,7,8,65,46,28,28,8,14,3,3,0.7,0.6
2022-05-27T13:00:00,1382A,113.4411,22.4853,中山市,长江旅游区(对照点),,16,2,13,6,7,61,50,32,32,4,8,3,3,0.4,0.5
2022-05-27T13:00:00,1383A,113.1064,22.6058,江门市,北街,,12,2,21,8,8,95,37,33,33,18,16,4,5,0.6,0.5
2022-05-27T13:00:00,1384A,113.0731,22.5835,江门市,西区,,14,14,21,9,11,104,34,35,35,23,17,5,5,0.6,0.5
2022-05-27T13:00:00,1385A,113.0219,22.5311,江门市,圭峰西,,15,6,21,10,11,93,39,31,31,14,14,4,4,0.4,0.4
2022-05-27T13:00:00,1386A,113.0828,22.5947,江门市,东湖,,15,15,20,4,9,109,36,35,35,20,15,5,6,0.6,0.5
2022-05-27T13:00:00,1389A,113.7547,23.0494,东莞市,莞城梨川,,20,16,23,10,11,139,64,45,40,17,23,7,7,0.6,0.6
2022-05-27T13:00:00,1390A,113.7944,23.0128,东莞市,东城石井,,20,20,26,11,12,141,57,31,29,21,24,6,6,0.6,0.5
2022-05-27T13:00:00,1391A,113.7383,22.9658,东莞市,南城西平,,19,15,19,11,9,107,59,46,34,16,21,3,3,0.6,0.5
2022-05-27T13:00:00,1392A,114.4183,23.0528,惠州市,河南岸金山湖子站,,28,28,22,7,13,90,45,35,35,8,12,2,3,0.5,0.6
2022-05-27T13:00:00,1393A,114.4053,23.0822,惠州市,下埔横江三路子站,,,30,19,,10,105,45,40,40,17,16,2,3,0.4,0.4
2022-05-27T13:00:00,1394A,114.4103,23.1142,惠州市,江北云山西路子站,,16,11,19,7,11,107,50,40,40,10,13,5,7,0.4,0.4
2022-05-27T13:00:00,1395A,114.4645,22.7833,惠州市,惠阳区承修路船湖子站,,,16,20,,8,63,29,38,24,16,12,3,3,0.7,0.6
2022-05-27T13:00:00,1396A,114.5317,22.7422,惠州市,大亚湾管委会子站,,15,2,24,10,9,78,29,60,27,30,20,6,6,0.4,0.3
2022-05-27T13:00:00,1397A,112.4267,23.0706,肇庆市,睦岗子站,,27,27,30,13,18,99,60,39,39,13,18,10,12,0.6,0.7
2022-05-27T13:00:00,1398A,112.4645,23.0475,肇庆市,城中子站,,17,14,32,8,18,94,54,34,34,13,18,9,15,0.5,0.5
2022-05-27T13:00:00,1399A,112.5544,23.1522,肇庆市,坑口子站,,,,27,,18,110,71,24,24,8,13,,6,0.6,0.6
2022-05-27T13:00:00,1400A,112.4753,23.1,肇庆市,七星岩子站(对照点),,21,19,27,13,15,102,66,40,40,4,12,12,17,0.7,0.7
2022-05-27T13:00:00,1401A,108.3103,22.7881,南宁市,二十一中,颗粒物(PM10),69,88,39,20,19,99,77,59,59,12,11,6,5,0.6,0.6
2022-05-27T13:00:00,1402A,108.3141,22.8528,南宁市,北湖,,,49,39,17,18,116,80,56,56,13,12,,4,0.7,0.7
2022-05-27T13:00:00,1403A,108.3206,22.8225,南宁市,市监测站,,46,46,36,19,20,103,78,53,53,16,16,8,7,0.8,0.8
2022-05-27T13:00:00,1404A,108.3829,22.8037,南宁市,大自然花园,,29,29,32,20,20,97,83,65,65,6,8,6,6,0.7,0.7
2022-05-27T13:00:00,1405A,108.4394,22.7904,南宁市,仙葫(对照点),,36,36,30,25,19,79,79,59,59,6,10,4,4,0.6,0.6
2022-05-27T13:00:00,1406A,108.2397,22.8467,南宁市,区农职院,,44,44,34,19,17,104,82,59,59,18,18,6,5,0.8,0.7
2022-05-27T13:00:00,1407A,108.3275,22.735,南宁市,英华嘉园,,43,43,37,18,17,71,70,50,50,17,16,5,5,0.6,0.6
2022-05-27T13:00:00,1408A,108.2257,22.7757,南宁市,沙井镇街道办,,30,30,35,17,18,65,63,38,38,10,19,5,5,0.7,0.7
2022-05-27T13:00:00,1409A,110.576,19.9507,海口市,东寨港(对照点),,26,26,15,12,7,30,26,15,15,2,4,6,4,0.3,0.3
2022-05-27T13:00:00,1410A,110.3232,20.0574,海口市,海南大学,,35,35,18,14,10,108,108,69,69,1,5,6,5,0.5,0.4
2022-05-27T13:00:00,1411A,110.283,20.0053,海口市,秀英海南医院,,27,27,22,15,10,97,67,50,50,3,14,4,3,0.3,0.3
2022-05-27T13:00:00,1412A,110.338,19.9969,海口市,海南师范大学,,27,27,18,9,7,82,56,34,34,2,6,1,2,0.4,0.4
2022-05-27T13:00:00,1413A,110.33,20.0356,海口市,龙华路环保局宿舍,,34,34,22,16,7,103,90,54,54,7,9,4,4,0.5,0.5
2022-05-27T13:00:00,1414A,106.3787,29.8279,重庆市,缙云山(对照点),,12,6,5,5,5,69,37,65,39,19,14,8,8,0.5,0.5
2022-05-27T13:00:00,1416A,106.4213,29.8253,重庆市,天生,,15,9,17,7,8,46,18,18,18,29,27,4,4,1.0,0.9
2022-05-27T13:00:00,1417A,106.6263,29.7228,重庆市,两路,,,14,7,9,6,56,26,32,25,,37,5,5,0.5,0.5
2022-05-27T13:00:00,1418A,106.2953,29.5983,重庆市,虎溪,,15,7,14,5,8,37,13,15,15,30,30,5,5,1.0,0.9
2022-05-27T13:00:00,1419A,106.5777,29.5102,重庆市,南坪,,11,8,19,7,10,60,18,18,9,22,27,4,4,0.6,0.5
2022-05-27T13:00:00,1420A,106.6556,29.6277,重庆市,唐家沱,,12,5,15,4,6,66,28,18,18,23,30,4,4,0.5,0.4
2022-05-27T13:00:00,1421A,106.6349,29.4906,重庆市,茶园,,17,6,16,4,9,48,16,15,13,34,42,6,6,0.5,0.5
2022-05-27T13:00:00,1422A,106.3754,29.4572,重庆市,白市驿,,21,21,17,8,9,50,22,13,12,27,31,5,4,1.1,1
2022-05-27T13:00:00,1425A,106.6205,29.7166,重庆市,空港,,12,6,10,4,8,61,37,38,31,17,20,5,5,0.7,0.6
2022-05-27T13:00:00,1426A,106.4782,29.4875,重庆市,新山村,,21,13,21,6,11,43,15,11,11,42,49,8,8,1.0,1
2022-05-27T13:00:00,1427A,106.5616,29.6453,重庆市,礼嘉,,24,4,9,4,7,53,18,22,14,48,50,5,5,0.7,0.6
2022-05-27T13:00:00,1428A,106.4522,29.7091,重庆市,蔡家,,13,5,8,6,6,44,22,24,18,26,23,5,5,0.5,0.5
2022-05-27T13:00:00,1429A,106.5093,29.3917,重庆市,鱼新街,,18,14,18,4,12,40,9,7,7,35,36,5,5,1.0,1
2022-05-27T13:00:00,1431A,103.9728,30.7236,成都市,金泉两河,,28,23,38,15,25,120,88,50,50,13,32,2,4,0.4,0.6
2022-05-27T13:00:00,1432A,104.1419,30.6764,成都市,十里店,,34,15,29,10,20,116,108,44,44,8,42,3,3,0.4,0.5
2022-05-27T13:00:00,1433A,104.0594,30.5767,成都市,三瓦窑,,32,21,38,12,19,127,102,39,39,7,47,2,3,0.4,0.6
2022-05-27T13:00:00,1434A,104.1122,30.6306,成都市,沙河铺,,32,22,38,9,17,118,102,41,41,15,42,1,2,0.3,0.5
2022-05-27T13:00:00,1437A,104.0431,30.6556,成都市,君平街,,34,25,45,17,28,125,106,57,57,14,47,2,4,0.3,0.5
2022-05-27T13:00:00,1438A,103.6202,31.0201,成都市,灵岩寺(对照点),细颗粒物(PM2.5),55,37,18,39,18,90,62,57,54,8,6,6,9,0.6,0.5
2022-05-27T13:00:00,1439A,106.6899,26.5998,贵阳市,马鞍山,,12,5,10,5,7,46,38,22,22,13,11,5,5,0.5,0.5
2022-05-27T13:00:00,1440A,106.6971,26.5694,贵阳市,市环保站,,10,5,9,5,6,56,31,28,21,17,22,1,2,0.5,0.5
2022-05-27T13:00:00,1441A,106.6243,26.6266,贵阳市,鉴湖路,,19,19,16,5,3,51,33,27,20,13,11,3,3,0.6,0.5
2022-05-27T13:00:00,1442A,106.7487,26.6343,贵阳市,燕子冲,,13,12,16,9,12,50,28,26,25,12,9,5,6,0.6,0.6
2022-05-27T13:00:00,1443A,106.6555,26.4365,贵阳市,碧云窝,,22,22,22,7,9,60,33,22,22,13,17,5,3,0.6,0.7
2022-05-27T13:00:00,1444A,106.694,26.5161,贵阳市,中院村,,27,27,19,2,6,57,29,25,22,18,19,2,3,0.6,0.6
2022-05-27T13:00:00,1445A,106.7109,26.6027,贵阳市,红边门,,17,17,13,7,10,67,35,28,23,17,12,8,4,0.7,0.4
2022-05-27T13:00:00,1446A,106.7164,26.5699,贵阳市,新华路,,10,0,7,5,7,57,30,29,25,11,12,4,4,0.5,0.5
2022-05-27T13:00:00,1447A,106.674,26.5424,贵阳市,太慈桥,,14,14,17,0,3,53,32,20,19,16,18,4,4,0.7,0.7
2022-05-27T13:00:00,1450A,102.8204,24.8886,昆明市,呈贡新区,,26,20,30,7,13,139,83,63,54,9,14,11,10,0.5,0.6
2022-05-27T13:00:00,1451A,102.6251,24.9608,昆明市,西山森林公园(对照点),,,15,18,19,13,143,74,62,47,,7,13,10,0.5,0.6
2022-05-27T13:00:00,1452A,102.7252,25.0902,昆明市,龙泉镇,颗粒物(PM10),62,73,28,22,16,116,51,44,22,21,17,10,9,0.8,0.6
2022-05-27T13:00:00,1453A,102.7266,25.0375,昆明市,东风东路,,34,34,26,14,13,122,68,56,29,24,23,8,6,0.7,0.6
2022-05-27T13:00:00,1454A,102.6742,25.0669,昆明市,金鼎山,,38,37,26,26,18,128,56,58,28,22,17,9,8,0.7,0.4
2022-05-27T13:00:00,1455A,102.6644,25.0401,昆明市,碧鸡广场,,30,30,25,19,16,133,68,66,37,22,18,12,9,0.7,0.6
2022-05-27T13:00:00,1456A,91.1319,29.6514,拉萨市,八廓街,,44,13,13,7,8,143,140,120,110,10,14,6,6,0.1,0.2
2022-05-27T13:00:00,1457A,91.1221,29.6747,拉萨市,市环保局,,45,10,11,2,4,141,141,117,112,8,12,4,4,0.2,0.2
2022-05-27T13:00:00,1458A,91.0874,29.6475,拉萨市,区监测站,,40,9,11,3,5,138,128,119,109,7,10,7,7,0.2,0.2
2022-05-27T13:00:00,1459A,91.1774,29.6541,拉萨市,西藏大学,,,,,5,4,141,141,112,107,9,10,8,8,0.2,0.2
2022-05-27T13:00:00,1460A,90.9798,29.6588,拉萨市,区辐射站,,41,9,10,5,6,142,130,120,114,10,11,8,8,0.3,0.3
2022-05-27T13:00:00,1461A,91.0834,29.6292,拉萨市,拉萨火车站,,41,14,14,4,5,134,130,123,107,6,8,7,7,0.2,0.2
2022-05-27T13:00:00,1462A,108.882,34.2749,西安市,高压开关厂,颗粒物(PM10),109,168,100,58,36,198,62,29,29,76,62,8,7,0.7,0.6
2022-05-27T13:00:00,1463A,108.993,34.2629,西安市,兴庆小区,颗粒物(PM10),86,121,85,52,37,178,88,40,40,61,47,8,6,0.7,0.8
2022-05-27T13:00:00,1464A,109.06,34.2572,西安市,纺织城,颗粒物(PM10),89,128,83,64,37,185,96,42,42,62,48,10,7,0.8,0.6
2022-05-27T13:00:00,1465A,108.9356,34.2173,西安市,小寨,颗粒物(PM10),90,129,67,46,26,173,35,54,28,84,42,3,2,0.8,0.5
2022-05-27T13:00:00,1466A,108.954,34.2713,西安市,市人民体育场,颗粒物(PM10),86,121,80,58,35,185,84,47,40,62,40,7,6,0.7,0.5
2022-05-27T13:00:00,1467A,108.8922,34.2322,西安市,高新西区,颗粒物(PM10),101,152,88,54,35,186,48,60,24,76,51,11,10,0.8,0.6
2022-05-27T13:00:00,1468A,108.935,34.3474,西安市,经开区,颗粒物(PM10),70,89,86,47,40,187,152,52,52,39,58,9,5,0.5,0.5
2022-05-27T13:00:00,1469A,108.906,34.1546,西安市,长安区,颗粒物(PM10),89,127,70,47,28,176,58,36,35,56,31,8,6,0.8,0.6
2022-05-27T13:00:00,1471A,109.2186,34.3731,西安市,临潼区,颗粒物(PM10),82,114,79,52,34,200,126,104,70,33,34,9,5,0.7,0.7
2022-05-27T13:00:00,1472A,108.869,34.378,西安市,草滩(对照点),细颗粒物(PM2.5),72,85,76,52,36,173,161,59,59,27,67,14,11,0.8,0.7
2022-05-27T13:00:00,1473A,108.985,34.1978,西安市,曲江文化产业集团,颗粒物(PM10),87,123,74,55,29,174,27,25,24,89,53,5,4,0.9,0.8
2022-05-27T13:00:00,1474A,109.051,34.3213,西安市,广运潭,"颗粒物(PM10),细颗粒物(PM2.5)",79,108,83,58,34,173,115,47,47,36,43,12,8,0.6,0.5
2022-05-27T13:00:00,1476A,103.631,36.1031,兰州市,兰炼宾馆,臭氧1小时,63,39,70,30,31,182,170,75,75,19,60,16,17,0.6,0.7
2022-05-27T13:00:00,1478A,103.8412,36.0726,兰州市,生物制品所,,46,41,68,21,28,155,145,45,45,28,62,9,10,0.8,1
2022-05-27T13:00:00,1479A,103.831,36.0464,兰州市,铁路设计院,,48,48,66,22,24,126,123,36,36,44,95,10,11,0.8,0.9
2022-05-27T13:00:00,1483A,101.524,36.6867,西宁市,第五水厂(对照点),臭氧1小时,59,34,37,13,14,170,167,107,107,12,14,15,10,0.8,0.6
2022-05-27T13:00:00,1484A,105.9512,38.6016,银川市,贺兰山马莲口(对照点),,48,44,35,16,16,180,151,120,120,21,10,18,15,0.6,0.5
2022-05-27T13:00:00,1488A,106.2328,38.4975,银川市,贺兰山东路,,45,34,35,12,11,155,144,72,72,29,33,11,13,0.6,0.6
2022-05-27T13:00:00,1489A,106.1358,38.5036,银川市,学院路,颗粒物(PM10),53,55,52,12,17,161,161,80,80,17,27,16,16,0.5,0.7
2022-05-27T13:00:00,1490A,87.5801,43.8303,乌鲁木齐市,监测站,细颗粒物(PM2.5),72,46,79,52,37,115,93,82,52,6,19,7,8,0.5,0.6
2022-05-27T13:00:00,1491A,87.6046,43.768,乌鲁木齐市,收费所,,37,37,79,8,40,119,93,81,44,4,16,8,7,0.2,0.3
2022-05-27T13:00:00,1492A,87.4754,43.9469,乌鲁木齐市,新疆农科院农场(对照点),,42,42,103,16,49,114,96,80,35,2,22,11,8,0.3,0.4
2022-05-27T13:00:00,1493A,87.5525,43.8711,乌鲁木齐市,铁路局,,46,46,78,20,40,117,95,82,54,6,18,6,7,0.4,0.5
2022-05-27T13:00:00,1494A,87.6432,43.831,乌鲁木齐市,三十一中学,,39,39,77,10,29,116,95,84,68,4,11,10,11,0.2,0.3
2022-05-27T13:00:00,1496A,87.7216,44.1747,乌鲁木齐市,米东区环保局,颗粒物(PM10),68,86,86,21,33,116,104,78,66,6,13,10,9,0.2,0.2
2022-05-27T13:00:00,1508A,112.9433,27.8614,湘潭市,板塘,,43,43,56,16,35,82,75,77,48,17,19,6,6,0.5,0.6
2022-05-27T13:00:00,1511A,112.9118,27.8403,湘潭市,市监测站,,44,44,37,26,36,80,54,65,38,28,21,7,7,0.7,0.7
2022-05-27T13:00:00,1512A,112.8937,27.8728,湘潭市,江麓,,36,36,48,16,32,88,85,70,54,16,15,4,6,0.7,0.7
2022-05-27T13:00:00,1513A,112.9227,27.8159,湘潭市,岳塘,颗粒物(PM10),54,57,52,26,31,81,56,73,46,28,22,8,8,0.6,0.6
2022-05-27T13:00:00,1514A,112.9074,27.9119,湘潭市,科大,,40,40,34,16,24,88,81,70,52,23,20,4,4,0.8,0.8
2022-05-27T13:00:00,1515A,113.135,27.8244,株洲市,天台山庄,,36,36,36,15,32,86,61,47,47,17,24,2,3,0.7,0.7
2022-05-27T13:00:00,1518A,113.095,27.8867,株洲市,株冶医院,,34,34,37,15,26,93,71,49,49,9,17,6,6,0.6,0.7
2022-05-27T13:00:00,1519A,113.167,27.8667,株洲市,市四中,,31,31,33,17,31,94,72,52,52,6,15,4,5,0.6,0.6
2022-05-27T13:00:00,1520A,113.143,27.8381,株洲市,火车站,,41,41,45,21,32,103,66,51,51,14,24,3,3,0.6,0.7
2022-05-27T13:00:00,1524A,113.13,27.8528,株洲市,市监测站,,41,41,46,16,44,90,70,50,50,14,22,4,8,0.5,0.5
2022-05-27T13:00:00,1552A,106.805,26.3003,贵阳市,桐木岭(对照点),,16,14,21,7,12,68,51,50,39,4,5,2,5,0.5,0.5
2022-05-27T13:00:00,1559A,113.251,27.8336,株洲市,大京风景区(对照点),,36,36,51,14,21,87,56,48,45,7,9,5,5,0.6,0.4
2022-05-27T13:00:00,1562A,113.0048,27.9153,湘潭市,昭山,,41,41,39,0,30,66,66,49,34,18,20,6,6,0.7,0.8
2022-05-27T13:00:00,1564A,112.4876,27.9164,湘潭市,韶山(对照点),,40,40,38,27,19,95,87,74,74,5,5,4,4,0.6,0.6
2022-05-27T13:00:00,1585A,109.8756,40.6532,包头市,市环境监测站,,44,43,33,9,12,138,138,71,71,13,32,14,10,0.6,0.6
2022-05-27T13:00:00,1587A,109.9991,40.5842,包头市,包头八中,,46,35,43,9,12,146,146,83,83,12,35,9,14,0.4,0.6
2022-05-27T13:00:00,1588A,109.8538,40.6821,包头市,青山宾馆,,46,46,42,10,11,132,132,66,66,20,36,20,13,0.8,0.5
2022-05-27T13:00:00,1589A,109.8642,40.6288,包头市,惠龙物流,,45,35,28,13,11,144,144,76,76,13,29,14,10,0.7,0.6
2022-05-27T13:00:00,1590A,110.0377,40.5546,包头市,东河鸿龙湾,,,30,49,9,14,141,141,62,62,,30,31,16,0.5,0.5
2022-05-27T13:00:00,1591A,110.0023,39.8129,鄂尔多斯市,综合楼,,48,48,51,12,8,145,145,96,96,14,30,8,10,0.6,0.6
2022-05-27T13:00:00,1592A,109.9486,39.8261,鄂尔多斯市,巴音孟克林场办事处,,46,41,43,7,10,148,147,112,112,7,21,7,10,0.5,0.5
2022-05-27T13:00:00,1593A,109.7736,39.5986,鄂尔多斯市,康泽苑,,47,39,38,7,7,151,148,91,91,8,16,5,5,0.5,0.6
2022-05-27T13:00:00,1594A,109.8119,39.5989,鄂尔多斯市,华泰汽车城,,48,41,38,12,14,153,153,82,82,5,27,8,7,0.5,0.5
2022-05-27T13:00:00,1595A,109.9734,39.7884,鄂尔多斯市,奥林花园,,,,51,,14,145,139,89,89,10,34,8,8,0.5,0.6
2022-05-27T13:00:00,1597A,122.2703,40.7094,营口市,大庆路,,36,8,11,8,6,115,115,86,86,7,8,6,5,0.5,0.5
2022-05-27T13:00:00,1598A,122.215,40.6511,营口市,镜湖西路,,38,14,13,1,3,119,119,90,90,7,12,3,4,0.3,0.4
2022-05-27T13:00:00,1600A,124.3303,40.0625,丹东市,江湾东路,,35,15,20,9,16,112,112,68,68,10,16,10,9,0.4,0.5
2022-05-27T13:00:00,1601A,124.4256,40.1503,丹东市,临江后街,,,,,10,12,114,114,69,69,8,13,13,12,1.2,1.2
2022-05-27T13:00:00,1602A,124.3933,40.1461,丹东市,元宝山,,35,16,15,12,13,109,109,65,65,10,12,13,11,0.7,0.7
2022-05-27T13:00:00,1603A,124.3633,40.1092,丹东市,民主桥,,34,16,17,9,11,107,107,65,65,5,13,12,11,0.9,1
2022-05-27T13:00:00,1604A,122.0303,41.1489,盘锦市,开发区,,37,19,24,23,29,117,117,72,72,13,26,5,9,0.5,0.6
2022-05-27T13:00:00,1605A,122.0485,41.0883,盘锦市,兴隆台,,36,22,25,11,14,115,115,77,77,14,29,5,5,0.5,0.6
2022-05-27T13:00:00,1606A,121.8297,41.1028,盘锦市,新生街道,,,,19,,12,108,108,71,71,12,31,5,34,0.6,0.6
2022-05-27T13:00:00,1607A,120.9092,40.7136,葫芦岛市,龙港区,,36,30,32,15,14,114,114,75,75,12,26,5,31,0.4,0.5
2022-05-27T13:00:00,1608A,120.8392,40.7514,葫芦岛市,化工街,颗粒物(PM10),73,95,46,49,26,121,120,76,76,19,40,15,15,0.4,0.6
2022-05-27T13:00:00,1609A,120.8341,40.7073,葫芦岛市,新区,,38,38,23,11,13,114,114,70,70,14,29,9,11,0.4,0.5
2022-05-27T13:00:00,1610A,120.8695,40.7677,葫芦岛市,东城区,颗粒物(PM10),79,108,44,24,18,122,122,61,61,21,46,58,20,0.3,0.4
2022-05-27T13:00:00,1611A,118.5819,24.9117,泉州市,涂山街,,32,31,16,16,8,130,102,102,90,15,11,7,7,0.5,0.4
2022-05-27T13:00:00,1612A,118.5972,24.8978,泉州市,津头埔,,32,30,18,15,9,126,100,93,79,18,15,4,3,0.3,0.4
2022-05-27T13:00:00,1613A,118.6663,24.9424,泉州市,万安,,34,27,17,16,11,109,108,100,87,13,12,7,6,0.5,0.4
2022-05-27T13:00:00,1614A,118.6117,24.9604,泉州市,清源山(对照点),,29,29,13,12,7,104,90,104,84,15,8,8,7,0.4,0.4
2022-05-27T13:00:00,1616A,117.6795,36.229,济南市,技术学院,,,,85,25,36,187,182,122,122,8,45,16,25,0.6,1.5
2022-05-27T13:00:00,1618A,118.3429,35.0532,临沂市,沂河小区,臭氧1小时,69,51,54,14,16,176,175,122,122,12,26,14,18,0.3,0.4
2022-05-27T13:00:00,1619A,118.295,35.0583,临沂市,鲁南制药厂,臭氧1小时,83,51,57,21,25,186,186,124,124,12,30,13,16,0.4,0.4
2022-05-27T13:00:00,1620A,118.2794,34.9976,临沂市,新光毛纺厂,臭氧1小时,74,51,59,17,30,179,179,116,116,4,22,14,15,0.4,0.5
2022-05-27T13:00:00,1621A,118.3956,35.0888,临沂市,河东保险公司,臭氧1小时,69,44,47,12,14,180,175,125,125,10,23,11,15,0.3,0.3
2022-05-27T13:00:00,1622A,116.3032,37.4674,德州市,儿童乐园,颗粒物(PM10),58,66,59,11,16,164,164,98,98,8,14,12,13,0.6,0.5
2022-05-27T13:00:00,1624A,116.2991,37.4451,德州市,监理站,颗粒物(PM10),58,66,57,26,23,155,155,92,92,7,15,20,18,0.5,0.4
2022-05-27T13:00:00,1625A,115.9848,36.4372,聊城市,区政府,臭氧1小时,100,68,64,24,18,200,200,116,116,9,24,19,20,0.6,0.5
2022-05-27T13:00:00,1628A,118.0062,37.3803,滨州市,市环保局,,,,62,,21,186,186,138,138,10,13,19,18,0.3,0.3
2022-05-27T13:00:00,1629A,118.0018,37.3617,滨州市,第二水厂,"颗粒物(PM10),臭氧1小时",60,70,73,17,20,168,168,128,128,11,20,13,13,0.5,0.4
2022-05-27T13:00:00,1630A,117.9776,37.393,滨州市,北中新校,臭氧1小时,70,68,58,27,26,176,176,131,131,13,17,24,24,0.7,0.6
2022-05-27T13:00:00,1631A,118.0414,36.8103,淄博市,人民公园,臭氧1小时,60,34,62,12,18,186,168,133,133,4,30,8,18,0.3,0.4
2022-05-27T13:00:00,1633A,117.8525,36.4847,淄博市,双山,臭氧1小时,82,46,39,20,19,185,185,140,140,7,12,15,17,0.6,0.4
2022-05-27T13:00:00,1634A,117.9592,36.6331,淄博市,气象站,,46,25,52,7,16,167,146,138,138,3,14,8,14,0.0,0.2
2022-05-27T13:00:00,1635A,118.3092,36.8194,淄博市,莆田园,臭氧1小时,97,58,70,22,23,197,197,154,154,12,25,15,17,0.5,0.9
2022-05-27T13:00:00,1637A,117.558,34.8438,枣庄市,市中区政府,臭氧1小时,80,56,75,24,21,184,184,127,127,8,34,8,30,0.3,0.4
2022-05-27T13:00:00,1638A,117.2852,34.7837,枣庄市,薛城环保局,臭氧1小时,65,54,65,22,24,172,172,111,111,14,46,11,14,0.7,0.8
2022-05-27T13:00:00,1639A,117.5852,34.7745,枣庄市,峄城区政府,臭氧1小时,52,29,65,7,16,165,161,116,116,11,35,13,17,0.4,0.5
2022-05-27T13:00:00,1640A,117.7276,34.5578,枣庄市,台儿庄区环保局,臭氧1小时,89,46,45,14,14,191,191,113,113,13,28,11,11,0.4,0.4
2022-05-27T13:00:00,1641A,117.4518,35.0992,枣庄市,山亭区环保局,臭氧1小时,80,51,48,39,22,184,184,127,127,13,22,12,13,0.5,0.6
2022-05-27T13:00:00,1642A,121.2514,37.5639,烟台市,开发区,臭氧1小时,102,92,63,29,20,203,203,119,119,,25,20,12,,0.5
2022-05-27T13:00:00,1643A,121.3719,37.5433,烟台市,轴承厂,臭氧1小时,101,80,56,37,23,201,201,138,138,21,23,19,12,0.8,0.6
2022-05-27T13:00:00,1644A,121.3181,37.5436,烟台市,西郊化工站,臭氧1小时,75,80,58,31,21,180,180,125,125,17,24,12,10,0.7,0.6
2022-05-27T13:00:00,1645A,121.4478,37.4822,烟台市,莱山环保局,臭氧1小时,77,75,53,31,19,181,181,130,126,30,19,19,12,0.6,0.4
2022-05-27T13:00:00,1646A,121.2611,37.4967,烟台市,福山环保局,,,83,67,29,21,187,187,119,119,16,18,14,13,,0.8
2022-05-27T13:00:00,1650A,119.1437,36.7023,潍坊市,环保局,臭氧1小时,79,48,56,13,20,187,183,133,133,9,25,10,10,0.6,0.7
2022-05-27T13:00:00,1655A,116.5491,35.4042,济宁市,电化厂,,,48,58,17,20,196,189,129,129,,35,11,9,0.7,0.7
2022-05-27T13:00:00,1656A,117.1437,36.1937,泰安市,监测站,臭氧1小时,94,59,57,18,22,195,195,127,127,9,22,12,13,0.4,0.3
2022-05-27T13:00:00,1657A,117.0885,36.2017,泰安市,人口学校,臭氧1小时,87,58,55,24,22,189,189,119,119,17,28,11,10,0.3,0.2
2022-05-27T13:00:00,1658A,117.1089,36.1758,泰安市,电力学校,臭氧1小时,87,68,67,17,19,189,189,111,111,9,41,10,11,0.6,0.5
2022-05-27T13:00:00,1659A,119.471,35.4209,日照市,监测站,颗粒物(PM10),58,66,59,16,18,164,164,100,100,8,37,13,17,0.2,0.5
2022-05-27T13:00:00,1660A,119.523,35.4216,日照市,市政府广场,臭氧1小时,72,75,52,16,19,177,177,117,117,12,27,11,14,0.5,0.6
2022-05-27T13:00:00,1661A,119.5587,35.4044,日照市,港务局,,,,72,27,18,173,173,115,115,36,34,14,11,0.7,0.7
2022-05-27T13:00:00,1662A,122.1214,37.4236,威海市,华夏技校,臭氧1小时,104,97,55,70,27,207,207,160,149,,15,,10,0.6,0.5
2022-05-27T13:00:00,1663A,122.0508,37.5236,威海市,山大分校,臭氧1小时,106,49,44,24,19,211,211,161,161,14,15,18,13,0.6,0.5
2022-05-27T13:00:00,1664A,122.1067,37.5072,威海市,市监测站,臭氧1小时,101,68,55,22,21,204,201,146,146,14,21,21,14,0.5,0.5
2022-05-27T13:00:00,1666A,118.6614,37.4309,东营市,市环保局,臭氧1小时,94,46,60,24,17,195,195,138,138,12,19,35,24,0.6,0.5
2022-05-27T13:00:00,1669A,113.5824,24.7733,韶关市,市八中,,20,19,19,9,17,143,63,63,63,8,10,8,8,0.6,0.6
2022-05-27T13:00:00,1671A,113.5917,24.7972,韶关市,园林处,,34,34,36,8,15,136,50,50,50,4,9,8,8,0.8,0.8
2022-05-27T13:00:00,1672A,113.6735,24.7791,韶关市,韶关学院,,16,13,17,3,10,143,50,52,52,8,14,9,10,0.5,0.5
2022-05-27T13:00:00,1673A,113.5971,24.6863,韶关市,曲江监测站,,22,22,24,10,12,127,53,47,47,9,18,7,8,0.6,0.7
2022-05-27T13:00:00,1674A,116.6794,23.3667,汕头市,金平子站,,,51,27,16,10,100,94,84,84,,7,8,8,0.6,0.6
2022-05-27T13:00:00,1675A,116.7244,23.3633,汕头市,龙湖子站,,33,26,18,11,8,104,104,86,86,8,10,7,6,0.5,0.5
2022-05-27T13:00:00,1676A,116.7258,23.2775,汕头市,濠江子站,,32,28,17,14,10,110,102,88,88,8,10,8,9,0.4,0.4
2022-05-27T13:00:00,1677A,116.7519,23.4714,汕头市,澄海子站,,47,47,20,9,10,105,94,82,82,13,12,5,5,0.6,0.6
2022-05-27T13:00:00,1678A,116.6092,23.2539,汕头市,潮阳子站,,33,30,19,10,9,105,105,87,87,9,9,7,7,0.5,0.5
2022-05-27T13:00:00,1680A,110.3539,21.2706,湛江市,湛江影剧院,,39,39,22,13,11,96,96,50,50,6,15,6,5,0.6,0.5
2022-05-27T13:00:00,1681A,110.3928,21.2228,湛江市,市环境监测站,,38,38,19,12,10,97,97,56,56,5,12,5,5,0.5,0.5
2022-05-27T13:00:00,1682A,110.4019,21.1997,湛江市,环保局宿舍,,29,29,18,15,11,91,86,54,51,8,12,4,5,0.5,0.5
2022-05-27T13:00:00,1683A,110.4111,21.2028,湛江市,霞山游泳场,,27,22,18,12,9,85,85,54,54,8,10,7,6,0.6,0.6
2022-05-27T13:00:00,1684A,110.3316,21.2679,湛江市,麻章区环保局,,30,19,24,13,13,95,95,49,49,7,17,5,5,0.5,0.6
2022-05-27T13:00:00,1685A,110.4558,21.2567,湛江市,坡头区环保局,,34,34,17,15,9,94,89,61,61,5,7,7,5,0.8,0.5
2022-05-27T13:00:00,1686A,111.0286,21.4688,茂名市,电白南海,,29,29,20,9,9,59,53,49,42,7,13,4,4,0.5,0.6
2022-05-27T13:00:00,1687A,110.9294,21.6533,茂名市,茂石化七小,,31,31,25,17,16,77,70,48,48,6,11,4,6,0.6,0.6
2022-05-27T13:00:00,1688A,110.9107,21.6687,茂名市,健康路,,27,27,15,11,5,73,61,45,45,4,9,5,6,0.6,0.7
2022-05-27T13:00:00,1689A,110.8592,21.6828,茂名市,高岭,,19,14,8,7,4,65,59,45,45,5,12,7,7,0.4,0.5
2022-05-27T13:00:00,1690A,116.1231,24.3284,梅州市,梅江月梅,,32,32,17,6,9,73,66,33,33,5,9,1,2,0.5,0.5
2022-05-27T13:00:00,1691A,116.0797,24.2719,梅州市,梅县新城,,19,17,17,8,9,68,60,30,25,10,16,5,5,0.5,0.5
2022-05-27T13:00:00,1692A,116.1248,24.2654,梅州市,环境监控中心,,20,20,16,12,8,68,58,25,25,9,15,4,5,0.5,0.5
2022-05-27T13:00:00,1693A,115.3653,22.775,汕尾市,市环保局,,17,5,14,4,5,78,54,54,49,7,5,4,4,0.5,0.5
2022-05-27T13:00:00,1694A,115.3706,22.7898,汕尾市,市政府,,18,9,12,7,8,84,56,56,52,7,6,5,5,0.5,0.5
2022-05-27T13:00:00,1695A,115.3622,22.7925,汕尾市,新城中学,,,,14,6,6,81,56,53,53,5,4,6,6,0.6,0.5
2022-05-27T13:00:00,1696A,114.6778,23.7569,河源市,源西(对照点),,38,38,20,10,8,97,82,53,53,5,10,4,4,0.5,0.5
2022-05-27T13:00:00,1697A,114.6944,23.7586,河源市,东埔,,26,26,21,10,9,98,77,49,49,9,13,3,4,0.7,0.7
2022-05-27T13:00:00,1698A,114.6892,23.7233,河源市,老城,,32,32,23,9,10,101,78,50,50,8,14,2,2,0.7,0.7
2022-05-27T13:00:00,1699A,111.9797,21.8593,阳江市,鸳鸯湖(对照点),,22,22,14,6,7,64,44,62,52,14,4,10,8,0.7,0.5
2022-05-27T13:00:00,1701A,111.9491,21.8658,阳江市,马南垌,,28,14,15,19,10,62,51,57,50,13,5,5,4,0.8,0.5
2022-05-27T13:00:00,1702A,113.0426,23.691,清远市,环保大楼(对照点),,23,19,25,16,16,153,70,71,29,7,13,2,3,0.4,0.4
2022-05-27T13:00:00,1703A,113.0208,23.7106,清远市,凤城街办,,30,30,28,21,18,152,91,62,34,11,14,5,5,0.7,0.7
2022-05-27T13:00:00,1705A,116.6367,23.6719,潮州市,西园路(对照点),,33,28,24,23,15,119,70,55,55,16,12,6,6,0.8,0.7
2022-05-27T13:00:00,1706A,116.6447,23.6706,潮州市,档案局,,31,31,21,17,11,132,73,56,56,20,14,10,10,0.7,0.6
2022-05-27T13:00:00,1708A,116.3701,23.5345,揭阳市,新兴,,45,45,42,16,16,104,83,64,64,16,12,10,7,1.1,0.8
2022-05-27T13:00:00,1709A,116.3264,23.5443,揭阳市,西马,,30,30,26,13,13,107,90,61,61,7,9,5,5,0.7,0.7
2022-05-27T13:00:00,1710A,116.3611,23.5626,揭阳市,东兴,,,46,35,14,14,106,79,60,60,12,10,,5,,0.8
2022-05-27T13:00:00,1711A,116.4151,23.5294,揭阳市,渔湖,,,48,27,19,14,107,81,63,63,,10,,7,1.5,0.7
2022-05-27T13:00:00,1714A,112.0539,22.9539,云浮市,牧羊,,39,39,32,21,13,62,60,31,31,11,12,8,9,0.4,0.4
2022-05-27T13:00:00,1715A,102.575,24.3711,玉溪市,东风水库,,21,8,21,6,9,98,66,43,43,9,13,10,9,0.6,0.7
2022-05-27T13:00:00,1718A,115.4208,35.2464,菏泽市,气象局,臭氧1小时,101,90,82,22,24,208,201,132,132,11,20,13,21,0.4,0.4
2022-05-27T13:00:00,1719A,115.4747,35.2375,菏泽市,市政协,臭氧1小时,93,89,69,28,20,194,194,130,130,10,17,12,21,0.2,0.3
2022-05-27T13:00:00,1721A,113.3819,40.1097,大同市,果树场(对照点),颗粒物(PM10),55,60,55,13,14,124,124,64,64,7,22,11,24,0.4,0.6
2022-05-27T13:00:00,1723A,113.2994,40.0758,大同市,云冈宾馆,,38,24,63,15,18,119,119,57,57,8,25,6,17,0.4,0.8
2022-05-27T13:00:00,1724A,113.3444,40.0917,大同市,大同大学,,39,39,65,4,11,123,123,71,71,7,31,7,35,0.2,0.5
2022-05-27T13:00:00,1725A,113.2661,40.1269,大同市,安家小村,,40,29,74,18,14,127,127,66,66,5,27,7,17,0.2,1.1
2022-05-27T13:00:00,1726A,113.2711,40.0844,大同市,教育学院,,37,35,58,14,11,117,117,63,63,11,23,9,21,0.3,0.5
2022-05-27T13:00:00,1727A,113.1147,36.1547,长治市,清华站,,39,36,53,7,23,144,123,66,66,12,38,9,12,0.2,0.6
2022-05-27T13:00:00,1728A,113.1031,36.1989,长治市,监测站,,42,29,53,9,22,151,134,86,86,7,28,9,11,0.4,0.8
2022-05-27T13:00:00,1730A,113.0886,36.2125,长治市,审计局,,41,22,42,9,21,151,131,79,79,8,38,19,25,0.3,0.7
2022-05-27T13:00:00,1731A,113.0844,36.1856,长治市,长治八中,,41,25,55,19,20,146,130,76,76,10,37,10,14,0.4,0.7
2022-05-27T13:00:00,1733A,111.5531,36.0783,临汾市,临钢医院,臭氧1小时,80,46,57,11,21,199,184,99,99,16,29,10,10,0.6,0.7
2022-05-27T13:00:00,1734A,111.5028,36.0714,临汾市,技工学校,臭氧1小时,83,66,53,24,29,186,186,101,101,18,29,12,13,1.6,1.2
2022-05-27T13:00:00,1736A,111.5018,36.0855,临汾市,市委,臭氧1小时,97,62,58,26,27,206,197,102,102,16,29,9,10,0.7,0.7
2022-05-27T13:00:00,1738A,113.5758,37.8572,阳泉市,市中心,,39,27,71,7,19,152,123,65,65,7,46,8,25,0.4,0.6
2022-05-27T13:00:00,1739A,113.4894,37.8731,阳泉市,赛鱼,,40,16,44,6,19,150,125,82,82,13,54,8,14,0.4,0.5
2022-05-27T13:00:00,1740A,113.5819,37.8486,阳泉市,南庄,,40,27,80,25,26,157,126,62,62,10,43,6,20,0.4,0.6
2022-05-27T13:00:00,1742A,113.5614,37.8703,阳泉市,平坦,,38,28,54,5,14,155,121,78,78,9,48,8,15,0.5,0.6
2022-05-27T13:00:00,1743A,113.5158,37.8392,阳泉市,大阳泉,,37,19,30,7,18,150,118,96,86,9,21,10,14,0.4,0.4
2022-05-27T13:00:00,1744A,118.9233,42.2816,赤峰市,松山一中,,34,17,37,2,11,107,107,70,70,10,33,7,14,0.5,0.8
2022-05-27T13:00:00,1745A,118.9576,42.2728,赤峰市,哈达街,,,12,31,8,8,105,105,53,53,,36,12,20,0.5,0.7
2022-05-27T13:00:00,1746A,118.8788,42.2554,赤峰市,天义路,,32,12,22,3,6,102,102,76,76,14,26,7,11,0.3,0.5
2022-05-27T13:00:00,1748A,123.044,41.1196,鞍山市,深沟寺,,31,31,39,20,26,98,98,62,62,21,28,16,14,1.0,1.3
2022-05-27T13:00:00,1750A,123.0485,41.1442,鞍山市,太平,,32,32,44,18,30,98,98,60,60,21,27,17,18,1.1,1.3
2022-05-27T13:00:00,1751A,122.9642,41.0971,鞍山市,铁西三道街,,33,32,53,16,34,105,105,60,60,18,28,14,12,0.9,1.3
2022-05-27T13:00:00,1752A,122.9341,41.0833,鞍山市,铁西工业园区,,35,30,46,15,34,111,111,62,62,15,27,16,13,0.6,1
2022-05-27T13:00:00,1753A,123.022,41.0821,鞍山市,明达新区,,36,36,41,21,28,99,99,62,62,21,27,14,10,0.9,1.2
2022-05-27T13:00:00,1754A,123.1289,41.0228,鞍山市,千山(对照点),,30,19,23,15,13,96,96,63,63,12,13,8,3,0.8,0.9
2022-05-27T13:00:00,1755A,123.7977,41.8491,抚顺市,望花区,颗粒物(PM10),52,54,26,35,18,120,120,57,57,20,24,9,8,0.8,0.7
2022-05-27T13:00:00,1756A,123.9161,41.8822,抚顺市,顺城区,细颗粒物(PM2.5),59,61,34,42,23,99,99,50,50,27,23,13,9,0.8,0.6
2022-05-27T13:00:00,1757A,124.0436,41.8611,抚顺市,东洲区,颗粒物(PM10),53,56,28,35,20,122,122,66,66,19,19,11,9,1.0,0.8
2022-05-27T13:00:00,1758A,123.9247,41.8642,抚顺市,新抚区,颗粒物(PM10),59,68,26,26,12,114,114,61,61,21,20,13,6,0.6,0.6
2022-05-27T13:00:00,1759A,124.0972,41.8961,抚顺市,大伙房水库,颗粒物(PM10),54,57,30,33,18,133,133,70,70,15,15,12,8,0.8,0.6
2022-05-27T13:00:00,1761A,123.8275,41.3064,本溪市,大峪,,41,41,39,20,21,126,126,62,62,18,31,15,17,1.1,1.5
2022-05-27T13:00:00,1762A,123.7567,41.3325,本溪市,溪湖,,40,27,24,17,17,126,126,69,69,12,14,14,8,1.0,0.9
2022-05-27T13:00:00,1763A,123.7169,41.3094,本溪市,彩屯,,42,26,26,14,17,132,132,71,71,15,18,16,15,0.9,0.9
2022-05-27T13:00:00,1764A,123.7669,41.2864,本溪市,东明,,42,42,35,17,17,123,123,62,62,22,31,24,22,1.2,1.5
2022-05-27T13:00:00,1765A,123.7992,41.2664,本溪市,新立屯,,36,33,32,22,19,114,114,54,54,20,22,19,16,1.6,1.3
2022-05-27T13:00:00,1766A,123.8142,41.3472,本溪市,威宁,,40,40,29,22,19,101,101,49,49,16,19,15,12,1.0,0.8
2022-05-27T13:00:00,1767A,121.1115,41.0879,锦州市,南山,颗粒物(PM10),53,56,31,22,23,106,106,70,70,18,18,18,19,0.7,0.8
2022-05-27T13:00:00,1768A,121.0533,40.8434,锦州市,开发区,,43,43,48,30,23,96,96,49,49,20,40,18,17,0.6,0.9
2022-05-27T13:00:00,1769A,121.1836,41.1119,锦州市,百股街道,,47,47,32,30,21,122,122,70,70,21,21,15,12,0.6,0.6
2022-05-27T13:00:00,1770A,121.1178,41.1222,锦州市,天安街道,颗粒物(PM10),62,74,38,24,20,120,120,77,77,26,22,16,13,0.7,0.6
2022-05-27T13:00:00,1771A,121.1303,41.1386,锦州市,北湖公园,颗粒物(PM10),51,51,32,28,18,122,122,73,73,24,22,18,14,0.6,0.5
2022-05-27T13:00:00,1772A,126.54,43.8622,吉林市,哈达湾,,29,10,21,4,11,90,90,66,66,5,12,3,5,0.5,0.6
2022-05-27T13:00:00,1773A,126.5844,43.8358,吉林市,东局子,,28,11,20,6,12,87,87,62,62,10,14,5,5,0.6,0.6
2022-05-27T13:00:00,1774A,126.5052,43.8245,吉林市,电力学院,,32,9,19,5,13,101,101,69,69,6,14,10,10,0.6,0.6
2022-05-27T13:00:00,1775A,126.6133,43.8972,吉林市,江北,,29,11,22,5,16,92,92,66,66,7,12,8,9,0.5,0.6
2022-05-27T13:00:00,1776A,126.555,43.8306,吉林市,江南公园,,29,9,17,6,12,91,91,64,64,6,11,4,5,0.5,0.5
2022-05-27T13:00:00,1778A,126.7061,43.7133,吉林市,丰满(对照点),,25,8,8,7,6,80,80,61,61,5,5,4,4,0.5,0.5
2022-05-27T13:00:00,1779A,123.9305,47.3636,齐齐哈尔市,安居小区,,37,34,53,13,20,116,116,71,71,12,38,4,4,0.7,0.8
2022-05-27T13:00:00,1780A,123.9488,47.3386,齐齐哈尔市,中心广场,,37,29,41,16,15,118,118,81,81,12,32,5,5,0.4,0.6
2022-05-27T13:00:00,1781A,123.9483,47.3227,齐齐哈尔市,农牧车辆厂,,,29,43,25,14,118,118,70,70,7,27,,4,0.2,0.4
2022-05-27T13:00:00,1783A,123.945,47.2988,齐齐哈尔市,市环境监测站,,40,31,41,22,21,126,126,82,82,7,27,4,4,0.5,0.6
2022-05-27T13:00:00,1784A,129.61,44.561,牡丹江市,环保大楼,,29,13,22,7,9,109,92,63,63,6,11,3,4,0.4,0.5
2022-05-27T13:00:00,1785A,129.6115,44.5782,牡丹江市,文化广场,,29,15,21,5,16,102,90,57,57,8,14,2,4,0.3,0.4
2022-05-27T13:00:00,1786A,129.5904,44.5963,牡丹江市,第一医院,,26,12,16,4,14,98,83,54,54,5,10,2,3,0.5,0.6
2022-05-27T13:00:00,1787A,129.6364,44.6075,牡丹江市,机车工厂,,,,17,,7,104,94,60,60,,11,9,9,0.2,0.4
2022-05-27T13:00:00,1788A,129.6386,44.5462,牡丹江市,第一中学,,30,12,13,6,8,108,96,66,66,6,11,2,2,0.4,0.4
2022-05-27T13:00:00,1789A,124.81117,46.03138,大庆市,大同区,,37,24,20,14,12,116,116,73,73,7,13,5,5,0.4,0.4
2022-05-27T13:00:00,1790A,125.129,46.533,大庆市,龙凤区,,,,17,,9,117,117,76,76,12,17,7,3,,0.3
2022-05-27T13:00:00,1791A,124.902,46.408,大庆市,红岗区,,39,15,17,9,10,123,123,85,85,5,11,5,5,0.4,0.5
2022-05-27T13:00:00,1792A,125.153,46.586,大庆市,萨尔图区,,,33,20,16,11,115,115,75,74,,10,6,5,0.3,0.4
2022-05-27T13:00:00,1793A,124.9042,46.6215,大庆市,让胡路区,,43,24,24,18,19,135,135,90,90,8,22,12,12,0.4,0.5
2022-05-27T13:00:00,1794A,118.3606,31.3519,芜湖市,监测站,臭氧1小时,90,59,74,28,42,192,192,95,95,19,51,8,13,0.7,1
2022-05-27T13:00:00,1795A,118.3714,31.4134,芜湖市,科创中心,臭氧1小时,108,52,69,38,46,216,216,106,106,16,44,9,12,1.0,1.2
2022-05-27T13:00:00,1796A,118.3673,31.3131,芜湖市,四水厂,,,,61,,46,196,196,118,118,20,42,7,10,0.7,1.1
2022-05-27T13:00:00,1798A,118.5092,31.6837,马鞍山市,湖东路四小,臭氧1小时,83,103,67,55,55,186,186,96,96,43,35,29,11,1.9,1
2022-05-27T13:00:00,1799A,118.5024,31.6449,马鞍山市,开发区,臭氧1小时,105,72,74,43,40,210,210,93,93,22,41,14,17,,1.4
2022-05-27T13:00:00,1800A,118.5228,31.7231,马鞍山市,慈湖,臭氧1小时,90,81,102,40,54,192,192,92,92,34,48,33,13,1.6,1.1
2022-05-27T13:00:00,1802A,118.6245,31.7241,马鞍山市,濮塘(对照点),臭氧1小时,70,56,62,29,36,176,176,93,93,4,14,11,10,0.7,0.9
2022-05-27T13:00:00,1803A,115.9872,29.6815,九江市,十里,细颗粒物(PM2.5),52,2,43,36,30,168,54,76,71,28,30,50,8,0.9,0.8
2022-05-27T13:00:00,1804A,115.9584,29.7046,九江市,茅山头,细颗粒物(PM2.5),59,58,42,42,33,167,165,84,84,22,21,5,5,0.7,0.7
2022-05-27T13:00:00,1805A,115.9877,29.7295,九江市,西园,颗粒物(PM10),57,64,48,36,30,167,150,77,64,32,36,17,8,0.7,0.6
2022-05-27T13:00:00,1806A,116.0172,29.6547,九江市,五七二七厂,颗粒物(PM10),69,88,42,32,23,152,148,89,89,11,5,7,6,0.7,0.5
2022-05-27T13:00:00,1808A,115.9114,29.6038,九江市,综合工业园,颗粒物(PM10),55,59,47,36,27,154,147,61,61,13,26,10,7,0.6,0.8
2022-05-27T13:00:00,1809A,116.0721,29.7535,九江市,石化总厂,,50,50,49,22,25,147,147,86,86,11,21,22,14,0.8,0.5
2022-05-27T13:00:00,1810A,115.9773,29.5698,九江市,庐山气象台(对照点),细颗粒物(PM2.5),58,51,40,41,35,168,136,150,135,12,9,9,9,0.6,0.4
2022-05-27T13:00:00,1812A,112.3931,34.6516,洛阳市,市委党校,臭氧1小时,95,65,68,30,23,196,196,117,117,9,22,14,12,0.7,0.6
2022-05-27T13:00:00,1814A,112.4657,34.6871,洛阳市,豫西宾馆,臭氧1小时,100,78,70,32,26,200,200,111,111,11,25,8,7,0.6,0.5
2022-05-27T13:00:00,1815A,112.494,34.6886,洛阳市,河南林校,,,,61,,23,194,194,111,111,,27,7,10,0.5,0.3
2022-05-27T13:00:00,1816A,112.3844,34.623,洛阳市,开发区管委会,,,59,58,,28,199,199,117,117,12,25,10,8,0.4,0.3
2022-05-27T13:00:00,1817A,112.4267,34.6258,洛阳市,市委新办公区,臭氧1小时,101,66,60,31,23,202,202,112,112,12,23,12,11,0.5,0.4
2022-05-27T13:00:00,1818A,114.4839,36.0621,安阳市,棉研所(对照点),臭氧1小时,70,61,65,24,19,176,176,86,86,10,38,10,12,0.5,0.5
2022-05-27T13:00:00,1819A,114.3551,36.1017,安阳市,红庙街,颗粒物(PM10),55,60,60,8,13,150,150,99,99,12,22,9,11,0.3,0.5
2022-05-27T13:00:00,1820A,114.361,36.0681,安阳市,银杏小区,臭氧1小时,60,46,57,18,19,168,168,122,122,11,22,8,10,0.4,0.5
2022-05-27T13:00:00,1824A,114.3389,34.7781,开封市,肿瘤医院,臭氧1小时,92,95,74,32,28,193,193,112,112,13,20,14,14,0.7,0.6
2022-05-27T13:00:00,1826A,114.2885,34.7965,开封市,世纪星幼儿园,臭氧1小时,108,101,77,39,33,216,216,123,123,16,22,16,12,0.6,0.5
2022-05-27T13:00:00,1828A,113.2269,35.2127,焦作市,市环保局,臭氧1小时,95,40,53,27,25,196,196,128,114,12,23,9,7,0.5,0.5
2022-05-27T13:00:00,1829A,113.2467,35.176,焦作市,高新区政府,臭氧1小时,87,58,66,24,24,189,189,116,94,21,31,12,10,0.5,0.5
2022-05-27T13:00:00,1830A,113.1987,35.2703,焦作市,影视城(对照点),臭氧1小时,73,42,41,13,19,192,178,158,134,10,14,13,13,0.5,0.6
2022-05-27T13:00:00,1832A,113.3257,33.742,平顶山市,新华旅馆,臭氧1小时,68,75,90,37,29,178,174,120,80,16,35,18,12,0.3,0.2
2022-05-27T13:00:00,1833A,113.2919,33.737,平顶山市,规划设计院,细颗粒物(PM2.5),85,85,73,63,23,171,165,118,90,18,27,18,12,0.6,0.4
2022-05-27T13:00:00,1834A,113.182,33.774,平顶山市,平顶山工学院,颗粒物(PM10),62,74,77,34,28,189,155,116,86,13,18,14,12,0.5,0.5
2022-05-27T13:00:00,1835A,111.1922,34.7752,三门峡市,市政府,臭氧1小时,74,44,66,24,35,179,179,112,112,6,22,9,10,0.6,0.6
2022-05-27T13:00:00,1836A,111.1587,34.7942,三门峡市,开发区,,,78,69,26,31,168,168,90,90,3,12,5,6,,0.6
2022-05-27T13:00:00,1838A,111.143,34.7955,三门峡市,风景区(对照点),臭氧1小时,70,79,68,23,33,176,176,98,98,5,11,6,6,0.6,0.6
2022-05-27T13:00:00,1840A,111.2992,30.6981,宜昌市,白龙岗,,48,48,36,27,19,103,17,12,12,25,25,7,7,0.5,0.5
2022-05-27T13:00:00,1841A,111.3549,30.6465,宜昌市,伍家岗,,45,45,37,27,19,88,27,15,15,28,27,5,5,0.5,0.4
2022-05-27T13:00:00,1842A,111.2628,30.6961,宜昌市,点军区,,47,47,44,29,21,111,54,18,18,16,20,5,6,0.4,0.4
2022-05-27T13:00:00,1843A,111.3275,30.7819,宜昌市,夷陵区,,43,43,41,27,18,108,57,25,24,22,20,6,6,0.4,0.4
2022-05-27T13:00:00,1844A,112.2494,30.3197,荆州市,市图书馆,颗粒物(PM10),75,100,63,47,31,154,62,66,28,34,40,8,10,0.8,0.7
2022-05-27T13:00:00,1845A,112.2008,30.3544,荆州市,市委党校,颗粒物(PM10),65,80,62,41,31,139,67,87,45,21,20,12,13,0.7,0.7
2022-05-27T13:00:00,1847A,113.1094,29.3578,岳阳市,南湖风景区,颗粒物(PM10),69,88,61,33,31,129,99,95,64,23,22,14,9,0.7,0.7
2022-05-27T13:00:00,1848A,113.1493,29.4251,岳阳市,城陵矶,颗粒物(PM10),56,62,55,36,32,110,78,47,47,28,51,9,8,0.5,0.6
2022-05-27T13:00:00,1849A,113.1497,29.3575,岳阳市,开发区,颗粒物(PM10),69,88,66,39,33,129,87,99,51,31,28,15,10,0.9,0.7
2022-05-27T13:00:00,1850A,113.2621,29.4758,岳阳市,云溪区,颗粒物(PM10),65,80,70,46,33,117,89,63,63,30,25,13,11,0.9,0.9
2022-05-27T13:00:00,1851A,112.9943,29.4402,岳阳市,君山区,,,59,54,37,33,125,82,76,76,,19,7,7,,0.7
2022-05-27T13:00:00,1852A,113.2117,29.355,岳阳市,金凤水库(对照点),"颗粒物(PM10),细颗粒物(PM2.5)",68,85,57,49,39,73,66,60,60,33,14,14,12,0.6,0.5
2022-05-27T13:00:00,1854A,111.6975,28.9703,常德市,市二中,,50,50,33,28,24,104,28,50,23,17,12,8,8,0.7,0.6
2022-05-27T13:00:00,1857A,111.7158,29.1456,常德市,白鹤山(对照点),,50,42,34,35,29,102,61,63,40,2,4,6,5,0.5,0.4
2022-05-27T13:00:00,1858A,110.5319,29.1217,张家界市,永定新区,,38,28,25,26,16,111,87,28,28,16,11,2,1,0.8,0.7
2022-05-27T13:00:00,1859A,110.4697,29.1242,张家界市,电业局,,33,25,16,23,12,116,97,33,33,17,10,2,1,0.3,0.2
2022-05-27T13:00:00,1860A,110.5594,29.3547,张家界市,未央路,,34,7,18,18,13,109,108,36,36,5,5,2,2,0.3,0.3
2022-05-27T13:00:00,1861A,110.4417,29.315,张家界市,袁家界(对照点),,,14,18,,0,137,104,101,101,5,5,7,7,0.2,0.1
2022-05-27T13:00:00,1862A,110.4144,25.3167,桂林市,电子科大尧山校区(对照点),,25,17,16,11,11,90,78,87,76,4,4,6,6,0.7,0.6
2022-05-27T13:00:00,1863A,110.2819,25.2697,桂林市,监测站,,49,2,21,34,22,92,73,90,75,9,8,3,3,0.7,0.6
2022-05-27T13:00:00,1864A,110.3089,25.2708,桂林市,龙隐路小学,,24,20,15,14,12,90,75,88,72,8,7,8,9,0.7,0.6
2022-05-27T13:00:00,1865A,110.2869,25.2178,桂林市,八中,,25,19,18,9,9,92,79,89,69,9,10,6,7,0.7,0.6
2022-05-27T13:00:00,1866A,109.2262,21.588,北海市,牛尾岭水库(对照点),,32,32,27,14,16,84,84,47,46,4,10,6,5,0.2,0.3
2022-05-27T13:00:00,1867A,109.1436,21.4086,北海市,海滩公园,,31,29,26,20,10,99,99,79,70,3,3,5,4,0.6,0.6
2022-05-27T13:00:00,1868A,109.0981,21.4661,北海市,新市环保局,,28,24,20,17,16,89,89,83,65,2,3,4,3,0.5,0.6
2022-05-27T13:00:00,1869A,109.1778,21.5233,北海市,北海工业园,,42,42,32,15,16,92,92,67,53,3,7,5,5,0.6,0.4
2022-05-27T13:00:00,1870A,109.4856,24.3895,柳州市,柳东小学,,23,13,14,16,11,103,49,72,65,5,5,8,4,0.7,0.7
2022-05-27T13:00:00,1871A,109.4157,24.3277,柳州市,环保监测站,,24,24,10,15,11,90,23,58,46,25,11,4,4,1.0,0.8
2022-05-27T13:00:00,1872A,109.389,24.341,柳州市,河西水厂,,16,16,15,11,11,94,30,54,41,12,12,5,5,1.1,0.9
2022-05-27T13:00:00,1873A,109.4311,24.2921,柳州市,市四中,,24,24,18,9,15,123,38,58,52,20,9,6,5,1.2,1
2022-05-27T13:00:00,1874A,109.4006,24.3631,柳州市,市九中,,32,18,13,22,10,80,30,56,42,16,10,7,5,0.6,0.8
2022-05-27T13:00:00,1875A,109.4958,24.3134,柳州市,古亭山,,15,15,12,2,9,94,40,65,59,10,7,3,3,0.6,0.5
2022-05-27T13:00:00,1876A,109.5078,18.2489,三亚市,河东子站,,,26,19,,10,80,80,53,53,,5,3,2,,0.5
2022-05-27T13:00:00,1877A,109.4964,18.2681,三亚市,河西子站,,25,15,20,10,10,79,79,53,53,2,5,2,2,0.3,0.3
2022-05-27T13:00:00,1878A,104.7778,31.4741,绵阳市,富乐山,,38,29,28,8,18,120,120,73,73,8,20,4,4,0.3,0.4
2022-05-27T13:00:00,1879A,104.7563,31.4535,绵阳市,市人大,,35,12,36,18,20,110,110,72,72,15,34,8,7,0.4,0.6
2022-05-27T13:00:00,1880A,104.6697,31.4668,绵阳市,高新区自来水公司,,40,14,42,10,22,127,127,72,72,6,31,4,6,0.5,0.7
2022-05-27T13:00:00,1881A,104.7287,31.5075,绵阳市,三水厂,,40,20,43,15,25,125,125,70,70,7,33,8,8,0.3,0.6
2022-05-27T13:00:00,1882A,104.563,28.793,宜宾市,石马中学(对照点),,26,24,33,18,22,80,71,53,50,5,14,6,7,0.6,0.7
2022-05-27T13:00:00,1883A,104.6201,28.7728,宜宾市,市委,,42,35,40,29,27,71,55,34,34,19,26,6,7,0.7,0.8
2022-05-27T13:00:00,1884A,104.6055,28.793,宜宾市,宜宾四中,,40,37,40,28,30,73,60,40,40,17,28,5,6,0.5,0.6
2022-05-27T13:00:00,1885A,104.639,28.7562,宜宾市,市政府,,45,38,36,31,29,83,66,43,43,16,31,5,5,0.7,0.8
2022-05-27T13:00:00,1886A,104.5742,28.7199,宜宾市,黄金嘴,,25,22,32,17,25,75,73,46,46,6,18,6,6,0.5,0.7
2022-05-27T13:00:00,1888A,101.6891,26.571,攀枝花市,弄弄坪,颗粒物(PM10),64,77,28,17,18,103,94,59,45,12,14,10,6,1.1,1.3
2022-05-27T13:00:00,1889A,101.5769,26.5928,攀枝花市,河门口,颗粒物(PM10),55,60,31,38,20,106,62,48,30,46,22,3,6,4.2,1.5
2022-05-27T13:00:00,1890A,101.7169,26.585,攀枝花市,炳草岗,,39,31,33,27,23,94,86,42,42,12,23,19,18,0.9,1.2
2022-05-27T13:00:00,1891A,101.7369,26.5008,攀枝花市,仁和,,50,50,44,34,27,114,97,55,55,17,42,12,29,1.0,2.6
2022-05-27T13:00:00,1893A,105.4324,28.9634,泸州市,九狮山(对照点),,16,16,15,7,9,51,51,29,29,8,13,5,6,0.4,0.6
2022-05-27T13:00:00,1894A,105.4427,28.9063,泸州市,小市上码头,,27,27,29,13,14,45,42,23,23,13,22,5,9,0.6,0.6
2022-05-27T13:00:00,1895A,105.4241,28.8573,泸州市,兰田宪桥,,24,24,29,16,11,46,46,16,16,8,17,10,14,0.5,0.6
2022-05-27T13:00:00,1896A,105.4379,28.8833,泸州市,市环监站,,21,21,28,8,9,48,42,27,27,16,22,16,10,0.5,0.5
2022-05-27T13:00:00,1901A,104.4239,31.1208,德阳市,东山公园,,34,28,37,8,18,107,107,66,66,7,17,5,6,0.3,0.4
2022-05-27T13:00:00,1902A,104.3826,31.1317,德阳市,西小区,,38,38,47,14,19,110,110,69,69,8,27,6,9,0.4,0.6
2022-05-27T13:00:00,1904A,104.3553,31.1091,德阳市,耐火材料厂,,35,29,49,10,20,112,112,58,58,11,37,6,8,0.4,0.6
2022-05-27T13:00:00,1905A,106.056,30.8064,南充市,西山风景区(对照点),,32,16,17,22,24,93,80,68,68,12,11,3,4,0.5,0.4
2022-05-27T13:00:00,1906A,106.0789,30.8023,南充市,南充市委,,28,20,24,2,11,88,88,77,77,8,10,6,5,0.6,0.5
2022-05-27T13:00:00,1907A,106.1031,30.8217,南充市,南充炼油厂,,25,17,22,8,9,84,80,68,68,8,8,1,2,0.5,0.5
2022-05-27T13:00:00,1908A,106.1064,30.7856,南充市,高坪区监测站,,25,8,17,5,12,81,77,67,67,6,10,4,4,0.5,0.5
2022-05-27T13:00:00,1909A,106.0642,30.7636,南充市,嘉陵区环保局,,26,9,15,7,13,82,82,68,68,8,12,3,5,0.5,0.5
2022-05-27T13:00:00,1910A,106.1087,30.8388,南充市,市环境监测站,,27,12,21,17,15,86,86,73,73,5,10,3,5,0.4,0.4
2022-05-27T13:00:00,1911A,106.9222,27.6869,遵义市,丁字口,,23,23,20,12,14,76,60,66,54,12,13,6,6,0.6,0.8
2022-05-27T13:00:00,1912A,106.9242,27.7019,遵义市,凤凰山,,18,12,8,7,9,71,56,67,55,9,8,5,5,0.5,0.6
2022-05-27T13:00:00,1913A,106.8906,27.6486,遵义市,忠庄,,22,22,17,7,10,62,57,57,55,17,12,1,2,0.7,0.6
2022-05-27T13:00:00,1914A,106.9231,27.6506,遵义市,舟水桥,,20,13,8,9,6,62,62,56,56,7,9,1,1,0.3,0.4
2022-05-27T13:00:00,1915A,106.9178,27.72,遵义市,干田坝,,32,32,14,17,9,69,62,64,49,11,10,5,5,0.8,0.8
2022-05-27T13:00:00,1916A,103.7897,25.5035,曲靖市,环境监测站,细颗粒物(PM2.5),57,19,18,40,14,116,45,62,41,18,15,8,7,1.1,0.8
2022-05-27T13:00:00,1917A,103.8,25.5364,曲靖市,烟厂办公区,,33,33,16,8,7,127,64,64,50,12,11,5,5,1.0,0.8
2022-05-27T13:00:00,1918A,108.7197,34.3956,咸阳市,气象站(对照点),颗粒物(PM10),91,131,101,44,36,163,147,56,56,27,53,11,7,1.0,0.9
2022-05-27T13:00:00,1919A,108.673,34.3155,咸阳市,实验中学,颗粒物(PM10),97,144,99,52,38,164,74,32,32,53,55,4,4,0.8,0.7
2022-05-27T13:00:00,1920A,108.7233,34.3617,咸阳市,师范学院,细颗粒物(PM2.5),62,42,76,44,35,175,154,60,60,28,44,9,6,0.8,0.7
2022-05-27T13:00:00,1922A,109.0656,35.0994,铜川市,党校(对照点),,47,47,60,23,24,149,149,81,81,19,37,8,8,1.3,1.3
2022-05-27T13:00:00,1923A,109.0697,35.0697,铜川市,王益区政府,臭氧1小时,59,62,66,37,28,167,167,79,79,17,30,7,6,0.6,0.6
2022-05-27T13:00:00,1924A,108.9344,34.9058,铜川市,新区管委会,臭氧1小时,82,96,81,47,25,185,185,85,85,15,17,11,11,0.7,0.6
2022-05-27T13:00:00,1926A,109.4131,36.6275,延安市,枣园(对照点),,44,34,42,14,18,151,140,51,51,10,24,5,4,0.4,0.4
2022-05-27T13:00:00,1927A,109.4761,36.6028,延安市,延大医附院,,50,42,45,14,23,162,157,54,54,10,27,5,4,0.5,0.5
2022-05-27T13:00:00,1929A,109.5056,36.6106,延安市,百米大道,颗粒物(PM10),60,70,59,19,23,152,149,78,78,22,26,5,4,0.9,0.9
2022-05-27T13:00:00,1930A,107.185,34.3063,宝鸡市,庙沟村(对照点),,40,40,38,19,18,96,56,58,38,11,15,5,4,0.5,0.5
2022-05-27T13:00:00,1931A,107.0708,34.3017,宝鸡市,竹园沟,,40,40,34,21,17,116,84,43,43,7,13,9,5,0.5,0.5
2022-05-27T13:00:00,1932A,107.1906,34.3672,宝鸡市,三陆医院,颗粒物(PM10),58,66,57,32,26,136,81,34,34,23,31,10,8,0.6,0.6
2022-05-27T13:00:00,1933A,107.1431,34.3547,宝鸡市,监测站,,48,48,38,30,21,126,94,41,41,17,20,7,5,0.6,0.6
2022-05-27T13:00:00,1934A,107.1186,34.3739,宝鸡市,技工学校,颗粒物(PM10),63,76,50,39,28,135,102,42,42,18,16,7,5,0.6,0.5
2022-05-27T13:00:00,1935A,107.3906,34.3528,宝鸡市,陈仓区环保局家属楼,颗粒物(PM10),57,64,56,34,27,134,102,43,43,16,26,10,10,0.5,0.5
2022-05-27T13:00:00,1936A,107.2058,34.3497,宝鸡市,文理学院,颗粒物(PM10),62,74,51,27,27,130,80,27,27,25,27,10,7,0.5,0.5
2022-05-27T13:00:00,1937A,107.2386,34.3622,宝鸡市,三迪小学,颗粒物(PM10),63,75,58,33,26,136,80,34,34,24,29,12,8,0.4,0.4
2022-05-27T13:00:00,1938A,109.5293,34.5101,渭南市,农科所(对照点),细颗粒物(PM2.5),62,68,64,44,38,183,166,87,84,16,24,13,13,0.5,0.4
2022-05-27T13:00:00,1939A,109.4974,34.4877,渭南市,日报社,颗粒物(PM10),62,73,74,39,37,173,159,77,77,11,35,7,7,0.5,0.6
2022-05-27T13:00:00,1940A,109.4636,34.493,渭南市,体育馆,臭氧1小时,68,78,71,42,34,191,174,84,84,12,37,9,10,0.6,0.6
2022-05-27T13:00:00,1941A,109.4259,34.5023,渭南市,高新一小,颗粒物(PM10),71,92,97,44,45,168,167,78,78,14,35,7,6,0.6,0.7
2022-05-27T13:00:00,1943A,102.1725,38.5339,金昌市,新川苑,颗粒物(PM10),95,140,80,29,17,136,125,99,99,9,17,10,16,0.5,0.6
2022-05-27T13:00:00,1944A,102.1692,38.5167,金昌市,天庆家园,颗粒物(PM10),91,132,74,22,16,143,133,108,108,3,15,9,20,0.3,0.5
2022-05-27T13:00:00,1945A,98.2908,39.7711,嘉峪关市,气象局,,,68,135,22,38,135,135,124,117,3,8,,5,0.6,0.6
2022-05-27T13:00:00,1947A,106.3394,38.817,石嘴山市,沙湖旅游区(对照点),,46,39,55,15,17,166,147,80,80,11,26,13,21,0.6,0.9
2022-05-27T13:00:00,1948A,106.3668,39.0145,石嘴山市,大武口朝阳西街,,46,46,48,22,20,163,140,78,74,25,28,43,27,1.2,0.7
2022-05-27T13:00:00,1949A,106.7704,39.2282,石嘴山市,惠农南大街,,50,50,53,16,24,150,147,94,85,12,26,15,17,0.6,0.6
2022-05-27T13:00:00,1950A,106.7099,39.1325,石嘴山市,红果子镇惠新街,颗粒物(PM10),64,77,51,16,16,131,124,79,68,11,27,11,13,0.3,0.4
2022-05-27T13:00:00,1951A,84.895,45.6094,克拉玛依市,长征新村,,48,48,38,6,7,113,71,94,86,32,6,7,5,0.2,0.2
2022-05-27T13:00:00,1952A,84.8988,45.5893,克拉玛依市,南林小区,,,,40,,15,112,51,101,85,40,8,,8,,0.4
2022-05-27T13:00:00,1954A,84.905,44.3396,克拉玛依市,独山子区,,31,23,37,15,18,115,97,96,88,5,4,6,6,0.4,0.4
2022-05-27T13:00:00,1955A,85.6979,46.098,克拉玛依市,乌尔禾区商贸楼,颗粒物(PM10),52,54,49,4,14,95,27,89,46,15,7,10,10,0.2,0.3
2022-05-27T13:00:00,1956A,86.1472,41.7538,巴音郭楞州,孔雀公园,颗粒物(PM10),74,98,355,39,118,124,70,110,78,18,14,1,1,0.5,0.4
2022-05-27T13:00:00,1957A,86.1972,41.7166,巴音郭楞州,棉纺厂,,,79,311,37,129,107,89,107,72,12,15,,3,0.4,0.2
2022-05-27T13:00:00,1958A,86.2357,41.7173,巴音郭楞州,经济开发区,颗粒物(PM10),73,95,348,30,98,120,102,115,92,10,12,3,3,0.3,0.3
2022-05-27T13:00:00,1961A,117.532,36.6868,济南市,东山小学,臭氧1小时,102,61,54,22,14,203,203,161,161,12,18,13,11,0.4,0.4
2022-05-27T13:00:00,1966A,120.0405,35.8735,青岛市,黄岛区4号,,,,50,,13,178,178,126,126,13,28,10,11,0.4,0.5
2022-05-27T13:00:00,1982A,122.0693,37.2174,威海市,文登开发区,臭氧1小时,105,63,58,24,23,209,209,124,124,15,26,13,9,0.4,0.4
2022-05-27T13:00:00,2031A,113.1817,27.9958,株洲市,云田中学,,34,34,42,18,26,93,90,54,54,3,12,8,7,0.6,0.7
2022-05-27T13:00:00,2054A,114.1099,32.1059,信阳市,平桥分局,,47,47,38,18,22,123,123,68,68,20,16,6,5,0.6,0.8
2022-05-27T13:00:00,2064A,113.9956,32.1271,信阳市,南湾水厂,,41,41,39,28,19,126,126,79,79,7,9,6,5,0.5,0.5
2022-05-27T13:00:00,2065A,114.0775,32.1195,信阳市,市酿酒公司,,44,33,32,20,21,139,139,68,68,13,22,8,7,0.6,0.8
2022-05-27T13:00:00,2066A,114.0609,32.1399,信阳市,审计局,颗粒物(PM10),53,55,38,13,21,131,131,72,72,15,18,7,7,0.4,0.5
2022-05-27T13:00:00,2067A,114.6613,33.6128,周口市,市环境监测站,臭氧1小时,68,65,56,24,22,174,174,111,111,9,18,7,8,0.6,0.6
2022-05-27T13:00:00,2068A,114.6758,33.6347,周口市,周口师范,臭氧1小时,60,59,53,23,23,168,168,109,109,12,18,10,10,0.7,0.7
2022-05-27T13:00:00,2069A,114.6546,33.5979,周口市,市运管处,颗粒物(PM10),64,78,56,25,25,169,169,108,108,13,21,7,7,0.5,0.5
2022-05-27T13:00:00,2070A,114.6369,33.6406,周口市,川汇区环保局,臭氧1小时,64,66,54,29,19,171,171,115,115,14,19,7,6,0.5,0.4
2022-05-27T13:00:00,2075A,117.6336,24.4674,漳州市,九湖(对照点),,26,22,25,12,13,93,83,78,68,15,12,4,4,0.5,0.5
2022-05-27T13:00:00,2160A,112.85,35.5051,晋城市,自来水公司,颗粒物(PM10),68,86,54,14,18,169,163,115,115,11,30,16,12,0.9,1
2022-05-27T13:00:00,2161A,112.8318,35.4936,晋城市,白云商贸,臭氧1小时,52,39,62,7,18,173,161,109,109,5,26,24,10,0.4,0.8
2022-05-27T13:00:00,2162A,112.8508,35.4887,晋城市,市环保局,臭氧1小时,57,54,70,17,21,173,165,116,116,7,29,16,13,0.8,0.9
2022-05-27T13:00:00,2163A,112.8676,35.4897,晋城市,技术学院,臭氧1小时,59,38,62,14,17,173,167,110,110,12,37,12,8,0.8,0.8
2022-05-27T13:00:00,2165A,112.8453,35.546,晋城市,白马寺 (对照点),臭氧1小时,70,48,52,14,17,209,176,136,135,9,18,7,10,1.2,1.1
2022-05-27T13:00:00,2166A,112.4397,39.3522,朔州市,平朔,,39,24,95,21,26,123,123,56,56,4,35,3,10,0.3,0.4
2022-05-27T13:00:00,2167A,112.4575,39.3617,朔州市,朔唯,,40,19,113,4,28,125,125,57,57,5,40,1,18,0.4,0.4
2022-05-27T13:00:00,2168A,112.4258,39.3197,朔州市,区政府,,41,30,67,5,15,131,131,65,65,7,28,4,9,0.2,0.4
2022-05-27T13:00:00,2169A,112.4072,39.3278,朔州市,市环保局,,50,50,88,0,15,124,124,72,72,5,31,8,13,0.3,0.4
2022-05-27T13:00:00,2170A,112.4272,39.3681,朔州市,市二中,,39,25,96,7,31,122,122,60,60,5,36,7,17,0.4,0.5
2022-05-27T13:00:00,2171A,112.7532,37.6945,晋中市,锦纶小区,,39,39,58,19,19,188,124,78,78,13,29,7,7,0.3,0.4
2022-05-27T13:00:00,2173A,112.7249,37.7067,晋中市,南都小区,,37,29,57,18,20,194,118,76,76,10,31,9,11,0.2,0.4
2022-05-27T13:00:00,2174A,112.6991,37.6982,晋中市,榆次区政府,,39,32,51,27,23,192,115,76,76,9,26,5,7,0.4,0.5
2022-05-27T13:00:00,2175A,110.9956,35.0147,运城市,运城中学,臭氧1小时,69,85,66,39,34,175,175,109,107,8,16,9,8,0.6,0.7
2022-05-27T13:00:00,2178A,110.9686,35.0303,运城市,地区技校,臭氧1小时,68,74,74,32,26,174,174,116,116,6,16,7,7,0.8,0.8
2022-05-27T13:00:00,2179A,111.0414,35.1147,运城市,空港新区,臭氧1小时,83,74,92,33,42,186,186,110,110,5,30,11,17,0.9,1.2
2022-05-27T13:00:00,2181A,112.7383,38.4519,忻州市,开发区,,44,44,41,7,12,120,108,50,50,14,31,11,14,0.4,0.4
2022-05-27T13:00:00,2182A,112.7003,38.4928,忻州市,会展中心,,45,45,40,3,4,110,104,49,49,13,35,10,14,0.3,0.3
2022-05-27T13:00:00,2183A,111.1406,37.5211,吕梁市,环保局,颗粒物(PM10),53,55,64,12,17,160,160,72,72,16,42,7,4,0.6,0.5
2022-05-27T13:00:00,2185A,111.1297,37.5136,吕梁市,自来水公司,,46,44,84,18,18,146,146,63,63,14,30,8,9,0.4,0.4
2022-05-27T13:00:00,2187A,106.8174,39.6973,乌海市,市林业局,臭氧1小时,73,52,55,22,16,178,178,108,100,11,19,20,18,0.7,0.6
2022-05-27T13:00:00,2191A,122.2532,43.6801,通辽市,艺术职业学校,,36,23,31,8,11,114,114,74,74,16,21,5,6,0.2,0.3
2022-05-27T13:00:00,2192A,119.7594,49.2261,呼伦贝尔市,区环保局,,42,42,30,20,18,99,86,75,75,6,14,5,5,0.4,0.4
2022-05-27T13:00:00,2195A,107.4212,40.761,巴彦淖尔市,附二中,颗粒物(PM10),52,54,44,10,12,142,142,81,81,14,19,14,7,0.6,0.5
2022-05-27T13:00:00,2196A,107.37,40.7372,巴彦淖尔市,市环保大楼,颗粒物(PM10),52,54,39,27,23,142,142,80,80,14,16,12,7,0.6,0.4
2022-05-27T13:00:00,2197A,113.1306,40.9923,乌兰察布市,集宁新区,,38,28,29,9,9,120,120,86,78,4,11,9,8,0.2,0.3
2022-05-27T13:00:00,2200A,122.0392,46.0656,兴安盟,胜华新制药厂,,33,20,36,8,16,105,105,67,67,5,14,3,3,0.1,0.3
2022-05-27T13:00:00,2201A,121.9504,46.0741,兴安盟,科右前旗环保局,,36,12,23,7,15,113,113,74,74,6,17,3,3,0,0.2
2022-05-27T13:00:00,2202A,116.1042,43.9317,锡林郭勒盟,市环保监测站,,,35,26,5,5,102,102,72,72,4,13,9,9,,0.4
2022-05-27T13:00:00,2203A,116.0781,43.9311,锡林郭勒盟,市政府,,35,18,16,2,8,110,110,86,86,4,15,9,8,0.4,0.4
2022-05-27T13:00:00,2204A,105.6467,38.8363,阿拉善盟,西城区西花园(对照点),臭氧1小时,55,32,40,8,16,167,164,138,138,5,8,12,14,0.4,0.5
2022-05-27T13:00:00,2205A,105.6985,38.8411,阿拉善盟,蒙二幼,臭氧1小时,59,36,39,7,18,174,167,144,144,5,8,9,10,0.3,0.3
2022-05-27T13:00:00,2206A,105.724,38.8516,阿拉善盟,环保局新楼,,49,27,34,8,18,169,155,144,144,8,9,9,10,0.4,0.4
2022-05-27T13:00:00,2207A,121.6094,41.998,阜新市,工业园区,臭氧1小时,97,26,26,8,13,197,197,90,90,8,22,14,16,0.5,0.7
2022-05-27T13:00:00,2208A,121.6697,42.0279,阜新市,长青街,,40,17,37,8,15,126,126,70,70,8,21,18,22,0.5,0.7
2022-05-27T13:00:00,2209A,121.6673,42.0705,阜新市,农业园区,,42,30,27,10,18,134,134,79,79,12,17,15,18,0.6,0.7
2022-05-27T13:00:00,2210A,121.6717,42.0224,阜新市,东苑,,43,36,40,8,21,135,135,75,75,16,30,17,25,0.3,0.6
2022-05-27T13:00:00,2211A,121.6506,42.0498,阜新市,玉龙新城,,41,36,32,7,14,131,131,71,71,9,21,17,13,0.4,0.4
2022-05-27T13:00:00,2212A,123.2,41.1953,辽阳市,宏伟区,,50,50,33,15,15,96,96,60,60,26,25,24,15,1.4,1
2022-05-27T13:00:00,2213A,123.1683,41.2495,辽阳市,新华园,,33,31,45,10,25,103,103,53,53,23,34,19,19,1.3,1.7
2022-05-27T13:00:00,2214A,123.2354,41.2639,辽阳市,滨河路,,,33,40,12,26,71,,44,44,17,30,16,16,1.1,1.4
2022-05-27T13:00:00,2215A,123.149,41.2991,辽阳市,铁西工业园,,34,28,41,20,31,108,108,58,58,18,29,17,18,0.6,1.3
2022-05-27T13:00:00,2216A,123.8139,42.3022,铁岭市,汇工街西,,43,27,20,10,13,137,137,80,80,13,17,8,7,0.3,0.4
2022-05-27T13:00:00,2217A,123.8649,42.2923,铁岭市,水上乐园,,41,22,20,8,12,131,131,71,71,10,15,6,6,0.2,0.2
2022-05-27T13:00:00,2218A,123.8486,42.2867,铁岭市,银州路东段,,40,31,24,8,8,125,125,71,71,14,19,6,6,0.3,0.4
2022-05-27T13:00:00,2219A,123.7153,42.2217,铁岭市,金沙江路北,,40,14,21,5,6,125,125,73,73,13,17,7,6,0.5,0.5
2022-05-27T13:00:00,2220A,120.4318,41.5881,朝阳市,西梁,,37,24,36,10,20,117,117,56,56,10,26,10,10,0.6,0.9
2022-05-27T13:00:00,2221A,120.4521,41.5646,朝阳市,河畔小区,,39,21,32,7,16,124,124,71,71,6,17,11,11,0.5,0.6
2022-05-27T13:00:00,2222A,120.4176,41.5648,朝阳市,八里堡,,39,29,41,5,22,124,124,62,62,11,27,11,13,0.4,0.7
2022-05-27T13:00:00,2223A,120.3806,41.5969,朝阳市,农业园区,,40,26,36,6,18,128,128,64,64,7,25,11,12,0.7,0.8
2022-05-27T13:00:00,2225A,124.4002,43.1713,四平市,一商场,,37,28,16,16,11,116,116,69,69,8,12,8,7,0.3,0.3
2022-05-27T13:00:00,2226A,124.388,43.193,四平市,境园,,36,25,15,5,6,114,114,62,62,3,8,2,2,0.2,0.4
2022-05-27T13:00:00,2227A,125.1358,42.8845,辽源市,环保局,,32,12,14,11,10,100,100,60,60,5,7,4,4,0.5,0.5
2022-05-27T13:00:00,2229A,125.9358,41.7173,通化市,光明,,18,10,7,3,3,70,56,49,49,5,7,7,11,0.5,0.5
2022-05-27T13:00:00,2230A,125.9446,41.7325,通化市,铁路,,,,8,,4,69,54,48,48,6,8,7,8,0.5,0.5
2022-05-27T13:00:00,2231A,126.4219,41.9171,白山市,喜丰,,34,34,25,6,8,65,60,48,48,15,13,13,11,0.8,0.8
2022-05-27T13:00:00,2232A,126.4077,41.9419,白山市,环保局,,20,16,25,6,8,66,63,52,52,12,16,7,9,0.6,0.7
2022-05-27T13:00:00,2233A,124.8006,45.1214,松原市,江南,,32,12,14,7,13,101,101,57,57,8,20,6,3,0.3,0.5
2022-05-27T13:00:00,2234A,124.7965,45.1722,松原市,江北,,36,19,14,22,26,114,114,66,66,11,15,5,2,0.5,0.5
2022-05-27T13:00:00,2235A,122.7911,45.6077,白城市,洮北区环保局,,,,26,,5,104,104,67,67,,18,6,8,0.2,0.2
2022-05-27T13:00:00,2236A,122.8738,45.5725,白城市,市环保局,,29,22,28,19,12,90,90,52,52,22,29,4,5,0.3,0.4
2022-05-27T13:00:00,2237A,129.47,42.8883,延边朝鲜族自治州,妇幼医院,,33,10,9,2,4,103,103,60,54,7,7,6,6,0.5,0.5
2022-05-27T13:00:00,2238A,129.5055,42.9108,延边朝鲜族自治州,延边医院,,32,18,12,2,6,102,102,78,78,5,6,8,8,0.5,0.6
2022-05-27T13:00:00,2239A,129.3964,42.8881,延边朝鲜族自治州,朝阳川镇医院,,,14,10,1,2,99,99,63,54,,5,4,11,0.5,0.4
2022-05-27T13:00:00,2240A,130.9762,45.3001,鸡西市,环保局,,23,19,15,8,7,102,71,68,53,18,22,4,4,0.3,0.3
2022-05-27T13:00:00,2243A,130.9429,45.3039,鸡西市,第一中学,,25,13,15,5,7,111,77,70,60,14,19,5,6,0.2,0.3
2022-05-27T13:00:00,2244A,130.2537,47.3416,鹤岗市,哈啤分公司,,35,17,21,6,10,122,110,98,95,7,7,6,7,0.4,0.4
2022-05-27T13:00:00,2245A,130.2684,47.3086,鹤岗市,斯达机电,,,7,15,6,10,113,109,90,90,3,6,,7,0.3,0.3
2022-05-27T13:00:00,2246A,130.3114,47.3388,鹤岗市,东山纸板厂,,32,27,22,8,9,102,102,86,86,7,9,8,8,0.1,0.1
2022-05-27T13:00:00,2247A,130.1097,47.3382,鹤岗市,五号水库(对照点),,32,13,18,5,6,105,102,86,86,7,8,8,7,0.2,0.2
2022-05-27T13:00:00,2248A,131.1511,46.6937,双鸭山市,双合村,,29,15,22,6,9,108,92,81,81,10,11,5,6,0.3,0.4
2022-05-27T13:00:00,2249A,131.1652,46.6191,双鸭山市,南小市,,27,17,18,5,10,86,86,67,67,4,7,5,6,0.0,0
2022-05-27T13:00:00,2250A,131.1524,46.6554,双鸭山市,环保局,,32,11,16,5,9,100,100,77,77,7,10,3,4,0.3,0.3
2022-05-27T13:00:00,2251A,131.12,46.5656,双鸭山市,苗圃(对照点),,34,17,16,11,13,108,108,84,84,2,4,3,2,0.3,0.3
2022-05-27T13:00:00,2252A,128.5159,47.4311,伊春市,环保局,,29,9,11,6,8,105,90,88,88,3,6,6,6,0.2,0.3
2022-05-27T13:00:00,2253A,128.9102,47.7412,伊春市,电力嘉园,,34,14,23,8,14,122,107,100,100,5,9,5,7,0.4,0.5
2022-05-27T13:00:00,2254A,129.5029,48.471,伊春市,汤旺河国家公园(对照点),,40,6,6,4,5,126,126,100,100,4,2,12,11,0.2,0.3
2022-05-27T13:00:00,2255A,130.2751,46.8028,佳木斯市,佳纺,,32,9,18,13,18,100,100,75,75,8,20,5,6,0.4,0.5
2022-05-27T13:00:00,2256A,130.3995,46.8307,佳木斯市,发电厂,,,8,20,8,13,118,118,88,88,6,10,9,8,,0.6
2022-05-27T13:00:00,2257A,130.3258,46.7975,佳木斯市,环保局,,34,20,20,13,17,106,106,83,83,8,20,7,8,0.4,0.5
2022-05-27T13:00:00,2258A,130.3648,46.8032,佳木斯市,十一中,,34,10,21,9,16,108,107,85,85,9,19,5,6,0.4,0.4
2022-05-27T13:00:00,2259A,130.3794,46.7588,佳木斯市,四丰(对照点),,35,12,18,8,16,109,109,92,92,4,13,5,6,0.5,0.5
2022-05-27T13:00:00,2262A,131.0518,45.8751,七台河市,新一中(对照点),,29,5,11,8,7,117,92,95,76,9,9,8,7,0.8,0.8
2022-05-27T13:00:00,2263A,127.4833,50.2524,黑河市,交通局,,36,17,14,5,8,115,115,73,73,5,8,3,4,0.4,0.4
2022-05-27T13:00:00,2264A,127.5144,50.2341,黑河市,环保局,,40,19,20,6,11,125,125,80,80,5,11,5,7,0.4,0.4
2022-05-27T13:00:00,2265A,127.5291,50.2472,黑河市,大黑河岛(对照点),,,23,21,7,7,123,123,76,76,,4,7,8,0.3,0.4
2022-05-27T13:00:00,2266A,126.9785,46.6365,绥化市,人和东街,,27,12,18,7,12,86,86,68,59,5,11,9,13,0.4,0.5
2022-05-27T13:00:00,2267A,126.964,46.6528,绥化市,党政办公中心,,28,8,18,7,13,89,89,70,60,6,11,6,6,0.3,0.3
2022-05-27T13:00:00,2269A,124.1069,50.4097,大兴安岭地区,科技局,,30,13,15,11,11,102,96,70,70,16,8,4,4,0.2,0.3
2022-05-27T13:00:00,2270A,117.396,32.939,蚌埠市,工人疗养院,颗粒物(PM10),59,68,65,31,36,160,160,91,91,16,24,8,11,0.2,0.3
2022-05-27T13:00:00,2271A,117.3605,32.9427,蚌埠市,百货大楼,,,140,75,31,32,155,155,97,97,14,26,8,11,,0.5
2022-05-27T13:00:00,2273A,117.4185,32.8911,蚌埠市,蚌埠学院,臭氧1小时,60,44,61,22,33,168,168,105,105,8,21,10,13,0.2,0.5
2022-05-27T13:00:00,2274A,117.3533,32.9673,蚌埠市,淮上区政府,颗粒物(PM10),54,58,72,29,37,151,147,90,90,18,29,12,14,0.3,0.4
2022-05-27T13:00:00,2275A,117.3145,32.8977,蚌埠市,高新区,臭氧1小时,58,34,63,17,44,166,166,97,97,14,39,8,9,0.4,0.6
2022-05-27T13:00:00,2277A,116.8305,32.7727,淮南市,潘集区政府,臭氧1小时,83,59,61,38,44,186,186,89,89,15,26,14,8,0.5,0.4
2022-05-27T13:00:00,2278A,117.0067,32.6524,淮南市,师范学院,细颗粒物(PM2.5),65,50,76,47,52,150,150,82,82,13,27,7,12,0.4,0.5
2022-05-27T13:00:00,2279A,116.8569,32.5951,淮南市,谢家集区政府,细颗粒物(PM2.5),55,47,64,39,30,142,142,83,83,10,24,6,6,0.3,0.4
2022-05-27T13:00:00,2280A,116.8281,32.633,淮南市,八公山区政府,"颗粒物(PM10),细颗粒物(PM2.5)",52,54,59,36,41,134,134,77,75,8,15,6,4,0.2,0.3
2022-05-27T13:00:00,2281A,116.6325,32.6201,淮南市,焦岗湖风景区管理处(对照点),颗粒物(PM10),51,52,52,30,26,143,143,65,65,14,29,9,10,0.3,0.4
2022-05-27T13:00:00,2282A,116.8004,33.975,淮北市,监测站,臭氧1小时,63,39,61,17,26,170,170,121,121,2,12,6,6,0.3,0.4
2022-05-27T13:00:00,2283A,116.8091,33.9007,淮北市,烈山区政府,,,39,73,,26,181,181,114,114,7,31,11,12,0.4,0.5
2022-05-27T13:00:00,2284A,116.7856,33.9477,淮北市,职业技术学院,臭氧1小时,54,40,64,16,28,163,163,117,117,6,21,9,11,0.3,0.4
2022-05-27T13:00:00,2285A,117.8177,30.9412,铜陵市,市第四中学,臭氧1小时,92,86,62,55,45,205,193,82,82,18,34,14,13,0.7,0.7
2022-05-27T13:00:00,2286A,117.8059,30.9273,铜陵市,市公路局,颗粒物(PM10),63,75,110,40,45,139,126,52,52,13,29,5,4,0.8,0.9
2022-05-27T13:00:00,2287A,117.7807,30.9413,铜陵市,市新民污水厂,臭氧1小时,75,77,94,46,50,186,180,80,80,12,38,8,8,0.7,0.8
2022-05-27T13:00:00,2288A,117.7439,30.8792,铜陵市,市第九中学,臭氧1小时,53,53,84,27,41,184,162,89,89,22,45,9,7,0.8,1
2022-05-27T13:00:00,2289A,117.846,30.9413,铜陵市,车站新区,臭氧1小时,90,86,65,60,54,196,192,94,94,31,27,11,9,1.1,0.8
2022-05-27T13:00:00,2290A,117.8483,30.97,铜陵市,市职教基地,臭氧1小时,93,82,76,50,45,194,194,95,95,16,20,7,8,1.0,0.9
2022-05-27T13:00:00,2291A,117.0809,30.5177,安庆市,环科院,臭氧1小时,97,60,52,51,40,197,197,130,102,16,21,7,6,0.7,0.6
2022-05-27T13:00:00,2292A,117.0331,30.5119,安庆市,马山宾馆,臭氧1小时,99,51,47,46,38,199,199,133,102,14,16,9,7,0.6,0.6
2022-05-27T13:00:00,2294A,116.9896,30.6145,安庆市,安庆大学,臭氧1小时,94,54,49,37,37,195,195,107,107,14,15,8,6,0.7,0.6
2022-05-27T13:00:00,2295A,118.2903,29.6963,黄山市,延安路89号,,46,31,25,6,13,146,146,76,76,2,4,6,6,0.3,0.3
2022-05-27T13:00:00,2296A,118.327,29.7178,黄山市,黄山东路89号,,46,26,19,14,12,146,146,78,78,2,5,6,5,0.4,0.4
2022-05-27T13:00:00,2297A,118.1371,30.2756,黄山市,黄山区政府5号楼,,44,19,34,17,19,152,140,80,80,4,6,6,6,0.4,0.4
2022-05-27T13:00:00,2298A,118.3093,32.3153,滁州市,老年大学,臭氧1小时,65,48,55,20,37,172,172,93,93,18,24,10,8,0.3,0.4
2022-05-27T13:00:00,2299A,118.3244,32.2786,滁州市,人大宾馆,臭氧1小时,92,70,62,36,36,193,193,106,106,29,26,12,7,0.3,0.4
2022-05-27T13:00:00,2301A,115.8277,32.8929,阜阳市,市监测站,,,,51,23,25,156,156,108,108,12,15,10,8,0.4,0.6
2022-05-27T13:00:00,2303A,115.8554,32.8605,阜阳市,开发区,颗粒物(PM10),53,55,56,19,36,156,156,101,101,16,17,8,6,0.5,0.6
2022-05-27T13:00:00,2307A,116.5079,31.737,六安市,监测大楼,臭氧1小时,55,44,39,21,19,164,164,94,94,8,12,5,5,0.4,0.4
2022-05-27T13:00:00,2308A,116.4738,31.7643,六安市,皖西学院,臭氧1小时,55,35,47,30,27,164,164,85,85,15,17,7,7,0.4,0.4
2022-05-27T13:00:00,2309A,116.4996,31.7905,六安市,朝阳厂,细颗粒物(PM2.5),54,40,51,38,26,156,156,82,82,7,14,6,6,0.4,0.4
2022-05-27T13:00:00,2310A,116.5567,31.7886,六安市,开发区,臭氧1小时,60,67,57,42,29,168,168,88,88,8,19,9,6,0.4,0.4
2022-05-27T13:00:00,2312A,115.7789,33.8518,亳州市,三国揽胜宫,,50,41,39,20,18,159,159,114,114,5,13,6,6,0.5,0.3
2022-05-27T13:00:00,2314A,117.47,30.6618,池州市,池州学院,臭氧1小时,87,55,57,39,41,189,189,118,118,8,13,11,10,0.8,0.8
2022-05-27T13:00:00,2316A,118.7581,30.9454,宣城市,鳌峰子站,细颗粒物(PM2.5),70,68,62,51,47,161,161,86,86,8,18,5,5,0.8,0.7
2022-05-27T13:00:00,2317A,118.7385,30.9743,宣城市,敬亭山子站,臭氧1小时,77,85,63,55,45,181,181,87,87,13,20,7,8,0.8,0.8
2022-05-27T13:00:00,2318A,118.7173,30.9427,宣城市,开发区子站,"颗粒物(PM10),细颗粒物(PM2.5)",53,56,54,37,40,158,158,99,99,12,16,5,5,0.7,0.7
2022-05-27T13:00:00,2319A,119.0141,25.4325,莆田市,荔城区仓后路,,30,28,14,10,6,96,96,79,71,13,13,5,4,0.5,0.6
2022-05-27T13:00:00,2320A,119.0015,25.4553,莆田市,莆田市监测站,,30,12,11,12,8,95,95,87,69,12,7,5,4,0.8,0.7
2022-05-27T13:00:00,2321A,119.1119,25.4561,莆田市,涵江区六中,,27,12,17,16,9,96,86,71,63,8,11,5,5,0.6,0.6
2022-05-27T13:00:00,2322A,119.1013,25.3215,莆田市,秀屿区政府,,30,30,18,17,10,102,87,94,77,12,9,7,7,0.9,0.6
2022-05-27T13:00:00,2323A,118.981,25.4792,莆田市,东圳水库(对照点),,26,19,11,5,5,103,82,102,64,10,4,5,5,0.6,0.5
2022-05-27T13:00:00,2324A,117.6211,26.2625,三明市,三钢,,26,26,14,16,14,76,76,65,65,8,10,3,3,0.5,0.5
2022-05-27T13:00:00,2325A,117.635,26.2714,三明市,三明二中,,,20,13,9,7,72,70,69,61,7,8,,2,,0.5
2022-05-27T13:00:00,2326A,117.6028,26.2378,三明市,三元区政府,,23,22,13,16,11,72,72,65,62,11,12,4,5,0.6,0.8
2022-05-27T13:00:00,2327A,117.7275,26.3108,三明市,洋溪(对照点),,22,22,11,13,9,78,67,71,63,6,6,5,5,0.6,0.5
2022-05-27T13:00:00,2331A,118.0966,26.6761,南平市,茫荡山(对照点),,15,5,3,7,3,80,48,79,55,1,2,4,4,0.8,0.8
2022-05-27T13:00:00,2332A,118.1681,26.6369,南平市,南平市监测站,,,16,9,6,6,91,91,68,66,6,6,8,5,,0.5
2022-05-27T13:00:00,2333A,118.1825,26.6489,南平市,南平铝业有限公司,,27,12,8,2,3,88,84,74,64,4,5,5,4,0.6,0.5
2022-05-27T13:00:00,2334A,118.1756,26.6272,南平市,南平七中,,27,14,9,4,6,87,86,66,58,5,5,11,5,0.5,0.3
2022-05-27T13:00:00,2335A,117.0189,25.1181,龙岩市,龙岩师专(对照点),,20,20,14,10,5,56,33,40,22,20,18,5,5,0.7,0.7
2022-05-27T13:00:00,2336A,117.0217,25.1033,龙岩市,龙岩市监测站,,19,19,13,8,4,54,36,42,22,20,20,5,6,0.6,0.6
2022-05-27T13:00:00,2337A,117.0258,25.0661,龙岩市,闽西职业技术学院,,14,14,14,7,7,50,39,37,25,16,18,6,7,0.5,0.5
2022-05-27T13:00:00,2338A,117.0196,25.0306,龙岩市,龙岩学院,,13,10,13,6,5,51,40,33,28,7,10,2,3,0.4,0.4
2022-05-27T13:00:00,2339A,119.5001,26.6946,宁德市,金涵水库(对照点),,32,31,14,22,8,84,79,55,55,18,11,9,7,0.7,0.5
2022-05-27T13:00:00,2341A,119.5388,26.6612,宁德市,宁德市监测站,,30,30,19,12,16,84,84,56,52,11,19,8,6,0.7,0.8
2022-05-27T13:00:00,2342A,117.3102,29.3867,景德镇市,王港中学(对照点),,41,25,27,23,18,160,130,75,75,3,5,4,4,0.2,0.3
2022-05-27T13:00:00,2344A,117.1894,29.2789,景德镇市,兽医站,,50,41,42,35,30,141,141,90,90,9,16,4,5,0.8,0.9
2022-05-27T13:00:00,2345A,117.1547,29.2617,景德镇市,台达陶瓷,细颗粒物(PM2.5),57,61,44,40,27,150,150,91,91,15,18,26,16,0.7,0.7
2022-05-27T13:00:00,2346A,117.2461,29.2956,景德镇市,陶研所,,41,41,38,20,24,126,123,81,81,7,10,4,6,0.4,0.4
2022-05-27T13:00:00,2347A,114.0997,27.5002,萍乡市,武功山(对照点),,19,1,3,3,4,148,59,41,41,4,6,10,10,0.4,0.4
2022-05-27T13:00:00,2348A,113.8385,27.6434,萍乡市,中医院,,50,45,27,35,27,110,101,79,71,10,10,15,9,0.9,0.8
2022-05-27T13:00:00,2349A,113.8493,27.6253,萍乡市,市政府车库,,44,44,33,27,18,102,89,66,64,15,15,19,13,1.3,0.9
2022-05-27T13:00:00,2350A,113.8676,27.6435,萍乡市,市环保局,细颗粒物(PM2.5),52,42,30,36,28,108,100,79,74,11,12,18,17,0.6,0.5
2022-05-27T13:00:00,2351A,113.866,27.6198,萍乡市,安源区政府,颗粒物(PM10),52,53,37,35,21,97,87,57,57,18,19,18,14,1.0,0.8
2022-05-27T13:00:00,2352A,115.0861,27.9317,新余市,北岗(对照点),,35,27,30,22,23,110,110,63,63,3,3,6,9,0.6,0.6
2022-05-27T13:00:00,2353A,114.9886,27.8431,新余市,飞宇,,,39,43,27,26,117,116,74,74,,17,8,13,0.5,0.5
2022-05-27T13:00:00,2354A,114.9231,27.8246,新余市,第二水厂,,42,42,39,25,24,108,99,71,65,14,17,10,12,0.7,0.7
2022-05-27T13:00:00,2355A,114.9308,27.8036,新余市,市气象局,,40,40,38,26,28,156,105,65,65,14,19,8,12,0.6,0.8
2022-05-27T13:00:00,2357A,116.9822,28.1136,鹰潭市,龙虎山(对照点),,36,34,24,17,11,113,113,62,62,4,3,11,5,0.6,0.4
2022-05-27T13:00:00,2358A,117.0564,28.2642,鹰潭市,新监测站,,45,40,43,31,30,127,101,50,50,11,13,77,45,0.5,0.6
2022-05-27T13:00:00,2359A,117.0311,28.2475,鹰潭市,财苑宾馆,,35,27,41,24,24,122,102,56,56,11,12,52,29,0.6,0.7
2022-05-27T13:00:00,2360A,117.0222,28.2264,鹰潭市,体育馆,,39,34,41,27,27,110,101,59,59,11,12,77,39,0.7,0.7
2022-05-27T13:00:00,2361A,117.0017,28.2131,鹰潭市,三川水表,,49,36,43,34,24,110,101,54,54,12,16,58,28,0.7,0.7
2022-05-27T13:00:00,2362A,114.9017,25.9149,赣州市,通天岩(对照点),,18,15,20,10,13,201,55,197,176,16,4,1,3,0.6,0.5
2022-05-27T13:00:00,2363A,114.9367,25.8664,赣州市,地委,,29,29,22,9,13,83,59,70,63,6,7,7,5,0.7,0.7
2022-05-27T13:00:00,2364A,114.9461,25.8481,赣州市,气象台,,23,19,20,15,12,89,73,78,74,10,9,6,5,0.7,0.7
2022-05-27T13:00:00,2365A,114.9322,25.8333,赣州市,市图书馆,,26,21,21,18,15,93,73,79,72,11,11,12,14,1.0,1.1
2022-05-27T13:00:00,2366A,114.8905,25.8471,赣州市,华坚鞋城,,32,32,18,14,12,93,67,78,72,12,8,6,2,1.3,1.2
2022-05-27T13:00:00,2367A,114.9754,27.0803,吉安市,红声器材厂,,38,38,42,25,23,106,106,83,83,6,8,8,7,0.5,0.5
2022-05-27T13:00:00,2368A,114.9658,27.0999,吉安市,市森林工业局,,43,37,33,30,26,116,116,86,86,5,8,5,5,0.5,0.5
2022-05-27T13:00:00,2369A,114.99,27.1312,吉安市,市环境监测站,细颗粒物(PM2.5),69,26,28,50,24,112,100,82,82,5,8,9,4,0.5,0.5
2022-05-27T13:00:00,2370A,115.0093,27.0968,吉安市,青原区法院,,,31,33,31,22,118,110,82,82,,8,,13,0.4,0.5
2022-05-27T13:00:00,2371A,114.3408,27.8064,宜春市,槟榔水业(对照点),颗粒物(PM10),51,52,40,34,22,114,108,66,66,12,14,12,7,0.6,0.6
2022-05-27T13:00:00,2373A,114.3956,27.7844,宜春市,市石油公司,细颗粒物(PM2.5),53,53,38,37,24,107,105,62,62,2,8,17,7,1.1,0.8
2022-05-27T13:00:00,2374A,114.3703,27.7914,宜春市,市气象局,颗粒物(PM10),52,54,41,32,26,123,113,69,69,16,18,16,8,1.1,0.8
2022-05-27T13:00:00,2375A,114.4013,27.8074,宜春市,市广电局,细颗粒物(PM2.5),57,54,36,40,28,116,109,69,69,14,16,10,5,0.8,0.6
2022-05-27T13:00:00,2376A,116.2127,28.0814,抚州市,桐源党溪(对照点),,41,37,31,28,21,129,129,70,70,5,10,9,27,0.6,0.6
2022-05-27T13:00:00,2377A,116.3544,27.9831,抚州市,市站,,40,39,38,26,23,126,126,82,82,6,10,7,9,0.8,0.8
2022-05-27T13:00:00,2378A,116.3565,27.963,抚州市,血防站,,43,29,35,20,20,137,137,83,83,5,8,7,10,0.7,0.7
2022-05-27T13:00:00,2379A,116.3564,28.0007,抚州市,采茶剧团,,41,37,36,20,23,130,130,80,80,6,10,6,7,0.9,0.9
2022-05-27T13:00:00,2380A,116.385,27.9647,抚州市,医学分院,,42,31,34,18,21,134,134,81,81,7,10,8,8,0.8,0.7
2022-05-27T13:00:00,2381A,118.005,28.4572,上饶市,百草园(对照点),,35,29,39,19,23,116,112,72,52,5,12,8,10,0.6,0.6
2022-05-27T13:00:00,2382A,117.9756,28.4436,上饶市,市监测站,,46,41,43,32,26,135,126,62,62,5,11,6,10,0.3,0.4
2022-05-27T13:00:00,2383A,117.9519,28.4628,上饶市,凤凰光学,,49,48,44,34,30,134,134,61,61,5,24,10,20,0.2,0.3
2022-05-27T13:00:00,2385A,114.17,35.9019,鹤壁市,市监测站,,,56,53,27,22,175,154,129,108,,19,5,9,0.7,0.7
2022-05-27T13:00:00,2386A,114.2956,35.7511,鹤壁市,市交警支队,臭氧1小时,65,41,48,16,17,172,172,99,87,11,31,12,9,0.5,0.5
2022-05-27T13:00:00,2387A,114.2878,35.7306,鹤壁市,迎宾馆,臭氧1小时,69,53,54,17,15,175,175,125,88,14,28,8,8,0.4,0.5
2022-05-27T13:00:00,2389A,113.836,35.311,新乡市,环保西院,臭氧1小时,103,57,69,27,27,205,205,116,116,10,23,13,12,0.6,0.6
2022-05-27T13:00:00,2390A,113.884,35.272,新乡市,开发区,,,52,63,,27,199,199,116,116,16,28,13,10,0.7,0.7
2022-05-27T13:00:00,2391A,113.883,35.303,新乡市,环保东院,臭氧1小时,102,60,60,23,19,204,204,125,125,17,29,12,9,0.7,0.7
2022-05-27T13:00:00,2392A,115.0312,35.7636,濮阳市,环保局,臭氧1小时,67,58,51,18,20,173,173,106,106,10,22,11,11,0.4,0.4
2022-05-27T13:00:00,2394A,115.0574,35.7609,濮阳市,油田运输公司,臭氧1小时,98,59,66,19,23,198,198,110,110,12,32,11,12,0.3,0.3
2022-05-27T13:00:00,2395A,115.0866,35.7754,濮阳市,油田物探公司,臭氧1小时,98,64,56,20,21,198,198,116,116,8,24,14,15,0.3,0.3
2022-05-27T13:00:00,2396A,113.8276,34.0159,许昌市,监测站,颗粒物(PM10),63,76,61,31,33,155,155,95,95,14,22,14,10,0.5,0.4
2022-05-27T13:00:00,2398A,113.7906,33.9953,许昌市,开发区,臭氧1小时,72,76,70,28,24,177,177,99,99,8,26,15,8,0.7,0.6
2022-05-27T13:00:00,2399A,114.051,33.5699,漯河市,三五一五工厂,臭氧1小时,62,66,68,29,33,170,169,106,106,6,18,10,11,0.5,0.5
2022-05-27T13:00:00,2400A,114.0055,33.5698,漯河市,漯河大学,颗粒物(PM10),61,71,62,25,28,163,162,99,99,12,21,13,12,0.8,0.7
2022-05-27T13:00:00,2401A,114.0138,33.5828,漯河市,市水利局,颗粒物(PM10),60,70,63,26,27,161,161,99,99,7,17,8,9,0.6,0.5
2022-05-27T13:00:00,2402A,114.0261,33.5698,漯河市,市广电局,颗粒物(PM10),59,68,61,30,30,165,165,107,107,8,19,11,11,0.5,0.5
2022-05-27T13:00:00,2403A,112.5192,32.9917,南阳市,环保局,颗粒物(PM10),66,82,81,43,33,180,117,79,79,22,27,7,6,0.6,0.5
2022-05-27T13:00:00,2404A,112.5339,33.0086,南阳市,瓦房庄,颗粒物(PM10),70,89,76,32,34,174,116,80,79,26,27,8,7,0.4,0.4
2022-05-27T13:00:00,2405A,112.5003,32.9735,南阳市,汉画馆,颗粒物(PM10),64,78,76,37,43,182,119,81,81,19,31,3,4,0.4,0.5
2022-05-27T13:00:00,2406A,112.5779,33.0144,南阳市,气象站,颗粒物(PM10),71,91,75,31,31,184,127,85,85,22,26,10,9,0.6,0.5
2022-05-27T13:00:00,2407A,112.548,32.9692,南阳市,理工学院,颗粒物(PM10),65,80,71,29,33,176,113,66,66,20,34,10,5,0.6,0.6
2022-05-27T13:00:00,2408A,115.6702,34.4285,商丘市,环境监测站,臭氧1小时,65,50,46,21,20,172,172,122,122,10,19,9,12,0.5,0.5
2022-05-27T13:00:00,2409A,115.6458,34.4045,商丘市,粮食局,臭氧1小时,72,57,52,18,20,177,177,124,124,10,20,10,16,0.6,0.5
2022-05-27T13:00:00,2410A,115.6293,34.3948,商丘市,睢阳区环保局,臭氧1小时,63,48,46,19,20,170,170,117,117,10,21,8,13,0.4,0.4
2022-05-27T13:00:00,2420A,114.0189,32.9656,驻马店市,市一纸厂,臭氧1小时,68,53,52,30,25,174,174,97,97,13,22,8,8,0.3,0.4
2022-05-27T13:00:00,2421A,114.0114,33.015,驻马店市,市彩印厂,臭氧1小时,64,63,57,19,25,171,171,110,110,12,18,6,6,0.4,0.4
2022-05-27T13:00:00,2422A,113.9976,32.9771,驻马店市,天方二分厂,臭氧1小时,70,59,48,19,20,176,176,108,108,6,14,3,3,0.4,0.5
2022-05-27T13:00:00,2423A,115.0601,30.2313,黄石市,沈家营,颗粒物(PM10),97,144,74,67,39,171,162,134,96,29,17,33,23,1.5,1.1
2022-05-27T13:00:00,2424A,115.0817,30.2006,黄石市,陈家湾,颗粒物(PM10),106,161,87,69,42,178,146,88,86,34,22,29,16,2.4,1.2
2022-05-27T13:00:00,2426A,114.8988,30.2019,黄石市,铁山,颗粒物(PM10),66,82,77,42,42,168,156,92,92,9,22,16,13,0.4,0.8
2022-05-27T13:00:00,2427A,115.0307,30.2092,黄石市,团城山,细颗粒物(PM2.5),93,100,72,69,36,170,152,116,96,36,22,28,29,1.5,1
2022-05-27T13:00:00,2428A,111.0419,32.395,十堰市,武当山(对照点),,33,26,31,23,18,125,65,99,75,8,8,7,7,0.6,0.6
2022-05-27T13:00:00,2429A,110.78,32.6494,十堰市,滨河新村,颗粒物(PM10),61,72,79,26,31,167,36,32,27,24,27,9,10,0.9,0.9
2022-05-27T13:00:00,2430A,110.7258,32.6389,十堰市,刘家沟,颗粒物(PM10),57,64,60,33,26,169,45,53,36,15,11,9,9,0.7,0.7
2022-05-27T13:00:00,2431A,110.8839,32.5714,十堰市,铁二处,颗粒物(PM10),66,82,56,37,25,189,63,55,43,28,17,7,6,0.8,0.6
2022-05-27T13:00:00,2432A,112.155,32.0197,襄阳市,襄城运动路,细颗粒物(PM2.5),112,132,82,84,43,178,91,70,70,38,31,30,18,1.0,0.9
2022-05-27T13:00:00,2433A,112.1392,32.0564,襄阳市,樊城新华路,细颗粒物(PM2.5),130,134,83,99,45,186,84,97,58,32,27,20,14,0.9,0.8
2022-05-27T13:00:00,2434A,112.1825,32.1142,襄阳市,高新管委会,细颗粒物(PM2.5),102,117,89,76,50,171,101,72,66,25,30,13,10,0.9,0.8
2022-05-27T13:00:00,2435A,112.2106,32.0903,襄阳市,襄州航空路,,,110,78,74,42,181,110,83,83,,20,,7,0.8,0.8
2022-05-27T13:00:00,2436A,114.8938,30.3994,鄂州市,市政府,颗粒物(PM10),54,57,67,28,35,158,148,84,84,14,21,8,8,0.9,1
2022-05-27T13:00:00,2437A,114.8989,30.3714,鄂州市,赵家坝,颗粒物(PM10),54,58,71,34,39,161,135,82,82,19,19,6,6,0.5,0.6
2022-05-27T13:00:00,2439A,112.2014,31.0481,荆门市,竹园小学,颗粒物(PM10),63,75,81,24,31,179,130,112,72,8,18,8,13,0.4,0.5
2022-05-27T13:00:00,2440A,112.1969,30.9891,荆门市,掇刀,颗粒物(PM10),62,73,75,26,33,166,111,95,54,13,25,8,8,0.5,0.6
2022-05-27T13:00:00,2441A,112.2213,31.0386,荆门市,石化一小,颗粒物(PM10),56,61,76,26,29,170,120,95,56,9,24,9,15,0.3,0.4
2022-05-27T13:00:00,2443A,113.9153,30.9285,孝感市,文化路,颗粒物(PM10),80,110,59,38,29,132,119,79,79,20,13,4,4,0.7,0.7
2022-05-27T13:00:00,2444A,113.942,30.9075,孝感市,东城区,颗粒物(PM10),68,86,63,33,28,127,114,73,73,22,17,5,4,0.7,0.6
2022-05-27T13:00:00,2446A,114.9028,30.4742,黄冈市,职工中心,颗粒物(PM10),59,67,58,35,33,166,133,77,77,16,17,6,6,0.9,0.8
2022-05-27T13:00:00,2447A,114.3175,29.8142,咸宁市,森林公园(对照点),颗粒物(PM10),53,55,47,31,29,153,137,137,101,2,2,6,6,0.6,0.6
2022-05-27T13:00:00,2448A,114.3107,29.8454,咸宁市,市发改委,颗粒物(PM10),85,119,59,39,32,166,142,80,80,11,9,8,6,0.6,0.5
2022-05-27T13:00:00,2449A,114.2936,29.8566,咸宁市,咸安区政府,颗粒物(PM10),83,115,62,36,27,167,132,97,97,12,10,6,5,0.7,0.7
2022-05-27T13:00:00,2451A,113.3583,31.7275,随州市,市委党校,,,63,49,,25,141,116,70,70,13,18,6,8,1.0,0.8
2022-05-27T13:00:00,2452A,113.3833,31.6908,随州市,市林业局,,42,42,45,27,24,146,120,70,70,8,13,5,5,0.1,0.4
