timepoint,stationcode,longitude,latitude,area,positionname,primarypollutant,aqi,pm10,pm10_24h,pm2_5,pm2_5_24h,o3,o3_24h,o3_8h,o3_8h_24h,no2,no2_24h,so2,so2_24h,co,co_24h
2022-07-23T21:00:00,1001A,116.3621,39.8784,北京市,万寿西宫,,34,26,19,15,10,149,107,136,132,23,11,3,3,0.5,0.4
2022-07-23T21:00:00,1002A,116.2202,40.2915,北京市,定陵(对照点),,30,14,17,6,7,153,95,137,132,4,4,3,3,0.2,0.3
2022-07-23T21:00:00,1003A,116.4174,39.9289,北京市,东四,,45,27,20,14,11,175,142,158,157,14,12,1,1,0.4,0.3
2022-07-23T21:00:00,1004A,116.4072,39.8863,北京市,天坛,,30,21,18,12,10,146,94,131,126,14,12,3,3,0.3,0.3
2022-07-23T21:00:00,1005A,116.462,39.9365,北京市,农展馆,,42,24,20,12,11,164,134,150,148,20,16,1,2,0.4,0.3
2022-07-23T21:00:00,1006A,116.3392,39.9295,北京市,官园,,41,17,23,12,11,166,131,156,155,18,14,3,2,0.3,0.3
2022-07-23T21:00:00,1007A,116.2878,39.9611,北京市,海淀万柳,,32,29,22,13,11,149,101,138,135,2,22,3,3,0.4,0.4
2022-07-23T21:00:00,1008A,116.6636,40.135,北京市,顺义新城,,35,35,20,13,9,159,105,128,127,19,9,3,3,0.4,0.3
2022-07-23T21:00:00,1009A,116.6275,40.3275,北京市,怀柔镇,,35,31,18,18,10,155,111,136,136,14,9,3,2,0.4,0.4
2022-07-23T21:00:00,1010A,116.2296,40.217,北京市,昌平镇,,29,15,18,7,9,146,90,131,125,7,7,3,2,0.2,0.3
2022-07-23T21:00:00,1011A,116.3966,39.9821,北京市,奥体中心,,42,26,23,11,12,158,133,146,146,28,19,3,3,0,0.2
2022-07-23T21:00:00,1012A,116.184,39.9136,北京市,古城,,45,45,25,16,11,141,105,136,132,28,13,3,3,0.4,0.3
2022-07-23T21:00:00,1015A,117.1444,39.1661,天津市,勤俭道,,42,28,26,12,13,164,133,156,151,19,11,8,9,0.4,0.4
2022-07-23T21:00:00,1017A,117.237,39.1082,天津市,大直沽八号路,,45,30,24,15,12,162,141,155,154,12,11,8,8,0.5,0.6
2022-07-23T21:00:00,1018A,117.202,39.0927,天津市,前进道,,44,24,25,12,13,163,140,158,155,14,14,5,6,0.5,0.6
2022-07-23T21:00:00,1019A,117.1837,39.2133,天津市,淮河道,,44,27,28,10,13,177,139,168,162,20,14,7,7,0.5,0.5
2022-07-23T21:00:00,1021A,117.307,39.0877,天津市,跃进路,,43,30,26,20,13,166,135,157,152,21,15,6,6,0.4,0.4
2022-07-23T21:00:00,1023A,117.707,39.0343,天津市,第四大街,,35,32,34,12,15,169,111,150,148,33,20,6,6,0.7,0.8
2022-07-23T21:00:00,1024A,117.457,38.8394,天津市,永明路,,43,21,22,10,12,172,136,163,161,13,12,6,6,0.4,0.5
2022-07-23T21:00:00,1026A,117.764,39.1587,天津市,汉北路,,35,18,24,8,14,169,109,159,153,24,10,6,6,0.5,0.6
2022-07-23T21:00:00,1027A,117.157,38.9194,天津市,团泊洼(对照点),,44,19,21,10,12,178,140,171,165,14,13,7,6,0.6,0.7
2022-07-23T21:00:00,1029A,114.4422,38.0444,石家庄市,职工医院,,,,,,,,,,,,,,,,
2022-07-23T21:00:00,1030A,114.6063,38.0266,石家庄市,高新区,,41,39,27,18,19,190,129,173,168,16,18,2,2,0.4,0.5
2022-07-23T21:00:00,1031A,114.4898,38.1328,石家庄市,西北水源,,38,29,23,23,17,175,120,164,159,15,12,5,4,0.4,0.5
2022-07-23T21:00:00,1032A,114.4586,38.0058,石家庄市,西南高教,,42,42,21,13,15,160,96,149,140,23,11,3,3,0.6,0.6
2022-07-23T21:00:00,1033A,114.5331,38.0178,石家庄市,世纪公园,,38,38,33,23,18,169,119,156,152,15,10,7,7,0.4,0.4
2022-07-23T21:00:00,1034A,114.509,38.0457,石家庄市,人民会堂,,37,28,22,12,12,176,117,161,156,12,7,7,6,0.5,0.5
2022-07-23T21:00:00,1035A,114.3524,37.8911,石家庄市,封龙山(对照点),,41,41,16,28,12,134,130,131,119,7,6,5,5,0.6,0.5
2022-07-23T21:00:00,1037A,118.131,39.6363,唐山市,雷达站,,40,39,48,14,18,180,127,169,161,17,17,5,3,1.0,0.6
2022-07-23T21:00:00,1038A,118.1725,39.6334,唐山市,物资局,,38,34,45,20,22,173,119,162,154,19,16,4,5,0.5,0.7
2022-07-23T21:00:00,1040A,118.1705,39.6506,唐山市,十二中,,36,29,35,18,14,177,115,161,153,20,17,2,4,0.7,0.7
2022-07-23T21:00:00,1041A,118.1869,39.622,唐山市,小山,,38,33,35,18,25,176,119,161,152,12,13,3,5,0.4,0.6
2022-07-23T21:00:00,1042A,119.5134,39.8207,秦皇岛市,北戴河环保局,,,27,37,6,7,125,,111,109,9,18,2,3,0.3,0.4
2022-07-23T21:00:00,1043A,119.7493,40.0116,秦皇岛市,第一关,,,23,24,9,10,108,35,96,81,43,36,,10,0.4,0.3
2022-07-23T21:00:00,1044A,119.5897,39.9499,秦皇岛市,监测站,,32,23,28,16,12,118,101,102,96,4,11,5,7,0.2,0.2
2022-07-23T21:00:00,1046A,119.5251,39.9041,秦皇岛市,建设大厦,,34,20,24,8,6,126,106,105,100,8,23,1,3,0.4,0.4
2022-07-23T21:00:00,1047A,114.5129,36.61763,邯郸市,环保局,,,,,,,,,,,,,,,,
2022-07-23T21:00:00,1048A,114.5302,36.6116,邯郸市,东污水处理厂,,43,39,23,20,12,163,137,153,152,12,5,20,5,1.2,0.9
2022-07-23T21:00:00,1049A,114.4918,36.5713,邯郸市,矿院,,,,21,16,11,166,133,152,151,14,8,6,5,1.0,0.8
2022-07-23T21:00:00,1050A,114.484,36.6133,邯郸市,丛台公园,,45,40,31,15,12,165,141,151,151,11,8,7,4,0.8,0.6
2022-07-23T21:00:00,1051A,115.493,38.8632,保定市,游泳馆,,43,23,18,8,10,164,137,152,151,22,12,6,5,0.3,0.2
2022-07-23T21:00:00,1052A,115.5213,38.8959,保定市,华电二区,,50,50,26,22,12,163,139,154,154,15,7,5,5,0.3,0.4
2022-07-23T21:00:00,1053A,115.4713,38.9108,保定市,接待中心,,47,23,19,23,11,167,148,158,158,15,10,6,5,0.6,0.6
2022-07-23T21:00:00,1054A,115.4612,38.8416,保定市,地表水厂,,47,39,27,16,15,163,149,154,154,11,9,6,5,0.4,0.4
2022-07-23T21:00:00,1055A,115.4323,38.8697,保定市,胶片厂,,47,25,18,12,12,171,150,160,160,13,10,5,4,0.4,0.4
2022-07-23T21:00:00,1056A,115.5086,38.8639,保定市,监测站,,45,44,23,18,16,170,143,158,158,16,9,8,7,0.4,0.3
2022-07-23T21:00:00,1057A,114.8883,40.8336,张家口市,人民公园,,34,28,26,10,8,156,106,145,137,12,12,4,5,0.2,0.2
2022-07-23T21:00:00,1059A,114.8687,40.8042,张家口市,五金库,,32,24,23,17,14,148,102,138,131,16,14,7,7,0.3,0.3
2022-07-23T21:00:00,1060A,114.8902,40.762,张家口市,世纪豪园,,42,36,31,29,24,157,107,148,142,16,13,5,5,0.4,0.3
2022-07-23T21:00:00,1061A,114.8916,40.8661,张家口市,北泵房(对照点),,36,36,27,21,14,155,101,141,134,12,12,5,5,0.6,0.6
2022-07-23T21:00:00,1062A,117.9531,40.9081,承德市,铁路,,41,41,22,16,12,148,63,134,126,35,17,4,4,0.5,0.3
2022-07-23T21:00:00,1063A,117.9392,40.9763,承德市,中国银行,,29,29,13,14,11,152,55,132,124,24,11,5,5,0.4,0.3
2022-07-23T21:00:00,1064A,117.9503,40.928,承德市,开发区,,31,31,27,14,12,155,78,137,131,27,16,4,4,0.4,0.4
2022-07-23T21:00:00,1065A,117.8051,40.9655,承德市,文化中心,,46,46,19,15,10,140,33,128,108,52,16,6,6,0.5,0.4
2022-07-23T21:00:00,1066A,117.9268,41.0026,承德市,离宫(对照点),,34,34,20,20,14,135,24,108,97,35,10,1,1,0.3,0.3
2022-07-23T21:00:00,1067A,116.6708,39.5111,廊坊市,药材公司,,32,32,17,16,12,161,99,150,141,24,15,6,5,0.4,0.3
2022-07-23T21:00:00,1068A,116.7214,39.5589,廊坊市,开发区,,40,28,20,12,12,171,128,159,156,28,19,8,8,0.4,0.3
2022-07-23T21:00:00,1070A,116.7244,39.5269,廊坊市,北华航天学院,,43,43,27,13,16,167,134,156,154,23,19,6,6,0.3,0.2
2022-07-23T21:00:00,1071A,116.8842,38.2991,沧州市,沧县城建局,,35,33,28,12,11,152,109,144,139,18,13,8,6,0.3,0.4
2022-07-23T21:00:00,1072A,116.8584,38.3254,沧州市,电视转播站,,42,27,25,8,12,160,132,150,148,15,12,7,7,0.2,0.4
2022-07-23T21:00:00,1073A,116.8709,38.3228,沧州市,市环保局,,41,26,24,8,16,163,129,154,150,13,12,5,6,0.2,0.3
2022-07-23T21:00:00,1074A,115.6838,37.7541,衡水市,电机北厂,,41,27,15,16,8,162,131,147,146,11,7,3,5,0.3,0.2
2022-07-23T21:00:00,1075A,115.6303,37.7316,衡水市,市监测站,,40,34,26,10,9,159,126,146,143,12,7,5,5,0.4,0.4
2022-07-23T21:00:00,1077A,114.4704,37.0886,邢台市,达活泉,,46,46,24,16,11,171,137,151,151,17,6,6,6,0.4,0.3
2022-07-23T21:00:00,1078A,114.5062,37.0349,邢台市,邢师高专,,39,36,21,13,10,160,124,145,144,20,8,7,6,0.3,0.3
2022-07-23T21:00:00,1079A,114.5237,37.0851,邢台市,路桥公司,,39,35,25,17,12,161,123,147,146,16,5,8,8,0.4,0.4
2022-07-23T21:00:00,1080A,114.4725,37.0719,邢台市,市环保局,,47,47,26,19,14,173,133,151,151,18,7,6,6,0.4,0.4
2022-07-23T21:00:00,1081A,112.5139,37.8873,太原市,尖草坪,颗粒物(PM10),51,52,55,29,35,253,158,210,210,27,24,15,9,0.8,0.7
2022-07-23T21:00:00,1083A,112.434,38.0108,太原市,上兰(对照点),,,,,,,,,,,,,,,,
2022-07-23T21:00:00,1084A,112.469,37.7124,太原市,晋源,,49,49,59,32,36,217,106,191,184,60,26,17,11,0.8,0.7
2022-07-23T21:00:00,1085A,112.5583,37.7394,太原市,小店,,48,43,57,20,34,231,153,203,202,37,32,12,11,0.6,0.6
2022-07-23T21:00:00,1086A,112.5369,37.8692,太原市,桃园,臭氧1小时,59,51,55,26,34,249,167,210,210,24,21,13,9,0.8,0.7
2022-07-23T21:00:00,1087A,112.57,37.8195,太原市,坞城,臭氧1小时,62,48,47,24,32,243,169,206,206,24,17,12,9,0.6,0.6
2022-07-23T21:00:00,1088A,112.549,37.9854,太原市,南寨,,50,50,49,27,27,214,121,180,180,25,27,10,9,1.1,0.9
2022-07-23T21:00:00,1089A,112.4701,37.782,太原市,金胜,,,,,,,,,,,,,,,,
2022-07-23T21:00:00,1090A,111.6507,40.7517,呼和浩特市,呼市一监,颗粒物(PM10),69,88,40,14,19,170,124,156,152,27,21,7,7,0.4,0.4
2022-07-23T21:00:00,1091A,111.6572,40.8033,呼和浩特市,小召,颗粒物(PM10),57,63,37,12,20,163,124,150,147,33,21,13,9,0.5,0.4
2022-07-23T21:00:00,1094A,111.7516,40.8369,呼和浩特市,如意水处理厂,,44,32,39,11,20,170,140,158,156,26,24,12,8,0.6,0.4
2022-07-23T21:00:00,1095A,111.7276,40.8062,呼和浩特市,二十九中,,48,48,33,12,21,157,127,146,144,32,23,9,9,0.4,0.3
2022-07-23T21:00:00,1096A,111.5512,40.7866,呼和浩特市,工大金川校区,,46,46,43,10,21,169,129,153,151,27,23,8,7,0.4,0.4
2022-07-23T21:00:00,1097A,111.717,40.7612,呼和浩特市,化肥厂生活区,,41,40,42,13,20,165,129,154,151,30,20,7,6,0.5,0.4
2022-07-23T21:00:00,1098A,123.6836,41.9339,沈阳市,森林路(对照点),,,,,,,,,,,,,,,,
2022-07-23T21:00:00,1099A,123.505,41.7406,沈阳市,浑南东路,,28,28,34,15,17,92,52,78,71,18,23,6,10,1.0,0.9
2022-07-23T21:00:00,1100A,123.4231,41.6989,沈阳市,新秀街,,33,33,36,14,14,86,52,72,65,21,33,6,9,1.0,0.8
2022-07-23T21:00:00,1102A,123.5903,41.8411,沈阳市,东陵路,颗粒物(PM10),70,90,34,11,14,86,52,68,64,16,16,9,11,0.8,0.7
2022-07-23T21:00:00,1103A,123.4264,41.8467,沈阳市,陵东街,,22,22,32,9,16,86,56,62,59,27,31,4,6,0.8,0.9
2022-07-23T21:00:00,1104A,123.4114,41.7653,沈阳市,文化路,,29,29,42,14,21,104,61,84,78,24,29,8,10,0.9,1
2022-07-23T21:00:00,1105A,123.4678,41.7867,沈阳市,小河沿,,20,20,30,12,17,88,50,74,66,21,29,5,8,0.9,1
2022-07-23T21:00:00,1106A,123.4017,41.7972,沈阳市,太原街,,29,29,35,14,21,93,54,73,66,28,33,5,8,0.7,0.8
2022-07-23T21:00:00,1108A,123.3783,41.9228,沈阳市,京沈街,,20,2,35,9,16,92,63,79,77,22,26,9,13,0.6,0.8
2022-07-23T21:00:00,1109A,121.612,38.9741,大连市,甘井子,,19,16,30,13,21,108,52,96,80,38,24,4,10,0.6,0.6
2022-07-23T21:00:00,1110A,121.565,38.9511,大连市,周水子,,,8,36,10,22,104,81,92,82,,17,23,6,0.8,0.3
2022-07-23T21:00:00,1111A,121.5637,38.8845,大连市,星海三站,,29,20,23,20,25,142,73,124,104,23,19,5,5,0.5,0.4
2022-07-23T21:00:00,1112A,121.6302,38.9117,大连市,青泥洼桥,,22,10,22,6,19,111,68,105,88,15,14,6,6,0.6,0.6
2022-07-23T21:00:00,1113A,121.6251,38.8638,大连市,傅家庄,,,16,21,9,14,140,,118,101,6,5,8,8,0.4,0.4
2022-07-23T21:00:00,1114A,121.5213,38.8661,大连市,七贤岭,,38,16,22,8,14,143,120,129,118,7,8,7,7,0.8,0.8
2022-07-23T21:00:00,1115A,121.2529,38.8061,大连市,旅顺,,20,13,20,6,15,114,62,103,87,14,10,4,4,0.7,0.7
2022-07-23T21:00:00,1116A,121.7485,39.1311,大连市,金州,,25,10,23,8,16,101,78,97,89,7,10,6,6,0.2,0.5
2022-07-23T21:00:00,1117A,121.7811,39.0496,大连市,开发区,,27,20,28,6,18,126,86,114,94,16,21,5,8,0.8,0.9
2022-07-23T21:00:00,1118A,121.9762,39.0631,大连市,双D港,,20,10,17,6,12,121,63,114,84,12,13,8,8,0.5,0.6
2022-07-23T21:00:00,1119A,125.3325,43.9166,长春市,食品厂,颗粒物(PM10),51,52,37,11,11,87,72,77,70,18,22,3,4,0.5,0.5
2022-07-23T21:00:00,1120A,125.2863,43.9027,长春市,客车厂,,50,50,33,8,9,90,81,79,74,16,30,3,4,0.4,0.5
2022-07-23T21:00:00,1121A,125.2841,43.8463,长春市,邮电学院,,38,38,28,10,11,81,81,71,64,10,18,4,5,0.4,0.5
2022-07-23T21:00:00,1122A,125.3716,43.8772,长春市,劳动公园,,50,50,39,11,14,86,86,69,69,10,27,3,3,0.4,0.5
2022-07-23T21:00:00,1123A,125.3297,43.8805,长春市,园林处,颗粒物(PM10),51,52,33,8,10,81,70,78,72,18,24,3,4,0.4,0.5
2022-07-23T21:00:00,1124A,125.4605,43.79,长春市,净月潭,,29,29,16,4,3,67,66,61,43,4,4,6,7,0.4,0.4
2022-07-23T21:00:00,1125A,125.7194,43.515,长春市,甩湾子(对照点),,,,,,,,,,,,,,,,
2022-07-23T21:00:00,1126A,125.3863,43.8447,长春市,经开区环卫处,,30,30,27,9,10,79,79,68,67,10,26,4,4,0.4,0.5
2022-07-23T21:00:00,1127A,125.245,43.7783,长春市,高新区管委会,,28,27,36,5,12,88,88,76,70,8,26,4,4,0.3,0.4
2022-07-23T21:00:00,1128A,125.1761,43.8325,长春市,岱山公园,,37,37,42,7,11,86,86,74,65,9,37,4,5,0.3,0.5
2022-07-23T21:00:00,1129A,126.5422,45.755,哈尔滨市,岭北(对照点),,20,20,16,13,14,96,58,91,81,16,15,8,9,0.5,0.5
2022-07-23T21:00:00,1130A,126.561,45.8167,哈尔滨市,松北商大,,23,23,28,8,9,89,57,80,71,11,18,5,5,0.7,0.7
2022-07-23T21:00:00,1131A,126.979,45.5419,哈尔滨市,阿城会宁,,44,44,36,7,9,66,42,61,52,15,16,10,10,0.3,0.3
2022-07-23T21:00:00,1132A,126.599,45.7222,哈尔滨市,南岗学府路,,17,17,21,9,11,94,48,87,78,14,14,8,10,0.4,0.4
2022-07-23T21:00:00,1133A,126.689,45.7733,哈尔滨市,太平宏伟公园,颗粒物(PM10),52,54,34,10,11,88,49,84,74,20,17,9,11,0.5,0.4
2022-07-23T21:00:00,1134A,126.635,45.7667,哈尔滨市,道外承德广场,,31,31,42,10,11,87,47,79,68,21,23,10,10,0.4,0.5
2022-07-23T21:00:00,1135A,126.685,45.7319,哈尔滨市,香坊红旗大街,,28,28,27,6,8,84,48,81,72,17,18,9,11,0.4,0.4
2022-07-23T21:00:00,1136A,126.6411,45.7258,哈尔滨市,动力和平路,,,23,32,,,85,45,79,71,18,17,5,6,0.6,0.6
2022-07-23T21:00:00,1137A,126.593,45.7478,哈尔滨市,道里建国路,,31,31,29,12,10,95,52,90,80,20,19,11,14,0.6,0.6
2022-07-23T21:00:00,1138A,126.615,45.61,哈尔滨市,平房东轻厂,,34,34,30,13,12,86,52,82,68,14,19,3,6,0.4,0.5
2022-07-23T21:00:00,1139A,126.595,45.9855,哈尔滨市,呼兰师专,,34,34,30,9,9,74,49,72,65,17,15,9,9,0.5,0.5
2022-07-23T21:00:00,1140A,126.6206,45.6842,哈尔滨市,省农科院,,31,31,34,9,8,94,46,86,76,15,12,11,11,0.5,0.2
2022-07-23T21:00:00,1141A,121.4,31.238,上海市,普陀,颗粒物(PM10),52,53,47,24,31,207,126,158,124,20,13,3,3,0.6,0.6
2022-07-23T21:00:00,1142A,121.478,31.2036,上海市,十五厂,,50,50,39,25,34,170,107,123,108,20,18,1,2,0.5,0.5
2022-07-23T21:00:00,1143A,121.467,31.3008,上海市,虹口,,46,46,43,20,27,196,104,131,108,26,18,3,2,0.5,0.4
2022-07-23T21:00:00,1144A,121.412,31.1654,上海市,徐汇上师大,,42,42,48,22,31,178,104,134,111,32,23,3,4,0.4,0.5
2022-07-23T21:00:00,1145A,121.536,31.2659,上海市,杨浦四漂,,39,39,38,22,34,192,119,137,118,17,13,4,3,0.7,0.6
2022-07-23T21:00:00,1146A,120.978,31.0935,上海市,青浦淀山湖(对照点),,,,,,,,,,,,,,,,
2022-07-23T21:00:00,1147A,121.425,31.2261,上海市,静安监测站,,43,43,50,21,32,182,107,131,111,26,20,3,2,0.7,0.4
2022-07-23T21:00:00,1148A,121.703,31.1907,上海市,浦东川沙,颗粒物(PM10),68,85,48,30,37,183,63,122,96,45,19,4,3,0.2,0.2
2022-07-23T21:00:00,1149A,121.533,31.2284,上海市,浦东新区监测站,,43,41,52,30,39,199,116,129,116,19,17,5,8,0.6,0.6
2022-07-23T21:00:00,1150A,121.577,31.2071,上海市,浦东张江,,38,38,39,21,33,205,95,162,100,21,18,4,4,0.9,1
2022-07-23T21:00:00,1151A,118.8086,32.1065,南京市,迈皋桥,,36,36,31,7,11,109,102,105,105,9,14,2,2,0.3,0.4
2022-07-23T21:00:00,1152A,118.7538,32.0551,南京市,草场门,,32,19,28,12,14,113,102,107,107,11,14,1,2,0.5,0.6
2022-07-23T21:00:00,1153A,118.7794,32.0745,南京市,山西路,,,24,33,17,22,123,,120,120,5,11,3,4,0.3,0.4
2022-07-23T21:00:00,1154A,118.7752,32.0023,南京市,中华门,,33,22,32,7,10,116,105,109,109,7,14,3,4,0.9,1
2022-07-23T21:00:00,1155A,118.8109,32.0309,南京市,瑞金路,,,,32,9,17,121,112,114,114,6,13,3,4,0.2,0.3
2022-07-23T21:00:00,1156A,118.7997,32.0754,南京市,玄武湖,,,27,30,18,18,109,104,105,105,,7,5,4,0.6,0.7
2022-07-23T21:00:00,1157A,118.6414,32.0931,南京市,浦口,,29,22,35,12,13,109,92,102,101,10,15,2,2,0.4,0.5
2022-07-23T21:00:00,1158A,118.7356,31.9996,南京市,奥体中心,,33,22,34,17,15,118,105,110,110,13,16,3,4,0.3,0.4
2022-07-23T21:00:00,1159A,118.9125,32.1028,南京市,仙林大学城,,29,22,30,14,16,123,90,112,107,22,14,13,6,1.5,0.8
2022-07-23T21:00:00,1160A,120.561,31.2472,苏州市,上方山(对照点),,46,46,55,27,30,137,113,126,107,25,19,8,6,0.7,0.6
2022-07-23T21:00:00,1161A,120.628,31.2864,苏州市,南门,,,,,,,,,,,,,,,,
2022-07-23T21:00:00,1162A,120.591,31.3019,苏州市,彩香,,43,43,37,26,40,153,122,143,121,18,14,7,6,0.6,0.5
2022-07-23T21:00:00,1163A,120.596,31.3264,苏州市,轧钢厂,,35,29,40,17,24,144,111,141,113,22,14,5,5,0.5,0.5
2022-07-23T21:00:00,1164A,120.613,31.2703,苏州市,吴中区,,43,43,44,15,27,156,120,148,117,20,20,4,6,0.6,0.5
2022-07-23T21:00:00,1165A,120.543,31.2994,苏州市,苏州新区,,36,29,35,15,33,149,115,125,123,14,9,7,6,0.9,0.8
2022-07-23T21:00:00,1166A,120.669,31.3097,苏州市,苏州工业园区,,43,43,38,22,25,145,108,140,104,23,17,8,7,0.8,0.8
2022-07-23T21:00:00,1167A,120.641,31.3708,苏州市,相城区,,37,31,44,17,33,161,118,133,119,15,18,8,8,0.6,0.6
2022-07-23T21:00:00,1168A,120.9098,31.9663,南通市,狼山街道,,,11,43,,25,162,96,138,127,11,22,7,8,0.6,0.7
2022-07-23T21:00:00,1169A,120.86,32.0005,南通市,虹桥,,31,24,46,15,42,158,97,143,129,14,22,10,11,0.6,0.7
2022-07-23T21:00:00,1170A,120.87,32.02,南通市,城中,,,18,45,17,38,147,,138,126,12,20,8,7,0.6,0.7
2022-07-23T21:00:00,1171A,120.94,31.93,南通市,星湖花园,,28,28,41,12,28,153,77,134,106,29,23,6,7,0.7,0.8
2022-07-23T21:00:00,1172A,120.81,32.0417,南通市,紫琅学院,,33,26,57,12,28,169,103,154,138,4,13,3,4,0.7,0.8
2022-07-23T21:00:00,1173A,119.176,34.5885,连云港市,市环境监测站,,19,19,30,12,22,146,59,138,72,18,11,3,2,0.6,0.7
2022-07-23T21:00:00,1177A,117.179,34.2761,徐州市,黄河新村,,31,31,16,20,10,116,91,110,106,19,12,6,6,0.6,0.5
2022-07-23T21:00:00,1178A,117.1918,34.2384,徐州市,淮塔,,,,16,19,12,118,,116,116,,7,,6,,0.4
2022-07-23T21:00:00,1180A,117.256,34.2153,徐州市,新城区,,42,42,23,17,8,110,85,104,101,16,8,6,6,0.5,0.5
2022-07-23T21:00:00,1181A,117.244,34.2911,徐州市,桃园路,,36,36,19,12,4,118,87,111,108,19,8,10,10,0.7,0.6
2022-07-23T21:00:00,1182A,117.2933,34.2778,徐州市,农科院,,31,31,13,9,2,119,87,114,110,14,7,4,4,0.4,0.4
2022-07-23T21:00:00,1186A,119.389,32.3761,扬州市,邗江监测站,,31,24,44,16,24,157,99,110,108,7,13,7,8,0.6,0.7
2022-07-23T21:00:00,1188A,120.269,31.4867,无锡市,雪浪,,32,31,38,17,24,151,101,136,134,10,7,12,11,0.8,0.6
2022-07-23T21:00:00,1189A,120.275,31.6219,无锡市,黄巷,,42,42,40,17,22,146,92,138,132,24,18,9,8,0.7,0.6
2022-07-23T21:00:00,1190A,120.294,31.56,无锡市,曹张,,42,42,38,19,25,144,91,128,126,20,14,7,6,1.0,0.8
2022-07-23T21:00:00,1191A,120.242,31.5031,无锡市,漆塘,,,34,35,17,21,156,,145,145,12,9,6,5,0.9,0.7
2022-07-23T21:00:00,1192A,120.3489,31.5863,无锡市,东亭,,31,31,46,14,29,149,89,135,131,20,19,10,9,0.9,0.7
2022-07-23T21:00:00,1193A,120.354,31.5475,无锡市,旺庄,,,44,41,19,25,157,102,142,139,19,19,12,11,,0.8
2022-07-23T21:00:00,1194A,120.245,31.5631,无锡市,荣巷,,31,31,30,19,24,141,87,130,127,11,5,16,12,1.3,0.7
2022-07-23T21:00:00,1195A,120.299,31.6817,无锡市,堰桥,,34,34,58,12,33,169,94,135,129,9,17,7,8,0.6,0.8
2022-07-23T21:00:00,1196A,119.9633,31.762,常州市,市监测站,,32,32,33,12,15,144,96,129,122,14,15,7,7,0.6,0.6
2022-07-23T21:00:00,1200A,119.9468,31.7069,常州市,武进监测站,,40,40,34,25,23,154,101,142,132,14,13,7,2,0.8,0.8
2022-07-23T21:00:00,1201A,119.9255,31.9087,常州市,安家,,42,38,33,29,31,155,106,145,135,11,14,6,6,0.7,0.8
2022-07-23T21:00:00,1203A,119.6707,32.1875,镇江市,新区办事处,,34,21,38,14,22,156,106,139,123,17,24,4,4,0.6,0.8
2022-07-23T21:00:00,1204A,119.4974,32.1968,镇江市,职教中心,,34,21,36,10,19,159,106,135,122,9,18,4,6,0.5,0.7
2022-07-23T21:00:00,1205A,119.4303,32.1328,镇江市,丹徒区监测站,,38,21,38,26,28,168,110,139,129,13,19,2,4,0.6,0.8
2022-07-23T21:00:00,1206A,119.905,32.4878,泰州市,公园路,,28,19,43,14,29,114,89,101,95,8,11,6,8,0.6,0.9
2022-07-23T21:00:00,1207A,119.9189,32.4625,泰州市,莲花,,30,12,40,14,32,126,95,108,102,10,13,8,9,0.6,0.9
2022-07-23T21:00:00,1209A,119.888,32.4639,泰州市,留学生创业园,,31,25,38,11,26,131,99,116,108,10,14,6,8,0.6,0.9
2022-07-23T21:00:00,1210A,119.036,33.5981,淮安市,钵池山,,31,29,24,16,19,120,98,120,104,8,9,8,8,0.6,0.7
2022-07-23T21:00:00,1211A,119.007,33.575,淮安市,北京南路,,29,24,26,15,19,137,91,112,99,13,12,7,6,0.6,0.7
2022-07-23T21:00:00,1212A,118.989,33.6067,淮安市,市监测站,,29,29,29,12,16,134,87,112,97,16,13,6,6,0.6,0.7
2022-07-23T21:00:00,1213A,119.135,33.5039,淮安市,楚州区监测站,,27,20,26,9,15,112,84,100,99,13,9,6,6,0.5,0.6
2022-07-23T21:00:00,1214A,119.0186,33.6297,淮安市,淮阴区监测站,,29,29,25,18,20,124,90,110,96,10,9,7,7,0.5,0.6
2022-07-23T21:00:00,1215A,120.118,33.4022,盐城市,盐城电厂,,34,31,41,18,30,144,106,140,113,14,12,5,5,0.4,0.6
2022-07-23T21:00:00,1216A,120.156,33.3942,盐城市,市监测站,,35,28,34,9,20,141,111,138,115,9,8,6,6,0.4,0.5
2022-07-23T21:00:00,1218A,120.2144,33.38,盐城市,开发区管委会,,36,14,32,15,29,135,113,130,106,10,12,7,7,0.3,0.5
2022-07-23T21:00:00,1220A,118.293,33.9528,宿迁市,宿迁学院,,32,23,16,16,13,119,101,114,111,8,6,3,3,0.6,0.7
2022-07-23T21:00:00,1221A,118.2442,33.9592,宿迁市,宿迁中学,,28,24,17,13,10,114,89,106,101,10,6,1,2,0.6,0.6
2022-07-23T21:00:00,1223A,120.2072,30.2111,杭州市,滨江,,32,32,41,18,22,135,54,104,82,20,27,5,5,0.5,0.7
2022-07-23T21:00:00,1224A,120.0633,30.2747,杭州市,西溪,,29,22,37,20,17,95,35,81,65,13,17,7,7,0.5,0.5
2022-07-23T21:00:00,1225A,119.026,29.635,杭州市,千岛湖(对照点),,,,,,,,,,,,,,,,
2022-07-23T21:00:00,1226A,120.3461,30.3153,杭州市,下沙,,32,32,50,19,25,126,58,105,82,12,32,5,3,0.6,0.7
2022-07-23T21:00:00,1227A,120.1269,30.2456,杭州市,卧龙桥,,23,23,32,14,21,101,56,82,65,8,13,4,4,0.5,0.6
2022-07-23T21:00:00,1228A,120.1903,30.2692,杭州市,浙江农大,,24,24,34,15,21,125,58,103,83,11,23,4,4,0.5,0.7
2022-07-23T21:00:00,1229A,120.157,30.2897,杭州市,朝晖五区,,,,,,,,,,,,,,,,
2022-07-23T21:00:00,1230A,120.1197,30.3119,杭州市,和睦小学,,35,35,41,11,21,118,45,100,77,27,27,6,6,0.6,0.7
2022-07-23T21:00:00,1231A,120.3019,30.4183,杭州市,临平镇,,44,44,46,13,17,130,101,109,89,18,29,4,4,0.6,0.7
2022-07-23T21:00:00,1232A,120.2697,30.1819,杭州市,城厢镇,,31,31,42,19,28,129,47,102,77,21,21,6,6,0.5,0.6
2022-07-23T21:00:00,1233A,120.0883,30.1808,杭州市,云栖,,25,25,32,13,17,108,31,92,62,15,11,6,6,0.4,0.5
2022-07-23T21:00:00,1234A,121.8358,29.911,宁波市,区环保大楼,,41,41,30,25,20,195,98,159,148,23,15,13,9,0.7,0.7
2022-07-23T21:00:00,1235A,121.56,29.82,宁波市,万里学院,,48,46,33,33,21,167,114,144,143,17,12,9,9,0.6,0.7
2022-07-23T21:00:00,1236A,121.713,29.9572,宁波市,龙赛医院,,41,41,38,22,20,215,123,158,156,7,15,4,5,0.6,0.6
2022-07-23T21:00:00,1239A,121.633,29.7733,宁波市,钱湖水厂,,42,33,25,29,22,156,106,131,129,13,11,6,6,0.5,0.5
2022-07-23T21:00:00,1240A,121.5856,29.8635,宁波市,太古小学,,40,39,29,28,24,170,114,139,137,10,11,7,8,0.8,0.8
2022-07-23T21:00:00,1241A,121.524,29.8674,宁波市,市环境监测中心,细颗粒物(PM2.5),58,52,34,41,25,150,104,128,127,15,14,3,4,0.7,0.6
2022-07-23T21:00:00,1242A,120.634,28.0089,温州市,瓯海,细颗粒物(PM2.5),69,76,55,50,32,172,116,141,127,22,23,6,6,0.8,0.6
2022-07-23T21:00:00,1243A,120.6748,27.9939,温州市,南浦,"颗粒物(PM10),细颗粒物(PM2.5)",58,66,63,41,37,178,112,151,135,20,21,6,6,0.7,0.6
2022-07-23T21:00:00,1244A,120.76,27.9747,温州市,龙湾,颗粒物(PM10),52,54,64,24,29,230,95,181,142,18,22,6,6,0.5,0.6
2022-07-23T21:00:00,1245A,120.6709,28.0167,温州市,市站,细颗粒物(PM2.5),60,55,47,43,33,184,119,144,134,21,23,6,6,0.8,0.6
2022-07-23T21:00:00,1246A,120.598,30.0911,绍兴市,袍江站,,,,,,,,,,,,,,,,
2022-07-23T21:00:00,1247A,120.6053,29.9928,绍兴市,城东开发委,,38,38,37,26,25,143,85,119,106,16,14,6,5,0.5,0.5
2022-07-23T21:00:00,1250A,120.0751,30.8669,湖州市,城西水厂,,35,33,44,24,19,103,103,90,83,34,28,5,4,0.6,0.5
2022-07-23T21:00:00,1252A,120.7436,30.778,嘉兴市,清河小学,,44,35,37,20,23,165,139,126,124,10,20,5,5,0.6,0.5
2022-07-23T21:00:00,1253A,120.726,30.7478,嘉兴市,嘉兴学院,,42,37,40,26,29,160,132,123,120,10,17,3,2,0.5,0.5
2022-07-23T21:00:00,1255A,121.273,28.6459,台州市,黄岩环保大楼,,49,49,50,26,27,179,128,161,159,9,11,6,4,0.5,0.4
2022-07-23T21:00:00,1256A,121.419,28.6542,台州市,台州环保大楼,细颗粒物(PM2.5),82,52,42,60,39,151,121,135,129,13,13,4,5,0.6,0.5
2022-07-23T21:00:00,1257A,121.377,28.5773,台州市,路桥田洋王,颗粒物(PM10),51,51,51,28,27,156,130,147,143,12,16,3,3,0.7,0.6
2022-07-23T21:00:00,1258A,122.122,30.0203,舟山市,定海檀枫,,46,44,32,32,22,188,91,158,137,24,18,1,2,0.4,0.4
2022-07-23T21:00:00,1259A,122.3094,29.9558,舟山市,普陀东港,,42,42,32,28,23,174,85,131,114,20,18,3,3,0.5,0.5
2022-07-23T21:00:00,1260A,122.19,29.9944,舟山市,临城新区,,43,43,34,29,20,199,96,159,140,25,23,4,4,0.4,0.4
2022-07-23T21:00:00,1261A,119.649,29.1131,金华市,四中(停运161031),,,,,,,,,,,,,,,,
2022-07-23T21:00:00,1262A,119.647,29.077,金华市,十五中,,39,38,47,27,26,120,76,117,107,19,15,5,7,0.4,0.4
2022-07-23T21:00:00,1263A,119.686,29.1029,金华市,监测站,,48,48,51,29,25,136,70,128,115,27,13,7,6,0.5,0.5
2022-07-23T21:00:00,1264A,118.8692,28.9398,衢州市,环保大楼,,41,41,48,16,24,116,70,109,97,19,15,8,10,0.4,0.4
2022-07-23T21:00:00,1265A,118.8709,28.9666,衢州市,实验学校,,45,45,43,14,22,109,42,90,73,36,22,5,4,0.3,0.4
2022-07-23T21:00:00,1266A,118.8621,28.9808,衢州市,衢州学院,,40,40,46,11,20,111,68,107,94,26,21,3,9,0.4,0.4
2022-07-23T21:00:00,1267A,119.914,28.4514,丽水市,监测站大楼,,,,,,,,,,,,,,,,
2022-07-23T21:00:00,1268A,119.93,28.4586,丽水市,莲都小学,,28,28,40,11,18,117,41,90,65,16,12,6,6,0.3,0.3
2022-07-23T21:00:00,1269A,119.879,28.4231,丽水市,余庄前,,22,18,31,15,20,108,32,89,66,12,11,6,6,0.3,0.4
2022-07-23T21:00:00,1270A,117.1959,31.7848,合肥市,明珠广场,,36,36,30,24,15,101,57,100,86,37,15,5,5,0.7,0.6
2022-07-23T21:00:00,1271A,117.3072,31.8764,合肥市,三里街,,26,26,27,9,7,101,79,94,92,19,16,8,8,0.7,0.6
2022-07-23T21:00:00,1272A,117.2588,31.8707,合肥市,琥珀山庄,,34,34,25,12,9,102,79,98,95,20,11,5,6,0.7,0.6
2022-07-23T21:00:00,1273A,117.1604,31.9052,合肥市,董铺水库(对照点),,24,19,22,5,9,95,74,92,89,10,8,12,12,0.9,0.8
2022-07-23T21:00:00,1274A,117.25,31.8571,合肥市,长江中路,,32,29,31,22,17,111,94,106,104,7,6,5,5,0.6,0.5
2022-07-23T21:00:00,1275A,117.266,31.9436,合肥市,庐阳区,,28,22,25,19,15,104,82,101,98,8,7,5,5,0.7,0.5
2022-07-23T21:00:00,1276A,117.336,31.8586,合肥市,瑶海区,,29,29,31,13,13,96,85,91,89,14,16,8,9,0.5,0.5
2022-07-23T21:00:00,1277A,117.3027,31.7964,合肥市,包河区,,25,22,25,12,13,98,77,96,92,24,15,8,8,0.5,0.5
2022-07-23T21:00:00,1278A,117.2776,31.7385,合肥市,滨湖新区,,24,24,25,9,9,98,75,94,89,22,14,9,8,0.5,0.5
2022-07-23T21:00:00,1279A,117.1318,31.8403,合肥市,高新区,,25,24,28,14,15,101,80,98,96,16,10,2,3,0.6,0.6
2022-07-23T21:00:00,1280A,119.3903,26.0543,福州市,鼓山(对照点),,,,,,,,,,,,,,,,
2022-07-23T21:00:00,1282A,119.2681,26.0504,福州市,师大,颗粒物(PM10),61,71,46,22,19,157,115,118,118,17,12,3,4,0.4,0.3
2022-07-23T21:00:00,1283A,119.2984,26.1028,福州市,五四北路,颗粒物(PM10),64,78,50,34,23,151,126,108,108,18,16,4,4,0.5,0.4
2022-07-23T21:00:00,1284A,119.2648,26.0768,福州市,杨桥西路,颗粒物(PM10),60,70,51,27,22,151,120,110,110,15,12,4,4,0.4,0.4
2022-07-23T21:00:00,1285A,119.317,26.0746,福州市,紫阳,颗粒物(PM10),55,60,48,18,23,165,125,117,117,12,12,4,5,0.5,0.4
2022-07-23T21:00:00,1286A,118.1608,24.8169,厦门市,溪东(对照点),,,,,,,,,,,,,,,,
2022-07-23T21:00:00,1287A,118.1514,24.4767,厦门市,洪文,颗粒物(PM10),55,60,38,30,22,158,86,136,122,26,16,2,3,0.4,0.4
2022-07-23T21:00:00,1288A,118.0661,24.4444,厦门市,鼓浪屿,,46,46,36,30,24,148,115,137,129,13,18,3,5,0.5,0.5
2022-07-23T21:00:00,1290A,115.8931,28.6843,南昌市,省外办,,32,32,41,5,11,112,90,106,104,14,18,5,15,0.4,0.4
2022-07-23T21:00:00,1291A,115.8886,28.7003,南昌市,省林业公司,,27,24,33,5,8,109,86,104,102,11,19,6,17,0.5,0.6
2022-07-23T21:00:00,1292A,115.8126,28.7442,南昌市,林科所,,20,17,36,12,13,119,45,110,98,39,25,10,13,0.5,0.5
2022-07-23T21:00:00,1294A,115.8518,28.687,南昌市,建工学校,,37,37,38,18,16,107,70,100,95,17,18,6,13,0.5,0.5
2022-07-23T21:00:00,1295A,115.8921,28.6424,南昌市,象湖,,34,34,40,5,10,113,73,98,95,17,20,5,14,0.5,0.5
2022-07-23T21:00:00,1296A,115.7423,28.7996,南昌市,武术学校(对照点),,17,17,15,9,10,68,24,52,44,3,4,14,15,0.7,0.6
2022-07-23T21:00:00,1298A,115.9314,28.6842,南昌市,省站,,39,39,35,10,19,110,79,100,97,12,14,6,16,0.6,0.6
2022-07-23T21:00:00,1299A,116.9862,36.6114,济南市,科干所,,25,14,12,5,7,117,78,110,105,14,12,2,2,0.4,0.5
2022-07-23T21:00:00,1300A,116.9376,36.665,济南市,农科所,,20,20,11,5,4,106,48,105,87,23,13,4,4,0.2,0.2
2022-07-23T21:00:00,1301A,117.1265,36.6734,济南市,开发区,,24,24,11,10,8,113,70,106,103,23,14,2,2,0.5,0.4
2022-07-23T21:00:00,1303A,117.0624,36.6868,济南市,省种子仓库,,25,22,13,7,6,112,80,103,102,17,8,1,1,0.4,0.3
2022-07-23T21:00:00,1304A,116.9489,36.6447,济南市,机床二厂,,32,32,10,10,3,121,59,109,104,28,9,2,3,0.4,0.3
2022-07-23T21:00:00,1305A,117.0495,36.663,济南市,市监测站,,24,24,11,9,5,119,76,109,107,24,11,4,4,0.5,0.4
2022-07-23T21:00:00,1306A,116.7675,36.5484,济南市,长清党校,,27,15,9,5,7,123,84,114,108,19,11,4,5,0.4,0.4
2022-07-23T21:00:00,1307A,120.6659,36.2403,青岛市,仰口(对照点),,22,5,19,14,21,90,68,76,69,6,14,6,4,0.6,0.5
2022-07-23T21:00:00,1308A,120.3905,36.1851,青岛市,李沧区子站,,,,,,,,,,,,,,,,
2022-07-23T21:00:00,1309A,120.3471,36.0699,青岛市,市北区子站,,,,,,,,,,,,,,,,
2022-07-23T21:00:00,1310A,120.4134,36.0658,青岛市,市南区东部子站,,26,22,40,9,30,211,81,181,88,14,8,8,6,0.4,0.5
2022-07-23T21:00:00,1311A,120.3664,36.1032,青岛市,四方区子站,,24,12,35,12,25,198,75,195,83,17,13,4,5,0.5,0.6
2022-07-23T21:00:00,1312A,120.2994,36.054,青岛市,市南区西部子站,,26,14,42,5,28,209,83,201,95,14,12,6,7,0.4,0.6
2022-07-23T21:00:00,1313A,120.4581,36.0858,青岛市,崂山区子站,,29,14,36,5,23,216,90,209,92,23,18,5,5,0.3,0.3
2022-07-23T21:00:00,1314A,120.1983,35.9608,青岛市,黄岛区子站,,26,17,41,12,30,227,82,216,85,25,20,5,5,0.5,0.6
2022-07-23T21:00:00,1315A,120.3999,36.3083,青岛市,城阳区子站,,19,17,35,6,22,193,60,190,83,21,12,5,5,0.6,0.6
2022-07-23T21:00:00,1316A,113.69031,34.76122,郑州市,烟厂,,47,38,30,27,19,174,150,163,162,22,13,4,5,0.8,0.7
2022-07-23T21:00:00,1317A,113.65724,34.77134,郑州市,郑纺机,,,44,34,,25,170,141,156,155,28,13,6,6,0.4,0.5
2022-07-23T21:00:00,1318A,113.67526,34.80246,郑州市,银行学校,,46,42,28,20,15,170,147,158,158,22,12,3,4,0.6,0.6
2022-07-23T21:00:00,1319A,113.56746,34.81334,郑州市,供水公司,颗粒物(PM10),55,59,30,24,18,177,130,162,160,25,10,5,6,0.5,0.4
2022-07-23T21:00:00,1320A,113.7329,34.7178,郑州市,经开区管委,颗粒物(PM10),56,61,30,31,19,179,140,168,165,22,12,2,2,0.7,0.6
2022-07-23T21:00:00,1321A,113.73961,34.77172,郑州市,四十七中,,47,45,28,21,15,177,150,165,164,26,12,5,5,0.7,0.7
2022-07-23T21:00:00,1322A,113.60532,34.74838,郑州市,市监测站,颗粒物(PM10),52,53,33,26,22,177,129,164,161,39,14,3,5,0.8,0.7
2022-07-23T21:00:00,1323A,113.64164,34.7525,郑州市,河医大,颗粒物(PM10),53,55,32,22,12,177,133,164,162,32,12,4,4,0.8,0.7
2022-07-23T21:00:00,1324A,113.51488,34.91089,郑州市,岗李水库(对照点),,,,,,,,,,,,,,,,
2022-07-23T21:00:00,1325A,114.3677,30.5584,武汉市,东湖梨园,,26,25,23,7,9,100,82,91,91,22,14,7,7,0.8,0.7
2022-07-23T21:00:00,1326A,114.2529,30.558,武汉市,汉阳月湖,,24,24,23,2,6,114,71,94,92,35,22,6,6,0.6,0.5
2022-07-23T21:00:00,1327A,114.282,30.6189,武汉市,汉口花桥,,27,25,21,12,12,108,85,100,100,28,16,6,7,0.6,0.6
2022-07-23T21:00:00,1328A,114.3025,30.5332,武汉市,武昌紫阳,,24,24,23,7,8,114,64,89,88,30,19,4,3,0.7,0.6
2022-07-23T21:00:00,1329A,114.3646,30.6217,武汉市,青山钢花,,27,16,21,14,13,98,84,89,88,29,18,4,5,0.7,0.7
2022-07-23T21:00:00,1330A,114.1566,30.4825,武汉市,沌口新区,,22,16,21,7,11,110,70,98,95,29,23,8,7,0.7,0.7
2022-07-23T21:00:00,1331A,114.3014,30.5944,武汉市,汉口江滩,,27,19,22,4,5,98,85,89,89,25,20,6,6,0.7,0.7
2022-07-23T21:00:00,1333A,114.135,30.6319,武汉市,吴家山,,26,17,19,2,8,119,81,107,106,21,14,4,5,0.8,0.7
2022-07-23T21:00:00,1334A,113.8454,30.2917,武汉市,沉湖七壕(对照点),,20,9,15,7,8,87,63,77,74,9,9,6,6,0.6,0.7
2022-07-23T21:00:00,1335A,113.0833,28.2325,长沙市,经开区环保局,,29,29,17,17,14,99,76,90,90,7,13,4,5,0.6,0.5
2022-07-23T21:00:00,1336A,112.8872,28.2189,长沙市,高开区环保局,,30,22,7,9,10,136,96,113,112,10,8,6,9,0.2,0.2
2022-07-23T21:00:00,1337A,113.0792,28.2053,长沙市,马坡岭,,35,33,28,24,17,113,112,108,108,17,15,8,9,0.7,0.6
2022-07-23T21:00:00,1338A,112.9394,28.19,长沙市,湖南师范大学,,40,40,20,17,10,98,73,87,87,8,6,3,4,0.4,0.3
2022-07-23T21:00:00,1339A,113.0178,28.1322,长沙市,雨花区环保局,,24,17,12,16,15,117,76,103,100,7,8,5,7,0.3,0.3
2022-07-23T21:00:00,1340A,112.9792,28.2597,长沙市,伍家岭,,38,38,21,23,13,139,78,118,114,15,11,2,4,0.6,0.5
2022-07-23T21:00:00,1341A,113.0014,28.1944,长沙市,火车新站,,29,25,18,20,14,108,83,98,97,11,6,6,7,0.2,0.2
2022-07-23T21:00:00,1342A,112.9844,28.1178,长沙市,天心区环保局,,30,30,21,17,12,111,68,96,93,10,11,3,4,0.5,0.5
2022-07-23T21:00:00,1343A,112.8908,28.1308,长沙市,湖南中医药大学,,41,41,22,21,11,114,84,100,97,15,11,3,4,0.3,0.2
2022-07-23T21:00:00,1344A,112.9581,28.3611,长沙市,沙坪(对照点),,27,27,26,18,17,115,74,106,101,6,11,4,5,0.5,0.5
2022-07-23T21:00:00,1345A,113.2347,23.1423,广州市,广雅中学,,40,40,44,20,23,181,90,170,158,41,29,8,6,0.7,0.7
2022-07-23T21:00:00,1346A,113.2612,23.105,广州市,市五中,,50,42,40,35,29,197,100,192,179,25,20,7,7,0.6,0.7
2022-07-23T21:00:00,1348A,113.3478,23.0916,广州市,广东商学院,颗粒物(PM10),55,59,43,34,21,200,132,191,184,40,26,6,6,0.7,0.6
2022-07-23T21:00:00,1349A,113.4332,23.1047,广州市,市八十六中,颗粒物(PM10),58,65,49,25,22,232,120,212,203,65,33,6,6,0.7,0.6
2022-07-23T21:00:00,1350A,113.3505,22.9483,广州市,番禺中学,,42,42,38,23,20,228,126,204,198,25,18,10,10,0.8,0.7
2022-07-23T21:00:00,1351A,113.2146,23.3916,广州市,花都师范,,45,42,45,26,26,142,142,130,130,18,28,8,10,0.6,0.7
2022-07-23T21:00:00,1352A,113.2597,23.1331,广州市,市监测站,,46,46,39,26,21,196,115,182,174,27,20,8,7,0.7,0.6
2022-07-23T21:00:00,1353A,113.5618,23.312,广州市,九龙镇镇龙,颗粒物(PM10),103,156,70,75,32,185,42,166,142,83,37,7,7,0.3,0.6
2022-07-23T21:00:00,1354A,113.2765,23.1544,广州市,麓湖,,41,41,36,28,22,174,59,168,146,62,26,4,5,0.8,0.8
2022-07-23T21:00:00,1355A,113.443,23.3035,广州市,帽峰山森林公园(对照点),,44,40,41,23,21,192,140,165,154,16,24,4,5,0.7,0.7
2022-07-23T21:00:00,1356A,114.1063,22.5545,深圳市,通心岭子站,,32,32,27,19,14,200,81,158,151,23,16,4,4,0.6,0.6
2022-07-23T21:00:00,1357A,114.117,22.5625,深圳市,洪湖,,43,43,31,26,16,209,93,166,159,26,20,9,9,0.6,0.5
2022-07-23T21:00:00,1358A,113.987,22.5417,深圳市,华侨城,,25,22,25,5,9,164,77,129,124,16,20,4,5,0.5,0.5
2022-07-23T21:00:00,1359A,113.9181,22.5171,深圳市,南海子站,,35,33,27,24,13,142,66,106,101,24,21,4,4,0.6,0.6
2022-07-23T21:00:00,1360A,114.2458,22.5689,深圳市,盐田,,28,28,23,15,13,145,54,121,105,47,34,4,4,0.7,0.7
2022-07-23T21:00:00,1361A,114.2283,22.7244,深圳市,龙岗,,36,36,37,20,17,210,98,187,171,23,31,6,6,0.5,0.5
2022-07-23T21:00:00,1362A,113.8953,22.5861,深圳市,西乡,,,,,,,,,,,,,,,,
2022-07-23T21:00:00,1363A,114.494,22.5422,深圳市,南澳,,29,16,16,8,8,132,92,116,114,8,14,8,8,0.7,0.7
2022-07-23T21:00:00,1364A,114.41,22.6342,深圳市,葵涌,,26,22,22,11,13,125,81,105,103,13,16,8,8,0.5,0.5
2022-07-23T21:00:00,1365A,114.297,22.5978,深圳市,梅沙,,22,22,22,9,8,144,70,124,118,11,12,6,7,0.2,0.2
2022-07-23T21:00:00,1366A,114.0678,22.738,深圳市,观澜,颗粒物(PM10),55,60,49,20,18,255,98,218,206,22,22,6,6,0.6,0.5
2022-07-23T21:00:00,1367A,113.5814,22.2618,珠海市,吉大,,20,20,18,14,11,113,63,101,94,7,8,7,8,0.3,0.3
2022-07-23T21:00:00,1368A,113.4881,22.2335,珠海市,前山,,21,21,21,13,11,129,53,113,98,13,13,9,10,0.2,0.3
2022-07-23T21:00:00,1369A,113.628,22.4251,珠海市,唐家,,28,22,24,17,15,147,88,126,120,13,9,9,9,0.5,0.5
2022-07-23T21:00:00,1370A,113.299,22.2281,珠海市,斗门,,35,24,14,24,12,129,48,102,94,14,6,19,6,0.6,0.3
2022-07-23T21:00:00,1371A,113.1294,23.0067,佛山市,湾梁,,34,34,34,21,17,185,98,162,151,21,14,5,7,0.4,0.3
2022-07-23T21:00:00,1372A,113.1083,23.0478,佛山市,华材职中,,31,31,33,17,18,160,71,148,133,20,16,6,8,0.3,0.3
2022-07-23T21:00:00,1373A,113.144,23.0453,佛山市,南海气象局,,30,29,35,21,18,171,94,161,148,17,16,9,7,0.6,0.6
2022-07-23T21:00:00,1374A,113.2881,22.8094,佛山市,顺德苏岗,,35,33,19,24,13,181,100,164,155,29,16,5,6,0.6,0.5
2022-07-23T21:00:00,1375A,113.2544,22.7642,佛山市,容桂街道办,,,,,,,,,,,,,,,,
2022-07-23T21:00:00,1376A,112.8383,22.8678,佛山市,高明孔堂,,31,21,25,19,12,116,99,111,108,10,10,6,7,0.5,0.5
2022-07-23T21:00:00,1377A,112.8836,23.1588,佛山市,三水监测站,,45,34,40,31,19,142,47,121,103,37,27,13,8,0.4,0.5
2022-07-23T21:00:00,1378A,112.867,23.185,佛山市,三水云东海,,36,32,40,25,24,142,40,120,103,37,26,6,9,0.6,0.5
2022-07-23T21:00:00,1379A,113.3769,22.5211,中山市,华柏园,,27,23,28,18,15,173,85,155,145,10,11,4,4,0.5,0.5
2022-07-23T21:00:00,1380A,113.3881,22.5497,中山市,张溪,,28,22,40,17,18,175,88,160,146,9,11,4,6,0.7,0.6
2022-07-23T21:00:00,1381A,113.4075,22.5111,中山市,紫马岭,,31,31,28,17,13,135,70,122,112,12,13,7,7,0.7,0.8
2022-07-23T21:00:00,1382A,113.4411,22.4853,中山市,长江旅游区(对照点),,30,30,23,18,15,174,89,144,137,10,8,4,4,0.4,0.4
2022-07-23T21:00:00,1383A,113.1064,22.6058,江门市,北街,,44,44,25,16,11,163,89,151,145,18,8,5,5,0.7,0.5
2022-07-23T21:00:00,1384A,113.0731,22.5835,江门市,西区,,46,46,25,23,13,161,64,139,132,26,13,7,7,0.5,0.4
2022-07-23T21:00:00,1385A,113.0219,22.5311,江门市,圭峰西,,45,36,28,31,14,136,78,125,121,19,8,4,5,0.6,0.4
2022-07-23T21:00:00,1386A,113.0828,22.5947,江门市,东湖,,45,45,27,21,14,161,83,143,138,18,10,6,6,0.5,0.4
2022-07-23T21:00:00,1387A,113.7875,23.0457,东莞市,东城主山,,,,,,,,,,,,,,,,
2022-07-23T21:00:00,1388A,113.7533,23.0202,东莞市,南城元岭,,,,,,,,,,,,,,,,
2022-07-23T21:00:00,1389A,113.7547,23.0494,东莞市,莞城梨川,颗粒物(PM10),56,61,43,29,22,270,140,236,228,34,25,8,9,0.8,0.8
2022-07-23T21:00:00,1390A,113.7944,23.0128,东莞市,东城石井,臭氧1小时,57,52,38,26,19,286,165,242,232,28,24,8,9,0.5,0.4
2022-07-23T21:00:00,1391A,113.7383,22.9658,东莞市,南城西平,细颗粒物(PM2.5),53,41,24,37,26,250,136,202,195,23,26,3,4,0.4,0.5
2022-07-23T21:00:00,1392A,114.4183,23.0528,惠州市,河南岸金山湖子站,颗粒物(PM10),66,82,53,14,19,222,110,192,185,28,22,4,4,0.7,0.6
2022-07-23T21:00:00,1393A,114.4053,23.0822,惠州市,下埔横江三路子站,颗粒物(PM10),65,80,47,22,23,225,124,200,193,30,20,4,4,0.6,0.6
2022-07-23T21:00:00,1394A,114.4103,23.1142,惠州市,江北云山西路子站,颗粒物(PM10),57,64,43,27,20,238,148,218,212,21,15,6,6,0.4,0.3
2022-07-23T21:00:00,1395A,114.4645,22.7833,惠州市,惠阳区承修路船湖子站,,,27,37,,18,195,100,182,164,19,20,5,5,0.6,0.6
2022-07-23T21:00:00,1396A,114.5317,22.7422,惠州市,大亚湾管委会子站,,38,22,35,15,15,165,120,153,145,14,23,5,5,0.4,0.4
2022-07-23T21:00:00,1397A,112.4267,23.0706,肇庆市,睦岗子站,,41,41,32,22,17,110,48,96,82,38,19,9,9,0.5,0.4
2022-07-23T21:00:00,1398A,112.4645,23.0475,肇庆市,城中子站,,47,47,32,23,17,117,64,99,88,34,22,12,14,0.6,0.5
2022-07-23T21:00:00,1399A,112.5544,23.1522,肇庆市,坑口子站,,22,16,23,12,15,99,68,93,87,5,8,8,9,0.3,0.4
2022-07-23T21:00:00,1400A,112.4753,23.1,肇庆市,七星岩子站(对照点),,,,,,,,,,,,,,,,
2022-07-23T21:00:00,1401A,108.3103,22.7881,南宁市,二十一中,,37,37,25,20,13,100,79,91,88,14,15,6,8,0.8,0.7
2022-07-23T21:00:00,1402A,108.3141,22.8528,南宁市,北湖,,31,31,24,18,13,109,77,98,94,11,9,5,5,0.6,0.5
2022-07-23T21:00:00,1403A,108.3206,22.8225,南宁市,市监测站,,39,39,27,17,11,101,73,87,84,22,20,10,10,0.8,0.7
2022-07-23T21:00:00,1404A,108.3829,22.8037,南宁市,大自然花园,,29,15,22,14,13,111,91,103,100,13,16,6,7,0.6,0.6
2022-07-23T21:00:00,1405A,108.4394,22.7904,南宁市,仙葫(对照点),,29,29,29,13,14,98,85,88,84,10,16,6,6,0.6,0.5
2022-07-23T21:00:00,1406A,108.2397,22.8467,南宁市,区农职院,,34,34,24,12,11,96,76,90,88,17,18,7,8,0.6,0.5
2022-07-23T21:00:00,1407A,108.3275,22.735,南宁市,英华嘉园,颗粒物(PM10),54,58,34,37,15,90,59,79,73,34,24,7,7,0.7,0.5
2022-07-23T21:00:00,1408A,108.2257,22.7757,南宁市,沙井镇街道办,,26,26,28,12,14,91,68,83,79,12,17,6,8,0.5,0.7
2022-07-23T21:00:00,1409A,110.576,19.9507,海口市,东寨港(对照点),,,13,15,7,5,68,32,56,52,,,5,5,0.4,0.4
2022-07-23T21:00:00,1410A,110.3232,20.0574,海口市,海南大学,,20,18,16,13,8,82,62,67,67,7,9,5,6,0.5,0.5
2022-07-23T21:00:00,1411A,110.283,20.0053,海口市,秀英海南医院,,17,9,16,9,8,58,52,51,50,1,6,3,2,0.4,0.4
2022-07-23T21:00:00,1412A,110.338,19.9969,海口市,海南师范大学,,20,20,20,14,7,60,46,54,50,13,9,2,2,0.5,0.5
2022-07-23T21:00:00,1413A,110.33,20.0356,海口市,龙华路环保局宿舍,,15,8,16,10,6,81,48,63,56,10,7,4,5,0.6,0.6
2022-07-23T21:00:00,1414A,106.3787,29.8279,重庆市,缙云山(对照点),,42,15,12,11,7,162,133,145,145,12,15,7,5,0.3,0.2
2022-07-23T21:00:00,1416A,106.4213,29.8253,重庆市,天生,,45,45,33,21,14,157,96,144,141,50,22,7,6,0.9,0.7
2022-07-23T21:00:00,1417A,106.6263,29.7228,重庆市,两路,,40,40,27,17,16,131,68,107,103,53,33,9,8,0.8,0.6
2022-07-23T21:00:00,1418A,106.2953,29.5983,重庆市,虎溪,,42,42,30,20,11,138,82,122,120,82,32,9,8,0.8,0.5
2022-07-23T21:00:00,1419A,106.5777,29.5102,重庆市,南坪,,46,46,39,17,15,125,99,103,103,40,28,11,10,0.8,0.6
2022-07-23T21:00:00,1420A,106.6556,29.6277,重庆市,唐家沱,,44,44,21,14,8,127,50,111,100,81,41,8,8,0.9,0.7
2022-07-23T21:00:00,1421A,106.6349,29.4906,重庆市,茶园,,50,50,36,22,15,96,53,76,73,84,41,7,8,0.9,0.6
2022-07-23T21:00:00,1422A,106.3754,29.4572,重庆市,白市驿,,39,39,33,24,14,123,106,97,97,31,24,8,7,1.1,0.9
2022-07-23T21:00:00,1425A,106.6205,29.7166,重庆市,空港,,35,35,29,18,15,150,92,120,117,38,25,8,6,0.7,0.5
2022-07-23T21:00:00,1426A,106.4782,29.4875,重庆市,新山村,,45,45,37,21,16,109,70,86,86,67,40,8,9,0.9,0.5
2022-07-23T21:00:00,1427A,106.5616,29.6453,重庆市,礼嘉,,40,33,23,13,10,106,52,89,87,80,38,7,6,0.7,0.4
2022-07-23T21:00:00,1428A,106.4522,29.7091,重庆市,蔡家,,35,35,29,20,13,134,59,106,103,49,27,5,4,0.8,0.6
2022-07-23T21:00:00,1429A,106.5093,29.3917,重庆市,鱼新街,,41,41,32,26,19,84,72,66,66,37,30,6,10,0.9,0.7
2022-07-23T21:00:00,1431A,103.9728,30.7236,成都市,金泉两河,,44,28,28,14,19,196,138,173,173,13,17,3,2,0.5,0.5
2022-07-23T21:00:00,1432A,104.1419,30.6764,成都市,十里店,,40,25,21,16,14,144,128,138,138,19,14,2,2,0.4,0.4
2022-07-23T21:00:00,1433A,104.0594,30.5767,成都市,三瓦窑,,31,17,24,12,15,147,97,136,132,29,23,4,4,0.4,0.4
2022-07-23T21:00:00,1434A,104.1122,30.6306,成都市,沙河铺,,33,20,22,11,12,146,105,138,135,20,18,2,2,0.5,0.5
2022-07-23T21:00:00,1437A,104.0431,30.6556,成都市,君平街,,45,45,37,21,18,162,133,148,148,20,20,5,4,0.6,0.6
2022-07-23T21:00:00,1438A,103.6202,31.0201,成都市,灵岩寺(对照点),,45,23,20,16,13,143,143,99,99,2,4,2,12,0.5,0.6
2022-07-23T21:00:00,1439A,106.6899,26.5998,贵阳市,马鞍山,,15,12,11,2,4,80,46,72,67,9,8,4,4,0.5,0.5
2022-07-23T21:00:00,1440A,106.6971,26.5694,贵阳市,市环保站,,27,27,17,9,8,70,22,63,54,27,15,4,5,0.4,0.3
2022-07-23T21:00:00,1441A,106.6243,26.6266,贵阳市,鉴湖路,,17,17,14,2,4,69,42,64,60,12,7,3,3,0.2,0.4
2022-07-23T21:00:00,1442A,106.7487,26.6343,贵阳市,燕子冲,,20,12,17,14,13,73,37,67,60,8,9,6,7,0.6,0.5
2022-07-23T21:00:00,1443A,106.6555,26.4365,贵阳市,碧云窝,,14,14,22,2,5,75,42,69,64,15,7,5,7,0.5,0.4
2022-07-23T21:00:00,1444A,106.694,26.5161,贵阳市,中院村,,22,22,22,2,4,68,27,62,53,17,10,2,2,0.5,0.5
2022-07-23T21:00:00,1445A,106.7109,26.6027,贵阳市,红边门,,28,22,19,19,12,73,30,67,59,25,18,3,5,0.4,0.3
2022-07-23T21:00:00,1446A,106.7164,26.5699,贵阳市,新华路,颗粒物(PM10),95,139,18,7,8,76,34,69,61,16,9,2,3,0.3,0.4
2022-07-23T21:00:00,1447A,106.674,26.5424,贵阳市,太慈桥,,15,14,19,5,3,71,46,66,62,6,10,5,5,0.3,0.3
2022-07-23T21:00:00,1450A,102.8204,24.8886,昆明市,呈贡新区,,32,32,18,12,8,88,68,79,79,12,10,9,8,0.5,0.4
2022-07-23T21:00:00,1451A,102.6251,24.9608,昆明市,西山森林公园(对照点),,29,29,30,3,8,82,60,73,72,10,6,9,7,0.4,0.4
2022-07-23T21:00:00,1452A,102.7252,25.0902,昆明市,龙泉镇,,18,18,14,12,14,87,47,81,77,22,12,8,7,0.3,0.3
2022-07-23T21:00:00,1453A,102.7266,25.0375,昆明市,东风东路,,34,34,14,7,6,80,57,76,74,16,11,5,5,0.5,0.4
2022-07-23T21:00:00,1454A,102.6742,25.0669,昆明市,金鼎山,,18,18,14,12,10,87,53,81,78,17,5,8,8,0.4,0.3
2022-07-23T21:00:00,1455A,102.6644,25.0401,昆明市,碧鸡广场,,23,23,13,10,7,80,39,77,72,30,10,9,6,0.5,0.4
2022-07-23T21:00:00,1456A,91.1319,29.6514,拉萨市,八廓街,,34,34,24,11,10,143,103,130,127,22,19,8,7,0.2,0.1
2022-07-23T21:00:00,1457A,91.1221,29.6747,拉萨市,市环保局,,39,39,24,10,10,139,103,127,124,10,12,7,7,0.1,0.1
2022-07-23T21:00:00,1458A,91.0874,29.6475,拉萨市,区监测站,,,49,21,8,3,151,,139,139,12,12,9,8,,0.1
2022-07-23T21:00:00,1459A,91.1774,29.6541,拉萨市,西藏大学,颗粒物(PM10),55,59,26,12,9,150,108,138,134,17,14,8,9,0.2,0.3
2022-07-23T21:00:00,1460A,90.9798,29.6588,拉萨市,区辐射站,,33,25,17,12,9,129,103,119,117,14,14,8,8,0.2,0.2
2022-07-23T21:00:00,1461A,91.0834,29.6292,拉萨市,拉萨火车站,颗粒物(PM10),54,57,25,10,7,141,111,130,128,8,11,9,9,0.2,0.3
2022-07-23T21:00:00,1462A,108.882,34.2749,西安市,高压开关厂,,40,36,26,17,10,171,125,157,153,21,26,6,6,0.4,0.4
2022-07-23T21:00:00,1463A,108.993,34.2629,西安市,兴庆小区,,39,28,20,16,7,163,124,152,150,25,21,5,4,0.4,0.5
2022-07-23T21:00:00,1464A,109.06,34.2572,西安市,纺织城,,43,43,26,14,9,153,38,139,129,65,27,5,5,0.5,0.4
2022-07-23T21:00:00,1465A,108.9356,34.2173,西安市,小寨,,36,30,19,16,8,174,115,159,154,29,23,3,2,0.3,0.3
2022-07-23T21:00:00,1466A,108.954,34.2713,西安市,市人民体育场,,39,32,23,16,9,172,124,159,154,23,18,4,3,0.2,0.2
2022-07-23T21:00:00,1467A,108.8922,34.2322,西安市,高新西区,,40,25,27,14,10,184,126,168,163,22,21,8,7,0.4,0.4
2022-07-23T21:00:00,1468A,108.935,34.3474,西安市,经开区,,41,41,25,19,9,140,104,130,130,28,20,3,2,0.2,0.2
2022-07-23T21:00:00,1469A,108.906,34.1546,西安市,长安区,,37,34,21,15,9,200,118,177,172,22,17,6,6,0.4,0.4
2022-07-23T21:00:00,1470A,109.2,34.6575,西安市,阎良区,,,,,,,,,,,,,,,,
2022-07-23T21:00:00,1471A,109.2186,34.3731,西安市,临潼区,,33,25,26,11,7,154,105,142,138,16,16,3,3,0.4,0.4
2022-07-23T21:00:00,1472A,108.869,34.378,西安市,草滩(对照点),,29,27,34,18,10,150,90,130,128,30,25,6,6,0.9,0.7
2022-07-23T21:00:00,1473A,108.985,34.1978,西安市,曲江文化产业集团,,37,23,25,16,8,176,116,160,157,23,24,5,5,0.7,0.7
2022-07-23T21:00:00,1474A,109.051,34.3213,西安市,广运潭,,36,36,23,14,8,150,99,138,135,32,20,5,5,0.5,0.5
2022-07-23T21:00:00,1476A,103.631,36.1031,兰州市,兰炼宾馆,,43,43,38,13,19,222,114,186,169,27,27,6,12,0.2,0.4
2022-07-23T21:00:00,1477A,104.1373,35.9454,兰州市,榆中兰大校区(对照点),,,,,,,,,,,,,,,,
2022-07-23T21:00:00,1478A,103.8412,36.0726,兰州市,生物制品所,,40,40,36,27,24,173,95,166,155,18,31,7,10,0.8,0.8
2022-07-23T21:00:00,1479A,103.831,36.0464,兰州市,铁路设计院,,42,35,39,29,14,172,97,162,152,36,29,6,11,0.5,0.6
2022-07-23T21:00:00,1480A,101.748,36.6428,西宁市,市环境监测站,,,,,,,,,,,,,,,,
2022-07-23T21:00:00,1482A,101.834,36.5819,西宁市,四陆医院,,,,,,,,,,,,,,,,
2022-07-23T21:00:00,1483A,101.524,36.6867,西宁市,第五水厂(对照点),,,,,,,,,,,,,,,,
2022-07-23T21:00:00,1484A,105.9512,38.6016,银川市,贺兰山马莲口(对照点),,36,27,21,23,14,186,115,156,149,9,11,8,10,0.2,0.2
2022-07-23T21:00:00,1488A,106.2328,38.4975,银川市,贺兰山东路,,29,13,29,11,14,159,75,144,133,57,35,9,12,0.5,0.5
2022-07-23T21:00:00,1489A,106.1358,38.5036,银川市,学院路,,28,22,43,13,19,171,87,141,133,40,32,6,10,0.5,0.5
2022-07-23T21:00:00,1490A,87.5801,43.8303,乌鲁木齐市,监测站,,39,33,51,16,19,187,124,157,157,17,45,6,7,0.2,0.4
2022-07-23T21:00:00,1491A,87.6046,43.768,乌鲁木齐市,收费所,,,44,60,,22,181,90,181,155,,38,,8,0.5,0.4
2022-07-23T21:00:00,1492A,87.4754,43.9469,乌鲁木齐市,新疆农科院农场(对照点),颗粒物(PM10),64,78,96,15,21,141,93,132,127,7,34,6,9,0.5,0.7
2022-07-23T21:00:00,1493A,87.5525,43.8711,乌鲁木齐市,铁路局,,49,49,57,13,21,189,121,164,162,15,37,5,7,0.4,0.7
2022-07-23T21:00:00,1494A,87.6432,43.831,乌鲁木齐市,三十一中学,,50,50,62,12,15,194,127,163,163,12,18,7,8,0.4,0.4
2022-07-23T21:00:00,1496A,87.7216,44.1747,乌鲁木齐市,米东区环保局,颗粒物(PM10),53,55,87,15,27,138,107,128,127,5,31,5,7,0.3,0.4
2022-07-23T21:00:00,1508A,112.9433,27.8614,湘潭市,板塘,,31,31,23,17,11,102,76,91,90,16,10,5,8,0.7,0.7
2022-07-23T21:00:00,1511A,112.9118,27.8403,湘潭市,市监测站,,32,27,25,22,16,103,67,89,85,22,18,7,40,0.5,1.3
2022-07-23T21:00:00,1512A,112.8937,27.8728,湘潭市,江麓,,44,44,28,24,8,110,83,97,97,8,6,11,7,0.4,0.3
2022-07-23T21:00:00,1513A,112.9227,27.8159,湘潭市,岳塘,,29,18,29,20,11,95,79,88,88,6,11,4,9,0.6,0.5
2022-07-23T21:00:00,1514A,112.9074,27.9119,湘潭市,科大,,29,29,24,10,9,112,84,98,98,10,8,5,5,0.5,0.4
2022-07-23T21:00:00,1515A,113.135,27.8244,株洲市,天台山庄,,42,19,16,29,14,96,90,90,90,11,11,3,7,0.4,0.3
2022-07-23T21:00:00,1518A,113.095,27.8867,株洲市,株冶医院,,29,22,23,13,12,125,92,110,105,11,15,11,8,0.6,0.5
2022-07-23T21:00:00,1519A,113.167,27.8667,株洲市,市四中,,33,29,19,23,14,107,81,97,95,16,12,3,3,0.6,0.5
2022-07-23T21:00:00,1520A,113.143,27.8381,株洲市,火车站,,31,31,23,12,15,97,86,94,93,17,14,5,7,0.4,0.3
2022-07-23T21:00:00,1524A,113.13,27.8528,株洲市,市监测站,,,31,30,19,13,108,,101,101,15,10,,4,0.5,0.4
2022-07-23T21:00:00,1552A,106.805,26.3003,贵阳市,桐木岭(对照点),,,,,,,,,,,,,,,,
2022-07-23T21:00:00,1559A,113.251,27.8336,株洲市,大京风景区(对照点),,30,30,10,11,12,87,38,84,74,5,4,4,5,0.4,0.3
2022-07-23T21:00:00,1562A,113.0048,27.9153,湘潭市,昭山,,28,19,16,19,13,106,45,94,84,24,14,6,8,0.4,0.4
2022-07-23T21:00:00,1564A,112.4876,27.9164,湘潭市,韶山(对照点),,26,16,24,18,8,108,45,97,87,14,11,4,8,0.6,0.6
2022-07-23T21:00:00,1585A,109.8756,40.6532,包头市,市环境监测站,,44,44,28,16,13,148,108,138,132,30,25,16,15,1.7,0.6
2022-07-23T21:00:00,1587A,109.9991,40.5842,包头市,包头八中,,46,46,35,28,21,158,125,147,140,16,19,4,18,0.4,0.5
2022-07-23T21:00:00,1588A,109.8538,40.6821,包头市,青山宾馆,颗粒物(PM10),53,55,42,23,19,137,104,130,125,32,36,22,15,1.5,0.8
2022-07-23T21:00:00,1589A,109.8642,40.6288,包头市,惠龙物流,颗粒物(PM10),60,69,37,16,18,156,113,146,140,25,19,9,14,0.3,0.4
2022-07-23T21:00:00,1590A,110.0377,40.5546,包头市,东河鸿龙湾,,38,23,32,7,16,158,121,148,139,10,17,3,8,0.4,0.5
2022-07-23T21:00:00,1591A,110.0023,39.8129,鄂尔多斯市,综合楼,,,,34,,10,135,122,134,132,17,26,6,8,0.8,0.6
2022-07-23T21:00:00,1592A,109.9486,39.8261,鄂尔多斯市,巴音孟克林场办事处,,39,19,33,9,12,132,122,130,128,14,18,9,7,0.7,0.7
2022-07-23T21:00:00,1593A,109.7736,39.5986,鄂尔多斯市,康泽苑,,44,29,27,7,8,154,139,149,147,7,19,4,4,0.6,0.6
2022-07-23T21:00:00,1594A,109.8119,39.5989,鄂尔多斯市,华泰汽车城,,44,24,33,7,13,149,139,146,144,6,23,6,6,0.5,0.6
2022-07-23T21:00:00,1595A,109.9734,39.7884,鄂尔多斯市,奥林花园,,41,29,47,12,17,140,129,138,134,14,30,6,6,0.5,0.7
2022-07-23T21:00:00,1596A,122.2414,40.6592,营口市,学府南路,,,,,,,,,,,,,,,,
2022-07-23T21:00:00,1597A,122.2703,40.7094,营口市,大庆路,,29,29,35,13,23,100,41,92,75,29,22,4,5,1.5,0.9
2022-07-23T21:00:00,1598A,122.215,40.6511,营口市,镜湖西路,,21,21,28,9,17,115,60,88,82,27,22,2,3,0.8,0.6
2022-07-23T21:00:00,1599A,122.167,40.6655,营口市,西炮台,,27,27,30,10,12,99,53,94,83,26,33,20,13,1.0,0.6
2022-07-23T21:00:00,1600A,124.3303,40.0625,丹东市,江湾东路,,26,14,28,10,17,99,83,92,91,6,11,7,9,0.5,0.6
2022-07-23T21:00:00,1601A,124.4256,40.1503,丹东市,临江后街,,30,11,20,8,12,99,94,92,92,2,5,12,12,0.5,0.7
2022-07-23T21:00:00,1602A,124.3933,40.1461,丹东市,元宝山,,25,16,23,10,15,94,79,85,85,6,7,3,4,0.6,0.8
2022-07-23T21:00:00,1603A,124.3633,40.1092,丹东市,民主桥,,27,16,24,11,13,101,86,90,90,5,7,9,10,0.6,0.7
2022-07-23T21:00:00,1604A,122.0303,41.1489,盘锦市,开发区,,21,15,27,12,18,102,67,88,78,14,20,5,6,0.6,0.8
2022-07-23T21:00:00,1605A,122.0485,41.0883,盘锦市,兴隆台,,23,12,44,16,19,88,60,75,68,24,39,5,5,0.6,0.7
2022-07-23T21:00:00,1606A,121.8297,41.1028,盘锦市,新生街道,,42,16,26,29,16,110,43,95,73,28,24,4,5,0.5,0.5
2022-07-23T21:00:00,1607A,120.9092,40.7136,葫芦岛市,龙港区,,24,21,34,13,25,109,74,97,96,7,19,6,15,0.5,0.6
2022-07-23T21:00:00,1608A,120.8392,40.7514,葫芦岛市,化工街,,32,31,38,19,24,105,101,93,93,23,33,8,5,0.6,0.6
2022-07-23T21:00:00,1609A,120.8341,40.7073,葫芦岛市,新区,,29,19,41,11,24,118,92,104,104,18,33,4,9,0.7,0.8
2022-07-23T21:00:00,1610A,120.8695,40.7677,葫芦岛市,东城区,,31,31,44,20,32,90,85,84,84,25,35,7,10,0.2,0.3
2022-07-23T21:00:00,1611A,118.5819,24.9117,泉州市,涂山街,,36,36,63,19,26,238,106,196,164,11,20,7,16,0.4,0.5
2022-07-23T21:00:00,1612A,118.5972,24.8978,泉州市,津头埔,,,,67,25,27,235,100,186,150,18,27,6,14,0.3,0.3
2022-07-23T21:00:00,1613A,118.6663,24.9424,泉州市,万安,颗粒物(PM10),54,57,54,28,29,224,90,188,153,16,22,7,10,0.5,0.5
2022-07-23T21:00:00,1614A,118.6117,24.9604,泉州市,清源山(对照点),,,,,,,,,,,,,,,,
2022-07-23T21:00:00,1616A,117.6795,36.229,济南市,技术学院,,41,41,14,15,16,145,79,133,102,26,14,7,4,0.6,0.5
2022-07-23T21:00:00,1618A,118.3429,35.0532,临沂市,沂河小区,,39,39,33,14,23,139,68,134,82,38,18,7,6,0.6,0.5
2022-07-23T21:00:00,1619A,118.295,35.0583,临沂市,鲁南制药厂,,34,34,24,16,21,154,63,126,82,33,15,7,5,0.7,0.6
2022-07-23T21:00:00,1620A,118.2794,34.9976,临沂市,新光毛纺厂,,29,29,22,14,21,129,68,126,82,32,16,6,5,0.5,0.5
2022-07-23T21:00:00,1621A,118.3956,35.0888,临沂市,河东保险公司,,31,31,25,16,22,142,79,133,85,23,11,6,4,0.7,0.6
2022-07-23T21:00:00,1622A,116.3032,37.4674,德州市,儿童乐园,,39,28,16,16,13,143,123,133,133,12,8,4,5,0.4,0.4
2022-07-23T21:00:00,1624A,116.2991,37.4451,德州市,监理站,,35,31,13,20,12,149,112,138,136,18,10,10,10,0.4,0.4
2022-07-23T21:00:00,1625A,115.9848,36.4372,聊城市,区政府,,27,27,10,12,8,124,81,121,114,25,6,4,4,0.7,0.5
2022-07-23T21:00:00,1628A,118.0062,37.3803,滨州市,市环保局,,36,27,12,25,12,140,92,125,123,12,8,3,5,0.3,0.2
2022-07-23T21:00:00,1629A,118.0018,37.3617,滨州市,第二水厂,,30,30,17,14,9,131,67,114,110,21,8,6,6,0.6,0.5
2022-07-23T21:00:00,1630A,117.9776,37.393,滨州市,北中新校,,32,32,14,17,9,126,75,112,110,18,6,8,9,0.3,0.2
2022-07-23T21:00:00,1631A,118.0414,36.8103,淄博市,人民公园,,39,39,15,22,15,120,65,104,100,23,15,7,8,0.4,0.3
2022-07-23T21:00:00,1632A,118.0253,36.8406,淄博市,东风化工厂,,,,,,,,,,,,,,,,
2022-07-23T21:00:00,1633A,117.8525,36.4847,淄博市,双山,,,28,19,,32,110,37,102,85,25,15,10,7,0.4,0.4
2022-07-23T21:00:00,1634A,117.9592,36.6331,淄博市,气象站,,38,38,19,19,19,120,76,102,98,21,19,9,11,0.9,0.6
2022-07-23T21:00:00,1635A,118.3092,36.8194,淄博市,莆田园,细颗粒物(PM2.5),52,51,13,36,13,121,70,106,102,36,18,14,8,0.4,0.2
2022-07-23T21:00:00,1636A,117.8661,36.805,淄博市,三金集团,,,,,,,,,,,,,,,,
2022-07-23T21:00:00,1637A,117.558,34.8438,枣庄市,市中区政府,,39,39,24,14,12,133,68,120,106,37,16,20,10,0.5,0.4
2022-07-23T21:00:00,1638A,117.2852,34.7837,枣庄市,薛城环保局,,49,49,29,22,16,132,68,111,105,12,13,11,10,0.4,0.3
2022-07-23T21:00:00,1639A,117.5852,34.7745,枣庄市,峄城区政府,,39,39,26,19,20,136,77,112,109,25,12,7,7,0.5,0.5
2022-07-23T21:00:00,1640A,117.7276,34.5578,枣庄市,台儿庄区环保局,,29,19,20,17,13,123,90,112,110,17,12,11,11,0.6,0.6
2022-07-23T21:00:00,1641A,117.4518,35.0992,枣庄市,山亭区环保局,,27,19,18,15,18,160,86,159,106,13,11,8,9,0.5,0.5
2022-07-23T21:00:00,1642A,121.2514,37.5639,烟台市,开发区,,42,12,27,9,17,141,133,134,134,2,10,5,7,0.5,0.5
2022-07-23T21:00:00,1643A,121.3719,37.5433,烟台市,轴承厂,,37,14,25,10,17,136,117,126,126,9,8,6,9,0.3,0.2
2022-07-23T21:00:00,1644A,121.3181,37.5436,烟台市,西郊化工站,,39,14,32,14,16,127,122,119,119,8,12,6,10,0.3,0.4
2022-07-23T21:00:00,1645A,121.4478,37.4822,烟台市,莱山环保局,,37,7,20,2,14,140,118,121,121,2,8,6,8,0.4,0.4
2022-07-23T21:00:00,1646A,121.2611,37.4967,烟台市,福山环保局,,33,19,37,9,20,117,104,106,106,9,19,4,6,0.4,0.4
2022-07-23T21:00:00,1648A,119.12,36.7019,潍坊市,仲裁委,,,,,,,,,,,,,,,,
2022-07-23T21:00:00,1650A,119.1437,36.7023,潍坊市,环保局,,25,19,16,13,12,107,79,100,98,18,11,6,7,0.6,0.5
2022-07-23T21:00:00,1652A,119.1936,36.7729,潍坊市,寒亭监测站,,,,,,,,,,,,,,,,
2022-07-23T21:00:00,1653A,116.6251,35.4302,济宁市,火炬城,,33,24,17,14,11,128,105,116,116,13,6,8,7,0.5,0.4
2022-07-23T21:00:00,1655A,116.5491,35.4042,济宁市,电化厂,,34,34,19,17,9,134,97,118,117,14,7,6,6,0.7,0.6
2022-07-23T21:00:00,1656A,117.1437,36.1937,泰安市,监测站,,29,29,16,13,12,127,62,125,90,18,7,5,5,0.3,0.4
2022-07-23T21:00:00,1657A,117.0885,36.2017,泰安市,人口学校,,27,27,14,9,9,157,62,138,93,18,10,6,6,0.3,0.3
2022-07-23T21:00:00,1658A,117.1089,36.1758,泰安市,电力学校,,25,22,14,15,20,125,79,122,93,10,6,6,6,0.2,0.2
2022-07-23T21:00:00,1659A,119.471,35.4209,日照市,监测站,,19,19,34,12,31,165,37,160,76,27,13,3,4,0.4,0.4
2022-07-23T21:00:00,1660A,119.523,35.4216,日照市,市政府广场,,22,22,37,10,27,180,65,176,85,20,14,5,5,0.5,0.6
2022-07-23T21:00:00,1661A,119.5587,35.4044,日照市,港务局,,24,24,38,11,26,200,70,196,94,22,14,4,4,0.6,0.7
2022-07-23T21:00:00,1662A,122.1214,37.4236,威海市,华夏技校,,34,5,21,9,22,120,108,107,105,9,10,5,5,0.3,0.3
2022-07-23T21:00:00,1663A,122.0508,37.5236,威海市,山大分校,,37,7,22,2,20,139,117,116,116,10,13,4,4,0.3,0.4
2022-07-23T21:00:00,1664A,122.1067,37.5072,威海市,市监测站,,36,7,23,7,26,123,113,108,108,5,12,5,5,0.3,0.4
2022-07-23T21:00:00,1665A,118.5019,37.4658,东营市,西城阳光环保公司,,,,,,,,,,,,,,,,
2022-07-23T21:00:00,1666A,118.6614,37.4309,东营市,市环保局,,26,14,6,5,3,118,82,108,105,13,3,6,6,0.3,0.2
2022-07-23T21:00:00,1669A,113.5824,24.7733,韶关市,市八中,,38,38,35,10,14,130,105,118,115,23,18,14,11,0.6,0.6
2022-07-23T21:00:00,1670A,113.5556,24.8082,韶关市,碧湖山庄,,,,,,,,,,,,,,,,
2022-07-23T21:00:00,1671A,113.5917,24.7972,韶关市,园林处,,32,4,37,20,20,114,101,107,105,16,14,15,14,0.4,0.4
2022-07-23T21:00:00,1672A,113.6735,24.7791,韶关市,韶关学院,,34,34,40,16,21,117,101,108,108,16,14,9,13,0.6,0.6
2022-07-23T21:00:00,1673A,113.5971,24.6863,韶关市,曲江监测站,,42,42,36,22,17,122,84,109,107,22,20,11,12,0.5,0.5
2022-07-23T21:00:00,1674A,116.6794,23.3667,汕头市,金平子站,,22,18,39,15,26,154,70,152,95,9,11,6,7,0.6,0.7
2022-07-23T21:00:00,1675A,116.7244,23.3633,汕头市,龙湖子站,,24,24,40,16,16,168,70,165,88,13,13,9,9,0.5,0.6
2022-07-23T21:00:00,1676A,116.7258,23.2775,汕头市,濠江子站,,23,5,27,10,17,191,71,171,81,9,8,9,10,0.5,0.6
2022-07-23T21:00:00,1677A,116.7519,23.4714,汕头市,澄海子站,,37,37,44,24,26,176,60,139,97,15,14,6,7,0.7,0.7
2022-07-23T21:00:00,1678A,116.6092,23.2539,汕头市,潮阳子站,,34,34,40,11,23,165,71,142,82,5,7,8,8,0.5,0.6
2022-07-23T21:00:00,1679A,116.4069,23.2533,汕头市,潮南子站,,,,,,,,,,,,,,,,
2022-07-23T21:00:00,1680A,110.3539,21.2706,湛江市,湛江影剧院,,33,33,24,11,10,90,52,83,76,10,10,7,14,0.5,0.5
2022-07-23T21:00:00,1681A,110.3928,21.2228,湛江市,市环境监测站,,49,30,24,34,18,116,43,90,81,18,12,6,8,0.5,0.5
2022-07-23T21:00:00,1682A,110.4019,21.1997,湛江市,环保局宿舍,,35,35,23,18,11,108,38,86,75,17,12,8,6,0.6,0.5
2022-07-23T21:00:00,1683A,110.4111,21.2028,湛江市,霞山游泳场,,36,36,21,22,11,116,48,95,83,16,12,5,7,0.5,0.5
2022-07-23T21:00:00,1684A,110.3316,21.2679,湛江市,麻章区环保局,,26,26,24,3,11,84,47,72,68,10,9,6,11,0.5,0.5
2022-07-23T21:00:00,1685A,110.4558,21.2567,湛江市,坡头区环保局,,23,23,24,11,11,104,54,91,82,10,10,6,6,0.5,0.5
2022-07-23T21:00:00,1686A,111.0286,21.4688,茂名市,电白南海,,31,31,26,19,13,110,90,97,96,8,8,4,7,0.5,0.5
2022-07-23T21:00:00,1687A,110.9294,21.6533,茂名市,茂石化七小,,35,34,34,24,20,92,83,85,84,8,9,4,11,0.6,0.5
2022-07-23T21:00:00,1688A,110.9107,21.6687,茂名市,健康路,,27,24,22,15,10,98,86,90,90,6,6,5,11,0.6,0.5
2022-07-23T21:00:00,1689A,110.8592,21.6828,茂名市,高岭,,45,44,27,31,19,93,79,85,85,12,10,7,13,0.6,0.5
2022-07-23T21:00:00,1690A,116.1231,24.3284,梅州市,梅江月梅,,46,46,37,16,19,152,86,137,122,12,13,4,4,0.6,0.6
2022-07-23T21:00:00,1691A,116.0797,24.2719,梅州市,梅县新城,颗粒物(PM10),56,62,42,15,21,147,59,139,122,34,20,5,6,0.8,0.6
2022-07-23T21:00:00,1692A,116.1248,24.2654,梅州市,环境监控中心,,,36,36,14,21,145,,136,131,18,16,6,6,0.5,0.5
2022-07-23T21:00:00,1693A,115.3653,22.775,汕尾市,市环保局,,24,15,19,9,10,128,74,93,93,5,7,5,5,0.5,0.5
2022-07-23T21:00:00,1694A,115.3706,22.7898,汕尾市,市政府,,25,7,14,6,9,127,78,101,101,10,5,6,6,0.5,0.5
2022-07-23T21:00:00,1695A,115.3622,22.7925,汕尾市,新城中学,,28,14,18,8,10,143,87,105,105,2,4,5,6,0.5,0.5
2022-07-23T21:00:00,1696A,114.6778,23.7569,河源市,源西(对照点),颗粒物(PM10),62,74,47,37,22,157,72,145,130,32,20,4,4,0.7,0.6
2022-07-23T21:00:00,1697A,114.6944,23.7586,河源市,东埔,颗粒物(PM10),67,83,46,46,23,165,76,152,139,32,18,4,5,0.9,0.6
2022-07-23T21:00:00,1698A,114.6892,23.7233,河源市,老城,颗粒物(PM10),71,92,56,32,21,178,69,162,140,31,21,3,4,0.7,0.6
2022-07-23T21:00:00,1699A,111.9797,21.8593,阳江市,鸳鸯湖(对照点),,,,,,,,,,,,,,,,
2022-07-23T21:00:00,1700A,111.9508,21.8536,阳江市,南恩路,,,,,,,,,,,,,,,,
2022-07-23T21:00:00,1701A,111.9491,21.8658,阳江市,马南垌,,28,20,25,19,12,110,65,97,92,18,10,8,7,0.7,0.5
2022-07-23T21:00:00,1702A,113.0426,23.691,清远市,环保大楼(对照点),,42,42,42,25,24,186,78,122,94,16,16,5,5,0.7,0.6
2022-07-23T21:00:00,1703A,113.0208,23.7106,清远市,凤城街办,,,47,37,27,22,156,,101,74,25,17,7,5,,0.7
2022-07-23T21:00:00,1705A,116.6367,23.6719,潮州市,西园路(对照点),颗粒物(PM10),58,66,50,21,26,164,57,138,116,23,14,9,7,1.0,0.9
2022-07-23T21:00:00,1706A,116.6447,23.6706,潮州市,档案局,颗粒物(PM10),60,69,50,23,24,189,53,156,128,25,15,14,10,0.9,0.8
2022-07-23T21:00:00,1708A,116.3701,23.5345,揭阳市,新兴,,38,0,45,26,26,137,71,119,105,6,6,5,5,0.6,0.6
2022-07-23T21:00:00,1709A,116.3264,23.5443,揭阳市,西马,,50,50,45,22,26,124,70,112,101,7,7,10,6,0.6,0.5
2022-07-23T21:00:00,1710A,116.3611,23.5626,揭阳市,东兴,,28,23,53,19,25,130,72,118,104,7,11,3,6,0.7,0.7
2022-07-23T21:00:00,1711A,116.4151,23.5294,揭阳市,渔湖,,29,29,51,18,28,130,64,113,98,12,11,5,4,0.6,0.7
2022-07-23T21:00:00,1712A,112.0392,22.9169,云浮市,新市府(对照点),,,,,,,,,,,,,,,,
2022-07-23T21:00:00,1713A,112.0369,22.9394,云浮市,市监测站,,,,,,,,,,,,,,,,
2022-07-23T21:00:00,1714A,112.0539,22.9539,云浮市,牧羊,,41,41,36,8,12,110,62,98,92,23,18,11,23,0.5,0.5
2022-07-23T21:00:00,1715A,102.575,24.3711,玉溪市,东风水库,,19,19,12,4,5,64,43,54,53,12,11,5,6,0.5,0.6
2022-07-23T21:00:00,1718A,115.4208,35.2464,菏泽市,气象局,,36,36,18,17,15,142,104,135,132,17,8,5,5,0.4,0.3
2022-07-23T21:00:00,1719A,115.4747,35.2375,菏泽市,市政协,,38,38,21,13,10,143,106,137,134,20,8,6,6,0.2,0.1
2022-07-23T21:00:00,1720A,115.455,35.27,菏泽市,菏泽学院,,,,,,,,,,,,,,,,
2022-07-23T21:00:00,1721A,113.3819,40.1097,大同市,果树场(对照点),,,,,,,,,,,,,,,,
2022-07-23T21:00:00,1723A,113.2994,40.0758,大同市,云冈宾馆,,34,34,66,14,31,156,99,143,140,29,20,26,25,0.5,0.7
2022-07-23T21:00:00,1724A,113.3444,40.0917,大同市,大同大学,,38,38,57,16,34,168,111,154,151,24,19,25,18,0.4,0.6
2022-07-23T21:00:00,1725A,113.2661,40.1269,大同市,安家小村,颗粒物(PM10),59,68,65,13,25,166,99,151,148,31,19,18,19,0.5,0.6
2022-07-23T21:00:00,1726A,113.2711,40.0844,大同市,教育学院,颗粒物(PM10),56,62,65,9,26,148,97,137,134,28,22,15,31,0.5,0.5
2022-07-23T21:00:00,1727A,113.1147,36.1547,长治市,清华站,,36,36,29,22,19,156,60,148,134,49,16,9,11,0.3,0.3
2022-07-23T21:00:00,1728A,113.1031,36.1989,长治市,监测站,,48,48,32,19,18,153,50,144,130,47,17,8,9,0.8,0.6
2022-07-23T21:00:00,1730A,113.0886,36.2125,长治市,审计局,,28,28,28,17,20,172,87,162,147,39,14,9,9,0.3,0.4
2022-07-23T21:00:00,1731A,113.0844,36.1856,长治市,长治八中,,45,45,25,17,19,152,66,146,134,54,15,11,11,0.7,0.7
2022-07-23T21:00:00,1733A,111.5531,36.0783,临汾市,临钢医院,,43,43,44,23,35,184,105,163,160,30,19,2,2,0.8,0.9
2022-07-23T21:00:00,1734A,111.5028,36.0714,临汾市,技工学校,,48,45,51,33,46,189,119,163,162,24,17,6,5,0.7,1
2022-07-23T21:00:00,1735A,111.5169,36.0822,临汾市,工商学校,,,,,,,,,,,,,,,,
2022-07-23T21:00:00,1736A,111.5018,36.0855,临汾市,市委,,46,45,55,32,47,190,112,162,159,25,16,10,5,0.6,0.8
2022-07-23T21:00:00,1738A,113.5758,37.8572,阳泉市,市中心,,41,41,33,18,14,155,106,144,139,23,21,6,8,0.7,0.6
2022-07-23T21:00:00,1739A,113.4894,37.8731,阳泉市,赛鱼,,25,20,24,17,14,152,57,130,119,30,24,6,7,0.5,0.6
2022-07-23T21:00:00,1740A,113.5819,37.8486,阳泉市,南庄,,36,31,27,24,19,156,113,145,140,16,16,8,11,0.8,0.9
2022-07-23T21:00:00,1741A,113.6292,37.8531,阳泉市,白羊墅,,,,,,,,,,,,,,,,
2022-07-23T21:00:00,1742A,113.5614,37.8703,阳泉市,平坦,颗粒物(PM10),65,80,35,26,12,159,96,148,143,40,24,9,8,1.0,0.8
2022-07-23T21:00:00,1743A,113.5158,37.8392,阳泉市,大阳泉,,36,15,19,12,12,138,114,127,127,14,19,5,6,0.5,0.6
2022-07-23T21:00:00,1744A,118.9233,42.2816,赤峰市,松山一中,,28,24,27,9,7,120,88,109,97,18,20,9,16,0.6,0.8
2022-07-23T21:00:00,1745A,118.9576,42.2728,赤峰市,哈达街,,34,34,19,16,8,115,92,101,94,24,22,12,16,0.5,0.4
2022-07-23T21:00:00,1746A,118.8788,42.2554,赤峰市,天义路,,26,6,12,13,5,118,81,106,104,25,19,10,11,0.4,0.3
2022-07-23T21:00:00,1748A,123.044,41.1196,鞍山市,深沟寺,,30,30,27,20,16,66,32,48,43,19,16,8,7,0.6,0.8
2022-07-23T21:00:00,1749A,123.011,41.0931,鞍山市,太阳城,,28,28,28,18,17,73,25,51,43,23,21,7,7,1.1,1
2022-07-23T21:00:00,1750A,123.0485,41.1442,鞍山市,太平,颗粒物(PM10),52,53,35,29,18,67,31,61,49,40,28,11,10,1.0,1.3
2022-07-23T21:00:00,1751A,122.9642,41.0971,鞍山市,铁西三道街,,41,41,49,23,23,75,43,64,57,30,38,14,9,1.1,1.2
2022-07-23T21:00:00,1752A,122.9341,41.0833,鞍山市,铁西工业园区,,42,42,48,27,24,76,31,64,55,44,35,14,10,1.4,1.2
2022-07-23T21:00:00,1753A,123.022,41.0821,鞍山市,明达新区,,36,36,34,22,20,67,32,60,50,35,27,7,5,1.0,1
2022-07-23T21:00:00,1754A,123.1289,41.0228,鞍山市,千山(对照点),,,,,,,,,,,,,,,,
2022-07-23T21:00:00,1755A,123.7977,41.8491,抚顺市,望花区,,32,19,35,22,18,85,54,78,72,19,20,4,6,1.4,0.6
2022-07-23T21:00:00,1756A,123.9161,41.8822,抚顺市,顺城区,,21,8,26,9,13,98,66,82,73,18,24,7,8,0.5,0.6
2022-07-23T21:00:00,1757A,124.0436,41.8611,抚顺市,东洲区,,24,7,19,4,9,97,76,75,75,5,12,6,6,0.2,0.3
2022-07-23T21:00:00,1758A,123.9247,41.8642,抚顺市,新抚区,,20,10,27,7,13,91,61,78,69,11,21,2,4,0.6,0.6
2022-07-23T21:00:00,1759A,124.0972,41.8961,抚顺市,大伙房水库,,26,8,16,3,10,91,81,76,76,2,8,5,5,0.3,0.3
2022-07-23T21:00:00,1760A,123.7086,41.8391,抚顺市,沈抚新城,,23,23,34,16,15,87,56,75,70,20,21,6,7,0.7,0.8
2022-07-23T21:00:00,1761A,123.8275,41.3064,本溪市,大峪,,16,6,21,5,13,66,51,54,53,24,16,5,5,0.7,0.7
2022-07-23T21:00:00,1762A,123.7567,41.3325,本溪市,溪湖,,20,20,32,8,16,74,59,56,55,12,23,6,7,0.7,0.9
2022-07-23T21:00:00,1763A,123.7169,41.3094,本溪市,彩屯,,21,21,39,6,22,59,52,53,49,20,23,5,5,0.6,1
2022-07-23T21:00:00,1764A,123.7669,41.2864,本溪市,东明,,19,5,31,10,14,68,59,58,57,18,22,6,5,0.7,0.6
2022-07-23T21:00:00,1765A,123.7992,41.2664,本溪市,新立屯,,18,11,25,8,11,60,56,48,48,7,17,4,4,1.0,0.9
2022-07-23T21:00:00,1766A,123.8142,41.3472,本溪市,威宁,,16,6,35,0,10,65,49,50,49,14,17,8,9,0.5,0.5
2022-07-23T21:00:00,1767A,121.1115,41.0879,锦州市,南山,,22,10,27,14,20,97,69,81,78,14,19,5,7,0.6,0.7
2022-07-23T21:00:00,1768A,121.0533,40.8434,锦州市,开发区,,33,10,48,20,29,121,104,113,113,10,36,4,11,0.7,0.8
2022-07-23T21:00:00,1769A,121.1836,41.1119,锦州市,百股街道,,21,14,27,7,17,97,67,90,85,10,16,5,5,0.6,0.8
2022-07-23T21:00:00,1770A,121.1178,41.1222,锦州市,天安街道,,22,15,32,13,20,104,69,88,84,11,22,9,15,0.7,0.8
2022-07-23T21:00:00,1771A,121.1303,41.1386,锦州市,北湖公园,,25,6,27,17,18,96,69,87,84,11,17,6,8,0.9,0.6
2022-07-23T21:00:00,1772A,126.54,43.8622,吉林市,哈达湾,,16,16,17,8,8,78,44,69,58,12,12,5,5,0.6,0.6
2022-07-23T21:00:00,1773A,126.5844,43.8358,吉林市,东局子,,20,20,18,9,8,67,33,60,48,18,13,5,5,0.6,0.5
2022-07-23T21:00:00,1774A,126.5052,43.8245,吉林市,电力学院,,27,27,31,11,12,81,30,67,56,21,13,7,7,0.6,0.5
2022-07-23T21:00:00,1775A,126.6133,43.8972,吉林市,江北,,27,27,17,14,8,68,24,63,44,18,12,6,6,0.7,0.6
2022-07-23T21:00:00,1776A,126.555,43.8306,吉林市,江南公园,,18,18,17,10,10,63,30,59,49,22,16,4,4,0.7,0.8
2022-07-23T21:00:00,1778A,126.7061,43.7133,吉林市,丰满(对照点),,,,,,,,,,,,,,,,
2022-07-23T21:00:00,1779A,123.9305,47.3636,齐齐哈尔市,安居小区,,27,27,23,14,10,68,37,56,44,20,16,5,5,0.6,0.5
2022-07-23T21:00:00,1780A,123.9488,47.3386,齐齐哈尔市,中心广场,,29,29,19,9,5,69,40,58,47,22,15,3,3,0.6,0.4
2022-07-23T21:00:00,1781A,123.9483,47.3227,齐齐哈尔市,农牧车辆厂,,46,46,32,19,8,71,38,60,47,15,9,3,3,0.6,0.4
2022-07-23T21:00:00,1783A,123.945,47.2988,齐齐哈尔市,市环境监测站,,39,39,16,18,6,77,27,63,42,35,16,6,6,0.4,0.3
2022-07-23T21:00:00,1784A,129.61,44.561,牡丹江市,环保大楼,,,,15,,11,74,,72,63,,8,,5,,0.5
2022-07-23T21:00:00,1785A,129.6115,44.5782,牡丹江市,文化广场,,12,10,23,8,7,69,36,65,55,11,11,2,2,0.3,0.3
2022-07-23T21:00:00,1786A,129.5904,44.5963,牡丹江市,第一医院,,12,5,9,5,6,66,37,64,54,7,9,3,4,0.6,0.6
2022-07-23T21:00:00,1787A,129.6364,44.6075,牡丹江市,机车工厂,,12,12,17,4,8,69,38,65,56,7,8,2,5,0.2,0.2
2022-07-23T21:00:00,1788A,129.6386,44.5462,牡丹江市,第一中学,,19,12,16,13,10,70,25,67,54,14,9,3,3,0.4,0.3
2022-07-23T21:00:00,1789A,124.81117,46.03138,大庆市,大同区,,16,14,20,7,8,89,49,75,69,9,11,3,4,0.3,0.2
2022-07-23T21:00:00,1790A,125.129,46.533,大庆市,龙凤区,,17,17,13,7,6,89,51,79,74,16,9,4,4,0.3,0.2
2022-07-23T21:00:00,1791A,124.902,46.408,大庆市,红岗区,,19,11,9,6,6,82,59,71,68,8,7,3,3,0.3,0.3
2022-07-23T21:00:00,1792A,125.153,46.586,大庆市,萨尔图区,,18,16,18,8,9,82,57,76,73,9,8,7,6,0.3,0.2
2022-07-23T21:00:00,1793A,124.9042,46.6215,大庆市,让胡路区,,,19,13,6,7,90,53,75,66,,12,2,2,0.6,0.6
2022-07-23T21:00:00,1794A,118.3606,31.3519,芜湖市,监测站,,31,24,37,18,19,134,99,112,108,20,21,10,10,0.5,0.6
2022-07-23T21:00:00,1795A,118.3714,31.4134,芜湖市,科创中心,,32,18,31,17,19,141,102,121,114,12,19,8,8,0.6,0.7
2022-07-23T21:00:00,1796A,118.3673,31.3131,芜湖市,四水厂,,32,18,31,18,18,136,100,118,112,16,15,7,7,0.6,0.6
2022-07-23T21:00:00,1797A,118.4022,31.3839,芜湖市,济民医院(对照点),,,,,,,,,,,,,,,,
2022-07-23T21:00:00,1798A,118.5092,31.6837,马鞍山市,湖东路四小,,,28,32,20,20,160,105,126,122,27,16,17,6,,1.1
2022-07-23T21:00:00,1799A,118.5024,31.6449,马鞍山市,开发区,,36,23,32,25,22,146,113,129,118,9,18,8,7,0.6,0.9
2022-07-23T21:00:00,1800A,118.5228,31.7231,马鞍山市,慈湖,,35,34,37,21,23,140,110,112,110,9,13,9,6,0.9,0.9
2022-07-23T21:00:00,1801A,118.48,31.6928,马鞍山市,马钢动力厂,,,,,,,,,,,,,,,,
2022-07-23T21:00:00,1802A,118.6245,31.7241,马鞍山市,濮塘(对照点),,34,26,31,15,17,141,107,117,116,5,13,6,3,0.5,0.6
2022-07-23T21:00:00,1803A,115.9872,29.6815,九江市,十里,,35,35,28,13,16,162,96,131,131,15,13,12,11,1.1,1
2022-07-23T21:00:00,1804A,115.9584,29.7046,九江市,茅山头,,47,47,27,26,15,150,92,125,123,13,10,16,10,0.8,0.6
2022-07-23T21:00:00,1805A,115.9877,29.7295,九江市,西园,,43,43,30,22,12,152,83,124,120,27,12,14,11,0.9,0.8
2022-07-23T21:00:00,1806A,116.0172,29.6547,九江市,五七二七厂,,50,50,23,28,14,151,94,124,124,16,7,7,5,1.0,0.7
2022-07-23T21:00:00,1808A,115.9114,29.6038,九江市,综合工业园,,41,41,28,19,16,163,76,122,121,26,16,8,7,0.6,0.7
2022-07-23T21:00:00,1809A,116.0721,29.7535,九江市,石化总厂,颗粒物(PM10),52,54,34,25,17,151,89,120,118,19,18,6,9,0.8,0.6
2022-07-23T21:00:00,1810A,115.9773,29.5698,九江市,庐山气象台(对照点),,,,11,,14,111,,95,,,3,,12,,0.5
2022-07-23T21:00:00,1811A,112.3628,34.6692,洛阳市,中信二小,,,,,,,,,,,,,,,,
2022-07-23T21:00:00,1812A,112.3931,34.6516,洛阳市,市委党校,,49,49,16,19,9,158,79,152,142,41,5,4,4,0.8,0.3
2022-07-23T21:00:00,1814A,112.4657,34.6871,洛阳市,豫西宾馆,,,,23,,14,150,97,148,140,24,11,2,3,0.5,0.4
2022-07-23T21:00:00,1815A,112.494,34.6886,洛阳市,河南林校,,29,26,19,9,9,142,90,137,128,17,6,1,2,0.2,0.2
2022-07-23T21:00:00,1816A,112.3844,34.623,洛阳市,开发区管委会,,28,21,13,15,12,146,87,136,127,13,4,4,5,0.3,0.2
2022-07-23T21:00:00,1817A,112.4267,34.6258,洛阳市,市委新办公区,,30,30,15,10,9,143,83,133,127,25,4,4,4,0.4,0.2
2022-07-23T21:00:00,1818A,114.4839,36.0621,安阳市,棉研所(对照点),,,,,,,,,,,,,,,,
2022-07-23T21:00:00,1819A,114.3551,36.1017,安阳市,红庙街,,39,33,27,11,11,177,124,164,161,21,14,6,6,0.6,0.7
2022-07-23T21:00:00,1820A,114.361,36.0681,安阳市,银杏小区,,,33,25,,30,178,119,166,161,17,8,5,6,0.5,0.6
2022-07-23T21:00:00,1824A,114.3389,34.7781,开封市,肿瘤医院,,33,33,30,18,12,149,98,142,137,24,7,2,3,0.6,0.6
2022-07-23T21:00:00,1826A,114.2885,34.7965,开封市,世纪星幼儿园,,46,46,26,20,14,146,115,139,137,17,8,4,4,0.8,0.8
2022-07-23T21:00:00,1828A,113.227,35.2125,焦作市,市环保局,颗粒物(PM10),51,52,39,27,20,175,136,163,160,12,10,2,4,0.7,0.6
2022-07-23T21:00:00,1829A,113.2464,35.1764,焦作市,高新区政府（停运20220628）,,,,,,,,,,,,,,,,
2022-07-23T21:00:00,1830A,113.1992,35.2590,焦作市,影视城(对照点),,,,,,,,,,,,,,,,
2022-07-23T21:00:00,1832A,113.3257,33.742,平顶山市,新华旅馆,,42,42,18,4,6,165,107,144,140,20,9,6,6,0.4,0.3
2022-07-23T21:00:00,1833A,113.2919,33.737,平顶山市,规划设计院,,38,38,22,14,6,160,80,141,132,19,7,3,4,0.6,0.5
2022-07-23T21:00:00,1834A,113.182,33.774,平顶山市,平顶山工学院,,30,25,24,12,20,160,93,144,136,12,13,3,10,0.4,0.4
2022-07-23T21:00:00,1835A,111.1922,34.7752,三门峡市,市政府,,43,43,29,20,13,146,46,136,127,65,26,5,8,0.7,0.4
2022-07-23T21:00:00,1836A,111.1587,34.7942,三门峡市,开发区,,,,,,10,140,,132,132,,16,,7,,0.4
2022-07-23T21:00:00,1838A,111.143,34.7955,三门峡市,风景区(对照点),,,,,,,,,,,,,,,,
2022-07-23T21:00:00,1839A,111.3009,30.7157,宜昌市,四零三,,,,,,,,,,,,,,,,
2022-07-23T21:00:00,1840A,111.2992,30.6981,宜昌市,白龙岗,,27,27,17,17,7,114,76,105,102,23,15,10,8,0.5,0.4
2022-07-23T21:00:00,1841A,111.3549,30.6465,宜昌市,伍家岗,,25,23,21,17,9,124,60,116,108,30,20,9,5,0.5,0.4
2022-07-23T21:00:00,1842A,111.2628,30.6961,宜昌市,点军区,,28,28,26,9,10,100,84,88,88,16,19,3,4,0.5,0.4
2022-07-23T21:00:00,1843A,111.3275,30.7819,宜昌市,夷陵区,,23,23,18,14,7,128,59,108,104,18,13,5,4,0.7,0.6
2022-07-23T21:00:00,1844A,112.2494,30.3197,荆州市,市图书馆,,33,33,16,14,7,108,60,99,92,23,13,9,8,0.6,0.5
2022-07-23T21:00:00,1845A,112.2008,30.3544,荆州市,市委党校,,22,22,16,11,6,123,52,104,92,28,11,8,7,0.6,0.4
2022-07-23T21:00:00,1847A,113.1094,29.3578,岳阳市,南湖风景区,,29,21,18,20,12,119,57,99,92,26,12,12,10,0.6,0.5
2022-07-23T21:00:00,1848A,113.1493,29.4251,岳阳市,城陵矶,,21,20,16,6,10,93,66,87,82,15,10,8,11,0.7,0.8
2022-07-23T21:00:00,1849A,113.1497,29.3575,岳阳市,开发区,,27,27,19,11,14,112,70,98,94,16,12,8,8,0.7,0.6
2022-07-23T21:00:00,1850A,113.2621,29.4758,岳阳市,云溪区,,24,17,21,7,10,107,74,94,92,6,10,12,12,0.5,0.5
2022-07-23T21:00:00,1851A,112.9943,29.4402,岳阳市,君山区,,,6,13,3,11,96,,91,91,5,6,,5,0.4,0.4
2022-07-23T21:00:00,1852A,113.2117,29.355,岳阳市,金凤水库(对照点),,20,18,21,7,10,112,62,99,95,14,14,4,6,0.6,0.7
2022-07-23T21:00:00,1854A,111.6975,28.9703,常德市,市二中,,23,7,12,7,6,89,72,84,82,9,9,4,4,0.4,0.4
2022-07-23T21:00:00,1857A,111.7158,29.1456,常德市,白鹤山(对照点),,22,11,15,10,9,89,68,85,80,3,4,4,7,0.4,0.4
2022-07-23T21:00:00,1858A,110.5319,29.1217,张家界市,永定新区,,28,16,19,19,15,97,57,84,84,9,12,3,4,0.2,0.3
2022-07-23T21:00:00,1859A,110.4697,29.1242,张家界市,电业局,,22,21,20,11,11,90,69,84,84,13,12,2,3,0.2,0.2
2022-07-23T21:00:00,1860A,110.5594,29.3547,张家界市,未央路,,15,14,18,10,9,80,13,59,55,21,8,2,2,0.3,0.2
2022-07-23T21:00:00,1861A,110.4417,29.315,张家界市,袁家界(对照点),,19,18,13,7,6,98,58,89,85,4,5,8,8,0.4,0.4
2022-07-23T21:00:00,1862A,110.4144,25.3167,桂林市,电子科大尧山校区(对照点),颗粒物(PM10),52,54,26,21,15,89,44,72,58,8,5,7,17,0.6,0.6
2022-07-23T21:00:00,1863A,110.2819,25.2697,桂林市,监测站,,26,24,26,15,10,84,83,74,72,10,11,5,5,0.5,0.5
2022-07-23T21:00:00,1864A,110.3089,25.2708,桂林市,龙隐路小学,,21,21,22,13,12,87,63,70,64,9,9,6,8,0.3,0.3
2022-07-23T21:00:00,1865A,110.2869,25.2178,桂林市,八中,,21,2,21,14,12,76,66,63,62,11,11,7,8,0.4,0.4
2022-07-23T21:00:00,1866A,109.2262,21.588,北海市,牛尾岭水库(对照点),,18,18,14,7,11,72,24,62,50,7,6,4,4,0.4,0.5
2022-07-23T21:00:00,1867A,109.1436,21.4086,北海市,海滩公园,,24,24,17,2,3,90,38,72,57,2,3,4,4,0.4,0.5
2022-07-23T21:00:00,1868A,109.0981,21.4661,北海市,新市环保局,,12,3,12,5,5,81,36,69,54,2,3,4,4,0.3,0.4
2022-07-23T21:00:00,1869A,109.1778,21.5233,北海市,北海工业园,,,,16,5,8,87,36,74,58,2,4,4,5,0.4,0.4
2022-07-23T21:00:00,1870A,109.4856,24.3895,柳州市,柳东小学,,31,26,27,20,21,121,99,112,109,9,9,6,6,0.6,0.8
2022-07-23T21:00:00,1871A,109.4157,24.3277,柳州市,环保监测站,,35,35,28,17,15,123,89,100,99,15,12,5,5,0.7,0.6
2022-07-23T21:00:00,1872A,109.389,24.341,柳州市,河西水厂,,33,33,33,20,19,117,91,100,99,15,15,7,7,0.5,0.5
2022-07-23T21:00:00,1873A,109.4311,24.2921,柳州市,市四中,,27,27,30,15,16,120,83,107,102,16,18,7,6,0.8,0.5
2022-07-23T21:00:00,1874A,109.4006,24.3631,柳州市,市九中,,40,40,39,4,22,115,90,102,99,14,13,7,7,0.6,0.6
2022-07-23T21:00:00,1875A,109.4958,24.3134,柳州市,古亭山,,,,26,,12,108,63,96,90,18,16,5,6,0.6,0.6
2022-07-23T21:00:00,1876A,109.5078,18.2489,三亚市,河东子站,,12,12,14,6,6,47,30,40,34,6,7,2,4,0.3,0.4
2022-07-23T21:00:00,1877A,109.4964,18.2681,三亚市,河西子站,,15,9,13,10,8,53,30,44,37,4,6,1,3,0.5,0.5
2022-07-23T21:00:00,1878A,104.7778,31.4741,绵阳市,富乐山,,30,19,23,13,13,149,95,127,125,10,11,7,9,0.4,0.4
2022-07-23T21:00:00,1879A,104.7563,31.4535,绵阳市,市人大,,,28,28,,16,138,67,116,111,53,19,8,12,0.4,0.6
2022-07-23T21:00:00,1880A,104.6697,31.4668,绵阳市,高新区自来水公司,,42,42,35,15,20,154,111,133,132,30,21,5,6,0.5,0.5
2022-07-23T21:00:00,1881A,104.7287,31.5075,绵阳市,三水厂,,32,30,28,20,20,160,101,134,129,30,21,4,4,0.6,0.5
2022-07-23T21:00:00,1882A,104.563,28.793,宜宾市,石马中学(对照点),,33,16,20,10,12,130,104,110,110,5,14,4,5,0.6,0.6
2022-07-23T21:00:00,1883A,104.6201,28.7728,宜宾市,市委,,25,22,22,13,11,125,80,108,108,23,20,5,7,0.4,0.4
2022-07-23T21:00:00,1884A,104.6055,28.793,宜宾市,宜宾四中,,27,25,32,13,15,126,84,106,106,26,21,9,9,0.4,0.4
2022-07-23T21:00:00,1885A,104.639,28.7562,宜宾市,市政府,,32,22,28,10,15,134,101,119,119,14,18,8,11,0.5,0.5
2022-07-23T21:00:00,1886A,104.5742,28.7199,宜宾市,黄金嘴,,32,32,21,20,13,143,94,120,120,13,12,7,8,0.3,0.3
2022-07-23T21:00:00,1888A,101.6891,26.571,攀枝花市,弄弄坪,,20,13,20,14,16,93,62,77,77,14,18,8,10,0.9,1.2
2022-07-23T21:00:00,1889A,101.5769,26.5928,攀枝花市,河门口,,16,15,14,8,8,97,49,76,76,8,13,5,6,0.6,0.7
2022-07-23T21:00:00,1890A,101.7169,26.585,攀枝花市,炳草岗,,26,26,27,13,16,94,53,72,72,18,25,8,15,0.8,1.2
2022-07-23T21:00:00,1891A,101.7369,26.5008,攀枝花市,仁和,,37,37,35,20,20,96,49,77,77,23,25,16,25,1.5,2.3
2022-07-23T21:00:00,1893A,105.4324,28.9634,泸州市,九狮山(对照点),,27,27,19,11,14,87,49,73,73,26,28,5,6,0.5,0.5
2022-07-23T21:00:00,1894A,105.4427,28.9063,泸州市,小市上码头,,41,25,24,14,15,130,130,120,120,13,13,8,9,0.5,0.5
2022-07-23T21:00:00,1895A,105.4241,28.8573,泸州市,兰田宪桥,,30,22,22,2,9,122,93,111,111,18,16,5,8,0.5,0.5
2022-07-23T21:00:00,1896A,105.4379,28.8833,泸州市,市环监站,,33,29,23,15,13,122,105,110,110,27,14,5,6,0.4,0.4
2022-07-23T21:00:00,1897A,104.7547,29.3628,自贡市,大塘山(对照点),,,,,,,,,,,,,,,,
2022-07-23T21:00:00,1900A,104.7692,29.3411,自贡市,春华路,,,,,,,,,,,,,,,,
2022-07-23T21:00:00,1901A,104.4239,31.1208,德阳市,东山公园,,42,38,29,16,13,181,134,166,165,20,17,7,8,0.6,0.6
2022-07-23T21:00:00,1902A,104.3826,31.1317,德阳市,西小区,,45,45,44,16,11,179,124,167,165,18,22,4,2,0.6,0.6
2022-07-23T21:00:00,1903A,104.4053,31.1167,德阳市,市检察院,,,,,,,,,,,,,,,,
2022-07-23T21:00:00,1904A,104.3553,31.1091,德阳市,耐火材料厂,,42,42,34,19,12,176,130,159,159,17,25,9,5,0.6,0.5
2022-07-23T21:00:00,1905A,106.056,30.8064,南充市,西山风景区(对照点),,31,23,24,12,13,109,97,104,104,14,16,3,4,0.5,0.6
2022-07-23T21:00:00,1906A,106.0789,30.8023,南充市,南充市委,,30,26,28,10,12,117,94,109,107,12,7,3,3,0.5,0.4
2022-07-23T21:00:00,1907A,106.1031,30.8217,南充市,南充炼油厂,,30,17,27,11,13,114,96,110,108,12,9,5,5,0.4,0.3
2022-07-23T21:00:00,1908A,106.1064,30.7856,南充市,高坪区监测站,,31,4,17,8,11,108,97,103,102,9,11,2,3,0.3,0.3
2022-07-23T21:00:00,1909A,106.0642,30.7636,南充市,嘉陵区环保局,,31,17,22,11,19,119,97,110,108,18,7,3,4,0.3,0.3
2022-07-23T21:00:00,1910A,106.1087,30.8388,南充市,市环境监测站,,22,13,23,4,14,102,68,99,95,40,10,3,2,0.4,0.4
2022-07-23T21:00:00,1911A,106.9222,27.6869,遵义市,丁字口,,39,20,16,27,16,124,48,114,102,31,9,5,9,0.7,0.6
2022-07-23T21:00:00,1912A,106.9242,27.7019,遵义市,凤凰山,,33,28,19,14,14,119,104,114,112,8,9,5,8,0.5,0.6
2022-07-23T21:00:00,1913A,106.8906,27.6486,遵义市,忠庄,,28,28,18,19,8,111,86,102,98,11,11,1,4,0.4,0.4
2022-07-23T21:00:00,1914A,106.9231,27.6506,遵义市,舟水桥,,21,21,24,11,9,106,65,102,95,24,14,4,5,0.6,0.5
2022-07-23T21:00:00,1915A,106.9178,27.72,遵义市,干田坝,,32,32,17,14,13,130,62,116,103,22,10,5,6,0.6,0.6
2022-07-23T21:00:00,1916A,103.7897,25.5035,曲靖市,环境监测站,,28,28,14,13,9,72,54,67,65,18,9,3,3,0.4,0.4
2022-07-23T21:00:00,1917A,103.8,25.5364,曲靖市,烟厂办公区,,20,19,12,11,8,76,61,70,69,12,5,5,5,0.4,0.4
2022-07-23T21:00:00,1918A,108.7197,34.3956,咸阳市,气象站(对照点),颗粒物(PM10),57,64,37,17,9,187,105,156,151,22,24,5,5,1.0,1.1
2022-07-23T21:00:00,1919A,108.673,34.3155,咸阳市,实验中学,,42,28,33,12,12,201,133,163,162,18,29,4,3,0.4,0.5
2022-07-23T21:00:00,1920A,108.7233,34.3617,咸阳市,师范学院,,39,39,32,14,10,200,110,160,154,23,26,6,4,0.5,0.6
2022-07-23T21:00:00,1922A,109.0656,35.0994,铜川市,党校(对照点),,36,36,21,11,8,137,54,119,112,22,21,8,8,0.5,0.6
2022-07-23T21:00:00,1923A,109.0697,35.0697,铜川市,王益区政府,,37,37,26,14,11,151,65,134,127,14,18,4,5,0.5,0.5
2022-07-23T21:00:00,1924A,108.9344,34.9058,铜川市,新区管委会,,46,46,23,12,8,140,93,132,127,40,17,9,6,0.4,0.4
2022-07-23T21:00:00,1925A,108.9589,34.8731,铜川市,新区兰芝公司,,,,,,,,,,,,,,,,
2022-07-23T21:00:00,1926A,109.4131,36.6275,延安市,枣园(对照点),,32,32,19,4,7,136,47,126,111,30,12,4,4,0.5,0.4
2022-07-23T21:00:00,1927A,109.4761,36.6028,延安市,延大医附院,,46,46,21,11,9,138,31,130,110,55,15,4,3,0.5,0.3
2022-07-23T21:00:00,1928A,109.4824,36.5767,延安市,市监测站,,,,,,,,,,,,,,,,
2022-07-23T21:00:00,1929A,109.5056,36.6106,延安市,百米大道,颗粒物(PM10),60,69,30,13,11,130,32,119,97,62,24,5,5,0.6,0.4
2022-07-23T21:00:00,1930A,107.185,34.3063,宝鸡市,庙沟村(对照点),,24,22,18,9,7,123,74,117,112,33,13,4,4,0.4,0.3
2022-07-23T21:00:00,1931A,107.0708,34.3017,宝鸡市,竹园沟,,29,29,18,11,10,147,73,130,123,19,12,4,4,0.4,0.3
2022-07-23T21:00:00,1932A,107.1906,34.3672,宝鸡市,三陆医院,,39,34,29,9,8,144,123,134,134,21,19,6,6,0.4,0.3
2022-07-23T21:00:00,1933A,107.1431,34.3547,宝鸡市,监测站,,30,30,20,14,9,142,76,137,131,26,17,5,5,0.5,0.4
2022-07-23T21:00:00,1934A,107.1186,34.3739,宝鸡市,技工学校,,32,25,28,10,11,144,100,137,133,32,17,5,5,0.4,0.3
2022-07-23T21:00:00,1935A,107.3906,34.3528,宝鸡市,陈仓区环保局家属楼,,44,44,32,13,10,148,95,135,132,35,22,6,7,0.6,0.4
2022-07-23T21:00:00,1936A,107.2058,34.3497,宝鸡市,文理学院,,36,33,23,5,7,151,113,142,140,31,18,8,8,0.4,0.3
2022-07-23T21:00:00,1937A,107.2386,34.3622,宝鸡市,三迪小学,,48,48,27,8,10,139,100,128,125,41,26,6,6,0.5,0.3
2022-07-23T21:00:00,1938A,109.5293,34.5101,渭南市,农科所(对照点),,,,,,,,,,,,,,,,
2022-07-23T21:00:00,1939A,109.4974,34.4877,渭南市,日报社,,34,34,21,18,13,157,84,143,136,43,26,13,7,0.4,0.4
2022-07-23T21:00:00,1940A,109.4636,34.493,渭南市,体育馆,,28,24,17,15,10,162,72,152,142,55,23,9,9,0.5,0.4
2022-07-23T21:00:00,1941A,109.4259,34.5023,渭南市,高新一小,,36,36,25,12,10,154,110,141,139,14,22,5,5,0.5,0.4
2022-07-23T21:00:00,1943A,102.1725,38.5339,金昌市,新川苑,,41,32,30,4,9,136,130,128,128,15,20,9,11,0.5,0.6
2022-07-23T21:00:00,1944A,102.1692,38.5167,金昌市,天庆家园,,40,28,28,10,7,139,125,133,133,18,21,10,11,0.7,0.6
2022-07-23T21:00:00,1945A,98.2908,39.7711,嘉峪关市,气象局,,44,44,29,14,10,136,110,134,131,35,15,5,9,0.4,0.4
2022-07-23T21:00:00,1947A,106.3394,38.817,石嘴山市,沙湖旅游区(对照点),颗粒物(PM10),51,52,48,12,17,220,129,199,194,14,25,27,27,0.4,0.4
2022-07-23T21:00:00,1948A,106.3668,39.0145,石嘴山市,大武口朝阳西街,颗粒物(PM10),51,52,62,12,22,197,155,171,169,33,37,8,30,0.8,1.1
2022-07-23T21:00:00,1949A,106.7704,39.2282,石嘴山市,惠农南大街,颗粒物(PM10),56,61,37,12,15,161,102,152,147,28,23,11,20,0.3,0.3
2022-07-23T21:00:00,1950A,106.7099,39.1325,石嘴山市,红果子镇惠新街,颗粒物(PM10),68,85,57,24,15,168,104,161,152,22,24,9,13,0.4,0.3
2022-07-23T21:00:00,1951A,84.895,45.6094,克拉玛依市,长征新村,,29,27,28,4,5,109,92,101,100,14,10,8,8,0.2,0.1
2022-07-23T21:00:00,1952A,84.8988,45.5893,克拉玛依市,南林小区,,35,35,34,14,12,101,67,92,84,34,23,9,9,0.5,0.5
2022-07-23T21:00:00,1953A,85.1186,45.6886,克拉玛依市,白碱滩区,,,,,,,,,,,,,,,,
2022-07-23T21:00:00,1954A,84.905,44.3396,克拉玛依市,独山子区,,34,26,33,13,18,133,107,117,114,10,19,9,13,0.4,0.6
2022-07-23T21:00:00,1955A,85.6979,46.098,克拉玛依市,乌尔禾区商贸楼,,20,9,33,1,6,94,64,89,82,18,7,12,12,0.2,0.2
2022-07-23T21:00:00,1956A,86.1472,41.7538,巴音郭楞州,孔雀公园,,,,184,,44,115,,111,111,19,31,4,4,0.3,0.4
2022-07-23T21:00:00,1957A,86.1972,41.7166,巴音郭楞州,棉纺厂,颗粒物(PM10),132,213,225,54,56,119,92,113,110,13,25,4,5,0.3,0.3
2022-07-23T21:00:00,1958A,86.2357,41.7173,巴音郭楞州,经济开发区,颗粒物(PM10),109,167,200,55,53,119,86,113,109,12,17,5,5,0.2,0.2
2022-07-23T21:00:00,1959A,118.746,36.881,寿光市,监测站,,,,,,,,,,,,,,,,
2022-07-23T21:00:00,1960A,118.780,36.864,寿光市,世纪学校,,,,,,,,,,,,,,,,
2022-07-23T21:00:00,1961A,117.532,36.6868,济南市,东山小学,,49,49,24,15,11,110,66,99,98,28,17,3,4,0.3,0.5
2022-07-23T21:00:00,1962A,117.541,36.710,章丘市,明水开发区,,,,,,,,,,,,,,,,
2022-07-23T21:00:00,1963A,120.610,36.440,即墨市,环保局子站,,,,,,,,,,,,,,,,
2022-07-23T21:00:00,1964A,120.470,36.390,即墨市,开发区子站,,,,,,,,,,,,,,,,
2022-07-23T21:00:00,1965A,120.005,35.878,胶南市,JN子站,,,,,,,,,,,,,,,,
2022-07-23T21:00:00,1966A,120.0405,35.8735,青岛市,黄岛区4号,,27,27,43,7,34,214,78,214,94,18,17,4,4,0.5,0.7
2022-07-23T21:00:00,1967A,120.008,36.283,胶州市,胶州环保局,,,,,,,,,,,,,,,,
2022-07-23T21:00:00,1968A,120.014,36.253,胶州市,胶州一中,,,,,,,,,,,,,,,,
2022-07-23T21:00:00,1969A,120.537,36.865,莱西市,环保局子站,,,,,,,,,,,,,,,,
2022-07-23T21:00:00,1970A,120.515,36.885,莱西市,人民广场子站,,,,,,,,,,,,,,,,
2022-07-23T21:00:00,1971A,119.952,36.792,平度市,1号,,,,,,,,,,,,,,,,
2022-07-23T21:00:00,1972A,119.976,36.799,平度市,2号,,,,,,,,,,,,,,,,
2022-07-23T21:00:00,1973A,120.747,37.825,蓬莱市,蓬莱环保局,,,,,,,,,,,,,,,,
2022-07-23T21:00:00,1974A,120.773,37.809,蓬莱市,蓬莱博物馆,,,,,,,,,,,,,,,,
2022-07-23T21:00:00,1975A,120.399,37.374,招远市,招远环保局,,,,,,,,,,,,,,,,
2022-07-23T21:00:00,1976A,120.394,37.364,招远市,招远教育局,,,,,,,,,,,,,,,,
2022-07-23T21:00:00,1977A,119.941,37.177,莱州市,莱州环保局,,,,,,,,,,,,,,,,
2022-07-23T21:00:00,1978A,119.959,37.180,莱州市,莱州外经委,,,,,,,,,,,,,,,,
2022-07-23T21:00:00,1979A,122.471,37.154,荣成市,荣成市环保局办公楼,,,,,,,,,,,,,,,,
2022-07-23T21:00:00,1980A,122.410,37.161,荣成市,山东成山轮胎公司,,,,,,,,,,,,,,,,
2022-07-23T21:00:00,1981A,122.038,37.197,文登市,文登市环保局,,,,,,,,,,,,,,,,
2022-07-23T21:00:00,1982A,122.0693,37.2174,威海市,文登开发区,,,9,28,5,18,120,,108,102,25,11,5,4,0.4,0.5
2022-07-23T21:00:00,1983A,121.531,36.913,乳山市,乳山市环保局,,,,,,,,,,,,,,,,
2022-07-23T21:00:00,1984A,121.544,36.907,乳山市,乳山市气象局,,,,,,,,,,,,,,,,
2022-07-23T21:00:00,1985A,120.636,31.155,吴江市,吴江市环保局,,,,,,,,,,,,,,,,
2022-07-23T21:00:00,1986A,120.635,31.170,吴江市,教师进修学校,,,,,,,,,,,,,,,,
2022-07-23T21:00:00,1987A,120.658,31.172,吴江市,吴江开发区,,,,,,,,,,,,,,,,
2022-07-23T21:00:00,1988A,120.953,31.388,昆山市,昆山实验小学,,,,,,,,,,,,,,,,
2022-07-23T21:00:00,1989A,120.999,31.381,昆山市,震川中学,,,,,,,,,,,,,,,,
2022-07-23T21:00:00,1990A,120.758,31.670,常熟市,海虞子站,,,,,,,,,,,,,,,,
2022-07-23T21:00:00,1991A,120.721,31.671,常熟市,兴福子站,,,,,,,,,,,,,,,,
2022-07-23T21:00:00,1992A,120.734,31.656,常熟市,菱塘子站,,,,,,,,,,,,,,,,
2022-07-23T21:00:00,1993A,120.526,31.874,张家港市,张家港市监测站,,,,,,,,,,,,,,,,
2022-07-23T21:00:00,1994A,120.550,31.882,张家港市,城北小学,,,,,,,,,,,,,,,,
2022-07-23T21:00:00,1995A,121.115,31.453,太仓市,太仓市监测站,,,,,,,,,,,,,,,,
2022-07-23T21:00:00,1996A,121.140,31.422,太仓市,科教新城实小,,,,,,,,,,,,,,,,
2022-07-23T21:00:00,1997A,119.146,31.955,句容市,消防指挥中心,,,,,,,,,,,,,,,,
2022-07-23T21:00:00,1998A,119.180,31.955,句容市,房家坝,,,,,,,,,,,,,,,,
2022-07-23T21:00:00,1999A,120.268,31.920,江阴市,虹桥邮政,,,,,,,,,,,,,,,,
2022-07-23T21:00:00,2000A,120.237,31.909,江阴市,五星公园,,,,,,,,,,,,,,,,
2022-07-23T21:00:00,2001A,120.302,31.920,江阴市,第二实验小学,,,,,,,,,,,,,,,,
2022-07-23T21:00:00,2002A,119.818,31.354,宜兴市,宜兴市环保局,,,,,,,,,,,,,,,,
2022-07-23T21:00:00,2003A,119.794,31.371,宜兴市,宜园,,,,,,,,,,,,,,,,
2022-07-23T21:00:00,2004A,119.579,31.751,金坛市,金坛市环境监测站,,,,,,,,,,,,,,,,
2022-07-23T21:00:00,2005A,119.579,31.737,金坛市,金坛市自来水公司,,,,,,,,,,,,,,,,
2022-07-23T21:00:00,2006A,119.460,31.400,溧阳市,溧阳市东门子站,,,,,,,,,,,,,,,,
2022-07-23T21:00:00,2007A,119.438,31.317,溧阳市,燕山子站,,,,,,,,,,,,,,,,
2022-07-23T21:00:00,2008A,121.173,31.896,海门市,海门市监测站,,,,,,,,,,,,,,,,
2022-07-23T21:00:00,2009A,121.1518,31.89708,海门市,社会福利院,,,,,,,,,,,,,,,,
2022-07-23T21:00:00,2010A,119.7183,30.2366,临安市,市政府,,,,,,,,,,,,,,,,
2022-07-23T21:00:00,2011A,119.6942,30.2311,临安市,四中,,,,,,,,,,,,,,,,
2022-07-23T21:00:00,2012A,119.954,30.054,富阳市,监测站,,,,,,,,,,,,,,,,
2022-07-23T21:00:00,2013A,119.946,30.049,富阳市,富春二小,,,,,,,,,,,,,,,,
2022-07-23T21:00:00,2014A,120.091,29.305,义乌市,江东,,,,,,,,,,,,,,,,
2022-07-23T21:00:00,2015A,120.040,29.334,义乌市,北苑,,,,,,,,,,,,,,,,
2022-07-23T21:00:00,2016A,120.251,29.719,诸暨市,图书馆,,,,,,,,,,,,,,,,
2022-07-23T21:00:00,2017A,120.209,29.732,诸暨市,富林印务,,,,,,,,,,,,,,,,
2022-07-23T21:00:00,2018A,121.989,39.625,瓦房店市,抱龙山庄,,,,,,,,,,,,,,,,
2022-07-23T21:00:00,2019A,122.011,39.617,瓦房店市,东山公园,,,,,,,,,,,,,,,,
2022-07-23T21:00:00,2031A,113.1817,27.9958,株洲市,云田中学,,29,29,26,15,15,130,80,119,109,12,11,2,6,0.5,0.5
2022-07-23T21:00:00,2054A,114.1099,32.1059,信阳市,平桥分局,,30,22,13,13,8,120,95,114,110,8,6,9,9,0.6,0.6
2022-07-23T21:00:00,2064A,113.9956,32.1271,信阳市,南湾水厂,,29,27,18,17,10,110,91,103,103,6,4,5,5,0.5,0.5
2022-07-23T21:00:00,2065A,114.0775,32.1195,信阳市,市酿酒公司,,31,19,12,6,5,120,99,116,113,5,7,8,8,0.5,0.5
2022-07-23T21:00:00,2066A,114.0609,32.1399,信阳市,审计局,,33,26,17,12,7,123,104,118,115,6,4,6,6,0.8,0.8
2022-07-23T21:00:00,2067A,114.6613,33.6128,周口市,市环境监测站,,36,25,22,16,11,147,115,137,135,20,10,4,5,0.5,0.5
2022-07-23T21:00:00,2068A,114.6758,33.6347,周口市,周口师范,,37,13,16,20,8,137,117,137,127,17,9,1,5,0.7,0.5
2022-07-23T21:00:00,2069A,114.6546,33.5979,周口市,市运管处,,35,26,20,19,9,144,110,132,130,17,10,2,4,0.6,0.6
2022-07-23T21:00:00,2070A,114.6369,33.6406,周口市,川汇区环保局,颗粒物(PM10),52,53,19,20,11,148,116,139,137,12,6,5,6,0.6,0.4
2022-07-23T21:00:00,2075A,117.6336,24.4674,漳州市,九湖(对照点),,,,,,,,,,,,,,,,
2022-07-23T21:00:00,2160A,112.85,35.5051,晋城市,自来水公司,,38,35,29,14,16,142,121,132,132,20,14,4,3,0.4,0.4
2022-07-23T21:00:00,2161A,112.8318,35.4936,晋城市,白云商贸,,36,35,25,19,13,149,114,140,136,23,11,4,3,0.7,0.5
2022-07-23T21:00:00,2162A,112.8508,35.4887,晋城市,市环保局,,39,35,23,22,19,146,124,138,137,19,13,4,2,0.5,0.5
2022-07-23T21:00:00,2163A,112.8676,35.4897,晋城市,技术学院,,40,29,22,14,12,139,128,131,131,14,14,2,2,0.3,0.4
2022-07-23T21:00:00,2164A,112.8271,35.4828,晋城市,泽州一中,,,,,,,,,,,,,,,,
2022-07-23T21:00:00,2165A,112.8453,35.546,晋城市,白马寺 (对照点),,,,,,,,,,,,,,,,
2022-07-23T21:00:00,2166A,112.4397,39.3522,朔州市,平朔,,46,46,36,7,20,144,114,141,137,18,14,4,4,0.5,0.5
2022-07-23T21:00:00,2167A,112.4575,39.3617,朔州市,朔唯,,37,36,35,7,22,143,116,140,136,19,20,5,5,0.5,0.6
2022-07-23T21:00:00,2168A,112.4258,39.3197,朔州市,区政府,,37,33,42,7,20,133,116,130,128,18,17,7,7,0.6,0.6
2022-07-23T21:00:00,2169A,112.4072,39.3278,朔州市,市环保局,颗粒物(PM10),64,78,48,12,17,137,101,128,122,18,19,5,5,0.3,0.4
2022-07-23T21:00:00,2170A,112.4272,39.3681,朔州市,市二中,,35,35,38,10,22,145,106,140,134,26,15,8,7,0.5,0.6
2022-07-23T21:00:00,2171A,112.7532,37.6945,晋中市,锦纶小区,颗粒物(PM10),51,52,62,26,37,192,153,178,178,30,30,10,9,0.6,0.6
2022-07-23T21:00:00,2173A,112.7249,37.7067,晋中市,南都小区,,,55,59,,43,199,162,180,180,25,27,10,9,0.6,0.6
2022-07-23T21:00:00,2174A,112.6991,37.6982,晋中市,榆次区政府,细颗粒物(PM2.5),52,43,58,36,38,193,147,174,174,18,21,11,10,0.6,0.7
2022-07-23T21:00:00,2175A,110.9956,35.0147,运城市,运城中学,,39,33,26,27,20,144,111,125,125,11,9,5,5,0.6,0.6
2022-07-23T21:00:00,2176A,111.0233,35.0611,运城市,禹都开发区,,,,,,,,,,,,,,,,
2022-07-23T21:00:00,2178A,110.9686,35.0303,运城市,地区技校,,36,36,23,11,15,142,106,127,126,22,8,6,6,0.7,0.5
2022-07-23T21:00:00,2179A,111.0414,35.1147,运城市,空港新区,,41,41,29,15,22,150,98,139,136,22,10,8,8,0.5,0.4
2022-07-23T21:00:00,2181A,112.7383,38.4519,忻州市,开发区,臭氧1小时,93,87,35,63,32,214,194,161,161,19,20,18,13,1.0,0.6
2022-07-23T21:00:00,2182A,112.7003,38.4928,忻州市,会展中心,细颗粒物(PM2.5),88,88,40,65,24,186,186,154,154,18,23,14,9,0.9,0.5
2022-07-23T21:00:00,2183A,111.1406,37.5211,吕梁市,环保局,颗粒物(PM10),58,66,38,14,11,151,27,139,124,70,31,12,13,0.5,0.3
2022-07-23T21:00:00,2185A,111.1297,37.5136,吕梁市,自来水公司,颗粒物(PM10),59,67,44,11,11,144,64,132,123,38,24,6,7,0.7,0.4
2022-07-23T21:00:00,2186A,106.8288,39.6778,乌海市,聚英学校,,,,,,,,,,,,,,,,
2022-07-23T21:00:00,2187A,106.8174,39.6973,乌海市,市林业局,,49,49,73,21,22,161,100,149,138,36,32,27,37,0.7,0.9
2022-07-23T21:00:00,2188A,106.7907,39.6667,乌海市,中海勃湾学校,,44,44,55,17,17,164,93,155,142,50,34,22,38,0.5,0.5
2022-07-23T21:00:00,2191A,122.2532,43.6801,通辽市,艺术职业学校,,29,29,31,6,10,91,34,83,65,21,18,4,5,0,0.1
2022-07-23T21:00:00,2192A,119.7594,49.2261,呼伦贝尔市,区环保局,,22,17,25,11,15,97,68,81,74,7,11,4,5,0.3,0.3
2022-07-23T21:00:00,2194A,107.5936,40.916,巴彦淖尔市,秋林养殖基地(对照点),,,,,,,,,,,,,,,,
2022-07-23T21:00:00,2195A,107.4212,40.761,巴彦淖尔市,附二中,颗粒物(PM10),81,111,57,27,19,187,120,155,146,15,16,3,11,0.5,0.7
2022-07-23T21:00:00,2196A,107.37,40.7372,巴彦淖尔市,市环保大楼,颗粒物(PM10),85,119,59,24,21,184,130,154,148,10,15,3,8,0.6,0.7
2022-07-23T21:00:00,2197A,113.1306,40.9923,乌兰察布市,集宁新区,,38,28,32,5,17,158,121,150,144,14,15,8,8,0.2,0.4
2022-07-23T21:00:00,2200A,122.0392,46.0656,兴安盟,胜华新制药厂,,27,24,25,9,12,97,86,94,82,7,5,2,2,0.2,0.2
2022-07-23T21:00:00,2201A,121.9504,46.0741,兴安盟,科右前旗环保局,,25,14,14,13,12,96,78,91,79,8,10,2,3,0.2,0.2
2022-07-23T21:00:00,2202A,116.1042,43.9317,锡林郭勒盟,市环保监测站,,32,9,14,4,5,136,101,126,112,7,5,12,10,0.2,0.5
2022-07-23T21:00:00,2203A,116.0781,43.9311,锡林郭勒盟,市政府,,34,12,10,7,3,145,108,133,116,8,6,13,8,0.4,0.4
2022-07-23T21:00:00,2204A,105.6467,38.8363,阿拉善盟,西城区西花园(对照点),,35,30,19,8,10,141,111,138,133,16,7,3,4,0.4,0.4
2022-07-23T21:00:00,2205A,105.6985,38.8411,阿拉善盟,蒙二幼,,42,27,20,29,18,142,114,139,133,18,6,7,8,0.3,0.2
2022-07-23T21:00:00,2206A,105.724,38.8516,阿拉善盟,环保局新楼,,38,19,14,15,12,136,120,132,127,15,7,7,7,0.3,0.2
2022-07-23T21:00:00,2207A,121.6094,41.998,阜新市,工业园区,,28,28,47,16,20,114,59,102,96,19,23,17,19,0.7,0.6
2022-07-23T21:00:00,2208A,121.6697,42.0279,阜新市,长青街,,26,26,45,9,22,98,47,84,76,11,21,12,19,0.5,0.5
2022-07-23T21:00:00,2209A,121.6673,42.0705,阜新市,农业园区,,24,24,42,12,19,111,67,93,89,13,10,64,29,0.6,0.6
2022-07-23T21:00:00,2210A,121.6717,42.0224,阜新市,东苑,,24,24,67,15,22,108,64,97,90,17,22,28,38,0.6,0.6
2022-07-23T21:00:00,2211A,121.6506,42.0498,阜新市,玉龙新城,,21,21,38,11,15,100,48,88,83,17,19,16,17,0.4,0.4
2022-07-23T21:00:00,2212A,123.2,41.1953,辽阳市,宏伟区,,17,17,31,10,13,75,45,65,60,14,10,6,7,0.5,0.6
2022-07-23T21:00:00,2213A,123.1683,41.2495,辽阳市,新华园,细颗粒物(PM2.5),63,64,48,45,21,89,55,76,74,24,23,15,9,0.5,0.5
2022-07-23T21:00:00,2214A,123.2354,41.2639,辽阳市,滨河路,,48,48,52,30,23,85,43,72,67,22,20,14,10,0.5,0.6
2022-07-23T21:00:00,2215A,123.149,41.2991,辽阳市,铁西工业园,颗粒物(PM10),53,56,49,24,25,84,45,71,68,19,25,10,5,0.8,0.8
2022-07-23T21:00:00,2216A,123.8139,42.3022,铁岭市,汇工街西,,22,11,30,6,10,97,69,82,81,16,26,6,12,0.5,0.4
2022-07-23T21:00:00,2217A,123.8649,42.2923,铁岭市,水上乐园,,17,17,25,9,12,92,52,69,66,26,22,5,5,0.4,0.3
2022-07-23T21:00:00,2218A,123.8486,42.2867,铁岭市,银州路东段,,18,9,21,2,8,94,57,73,70,21,20,6,6,0.5,0.4
2022-07-23T21:00:00,2219A,123.7153,42.2217,铁岭市,金沙江路北,,20,10,45,7,24,106,63,84,80,27,28,6,7,0.5,0.5
2022-07-23T21:00:00,2220A,120.4318,41.5881,朝阳市,西梁,,24,16,33,10,12,85,74,79,76,8,15,9,8,0.7,0.7
2022-07-23T21:00:00,2221A,120.4521,41.5646,朝阳市,河畔小区,,,,42,8,13,91,84,84,81,6,12,6,9,0.5,0.5
2022-07-23T21:00:00,2222A,120.4176,41.5648,朝阳市,八里堡,,,,,,,,,,,,,,,,
2022-07-23T21:00:00,2223A,120.3806,41.5969,朝阳市,农业园区,,28,28,25,13,12,90,35,80,65,23,13,8,6,0.6,0.5
2022-07-23T21:00:00,2225A,124.4002,43.1713,四平市,一商场,,32,23,25,22,10,93,88,80,78,9,18,1,2,0.5,0.3
2022-07-23T21:00:00,2226A,124.388,43.193,四平市,境园,,22,14,32,6,11,86,69,72,71,7,12,7,7,0.4,0.3
2022-07-23T21:00:00,2227A,125.1358,42.8845,辽源市,环保局,,41,41,32,20,20,95,75,78,78,6,12,5,5,0.5,0.5
2022-07-23T21:00:00,2229A,125.9358,41.7173,通化市,光明,,15,8,25,4,14,67,45,60,54,15,14,8,11,0.5,0.7
2022-07-23T21:00:00,2230A,125.9446,41.7325,通化市,铁路,,17,10,24,0,11,78,54,69,66,10,15,6,11,0.6,0.8
2022-07-23T21:00:00,2231A,126.4219,41.9171,白山市,喜丰,,25,25,31,13,13,112,54,80,60,7,13,7,10,0.8,0.8
2022-07-23T21:00:00,2232A,126.4077,41.9419,白山市,环保局,,25,25,33,15,15,118,29,86,61,27,17,7,9,0.7,0.7
2022-07-23T21:00:00,2233A,124.8006,45.1214,松原市,江南,,16,8,14,11,8,68,47,65,63,14,8,3,3,0.5,0.3
2022-07-23T21:00:00,2234A,124.7965,45.1722,松原市,江北,,19,18,13,10,6,74,60,69,64,12,10,3,2,0.3,0.3
2022-07-23T21:00:00,2235A,122.7911,45.6077,白城市,洮北区环保局,,29,20,17,6,12,95,92,87,86,7,9,3,3,0.1,0.2
2022-07-23T21:00:00,2236A,122.8738,45.5725,白城市,市环保局,,32,31,22,7,10,103,100,91,91,9,9,4,4,0.1,0.1
2022-07-23T21:00:00,2237A,129.47,42.8883,延边朝鲜族自治州,妇幼医院,,11,6,12,3,4,44,34,41,37,7,6,7,7,0.3,0.4
2022-07-23T21:00:00,2238A,129.5055,42.9108,延边朝鲜族自治州,延边医院,,,,,,,,,,,,,,,,
2022-07-23T21:00:00,2239A,129.3964,42.8881,延边朝鲜族自治州,朝阳川镇医院,,14,14,13,1,2,46,31,40,34,9,6,8,7,0.3,0.4
2022-07-23T21:00:00,2240A,130.9762,45.3001,鸡西市,环保局,,23,23,32,11,12,74,29,66,60,17,17,1,3,0.3,0.3
2022-07-23T21:00:00,2243A,130.9429,45.3039,鸡西市,第一中学,,32,32,37,10,9,84,32,73,65,13,10,2,2,0.3,0.3
2022-07-23T21:00:00,2244A,130.2537,47.3416,鹤岗市,哈啤分公司,,9,7,11,6,6,37,12,32,23,7,6,6,5,0.3,0.3
2022-07-23T21:00:00,2245A,130.2684,47.3086,鹤岗市,斯达机电,,17,17,14,8,6,41,15,36,28,11,6,5,5,0.2,0.2
2022-07-23T21:00:00,2246A,130.3114,47.3388,鹤岗市,东山纸板厂,,29,29,25,10,12,41,16,36,27,7,7,8,8,0.3,0.2
2022-07-23T21:00:00,2247A,130.1097,47.3382,鹤岗市,五号水库(对照点),,9,7,6,6,5,38,15,34,28,9,7,10,9,0.1,0.2
2022-07-23T21:00:00,2248A,131.1511,46.6937,双鸭山市,双合村,,21,21,17,7,8,28,3,26,21,18,13,4,4,0.3,0.2
2022-07-23T21:00:00,2249A,131.1652,46.6191,双鸭山市,南小市,,22,22,18,12,7,38,15,37,33,18,9,4,4,0.1,0
2022-07-23T21:00:00,2250A,131.1524,46.6554,双鸭山市,环保局,,23,23,14,7,5,33,23,28,26,6,7,3,2,0.1,0.1
2022-07-23T21:00:00,2251A,131.12,46.5656,双鸭山市,苗圃(对照点),,28,28,16,18,12,36,12,34,28,6,6,2,2,0.4,0.4
2022-07-23T21:00:00,2252A,128.5159,47.4311,伊春市,环保局,,16,16,18,10,12,53,20,48,38,10,10,3,4,0.2,0.4
2022-07-23T21:00:00,2253A,128.9102,47.7412,伊春市,电力嘉园,,13,13,16,9,6,56,20,49,36,7,7,16,12,0.4,0.5
2022-07-23T21:00:00,2254A,129.5029,48.471,伊春市,汤旺河国家公园(对照点),,9,6,7,6,5,37,1,31,22,1,2,7,6,0.3,0.2
2022-07-23T21:00:00,2255A,130.2751,46.8028,佳木斯市,佳纺,,17,17,16,10,9,38,13,35,31,18,8,2,2,0.4,0.3
2022-07-23T21:00:00,2256A,130.3995,46.8307,佳木斯市,发电厂,,16,15,17,11,11,33,16,31,27,8,6,12,5,0.3,0.2
2022-07-23T21:00:00,2257A,130.3258,46.7975,佳木斯市,环保局,,21,21,21,11,9,29,10,27,22,22,11,3,2,0.4,0.3
2022-07-23T21:00:00,2258A,130.3648,46.8032,佳木斯市,十一中,,24,24,19,16,10,33,14,30,25,18,10,4,4,0.3,0.2
2022-07-23T21:00:00,2259A,130.3794,46.7588,佳木斯市,四丰(对照点),,13,13,16,8,9,37,6,35,27,26,15,1,1,0.4,0.4
2022-07-23T21:00:00,2262A,131.0518,45.8751,七台河市,新一中(对照点),,9,8,8,4,6,63,27,60,52,13,11,5,6,0.5,0.5
2022-07-23T21:00:00,2263A,127.4833,50.2524,黑河市,交通局,,32,32,26,14,8,74,22,58,45,14,5,5,5,0.4,0.3
2022-07-23T21:00:00,2264A,127.5144,50.2341,黑河市,环保局,,20,18,23,14,11,66,25,59,46,17,8,6,6,0.4,0.4
2022-07-23T21:00:00,2265A,127.5291,50.2472,黑河市,大黑河岛(对照点),,42,19,18,29,10,64,15,56,44,10,5,7,7,0.8,0.6
2022-07-23T21:00:00,2266A,126.9785,46.6365,绥化市,人和东街,,18,18,22,11,12,61,41,58,55,14,10,5,6,0.2,0.2
2022-07-23T21:00:00,2267A,126.964,46.6528,绥化市,党政办公中心,,22,22,21,12,11,66,52,64,62,10,9,5,6,0.2,0.2
2022-07-23T21:00:00,2269A,124.1069,50.4097,大兴安岭地区,科技局,,9,6,4,6,5,52,17,50,43,12,4,6,4,0.0,0.1
2022-07-23T21:00:00,2270A,117.396,32.939,蚌埠市,工人疗养院,,28,20,19,5,12,121,88,110,109,14,7,8,8,0.4,0.3
2022-07-23T21:00:00,2271A,117.3605,32.9427,蚌埠市,百货大楼,,29,24,26,13,10,123,92,112,111,13,8,7,8,0.3,0.3
2022-07-23T21:00:00,2273A,117.4185,32.8911,蚌埠市,蚌埠学院,,29,19,22,9,10,123,92,113,112,6,4,4,4,0.3,0.3
2022-07-23T21:00:00,2274A,117.3533,32.9673,蚌埠市,淮上区政府,,27,27,24,12,10,122,80,112,109,14,6,10,9,0.4,0.3
2022-07-23T21:00:00,2275A,117.3145,32.8977,蚌埠市,高新区,,31,19,22,17,15,125,98,112,111,11,8,8,9,0.5,0.5
2022-07-23T21:00:00,2277A,116.8305,32.7727,淮南市,潘集区政府,,30,30,24,9,14,117,92,109,108,19,10,7,6,0.2,0.2
2022-07-23T21:00:00,2278A,117.0067,32.6524,淮南市,师范学院,颗粒物(PM10),52,53,30,8,13,112,90,106,105,12,6,7,7,0.2,0.2
2022-07-23T21:00:00,2279A,116.8569,32.5951,淮南市,谢家集区政府,,32,12,22,13,8,122,101,114,114,15,9,6,5,0.3,0.2
2022-07-23T21:00:00,2280A,116.8281,32.633,淮南市,八公山区政府,,33,24,20,12,14,119,104,113,113,9,6,6,5,0.3,0.2
2022-07-23T21:00:00,2281A,116.6325,32.6201,淮南市,焦岗湖风景区管理处(对照点),,31,24,21,13,6,120,97,110,110,11,9,6,7,0.2,0.2
2022-07-23T21:00:00,2282A,116.8004,33.975,淮北市,监测站,,38,38,16,14,9,114,83,110,104,19,6,5,5,0.6,0.4
2022-07-23T21:00:00,2283A,116.8091,33.9007,淮北市,烈山区政府,,26,24,10,16,12,116,81,113,108,20,6,6,5,0.8,0.6
2022-07-23T21:00:00,2284A,116.7856,33.9477,淮北市,职业技术学院,颗粒物(PM10),64,78,19,19,11,112,86,108,104,12,3,8,5,0.7,0.5
2022-07-23T21:00:00,2285A,117.8177,30.9412,铜陵市,市第四中学,,25,17,30,12,18,118,80,106,98,17,13,16,11,0.5,0.4
2022-07-23T21:00:00,2286A,117.8059,30.9273,铜陵市,市公路局,,26,24,35,6,8,110,81,99,94,8,10,6,5,0.7,0.6
2022-07-23T21:00:00,2287A,117.7807,30.9413,铜陵市,市新民污水厂,,25,20,33,13,17,106,78,97,94,12,20,6,15,0.4,0.4
2022-07-23T21:00:00,2288A,117.7439,30.8792,铜陵市,市第九中学,,34,34,40,19,17,104,83,98,95,12,17,11,8,0.6,0.6
2022-07-23T21:00:00,2289A,117.846,30.9413,铜陵市,车站新区,,25,25,38,16,17,102,68,91,86,21,18,11,11,0.6,0.6
2022-07-23T21:00:00,2290A,117.8483,30.97,铜陵市,市职教基地,,24,21,29,7,10,101,75,90,87,10,9,4,4,0.8,0.8
2022-07-23T21:00:00,2291A,117.0809,30.5177,安庆市,环科院,,26,24,30,13,16,115,83,106,90,6,13,5,6,0.6,0.4
2022-07-23T21:00:00,2292A,117.0331,30.5119,安庆市,马山宾馆,,26,23,27,15,17,120,82,107,90,7,17,4,5,0.6,0.5
2022-07-23T21:00:00,2294A,116.9896,30.6145,安庆市,安庆大学,,25,16,32,12,17,110,78,100,86,6,13,5,7,0.5,0.5
2022-07-23T21:00:00,2295A,118.2903,29.6963,黄山市,延安路89号,,,21,27,,10,91,55,83,78,5,4,6,6,0.2,0.2
2022-07-23T21:00:00,2296A,118.327,29.7178,黄山市,黄山东路89号,,27,27,24,12,7,90,66,81,77,5,5,5,4,0.3,0.3
2022-07-23T21:00:00,2297A,118.1371,30.2756,黄山市,黄山区政府5号楼,,28,28,29,12,12,89,79,82,82,3,4,6,6,0.4,0.4
2022-07-23T21:00:00,2298A,118.3093,32.3153,滁州市,老年大学,,32,21,30,15,16,118,102,112,111,8,12,2,4,0.2,0.3
2022-07-23T21:00:00,2299A,118.3244,32.2786,滁州市,人大宾馆,,32,18,23,15,17,118,101,111,110,10,12,5,7,0.3,0.4
2022-07-23T21:00:00,2301A,115.8277,32.8929,阜阳市,市监测站,,31,10,13,6,5,124,98,119,117,13,7,6,6,0.5,0.4
2022-07-23T21:00:00,2303A,115.8554,32.8605,阜阳市,开发区,,33,33,11,12,8,127,86,119,116,18,8,7,7,0.5,0.4
2022-07-23T21:00:00,2306A,116.989,33.6306,宿州市,火车站,,,,,,,,,,,,,,,,
2022-07-23T21:00:00,2307A,116.5079,31.737,六安市,监测大楼,,28,24,17,12,7,93,89,88,88,4,5,5,6,0.5,0.4
2022-07-23T21:00:00,2308A,116.4738,31.7643,六安市,皖西学院,,25,23,14,8,7,98,79,92,91,8,4,10,10,0.3,0.3
2022-07-23T21:00:00,2309A,116.4996,31.7905,六安市,朝阳厂,,36,36,11,15,7,87,74,84,83,8,3,8,8,0.5,0.5
2022-07-23T21:00:00,2310A,116.5567,31.7886,六安市,开发区,,22,20,15,12,9,94,70,90,88,22,10,6,6,0.5,0.5
2022-07-23T21:00:00,2311A,115.8072,33.8399,亳州市,污水处理厂,,30,18,11,15,10,125,94,120,118,22,7,6,5,0.5,0.4
2022-07-23T21:00:00,2312A,115.7789,33.8518,亳州市,三国揽胜宫,,34,25,17,12,7,127,106,122,121,10,4,7,6,0.6,0.5
2022-07-23T21:00:00,2314A,117.47,30.6618,池州市,池州学院,,27,23,26,14,16,109,86,104,98,6,12,6,7,0.5,0.5
2022-07-23T21:00:00,2315A,117.4974,30.6539,池州市,平天湖(对照点),,,,,,,,,,,,,,,,
2022-07-23T21:00:00,2316A,118.7581,30.9454,宣城市,鳌峰子站,,25,12,30,15,17,128,78,98,95,13,14,5,6,0.5,0.4
2022-07-23T21:00:00,2317A,118.7385,30.9743,宣城市,敬亭山子站,,23,19,28,16,15,127,66,101,96,15,16,7,8,0.4,0.3
2022-07-23T21:00:00,2318A,118.7173,30.9427,宣城市,开发区子站,,28,20,28,19,18,133,78,107,103,23,16,9,6,0.6,0.4
2022-07-23T21:00:00,2319A,119.0141,25.4325,莆田市,荔城区仓后路,颗粒物(PM10),55,59,66,30,34,185,64,166,132,24,21,5,5,0.9,0.9
2022-07-23T21:00:00,2320A,119.0015,25.4553,莆田市,莆田市监测站,颗粒物(PM10),60,69,65,34,38,212,50,187,151,36,18,6,8,0.8,0.8
2022-07-23T21:00:00,2321A,119.1119,25.4561,莆田市,涵江区六中,颗粒物(PM10),52,53,58,24,42,209,76,177,137,17,23,8,8,0.5,0.7
2022-07-23T21:00:00,2322A,119.1013,25.3215,莆田市,秀屿区政府,,33,33,42,9,25,173,75,145,117,13,14,6,8,0.7,0.7
2022-07-23T21:00:00,2323A,118.981,25.4792,莆田市,东圳水库(对照点),,,,,,,,,,,,,,,,
2022-07-23T21:00:00,2324A,117.6211,26.2625,三明市,三钢,,31,31,36,17,22,130,23,100,62,27,18,3,11,0.3,0.7
2022-07-23T21:00:00,2325A,117.635,26.2714,三明市,三明二中,,20,20,28,14,17,128,19,102,64,32,15,4,7,0.6,0.6
2022-07-23T21:00:00,2326A,117.6028,26.2378,三明市,三元区政府,,40,37,33,28,18,132,28,104,69,25,15,8,8,0.6,0.5
2022-07-23T21:00:00,2327A,117.7275,26.3108,三明市,洋溪(对照点),,,,,,,,,,,,,,,,
2022-07-23T21:00:00,2331A,118.0966,26.6761,南平市,茫荡山(对照点),,,,,,,,,,,,,,,,
2022-07-23T21:00:00,2332A,118.1681,26.6369,南平市,南平市监测站,,48,29,31,33,30,126,32,113,85,19,12,5,6,0.5,0.4
2022-07-23T21:00:00,2333A,118.1825,26.6489,南平市,南平铝业有限公司,,38,38,31,13,17,121,27,109,79,20,11,5,7,0.6,0.5
2022-07-23T21:00:00,2334A,118.1756,26.6272,南平市,南平七中,,30,25,27,21,19,121,46,108,85,12,10,5,6,0.5,0.5
2022-07-23T21:00:00,2335A,117.0189,25.1181,龙岩市,龙岩师专(对照点),,,,,,,,,,,,,,,,
2022-07-23T21:00:00,2336A,117.0217,25.1033,龙岩市,龙岩市监测站,,32,13,33,22,18,130,55,107,88,23,17,8,7,0.7,0.5
2022-07-23T21:00:00,2337A,117.0258,25.0661,龙岩市,闽西职业技术学院,颗粒物(PM10),56,62,51,18,24,132,18,107,78,45,21,6,12,0.5,0.5
2022-07-23T21:00:00,2338A,117.0196,25.0306,龙岩市,龙岩学院,,28,25,31,19,19,115,72,100,86,12,9,6,6,0.4,0.4
2022-07-23T21:00:00,2339A,119.5001,26.6946,宁德市,金涵水库(对照点),,32,6,41,22,21,142,47,110,83,13,11,4,4,0.4,0.5
2022-07-23T21:00:00,2341A,119.5388,26.6612,宁德市,宁德市监测站,细颗粒物(PM2.5),57,46,55,40,27,145,108,117,114,23,16,9,7,1.0,0.7
2022-07-23T21:00:00,2342A,117.3102,29.3867,景德镇市,王港中学(对照点),颗粒物(PM10),53,56,38,24,17,143,62,120,100,29,18,5,6,0.5,0.4
2022-07-23T21:00:00,2343A,117.2117,29.2933,景德镇市,老干部活动中心,颗粒物(PM10),56,61,54,24,23,118,71,110,98,25,20,19,13,0.6,0.4
2022-07-23T21:00:00,2344A,117.1894,29.2789,景德镇市,兽医站,颗粒物(PM10),76,101,47,27,21,118,7,112,86,77,20,93,16,0.6,0.5
2022-07-23T21:00:00,2345A,117.1547,29.2617,景德镇市,台达陶瓷,颗粒物(PM10),52,54,55,23,28,110,80,106,99,13,25,50,32,0.4,0.4
2022-07-23T21:00:00,2346A,117.2461,29.2956,景德镇市,陶研所,,30,29,34,21,18,115,65,109,96,13,10,8,10,0.4,0.4
2022-07-23T21:00:00,2347A,114.0997,27.5002,萍乡市,武功山(对照点),,13,5,7,9,4,34,23,31,30,7,6,12,16,0.3,0.2
2022-07-23T21:00:00,2348A,113.8385,27.6434,萍乡市,中医院,,24,17,16,16,12,85,75,78,78,9,9,7,8,0.4,0.4
2022-07-23T21:00:00,2349A,113.8493,27.6253,萍乡市,市政府车库,,30,21,20,21,14,116,68,82,82,15,11,6,9,0.4,0.4
2022-07-23T21:00:00,2350A,113.8676,27.6435,萍乡市,市环保局,,23,18,17,15,13,94,72,85,85,11,7,6,8,0.3,0.3
2022-07-23T21:00:00,2351A,113.866,27.6198,萍乡市,安源区政府,,28,28,20,8,13,94,72,84,83,9,5,7,8,0.2,0.2
2022-07-23T21:00:00,2352A,115.0861,27.9317,新余市,北岗(对照点),,18,18,26,12,17,94,43,86,72,9,12,6,8,0.5,0.5
2022-07-23T21:00:00,2353A,114.9886,27.8431,新余市,飞宇,,33,33,38,14,18,83,59,78,76,18,15,7,11,0.7,1
2022-07-23T21:00:00,2354A,114.9231,27.8246,新余市,第二水厂,,35,35,31,18,12,89,79,84,84,13,11,8,8,0.7,0.7
2022-07-23T21:00:00,2355A,114.9308,27.8036,新余市,市气象局,,29,29,38,18,21,84,70,80,80,14,14,6,19,0.7,0.8
2022-07-23T21:00:00,2357A,116.9822,28.1136,鹰潭市,龙虎山(对照点),,30,30,27,11,12,106,40,102,84,19,6,2,3,0.4,0.5
2022-07-23T21:00:00,2358A,117.0564,28.2642,鹰潭市,新监测站,,41,41,29,9,11,111,65,100,87,4,4,4,2,0.1,0.2
2022-07-23T21:00:00,2359A,117.0311,28.2475,鹰潭市,财苑宾馆,,40,40,41,9,9,93,61,89,80,10,9,5,2,0.3,0.3
2022-07-23T21:00:00,2360A,117.0222,28.2264,鹰潭市,体育馆,颗粒物(PM10),58,66,35,17,14,102,53,94,79,16,6,2,2,0.2,0.2
2022-07-23T21:00:00,2361A,117.0017,28.2131,鹰潭市,三川水表,颗粒物(PM10),78,106,39,22,14,93,43,87,73,7,3,2,2,0.6,0.6
2022-07-23T21:00:00,2362A,114.9017,25.9149,赣州市,通天岩(对照点),,29,24,35,20,23,130,54,117,94,18,13,5,13,0.4,0.4
2022-07-23T21:00:00,2363A,114.9367,25.8664,赣州市,地委,,27,27,39,10,20,127,54,116,95,21,16,11,13,0.8,0.8
2022-07-23T21:00:00,2364A,114.9461,25.8481,赣州市,气象台,,26,26,31,8,21,126,62,116,99,13,10,5,10,0.7,0.7
2022-07-23T21:00:00,2365A,114.9322,25.8333,赣州市,市图书馆,,23,23,30,14,19,138,65,125,106,20,14,4,7,0.7,0.8
2022-07-23T21:00:00,2366A,114.8905,25.8471,赣州市,华坚鞋城,,20,20,43,12,22,134,61,121,97,15,15,4,11,0.7,0.7
2022-07-23T21:00:00,2367A,114.9754,27.0803,吉安市,红声器材厂,,33,33,40,12,20,135,66,100,71,10,9,5,8,0.5,0.4
2022-07-23T21:00:00,2368A,114.9658,27.0999,吉安市,市森林工业局,,22,22,39,14,22,139,70,99,74,7,11,6,9,0.4,0.4
2022-07-23T21:00:00,2369A,114.99,27.1312,吉安市,市环境监测站,,28,28,37,18,18,135,60,98,69,15,10,6,12,0.5,0.6
2022-07-23T21:00:00,2370A,115.0093,27.0968,吉安市,青原区法院,,24,24,36,12,19,134,57,104,70,10,8,7,13,0.3,0.3
2022-07-23T21:00:00,2371A,114.3408,27.8064,宜春市,槟榔水业(对照点),,,,,,,,,,,,,,,,
2022-07-23T21:00:00,2373A,114.3956,27.7844,宜春市,市石油公司,,38,38,35,20,16,98,47,92,84,27,17,5,8,1.1,0.9
2022-07-23T21:00:00,2374A,114.3703,27.7914,宜春市,市气象局,,37,37,33,14,14,103,63,93,90,17,12,6,9,0.8,0.7
2022-07-23T21:00:00,2375A,114.4013,27.8074,宜春市,市广电局,,,,,,,,,,,,,,,,
2022-07-23T21:00:00,2376A,116.2127,28.0814,抚州市,桐源党溪(对照点),,25,25,25,14,15,79,23,73,55,12,6,3,2,0.7,0.7
