timepoint,stationcode,longitude,latitude,area,positionname,primarypollutant,aqi,pm10,pm10_24h,pm2_5,pm2_5_24h,o3,o3_24h,o3_8h,o3_8h_24h,no2,no2_24h,so2,so2_24h,co,co_24h
2024-08-29T2100,2566A,102.1879,31.914,阿坝藏族羌族自治州,州农科所,,46,46,25,13,9,112,,87,87,5,9,7,7,0,0
2024-08-29T2100,2568A,102.2502,31.8896,阿坝藏族羌族自治州,马师校,,35,25,16,18,12,112,,90,90,5,9,3,4,0.3,0.4
2024-08-29T2100,3994A,102.2165,31.9024,阿坝藏族羌族自治州,马尔康中学西区,,36,28,20,14,15,113,,91,91,8,9,5,5,0.3,0.4
2024-08-29T2100,2695A,80.292,41.1694,阿克苏地区,电视台,,28,,24,19,19,52,,92,74,21,14,3,3,0.6,0.4
2024-08-29T2100,2696A,80.2613,41.1551,阿克苏地区,艺术中心,,25,17,21,17,12,56,,98,68,25,16,4,4,0.7,0.4
2024-08-29T2100,2204A,105.6467,38.8363,阿拉善盟,西城区西花园,,50,46,41,26,14,160,,179,175,20,17,12,11,1.2,1.1
2024-08-29T2100,2205A,105.6985,38.8411,阿拉善盟,蒙二幼,,45,45,28,27,15,140,,162,160,18,9,10,10,0.8,0.7
2024-08-29T2100,2206A,105.724,38.8516,阿拉善盟,环保局新楼,,45,43,25,25,14,143,,164,161,14,7,11,11,0.7,0.6
2024-08-29T2100,2708A,88.1264,47.8517,阿勒泰地区,市站,颗粒物(PM10),52,53,33,3,8,53,,82,78,16,17,8,7,0.6,0.6
2024-08-29T2100,2630A,80.1161,32.5,阿里地区,阿里监测站,,24,8,6,3,2,74,,102,82,5,4,6,6,0.3,0.3
2024-08-29T2100,3192A,80.0903,32.5028,阿里地区,阿里藏医院,,24,6,7,3,1,76,,96,82,3,4,7,7,0.3,0.3
2024-08-29T2100,2642A,109.0318,32.6537,安康市,香溪洞,,42,42,32,17,10,96,,113,103,6,9,6,7,0.4,0.4
2024-08-29T2100,2643A,109.0281,32.6939,安康市,安康市监测站,,31,31,27,12,10,94,,113,103,6,7,6,11,0.6,0.6
2024-08-29T2100,2644A,109.0072,32.6975,安康市,汉滨区检察院,,32,28,22,15,10,100,,117,109,5,6,8,12,0.6,0.6
2024-08-29T2100,2291A,117.0809,30.5177,安庆市,环科院,,32,32,25,21,17,102,,133,127,10,11,6,7,0.6,0.7
2024-08-29T2100,2292A,117.0331,30.5119,安庆市,马山宾馆,,34,32,26,21,18,106,,134,128,10,14,9,9,0.6,0.6
2024-08-29T2100,2294A,116.9896,30.6145,安庆市,安庆大学,,32,32,24,21,16,80,,120,114,8,9,7,8,0.6,0.6
2024-08-29T2100,3173A,117.0598,30.5351,安庆市,市人大,,31,30,24,21,17,98,,129,123,9,9,7,8,0.9,0.9
2024-08-29T2100,3122A,105.9606,26.2611,安顺市,伍家关,,,,,,,,,,,,,,,,
2024-08-29T2100,3123A,105.9408,26.2431,安顺市,凤凰山,,35,34,23,24,15,65,,85,81,4,5,8,9,0.5,0.5
2024-08-29T2100,3124A,105.9439,26.2564,安顺市,金钟山,,33,26,20,23,15,68,,88,84,4,4,5,6,0.4,0.4
2024-08-29T2100,3125A,105.8983,26.2481,安顺市,娄家坡,,30,25,19,21,13,66,,87,83,4,4,4,6,0.6,0.6
2024-08-29T2100,1818A,114.4839,36.0621,安阳市,棉研所,,,,,,,,,,,,,,,,
2024-08-29T2100,1819A,114.3551,36.1017,安阳市,红庙街,颗粒物(PM10),53,55,51,34,20,152,,165,164,6,7,5,8,0.5,0.6
2024-08-29T2100,1820A,114.361,36.0681,安阳市,银杏小区,,,56,52,,27,144,,160,158,6,11,4,5,0.4,0.5
2024-08-29T2100,3141A,114.3922,36.0878,安阳市,信访局,颗粒物(PM10),53,55,47,35,27,142,,163,160,7,5,5,6,0.6,0.6
2024-08-29T2100,3669A,114.4705,36.0637,安阳市,左辅环卫站,,50,50,48,33,25,126,,154,149,9,12,5,7,0.7,0.7
2024-08-29T2100,3703A,114.2917,36.0949,安阳市,安钢职工学校,细颗粒物(PM2.5),59,60,75,42,34,150,,161,159,8,24,9,12,0.8,1
2024-08-29T2100,1748A,123.044,41.1196,鞍山市,深沟寺,,38,38,35,18,17,107,,136,132,18,15,6,6,0.9,1.1
2024-08-29T2100,1749A,123.011,41.0931,鞍山市,太阳城,,35,35,35,18,17,94,,141,135,19,14,5,7,0.6,0.9
2024-08-29T2100,1750A,123.0485,41.1442,鞍山市,太平,,42,42,42,20,20,111,,133,126,22,24,10,9,1.1,1.1
2024-08-29T2100,1751A,122.9642,41.0971,鞍山市,铁西三道街,,47,47,60,22,23,104,,142,133,22,34,5,7,0.7,1
2024-08-29T2100,1752A,122.9341,41.0833,鞍山市,铁西工业园区,,,58,62,,21,86,,144,130,22,34,8,10,0.7,1
2024-08-29T2100,1753A,123.022,41.0821,鞍山市,明达新区,,42,42,41,20,18,104,,130,126,15,17,4,6,0.6,0.8
2024-08-29T2100,1754A,123.1289,41.0228,鞍山市,千山,,,,,,,,,,,,,,,,
2024-08-29T2100,2195A,107.4212,40.761,巴彦淖尔市,附二中,颗粒物(PM10),61,72,52,31,25,123,,137,137,10,15,3,8,0.7,0.6
2024-08-29T2100,2196A,107.37,40.7372,巴彦淖尔市,市环保大楼,颗粒物(PM10),57,63,57,19,15,127,,138,138,11,10,10,5,0.8,0.8
2024-08-29T2100,1956A,86.1472,41.7538,巴音郭楞蒙古自治州,孔雀公园,颗粒物(PM10),56,62,72,13,20,97,,116,113,16,11,5,7,0.2,0.2
2024-08-29T2100,1957A,86.1972,41.7166,巴音郭楞蒙古自治州,棉纺厂,颗粒物(PM10),54,57,74,26,24,98,,115,114,16,16,5,8,0.2,0.2
2024-08-29T2100,1958A,86.2357,41.7173,巴音郭楞蒙古自治州,经济开发区,颗粒物(PM10),55,59,66,19,23,104,,117,116,8,7,6,7,0.2,0.2
2024-08-29T2100,2914A,106.7677,31.8794,巴中市,苏山坪,,30,30,23,21,15,71,,89,76,10,8,4,4,0.6,0.5
2024-08-29T2100,3182A,106.7656,31.8545,巴中市,丽阳花园,细颗粒物(PM2.5),52,48,26,36,20,54,,85,70,15,11,4,4,0.7,0.6
2024-08-29T2100,3183A,106.7418,31.8654,巴中市,圣泉水务公司,细颗粒物(PM2.5),55,50,27,39,21,55,,80,69,15,14,5,4,0.7,0.6
2024-08-29T2100,3616A,106.7616,31.8344,巴中市,市中心医院,细颗粒物(PM2.5),52,47,25,36,18,50,,87,70,18,10,3,3,0.7,0.6
2024-08-29T2100,2235A,122.7911,45.6077,白城市,洮北区环保局,,36,36,25,7,6,68,,101,94,14,12,4,5,0.5,0.5
2024-08-29T2100,2236A,122.8738,45.5725,白城市,市环保局,,31,31,28,10,8,70,,88,85,16,13,5,5,0.3,0.3
2024-08-29T2100,2231A,126.4219,41.9171,白山市,喜丰,,,31,39,14,11,,,97,81,36,16,9,12,0.8,0.8
2024-08-29T2100,2232A,126.4077,41.9419,白山市,环保局,颗粒物(PM10),54,57,31,20,14,15,,85,62,33,16,10,12,0.9,0.6
2024-08-29T2100,2647A,104.1724,36.5446,白银市,第三小学,,42,42,38,20,20,104,,114,114,14,13,10,20,0.7,0.8
2024-08-29T2100,2648A,104.1465,36.5482,白银市,动力公司,,,,30,19,16,92,,110,108,19,14,8,14,0.4,0.6
2024-08-29T2100,2512A,106.6103,23.9011,百色市,市监测站,,35,35,38,19,20,34,,109,79,24,16,15,7,0.7,0.6
2024-08-29T2100,2513A,106.6538,23.8859,百色市,市中心血站,,40,40,53,23,27,43,,100,74,22,19,12,8,0.7,0.7
2024-08-29T2100,3406A,106.6085,23.8798,百色市,祈福高中,,38,38,54,24,24,41,,103,73,20,20,9,6,0.8,0.8
2024-08-29T2100,2270A,117.396,32.939,蚌埠市,工人疗养院,,43,43,33,11,11,48,,85,78,18,4,8,8,0.3,0.3
2024-08-29T2100,2271A,117.3605,32.9427,蚌埠市,百货大楼,,33,33,31,11,14,52,,88,81,14,3,5,5,0.4,0.4
2024-08-29T2100,2273A,117.4185,32.8911,蚌埠市,蚌埠学院,,24,24,23,11,13,33,,91,80,42,11,8,7,0.5,0.4
2024-08-29T2100,2274A,117.3533,32.9673,蚌埠市,淮上区政府,,34,34,26,17,15,66,,93,87,4,2,6,7,0.7,0.7
2024-08-29T2100,2275A,117.3145,32.8977,蚌埠市,高新区,,29,29,25,9,13,71,,91,87,10,4,6,6,0.6,0.6
2024-08-29T2100,3715A,117.3092,32.9314,蚌埠市,蚌埠田家炳中学,,32,32,28,9,13,66,,90,86,6,2,4,4,0.4,0.4
2024-08-29T2100,1585A,109.8756,40.6532,包头市,市环境监测站,颗粒物(PM10),52,53,42,19,22,101,,174,168,60,31,11,25,0.9,0.9
2024-08-29T2100,1587A,109.9991,40.5842,包头市,包头八中,,50,50,48,24,24,141,,170,170,28,26,16,29,1.0,0.9
2024-08-29T2100,1588A,109.8538,40.6821,包头市,青山宾馆,,38,38,37,26,21,68,,173,163,76,34,8,18,1.0,0.9
2024-08-29T2100,1589A,109.8642,40.6288,包头市,惠龙物流,,46,46,43,22,20,140,,177,175,30,25,8,24,0.8,0.7
2024-08-29T2100,1590A,110.0377,40.5546,包头市,东河鸿龙湾,颗粒物(PM10),62,74,45,39,22,100,,172,166,44,24,11,28,1.2,1
2024-08-29T2100,3283A,109.9154,40.5685,包头市,滨河大厦,,47,47,39,20,20,132,,180,178,35,30,9,18,0.7,0.7
2024-08-29T2100,3419A,109.9447,40.6261,包头市,包头市委党校,,50,50,44,25,21,116,,172,168,51,31,11,28,0.7,0.8
2024-08-29T2100,3683A,109.8331,40.6576,包头市,昆区政府,,47,47,40,20,22,143,,167,167,28,25,8,23,1.1,1.1
2024-08-29T2100,1930A,107.185,34.3063,宝鸡市,庙沟村,颗粒物(PM10),51,52,53,26,26,82,,135,128,19,17,7,8,0.5,0.6
2024-08-29T2100,1931A,107.0708,34.3017,宝鸡市,竹园沟,,46,46,43,28,26,74,,146,137,14,15,8,9,0.7,0.7
2024-08-29T2100,1932A,107.1906,34.3672,宝鸡市,三陆医院,,47,47,54,26,29,132,,162,161,25,22,11,11,0.7,0.7
2024-08-29T2100,1933A,107.1431,34.3547,宝鸡市,监测站,颗粒物(PM10),54,58,69,28,30,134,,163,162,26,23,10,9,0.6,0.6
2024-08-29T2100,1934A,107.1186,34.3739,宝鸡市,技工学校,,47,47,56,29,30,122,,120,,24,19,10,9,0.7,0.7
2024-08-29T2100,1935A,107.3906,34.3528,宝鸡市,陈仓区环保局家属楼,颗粒物(PM10),53,56,46,29,26,129,,163,161,34,24,10,10,0.7,0.6
2024-08-29T2100,1936A,107.2058,34.3497,宝鸡市,文理学院,,49,49,48,21,23,144,,167,167,23,19,12,11,0.7,0.6
2024-08-29T2100,1937A,107.2386,34.3622,宝鸡市,三迪小学,,50,50,52,19,29,132,,161,160,28,18,10,9,0.8,0.7
2024-08-29T2100,1051A,115.493,38.8632,保定市,游泳馆,,49,49,45,27,23,117,,170,164,26,29,2,2,0.3,0.2
2024-08-29T2100,1052A,115.5213,38.8959,保定市,华电二区,,50,50,39,24,15,126,,171,167,15,16,3,3,0.3,0.2
2024-08-29T2100,1053A,115.4713,38.9108,保定市,接待中心,,48,48,30,30,25,142,,155,155,9,14,2,2,0.6,0.5
2024-08-29T2100,1054A,115.4612,38.8416,保定市,地表水厂,颗粒物(PM10),56,61,54,28,23,110,,167,160,28,29,3,2,0.4,0.4
2024-08-29T2100,3581A,115.31981,38.95208,保定市,满城区生态环境分局,,,73,44,34,17,,,176,176,,21,4,5,0.6,0.3
2024-08-29T2100,3582A,115.47694,38.76408,保定市,清苑区第二中学,颗粒物(PM10),63,76,49,30,21,97,,171,158,30,21,3,4,0.6,0.5
2024-08-29T2100,3583A,115.62909,39.02311,保定市,徐水物探局,颗粒物(PM10),56,62,45,19,15,126,,174,166,22,29,4,5,0.7,0.6
2024-08-29T2100,4004A,115.4202,38.8656,保定市,双鹰农机,颗粒物(PM10),53,55,49,28,17,131,,176,168,20,25,3,4,0.2,0.1
2024-08-29T2100,4034A,115.5150,38.8590,保定市,植保所站,颗粒物(PM10),52,54,42,32,21,116,,188,181,31,30,7,5,0.5,0.4
2024-08-29T2100,2594A,99.1678,25.1081,保山市,市环境监测站,,36,36,33,17,16,54,,95,88,9,11,5,8,0.4,0.3
2024-08-29T2100,2595A,99.1711,25.1328,保山市,市环保局,,38,38,34,10,13,63,,99,94,5,8,3,5,0.4,0.4
2024-08-29T2100,1866A,109.2262,21.588,北海市,牛尾岭水库,,,,,,,,,,,,,,,,
2024-08-29T2100,1867A,109.1436,21.4086,北海市,海滩公园,,20,19,17,7,4,64,,86,82,8,6,4,4,0.5,0.5
2024-08-29T2100,1868A,109.0981,21.4661,北海市,新市环保局,,21,15,13,12,9,65,,84,83,9,7,4,3,0.7,0.5
2024-08-29T2100,1869A,109.1778,21.5233,北海市,北海工业园,,22,,17,15,10,61,,85,81,9,7,10,5,0.7,0.6
2024-08-29T2100,3400A,109.1911,21.4415,北海市,龙潭自来水厂,,25,17,14,17,11,57,,80,76,6,5,5,5,0.6,0.5
2024-08-29T2100,1001A,116.3621,39.8784,北京市,万寿西宫,,50,50,42,26,22,148,,166,164,18,32,1,3,0.7,0.6
2024-08-29T2100,1002A,116.2202,40.2915,北京市,定陵,,33,33,29,18,14,71,,158,144,12,12,2,3,0.2,0.2
2024-08-29T2100,1003A,116.4174,39.9289,北京市,东四,,50,50,40,27,22,150,,177,175,15,26,4,4,0.5,0.5
2024-08-29T2100,1004A,116.4072,39.8863,北京市,天坛,,43,43,34,26,20,126,,164,160,17,21,3,3,0.6,0.5
2024-08-29T2100,1005A,116.462,39.9365,北京市,农展馆,颗粒物(PM10),51,52,43,26,22,133,,155,155,10,25,3,3,0.5,0.5
2024-08-29T2100,1006A,116.3392,39.9295,北京市,官园,颗粒物(PM10),51,51,42,30,21,150,,169,168,13,24,4,4,0.6,0.5
2024-08-29T2100,1007A,116.2878,39.9611,北京市,海淀万柳,颗粒物(PM10),53,55,39,28,20,131,,151,150,18,29,3,3,0.6,0.5
2024-08-29T2100,1008A,116.6636,40.135,北京市,顺义新城,颗粒物(PM10),51,52,37,29,21,124,,178,172,25,20,3,3,0.6,0.4
2024-08-29T2100,1009A,116.6275,40.3275,北京市,怀柔镇,,48,48,29,32,18,110,,176,171,32,13,6,6,0.7,0.6
2024-08-29T2100,1010A,116.2296,40.217,北京市,昌平镇,,44,44,34,21,17,94,,147,141,15,12,3,3,0.5,0.4
2024-08-29T2100,1011A,116.3966,39.9821,北京市,奥体中心,,48,48,36,27,19,144,,151,151,16,28,1,1,0.6,0.5
2024-08-29T2100,1012A,116.184,39.9136,北京市,古城,颗粒物(PM10),61,71,37,31,18,114,,144,140,37,21,2,2,0.6,0.4
2024-08-29T2100,3281A,115.9718,40.4529,北京市,延庆夏都,,50,46,30,24,17,158,,155,155,12,8,3,3,0.5,0.4
2024-08-29T2100,3417A,117.0709,40.1465,北京市,平谷新城,颗粒物(PM10),56,61,32,31,19,85,,154,142,7,3,3,3,0.7,0.5
2024-08-29T2100,3418A,116.8336,40.4095,北京市,密云新城,,46,46,28,25,16,99,,181,175,18,9,1,1,0.5,0.4
2024-08-29T2100,3671A,116.088,39.9726,北京市,门头沟三家店,颗粒物(PM10),51,52,36,28,18,69,,138,128,18,11,2,2,0.6,0.5
2024-08-29T2100,3672A,116.1541,39.8204,北京市,丰台云岗,,,56,34,33,18,,,150,146,44,20,2,3,0.5,0.4
2024-08-29T2100,3673A,116.6804,39.9081,北京市,通州东关,,48,48,49,25,24,132,,172,167,20,32,3,1,0.6,0.5
2024-08-29T2100,3674A,115.9577,39.7603,北京市,房山燕山,,45,40,29,31,16,97,,132,126,6,8,3,3,0.4,0.4
2024-08-29T2100,3675A,116.4672,39.7733,北京市,大兴旧宫,,46,46,39,29,24,107,,152,145,13,26,1,2,0.7,0.6
2024-08-29T2100,3694A,115.986,40.4563,北京市,延庆石河营,,47,37,28,23,16,148,,147,147,13,10,3,3,0.4,0.4
2024-08-29T2100,3695A,116.6151,40.3053,北京市,怀柔新城,,43,43,28,29,16,112,,168,163,11,8,3,3,0.6,0.4
2024-08-29T2100,3696A,116.2545,39.8768,北京市,丰台小屯,颗粒物(PM10),53,56,41,29,20,107,,143,139,30,29,3,3,0.6,0.5
2024-08-29T2100,3697A,116.84,40.3844,北京市,密云镇,颗粒物(PM10),52,53,33,21,17,146,,180,180,13,17,2,2,0.7,0.5
2024-08-29T2100,1761A,123.8275,41.3064,本溪市,大峪,,38,38,35,20,16,51,,118,99,19,16,7,7,0.7,0.8
2024-08-29T2100,1762A,123.7567,41.3325,本溪市,溪湖,颗粒物(PM10),60,69,54,33,18,42,,112,90,24,21,4,5,0.7,1
2024-08-29T2100,1763A,123.7169,41.3094,本溪市,彩屯,,38,38,47,24,26,39,,102,79,30,27,7,10,0.8,1.4
2024-08-29T2100,1764A,123.7669,41.2864,本溪市,东明,,49,49,41,22,16,52,,116,100,48,28,8,6,1.8,0.9
2024-08-29T2100,1765A,123.7992,41.2664,本溪市,新立屯,,33,33,27,13,10,19,,112,72,60,32,4,4,0.5,0.6
2024-08-29T2100,1766A,123.8142,41.3472,本溪市,威宁,,44,44,37,20,20,27,,108,81,29,19,8,8,0.8,1
2024-08-29T2100,2587A,105.2864,27.3125,毕节市,八中,,48,40,29,33,27,91,,128,120,16,15,6,9,0.6,0.5
2024-08-29T2100,2588A,105.31,27.2944,毕节市,师专,颗粒物(PM10),52,53,40,32,25,114,,131,127,10,18,7,10,0.5,0.5
2024-08-29T2100,3537A,105.3631,27.3533,毕节市,长征村,细颗粒物(PM2.5),69,57,32,50,27,106,,138,131,9,9,7,9,0.6,0.5
2024-08-29T2100,1629A,118.0018,37.3617,滨州市,第二水厂,,48,48,35,29,22,140,,195,182,19,18,6,6,0.8,0.8
2024-08-29T2100,1630A,117.9776,37.393,滨州市,北中新校,颗粒物(PM10),52,53,36,27,19,135,,206,186,27,30,10,8,0.8,0.6
2024-08-29T2100,3514A,117.9378,37.3956,滨州市,中海酒店,,48,48,35,27,20,139,,196,180,21,26,9,9,0.8,0.6
2024-08-29T2100,3515A,117.9378,37.3553,滨州市,开发区一中,颗粒物(PM10),53,56,33,27,20,138,,194,183,20,17,10,11,0.9,0.6
2024-08-29T2100,3516A,118.0917,37.694,滨州市,金海六路,,39,39,24,17,10,115,,162,155,18,28,4,4,0.7,0.6
2024-08-29T2100,4028A,117.9956,37.3753,滨州市,滨州市西街道办事处,细颗粒物(PM2.5),55,58,35,39,23,141,,210,192,22,17,9,7,0.9,0.7
2024-08-29T2100,2311A,115.8072,33.8399,亳州市,污水处理厂,,35,35,30,20,20,97,,140,130,14,12,14,11,0.5,0.5
2024-08-29T2100,2312A,115.7789,33.8518,亳州市,三国揽胜宫,,36,23,33,21,20,113,,139,135,10,7,12,10,0.6,0.6
2024-08-29T2100,3332A,115.7633,33.8034,亳州市,亳州学院,,35,23,29,6,17,110,,142,136,15,9,5,8,0.5,0.5
2024-08-29T2100,2693A,82.0485,44.8556,博尔塔拉蒙古自治州,市党校,,33,33,23,14,10,76,,87,84,11,11,5,5,0.3,0.3
2024-08-29T2100,2694A,82.0806,44.8969,博尔塔拉蒙古自治州,市环保局,,34,34,32,13,12,68,,78,76,16,15,6,5,0.4,0.5
2024-08-29T2100,1071A,116.8842,38.2991,沧州市,沧县城建局,颗粒物(PM10),51,51,38,23,21,125,,172,160,21,19,4,5,0.7,0.5
2024-08-29T2100,1072A,116.8584,38.3254,沧州市,电视转播站,,43,39,34,24,21,135,,194,182,15,17,4,4,0.6,0.5
2024-08-29T2100,1073A,116.8709,38.3228,沧州市,市环保局,,41,36,37,26,20,130,,178,167,15,15,4,4,0.5,0.4
2024-08-29T2100,3324A,116.8136,38.3004,沧州市,河北水利电力学院,,44,44,39,20,24,125,,186,170,25,20,4,7,0.5,0.5
2024-08-29T2100,2622A,97.1806,31.1273,昌都市,昌都监测站,,35,20,14,9,7,109,,118,118,6,10,6,6,0.4,0.4
2024-08-29T2100,3719A,97.1714,31.1406,昌都市,昌都会议中心,,39,17,15,8,8,124,,126,126,1,6,6,7,0.4,0.5
2024-08-29T2100,2690A,88.1236,43.8886,昌吉回族自治州,天山天池,,38,38,22,20,11,67,,99,94,10,6,8,8,0.6,0.6
2024-08-29T2100,2692A,87.2717,44.0297,昌吉回族自治州,新区政务中心,,24,24,43,8,17,67,,73,73,10,25,10,11,0.6,0.7
2024-08-29T2100,3613A,87.3095,44.0142,昌吉回族自治州,亚心广场,,22,17,46,7,12,68,,73,73,16,31,2,5,0.2,0.4
2024-08-29T2100,1119A,125.3325,43.9166,长春市,食品厂,颗粒物(PM10),58,65,37,24,15,35,,139,112,77,34,5,4,1.0,0.6
2024-08-29T2100,1120A,125.2863,43.9027,长春市,客车厂,颗粒物(PM10),55,60,33,32,14,25,,141,109,84,31,8,7,1.1,0.7
2024-08-29T2100,1121A,125.2841,43.8463,长春市,邮电学院,,42,42,30,13,10,63,,136,109,33,24,6,7,0.7,0.5
2024-08-29T2100,1122A,125.3716,43.8772,长春市,劳动公园,颗粒物(PM10),58,66,39,26,11,66,,143,125,40,28,7,8,0.9,0.7
2024-08-29T2100,1123A,125.3297,43.8805,长春市,园林处,,38,38,30,15,10,80,,140,122,26,24,4,4,0.6,0.6
2024-08-29T2100,1124A,125.4605,43.79,长春市,净月潭,,22,16,19,11,9,69,,130,103,4,5,5,6,0.5,0.5
2024-08-29T2100,1125A,125.7194,43.515,长春市,甩湾子,,,,,,,,,,,,,,,,
2024-08-29T2100,1126A,125.3863,43.8447,长春市,经开区环卫处,颗粒物(PM10),61,71,34,18,9,6,,129,105,107,30,8,7,1.0,0.6
2024-08-29T2100,1127A,125.245,43.7783,长春市,高新区管委会,,45,45,28,27,10,43,,130,99,48,24,3,4,0.8,0.6
2024-08-29T2100,1128A,125.1761,43.8325,长春市,岱山公园,颗粒物(PM10),71,92,49,16,15,39,,142,96,73,44,4,4,0.7,0.5
2024-08-29T2100,1335A,113.0833,28.2325,长沙市,经开区环保局,,48,44,31,33,17,65,,92,90,21,12,1,2,0.6,0.5
2024-08-29T2100,1336A,112.8872,28.2189,长沙市,高开区环保局,,43,43,31,22,16,82,,86,85,12,9,3,3,0.8,0.7
2024-08-29T2100,1337A,113.0792,28.2053,长沙市,马坡岭,,45,43,30,31,19,62,,94,90,20,9,3,3,0.7,0.6
2024-08-29T2100,1338A,112.9394,28.19,长沙市,湖南师范大学,细颗粒物(PM2.5),52,38,35,36,22,81,,93,91,10,9,4,6,0.7,0.6
2024-08-29T2100,1339A,113.0178,28.1322,长沙市,雨花区环保局,,35,35,30,16,15,74,,98,96,13,8,4,5,0.6,0.5
2024-08-29T2100,1340A,112.9792,28.2597,长沙市,伍家岭,,41,41,31,22,17,71,,87,85,13,9,2,2,0.8,0.7
2024-08-29T2100,1341A,113.0014,28.1944,长沙市,火车新站,,38,38,31,24,17,78,,95,92,12,9,3,4,0.6,0.5
2024-08-29T2100,1342A,112.9844,28.1178,长沙市,天心区环保局,,47,47,33,27,21,60,,89,85,20,11,2,2,0.2,0.2
2024-08-29T2100,1343A,112.8908,28.1308,长沙市,湖南中医药大学,细颗粒物(PM2.5),54,,31,38,23,68,,100,93,16,8,4,5,0.8,0.7
2024-08-29T2100,1344A,112.9581,28.3611,长沙市,沙坪,,,,18,,16,,,73,,,7,,7,,0.6
2024-08-29T2100,1727A,113.1147,36.1547,长治市,清华站,,41,33,23,14,10,129,,135,135,9,9,7,7,0.5,0.8
2024-08-29T2100,1728A,113.1031,36.1989,长治市,监测站,,41,27,29,17,11,131,,138,138,12,17,8,8,0.9,1.2
2024-08-29T2100,1730A,113.0886,36.2125,长治市,审计局,,37,30,29,14,11,116,,131,130,13,15,6,6,0.5,0.7
2024-08-29T2100,1731A,113.0844,36.1856,长治市,长治八中,,39,38,30,18,12,124,,134,134,13,13,6,6,0.5,0.7
2024-08-29T2100,2845A,113.1569,36.1911,长治市,德盛苑,,38,25,23,9,9,120,,130,130,8,9,8,8,0.6,1
2024-08-29T2100,3568A,113.06,36.0464,长治市,向阳小学,细颗粒物(PM2.5),58,51,42,41,20,140,,138,138,10,11,8,8,0.4,0.5
2024-08-29T2100,3569A,112.8792,36.3144,长治市,屯留一中,,45,45,39,29,19,125,,144,141,10,16,8,8,0.8,0.9
2024-08-29T2100,3570A,113.235,36.3489,长治市,潞城四中,,39,26,36,13,19,122,,135,133,8,15,7,7,0.5,0.7
2024-08-29T2100,1854A,111.6975,28.9703,常德市,市二中,,49,37,33,34,23,88,,113,110,11,6,7,8,0.7,0.6
2024-08-29T2100,1857A,111.7158,29.1456,常德市,白鹤山,,,,,,,,,,,,,,,,
2024-08-29T2100,3138A,111.7153,29.0289,常德市,武陵区永安,,45,41,35,31,20,93,,109,107,8,7,7,8,0.7,0.6
2024-08-29T2100,3139A,111.6892,28.9881,常德市,鼎城区玉霞,细颗粒物(PM2.5),60,49,36,43,25,91,,112,109,10,6,7,7,0.9,0.7
2024-08-29T2100,3140A,111.6625,29.0531,常德市,武陵区长庚,,,44,35,33,23,,,116,116,7,8,8,8,0.7,0.6
2024-08-29T2100,1196A,119.9633,31.762,常州市,市监测站,,20,14,24,13,13,64,,123,103,17,13,6,6,0.4,0.5
2024-08-29T2100,1200A,119.9468,31.7069,常州市,武进监测站,,24,24,25,10,14,63,,124,106,12,10,7,7,0.7,0.8
2024-08-29T2100,1201A,119.9255,31.9087,常州市,安家,,20,16,21,12,15,61,,91,81,13,14,5,6,0.6,0.6
2024-08-29T2100,3002A,119.9805,31.8174,常州市,行政中心,,17,17,20,10,14,42,,110,84,31,15,8,8,0.3,0.4
2024-08-29T2100,3003A,120.0522,31.7748,常州市,经开区,,,,24,,12,,,112,95,28,18,8,9,0.5,0.6
2024-08-29T2100,3010A,119.9025,31.7964,常州市,钟楼,,22,22,22,7,13,46,,99,84,26,14,7,7,0.6,0.6
2024-08-29T2100,3429A,119.8598,31.7066,常州市,武进经发区,,23,23,24,10,11,62,,110,96,18,24,10,10,0.3,0.4
2024-08-29T2100,3430A,119.5826,31.7245,常州市,金坛城区,,25,22,23,17,13,57,,116,105,17,14,7,6,0.6,0.7
2024-08-29T2100,2220A,120.4318,41.5881,朝阳市,西梁,,50,34,36,21,19,159,,129,129,10,16,10,10,1.1,0.8
2024-08-29T2100,2221A,120.4521,41.5646,朝阳市,河畔小区,臭氧1小时,72,43,38,21,18,177,,138,138,5,13,8,9,1.0,0.7
2024-08-29T2100,2222A,120.4176,41.5648,朝阳市,八里堡,,47,46,32,23,17,149,,129,129,13,13,8,8,1.1,0.8
2024-08-29T2100,2223A,120.3806,41.5969,朝阳市,农业园区,,38,38,32,26,20,117,,122,122,17,11,6,7,1.0,0.8
2024-08-29T2100,1705A,116.6367,23.6719,潮州市,西园路,,,13,33,,38,59,,116,103,15,9,2,3,0.7,0.5
2024-08-29T2100,3026A,116.6183,23.6608,潮州市,市政府,,28,20,34,19,14,66,,130,118,20,9,14,6,0.9,0.8
2024-08-29T2100,4036A,116.6461,23.6761,潮州市,金山,,21,19,29,12,17,66,,128,114,14,8,6,5,0.8,0.7
2024-08-29T2100,2472A,113.0073,25.9061,郴州市,马头岭,,39,39,37,16,14,76,,101,99,14,9,11,11,0.7,0.7
2024-08-29T2100,2473A,113.0116,25.8226,郴州市,市职中,细颗粒物(PM2.5),52,,31,36,25,72,,104,101,22,15,3,7,0.7,0.6
2024-08-29T2100,2474A,113.0161,25.8001,郴州市,兴隆步行街,,46,39,38,32,23,89,,109,108,13,11,7,9,0.7,0.6
2024-08-29T2100,2475A,113.0383,25.8071,郴州市,市审计局,,35,33,32,24,24,84,,108,107,22,13,5,9,0.7,0.7
2024-08-29T2100,2476A,113.0348,25.7759,郴州市,市环保局,,43,34,36,30,26,94,,110,110,13,12,5,9,0.7,0.6
2024-08-29T2100,1431A,103.9728,30.7236,成都市,金泉两河,,42,42,38,18,25,72,,109,106,8,5,4,3,0.5,0.5
2024-08-29T2100,1432A,104.176,30.6872,成都市,十里店,,40,40,36,22,22,82,,121,117,2,2,3,3,0.6,0.6
2024-08-29T2100,1433A,104.079,30.5706,成都市,三瓦窑,,50,,38,35,28,97,,149,141,15,13,2,2,0.4,0.4
2024-08-29T2100,1434A,104.1114,30.63,成都市,沙河铺,,31,26,38,21,22,98,,140,135,14,14,6,6,0.5,0.5
2024-08-29T2100,1437A,104.0786,30.6531,成都市,君平街,,37,37,36,16,24,93,,136,131,12,11,6,6,0.7,0.7
2024-08-29T2100,1438A,103.613,31.0283,成都市,灵岩寺,,,,,,,,,,,,,,,,
2024-08-29T2100,2880A,104.0239,30.65639,成都市,大石西路,,36,36,38,22,23,89,,120,117,12,10,6,5,0.5,0.5
2024-08-29T2100,3136A,104.2725,30.5589,成都市,龙泉驿区区政府,,39,39,37,22,22,98,,133,127,14,13,5,6,0.4,0.5
2024-08-29T2100,3357A,104.0106,30.6931,成都市,金博路,,42,42,39,29,22,68,,108,105,3,3,2,2,0.6,0.6
2024-08-29T2100,3359A,104.0578,30.5225,成都市,华阳,,36,36,40,14,18,89,,137,130,12,10,2,2,1.0,1
2024-08-29T2100,3487A,104.2394,30.5319,成都市,车城东七路,,,51,48,,17,97,,142,134,18,15,3,4,0.6,0.6
2024-08-29T2100,3488A,104.3853,30.7453,成都市,青白江技师分院,,34,34,34,14,24,92,,117,115,13,12,1,2,0.8,0.8
2024-08-29T2100,3489A,104.0789,30.4072,成都市,科学城,,35,35,43,24,28,108,,161,153,9,9,4,4,0.6,0.6
2024-08-29T2100,4011A,103.8506,30.6947,成都市,光华大道三段,,33,31,34,23,19,82,,122,117,10,8,4,3,0.9,0.6
2024-08-29T2100,1062A,117.9531,40.9081,承德市,铁路,颗粒物(PM10),60,70,37,24,18,27,,133,116,48,25,8,9,0.6,0.5
2024-08-29T2100,1063A,117.9392,40.9763,承德市,中国银行,颗粒物(PM10),52,54,36,24,17,49,,133,122,21,19,5,5,0.7,0.5
2024-08-29T2100,1064A,117.9503,40.928,承德市,开发区,,28,28,38,12,17,61,,133,122,21,21,9,8,0.6,0.7
2024-08-29T2100,1065A,117.8051,40.9655,承德市,文化中心,,48,48,45,15,19,36,,138,118,33,26,8,12,0.5,0.6
2024-08-29T2100,1066A,117.9268,41.0026,承德市,离宫,,23,,32,16,18,72,,94,87,5,12,3,3,0.3,0.4
2024-08-29T2100,2314A,117.47,30.6618,池州市,池州学院,,38,38,28,25,17,89,,124,122,14,15,6,5,0.6,0.7
2024-08-29T2100,3237A,117.4918,30.6617,池州市,展览馆,,35,35,27,18,15,81,,124,119,12,12,4,5,0.6,0.8
2024-08-29T2100,3333A,117.5627,30.695,池州市,第八中学,,32,32,26,18,13,74,,122,115,12,15,4,4,0.5,0.7
2024-08-29T2100,3334A,117.5038,30.6243,池州市,第十二中学,,29,29,26,20,15,72,,122,111,14,16,4,4,0.7,1
2024-08-29T2100,1744A,118.9233,42.2816,赤峰市,松山一中,,50,50,30,19,10,58,,107,95,38,27,20,9,1.1,0.7
2024-08-29T2100,1745A,118.9576,42.2728,赤峰市,哈达街,,40,35,28,28,18,58,,104,93,26,18,12,9,0.5,0.4
2024-08-29T2100,1746A,118.8788,42.2554,赤峰市,天义路,,28,21,25,19,17,69,,111,102,25,17,7,8,0.4,0.4
2024-08-29T2100,3058A,119.2658,42.0353,赤峰市,银河街,,49,49,43,22,27,79,,110,102,15,14,16,16,0.6,0.5
2024-08-29T2100,3286A,118.9359,42.3147,赤峰市,桥北物流园区,,47,47,31,25,15,70,,107,93,32,32,27,11,0.7,0.6
2024-08-29T2100,2521A,107.3476,22.4136,崇左市,市环保局江州分局,,,27,36,13,20,,,63,49,8,9,6,6,0.6,0.6
2024-08-29T2100,2522A,107.3702,22.3707,崇左市,城南新区,,22,22,34,13,24,35,,65,52,11,11,5,5,0.8,0.7
2024-08-29T2100,2298A,118.3093,32.3153,滁州市,老年大学,,24,24,23,14,13,69,,94,90,12,5,6,6,0.3,0.3
2024-08-29T2100,2299A,118.3244,32.2786,滁州市,人大宾馆,,25,24,26,11,14,78,,96,92,9,8,5,5,0.3,0.3
2024-08-29T2100,3207A,118.3118,32.3038,滁州市,市政府原办公楼,,23,19,19,13,16,72,,90,86,8,6,6,6,0.4,0.3
2024-08-29T2100,3331A,118.3267,32.2634,滁州市,图书馆,,25,22,25,10,13,79,,96,92,5,4,4,4,0.1,0.2
2024-08-29T2100,2605A,101.5482,25.0441,楚雄彝族自治州,州环境监测站,,,,,,,,,,,,,,,,
2024-08-29T2100,2606A,101.538,25.0492,楚雄彝族自治州,市经济开发区,,49,49,24,11,13,68,,89,82,8,14,5,6,0.5,0.5
2024-08-29T2100,2548A,107.5277,31.2827,达州市,达州职业技术学院,,30,30,30,10,11,39,,96,83,19,11,6,5,0.7,0.6
2024-08-29T2100,2549A,107.5086,31.2186,达州市,市环境监测站,,37,37,26,12,6,55,,99,90,43,21,7,6,0.6,0.5
2024-08-29T2100,2550A,107.4988,31.2132,达州市,凤凰小区,,31,31,14,19,7,73,,112,107,30,11,7,6,0.5,0.4
2024-08-29T2100,2551A,107.5082,31.1986,达州市,达县机关宾馆,,39,39,19,13,7,65,,108,100,39,18,6,4,0.5,0.3
2024-08-29T2100,2552A,107.4644,31.2124,达州市,市政中心,,34,34,23,14,6,80,,112,107,31,12,5,4,0.4,0.3
2024-08-29T2100,2614A,100.1542,25.7054,大理白族自治州,大理市环境监测站,,25,20,28,16,15,80,,95,94,8,12,4,4,0.5,0.5
2024-08-29T2100,2615A,100.2171,25.5811,大理白族自治州,大理古城,,35,27,24,24,26,75,,,,23,18,8,12,0.5,0.8
2024-08-29T2100,1109A,121.612,38.9741,大连市,甘井子,,35,26,32,17,17,110,,157,134,20,24,6,7,0.3,0.8
2024-08-29T2100,1110A,121.565,38.9511,大连市,周水子,,26,23,28,14,16,81,,133,116,39,29,5,5,0.9,0.9
2024-08-29T2100,1111A,121.5637,38.8845,大连市,星海三站,,34,22,26,11,16,106,,144,124,9,16,6,7,0.4,0.5
2024-08-29T2100,1112A,121.6302,38.9117,大连市,青泥洼桥,,30,30,29,17,16,95,,147,126,24,17,8,9,0.5,0.6
2024-08-29T2100,1113A,121.6251,38.8638,大连市,傅家庄,,36,23,25,14,15,115,,164,144,10,11,9,9,0.5,0.6
2024-08-29T2100,1114A,121.5213,38.8661,大连市,七贤岭,,39,39,25,21,14,70,,141,119,19,12,7,7,0.5,0.5
2024-08-29T2100,1115A,121.2529,38.8061,大连市,旅顺,,35,15,26,14,17,110,,137,123,23,23,6,7,0.5,0.6
2024-08-29T2100,1116A,121.7485,39.1311,大连市,金州,,30,30,29,12,18,68,,142,117,17,16,6,7,0.3,0.3
2024-08-29T2100,1117A,121.7811,39.0496,大连市,开发区,,39,39,36,18,20,90,,146,124,28,23,9,9,0.5,0.6
2024-08-29T2100,1118A,121.9762,39.0631,大连市,双D港,,32,32,28,13,18,85,,133,112,18,15,7,7,0.5,0.7
2024-08-29T2100,1789A,124.81117,46.03138,大庆市,大同区,,23,,20,16,15,67,,88,84,5,6,8,8,0.4,0.4
2024-08-29T2100,1790A,125.129,46.533,大庆市,龙凤区,,27,27,34,10,13,65,,98,88,7,11,3,4,0.3,0.4
2024-08-29T2100,1791A,124.902,46.408,大庆市,红岗区,,30,26,25,21,13,48,,96,84,14,12,11,9,0.4,0.5
2024-08-29T2100,1792A,125.153,46.586,大庆市,萨尔图区,,21,21,25,3,8,64,,88,80,3,13,6,6,0.2,0.4
2024-08-29T2100,1793A,124.9042,46.6215,大庆市,让胡路区,,37,37,25,8,11,61,,75,65,9,15,5,6,0.3,0.4
2024-08-29T2100,3481A,125.141,46.634,大庆市,萨区政府监测点,,20,19,30,3,8,64,,83,74,3,14,5,7,0.1,0.4
2024-08-29T2100,1721A,113.3819,40.1097,大同市,果树场,,,,,,,,,,,,,,,,
2024-08-29T2100,1723A,113.2994,40.0758,大同市,云冈宾馆,颗粒物(PM10),53,55,44,22,19,114,,168,164,42,24,10,11,0.6,0.6
2024-08-29T2100,1724A,113.3444,40.0917,大同市,大同大学,,41,41,39,22,19,111,,168,164,30,23,12,12,0.6,0.6
2024-08-29T2100,1725A,113.2661,40.1269,大同市,安家小村,颗粒物(PM10),53,55,50,17,18,118,,166,163,23,24,15,14,0.5,0.6
2024-08-29T2100,1726A,113.2711,40.0844,大同市,教育学院,颗粒物(PM10),56,62,55,38,23,87,,167,160,58,33,13,15,0.9,0.8
2024-08-29T2100,3282A,113.3397,40.0597,大同市,大同市卫生学校,颗粒物(PM10),56,62,40,24,21,118,,164,160,29,24,10,12,0.6,0.6
2024-08-29T2100,3565A,113.1367,40.1122,大同市,云冈站,,42,42,62,18,22,106,,164,160,16,29,11,12,0.4,0.5
2024-08-29T2100,3566A,113.1186,40.2556,大同市,图书馆,颗粒物(PM10),65,79,38,31,19,68,,155,145,22,16,15,12,0.6,0.4
2024-08-29T2100,3567A,113.5931,40.0461,大同市,区一中,颗粒物(PM10),60,70,31,16,12,81,,157,146,21,13,14,12,0.7,0.6
2024-08-29T2100,3676A,113.2802,40.0995,大同市,第二人民医院,,40,38,50,28,23,118,,173,170,30,25,15,14,0.6,0.7
2024-08-29T2100,2269A,124.1069,50.4097,大兴安岭地区,科技局,,20,18,14,14,14,24,,39,34,7,4,6,4,0.3,0.5
2024-08-29T2100,3663A,124.1164,50.4278,大兴安岭地区,红旗社区,,12,,9,8,7,26,,39,30,5,7,6,6,0.3,0.3
2024-08-29T2100,1600A,124.3303,40.0625,丹东市,江湾东路,,33,33,39,17,19,20,,84,65,31,14,2,4,0.8,0.8
2024-08-29T2100,1601A,124.4256,40.1503,丹东市,临江后街,细颗粒物(PM2.5),79,101,39,58,26,26,,102,82,33,13,10,7,1.5,0.7
2024-08-29T2100,1602A,124.3933,40.1461,丹东市,元宝山,,24,22,26,11,13,74,,87,82,7,13,2,2,0.6,0.6
2024-08-29T2100,1603A,124.3633,40.1092,丹东市,民主桥,,30,30,30,15,16,22,,96,77,37,18,2,3,0.7,0.6
2024-08-29T2100,3541A,109.5726,19.5167,儋州市,第一中学子站,,21,19,18,12,12,67,,72,70,6,7,6,7,0.3,0.4
2024-08-29T2100,3542A,109.5567,19.5187,儋州市,东坡学校子站,,23,23,17,13,12,68,,73,71,5,5,6,5,0.5,0.5
2024-08-29T2100,2616A,98.5842,24.428,德宏傣族景颇族自治州,德宏州监测站,,,36,30,15,19,,,81,79,18,11,13,17,0.6,0.7
2024-08-29T2100,3677A,98.5881,24.4368,德宏傣族景颇族自治州,芒市人民政府综合楼,,28,28,31,18,19,33,,74,68,14,13,6,12,0.8,0.7
2024-08-29T2100,1901A,104.4239,31.1208,德阳市,东山公园,,26,21,20,14,15,82,,109,108,11,9,3,4,0.6,0.6
2024-08-29T2100,1902A,104.3826,31.1317,德阳市,西小区,,30,27,25,21,17,68,,103,100,16,11,3,4,0.6,0.6
2024-08-29T2100,1904A,104.3553,31.1091,德阳市,耐火材料厂,,28,24,24,19,16,70,,102,100,10,8,4,4,0.5,0.5
2024-08-29T2100,3639A,104.4019,31.1244,德阳市,市教育局,,30,30,28,15,16,73,,106,104,14,9,2,4,0.6,0.6
2024-08-29T2100,1622A,116.3032,37.4674,德州市,儿童乐园,,46,41,40,22,23,147,,202,179,11,18,9,10,0.7,0.7
2024-08-29T2100,1624A,116.2991,37.4451,德州市,监理站,臭氧1小时,54,31,34,19,19,163,,201,182,15,16,8,11,0.7,0.8
2024-08-29T2100,3066A,116.2721,37.4379,德州市,九衢泉纯净水厂,颗粒物(PM10),52,53,38,27,22,125,,186,164,21,28,6,8,0.8,0.8
2024-08-29T2100,3371A,116.3728,37.4403,德州市,开发区人民医院,颗粒物(PM10),56,61,37,39,18,139,,189,172,29,23,11,11,0.9,0.8
2024-08-29T2100,3372A,116.3572,37.4094,德州市,太阳城中学,,44,44,35,19,19,132,,194,174,30,21,10,12,0.6,0.7
2024-08-29T2100,3511A,116.5652,37.3319,德州市,陵城艺术中心,颗粒物(PM10),58,66,36,19,14,129,,185,176,28,15,10,16,0.5,0.5
2024-08-29T2100,2621A,99.7056,27.8317,迪庆藏族自治州,迪庆州站,,31,27,28,16,15,98,,115,111,11,10,9,9,0.4,0.4
2024-08-29T2100,3180A,99.7136,27.8094,迪庆藏族自治州,质量技术监督局,,29,27,27,13,12,90,,108,104,15,11,9,10,0.6,0.5
2024-08-29T2100,2663A,104.6241,35.5734,定西市,东关小学,,36,36,29,25,19,66,,82,79,7,8,3,3,0.6,0.5
2024-08-29T2100,2664A,104.6194,35.5934,定西市,供电公司,细颗粒物(PM2.5),52,42,36,36,24,65,,87,83,9,6,6,6,0.3,0.2
2024-08-29T2100,1389A,113.7547,23.0494,东莞市,莞城梨川,,34,34,29,17,13,82,,123,113,27,18,4,4,0.8,0.7
2024-08-29T2100,1390A,113.7944,23.0128,东莞市,东城石井,,25,24,30,12,18,79,,142,128,17,18,4,4,0.7,0.6
2024-08-29T2100,1391A,113.7383,22.9658,东莞市,南城西平,,36,36,33,18,15,64,,138,116,32,28,7,7,0.8,0.7
2024-08-29T2100,3319A,113.7338,23.0381,东莞市,万江金泰,,32,32,31,22,18,86,,133,124,26,17,4,5,0.8,0.8
2024-08-29T2100,3626A,113.7533,23.0202,东莞市,南城元岭,,30,30,33,17,19,87,,133,122,22,15,7,6,0.9,0.8
2024-08-29T2100,3627A,113.7875,23.0457,东莞市,东城主山,,,,30,,19,,,82,,,15,,8,,0.7
2024-08-29T2100,1666A,118.6614,37.4309,东营市,市环保局,,41,24,25,3,11,130,,166,154,12,14,6,6,0.2,0.3
2024-08-29T2100,3036A,118.6904,37.4338,东营市,开发区管委会,,39,35,33,12,11,122,,160,149,16,11,5,5,0.3,0.4
2024-08-29T2100,3365A,118.5719,37.565,东营市,垦利区民丰路,,36,29,24,12,12,115,,170,157,11,8,3,2,1.2,1.1
2024-08-29T2100,3498A,118.5055,37.8612,东营市,河口城区,,29,24,21,10,11,90,,134,122,8,10,5,5,0.7,0.7
2024-08-29T2100,3646A,118.4978,37.4623,东营市,胜利站,,29,26,27,14,13,90,,179,152,24,18,8,10,0.8,0.8
2024-08-29T2100,3734A,118.35,37.26,东营市,理想之城,,33,27,25,14,17,104,,175,149,21,14,5,6,0.4,0.4
2024-08-29T2100,1591A,110.0023,39.8129,鄂尔多斯市,综合楼,颗粒物(PM10),57,63,53,19,14,127,,164,159,24,19,11,12,0.8,0.8
2024-08-29T2100,1592A,109.9486,39.8261,鄂尔多斯市,巴音孟克林场办事处,颗粒物(PM10),58,66,52,19,18,129,,153,149,22,20,11,12,0.8,0.8
2024-08-29T2100,1593A,109.7736,39.5986,鄂尔多斯市,康泽苑,,,58,49,19,14,,,153,151,17,22,8,9,,0.7
2024-08-29T2100,1594A,109.8119,39.5989,鄂尔多斯市,华泰汽车城,颗粒物(PM10),51,51,51,22,20,121,,140,135,18,23,11,12,0.6,0.6
2024-08-29T2100,1595A,109.9734,39.7884,鄂尔多斯市,奥林花园,颗粒物(PM10),56,61,54,19,18,113,,147,142,28,24,6,7,0.8,0.7
2024-08-29T2100,2436A,114.8938,30.3994,鄂州市,市政府,,45,45,39,24,20,76,,120,110,29,13,10,10,1.0,1
2024-08-29T2100,2437A,114.8989,30.3714,鄂州市,赵家坝,,38,38,41,24,19,58,,122,105,30,14,8,9,0.9,0.9
2024-08-29T2100,3654A,114.8094,30.4089,鄂州市,精准医疗中心,,32,32,33,18,18,86,,121,111,15,8,7,6,0.6,0.7
2024-08-29T2100,2454A,109.4978,30.2981,恩施土家族苗族自治州,湖北民院,,35,24,26,24,17,82,,104,99,8,15,8,8,0.6,0.7
2024-08-29T2100,2455A,109.4707,30.2798,恩施土家族苗族自治州,州电力总公司,,,,20,18,12,,,101,96,15,16,8,8,0.7,0.7
2024-08-29T2100,3549A,109.5061,30.3772,恩施土家族苗族自治州,龙凤新区,,24,17,18,3,14,76,,104,98,12,10,6,6,0.7,0.7
2024-08-29T2100,2499A,108.3411,21.6158,防城港市,沙万,,19,19,29,11,16,40,,65,62,28,15,12,10,0.6,0.5
2024-08-29T2100,2500A,108.3514,21.7731,防城港市,防城档案局,,25,25,31,13,16,35,,61,50,21,12,7,7,0.5,0.5
2024-08-29T2100,2501A,108.3506,21.6414,防城港市,大海花园,,29,29,23,3,15,40,,68,62,24,9,7,6,0.6,0.5
2024-08-29T2100,1371A,113.1294,23.0067,佛山市,湾梁,,30,,27,17,19,95,,155,147,19,25,6,8,0.8,0.8
2024-08-29T2100,1372A,113.1083,23.0478,佛山市,华材职中,,28,,32,15,23,89,,149,134,22,30,6,8,0.5,0.5
2024-08-29T2100,1373A,113.144,23.0453,佛山市,南海气象局,,25,,31,12,19,77,,143,134,19,20,5,6,0.6,0.5
2024-08-29T2100,1374A,113.2881,22.8094,佛山市,顺德苏岗,,27,10,22,9,16,84,,153,140,19,22,6,7,0.7,0.7
2024-08-29T2100,1376A,112.8383,22.8678,佛山市,高明孔堂,,20,18,35,11,21,63,,183,140,10,21,4,8,0.6,0.7
2024-08-29T2100,1377A,112.8836,23.1588,佛山市,三水监测站,,21,7,28,7,18,65,,136,118,25,25,2,4,0.4,0.6
2024-08-29T2100,1378A,112.867,23.185,佛山市,三水云东海,,23,,31,16,21,49,,128,109,24,22,8,9,0.7,0.7
2024-08-29T2100,3625A,113.2544,22.7642,佛山市,容桂街道办,,28,9,24,9,19,89,,146,138,22,28,6,6,0.7,0.7
2024-08-29T2100,1280A,119.3903,26.0543,福州市,鼓山,,,,,,,,,,,,,,,,
2024-08-29T2100,1282A,119.2681,26.0504,福州市,师大,,44,44,28,27,14,105,,126,112,11,9,4,4,0.3,0.5
2024-08-29T2100,1283A,119.2984,26.1028,福州市,五四北路,,,,20,30,18,101,,143,128,14,11,3,3,0.5,0.5
2024-08-29T2100,1284A,119.2648,26.0768,福州市,杨桥西路,,45,44,31,31,16,104,,138,122,14,11,3,3,0.6,0.5
2024-08-29T2100,1285A,119.317,26.0746,福州市,紫阳,,,,,,,,,,,,,,,,
2024-08-29T2100,3048A,119.5799,26.0936,福州市,九龙,,29,20,25,15,14,91,,124,117,2,6,5,6,0.4,0.5
2024-08-29T2100,3526A,119.5189,25.9664,福州市,吴航,,39,39,35,21,18,92,,125,120,6,12,5,5,0.8,0.8
2024-08-29T2100,1755A,123.7977,41.8491,抚顺市,望花区,颗粒物(PM10),66,82,60,27,21,71,,145,137,48,25,15,14,1.1,0.9
2024-08-29T2100,1756A,123.9161,41.8822,抚顺市,顺城区,颗粒物(PM10),66,81,37,29,15,23,,151,123,59,26,4,5,0.8,0.7
2024-08-29T2100,1757A,124.0436,41.8611,抚顺市,东洲区,,,63,30,22,18,,,126,126,21,14,8,6,0.8,0.6
2024-08-29T2100,1758A,123.9247,41.8642,抚顺市,新抚区,颗粒物(PM10),57,63,38,28,15,40,,144,122,49,25,8,9,1.0,0.5
2024-08-29T2100,1759A,124.0972,41.8961,抚顺市,大伙房水库,,41,41,26,22,18,72,,134,128,8,13,4,4,0.7,0.7
2024-08-29T2100,1760A,123.7086,41.8391,抚顺市,沈抚新城,颗粒物(PM10),59,68,46,30,23,87,,149,142,52,27,9,10,0.8,0.8
2024-08-29T2100,2376A,116.2127,28.0814,抚州市,桐源党溪,,30,30,28,16,15,73,,107,100,2,3,5,6,1.1,1.2
2024-08-29T2100,2377A,116.3544,27.9831,抚州市,市站,,32,32,26,18,15,76,,97,91,5,5,12,4,0.8,0.7
2024-08-29T2100,2378A,116.3565,27.963,抚州市,血防站,,32,32,28,15,14,81,,106,98,6,7,1,5,0.8,0.9
2024-08-29T2100,2379A,116.3564,28.0007,抚州市,采茶剧团,,33,33,26,21,15,70,,96,89,5,4,10,3,0.7,0.7
2024-08-29T2100,2380A,116.385,27.9647,抚州市,医学分院,,38,38,27,23,15,72,,97,90,5,5,4,6,0.7,0.7
2024-08-29T2100,2207A,121.6094,41.998,阜新市,工业园区,,44,44,46,20,20,128,,140,138,10,23,7,9,1.0,0.7
2024-08-29T2100,2208A,121.6697,42.0279,阜新市,长青街,,,40,45,22,20,,,131,131,14,22,17,11,0.8,0.6
2024-08-29T2100,2209A,121.6673,42.0705,阜新市,农业园区,,40,31,39,22,20,128,,126,126,12,17,6,10,0.9,0.6
2024-08-29T2100,2210A,121.6717,42.0224,阜新市,东苑,,38,30,51,20,23,120,,126,125,11,21,11,16,1.0,0.8
2024-08-29T2100,2211A,121.6506,42.0498,阜新市,玉龙新城,,40,36,37,17,14,128,,136,135,10,20,9,9,0.8,0.6
2024-08-29T2100,2301A,115.8277,32.8929,阜阳市,市监测站,,27,27,24,16,17,82,,103,99,9,7,7,7,0.5,0.5
2024-08-29T2100,2303A,115.8554,32.8605,阜阳市,开发区,,37,37,31,12,15,73,,101,96,27,15,5,6,0.5,0.5
2024-08-29T2100,2875A,115.784,32.8892,阜阳市,阜阳职业技术学院,,33,33,27,9,18,90,,103,101,10,9,6,7,0.4,0.5
2024-08-29T2100,3468A,115.7901,32.8613,阜阳市,市规划展馆,,30,24,32,16,23,94,,106,104,10,10,7,8,0.4,0.5
2024-08-29T2100,3469A,115.836,32.9183,阜阳市,枣园社区,,28,20,34,19,23,81,,102,98,16,12,7,7,0.5,0.5
2024-08-29T2100,2669A,102.9099,34.9841,甘南藏族自治州,州政府,,39,39,35,26,17,83,,99,97,9,7,9,8,0.6,0.7
2024-08-29T2100,3380A,102.8914,34.9617,甘南藏族自治州,甘肃民族师范学院,,45,35,29,31,20,100,,108,108,5,8,4,4,0.5,0.5
2024-08-29T2100,2570A,101.9603,30.0475,甘孜藏族自治州,水桥子,,,,29,20,20,,,124,124,4,17,4,4,0.4,0.3
2024-08-29T2100,3065A,101.9533,29.9972,甘孜藏族自治州,州环保局,,34,26,31,12,11,108,,124,121,15,22,2,2,0.4,0.3
2024-08-29T2100,3414A,115.8347,28.932,赣江新区,桑海产业园,,19,19,15,9,10,45,,92,79,31,12,8,9,0.4,0.4
2024-08-29T2100,2362A,114.9017,25.9149,赣州市,通天岩,,,,,,,,,,,,,,,,
2024-08-29T2100,2363A,114.9367,25.8664,赣州市,地委,,34,34,24,18,16,84,,102,98,10,7,1,3,1.3,1.2
2024-08-29T2100,2364A,114.9461,25.8481,赣州市,气象台,,34,34,27,21,16,85,,104,98,8,8,1,2,0.7,0.7
2024-08-29T2100,2365A,114.9322,25.8333,赣州市,市图书馆,,40,40,26,22,15,96,,120,113,11,5,3,4,0.9,0.9
2024-08-29T2100,2366A,114.8905,25.8471,赣州市,华坚鞋城,,35,35,26,22,14,90,,104,98,6,6,1,1,0.5,0.5
2024-08-29T2100,3109A,115.0093,25.8613,赣州市,赣县区卫计委,,36,36,25,20,15,59,,104,90,16,8,5,6,0.8,0.7
2024-08-29T2100,2683A,106.2319,36.1417,固原市,马园,颗粒物(PM10),91,132,58,17,14,56,,104,96,34,16,5,5,0.8,0.9
2024-08-29T2100,2684A,106.2792,36.0022,固原市,监测站,,47,47,28,21,22,84,,109,106,10,8,3,4,0.4,0.4
2024-08-29T2100,2685A,106.2375,36.0211,固原市,新区,,36,36,28,17,15,85,,107,105,8,7,7,7,0.5,0.5
2024-08-29T2100,3522A,106.2177,35.9959,固原市,原州区十五小,,,,24,,18,,,89,,,9,,9,,0.7
2024-08-29T2100,2543A,106.6308,30.5278,广安市,小平旧居,,,,,,,,,,,,,,,,
2024-08-29T2100,2544A,106.6303,30.4576,广安市,市委,,45,41,25,31,19,105,,142,134,14,10,4,4,0.5,0.4
2024-08-29T2100,2545A,106.6271,30.4663,广安市,友谊中学,,45,45,26,23,18,104,,142,132,17,12,4,6,0.6,0.5
2024-08-29T2100,2547A,106.6388,30.4551,广安市,广电花园,,,39,27,19,17,,,144,140,15,11,3,2,0.6,0.5
2024-08-29T2100,2902A,106.6351,30.4865,广安市,北辰小学,颗粒物(PM10),58,65,35,33,19,103,,142,133,13,9,6,6,0.5,0.4
2024-08-29T2100,2523A,105.8945,32.4535,广元市,黑石坡,,27,27,27,16,21,24,,37,30,8,11,6,10,0.5,0.5
2024-08-29T2100,2524A,105.821,32.4444,广元市,老城,,28,28,22,16,12,26,,74,45,29,13,4,4,0.9,0.9
2024-08-29T2100,2526A,105.8628,32.4287,广元市,监测站,,38,29,19,26,14,24,,74,48,21,13,8,7,0.8,0.7
2024-08-29T2100,3617A,105.8047,32.4166,广元市,经开区,,36,36,26,25,19,23,,73,45,21,13,7,6,0.8,0.7
2024-08-29T2100,1345A,113.2347,23.1423,广州市,广雅中学,,22,18,32,12,19,69,,125,112,35,32,4,5,0.7,0.7
2024-08-29T2100,1346A,113.2612,23.105,广州市,市五中,,26,17,28,11,20,82,,137,126,21,22,2,3,0.7,0.7
2024-08-29T2100,1348A,113.3478,23.0916,广州市,广东商学院,,29,11,28,7,20,91,,130,118,18,27,3,4,0.7,0.7
2024-08-29T2100,1349A,113.4332,23.1047,广州市,市八十六中,,29,10,29,6,17,90,,126,116,19,34,3,3,0.6,0.7
2024-08-29T2100,1350A,113.3505,22.9483,广州市,番禺中学,,32,9,27,6,18,100,,152,140,17,23,4,4,0.8,0.8
2024-08-29T2100,1351A,113.2146,23.3916,广州市,花都师范,,29,11,24,3,15,90,,122,114,16,17,3,6,0.6,0.6
2024-08-29T2100,1352A,113.2597,23.1331,广州市,市监测站,,23,14,30,9,19,72,,110,102,23,27,4,5,0.8,0.8
2024-08-29T2100,1353A,113.5618,23.312,广州市,九龙镇镇龙,,26,6,25,3,17,83,,94,92,14,16,6,6,0.6,0.6
2024-08-29T2100,1354A,113.2765,23.1544,广州市,麓湖,,19,14,31,6,20,60,,108,97,29,26,4,4,0.6,0.7
2024-08-29T2100,1355A,113.443,23.3035,广州市,帽峰山森林公园,,26,6,20,3,13,82,,102,97,5,8,4,4,0.4,0.5
2024-08-29T2100,2846A,113.3221,23.1322,广州市,体育西,,25,19,28,13,19,79,,112,102,16,16,4,5,0.9,0.8
2024-08-29T2100,3298A,113.5717,23.5491,广州市,从化街口,,28,11,27,6,16,88,,94,81,12,16,4,6,0.6,0.7
2024-08-29T2100,3299A,113.3472,23.3692,广州市,白云竹料,,,,24,,16,,,110,108,18,15,4,5,0.5,0.8
2024-08-29T2100,3300A,113.2981,23.237,广州市,白云嘉禾,,21,19,36,10,20,59,,114,98,42,32,4,5,0.9,0.8
2024-08-29T2100,3301A,113.4256,23.1716,广州市,黄埔科学城,,30,10,36,3,21,95,,104,99,17,22,4,3,0.7,0.7
2024-08-29T2100,3302A,113.3942,23.0483,广州市,番禺大学城,,25,20,33,6,18,80,,136,122,22,28,7,7,0.7,0.6
2024-08-29T2100,3303A,113.4922,22.8168,广州市,南沙黄阁,,32,,34,15,24,100,,173,156,27,31,5,5,0.8,0.8
2024-08-29T2100,3304A,113.5342,22.7896,广州市,南沙街,,27,20,32,15,23,85,,168,153,28,28,4,5,0.8,0.8
2024-08-29T2100,3443A,113.2902,23.5544,广州市,花都梯面,,30,10,27,3,17,96,,112,108,9,14,4,6,0.6,0.7
2024-08-29T2100,3445A,113.7858,23.7478,广州市,从化良口,,,17,22,14,17,,,69,62,9,8,6,6,0.7,0.9
2024-08-29T2100,3446A,113.8051,23.2614,广州市,增城荔城,,20,16,23,9,15,61,,99,87,13,10,4,4,0.6,0.6
2024-08-29T2100,2505A,109.568,23.1478,贵港市,德智高中,,,,,,,,,,,,,,,,
2024-08-29T2100,2506A,109.6047,23.0666,贵港市,江南子站,,48,48,44,20,25,66,,105,95,17,17,7,11,0.6,0.7
2024-08-29T2100,2507A,109.6014,23.0948,贵港市,贵城子站,,44,44,42,21,27,44,,99,89,36,15,7,9,0.9,0.6
2024-08-29T2100,2508A,109.5669,23.1065,贵港市,荷城子站,,36,36,35,14,19,65,,97,90,16,13,9,11,0.5,0.5
2024-08-29T2100,3405A,109.5886,23.1172,贵港市,新世纪学校,,48,48,41,19,22,57,,96,89,21,12,10,12,0.7,0.6
2024-08-29T2100,1439A,106.6899,26.5998,贵阳市,马鞍山,,22,19,23,12,9,68,,101,93,12,11,8,11,0.5,0.5
2024-08-29T2100,1440A,106.6971,26.5694,贵阳市,市环保站,,38,31,30,26,22,48,,101,89,22,12,3,4,0.4,0.2
2024-08-29T2100,1441A,106.6243,26.6266,贵阳市,鉴湖路,,28,22,29,19,15,42,,96,88,11,8,4,5,0.5,0.4
2024-08-29T2100,1442A,106.7487,26.6343,贵阳市,燕子冲,,32,27,22,22,22,69,,108,100,11,8,6,9,0.6,0.5
2024-08-29T2100,1443A,106.6555,26.4365,贵阳市,碧云窝,,29,29,29,14,11,66,,84,80,7,6,4,5,0.4,0.4
2024-08-29T2100,1444A,106.694,26.5161,贵阳市,中院村,,36,36,29,19,18,51,,89,78,17,10,6,7,0.4,0.4
2024-08-29T2100,1445A,106.7109,26.6027,贵阳市,红边门,,35,27,30,24,28,57,,102,91,17,14,3,4,0.6,0.5
2024-08-29T2100,1446A,106.7164,26.5699,贵阳市,新华路,,31,31,28,19,19,46,,92,77,20,11,2,3,0,0.5
2024-08-29T2100,1447A,106.674,26.5424,贵阳市,太慈桥,,25,,19,17,13,17,,96,78,20,11,5,5,0.6,0.4
2024-08-29T2100,1552A,106.805,26.3003,贵阳市,桐木岭,,,,,,,,,,,,,,,,
2024-08-29T2100,1862A,110.4144,25.3167,桂林市,电子科大尧山校区,,40,40,34,24,19,92,,108,104,9,6,15,13,0.7,0.6
2024-08-29T2100,1863A,110.2819,25.2697,桂林市,监测站,,,,34,,18,82,,106,102,,9,12,9,0.7,0.6
2024-08-29T2100,1864A,110.3089,25.2708,桂林市,龙隐路小学,,49,49,32,23,21,84,,107,104,10,7,28,12,0.5,0.4
2024-08-29T2100,1865A,110.2869,25.2178,桂林市,八中,,32,,32,22,20,92,,105,104,9,8,13,10,0.5,0.5
2024-08-29T2100,3403A,110.1764,25.2381,桂林市,创业大厦,颗粒物(PM10),51,51,37,34,28,76,,102,100,12,8,20,14,0.4,0.4
2024-08-29T2100,3531A,110.296,25.1253,桂林市,旅游学院,,36,36,27,24,20,72,,103,99,10,8,6,10,0.6,0.5
2024-08-29T2100,2674A,100.2561,34.4714,果洛藏族自治州,玛沁县大武镇,,33,24,20,18,12,105,,104,104,6,5,5,6,0.4,0.4
2024-08-29T2100,1129A,126.5422,45.755,哈尔滨市,岭北,,41,41,27,20,13,118,,145,143,25,17,14,12,0.9,0.7
2024-08-29T2100,1130A,126.561,45.8167,哈尔滨市,松北商大,,39,39,27,13,9,63,,114,105,24,20,8,8,0.7,0.5
2024-08-29T2100,1131A,126.979,45.5419,哈尔滨市,阿城会宁,,49,49,28,22,10,54,,112,101,28,12,6,7,0.7,0.7
2024-08-29T2100,1132A,126.599,45.7222,哈尔滨市,南岗学府路,颗粒物(PM10),59,68,48,29,12,81,,128,120,33,25,8,7,0.6,0.5
2024-08-29T2100,1133A,126.689,45.7733,哈尔滨市,太平宏伟公园,颗粒物(PM10),52,54,37,12,13,96,,126,122,26,20,8,8,0.6,0.5
2024-08-29T2100,1134A,126.635,45.7667,哈尔滨市,道外承德广场,,50,50,46,22,16,77,,120,115,46,28,13,12,0.5,0.5
2024-08-29T2100,1135A,126.685,45.7319,哈尔滨市,香坊红旗大街,颗粒物(PM10),65,80,50,29,16,55,,120,108,62,28,8,10,0.8,0.6
2024-08-29T2100,1136A,126.6411,45.7258,哈尔滨市,动力和平路,,44,44,47,16,21,85,,124,119,36,26,6,7,0.6,0.7
2024-08-29T2100,1137A,126.593,45.7478,哈尔滨市,道里建国路,,42,42,32,20,12,96,,128,124,29,19,13,9,0.7,1.1
2024-08-29T2100,1138A,126.615,45.61,哈尔滨市,平房东轻厂,,39,39,26,13,9,93,,120,118,20,11,5,6,0.5,0.4
2024-08-29T2100,1139A,126.595,45.9855,哈尔滨市,呼兰师专,颗粒物(PM10),51,51,33,20,14,89,,114,111,36,22,10,10,0.7,0.6
2024-08-29T2100,1140A,126.6206,45.6842,哈尔滨市,省农科院,颗粒物(PM10),70,89,68,30,22,24,,114,89,89,42,10,9,0.4,0.5
2024-08-29T2100,2688A,93.5128,42.8172,哈密市,地区监测站,,,52,44,20,17,,,125,125,17,24,3,5,0.2,0.4
2024-08-29T2100,2689A,93.4961,42.8328,哈密市,哈密师范学校,颗粒物(PM10),70,89,53,24,21,55,,120,112,52,31,4,6,0.9,0.8
2024-08-29T2100,2671A,100.9048,36.9639,海北藏族自治州,海晏县西海镇,,43,21,20,19,17,137,,136,136,15,7,24,14,0.5,0.4
2024-08-29T2100,3867A,102.0738,36.5056,海东市,平安区公安北苑,,,,29,31,14,,,140,140,21,15,14,14,1.2,0.7
2024-08-29T2100,1409A,110.576,19.9507,海口市,东寨港,,,,,,,,,,,,,,,,
2024-08-29T2100,1410A,110.3232,20.0574,海口市,海南大学,,33,33,24,20,16,92,,85,85,14,15,7,6,0.6,0.5
2024-08-29T2100,1411A,110.283,20.0053,海口市,秀英海南医院,,32,23,25,22,16,91,,78,78,11,13,8,7,0.5,0.3
2024-08-29T2100,1412A,110.338,19.9969,海口市,海南师范大学,,32,,26,22,16,94,,85,85,11,13,7,7,0.6,0.5
2024-08-29T2100,1413A,110.33,20.0356,海口市,龙华路环保局宿舍,,32,,21,22,15,94,,85,85,11,11,6,5,0.5,0.3
2024-08-29T2100,3539A,110.5111,19.9736,海口市,桂林洋子站,,28,20,30,14,16,89,,86,86,8,12,5,5,0.5,0.4
2024-08-29T2100,2673A,100.6188,36.2866,海南藏族自治州,共和县恰卜恰镇,,30,27,26,14,15,93,,109,104,9,9,12,13,0.4,0.5
2024-08-29T2100,2676A,97.3731,37.3753,海西蒙古族藏族自治州,德令哈市,,,,24,,12,,,122,122,22,9,7,9,0.5,0.5
2024-08-29T2100,1048A,114.5302,36.6116,邯郸市,东污水处理厂,,44,44,43,17,18,123,,138,136,10,17,3,4,0.5,0.6
2024-08-29T2100,1049A,114.4918,36.5713,邯郸市,矿院,,41,40,43,24,20,130,,145,142,2,18,2,2,0.5,0.7
2024-08-29T2100,1050A,114.484,36.6133,邯郸市,丛台公园,,41,41,42,21,21,128,,136,134,4,20,3,9,0.5,1.1
2024-08-29T2100,3458A,114.7895,36.5593,邯郸市,香泉濮院小区,颗粒物(PM10),53,56,47,24,20,146,,146,146,6,14,1,2,0.5,0.5
2024-08-29T2100,3579A,114.50634,36.77178,邯郸市,永年区实验高中,颗粒物(PM10),51,51,53,28,24,139,,153,150,5,19,2,2,1.0,1.1
2024-08-29T2100,3580A,114.20016,36.44293,邯郸市,峰峰矿区临水派出所,,,,28,,16,,,177,176,8,8,6,7,0.7,0.8
2024-08-29T2100,2634A,106.9893,33.1842,汉中市,汉川机床厂子校,,30,30,18,14,9,63,,105,95,10,5,4,4,0.8,0.7
2024-08-29T2100,2635A,107.0154,33.0706,汉中市,市监测站,,46,46,41,17,24,64,,106,90,12,8,8,8,0.7,0.7
2024-08-29T2100,2636A,107.0089,33.1138,汉中市,鑫源开发区,,30,26,30,21,15,72,,113,99,10,7,9,9,0.6,0.5
2024-08-29T2100,2637A,107.007,33.0323,汉中市,南郑大河坎水厂,细颗粒物(PM2.5),58,51,40,41,27,49,,97,80,16,9,9,8,0.8,0.7
2024-08-29T2100,1223A,120.2072,30.2111,杭州市,滨江,,34,34,24,18,14,48,,95,83,33,14,4,4,0.8,0.7
2024-08-29T2100,1224A,120.0633,30.2747,杭州市,西溪,,26,26,28,15,16,24,,85,65,17,16,6,6,0.7,0.7
2024-08-29T2100,1226A,120.3461,30.3153,杭州市,下沙,,28,28,29,13,15,75,,106,100,30,23,7,6,0.6,0.6
2024-08-29T2100,1227A,120.1269,30.2456,杭州市,卧龙桥,,24,24,22,15,17,26,,96,76,21,14,5,5,0.6,0.6
2024-08-29T2100,1228A,120.1903,30.2692,杭州市,浙江农大,,29,28,25,20,16,80,,88,84,24,20,8,8,0.6,0.6
2024-08-29T2100,1230A,120.1197,30.3119,杭州市,和睦小学,,,28,22,19,14,,,108,106,23,17,7,6,0.7,0.7
2024-08-29T2100,1231A,120.3019,30.4183,杭州市,临平镇,,27,25,33,13,12,84,,111,106,14,12,4,4,0.6,0.7
2024-08-29T2100,1232A,120.2697,30.1819,杭州市,城厢镇,,27,27,23,13,16,65,,98,90,25,12,5,5,0.8,0.9
2024-08-29T2100,1233A,120.0883,30.1808,杭州市,云栖,,18,16,19,12,14,10,,85,63,26,19,6,7,0.6,0.8
2024-08-29T2100,3557A,119.9464,30.0494,杭州市,镇二中,,28,22,20,19,18,49,,105,86,27,19,7,8,0.7,0.8
2024-08-29T2100,3558A,119.7183,30.2367,杭州市,市府大楼,,44,44,28,25,22,59,,125,111,29,16,6,5,0.6,0.7
2024-08-29T2100,3656A,120.1556,30.2864,杭州市,消防大队,,30,30,26,19,16,50,,92,80,32,16,7,7,1.0,1
2024-08-29T2100,1270A,117.1959,31.7848,合肥市,明珠广场,,39,,21,27,18,29,,105,85,44,14,6,6,0.6,0.5
2024-08-29T2100,1271A,117.3072,31.8764,合肥市,三里街,,22,22,19,9,9,65,,86,82,10,6,5,5,0.4,0.5
2024-08-29T2100,1272A,117.2588,31.8707,合肥市,琥珀山庄,,24,22,20,12,15,75,,97,92,8,6,6,6,0.4,0.5
2024-08-29T2100,1273A,117.1604,31.9052,合肥市,董铺水库,,23,22,21,14,13,71,,90,84,6,4,2,2,0.2,0.3
2024-08-29T2100,1274A,117.25,31.8571,合肥市,长江中路,,27,27,24,16,16,74,,99,94,7,4,7,7,0.7,0.7
2024-08-29T2100,1275A,117.266,31.9436,合肥市,庐阳区,,24,24,22,14,9,68,,100,91,16,8,4,3,0.4,0.4
2024-08-29T2100,1276A,117.336,31.8586,合肥市,瑶海区,,36,36,23,13,13,70,,91,86,9,7,9,9,0.5,0.5
2024-08-29T2100,1277A,117.3027,31.7964,合肥市,包河区,,,24,28,19,19,,,93,82,29,19,3,4,0.3,0.4
2024-08-29T2100,1278A,117.2776,31.7385,合肥市,滨湖新区,,27,27,24,14,14,59,,96,80,23,13,5,5,0.4,0.3
2024-08-29T2100,1279A,117.1318,31.8403,合肥市,高新区,,28,27,26,19,18,51,,97,86,27,11,6,6,0.8,0.7
2024-08-29T2100,3464A,117.3803,31.9147,合肥市,高教基地,,20,19,19,14,13,62,,83,78,6,4,10,10,0.4,0.4
2024-08-29T2100,3614A,79.924,37.0877,和田地区,地区环保局,颗粒物(PM10),500,981,832,,201,71,,79,78,9,14,,8,,0.7
2024-08-29T2100,3615A,79.9131,37.113,和田地区,市环保局,颗粒物(PM10),500,1003,766,181,147,54,,75,72,22,20,7,8,0.6,0.5
2024-08-29T2100,2516A,108.2011,24.715,河池市,东仁乐园,,32,32,32,20,19,62,,80,77,11,10,4,4,0.8,0.8
2024-08-29T2100,2517A,108.0497,24.6947,河池市,市环保站,,22,18,27,11,20,68,,93,89,6,9,8,11,0.5,0.5
2024-08-29T2100,2518A,108.0983,24.6989,河池市,市疾控中心,,23,20,30,12,18,73,,89,86,8,13,8,9,0.6,0.6
2024-08-29T2100,1696A,114.6778,23.7569,河源市,源西,,28,28,26,17,25,23,,80,64,26,12,4,4,0.7,0.7
2024-08-29T2100,1697A,114.6944,23.7586,河源市,东埔,,16,13,22,11,18,39,,81,68,19,14,2,3,0.8,0.7
2024-08-29T2100,1698A,114.6892,23.7233,河源市,老城,,17,17,26,3,15,42,,81,70,16,12,4,5,0.7,0.7
2024-08-29T2100,1718A,115.4208,35.2464,菏泽市,气象局,颗粒物(PM10),54,57,50,25,21,133,,172,162,15,14,4,6,0.4,0.4
2024-08-29T2100,1719A,115.4747,35.2375,菏泽市,市政协,,48,47,44,33,23,132,,162,154,11,12,3,7,0.3,0.3
2024-08-29T2100,3374A,115.5564,35.0891,菏泽市,定陶老年大学,,46,46,38,19,14,102,,149,138,17,14,5,7,0.5,0.5
2024-08-29T2100,3647A,115.4702,35.2706,菏泽市,菏泽医专,颗粒物(PM10),56,61,50,23,22,113,,167,154,31,18,6,9,0.5,0.6
2024-08-29T2100,2514A,111.5264,24.4172,贺州市,环保小区,,43,43,34,18,19,60,,96,90,15,12,8,7,0.8,0.7
2024-08-29T2100,2515A,111.5608,24.4078,贺州市,政协大楼,,50,50,34,32,21,53,,115,98,21,12,8,8,0.8,0.7
2024-08-29T2100,3534A,111.4744,24.4553,贺州市,西湾,,32,27,25,22,19,29,,104,86,28,11,8,8,0.7,0.6
2024-08-29T2100,2385A,114.17,35.9019,鹤壁市,市监测站,,48,48,41,26,20,149,,178,177,9,11,5,6,0.6,0.6
2024-08-29T2100,2386A,114.2956,35.7511,鹤壁市,市交警支队,颗粒物(PM10),58,65,40,35,20,131,,165,162,19,15,8,8,0.6,0.7
2024-08-29T2100,2387A,114.2878,35.7306,鹤壁市,迎宾馆,,41,39,35,26,22,130,,169,166,21,11,3,4,0.7,0.8
2024-08-29T2100,3474A,114.2617,35.6822,鹤壁市,大新区,,,56,38,,21,90,,165,154,34,15,4,6,0.5,0.5
2024-08-29T2100,3596A,114.1572,35.9603,鹤壁市,南山宾馆,,43,36,29,21,18,137,,170,168,7,9,4,4,0.6,0.7
2024-08-29T2100,2244A,130.2537,47.3416,鹤岗市,哈啤分公司,,41,41,23,18,14,52,,92,85,25,10,13,12,0.6,0.5
2024-08-29T2100,2245A,130.2684,47.3086,鹤岗市,斯达机电,,30,30,28,7,11,65,,98,93,17,12,14,14,0.4,0.3
2024-08-29T2100,2246A,130.3114,47.3388,鹤岗市,东山纸板厂,,35,35,21,11,17,35,,85,76,27,15,15,16,0.2,0.3
2024-08-29T2100,2247A,130.1097,47.3382,鹤岗市,五号水库,,15,15,11,3,5,18,,89,68,11,6,11,11,0.3,0.3
2024-08-29T2100,2263A,127.4833,50.2524,黑河市,交通局,,44,44,26,14,13,29,,77,56,19,9,5,5,0.5,0.5
2024-08-29T2100,2264A,127.5144,50.2341,黑河市,环保局,,46,46,22,13,13,38,,83,62,20,10,3,3,0.5,0.5
2024-08-29T2100,2265A,127.5291,50.2472,黑河市,大黑河岛,,,63,14,28,15,,,,,,9,,2,,
2024-08-29T2100,1074A,115.6838,37.7541,衡水市,电机北厂,颗粒物(PM10),51,51,43,25,22,132,,170,158,12,14,4,8,0.4,0.4
2024-08-29T2100,1075A,115.6303,37.7316,衡水市,市监测站,,43,43,43,20,20,126,,170,156,18,23,4,7,0.5,0.5
2024-08-29T2100,3188A,115.6683,37.7217,衡水市,市城管局,,44,44,42,22,22,129,,173,160,15,17,6,8,0.3,0.5
2024-08-29T2100,3459A,115.5989,37.5491,衡水市,地表水厂,,,63,50,14,20,,,158,148,,40,,4,,0.6
2024-08-29T2100,2456A,112.5003,26.9167,衡阳市,原169医院,,,,28,,16,,,84,,,11,,7,,0.6
2024-08-29T2100,2457A,112.6194,26.9258,衡阳市,衡阳化工总厂,,,28,36,,,81,,94,94,10,7,7,11,0.7,0.7
2024-08-29T2100,2458A,112.6211,26.8956,衡阳市,珠晖区环保局,,,39,36,,,85,,97,97,16,11,7,7,0.9,0.8
2024-08-29T2100,2459A,112.6197,26.8733,衡阳市,市委党校,,31,20,36,18,20,98,,103,103,10,10,6,6,0.8,0.8
2024-08-29T2100,2460A,112.6006,26.8919,衡阳市,市监测站,,38,,34,26,24,94,,104,104,12,8,7,9,0.9,0.8
2024-08-29T2100,2461A,112.5664,26.9056,衡阳市,真空机电公司,,30,27,33,18,17,94,,99,99,7,8,7,8,0.9,0.8
2024-08-29T2100,3399A,112.6703,26.882,衡阳市,师范学院,,31,30,34,13,17,97,,103,103,10,9,9,9,0.8,0.7
2024-08-29T2100,2608A,103.3772,23.3993,红河哈尼族彝族自治州,污水处理厂,,32,22,21,22,19,30,,80,63,15,10,13,33,0.4,0.4
2024-08-29T2100,2609A,103.3861,23.35,红河哈尼族彝族自治州,监测站,,22,18,19,15,14,36,,75,60,8,8,7,22,0.4,0.4
2024-08-29T2100,3038A,103.3758,23.368,红河哈尼族彝族自治州,州图书馆,,23,23,25,11,12,36,,70,57,8,7,5,31,0.4,0.4
2024-08-29T2100,1090A,111.6507,40.7517,呼和浩特市,呼市一监,颗粒物(PM10),51,51,39,26,19,106,,161,150,21,20,10,11,0.7,0.6
2024-08-29T2100,1091A,111.6572,40.8033,呼和浩特市,小召,,46,46,40,27,19,111,,145,139,26,30,6,8,0.8,0.7
2024-08-29T2100,1094A,111.7516,40.8369,呼和浩特市,如意水处理厂,,47,47,38,21,16,107,,149,143,29,23,8,8,0.7,0.6
2024-08-29T2100,1095A,111.7276,40.8062,呼和浩特市,二十九中,,42,42,43,25,20,127,,157,153,23,34,6,7,0.8,0.7
2024-08-29T2100,1096A,111.5512,40.7866,呼和浩特市,工大金川校区,,39,39,44,26,19,101,,149,143,37,39,3,5,0.7,0.6
2024-08-29T2100,1097A,111.717,40.7612,呼和浩特市,化肥厂生活区,,,71,52,24,19,,,158,155,42,23,8,10,0.8,0.5
2024-08-29T2100,3698A,111.5968,40.8178,呼和浩特市,红旗小学,颗粒物(PM10),59,68,44,24,18,72,,151,138,60,36,5,7,0.6,0.6
2024-08-29T2100,3699A,111.6518,40.8389,呼和浩特市,海东办,颗粒物(PM10),52,53,40,27,20,116,,152,147,29,37,7,8,0.6,0.5
2024-08-29T2100,2192A,119.7594,49.2261,呼伦贝尔市,区环保局,,37,37,30,25,17,48,,73,70,19,19,6,6,0.4,0.3
2024-08-29T2100,3061A,119.7512,49.1577,呼伦贝尔市,国华电力东,,29,25,22,20,12,41,,74,69,13,7,3,3,0.3,0.2
2024-08-29T2100,1250A,120.0751,30.8669,湖州市,城西水厂,,36,13,19,9,12,113,,130,130,11,19,4,4,0.3,0.4
2024-08-29T2100,2873A,120.0875,30.8955,湖州市,仁皇山新区,,33,16,18,11,12,103,,125,124,14,17,6,6,0.6,0.6
2024-08-29T2100,2907A,120.1844,30.8596,湖州市,吴兴区站,,32,18,18,10,12,100,,117,117,7,13,7,7,0.5,0.5
2024-08-29T2100,3562A,120.4148,30.8538,湖州市,南浔区站,,30,17,17,7,9,94,,113,112,11,10,4,4,0.5,0.5
2024-08-29T2100,1607A,120.9092,40.7136,葫芦岛市,龙港区,臭氧1小时,68,50,27,41,14,174,,182,182,8,16,10,10,0.8,0.6
2024-08-29T2100,1608A,120.8392,40.7514,葫芦岛市,化工街,臭氧1小时,55,39,45,22,18,164,,180,180,12,28,8,35,0.9,0.6
2024-08-29T2100,1609A,120.8341,40.7073,葫芦岛市,新区,臭氧1小时,59,46,38,26,18,167,,186,186,10,36,10,11,0.8,0.7
2024-08-29T2100,1610A,120.8695,40.7677,葫芦岛市,东城区,臭氧1小时,58,44,44,36,22,166,,183,183,16,31,8,43,0.9,0.6
2024-08-29T2100,2482A,109.5981,27.5721,怀化市,林科所,,23,18,20,9,13,72,,99,93,11,10,7,12,0.4,0.3
2024-08-29T2100,2483A,109.9453,27.5444,怀化市,河西地税局,,32,32,31,22,20,66,,107,98,26,10,2,9,0.7,0.7
2024-08-29T2100,2484A,109.9781,27.5342,怀化市,市四医院,,48,48,30,20,20,70,,103,96,16,9,13,14,0.8,0.8
2024-08-29T2100,2485A,109.9972,27.5578,怀化市,监测楼,,32,32,33,21,17,79,,106,98,8,8,5,9,0.8,0.7
2024-08-29T2100,2486A,110.0394,27.583,怀化市,市委党校,,48,48,43,20,17,67,,103,95,11,10,15,18,0.6,0.6
2024-08-29T2100,1210A,119.036,33.5981,淮安市,钵池山,,26,22,21,13,14,81,,80,80,15,15,6,6,0.7,0.8
2024-08-29T2100,1211A,119.007,33.575,淮安市,北京南路,,25,22,24,14,15,80,,79,77,7,7,5,5,0.5,0.6
2024-08-29T2100,1212A,118.989,33.6067,淮安市,市监测站,,32,,22,22,17,84,,84,84,12,9,6,6,0.9,0.7
2024-08-29T2100,1213A,119.135,33.5039,淮安市,楚州区监测站,,29,29,27,13,13,76,,92,74,14,9,5,5,0.5,0.6
2024-08-29T2100,1214A,119.0186,33.6297,淮安市,淮阴区监测站,,25,22,26,16,15,77,,82,80,23,16,4,3,0.6,0.6
2024-08-29T2100,3426A,118.8755,33.2894,淮安市,新华书店,,20,18,26,13,15,63,,90,80,17,16,6,7,0.6,0.6
2024-08-29T2100,2282A,116.8004,33.975,淮北市,监测站,,44,44,27,15,14,79,,132,118,17,10,6,7,0.8,0.8
2024-08-29T2100,2283A,116.8091,33.9007,淮北市,烈山区政府,,43,43,27,18,16,105,,142,131,7,5,6,7,0.5,0.5
2024-08-29T2100,3330A,116.8873,33.9836,淮北市,杜集区检察院,,41,41,32,19,17,87,,137,126,13,10,3,4,0.4,0.4
2024-08-29T2100,4017A,116.7923,33.9535,淮北市,市博物馆,,39,39,27,15,15,108,,139,130,16,9,5,6,0.8,0.7
2024-08-29T2100,2277A,116.8305,32.7727,淮南市,潘集区政府,,37,37,25,23,17,79,,97,92,21,11,6,6,0.5,0.5
2024-08-29T2100,2278A,117.0067,32.6524,淮南市,师范学院,,34,34,34,20,15,70,,108,100,11,7,6,5,0.4,0.4
2024-08-29T2100,2279A,116.8569,32.5951,淮南市,谢家集区政府,,34,34,22,21,20,67,,104,99,14,8,6,16,0.4,0.4
2024-08-29T2100,2280A,116.8281,32.633,淮南市,八公山区政府,,,35,33,15,9,,,105,104,14,8,4,6,0.3,0.4
2024-08-29T2100,2281A,116.6325,32.6201,淮南市,焦岗湖风景区管理处,,13,,14,9,8,41,,85,73,13,9,6,6,0,0
2024-08-29T2100,2894A,117.0566,32.6531,淮南市,经济技术开发区消防队,,20,19,22,9,9,62,,106,99,14,10,5,5,0.3,0.4
2024-08-29T2100,3329A,117.0108,32.5893,淮南市,山南新区,,49,49,34,10,16,71,,112,107,16,11,7,4,0.8,0.6
2024-08-29T2100,2446A,114.9028,30.4742,黄冈市,职工中心,,37,37,37,24,25,81,,113,105,9,6,8,8,0.7,0.7
2024-08-29T2100,2929A,114.8858,30.4519,黄冈市,红卫路,,38,30,36,26,27,89,,119,110,11,9,7,8,0.5,0.6
2024-08-29T2100,3398A,114.9136,30.4445,黄冈市,市林业局,,46,46,43,19,25,86,,123,113,10,8,8,8,0.5,0.5
2024-08-29T2100,2672A,102.0199,35.5102,黄南藏族自治州,同仁县隆务镇,,25,25,25,9,13,71,,104,90,2,4,8,8,0.5,0.5
2024-08-29T2100,2295A,118.2903,29.6963,黄山市,延安路89号,,32,32,39,3,12,59,,107,96,6,6,5,5,0.4,0.4
2024-08-29T2100,2296A,118.327,29.7178,黄山市,黄山东路89号,,23,,24,16,8,57,,98,90,5,6,4,4,0.5,0.6
2024-08-29T2100,2297A,118.1371,30.2756,黄山市,黄山区政府5号楼,,16,12,19,11,11,40,,98,80,6,6,6,6,0.4,0.5
2024-08-29T2100,2423A,115.0601,30.2313,黄石市,沈家营,,50,50,44,20,16,69,,129,108,19,12,7,6,0.6,0.6
2024-08-29T2100,2424A,115.0817,30.2006,黄石市,陈家湾,颗粒物(PM10),52,53,44,22,19,53,,127,106,14,9,7,8,0.6,0.7
2024-08-29T2100,2426A,114.8988,30.2019,黄石市,铁山,,30,26,39,15,20,96,,141,134,3,9,8,10,0.3,0.5
2024-08-29T2100,2427A,115.0307,30.2092,黄石市,团城山,,39,39,36,19,18,70,,130,115,20,12,5,7,0.5,0.6
2024-08-29T2100,3149A,115.0235,30.1578,黄石市,笔架山北路,,39,39,41,17,15,86,,133,124,13,11,12,10,0.7,0.8
2024-08-29T2100,1392A,114.4183,23.0528,惠州市,河南岸金山湖子站,,31,31,31,18,19,42,,96,82,18,10,4,4,0.7,0.7
2024-08-29T2100,1393A,114.4053,23.0822,惠州市,下埔横江三路子站,,33,33,32,19,19,71,,103,96,15,10,3,4,0.7,0.7
2024-08-29T2100,1394A,114.4103,23.1142,惠州市,江北云山西路子站,,32,32,31,17,15,67,,100,92,14,9,4,4,0.8,0.8
2024-08-29T2100,1395A,114.4645,22.7833,惠州市,惠阳区承修路船湖子站,,46,44,33,32,22,83,,125,116,19,17,4,5,0.7,0.6
2024-08-29T2100,1396A,114.5317,22.7422,惠州市,大亚湾管委会子站,,46,43,33,29,20,146,,157,157,15,18,6,7,0.4,0.4
2024-08-29T2100,3314A,114.4338,22.8134,惠州市,惠阳秋长,,32,27,27,19,20,102,,140,133,20,18,5,5,0.6,0.6
2024-08-29T2100,3452A,114.6517,22.775,惠州市,大亚湾霞涌,,30,23,28,17,15,94,,160,153,11,9,4,4,0.5,0.5
2024-08-29T2100,2240A,130.9762,45.3001,鸡西市,环保局,,38,38,35,13,14,25,,61,50,18,11,5,5,0.3,0.2
2024-08-29T2100,2243A,130.9429,45.3039,鸡西市,第一中学,颗粒物(PM10),51,52,38,16,11,23,,80,61,23,15,5,5,0.4,0.3
2024-08-29T2100,3707A,131.0207,45.3073,鸡西市,欧美日汽修厂,,35,35,27,16,12,23,,73,58,12,12,4,4,0.2,0.2
2024-08-29T2100,3709A,130.9967,45.3106,鸡西市,市政设施管理处,,46,46,44,12,13,21,,78,57,14,15,5,6,0.4,0.4
2024-08-29T2100,2367A,114.9754,27.0803,吉安市,红声器材厂,,39,39,30,27,16,103,,118,117,13,11,14,12,0.6,0.6
2024-08-29T2100,2368A,114.9658,27.0999,吉安市,市森林工业局,,32,28,26,22,17,100,,115,114,17,16,14,9,0.5,0.6
2024-08-29T2100,2369A,114.99,27.1312,吉安市,市环境监测站,,33,30,28,12,14,105,,120,120,12,9,29,12,0.6,0.7
2024-08-29T2100,2370A,115.0093,27.0968,吉安市,青原区法院,,34,28,28,18,17,108,,119,118,12,13,7,9,0.7,0.7
2024-08-29T2100,1772A,126.54,43.8622,吉林市,哈达湾,,32,30,22,22,11,40,,99,85,31,18,5,6,0.8,0.6
2024-08-29T2100,1773A,126.5844,43.8358,吉林市,东局子,,23,23,19,10,10,50,,96,81,20,13,4,4,0.6,0.6
2024-08-29T2100,1774A,126.5052,43.8245,吉林市,电力学院,,,,28,22,14,13,,98,74,36,17,3,4,0.7,0.6
2024-08-29T2100,1775A,126.6133,43.8972,吉林市,江北,颗粒物(PM10),61,72,32,25,14,28,,101,72,31,15,7,8,0.8,0.7
2024-08-29T2100,1776A,126.555,43.8306,吉林市,江南公园,,30,30,20,15,14,35,,100,82,31,17,5,5,0.7,0.7
2024-08-29T2100,1778A,126.7061,43.7133,吉林市,丰满,,,,,,,,,,,,,,,,
2024-08-29T2100,2868A,126.4739,43.953,吉林市,九站,颗粒物(PM10),59,68,38,12,14,17,,106,76,56,23,9,8,0.7,0.7
2024-08-29T2100,1299A,116.9862,36.6114,济南市,科干所,颗粒物(PM10),56,61,43,29,21,117,,174,161,20,20,6,6,0.9,0.7
2024-08-29T2100,1300A,116.9376,36.665,济南市,农科所,,39,37,38,22,21,122,,175,156,26,31,7,8,0.6,0.6
2024-08-29T2100,1301A,117.1265,36.6734,济南市,开发区,颗粒物(PM10),68,85,46,27,22,114,,209,187,38,30,8,9,0.7,0.6
2024-08-29T2100,1303A,117.0624,36.6868,济南市,省种子仓库,颗粒物(PM10),58,66,50,27,21,138,,201,184,42,33,6,7,0.7,0.6
2024-08-29T2100,1304A,116.9489,36.6447,济南市,机床二厂,,,,42,,14,,,126,,,30,,9,,0.7
2024-08-29T2100,1305A,117.0495,36.663,济南市,市监测站,颗粒物(PM10),55,59,45,27,21,119,,187,169,41,28,9,10,0.8,0.7
2024-08-29T2100,1306A,116.7675,36.5484,济南市,长清党校,臭氧1小时,52,37,41,27,24,161,,186,181,12,22,7,7,0.9,0.8
2024-08-29T2100,1616A,117.6795,36.229,济南市,技术学院,颗粒物(PM10),53,56,34,34,17,140,,187,176,17,16,16,12,2.7,1.2
2024-08-29T2100,1961A,117.532,36.6868,济南市,东山小学,颗粒物(PM10),64,78,48,29,20,128,,219,208,30,30,5,7,0.8,0.8
2024-08-29T2100,3059A,117.7161,36.2049,济南市,泰兴公司,,44,44,32,19,16,119,,191,175,27,26,10,11,0.8,0.9
2024-08-29T2100,3064A,117.6867,36.2171,济南市,莱芜战役纪念馆,,44,36,33,19,14,140,,176,167,17,17,8,9,0.7,0.9
2024-08-29T2100,3494A,117.1673,36.9782,济南市,济阳区政府,"颗粒物(PM10),臭氧1小时",55,59,38,22,19,164,,196,194,16,17,11,14,0.8,0.9
2024-08-29T2100,3495A,117.1171,36.63,济南市,锦屏中学,,33,32,32,17,16,105,,194,166,19,19,5,5,0.7,0.6
2024-08-29T2100,3682A,116.9814,36.6819,济南市,济南四建,颗粒物(PM10),52,53,44,27,20,119,,172,160,29,32,6,7,0.8,0.8
2024-08-29T2100,1653A,116.6251,35.4302,济宁市,火炬城,,48,47,44,31,24,151,,181,180,17,17,9,10,1.0,0.8
2024-08-29T2100,1655A,116.5491,35.4042,济宁市,电化厂,,47,47,47,29,29,129,,185,176,21,20,8,9,0.6,0.8
2024-08-29T2100,3500A,116.5814,35.3707,济宁市,北湖一中,,,43,44,14,22,,,190,188,25,18,4,6,0.6,0.7
2024-08-29T2100,3501A,116.8249,35.5593,济宁市,服务中心,,49,49,42,18,20,113,,165,157,22,17,4,5,0.6,0.5
2024-08-29T2100,3678A,116.5907,35.4054,济宁市,市第七中学,,49,36,44,27,23,154,,186,182,20,19,6,7,0.8,0.8
2024-08-29T2100,2255A,130.2751,46.8028,佳木斯市,佳纺,,31,31,21,15,11,70,,102,92,15,13,8,7,0.6,0.6
2024-08-29T2100,2256A,130.3995,46.8307,佳木斯市,发电厂,,41,41,21,17,11,70,,99,88,15,12,8,5,0.6,0.6
2024-08-29T2100,2257A,130.3258,46.7975,佳木斯市,环保局,,24,24,24,13,12,75,,98,92,16,12,8,8,0.7,0.6
2024-08-29T2100,2258A,130.3648,46.8032,佳木斯市,十一中,,32,32,21,18,12,60,,96,87,23,16,7,7,0.7,0.5
2024-08-29T2100,2259A,130.3794,46.7588,佳木斯市,四丰,,,20,14,12,8,71,,93,88,,,1,1,0.5,0.5
2024-08-29T2100,1252A,120.7436,30.778,嘉兴市,清河小学,,25,12,15,7,9,80,,125,118,15,15,3,3,0.8,0.9
2024-08-29T2100,1253A,120.726,30.7478,嘉兴市,嘉兴学院,,22,15,20,7,10,68,,114,103,15,16,2,2,0.4,0.5
2024-08-29T2100,2872A,120.7846,30.7525,嘉兴市,南湖区残联,,,19,20,9,11,,,209,,12,13,4,4,0.5,0.6
2024-08-29T2100,3407A,120.6916,30.7739,嘉兴市,秀洲住建,,22,15,16,8,11,70,,117,107,12,13,4,4,0.5,0.6
2024-08-29T2100,1945A,98.2908,39.7711,嘉峪关市,气象局,,41,41,42,12,13,121,,142,130,3,14,6,5,0.4,0.3
2024-08-29T2100,2884A,98.2672,39.7978,嘉峪关市,酒钢宾馆,,46,46,44,17,15,123,,141,136,10,13,8,9,0.5,0.4
2024-08-29T2100,3248A,98.2643,39.7724,嘉峪关市,雄关区,,45,45,43,13,14,114,,138,132,12,18,7,8,0,0.3
2024-08-29T2100,1383A,113.1064,22.6058,江门市,北街,,27,16,33,12,23,84,,128,114,21,27,4,4,0.7,0.7
2024-08-29T2100,1384A,113.0731,22.5835,江门市,西区,,30,18,39,10,19,96,,140,126,17,26,5,7,0.6,0.6
2024-08-29T2100,1385A,113.0219,22.5311,江门市,圭峰西,,23,9,32,9,25,73,,125,108,19,19,2,3,0.8,0.8
2024-08-29T2100,1386A,113.0828,22.5947,江门市,东湖,,28,14,34,10,21,88,,133,119,16,22,5,6,0.5,0.5
2024-08-29T2100,3311A,113.1075,22.5647,江门市,江海富民,,31,31,41,12,27,93,,133,122,24,26,5,6,0.6,0.6
2024-08-29T2100,3449A,113.05,22.4667,江门市,新会银湖,,,,35,,29,,,77,,,22,,4,,0.6
2024-08-29T2100,1828A,113.227,35.2125,焦作市,市环保局,颗粒物(PM10),54,58,34,37,22,142,,164,161,18,18,1,6,0.7,0.7
2024-08-29T2100,1830A,113.1992,35.2590,焦作市,影视城,,,,,,,,,,,,,,,,
2024-08-29T2100,3169A,113.2725,35.2067,焦作市,太极体育中心,颗粒物(PM10),52,54,46,34,22,158,,166,165,11,13,2,7,0.6,0.7
2024-08-29T2100,3335A,113.3137,35.2641,焦作市,马村街道办,细颗粒物(PM2.5),70,56,44,51,24,121,,164,157,16,16,2,5,0.6,0.5
2024-08-29T2100,3336A,113.2465,35.2373,焦作市,焦作技师学院,,,57,43,29,24,,,153,152,14,13,4,7,0.5,0.7
2024-08-29T2100,3477A,113.1656,35.2539,焦作市,中站许衡医院,,47,47,36,23,20,113,,159,154,26,18,4,7,0.6,0.6
2024-08-29T2100,3981A,113.2449,35.1803,焦作市,原李万街道办,颗粒物(PM10),60,69,42,31,21,149,,161,158,12,15,4,9,0.8,0.9
2024-08-29T2100,1708A,116.3701,23.5345,揭阳市,新兴,,30,,47,21,28,90,,157,146,16,22,3,10,0.8,0.8
2024-08-29T2100,1709A,116.3264,23.5443,揭阳市,西马,,28,16,46,9,26,89,,154,142,15,18,5,7,0.8,0.8
2024-08-29T2100,1710A,116.3611,23.5626,揭阳市,东兴,,28,,45,15,23,89,,154,142,17,18,4,9,0.9,0.9
2024-08-29T2100,1711A,116.4151,23.5294,揭阳市,渔湖,,30,,49,12,23,93,,154,144,15,25,3,8,0.7,0.7
2024-08-29T2100,3320A,116.403,23.5699,揭阳市,曲溪,,28,18,36,16,24,88,,158,145,18,23,1,8,0.6,0.7
2024-08-29T2100,1944A,102.1692,38.5167,金昌市,天庆家园,,38,37,41,18,21,119,,140,136,11,17,9,8,0.7,0.7
2024-08-29T2100,3170A,102.1864,38.5253,金昌市,市委党校,,44,44,46,17,19,122,,140,137,10,14,8,13,0.7,0.7
2024-08-29T2100,4022A,102.1647,38.5371,金昌市,金川区人防中心,,48,48,38,21,22,106,,137,130,16,16,9,9,0.7,0.8
2024-08-29T2100,1262A,119.647,29.077,金华市,十五中,,33,33,37,14,20,88,,147,129,16,15,2,2,0.5,0.6
2024-08-29T2100,1263A,119.686,29.1029,金华市,监测站,,34,34,37,21,23,87,,144,124,22,18,2,3,0.6,0.6
2024-08-29T2100,3659A,119.656,29.1131,金华市,气象局,,32,29,34,22,19,91,,141,122,19,21,4,4,0.6,0.6
2024-08-29T2100,1767A,121.1115,41.0879,锦州市,南山,臭氧1小时,52,39,43,30,23,161,,162,162,19,27,9,10,1.0,0.8
2024-08-29T2100,1768A,121.0533,40.8434,锦州市,开发区,颗粒物(PM10),51,51,63,28,23,160,,163,163,22,38,11,12,0.9,0.7
2024-08-29T2100,1769A,121.1836,41.1119,锦州市,百股街道,,45,40,33,22,12,142,,142,142,18,21,11,9,1.2,0.9
2024-08-29T2100,1770A,121.1178,41.1222,锦州市,天安街道,臭氧1小时,52,46,43,28,20,161,,160,160,13,27,10,14,1.4,1.2
2024-08-29T2100,1771A,121.1303,41.1386,锦州市,北湖公园,臭氧1小时,64,43,37,37,25,171,,167,167,12,23,8,11,1.0,0.9
2024-08-29T2100,2160A,112.85,35.5051,晋城市,自来水公司,,49,49,35,27,17,153,,150,150,15,15,10,8,0.7,0.7
2024-08-29T2100,2161A,112.8318,35.4936,晋城市,白云商贸,颗粒物(PM10),60,69,52,22,13,148,,148,148,18,17,10,9,0.8,0.8
2024-08-29T2100,2162A,112.8508,35.4887,晋城市,市环保局,颗粒物(PM10),51,52,46,31,16,146,,145,145,16,15,11,10,0.7,0.7
2024-08-29T2100,2163A,112.8676,35.4897,晋城市,技术学院,颗粒物(PM10),58,65,35,24,16,145,,144,144,18,18,12,10,0.7,0.7
2024-08-29T2100,2165A,112.8453,35.546,晋城市,白马寺,,,,,,,,,,,,,,,,
2024-08-29T2100,3620A,112.8271,35.4828,晋城市,泽州一中,,42,35,30,27,13,133,,142,141,20,17,10,9,0.9,0.9
2024-08-29T2100,2171A,112.7532,37.6945,晋中市,锦纶小区,颗粒物(PM10),60,70,36,22,12,124,,175,164,34,20,12,11,0.7,0.5
2024-08-29T2100,2173A,112.7249,37.7067,晋中市,南都小区,颗粒物(PM10),57,63,32,30,18,139,,169,164,28,22,8,7,0.6,0.6
2024-08-29T2100,2174A,112.6991,37.6982,晋中市,榆次区政府,颗粒物(PM10),57,63,38,32,17,130,,167,161,31,23,11,10,0.5,0.5
2024-08-29T2100,2865A,112.7195,37.6828,晋中市,榆次三中,颗粒物(PM10),63,75,38,29,12,137,,173,166,25,19,10,9,0.8,0.6
2024-08-29T2100,2439A,112.2014,31.0481,荆门市,竹园小学,,43,43,46,24,25,117,,144,142,15,12,10,12,0.7,0.7
2024-08-29T2100,2440A,112.1969,30.9891,荆门市,掇刀,,47,47,42,27,28,127,,147,145,15,12,5,5,0.6,0.6
2024-08-29T2100,2441A,112.2213,31.0386,荆门市,石化一小,,,,44,,20,,,150,150,,11,,13,,0.6
2024-08-29T2100,3012A,112.1849,31.0362,荆门市,西山林语,,44,44,41,26,26,130,,148,147,10,12,8,9,0.7,0.7
2024-08-29T2100,3547A,112.1632,31.0138,荆门市,龙泉中学南校,,40,35,37,19,20,128,,146,144,10,9,7,10,0.6,0.6
2024-08-29T2100,1844A,112.2494,30.3197,荆州市,市图书馆,,40,40,22,24,19,106,,127,124,16,11,6,7,0.8,0.8
2024-08-29T2100,1845A,112.2008,30.3544,荆州市,市委党校,,35,35,27,18,16,98,,133,127,17,9,9,9,0.9,0.8
2024-08-29T2100,3194A,112.2747,30.3122,荆州市,管委会,,37,37,26,17,21,96,,130,124,21,10,6,6,0.7,0.6
2024-08-29T2100,3548A,112.1655,30.3364,荆州市,学苑路,,45,37,32,31,22,112,,140,134,14,11,7,7,0.9,0.8
2024-08-29T2100,2342A,117.3102,29.3867,景德镇市,王港中学,,,,,,,,,,,,,,,,
2024-08-29T2100,2343A,117.2117,29.2933,景德镇市,老干部活动中心,,29,29,17,19,10,50,,86,83,10,8,7,8,0.6,0.5
2024-08-29T2100,2344A,117.1894,29.2789,景德镇市,兽医站,,23,23,23,14,9,42,,88,83,12,6,7,8,0.6,0.5
2024-08-29T2100,2345A,117.1547,29.2617,景德镇市,台达陶瓷,,35,31,19,24,11,35,,84,79,36,11,55,9,0.5,0.4
2024-08-29T2100,2346A,117.2461,29.2956,景德镇市,陶研所,,26,26,24,14,7,44,,84,79,9,11,4,9,0.4,0.4
2024-08-29T2100,1803A,115.9872,29.6815,九江市,十里,,45,39,31,31,19,56,,119,108,17,15,9,10,1.0,0.9
2024-08-29T2100,1804A,115.9584,29.7046,九江市,茅山头,,40,40,30,16,22,70,,118,110,25,20,12,11,0.8,0.8
2024-08-29T2100,1805A,115.9877,29.7295,九江市,西园,,28,24,31,19,22,41,,122,110,51,19,7,14,0.8,0.7
2024-08-29T2100,1806A,116.0172,29.6547,九江市,五七二七厂,,28,28,25,11,19,71,,99,90,9,13,7,7,0.5,0.6
2024-08-29T2100,1808A,115.9114,29.6038,九江市,综合工业园,,48,48,31,20,24,71,,130,116,12,22,5,8,0.9,0.9
2024-08-29T2100,1809A,116.0721,29.7535,九江市,石化总厂,,39,30,43,27,23,72,,119,107,34,18,10,10,0.9,0.9
2024-08-29T2100,1810A,115.9773,29.5698,九江市,庐山气象台,,37,20,14,18,10,116,,107,107,2,3,7,8,1.0,0.9
2024-08-29T2100,3190A,116.0254,29.6994,九江市,外国语学校,,35,35,29,24,21,58,,128,116,25,19,12,12,1.0,1.1
2024-08-29T2100,2658A,98.5061,39.7443,酒泉市,仓门街子站,颗粒物(PM10),51,51,49,15,14,109,,133,127,14,13,10,15,0.4,0.3
2024-08-29T2100,2659A,98.4989,39.7256,酒泉市,油田生活基地,颗粒物(PM10),53,56,49,13,10,109,,134,128,17,14,10,10,0.4,0.3
2024-08-29T2100,2698A,76.0072,39.4467,喀什地区,巡警大队,颗粒物(PM10),100,150,114,41,26,77,,82,82,14,22,3,4,0.4,0.5
2024-08-29T2100,2699A,75.9755,39.4694,喀什地区,吾办,细颗粒物(PM2.5),108,148,105,81,44,83,,87,87,12,19,2,3,0.5,0.6
2024-08-29T2100,4027A,75.9483,39.4689,喀什地区,老干局,颗粒物(PM10),100,149,114,47,28,83,,87,87,9,17,3,3,0.4,0.5
2024-08-29T2100,1824A,114.3389,34.7781,开封市,肿瘤医院,,48,48,40,17,15,125,,165,153,20,12,4,6,0.5,0.4
2024-08-29T2100,1826A,114.2885,34.7965,开封市,世纪星幼儿园,,,60,39,,20,,,162,156,23,14,4,7,0.6,0.6
2024-08-29T2100,3147A,114.3438,34.8106,开封市,龙亭公园,,44,42,45,28,20,139,,169,160,17,14,4,5,0.7,0.7
2024-08-29T2100,3210A,114.3644,34.7964,开封市,汴京公园,,43,32,40,24,25,137,,166,157,10,11,5,6,0.6,0.6
2024-08-29T2100,3473A,114.2485,34.8306,开封市,技师学院,,,,47,,20,120,,181,166,38,18,3,11,0.8,0.7
2024-08-29T2100,3592A,114.4644,34.7556,开封市,祥符区生态环境局,颗粒物(PM10),51,51,40,34,26,28,,159,129,89,25,5,8,0.7,0.6
2024-08-29T2100,1951A,84.895,45.6094,克拉玛依市,长征新村,,30,7,22,6,5,95,,89,89,4,4,6,7,0.2,0.2
2024-08-29T2100,1952A,84.8988,45.5893,克拉玛依市,南林小区,,28,6,22,3,12,89,,90,82,12,11,9,9,0.2,0.2
2024-08-29T2100,1954A,84.905,44.3396,克拉玛依市,独山子区,,32,10,34,3,16,100,,101,88,5,9,6,9,0.2,0.3
2024-08-29T2100,1955A,85.6979,46.098,克拉玛依市,乌尔禾区商贸楼,,28,,28,7,6,87,,85,85,2,7,8,8,0.2,0.2
2024-08-29T2100,3612A,85.1045,45.6899,克拉玛依市,白碱滩区新站,,35,15,28,3,6,109,,103,103,4,6,8,9,0.3,0.3
2024-08-29T2100,2697A,76.1454,39.7142,克孜勒苏柯尔克孜自治州,市人民政府,细颗粒物(PM2.5),82,95,90,60,40,93,,96,96,12,11,2,5,0.3,0.3
2024-08-29T2100,3665A,76.1658,39.7157,克孜勒苏柯尔克孜自治州,克州文化中心,细颗粒物(PM2.5),58,42,102,41,42,96,,97,97,6,7,4,7,0.4,0.4
2024-08-29T2100,1450A,102.8204,24.8886,昆明市,呈贡新区,,27,24,27,18,16,86,,104,103,14,23,7,6,0.5,0.5
2024-08-29T2100,1451A,102.6251,24.9608,昆明市,西山森林公园,,,,,,,,,,,,,,,,
2024-08-29T2100,1452A,102.7252,25.0902,昆明市,龙泉镇,,50,50,27,14,15,68,,140,133,28,18,8,7,0.7,0.7
2024-08-29T2100,1453A,102.7266,25.0375,昆明市,东风东路,,27,27,28,18,17,70,,130,124,19,21,6,6,0.4,0.5
2024-08-29T2100,1454A,102.6742,25.0669,昆明市,金鼎山,,32,32,33,22,15,76,,135,129,19,17,5,6,0.5,0.6
2024-08-29T2100,1455A,102.6644,25.0401,昆明市,碧鸡广场,,39,39,31,17,16,62,,128,121,21,19,4,5,0.5,0.5
2024-08-29T2100,3179A,102.7494,25.0119,昆明市,官渡区博物馆,,29,29,33,16,16,78,,135,130,17,24,8,8,0.4,0.5
2024-08-29T2100,3375A,102.8017,24.8336,昆明市,青年创业园,,,35,23,13,14,,,109,109,,20,3,4,0.6,0.5
2024-08-29T2100,3550A,102.7997,24.9786,昆明市,昆明学院,,31,31,41,19,23,89,,128,125,21,27,5,7,0.4,0.5
2024-08-29T2100,3551A,102.5967,24.6736,昆明市,晋宁区生态环境分局,,35,,23,24,17,67,,110,104,11,12,4,7,0.3,0.4
2024-08-29T2100,3552A,102.6678,24.9856,昆明市,云天化总部,,25,22,20,13,14,77,,124,119,9,16,6,7,0.4,0.5
2024-08-29T2100,1456A,91.1319,29.6514,拉萨市,八廓街,,40,10,10,6,8,125,,145,143,15,11,7,9,0.3,0.2
2024-08-29T2100,1457A,91.1221,29.6747,拉萨市,市环保局,,31,14,14,7,7,98,,142,137,28,15,7,9,0.3,0.2
2024-08-29T2100,1458A,91.0874,29.6475,拉萨市,区监测站,,36,9,9,3,6,113,,136,134,24,13,8,9,0.3,0.2
2024-08-29T2100,1459A,91.1774,29.6541,拉萨市,西藏大学,,35,20,11,9,6,112,,136,134,16,6,6,9,0.3,0.1
2024-08-29T2100,1460A,90.9798,29.6588,拉萨市,区辐射站,,30,29,14,9,8,94,,136,131,48,20,8,9,0.2,0.2
2024-08-29T2100,1461A,91.0834,29.6292,拉萨市,拉萨火车站,,39,6,9,3,6,122,,134,133,11,11,6,6,0.2,0.2
2024-08-29T2100,2520A,109.2203,23.7256,来宾市,来宾技工学校,,,16,28,7,19,,,79,79,9,12,6,9,0.6,0.8
2024-08-29T2100,3535A,109.1781,23.7297,来宾市,兴宾区政府,,20,14,25,6,19,63,,83,81,9,8,7,5,0.8,0.9
2024-08-29T2100,4002A,109.2416,23.7461,来宾市,中南小学,,24,,29,16,22,74,,91,89,9,14,6,6,0.6,0.8
2024-08-29T2100,1476A,103.631,36.1031,兰州市,兰炼宾馆,,36,32,32,25,22,97,,164,150,7,10,3,5,0.4,0.4
2024-08-29T2100,1477A,104.1373,35.9454,兰州市,榆中兰大校区,,,,,,,,,,,,,,,,
2024-08-29T2100,1478A,103.8412,36.0726,兰州市,生物制品所,,32,30,31,22,18,88,,131,125,14,15,7,8,0.4,0.5
2024-08-29T2100,1479A,103.831,36.0464,兰州市,铁路设计院,,41,41,36,23,22,76,,127,122,27,23,8,10,0.6,0.7
2024-08-29T2100,3186A,103.7158,36.1058,兰州市,教育港,细颗粒物(PM2.5),60,49,43,43,26,84,,145,138,10,11,5,6,0.4,0.5
2024-08-29T2100,3241A,103.7439,36.0842,兰州市,百合公园,,38,38,32,21,17,94,,144,139,12,13,9,7,0.2,0.5
2024-08-29T2100,3242A,103.9611,35.998,兰州市,和平,,38,38,34,20,18,78,,132,125,14,11,8,8,0.5,0.5
2024-08-29T2100,3245A,103.6633,36.533,兰州新区,新区管委会,,42,42,35,22,20,89,,107,106,9,9,6,12,0.5,0.6
2024-08-29T2100,3246A,103.6975,36.4789,兰州新区,舟曲中学,,40,40,39,20,19,123,,136,134,13,10,35,15,0.7,0.6
2024-08-29T2100,1067A,116.6708,39.5111,廊坊市,药材公司,颗粒物(PM10),56,62,51,27,22,115,,162,155,19,22,2,3,0.5,0.5
2024-08-29T2100,1068A,116.7214,39.5589,廊坊市,开发区,,46,46,40,24,23,132,,167,164,21,19,2,2,0.6,0.5
2024-08-29T2100,1070A,116.7244,39.5269,廊坊市,北华航天学院,颗粒物(PM10),58,66,61,22,23,140,,171,168,16,23,3,3,0.6,0.6
2024-08-29T2100,2919A,116.7022,39.5453,廊坊市,河北工业大学,颗粒物(PM10),54,57,50,29,26,143,,168,165,16,18,3,3,0.6,0.5
2024-08-29T2100,2535A,103.7723,29.5462,乐山市,花湖湾,臭氧1小时,63,44,52,39,43,170,,184,184,19,19,5,6,0.5,0.5
2024-08-29T2100,2536A,103.7627,29.5844,乐山市,牛耳桥,细颗粒物(PM2.5),64,54,54,46,40,163,,186,185,18,21,2,3,0.8,0.8
2024-08-29T2100,2537A,103.7508,29.6006,乐山市,市第三水厂,臭氧1小时,55,50,56,36,37,164,,192,191,16,18,2,3,0.5,0.6
2024-08-29T2100,2538A,103.7571,29.5664,乐山市,市监测站,臭氧1小时,67,54,57,35,42,173,,189,189,14,17,4,5,0.5,0.5
2024-08-29T2100,3361A,103.7311,29.5628,乐山市,理工大学,臭氧1小时,73,49,54,43,44,178,,197,197,15,17,4,5,0.7,0.7
2024-08-29T2100,2598A,100.2143,26.8576,丽江市,西南郊,,,,,,,,,,,,,,,,
2024-08-29T2100,2599A,100.2497,26.8802,丽江市,丽江古城,,38,38,28,25,19,94,,113,112,13,13,10,9,0.6,0.6
2024-08-29T2100,2600A,100.2203,26.8906,丽江市,市中心,,32,,23,22,17,99,,116,115,16,11,10,9,0.7,0.6
2024-08-29T2100,1267A,119.914,28.4514,丽水市,监测站大楼,,35,35,27,20,16,101,,149,138,11,14,2,3,0.4,0.4
2024-08-29T2100,1268A,119.93,28.4586,丽水市,莲都小学,,34,34,32,15,19,105,,147,137,10,13,4,4,0.6,0.6
2024-08-29T2100,1269A,119.879,28.4231,丽水市,余庄前,,31,31,28,21,17,81,,145,129,10,11,4,4,0.6,0.5
2024-08-29T2100,1173A,119.176,34.5885,连云港市,市环境监测站,,38,31,25,14,12,121,,142,139,14,13,7,7,0.4,0.5
2024-08-29T2100,3000A,119.3581,34.6972,连云港市,德源药业,,48,48,24,17,11,74,,132,121,33,11,4,5,0.4,0.4
2024-08-29T2100,3007A,119.178,34.844,连云港市,新城一中,,31,20,31,14,16,98,,139,129,30,18,3,4,0.7,0.8
2024-08-29T2100,3008A,119.3608,34.7519,连云港市,胡沟管理处,,39,39,24,17,11,45,,132,109,58,13,12,9,0.6,0.6
2024-08-29T2100,3009A,119.1478,34.5911,连云港市,矿山设计院,,38,29,29,14,14,120,,139,136,13,13,8,7,0.6,0.7
2024-08-29T2100,3434A,119.2413,34.6539,连云港市,工贸学校,,37,21,24,14,15,116,,144,137,9,10,8,7,0.7,0.7
2024-08-29T2100,3664A,119.4172,34.7341,连云港市,连云街道,,30,13,24,7,14,94,,135,119,8,13,3,4,0.4,0.5
2024-08-29T2100,2571A,102.3431,27.8099,凉山彝族自治州,青龙寺,颗粒物(PM10),52,53,18,25,17,84,,126,115,9,6,6,7,0.4,0.4
2024-08-29T2100,2572A,102.2721,27.8415,凉山彝族自治州,邛海宾馆,,44,44,31,27,22,72,,135,124,23,14,8,10,0.6,0.6
2024-08-29T2100,2573A,102.2625,27.898,凉山彝族自治州,西昌市政府,,29,29,32,17,24,87,,142,132,8,9,5,10,0.7,0.7
2024-08-29T2100,2574A,102.2685,27.8851,凉山彝族自治州,凉山州政府,细颗粒物(PM2.5),70,78,37,51,22,92,,144,135,15,12,9,11,0.6,0.7
2024-08-29T2100,2575A,102.237,27.8914,凉山彝族自治州,长安,颗粒物(PM10),68,85,36,41,25,92,,137,130,16,16,14,16,0.7,0.8
2024-08-29T2100,2212A,123.2,41.1953,辽阳市,宏伟区,,47,47,33,14,14,99,,130,120,24,16,12,10,1.2,0.9
2024-08-29T2100,2213A,123.1683,41.2495,辽阳市,新华园,,48,48,48,18,19,77,,125,112,30,29,16,11,1.3,1
2024-08-29T2100,2214A,123.2354,41.2639,辽阳市,滨河路,,43,43,40,18,16,101,,140,132,22,18,15,11,1.2,0.8
2024-08-29T2100,2215A,123.149,41.2991,辽阳市,铁西工业园,,36,36,45,19,19,66,,132,115,55,26,14,11,0.9,1
2024-08-29T2100,2227A,125.1358,42.8845,辽源市,环保局,,29,29,25,13,10,26,,107,83,27,15,5,7,0.8,0.7
2024-08-29T2100,3239A,125.0764,42.9078,辽源市,银鹰制药,,37,37,24,19,11,24,,110,81,40,21,4,9,0.7,0.7
2024-08-29T2100,1625A,115.9848,36.4372,聊城市,区政府,颗粒物(PM10),52,53,42,30,20,134,,178,168,21,20,22,12,0.7,0.5
2024-08-29T2100,2878A,116.0072,36.4343,聊城市,聊大东校,颗粒物(PM10),53,56,42,29,27,129,,184,170,22,18,9,11,0.7,0.6
2024-08-29T2100,3200A,115.9819,36.4978,聊城市,监控中心,,47,47,45,24,22,139,,187,173,19,23,17,10,0.4,0.4
2024-08-29T2100,3513A,116.0445,36.4361,聊城市,九州社区,颗粒物(PM10),58,65,51,30,25,115,,173,156,19,17,12,10,0.6,0.5
2024-08-29T2100,4018A,116.0567,36.4608,聊城市,星美广场,颗粒物(PM10),56,61,46,24,21,113,,176,156,24,20,6,11,0.5,0.5
2024-08-29T2100,2632A,94.3681,29.6376,林芝市,林芝监测站,,27,23,9,9,6,84,,95,95,5,3,9,10,0.3,0.3
2024-08-29T2100,2633A,94.3616,29.6616,林芝市,林芝人民医院,,44,44,12,9,6,74,,94,94,10,6,7,7,0.3,0.2
2024-08-29T2100,2603A,100.0781,23.8982,临沧市,市环保局,,39,,16,27,13,38,,54,51,9,9,5,6,0.2,0.2
2024-08-29T2100,2604A,100.0894,23.8822,临沧市,市气象局,,18,18,15,11,10,32,,52,50,13,9,4,5,0.3,0.3
2024-08-29T2100,1733A,111.5531,36.0783,临汾市,临钢医院,颗粒物(PM10),52,53,62,19,21,99,,167,153,13,27,3,6,0.5,0.8
2024-08-29T2100,1734A,111.5028,36.0714,临汾市,技工学校,颗粒物(PM10),57,63,54,30,20,94,,169,154,18,23,6,6,0.7,0.7
2024-08-29T2100,1736A,111.5018,36.0855,临汾市,市委,颗粒物(PM10),52,53,46,18,15,98,,182,164,17,19,5,6,0.8,0.8
2024-08-29T2100,3018A,111.505,36.1014,临汾市,唐尧大酒店,颗粒物(PM10),60,69,66,18,16,86,,166,150,21,20,4,5,0.9,0.9
2024-08-29T2100,3668A,111.5036,36.0414,临汾市,城南,颗粒物(PM10),57,64,49,15,16,76,,181,157,26,22,5,5,0.8,0.8
2024-08-29T2100,2667A,103.2069,35.5993,临夏回族自治州,环保局,,40,35,32,28,24,54,,103,98,20,9,7,8,0.6,0.5
2024-08-29T2100,2668A,103.2417,35.6057,临夏回族自治州,建设大厦,颗粒物(PM10),65,79,40,35,17,32,,117,107,49,14,7,7,0.7,0.5
2024-08-29T2100,1618A,118.3429,35.0532,临沂市,沂河小区,,37,31,31,19,17,117,,164,153,12,13,17,8,0.8,0.5
2024-08-29T2100,1619A,118.295,35.0583,临沂市,鲁南制药厂,,40,22,24,11,11,128,,175,164,27,15,7,6,0.4,0.4
2024-08-29T2100,1620A,118.2794,34.9976,临沂市,新光毛纺厂,,32,27,22,19,14,101,,166,150,19,17,5,7,0.6,0.6
2024-08-29T2100,1621A,118.3956,35.0888,临沂市,河东保险公司,,46,46,29,26,16,104,,167,156,30,23,8,8,0.9,0.6
2024-08-29T2100,3370A,118.3564,35.0215,临沂市,十里堡居委,,35,29,22,19,16,110,,167,152,13,12,11,9,1.4,0.7
2024-08-29T2100,3496A,118.3604,35.1084,临沂市,南坊新区,,36,36,29,17,11,114,,169,159,23,18,11,9,0.8,0.6
2024-08-29T2100,3860A,118.3920,35.0300,临沂市,皇山花园小区,,38,36,36,26,20,102,,155,143,24,24,14,9,0.7,0.6
2024-08-29T2100,1870A,109.4856,24.3895,柳州市,柳东小学,,26,,30,17,18,83,,111,107,14,13,7,11,0.7,0.7
2024-08-29T2100,1871A,109.4157,24.3277,柳州市,环保监测站,颗粒物(PM10),51,52,34,28,21,82,,122,114,10,11,8,12,0.8,0.8
2024-08-29T2100,1872A,109.389,24.341,柳州市,河西水厂,,,57,40,28,24,,,118,116,7,11,6,11,1.0,1
2024-08-29T2100,1873A,109.4311,24.2921,柳州市,市四中,,46,46,36,24,22,82,,126,115,11,12,5,10,0.7,0.8
2024-08-29T2100,1874A,109.4006,24.3631,柳州市,市九中,,,,45,,21,,,121,120,8,11,6,9,0.7,0.6
2024-08-29T2100,1875A,109.4958,24.3134,柳州市,古亭山,,39,39,31,22,20,56,,114,94,23,11,6,8,1.0,1
2024-08-29T2100,3402A,109.5422,24.3996,柳州市,市二中,,28,25,34,19,19,84,,113,107,14,13,8,9,0.6,0.7
2024-08-29T2100,2307A,116.5079,31.737,六安市,监测大楼,,26,,17,17,14,82,,91,88,5,3,4,5,0.5,0.4
2024-08-29T2100,2308A,116.4738,31.7643,六安市,皖西学院,,34,34,23,11,13,70,,89,83,8,5,4,4,0.3,0.3
2024-08-29T2100,2309A,116.4996,31.7905,六安市,朝阳厂,,25,,13,12,12,79,,90,86,4,3,1,1,0.3,0.3
2024-08-29T2100,2310A,116.5567,31.7886,六安市,开发区,,25,22,15,11,14,79,,86,82,6,4,3,3,0.4,0.4
2024-08-29T2100,2576A,104.8,26.5892,六盘水市,窑上,,,,,,,,,,,,,,,,
2024-08-29T2100,2577A,104.83,26.5917,六盘水市,黄土坡,,32,24,21,8,14,102,,116,116,10,11,6,8,0.4,0.4
2024-08-29T2100,2578A,104.89,26.5939,六盘水市,水钢,,34,34,27,13,14,98,,118,116,8,9,8,8,0.5,0.4
2024-08-29T2100,2579A,104.8475,26.5894,六盘水市,民中,,32,29,25,14,14,100,,114,114,10,12,8,9,0.4,0.4
2024-08-29T2100,2580A,104.9544,26.5506,六盘水市,双水,,31,19,21,3,11,98,,111,110,9,7,6,6,0.3,0.3
2024-08-29T2100,2335A,117.0189,25.1181,龙岩市,龙岩师专,,,,,,,,,,,,,,,,
2024-08-29T2100,2336A,117.0217,25.1033,龙岩市,龙岩市监测站,,24,24,24,14,17,44,,84,72,18,13,8,8,0.6,0.5
2024-08-29T2100,2337A,117.0258,25.0661,龙岩市,闽西职业技术学院,,33,33,26,17,18,28,,81,64,29,13,4,7,0.7,0.6
2024-08-29T2100,2338A,117.0196,25.0306,龙岩市,龙岩学院,,21,21,26,12,14,33,,78,66,15,10,2,2,0.5,0.5
2024-08-29T2100,2665A,105.0822,33.3261,陇南市,汉王镇固水子,,,,,,,,,,,,,,,,
2024-08-29T2100,2885A,104.9339,33.3826,陇南市,滨江中学,,42,42,38,23,17,66,,79,76,10,9,5,6,0.4,0.4
2024-08-29T2100,3247A,104.955,33.371,陇南市,市总工会,,25,25,31,8,7,74,,80,79,5,7,7,7,0.3,0.3
2024-08-29T2100,2487A,111.9589,27.8901,娄底市,电视发射台,,24,24,27,9,14,54,,82,76,5,5,6,6,0.7,0.7
2024-08-29T2100,2488A,111.9975,27.725,娄底市,市监测站,,35,24,26,24,20,77,,93,85,6,6,3,4,0.5,0.4
2024-08-29T2100,2489A,112.0194,27.7314,娄底市,市委党校,,31,31,26,17,16,69,,89,78,6,2,5,5,0.3,0.3
2024-08-29T2100,2490A,111.9561,27.7569,娄底市,涟钢,颗粒物(PM10),54,57,32,35,18,54,,68,65,18,13,10,12,0.7,0.8
2024-08-29T2100,2491A,111.9892,27.7044,娄底市,市政府,,29,22,22,20,18,79,,92,87,8,8,6,6,0.6,0.6
2024-08-29T2100,1893A,105.4324,28.9634,泸州市,九狮山,,36,26,31,25,20,90,,139,134,2,3,5,5,0.4,0.4
2024-08-29T2100,1894A,105.4427,28.9063,泸州市,小市上码头,,44,37,32,19,16,140,,144,144,11,13,7,8,0.4,0.4
2024-08-29T2100,1895A,105.4241,28.8573,泸州市,兰田宪桥,,38,37,31,26,20,116,,146,144,17,14,7,8,0.4,0.4
2024-08-29T2100,1896A,105.4379,28.8833,泸州市,市环监站,,40,35,34,24,24,127,,136,136,12,14,7,10,0.4,0.4
2024-08-29T2100,3490A,105.3617,28.7703,泸州市,纳溪区环保局,,40,34,38,28,28,74,,163,151,45,22,6,7,0.4,0.3
2024-08-29T2100,2183A,111.1406,37.5211,吕梁市,环保局,颗粒物(PM10),56,61,47,26,17,114,,162,153,23,24,6,6,0.8,0.7
2024-08-29T2100,2185A,111.1297,37.5136,吕梁市,自来水公司,颗粒物(PM10),52,54,66,29,18,126,,166,160,19,29,3,5,0.8,0.7
2024-08-29T2100,2867A,111.1283,37.51,吕梁市,马茂庄小学,颗粒物(PM10),56,61,70,28,5,139,,159,150,19,34,6,7,0.8,0.7
2024-08-29T2100,1812A,112.3931,34.6516,洛阳市,市委党校,颗粒物(PM10),51,52,40,29,24,126,,157,152,12,12,6,7,0.8,0.7
2024-08-29T2100,1814A,112.4657,34.6871,洛阳市,豫西宾馆,颗粒物(PM10),54,57,41,32,19,121,,154,151,12,11,4,6,0.6,0.5
2024-08-29T2100,1815A,112.494,34.6886,洛阳市,河南林校,,46,46,33,31,19,122,,154,150,17,14,4,5,0.7,0.6
2024-08-29T2100,1816A,112.3844,34.623,洛阳市,开发区管委会,,47,47,36,31,22,116,,156,149,13,11,3,3,0.5,0.5
2024-08-29T2100,1817A,112.4267,34.6258,洛阳市,市委新办公区,细颗粒物(PM2.5),53,51,35,37,27,107,,152,144,14,8,3,4,0.7,0.6
2024-08-29T2100,3340A,112.6005,34.6326,洛阳市,伊滨,细颗粒物(PM2.5),57,61,51,40,26,108,,146,140,18,12,7,6,0.5,0.4
2024-08-29T2100,3341A,112.4951,34.6332,洛阳市,中移产业园,颗粒物(PM10),54,58,38,33,24,103,,156,146,28,17,4,4,0.8,0.6
2024-08-29T2100,3593A,112.5736,34.8993,洛阳市,吉利监测站,细颗粒物(PM2.5),58,61,44,41,24,119,,156,153,17,11,5,4,0.8,0.5
2024-08-29T2100,3635A,112.3677,34.662,洛阳市,河科大西苑校区,,46,46,38,23,18,133,,162,157,10,12,5,6,0.7,0.7
2024-08-29T2100,3636A,112.4388,34.6781,洛阳市,英才小学,颗粒物(PM10),51,51,37,33,22,126,,155,151,8,9,4,4,0.6,0.6
2024-08-29T2100,2399A,114.051,33.5699,漯河市,三五一五工厂,,44,44,35,26,19,90,,139,126,20,11,12,9,0.7,0.6
2024-08-29T2100,2400A,114.0055,33.5698,漯河市,漯河大学,,35,32,38,22,20,111,,144,135,10,11,4,9,0.6,0.6
2024-08-29T2100,2401A,114.0138,33.5828,漯河市,市水利局,,35,31,38,24,18,96,,138,129,17,11,10,10,0.9,0.8
2024-08-29T2100,2402A,114.0261,33.5698,漯河市,市广电局,,33,29,33,13,14,104,,142,132,12,10,7,9,0.5,0.6
2024-08-29T2100,3478A,113.9749,33.5664,漯河市,市图书馆,,40,40,40,21,22,104,,148,138,13,8,5,7,0.6,0.6
2024-08-29T2100,3479A,114.0967,33.5906,漯河市,召陵区卫健委,颗粒物(PM10),52,53,45,27,25,68,,142,122,38,13,8,6,0.5,0.5
2024-08-29T2100,1798A,118.5092,31.6837,马鞍山市,湖东路四小,,35,35,27,16,13,96,,106,106,18,12,5,5,0.7,0.7
2024-08-29T2100,1799A,118.5024,31.6449,马鞍山市,开发区,,43,43,30,16,14,62,,107,102,36,11,5,5,0.8,0.8
2024-08-29T2100,1800A,118.5228,31.7231,马鞍山市,慈湖,,,30,32,15,18,,,109,109,13,10,7,6,0.7,0.7
2024-08-29T2100,1802A,118.6245,31.7241,马鞍山市,濮塘,,25,21,18,16,15,79,,94,92,14,13,6,5,0.6,0.7
2024-08-29T2100,3633A,118.4918,31.6809,马鞍山市,雨山,,38,38,24,13,14,100,,105,105,11,8,6,6,0.8,0.7
2024-08-29T2100,1686A,111.0286,21.4688,茂名市,电白南海,,32,27,26,22,19,56,,92,73,15,9,10,11,0.8,0.7
2024-08-29T2100,1687A,110.9294,21.6533,茂名市,茂石化七小,,28,19,25,19,23,60,,78,71,13,10,8,13,0.7,0.6
2024-08-29T2100,1688A,110.9107,21.6687,茂名市,健康路,,,,21,,12,,,82,74,13,10,12,21,0.7,0.7
2024-08-29T2100,1689A,110.8592,21.6828,茂名市,高岭,,27,27,33,12,17,40,,60,,22,16,17,22,0.8,0.8
2024-08-29T2100,3450A,111.01,21.5165,茂名市,电白水东,,27,27,21,17,16,44,,82,68,23,10,14,12,0.8,0.5
2024-08-29T2100,2539A,104.0308,30.0478,眉山市,黑龙滩水库,,43,43,43,30,30,112,,164,159,7,8,5,6,0.5,0.5
2024-08-29T2100,2540A,103.8416,30.0874,眉山市,气象局,,40,40,49,24,32,113,,176,170,19,23,9,9,0.6,0.6
2024-08-29T2100,3137A,103.8578,30.0744,眉山市,市委党校,,41,41,52,17,29,121,,181,176,16,20,10,11,0.4,0.4
2024-08-29T2100,3148A,103.8291,30.0564,眉山市,区人社局,,40,36,36,19,28,125,,180,176,15,21,8,10,0.6,0.7
2024-08-29T2100,1690A,116.1231,24.3284,梅州市,梅江月梅,,28,27,24,19,9,24,,87,67,27,8,6,6,0.5,0.5
2024-08-29T2100,1691A,116.0797,24.2719,梅州市,梅县新城,,28,28,22,11,13,41,,88,66,12,11,4,4,0.6,0.6
2024-08-29T2100,1692A,116.1248,24.2654,梅州市,环境监控中心,,,31,25,13,14,,,81,62,27,15,4,11,0.5,0.4
2024-08-29T2100,3315A,116.1233,24.2991,梅州市,梅龙,,24,24,15,11,12,31,,97,72,20,9,8,8,0.7,0.6
2024-08-29T2100,1878A,104.7778,31.4741,绵阳市,富乐山,,29,20,24,20,21,74,,88,88,8,7,3,3,0.5,0.6
2024-08-29T2100,1879A,104.7563,31.4535,绵阳市,市人大,,27,27,28,13,20,65,,81,81,16,13,6,8,0.5,0.5
2024-08-29T2100,1880A,104.6697,31.4668,绵阳市,高新区自来水公司,,22,22,28,12,15,67,,90,89,13,11,1,1,0.8,0.8
2024-08-29T2100,1881A,104.7287,31.5075,绵阳市,三水厂,,25,19,27,17,21,69,,88,88,10,10,5,4,0.6,0.6
2024-08-29T2100,3491A,104.69,31.5322,绵阳市,西科大附属小学,,23,23,28,14,19,70,,87,87,14,12,3,4,0.6,0.6
2024-08-29T2100,3492A,104.5648,31.5343,绵阳市,安州区旅游局,,25,19,25,17,21,70,,90,88,12,11,7,7,0.6,0.6
2024-08-29T2100,1784A,129.61,44.561,牡丹江市,环保大楼,,18,18,16,9,9,30,,92,77,13,11,7,7,0.4,0.4
2024-08-29T2100,1785A,129.6115,44.5782,牡丹江市,文化广场,颗粒物(PM10),56,61,30,32,18,13,,89,68,36,17,8,7,0.9,0.5
2024-08-29T2100,1786A,129.5904,44.5963,牡丹江市,第一医院,,36,36,21,25,14,31,,91,72,19,13,6,6,0.6,0.5
2024-08-29T2100,1787A,129.6364,44.6075,牡丹江市,机车工厂,,42,42,28,19,15,25,,90,73,15,11,6,5,0.4,0.4
2024-08-29T2100,1788A,129.6386,44.5462,牡丹江市,第一中学,,31,31,31,16,11,22,,93,72,10,12,5,6,0.4,0.4
2024-08-29T2100,2531A,105.0703,29.61,内江市,市监测站,细颗粒物(PM2.5),59,,27,42,30,134,,153,152,11,15,7,6,0.4,0.3
2024-08-29T2100,2532A,105.0717,29.5947,内江市,东兴区政府,细颗粒物(PM2.5),58,42,30,41,26,130,,149,148,16,15,10,10,0.6,0.5
2024-08-29T2100,2533A,105.0653,29.5817,内江市,内江二中,细颗粒物(PM2.5),59,46,31,42,31,125,,143,142,13,14,7,8,0.6,0.6
2024-08-29T2100,2534A,105.0406,29.5822,内江市,内江日报社,细颗粒物(PM2.5),54,,34,38,30,133,,153,152,16,20,7,8,0.6,0.5
2024-08-29T2100,2628A,92.0657,31.4846,那曲市,那曲监测站,颗粒物(PM10),51,51,24,15,10,76,,104,96,7,6,8,7,0.7,0.6
2024-08-29T2100,3128A,92.0506,31.4797,那曲市,那曲会议中心,,32,28,17,13,8,102,,119,115,9,7,5,4,0.5,0.4
2024-08-29T2100,1290A,115.8931,28.6843,南昌市,省外办,,26,26,25,14,15,74,,96,89,15,12,8,8,0.5,0.5
2024-08-29T2100,1291A,115.8886,28.7003,南昌市,省林业公司,,27,27,18,14,12,77,,102,93,10,10,5,5,0.6,0.7
2024-08-29T2100,1292A,115.8126,28.7442,南昌市,林科所,,22,7,12,7,8,68,,106,91,13,11,6,6,0.7,0.8
2024-08-29T2100,1294A,115.8518,28.687,南昌市,建工学校,,23,20,16,8,9,72,,104,94,9,4,8,8,0.5,0.6
2024-08-29T2100,1295A,115.8921,28.6424,南昌市,象湖,,25,17,17,14,11,78,,109,101,13,9,4,4,0.9,0.9
2024-08-29T2100,1296A,115.7423,28.7996,南昌市,武术学校,,33,,19,23,16,27,,83,61,5,7,1,2,0.7,0.7
2024-08-29T2100,1298A,115.9314,28.6842,南昌市,省站,,28,22,28,19,15,64,,93,84,14,10,7,8,0.8,0.7
2024-08-29T2100,3046A,115.9084,28.6062,南昌市,机电学校,,46,46,28,14,11,48,,99,89,27,13,7,7,0.9,1
2024-08-29T2100,3690A,115.9721,28.7031,南昌市,外国语学校,,29,25,20,15,10,90,,99,96,7,13,4,5,0.6,0.6
2024-08-29T2100,1905A,106.056,30.8064,南充市,西山风景区,细颗粒物(PM2.5),54,,28,38,27,101,,116,115,8,7,2,2,0.8,0.7
2024-08-29T2100,1906A,106.0789,30.8023,南充市,南充市委,颗粒物(PM10),54,57,43,37,28,100,,123,120,13,10,8,7,0.5,0.5
2024-08-29T2100,1907A,106.1031,30.8217,南充市,南充炼油厂,细颗粒物(PM2.5),54,52,45,38,30,103,,125,123,12,9,7,7,0.6,0.5
2024-08-29T2100,1908A,106.1064,30.7856,南充市,高坪区监测站,,49,49,43,33,29,104,,124,122,14,13,6,6,0.5,0.5
2024-08-29T2100,1909A,106.0642,30.7636,南充市,嘉陵区环保局,,48,48,42,27,26,97,,120,118,16,14,5,5,0.5,0.5
2024-08-29T2100,1910A,106.1087,30.8388,南充市,市环境监测站,颗粒物(PM10),53,55,46,34,28,106,,124,123,12,12,7,6,0.5,0.4
2024-08-29T2100,1151A,118.8086,32.1065,南京市,迈皋桥,,23,23,19,12,11,63,,102,93,21,18,4,4,0.1,0.2
2024-08-29T2100,1152A,118.7538,32.0551,南京市,草场门,,22,22,20,7,9,66,,108,101,20,15,4,4,0.3,0.3
2024-08-29T2100,1153A,118.7794,32.0745,南京市,山西路,,,53,25,12,13,,,115,111,16,22,3,4,,0.3
2024-08-29T2100,1154A,118.7752,32.0023,南京市,中华门,,19,19,17,12,10,57,,93,89,14,14,4,4,0.3,0.3
2024-08-29T2100,1155A,118.8109,32.0309,南京市,瑞金路,,22,17,19,7,10,68,,110,104,11,6,4,4,0.3,0.4
2024-08-29T2100,1156A,118.7997,32.0754,南京市,玄武湖,,25,25,25,8,7,61,,109,102,20,14,5,4,0.6,0.5
2024-08-29T2100,1157A,118.6414,32.0931,南京市,浦口,,24,20,25,13,11,76,,104,99,8,8,7,8,0.4,0.5
2024-08-29T2100,1158A,118.7356,31.9996,南京市,奥体中心,,25,24,21,17,15,72,,109,105,15,12,4,4,0.3,0.2
2024-08-29T2100,1159A,118.9125,32.1028,南京市,仙林大学城,,25,22,19,17,17,64,,115,106,19,12,7,7,0.5,0.5
2024-08-29T2100,3422A,118.8436,31.9198,南京市,江宁彩虹桥,,32,32,25,17,11,69,,105,102,13,7,5,4,0.5,0.4
2024-08-29T2100,3423A,119.0138,31.6494,南京市,溧水永阳,,25,22,19,14,14,78,,106,104,15,10,4,4,0.5,0.4
2024-08-29T2100,3424A,118.879,31.3302,南京市,高淳老职中,,34,28,23,20,18,108,,120,120,12,10,5,5,0.2,0.2
2024-08-29T2100,3427A,118.8554,32.3578,南京市,六合雄州,,23,23,21,14,11,60,,80,76,11,9,4,3,0.4,0.4
2024-08-29T2100,1401A,108.3103,22.7881,南宁市,二十一中,,20,18,40,14,25,39,,90,66,32,18,5,4,0.7,0.7
2024-08-29T2100,1402A,108.3141,22.8528,南宁市,北湖,,25,22,42,17,27,54,,83,70,21,19,4,8,0.8,0.8
2024-08-29T2100,1403A,108.3206,22.8225,南宁市,市监测站,,31,31,43,19,26,34,,86,64,38,22,5,7,0.8,0.7
2024-08-29T2100,1404A,108.3829,22.8037,南宁市,大自然花园,,23,,34,16,26,26,,88,68,24,18,5,6,0.7,0.7
2024-08-29T2100,1405A,108.4394,22.7904,南宁市,仙葫,,25,24,39,10,28,17,,87,64,50,18,6,8,0.7,0.6
2024-08-29T2100,1406A,108.2397,22.8467,南宁市,区农职院,,18,12,45,12,26,35,,81,63,21,20,8,12,0.6,0.7
2024-08-29T2100,1407A,108.3275,22.735,南宁市,英华嘉园,,23,23,37,13,23,24,,87,62,35,19,6,6,0.6,0.6
2024-08-29T2100,1408A,108.2257,22.7757,南宁市,沙井镇街道办,,26,23,51,18,24,28,,75,59,29,30,6,4,0.6,0.7
2024-08-29T2100,3401A,108.4834,22.7618,南宁市,红星社区,,19,15,39,13,23,42,,89,73,22,22,5,5,0.7,0.8
2024-08-29T2100,2331A,118.0966,26.6761,南平市,茫荡山,,,,,,,,,,,,,,,,
2024-08-29T2100,2332A,118.1681,26.6369,南平市,南平市监测站,,21,21,26,12,14,46,,86,71,11,9,4,5,0.6,0.6
2024-08-29T2100,2333A,118.1825,26.6489,南平市,南平铝业有限公司,,,25,25,14,11,,,87,76,11,10,5,7,0.7,0.6
2024-08-29T2100,2334A,118.1756,26.6272,南平市,南平七中,,22,22,29,13,14,40,,78,66,7,8,4,4,0.5,0.5
2024-08-29T2100,1168A,120.9098,31.9663,南通市,狼山街道,,22,15,12,9,5,70,,87,79,5,4,6,6,0.5,0.5
2024-08-29T2100,1169A,120.86,32.0005,南通市,虹桥,,,15,15,6,4,69,,81,76,,4,5,5,,0.3
2024-08-29T2100,1170A,120.87,32.02,南通市,城中,,22,19,18,6,4,68,,81,77,12,9,5,5,0.7,0.7
2024-08-29T2100,1171A,120.94,31.93,南通市,星湖花园,,22,14,9,3,1,69,,85,78,10,8,4,4,0.8,0.7
2024-08-29T2100,1172A,120.81,32.0417,南通市,紫琅学院,,,18,11,3,3,,,79,76,15,11,,7,0.6,0.8
2024-08-29T2100,3291A,121.067,32.062,南通市,通州监测站,,26,22,16,7,4,81,,84,81,4,5,3,3,0.6,0.6
2024-08-29T2100,3432A,120.9348,31.9883,南通市,环境教育馆,,24,24,21,6,4,65,,89,79,9,6,4,4,0.5,0.4
2024-08-29T2100,2404A,112.5224,33.0122,南阳市,瓦房庄,,42,42,36,21,19,113,,138,127,10,11,5,6,0.6,0.6
2024-08-29T2100,2405A,112.5003,32.9735,南阳市,汉画馆,,45,45,39,30,24,103,,133,124,12,12,5,6,0.6,0.6
2024-08-29T2100,2406A,112.5573,33.027,南阳市,气象站,,43,43,36,27,17,104,,137,128,15,11,5,6,0.6,0.7
2024-08-29T2100,2407A,112.5481,32.9689,南阳市,理工学院,,,36,33,20,14,,,139,132,17,11,4,4,,0.5
2024-08-29T2100,4008A,112.5234,32.9922,南阳市,卧龙区政府,,47,47,36,28,21,102,,136,124,19,11,4,6,0.8,0.7
2024-08-29T2100,1234A,121.8358,29.911,宁波市,区环保大楼,,33,33,22,19,11,49,,105,97,43,22,9,8,0.6,0.6
2024-08-29T2100,1235A,121.56,29.82,宁波市,万里学院,,28,20,23,9,19,87,,110,108,20,18,10,10,0.7,0.8
2024-08-29T2100,1236A,121.713,29.9572,宁波市,龙赛医院,,20,17,19,9,11,61,,107,98,32,18,8,7,0.6,0.6
2024-08-29T2100,1239A,121.633,29.7733,宁波市,钱湖水厂,,23,12,23,6,15,71,,115,110,13,16,7,8,0.5,0.6
2024-08-29T2100,1240A,121.5856,29.8635,宁波市,太古小学,,22,13,27,10,17,68,,103,99,29,19,6,7,0.8,0.9
2024-08-29T2100,1241A,121.524,29.8674,宁波市,市环境监测中心,,23,21,26,8,13,72,,107,104,25,15,4,4,0.6,0.6
2024-08-29T2100,2871A,121.6147,29.9017,宁波市,万里国际学校,,19,18,23,10,16,60,,108,100,31,23,7,6,0.5,0.6
2024-08-29T2100,3710A,121.5594,29.8975,宁波市,白沙活动中心,,24,24,28,11,16,61,,106,101,31,17,8,8,0.4,0.5
2024-08-29T2100,2339A,119.5001,26.6946,宁德市,金涵水库,,,,,,,,,,,,,,,,
2024-08-29T2100,2341A,119.5388,26.6612,宁德市,宁德市监测站,,31,22,24,17,17,97,,132,124,12,10,6,5,0.8,0.7
2024-08-29T2100,3209A,119.5231,26.6562,宁德市,宁德一中,,28,28,32,12,16,67,,129,115,8,7,5,5,1.0,0.8
2024-08-29T2100,2618A,98.8601,25.8567,怒江傈僳族自治州,州监测站,,32,32,25,19,18,68,,98,96,14,12,6,6,0.5,0.4
2024-08-29T2100,2619A,98.8546,25.8417,怒江傈僳族自治州,泸水一中,,36,36,23,14,14,44,,86,82,24,16,5,6,0.6,0.4
2024-08-29T2100,1888A,101.6891,26.571,攀枝花市,弄弄坪,细颗粒物(PM2.5),69,80,58,50,30,97,,173,168,30,22,26,13,0.8,1
2024-08-29T2100,1889A,101.5769,26.5928,攀枝花市,河门口,,38,38,35,26,25,94,,124,124,21,18,9,8,0.6,0.8
2024-08-29T2100,1890A,101.7169,26.585,攀枝花市,炳草岗,细颗粒物(PM2.5),72,78,70,52,38,134,,192,191,22,29,44,22,0.8,0.9
2024-08-29T2100,1891A,101.7369,26.5008,攀枝花市,仁和,颗粒物(PM10),52,53,38,34,24,60,,143,129,16,13,6,10,0.7,0.8
2024-08-29T2100,2835A,101.7227,26.567,攀枝花市,四十中小,细颗粒物(PM2.5),65,73,55,47,36,90,,181,174,43,27,23,29,1.3,1.1
2024-08-29T2100,1604A,122.0303,41.1489,盘锦市,开发区,细颗粒物(PM2.5),54,,26,38,15,121,,130,124,14,25,4,6,0.9,0.6
2024-08-29T2100,1605A,122.0485,41.0883,盘锦市,兴隆台,,37,29,25,18,14,116,,137,119,28,35,5,6,0.9,0.7
2024-08-29T2100,1606A,121.8297,41.1028,盘锦市,新生街道,,29,25,17,19,8,91,,128,121,14,20,6,8,1.1,0.7
2024-08-29T2100,1832A,113.3257,33.742,平顶山市,新华旅馆,,43,43,42,20,35,84,,148,131,26,11,4,6,0.6,0.6
2024-08-29T2100,1833A,113.2919,33.737,平顶山市,规划设计院,,,,28,39,18,,,150,140,24,16,7,8,0.6,0.6
2024-08-29T2100,1834A,113.182,33.774,平顶山市,平顶山工学院,,32,28,33,14,15,101,,159,141,20,15,7,8,0.8,0.8
2024-08-29T2100,3204A,113.3025,33.73,平顶山市,规划局,颗粒物(PM10),52,53,37,18,19,99,,145,132,18,14,3,4,0.4,0.5
2024-08-29T2100,3594A,112.8867,33.9116,平顶山市,石龙区,颗粒物(PM10),106,162,61,32,20,42,,132,120,47,24,7,7,0.6,0.5
2024-08-29T2100,2656A,106.6692,35.5461,平凉市,聚贤嘉苑,,48,48,52,28,24,86,,121,103,28,21,10,9,0.5,0.5
2024-08-29T2100,2657A,106.7021,35.5307,平凉市,博物馆,颗粒物(PM10),51,51,57,15,24,107,,113,108,21,24,10,11,0.6,0.6
2024-08-29T2100,2347A,114.0997,27.5002,萍乡市,武功山,,12,9,9,3,3,38,,79,69,4,5,9,9,0.4,0.4
2024-08-29T2100,2348A,113.8385,27.6434,萍乡市,中医院,,29,27,27,20,20,53,,81,76,14,10,13,8,1.1,0.8
2024-08-29T2100,2349A,113.8493,27.6253,萍乡市,市政府车库,,23,23,27,15,20,52,,74,70,12,7,19,11,0.8,0.7
2024-08-29T2100,2350A,113.8676,27.6435,萍乡市,市环保局,,25,25,25,14,19,51,,73,68,7,7,12,8,0.7,0.7
2024-08-29T2100,2351A,113.866,27.6198,萍乡市,安源区政府,,48,48,35,11,13,44,,70,65,15,9,15,14,0.5,0.5
2024-08-29T2100,2319A,119.0141,25.4325,莆田市,荔城区仓后路,,,55,46,42,21,,,120,113,15,13,7,7,0.7,0.8
2024-08-29T2100,2320A,119.0015,25.4553,莆田市,莆田市监测站,,43,30,29,30,11,86,,122,110,10,6,6,6,0.7,0.6
2024-08-29T2100,2321A,119.1119,25.4561,莆田市,涵江区六中,,44,31,32,30,17,138,,141,134,7,11,6,6,0.6,0.6
2024-08-29T2100,2322A,119.1013,25.3215,莆田市,秀屿区政府,细颗粒物(PM2.5),65,,34,47,20,122,,123,121,8,12,6,7,0.7,0.7
2024-08-29T2100,2323A,118.981,25.4792,莆田市,东圳水库,,,,,,,,,,,,,,,,
2024-08-29T2100,2392A,115.0312,35.7636,濮阳市,环保局,,43,30,39,25,25,136,,161,151,13,15,6,8,0.6,0.5
2024-08-29T2100,2394A,115.0574,35.7609,濮阳市,油田运输公司,,50,50,40,28,25,118,,172,153,24,15,2,5,0.6,0.6
2024-08-29T2100,2395A,115.0866,35.7754,濮阳市,油田物探公司,颗粒物(PM10),52,53,44,33,30,121,,173,158,19,17,5,8,0.6,0.6
2024-08-29T2100,3021A,115,35.7668,濮阳市,濮水河管理处,,46,46,37,32,28,76,,157,134,22,14,3,4,0.5,0.5
2024-08-29T2100,2601A,100.98,22.7633,普洱市,市环保局,,30,30,23,16,12,20,,47,39,13,6,3,3,0.7,0.5
2024-08-29T2100,2602A,100.9817,22.8322,普洱市,普洱第二中学,,,,17,,10,9,,52,40,14,7,6,7,0.7,0.5
2024-08-29T2100,2262A,131.0518,45.8751,七台河市,新一中,,38,31,22,26,12,50,,111,91,11,12,12,10,1.1,1
2024-08-29T2100,3345A,131.0577,45.7879,七台河市,中波台,,,,16,,7,,,35,,,20,,11,,0.4
2024-08-29T2100,3637A,131.0176,45.7761,七台河市,人民广场,,44,44,30,13,13,40,,78,69,16,15,9,9,0.5,0.4
2024-08-29T2100,3684A,130.8781,45.8222,七台河市,新建矿广场,颗粒物(PM10),58,66,57,20,16,30,,74,52,27,22,10,9,0.5,0.5
2024-08-29T2100,1779A,123.9305,47.3636,齐齐哈尔市,安居小区,,19,,23,7,12,58,,73,68,16,13,11,11,0.4,0.4
2024-08-29T2100,1780A,123.9488,47.3386,齐齐哈尔市,中心广场,,20,13,26,8,11,62,,72,68,12,15,2,2,0.3,0.3
2024-08-29T2100,1781A,123.9483,47.3227,齐齐哈尔市,农牧车辆厂,,20,19,28,3,9,64,,77,72,10,13,8,8,0.2,0.2
2024-08-29T2100,1783A,123.945,47.2988,齐齐哈尔市,市环境监测站,,21,14,26,6,13,65,,74,70,8,14,7,7,0.3,0.4
2024-08-29T2100,3662A,123.6333,47.2075,齐齐哈尔市,富区青少年活动中心,,20,7,25,3,8,63,,72,69,11,12,2,3,0.5,0.6
2024-08-29T2100,2591A,107.9783,26.5747,黔东南苗族侗族自治州,市环境监测站,,25,23,22,17,18,66,,78,78,11,11,3,3,0.6,0.6
2024-08-29T2100,2881A,107.8908,26.5311,黔东南苗族侗族自治州,凯里学院,,24,24,19,16,15,67,,81,79,11,7,2,2,0.5,0.7
2024-08-29T2100,2593A,107.5228,26.2403,黔南布依族苗族自治州,小围寨,,41,41,21,24,15,41,,63,58,11,6,5,4,0.7,0.6
2024-08-29T2100,3538A,107.5175,26.2978,黔南布依族苗族自治州,沙坝,,,46,30,31,20,36,,71,65,,1,4,4,0.8,0.6
2024-08-29T2100,2589A,104.9022,25.0925,黔西南布依族苗族自治州,场坝街,,34,34,23,20,11,59,,76,69,8,10,4,14,0.4,0.4
2024-08-29T2100,2590A,104.8811,25.0992,黔西南布依族苗族自治州,坪东大道,,,21,21,8,11,,,76,70,26,12,6,9,0.5,0.3
2024-08-29T2100,2502A,108.6236,21.9667,钦州市,市环保站,,22,22,28,9,14,45,,69,62,16,14,7,8,0.6,0.8
2024-08-29T2100,2503A,108.6549,21.9481,钦州市,沙埠小学,,33,33,37,12,18,29,,75,66,23,17,4,6,0.5,0.6
2024-08-29T2100,2504A,108.5989,21.7431,钦州市,港区一小,,23,,38,16,17,34,,68,54,33,20,6,9,0.7,0.8
2024-08-29T2100,3404A,108.5959,21.9633,钦州市,北职校,,33,33,34,14,22,45,,68,61,18,13,8,5,1.2,0.9
2024-08-29T2100,1042A,119.5134,39.8207,秦皇岛市,北戴河环保局,臭氧1小时,63,52,47,19,10,170,,200,197,10,16,3,4,0.7,0.9
2024-08-29T2100,1043A,119.7493,40.0116,秦皇岛市,第一关,细颗粒物(PM2.5),65,65,41,47,25,70,,199,182,69,31,2,3,0.7,0.6
2024-08-29T2100,1044A,119.5897,39.9499,秦皇岛市,监测站,臭氧1小时,55,52,37,31,21,164,,196,192,15,30,3,3,0.8,0.7
2024-08-29T2100,1046A,119.5251,39.9041,秦皇岛市,建设大厦,颗粒物(PM10),53,56,49,22,12,161,,203,198,12,26,5,7,0.7,0.6
2024-08-29T2100,3132A,119.610547,39.943889,秦皇岛市,文明里,臭氧1小时,55,49,43,26,15,164,,197,191,18,27,3,6,0.9,0.8
2024-08-29T2100,1307A,120.6659,36.2403,青岛市,仰口,,35,29,24,16,17,112,,126,115,5,5,6,6,0.1,0.1
2024-08-29T2100,1310A,120.4134,36.0658,青岛市,市南区东部子站,,38,31,33,3,7,120,,141,136,9,16,6,7,0.4,0.4
2024-08-29T2100,1311A,120.3664,36.1032,青岛市,四方区子站,,40,22,34,14,18,126,,162,151,13,20,10,10,0.7,0.8
2024-08-29T2100,1312A,120.2994,36.054,青岛市,市南区西部子站,,40,31,34,10,10,128,,157,150,8,14,8,8,0.7,0.7
2024-08-29T2100,1313A,120.4581,36.0858,青岛市,崂山区子站,,39,34,38,7,10,122,,138,136,14,17,8,8,0.5,0.5
2024-08-29T2100,1314A,120.1983,35.9608,青岛市,黄岛区子站,,39,22,28,15,18,123,,155,146,18,28,8,9,0.5,0.6
2024-08-29T2100,1315A,120.3999,36.3083,青岛市,城阳区子站,,39,39,27,12,12,83,,145,132,43,16,8,8,0.7,0.6
2024-08-29T2100,1966A,120.0405,35.8735,青岛市,黄岛区4号,,37,36,34,12,14,116,,154,141,20,22,9,9,0.6,0.7
2024-08-29T2100,3362A,120.5014,36.4034,青岛市,即墨2号,,44,44,31,18,16,102,,133,133,19,14,7,6,0.5,0.6
2024-08-29T2100,3642A,120.3503,36.0736,青岛市,市北区南部,,36,20,36,7,14,113,,152,140,15,27,7,10,0.6,0.6
2024-08-29T2100,3643A,120.3948,36.1805,青岛市,李沧区北部,,40,29,33,22,17,127,,160,144,24,25,9,9,0.7,0.6
2024-08-29T2100,1702A,113.0426,23.691,清远市,环保大楼,,30,24,22,10,13,96,,110,108,8,10,7,6,0.9,0.9
2024-08-29T2100,1703A,113.0208,23.7106,清远市,凤城街办,,27,19,26,14,16,85,,100,97,7,15,6,6,0.7,0.6
2024-08-29T2100,3025A,113.0477,23.6344,清远市,技师学院,,28,25,29,13,16,89,,118,115,9,12,5,4,0.4,1
2024-08-29T2100,3318A,112.9903,23.7403,清远市,清新太和,,28,28,21,8,14,86,,82,79,2,4,4,4,0.7,0.7
2024-08-29T2100,3455A,113.076,23.7198,清远市,清城东城,,,25,24,17,15,,,111,111,8,7,6,6,0.5,0.6
2024-08-29T2100,2661A,107.6325,35.7357,庆阳市,庆阳五中,,37,35,36,16,16,117,,115,115,10,8,6,7,0.6,0.6
2024-08-29T2100,2662A,107.6364,35.7067,庆阳市,市环保局,,,31,31,,20,,,117,117,12,8,4,7,0.5,0.6
2024-08-29T2100,1916A,103.7897,25.5035,曲靖市,环境监测站,,49,49,34,18,15,81,,110,109,15,17,5,8,0.8,0.7
2024-08-29T2100,1917A,103.8,25.5364,曲靖市,烟厂办公区,,,,,,,,,,,,,,,,
2024-08-29T2100,3376A,103.7947,25.462,曲靖市,南苑二区,,41,41,24,16,13,83,,116,115,13,10,10,11,0.5,0.5
2024-08-29T2100,3377A,103.7444,25.5261,曲靖市,曲靖师范学院,,45,45,30,22,19,98,,121,119,12,17,11,25,0.6,0.6
2024-08-29T2100,1264A,118.8692,28.9398,衢州市,环保大楼,,36,36,35,22,22,52,,136,94,21,22,3,3,0.9,0.8
2024-08-29T2100,1265A,118.8709,28.9666,衢州市,实验学校,,46,46,33,26,22,38,,140,99,28,19,6,6,0.8,0.8
2024-08-29T2100,1266A,118.8621,28.9808,衢州市,衢州学院,,39,39,34,23,20,46,,142,111,24,23,4,5,0.7,0.6
2024-08-29T2100,1611A,118.5819,24.9117,泉州市,涂山街,,,,30,36,23,,,132,125,16,15,2,2,,0.8
2024-08-29T2100,1612A,118.5972,24.8978,泉州市,津头埔,细颗粒物(PM2.5),63,,28,45,23,115,,128,121,11,14,2,3,0.8,0.8
2024-08-29T2100,1613A,118.6663,24.9424,泉州市,万安,,39,32,30,27,22,120,,133,127,4,12,1,2,0.6,0.6
2024-08-29T2100,1614A,118.6117,24.9604,泉州市,清源山,,,,,,,,,,,,,,,,
2024-08-29T2100,3529A,118.6333,24.9264,泉州市,城华南路,,38,30,29,26,41,115,,124,120,6,8,2,2,0.5,0.6
2024-08-29T2100,2626A,88.8876,29.2718,日喀则市,日喀则监测站,,37,8,9,3,5,118,,126,126,11,6,4,5,0.4,0.4
2024-08-29T2100,3726A,88.8781,29.2426,日喀则市,林业技术推广中心,,34,7,6,6,4,108,,122,122,7,6,8,8,0.4,0.4
2024-08-29T2100,1659A,119.471,35.4209,日照市,监测站,,36,19,25,11,15,113,,150,143,18,20,10,11,0.6,0.6
2024-08-29T2100,1660A,119.523,35.4216,日照市,市政府广场,,35,22,25,9,13,110,,152,140,30,15,15,12,0.6,0.6
2024-08-29T2100,1661A,119.5587,35.4044,日照市,港务局,,44,44,28,21,20,100,,163,146,37,12,14,12,0.6,0.7
2024-08-29T2100,3507A,119.5328,35.4625,日照市,职业技术学院,,31,31,25,12,13,74,,157,137,48,19,12,10,0.7,0.7
2024-08-29T2100,3604A,119.3266,35.1044,日照市,岚山环保分局,,34,31,36,10,13,107,,144,140,23,22,9,20,0.5,1.3
2024-08-29T2100,1835A,111.1922,34.7752,三门峡市,市政府,颗粒物(PM10),54,57,37,27,16,143,,140,140,20,14,11,14,0.7,0.6
2024-08-29T2100,1836A,111.1587,34.7942,三门峡市,开发区,颗粒物(PM10),61,72,44,40,24,148,,144,144,20,16,11,14,0.7,0.6
2024-08-29T2100,1838A,111.143,34.7955,三门峡市,风景区,,,,,,,,,,,,,,,,
2024-08-29T2100,3039A,111.1911,34.7829,三门峡市,三门峡市第一小学,细颗粒物(PM2.5),78,,37,57,22,145,,140,140,20,14,8,10,0.7,0.6
2024-08-29T2100,3598A,111.1,34.7167,三门峡市,富达温泉假日酒店,"颗粒物(PM10),细颗粒物(PM2.5)",52,54,41,36,22,147,,136,136,12,12,9,11,0.9,0.9
2024-08-29T2100,2324A,117.6211,26.2625,三明市,三钢,,29,23,29,20,21,39,,82,73,15,12,7,6,0.9,0.9
2024-08-29T2100,2325A,117.635,26.2714,三明市,三明二中,,25,18,28,17,17,52,,91,83,10,12,2,3,0.5,0.7
2024-08-29T2100,2326A,117.6028,26.2378,三明市,三元区政府,,,33,34,18,20,36,,77,68,,11,4,3,,0.8
2024-08-29T2100,2327A,117.7275,26.3108,三明市,洋溪,,,,,,,,,,,,,,,,
2024-08-29T2100,1876A,109.5078,18.2489,三亚市,河东子站,,22,22,23,10,10,48,,81,70,15,11,4,3,0.3,0.4
2024-08-29T2100,1877A,109.4964,18.2681,三亚市,河西子站,,16,13,18,11,9,40,,77,66,12,9,3,3,0.2,0.2
2024-08-29T2100,3540A,109.7348,18.3443,三亚市,君悦子站,,34,34,24,16,11,29,,75,62,16,12,1,2,0.2,0.2
2024-08-29T2100,2624A,91.7608,29.2313,山南市,山南监测站,,39,7,11,3,5,124,,134,133,4,6,8,8,0.3,0.3
2024-08-29T2100,2625A,91.7706,29.2436,山南市,山南人民医院,,,7,26,3,10,,,120,120,10,10,6,7,0.3,0.4
2024-08-29T2100,1674A,116.6794,23.3667,汕头市,金平子站,,28,22,31,19,25,67,,119,106,7,14,4,4,0.4,0.6
2024-08-29T2100,1675A,116.7244,23.3633,汕头市,龙湖子站,,38,,36,26,22,65,,135,120,16,14,6,6,0.6,0.7
2024-08-29T2100,1676A,116.7258,23.2775,汕头市,濠江子站,细颗粒物(PM2.5),53,,33,37,35,80,,144,123,13,14,5,5,0.6,0.7
2024-08-29T2100,1677A,116.7519,23.4714,汕头市,澄海子站,,30,,35,21,26,87,,153,133,9,13,4,6,0.9,0.9
2024-08-29T2100,1678A,116.6092,23.2539,汕头市,潮阳子站,细颗粒物(PM2.5),59,,38,42,23,87,,142,124,9,7,7,8,0.8,0.5
2024-08-29T2100,3444A,116.454,23.2684,汕头市,潮南峡山,,33,33,50,23,29,100,,143,128,6,10,5,6,1.0,1
2024-08-29T2100,3624A,116.4069,23.2533,汕头市,潮南子站,,49,45,56,34,35,93,,145,129,13,14,4,5,0.9,0.9
2024-08-29T2100,1693A,115.3653,22.775,汕尾市,市环保局,,40,,28,28,21,100,,138,131,13,10,6,6,0.8,0.7
2024-08-29T2100,1694A,115.3706,22.7898,汕尾市,市政府,,,28,28,27,21,,,128,125,13,11,,7,,0.5
2024-08-29T2100,1695A,115.3622,22.7925,汕尾市,新城中学,,28,,31,19,20,83,,129,120,11,9,6,6,0.8,0.7
2024-08-29T2100,2645A,109.9154,33.8715,商洛市,监测站,,41,41,28,15,13,89,,110,100,14,15,6,5,0.8,0.6
2024-08-29T2100,3045A,109.9643,33.8471,商洛市,商州区中学,,36,36,29,17,13,82,,102,93,12,17,8,7,0.9,0.7
2024-08-29T2100,2408A,115.6702,34.4285,商丘市,环境监测站,,49,49,39,18,21,80,,139,123,26,14,4,6,0.6,0.6
2024-08-29T2100,2409A,115.6458,34.4045,商丘市,粮食局,,42,42,39,25,23,106,,153,139,22,11,7,8,0.5,0.5
2024-08-29T2100,2410A,115.6293,34.3948,商丘市,睢阳区环保局,颗粒物(PM10),59,68,41,21,24,79,,142,124,31,11,8,10,0.5,0.4
2024-08-29T2100,3171A,115.6071,34.4465,商丘市,梁园区档案局,,,,40,26,26,,,154,147,24,15,7,8,0.5,0.6
2024-08-29T2100,1141A,121.4,31.238,上海市,普陀,,24,24,15,10,7,67,,84,79,20,13,5,5,0.4,0.3
2024-08-29T2100,1142A,121.478,31.2036,上海市,十五厂,,30,23,18,21,12,73,,87,80,18,14,8,9,0.5,0.5
