timepoint,stationcode,longitude,latitude,area,positionname,primarypollutant,aqi,pm10,pm10_24h,pm2_5,pm2_5_24h,o3,o3_24h,o3_8h,o3_8h_24h,no2,no2_24h,so2,so2_24h,co,co_24h
2024-08-29T0000,2566A,102.1879,31.914,阿坝藏族羌族自治州,州农科所,,28,28,24,11,10,44,,87,51,9,12,7,10,0,0.1
2024-08-29T0000,2568A,102.2502,31.8896,阿坝藏族羌族自治州,马师校,,19,,17,13,9,35,,96,66,19,11,4,4,0.4,0.4
2024-08-29T0000,3994A,102.2165,31.9024,阿坝藏族羌族自治州,马尔康中学西区,,28,19,17,19,15,46,,93,66,8,9,5,5,0.4,0.4
2024-08-29T0000,2695A,80.292,41.1694,阿克苏地区,电视台,颗粒物(PM10),52,53,38,34,20,64,,122,107,30,19,3,6,0.6,0.3
2024-08-29T0000,2696A,80.2613,41.1551,阿克苏地区,艺术中心,颗粒物(PM10),56,61,28,16,14,19,,122,97,61,18,4,4,1.2,0.5
2024-08-29T0000,2204A,105.6467,38.8363,阿拉善盟,西城区西花园,颗粒物(PM10),65,80,36,19,13,94,,167,139,23,15,8,8,1.2,1.2
2024-08-29T0000,2205A,105.6985,38.8411,阿拉善盟,蒙二幼,,29,29,21,16,10,86,,147,127,9,8,8,9,0.7,0.6
2024-08-29T0000,2206A,105.724,38.8516,阿拉善盟,环保局新楼,,34,26,18,14,9,107,,143,127,6,7,10,10,0.5,0.5
2024-08-29T0000,2708A,88.1264,47.8517,阿勒泰地区,市站,,47,47,25,3,9,35,,94,67,22,17,7,7,0.7,0.6
2024-08-29T0000,2630A,80.1161,32.5,阿里地区,阿里监测站,,31,6,2,3,2,99,,108,103,3,4,6,6,0.3,0.3
2024-08-29T0000,3192A,80.0903,32.5028,阿里地区,阿里藏医院,,29,13,6,3,0,92,,104,100,5,4,7,7,0.4,0.3
2024-08-29T0000,2642A,109.0318,32.6537,安康市,香溪洞,,36,15,27,10,9,113,,111,106,5,10,6,6,0.3,0.4
2024-08-29T0000,2643A,109.0281,32.6939,安康市,安康市监测站,,33,23,24,12,12,103,,113,102,7,6,46,13,1.0,0.6
2024-08-29T0000,2644A,109.0072,32.6975,安康市,汉滨区检察院,,38,16,20,10,11,119,,117,112,5,6,7,11,0.5,0.6
2024-08-29T0000,2291A,117.0809,30.5177,安庆市,环科院,,25,15,11,10,6,77,,94,86,11,12,7,7,0.7,0.6
2024-08-29T0000,2292A,117.0331,30.5119,安庆市,马山宾馆,,25,13,12,11,7,80,,93,91,13,14,8,8,0.6,0.5
2024-08-29T0000,2294A,116.9896,30.6145,安庆市,安庆大学,,17,9,10,8,6,52,,81,74,10,11,7,8,0.6,0.6
2024-08-29T0000,3173A,117.0598,30.5351,安庆市,市人大,,26,12,8,10,6,82,,92,86,8,8,7,8,0.8,0.8
2024-08-29T0000,3122A,105.9606,26.2611,安顺市,伍家关,,,,,,,,,,,,,,,,
2024-08-29T0000,3123A,105.9408,26.2431,安顺市,凤凰山,,25,21,18,17,11,48,,74,63,7,5,8,8,0.5,0.4
2024-08-29T0000,3124A,105.9439,26.2564,安顺市,金钟山,,23,20,16,16,11,54,,75,66,4,4,6,6,0.4,0.3
2024-08-29T0000,3125A,105.8983,26.2481,安顺市,娄家坡,,18,10,13,3,8,57,,74,66,2,3,8,8,0.6,0.5
2024-08-29T0000,1818A,114.4839,36.0621,安阳市,棉研所,,,,,,,,,,,,,,,,
2024-08-29T0000,1819A,114.3551,36.1017,安阳市,红庙街,,32,31,34,15,12,102,,140,127,8,6,4,11,0.5,0.8
2024-08-29T0000,1820A,114.361,36.0681,安阳市,银杏小区,,,31,33,,12,116,,139,125,4,6,3,6,0.3,0.5
2024-08-29T0000,3141A,114.3922,36.0878,安阳市,信访局,,35,32,31,20,12,111,,143,126,2,4,3,6,0.5,0.6
2024-08-29T0000,3669A,114.4705,36.0637,安阳市,左辅环卫站,,41,41,39,25,16,81,,136,107,14,10,4,8,0.6,0.6
2024-08-29T0000,3703A,114.2917,36.0949,安阳市,安钢职工学校,颗粒物(PM10),59,68,38,24,15,29,,136,116,51,13,5,13,0.5,0.8
2024-08-29T0000,1748A,123.044,41.1196,鞍山市,深沟寺,,43,43,38,19,15,52,,124,79,23,22,4,7,1.1,1.1
2024-08-29T0000,1749A,123.011,41.0931,鞍山市,太阳城,颗粒物(PM10),51,51,34,22,15,61,,131,97,23,22,5,8,1.0,1.1
2024-08-29T0000,1750A,123.0485,41.1442,鞍山市,太平,颗粒物(PM10),51,52,49,24,19,70,,136,89,22,31,5,10,1.1,1.1
2024-08-29T0000,1751A,122.9642,41.0971,鞍山市,铁西三道街,颗粒物(PM10),73,96,70,40,26,26,,129,83,64,44,9,13,1.1,1.3
2024-08-29T0000,1752A,122.9341,41.0833,鞍山市,铁西工业园区,颗粒物(PM10),56,62,63,21,26,35,,130,61,35,36,7,17,1.0,1.2
2024-08-29T0000,1753A,123.022,41.0821,鞍山市,明达新区,颗粒物(PM10),54,57,35,20,13,48,,126,95,27,21,4,7,1.0,1
2024-08-29T0000,1754A,123.1289,41.0228,鞍山市,千山,,,,,,,,,,,,,,,,
2024-08-29T0000,2195A,107.4212,40.761,巴彦淖尔市,附二中,,50,50,54,28,22,79,,119,89,16,16,39,15,0.6,0.6
2024-08-29T0000,2196A,107.37,40.7372,巴彦淖尔市,市环保大楼,颗粒物(PM10),51,52,49,18,13,94,,121,95,7,11,4,4,0.7,0.7
2024-08-29T0000,1956A,86.1472,41.7538,巴音郭楞蒙古自治州,孔雀公园,颗粒物(PM10),65,79,66,18,15,94,,100,92,16,18,5,6,0.2,0.2
2024-08-29T0000,1957A,86.1972,41.7166,巴音郭楞蒙古自治州,棉纺厂,颗粒物(PM10),70,89,66,30,23,83,,99,97,23,15,15,7,0.3,0.2
2024-08-29T0000,1958A,86.2357,41.7173,巴音郭楞蒙古自治州,经济开发区,颗粒物(PM10),54,58,55,16,20,98,,109,109,8,6,6,6,0.2,0.2
2024-08-29T0000,2914A,106.7677,31.8794,巴中市,苏山坪,,26,20,18,14,14,81,,104,95,7,6,5,3,0.5,0.5
2024-08-29T0000,3182A,106.7656,31.8545,巴中市,丽阳花园,,28,27,26,19,18,56,,106,80,13,11,4,4,0.6,0.5
2024-08-29T0000,3183A,106.7418,31.8654,巴中市,圣泉水务公司,,33,29,23,23,18,52,,106,83,14,10,4,4,0.6,0.6
2024-08-29T0000,3616A,106.7616,31.8344,巴中市,市中心医院,,27,27,21,18,15,65,,108,82,8,8,3,3,0.6,0.5
2024-08-29T0000,2235A,122.7911,45.6077,白城市,洮北区环保局,,22,21,21,7,9,70,,92,71,9,11,6,6,0.5,0.5
2024-08-29T0000,2236A,122.8738,45.5725,白城市,市环保局,,35,35,25,8,7,42,,79,48,23,14,3,4,0.3,0.4
2024-08-29T0000,2231A,126.4219,41.9171,白山市,喜丰,颗粒物(PM10),54,58,38,15,11,12,,100,39,23,16,15,10,0.9,0.8
2024-08-29T0000,2232A,126.4077,41.9419,白山市,环保局,,38,38,27,10,10,26,,90,41,11,15,10,13,0.6,0.6
2024-08-29T0000,2647A,104.1724,36.5446,白银市,第三小学,,33,33,36,18,17,61,,99,82,12,14,7,27,0.7,0.7
2024-08-29T0000,2648A,104.1465,36.5482,白银市,动力公司,,28,,29,19,13,66,,104,85,8,15,6,14,0.4,0.5
2024-08-29T0000,2512A,106.6103,23.9011,百色市,市监测站,,37,37,36,20,18,21,,116,84,29,14,6,9,0.6,0.6
2024-08-29T0000,2513A,106.6538,23.8859,百色市,市中心血站,颗粒物(PM10),57,63,48,26,22,36,,138,92,20,18,10,11,0.7,0.7
2024-08-29T0000,3406A,106.6085,23.8798,百色市,祈福高中,颗粒物(PM10),63,75,47,16,18,16,,109,66,31,16,5,4,0.8,0.7
2024-08-29T0000,2270A,117.396,32.939,蚌埠市,工人疗养院,,35,35,24,13,8,66,,80,74,5,4,8,7,0.3,0.3
2024-08-29T0000,2271A,117.3605,32.9427,蚌埠市,百货大楼,,33,33,23,17,12,70,,80,73,2,3,5,5,0.4,0.4
2024-08-29T0000,2273A,117.4185,32.8911,蚌埠市,蚌埠学院,,24,24,15,11,9,73,,85,65,10,11,7,7,0.4,0.5
2024-08-29T0000,2274A,117.3533,32.9673,蚌埠市,淮上区政府,,29,29,18,19,11,72,,82,77,3,3,7,7,0.7,0.8
2024-08-29T0000,2275A,117.3145,32.8977,蚌埠市,高新区,,27,27,17,15,10,78,,83,80,5,5,5,5,0.6,0.7
2024-08-29T0000,3715A,117.3092,32.9314,蚌埠市,蚌埠田家炳中学,,28,28,25,17,11,73,,76,73,2,3,4,4,0.3,0.4
2024-08-29T0000,1585A,109.8756,40.6532,包头市,市环境监测站,,48,42,38,33,20,116,,151,124,27,38,37,22,1.0,0.9
2024-08-29T0000,1587A,109.9991,40.5842,包头市,包头八中,颗粒物(PM10),53,55,49,29,24,124,,145,133,22,34,52,27,0.9,1
2024-08-29T0000,1588A,109.8538,40.6821,包头市,青山宾馆,,40,40,30,23,17,70,,157,127,52,33,13,16,0.7,0.8
2024-08-29T0000,1589A,109.8642,40.6288,包头市,惠龙物流,,41,38,36,19,16,129,,154,138,18,28,38,22,0.7,0.8
2024-08-29T0000,1590A,110.0377,40.5546,包头市,东河鸿龙湾,颗粒物(PM10),53,55,34,24,16,93,,145,114,24,23,32,21,0.9,0.9
2024-08-29T0000,3283A,109.9154,40.5685,包头市,滨河大厦,,42,42,29,21,16,105,,151,126,29,31,14,16,0.5,0.6
2024-08-29T0000,3419A,109.9447,40.6261,包头市,包头市委党校,,42,42,39,27,20,128,,150,135,22,34,32,25,0.9,1
2024-08-29T0000,3683A,109.8331,40.6576,包头市,昆区政府,,42,37,33,25,19,134,,154,140,17,30,22,18,0.9,1
2024-08-29T0000,1930A,107.185,34.3063,宝鸡市,庙沟村,颗粒物(PM10),54,57,47,30,19,97,,105,100,26,18,7,7,0.6,0.5
2024-08-29T0000,1931A,107.0708,34.3017,宝鸡市,竹园沟,,41,41,37,26,22,52,,113,64,14,16,8,9,0.7,0.6
2024-08-29T0000,1932A,107.1906,34.3672,宝鸡市,三陆医院,颗粒物(PM10),55,60,50,34,28,49,,130,100,31,26,10,11,0.8,0.7
2024-08-29T0000,1933A,107.1431,34.3547,宝鸡市,监测站,颗粒物(PM10),56,62,59,33,29,44,,109,74,30,28,7,8,0.6,0.6
2024-08-29T0000,1934A,107.1186,34.3739,宝鸡市,技工学校,颗粒物(PM10),53,55,54,34,22,52,,113,104,17,17,8,9,0.7,0.7
2024-08-29T0000,1935A,107.3906,34.3528,宝鸡市,陈仓区环保局家属楼,,50,50,44,34,21,55,,147,109,35,25,8,9,0.6,0.5
2024-08-29T0000,1936A,107.2058,34.3497,宝鸡市,文理学院,颗粒物(PM10),51,51,42,31,28,64,,131,103,22,20,9,10,0.7,0.7
2024-08-29T0000,1937A,107.2386,34.3622,宝鸡市,三迪小学,细颗粒物(PM2.5),59,61,47,42,34,54,,135,102,23,19,8,9,0.7,0.7
2024-08-29T0000,1051A,115.493,38.8632,保定市,游泳馆,,48,48,37,22,14,16,,147,95,65,31,3,3,0.3,0.2
2024-08-29T0000,1052A,115.5213,38.8959,保定市,华电二区,颗粒物(PM10),52,53,35,23,13,30,,148,92,44,26,4,3,0.4,0.1
2024-08-29T0000,1053A,115.4713,38.9108,保定市,接待中心,,29,24,26,20,14,44,,130,99,34,14,1,2,0.4,0.4
2024-08-29T0000,1054A,115.4612,38.8416,保定市,地表水厂,颗粒物(PM10),62,74,43,26,12,3,,144,84,68,21,1,3,0.3,0.2
2024-08-29T0000,3581A,115.31981,38.95208,保定市,满城区生态环境分局,,41,41,30,14,8,40,,148,98,38,21,4,5,0.3,0.1
2024-08-29T0000,3582A,115.47694,38.76408,保定市,清苑区第二中学,颗粒物(PM10),52,54,32,15,12,27,,140,92,56,20,4,3,0.6,0.3
2024-08-29T0000,3583A,115.62909,39.02311,保定市,徐水物探局,颗粒物(PM10),52,54,27,12,6,6,,147,93,68,20,4,3,0.5,0.4
2024-08-29T0000,4004A,115.4202,38.8656,保定市,双鹰农机,颗粒物(PM10),61,72,34,10,11,24,,152,99,60,21,3,4,0.1,0
2024-08-29T0000,4034A,115.5150,38.8590,保定市,植保所站,颗粒物(PM10),53,55,41,11,15,3,,158,87,95,35,5,4,0.2,0.2
2024-08-29T0000,2594A,99.1678,25.1081,保山市,市环境监测站,,32,32,28,12,12,50,,96,78,7,9,5,5,0.4,0.4
2024-08-29T0000,2595A,99.1711,25.1328,保山市,市环保局,,29,29,29,10,9,73,,96,87,5,6,3,3,0.4,0.4
2024-08-29T0000,1866A,109.2262,21.588,北海市,牛尾岭水库,,,,,,,,,,,,,,,,
2024-08-29T0000,1867A,109.1436,21.4086,北海市,海滩公园,,26,26,26,3,5,58,,84,79,6,5,3,4,0.5,0.6
2024-08-29T0000,1868A,109.0981,21.4661,北海市,新市环保局,,22,16,18,12,10,69,,98,93,7,5,3,4,0.4,0.4
2024-08-29T0000,1869A,109.1778,21.5233,北海市,北海工业园,,23,14,14,7,10,73,,102,98,7,6,5,5,0.6,0.5
2024-08-29T0000,3400A,109.1911,21.4415,北海市,龙潭自来水厂,,20,17,15,10,11,62,,94,89,10,5,6,5,0.5,0.4
2024-08-29T0000,1001A,116.3621,39.8784,北京市,万寿西宫,,49,49,30,22,15,49,,145,113,48,28,3,3,0.6,0.5
2024-08-29T0000,1002A,116.2202,40.2915,北京市,定陵,,26,26,23,10,11,33,,112,53,10,9,3,3,0.1,0.2
2024-08-29T0000,1003A,116.4174,39.9289,北京市,东四,,45,45,30,23,16,79,,163,130,27,20,4,3,0.5,0.4
2024-08-29T0000,1004A,116.4072,39.8863,北京市,天坛,,29,29,26,19,15,37,,142,87,19,19,3,3,0.5,0.4
2024-08-29T0000,1005A,116.462,39.9365,北京市,农展馆,,40,40,30,21,16,76,,141,111,20,21,3,3,0.5,0.5
2024-08-29T0000,1006A,116.3392,39.9295,北京市,官园,,48,48,32,24,15,47,,153,116,38,25,3,3,0.6,0.4
2024-08-29T0000,1007A,116.2878,39.9611,北京市,海淀万柳,,43,43,32,21,14,40,,129,92,41,31,2,3,0.6,0.4
2024-08-29T0000,1008A,116.6636,40.135,北京市,顺义新城,,42,42,31,25,17,32,,130,76,25,16,3,3,0.4,0.4
2024-08-29T0000,1009A,116.6275,40.3275,北京市,怀柔镇,,22,20,21,15,12,60,,113,78,7,10,6,6,0.5,0.5
2024-08-29T0000,1010A,116.2296,40.217,北京市,昌平镇,,,30,26,16,12,71,,111,83,,3,3,3,0.4,0.4
2024-08-29T0000,1011A,116.3966,39.9821,北京市,奥体中心,,43,43,32,24,15,33,,138,110,58,33,1,1,0.6,0.4
2024-08-29T0000,1012A,116.184,39.9136,北京市,古城,,30,30,29,14,12,84,,124,90,13,24,2,2,0.4,0.4
2024-08-29T0000,3281A,115.9718,40.4529,北京市,延庆夏都,,31,31,24,17,12,36,,117,91,13,9,3,3,0.4,0.4
2024-08-29T0000,3417A,117.0709,40.1465,北京市,平谷新城,,26,26,27,16,15,37,,101,52,2,2,3,3,0.4,0.4
2024-08-29T0000,3418A,116.8336,40.4095,北京市,密云新城,,30,30,22,16,11,23,,112,62,25,7,1,2,0.4,0.4
2024-08-29T0000,3671A,116.088,39.9726,北京市,门头沟三家店,,32,32,27,15,13,58,,121,70,9,10,2,2,0.4,0.4
2024-08-29T0000,3672A,116.1541,39.8204,北京市,丰台云岗,,38,38,24,17,12,39,,132,88,39,16,3,3,0.4,0.4
2024-08-29T0000,3673A,116.6804,39.9081,北京市,通州东关,,48,48,35,24,18,34,,167,120,61,31,3,2,0.6,0.4
2024-08-29T0000,3674A,115.9577,39.7603,北京市,房山燕山,,26,21,22,18,13,59,,118,90,5,8,3,3,0.3,0.3
2024-08-29T0000,3675A,116.4672,39.7733,北京市,大兴旧宫,,37,37,27,21,17,16,,127,72,26,17,3,2,0.6,0.5
2024-08-29T0000,3694A,115.986,40.4563,北京市,延庆石河营,,26,26,22,16,12,18,,100,75,21,10,3,3,0.4,0.3
2024-08-29T0000,3695A,116.6151,40.3053,北京市,怀柔新城,,22,18,20,11,11,70,,97,76,2,7,3,3,0.4,0.4
2024-08-29T0000,3696A,116.2545,39.8768,北京市,丰台小屯,,46,46,31,21,15,1,,122,71,58,34,3,4,0.6,0.4
2024-08-29T0000,3697A,116.84,40.3844,北京市,密云镇,,32,32,26,16,14,30,,115,61,20,16,2,1,0.5,0.5
2024-08-29T0000,1761A,123.8275,41.3064,本溪市,大峪,,37,37,26,15,12,36,,131,73,22,19,7,8,0.9,0.9
2024-08-29T0000,1762A,123.7567,41.3325,本溪市,溪湖,颗粒物(PM10),60,70,47,16,14,23,,126,61,34,25,5,8,0.9,1.3
2024-08-29T0000,1763A,123.7169,41.3094,本溪市,彩屯,,35,35,37,18,17,28,,111,57,30,26,7,13,0.9,1.4
2024-08-29T0000,1764A,123.7669,41.2864,本溪市,东明,,41,41,36,14,12,42,,119,73,39,32,6,9,0.9,1
2024-08-29T0000,1765A,123.7992,41.2664,本溪市,新立屯,,23,23,24,8,7,53,,115,55,36,28,4,5,0.6,0.8
2024-08-29T0000,1766A,123.8142,41.3472,本溪市,威宁,,35,34,39,24,15,16,,128,51,28,21,8,10,1.3,1.2
2024-08-29T0000,2587A,105.2864,27.3125,毕节市,八中,,43,34,31,30,23,39,,112,82,20,14,6,8,0.6,0.5
2024-08-29T0000,2588A,105.31,27.2944,毕节市,师专,,38,30,33,26,24,59,,115,90,25,17,14,8,0.5,0.5
2024-08-29T0000,3537A,105.3631,27.3533,毕节市,长征村,细颗粒物(PM2.5),52,42,31,36,26,79,,124,107,10,10,7,8,0.6,0.5
2024-08-29T0000,1629A,118.0018,37.3617,滨州市,第二水厂,,31,31,24,14,11,82,,140,100,17,10,3,5,0.6,0.6
2024-08-29T0000,1630A,117.9776,37.393,滨州市,北中新校,,31,31,26,17,11,47,,143,94,45,21,4,6,0.6,0.4
2024-08-29T0000,3514A,117.9378,37.3956,滨州市,中海酒店,,46,46,23,14,13,23,,136,88,57,18,4,4,0.6,0.5
2024-08-29T0000,3515A,117.9378,37.3553,滨州市,开发区一中,,31,31,26,9,12,88,,140,103,16,14,11,8,0.5,0.5
2024-08-29T0000,3516A,118.0917,37.694,滨州市,金海六路,,32,32,19,14,6,51,,120,91,27,12,2,3,0.6,0.5
2024-08-29T0000,4028A,117.9956,37.3753,滨州市,滨州市西街道办事处,,39,39,24,19,14,72,,145,104,23,9,4,6,0.6,0.5
2024-08-29T0000,2311A,115.8072,33.8399,亳州市,污水处理厂,,38,36,26,26,14,86,,105,97,14,11,6,4,0.6,0.5
2024-08-29T0000,2312A,115.7789,33.8518,亳州市,三国揽胜宫,,36,36,25,24,14,113,,116,115,8,7,6,4,0.6,0.6
2024-08-29T0000,3332A,115.7633,33.8034,亳州市,亳州学院,,39,22,27,18,13,122,,123,122,9,9,5,3,0.5,0.4
2024-08-29T0000,2693A,82.0485,44.8556,博尔塔拉蒙古自治州,市党校,,24,24,34,9,11,58,,110,86,8,10,5,7,0.2,0.4
2024-08-29T0000,2694A,82.0806,44.8969,博尔塔拉蒙古自治州,市环保局,,37,37,38,13,13,52,,104,82,15,13,5,5,0.4,0.5
2024-08-29T0000,1071A,116.8842,38.2991,沧州市,沧县城建局,,37,37,47,11,24,72,,149,118,25,24,6,6,0.5,0.6
2024-08-29T0000,1072A,116.8584,38.3254,沧州市,电视转播站,,35,35,42,19,29,68,,166,127,38,29,3,6,0.6,0.7
2024-08-29T0000,1073A,116.8709,38.3228,沧州市,市环保局,,35,35,46,22,28,74,,160,128,26,27,6,11,0.4,0.6
2024-08-29T0000,3324A,116.8136,38.3004,沧州市,河北水利电力学院,,34,34,42,19,30,101,,171,138,16,23,8,9,0.6,0.6
2024-08-29T0000,2622A,97.1806,31.1273,昌都市,昌都监测站,,17,14,14,11,8,53,,110,99,34,11,6,6,0.5,0.4
2024-08-29T0000,3719A,97.1714,31.1406,昌都市,昌都会议中心,,26,17,15,9,8,82,,120,108,9,6,7,7,0.5,0.5
2024-08-29T0000,2690A,88.1236,43.8886,昌吉回族自治州,天山天池,,19,15,13,13,6,33,,115,74,5,5,8,5,0.5,0.5
2024-08-29T0000,2692A,87.2717,44.0297,昌吉回族自治州,新区政务中心,颗粒物(PM10),52,54,30,32,12,49,,126,98,56,22,10,11,0.6,0.7
2024-08-29T0000,3613A,87.3095,44.0142,昌吉回族自治州,亚心广场,颗粒物(PM10),56,61,35,19,13,54,,129,87,54,32,4,7,0.5,0.5
2024-08-29T0000,1119A,125.3325,43.9166,长春市,食品厂,颗粒物(PM10),53,56,38,20,14,8,,106,58,65,36,4,4,0.6,0.5
2024-08-29T0000,1120A,125.2863,43.9027,长春市,客车厂,,47,47,30,21,12,14,,111,66,66,34,7,6,0.8,0.6
2024-08-29T0000,1121A,125.2841,43.8463,长春市,邮电学院,,48,48,25,13,9,4,,104,50,52,25,6,6,0.7,0.5
2024-08-29T0000,1122A,125.3716,43.8772,长春市,劳动公园,颗粒物(PM10),53,55,29,15,9,8,,110,59,59,28,7,7,0.8,0.6
2024-08-29T0000,1123A,125.3297,43.8805,长春市,园林处,颗粒物(PM10),52,54,24,12,9,17,,106,65,53,27,4,3,0.6,0.6
2024-08-29T0000,1124A,125.4605,43.79,长春市,净月潭,,18,18,12,8,6,39,,97,58,5,5,5,6,0.4,0.4
2024-08-29T0000,1125A,125.7194,43.515,长春市,甩湾子,,,,,,,,,,,,,,,,
2024-08-29T0000,1126A,125.3863,43.8447,长春市,经开区环卫处,,50,50,27,12,8,6,,96,42,54,29,6,6,0.6,0.5
2024-08-29T0000,1127A,125.245,43.7783,长春市,高新区管委会,,34,34,20,11,7,24,,103,42,28,22,4,3,0.5,0.5
2024-08-29T0000,1128A,125.1761,43.8325,长春市,岱山公园,颗粒物(PM10),65,80,37,21,13,5,,109,58,72,36,3,3,0.4,0.4
2024-08-29T0000,1335A,113.0833,28.2325,长沙市,经开区环保局,,29,29,28,12,11,90,,114,96,9,10,3,2,0.5,0.5
2024-08-29T0000,1336A,112.8872,28.2189,长沙市,高开区环保局,,33,33,31,11,9,87,,121,102,8,7,3,4,0.7,0.7
2024-08-29T0000,1337A,113.0792,28.2053,长沙市,马坡岭,,27,27,35,13,8,86,,112,94,7,7,3,3,0.5,0.5
2024-08-29T0000,1338A,112.9394,28.19,长沙市,湖南师范大学,,34,34,34,19,15,87,,120,101,9,6,7,8,0.6,0.6
2024-08-29T0000,1339A,113.0178,28.1322,长沙市,雨花区环保局,,33,33,30,15,13,87,,114,99,7,7,5,5,0.4,0.4
2024-08-29T0000,1340A,112.9792,28.2597,长沙市,伍家岭,,48,34,30,33,10,75,,105,88,12,7,3,3,0.5,0.6
2024-08-29T0000,1341A,113.0014,28.1944,长沙市,火车新站,,35,35,30,19,15,74,,115,92,12,7,3,4,0.4,0.4
2024-08-29T0000,1342A,112.9844,28.1178,长沙市,天心区环保局,,32,31,32,22,17,79,,108,92,9,9,2,3,0.2,0.2
2024-08-29T0000,1343A,112.8908,28.1308,长沙市,湖南中医药大学,,29,28,31,16,13,92,,128,109,6,5,4,6,0.6,0.5
2024-08-29T0000,1344A,112.9581,28.3611,长沙市,沙坪,,27,,14,18,14,85,,113,97,7,7,8,13,0.5,1.1
2024-08-29T0000,1727A,113.1147,36.1547,长治市,清华站,,33,26,17,9,6,105,,127,121,10,8,7,8,0.6,0.6
2024-08-29T0000,1728A,113.1031,36.1989,长治市,监测站,,31,23,16,9,6,97,,132,121,18,12,9,10,1.0,0.9
2024-08-29T0000,1730A,113.0886,36.2125,长治市,审计局,,27,25,14,9,6,85,,126,114,16,6,7,8,0.6,0.5
2024-08-29T0000,1731A,113.0844,36.1856,长治市,长治八中,,36,36,18,14,8,100,,127,118,13,9,7,7,0.7,0.5
2024-08-29T0000,2845A,113.1569,36.1911,长治市,德盛苑,,33,22,14,12,6,105,,129,124,10,6,8,9,0.9,0.6
2024-08-29T0000,3568A,113.06,36.0464,长治市,向阳小学,,,,40,,16,,,134,116,,17,,8,,0.4
2024-08-29T0000,3569A,112.8792,36.3144,长治市,屯留一中,,50,50,40,26,15,105,,158,137,14,19,9,18,0.9,1
2024-08-29T0000,3570A,113.235,36.3489,长治市,潞城四中,,40,38,23,28,12,79,,141,129,27,8,7,6,0.8,0.7
2024-08-29T0000,1854A,111.6975,28.9703,常德市,市二中,,37,37,28,24,15,108,,137,117,7,7,8,8,0.6,0.5
2024-08-29T0000,1857A,111.7158,29.1456,常德市,白鹤山,,,,,,,,,,,,,,,,
2024-08-29T0000,3138A,111.7153,29.0289,常德市,武陵区永安,,39,39,29,19,14,110,,132,117,8,8,10,9,0.6,0.6
2024-08-29T0000,3139A,111.6892,28.9881,常德市,鼎城区玉霞,,35,35,30,18,14,112,,135,116,7,7,8,8,0.7,0.7
2024-08-29T0000,3140A,111.6625,29.0531,常德市,武陵区长庚,,40,40,29,18,14,120,,135,128,8,8,9,8,0.6,0.6
2024-08-29T0000,1196A,119.9633,31.762,常州市,市监测站,,21,21,24,10,18,51,,111,62,20,18,6,7,0.6,0.6
2024-08-29T0000,1200A,119.9468,31.7069,常州市,武进监测站,,22,22,28,11,17,57,,113,64,13,13,6,7,0.8,0.9
2024-08-29T0000,1201A,119.9255,31.9087,常州市,安家,,28,23,24,19,17,45,,95,53,19,20,5,6,0.6,0.7
2024-08-29T0000,3002A,119.9805,31.8174,常州市,行政中心,,26,22,26,18,20,53,,96,56,18,19,8,10,0.5,0.5
2024-08-29T0000,3003A,120.0522,31.7748,常州市,经开区,,18,18,27,11,15,52,,103,44,16,20,8,8,0.6,0.7
2024-08-29T0000,3010A,119.9025,31.7964,常州市,钟楼,,26,26,29,16,20,44,,91,50,17,21,6,8,0.6,0.7
2024-08-29T0000,3429A,119.8598,31.7066,常州市,武进经发区,,23,22,33,11,14,17,,111,46,45,27,10,10,0.5,0.5
2024-08-29T0000,3430A,119.5826,31.7245,常州市,金坛城区,,20,18,18,14,15,45,,120,72,17,14,7,8,0.6,0.7
2024-08-29T0000,2220A,120.4318,41.5881,朝阳市,西梁,,32,32,33,17,16,26,,96,58,24,17,8,12,0.6,0.6
2024-08-29T0000,2221A,120.4521,41.5646,朝阳市,河畔小区,颗粒物(PM10),64,78,30,20,11,5,,93,54,41,11,13,8,0.7,0.6
2024-08-29T0000,2222A,120.4176,41.5648,朝阳市,八里堡,,28,28,32,15,15,37,,95,67,18,15,7,8,0.6,0.8
2024-08-29T0000,2223A,120.3806,41.5969,朝阳市,农业园区,,28,24,28,19,14,15,,96,45,18,12,5,6,0.6,0.6
2024-08-29T0000,1705A,116.6367,23.6719,潮州市,西园路,,48,,45,33,35,35,,58,,7,10,2,3,0.5,0.5
2024-08-29T0000,3026A,116.6183,23.6608,潮州市,市政府,,23,23,47,6,34,48,,91,61,7,14,4,16,0.9,0.9
2024-08-29T0000,4036A,116.6461,23.6761,潮州市,金山,,18,18,36,12,26,35,,79,59,8,10,5,5,0.7,0.7
2024-08-29T0000,2472A,113.0073,25.9061,郴州市,马头岭,,33,33,35,10,14,73,,105,84,11,9,12,12,0.7,0.5
2024-08-29T0000,2473A,113.0116,25.8226,郴州市,市职中,,35,31,30,24,23,91,,118,98,9,9,16,12,0.6,0.5
2024-08-29T0000,2474A,113.0161,25.8001,郴州市,兴隆步行街,,,32,32,,16,91,,117,105,12,10,13,10,0.6,0.6
2024-08-29T0000,2475A,113.0383,25.8071,郴州市,市审计局,,33,30,30,23,22,84,,114,103,16,8,14,7,0.6,0.6
2024-08-29T0000,2476A,113.0348,25.7759,郴州市,市环保局,,32,32,34,21,21,94,,114,104,12,10,12,7,0.6,0.6
2024-08-29T0000,1431A,103.9728,30.7236,成都市,金泉两河,细颗粒物(PM2.5),64,58,52,46,36,70,,176,140,11,16,4,3,0.6,0.6
2024-08-29T0000,1432A,104.176,30.6872,成都市,十里店,细颗粒物(PM2.5),52,50,55,36,37,77,,171,139,3,7,3,3,0.7,0.6
2024-08-29T0000,1433A,104.079,30.5706,成都市,三瓦窑,细颗粒物(PM2.5),60,46,58,43,39,88,,217,157,16,36,2,4,0.4,0.5
2024-08-29T0000,1434A,104.1114,30.63,成都市,沙河铺,细颗粒物(PM2.5),59,52,54,42,33,86,,196,151,18,19,7,9,0.5,0.6
2024-08-29T0000,1437A,104.0786,30.6531,成都市,君平街,,40,40,50,24,34,88,,196,152,14,18,7,7,0.6,0.7
2024-08-29T0000,1438A,103.613,31.0283,成都市,灵岩寺,,,,,,,,,,,,,,,,
2024-08-29T0000,2880A,104.0239,30.65639,成都市,大石西路,,49,49,51,27,30,83,,182,140,12,18,6,6,0.5,0.5
2024-08-29T0000,3136A,104.2725,30.5589,成都市,龙泉驿区区政府,,41,41,48,22,31,87,,185,146,16,16,6,7,0.4,0.6
2024-08-29T0000,3357A,104.0106,30.6931,成都市,金博路,细颗粒物(PM2.5),115,99,48,87,28,54,,170,128,6,12,2,2,0.8,0.7
2024-08-29T0000,3359A,104.0578,30.5225,成都市,华阳,,46,46,58,19,38,87,,168,150,12,25,2,4,1.0,0.9
2024-08-29T0000,3487A,104.2394,30.5319,成都市,车城东七路,颗粒物(PM10),51,52,61,30,41,89,,193,145,18,20,4,5,0.6,0.6
2024-08-29T0000,3488A,104.3853,30.7453,成都市,青白江技师分院,,46,38,45,32,36,82,,171,136,20,26,1,2,0.8,0.8
2024-08-29T0000,3489A,104.0789,30.4072,成都市,科学城,,40,40,57,24,40,102,,209,157,11,19,4,5,0.6,0.7
2024-08-29T0000,4011A,103.8506,30.6947,成都市,光华大道三段,,50,50,43,31,26,99,,185,161,10,8,5,4,0.6,0.6
2024-08-29T0000,1062A,117.9531,40.9081,承德市,铁路,,33,33,35,22,17,10,,96,43,23,27,7,12,0.4,0.5
2024-08-29T0000,1063A,117.9392,40.9763,承德市,中国银行,,30,26,40,21,19,7,,105,55,24,19,4,13,0.6,0.7
2024-08-29T0000,1064A,117.9503,40.928,承德市,开发区,,38,38,37,12,17,14,,102,58,22,21,5,10,0.6,0.6
2024-08-29T0000,1065A,117.8051,40.9655,承德市,文化中心,颗粒物(PM10),51,51,59,23,27,7,,100,45,37,28,8,33,0.5,0.9
2024-08-29T0000,1066A,117.9268,41.0026,承德市,离宫,,34,34,38,15,22,5,,79,33,18,12,2,7,0.3,0.5
2024-08-29T0000,2314A,117.47,30.6618,池州市,池州学院,,19,19,9,10,5,24,,93,76,24,10,5,5,0.7,0.6
2024-08-29T0000,3237A,117.4918,30.6617,池州市,展览馆,,21,21,10,11,5,35,,88,70,19,8,4,4,0.7,0.6
2024-08-29T0000,3333A,117.5627,30.695,池州市,第八中学,,20,20,12,6,6,40,,92,64,19,13,4,4,0.7,0.6
2024-08-29T0000,3334A,117.5038,30.6243,池州市,第十二中学,,16,16,8,10,5,19,,94,58,25,15,3,3,1.0,0.7
2024-08-29T0000,1744A,118.9233,42.2816,赤峰市,松山一中,颗粒物(PM10),55,59,26,19,11,14,,108,70,49,27,10,11,0.7,0.6
2024-08-29T0000,1745A,118.9576,42.2728,赤峰市,哈达街,颗粒物(PM10),52,54,26,26,25,34,,101,76,26,17,10,11,0.5,0.4
2024-08-29T0000,1746A,118.8788,42.2554,赤峰市,天义路,,40,40,22,27,17,20,,115,79,28,19,8,12,0.4,0.4
2024-08-29T0000,3058A,119.2658,42.0353,赤峰市,银河街,,39,39,41,24,20,45,,105,70,15,16,12,16,0.5,0.5
2024-08-29T0000,3286A,118.9359,42.3147,赤峰市,桥北物流园区,,46,46,36,22,21,14,,111,55,51,30,10,14,0.6,0.6
2024-08-29T0000,2521A,107.3476,22.4136,崇左市,市环保局江州分局,颗粒物(PM10),53,56,35,22,20,17,,91,54,16,6,6,6,0.7,0.6
2024-08-29T0000,2522A,107.3702,22.3707,崇左市,城南新区,,46,39,31,32,22,30,,96,64,20,7,5,5,0.7,0.6
2024-08-29T0000,2298A,118.3093,32.3153,滁州市,老年大学,,27,25,22,16,13,84,,116,84,5,8,6,6,0.3,0.4
2024-08-29T0000,2299A,118.3244,32.2786,滁州市,人大宾馆,,28,28,26,19,16,80,,118,81,8,11,5,6,0.4,0.5
2024-08-29T0000,3207A,118.3118,32.3038,滁州市,市政府原办公楼,,28,21,18,19,18,79,,112,80,5,9,6,6,0.3,0.5
2024-08-29T0000,3331A,118.3267,32.2634,滁州市,图书馆,,26,25,21,18,16,75,,115,77,6,8,4,4,0.2,0.3
2024-08-29T0000,2605A,101.5482,25.0441,楚雄彝族自治州,州环境监测站,,,,18,,21,,,36,,,12,,4,,0.5
2024-08-29T0000,2606A,101.538,25.0492,楚雄彝族自治州,市经济开发区,,32,29,27,22,13,29,,84,70,27,11,8,6,0.5,0.5
2024-08-29T0000,2548A,107.5277,31.2827,达州市,达州职业技术学院,,33,33,33,19,11,20,,90,64,19,7,6,8,0.7,0.6
2024-08-29T0000,2549A,107.5086,31.2186,达州市,市环境监测站,,33,33,27,12,8,56,,94,85,20,17,6,7,0.5,0.4
2024-08-29T0000,2550A,107.4988,31.2132,达州市,凤凰小区,,23,19,20,12,10,72,,104,94,15,11,6,7,0.4,0.4
2024-08-29T0000,2551A,107.5082,31.1986,达州市,达县机关宾馆,,24,14,25,3,9,75,,103,95,18,19,4,5,0.3,0.3
2024-08-29T0000,2552A,107.4644,31.2124,达州市,市政中心,,26,20,28,7,9,81,,107,97,11,11,4,6,0.3,0.3
2024-08-29T0000,2614A,100.1542,25.7054,大理白族自治州,大理市环境监测站,,,34,33,24,16,,,85,,,17,,4,,0.6
2024-08-29T0000,2615A,100.2171,25.5811,大理白族自治州,大理古城,,,,,,12,,,,,,12,,7,,1.1
2024-08-29T0000,1109A,121.612,38.9741,大连市,甘井子,,39,39,32,24,15,87,,125,106,39,26,7,9,1.1,0.8
2024-08-29T0000,1110A,121.565,38.9511,大连市,周水子,,35,35,29,23,16,74,,135,100,41,38,5,6,1.1,1
2024-08-29T0000,1111A,121.5637,38.8845,大连市,星海三站,,38,36,28,26,14,40,,111,73,27,18,6,8,0.7,0.5
2024-08-29T0000,1112A,121.6302,38.9117,大连市,青泥洼桥,,38,38,32,24,16,54,,120,77,29,22,8,9,0.7,0.6
2024-08-29T0000,1113A,121.6251,38.8638,大连市,傅家庄,,33,28,32,20,13,103,,115,102,15,14,8,8,0.7,0.6
2024-08-29T0000,1114A,121.5213,38.8661,大连市,七贤岭,,32,32,31,15,13,60,,121,81,11,15,7,7,0.6,0.5
2024-08-29T0000,1115A,121.2529,38.8061,大连市,旅顺,颗粒物(PM10),55,59,33,27,15,65,,148,138,61,20,10,7,0.9,0.6
2024-08-29T0000,1116A,121.7485,39.1311,大连市,金州,,36,35,24,25,14,58,,122,107,19,14,6,7,0.5,0.3
2024-08-29T0000,1117A,121.7811,39.0496,大连市,开发区,,38,30,26,26,16,66,,106,79,18,17,9,9,0.5,0.5
2024-08-29T0000,1118A,121.9762,39.0631,大连市,双D港,,29,26,24,20,16,59,,114,69,8,14,6,7,0.6,0.6
2024-08-29T0000,1789A,124.81117,46.03138,大庆市,大同区,,20,18,21,14,14,55,,75,63,6,7,9,8,0.4,0.4
2024-08-29T0000,1790A,125.129,46.533,大庆市,龙凤区,,24,24,39,7,10,49,,72,63,5,11,3,4,0.5,0.5
2024-08-29T0000,1791A,124.902,46.408,大庆市,红岗区,,21,21,24,10,14,45,,78,64,10,10,8,8,0.5,0.4
2024-08-29T0000,1792A,125.153,46.586,大庆市,萨尔图区,,18,18,22,3,9,48,,68,60,8,13,6,6,0.3,0.4
2024-08-29T0000,1793A,124.9042,46.6215,大庆市,让胡路区,,22,22,23,11,7,53,,75,66,9,10,6,6,0.4,0.4
2024-08-29T0000,3481A,125.141,46.634,大庆市,萨区政府监测点,,20,20,24,3,8,55,,79,69,11,11,9,9,0.3,0.3
2024-08-29T0000,1721A,113.3819,40.1097,大同市,果树场,,,,,,,,,,,,,,,,
2024-08-29T0000,1723A,113.2994,40.0758,大同市,云冈宾馆,,35,35,35,18,19,75,,131,105,24,22,9,10,0.6,0.7
2024-08-29T0000,1724A,113.3444,40.0917,大同市,大同大学,,37,37,31,22,18,62,,138,95,29,22,9,12,0.5,0.5
2024-08-29T0000,1725A,113.2661,40.1269,大同市,安家小村,,40,40,40,28,16,81,,122,103,22,26,12,12,0.5,0.7
2024-08-29T0000,1726A,113.2711,40.0844,大同市,教育学院,,38,38,46,17,20,71,,129,102,30,32,12,13,0.7,0.8
2024-08-29T0000,3282A,113.3397,40.0597,大同市,大同市卫生学校,,35,35,31,21,17,76,,135,106,21,21,8,11,0.6,0.6
2024-08-29T0000,3565A,113.1367,40.1122,大同市,云冈站,颗粒物(PM10),59,68,50,33,20,7,,138,78,56,27,9,10,0.5,0.5
2024-08-29T0000,3566A,113.1186,40.2556,大同市,图书馆,,39,39,32,22,16,33,,134,86,13,15,8,10,0.4,0.5
2024-08-29T0000,3567A,113.5931,40.0461,大同市,区一中,,25,22,23,8,9,77,,121,97,8,12,8,10,0.6,0.6
2024-08-29T0000,3676A,113.2802,40.0995,大同市,第二人民医院,,36,36,39,24,20,74,,133,104,26,23,11,12,0.6,0.7
2024-08-29T0000,2269A,124.1069,50.4097,大兴安岭地区,科技局,,29,,14,20,13,28,,72,54,5,4,2,2,0.7,0.6
2024-08-29T0000,3663A,124.1164,50.4278,大兴安岭地区,红旗社区,,12,,7,8,8,15,,68,47,8,6,6,6,0.3,0.3
2024-08-29T0000,1600A,124.3303,40.0625,丹东市,江湾东路,颗粒物(PM10),53,55,36,26,17,27,,90,43,22,16,3,4,1.0,0.8
2024-08-29T0000,1601A,124.4256,40.1503,丹东市,临江后街,,33,33,28,19,13,39,,116,70,17,15,6,6,0.7,0.7
2024-08-29T0000,1602A,124.3933,40.1461,丹东市,元宝山,,29,29,21,14,9,43,,94,70,14,12,2,2,0.6,0.5
2024-08-29T0000,1603A,124.3633,40.1092,丹东市,民主桥,,34,34,23,19,11,16,,98,41,36,19,1,3,0.6,0.6
2024-08-29T0000,3541A,109.5726,19.5167,儋州市,第一中学子站,,19,18,18,13,12,35,,65,53,8,6,7,5,0.4,0.5
2024-08-29T0000,3542A,109.5567,19.5187,儋州市,东坡学校子站,,22,22,17,12,10,35,,66,52,4,4,4,4,0.6,0.5
2024-08-29T0000,2616A,98.5842,24.428,德宏傣族景颇族自治州,德宏州监测站,,25,24,24,17,14,23,,86,60,12,10,7,13,0.8,0.7
2024-08-29T0000,3677A,98.5881,24.4368,德宏傣族景颇族自治州,芒市人民政府综合楼,,,,22,,12,25,,86,65,12,12,3,9,0.9,0.7
2024-08-29T0000,1901A,104.4239,31.1208,德阳市,东山公园,,33,33,37,20,21,82,,147,124,12,11,4,9,0.6,0.6
2024-08-29T0000,1902A,104.3826,31.1317,德阳市,西小区,,34,34,38,20,24,73,,142,114,17,13,2,11,0.6,0.6
2024-08-29T0000,1904A,104.3553,31.1091,德阳市,耐火材料厂,,33,33,40,22,22,71,,144,116,15,10,4,12,0.5,0.5
2024-08-29T0000,3639A,104.4019,31.1244,德阳市,市教育局,,39,39,40,24,21,77,,144,116,14,12,2,8,0.6,0.6
2024-08-29T0000,1622A,116.3032,37.4674,德州市,儿童乐园,,34,34,40,17,21,71,,162,136,24,19,9,11,0.6,0.7
2024-08-29T0000,1624A,116.2991,37.4451,德州市,监理站,,29,29,33,7,19,92,,169,147,18,17,10,10,0.7,0.8
2024-08-29T0000,3066A,116.2721,37.4379,德州市,九衢泉纯净水厂,,29,22,31,19,19,91,,168,149,16,14,11,11,0.7,0.8
2024-08-29T0000,3371A,116.3728,37.4403,德州市,开发区人民医院,,36,36,43,12,18,69,,161,133,26,23,8,9,0.7,0.7
2024-08-29T0000,3372A,116.3572,37.4094,德州市,太阳城中学,,29,29,38,19,19,56,,161,123,32,21,13,11,0.6,0.7
2024-08-29T0000,3511A,116.5652,37.3319,德州市,陵城艺术中心,,27,27,32,14,15,75,,162,126,18,18,29,13,0.4,0.5
2024-08-29T0000,2621A,99.7056,27.8317,迪庆藏族自治州,迪庆州站,,36,36,27,14,15,100,,114,107,9,10,9,9,0.5,0.5
2024-08-29T0000,3180A,99.7136,27.8094,迪庆藏族自治州,质量技术监督局,,30,22,27,21,12,94,,106,100,10,12,10,10,0.5,0.5
2024-08-29T0000,2663A,104.6241,35.5734,定西市,东关小学,,,31,34,20,25,,,83,,14,10,2,2,0.0,0.1
2024-08-29T0000,2664A,104.6194,35.5934,定西市,供电公司,,42,38,33,29,25,64,,89,76,10,5,4,6,0.2,0.2
2024-08-29T0000,1389A,113.7547,23.0494,东莞市,莞城梨川,,42,42,51,22,32,42,,128,67,27,31,5,5,0.8,0.9
2024-08-29T0000,1390A,113.7944,23.0128,东莞市,东城石井,,43,43,45,23,26,47,,149,80,30,28,4,6,0.7,0.7
2024-08-29T0000,1391A,113.7383,22.9658,东莞市,南城西平,,41,41,47,18,30,40,,145,74,52,29,6,8,0.8,0.8
2024-08-29T0000,3319A,113.7338,23.0381,东莞市,万江金泰,颗粒物(PM10),51,52,52,30,29,52,,137,74,29,32,6,8,0.8,0.8
2024-08-29T0000,3626A,113.7533,23.0202,东莞市,南城元岭,,47,47,57,26,29,50,,132,74,23,27,6,6,0.8,0.8
2024-08-29T0000,3627A,113.7875,23.0457,东莞市,东城主山,,35,35,50,23,29,46,,131,70,22,27,8,8,0.7,0.8
2024-08-29T0000,1666A,118.6614,37.4309,东营市,市环保局,,39,22,23,9,9,123,,141,136,12,11,6,6,0.3,0.3
2024-08-29T0000,3036A,118.6904,37.4338,东营市,开发区管委会,,37,28,28,9,6,117,,144,137,13,8,5,4,0.4,0.3
2024-08-29T0000,3365A,118.5719,37.565,东营市,垦利区民丰路,,33,27,22,12,6,105,,150,134,10,10,2,3,1.1,0.8
2024-08-29T0000,3498A,118.5055,37.8612,东营市,河口城区,,27,19,25,17,11,86,,124,111,10,7,5,5,0.8,0.6
2024-08-29T0000,3646A,118.4978,37.4623,东营市,胜利站,,38,27,21,12,6,119,,139,134,13,10,8,8,0.8,0.6
2024-08-29T0000,3734A,118.35,37.26,东营市,理想之城,,30,22,19,19,9,94,,133,124,16,11,4,6,0.4,0.2
2024-08-29T0000,1591A,110.0023,39.8129,鄂尔多斯市,综合楼,颗粒物(PM10),52,53,54,12,14,87,,162,130,26,25,13,13,0.6,0.7
2024-08-29T0000,1592A,109.9486,39.8261,鄂尔多斯市,巴音孟克林场办事处,,48,48,52,12,17,92,,153,127,24,23,11,12,0.6,0.7
2024-08-29T0000,1593A,109.7736,39.5986,鄂尔多斯市,康泽苑,,34,34,38,7,12,79,,164,126,23,17,7,8,0.8,0.9
2024-08-29T0000,1594A,109.8119,39.5989,鄂尔多斯市,华泰汽车城,,26,19,35,12,17,83,,147,115,23,21,10,10,0.4,0.6
2024-08-29T0000,1595A,109.9734,39.7884,鄂尔多斯市,奥林花园,颗粒物(PM10),63,75,52,27,19,68,,146,114,31,29,6,7,0.6,0.7
2024-08-29T0000,2436A,114.8938,30.3994,鄂州市,市政府,,36,36,18,18,7,62,,88,78,12,7,9,3,1.0,0.8
2024-08-29T0000,2437A,114.8989,30.3714,鄂州市,赵家坝,,44,44,17,13,6,64,,96,79,12,10,9,8,0.8,0.7
2024-08-29T0000,3654A,114.8094,30.4089,鄂州市,精准医疗中心,,29,25,15,20,6,66,,96,83,5,6,5,5,0.7,0.7
2024-08-29T0000,2454A,109.4978,30.2981,恩施土家族苗族自治州,湖北民院,,42,42,20,24,14,43,,94,70,26,15,8,8,0.8,0.8
2024-08-29T0000,2455A,109.4707,30.2798,恩施土家族苗族自治州,州电力总公司,,22,21,15,15,9,38,,87,60,18,15,8,8,0.7,0.7
2024-08-29T0000,3549A,109.5061,30.3772,恩施土家族苗族自治州,龙凤新区,,30,28,18,21,9,39,,92,64,12,12,6,7,0.7,0.7
2024-08-29T0000,2499A,108.3411,21.6158,防城港市,沙万,颗粒物(PM10),54,58,29,21,13,48,,95,80,22,13,10,11,0.4,0.4
2024-08-29T0000,2500A,108.3514,21.7731,防城港市,防城档案局,,27,27,33,17,19,50,,85,67,9,9,8,7,0.5,0.6
2024-08-29T0000,2501A,108.3506,21.6414,防城港市,大海花园,,33,33,24,20,12,60,,100,91,10,6,7,8,0.5,0.5
2024-08-29T0000,1371A,113.1294,23.0067,佛山市,湾梁,,31,31,41,19,24,49,,153,69,36,27,7,11,0.9,0.8
2024-08-29T0000,1372A,113.1083,23.0478,佛山市,华材职中,,33,31,59,23,29,59,,139,63,26,37,7,10,0.5,0.5
2024-08-29T0000,1373A,113.144,23.0453,佛山市,南海气象局,,35,34,44,24,27,49,,137,64,25,25,5,10,0.5,0.5
2024-08-29T0000,1374A,113.2881,22.8094,佛山市,顺德苏岗,,25,24,36,17,25,57,,178,65,24,24,7,7,0.7,0.7
2024-08-29T0000,1376A,112.8383,22.8678,佛山市,高明孔堂,,28,28,42,17,23,33,,129,52,19,14,8,10,0.7,0.7
2024-08-29T0000,1377A,112.8836,23.1588,佛山市,三水监测站,,29,,45,20,28,70,,112,54,17,39,3,7,0.6,0.6
2024-08-29T0000,1378A,112.867,23.185,佛山市,三水云东海,,28,21,36,19,25,52,,110,48,14,34,8,10,0.6,0.6
2024-08-29T0000,3625A,113.2544,22.7642,佛山市,容桂街道办,,42,36,36,29,26,48,,190,84,39,25,6,7,0.8,0.7
2024-08-29T0000,1280A,119.3903,26.0543,福州市,鼓山,,,,,,,,,,,,,,,,
2024-08-29T0000,1282A,119.2681,26.0504,福州市,师大,,14,13,36,6,24,42,,104,56,9,13,4,4,0.5,0.6
2024-08-29T0000,1283A,119.2984,26.1028,福州市,五四北路,,,,22,8,27,48,,109,63,14,17,3,4,0.4,0.5
2024-08-29T0000,1284A,119.2648,26.0768,福州市,杨桥西路,,24,24,34,6,20,41,,112,59,15,16,3,3,0.5,0.6
2024-08-29T0000,1285A,119.317,26.0746,福州市,紫阳,,,,67,,43,,,51,,,20,,7,,0.6
2024-08-29T0000,3048A,119.5799,26.0936,福州市,九龙,,22,22,28,10,21,35,,103,48,14,8,5,5,0.4,0.5
2024-08-29T0000,3526A,119.5189,25.9664,福州市,吴航,,40,40,36,22,24,25,,102,43,21,11,6,6,0.7,0.8
2024-08-29T0000,1755A,123.7977,41.8491,抚顺市,望花区,颗粒物(PM10),82,114,46,35,14,10,,126,74,55,22,14,13,1.1,0.7
2024-08-29T0000,1756A,123.9161,41.8822,抚顺市,顺城区,,42,42,31,12,10,11,,122,54,47,29,4,5,0.6,0.6
2024-08-29T0000,1757A,124.0436,41.8611,抚顺市,东洲区,,39,39,22,13,10,21,,110,71,20,14,4,5,0.6,0.6
2024-08-29T0000,1758A,123.9247,41.8642,抚顺市,新抚区,,40,40,32,14,11,18,,119,59,38,25,9,8,0.4,0.4
2024-08-29T0000,1759A,124.0972,41.8961,抚顺市,大伙房水库,,19,19,20,13,9,18,,117,73,30,13,4,4,0.6,0.6
2024-08-29T0000,1760A,123.7086,41.8391,抚顺市,沈抚新城,,45,45,35,23,15,14,,132,67,35,25,6,10,0.5,0.6
2024-08-29T0000,2376A,116.2127,28.0814,抚州市,桐源党溪,,28,28,23,16,10,78,,105,84,2,3,5,5,1.2,1.1
2024-08-29T0000,2377A,116.3544,27.9831,抚州市,市站,,25,25,20,13,9,74,,91,78,6,4,4,3,0.7,0.6
2024-08-29T0000,2378A,116.3565,27.963,抚州市,血防站,,27,27,22,11,7,82,,98,84,8,7,4,3,0.8,0.8
2024-08-29T0000,2379A,116.3564,28.0007,抚州市,采茶剧团,,23,20,20,13,8,71,,92,76,5,4,2,2,0.8,0.7
2024-08-29T0000,2380A,116.385,27.9647,抚州市,医学分院,,24,24,23,13,8,71,,93,76,6,4,14,7,0.8,0.8
2024-08-29T0000,2207A,121.6094,41.998,阜新市,工业园区,颗粒物(PM10),52,54,37,31,13,5,,116,60,45,23,9,12,0.8,0.7
2024-08-29T0000,2208A,121.6697,42.0279,阜新市,长青街,,46,46,39,22,14,9,,115,65,36,20,8,13,0.6,0.6
2024-08-29T0000,2209A,121.6673,42.0705,阜新市,农业园区,,32,28,41,22,17,55,,106,75,26,16,11,11,0.6,0.6
2024-08-29T0000,2210A,121.6717,42.0224,阜新市,东苑,颗粒物(PM10),58,66,49,30,18,6,,108,62,41,21,14,20,0.8,0.7
2024-08-29T0000,2211A,121.6506,42.0498,阜新市,玉龙新城,,37,37,34,17,12,6,,109,49,34,21,6,8,0.6,0.6
2024-08-29T0000,2301A,115.8277,32.8929,阜阳市,市监测站,,33,33,28,18,15,71,,103,96,15,9,10,8,0.6,0.6
2024-08-29T0000,2303A,115.8554,32.8605,阜阳市,开发区,,29,21,29,20,13,80,,106,102,15,12,7,7,0.6,0.5
2024-08-29T0000,2875A,115.784,32.8892,阜阳市,阜阳职业技术学院,,39,39,27,24,16,79,,104,100,16,10,10,8,0.5,0.5
2024-08-29T0000,3468A,115.7901,32.8613,阜阳市,市规划展馆,细颗粒物(PM2.5),52,43,32,36,21,83,,104,101,14,12,9,10,0.7,0.6
2024-08-29T0000,3469A,115.836,32.9183,阜阳市,枣园社区,,40,40,33,28,20,70,,102,96,18,12,12,8,0.6,0.6
2024-08-29T0000,2669A,102.9099,34.9841,甘南藏族自治州,州政府,,29,29,32,18,16,56,,65,65,9,7,8,8,0.7,1
2024-08-29T0000,3380A,102.8914,34.9617,甘南藏族自治州,甘肃民族师范学院,,43,,29,30,16,65,,92,79,7,10,4,4,0.5,0.5
2024-08-29T0000,2570A,101.9603,30.0475,甘孜藏族自治州,水桥子,,32,28,30,22,18,85,,128,118,23,18,4,4,0.4,0.3
2024-08-29T0000,3065A,101.9533,29.9972,甘孜藏族自治州,州环保局,,34,34,29,13,9,95,,127,111,8,20,2,2,0.3,0.3
2024-08-29T0000,3414A,115.8347,28.932,赣江新区,桑海产业园,,22,,11,9,6,69,,88,80,10,7,9,9,0.4,0.3
2024-08-29T0000,2362A,114.9017,25.9149,赣州市,通天岩,,,,,,,,,,,,,,,,
2024-08-29T0000,2363A,114.9367,25.8664,赣州市,地委,,26,18,26,18,18,81,,97,95,6,8,3,3,1.2,1.2
2024-08-29T0000,2364A,114.9461,25.8481,赣州市,气象台,,27,24,29,14,18,84,,93,92,5,9,2,6,0.7,0.5
2024-08-29T0000,2365A,114.9322,25.8333,赣州市,市图书馆,,30,23,26,12,15,95,,110,108,4,6,4,4,1.1,1
2024-08-29T0000,2366A,114.8905,25.8471,赣州市,华坚鞋城,,26,26,29,11,16,82,,93,91,4,7,3,6,0.5,0.5
2024-08-29T0000,3109A,115.0093,25.8613,赣州市,赣县区卫计委,,26,18,22,13,15,83,,96,95,8,9,6,6,0.6,0.6
2024-08-29T0000,2683A,106.2319,36.1417,固原市,马园,颗粒物(PM10),60,70,48,17,16,63,,101,65,14,17,5,5,0.9,0.9
2024-08-29T0000,2684A,106.2792,36.0022,固原市,监测站,,33,23,23,23,21,61,,105,70,11,8,4,4,0.4,0.5
2024-08-29T0000,2685A,106.2375,36.0211,固原市,新区,,18,16,23,12,13,54,,97,65,11,10,6,7,0.5,0.5
2024-08-29T0000,3522A,106.2177,35.9959,固原市,原州区十五小,,27,27,27,18,17,70,,107,72,12,10,9,9,0.7,0.6
2024-08-29T0000,2543A,106.6308,30.5278,广安市,小平旧居,,,,,,,,,,,,,,,,
2024-08-29T0000,2544A,106.6303,30.4576,广安市,市委,,36,33,35,25,25,96,,157,128,8,10,3,5,0.4,0.4
2024-08-29T0000,2545A,106.6271,30.4663,广安市,友谊中学,,35,28,35,24,23,96,,156,127,11,12,6,8,0.5,0.5
2024-08-29T0000,2547A,106.6388,30.4551,广安市,广电花园,,32,28,37,22,24,90,,157,129,13,12,1,2,0.5,0.5
2024-08-29T0000,2902A,106.6351,30.4865,广安市,北辰小学,,34,34,44,23,26,98,,154,123,7,12,5,7,0.4,0.4
2024-08-29T0000,2523A,105.8945,32.4535,广元市,黑石坡,,30,30,20,21,14,47,,70,63,9,10,15,12,0.4,0.4
2024-08-29T0000,2524A,105.821,32.4444,广元市,老城,,26,20,15,7,8,83,,78,78,4,10,1,2,0.7,0.7
2024-08-29T0000,2526A,105.8628,32.4287,广元市,监测站,,24,18,14,14,10,74,,83,79,11,11,5,4,0.6,0.6
2024-08-29T0000,3617A,105.8047,32.4166,广元市,经开区,,30,26,26,21,16,78,,79,78,9,12,3,3,0.6,0.5
2024-08-29T0000,1345A,113.2347,23.1423,广州市,广雅中学,,39,39,50,24,29,46,,158,68,29,37,4,9,0.7,0.7
2024-08-29T0000,1346A,113.2612,23.105,广州市,市五中,,29,28,47,20,34,47,,161,68,28,27,3,5,0.7,0.7
2024-08-29T0000,1348A,113.3478,23.0916,广州市,广东商学院,,19,18,49,13,32,51,,165,78,31,36,4,6,0.7,0.7
2024-08-29T0000,1349A,113.4332,23.1047,广州市,市八十六中,,29,17,53,10,28,28,,163,62,57,47,3,5,0.6,0.6
2024-08-29T0000,1350A,113.3505,22.9483,广州市,番禺中学,,24,20,42,14,27,75,,168,87,16,28,4,5,0.7,0.8
2024-08-29T0000,1351A,113.2146,23.3916,广州市,花都师范,,19,16,41,9,26,58,,123,80,31,24,5,7,0.5,0.5
2024-08-29T0000,1352A,113.2597,23.1331,广州市,市监测站,,37,37,48,23,40,40,,147,60,30,32,4,8,0.8,0.8
2024-08-29T0000,1353A,113.5618,23.312,广州市,九龙镇镇龙,,23,23,49,16,31,68,,102,54,9,21,6,6,0.6,0.6
2024-08-29T0000,1354A,113.2765,23.1544,广州市,麓湖,,32,32,53,22,32,37,,150,43,31,36,4,6,0.6,0.7
2024-08-29T0000,1355A,113.443,23.3035,广州市,帽峰山森林公园,,22,19,39,15,35,56,,115,61,8,20,4,5,0.5,0.6
2024-08-29T0000,2846A,113.3221,23.1322,广州市,体育西,,29,29,46,20,30,36,,151,65,29,24,5,7,0.8,0.8
2024-08-29T0000,3298A,113.5717,23.5491,广州市,从化街口,,24,24,46,13,31,53,,91,51,18,20,8,8,0.8,0.8
2024-08-29T0000,3299A,113.3472,23.3692,广州市,白云竹料,,25,22,63,17,36,59,,114,69,17,29,4,4,0.8,0.9
2024-08-29T0000,3300A,113.2981,23.237,广州市,白云嘉禾,,39,39,53,24,31,48,,131,65,28,39,4,8,0.8,0.8
2024-08-29T0000,3301A,113.4256,23.1716,广州市,黄埔科学城,颗粒物(PM10),54,58,53,29,30,26,,150,58,33,37,3,6,0.8,0.8
2024-08-29T0000,3302A,113.3942,23.0483,广州市,番禺大学城,,37,37,49,11,27,57,,162,73,25,34,7,8,0.6,0.6
2024-08-29T0000,3303A,113.4922,22.8168,广州市,南沙黄阁,,49,35,45,34,32,40,,188,85,45,32,5,5,0.8,0.8
2024-08-29T0000,3304A,113.5342,22.7896,广州市,南沙街,,45,33,42,31,31,26,,191,80,44,24,5,4,0.8,0.8
2024-08-29T0000,3443A,113.2902,23.5544,广州市,花都梯面,,22,22,35,11,24,30,,98,58,30,16,4,5,0.7,0.7
2024-08-29T0000,3445A,113.7858,23.7478,广州市,从化良口,,25,25,32,17,24,30,,66,41,11,8,6,6,0.9,0.9
2024-08-29T0000,3446A,113.8051,23.2614,广州市,增城荔城,,27,27,42,18,29,30,,103,42,18,16,4,4,0.6,0.7
2024-08-29T0000,2505A,109.568,23.1478,贵港市,德智高中,,,,,,,,,,,,,,,,
2024-08-29T0000,2506A,109.6047,23.0666,贵港市,江南子站,,,51,45,31,22,47,,122,76,17,17,10,9,,0.7
2024-08-29T0000,2507A,109.6014,23.0948,贵港市,贵城子站,"颗粒物(PM10),细颗粒物(PM2.5)",52,54,46,36,28,48,,122,73,14,15,8,7,0.6,0.7
2024-08-29T0000,2508A,109.5669,23.1065,贵港市,荷城子站,,46,46,39,29,19,54,,112,79,13,12,14,11,0.5,0.5
2024-08-29T0000,3405A,109.5886,23.1172,贵港市,新世纪学校,颗粒物(PM10),52,53,47,34,23,39,,119,71,17,12,15,10,0.7,0.6
2024-08-29T0000,1439A,106.6899,26.5998,贵阳市,马鞍山,,18,17,14,7,2,57,,87,69,10,12,5,4,0.5,0.4
2024-08-29T0000,1440A,106.6971,26.5694,贵阳市,市环保站,,30,24,25,21,17,65,,88,74,8,12,4,6,0.2,0.2
2024-08-29T0000,1441A,106.6243,26.6266,贵阳市,鉴湖路,,27,27,19,12,8,61,,86,71,7,6,5,7,0.4,0.3
2024-08-29T0000,1442A,106.7487,26.6343,贵阳市,燕子冲,,28,27,13,19,13,72,,95,83,8,11,7,8,0.5,0.5
2024-08-29T0000,1443A,106.6555,26.4365,贵阳市,碧云窝,,24,24,23,9,6,58,,78,65,5,7,5,7,0.3,0.3
2024-08-29T0000,1444A,106.694,26.5161,贵阳市,中院村,,22,22,27,14,13,58,,78,66,7,12,6,11,0.2,0.4
2024-08-29T0000,1445A,106.7109,26.6027,贵阳市,红边门,,39,27,25,27,19,59,,89,71,13,15,4,7,0.4,0.4
2024-08-29T0000,1446A,106.7164,26.5699,贵阳市,新华路,,29,29,25,19,12,54,,80,66,10,13,3,7,0.6,0.6
2024-08-29T0000,1447A,106.674,26.5424,贵阳市,太慈桥,,20,17,13,14,7,59,,83,67,11,12,5,6,0.5,0.4
2024-08-29T0000,1552A,106.805,26.3003,贵阳市,桐木岭,,,,,,,,,,,,,,,,
2024-08-29T0000,1862A,110.4144,25.3167,桂林市,电子科大尧山校区,,36,36,28,20,17,93,,109,94,6,5,12,7,0.6,0.6
2024-08-29T0000,1863A,110.2819,25.2697,桂林市,监测站,,29,29,33,14,16,90,,105,79,8,9,10,14,0.7,0.6
2024-08-29T0000,1864A,110.3089,25.2708,桂林市,龙隐路小学,,,32,29,20,19,,,110,90,8,6,12,19,0.4,0.3
2024-08-29T0000,1865A,110.2869,25.2178,桂林市,八中,,28,26,27,19,17,87,,110,83,9,8,9,14,0.5,0.5
2024-08-29T0000,3403A,110.1764,25.2381,桂林市,创业大厦,,39,36,30,27,22,81,,87,65,7,9,10,14,0.4,0.4
2024-08-29T0000,3531A,110.296,25.1253,桂林市,旅游学院,,27,27,23,17,17,84,,109,84,7,12,11,11,0.5,0.5
2024-08-29T0000,2674A,100.2561,34.4714,果洛藏族自治州,玛沁县大武镇,,32,26,24,18,14,100,,109,84,2,7,5,6,0.4,0.4
2024-08-29T0000,1129A,126.5422,45.755,哈尔滨市,岭北,,27,20,21,10,12,85,,112,100,25,24,14,14,0.4,0.6
2024-08-29T0000,1130A,126.561,45.8167,哈尔滨市,松北商大,,25,25,25,8,10,60,,89,73,24,21,8,8,0.5,0.5
2024-08-29T0000,1131A,126.979,45.5419,哈尔滨市,阿城会宁,,18,13,25,8,10,55,,91,61,10,13,6,6,0.7,0.7
2024-08-29T0000,1132A,126.599,45.7222,哈尔滨市,南岗学府路,,48,48,47,11,12,62,,98,77,20,25,6,7,0.4,0.5
2024-08-29T0000,1133A,126.689,45.7733,哈尔滨市,太平宏伟公园,,41,41,46,13,14,57,,96,79,26,24,8,8,0.2,0.3
2024-08-29T0000,1134A,126.635,45.7667,哈尔滨市,道外承德广场,颗粒物(PM10),57,64,40,12,12,64,,89,76,28,32,12,12,0.4,0.5
2024-08-29T0000,1135A,126.685,45.7319,哈尔滨市,香坊红旗大街,,34,34,48,15,15,45,,91,66,35,34,9,9,0.6,0.7
2024-08-29T0000,1136A,126.6411,45.7258,哈尔滨市,动力和平路,,36,36,40,25,16,40,,94,68,41,33,7,8,0.7,0.6
2024-08-29T0000,1137A,126.593,45.7478,哈尔滨市,道里建国路,,27,27,33,12,11,72,,91,84,19,27,9,13,1.0,1
2024-08-29T0000,1138A,126.615,45.61,哈尔滨市,平房东轻厂,,21,12,22,3,9,67,,96,84,11,16,6,5,0.4,0.3
2024-08-29T0000,1139A,126.595,45.9855,哈尔滨市,呼兰师专,,27,27,31,15,14,70,,89,78,28,27,11,10,0.6,0.6
2024-08-29T0000,1140A,126.6206,45.6842,哈尔滨市,省农科院,颗粒物(PM10),66,82,85,18,24,17,,62,42,70,68,8,8,0.4,0.4
2024-08-29T0000,2688A,93.5128,42.8172,哈密市,地区监测站,颗粒物(PM10),62,73,50,32,20,43,,128,77,62,25,3,5,0.9,0.4
2024-08-29T0000,2689A,93.4961,42.8328,哈密市,哈密师范学校,细颗粒物(PM2.5),63,74,50,45,24,35,,118,68,76,26,4,8,1.4,0.8
2024-08-29T0000,2671A,100.9048,36.9639,海北藏族自治州,海晏县西海镇,,42,37,33,29,25,127,,134,134,6,8,14,14,0.4,0.6
2024-08-29T0000,3867A,102.0738,36.5056,海东市,平安区公安北苑,,45,45,44,23,28,101,,134,123,14,12,20,13,0.8,0.7
2024-08-29T0000,1409A,110.576,19.9507,海口市,东寨港,,,,,,,,,,,,,,,,
2024-08-29T0000,1410A,110.3232,20.0574,海口市,海南大学,,15,15,18,9,10,42,,72,60,20,10,6,6,0.4,0.4
2024-08-29T0000,1411A,110.283,20.0053,海口市,秀英海南医院,,23,22,20,16,11,36,,66,53,21,12,7,7,0.3,0.3
2024-08-29T0000,1412A,110.338,19.9969,海口市,海南师范大学,,30,,22,21,10,37,,71,56,18,10,7,7,0.5,0.4
2024-08-29T0000,1413A,110.33,20.0356,海口市,龙华路环保局宿舍,,23,,18,16,15,42,,72,59,18,9,4,4,0.2,0.2
2024-08-29T0000,3539A,110.5111,19.9736,海口市,桂林洋子站,,40,40,25,20,12,22,,72,45,18,12,4,5,0.5,0.4
2024-08-29T0000,2673A,100.6188,36.2866,海南藏族自治州,共和县恰卜恰镇,细颗粒物(PM2.5),54,48,32,38,20,88,,98,97,16,9,16,14,0.4,0.6
2024-08-29T0000,2676A,97.3731,37.3753,海西蒙古族藏族自治州,德令哈市,,30,20,33,17,13,96,,107,91,5,8,8,8,0.4,0.5
2024-08-29T0000,1048A,114.5302,36.6116,邯郸市,东污水处理厂,,36,36,23,22,8,78,,122,110,26,6,3,3,0.6,0.5
2024-08-29T0000,1049A,114.4918,36.5713,邯郸市,矿院,,44,44,22,19,8,79,,135,114,13,5,2,3,0.6,0.5
2024-08-29T0000,1050A,114.484,36.6133,邯郸市,丛台公园,,43,43,18,18,10,79,,126,118,25,7,1,2,0.4,0.4
2024-08-29T0000,3458A,114.7895,36.5593,邯郸市,香泉濮院小区,颗粒物(PM10),53,55,38,19,11,100,,134,120,11,13,2,2,0.6,0.4
2024-08-29T0000,3579A,114.50634,36.77178,邯郸市,永年区实验高中,颗粒物(PM10),61,71,36,26,12,57,,124,101,30,13,2,2,1.2,1
2024-08-29T0000,3580A,114.20016,36.44293,邯郸市,峰峰矿区临水派出所,,35,26,14,13,6,110,,137,126,14,10,4,5,0.5,0.5
2024-08-29T0000,2634A,106.9893,33.1842,汉中市,汉川机床厂子校,,32,14,15,8,9,100,,101,90,4,4,4,4,0.7,0.7
2024-08-29T0000,2635A,107.0154,33.0706,汉中市,市监测站,颗粒物(PM10),55,60,27,31,13,42,,105,77,10,5,8,7,0.8,0.6
2024-08-29T0000,2636A,107.0089,33.1138,汉中市,鑫源开发区,,25,21,22,13,9,78,,104,82,8,5,9,9,0.5,0.4
2024-08-29T0000,2637A,107.007,33.0323,汉中市,南郑大河坎水厂,,,67,34,,22,32,,98,63,12,7,8,8,0.8,0.7
2024-08-29T0000,1223A,120.2072,30.2111,杭州市,滨江,,30,30,29,17,16,92,,111,107,15,13,4,4,0.8,0.7
2024-08-29T0000,1224A,120.0633,30.2747,杭州市,西溪,,30,30,21,17,11,92,,111,104,14,16,6,6,0.8,0.7
2024-08-29T0000,1226A,120.3461,30.3153,杭州市,下沙,,42,42,39,23,20,86,,127,121,24,27,6,6,0.8,0.8
2024-08-29T0000,1227A,120.1269,30.2456,杭州市,卧龙桥,,29,22,24,20,16,88,,105,97,14,15,5,6,0.7,0.7
2024-08-29T0000,1228A,120.1903,30.2692,杭州市,浙江农大,,35,30,27,24,17,86,,99,96,18,22,8,8,0.7,0.7
2024-08-29T0000,1230A,120.1197,30.3119,杭州市,和睦小学,,30,26,21,16,12,95,,125,120,15,17,6,6,0.8,0.7
2024-08-29T0000,1231A,120.3019,30.4183,杭州市,临平镇,,35,35,44,14,14,85,,142,128,8,14,4,4,0.7,0.8
2024-08-29T0000,1232A,120.2697,30.1819,杭州市,城厢镇,,34,21,26,16,20,107,,112,108,9,13,5,5,0.9,0.9
2024-08-29T0000,1233A,120.0883,30.1808,杭州市,云栖,,21,21,19,14,12,53,,95,71,18,16,8,8,0.9,0.8
2024-08-29T0000,3557A,119.9464,30.0494,杭州市,镇二中,,33,,22,16,16,104,,114,96,14,18,7,8,0.9,0.8
2024-08-29T0000,3558A,119.7183,30.2367,杭州市,市府大楼,,36,34,23,25,18,99,,125,101,16,15,5,5,0.8,0.7
2024-08-29T0000,3656A,120.1556,30.2864,杭州市,消防大队,,36,35,26,25,17,94,,123,119,13,13,7,8,1.1,1
2024-08-29T0000,1270A,117.1959,31.7848,合肥市,明珠广场,,22,14,16,12,14,69,,113,93,10,13,6,6,0.4,0.5
2024-08-29T0000,1271A,117.3072,31.8764,合肥市,三里街,,18,17,13,7,7,57,,104,85,7,8,5,5,0.5,0.6
2024-08-29T0000,1272A,117.2588,31.8707,合肥市,琥珀山庄,,22,17,14,15,15,60,,113,93,11,8,6,6,0.5,0.6
2024-08-29T0000,1273A,117.1604,31.9052,合肥市,董铺水库,,17,17,16,9,10,44,,98,80,7,6,2,2,0.2,0.4
2024-08-29T0000,1274A,117.25,31.8571,合肥市,长江中路,,22,17,20,15,15,64,,116,96,7,5,7,7,0.7,0.8
2024-08-29T0000,1275A,117.266,31.9436,合肥市,庐阳区,,19,19,19,3,9,59,,116,88,10,10,4,3,0.4,0.6
2024-08-29T0000,1276A,117.336,31.8586,合肥市,瑶海区,,20,12,15,7,9,62,,110,90,9,9,9,9,0.5,0.6
2024-08-29T0000,1277A,117.3027,31.7964,合肥市,包河区,,22,22,19,14,14,50,,98,69,21,22,6,5,0.4,0.5
2024-08-29T0000,1278A,117.2776,31.7385,合肥市,滨湖新区,,19,19,14,12,10,59,,108,89,13,13,5,6,0.4,0.6
2024-08-29T0000,1279A,117.1318,31.8403,合肥市,高新区,,25,22,20,17,14,53,,105,83,13,11,6,7,0.8,0.7
2024-08-29T0000,3464A,117.3803,31.9147,合肥市,高教基地,,18,16,14,12,12,42,,102,77,7,6,10,10,0.3,0.4
2024-08-29T0000,3614A,79.924,37.0877,和田地区,地区环保局,颗粒物(PM10),500,640,504,199,143,16,,95,70,46,12,8,7,1.0,0.7
2024-08-29T0000,3615A,79.9131,37.113,和田地区,市环保局,颗粒物(PM10),500,703,479,162,102,6,,93,64,57,14,8,7,0.9,0.4
2024-08-29T0000,2516A,108.2011,24.715,河池市,东仁乐园,,31,31,33,19,21,22,,83,43,15,11,4,5,0.8,0.7
2024-08-29T0000,2517A,108.0497,24.6947,河池市,市环保站,,26,22,27,18,24,62,,93,65,6,11,15,10,0.5,0.5
2024-08-29T0000,2518A,108.0983,24.6989,河池市,市疾控中心,,36,36,33,18,20,30,,94,53,19,17,8,8,0.6,0.6
2024-08-29T0000,1696A,114.6778,23.7569,河源市,源西,,32,22,38,22,23,22,,94,42,20,20,4,4,0.6,0.7
2024-08-29T0000,1697A,114.6944,23.7586,河源市,东埔,,25,,35,17,24,31,,101,45,18,19,3,3,0.7,0.7
2024-08-29T0000,1698A,114.6892,23.7233,河源市,老城,,31,31,36,18,19,21,,104,45,23,16,5,5,0.7,0.7
2024-08-29T0000,1718A,115.4208,35.2464,菏泽市,气象局,,37,37,34,8,15,109,,161,142,12,8,6,6,0.3,0.3
2024-08-29T0000,1719A,115.4747,35.2375,菏泽市,市政协,,34,31,33,13,17,107,,152,137,11,8,5,6,0.3,0.3
2024-08-29T0000,3374A,115.5564,35.0891,菏泽市,定陶老年大学,,36,36,35,9,10,95,,142,124,16,10,7,7,0.5,0.4
2024-08-29T0000,3647A,115.4702,35.2706,菏泽市,菏泽医专,颗粒物(PM10),52,53,34,13,12,92,,155,130,19,11,5,7,0.6,0.6
2024-08-29T0000,2514A,111.5264,24.4172,贺州市,环保小区,,29,25,32,20,18,58,,88,72,15,13,8,7,0.7,0.7
2024-08-29T0000,2515A,111.5608,24.4078,贺州市,政协大楼,,32,25,36,22,22,69,,93,77,12,15,10,8,0.7,0.7
2024-08-29T0000,3534A,111.4744,24.4553,贺州市,西湾,,33,33,34,22,20,54,,83,71,12,13,8,7,0.6,0.7
2024-08-29T0000,2385A,114.17,35.9019,鹤壁市,市监测站,,40,40,29,17,14,74,,149,112,12,17,4,7,0.5,0.6
2024-08-29T0000,2386A,114.2956,35.7511,鹤壁市,市交警支队,,28,28,31,11,14,81,,142,111,25,16,7,10,0.5,0.8
2024-08-29T0000,2387A,114.2878,35.7306,鹤壁市,迎宾馆,,36,36,24,22,13,54,,146,115,12,15,3,9,0.7,0.9
2024-08-29T0000,3474A,114.2617,35.6822,鹤壁市,大新区,,26,22,30,18,12,81,,147,114,20,14,5,8,0.3,0.5
2024-08-29T0000,3596A,114.1572,35.9603,鹤壁市,南山宾馆,,35,20,26,19,12,109,,147,125,10,15,1,8,0.5,0.8
2024-08-29T0000,2244A,130.2537,47.3416,鹤岗市,哈啤分公司,,32,,20,22,16,24,,59,40,3,7,12,12,0.4,0.5
2024-08-29T0000,2245A,130.2684,47.3086,鹤岗市,斯达机电,,26,26,21,16,8,48,,61,51,7,8,14,13,0.2,0.3
2024-08-29T0000,2246A,130.3114,47.3388,鹤岗市,东山纸板厂,,35,,21,24,13,12,,57,36,13,11,15,16,0.4,0.5
2024-08-29T0000,2247A,130.1097,47.3382,鹤岗市,五号水库,,14,14,8,3,5,18,,59,29,4,4,11,11,0.2,0.2
2024-08-29T0000,2263A,127.4833,50.2524,黑河市,交通局,,,21,24,11,11,,,56,47,4,10,7,6,0.4,0.5
2024-08-29T0000,2264A,127.5144,50.2341,黑河市,环保局,,25,25,19,17,11,1,,22,1,4,8,4,4,0.4,0.4
2024-08-29T0000,2265A,127.5291,50.2472,黑河市,大黑河岛,,,,14,15,12,,,,,5,11,2,2,,
2024-08-29T0000,1074A,115.6838,37.7541,衡水市,电机北厂,颗粒物(PM10),54,58,40,23,18,81,,147,115,31,16,7,6,0.7,0.4
2024-08-29T0000,1075A,115.6303,37.7316,衡水市,市监测站,颗粒物(PM10),54,57,38,26,14,34,,149,120,49,21,4,5,0.8,0.5
2024-08-29T0000,3188A,115.6683,37.7217,衡水市,市城管局,,48,48,35,32,18,110,,153,130,28,14,4,3,0.8,0.6
2024-08-29T0000,3459A,115.5989,37.5491,衡水市,地表水厂,颗粒物(PM10),52,54,42,23,15,28,,155,82,92,22,4,4,0.7,0.6
2024-08-29T0000,2456A,112.5003,26.9167,衡阳市,原169医院,,28,23,23,14,12,89,,106,93,17,8,7,13,0.5,0.5
2024-08-29T0000,2457A,112.6194,26.9258,衡阳市,衡阳化工总厂,,,47,27,,,93,,109,99,7,6,26,11,0.7,0.6
2024-08-29T0000,2458A,112.6211,26.8956,衡阳市,珠晖区环保局,,,33,26,,,92,,107,96,10,8,6,7,0.7,0.7
2024-08-29T0000,2459A,112.6197,26.8733,衡阳市,市委党校,,34,34,25,16,14,101,,114,105,9,7,5,8,0.7,0.7
2024-08-29T0000,2460A,112.6006,26.8919,衡阳市,市监测站,,37,37,24,23,14,100,,115,105,6,6,17,8,0.8,0.7
2024-08-29T0000,2461A,112.5664,26.9056,衡阳市,真空机电公司,,33,30,25,16,13,103,,115,104,6,4,6,7,0.7,0.7
2024-08-29T0000,3399A,112.6703,26.882,衡阳市,师范学院,,33,32,27,18,15,103,,114,106,8,8,7,9,0.6,0.6
2024-08-29T0000,2608A,103.3772,23.3993,红河哈尼族彝族自治州,污水处理厂,,26,,17,18,14,34,,71,44,7,8,5,34,0.3,0.4
2024-08-29T0000,2609A,103.3861,23.35,红河哈尼族彝族自治州,监测站,,26,26,19,17,13,30,,78,40,8,8,6,25,0.4,0.4
2024-08-29T0000,3038A,103.3758,23.368,红河哈尼族彝族自治州,州图书馆,,22,22,22,7,10,40,,69,46,6,7,5,34,0.3,0.4
2024-08-29T0000,1090A,111.6507,40.7517,呼和浩特市,呼市一监,,36,36,36,19,15,78,,162,122,30,21,10,11,0.6,0.6
2024-08-29T0000,1091A,111.6572,40.8033,呼和浩特市,小召,,36,36,31,18,15,83,,147,120,36,29,7,7,0.7,0.6
2024-08-29T0000,1094A,111.7516,40.8369,呼和浩特市,如意水处理厂,,42,42,33,16,12,59,,147,116,45,26,7,8,0.6,0.4
2024-08-29T0000,1095A,111.7276,40.8062,呼和浩特市,二十九中,颗粒物(PM10),52,53,40,20,16,52,,153,110,58,33,5,6,0.7,0.6
2024-08-29T0000,1096A,111.5512,40.7866,呼和浩特市,工大金川校区,颗粒物(PM10),56,61,40,17,14,16,,147,100,100,37,4,6,0.6,0.6
2024-08-29T0000,1097A,111.717,40.7612,呼和浩特市,化肥厂生活区,,50,50,49,19,17,76,,154,112,28,25,9,10,0.4,0.5
2024-08-29T0000,3698A,111.5968,40.8178,呼和浩特市,红旗小学,,41,41,38,15,14,73,,150,113,51,35,5,6,0.5,0.5
2024-08-29T0000,3699A,111.6518,40.8389,呼和浩特市,海东办,,48,48,33,21,16,45,,153,106,66,38,4,7,0.5,0.5
2024-08-29T0000,2192A,119.7594,49.2261,呼伦贝尔市,区环保局,,33,33,27,17,14,47,,91,62,17,13,5,5,0.3,0.3
2024-08-29T0000,3061A,119.7512,49.1577,呼伦贝尔市,国华电力东,,22,22,23,14,12,46,,95,68,6,5,3,4,0.2,0.2
2024-08-29T0000,1250A,120.0751,30.8669,湖州市,城西水厂,,19,17,33,11,20,58,,130,103,27,26,4,5,0.4,0.6
2024-08-29T0000,2873A,120.0875,30.8955,湖州市,仁皇山新区,,16,14,31,10,20,49,,145,107,25,19,6,7,0.6,0.7
2024-08-29T0000,2907A,120.1844,30.8596,湖州市,吴兴区站,,20,19,27,14,19,58,,141,105,16,15,7,7,0.5,0.7
2024-08-29T0000,3562A,120.4148,30.8538,湖州市,南浔区站,,22,14,27,10,22,70,,150,106,13,13,4,5,0.6,0.8
2024-08-29T0000,1607A,120.9092,40.7136,葫芦岛市,龙港区,,20,8,22,3,9,63,,88,80,24,23,9,16,0.4,0.4
2024-08-29T0000,1608A,120.8392,40.7514,葫芦岛市,化工街,颗粒物(PM10),62,73,33,22,11,8,,102,55,51,29,81,25,0.4,0.3
2024-08-29T0000,1609A,120.8341,40.7073,葫芦岛市,新区,,40,37,30,28,13,7,,99,59,70,33,10,15,0.7,0.5
2024-08-29T0000,1610A,120.8695,40.7677,葫芦岛市,东城区,,37,37,32,13,13,9,,100,52,49,31,18,16,0.4,0.5
2024-08-29T0000,2482A,109.5981,27.5721,怀化市,林科所,,25,15,17,9,12,78,,87,75,10,13,7,9,0.2,0.3
2024-08-29T0000,2483A,109.9453,27.5444,怀化市,河西地税局,,40,36,27,28,18,53,,99,74,12,10,29,11,0.7,0.7
2024-08-29T0000,2484A,109.9781,27.5342,怀化市,市四医院,,42,42,20,25,13,65,,99,84,13,7,26,7,0.9,0.8
2024-08-29T0000,2485A,109.9972,27.5578,怀化市,监测楼,,34,34,24,21,14,59,,98,80,13,7,18,3,0.8,0.7
2024-08-29T0000,2486A,110.0394,27.583,怀化市,市委党校,,49,49,33,22,13,63,,94,73,15,8,46,7,0.7,0.5
2024-08-29T0000,1210A,119.036,33.5981,淮安市,钵池山,,28,27,18,19,13,85,,87,82,16,14,6,6,0.8,0.8
2024-08-29T0000,1211A,119.007,33.575,淮安市,北京南路,,36,27,18,25,13,90,,84,83,8,7,5,4,0.8,0.7
2024-08-29T0000,1212A,118.989,33.6067,淮安市,市监测站,,32,27,19,22,17,96,,94,94,10,8,6,6,0.7,0.8
2024-08-29T0000,1213A,119.135,33.5039,淮安市,楚州区监测站,,34,34,26,17,11,87,,85,85,10,10,5,5,0.7,0.7
2024-08-29T0000,1214A,119.0186,33.6297,淮安市,淮阴区监测站,,29,29,24,18,12,87,,92,90,21,14,3,3,0.6,0.6
2024-08-29T0000,3426A,118.8755,33.2894,淮安市,新华书店,,28,26,24,16,15,87,,89,81,13,15,7,6,0.6,0.6
2024-08-29T0000,2282A,116.8004,33.975,淮北市,监测站,,30,21,30,14,15,94,,129,111,7,10,6,6,0.7,0.7
2024-08-29T0000,2283A,116.8091,33.9007,淮北市,烈山区政府,,34,21,27,12,16,107,,138,127,2,4,4,6,0.4,0.5
2024-08-29T0000,3330A,116.8873,33.9836,淮北市,杜集区检察院,,34,34,36,15,18,105,,131,123,7,9,4,3,0.3,0.5
2024-08-29T0000,4017A,116.7923,33.9535,淮北市,市博物馆,,33,20,29,15,18,104,,133,123,8,11,5,5,0.6,0.8
2024-08-29T0000,2277A,116.8305,32.7727,淮南市,潘集区政府,,28,28,16,18,14,62,,86,76,10,8,6,5,0.5,0.5
2024-08-29T0000,2278A,117.0067,32.6524,淮南市,师范学院,,28,28,22,13,10,58,,86,74,8,5,5,5,0.4,0.5
2024-08-29T0000,2279A,116.8569,32.5951,淮南市,谢家集区政府,,28,,14,19,17,58,,82,72,10,9,5,7,0.3,0.5
2024-08-29T0000,2280A,116.8281,32.633,淮南市,八公山区政府,,27,27,24,3,2,67,,86,74,8,7,8,9,0.3,0.4
2024-08-29T0000,2281A,116.6325,32.6201,淮南市,焦岗湖风景区管理处,,,,8,,3,,,46,,,7,,6,,0.2
2024-08-29T0000,2894A,117.0566,32.6531,淮南市,经济技术开发区消防队,,17,17,14,3,5,48,,85,68,14,8,5,4,0.4,0.4
2024-08-29T0000,3329A,117.0108,32.5893,淮南市,山南新区,,27,27,22,8,10,62,,91,79,12,10,3,4,0.6,0.6
2024-08-29T0000,2446A,114.9028,30.4742,黄冈市,职工中心,,33,30,19,23,11,62,,93,78,6,5,7,7,0.7,0.6
2024-08-29T0000,2929A,114.8858,30.4519,黄冈市,红卫路,,40,34,17,28,14,62,,94,78,9,8,7,7,0.6,0.5
2024-08-29T0000,3398A,114.9136,30.4445,黄冈市,市林业局,,36,33,20,25,11,65,,100,82,9,7,8,7,0.5,0.5
2024-08-29T0000,2672A,102.0199,35.5102,黄南藏族自治州,同仁县隆务镇,,30,23,36,21,18,70,,79,,1,2,8,9,0.3,0.3
2024-08-29T0000,2295A,118.2903,29.6963,黄山市,延安路89号,,29,29,29,3,7,21,,87,60,5,5,5,5,0.4,0.4
2024-08-29T0000,2296A,118.327,29.7178,黄山市,黄山东路89号,,19,19,21,3,5,28,,80,56,8,5,4,4,0.6,0.5
2024-08-29T0000,2297A,118.1371,30.2756,黄山市,黄山区政府5号楼,,19,13,14,13,7,18,,79,41,8,7,6,6,0.4,0.4
2024-08-29T0000,2423A,115.0601,30.2313,黄石市,沈家营,,27,27,21,7,6,60,,98,79,12,8,4,5,0.7,0.6
2024-08-29T0000,2424A,115.0817,30.2006,黄石市,陈家湾,,26,26,21,11,6,63,,94,77,6,5,6,7,0.7,0.6
2024-08-29T0000,2426A,114.8988,30.2019,黄石市,铁山,,26,22,21,18,6,65,,105,87,10,5,9,8,0.5,0.5
2024-08-29T0000,2427A,115.0307,30.2092,黄石市,团城山,,24,24,20,12,8,55,,90,74,13,10,6,7,0.6,0.6
2024-08-29T0000,3149A,115.0235,30.1578,黄石市,笔架山北路,,32,32,22,8,5,57,,95,70,11,9,8,7,0.8,0.8
2024-08-29T0000,1392A,114.4183,23.0528,惠州市,河南岸金山湖子站,,33,33,47,19,30,48,,139,60,12,18,5,5,0.7,0.7
2024-08-29T0000,1393A,114.4053,23.0822,惠州市,下埔横江三路子站,,30,30,49,18,30,49,,150,67,13,17,4,4,0.6,0.7
2024-08-29T0000,1394A,114.4103,23.1142,惠州市,江北云山西路子站,,31,31,46,12,26,43,,154,61,14,20,4,5,0.7,0.8
2024-08-29T0000,1395A,114.4645,22.7833,惠州市,惠阳区承修路船湖子站,,37,37,43,25,29,38,,156,84,22,28,5,5,0.6,0.6
2024-08-29T0000,1396A,114.5317,22.7422,惠州市,大亚湾管委会子站,,44,44,43,29,26,52,,172,89,29,31,6,7,0.4,0.4
2024-08-29T0000,3314A,114.4338,22.8134,惠州市,惠阳秋长,,34,34,46,21,30,35,,181,87,26,35,5,6,0.6,0.5
2024-08-29T0000,3452A,114.6517,22.775,惠州市,大亚湾霞涌,,29,29,32,9,16,48,,193,81,11,15,4,4,0.6,0.5
2024-08-29T0000,2240A,130.9762,45.3001,鸡西市,环保局,,46,46,28,14,11,12,,50,30,19,9,5,5,0.3,0.3
2024-08-29T0000,2243A,130.9429,45.3039,鸡西市,第一中学,颗粒物(PM10),61,71,33,20,9,0,,63,25,32,12,5,4,0.3,0.3
2024-08-29T0000,3707A,131.0207,45.3073,鸡西市,欧美日汽修厂,,30,30,26,13,15,7,,58,25,18,13,4,5,0.2,0.2
2024-08-29T0000,3709A,130.9967,45.3106,鸡西市,市政设施管理处,颗粒物(PM10),51,52,37,17,12,6,,64,28,24,13,6,6,0.4,0.3
2024-08-29T0000,2367A,114.9754,27.0803,吉安市,红声器材厂,,27,27,35,15,14,76,,105,88,12,11,11,11,0.6,0.6
2024-08-29T0000,2368A,114.9658,27.0999,吉安市,市森林工业局,,28,28,26,14,13,85,,107,91,17,16,8,10,0.5,0.5
2024-08-29T0000,2369A,114.99,27.1312,吉安市,市环境监测站,,27,26,31,14,12,86,,110,94,9,11,11,12,0.8,0.7
2024-08-29T0000,2370A,115.0093,27.0968,吉安市,青原区法院,,29,29,26,15,14,76,,110,92,13,13,11,10,0.6,0.6
2024-08-29T0000,1772A,126.54,43.8622,吉林市,哈达湾,,30,30,23,14,12,33,,101,62,26,19,5,6,0.6,0.6
2024-08-29T0000,1773A,126.5844,43.8358,吉林市,东局子,,21,21,20,11,10,33,,103,60,18,15,4,4,0.7,0.6
2024-08-29T0000,1774A,126.5052,43.8245,吉林市,电力学院,,33,33,27,15,11,22,,102,50,21,15,4,4,0.6,0.6
2024-08-29T0000,1775A,126.6133,43.8972,吉林市,江北,,31,31,29,17,14,33,,105,51,15,16,8,7,0.7,0.6
2024-08-29T0000,1776A,126.555,43.8306,吉林市,江南公园,,29,22,17,20,11,27,,107,66,20,15,5,5,0.7,0.7
2024-08-29T0000,1778A,126.7061,43.7133,吉林市,丰满,,,,,,,,,,,,,,,,
2024-08-29T0000,2868A,126.4739,43.953,吉林市,九站,,43,43,38,20,14,28,,102,46,30,26,10,10,0.7,0.7
2024-08-29T0000,1299A,116.9862,36.6114,济南市,科干所,,44,44,42,15,20,72,,162,123,28,21,6,8,0.8,0.7
2024-08-29T0000,1300A,116.9376,36.665,济南市,农科所,,32,32,34,12,17,78,,151,104,23,23,9,9,0.5,0.5
2024-08-29T0000,1301A,117.1265,36.6734,济南市,开发区,,42,42,38,22,20,47,,157,112,47,22,9,10,0.6,0.5
2024-08-29T0000,1303A,117.0624,36.6868,济南市,省种子仓库,,39,39,41,14,16,64,,158,112,33,23,11,9,0.5,0.5
2024-08-29T0000,1304A,116.9489,36.6447,济南市,机床二厂,,34,34,35,7,11,78,,168,124,31,22,12,10,0.6,0.6
2024-08-29T0000,1305A,117.0495,36.663,济南市,市监测站,,42,42,40,17,19,72,,163,119,28,22,14,11,0.7,0.6
2024-08-29T0000,1306A,116.7675,36.5484,济南市,长清党校,,39,39,38,12,21,71,,175,126,31,25,7,10,0.8,0.8
2024-08-29T0000,1616A,117.6795,36.229,济南市,技术学院,,31,29,37,12,21,99,,174,144,16,13,10,11,1.0,0.9
2024-08-29T0000,1961A,117.532,36.6868,济南市,东山小学,颗粒物(PM10),55,59,47,15,19,62,,181,119,50,33,8,8,1.0,0.8
2024-08-29T0000,3059A,117.7161,36.2049,济南市,泰兴公司,,26,24,35,12,18,82,,167,139,37,21,10,10,0.8,0.7
2024-08-29T0000,3064A,117.6867,36.2171,济南市,莱芜战役纪念馆,,31,27,38,12,18,97,,169,144,19,13,7,8,0.7,0.6
2024-08-29T0000,3494A,117.1673,36.9782,济南市,济阳区政府,,30,22,25,10,9,94,,128,102,8,13,12,11,0.6,0.6
2024-08-29T0000,3495A,117.1171,36.63,济南市,锦屏中学,,32,32,35,20,18,34,,179,118,31,20,4,7,0.7,0.7
2024-08-29T0000,3682A,116.9814,36.6819,济南市,济南四建,,24,24,33,7,14,68,,137,98,21,21,7,8,0.6,0.6
2024-08-29T0000,1653A,116.6251,35.4302,济宁市,火炬城,,50,50,33,22,15,93,,158,137,24,12,10,10,0.9,0.8
2024-08-29T0000,1655A,116.5491,35.4042,济宁市,电化厂,,,46,37,22,27,,,165,,23,15,8,9,0.9,0.7
2024-08-29T0000,3500A,116.5814,35.3707,济宁市,北湖一中,,43,43,36,22,14,121,,164,150,21,14,7,6,0.6,0.5
2024-08-29T0000,3501A,116.8249,35.5593,济宁市,服务中心,,48,48,34,21,14,95,,156,131,27,10,6,6,0.6,0.5
2024-08-29T0000,3678A,116.5907,35.4054,济宁市,市第七中学,,37,37,34,22,15,104,,159,142,25,15,8,8,0.9,0.7
2024-08-29T0000,2255A,130.2751,46.8028,佳木斯市,佳纺,,20,20,18,10,9,28,,72,53,18,10,6,7,0.6,0.6
2024-08-29T0000,2256A,130.3995,46.8307,佳木斯市,发电厂,,22,22,23,11,12,30,,69,57,17,12,7,6,0.6,0.6
2024-08-29T0000,2257A,130.3258,46.7975,佳木斯市,环保局,,26,26,25,11,12,36,,67,56,19,13,8,8,0.7,0.6
2024-08-29T0000,2258A,130.3648,46.8032,佳木斯市,十一中,,24,24,23,12,13,33,,65,53,25,18,7,7,0.6,0.6
2024-08-29T0000,2259A,130.3794,46.7588,佳木斯市,四丰,,,15,10,8,6,46,,64,55,,,1,1,0.5,0.5
2024-08-29T0000,1252A,120.7436,30.778,嘉兴市,清河小学,,21,16,27,11,16,67,,153,96,23,18,3,3,0.9,1
2024-08-29T0000,1253A,120.726,30.7478,嘉兴市,嘉兴学院,,,,52,12,21,,,132,90,,20,2,2,0.7,0.7
2024-08-29T0000,2872A,120.7846,30.7525,嘉兴市,南湖区残联,,37,22,29,17,22,117,,129,127,17,14,4,4,0.7,0.7
2024-08-29T0000,3407A,120.6916,30.7739,嘉兴市,秀洲住建,,30,30,27,18,20,48,,142,86,16,15,4,4,0.5,0.8
2024-08-29T0000,1945A,98.2908,39.7711,嘉峪关市,气象局,颗粒物(PM10),52,53,74,14,18,96,,142,130,24,14,3,7,0.4,0.4
2024-08-29T0000,2884A,98.2672,39.7978,嘉峪关市,酒钢宾馆,,40,36,75,14,19,127,,140,136,9,14,12,11,0.3,0.6
2024-08-29T0000,3248A,98.2643,39.7724,嘉峪关市,雄关区,,46,46,69,10,13,100,,135,124,22,17,10,10,0.3,0.2
2024-08-29T0000,1383A,113.1064,22.6058,江门市,北街,,35,29,34,24,22,74,,138,88,18,15,4,4,0.7,0.7
2024-08-29T0000,1384A,113.0731,22.5835,江门市,西区,,45,45,33,21,21,72,,142,91,21,15,6,7,0.6,0.5
2024-08-29T0000,1385A,113.0219,22.5311,江门市,圭峰西,,38,29,37,26,26,53,,115,85,16,11,2,3,0.8,0.8
2024-08-29T0000,1386A,113.0828,22.5947,江门市,东湖,,33,33,35,20,20,62,,136,84,16,13,4,5,0.5,0.5
2024-08-29T0000,3311A,113.1075,22.5647,江门市,江海富民,,36,36,41,23,22,87,,147,101,20,16,6,6,0.6,0.6
2024-08-29T0000,3449A,113.05,22.4667,江门市,新会银湖,,50,36,40,35,28,39,,135,80,31,13,3,5,0.5,0.6
2024-08-29T0000,1828A,113.227,35.2125,焦作市,市环保局,,38,38,36,20,17,97,,134,124,23,22,10,8,0.7,0.7
2024-08-29T0000,1830A,113.1992,35.2590,焦作市,影视城,,,,,,,,,,,,,,,,
2024-08-29T0000,3169A,113.2725,35.2067,焦作市,太极体育中心,,50,50,42,20,14,93,,135,121,17,15,7,11,0.7,0.6
2024-08-29T0000,3335A,113.3137,35.2641,焦作市,马村街道办,,41,41,32,16,12,97,,135,122,17,14,5,4,0.4,0.5
2024-08-29T0000,3336A,113.2465,35.2373,焦作市,焦作技师学院,,,,36,,17,,,135,124,,15,,9,,0.8
2024-08-29T0000,3477A,113.1656,35.2539,焦作市,中站许衡医院,,33,33,31,21,20,103,,142,122,20,17,4,7,0.5,0.7
2024-08-29T0000,3981A,113.2449,35.1803,焦作市,原李万街道办,,43,43,36,17,12,98,,144,130,15,16,18,9,0.7,0.8
2024-08-29T0000,1708A,116.3701,23.5345,揭阳市,新兴,,41,41,40,20,26,32,,115,62,28,13,7,5,0.9,0.8
2024-08-29T0000,1709A,116.3264,23.5443,揭阳市,西马,,46,46,42,25,24,35,,106,61,23,11,6,5,0.9,0.7
2024-08-29T0000,1710A,116.3611,23.5626,揭阳市,东兴,,48,48,47,21,22,32,,109,69,28,10,5,4,1.0,0.8
2024-08-29T0000,1711A,116.4151,23.5294,揭阳市,渔湖,,36,36,42,19,21,35,,119,64,35,16,8,5,0.6,0.6
2024-08-29T0000,3320A,116.403,23.5699,揭阳市,曲溪,,32,32,35,19,22,35,,109,61,28,16,5,2,0.7,0.6
2024-08-29T0000,1944A,102.1692,38.5167,金昌市,天庆家园,,44,44,38,27,21,79,,138,114,28,18,8,11,1.1,0.7
2024-08-29T0000,3170A,102.1864,38.5253,金昌市,市委党校,,47,47,45,19,19,94,,110,,19,19,32,13,0.6,0.6
2024-08-29T0000,4022A,102.1647,38.5371,金昌市,金川区人防中心,颗粒物(PM10),59,67,41,31,22,62,,135,110,44,15,12,11,1.2,0.7
2024-08-29T0000,1262A,119.647,29.077,金华市,十五中,,42,42,32,18,13,93,,146,124,19,13,2,2,0.6,0.6
2024-08-29T0000,1263A,119.686,29.1029,金华市,监测站,,46,46,32,27,19,79,,146,118,29,16,3,2,0.7,0.6
2024-08-29T0000,3659A,119.656,29.1131,金华市,气象局,,38,38,30,20,15,78,,141,112,33,17,5,4,0.8,0.7
2024-08-29T0000,1767A,121.1115,41.0879,锦州市,南山,细颗粒物(PM2.5),72,,28,52,14,20,,111,64,57,22,22,9,0.7,0.6
2024-08-29T0000,1768A,121.0533,40.8434,锦州市,开发区,颗粒物(PM10),57,64,57,27,17,6,,88,37,70,32,24,21,0.7,0.8
2024-08-29T0000,1769A,121.1836,41.1119,锦州市,百股街道,,22,22,21,7,4,32,,95,59,19,16,9,11,0.7,0.7
2024-08-29T0000,1770A,121.1178,41.1222,锦州市,天安街道,颗粒物(PM10),58,65,31,38,14,27,,113,63,54,27,39,13,2.1,0.9
2024-08-29T0000,1771A,121.1303,41.1386,锦州市,北湖公园,细颗粒物(PM2.5),114,,25,86,14,37,,114,75,46,18,33,9,1.3,0.7
2024-08-29T0000,2160A,112.85,35.5051,晋城市,自来水公司,,40,26,29,12,9,127,,160,144,19,20,10,11,0.8,1.2
2024-08-29T0000,2161A,112.8318,35.4936,晋城市,白云商贸,颗粒物(PM10),62,74,43,9,5,120,,161,142,24,19,10,12,0.8,1.1
2024-08-29T0000,2162A,112.8508,35.4887,晋城市,市环保局,,49,49,40,17,11,116,,157,137,22,20,10,12,0.7,1.2
2024-08-29T0000,2163A,112.8676,35.4897,晋城市,技术学院,,42,42,32,22,10,109,,157,138,30,20,11,12,0.8,1
2024-08-29T0000,2165A,112.8453,35.546,晋城市,白马寺,,,,,,,,,,,,,,,,
2024-08-29T0000,3620A,112.8271,35.4828,晋城市,泽州一中,,35,35,28,12,8,101,,158,127,22,19,12,13,0.9,1.2
2024-08-29T0000,2171A,112.7532,37.6945,晋中市,锦纶小区,,31,31,21,7,6,81,,142,124,22,18,12,10,0.6,0.3
2024-08-29T0000,2173A,112.7249,37.7067,晋中市,南都小区,,32,32,22,14,16,64,,142,116,37,20,7,6,0.8,0.6
2024-08-29T0000,2174A,112.6991,37.6982,晋中市,榆次区政府,,39,39,24,13,14,67,,146,118,35,20,10,8,0.4,0.3
2024-08-29T0000,2865A,112.7195,37.6828,晋中市,榆次三中,,31,31,24,7,6,82,,137,121,19,17,10,8,0.6,0.4
2024-08-29T0000,2439A,112.2014,31.0481,荆门市,竹园小学,,46,46,36,20,12,101,,136,116,14,13,11,12,0.6,0.6
2024-08-29T0000,2440A,112.1969,30.9891,荆门市,掇刀,,41,41,31,20,14,111,,138,122,12,12,9,6,0.6,0.5
2024-08-29T0000,2441A,112.2213,31.0386,荆门市,石化一小,,40,40,36,10,6,105,,137,117,12,11,8,14,0.5,0.5
2024-08-29T0000,3012A,112.1849,31.0362,荆门市,西山林语,,43,43,30,21,14,102,,141,119,18,12,10,9,0.6,0.6
2024-08-29T0000,3547A,112.1632,31.0138,荆门市,龙泉中学南校,,40,40,33,18,13,105,,140,122,17,10,12,10,0.6,0.5
2024-08-29T0000,1844A,112.2494,30.3197,荆州市,市图书馆,,25,,24,15,13,77,,128,107,11,12,6,8,0.7,0.7
2024-08-29T0000,1845A,112.2008,30.3544,荆州市,市委党校,,29,16,23,15,12,90,,136,115,8,9,10,10,0.7,0.7
2024-08-29T0000,3194A,112.2747,30.3122,荆州市,管委会,,40,30,22,28,17,74,,129,105,13,12,6,7,0.6,0.6
2024-08-29T0000,3548A,112.1655,30.3364,荆州市,学苑路,,32,31,28,22,14,100,,143,120,9,10,9,11,0.7,0.7
2024-08-29T0000,2342A,117.3102,29.3867,景德镇市,王港中学,,,,,,,,,,,,,,,,
2024-08-29T0000,2343A,117.2117,29.2933,景德镇市,老干部活动中心,,14,12,18,3,10,44,,71,58,8,9,10,9,0.4,0.4
2024-08-29T0000,2344A,117.1894,29.2789,景德镇市,兽医站,,16,16,33,7,10,36,,70,58,7,9,7,11,0.4,0.4
2024-08-29T0000,2345A,117.1547,29.2617,景德镇市,台达陶瓷,,16,16,25,10,14,43,,62,48,12,17,7,24,0.3,0.4
2024-08-29T0000,2346A,117.2461,29.2956,景德镇市,陶研所,,18,18,27,3,9,27,,80,58,10,11,4,11,0.3,0.3
2024-08-29T0000,1803A,115.9872,29.6815,九江市,十里,,20,18,23,14,11,48,,95,72,18,14,8,9,0.8,0.8
2024-08-29T0000,1804A,115.9584,29.7046,九江市,茅山头,,23,23,18,9,11,52,,92,72,19,17,11,10,0.8,0.7
2024-08-29T0000,1805A,115.9877,29.7295,九江市,西园,,43,,20,30,15,55,,98,79,21,14,21,12,0.7,0.6
2024-08-29T0000,1806A,116.0172,29.6547,九江市,五七二七厂,,26,20,18,18,10,44,,86,67,13,14,7,7,0.6,0.6
2024-08-29T0000,1808A,115.9114,29.6038,九江市,综合工业园,,28,23,17,19,14,45,,95,74,37,16,7,9,0.8,0.8
2024-08-29T0000,1809A,116.0721,29.7535,九江市,石化总厂,,35,28,22,24,14,57,,98,78,20,13,10,10,0.8,0.7
2024-08-29T0000,1810A,115.9773,29.5698,九江市,庐山气象台,,30,6,5,3,4,93,,88,88,3,6,9,7,0.6,0.8
2024-08-29T0000,3190A,116.0254,29.6994,九江市,外国语学校,,28,26,24,19,13,46,,101,78,24,16,8,9,1.0,1
2024-08-29T0000,2658A,98.5061,39.7443,酒泉市,仓门街子站,,41,41,73,17,16,118,,140,133,11,12,12,10,0.4,0.3
2024-08-29T0000,2659A,98.4989,39.7256,酒泉市,油田生活基地,,48,48,69,10,8,117,,143,137,12,12,10,10,0.3,0.3
2024-08-29T0000,2698A,76.0072,39.4467,喀什地区,巡警大队,颗粒物(PM10),95,140,68,30,8,65,,109,99,40,23,4,4,0.6,0.5
2024-08-29T0000,2699A,75.9755,39.4694,喀什地区,吾办,颗粒物(PM10),77,104,69,38,22,72,,115,104,22,25,2,4,0.7,0.7
2024-08-29T0000,4027A,75.9483,39.4689,喀什地区,老干局,颗粒物(PM10),97,143,74,24,12,61,,116,101,32,21,3,3,0.6,0.5
2024-08-29T0000,1824A,114.3389,34.7781,开封市,肿瘤医院,,36,36,30,12,11,102,,149,132,15,9,5,6,0.4,0.4
2024-08-29T0000,1826A,114.2885,34.7965,开封市,世纪星幼儿园,,,28,28,,12,104,,141,128,14,12,6,9,0.5,0.6
2024-08-29T0000,3147A,114.3438,34.8106,开封市,龙亭公园,颗粒物(PM10),69,87,34,16,13,89,,143,121,20,12,4,5,0.6,0.6
2024-08-29T0000,3210A,114.3644,34.7964,开封市,汴京公园,,37,37,30,21,16,94,,148,127,16,10,6,6,0.5,0.5
2024-08-29T0000,3473A,114.2485,34.8306,开封市,技师学院,,33,33,30,17,10,93,,143,122,21,12,20,6,0.7,0.6
2024-08-29T0000,3592A,114.4644,34.7556,开封市,祥符区生态环境局,,32,30,35,22,20,68,,145,104,36,16,11,7,0.6,0.5
2024-08-29T0000,1951A,84.895,45.6094,克拉玛依市,长征新村,,33,27,31,6,7,103,,114,107,3,7,6,7,0.2,0.2
2024-08-29T0000,1952A,84.8988,45.5893,克拉玛依市,南林小区,,33,24,30,15,14,105,,108,88,5,20,8,9,0.2,0.4
2024-08-29T0000,1954A,84.905,44.3396,克拉玛依市,独山子区,,42,42,43,22,15,128,,142,139,7,9,12,11,0.4,0.4
2024-08-29T0000,1955A,85.6979,46.098,克拉玛依市,乌尔禾区商贸楼,,34,14,29,3,10,106,,101,89,3,13,7,8,0.2,0.2
2024-08-29T0000,3612A,85.1045,45.6899,克拉玛依市,白碱滩区新站,,37,20,34,10,6,117,,117,117,4,8,9,9,0.3,0.4
2024-08-29T0000,2697A,76.1454,39.7142,克孜勒苏柯尔克孜自治州,市人民政府,颗粒物(PM10),76,102,46,35,18,69,,125,111,38,12,2,3,0.3,0.3
2024-08-29T0000,3665A,76.1658,39.7157,克孜勒苏柯尔克孜自治州,克州文化中心,颗粒物(PM10),70,89,42,35,19,88,,127,115,20,8,4,9,0.4,0.4
2024-08-29T0000,1450A,102.8204,24.8886,昆明市,呈贡新区,,25,23,28,17,14,47,,92,74,26,18,5,6,0.6,0.6
2024-08-29T0000,1451A,102.6251,24.9608,昆明市,西山森林公园,,,,,,,,,,,,,,,,
2024-08-29T0000,1452A,102.7252,25.0902,昆明市,龙泉镇,,32,32,22,8,10,68,,120,94,15,16,7,7,0.7,0.6
2024-08-29T0000,1453A,102.7266,25.0375,昆明市,东风东路,,28,28,25,14,14,63,,110,89,14,17,5,6,0.5,0.5
2024-08-29T0000,1454A,102.6742,25.0669,昆明市,金鼎山,,25,25,22,11,6,70,,118,99,14,14,4,6,0.5,0.3
2024-08-29T0000,1455A,102.6644,25.0401,昆明市,碧鸡广场,,46,46,26,23,13,42,,105,82,32,15,4,4,0.5,0.5
2024-08-29T0000,3179A,102.7494,25.0119,昆明市,官渡区博物馆,,22,22,27,7,11,62,,112,91,14,18,7,7,0.4,0.3
2024-08-29T0000,3375A,102.8017,24.8336,昆明市,青年创业园,,28,28,22,15,15,40,,95,76,31,16,4,4,0.5,0.5
2024-08-29T0000,3550A,102.7997,24.9786,昆明市,昆明学院,,42,42,32,25,18,52,,106,85,28,18,8,7,0.5,0.4
2024-08-29T0000,3551A,102.5967,24.6736,昆明市,晋宁区生态环境分局,颗粒物(PM10),55,59,26,34,16,38,,101,79,22,11,8,9,0.6,0.4
2024-08-29T0000,3552A,102.6678,24.9856,昆明市,云天化总部,,24,18,18,12,13,76,,105,94,6,11,5,6,0.5,0.5
2024-08-29T0000,1456A,91.1319,29.6514,拉萨市,八廓街,,27,15,19,7,12,86,,126,111,18,17,8,8,0.2,0.2
2024-08-29T0000,1457A,91.1221,29.6747,拉萨市,市环保局,,24,22,19,11,10,74,,125,104,21,22,8,9,0.3,0.3
2024-08-29T0000,1458A,91.0874,29.6475,拉萨市,区监测站,,28,11,19,8,10,88,,121,103,19,24,8,8,0.3,0.3
2024-08-29T0000,1459A,91.1774,29.6541,拉萨市,西藏大学,,32,8,14,6,7,101,,126,118,7,8,7,8,0.0,0
2024-08-29T0000,1460A,90.9798,29.6588,拉萨市,区辐射站,,26,22,22,8,11,81,,119,106,17,21,8,9,0.2,0.2
2024-08-29T0000,1461A,91.0834,29.6292,拉萨市,拉萨火车站,,26,11,16,7,9,83,,118,108,18,20,5,5,0.4,0.2
2024-08-29T0000,2520A,109.2203,23.7256,来宾市,来宾技工学校,,36,36,47,24,31,52,,101,84,14,17,10,12,0.8,0.8
2024-08-29T0000,3535A,109.1781,23.7297,来宾市,兴宾区政府,,40,40,37,27,22,55,,102,85,10,9,5,5,0.9,0.8
2024-08-29T0000,4002A,109.2416,23.7461,来宾市,中南小学,,39,30,47,27,26,61,,113,94,14,21,6,12,0.8,0.9
2024-08-29T0000,1476A,103.631,36.1031,兰州市,兰炼宾馆,,42,34,36,29,21,70,,144,111,4,19,3,7,0.3,0.5
2024-08-29T0000,1477A,104.1373,35.9454,兰州市,榆中兰大校区,,,,,,,,,,,,,,,,
2024-08-29T0000,1478A,103.8412,36.0726,兰州市,生物制品所,,33,33,28,23,17,65,,134,99,13,19,7,8,0.4,0.5
2024-08-29T0000,1479A,103.831,36.0464,兰州市,铁路设计院,,33,28,37,23,19,66,,134,93,13,32,8,10,0.6,0.7
2024-08-29T0000,3186A,103.7158,36.1058,兰州市,教育港,,44,44,46,24,25,64,,142,103,8,22,5,6,0.4,0.5
2024-08-29T0000,3241A,103.7439,36.0842,兰州市,百合公园,,28,26,33,19,15,71,,143,108,11,25,8,8,0.5,0.6
2024-08-29T0000,3242A,103.9611,35.998,兰州市,和平,,30,30,33,17,17,70,,140,98,9,13,8,9,0.5,0.4
2024-08-29T0000,3245A,103.6633,36.533,兰州新区,新区管委会,,32,32,36,15,18,74,,127,106,12,11,13,17,0.5,0.6
2024-08-29T0000,3246A,103.6975,36.4789,兰州新区,舟曲中学,,47,47,36,18,15,79,,126,104,11,13,17,22,0.6,0.5
2024-08-29T0000,1067A,116.6708,39.5111,廊坊市,药材公司,,34,34,36,15,17,65,,151,97,16,26,2,2,0.3,0.3
2024-08-29T0000,1068A,116.7214,39.5589,廊坊市,开发区,,32,32,33,17,19,17,,154,91,24,27,3,2,0.5,0.4
2024-08-29T0000,1070A,116.7244,39.5269,廊坊市,北华航天学院,颗粒物(PM10),55,59,49,20,19,24,,159,98,35,26,1,2,0.7,0.6
2024-08-29T0000,2919A,116.7022,39.5453,廊坊市,河北工业大学,,38,38,40,23,19,61,,160,110,31,25,2,2,0.5,0.4
2024-08-29T0000,2535A,103.7723,29.5462,乐山市,花湖湾,细颗粒物(PM2.5),72,77,50,52,41,101,,179,150,27,23,6,8,0.6,0.7
2024-08-29T0000,2536A,103.7627,29.5844,乐山市,牛耳桥,细颗粒物(PM2.5),77,77,51,56,38,95,,180,134,30,25,3,3,0.9,0.7
2024-08-29T0000,2537A,103.7508,29.6006,乐山市,市第三水厂,细颗粒物(PM2.5),77,85,54,56,41,113,,192,162,29,21,2,3,0.8,0.6
2024-08-29T0000,2538A,103.7571,29.5664,乐山市,市监测站,颗粒物(PM10),59,68,48,37,34,106,,184,154,23,17,5,7,0.7,0.6
2024-08-29T0000,3361A,103.7311,29.5628,乐山市,理工大学,细颗粒物(PM2.5),67,62,53,48,39,102,,194,156,25,20,6,8,0.8,0.8
2024-08-29T0000,2598A,100.2143,26.8576,丽江市,西南郊,,,,,,,,,,,,,,,,
2024-08-29T0000,2599A,100.2497,26.8802,丽江市,丽江古城,,35,35,23,23,15,46,,101,83,25,12,8,9,0.7,0.7
2024-08-29T0000,2600A,100.2203,26.8906,丽江市,市中心,,32,24,18,22,13,64,,105,96,18,11,9,9,0.6,0.6
2024-08-29T0000,1267A,119.914,28.4514,丽水市,监测站大楼,,19,17,20,12,9,59,,113,76,13,10,3,3,0.4,0.3
2024-08-29T0000,1268A,119.93,28.4586,丽水市,莲都小学,,25,21,22,17,12,53,,117,77,18,10,4,4,0.6,0.5
2024-08-29T0000,1269A,119.879,28.4231,丽水市,余庄前,,19,19,20,12,12,28,,105,66,14,11,4,4,0.5,0.5
2024-08-29T0000,1173A,119.176,34.5885,连云港市,市环境监测站,,31,29,20,12,10,97,,129,122,20,10,7,6,0.4,0.4
2024-08-29T0000,3000A,119.3581,34.6972,连云港市,德源药业,,35,27,19,9,8,110,,126,119,9,8,5,5,0.4,0.4
2024-08-29T0000,3007A,119.178,34.844,连云港市,新城一中,,42,22,19,12,12,132,,146,136,8,9,2,3,0.7,0.8
2024-08-29T0000,3008A,119.3608,34.7519,连云港市,胡沟管理处,,39,22,20,9,8,124,,123,123,4,5,7,8,0.5,0.5
2024-08-29T0000,3009A,119.1478,34.5911,连云港市,矿山设计院,,34,34,25,17,11,89,,126,113,20,11,5,4,0.6,0.6
2024-08-29T0000,3434A,119.2413,34.6539,连云港市,工贸学校,,29,25,21,19,13,92,,129,123,22,7,7,6,0.7,0.7
2024-08-29T0000,3664A,119.4172,34.7341,连云港市,连云街道,,38,26,23,14,10,119,,128,128,17,12,4,4,0.5,0.5
2024-08-29T0000,2571A,102.3431,27.8099,凉山彝族自治州,青龙寺,,26,,15,15,26,83,,138,108,6,6,6,7,0.3,0.4
2024-08-29T0000,2572A,102.2721,27.8415,凉山彝族自治州,邛海宾馆,,29,29,33,20,22,66,,141,101,21,12,10,14,0.5,0.6
2024-08-29T0000,2573A,102.2625,27.898,凉山彝族自治州,西昌市政府,,28,27,32,14,23,87,,143,110,5,9,11,15,0.7,0.8
2024-08-29T0000,2574A,102.2685,27.8851,凉山彝族自治州,凉山州政府,,43,43,44,24,23,80,,148,113,12,12,8,12,0.7,0.7
2024-08-29T0000,2575A,102.237,27.8914,凉山彝族自治州,长安,,42,41,36,29,36,84,,142,110,9,14,11,17,0.7,0.8
2024-08-29T0000,2212A,123.2,41.1953,辽阳市,宏伟区,,45,45,38,14,12,40,,142,100,28,24,8,11,1.0,1
2024-08-29T0000,2213A,123.1683,41.2495,辽阳市,新华园,颗粒物(PM10),52,53,47,17,16,31,,128,82,48,30,9,12,1.0,1.1
2024-08-29T0000,2214A,123.2354,41.2639,辽阳市,滨河路,颗粒物(PM10),52,54,43,20,15,49,,132,83,30,25,9,11,0.7,1
2024-08-29T0000,2215A,123.149,41.2991,辽阳市,铁西工业园,,48,48,49,27,16,45,,112,71,21,24,9,12,1.3,1.4
2024-08-29T0000,2227A,125.1358,42.8845,辽源市,环保局,,34,34,21,13,9,12,,108,47,19,15,6,6,0.7,0.7
2024-08-29T0000,3239A,125.0764,42.9078,辽源市,银鹰制药,,24,24,21,14,8,8,,108,40,34,19,7,5,0.7,0.7
2024-08-29T0000,1625A,115.9848,36.4372,聊城市,区政府,,29,22,27,9,12,90,,136,116,18,14,9,10,0.5,0.5
2024-08-29T0000,2878A,116.0072,36.4343,聊城市,聊大东校,,29,29,29,18,18,86,,141,118,18,12,13,11,0.5,0.5
2024-08-29T0000,3200A,115.9819,36.4978,聊城市,监控中心,颗粒物(PM10),51,52,32,19,15,37,,128,97,54,19,7,8,0.4,0.4
2024-08-29T0000,3513A,116.0445,36.4361,聊城市,九州社区,,34,34,36,20,16,70,,134,106,19,12,8,11,0.4,0.5
2024-08-29T0000,4018A,116.0567,36.4608,聊城市,星美广场,,42,42,35,12,13,76,,132,105,21,16,16,10,0.3,0.3
2024-08-29T0000,2632A,94.3681,29.6376,林芝市,林芝监测站,,17,,8,7,6,54,,88,80,4,4,10,10,0.4,0.4
2024-08-29T0000,2633A,94.3616,29.6616,林芝市,林芝人民医院,,23,23,17,7,6,55,,85,77,7,6,7,7,0.3,0.2
2024-08-29T0000,2603A,100.0781,23.8982,临沧市,市环保局,,27,27,18,11,13,24,,61,46,12,9,5,5,0.3,0.2
2024-08-29T0000,2604A,100.0894,23.8822,临沧市,市气象局,,19,19,15,11,12,25,,60,46,9,8,4,4,0.3,0.3
2024-08-29T0000,1733A,111.5531,36.0783,临汾市,临钢医院,颗粒物(PM10),62,73,43,19,16,38,,168,99,55,18,7,10,0.8,0.8
2024-08-29T0000,1734A,111.5028,36.0714,临汾市,技工学校,颗粒物(PM10),62,73,45,26,17,41,,160,101,57,23,5,8,0.5,0.7
2024-08-29T0000,1736A,111.5018,36.0855,临汾市,市委,颗粒物(PM10),59,68,44,19,11,47,,174,107,46,21,5,8,0.6,0.7
2024-08-29T0000,3018A,111.505,36.1014,临汾市,唐尧大酒店,颗粒物(PM10),68,85,58,23,12,36,,161,101,48,22,6,7,0.7,0.8
2024-08-29T0000,3668A,111.5036,36.0414,临汾市,城南,颗粒物(PM10),58,66,37,16,16,42,,172,102,41,18,5,7,0.7,0.7
2024-08-29T0000,2667A,103.2069,35.5993,临夏回族自治州,环保局,,48,43,32,33,25,26,,96,59,21,14,8,8,0.7,0.6
2024-08-29T0000,2668A,103.2417,35.6057,临夏回族自治州,建设大厦,,45,45,41,25,16,14,,105,63,27,15,6,7,0.6,0.5
2024-08-29T0000,1618A,118.3429,35.0532,临沂市,沂河小区,,30,29,25,14,13,94,,138,110,15,10,9,7,0.3,0.4
2024-08-29T0000,1619A,118.295,35.0583,临沂市,鲁南制药厂,,35,17,18,6,11,110,,151,125,18,13,6,5,0.3,0.3
2024-08-29T0000,1620A,118.2794,34.9976,临沂市,新光毛纺厂,,27,27,16,12,7,82,,141,112,24,18,8,6,0.6,0.6
2024-08-29T0000,1621A,118.3956,35.0888,临沂市,河东保险公司,,29,24,20,18,9,90,,137,105,26,19,9,8,0.5,0.5
2024-08-29T0000,3370A,118.3564,35.0215,临沂市,十里堡居委,,,24,14,17,10,,,141,108,,12,11,8,0.6,0.5
2024-08-29T0000,3496A,118.3604,35.1084,临沂市,南坊新区,,29,24,23,3,7,91,,144,110,24,14,8,9,0.5,0.5
2024-08-29T0000,3860A,118.3920,35.0300,临沂市,皇山花园小区,,44,44,26,18,14,60,,132,92,38,19,9,7,0.4,0.4
2024-08-29T0000,1870A,109.4856,24.3895,柳州市,柳东小学,,30,30,36,14,23,45,,107,68,14,20,12,11,0.7,0.7
2024-08-29T0000,1871A,109.4157,24.3277,柳州市,环保监测站,,46,46,41,23,26,46,,114,67,13,17,10,10,0.8,0.9
2024-08-29T0000,1872A,109.389,24.341,柳州市,河西水厂,,44,44,54,26,31,36,,110,62,14,21,11,12,1.0,1.1
2024-08-29T0000,1873A,109.4311,24.2921,柳州市,市四中,,46,46,44,23,26,53,,123,76,15,18,11,9,0.8,0.7
2024-08-29T0000,1874A,109.4006,24.3631,柳州市,市九中,颗粒物(PM10),58,66,52,29,27,48,,114,66,13,18,10,9,0.6,0.6
2024-08-29T0000,1875A,109.4958,24.3134,柳州市,古亭山,,25,22,35,17,22,48,,117,77,14,19,7,9,0.9,0.9
2024-08-29T0000,3402A,109.5422,24.3996,柳州市,市二中,,37,37,45,19,28,40,,107,66,16,20,8,13,0.7,0.7
2024-08-29T0000,2307A,116.5079,31.737,六安市,监测大楼,,23,12,11,7,12,72,,88,84,2,3,5,5,0.4,0.5
2024-08-29T0000,2308A,116.4738,31.7643,六安市,皖西学院,,24,17,15,11,12,76,,84,82,4,4,4,4,0.3,0.4
2024-08-29T0000,2309A,116.4996,31.7905,六安市,朝阳厂,,25,,9,8,12,77,,85,84,1,2,1,1,0.3,0.4
2024-08-29T0000,2310A,116.5567,31.7886,六安市,开发区,,22,12,12,11,12,69,,83,81,3,6,3,3,0.4,0.4
2024-08-29T0000,2576A,104.8,26.5892,六盘水市,窑上,,,,,,,,,,,,,,,,
2024-08-29T0000,2577A,104.83,26.5917,六盘水市,黄土坡,,16,16,21,8,14,47,,97,72,17,12,7,9,0.4,0.4
2024-08-29T0000,2578A,104.89,26.5939,六盘水市,水钢,,31,31,26,11,10,57,,96,76,16,13,7,8,0.4,0.5
2024-08-29T0000,2579A,104.8475,26.5894,六盘水市,民中,,22,22,22,12,11,55,,97,82,21,12,8,8,0.5,0.4
2024-08-29T0000,2580A,104.9544,26.5506,六盘水市,双水,,19,19,18,9,7,59,,91,75,12,7,6,6,0.3,0.3
2024-08-29T0000,2335A,117.0189,25.1181,龙岩市,龙岩师专,,,,,,,,,,,,,,,,
2024-08-29T0000,2336A,117.0217,25.1033,龙岩市,龙岩市监测站,,18,16,29,12,17,54,,76,62,10,16,9,6,0.4,0.5
2024-08-29T0000,2337A,117.0258,25.0661,龙岩市,闽西职业技术学院,,20,20,40,14,21,56,,77,62,7,16,6,14,0.5,0.5
2024-08-29T0000,2338A,117.0196,25.0306,龙岩市,龙岩学院,,22,22,29,13,17,44,,76,58,10,10,2,3,0.5,0.5
2024-08-29T0000,2665A,105.0822,33.3261,陇南市,汉王镇固水子,,,,,,,,,,,,,,,,
2024-08-29T0000,2885A,104.9339,33.3826,陇南市,滨江中学,,46,46,41,20,19,55,,90,64,7,10,5,6,0.4,0.4
2024-08-29T0000,3247A,104.955,33.371,陇南市,市总工会,,29,29,29,7,8,56,,90,72,7,6,6,7,0.3,0.3
2024-08-29T0000,2487A,111.9589,27.8901,娄底市,电视发射台,,30,30,25,14,11,90,,104,99,5,5,7,7,0.6,0.6
2024-08-29T0000,2488A,111.9975,27.725,娄底市,市监测站,,36,29,27,25,17,112,,108,108,6,8,3,5,0.4,0.5
2024-08-29T0000,2489A,112.0194,27.7314,娄底市,市委党校,,33,30,25,14,13,105,,100,100,2,4,5,6,0.3,0.5
2024-08-29T0000,2490A,111.9561,27.7569,娄底市,涟钢,,31,29,30,21,15,97,,87,87,5,12,13,14,0.7,1
2024-08-29T0000,2491A,111.9892,27.7044,娄底市,市政府,,36,27,23,25,16,114,,108,108,8,8,6,6,0.6,0.6
2024-08-29T0000,1893A,105.4324,28.9634,泸州市,九狮山,,37,37,35,21,22,32,,154,90,6,3,5,6,0.6,0.5
2024-08-29T0000,1894A,105.4427,28.9063,泸州市,小市上码头,,28,28,36,17,20,64,,151,104,15,21,7,11,0.3,0.4
2024-08-29T0000,1895A,105.4241,28.8573,泸州市,兰田宪桥,,32,32,37,20,27,47,,153,94,21,18,9,8,0.4,0.4
2024-08-29T0000,1896A,105.4379,28.8833,泸州市,市环监站,,40,33,39,28,29,52,,142,95,22,21,11,11,0.4,0.5
2024-08-29T0000,3490A,105.3617,28.7703,泸州市,纳溪区环保局,,42,42,46,24,33,25,,152,86,35,22,5,8,0.3,0.3
2024-08-29T0000,2183A,111.1406,37.5211,吕梁市,环保局,,49,49,38,12,13,54,,133,96,37,23,3,3,0.5,0.5
2024-08-29T0000,2185A,111.1297,37.5136,吕梁市,自来水公司,颗粒物(PM10),55,59,47,15,13,49,,137,105,39,24,2,2,0.5,0.5
2024-08-29T0000,2867A,111.1283,37.51,吕梁市,马茂庄小学,颗粒物(PM10),57,64,56,3,8,57,,139,105,48,32,3,5,0.5,0.5
2024-08-29T0000,1812A,112.3931,34.6516,洛阳市,市委党校,,38,38,29,17,14,100,,152,128,14,11,7,8,0.6,0.6
2024-08-29T0000,1814A,112.4657,34.6871,洛阳市,豫西宾馆,,42,42,30,17,11,78,,142,112,28,13,7,7,0.5,0.5
2024-08-29T0000,1815A,112.494,34.6886,洛阳市,河南林校,,38,38,25,17,13,79,,145,115,29,15,8,7,0.6,0.6
2024-08-29T0000,1816A,112.3844,34.623,洛阳市,开发区管委会,,32,32,25,16,14,88,,148,124,16,11,1,2,0.4,0.4
2024-08-29T0000,1817A,112.4267,34.6258,洛阳市,市委新办公区,,38,38,27,23,17,95,,142,119,10,7,3,5,0.5,0.5
2024-08-29T0000,3340A,112.6005,34.6326,洛阳市,伊滨,颗粒物(PM10),58,66,33,26,17,68,,140,114,19,14,8,8,0.5,0.4
2024-08-29T0000,3341A,112.4951,34.6332,洛阳市,中移产业园,,47,47,30,27,15,76,,146,118,30,17,6,5,0.6,0.5
2024-08-29T0000,3593A,112.5736,34.8993,洛阳市,吉利监测站,,47,47,32,17,14,70,,153,119,25,15,4,6,0.5,0.5
2024-08-29T0000,3635A,112.3677,34.662,洛阳市,河科大西苑校区,,35,35,26,15,14,99,,154,129,16,13,6,7,0.6,0.6
2024-08-29T0000,3636A,112.4388,34.6781,洛阳市,英才小学,,30,28,28,21,18,96,,148,117,13,10,5,5,0.5,0.5
2024-08-29T0000,2399A,114.051,33.5699,漯河市,三五一五工厂,颗粒物(PM10),52,54,34,25,16,95,,122,110,15,10,8,8,0.6,0.6
2024-08-29T0000,2400A,114.0055,33.5698,漯河市,漯河大学,颗粒物(PM10),52,53,36,24,17,73,,130,109,23,10,10,10,0.7,0.6
2024-08-29T0000,2401A,114.0138,33.5828,漯河市,市水利局,颗粒物(PM10),54,58,34,27,17,71,,124,104,26,10,10,9,0.9,0.8
2024-08-29T0000,2402A,114.0261,33.5698,漯河市,市广电局,颗粒物(PM10),51,51,34,22,12,75,,123,108,22,10,10,10,0.7,0.6
2024-08-29T0000,3478A,113.9749,33.5664,漯河市,市图书馆,细颗粒物(PM2.5),60,62,38,43,19,69,,133,104,16,9,6,7,0.6,0.6
2024-08-29T0000,3479A,114.0967,33.5906,漯河市,召陵区卫健委,颗粒物(PM10),59,67,39,34,22,71,,117,94,21,11,5,5,0.5,0.5
2024-08-29T0000,1798A,118.5092,31.6837,马鞍山市,湖东路四小,,19,18,24,10,15,59,,127,96,13,14,4,4,0.6,0.8
2024-08-29T0000,1799A,118.5024,31.6449,马鞍山市,开发区,,22,17,24,10,15,68,,120,100,8,13,5,5,0.7,0.9
2024-08-29T0000,1800A,118.5228,31.7231,马鞍山市,慈湖,,23,23,28,14,14,39,,130,90,23,13,6,6,0.7,0.8
2024-08-29T0000,1802A,118.6245,31.7241,马鞍山市,濮塘,,14,14,15,7,14,27,,111,78,13,14,5,5,0.7,0.8
2024-08-29T0000,3633A,118.4918,31.6809,马鞍山市,雨山,,19,19,20,12,13,56,,124,93,9,10,8,6,0.7,0.9
2024-08-29T0000,1686A,111.0286,21.4688,茂名市,电白南海,,,36,34,,19,64,,94,85,10,10,16,13,0.8,0.7
2024-08-29T0000,1687A,110.9294,21.6533,茂名市,茂石化七小,,41,41,28,27,22,49,,76,66,13,8,18,12,0.7,0.4
2024-08-29T0000,1688A,110.9107,21.6687,茂名市,健康路,,34,34,25,19,13,49,,80,67,15,9,32,22,0.7,0.6
2024-08-29T0000,1689A,110.8592,21.6828,茂名市,高岭,颗粒物(PM10),51,51,27,27,14,29,,71,56,24,12,21,15,0.8,0.7
2024-08-29T0000,3450A,111.01,21.5165,茂名市,电白水东,,34,34,27,22,18,56,,84,76,11,10,20,13,0.6,0.5
2024-08-29T0000,2539A,104.0308,30.0478,眉山市,黑龙滩水库,颗粒物(PM10),58,66,47,26,30,120,,184,156,9,9,5,6,0.6,0.5
2024-08-29T0000,2540A,103.8416,30.0874,眉山市,气象局,细颗粒物(PM2.5),52,51,52,36,36,86,,223,171,46,35,9,10,0.7,0.7
2024-08-29T0000,3137A,103.8578,30.0744,眉山市,市委党校,颗粒物(PM10),57,63,54,36,30,99,,228,182,39,27,8,10,0.5,0.5
2024-08-29T0000,3148A,103.8291,30.0564,眉山市,区人社局,,45,39,39,31,29,120,,224,185,27,30,9,11,0.7,0.6
2024-08-29T0000,1690A,116.1231,24.3284,梅州市,梅江月梅,,24,24,32,3,15,46,,96,70,19,12,6,6,0.4,0.5
2024-08-29T0000,1691A,116.0797,24.2719,梅州市,梅县新城,,20,20,27,9,17,46,,89,64,12,10,4,5,0.5,0.6
2024-08-29T0000,1692A,116.1248,24.2654,梅州市,环境监控中心,,20,20,27,10,18,36,,96,66,19,12,4,5,0.4,0.4
2024-08-29T0000,3315A,116.1233,24.2991,梅州市,梅龙,,17,17,24,9,18,52,,106,78,19,10,8,9,0.6,0.6
2024-08-29T0000,1878A,104.7778,31.4741,绵阳市,富乐山,,35,31,32,24,23,86,,123,113,6,8,3,3,0.7,0.7
2024-08-29T0000,1879A,104.7563,31.4535,绵阳市,市人大,,32,32,36,21,20,78,,117,102,11,16,9,10,0.6,0.6
2024-08-29T0000,1880A,104.6697,31.4668,绵阳市,高新区自来水公司,,31,31,34,14,17,70,,123,106,16,13,2,2,0.7,0.8
2024-08-29T0000,1881A,104.7287,31.5075,绵阳市,三水厂,,42,34,38,29,24,59,,120,104,21,16,5,5,0.6,0.7
2024-08-29T0000,3491A,104.69,31.5322,绵阳市,西科大附属小学,,35,35,35,24,21,63,,116,99,22,14,5,6,0.6,0.6
2024-08-29T0000,3492A,104.5648,31.5343,绵阳市,安州区旅游局,,35,33,38,24,26,79,,122,106,12,12,7,7,0.6,0.6
2024-08-29T0000,1784A,129.61,44.561,牡丹江市,环保大楼,,15,10,18,10,14,14,,81,37,12,10,6,7,0.3,0.5
2024-08-29T0000,1785A,129.6115,44.5782,牡丹江市,文化广场,,31,31,22,18,17,5,,78,32,24,14,7,7,0.6,0.4
2024-08-29T0000,1786A,129.5904,44.5963,牡丹江市,第一医院,,28,21,24,19,13,18,,77,33,12,12,6,6,0.5,0.5
2024-08-29T0000,1787A,129.6364,44.6075,牡丹江市,机车工厂,,28,28,25,13,14,12,,78,34,14,10,6,6,0.5,0.4
2024-08-29T0000,1788A,129.6386,44.5462,牡丹江市,第一中学,,23,23,28,10,12,6,,85,28,17,10,6,6,0.4,0.4
2024-08-29T0000,2531A,105.0703,29.61,内江市,市监测站,细颗粒物(PM2.5),59,47,42,42,48,96,,202,141,17,23,6,9,0.4,0.6
2024-08-29T0000,2532A,105.0717,29.5947,内江市,东兴区政府,细颗粒物(PM2.5),59,51,44,42,43,100,,200,153,14,23,10,11,0.6,0.6
2024-08-29T0000,2533A,105.0653,29.5817,内江市,内江二中,细颗粒物(PM2.5),69,55,54,50,50,101,,188,147,14,25,8,7,0.7,0.7
2024-08-29T0000,2534A,105.0406,29.5822,内江市,内江日报社,细颗粒物(PM2.5),65,,52,47,48,93,,204,153,30,28,9,9,0.6,0.6
2024-08-29T0000,2628A,92.0657,31.4846,那曲市,那曲监测站,,32,8,28,6,24,101,,100,100,5,6,7,7,0.5,0.5
2024-08-29T0000,3128A,92.0506,31.4797,那曲市,那曲会议中心,,35,6,25,3,9,110,,114,113,4,7,4,4,0.5,0.5
2024-08-29T0000,1290A,115.8931,28.6843,南昌市,省外办,,25,25,21,17,10,77,,95,87,13,10,7,8,0.5,0.5
2024-08-29T0000,1291A,115.8886,28.7003,南昌市,省林业公司,,24,19,14,12,7,76,,96,89,11,9,5,6,0.7,0.7
2024-08-29T0000,1292A,115.8126,28.7442,南昌市,林科所,,28,,4,7,3,88,,90,85,11,11,6,6,0.8,0.7
2024-08-29T0000,1294A,115.8518,28.687,南昌市,建工学校,,27,23,16,11,8,84,,91,89,6,8,8,8,0.6,0.5
2024-08-29T0000,1295A,115.8921,28.6424,南昌市,象湖,,26,17,12,8,7,83,,103,95,13,8,4,4,0.9,0.8
2024-08-29T0000,1296A,115.7423,28.7996,南昌市,武术学校,,16,11,16,11,10,38,,78,55,8,4,2,2,0.7,0.6
2024-08-29T0000,1298A,115.9314,28.6842,南昌市,省站,,23,,24,16,9,72,,92,81,12,10,8,8,0.7,0.7
2024-08-29T0000,3046A,115.9084,28.6062,南昌市,机电学校,,26,21,20,12,5,82,,96,88,12,11,6,6,0.9,0.4
2024-08-29T0000,3690A,115.9721,28.7031,南昌市,外国语学校,,23,20,17,12,7,72,,95,84,20,13,5,5,0.7,0.6
2024-08-29T0000,1905A,106.056,30.8064,南充市,西山风景区,细颗粒物(PM2.5),62,46,35,44,33,92,,140,121,10,9,2,2,0.7,0.7
2024-08-29T0000,1906A,106.0789,30.8023,南充市,南充市委,细颗粒物(PM2.5),58,59,53,41,33,97,,147,123,10,14,8,8,0.5,0.5
2024-08-29T0000,1907A,106.1031,30.8217,南充市,南充炼油厂,细颗粒物(PM2.5),67,62,52,48,33,95,,148,128,11,12,7,7,0.6,0.5
2024-08-29T0000,1908A,106.1064,30.7856,南充市,高坪区监测站,细颗粒物(PM2.5),73,64,57,53,40,80,,138,110,15,16,6,7,0.6,0.5
2024-08-29T0000,1909A,106.0642,30.7636,南充市,嘉陵区环保局,,49,46,49,34,32,90,,146,116,17,18,5,6,0.5,0.5
2024-08-29T0000,1910A,106.1087,30.8388,南充市,市环境监测站,细颗粒物(PM2.5),57,62,49,40,31,93,,145,127,15,13,7,7,0.4,0.4
2024-08-29T0000,1151A,118.8086,32.1065,南京市,迈皋桥,,14,12,15,9,11,42,,89,59,26,16,4,4,0.2,0.3
2024-08-29T0000,1152A,118.7538,32.0551,南京市,草场门,,18,9,14,7,9,57,,101,70,20,15,5,5,0.2,0.4
2024-08-29T0000,1153A,118.7794,32.0745,南京市,山西路,,19,19,18,9,12,55,,102,71,22,22,4,4,0.3,0.4
2024-08-29T0000,1154A,118.7752,32.0023,南京市,中华门,,16,14,15,7,9,50,,91,60,13,12,4,4,0.3,0.4
2024-08-29T0000,1155A,118.8109,32.0309,南京市,瑞金路,,21,17,18,9,10,66,,106,75,6,9,4,4,0.4,0.6
2024-08-29T0000,1156A,118.7997,32.0754,南京市,玄武湖,,16,16,21,7,7,47,,98,68,24,12,4,4,0.5,0.6
2024-08-29T0000,1157A,118.6414,32.0931,南京市,浦口,,17,17,21,3,10,52,,99,71,13,13,7,8,0.5,0.6
2024-08-29T0000,1158A,118.7356,31.9996,南京市,奥体中心,,21,12,16,12,13,67,,113,80,13,12,4,3,0.1,0.3
2024-08-29T0000,1159A,118.9125,32.1028,南京市,仙林大学城,,25,,18,17,16,43,,103,74,20,12,7,7,0.5,0.6
2024-08-29T0000,3422A,118.8436,31.9198,南京市,江宁彩虹桥,,20,17,21,7,10,64,,116,81,3,7,4,4,0.4,0.6
2024-08-29T0000,3423A,119.0138,31.6494,南京市,溧水永阳,,19,,16,10,13,60,,117,91,11,9,4,4,0.4,0.5
2024-08-29T0000,3424A,118.879,31.3302,南京市,高淳老职中,,20,14,13,12,13,61,,115,103,10,8,2,3,0.2,0.3
2024-08-29T0000,3427A,118.8554,32.3578,南京市,六合雄州,,24,24,20,14,11,52,,85,59,11,14,3,3,0.5,0.5
2024-08-29T0000,1401A,108.3103,22.7881,南宁市,二十一中,,42,39,32,29,21,78,,117,92,16,16,5,4,0.7,0.7
2024-08-29T0000,1402A,108.3141,22.8528,南宁市,北湖,,50,50,37,26,24,69,,113,87,18,19,8,7,0.8,0.8
2024-08-29T0000,1403A,108.3206,22.8225,南宁市,市监测站,,46,46,36,27,20,74,,110,87,20,19,8,7,0.7,0.6
2024-08-29T0000,1404A,108.3829,22.8037,南宁市,大自然花园,,43,38,31,30,21,71,,124,93,20,18,6,6,0.6,0.6
2024-08-29T0000,1405A,108.4394,22.7904,南宁市,仙葫,细颗粒物(PM2.5),59,49,36,42,22,68,,128,95,16,14,8,8,0.6,0.6
2024-08-29T0000,1406A,108.2397,22.8467,南宁市,区农职院,颗粒物(PM10),69,88,46,26,28,68,,96,78,20,19,13,16,0.7,0.7
2024-08-29T0000,1407A,108.3275,22.735,南宁市,英华嘉园,,34,34,39,23,20,71,,100,85,19,19,6,7,0.6,0.5
2024-08-29T0000,1408A,108.2257,22.7757,南宁市,沙井镇街道办,,50,50,44,20,18,60,,99,77,36,22,4,5,0.7,0.6
2024-08-29T0000,3401A,108.4834,22.7618,南宁市,红星社区,,45,45,33,28,23,59,,155,97,20,14,6,6,0.8,0.7
2024-08-29T0000,2331A,118.0966,26.6761,南平市,茫荡山,,,,,,,,,,,,,,,,
2024-08-29T0000,2332A,118.1681,26.6369,南平市,南平市监测站,,22,22,24,11,15,37,,75,53,11,13,5,5,0.6,0.6
2024-08-29T0000,2333A,118.1825,26.6489,南平市,南平铝业有限公司,,26,26,24,11,11,19,,76,51,19,14,7,7,0.6,0.6
2024-08-29T0000,2334A,118.1756,26.6272,南平市,南平七中,,27,27,31,11,16,23,,65,35,10,13,4,5,0.5,0.6
2024-08-29T0000,1168A,120.9098,31.9663,南通市,狼山街道,,20,20,16,3,11,60,,82,77,8,9,6,6,0.5,0.6
2024-08-29T0000,1169A,120.86,32.0005,南通市,虹桥,,21,18,20,7,11,65,,77,74,5,9,5,5,0.4,0.5
2024-08-29T0000,1170A,120.87,32.02,南通市,城中,,,19,24,3,10,,,80,78,15,14,5,6,0.6,0.8
2024-08-29T0000,1171A,120.94,31.93,南通市,星湖花园,,23,8,15,3,7,72,,80,78,7,13,4,4,0.7,0.9
2024-08-29T0000,1172A,120.81,32.0417,南通市,紫琅学院,,19,9,14,3,8,60,,79,72,11,13,6,7,0.9,1
2024-08-29T0000,3291A,121.067,32.062,南通市,通州监测站,,24,17,22,3,10,74,,87,83,4,9,3,4,0.6,0.7
2024-08-29T0000,3432A,120.9348,31.9883,南通市,环境教育馆,,22,22,25,3,10,59,,84,78,10,10,4,4,0.4,0.5
2024-08-29T0000,2404A,112.5224,33.0122,南阳市,瓦房庄,,38,29,29,3,13,119,,146,132,8,11,6,7,0.5,0.5
2024-08-29T0000,2405A,112.5003,32.9735,南阳市,汉画馆,,36,33,31,18,18,115,,139,128,9,11,6,6,0.5,0.5
2024-08-29T0000,2406A,112.5573,33.027,南阳市,气象站,,36,27,26,12,10,115,,145,132,8,10,6,7,0.7,0.7
2024-08-29T0000,2407A,112.5481,32.9689,南阳市,理工学院,,,,29,,8,,,142,136,,11,,6,,0.5
2024-08-29T0000,4008A,112.5234,32.9922,南阳市,卧龙区政府,,37,27,28,19,14,118,,139,127,6,12,5,6,0.6,0.6
2024-08-29T0000,1234A,121.8358,29.911,宁波市,区环保大楼,,17,14,28,8,14,52,,105,69,18,25,8,9,0.5,0.7
2024-08-29T0000,1235A,121.56,29.82,宁波市,万里学院,,49,,28,34,19,88,,125,99,19,22,10,10,0.8,0.7
2024-08-29T0000,1236A,121.713,29.9572,宁波市,龙赛医院,,21,21,22,11,12,45,,105,76,23,22,7,8,0.6,0.6
2024-08-29T0000,1239A,121.633,29.7733,宁波市,钱湖水厂,,49,47,26,34,16,69,,118,74,21,19,7,7,0.7,0.6
2024-08-29T0000,1240A,121.5856,29.8635,宁波市,太古小学,细颗粒物(PM2.5),59,66,26,42,14,72,,111,86,23,18,6,6,1.1,1
2024-08-29T0000,1241A,121.524,29.8674,宁波市,市环境监测中心,,47,47,28,27,14,87,,130,110,19,18,4,4,0.8,0.7
2024-08-29T0000,2871A,121.6147,29.9017,宁波市,万里国际学校,,43,43,20,26,13,65,,112,73,30,22,6,6,0.7,0.6
2024-08-29T0000,3710A,121.5594,29.8975,宁波市,白沙活动中心,细颗粒物(PM2.5),58,,23,41,14,74,,119,97,24,16,8,7,0.7,0.6
2024-08-29T0000,2339A,119.5001,26.6946,宁德市,金涵水库,,,,,,,,,,,,,,,,
2024-08-29T0000,2341A,119.5388,26.6612,宁德市,宁德市监测站,,22,18,25,15,19,68,,113,78,10,10,5,5,0.6,0.6
2024-08-29T0000,3209A,119.5231,26.6562,宁德市,宁德一中,,23,16,28,16,19,59,,110,77,5,7,4,4,0.7,0.7
2024-08-29T0000,2618A,98.8601,25.8567,怒江傈僳族自治州,州监测站,,36,36,24,23,16,30,,85,65,20,11,6,6,0.5,0.4
2024-08-29T0000,2619A,98.8546,25.8417,怒江傈僳族自治州,泸水一中,,25,20,23,17,15,20,,78,54,24,15,5,5,0.5,0.4
2024-08-29T0000,1888A,101.6891,26.571,攀枝花市,弄弄坪,颗粒物(PM10),52,54,55,24,28,49,,137,96,21,21,10,21,0.5,0.8
2024-08-29T0000,1889A,101.5769,26.5928,攀枝花市,河门口,,42,42,45,29,29,57,,157,120,26,26,10,30,1.0,2
2024-08-29T0000,1890A,101.7169,26.585,攀枝花市,炳草岗,细颗粒物(PM2.5),79,91,50,58,36,41,,146,107,49,22,31,33,0.7,0.6
2024-08-29T0000,1891A,101.7369,26.5008,攀枝花市,仁和,,22,22,40,13,28,45,,127,81,14,14,4,18,0.6,0.7
2024-08-29T0000,2835A,101.7227,26.567,攀枝花市,四十中小,颗粒物(PM10),54,57,36,37,24,35,,151,105,52,19,23,46,0.9,0.9
2024-08-29T0000,1604A,122.0303,41.1489,盘锦市,开发区,,27,27,20,15,10,11,,129,78,46,20,6,6,0.6,0.4
2024-08-29T0000,1605A,122.0485,41.0883,盘锦市,兴隆台,,29,27,22,9,8,13,,135,63,57,30,6,5,0.7,0.6
2024-08-29T0000,1606A,121.8297,41.1028,盘锦市,新生街道,,22,16,13,7,5,7,,110,56,44,21,11,7,0.6,0.6
2024-08-29T0000,1832A,113.3257,33.742,平顶山市,新华旅馆,,39,39,35,23,27,107,,144,119,14,8,6,6,0.6,0.6
2024-08-29T0000,1833A,113.2919,33.737,平顶山市,规划设计院,,27,27,26,13,12,75,,147,117,24,13,7,8,0.6,0.6
2024-08-29T0000,1834A,113.182,33.774,平顶山市,平顶山工学院,,27,23,26,14,9,85,,146,120,16,11,7,9,0.8,0.8
2024-08-29T0000,3204A,113.3025,33.73,平顶山市,规划局,,34,34,30,14,16,73,,136,107,27,11,3,4,0.5,0.5
2024-08-29T0000,3594A,112.8867,33.9116,平顶山市,石龙区,颗粒物(PM10),56,61,41,13,12,47,,119,96,32,15,7,7,0.5,0.4
2024-08-29T0000,2656A,106.6692,35.5461,平凉市,聚贤嘉苑,颗粒物(PM10),57,63,43,29,22,41,,105,74,54,24,12,11,0.5,0.5
2024-08-29T0000,2657A,106.7021,35.5307,平凉市,博物馆,颗粒物(PM10),57,64,54,30,23,59,,101,84,50,28,13,10,0.6,0.5
2024-08-29T0000,2347A,114.0997,27.5002,萍乡市,武功山,,17,,9,3,4,52,,106,64,6,6,8,9,0.5,0.5
2024-08-29T0000,2348A,113.8385,27.6434,萍乡市,中医院,,36,32,26,25,17,77,,96,86,7,9,5,8,0.6,0.8
2024-08-29T0000,2349A,113.8493,27.6253,萍乡市,市政府车库,,29,,22,20,14,64,,91,80,8,6,6,10,0.6,0.6
2024-08-29T0000,2350A,113.8676,27.6435,萍乡市,市环保局,,25,25,23,14,14,69,,88,81,4,5,5,8,0.5,0.6
2024-08-29T0000,2351A,113.866,27.6198,萍乡市,安源区政府,,32,32,21,20,13,62,,90,80,9,7,10,12,0.4,0.4
2024-08-29T0000,2319A,119.0141,25.4325,莆田市,荔城区仓后路,,,,52,17,33,29,,123,49,16,18,6,7,0.8,0.8
2024-08-29T0000,2320A,119.0015,25.4553,莆田市,莆田市监测站,,19,19,47,3,24,32,,123,49,4,11,6,7,0.5,0.6
2024-08-29T0000,2321A,119.1119,25.4561,莆田市,涵江区六中,,26,26,46,10,31,33,,147,49,13,21,6,6,0.6,0.6
2024-08-29T0000,2322A,119.1013,25.3215,莆田市,秀屿区政府,,40,40,49,18,27,29,,138,60,27,20,8,8,0.7,0.7
2024-08-29T0000,2323A,118.981,25.4792,莆田市,东圳水库,,,,,,,,,,,,,,,,
2024-08-29T0000,2392A,115.0312,35.7636,濮阳市,环保局,,35,33,26,14,14,111,,140,126,13,13,8,8,0.4,0.4
2024-08-29T0000,2394A,115.0574,35.7609,濮阳市,油田运输公司,,33,26,25,16,14,105,,142,126,13,10,4,4,0.6,0.5
2024-08-29T0000,2395A,115.0866,35.7754,濮阳市,油田物探公司,,32,32,27,17,17,95,,144,122,19,10,8,7,0.5,0.4
2024-08-29T0000,3021A,115,35.7668,濮阳市,濮水河管理处,,29,23,24,20,16,89,,130,116,10,11,4,5,0.4,0.4
2024-08-29T0000,2601A,100.98,22.7633,普洱市,市环保局,,,27,22,3,11,,,46,,5,6,3,10,0.5,0.5
2024-08-29T0000,2602A,100.9817,22.8322,普洱市,普洱第二中学,,19,18,20,13,12,13,,54,30,7,6,8,9,0.6,0.6
2024-08-29T0000,2262A,131.0518,45.8751,七台河市,新一中,,25,23,21,17,13,26,,102,44,16,13,10,10,1.1,1
2024-08-29T0000,3345A,131.0577,45.7879,七台河市,中波台,,13,13,20,3,6,33,,58,34,16,22,10,11,0.3,0.3
2024-08-29T0000,3637A,131.0176,45.7761,七台河市,人民广场,,19,15,26,13,11,26,,59,38,14,12,9,9,0.4,0.4
2024-08-29T0000,3684A,130.8781,45.8222,七台河市,新建矿广场,颗粒物(PM10),100,149,53,26,15,9,,54,20,32,21,9,8,0.4,0.5
2024-08-29T0000,1779A,123.9305,47.3636,齐齐哈尔市,安居小区,,29,25,23,20,9,46,,62,58,13,13,11,11,0.5,0.5
2024-08-29T0000,1780A,123.9488,47.3386,齐齐哈尔市,中心广场,,48,48,26,21,11,48,,62,57,14,12,3,3,0.4,0.4
2024-08-29T0000,1781A,123.9483,47.3227,齐齐哈尔市,农牧车辆厂,,36,36,25,12,5,48,,66,63,14,9,8,8,0.2,0.2
2024-08-29T0000,1783A,123.945,47.2988,齐齐哈尔市,市环境监测站,,28,28,18,13,8,46,,68,64,13,8,7,8,0.4,0.3
2024-08-29T0000,3662A,123.6333,47.2075,齐齐哈尔市,富区青少年活动中心,颗粒物(PM10),55,60,19,28,5,36,,65,55,20,8,3,3,1.1,0.6
2024-08-29T0000,2591A,107.9783,26.5747,黔东南苗族侗族自治州,市环境监测站,,23,18,21,15,17,72,,82,79,4,10,3,3,0.5,0.6
2024-08-29T0000,2881A,107.8908,26.5311,黔东南苗族侗族自治州,凯里学院,,22,,22,15,14,70,,89,83,6,8,2,2,0.7,0.8
2024-08-29T0000,2593A,107.5228,26.2403,黔南布依族苗族自治州,小围寨,,18,12,13,12,6,47,,72,60,6,7,3,4,0.5,0.5
2024-08-29T0000,3538A,107.5175,26.2978,黔南布依族苗族自治州,沙坝,,22,14,18,12,9,69,,84,72,1,1,4,4,0.6,0.6
2024-08-29T0000,2589A,104.9022,25.0925,黔西南布依族苗族自治州,场坝街,,26,22,18,18,10,37,,62,51,12,10,4,12,0.4,0.3
2024-08-29T0000,2590A,104.8811,25.0992,黔西南布依族苗族自治州,坪东大道,,35,35,20,18,9,21,,62,41,20,10,6,8,0.4,0.3
2024-08-29T0000,2502A,108.6236,21.9667,钦州市,市环保站,,25,24,32,14,17,80,,106,94,12,12,8,8,0.6,0.6
2024-08-29T0000,2503A,108.6549,21.9481,钦州市,沙埠小学,颗粒物(PM10),67,83,42,21,21,47,,114,84,34,15,10,7,0.7,0.6
2024-08-29T0000,2504A,108.5989,21.7431,钦州市,港区一小,,46,46,37,17,18,53,,106,87,22,12,12,13,0.7,0.7
2024-08-29T0000,3404A,108.5959,21.9633,钦州市,北职校,,47,47,38,22,25,67,,106,89,13,11,5,6,0.7,0.7
2024-08-29T0000,1042A,119.5134,39.8207,秦皇岛市,北戴河环保局,,37,37,24,3,6,56,,102,89,21,15,2,2,0.5,0.4
2024-08-29T0000,1043A,119.7493,40.0116,秦皇岛市,第一关,,38,,21,21,16,2,,100,45,75,29,3,2,0.4,0.3
2024-08-29T0000,1044A,119.5897,39.9499,秦皇岛市,监测站,,36,21,22,11,15,0,,97,56,72,20,1,3,0.5,0.4
2024-08-29T0000,1046A,119.5251,39.9041,秦皇岛市,建设大厦,,47,47,26,3,7,4,,107,60,53,16,12,4,0.4,0.3
2024-08-29T0000,3132A,119.610547,39.943889,秦皇岛市,文明里,,23,21,19,16,8,35,,100,66,40,19,10,3,0.5,0.5
2024-08-29T0000,1307A,120.6659,36.2403,青岛市,仰口,,35,,16,17,14,112,,113,112,3,5,6,6,0.1,0.2
2024-08-29T0000,1310A,120.4134,36.0658,青岛市,市南区东部子站,,35,22,27,7,5,111,,131,130,2,15,6,6,0.4,0.5
2024-08-29T0000,1311A,120.3664,36.1032,青岛市,四方区子站,,40,17,25,9,11,127,,137,121,1,17,9,10,0.7,0.7
2024-08-29T0000,1312A,120.2994,36.054,青岛市,市南区西部子站,,39,19,26,7,9,124,,134,126,2,14,7,8,0.6,0.7
2024-08-29T0000,1313A,120.4581,36.0858,青岛市,崂山区子站,,36,31,27,7,6,114,,134,132,8,14,8,8,0.4,0.5
2024-08-29T0000,1314A,120.1983,35.9608,青岛市,黄岛区子站,,38,,24,15,15,121,,130,120,12,34,7,9,0.5,0.5
2024-08-29T0000,1315A,120.3999,36.3083,青岛市,城阳区子站,,27,27,20,17,9,84,,122,102,19,14,6,7,0.6,0.6
2024-08-29T0000,1966A,120.0405,35.8735,青岛市,黄岛区4号,,36,36,24,14,9,78,,136,108,33,23,9,9,0.7,0.6
2024-08-29T0000,3362A,120.5014,36.4034,青岛市,即墨2号,,31,29,21,12,12,99,,114,111,6,9,6,6,0.4,0.5
2024-08-29T0000,3642A,120.3503,36.0736,青岛市,市北区南部,,34,29,30,9,10,106,,132,116,9,24,8,10,0.6,0.6
2024-08-29T0000,3643A,120.3948,36.1805,青岛市,李沧区北部,,34,34,22,19,12,84,,123,104,28,19,10,8,0.7,0.6
2024-08-29T0000,1702A,113.0426,23.691,清远市,环保大楼,,23,23,35,13,22,63,,104,65,10,14,6,10,0.8,0.8
2024-08-29T0000,1703A,113.0208,23.7106,清远市,凤城街办,,22,22,34,11,21,45,,91,52,9,12,6,6,0.6,0.6
2024-08-29T0000,3025A,113.0477,23.6344,清远市,技师学院,,25,25,35,12,19,48,,109,65,16,18,4,4,0.9,1.6
2024-08-29T0000,3318A,112.9903,23.7403,清远市,清新太和,,23,19,11,16,17,47,,90,49,4,6,4,4,0.7,0.7
2024-08-29T0000,3455A,113.076,23.7198,清远市,清城东城,,16,16,30,8,18,44,,97,56,6,8,6,6,0.6,0.5
2024-08-29T0000,2661A,107.6325,35.7357,庆阳市,庆阳五中,,42,35,32,14,14,133,,130,130,6,7,6,6,0.6,0.6
2024-08-29T0000,2662A,107.6364,35.7067,庆阳市,市环保局,,41,31,26,12,12,129,,127,127,7,7,8,8,0.8,0.8
2024-08-29T0000,1916A,103.7897,25.5035,曲靖市,环境监测站,,29,29,35,15,14,43,,101,78,17,16,16,9,0.8,0.7
2024-08-29T0000,1917A,103.8,25.5364,曲靖市,烟厂办公区,,,,26,,14,,,19,,,18,,4,,0.4
2024-08-29T0000,3376A,103.7947,25.462,曲靖市,南苑二区,,31,31,19,14,12,46,,107,82,14,10,25,12,0.6,0.5
2024-08-29T0000,3377A,103.7444,25.5261,曲靖市,曲靖师范学院,,23,23,30,14,19,52,,113,91,14,15,14,27,0.6,0.6
2024-08-29T0000,1264A,118.8692,28.9398,衢州市,环保大楼,,24,24,20,15,13,53,,128,86,24,12,2,2,0.6,0.6
2024-08-29T0000,1265A,118.8709,28.9666,衢州市,实验学校,,24,24,21,14,15,45,,125,78,26,12,4,5,0.6,0.5
2024-08-29T0000,1266A,118.8621,28.9808,衢州市,衢州学院,,22,22,21,13,14,38,,120,66,28,18,6,6,0.4,0.4
2024-08-29T0000,1611A,118.5819,24.9117,泉州市,涂山街,,25,21,48,17,31,48,,168,57,19,21,3,2,0.7,0.8
2024-08-29T0000,1612A,118.5972,24.8978,泉州市,津头埔,,23,22,50,16,34,48,,170,59,20,22,5,3,0.8,0.9
2024-08-29T0000,1613A,118.6663,24.9424,泉州市,万安,,23,23,44,15,30,39,,153,51,18,23,3,3,0.6,0.6
2024-08-29T0000,1614A,118.6117,24.9604,泉州市,清源山,,,,,,,,,,,,,,,,
2024-08-29T0000,3529A,118.6333,24.9264,泉州市,城华南路,细颗粒物(PM2.5),89,,40,66,62,38,,143,47,12,17,4,3,0.6,0.6
2024-08-29T0000,2626A,88.8876,29.2718,日喀则市,日喀则监测站,,27,10,9,6,5,84,,105,99,8,7,6,5,0.4,0.3
2024-08-29T0000,3726A,88.8781,29.2426,日喀则市,林业技术推广中心,,29,8,4,3,3,91,,101,100,5,6,8,7,0.4,0.4
2024-08-29T0000,1659A,119.471,35.4209,日照市,监测站,,28,27,20,18,11,89,,139,106,21,16,11,11,0.6,0.5
2024-08-29T0000,1660A,119.523,35.4216,日照市,市政府广场,,36,19,18,15,10,113,,141,122,13,11,12,11,0.6,0.5
2024-08-29T0000,1661A,119.5587,35.4044,日照市,港务局,,40,19,22,18,15,126,,147,124,8,8,14,11,0.7,0.6
2024-08-29T0000,3507A,119.5328,35.4625,日照市,职业技术学院,,38,27,20,7,9,120,,147,116,14,13,10,10,0.7,0.6
2024-08-29T0000,3604A,119.3266,35.1044,日照市,岚山环保分局,颗粒物(PM10),51,51,33,17,11,77,,136,116,36,24,27,20,2.4,2.1
2024-08-29T0000,1835A,111.1922,34.7752,三门峡市,市政府,,38,26,25,12,11,121,,148,140,14,14,16,12,0.6,0.5
2024-08-29T0000,1836A,111.1587,34.7942,三门峡市,开发区,,35,26,27,6,11,112,,158,146,16,15,13,12,0.5,0.6
2024-08-29T0000,1838A,111.143,34.7955,三门峡市,风景区,,,,,,,,,,,,,,,,
2024-08-29T0000,3039A,111.1911,34.7829,三门峡市,三门峡市第一小学,,37,20,18,3,11,117,,151,142,14,14,10,11,0.6,0.6
2024-08-29T0000,3598A,111.1,34.7167,三门峡市,富达温泉假日酒店,,44,44,32,14,12,84,,152,140,24,10,10,10,0.8,0.8
2024-08-29T0000,2324A,117.6211,26.2625,三明市,三钢,,26,26,30,10,18,19,,73,47,18,16,6,8,0.8,1
2024-08-29T0000,2325A,117.635,26.2714,三明市,三明二中,,20,20,24,11,18,26,,75,49,17,16,3,5,0.6,0.6
2024-08-29T0000,2326A,117.6028,26.2378,三明市,三元区政府,,37,37,33,14,18,22,,71,45,16,16,2,3,0.8,0.6
2024-08-29T0000,2327A,117.7275,26.3108,三明市,洋溪,,,,,,,,,,,,,,,,
2024-08-29T0000,1876A,109.5078,18.2489,三亚市,河东子站,,31,31,19,15,9,27,,74,51,21,10,3,3,0.4,0.4
2024-08-29T0000,1877A,109.4964,18.2681,三亚市,河西子站,,28,28,17,15,12,15,,72,45,20,7,3,3,0.2,0.2
2024-08-29T0000,3540A,109.7348,18.3443,三亚市,君悦子站,,19,19,19,8,8,6,,69,21,15,12,2,2,0.3,0.3
2024-08-29T0000,2624A,91.7608,29.2313,山南市,山南监测站,,,10,14,3,6,,,118,,6,7,8,8,0.3,0.3
2024-08-29T0000,2625A,91.7706,29.2436,山南市,山南人民医院,,27,8,17,3,10,86,,116,107,7,10,8,8,0.4,0.4
2024-08-29T0000,1674A,116.6794,23.3667,汕头市,金平子站,,32,22,42,22,24,23,,121,64,24,16,5,5,0.8,0.9
2024-08-29T0000,1675A,116.7244,23.3633,汕头市,龙湖子站,,25,25,35,6,17,50,,123,71,18,15,6,7,0.8,0.7
2024-08-29T0000,1676A,116.7258,23.2775,汕头市,濠江子站,,38,26,36,26,34,44,,140,79,21,17,5,6,0.9,0.8
2024-08-29T0000,1677A,116.7519,23.4714,汕头市,澄海子站,,19,17,39,11,24,60,,132,79,16,16,6,5,0.9,0.9
2024-08-29T0000,1678A,116.6092,23.2539,汕头市,潮阳子站,,,,35,,28,57,,142,88,,7,6,6,,0.8
2024-08-29T0000,3444A,116.454,23.2684,汕头市,潮南峡山,,30,30,37,12,23,54,,120,72,6,7,5,5,0.8,0.7
2024-08-29T0000,3624A,116.4069,23.2533,汕头市,潮南子站,,42,42,40,29,25,50,,118,72,16,12,4,4,0.7,0.7
2024-08-29T0000,1693A,115.3653,22.775,汕尾市,市环保局,,20,18,26,14,18,51,,147,81,12,14,6,6,0.7,0.7
2024-08-29T0000,1694A,115.3706,22.7898,汕尾市,市政府,,19,19,27,8,21,38,,132,66,13,14,6,6,0.5,0.5
2024-08-29T0000,1695A,115.3622,22.7925,汕尾市,新城中学,,31,31,30,19,18,26,,130,64,16,13,5,6,0.8,0.7
2024-08-29T0000,2645A,109.9154,33.8715,商洛市,监测站,,32,32,22,10,12,31,,125,78,24,12,3,5,0.6,0.7
2024-08-29T0000,3045A,109.9643,33.8471,商洛市,商州区中学,,35,35,28,9,12,30,,118,68,27,15,7,7,0.8,0.8
2024-08-29T0000,2408A,115.6702,34.4285,商丘市,环境监测站,,47,47,32,23,17,118,,136,131,14,13,7,5,0.6,0.6
2024-08-29T0000,2409A,115.6458,34.4045,商丘市,粮食局,,42,41,33,28,20,133,,147,143,12,10,8,7,0.5,0.5
2024-08-29T0000,2410A,115.6293,34.3948,商丘市,睢阳区环保局,,50,50,35,28,21,124,,155,,11,9,10,7,0.4,0.4
2024-08-29T0000,3171A,115.6071,34.4465,商丘市,梁园区档案局,,43,43,36,30,22,98,,148,137,16,10,7,8,0.6,0.6
2024-08-29T0000,1141A,121.4,31.238,上海市,普陀,,21,15,24,7,21,66,,83,64,14,20,5,6,0.3,0.6
2024-08-29T0000,1142A,121.478,31.2036,上海市,十五厂,,22,16,23,12,22,70,,88,67,10,18,8,9,0.5,0.7
2024-08-29T0000,1143A,121.467,31.3008,上海市,虹口,,20,15,22,10,23,63,,79,68,15,17,7,8,0.6,0.8
2024-08-29T0000,1144A,121.412,31.1654,上海市,徐汇上师大,,20,16,25,12,27,64,,90,66,18,24,5,5,1.0,1
2024-08-29T0000,1145A,121.536,31.2659,上海市,杨浦四漂,,24,15,23,11,22,74,,86,71,8,16,6,7,0.7,0.9
2024-08-29T0000,1147A,121.425,31.2261,上海市,静安监测站,,21,16,25,11,23,67,,86,65,12,19,6,6,0.6,0.9
2024-08-29T0000,1148A,121.703,31.1907,上海市,浦东川沙,,24,18,23,10,17,75,,85,73,12,18,6,6,0.6,0.7
2024-08-29T0000,1149A,121.533,31.2284,上海市,浦东新区监测站,,21,16,22,12,22,66,,81,65,15,21,6,6,0.4,0.7
2024-08-29T0000,1150A,121.577,31.2071,上海市,浦东张江,,19,17,23,12,25,59,,80,61,19,20,5,5,0.8,1
2024-08-29T0000,3265A,121.4316,31.3322,上海市,宝山庙行,,21,17,23,11,22,66,,81,66,13,20,5,6,0.4,0.6
