timepoint,stationcode,longitude,latitude,area,positionname,primarypollutant,aqi,pm10,pm10_24h,pm2_5,pm2_5_24h,o3,o3_24h,o3_8h,o3_8h_24h,no2,no2_24h,so2,so2_24h,co,co_24h
2026-03-26T1600,2568A,102.2503,31.8896,阿坝藏族羌族自治州,马师校,,37,7,20,3,6,118,118,NA,NA,4,5,5,5,0.4,0.4
2026-03-26T1600,3994A,102.2174,31.9016,阿坝藏族羌族自治州,马尔康中学西区,,37,NA,14,6,5,116,116,90,90,5,6,4,3,0.1,0.2
2026-03-26T1600,2695A,80.2899,41.1684,阿克苏地区,电视台,颗粒物(PM10),500,1298,959,316,197,90,90,79,79,5,14,2,2,0.3,0.4
2026-03-26T1600,2696A,80.2592,41.1541,阿克苏地区,艺术中心,颗粒物(PM10),500,1214,934,246,171,96,96,85,85,6,26,3,4,0.1,0.4
2026-03-26T1600,2205A,105.699,38.8409,阿拉善盟,蒙二幼,颗粒物(PM10),64,69,66,26,20,135,135,122,122,7,7,10,9,0.5,0.5
2026-03-26T1600,2206A,105.7198,38.8508,阿拉善盟,环保局新楼,颗粒物(PM10),60,64,63,28,20,125,125,116,116,6,7,10,9,0.6,0.6
2026-03-26T1600,2708A,88.1266,47.8515,阿勒泰地区,市站,NA,NA,24,18,3,4,NA,NA,56,55,NA,13,NA,6,NA,0.3
2026-03-26T1600,4166A,88.1198,47.7931,阿勒泰地区,阿勒泰路33号,,25,14,17,3,3,77,77,62,62,4,9,6,6,0.1,0.2
2026-03-26T1600,2630A,80.1171,32.4999,阿里地区,阿里监测站,,31,6,10,3,2,97,97,93,93,1,3,9,9,0.1,0.2
2026-03-26T1600,3192A,80.0906,32.5029,阿里地区,阿里藏医院,,33,6,8,3,3,104,104,106,97,2,3,5,5,0.2,0.2
2026-03-26T1600,2644A,109.0088,32.6974,安康市,汉滨区检察院,,43,43,39,26,22,71,71,28,28,16,23,7,8,0.7,0.7
2026-03-26T1600,4054A,109.0324,32.6913,安康市,市邮政管理局,,45,45,47,24,27,64,64,27,27,16,25,10,12,0.8,0.9
2026-03-26T1600,2291A,117.0806,30.5181,安庆市,环科院,细颗粒物(PM2.5),105,69,69,65,49,80,80,75,70,24,30,12,10,0.9,0.8
2026-03-26T1600,2292A,117.0331,30.5118,安庆市,马山宾馆,细颗粒物(PM2.5),92,63,67,56,45,83,83,79,68,20,32,9,7,1.0,0.9
2026-03-26T1600,2294A,116.9897,30.6146,安庆市,安庆大学,细颗粒物(PM2.5),102,74,60,62,38,88,88,82,82,16,26,5,4,0.9,0.7
2026-03-26T1600,3173A,117.0598,30.5351,安庆市,市人大,细颗粒物(PM2.5),90,59,62,55,43,82,82,76,68,29,34,11,8,0.9,0.8
2026-03-26T1600,3123A,105.9408,26.2431,安顺市,凤凰山,,42,36,32,29,25,107,107,70,70,8,10,19,11,0.6,0.6
2026-03-26T1600,3124A,105.9443,26.2567,安顺市,金钟山,,38,34,27,26,24,96,96,64,64,6,6,17,8,0.6,0.7
2026-03-26T1600,3125A,105.8983,26.248,安顺市,娄家坡,NA,NA,32,27,24,24,98,98,62,62,NA,8,NA,12,0.9,0.9
2026-03-26T1600,1819A,114.3552,36.1017,安阳市,红庙街,颗粒物(PM10),83,95,93,36,58,146,146,110,110,10,21,4,6,0.4,0.6
2026-03-26T1600,1820A,114.361,36.0681,安阳市,银杏小区,颗粒物(PM10),76,86,94,42,57,149,149,113,113,11,22,5,6,0.1,0.3
2026-03-26T1600,3141A,114.3921,36.0879,安阳市,信访局,颗粒物(PM10),79,90,95,45,58,153,153,115,115,9,22,5,4,0.3,0.5
2026-03-26T1600,3669A,114.4706,36.0634,安阳市,左辅环卫站,颗粒物(PM10),88,103,114,53,61,133,133,100,100,7,15,7,5,0.4,0.4
2026-03-26T1600,4117A,114.2918,36.0769,安阳市,钢三路198号,颗粒物(PM10),77,87,109,39,54,131,131,104,104,11,20,3,6,0.4,0.5
2026-03-26T1600,1748A,123.0441,41.1201,鞍山市,深沟寺,细颗粒物(PM2.5),144,164,163,108,115,155,155,124,124,32,32,16,14,1.2,1.7
2026-03-26T1600,1749A,123.011,41.0931,鞍山市,太阳城,细颗粒物(PM2.5),149,157,164,113,124,155,155,124,124,24,29,13,15,1.2,1.7
2026-03-26T1600,1750A,123.0483,41.1445,鞍山市,太平,细颗粒物(PM2.5),144,171,172,108,118,136,136,111,111,39,32,30,18,2.3,1.8
2026-03-26T1600,1751A,122.964,41.0968,鞍山市,铁西三道街,细颗粒物(PM2.5),158,169,200,120,147,148,148,115,115,30,49,10,16,1.2,1.9
2026-03-26T1600,1753A,123.0219,41.0822,鞍山市,明达新区,细颗粒物(PM2.5),139,149,160,102,118,151,151,120,120,24,28,12,16,1.0,1.6
2026-03-26T1600,4201A,122.944647,41.082639,鞍山市,兴盛南路290号,细颗粒物(PM2.5),166,187,220,126,150,153,153,117,117,32,49,15,18,1.2,2
2026-03-26T1600,2195A,107.4206,40.7609,巴彦淖尔市,附二中,颗粒物(PM10),55,57,91,16,34,101,101,83,83,4,22,9,12,0.3,0.5
2026-03-26T1600,2196A,107.37,40.7372,巴彦淖尔市,市环保大楼,颗粒物(PM10),53,53,77,15,28,105,105,90,90,6,20,6,8,0.3,0.4
2026-03-26T1600,1956A,86.1476,41.7529,巴音郭楞蒙古自治州,孔雀公园,颗粒物(PM10),72,80,110,17,24,95,95,88,88,3,6,8,8,0.2,0.2
2026-03-26T1600,1957A,86.1971,41.7166,巴音郭楞蒙古自治州,棉纺厂,NA,NA,NA,142,NA,27,99,99,91,91,2,3,/,/,/,/
2026-03-26T1600,1958A,86.236,41.7172,巴音郭楞蒙古自治州,经济开发区,颗粒物(PM10),75,85,98,16,24,88,88,82,82,3,3,6,6,0.3,0.3
2026-03-26T1600,3181A,106.776805,31.852614,巴中市,市五中,,35,29,32,10,17,112,112,77,77,9,19,8,8,0.5,0.8
2026-03-26T1600,3183A,106.7419,31.8654,巴中市,圣泉水务公司,,37,31,30,12,17,116,116,86,86,6,19,9,9,0.5,0.7
2026-03-26T1600,3616A,106.7617,31.8343,巴中市,市中心医院,,36,26,31,13,15,114,114,78,78,4,14,10,10,0.5,0.7
2026-03-26T1600,2235A,122.7909,45.608,白城市,洮北区环保局,细颗粒物(PM2.5),80,76,100,50,77,111,111,110,110,16,28,5,6,0.4,0.8
2026-03-26T1600,2236A,122.8741,45.5725,白城市,市环保局,细颗粒物(PM2.5),76,68,98,48,74,105,105,105,105,9,24,4,6,0.3,0.7
2026-03-26T1600,2231A,126.4219,41.9172,白山市,喜丰,,33,28,85,3,49,104,104,93,93,5,26,8,11,0.5,0.8
2026-03-26T1600,2232A,126.4082,41.9416,白山市,环保局,,30,20,71,3,49,96,96,91,91,8,16,7,10,0.6,0.9
2026-03-26T1600,2647A,104.1727,36.5448,白银市,第三小学,,31,23,57,13,30,99,99,75,75,11,23,4,38,0.3,0.5
2026-03-26T1600,2648A,104.1467,36.5482,白银市,动力公司,,33,NA,57,19,27,103,103,78,78,5,24,5,17,0.5,0.6
2026-03-26T1600,2512A,106.6102,23.901,百色市,市监测站,,48,47,51,33,37,135,135,107,107,10,14,16,15,0.7,0.8
2026-03-26T1600,2513A,106.6524,23.8842,百色市,市中心血站,细颗粒物(PM2.5),68,57,56,44,37,128,128,97,97,8,18,12,14,0.6,0.7
2026-03-26T1600,4133A,106.6273,23.8798,百色市,龙景西路,颗粒物(PM10),70,78,61,37,40,145,145,100,100,9,17,17,18,0.6,0.6
2026-03-26T1600,2270A,117.396,32.9389,蚌埠市,工人疗养院,细颗粒物(PM2.5),108,93,93,68,61,163,163,133,133,19,38,6,7,0.4,0.5
2026-03-26T1600,2271A,117.3606,32.9428,蚌埠市,百货大楼,细颗粒物(PM2.5),104,121,100,64,55,157,157,132,132,25,38,7,7,0.6,0.6
2026-03-26T1600,2273A,117.4183,32.8909,蚌埠市,蚌埠学院,细颗粒物(PM2.5),84,70,71,52,57,149,149,134,134,25,26,7,6,0.5,0.6
2026-03-26T1600,2274A,117.3534,32.9672,蚌埠市,淮上区政府,细颗粒物(PM2.5),118,92,88,79,63,161,161,134,134,22,43,7,7,0.5,0.6
2026-03-26T1600,2275A,117.3143,32.8977,蚌埠市,高新区,细颗粒物(PM2.5),98,78,79,59,60,152,152,127,127,24,26,9,8,0.6,0.6
2026-03-26T1600,3715A,117.3091,32.9314,蚌埠市,蚌埠田家炳中学,细颗粒物(PM2.5),104,89,91,64,62,163,163,140,140,21,28,7,8,0.5,0.5
2026-03-26T1600,1585A,109.8761,40.6533,包头市,市环境监测站,,45,39,54,31,28,117,117,102,102,7,30,5,8,0.3,0.6
2026-03-26T1600,1587A,109.9992,40.5843,包头市,包头八中,,49,49,66,19,31,112,112,94,94,6,39,5,13,0.2,1
2026-03-26T1600,1589A,109.8641,40.6288,包头市,惠龙物流,,36,36,45,17,24,112,112,98,98,5,26,4,8,0.3,0.5
2026-03-26T1600,1590A,110.0376,40.5546,包头市,东河鸿龙湾,,49,49,64,22,36,124,124,108,108,10,60,9,13,0.4,0.8
2026-03-26T1600,3283A,109.9154,40.5684,包头市,滨河大厦,,36,27,55,18,31,115,115,95,95,5,45,8,11,0.2,0.5
2026-03-26T1600,3419A,109.9449,40.6259,包头市,包头市委党校,,36,27,44,7,18,114,114,93,93,6,41,6,7,0.3,0.5
2026-03-26T1600,3683A,109.8332,40.6577,包头市,昆区政府,,37,34,45,13,19,117,117,104,104,9,18,1,7,0.4,0.6
2026-03-26T1600,1931A,107.0802,34.3129,宝鸡市,竹园沟,颗粒物(PM10),63,68,63,30,31,112,112,81,81,22,23,8,7,0.4,0.5
2026-03-26T1600,1933A,107.1429,34.3549,宝鸡市,监测站,颗粒物(PM10),74,83,85,28,39,107,107,70,70,25,33,6,7,0.4,0.4
2026-03-26T1600,1934A,107.1172,34.3759,宝鸡市,技工学校,颗粒物(PM10),68,74,86,29,36,112,112,78,78,19,25,5,5,0.5,0.6
2026-03-26T1600,1936A,107.2025,34.3518,宝鸡市,文理学院,颗粒物(PM10),65,70,84,33,41,110,110,73,73,17,27,6,5,0.5,0.6
2026-03-26T1600,1937A,107.2396,34.3626,宝鸡市,三迪小学,颗粒物(PM10),65,71,87,40,46,109,109,71,71,19,34,6,5,0.5,0.6
2026-03-26T1600,4155A,107.1721,34.3558,宝鸡市,滨河北路,颗粒物(PM10),67,73,99,40,56,110,110,75,75,18,28,7,6,0.8,0.8
2026-03-26T1600,4308A,107.3898,34.3601,宝鸡市,陈仓区北开路21号,颗粒物(PM10),73,81,111,42,57,108,108,76,76,21,35,8,14,0.5,1
2026-03-26T1600,1051A,115.4803,38.8568,保定市,游泳馆,细颗粒物(PM2.5),204,177,179,154,142,172,172,114,114,24,44,12,10,0.7,0.8
2026-03-26T1600,1052A,115.509,38.8895,保定市,华电二区,细颗粒物(PM2.5),192,176,166,144,131,182,182,113,113,21,40,8,6,1.0,1
2026-03-26T1600,1053A,115.4588,38.9037,保定市,接待中心,细颗粒物(PM2.5),206,194,177,156,134,186,186,120,120,29,45,8,8,0.6,0.7
2026-03-26T1600,1054A,115.4484,38.8344,保定市,地表水厂,细颗粒物(PM2.5),165,200,191,125,119,186,186,126,126,25,48,13,11,0.6,0.6
2026-03-26T1600,3581A,115.3136,38.9511,保定市,满城区生态环境分局,细颗粒物(PM2.5),186,232,203,140,111,198,198,134,134,26,38,9,7,0.6,0.7
2026-03-26T1600,3582A,115.4709,38.7628,保定市,清苑区第二中学,细颗粒物(PM2.5),182,182,200,137,125,157,157,112,112,10,38,13,12,0.6,0.6
2026-03-26T1600,3583A,115.6231,39.0223,保定市,徐水物探局,细颗粒物(PM2.5),232,261,246,182,152,190,190,115,115,29,52,8,6,0.7,0.7
2026-03-26T1600,4004A,115.4199,38.8665,保定市,双鹰农机,细颗粒物(PM2.5),206,221,226,156,145,193,193,128,128,29,43,9,8,0.5,0.6
2026-03-26T1600,4034A,115.515,38.8589,保定市,植保所站,细颗粒物(PM2.5),186,182,200,140,136,178,178,114,114,24,53,6,5,0.3,0.4
2026-03-26T1600,2594A,99.1589,25.1137,保山市,市环境监测站,,37,24,30,12,20,118,118,99,99,5,9,5,5,0.2,0.3
2026-03-26T1600,2595A,99.1616,25.1381,保山市,市环保局,,37,37,35,20,24,117,117,100,100,5,6,5,5,0.2,0.2
2026-03-26T1600,1867A,109.1435,21.4085,北海市,海滩公园,NA,NA,39,30,NA,14,61,61,66,65,5,10,6,7,0.4,0.5
2026-03-26T1600,1868A,109.0983,21.466,北海市,新市环保局,,27,27,23,13,12,56,56,64,57,4,8,8,9,0.5,0.5
2026-03-26T1600,1869A,109.1775,21.5232,北海市,北海工业园,,26,26,30,14,15,53,53,53,53,6,7,5,6,0.7,0.7
2026-03-26T1600,3400A,109.1844,21.4396,北海市,龙潭自来水厂,,22,22,23,8,14,52,52,54,54,3,7,6,5,0.9,0.9
2026-03-26T1600,1001A,116.3611,39.8786,北京市,万寿西宫,细颗粒物(PM2.5),165,190,198,125,128,232,232,167,167,23,47,11,7,1.3,1.1
2026-03-26T1600,1003A,116.4174,39.9289,北京市,东四,细颗粒物(PM2.5),195,216,210,146,140,234,234,173,173,22,50,14,11,1.2,1.1
2026-03-26T1600,1004A,116.4073,39.8858,北京市,天坛,细颗粒物(PM2.5),180,203,183,136,125,207,207,151,151,17,38,11,7,1.3,1.2
2026-03-26T1600,1005A,116.4622,39.9364,北京市,农展馆,细颗粒物(PM2.5),182,196,198,137,136,218,218,164,164,19,53,12,9,1.4,1.3
2026-03-26T1600,1006A,116.3399,39.9293,北京市,官园,细颗粒物(PM2.5),201,205,202,151,135,204,204,148,148,27,50,9,6,1.1,1
2026-03-26T1600,1007A,116.2879,39.9613,北京市,海淀万柳,细颗粒物(PM2.5),198,216,207,148,132,180,180,127,127,21,58,11,7,1.2,1
2026-03-26T1600,1008A,116.6635,40.1349,北京市,顺义新城,细颗粒物(PM2.5),176,195,169,133,105,210,210,155,155,17,24,13,7,1.0,0.7
2026-03-26T1600,1009A,116.6275,40.327,北京市,怀柔镇,细颗粒物(PM2.5),162,179,152,123,98,204,204,154,154,16,21,12,7,1.2,0.8
2026-03-26T1600,1010A,116.2295,40.217,北京市,昌平镇,细颗粒物(PM2.5),146,166,169,110,113,199,199,164,164,22,32,8,6,1.0,0.9
2026-03-26T1600,1011A,116.3968,39.982,北京市,奥体中心,细颗粒物(PM2.5),133,186,215,96,115,193,193,146,146,21,55,11,7,1.0,0.9
2026-03-26T1600,3418A,116.8336,40.4095,北京市,密云新城,细颗粒物(PM2.5),125,144,135,87,75,186,186,136,136,13,26,7,5,0.8,0.7
2026-03-26T1600,3671A,116.0879,39.9725,北京市,门头沟三家店,颗粒物(PM10),136,213,208,NA,131,213,213,160,160,21,36,11,7,1.2,0.9
2026-03-26T1600,3672A,116.1507,39.8246,北京市,丰台云岗,细颗粒物(PM2.5),199,204,207,149,132,224,224,157,157,20,34,11,8,1.2,1
2026-03-26T1600,3674A,115.9578,39.7602,北京市,房山燕山,细颗粒物(PM2.5),201,234,187,151,122,213,213,151,151,21,24,9,6,1.3,0.8
2026-03-26T1600,3675A,116.4669,39.7734,北京市,大兴旧宫,细颗粒物(PM2.5),185,206,219,139,141,209,209,151,151,18,46,11,8,1.3,1.2
2026-03-26T1600,3694A,115.9859,40.4562,北京市,延庆石河营,,43,43,147,21,84,131,131,102,102,11,42,1,2,0.3,0.6
2026-03-26T1600,3695A,116.6151,40.3052,北京市,怀柔新城,细颗粒物(PM2.5),155,182,154,118,104,203,203,156,156,12,12,10,6,1.2,0.8
2026-03-26T1600,3696A,116.2542,39.8764,北京市,丰台小屯,细颗粒物(PM2.5),198,217,215,148,134,204,204,144,144,26,57,10,6,1.2,1
2026-03-26T1600,3697A,116.8399,40.3843,北京市,密云镇,细颗粒物(PM2.5),144,167,138,108,79,194,194,134,134,15,36,10,7,0.8,0.6
2026-03-26T1600,4057A,115.9423,40.4431,北京市,延庆百泉,,38,37,133,21,81,120,120,90,90,11,40,2,3,0.4,0.7
2026-03-26T1600,4058A,116.6598,39.9164,北京市,通州新华,细颗粒物(PM2.5),183,217,231,138,143,199,199,159,159,22,54,11,8,1.1,1.1
2026-03-26T1600,4182A,116.1942,39.9158,北京市,石景山八角,细颗粒物(PM2.5),185,217,213,139,129,212,212,154,154,13,44,7,6,1.1,1
2026-03-26T1600,4194A,117.078628,40.151726,北京市,平谷新城,细颗粒物(PM2.5),179,198,167,135,109,203,203,149,149,22,26,9,5,1.4,1
2026-03-26T1600,1761A,123.8274146,41.31234549,本溪市,大峪,,34,28,119,16,74,107,107,92,92,18,33,11,11,0.7,1.1
2026-03-26T1600,1763A,123.7169,41.3094,本溪市,彩屯,颗粒物(PM10),61,65,147,37,103,127,127,91,91,15,40,11,22,0.8,2.1
2026-03-26T1600,1764A,123.7672166,41.28649327,本溪市,东明,,39,39,121,17,86,117,117,90,90,15,46,9,11,0.6,1.2
2026-03-26T1600,1765A,123.799345,41.266614,本溪市,新立屯,,42,42,110,18,87,109,109,87,87,16,44,9,10,0.6,1.2
2026-03-26T1600,1766A,123.829144,41.336777,本溪市,威宁,,37,37,132,17,65,112,112,96,96,16,31,8,8,0.6,1
2026-03-26T1600,2587A,105.287,27.3133,毕节市,八中,,29,16,17,15,14,91,91,68,68,10,6,12,9,0.6,0.6
2026-03-26T1600,2588A,105.3079,27.2987,毕节市,师专,,28,27,20,14,11,88,88,65,65,9,7,11,8,0.5,0.6
2026-03-26T1600,4263A,105.3688,27.3598,毕节市,工业大道,,29,22,16,19,10,90,90,77,77,8,7,10,10,/,/
2026-03-26T1600,1629A,117.9961,37.3604,滨州市,第二水厂,"颗粒物(PM10),细颗粒物(PM2.5)",102,124,132,62,81,158,158,153,153,15,33,17,15,NA,0.9
2026-03-26T1600,1630A,117.9789,37.3931,滨州市,北中新校,细颗粒物(PM2.5),94,102,118,57,74,164,164,149,149,16,30,15,13,0.3,0.5
2026-03-26T1600,3514A,117.9379,37.3959,滨州市,中海酒店,颗粒物(PM10),91,107,122,48,72,164,164,151,151,18,32,14,14,0.5,0.7
2026-03-26T1600,3515A,117.9381509,37.35547456,滨州市,开发区一中,颗粒物(PM10),100,119,136,56,84,149,149,132,132,18,35,18,14,0.7,0.8
2026-03-26T1600,3516A,118.0914,37.6938,滨州市,金海六路,细颗粒物(PM2.5),92,107,141,56,93,165,165,147,147,11,37,12,14,0.5,0.7
2026-03-26T1600,4028A,117.9955,37.3752,滨州市,滨州市西街道办事处,"颗粒物(PM10),细颗粒物(PM2.5)",96,114,132,58,77,159,159,146,146,14,25,17,14,0,0.3
2026-03-26T1600,2311A,115.8071,33.8399,亳州市,污水处理厂,颗粒物(PM10),54,55,81,29,47,154,154,123,123,12,21,6,7,0.1,0.2
2026-03-26T1600,2312A,115.7789,33.8519,亳州市,三国揽胜宫,颗粒物(PM10),62,66,85,34,47,145,145,117,117,9,16,6,7,0.0,0.1
2026-03-26T1600,3332A,115.7631,33.803,亳州市,亳州学院,NA,NA,NA,75,NA,43,151,151,119,119,5,12,7,7,NA,0.2
2026-03-26T1600,2693A,82.0482,44.8553,博尔塔拉蒙古自治州,市党校,,45,45,96,12,9,102,102,74,74,4,5,3,3,0.4,0.3
2026-03-26T1600,2694A,82.0805,44.8966,博尔塔拉蒙古自治州,市环保局,,30,25,73,8,12,96,96,66,66,11,17,4,3,0.4,0.4
2026-03-26T1600,1071A,116.8733,38.2922,沧州市,沧县城建局,细颗粒物(PM2.5),104,107,129,64,94,147,147,108,108,17,26,8,7,0.5,0.5
2026-03-26T1600,1072A,116.8462,38.3189,沧州市,电视转播站,细颗粒物(PM2.5),116,98,131,77,100,151,151,111,111,15,23,8,5,0.6,0.6
2026-03-26T1600,1073A,116.8588,38.3161,沧州市,市环保局,颗粒物(PM10),105,133,141,60,88,158,158,115,115,12,23,12,11,0.4,0.6
2026-03-26T1600,3324A,116.8011,38.294,沧州市,河北水利电力学院,细颗粒物(PM2.5),117,117,140,78,99,142,142,114,114,NA,24,15,14,0.6,0.6
2026-03-26T1600,2622A,97.1813,31.1289,昌都市,昌都监测站,,37,13,17,3,5,117,117,96,96,6,8,4,4,0.4,0.7
2026-03-26T1600,3719A,97.1707,31.1428,昌都市,昌都会议中心,,40,7,10,3,6,125,125,109,109,4,5,5,4,0.3,0.3
2026-03-26T1600,2692A,87.2722,44.0298,昌吉回族自治州,新区政务中心,NA,NA,NA,17,NA,11,NA,NA,67,67,10,22,6,5,0.3,0.4
2026-03-26T1600,3613A,87.3069,44.0093,昌吉回族自治州,亚心广场,,31,17,23,10,11,99,99,77,77,4,22,8,8,0.3,0.4
2026-03-26T1600,4164A,87.2057,43.9289,昌吉回族自治州,财政所,,37,37,26,3,7,92,92,69,69,12,11,8,7,0.3,0.3
2026-03-26T1600,1120A,125.2874,43.9024,长春市,客车厂,细颗粒物(PM2.5),106,95,171,66,138,108,108,112,112,26,57,8,11,0.5,1.1
2026-03-26T1600,1121A,125.2943,43.8508,长春市,邮电学院,细颗粒物(PM2.5),112,113,205,73,150,117,117,104,104,16,51,10,11,0.5,1.1
2026-03-26T1600,1122A,125.3648,43.8745,长春市,劳动公园,细颗粒物(PM2.5),105,111,208,65,148,114,114,102,102,18,50,9,10,0.6,1.2
2026-03-26T1600,1123A,125.3233,43.8781,长春市,园林处,细颗粒物(PM2.5),110,108,180,71,146,113,113,102,102,14,44,9,10,0.6,1.2
2026-03-26T1600,1124A,125.4604,43.7904,长春市,净月潭,细颗粒物(PM2.5),113,95,205,74,159,126,126,106,106,19,37,8,9,0.5,1
2026-03-26T1600,1126A,125.38,43.8422,长春市,经开区环卫处,细颗粒物(PM2.5),116,120,222,77,161,122,122,107,107,19,53,8,8,0.6,1.2
2026-03-26T1600,1127A,125.234,43.7761,长春市,高新区管委会,细颗粒物(PM2.5),98,94,220,59,171,112,112,104,104,22,54,8,11,0.5,1.2
2026-03-26T1600,1128A,125.1695,43.83,长春市,岱山公园,细颗粒物(PM2.5),84,75,220,52,177,109,109,102,102,17,60,6,10,0.5,1.2
2026-03-26T1600,4281A,125.334645,43.916281,长春市,北亚泰大街1068号,NA,NA,NA,194,NA,142,104,104,103,103,NA,59,9,11,NA,1
2026-03-26T1600,1335A,113.082,28.2421,长沙市,经开区环保局,,21,18,31,11,19,66,66,70,67,13,15,2,2,0.5,0.5
2026-03-26T1600,1336A,112.8873,28.2202,长沙市,高开区环保局,,22,21,39,15,29,68,68,73,63,12,17,4,4,0.7,0.8
2026-03-26T1600,1337A,113.0785,28.2012,长沙市,马坡岭,,22,20,33,15,25,69,69,71,69,19,22,4,4,0.7,0.8
2026-03-26T1600,1338A,112.9448,28.1894,长沙市,湖南师范大学,,25,17,39,14,27,77,77,80,78,8,18,4,4,0.7,0.9
2026-03-26T1600,1339A,113.0177,28.1322,长沙市,雨花区环保局,,24,20,33,13,23,76,76,74,73,7,15,3,3,0.7,0.8
2026-03-26T1600,1340A,112.9795,28.2593,长沙市,伍家岭,,28,23,44,19,35,72,72,74,72,11,18,3,3,0.4,0.5
2026-03-26T1600,1341A,113.002,28.1944,长沙市,火车新站,,26,21,38,18,33,75,75,74,73,10,20,3,3,0.5,0.7
2026-03-26T1600,1342A,112.9846,28.1177,长沙市,天心区环保局,,29,21,38,20,37,78,78,78,76,14,21,5,5,0.7,0.8
2026-03-26T1600,1343A,112.8906,28.1307,长沙市,湖南中医药大学,,25,20,35,16,33,80,80,82,78,8,16,5,5,0.6,0.7
2026-03-26T1600,1727A,113.1146,36.1547,长治市,清华站,颗粒物(PM10),70,77,78,35,38,140,140,104,104,9,24,3,8,0.4,0.6
2026-03-26T1600,1730A,113.0887,36.2126,长治市,审计局,颗粒物(PM10),68,75,74,34,41,139,139,107,107,10,27,9,14,0.5,0.6
2026-03-26T1600,1731A,113.0845,36.1856,长治市,长治八中,NA,NA,NA,99,NA,43,137,137,111,111,8,25,NA,16,0.5,0.7
2026-03-26T1600,2845A,113.1561,36.1912,长治市,德盛苑,颗粒物(PM10),68,75,70,38,37,145,145,119,119,9,18,9,13,0.4,0.8
2026-03-26T1600,3568A,113.0603,36.0464,长治市,向阳小学,颗粒物(PM10),94,111,116,37,42,148,148,115,115,12,23,8,11,0.4,0.7
2026-03-26T1600,3569A,112.8788,36.315,长治市,屯留一中,颗粒物(PM10),67,73,84,30,45,151,151,119,119,11,33,10,14,0.6,0.8
2026-03-26T1600,4189A,113.113092,36.199482,长治市,英华南巷50号,颗粒物(PM10),72,80,84,32,40,139,139,112,112,19,27,8,13,0.7,0.9
2026-03-26T1600,4190A,113.23666,36.33435,长治市,学府街1号,颗粒物(PM10),65,71,78,34,34,151,151,123,123,12,25,8,11,0.7,0.9
2026-03-26T1600,1854A,111.696,28.9725,常德市,市二中,,30,NA,41,13,29,93,93,91,78,8,10,6,6,0.9,0.9
2026-03-26T1600,3138A,111.7152,29.0288,常德市,武陵区永安,,30,18,37,16,28,95,95,99,88,14,13,5,5,0.8,0.7
2026-03-26T1600,3139A,111.6891,28.9881,常德市,鼎城区玉霞,,30,NA,36,12,29,93,93,93,79,13,15,8,7,0.9,0.9
2026-03-26T1600,3140A,111.6651,29.0526,常德市,武陵区长庚,,27,NA,34,15,31,86,86,93,79,12,11,6,6,0.9,0.9
2026-03-26T1600,1196A,119.9524,31.7586,常州市,市监测站,,44,44,121,23,79,92,92,99,99,43,57,12,12,0.8,1
2026-03-26T1600,1200A,119.9351,31.703,常州市,武进监测站,,35,35,103,14,69,101,101,104,104,28,34,9,8,0.4,0.8
2026-03-26T1600,3002A,119.9701,31.813,常州市,行政中心,颗粒物(PM10),66,72,118,29,82,104,104,96,96,33,47,6,7,0.3,0.7
2026-03-26T1600,3003A,120.0434,31.7726,常州市,经开区,,44,44,123,25,81,102,102,94,94,32,61,10,10,0.5,1
2026-03-26T1600,3010A,119.8919,31.7892,常州市,钟楼,颗粒物(PM10),52,52,104,24,76,105,105,115,115,46,50,9,8,0.5,0.7
2026-03-26T1600,3429A,119.8595,31.706,常州市,武进经发区,,39,38,89,27,68,106,106,114,114,38,40,10,11,0.3,1
2026-03-26T1600,3430A,119.5812,31.7256,常州市,金坛城区,,49,46,79,34,80,127,127,121,121,18,23,10,9,0.5,0.8
2026-03-26T1600,4089A,119.9551,31.863,常州市,崇义南街5-H号,,50,50,113,23,83,104,104,96,96,34,61,6,6,0.5,0.9
2026-03-26T1600,2220A,120.4318,41.588,朝阳市,西梁,颗粒物(PM10),97,115,81,24,40,125,125,102,102,15,36,10,12,0.4,0.7
2026-03-26T1600,2221A,120.452,41.565,朝阳市,河畔小区,颗粒物(PM10),86,100,65,31,30,134,134,110,110,15,31,8,9,0.6,0.6
2026-03-26T1600,2222A,120.4176,41.5648,朝阳市,八里堡,颗粒物(PM10),114,155,75,40,38,131,131,104,104,14,36,10,11,0.5,0.6
2026-03-26T1600,3026A,116.6179,23.6608,潮州市,市政府,颗粒物(PM10),60,63,40,25,32,137,137,123,123,17,10,5,4,0.6,0.5
2026-03-26T1600,4036A,116.646,23.676,潮州市,金山,,45,38,37,25,28,141,141,120,120,18,13,5,4,0.4,0.4
2026-03-26T1600,2473A,113.0116,25.8228,郴州市,市职中,细颗粒物(PM2.5),60,50,54,40,47,70,70,47,47,10,15,15,8,0.9,0.7
2026-03-26T1600,2475A,113.0381,25.8074,郴州市,市审计局,细颗粒物(PM2.5),62,57,54,41,42,90,90,66,66,11,14,12,12,/,/
2026-03-26T1600,2476A,113.0348,25.7757,郴州市,市环保局,颗粒物(PM10),65,71,62,40,43,70,70,42,42,13,20,13,16,0.5,0.5
2026-03-26T1600,4252A,113.0138,25.8011,郴州市,好美居路49号,细颗粒物(PM2.5),92,NA,49,56,46,71,71,50,50,12,17,15,13,/,/
2026-03-26T1600,1431A,103.9727,30.7242,成都市,金泉两河,,49,40,39,19,20,154,154,92,92,12,20,1,1,0.3,0.4
2026-03-26T1600,1432A,104.1423,30.6765,成都市,十里店,,49,46,39,24,24,154,154,100,100,12,25,4,4,0.4,0.4
2026-03-26T1600,1433A,104.0594,30.5765,成都市,三瓦窑,,46,35,39,23,24,146,146,95,95,8,21,2,2,0.7,0.8
2026-03-26T1600,1434A,104.1122,30.6306,成都市,沙河铺,颗粒物(PM10),59,62,47,18,22,146,146,86,86,18,29,6,5,0.4,0.5
2026-03-26T1600,2880A,104.0219,30.6561,成都市,大石西路,颗粒物(PM10),55,57,46,21,24,142,142,89,89,13,23,7,7,0.4,0.6
2026-03-26T1600,3136A,104.2724,30.559,成都市,龙泉驿区区政府,,43,36,34,16,22,135,135,98,98,8,16,5,6,0.4,0.5
2026-03-26T1600,3357A,104.0028,30.6891,成都市,金博路,,50,27,32,19,23,159,159,100,100,18,26,6,5,0.5,0.6
2026-03-26T1600,3359A,104.056,30.5228,成都市,华阳,,47,44,43,17,23,150,150,100,100,12,25,3,3,0.4,0.6
2026-03-26T1600,3488A,104.387954,30.746684,成都市,青石路225号,,45,34,41,15,26,142,142,92,92,12,23,7,5,0.4,0.7
2026-03-26T1600,3489A,104.0788,30.4054,成都市,科学城,,39,29,34,16,23,122,122,86,86,8,21,7,7,0.4,0.7
2026-03-26T1600,4011A,103.8505,30.6946,成都市,光华大道三段,NA,NA,46,38,16,20,146,146,97,97,14,22,NA,3,0.4,0.5
2026-03-26T1600,4144A,104.3257,30.6406,成都市,八角井街185号,,37,37,41,14,22,118,118,78,78,8,19,4,4,0.6,0.6
2026-03-26T1600,4224A,104.2433276,30.53529463,成都市,鲸龙路1057号,,42,29,37,14,22,134,134,98,98,10,21,5,6,0.4,0.5
2026-03-26T1600,1062A,117.9531,40.908,承德市,铁路,,47,47,64,10,27,114,114,83,83,3,21,6,7,0.3,0.5
2026-03-26T1600,1063A,117.9397,40.9763,承德市,中国银行,,37,37,52,8,17,107,107,86,86,7,23,4,5,0.3,0.4
2026-03-26T1600,4073A,117.9462,40.95,承德市,杏林街1号,,47,47,52,15,29,115,115,96,96,5,22,4,6,0.2,0.4
2026-03-26T1600,4274A,117.7994,40.9605,承德市,滨河大街98号,颗粒物(PM10),58,60,49,15,18,113,113,84,84,5,21,8,12,0.2,0.4
2026-03-26T1600,2314A,117.4698,30.6617,池州市,池州学院,细颗粒物(PM2.5),84,80,61,52,41,70,70,80,54,53,39,7,6,1.0,0.9
2026-03-26T1600,3237A,117.4918,30.6617,池州市,展览馆,细颗粒物(PM2.5),102,84,61,62,43,68,68,74,53,43,35,5,4,1.0,1
2026-03-26T1600,3333A,117.5626,30.695,池州市,第八中学,细颗粒物(PM2.5),76,73,61,48,41,61,61,70,48,54,39,6,6,1.0,1
2026-03-26T1600,3334A,117.5037,30.6242,池州市,第十二中学,细颗粒物(PM2.5),84,78,57,52,34,62,62,56,55,49,43,5,4,0.9,0.7
2026-03-26T1600,1744A,118.9229,42.2816,赤峰市,松山一中,颗粒物(PM10),95,113,63,20,32,97,97,70,70,8,32,4,7,0.3,0.6
2026-03-26T1600,1745A,118.9588,42.2733,赤峰市,哈达街,颗粒物(PM10),75,85,60,6,25,90,90,71,71,10,31,9,21,0.5,0.6
2026-03-26T1600,1746A,118.8792,42.2551,赤峰市,天义路,NA,NA,60,53,9,24,111,111,88,88,NA,26,5,9,0.4,0.5
2026-03-26T1600,3058A,119.2656,42.0356,赤峰市,银河街,颗粒物(PM10),102,124,93,15,40,111,111,112,112,2,19,9,26,0.3,0.6
2026-03-26T1600,3286A,118.9359,42.3146,赤峰市,桥北物流园区,颗粒物(PM10),78,89,58,11,31,99,99,75,75,10,37,4,4,0.4,0.2
2026-03-26T1600,2521A,107.3473,22.4137,崇左市,市环保局江州分局,颗粒物(PM10),53,53,46,36,28,107,107,78,78,7,11,5,7,0.6,0.5
2026-03-26T1600,4256A,107.375,22.3736,崇左市,石景林东路7号,NA,NA,52,41,36,27,116,116,91,91,9,11,3,5,NA,0.6
2026-03-26T1600,3207A,118.31131,32.3033,滁州市,市政府原办公楼,细颗粒物(PM2.5),102,64,83,62,75,141,141,125,125,20,40,10,6,0.8,0.7
2026-03-26T1600,3331A,118.3268,32.2633,滁州市,图书馆,颗粒物(PM10),63,68,86,41,57,137,137,120,120,16,34,12,10,0.6,0.7
2026-03-26T1600,4101A,118.3196,32.3335,滁州市,银山路666号,细颗粒物(PM2.5),82,74,88,51,61,145,145,120,120,20,46,14,12,0.9,0.9
2026-03-26T1600,4102A,118.3426,32.2979,滁州市,黄山路555号,细颗粒物(PM2.5),90,89,112,55,66,151,151,132,132,20,44,12,9,1.0,0.9
2026-03-26T1600,2606A,101.5379,25.0492,楚雄彝族自治州,市经济开发区,,38,13,31,6,22,119,119,100,100,4,12,4,5,0.4,0.6
2026-03-26T1600,4153A,101.5536,25.0343,楚雄彝族自治州,团结路562号,,39,19,30,10,19,123,123,103,103,5,9,2,2,0.2,0.3
2026-03-26T1600,2549A,107.5087,31.2186,达州市,市环境监测站,,37,37,44,14,17,84,84,52,52,14,29,7,9,0.4,0.5
2026-03-26T1600,2550A,107.4988,31.2132,达州市,凤凰小区,,39,39,45,12,18,76,76,45,45,13,30,6,13,0.4,0.6
2026-03-26T1600,2551A,107.5081,31.1987,达州市,达县机关宾馆,,39,39,46,10,21,72,72,46,46,24,32,5,9,0.6,0.7
2026-03-26T1600,2552A,107.4644,31.2124,达州市,市政中心,,40,40,50,10,18,86,86,51,51,10,30,6,14,0.5,0.7
2026-03-26T1600,2614A,100.2168,25.5818,大理白族自治州,大理市环境监测站,,32,18,22,11,18,100,100,90,90,5,6,7,7,0.3,0.4
2026-03-26T1600,2615A,100.1542,25.7055,大理白族自治州,大理古城,,35,20,22,11,15,111,111,106,106,4,7,5,5,0.3,0.3
2026-03-26T1600,1109A,121.6119,38.974,大连市,甘井子,细颗粒物(PM2.5),56,48,94,38,71,103,103,103,103,19,41,8,10,0.6,0.7
2026-03-26T1600,1110A,121.565,38.9509,大连市,周水子,细颗粒物(PM2.5),94,83,104,57,77,78,78,82,82,61,58,7,10,0.6,0.9
2026-03-26T1600,1111A,121.5637,38.8849,大连市,星海三站,细颗粒物(PM2.5),62,52,92,41,70,90,90,94,94,15,29,3,7,0.4,0.6
2026-03-26T1600,1112A,121.6301,38.9117,大连市,青泥洼桥,细颗粒物(PM2.5),107,NA,109,67,78,153,153,138,138,16,35,8,8,0.8,0.9
2026-03-26T1600,1113A,121.6248,38.8643,大连市,傅家庄,,33,28,72,23,56,84,84,93,93,16,22,7,9,0.7,0.8
2026-03-26T1600,1114A,121.5117,38.8636,大连市,七贤岭,细颗粒物(PM2.5),90,81,97,55,71,117,117,118,118,24,30,6,7,0.8,0.8
2026-03-26T1600,1116A,121.7507,39.1339,大连市,金州,细颗粒物(PM2.5),94,74,126,57,92,146,146,140,140,24,31,11,14,0.8,1.1
2026-03-26T1600,1117A,121.7811,39.0495,大连市,开发区,细颗粒物(PM2.5),68,70,108,44,83,76,76,85,85,53,51,11,10,0.8,1.1
2026-03-26T1600,1118A,121.9762,39.0631,大连市,双D港,细颗粒物(PM2.5),56,45,76,38,64,103,103,96,96,14,28,5,6,0.6,1
2026-03-26T1600,4082A,121.2548,38.8188,大连市,旅顺,细颗粒物(PM2.5),92,72,82,56,65,107,107,108,108,18,20,8,7,0.6,0.6
2026-03-26T1600,1789A,124.8085,46.0381,大庆市,大同区,颗粒物(PM10),70,78,87,41,70,116,116,104,104,14,22,6,6,0.3,0.4
2026-03-26T1600,1790A,125.1166,46.5255,大庆市,龙凤区,,35,35,75,16,57,103,103,97,97,11,23,3,6,0.2,0.4
2026-03-26T1600,1791A,124.8894,46.4007,大庆市,红岗区,,33,24,70,21,57,104,104,95,95,4,12,11,12,0.3,0.6
2026-03-26T1600,1792A,125.1391,46.578,大庆市,萨尔图区,,48,48,75,20,51,104,104,94,94,11,21,6,7,0.4,0.6
2026-03-26T1600,1793A,124.9026,46.6217,大庆市,让胡路区,,40,40,77,22,58,104,104,97,97,6,16,5,8,0.2,0.5
2026-03-26T1600,3481A,125.127,46.6277,大庆市,萨区政府监测点,细颗粒物(PM2.5),52,40,78,36,53,101,101,95,95,2,11,8,10,0.2,0.4
2026-03-26T1600,1723A,113.2926,40.0759,大同市,云冈宾馆,,37,36,73,19,29,116,116,97,97,5,30,6,14,0.6,1.3
2026-03-26T1600,1724A,113.3437,40.0921,大同市,大同大学,,41,41,76,11,27,123,123,107,107,10,30,2,17,0.5,1.3
2026-03-26T1600,1725A,113.2637,40.129,大同市,安家小村,NA,NA,104,82,NA,35,121,121,101,101,9,31,9,24,0.3,2.3
2026-03-26T1600,3282A,113.3399,40.0586,大同市,大同市卫生学校,,41,36,75,14,30,131,131,110,110,9,32,4,16,0.4,1.1
2026-03-26T1600,3565A,113.1371,40.1122,大同市,云冈站,,38,33,70,14,25,119,119,97,97,5,38,6,18,0.7,0.8
2026-03-26T1600,3566A,113.1186,40.2556,大同市,图书馆,,35,35,65,12,27,112,112,96,96,7,14,5,12,0.9,1.1
2026-03-26T1600,3567A,113.5931,40.0459,大同市,区一中,,40,27,85,16,36,125,125,115,115,4,21,7,16,0.3,0.6
2026-03-26T1600,4199A,113.2798248,40.09972476,大同市,魏都大道141号,,44,44,93,11,34,121,121,102,102,8,35,8,16,0.6,1.7
2026-03-26T1600,2269A,124.1068,50.4091,大兴安岭地区,科技局,,27,14,22,3,9,85,85,74,74,2,4,8,8,0.6,0.6
2026-03-26T1600,3663A,124.117,50.4279,大兴安岭地区,红旗社区,NA,NA,9,16,3,10,92,92,77,77,NA,10,NA,9,0.2,0.6
2026-03-26T1600,1600A,124.33,40.0625,丹东市,江湾东路,细颗粒物(PM2.5),92,73,87,56,69,142,142,120,120,23,28,11,13,0.5,1
2026-03-26T1600,1601A,124.4242,40.1513,丹东市,临江后街,细颗粒物(PM2.5),82,70,90,51,73,124,124,110,110,20,24,10,7,0.5,1.1
2026-03-26T1600,1602A,124.3935,40.1461,丹东市,元宝山,细颗粒物(PM2.5),64,63,105,42,78,122,122,105,105,20,30,9,9,0.5,1
2026-03-26T1600,1603A,124.3634,40.1093,丹东市,民主桥,细颗粒物(PM2.5),74,67,93,47,72,133,133,116,116,19,29,8,8,0.4,0.8
2026-03-26T1600,3541A,109.5726195,19.51688767,儋州市,第一中学子站,NA,NA,25,29,18,17,76,76,62,62,3,5,NA,7,0.5,0.5
2026-03-26T1600,3542A,109.5567,19.5187,儋州市,东坡学校子站,,28,26,29,19,16,82,82,68,68,2,4,6,7,0.4,0.4
2026-03-26T1600,2616A,98.5611,24.4273,德宏傣族景颇族自治州,德宏州监测站,,40,36,46,3,46,126,126,80,80,4,14,8,8,0.5,0.6
2026-03-26T1600,3677A,98.5887,24.4366,德宏傣族景颇族自治州,芒市人民政府综合楼,颗粒物(PM10),58,60,64,31,38,114,114,75,75,11,15,4,3,0.5,0.8
2026-03-26T1600,1901A,104.424,31.1209,德阳市,东山公园,,41,35,29,14,19,129,129,87,87,7,18,3,3,0.4,0.6
2026-03-26T1600,1902A,104.3827,31.1318,德阳市,西小区,,44,44,50,15,24,133,133,77,77,10,25,3,3,0.5,0.6
2026-03-26T1600,1904A,104.3553,31.1091,德阳市,耐火材料厂,,46,46,49,13,26,135,135,79,79,10,25,2,3,0.4,0.6
2026-03-26T1600,4145A,104.4144,31.1495,德阳市,市林业局,NA,NA,42,39,14,22,140,140,80,80,5,26,NA,7,0.4,0.6
2026-03-26T1600,1622A,116.3034,37.4675,德州市,儿童乐园,颗粒物(PM10),103,127,136,50,78,157,157,125,125,15,23,14,16,0.7,0.8
2026-03-26T1600,1624A,116.2992,37.4449,德州市,监理站,颗粒物(PM10),98,117,135,50,75,162,162,126,126,18,28,8,9,0.6,0.8
2026-03-26T1600,3066A,116.2722,37.438,德州市,九衢泉纯净水厂,NA,NA,NA,135,NA,87,NA,NA,136,NA,NA,36,NA,9,NA,0.8
2026-03-26T1600,3371A,116.3693,37.44,德州市,开发区人民医院,颗粒物(PM10),96,114,130,50,78,156,156,132,132,14,23,10,11,0.6,0.7
2026-03-26T1600,3511A,116.5687,37.3331,德州市,陵城艺术中心,颗粒物(PM10),83,95,117,40,76,149,149,118,118,11,16,10,9,0.5,0.8
2026-03-26T1600,4292A,116.352738,37.420875,德州市,新河东路,颗粒物(PM10),93,110,132,50,77,145,145,110,110,9,19,13,14,0.6,0.8
2026-03-26T1600,2621A,99.7054,27.8319,迪庆藏族自治州,迪庆州站,,36,10,20,7,12,113,113,99,99,5,8,5,5,0.4,0.5
2026-03-26T1600,3180A,99.7122,27.8129,迪庆藏族自治州,质量技术监督局,,39,24,19,13,10,123,123,110,110,6,8,6,6,0.5,0.5
2026-03-26T1600,4257A,104.6092,35.5962,定西市,将台街,颗粒物(PM10),55,56,50,12,23,118,118,96,96,6,15,9,9,0.3,0.4
2026-03-26T1600,4309A,104.6159,35.5701,定西市,正龙路62号,,38,38,50,15,21,111,111,90,90,8,13,3,4,0.3,0.4
2026-03-26T1600,4071A,114.9883,38.5232,定州市,交通局,细颗粒物(PM2.5),216,229,196,166,112,170,170,128,128,28,44,10,7,0.7,0.7
2026-03-26T1600,4072A,115.0045,38.5136,定州市,第五中学,细颗粒物(PM2.5),160,220,201,122,105,167,167,125,125,25,45,16,12,0.6,0.6
2026-03-26T1600,1390A,113.7943,23.0132,东莞市,东城石井,,31,20,38,11,23,97,97,81,81,11,26,3,4,0.5,0.6
2026-03-26T1600,1391A,113.7384,22.9659,东莞市,南城西平,,26,22,28,10,15,83,83,81,81,6,16,4,4,0.5,0.5
2026-03-26T1600,3319A,113.7283,23.041,东莞市,万江金泰,,27,22,34,16,24,86,86,83,83,8,18,6,6,0.6,0.7
2026-03-26T1600,4129A,113.8666,23.1062,东莞市,裕兴路,,30,27,50,12,28,96,96,83,83,12,26,5,5,0.7,0.7
2026-03-26T1600,4130A,114.0076,22.9739,东莞市,教育路1号,,37,37,57,17,31,84,84,72,72,18,34,6,6,0.7,0.7
2026-03-26T1600,4131A,113.7981,22.8124,东莞市,长怡路1号,,25,22,35,10,20,79,79,71,71,13,23,5,5,0.5,0.6
2026-03-26T1600,1666A,118.6612,37.4313,东营市,市环保局,臭氧1小时(O3_1h),97,92,138,42,92,197,197,152,152,13,40,12,18,0.5,0.8
2026-03-26T1600,3036A,118.6903,37.4337,东营市,开发区管委会,臭氧1小时(O3_1h),99,98,136,47,95,199,199,160,160,18,47,12,21,0.5,0.8
2026-03-26T1600,3365A,118.5721,37.5654,东营市,垦利区民丰路,臭氧1小时(O3_1h),113,100,125,60,89,226,226,161,161,20,39,6,8,0.8,1
2026-03-26T1600,3498A,118.5063,37.8606,东营市,河口城区,臭氧1小时(O3_1h),105,102,143,45,96,209,209,178,178,14,27,11,13,0.7,1
2026-03-26T1600,3646A,118.4979,37.4623,东营市,胜利站,颗粒物(PM10),85,98,135,49,85,184,184,140,140,17,41,13,16,0.7,1
2026-03-26T1600,3734A,118.5753,37.4405,东营市,理想之城,臭氧1小时(O3_1h),103,97,141,39,82,206,206,156,156,21,58,11,13,0.8,1.1
2026-03-26T1600,1591A,110.0024,39.8127,鄂尔多斯市,综合楼,颗粒物(PM10),53,53,63,32,31,141,141,106,106,10,37,6,9,0.4,0.7
2026-03-26T1600,1592A,109.9485,39.8259,鄂尔多斯市,巴音孟克林场办事处,颗粒物(PM10),55,56,54,20,23,147,147,121,121,7,35,6,8,0.3,0.5
2026-03-26T1600,1593A,109.7734,39.5987,鄂尔多斯市,康泽苑,颗粒物(PM10),56,58,48,23,19,138,138,117,117,10,15,7,5,0.4,0.3
2026-03-26T1600,1594A,109.8121,39.5987,鄂尔多斯市,华泰汽车城,颗粒物(PM10),56,58,49,14,17,142,142,115,115,10,30,7,5,0.3,0.4
2026-03-26T1600,1595A,109.9734,39.7884,鄂尔多斯市,奥林花园,颗粒物(PM10),60,63,61,22,20,142,142,112,112,11,37,6,6,0.4,0.5
2026-03-26T1600,2436A,114.894,30.3989,鄂州市,市政府,,46,46,70,28,44,70,70,62,62,20,36,8,9,0.4,0.4
2026-03-26T1600,2437A,114.8986,30.3714,鄂州市,赵家坝,,50,50,73,27,45,90,90,70,70,17,23,7,10,0.9,0.9
2026-03-26T1600,3654A,114.8093,30.4091,鄂州市,精准医疗中心,颗粒物(PM10),53,54,81,36,54,84,84,65,65,18,38,12,16,0.7,0.8
2026-03-26T1600,2454A,109.4978,30.2979,恩施土家族苗族自治州,湖北民院,NA,NA,15,19,15,13,70,70,46,46,NA,15,6,6,NA,0.8
2026-03-26T1600,3549A,109.5061,30.3771,恩施土家族苗族自治州,龙凤新区,,20,8,13,3,9,64,64,46,46,3,7,8,7,0.5,0.5
2026-03-26T1600,2499A,108.3411,21.6159,防城港市,沙万,颗粒物(PM10),90,106,38,12,16,44,44,60,46,6,7,8,6,0.5,0.5
2026-03-26T1600,2500A,108.3515,21.7733,防城港市,防城档案局,,41,41,34,14,21,61,61,57,57,2,7,6,7,0.4,0.5
2026-03-26T1600,2501A,108.3506,21.6414,防城港市,大海花园,细颗粒物(PM2.5),62,NA,30,41,21,51,51,62,54,11,17,9,7,0.3,0.4
2026-03-26T1600,1371A,113.1293,23.0065,佛山市,湾梁,,34,34,38,19,26,100,100,79,79,6,14,/,/,/,/
2026-03-26T1600,1372A,113.1082,23.0477,佛山市,华材职中,,36,36,38,21,28,104,104,80,80,11,17,7,7,0.3,0.4
2026-03-26T1600,1373A,113.1439,23.045,佛山市,南海气象局,,37,37,44,18,30,97,97,76,76,11,16,/,/,/,/
2026-03-26T1600,1374A,113.2879,22.8094,佛山市,顺德苏岗,,31,31,46,16,22,90,90,71,71,6,13,/,/,0.5,0.5
2026-03-26T1600,1376A,112.8384,22.8678,佛山市,高明孔堂,,26,23,29,15,17,83,83,71,71,7,10,/,/,/,/
2026-03-26T1600,1377A,112.8835,23.1584,佛山市,三水监测站,,39,39,43,20,27,84,84,63,63,17,28,4,5,0.4,0.5
2026-03-26T1600,1378A,112.8668,23.185,佛山市,三水云东海,,50,50,56,18,27,94,94,71,71,15,27,/,/,/,/
2026-03-26T1600,3625A,113.2568,22.7629,佛山市,容桂街道办,,36,36,33,19,22,82,82,64,64,12,19,/,/,/,/
2026-03-26T1600,1282A,119.2681,26.0506,福州市,师大,,29,24,29,14,18,91,91,116,105,21,18,4,4,0.3,0.3
2026-03-26T1600,1283A,119.2983,26.1028,福州市,五四北路,,30,13,24,11,17,95,95,116,99,19,17,5,5,0.5,0.4
2026-03-26T1600,1284A,119.2648,26.0769,福州市,杨桥西路,,29,21,28,12,18,90,90,114,106,19,15,4,4,/,/
2026-03-26T1600,3048A,119.5799,26.0937,福州市,九龙,,29,18,25,14,16,90,90,106,99,14,14,4,5,0.6,0.4
2026-03-26T1600,3526A,119.5188,25.9666,福州市,吴航,,30,20,20,14,15,96,96,118,102,17,14,5,5,0.6,0.6
2026-03-26T1600,4104A,119.3106,26.0648,福州市,路通桥巷6号,,28,23,26,17,22,88,88,109,95,16,14,/,/,/,/
2026-03-26T1600,1755A,123.7974,41.8494,抚顺市,望花区,颗粒物(PM10),67,73,144,30,85,116,116,113,113,19,44,11,15,0.6,1.1
2026-03-26T1600,1756A,123.9161,41.8827,抚顺市,顺城区,,49,49,114,28,88,117,117,109,109,21,47,11,12,0.9,1.2
2026-03-26T1600,1757A,124.0437,41.8615,抚顺市,东洲区,颗粒物(PM10),58,60,112,32,68,122,122,106,106,19,26,10,11,0.8,1
2026-03-26T1600,1758A,123.9246,41.8638,抚顺市,新抚区,颗粒物(PM10),60,63,137,29,75,125,125,119,119,21,44,13,13,0.7,0.9
2026-03-26T1600,1759A,124.0972,41.8961,抚顺市,大伙房水库,颗粒物(PM10),51,51,88,33,56,138,138,114,114,25,23,11,9,0.9,0.7
2026-03-26T1600,1760A,123.708,41.8386,抚顺市,沈抚新城,颗粒物(PM10),54,55,145,35,90,114,114,106,106,21,54,10,13,0.7,1.4
2026-03-26T1600,2377A,116.3544,27.9833,抚州市,市站,NA,NA,24,34,16,25,73,73,88,71,NA,7,7,8,1.0,1
2026-03-26T1600,2378A,116.3562,27.9631,抚州市,血防站,,24,24,37,10,23,73,73,87,67,8,11,7,7,0.9,0.8
2026-03-26T1600,2379A,116.3561,28.0007,抚州市,采茶剧团,,24,20,38,12,24,74,74,84,67,5,7,10,11,0.7,0.8
2026-03-26T1600,2380A,116.3854,27.9648,抚州市,医学分院,,49,49,50,16,23,73,73,86,68,8,8,6,6,1.3,1.2
2026-03-26T1600,2207A,121.6095,41.9978,阜新市,工业园区,细颗粒物(PM2.5),129,115,89,91,40,165,165,109,109,14,34,10,14,0.7,0.7
2026-03-26T1600,2208A,121.6567,42.0188,阜新市,长青街,细颗粒物(PM2.5),129,104,67,91,38,163,163,115,115,16,36,9,17,0.7,0.7
2026-03-26T1600,2209A,121.6672,42.07,阜新市,农业园区,细颗粒物(PM2.5),111,132,57,72,20,161,161,118,118,18,20,7,13,0.7,0.6
2026-03-26T1600,2211A,121.6343,42.0455,阜新市,玉龙新城,细颗粒物(PM2.5),122,106,75,84,37,163,163,110,110,15,42,12,13,0.7,0.7
2026-03-26T1600,2301A,115.8276,32.8929,阜阳市,市监测站,颗粒物(PM10),71,79,88,45,51,137,137,111,111,16,25,9,7,0.6,0.5
2026-03-26T1600,2303A,115.8551,32.8606,阜阳市,开发区,颗粒物(PM10),76,86,99,40,49,139,139,111,111,13,23,8,7,0.6,0.6
2026-03-26T1600,2875A,115.783962,32.889217,阜阳市,阜阳职业技术学院,,49,49,72,29,42,148,148,125,125,11,18,10,8,0.5,0.5
2026-03-26T1600,3468A,115.79,32.8614,阜阳市,市规划展馆,细颗粒物(PM2.5),60,50,79,40,47,154,154,127,127,15,20,10,10,0.6,0.5
2026-03-26T1600,3469A,115.835101,32.918568,阜阳市,枣园社区,细颗粒物(PM2.5),70,49,86,45,54,141,141,113,113,13,21,9,7,0.6,0.6
2026-03-26T1600,2669A,102.9097,34.9841,甘南藏族自治州,州政府,,31,16,29,3,18,99,99,79,79,2,9,6,5,0.3,0.4
2026-03-26T1600,3380A,102.8915,34.9618,甘南藏族自治州,甘肃民族师范学院,,36,21,31,16,17,115,115,99,99,6,14,3,2,0.6,0.4
2026-03-26T1600,2570A,101.96,30.048,甘孜藏族自治州,水桥子,,31,6,15,3,4,97,97,54,54,4,18,6,6,0.0,0.2
2026-03-26T1600,3065A,101.9534,29.9976,甘孜藏族自治州,州环保局,,33,11,9,3,4,103,103,90,90,11,20,5,5,0.2,0.2
2026-03-26T1600,2363A,114.9368,25.8663,赣州市,地委,,32,32,27,3,13,32,32,29,29,8,15,3,3,0.9,0.9
2026-03-26T1600,2364A,114.946,25.8483,赣州市,气象台,,29,29,28,10,16,41,41,38,38,14,18,5,5,0.9,0.9
2026-03-26T1600,2365A,114.932,25.8332,赣州市,市图书馆,,22,21,24,15,14,44,44,42,38,11,14,3,4,1.1,1.1
2026-03-26T1600,2366A,114.8905,25.8472,赣州市,华坚鞋城,,34,34,32,19,14,36,36,35,35,11,18,4,5,0.5,0.6
2026-03-26T1600,3109A,115.0094,25.8614,赣州市,赣县区卫计委,,25,21,23,17,12,38,38,26,26,14,21,2,2,1.0,1
2026-03-26T1600,2684A,106.2753,36.0057,固原市,监测站,,44,44,60,27,27,125,125,102,102,7,30,9,10,0.3,0.5
2026-03-26T1600,2685A,106.2384,36.0189,固原市,新区,,50,50,55,20,22,127,127,108,108,7,25,8,8,0.3,0.5
2026-03-26T1600,2544A,106.6307,30.4577,广安市,市委,,32,24,21,14,18,101,101,71,71,10,14,6,6,0.6,0.7
2026-03-26T1600,2545A,106.6266,30.4662,广安市,友谊中学,,30,21,20,9,13,95,95,64,64,10,14,7,6,0.5,0.6
2026-03-26T1600,2547A,106.6386,30.4551,广安市,广电花园,,31,24,24,13,17,98,98,67,67,11,15,5,5,0.7,0.8
2026-03-26T1600,2902A,106.6347,30.4868,广安市,北辰小学,,31,26,23,12,17,99,99,72,72,8,12,6,6,0.6,0.8
2026-03-26T1600,2524A,105.8211,32.4444,广元市,老城,,40,15,43,8,19,126,126,83,83,6,33,6,16,0.4,1
2026-03-26T1600,2526A,105.8629,32.429,广元市,监测站,,39,37,40,10,14,123,123,85,85,7,20,12,10,0.3,0.6
2026-03-26T1600,3617A,105.8047,32.4167,广元市,经开区,,38,30,42,14,23,120,120,81,81,7,31,4,9,0.3,0.7
2026-03-26T1600,1345A,113.2346,23.1423,广州市,广雅中学,,35,35,42,16,25,92,92,70,70,10,20,3,3,0.6,0.7
2026-03-26T1600,1346A,113.2611,23.105,广州市,市五中,,35,35,38,22,27,103,103,78,78,14,23,7,8,/,/
2026-03-26T1600,1348A,113.3477,23.0916,广州市,广东商学院,,30,30,40,19,25,92,92,70,70,12,26,5,6,0.6,0.7
2026-03-26T1600,1349A,113.4332,23.105,广州市,市八十六中,,23,23,30,11,18,65,65,70,70,21,38,5,5,/,/
2026-03-26T1600,1350A,113.3506,22.9488,广州市,番禺中学,,35,35,36,17,22,83,83,71,71,7,16,4,4,0.7,0.8
2026-03-26T1600,1351A,113.2147,23.3918,广州市,花都师范,细颗粒物(PM2.5),60,58,49,40,30,106,106,86,86,19,28,6,6,0.7,0.8
2026-03-26T1600,1352A,113.2599,23.1329,广州市,市监测站,,37,37,41,20,24,90,90,69,69,12,19,1,2,/,/
2026-03-26T1600,1353A,113.5618,23.3119,广州市,九龙镇镇龙,,38,38,46,17,29,87,87,70,70,15,34,6,7,0.3,0.4
2026-03-26T1600,1354A,113.2764,23.1544,广州市,麓湖,,35,35,41,18,25,99,99,75,75,10,26,3,4,0.4,0.4
2026-03-26T1600,2846A,113.3209,23.1323,广州市,体育西,,39,39,46,18,24,93,93,69,69,12,25,5,6,0.6,0.7
2026-03-26T1600,3298A,113.5718,23.5493,广州市,从化街口,,35,35,51,21,34,104,104,84,84,11,24,6,7,0.5,0.7
2026-03-26T1600,3299A,113.3463,23.369,广州市,白云竹料,,34,34,53,18,32,91,91,74,74,13,27,3,4,0.6,0.7
2026-03-26T1600,3300A,113.2981,23.2365,广州市,白云嘉禾,,34,34,51,18,29,99,99,77,77,14,31,8,8,/,/
2026-03-26T1600,3301A,113.4256,23.1716,广州市,黄埔科学城,,27,27,42,16,28,79,79,79,79,17,32,4,5,0.4,0.5
2026-03-26T1600,3302A,113.3942,23.0485,广州市,番禺大学城,,32,23,43,11,23,100,100,82,82,13,23,5,6,0.4,0.6
2026-03-26T1600,3303A,113.4923,22.8169,广州市,南沙黄阁,,27,27,37,14,18,79,79,72,72,9,24,6,6,/,/
2026-03-26T1600,3304A,113.534,22.7893,广州市,南沙街,,31,31,35,12,17,70,70,68,68,6,16,8,8,0.4,0.5
2026-03-26T1600,3443A,113.2905,23.5541,广州市,花都梯面,,32,32,51,17,34,102,102,73,73,15,30,8,9,/,/
2026-03-26T1600,3445A,113.786,23.7479,广州市,从化良口,,40,34,42,28,35,116,116,76,76,10,16,4,4,/,/
2026-03-26T1600,3446A,113.805,23.2614,广州市,增城荔城,,31,30,48,19,31,99,99,78,78,13,27,5,5,0.4,0.5
2026-03-26T1600,2506A,109.604387,23.066791,贵港市,江南子站,颗粒物(PM10),51,51,57,32,34,107,107,73,73,5,15,7,7,0.6,0.7
2026-03-26T1600,2508A,109.5669,23.1065,贵港市,荷城子站,,46,46,50,26,34,103,103,72,72,10,16,8,9,0.6,0.7
2026-03-26T1600,3405A,109.5886,23.1172,贵港市,新世纪学校,NA,NA,NA,51,28,32,104,104,73,73,10,18,/,/,0.6,0.6
2026-03-26T1600,4260A,109.5933,23.095,贵港市,中山路155-3号,,50,50,62,28,33,111,111,73,73,8,15,/,/,0.6,0.6
2026-03-26T1600,1439A,106.6863,26.6035,贵阳市,马鞍山,,44,44,25,27,18,67,67,44,44,8,14,4,4,/,/
2026-03-26T1600,1441A,106.6241,26.6266,贵阳市,鉴湖路,,41,41,28,25,16,68,68,40,40,15,19,6,5,0.6,0.6
2026-03-26T1600,1442A,106.7468,26.6344,贵阳市,燕子冲,,40,39,33,28,18,66,66,40,40,10,14,7,7,0.6,0.7
2026-03-26T1600,1443A,106.6556,26.4362,贵阳市,碧云窝,,36,36,34,22,19,88,88,45,45,10,15,7,9,/,/
2026-03-26T1600,1445A,106.6963,26.6063,贵阳市,红边门,,40,36,34,28,20,66,66,39,39,10,22,10,12,/,/
2026-03-26T1600,1446A,106.7162383,26.56964667,贵阳市,新华路,NA,NA,NA,38,NA,20,67,67,43,43,10,21,13,8,0.5,0.7
2026-03-26T1600,1447A,106.6742,26.542,贵阳市,太慈桥,,44,44,30,27,19,91,91,55,55,11,18,4,4,/,/
2026-03-26T1600,4230A,106.688212,26.56952,贵阳市,花果园大街66号,,35,34,27,24,21,65,65,35,35,10,21,3,3,/,/
2026-03-26T1600,4231A,106.687268,26.516892,贵阳市,漓江路57号,,41,41,25,23,18,81,81,40,40,11,19,8,8,1.0,1.1
2026-03-26T1600,1864A,110.3091,25.2705,桂林市,龙隐路小学,颗粒物(PM10),58,61,46,33,29,98,98,60,60,12,17,6,5,0.7,0.9
2026-03-26T1600,1865A,110.2849361,25.22909545,桂林市,八中,颗粒物(PM10),56,58,50,14,18,82,82,52,52,12,21,5,6,0.8,1.1
2026-03-26T1600,3531A,110.296,25.1254,桂林市,旅游学院,,49,49,52,26,34,95,95,55,55,6,22,6,8,0.7,1
2026-03-26T1600,4222A,110.1835,25.2444,桂林市,环湖路276号,颗粒物(PM10),55,56,52,34,35,98,98,56,56,10,27,6,19,0.6,1
2026-03-26T1600,4301A,110.2803,25.2773,桂林市,信义路13号,颗粒物(PM10),58,61,44,22,28,102,102,60,60,10,21,6,8,0.9,1.1
2026-03-26T1600,2674A,100.2262,34.4854,果洛藏族自治州,玛沁县大武镇,,39,29,35,10,19,122,122,112,112,1,5,10,17,0.2,0.4
2026-03-26T1600,1130A,126.5557,45.8109,哈尔滨市,松北商大,细颗粒物(PM2.5),76,60,199,48,174,113,113,102,102,14,41,10,12,0.2,0.8
2026-03-26T1600,1132A,126.6162,45.719,哈尔滨市,南岗学府路,细颗粒物(PM2.5),68,69,195,44,153,118,118,107,107,18,37,9,13,0,0.4
2026-03-26T1600,1133A,126.6894,45.7733,哈尔滨市,太平宏伟公园,颗粒物(PM10),60,63,197,38,164,116,116,102,102,14,35,3,8,0,0.5
2026-03-26T1600,1134A,126.6361,45.7672,哈尔滨市,道外承德广场,NA,NA,76,223,41,156,115,115,104,104,19,36,NA,12,NA,0.4
2026-03-26T1600,1136A,126.644,45.7261,哈尔滨市,动力和平路,颗粒物(PM10),69,76,194,42,148,116,116,104,104,14,37,16,19,1.0,1.6
2026-03-26T1600,1137A,126.5933,45.7479,哈尔滨市,道里建国路,细颗粒物(PM2.5),84,79,195,52,161,108,108,98,98,28,45,10,16,0.2,1
2026-03-26T1600,1138A,126.6127,45.6119,哈尔滨市,平房东轻厂,细颗粒物(PM2.5),100,NA,224,60,183,102,102,91,91,58,110,8,12,0.6,1.3
2026-03-26T1600,1139A,126.5875,45.9827,哈尔滨市,呼兰师专,细颗粒物(PM2.5),90,78,238,55,203,110,110,96,96,17,38,11,13,0.6,1.3
2026-03-26T1600,1140A,126.6299,45.6799,哈尔滨市,省农科院,颗粒物(PM10),134,206,238,51,160,80,80,82,82,73,49,12,14,0.7,0.7
2026-03-26T1600,4282A,126.6769,45.7379,哈尔滨市,华山路1号,细颗粒物(PM2.5),313,NA,191,263,163,100,100,98,98,16,36,9,13,0.6,1.3
2026-03-26T1600,4283A,126.9717,45.5356,哈尔滨市,解放大街52号,细颗粒物(PM2.5),76,81,376,48,218,127,127,103,103,18,44,15,18,0.3,1.1
2026-03-26T1600,2688A,93.5124,42.8176,哈密市,地区监测站,,24,11,17,3,7,75,75,70,67,6,8,6,5,0.0,0
2026-03-26T1600,2689A,93.5014,42.8312,哈密市,哈密师范学校,NA,NA,13,12,NA,9,83,83,76,74,6,8,7,7,0.1,0.2
2026-03-26T1600,2671A,100.9016,36.9464,海北藏族自治州,海晏县西海镇,,34,24,47,17,30,108,108,104,104,2,5,9,8,0.5,0.5
2026-03-26T1600,3867A,102.074,36.5056,海东市,平安区公安局北苑,,50,50,63,31,37,137,137,100,100,3,11,9,13,0.6,0.7
2026-03-26T1600,4163A,102.0984,36.5119,海东市,滨河路,,46,41,62,32,37,113,113,85,85,13,35,7,12,0.7,1
2026-03-26T1600,1410A,110.3189,20.0596,海口市,海南大学,,22,20,25,12,15,70,70,64,64,4,4,6,5,0.3,0.3
2026-03-26T1600,1411A,110.2827,20.0051,海口市,秀英海南医院,,25,25,22,14,16,73,73,63,63,8,12,8,8,0.3,0.3
2026-03-26T1600,1412A,110.3391,19.9979,海口市,海南师范大学,,25,22,27,15,17,78,78,69,69,4,5,6,6,0.3,0.4
2026-03-26T1600,1413A,110.3303,20.0359,海口市,龙华路环保局宿舍,,24,24,25,12,15,74,74,68,68,5,6,/,/,0.5,0.5
2026-03-26T1600,3539A,110.5111,19.9737,海口市,桂林洋子站,,25,25,28,14,15,71,71,64,64,7,8,/,/,/,/
2026-03-26T1600,4134A,110.1952,20.0451,海口市,长滨二路9号,,20,17,25,10,16,64,64,61,61,9,6,/,/,/,/
2026-03-26T1600,2673A,100.6158,36.2985,海南藏族自治州,共和县恰卜恰镇,,40,17,48,17,30,128,128,111,111,3,12,12,12,0.3,0.4
2026-03-26T1600,2676A,97.373,37.376,海西蒙古族藏族自治州,德令哈市,,46,NA,36,16,15,145,145,138,138,1,3,17,15,0.3,0.4
2026-03-26T1600,1049A,114.492,36.5712,邯郸市,矿院,颗粒物(PM10),68,75,86,38,48,136,136,94,94,6,16,5,6,0.3,0.5
2026-03-26T1600,1050A,114.4839,36.6136,邯郸市,丛台公园,"颗粒物(PM10),细颗粒物(PM2.5)",64,69,93,42,56,146,146,104,104,6,17,6,10,0.3,0.5
2026-03-26T1600,3458A,114.7893,36.5592,邯郸市,香泉濮院小区,颗粒物(PM10),90,105,103,25,41,146,146,109,109,5,11,1,2,0.3,0.5
2026-03-26T1600,3580A,114.1998,36.4439,邯郸市,峰峰矿区临水派出所,颗粒物(PM10),63,68,83,20,36,153,153,124,124,9,19,4,9,0.5,0.8
2026-03-26T1600,4068A,114.5209,36.7697,邯郸市,建安街268号,颗粒物(PM10),63,68,95,38,60,154,154,130,130,8,26,1,7,0.2,0.6
2026-03-26T1600,4069A,114.5488,36.6177,邯郸市,丛台东路558号,颗粒物(PM10),70,78,98,37,61,142,142,104,104,7,19,2,4,0.4,0.5
2026-03-26T1600,2635A,107.0155,33.0707,汉中市,市监测站,NA,NA,NA,48,NA,28,107,107,75,75,8,22,7,7,0.3,0.6
2026-03-26T1600,2636A,107.0083,33.114,汉中市,鑫源开发区,,38,29,51,9,29,119,119,79,79,6,28,4,6,0.3,0.6
2026-03-26T1600,2637A,107.0072,33.0323,汉中市,南郑大河坎水厂,,37,34,49,8,28,118,118,74,74,4,19,4,4,0.2,0.6
2026-03-26T1600,1223A,120.2073,30.2111,杭州市,滨江,细颗粒物(PM2.5),84,71,111,52,72,85,85,61,61,34,53,8,9,0.4,0.5
2026-03-26T1600,1224A,120.0625,30.2737,杭州市,西溪,细颗粒物(PM2.5),90,90,92,55,57,87,87,69,69,36,37,9,9,0.7,0.8
2026-03-26T1600,1226A,120.3417,30.315,杭州市,下沙,细颗粒物(PM2.5),76,64,117,48,76,92,92,77,77,24,49,10,9,0.8,0.9
2026-03-26T1600,1227A,120.1252,30.2465,杭州市,卧龙桥,细颗粒物(PM2.5),100,82,89,60,57,84,84,72,72,38,36,8,8,0.4,0.5
2026-03-26T1600,1228A,120.1902,30.2691,杭州市,浙江农大,细颗粒物(PM2.5),82,63,113,51,76,87,87,68,68,38,58,7,7,0.5,0.6
2026-03-26T1600,1230A,120.1195,30.3121,杭州市,和睦小学,细颗粒物(PM2.5),96,81,125,58,81,88,88,75,75,36,45,8,8,0.9,1
2026-03-26T1600,1231A,120.3076,30.4146,杭州市,临平镇,细颗粒物(PM2.5),107,98,105,67,77,102,102,95,95,37,42,9,8,0.8,0.9
2026-03-26T1600,1232A,120.2753,30.1839,杭州市,城厢镇,颗粒物(PM10),64,69,97,32,78,90,90,61,61,25,60,9,11,0.6,0.8
2026-03-26T1600,1233A,120.0883,30.1808,杭州市,云栖,颗粒物(PM10),66,72,92,42,49,82,82,63,63,41,46,6,6,0.8,0.9
2026-03-26T1600,3557A,119.9463,30.0496,杭州市,镇二中,,40,NA,93,28,60,90,90,54,54,17,34,4,4,0.8,1
2026-03-26T1600,3558A,119.7184,30.2367,杭州市,市府大楼,细颗粒物(PM2.5),126,120,76,88,56,69,69,59,59,51,29,8,7,0.4,0.3
2026-03-26T1600,3656A,120.1554,30.2863,杭州市,消防大队,细颗粒物(PM2.5),98,70,120,59,82,82,82,66,66,33,51,9,9,0.7,1
2026-03-26T1600,1270A,117.1957,31.7845,合肥市,明珠广场,细颗粒物(PM2.5),72,78,73,46,42,132,132,108,108,20,25,9,7,0.7,0.6
2026-03-26T1600,1271A,117.307,31.8765,合肥市,三里街,颗粒物(PM10),72,80,80,45,49,132,132,91,91,21,36,7,7,0.9,0.9
2026-03-26T1600,1272A,117.2587,31.8703,合肥市,琥珀山庄,颗粒物(PM10),63,68,76,32,39,136,136,109,109,25,34,7,7,0.8,0.8
2026-03-26T1600,1275A,117.2593,31.9376,合肥市,庐阳区,细颗粒物(PM2.5),82,85,85,51,51,146,146,108,108,24,38,6,6,1.0,0.9
2026-03-26T1600,1276A,117.345251,31.861615,合肥市,瑶海区,颗粒物(PM10),68,75,86,40,43,140,140,102,102,23,43,7,7,0.8,0.8
2026-03-26T1600,1277A,117.3033,31.7967,合肥市,包河区,颗粒物(PM10),65,70,79,37,40,126,126,96,96,35,55,11,10,0.7,0.7
2026-03-26T1600,1278A,117.278,31.7392,合肥市,滨湖新区,颗粒物(PM10),74,83,76,46,41,137,137,112,112,11,14,6,6,0.7,0.9
2026-03-26T1600,1279A,117.1324,31.8395,合肥市,高新区,颗粒物(PM10),65,70,73,36,38,134,134,109,109,18,24,7,6,0.8,0.8
2026-03-26T1600,3464A,117.3802,31.9148,合肥市,高教基地,颗粒物(PM10),72,80,76,45,44,149,149,111,111,21,28,10,10,0.8,0.7
2026-03-26T1600,4098A,117.2518,31.8404,合肥市,中国科学技术大学,颗粒物(PM10),58,61,73,34,40,141,141,118,118,16,28,8,8,0.6,0.8
2026-03-26T1600,3614A,79.9241,37.0878,和田地区,地区环保局,颗粒物(PM10),213,359,437,48,67,114,114,88,88,2,9,1,2,0.1,0.3
2026-03-26T1600,3615A,79.9132,37.1137,和田地区,市环保局,颗粒物(PM10),188,326,410,53,77,107,107,81,76,5,13,1,2,0.3,0.4
2026-03-26T1600,2517A,108.0496,24.6957,河池市,市环保站,颗粒物(PM10),55,57,67,33,46,87,87,48,48,5,13,6,7,0.6,0.7
2026-03-26T1600,4302A,108.0901,24.6945,河池市,上任中路54号,颗粒物(PM10),58,60,68,32,42,86,86,40,40,7,19,6,7,0.7,1
2026-03-26T1600,1697A,114.6962,23.7538,河源市,东埔,,32,19,48,16,35,101,101,94,76,7,16,5,7,0.8,0.9
2026-03-26T1600,1698A,114.6895,23.7232,河源市,老城,,34,34,49,19,37,101,101,92,76,7,14,6,7,0.8,0.8
2026-03-26T1600,3374A,115.5562,35.089,菏泽市,定陶老年大学,颗粒物(PM10),74,83,96,37,55,159,159,131,131,10,15,5,5,0.4,0.5
2026-03-26T1600,4114A,115.4239,35.2593,菏泽市,黄河路600号,颗粒物(PM10),89,104,108,47,54,157,157,132,132,11,15,2,4,0.4,0.5
2026-03-26T1600,4115A,115.5025,35.2727,菏泽市,菏泽市人社局,颗粒物(PM10),78,89,92,44,56,155,155,130,130,12,15,6,6,0.3,0.4
2026-03-26T1600,4184A,115.479691,35.244011,菏泽市,永昌路1号,颗粒物(PM10),82,94,94,36,48,176,176,147,147,14,16,3,3,0.6,0.7
2026-03-26T1600,4193A,115.471542,35.280012,菏泽市,长城路999号,NA,NA,97,97,40,48,166,166,143,143,9,11,NA,9,0.2,0.3
2026-03-26T1600,2514A,111.5264,24.4178,贺州市,环保小区,细颗粒物(PM2.5),106,95,65,66,49,12,12,11,8,44,27,10,6,NA,1.1
2026-03-26T1600,2515A,111.561,24.4074,贺州市,政协大楼,细颗粒物(PM2.5),117,88,66,78,54,39,39,16,16,40,44,12,7,1.2,1.3
2026-03-26T1600,3534A,111.4744,24.455,贺州市,西湾,细颗粒物(PM2.5),104,121,81,64,49,43,43,20,20,31,30,13,7,0.9,1
2026-03-26T1600,2385A,114.17,35.9019,鹤壁市,市监测站,细颗粒物(PM2.5),76,74,97,48,55,151,151,115,115,15,24,7,8,0.5,0.7
2026-03-26T1600,2386A,114.2953,35.7512,鹤壁市,市交警支队,颗粒物(PM10),73,81,100,36,55,148,148,104,104,9,21,8,9,0.4,0.5
2026-03-26T1600,2387A,114.2877,35.7302,鹤壁市,迎宾馆,颗粒物(PM10),83,95,110,42,55,145,145,102,102,12,23,13,12,0.4,0.5
2026-03-26T1600,3474A,114.2616,35.6824,鹤壁市,大新区,细颗粒物(PM2.5),80,86,93,50,61,137,137,95,95,13,25,9,9,0.7,0.8
2026-03-26T1600,3596A,114.1573,35.9607,鹤壁市,南山宾馆,颗粒物(PM10),102,124,137,46,55,147,147,118,118,9,19,10,12,0.4,0.5
2026-03-26T1600,2244A,130.2537,47.3416,鹤岗市,哈啤分公司,细颗粒物(PM2.5),102,NA,58,62,59,107,107,108,108,19,16,8,9,0.5,0.5
2026-03-26T1600,2245A,130.2683,47.3087,鹤岗市,斯达机电,细颗粒物(PM2.5),106,72,71,66,62,106,106,106,106,16,18,11,11,0.4,0.5
2026-03-26T1600,2246A,130.3114,47.3388,鹤岗市,东山纸板厂,"颗粒物(PM10),细颗粒物(PM2.5)",112,149,89,73,69,102,102,109,109,18,23,10,13,0.6,1.6
2026-03-26T1600,2263A,127.4832,50.2524,黑河市,交通局,,38,38,45,21,24,95,95,79,79,13,17,6,7,0.5,0.6
2026-03-26T1600,2264A,127.5146,50.2339,黑河市,环保局,,48,35,49,33,38,106,106,84,80,16,28,7,7,0.5,0.6
2026-03-26T1600,1074A,115.6839,37.754,衡水市,电机北厂,细颗粒物(PM2.5),103,111,125,63,76,151,151,102,102,15,22,10,8,0.5,0.6
2026-03-26T1600,1075A,115.6303,37.7318,衡水市,市监测站,细颗粒物(PM2.5),106,116,129,66,78,146,146,98,98,14,21,10,9,0.6,0.5
2026-03-26T1600,3188A,115.6684,37.7216,衡水市,市城管局,颗粒物(PM10),93,110,120,56,73,147,147,104,104,14,20,8,9,0.6,0.5
2026-03-26T1600,3459A,115.599,37.5491,衡水市,地表水厂,颗粒物(PM10),87,101,125,43,77,151,151,104,104,8,26,7,8,0.3,0.5
2026-03-26T1600,2457A,112.6209,26.9268,衡阳市,衡阳化工总厂,,12,12,50,7,41,31,31,40,29,21,15,6,7,1.1,1.1
2026-03-26T1600,2458A,112.621,26.8957,衡阳市,珠晖区环保局,NA,NA,10,49,3,35,24,24,37,NA,NA,19,7,7,1.3,1.2
2026-03-26T1600,2459A,112.628,26.8654,衡阳市,市委党校,,14,14,44,7,35,30,30,41,30,20,15,3,5,1.0,1.1
2026-03-26T1600,2460A,112.6007,26.8977,衡阳市,市监测站,NA,NA,15,46,3,39,29,29,40,29,NA,20,6,8,0.9,1
2026-03-26T1600,2461A,112.5658,26.9013,衡阳市,真空机电公司,,14,14,43,3,38,34,34,36,34,22,20,6,7,1.0,1.1
2026-03-26T1600,3399A,112.6703,26.8817,衡阳市,师范学院,,23,23,48,13,31,37,37,43,32,14,12,8,17,1.0,1
2026-03-26T1600,3038A,103.3757,23.3679,红河哈尼族彝族自治州,州图书馆,细颗粒物(PM2.5),76,56,62,48,50,153,153,141,141,6,9,5,6,0.4,0.6
2026-03-26T1600,4154A,103.401,23.3561,红河哈尼族彝族自治州,蒙自市朝阳路,细颗粒物(PM2.5),68,NA,52,44,49,152,152,140,140,7,11,9,11,0.5,0.6
2026-03-26T1600,1090A,111.6506,40.7517,呼和浩特市,呼市一监,,48,48,70,17,38,109,109,93,93,5,29,7,10,0.3,0.7
2026-03-26T1600,1094A,111.7516,40.8369,呼和浩特市,如意水处理厂,,38,38,50,22,26,109,109,98,98,7,38,8,10,0.2,0.5
2026-03-26T1600,1095A,111.727798,40.806187,呼和浩特市,二十九中,,45,45,57,14,27,101,101,87,87,4,25,7,10,0.2,0.5
2026-03-26T1600,1097A,111.717,40.7617,呼和浩特市,化肥厂生活区,,36,36,82,18,56,108,108,92,92,7,34,5,10,0.2,0.6
2026-03-26T1600,3699A,111.6519,40.8389,呼和浩特市,海东办,,46,46,47,15,22,104,104,89,89,5,33,4,5,0.2,0.4
2026-03-26T1600,4275A,111.591512,40.827312,呼和浩特市,成吉思汗西街8号,颗粒物(PM10),56,58,52,18,18,100,100,90,90,10,30,1,3,0.2,0.3
2026-03-26T1600,4276A,111.6597,40.8077,呼和浩特市,公园东路75号,颗粒物(PM10),56,58,57,19,25,93,93,85,85,10,27,8,10,0.2,0.6
2026-03-26T1600,4277A,111.5427,40.7846,呼和浩特市,金海路35号,,50,50,51,19,22,104,104,94,94,8,25,6,7,0.2,0.3
2026-03-26T1600,3061A,119.7511,49.1576,呼伦贝尔市,国华电力东,,28,18,24,13,12,89,89,88,88,6,6,4,4,0.2,0.2
2026-03-26T1600,4279A,119.7569,49.2222,呼伦贝尔市,伊敏大街东7号,,29,20,21,16,13,91,91,90,90,6,9,7,7,0.5,0.3
2026-03-26T1600,1250A,120.075,30.867,湖州市,城西水厂,细颗粒物(PM2.5),76,66,84,48,67,121,121,107,107,25,47,7,7,0.7,0.9
2026-03-26T1600,2873A,120.083,30.8929,湖州市,仁皇山新区,颗粒物(PM10),65,70,82,41,56,118,118,113,113,34,35,6,6,0.7,0.9
2026-03-26T1600,2907A,120.1846,30.8592,湖州市,吴兴区站,颗粒物(PM10),65,71,101,37,58,122,122,114,114,22,31,6,7,0.7,0.9
2026-03-26T1600,3562A,120.4146,30.8538,湖州市,南浔区站,NA,NA,51,67,35,50,105,105,107,107,35,27,6,6,NA,0.9
2026-03-26T1600,1607A,120.904878,40.721091,葫芦岛市,龙港区,细颗粒物(PM2.5),119,110,176,80,123,162,162,119,119,16,53,13,28,0.8,1.3
2026-03-26T1600,1608A,120.8382,40.7521,葫芦岛市,化工街,细颗粒物(PM2.5),137,139,184,100,126,145,145,115,115,25,77,20,36,0.7,1.2
2026-03-26T1600,1609A,120.8339,40.7078,葫芦岛市,新区,细颗粒物(PM2.5),135,111,154,98,143,141,141,103,103,20,66,13,17,0.8,1.2
2026-03-26T1600,1610A,120.8697,40.7679,葫芦岛市,东城区,细颗粒物(PM2.5),147,NA,159,111,128,147,147,116,116,24,79,14,28,0.9,1.4
2026-03-26T1600,2483A,109.9297,27.5383,怀化市,河西地税局,,26,11,12,6,7,81,81,76,76,7,12,5,4,/,/
2026-03-26T1600,2484A,109.9783,27.5342,怀化市,市四医院,,26,13,13,3,7,81,81,76,76,6,8,6,6,0.4,0.4
2026-03-26T1600,2485A,109.9971,27.5579,怀化市,监测楼,,26,15,13,7,9,82,82,78,78,7,12,6,4,0.3,0.3
2026-03-26T1600,1210A,119.0566,33.5991,淮安市,钵池山,细颗粒物(PM2.5),96,73,84,58,64,153,153,129,129,18,32,8,11,0.3,0.5
2026-03-26T1600,1211A,119.0083,33.578,淮安市,北京南路,细颗粒物(PM2.5),110,83,86,70,69,148,148,125,125,14,33,9,12,0.6,0.7
2026-03-26T1600,1212A,118.9938,33.6083,淮安市,市监测站,细颗粒物(PM2.5),100,68,77,60,66,161,161,141,141,20,29,8,9,0.5,0.6
2026-03-26T1600,1213A,119.135,33.5038,淮安市,楚州区监测站,细颗粒物(PM2.5),115,90,98,76,77,156,156,122,122,13,44,8,9,0.5,0.6
2026-03-26T1600,3426A,118.8757,33.2897,淮安市,新华书店,细颗粒物(PM2.5),111,NA,102,72,71,152,152,128,128,NA,33,NA,9,0.5,0.5
2026-03-26T1600,4092A,119.119691,33.550006,淮安市,枚皋中路89号,细颗粒物(PM2.5),107,70,98,67,73,156,156,126,126,15,31,12,13,0.7,0.7
2026-03-26T1600,4206A,119.028838,33.631911,淮安市,承德北路606号,细颗粒物(PM2.5),82,85,102,51,68,146,146,123,123,11,32,9,11,0.3,0.5
2026-03-26T1600,2282A,116.8005,33.9749,淮北市,监测站,细颗粒物(PM2.5),66,58,99,43,56,160,160,132,132,11,21,7,8,0.5,0.5
2026-03-26T1600,2283A,116.8094,33.9008,淮北市,烈山区政府,细颗粒物(PM2.5),72,74,79,46,50,157,157,121,121,14,23,7,8,0.5,0.4
2026-03-26T1600,4017A,116.7926,33.9534,淮北市,市博物馆,细颗粒物(PM2.5),62,60,86,41,52,154,154,128,128,12,21,4,7,0.4,0.6
2026-03-26T1600,4100A,116.8322,33.9884,淮北市,杜集区第一实验学校,颗粒物(PM10),73,81,89,44,51,148,148,118,118,12,22,7,8,0.4,0.4
2026-03-26T1600,2277A,116.8304,32.7726,淮南市,潘集区政府,细颗粒物(PM2.5),90,84,84,55,49,130,130,114,114,16,28,8,8,0.6,0.6
2026-03-26T1600,2279A,116.8569,32.5949,淮南市,谢家集区政府,细颗粒物(PM2.5),66,57,65,43,42,155,155,124,124,21,25,9,10,0.6,0.6
2026-03-26T1600,2280A,116.8279,32.6333,淮南市,八公山区政府,细颗粒物(PM2.5),76,69,72,48,48,136,136,121,121,14,16,11,10,0.6,0.6
2026-03-26T1600,2894A,117.0561,32.6536,淮南市,经济技术开发区消防队,细颗粒物(PM2.5),82,79,76,51,52,130,130,114,114,20,27,9,8,0.5,0.6
2026-03-26T1600,3329A,117.011,32.5891,淮南市,山南新区,细颗粒物(PM2.5),84,79,76,52,50,158,158,132,132,22,22,9,9,0.6,0.5
2026-03-26T1600,4209A,117.003137,32.644456,淮南市,国庆中路369号,细颗粒物(PM2.5),90,70,73,55,53,128,128,120,120,18,18,11,11,0.6,0.6
2026-03-26T1600,2446A,114.9021,30.474,黄冈市,职工中心,,45,44,68,31,50,83,83,78,78,12,13,7,6,0.7,0.9
2026-03-26T1600,2929A,114.8858,30.4519,黄冈市,红卫路,,43,40,66,30,49,90,90,81,81,13,17,5,5,0.6,0.5
2026-03-26T1600,3398A,114.9134,30.4446,黄冈市,市林业局,,47,47,76,32,49,84,84,75,75,17,21,5,4,0.7,0.6
2026-03-26T1600,2672A,102.02,35.5101,黄南藏族自治州,同仁县隆务镇,,40,28,34,14,21,125,125,111,111,3,3,10,9,0.2,0.3
2026-03-26T1600,2295A,118.2905,29.6965,黄山市,延安路89号,细颗粒物(PM2.5),62,51,35,41,23,74,74,53,53,17,17,4,4,0.5,0.4
2026-03-26T1600,2297A,118.1369,30.2755,黄山市,黄山区政府5号楼,,39,39,34,16,14,58,58,53,53,12,12,4,3,0.6,0.4
2026-03-26T1600,4210A,118.335445,29.720283,黄山市,滨江东路7-2号,颗粒物(PM10),54,55,48,30,22,79,79,56,56,11,15,/,/,/,/
2026-03-26T1600,2423A,115.0547,30.2332,黄石市,沈家营,颗粒物(PM10),51,51,75,28,37,78,78,50,50,6,23,16,7,0.8,0.9
2026-03-26T1600,2426A,114.899,30.211,黄石市,铁山,,40,30,52,28,43,86,86,86,72,8,16,7,10,0.8,1
2026-03-26T1600,2427A,115.0259,30.2108,黄石市,团城山,,41,41,70,24,43,82,82,55,55,5,20,4,4,0.6,0.8
2026-03-26T1600,3149A,115.0174,30.1591,黄石市,笔架山北路,颗粒物(PM10),51,51,87,30,43,103,103,88,80,1,12,9,10,0.6,0.8
2026-03-26T1600,4185A,115.078022,30.21118,黄石市,磁湖东路29号,,50,50,75,30,44,97,97,68,68,3,28,4,6,0.7,1.1
2026-03-26T1600,1392A,114.4181,23.0528,惠州市,河南岸金山湖子站,,33,26,44,16,26,105,105,83,83,7,13,6,7,0.6,0.6
2026-03-26T1600,1393A,114.4055,23.0824,惠州市,下埔横江三路子站,,34,28,50,16,28,106,106,84,84,8,14,6,5,0.5,0.6
2026-03-26T1600,1395A,114.4645,22.7832,惠州市,惠阳区承修路船湖子站,,36,36,46,19,23,101,101,90,90,10,16,6,7,0.4,0.4
2026-03-26T1600,1396A,114.5316,22.7423,惠州市,大亚湾管委会子站,,37,37,39,20,21,86,86,84,84,18,15,4,4,0.5,0.5
2026-03-26T1600,3314A,114.4334,22.8134,惠州市,惠阳秋长,NA,NA,NA,38,18,22,107,107,94,94,7,17,/,/,/,/
2026-03-26T1600,3452A,114.6521,22.7755,惠州市,大亚湾霞涌,,33,27,23,17,15,104,104,96,96,7,8,/,/,/,/
2026-03-26T1600,4300A,114.4089,23.1147,惠州市,文华一路1号,,35,26,42,17,28,110,110,85,85,10,15,/,/,/,/
2026-03-26T1600,2240A,130.9618,45.2926,鸡西市,环保局,NA,NA,59,92,47,70,106,106,105,105,NA,22,6,9,0.2,0.4
2026-03-26T1600,2243A,130.9294,45.2959,鸡西市,第一中学,细颗粒物(PM2.5),74,57,88,47,69,104,104,101,101,6,12,5,8,0.2,0.4
2026-03-26T1600,3707A,131.0069,45.2988,鸡西市,欧美日汽修厂,细颗粒物(PM2.5),84,60,111,52,76,97,97,100,100,16,24,8,12,0.7,1
2026-03-26T1600,2367A,114.9753,27.0803,吉安市,红声器材厂,,18,17,36,3,18,56,56,62,58,23,20,6,7,1.1,1
2026-03-26T1600,2369A,114.9903,27.1313,吉安市,市环境监测站,,19,13,33,3,20,59,59,65,61,19,18,7,8,/,/
2026-03-26T1600,2370A,115.009527,27.096792,吉安市,青原区法院,,19,16,33,7,19,60,60,64,61,22,16,2,3,0.9,0.8
2026-03-26T1600,1772A,126.54,43.8622,吉林市,哈达湾,细颗粒物(PM2.5),246,218,248,196,195,160,160,142,142,31,33,15,12,1.1,1.3
2026-03-26T1600,1773A,126.5843,43.8358,吉林市,东局子,细颗粒物(PM2.5),239,194,222,189,171,153,153,132,132,30,33,12,7,1.3,1.5
2026-03-26T1600,1774A,126.5051,43.8243,吉林市,电力学院,细颗粒物(PM2.5),217,NA,238,167,174,171,171,151,151,30,34,13,10,1.1,1.4
2026-03-26T1600,1775A,126.6133,43.8971,吉林市,江北,细颗粒物(PM2.5),235,213,269,185,240,166,166,148,148,33,40,14,12,1.1,1.4
2026-03-26T1600,1776A,126.5549,43.8304,吉林市,江南公园,细颗粒物(PM2.5),222,177,208,172,166,150,150,133,133,34,32,16,12,1.0,1.2
2026-03-26T1600,2868A,126.4737,43.953,吉林市,九站,细颗粒物(PM2.5),335,292,317,285,256,163,163,142,142,39,55,14,24,1.3,1.5
2026-03-26T1600,1299A,116.9866,36.6118,济南市,科干所,颗粒物(PM10),80,92,94,27,47,168,168,149,149,8,11,9,8,0.6,0.7
2026-03-26T1600,1300A,116.9379,36.6652,济南市,农科所,颗粒物(PM10),83,95,93,36,49,158,158,138,138,17,15,8,7,0.5,0.5
2026-03-26T1600,1301A,117.1265,36.6736,济南市,开发区,颗粒物(PM10),74,83,93,28,49,169,169,140,140,14,16,6,6,0.6,0.7
2026-03-26T1600,1303A,117.0616,36.6865,济南市,省种子仓库,颗粒物(PM10),83,95,100,24,45,167,167,148,148,9,13,6,6,0.5,0.6
2026-03-26T1600,1304A,116.9495185,36.644937,济南市,机床二厂,颗粒物(PM10),85,98,95,35,49,161,161,143,143,16,14,8,7,0.6,0.6
2026-03-26T1600,1305A,117.0496,36.6629,济南市,市监测站,颗粒物(PM10),75,85,99,22,40,160,160,141,141,11,14,5,5,0.5,0.6
2026-03-26T1600,1306A,116.7674,36.5458,济南市,长清党校,颗粒物(PM10),91,107,100,28,45,166,166,140,140,9,10,6,7,0.6,0.5
2026-03-26T1600,1961A,117.5323,36.6865,济南市,东山小学,颗粒物(PM10),95,112,102,42,47,170,170,142,142,21,24,5,5,0.6,0.6
2026-03-26T1600,3059A,117.7181,36.205,济南市,泰兴公司,颗粒物(PM10),84,97,123,34,69,175,175,133,133,10,35,13,14,0.8,0.8
2026-03-26T1600,3064A,117.6861,36.2172,济南市,莱芜战役纪念馆,颗粒物(PM10),79,90,122,31,64,174,174,132,132,12,30,7,8,0.5,0.7
2026-03-26T1600,3494A,117.1673,36.9782,济南市,济阳区政府,颗粒物(PM10),90,105,115,34,59,147,147,119,119,13,26,7,8,0.5,0.4
2026-03-26T1600,3495A,117.1168,36.6299,济南市,锦屏中学,颗粒物(PM10),69,76,81,30,45,164,164,148,148,14,14,6,6,0.3,0.3
2026-03-26T1600,4108A,117.7107,36.2385,济南市,山财大街5号,颗粒物(PM10),80,92,114,33,67,175,175,158,158,11,33,10,12,0.4,0.7
2026-03-26T1600,4109A,116.9744,36.6889,济南市,无影山路12号,颗粒物(PM10),78,88,84,42,51,151,151,136,136,15,15,7,6,0.7,0.7
2026-03-26T1600,1653A,116.6229,35.4288,济宁市,火炬城,NA,NA,78,82,53,60,169,169,134,134,11,17,NA,6,0.6,0.7
2026-03-26T1600,3500A,116.5808,35.3703,济宁市,北湖一中,细颗粒物(PM2.5),82,73,79,51,58,172,172,135,135,8,15,12,12,0.6,0.7
2026-03-26T1600,3501A,116.8251,35.5592,济宁市,服务中心,细颗粒物(PM2.5),92,107,103,56,66,180,180,138,138,10,20,5,6,0.5,0.6
2026-03-26T1600,3678A,116.5907,35.4054,济宁市,市第七中学,颗粒物(PM10),79,90,83,46,55,182,182,143,143,13,18,8,9,0.7,0.7
2026-03-26T1600,4111A,116.6075,35.4566,济宁市,任和路,颗粒物(PM10),82,94,109,48,61,184,184,144,144,12,16,8,8,0.6,0.7
2026-03-26T1600,4112A,116.5648,35.3921,济宁市,文体南路1号,颗粒物(PM10),87,101,101,51,53,174,174,143,143,15,17,8,7,0.6,0.6
2026-03-26T1600,4122A,112.6071,35.1015,济源市,市委党校,颗粒物(PM10),112,149,119,57,45,99,99,87,87,33,36,13,12,0.7,0.6
2026-03-26T1600,4123A,112.596,35.0702,济源市,沁园中路1号,NA,NA,104,106,54,50,107,107,82,82,NA,43,11,9,0.7,0.8
2026-03-26T1600,2255A,130.2749,46.8028,佳木斯市,佳纺,细颗粒物(PM2.5),92,106,120,56,83,101,101,100,100,13,32,4,7,0.4,0.7
2026-03-26T1600,2257A,130.3258,46.7975,佳木斯市,环保局,细颗粒物(PM2.5),82,92,92,51,76,105,105,97,97,11,29,5,7,0.3,0.6
2026-03-26T1600,4285A,130.363,46.806,佳木斯市,顺和街,细颗粒物(PM2.5),106,104,85,66,74,92,92,89,89,17,26,3,5,0.4,0.6
2026-03-26T1600,4286A,130.3952,46.8268,佳木斯市,长安路196号,细颗粒物(PM2.5),104,103,90,64,70,100,100,91,91,13,27,4,5,0.5,0.6
2026-03-26T1600,1252A,120.7439,30.778,嘉兴市,清河小学,,43,43,54,3,23,93,93,98,98,51,38,8,7,0.3,0.4
2026-03-26T1600,1253A,120.7261,30.7477,嘉兴市,嘉兴学院,NA,NA,41,58,22,35,95,95,103,103,NA,29,7,7,0.7,0.8
2026-03-26T1600,2872A,120.7845,30.7524,嘉兴市,南湖区残联,,40,40,40,23,34,84,84,92,92,34,26,6,5,0.6,0.7
2026-03-26T1600,3407A,120.6915,30.7741,嘉兴市,秀洲住建,,50,50,62,24,35,94,94,110,110,43,35,10,9,0.5,0.6
2026-03-26T1600,1945A,98.291,39.7705,嘉峪关市,气象局,,48,48,106,20,30,92,92,86,86,16,15,10,12,1.2,0.9
2026-03-26T1600,2884A,98.2672,39.7978,嘉峪关市,酒钢宾馆,,46,46,116,18,34,96,96,77,77,8,19,49,48,1.0,1.1
2026-03-26T1600,3248A,98.2644,39.7723,嘉峪关市,雄关区,颗粒物(PM10),53,53,103,16,30,92,92,80,80,11,19,36,27,0.5,0.7
2026-03-26T1600,1383A,113.1063,22.6058,江门市,北街,,29,29,33,12,19,71,71,63,63,8,13,/,/,/,/
2026-03-26T1600,1384A,113.073,22.5835,江门市,西区,,26,26,34,11,21,75,75,66,66,8,16,/,/,/,/
2026-03-26T1600,1385A,113.0218,22.531,江门市,圭峰西,,31,31,32,12,22,67,67,64,64,6,12,/,/,/,/
2026-03-26T1600,1386A,113.0826,22.5947,江门市,东湖,,24,24,31,9,23,74,74,66,66,8,13,7,8,0.3,0.4
2026-03-26T1600,3311A,113.1077,22.5647,江门市,江海富民,,36,36,45,12,21,76,76,70,70,9,15,/,/,0.3,0.4
2026-03-26T1600,3449A,113.0496,22.4669,江门市,新会银湖,,36,36,33,9,18,61,61,60,60,14,24,7,8,0.2,0.3
2026-03-26T1600,3335A,113.3137,35.2643,焦作市,马村街道办,颗粒物(PM10),76,86,100,43,49,138,138,98,98,15,26,9,11,0.4,0.6
2026-03-26T1600,3336A,113.2464,35.2374,焦作市,焦作技师学院,颗粒物(PM10),79,90,94,47,43,132,132,100,100,16,25,10,10,0.4,0.5
2026-03-26T1600,3477A,113.1656,35.2536,焦作市,中站许衡医院,颗粒物(PM10),69,76,88,34,36,139,139,116,116,14,30,10,12,0.5,0.6
2026-03-26T1600,3981A,113.2456,35.18,焦作市,原李万街道办,颗粒物(PM10),86,100,102,50,46,124,124,92,92,14,27,13,13,0.5,0.6
2026-03-26T1600,4264A,113.234,35.219,焦作市,新安路1731号,颗粒物(PM10),90,105,99,46,44,132,132,106,106,20,30,12,12,0.6,0.7
2026-03-26T1600,4295A,113.2722,35.2121,焦作市,人民路3066号,颗粒物(PM10),76,86,107,42,52,138,138,103,103,10,27,10,11,0.4,0.5
2026-03-26T1600,1708A,116.3701,23.5345,揭阳市,新兴,NA,NA,49,43,30,30,129,129,107,107,20,15,6,7,NA,0.7
2026-03-26T1600,1709A,116.3261,23.5442,揭阳市,西马,颗粒物(PM10),54,55,44,34,33,120,120,107,107,22,14,6,6,0.9,0.8
2026-03-26T1600,1710A,116.361,23.5627,揭阳市,东兴,,48,48,41,33,31,136,136,111,111,20,15,5,6,/,/
2026-03-26T1600,1711A,116.4151,23.5295,揭阳市,渔湖,,47,35,43,24,34,150,150,128,128,14,12,5,4,/,/
2026-03-26T1600,3320A,116.4028,23.5699,揭阳市,曲溪,,49,49,40,20,28,137,137,116,116,16,11,5,6,0.8,0.6
2026-03-26T1600,1944A,102.1691,38.5166,金昌市,天庆家园,颗粒物(PM10),62,66,112,18,40,114,114,100,100,4,13,7,46,0.5,0.6
2026-03-26T1600,4022A,102.1648,38.5369,金昌市,金川区人防中心,颗粒物(PM10),73,81,108,17,40,113,113,104,104,6,8,6,14,0,0.2
2026-03-26T1600,4239A,102.193042,38.531887,金昌市,长春路96号,NA,NA,70,99,NA,35,102,102,93,93,NA,9,6,9,NA,0.8
2026-03-26T1600,1262A,119.6478,29.0773,金华市,十五中,细颗粒物(PM2.5),64,56,68,42,45,48,48,38,38,43,42,3,3,0.6,0.7
2026-03-26T1600,1263A,119.6859,29.1032,金华市,监测站,细颗粒物(PM2.5),64,57,66,42,48,54,54,47,47,39,46,4,3,0.7,0.7
2026-03-26T1600,3659A,119.656,29.1132,金华市,气象局,细颗粒物(PM2.5),54,49,68,37,46,64,64,62,62,38,47,3,4,0.7,0.8
2026-03-26T1600,1767A,121.1114,41.0879,锦州市,南山,细颗粒物(PM2.5),124,110,130,86,114,169,169,128,128,22,51,14,15,0.7,1.1
2026-03-26T1600,1768A,121.060361,40.842794,锦州市,开发区,细颗粒物(PM2.5),165,171,171,125,135,116,116,104,104,41,70,9,12,0.9,1.2
2026-03-26T1600,1769A,121.1836,41.1118,锦州市,百股街道,细颗粒物(PM2.5),155,130,127,118,120,158,158,141,141,26,46,13,23,0.8,1.2
2026-03-26T1600,1770A,121.1176,41.1224,锦州市,天安街道,细颗粒物(PM2.5),127,110,134,89,107,164,164,121,121,22,51,11,21,0.7,1.1
2026-03-26T1600,1771A,121.1303,41.1385,锦州市,北湖公园,细颗粒物(PM2.5),125,99,117,87,92,176,176,134,134,18,38,10,23,0.7,0.9
2026-03-26T1600,2160A,112.8496,35.5051,晋城市,自来水公司,颗粒物(PM10),78,88,90,14,26,145,145,115,115,10,30,5,6,0.2,0.4
2026-03-26T1600,2162A,112.8509,35.4886,晋城市,市环保局,颗粒物(PM10),74,83,92,27,34,151,151,114,114,7,28,6,8,0.3,0.6
2026-03-26T1600,3620A,112.8258,35.4804,晋城市,泽州一中,颗粒物(PM10),73,81,96,27,32,144,144,109,109,6,20,5,6,0.7,0.9
2026-03-26T1600,4078A,112.8246,35.5152,晋城市,前书院路,颗粒物(PM10),63,68,95,22,29,140,140,103,103,8,26,7,9,0.6,0.9
2026-03-26T1600,4079A,112.8864,35.4773,晋城市,祥云街666号,颗粒物(PM10),60,63,80,18,35,140,140,97,97,8,25,8,9,0.3,0.6
2026-03-26T1600,2174A,112.6992,37.6984,晋中市,榆次区政府,颗粒物(PM10),58,61,120,26,49,143,143,80,80,13,38,9,13,0.3,0.6
2026-03-26T1600,2865A,112.7195,37.683,晋中市,榆次三中,颗粒物(PM10),56,58,124,24,42,146,146,80,80,10,39,10,12,0.3,0.6
2026-03-26T1600,4080A,112.7375,37.7215,晋中市,广安街188号,颗粒物(PM10),58,60,138,23,45,142,142,76,76,10,47,11,15,0.2,0.5
2026-03-26T1600,4200A,112.7478,37.6954,晋中市,迎宾街26号,颗粒物(PM10),62,66,116,32,45,144,144,89,89,12,30,9,12,0.5,0.7
2026-03-26T1600,2439A,112.2012,31.048,荆门市,竹园小学,,45,45,73,24,40,88,88,86,60,12,22,1,1,1.8,1.4
2026-03-26T1600,2440A,112.1968,30.9892,荆门市,掇刀,,33,27,66,23,39,78,78,103,86,15,18,5,7,0.7,0.7
2026-03-26T1600,3012A,112.1849,31.0361,荆门市,西山林语,,38,38,60,16,31,70,70,86,76,10,15,4,4,0.5,0.7
2026-03-26T1600,3547A,112.1631,31.0134,荆门市,龙泉中学南校,,34,34,69,20,39,83,83,101,88,10,13,2,3,0.3,0.4
2026-03-26T1600,4124A,112.2213,31.0654,荆门市,新台西路6号,颗粒物(PM10),53,53,62,35,44,59,59,68,48,28,29,5,6,0.6,0.6
2026-03-26T1600,1844A,112.2493,30.3198,荆州市,市图书馆,,50,46,39,35,31,103,103,93,93,16,20,6,6,0.7,0.6
2026-03-26T1600,1845A,112.2009,30.3543,荆州市,市委党校,,45,38,46,31,32,84,84,72,72,18,23,6,7,0.9,0.8
2026-03-26T1600,3194A,112.2749,30.3124,荆州市,管委会,细颗粒物(PM2.5),64,53,44,42,37,91,91,86,86,16,18,10,9,0.8,0.7
2026-03-26T1600,4268A,112.1722,30.3366,荆州市,学苑路85号,,38,29,45,26,34,104,104,91,91,9,10,1,1,0.6,0.7
2026-03-26T1600,2343A,117.2114,29.2931,景德镇市,老干部活动中心,NA,NA,23,35,19,29,48,48,47,47,NA,14,5,7,0.6,0.7
2026-03-26T1600,2344A,117.1893,29.2789,景德镇市,兽医站,,33,33,47,9,27,50,50,54,54,10,18,3,4,0.8,0.8
2026-03-26T1600,2346A,117.246,29.2958,景德镇市,陶研所,,22,22,37,11,26,48,48,53,52,14,20,4,4,0.8,0.9
2026-03-26T1600,4289A,117.154766,29.256967,景德镇市,青少年活动中心,,29,29,43,16,31,48,48,51,51,14,19,4,12,/,/
2026-03-26T1600,1803A,115.9873,29.6816,九江市,十里,,48,48,72,27,46,62,62,66,66,34,31,10,8,1.4,1.1
2026-03-26T1600,1804A,115.9583,29.7047,九江市,茅山头,颗粒物(PM10),58,60,73,36,58,67,67,60,60,36,29,4,4,0.7,0.8
2026-03-26T1600,1805A,115.9877,29.7295,九江市,西园,颗粒物(PM10),61,65,76,40,52,66,66,69,54,46,46,4,5,0.8,0.8
2026-03-26T1600,1808A,115.9112,29.6038,九江市,综合工业园,,28,28,67,19,42,50,50,44,40,40,46,8,9,0.7,0.7
2026-03-26T1600,3190A,116.0254,29.6995,九江市,外国语学校,细颗粒物(PM2.5),56,NA,58,38,52,58,58,68,53,28,25,8,9,1.1,0.9
2026-03-26T1600,4253A,116.010205,29.659402,九江市,莲花大道8号,,42,42,60,20,39,84,84,77,73,12,14,5,6,0.9,0.7
2026-03-26T1600,4240A,98.495752,39.733935,酒泉市,玉门东路5号,,41,41,100,18,30,85,85,77,77,5,6,6,6,0.2,0.3
2026-03-26T1600,4241A,98.5099,39.7506,酒泉市,北大街108号,,41,41,95,24,36,84,84,78,78,6,8,7,7,0.2,0.3
2026-03-26T1600,2698A,76.0071,39.466,喀什地区,巡警大队,颗粒物(PM10),152,253,112,66,28,118,118,93,93,6,18,8,4,0.2,0.4
2026-03-26T1600,2699A,75.9756,39.4693,喀什地区,吾办,颗粒物(PM10),140,222,113,47,32,112,112,84,84,6,27,3,3,0.3,0.5
2026-03-26T1600,4027A,75.9485,39.4688,喀什地区,老干局,颗粒物(PM10),141,225,113,48,27,119,119,92,92,4,28,4,3,0.2,0.5
2026-03-26T1600,1824A,114.3389,34.778,开封市,肿瘤医院,细颗粒物(PM2.5),64,68,82,42,57,142,142,119,119,14,23,6,7,0.6,0.6
2026-03-26T1600,1826A,114.2884,34.7966,开封市,世纪星幼儿园,颗粒物(PM10),62,66,78,38,51,135,135,117,117,18,22,10,11,0.4,0.6
2026-03-26T1600,3147A,114.3434,34.8101,开封市,龙亭公园,"颗粒物(PM10),细颗粒物(PM2.5)",64,69,83,42,57,149,149,125,125,16,24,10,11,0.9,1
2026-03-26T1600,3210A,114.3645,34.7955,开封市,汴京公园,细颗粒物(PM2.5),66,69,85,43,58,148,148,123,123,14,25,6,6,0.5,0.7
2026-03-26T1600,3473A,114.2485,34.8306,开封市,技师学院,颗粒物(PM10),66,72,64,40,47,143,143,121,121,10,15,8,8,0.9,0.9
2026-03-26T1600,3592A,114.4518,34.7503,开封市,祥符区生态环境局,细颗粒物(PM2.5),76,84,89,48,58,135,135,116,116,18,30,7,7,0.6,0.6
2026-03-26T1600,1951A,84.886,45.6029,克拉玛依市,长征新村,,30,21,25,3,8,95,95,70,70,4,10,6,5,0.3,0.3
2026-03-26T1600,1952A,84.8894,45.5827,克拉玛依市,南林小区,,32,17,25,3,3,100,100,70,70,2,10,6,6,0.1,0.3
2026-03-26T1600,1954A,84.896,44.3328,克拉玛依市,独山子区,,30,24,22,3,4,95,95,77,77,6,8,4,4,0.4,0.4
2026-03-26T1600,1955A,85.6888,46.0909,克拉玛依市,乌尔禾区商贸楼,,34,34,29,14,10,91,91,58,58,2,11,1,2,0.1,0.3
2026-03-26T1600,3612A,85.1045,45.6895,克拉玛依市,白碱滩区新站,NA,NA,NA,30,NA,8,96,96,76,74,4,7,4,4,0.5,0.5
2026-03-26T1600,2697A,76.1457,39.7143,克孜勒苏柯尔克孜自治州,市人民政府,颗粒物(PM10),107,137,74,37,24,117,117,90,90,2,9,4,7,0.1,0.2
2026-03-26T1600,3665A,76.1654,39.7157,克孜勒苏柯尔克孜自治州,克州文化中心,颗粒物(PM10),107,137,96,39,32,116,116,90,90,2,16,5,9,0.2,0.3
2026-03-26T1600,1450A,102.8203,24.889,昆明市,呈贡新区,,42,14,43,12,29,134,134,125,125,5,16,1,4,0.4,0.7
2026-03-26T1600,1452A,102.7253,25.0904,昆明市,龙泉镇,NA,NA,NA,42,NA,21,119,119,113,113,4,18,4,4,0.3,0.6
2026-03-26T1600,1453A,102.7267,25.0378,昆明市,东风东路,,39,14,31,8,23,123,123,119,119,6,10,2,4,0.4,0.5
2026-03-26T1600,1454A,102.6744,25.0671,昆明市,金鼎山,,38,15,35,7,23,119,119,118,118,9,10,2,3,0.5,0.6
2026-03-26T1600,1455A,102.6643,25.0401,昆明市,碧鸡广场,,35,10,33,9,26,110,110,112,112,15,16,5,6,0.2,0.4
2026-03-26T1600,3179A,102.7491,25.012,昆明市,官渡区博物馆,,40,19,36,3,23,126,126,118,118,8,13,4,5,0.3,0.5
2026-03-26T1600,3375A,102.8016,24.8336,昆明市,青年创业园,,41,8,41,3,34,131,131,121,121,4,11,6,7,0.3,0.6
2026-03-26T1600,3550A,102.8,24.9787,昆明市,昆明学院,,42,15,34,3,21,132,132,125,125,6,10,5,5,0.4,0.6
2026-03-26T1600,3551A,102.5969,24.6738,昆明市,晋宁区生态环境分局,,40,10,55,9,41,125,125,116,116,2,14,2,3,0.2,0.6
2026-03-26T1600,3552A,102.6673,24.9861,昆明市,云天化总部,,39,13,31,9,21,124,124,121,121,8,11,5,6,0.3,0.5
2026-03-26T1600,1456A,91.132,29.6515,拉萨市,八廓街,,44,12,19,3,10,138,138,121,121,5,7,6,5,0.4,0.3
2026-03-26T1600,1457A,91.1221,29.6748,拉萨市,市环保局,,41,14,17,6,8,130,130,109,109,7,10,4,4,0.4,0.4
2026-03-26T1600,1458A,91.0874,29.6476,拉萨市,区监测站,,41,6,10,3,6,129,129,116,114,8,11,5,5,0.3,0.4
2026-03-26T1600,1459A,91.1774,29.6541,拉萨市,西藏大学,,40,8,15,3,8,127,127,113,113,8,9,5,4,0.3,0.3
2026-03-26T1600,1460A,90.9798,29.6586,拉萨市,区辐射站,,38,16,17,6,8,120,120,95,93,11,13,4,5,0.3,0.4
2026-03-26T1600,1461A,91.0831,29.6292,拉萨市,拉萨火车站,,41,15,16,3,6,130,130,116,110,5,8,4,4,0.5,0.5
2026-03-26T1600,2520A,109.2203,23.7252,来宾市,来宾技工学校,,49,49,56,34,34,114,114,80,80,4,9,4,11,0.9,0.9
2026-03-26T1600,3535A,109.1781,23.7293,来宾市,兴宾区政府,,48,48,57,23,35,115,115,86,86,6,13,6,8,0.7,0.7
2026-03-26T1600,4002A,109.2312,23.7428,来宾市,中南小学,,48,48,52,30,36,120,120,85,85,7,11,6,8,0.7,0.6
2026-03-26T1600,1479A,103.8309,36.0467,兰州市,铁路设计院,,42,42,53,21,24,120,120,74,74,18,33,4,5,0.3,0.5
2026-03-26T1600,3241A,103.7439,36.0841,兰州市,百合公园,,37,19,49,18,28,118,118,74,74,6,21,4,7,0.3,0.5
2026-03-26T1600,3242A,103.9613,35.9985,兰州市,和平,,40,36,44,23,24,128,128,93,93,8,15,13,11,0.7,0.6
2026-03-26T1600,4236A,103.629272,36.093822,兰州市,庄浪东路808号,颗粒物(PM10),53,53,62,21,27,128,128,84,84,18,27,8,7,0.4,0.5
2026-03-26T1600,4237A,103.7251,36.104344,兰州市,安宁西路88号,,47,47,61,25,27,136,136,93,93,8,19,7,8,0.3,0.4
2026-03-26T1600,4238A,103.846982,36.067567,兰州市,北滨河东路1号,NA,NA,NA,51,39,28,125,125,87,87,17,32,7,9,NA,0.9
2026-03-26T1600,1067A,116.6712,39.5109,廊坊市,药材公司,细颗粒物(PM2.5),178,185,219,134,158,187,187,127,127,18,46,6,8,0.9,1.1
2026-03-26T1600,1068A,116.7215,39.5592,廊坊市,开发区,细颗粒物(PM2.5),183,205,223,138,168,193,193,132,132,14,58,7,5,0.9,1
2026-03-26T1600,1070A,116.7246,39.5273,廊坊市,北华航天学院,细颗粒物(PM2.5),192,198,226,144,157,194,194,133,133,14,56,9,8,0.9,1.1
2026-03-26T1600,2919A,116.7022,39.5454,廊坊市,河北工业大学,细颗粒物(PM2.5),176,215,235,133,156,192,192,132,132,11,48,9,8,0.9,1
2026-03-26T1600,2536A,103.7629,29.5844,乐山市,牛耳桥,,39,23,49,10,30,122,122,82,82,13,26,6,6,0.4,0.6
2026-03-26T1600,2537A,103.7501,29.6002,乐山市,市第三水厂,,39,26,47,8,26,122,122,81,81,12,26,4,5,0.6,0.7
2026-03-26T1600,2538A,103.7571,29.5664,乐山市,市监测站,,37,26,51,6,26,116,116,88,88,9,22,2,3,0.3,0.5
2026-03-26T1600,3361A,103.7313,29.563,乐山市,理工大学,,40,30,49,7,27,126,126,85,85,7,24,6,7,0.5,0.7
2026-03-26T1600,2599A,100.2497,26.8802,丽江市,丽江古城,,35,20,22,6,8,109,109,107,107,6,8,10,10,0.4,0.4
2026-03-26T1600,2600A,100.2203,26.8906,丽江市,市中心,,36,16,12,3,9,113,113,113,113,8,10,7,7,0.3,0.4
2026-03-26T1600,1267A,119.9141,28.4513,丽水市,监测站大楼,,33,10,27,8,18,103,103,81,81,10,14,4,4,0.4,0.5
2026-03-26T1600,1268A,119.93,28.4589,丽水市,莲都小学,,34,13,29,6,16,107,107,80,80,11,17,/,/,/,/
2026-03-26T1600,1269A,119.8794,28.4232,丽水市,余庄前,,29,9,25,3,15,92,92,66,66,8,15,4,4,0.4,0.5
2026-03-26T1600,1173A,119.1759,34.5885,连云港市,市环境监测站,细颗粒物(PM2.5),103,85,95,63,70,156,156,126,126,20,27,10,10,0.5,0.6
2026-03-26T1600,3000A,119.3577,34.6971,连云港市,德源药业,颗粒物(PM10),80,92,99,48,59,142,142,130,130,26,30,6,6,0.4,0.6
2026-03-26T1600,3007A,119.178,34.8442,连云港市,新城一中,细颗粒物(PM2.5),120,108,106,81,82,132,132,118,118,40,47,11,10,0.7,0.7
2026-03-26T1600,3008A,119.3607,34.7519,连云港市,胡沟管理处,颗粒物(PM10),70,78,85,39,53,141,141,98,87,29,37,10,12,0.1,0.3
2026-03-26T1600,3009A,119.1478,34.5913,连云港市,矿山设计院,NA,NA,90,99,53,62,157,157,127,127,35,39,NA,10,0.7,0.9
2026-03-26T1600,3434A,119.2414,34.6539,连云港市,工贸学校,细颗粒物(PM2.5),92,80,79,56,55,154,154,138,138,23,19,11,12,0.4,0.4
2026-03-26T1600,3664A,119.4171,34.734,连云港市,连云街道,颗粒物(PM10),98,116,107,58,59,144,144,110,70,30,35,8,7,0.6,0.6
2026-03-26T1600,2573A,102.2629,27.8981,凉山彝族自治州,西昌市政府,,40,18,19,8,11,126,126,114,114,3,6,6,8,0.3,0.5
2026-03-26T1600,2574A,102.2686,27.885,凉山彝族自治州,凉山州政府,,35,18,18,3,9,111,111,98,98,3,7,2,5,0.1,0.4
2026-03-26T1600,4229A,102.2342,27.8859,凉山彝族自治州,凯乐南路30号,,37,30,21,7,8,118,118,100,100,9,12,11,5,0.5,0.4
2026-03-26T1600,2212A,123.1978,41.2036,辽阳市,宏伟区,细颗粒物(PM2.5),149,166,165,113,129,158,158,124,124,23,25,17,13,1.3,1.4
2026-03-26T1600,2213A,123.1684,41.2497,辽阳市,新华园,细颗粒物(PM2.5),145,158,184,109,136,154,154,133,133,NA,33,19,16,1.3,1.4
2026-03-26T1600,2214A,123.2355,41.2663,辽阳市,滨河路,细颗粒物(PM2.5),138,152,160,101,126,152,152,126,126,24,38,13,12,1.2,1.3
2026-03-26T1600,4083A,123.153,41.2874,辽阳市,铁西路150号,细颗粒物(PM2.5),146,206,212,110,154,121,121,118,118,35,41,15,17,1.2,1.7
2026-03-26T1600,2227A,125.1359,42.8845,辽源市,环保局,颗粒物(PM10),52,52,152,26,110,109,109,104,104,10,35,7,8,0.4,1.1
2026-03-26T1600,4085A,125.0998,42.9134,辽源市,安宁大街333号,细颗粒物(PM2.5),70,64,158,45,117,118,118,111,111,12,34,8,7,0.6,1
2026-03-26T1600,1625A,115.9789,36.4372,聊城市,区政府,颗粒物(PM10),91,107,111,43,58,157,157,121,121,10,17,7,8,0.7,0.8
2026-03-26T1600,3200A,115.9772,36.4986,聊城市,监控中心,颗粒物(PM10),96,114,113,49,61,175,175,140,140,13,16,10,13,0.6,0.8
2026-03-26T1600,3513A,116.0443,36.436,聊城市,九州社区,颗粒物(PM10),104,129,105,53,67,172,172,137,137,13,19,4,6,0.5,0.7
2026-03-26T1600,4018A,116.0564,36.4609,聊城市,星美广场,颗粒物(PM10),95,113,118,50,62,159,159,124,124,14,19,7,9,0.7,0.8
2026-03-26T1600,4113A,116.0091,36.4495,聊城市,利民路,细颗粒物(PM2.5),84,95,100,52,66,174,174,136,136,9,17,8,8,0.5,0.6
2026-03-26T1600,2632A,94.3683,29.6373,林芝市,林芝监测站,,37,6,7,3,4,116,116,94,94,2,3,3,3,0.4,0.4
2026-03-26T1600,2633A,94.3616,29.6634,林芝市,林芝人民医院,,38,9,9,3,5,120,120,94,94,2,4,3,3,0.4,0.5
2026-03-26T1600,2603A,100.0779,23.8981,临沧市,市环保局,,43,43,45,18,36,128,128,101,101,4,9,9,8,0.3,0.6
2026-03-26T1600,2604A,100.0894,23.882,临沧市,市气象局,,42,21,40,19,36,133,133,106,106,4,10,8,8,0.2,0.3
2026-03-26T1600,1733A,111.5552,36.0791,临汾市,临钢医院,颗粒物(PM10),110,145,129,66,61,143,143,96,96,26,32,14,15,1.1,1.2
2026-03-26T1600,1734A,111.4984,36.0734,临汾市,技工学校,细颗粒物(PM2.5),116,134,134,77,71,147,147,85,85,18,37,12,12,1.0,1.1
2026-03-26T1600,1736A,111.5017,36.0857,临汾市,市委,颗粒物(PM10),105,133,141,64,62,152,152,93,93,18,38,13,13,1.2,1.2
2026-03-26T1600,3018A,111.5048,36.1015,临汾市,唐尧大酒店,颗粒物(PM10),108,139,140,62,60,150,150,96,96,18,38,15,19,1.1,1.1
2026-03-26T1600,4244A,111.4879,36.053,临汾市,启星学校,颗粒物(PM10),103,126,135,55,60,146,146,84,84,25,50,14,13,1.1,1.2
2026-03-26T1600,4271A,103.2464,35.6123,临夏回族自治州,滨河东路1号,,40,40,50,28,35,122,122,91,91,8,24,5,7,0.3,0.5
2026-03-26T1600,4310A,103.207136,35.599807,临夏回族自治州,新华街21号,,41,41,57,24,40,107,107,75,75,3,13,7,7,0.6,0.9
2026-03-26T1600,1618A,118.3429,35.0532,临沂市,沂河小区,颗粒物(PM10),80,92,115,38,69,159,159,132,132,10,27,14,23,0.4,0.5
2026-03-26T1600,1619A,118.2962,35.0568,临沂市,鲁南制药厂,颗粒物(PM10),74,83,107,36,69,162,162,135,135,15,32,17,24,0.3,0.5
2026-03-26T1600,1620A,118.2793,34.9976,临沂市,新光毛纺厂,颗粒物(PM10),75,85,107,41,75,163,163,135,135,18,38,14,24,0.3,0.5
2026-03-26T1600,1621A,118.3955,35.0889,临沂市,河东保险公司,颗粒物(PM10),78,88,110,42,72,172,172,144,144,15,29,14,19,0.3,0.4
2026-03-26T1600,3370A,118.3563,35.0215,临沂市,十里堡居委,颗粒物(PM10),70,78,114,41,80,168,168,138,138,14,40,13,30,0.4,0.6
2026-03-26T1600,3496A,118.359,35.1067,临沂市,南坊新区,颗粒物(PM10),72,80,93,42,67,164,164,137,137,14,27,13,18,0,0.3
2026-03-26T1600,3860A,118.3915,35.0297,临沂市,皇山花园小区,NA,NA,NA,114,NA,80,168,168,144,144,16,36,NA,30,0.4,0.6
2026-03-26T1600,1870A,109.4854,24.3898,柳州市,柳东小学,颗粒物(PM10),57,59,68,34,52,106,106,65,65,7,17,5,7,0.7,1
2026-03-26T1600,1871A,109.4109,24.3304,柳州市,环保监测站,颗粒物(PM10),71,79,92,32,72,101,101,61,61,12,31,6,14,0.8,1.3
2026-03-26T1600,1872A,109.3886,24.3408,柳州市,河西水厂,"颗粒物(PM10),细颗粒物(PM2.5)",52,52,108,36,75,107,107,59,59,10,30,8,16,0.7,1.2
2026-03-26T1600,1873A,109.4263,24.2951,柳州市,市四中,颗粒物(PM10),65,71,93,32,74,93,93,64,64,11,27,7,14,0.7,1.3
2026-03-26T1600,1874A,109.396,24.3658,柳州市,市九中,颗粒物(PM10),55,57,101,31,70,99,99,57,57,8,25,11,17,0.7,1.2
2026-03-26T1600,1875A,109.4912,24.3164,柳州市,古亭山,颗粒物(PM10),66,72,63,30,48,106,106,67,67,6,21,7,7,0.6,1
2026-03-26T1600,3402A,109.5422,24.3994,柳州市,市二中,颗粒物(PM10),68,74,76,32,59,102,102,62,62,9,22,9,10,0.7,1
2026-03-26T1600,2307A,116.5078,31.7369,六安市,监测大楼,细颗粒物(PM2.5),76,56,59,48,43,128,128,104,104,16,19,5,4,0.6,0.5
2026-03-26T1600,2308A,116.4738,31.7642,六安市,皖西学院,细颗粒物(PM2.5),72,69,64,46,41,138,138,116,116,11,14,6,6,0.6,0.5
2026-03-26T1600,2309A,116.4997,31.7904,六安市,朝阳厂,细颗粒物(PM2.5),62,60,57,41,38,137,137,114,114,18,22,7,6,0.5,0.5
2026-03-26T1600,2310A,116.5566,31.7885,六安市,开发区,细颗粒物(PM2.5),76,66,63,48,43,139,139,114,114,16,16,7,6,0.6,0.5
2026-03-26T1600,2577A,104.8293,26.592,六盘水市,黄土坡,,39,39,42,19,28,118,118,89,89,13,16,11,9,0.8,0.7
2026-03-26T1600,2579A,104.8481,26.5898,六盘水市,民中,,45,45,42,28,28,113,113,84,84,15,15,9,6,0.9,0.8
2026-03-26T1600,2580A,104.9541,26.5506,六盘水市,双水,,37,36,41,23,27,116,116,88,88,8,10,5,4,0.4,0.7
2026-03-26T1600,4151A,104.8899,26.5685,六盘水市,钟山大道中段564号,,50,50,50,28,29,123,123,91,91,6,10,8,8,0.5,0.7
2026-03-26T1600,2336A,117.022,25.1031,龙岩市,龙岩市监测站,,35,33,28,24,31,44,44,86,58,36,18,9,8,0.8,0.7
2026-03-26T1600,2337A,117.0257,25.0662,龙岩市,闽西职业技术学院,,35,35,37,22,30,52,52,83,57,23,15,9,7,0.7,0.7
2026-03-26T1600,2338A,117.0195,25.0306,龙岩市,龙岩学院,,30,28,33,21,29,56,56,78,73,14,11,5,5,/,/
2026-03-26T1600,2885A,104.9344,33.3827,陇南市,滨江中学,,39,39,47,17,18,96,96,79,79,14,14,7,7,0.7,0.7
2026-03-26T1600,3247A,104.9551,33.3709,陇南市,市总工会,,39,39,44,11,15,98,98,74,74,10,13,6,6,0.6,0.7
2026-03-26T1600,2488A,111.9984,27.7346,娄底市,市监测站,,20,13,25,6,16,64,64,54,53,11,15,1,2,0.4,0.6
2026-03-26T1600,2491A,111.9888,27.7035,娄底市,市政府,,22,22,26,6,19,69,69,55,55,9,11,5,6,0.5,0.6
2026-03-26T1600,4127A,111.9812,27.7591,娄底市,涟钢职大,,23,14,24,3,17,72,72,64,64,11,14,1,1,0.6,0.8
2026-03-26T1600,4128A,112.0303,27.7457,娄底市,娄底体校,,20,18,33,7,18,61,61,55,53,4,7,3,2,0.7,0.3
2026-03-26T1600,1894A,105.4427,28.9063,泸州市,小市上码头,,37,30,56,23,48,118,118,76,76,9,20,9,9,0.4,0.8
2026-03-26T1600,1895A,105.4241,28.8573,泸州市,兰田宪桥,,36,36,60,21,39,106,106,73,73,8,21,8,7,0.9,1
2026-03-26T1600,1896A,105.4378,28.8833,泸州市,市环监站,,36,36,72,23,45,110,110,74,74,14,26,4,5,0.8,0.8
2026-03-26T1600,4272A,105.3689,28.7783,泸州市,纳溪中医医院,,33,31,49,20,39,103,103,68,68,8,19,7,7,0.7,0.9
2026-03-26T1600,2183A,111.1447,37.5212,吕梁市,环保局,颗粒物(PM10),64,69,102,38,34,128,128,78,78,17,46,10,7,0.5,0.4
2026-03-26T1600,2185A,111.1285,37.5338,吕梁市,自来水公司,颗粒物(PM10),62,66,141,22,41,132,132,79,79,16,39,8,8,0.6,0.5
2026-03-26T1600,2867A,111.1225,37.5093,吕梁市,马茂庄小学,颗粒物(PM10),74,83,121,23,34,124,124,72,72,17,52,8,7,0.6,0.5
2026-03-26T1600,1812A,112.3934,34.6517,洛阳市,市委党校,颗粒物(PM10),71,79,90,39,47,112,112,66,66,14,31,12,12,0.7,0.9
2026-03-26T1600,1815A,112.494,34.6883,洛阳市,河南林校,颗粒物(PM10),81,93,97,35,44,102,102,78,78,28,43,19,15,0.7,0.8
2026-03-26T1600,1816A,112.3843,34.623,洛阳市,开发区管委会,颗粒物(PM10),80,92,101,45,44,113,113,68,68,16,23,18,15,0.6,0.6
2026-03-26T1600,1817A,112.4263,34.6249,洛阳市,市委新办公区,颗粒物(PM10),80,92,102,49,51,110,110,65,65,18,26,18,12,0.8,0.7
2026-03-26T1600,3340A,112.6005,34.6323,洛阳市,伊滨,颗粒物(PM10),88,102,97,44,46,114,114,66,66,21,28,15,11,0.8,0.7
2026-03-26T1600,3341A,112.495,34.6338,洛阳市,中移产业园,颗粒物(PM10),82,94,93,46,50,104,104,62,62,28,34,22,17,0.7,0.6
2026-03-26T1600,3593A,112.5736,34.8993,洛阳市,吉利监测站,颗粒物(PM10),76,86,79,44,32,99,99,84,84,28,32,17,12,0.6,0.5
2026-03-26T1600,3635A,112.3678,34.6623,洛阳市,河科大西苑校区,颗粒物(PM10),73,81,95,39,46,124,124,76,76,12,29,12,15,0.5,0.7
2026-03-26T1600,3636A,112.4387,34.678,洛阳市,英才小学,颗粒物(PM10),80,91,114,44,58,114,114,68,68,22,47,15,16,0.8,0.9
2026-03-26T1600,4214A,112.460027,34.694929,洛阳市,春都路1号院,颗粒物(PM10),79,90,107,29,44,115,115,70,70,18,37,14,13,0.8,0.9
2026-03-26T1600,2399A,114.051,33.5721,漯河市,三五一五工厂,颗粒物(PM10),73,81,88,42,53,145,145,102,102,12,24,5,6,0.3,0.4
2026-03-26T1600,2400A,114.0055,33.5698,漯河市,漯河大学,细颗粒物(PM2.5),72,72,79,46,55,148,148,103,103,15,24,7,7,0.6,0.6
2026-03-26T1600,2401A,114.0134,33.5826,漯河市,市水利局,细颗粒物(PM2.5),64,68,82,42,50,143,143,100,100,12,20,6,6,0.5,0.6
2026-03-26T1600,2402A,114.0261,33.5697,漯河市,市广电局,"颗粒物(PM10),细颗粒物(PM2.5)",60,63,81,40,52,146,146,112,112,9,19,6,6,0.6,0.6
2026-03-26T1600,3478A,113.9691,33.568,漯河市,市图书馆,颗粒物(PM10),63,67,86,39,49,134,134,94,94,15,23,7,7,0.6,0.7
2026-03-26T1600,4250A,114.089259,33.588274,漯河市,韶山路11号,细颗粒物(PM2.5),66,71,89,43,52,132,132,95,95,14,26,7,8,0.6,0.5
2026-03-26T1600,1798A,118.5084,31.6838,马鞍山市,湖东路四小,细颗粒物(PM2.5),101,78,88,61,64,147,147,116,116,18,28,8,10,0.6,0.7
2026-03-26T1600,1799A,118.5019,31.6449,马鞍山市,开发区,细颗粒物(PM2.5),102,82,100,62,68,148,148,117,117,22,36,7,8,0.5,0.8
2026-03-26T1600,3633A,118.4914,31.681,马鞍山市,雨山,细颗粒物(PM2.5),90,85,91,55,59,149,149,118,118,19,28,7,8,0.6,0.7
2026-03-26T1600,4191A,118.527362,31.722269,马鞍山市,慈湖高新区,细颗粒物(PM2.5),94,81,93,57,60,150,150,122,122,15,31,7,9,0.4,0.6
2026-03-26T1600,1686A,111.0285,21.469,茂名市,电白南海,NA,NA,24,25,13,10,57,57,57,57,NA,8,5,5,0.5,0.9
2026-03-26T1600,1687A,110.9294,21.6533,茂名市,茂石化七小,,29,29,30,12,17,56,56,50,50,8,12,5,7,0.4,0.5
2026-03-26T1600,1688A,110.9108,21.6688,茂名市,健康路,,27,27,23,13,16,62,62,56,56,7,10,4,5,0.5,0.5
2026-03-26T1600,1689A,110.8592,21.6826,茂名市,高岭,,39,39,34,14,16,60,60,56,56,8,13,4,4,/,/
2026-03-26T1600,3450A,111.0101,21.5165,茂名市,电白水东,,34,34,14,9,11,54,54,55,55,6,8,2,2,/,/
2026-03-26T1600,2540A,103.8414,30.0871,眉山市,气象局,,42,36,54,3,21,133,133,95,95,6,20,6,8,0.4,0.5
2026-03-26T1600,3148A,103.829,30.0563,眉山市,区人社局,,41,36,58,9,29,130,130,92,92,13,29,9,10,0.5,0.6
2026-03-26T1600,4148A,103.8836,30.0695,眉山市,眉职院,,43,30,55,9,24,136,136,95,95,11,25,6,7,0.5,0.7
2026-03-26T1600,1690A,116.1248,24.3307,梅州市,梅江月梅,,32,29,24,22,25,85,85,91,86,6,11,/,/,/,/
2026-03-26T1600,1691A,116.0798,24.2719,梅州市,梅县新城,,28,27,38,18,30,89,89,89,89,14,18,8,8,0.6,0.7
2026-03-26T1600,3315A,116.1234,24.2994,梅州市,梅龙,,26,24,36,18,29,83,83,91,84,8,13,8,7,0.9,1
2026-03-26T1600,1878A,104.7775,31.4741,绵阳市,富乐山,,39,31,28,12,14,124,124,80,80,6,15,6,6,0.6,0.8
2026-03-26T1600,1880A,104.6698,31.4668,绵阳市,高新区自来水公司,,40,31,30,11,15,128,128,81,81,8,24,9,9,0.5,0.5
2026-03-26T1600,3491A,104.6899,31.5324,绵阳市,西科大附属小学,,41,37,34,16,19,129,129,79,79,7,25,7,7,0.2,0.5
2026-03-26T1600,3492A,104.5647,31.5343,绵阳市,安州区旅游局,,40,30,37,13,15,126,126,82,82,7,13,4,6,0.4,0.5
2026-03-26T1600,4146A,104.7092,31.4972,绵阳市,科技城新区公安局,,37,28,36,15,16,118,118,75,75,7,20,7,8,0.5,0.6
2026-03-26T1600,4226A,104.765114,31.453094,绵阳市,绵阳市气象局,,37,37,34,13,17,99,99,64,64,25,27,9,8,0.5,0.7
2026-03-26T1600,1784A,129.61,44.561,牡丹江市,环保大楼,细颗粒物(PM2.5),135,114,96,98,81,126,126,112,112,18,21,3,4,0.6,0.7
2026-03-26T1600,1787A,129.6364,44.6075,牡丹江市,机车工厂,细颗粒物(PM2.5),130,102,119,92,87,110,110,100,100,22,36,8,12,0.7,0.9
2026-03-26T1600,1788A,129.6386,44.5462,牡丹江市,第一中学,细颗粒物(PM2.5),128,106,80,90,67,124,124,116,116,14,27,NA,6,0.5,0.6
2026-03-26T1600,4287A,129.5992,44.5964,牡丹江市,东晓云街98号,细颗粒物(PM2.5),130,110,107,92,85,117,117,105,105,16,23,4,4,0.7,0.8
2026-03-26T1600,2531A,105.0703,29.61,内江市,市监测站,NA,NA,36,33,14,24,126,126,86,86,9,15,NA,7,0.5,0.6
2026-03-26T1600,2533A,105.0657,29.5807,内江市,内江二中,,40,40,44,14,24,123,123,84,84,14,18,8,8,0.4,0.5
2026-03-26T1600,2534A,105.0407,29.5828,内江市,内江日报社,,41,25,34,15,25,130,130,90,90,10,17,8,8,0.5,0.6
2026-03-26T1600,4147A,105.0433,29.6105,内江市,玉峰路西段888号,,42,41,35,18,29,133,133,95,95,14,16,10,10,0.4,0.4
2026-03-26T1600,2628A,92.0653,31.4846,那曲市,那曲监测站,,35,14,41,13,27,112,112,92,92,4,17,4,10,0.5,0.9
2026-03-26T1600,4243A,92.0515,31.4787,那曲市,那曲市委宣传部,,38,9,30,3,18,121,121,106,106,1,8,6,7,0.4,0.7
2026-03-26T1600,1291A,115.8887,28.7006,南昌市,省林业公司,,20,14,45,10,28,62,62,82,64,10,20,3,4,0.1,0.3
2026-03-26T1600,1292A,115.813,28.7443,南昌市,林科所,,27,27,35,13,29,59,59,80,70,8,18,7,7,0.6,0.6
2026-03-26T1600,1294A,115.8518,28.687,南昌市,建工学校,,22,22,58,12,30,60,60,88,70,16,24,7,8,0.8,0.9
2026-03-26T1600,1295A,115.8926,28.6425,南昌市,象湖,,20,9,41,8,32,64,64,83,66,13,23,7,7,0.8,0.9
2026-03-26T1600,3046A,115.9084,28.6062,南昌市,机电学校,NA,NA,26,61,NA,38,62,62,83,64,10,22,3,4,0.6,0.8
2026-03-26T1600,3690A,115.9718,28.7032,南昌市,外国语学校,,23,23,43,14,36,67,67,90,65,10,19,7,7,0.6,0.8
2026-03-26T1600,4106A,115.7923,28.6873,南昌市,工业二路,NA,NA,23,62,10,30,56,56,84,69,17,23,4,4,NA,0.8
2026-03-26T1600,4192A,115.931587,28.686774,南昌市,南京东路235号,,20,20,60,11,33,63,63,92,68,8,15,5,6,0.4,0.7
2026-03-26T1600,1906A,106.0791,30.8022,南充市,南充市委,,36,36,23,15,11,111,111,84,84,9,16,7,7,0.4,0.6
2026-03-26T1600,1907A,106.1038,30.8215,南充市,南充炼油厂,,40,40,28,10,12,103,103,74,74,8,13,4,4,0.3,0.4
2026-03-26T1600,4227A,106.108336,30.788436,南充市,梨树横街98号,,36,24,21,10,12,113,113,83,83,10,14,6,6,0.2,0.3
2026-03-26T1600,4304A,106.1172,30.843,南充市,清泉寺北路188号,,38,32,25,10,12,120,120,82,82,7,11,5,6,0.4,0.5
2026-03-26T1600,4305A,106.067,30.7616,南充市,同庆路1号,,35,28,20,14,12,111,111,78,78,6,12,6,6,0.4,0.6
2026-03-26T1600,1151A,118.8033,32.1085,南京市,迈皋桥,颗粒物(PM10),55,56,96,29,72,160,160,141,141,9,20,6,8,0.2,0.6
2026-03-26T1600,1152A,118.7487,32.057,南京市,草场门,颗粒物(PM10),51,51,80,26,56,148,148,132,132,20,33,9,10,0.3,0.6
2026-03-26T1600,1154A,118.770105,32.004342,南京市,中华门,颗粒物(PM10),53,53,89,28,62,146,146,130,130,12,26,4,5,0.7,1
2026-03-26T1600,1155A,118.8059,32.0329,南京市,瑞金路,颗粒物(PM10),51,51,91,28,63,143,143,124,124,14,32,4,4,0.9,1.2
2026-03-26T1600,1156A,118.7946,32.0774,南京市,玄武湖,,49,48,88,34,63,153,153,146,146,4,15,8,9,0.6,0.9
2026-03-26T1600,1157A,118.6415,32.0964,南京市,浦口,颗粒物(PM10),51,51,94,31,58,138,138,120,120,22,28,5,6,0.4,1
2026-03-26T1600,1158A,118.730129,32.000956,南京市,奥体中心,颗粒物(PM10),58,60,93,27,57,138,138,124,124,9,23,8,8,0.4,0.6
2026-03-26T1600,1159A,118.9072,32.1047,南京市,仙林大学城,颗粒物(PM10),56,58,96,26,68,153,153,134,134,12,24,8,9,0.5,0.8
2026-03-26T1600,3422A,118.8443,31.919,南京市,江宁彩虹桥,颗粒物(PM10),61,65,93,33,57,147,147,129,129,17,37,3,4,0.7,0.9
2026-03-26T1600,3427A,118.8497,32.3599,南京市,六合雄州,NA,NA,66,81,46,59,140,140,115,115,30,55,3,4,NA,0.7
2026-03-26T1600,4086A,118.7641,32.0841,南京市,新模范马路66号,颗粒物(PM10),51,51,85,21,54,160,160,142,142,5,18,4,4,0.6,0.8
2026-03-26T1600,4249A,118.8707617,31.34017673,南京市,汶溪路181号,颗粒物(PM10),65,71,83,42,43,144,144,120,120,23,30,7,7,0.4,0.5
2026-03-26T1600,4312A,119.019,31.6512,南京市,中山西路1号,细颗粒物(PM2.5),68,73,86,44,63,123,123,113,113,23,31,4,4,0.5,0.7
2026-03-26T1600,1401A,108.3098,22.788,南宁市,二十一中,颗粒物(PM10),55,57,38,28,27,94,94,64,64,8,13,4,4,0.6,0.7
2026-03-26T1600,1402A,108.3135,22.8529,南宁市,北湖,,43,43,36,28,29,107,107,78,78,10,11,3,5,0.8,0.7
2026-03-26T1600,1403A,108.3205,22.8222,南宁市,市监测站,NA,NA,50,37,27,25,106,106,72,72,6,5,1,4,NA,0.7
2026-03-26T1600,1404A,108.3828,22.8038,南宁市,大自然花园,,36,32,39,22,26,113,113,76,76,9,10,6,6,0.8,0.8
2026-03-26T1600,1406A,108.2397,22.8462,南宁市,区农职院,颗粒物(PM10),54,55,41,29,23,104,104,71,71,11,15,6,6,0.6,0.6
2026-03-26T1600,1407A,108.3285,22.7356,南宁市,英华嘉园,颗粒物(PM10),55,56,54,24,27,100,100,68,68,14,22,4,6,0.5,0.6
2026-03-26T1600,3401A,108.4829,22.762,南宁市,红星社区,颗粒物(PM10),60,63,45,22,28,113,113,82,82,6,11,13,7,0.6,0.7
2026-03-26T1600,4132A,108.2927,23.1477,南宁市,起凤路9号,,46,41,42,32,31,119,119,79,79,6,9,4,4,0.5,0.5
2026-03-26T1600,4221A,108.2177,22.7774,南宁市,乐贤路16号,颗粒物(PM10),52,52,39,27,26,103,103,76,76,9,16,5,4,0.8,0.8
2026-03-26T1600,2332A,118.1682,26.6371,南平市,南平市监测站,,32,22,20,20,16,101,101,91,91,8,12,3,4,0.7,0.6
2026-03-26T1600,2334A,118.1757,26.6276,南平市,南平七中,NA,NA,23,18,19,15,106,106,94,94,8,13,NA,3,0.5,0.6
2026-03-26T1600,1168A,120.9056,31.9669,南通市,狼山街道,,46,46,55,14,32,115,115,89,89,26,40,4,4,0.4,0.5
2026-03-26T1600,1170A,120.8635,32.0231,南通市,城中,NA,NA,NA,72,19,39,105,105,90,90,NA,35,4,5,NA,0.7
2026-03-26T1600,1171A,120.9376,31.9301,南通市,星湖花园,,44,44,57,16,38,118,118,83,83,20,39,4,5,0.4,0.6
2026-03-26T1600,1172A,120.8053,32.046,南通市,紫琅学院,,44,44,72,13,45,78,78,72,72,71,62,7,8,0.6,0.7
2026-03-26T1600,3291A,121.0631,32.0644,南通市,通州监测站,,36,31,45,11,27,114,114,97,97,12,22,4,3,0.3,0.6
2026-03-26T1600,3432A,120.9348,31.9874,南通市,环境教育馆,,41,41,54,17,30,114,114,89,89,20,35,4,5,0.4,0.5
2026-03-26T1600,4091A,120.8692,31.9885,南通市,洪江路,,38,38,63,16,43,109,109,86,86,22,45,4,6,0.6,0.8
2026-03-26T1600,2404A,112.5338,33.0086,南阳市,瓦房庄,细颗粒物(PM2.5),74,82,76,47,43,100,100,92,92,12,16,6,6,0.8,0.7
2026-03-26T1600,2405A,112.5002,32.9734,南阳市,汉画馆,细颗粒物(PM2.5),103,84,84,63,61,92,92,81,81,17,25,7,7,0.7,0.7
2026-03-26T1600,2406A,112.5778,33.0144,南阳市,气象站,颗粒物(PM10),84,97,86,50,43,103,103,94,94,19,20,7,7,0.6,0.6
2026-03-26T1600,2407A,112.548,32.9687,南阳市,理工学院,细颗粒物(PM2.5),106,85,82,66,52,96,96,83,83,13,20,8,7,0.6,0.6
2026-03-26T1600,4008A,112.5233,32.9921,南阳市,卧龙区政府,细颗粒物(PM2.5),92,87,87,56,49,91,91,86,86,18,21,8,8,0.6,0.7
2026-03-26T1600,1234A,121.8352,29.9111,宁波市,区环保大楼,,34,26,37,9,20,106,106,98,98,21,49,6,6,0.3,0.4
2026-03-26T1600,1235A,121.5595,29.8208,宁波市,万里学院,NA,NA,30,79,NA,50,90,90,62,NA,25,31,7,6,0.6,0.7
2026-03-26T1600,1236A,121.713,29.9564,宁波市,龙赛医院,,32,23,49,9,27,100,100,91,91,18,36,5,7,0.4,0.6
2026-03-26T1600,1240A,121.5855,29.8635,宁波市,太古小学,,27,27,58,14,38,85,85,80,80,22,32,4,4,0.2,0.7
2026-03-26T1600,1241A,121.5239,29.8673,宁波市,市环境监测中心,,39,39,79,14,50,92,92,87,87,22,30,9,8,0.4,0.6
2026-03-26T1600,2871A,121.6156,29.9015,宁波市,万里国际学校,,33,33,56,18,36,103,103,101,101,18,26,4,5,0.5,0.6
2026-03-26T1600,3710A,121.5593,29.8976,宁波市,白沙活动中心,,35,35,60,17,50,98,98,94,94,20,30,5,5,0.4,0.5
2026-03-26T1600,4095A,121.8962,29.7529,宁波市,中科路88号,,35,20,39,8,25,111,111,98,98,16,31,6,6,0.5,0.6
2026-03-26T1600,2341A,119.5387,26.6611,宁德市,宁德市监测站,,30,24,26,13,19,95,95,99,92,18,17,5,4,0.5,0.5
2026-03-26T1600,3209A,119.5231,26.6562,宁德市,宁德一中,,29,29,28,17,22,90,90,101,92,15,13,5,4,0.4,0.4
2026-03-26T1600,2618A,98.859,25.8541,怒江傈僳族自治州,州监测站,,34,26,23,11,14,106,106,82,82,6,5,8,7,0.5,0.5
2026-03-26T1600,2619A,98.8607,25.8168,怒江傈僳族自治州,泸水一中,,34,34,20,12,17,94,94,76,76,20,12,5,5,0.5,0.5
2026-03-26T1600,1888A,101.6891,26.571,攀枝花市,弄弄坪,,37,20,33,8,16,118,118,101,101,6,18,3,17,0.5,1.4
2026-03-26T1600,1889A,101.577,26.5914,攀枝花市,河门口,,37,29,37,16,17,116,116,101,101,6,12,5,9,0.4,0.6
2026-03-26T1600,1891A,101.7365,26.4986,攀枝花市,仁和,,41,17,23,13,18,129,129,105,105,6,10,8,5,0.4,0.5
2026-03-26T1600,2835A,101.7222,26.567,攀枝花市,四十中小,,40,25,29,8,16,125,125,98,98,7,17,6,12,0.6,1
2026-03-26T1600,1604A,122.0303,41.1489,盘锦市,开发区,细颗粒物(PM2.5),158,NA,134,120,128,171,171,139,139,NA,22,11,10,0.6,1
2026-03-26T1600,1605A,122.0486,41.0883,盘锦市,兴隆台,细颗粒物(PM2.5),153,NA,107,117,140,164,164,127,127,23,54,10,9,1.1,1.3
2026-03-26T1600,1606A,121.8297,41.1026,盘锦市,新生街道,细颗粒物(PM2.5),145,NA,59,109,78,163,163,123,123,28,42,16,15,0.8,1
2026-03-26T1600,1832A,113.3257,33.7423,平顶山市,新华旅馆,颗粒物(PM10),70,78,96,36,43,117,117,86,86,11,28,6,5,0.4,0.4
2026-03-26T1600,1833A,113.2917,33.737,平顶山市,规划设计院,颗粒物(PM10),80,92,84,34,42,111,111,88,88,19,27,8,8,0.7,0.7
2026-03-26T1600,1834A,113.182,33.7738,平顶山市,平顶山工学院,细颗粒物(PM2.5),104,104,78,64,48,93,93,64,64,NA,19,NA,6,0.6,0.6
2026-03-26T1600,3594A,112.8736,33.9068,平顶山市,石龙区,颗粒物(PM10),83,95,93,42,47,99,99,69,69,21,32,11,8,1.0,0.8
2026-03-26T1600,4116A,113.284,33.7139,平顶山市,姚电大道23号,颗粒物(PM10),98,116,94,57,43,112,112,48,NA,19,31,6,7,0.4,0.4
2026-03-26T1600,2656A,106.6633,35.5338,平凉市,聚贤嘉苑,颗粒物(PM10),56,58,69,25,28,129,129,105,105,9,21,1,6,0.2,0.4
2026-03-26T1600,2657A,106.7021,35.5307,平凉市,博物馆,颗粒物(PM10),55,56,66,27,29,127,127,108,108,8,20,7,8,0.4,0.5
2026-03-26T1600,2348A,113.8384,27.6436,萍乡市,中医院,,21,21,25,7,20,54,54,71,61,20,13,4,4,1.0,0.9
2026-03-26T1600,2350A,113.8677,27.6438,萍乡市,市环保局,,22,12,24,6,20,70,70,79,70,13,10,7,7,0.9,0.8
2026-03-26T1600,2351A,113.8663,27.6202,萍乡市,安源区政府,,20,20,25,7,21,52,52,60,53,13,14,4,5,0.8,0.9
2026-03-26T1600,4107A,113.8686,27.6668,萍乡市,联洪村委会,,18,10,27,3,18,57,57,68,63,18,7,2,2,0.5,0.5
2026-03-26T1600,2319A,119.0142,25.4324,莆田市,荔城区仓后路,,40,31,31,28,20,95,95,114,112,17,16,/,/,/,/
2026-03-26T1600,2320A,119.0016,25.4553,莆田市,莆田市监测站,,33,NA,25,23,21,104,104,123,122,10,14,2,3,0.3,0.4
2026-03-26T1600,2321A,119.112,25.4561,莆田市,涵江区六中,,31,28,31,16,16,97,97,123,116,18,13,/,/,0.5,0.5
2026-03-26T1600,2322A,119.1014,25.3215,莆田市,秀屿区政府,,36,36,28,18,15,97,97,118,114,16,9,4,4,0.6,0.6
2026-03-26T1600,2392A,115.0312,35.7636,濮阳市,环保局,颗粒物(PM10),73,81,79,38,50,151,151,117,117,11,16,7,8,0.6,0.7
2026-03-26T1600,3021A,115,35.7667,濮阳市,濮水河管理处,颗粒物(PM10),81,93,98,37,50,167,167,130,130,21,21,8,9,0.5,0.7
2026-03-26T1600,4118A,115.0552,35.7816,濮阳市,中原东路68号,颗粒物(PM10),83,96,102,32,48,158,158,121,121,11,15,7,8,0.6,0.7
2026-03-26T1600,4216A,115.0923632,35.76857718,濮阳市,任丘路479号,颗粒物(PM10),83,95,102,43,55,168,168,136,136,25,26,7,7,0.3,0.8
2026-03-26T1600,2601A,100.9801,22.7634,普洱市,市环保局,颗粒物(PM10),58,61,97,21,58,136,136,115,115,6,13,6,7,0.5,0.8
2026-03-26T1600,2602A,100.9763,22.8237,普洱市,普洱第二中学,颗粒物(PM10),88,102,97,18,56,132,132,98,98,5,27,11,7,0.2,0.6
2026-03-26T1600,3345A,131.0413,45.7795,七台河市,中波台,细颗粒物(PM2.5),103,86,101,63,73,115,115,113,113,12,19,4,6,0.4,0.5
2026-03-26T1600,3637A,131.0136,45.7688,七台河市,人民广场,细颗粒物(PM2.5),98,68,112,59,70,104,104,102,102,12,25,8,11,0.6,0.8
2026-03-26T1600,3684A,130.8639,45.8144,七台河市,新建矿广场,颗粒物(PM10),95,112,153,57,92,102,102,102,102,17,33,5,36,0.5,0.8
2026-03-26T1600,1779A,123.9307,47.3641,齐齐哈尔市,安居小区,颗粒物(PM10),229,370,68,77,42,115,115,106,106,10,11,11,10,0.5,0.4
2026-03-26T1600,1780A,123.9497,47.3389,齐齐哈尔市,中心广场,细颗粒物(PM2.5),112,NA,54,73,37,117,117,100,100,13,14,2,11,NA,0.7
2026-03-26T1600,1781A,123.9483,47.3229,齐齐哈尔市,农牧车辆厂,颗粒物(PM10),172,293,63,68,35,113,113,101,101,NA,10,7,7,0.3,0.2
2026-03-26T1600,1783A,123.9442,47.2994,齐齐哈尔市,市环境监测站,颗粒物(PM10),187,324,63,68,34,117,117,103,103,12,12,4,4,0.6,0.5
2026-03-26T1600,3662A,123.6341,47.2079,齐齐哈尔市,富区青少年活动中心,颗粒物(PM10),500,750,101,104,50,99,99,108,108,13,14,4,5,0.5,0.4
2026-03-26T1600,2591A,107.9765,26.5724,黔东南苗族侗族自治州,市环境监测站,,18,13,16,12,11,53,53,38,38,5,8,2,2,0.6,0.8
2026-03-26T1600,2881A,107.8909,26.531,黔东南苗族侗族自治州,凯里学院,,20,17,13,14,11,57,57,44,44,7,9,4,4,0.8,0.9
2026-03-26T1600,2593A,107.5223,26.2371,黔南布依族苗族自治州,小围寨,,42,34,16,29,13,60,60,38,38,8,12,11,5,0.7,0.7
2026-03-26T1600,3538A,107.5175,26.2977,黔南布依族苗族自治州,沙坝,细颗粒物(PM2.5),56,44,19,38,15,58,58,34,34,8,11,10,5,0.6,0.6
2026-03-26T1600,2589A,104.9022,25.0943,黔西南布依族苗族自治州,场坝街,,45,NA,57,22,45,141,141,121,121,7,9,9,7,0.4,0.5
2026-03-26T1600,2590A,104.8812,25.0994,黔西南布依族苗族自治州,坪东大道,,42,31,62,20,48,134,134,121,121,6,16,6,6,0.5,0.7
2026-03-26T1600,2502A,108.6238,21.9667,钦州市,市环保站,,41,41,39,3,18,67,67,65,65,7,15,5,6,0.4,0.5
2026-03-26T1600,2503A,108.655,21.9481,钦州市,沙埠小学,颗粒物(PM10),53,53,40,17,20,70,70,64,64,6,14,6,6,0.6,0.7
2026-03-26T1600,2504A,108.5989,21.7435,钦州市,港区一小,颗粒物(PM10),68,74,58,11,22,58,58,59,54,4,10,2,4,0.5,0.6
2026-03-26T1600,3404A,108.5959,21.9634,钦州市,北职校,,46,46,39,10,20,65,65,65,65,6,13,5,6,0.5,0.6
2026-03-26T1600,1046A,119.5247,39.9346,秦皇岛市,建设大厦,细颗粒物(PM2.5),127,112,175,89,138,98,98,112,112,18,45,8,9,0.6,0.9
2026-03-26T1600,3132A,119.5979,39.938,秦皇岛市,文明里,细颗粒物(PM2.5),119,105,187,80,135,73,73,91,91,24,55,10,12,0.6,0.9
2026-03-26T1600,4066A,119.7458,39.9952,秦皇岛市,南园路157号,NA,NA,95,176,NA,142,95,95,100,100,41,68,9,12,0.6,0.9
2026-03-26T1600,4067A,119.5131,39.8858,秦皇岛市,翠岛大街1号,细颗粒物(PM2.5),112,87,157,73,140,84,84,92,92,30,42,9,11,0.6,0.8
2026-03-26T1600,4198A,119.509013,39.825305,秦皇岛市,北戴河轮滑馆,细颗粒物(PM2.5),94,94,177,57,130,78,78,92,92,24,45,8,9,0.5,0.7
2026-03-26T1600,1310A,120.404,36.0625,青岛市,市南区东部子站,细颗粒物(PM2.5),124,112,124,86,98,112,112,76,76,42,28,14,12,0.6,0.7
2026-03-26T1600,1311A,120.362344,36.10282,青岛市,四方区子站,细颗粒物(PM2.5),106,88,124,66,99,158,158,115,115,16,33,9,11,0.7,1
2026-03-26T1600,1312A,120.294373,36.054183,青岛市,市南区西部子站,细颗粒物(PM2.5),112,90,109,73,91,123,123,78,78,36,32,6,6,0.7,0.8
2026-03-26T1600,1313A,120.4581,36.0858,青岛市,崂山区子站,NA,NA,110,112,NA,82,107,107,70,66,52,42,NA,9,NA,0.7
2026-03-26T1600,1315A,120.3945,36.3083,青岛市,城阳区子站,"颗粒物(PM10),细颗粒物(PM2.5)",100,119,121,60,75,167,167,135,135,21,37,12,10,1.0,1
2026-03-26T1600,3642A,120.3454,36.0735,青岛市,市北区南部,细颗粒物(PM2.5),101,99,115,61,91,141,141,97,97,21,21,4,7,1.0,1.2
2026-03-26T1600,3643A,120.3897,36.18,青岛市,李沧区北部,细颗粒物(PM2.5),92,97,122,56,83,153,153,118,118,22,37,12,13,0.8,0.9
2026-03-26T1600,4110A,120.5222,36.4089,青岛市,盟旺路653号,颗粒物(PM10),82,94,109,36,65,170,170,147,147,11,18,8,6,0.9,1.1
2026-03-26T1600,4290A,120.196923,35.954556,青岛市,珠江路669号,细颗粒物(PM2.5),116,102,129,77,97,137,137,95,95,30,31,8,8,0.6,0.7
2026-03-26T1600,4291A,120.0424,35.8656,青岛市,黄岛区人民政府广场,细颗粒物(PM2.5),112,107,120,73,85,103,103,74,74,53,44,10,10,0.7,0.8
2026-03-26T1600,1703A,113.0218,23.7086,清远市,凤城街办,,33,32,51,20,35,105,105,77,77,15,25,/,/,/,/
2026-03-26T1600,3025A,113.0479,23.6343,清远市,技师学院,,37,34,57,19,36,116,116,83,83,12,24,4,6,0.3,0.4
2026-03-26T1600,3318A,112.9898,23.7403,清远市,清新太和,,38,38,57,22,36,117,117,88,88,13,21,7,8,0.5,0.6
2026-03-26T1600,3455A,113.076,23.72,清远市,清城东城,,38,38,57,22,36,118,118,86,86,13,21,/,/,/,/
2026-03-26T1600,2661A,107.6325,35.7357,庆阳市,庆阳五中,,49,49,76,24,33,127,127,110,110,10,19,6,10,0.3,0.4
2026-03-26T1600,2662A,107.6361,35.7067,庆阳市,市环保局,,46,46,72,21,35,131,131,117,117,10,19,6,12,0.3,0.5
2026-03-26T1600,1916A,103.7897,25.5036,曲靖市,环境监测站,,43,19,39,3,23,135,135,129,129,5,9,5,6,0.7,0.7
2026-03-26T1600,1917A,103.8013,25.5357,曲靖市,烟厂办公区,,40,24,39,6,21,127,127,119,119,3,8,4,5,0.4,0.6
2026-03-26T1600,3376A,103.7926,25.4651,曲靖市,南苑二区,,36,16,33,3,24,113,113,110,110,12,13,4,4,0.3,0.5
2026-03-26T1600,3377A,103.7442,25.5259,曲靖市,曲靖师范学院,,40,13,35,6,22,127,127,122,122,4,7,3,5,0.3,0.5
2026-03-26T1600,1264A,118.8694,28.94,衢州市,环保大楼,,38,36,52,26,36,82,82,79,79,16,26,/,/,/,/
2026-03-26T1600,1266A,118.8622,28.9809,衢州市,衢州学院,,38,32,45,26,31,78,78,83,83,19,29,4,4,0.4,0.5
2026-03-26T1600,4097A,118.9646,28.9832,衢州市,衢州三中,,39,36,53,27,37,78,78,74,74,21,30,6,6,0.6,0.6
2026-03-26T1600,1611A,118.5818,24.9116,泉州市,涂山街,颗粒物(PM10),51,51,35,20,19,104,104,112,112,22,16,5,3,0.6,0.7
2026-03-26T1600,1612A,118.597,24.8976,泉州市,津头埔,,50,50,33,20,20,110,110,121,121,19,14,4,3,0.6,0.6
2026-03-26T1600,1613A,118.6669,24.9422,泉州市,万安,,48,48,36,15,21,97,97,108,108,15,12,5,4,0.6,0.5
2026-03-26T1600,4105A,118.6355,24.9148,泉州市,霞新路6号,,34,34,30,17,19,92,92,107,107,23,14,/,/,0.7,0.6
2026-03-26T1600,2626A,88.8873,29.2723,日喀则市,日喀则监测站,,40,13,15,3,7,126,126,98,98,4,9,6,7,0.3,0.3
2026-03-26T1600,3726A,88.8775,29.2425,日喀则市,林业技术推广中心,,41,14,19,3,5,129,129,100,100,4,7,2,3,0.3,0.4
2026-03-26T1600,1659A,119.4711,35.421,日照市,监测站,NA,NA,NA,130,NA,91,162,162,118,118,NA,62,NA,21,0.9,1.2
2026-03-26T1600,1660A,119.523,35.4216,日照市,市政府广场,NA,NA,NA,132,NA,91,153,153,112,112,NA,50,NA,24,0.6,1
2026-03-26T1600,1661A,119.5511,35.4113,日照市,港务局,细颗粒物(PM2.5),106,124,156,66,93,144,144,101,101,29,66,7,18,0.7,1
2026-03-26T1600,3507A,119.5326,35.4627,日照市,职业技术学院,颗粒物(PM10),110,144,130,56,81,155,155,122,122,30,52,14,19,1.0,1.2
2026-03-26T1600,3604A,119.3267,35.1043,日照市,岚山环保分局,细颗粒物(PM2.5),101,100,125,61,80,167,167,122,122,25,48,14,24,0.7,1
2026-03-26T1600,1835A,111.1922,34.7752,三门峡市,市政府,颗粒物(PM10),75,84,79,26,33,123,123,63,63,12,43,13,14,0.3,0.5
2026-03-26T1600,1836A,111.1588,34.794,三门峡市,开发区,颗粒物(PM10),85,99,88,38,36,129,129,69,69,12,30,12,15,0.4,0.5
2026-03-26T1600,3039A,111.1911,34.7829,三门峡市,三门峡市第一小学,颗粒物(PM10),85,99,90,29,34,127,127,71,71,13,34,16,18,0.5,0.6
2026-03-26T1600,3598A,111.1031,34.719,三门峡市,富达温泉假日酒店,细颗粒物(PM2.5),92,93,97,56,43,115,115,54,54,22,38,24,24,0.4,0.6
2026-03-26T1600,2324A,117.621,26.2626,三明市,三钢,,21,11,24,6,16,66,66,46,46,11,16,4,6,0.6,0.7
2026-03-26T1600,2325A,117.6352,26.2714,三明市,三明二中,,19,8,19,3,14,58,58,44,44,14,16,2,5,0.7,0.8
2026-03-26T1600,2326A,117.6028,26.2377,三明市,三元区政府,,16,14,24,6,17,49,49,43,43,21,19,10,6,1.2,0.9
2026-03-26T1600,1877A,109.4962,18.2682,三亚市,河西子站,,29,29,25,14,15,65,65,61,61,6,5,4,4,0.5,0.5
2026-03-26T1600,3540A,109.7348,18.3443,三亚市,君悦子站,,22,20,27,15,14,68,68,62,62,4,7,4,4,0.3,0.4
2026-03-26T1600,4135A,109.1714,18.3739,三亚市,城东小学站,NA,NA,NA,27,NA,16,NA,NA,68,65,NA,7,NA,NA,NA,NA
2026-03-26T1600,2624A,91.7592,29.234,山南市,山南监测站,,40,13,23,3,4,127,127,112,99,3,5,5,6,0.2,0.2
2026-03-26T1600,2625A,91.7701,29.2436,山南市,山南人民医院,,40,17,29,3,8,128,128,116,100,2,5,8,8,0.3,0.3
2026-03-26T1600,1674A,116.6795,23.3666,汕头市,金平子站,,42,40,30,14,21,133,133,122,122,19,14,5,5,0.7,0.7
2026-03-26T1600,1675A,116.7248,23.3632,汕头市,龙湖子站,,42,42,31,14,20,126,126,115,115,17,14,5,5,/,/
2026-03-26T1600,1676A,116.7257,23.2774,汕头市,濠江子站,,40,32,31,16,19,126,126,110,110,15,14,7,7,/,/
2026-03-26T1600,1677A,116.7518,23.4712,汕头市,澄海子站,,47,47,33,14,19,122,122,114,114,17,12,7,7,0.7,0.7
2026-03-26T1600,1678A,116.6088,23.2539,汕头市,潮阳子站,,40,25,27,17,22,127,127,112,112,11,8,6,6,0.6,0.6
2026-03-26T1600,3444A,116.4539,23.2684,汕头市,潮南峡山,,38,36,41,19,28,121,121,114,114,14,12,7,7,0.7,0.8
2026-03-26T1600,3624A,116.4069,23.2533,汕头市,潮南子站,,40,40,45,22,32,103,103,98,98,16,9,7,6,/,/
