timepoint,stationcode,longitude,latitude,area,positionname,primarypollutant,aqi,pm10,pm10_24h,pm2_5,pm2_5_24h,o3,o3_24h,o3_8h,o3_8h_24h,no2,no2_24h,so2,so2_24h,co,co_24h
2025-05-03T1400,2566A,102.1879,31.914,阿坝藏族羌族自治州,州农科所,,24,15,28,7,11,76,,54,54,5,12,10,11,0.6,0.6
2025-05-03T1400,2568A,102.2502,31.8896,阿坝藏族羌族自治州,马师校,,29,9,16,8,10,92,,51,51,12,14,5,5,0.5,0.4
2025-05-03T1400,3994A,102.2165,31.9024,阿坝藏族羌族自治州,马尔康中学西区,,30,19,21,12,13,96,,60,60,3,9,4,5,0.4,0.4
2025-05-03T1400,2695A,80.292,41.1694,阿克苏地区,电视台,颗粒物(PM10),154,257,211,81,50,96,,93,87,1,4,5,6,0.6,0.6
2025-05-03T1400,2696A,80.2613,41.1551,阿克苏地区,艺术中心,颗粒物(PM10),173,296,235,64,59,95,,81,81,2,7,5,4,0.3,0.4
2025-05-03T1400,2204A,105.6467,38.8363,阿拉善盟,西城区西花园,,40,40,91,22,34,124,,94,94,8,10,7,6,0.7,0.6
2025-05-03T1400,2205A,105.6985,38.8411,阿拉善盟,蒙二幼,,47,47,107,17,31,107,,88,88,7,6,10,9,0.4,0.4
2025-05-03T1400,2206A,105.724,38.8516,阿拉善盟,环保局新楼,,48,48,89,17,27,108,,91,91,4,4,10,9,0.5,0.5
2025-05-03T1400,2708A,88.1264,47.8517,阿勒泰地区,市站,颗粒物(PM10),55,59,30,23,6,96,,72,72,1,8,4,3,0.2,0.3
2025-05-03T1400,2630A,80.1161,32.5,阿里地区,阿里监测站,,36,10,9,6,6,114,,90,90,2,10,5,5,0.4,0.4
2025-05-03T1400,3192A,80.0903,32.5028,阿里地区,阿里藏医院,,38,17,20,6,6,121,,87,87,1,7,5,6,0.3,0.3
2025-05-03T1400,2642A,109.0318,32.6537,安康市,香溪洞,颗粒物(PM10),88,126,72,38,26,128,,105,105,6,6,7,8,0.7,0.5
2025-05-03T1400,2644A,109.0072,32.6975,安康市,汉滨区检察院,颗粒物(PM10),91,132,78,33,28,133,,96,96,6,11,8,12,0.5,0.4
2025-05-03T1400,4054A,109.0325,32.6913,安康市,市邮政管理局,颗粒物(PM10),90,129,81,44,31,129,,93,93,6,12,6,13,0.2,0.2
2025-05-03T1400,2291A,117.0809,30.5177,安庆市,环科院,颗粒物(PM10),74,98,56,52,27,142,,108,108,9,22,2,3,0.8,0.6
2025-05-03T1400,2292A,117.0331,30.5119,安庆市,马山宾馆,细颗粒物(PM2.5),72,78,52,52,26,145,,116,116,6,30,4,6,0.6,0.4
2025-05-03T1400,2294A,116.9896,30.6145,安庆市,安庆大学,细颗粒物(PM2.5),82,87,56,60,26,131,,117,117,10,16,4,5,0.6,0.4
2025-05-03T1400,3173A,117.0598,30.5351,安庆市,市人大,"颗粒物(PM10),细颗粒物(PM2.5)",73,95,58,53,22,144,,114,114,10,22,7,9,0.6,0.4
2025-05-03T1400,3122A,105.9606,26.2611,安顺市,伍家关,,41,29,41,17,22,131,,,,4,6,4,4,0.3,0.3
2025-05-03T1400,3123A,105.9408,26.2431,安顺市,凤凰山,,41,40,44,18,23,131,,123,123,7,10,8,8,0.4,0.5
2025-05-03T1400,3124A,105.9439,26.2564,安顺市,金钟山,颗粒物(PM10),57,63,47,22,25,139,,127,127,4,7,7,6,0.3,0.4
2025-05-03T1400,3125A,105.8983,26.2481,安顺市,娄家坡,,45,42,43,29,24,142,,128,128,6,6,8,7,0.3,0.4
2025-05-03T1400,1818A,114.4839,36.0621,安阳市,棉研所,,,,,,,,,,,,,,,,
2025-05-03T1400,1819A,114.3551,36.1017,安阳市,红庙街,颗粒物(PM10),53,55,100,11,22,109,,94,94,1,4,2,4,0.3,0.4
2025-05-03T1400,1820A,114.361,36.0681,安阳市,银杏小区,,37,37,99,23,50,116,,102,102,1,5,3,5,0.2,0.4
2025-05-03T1400,3141A,114.3922,36.0878,安阳市,信访局,颗粒物(PM10),70,89,146,18,24,116,,103,103,4,8,3,4,0.3,0.5
2025-05-03T1400,3669A,114.4705,36.0637,安阳市,左辅环卫站,,38,37,75,6,25,119,,105,105,6,11,2,4,0.4,0.5
2025-05-03T1400,3703A,114.2917,36.0949,安阳市,安钢职工学校,颗粒物(PM10),60,69,112,13,29,110,,97,97,2,14,2,10,0.3,0.9
2025-05-03T1400,1748A,123.044,41.1196,鞍山市,深沟寺,,27,19,37,3,16,84,,71,71,8,19,7,12,0.4,0.9
2025-05-03T1400,1749A,123.011,41.0931,鞍山市,太阳城,,25,12,37,3,20,78,,68,68,12,18,14,12,1.1,1
2025-05-03T1400,1750A,123.0485,41.1442,鞍山市,太平,,25,25,38,7,16,79,,65,65,8,18,9,12,0.5,0.9
2025-05-03T1400,1751A,122.9642,41.0971,鞍山市,铁西三道街,,27,22,37,3,19,84,,70,70,10,21,8,8,0.6,0.8
2025-05-03T1400,1753A,123.022,41.0821,鞍山市,明达新区,,26,14,38,6,17,81,,72,72,10,17,11,12,0.6,0.7
2025-05-03T1400,1754A,123.1289,41.0228,鞍山市,千山,,,,21,,7,,,75,,,13,,8,,0.7
2025-05-03T1400,4201A,122.9446,41.0826,鞍山市,兴盛南路290号,,26,26,43,3,19,82,,71,71,11,21,6,9,0.4,0.8
2025-05-03T1400,2195A,107.4212,40.761,巴彦淖尔市,附二中,,28,11,28,6,13,88,,75,75,2,8,6,6,0.5,0.5
2025-05-03T1400,2196A,107.37,40.7372,巴彦淖尔市,市环保大楼,,30,17,36,12,20,93,,75,75,3,12,4,4,0.4,0.4
2025-05-03T1400,1956A,86.1472,41.7538,巴音郭楞蒙古自治州,孔雀公园,,40,40,130,10,23,70,,92,89,21,4,6,6,0.3,0.2
2025-05-03T1400,1957A,86.1972,41.7166,巴音郭楞蒙古自治州,棉纺厂,,30,30,158,8,25,80,,88,87,12,6,3,3,0.2,0.2
2025-05-03T1400,1958A,86.2357,41.7173,巴音郭楞蒙古自治州,经济开发区,,26,13,119,3,14,82,,88,87,10,4,6,7,0.1,0.1
2025-05-03T1400,2914A,106.7677,31.8794,巴中市,苏山坪,颗粒物(PM10),61,71,61,22,25,126,,122,111,5,7,4,5,0.2,0.3
2025-05-03T1400,3181A,106.7768,31.8526,巴中市,市五中,颗粒物(PM10),56,62,70,18,29,121,,76,76,9,18,6,7,0.3,0.5
2025-05-03T1400,3183A,106.7418,31.8654,巴中市,圣泉水务公司,颗粒物(PM10),58,65,60,21,27,128,,99,99,5,17,7,7,0.3,0.4
2025-05-03T1400,3616A,106.7616,31.8344,巴中市,市中心医院,颗粒物(PM10),55,60,68,32,37,124,,75,75,5,20,5,5,0.3,0.5
2025-05-03T1400,2235A,122.7911,45.6077,白城市,洮北区环保局,,28,22,22,3,4,87,,80,80,4,6,3,3,0.3,0.3
2025-05-03T1400,2236A,122.8738,45.5725,白城市,市环保局,,28,12,16,6,8,89,,83,83,2,6,1,2,0.3,0.3
2025-05-03T1400,2231A,126.4219,41.9171,白山市,喜丰,,,11,27,3,12,88,,77,77,5,23,11,6,,0.7
2025-05-03T1400,2232A,126.4077,41.9419,白山市,环保局,,27,18,26,3,10,85,,70,70,8,15,5,5,0.4,0.5
2025-05-03T1400,2647A,104.1724,36.5446,白银市,第三小学,颗粒物(PM10),116,182,219,76,68,105,,82,82,4,7,10,22,0.5,0.5
2025-05-03T1400,2648A,104.1465,36.5482,白银市,动力公司,细颗粒物(PM2.5),166,213,210,126,76,111,,89,89,7,10,9,33,0.3,0.3
2025-05-03T1400,2512A,106.6103,23.9011,百色市,市监测站,颗粒物(PM10),51,52,54,24,33,137,,99,99,9,16,9,10,0.6,0.7
2025-05-03T1400,2513A,106.6538,23.8859,百色市,市中心血站,颗粒物(PM10),59,68,63,41,39,139,,98,98,8,18,11,11,0.7,0.8
2025-05-03T1400,3406A,106.6085,23.8798,百色市,祈福高中,,48,48,63,28,31,134,,88,88,8,23,11,10,0.8,0.8
2025-05-03T1400,2270A,117.396,32.939,蚌埠市,工人疗养院,,50,50,93,18,32,144,,113,113,5,9,5,5,0.7,0.7
2025-05-03T1400,2271A,117.3605,32.9427,蚌埠市,百货大楼,颗粒物(PM10),52,54,92,18,30,137,,109,109,8,12,6,6,0.5,0.6
2025-05-03T1400,2273A,117.4185,32.8911,蚌埠市,蚌埠学院,颗粒物(PM10),51,51,89,25,34,139,,107,107,5,8,4,4,0.5,0.6
2025-05-03T1400,2274A,117.3533,32.9673,蚌埠市,淮上区政府,,48,48,87,20,35,136,,112,112,8,11,5,6,0.3,0.4
2025-05-03T1400,2275A,117.3145,32.8977,蚌埠市,高新区,颗粒物(PM10),52,53,85,18,34,133,,108,108,5,10,5,6,0.3,0.5
2025-05-03T1400,3715A,117.3092,32.9314,蚌埠市,蚌埠田家炳中学,颗粒物(PM10),52,53,92,29,36,140,,114,114,6,11,6,6,0.3,0.4
2025-05-03T1400,1585A,109.8756,40.6532,包头市,市环境监测站,,29,17,23,12,17,92,,70,70,10,13,13,11,0.5,0.4
2025-05-03T1400,1587A,109.9991,40.5842,包头市,包头八中,,31,17,26,9,11,98,,70,70,10,15,13,13,0.5,0.5
2025-05-03T1400,1588A,109.8538,40.6821,包头市,青山宾馆,,29,16,23,9,12,92,,69,69,6,10,13,13,0.5,0.4
2025-05-03T1400,1589A,109.8642,40.6288,包头市,惠龙物流,,30,17,21,7,11,96,,67,67,14,15,23,13,0.8,0.5
2025-05-03T1400,1590A,110.0377,40.5546,包头市,东河鸿龙湾,,30,15,29,3,7,96,,68,68,6,16,9,10,0.4,0.4
2025-05-03T1400,3283A,109.9154,40.5685,包头市,滨河大厦,,31,31,27,8,12,97,,68,68,11,16,25,17,0.9,0.5
2025-05-03T1400,3419A,109.9447,40.6261,包头市,包头市委党校,,32,32,32,7,6,98,,70,70,5,10,11,10,0.4,0.4
2025-05-03T1400,3683A,109.8331,40.6576,包头市,昆区政府,,30,17,23,14,13,94,,76,76,15,14,16,11,0.8,0.5
2025-05-03T1400,1930A,107.185,34.3063,宝鸡市,庙沟村,,,,43,,17,,,138,,,2,,7,,0.5
2025-05-03T1400,1931A,107.0708,34.3017,宝鸡市,竹园沟,颗粒物(PM10),91,132,107,37,30,118,,85,85,6,7,8,8,0.3,0.3
2025-05-03T1400,1932A,107.1906,34.3672,宝鸡市,三陆医院,颗粒物(PM10),91,131,133,42,47,116,,88,88,8,14,6,7,0.3,0.3
2025-05-03T1400,1933A,107.1431,34.3547,宝鸡市,监测站,颗粒物(PM10),93,135,174,28,29,107,,80,80,11,9,5,5,0.3,0.2
2025-05-03T1400,1934A,107.1186,34.3739,宝鸡市,技工学校,颗粒物(PM10),94,138,128,51,56,112,,85,85,9,9,8,8,0.4,0.4
2025-05-03T1400,1935A,107.3906,34.3528,宝鸡市,陈仓区环保局家属楼,颗粒物(PM10),92,133,124,36,40,122,,92,92,9,9,8,8,0.4,0.4
2025-05-03T1400,1936A,107.2058,34.3497,宝鸡市,文理学院,颗粒物(PM10),88,125,125,40,45,116,,90,90,6,7,7,8,0.2,0.3
2025-05-03T1400,1937A,107.2386,34.3622,宝鸡市,三迪小学,颗粒物(PM10),96,142,157,38,53,113,,91,91,6,5,6,8,0.4,0.4
2025-05-03T1400,1051A,115.493,38.8632,保定市,游泳馆,,35,30,47,3,13,112,,89,89,9,13,2,3,0.3,0.2
2025-05-03T1400,1052A,115.5213,38.8959,保定市,华电二区,,35,25,37,3,19,111,,94,94,2,8,3,3,0.0,0.2
2025-05-03T1400,1053A,115.4713,38.9108,保定市,接待中心,,32,24,48,3,15,100,,78,78,4,11,2,2,0.1,0.3
2025-05-03T1400,1054A,115.4612,38.8416,保定市,地表水厂,颗粒物(PM10),67,83,58,3,12,109,,85,85,7,15,2,3,0.0,0.1
2025-05-03T1400,3581A,115.31981,38.95208,保定市,满城区生态环境分局,,35,31,32,3,12,112,,91,91,2,7,3,2,0.1,0.3
2025-05-03T1400,3582A,115.47694,38.76408,保定市,清苑区第二中学,,38,38,62,3,17,115,,92,92,2,7,4,5,0.2,0.3
2025-05-03T1400,3583A,115.62909,39.02311,保定市,徐水物探局,,35,23,50,3,11,112,,92,92,2,12,3,3,0.0,0.1
2025-05-03T1400,4004A,115.4202,38.8656,保定市,双鹰农机,,34,32,66,7,24,106,,86,86,1,12,6,7,0.1,0.2
2025-05-03T1400,4034A,115.5150,38.8590,保定市,植保所站,,34,34,46,11,18,103,,84,84,2,6,3,3,0.2,0.3
2025-05-03T1400,2594A,99.1678,25.1081,保山市,市环境监测站,,40,33,29,28,29,82,,57,57,10,10,7,7,0.5,0.5
2025-05-03T1400,2595A,99.1711,25.1328,保山市,市环保局,,31,31,32,19,17,84,,57,57,12,8,8,8,0.5,0.5
2025-05-03T1400,1866A,109.2262,21.588,北海市,牛尾岭水库,,,24,20,8,12,59,,52,52,,,6,7,0.5,0.5
2025-05-03T1400,1867A,109.1436,21.4086,北海市,海滩公园,,24,24,28,7,8,70,,87,81,4,6,5,5,0.6,0.7
2025-05-03T1400,1868A,109.0981,21.4661,北海市,新市环保局,,21,21,18,9,12,64,,86,69,5,8,2,3,0.5,0.5
2025-05-03T1400,1869A,109.1778,21.5233,北海市,北海工业园,,30,30,23,15,16,63,,76,66,4,9,7,8,0.4,0.4
2025-05-03T1400,3400A,109.1911,21.4415,北海市,龙潭自来水厂,,26,18,17,18,14,61,,80,72,4,7,8,8,0.4,0.5
2025-05-03T1400,1001A,116.3621,39.8784,北京市,万寿西宫,,32,11,18,6,8,102,,94,94,1,7,6,6,0.4,0.5
2025-05-03T1400,1002A,116.2202,40.2915,北京市,定陵,,,,,,,,,,,,,,,,
2025-05-03T1400,1003A,116.4174,39.9289,北京市,东四,,31,16,22,6,10,99,,90,90,3,9,2,2,0.2,0.3
2025-05-03T1400,1004A,116.4072,39.8863,北京市,天坛,,30,17,18,7,9,96,,86,86,2,9,1,1,0.4,0.5
2025-05-03T1400,1005A,116.462,39.9365,北京市,农展馆,,29,15,16,3,8,92,,83,83,2,11,2,2,0.3,0.5
2025-05-03T1400,1006A,116.3392,39.9295,北京市,官园,,30,17,18,6,8,95,,82,82,4,12,4,4,0.2,0.3
2025-05-03T1400,1007A,116.2878,39.9611,北京市,海淀万柳,,27,16,18,7,7,86,,76,76,2,9,4,4,0.3,0.4
2025-05-03T1400,1008A,116.6636,40.135,北京市,顺义新城,,32,10,19,7,8,101,,88,88,1,11,6,6,0.1,0.2
2025-05-03T1400,1009A,116.6275,40.3275,北京市,怀柔镇,,29,9,16,3,7,90,,78,78,2,8,2,2,0.2,0.3
2025-05-03T1400,1010A,116.2296,40.217,北京市,昌平镇,,29,15,14,3,7,90,,81,81,3,6,2,2,0.2,0.2
2025-05-03T1400,1011A,116.3966,39.9821,北京市,奥体中心,,29,13,16,3,7,92,,84,84,7,19,3,3,0.1,0.2
2025-05-03T1400,3281A,115.9718,40.4529,北京市,延庆夏都,,30,11,16,3,8,95,,82,82,2,9,3,3,0.2,0.3
2025-05-03T1400,3418A,116.8336,40.4095,北京市,密云新城,,28,9,17,3,9,87,,74,74,2,7,3,3,0.4,0.4
2025-05-03T1400,3671A,116.088,39.9726,北京市,门头沟三家店,,,,,,,,,,,,,,,,
2025-05-03T1400,3672A,116.1541,39.8204,北京市,丰台云岗,,32,17,17,8,6,100,,90,90,1,6,2,3,0.1,0.2
2025-05-03T1400,3673A,116.6804,39.9081,北京市,通州东关,,32,23,28,7,10,100,,85,85,2,15,4,6,0.4,0.5
2025-05-03T1400,3674A,115.9577,39.7603,北京市,房山燕山,,28,10,14,3,6,89,,85,85,1,4,3,2,0.1,0.2
2025-05-03T1400,3675A,116.4672,39.7733,北京市,大兴旧宫,,31,15,21,6,9,97,,88,88,1,8,3,3,0.1,0.2
2025-05-03T1400,3694A,115.986,40.4563,北京市,延庆石河营,,29,8,14,3,9,90,,77,77,2,6,2,2,0.3,0.3
2025-05-03T1400,3695A,116.6151,40.3053,北京市,怀柔新城,,29,7,13,3,9,92,,80,80,2,5,3,2,0.2,0.3
2025-05-03T1400,3696A,116.2545,39.8768,北京市,丰台小屯,,29,16,18,7,7,91,,83,83,2,9,2,2,0.3,0.3
2025-05-03T1400,3697A,116.84,40.3844,北京市,密云镇,,29,8,20,6,11,92,,72,72,2,16,5,5,0.2,0.4
2025-05-03T1400,4182A,116.1942,39.9158,北京市,八角北路9号,,31,13,14,8,7,98,,88,88,1,5,3,3,0,0.1
2025-05-03T1400,4194A,117.0790,40.1518,北京市,洳河巡河路,,30,8,19,3,12,96,,86,86,3,8,2,2,0.3,0.3
2025-05-03T1400,1761A,123.8275,41.3064,本溪市,大峪,,26,11,26,7,13,83,,73,73,9,16,6,9,0.5,1
2025-05-03T1400,1762A,123.7567,41.3325,本溪市,溪湖,,,17,33,3,14,82,,73,73,8,12,,7,0.5,0.8
2025-05-03T1400,1763A,123.7169,41.3094,本溪市,彩屯,,27,18,26,7,13,84,,67,,9,13,8,10,0.4,0.6
2025-05-03T1400,1764A,123.7669,41.2864,本溪市,东明,,30,30,33,11,14,78,,74,71,13,19,7,13,0.6,1.3
2025-05-03T1400,1765A,123.7992,41.2664,本溪市,新立屯,,37,37,27,3,12,78,,71,71,13,24,6,9,0.5,0.8
2025-05-03T1400,1766A,123.8142,41.3472,本溪市,威宁,,26,26,29,3,10,81,,73,73,3,10,5,6,0.5,0.9
2025-05-03T1400,2587A,105.2864,27.3125,毕节市,八中,,49,49,54,26,30,147,,100,100,6,12,7,6,0.5,0.5
2025-05-03T1400,2588A,105.31,27.2944,毕节市,师专,,45,,56,27,39,144,,88,88,7,25,10,10,0.6,0.7
2025-05-03T1400,4263A,105.3688,27.3598,毕节市,工业大道,颗粒物(PM10),59,68,76,29,37,149,,96,96,9,26,9,9,0.6,0.6
2025-05-03T1400,1629A,118.0018,37.3617,滨州市,第二水厂,,33,31,59,3,17,105,,77,77,2,11,6,9,0.2,0.5
2025-05-03T1400,1630A,117.9776,37.393,滨州市,北中新校,,35,34,43,12,20,110,,79,79,5,15,5,9,0,0.2
2025-05-03T1400,3514A,117.9378,37.3956,滨州市,中海酒店,,34,19,33,12,18,107,,76,76,4,13,6,9,0.4,0.5
2025-05-03T1400,3515A,117.9378,37.3553,滨州市,开发区一中,颗粒物(PM10),86,122,73,7,15,102,,72,72,10,18,3,7,0.3,0.5
2025-05-03T1400,3516A,118.0917,37.694,滨州市,金海六路,,38,27,48,14,18,119,,85,85,5,16,7,9,0.1,0.1
2025-05-03T1400,4028A,117.9956,37.3753,滨州市,滨州市西街道办事处,,46,46,58,9,20,115,,84,84,6,13,4,7,0,0.1
2025-05-03T1400,2311A,115.8072,33.8399,亳州市,污水处理厂,,36,34,80,3,18,113,,99,98,6,8,2,2,0.2,0.3
2025-05-03T1400,2312A,115.7789,33.8518,亳州市,三国揽胜宫,,36,31,80,3,19,115,,106,102,5,6,4,5,0.2,0.3
2025-05-03T1400,3332A,115.7633,33.8034,亳州市,亳州学院,,38,24,73,3,18,120,,111,106,7,8,2,3,0.3,0.4
2025-05-03T1400,2693A,82.0485,44.8556,博尔塔拉蒙古自治州,市党校,,31,16,22,13,15,98,,68,68,17,17,4,6,0.7,0.8
2025-05-03T1400,2694A,82.0806,44.8969,博尔塔拉蒙古自治州,市环保局,,32,22,28,8,11,102,,80,80,9,12,1,2,0.8,0.8
2025-05-03T1400,1071A,116.8842,38.2991,沧州市,沧县城建局,,34,25,63,19,29,106,,86,86,7,13,4,2,0.2,0.3
2025-05-03T1400,1072A,116.8584,38.3254,沧州市,电视转播站,,42,42,56,9,18,106,,86,86,10,18,3,3,0.2,0.2
2025-05-03T1400,1073A,116.8709,38.3228,沧州市,市环保局,,38,34,51,12,28,120,,96,96,4,13,3,3,0.3,0.3
2025-05-03T1400,3324A,116.8136,38.3004,沧州市,河北水利电力学院,,35,22,53,3,16,111,,91,91,9,14,3,3,0.1,0.2
2025-05-03T1400,2622A,97.1806,31.1273,昌都市,昌都监测站,,36,6,6,3,6,115,,91,91,3,4,2,3,0.2,0.2
2025-05-03T1400,3719A,97.1714,31.1406,昌都市,昌都会议中心,,41,6,8,3,6,130,,94,94,2,4,3,3,0.2,0.3
2025-05-03T1400,2690A,88.1236,43.8886,昌吉回族自治州,天山天池,,28,,5,3,4,87,,73,73,5,5,5,6,0.5,0.5
2025-05-03T1400,2692A,87.2717,44.0297,昌吉回族自治州,新区政务中心,,29,10,31,3,15,90,,,,2,22,10,11,0.3,0.6
2025-05-03T1400,3613A,87.3095,44.0142,昌吉回族自治州,亚心广场,,30,9,25,3,12,93,,89,89,5,20,8,8,0.2,0.4
2025-05-03T1400,1119A,125.3325,43.9166,长春市,食品厂,,30,,27,21,17,65,,60,60,21,23,4,4,0.4,0.4
2025-05-03T1400,1120A,125.2863,43.9027,长春市,客车厂,,21,19,24,11,18,65,,59,59,19,21,4,5,0.3,0.3
2025-05-03T1400,1121A,125.2841,43.8463,长春市,邮电学院,,21,14,21,14,17,66,,59,59,14,18,5,6,0.5,0.5
2025-05-03T1400,1122A,125.3716,43.8772,长春市,劳动公园,,22,14,24,13,16,70,,63,63,12,16,6,6,0.3,0.4
2025-05-03T1400,1123A,125.3297,43.8805,长春市,园林处,,22,11,22,11,13,68,,62,62,12,18,5,6,0.2,0.3
2025-05-03T1400,1124A,125.4605,43.79,长春市,净月潭,,23,14,21,9,13,72,,51,51,10,12,6,6,0.3,0.3
2025-05-03T1400,1125A,125.7194,43.515,长春市,甩湾子,,,,,,,,,,,,,,,,
2025-05-03T1400,1126A,125.3863,43.8447,长春市,经开区环卫处,,22,22,30,10,12,64,,57,57,14,20,5,6,0.4,0.4
2025-05-03T1400,1127A,125.245,43.7783,长春市,高新区管委会,,25,,22,8,16,80,,60,60,8,17,5,6,0.2,0.3
2025-05-03T1400,1128A,125.1761,43.8325,长春市,岱山公园,,22,11,23,11,16,70,,57,57,13,22,3,4,0.3,0.3
2025-05-03T1400,1335A,113.0833,28.2325,长沙市,经开区环保局,颗粒物(PM10),78,105,76,44,30,161,,109,109,13,19,11,10,0.6,0.5
2025-05-03T1400,1336A,112.8872,28.2189,长沙市,高开区环保局,"颗粒物(PM10),细颗粒物(PM2.5)",75,100,80,55,33,142,,107,107,6,13,10,11,0.6,0.6
2025-05-03T1400,1337A,113.0792,28.2053,长沙市,马坡岭,颗粒物(PM10),75,100,77,51,35,165,,107,107,13,20,10,8,0.7,0.5
2025-05-03T1400,1338A,112.9394,28.19,长沙市,湖南师范大学,颗粒物(PM10),76,101,76,47,33,148,,105,105,9,17,7,7,0.6,0.5
2025-05-03T1400,1339A,113.0178,28.1322,长沙市,雨花区环保局,颗粒物(PM10),74,98,75,44,30,164,,102,102,8,17,10,9,0.4,0.3
2025-05-03T1400,1340A,112.9792,28.2597,长沙市,伍家岭,颗粒物(PM10),78,106,86,54,36,144,,90,90,11,29,8,6,0.7,0.6
2025-05-03T1400,1341A,113.0014,28.1944,长沙市,火车新站,颗粒物(PM10),77,104,85,44,37,147,,92,92,10,32,12,10,0.6,0.7
2025-05-03T1400,1342A,112.9844,28.1178,长沙市,天心区环保局,颗粒物(PM10),71,91,73,48,33,157,,115,115,11,16,7,7,0.8,0.6
2025-05-03T1400,1343A,112.8908,28.1308,长沙市,湖南中医药大学,颗粒物(PM10),77,103,97,52,45,141,,96,96,5,34,8,7,0.6,0.6
2025-05-03T1400,1344A,112.9581,28.3611,长沙市,沙坪,颗粒物(PM10),70,90,67,28,32,132,,101,101,12,15,10,9,0.8,0.6
2025-05-03T1400,1727A,113.1147,36.1547,长治市,清华站,颗粒物(PM10),58,66,97,3,25,114,,103,95,7,12,10,9,0.5,0.8
2025-05-03T1400,1730A,113.0886,36.2125,长治市,审计局,,35,32,83,3,27,109,,100,92,10,14,10,11,0.2,0.6
2025-05-03T1400,1731A,113.0844,36.1856,长治市,长治八中,,40,,79,28,36,106,,97,90,9,14,10,11,0.4,0.7
2025-05-03T1400,2845A,113.1569,36.1911,长治市,德盛苑,,35,20,65,9,27,112,,98,91,7,10,10,8,0.5,0.7
2025-05-03T1400,3568A,113.06,36.0464,长治市,向阳小学,,36,31,105,12,35,115,,102,97,10,15,13,14,0.2,0.5
2025-05-03T1400,3569A,112.8792,36.3144,长治市,屯留一中,,33,23,57,3,28,105,,84,84,1,11,8,13,0.3,0.5
2025-05-03T1400,4189A,113.1131,36.19948,长治市,英华南巷50号,,,,89,,36,,,115,,,15,,8,,0.7
2025-05-03T1400,4190A,113.2367,36.3344,长治市,学府街1号,,35,27,81,3,37,111,,94,94,6,17,5,6,0.4,0.8
2025-05-03T1400,1854A,111.6975,28.9703,常德市,市二中,颗粒物(PM10),92,133,80,40,37,176,,112,112,10,11,8,8,0.9,0.7
2025-05-03T1400,1857A,111.7158,29.1456,常德市,白鹤山,,,,,,,,,,,,,,,,
2025-05-03T1400,3138A,111.7153,29.0289,常德市,武陵区永安,,,126,90,38,34,172,,110,110,8,11,10,10,,0.3
2025-05-03T1400,3139A,111.6892,28.9881,常德市,鼎城区玉霞,颗粒物(PM10),86,122,86,32,34,177,,109,109,5,10,6,6,0.7,0.6
2025-05-03T1400,3140A,111.6625,29.0531,常德市,武陵区长庚,颗粒物(PM10),80,110,85,32,33,183,,117,117,8,9,9,11,0.8,0.6
2025-05-03T1400,1196A,119.9633,31.762,常州市,市监测站,颗粒物(PM10),56,62,76,22,26,140,,121,121,8,15,9,11,0.6,0.8
2025-05-03T1400,1200A,119.9468,31.7069,常州市,武进监测站,颗粒物(PM10),54,58,64,15,24,147,,126,126,13,22,12,13,0.6,0.8
2025-05-03T1400,1201A,119.9255,31.9087,常州市,安家,颗粒物(PM10),51,52,74,16,26,137,,116,116,8,22,10,12,0.2,0.3
2025-05-03T1400,3002A,119.9805,31.8174,常州市,行政中心,,48,48,59,20,24,140,,123,123,10,17,15,17,0.3,0.4
2025-05-03T1400,3003A,120.0522,31.7748,常州市,经开区,颗粒物(PM10),60,69,66,13,23,144,,128,128,13,19,9,13,0.5,0.7
2025-05-03T1400,3010A,119.9025,31.7964,常州市,钟楼,颗粒物(PM10),51,52,68,17,25,145,,123,123,12,18,8,9,0.4,0.5
2025-05-03T1400,3429A,119.8598,31.7066,常州市,武进经发区,颗粒物(PM10),56,62,68,25,28,146,,122,122,9,14,10,11,0.7,0.8
2025-05-03T1400,3430A,119.5826,31.7245,常州市,金坛城区,,47,47,64,25,28,147,,129,129,9,15,9,10,0.4,0.6
2025-05-03T1400,2220A,120.4318,41.5881,朝阳市,西梁,颗粒物(PM10),60,69,31,11,11,92,,85,85,5,9,7,8,0.3,0.3
2025-05-03T1400,2221A,120.4521,41.5646,朝阳市,河畔小区,颗粒物(PM10),52,53,30,11,11,92,,86,86,4,8,5,6,0.2,0.3
2025-05-03T1400,2222A,120.4176,41.5648,朝阳市,八里堡,颗粒物(PM10),52,54,34,11,11,88,,82,82,6,10,5,6,0.2,0.3
2025-05-03T1400,2223A,120.3806,41.5969,朝阳市,农业园区,,47,47,23,13,11,93,,87,87,4,8,6,6,0.2,0.3
2025-05-03T1400,1705A,116.6367,23.6719,潮州市,西园路,颗粒物(PM10),56,62,51,35,39,156,,97,97,8,8,7,5,0.5,0.6
2025-05-03T1400,3026A,116.6183,23.6608,潮州市,市政府,颗粒物(PM10),51,52,58,25,39,153,,98,98,9,11,8,7,0.7,0.8
2025-05-03T1400,4036A,116.6461,23.6761,潮州市,金山,细颗粒物(PM2.5),53,54,48,37,33,150,,89,89,10,13,10,9,0.7,0.8
2025-05-03T1400,2472A,113.0073,25.9061,郴州市,马头岭,,39,39,59,13,17,97,,93,93,8,13,7,9,0.4,0.4
2025-05-03T1400,2473A,113.0116,25.8226,郴州市,市职中,,35,26,54,22,29,110,,114,114,5,12,5,6,0.6,0.6
2025-05-03T1400,2475A,113.0383,25.8071,郴州市,市审计局,,34,30,53,22,26,108,,114,114,6,12,2,3,0.5,0.5
2025-05-03T1400,2476A,113.0348,25.7759,郴州市,市环保局,,36,36,58,25,27,108,,126,121,6,9,3,4,0.6,0.5
2025-05-03T1400,4252A,113.0138,25.8011,郴州市,好美居路49号,,37,37,54,23,27,106,,123,120,6,10,7,8,0.6,0.6
2025-05-03T1400,1431A,103.9728,30.7236,成都市,金泉两河,臭氧1小时,65,57,76,22,39,172,,101,101,8,25,4,4,0.7,0.9
2025-05-03T1400,1432A,104.176,30.6872,成都市,十里店,,,,84,,42,,,121,,,30,,6,,0.5
2025-05-03T1400,1433A,104.079,30.5706,成都市,三瓦窑,颗粒物(PM10),51,51,81,3,37,154,,85,85,18,53,6,6,0.5,0.8
2025-05-03T1400,1434A,104.1114,30.63,成都市,沙河铺,颗粒物(PM10),62,73,72,28,37,130,,82,82,12,30,8,8,0.5,0.7
2025-05-03T1400,1437A,104.0786,30.6531,成都市,君平街,颗粒物(PM10),58,66,85,18,45,137,,96,96,14,37,8,9,0.7,0.8
2025-05-03T1400,1438A,103.613,31.0283,成都市,灵岩寺,,,,,,,,,,,,,,,,
2025-05-03T1400,2880A,104.0239,30.65639,成都市,大石西路,颗粒物(PM10),57,63,84,18,46,161,,100,100,18,37,7,7,0.3,0.5
2025-05-03T1400,3136A,104.2725,30.5589,成都市,龙泉驿区区政府,臭氧1小时,62,68,71,27,29,169,,98,98,16,20,6,6,0.5,0.5
2025-05-03T1400,3357A,104.0106,30.6931,成都市,金博路,,50,46,71,12,34,157,,92,92,11,32,8,9,0.3,0.5
2025-05-03T1400,3359A,104.0578,30.5225,成都市,华阳,颗粒物(PM10),59,68,78,39,49,158,,77,77,16,41,8,7,0.7,1
2025-05-03T1400,3488A,104.3853,30.7453,成都市,青白江技师分院,臭氧1小时,75,60,75,13,35,180,,89,89,14,36,3,4,0.2,0.3
2025-05-03T1400,3489A,104.0789,30.4072,成都市,科学城,细颗粒物(PM2.5),63,74,77,45,40,169,,83,83,15,26,5,4,0.6,0.6
2025-05-03T1400,4011A,103.8506,30.6947,成都市,光华大道三段,臭氧1小时,77,51,74,12,40,181,,113,113,11,22,3,4,0.5,0.7
2025-05-03T1400,4224A,104.2433,30.5353,成都市,鲸龙路1057号,颗粒物(PM10),55,60,85,32,41,153,,81,81,25,38,7,6,0.5,0.6
2025-05-03T1400,1062A,117.9531,40.9081,承德市,铁路,,29,6,26,3,14,91,,77,77,3,18,1,5,0.1,0.6
2025-05-03T1400,1063A,117.9392,40.9763,承德市,中国银行,,29,17,29,3,15,90,,72,72,2,14,2,6,0.2,0.7
2025-05-03T1400,1064A,117.9503,40.928,承德市,开发区,,29,,24,10,21,92,,77,77,2,18,3,9,0.2,0.7
2025-05-03T1400,1065A,117.8051,40.9655,承德市,文化中心,,30,19,29,3,11,93,,78,78,2,16,2,13,0.2,0.4
2025-05-03T1400,1066A,117.9268,41.0026,承德市,离宫,,30,14,26,11,23,94,,82,82,2,12,3,3,0.2,0.5
2025-05-03T1400,2314A,117.47,30.6618,池州市,池州学院,颗粒物(PM10),73,96,58,50,29,133,,112,112,12,15,6,8,0.6,0.5
2025-05-03T1400,3237A,117.4918,30.6617,池州市,展览馆,颗粒物(PM10),71,92,57,42,26,142,,115,115,9,12,5,8,0.6,0.6
2025-05-03T1400,3333A,117.5627,30.695,池州市,第八中学,颗粒物(PM10),73,96,59,44,26,140,,115,115,6,14,5,9,0.5,0.4
2025-05-03T1400,3334A,117.5038,30.6243,池州市,第十二中学,颗粒物(PM10),74,98,56,50,26,145,,118,118,7,11,4,7,0.6,0.7
2025-05-03T1400,1744A,118.9233,42.2816,赤峰市,松山一中,,28,26,18,3,5,87,,82,82,9,14,10,11,0.4,0.4
2025-05-03T1400,1745A,118.9576,42.2728,赤峰市,哈达街,,28,18,18,6,8,87,,81,81,10,15,9,10,0.3,0.4
2025-05-03T1400,1746A,118.8788,42.2554,赤峰市,天义路,,28,17,16,7,9,88,,84,84,9,11,6,7,0.4,0.3
2025-05-03T1400,3058A,119.2658,42.0353,赤峰市,银河街,,28,28,19,8,10,81,,77,77,6,9,13,15,0.4,0.4
2025-05-03T1400,3286A,118.9359,42.3147,赤峰市,桥北物流园区,,30,,18,21,11,83,,78,78,7,13,6,7,0.1,0.3
2025-05-03T1400,2521A,107.3476,22.4136,崇左市,市环保局江州分局,,39,37,40,24,24,122,,80,80,5,8,9,9,0.5,0.5
2025-05-03T1400,4256A,107.3750,22.3736,崇左市,石景林东路7号,,44,44,34,28,21,127,,87,87,5,9,7,8,0.4,0.5
2025-05-03T1400,2298A,118.3093,32.3153,滁州市,老年大学,,45,43,58,16,23,141,,134,134,5,6,2,4,0.3,0.3
2025-05-03T1400,2299A,118.3244,32.2786,滁州市,人大宾馆,,45,37,57,13,26,144,,136,136,7,9,10,10,0.2,0.2
2025-05-03T1400,3207A,118.3118,32.3038,滁州市,市政府原办公楼,,44,31,49,17,25,139,,132,132,6,6,4,5,0.3,0.3
2025-05-03T1400,3331A,118.3267,32.2634,滁州市,图书馆,,45,45,64,19,28,138,,130,130,4,5,9,9,0.3,0.3
2025-05-03T1400,2605A,101.5482,25.0441,楚雄彝族自治州,州环境监测站,,29,14,19,3,15,92,,70,70,5,12,6,6,0.4,0.5
2025-05-03T1400,2606A,101.538,25.0492,楚雄彝族自治州,市经济开发区,,28,,19,3,15,89,,69,69,5,12,6,7,0.5,0.6
2025-05-03T1400,2548A,107.5277,31.2827,达州市,达州职业技术学院,颗粒物(PM10),62,74,86,23,35,124,,80,80,5,24,6,9,0.4,0.6
2025-05-03T1400,2549A,107.5086,31.2186,达州市,市环境监测站,颗粒物(PM10),60,69,82,17,30,124,,82,82,18,32,6,8,0.2,0.4
2025-05-03T1400,2550A,107.4988,31.2132,达州市,凤凰小区,颗粒物(PM10),60,70,84,24,33,131,,88,88,11,30,9,10,0.2,0.4
2025-05-03T1400,2551A,107.5082,31.1986,达州市,达县机关宾馆,颗粒物(PM10),62,73,84,23,36,128,,88,88,9,38,6,8,0.3,0.5
2025-05-03T1400,2552A,107.4644,31.2124,达州市,市政中心,颗粒物(PM10),60,70,85,14,31,130,,81,81,9,37,5,6,0.3,0.5
2025-05-03T1400,2614A,100.1542,25.7054,大理白族自治州,大理市环境监测站,,28,,18,19,21,84,,73,73,6,8,7,7,0.3,0.3
2025-05-03T1400,2615A,100.2171,25.5811,大理白族自治州,大理古城,,30,30,24,11,14,75,,61,61,10,14,8,8,0.5,0.4
2025-05-03T1400,1109A,121.612,38.9741,大连市,甘井子,,33,22,23,10,10,104,,90,90,13,20,5,5,0.3,0.3
2025-05-03T1400,1110A,121.565,38.9511,大连市,周水子,,,,27,0,10,97,,87,87,6,12,7,5,,0.3
2025-05-03T1400,1111A,121.5637,38.8845,大连市,星海三站,,33,17,19,10,9,103,,93,92,7,11,4,3,0.3,0.3
2025-05-03T1400,1112A,121.6302,38.9117,大连市,青泥洼桥,,33,18,20,7,8,105,,93,93,5,9,6,6,0.1,0.2
2025-05-03T1400,1113A,121.6251,38.8638,大连市,傅家庄,,33,19,17,7,8,104,,99,96,8,11,5,5,0.2,0.2
2025-05-03T1400,1114A,121.5213,38.8661,大连市,七贤岭,,34,21,20,7,8,106,,95,95,6,12,5,6,0.4,0.3
2025-05-03T1400,1115A,121.2529,38.8061,大连市,旅顺,,25,21,19,9,9,77,,74,74,15,20,4,4,0.2,0.3
2025-05-03T1400,1116A,121.7485,39.1311,大连市,金州,,32,22,20,12,10,102,,91,91,14,16,6,6,0.2,0.2
2025-05-03T1400,1117A,121.7811,39.0496,大连市,开发区,,29,29,52,11,12,90,,80,80,13,20,5,4,0.3,0.3
2025-05-03T1400,1118A,121.9762,39.0631,大连市,双D港,,35,16,14,7,8,110,,99,99,6,12,8,7,0.2,0.2
2025-05-03T1400,1789A,124.81117,46.03138,大庆市,大同区,,25,,24,17,17,74,,74,74,11,9,4,4,0.5,0.4
2025-05-03T1400,1790A,125.129,46.533,大庆市,龙凤区,,29,23,23,6,15,90,,90,90,5,13,3,4,0.3,0.4
2025-05-03T1400,1791A,124.902,46.408,大庆市,红岗区,,29,19,18,13,14,91,,87,87,2,7,6,6,0.2,0.3
2025-05-03T1400,1792A,125.153,46.586,大庆市,萨尔图区,,27,27,31,7,14,82,,84,84,6,13,6,6,0.3,0.3
2025-05-03T1400,1793A,124.9042,46.6215,大庆市,让胡路区,,28,26,24,7,17,87,,82,82,3,7,6,6,0.3,0.3
2025-05-03T1400,3481A,125.141,46.634,大庆市,萨区政府监测点,,29,21,24,3,7,92,,91,91,2,8,5,5,0.3,0.4
2025-05-03T1400,1721A,113.3819,40.1097,大同市,果树场,,31,16,21,13,14,98,,68,68,4,13,5,9,0.2,0.4
2025-05-03T1400,1723A,113.2994,40.0758,大同市,云冈宾馆,,33,13,20,3,7,103,,77,77,4,14,7,10,0.4,0.7
2025-05-03T1400,1724A,113.3444,40.0917,大同市,大同大学,,31,9,21,3,7,98,,69,69,4,23,6,11,0.3,0.5
2025-05-03T1400,1725A,113.2661,40.1269,大同市,安家小村,,,,24,,9,97,,70,70,4,13,17,21,,0.7
2025-05-03T1400,1726A,113.2711,40.0844,大同市,教育学院,,31,10,19,3,10,99,,74,74,4,13,8,11,0.2,0.5
2025-05-03T1400,3282A,113.3397,40.0597,大同市,大同市卫生学校,,30,6,19,6,8,95,,68,68,4,14,6,10,0.4,0.6
2025-05-03T1400,3565A,113.1367,40.1122,大同市,云冈站,,32,18,25,3,8,100,,79,79,3,11,9,13,0.3,0.4
2025-05-03T1400,3566A,113.1186,40.2556,大同市,图书馆,,30,13,24,3,12,93,,71,71,2,12,8,12,0.2,0.5
2025-05-03T1400,3567A,113.5931,40.0461,大同市,区一中,,32,22,20,3,9,101,,81,81,5,12,14,15,0.4,0.5
2025-05-03T1400,4199A,113.2798,40.0997,大同市,魏都大道141号,,34,21,25,3,10,106,,79,79,3,12,12,15,0.4,0.7
2025-05-03T1400,2269A,124.1069,50.4097,大兴安岭地区,科技局,,26,16,17,8,11,81,,76,76,2,3,4,4,0.3,0.3
2025-05-03T1400,3663A,124.1164,50.4278,大兴安岭地区,红旗社区,,26,6,5,3,4,81,,76,76,2,3,4,4,0.3,0.3
2025-05-03T1400,1600A,124.3303,40.0625,丹东市,江湾东路,,30,19,26,9,16,94,,85,85,5,11,5,7,0.4,0.5
2025-05-03T1400,1601A,124.4256,40.1503,丹东市,临江后街,,29,26,28,11,14,90,,84,84,9,12,10,7,0.6,0.7
2025-05-03T1400,1602A,124.3933,40.1461,丹东市,元宝山,,27,22,25,17,13,85,,79,79,10,12,9,8,0.5,0.6
2025-05-03T1400,1603A,124.3633,40.1092,丹东市,民主桥,,29,27,31,12,13,90,,84,84,12,12,6,8,0.6,0.8
2025-05-03T1400,3541A,109.5726,19.5167,儋州市,第一中学子站,,23,16,22,16,14,73,,53,53,2,4,5,6,0.6,0.6
2025-05-03T1400,3542A,109.5567,19.5187,儋州市,东坡学校子站,,25,25,22,14,12,75,,54,54,1,4,4,4,0.6,0.6
2025-05-03T1400,2616A,98.5842,24.428,德宏傣族景颇族自治州,德宏州监测站,,28,21,27,8,16,89,,41,41,6,12,9,9,0.5,0.6
2025-05-03T1400,3677A,98.5881,24.4368,德宏傣族景颇族自治州,芒市人民政府综合楼,,30,23,37,12,17,94,,48,48,7,12,5,5,0.4,0.5
2025-05-03T1400,1901A,104.4239,31.1208,德阳市,东山公园,颗粒物(PM10),58,65,69,21,32,130,,115,115,4,12,4,6,0.5,0.7
2025-05-03T1400,1902A,104.3826,31.1317,德阳市,西小区,颗粒物(PM10),56,61,74,23,37,134,,105,105,6,25,5,7,0.5,0.7
2025-05-03T1400,1904A,104.3553,31.1091,德阳市,耐火材料厂,颗粒物(PM10),55,59,77,21,36,138,,107,107,4,22,5,8,0.4,0.6
2025-05-03T1400,3639A,104.4019,31.1244,德阳市,市教育局,颗粒物(PM10),58,65,70,21,34,136,,105,105,5,28,5,7,0.4,0.6
2025-05-03T1400,1622A,116.3032,37.4674,德州市,儿童乐园,,,46,79,14,19,112,,88,88,2,11,4,6,,0.4
2025-05-03T1400,1624A,116.2991,37.4451,德州市,监理站,,37,31,62,3,12,116,,89,89,2,8,1,13,0.3,0.4
2025-05-03T1400,3066A,116.2721,37.4379,德州市,九衢泉纯净水厂,,39,39,63,17,20,108,,80,80,2,12,4,9,0.5,0.6
2025-05-03T1400,3371A,116.3728,37.4403,德州市,开发区人民医院,颗粒物(PM10),51,51,66,7,12,107,,84,84,2,10,4,5,0.5,0.5
2025-05-03T1400,3372A,116.3572,37.4094,德州市,太阳城中学,,48,48,69,9,20,121,,99,99,6,10,3,5,0.4,0.4
2025-05-03T1400,3511A,116.5652,37.3319,德州市,陵城艺术中心,颗粒物(PM10),54,58,86,3,15,110,,88,88,12,14,3,5,0,0.1
2025-05-03T1400,2621A,99.7056,27.8317,迪庆藏族自治州,迪庆州站,,32,21,29,10,17,101,,61,61,8,11,5,6,0.3,0.4
2025-05-03T1400,3180A,99.7136,27.8094,迪庆藏族自治州,质量技术监督局,,33,11,23,11,11,105,,63,63,8,11,3,4,0.5,0.6
2025-05-03T1400,4257A,104.6092,35.5962,定西市,将台街,颗粒物(PM10),89,127,201,41,56,117,,85,85,5,9,5,5,0,0
2025-05-03T1400,4309A,104.6159,35.5701,定西市,正龙路62号,颗粒物(PM10),93,136,193,27,50,116,,91,91,4,5,10,9,0.3,0.2
2025-05-03T1400,1389A,113.7547,23.0494,东莞市,莞城梨川,臭氧1小时,69,31,47,31,35,175,,154,154,10,14,5,6,0.6,0.6
2025-05-03T1400,1390A,113.7944,23.0128,东莞市,东城石井,,50,44,42,35,26,160,,141,141,14,18,4,4,0.7,0.7
2025-05-03T1400,1391A,113.7383,22.9658,东莞市,南城西平,,44,21,44,18,30,138,,141,141,12,22,4,3,0.5,0.6
2025-05-03T1400,3319A,113.7338,23.0381,东莞市,万江金泰,,49,31,44,28,31,155,,140,140,9,14,5,5,0.7,0.7
2025-05-03T1400,3626A,113.7533,23.0202,东莞市,南城元岭,臭氧1小时,59,44,47,33,27,167,,146,146,8,13,2,3,0.7,0.7
2025-05-03T1400,3627A,113.7875,23.0457,东莞市,东城主山,,50,44,46,26,29,160,,144,144,14,15,4,4,0.5,0.5
2025-05-03T1400,1666A,118.6614,37.4309,东营市,市环保局,,36,24,37,3,9,114,,90,90,11,18,4,5,0.4,0.3
2025-05-03T1400,3036A,118.6904,37.4338,东营市,开发区管委会,,38,38,49,3,12,109,,87,87,5,15,3,4,0.3,0.3
2025-05-03T1400,3365A,118.5719,37.565,东营市,垦利区民丰路,,35,22,43,14,13,109,,86,86,12,8,4,5,0.4,0.6
2025-05-03T1400,3498A,118.5055,37.8612,东营市,河口城区,,34,14,38,12,12,107,,86,86,10,19,4,5,0.6,0.8
2025-05-03T1400,3646A,118.4978,37.4623,东营市,胜利站,,36,36,54,3,15,105,,77,77,12,18,7,11,0.4,0.7
2025-05-03T1400,3734A,118.35,37.26,东营市,理想之城,,36,36,54,9,15,108,,84,84,10,16,4,6,0.4,0.5
2025-05-03T1400,1591A,110.0023,39.8129,鄂尔多斯市,综合楼,,28,22,43,3,8,89,,73,73,12,15,5,7,0.2,0.3
2025-05-03T1400,1592A,109.9486,39.8261,鄂尔多斯市,巴音孟克林场办事处,,27,24,43,7,12,86,,72,72,12,17,6,8,0.3,0.3
2025-05-03T1400,1593A,109.7736,39.5986,鄂尔多斯市,康泽苑,,31,24,42,17,12,98,,78,78,6,11,5,6,0.3,0.3
2025-05-03T1400,1594A,109.8119,39.5989,鄂尔多斯市,华泰汽车城,,31,22,40,7,12,97,,76,76,8,16,6,6,0.2,0.3
2025-05-03T1400,1595A,109.9734,39.7884,鄂尔多斯市,奥林花园,,27,27,41,3,11,85,,66,66,14,17,4,7,0.3,0.4
2025-05-03T1400,2436A,114.8938,30.3994,鄂州市,市政府,颗粒物(PM10),67,83,75,26,31,152,,116,116,13,23,8,10,0.5,0.5
2025-05-03T1400,2437A,114.8989,30.3714,鄂州市,赵家坝,,,85,66,19,23,182,,129,129,,11,6,6,0.6,0.7
2025-05-03T1400,3654A,114.8094,30.4089,鄂州市,精准医疗中心,臭氧1小时,74,58,65,22,27,179,,134,134,13,18,5,8,0.5,0.6
2025-05-03T1400,2454A,109.4978,30.2981,恩施土家族苗族自治州,湖北民院,颗粒物(PM10),62,73,83,36,35,127,,72,72,3,11,6,7,0.5,0.5
2025-05-03T1400,2455A,109.4707,30.2798,恩施土家族苗族自治州,州电力总公司,颗粒物(PM10),60,70,75,33,36,138,,67,67,5,19,5,5,0.3,0.4
2025-05-03T1400,3549A,109.5061,30.3772,恩施土家族苗族自治州,龙凤新区,细颗粒物(PM2.5),72,69,76,52,38,125,,80,80,5,10,6,6,0.4,0.5
2025-05-03T1400,2499A,108.3411,21.6158,防城港市,沙万,,20,20,25,12,18,45,,69,52,4,6,4,2,0.5,0.6
2025-05-03T1400,2500A,108.3514,21.7731,防城港市,防城档案局,,29,29,32,15,22,53,,58,52,1,7,2,4,0.4,0.6
2025-05-03T1400,2501A,108.3506,21.6414,防城港市,大海花园,,22,22,25,13,15,58,,87,66,1,5,2,3,0.4,0.5
2025-05-03T1400,1371A,113.1294,23.0067,佛山市,湾梁,,39,27,38,15,21,122,,102,102,10,14,7,8,0.6,0.7
2025-05-03T1400,1372A,113.1083,23.0478,佛山市,华材职中,,40,27,37,15,25,128,,111,110,10,14,8,8,0.5,0.5
2025-05-03T1400,1373A,113.144,23.0453,佛山市,南海气象局,,37,24,46,22,26,116,,98,98,10,14,1,2,0.5,0.6
2025-05-03T1400,1374A,113.2881,22.8094,佛山市,顺德苏岗,,44,44,42,22,23,135,,113,113,14,11,6,6,0.6,0.6
2025-05-03T1400,1376A,112.8383,22.8678,佛山市,高明孔堂,,28,24,39,19,26,84,,90,76,6,9,5,6,0.6,0.7
2025-05-03T1400,1377A,112.8836,23.1588,佛山市,三水监测站,颗粒物(PM10),53,56,46,25,27,116,,77,77,11,26,7,6,0.4,0.5
2025-05-03T1400,1378A,112.867,23.185,佛山市,三水云东海,,47,47,58,14,28,120,,94,94,12,23,3,3,0.5,0.6
2025-05-03T1400,3625A,113.2544,22.7642,佛山市,容桂街道办,,33,22,32,22,24,103,,100,100,13,15,10,7,0.7,0.7
2025-05-03T1400,1280A,119.3903,26.0543,福州市,鼓山,,,,48,,16,,,147,,,2,,2,,0.3
2025-05-03T1400,1282A,119.2681,26.0504,福州市,师大,颗粒物(PM10),57,63,54,21,23,155,,121,121,10,12,4,5,0.4,0.4
2025-05-03T1400,1283A,119.2984,26.1028,福州市,五四北路,臭氧1小时,55,57,50,30,25,164,,126,126,9,13,4,4,0.5,0.5
2025-05-03T1400,1284A,119.2648,26.0768,福州市,杨桥西路,颗粒物(PM10),62,73,63,26,25,152,,120,120,6,12,4,4,0.3,0.3
2025-05-03T1400,1285A,119.317,26.0746,福州市,紫阳,颗粒物(PM10),59,68,60,23,24,155,,114,114,11,21,6,6,0.3,0.4
2025-05-03T1400,3048A,119.5799,26.0936,福州市,九龙,颗粒物(PM10),65,80,50,28,25,169,,115,115,11,11,6,4,0.4,0.3
2025-05-03T1400,3526A,119.5189,25.9664,福州市,吴航,臭氧1小时,82,62,49,31,26,185,,122,122,10,14,6,4,1.0,0.6
2025-05-03T1400,1755A,123.7977,41.8491,抚顺市,望花区,,29,8,34,3,14,90,,73,73,9,20,7,13,0.3,0.6
2025-05-03T1400,1756A,123.9161,41.8822,抚顺市,顺城区,,29,17,32,3,14,91,,73,73,11,20,6,11,0.3,0.6
2025-05-03T1400,1757A,124.0436,41.8611,抚顺市,东洲区,,27,15,32,3,17,85,,69,69,10,18,6,11,0.3,0.7
2025-05-03T1400,1758A,123.9247,41.8642,抚顺市,新抚区,,26,20,30,3,13,83,,67,67,8,14,7,10,0.4,0.8
2025-05-03T1400,1759A,124.0972,41.8961,抚顺市,大伙房水库,,,27,32,3,13,88,,72,72,5,12,,13,0.4,0.9
2025-05-03T1400,1760A,123.7086,41.8391,抚顺市,沈抚新城,,27,13,28,3,10,86,,75,75,8,18,6,9,0.3,0.4
2025-05-03T1400,2376A,116.2127,28.0814,抚州市,桐源党溪,颗粒物(PM10),56,62,47,27,22,110,,76,76,3,3,6,5,0.4,0.4
2025-05-03T1400,2377A,116.3544,27.9831,抚州市,市站,颗粒物(PM10),55,60,47,23,18,105,,76,76,6,8,4,4,0.6,0.6
2025-05-03T1400,2378A,116.3565,27.963,抚州市,血防站,颗粒物(PM10),54,58,47,24,19,108,,77,77,4,10,2,2,0.6,0.5
2025-05-03T1400,2379A,116.3564,28.0007,抚州市,采茶剧团,颗粒物(PM10),55,60,43,26,18,99,,68,68,11,9,5,4,1.1,0.6
2025-05-03T1400,2380A,116.385,27.9647,抚州市,医学分院,颗粒物(PM10),55,59,48,18,17,106,,76,76,1,5,4,6,0.8,0.8
2025-05-03T1400,2207A,121.6094,41.998,阜新市,工业园区,颗粒物(PM10),87,124,43,21,10,98,,86,86,3,9,9,10,0.3,0.4
2025-05-03T1400,2208A,121.6697,42.0279,阜新市,长青街,颗粒物(PM10),68,86,26,13,10,98,,85,85,5,12,6,8,0.3,0.4
2025-05-03T1400,2209A,121.6673,42.0705,阜新市,农业园区,颗粒物(PM10),59,67,23,12,4,89,,80,80,3,7,6,7,0.4,0.4
2025-05-03T1400,2210A,121.6717,42.0224,阜新市,东苑,颗粒物(PM10),85,120,42,21,11,97,,84,84,3,10,8,11,0.3,0.4
2025-05-03T1400,2211A,121.6506,42.0498,阜新市,玉龙新城,颗粒物(PM10),75,99,28,13,9,96,,85,85,2,11,7,9,0.3,0.4
2025-05-03T1400,2301A,115.8277,32.8929,阜阳市,市监测站,,37,25,79,13,27,118,,110,106,6,9,8,8,0.2,0.2
2025-05-03T1400,2303A,115.8554,32.8605,阜阳市,开发区,,38,23,97,11,25,121,,113,108,11,12,7,7,0.2,0.2
2025-05-03T1400,2875A,115.784,32.8892,阜阳市,阜阳职业技术学院,,40,14,79,13,38,126,,121,114,4,7,6,6,0.2,0.3
2025-05-03T1400,3468A,115.7901,32.8613,阜阳市,市规划展馆,,41,41,81,16,32,127,,122,115,3,6,7,8,0.2,0.3
2025-05-03T1400,3469A,115.836,32.9183,阜阳市,枣园社区,,40,40,82,11,30,120,,111,108,5,8,8,8,0.3,0.4
2025-05-03T1400,2669A,102.9099,34.9841,甘南藏族自治州,州政府,颗粒物(PM10),64,78,256,27,68,93,,52,52,2,9,7,6,0.2,0.3
2025-05-03T1400,3380A,102.8914,34.9617,甘南藏族自治州,甘肃民族师范学院,颗粒物(PM10),71,92,275,23,76,105,,52,52,2,15,7,7,0.3,0.4
2025-05-03T1400,2570A,101.9603,30.0475,甘孜藏族自治州,水桥子,,30,,14,8,7,95,,58,58,2,17,5,4,0.2,0.2
2025-05-03T1400,3065A,101.9533,29.9972,甘孜藏族自治州,州环保局,,29,17,19,9,6,91,,57,57,6,20,1,1,0.1,0.1
2025-05-03T1400,3414A,115.8347,28.932,赣江新区,桑海产业园,颗粒物(PM10),58,66,59,30,24,148,,83,83,1,17,8,8,0.4,0.3
2025-05-03T1400,2362A,114.9017,25.9149,赣州市,通天岩,,48,48,55,9,8,142,,126,126,5,5,3,4,1.0,0.9
2025-05-03T1400,2363A,114.9367,25.8664,赣州市,地委,,44,38,51,25,23,140,,124,124,7,10,5,6,1.1,1
2025-05-03T1400,2364A,114.9461,25.8481,赣州市,气象台,,45,45,52,20,20,141,,123,123,8,10,7,9,0.3,0.3
2025-05-03T1400,2365A,114.9322,25.8333,赣州市,市图书馆,,40,40,52,24,23,123,,107,107,5,8,4,5,0.4,0.4
2025-05-03T1400,2366A,114.8905,25.8471,赣州市,华坚鞋城,,43,41,57,20,21,137,,123,123,5,7,5,7,0.5,0.5
2025-05-03T1400,3109A,115.0093,25.8613,赣州市,赣县区卫计委,,40,33,56,26,27,126,,100,100,2,8,4,4,1.0,0.9
2025-05-03T1400,2683A,106.2319,36.1417,固原市,马园,颗粒物(PM10),102,153,295,29,86,103,,84,84,10,12,5,6,0.6,0.6
2025-05-03T1400,2684A,106.2792,36.0022,固原市,监测站,颗粒物(PM10),79,108,269,51,77,103,,85,85,5,6,6,6,0.3,0.3
2025-05-03T1400,2685A,106.2375,36.0211,固原市,新区,颗粒物(PM10),90,130,248,31,66,98,,82,82,6,6,6,6,0.5,0.5
2025-05-03T1400,3522A,106.2177,35.9959,固原市,原州区十五小,颗粒物(PM10),103,155,250,44,71,103,,83,83,6,7,10,9,0.3,0.3
2025-05-03T1400,2543A,106.6308,30.5278,广安市,小平旧居,,,,,,,,,,,,,,,,
2025-05-03T1400,2544A,106.6303,30.4576,广安市,市委,颗粒物(PM10),64,78,101,36,43,158,,97,97,7,28,7,6,0.4,0.6
2025-05-03T1400,2545A,106.6271,30.4663,广安市,友谊中学,臭氧1小时,68,71,78,31,37,174,,104,104,12,26,4,4,0.5,0.6
2025-05-03T1400,2547A,106.6388,30.4551,广安市,广电花园,颗粒物(PM10),67,84,101,27,42,166,,98,98,8,30,7,7,0.4,0.6
2025-05-03T1400,2902A,106.6351,30.4865,广安市,北辰小学,颗粒物(PM10),87,124,88,34,40,168,,96,96,11,18,8,8,0.4,0.5
2025-05-03T1400,2523A,105.8945,32.4535,广元市,黑石坡,颗粒物(PM10),151,251,101,19,18,106,,90,90,7,9,2,4,0.3,0.3
2025-05-03T1400,2524A,105.821,32.4444,广元市,老城,颗粒物(PM10),94,137,81,41,26,112,,91,91,3,18,3,2,0.3,0.4
2025-05-03T1400,2526A,105.8628,32.4287,广元市,监测站,颗粒物(PM10),92,133,81,48,24,114,,90,90,4,9,3,4,0.3,0.4
2025-05-03T1400,3617A,105.8047,32.4166,广元市,经开区,颗粒物(PM10),114,177,94,47,40,116,,90,90,8,22,4,9,0.5,0.6
2025-05-03T1400,1345A,113.2347,23.1423,广州市,广雅中学,,,46,50,28,28,147,,117,117,,10,3,4,0.6,0.8
2025-05-03T1400,1346A,113.2612,23.105,广州市,市五中,,43,32,46,22,28,136,,108,108,6,9,1,2,0.9,0.9
2025-05-03T1400,1348A,113.3478,23.0916,广州市,广东商学院,,50,37,50,26,31,160,,120,120,14,18,4,4,0.7,0.7
2025-05-03T1400,1349A,113.4332,23.1047,广州市,市八十六中,臭氧1小时,65,36,51,24,28,172,,126,126,17,24,3,3,0.7,0.8
2025-05-03T1400,1350A,113.3505,22.9483,广州市,番禺中学,,44,32,43,20,34,140,,118,118,12,15,5,6,0.7,0.7
2025-05-03T1400,1351A,113.2146,23.3916,广州市,花都师范,臭氧1小时,65,69,56,42,29,172,,103,103,20,20,6,5,0.8,0.7
2025-05-03T1400,1352A,113.2597,23.1331,广州市,市监测站,,40,40,49,25,28,128,,101,101,14,17,5,5,0.5,0.6
2025-05-03T1400,1353A,113.5618,23.312,广州市,九龙镇镇龙,臭氧1小时,63,65,64,36,33,170,,137,137,14,22,6,6,0.5,0.5
2025-05-03T1400,1354A,113.2765,23.1544,广州市,麓湖,,50,48,48,32,28,160,,120,120,14,15,5,6,0.6,0.6
2025-05-03T1400,1355A,113.443,23.3035,广州市,帽峰山森林公园,,,45,46,,17,151,,111,111,9,11,7,7,0.8,0.7
2025-05-03T1400,2846A,113.3221,23.1322,广州市,体育西,臭氧1小时,73,53,52,37,30,178,,119,119,17,19,5,5,0.6,0.6
2025-05-03T1400,3298A,113.5717,23.5491,广州市,从化街口,,42,38,57,26,31,132,,124,124,6,13,6,7,0.5,0.6
2025-05-03T1400,3299A,113.3472,23.3692,广州市,白云竹料,臭氧1小时,64,58,60,38,35,171,,118,118,13,16,4,4,0.7,0.7
2025-05-03T1400,3300A,113.2981,23.237,广州市,白云嘉禾,细颗粒物(PM2.5),65,62,56,47,36,154,,114,114,27,24,5,6,0.9,0.8
2025-05-03T1400,3301A,113.4256,23.1716,广州市,黄埔科学城,臭氧1小时,59,41,54,31,37,167,,105,105,14,14,4,3,0.7,0.6
2025-05-03T1400,3302A,113.3942,23.0483,广州市,番禺大学城,,46,40,46,32,31,144,,129,129,19,18,6,6,0.7,0.7
2025-05-03T1400,3303A,113.4922,22.8168,广州市,南沙黄阁,,37,35,44,11,29,116,,116,108,5,10,5,6,0.7,0.8
2025-05-03T1400,3304A,113.5342,22.7896,广州市,南沙街,,36,23,44,10,29,115,,120,115,6,12,5,6,0.7,0.8
2025-05-03T1400,3443A,113.2902,23.5544,广州市,花都梯面,,42,30,59,21,33,132,,101,101,8,15,4,5,0.7,0.7
2025-05-03T1400,3445A,113.7858,23.7478,广州市,从化良口,,40,40,50,28,27,109,,95,95,6,10,7,7,0.7,0.6
2025-05-03T1400,3446A,113.8051,23.2614,广州市,增城荔城,,48,41,52,33,31,152,,118,111,9,12,8,8,0.4,0.4
2025-05-03T1400,2505A,109.568,23.1478,贵港市,德智高中,,,,,,,,,,,,,,,,
2025-05-03T1400,2506A,109.6047,23.0666,贵港市,江南子站,,30,27,30,14,24,95,,72,72,5,10,3,3,0.6,0.7
2025-05-03T1400,2508A,109.5669,23.1065,贵港市,荷城子站,,28,21,36,17,18,89,,68,68,7,11,4,4,0.2,0.3
2025-05-03T1400,3405A,109.5886,23.1172,贵港市,新世纪学校,,30,27,28,16,22,96,,73,73,9,13,7,6,0.8,0.9
2025-05-03T1400,4260A,109.5933,23.0951,贵港市,中山路155-3号,,34,34,37,17,26,102,,76,76,7,11,2,3,0.5,0.6
2025-05-03T1400,1439A,106.6899,26.5998,贵阳市,马鞍山,,45,39,37,9,10,144,,90,90,8,12,7,5,0.7,0.6
2025-05-03T1400,1441A,106.6243,26.6266,贵阳市,鉴湖路,,46,46,51,17,19,141,,111,111,11,11,7,6,0.6,0.3
2025-05-03T1400,1442A,106.7487,26.6343,贵阳市,燕子冲,,48,44,47,27,26,151,,100,100,16,15,14,4,0.3,0.3
2025-05-03T1400,1443A,106.6555,26.4365,贵阳市,碧云窝,,45,41,53,19,20,143,,104,104,6,9,7,8,0.4,0.4
2025-05-03T1400,1445A,106.7109,26.6027,贵阳市,红边门,,50,36,52,27,28,159,,110,110,7,22,7,6,0.2,0.3
2025-05-03T1400,1446A,106.7164,26.5699,贵阳市,新华路,臭氧1小时,52,36,51,22,24,161,,110,110,6,21,75,27,0.5,0.4
2025-05-03T1400,1447A,106.674,26.5424,贵阳市,太慈桥,,48,39,42,19,18,153,,102,102,11,19,8,6,0.2,0.2
2025-05-03T1400,1552A,106.805,26.3003,贵阳市,桐木岭,颗粒物(PM10),52,53,59,24,25,123,,,,2,2,1,2,0.8,0.6
2025-05-03T1400,4230A,106.6882,26.5695,贵阳市,花果园大街66号,,46,46,48,26,24,145,,107,107,9,16,7,8,0.3,0.6
2025-05-03T1400,4231A,106.6873,26.5169,贵阳市,漓江路57号,,44,31,46,22,22,139,,100,100,7,11,10,11,0.4,0.4
2025-05-03T1400,1862A,110.4144,25.3167,桂林市,电子科大尧山校区,,,,,,,,,,,,,,,,
2025-05-03T1400,1864A,110.3089,25.2708,桂林市,龙隐路小学,细颗粒物(PM2.5),54,41,74,38,45,114,,74,74,4,16,8,17,0.6,0.6
2025-05-03T1400,1865A,110.2869,25.2178,桂林市,八中,,45,32,74,31,35,102,,66,66,5,21,1,3,0.6,0.7
2025-05-03T1400,3531A,110.296,25.1253,桂林市,旅游学院,,32,24,51,17,29,101,,70,70,4,15,2,5,0.7,0.7
2025-05-03T1400,4222A,110.1835,25.2444,桂林市,环湖路276号,,32,29,63,22,34,89,,60,60,5,23,6,12,0.3,0.4
2025-05-03T1400,4301A,110.2803,25.2773,桂林市,信义路13号,,37,37,79,25,44,109,,72,72,5,24,2,16,0.4,0.5
2025-05-03T1400,2674A,100.2561,34.4714,果洛藏族自治州,玛沁县大武镇,,37,18,35,6,16,118,,74,74,1,6,23,24,0.3,0.4
2025-05-03T1400,1129A,126.5422,45.755,哈尔滨市,岭北,,34,19,35,14,24,108,,93,93,10,19,13,11,0.8,0.8
2025-05-03T1400,1130A,126.561,45.8167,哈尔滨市,松北商大,,31,26,46,19,31,99,,79,79,7,32,6,6,0.4,0.5
2025-05-03T1400,1131A,126.979,45.5419,哈尔滨市,阿城会宁,,32,23,43,13,21,102,,78,78,12,24,8,7,0.5,0.6
2025-05-03T1400,1132A,126.599,45.7222,哈尔滨市,南岗学府路,,,31,56,,25,104,,84,84,8,23,7,8,,0.4
2025-05-03T1400,1133A,126.689,45.7733,哈尔滨市,太平宏伟公园,,34,25,62,11,34,107,,84,84,10,31,4,5,0.4,0.7
2025-05-03T1400,1134A,126.635,45.7667,哈尔滨市,道外承德广场,,32,22,44,19,32,100,,80,80,9,28,6,6,0.3,0.6
2025-05-03T1400,1135A,126.685,45.7319,哈尔滨市,香坊红旗大街,,34,22,58,13,39,108,,82,82,10,31,8,9,0.4,0.6
2025-05-03T1400,1136A,126.6411,45.7258,哈尔滨市,动力和平路,,31,12,44,11,33,98,,80,80,10,27,6,7,0.3,0.4
2025-05-03T1400,1137A,126.593,45.7478,哈尔滨市,道里建国路,,33,14,40,13,28,103,,83,83,8,26,3,5,0.4,0.6
2025-05-03T1400,1138A,126.615,45.61,哈尔滨市,平房东轻厂,,34,,37,14,22,106,,86,86,7,29,8,10,0.3,0.5
2025-05-03T1400,1139A,126.595,45.9855,哈尔滨市,呼兰师专,颗粒物(PM10),52,53,60,14,43,88,,74,74,13,31,6,7,0.3,0.4
2025-05-03T1400,1140A,126.6206,45.6842,哈尔滨市,省农科院,,30,30,60,16,33,93,,78,78,12,32,7,8,0.5,0.6
2025-05-03T1400,2688A,93.5128,42.8172,哈密市,地区监测站,,,22,145,,70,83,,,,12,12,3,18,0.3,0.3
2025-05-03T1400,2689A,93.4961,42.8328,哈密市,哈密师范学校,,31,31,103,11,28,80,,69,64,10,12,4,6,0.2,0.2
2025-05-03T1400,2671A,100.9048,36.9639,海北藏族自治州,海晏县西海镇,颗粒物(PM10),91,131,190,46,66,111,,73,73,3,5,11,12,0.4,0.4
2025-05-03T1400,3867A,102.0738,36.5056,海东市,平安区公安北苑,颗粒物(PM10),142,234,292,99,106,84,,65,59,2,4,5,7,0.6,0.5
2025-05-03T1400,1409A,110.576,19.9507,海口市,东寨港,,44,44,24,6,12,70,,51,51,3,4,3,3,0.7,0.7
2025-05-03T1400,1410A,110.3232,20.0574,海口市,海南大学,,24,24,24,14,14,66,,54,54,14,7,3,2,0.4,0.4
2025-05-03T1400,1411A,110.283,20.0053,海口市,秀英海南医院,,33,33,28,10,15,62,,50,50,12,13,5,4,0.3,0.4
2025-05-03T1400,1412A,110.338,19.9969,海口市,海南师范大学,,,,33,,15,,,62,,,8,,4,,0.5
2025-05-03T1400,1413A,110.33,20.0356,海口市,龙华路环保局宿舍,,29,29,25,13,14,82,,61,61,11,8,4,4,0.3,0.3
2025-05-03T1400,3539A,110.5111,19.9736,海口市,桂林洋子站,,28,22,27,13,14,88,,61,61,5,10,4,4,0.3,0.3
2025-05-03T1400,2673A,100.6188,36.2866,海南藏族自治州,共和县恰卜恰镇,细颗粒物(PM2.5),128,124,125,97,47,112,,77,77,6,10,10,13,0.5,0.4
2025-05-03T1400,2676A,97.3731,37.3753,海西蒙古族藏族自治州,德令哈市,,48,48,52,17,16,110,,96,96,1,2,12,13,0.3,0.4
2025-05-03T1400,1048A,114.5302,36.6116,邯郸市,东污水处理厂,,29,11,58,3,11,90,,80,80,6,12,2,4,0.2,0.4
2025-05-03T1400,1049A,114.4918,36.5713,邯郸市,矿院,,28,21,84,3,16,87,,78,78,2,10,3,4,0.2,0.4
2025-05-03T1400,1050A,114.484,36.6133,邯郸市,丛台公园,,31,29,77,3,20,97,,88,88,5,11,1,3,0.2,0.4
2025-05-03T1400,3458A,114.7895,36.5593,邯郸市,香泉濮院小区,,32,32,97,3,10,89,,74,74,2,10,4,4,0.1,0.3
2025-05-03T1400,3579A,114.50634,36.77178,邯郸市,永年区实验高中,,44,44,95,9,30,80,,75,75,6,12,4,5,0.1,0.3
2025-05-03T1400,3580A,114.20016,36.44293,邯郸市,峰峰矿区临水派出所,,33,24,65,9,17,103,,89,87,2,9,6,11,0.3,0.6
2025-05-03T1400,2634A,106.9893,33.1842,汉中市,汉川机床厂子校,颗粒物(PM10),130,209,97,42,31,124,,100,100,4,6,8,7,0.5,0.5
2025-05-03T1400,2635A,107.0154,33.0706,汉中市,市监测站,颗粒物(PM10),131,212,93,45,29,122,,94,94,4,8,6,6,0.4,0.5
2025-05-03T1400,2636A,107.0089,33.1138,汉中市,鑫源开发区,颗粒物(PM10),129,208,84,41,28,118,,87,87,5,10,5,5,0.3,0.4
2025-05-03T1400,2637A,107.007,33.0323,汉中市,南郑大河坎水厂,颗粒物(PM10),131,211,81,62,33,124,,91,91,5,10,4,4,0.4,0.5
2025-05-03T1400,1223A,120.2072,30.2111,杭州市,滨江,臭氧1小时,89,81,59,30,26,191,,129,129,15,19,9,7,0.7,0.6
2025-05-03T1400,1224A,120.0633,30.2747,杭州市,西溪,臭氧1小时,80,54,39,36,27,184,,112,112,12,16,7,5,0.5,0.4
2025-05-03T1400,1226A,120.3417,30.3150,杭州市,下沙,臭氧1小时,79,84,63,41,28,183,,133,133,17,24,12,11,0.5,0.5
2025-05-03T1400,1227A,120.1269,30.2456,杭州市,卧龙桥,臭氧1小时,80,82,51,35,28,184,,113,113,13,23,8,7,0.7,0.6
2025-05-03T1400,1228A,120.1903,30.2692,杭州市,浙江农大,颗粒物(PM10),64,78,55,36,29,164,,113,113,24,28,11,10,0.4,0.3
2025-05-03T1400,1230A,120.1197,30.3119,杭州市,和睦小学,臭氧1小时,77,83,51,34,28,181,,120,120,11,19,8,7,0.5,0.5
2025-05-03T1400,1231A,120.3019,30.4183,杭州市,临平镇,臭氧1小时,82,106,69,36,25,185,,129,129,11,24,7,6,0.6,0.5
2025-05-03T1400,1232A,120.2753,30.1839,杭州市,城厢镇,臭氧1小时,77,88,62,35,30,181,,128,128,12,16,10,8,0.6,0.6
2025-05-03T1400,1233A,120.0883,30.1808,杭州市,云栖,臭氧1小时,83,71,44,34,19,186,,106,106,26,37,8,6,0.7,0.6
2025-05-03T1400,3557A,119.9464,30.0494,杭州市,镇二中,臭氧1小时,64,54,50,34,29,171,,115,115,18,26,6,4,0.5,0.5
2025-05-03T1400,3558A,119.7183,30.2367,杭州市,市府大楼,臭氧1小时,62,67,49,28,25,169,,105,105,12,18,10,8,0.6,0.5
2025-05-03T1400,3656A,120.1556,30.2864,杭州市,消防大队,臭氧1小时,75,77,56,38,29,180,,124,124,14,24,6,5,0.7,0.6
2025-05-03T1400,1270A,117.1959,31.7848,合肥市,明珠广场,颗粒物(PM10),60,70,66,31,26,143,,107,107,12,17,6,7,0.4,0.4
2025-05-03T1400,1271A,117.3072,31.8764,合肥市,三里街,颗粒物(PM10),63,75,74,31,26,145,,108,108,9,16,5,5,0.5,0.5
2025-05-03T1400,1272A,117.2588,31.8707,合肥市,琥珀山庄,颗粒物(PM10),60,70,68,36,30,144,,78,,12,15,4,4,0.6,0.5
2025-05-03T1400,1273A,117.1604,31.9052,合肥市,董铺水库,颗粒物(PM10),79,107,79,46,25,133,,101,101,7,11,1,2,0.4,0.4
2025-05-03T1400,1274A,117.25,31.8571,合肥市,长江中路,颗粒物(PM10),64,78,77,41,31,145,,108,108,11,13,8,9,0.5,0.5
2025-05-03T1400,1275A,117.266,31.9436,合肥市,庐阳区,颗粒物(PM10),63,75,77,34,29,148,,112,112,8,11,7,8,0.3,0.3
2025-05-03T1400,1276A,117.3453,31.8616,合肥市,瑶海区,颗粒物(PM10),86,122,81,29,26,144,,109,109,8,17,6,7,0.3,0.3
2025-05-03T1400,1277A,117.3027,31.7964,合肥市,包河区,颗粒物(PM10),73,95,78,29,28,146,,106,106,12,21,7,7,0.4,0.4
2025-05-03T1400,1278A,117.2776,31.7385,合肥市,滨湖新区,颗粒物(PM10),63,75,66,41,33,144,,105,105,10,18,8,8,0.6,0.5
2025-05-03T1400,1279A,117.1318,31.8403,合肥市,高新区,颗粒物(PM10),67,83,73,43,29,128,,101,101,10,14,2,3,0.6,0.5
2025-05-03T1400,3464A,117.3803,31.9147,合肥市,高教基地,颗粒物(PM10),75,100,76,27,32,149,,111,111,1,7,6,6,0.4,0.4
2025-05-03T1400,3614A,79.924,37.0877,和田地区,地区环保局,"颗粒物(PM10),细颗粒物(PM2.5)",500,3812,1689,972,269,69,,84,83,7,14,3,1,0.2,0.3
2025-05-03T1400,3615A,79.9131,37.113,和田地区,市环保局,"颗粒物(PM10),细颗粒物(PM2.5)",500,2529,1241,923,295,61,,76,75,1,16,1,2,0.2,0.2
2025-05-03T1400,2516A,108.2011,24.715,河池市,东仁乐园,,,,,,,,,,,,,,,,
2025-05-03T1400,2517A,108.0497,24.6947,河池市,市环保站,,46,46,43,32,30,117,,92,92,5,11,7,8,0.7,0.6
2025-05-03T1400,2518A,108.0983,24.6989,河池市,市疾控中心,,49,39,54,34,33,124,,96,96,10,21,9,12,0.8,0.7
2025-05-03T1400,1696A,114.6778,23.7569,河源市,源西,颗粒物(PM10),51,52,49,32,30,160,,134,134,10,12,4,5,0.8,0.7
2025-05-03T1400,1697A,114.6944,23.7586,河源市,东埔,,,69,52,33,32,162,,142,142,,11,4,5,0.9,0.9
2025-05-03T1400,1698A,114.6892,23.7233,河源市,老城,臭氧1小时,53,45,52,30,30,162,,135,135,10,10,4,5,0.6,0.6
2025-05-03T1400,1718A,115.4208,35.2464,菏泽市,气象局,颗粒物(PM10),60,69,95,20,30,107,,89,89,8,11,1,4,0.3,0.4
2025-05-03T1400,3374A,115.5564,35.0891,菏泽市,定陶老年大学,,35,29,84,3,19,111,,92,91,8,11,3,5,0.2,0.5
2025-05-03T1400,4184A,115.4797,35.24401,菏泽市,永昌路1号,颗粒物(PM10),53,56,93,13,32,104,,88,86,4,9,4,6,0.2,0.3
2025-05-03T1400,4193A,115.4715,35.2800,菏泽市,长城路999号,,34,34,87,3,22,104,,86,86,10,13,6,8,0.1,0.3
2025-05-03T1400,2514A,111.5264,24.4172,贺州市,环保小区,,35,32,44,24,29,103,,76,76,5,11,4,4,0.8,0.8
2025-05-03T1400,2515A,111.5608,24.4078,贺州市,政协大楼,,29,26,41,18,24,92,,74,73,6,14,7,9,0.8,0.6
2025-05-03T1400,3534A,111.4744,24.4553,贺州市,西湾,,38,38,43,20,30,110,,73,73,8,15,8,7,0.6,0.7
2025-05-03T1400,2385A,114.17,35.9019,鹤壁市,市监测站,,38,23,86,12,33,121,,103,103,6,15,2,4,0.4,0.8
2025-05-03T1400,2386A,114.2956,35.7511,鹤壁市,市交警支队,,38,31,74,3,25,120,,100,100,9,15,7,9,0.3,0.7
2025-05-03T1400,2387A,114.2878,35.7306,鹤壁市,迎宾馆,,39,38,98,9,34,123,,104,104,4,9,8,6,0.5,0.6
2025-05-03T1400,3474A,114.2617,35.6822,鹤壁市,大新区,,38,35,103,9,27,120,,104,104,6,11,8,10,0.3,0.6
2025-05-03T1400,3596A,114.1572,35.9603,鹤壁市,南山宾馆,,39,24,100,17,42,124,,106,106,2,10,6,9,0.3,0.7
2025-05-03T1400,2244A,130.2537,47.3416,鹤岗市,哈啤分公司,,23,,14,11,12,73,,76,76,2,3,15,14,0.2,0.3
2025-05-03T1400,2245A,130.2684,47.3086,鹤岗市,斯达机电,,24,9,19,7,14,75,,76,76,1,4,12,11,0.1,0.1
2025-05-03T1400,2246A,130.3114,47.3388,鹤岗市,东山纸板厂,,26,26,30,10,17,74,,76,76,4,10,12,12,0.1,0.2
2025-05-03T1400,2247A,130.1097,47.3382,鹤岗市,五号水库,,,,,,,,,,,,,,,,
2025-05-03T1400,2263A,127.4833,50.2524,黑河市,交通局,,25,17,18,8,11,78,,68,68,4,5,7,7,0.2,0.3
2025-05-03T1400,2264A,127.5144,50.2341,黑河市,环保局,,24,24,17,7,12,75,,69,69,10,6,9,5,0.2,0.2
2025-05-03T1400,2265A,127.5291,50.2472,黑河市,大黑河岛,,11,6,9,3,6,34,,44,32,14,11,1,2,0.2,0.2
2025-05-03T1400,1074A,115.6838,37.7541,衡水市,电机北厂,,35,20,62,3,20,110,,83,83,4,11,2,4,0.2,0.3
2025-05-03T1400,1075A,115.6303,37.7316,衡水市,市监测站,,35,33,60,23,17,111,,84,84,2,10,6,9,0.2,0.3
2025-05-03T1400,3188A,115.6683,37.7217,衡水市,市城管局,,35,18,57,3,19,110,,84,84,2,8,2,5,0.2,0.3
2025-05-03T1400,3459A,115.5989,37.5491,衡水市,地表水厂,,35,32,67,9,14,112,,85,85,4,10,7,7,0.2,0.4
2025-05-03T1400,2456A,112.5003,26.9167,衡阳市,原169医院,,50,50,74,32,33,130,,86,86,1,15,2,6,0.5,0.5
2025-05-03T1400,2457A,112.6194,26.9258,衡阳市,衡阳化工总厂,颗粒物(PM10),53,55,100,26,47,126,,88,88,3,13,7,9,0.5,0.5
2025-05-03T1400,2458A,112.6211,26.8956,衡阳市,珠晖区环保局,,,46,76,,35,134,,100,100,4,20,8,10,0.6,0.6
2025-05-03T1400,2459A,112.6197,26.8733,衡阳市,市委党校,,,62,78,,37,131,,92,92,4,13,7,5,0.6,0.5
2025-05-03T1400,2460A,112.6006,26.8919,衡阳市,市监测站,颗粒物(PM10),56,61,83,36,47,115,,88,88,4,17,8,13,0.6,0.7
2025-05-03T1400,2461A,112.5664,26.9056,衡阳市,真空机电公司,细颗粒物(PM2.5),52,44,96,36,41,120,,84,84,2,19,5,7,0.6,0.8
2025-05-03T1400,3399A,112.6703,26.882,衡阳市,师范学院,颗粒物(PM10),60,69,88,40,47,121,,93,93,18,12,9,9,0.8,0.7
2025-05-03T1400,2608A,103.3772,23.3993,红河哈尼族彝族自治州,污水处理厂,,25,25,24,13,17,72,,68,68,3,8,7,7,0.3,0.4
2025-05-03T1400,2609A,103.3861,23.35,红河哈尼族彝族自治州,监测站,,30,21,35,20,16,96,,84,84,3,6,7,7,0.2,0.3
2025-05-03T1400,3038A,103.3758,23.368,红河哈尼族彝族自治州,州图书馆,,24,8,17,7,13,75,,68,68,3,6,5,3,0.2,0.3
2025-05-03T1400,1090A,111.6507,40.7517,呼和浩特市,呼市一监,,32,22,19,6,8,101,,69,69,1,5,6,5,0.4,0.4
2025-05-03T1400,1091A,111.6572,40.8033,呼和浩特市,小召,,30,12,17,6,7,95,,67,67,7,13,9,10,0.6,0.6
2025-05-03T1400,1094A,111.7516,40.8369,呼和浩特市,如意水处理厂,,31,14,17,8,8,99,,66,66,2,8,4,5,0.3,0.3
2025-05-03T1400,1095A,111.7276,40.8062,呼和浩特市,二十九中,,32,16,16,7,10,100,,67,67,2,5,3,4,0.4,0.4
2025-05-03T1400,1096A,111.5512,40.7866,呼和浩特市,工大金川校区,,32,17,19,7,10,100,,66,66,4,12,6,7,0.3,0.4
2025-05-03T1400,1097A,111.717,40.7612,呼和浩特市,化肥厂生活区,,31,24,22,10,8,97,,66,66,8,12,9,8,0.3,0.3
2025-05-03T1400,3698A,111.5968,40.8178,呼和浩特市,红旗小学,,35,7,15,6,7,111,,75,75,4,11,4,5,0.3,0.3
2025-05-03T1400,3699A,111.6518,40.8389,呼和浩特市,海东办,,32,,11,7,8,101,,69,69,2,8,6,7,0.2,0.4
2025-05-03T1400,2192A,119.7594,49.2261,呼伦贝尔市,区环保局,,35,,27,24,19,88,,79,79,6,8,5,5,0.4,0.4
2025-05-03T1400,3061A,119.7512,49.1577,呼伦贝尔市,国华电力东,,29,22,26,9,13,91,,83,83,4,5,6,5,0.3,0.3
2025-05-03T1400,1250A,120.0751,30.8669,湖州市,城西水厂,臭氧1小时,90,87,60,36,26,192,,121,121,12,33,7,7,0.5,0.5
2025-05-03T1400,2873A,120.0830,30.8929,湖州市,仁皇山新区,臭氧1小时,83,83,58,35,27,186,,124,124,12,29,6,5,0.8,0.8
2025-05-03T1400,2907A,120.1844,30.8596,湖州市,吴兴区站,臭氧1小时,85,95,65,37,32,188,,121,121,9,26,8,8,0.6,0.5
2025-05-03T1400,3562A,120.4148,30.8538,湖州市,南浔区站,臭氧1小时,74,91,70,38,34,179,,124,124,10,21,6,5,0.8,0.7
2025-05-03T1400,1607A,120.9049,40.7211,葫芦岛市,龙港区,颗粒物(PM10),58,66,34,10,9,96,,83,83,9,16,6,8,0.3,0.4
2025-05-03T1400,1608A,120.8392,40.7514,葫芦岛市,化工街,,39,39,25,9,9,95,,84,84,8,22,6,7,0.3,0.4
2025-05-03T1400,1609A,120.8341,40.7073,葫芦岛市,新区,,36,36,23,8,8,97,,86,86,6,17,5,6,0.4,0.4
2025-05-03T1400,1610A,120.8695,40.7677,葫芦岛市,东城区,颗粒物(PM10),56,61,33,9,15,95,,80,80,8,22,3,16,0.4,0.5
2025-05-03T1400,2482A,109.5981,27.5721,怀化市,林科所,,44,44,71,13,27,134,,77,77,7,15,5,9,0.4,0.5
2025-05-03T1400,2483A,109.9453,27.5444,怀化市,河西地税局,,40,34,54,28,29,120,,70,70,8,13,6,7,0.5,0.5
2025-05-03T1400,2484A,109.9781,27.5342,怀化市,市四医院,颗粒物(PM10),54,58,71,33,34,137,,84,84,5,21,6,12,0.8,0.7
2025-05-03T1400,2485A,109.9972,27.5578,怀化市,监测楼,,44,44,65,26,29,135,,79,79,4,14,2,3,0.3,0.3
2025-05-03T1400,2486A,110.0394,27.583,怀化市,市委党校,,41,39,62,20,34,129,,76,76,3,15,6,7,0.5,0.6
2025-05-03T1400,1210A,119.036,33.5981,淮安市,钵池山,,41,31,59,17,26,130,,116,116,10,12,9,11,0.3,0.5
2025-05-03T1400,1211A,119.007,33.575,淮安市,北京南路,,41,24,59,15,24,130,,118,118,5,11,10,12,0.4,0.7
2025-05-03T1400,1212A,118.989,33.6067,淮安市,市监测站,,38,27,59,17,26,120,,113,113,8,14,8,12,0.3,1.2
2025-05-03T1400,1213A,119.135,33.5039,淮安市,楚州区监测站,,39,39,78,21,29,123,,112,112,6,11,8,9,0.3,0.4
2025-05-03T1400,3426A,118.8755,33.2894,淮安市,新华书店,,42,36,60,12,26,134,,120,120,8,11,10,10,0.5,0.5
2025-05-03T1400,4206A,119.0288,33.6319,淮安市,承德北路606号,,39,31,60,20,27,124,,114,114,4,10,8,10,0.4,0.5
2025-05-03T1400,2282A,116.8004,33.975,淮北市,监测站,,39,39,93,16,38,119,,105,105,10,12,6,7,0.5,0.6
2025-05-03T1400,2283A,116.8091,33.9007,淮北市,烈山区政府,,38,37,67,11,30,121,,107,107,4,10,3,5,0.5,0.6
2025-05-03T1400,3330A,116.8873,33.9836,淮北市,杜集区检察院,,49,37,85,34,73,119,,103,103,10,13,6,7,0.5,0.6
2025-05-03T1400,4017A,116.7923,33.9535,淮北市,市博物馆,,37,36,85,16,54,118,,106,106,8,12,6,6,0.5,0.6
2025-05-03T1400,2277A,116.8305,32.7727,淮南市,潘集区政府,,42,42,100,23,37,124,,108,108,7,12,4,4,0.3,0.4
2025-05-03T1400,2279A,116.8569,32.5951,淮南市,谢家集区政府,,43,41,84,30,33,130,,108,108,7,13,5,6,0.2,0.3
2025-05-03T1400,2280A,116.8281,32.633,淮南市,八公山区政府,,47,47,95,21,33,126,,109,109,4,8,6,6,0.3,0.3
2025-05-03T1400,2281A,116.6325,32.6201,淮南市,焦岗湖风景区管理处,,,,,,,,,,,,,,,,
2025-05-03T1400,2894A,117.0566,32.6531,淮南市,经济技术开发区消防队,细颗粒物(PM2.5),58,56,81,41,47,135,,103,103,6,11,6,7,0.3,0.4
2025-05-03T1400,3329A,117.0108,32.5893,淮南市,山南新区,颗粒物(PM10),54,58,101,20,30,140,,112,112,7,12,8,9,0.4,0.5
2025-05-03T1400,4209A,117.0031,32.6445,淮南市,国庆中路369号,颗粒物(PM10),55,59,84,20,34,134,,103,103,4,9,8,10,0.4,0.4
2025-05-03T1400,2446A,114.9028,30.4742,黄冈市,职工中心,,,,,,,,,,,,,,,,
2025-05-03T1400,2929A,114.8858,30.4519,黄冈市,红卫路,臭氧1小时,75,52,58,21,25,180,,137,137,5,11,6,8,0.7,0.6
2025-05-03T1400,3398A,114.9136,30.4445,黄冈市,市林业局,臭氧1小时,73,58,60,35,27,178,,132,132,7,13,8,10,0.7,0.7
2025-05-03T1400,2672A,102.0199,35.5102,黄南藏族自治州,同仁县隆务镇,颗粒物(PM10),141,232,256,83,91,93,,70,70,7,4,,5,0.3,0.2
2025-05-03T1400,2295A,118.2903,29.6963,黄山市,延安路89号,细颗粒物(PM2.5),53,44,42,37,29,122,,65,65,6,11,9,7,0.4,0.4
2025-05-03T1400,2297A,118.1371,30.2756,黄山市,黄山区政府5号楼,颗粒物(PM10),67,84,49,20,21,155,,102,102,7,7,4,4,0.7,0.7
2025-05-03T1400,4210A,118.3354,29.7203,黄山市,滨江东路7-2号,颗粒物(PM10),51,51,48,32,23,126,,69,69,7,12,7,5,0.5,0.5
2025-05-03T1400,2423A,115.0601,30.2313,黄石市,沈家营,臭氧1小时,75,69,64,28,25,180,,128,128,6,24,6,7,0.7,0.7
2025-05-03T1400,2426A,114.8988,30.2019,黄石市,铁山,臭氧1小时,68,65,70,30,27,174,,123,123,4,10,13,10,0.3,0.4
2025-05-03T1400,2427A,115.0307,30.2092,黄石市,团城山,臭氧1小时,59,61,56,21,20,167,,118,118,6,19,7,9,0.5,0.5
2025-05-03T1400,3149A,115.0235,30.1578,黄石市,笔架山北路,臭氧1小时,74,48,52,22,21,179,,123,123,4,14,7,10,0.7,0.7
2025-05-03T1400,4185A,115.0780,30.21118,黄石市,磁湖东路29号,臭氧1小时,72,64,63,33,30,177,,118,118,8,32,7,9,0.6,0.7
2025-05-03T1400,1392A,114.4183,23.0528,惠州市,河南岸金山湖子站,,46,45,46,32,30,142,,126,126,12,13,8,9,0.6,0.6
2025-05-03T1400,1393A,114.4053,23.0822,惠州市,下埔横江三路子站,臭氧1小时,57,36,64,25,29,165,,154,154,10,12,9,10,0.7,0.7
2025-05-03T1400,1394A,114.4103,23.1142,惠州市,江北云山西路子站,臭氧1小时,59,35,45,20,29,167,,154,154,10,9,10,11,0.5,0.6
2025-05-03T1400,1395A,114.4645,22.7833,惠州市,惠阳区承修路船湖子站,,,,58,,36,,,135,,,12,,9,,0.4
2025-05-03T1400,1396A,114.5317,22.7422,惠州市,大亚湾管委会子站,,42,25,46,20,30,132,,164,142,8,11,9,9,0.6,0.7
2025-05-03T1400,3314A,114.4338,22.8134,惠州市,惠阳秋长,臭氧1小时,57,41,50,25,32,165,,161,152,10,12,8,10,0.7,0.7
2025-05-03T1400,3452A,114.6517,22.775,惠州市,大亚湾霞涌,颗粒物(PM10),54,57,46,26,28,115,,146,133,21,12,7,8,0.5,0.6
2025-05-03T1400,2240A,130.9762,45.3001,鸡西市,环保局,,,,23,,13,,,84,,,6,,6,,0.4
2025-05-03T1400,2243A,130.9429,45.3039,鸡西市,第一中学,,32,10,21,3,13,100,,87,87,2,6,6,6,0.2,0.3
2025-05-03T1400,3707A,131.0207,45.3073,鸡西市,欧美日汽修厂,,32,7,30,3,18,100,,87,87,2,13,4,5,0.4,0.5
2025-05-03T1400,3709A,130.9967,45.3106,鸡西市,市政设施管理处,,31,18,35,9,16,97,,81,81,4,13,6,7,0.3,0.4
2025-05-03T1400,2367A,114.9754,27.0803,吉安市,红声器材厂,颗粒物(PM10),54,57,69,27,31,140,,94,94,4,18,12,13,0.6,0.6
2025-05-03T1400,2368A,114.9658,27.0999,吉安市,市森林工业局,颗粒物(PM10),57,64,64,27,31,133,,96,96,7,18,10,11,0.4,0.5
2025-05-03T1400,2369A,114.99,27.1312,吉安市,市环境监测站,颗粒物(PM10),54,57,59,26,29,143,,98,98,1,11,11,11,0.6,0.5
2025-05-03T1400,2370A,115.0093,27.0968,吉安市,青原区法院,颗粒物(PM10),56,61,65,31,34,141,,98,98,6,14,15,14,0.5,0.5
2025-05-03T1400,1772A,126.54,43.8622,吉林市,哈达湾,,30,12,20,10,14,93,,72,72,8,12,6,6,0.3,0.4
2025-05-03T1400,1773A,126.5844,43.8358,吉林市,东局子,,31,20,21,14,14,97,,70,70,8,13,5,5,0.3,0.4
2025-05-03T1400,1774A,126.5052,43.8245,吉林市,电力学院,,32,10,21,7,13,102,,76,76,6,11,4,4,0.5,0.6
2025-05-03T1400,1775A,126.6133,43.8972,吉林市,江北,,32,22,26,12,15,101,,75,75,10,15,7,6,0.2,0.2
2025-05-03T1400,1776A,126.555,43.8306,吉林市,江南公园,,29,,20,16,15,92,,70,70,8,11,5,5,0.3,0.3
2025-05-03T1400,1778A,126.7061,43.7133,吉林市,丰满,,,,,,,,,,,,,,,,
2025-05-03T1400,2868A,126.4739,43.953,吉林市,九站,,30,13,19,8,14,95,,72,72,8,14,8,9,0.4,0.4
2025-05-03T1400,1299A,116.9862,36.6114,济南市,科干所,,33,24,56,10,17,105,,79,79,3,13,3,5,0.2,0.4
2025-05-03T1400,1300A,116.9376,36.665,济南市,农科所,颗粒物(PM10),55,59,73,10,17,108,,79,79,4,15,6,8,0.3,0.4
2025-05-03T1400,1301A,117.1265,36.6734,济南市,开发区,,34,24,52,15,21,107,,84,84,5,15,7,8,0.4,0.5
2025-05-03T1400,1303A,117.0624,36.6868,济南市,省种子仓库,,35,17,80,7,18,110,,85,85,2,12,3,6,0.1,0.4
2025-05-03T1400,1304A,116.9489,36.6447,济南市,机床二厂,,49,49,77,20,21,109,,81,81,7,17,7,9,0.3,0.4
2025-05-03T1400,1305A,117.0495,36.663,济南市,市监测站,,42,42,67,3,20,104,,80,80,4,17,8,9,0.3,0.4
2025-05-03T1400,1306A,116.7675,36.5484,济南市,长清党校,细颗粒物(PM2.5),89,,54,66,23,113,,85,85,5,16,4,6,0.5,0.6
2025-05-03T1400,1616A,117.6795,36.229,济南市,技术学院,颗粒物(PM10),57,63,72,7,23,106,,87,87,7,16,9,12,0.3,0.5
2025-05-03T1400,1961A,117.532,36.6868,济南市,东山小学,,44,44,68,7,18,106,,83,83,2,12,5,9,0.2,0.3
2025-05-03T1400,3059A,117.7161,36.2049,济南市,泰兴公司,,35,29,59,7,28,110,,92,92,7,15,4,6,0,0.3
2025-05-03T1400,3064A,117.6867,36.2171,济南市,莱芜战役纪念馆,,41,41,68,14,21,106,,87,87,11,18,4,6,0.4,0.6
2025-05-03T1400,3494A,117.1673,36.9782,济南市,济阳区政府,,49,49,73,15,19,111,,82,82,5,14,6,9,0.2,0.4
2025-05-03T1400,3495A,117.1171,36.63,济南市,锦屏中学,,35,32,55,15,24,109,,85,85,6,15,4,6,0.3,0.4
2025-05-03T1400,3682A,116.9814,36.6819,济南市,济南四建,,35,29,62,15,20,109,,83,83,3,14,4,6,0.2,0.4
2025-05-03T1400,1653A,116.6251,35.4302,济宁市,火炬城,,48,48,98,9,28,93,,81,81,2,6,4,6,0.1,0.4
2025-05-03T1400,1655A,116.5491,35.4042,济宁市,电化厂,,32,32,67,12,25,97,,84,83,2,6,2,3,0.2,0.5
2025-05-03T1400,3500A,116.5814,35.3707,济宁市,北湖一中,,,82,132,3,15,100,,88,88,4,9,,4,0.1,0.3
2025-05-03T1400,3501A,116.8249,35.5593,济宁市,服务中心,颗粒物(PM10),58,65,82,3,20,101,,88,88,6,13,1,2,0.0,0.3
2025-05-03T1400,3678A,116.5907,35.4054,济宁市,市第七中学,颗粒物(PM10),60,70,108,3,19,100,,86,86,2,9,3,5,0.2,0.4
2025-05-03T1400,2255A,130.2751,46.8028,佳木斯市,佳纺,,,,51,4,20,91,,83,83,5,21,5,5,0.3,0.5
2025-05-03T1400,2256A,130.3995,46.8307,佳木斯市,发电厂,,30,10,35,3,21,94,,87,87,4,19,4,5,0.2,0.4
2025-05-03T1400,2257A,130.3258,46.7975,佳木斯市,环保局,,30,20,37,10,21,95,,84,84,5,25,5,6,0.3,0.5
2025-05-03T1400,2258A,130.3648,46.8032,佳木斯市,十一中,,29,14,39,3,24,91,,83,83,5,27,4,5,0.3,0.5
2025-05-03T1400,2259A,130.3794,46.7588,佳木斯市,四丰,,27,11,24,3,11,84,,78,78,5,11,1,1,0.2,0.2
2025-05-03T1400,1252A,120.7436,30.778,嘉兴市,清河小学,颗粒物(PM10),66,82,70,28,25,165,,128,128,9,17,6,6,0.6,0.8
2025-05-03T1400,1253A,120.726,30.7478,嘉兴市,嘉兴学院,臭氧1小时,63,72,62,30,28,170,,130,130,8,16,6,7,0.7,0.7
2025-05-03T1400,2872A,120.7846,30.7525,嘉兴市,南湖区残联,颗粒物(PM10),77,104,66,31,30,166,,137,137,9,11,6,7,0.6,0.6
2025-05-03T1400,3407A,120.6916,30.7739,嘉兴市,秀洲住建,臭氧1小时,77,76,66,32,28,181,,139,139,3,12,7,8,0.6,0.6
2025-05-03T1400,1945A,98.2908,39.7711,嘉峪关市,气象局,,,,110,,33,107,,83,83,,7,5,3,0.9,0.8
2025-05-03T1400,2884A,98.2672,39.7978,嘉峪关市,酒钢宾馆,颗粒物(PM10),86,122,119,34,41,104,,76,76,5,14,13,20,0,0.6
2025-05-03T1400,3248A,98.2643,39.7724,嘉峪关市,雄关区,颗粒物(PM10),69,87,92,21,30,108,,78,78,8,13,6,6,0.7,0.9
2025-05-03T1400,1383A,113.1064,22.6058,江门市,北街,,28,23,34,8,23,88,,107,96,1,6,2,2,0.5,0.6
2025-05-03T1400,1384A,113.0731,22.5835,江门市,西区,,30,23,38,14,22,95,,120,101,7,11,6,6,0.5,0.6
2025-05-03T1400,1385A,113.0219,22.5311,江门市,圭峰西,,26,24,36,8,29,82,,116,90,6,10,3,3,0.4,0.5
2025-05-03T1400,1386A,113.0828,22.5947,江门市,东湖,,30,,37,19,25,94,,110,95,9,12,8,8,0.5,0.6
2025-05-03T1400,3311A,113.1075,22.5647,江门市,江海富民,,45,37,51,31,30,91,,110,98,4,9,7,7,0.4,0.5
2025-05-03T1400,3449A,113.05,22.4667,江门市,新会银湖,,27,13,35,6,30,85,,106,93,4,12,2,2,0.5,0.6
2025-05-03T1400,1830A,113.1992,35.2590,焦作市,影视城,,,,69,,35,,,,,,27,,17,,0.9
2025-05-03T1400,3169A,113.2725,35.2067,焦作市,太极体育中心,颗粒物(PM10),62,73,146,24,38,163,,131,131,8,12,5,9,0.2,0.3
2025-05-03T1400,3335A,113.3137,35.2641,焦作市,马村街道办,颗粒物(PM10),64,78,124,35,46,150,,120,120,10,14,8,10,0.3,0.4
2025-05-03T1400,3336A,113.2465,35.2373,焦作市,焦作技师学院,颗粒物(PM10),62,73,135,17,35,152,,120,120,7,12,9,10,0.6,0.8
2025-05-03T1400,3477A,113.1656,35.2539,焦作市,中站许衡医院,,50,47,108,27,43,157,,122,122,8,16,8,12,0.6,0.8
2025-05-03T1400,3981A,113.2449,35.1803,焦作市,原李万街道办,颗粒物(PM10),58,66,122,19,30,155,,121,121,10,13,9,12,0.4,0.5
2025-05-03T1400,4264A,113.2340,35.2190,焦作市,新安路1731号,颗粒物(PM10),78,105,138,24,39,154,,122,122,7,12,8,9,0.7,0.8
2025-05-03T1400,1708A,116.3701,23.5345,揭阳市,新兴,,40,40,62,27,45,126,,104,104,6,14,6,10,0.6,0.8
2025-05-03T1400,1709A,116.3264,23.5443,揭阳市,西马,,39,34,58,8,40,124,,97,97,3,9,7,10,0.8,1
2025-05-03T1400,1710A,116.3611,23.5626,揭阳市,东兴,颗粒物(PM10),70,90,72,17,44,129,,101,101,3,12,5,9,0.4,0.6
2025-05-03T1400,1711A,116.4151,23.5294,揭阳市,渔湖,,44,44,73,29,33,137,,104,104,10,16,6,7,0.7,0.8
2025-05-03T1400,3320A,116.403,23.5699,揭阳市,曲溪,,44,26,56,23,32,140,,115,115,6,18,13,14,0.6,0.8
2025-05-03T1400,1944A,102.1692,38.5167,金昌市,天庆家园,颗粒物(PM10),114,178,116,58,39,105,,88,88,7,7,28,24,0.6,0.6
2025-05-03T1400,4022A,102.1647,38.5371,金昌市,金川区人防中心,颗粒物(PM10),126,202,141,80,46,110,,83,83,6,7,10,18,0.3,0.6
2025-05-03T1400,4239A,102.1930,38.5319,金昌市,长春路96号,颗粒物(PM10),119,188,129,52,38,103,,80,80,3,4,24,22,0.7,0.8
2025-05-03T1400,1262A,119.647,29.077,金华市,十五中,颗粒物(PM10),53,55,54,22,26,145,,122,122,13,15,5,4,0.4,0.4
2025-05-03T1400,1263A,119.686,29.1029,金华市,监测站,颗粒物(PM10),54,58,56,30,28,143,,108,108,10,14,6,5,0.4,0.4
2025-05-03T1400,3659A,119.656,29.1131,金华市,气象局,颗粒物(PM10),57,64,55,29,26,153,,118,118,15,17,3,2,0.6,0.5
2025-05-03T1400,1767A,121.1115,41.0879,锦州市,南山,,38,38,25,16,13,96,,83,83,5,12,6,9,0.4,0.6
2025-05-03T1400,1768A,121.0604,40.8428,锦州市,开发区,,50,50,38,6,12,98,,83,83,4,25,4,11,0.4,0.5
2025-05-03T1400,1769A,121.1836,41.1119,锦州市,百股街道,颗粒物(PM10),51,52,31,9,8,96,,83,83,3,12,4,7,0.3,0.5
2025-05-03T1400,1770A,121.1178,41.1222,锦州市,天安街道,,39,39,26,9,13,95,,84,84,8,12,5,8,0.4,0.6
2025-05-03T1400,1771A,121.1303,41.1386,锦州市,北湖公园,颗粒物(PM10),69,87,30,7,12,94,,83,83,3,10,8,9,0.4,0.5
2025-05-03T1400,2160A,112.85,35.5051,晋城市,自来水公司,,38,36,114,3,25,120,,99,97,8,14,8,11,0.6,1
2025-05-03T1400,2161A,112.8318,35.4936,晋城市,白云商贸,,,31,94,,26,124,,104,100,10,16,8,9,0.5,0.9
2025-05-03T1400,2162A,112.8508,35.4887,晋城市,市环保局,细颗粒物(PM2.5),64,,134,46,32,116,,95,95,6,12,7,10,0,0.5
2025-05-03T1400,2163A,112.8676,35.4897,晋城市,技术学院,细颗粒物(PM2.5),100,,104,75,30,112,,94,91,10,15,8,8,0.5,0.8
2025-05-03T1400,2165A,112.8453,35.546,晋城市,白马寺,,40,31,76,10,38,125,,106,101,5,10,6,8,0.4,0.8
2025-05-03T1400,3620A,112.8271,35.4828,晋城市,泽州一中,,38,20,85,3,28,121,,103,97,8,13,6,7,0.6,1
2025-05-03T1400,2173A,112.7249,37.7067,晋中市,南都小区,,31,20,61,3,18,97,,84,84,5,11,4,5,0.3,0.4
2025-05-03T1400,2174A,112.6991,37.6982,晋中市,榆次区政府,,32,17,55,7,15,101,,87,87,7,14,5,6,0.3,0.3
2025-05-03T1400,2865A,112.7195,37.6828,晋中市,榆次三中,,32,19,67,12,19,101,,87,87,3,9,3,4,0.3,0.4
2025-05-03T1400,4200A,112.7478,37.6954,晋中市,迎宾街26号,,31,17,65,3,17,98,,81,81,3,12,4,5,0.2,0.3
2025-05-03T1400,2439A,112.2014,31.0481,荆门市,竹园小学,颗粒物(PM10),63,75,107,18,38,135,,132,132,8,12,7,7,0.1,0.3
2025-05-03T1400,2440A,112.1969,30.9891,荆门市,掇刀,颗粒物(PM10),59,68,100,15,30,136,,131,131,10,10,6,6,0.2,0.3
2025-05-03T1400,2441A,112.2213,31.0386,荆门市,石化一小,颗粒物(PM10),66,82,111,23,39,131,,126,126,6,12,12,10,0.0,0.3
2025-05-03T1400,3012A,112.1849,31.0362,荆门市,西山林语,颗粒物(PM10),57,63,90,15,33,132,,129,129,3,7,9,9,0.3,0.5
2025-05-03T1400,3547A,112.1632,31.0138,荆门市,龙泉中学南校,颗粒物(PM10),61,71,101,19,36,131,,129,129,2,9,1,4,0.3,0.4
2025-05-03T1400,1844A,112.2494,30.3197,荆州市,市图书馆,颗粒物(PM10),56,62,83,24,35,133,,121,121,8,12,5,6,0.4,0.5
2025-05-03T1400,1845A,112.2008,30.3544,荆州市,市委党校,,48,48,79,16,32,132,,121,121,7,12,6,7,0.4,0.5
2025-05-03T1400,3194A,112.2747,30.3122,荆州市,管委会,颗粒物(PM10),51,51,83,21,42,130,,118,118,10,13,6,8,0.6,0.7
2025-05-03T1400,4268A,112.1722,30.3366,荆州市,学苑路85号,颗粒物(PM10),56,61,73,17,35,127,,116,116,10,13,3,4,0.4,0.5
2025-05-03T1400,2342A,117.3102,29.3867,景德镇市,王港中学,,,,,,,,,,,,,,,,
2025-05-03T1400,2343A,117.2117,29.2933,景德镇市,老干部活动中心,,50,50,47,20,23,134,,83,83,7,16,9,8,0.4,0.5
2025-05-03T1400,2344A,117.1894,29.2789,景德镇市,兽医站,,50,50,51,20,23,134,,82,82,9,14,7,6,0.4,0.4
2025-05-03T1400,2345A,117.1547,29.2617,景德镇市,台达陶瓷,颗粒物(PM10),55,60,60,29,27,141,,85,85,14,22,53,28,0.4,0.4
2025-05-03T1400,2346A,117.2461,29.2956,景德镇市,陶研所,,44,44,42,27,25,135,,85,85,7,13,10,7,0.5,0.5
2025-05-03T1400,1803A,115.9872,29.6815,九江市,十里,臭氧1小时,67,66,48,27,28,173,,106,106,6,16,5,5,0.6,0.6
2025-05-03T1400,1804A,115.9584,29.7046,九江市,茅山头,"颗粒物(PM10),臭氧1小时",59,68,56,33,27,167,,100,100,8,18,7,8,0.5,0.5
2025-05-03T1400,1805A,115.9877,29.7295,九江市,西园,颗粒物(PM10),61,72,46,27,23,160,,87,87,23,41,9,11,0.8,0.8
2025-05-03T1400,1808A,115.9114,29.6038,九江市,综合工业园,臭氧1小时,72,83,54,33,26,177,,104,104,16,21,19,12,0.8,0.7
2025-05-03T1400,1809A,116.0721,29.7535,九江市,石化总厂,颗粒物(PM10),61,72,58,28,29,152,,100,100,12,17,8,13,0.7,0.7
2025-05-03T1400,1810A,115.9773,29.5698,九江市,庐山气象台,细颗粒物(PM2.5),60,54,42,43,22,156,,114,114,14,5,6,7,1.5,0.8
2025-05-03T1400,3190A,116.0254,29.6994,九江市,外国语学校,颗粒物(PM10),69,88,49,26,23,161,,95,95,11,14,7,9,0.7,0.7
2025-05-03T1400,4253A,116.0102,29.6594,九江市,莲花大道8号,颗粒物(PM10),58,66,40,28,26,157,,93,93,6,7,8,6,0.6,0.6
2025-05-03T1400,4240A,98.4958,39.7339,酒泉市,玉门东路5号,颗粒物(PM10),106,161,112,28,38,100,,82,82,1,3,14,21,0.2,0.2
2025-05-03T1400,4241A,98.5099,39.7506,酒泉市,北大街108号,颗粒物(PM10),106,161,109,21,31,98,,79,79,4,6,10,11,0.3,0.2
2025-05-03T1400,2698A,76.0072,39.4467,喀什地区,巡警大队,,44,44,112,8,14,114,,106,104,6,8,3,3,0.3,0.4
2025-05-03T1400,2699A,75.9755,39.4694,喀什地区,吾办,,44,44,135,18,51,110,,102,101,7,23,5,5,0.2,0.2
2025-05-03T1400,4027A,75.9483,39.4689,喀什地区,老干局,,34,33,105,8,22,108,,108,104,5,5,5,5,0.4,0.3
2025-05-03T1400,1824A,114.3389,34.7781,开封市,肿瘤医院,,33,30,143,6,22,103,,88,88,2,5,7,9,0.2,0.3
2025-05-03T1400,1826A,114.2885,34.7965,开封市,世纪星幼儿园,,,58,260,3,35,106,,,,,21,5,7,0.6,0.6
2025-05-03T1400,3147A,114.3438,34.8106,开封市,龙亭公园,,37,37,144,8,47,104,,89,89,8,11,1,3,0.5,0.7
2025-05-03T1400,3210A,114.3644,34.7964,开封市,汴京公园,颗粒物(PM10),55,59,172,13,33,112,,97,96,6,9,3,4,0.4,0.6
2025-05-03T1400,3473A,114.2485,34.8306,开封市,技师学院,颗粒物(PM10),53,55,178,9,66,105,,88,88,4,11,3,5,0.4,0.6
2025-05-03T1400,3592A,114.4644,34.7556,开封市,祥符区生态环境局,,38,38,111,9,32,108,,90,90,6,11,6,8,0.4,0.5
2025-05-03T1400,1951A,84.895,45.6094,克拉玛依市,长征新村,,30,24,22,7,6,94,,85,85,5,8,8,8,0.2,0.3
2025-05-03T1400,1952A,84.8988,45.5893,克拉玛依市,南林小区,,31,18,23,9,11,98,,88,88,1,3,6,7,0.1,0.1
2025-05-03T1400,1954A,84.905,44.3396,克拉玛依市,独山子区,,,,23,,28,90,,90,90,,5,8,9,0.3,0.4
2025-05-03T1400,1955A,85.6979,46.098,克拉玛依市,乌尔禾区商贸楼,,40,40,36,3,9,100,,83,83,2,4,7,7,0.2,0.2
2025-05-03T1400,3612A,85.1045,45.6899,克拉玛依市,白碱滩区新站,,30,21,28,3,6,96,,85,85,2,4,10,12,0.2,0.3
2025-05-03T1400,2697A,76.1454,39.7142,克孜勒苏柯尔克孜自治州,市人民政府,,35,29,81,9,20,109,,111,107,2,2,5,10,0.2,0.2
2025-05-03T1400,3665A,76.1658,39.7157,克孜勒苏柯尔克孜自治州,克州文化中心,颗粒物(PM10),54,57,80,25,24,110,,113,109,2,2,7,9,0.3,0.3
2025-05-03T1400,1450A,102.8204,24.8886,昆明市,呈贡新区,,37,20,25,6,20,116,,87,87,6,12,6,6,0.5,0.6
2025-05-03T1400,1451A,102.6251,24.9608,昆明市,西山森林公园,,,,,,,,,,,,,,,,
2025-05-03T1400,1452A,102.7252,25.0902,昆明市,龙泉镇,,37,,20,11,14,118,,79,79,8,13,11,9,0.4,0.3
2025-05-03T1400,1453A,102.7266,25.0375,昆明市,东风东路,,38,20,26,14,19,120,,89,89,12,16,10,12,0.4,0.5
2025-05-03T1400,1454A,102.6742,25.0669,昆明市,金鼎山,,37,25,23,3,14,117,,92,92,12,13,5,4,0.4,0.4
2025-05-03T1400,1455A,102.6644,25.0401,昆明市,碧鸡广场,,35,13,25,8,16,109,,81,81,10,17,8,9,0.5,0.5
2025-05-03T1400,3179A,102.7494,25.0119,昆明市,官渡区博物馆,,39,27,26,11,15,122,,92,92,8,12,8,10,0.3,0.5
2025-05-03T1400,3375A,102.8017,24.8336,昆明市,青年创业园,,35,9,23,7,15,110,,82,82,5,12,8,10,0.3,0.3
2025-05-03T1400,3550A,102.7997,24.9786,昆明市,昆明学院,,37,17,25,9,14,117,,91,91,7,10,6,7,0.3,0.4
2025-05-03T1400,3551A,102.5967,24.6736,昆明市,晋宁区生态环境分局,,28,,15,9,13,89,,72,72,5,8,9,5,0.4,0.3
2025-05-03T1400,3552A,102.6678,24.9856,昆明市,云天化总部,,34,9,23,6,13,107,,85,85,8,14,7,10,0.4,0.4
2025-05-03T1400,1456A,91.1319,29.6514,拉萨市,八廓街,,44,23,16,18,9,140,,118,118,10,14,6,6,0.3,0.4
2025-05-03T1400,1457A,91.1221,29.6747,拉萨市,市环保局,,42,17,13,8,7,134,,108,108,10,13,3,3,0.5,0.5
2025-05-03T1400,1458A,91.0874,29.6475,拉萨市,区监测站,,44,10,9,6,7,138,,110,109,12,15,5,6,0.3,0.3
2025-05-03T1400,1459A,91.1774,29.6541,拉萨市,西藏大学,,43,19,12,8,7,135,,112,112,10,12,6,7,0.4,0.4
2025-05-03T1400,1460A,90.9798,29.6588,拉萨市,区辐射站,,44,7,12,6,7,138,,110,106,4,14,8,9,0.3,0.3
2025-05-03T1400,1461A,91.0834,29.6292,拉萨市,拉萨火车站,,42,10,10,7,7,133,,114,108,9,13,3,3,0.4,0.5
2025-05-03T1400,2520A,109.2203,23.7256,来宾市,来宾技工学校,,38,35,38,17,24,121,,89,89,5,10,8,7,0.5,0.6
2025-05-03T1400,3535A,109.1781,23.7297,来宾市,兴宾区政府,,35,21,35,19,25,111,,82,82,6,12,5,5,0.5,0.6
2025-05-03T1400,4002A,109.2416,23.7461,来宾市,中南小学,,37,31,37,11,26,118,,87,87,4,8,5,5,0.5,0.6
2025-05-03T1400,1477A,104.1373,35.9454,兰州市,榆中兰大校区,,,,,,,,,,,,,,,,
2025-05-03T1400,1479A,103.831,36.0464,兰州市,铁路设计院,颗粒物(PM10),126,201,248,62,72,103,,74,73,19,18,10,11,0.5,0.4
2025-05-03T1400,3241A,103.7439,36.0842,兰州市,百合公园,颗粒物(PM10),108,166,244,44,72,103,,78,78,12,10,6,7,0.3,0.3
2025-05-03T1400,3242A,103.9611,35.998,兰州市,和平,颗粒物(PM10),145,240,312,105,147,108,,78,78,5,8,12,12,0.6,0.5
2025-05-03T1400,4236A,103.6293,36.0938,兰州市,庄浪东路808号,颗粒物(PM10),122,194,274,75,104,146,,94,94,16,14,17,14,0.4,0.3
2025-05-03T1400,4237A,103.7251,36.1043,兰州市,安宁西路88号,颗粒物(PM10),132,214,311,59,86,130,,97,97,13,6,9,9,0.3,0.2
2025-05-03T1400,4238A,103.8470,36.0676,兰州市,北滨河东路1号,颗粒物(PM10),130,209,277,58,82,116,,83,83,11,12,12,13,0.5,0.5
2025-05-03T1400,3245A,103.6633,36.533,兰州新区,新区管委会,细颗粒物(PM2.5),134,169,210,102,87,116,,88,88,5,7,10,10,0.3,0.3
2025-05-03T1400,3246A,103.6975,36.4789,兰州新区,舟曲中学,颗粒物(PM10),133,215,299,81,83,118,,99,99,6,9,7,11,0.4,0.4
2025-05-03T1400,1067A,116.6708,39.5111,廊坊市,药材公司,,31,18,29,3,11,99,,84,84,3,14,1,1,0.2,0.3
2025-05-03T1400,1068A,116.7214,39.5589,廊坊市,开发区,,32,22,24,7,11,101,,86,86,2,19,2,2,0.2,0.2
2025-05-03T1400,1070A,116.7244,39.5269,廊坊市,北华航天学院,,31,25,37,3,10,98,,83,83,4,14,3,3,0.2,0.3
2025-05-03T1400,2919A,116.7022,39.5453,廊坊市,河北工业大学,,32,17,32,14,13,101,,85,85,5,16,5,5,0.2,0.3
2025-05-03T1400,2535A,103.7723,29.5462,乐山市,花湖湾,细颗粒物(PM2.5),58,62,74,41,49,118,,78,61,23,26,9,10,0.9,0.9
2025-05-03T1400,2536A,103.7627,29.5844,乐山市,牛耳桥,,47,47,76,27,48,128,,53,53,15,37,8,9,0.4,0.6
2025-05-03T1400,2537A,103.7508,29.6006,乐山市,市第三水厂,,48,46,68,33,45,118,,54,54,14,34,6,6,0.6,0.8
2025-05-03T1400,2538A,103.7571,29.5664,乐山市,市监测站,颗粒物(PM10),57,63,74,37,43,111,,71,55,16,22,5,7,0.9,1
2025-05-03T1400,3361A,103.7311,29.5628,乐山市,理工大学,细颗粒物(PM2.5),54,54,69,38,47,108,,61,53,23,27,8,8,0.9,0.9
2025-05-03T1400,2598A,100.2143,26.8576,丽江市,西南郊,,33,26,27,22,16,105,,73,73,4,10,6,5,0.3,0.4
2025-05-03T1400,2599A,100.2497,26.8802,丽江市,丽江古城,,32,24,26,11,17,100,,69,69,9,13,10,9,0.4,0.6
2025-05-03T1400,2600A,100.2203,26.8906,丽江市,市中心,,30,24,19,11,12,96,,61,61,4,7,7,6,0.3,0.2
2025-05-03T1400,1267A,119.914,28.4514,丽水市,监测站大楼,颗粒物(PM10),55,60,48,22,23,144,,110,110,11,12,4,3,0.5,0.4
2025-05-03T1400,1268A,119.93,28.4586,丽水市,莲都小学,颗粒物(PM10),57,63,52,22,22,145,,107,107,9,12,5,4,0.5,0.5
2025-05-03T1400,1269A,119.879,28.4231,丽水市,余庄前,颗粒物(PM10),52,53,50,29,23,149,,97,97,11,10,5,4,0.5,0.4
2025-05-03T1400,1173A,119.176,34.5885,连云港市,市环境监测站,,42,39,59,14,27,132,,114,114,7,12,8,7,0.6,0.7
2025-05-03T1400,3000A,119.3581,34.6972,连云港市,德源药业,,39,39,54,14,24,119,,110,110,12,12,10,10,0.5,0.7
2025-05-03T1400,3007A,119.178,34.844,连云港市,新城一中,,44,44,66,23,31,131,,106,106,10,14,9,8,0.6,0.7
2025-05-03T1400,3008A,119.3608,34.7519,连云港市,胡沟管理处,,41,24,49,12,20,130,,112,112,21,20,16,15,0.7,0.9
2025-05-03T1400,3009A,119.1478,34.5911,连云港市,矿山设计院,颗粒物(PM10),52,53,70,19,27,134,,114,114,15,17,11,9,0.6,0.7
2025-05-03T1400,3434A,119.2413,34.6539,连云港市,工贸学校,,40,25,63,14,26,128,,116,116,14,15,9,9,0.6,0.7
2025-05-03T1400,3664A,119.4172,34.7341,连云港市,连云街道,,40,35,61,20,25,125,,110,110,23,25,12,10,0.5,0.7
2025-05-03T1400,2571A,102.3431,27.8099,凉山彝族自治州,青龙寺,,47,28,38,11,9,150,,99,99,4,6,7,4,0.7,0.6
2025-05-03T1400,2572A,102.2721,27.8415,凉山彝族自治州,邛海宾馆,,44,37,35,20,21,140,,91,91,16,14,13,11,0.9,0.7
2025-05-03T1400,2573A,102.2625,27.898,凉山彝族自治州,西昌市政府,,41,39,34,21,19,129,,91,91,7,11,12,13,0.7,0.7
2025-05-03T1400,2574A,102.2685,27.8851,凉山彝族自治州,凉山州政府,,41,33,36,19,20,131,,89,89,9,14,8,9,0.7,0.7
2025-05-03T1400,4229A,102.2342,27.8859,凉山彝族自治州,凯乐南路30号,,36,32,47,12,21,114,,67,67,7,23,13,16,0.8,1
2025-05-03T1400,2212A,123.2,41.1953,辽阳市,宏伟区,,27,18,28,6,13,84,,76,76,6,14,7,10,0.4,0.7
2025-05-03T1400,2213A,123.1683,41.2495,辽阳市,新华园,,26,14,32,10,16,82,,71,71,6,17,3,10,0.3,0.9
2025-05-03T1400,2214A,123.2354,41.2639,辽阳市,滨河路,,27,16,33,6,16,86,,71,71,7,20,6,11,0.3,0.8
2025-05-03T1400,2215A,123.149,41.2991,辽阳市,铁西工业园,,26,10,37,10,20,82,,68,68,4,15,9,13,0.2,0.7
2025-05-03T1400,2227A,125.1358,42.8845,辽源市,环保局,,31,31,29,7,10,80,,82,82,12,13,10,7,0.2,0.3
2025-05-03T1400,3239A,125.0764,42.9078,辽源市,银鹰制药,,27,10,18,7,10,85,,87,87,6,11,2,3,0.3,0.3
2025-05-03T1400,1625A,115.9848,36.4372,聊城市,区政府,,34,28,90,3,17,106,,85,85,4,11,4,6,0.5,0.5
2025-05-03T1400,2878A,116.0072,36.4343,聊城市,聊大东校,,33,27,85,23,35,103,,84,84,4,9,5,7,0.3,0.3
2025-05-03T1400,3200A,115.9819,36.4978,聊城市,监控中心,,33,28,61,3,19,105,,84,84,6,11,6,7,0.3,0.5
2025-05-03T1400,3513A,116.0445,36.4361,聊城市,九州社区,,35,23,53,3,14,112,,90,90,2,8,1,6,0.4,0.5
2025-05-03T1400,4018A,116.0567,36.4608,聊城市,星美广场,,34,29,55,3,11,108,,84,84,11,16,8,10,0.4,0.6
2025-05-03T1400,2632A,94.3681,29.6376,林芝市,林芝监测站,,37,6,6,3,4,118,,81,81,4,6,5,5,0.2,0.2
2025-05-03T1400,2633A,94.3616,29.6616,林芝市,林芝人民医院,,37,6,9,3,5,118,,77,77,1,3,6,5,0.3,0.3
2025-05-03T1400,2603A,100.0781,23.8982,临沧市,市环保局,,35,,27,24,21,63,,41,41,7,9,5,6,0.7,0.7
2025-05-03T1400,2604A,100.0894,23.8822,临沧市,市气象局,,26,25,25,18,20,70,,44,44,10,10,7,7,0.7,0.7
2025-05-03T1400,1733A,111.5531,36.0783,临汾市,临钢医院,,,25,95,11,19,118,,86,86,5,9,6,8,,0.6
2025-05-03T1400,1734A,111.5028,36.0714,临汾市,技工学校,,41,24,84,13,27,129,,93,93,5,13,8,9,0.3,0.4
2025-05-03T1400,1736A,111.5018,36.0855,临汾市,市委,,40,39,93,3,14,125,,93,93,4,7,10,10,0.2,0.4
2025-05-03T1400,3018A,111.505,36.1014,临汾市,唐尧大酒店,,39,27,87,6,18,122,,89,89,7,12,6,7,0.3,0.4
2025-05-03T1400,4244A,111.4879,36.0530,临汾市,启星学校,,40,20,81,15,27,127,,93,93,5,9,9,9,0.4,0.4
2025-05-03T1400,4271A,103.2464,35.6123,临夏回族自治州,滨河东路1号,颗粒物(PM10),180,310,310,99,108,,,39,39,2,12,5,5,0.2,0.3
2025-05-03T1400,4310A,103.2093,35.5995,临夏回族自治州,新华街21号,颗粒物(PM10),173,296,384,101,130,99,,62,62,9,15,4,5,0.2,0.3
2025-05-03T1400,1618A,118.3429,35.0532,临沂市,沂河小区,,36,36,75,17,35,111,,98,98,4,11,8,11,0.2,0.5
2025-05-03T1400,1619A,118.295,35.0583,临沂市,鲁南制药厂,,38,,63,26,56,116,,105,105,13,18,4,8,0.3,0.7
2025-05-03T1400,1620A,118.2794,34.9976,临沂市,新光毛纺厂,,37,22,44,13,36,117,,104,104,12,16,6,9,0.2,0.5
2025-05-03T1400,1621A,118.3956,35.0888,临沂市,河东保险公司,,39,22,61,3,26,123,,109,109,4,11,6,7,0.2,0.5
2025-05-03T1400,3370A,118.3564,35.0215,临沂市,十里堡居委,,37,24,69,9,31,116,,103,103,10,17,3,5,0.2,0.6
2025-05-03T1400,3496A,118.3604,35.1084,临沂市,南坊新区,,37,17,54,7,29,118,,106,106,5,13,6,8,0.1,0.5
2025-05-03T1400,3860A,118.3920,35.0300,临沂市,皇山花园小区,,39,22,63,10,31,122,,109,109,9,16,7,9,0.1,0.6
2025-05-03T1400,1870A,109.4856,24.3895,柳州市,柳东小学,,40,40,33,28,24,127,,90,90,6,9,10,10,0.7,0.8
2025-05-03T1400,1871A,109.4157,24.3277,柳州市,环保监测站,,45,39,39,31,29,121,,84,84,8,11,9,9,0.4,0.5
2025-05-03T1400,1872A,109.389,24.341,柳州市,河西水厂,,40,36,40,28,22,117,,80,80,5,9,5,5,0.6,0.6
2025-05-03T1400,1873A,109.4311,24.2921,柳州市,市四中,颗粒物(PM10),51,52,45,26,26,123,,82,82,6,12,8,8,0.8,0.8
2025-05-03T1400,1874A,109.4006,24.3631,柳州市,市九中,,41,36,41,13,26,129,,94,94,6,9,8,8,0.6,0.6
2025-05-03T1400,1875A,109.4958,24.3134,柳州市,古亭山,颗粒物(PM10),54,58,39,29,26,116,,83,83,4,8,7,7,0.7,0.7
2025-05-03T1400,3402A,109.5422,24.3996,柳州市,市二中,颗粒物(PM10),51,52,36,30,24,113,,77,77,7,11,12,13,0.6,0.5
2025-05-03T1400,2307A,116.5079,31.737,六安市,监测大楼,颗粒物(PM10),57,64,64,31,26,134,,105,105,8,9,6,6,0.4,0.3
2025-05-03T1400,2308A,116.4738,31.7643,六安市,皖西学院,颗粒物(PM10),58,66,73,27,26,141,,115,115,10,12,6,6,0.4,0.3
2025-05-03T1400,2309A,116.4996,31.7905,六安市,朝阳厂,颗粒物(PM10),57,64,61,29,26,131,,108,108,13,13,6,5,0.4,0.3
2025-05-03T1400,2310A,116.5567,31.7886,六安市,开发区,颗粒物(PM10),63,75,77,37,31,137,,110,110,10,12,6,6,0.5,0.4
2025-05-03T1400,2576A,104.8,26.5892,六盘水市,窑上,,40,27,36,15,21,128,,,,9,6,15,6,0.6,0.3
2025-05-03T1400,2577A,104.83,26.5917,六盘水市,黄土坡,,45,31,42,16,20,143,,88,88,12,18,16,11,0.7,0.6
2025-05-03T1400,2578A,104.89,26.5939,六盘水市,水钢,,44,42,58,18,26,139,,83,83,8,16,16,17,0.4,0.6
2025-05-03T1400,2579A,104.8475,26.5894,六盘水市,民中,,45,32,44,19,23,142,,84,84,8,19,14,12,0.4,0.5
2025-05-03T1400,2580A,104.9544,26.5506,六盘水市,双水,,46,46,49,24,20,141,,90,90,12,15,24,13,0.5,0.5
2025-05-03T1400,2335A,117.0189,25.1181,龙岩市,龙岩师专,,,,,,,,,,,,,,,,
2025-05-03T1400,2336A,117.0217,25.1033,龙岩市,龙岩市监测站,,47,47,46,22,25,131,,108,108,6,11,4,10,0.4,0.5
2025-05-03T1400,2337A,117.0258,25.0661,龙岩市,闽西职业技术学院,,39,39,49,16,24,115,,94,94,4,10,4,14,0.5,0.6
2025-05-03T1400,2338A,117.0196,25.0306,龙岩市,龙岩学院,,41,41,44,18,25,126,,103,103,3,7,9,9,0.6,0.5
2025-05-03T1400,2665A,105.0822,33.3261,陇南市,汉王镇固水子,,,,,,,,,,,,,,,,
2025-05-03T1400,2885A,104.9339,33.3826,陇南市,滨江中学,颗粒物(PM10),116,181,91,50,29,111,,81,81,2,10,9,10,0.3,0.4
2025-05-03T1400,3247A,104.955,33.371,陇南市,市总工会,颗粒物(PM10),115,180,78,62,24,116,,88,88,3,8,7,7,0.2,0.3
2025-05-03T1400,2487A,111.9589,27.8901,娄底市,电视发射台,颗粒物(PM10),67,83,76,39,29,120,,83,83,5,7,8,8,0.4,0.5
2025-05-03T1400,2488A,111.9975,27.725,娄底市,市监测站,细颗粒物(PM2.5),112,141,102,84,55,138,,66,66,21,32,32,17,1.6,1.3
2025-05-03T1400,2489A,112.0194,27.7314,娄底市,市委党校,细颗粒物(PM2.5),77,102,94,56,46,132,,75,75,16,19,13,5,1.0,0.6
2025-05-03T1400,2490A,111.9561,27.7569,娄底市,涟钢,细颗粒物(PM2.5),87,118,98,64,48,111,,68,68,17,18,16,16,1.6,0.8
2025-05-03T1400,2491A,111.9892,27.7044,娄底市,市政府,颗粒物(PM10),60,70,84,40,42,144,,76,76,10,14,9,6,0.7,0.5
2025-05-03T1400,1893A,105.4324,28.9634,泸州市,九狮山,,,,,,,,,,,,,,,,
2025-05-03T1400,1894A,105.4427,28.9063,泸州市,小市上码头,细颗粒物(PM2.5),72,89,135,52,80,155,,84,84,16,37,11,10,0.6,0.8
2025-05-03T1400,1895A,105.4241,28.8573,泸州市,兰田宪桥,细颗粒物(PM2.5),82,89,111,60,75,153,,78,78,10,24,14,11,0.5,0.7
2025-05-03T1400,1896A,105.4379,28.8833,泸州市,市环监站,,,,,,,,,,,,,,,,
2025-05-03T1400,4272A,105.3689,28.7783,泸州市,纳溪中医医院,细颗粒物(PM2.5),77,93,122,56,74,152,,71,71,11,32,15,10,0.5,0.7
2025-05-03T1400,2183A,111.1406,37.5211,吕梁市,环保局,,30,16,72,3,24,95,,73,73,5,9,2,3,0.2,0.3
2025-05-03T1400,2185A,111.1297,37.5136,吕梁市,自来水公司,,30,17,67,3,22,93,,72,72,6,10,2,3,0.3,0.4
2025-05-03T1400,2867A,111.1283,37.51,吕梁市,马茂庄小学,,31,16,71,3,21,97,,74,74,6,11,2,4,0.2,0.3
2025-05-03T1400,1812A,112.3931,34.6516,洛阳市,市委党校,,45,40,98,31,39,129,,107,107,6,29,6,8,0.5,0.6
2025-05-03T1400,1815A,112.494,34.6886,洛阳市,河南林校,,41,36,130,17,37,130,,105,105,7,12,8,9,0.4,0.5
2025-05-03T1400,1816A,112.3844,34.623,洛阳市,开发区管委会,细颗粒物(PM2.5),62,48,108,44,52,130,,105,105,11,14,7,9,0.4,0.5
2025-05-03T1400,1817A,112.4267,34.6258,洛阳市,市委新办公区,,40,38,102,18,32,127,,103,103,10,13,6,8,0.4,0.5
2025-05-03T1400,3340A,112.6005,34.6326,洛阳市,伊滨,颗粒物(PM10),67,83,153,27,40,140,,110,110,8,14,7,8,0.5,0.6
2025-05-03T1400,3341A,112.4951,34.6332,洛阳市,中移产业园,,50,50,151,32,40,137,,109,109,8,12,8,8,0.5,0.7
2025-05-03T1400,3593A,112.5736,34.8993,洛阳市,吉利监测站,颗粒物(PM10),56,62,148,28,43,138,,101,101,8,14,10,10,0.5,0.6
2025-05-03T1400,3635A,112.3677,34.662,洛阳市,河科大西苑校区,,45,44,116,20,30,141,,114,114,8,12,8,9,0.5,0.6
2025-05-03T1400,3636A,112.4388,34.6781,洛阳市,英才小学,细颗粒物(PM2.5),64,,105,46,44,142,,114,114,11,15,6,7,0.6,0.7
2025-05-03T1400,4214A,112.4600,34.6949,洛阳市,春都路1号院,细颗粒物(PM2.5),72,56,125,52,46,142,,114,114,8,12,6,6,0.5,0.6
2025-05-03T1400,2399A,114.051,33.5699,漯河市,三五一五工厂,,35,27,102,8,29,109,,103,93,3,7,4,5,0.4,0.6
2025-05-03T1400,2400A,114.0055,33.5698,漯河市,漯河大学,细颗粒物(PM2.5),110,,107,83,34,108,,104,93,4,7,6,6,0.3,0.4
2025-05-03T1400,2401A,114.0138,33.5828,漯河市,市水利局,颗粒物(PM10),51,51,129,9,31,108,,101,91,4,7,4,5,0.5,0.5
2025-05-03T1400,2402A,114.0261,33.5698,漯河市,市广电局,,35,34,109,9,31,109,,102,93,4,8,4,4,0.3,0.4
2025-05-03T1400,3478A,113.9749,33.5664,漯河市,市图书馆,颗粒物(PM10),60,69,119,12,32,108,,100,92,8,11,3,4,0.4,0.5
2025-05-03T1400,4250A,114.0892,33.5882,漯河市,韶山路11号,颗粒物(PM10),52,53,111,7,29,104,,95,87,5,8,3,4,0.4,0.5
2025-05-03T1400,1798A,118.5092,31.6837,马鞍山市,湖东路四小,臭氧1小时,63,61,62,23,24,170,,144,144,9,13,10,9,0.8,0.7
2025-05-03T1400,1799A,118.5024,31.6449,马鞍山市,开发区,臭氧1小时,64,72,62,32,30,171,,144,144,14,22,10,10,0.8,0.7
2025-05-03T1400,1802A,118.6245,31.7241,马鞍山市,濮塘,臭氧1小时,58,61,65,26,29,166,,146,146,6,12,8,9,0.7,0.8
2025-05-03T1400,3633A,118.4918,31.6809,马鞍山市,雨山,颗粒物(PM10),61,71,64,25,27,166,,139,139,11,16,13,12,0.9,0.7
2025-05-03T1400,4191A,118.5274,31.72227,马鞍山市,慈湖高新区,颗粒物(PM10),60,70,71,29,30,160,,133,133,11,18,12,14,1.0,0.8
2025-05-03T1400,1686A,111.0286,21.4688,茂名市,电白南海,,32,29,32,22,20,67,,61,61,5,7,2,1,0.9,0.9
2025-05-03T1400,1687A,110.9294,21.6533,茂名市,茂石化七小,,27,27,33,14,15,60,,46,46,3,7,2,3,0.8,0.8
2025-05-03T1400,1688A,110.9107,21.6687,茂名市,健康路,,24,24,24,9,12,66,,55,55,2,4,2,2,0.8,0.8
2025-05-03T1400,1689A,110.8592,21.6828,茂名市,高岭,,36,36,40,12,12,63,,52,52,1,6,2,3,0.7,0.7
2025-05-03T1400,3450A,111.01,21.5165,茂名市,电白水东,,22,22,22,9,11,56,,53,53,7,9,1,1,0.7,0.8
2025-05-03T1400,2539A,104.0308,30.0478,眉山市,黑龙滩水库,臭氧1小时,75,52,46,30,25,180,,82,82,11,18,4,3,0.5,0.5
2025-05-03T1400,2540A,103.8416,30.0874,眉山市,气象局,颗粒物(PM10),55,60,96,29,51,156,,80,80,21,48,17,14,0.4,0.5
2025-05-03T1400,3137A,103.8578,30.0744,眉山市,市委党校,颗粒物(PM10),58,66,83,24,40,142,,80,80,24,49,12,10,0.5,0.6
2025-05-03T1400,3148A,103.8291,30.0564,眉山市,区人社局,,42,42,67,24,43,119,,67,67,33,59,13,13,0.6,0.7
2025-05-03T1400,1690A,116.1231,24.3284,梅州市,梅江月梅,,36,36,54,24,27,102,,90,90,9,11,5,8,0.8,0.8
2025-05-03T1400,1691A,116.0797,24.2719,梅州市,梅县新城,,43,43,56,29,29,114,,94,94,6,13,6,7,0.7,0.7
2025-05-03T1400,1692A,116.1248,24.2654,梅州市,环境监控中心,,47,47,59,28,29,116,,90,90,9,22,7,11,0.7,0.7
2025-05-03T1400,3315A,116.1233,24.2991,梅州市,梅龙,,41,41,53,26,28,113,,103,103,4,9,6,10,0.7,0.8
2025-05-03T1400,1878A,104.7778,31.4741,绵阳市,富乐山,颗粒物(PM10),64,77,64,25,32,118,,99,99,6,18,8,8,0.3,0.4
2025-05-03T1400,1880A,104.6697,31.4668,绵阳市,高新区自来水公司,,37,37,40,22,27,115,,103,103,7,27,3,4,0.4,0.6
2025-05-03T1400,1881A,104.7287,31.5075,绵阳市,三水厂,颗粒物(PM10),61,71,74,27,36,121,,89,89,7,35,8,8,0.3,0.6
2025-05-03T1400,3491A,104.69,31.5322,绵阳市,西科大附属小学,颗粒物(PM10),62,74,75,24,31,123,,99,99,5,29,7,8,0.3,0.5
2025-05-03T1400,3492A,104.5648,31.5343,绵阳市,安州区旅游局,,48,48,58,14,26,130,,100,100,7,19,9,9,0.3,0.5
2025-05-03T1400,4226A,104.7651,31.4531,绵阳市,绵阳市气象局,颗粒物(PM10),71,92,71,23,31,107,,85,85,13,27,2,4,0.3,0.5
2025-05-03T1400,1784A,129.61,44.561,牡丹江市,环保大楼,,31,21,23,17,17,98,,85,85,8,15,6,6,0.2,0.3
2025-05-03T1400,1785A,129.6115,44.5782,牡丹江市,文化广场,,32,,30,20,22,100,,82,82,9,19,9,10,0.4,0.5
2025-05-03T1400,1786A,129.5904,44.5963,牡丹江市,第一医院,,33,,26,17,21,104,,91,91,4,13,6,8,0.3,0.4
2025-05-03T1400,1787A,129.6364,44.6075,牡丹江市,机车工厂,,31,,34,19,20,98,,78,78,7,16,5,27,0.4,0.5
2025-05-03T1400,1788A,129.6386,44.5462,牡丹江市,第一中学,,,,22,,16,104,,45,,,16,11,7,0.5,0.5
2025-05-03T1400,2531A,105.0703,29.61,内江市,市监测站,细颗粒物(PM2.5),77,100,77,56,52,117,,90,90,20,22,13,13,0.7,0.7
2025-05-03T1400,2532A,105.0717,29.5947,内江市,东兴区政府,细颗粒物(PM2.5),67,65,70,48,45,102,,90,90,28,24,16,16,0.6,0.6
2025-05-03T1400,2533A,105.0653,29.5817,内江市,内江二中,细颗粒物(PM2.5),78,89,85,57,52,84,,86,86,39,32,9,9,0.7,0.6
2025-05-03T1400,2534A,105.0406,29.5822,内江市,内江日报社,细颗粒物(PM2.5),75,61,73,55,53,96,,89,89,25,19,13,15,0.7,0.6
2025-05-03T1400,2628A,92.0657,31.4846,那曲市,那曲监测站,,36,14,23,8,13,115,,90,90,13,19,6,7,0.3,0.6
2025-05-03T1400,4243A,92.0515,31.4787,那曲市,那曲市委宣传部,,39,15,19,6,10,123,,100,100,4,9,5,5,0.2,0.4
2025-05-03T1400,1290A,115.8931,28.6843,南昌市,省外办,细颗粒物(PM2.5),64,76,58,46,33,152,,77,77,20,35,11,10,0.6,0.6
2025-05-03T1400,1291A,115.8886,28.7003,南昌市,省林业公司,颗粒物(PM10),67,83,68,39,31,145,,72,72,12,29,13,11,0.7,0.7
2025-05-03T1400,1292A,115.8126,28.7442,南昌市,林科所,颗粒物(PM10),63,75,51,36,24,156,,92,92,11,30,8,8,0.6,0.4
2025-05-03T1400,1294A,115.8518,28.687,南昌市,建工学校,颗粒物(PM10),66,82,69,31,39,147,,74,74,16,38,11,8,0.7,0.6
2025-05-03T1400,1295A,115.8921,28.6424,南昌市,象湖,颗粒物(PM10),63,76,56,36,27,158,,76,76,14,28,18,13,0.7,0.6
2025-05-03T1400,1296A,115.7423,28.7996,南昌市,武术学校,颗粒物(PM10),58,66,32,11,13,141,,71,71,3,4,11,6,0.7,0.5
2025-05-03T1400,3046A,115.9084,28.6062,南昌市,机电学校,颗粒物(PM10),72,93,68,41,31,154,,83,83,12,24,16,10,0.5,0.5
2025-05-03T1400,3690A,115.9721,28.7031,南昌市,外国语学校,颗粒物(PM10),69,87,65,35,27,162,,94,94,11,21,13,12,0.4,0.4
2025-05-03T1400,4192A,115.9316,28.68677,南昌市,南京东路235号,颗粒物(PM10),74,98,80,42,29,168,,93,93,16,30,16,14,0.9,0.8
2025-05-03T1400,1905A,106.056,30.8064,南充市,西山风景区,,,,,,,,,,,,,,,,
2025-05-03T1400,1906A,106.0789,30.8023,南充市,南充市委,颗粒物(PM10),64,77,88,37,39,156,,96,96,9,25,5,6,0.5,0.6
2025-05-03T1400,1907A,106.1031,30.8217,南充市,南充炼油厂,颗粒物(PM10),60,69,88,26,42,145,,96,96,6,25,5,6,0.5,0.6
2025-05-03T1400,4227A,106.1083,30.7884,南充市,梨树横街98号,颗粒物(PM10),63,75,99,20,40,147,,90,90,10,31,4,5,0.3,0.4
2025-05-03T1400,4304A,106.1172,30.843,南充市,清泉寺北路188号,颗粒物(PM10),60,69,90,26,38,144,,96,96,8,20,5,7,0.1,0.2
2025-05-03T1400,4305A,106.067,30.7616,南充市,同庆路1号,颗粒物(PM10),69,87,90,34,40,152,,98,98,11,37,4,5,0.4,0.3
2025-05-03T1400,1151A,118.8086,32.1065,南京市,迈皋桥,,49,49,47,12,23,137,,124,124,2,12,4,5,0.4,0.7
2025-05-03T1400,1152A,118.7538,32.0551,南京市,草场门,颗粒物(PM10),52,53,63,14,24,141,,129,129,12,19,3,4,0.2,0.5
2025-05-03T1400,1153A,118.7794,32.0745,南京市,山西路,颗粒物(PM10),60,70,73,14,21,147,,133,133,18,20,4,7,0.3,0.5
2025-05-03T1400,1154A,118.7752,32.0023,南京市,中华门,颗粒物(PM10),54,58,58,17,22,135,,122,122,7,13,6,8,0.3,0.4
2025-05-03T1400,1155A,118.8109,32.0309,南京市,瑞金路,,45,44,56,12,20,142,,129,129,10,10,6,6,0.4,0.4
2025-05-03T1400,1156A,118.7997,32.0754,南京市,玄武湖,,42,42,52,12,17,134,,120,120,4,7,7,9,0.5,0.6
2025-05-03T1400,1157A,118.6414,32.0931,南京市,浦口,,47,45,67,12,18,150,,122,122,12,14,7,7,0.5,0.4
2025-05-03T1400,1158A,118.7356,31.9996,南京市,奥体中心,颗粒物(PM10),51,52,58,17,21,156,,140,140,10,13,4,7,0.4,0.5
2025-05-03T1400,1159A,118.9125,32.1028,南京市,仙林大学城,,44,41,58,17,21,140,,128,128,8,14,9,11,0.4,0.5
2025-05-03T1400,3422A,118.8436,31.9198,南京市,江宁彩虹桥,,46,44,61,19,23,145,,132,132,9,16,3,5,0.4,0.6
2025-05-03T1400,3427A,118.8554,32.3578,南京市,六合雄州,,42,37,62,11,22,133,,123,123,18,21,6,9,0.4,0.6
2025-05-03T1400,4249A,118.8708,31.3402,南京市,汶溪路181号,颗粒物(PM10),66,82,57,34,25,167,,133,133,13,15,3,4,0.5,0.4
2025-05-03T1400,4312A,119.019,31.6512,南京市,中山西路1号,臭氧1小时,55,56,46,28,25,164,,139,139,12,14,5,7,0.6,0.7
2025-05-03T1400,1401A,108.3103,22.7881,南宁市,二十一中,,37,36,35,21,24,116,,92,92,5,9,4,5,0.6,0.8
2025-05-03T1400,1402A,108.3141,22.8528,南宁市,北湖,,40,29,37,18,26,126,,99,99,7,10,7,7,0.7,0.9
2025-05-03T1400,1403A,108.3206,22.8225,南宁市,市监测站,,47,47,35,20,26,106,,84,84,9,9,6,6,0.5,0.7
2025-05-03T1400,1404A,108.3829,22.8037,南宁市,大自然花园,,37,30,35,21,26,117,,91,91,4,7,6,6,0.5,0.8
2025-05-03T1400,1405A,108.4394,22.7904,南宁市,仙葫,,33,28,34,16,28,103,,80,80,5,8,7,7,0.6,0.9
2025-05-03T1400,1406A,108.2397,22.8467,南宁市,区农职院,,49,49,39,16,25,111,,90,90,6,10,4,6,0.5,0.8
2025-05-03T1400,1407A,108.3275,22.735,南宁市,英华嘉园,,35,26,34,20,26,112,,85,85,9,13,8,9,0.4,0.6
2025-05-03T1400,3401A,108.4834,22.7618,南宁市,红星社区,,41,32,36,16,31,129,,89,89,3,9,10,10,0.5,0.8
2025-05-03T1400,4221A,108.2177,22.7774,南宁市,乐贤路16号,,33,30,41,22,26,103,,78,78,4,14,6,6,0.5,0.6
2025-05-03T1400,2331A,118.0966,26.6761,南平市,茫荡山,,,,,,,,,,,,,,,,
2025-05-03T1400,2332A,118.1681,26.6369,南平市,南平市监测站,颗粒物(PM10),55,59,37,28,20,140,,111,111,6,8,6,5,0.8,0.7
2025-05-03T1400,2333A,118.1825,26.6489,南平市,南平铝业有限公司,,50,50,42,23,17,138,,107,107,3,6,5,4,0.7,0.6
2025-05-03T1400,2334A,118.1756,26.6272,南平市,南平七中,颗粒物(PM10),57,63,60,29,23,147,,116,116,5,7,6,5,0.8,0.6
2025-05-03T1400,1168A,120.9098,31.9663,南通市,狼山街道,颗粒物(PM10),57,63,70,16,25,130,,111,111,11,29,3,5,0.4,0.5
2025-05-03T1400,1169A,120.86,32.0005,南通市,虹桥,颗粒物(PM10),59,68,64,17,28,132,,111,111,10,31,1,3,0.5,0.7
2025-05-03T1400,1170A,120.87,32.02,南通市,城中,颗粒物(PM10),57,63,74,12,24,133,,110,110,12,27,3,5,0.4,0.5
2025-05-03T1400,1171A,120.94,31.93,南通市,星湖花园,颗粒物(PM10),56,62,65,18,25,126,,110,110,8,26,3,5,0.4,0.5
2025-05-03T1400,1172A,120.81,32.0417,南通市,紫琅学院,,50,50,68,12,23,122,,104,104,9,39,4,5,0.5,0.6
2025-05-03T1400,3291A,121.067,32.062,南通市,通州监测站,,48,48,66,14,23,126,,112,112,6,18,4,6,0.4,0.6
2025-05-03T1400,3432A,120.9348,31.9883,南通市,环境教育馆,颗粒物(PM10),57,63,73,14,25,132,,116,116,5,21,3,5,0.2,0.3
2025-05-03T1400,2404A,112.5224,33.0122,南阳市,瓦房庄,,42,42,100,7,26,116,,119,100,8,10,5,6,0.5,0.5
2025-05-03T1400,2405A,112.5003,32.9735,南阳市,汉画馆,,35,32,96,9,26,109,,114,94,8,10,5,6,0.3,0.4
2025-05-03T1400,2406A,112.5573,33.027,南阳市,气象站,,37,36,108,9,31,116,,119,99,6,8,4,6,0.2,0.2
2025-05-03T1400,2407A,112.5481,32.9689,南阳市,理工学院,,38,38,103,14,27,114,,116,97,8,10,4,5,0.4,0.4
2025-05-03T1400,4008A,112.5234,32.9922,南阳市,卧龙区政府,,40,40,115,14,32,117,,120,100,11,12,4,5,0.4,0.5
2025-05-03T1400,1234A,121.8358,29.911,宁波市,区环保大楼,颗粒物(PM10),72,93,56,29,19,154,,142,138,12,20,9,8,0.5,0.4
2025-05-03T1400,1235A,121.56,29.82,宁波市,万里学院,臭氧1小时,73,87,51,42,25,178,,149,149,17,12,8,6,0.5,0.5
2025-05-03T1400,1236A,121.713,29.9572,宁波市,龙赛医院,颗粒物(PM10),90,129,169,28,19,147,,146,146,8,5,8,6,0.7,0.6
2025-05-03T1400,1239A,121.633,29.7733,宁波市,钱湖水厂,臭氧1小时,74,82,49,33,20,179,,143,143,10,6,10,8,0.4,0.4
2025-05-03T1400,1240A,121.5856,29.8635,宁波市,太古小学,颗粒物(PM10),69,88,55,36,21,162,,141,141,13,9,8,6,0.9,0.8
2025-05-03T1400,1241A,121.524,29.8674,宁波市,市环境监测中心,颗粒物(PM10),66,82,49,24,19,163,,132,132,12,14,9,9,0.6,0.5
2025-05-03T1400,2871A,121.6147,29.9017,宁波市,万里国际学校,颗粒物(PM10),61,72,48,36,21,162,,148,148,16,7,10,8,0.6,0.5
2025-05-03T1400,3710A,121.5594,29.8975,宁波市,白沙活动中心,颗粒物(PM10),64,77,45,32,19,156,,136,136,8,6,8,8,0.6,0.6
2025-05-03T1400,2339A,119.5001,26.6946,宁德市,金涵水库,,,,,,,,,,,,,,,,
2025-05-03T1400,2341A,119.5388,26.6612,宁德市,宁德市监测站,颗粒物(PM10),52,53,49,26,24,159,,118,118,15,14,8,6,0.6,0.5
2025-05-03T1400,3209A,119.5231,26.6562,宁德市,宁德一中,颗粒物(PM10),51,51,44,31,23,158,,120,120,10,9,9,7,0.3,0.4
2025-05-03T1400,2618A,98.8601,25.8567,怒江傈僳族自治州,州监测站,,29,29,31,19,16,56,,41,37,6,8,6,6,0.3,0.2
2025-05-03T1400,2619A,98.8546,25.8417,怒江傈僳族自治州,泸水一中,,38,,27,26,17,44,,22,21,8,14,6,6,0.3,0.4
2025-05-03T1400,1888A,101.6891,26.571,攀枝花市,弄弄坪,,35,15,26,14,13,112,,80,80,6,13,8,10,0.4,0.6
2025-05-03T1400,1889A,101.5769,26.5928,攀枝花市,河门口,,35,22,31,9,16,110,,70,70,6,16,8,10,0.5,0.6
2025-05-03T1400,1890A,101.7169,26.585,攀枝花市,炳草岗,,37,15,34,8,16,118,,72,72,7,20,17,11,0.6,0.6
2025-05-03T1400,1891A,101.7369,26.5008,攀枝花市,仁和,,35,19,24,12,13,109,,79,79,5,10,9,9,0.4,0.5
2025-05-03T1400,2835A,101.7227,26.567,攀枝花市,四十中小,,36,26,26,16,16,114,,90,90,5,15,8,10,0.4,0.6
2025-05-03T1400,1604A,122.0303,41.1489,盘锦市,开发区,颗粒物(PM10),51,51,21,3,17,103,,87,87,4,12,6,9,0.3,0.4
2025-05-03T1400,1605A,122.0485,41.0883,盘锦市,兴隆台,,47,47,24,10,10,93,,76,76,8,17,6,8,0.4,0.5
2025-05-03T1400,1606A,121.8297,41.1028,盘锦市,新生街道,,32,29,18,3,8,102,,84,84,9,18,8,9,0.3,0.4
2025-05-03T1400,1832A,113.3257,33.742,平顶山市,新华旅馆,,42,42,115,18,28,122,,108,102,8,11,5,5,0.4,0.4
2025-05-03T1400,1833A,113.2919,33.737,平顶山市,规划设计院,,38,36,90,16,33,121,,110,101,6,10,4,4,0.4,0.5
2025-05-03T1400,1834A,113.182,33.774,平顶山市,平顶山工学院,,42,42,91,12,22,129,,111,106,4,8,5,6,0.2,0.3
2025-05-03T1400,3204A,113.3025,33.73,平顶山市,规划局,,39,39,108,9,26,122,,109,102,4,6,6,6,0.3,0.4
2025-05-03T1400,3594A,112.8867,33.9116,平顶山市,石龙区,颗粒物(PM10),59,67,114,15,34,143,,111,111,10,11,9,8,0.2,0.2
2025-05-03T1400,2656A,106.6692,35.5461,平凉市,聚贤嘉苑,,,,,,,,,,,,,,,,
2025-05-03T1400,2657A,106.7021,35.5307,平凉市,博物馆,颗粒物(PM10),78,105,216,18,43,110,,92,92,7,6,12,10,0.5,0.4
2025-05-03T1400,2347A,114.0997,27.5002,萍乡市,武功山,,43,43,43,13,17,115,,89,89,9,8,15,15,0.5,0.4
2025-05-03T1400,2348A,113.8385,27.6434,萍乡市,中医院,颗粒物(PM10),51,51,63,25,29,135,,85,85,2,14,11,14,0.7,0.9
2025-05-03T1400,2349A,113.8493,27.6253,萍乡市,市政府车库,,41,33,54,28,33,129,,81,81,4,15,7,11,0.4,0.9
2025-05-03T1400,2350A,113.8676,27.6435,萍乡市,市环保局,颗粒物(PM10),51,51,70,28,35,134,,83,83,4,18,8,12,0.6,0.8
2025-05-03T1400,2351A,113.866,27.6198,萍乡市,安源区政府,,49,49,68,23,27,117,,71,71,4,14,8,10,0.5,1.1
2025-05-03T1400,2319A,119.0141,25.4325,莆田市,荔城区仓后路,臭氧1小时,69,58,52,28,24,175,,111,111,12,14,4,5,0.6,0.6
2025-05-03T1400,2320A,119.0015,25.4553,莆田市,莆田市监测站,臭氧1小时,69,83,44,26,21,175,,114,114,14,10,7,5,0.4,0.5
2025-05-03T1400,2321A,119.1119,25.4561,莆田市,涵江区六中,臭氧1小时,79,65,54,40,23,183,,126,126,14,16,6,5,0.5,0.5
2025-05-03T1400,2322A,119.1013,25.3215,莆田市,秀屿区政府,臭氧1小时,77,60,58,36,30,181,,115,115,9,17,7,6,0.6,0.6
2025-05-03T1400,2323A,118.981,25.4792,莆田市,东圳水库,,,,,,,,,,,,,,,,
2025-05-03T1400,2392A,115.0312,35.7636,濮阳市,环保局,,33,32,90,3,19,104,,88,88,8,12,6,7,0.5,0.6
2025-05-03T1400,2394A,115.0574,35.7609,濮阳市,油田运输公司,,36,35,85,21,22,114,,96,96,4,11,5,7,0.4,0.6
2025-05-03T1400,3021A,115,35.7668,濮阳市,濮水河管理处,,35,35,62,3,19,110,,92,92,6,11,5,6,0.5,0.7
2025-05-03T1400,4216A,115.0924,35.7686,濮阳市,任丘路479号,,35,25,74,3,20,110,,90,90,8,12,6,7,0.2,0.5
2025-05-03T1400,2601A,100.98,22.7633,普洱市,市环保局,,,22,29,3,11,64,,38,38,,5,6,6,0.4,0.5
2025-05-03T1400,2602A,100.9817,22.8322,普洱市,普洱第二中学,,21,14,18,7,9,67,,41,41,4,10,6,6,0.4,0.6
2025-05-03T1400,2262A,131.0518,45.8751,七台河市,新一中,,34,12,22,3,13,108,,95,95,6,11,11,11,0.5,0.6
2025-05-03T1400,3345A,131.0577,45.7879,七台河市,中波台,,29,11,26,6,13,92,,80,80,8,20,5,8,0.4,1
2025-05-03T1400,3637A,131.0176,45.7761,七台河市,人民广场,细颗粒物(PM2.5),75,68,44,55,27,95,,83,83,10,23,9,11,0.5,0.5
2025-05-03T1400,3684A,130.8781,45.8222,七台河市,新建矿广场,,28,12,38,6,14,88,,78,78,13,18,10,11,0.4,0.5
2025-05-03T1400,1779A,123.9305,47.3636,齐齐哈尔市,安居小区,,36,36,24,18,12,77,,71,71,6,11,4,4,0.3,0.3
2025-05-03T1400,1780A,123.9488,47.3386,齐齐哈尔市,中心广场,,29,29,27,3,10,80,,72,72,6,12,8,8,0.3,0.3
2025-05-03T1400,1781A,123.9483,47.3227,齐齐哈尔市,农牧车辆厂,,29,29,28,10,15,79,,72,72,5,10,4,4,0.2,0.3
2025-05-03T1400,1783A,123.945,47.2988,齐齐哈尔市,市环境监测站,,25,24,24,3,10,80,,74,74,4,7,2,3,0.4,0.4
2025-05-03T1400,3662A,123.6333,47.2075,齐齐哈尔市,富区青少年活动中心,,,19,24,3,13,73,,63,63,,9,2,2,0.5,0.5
2025-05-03T1400,2591A,107.9783,26.5747,黔东南苗族侗族自治州,市环境监测站,,41,41,50,24,28,111,,96,96,5,14,4,4,0.4,0.5
2025-05-03T1400,2881A,107.8908,26.5311,黔东南苗族侗族自治州,凯里学院,,39,36,45,26,24,123,,100,100,3,7,3,4,0.4,0.4
2025-05-03T1400,2593A,107.5228,26.2403,黔南布依族苗族自治州,小围寨,,40,27,35,17,19,127,,96,96,5,9,4,4,0.2,0.2
2025-05-03T1400,3538A,107.5175,26.2978,黔南布依族苗族自治州,沙坝,,38,27,42,17,21,119,,80,80,5,12,5,4,0.4,0.3
2025-05-03T1400,2589A,104.9022,25.0925,黔西南布依族苗族自治州,场坝街,,35,11,50,6,26,112,,78,78,9,13,3,13,0.4,0.4
2025-05-03T1400,2590A,104.8811,25.0992,黔西南布依族苗族自治州,坪东大道,,35,,35,17,20,109,,80,80,9,18,4,8,0.3,0.4
2025-05-03T1400,2502A,108.6236,21.9667,钦州市,市环保站,,36,36,32,14,18,79,,67,67,8,15,5,6,0.7,0.8
2025-05-03T1400,2503A,108.6549,21.9481,钦州市,沙埠小学,,47,47,39,19,24,75,,66,66,8,18,8,8,0.6,0.9
2025-05-03T1400,2504A,108.5989,21.7431,钦州市,港区一小,,42,42,39,15,18,55,,75,65,7,13,7,8,0.5,0.7
2025-05-03T1400,3404A,108.5959,21.9633,钦州市,北职校,,30,30,33,12,21,67,,64,64,9,16,9,9,0.6,0.8
2025-05-03T1400,1043A,119.7493,40.0116,秦皇岛市,第一关,,33,33,31,8,18,100,,85,85,4,29,3,4,0.2,0.3
2025-05-03T1400,1044A,119.5897,39.9499,秦皇岛市,监测站,,31,25,36,3,14,99,,76,76,2,20,3,4,0.2,0.4
2025-05-03T1400,1046A,119.5251,39.9041,秦皇岛市,建设大厦,,31,19,41,3,17,98,,74,74,5,26,2,3,0.2,0.3
2025-05-03T1400,3132A,119.610547,39.943889,秦皇岛市,文明里,,31,22,34,6,14,97,,75,75,4,21,2,3,0.1,0.3
2025-05-03T1400,4198A,119.5090,39.8253,秦皇岛市,北戴河轮滑馆,,30,,27,6,17,95,,76,76,2,18,3,4,0.1,0.3
2025-05-03T1400,1307A,120.6659,36.2403,青岛市,仰口,,37,24,33,11,16,116,,106,106,5,8,7,7,0.5,0.5
2025-05-03T1400,1310A,120.4134,36.0658,青岛市,市南区东部子站,颗粒物(PM10),52,53,45,9,12,112,,101,101,9,10,8,8,0.5,0.4
2025-05-03T1400,1311A,120.3664,36.1032,青岛市,四方区子站,,48,48,39,12,14,123,,112,112,13,21,1,2,0.5,0.6
2025-05-03T1400,1312A,120.2994,36.054,青岛市,市南区西部子站,,34,34,37,7,12,106,,96,96,19,16,10,8,0.6,0.7
2025-05-03T1400,1313A,120.4581,36.0858,青岛市,崂山区子站,,39,39,38,3,9,123,,108,108,7,9,9,8,0.6,0.5
2025-05-03T1400,1315A,120.3999,36.3083,青岛市,城阳区子站,,39,39,35,15,12,118,,101,101,9,14,6,4,0.5,0.4
2025-05-03T1400,1966A,120.0405,35.8735,青岛市,黄岛区4号,,48,48,42,3,13,113,,101,101,8,14,8,8,0.5,0.5
2025-05-03T1400,3362A,120.5014,36.4034,青岛市,即墨2号,,38,38,33,12,13,120,,102,102,4,8,8,8,0.6,0.5
2025-05-03T1400,3642A,120.3503,36.0736,青岛市,市北区南部,颗粒物(PM10),52,54,43,7,14,101,,90,90,8,10,9,7,0.6,0.6
2025-05-03T1400,3643A,120.3948,36.1805,青岛市,李沧区北部,颗粒物(PM10),53,56,39,12,16,107,,96,96,10,15,9,9,0.6,0.5
2025-05-03T1400,4290A,120.1969,35.9546,青岛市,珠江路669号,颗粒物(PM10),58,66,43,20,18,114,,96,96,9,17,8,7,0.6,0.6
2025-05-03T1400,1702A,113.0426,23.691,清远市,环保大楼,颗粒物(PM10),65,79,55,40,34,126,,86,80,11,16,7,7,0.8,0.8
2025-05-03T1400,1703A,113.0208,23.7106,清远市,凤城街办,细颗粒物(PM2.5),58,52,56,41,30,119,,77,77,13,18,7,7,0.6,0.6
2025-05-03T1400,3025A,113.0477,23.6344,清远市,技师学院,细颗粒物(PM2.5),58,55,55,41,33,108,,70,67,13,18,7,8,0.6,0.6
2025-05-03T1400,3318A,112.9903,23.7403,清远市,清新太和,细颗粒物(PM2.5),55,52,54,39,30,128,,88,84,10,14,9,8,0.7,0.7
2025-05-03T1400,3455A,113.076,23.7198,清远市,清城东城,细颗粒物(PM2.5),60,63,63,43,35,117,,78,78,10,16,9,8,0.7,0.7
2025-05-03T1400,2661A,107.6325,35.7357,庆阳市,庆阳五中,,38,38,186,13,51,110,,92,92,4,5,3,3,0.4,0.4
2025-05-03T1400,2662A,107.6364,35.7067,庆阳市,市环保局,,41,41,180,14,46,111,,93,93,4,5,6,6,0.3,0.4
2025-05-03T1400,1916A,103.7897,25.5035,曲靖市,环境监测站,,41,33,28,12,12,129,,92,92,12,13,7,6,0.4,0.4
2025-05-03T1400,1917A,103.8,25.5364,曲靖市,烟厂办公区,,42,26,31,3,13,133,,94,94,9,10,3,5,0.4,0.5
2025-05-03T1400,3376A,103.7947,25.462,曲靖市,南苑二区,,40,27,28,13,12,126,,91,91,10,11,9,6,0.5,0.5
2025-05-03T1400,3377A,103.7444,25.5261,曲靖市,曲靖师范学院,,38,12,32,10,20,121,,88,88,6,13,9,13,0.4,0.4
2025-05-03T1400,1264A,118.8692,28.9398,衢州市,环保大楼,,46,46,46,19,21,131,,68,68,7,22,5,4,0.5,0.5
2025-05-03T1400,1265A,118.8709,28.9666,衢州市,实验学校,,45,45,54,21,28,141,,74,74,9,26,7,6,0.4,0.4
2025-05-03T1400,1266A,118.8621,28.9808,衢州市,衢州学院,,46,46,57,24,30,125,,70,70,11,31,8,6,0.3,0.4
2025-05-03T1400,1611A,118.5819,24.9117,泉州市,涂山街,颗粒物(PM10),52,54,64,24,28,155,,116,116,7,13,5,5,0.6,0.6
2025-05-03T1400,1612A,118.5972,24.8978,泉州市,津头埔,颗粒物(PM10),55,60,64,28,30,154,,119,119,15,19,4,4,0.6,0.7
2025-05-03T1400,1613A,118.6663,24.9424,泉州市,万安,臭氧1小时,103,106,64,57,28,206,,132,132,20,17,9,5,0.6,0.6
2025-05-03T1400,1614A,118.6117,24.9604,泉州市,清源山,,,,,,,,,,,,,,,,
2025-05-03T1400,3529A,118.6333,24.9264,泉州市,城华南路,臭氧1小时,100,99,56,58,29,200,,122,122,20,15,8,5,0.7,0.6
2025-05-03T1400,2626A,88.8876,29.2718,日喀则市,日喀则监测站,,43,15,42,3,7,136,,108,107,3,6,6,5,0.3,0.4
2025-05-03T1400,3726A,88.8781,29.2426,日喀则市,林业技术推广中心,,44,11,26,3,5,139,,113,113,3,4,6,7,0.2,0.2
2025-05-03T1400,1659A,119.471,35.4209,日照市,监测站,,48,48,66,17,24,124,,106,106,11,14,7,6,0.5,0.6
2025-05-03T1400,1660A,119.523,35.4216,日照市,市政府广场,,39,36,57,26,22,124,,102,102,9,11,5,5,0.4,0.5
2025-05-03T1400,1661A,119.5587,35.4044,日照市,港务局,,46,46,59,17,28,125,,106,106,12,12,6,7,0.6,0.8
2025-05-03T1400,3507A,119.5328,35.4625,日照市,职业技术学院,,48,48,54,12,18,126,,106,106,7,8,6,6,0.5,0.6
2025-05-03T1400,3604A,119.3266,35.1044,日照市,岚山环保分局,,48,48,68,22,25,138,,112,112,18,17,8,9,0.7,1.1
2025-05-03T1400,1835A,111.1922,34.7752,三门峡市,市政府,颗粒物(PM10),63,76,94,33,47,149,,127,127,11,14,7,7,0.7,0.8
2025-05-03T1400,1836A,111.1587,34.7942,三门峡市,开发区,颗粒物(PM10),56,61,101,30,43,138,,114,114,11,13,8,8,0.7,0.8
2025-05-03T1400,1838A,111.143,34.7955,三门峡市,风景区,颗粒物(PM10),59,67,100,20,35,138,,111,111,8,10,10,10,0.5,0.6
2025-05-03T1400,3039A,111.1911,34.7829,三门峡市,三门峡市第一小学,颗粒物(PM10),56,62,105,21,43,149,,128,128,9,12,10,10,0.6,0.7
2025-05-03T1400,3598A,111.1,34.7167,三门峡市,富达温泉假日酒店,颗粒物(PM10),59,68,105,30,42,141,,111,111,9,13,6,8,0.8,0.8
2025-05-03T1400,2324A,117.6211,26.2625,三明市,三钢,颗粒物(PM10),58,65,47,32,29,142,,17,,9,22,9,8,0.7,1.6
2025-05-03T1400,2325A,117.635,26.2714,三明市,三明二中,颗粒物(PM10),59,68,46,29,22,136,,92,92,8,23,7,7,0.5,1
2025-05-03T1400,2326A,117.6028,26.2378,三明市,三元区政府,颗粒物(PM10),58,66,48,31,23,135,,87,87,9,20,7,6,0.6,0.6
2025-05-03T1400,2327A,117.7275,26.3108,三明市,洋溪,,,,,,,,,,,,,,,,
2025-05-03T1400,1876A,109.5078,18.2489,三亚市,河东子站,,22,22,22,13,13,58,,50,50,2,5,3,3,0.4,0.4
2025-05-03T1400,1877A,109.4964,18.2681,三亚市,河西子站,,20,17,21,12,12,62,,51,51,2,7,2,2,0.3,0.3
2025-05-03T1400,3540A,109.7348,18.3443,三亚市,君悦子站,,20,19,24,13,12,62,,52,52,3,8,3,3,0.3,0.3
2025-05-03T1400,2624A,91.7608,29.2313,山南市,山南监测站,,,21,15,7,8,136,,130,120,3,5,3,3,,0.5
2025-05-03T1400,2625A,91.7706,29.2436,山南市,山南人民医院,,44,39,26,14,11,140,,138,127,4,5,4,4,0.4,0.4
2025-05-03T1400,1674A,116.6794,23.3667,汕头市,金平子站,,47,47,48,19,35,144,,120,120,8,12,7,7,0.7,0.9
2025-05-03T1400,1675A,116.7244,23.3633,汕头市,龙湖子站,,43,38,47,16,42,136,,123,123,5,6,6,6,0.6,0.7
2025-05-03T1400,1676A,116.7258,23.2775,汕头市,濠江子站,,44,44,57,25,43,138,,120,120,12,12,6,6,0.5,0.6
2025-05-03T1400,1677A,116.7519,23.4714,汕头市,澄海子站,,45,39,49,24,34,143,,116,116,10,13,3,4,0.8,0.8
