timepoint,stationcode,longitude,latitude,area,positionname,primarypollutant,aqi,pm10,pm10_24h,pm2_5,pm2_5_24h,o3,o3_24h,o3_8h,o3_8h_24h,no2,no2_24h,so2,so2_24h,co,co_24h
2025-05-17T1200,2566A,102.1879,31.914,阿坝藏族羌族自治州,州农科所,颗粒物(PM10),93,135,34,25,11,62,,36,36,18,11,16,12,0.7,0.7
2025-05-17T1200,2568A,102.2502,31.8896,阿坝藏族羌族自治州,马师校,,36,,19,25,19,83,,28,28,18,11,5,5,0.5,0.5
2025-05-17T1200,3994A,102.2165,31.9024,阿坝藏族羌族自治州,马尔康中学西区,,40,31,22,28,17,95,,28,28,6,7,4,4,0.7,0.5
2025-05-17T1200,2695A,80.292,41.1694,阿克苏地区,电视台,颗粒物(PM10),111,171,133,50,46,79,,57,57,20,28,4,5,0.3,0.5
2025-05-17T1200,2696A,80.2613,41.1551,阿克苏地区,艺术中心,颗粒物(PM10),106,162,138,41,44,68,,41,41,14,25,3,4,0.3,0.4
2025-05-17T1200,2204A,105.6467,38.8363,阿拉善盟,西城区西花园,颗粒物(PM10),103,156,315,57,96,108,,94,89,9,7,5,5,0.7,0.6
2025-05-17T1200,2205A,105.6985,38.8411,阿拉善盟,蒙二幼,颗粒物(PM10),130,210,412,61,108,91,,86,79,7,6,8,8,0.4,0.4
2025-05-17T1200,2206A,105.724,38.8516,阿拉善盟,环保局新楼,颗粒物(PM10),129,208,361,72,119,97,,96,86,5,4,8,8,0.4,0.4
2025-05-17T1200,2708A,88.1264,47.8517,阿勒泰地区,市站,,35,35,25,3,4,84,,76,75,9,6,2,2,0.3,0.2
2025-05-17T1200,2630A,80.1161,32.5,阿里地区,阿里监测站,,36,11,8,9,7,115,,125,111,5,6,7,7,0.4,0.4
2025-05-17T1200,3192A,80.0903,32.5028,阿里地区,阿里藏医院,,39,13,18,6,6,123,,132,119,2,3,6,6,0.4,0.4
2025-05-17T1200,2642A,109.0318,32.6537,安康市,香溪洞,细颗粒物(PM2.5),60,63,61,43,36,98,,73,65,14,11,11,9,1.0,0.8
2025-05-17T1200,2644A,109.0072,32.6975,安康市,汉滨区检察院,颗粒物(PM10),66,81,64,43,34,106,,55,55,16,14,16,10,0.8,0.6
2025-05-17T1200,4054A,109.0325,32.6913,安康市,市邮政管理局,细颗粒物(PM2.5),77,90,72,56,40,88,,47,47,20,18,11,9,0.8,0.7
2025-05-17T1200,2291A,117.0809,30.5177,安庆市,环科院,,40,40,27,25,18,97,,51,51,2,28,5,3,0.8,0.8
2025-05-17T1200,2292A,117.0331,30.5119,安庆市,马山宾馆,,33,32,26,23,21,89,,40,40,15,33,6,4,0.9,0.9
2025-05-17T1200,2294A,116.9896,30.6145,安庆市,安庆大学,,33,27,29,23,24,103,,59,59,7,20,4,6,0.5,0.5
2025-05-17T1200,3173A,117.0598,30.5351,安庆市,市人大,,36,35,27,25,20,108,,60,60,6,21,9,8,0.7,0.6
2025-05-17T1200,3122A,105.9606,26.2611,安顺市,伍家关,,,,56,11,34,105,,84,84,5,9,3,4,0.4,0.5
2025-05-17T1200,3123A,105.9408,26.2431,安顺市,凤凰山,,31,19,57,9,49,98,,78,78,5,9,13,10,0.6,0.7
2025-05-17T1200,3124A,105.9439,26.2564,安顺市,金钟山,,30,25,63,13,52,95,,74,74,4,7,8,6,0.5,0.6
2025-05-17T1200,3125A,105.8983,26.2481,安顺市,娄家坡,,32,16,48,10,43,102,,78,78,5,9,8,8,0.5,0.6
2025-05-17T1200,1818A,114.4839,36.0621,安阳市,棉研所,,,,,,,,,,,,,,,,
2025-05-17T1200,1819A,114.3551,36.1017,安阳市,红庙街,颗粒物(PM10),184,317,198,33,45,95,,80,80,2,4,2,5,0.4,0.5
2025-05-17T1200,1820A,114.361,36.0681,安阳市,银杏小区,颗粒物(PM10),145,239,208,25,51,95,,80,80,3,5,2,5,0.1,0.3
2025-05-17T1200,3141A,114.3922,36.0878,安阳市,信访局,颗粒物(PM10),171,292,212,42,41,99,,86,85,4,9,2,4,0.4,0.5
2025-05-17T1200,3669A,114.4705,36.0637,安阳市,左辅环卫站,颗粒物(PM10),136,222,204,49,41,104,,87,87,10,18,2,5,0.2,0.4
2025-05-17T1200,3703A,114.2917,36.0949,安阳市,安钢职工学校,颗粒物(PM10),155,259,205,25,43,94,,79,79,4,8,2,7,0.2,0.5
2025-05-17T1200,1748A,123.044,41.1196,鞍山市,深沟寺,,20,19,23,11,15,64,,95,78,14,9,5,6,0.6,0.6
2025-05-17T1200,1749A,123.011,41.0931,鞍山市,太阳城,,23,22,27,16,18,61,,94,76,16,9,8,7,0.9,0.6
2025-05-17T1200,1750A,123.0485,41.1442,鞍山市,太平,,22,19,29,12,15,68,,93,78,12,10,8,9,0.7,0.6
2025-05-17T1200,1751A,122.9642,41.0971,鞍山市,铁西三道街,,22,22,35,12,18,67,,87,77,13,14,3,4,0.6,0.7
2025-05-17T1200,1753A,123.022,41.0821,鞍山市,明达新区,,20,20,25,14,16,57,,92,74,15,7,7,6,0.9,0.5
2025-05-17T1200,1754A,123.1289,41.0228,鞍山市,千山,,,,21,,10,,,117,,,6,,5,,0.5
2025-05-17T1200,4201A,122.9446,41.0826,鞍山市,兴盛南路290号,,21,19,38,11,16,67,,88,76,11,11,6,6,0.7,0.7
2025-05-17T1200,2195A,107.4212,40.761,巴彦淖尔市,附二中,,28,28,309,8,67,87,,68,68,6,7,4,3,0.5,0.4
2025-05-17T1200,2196A,107.37,40.7372,巴彦淖尔市,市环保大楼,,37,37,292,14,61,95,,72,72,11,11,5,4,0.2,0.2
2025-05-17T1200,1956A,86.1472,41.7538,巴音郭楞蒙古自治州,孔雀公园,,49,49,99,6,26,95,,72,72,11,34,9,8,0.2,0.4
2025-05-17T1200,1957A,86.1972,41.7166,巴音郭楞蒙古自治州,棉纺厂,,,,143,6,28,97,,78,78,7,28,4,4,0.2,0.3
2025-05-17T1200,1958A,86.2357,41.7173,巴音郭楞蒙古自治州,经济开发区,,31,28,123,3,27,97,,84,84,5,17,7,8,0.2,0.2
2025-05-17T1200,2914A,106.7677,31.8794,巴中市,苏山坪,细颗粒物(PM2.5),112,119,90,84,64,113,,80,77,15,13,6,6,0.7,0.6
2025-05-17T1200,3181A,106.7768,31.8526,巴中市,市五中,细颗粒物(PM2.5),110,108,81,83,53,109,,,,10,10,8,8,0.8,0.7
2025-05-17T1200,3183A,106.7418,31.8654,巴中市,圣泉水务公司,细颗粒物(PM2.5),113,109,89,85,66,119,,84,80,13,12,9,9,0.9,0.8
2025-05-17T1200,3616A,106.7616,31.8344,巴中市,市中心医院,细颗粒物(PM2.5),104,120,93,78,66,106,,72,72,9,12,6,6,0.8,0.7
2025-05-17T1200,2235A,122.7911,45.6077,白城市,洮北区环保局,,35,29,34,24,24,88,,84,84,7,8,5,4,0.4,0.4
2025-05-17T1200,2236A,122.8738,45.5725,白城市,市环保局,,33,24,25,23,23,91,,83,83,2,4,2,2,0.5,0.5
2025-05-17T1200,2231A,126.4219,41.9171,白山市,喜丰,,30,20,23,9,9,96,,123,97,16,8,10,7,0.7,0.6
2025-05-17T1200,2232A,126.4077,41.9419,白山市,环保局,,34,31,25,7,7,107,,121,102,8,9,10,11,0.7,0.6
2025-05-17T1200,2647A,104.1724,36.5446,白银市,第三小学,颗粒物(PM10),235,374,307,137,109,87,,90,84,5,5,11,26,0.4,0.3
2025-05-17T1200,2648A,104.1465,36.5482,白银市,动力公司,颗粒物(PM10),205,353,287,139,109,91,,86,84,8,8,13,15,0.3,0.2
2025-05-17T1200,2512A,106.6103,23.9011,百色市,市监测站,颗粒物(PM10),53,56,34,36,23,60,,36,36,14,12,14,11,0.8,0.7
2025-05-17T1200,2513A,106.6538,23.8859,百色市,市中心血站,"颗粒物(PM10),细颗粒物(PM2.5)",52,53,37,36,22,65,,36,36,11,13,11,10,0.7,0.6
2025-05-17T1200,3406A,106.6085,23.8798,百色市,祈福高中,,50,43,38,35,27,49,,27,27,14,14,16,12,0.6,0.6
2025-05-17T1200,2270A,117.396,32.939,蚌埠市,工人疗养院,颗粒物(PM10),54,58,43,15,21,138,,99,99,8,8,5,4,0.5,0.5
2025-05-17T1200,2271A,117.3605,32.9427,蚌埠市,百货大楼,颗粒物(PM10),53,55,42,25,22,137,,93,93,10,15,7,6,0.5,0.5
2025-05-17T1200,2273A,117.4185,32.8911,蚌埠市,蚌埠学院,,48,48,30,25,22,142,,95,95,4,9,4,3,0.5,0.5
2025-05-17T1200,2274A,117.3533,32.9673,蚌埠市,淮上区政府,颗粒物(PM10),52,53,37,25,25,145,,102,102,8,12,6,5,0.7,0.7
2025-05-17T1200,2275A,117.3145,32.8977,蚌埠市,高新区,颗粒物(PM10),57,63,40,27,25,140,,91,91,9,15,6,5,0.6,0.6
2025-05-17T1200,3715A,117.3092,32.9314,蚌埠市,蚌埠田家炳中学,颗粒物(PM10),58,66,45,20,23,140,,89,89,7,9,6,6,0.5,0.5
2025-05-17T1200,1585A,109.8756,40.6532,包头市,市环境监测站,,30,23,232,14,53,94,,88,85,10,7,14,9,0.4,0.2
2025-05-17T1200,1587A,109.9991,40.5842,包头市,包头八中,,31,25,227,17,51,97,,85,84,11,9,16,10,0.7,0.6
2025-05-17T1200,1588A,109.8538,40.6821,包头市,青山宾馆,,29,21,213,10,47,92,,89,86,7,4,9,7,0.5,0.4
2025-05-17T1200,1589A,109.8642,40.6288,包头市,惠龙物流,,31,26,246,3,40,98,,91,87,12,8,17,9,0.6,0.4
2025-05-17T1200,1590A,110.0377,40.5546,包头市,东河鸿龙湾,,31,27,221,14,44,98,,83,82,7,7,8,6,0.5,0.4
2025-05-17T1200,3283A,109.9154,40.5685,包头市,滨河大厦,,31,16,231,7,46,99,,87,86,4,4,12,7,0.4,0.4
2025-05-17T1200,3419A,109.9447,40.6261,包头市,包头市委党校,,,,233,,44,94,,84,83,,4,14,8,0.8,0.5
2025-05-17T1200,3683A,109.8331,40.6576,包头市,昆区政府,,29,18,228,11,42,90,,87,83,12,8,12,7,0.7,0.5
2025-05-17T1200,1930A,107.185,34.3063,宝鸡市,庙沟村,颗粒物(PM10),129,207,101,93,51,104,,93,90,10,9,12,8,0.4,0.4
2025-05-17T1200,1931A,107.0708,34.3017,宝鸡市,竹园沟,颗粒物(PM10),156,262,100,75,38,101,,73,73,6,7,6,4,0.3,0.3
2025-05-17T1200,1932A,107.1906,34.3672,宝鸡市,三陆医院,颗粒物(PM10),163,276,100,109,47,96,,54,54,7,26,7,9,0.4,0.5
2025-05-17T1200,1933A,107.1431,34.3547,宝鸡市,监测站,细颗粒物(PM2.5),127,,77,96,39,92,,61,61,8,14,7,6,0.3,0.3
2025-05-17T1200,1934A,107.1186,34.3739,宝鸡市,技工学校,颗粒物(PM10),165,279,96,85,36,95,,66,66,5,10,7,7,0.4,0.6
2025-05-17T1200,1935A,107.3906,34.3528,宝鸡市,陈仓区环保局家属楼,颗粒物(PM10),239,377,116,135,48,101,,63,63,8,19,5,13,0.3,0.4
2025-05-17T1200,1936A,107.2058,34.3497,宝鸡市,文理学院,细颗粒物(PM2.5),170,260,100,129,56,100,,72,72,6,14,9,8,0.3,0.4
2025-05-17T1200,1937A,107.2386,34.3622,宝鸡市,三迪小学,颗粒物(PM10),186,322,99,130,48,98,,60,60,7,21,7,8,0.2,0.3
2025-05-17T1200,1051A,115.493,38.8632,保定市,游泳馆,,43,43,146,26,51,96,,90,90,5,11,3,4,0.2,0.3
2025-05-17T1200,1052A,115.5213,38.8959,保定市,华电二区,,36,36,124,16,45,96,,92,89,2,6,3,4,0,0.4
2025-05-17T1200,1053A,115.4713,38.9108,保定市,接待中心,,37,37,127,13,47,96,,92,91,5,10,1,3,0.2,0.4
2025-05-17T1200,1054A,115.4612,38.8416,保定市,地表水厂,,,,161,,46,,,144,,,18,,3,,0.4
2025-05-17T1200,3581A,115.31981,38.95208,保定市,满城区生态环境分局,,,22,137,17,46,100,,100,98,2,7,1,4,,0.5
2025-05-17T1200,3582A,115.47694,38.76408,保定市,清苑区第二中学,,50,50,180,19,57,105,,96,96,2,7,1,4,0.2,0.4
2025-05-17T1200,3583A,115.62909,39.02311,保定市,徐水物探局,,33,33,150,12,42,92,,86,85,1,8,3,4,0,0.3
2025-05-17T1200,4004A,115.4202,38.8656,保定市,双鹰农机,,36,30,128,25,55,99,,94,94,1,9,3,4,0.2,0.4
2025-05-17T1200,4034A,115.5150,38.8590,保定市,植保所站,,45,45,127,26,47,95,,90,89,2,6,3,4,0.3,0.4
2025-05-17T1200,2594A,99.1678,25.1081,保山市,市环境监测站,,38,36,31,26,25,100,,62,62,8,7,7,7,0.5,0.5
2025-05-17T1200,2595A,99.1711,25.1328,保山市,市环保局,,39,37,34,27,21,108,,75,75,8,5,6,6,0.3,0.3
2025-05-17T1200,1866A,109.2262,21.588,北海市,牛尾岭水库,,,,,,,,,,,,,,,,
2025-05-17T1200,1867A,109.1436,21.4086,北海市,海滩公园,,21,13,12,3,3,66,,52,51,5,4,5,5,0.6,0.6
2025-05-17T1200,1868A,109.0981,21.4661,北海市,新市环保局,,20,13,11,9,6,64,,53,53,7,6,3,2,0.4,0.4
2025-05-17T1200,1869A,109.1778,21.5233,北海市,北海工业园,,20,16,16,7,8,64,,32,32,6,10,8,7,0.5,0.5
2025-05-17T1200,3400A,109.1911,21.4415,北海市,龙潭自来水厂,,20,11,12,7,7,64,,37,37,7,8,3,3,0.3,0.3
2025-05-17T1200,1001A,116.3621,39.8784,北京市,万寿西宫,,46,46,69,16,29,88,,82,82,11,11,2,5,0.4,0.6
2025-05-17T1200,1002A,116.2202,40.2915,北京市,定陵,,,,,,,,,,,,,,,,
2025-05-17T1200,1003A,116.4174,39.9289,北京市,东四,颗粒物(PM10),63,76,97,15,29,90,,83,83,4,10,2,4,0.3,0.5
2025-05-17T1200,1004A,116.4072,39.8863,北京市,天坛,,43,43,80,14,29,88,,83,83,8,11,1,3,0.2,0.4
2025-05-17T1200,1005A,116.462,39.9365,北京市,农展馆,,44,44,82,15,30,80,,74,74,7,10,3,5,0.1,0.5
2025-05-17T1200,1006A,116.3392,39.9295,北京市,官园,,50,50,89,14,29,83,,78,78,7,11,5,6,0.2,0.4
2025-05-17T1200,1007A,116.2878,39.9611,北京市,海淀万柳,,46,46,82,15,28,78,,72,72,9,14,4,6,0.2,0.4
2025-05-17T1200,1008A,116.6636,40.135,北京市,顺义新城,,39,39,78,17,40,92,,84,84,5,11,4,5,0.2,0.5
2025-05-17T1200,1009A,116.6275,40.3275,北京市,怀柔镇,,44,44,78,17,38,84,,80,77,9,12,2,3,0.5,0.7
2025-05-17T1200,1010A,116.2296,40.217,北京市,昌平镇,,35,35,71,22,39,83,,79,79,8,16,3,4,0.2,0.4
2025-05-17T1200,1011A,116.3966,39.9821,北京市,奥体中心,,39,39,78,14,29,79,,76,76,10,16,2,4,0.1,0.3
2025-05-17T1200,3281A,115.9718,40.4529,北京市,延庆夏都,,34,34,84,12,29,84,,82,82,8,12,3,4,0.4,0.5
2025-05-17T1200,3418A,116.8336,40.4095,北京市,密云新城,,28,28,70,10,35,81,,76,76,5,7,1,3,0.2,0.5
2025-05-17T1200,3671A,116.088,39.9726,北京市,门头沟三家店,,50,50,169,19,39,87,,81,81,2,8,6,5,0.1,0.3
2025-05-17T1200,3672A,116.1541,39.8204,北京市,丰台云岗,颗粒物(PM10),53,55,89,14,28,91,,85,85,5,12,2,4,0.2,0.3
2025-05-17T1200,3673A,116.6804,39.9081,北京市,通州东关,颗粒物(PM10),56,61,93,21,38,94,,84,84,3,9,1,3,0.3,0.5
2025-05-17T1200,3674A,115.9577,39.7603,北京市,房山燕山,,44,44,89,17,32,83,,81,81,6,12,1,3,0.3,0.4
2025-05-17T1200,3675A,116.4672,39.7733,北京市,大兴旧宫,颗粒物(PM10),54,58,100,15,33,89,,82,82,4,10,3,3,0.4,0.7
2025-05-17T1200,3694A,115.986,40.4563,北京市,延庆石河营,,37,37,79,11,31,85,,84,84,9,11,1,2,0.3,0.5
2025-05-17T1200,3695A,116.6151,40.3053,北京市,怀柔新城,,41,41,71,16,34,80,,80,78,7,12,1,2,0.3,0.6
2025-05-17T1200,3696A,116.2545,39.8768,北京市,丰台小屯,,46,46,93,12,30,83,,77,77,2,9,2,3,0.2,0.3
2025-05-17T1200,3697A,116.84,40.3844,北京市,密云镇,,31,31,76,11,36,83,,77,77,7,8,5,6,0.3,0.5
2025-05-17T1200,4182A,116.1942,39.9158,北京市,八角北路9号,颗粒物(PM10),51,51,96,17,28,88,,78,78,5,12,1,3,0,0.2
2025-05-17T1200,4194A,117.0790,40.1518,北京市,洳河巡河路,,38,38,92,15,43,86,,80,80,3,7,1,3,0.2,0.5
2025-05-17T1200,1761A,123.8275,41.3064,本溪市,大峪,,20,17,25,8,9,63,,102,84,10,7,5,6,0.6,0.6
2025-05-17T1200,1762A,123.7567,41.3325,本溪市,溪湖,,20,20,32,13,14,59,,94,83,13,10,4,4,0.7,0.9
2025-05-17T1200,1763A,123.7169,41.3094,本溪市,彩屯,,20,20,37,12,20,60,,93,84,14,19,8,14,0.6,1.4
2025-05-17T1200,1764A,123.7669,41.2864,本溪市,东明,,16,14,29,9,12,50,,91,75,15,10,7,7,0.7,0.6
2025-05-17T1200,1765A,123.7992,41.2664,本溪市,新立屯,,33,,29,23,21,59,,95,82,14,10,5,5,0.5,0.6
2025-05-17T1200,1766A,123.8142,41.3472,本溪市,威宁,,19,9,30,8,11,58,,98,80,12,11,4,5,0.4,0.5
2025-05-17T1200,2587A,105.2864,27.3125,毕节市,八中,,40,40,44,26,29,106,,75,75,8,8,6,5,0.5,0.6
2025-05-17T1200,2588A,105.31,27.2944,毕节市,师专,颗粒物(PM10),51,51,44,27,28,111,,76,76,8,11,5,4,0.4,0.5
2025-05-17T1200,4263A,105.3688,27.3598,毕节市,工业大道,,44,44,39,29,24,121,,75,75,7,12,6,6,0.6,0.7
2025-05-17T1200,1629A,118.0018,37.3617,滨州市,第二水厂,颗粒物(PM10),79,107,90,9,27,96,,90,84,6,14,7,8,0.1,0.5
2025-05-17T1200,1630A,117.9776,37.393,滨州市,北中新校,颗粒物(PM10),70,90,70,7,29,93,,99,82,3,11,9,14,0.2,0.5
2025-05-17T1200,3514A,117.9378,37.3956,滨州市,中海酒店,颗粒物(PM10),70,90,88,14,38,105,,110,92,5,10,6,9,0.4,0.7
2025-05-17T1200,3515A,117.9378,37.3553,滨州市,开发区一中,颗粒物(PM10),78,105,87,12,31,84,,89,74,11,18,4,8,0.4,0.7
2025-05-17T1200,3516A,118.0917,37.694,滨州市,金海六路,颗粒物(PM10),81,112,81,14,26,111,,104,95,10,18,7,9,0.2,0.5
2025-05-17T1200,4028A,117.9956,37.3753,滨州市,滨州市西街道办事处,颗粒物(PM10),70,90,85,19,34,107,,112,96,7,12,5,7,0.1,0.4
2025-05-17T1200,2311A,115.8072,33.8399,亳州市,污水处理厂,颗粒物(PM10),500,655,82,84,28,114,,106,106,5,9,3,3,0.3,0.4
2025-05-17T1200,2312A,115.7789,33.8518,亳州市,三国揽胜宫,颗粒物(PM10),215,360,61,98,33,119,,111,111,5,7,4,5,0.1,0.4
2025-05-17T1200,3332A,115.7633,33.8034,亳州市,亳州学院,颗粒物(PM10),500,639,69,93,32,121,,105,105,4,8,2,3,0.2,0.4
2025-05-17T1200,2693A,82.0485,44.8556,博尔塔拉蒙古自治州,市党校,,32,32,31,11,15,92,,64,64,4,7,11,10,0.4,0.4
2025-05-17T1200,2694A,82.0806,44.8969,博尔塔拉蒙古自治州,市环保局,颗粒物(PM10),53,55,49,14,15,92,,54,54,11,16,9,9,0.2,0.3
2025-05-17T1200,1071A,116.8842,38.2991,沧州市,沧县城建局,颗粒物(PM10),55,59,102,28,49,100,,87,82,5,9,2,3,0.3,0.5
2025-05-17T1200,1072A,116.8584,38.3254,沧州市,电视转播站,细颗粒物(PM2.5),62,61,97,44,46,100,,86,83,10,12,2,3,0.3,0.4
2025-05-17T1200,1073A,116.8709,38.3228,沧州市,市环保局,颗粒物(PM10),55,60,106,32,53,121,,101,100,6,10,3,3,0.3,0.4
2025-05-17T1200,3324A,116.8136,38.3004,沧州市,河北水利电力学院,,,75,127,28,49,102,,93,87,,14,3,5,0.2,0.4
2025-05-17T1200,2622A,97.1806,31.1273,昌都市,昌都监测站,,28,10,4,3,5,87,,79,79,4,4,4,4,0.2,0.3
2025-05-17T1200,3719A,97.1714,31.1406,昌都市,昌都会议中心,,29,,7,3,6,91,,84,84,4,4,4,4,0.1,0.1
2025-05-17T1200,2690A,88.1236,43.8886,昌吉回族自治州,天山天池,,29,,14,3,7,92,,68,68,5,5,7,7,0.4,0.4
2025-05-17T1200,2692A,87.2717,44.0297,昌吉回族自治州,新区政务中心,,43,43,35,21,17,102,,54,54,10,16,9,7,0.5,0.5
2025-05-17T1200,3613A,87.3095,44.0142,昌吉回族自治州,亚心广场,细颗粒物(PM2.5),85,,59,63,24,102,,50,50,13,28,10,9,0.5,0.5
2025-05-17T1200,1119A,125.3325,43.9166,长春市,食品厂,,21,17,26,11,15,66,,67,52,18,19,3,4,0.3,0.3
2025-05-17T1200,1120A,125.2863,43.9027,长春市,客车厂,,21,,26,11,16,66,,67,54,16,17,4,5,0.2,0.2
2025-05-17T1200,1121A,125.2841,43.8463,长春市,邮电学院,,24,,28,13,18,74,,74,60,13,14,5,5,0.4,0.4
2025-05-17T1200,1122A,125.3716,43.8772,长春市,劳动公园,,22,14,25,9,12,70,,72,57,6,8,5,6,0.5,0.5
2025-05-17T1200,1123A,125.3297,43.8805,长春市,园林处,,23,7,20,7,14,72,,71,58,6,8,6,6,0.4,0.4
2025-05-17T1200,1124A,125.4605,43.79,长春市,净月潭,,21,10,18,10,10,65,,78,59,5,5,5,6,0.3,0.3
2025-05-17T1200,1125A,125.7194,43.515,长春市,甩湾子,,,,,,,,,,,,,,,,
2025-05-17T1200,1126A,125.3863,43.8447,长春市,经开区环卫处,,23,16,31,12,20,72,,69,57,8,10,5,6,0.3,0.3
2025-05-17T1200,1127A,125.245,43.7783,长春市,高新区管委会,,23,,19,14,14,73,,68,58,8,10,5,6,0.4,0.4
2025-05-17T1200,1128A,125.1761,43.8325,长春市,岱山公园,,23,14,24,12,20,73,,64,56,9,17,3,4,0.2,0.3
2025-05-17T1200,1335A,113.0833,28.2325,长沙市,经开区环保局,,44,44,35,28,25,60,,40,40,20,20,5,5,0.9,0.8
2025-05-17T1200,1336A,112.8872,28.2189,长沙市,高开区环保局,,48,46,35,33,21,66,,48,44,11,8,5,5,1.2,0.9
2025-05-17T1200,1337A,113.0792,28.2053,长沙市,马坡岭,,46,46,35,29,23,51,,33,33,11,14,3,3,1.0,0.8
2025-05-17T1200,1338A,112.9394,28.19,长沙市,湖南师范大学,,48,48,36,30,22,61,,46,46,24,16,4,3,1.1,0.8
2025-05-17T1200,1339A,113.0178,28.1322,长沙市,雨花区环保局,,36,36,32,18,19,58,,39,39,18,13,8,5,1.7,1.3
2025-05-17T1200,1340A,112.9792,28.2597,长沙市,伍家岭,颗粒物(PM10),51,52,39,33,25,64,,38,38,22,16,4,4,1.2,0.9
2025-05-17T1200,1341A,113.0014,28.1944,长沙市,火车新站,,43,43,41,29,24,59,,,,24,16,8,7,1.0,0.7
2025-05-17T1200,1342A,112.9844,28.1178,长沙市,天心区环保局,,36,36,32,21,20,70,,51,51,20,16,10,5,1.4,0.7
2025-05-17T1200,1343A,112.8908,28.1308,长沙市,湖南中医药大学,颗粒物(PM10),52,54,36,27,24,70,,36,35,15,14,5,3,1.4,0.9
2025-05-17T1200,1344A,112.9581,28.3611,长沙市,沙坪,细颗粒物(PM2.5),70,,37,51,24,62,,32,32,19,10,5,3,1.1,0.8
2025-05-17T1200,1727A,113.1147,36.1547,长治市,清华站,颗粒物(PM10),97,143,135,17,36,118,,108,108,6,9,8,7,0.5,0.5
2025-05-17T1200,1730A,113.0886,36.2125,长治市,审计局,颗粒物(PM10),91,132,126,19,45,117,,111,111,10,11,9,9,0.3,0.3
2025-05-17T1200,1731A,113.0844,36.1856,长治市,长治八中,颗粒物(PM10),89,127,156,49,56,111,,106,106,9,11,11,10,0.4,0.4
2025-05-17T1200,2845A,113.1569,36.1911,长治市,德盛苑,颗粒物(PM10),79,107,154,24,40,114,,107,107,5,7,7,7,0.4,0.4
2025-05-17T1200,3568A,113.06,36.0464,长治市,向阳小学,颗粒物(PM10),84,118,157,26,45,122,,112,112,8,12,9,9,0.2,0.3
2025-05-17T1200,3569A,112.8792,36.3144,长治市,屯留一中,颗粒物(PM10),57,64,97,18,39,111,,105,105,6,8,9,9,0.4,0.3
2025-05-17T1200,4189A,113.1131,36.19948,长治市,英华南巷50号,,,111,148,41,44,122,,102,,4,8,7,6,,0.5
2025-05-17T1200,4190A,113.2367,36.3344,长治市,学府街1号,颗粒物(PM10),96,141,190,12,41,116,,110,110,6,11,1,6,0.2,0.4
2025-05-17T1200,1854A,111.6975,28.9703,常德市,市二中,,38,38,30,26,24,47,,37,33,11,11,7,7,0.7,0.5
2025-05-17T1200,1857A,111.7158,29.1456,常德市,白鹤山,,,,,,,,,,,,,,,,
2025-05-17T1200,3138A,111.7153,29.0289,常德市,武陵区永安,,40,40,33,26,21,43,,47,34,12,11,8,9,0.5,0.5
2025-05-17T1200,3139A,111.6892,28.9881,常德市,鼎城区玉霞,,41,41,36,25,22,40,,28,26,12,16,6,5,0.6,0.6
2025-05-17T1200,3140A,111.6625,29.0531,常德市,武陵区长庚,,45,45,32,31,21,32,,50,35,17,12,8,8,0.8,0.7
2025-05-17T1200,1196A,119.9633,31.762,常州市,市监测站,,44,28,52,20,25,139,,82,82,10,23,16,14,1.0,0.9
2025-05-17T1200,1200A,119.9468,31.7069,常州市,武进监测站,,43,37,59,16,23,135,,85,85,14,25,11,10,0.9,0.7
2025-05-17T1200,1201A,119.9255,31.9087,常州市,安家,,38,32,58,24,25,121,,72,72,9,37,13,12,0.6,0.4
2025-05-17T1200,3002A,119.9805,31.8174,常州市,行政中心,,41,29,49,20,22,130,,83,83,13,22,10,9,0.7,0.6
2025-05-17T1200,3003A,120.0522,31.7748,常州市,经开区,,45,26,33,14,23,143,,92,92,12,28,7,6,0.7,0.6
2025-05-17T1200,3010A,119.9025,31.7964,常州市,钟楼,,37,19,35,14,23,116,,80,80,9,24,9,7,0.8,0.7
2025-05-17T1200,3429A,119.8598,31.7066,常州市,武进经发区,,41,19,44,8,19,131,,73,73,7,24,13,10,1.0,0.9
2025-05-17T1200,3430A,119.5826,31.7245,常州市,金坛城区,,38,16,56,8,20,120,,71,71,6,22,10,13,0.8,0.7
2025-05-17T1200,2220A,120.4318,41.5881,朝阳市,西梁,,26,26,34,11,20,79,,63,63,10,12,6,6,0.3,0.4
2025-05-17T1200,2221A,120.4521,41.5646,朝阳市,河畔小区,,38,38,28,14,21,81,,69,68,10,9,8,9,0.3,0.4
2025-05-17T1200,2222A,120.4176,41.5648,朝阳市,八里堡,,31,31,44,11,21,80,,66,66,9,12,5,6,0.3,0.4
2025-05-17T1200,2223A,120.3806,41.5969,朝阳市,农业园区,,33,33,36,15,29,80,,65,65,8,11,6,7,0.4,0.5
2025-05-17T1200,1705A,116.6367,23.6719,潮州市,西园路,,32,32,22,15,13,92,,36,36,6,11,3,4,0.3,0.2
2025-05-17T1200,3026A,116.6183,23.6608,潮州市,市政府,,32,32,26,10,10,94,,39,39,8,10,5,5,0.6,0.6
2025-05-17T1200,4036A,116.6461,23.6761,潮州市,金山,,31,21,23,19,14,98,,36,36,4,10,7,8,0.7,0.6
2025-05-17T1200,2472A,113.0073,25.9061,郴州市,马头岭,,15,7,14,3,10,45,,16,16,4,11,8,6,0.2,0.5
2025-05-17T1200,2473A,113.0116,25.8226,郴州市,市职中,,17,12,17,6,14,52,,17,17,8,11,4,2,0.6,0.8
2025-05-17T1200,2475A,113.0383,25.8071,郴州市,市审计局,,18,8,18,3,12,55,,22,22,7,11,3,2,0.5,0.7
2025-05-17T1200,2476A,113.0348,25.7759,郴州市,市环保局,,13,11,21,9,18,37,,19,19,10,13,7,4,0.5,0.7
2025-05-17T1200,4252A,113.0138,25.8011,郴州市,好美居路49号,,17,8,19,6,12,54,,20,20,8,12,4,5,0.6,0.7
2025-05-17T1200,1431A,103.9728,30.7236,成都市,金泉两河,"颗粒物(PM10),细颗粒物(PM2.5)",74,98,80,54,51,68,,36,36,25,32,8,7,0.4,0.4
2025-05-17T1200,1432A,104.176,30.6872,成都市,十里店,细颗粒物(PM2.5),77,84,79,56,42,80,,58,58,22,21,6,6,0.8,0.7
2025-05-17T1200,1433A,104.079,30.5706,成都市,三瓦窑,细颗粒物(PM2.5),84,85,77,62,49,66,,46,46,31,33,6,8,1.0,0.9
2025-05-17T1200,1434A,104.1114,30.63,成都市,沙河铺,细颗粒物(PM2.5),68,79,74,49,42,55,,43,43,25,25,8,8,1.0,0.8
2025-05-17T1200,1437A,104.0786,30.6531,成都市,君平街,细颗粒物(PM2.5),84,96,84,62,49,53,,36,36,29,29,9,12,0.9,0.8
2025-05-17T1200,1438A,103.613,31.0283,成都市,灵岩寺,,,,,,,,,,,,,,,,
2025-05-17T1200,2880A,104.0239,30.65639,成都市,大石西路,细颗粒物(PM2.5),88,101,88,65,54,65,,42,42,38,39,10,10,0.8,0.7
2025-05-17T1200,3136A,104.2725,30.5589,成都市,龙泉驿区区政府,"颗粒物(PM10),细颗粒物(PM2.5)",58,66,61,41,34,64,,67,60,25,21,5,5,0.6,0.5
2025-05-17T1200,3357A,104.0106,30.6931,成都市,金博路,细颗粒物(PM2.5),80,97,77,59,43,54,,40,35,37,35,12,13,0.7,0.6
2025-05-17T1200,3359A,104.0578,30.5225,成都市,华阳,细颗粒物(PM2.5),77,80,71,56,49,52,,46,46,33,25,8,8,0.7,0.6
2025-05-17T1200,3488A,104.3853,30.7453,成都市,青白江技师分院,细颗粒物(PM2.5),73,82,70,53,39,76,,64,64,32,34,6,6,0.7,0.6
2025-05-17T1200,3489A,104.0789,30.4072,成都市,科学城,细颗粒物(PM2.5),72,75,75,52,50,78,,64,64,16,21,4,4,0.7,0.6
2025-05-17T1200,4011A,103.8506,30.6947,成都市,光华大道三段,细颗粒物(PM2.5),110,109,102,83,69,71,,39,39,25,27,11,8,1.0,0.9
2025-05-17T1200,4224A,104.2433,30.5353,成都市,鲸龙路1057号,细颗粒物(PM2.5),73,82,75,53,45,72,,67,61,21,19,6,6,0.7,0.6
2025-05-17T1200,1062A,117.9531,40.9081,承德市,铁路,,28,28,75,19,35,87,,81,81,5,12,3,4,0.1,0.3
2025-05-17T1200,1063A,117.9392,40.9763,承德市,中国银行,,29,28,70,20,32,84,,80,80,1,7,3,3,0.1,0.3
2025-05-17T1200,1064A,117.9503,40.928,承德市,开发区,,40,34,68,28,35,86,,82,82,4,9,3,3,0.3,0.5
2025-05-17T1200,1065A,117.8051,40.9655,承德市,文化中心,,38,38,79,23,30,85,,80,80,4,8,3,3,0.2,0.3
2025-05-17T1200,1066A,117.9268,41.0026,承德市,离宫,,49,40,72,34,46,86,,79,79,2,5,2,3,0.2,0.3
2025-05-17T1200,2314A,117.47,30.6618,池州市,池州学院,,31,24,20,13,14,99,,70,70,4,7,5,4,0.6,0.7
2025-05-17T1200,3237A,117.4918,30.6617,池州市,展览馆,,31,22,20,14,14,98,,68,68,4,8,4,4,0.6,0.8
2025-05-17T1200,3333A,117.5627,30.695,池州市,第八中学,,32,21,18,13,13,102,,70,70,4,8,5,4,0.4,0.6
2025-05-17T1200,3334A,117.5038,30.6243,池州市,第十二中学,,32,26,20,14,13,100,,59,59,4,11,5,5,0.8,1.2
2025-05-17T1200,1744A,118.9233,42.2816,赤峰市,松山一中,,33,32,41,23,23,96,,92,92,9,14,8,10,0.4,0.5
2025-05-17T1200,1745A,118.9576,42.2728,赤峰市,哈达街,,41,41,51,21,32,85,,80,80,13,19,6,7,0.4,0.5
2025-05-17T1200,1746A,118.8788,42.2554,赤峰市,天义路,,41,41,40,27,30,84,,82,82,9,12,6,8,0.4,0.4
2025-05-17T1200,3058A,119.2658,42.0353,赤峰市,银河街,细颗粒物(PM2.5),54,49,63,38,33,82,,76,76,6,10,15,16,0.5,0.7
2025-05-17T1200,3286A,118.9359,42.3147,赤峰市,桥北物流园区,细颗粒物(PM2.5),55,,52,39,39,80,,78,78,12,11,7,11,0.5,0.7
2025-05-17T1200,2521A,107.3476,22.4136,崇左市,市环保局江州分局,,36,36,31,14,17,61,,29,29,4,9,7,6,0.3,0.4
2025-05-17T1200,4256A,107.3750,22.3736,崇左市,石景林东路7号,,36,36,24,16,15,71,,32,32,4,11,4,4,0.4,0.5
2025-05-17T1200,2298A,118.3093,32.3153,滁州市,老年大学,,40,37,40,20,29,128,,101,101,3,10,4,2,0.5,0.5
2025-05-17T1200,2299A,118.3244,32.2786,滁州市,人大宾馆,,38,35,33,11,32,121,,77,77,4,12,9,8,0.5,0.4
2025-05-17T1200,3207A,118.3118,32.3038,滁州市,市政府原办公楼,,41,30,31,25,34,130,,96,96,2,8,5,4,0.5,0.5
2025-05-17T1200,3331A,118.3267,32.2634,滁州市,图书馆,,38,37,29,19,29,120,,77,77,3,9,8,8,0.5,0.5
2025-05-17T1200,2605A,101.5482,25.0441,楚雄彝族自治州,州环境监测站,,35,24,26,19,18,111,,99,96,12,8,7,7,0.4,0.4
2025-05-17T1200,2606A,101.538,25.0492,楚雄彝族自治州,市经济开发区,,35,,30,17,18,111,,94,92,6,9,6,6,0.5,0.5
2025-05-17T1200,2548A,107.5277,31.2827,达州市,达州职业技术学院,颗粒物(PM10),72,93,86,50,45,86,,36,35,13,20,9,7,0.8,0.8
2025-05-17T1200,2549A,107.5086,31.2186,达州市,市环境监测站,细颗粒物(PM2.5),77,92,89,56,52,79,,52,42,29,26,7,6,0.6,0.5
2025-05-17T1200,2550A,107.4988,31.2132,达州市,凤凰小区,细颗粒物(PM2.5),77,92,86,56,52,69,,48,42,25,22,8,8,0.6,0.6
2025-05-17T1200,2551A,107.5082,31.1986,达州市,达县机关宾馆,细颗粒物(PM2.5),84,100,94,62,50,71,,30,30,32,31,7,7,0.5,0.5
2025-05-17T1200,2552A,107.4644,31.2124,达州市,市政中心,颗粒物(PM10),72,94,88,46,48,78,,62,49,21,17,5,4,0.6,0.6
2025-05-17T1200,2614A,100.1542,25.7054,大理白族自治州,大理市环境监测站,,34,21,26,15,21,106,,96,96,7,6,7,7,0.4,0.4
2025-05-17T1200,2615A,100.2171,25.5811,大理白族自治州,大理古城,,,,27,,18,110,,85,85,4,9,7,8,,0.6
2025-05-17T1200,1109A,121.612,38.9741,大连市,甘井子,,35,35,34,3,20,98,,102,89,12,17,1,1,0.2,0.4
2025-05-17T1200,1110A,121.565,38.9511,大连市,周水子,颗粒物(PM10),51,51,52,21,26,92,,93,78,9,15,6,6,0.3,0.4
2025-05-17T1200,1111A,121.5637,38.8845,大连市,星海三站,,39,39,39,19,24,100,,105,94,8,9,3,2,0.3,0.4
2025-05-17T1200,1112A,121.6302,38.9117,大连市,青泥洼桥,,37,37,40,18,23,97,,101,85,9,9,6,6,0.4,0.5
2025-05-17T1200,1113A,121.6251,38.8638,大连市,傅家庄,,39,39,34,17,23,109,,116,105,11,12,7,7,0.1,0.2
2025-05-17T1200,1114A,121.5213,38.8661,大连市,七贤岭,,,47,46,20,23,100,,103,92,,14,5,5,0.4,0.5
2025-05-17T1200,1115A,121.2529,38.8061,大连市,旅顺,,32,31,32,21,21,100,,93,87,10,12,4,4,0.3,0.3
2025-05-17T1200,1116A,121.7485,39.1311,大连市,金州,,33,30,41,23,26,78,,110,88,10,13,6,6,0.2,0.3
2025-05-17T1200,1117A,121.7811,39.0496,大连市,开发区,,47,47,37,17,22,89,,100,90,10,17,5,2,0.2,0.7
2025-05-17T1200,1118A,121.9762,39.0631,大连市,双D港,颗粒物(PM10),64,78,23,21,17,94,,81,81,5,9,6,6,0.3,0.4
2025-05-17T1200,1789A,124.81117,46.03138,大庆市,大同区,,,,24,,24,,,67,,,7,,4,,0.4
2025-05-17T1200,1790A,125.129,46.533,大庆市,龙凤区,,48,,28,33,23,82,,75,75,7,9,4,4,0.4,0.4
2025-05-17T1200,1791A,124.902,46.408,大庆市,红岗区,,29,24,24,17,23,91,,82,82,3,5,7,7,0.3,0.3
2025-05-17T1200,1792A,125.153,46.586,大庆市,萨尔图区,,35,35,27,23,18,73,,67,67,8,8,7,6,0.4,0.4
2025-05-17T1200,1793A,124.9042,46.6215,大庆市,让胡路区,,,,29,,28,78,,72,72,,8,7,6,0.2,0.3
2025-05-17T1200,3481A,125.141,46.634,大庆市,萨区政府监测点,,40,40,28,19,13,83,,76,76,2,5,5,5,0.4,0.4
2025-05-17T1200,1721A,113.3819,40.1097,大同市,果树场,,,,,,,,,,,,,,,,
2025-05-17T1200,1723A,113.2994,40.0758,大同市,云冈宾馆,,44,44,171,10,34,98,,89,89,7,7,9,8,0.4,0.3
2025-05-17T1200,1724A,113.3444,40.0917,大同市,大同大学,细颗粒物(PM2.5),53,,177,37,48,97,,86,85,8,9,9,9,0.3,0.3
2025-05-17T1200,1725A,113.2661,40.1269,大同市,安家小村,,30,25,206,13,50,95,,86,86,3,4,5,4,0.5,0.4
2025-05-17T1200,1726A,113.2711,40.0844,大同市,教育学院,,38,28,192,26,55,92,,84,83,6,6,6,6,0.3,0.3
2025-05-17T1200,3282A,113.3397,40.0597,大同市,大同市卫生学校,,29,23,165,20,43,92,,84,83,6,7,8,7,0.4,0.4
2025-05-17T1200,3565A,113.1367,40.1122,大同市,云冈站,,28,19,193,17,42,89,,82,82,5,6,4,5,0.3,0.3
2025-05-17T1200,3566A,113.1186,40.2556,大同市,图书馆,,33,32,183,23,56,81,,74,73,3,4,5,6,0.7,0.6
2025-05-17T1200,3567A,113.5931,40.0461,大同市,区一中,,50,,174,35,39,94,,86,86,4,5,10,8,0.4,0.4
2025-05-17T1200,4199A,113.2798,40.0997,大同市,魏都大道141号,,30,26,191,21,35,95,,87,87,8,7,5,5,0.4,0.3
2025-05-17T1200,2269A,124.1069,50.4097,大兴安岭地区,科技局,,23,13,20,7,13,73,,67,67,2,3,5,6,0.1,0.1
2025-05-17T1200,3663A,124.1164,50.4278,大兴安岭地区,红旗社区,,22,,6,3,4,70,,66,66,1,4,2,2,0.2,0.2
2025-05-17T1200,1600A,124.3303,40.0625,丹东市,江湾东路,,24,10,21,3,11,74,,86,85,9,6,6,8,0.4,0.5
2025-05-17T1200,1601A,124.4256,40.1503,丹东市,临江后街,,26,8,23,3,8,81,,81,79,10,10,6,7,0.5,0.7
2025-05-17T1200,1602A,124.3933,40.1461,丹东市,元宝山,,23,14,19,8,11,73,,79,77,12,8,7,8,0.5,0.4
2025-05-17T1200,1603A,124.3633,40.1092,丹东市,民主桥,,24,14,22,3,10,76,,83,81,12,6,6,7,0.4,0.7
2025-05-17T1200,3541A,109.5726,19.5167,儋州市,第一中学子站,,,,14,,7,51,,25,25,,4,7,5,0.3,0.6
2025-05-17T1200,3542A,109.5567,19.5187,儋州市,东坡学校子站,,16,8,11,7,7,51,,25,25,2,5,4,4,0.5,0.6
2025-05-17T1200,2616A,98.5842,24.428,德宏傣族景颇族自治州,德宏州监测站,,46,46,41,24,26,66,,30,30,14,14,15,9,0.6,0.6
2025-05-17T1200,3677A,98.5881,24.4368,德宏傣族景颇族自治州,芒市人民政府综合楼,,48,48,47,31,27,78,,39,39,12,12,10,7,0.6,0.6
2025-05-17T1200,1901A,104.4239,31.1208,德阳市,东山公园,颗粒物(PM10),73,96,95,49,48,77,,56,56,34,35,9,8,1.0,1
2025-05-17T1200,1902A,104.3826,31.1317,德阳市,西小区,细颗粒物(PM2.5),80,101,108,59,58,71,,46,46,34,40,10,8,1.2,1.1
2025-05-17T1200,1904A,104.3553,31.1091,德阳市,耐火材料厂,颗粒物(PM10),81,111,116,51,58,81,,38,38,28,41,12,10,0.7,0.7
2025-05-17T1200,3639A,104.4019,31.1244,德阳市,市教育局,细颗粒物(PM2.5),77,95,96,56,50,90,,56,56,32,37,11,9,0.9,0.8
2025-05-17T1200,1622A,116.3032,37.4674,德州市,儿童乐园,,,,167,,46,102,,101,90,3,10,4,6,,0.7
2025-05-17T1200,1624A,116.2991,37.4451,德州市,监理站,颗粒物(PM10),78,105,160,14,42,119,,108,102,3,7,6,7,0.3,0.5
2025-05-17T1200,3066A,116.2721,37.4379,德州市,九衢泉纯净水厂,颗粒物(PM10),76,102,150,29,46,105,,92,86,11,14,5,6,0.3,0.6
2025-05-17T1200,3371A,116.3728,37.4403,德州市,开发区人民医院,颗粒物(PM10),81,112,161,19,42,113,,106,96,4,7,5,6,0.4,0.6
2025-05-17T1200,3372A,116.3572,37.4094,德州市,太阳城中学,颗粒物(PM10),86,122,170,19,45,115,,105,100,2,8,3,4,0.3,0.6
2025-05-17T1200,3511A,116.5652,37.3319,德州市,陵城艺术中心,颗粒物(PM10),97,144,134,22,36,108,,99,88,11,9,3,6,0.1,0.5
2025-05-17T1200,2621A,99.7056,27.8317,迪庆藏族自治州,迪庆州站,,42,30,29,16,16,132,,93,93,15,15,5,5,0.2,0.2
2025-05-17T1200,3180A,99.7136,27.8094,迪庆藏族自治州,质量技术监督局,,44,21,23,6,9,139,,103,103,7,8,3,4,0.4,0.4
2025-05-17T1200,4257A,104.6092,35.5962,定西市,将台街,颗粒物(PM10),158,266,180,70,52,98,,85,85,9,16,4,5,0.1,0.2
2025-05-17T1200,4309A,104.6159,35.5701,定西市,正龙路62号,颗粒物(PM10),168,285,155,82,46,100,,69,69,5,11,5,7,0.2,0.3
2025-05-17T1200,1389A,113.7547,23.0494,东莞市,莞城梨川,,27,13,23,10,11,85,,30,30,11,26,7,7,0.5,0.5
2025-05-17T1200,1390A,113.7944,23.0128,东莞市,东城石井,,25,11,19,6,9,78,,24,24,8,21,4,4,0.4,0.5
2025-05-17T1200,1391A,113.7383,22.9658,东莞市,南城西平,,27,16,18,10,9,85,,32,32,14,25,3,2,0.6,0.5
2025-05-17T1200,3319A,113.7338,23.0381,东莞市,万江金泰,,24,17,21,6,9,74,,20,20,12,27,4,4,0.7,0.7
2025-05-17T1200,3626A,113.7533,23.0202,东莞市,南城元岭,,26,17,20,8,9,82,,29,29,12,27,5,5,0.6,0.6
2025-05-17T1200,3627A,113.7875,23.0457,东莞市,东城主山,,26,20,23,8,10,82,,28,28,4,21,5,5,0.4,0.4
2025-05-17T1200,1666A,118.6614,37.4309,东营市,市环保局,颗粒物(PM10),64,78,74,12,31,97,,104,93,19,23,4,7,0.5,0.6
2025-05-17T1200,3036A,118.6904,37.4338,东营市,开发区管委会,颗粒物(PM10),71,91,83,3,31,93,,112,95,26,26,4,7,0.4,0.6
2025-05-17T1200,3365A,118.5719,37.565,东营市,垦利区民丰路,,,80,71,3,30,98,,108,95,,20,5,6,0.4,0.7
2025-05-17T1200,3498A,118.5055,37.8612,东营市,河口城区,颗粒物(PM10),53,56,66,7,25,100,,113,99,12,18,7,9,0.7,0.9
2025-05-17T1200,3646A,118.4978,37.4623,东营市,胜利站,颗粒物(PM10),71,91,77,7,31,107,,107,97,10,17,8,9,0.5,0.9
2025-05-17T1200,3734A,118.35,37.26,东营市,理想之城,颗粒物(PM10),96,141,89,14,33,106,,105,97,20,25,4,5,0.4,0.7
2025-05-17T1200,1591A,110.0023,39.8129,鄂尔多斯市,综合楼,,29,14,473,12,82,91,,82,80,6,9,7,7,0.1,0.2
2025-05-17T1200,1592A,109.9486,39.8261,鄂尔多斯市,巴音孟克林场办事处,,39,,432,27,80,96,,80,80,5,10,6,7,0.3,0.3
2025-05-17T1200,1593A,109.7736,39.5986,鄂尔多斯市,康泽苑,,31,19,335,3,73,99,,88,88,4,5,8,9,0.2,0.2
2025-05-17T1200,1594A,109.8119,39.5989,鄂尔多斯市,华泰汽车城,,30,24,333,9,73,94,,84,84,4,5,4,4,0.1,0.2
2025-05-17T1200,1595A,109.9734,39.7884,鄂尔多斯市,奥林花园,,31,19,422,7,60,97,,84,84,6,10,3,2,0.4,0.5
2025-05-17T1200,2436A,114.8938,30.3994,鄂州市,市政府,,42,29,58,23,33,132,,75,75,12,27,9,8,0.8,0.8
2025-05-17T1200,2437A,114.8989,30.3714,鄂州市,赵家坝,,41,32,43,11,22,129,,76,76,9,24,6,5,0.7,0.9
2025-05-17T1200,3654A,114.8094,30.4089,鄂州市,精准医疗中心,,42,29,46,19,27,134,,72,72,2,17,4,4,0.6,0.8
2025-05-17T1200,2454A,109.4978,30.2981,恩施土家族苗族自治州,湖北民院,,47,47,44,32,24,23,,11,11,21,13,6,6,0.6,0.5
2025-05-17T1200,2455A,109.4707,30.2798,恩施土家族苗族自治州,州电力总公司,,39,38,34,27,24,20,,5,5,20,16,8,7,0.4,0.3
2025-05-17T1200,3549A,109.5061,30.3772,恩施土家族苗族自治州,龙凤新区,,38,34,34,26,22,40,,31,31,20,10,6,6,0.4,0.4
2025-05-17T1200,2499A,108.3411,21.6158,防城港市,沙万,,18,18,17,8,8,36,,32,29,6,27,3,2,0.4,0.5
2025-05-17T1200,2500A,108.3514,21.7731,防城港市,防城档案局,,23,23,17,8,10,37,,36,33,5,10,2,2,0.3,0.5
2025-05-17T1200,2501A,108.3506,21.6414,防城港市,大海花园,,16,15,20,3,7,49,,45,43,1,15,3,4,0.4,0.5
2025-05-17T1200,1371A,113.1294,23.0067,佛山市,湾梁,,27,27,20,11,10,83,,28,28,15,29,7,8,0.5,0.5
2025-05-17T1200,1372A,113.1083,23.0478,佛山市,华材职中,,29,19,16,8,10,90,,33,33,13,23,5,4,0.4,0.4
2025-05-17T1200,1373A,113.144,23.0453,佛山市,南海气象局,,30,30,23,10,10,77,,25,25,12,28,2,2,0.6,0.6
2025-05-17T1200,1374A,113.2881,22.8094,佛山市,顺德苏岗,,26,13,22,7,7,82,,32,32,11,24,6,6,0.5,0.6
2025-05-17T1200,1376A,112.8383,22.8678,佛山市,高明孔堂,,19,14,19,7,7,59,,32,32,8,11,5,5,0.6,0.6
2025-05-17T1200,1377A,112.8836,23.1588,佛山市,三水监测站,,23,22,22,16,13,37,,9,9,22,36,2,3,0.4,0.6
2025-05-17T1200,1378A,112.867,23.185,佛山市,三水云东海,,30,30,41,10,16,54,,15,15,17,36,2,2,0.5,0.6
2025-05-17T1200,3625A,113.2544,22.7642,佛山市,容桂街道办,,22,17,12,9,10,69,,30,30,14,26,5,5,0.7,0.7
2025-05-17T1200,1280A,119.3903,26.0543,福州市,鼓山,,,,27,,14,,,76,,,8,,1,,0.3
2025-05-17T1200,1282A,119.2681,26.0504,福州市,师大,,33,30,40,12,16,104,,48,48,6,19,4,4,0.3,0.3
2025-05-17T1200,1283A,119.2984,26.1028,福州市,五四北路,,36,32,39,18,17,115,,49,49,10,24,4,4,0.4,0.4
2025-05-17T1200,1284A,119.2648,26.0768,福州市,杨桥西路,,48,48,46,19,18,114,,49,49,8,19,4,4,0.3,0.3
2025-05-17T1200,1285A,119.317,26.0746,福州市,紫阳,,,,39,,11,,,69,,,20,,6,,0.3
2025-05-17T1200,3048A,119.5799,26.0936,福州市,九龙,,34,24,29,9,15,107,,40,40,7,14,5,4,0.2,0.3
2025-05-17T1200,3526A,119.5189,25.9664,福州市,吴航,,30,23,26,12,10,93,,44,44,6,11,4,4,0.3,0.3
2025-05-17T1200,1755A,123.7977,41.8491,抚顺市,望花区,,25,23,33,17,16,63,,97,80,13,15,3,5,0.4,0.5
2025-05-17T1200,1756A,123.9161,41.8822,抚顺市,顺城区,,21,13,27,13,12,65,,97,77,11,13,6,7,0.5,0.5
2025-05-17T1200,1757A,124.0436,41.8611,抚顺市,东洲区,,20,20,28,13,13,62,,99,81,10,10,5,6,0.4,0.5
2025-05-17T1200,1758A,123.9247,41.8642,抚顺市,新抚区,,18,14,30,12,10,53,,92,73,7,7,6,7,0.4,0.4
2025-05-17T1200,1759A,124.0972,41.8961,抚顺市,大伙房水库,,21,11,20,11,16,66,,107,85,10,9,7,7,0.7,0.7
2025-05-17T1200,1760A,123.7086,41.8391,抚顺市,沈抚新城,,35,,33,24,20,66,,90,74,14,14,6,7,0.5,0.7
2025-05-17T1200,2376A,116.2127,28.0814,抚州市,桐源党溪,,18,14,21,12,9,48,,30,30,3,3,3,3,0.5,0.6
2025-05-17T1200,2377A,116.3544,27.9831,抚州市,市站,,26,26,16,15,11,42,,27,27,6,9,1,2,0.7,0.6
2025-05-17T1200,2378A,116.3565,27.963,抚州市,血防站,,27,27,22,9,8,41,,26,26,2,2,3,2,0.4,0.6
2025-05-17T1200,2379A,116.3564,28.0007,抚州市,采茶剧团,,25,25,16,11,6,35,,23,23,3,4,3,3,0.4,0.5
2025-05-17T1200,2380A,116.385,27.9647,抚州市,医学分院,,22,22,16,10,6,42,,28,28,2,8,3,4,0.4,0.7
2025-05-17T1200,2207A,121.6094,41.998,阜新市,工业园区,,28,28,69,13,13,89,,76,76,8,9,8,9,0.4,0.5
2025-05-17T1200,2208A,121.6697,42.0279,阜新市,长青街,,26,21,46,12,13,82,,72,72,8,9,7,8,0.4,0.5
2025-05-17T1200,2209A,121.6673,42.0705,阜新市,农业园区,,,,88,,22,,,131,,,9,,8,,0.4
2025-05-17T1200,2210A,121.6717,42.0224,阜新市,东苑,,28,25,49,14,15,89,,79,79,9,10,4,7,0.5,0.5
2025-05-17T1200,2211A,121.6506,42.0498,阜新市,玉龙新城,,26,20,49,16,26,82,,71,71,10,10,6,8,0.2,0.4
2025-05-17T1200,2301A,115.8277,32.8929,阜阳市,市监测站,颗粒物(PM10),70,89,46,29,29,141,,124,120,12,11,9,7,0.4,0.4
2025-05-17T1200,2303A,115.8554,32.8605,阜阳市,开发区,颗粒物(PM10),78,106,58,15,22,148,,121,121,8,10,7,6,0.2,0.2
2025-05-17T1200,2875A,115.784,32.8892,阜阳市,阜阳职业技术学院,颗粒物(PM10),77,103,46,28,29,153,,127,127,9,10,7,5,0.4,0.4
2025-05-17T1200,3468A,115.7901,32.8613,阜阳市,市规划展馆,颗粒物(PM10),57,64,43,23,30,148,,121,121,9,10,9,6,0.4,0.4
2025-05-17T1200,3469A,115.836,32.9183,阜阳市,枣园社区,颗粒物(PM10),62,74,49,23,27,145,,124,121,8,10,7,4,0.3,0.3
2025-05-17T1200,2669A,102.9099,34.9841,甘南藏族自治州,州政府,,33,30,43,10,19,104,,57,57,3,16,6,6,0.3,0.3
2025-05-17T1200,3380A,102.8914,34.9617,甘南藏族自治州,甘肃民族师范学院,,44,44,50,12,17,110,,52,52,4,21,8,8,0.3,0.4
2025-05-17T1200,2570A,101.9603,30.0475,甘孜藏族自治州,水桥子,,22,,8,3,8,70,,83,72,23,16,5,4,0.4,0.3
2025-05-17T1200,3065A,101.9533,29.9972,甘孜藏族自治州,州环保局,,33,,8,8,4,104,,92,92,8,14,1,1,0.2,0.2
2025-05-17T1200,3414A,115.8347,28.932,赣江新区,桑海产业园,,35,24,28,23,18,112,,56,56,8,23,9,6,0.4,0.5
2025-05-17T1200,2362A,114.9017,25.9149,赣州市,通天岩,,17,17,18,3,5,53,,46,46,5,6,3,2,0.6,0.6
2025-05-17T1200,2363A,114.9367,25.8664,赣州市,地委,,28,28,22,17,12,56,,27,27,10,13,19,13,0.4,0.4
2025-05-17T1200,2364A,114.9461,25.8481,赣州市,气象台,,22,22,20,8,8,57,,44,44,9,11,7,9,0.3,0.3
2025-05-17T1200,2365A,114.9322,25.8333,赣州市,市图书馆,,23,17,17,16,10,37,,34,34,8,9,4,4,0.5,0.5
2025-05-17T1200,2366A,114.8905,25.8471,赣州市,华坚鞋城,,22,21,23,15,12,57,,37,37,8,13,4,5,0.2,0.2
2025-05-17T1200,3109A,115.0093,25.8613,赣州市,赣县区卫计委,,18,18,20,8,11,47,,20,20,8,18,2,3,0.6,0.6
2025-05-17T1200,2683A,106.2319,36.1417,固原市,马园,颗粒物(PM10),286,410,322,111,103,84,,72,69,14,11,7,8,0.6,0.5
2025-05-17T1200,2684A,106.2792,36.0022,固原市,监测站,颗粒物(PM10),143,236,257,84,78,93,,83,83,6,8,5,6,0.3,0.2
2025-05-17T1200,2685A,106.2375,36.0211,固原市,新区,颗粒物(PM10),149,248,261,81,72,90,,81,81,8,7,7,8,0.2,0.1
2025-05-17T1200,3522A,106.2177,35.9959,固原市,原州区十五小,颗粒物(PM10),154,258,253,89,99,92,,84,84,8,7,6,8,0.3,0.3
2025-05-17T1200,2543A,106.6308,30.5278,广安市,小平旧居,,,,,,,,,,,,,,,,
2025-05-17T1200,2544A,106.6303,30.4576,广安市,市委,细颗粒物(PM2.5),60,56,97,43,79,100,,62,62,12,18,5,7,0.5,0.6
2025-05-17T1200,2545A,106.6271,30.4663,广安市,友谊中学,颗粒物(PM10),54,57,88,33,53,106,,76,76,17,20,5,5,0.6,0.7
2025-05-17T1200,2547A,106.6388,30.4551,广安市,广电花园,颗粒物(PM10),52,54,85,33,56,106,,56,56,14,19,6,6,0.5,0.6
2025-05-17T1200,2902A,106.6351,30.4865,广安市,北辰小学,颗粒物(PM10),52,54,85,34,52,101,,74,74,13,18,7,8,0.6,0.7
2025-05-17T1200,2523A,105.8945,32.4535,广元市,黑石坡,细颗粒物(PM2.5),117,137,110,88,62,114,,118,99,33,17,7,7,0.9,0.6
2025-05-17T1200,2524A,105.821,32.4444,广元市,老城,细颗粒物(PM2.5),127,171,113,96,65,134,,69,69,32,29,40,4,1.9,1.2
2025-05-17T1200,2526A,105.8628,32.4287,广元市,监测站,细颗粒物(PM2.5),127,123,94,96,71,144,,100,92,31,16,37,6,1.4,0.7
2025-05-17T1200,3617A,105.8047,32.4166,广元市,经开区,细颗粒物(PM2.5),195,200,130,146,93,133,,89,89,42,26,97,19,2.3,1.1
2025-05-17T1200,1345A,113.2347,23.1423,广州市,广雅中学,,26,26,21,14,11,74,,31,31,19,24,3,3,0.2,0.1
2025-05-17T1200,1346A,113.2612,23.105,广州市,市五中,,25,25,23,12,11,55,,26,26,18,23,2,2,0.2,0.2
2025-05-17T1200,1348A,113.3478,23.0916,广州市,广东商学院,,22,22,21,13,11,61,,30,30,21,30,4,4,0.6,0.6
2025-05-17T1200,1349A,113.4332,23.1047,广州市,市八十六中,,20,20,23,9,7,48,,20,20,20,36,2,2,0.4,0.4
2025-05-17T1200,1350A,113.3505,22.9483,广州市,番禺中学,,30,22,18,10,9,94,,35,35,16,25,6,9,0.4,0.3
2025-05-17T1200,1351A,113.2146,23.3916,广州市,花都师范,,28,28,27,16,13,52,,16,16,17,36,3,3,0.6,0.7
2025-05-17T1200,1352A,113.2597,23.1331,广州市,市监测站,,25,25,25,10,12,60,,28,28,19,26,5,5,0.5,0.4
2025-05-17T1200,1353A,113.5618,23.312,广州市,九龙镇镇龙,,,26,26,14,12,31,,10,10,24,29,,6,0.4,0.4
2025-05-17T1200,1354A,113.2765,23.1544,广州市,麓湖,,21,21,20,12,11,57,,23,23,10,17,4,4,0.5,0.5
2025-05-17T1200,1355A,113.443,23.3035,广州市,帽峰山森林公园,,14,7,12,3,5,43,,28,28,9,20,5,6,0.6,0.6
2025-05-17T1200,2846A,113.3221,23.1322,广州市,体育西,,21,21,21,13,11,52,,22,22,16,30,4,4,0.5,0.4
2025-05-17T1200,3298A,113.5717,23.5491,广州市,从化街口,,28,28,29,19,16,26,,10,10,23,24,7,7,0.5,0.6
2025-05-17T1200,3299A,113.3472,23.3692,广州市,白云竹料,,26,26,28,10,13,50,,25,25,18,30,2,3,0.5,0.5
2025-05-17T1200,3300A,113.2981,23.237,广州市,白云嘉禾,,20,20,23,12,12,53,,18,18,19,36,6,5,0.9,0.9
2025-05-17T1200,3301A,113.4256,23.1716,广州市,黄埔科学城,,19,19,22,10,10,45,,19,19,11,24,1,2,0.5,0.5
2025-05-17T1200,3302A,113.3942,23.0483,广州市,番禺大学城,,19,14,22,13,7,48,,26,26,15,27,4,6,0.4,0.3
2025-05-17T1200,3303A,113.4922,22.8168,广州市,南沙黄阁,,34,34,17,11,7,64,,39,39,10,16,5,4,0.4,0.5
2025-05-17T1200,3304A,113.5342,22.7896,广州市,南沙街,,20,14,17,8,7,61,,32,32,7,13,2,2,0.4,0.5
2025-05-17T1200,3443A,113.2902,23.5544,广州市,花都梯面,,30,30,24,14,11,23,,10,10,22,25,4,4,0.6,0.6
2025-05-17T1200,3445A,113.7858,23.7478,广州市,从化良口,,15,14,17,10,11,9,,6,6,11,11,6,6,0.6,0.5
2025-05-17T1200,3446A,113.8051,23.2614,广州市,增城荔城,,30,30,29,18,15,83,,29,29,20,22,8,8,0,0.1
2025-05-17T1200,2505A,109.568,23.1478,贵港市,德智高中,,,,,,,,,,,,,,,,
2025-05-17T1200,2506A,109.6047,23.0666,贵港市,江南子站,,18,14,29,12,19,45,,16,16,6,22,3,3,0.6,0.8
2025-05-17T1200,2508A,109.5669,23.1065,贵港市,荷城子站,,13,9,16,9,10,40,,23,23,12,18,4,4,0.2,0.3
2025-05-17T1200,3405A,109.5886,23.1172,贵港市,新世纪学校,,22,,19,15,16,34,,14,14,14,19,2,2,0.7,0.8
2025-05-17T1200,4260A,109.5933,23.0951,贵港市,中山路155-3号,,15,15,30,3,12,47,,21,21,10,21,3,3,0.4,0.5
2025-05-17T1200,1439A,106.6899,26.5998,贵阳市,马鞍山,,27,27,33,7,19,72,,46,46,8,9,3,3,0.5,0.6
2025-05-17T1200,1441A,106.6243,26.6266,贵阳市,鉴湖路,,32,31,43,22,26,75,,57,57,15,18,5,5,0.4,0.4
2025-05-17T1200,1442A,106.7487,26.6343,贵阳市,燕子冲,,35,29,37,24,32,91,,59,59,10,10,4,4,0.3,0.4
2025-05-17T1200,1443A,106.6555,26.4365,贵阳市,碧云窝,,29,27,39,12,25,90,,64,64,17,20,4,4,0.2,0.4
2025-05-17T1200,1445A,106.7109,26.6027,贵阳市,红边门,,,,38,,33,,,65,,,4,,3,,0.2
2025-05-17T1200,1446A,106.7164,26.5699,贵阳市,新华路,,28,22,31,17,25,89,,62,62,8,9,7,7,0.5,0.5
2025-05-17T1200,1447A,106.674,26.5424,贵阳市,太慈桥,,26,24,30,12,22,82,,53,53,12,14,5,4,0.2,0.3
2025-05-17T1200,1552A,106.805,26.3003,贵阳市,桐木岭,,29,29,41,17,28,84,,63,63,5,5,1,2,1.0,1
2025-05-17T1200,4230A,106.6882,26.5695,贵阳市,花果园大街66号,,27,24,38,12,31,84,,60,60,7,10,3,3,0.3,0.4
2025-05-17T1200,4231A,106.6873,26.5169,贵阳市,漓江路57号,,,19,35,17,27,88,,58,58,7,11,,7,0.3,0.4
2025-05-17T1200,1862A,110.4144,25.3167,桂林市,电子科大尧山校区,,,,,,,,,,,,,,,,
2025-05-17T1200,1864A,110.3089,25.2708,桂林市,龙隐路小学,,15,7,11,3,13,45,,42,41,7,7,7,8,0.5,0.5
2025-05-17T1200,1865A,110.2869,25.2178,桂林市,八中,,13,12,12,3,8,40,,38,38,12,13,1,1,0.6,0.6
2025-05-17T1200,3531A,110.296,25.1253,桂林市,旅游学院,,11,,6,3,5,33,,33,32,5,8,2,2,0.2,0.2
2025-05-17T1200,4222A,110.1835,25.2444,桂林市,环湖路276号,,11,,12,7,9,34,,32,32,6,9,2,4,0.3,0.4
2025-05-17T1200,4301A,110.2803,25.2773,桂林市,信义路13号,,13,8,14,3,9,41,,43,40,10,9,1,1,0.5,0.4
2025-05-17T1200,2674A,100.2561,34.4714,果洛藏族自治州,玛沁县大武镇,,40,26,37,8,16,128,,77,77,2,3,20,22,0.3,0.4
2025-05-17T1200,1129A,126.5422,45.755,哈尔滨市,岭北,,24,12,16,6,13,75,,63,63,6,9,29,29,0.8,0.9
2025-05-17T1200,1130A,126.561,45.8167,哈尔滨市,松北商大,,20,,13,3,10,61,,46,46,8,10,5,5,0.5,0.5
2025-05-17T1200,1131A,126.979,45.5419,哈尔滨市,阿城会宁,,23,,24,8,17,72,,44,44,9,15,10,9,0.5,0.5
2025-05-17T1200,1132A,126.599,45.7222,哈尔滨市,南岗学府路,,22,12,26,3,10,70,,56,56,7,12,5,5,0.4,0.4
2025-05-17T1200,1133A,126.689,45.7733,哈尔滨市,太平宏伟公园,,22,8,21,6,15,70,,54,54,8,13,4,4,0.4,0.5
2025-05-17T1200,1134A,126.635,45.7667,哈尔滨市,道外承德广场,,21,7,25,7,17,66,,50,50,7,13,5,5,0.5,0.2
2025-05-17T1200,1135A,126.685,45.7319,哈尔滨市,香坊红旗大街,,23,9,17,3,12,71,,54,54,9,15,4,5,0.5,0.5
2025-05-17T1200,1136A,126.6411,45.7258,哈尔滨市,动力和平路,,19,6,26,3,11,60,,46,46,11,15,3,3,0.5,0.5
2025-05-17T1200,1137A,126.593,45.7478,哈尔滨市,道里建国路,,21,10,21,8,14,67,,53,53,8,12,4,4,0.5,0.6
2025-05-17T1200,1138A,126.615,45.61,哈尔滨市,平房东轻厂,,21,,24,10,17,67,,53,53,13,17,8,8,0.3,0.4
2025-05-17T1200,1139A,126.595,45.9855,哈尔滨市,呼兰师专,,21,,14,3,11,65,,54,54,6,13,5,5,0.5,0.5
2025-05-17T1200,1140A,126.6206,45.6842,哈尔滨市,省农科院,,22,22,30,7,15,66,,48,48,7,14,9,9,0.6,0.6
2025-05-17T1200,2688A,93.5128,42.8172,哈密市,地区监测站,颗粒物(PM10),59,67,90,41,30,98,,46,46,18,22,12,4,0.1,0.1
2025-05-17T1200,2689A,93.4961,42.8328,哈密市,哈密师范学校,颗粒物(PM10),53,55,83,35,25,94,,41,37,15,14,16,5,1.0,0.3
2025-05-17T1200,2671A,100.9048,36.9639,海北藏族自治州,海晏县西海镇,,40,35,31,16,14,125,,79,79,2,6,8,10,0.5,0.4
2025-05-17T1200,3867A,102.0738,36.5056,海东市,平安区公安北苑,颗粒物(PM10),139,227,71,86,30,97,,63,63,4,8,11,9,0.4,0.5
2025-05-17T1200,1409A,110.576,19.9507,海口市,东寨港,,14,14,13,3,9,36,,23,23,2,3,3,3,0.1,0.1
2025-05-17T1200,1410A,110.3232,20.0574,海口市,海南大学,,18,11,11,6,7,56,,33,33,4,5,3,3,0.3,0.3
2025-05-17T1200,1411A,110.283,20.0053,海口市,秀英海南医院,,16,14,16,3,7,51,,28,28,5,14,4,4,0.2,0.4
2025-05-17T1200,1412A,110.338,19.9969,海口市,海南师范大学,,16,13,13,3,6,51,,28,28,3,6,3,4,0.3,0.4
2025-05-17T1200,1413A,110.33,20.0356,海口市,龙华路环保局宿舍,,17,17,13,3,5,54,,32,32,6,7,4,4,0.2,0.2
2025-05-17T1200,3539A,110.5111,19.9736,海口市,桂林洋子站,,14,8,14,3,5,42,,24,24,3,7,3,3,0.1,0.2
2025-05-17T1200,2673A,100.6188,36.2866,海南藏族自治州,共和县恰卜恰镇,颗粒物(PM10),52,54,39,26,21,131,,100,100,5,10,9,11,0.4,0.4
2025-05-17T1200,2676A,97.3731,37.3753,海西蒙古族藏族自治州,德令哈市,,49,49,40,11,15,125,,120,116,2,3,5,7,0.4,0.4
2025-05-17T1200,1048A,114.5302,36.6116,邯郸市,东污水处理厂,,,80,153,31,39,,,69,,7,14,,5,,0.5
2025-05-17T1200,1049A,114.4918,36.5713,邯郸市,矿院,颗粒物(PM10),67,84,143,3,37,86,,72,72,3,10,5,6,0.2,0.4
2025-05-17T1200,1050A,114.484,36.6133,邯郸市,丛台公园,颗粒物(PM10),66,82,159,6,42,96,,83,80,9,13,4,5,0.2,0.4
2025-05-17T1200,3458A,114.7895,36.5593,邯郸市,香泉濮院小区,颗粒物(PM10),107,163,217,3,34,89,,74,71,4,9,3,3,0.1,0.4
2025-05-17T1200,3579A,114.50634,36.77178,邯郸市,永年区实验高中,颗粒物(PM10),65,80,170,23,56,84,,75,75,5,9,3,4,0.4,0.6
2025-05-17T1200,3580A,114.20016,36.44293,邯郸市,峰峰矿区临水派出所,颗粒物(PM10),69,88,139,38,44,92,,89,84,8,9,5,9,0.4,0.6
2025-05-17T1200,2634A,106.9893,33.1842,汉中市,汉川机床厂子校,细颗粒物(PM2.5),63,73,72,45,42,113,,76,76,9,12,9,8,0.6,0.6
2025-05-17T1200,2635A,107.0154,33.0706,汉中市,市监测站,细颗粒物(PM2.5),78,96,89,57,45,151,,82,82,14,18,18,11,1.7,1
2025-05-17T1200,2636A,107.0089,33.1138,汉中市,鑫源开发区,细颗粒物(PM2.5),68,83,82,49,44,130,,69,69,15,20,11,9,1.2,0.9
2025-05-17T1200,2637A,107.007,33.0323,汉中市,南郑大河坎水厂,细颗粒物(PM2.5),80,88,72,59,44,140,,66,66,16,18,8,6,0.9,0.7
2025-05-17T1200,1223A,120.2072,30.2111,杭州市,滨江,,28,6,41,3,23,89,,37,37,14,31,6,6,0.5,0.7
2025-05-17T1200,1224A,120.0633,30.2747,杭州市,西溪,,25,12,24,9,18,79,,30,30,8,12,4,4,0.5,0.7
2025-05-17T1200,1226A,120.3417,30.3150,杭州市,下沙,,30,14,71,3,54,94,,54,54,13,33,6,6,0.5,0.7
2025-05-17T1200,1227A,120.1269,30.2456,杭州市,卧龙桥,,25,9,24,3,17,79,,36,36,10,14,6,6,0.4,0.6
2025-05-17T1200,1228A,120.1903,30.2692,杭州市,浙江农大,,25,6,27,3,26,78,,41,41,13,25,8,8,0.6,0.8
2025-05-17T1200,1230A,120.1197,30.3119,杭州市,和睦小学,,30,,28,15,24,94,,51,51,8,17,8,8,0.6,0.7
2025-05-17T1200,1231A,120.3019,30.4183,杭州市,临平镇,,32,11,45,9,27,101,,47,47,8,31,5,5,0.7,0.8
2025-05-17T1200,1232A,120.2753,30.1839,杭州市,城厢镇,,27,12,32,8,36,85,,44,44,17,27,6,7,0.5,0.7
2025-05-17T1200,1233A,120.0883,30.1808,杭州市,云栖,,25,10,23,3,11,80,,27,27,13,15,5,5,0.7,0.8
2025-05-17T1200,3557A,119.9464,30.0494,杭州市,镇二中,,23,7,26,3,17,71,,35,35,12,23,3,3,0.5,0.7
2025-05-17T1200,3558A,119.7183,30.2367,杭州市,市府大楼,,25,14,20,8,16,78,,42,42,13,19,7,7,0.7,0.9
2025-05-17T1200,3656A,120.1556,30.2864,杭州市,消防大队,,25,13,33,3,25,77,,47,47,12,22,3,3,0.9,1
2025-05-17T1200,1270A,117.1959,31.7848,合肥市,明珠广场,,45,31,33,12,22,141,,90,90,13,18,4,4,0.4,0.5
2025-05-17T1200,1271A,117.3072,31.8764,合肥市,三里街,,40,34,36,14,20,128,,79,79,11,21,4,4,0.6,0.7
2025-05-17T1200,1272A,117.2588,31.8707,合肥市,琥珀山庄,,44,31,30,14,22,138,,96,96,12,16,4,4,0.6,0.7
2025-05-17T1200,1273A,117.1604,31.9052,合肥市,董铺水库,,43,29,33,12,18,136,,102,102,4,9,2,1,0.3,0.4
2025-05-17T1200,1274A,117.25,31.8571,合肥市,长江中路,,43,41,34,16,23,136,,95,95,9,13,6,6,0.6,0.7
2025-05-17T1200,1275A,117.266,31.9436,合肥市,庐阳区,,43,27,31,14,20,135,,97,97,6,13,7,7,0.5,0.6
2025-05-17T1200,1276A,117.3453,31.8616,合肥市,瑶海区,,40,39,33,12,20,126,,81,81,12,18,6,6,0.5,0.6
2025-05-17T1200,1277A,117.3027,31.7964,合肥市,包河区,,43,29,28,19,22,136,,94,94,8,10,7,7,0.6,0.7
2025-05-17T1200,1278A,117.2776,31.7385,合肥市,滨湖新区,,42,31,29,29,27,125,,86,86,11,13,9,9,0.5,0.6
2025-05-17T1200,1279A,117.1318,31.8403,合肥市,高新区,,40,29,34,14,22,128,,96,96,9,15,5,5,0.5,0.5
2025-05-17T1200,3464A,117.3803,31.9147,合肥市,高教基地,,46,34,31,12,21,147,,91,91,11,12,6,5,0.5,0.5
2025-05-17T1200,3614A,79.924,37.0877,和田地区,地区环保局,颗粒物(PM10),183,315,312,96,99,61,,63,60,7,6,1,2,0.5,0.4
2025-05-17T1200,3615A,79.9131,37.113,和田地区,市环保局,颗粒物(PM10),162,273,267,75,70,75,,77,74,8,6,3,7,0.1,0.3
2025-05-17T1200,2516A,108.2011,24.715,河池市,东仁乐园,,,,,,,,,,,,,,,,
2025-05-17T1200,2517A,108.0497,24.6947,河池市,市环保站,,31,31,19,15,10,44,,37,36,8,7,6,6,0.6,0.6
2025-05-17T1200,2518A,108.0983,24.6989,河池市,市疾控中心,,30,29,19,21,13,36,,28,28,13,13,3,3,0.6,0.6
2025-05-17T1200,1696A,114.6778,23.7569,河源市,源西,,27,27,25,12,12,54,,29,29,11,19,4,4,0.6,0.6
2025-05-17T1200,1697A,114.6944,23.7586,河源市,东埔,,24,24,23,14,14,57,,31,31,17,19,4,4,0.4,0.4
2025-05-17T1200,1698A,114.6892,23.7233,河源市,老城,,31,31,27,16,15,53,,27,27,17,16,4,4,0.4,0.4
2025-05-17T1200,1718A,115.4208,35.2464,菏泽市,气象局,颗粒物(PM10),308,426,192,45,44,93,,94,87,18,11,3,3,0.2,0.4
2025-05-17T1200,3374A,115.5564,35.0891,菏泽市,定陶老年大学,颗粒物(PM10),209,356,164,36,36,99,,94,90,9,12,3,3,0.3,0.5
2025-05-17T1200,4184A,115.4797,35.24401,菏泽市,永昌路1号,颗粒物(PM10),208,355,186,48,50,98,,92,88,7,10,4,6,0.2,0.3
2025-05-17T1200,4193A,115.4715,35.2800,菏泽市,长城路999号,颗粒物(PM10),198,345,181,41,41,98,,94,88,9,11,6,6,0.1,0.2
2025-05-17T1200,2514A,111.5264,24.4172,贺州市,环保小区,,10,,13,7,8,32,,34,28,12,11,7,8,0.8,0.9
2025-05-17T1200,2515A,111.5608,24.4078,贺州市,政协大楼,,12,6,9,3,8,37,,33,29,10,17,10,12,0.7,0.7
2025-05-17T1200,3534A,111.4744,24.4553,贺州市,西湾,,16,,11,11,8,33,,32,30,9,11,6,7,0.5,0.5
2025-05-17T1200,2385A,114.17,35.9019,鹤壁市,市监测站,颗粒物(PM10),118,185,151,40,55,90,,90,78,10,14,4,5,0.3,0.5
2025-05-17T1200,2386A,114.2956,35.7511,鹤壁市,市交警支队,颗粒物(PM10),106,161,137,29,44,82,,68,60,8,18,3,3,0,0.4
2025-05-17T1200,2387A,114.2878,35.7306,鹤壁市,迎宾馆,颗粒物(PM10),157,263,195,26,48,85,,69,65,10,22,3,4,0.4,0.5
2025-05-17T1200,3474A,114.2617,35.6822,鹤壁市,大新区,颗粒物(PM10),156,262,134,22,38,87,,67,67,11,22,7,10,0.2,0.5
2025-05-17T1200,3596A,114.1572,35.9603,鹤壁市,南山宾馆,颗粒物(PM10),148,246,197,34,56,98,,111,97,6,9,6,6,0.3,0.3
2025-05-17T1200,2244A,130.2537,47.3416,鹤岗市,哈啤分公司,,40,32,20,28,24,39,,67,58,27,8,19,13,0.4,0.3
2025-05-17T1200,2245A,130.2684,47.3086,鹤岗市,斯达机电,,43,43,30,27,24,49,,66,59,21,10,13,12,0.4,0.4
2025-05-17T1200,2246A,130.3114,47.3388,鹤岗市,东山纸板厂,,46,46,32,28,17,33,,56,53,30,13,14,13,0.5,0.5
2025-05-17T1200,2247A,130.1097,47.3382,鹤岗市,五号水库,,,,,,,,,,,,,,,,
2025-05-17T1200,2263A,127.4833,50.2524,黑河市,交通局,,40,34,27,28,22,56,,66,63,7,7,8,8,0.5,0.2
2025-05-17T1200,2264A,127.5144,50.2341,黑河市,环保局,,45,,25,31,20,58,,72,69,10,8,5,6,0.4,0.3
2025-05-17T1200,2265A,127.5291,50.2472,黑河市,大黑河岛,,38,36,24,26,17,28,,70,51,12,7,3,6,0.3,0.2
2025-05-17T1200,1074A,115.6838,37.7541,衡水市,电机北厂,颗粒物(PM10),51,51,187,27,63,105,,96,91,5,8,3,7,0.2,0.4
2025-05-17T1200,1075A,115.6303,37.7316,衡水市,市监测站,颗粒物(PM10),55,60,183,13,54,101,,94,88,2,6,3,4,0.2,0.3
2025-05-17T1200,3188A,115.6683,37.7217,衡水市,市城管局,颗粒物(PM10),56,62,198,22,58,108,,98,95,2,7,2,4,0.3,0.4
2025-05-17T1200,3459A,115.5989,37.5491,衡水市,地表水厂,颗粒物(PM10),54,57,198,17,49,106,,96,92,4,8,5,7,0.2,0.3
2025-05-17T1200,2456A,112.5003,26.9167,衡阳市,原169医院,,42,42,28,19,16,84,,39,39,6,18,4,4,0.8,0.8
2025-05-17T1200,2457A,112.6194,26.9258,衡阳市,衡阳化工总厂,颗粒物(PM10),69,88,35,40,22,64,,41,41,13,10,9,6,1.5,0.7
2025-05-17T1200,2458A,112.6211,26.8956,衡阳市,珠晖区环保局,,,53,30,,,74,,42,42,8,11,8,7,1.6,0.9
2025-05-17T1200,2459A,112.6197,26.8733,衡阳市,市委党校,,38,38,29,19,16,68,,43,43,5,9,5,4,0.8,0.7
2025-05-17T1200,2460A,112.6006,26.8919,衡阳市,市监测站,颗粒物(PM10),54,57,30,36,19,60,,41,41,15,12,12,10,1.3,0.7
2025-05-17T1200,2461A,112.5664,26.9056,衡阳市,真空机电公司,,48,48,31,21,20,66,,40,38,4,11,6,6,0.8,0.9
2025-05-17T1200,3399A,112.6703,26.882,衡阳市,师范学院,,43,43,26,24,15,75,,45,45,8,10,6,6,1.0,0.9
2025-05-17T1200,2608A,103.3772,23.3993,红河哈尼族彝族自治州,污水处理厂,,21,19,21,6,13,65,,49,47,5,6,16,7,0.4,0.4
2025-05-17T1200,2609A,103.3861,23.35,红河哈尼族彝族自治州,监测站,,25,18,23,17,16,60,,43,43,2,6,12,9,0.1,0.2
2025-05-17T1200,3038A,103.3758,23.368,红河哈尼族彝族自治州,州图书馆,,21,14,16,9,13,67,,53,51,2,3,10,3,0.2,0.2
2025-05-17T1200,1090A,111.6507,40.7517,呼和浩特市,呼市一监,,40,31,188,28,44,102,,92,90,1,2,9,8,0.3,0.3
2025-05-17T1200,1091A,111.6572,40.8033,呼和浩特市,小召,,34,34,194,23,36,98,,90,86,12,10,7,7,0.5,0.4
2025-05-17T1200,1094A,111.7516,40.8369,呼和浩特市,如意水处理厂,,49,49,129,22,38,93,,84,82,6,4,6,5,0.3,0.3
2025-05-17T1200,1095A,111.7276,40.8062,呼和浩特市,二十九中,,36,26,178,25,42,95,,88,85,3,3,5,4,0.5,0.4
2025-05-17T1200,1096A,111.5512,40.7866,呼和浩特市,工大金川校区,,38,,155,26,46,98,,84,83,7,6,6,6,0.5,0.5
2025-05-17T1200,1097A,111.717,40.7612,呼和浩特市,化肥厂生活区,,50,50,142,24,47,101,,91,88,7,7,6,6,0.3,0.3
2025-05-17T1200,3698A,111.5968,40.8178,呼和浩特市,红旗小学,,33,27,220,23,38,99,,88,86,9,7,4,4,0.4,0.4
2025-05-17T1200,3699A,111.6518,40.8389,呼和浩特市,海东办,细颗粒物(PM2.5),57,,182,40,51,93,,84,82,6,5,8,7,0.5,0.4
2025-05-17T1200,2192A,119.7594,49.2261,呼伦贝尔市,区环保局,,25,,36,16,30,78,,62,62,8,15,5,5,0.2,0.3
2025-05-17T1200,3061A,119.7512,49.1577,呼伦贝尔市,国华电力东,,26,,30,11,24,82,,66,66,4,8,1,3,0.3,0.3
2025-05-17T1200,1250A,120.0751,30.8669,湖州市,城西水厂,,45,44,57,31,40,86,,44,44,26,35,6,6,0.7,0.7
2025-05-17T1200,2873A,120.0830,30.8929,湖州市,仁皇山新区,,36,36,48,25,36,83,,51,51,30,28,4,4,1.0,0.9
2025-05-17T1200,2907A,120.1844,30.8596,湖州市,吴兴区站,,45,38,45,31,36,86,,60,60,30,24,6,6,0.8,0.7
2025-05-17T1200,3562A,120.4148,30.8538,湖州市,南浔区站,,39,,40,27,39,96,,82,82,18,20,4,3,0.8,0.8
2025-05-17T1200,1607A,120.9049,40.7211,葫芦岛市,龙港区,,26,26,28,7,14,83,,64,64,9,13,8,10,0.5,0.6
2025-05-17T1200,1608A,120.8392,40.7514,葫芦岛市,化工街,,26,24,31,7,17,83,,70,67,10,15,7,8,0.4,0.4
2025-05-17T1200,1609A,120.8341,40.7073,葫芦岛市,新区,,26,9,32,8,16,83,,71,67,11,14,6,6,0.5,0.6
2025-05-17T1200,1610A,120.8695,40.7677,葫芦岛市,东城区,,35,35,30,10,20,82,,66,65,10,16,5,5,0.5,0.6
2025-05-17T1200,2482A,109.5981,27.5721,怀化市,林科所,,40,37,35,28,22,74,,28,28,8,18,4,4,0.8,0.6
2025-05-17T1200,2483A,109.9453,27.5444,怀化市,河西地税局,,45,32,33,31,24,77,,26,26,8,12,3,3,0.6,0.6
2025-05-17T1200,2484A,109.9781,27.5342,怀化市,市四医院,细颗粒物(PM2.5),64,,44,46,30,86,,30,30,8,19,7,4,1.1,0.9
2025-05-17T1200,2485A,109.9972,27.5578,怀化市,监测楼,颗粒物(PM10),54,58,40,37,25,88,,37,37,14,16,6,2,0.4,0.4
2025-05-17T1200,2486A,110.0394,27.583,怀化市,市委党校,细颗粒物(PM2.5),87,,36,64,29,85,,33,33,8,11,5,3,0.8,0.7
2025-05-17T1200,1210A,119.036,33.5981,淮安市,钵池山,,46,41,29,26,28,146,,102,102,9,9,12,9,1.7,1.3
2025-05-17T1200,1211A,119.007,33.575,淮安市,北京南路,颗粒物(PM10),52,53,29,28,31,141,,94,94,10,12,15,9,2.0,1.1
2025-05-17T1200,1212A,118.989,33.6067,淮安市,市监测站,,49,41,35,34,28,137,,92,92,9,16,9,11,0.9,1.1
2025-05-17T1200,1213A,119.135,33.5039,淮安市,楚州区监测站,颗粒物(PM10),53,56,36,28,28,141,,90,90,2,10,7,6,0.6,0.5
2025-05-17T1200,3426A,118.8755,33.2894,淮安市,新华书店,,43,36,29,12,16,136,,90,90,6,15,8,8,0.7,0.6
2025-05-17T1200,4206A,119.0288,33.6319,淮安市,承德北路606号,颗粒物(PM10),53,56,38,27,29,141,,100,100,8,12,8,10,0.6,0.6
2025-05-17T1200,2282A,116.8004,33.975,淮北市,监测站,颗粒物(PM10),98,146,60,64,35,122,,108,108,12,14,6,6,0.5,0.6
2025-05-17T1200,2283A,116.8091,33.9007,淮北市,烈山区政府,颗粒物(PM10),375,480,68,90,37,107,,86,86,12,13,5,5,0.7,0.8
2025-05-17T1200,3330A,116.8873,33.9836,淮北市,杜集区检察院,颗粒物(PM10),460,560,86,52,39,118,,102,102,10,14,8,8,0.7,0.8
2025-05-17T1200,4017A,116.7923,33.9535,淮北市,市博物馆,颗粒物(PM10),118,186,57,75,36,124,,106,106,10,12,6,6,0.6,0.7
2025-05-17T1200,2277A,116.8305,32.7727,淮南市,潘集区政府,颗粒物(PM10),63,75,50,27,31,136,,91,91,7,12,5,3,0.5,0.5
2025-05-17T1200,2279A,116.8569,32.5951,淮南市,谢家集区政府,颗粒物(PM10),59,67,45,24,30,131,,80,80,11,18,5,4,0.3,0.3
2025-05-17T1200,2280A,116.8281,32.633,淮南市,八公山区政府,颗粒物(PM10),59,67,52,24,29,124,,87,87,8,11,5,4,0.4,0.4
2025-05-17T1200,2281A,116.6325,32.6201,淮南市,焦岗湖风景区管理处,,,,,,,,,,,,,,,,
2025-05-17T1200,2894A,117.0566,32.6531,淮南市,经济技术开发区消防队,颗粒物(PM10),52,54,39,31,33,122,,90,90,8,14,6,5,0.5,0.4
2025-05-17T1200,3329A,117.0108,32.5893,淮南市,山南新区,颗粒物(PM10),60,70,46,28,34,137,,95,95,11,14,9,8,0.5,0.4
2025-05-17T1200,4209A,117.0031,32.6445,淮南市,国庆中路369号,颗粒物(PM10),54,57,44,29,28,120,,85,85,6,10,11,10,0.3,0.3
2025-05-17T1200,2446A,114.9028,30.4742,黄冈市,职工中心,,,,,,,,,,,,,,,,
2025-05-17T1200,2929A,114.8858,30.4519,黄冈市,红卫路,,45,39,52,23,38,144,,72,72,2,19,6,7,0.7,0.9
2025-05-17T1200,3398A,114.9136,30.4445,黄冈市,市林业局,,44,32,55,19,36,138,,65,65,6,23,8,9,1.0,1.1
2025-05-17T1200,2672A,102.0199,35.5102,黄南藏族自治州,同仁县隆务镇,颗粒物(PM10),52,53,28,17,13,104,,88,88,6,3,4,4,0.2,0.1
2025-05-17T1200,2295A,118.2903,29.6963,黄山市,延安路89号,,25,12,12,3,6,77,,39,39,2,7,5,5,0.5,0.5
2025-05-17T1200,2297A,118.1371,30.2756,黄山市,黄山区政府5号楼,,19,12,16,9,7,59,,22,22,3,5,3,3,0.4,0.5
2025-05-17T1200,4210A,118.3354,29.7203,黄山市,滨江东路7-2号,,26,21,23,7,6,83,,39,39,2,6,4,4,0.2,0.3
2025-05-17T1200,2423A,115.0601,30.2313,黄石市,沈家营,,47,47,51,16,24,138,,60,60,2,20,7,7,1.1,0.9
2025-05-17T1200,2426A,114.8988,30.2019,黄石市,铁山,,46,36,41,23,20,146,,80,80,1,8,17,17,0.5,0.3
2025-05-17T1200,2427A,115.0307,30.2092,黄石市,团城山,,37,37,44,15,16,117,,67,67,7,11,10,7,0.9,0.8
2025-05-17T1200,3149A,115.0235,30.1578,黄石市,笔架山北路,,40,27,37,12,15,128,,73,73,2,3,6,7,0.8,0.8
2025-05-17T1200,4185A,115.0780,30.21118,黄石市,磁湖东路29号,,44,30,58,26,28,139,,59,59,5,29,7,6,0.9,0.8
2025-05-17T1200,1392A,114.4183,23.0528,惠州市,河南岸金山湖子站,,23,14,21,10,8,72,,36,36,9,14,8,8,0.2,0.3
2025-05-17T1200,1393A,114.4053,23.0822,惠州市,下埔横江三路子站,,27,16,23,7,9,84,,42,42,7,12,4,4,0.3,0.3
2025-05-17T1200,1394A,114.4103,23.1142,惠州市,江北云山西路子站,,29,18,26,9,9,91,,49,49,6,13,5,10,0.4,0.5
2025-05-17T1200,1395A,114.4645,22.7833,惠州市,惠阳区承修路船湖子站,,22,17,18,8,8,70,,45,45,9,10,7,7,0.4,0.5
2025-05-17T1200,1396A,114.5317,22.7422,惠州市,大亚湾管委会子站,,21,15,20,8,8,66,,47,47,11,11,8,6,0.4,0.4
2025-05-17T1200,3314A,114.4338,22.8134,惠州市,惠阳秋长,,25,14,21,7,9,80,,38,38,7,14,8,9,0.4,0.3
2025-05-17T1200,3452A,114.6517,22.775,惠州市,大亚湾霞涌,,18,15,11,3,4,57,,53,53,8,7,6,6,0.5,0.5
2025-05-17T1200,2240A,130.9762,45.3001,鸡西市,环保局,,46,46,39,18,19,140,,88,88,8,14,6,7,0.4,0.5
2025-05-17T1200,2243A,130.9429,45.3039,鸡西市,第一中学,,42,33,36,16,19,132,,83,83,4,12,6,8,0.5,0.5
2025-05-17T1200,3707A,131.0207,45.3073,鸡西市,欧美日汽修厂,,,,,,,,,,,,,,,,
2025-05-17T1200,3709A,130.9967,45.3106,鸡西市,市政设施管理处,颗粒物(PM10),53,56,43,22,20,130,,81,81,6,10,5,5,0.6,0.5
2025-05-17T1200,2367A,114.9754,27.0803,吉安市,红声器材厂,,,48,28,22,9,64,,30,30,11,17,13,10,,0.7
2025-05-17T1200,2368A,114.9658,27.0999,吉安市,市森林工业局,,46,41,21,32,13,62,,33,33,15,18,8,8,0.5,0.6
2025-05-17T1200,2369A,114.99,27.1312,吉安市,市环境监测站,颗粒物(PM10),51,52,24,20,13,68,,31,31,12,14,11,10,0.8,0.8
2025-05-17T1200,2370A,115.0093,27.0968,吉安市,青原区法院,,35,32,24,24,16,66,,22,22,9,17,12,10,0.4,0.6
2025-05-17T1200,1772A,126.54,43.8622,吉林市,哈达湾,,17,12,23,8,15,53,,87,66,10,9,5,6,0.3,0.3
2025-05-17T1200,1773A,126.5844,43.8358,吉林市,东局子,细颗粒物(PM2.5),94,,26,70,18,58,,101,76,12,12,6,6,0.4,0.4
2025-05-17T1200,1774A,126.5052,43.8245,吉林市,电力学院,,20,14,27,11,19,61,,97,76,7,11,4,4,0.4,0.4
2025-05-17T1200,1775A,126.6133,43.8972,吉林市,江北,,23,23,28,15,13,60,,100,74,12,13,5,6,0.3,0.3
2025-05-17T1200,1776A,126.555,43.8306,吉林市,江南公园,,18,13,23,7,15,57,,98,75,8,9,4,5,0.3,0.3
2025-05-17T1200,1778A,126.7061,43.7133,吉林市,丰满,,,,,,,,,,,,,,,,
2025-05-17T1200,2868A,126.4739,43.953,吉林市,九站,,20,,28,13,14,64,,97,71,9,10,6,6,0.3,0.3
2025-05-17T1200,1299A,116.9862,36.6114,济南市,科干所,颗粒物(PM10),64,78,97,3,34,99,,114,93,10,10,3,4,0.2,0.4
2025-05-17T1200,1300A,116.9376,36.665,济南市,农科所,颗粒物(PM10),88,125,113,3,32,97,,108,88,6,12,6,7,0.2,0.3
2025-05-17T1200,1301A,117.1265,36.6734,济南市,开发区,颗粒物(PM10),68,85,96,12,34,100,,114,91,5,9,6,8,0.5,0.7
2025-05-17T1200,1303A,117.0624,36.6868,济南市,省种子仓库,颗粒物(PM10),98,146,133,17,37,102,,115,93,5,10,4,5,0.3,0.5
2025-05-17T1200,1304A,116.9489,36.6447,济南市,机床二厂,颗粒物(PM10),88,125,124,12,34,99,,98,85,9,13,8,8,0.3,0.5
2025-05-17T1200,1305A,117.0495,36.663,济南市,市监测站,颗粒物(PM10),78,105,103,7,33,92,,108,86,12,13,8,8,0.3,0.5
2025-05-17T1200,1306A,116.7675,36.5484,济南市,长清党校,颗粒物(PM10),70,90,99,12,39,103,,105,92,6,12,4,6,0.6,0.9
2025-05-17T1200,1616A,117.6795,36.229,济南市,技术学院,颗粒物(PM10),108,166,115,12,36,93,,113,97,10,14,8,11,0.3,0.6
2025-05-17T1200,1961A,117.532,36.6868,济南市,东山小学,颗粒物(PM10),79,107,103,7,34,92,,114,92,1,6,5,6,0.2,0.4
2025-05-17T1200,3059A,117.7161,36.2049,济南市,泰兴公司,颗粒物(PM10),79,107,98,12,38,93,,108,94,9,15,5,7,0.0,0.4
2025-05-17T1200,3064A,117.6867,36.2171,济南市,莱芜战役纪念馆,颗粒物(PM10),95,139,107,7,35,98,,115,99,13,18,5,8,0.3,0.6
2025-05-17T1200,3494A,117.1673,36.9782,济南市,济阳区政府,颗粒物(PM10),79,107,119,3,33,101,,112,90,10,17,6,7,0.3,0.5
2025-05-17T1200,3495A,117.1171,36.63,济南市,锦屏中学,颗粒物(PM10),69,88,99,17,30,101,,114,93,7,10,8,9,0.2,0.4
2025-05-17T1200,3682A,116.9814,36.6819,济南市,济南四建,颗粒物(PM10),79,107,105,17,36,102,,111,92,7,11,4,5,0.2,0.5
2025-05-17T1200,1653A,116.6251,35.4302,济宁市,火炬城,颗粒物(PM10),190,329,115,41,45,90,,92,82,2,5,5,6,0.1,0.5
2025-05-17T1200,1655A,116.5491,35.4042,济宁市,电化厂,颗粒物(PM10),53,56,85,36,39,87,,87,79,3,4,1,3,0.2,0.7
2025-05-17T1200,3500A,116.5814,35.3707,济宁市,北湖一中,颗粒物(PM10),152,254,106,64,53,96,,83,79,3,6,2,3,0.1,0.5
2025-05-17T1200,3501A,116.8249,35.5593,济宁市,服务中心,颗粒物(PM10),190,330,86,36,39,88,,91,84,6,11,3,2,0.1,0.5
2025-05-17T1200,3678A,116.5907,35.4054,济宁市,市第七中学,颗粒物(PM10),171,291,115,44,40,88,,88,80,1,4,6,8,0.2,0.4
2025-05-17T1200,2255A,130.2751,46.8028,佳木斯市,佳纺,,27,27,23,17,12,57,,58,54,15,14,3,2,0.3,0.3
2025-05-17T1200,2256A,130.3995,46.8307,佳木斯市,发电厂,,26,24,18,18,14,55,,63,58,20,8,4,5,0.3,0.2
2025-05-17T1200,2257A,130.3258,46.7975,佳木斯市,环保局,,35,35,21,22,15,56,,56,48,19,16,12,5,0.4,0.4
2025-05-17T1200,2258A,130.3648,46.8032,佳木斯市,十一中,,32,32,20,22,14,54,,62,53,25,12,3,3,0.5,0.4
2025-05-17T1200,2259A,130.3794,46.7588,佳木斯市,四丰,,,,14,17,11,,,,,9,15,1,1,0.4,0.3
2025-05-17T1200,1252A,120.7436,30.778,嘉兴市,清河小学,,30,30,36,14,23,75,,68,68,24,22,6,5,1.0,1.1
2025-05-17T1200,1253A,120.726,30.7478,嘉兴市,嘉兴学院,,34,34,42,20,31,88,,75,75,14,19,6,6,0.4,0.5
2025-05-17T1200,2872A,120.7846,30.7525,嘉兴市,南湖区残联,,32,21,34,16,28,101,,80,80,12,17,6,5,0.9,0.9
2025-05-17T1200,3407A,120.6916,30.7739,嘉兴市,秀洲住建,颗粒物(PM10),56,62,71,19,25,87,,70,70,12,19,6,6,0.9,1
2025-05-17T1200,1945A,98.2908,39.7711,嘉峪关市,气象局,,,66,259,,58,107,,76,73,1,8,3,12,0.3,0.5
2025-05-17T1200,2884A,98.2672,39.7978,嘉峪关市,酒钢宾馆,颗粒物(PM10),76,102,265,22,67,115,,82,78,2,10,4,24,0.7,0.9
2025-05-17T1200,3248A,98.2643,39.7724,嘉峪关市,雄关区,颗粒物(PM10),51,52,201,24,46,116,,80,75,18,22,9,12,0.2,0.5
2025-05-17T1200,1383A,113.1064,22.6058,江门市,北街,,26,26,17,7,9,61,,25,25,5,11,4,4,0.3,0.3
2025-05-17T1200,1384A,113.0731,22.5835,江门市,西区,,22,13,16,8,5,69,,36,36,7,13,6,6,0.4,0.5
2025-05-17T1200,1385A,113.0219,22.5311,江门市,圭峰西,,30,30,21,7,12,61,,33,33,5,11,4,4,0.3,0.4
2025-05-17T1200,1386A,113.0828,22.5947,江门市,东湖,,22,10,17,9,9,70,,36,36,8,13,7,8,0.4,0.5
2025-05-17T1200,3311A,113.1075,22.5647,江门市,江海富民,,22,20,26,11,14,70,,35,35,4,12,8,8,0.3,0.3
2025-05-17T1200,3449A,113.05,22.4667,江门市,新会银湖,,17,15,16,7,9,52,,23,23,4,13,3,2,0.3,0.3
2025-05-17T1200,1830A,113.1992,35.2590,焦作市,影视城,,,,204,,37,,,,,,8,,8,,0.2
2025-05-17T1200,3169A,113.2725,35.2067,焦作市,太极体育中心,,,181,146,,54,123,,108,108,7,15,4,5,0.0,0.1
2025-05-17T1200,3335A,113.3137,35.2641,焦作市,马村街道办,颗粒物(PM10),273,401,144,114,50,126,,114,114,13,18,10,11,0.4,0.6
2025-05-17T1200,3336A,113.2465,35.2373,焦作市,焦作技师学院,颗粒物(PM10),125,200,139,29,38,122,,103,103,7,15,5,8,0.3,0.6
2025-05-17T1200,3477A,113.1656,35.2539,焦作市,中站许衡医院,颗粒物(PM10),83,115,124,37,47,141,,120,120,6,15,4,10,0.3,0.7
2025-05-17T1200,3981A,113.2449,35.1803,焦作市,原李万街道办,颗粒物(PM10),105,160,154,51,52,130,,107,107,7,15,10,15,0.6,0.5
2025-05-17T1200,4264A,113.2340,35.2190,焦作市,新安路1731号,颗粒物(PM10),100,150,147,44,50,122,,102,102,8,17,5,9,0.5,0.6
2025-05-17T1200,1708A,116.3701,23.5345,揭阳市,新兴,,44,44,26,16,12,85,,45,45,6,8,6,6,0.4,0.4
2025-05-17T1200,1709A,116.3264,23.5443,揭阳市,西马,,24,22,26,14,9,76,,40,40,4,7,7,7,0.4,0.5
2025-05-17T1200,1710A,116.3611,23.5626,揭阳市,东兴,,41,41,21,11,10,85,,44,44,2,4,4,5,0.4,0.5
2025-05-17T1200,1711A,116.4151,23.5294,揭阳市,渔湖,颗粒物(PM10),66,81,31,13,9,91,,44,44,7,10,5,4,0.4,0.5
2025-05-17T1200,3320A,116.403,23.5699,揭阳市,曲溪,,33,17,22,13,10,104,,48,48,8,12,4,6,0.3,0.5
2025-05-17T1200,1944A,102.1692,38.5167,金昌市,天庆家园,颗粒物(PM10),272,400,288,148,94,107,,94,94,10,6,19,15,0.6,0.6
2025-05-17T1200,4022A,102.1647,38.5371,金昌市,金川区人防中心,颗粒物(PM10),389,491,333,168,94,98,,90,90,10,7,8,14,0.5,0.5
2025-05-17T1200,4239A,102.1930,38.5319,金昌市,长春路96号,颗粒物(PM10),409,509,361,167,113,99,,94,94,7,5,5,30,0.6,0.7
2025-05-17T1200,1262A,119.647,29.077,金华市,十五中,,20,20,28,3,14,60,,40,40,15,23,2,2,0.5,0.6
2025-05-17T1200,1263A,119.686,29.1029,金华市,监测站,,19,14,26,12,19,60,,,,11,19,2,4,0.6,0.7
2025-05-17T1200,3659A,119.656,29.1131,金华市,气象局,,20,20,22,12,11,48,,27,27,16,23,2,4,0.6,0.7
2025-05-17T1200,1767A,121.1115,41.0879,锦州市,南山,,25,24,27,12,24,80,,69,67,8,10,5,6,0.6,0.6
2025-05-17T1200,1768A,121.0604,40.8428,锦州市,开发区,,33,33,35,6,20,84,,71,66,10,19,7,7,0.6,0.6
2025-05-17T1200,1769A,121.1836,41.1119,锦州市,百股街道,,,,26,,18,80,,74,70,7,11,6,7,,0.6
2025-05-17T1200,1770A,121.1178,41.1222,锦州市,天安街道,,25,22,33,14,44,79,,75,70,8,11,5,5,0.4,0.5
2025-05-17T1200,1771A,121.1303,41.1386,锦州市,北湖公园,,34,34,34,11,23,80,,69,67,9,11,5,6,0.5,0.6
2025-05-17T1200,2160A,112.85,35.5051,晋城市,自来水公司,,,,163,,39,134,,111,111,,11,,7,0,0.2
2025-05-17T1200,2161A,112.8318,35.4936,晋城市,白云商贸,颗粒物(PM10),57,63,155,3,34,134,,111,111,12,15,6,7,0.3,0.5
2025-05-17T1200,2162A,112.8508,35.4887,晋城市,市环保局,颗粒物(PM10),58,66,163,14,39,130,,108,108,8,11,4,6,0.2,0.2
2025-05-17T1200,2163A,112.8676,35.4897,晋城市,技术学院,颗粒物(PM10),53,55,154,3,46,129,,106,106,10,14,7,8,0.4,0.6
2025-05-17T1200,2165A,112.8453,35.546,晋城市,白马寺,颗粒物(PM10),58,65,149,15,47,141,,119,119,5,6,3,5,0.1,0.3
2025-05-17T1200,3620A,112.8271,35.4828,晋城市,泽州一中,颗粒物(PM10),75,99,169,7,42,139,,111,111,8,11,7,8,0.2,0.4
2025-05-17T1200,2173A,112.7249,37.7067,晋中市,南都小区,,40,40,302,6,50,98,,88,85,7,9,5,5,0.3,0.3
2025-05-17T1200,2174A,112.6991,37.6982,晋中市,榆次区政府,,31,27,316,6,41,99,,90,85,12,9,6,7,0.2,0.3
2025-05-17T1200,2865A,112.7195,37.6828,晋中市,榆次三中,,34,34,361,3,59,101,,90,86,4,5,4,4,0.4,0.4
2025-05-17T1200,4200A,112.7478,37.6954,晋中市,迎宾街26号,,31,29,321,3,57,99,,88,86,4,6,4,4,0.0,0.1
2025-05-17T1200,2439A,112.2014,31.0481,荆门市,竹园小学,细颗粒物(PM2.5),114,122,71,86,46,106,,82,77,29,13,14,6,0.8,0.5
2025-05-17T1200,2440A,112.1969,30.9891,荆门市,掇刀,细颗粒物(PM2.5),90,89,57,67,49,111,,86,75,19,10,10,8,0.7,0.5
2025-05-17T1200,2441A,112.2213,31.0386,荆门市,石化一小,细颗粒物(PM2.5),152,,67,116,59,99,,76,68,38,18,14,7,0.9,0.6
2025-05-17T1200,3012A,112.1849,31.0362,荆门市,西山林语,细颗粒物(PM2.5),113,89,50,85,42,103,,69,67,26,10,18,9,0.8,0.5
2025-05-17T1200,3547A,112.1632,31.0138,荆门市,龙泉中学南校,细颗粒物(PM2.5),68,73,48,49,34,109,,62,62,21,12,11,5,0.7,0.6
2025-05-17T1200,1844A,112.2494,30.3197,荆州市,市图书馆,,38,31,34,26,27,114,,82,77,11,16,5,5,0.4,0.5
2025-05-17T1200,1845A,112.2008,30.3544,荆州市,市委党校,,45,45,40,25,29,99,,69,65,9,15,7,7,0.4,0.4
2025-05-17T1200,3194A,112.2747,30.3122,荆州市,管委会,颗粒物(PM10),53,55,36,31,29,109,,79,73,10,13,9,9,0.6,0.7
2025-05-17T1200,4268A,112.1722,30.3366,荆州市,学苑路85号,,35,33,39,24,33,102,,63,63,10,16,4,3,0.6,0.6
2025-05-17T1200,2342A,117.3102,29.3867,景德镇市,王港中学,,,,,,,,,,,,,,,,
2025-05-17T1200,2343A,117.2117,29.2933,景德镇市,老干部活动中心,,32,24,31,9,16,100,,49,49,7,19,8,10,0.5,0.6
2025-05-17T1200,2344A,117.1894,29.2789,景德镇市,兽医站,,38,29,37,26,18,91,,42,42,5,19,4,3,0.5,0.6
2025-05-17T1200,2345A,117.1547,29.2617,景德镇市,台达陶瓷,,40,40,41,20,25,93,,41,41,15,21,9,48,0.4,0.7
2025-05-17T1200,2346A,117.2461,29.2956,景德镇市,陶研所,,31,26,28,17,18,98,,49,49,9,10,7,7,0.3,0.3
2025-05-17T1200,1803A,115.9872,29.6815,九江市,十里,,33,21,29,19,21,105,,40,40,4,19,2,2,0.7,0.8
2025-05-17T1200,1804A,115.9584,29.7046,九江市,茅山头,,35,25,32,19,23,110,,49,49,6,15,4,4,0.6,0.8
2025-05-17T1200,1805A,115.9877,29.7295,九江市,西园,,,,26,15,22,97,,46,46,33,43,5,6,0.8,1
2025-05-17T1200,1808A,115.9114,29.6038,九江市,综合工业园,颗粒物(PM10),60,69,30,15,16,111,,56,56,11,22,6,6,0.8,1
2025-05-17T1200,1809A,116.0721,29.7535,九江市,石化总厂,,32,24,30,16,28,101,,50,50,15,13,4,5,0.7,0.8
2025-05-17T1200,1810A,115.9773,29.5698,九江市,庐山气象台,,39,39,12,26,12,105,,79,79,5,4,6,7,0.8,0.7
2025-05-17T1200,3190A,116.0254,29.6994,九江市,外国语学校,,32,,20,20,22,102,,39,39,10,23,4,4,0.8,1
2025-05-17T1200,4253A,116.0102,29.6594,九江市,莲花大道8号,,34,28,14,14,17,108,,43,43,4,8,4,4,0.6,0.8
2025-05-17T1200,4240A,98.4958,39.7339,酒泉市,玉门东路5号,颗粒物(PM10),123,195,308,46,60,100,,73,69,2,5,10,14,0.2,0.3
2025-05-17T1200,4241A,98.5099,39.7506,酒泉市,北大街108号,颗粒物(PM10),133,215,305,42,60,102,,73,71,,9,10,18,0.3,0.2
2025-05-17T1200,2698A,76.0072,39.4467,喀什地区,巡警大队,颗粒物(PM10),213,359,355,127,111,54,,28,28,33,35,7,5,0.5,0.5
2025-05-17T1200,2699A,75.9755,39.4694,喀什地区,吾办,细颗粒物(PM2.5),247,352,338,197,186,60,,37,37,26,31,7,9,0.6,0.8
2025-05-17T1200,4027A,75.9483,39.4689,喀什地区,老干局,颗粒物(PM10),177,304,311,99,100,57,,40,40,18,28,7,5,0.2,0.4
2025-05-17T1200,1824A,114.3389,34.7781,开封市,肿瘤医院,颗粒物(PM10),500,651,157,72,38,92,,81,80,6,13,7,7,0.3,0.5
2025-05-17T1200,1826A,114.2885,34.7965,开封市,世纪星幼儿园,颗粒物(PM10),500,658,167,92,35,99,,83,83,11,16,8,8,0.4,0.6
2025-05-17T1200,3147A,114.3438,34.8106,开封市,龙亭公园,颗粒物(PM10),500,654,166,62,29,97,,89,88,8,12,2,2,0.3,0.5
2025-05-17T1200,3210A,114.3644,34.7964,开封市,汴京公园,颗粒物(PM10),500,694,173,74,33,88,,81,79,8,12,4,5,0.4,0.6
2025-05-17T1200,3473A,114.2485,34.8306,开封市,技师学院,颗粒物(PM10),496,596,144,76,47,99,,91,88,8,13,2,3,0.3,0.6
2025-05-17T1200,3592A,114.4644,34.7556,开封市,祥符区生态环境局,颗粒物(PM10),310,428,140,83,37,88,,88,82,18,17,13,8,0.6,0.5
2025-05-17T1200,1951A,84.895,45.6094,克拉玛依市,长征新村,,29,27,39,3,6,90,,76,72,8,7,7,6,0.5,0.4
2025-05-17T1200,1952A,84.8988,45.5893,克拉玛依市,南林小区,,35,29,29,24,13,95,,77,73,7,11,5,5,0.1,0.2
2025-05-17T1200,1954A,84.905,44.3396,克拉玛依市,独山子区,,30,25,30,15,14,95,,72,71,10,9,12,6,0.4,0.3
2025-05-17T1200,1955A,85.6979,46.098,克拉玛依市,乌尔禾区商贸楼,,43,43,28,9,7,88,,66,57,5,7,10,10,0.4,0.4
2025-05-17T1200,3612A,85.1045,45.6899,克拉玛依市,白碱滩区新站,,43,43,43,9,24,96,,93,74,13,9,12,12,0.2,0.2
2025-05-17T1200,2697A,76.1454,39.7142,克孜勒苏柯尔克孜自治州,市人民政府,颗粒物(PM10),175,299,342,123,134,75,,72,72,,11,3,10,,0.2
2025-05-17T1200,3665A,76.1658,39.7157,克孜勒苏柯尔克孜自治州,克州文化中心,细颗粒物(PM2.5),281,308,339,231,150,94,,76,76,25,17,3,15,0.4,0.3
2025-05-17T1200,1450A,102.8204,24.8886,昆明市,呈贡新区,,30,25,34,12,21,93,,69,69,8,14,6,8,0.5,0.5
2025-05-17T1200,1451A,102.6251,24.9608,昆明市,西山森林公园,,,,,,,,,,,,,,,,
2025-05-17T1200,1452A,102.7252,25.0902,昆明市,龙泉镇,,28,20,30,19,14,88,,56,56,10,23,2,2,0.4,0.4
2025-05-17T1200,1453A,102.7266,25.0375,昆明市,东风东路,颗粒物(PM10),56,61,33,29,22,74,,70,64,27,15,8,8,0.4,0.4
2025-05-17T1200,1454A,102.6742,25.0669,昆明市,金鼎山,,37,37,33,23,18,82,,61,61,19,17,4,4,0.4,0.3
2025-05-17T1200,1455A,102.6644,25.0401,昆明市,碧鸡广场,,41,41,35,23,24,70,,57,57,26,23,6,7,0.5,0.5
2025-05-17T1200,3179A,102.7494,25.0119,昆明市,官渡区博物馆,,33,33,29,17,16,81,,69,63,18,14,8,7,0.4,0.4
2025-05-17T1200,3375A,102.8017,24.8336,昆明市,青年创业园,,31,26,28,13,16,97,,73,73,8,13,7,10,0.4,0.4
2025-05-17T1200,3550A,102.7997,24.9786,昆明市,昆明学院,,28,28,29,14,17,80,,67,62,16,14,5,5,0.3,0.3
2025-05-17T1200,3551A,102.5967,24.6736,昆明市,晋宁区生态环境分局,,32,,21,22,14,91,,76,76,9,7,6,7,0.6,0.6
2025-05-17T1200,3552A,102.6678,24.9856,昆明市,云天化总部,,31,31,26,19,17,69,,65,61,20,11,4,4,0.8,0.6
2025-05-17T1200,1456A,91.1319,29.6514,拉萨市,八廓街,,40,7,10,3,7,128,,126,126,19,11,5,6,0.3,0.3
2025-05-17T1200,1457A,91.1221,29.6747,拉萨市,市环保局,,35,6,11,6,8,110,,104,100,21,15,4,4,0.3,0.2
2025-05-17T1200,1458A,91.0874,29.6475,拉萨市,区监测站,,37,7,9,6,7,116,,116,115,26,19,5,6,0.3,0.2
2025-05-17T1200,1459A,91.1774,29.6541,拉萨市,西藏大学,,42,6,8,3,6,134,,135,134,12,9,6,4,0.2,0.2
2025-05-17T1200,1460A,90.9798,29.6588,拉萨市,区辐射站,,38,6,12,6,8,120,,108,108,26,25,5,5,0.4,0.4
2025-05-17T1200,1461A,91.0834,29.6292,拉萨市,拉萨火车站,,38,,8,6,7,121,,123,122,26,13,3,3,0.5,0.4
2025-05-17T1200,2520A,109.2203,23.7256,来宾市,来宾技工学校,,33,33,20,12,10,48,,25,25,7,13,7,9,0.6,0.6
2025-05-17T1200,3535A,109.1781,23.7297,来宾市,兴宾区政府,,25,20,13,17,9,44,,29,29,8,12,4,4,0.6,0.6
2025-05-17T1200,4002A,109.2416,23.7461,来宾市,中南小学,,35,26,20,24,11,49,,27,27,7,13,8,9,0.6,0.6
2025-05-17T1200,1477A,104.1373,35.9454,兰州市,榆中兰大校区,,,,,,,,,,,,,,,,
2025-05-17T1200,1479A,103.831,36.0464,兰州市,铁路设计院,颗粒物(PM10),258,390,222,137,85,71,,78,67,30,36,16,11,0.6,0.5
2025-05-17T1200,3241A,103.7439,36.0842,兰州市,百合公园,颗粒物(PM10),222,365,218,118,74,82,,70,65,16,24,14,7,0.6,0.4
2025-05-17T1200,3242A,103.9611,35.998,兰州市,和平,颗粒物(PM10),212,358,170,149,68,79,,64,,15,13,10,8,,0.3
2025-05-17T1200,4236A,103.6293,36.0938,兰州市,庄浪东路808号,颗粒物(PM10),347,457,224,167,87,80,,54,54,20,34,21,12,0.3,0.3
2025-05-17T1200,4237A,103.7251,36.1043,兰州市,安宁西路88号,颗粒物(PM10),269,398,262,123,86,93,,83,76,9,16,16,9,0.4,0.3
2025-05-17T1200,4238A,103.8470,36.0676,兰州市,北滨河东路1号,颗粒物(PM10),263,394,243,128,78,78,,74,64,23,34,15,10,0.7,0.6
2025-05-17T1200,3245A,103.6633,36.533,兰州新区,新区管委会,细颗粒物(PM2.5),192,270,219,144,106,104,,98,96,8,6,10,13,0.3,0.3
2025-05-17T1200,3246A,103.6975,36.4789,兰州新区,舟曲中学,颗粒物(PM10),270,399,303,155,109,100,,94,92,6,9,11,9,0.3,0.3
2025-05-17T1200,1067A,116.6708,39.5111,廊坊市,药材公司,,41,41,114,23,45,90,,82,82,4,8,3,3,0.4,0.5
2025-05-17T1200,1068A,116.7214,39.5589,廊坊市,开发区,,44,44,134,20,42,92,,83,83,6,10,2,3,0.3,0.4
2025-05-17T1200,1070A,116.7244,39.5269,廊坊市,北华航天学院,,41,41,148,22,53,95,,86,86,7,9,2,4,0.2,0.4
2025-05-17T1200,2919A,116.7022,39.5453,廊坊市,河北工业大学,,48,48,131,19,42,91,,82,82,3,9,3,4,0.2,0.4
2025-05-17T1200,2535A,103.7723,29.5462,乐山市,花湖湾,细颗粒物(PM2.5),97,109,75,72,52,8,,46,30,48,15,11,3,0.9,0.6
2025-05-17T1200,2536A,103.7627,29.5844,乐山市,牛耳桥,细颗粒物(PM2.5),115,123,77,87,52,23,,48,36,36,18,35,9,1.0,0.8
2025-05-17T1200,2537A,103.7508,29.6006,乐山市,市第三水厂,细颗粒物(PM2.5),83,99,75,61,49,32,,49,38,33,21,22,7,1.1,0.8
2025-05-17T1200,2538A,103.7571,29.5664,乐山市,市监测站,,,116,78,65,44,20,,45,34,,12,12,9,1.0,0.9
2025-05-17T1200,3361A,103.7311,29.5628,乐山市,理工大学,细颗粒物(PM2.5),92,93,72,68,52,21,,40,33,36,19,14,8,1.1,0.9
2025-05-17T1200,2598A,100.2143,26.8576,丽江市,西南郊,,,,,,,,,,,,,,,,
2025-05-17T1200,2599A,100.2497,26.8802,丽江市,丽江古城,,36,26,26,16,15,115,,97,97,11,10,9,9,0.4,0.5
2025-05-17T1200,2600A,100.2203,26.8906,丽江市,市中心,,38,33,22,17,13,119,,83,83,10,12,8,8,0.4,0.4
2025-05-17T1200,1267A,119.914,28.4514,丽水市,监测站大楼,,33,33,22,11,13,47,,22,22,15,20,3,2,0.7,0.7
2025-05-17T1200,1268A,119.93,28.4586,丽水市,莲都小学,,,59,43,16,13,48,,21,21,,20,3,3,,0.4
2025-05-17T1200,1269A,119.879,28.4231,丽水市,余庄前,,39,39,31,27,18,44,,14,14,20,17,3,3,0.8,0.7
2025-05-17T1200,1173A,119.176,34.5885,连云港市,市环境监测站,颗粒物(PM10),62,73,33,41,26,144,,106,106,16,16,8,7,0.4,0.3
2025-05-17T1200,3000A,119.3581,34.6972,连云港市,德源药业,颗粒物(PM10),63,75,31,36,20,144,,110,110,10,9,10,9,0.6,0.6
2025-05-17T1200,3007A,119.178,34.844,连云港市,新城一中,细颗粒物(PM2.5),54,48,30,38,21,133,,96,96,13,12,8,7,0.7,0.6
2025-05-17T1200,3008A,119.3608,34.7519,连云港市,胡沟管理处,颗粒物(PM10),53,56,25,34,19,146,,127,127,11,12,11,8,0.9,0.7
2025-05-17T1200,3009A,119.1478,34.5911,连云港市,矿山设计院,颗粒物(PM10),59,68,31,34,18,141,,118,118,10,10,8,6,0.6,0.5
2025-05-17T1200,3434A,119.2413,34.6539,连云港市,工贸学校,颗粒物(PM10),53,55,25,36,16,152,,117,117,3,3,10,9,0.8,0.6
2025-05-17T1200,3664A,119.4172,34.7341,连云港市,连云街道,细颗粒物(PM2.5),63,71,34,45,21,149,,141,141,17,13,10,8,0.6,0.5
2025-05-17T1200,2571A,102.3431,27.8099,凉山彝族自治州,青龙寺,,30,15,17,3,5,93,,56,56,1,3,4,4,0.4,0.5
2025-05-17T1200,2572A,102.2721,27.8415,凉山彝族自治州,邛海宾馆,,30,28,19,9,12,94,,57,57,10,12,9,9,0.5,0.5
2025-05-17T1200,2573A,102.2625,27.898,凉山彝族自治州,西昌市政府,,31,16,18,10,11,97,,64,64,9,10,11,11,0.4,0.5
2025-05-17T1200,2574A,102.2685,27.8851,凉山彝族自治州,凉山州政府,,30,17,17,9,12,95,,63,63,10,12,6,7,0.8,0.8
2025-05-17T1200,4229A,102.2342,27.8859,凉山彝族自治州,凯乐南路30号,,33,17,18,9,10,105,,71,71,11,12,5,5,0.2,0.4
2025-05-17T1200,2212A,123.2,41.1953,辽阳市,宏伟区,,24,24,22,12,13,66,,92,81,8,6,6,6,0.5,0.5
2025-05-17T1200,2213A,123.1683,41.2495,辽阳市,新华园,,22,20,23,15,13,61,,84,75,8,5,6,7,0.5,0.4
2025-05-17T1200,2214A,123.2354,41.2639,辽阳市,滨河路,,,36,26,17,10,61,,90,76,8,8,,7,,0.5
2025-05-17T1200,2215A,123.149,41.2991,辽阳市,铁西工业园,,21,21,33,12,12,62,,86,76,8,6,5,5,0.4,0.4
2025-05-17T1200,2227A,125.1358,42.8845,辽源市,环保局,,27,27,23,11,6,72,,111,88,14,12,10,7,0.4,0.4
2025-05-17T1200,3239A,125.0764,42.9078,辽源市,银鹰制药,,25,12,18,8,10,80,,116,94,10,10,2,3,0.3,0.3
2025-05-17T1200,1625A,115.9848,36.4372,聊城市,区政府,颗粒物(PM10),86,121,159,14,38,106,,93,90,6,8,4,6,0.4,0.7
2025-05-17T1200,2878A,116.0072,36.4343,聊城市,聊大东校,颗粒物(PM10),93,136,149,23,51,103,,94,89,4,9,6,6,0.2,0.4
2025-05-17T1200,3200A,115.9819,36.4978,聊城市,监控中心,颗粒物(PM10),84,117,173,12,38,104,,94,89,3,7,5,6,0.2,0.6
2025-05-17T1200,3513A,116.0445,36.4361,聊城市,九州社区,颗粒物(PM10),74,98,122,3,34,109,,97,94,2,7,4,4,0.3,0.5
2025-05-17T1200,4018A,116.0567,36.4608,聊城市,星美广场,颗粒物(PM10),75,100,139,7,34,100,,93,87,2,4,7,8,0.5,0.7
2025-05-17T1200,2632A,94.3681,29.6376,林芝市,林芝监测站,,22,9,6,6,5,68,,72,67,11,6,5,6,0.3,0.3
2025-05-17T1200,2633A,94.3616,29.6616,林芝市,林芝人民医院,,39,39,11,6,5,71,,68,67,10,4,6,6,0.3,0.3
2025-05-17T1200,2603A,100.0781,23.8982,临沧市,市环保局,,39,39,45,23,35,101,,57,57,7,10,7,6,0.7,0.7
2025-05-17T1200,2604A,100.0894,23.8822,临沧市,市气象局,,35,33,39,23,28,110,,62,62,10,12,9,8,0.5,0.6
2025-05-17T1200,1733A,111.5531,36.0783,临汾市,临钢医院,颗粒物(PM10),52,54,276,6,53,108,,101,101,10,11,3,6,0.4,0.5
2025-05-17T1200,1734A,111.5028,36.0714,临汾市,技工学校,,46,46,239,11,53,118,,104,104,3,6,2,5,0.2,0.3
2025-05-17T1200,1736A,111.5018,36.0855,临汾市,市委,颗粒物(PM10),54,57,245,3,46,120,,106,106,8,11,3,5,0.3,0.5
2025-05-17T1200,3018A,111.505,36.1014,临汾市,唐尧大酒店,,44,44,222,25,56,117,,103,103,6,8,3,6,0.3,0.4
2025-05-17T1200,4244A,111.4879,36.0530,临汾市,启星学校,,37,36,206,3,49,117,,105,105,4,8,2,4,0.3,0.4
2025-05-17T1200,4271A,103.2464,35.6123,临夏回族自治州,滨河东路1号,颗粒物(PM10),115,180,92,69,39,94,,49,49,7,23,9,8,0.3,0.4
2025-05-17T1200,4310A,103.2093,35.5995,临夏回族自治州,新华街21号,颗粒物(PM10),125,199,104,72,44,93,,54,54,10,24,5,7,0.3,0.4
2025-05-17T1200,1618A,118.3429,35.0532,临沂市,沂河小区,颗粒物(PM10),427,527,82,54,29,107,,92,92,13,12,5,7,0.2,0.4
2025-05-17T1200,1619A,118.295,35.0583,临沂市,鲁南制药厂,颗粒物(PM10),476,576,76,54,31,118,,97,97,17,19,,8,,0.5
2025-05-17T1200,1620A,118.2794,34.9976,临沂市,新光毛纺厂,颗粒物(PM10),307,425,65,47,32,114,,96,96,18,21,6,10,0.3,0.4
2025-05-17T1200,1621A,118.3956,35.0888,临沂市,河东保险公司,颗粒物(PM10),289,412,67,112,36,113,,98,98,5,10,5,7,0.3,0.5
2025-05-17T1200,3370A,118.3564,35.0215,临沂市,十里堡居委,颗粒物(PM10),425,525,74,83,38,123,,100,100,14,18,5,8,0.4,0.6
2025-05-17T1200,3496A,118.3604,35.1084,临沂市,南坊新区,颗粒物(PM10),464,564,83,97,34,111,,92,92,8,11,6,8,0.2,0.4
2025-05-17T1200,3860A,118.3920,35.0300,临沂市,皇山花园小区,颗粒物(PM10),403,503,70,80,38,117,,96,96,14,19,7,10,0.4,0.7
2025-05-17T1200,1870A,109.4856,24.3895,柳州市,柳东小学,,20,18,13,14,8,35,,26,26,8,11,9,9,0.4,0.4
2025-05-17T1200,1871A,109.4157,24.3277,柳州市,环保监测站,,19,19,17,13,10,39,,30,30,10,12,1,1,0.7,0.7
2025-05-17T1200,1872A,109.389,24.341,柳州市,河西水厂,,22,22,18,14,11,34,,22,22,13,14,4,4,0.5,0.5
2025-05-17T1200,1873A,109.4311,24.2921,柳州市,市四中,,24,24,19,12,11,36,,24,24,10,15,7,7,0.5,0.4
2025-05-17T1200,1874A,109.4006,24.3631,柳州市,市九中,,27,27,19,11,9,33,,23,23,13,12,7,7,0.6,0.6
2025-05-17T1200,1875A,109.4958,24.3134,柳州市,古亭山,,24,24,15,9,5,31,,16,16,9,15,5,5,0.9,0.9
2025-05-17T1200,3402A,109.5422,24.3996,柳州市,市二中,,30,30,17,13,10,28,,19,19,14,16,10,10,0.4,0.4
2025-05-17T1200,2307A,116.5079,31.737,六安市,监测大楼,,39,31,30,11,21,122,,81,81,4,11,4,3,0.4,0.5
2025-05-17T1200,2308A,116.4738,31.7643,六安市,皖西学院,,,47,38,17,21,138,,93,93,,8,5,5,0.3,0.2
2025-05-17T1200,2309A,116.4996,31.7905,六安市,朝阳厂,,39,38,31,14,22,124,,78,78,11,16,4,4,0.3,0.4
2025-05-17T1200,2310A,116.5567,31.7886,六安市,开发区,,42,33,42,19,26,133,,84,84,8,15,6,5,0.5,0.5
2025-05-17T1200,2576A,104.8,26.5892,六盘水市,窑上,,38,38,37,19,27,91,,80,80,6,7,6,5,0.3,0.4
2025-05-17T1200,2577A,104.83,26.5917,六盘水市,黄土坡,,33,32,29,18,24,104,,95,95,9,12,10,9,0.3,0.5
2025-05-17T1200,2578A,104.89,26.5939,六盘水市,水钢,颗粒物(PM10),55,59,36,33,23,72,,84,70,39,20,62,17,2.2,0.9
2025-05-17T1200,2579A,104.8475,26.5894,六盘水市,民中,,31,27,27,14,19,98,,92,91,8,13,10,8,0.3,0.4
2025-05-17T1200,2580A,104.9544,26.5506,六盘水市,双水,,31,31,24,14,15,95,,91,90,12,15,15,9,0.2,0.2
2025-05-17T1200,2335A,117.0189,25.1181,龙岩市,龙岩师专,,,,,,,,,,,,,,,,
2025-05-17T1200,2336A,117.0217,25.1033,龙岩市,龙岩市监测站,,26,26,22,14,13,80,,38,38,8,18,6,9,0.4,0.5
2025-05-17T1200,2337A,117.0258,25.0661,龙岩市,闽西职业技术学院,,22,,33,13,16,69,,33,33,5,18,5,39,0.4,0.4
2025-05-17T1200,2338A,117.0196,25.0306,龙岩市,龙岩学院,,49,,20,34,14,78,,45,45,4,8,9,9,0.5,0.4
2025-05-17T1200,2665A,105.0822,33.3261,陇南市,汉王镇固水子,,,,,,,,,,,,,,,,
2025-05-17T1200,2885A,104.9339,33.3826,陇南市,滨江中学,,50,50,52,24,21,100,,64,64,12,15,8,9,0.5,0.5
2025-05-17T1200,3247A,104.955,33.371,陇南市,市总工会,颗粒物(PM10),57,64,47,21,19,99,,77,74,11,9,7,7,0.5,0.4
2025-05-17T1200,2487A,111.9589,27.8901,娄底市,电视发射台,细颗粒物(PM2.5),58,,60,41,23,89,,27,27,5,5,10,7,0.8,0.8
2025-05-17T1200,2488A,111.9975,27.725,娄底市,市监测站,细颗粒物(PM2.5),57,51,36,40,24,86,,41,41,14,11,14,11,1.1,0.8
2025-05-17T1200,2489A,112.0194,27.7314,娄底市,市委党校,,38,38,37,24,27,81,,44,44,7,7,4,4,0.6,0.6
2025-05-17T1200,2490A,111.9561,27.7569,娄底市,涟钢,颗粒物(PM10),63,75,41,36,26,69,,26,26,19,14,14,13,0.9,0.9
2025-05-17T1200,2491A,111.9892,27.7044,娄底市,市政府,,29,29,27,20,21,85,,40,40,6,7,4,4,0.1,0.5
2025-05-17T1200,1893A,105.4324,28.9634,泸州市,九狮山,细颗粒物(PM2.5),57,53,64,40,45,45,,19,19,21,26,5,5,0.6,0.5
2025-05-17T1200,1894A,105.4427,28.9063,泸州市,小市上码头,颗粒物(PM10),51,52,63,35,37,35,,21,17,25,22,9,6,0.6,0.6
2025-05-17T1200,1895A,105.4241,28.8573,泸州市,兰田宪桥,颗粒物(PM10),56,61,69,38,43,35,,21,17,20,18,10,9,0.7,0.6
2025-05-17T1200,1896A,105.4379,28.8833,泸州市,市环监站,细颗粒物(PM2.5),58,59,67,41,44,27,,24,14,29,22,7,7,0.6,0.5
2025-05-17T1200,4272A,105.3689,28.7783,泸州市,纳溪中医医院,细颗粒物(PM2.5),64,60,69,46,46,27,,20,18,38,30,8,8,0.7,0.7
2025-05-17T1200,2183A,111.1406,37.5211,吕梁市,环保局,,33,32,362,11,73,103,,86,86,4,6,2,3,0.3,0.3
2025-05-17T1200,2185A,111.1297,37.5136,吕梁市,自来水公司,,37,37,350,6,87,93,,76,75,15,18,2,3,0.3,0.4
2025-05-17T1200,2867A,111.1283,37.51,吕梁市,马茂庄小学,,32,29,367,6,80,100,,81,81,10,12,2,4,0.4,0.4
2025-05-17T1200,1812A,112.3931,34.6516,洛阳市,市委党校,颗粒物(PM10),71,91,122,16,38,124,,98,98,2,6,4,7,0.2,0.5
2025-05-17T1200,1815A,112.494,34.6886,洛阳市,河南林校,颗粒物(PM10),87,124,153,31,51,120,,92,92,3,12,5,10,0,0.3
2025-05-17T1200,1816A,112.3844,34.623,洛阳市,开发区管委会,颗粒物(PM10),71,91,119,20,41,118,,94,94,3,10,3,6,0.3,0.4
2025-05-17T1200,1817A,112.4267,34.6258,洛阳市,市委新办公区,颗粒物(PM10),73,96,119,26,43,120,,97,97,5,11,6,10,0,0.2
2025-05-17T1200,3340A,112.6005,34.6326,洛阳市,伊滨,颗粒物(PM10),89,127,144,28,41,117,,92,92,5,10,4,7,0.4,0.6
2025-05-17T1200,3341A,112.4951,34.6332,洛阳市,中移产业园,颗粒物(PM10),80,109,149,50,42,121,,96,96,5,12,4,8,0,0.4
2025-05-17T1200,3593A,112.5736,34.8993,洛阳市,吉利监测站,颗粒物(PM10),105,160,117,31,38,111,,67,,4,16,6,9,,0.5
2025-05-17T1200,3635A,112.3677,34.662,洛阳市,河科大西苑校区,颗粒物(PM10),79,108,137,23,36,123,,96,96,2,11,5,10,0.1,0.4
2025-05-17T1200,3636A,112.4388,34.6781,洛阳市,英才小学,颗粒物(PM10),77,103,147,24,40,119,,96,96,2,9,2,7,0.1,0.5
2025-05-17T1200,4214A,112.4600,34.6949,洛阳市,春都路1号院,颗粒物(PM10),86,121,150,30,42,123,,98,98,13,18,2,6,0.3,0.4
2025-05-17T1200,2399A,114.051,33.5699,漯河市,三五一五工厂,颗粒物(PM10),197,344,74,90,32,126,,112,110,7,8,5,5,0.4,0.6
2025-05-17T1200,2400A,114.0055,33.5698,漯河市,漯河大学,颗粒物(PM10),219,363,85,73,31,125,,110,110,7,11,4,4,0.3,0.4
2025-05-17T1200,2401A,114.0138,33.5828,漯河市,市水利局,颗粒物(PM10),328,442,92,90,31,123,,112,109,12,11,5,5,0.3,0.5
2025-05-17T1200,2402A,114.0261,33.5698,漯河市,市广电局,颗粒物(PM10),286,410,88,55,26,120,,108,105,11,11,2,2,0.3,0.5
2025-05-17T1200,3478A,113.9749,33.5664,漯河市,市图书馆,颗粒物(PM10),278,404,80,85,33,121,,108,105,10,11,3,4,0.3,0.4
2025-05-17T1200,4250A,114.0892,33.5882,漯河市,韶山路11号,颗粒物(PM10),240,378,78,74,32,122,,111,108,9,10,5,4,0.6,0.7
2025-05-17T1200,1798A,118.5092,31.6837,马鞍山市,湖东路四小,,42,42,38,12,24,132,,81,81,6,18,7,7,0.7,1
2025-05-17T1200,1799A,118.5024,31.6449,马鞍山市,开发区,,42,31,35,15,21,133,,76,76,14,25,8,7,0.7,1
2025-05-17T1200,1802A,118.6245,31.7241,马鞍山市,濮塘,,45,37,33,15,21,141,,83,83,7,9,10,8,0.8,1
2025-05-17T1200,3633A,118.4918,31.6809,马鞍山市,雨山,,41,33,33,16,19,131,,78,78,4,18,7,7,0.9,1.1
2025-05-17T1200,4191A,118.5274,31.72227,马鞍山市,慈湖高新区,,41,21,38,16,27,129,,79,79,10,18,9,8,0.7,0.9
2025-05-17T1200,1686A,111.0286,21.4688,茂名市,电白南海,,,17,13,,10,43,,40,40,6,7,2,2,0.5,0.5
2025-05-17T1200,1687A,110.9294,21.6533,茂名市,茂石化七小,,19,19,15,3,6,38,,24,24,7,11,2,2,0.5,0.5
2025-05-17T1200,1688A,110.9107,21.6687,茂名市,健康路,,14,7,8,7,5,42,,31,31,5,9,3,2,0.4,0.4
2025-05-17T1200,1689A,110.8592,21.6828,茂名市,高岭,,19,19,22,3,3,32,,25,25,10,14,4,4,0.4,0.4
2025-05-17T1200,3450A,111.01,21.5165,茂名市,电白水东,,,,5,,2,40,,39,39,,8,1,3,0.4,0.4
2025-05-17T1200,2539A,104.0308,30.0478,眉山市,黑龙滩水库,,49,49,49,31,29,85,,63,63,9,10,1,2,0.4,0.4
2025-05-17T1200,2540A,103.8416,30.0874,眉山市,气象局,细颗粒物(PM2.5),104,117,74,78,46,34,,44,42,54,29,5,2,0.7,0.5
2025-05-17T1200,3137A,103.8578,30.0744,眉山市,市委党校,颗粒物(PM10),65,80,73,41,42,65,,52,52,29,22,10,9,0.6,0.5
2025-05-17T1200,3148A,103.8291,30.0564,眉山市,区人社局,细颗粒物(PM2.5),62,66,64,44,41,50,,42,42,40,27,18,12,0.8,0.6
2025-05-17T1200,1690A,116.1231,24.3284,梅州市,梅江月梅,,17,,23,10,15,53,,29,29,2,8,5,6,0.5,0.6
2025-05-17T1200,1691A,116.0797,24.2719,梅州市,梅县新城,,19,13,25,13,14,53,,26,26,4,13,6,7,0.6,0.6
2025-05-17T1200,1692A,116.1248,24.2654,梅州市,环境监控中心,,23,21,29,16,18,47,,24,24,10,20,7,7,0.5,0.6
2025-05-17T1200,3315A,116.1233,24.2991,梅州市,梅龙,,15,12,20,8,13,47,,28,28,2,7,6,8,0.5,0.6
2025-05-17T1200,1878A,104.7778,31.4741,绵阳市,富乐山,细颗粒物(PM2.5),142,130,127,108,90,125,,58,58,22,29,13,11,0.7,0.8
2025-05-17T1200,1880A,104.6697,31.4668,绵阳市,高新区自来水公司,细颗粒物(PM2.5),94,120,125,70,79,115,,44,44,24,40,9,8,0.8,0.8
2025-05-17T1200,1881A,104.7287,31.5075,绵阳市,三水厂,细颗粒物(PM2.5),144,157,124,110,87,133,,51,51,30,35,12,10,1.0,0.9
2025-05-17T1200,3491A,104.69,31.5322,绵阳市,西科大附属小学,细颗粒物(PM2.5),134,149,138,102,88,130,,47,47,35,33,11,10,0.9,0.8
2025-05-17T1200,3492A,104.5648,31.5343,绵阳市,安州区旅游局,细颗粒物(PM2.5),132,125,149,100,107,130,,57,57,33,28,14,16,1.1,1.1
2025-05-17T1200,4226A,104.7651,31.4531,绵阳市,绵阳市气象局,细颗粒物(PM2.5),132,128,135,100,93,113,,54,54,29,31,9,9,1.0,1
2025-05-17T1200,1784A,129.61,44.561,牡丹江市,环保大楼,,32,32,36,11,18,94,,64,64,11,16,6,7,0.3,0.2
2025-05-17T1200,1785A,129.6115,44.5782,牡丹江市,文化广场,,37,37,48,25,25,94,,63,63,12,19,10,11,0.5,0.5
2025-05-17T1200,1786A,129.5904,44.5963,牡丹江市,第一医院,,,,33,,19,96,,70,70,,18,5,8,0.5,0.4
2025-05-17T1200,1787A,129.6364,44.6075,牡丹江市,机车工厂,,30,23,47,15,16,95,,61,61,9,17,5,7,0.4,0.4
2025-05-17T1200,1788A,129.6386,44.5462,牡丹江市,第一中学,,35,33,32,24,15,99,,68,68,8,17,2,3,0.3,0.3
2025-05-17T1200,2531A,105.0703,29.61,内江市,市监测站,细颗粒物(PM2.5),85,,66,63,47,40,,47,39,33,20,4,5,1.1,1
2025-05-17T1200,2532A,105.0717,29.5947,内江市,东兴区政府,细颗粒物(PM2.5),67,77,54,48,40,31,,37,30,32,19,12,11,0.9,0.7
2025-05-17T1200,2533A,105.0653,29.5817,内江市,内江二中,细颗粒物(PM2.5),97,,63,72,54,37,,27,27,22,18,8,7,0.7,0.6
2025-05-17T1200,2534A,105.0406,29.5822,内江市,内江日报社,细颗粒物(PM2.5),80,,59,59,52,46,,37,32,18,17,7,5,0.8,0.7
2025-05-17T1200,2628A,92.0657,31.4846,那曲市,那曲监测站,颗粒物(PM10),51,51,24,20,13,95,,82,79,15,14,8,7,0.3,0.4
2025-05-17T1200,4243A,92.0515,31.4787,那曲市,那曲市委宣传部,,33,11,11,6,7,104,,86,85,5,7,3,3,0.4,0.4
2025-05-17T1200,1290A,115.8931,28.6843,南昌市,省外办,,43,43,28,27,20,88,,49,49,16,21,7,6,0.7,0.9
2025-05-17T1200,1291A,115.8886,28.7003,南昌市,省林业公司,,42,39,25,29,19,93,,53,53,13,16,12,12,1.0,1.1
2025-05-17T1200,1292A,115.8126,28.7442,南昌市,林科所,,35,34,27,24,17,99,,43,43,2,18,8,6,0.6,0.7
2025-05-17T1200,1294A,115.8518,28.687,南昌市,建工学校,细颗粒物(PM2.5),70,,27,51,22,93,,49,49,12,21,9,7,0.8,0.9
2025-05-17T1200,1295A,115.8921,28.6424,南昌市,象湖,,28,23,20,19,12,79,,47,47,15,16,10,10,1.0,1
2025-05-17T1200,1296A,115.7423,28.7996,南昌市,武术学校,,28,27,20,9,20,88,,35,35,6,6,9,6,0.9,0.8
2025-05-17T1200,3046A,115.9084,28.6062,南昌市,机电学校,,35,32,28,24,14,91,,50,50,12,19,8,7,0.7,0.7
2025-05-17T1200,3690A,115.9721,28.7031,南昌市,外国语学校,,,,25,,14,100,,55,55,,14,11,8,,1
2025-05-17T1200,4192A,115.9316,28.68677,南昌市,南京东路235号,,47,47,41,19,17,97,,53,53,12,13,6,6,1.0,1.1
2025-05-17T1200,1905A,106.056,30.8064,南充市,西山风景区,,,,,,,,,,,,,,,,
2025-05-17T1200,1906A,106.0789,30.8023,南充市,南充市委,细颗粒物(PM2.5),93,90,90,69,66,85,,63,62,19,16,8,7,0.6,0.6
2025-05-17T1200,1907A,106.1031,30.8217,南充市,南充炼油厂,细颗粒物(PM2.5),84,84,89,62,64,80,,60,59,21,15,7,7,0.5,0.5
2025-05-17T1200,4227A,106.1083,30.7884,南充市,梨树横街98号,"颗粒物(PM10),细颗粒物(PM2.5)",70,90,95,51,54,82,,60,58,19,14,6,5,0.5,0.4
2025-05-17T1200,4304A,106.1172,30.843,南充市,清泉寺北路188号,细颗粒物(PM2.5),80,68,89,59,64,79,,61,58,20,16,6,6,0.4,0.4
2025-05-17T1200,4305A,106.067,30.7616,南充市,同庆路1号,细颗粒物(PM2.5),77,79,85,56,60,78,,54,54,17,14,7,6,0.4,0.4
2025-05-17T1200,1151A,118.8086,32.1065,南京市,迈皋桥,,46,41,33,22,24,146,,85,85,11,19,5,4,1.3,0.6
2025-05-17T1200,1152A,118.7538,32.0551,南京市,草场门,,46,44,36,27,26,146,,85,85,17,22,9,3,1.2,0.6
2025-05-17T1200,1153A,118.7794,32.0745,南京市,山西路,,49,48,39,24,26,155,,92,92,20,30,12,6,1.1,0.6
2025-05-17T1200,1154A,118.7752,32.0023,南京市,中华门,,,39,29,29,23,128,,71,71,,14,5,4,1.1,0.7
2025-05-17T1200,1155A,118.8109,32.0309,南京市,瑞金路,颗粒物(PM10),51,51,34,22,22,129,,70,70,30,26,6,6,0.7,0.3
2025-05-17T1200,1156A,118.7997,32.0754,南京市,玄武湖,颗粒物(PM10),52,53,39,15,16,137,,79,79,10,12,4,4,1.2,0.7
2025-05-17T1200,1157A,118.6414,32.0931,南京市,浦口,,40,38,31,12,16,127,,69,69,10,20,3,2,0,0.6
2025-05-17T1200,1158A,118.7356,31.9996,南京市,奥体中心,,46,45,32,22,22,147,,86,86,18,21,10,5,1.0,0.7
2025-05-17T1200,1159A,118.9125,32.1028,南京市,仙林大学城,颗粒物(PM10),54,58,34,24,24,147,,82,82,19,20,16,11,1.2,0.7
2025-05-17T1200,3422A,118.8436,31.9198,南京市,江宁彩虹桥,,48,34,28,24,18,152,,72,72,14,24,4,3,0.7,0.6
2025-05-17T1200,3427A,118.8554,32.3578,南京市,六合雄州,,46,18,33,10,18,147,,78,78,18,34,8,7,0.8,0.7
2025-05-17T1200,4249A,118.8708,31.3402,南京市,汶溪路181号,,35,18,21,13,19,109,,73,73,10,14,2,3,1.0,1
2025-05-17T1200,4312A,119.019,31.6512,南京市,中山西路1号,,36,31,22,14,15,115,,73,73,4,4,10,8,0.7,0.7
2025-05-17T1200,1401A,108.3103,22.7881,南宁市,二十一中,,36,36,19,14,11,55,,31,31,12,13,1,1,0.6,0.6
2025-05-17T1200,1402A,108.3141,22.8528,南宁市,北湖,,38,38,22,12,10,44,,30,30,16,16,4,4,0.6,0.5
2025-05-17T1200,1403A,108.3206,22.8225,南宁市,市监测站,,31,31,17,8,10,49,,30,30,11,12,2,1,0.5,0.5
2025-05-17T1200,1404A,108.3829,22.8037,南宁市,大自然花园,,20,19,21,11,9,62,,36,36,6,9,4,4,0.5,0.5
2025-05-17T1200,1405A,108.4394,22.7904,南宁市,仙葫,,19,12,19,10,11,60,,35,35,5,11,4,4,0.6,0.6
2025-05-17T1200,1406A,108.2397,22.8467,南宁市,区农职院,,25,25,22,15,13,54,,28,28,15,19,3,3,0.4,0.5
2025-05-17T1200,1407A,108.3275,22.735,南宁市,英华嘉园,,23,20,18,16,13,66,,31,31,7,11,7,6,0.4,0.4
2025-05-17T1200,3401A,108.4834,22.7618,南宁市,红星社区,,22,9,18,8,14,70,,36,36,1,9,8,8,0.3,0.4
2025-05-17T1200,4221A,108.2177,22.7774,南宁市,乐贤路16号,,22,22,22,13,13,59,,25,25,8,21,6,4,0.4,0.5
2025-05-17T1200,2331A,118.0966,26.6761,南平市,茫荡山,,,,,,,,,,,,,,,,
2025-05-17T1200,2332A,118.1681,26.6369,南平市,南平市监测站,,35,35,45,24,33,83,,30,30,7,16,5,6,0.7,1
2025-05-17T1200,2333A,118.1825,26.6489,南平市,南平铝业有限公司,,38,38,48,24,33,83,,32,32,6,15,4,6,0.7,0.9
2025-05-17T1200,2334A,118.1756,26.6272,南平市,南平七中,,39,39,50,27,29,83,,29,29,5,12,4,4,0.7,0.9
2025-05-17T1200,1168A,120.9098,31.9663,南通市,狼山街道,臭氧1小时,57,40,22,30,17,165,,74,74,22,27,6,4,1.3,0.9
2025-05-17T1200,1169A,120.86,32.0005,南通市,虹桥,臭氧1小时,60,45,34,33,28,168,,85,85,23,42,3,3,0.8,0.7
2025-05-17T1200,1170A,120.87,32.02,南通市,城中,,,56,36,31,21,177,,85,85,,41,4,5,,0.8
2025-05-17T1200,1171A,120.94,31.93,南通市,星湖花园,臭氧1小时,52,38,24,29,20,161,,79,79,18,30,4,3,0.7,0.6
2025-05-17T1200,1172A,120.81,32.0417,南通市,紫琅学院,颗粒物(PM10),54,58,35,28,21,149,,77,77,37,43,6,5,0.9,0.6
2025-05-17T1200,3291A,121.067,32.062,南通市,通州监测站,臭氧1小时,80,39,33,24,18,184,,88,88,12,27,8,5,1.2,0.9
2025-05-17T1200,3432A,120.9348,31.9883,南通市,环境教育馆,臭氧1小时,69,51,32,29,16,175,,78,78,16,24,6,3,0.9,0.5
2025-05-17T1200,2404A,112.5224,33.0122,南阳市,瓦房庄,颗粒物(PM10),79,108,65,44,28,138,,102,99,16,12,9,7,0.5,0.4
2025-05-17T1200,2405A,112.5003,32.9735,南阳市,汉画馆,颗粒物(PM10),74,97,65,38,28,129,,97,93,18,16,10,7,0.6,0.5
2025-05-17T1200,2406A,112.5573,33.027,南阳市,气象站,颗粒物(PM10),76,102,65,48,34,134,,102,99,14,10,10,7,0.5,0.5
2025-05-17T1200,2407A,112.5481,32.9689,南阳市,理工学院,颗粒物(PM10),69,88,59,40,30,128,,94,93,12,10,9,7,0.5,0.4
2025-05-17T1200,4008A,112.5234,32.9922,南阳市,卧龙区政府,颗粒物(PM10),76,102,61,46,35,138,,97,96,17,13,9,6,0.6,0.5
2025-05-17T1200,1234A,121.8358,29.911,宁波市,区环保大楼,颗粒物(PM10),55,60,53,24,22,89,,26,24,82,47,18,11,0.9,0.9
2025-05-17T1200,1235A,121.56,29.82,宁波市,万里学院,,30,18,25,7,26,95,,58,58,9,20,4,4,0.5,0.7
2025-05-17T1200,1236A,121.713,29.9572,宁波市,龙赛医院,,32,,40,17,17,102,,62,62,12,22,7,7,0.5,0.7
2025-05-17T1200,1239A,121.633,29.7733,宁波市,钱湖水厂,,27,13,24,9,19,84,,64,64,7,7,8,8,0.6,0.7
2025-05-17T1200,1240A,121.5856,29.8635,宁波市,太古小学,,28,11,33,10,17,88,,58,58,7,17,6,6,0.7,0.9
2025-05-17T1200,1241A,121.524,29.8674,宁波市,市环境监测中心,,26,9,32,3,16,82,,56,56,14,22,11,10,0.6,0.7
2025-05-17T1200,2871A,121.6147,29.9017,宁波市,万里国际学校,,29,,27,10,18,92,,65,65,8,20,6,6,0.7,0.9
2025-05-17T1200,3710A,121.5594,29.8975,宁波市,白沙活动中心,,27,6,24,3,18,85,,60,60,4,12,8,7,0.6,0.7
2025-05-17T1200,2339A,119.5001,26.6946,宁德市,金涵水库,,,,,,,,,,,,,,,,
2025-05-17T1200,2341A,119.5388,26.6612,宁德市,宁德市监测站,颗粒物(PM10),53,55,48,23,29,85,,27,27,15,26,5,5,0.6,0.6
2025-05-17T1200,3209A,119.5231,26.6562,宁德市,宁德一中,颗粒物(PM10),59,67,45,39,33,84,,34,34,16,15,4,3,0.7,0.7
2025-05-17T1200,2618A,98.8601,25.8567,怒江傈僳族自治州,州监测站,,,25,39,10,22,74,,63,63,8,7,6,9,,0.3
2025-05-17T1200,2619A,98.8546,25.8417,怒江傈僳族自治州,泸水一中,,38,38,36,25,23,66,,44,44,8,12,6,7,0.2,0.3
2025-05-17T1200,1888A,101.6891,26.571,攀枝花市,弄弄坪,,30,30,37,8,18,83,,77,75,14,14,4,9,0.5,0.6
2025-05-17T1200,1889A,101.5769,26.5928,攀枝花市,河门口,,26,20,32,11,17,83,,74,73,14,15,15,15,1.1,1
2025-05-17T1200,1890A,101.7169,26.585,攀枝花市,炳草岗,,25,20,32,11,17,77,,77,73,23,17,6,9,0.5,0.6
2025-05-17T1200,1891A,101.7369,26.5008,攀枝花市,仁和,,32,32,40,8,24,96,,61,61,9,17,8,12,0.4,0.5
2025-05-17T1200,2835A,101.7227,26.567,攀枝花市,四十中小,,30,24,30,11,17,94,,86,86,10,11,7,10,0.5,0.6
2025-05-17T1200,1604A,122.0303,41.1489,盘锦市,开发区,,27,14,22,8,17,85,,95,88,6,8,10,10,0.5,0.4
2025-05-17T1200,1605A,122.0485,41.0883,盘锦市,兴隆台,,28,14,27,8,18,89,,98,91,9,11,7,7,0.5,0.5
2025-05-17T1200,1606A,121.8297,41.1028,盘锦市,新生街道,,,17,21,3,16,78,,92,83,,12,9,8,0.4,0.5
2025-05-17T1200,1832A,113.3257,33.742,平顶山市,新华旅馆,颗粒物(PM10),333,446,117,57,33,109,,111,98,6,10,6,6,0.3,0.5
2025-05-17T1200,1833A,113.2919,33.737,平顶山市,规划设计院,颗粒物(PM10),195,340,100,74,38,113,,110,98,4,12,4,6,0.1,0.4
2025-05-17T1200,1834A,113.182,33.774,平顶山市,平顶山工学院,颗粒物(PM10),158,266,93,61,37,116,,111,100,3,8,3,4,0.2,0.4
2025-05-17T1200,3204A,113.3025,33.73,平顶山市,规划局,颗粒物(PM10),216,361,108,72,32,109,,110,96,4,7,5,7,0.2,0.4
2025-05-17T1200,3594A,112.8867,33.9116,平顶山市,石龙区,颗粒物(PM10),500,621,170,110,44,114,,93,88,6,15,7,7,0.2,0.4
2025-05-17T1200,2656A,106.6692,35.5461,平凉市,聚贤嘉苑,颗粒物(PM10),222,365,231,109,83,87,,90,89,8,6,9,9,0.6,0.5
2025-05-17T1200,2657A,106.7021,35.5307,平凉市,博物馆,颗粒物(PM10),223,366,224,99,58,88,,90,90,9,6,9,9,0.4,0.4
2025-05-17T1200,2347A,114.0997,27.5002,萍乡市,武功山,,15,,3,3,3,48,,23,23,3,5,18,17,0.7,0.7
2025-05-17T1200,2348A,113.8385,27.6434,萍乡市,中医院,,31,31,23,18,16,62,,32,32,11,12,16,12,1.2,1
2025-05-17T1200,2349A,113.8493,27.6253,萍乡市,市政府车库,,28,,17,19,15,65,,32,32,6,13,6,6,0.5,0.7
2025-05-17T1200,2350A,113.8676,27.6435,萍乡市,市环保局,,38,33,25,26,17,69,,37,37,9,13,8,7,0.9,1
2025-05-17T1200,2351A,113.866,27.6198,萍乡市,安源区政府,,26,26,23,9,9,61,,30,30,8,11,6,5,0.6,0.7
2025-05-17T1200,2319A,119.0141,25.4325,莆田市,荔城区仓后路,,25,25,30,7,6,79,,36,36,6,15,4,5,0.4,0.4
2025-05-17T1200,2320A,119.0015,25.4553,莆田市,莆田市监测站,,25,24,31,3,7,79,,36,36,2,9,5,5,0.4,0.4
2025-05-17T1200,2321A,119.1119,25.4561,莆田市,涵江区六中,,30,26,28,9,6,96,,38,38,10,18,2,3,0.3,0.3
2025-05-17T1200,2322A,119.1013,25.3215,莆田市,秀屿区政府,,38,38,23,11,2,104,,44,44,8,10,6,6,0.4,0.4
2025-05-17T1200,2323A,118.981,25.4792,莆田市,东圳水库,,,,,,,,,,,,,,,,
2025-05-17T1200,2392A,115.0312,35.7636,濮阳市,环保局,颗粒物(PM10),144,238,167,24,35,104,,89,85,8,11,6,6,0.3,0.5
2025-05-17T1200,2394A,115.0574,35.7609,濮阳市,油田运输公司,颗粒物(PM10),406,506,188,34,37,100,,90,84,5,10,5,6,0.5,0.7
2025-05-17T1200,3021A,115,35.7668,濮阳市,濮水河管理处,颗粒物(PM10),111,171,168,17,38,96,,80,77,12,13,5,5,0.4,0.6
2025-05-17T1200,4216A,115.0924,35.7686,濮阳市,任丘路479号,颗粒物(PM10),145,240,175,29,38,102,,91,84,18,16,6,6,0.4,0.7
2025-05-17T1200,2601A,100.98,22.7633,普洱市,市环保局,,30,30,25,12,14,43,,28,26,3,2,7,7,0.4,0.4
2025-05-17T1200,2602A,100.9817,22.8322,普洱市,普洱第二中学,,16,15,14,8,10,51,,29,28,6,6,4,4,0.5,0.4
2025-05-17T1200,2262A,131.0518,45.8751,七台河市,新一中,,41,41,24,18,15,114,,99,99,8,9,10,10,0.7,0.8
2025-05-17T1200,3345A,131.0577,45.7879,七台河市,中波台,,34,34,26,3,9,93,,71,71,11,13,2,10,0.3,0.3
2025-05-17T1200,3637A,131.0176,45.7761,七台河市,人民广场,,,55,43,21,25,105,,87,87,,13,11,12,0.5,0.5
2025-05-17T1200,3684A,130.8781,45.8222,七台河市,新建矿广场,颗粒物(PM10),57,63,58,6,14,88,,74,74,11,17,9,12,0.7,0.6
2025-05-17T1200,1779A,123.9305,47.3636,齐齐哈尔市,安居小区,,24,19,41,6,31,74,,71,69,5,12,3,3,0.3,0.5
2025-05-17T1200,1780A,123.9488,47.3386,齐齐哈尔市,中心广场,,31,31,44,7,32,74,,76,72,5,10,3,3,0.2,0.3
2025-05-17T1200,1781A,123.9483,47.3227,齐齐哈尔市,农牧车辆厂,,24,24,41,12,32,69,,70,67,5,9,5,5,0.2,0.3
2025-05-17T1200,1783A,123.945,47.2988,齐齐哈尔市,市环境监测站,,24,23,41,6,33,74,,73,70,5,9,2,2,0.2,0.3
2025-05-17T1200,3662A,123.6333,47.2075,齐齐哈尔市,富区青少年活动中心,,28,,44,19,43,73,,69,68,4,9,2,2,0.4,0.6
2025-05-17T1200,2591A,107.9783,26.5747,黔东南苗族侗族自治州,市环境监测站,,39,34,28,27,21,47,,34,34,9,13,2,3,0.6,0.6
2025-05-17T1200,2881A,107.8908,26.5311,黔东南苗族侗族自治州,凯里学院,,36,,23,25,19,57,,28,28,6,9,2,2,0.4,0.5
2025-05-17T1200,2593A,107.5228,26.2403,黔南布依族苗族自治州,小围寨,,,36,32,31,27,32,,26,24,10,8,3,2,,0.4
2025-05-17T1200,3538A,107.5175,26.2978,黔南布依族苗族自治州,沙坝,,45,44,42,31,30,42,,17,17,10,10,4,4,0.7,0.7
2025-05-17T1200,2589A,104.9022,25.0925,黔西南布依族苗族自治州,场坝街,,23,12,19,6,11,73,,66,63,14,8,25,3,0.3,0.3
2025-05-17T1200,2590A,104.8811,25.0992,黔西南布依族苗族自治州,坪东大道,,20,,23,12,12,64,,61,51,20,12,35,6,0.4,0.4
2025-05-17T1200,2502A,108.6236,21.9667,钦州市,市环保站,,18,14,11,3,5,56,,42,42,8,15,2,2,0.5,0.6
2025-05-17T1200,2503A,108.6549,21.9481,钦州市,沙埠小学,,19,18,20,8,13,59,,31,31,6,20,7,7,0.5,0.5
2025-05-17T1200,2504A,108.5989,21.7431,钦州市,港区一小,,41,41,26,9,9,52,,49,46,12,16,7,7,0.4,0.4
2025-05-17T1200,3404A,108.5959,21.9633,钦州市,北职校,,15,13,16,3,8,48,,37,36,4,10,7,8,0.5,0.5
2025-05-17T1200,1043A,119.7493,40.0116,秦皇岛市,第一关,颗粒物(PM10),51,52,38,21,28,93,,59,59,6,26,4,4,0.3,0.3
2025-05-17T1200,1044A,119.5897,39.9499,秦皇岛市,监测站,颗粒物(PM10),54,58,54,14,20,98,,73,73,5,18,2,3,0.3,0.3
2025-05-17T1200,1046A,119.5251,39.9041,秦皇岛市,建设大厦,颗粒物(PM10),72,94,53,12,22,93,,68,68,6,20,3,3,0.2,0.3
2025-05-17T1200,3132A,119.610547,39.943889,秦皇岛市,文明里,颗粒物(PM10),56,61,45,12,18,96,,75,75,1,12,2,2,0.2,0.3
2025-05-17T1200,4198A,119.5090,39.8253,秦皇岛市,北戴河轮滑馆,,46,46,40,20,24,87,,74,71,7,16,2,3,0.2,0.3
2025-05-17T1200,1307A,120.6659,36.2403,青岛市,仰口,,,183,31,,20,117,,131,131,6,6,,8,0.5,0.4
2025-05-17T1200,1310A,120.4134,36.0658,青岛市,市南区东部子站,颗粒物(PM10),162,273,26,17,12,103,,86,86,11,10,8,8,0.4,0.3
2025-05-17T1200,1311A,120.3664,36.1032,青岛市,四方区子站,颗粒物(PM10),106,161,39,17,15,106,,95,94,12,13,7,7,0.6,0.7
2025-05-17T1200,1312A,120.2994,36.054,青岛市,市南区西部子站,颗粒物(PM10),124,197,34,24,11,96,,80,80,20,20,8,7,0.7,0.7
2025-05-17T1200,1313A,120.4581,36.0858,青岛市,崂山区子站,颗粒物(PM10),123,195,30,17,9,111,,93,93,9,11,9,8,0.5,0.4
2025-05-17T1200,1315A,120.3999,36.3083,青岛市,城阳区子站,颗粒物(PM10),103,156,48,17,17,101,,95,93,9,15,6,6,0.4,0.5
2025-05-17T1200,1966A,120.0405,35.8735,青岛市,黄岛区4号,颗粒物(PM10),151,251,47,27,9,110,,100,98,12,18,8,9,0.5,0.7
2025-05-17T1200,3362A,120.5014,36.4034,青岛市,即墨2号,颗粒物(PM10),121,191,51,15,23,100,,106,102,9,12,8,8,0.6,0.6
2025-05-17T1200,3642A,120.3503,36.0736,青岛市,市北区南部,颗粒物(PM10),99,148,25,19,13,91,,81,80,11,12,8,8,0.3,0.4
2025-05-17T1200,3643A,120.3948,36.1805,青岛市,李沧区北部,颗粒物(PM10),128,205,49,24,21,81,,81,77,15,22,9,9,0.5,0.6
2025-05-17T1200,4290A,120.1969,35.9546,青岛市,珠江路669号,颗粒物(PM10),185,320,49,29,14,100,,89,89,8,9,7,7,0.6,0.6
2025-05-17T1200,1702A,113.0426,23.691,清远市,环保大楼,颗粒物(PM10),56,61,22,21,11,23,,14,10,23,23,12,7,0.8,0.7
2025-05-17T1200,1703A,113.0208,23.7106,清远市,凤城街办,,40,39,24,28,13,24,,13,12,25,26,10,7,0.6,0.6
2025-05-17T1200,3025A,113.0477,23.6344,清远市,技师学院,,48,46,25,33,16,20,,13,13,25,26,13,8,0.4,0.3
2025-05-17T1200,3318A,112.9903,23.7403,清远市,清新太和,,28,21,20,19,13,38,,19,19,14,17,12,9,0.4,0.4
2025-05-17T1200,3455A,113.076,23.7198,清远市,清城东城,,50,50,24,34,13,24,,17,12,22,17,12,8,0.8,0.7
2025-05-17T1200,2661A,107.6325,35.7357,庆阳市,庆阳五中,颗粒物(PM10),364,471,335,156,121,88,,83,83,7,6,2,3,0.4,0.4
2025-05-17T1200,2662A,107.6364,35.7067,庆阳市,市环保局,颗粒物(PM10),393,494,325,148,97,91,,87,86,5,4,6,6,0.4,0.4
2025-05-17T1200,1916A,103.7897,25.5035,曲靖市,环境监测站,,49,49,30,16,14,108,,79,79,13,13,12,6,0.8,0.7
2025-05-17T1200,1917A,103.8,25.5364,曲靖市,烟厂办公区,,38,38,27,3,15,111,,85,85,11,10,10,6,0.8,0.6
2025-05-17T1200,3376A,103.7947,25.462,曲靖市,南苑二区,,35,27,22,16,14,110,,85,85,12,11,13,7,0.8,0.8
2025-05-17T1200,3377A,103.7444,25.5261,曲靖市,曲靖师范学院,,35,18,28,13,14,111,,85,85,6,14,7,7,0.4,0.5
2025-05-17T1200,1264A,118.8692,28.9398,衢州市,环保大楼,,38,35,20,26,13,56,,30,30,8,12,4,3,0.5,0.5
2025-05-17T1200,1265A,118.8709,28.9666,衢州市,实验学校,,50,,17,35,12,44,,33,32,12,12,3,3,0.4,0.4
2025-05-17T1200,1266A,118.8621,28.9808,衢州市,衢州学院,,36,25,15,25,14,44,,32,32,13,15,5,4,0.4,0.4
2025-05-17T1200,1611A,118.5819,24.9117,泉州市,涂山街,,30,30,26,13,9,91,,36,36,11,18,6,6,0.4,0.5
2025-05-17T1200,1612A,118.5972,24.8978,泉州市,津头埔,,28,27,23,6,8,87,,37,37,10,16,2,3,0.5,0.5
2025-05-17T1200,1613A,118.6663,24.9424,泉州市,万安,,29,18,20,11,5,91,,37,37,7,10,4,4,0.4,0.5
2025-05-17T1200,1614A,118.6117,24.9604,泉州市,清源山,,,,,,,,,,,,,,,,
2025-05-17T1200,3529A,118.6333,24.9264,泉州市,城华南路,,28,25,18,11,7,88,,37,37,9,14,4,4,0.4,0.4
2025-05-17T1200,2626A,88.8876,29.2718,日喀则市,日喀则监测站,,46,6,16,3,5,145,,158,151,6,5,3,5,0.3,0.3
2025-05-17T1200,3726A,88.8781,29.2426,日喀则市,林业技术推广中心,,46,10,21,3,5,145,,157,151,4,4,7,7,0.2,0.1
2025-05-17T1200,1659A,119.471,35.4209,日照市,监测站,颗粒物(PM10),216,361,67,57,30,121,,96,96,14,31,6,11,0.5,0.8
2025-05-17T1200,1660A,119.523,35.4216,日照市,市政府广场,颗粒物(PM10),189,327,59,61,24,117,,93,93,7,24,5,9,0.6,0.8
2025-05-17T1200,1661A,119.5587,35.4044,日照市,港务局,颗粒物(PM10),230,371,60,50,27,122,,96,96,10,24,8,8,0.6,0.7
2025-05-17T1200,3507A,119.5328,35.4625,日照市,职业技术学院,颗粒物(PM10),195,339,67,44,21,123,,102,102,12,20,6,7,0.6,0.8
2025-05-17T1200,3604A,119.3266,35.1044,日照市,岚山环保分局,颗粒物(PM10),255,388,50,49,23,118,,91,91,13,20,8,6,0.8,0.7
2025-05-17T1200,1835A,111.1922,34.7752,三门峡市,市政府,颗粒物(PM10),113,176,174,44,59,121,,87,87,5,28,6,6,0.4,0.6
2025-05-17T1200,1836A,111.1587,34.7942,三门峡市,开发区,颗粒物(PM10),106,162,134,34,60,111,,91,91,6,15,6,7,0.4,0.5
2025-05-17T1200,1838A,111.143,34.7955,三门峡市,风景区,,,,121,,32,,,154,,,16,,9,,0.4
2025-05-17T1200,3039A,111.1911,34.7829,三门峡市,三门峡市第一小学,颗粒物(PM10),109,167,201,27,56,121,,95,95,10,22,8,9,0.4,0.5
2025-05-17T1200,3598A,111.1,34.7167,三门峡市,富达温泉假日酒店,颗粒物(PM10),84,118,223,38,54,120,,97,97,6,18,5,10,0.2,0.3
2025-05-17T1200,2324A,117.6211,26.2625,三明市,三钢,"颗粒物(PM10),细颗粒物(PM2.5)",54,58,38,38,26,61,,23,23,22,20,13,7,1.1,1.7
2025-05-17T1200,2325A,117.635,26.2714,三明市,三明二中,,47,47,32,25,21,66,,24,24,21,17,14,5,1.3,0.9
2025-05-17T1200,2326A,117.6028,26.2378,三明市,三元区政府,颗粒物(PM10),51,51,38,30,25,55,,22,22,24,16,16,4,0.8,0.7
2025-05-17T1200,2327A,117.7275,26.3108,三明市,洋溪,,,,,,,,,,,,,,,,
2025-05-17T1200,1876A,109.5078,18.2489,三亚市,河东子站,,16,10,10,6,4,51,,28,28,2,4,4,3,0.6,0.6
2025-05-17T1200,1877A,109.4964,18.2681,三亚市,河西子站,,18,13,10,12,6,55,,29,29,5,7,2,2,0.2,0.2
2025-05-17T1200,3540A,109.7348,18.3443,三亚市,君悦子站,,19,6,12,3,4,58,,28,28,3,7,3,3,0.2,0.2
2025-05-17T1200,2624A,91.7608,29.2313,山南市,山南监测站,,34,8,9,3,3,108,,139,120,20,7,5,3,0.5,0.4
2025-05-17T1200,2625A,91.7706,29.2436,山南市,山南人民医院,,32,12,13,10,7,101,,140,116,30,9,6,4,0.6,0.5
2025-05-17T1200,1674A,116.6794,23.3667,汕头市,金平子站,,24,17,14,7,8,74,,44,44,5,6,4,4,0.4,0.5
2025-05-17T1200,1675A,116.7244,23.3633,汕头市,龙湖子站,,24,24,16,7,5,66,,43,43,4,4,7,5,0.4,0.3
2025-05-17T1200,1676A,116.7258,23.2775,汕头市,濠江子站,,24,24,22,10,13,42,,36,36,9,8,5,4,0.4,0.5
2025-05-17T1200,1677A,116.7519,23.4714,汕头市,澄海子站,,27,27,19,11,12,83,,49,49,8,10,2,2,0.5,0.5
2025-05-17T1200,1678A,116.6092,23.2539,汕头市,潮阳子站,,21,12,18,6,11,65,,44,44,2,6,8,8,0.3,0.3
2025-05-17T1200,3444A,116.454,23.2684,汕头市,潮南峡山,,23,16,17,9,9,73,,47,47,1,4,5,5,0.5,0.5
2025-05-17T1200,3624A,116.4069,23.2533,汕头市,潮南子站,,22,21,17,8,7,69,,44,44,1,3,4,4,0.4,0.5
2025-05-17T1200,1693A,115.3653,22.775,汕尾市,市环保局,,17,9,11,8,6,53,,52,52,1,2,7,6,0.5,0.5
2025-05-17T1200,1694A,115.3706,22.7898,汕尾市,市政府,,23,23,11,10,9,52,,49,49,3,4,4,4,0.3,0.4
2025-05-17T1200,1695A,115.3622,22.7925,汕尾市,新城中学,,18,17,14,7,8,57,,50,50,3,4,2,2,0.4,0.4
