timepoint,stationcode,longitude,latitude,area,positionname,primarypollutant,aqi,pm10,pm10_24h,pm2_5,pm2_5_24h,o3,o3_24h,o3_8h,o3_8h_24h,no2,no2_24h,so2,so2_24h,co,co_24h
2023-02-13T17:00:00,1001A,116.3621,39.8784,北京市,万寿西宫,,25,7,20,4,17,78,77,73,73,8,17,3,3,0.3,0.5
2023-02-13T17:00:00,1002A,116.2202,40.2915,北京市,定陵,,24,5,16,4,15,78,74,78,74,6,9,3,2,0.2,0.4
2023-02-13T17:00:00,1003A,116.4174,39.9289,北京市,东四,,25,8,20,2,15,82,77,78,78,7,14,3,2,0.2,0.3
2023-02-13T17:00:00,1004A,116.4072,39.8863,北京市,天坛,,24,7,19,4,17,77,75,73,73,10,17,3,3,0.2,0.3
2023-02-13T17:00:00,1005A,116.462,39.9365,北京市,农展馆,,23,7,18,3,14,75,71,70,70,11,18,1,2,0.1,0.2
2023-02-13T17:00:00,1006A,116.3392,39.9295,北京市,官园,,27,7,20,4,17,87,86,81,81,9,17,2,2,0.1,0.3
2023-02-13T17:00:00,1007A,116.2878,39.9611,北京市,海淀万柳,,20,5,19,4,17,63,62,58,58,10,21,1,2,0.2,0.3
2023-02-13T17:00:00,1008A,116.6636,40.135,北京市,顺义新城,,28,8,16,4,13,90,87,86,86,10,12,3,3,0.2,0.2
2023-02-13T17:00:00,1009A,116.6275,40.3275,北京市,怀柔镇,,22,12,24,4,14,72,68,69,66,8,13,3,2,0.2,0.3
2023-02-13T17:00:00,1010A,116.2296,40.217,北京市,昌平镇,,21,7,17,4,14,72,66,72,68,10,13,1,1,0.2,0.3
2023-02-13T17:00:00,1011A,116.3966,39.9821,北京市,奥体中心,,24,6,20,4,15,76,74,72,72,9,16,2,2,0.2,0.4
2023-02-13T17:00:00,1012A,116.184,39.9136,北京市,古城,,25,6,24,4,19,82,79,76,76,8,16,3,3,0.2,0.4
2023-02-13T17:00:00,1015A,117.1444,39.1661,天津市,勤俭道,,25,8,23,4,18,82,78,78,78,12,19,4,4,0.3,0.5
2023-02-13T17:00:00,1017A,117.237,39.1082,天津市,大直沽八号路,,24,9,25,4,18,79,76,76,76,13,20,4,6,0.3,0.5
2023-02-13T17:00:00,1018A,117.202,39.0927,天津市,前进道,,26,8,22,4,16,85,82,82,82,11,16,3,3,0.2,0.3
2023-02-13T17:00:00,1019A,117.1837,39.2133,天津市,淮河道,,26,10,26,5,17,85,81,82,82,11,22,4,4,0.4,0.6
2023-02-13T17:00:00,1021A,117.307,39.0877,天津市,跃进路,,25,8,25,4,18,81,79,78,78,11,20,5,6,0.4,0.5
2023-02-13T17:00:00,1023A,117.707,39.0343,天津市,第四大街,,23,8,40,4,26,73,71,66,66,12,34,5,6,0.3,0.8
2023-02-13T17:00:00,1024A,117.457,38.8394,天津市,永明路,,24,9,32,4,23,77,74,70,70,16,28,5,7,0.3,0.6
2023-02-13T17:00:00,1026A,117.764,39.1587,天津市,汉北路,,25,7,33,4,26,79,78,69,69,8,32,7,7,0.3,0.7
2023-02-13T17:00:00,1027A,117.157,38.9194,天津市,团泊洼,,22,7,26,4,18,72,70,70,70,15,21,3,4,0.3,0.5
2023-02-13T17:00:00,1029A,114.4422,38.0444,石家庄市,职工医院,细颗粒物(PM2.5),62,43,88,44,82,94,89,78,78,19,27,5,4,0.9,1.1
2023-02-13T17:00:00,1030A,114.6063,38.0266,石家庄市,高新区,,46,45,84,32,69,93,91,72,72,15,30,2,1,0.4,0.8
2023-02-13T17:00:00,1031A,114.4898,38.1328,石家庄市,西北水源,细颗粒物(PM2.5),57,50,95,40,77,89,79,67,67,17,32,2,2,1.0,1.2
2023-02-13T17:00:00,1032A,114.4586,38.0058,石家庄市,西南高教,细颗粒物(PM2.5),59,51,86,42,76,89,81,73,73,22,26,4,2,1.0,1.1
2023-02-13T17:00:00,1033A,114.5331,38.0178,石家庄市,世纪公园,细颗粒物(PM2.5),73,41,78,53,69,91,81,68,68,11,19,4,2,0.9,1.1
2023-02-13T17:00:00,1034A,114.509,38.0457,石家庄市,人民会堂,,45,43,96,31,82,95,85,80,80,14,23,3,2,0.6,1.3
2023-02-13T17:00:00,1035A,114.3524,37.8911,石家庄市,封龙山,颗粒物(PM10),62,74,34,28,25,80,80,64,64,28,24,4,4,1.2,1.2
2023-02-13T17:00:00,1037A,118.131,39.6363,唐山市,雷达站,,27,15,24,2,11,89,84,80,80,15,19,1,3,0.2,0.4
2023-02-13T17:00:00,1038A,118.1725,39.6334,唐山市,物资局,,23,13,21,5,18,83,72,72,72,24,20,6,7,0.3,0.4
2023-02-13T17:00:00,1040A,118.1705,39.6506,唐山市,十二中,,23,19,20,1,14,77,72,70,70,19,23,2,3,0.3,0.4
2023-02-13T17:00:00,1041A,118.1869,39.622,唐山市,小山,,24,16,24,3,12,82,75,73,73,13,16,4,6,0.3,0.4
2023-02-13T17:00:00,1042A,119.5134,39.8207,秦皇岛市,北戴河环保局,,27,6,22,6,15,84,84,81,81,3,7,5,5,0.2,0.3
2023-02-13T17:00:00,1043A,119.7493,40.0116,秦皇岛市,第一关,,43,39,28,30,18,79,79,76,76,11,20,4,3,0.3,0.3
2023-02-13T17:00:00,1044A,119.5897,39.9499,秦皇岛市,监测站,,33,33,37,16,18,79,70,75,75,20,16,6,6,0.3,0.3
2023-02-13T17:00:00,1046A,119.5251,39.9041,秦皇岛市,建设大厦,,31,31,28,14,12,83,82,80,80,12,17,6,6,0.3,0.3
2023-02-13T17:00:00,1047A,114.5129,36.61763,邯郸市,环保局,,,,,,,,,,,,,,,,
2023-02-13T17:00:00,1048A,114.5302,36.6116,邯郸市,东污水处理厂,,44,44,68,25,55,82,82,71,71,14,21,5,4,0.7,0.9
2023-02-13T17:00:00,1049A,114.4918,36.5713,邯郸市,矿院,,42,37,65,29,58,79,79,65,65,14,20,5,4,0.5,1.1
2023-02-13T17:00:00,1050A,114.484,36.6133,邯郸市,丛台公园,,43,39,58,30,54,80,80,65,65,11,18,5,5,0.4,0.7
2023-02-13T17:00:00,1051A,115.493,38.8632,保定市,游泳馆,,36,31,40,25,40,81,81,68,68,11,20,8,7,0.2,0.4
2023-02-13T17:00:00,1052A,115.5213,38.8959,保定市,华电二区,,36,30,48,25,47,72,72,61,61,13,29,6,4,0.6,0.7
2023-02-13T17:00:00,1053A,115.4713,38.9108,保定市,接待中心,,40,35,52,28,42,70,70,57,57,9,15,5,4,0.6,0.7
2023-02-13T17:00:00,1054A,115.4612,38.8416,保定市,地表水厂,颗粒物(PM10),51,51,62,31,45,77,74,64,64,18,28,5,6,0.4,0.5
2023-02-13T17:00:00,1055A,115.4323,38.8697,保定市,胶片厂,,,,,,,,,,,,,,,,
2023-02-13T17:00:00,1056A,115.5086,38.8639,保定市,监测站,,39,39,53,25,50,78,78,66,66,16,23,5,5,0.6,0.7
2023-02-13T17:00:00,1057A,114.8883,40.8336,张家口市,人民公园,,28,8,14,7,4,92,88,85,85,5,8,3,4,0.5,0.5
2023-02-13T17:00:00,1059A,114.8687,40.8042,张家口市,五金库,,23,12,10,12,10,78,72,72,70,14,13,12,11,0.6,0.5
2023-02-13T17:00:00,1060A,114.8902,40.762,张家口市,世纪豪园,,26,15,13,7,9,86,82,80,79,8,11,2,2,0.4,0.4
2023-02-13T17:00:00,1061A,114.8916,40.8661,张家口市,北泵房,,,,15,,13,97,,87,87,6,11,4,8,,0.2
2023-02-13T17:00:00,1062A,117.9531,40.9081,承德市,铁路,,26,9,36,8,27,84,82,77,77,6,28,7,7,0.2,0.5
2023-02-13T17:00:00,1063A,117.9392,40.9763,承德市,中国银行,,24,20,32,3,24,78,76,70,70,7,29,6,5,0.2,0.5
2023-02-13T17:00:00,1064A,117.9503,40.928,承德市,开发区,,28,17,34,12,32,89,89,77,77,7,34,6,7,0.3,0.7
2023-02-13T17:00:00,1065A,117.8051,40.9655,承德市,文化中心,,25,16,30,1,21,84,79,81,81,7,22,8,9,0.3,0.5
2023-02-13T17:00:00,1066A,117.9268,41.0026,承德市,离宫,,24,11,24,10,24,81,75,73,73,2,13,9,8,0.2,0.4
2023-02-13T17:00:00,1067A,116.6708,39.5111,廊坊市,药材公司,,26,17,25,3,16,83,81,79,79,17,22,2,2,0.2,0.3
2023-02-13T17:00:00,1068A,116.7214,39.5589,廊坊市,开发区,,27,13,22,5,16,87,86,83,83,15,22,5,5,0.4,0.4
2023-02-13T17:00:00,1070A,116.7244,39.5269,廊坊市,北华航天学院,,,,26,,15,84,,81,81,,18,7,7,0.3,0.3
2023-02-13T17:00:00,1071A,116.8842,38.2991,沧州市,沧县城建局,,25,19,36,11,30,86,80,79,79,15,23,7,8,0.5,0.8
2023-02-13T17:00:00,1072A,116.8584,38.3254,沧州市,电视转播站,,,21,44,1,23,86,80,80,80,,25,10,6,0.4,0.7
2023-02-13T17:00:00,1073A,116.8709,38.3228,沧州市,市环保局,,25,25,46,10,28,81,76,74,74,9,21,5,5,0.1,0.4
2023-02-13T17:00:00,1074A,115.6838,37.7541,衡水市,电机北厂,,39,39,47,27,36,80,78,75,75,7,17,1,2,0.3,0.5
2023-02-13T17:00:00,1075A,115.6303,37.7316,衡水市,市监测站,颗粒物(PM10),56,62,58,34,38,80,78,74,74,13,19,9,9,0.4,0.5
2023-02-13T17:00:00,1077A,114.4704,37.0886,邢台市,达活泉,细颗粒物(PM2.5),54,31,49,38,72,83,83,73,73,12,23,1,2,0.6,0.9
2023-02-13T17:00:00,1078A,114.5062,37.0349,邢台市,邢师高专,,,,52,,62,84,82,71,71,12,19,4,4,0.6,0.9
2023-02-13T17:00:00,1079A,114.5237,37.0851,邢台市,路桥公司,,48,43,57,33,58,84,84,73,73,11,18,7,8,0.6,1
2023-02-13T17:00:00,1080A,114.4725,37.0719,邢台市,市环保局,细颗粒物(PM2.5),52,42,54,36,65,86,86,74,74,14,23,5,4,0.4,0.8
2023-02-13T17:00:00,1081A,112.522,37.8873,太原市,尖草坪,,24,22,34,13,27,85,75,78,78,32,29,23,17,1.1,1.4
2023-02-13T17:00:00,1082A,112.573,37.9103,太原市,涧河,,,,,,,,,,,,,,,,
2023-02-13T17:00:00,1083A,112.434,38.0108,太原市,上兰,,,,,,,,,,,,,,,,
2023-02-13T17:00:00,1084A,112.469,37.7124,太原市,晋源,,,,32,,33,49,,43,,,29,,14,,0.9
2023-02-13T17:00:00,1085A,112.5583,37.7394,太原市,小店,,27,18,26,12,24,91,84,86,86,24,25,9,8,0.5,0.9
2023-02-13T17:00:00,1086A,112.5369,37.8692,太原市,桃园,,28,14,33,11,28,91,87,86,86,18,23,10,8,0.3,0.7
2023-02-13T17:00:00,1087A,112.57,37.8195,太原市,坞城,,28,19,30,12,24,92,88,87,87,18,25,9,10,0.3,0.9
2023-02-13T17:00:00,1088A,112.549,37.9854,太原市,南寨,,27,27,34,11,25,93,78,88,88,28,23,13,7,0.5,0.8
2023-02-13T17:00:00,1089A,112.4783,37.7778,太原市,金胜,,,,,,,,,,,,,,,,
2023-02-13T17:00:00,1090A,111.6507,40.7517,呼和浩特市,呼市一监,,22,22,12,9,6,76,68,64,64,13,15,13,10,0.4,0.4
2023-02-13T17:00:00,1091A,111.6572,40.8033,呼和浩特市,小召,,24,24,15,7,4,65,52,56,51,18,17,12,13,0.4,0.4
2023-02-13T17:00:00,1094A,111.7516,40.8369,呼和浩特市,如意水处理厂,,23,19,8,9,4,79,71,74,74,17,11,16,19,0.4,0.3
2023-02-13T17:00:00,1095A,111.7276,40.8062,呼和浩特市,二十九中,,32,32,13,9,5,79,68,72,67,10,6,14,12,0.4,0.3
2023-02-13T17:00:00,1096A,111.5512,40.7866,呼和浩特市,工大金川校区,,30,30,13,8,4,78,64,77,74,8,4,8,6,0.4,0.3
2023-02-13T17:00:00,1097A,111.717,40.7612,呼和浩特市,化肥厂生活区,,25,18,9,8,4,88,80,79,79,16,12,12,12,0.3,0.3
2023-02-13T17:00:00,1098A,123.6836,41.9339,沈阳市,森林路,,,,,,,,,,,,,,,,
2023-02-13T17:00:00,1099A,123.505,41.7406,沈阳市,浑南东路,,22,22,53,5,37,70,68,58,58,15,26,15,16,0.3,0.5
2023-02-13T17:00:00,1100A,123.4231,41.6989,沈阳市,新秀街,,24,24,42,14,31,76,73,64,64,16,25,8,11,0.6,0.7
2023-02-13T17:00:00,1102A,123.5903,41.8411,沈阳市,东陵路,,34,34,73,22,60,78,76,68,68,14,32,10,11,0.5,0.8
2023-02-13T17:00:00,1103A,123.4264,41.8467,沈阳市,陵东街,,25,19,48,12,35,82,80,72,72,12,28,9,9,0.3,0.5
2023-02-13T17:00:00,1104A,123.4114,41.7653,沈阳市,文化路,,26,25,42,18,35,73,71,64,64,20,29,13,15,0.4,0.5
2023-02-13T17:00:00,1105A,123.4678,41.7867,沈阳市,小河沿,,23,17,41,10,32,75,73,66,66,16,27,10,12,0.4,0.5
2023-02-13T17:00:00,1106A,123.4017,41.7972,沈阳市,太原街,,36,36,61,22,42,72,62,61,61,27,31,10,12,0.5,0.6
2023-02-13T17:00:00,1108A,123.3783,41.9228,沈阳市,京沈街,,29,29,43,19,37,81,77,73,73,13,19,8,9,0.6,0.7
2023-02-13T17:00:00,1109A,121.612,38.9741,大连市,甘井子,,33,33,54,12,32,88,85,84,84,14,17,7,8,0.2,0.4
2023-02-13T17:00:00,1110A,121.565,38.9511,大连市,周水子,颗粒物(PM10),53,55,66,14,35,86,82,80,80,17,20,6,9,0.2,0.4
2023-02-13T17:00:00,1111A,121.5637,38.8845,大连市,星海三站,,35,35,44,15,33,71,69,68,68,19,23,20,20,0.7,0.8
2023-02-13T17:00:00,1112A,121.6302,38.9117,大连市,青泥洼桥,颗粒物(PM10),52,53,78,12,32,85,80,81,81,24,25,10,11,0.6,0.9
2023-02-13T17:00:00,1113A,121.6251,38.8638,大连市,傅家庄,,38,38,64,11,31,87,84,82,82,15,19,12,14,0.7,0.9
2023-02-13T17:00:00,1114A,121.5213,38.8661,大连市,七贤岭,,41,41,49,12,33,93,92,89,89,10,12,9,8,0.6,0.7
2023-02-13T17:00:00,1115A,121.2529,38.8061,大连市,旅顺,,36,36,38,11,27,81,79,79,78,9,10,10,10,0.5,0.6
2023-02-13T17:00:00,1116A,121.7485,39.1311,大连市,金州,,34,34,46,17,35,89,86,80,80,18,26,8,10,0.6,0.9
2023-02-13T17:00:00,1117A,121.7811,39.0496,大连市,开发区,,36,36,55,15,27,83,79,74,74,18,20,10,10,0.4,0.6
2023-02-13T17:00:00,1118A,121.9762,39.0631,大连市,双D港,,,35,53,14,33,90,90,83,83,10,17,,12,0.4,0.6
2023-02-13T17:00:00,1119A,125.3325,43.9166,长春市,食品厂,,26,26,82,17,78,81,68,69,69,24,44,5,7,0.4,0.8
2023-02-13T17:00:00,1120A,125.2863,43.9027,长春市,客车厂,,26,22,78,18,79,80,66,66,66,25,47,6,11,0.2,0.6
2023-02-13T17:00:00,1121A,125.2841,43.8463,长春市,邮电学院,,25,19,91,12,81,87,78,71,71,14,58,9,14,0.3,0.8
2023-02-13T17:00:00,1122A,125.3716,43.8772,长春市,劳动公园,,32,32,80,10,69,82,74,67,67,18,51,14,18,0.2,0.8
2023-02-13T17:00:00,1123A,125.3297,43.8805,长春市,园林处,,22,22,75,13,68,78,70,64,64,17,52,8,18,0.1,0.5
2023-02-13T17:00:00,1124A,125.4605,43.79,长春市,净月潭,,24,20,81,7,97,81,76,60,60,12,35,7,7,0.3,0.7
2023-02-13T17:00:00,1125A,125.7194,43.515,长春市,甩湾子,,,,,,,,,,,,,,,,
2023-02-13T17:00:00,1126A,125.3863,43.8447,长春市,经开区环卫处,,22,20,87,14,73,79,68,60,60,22,54,20,17,0.4,0.9
2023-02-13T17:00:00,1127A,125.245,43.7783,长春市,高新区管委会,,24,22,85,8,81,88,76,72,72,17,52,9,8,0.4,0.8
2023-02-13T17:00:00,1128A,125.1761,43.8325,长春市,岱山公园,,23,22,90,10,84,83,72,73,73,15,47,5,6,0.3,0.8
2023-02-13T17:00:00,1129A,126.5422,45.755,哈尔滨市,岭北,,27,16,122,12,107,94,84,84,84,17,43,16,24,0.8,0.6
2023-02-13T17:00:00,1130A,126.561,45.8167,哈尔滨市,松北商大,,,,98,,83,94,81,82,82,31,49,21,15,0.6,1.1
2023-02-13T17:00:00,1131A,126.979,45.5419,哈尔滨市,阿城会宁,颗粒物(PM10),90,130,137,50,125,94,73,78,78,34,31,16,12,0.7,1.1
2023-02-13T17:00:00,1132A,126.599,45.7222,哈尔滨市,南岗学府路,颗粒物(PM10),52,53,135,5,91,90,82,85,85,19,53,2,13,1.3,1
2023-02-13T17:00:00,1133A,126.689,45.7733,哈尔滨市,太平宏伟公园,,34,34,138,12,110,95,81,76,76,24,54,18,9,0.2,1
2023-02-13T17:00:00,1134A,126.635,45.7667,哈尔滨市,道外承德广场,,25,4,85,12,73,90,77,75,75,26,50,13,13,0.4,0.9
2023-02-13T17:00:00,1135A,126.685,45.7319,哈尔滨市,香坊红旗大街,,40,40,117,16,109,89,81,78,78,21,56,18,25,0.5,1.3
2023-02-13T17:00:00,1136A,126.6411,45.7258,哈尔滨市,动力和平路,,30,30,103,14,92,84,77,80,80,20,54,11,14,0.4,1
2023-02-13T17:00:00,1137A,126.593,45.7478,哈尔滨市,道里建国路,,35,30,99,24,90,81,70,71,71,26,52,13,13,0.4,0.9
2023-02-13T17:00:00,1138A,126.615,45.61,哈尔滨市,平房东轻厂,颗粒物(PM10),51,52,112,28,101,90,59,70,70,40,59,13,14,0.5,1.1
2023-02-13T17:00:00,1139A,126.595,45.9855,哈尔滨市,呼兰师专,,49,46,100,34,95,86,72,74,74,26,42,16,15,0.4,0.9
2023-02-13T17:00:00,1140A,126.6206,45.6842,哈尔滨市,省农科院,,,29,133,27,117,96,86,73,73,12,63,14,27,,1.7
2023-02-13T17:00:00,1141A,121.4,31.238,上海市,普陀,细颗粒物(PM2.5),55,54,32,39,32,103,75,99,63,20,29,4,4,0.7,0.9
2023-02-13T17:00:00,1142A,121.478,31.2036,上海市,十五厂,颗粒物(PM10),52,53,31,32,28,96,70,88,59,22,30,5,5,0.7,0.9
2023-02-13T17:00:00,1143A,121.467,31.3008,上海市,虹口,"颗粒物(PM10),细颗粒物(PM2.5)",53,56,38,37,33,101,73,91,63,16,25,4,4,0.3,0.5
2023-02-13T17:00:00,1144A,121.412,31.1654,上海市,徐汇上师大,细颗粒物(PM2.5),54,55,28,38,26,95,61,87,55,26,30,9,8,0.8,0.9
2023-02-13T17:00:00,1145A,121.536,31.2659,上海市,杨浦四漂,细颗粒物(PM2.5),54,48,37,38,33,95,74,89,64,17,25,6,6,0.7,0.8
2023-02-13T17:00:00,1146A,120.978,31.0935,上海市,青浦淀山湖,,,,,,,,,,,,,,,,
2023-02-13T17:00:00,1147A,121.425,31.2261,上海市,静安监测站,颗粒物(PM10),59,68,41,40,31,103,62,95,53,34,35,8,7,0.9,1
2023-02-13T17:00:00,1148A,121.703,31.1907,上海市,浦东川沙,,,48,30,36,35,90,70,90,63,16,23,,4,0.8,0.8
2023-02-13T17:00:00,1149A,121.533,31.2284,上海市,浦东新区监测站,细颗粒物(PM2.5),57,59,42,40,31,97,66,88,58,17,24,5,5,0.8,0.9
2023-02-13T17:00:00,1150A,121.577,31.2071,上海市,浦东张江,,48,48,29,21,26,90,71,85,59,15,24,4,4,0.7,0.9
2023-02-13T17:00:00,1151A,118.8086,32.1065,南京市,迈皋桥,细颗粒物(PM2.5),62,64,26,44,18,111,69,102,67,5,4,5,4,0.4,0.4
2023-02-13T17:00:00,1152A,118.7538,32.0551,南京市,草场门,,,,20,,14,101,54,93,56,20,14,2,3,0.5,0.6
2023-02-13T17:00:00,1153A,118.7794,32.0745,南京市,山西路,颗粒物(PM10),59,68,23,39,20,109,61,101,60,16,11,3,3,0.4,0.4
2023-02-13T17:00:00,1154A,118.7752,32.0023,南京市,中华门,颗粒物(PM10),59,68,21,39,14,100,56,93,57,23,16,5,4,0.8,0.8
2023-02-13T17:00:00,1155A,118.8109,32.0309,南京市,瑞金路,"颗粒物(PM10),细颗粒物(PM2.5)",52,54,25,36,15,103,56,96,55,22,12,3,2,0.6,0.5
2023-02-13T17:00:00,1156A,118.7997,32.0754,南京市,玄武湖,细颗粒物(PM2.5),59,57,25,42,20,96,56,89,56,15,10,4,4,0.4,0.5
2023-02-13T17:00:00,1157A,118.6414,32.0931,南京市,浦口,细颗粒物(PM2.5),62,70,25,44,18,107,72,101,66,15,13,3,3,0.5,0.5
2023-02-13T17:00:00,1158A,118.7356,31.9996,南京市,奥体中心,"颗粒物(PM10),细颗粒物(PM2.5)",58,65,25,41,17,102,54,95,59,30,21,5,3,0.9,0.8
2023-02-13T17:00:00,1159A,118.9125,32.1028,南京市,仙林大学城,细颗粒物(PM2.5),52,51,22,36,22,104,65,98,61,18,15,4,4,0.4,0.5
2023-02-13T17:00:00,1160A,120.561,31.2472,苏州市,上方山,颗粒物(PM10),56,62,30,35,22,89,50,84,47,26,23,6,5,0.8,0.7
2023-02-13T17:00:00,1161A,120.628,31.2864,苏州市,南门,,,,,,,,,,,,,,,,
2023-02-13T17:00:00,1162A,120.591,31.3019,苏州市,彩香,,50,47,31,35,26,104,63,96,57,21,22,6,5,1.0,0.8
2023-02-13T17:00:00,1163A,120.596,31.3264,苏州市,轧钢厂,,46,46,32,32,24,104,61,96,55,16,17,5,4,1.0,0.9
2023-02-13T17:00:00,1164A,120.613,31.2703,苏州市,吴中区,,49,47,30,34,25,99,59,92,56,28,26,6,5,0.9,0.8
2023-02-13T17:00:00,1165A,120.543,31.2994,苏州市,苏州新区,细颗粒物(PM2.5),54,44,28,38,27,101,60,91,54,12,14,6,6,0.8,0.8
2023-02-13T17:00:00,1166A,120.669,31.3097,苏州市,苏州工业园区,,49,49,31,32,23,100,61,93,52,19,21,7,6,0.8,0.8
2023-02-13T17:00:00,1167A,120.641,31.3708,苏州市,相城区,,49,44,26,34,28,104,61,96,56,22,20,8,4,1.1,0.9
2023-02-13T17:00:00,1168A,120.9098,31.9663,南通市,狼山街道,,45,45,32,25,30,112,82,109,78,11,12,8,8,0.5,0.6
2023-02-13T17:00:00,1169A,120.86,32.0005,南通市,虹桥,,,45,40,,30,115,80,109,77,12,13,4,4,0.4,0.6
2023-02-13T17:00:00,1170A,120.87,32.02,南通市,城中,颗粒物(PM10),51,52,41,29,41,106,76,101,72,10,12,4,5,0.3,0.4
2023-02-13T17:00:00,1171A,120.94,31.93,南通市,星湖花园,,47,47,38,22,28,108,80,104,74,10,12,8,8,0.4,0.5
2023-02-13T17:00:00,1172A,120.81,32.0417,南通市,紫琅学院,,46,46,39,27,27,105,73,101,70,12,13,4,4,0.3,0.4
2023-02-13T17:00:00,1173A,119.176,34.5885,连云港市,市环境监测站,,36,36,54,14,43,107,75,70,70,14,19,10,8,0.3,0.3
2023-02-13T17:00:00,1177A,117.179,34.2761,徐州市,黄河新村,,46,46,53,19,41,88,83,87,66,16,18,12,10,0.6,1
2023-02-13T17:00:00,1178A,117.1918,34.2384,徐州市,淮塔,,46,46,58,22,41,88,88,84,68,15,20,11,8,0.5,0.9
2023-02-13T17:00:00,1180A,117.256,34.2153,徐州市,新城区,,39,39,56,14,43,88,86,76,69,13,15,13,10,0.6,0.9
2023-02-13T17:00:00,1181A,117.244,34.2911,徐州市,桃园路,,39,39,60,12,37,79,77,76,64,16,18,11,9,0.5,0.8
2023-02-13T17:00:00,1182A,117.2933,34.2778,徐州市,农科院,,36,36,53,12,34,84,81,72,67,9,12,12,9,0.5,0.9
2023-02-13T17:00:00,1186A,119.389,32.3761,扬州市,邗江监测站,,,49,33,26,28,109,,107,66,14,16,4,4,0.5,0.7
2023-02-13T17:00:00,1188A,120.269,31.4867,无锡市,雪浪,细颗粒物(PM2.5),55,48,29,39,26,98,54,88,50,24,18,7,6,1.1,1.2
2023-02-13T17:00:00,1189A,120.275,31.6219,无锡市,黄巷,颗粒物(PM10),52,53,34,24,24,65,41,57,35,21,26,6,6,0.5,0.9
2023-02-13T17:00:00,1190A,120.294,31.56,无锡市,曹张,颗粒物(PM10),51,52,32,31,24,95,57,86,51,21,24,4,3,0.6,0.7
2023-02-13T17:00:00,1191A,120.242,31.5031,无锡市,漆塘,细颗粒物(PM2.5),52,51,28,36,26,99,61,91,55,16,15,6,6,0.9,1
2023-02-13T17:00:00,1192A,120.3489,31.5863,无锡市,东亭,颗粒物(PM10),52,53,33,29,26,94,62,86,51,20,27,9,8,0.7,0.9
2023-02-13T17:00:00,1193A,120.354,31.5475,无锡市,旺庄,,49,48,29,34,25,97,60,88,53,20,25,3,3,0.5,0.7
2023-02-13T17:00:00,1194A,120.245,31.5631,无锡市,荣巷,,46,46,29,31,25,99,58,89,54,21,20,9,9,0.5,0.7
2023-02-13T17:00:00,1195A,120.299,31.6817,无锡市,堰桥,,46,46,31,27,25,66,45,58,41,12,17,2,3,0.8,1
2023-02-13T17:00:00,1196A,119.9633,31.762,常州市,市监测站,细颗粒物(PM2.5),52,44,37,36,27,108,64,97,60,21,21,4,4,0.4,0.6
2023-02-13T17:00:00,1200A,119.9468,31.7069,常州市,武进监测站,细颗粒物(PM2.5),52,44,35,36,24,103,61,92,58,20,17,5,6,0.5,0.7
2023-02-13T17:00:00,1201A,119.9255,31.9087,常州市,安家,细颗粒物(PM2.5),53,40,35,37,30,105,66,96,65,18,14,6,6,0.5,0.6
2023-02-13T17:00:00,1203A,119.6707,32.1875,镇江市,新区办事处,,43,41,32,30,29,106,69,102,62,17,16,2,2,0.2,0.5
2023-02-13T17:00:00,1204A,119.4974,32.1968,镇江市,职教中心,颗粒物(PM10),52,54,37,33,36,119,79,109,74,12,13,2,2,0.3,0.5
2023-02-13T17:00:00,1205A,119.4303,32.1328,镇江市,丹徒区监测站,,48,41,28,33,26,110,67,100,64,18,14,3,2,0.5,0.6
2023-02-13T17:00:00,1206A,119.905,32.4878,泰州市,公园路,颗粒物(PM10),51,51,36,27,32,106,74,102,68,14,14,6,6,0.5,0.8
2023-02-13T17:00:00,1207A,119.9189,32.4625,泰州市,莲花,,,49,39,25,34,108,71,104,67,14,14,,6,0.6,0.9
2023-02-13T17:00:00,1209A,119.888,32.4639,泰州市,留学生创业园,,34,34,48,20,40,105,70,102,66,14,13,6,6,0.6,0.8
2023-02-13T17:00:00,1210A,119.036,33.5981,淮安市,钵池山,,39,39,45,12,40,109,78,104,66,11,12,6,5,0.8,1
2023-02-13T17:00:00,1211A,119.007,33.575,淮安市,北京南路,,36,36,43,25,31,109,77,105,65,16,16,9,7,0.7,0.8
2023-02-13T17:00:00,1212A,118.989,33.6067,淮安市,市监测站,,36,36,44,14,37,118,84,111,72,15,15,6,5,0.6,0.9
2023-02-13T17:00:00,1213A,119.135,33.5039,淮安市,楚州区监测站,,29,29,47,18,34,106,76,106,63,14,14,6,5,0.6,0.8
2023-02-13T17:00:00,1214A,119.0186,33.6297,淮安市,淮阴区监测站,,39,39,53,11,45,113,80,106,68,14,13,8,7,0.6,0.8
2023-02-13T17:00:00,1215A,120.118,33.4022,盐城市,盐城电厂,,36,36,50,18,26,120,90,119,81,10,10,7,7,0.4,0.6
2023-02-13T17:00:00,1216A,120.156,33.3942,盐城市,市监测站,,34,34,48,17,28,114,85,114,77,10,11,6,7,0.5,0.6
2023-02-13T17:00:00,1218A,120.2144,33.38,盐城市,开发区管委会,,45,45,61,19,38,117,81,117,75,14,12,6,6,0.4,0.6
2023-02-13T17:00:00,1220A,118.293,33.9528,宿迁市,宿迁学院,,26,19,43,15,34,105,82,88,74,11,12,6,7,0.3,0.6
2023-02-13T17:00:00,1221A,118.2442,33.9592,宿迁市,宿迁中学,,25,19,44,12,31,101,78,86,73,13,11,10,8,0.3,0.5
2023-02-13T17:00:00,1223A,120.2072,30.2111,杭州市,滨江,,28,22,16,19,11,89,53,76,61,32,28,7,6,0.8,0.9
2023-02-13T17:00:00,1224A,120.0633,30.2747,杭州市,西溪,,25,25,16,14,12,89,49,80,61,32,25,4,7,0.7,0.8
2023-02-13T17:00:00,1225A,119.026,29.635,杭州市,千岛湖,,,,,,,,,,,,,,,,
2023-02-13T17:00:00,1226A,120.3461,30.3153,杭州市,下沙,,47,47,27,20,15,87,48,74,56,35,30,5,5,0.8,0.9
2023-02-13T17:00:00,1227A,120.1269,30.2456,杭州市,卧龙桥,,23,18,15,16,12,91,53,74,58,26,25,4,4,0.8,0.8
2023-02-13T17:00:00,1228A,120.1903,30.2692,杭州市,浙江农大,,42,24,14,29,19,90,45,73,56,34,26,3,2,0.8,0.8
2023-02-13T17:00:00,1229A,120.157,30.2897,杭州市,朝晖五区,,,,,,,,,,,,,,,,
2023-02-13T17:00:00,1230A,120.1197,30.3119,杭州市,和睦小学,,25,24,20,17,15,82,42,68,48,45,35,4,4,0.8,0.9
2023-02-13T17:00:00,1231A,120.3019,30.4183,杭州市,临平镇,,42,34,23,29,19,95,53,82,63,24,19,6,6,0.7,0.8
2023-02-13T17:00:00,1232A,120.2697,30.1819,杭州市,城厢镇,,25,11,14,17,13,86,53,76,62,27,25,8,7,0.7,0.7
2023-02-13T17:00:00,1233A,120.0883,30.1808,杭州市,云栖,,27,27,15,3,6,95,57,80,67,22,21,5,5,0.8,0.8
2023-02-13T17:00:00,1234A,121.8358,29.911,宁波市,区环保大楼,,49,40,25,34,20,93,53,85,69,34,27,7,9,0.8,0.8
2023-02-13T17:00:00,1235A,121.56,29.82,宁波市,万里学院,,24,24,18,7,10,90,46,85,67,31,29,5,4,0.9,0.8
2023-02-13T17:00:00,1236A,121.713,29.9572,宁波市,龙赛医院,,29,27,23,20,16,92,58,83,62,27,30,5,6,0.8,0.8
2023-02-13T17:00:00,1239A,121.633,29.7733,宁波市,钱湖水厂,,40,29,22,28,14,92,42,86,66,30,24,4,4,0.9,0.8
2023-02-13T17:00:00,1240A,121.5856,29.8635,宁波市,太古小学,,38,38,18,7,10,89,41,81,61,35,28,6,6,1.0,0.9
2023-02-13T17:00:00,1241A,121.524,29.8674,宁波市,市环境监测中心,,20,16,19,11,14,84,29,77,58,40,28,4,4,0.7,0.6
2023-02-13T17:00:00,1242A,120.634,28.0089,温州市,瓯海,,14,9,45,4,34,36,36,15,15,28,46,6,6,0.5,0.8
2023-02-13T17:00:00,1243A,120.6748,27.9939,温州市,南浦,,,12,37,4,26,38,38,23,21,21,38,,5,,0.8
2023-02-13T17:00:00,1244A,120.76,27.9747,温州市,龙湾,,15,10,31,5,16,47,47,22,15,24,43,6,6,0.6,0.7
2023-02-13T17:00:00,1245A,120.6709,28.0167,温州市,市站,,16,16,42,4,34,46,46,17,16,24,46,4,5,0.7,0.9
2023-02-13T17:00:00,1246A,120.598,30.0911,绍兴市,袍江站,,,,,,,,,,,,,,,,
2023-02-13T17:00:00,1247A,120.6053,29.9928,绍兴市,城东开发委,,38,37,23,26,16,87,46,74,61,32,28,3,4,1.3,1.2
2023-02-13T17:00:00,1250A,120.0751,30.8669,湖州市,城西水厂,细颗粒物(PM2.5),58,38,17,41,19,101,58,88,61,28,26,4,4,0.6,0.7
2023-02-13T17:00:00,1252A,120.7436,30.778,嘉兴市,清河小学,细颗粒物(PM2.5),55,46,23,39,24,88,54,80,51,28,25,5,4,0.9,0.7
2023-02-13T17:00:00,1253A,120.726,30.7478,嘉兴市,嘉兴学院,细颗粒物(PM2.5),53,44,26,37,23,95,56,85,55,33,28,4,3,0.7,0.6
2023-02-13T17:00:00,1255A,121.273,28.6459,台州市,黄岩环保大楼,,24,10,38,2,18,84,74,66,66,21,31,6,7,0.6,0.7
2023-02-13T17:00:00,1256A,121.419,28.6542,台州市,台州环保大楼,,25,10,30,3,18,85,78,69,69,15,29,7,7,0.7,0.6
2023-02-13T17:00:00,1257A,121.377,28.5773,台州市,路桥田洋王,,24,12,28,2,18,80,76,60,60,17,30,5,8,0.5,0.5
2023-02-13T17:00:00,1258A,122.122,30.0203,舟山市,定海檀枫,细颗粒物(PM2.5),63,61,33,45,18,94,75,86,80,13,18,4,4,0.8,0.7
2023-02-13T17:00:00,1259A,122.3094,29.9558,舟山市,普陀东港,颗粒物(PM10),56,62,40,33,21,97,76,88,81,14,23,5,5,0.6,0.6
2023-02-13T17:00:00,1260A,122.19,29.9944,舟山市,临城新区,颗粒物(PM10),59,67,32,34,18,101,81,91,85,16,24,5,5,0.7,0.6
2023-02-13T17:00:00,1261A,119.649,29.1131,金华市,四中,,,,,,,,,,,,,,,,
2023-02-13T17:00:00,1262A,119.647,29.077,金华市,十五中,,21,12,26,10,22,77,47,63,63,41,35,5,6,1.0,0.9
2023-02-13T17:00:00,1263A,119.686,29.1029,金华市,监测站,,20,17,22,9,14,79,46,64,64,40,35,4,5,1.0,0.8
2023-02-13T17:00:00,1264A,118.8692,28.9398,衢州市,环保大楼,,22,9,33,4,22,68,68,47,47,19,31,3,4,0.9,0.9
2023-02-13T17:00:00,1265A,118.8709,28.9666,衢州市,实验学校,,24,3,22,2,15,75,75,51,51,17,35,2,2,0.7,0.6
2023-02-13T17:00:00,1266A,118.8621,28.9808,衢州市,衢州学院,,21,5,22,5,13,67,67,48,48,19,29,3,3,0.7,0.7
2023-02-13T17:00:00,1267A,119.914,28.4514,丽水市,监测站大楼,,22,7,40,1,20,74,70,52,52,15,21,6,8,0.5,1
2023-02-13T17:00:00,1268A,119.93,28.4586,丽水市,莲都小学,,25,13,30,1,17,83,79,57,57,15,24,6,6,0.4,0.6
2023-02-13T17:00:00,1269A,119.879,28.4231,丽水市,余庄前,,23,8,15,14,8,76,72,51,51,15,15,8,8,0.5,0.5
2023-02-13T17:00:00,1270A,117.1959,31.7848,合肥市,明珠广场,细颗粒物(PM2.5),55,39,16,39,13,93,57,82,52,27,22,8,7,0.5,0.8
2023-02-13T17:00:00,1271A,117.3072,31.8764,合肥市,三里街,细颗粒物(PM2.5),55,44,15,39,17,89,56,83,50,25,24,4,4,0.4,0.6
2023-02-13T17:00:00,1272A,117.2588,31.8707,合肥市,琥珀山庄,细颗粒物(PM2.5),52,46,13,36,12,95,63,90,59,25,24,4,4,0.5,0.7
2023-02-13T17:00:00,1273A,117.1604,31.9052,合肥市,董铺水库,,48,48,16,31,11,92,65,84,62,11,11,3,3,0.4,0.5
2023-02-13T17:00:00,1274A,117.25,31.8571,合肥市,长江中路,细颗粒物(PM2.5),58,44,14,41,16,92,60,85,56,19,16,9,8,0.7,0.9
2023-02-13T17:00:00,1275A,117.266,31.9436,合肥市,庐阳区,颗粒物(PM10),52,53,15,31,13,91,57,84,55,18,15,5,5,0.6,0.8
2023-02-13T17:00:00,1276A,117.336,31.8586,合肥市,瑶海区,,,41,15,33,12,90,51,84,52,,16,5,5,0.7,0.9
2023-02-13T17:00:00,1277A,117.3027,31.7964,合肥市,包河区,,45,34,14,31,14,91,49,83,44,29,25,6,6,0.5,0.7
2023-02-13T17:00:00,1278A,117.2776,31.7385,合肥市,滨湖新区,,35,29,13,24,9,92,44,81,45,36,24,5,5,0.5,0.7
2023-02-13T17:00:00,1279A,117.1318,31.8403,合肥市,高新区,,49,41,18,34,15,89,57,79,55,24,20,5,5,0.6,0.8
2023-02-13T17:00:00,1280A,119.3903,26.0543,福州市,鼓山,,,,,,,,,,,,,,,,
2023-02-13T17:00:00,1282A,119.2681,26.0504,福州市,师大,,20,20,43,13,26,66,34,37,37,30,36,4,4,0.7,0.9
2023-02-13T17:00:00,1283A,119.2984,26.1028,福州市,五四北路,,26,19,37,18,26,50,31,33,33,31,32,2,3,0.8,1.1
2023-02-13T17:00:00,1284A,119.2648,26.0768,福州市,杨桥西路,,28,28,36,15,19,68,32,39,39,28,27,3,3,0.8,0.8
2023-02-13T17:00:00,1285A,119.317,26.0746,福州市,紫阳,,25,25,64,15,46,62,28,33,33,30,35,2,3,0.8,1.3
2023-02-13T17:00:00,1286A,118.1608,24.8169,厦门市,溪东,,,,,,,,,,,,,,,,
2023-02-13T17:00:00,1287A,118.1514,24.4767,厦门市,洪文,,19,11,62,2,35,79,60,52,52,19,53,3,3,0,0.5
2023-02-13T17:00:00,1288A,118.0661,24.4444,厦门市,鼓浪屿,,20,13,67,11,50,86,61,56,56,27,66,5,8,0.3,0.6
2023-02-13T17:00:00,1290A,115.8931,28.6843,南昌市,省外办,,23,10,14,5,9,74,71,71,71,16,21,6,6,0.7,0.7
2023-02-13T17:00:00,1291A,115.8886,28.7003,南昌市,省林业公司,,22,0,3,5,10,73,69,70,70,12,18,3,3,1.0,1
2023-02-13T17:00:00,1292A,115.8126,28.7442,南昌市,林科所,,22,7,5,2,5,74,69,69,69,14,15,5,5,0.9,0.9
2023-02-13T17:00:00,1294A,115.8518,28.687,南昌市,建工学校,,22,9,18,9,12,71,70,67,67,17,19,7,7,1.0,1.1
2023-02-13T17:00:00,1295A,115.8921,28.6424,南昌市,象湖,,21,6,10,8,10,73,67,69,69,20,23,4,4,0.8,0.8
2023-02-13T17:00:00,1296A,115.7423,28.7996,南昌市,武术学校,,20,3,10,14,11,74,63,66,66,11,12,4,5,1.0,1
2023-02-13T17:00:00,1298A,115.9314,28.6842,南昌市,省站,,23,21,17,3,5,81,72,76,76,10,13,7,7,0.8,0.8
2023-02-13T17:00:00,1299A,116.9862,36.6114,济南市,科干所,,29,29,64,15,43,85,82,73,73,14,18,8,7,0.7,0.8
2023-02-13T17:00:00,1300A,116.9376,36.665,济南市,农科所,,39,39,60,17,39,81,76,68,68,17,23,5,5,0.6,0.7
2023-02-13T17:00:00,1301A,117.1265,36.6734,济南市,开发区,,29,29,54,12,41,79,74,72,72,36,27,10,10,0.5,0.6
2023-02-13T17:00:00,1303A,117.0624,36.6868,济南市,省种子仓库,,29,29,58,14,40,83,77,71,71,20,18,10,10,0.4,0.4
2023-02-13T17:00:00,1304A,116.9489,36.6447,济南市,机床二厂,,34,34,55,20,39,90,82,77,77,16,17,7,7,0.6,0.6
2023-02-13T17:00:00,1305A,117.0495,36.663,济南市,市监测站,,27,27,57,17,43,85,82,73,73,22,25,7,7,0.5,0.6
2023-02-13T17:00:00,1306A,116.7675,36.5484,济南市,长清党校,,,,60,24,43,91,84,78,78,19,25,9,8,0.7,0.8
2023-02-13T17:00:00,1307A,120.6659,36.2403,青岛市,仰口,,27,24,56,12,46,110,85,83,83,8,14,8,6,0.2,0.5
2023-02-13T17:00:00,1308A,120.3905,36.1851,青岛市,李沧区子站,,,,,,,,,,,,,,,,
2023-02-13T17:00:00,1309A,120.3471,36.0699,青岛市,市北区子站,,,,,,,,,,,,,,,,
2023-02-13T17:00:00,1310A,120.4134,36.0658,青岛市,市南区东部子站,,39,39,61,12,51,95,82,79,79,18,24,9,8,0.4,0.7
2023-02-13T17:00:00,1311A,120.3664,36.1032,青岛市,四方区子站,,27,27,60,9,43,77,76,72,72,16,25,9,7,0.5,0.8
2023-02-13T17:00:00,1312A,120.2994,36.054,青岛市,市南区西部子站,,29,27,60,5,39,100,92,88,88,9,19,9,8,0.2,0.7
2023-02-13T17:00:00,1313A,120.4581,36.0858,青岛市,崂山区子站,,29,29,62,7,38,96,84,83,83,15,20,9,8,0.4,0.6
2023-02-13T17:00:00,1314A,120.1983,35.9608,青岛市,黄岛区子站,,31,31,64,15,45,87,79,80,80,21,28,7,6,0.4,0.7
2023-02-13T17:00:00,1315A,120.3999,36.3083,青岛市,城阳区子站,,26,24,57,7,35,83,81,79,79,9,14,6,5,0.3,0.5
2023-02-13T17:00:00,1316A,113.69031,34.76122,郑州市,烟厂,细颗粒物(PM2.5),65,59,47,47,53,74,72,65,65,21,22,5,5,0.6,0.9
2023-02-13T17:00:00,1317A,113.65724,34.77134,郑州市,郑纺机,细颗粒物(PM2.5),68,52,46,49,51,75,74,66,66,20,23,3,3,0.6,0.9
2023-02-13T17:00:00,1318A,113.67526,34.80246,郑州市,银行学校,细颗粒物(PM2.5),72,52,46,52,51,76,73,66,66,17,21,5,5,0.8,1.1
2023-02-13T17:00:00,1319A,113.56746,34.81334,郑州市,供水公司,细颗粒物(PM2.5),69,54,47,50,51,73,72,61,61,21,25,4,4,0.7,1
2023-02-13T17:00:00,1320A,113.7329,34.7178,郑州市,经开区管委,细颗粒物(PM2.5),70,49,47,51,54,76,74,66,66,16,21,7,7,0.6,0.8
2023-02-13T17:00:00,1321A,113.73961,34.77172,郑州市,四十七中,细颗粒物(PM2.5),73,59,46,53,49,80,75,70,70,16,19,3,3,0.7,0.9
2023-02-13T17:00:00,1322A,113.60532,34.74838,郑州市,市监测站,细颗粒物(PM2.5),68,56,50,49,51,76,74,66,66,18,21,6,6,0.6,0.9
2023-02-13T17:00:00,1323A,113.64164,34.7525,郑州市,河医大,细颗粒物(PM2.5),69,64,49,50,52,66,60,55,55,26,27,3,3,0.7,1
2023-02-13T17:00:00,1324A,113.51488,34.91089,郑州市,岗李水库,,,,,,,,,,,,,,,,
2023-02-13T17:00:00,1325A,114.3677,30.5584,武汉市,东湖梨园,,39,29,13,27,13,71,45,66,42,23,23,5,5,0.8,0.8
2023-02-13T17:00:00,1326A,114.2529,30.558,武汉市,汉阳月湖,,42,34,14,29,12,64,41,62,37,24,23,5,5,0.9,0.9
2023-02-13T17:00:00,1327A,114.282,30.6189,武汉市,汉口花桥,,49,27,15,34,14,60,38,58,32,18,18,5,4,0.8,0.8
2023-02-13T17:00:00,1328A,114.3025,30.5332,武汉市,武昌紫阳,,43,25,13,30,13,61,33,56,29,27,27,8,8,0.9,0.9
2023-02-13T17:00:00,1329A,114.3646,30.6217,武汉市,青山钢花,,42,28,13,29,17,66,39,60,35,21,23,8,8,0.9,0.9
2023-02-13T17:00:00,1330A,114.1566,30.4825,武汉市,沌口新区,细颗粒物(PM2.5),52,22,14,36,12,59,36,56,31,25,25,6,6,0.9,0.9
2023-02-13T17:00:00,1331A,114.3014,30.5944,武汉市,汉口江滩,,45,28,14,31,11,67,38,63,33,22,21,5,5,0.8,0.9
2023-02-13T17:00:00,1333A,114.135,30.6319,武汉市,吴家山,细颗粒物(PM2.5),55,35,19,39,14,49,41,48,34,29,30,5,5,0.9,1
2023-02-13T17:00:00,1334A,113.8454,30.2917,武汉市,沉湖七壕,,30,30,17,12,7,51,51,50,38,15,16,8,8,0.8,0.9
2023-02-13T17:00:00,1335A,113.0833,28.2325,长沙市,经开区环保局,,23,21,15,16,12,37,27,33,22,20,17,2,2,0.9,0.7
2023-02-13T17:00:00,1336A,112.8872,28.2189,长沙市,高开区环保局,,24,24,18,14,10,37,33,34,28,19,14,4,4,1.1,0.8
2023-02-13T17:00:00,1337A,113.0792,28.2053,长沙市,马坡岭,,13,13,9,9,10,39,26,34,23,19,15,5,5,0.7,0.6
2023-02-13T17:00:00,1338A,112.9394,28.19,长沙市,湖南师范大学,,17,17,10,11,5,30,27,27,22,20,17,2,2,1.0,0.6
2023-02-13T17:00:00,1339A,113.0178,28.1322,长沙市,雨花区环保局,,20,17,13,14,13,31,26,27,21,23,18,1,1,0.7,0.7
2023-02-13T17:00:00,1340A,112.9792,28.2597,长沙市,伍家岭,,,30,16,16,13,36,29,33,26,24,18,4,4,,0.8
2023-02-13T17:00:00,1341A,113.0014,28.1944,长沙市,火车新站,,18,18,12,12,9,30,26,28,22,27,22,5,5,1.1,0.8
2023-02-13T17:00:00,1342A,112.9844,28.1178,长沙市,天心区环保局,,19,19,13,12,8,31,24,27,21,25,19,2,2,0.8,0.7
2023-02-13T17:00:00,1343A,112.8908,28.1308,长沙市,湖南中医药大学,,22,19,14,15,12,32,30,29,24,24,20,2,2,1.1,0.8
2023-02-13T17:00:00,1344A,112.9581,28.3611,长沙市,沙坪,,,10,11,,8,36,20,33,24,18,18,3,3,1.0,1.1
2023-02-13T17:00:00,1345A,113.2347,23.1423,广州市,广雅中学,,30,30,30,17,15,69,4,34,34,35,31,4,4,0.7,0.4
2023-02-13T17:00:00,1346A,113.2612,23.105,广州市,市五中,,32,32,30,21,17,80,8,40,40,44,35,5,6,0.8,0.6
2023-02-13T17:00:00,1348A,113.3478,23.0916,广州市,广东商学院,,,,30,,14,57,17,29,29,46,35,4,5,0.7,0.6
2023-02-13T17:00:00,1349A,113.4332,23.1047,广州市,市八十六中,,37,37,37,16,13,48,7,15,15,48,39,4,5,0.8,0.8
2023-02-13T17:00:00,1350A,113.3505,22.9483,广州市,番禺中学,,35,35,26,19,15,60,41,39,39,29,30,6,6,0.8,0.7
2023-02-13T17:00:00,1351A,113.2146,23.3916,广州市,花都师范,,12,11,33,5,15,59,9,26,19,23,32,5,6,0.8,0.6
2023-02-13T17:00:00,1352A,113.2597,23.1331,广州市,市监测站,,32,32,30,16,14,67,6,33,33,37,33,5,6,0.8,0.6
2023-02-13T17:00:00,1353A,113.5618,23.312,广州市,九龙镇镇龙,,27,27,29,15,14,46,10,28,28,24,31,5,6,0.8,0.6
2023-02-13T17:00:00,1354A,113.2765,23.1544,广州市,麓湖,,27,27,27,13,14,58,6,33,29,32,28,4,5,0.7,0.5
2023-02-13T17:00:00,1355A,113.443,23.3035,广州市,帽峰山森林公园,,19,19,24,7,11,57,14,31,30,19,25,4,6,0.9,0.7
2023-02-13T17:00:00,1356A,114.1063,22.5545,深圳市,通心岭子站,,17,17,17,8,9,53,42,44,44,16,9,3,3,0.5,0.7
2023-02-13T17:00:00,1357A,114.117,22.5625,深圳市,洪湖,,20,20,19,9,10,70,57,57,57,14,13,7,7,0.5,0.5
2023-02-13T17:00:00,1358A,113.987,22.5417,深圳市,华侨城,,13,13,17,6,9,57,29,41,41,24,16,9,6,0.6,0.6
2023-02-13T17:00:00,1359A,113.9181,22.5171,深圳市,南海子站,,,32,22,13,12,48,16,37,35,,16,6,4,,0.6
2023-02-13T17:00:00,1360A,114.2458,22.5689,深圳市,盐田,,29,18,23,13,14,70,18,29,29,57,32,10,7,0.7,0.7
2023-02-13T17:00:00,1361A,114.2283,22.7244,深圳市,龙岗,,18,18,19,8,8,61,32,43,43,28,15,3,3,0.4,0.5
2023-02-13T17:00:00,1362A,113.8953,22.5861,深圳市,西乡,,,,,,,,,,,,,,,,
2023-02-13T17:00:00,1363A,114.494,22.5422,深圳市,南澳,,25,18,14,11,8,82,78,63,63,16,11,7,6,0.9,0.9
2023-02-13T17:00:00,1364A,114.41,22.6342,深圳市,葵涌,,21,13,19,9,11,68,66,56,56,12,17,7,7,0.4,0.5
2023-02-13T17:00:00,1365A,114.297,22.5978,深圳市,梅沙,,26,12,24,4,11,83,83,64,64,3,13,3,3,0.5,0.6
2023-02-13T17:00:00,1366A,114.0678,22.738,深圳市,观澜,,30,30,30,9,12,60,24,39,39,35,23,8,7,0.8,0.8
2023-02-13T17:00:00,1367A,113.5814,22.2618,珠海市,吉大,,28,18,22,16,15,89,89,62,62,5,11,8,8,0.3,0.3
2023-02-13T17:00:00,1368A,113.4881,22.2335,珠海市,前山,,25,25,26,16,16,60,54,43,43,37,29,3,3,0.5,0.5
2023-02-13T17:00:00,1369A,113.628,22.4251,珠海市,唐家,,27,21,19,12,14,84,84,56,56,7,21,5,6,0.2,0.2
2023-02-13T17:00:00,1370A,113.299,22.2281,珠海市,斗门,,25,25,24,15,12,67,67,43,43,15,16,2,2,0.2,0.2
2023-02-13T17:00:00,1371A,113.1294,23.0067,佛山市,湾梁,,39,39,27,18,12,73,14,41,41,35,24,8,9,0.7,0.5
2023-02-13T17:00:00,1372A,113.1083,23.0478,佛山市,华材职中,,39,39,27,23,14,70,5,39,38,35,22,8,8,0.6,0.3
2023-02-13T17:00:00,1373A,113.144,23.0453,佛山市,南海气象局,,36,36,30,20,14,63,6,32,32,40,27,7,7,0.8,0.6
2023-02-13T17:00:00,1374A,113.2881,22.8094,佛山市,顺德苏岗,,20,20,17,12,10,61,41,44,44,17,19,6,7,0.6,0.6
2023-02-13T17:00:00,1375A,113.2544,22.7642,佛山市,容桂街道办,,,,,,,,,,,,,,,,
2023-02-13T17:00:00,1376A,112.8383,22.8678,佛山市,高明孔堂,,29,28,24,20,13,51,21,41,41,30,12,7,4,0.7,0.6
2023-02-13T17:00:00,1377A,112.8836,23.1588,佛山市,三水监测站,,19,5,30,13,18,41,17,25,25,24,33,5,4,0.7,0.6
2023-02-13T17:00:00,1378A,112.867,23.185,佛山市,三水云东海,,14,14,29,8,14,46,19,26,26,22,31,4,5,0.5,0.4
2023-02-13T17:00:00,1379A,113.3769,22.5211,中山市,华柏园,,16,16,18,11,12,45,43,38,38,12,13,5,6,0.5,0.5
2023-02-13T17:00:00,1380A,113.3881,22.5497,中山市,张溪,,27,27,25,13,14,51,49,46,46,10,11,4,3,0.4,0.4
2023-02-13T17:00:00,1381A,113.4075,22.5111,中山市,紫马岭,,23,22,19,16,8,55,48,46,46,11,7,4,4,0.3,0.3
2023-02-13T17:00:00,1382A,113.4411,22.4853,中山市,长江旅游区,,24,24,26,15,14,57,52,53,53,15,10,10,10,0.4,0.3
2023-02-13T17:00:00,1383A,113.1064,22.6058,江门市,北街,,25,21,22,17,11,51,44,42,42,19,18,6,7,0.4,0.5
2023-02-13T17:00:00,1384A,113.0731,22.5835,江门市,西区,,31,31,26,18,13,54,40,40,40,23,17,5,5,0.4,0.4
2023-02-13T17:00:00,1385A,113.0219,22.5311,江门市,圭峰西,,26,26,26,18,15,50,46,39,39,21,20,5,4,0.7,0.7
2023-02-13T17:00:00,1386A,113.0828,22.5947,江门市,东湖,,31,31,29,13,12,53,40,38,38,22,16,5,5,0.4,0.4
2023-02-13T17:00:00,1387A,113.7875,23.0457,东莞市,东城主山,,,,,,,,,,,,,,,,
2023-02-13T17:00:00,1388A,113.7533,23.0202,东莞市,南城元岭,,,,,,,,,,,,,,,,
2023-02-13T17:00:00,1389A,113.7547,23.0494,东莞市,莞城梨川,,18,18,26,8,13,66,40,46,46,18,24,8,8,0.4,0.4
2023-02-13T17:00:00,1390A,113.7944,23.0128,东莞市,东城石井,,18,18,23,8,11,58,39,44,44,15,22,9,7,0.4,0.4
2023-02-13T17:00:00,1391A,113.7383,22.9658,东莞市,南城西平,,22,22,26,10,12,57,39,43,43,19,26,8,6,0.3,0.3
2023-02-13T17:00:00,1392A,114.4183,23.0528,惠州市,河南岸金山湖子站,,42,42,29,10,14,67,59,52,52,12,14,4,4,0.5,0.6
2023-02-13T17:00:00,1393A,114.4053,23.0822,惠州市,下埔横江三路子站,,,34,27,8,11,77,52,57,57,,15,4,4,0.5,0.6
2023-02-13T17:00:00,1394A,114.4103,23.1142,惠州市,江北云山西路子站,,,,27,8,14,89,82,68,68,9,10,4,4,0.4,0.4
2023-02-13T17:00:00,1395A,114.4645,22.7833,惠州市,惠阳区承修路船湖子站,,,,22,,27,74,62,59,59,14,10,,4,0.6,0.6
2023-02-13T17:00:00,1396A,114.5317,22.7422,惠州市,大亚湾管委会子站,,36,36,31,14,15,70,68,57,57,20,21,4,4,0.4,0.4
2023-02-13T17:00:00,1397A,112.4267,23.0706,肇庆市,睦岗子站,,45,45,38,22,18,30,14,27,20,39,33,10,10,0.6,0.5
2023-02-13T17:00:00,1398A,112.4645,23.0475,肇庆市,城中子站,,38,38,36,23,19,45,13,21,21,39,27,8,9,0.8,0.6
2023-02-13T17:00:00,1399A,112.5544,23.1522,肇庆市,坑口子站,,33,33,33,21,20,47,8,14,14,31,27,7,7,0.6,0.3
2023-02-13T17:00:00,1400A,112.4753,23.1,肇庆市,七星岩子站,,37,37,25,21,14,49,9,39,22,29,17,12,11,0.9,0.7
2023-02-13T17:00:00,1401A,108.3103,22.7881,南宁市,二十一中,,32,32,33,15,16,60,46,50,44,12,14,6,5,0.9,0.7
2023-02-13T17:00:00,1402A,108.3141,22.8528,南宁市,北湖,,,,35,19,20,53,47,46,46,12,14,6,6,1.0,0.9
2023-02-13T17:00:00,1403A,108.3206,22.8225,南宁市,市监测站,,33,33,32,20,21,51,40,42,41,18,18,7,6,0.9,0.7
2023-02-13T17:00:00,1404A,108.3829,22.8037,南宁市,大自然花园,,32,32,29,19,18,52,38,47,39,12,10,6,5,0.9,0.7
2023-02-13T17:00:00,1405A,108.4394,22.7904,南宁市,仙葫,,26,20,38,18,19,55,38,52,38,9,11,14,6,0.8,0.6
2023-02-13T17:00:00,1406A,108.2397,22.8467,南宁市,区农职院,,49,49,33,18,18,65,41,48,48,14,22,7,6,1.0,0.7
2023-02-13T17:00:00,1407A,108.3275,22.735,南宁市,英华嘉园,,27,27,34,16,20,53,39,40,40,14,19,6,5,0.7,0.5
2023-02-13T17:00:00,1408A,108.2257,22.7757,南宁市,沙井镇街道办,,44,44,43,22,24,46,36,36,36,18,30,8,6,0.7,0.5
2023-02-13T17:00:00,1409A,110.576,19.9507,海口市,东寨港,,,11,15,10,7,40,37,29,29,,,7,7,0.5,0.5
2023-02-13T17:00:00,1410A,110.3232,20.0574,海口市,海南大学,,25,25,21,10,10,73,66,51,51,7,10,6,6,0.3,0.4
2023-02-13T17:00:00,1411A,110.283,20.0053,海口市,秀英海南医院,,26,26,24,12,11,81,65,50,50,10,16,3,3,0.5,0.5
2023-02-13T17:00:00,1412A,110.338,19.9969,海口市,海南师范大学,,29,29,23,11,11,72,63,50,50,8,8,4,4,0.5,0.5
2023-02-13T17:00:00,1413A,110.33,20.0356,海口市,龙华路环保局宿舍,,20,20,23,6,8,63,58,46,46,9,10,5,5,0.5,0.4
2023-02-13T17:00:00,1414A,106.3787,29.8279,重庆市,缙云山,,15,15,14,7,10,38,27,33,29,20,19,3,3,0.8,0.8
2023-02-13T17:00:00,1416A,106.4213,29.8253,重庆市,天生,,,,24,,22,34,,30,24,23,16,5,6,,0.9
2023-02-13T17:00:00,1417A,106.6263,29.7228,重庆市,两路,,,29,35,19,29,30,,20,19,27,23,8,9,0.9,0.9
2023-02-13T17:00:00,1418A,106.2953,29.5983,重庆市,虎溪,,,,24,,13,32,,32,27,20,15,,6,1.0,1
2023-02-13T17:00:00,1419A,106.5777,29.5102,重庆市,南坪,,29,26,43,20,31,20,16,15,15,21,27,5,6,1.0,1
2023-02-13T17:00:00,1420A,106.6556,29.6277,重庆市,唐家沱,,30,30,40,17,30,22,15,20,13,39,36,8,8,1.0,1
2023-02-13T17:00:00,1421A,106.6349,29.4906,重庆市,茶园,,33,33,45,21,28,25,21,21,21,28,29,4,5,0.8,0.8
2023-02-13T17:00:00,1422A,106.3754,29.4572,重庆市,白市驿,,20,12,20,14,21,26,23,21,21,27,25,6,7,1.3,1.2
2023-02-13T17:00:00,1425A,106.6205,29.7166,重庆市,空港,,33,33,34,21,31,27,20,19,18,30,30,4,5,1.0,1.1
2023-02-13T17:00:00,1426A,106.4782,29.4875,重庆市,新山村,,20,20,42,13,26,25,17,18,18,34,32,5,6,0.4,0.3
2023-02-13T17:00:00,1427A,106.5616,29.6453,重庆市,礼嘉,,27,27,29,16,25,27,16,24,20,33,27,6,6,0.8,0.8
2023-02-13T17:00:00,1428A,106.4522,29.7091,重庆市,蔡家,,30,28,29,21,22,27,27,24,19,18,22,5,5,1.0,1
2023-02-13T17:00:00,1429A,106.5093,29.3917,重庆市,鱼新街,,25,15,41,17,31,21,16,14,14,28,29,7,8,1.0,1
2023-02-13T17:00:00,1431A,103.9728,30.7236,成都市,金泉两河,,28,28,42,11,20,48,37,40,39,26,28,3,3,0.6,0.7
2023-02-13T17:00:00,1432A,104.176,30.6872,成都市,十里店,,15,13,43,4,19,48,47,46,42,11,21,3,2,0.8,0.7
2023-02-13T17:00:00,1433A,104.079,30.5706,成都市,三瓦窑,,24,24,42,13,21,47,40,46,37,16,19,2,2,0.5,0.5
2023-02-13T17:00:00,1434A,104.1114,30.63,成都市,沙河铺,,32,32,44,12,20,49,46,46,42,21,24,2,3,0.6,0.6
2023-02-13T17:00:00,1435A,104.074,30.685,成都市,梁家巷,,,,,,,,,,,,,,,,
2023-02-13T17:00:00,1436A,104.026,30.6544,成都市,草堂寺,,,,,,,,,,,,,,,,
2023-02-13T17:00:00,1437A,104.0786,30.6531,成都市,君平街,,22,22,44,14,26,52,48,46,46,24,33,2,2,0.6,0.6
2023-02-13T17:00:00,1438A,103.613,31.0283,成都市,灵岩寺,,42,42,31,27,22,52,30,48,26,22,16,4,4,0.7,0.7
2023-02-13T17:00:00,1439A,106.6899,26.5998,贵阳市,马鞍山,,25,17,16,17,12,60,36,37,28,13,10,5,7,0.7,0.7
2023-02-13T17:00:00,1440A,106.6971,26.5694,贵阳市,市环保站,,,,17,20,16,60,37,38,23,15,13,5,8,0.6,0.6
2023-02-13T17:00:00,1441A,106.6243,26.6266,贵阳市,鉴湖路,,29,29,25,12,12,57,37,35,30,10,10,4,7,0.6,0.6
2023-02-13T17:00:00,1442A,106.7487,26.6343,贵阳市,燕子冲,,35,29,24,24,22,59,33,32,16,10,9,3,8,0.7,0.7
2023-02-13T17:00:00,1443A,106.6555,26.4365,贵阳市,碧云窝,,29,29,28,19,15,59,32,38,21,15,12,11,11,0.7,0.7
2023-02-13T17:00:00,1444A,106.694,26.5161,贵阳市,中院村,,34,34,32,17,14,50,33,36,21,18,15,10,11,0.7,0.7
2023-02-13T17:00:00,1445A,106.7109,26.6027,贵阳市,红边门,,,24,22,17,15,47,29,32,17,14,11,,12,0.7,0.8
2023-02-13T17:00:00,1446A,106.7164,26.5699,贵阳市,新华路,,27,27,26,14,13,53,38,36,23,11,8,6,8,0.6,0.6
2023-02-13T17:00:00,1447A,106.674,26.5424,贵阳市,太慈桥,,31,31,29,17,11,62,35,39,23,16,14,5,6,0.6,0.6
2023-02-13T17:00:00,1450A,102.8204,24.8886,昆明市,呈贡新区,,41,41,43,18,25,118,111,108,108,7,14,7,7,0.4,0.5
2023-02-13T17:00:00,1451A,102.6251,24.9608,昆明市,西山森林公园,,37,28,30,18,19,120,117,113,113,9,10,9,8,0.5,0.5
2023-02-13T17:00:00,1452A,102.7252,25.0902,昆明市,龙泉镇,,37,35,53,20,29,118,116,106,106,8,32,7,12,0.3,0.4
2023-02-13T17:00:00,1453A,102.7266,25.0375,昆明市,东风东路,,36,36,42,22,22,113,110,104,104,13,16,10,11,0.4,0.5
2023-02-13T17:00:00,1454A,102.6742,25.0669,昆明市,金鼎山,,46,46,45,14,27,120,116,107,107,10,21,4,6,0.4,0.5
2023-02-13T17:00:00,1455A,102.6644,25.0401,昆明市,碧鸡广场,,36,36,44,15,25,117,113,103,103,10,21,6,6,0.4,0.4
2023-02-13T17:00:00,1456A,91.1319,29.6514,拉萨市,八廓街,,46,22,132,7,29,163,145,148,148,13,15,7,7,0.6,0.7
2023-02-13T17:00:00,1457A,91.1221,29.6747,拉萨市,市环保局,,,,124,,31,165,149,149,149,,11,4,8,,0.7
2023-02-13T17:00:00,1458A,91.0874,29.6475,拉萨市,区监测站,,48,23,150,4,38,161,153,151,151,7,7,6,6,0.4,0.4
2023-02-13T17:00:00,1459A,91.1774,29.6541,拉萨市,西藏大学,,48,13,115,8,26,167,151,151,151,7,8,4,5,0.2,0.3
2023-02-13T17:00:00,1460A,90.9798,29.6588,拉萨市,区辐射站,,49,21,128,7,38,161,156,157,157,7,7,6,6,0.5,0.6
2023-02-13T17:00:00,1461A,91.0834,29.6292,拉萨市,拉萨火车站,,,23,145,8,30,161,147,149,149,8,7,7,8,,0.3
2023-02-13T17:00:00,1462A,108.882,34.2749,西安市,高压开关厂,,33,26,58,23,42,28,28,20,16,29,32,6,7,0.8,1
2023-02-13T17:00:00,1463A,108.993,34.2629,西安市,兴庆小区,,26,21,45,18,41,30,18,22,11,34,32,5,5,1.6,1.2
2023-02-13T17:00:00,1464A,109.06,34.2572,西安市,纺织城,,28,12,45,19,41,26,14,13,10,40,36,7,8,0.5,0.8
2023-02-13T17:00:00,1465A,108.9356,34.2173,西安市,小寨,,29,29,54,17,37,36,27,27,20,28,25,5,6,0.5,0.7
2023-02-13T17:00:00,1466A,108.954,34.2713,西安市,市人民体育场,,30,16,47,21,42,29,19,14,9,26,27,7,7,0.9,1.1
2023-02-13T17:00:00,1467A,108.8922,34.2322,西安市,高新西区,,,15,48,21,42,36,,26,20,23,23,6,7,1.0,0.9
2023-02-13T17:00:00,1468A,108.935,34.3474,西安市,经开区,,26,18,41,18,38,29,9,13,9,34,29,6,6,1.4,1.2
2023-02-13T17:00:00,1469A,108.906,34.1546,西安市,长安区,,33,27,52,23,38,40,35,33,31,24,19,4,4,0.7,0.8
2023-02-13T17:00:00,1470A,109.2,34.6575,西安市,阎良区,,,,,,,,,,,,,,,,
2023-02-13T17:00:00,1471A,109.2186,34.3731,西安市,临潼区,,26,25,43,18,41,27,10,25,10,24,24,8,8,1.3,1.2
2023-02-13T17:00:00,1472A,108.869,34.378,西安市,草滩,,28,20,46,19,26,23,11,12,12,28,27,8,11,0.8,0.7
2023-02-13T17:00:00,1473A,108.985,34.1978,西安市,曲江文化产业集团,,25,25,50,15,34,36,26,30,23,30,24,4,4,0.7,0.8
2023-02-13T17:00:00,1474A,109.051,34.3213,西安市,广运潭,,25,22,42,17,36,27,5,9,7,31,25,5,5,1.1,1.1
2023-02-13T17:00:00,1476A,103.631,36.1031,兰州市,兰炼宾馆,颗粒物(PM10),52,54,70,27,29,90,79,82,82,25,21,7,6,0.5,0.5
2023-02-13T17:00:00,1477A,104.1373,35.9454,兰州市,榆中兰大校区,,,,,,,,,,,,,,,,
2023-02-13T17:00:00,1478A,103.8412,36.0726,兰州市,生物制品所,"颗粒物(PM10),细颗粒物(PM2.5)",52,54,56,36,31,86,81,82,82,16,18,7,5,0.8,0.6
2023-02-13T17:00:00,1479A,103.831,36.0464,兰州市,铁路设计院,颗粒物(PM10),53,55,63,35,38,79,60,72,64,40,29,13,9,0.8,0.9
2023-02-13T17:00:00,1480A,101.748,36.6428,西宁市,市环境监测站,,,,,,,,,,,,,,,,
2023-02-13T17:00:00,1482A,101.834,36.5819,西宁市,四陆医院,,,,,,,,,,,,,,,,
2023-02-13T17:00:00,1483A,101.524,36.6867,西宁市,第五水厂,,,,,,,,,,,,,,,,
2023-02-13T17:00:00,1484A,105.9512,38.6016,银川市,贺兰山马莲口,,25,25,43,12,15,62,46,57,56,33,20,19,12,0.5,0.4
2023-02-13T17:00:00,1488A,106.2328,38.4975,银川市,贺兰山东路,细颗粒物(PM2.5),52,50,64,36,25,67,44,65,49,34,27,14,8,0.9,0.7
2023-02-13T17:00:00,1489A,106.1358,38.5036,银川市,学院路,,38,38,54,26,19,60,45,59,50,34,29,19,9,0.9,0.7
2023-02-13T17:00:00,1490A,87.5801,43.8303,乌鲁木齐市,监测站,细颗粒物(PM2.5),147,133,91,112,71,87,55,36,36,66,64,4,3,1.2,0.9
2023-02-13T17:00:00,1491A,87.6046,43.768,乌鲁木齐市,收费所,细颗粒物(PM2.5),109,135,111,82,72,78,44,44,44,79,49,7,5,1.4,0.8
2023-02-13T17:00:00,1492A,87.4754,43.9469,乌鲁木齐市,新疆农科院农场,细颗粒物(PM2.5),231,181,90,181,98,92,80,48,48,32,62,8,8,1.8,1.5
2023-02-13T17:00:00,1493A,87.5525,43.8711,乌鲁木齐市,铁路局,细颗粒物(PM2.5),160,144,90,122,80,94,73,28,28,28,48,2,3,1.2,1
2023-02-13T17:00:00,1494A,87.6432,43.831,乌鲁木齐市,三十一中学,细颗粒物(PM2.5),129,122,92,98,68,89,68,50,50,41,36,7,6,1.1,0.8
2023-02-13T17:00:00,1496A,87.7216,44.1747,乌鲁木齐市,米东区环保局,细颗粒物(PM2.5),124,113,155,94,128,137,137,77,77,19,48,10,12,0.9,1.1
2023-02-13T17:00:00,1508A,112.9433,27.8614,湘潭市,板塘,,23,12,12,16,14,30,28,28,23,25,20,1,2,0.9,0.8
2023-02-13T17:00:00,1511A,112.9118,27.8403,湘潭市,市监测站,,22,22,16,14,12,30,22,28,21,24,17,5,5,0.9,0.6
2023-02-13T17:00:00,1512A,112.8937,27.8728,湘潭市,江麓,,32,28,13,22,12,37,29,33,27,32,24,3,3,1.0,0.7
2023-02-13T17:00:00,1513A,112.9227,27.8159,湘潭市,岳塘,,20,19,11,14,12,34,28,32,25,31,24,5,11,1.2,0.9
2023-02-13T17:00:00,1514A,112.9074,27.9119,湘潭市,科大,,26,26,12,17,13,30,23,27,21,26,19,3,3,1.5,1.1
2023-02-13T17:00:00,1515A,113.135,27.8244,株洲市,天台山庄,,,,15,14,11,36,,31,22,28,21,4,3,1.1,1.1
2023-02-13T17:00:00,1518A,113.095,27.8867,株洲市,株冶医院,,21,21,14,13,12,33,21,27,20,27,18,3,2,1.4,1
2023-02-13T17:00:00,1519A,113.167,27.8667,株洲市,市四中,,25,12,7,17,9,36,22,32,22,25,18,6,6,1.2,1
2023-02-13T17:00:00,1520A,113.143,27.8381,株洲市,火车站,,20,19,11,14,11,36,22,31,22,28,24,3,3,1.5,1.1
2023-02-13T17:00:00,1524A,113.13,27.8528,株洲市,市监测站,,25,17,12,17,11,37,24,32,23,28,22,6,6,1.2,0.8
2023-02-13T17:00:00,1552A,106.805,26.3003,贵阳市,桐木岭,,,,,,,,,,,,,,,,
2023-02-13T17:00:00,1559A,113.251,27.8336,株洲市,大京风景区,,16,12,9,11,8,35,23,32,24,24,20,3,3,0.8,0.6
2023-02-13T17:00:00,1562A,113.0048,27.9153,湘潭市,昭山,,25,22,15,17,12,30,24,27,22,21,15,3,2,1.0,0.7
2023-02-13T17:00:00,1564A,112.4876,27.9164,湘潭市,韶山,,,,7,,10,31,26,29,25,15,11,5,8,1.0,1
2023-02-13T17:00:00,1585A,109.8756,40.6532,包头市,市环境监测站,,36,36,23,7,7,79,59,69,64,29,14,19,12,0.8,0.6
2023-02-13T17:00:00,1587A,109.9991,40.5842,包头市,包头八中,,39,39,28,12,8,72,59,66,53,29,27,22,16,0.9,0.6
2023-02-13T17:00:00,1588A,109.8538,40.6821,包头市,青山宾馆,,26,26,16,10,5,79,72,72,69,19,12,8,8,0.5,0.5
2023-02-13T17:00:00,1589A,109.8642,40.6288,包头市,惠龙物流,,24,24,24,11,9,74,56,68,59,33,19,18,9,0.7,0.4
2023-02-13T17:00:00,1590A,110.0377,40.5546,包头市,东河鸿龙湾,,31,31,22,13,8,74,71,62,62,18,20,16,12,0.8,0.6
2023-02-13T17:00:00,1591A,110.0023,39.8129,鄂尔多斯市,综合楼,,39,39,35,9,7,78,42,59,59,46,31,13,10,0.6,0.5
2023-02-13T17:00:00,1592A,109.9486,39.8261,鄂尔多斯市,巴音孟克林场办事处,,36,36,24,12,8,82,49,75,62,36,16,13,9,0.7,0.6
2023-02-13T17:00:00,1593A,109.7736,39.5986,鄂尔多斯市,康泽苑,,22,22,22,2,5,81,66,67,63,20,19,8,7,0.7,0.6
2023-02-13T17:00:00,1594A,109.8119,39.5989,鄂尔多斯市,华泰汽车城,,21,17,25,9,11,84,65,70,65,20,20,11,9,0.5,0.4
2023-02-13T17:00:00,1595A,109.9734,39.7884,鄂尔多斯市,奥林花园,,,,23,7,9,84,49,67,65,36,21,12,8,0.6,0.6
2023-02-13T17:00:00,1596A,122.2414,40.6592,营口市,学府南路,,,,,,,,,,,,,,,,
2023-02-13T17:00:00,1597A,122.2703,40.7094,营口市,大庆路,颗粒物(PM10),54,58,58,28,32,83,75,76,76,21,22,11,10,0.5,0.6
2023-02-13T17:00:00,1598A,122.2150,40.6511,营口市,镜湖西路,颗粒物(PM10),52,54,59,24,29,87,79,80,80,18,17,11,10,0.5,0.6
2023-02-13T17:00:00,1599A,122.1658,40.6789,营口市,西炮台,,40,40,46,18,30,90,82,83,83,20,22,9,7,0.5,0.5
2023-02-13T17:00:00,1600A,124.3303,40.0625,丹东市,江湾东路,,30,28,57,21,46,93,87,88,88,13,15,11,11,0.4,0.6
2023-02-13T17:00:00,1601A,124.4256,40.1503,丹东市,临江后街,,32,32,52,18,37,89,86,85,85,12,16,8,8,0.5,0.6
2023-02-13T17:00:00,1602A,124.3933,40.1461,丹东市,元宝山,,43,43,55,18,35,82,78,78,78,13,14,13,13,0.7,0.8
2023-02-13T17:00:00,1603A,124.3633,40.1092,丹东市,民主桥,,25,25,53,17,38,85,80,81,81,13,15,13,11,0.4,0.6
2023-02-13T17:00:00,1604A,122.0303,41.1489,盘锦市,开发区,,38,38,32,13,20,82,79,80,80,11,10,8,7,0.5,0.6
2023-02-13T17:00:00,1605A,122.0485,41.0883,盘锦市,兴隆台,,28,28,32,11,20,77,70,74,74,17,14,9,8,0.5,0.6
2023-02-13T17:00:00,1606A,121.8297,41.1028,盘锦市,新生街道,,30,30,39,8,22,81,70,78,78,21,24,8,8,0.4,0.5
2023-02-13T17:00:00,1607A,120.9092,40.7136,葫芦岛市,龙港区,,48,48,54,21,26,81,72,76,76,13,16,32,55,0.5,0.7
2023-02-13T17:00:00,1608A,120.8392,40.7514,葫芦岛市,化工街,,36,36,42,7,13,83,76,80,80,17,17,8,11,0.6,0.7
2023-02-13T17:00:00,1609A,120.8341,40.7073,葫芦岛市,新区,,40,40,32,10,11,78,71,74,74,17,15,13,16,0.6,0.6
2023-02-13T17:00:00,1610A,120.8695,40.7677,葫芦岛市,东城区,,41,41,39,5,12,81,76,77,77,11,11,12,18,0.3,0.5
2023-02-13T17:00:00,1611A,118.5819,24.9117,泉州市,涂山街,,37,37,63,23,60,100,71,64,64,22,53,9,10,0.7,1.2
2023-02-13T17:00:00,1612A,118.5972,24.8978,泉州市,津头埔,,42,42,70,25,67,90,67,60,60,25,55,8,10,0.5,1
2023-02-13T17:00:00,1613A,118.6663,24.9424,泉州市,万安,,42,36,52,29,43,104,65,68,68,24,41,8,9,0.7,0.9
2023-02-13T17:00:00,1614A,118.6117,24.9604,泉州市,清源山,,,,,,,,,,,,,,,,
2023-02-13T17:00:00,1616A,117.6795,36.229,济南市,技术学院,颗粒物(PM10),54,58,47,31,30,88,73,82,82,25,20,12,6,0.9,0.8
2023-02-13T17:00:00,1618A,118.3429,35.0532,临沂市,沂河小区,,28,27,52,5,39,87,87,79,79,9,13,4,4,0.5,0.7
2023-02-13T17:00:00,1619A,118.295,35.0583,临沂市,鲁南制药厂,,29,22,46,9,33,92,91,83,83,10,15,10,10,0.2,0.5
2023-02-13T17:00:00,1620A,118.2794,34.9976,临沂市,新光毛纺厂,,27,24,47,8,31,85,85,76,76,9,14,5,4,0.5,0.7
2023-02-13T17:00:00,1621A,118.3956,35.0888,临沂市,河东保险公司,,29,24,46,12,38,90,90,84,84,11,17,7,6,0.6,0.8
2023-02-13T17:00:00,1622A,116.3032,37.4674,德州市,儿童乐园,,27,22,41,12,30,88,86,76,76,7,16,3,3,0.3,0.5
2023-02-13T17:00:00,1624A,116.2991,37.4451,德州市,监理站,,27,17,37,12,33,88,86,77,77,14,20,3,5,0.4,0.6
2023-02-13T17:00:00,1625A,115.9848,36.4372,聊城市,区政府,,30,30,62,16,46,90,90,78,78,15,18,7,8,0.4,0.7
2023-02-13T17:00:00,1628A,118.0062,37.3803,滨州市,市环保局,,26,12,36,8,26,84,81,72,72,13,14,6,7,0.5,0.5
2023-02-13T17:00:00,1629A,118.0018,37.3617,滨州市,第二水厂,,26,12,36,9,23,84,82,73,73,14,16,5,6,0.4,0.6
2023-02-13T17:00:00,1630A,117.9776,37.393,滨州市,北中新校,,34,34,48,6,26,87,84,74,74,16,18,6,7,0.3,0.4
2023-02-13T17:00:00,1631A,118.0414,36.8103,淄博市,人民公园,,28,9,40,18,40,87,87,81,81,6,12,7,9,0.3,0.4
2023-02-13T17:00:00,1632A,118.0253,36.8406,淄博市,东风化工厂,,,,,,,,,,,,,,,,
2023-02-13T17:00:00,1633A,117.8525,36.4847,淄博市,双山,,30,30,46,16,31,84,80,80,80,14,16,14,6,0.5,0.5
2023-02-13T17:00:00,1634A,117.9592,36.6331,淄博市,气象站,,27,22,43,12,30,84,84,80,80,15,17,8,8,0.3,0.3
2023-02-13T17:00:00,1635A,118.3092,36.8194,淄博市,莆田园,,22,12,33,7,30,71,68,58,58,26,39,8,6,0.4,0.4
2023-02-13T17:00:00,1636A,117.8661,36.805,淄博市,三金集团,,,,,,,,,,,,,,,,
2023-02-13T17:00:00,1637A,117.558,34.8438,枣庄市,市中区政府,,31,31,41,17,23,106,91,90,84,18,21,10,8,0.6,0.6
2023-02-13T17:00:00,1638A,117.2852,34.7837,枣庄市,薛城环保局,,37,37,50,19,36,91,89,78,78,22,30,21,14,0.5,0.7
2023-02-13T17:00:00,1639A,117.5852,34.7745,枣庄市,峄城区政府,,29,29,48,9,30,104,91,83,83,23,22,7,10,0.4,0.5
2023-02-13T17:00:00,1640A,117.7276,34.5578,枣庄市,台儿庄区环保局,,36,36,50,19,35,93,87,81,81,16,20,10,7,0.6,0.8
2023-02-13T17:00:00,1641A,117.4518,35.0992,枣庄市,山亭区环保局,,29,29,40,15,30,101,90,85,85,16,18,11,13,0.6,0.8
2023-02-13T17:00:00,1642A,121.2514,37.5639,烟台市,开发区,颗粒物(PM10),69,88,78,12,33,77,77,73,73,6,14,13,9,0.2,0.4
2023-02-13T17:00:00,1643A,121.3719,37.5433,烟台市,轴承厂,,48,48,66,10,36,85,85,81,81,9,19,7,6,0.4,0.6
2023-02-13T17:00:00,1644A,121.3181,37.5436,烟台市,西郊化工站,颗粒物(PM10),51,51,70,11,36,90,90,84,84,4,13,6,7,0.6,0.9
2023-02-13T17:00:00,1645A,121.4478,37.4822,烟台市,莱山环保局,,29,29,62,9,38,84,84,81,81,7,14,9,10,0.7,0.9
2023-02-13T17:00:00,1646A,121.2611,37.4967,烟台市,福山环保局,,46,46,60,5,34,67,67,65,65,8,15,9,9,0.3,0.6
2023-02-13T17:00:00,1648A,119.12,36.7019,潍坊市,仲裁委,,,,,,,,,,,,,,,,
2023-02-13T17:00:00,1650A,119.1437,36.7023,潍坊市,环保局,,25,19,42,12,34,81,77,79,79,9,14,4,4,0.3,0.6
2023-02-13T17:00:00,1652A,119.1936,36.7729,潍坊市,寒亭监测站,,,,,,,,,,,,,,,,
2023-02-13T17:00:00,1653A,116.6251,35.4302,济宁市,火炬城,,43,43,46,24,42,91,85,83,83,12,15,6,5,0.5,0.6
2023-02-13T17:00:00,1655A,116.5491,35.4042,济宁市,电化厂,,44,44,53,24,45,85,81,78,78,14,16,5,4,0.6,0.6
2023-02-13T17:00:00,1656A,117.1437,36.1937,泰安市,监测站,,26,19,38,10,31,86,83,83,83,4,14,6,4,0.6,0.6
2023-02-13T17:00:00,1657A,117.0885,36.2017,泰安市,人口学校,,31,31,41,13,27,99,82,85,85,8,7,5,3,0.8,0.8
2023-02-13T17:00:00,1658A,117.1089,36.1758,泰安市,电力学校,,27,27,37,12,31,88,84,85,85,13,13,9,8,0.7,0.7
2023-02-13T17:00:00,1659A,119.471,35.4209,日照市,监测站,,26,24,46,12,35,86,83,79,79,11,18,6,6,0.3,0.5
2023-02-13T17:00:00,1660A,119.523,35.4216,日照市,市政府广场,,27,24,48,15,34,92,84,80,80,5,12,4,3,0.5,0.7
2023-02-13T17:00:00,1661A,119.5587,35.4044,日照市,港务局,,27,24,52,6,37,97,86,79,79,6,13,6,4,0.5,0.7
2023-02-13T17:00:00,1662A,122.1214,37.4236,威海市,华夏技校,,39,39,71,12,43,88,87,83,83,10,17,3,3,0.2,0.5
2023-02-13T17:00:00,1663A,122.0508,37.5236,威海市,山大分校,,42,42,64,10,38,89,87,84,84,8,14,4,3,0.2,0.5
2023-02-13T17:00:00,1664A,122.1067,37.5072,威海市,市监测站,,42,42,68,15,40,87,83,81,81,13,15,6,6,0.2,0.5
2023-02-13T17:00:00,1665A,118.5019,37.4658,东营市,西城阳光环保公司,,,,,,,,,,,,,,,,
2023-02-13T17:00:00,1666A,118.6614,37.4309,东营市,市环保局,,29,9,30,7,19,90,90,86,86,11,10,9,8,0.5,0.5
2023-02-13T17:00:00,1669A,113.5824,24.7733,韶关市,市八中,,,12,30,9,24,22,22,17,17,12,15,7,14,,1.3
2023-02-13T17:00:00,1670A,113.5556,24.8082,韶关市,碧湖山庄,,,,,,,,,,,,,,,,
2023-02-13T17:00:00,1671A,113.5917,24.7972,韶关市,园林处,,11,11,28,4,21,25,25,18,18,10,12,7,7,0.7,1.2
2023-02-13T17:00:00,1672A,113.6735,24.7791,韶关市,韶关学院,,13,0,22,9,21,18,18,14,14,16,15,8,8,0.7,1
2023-02-13T17:00:00,1673A,113.5971,24.6863,韶关市,曲江监测站,,10,5,34,7,29,134,24,47,19,14,14,8,11,0.6,1.5
2023-02-13T17:00:00,1674A,116.6794,23.3667,汕头市,金平子站,,25,25,56,15,31,118,76,81,81,16,34,12,12,1.0,1.1
2023-02-13T17:00:00,1675A,116.7244,23.3633,汕头市,龙湖子站,,35,35,51,17,31,117,71,77,77,18,32,11,10,0.8,0.9
2023-02-13T17:00:00,1676A,116.7258,23.2775,汕头市,濠江子站,,23,15,39,11,32,89,73,64,64,14,23,8,9,0.5,0.8
2023-02-13T17:00:00,1677A,116.7519,23.4714,汕头市,澄海子站,颗粒物(PM10),54,58,73,31,42,150,91,97,97,28,37,5,5,0.8,1
2023-02-13T17:00:00,1678A,116.6092,23.2539,汕头市,潮阳子站,,50,28,55,35,45,96,63,60,60,8,29,5,5,1.0,1
2023-02-13T17:00:00,1679A,116.4069,23.2533,汕头市,潮南子站,,,,,,,,,,,,,,,,
2023-02-13T17:00:00,1680A,110.3539,21.2706,湛江市,湛江影剧院,,28,28,22,17,12,53,49,44,44,7,8,5,5,0.4,0.5
2023-02-13T17:00:00,1681A,110.3928,21.2228,湛江市,市环境监测站,,27,27,19,18,12,50,45,42,42,12,11,6,6,0.3,0.3
2023-02-13T17:00:00,1682A,110.4019,21.1997,湛江市,环保局宿舍,,21,21,18,12,10,48,48,40,40,8,8,3,3,0.4,0.4
2023-02-13T17:00:00,1683A,110.4111,21.2028,湛江市,霞山游泳场,,23,20,20,16,12,55,51,42,42,8,8,5,5,0.4,0.3
2023-02-13T17:00:00,1684A,110.3316,21.2679,湛江市,麻章区环保局,,30,30,23,14,12,51,45,41,41,9,9,5,5,0.4,0.4
2023-02-13T17:00:00,1685A,110.4558,21.2567,湛江市,坡头区环保局,,21,21,17,14,10,49,49,43,43,7,7,6,6,0.4,0.4
2023-02-13T17:00:00,1686A,111.0286,21.4688,茂名市,电白南海,,25,24,24,17,11,56,50,50,50,10,7,5,5,0.4,0.3
2023-02-13T17:00:00,1687A,110.9294,21.6533,茂名市,茂石化七小,,,,24,,11,48,46,44,44,4,5,2,2,0.4,0.3
2023-02-13T17:00:00,1688A,110.9107,21.6687,茂名市,健康路,,29,29,20,13,8,50,48,47,47,6,6,10,9,0.6,0.6
2023-02-13T17:00:00,1689A,110.8592,21.6828,茂名市,高岭,,31,31,26,14,14,50,47,46,46,11,10,9,9,0.5,0.5
2023-02-13T17:00:00,1690A,116.1231,24.3284,梅州市,梅江月梅,,33,33,23,19,15,71,52,60,60,8,13,5,7,0.4,0.4
2023-02-13T17:00:00,1691A,116.0797,24.2719,梅州市,梅县新城,,20,16,23,14,12,69,56,54,54,9,18,6,6,0.5,0.6
2023-02-13T17:00:00,1692A,116.1248,24.2654,梅州市,环境监控中心,,25,16,23,17,13,67,59,52,52,8,21,7,7,0.5,0.5
2023-02-13T17:00:00,1693A,115.3653,22.775,汕尾市,市环保局,,,20,30,10,13,80,,53,,6,10,7,8,0.7,0.6
2023-02-13T17:00:00,1694A,115.3706,22.7898,汕尾市,市政府,,23,10,23,11,19,80,72,65,65,6,11,8,7,0.5,0.5
2023-02-13T17:00:00,1695A,115.3622,22.7925,汕尾市,新城中学,,23,20,28,10,13,82,71,64,64,5,9,6,6,0.4,0.5
2023-02-13T17:00:00,1696A,114.6778,23.7569,河源市,源西,,25,25,24,12,9,68,61,50,50,13,16,5,5,0.6,0.7
2023-02-13T17:00:00,1697A,114.6944,23.7586,河源市,东埔,,28,28,28,12,11,67,65,49,49,11,13,4,4,0.6,0.6
2023-02-13T17:00:00,1698A,114.6892,23.7233,河源市,老城,,30,30,30,13,11,60,55,49,49,7,12,4,5,0.6,0.7
2023-02-13T17:00:00,1699A,111.9797,21.8593,阳江市,鸳鸯湖,,19,18,14,13,9,56,55,51,51,3,3,5,5,0.5,0.5
2023-02-13T17:00:00,1700A,111.9508,21.8536,阳江市,南恩路,,,,,,,,,,,,,,,,
2023-02-13T17:00:00,1701A,111.9491,21.8658,阳江市,马南垌,,20,19,15,14,11,52,49,48,48,6,4,4,4,0.4,0.3
2023-02-13T17:00:00,1702A,113.0426,23.691,清远市,环保大楼,,15,3,32,10,20,30,24,9,9,12,36,4,4,0.5,0.7
2023-02-13T17:00:00,1703A,113.0208,23.7106,清远市,凤城街办,,6,4,39,2,22,17,17,7,7,6,30,6,7,0.6,1
2023-02-13T17:00:00,1705A,116.6367,23.6719,潮州市,西园路,细颗粒物(PM2.5),72,52,72,52,44,133,133,84,84,21,24,8,7,1.2,1.3
2023-02-13T17:00:00,1706A,116.6447,23.6706,潮州市,档案局,细颗粒物(PM2.5),75,51,78,55,53,141,141,98,98,22,27,10,8,1.1,1.2
2023-02-13T17:00:00,1708A,116.3701,23.5345,揭阳市,新兴,细颗粒物(PM2.5),62,68,108,44,61,126,126,82,82,17,38,8,8,1.1,2
2023-02-13T17:00:00,1709A,116.3264,23.5443,揭阳市,西马,颗粒物(PM10),55,59,100,31,53,116,116,74,74,13,32,8,9,0.9,1.6
2023-02-13T17:00:00,1710A,116.3611,23.5626,揭阳市,东兴,细颗粒物(PM2.5),57,59,122,40,70,139,139,89,89,19,38,7,7,1.0,1.8
2023-02-13T17:00:00,1711A,116.4151,23.5294,揭阳市,渔湖,细颗粒物(PM2.5),74,68,115,54,57,128,127,83,83,17,41,12,9,1.3,1.4
2023-02-13T17:00:00,1712A,112.0392,22.9169,云浮市,新市府,,32,32,28,16,13,41,14,16,16,15,14,4,5,0.8,0.7
2023-02-13T17:00:00,1713A,112.0369,22.9394,云浮市,市监测站,,,,,,,,,,,,,,,,
2023-02-13T17:00:00,1714A,112.0539,22.9539,云浮市,牧羊,,26,8,31,18,16,30,13,24,15,16,20,6,8,0.7,0.5
2023-02-13T17:00:00,1715A,102.575,24.3711,玉溪市,东风水库,,50,50,83,27,65,134,120,104,104,12,17,6,7,0.6,1
2023-02-13T17:00:00,1718A,115.4208,35.2464,菏泽市,气象局,,44,44,72,29,56,94,94,82,82,16,19,5,5,0.4,0.6
2023-02-13T17:00:00,1719A,115.4747,35.2375,菏泽市,市政协,,48,47,72,33,57,88,88,80,80,14,21,6,5,0.4,0.6
2023-02-13T17:00:00,1720A,115.455,35.27,菏泽市,菏泽学院,,,,,,,,,,,,,,,,
2023-02-13T17:00:00,1721A,113.3819,40.1097,大同市,果树场,,,,,,,,,,,,,,,,
2023-02-13T17:00:00,1723A,113.2994,40.0758,大同市,云冈宾馆,,,8,10,,6,88,85,82,82,7,8,8,9,0.3,0.4
2023-02-13T17:00:00,1724A,113.3444,40.0917,大同市,大同大学,,25,11,15,2,3,77,77,75,75,9,10,7,9,0.2,0.4
2023-02-13T17:00:00,1725A,113.2661,40.1269,大同市,安家小村,,26,5,12,3,9,89,83,83,83,8,8,4,5,0.2,0.3
2023-02-13T17:00:00,1726A,113.2711,40.0844,大同市,教育学院,,24,7,14,16,15,81,74,76,74,13,11,6,6,0.2,0.3
2023-02-13T17:00:00,1727A,113.1147,36.1547,长治市,清华站,细颗粒物(PM2.5),92,65,35,68,38,84,73,70,70,20,13,5,4,1.3,1
2023-02-13T17:00:00,1728A,113.1031,36.1989,长治市,监测站,细颗粒物(PM2.5),89,75,42,66,37,75,75,66,66,24,19,5,2,1.5,1.2
2023-02-13T17:00:00,1730A,113.0886,36.2125,长治市,审计局,细颗粒物(PM2.5),104,67,38,78,43,76,76,68,68,21,14,8,5,1.3,1.2
2023-02-13T17:00:00,1731A,113.0844,36.1856,长治市,长治八中,细颗粒物(PM2.5),78,68,38,57,35,78,78,70,70,19,12,4,2,1.2,1
2023-02-13T17:00:00,1733A,111.5531,36.0783,临汾市,临钢医院,细颗粒物(PM2.5),102,78,70,76,67,59,52,41,41,31,33,8,4,1.5,1.6
2023-02-13T17:00:00,1734A,111.5028,36.0714,临汾市,技工学校,细颗粒物(PM2.5),105,87,64,79,63,56,48,42,42,26,27,10,9,1.5,2.6
2023-02-13T17:00:00,1735A,111.5169,36.0822,临汾市,工商学校,,,,,,,,,,,,,,,,
2023-02-13T17:00:00,1736A,111.5018,36.0855,临汾市,市委,细颗粒物(PM2.5),112,99,68,84,61,63,50,46,46,32,30,5,5,1.8,1.8
2023-02-13T17:00:00,1738A,113.5758,37.8572,阳泉市,市中心,细颗粒物(PM2.5),74,89,85,54,69,69,60,55,55,31,29,22,22,1.3,1.5
2023-02-13T17:00:00,1739A,113.4894,37.8731,阳泉市,赛鱼,细颗粒物(PM2.5),84,86,71,62,65,72,61,54,54,38,30,17,12,1.3,1.4
2023-02-13T17:00:00,1740A,113.5819,37.8486,阳泉市,南庄,细颗粒物(PM2.5),80,73,82,59,71,74,66,58,58,32,27,32,21,1.3,1.6
2023-02-13T17:00:00,1741A,113.6292,37.8531,阳泉市,白羊墅,,,,,,,,,,,,,,,,
2023-02-13T17:00:00,1742A,113.5614,37.8703,阳泉市,平坦,细颗粒物(PM2.5),88,79,86,65,72,74,62,58,58,38,29,16,14,1.5,1.6
2023-02-13T17:00:00,1743A,113.5158,37.8392,阳泉市,大阳泉,细颗粒物(PM2.5),65,35,44,47,44,78,78,62,62,29,25,8,9,1.0,1.4
2023-02-13T17:00:00,1744A,118.9233,42.2816,赤峰市,松山一中,,30,30,28,6,7,81,79,76,76,12,18,8,10,0.3,0.5
2023-02-13T17:00:00,1745A,118.9576,42.2728,赤峰市,哈达街,,25,13,23,5,10,82,78,80,75,13,17,12,13,0.4,0.5
2023-02-13T17:00:00,1746A,118.8788,42.2554,赤峰市,天义路,,24,13,23,6,6,79,75,73,73,13,18,12,14,0.5,0.6
2023-02-13T17:00:00,1748A,123.044,41.1196,鞍山市,深沟寺,,36,36,57,21,43,87,80,76,76,15,23,10,10,0.6,0.8
2023-02-13T17:00:00,1749A,123.011,41.0931,鞍山市,太阳城,,40,40,59,23,41,88,81,77,77,15,23,10,12,0.5,0.7
2023-02-13T17:00:00,1750A,123.0485,41.1442,鞍山市,太平,,36,36,62,23,48,81,74,71,71,18,29,12,23,0.5,1
2023-02-13T17:00:00,1751A,122.9642,41.0971,鞍山市,铁西三道街,,48,48,70,26,50,74,69,63,63,27,49,17,32,1.2,2.5
2023-02-13T17:00:00,1752A,122.9341,41.0833,鞍山市,铁西工业园区,,49,49,72,29,50,79,69,68,68,34,44,16,33,0.5,1.6
2023-02-13T17:00:00,1753A,123.022,41.0821,鞍山市,明达新区,,41,41,65,24,44,85,80,75,75,16,23,8,11,0.7,0.8
2023-02-13T17:00:00,1754A,123.1289,41.0228,鞍山市,千山,,,,,,,,,,,,,,,,
2023-02-13T17:00:00,1755A,123.7977,41.8491,抚顺市,望花区,,40,40,65,13,49,76,74,69,69,9,19,8,11,0.3,0.8
2023-02-13T17:00:00,1756A,123.9161,41.8822,抚顺市,顺城区,,31,31,56,11,46,92,88,81,81,15,29,5,5,0.4,0.6
2023-02-13T17:00:00,1757A,124.0436,41.8611,抚顺市,东洲区,,29,29,86,12,66,91,85,75,75,12,21,8,7,0.4,0.7
2023-02-13T17:00:00,1758A,123.9247,41.8642,抚顺市,新抚区,,40,40,87,12,67,78,75,68,68,15,28,6,6,0.3,0.7
2023-02-13T17:00:00,1759A,124.0972,41.8961,抚顺市,大伙房水库,,29,29,86,11,72,91,90,77,77,10,20,6,6,0.4,0.6
2023-02-13T17:00:00,1760A,123.7086,41.8391,抚顺市,沈抚新城,,28,28,65,13,50,87,85,78,78,8,25,8,9,0.4,0.7
2023-02-13T17:00:00,1761A,123.8275,41.3064,本溪市,大峪,,27,27,83,15,64,82,80,73,73,32,34,11,11,0.7,1.2
2023-02-13T17:00:00,1762A,123.7567,41.3325,本溪市,溪湖,,42,42,83,17,56,80,76,70,70,15,24,12,11,0.5,0.9
2023-02-13T17:00:00,1763A,123.7169,41.3094,本溪市,彩屯,,49,49,82,18,53,75,68,65,65,22,27,10,11,0.5,1
2023-02-13T17:00:00,1764A,123.7669,41.2864,本溪市,东明,,43,43,76,22,62,74,67,64,64,28,32,19,14,0.5,1
2023-02-13T17:00:00,1765A,123.7992,41.2664,本溪市,新立屯,颗粒物(PM10),51,51,81,19,71,75,74,66,66,23,32,10,10,0.6,1.1
2023-02-13T17:00:00,1766A,123.8142,41.3472,本溪市,威宁,,45,45,103,20,78,71,66,61,61,22,44,9,7,0.4,0.9
2023-02-13T17:00:00,1767A,121.1115,41.0879,锦州市,南山,,36,36,29,10,13,85,81,82,82,14,15,6,11,0.4,0.4
2023-02-13T17:00:00,1768A,121.0533,40.8434,锦州市,开发区,,34,34,48,13,16,85,79,82,82,12,21,9,13,0.4,0.5
2023-02-13T17:00:00,1769A,121.1836,41.1119,锦州市,百股街道,,,,56,,21,87,72,84,83,14,21,13,21,,0.7
2023-02-13T17:00:00,1770A,121.1178,41.1222,锦州市,天安街道,,36,36,33,7,11,87,80,83,83,14,14,7,12,0.3,0.4
2023-02-13T17:00:00,1771A,121.1303,41.1386,锦州市,北湖公园,,32,32,33,10,15,86,82,82,82,12,14,9,13,0.5,0.5
2023-02-13T17:00:00,1772A,126.54,43.8622,吉林市,哈达湾,,33,32,85,23,68,93,86,79,79,18,33,8,11,0.6,1
2023-02-13T17:00:00,1773A,126.5844,43.8358,吉林市,东局子,,39,32,99,27,84,88,83,73,73,17,36,8,12,0.5,1.1
2023-02-13T17:00:00,1774A,126.5052,43.8245,吉林市,电力学院,,40,37,91,28,76,94,88,78,78,14,30,12,14,0.7,1.1
2023-02-13T17:00:00,1775A,126.6133,43.8972,吉林市,江北,,42,38,101,29,82,87,81,70,70,21,35,14,15,0.6,1.2
2023-02-13T17:00:00,1776A,126.555,43.8306,吉林市,江南公园,,40,29,84,28,78,90,84,73,73,20,39,8,11,0.5,0.9
2023-02-13T17:00:00,1778A,126.7061,43.7133,吉林市,丰满,,,,,,,,,,,,,,,,
2023-02-13T17:00:00,1779A,123.9305,47.3636,齐齐哈尔市,安居小区,,,20,30,11,22,91,82,87,87,,20,6,7,0.4,0.5
2023-02-13T17:00:00,1780A,123.9488,47.3386,齐齐哈尔市,中心广场,,21,10,24,7,14,83,66,80,79,29,18,17,7,0.5,0.4
2023-02-13T17:00:00,1781A,123.9483,47.3227,齐齐哈尔市,农牧车辆厂,,19,17,25,7,18,78,59,74,73,31,20,5,5,0.4,0.4
2023-02-13T17:00:00,1783A,123.945,47.2988,齐齐哈尔市,市环境监测站,,21,17,30,10,26,83,67,78,78,26,20,8,10,0.5,0.4
2023-02-13T17:00:00,1784A,129.61,44.561,牡丹江市,环保大楼,,41,41,37,21,25,87,84,82,82,16,20,4,6,0.4,0.5
2023-02-13T17:00:00,1785A,129.6115,44.5782,牡丹江市,文化广场,细颗粒物(PM2.5),59,49,42,42,36,79,74,73,73,18,25,6,8,0.5,0.6
2023-02-13T17:00:00,1786A,129.5904,44.5963,牡丹江市,第一医院,,39,37,44,27,33,88,88,82,82,10,23,3,4,0.7,0.8
2023-02-13T17:00:00,1787A,129.6364,44.6075,牡丹江市,机车工厂,,39,36,60,27,39,89,89,81,81,6,25,2,2,0.5,0.8
2023-02-13T17:00:00,1788A,129.6386,44.5462,牡丹江市,第一中学,,39,37,38,27,27,85,85,81,81,10,16,2,4,0.6,0.6
2023-02-13T17:00:00,1789A,124.81117,46.03138,大庆市,大同区,,27,27,48,15,38,87,84,80,80,9,19,6,7,0.6,0.8
2023-02-13T17:00:00,1790A,125.129,46.533,大庆市,龙凤区,,27,27,40,17,28,78,74,70,70,16,37,4,8,0.3,0.5
2023-02-13T17:00:00,1791A,124.902,46.408,大庆市,红岗区,,32,18,32,22,25,94,80,84,84,23,29,13,9,0.4,0.3
2023-02-13T17:00:00,1792A,125.153,46.586,大庆市,萨尔图区,,30,14,35,21,34,77,76,71,71,18,39,8,9,0.5,0.6
2023-02-13T17:00:00,1793A,124.9042,46.6215,大庆市,让胡路区,,38,20,32,26,26,93,85,84,84,13,28,6,7,0.3,0.4
2023-02-13T17:00:00,1794A,118.3606,31.3519,芜湖市,监测站,细颗粒物(PM2.5),58,50,15,41,13,92,47,83,55,42,33,5,4,1.0,0.9
2023-02-13T17:00:00,1795A,118.3714,31.4134,芜湖市,科创中心,,,48,19,40,14,91,,83,55,34,28,5,4,0.8,0.9
2023-02-13T17:00:00,1796A,118.3673,31.3131,芜湖市,四水厂,细颗粒物(PM2.5),54,48,17,38,12,85,40,78,55,40,28,6,5,0.9,0.8
2023-02-13T17:00:00,1797A,118.4022,31.3839,芜湖市,济民医院,,,,,,,,,,,,,,,,
2023-02-13T17:00:00,1798A,118.5092,31.6837,马鞍山市,湖东路四小,细颗粒物(PM2.5),59,46,16,42,16,100,52,86,58,25,22,7,7,1.2,1
2023-02-13T17:00:00,1799A,118.5024,31.6449,马鞍山市,开发区,细颗粒物(PM2.5),59,62,20,42,18,98,54,85,60,31,26,7,8,1.0,1
2023-02-13T17:00:00,1800A,118.5228,31.7231,马鞍山市,慈湖,细颗粒物(PM2.5),59,50,19,42,21,97,53,83,53,31,26,6,6,0.8,0.9
2023-02-13T17:00:00,1801A,118.48,31.6928,马鞍山市,马钢动力厂,,,,,,,,,,,,,,,,
2023-02-13T17:00:00,1802A,118.6245,31.7241,马鞍山市,濮塘,细颗粒物(PM2.5),53,53,18,37,15,97,52,88,58,22,16,4,4,0.9,0.9
2023-02-13T17:00:00,1803A,115.9872,29.6815,九江市,十里,,20,17,13,8,10,78,61,74,71,21,24,6,7,1.0,0.9
2023-02-13T17:00:00,1804A,115.9584,29.7046,九江市,茅山头,,19,8,15,10,13,73,58,69,67,16,23,8,9,1.0,1.1
2023-02-13T17:00:00,1805A,115.9877,29.7295,九江市,西园,,18,10,14,5,12,75,57,71,68,22,24,6,6,0.9,1.1
2023-02-13T17:00:00,1806A,116.0172,29.6547,九江市,五七二七厂,,20,17,12,5,6,79,63,76,74,13,15,6,6,1.1,1
2023-02-13T17:00:00,1808A,115.9114,29.6038,九江市,综合工业园,,20,9,11,9,9,78,64,75,74,15,23,7,8,1.1,1.1
2023-02-13T17:00:00,1809A,116.0721,29.7535,九江市,石化总厂,,20,14,14,7,6,77,62,73,70,19,24,7,8,0.9,0.9
2023-02-13T17:00:00,1810A,115.9773,29.5698,九江市,庐山气象台,,,,5,,3,20,,16,,,17,,6,,0.8
2023-02-13T17:00:00,1811A,112.3628,34.6692,洛阳市,中信二小,,,,,,,,,,,,,,,,
2023-02-13T17:00:00,1812A,112.3931,34.6516,洛阳市,市委党校,细颗粒物(PM2.5),68,70,54,49,42,45,42,39,39,23,23,6,5,0.8,1
2023-02-13T17:00:00,1814A,112.4657,34.6871,洛阳市,豫西宾馆,细颗粒物(PM2.5),74,73,45,54,49,53,46,46,46,20,22,8,8,0.9,1.1
2023-02-13T17:00:00,1815A,112.494,34.6886,洛阳市,河南林校,细颗粒物(PM2.5),79,72,49,58,49,58,46,48,48,23,25,3,2,0.9,1
2023-02-13T17:00:00,1816A,112.3844,34.623,洛阳市,开发区管委会,细颗粒物(PM2.5),82,73,52,60,48,63,57,56,56,28,29,5,4,0.7,0.9
2023-02-13T17:00:00,1817A,112.4267,34.6258,洛阳市,市委新办公区,细颗粒物(PM2.5),98,70,50,73,61,57,50,49,49,31,29,4,3,0.8,0.9
2023-02-13T17:00:00,1818A,114.4839,36.0621,安阳市,棉研所,,,,,,,,,,,,,,,,
2023-02-13T17:00:00,1819A,114.3551,36.1017,安阳市,红庙街,细颗粒物(PM2.5),60,42,56,43,63,83,80,66,66,23,29,7,5,0.7,0.9
2023-02-13T17:00:00,1820A,114.361,36.0681,安阳市,银杏小区,细颗粒物(PM2.5),65,39,53,47,70,84,82,67,67,17,23,6,5,0.5,0.8
2023-02-13T17:00:00,1824A,114.3389,34.7781,开封市,肿瘤医院,细颗粒物(PM2.5),60,50,67,43,52,84,83,69,69,10,17,5,4,0.3,0.6
2023-02-13T17:00:00,1826A,114.2885,34.7965,开封市,世纪星幼儿园,细颗粒物(PM2.5),54,50,52,38,52,81,81,67,67,13,19,6,5,0.5,0.8
2023-02-13T17:00:00,1828A,113.227,35.2125,焦作市,市环保局,细颗粒物(PM2.5),107,93,69,80,52,45,41,37,37,30,27,6,5,1.2,1.3
2023-02-13T17:00:00,1829A,113.2464,35.1764,焦作市,高新区政府,,,,,,,,,,,,,,,,
2023-02-13T17:00:00,1830A,113.1992,35.2590,焦作市,影视城,,,,,,,,,,,,,,,,
2023-02-13T17:00:00,1832A,113.3257,33.742,平顶山市,新华旅馆,,41,41,55,24,39,78,76,69,69,17,20,5,4,0.5,0.8
2023-02-13T17:00:00,1833A,113.2919,33.737,平顶山市,规划设计院,,45,45,47,28,43,81,81,74,74,19,23,2,2,0.5,0.9
2023-02-13T17:00:00,1834A,113.182,33.774,平顶山市,平顶山工学院,,46,46,55,29,40,84,82,76,76,7,12,2,2,0.4,0.8
2023-02-13T17:00:00,1835A,111.1922,34.7752,三门峡市,市政府,细颗粒物(PM2.5),80,52,24,59,34,53,48,42,42,18,26,6,7,1.3,1.3
2023-02-13T17:00:00,1836A,111.1587,34.7942,三门峡市,开发区,细颗粒物(PM2.5),70,65,41,51,32,54,50,43,43,20,26,7,8,1.1,1
2023-02-13T17:00:00,1838A,111.143,34.7955,三门峡市,风景区,,,,,,,,,,,,,,,,
2023-02-13T17:00:00,1839A,111.3009,30.7157,宜昌市,四零三,,,,,,,,,,,,,,,,
2023-02-13T17:00:00,1840A,111.2992,30.6981,宜昌市,白龙岗,,32,31,22,22,14,81,70,78,76,27,25,3,3,0.7,0.7
2023-02-13T17:00:00,1841A,111.3549,30.6465,宜昌市,伍家岗,,32,27,26,22,15,85,77,78,78,24,32,7,7,0.8,0.8
2023-02-13T17:00:00,1842A,111.2628,30.6961,宜昌市,点军区,,35,23,21,24,15,86,79,83,82,23,24,5,4,0.9,0.8
2023-02-13T17:00:00,1843A,111.3275,30.7819,宜昌市,夷陵区,,39,39,29,24,17,86,69,82,78,21,18,5,5,0.8,0.8
2023-02-13T17:00:00,1844A,112.2494,30.3197,荆州市,市图书馆,细颗粒物(PM2.5),75,44,28,55,35,65,65,54,53,24,25,4,4,0.7,0.8
2023-02-13T17:00:00,1845A,112.2008,30.3544,荆州市,市委党校,细颗粒物(PM2.5),77,50,29,56,35,69,69,55,55,17,20,4,4,0.8,0.9
2023-02-13T17:00:00,1847A,113.1094,29.3578,岳阳市,南湖风景区,,26,26,17,14,13,44,41,39,32,18,17,3,3,1.0,0.9
2023-02-13T17:00:00,1848A,113.1493,29.4251,岳阳市,城陵矶,,26,20,15,18,13,43,40,36,31,25,24,2,2,1.0,1
2023-02-13T17:00:00,1849A,113.1497,29.3575,岳阳市,开发区,,38,19,16,26,20,41,39,37,26,21,20,4,4,0.6,0.6
2023-02-13T17:00:00,1850A,113.2621,29.4758,岳阳市,云溪区,,26,26,14,18,11,44,44,42,32,18,18,4,4,0.8,0.8
2023-02-13T17:00:00,1851A,112.9943,29.4402,岳阳市,君山区,,43,23,15,30,23,49,49,34,34,15,17,5,5,0.7,0.7
2023-02-13T17:00:00,1852A,113.2117,29.355,岳阳市,金凤水库,,28,24,15,19,14,38,37,38,27,14,10,5,5,0.9,0.8
2023-02-13T17:00:00,1854A,111.6975,28.9703,常德市,市二中,细颗粒物(PM2.5),59,38,23,42,19,56,56,46,46,15,13,4,4,1.1,0.9
2023-02-13T17:00:00,1857A,111.7158,29.1456,常德市,白鹤山,,41,41,22,22,10,64,64,55,55,11,10,3,3,0.9,0.7
2023-02-13T17:00:00,1858A,110.5319,29.1217,张家界市,永定新区,,27,19,18,10,10,86,86,74,74,10,17,3,3,0.5,0.6
2023-02-13T17:00:00,1859A,110.4697,29.1242,张家界市,电业局,,36,36,20,18,13,87,85,80,80,3,10,4,4,0.5,0.6
2023-02-13T17:00:00,1860A,110.5594,29.3547,张家界市,未央路,,25,17,13,15,9,79,79,69,69,6,7,2,3,0.5,0.6
2023-02-13T17:00:00,1861A,110.4417,29.315,张家界市,袁家界,,25,12,7,13,7,79,79,71,71,8,9,7,7,0.8,0.8
2023-02-13T17:00:00,1862A,110.4144,25.3167,桂林市,电子科大尧山校区,,17,12,9,10,11,52,52,47,46,12,14,5,5,0.8,0.8
2023-02-13T17:00:00,1863A,110.2819,25.2697,桂林市,监测站,,19,19,17,6,10,34,34,31,31,7,9,2,2,0.7,0.8
2023-02-13T17:00:00,1864A,110.3089,25.2708,桂林市,龙隐路小学,,19,6,11,13,10,38,36,34,34,10,12,5,4,0.7,0.7
2023-02-13T17:00:00,1865A,110.2869,25.2178,桂林市,八中,,15,14,10,10,9,35,34,31,31,10,13,3,3,0.9,0.9
2023-02-13T17:00:00,1866A,109.2262,21.588,北海市,牛尾岭水库,,37,37,41,24,29,78,55,59,59,7,14,6,9,0.3,1.6
2023-02-13T17:00:00,1867A,109.1436,21.4086,北海市,海滩公园,,48,48,72,29,34,81,81,56,56,4,22,4,5,0.9,0.9
2023-02-13T17:00:00,1868A,109.0981,21.4661,北海市,新市环保局,,35,35,47,22,30,91,91,71,71,11,18,2,3,0.5,0.5
2023-02-13T17:00:00,1869A,109.1778,21.5233,北海市,北海工业园,,50,50,58,22,36,85,76,66,66,9,17,5,6,0.3,0.6
2023-02-13T17:00:00,1870A,109.4856,24.3895,柳州市,柳东小学,,26,21,29,18,21,91,31,44,24,7,7,5,5,0.9,0.9
2023-02-13T17:00:00,1871A,109.4157,24.3277,柳州市,环保监测站,,12,10,24,8,14,76,34,25,25,9,14,4,4,0.8,0.9
2023-02-13T17:00:00,1872A,109.389,24.341,柳州市,河西水厂,,25,25,40,6,31,72,20,18,10,21,20,16,22,1.2,2
2023-02-13T17:00:00,1873A,109.4311,24.2921,柳州市,市四中,,20,17,32,14,22,78,35,26,26,11,14,6,7,0.8,0.9
2023-02-13T17:00:00,1874A,109.4006,24.3631,柳州市,市九中,,22,22,32,10,18,72,31,23,23,16,21,6,6,0.6,0.7
2023-02-13T17:00:00,1875A,109.4958,24.3134,柳州市,古亭山,,10,3,24,2,18,87,30,24,24,6,10,8,8,0.7,0.6
2023-02-13T17:00:00,1876A,109.5078,18.2489,三亚市,河东子站,,21,21,20,8,10,42,38,39,39,4,6,2,2,0.3,0.3
2023-02-13T17:00:00,1877A,109.4964,18.2681,三亚市,河西子站,,14,14,18,9,10,47,41,42,42,3,6,2,2,0.2,0.3
2023-02-13T17:00:00,1878A,104.7778,31.4741,绵阳市,富乐山,,21,15,30,11,18,76,67,61,60,11,10,2,2,0.7,0.6
2023-02-13T17:00:00,1879A,104.7563,31.4535,绵阳市,市人大,,22,18,39,15,18,62,58,52,52,14,19,6,6,0.6,0.5
2023-02-13T17:00:00,1880A,104.6697,31.4668,绵阳市,高新区自来水公司,,20,14,42,14,23,64,60,47,47,15,24,4,4,0.7,0.7
2023-02-13T17:00:00,1881A,104.7287,31.5075,绵阳市,三水厂,,20,20,49,10,24,70,60,44,44,11,26,2,2,0.6,0.6
2023-02-13T17:00:00,1882A,104.563,28.793,宜宾市,石马中学,,30,26,28,21,19,51,49,36,35,15,16,5,5,0.8,0.9
2023-02-13T17:00:00,1883A,104.6201,28.7728,宜宾市,市委,,32,32,34,20,24,52,47,41,34,22,21,8,7,0.8,0.9
2023-02-13T17:00:00,1884A,104.6055,28.793,宜宾市,宜宾四中,,35,34,33,24,27,50,45,39,36,26,23,6,6,0.7,0.9
2023-02-13T17:00:00,1885A,104.639,28.7562,宜宾市,市政府,,30,28,30,21,24,53,47,40,35,26,23,7,7,0.5,0.6
2023-02-13T17:00:00,1886A,104.5742,28.7199,宜宾市,黄金嘴,,29,28,30,20,24,54,54,40,34,19,25,7,6,0.8,0.8
2023-02-13T17:00:00,1888A,101.6891,26.571,攀枝花市,弄弄坪,细颗粒物(PM2.5),54,48,70,38,42,124,117,94,94,11,23,5,10,0.6,0.9
2023-02-13T17:00:00,1889A,101.5769,26.5928,攀枝花市,河门口,,47,47,59,30,33,120,118,89,89,8,22,7,19,0.5,1
2023-02-13T17:00:00,1890A,101.7169,26.585,攀枝花市,炳草岗,,50,50,62,30,33,131,113,95,95,19,26,9,10,0.8,0.8
2023-02-13T17:00:00,1891A,101.7369,26.5008,攀枝花市,仁和,,44,44,56,30,36,117,117,98,98,8,14,9,9,0.4,0.6
2023-02-13T17:00:00,1893A,105.4324,28.9634,泸州市,九狮山,,,18,31,21,21,40,,36,36,,12,6,7,0.5,0.5
2023-02-13T17:00:00,1894A,105.4427,28.9063,泸州市,小市上码头,,33,33,31,20,21,44,40,37,37,19,18,9,10,0.8,0.9
2023-02-13T17:00:00,1895A,105.4241,28.8573,泸州市,兰田宪桥,,34,34,31,17,23,45,38,34,34,21,19,5,6,0.8,0.8
2023-02-13T17:00:00,1896A,105.4379,28.8833,泸州市,市环监站,,34,34,32,17,17,39,28,31,28,25,18,4,4,1.0,0.9
2023-02-13T17:00:00,1897A,104.7547,29.3628,自贡市,大塘山,,,,,,,,,,,,,,,,
2023-02-13T17:00:00,1900A,104.7692,29.3411,自贡市,春华路,,,,,,,,,,,,,,,,
2023-02-13T17:00:00,1901A,104.4239,31.1208,德阳市,东山公园,,25,25,50,11,22,67,64,55,55,12,20,2,2,0.7,0.6
2023-02-13T17:00:00,1902A,104.3826,31.1317,德阳市,西小区,,26,26,54,15,26,58,55,51,51,18,27,2,2,1.0,0.9
2023-02-13T17:00:00,1903A,104.4053,31.1167,德阳市,市检察院,,,,,,,,,,,,,,,,
2023-02-13T17:00:00,1904A,104.3553,31.1091,德阳市,耐火材料厂,,23,23,49,16,27,62,52,49,49,21,22,2,2,1.0,0.9
2023-02-13T17:00:00,1905A,106.056,30.8064,南充市,西山风景区,,,,,,,,,,,,,,,,
2023-02-13T17:00:00,1906A,106.0789,30.8023,南充市,南充市委,,15,15,19,8,11,43,41,42,34,14,15,7,7,0.9,0.8
2023-02-13T17:00:00,1907A,106.1031,30.8217,南充市,南充炼油厂,,13,7,18,2,8,42,40,42,34,15,14,6,6,0.8,0.7
2023-02-13T17:00:00,1908A,106.1064,30.7856,南充市,高坪区监测站,,16,9,17,11,12,44,43,43,36,6,7,6,5,0.8,0.7
2023-02-13T17:00:00,1909A,106.0642,30.7636,南充市,嘉陵区环保局,,20,20,20,7,9,44,35,42,32,22,18,6,6,0.9,0.7
2023-02-13T17:00:00,1910A,106.1087,30.8388,南充市,市环境监测站,,26,13,20,18,16,43,40,43,37,14,13,6,6,0.8,0.7
2023-02-13T17:00:00,1911A,106.9222,27.6869,遵义市,丁字口,,27,27,23,18,16,47,44,41,41,17,17,12,14,0.9,1
2023-02-13T17:00:00,1912A,106.9242,27.7019,遵义市,凤凰山,,29,29,21,11,11,43,42,38,38,14,14,5,5,0.7,0.8
2023-02-13T17:00:00,1913A,106.8906,27.6486,遵义市,忠庄,,28,24,23,19,18,48,43,37,37,14,15,3,2,0.5,0.6
2023-02-13T17:00:00,1914A,106.9231,27.6506,遵义市,舟水桥,,19,19,25,10,20,52,49,44,44,13,13,6,8,0.5,0.6
2023-02-13T17:00:00,1915A,106.9178,27.72,遵义市,干田坝,,33,17,20,23,17,50,50,40,40,13,17,9,11,0.8,0.9
2023-02-13T17:00:00,1916A,103.7897,25.5035,曲靖市,环境监测站,,43,43,51,19,26,127,123,110,110,8,9,4,5,0.5,0.6
2023-02-13T17:00:00,1917A,103.8,25.5364,曲靖市,烟厂办公区,,49,32,50,34,27,135,132,114,114,4,7,4,4,0.3,0.4
2023-02-13T17:00:00,1918A,108.7197,34.3956,咸阳市,气象站,,,,64,12,31,28,12,16,8,27,29,8,8,1.6,1.3
2023-02-13T17:00:00,1919A,108.673,34.3155,咸阳市,实验中学,,32,20,52,22,44,32,11,21,11,35,30,4,4,1.2,0.9
2023-02-13T17:00:00,1920A,108.7233,34.3617,咸阳市,师范学院,,22,17,41,15,33,29,8,20,9,28,24,5,5,1.6,1.2
2023-02-13T17:00:00,1922A,109.0656,35.0994,铜川市,党校,,29,26,33,20,27,15,15,7,7,49,28,12,12,1.7,1.9
2023-02-13T17:00:00,1923A,109.0697,35.0697,铜川市,王益区政府,细颗粒物(PM2.5),57,38,41,40,44,16,12,9,9,49,31,6,6,1.5,1.7
2023-02-13T17:00:00,1924A,108.9344,34.9058,铜川市,新区管委会,细颗粒物(PM2.5),67,41,50,48,55,30,30,19,19,31,28,8,9,1.2,1.5
2023-02-13T17:00:00,1925A,108.9589,34.8731,铜川市,新区兰芝公司,,,,,,,,,,,,,,,,
2023-02-13T17:00:00,1926A,109.4131,36.6275,延安市,枣园,,32,14,28,14,29,103,101,80,80,18,19,8,6,0.4,0.6
2023-02-13T17:00:00,1927A,109.4761,36.6028,延安市,延大医附院,,30,20,34,9,28,93,93,72,72,22,22,8,7,0.5,0.8
2023-02-13T17:00:00,1928A,109.4824,36.5767,延安市,市监测站,,,,,,,,,,,,,,,,
2023-02-13T17:00:00,1929A,109.5056,36.6106,延安市,百米大道,,32,32,41,8,33,92,91,74,74,16,20,10,10,0.5,0.8
2023-02-13T17:00:00,1930A,107.185,34.3063,宝鸡市,庙沟村,,42,42,44,29,33,63,63,57,57,13,12,4,3,0.6,0.7
2023-02-13T17:00:00,1931A,107.0708,34.3017,宝鸡市,竹园沟,,,38,45,33,38,64,64,55,55,,14,4,4,0.6,0.7
2023-02-13T17:00:00,1932A,107.1906,34.3672,宝鸡市,三陆医院,颗粒物(PM10),51,52,54,34,39,58,57,47,47,27,35,9,9,0.5,0.7
2023-02-13T17:00:00,1933A,107.1431,34.3547,宝鸡市,监测站,,50,50,49,34,39,64,64,55,55,21,23,3,4,0.5,0.7
2023-02-13T17:00:00,1934A,107.1186,34.3739,宝鸡市,技工学校,细颗粒物(PM2.5),53,46,49,37,40,68,67,54,54,17,21,4,5,0.5,0.7
2023-02-13T17:00:00,1935A,107.3906,34.3528,宝鸡市,陈仓区环保局家属楼,细颗粒物(PM2.5),57,53,55,40,43,60,60,49,49,22,29,4,4,0.6,0.7
2023-02-13T17:00:00,1936A,107.2058,34.3497,宝鸡市,文理学院,,50,50,56,34,40,65,62,54,54,21,25,7,8,0.6,0.7
2023-02-13T17:00:00,1937A,107.2386,34.3622,宝鸡市,三迪小学,"颗粒物(PM10),细颗粒物(PM2.5)",52,54,52,36,41,63,62,53,53,23,27,8,8,0.5,0.7
2023-02-13T17:00:00,1938A,109.5293,34.5101,渭南市,农科所,细颗粒物(PM2.5),64,46,36,46,37,53,53,28,28,16,17,5,7,0.9,1.1
2023-02-13T17:00:00,1939A,109.4974,34.4877,渭南市,日报社,,,,47,,42,46,,27,27,27,36,8,9,1.4,1.3
2023-02-13T17:00:00,1940A,109.4636,34.493,渭南市,体育馆,细颗粒物(PM2.5),59,48,43,42,43,50,21,28,28,53,37,5,5,1.1,1.1
2023-02-13T17:00:00,1941A,109.4259,34.5023,渭南市,高新一小,细颗粒物(PM2.5),67,57,42,48,46,42,22,24,24,41,33,8,8,1.3,1.3
2023-02-13T17:00:00,1943A,102.1725,38.5339,金昌市,新川苑,颗粒物(PM10),87,123,108,29,24,79,59,77,56,9,11,7,6,0.6,0.7
2023-02-13T17:00:00,1944A,102.1692,38.5167,金昌市,天庆家园,颗粒物(PM10),69,87,76,30,24,82,60,79,55,11,12,8,6,0.7,0.6
2023-02-13T17:00:00,1945A,98.2908,39.7711,嘉峪关市,气象局,颗粒物(PM10),102,153,176,41,40,94,79,79,70,12,10,1,2,0.5,0.4
2023-02-13T17:00:00,1947A,106.3394,38.817,石嘴山市,沙湖旅游区,颗粒物(PM10),53,55,63,16,20,71,57,62,62,22,21,22,12,0.5,0.4
2023-02-13T17:00:00,1948A,106.3668,39.0145,石嘴山市,大武口朝阳西街,,,,91,,20,54,,59,,,14,,11,,0.5
2023-02-13T17:00:00,1949A,106.7704,39.2282,石嘴山市,惠农南大街,,46,46,102,18,28,53,53,48,40,29,37,14,29,0.6,1.3
2023-02-13T17:00:00,1950A,106.7099,39.1325,石嘴山市,红果子镇惠新街,颗粒物(PM10),67,84,99,28,31,62,44,60,45,34,22,47,44,1.5,1.2
2023-02-13T17:00:00,1951A,84.895,45.6094,克拉玛依市,长征新村,,34,34,33,10,20,86,63,60,54,27,28,7,6,0.4,0.5
2023-02-13T17:00:00,1952A,84.8988,45.5893,克拉玛依市,南林小区,,43,43,34,16,27,81,60,53,46,27,32,4,4,0.5,0.6
2023-02-13T17:00:00,1953A,85.1186,45.6886,克拉玛依市,白碱滩区,,,,,,,,,,,,,,,,
2023-02-13T17:00:00,1954A,84.905,44.3396,克拉玛依市,独山子区,细颗粒物(PM2.5),65,64,65,47,41,103,103,70,63,17,27,6,8,0.5,0.6
2023-02-13T17:00:00,1955A,85.6979,46.098,克拉玛依市,乌尔禾区商贸楼,,36,22,22,25,14,95,87,71,71,21,15,5,3,0.5,0.4
2023-02-13T17:00:00,1956A,86.1472,41.7538,巴音郭楞州,孔雀公园,颗粒物(PM10),128,206,94,29,27,105,103,67,66,4,26,4,4,0.2,0.4
2023-02-13T17:00:00,1957A,86.1972,41.7166,巴音郭楞州,棉纺厂,颗粒物(PM10),130,210,100,42,28,103,101,72,72,6,35,2,2,0.1,0.2
2023-02-13T17:00:00,1958A,86.2357,41.7173,巴音郭楞州,经济开发区,颗粒物(PM10),126,201,79,33,22,103,103,81,81,6,15,4,3,0.3,0.4
2023-02-13T17:00:00,1959A,118.746,36.881,寿光市,监测站,,,,,,,,,,,,,,,,
2023-02-13T17:00:00,1960A,118.780,36.864,寿光市,世纪学校,,,,,,,,,,,,,,,,
2023-02-13T17:00:00,1961A,117.532,36.6868,济南市,东山小学,,27,22,47,7,31,87,85,78,78,14,19,3,4,0.5,0.6
2023-02-13T17:00:00,1962A,117.541,36.710,章丘市,明水开发区,,,,,,,,,,,,,,,,
2023-02-13T17:00:00,1963A,120.610,36.440,即墨市,环保局子站,,,,,,,,,,,,,,,,
2023-02-13T17:00:00,1964A,120.470,36.390,即墨市,开发区子站,,,,,,,,,,,,,,,,
2023-02-13T17:00:00,1965A,120.005,35.878,胶南市,JN子站,,,,,,,,,,,,,,,,
2023-02-13T17:00:00,1966A,120.0405,35.8735,青岛市,黄岛区4号,,,31,54,,36,100,84,81,81,,19,4,6,0.4,0.8
2023-02-13T17:00:00,1967A,120.008,36.283,胶州市,胶州环保局,,,,,,,,,,,,,,,,
2023-02-13T17:00:00,1968A,120.014,36.253,胶州市,胶州一中,,,,,,,,,,,,,,,,
2023-02-13T17:00:00,1969A,120.537,36.865,莱西市,环保局子站,,,,,,,,,,,,,,,,
2023-02-13T17:00:00,1970A,120.515,36.885,莱西市,人民广场子站,,,,,,,,,,,,,,,,
2023-02-13T17:00:00,1971A,119.952,36.792,平度市,1号,,,,,,,,,,,,,,,,
2023-02-13T17:00:00,1972A,119.976,36.799,平度市,2号,,,,,,,,,,,,,,,,
2023-02-13T17:00:00,1973A,120.747,37.825,蓬莱市,蓬莱环保局,,,,,,,,,,,,,,,,
2023-02-13T17:00:00,1974A,120.773,37.809,蓬莱市,蓬莱博物馆,,,,,,,,,,,,,,,,
2023-02-13T17:00:00,1975A,120.399,37.374,招远市,招远环保局,,,,,,,,,,,,,,,,
2023-02-13T17:00:00,1976A,120.394,37.364,招远市,招远教育局,,,,,,,,,,,,,,,,
2023-02-13T17:00:00,1977A,119.941,37.177,莱州市,莱州环保局,,,,,,,,,,,,,,,,
2023-02-13T17:00:00,1978A,119.959,37.180,莱州市,莱州外经委,,,,,,,,,,,,,,,,
2023-02-13T17:00:00,1979A,122.471,37.154,荣成市,荣成市环保局办公楼,,,,,,,,,,,,,,,,
2023-02-13T17:00:00,1980A,122.410,37.161,荣成市,山东成山轮胎公司,,,,,,,,,,,,,,,,
2023-02-13T17:00:00,1981A,122.038,37.197,文登市,文登市环保局,,,,,,,,,,,,,,,,
2023-02-13T17:00:00,1982A,122.0693,37.2174,威海市,文登开发区,,44,44,79,12,44,85,82,78,78,15,19,6,5,0.0,0.4
2023-02-13T17:00:00,1983A,121.531,36.913,乳山市,乳山市环保局,,,,,,,,,,,,,,,,
2023-02-13T17:00:00,1984A,121.544,36.907,乳山市,乳山市气象局,,,,,,,,,,,,,,,,
2023-02-13T17:00:00,1985A,120.636,31.155,吴江市,吴江市环保局,,,,,,,,,,,,,,,,
2023-02-13T17:00:00,1986A,120.635,31.170,吴江市,教师进修学校,,,,,,,,,,,,,,,,
2023-02-13T17:00:00,1987A,120.658,31.172,吴江市,吴江开发区,,,,,,,,,,,,,,,,
2023-02-13T17:00:00,1988A,120.953,31.388,昆山市,昆山实验小学,,,,,,,,,,,,,,,,
2023-02-13T17:00:00,1989A,120.999,31.381,昆山市,震川中学,,,,,,,,,,,,,,,,
2023-02-13T17:00:00,1990A,120.758,31.670,常熟市,海虞子站,,,,,,,,,,,,,,,,
2023-02-13T17:00:00,1991A,120.721,31.671,常熟市,兴福子站,,,,,,,,,,,,,,,,
2023-02-13T17:00:00,1992A,120.734,31.656,常熟市,菱塘子站,,,,,,,,,,,,,,,,
2023-02-13T17:00:00,1993A,120.526,31.874,张家港市,张家港市监测站,,,,,,,,,,,,,,,,
2023-02-13T17:00:00,1994A,120.550,31.882,张家港市,城北小学,,,,,,,,,,,,,,,,
2023-02-13T17:00:00,1995A,121.115,31.453,太仓市,太仓市监测站,,,,,,,,,,,,,,,,
2023-02-13T17:00:00,1996A,121.140,31.422,太仓市,科教新城实小,,,,,,,,,,,,,,,,
2023-02-13T17:00:00,1997A,119.146,31.955,句容市,消防指挥中心,,,,,,,,,,,,,,,,
2023-02-13T17:00:00,1998A,119.180,31.955,句容市,房家坝,,,,,,,,,,,,,,,,
2023-02-13T17:00:00,1999A,120.268,31.920,江阴市,虹桥邮政,,,,,,,,,,,,,,,,
2023-02-13T17:00:00,2000A,120.237,31.909,江阴市,五星公园,,,,,,,,,,,,,,,,
2023-02-13T17:00:00,2001A,120.302,31.920,江阴市,第二实验小学,,,,,,,,,,,,,,,,
2023-02-13T17:00:00,2002A,119.818,31.354,宜兴市,宜兴市环保局,,,,,,,,,,,,,,,,
2023-02-13T17:00:00,2003A,119.794,31.371,宜兴市,宜园,,,,,,,,,,,,,,,,
2023-02-13T17:00:00,2004A,119.579,31.751,金坛市,金坛市环境监测站,,,,,,,,,,,,,,,,
2023-02-13T17:00:00,2005A,119.579,31.737,金坛市,金坛市自来水公司,,,,,,,,,,,,,,,,
2023-02-13T17:00:00,2006A,119.460,31.400,溧阳市,溧阳市东门子站,,,,,,,,,,,,,,,,
2023-02-13T17:00:00,2007A,119.438,31.317,溧阳市,燕山子站,,,,,,,,,,,,,,,,
2023-02-13T17:00:00,2008A,121.173,31.896,海门市,海门市监测站,,,,,,,,,,,,,,,,
2023-02-13T17:00:00,2009A,121.1518,31.89708,海门市,社会福利院,,,,,,,,,,,,,,,,
2023-02-13T17:00:00,2010A,119.7183,30.2366,临安市,市政府,,,,,,,,,,,,,,,,
2023-02-13T17:00:00,2011A,119.6942,30.2311,临安市,四中,,,,,,,,,,,,,,,,
2023-02-13T17:00:00,2012A,119.954,30.054,富阳市,监测站,,,,,,,,,,,,,,,,
2023-02-13T17:00:00,2013A,119.946,30.049,富阳市,富春二小,,,,,,,,,,,,,,,,
2023-02-13T17:00:00,2014A,120.091,29.305,义乌市,江东,,,,,,,,,,,,,,,,
2023-02-13T17:00:00,2015A,120.040,29.334,义乌市,北苑,,,,,,,,,,,,,,,,
2023-02-13T17:00:00,2016A,120.251,29.719,诸暨市,图书馆,,,,,,,,,,,,,,,,
2023-02-13T17:00:00,2017A,120.209,29.732,诸暨市,富林印务,,,,,,,,,,,,,,,,
2023-02-13T17:00:00,2018A,121.989,39.625,瓦房店市,抱龙山庄,,,,,,,,,,,,,,,,
2023-02-13T17:00:00,2019A,122.011,39.617,瓦房店市,东山公园,,,,,,,,,,,,,,,,
2023-02-13T17:00:00,2031A,113.1817,27.9958,株洲市,云田中学,,,14,7,13,10,33,25,30,22,27,22,,4,1.2,0.9
2023-02-13T17:00:00,2054A,114.1099,32.1059,信阳市,平桥分局,细颗粒物(PM2.5),75,61,38,55,36,55,52,51,51,20,24,7,7,0.6,0.8
2023-02-13T17:00:00,2064A,113.9956,32.1271,信阳市,南湾水厂,细颗粒物(PM2.5),62,61,52,44,30,58,56,54,54,13,21,6,6,0.6,0.8
2023-02-13T17:00:00,2065A,114.0775,32.1195,信阳市,市酿酒公司,细颗粒物(PM2.5),73,58,41,53,38,59,55,54,54,20,25,7,7,0.6,0.9
2023-02-13T17:00:00,2066A,114.0609,32.1399,信阳市,审计局,细颗粒物(PM2.5),65,60,44,47,33,59,55,54,54,21,26,6,6,0.5,0.8
2023-02-13T17:00:00,2067A,114.6613,33.6128,周口市,市环境监测站,,45,45,47,31,44,81,81,64,64,13,19,6,5,0.0,0.4
2023-02-13T17:00:00,2068A,114.6758,33.6347,周口市,周口师范,,,30,48,28,46,83,83,68,68,12,20,8,6,,0.8
2023-02-13T17:00:00,2069A,114.6546,33.5979,周口市,市运管处,,46,46,51,30,47,84,84,67,67,18,24,10,8,0.2,0.6
2023-02-13T17:00:00,2070A,114.6369,33.6406,周口市,川汇区环保局,,45,45,49,26,43,81,81,65,65,13,18,6,3,0.2,0.5
2023-02-13T17:00:00,2075A,117.6336,24.4674,漳州市,九湖,,,,,,,,,,,,,,,,
2023-02-13T17:00:00,2160A,112.85,35.5051,晋城市,自来水公司,细颗粒物(PM2.5),117,102,50,88,36,76,37,72,64,26,22,6,8,1.3,1.2
2023-02-13T17:00:00,2161A,112.8318,35.4936,晋城市,白云商贸,细颗粒物(PM2.5),110,111,51,83,35,71,31,70,57,27,18,4,6,1.4,1.5
2023-02-13T17:00:00,2162A,112.8508,35.4887,晋城市,市环保局,细颗粒物(PM2.5),117,92,52,88,40,80,38,74,60,23,20,4,6,1.3,1.3
2023-02-13T17:00:00,2163A,112.8676,35.4897,晋城市,技术学院,细颗粒物(PM2.5),122,122,58,92,40,76,37,75,58,24,21,4,5,1.4,1.2
2023-02-13T17:00:00,2164A,112.8271,35.4828,晋城市,泽州一中,,,,,,,,,,,,,,,,
2023-02-13T17:00:00,2165A,112.8453,35.546,晋城市,白马寺 ,,,,,,,,,,,,,,,,
2023-02-13T17:00:00,2166A,112.4397,39.3522,朔州市,平朔,,34,34,36,16,13,73,67,61,61,17,21,16,15,0.5,0.5
2023-02-13T17:00:00,2167A,112.4575,39.3617,朔州市,朔唯,,34,34,38,16,14,78,72,66,66,19,23,18,15,0.5,0.4
2023-02-13T17:00:00,2168A,112.4258,39.3197,朔州市,区政府,,26,17,35,12,12,88,81,78,74,17,20,11,12,0.5,0.5
2023-02-13T17:00:00,2169A,112.4072,39.3278,朔州市,市环保局,,27,27,34,12,18,77,69,73,67,24,18,14,14,0.5,0.6
2023-02-13T17:00:00,2170A,112.4272,39.3681,朔州市,市二中,,43,43,38,17,13,76,71,65,65,15,16,12,13,0.5,0.5
2023-02-13T17:00:00,2171A,112.7532,37.6945,晋中市,锦纶小区,,29,8,36,5,32,96,91,78,78,13,24,6,6,0.2,0.9
2023-02-13T17:00:00,2173A,112.7249,37.7067,晋中市,南都小区,,30,10,34,14,35,98,96,84,84,8,23,6,8,0.1,0.9
2023-02-13T17:00:00,2174A,112.6991,37.6982,晋中市,榆次区政府,,29,7,32,8,29,97,92,82,82,11,23,7,9,0.3,1.1
2023-02-13T17:00:00,2175A,110.9956,35.0147,运城市,运城中学,,49,49,43,30,41,39,36,31,31,22,23,5,6,1.3,1.4
2023-02-13T17:00:00,2176A,111.0233,35.0611,运城市,禹都开发区,,,,,,,,,,,,,,,,
2023-02-13T17:00:00,2178A,110.9686,35.0303,运城市,地区技校,细颗粒物(PM2.5),54,46,50,38,46,40,37,29,29,19,19,5,5,1.4,1.4
2023-02-13T17:00:00,2179A,111.0414,35.1147,运城市,空港新区,细颗粒物(PM2.5),54,44,48,38,49,46,38,35,35,21,21,6,7,1.5,1.6
2023-02-13T17:00:00,2181A,112.7383,38.4519,忻州市,开发区,,28,17,34,8,27,94,88,89,89,13,15,6,7,0.8,1
2023-02-13T17:00:00,2182A,112.7003,38.4928,忻州市,会展中心,,24,13,34,10,27,84,76,76,76,18,21,6,6,0.5,0.8
2023-02-13T17:00:00,2183A,111.1406,37.5211,吕梁市,环保局,,47,47,57,29,36,47,45,38,37,27,41,13,11,0.7,1.3
2023-02-13T17:00:00,2185A,111.1297,37.5136,吕梁市,自来水公司,,40,40,54,16,33,49,49,37,37,26,41,12,13,0.6,1.3
2023-02-13T17:00:00,2186A,106.8288,39.6778,乌海市,聚英学校,,,,,,,,,,,,,,,,
2023-02-13T17:00:00,2187A,106.8174,39.6973,乌海市,市林业局,,32,32,47,15,22,82,69,80,64,19,13,14,10,0.6,0.6
2023-02-13T17:00:00,2188A,106.7907,39.6667,乌海市,中海勃湾学校,,29,24,46,20,22,77,70,74,66,18,16,14,10,0.4,0.4
2023-02-13T17:00:00,2191A,122.2532,43.6801,通辽市,艺术职业学校,,25,24,31,12,13,83,80,80,80,12,16,5,7,0.2,0.3
2023-02-13T17:00:00,2192A,119.7594,49.2261,呼伦贝尔市,区环保局,,26,26,40,15,34,82,78,63,63,12,32,7,6,0.4,0.6
2023-02-13T17:00:00,2194A,107.5936,40.916,巴彦淖尔市,秋林养殖基地,,,,,,,,,,,,,,,,
2023-02-13T17:00:00,2195A,107.4212,40.761,巴彦淖尔市,附二中,,25,23,32,12,15,81,77,72,72,13,9,5,5,0.5,0.5
2023-02-13T17:00:00,2196A,107.37,40.7372,巴彦淖尔市,市环保大楼,,29,22,26,20,18,80,80,74,74,14,13,6,6,0.6,0.6
2023-02-13T17:00:00,2197A,113.1306,40.9923,乌兰察布市,集宁新区,,25,13,16,16,16,82,79,78,78,7,10,8,8,0.4,0.4
2023-02-13T17:00:00,2200A,122.0392,46.0656,兴安盟,胜华新制药厂,,32,26,23,22,18,77,76,75,75,10,15,4,6,0.6,0.6
2023-02-13T17:00:00,2201A,121.9504,46.0741,兴安盟,科右前旗环保局,,29,29,20,16,16,80,78,77,77,9,10,2,4,0.4,0.5
2023-02-13T17:00:00,2202A,116.1042,43.9317,锡林郭勒盟,市环保监测站,,23,16,18,7,12,74,72,72,72,5,16,7,9,0.3,0.3
2023-02-13T17:00:00,2203A,116.0781,43.9311,锡林郭勒盟,市政府,,22,22,21,6,7,71,68,68,68,7,13,12,8,0.2,0.2
2023-02-13T17:00:00,2204A,105.6467,38.8363,阿拉善盟,西城区西花园,,24,24,72,16,23,76,61,62,52,16,14,8,8,0.6,0.6
2023-02-13T17:00:00,2205A,105.6985,38.8411,阿拉善盟,蒙二幼,,35,24,93,24,31,75,61,60,50,16,15,11,10,0.5,0.5
2023-02-13T17:00:00,2206A,105.724,38.8516,阿拉善盟,环保局新楼,,37,37,79,19,31,65,56,60,46,14,14,9,11,0.6,0.5
2023-02-13T17:00:00,2207A,121.6094,41.998,阜新市,工业园区,,39,39,27,8,10,73,69,71,71,12,13,8,8,0.8,0.8
2023-02-13T17:00:00,2208A,121.6697,42.0279,阜新市,长青街,,26,22,21,8,13,85,82,82,82,9,10,8,8,0.7,0.7
2023-02-13T17:00:00,2209A,121.6673,42.0705,阜新市,农业园区,,29,29,20,13,11,73,71,72,72,7,9,8,8,0.5,0.5
2023-02-13T17:00:00,2210A,121.6717,42.0224,阜新市,东苑,,36,36,22,10,11,79,75,77,76,5,7,4,5,0.5,0.5
2023-02-13T17:00:00,2211A,121.6506,42.0498,阜新市,玉龙新城,,34,34,25,10,17,83,79,82,82,6,14,9,10,0.5,0.5
2023-02-13T17:00:00,2212A,123.2,41.1953,辽阳市,宏伟区,,37,37,64,24,52,82,77,69,69,13,30,10,13,0.6,0.8
2023-02-13T17:00:00,2213A,123.1683,41.2495,辽阳市,新华园,,43,43,63,22,48,88,82,78,78,14,27,11,14,0.5,0.8
2023-02-13T17:00:00,2214A,123.2354,41.2639,辽阳市,滨河路,,46,46,66,20,55,75,70,64,64,15,32,6,9,0.4,0.7
2023-02-13T17:00:00,2215A,123.149,41.2991,辽阳市,铁西工业园,颗粒物(PM10),51,52,66,19,50,77,67,67,67,20,30,13,11,0.4,0.6
2023-02-13T17:00:00,2216A,123.8139,42.3022,铁岭市,汇工街西,,34,34,64,10,50,83,81,74,74,12,29,8,13,0.4,0.6
2023-02-13T17:00:00,2217A,123.8649,42.2923,铁岭市,水上乐园,,26,25,57,12,44,82,81,74,74,9,33,8,9,0.4,0.6
2023-02-13T17:00:00,2218A,123.8486,42.2867,铁岭市,银州路东段,,26,26,52,12,40,80,73,72,72,18,27,8,7,0.4,0.6
2023-02-13T17:00:00,2219A,123.7153,42.2217,铁岭市,金沙江路北,,26,26,58,12,42,75,73,69,69,15,23,10,14,0.4,0.5
2023-02-13T17:00:00,2220A,120.4318,41.5881,朝阳市,西梁,,33,33,31,10,11,82,75,80,80,12,16,9,10,0.7,0.8
2023-02-13T17:00:00,2221A,120.4521,41.5646,朝阳市,河畔小区,,32,32,27,11,8,86,79,84,84,11,11,6,7,0.6,0.6
2023-02-13T17:00:00,2222A,120.4176,41.5648,朝阳市,八里堡,,48,48,33,10,10,84,78,82,82,9,15,9,11,0.5,0.5
2023-02-13T17:00:00,2223A,120.3806,41.5969,朝阳市,农业园区,,43,43,32,5,11,83,79,82,82,8,16,6,8,0.5,0.6
2023-02-13T17:00:00,2225A,124.4002,43.1713,四平市,一商场,,28,28,94,18,69,78,65,70,70,17,39,7,8,0.8,1.1
2023-02-13T17:00:00,2226A,124.388,43.193,四平市,境园,,25,17,77,13,60,83,78,76,76,12,39,3,3,0.3,0.8
2023-02-13T17:00:00,2227A,125.1358,42.8845,辽源市,环保局,,32,28,85,22,71,86,82,72,72,8,32,9,10,0.5,1
2023-02-13T17:00:00,2229A,125.9358,41.7173,通化市,光明,,27,20,59,18,47,88,86,81,81,12,22,10,10,0.3,0.3
2023-02-13T17:00:00,2230A,125.9446,41.7325,通化市,铁路,,30,25,54,21,44,93,91,87,87,11,18,8,17,0.0,0.3
2023-02-13T17:00:00,2231A,126.4219,41.9171,白山市,喜丰,,29,29,72,14,45,88,88,79,79,12,23,6,12,0.5,0.7
2023-02-13T17:00:00,2232A,126.4077,41.9419,白山市,环保局,,43,43,82,26,53,82,82,70,70,6,22,8,12,0.9,1.1
2023-02-13T17:00:00,2233A,124.8006,45.1214,松原市,江南,,40,40,68,15,53,78,66,68,68,16,32,6,7,0.4,0.5
2023-02-13T17:00:00,2234A,124.7965,45.1722,松原市,江北,,24,22,63,2,41,78,75,74,74,6,26,4,4,0.4,0.6
2023-02-13T17:00:00,2235A,122.7911,45.6077,白城市,洮北区环保局,,28,17,31,8,23,97,89,92,92,14,18,7,8,0.4,0.4
2023-02-13T17:00:00,2236A,122.8738,45.5725,白城市,市环保局,,28,22,40,19,17,83,78,78,78,14,19,6,9,0.5,0.6
2023-02-13T17:00:00,2237A,129.47,42.8883,延边朝鲜族自治州,妇幼医院,,30,30,34,16,26,89,73,82,82,23,18,24,17,0.4,0.4
2023-02-13T17:00:00,2238A,129.5055,42.9108,延边朝鲜族自治州,延边医院,,29,28,34,15,26,93,91,89,89,8,14,6,8,0.4,0.4
2023-02-13T17:00:00,2239A,129.3964,42.8881,延边朝鲜族自治州,朝阳川镇医院,,28,22,34,13,22,92,89,89,89,6,9,7,8,0.4,0.5
2023-02-13T17:00:00,2240A,130.9762,45.3001,鸡西市,环保局,,29,26,29,20,25,90,70,80,80,20,15,12,6,0.3,0.2
2023-02-13T17:00:00,2243A,130.9429,45.3039,鸡西市,第一中学,,21,10,26,10,21,88,66,80,80,16,8,6,6,0.3,0.3
2023-02-13T17:00:00,2244A,130.2537,47.3416,鹤岗市,哈啤分公司,,39,27,31,27,25,79,79,78,74,9,11,11,11,0.3,0.4
2023-02-13T17:00:00,2245A,130.2684,47.3086,鹤岗市,斯达机电,,39,39,41,25,24,82,79,82,72,12,15,8,9,0.3,0.3
2023-02-13T17:00:00,2246A,130.3114,47.3388,鹤岗市,东山纸板厂,,34,34,49,20,28,82,82,74,74,4,17,11,14,0.3,0.5
2023-02-13T17:00:00,2247A,130.1097,47.3382,鹤岗市,五号水库,,26,19,24,16,20,86,82,84,79,5,5,10,6,0.4,0.4
2023-02-13T17:00:00,2248A,131.1511,46.6937,双鸭山市,双合村,,27,19,61,12,38,86,86,79,79,8,19,10,14,0.5,0.9
2023-02-13T17:00:00,2249A,131.1652,46.6191,双鸭山市,南小市,,42,27,42,29,31,89,83,78,78,18,18,5,11,0.7,0.8
2023-02-13T17:00:00,2250A,131.1524,46.6554,双鸭山市,环保局,,36,29,43,25,35,91,85,78,78,15,29,6,9,0.5,0.6
2023-02-13T17:00:00,2251A,131.12,46.5656,双鸭山市,苗圃,,43,41,42,30,39,91,91,80,80,6,10,6,6,0.2,0.2
2023-02-13T17:00:00,2252A,128.5159,47.4311,伊春市,环保局,,39,21,40,27,38,90,84,83,79,15,17,7,7,0.5,0.6
2023-02-13T17:00:00,2253A,128.9102,47.7412,伊春市,电力嘉园,,41,41,46,23,32,90,87,86,80,6,11,6,7,0.4,0.6
2023-02-13T17:00:00,2254A,129.5029,48.471,伊春市,汤旺河国家公园,,25,24,22,13,14,82,78,72,72,2,3,7,6,0.2,0.2
2023-02-13T17:00:00,2255A,130.2751,46.8028,佳木斯市,佳纺,细颗粒物(PM2.5),74,56,61,54,53,87,76,81,81,30,30,12,9,0.8,0.8
2023-02-13T17:00:00,2256A,130.3995,46.8307,佳木斯市,发电厂,,46,40,44,32,40,88,87,80,80,19,25,7,6,0.5,0.6
2023-02-13T17:00:00,2257A,130.3258,46.7975,佳木斯市,环保局,,43,39,36,30,30,87,72,81,81,24,30,5,7,0.6,0.6
2023-02-13T17:00:00,2258A,130.3648,46.8032,佳木斯市,十一中,细颗粒物(PM2.5),60,42,42,43,41,83,70,75,75,36,37,7,9,0.6,0.6
2023-02-13T17:00:00,2259A,130.3794,46.7588,佳木斯市,四丰,臭氧1小时,82,44,33,39,26,185,185,180,180,7,7,1,1,0.6,0.5
2023-02-13T17:00:00,2262A,131.0518,45.8751,七台河市,新一中,细颗粒物(PM2.5),55,42,55,39,49,114,107,107,107,24,20,8,8,0.5,0.4
2023-02-13T17:00:00,2263A,127.4833,50.2524,黑河市,交通局,,24,24,18,11,15,72,59,64,64,13,15,4,6,0.4,0.5
2023-02-13T17:00:00,2264A,127.5144,50.2341,黑河市,环保局,,34,34,47,16,29,74,57,65,65,15,21,13,13,0.4,0.7
2023-02-13T17:00:00,2265A,127.5291,50.2472,黑河市,大黑河岛,,16,7,14,8,15,75,51,68,67,8,4,1,2,0.4,0.4
2023-02-13T17:00:00,2266A,126.9785,46.6365,绥化市,人和东街,,,,108,,93,114,,84,84,26,33,3,3,0.7,1
2023-02-13T17:00:00,2267A,126.964,46.6528,绥化市,党政办公中心,,36,33,103,25,100,122,91,92,92,18,33,3,4,0.4,0.8
2023-02-13T17:00:00,2269A,124.1069,50.4097,大兴安岭地区,科技局,,24,17,13,10,14,79,74,77,77,6,6,4,5,0.2,0.3
2023-02-13T17:00:00,2270A,117.396,32.939,蚌埠市,工人疗养院,,46,46,33,28,30,91,76,89,70,10,9,2,2,0.3,0.6
2023-02-13T17:00:00,2271A,117.3605,32.9427,蚌埠市,百货大楼,颗粒物(PM10),52,53,38,22,28,88,74,87,68,11,11,8,7,0.5,0.7
2023-02-13T17:00:00,2273A,117.4185,32.8911,蚌埠市,蚌埠学院,,46,46,31,14,24,92,76,90,69,11,12,5,4,0.4,0.6
2023-02-13T17:00:00,2274A,117.3533,32.9673,蚌埠市,淮上区政府,颗粒物(PM10),56,61,41,17,26,89,77,87,72,11,11,6,6,0.4,0.6
2023-02-13T17:00:00,2275A,117.3145,32.8977,蚌埠市,高新区,,48,48,31,24,26,84,71,81,67,11,14,6,6,0.3,0.7
2023-02-13T17:00:00,2277A,116.8305,32.7727,淮南市,潘集区政府,细颗粒物(PM2.5),72,71,38,52,35,68,56,62,61,18,15,4,3,0.3,0.6
2023-02-13T17:00:00,2278A,117.0067,32.6524,淮南市,师范学院,颗粒物(PM10),51,51,33,27,29,72,67,72,64,11,13,7,7,0.4,0.7
2023-02-13T17:00:00,2279A,116.8569,32.5951,淮南市,谢家集区政府,颗粒物(PM10),56,62,34,29,26,71,55,67,65,14,10,7,6,0.6,0.6
2023-02-13T17:00:00,2280A,116.8281,32.633,淮南市,八公山区政府,细颗粒物(PM2.5),58,53,31,41,23,73,52,66,65,18,12,6,5,0.4,0.6
2023-02-13T17:00:00,2281A,116.6325,32.6201,淮南市,焦岗湖风景区管理处,细颗粒物(PM2.5),64,60,33,46,24,60,44,52,50,15,12,4,4,0.2,0.5
2023-02-13T17:00:00,2282A,116.8004,33.975,淮北市,监测站,,45,45,47,15,35,92,84,92,71,12,17,6,10,0.4,0.7
2023-02-13T17:00:00,2283A,116.8091,33.9007,淮北市,烈山区政府,,34,34,40,20,42,87,87,87,70,12,15,4,3,0.3,0.6
2023-02-13T17:00:00,2284A,116.7856,33.9477,淮北市,职业技术学院,,30,30,46,13,36,92,86,92,72,15,18,9,7,0.4,0.7
2023-02-13T17:00:00,2285A,117.8177,30.9412,铜陵市,市第四中学,,,,16,,15,87,51,75,60,,29,,7,0.4,0.8
2023-02-13T17:00:00,2286A,117.8059,30.9273,铜陵市,市公路局,,46,46,19,14,11,83,56,80,54,21,26,8,8,0.9,0.9
2023-02-13T17:00:00,2287A,117.7807,30.9413,铜陵市,市新民污水厂,,29,17,11,20,13,91,62,84,61,21,20,4,4,0.7,0.7
2023-02-13T17:00:00,2288A,117.7439,30.8792,铜陵市,市第九中学,,44,44,18,26,10,87,49,79,54,25,22,5,5,0.9,0.7
2023-02-13T17:00:00,2289A,117.846,30.9413,铜陵市,车站新区,,25,20,11,17,9,91,61,78,64,14,21,6,6,0.7,0.6
2023-02-13T17:00:00,2290A,117.8483,30.97,铜陵市,市职教基地,,32,27,11,22,9,92,63,82,65,17,17,3,3,0.4,0.4
2023-02-13T17:00:00,2291A,117.0809,30.5177,安庆市,环科院,,17,8,8,9,7,86,53,80,60,19,15,5,6,1.0,0.9
2023-02-13T17:00:00,2292A,117.0331,30.5119,安庆市,马山宾馆,,18,18,9,7,6,81,48,76,56,21,16,5,5,1.0,0.9
2023-02-13T17:00:00,2294A,116.9896,30.6145,安庆市,安庆大学,,18,7,7,9,6,84,57,77,60,17,16,5,6,1.1,1
2023-02-13T17:00:00,2295A,118.2903,29.6963,黄山市,延安路89号,,24,12,12,2,5,82,74,72,72,10,13,5,5,0.7,0.7
2023-02-13T17:00:00,2296A,118.327,29.7178,黄山市,黄山东路89号,,23,6,9,1,6,80,71,72,72,11,13,4,4,0.8,0.8
2023-02-13T17:00:00,2297A,118.1371,30.2756,黄山市,黄山区政府5号楼,,22,18,10,6,9,93,69,81,81,13,15,6,6,0.6,0.6
2023-02-13T17:00:00,2298A,118.3093,32.3153,滁州市,老年大学,细颗粒物(PM2.5),58,54,27,41,23,111,76,103,73,15,14,4,5,0.5,0.7
2023-02-13T17:00:00,2299A,118.3244,32.2786,滁州市,人大宾馆,细颗粒物(PM2.5),67,63,28,48,29,104,71,99,68,17,18,4,4,0.5,0.7
2023-02-13T17:00:00,2301A,115.8277,32.8929,阜阳市,市监测站,颗粒物(PM10),57,63,32,39,27,83,60,82,53,15,18,3,3,0.4,0.6
2023-02-13T17:00:00,2303A,115.8554,32.8605,阜阳市,开发区,细颗粒物(PM2.5),62,71,37,44,28,84,60,84,52,17,16,5,5,0.5,0.7
2023-02-13T17:00:00,2306A,116.989,33.6306,宿州市,火车站,,,,,,,,,,,,,,,,
2023-02-13T17:00:00,2307A,116.5079,31.737,六安市,监测大楼,,42,42,19,29,19,67,65,65,62,12,12,4,4,0.3,0.6
2023-02-13T17:00:00,2308A,116.4738,31.7643,六安市,皖西学院,,44,44,22,25,13,70,69,68,68,9,11,2,2,0.3,0.6
2023-02-13T17:00:00,2309A,116.4996,31.7905,六安市,朝阳厂,细颗粒物(PM2.5),57,39,14,40,14,71,68,70,66,16,16,3,3,0.4,0.7
2023-02-13T17:00:00,2310A,116.5567,31.7886,六安市,开发区,细颗粒物(PM2.5),53,52,23,37,19,69,62,64,61,16,16,5,6,0.4,0.6
2023-02-13T17:00:00,2311A,115.8072,33.8399,亳州市,污水处理厂,,38,34,45,26,41,76,76,61,61,8,11,6,5,0.4,0.6
2023-02-13T17:00:00,2312A,115.7789,33.8518,亳州市,三国揽胜宫,颗粒物(PM10),51,51,53,28,40,79,79,63,63,6,11,5,3,0.3,0.6
2023-02-13T17:00:00,2314A,117.47,30.6618,池州市,池州学院,,17,7,6,6,4,91,52,85,63,14,11,5,5,0.9,0.7
2023-02-13T17:00:00,2315A,117.4974,30.6539,池州市,平天湖,,,,,,,,,,,,,,,,
2023-02-13T17:00:00,2316A,118.7581,30.9454,宣城市,鳌峰子站,,,,14,,13,96,,82,76,,15,,7,,0.7
2023-02-13T17:00:00,2317A,118.7385,30.9743,宣城市,敬亭山子站,,39,27,17,27,16,85,58,78,65,20,19,6,6,0.6,0.7
2023-02-13T17:00:00,2318A,118.7173,30.9427,宣城市,开发区子站,,26,22,15,18,12,92,64,83,71,22,19,6,5,0.7,0.7
2023-02-13T17:00:00,2319A,119.0141,25.4325,莆田市,荔城区仓后路,,40,28,74,28,69,116,46,71,71,30,37,8,9,1.0,1.1
2023-02-13T17:00:00,2320A,119.0015,25.4553,莆田市,莆田市监测站,,45,45,68,29,45,128,47,74,74,31,28,7,8,0.9,0.9
2023-02-13T17:00:00,2321A,119.1119,25.4561,莆田市,涵江区六中,颗粒物(PM10),57,64,61,32,66,114,48,70,70,27,37,6,8,0.8,0.9
2023-02-13T17:00:00,2322A,119.1013,25.3215,莆田市,秀屿区政府,,33,33,41,17,54,98,49,66,66,27,27,5,6,1.2,0.9
2023-02-13T17:00:00,2323A,118.981,25.4792,莆田市,东圳水库,,,,,,,,,,,,,,,,
2023-02-13T17:00:00,2324A,117.6211,26.2625,三明市,三钢,,23,23,36,16,27,44,25,26,26,17,20,29,12,1.1,1.2
2023-02-13T17:00:00,2325A,117.635,26.2714,三明市,三明二中,,20,14,37,14,27,46,28,29,29,16,22,6,6,0.7,1.9
2023-02-13T17:00:00,2326A,117.6028,26.2378,三明市,三元区政府,,16,16,43,9,25,43,32,28,28,11,17,6,9,0.6,1.2
2023-02-13T17:00:00,2327A,117.7275,26.3108,三明市,洋溪,,,,,,,,,,,,,,,,
2023-02-13T17:00:00,2331A,118.0966,26.6761,南平市,茫荡山,,,,,,,,,,,,,,,,
2023-02-13T17:00:00,2332A,118.1681,26.6369,南平市,南平市监测站,,19,10,30,13,18,33,23,24,24,9,14,3,4,0.8,1.2
2023-02-13T17:00:00,2333A,118.1825,26.6489,南平市,南平铝业有限公司,,15,14,24,10,18,39,24,23,23,6,12,6,7,0.8,1
2023-02-13T17:00:00,2334A,118.1756,26.6272,南平市,南平七中,,18,16,24,12,17,35,23,24,24,11,15,7,4,0.8,1
2023-02-13T17:00:00,2335A,117.0189,25.1181,龙岩市,龙岩师专,,,,,,,,,,,,,,,,
2023-02-13T17:00:00,2336A,117.0217,25.1033,龙岩市,龙岩市监测站,,29,25,27,20,14,80,62,56,56,11,19,5,8,0.5,0.7
2023-02-13T17:00:00,2337A,117.0258,25.0661,龙岩市,闽西职业技术学院,,28,27,28,19,16,75,59,52,52,8,20,6,15,0.4,0.5
2023-02-13T17:00:00,2338A,117.0196,25.0306,龙岩市,龙岩学院,,43,43,17,19,11,77,60,56,56,12,10,5,5,0.4,0.4
2023-02-13T17:00:00,2339A,119.5001,26.6946,宁德市,金涵水库,,,,,,,,,,,,,,,,
2023-02-13T17:00:00,2341A,119.5388,26.6612,宁德市,宁德市监测站,,26,7,32,18,34,35,25,20,20,29,33,2,7,0.9,1.3
2023-02-13T17:00:00,2342A,117.3102,29.3867,景德镇市,王港中学,,20,6,8,14,12,42,40,38,38,10,10,4,4,0.4,0.3
2023-02-13T17:00:00,2343A,117.2117,29.2933,景德镇市,老干部活动中心,,37,37,41,19,16,62,62,58,58,12,14,6,7,0.9,0.8
2023-02-13T17:00:00,2344A,117.1894,29.2789,景德镇市,兽医站,,22,8,13,14,11,69,69,65,65,5,14,5,6,0.8,0.7
2023-02-13T17:00:00,2345A,117.1547,29.2617,景德镇市,台达陶瓷,,19,6,15,6,9,60,60,57,57,19,21,11,20,1.2,0.8
2023-02-13T17:00:00,2346A,117.2461,29.2956,景德镇市,陶研所,,28,28,31,2,10,68,66,61,61,9,14,4,5,0.9,0.9
2023-02-13T17:00:00,2347A,114.0997,27.5002,萍乡市,武功山,,18,5,4,12,7,29,26,26,26,17,19,14,15,0.9,0.7
2023-02-13T17:00:00,2348A,113.8385,27.6434,萍乡市,中医院,,17,15,14,9,12,16,12,13,13,18,17,12,17,1.7,1.1
2023-02-13T17:00:00,2349A,113.8493,27.6253,萍乡市,市政府车库,,22,22,17,13,15,15,10,13,13,26,22,12,10,1.0,0.7
2023-02-13T17:00:00,2350A,113.8676,27.6435,萍乡市,市环保局,,28,3,15,19,14,14,8,11,11,26,20,20,19,1.1,0.8
2023-02-13T17:00:00,2351A,113.866,27.6198,萍乡市,安源区政府,,22,22,26,6,8,20,13,19,17,23,18,11,11,0.8,0.6
2023-02-13T17:00:00,2352A,115.0861,27.9317,新余市,北岗,,20,4,11,5,10,62,62,44,44,13,29,5,8,0.8,0.9
2023-02-13T17:00:00,2353A,114.9886,27.8431,新余市,飞宇,,22,22,23,3,10,56,56,36,36,15,22,7,10,0.5,0.6
2023-02-13T17:00:00,2354A,114.9231,27.8246,新余市,第二水厂,,17,12,17,10,12,54,53,34,34,14,21,7,8,0.5,0.6
2023-02-13T17:00:00,2355A,114.9308,27.8036,新余市,市气象局,,18,18,19,7,10,39,38,24,24,19,22,6,8,0.5,0.8
2023-02-13T17:00:00,2357A,116.9822,28.1136,鹰潭市,龙虎山,,23,3,11,2,11,72,72,72,72,2,2,3,3,1.4,1.1
2023-02-13T17:00:00,2358A,117.0564,28.2642,鹰潭市,新监测站,,22,6,8,3,7,70,70,63,63,5,13,1,2,0.7,0.6
2023-02-13T17:00:00,2359A,117.0311,28.2475,鹰潭市,财苑宾馆,,23,6,9,5,6,71,71,60,60,8,15,3,3,0.5,0.6
2023-02-13T17:00:00,2360A,117.0222,28.2264,鹰潭市,体育馆,,21,8,12,6,8,66,66,61,61,12,14,1,3,0.6,0.5
2023-02-13T17:00:00,2361A,117.0017,28.2131,鹰潭市,三川水表,,18,10,11,7,9,61,56,55,55,22,17,1,2,0.7,0.7
2023-02-13T17:00:00,2362A,114.9017,25.9149,赣州市,通天岩,,11,11,28,6,13,31,31,20,20,7,20,5,6,1.0,1.2
2023-02-13T17:00:00,2363A,114.9367,25.8664,赣州市,地委,,10,10,49,6,27,28,28,16,16,14,30,10,15,1.0,1.5
2023-02-13T17:00:00,2364A,114.9461,25.8481,赣州市,气象台,,9,9,45,6,33,23,23,14,14,15,30,7,11,0.8,1.4
2023-02-13T17:00:00,2365A,114.9322,25.8333,赣州市,市图书馆,,11,9,47,3,27,22,22,11,11,22,33,7,10,1.1,1.7
2023-02-13T17:00:00,2366A,114.8905,25.8471,赣州市,华坚鞋城,,,,52,,28,3,,3,,,34,,8,,1.4
2023-02-13T17:00:00,2367A,114.9754,27.0803,吉安市,红声器材厂,,24,24,27,9,13,51,51,29,29,15,26,5,7,0.7,0.9
2023-02-13T17:00:00,2368A,114.9658,27.0999,吉安市,市森林工业局,,19,18,21,13,14,52,52,30,30,12,25,5,7,0.6,0.7
2023-02-13T17:00:00,2369A,114.99,27.1312,吉安市,市环境监测站,,17,17,24,6,12,36,36,20,20,17,25,4,7,0.7,0.8
2023-02-13T17:00:00,2370A,115.0093,27.0968,吉安市,青原区法院,,21,21,21,8,14,47,47,28,28,22,27,6,7,0.7,0.8
2023-02-13T17:00:00,2371A,114.3408,27.8064,宜春市,槟榔水业,,16,15,20,11,12,17,12,12,12,18,20,14,15,0.9,0.9
2023-02-13T17:00:00,2373A,114.3956,27.7844,宜春市,市石油公司,,19,12,22,13,15,24,18,19,19,24,23,5,8,1.0,0.9
2023-02-13T17:00:00,2374A,114.3703,27.7914,宜春市,市气象局,,18,18,25,10,16,23,18,18,18,25,25,3,8,0.8,0.7
2023-02-13T17:00:00,2375A,114.4013,27.8074,宜春市,市广电局,,19,19,27,12,19,27,22,22,22,26,26,1,9,1.4,1.2
2023-02-13T17:00:00,2376A,116.2127,28.0814,抚州市,桐源党溪,,23,15,16,10,8,75,72,70,70,3,5,1,2,1.1,1.1
2023-02-13T17:00:00,2377A,116.3544,27.9831,抚州市,市站,,23,14,19,10,11,75,73,69,69,11,15,1,2,0.8,0.8
2023-02-13T17:00:00,2378A,116.3565,27.963,抚州市,血防站,,42,42,29,14,13,73,72,65,65,13,16,5,5,0.9,1.1
2023-02-13T17:00:00,2379A,116.3564,28.0007,抚州市,采茶剧团,,22,12,16,10,10,70,68,64,64,14,15,4,4,1.0,1.1
2023-02-13T17:00:00,2380A,116.385,27.9647,抚州市,医学分院,,22,12,17,7,9,71,70,65,65,13,17,4,4,1.2,1.2
2023-02-13T17:00:00,2381A,118.005,28.4572,上饶市,百草园,,,,13,,16,12,,11,,,5,,3,,0.7
2023-02-13T17:00:00,2382A,117.9756,28.4436,上饶市,市监测站,,13,13,33,2,14,39,33,32,32,24,26,8,19,0.8,0.8
2023-02-13T17:00:00,2383A,117.9519,28.4628,上饶市,凤凰光学,,12,12,29,4,15,38,30,33,33,22,21,9,18,0.8,0.8
2023-02-13T17:00:00,2385A,114.17,35.9019,鹤壁市,市监测站,细颗粒物(PM2.5),62,46,70,44,66,81,77,60,60,16,23,8,7,0.6,0.8
2023-02-13T17:00:00,2386A,114.2956,35.7511,鹤壁市,市交警支队,,49,49,70,30,54,82,78,65,65,16,21,9,6,0.4,0.7
