timepoint,stationcode,longitude,latitude,area,positionname,primarypollutant,aqi,pm10,pm10_24h,pm2_5,pm2_5_24h,o3,o3_24h,o3_8h,o3_8h_24h,no2,no2_24h,so2,so2_24h,co,co_24h
2023-08-18T22:00:00,1001A,116.3621,39.8784,北京市,万寿西宫,颗粒物(PM10),60,70,54,32,25,154,110,134,132,27,23,3,3,0.6,0.5
2023-08-18T22:00:00,1002A,116.2202,40.2915,北京市,定陵,,18,18,39,6,16,112,49,103,83,7,7,3,3,0.3,0.3
2023-08-18T22:00:00,1003A,116.4174,39.9289,北京市,东四,颗粒物(PM10),66,81,52,28,22,165,122,141,141,24,19,1,2,0.5,0.4
2023-08-18T22:00:00,1004A,116.4072,39.8863,北京市,天坛,颗粒物(PM10),53,56,42,26,21,158,85,129,122,32,22,3,3,0.4,0.4
2023-08-18T22:00:00,1005A,116.462,39.9365,北京市,农展馆,颗粒物(PM10),59,68,50,27,23,159,119,138,138,30,29,3,3,0.4,0.4
2023-08-18T22:00:00,1006A,116.3392,39.9295,北京市,官园,颗粒物(PM10),66,81,52,32,21,160,127,141,140,25,24,3,2,0.4,0.4
2023-08-18T22:00:00,1007A,116.2878,39.9611,北京市,海淀万柳,颗粒物(PM10),62,74,49,28,22,135,107,122,121,29,27,1,2,0.4,0.3
2023-08-18T22:00:00,1008A,116.6636,40.135,北京市,顺义新城,颗粒物(PM10),54,58,62,23,28,155,111,132,130,49,14,3,3,0.4,0.3
2023-08-18T22:00:00,1009A,116.6275,40.3275,北京市,怀柔镇,,25,15,60,7,29,126,79,109,102,9,12,3,3,0.3,0.4
2023-08-18T22:00:00,1010A,116.2296,40.217,北京市,昌平镇,,25,25,41,11,20,119,77,110,99,6,11,3,2,0.2,0.2
2023-08-18T22:00:00,1011A,116.3966,39.9821,北京市,奥体中心,颗粒物(PM10),59,68,52,24,22,122,110,96,96,26,27,3,3,0.6,0.5
2023-08-18T22:00:00,1012A,116.184,39.9136,北京市,古城,颗粒物(PM10),68,85,72,28,28,142,58,119,113,55,16,3,3,0.4,0.2
2023-08-18T22:00:00,1015A,117.1444,39.1661,天津市,勤俭道,颗粒物(PM10),55,60,56,38,38,210,118,189,179,18,15,6,8,0.8,0.8
2023-08-18T22:00:00,1017A,117.237,39.1082,天津市,大直沽八号路,颗粒物(PM10),81,111,73,58,44,196,99,163,155,17,18,3,4,0.8,0.8
2023-08-18T22:00:00,1018A,117.202,39.0927,天津市,前进道,颗粒物(PM10),78,106,69,55,43,201,101,167,156,21,21,5,7,0.8,0.8
2023-08-18T22:00:00,1019A,117.1837,39.2133,天津市,淮河道,颗粒物(PM10),88,126,70,57,43,203,118,177,170,20,21,3,5,1.0,0.9
2023-08-18T22:00:00,1021A,117.307,39.0877,天津市,跃进路,颗粒物(PM10),77,104,70,55,41,214,96,179,168,23,21,5,7,0.8,0.8
2023-08-18T22:00:00,1023A,117.707,39.0343,天津市,第四大街,颗粒物(PM10),79,108,62,57,41,196,111,172,166,19,21,5,6,0.7,0.8
2023-08-18T22:00:00,1024A,117.457,38.8394,天津市,永明路,细颗粒物(PM2.5),67,77,64,48,44,189,95,166,142,19,14,3,6,0.6,0.7
2023-08-18T22:00:00,1026A,117.764,39.1587,天津市,汉北路,细颗粒物(PM2.5),92,118,67,68,36,225,116,189,182,17,28,4,5,0.9,0.8
2023-08-18T22:00:00,1027A,117.157,38.9194,天津市,团泊洼,颗粒物(PM10),67,84,68,44,45,196,100,153,143,20,20,2,3,0.8,0.9
2023-08-18T22:00:00,1029A,114.4422,38.0444,石家庄市,职工医院,颗粒物(PM10),67,84,85,42,39,149,98,138,132,22,20,1,3,0.6,0.7
2023-08-18T22:00:00,1030A,114.6063,38.0266,石家庄市,高新区,颗粒物(PM10),67,84,75,46,40,143,83,129,117,25,22,1,1,0.9,0.7
2023-08-18T22:00:00,1031A,114.4898,38.1328,石家庄市,西北水源,颗粒物(PM10),70,89,75,37,35,126,56,117,108,40,21,3,3,0.6,0.7
2023-08-18T22:00:00,1032A,114.4586,38.0058,石家庄市,西南高教,颗粒物(PM10),68,85,76,28,35,142,66,135,122,32,18,3,4,0.7,0.7
2023-08-18T22:00:00,1033A,114.5331,38.0178,石家庄市,世纪公园,颗粒物(PM10),56,61,67,38,34,131,86,121,112,20,20,3,3,0.6,0.6
2023-08-18T22:00:00,1034A,114.509,38.0457,石家庄市,人民会堂,颗粒物(PM10),73,96,83,44,38,162,104,138,132,23,22,2,3,0.6,0.6
2023-08-18T22:00:00,1035A,114.3524,37.8911,石家庄市,封龙山,细颗粒物(PM2.5),83,108,96,61,40,177,152,148,142,8,9,1,2,0.7,1
2023-08-18T22:00:00,1037A,118.131,39.6363,唐山市,雷达站,细颗粒物(PM2.5),105,122,75,79,40,182,146,162,161,20,19,3,2,1.2,0.8
2023-08-18T22:00:00,1038A,118.1725,39.6334,唐山市,物资局,细颗粒物(PM2.5),113,91,66,85,37,175,149,158,156,18,19,5,5,1.0,0.8
2023-08-18T22:00:00,1040A,118.1705,39.6506,唐山市,十二中,细颗粒物(PM2.5),89,91,64,66,36,180,163,156,156,21,21,3,3,1.0,0.7
2023-08-18T22:00:00,1041A,118.1869,39.622,唐山市,小山,细颗粒物(PM2.5),97,113,73,72,33,211,142,164,158,15,22,3,2,1.0,0.8
2023-08-18T22:00:00,1042A,119.5134,39.8207,秦皇岛市,北戴河环保局,"细颗粒物(PM2.5),臭氧1小时",53,43,39,37,21,172,162,161,161,12,13,4,5,0.1,0.2
2023-08-18T22:00:00,1043A,119.7493,40.0116,秦皇岛市,第一关,颗粒物(PM10),59,68,57,41,33,154,103,141,137,26,39,2,3,0.6,0.7
2023-08-18T22:00:00,1044A,119.5897,39.9499,秦皇岛市,监测站,颗粒物(PM10),52,54,54,33,32,147,121,138,133,19,26,6,8,0.7,1
2023-08-18T22:00:00,1046A,119.5251,39.9041,秦皇岛市,建设大厦,颗粒物(PM10),55,60,59,38,36,174,114,153,140,18,20,1,5,0.7,1
2023-08-18T22:00:00,1048A,114.5302,36.6116,邯郸市,东污水处理厂,细颗粒物(PM2.5),55,50,49,39,34,229,97,168,142,16,26,24,12,1.7,1.5
2023-08-18T22:00:00,1049A,114.4918,36.5713,邯郸市,矿院,,49,39,52,34,36,203,98,159,136,18,26,16,12,1.5,1.8
2023-08-18T22:00:00,1050A,114.484,36.6133,邯郸市,丛台公园,颗粒物(PM10),63,76,61,37,33,216,92,167,137,14,17,17,15,1.6,2
2023-08-18T22:00:00,1051A,115.493,38.8632,保定市,游泳馆,颗粒物(PM10),62,74,76,38,44,162,102,147,141,21,21,5,5,0.3,0.4
2023-08-18T22:00:00,1052A,115.5213,38.8959,保定市,华电二区,颗粒物(PM10),67,83,85,35,34,161,118,144,142,10,19,6,3,0.7,0.6
2023-08-18T22:00:00,1053A,115.4713,38.9108,保定市,接待中心,颗粒物(PM10),81,111,85,36,33,158,92,135,128,24,18,7,7,0.8,0.8
2023-08-18T22:00:00,1054A,115.4612,38.8416,保定市,地表水厂,颗粒物(PM10),73,95,103,34,37,156,77,136,122,34,34,7,7,0.6,0.7
2023-08-18T22:00:00,1056A,115.5086,38.8639,保定市,监测站,颗粒物(PM10),65,80,82,40,37,163,120,150,146,16,22,7,5,0.3,0.4
2023-08-18T22:00:00,1057A,114.8883,40.8336,张家口市,人民公园,,30,30,30,6,11,131,87,125,112,14,11,1,3,0.1,0.1
2023-08-18T22:00:00,1059A,114.8687,40.8042,张家口市,五金库,,43,43,33,17,14,131,71,124,101,28,12,3,3,0.3,0.2
2023-08-18T22:00:00,1060A,114.8902,40.762,张家口市,世纪豪园,,45,45,31,22,18,131,44,122,104,62,14,2,2,0.3,0
2023-08-18T22:00:00,1061A,114.8916,40.8661,张家口市,北泵房,,30,30,28,8,10,138,82,129,112,13,8,7,7,0.2,0.2
2023-08-18T22:00:00,1062A,117.9531,40.9081,承德市,铁路,颗粒物(PM10),62,73,48,21,21,128,16,110,90,94,30,8,12,0.7,0.5
2023-08-18T22:00:00,1063A,117.9392,40.9763,承德市,中国银行,,33,33,43,20,18,143,16,127,96,51,17,7,11,0.5,0.3
2023-08-18T22:00:00,1064A,117.9503,40.928,承德市,开发区,,33,33,45,14,19,146,89,135,126,18,15,6,12,0.5,0.4
2023-08-18T22:00:00,1065A,117.8051,40.9655,承德市,文化中心,,43,43,50,6,20,139,10,124,88,71,24,6,11,0.5,0.4
2023-08-18T22:00:00,1066A,117.9268,41.0026,承德市,离宫,,32,27,38,22,17,140,60,121,101,12,9,8,8,0.3,0.3
2023-08-18T22:00:00,1067A,116.6708,39.5111,廊坊市,药材公司,颗粒物(PM10),64,77,72,26,33,212,95,184,167,28,23,5,2,0.5,0.5
2023-08-18T22:00:00,1068A,116.7214,39.5589,廊坊市,开发区,颗粒物(PM10),58,66,57,30,34,181,108,167,157,34,19,3,2,0.5,0.5
2023-08-18T22:00:00,1070A,116.7244,39.5269,廊坊市,北华航天学院,颗粒物(PM10),60,70,73,22,38,214,125,180,172,28,21,13,7,0.5,0.5
2023-08-18T22:00:00,1071A,116.8842,38.2991,沧州市,沧县城建局,,,,56,,34,139,71,130,110,23,20,,4,0.5,0.6
2023-08-18T22:00:00,1072A,116.8584,38.3254,沧州市,电视转播站,,35,35,51,14,36,142,79,122,106,17,16,5,7,0.4,0.6
2023-08-18T22:00:00,1073A,116.8709,38.3228,沧州市,市环保局,,47,47,62,31,35,131,70,120,103,28,26,3,3,0.3,0.4
2023-08-18T22:00:00,1074A,115.6838,37.7541,衡水市,电机北厂,,41,41,49,24,33,129,69,118,99,14,8,3,2,0.7,0.7
2023-08-18T22:00:00,1075A,115.6303,37.7316,衡水市,市监测站,,41,41,44,13,23,124,61,118,99,18,14,5,4,0.6,0.6
2023-08-18T22:00:00,1077A,114.4704,37.0886,邢台市,达活泉,,,53,31,31,21,152,100,142,113,8,7,,10,0.6,0.7
2023-08-18T22:00:00,1078A,114.5062,37.0349,邢台市,邢师高专,,50,50,43,32,27,174,90,150,127,11,18,4,5,0.5,0.7
2023-08-18T22:00:00,1079A,114.5237,37.0851,邢台市,路桥公司,颗粒物(PM10),53,56,42,32,25,169,92,145,126,13,10,6,7,0.8,0.9
2023-08-18T22:00:00,1080A,114.4725,37.0719,邢台市,市环保局,颗粒物(PM10),55,60,38,38,25,171,99,149,129,10,8,4,4,0.7,0.7
2023-08-18T22:00:00,1081A,112.522,37.8873,太原市,尖草坪,颗粒物(PM10),78,106,117,44,45,158,79,144,134,43,24,5,7,0.6,0.8
2023-08-18T22:00:00,1083A,112.434,38.0108,太原市,上兰,,,,,,,,,,,,,,,,
2023-08-18T22:00:00,1084A,112.469,37.7124,太原市,晋源,颗粒物(PM10),80,110,108,40,45,159,83,146,131,33,38,4,6,0.6,0.9
2023-08-18T22:00:00,1085A,112.5583,37.7394,太原市,小店,颗粒物(PM10),109,167,107,54,38,153,81,143,127,32,39,5,4,0.5,0.7
2023-08-18T22:00:00,1086A,112.5369,37.8692,太原市,桃园,颗粒物(PM10),101,151,114,45,42,156,103,140,134,16,26,4,4,0.6,0.7
2023-08-18T22:00:00,1087A,112.57,37.8195,太原市,坞城,颗粒物(PM10),107,163,113,59,48,153,109,143,135,15,26,10,11,0.5,0.7
2023-08-18T22:00:00,1088A,112.549,37.9854,太原市,南寨,颗粒物(PM10),69,88,106,25,42,156,19,141,110,69,33,3,4,0.6,0.7
2023-08-18T22:00:00,1090A,111.6507,40.7517,呼和浩特市,呼市一监,颗粒物(PM10),70,90,58,22,25,135,78,127,118,28,23,13,10,0.6,0.5
2023-08-18T22:00:00,1091A,111.6572,40.8033,呼和浩特市,小召,,,,,,,,,,,,,,,,
2023-08-18T22:00:00,1094A,111.7516,40.8369,呼和浩特市,如意水处理厂,颗粒物(PM10),53,56,43,19,17,150,64,144,129,52,26,8,8,0.7,0.6
2023-08-18T22:00:00,1095A,111.7276,40.8062,呼和浩特市,二十九中,颗粒物(PM10),62,73,52,23,22,141,71,136,127,56,29,9,9,0.8,0.6
2023-08-18T22:00:00,1096A,111.5512,40.7866,呼和浩特市,工大金川校区,颗粒物(PM10),57,64,59,17,21,140,61,136,123,61,27,6,6,0.7,0.6
2023-08-18T22:00:00,1097A,111.717,40.7612,呼和浩特市,化肥厂生活区,颗粒物(PM10),94,137,64,32,24,122,47,117,100,66,27,12,8,0.9,0.6
2023-08-18T22:00:00,1098A,123.6836,41.9339,沈阳市,森林路,,,,,,,,,,,,,,,,
2023-08-18T22:00:00,1099A,123.505,41.7406,沈阳市,浑南东路,,33,33,53,18,27,186,74,155,125,25,41,6,13,0.7,1.3
2023-08-18T22:00:00,1100A,123.4231,41.6989,沈阳市,新秀街,,30,30,55,17,25,182,61,152,122,41,32,5,32,0.8,1.3
2023-08-18T22:00:00,1102A,123.5903,41.8411,沈阳市,东陵路,,20,19,47,14,24,176,53,143,115,11,22,5,10,0.9,1.1
2023-08-18T22:00:00,1103A,123.4264,41.8467,沈阳市,陵东街,,31,31,39,19,26,172,49,146,108,43,22,5,9,0.7,1.1
2023-08-18T22:00:00,1104A,123.4114,41.7653,沈阳市,文化路,,32,32,52,20,31,194,87,165,137,29,26,6,20,0.7,1.2
2023-08-18T22:00:00,1105A,123.4678,41.7867,沈阳市,小河沿,,30,30,41,16,26,180,49,150,119,39,31,4,10,0.8,1.2
2023-08-18T22:00:00,1106A,123.4017,41.7972,沈阳市,太原街,,40,35,49,28,35,195,87,163,128,27,24,5,17,0.6,1.1
2023-08-18T22:00:00,1108A,123.3783,41.9228,沈阳市,京沈街,颗粒物(PM10),54,58,49,23,29,198,50,162,120,42,22,6,10,0.8,1.2
2023-08-18T22:00:00,1109A,121.612,38.9741,大连市,甘井子,,,41,42,37,34,190,,175,167,10,16,4,4,1.4,1.3
2023-08-18T22:00:00,1110A,121.565,38.9511,大连市,周水子,细颗粒物(PM2.5),55,39,41,39,38,188,123,173,162,11,18,2,2,0.3,0.5
2023-08-18T22:00:00,1111A,121.5637,38.8845,大连市,星海三站,细颗粒物(PM2.5),55,34,38,39,40,177,122,159,153,8,14,6,7,0.5,0.6
2023-08-18T22:00:00,1112A,121.6302,38.9117,大连市,青泥洼桥,细颗粒物(PM2.5),54,34,42,38,41,191,119,170,158,5,9,4,4,0.9,0.9
2023-08-18T22:00:00,1113A,121.6251,38.8638,大连市,傅家庄,细颗粒物(PM2.5),52,34,37,36,36,186,133,174,166,5,6,7,8,0.9,0.9
2023-08-18T22:00:00,1114A,121.5213,38.8661,大连市,七贤岭,细颗粒物(PM2.5),54,41,40,38,39,217,136,197,184,10,11,5,6,0.5,0.6
2023-08-18T22:00:00,1115A,121.2529,38.8061,大连市,旅顺,,44,33,36,26,30,223,140,205,194,9,13,3,4,0.7,0.8
2023-08-18T22:00:00,1116A,121.7485,39.1311,大连市,金州,细颗粒物(PM2.5),63,43,36,45,35,180,113,166,146,12,12,6,6,0.9,0.8
2023-08-18T22:00:00,1117A,121.7811,39.0496,大连市,开发区,细颗粒物(PM2.5),53,44,47,37,39,182,121,171,154,4,13,4,5,0.9,1
2023-08-18T22:00:00,1118A,121.9762,39.0631,大连市,双D港,细颗粒物(PM2.5),54,32,40,38,33,183,70,168,129,9,11,6,6,0.5,0.6
2023-08-18T22:00:00,1119A,125.3325,43.9166,长春市,食品厂,颗粒物(PM10),52,53,46,28,19,142,60,129,103,32,32,3,3,0.7,0.7
2023-08-18T22:00:00,1120A,125.2863,43.9027,长春市,客车厂,,41,41,40,28,19,144,71,132,109,20,24,4,4,0.6,0.7
2023-08-18T22:00:00,1121A,125.2841,43.8463,长春市,邮电学院,,40,40,36,21,17,133,80,133,108,17,16,5,5,0.6,0.6
2023-08-18T22:00:00,1122A,125.3716,43.8772,长春市,劳动公园,,40,40,38,20,15,156,88,144,125,14,20,6,6,0.6,0.7
2023-08-18T22:00:00,1123A,125.3297,43.8805,长春市,园林处,,40,40,43,28,21,131,86,113,105,14,25,1,4,0.7,0.7
2023-08-18T22:00:00,1124A,125.4605,43.79,长春市,净月潭,,37,37,25,17,12,127,73,113,98,16,9,5,5,0.6,0.5
2023-08-18T22:00:00,1125A,125.7194,43.515,长春市,甩湾子,,,,,,,,,,,,,,,,
2023-08-18T22:00:00,1126A,125.3863,43.8447,长春市,经开区环卫处,,46,46,37,21,16,145,85,136,121,18,20,3,4,0.5,0.5
2023-08-18T22:00:00,1127A,125.245,43.7783,长春市,高新区管委会,,43,43,37,24,18,145,85,134,116,16,17,3,3,0.6,0.6
2023-08-18T22:00:00,1128A,125.1761,43.8325,长春市,岱山公园,,46,46,43,20,17,144,62,130,104,32,26,2,3,0.7,0.7
2023-08-18T22:00:00,1129A,126.5422,45.755,哈尔滨市,岭北,,26,23,24,16,14,139,82,113,96,14,14,8,9,0.5,0.6
2023-08-18T22:00:00,1130A,126.561,45.8167,哈尔滨市,松北商大,,31,31,34,21,13,116,46,87,60,16,17,6,6,0.4,0.6
2023-08-18T22:00:00,1131A,126.979,45.5419,哈尔滨市,阿城会宁,,25,23,34,13,5,114,78,93,90,8,14,4,5,0.6,0.6
2023-08-18T22:00:00,1132A,126.599,45.7222,哈尔滨市,南岗学府路,,39,39,50,13,17,136,62,107,88,16,23,4,7,0.7,0.8
2023-08-18T22:00:00,1133A,126.689,45.7733,哈尔滨市,太平宏伟公园,,22,18,40,13,11,132,70,100,81,24,27,7,8,0.5,0.6
2023-08-18T22:00:00,1134A,126.635,45.7667,哈尔滨市,道外承德广场,,,30,39,10,15,134,,108,89,30,26,6,7,0.4,0.5
2023-08-18T22:00:00,1135A,126.685,45.7319,哈尔滨市,香坊红旗大街,,36,36,41,22,19,141,57,111,86,37,30,7,10,0.7,0.7
2023-08-18T22:00:00,1136A,126.6411,45.7258,哈尔滨市,动力和平路,,,43,40,,,138,59,112,90,33,26,5,10,0.5,0.6
2023-08-18T22:00:00,1137A,126.593,45.7478,哈尔滨市,道里建国路,,29,29,38,12,12,127,60,105,84,30,29,4,9,0.5,1.3
2023-08-18T22:00:00,1138A,126.615,45.61,哈尔滨市,平房东轻厂,,21,15,36,7,12,116,66,95,78,9,11,5,6,0.4,0.5
2023-08-18T22:00:00,1139A,126.595,45.9855,哈尔滨市,呼兰师专,,24,24,40,14,14,98,41,83,60,12,22,8,8,0.5,0.6
2023-08-18T22:00:00,1140A,126.6206,45.6842,哈尔滨市,省农科院,,28,28,63,9,13,137,57,115,89,28,32,10,12,0.4,0.6
2023-08-18T22:00:00,1141A,121.4,31.238,上海市,普陀,,37,37,32,17,20,128,78,111,93,14,38,4,5,0.6,0.7
2023-08-18T22:00:00,1142A,121.478,31.2036,上海市,十五厂,,40,40,26,20,20,122,73,107,87,5,17,9,10,0.4,0.4
2023-08-18T22:00:00,1143A,121.467,31.3008,上海市,虹口,,37,37,27,17,17,124,76,109,91,22,41,8,9,0.5,0.6
2023-08-18T22:00:00,1144A,121.412,31.1654,上海市,徐汇上师大,,49,49,33,20,19,131,71,108,86,20,34,4,5,0.8,0.8
2023-08-18T22:00:00,1145A,121.536,31.2659,上海市,杨浦四漂,,40,40,28,19,17,119,65,105,86,23,39,6,6,0.7,0.7
2023-08-18T22:00:00,1147A,121.425,31.2261,上海市,静安监测站,,38,38,31,24,20,139,87,114,97,13,36,2,2,0.7,0.8
2023-08-18T22:00:00,1148A,121.703,31.1907,上海市,浦东川沙,,38,38,25,19,16,120,59,110,89,29,30,7,6,0.7,0.8
2023-08-18T22:00:00,1149A,121.533,31.2284,上海市,浦东新区监测站,,40,40,24,16,15,114,66,103,86,17,30,2,3,0.5,0.5
2023-08-18T22:00:00,1150A,121.577,31.2071,上海市,浦东张江,,43,43,26,19,18,106,62,94,80,18,29,5,5,0.5,0.6
2023-08-18T22:00:00,1151A,118.8086,32.1065,南京市,迈皋桥,,33,33,28,17,16,214,97,175,155,31,16,4,4,0.6,0.5
2023-08-18T22:00:00,1152A,118.7538,32.0551,南京市,草场门,,40,29,31,12,17,221,125,172,165,20,17,3,3,0.7,0.7
2023-08-18T22:00:00,1153A,118.7794,32.0745,南京市,山西路,,33,31,35,17,15,232,104,190,178,26,13,5,4,0.5,0.4
2023-08-18T22:00:00,1154A,118.7752,32.0023,南京市,中华门,,35,29,28,17,18,196,110,154,146,23,18,8,8,0.8,0.9
2023-08-18T22:00:00,1155A,118.8109,32.0309,南京市,瑞金路,,34,34,32,17,18,211,93,157,147,25,13,5,2,0.4,0.4
2023-08-18T22:00:00,1156A,118.7997,32.0754,南京市,玄武湖,,32,27,28,16,13,208,100,165,152,31,15,8,7,0.7,0.7
2023-08-18T22:00:00,1157A,118.6414,32.0931,南京市,浦口,,25,25,30,14,18,211,68,183,155,39,20,5,5,0.5,0.6
2023-08-18T22:00:00,1158A,118.7356,31.9996,南京市,奥体中心,,33,30,31,19,23,204,103,164,154,36,19,8,8,0.6,0.6
2023-08-18T22:00:00,1159A,118.9125,32.1028,南京市,仙林大学城,,35,27,29,19,16,235,110,185,163,19,12,10,9,0.8,0.7
2023-08-18T22:00:00,1160A,120.561,31.2472,苏州市,上方山,,32,32,34,19,17,171,83,142,121,14,22,6,6,0.5,0.5
2023-08-18T22:00:00,1162A,120.591,31.3019,苏州市,彩香,,35,35,32,18,20,170,94,146,124,12,24,7,7,0.6,0.8
2023-08-18T22:00:00,1163A,120.596,31.3264,苏州市,轧钢厂,,40,40,32,18,19,171,75,140,114,25,32,9,10,0.6,0.7
2023-08-18T22:00:00,1164A,120.613,31.2703,苏州市,吴中区,,40,40,34,19,20,177,88,152,130,17,27,9,11,0.5,0.6
2023-08-18T22:00:00,1165A,120.543,31.2994,苏州市,苏州新区,,32,32,30,17,18,165,93,144,122,12,26,8,8,0.7,0.8
2023-08-18T22:00:00,1166A,120.669,31.3097,苏州市,苏州工业园区,,37,37,30,24,21,171,77,142,113,22,25,8,8,0.6,0.7
2023-08-18T22:00:00,1167A,120.641,31.3708,苏州市,相城区,,27,27,29,16,19,164,39,130,102,51,29,7,8,0.7,0.8
2023-08-18T22:00:00,1168A,120.9098,31.9663,南通市,狼山街道,,28,20,20,8,9,128,88,117,104,14,20,8,9,0.5,0.5
2023-08-18T22:00:00,1169A,120.86,32.0005,南通市,虹桥,,28,19,23,18,15,135,87,120,102,15,20,5,6,0.6,0.7
2023-08-18T22:00:00,1170A,120.87,32.02,南通市,城中,,27,17,18,8,10,138,85,122,107,12,15,5,6,0.6,0.7
2023-08-18T22:00:00,1171A,120.94,31.93,南通市,星湖花园,,24,20,19,10,9,114,76,105,95,15,19,5,6,0.6,0.6
2023-08-18T22:00:00,1172A,120.81,32.0417,南通市,紫琅学院,,28,18,24,10,10,142,88,125,103,14,28,5,6,0.6,0.7
2023-08-18T22:00:00,1173A,119.176,34.5885,连云港市,市环境监测站,,39,39,31,24,15,147,90,137,118,7,8,5,6,0.5,0.4
2023-08-18T22:00:00,1177A,117.179,34.2761,徐州市,黄河新村,,46,46,42,24,26,168,112,155,140,16,13,9,8,0.5,0.5
2023-08-18T22:00:00,1178A,117.1918,34.2384,徐州市,淮塔,颗粒物(PM10),56,61,47,27,30,159,86,146,128,26,14,10,10,0.4,0.4
2023-08-18T22:00:00,1180A,117.256,34.2153,徐州市,新城区,颗粒物(PM10),51,51,46,28,26,164,111,148,135,11,9,8,7,0.6,0.5
2023-08-18T22:00:00,1181A,117.244,34.2911,徐州市,桃园路,,46,46,41,25,25,170,106,156,140,16,15,9,8,0.5,0.5
2023-08-18T22:00:00,1182A,117.2933,34.2778,徐州市,农科院,,38,34,37,26,25,168,101,152,133,20,21,8,6,0.4,0.4
2023-08-18T22:00:00,1186A,119.389,32.3761,扬州市,邗江监测站,,41,41,40,17,24,167,67,146,112,22,21,3,6,0.5,0.7
2023-08-18T22:00:00,1188A,120.269,31.4867,无锡市,雪浪,,31,31,32,19,17,155,51,127,96,32,22,4,5,0.6,0.6
2023-08-18T22:00:00,1189A,120.275,31.6219,无锡市,黄巷,,29,29,40,17,20,139,54,118,93,42,47,6,7,0.7,0.8
2023-08-18T22:00:00,1190A,120.294,31.56,无锡市,曹张,,24,24,25,12,19,143,50,105,83,34,35,8,8,0.8,0.8
2023-08-18T22:00:00,1191A,120.242,31.5031,无锡市,漆塘,,22,22,26,14,17,176,26,127,90,30,29,4,5,0.7,0.6
2023-08-18T22:00:00,1192A,120.3489,31.5863,无锡市,东亭,,27,27,28,14,20,146,46,124,102,47,38,5,5,0.6,0.6
2023-08-18T22:00:00,1193A,120.354,31.5475,无锡市,旺庄,,32,31,31,22,21,154,42,125,96,45,31,10,9,0.9,0.8
2023-08-18T22:00:00,1194A,120.245,31.5631,无锡市,荣巷,,24,24,23,14,13,150,51,123,90,26,23,9,9,0.6,0.5
2023-08-18T22:00:00,1195A,120.299,31.6817,无锡市,堰桥,,24,24,27,12,16,128,59,111,92,25,26,7,7,0.9,0.9
2023-08-18T22:00:00,1196A,119.9633,31.762,常州市,市监测站,,28,28,36,17,24,153,62,130,101,34,33,8,8,0.5,0.6
2023-08-18T22:00:00,1200A,119.9468,31.7069,常州市,武进监测站,,26,26,42,11,22,167,76,144,115,24,25,8,11,0.5,0.8
2023-08-18T22:00:00,1201A,119.9255,31.9087,常州市,安家,,33,33,33,23,27,158,57,142,114,31,28,8,7,0.6,0.6
2023-08-18T22:00:00,1203A,119.6707,32.1875,镇江市,新区办事处,,25,25,36,16,25,164,62,149,109,29,28,2,4,0.6,0.8
2023-08-18T22:00:00,1204A,119.4974,32.1968,镇江市,职教中心,,26,26,38,14,26,198,49,163,116,45,26,3,4,0.5,0.8
2023-08-18T22:00:00,1205A,119.4303,32.1328,镇江市,丹徒区监测站,,35,29,40,24,38,224,52,180,124,36,22,1,3,0.8,0.9
2023-08-18T22:00:00,1206A,119.905,32.4878,泰州市,公园路,,28,24,31,19,25,136,78,125,94,9,13,4,5,0.7,0.8
2023-08-18T22:00:00,1207A,119.9189,32.4625,泰州市,莲花,,25,22,32,17,22,131,74,120,104,10,12,3,4,0.7,0.8
2023-08-18T22:00:00,1209A,119.888,32.4639,泰州市,留学生创业园,,25,25,30,14,21,132,74,120,98,11,13,5,6,0.6,0.7
2023-08-18T22:00:00,1210A,119.036,33.5981,淮安市,钵池山,,35,27,21,24,14,126,74,117,104,20,15,6,6,1.0,0.9
2023-08-18T22:00:00,1211A,119.007,33.575,淮安市,北京南路,,36,36,25,15,15,140,78,127,108,19,16,6,7,0.9,0.8
2023-08-18T22:00:00,1212A,118.989,33.6067,淮安市,市监测站,,36,36,31,17,12,142,92,132,116,14,14,6,6,0.9,0.8
2023-08-18T22:00:00,1213A,119.135,33.5039,淮安市,楚州区监测站,,29,29,20,18,14,123,74,112,101,22,14,7,8,0.8,0.7
2023-08-18T22:00:00,1214A,119.0186,33.6297,淮安市,淮阴区监测站,,44,44,29,21,17,134,88,127,109,10,14,8,7,0.6,0.6
2023-08-18T22:00:00,1215A,120.118,33.4022,盐城市,盐城电厂,,44,44,26,27,16,119,107,111,105,6,5,5,5,0.7,0.6
2023-08-18T22:00:00,1216A,120.156,33.3942,盐城市,市监测站,,42,38,23,29,13,135,111,127,117,12,8,4,5,0.7,0.6
2023-08-18T22:00:00,1218A,120.2144,33.38,盐城市,开发区管委会,,46,37,24,32,18,119,101,114,107,11,11,2,3,0.6,0.5
2023-08-18T22:00:00,1220A,118.293,33.9528,宿迁市,宿迁学院,,32,32,33,20,24,157,87,150,127,23,19,8,9,0.4,0.5
2023-08-18T22:00:00,1221A,118.2442,33.9592,宿迁市,宿迁中学,,33,30,44,17,22,171,104,156,136,16,19,6,7,0.3,0.6
2023-08-18T22:00:00,1223A,120.2072,30.2111,杭州市,滨江,,48,48,44,26,24,225,54,178,131,38,20,6,7,0.7,0.6
2023-08-18T22:00:00,1224A,120.0633,30.2747,杭州市,西溪,,32,32,38,19,19,244,35,194,133,20,14,4,4,0.8,0.8
2023-08-18T22:00:00,1226A,120.3461,30.3153,杭州市,下沙,,40,40,40,26,23,201,80,174,132,39,31,4,4,0.7,0.6
2023-08-18T22:00:00,1227A,120.1269,30.2456,杭州市,卧龙桥,,33,32,34,23,23,265,29,210,129,21,17,5,4,0.5,0.5
2023-08-18T22:00:00,1228A,120.1903,30.2692,杭州市,浙江农大,,36,33,31,25,25,222,82,179,134,31,21,9,8,0.6,0.5
2023-08-18T22:00:00,1230A,120.1197,30.3119,杭州市,和睦小学,,36,36,37,22,22,245,104,206,152,34,28,9,9,0.6,0.6
2023-08-18T22:00:00,1231A,120.3019,30.4183,杭州市,临平镇,,,46,67,20,22,201,,164,139,36,23,6,5,0.7,0.7
2023-08-18T22:00:00,1232A,120.2697,30.1819,杭州市,城厢镇,,25,22,38,16,29,221,79,185,128,19,22,7,7,0.6,0.6
2023-08-18T22:00:00,1233A,120.0883,30.1808,杭州市,云栖,,27,27,31,14,17,256,50,204,152,22,15,6,6,0.6,0.6
2023-08-18T22:00:00,1234A,121.8358,29.911,宁波市,区环保大楼,,25,24,23,17,15,100,72,90,85,30,37,4,6,0.6,0.7
2023-08-18T22:00:00,1235A,121.56,29.82,宁波市,万里学院,,41,41,26,24,15,147,29,111,78,57,25,4,5,0.8,0.7
2023-08-18T22:00:00,1236A,121.713,29.9572,宁波市,龙赛医院,,27,27,35,12,15,140,78,112,82,20,29,6,9,0.5,0.7
2023-08-18T22:00:00,1239A,121.633,29.7733,宁波市,钱湖水厂,,28,28,26,11,13,113,37,103,79,22,11,5,4,0.6,0.7
2023-08-18T22:00:00,1240A,121.5856,29.8635,宁波市,太古小学,,29,29,20,16,9,117,47,103,78,34,24,5,5,1.0,0.9
2023-08-18T22:00:00,1241A,121.524,29.8674,宁波市,市环境监测中心,,,,21,,10,147,33,112,80,47,20,6,6,0.6,0.5
2023-08-18T22:00:00,1242A,120.634,28.0089,温州市,瓯海,,35,10,31,8,18,115,110,98,91,8,25,5,6,0.5,0.6
2023-08-18T22:00:00,1243A,120.6748,27.9939,温州市,南浦,,36,10,29,9,18,118,115,105,101,6,21,6,6,0.5,0.6
2023-08-18T22:00:00,1244A,120.76,27.9747,温州市,龙湾,,36,10,23,4,12,119,114,104,99,8,26,5,6,0.4,0.5
2023-08-18T22:00:00,1245A,120.6709,28.0167,温州市,市站,,32,9,26,5,16,100,100,88,84,6,19,5,5,0.4,0.6
2023-08-18T22:00:00,1247A,120.6053,29.9928,绍兴市,城东开发委,,19,19,20,12,12,140,53,132,96,20,13,5,5,0.5,0.5
2023-08-18T22:00:00,1250A,120.0751,30.8669,湖州市,城西水厂,,29,25,40,13,29,232,91,192,154,24,24,2,3,0.5,0.6
2023-08-18T22:00:00,1252A,120.7436,30.778,嘉兴市,清河小学,,32,32,31,16,16,173,76,141,109,16,19,5,5,0.7,0.8
2023-08-18T22:00:00,1253A,120.726,30.7478,嘉兴市,嘉兴学院,,32,30,29,22,23,195,79,153,121,23,25,3,4,0.5,0.6
2023-08-18T22:00:00,1255A,121.273,28.6459,台州市,黄岩环保大楼,,26,26,24,17,15,137,54,95,68,16,16,4,4,0.5,0.5
2023-08-18T22:00:00,1256A,121.419,28.6542,台州市,台州环保大楼,,36,36,27,25,14,128,28,100,70,33,19,5,4,0.6,0.6
2023-08-18T22:00:00,1257A,121.377,28.5773,台州市,路桥田洋王,,25,25,23,17,15,130,32,100,66,30,19,4,3,0.5,0.4
2023-08-18T22:00:00,1258A,122.122,30.0203,舟山市,定海檀枫,,43,42,28,30,20,105,56,91,82,18,14,6,6,0.5,0.5
2023-08-18T22:00:00,1259A,122.3094,29.9558,舟山市,普陀东港,,23,23,29,15,19,109,72,102,93,12,16,4,5,0.4,0.5
2023-08-18T22:00:00,1260A,122.19,29.9944,舟山市,临城新区,,37,37,29,24,15,117,61,102,86,15,14,6,6,0.5,0.5
2023-08-18T22:00:00,1262A,119.647,29.077,金华市,十五中,,24,24,31,10,15,179,68,154,127,31,16,3,2,0.5,0.5
2023-08-18T22:00:00,1263A,119.686,29.1029,金华市,监测站,,33,33,36,12,18,177,68,147,122,30,19,4,4,0.6,0.6
2023-08-18T22:00:00,1264A,118.8692,28.9398,衢州市,环保大楼,,29,18,37,10,24,154,92,132,118,14,17,4,4,0.5,0.6
2023-08-18T22:00:00,1265A,118.8709,28.9666,衢州市,实验学校,,31,20,46,12,23,146,98,132,121,15,17,5,5,0.5,0.5
2023-08-18T22:00:00,1266A,118.8621,28.9808,衢州市,衢州学院,,30,14,36,6,24,141,96,127,114,17,18,4,4,0.4,0.5
2023-08-18T22:00:00,1267A,119.914,28.4514,丽水市,监测站大楼,,25,14,24,10,11,136,78,129,113,14,12,5,5,0.6,0.5
2023-08-18T22:00:00,1268A,119.93,28.4586,丽水市,莲都小学,,26,21,28,7,12,136,82,129,115,11,10,5,5,0.5,0.5
2023-08-18T22:00:00,1269A,119.879,28.4231,丽水市,余庄前,,22,18,24,10,12,129,70,116,103,11,12,4,5,0.5,0.4
2023-08-18T22:00:00,1270A,117.1959,31.7848,合肥市,明珠广场,,46,36,41,24,25,189,145,170,157,26,24,6,7,0.7,0.8
2023-08-18T22:00:00,1271A,117.3072,31.8764,合肥市,三里街,,43,41,37,29,26,152,135,147,147,21,22,5,5,0.5,0.5
2023-08-18T22:00:00,1272A,117.2588,31.8707,合肥市,琥珀山庄,,,41,37,,25,171,154,161,159,16,17,5,5,0.7,0.8
2023-08-18T22:00:00,1273A,117.1604,31.9052,合肥市,董铺水库,,41,41,35,27,20,162,123,155,141,17,17,13,7,0.5,0.6
2023-08-18T22:00:00,1274A,117.25,31.8571,合肥市,长江中路,"颗粒物(PM10),细颗粒物(PM2.5)",58,66,44,41,27,169,151,160,158,17,15,7,8,0.7,0.7
2023-08-18T22:00:00,1275A,117.266,31.9436,合肥市,庐阳区,,48,48,40,29,25,151,129,148,146,22,22,4,5,0.6,0.6
2023-08-18T22:00:00,1276A,117.336,31.8586,合肥市,瑶海区,,48,48,43,23,22,156,136,148,148,17,16,5,5,0.8,0.8
2023-08-18T22:00:00,1277A,117.3027,31.7964,合肥市,包河区,颗粒物(PM10),52,53,43,34,28,168,109,150,126,51,42,7,7,0.7,0.7
2023-08-18T22:00:00,1278A,117.2776,31.7385,合肥市,滨湖新区,,44,44,37,27,21,164,135,155,150,22,16,5,6,0.7,0.8
2023-08-18T22:00:00,1279A,117.1318,31.8403,合肥市,高新区,颗粒物(PM10),51,51,40,32,26,186,136,166,148,24,23,9,9,0.7,0.7
2023-08-18T22:00:00,1280A,119.3903,26.0543,福州市,鼓山,,,,,,,,,,,,,,,,
2023-08-18T22:00:00,1282A,119.2681,26.0504,福州市,师大,,32,23,28,6,12,172,100,136,121,9,13,5,4,0.3,0.3
2023-08-18T22:00:00,1283A,119.2984,26.1028,福州市,五四北路,,,,27,,11,171,83,132,115,14,15,3,3,,0.4
2023-08-18T22:00:00,1284A,119.2648,26.0768,福州市,杨桥西路,,28,21,31,3,12,167,87,133,117,13,13,3,3,0.2,0.2
2023-08-18T22:00:00,1285A,119.317,26.0746,福州市,紫阳,,27,18,28,5,12,167,84,131,115,12,14,4,3,0.3,0.4
2023-08-18T22:00:00,1286A,118.1608,24.8169,厦门市,溪东,,,,,,,,,,,,,,,,
2023-08-18T22:00:00,1287A,118.1514,24.4767,厦门市,洪文,,25,13,21,17,19,98,75,91,88,5,12,3,2,0.2,0.2
2023-08-18T22:00:00,1288A,118.0661,24.4444,厦门市,鼓浪屿,,23,10,22,6,15,110,71,96,89,10,15,1,2,0.4,0.4
2023-08-18T22:00:00,1290A,115.8931,28.6843,南昌市,省外办,,48,48,46,31,29,160,124,148,143,16,17,6,5,0.8,0.8
2023-08-18T22:00:00,1291A,115.8886,28.7003,南昌市,省林业公司,,49,48,40,34,25,160,116,147,139,12,19,16,8,0.9,0.7
2023-08-18T22:00:00,1292A,115.8126,28.7442,南昌市,林科所,,36,34,29,24,20,171,115,155,138,18,11,8,6,0.5,0.8
2023-08-18T22:00:00,1294A,115.8518,28.687,南昌市,建工学校,细颗粒物(PM2.5),52,50,42,36,20,181,136,166,160,15,13,8,8,0.9,0.8
2023-08-18T22:00:00,1295A,115.8921,28.6424,南昌市,象湖,,46,39,35,32,27,177,145,163,161,11,15,8,6,0.9,0.7
2023-08-18T22:00:00,1296A,115.7423,28.7996,南昌市,武术学校,,39,19,19,27,20,153,75,128,94,7,7,6,6,0.5,0.5
2023-08-18T22:00:00,1298A,115.9314,28.6842,南昌市,省站,,48,48,45,27,26,181,142,166,160,13,12,8,7,0.9,0.7
2023-08-18T22:00:00,1299A,116.9862,36.6114,济南市,科干所,细颗粒物(PM2.5),85,95,77,63,46,179,39,156,109,34,25,6,7,0.8,0.6
2023-08-18T22:00:00,1300A,116.9376,36.665,济南市,农科所,细颗粒物(PM2.5),68,66,68,49,38,158,38,138,104,33,30,8,9,0.6,0.5
2023-08-18T22:00:00,1301A,117.1265,36.6734,济南市,开发区,颗粒物(PM10),61,71,66,37,36,192,123,167,141,34,36,5,5,0.8,0.8
2023-08-18T22:00:00,1303A,117.0624,36.6868,济南市,省种子仓库,颗粒物(PM10),68,85,66,46,37,186,116,157,138,26,22,4,5,0.7,0.7
2023-08-18T22:00:00,1304A,116.9489,36.6447,济南市,机床二厂,"颗粒物(PM10),细颗粒物(PM2.5)",70,90,76,51,38,181,44,161,114,42,31,6,7,0.9,0.8
2023-08-18T22:00:00,1305A,117.0495,36.663,济南市,市监测站,细颗粒物(PM2.5),68,78,66,49,41,185,109,163,144,33,32,2,3,0.8,0.6
2023-08-18T22:00:00,1306A,116.7675,36.5484,济南市,长清党校,细颗粒物(PM2.5),77,76,70,56,44,173,63,138,78,19,24,6,6,0.8,0.6
2023-08-18T22:00:00,1307A,120.6659,36.2403,青岛市,仰口,,35,29,33,24,26,134,107,121,116,5,8,6,6,0.7,0.8
2023-08-18T22:00:00,1310A,120.4134,36.0658,青岛市,市南区东部子站,,31,29,23,17,17,143,98,130,120,22,13,6,7,0.6,0.7
2023-08-18T22:00:00,1311A,120.3664,36.1032,青岛市,四方区子站,,37,31,26,19,17,153,116,146,136,13,11,5,8,0.6,0.7
2023-08-18T22:00:00,1312A,120.2994,36.054,青岛市,市南区西部子站,,32,31,31,17,18,133,101,120,112,24,20,9,9,0.6,0.8
2023-08-18T22:00:00,1313A,120.4581,36.0858,青岛市,崂山区子站,,35,27,25,24,22,151,112,139,132,12,13,7,8,0.4,0.5
2023-08-18T22:00:00,1314A,120.1983,35.9608,青岛市,黄岛区子站,,36,27,24,24,20,155,115,146,136,13,14,5,7,0.7,0.7
2023-08-18T22:00:00,1315A,120.3999,36.3083,青岛市,城阳区子站,,46,46,43,22,20,193,116,170,141,21,23,5,7,0.6,0.7
2023-08-18T22:00:00,1316A,113.69031,34.76122,郑州市,烟厂,颗粒物(PM10),60,70,65,33,40,220,136,182,159,15,19,1,2,0.7,0.8
2023-08-18T22:00:00,1317A,113.65724,34.77134,郑州市,郑纺机,,,91,67,,,214,130,186,162,16,19,1,2,0.9,1
2023-08-18T22:00:00,1318A,113.67526,34.80246,郑州市,银行学校,颗粒物(PM10),69,87,60,29,32,220,136,187,164,12,16,2,3,0.7,0.8
2023-08-18T22:00:00,1319A,113.56746,34.81334,郑州市,供水公司,颗粒物(PM10),66,82,73,37,36,218,128,193,168,20,22,1,1,0.7,0.8
2023-08-18T22:00:00,1320A,113.7329,34.7178,郑州市,经开区管委,颗粒物(PM10),51,52,60,32,35,190,126,165,136,10,12,3,3,0.6,0.7
2023-08-18T22:00:00,1321A,113.73961,34.77172,郑州市,四十七中,,,,,,,,,,,,,,,,
2023-08-18T22:00:00,1322A,113.60532,34.74838,郑州市,市监测站,颗粒物(PM10),65,80,77,38,39,207,122,180,154,18,20,3,3,0.7,0.8
2023-08-18T22:00:00,1323A,113.64164,34.7525,郑州市,河医大,颗粒物(PM10),63,76,70,35,36,195,117,166,145,16,18,2,3,0.8,0.8
2023-08-18T22:00:00,1324A,113.51488,34.91089,郑州市,岗李水库,,,,,,,,,,,,,,,,
2023-08-18T22:00:00,1325A,114.3677,30.5584,武汉市,东湖梨园,,37,37,41,24,26,203,112,186,154,18,22,9,10,0.9,1
2023-08-18T22:00:00,1326A,114.2529,30.558,武汉市,汉阳月湖,,37,37,40,19,22,178,114,159,142,15,24,8,9,0.6,0.8
2023-08-18T22:00:00,1327A,114.282,30.6189,武汉市,汉口花桥,,39,35,41,27,26,174,114,168,148,14,15,4,5,0.6,0.6
2023-08-18T22:00:00,1328A,114.3025,30.5332,武汉市,武昌紫阳,,43,43,43,20,35,193,127,182,153,12,22,8,9,0.6,1
2023-08-18T22:00:00,1329A,114.3646,30.6217,武汉市,青山钢花,,45,41,42,31,28,177,109,170,145,19,24,8,8,0.7,0.7
2023-08-18T22:00:00,1330A,114.1566,30.4825,武汉市,沌口新区,,48,41,44,33,34,222,121,198,174,25,24,7,8,0.6,0.8
2023-08-18T22:00:00,1331A,114.3014,30.5944,武汉市,汉口江滩,,39,39,39,21,25,182,100,162,131,20,20,6,6,0.5,0.6
2023-08-18T22:00:00,1333A,114.135,30.6319,武汉市,吴家山,,48,48,42,27,24,173,124,162,147,12,17,8,7,0.5,0.6
2023-08-18T22:00:00,1334A,113.8454,30.2917,武汉市,沉湖七壕,颗粒物(PM10),52,53,45,28,26,202,98,184,151,19,17,7,7,0.8,0.9
2023-08-18T22:00:00,1335A,113.0833,28.2325,长沙市,经开区环保局,,48,48,39,28,24,163,131,158,148,12,11,6,5,0.6,0.5
2023-08-18T22:00:00,1336A,112.8872,28.2189,长沙市,高开区环保局,,,58,50,38,31,186,122,178,158,,16,5,6,0.8,0.8
2023-08-18T22:00:00,1337A,113.0792,28.2053,长沙市,马坡岭,颗粒物(PM10),54,58,50,34,28,173,130,168,157,8,9,5,5,0.5,0.4
2023-08-18T22:00:00,1338A,112.9394,28.19,长沙市,湖南师范大学,颗粒物(PM10),51,51,45,29,35,194,120,178,155,8,14,2,2,0.6,0.5
2023-08-18T22:00:00,1339A,113.0178,28.1322,长沙市,雨花区环保局,颗粒物(PM10),51,52,46,25,26,188,135,175,160,11,21,6,6,0.5,0.5
2023-08-18T22:00:00,1340A,112.9792,28.2597,长沙市,伍家岭,颗粒物(PM10),52,53,56,26,32,192,119,181,161,19,24,2,2,0.6,0.6
2023-08-18T22:00:00,1341A,113.0014,28.1944,长沙市,火车新站,颗粒物(PM10),51,52,38,34,31,182,123,166,150,8,10,5,5,0.7,0.6
2023-08-18T22:00:00,1342A,112.9844,28.1178,长沙市,天心区环保局,,,,39,,28,169,,163,157,14,19,6,4,0.6,0.6
2023-08-18T22:00:00,1343A,112.8908,28.1308,长沙市,湖南中医药大学,颗粒物(PM10),52,53,53,31,29,205,120,192,166,13,23,2,2,0.9,0.9
2023-08-18T22:00:00,1344A,112.9581,28.3611,长沙市,沙坪,,49,49,39,31,27,171,108,159,137,6,8,7,7,0.6,0.6
2023-08-18T22:00:00,1345A,113.2347,23.1423,广州市,广雅中学,,32,32,54,21,32,104,51,80,76,47,51,5,5,1.0,1
2023-08-18T22:00:00,1346A,113.2612,23.105,广州市,市五中,,34,34,53,21,34,100,50,78,77,39,40,5,5,0.8,1
2023-08-18T22:00:00,1348A,113.3478,23.0916,广州市,广东商学院,,41,41,55,25,32,87,21,64,59,74,51,3,4,1.0,0.9
2023-08-18T22:00:00,1349A,113.4332,23.1047,广州市,市八十六中,,45,45,62,23,35,141,20,87,81,81,51,5,6,0.9,1
2023-08-18T22:00:00,1350A,113.3505,22.9483,广州市,番禺中学,,49,49,41,32,26,127,62,106,104,40,35,4,5,0.8,0.8
2023-08-18T22:00:00,1351A,113.2146,23.3916,广州市,花都师范,,34,34,44,23,30,125,63,110,100,33,42,6,7,0.8,0.9
2023-08-18T22:00:00,1352A,113.2597,23.1331,广州市,市监测站,,35,35,49,23,30,110,54,86,85,48,51,7,8,0.8,0.9
2023-08-18T22:00:00,1353A,113.5618,23.312,广州市,九龙镇镇龙,,,46,40,35,25,151,,116,115,44,26,5,5,0.7,0.6
2023-08-18T22:00:00,1354A,113.2765,23.1544,广州市,麓湖,,29,29,50,15,28,94,30,66,63,34,43,5,6,0.7,1
2023-08-18T22:00:00,1355A,113.443,23.3035,广州市,帽峰山森林公园,,24,24,37,13,24,154,62,109,106,19,25,6,6,0.6,0.6
2023-08-18T22:00:00,1356A,114.1063,22.5545,深圳市,通心岭子站,,,,24,,14,113,14,67,58,,20,4,4,0.7,0.9
2023-08-18T22:00:00,1357A,114.117,22.5625,深圳市,洪湖,颗粒物(PM10),53,55,31,33,18,99,16,65,60,44,25,5,5,1.0,0.9
2023-08-18T22:00:00,1358A,113.987,22.5417,深圳市,华侨城,,30,30,26,18,13,73,15,53,48,52,29,8,6,0.8,0.7
2023-08-18T22:00:00,1359A,113.9181,22.5171,深圳市,南海子站,颗粒物(PM10),54,57,52,32,24,53,37,45,44,38,33,5,4,1.1,1
2023-08-18T22:00:00,1360A,114.2458,22.5689,深圳市,盐田,,35,20,27,10,14,108,5,71,59,69,31,4,4,0.6,0.7
2023-08-18T22:00:00,1361A,114.2283,22.7244,深圳市,龙岗,,42,42,32,23,17,179,38,136,123,50,33,7,7,0.9,0.9
2023-08-18T22:00:00,1363A,114.494,22.5422,深圳市,南澳,,24,24,21,10,9,109,22,82,75,26,22,7,6,0.8,0.8
2023-08-18T22:00:00,1364A,114.41,22.6342,深圳市,葵涌,,26,26,30,13,16,142,29,91,81,32,24,3,3,0.7,0.7
2023-08-18T22:00:00,1365A,114.297,22.5978,深圳市,梅沙,,26,26,30,12,14,100,25,68,63,19,23,5,5,0.6,0.7
2023-08-18T22:00:00,1366A,114.0678,22.738,深圳市,观澜,颗粒物(PM10),54,57,45,32,23,167,24,119,107,74,36,9,8,0.8,0.7
2023-08-18T22:00:00,1367A,113.5814,22.2618,珠海市,吉大,,33,33,30,22,19,70,36,56,50,31,17,6,5,0.8,0.6
2023-08-18T22:00:00,1368A,113.4881,22.2335,珠海市,前山,,48,48,32,20,17,73,25,63,50,46,19,10,8,0.6,0.5
2023-08-18T22:00:00,1369A,113.628,22.4251,珠海市,唐家,,23,23,29,14,18,76,30,58,54,22,12,5,5,0.5,0.4
2023-08-18T22:00:00,1370A,113.299,22.2281,珠海市,斗门,,31,31,29,8,13,72,59,68,51,17,13,7,6,0.6,0.5
2023-08-18T22:00:00,1371A,113.1294,23.0067,佛山市,湾梁,颗粒物(PM10),51,51,41,22,27,86,6,64,59,89,38,6,4,0.7,0.6
2023-08-18T22:00:00,1372A,113.1083,23.0478,佛山市,华材职中,,36,36,45,23,33,80,29,59,58,38,36,7,8,0.5,0.5
2023-08-18T22:00:00,1373A,113.144,23.0453,佛山市,南海气象局,,40,40,52,23,31,61,22,43,43,42,32,5,5,0.8,0.7
2023-08-18T22:00:00,1374A,113.2881,22.8094,佛山市,顺德苏岗,细颗粒物(PM2.5),55,39,27,39,27,142,43,103,102,31,25,6,6,0.9,0.8
2023-08-18T22:00:00,1376A,112.8383,22.8678,佛山市,高明孔堂,,39,35,42,27,32,119,47,87,85,16,13,5,7,0.5,0.4
2023-08-18T22:00:00,1377A,112.8836,23.1588,佛山市,三水监测站,,32,31,52,22,31,92,18,79,64,55,32,5,4,0.7,0.7
2023-08-18T22:00:00,1378A,112.867,23.185,佛山市,三水云东海,,38,38,46,26,39,87,9,75,50,35,30,5,8,0.7,0.6
2023-08-18T22:00:00,1379A,113.3769,22.5211,中山市,华柏园,,40,30,37,28,21,143,37,84,84,31,18,4,4,0.9,0.6
2023-08-18T22:00:00,1380A,113.3881,22.5497,中山市,张溪,,49,34,44,34,27,183,50,106,105,27,17,3,4,0.6,0.5
2023-08-18T22:00:00,1381A,113.4075,22.5111,中山市,紫马岭,,36,25,33,25,25,123,36,80,79,23,14,4,4,0.5,0.4
2023-08-18T22:00:00,1382A,113.4411,22.4853,中山市,长江旅游区,,,,,,,,,,,,,,,,
2023-08-18T22:00:00,1383A,113.1064,22.6058,江门市,北街,,46,42,44,32,34,123,41,84,84,21,18,5,5,0.5,0.5
2023-08-18T22:00:00,1384A,113.0731,22.5835,江门市,西区,颗粒物(PM10),53,56,45,28,24,117,55,94,94,24,18,6,6,0.6,0.6
2023-08-18T22:00:00,1385A,113.0219,22.5311,江门市,圭峰西,,44,44,43,23,25,117,50,87,87,20,11,3,3,0.8,0.7
2023-08-18T22:00:00,1386A,113.0828,22.5947,江门市,东湖,,44,44,45,23,25,120,62,96,96,16,14,6,7,0.6,0.6
2023-08-18T22:00:00,1389A,113.7547,23.0494,东莞市,莞城梨川,细颗粒物(PM2.5),73,76,49,53,31,188,88,147,147,45,35,9,10,1.0,0.9
2023-08-18T22:00:00,1390A,113.7944,23.0128,东莞市,东城石井,细颗粒物(PM2.5),67,70,45,48,28,160,62,114,113,38,28,6,6,0.9,0.9
2023-08-18T22:00:00,1391A,113.7383,22.9658,东莞市,南城西平,细颗粒物(PM2.5),52,50,46,36,30,178,59,120,120,41,37,7,6,0.8,0.9
2023-08-18T22:00:00,1392A,114.4183,23.0528,惠州市,河南岸金山湖子站,,22,22,32,15,15,116,66,90,90,22,21,4,4,0.5,0.5
2023-08-18T22:00:00,1393A,114.4053,23.0822,惠州市,下埔横江三路子站,,23,22,30,13,18,125,72,99,98,21,20,4,4,0.7,0.7
2023-08-18T22:00:00,1394A,114.4103,23.1142,惠州市,江北云山西路子站,,,18,32,11,18,133,,110,110,15,18,4,5,0.5,0.6
2023-08-18T22:00:00,1395A,114.4645,22.7833,惠州市,惠阳区承修路船湖子站,,27,27,39,13,18,121,53,98,95,24,18,4,4,0.6,0.7
2023-08-18T22:00:00,1396A,114.5317,22.7422,惠州市,大亚湾管委会子站,,34,34,38,15,20,138,42,111,100,48,33,5,4,0.8,0.8
2023-08-18T22:00:00,1397A,112.4267,23.0706,肇庆市,睦岗子站,,,35,43,23,25,91,18,63,41,36,29,9,12,,0.7
2023-08-18T22:00:00,1398A,112.4645,23.0475,肇庆市,城中子站,,35,33,41,24,26,83,22,70,46,30,24,8,11,0.7,0.7
2023-08-18T22:00:00,1399A,112.5544,23.1522,肇庆市,坑口子站,,22,20,33,15,22,79,27,67,46,15,20,4,7,0.4,0.4
2023-08-18T22:00:00,1400A,112.4753,23.1,肇庆市,七星岩子站,,,,,,,,,,,,,,,,
2023-08-18T22:00:00,1401A,108.3103,22.7881,南宁市,二十一中,,,45,24,31,14,80,,70,63,52,21,4,4,1.0,0.8
2023-08-18T22:00:00,1402A,108.3141,22.8528,南宁市,北湖,颗粒物(PM10),57,63,28,35,16,89,33,79,64,30,14,8,5,0.9,0.7
2023-08-18T22:00:00,1403A,108.3206,22.8225,南宁市,市监测站,颗粒物(PM10),56,61,27,32,15,85,40,71,61,45,24,7,6,0.8,0.6
2023-08-18T22:00:00,1404A,108.3829,22.8037,南宁市,大自然花园,,36,36,23,21,14,79,38,66,57,28,16,5,5,0.8,0.7
2023-08-18T22:00:00,1405A,108.4394,22.7904,南宁市,仙葫,,33,33,21,14,11,87,23,74,68,52,17,4,4,0.8,0.6
2023-08-18T22:00:00,1406A,108.2397,22.8467,南宁市,区农职院,,43,40,28,30,14,183,15,100,55,34,18,11,7,0.7,0.6
2023-08-18T22:00:00,1407A,108.3275,22.735,南宁市,英华嘉园,颗粒物(PM10),54,58,48,37,20,71,5,62,51,52,20,5,5,1.0,0.7
2023-08-18T22:00:00,1408A,108.2257,22.7757,南宁市,沙井镇街道办,,46,46,27,24,16,71,3,61,44,43,24,5,4,0.7,0.6
2023-08-18T22:00:00,1409A,110.576,19.9507,海口市,东寨港,,,,,,,,,,,,,,,,
2023-08-18T22:00:00,1410A,110.3232,20.0574,海口市,海南大学,,23,19,26,16,14,114,56,92,68,15,13,6,6,0.4,0.4
2023-08-18T22:00:00,1411A,110.283,20.0053,海口市,秀英海南医院,,29,21,29,20,16,97,34,89,68,33,19,6,6,0.5,0.4
2023-08-18T22:00:00,1412A,110.338,19.9969,海口市,海南师范大学,,28,24,28,19,16,102,59,86,69,11,12,8,8,0.4,0.4
2023-08-18T22:00:00,1413A,110.33,20.0356,海口市,龙华路环保局宿舍,,28,19,25,19,15,99,57,87,70,14,11,7,7,0.4,0.4
2023-08-18T22:00:00,1414A,106.3787,29.8279,重庆市,缙云山,,45,45,47,14,22,176,143,158,151,10,11,10,11,0.3,0.4
2023-08-18T22:00:00,1416A,106.4213,29.8253,重庆市,天生,颗粒物(PM10),58,66,52,27,36,160,52,132,99,39,35,5,7,1.1,1
2023-08-18T22:00:00,1417A,106.6263,29.7228,重庆市,两路,,40,39,52,28,38,267,85,177,111,31,49,6,8,1.0,1.1
2023-08-18T22:00:00,1418A,106.2953,29.5983,重庆市,虎溪,,49,45,60,34,48,154,42,129,95,38,35,4,5,0.8,0.8
2023-08-18T22:00:00,1419A,106.5777,29.5102,重庆市,南坪,,50,50,58,30,39,211,73,162,106,26,25,8,8,0.8,0.8
2023-08-18T22:00:00,1420A,106.6556,29.6277,重庆市,唐家沱,颗粒物(PM10),51,52,50,30,33,278,62,189,122,66,43,7,6,0.7,0.6
2023-08-18T22:00:00,1421A,106.6349,29.4906,重庆市,茶园,,37,37,61,22,32,243,82,176,122,29,34,5,5,0.7,0.9
2023-08-18T22:00:00,1422A,106.3754,29.4572,重庆市,白市驿,细颗粒物(PM2.5),54,37,56,38,35,223,94,169,130,21,17,10,10,0.8,0.9
2023-08-18T22:00:00,1425A,106.6205,29.7166,重庆市,空港,,39,39,60,26,34,254,99,178,124,30,42,7,9,0.9,1
2023-08-18T22:00:00,1426A,106.4782,29.4875,重庆市,新山村,颗粒物(PM10),56,62,66,36,44,177,87,138,108,32,36,11,8,0.6,0.6
2023-08-18T22:00:00,1427A,106.5616,29.6453,重庆市,礼嘉,,40,40,63,22,33,221,90,147,102,25,49,7,9,0.9,1
2023-08-18T22:00:00,1428A,106.4522,29.7091,重庆市,蔡家,,45,45,66,28,34,190,59,143,98,37,32,6,6,0.8,0.9
2023-08-18T22:00:00,1429A,106.5093,29.3917,重庆市,鱼新街,,36,33,59,25,40,195,69,157,119,27,37,6,9,1.0,1.1
2023-08-18T22:00:00,1431A,103.9728,30.7236,成都市,金泉两河,,40,40,46,2,22,124,32,95,89,29,19,4,5,0.5,0.5
2023-08-18T22:00:00,1432A,104.176,30.6872,成都市,十里店,,50,50,53,28,26,118,62,101,98,24,24,4,6,0.5,0.5
2023-08-18T22:00:00,1433A,104.079,30.5706,成都市,三瓦窑,,49,49,53,27,28,122,77,105,105,20,33,1,2,0.3,0.4
2023-08-18T22:00:00,1434A,104.1114,30.63,成都市,沙河铺,颗粒物(PM10),53,55,58,24,30,118,73,102,102,17,30,3,4,0.4,0.5
2023-08-18T22:00:00,1437A,104.0786,30.6531,成都市,君平街,颗粒物(PM10),63,75,59,40,34,133,64,113,110,26,26,1,3,0.6,0.6
2023-08-18T22:00:00,1438A,103.613,31.0283,成都市,灵岩寺,,44,44,27,22,17,87,67,78,74,5,6,18,15,0.7,0.7
2023-08-18T22:00:00,1439A,106.6899,26.5998,贵阳市,马鞍山,,25,22,26,9,10,111,77,106,99,12,13,5,5,0.5,0.6
2023-08-18T22:00:00,1440A,106.6971,26.5694,贵阳市,市环保站,,36,36,34,20,23,118,100,113,110,28,24,3,3,0.3,0.3
2023-08-18T22:00:00,1441A,106.6243,26.6266,贵阳市,鉴湖路,,34,34,27,9,12,111,102,105,105,14,17,4,4,0.6,0.6
2023-08-18T22:00:00,1442A,106.7487,26.6343,贵阳市,燕子冲,,32,22,24,14,15,112,100,104,104,8,15,5,5,0.5,0.6
2023-08-18T22:00:00,1443A,106.6555,26.4365,贵阳市,碧云窝,,31,31,36,19,17,122,56,111,96,8,14,6,5,0.9,0.5
2023-08-18T22:00:00,1444A,106.694,26.5161,贵阳市,中院村,,41,41,34,22,17,106,49,92,82,22,20,5,6,0.4,0.4
2023-08-18T22:00:00,1445A,106.7109,26.6027,贵阳市,红边门,,36,36,32,22,23,111,92,105,102,18,21,6,6,0.7,0.6
2023-08-18T22:00:00,1446A,106.7164,26.5699,贵阳市,新华路,,44,44,33,22,19,114,84,108,104,25,17,8,6,0.3,0.5
2023-08-18T22:00:00,1447A,106.674,26.5424,贵阳市,太慈桥,,32,31,19,22,11,109,40,102,90,41,15,4,4,0.7,0.6
2023-08-18T22:00:00,1450A,102.8204,24.8886,昆明市,呈贡新区,,,21,44,12,25,114,,108,108,22,32,6,8,0.6,0.7
2023-08-18T22:00:00,1451A,102.6251,24.9608,昆明市,西山森林公园,,43,14,20,27,14,154,136,135,135,4,14,6,8,0.1,0.5
2023-08-18T22:00:00,1452A,102.7252,25.0902,昆明市,龙泉镇,,,9,25,12,14,138,,115,115,13,14,8,11,0.6,0.7
2023-08-18T22:00:00,1453A,102.7266,25.0375,昆明市,东风东路,,29,19,34,11,16,132,91,110,109,20,29,8,7,0.5,0.5
2023-08-18T22:00:00,1454A,102.6742,25.0669,昆明市,金鼎山,,26,15,46,10,17,134,81,109,108,18,16,7,19,0.5,0.6
2023-08-18T22:00:00,1455A,102.6644,25.0401,昆明市,碧鸡广场,,29,21,40,11,24,149,92,122,120,22,25,6,27,0.7,0.8
2023-08-18T22:00:00,1456A,91.1319,29.6514,拉萨市,八廓街,,21,21,16,6,7,111,67,106,101,28,20,7,7,0.4,0.2
2023-08-18T22:00:00,1457A,91.1221,29.6747,拉萨市,市环保局,,25,15,12,8,6,106,78,100,96,15,13,7,6,0.2,0.2
2023-08-18T22:00:00,1458A,91.0874,29.6475,拉萨市,区监测站,,23,16,9,5,6,102,73,98,92,29,13,9,8,0.2,0.2
2023-08-18T22:00:00,1459A,91.1774,29.6541,拉萨市,西藏大学,,24,20,11,8,7,111,75,102,96,24,10,7,10,0.3,0.3
2023-08-18T22:00:00,1460A,90.9798,29.6588,拉萨市,区辐射站,,22,19,11,7,6,97,69,94,89,22,10,11,10,0.2,0.1
2023-08-18T22:00:00,1461A,91.0834,29.6292,拉萨市,拉萨火车站,,27,19,15,6,5,99,84,97,96,13,9,12,11,0.2,0.2
2023-08-18T22:00:00,1462A,108.882,34.2749,西安市,高压开关厂,颗粒物(PM10),60,70,81,20,24,130,67,117,112,53,30,9,13,0.6,0.5
2023-08-18T22:00:00,1463A,108.993,34.2629,西安市,兴庆小区,颗粒物(PM10),64,77,64,24,24,124,55,115,109,35,21,9,8,0.6,0.6
2023-08-18T22:00:00,1464A,109.06,34.2572,西安市,纺织城,颗粒物(PM10),65,80,78,34,26,130,24,112,99,74,33,4,4,0.6,0.5
2023-08-18T22:00:00,1465A,108.9356,34.2173,西安市,小寨,颗粒物(PM10),60,69,82,16,20,124,57,114,108,41,17,8,9,0.4,0.4
2023-08-18T22:00:00,1466A,108.954,34.2713,西安市,市人民体育场,颗粒物(PM10),54,58,71,23,27,118,78,109,107,35,22,7,8,0.6,0.5
2023-08-18T22:00:00,1467A,108.8922,34.2322,西安市,高新西区,颗粒物(PM10),54,58,62,21,26,129,83,117,114,28,19,8,10,0.5,0.5
2023-08-18T22:00:00,1468A,108.935,34.3474,西安市,经开区,颗粒物(PM10),60,70,70,23,25,128,86,112,111,30,19,5,5,0.5,0.4
2023-08-18T22:00:00,1469A,108.906,34.1546,西安市,长安区,颗粒物(PM10),55,59,78,29,28,135,56,119,106,27,18,6,7,0.6,0.3
2023-08-18T22:00:00,1471A,109.2186,34.3731,西安市,临潼区,颗粒物(PM10),69,88,72,25,29,131,117,122,122,18,17,7,7,0.5,0.4
2023-08-18T22:00:00,1472A,108.869,34.378,西安市,草滩,颗粒物(PM10),70,90,69,21,12,129,39,109,101,92,45,13,19,0.5,0.4
2023-08-18T22:00:00,1473A,108.985,34.1978,西安市,曲江文化产业集团,颗粒物(PM10),66,81,70,25,21,123,32,112,100,59,26,6,7,0.6,0.4
2023-08-18T22:00:00,1474A,109.051,34.3213,西安市,广运潭,颗粒物(PM10),56,62,68,24,27,128,58,108,103,29,22,9,9,0.5,0.5
2023-08-18T22:00:00,1476A,103.631,36.1031,兰州市,兰炼宾馆,细颗粒物(PM2.5),62,69,56,44,34,172,40,162,138,91,35,5,9,0.9,0.5
2023-08-18T22:00:00,1477A,104.1373,35.9454,兰州市,榆中兰大校区,,,,,,,,,,,,,,,,
2023-08-18T22:00:00,1478A,103.8412,36.0726,兰州市,生物制品所,"颗粒物(PM10),细颗粒物(PM2.5)",55,59,59,39,32,156,43,139,120,48,45,4,9,0.5,0.8
2023-08-18T22:00:00,1479A,103.831,36.0464,兰州市,铁路设计院,二氧化氮,71,72,54,42,29,166,10,140,112,141,52,7,13,1.1,0.9
2023-08-18T22:00:00,1483A,101.524,36.6867,西宁市,第五水厂,,,,,,,,,,,,,,,,
2023-08-18T22:00:00,1484A,105.9512,38.6016,银川市,贺兰山马莲口,,44,26,21,20,10,185,140,160,159,6,8,12,10,0.2,0.1
2023-08-18T22:00:00,1488A,106.2328,38.4975,银川市,贺兰山东路,颗粒物(PM10),59,67,49,27,20,165,102,153,146,45,30,11,15,0.6,0.6
2023-08-18T22:00:00,1489A,106.1358,38.5036,银川市,学院路,,48,48,55,16,20,176,72,157,138,45,34,13,16,0.7,0.6
2023-08-18T22:00:00,1490A,87.5801,43.8303,乌鲁木齐市,监测站,,,,54,,14,139,,130,130,52,51,4,5,0.7,0.8
2023-08-18T22:00:00,1491A,87.6046,43.768,乌鲁木齐市,收费所,,30,30,44,11,16,147,58,128,121,57,41,8,6,0.5,0.3
2023-08-18T22:00:00,1492A,87.4754,43.9469,乌鲁木齐市,新疆农科院农场,,50,50,27,10,19,118,84,110,109,20,24,4,7,0.4,0.4
2023-08-18T22:00:00,1493A,87.5525,43.8711,乌鲁木齐市,铁路局,,43,43,61,11,18,136,81,125,120,35,44,4,5,0.5,0.6
2023-08-18T22:00:00,1494A,87.6432,43.831,乌鲁木齐市,三十一中学,,25,23,46,12,13,130,77,120,114,41,38,5,5,0.6,0.6
2023-08-18T22:00:00,1496A,87.7216,44.1747,乌鲁木齐市,米东区环保局,,30,16,46,15,22,118,93,114,112,26,22,5,8,0.3,0.4
2023-08-18T22:00:00,1508A,112.9433,27.8614,湘潭市,板塘,颗粒物(PM10),53,56,55,36,34,221,124,190,178,14,25,4,4,0.7,0.7
2023-08-18T22:00:00,1511A,112.9118,27.8403,湘潭市,市监测站,颗粒物(PM10),51,51,50,26,25,228,135,193,180,15,19,4,4,0.9,0.8
2023-08-18T22:00:00,1512A,112.8937,27.8728,湘潭市,江麓,颗粒物(PM10),51,52,55,28,25,213,141,192,175,10,18,4,6,0.3,0.5
2023-08-18T22:00:00,1513A,112.9227,27.8159,湘潭市,岳塘,,49,49,58,29,28,208,130,180,172,13,21,4,5,0.6,0.4
2023-08-18T22:00:00,1514A,112.9074,27.9119,湘潭市,科大,颗粒物(PM10),60,69,63,27,27,211,115,185,162,17,20,4,5,0.5,0.6
2023-08-18T22:00:00,1515A,113.135,27.8244,株洲市,天台山庄,颗粒物(PM10),59,68,53,28,27,190,126,177,164,18,18,4,6,0.6,0.6
2023-08-18T22:00:00,1518A,113.095,27.8867,株洲市,株冶医院,颗粒物(PM10),61,71,53,40,28,188,54,163,139,68,26,5,4,1.6,0.9
2023-08-18T22:00:00,1519A,113.167,27.8667,株洲市,市四中,细颗粒物(PM2.5),64,75,59,46,33,182,107,166,150,24,20,7,7,0.6,0.6
2023-08-18T22:00:00,1520A,113.143,27.8381,株洲市,火车站,颗粒物(PM10),60,69,59,42,31,185,132,174,155,19,23,11,14,0.6,0.7
2023-08-18T22:00:00,1524A,113.13,27.8528,株洲市,市监测站,颗粒物(PM10),61,71,53,35,31,180,117,171,157,19,22,6,5,1.0,0.8
2023-08-18T22:00:00,1552A,106.805,26.3003,贵阳市,桐木岭,,,,,,,,,,,,,,,,
2023-08-18T22:00:00,1559A,113.251,27.8336,株洲市,大京风景区,,50,50,44,30,25,156,53,138,105,5,4,9,7,0.6,0.5
2023-08-18T22:00:00,1562A,113.0048,27.9153,湘潭市,昭山,颗粒物(PM10),62,73,53,33,29,223,105,187,167,25,34,5,4,0.7,0.7
2023-08-18T22:00:00,1564A,112.4876,27.9164,湘潭市,韶山,,48,48,43,25,20,158,84,148,130,9,8,6,6,0.3,0.3
2023-08-18T22:00:00,1585A,109.8756,40.6532,包头市,市环境监测站,,38,38,60,16,22,165,83,137,122,41,36,6,15,0.5,0.7
2023-08-18T22:00:00,1587A,109.9991,40.5842,包头市,包头八中,颗粒物(PM10),64,77,75,18,29,157,28,142,110,91,33,17,18,0.7,0.8
2023-08-18T22:00:00,1588A,109.8538,40.6821,包头市,青山宾馆,,38,38,52,6,21,156,109,136,121,20,33,2,11,0.4,0.8
2023-08-18T22:00:00,1589A,109.8642,40.6288,包头市,惠龙物流,,34,33,64,8,22,157,106,140,130,26,35,7,20,0.4,0.7
2023-08-18T22:00:00,1590A,110.0377,40.5546,包头市,东河鸿龙湾,,49,49,69,19,24,154,41,144,121,70,23,22,17,0.8,0.7
2023-08-18T22:00:00,1591A,110.0023,39.8129,鄂尔多斯市,综合楼,,46,46,53,17,14,136,106,131,123,33,30,14,15,0.5,0.6
2023-08-18T22:00:00,1592A,109.9486,39.8261,鄂尔多斯市,巴音孟克林场办事处,颗粒物(PM10),63,75,45,22,14,151,35,144,117,102,39,7,10,0.8,0.6
2023-08-18T22:00:00,1593A,109.7736,39.5986,鄂尔多斯市,康泽苑,,41,41,37,9,12,134,74,130,120,30,11,7,8,0.5,0.4
2023-08-18T22:00:00,1594A,109.8119,39.5989,鄂尔多斯市,华泰汽车城,,41,41,40,14,14,132,58,125,106,58,26,5,6,0.8,0.6
2023-08-18T22:00:00,1595A,109.9734,39.7884,鄂尔多斯市,奥林花园,颗粒物(PM10),53,56,53,17,16,133,52,129,110,61,40,7,7,0.7,0.6
2023-08-18T22:00:00,1597A,122.2703,40.7094,营口市,大庆路,,49,41,41,34,37,178,146,162,162,7,13,4,7,0.8,0.9
2023-08-18T22:00:00,1598A,122.2150,40.6511,营口市,镜湖西路,细颗粒物(PM2.5),52,45,44,36,31,188,151,166,165,10,10,4,5,0.8,0.8
2023-08-18T22:00:00,1599A,122.1658,40.6789,营口市,西炮台,,49,44,45,27,26,196,156,171,171,8,11,5,6,0.7,0.8
2023-08-18T22:00:00,1600A,124.3303,40.0625,丹东市,江湾东路,,25,25,27,17,17,98,23,88,58,14,10,5,5,0.8,0.8
2023-08-18T22:00:00,1601A,124.4256,40.1503,丹东市,临江后街,,35,35,25,16,12,99,26,90,67,13,7,4,5,1.0,0.7
2023-08-18T22:00:00,1602A,124.3933,40.1461,丹东市,元宝山,,20,20,25,11,15,96,43,84,59,7,9,6,7,0.8,0.9
2023-08-18T22:00:00,1603A,124.3633,40.1092,丹东市,民主桥,,24,24,25,14,15,103,17,92,63,20,11,3,4,0.8,0.8
2023-08-18T22:00:00,1604A,122.0303,41.1489,盘锦市,开发区,,48,44,40,33,27,156,87,148,129,24,11,3,3,0.9,0.9
2023-08-18T22:00:00,1605A,122.0485,41.0883,盘锦市,兴隆台,,36,36,39,23,28,158,95,148,125,32,20,4,3,0.7,0.7
2023-08-18T22:00:00,1606A,121.8297,41.1028,盘锦市,新生街道,,39,37,37,27,25,156,59,149,114,21,13,4,5,0.6,0.7
2023-08-18T22:00:00,1607A,120.9092,40.7136,葫芦岛市,龙港区,细颗粒物(PM2.5),55,46,39,39,33,159,146,138,138,4,2,5,5,0.7,0.7
2023-08-18T22:00:00,1608A,120.8392,40.7514,葫芦岛市,化工街,细颗粒物(PM2.5),53,48,40,37,28,137,132,125,125,2,4,5,5,0.7,0.8
2023-08-18T22:00:00,1609A,120.8341,40.7073,葫芦岛市,新区,细颗粒物(PM2.5),64,50,37,46,33,135,127,122,122,6,3,5,4,0.8,0.8
2023-08-18T22:00:00,1610A,120.8695,40.7677,葫芦岛市,东城区,细颗粒物(PM2.5),52,46,39,36,27,141,123,125,125,19,11,7,6,0.8,0.7
2023-08-18T22:00:00,1611A,118.5819,24.9117,泉州市,涂山街,,27,18,31,8,12,161,86,133,110,11,12,4,4,0.8,0.9
2023-08-18T22:00:00,1612A,118.5972,24.8978,泉州市,津头埔,,27,12,29,7,18,161,85,134,112,12,17,4,4,0.6,0.7
2023-08-18T22:00:00,1613A,118.6663,24.9424,泉州市,万安,,25,12,29,2,17,154,80,138,115,10,16,2,3,0.5,0.6
2023-08-18T22:00:00,1614A,118.6117,24.9604,泉州市,清源山,,,,,,,,,,,,,,,,
2023-08-18T22:00:00,1616A,117.6795,36.229,济南市,技术学院,颗粒物(PM10),60,70,65,37,38,204,85,177,136,48,27,7,9,1.1,1.1
2023-08-18T22:00:00,1618A,118.3429,35.0532,临沂市,沂河小区,颗粒物(PM10),52,53,49,32,29,171,94,158,138,40,21,26,10,0.4,0.4
2023-08-18T22:00:00,1619A,118.295,35.0583,临沂市,鲁南制药厂,颗粒物(PM10),51,51,45,25,25,184,104,170,154,20,16,13,8,0.3,0.4
2023-08-18T22:00:00,1620A,118.2794,34.9976,临沂市,新光毛纺厂,,36,36,42,25,27,166,100,154,135,20,22,9,9,0.5,0.6
2023-08-18T22:00:00,1621A,118.3956,35.0888,临沂市,河东保险公司,,,48,42,25,24,156,,146,133,23,19,4,5,0.3,0.5
2023-08-18T22:00:00,1622A,116.3032,37.4674,德州市,儿童乐园,,39,39,42,19,24,152,104,139,128,18,16,7,7,0.8,0.8
2023-08-18T22:00:00,1624A,116.2991,37.4451,德州市,监理站,,32,28,40,22,27,140,92,129,116,26,21,7,7,0.6,0.6
2023-08-18T22:00:00,1625A,115.9848,36.4372,聊城市,区政府,,36,35,51,25,34,198,66,161,119,26,18,1,4,0.6,0.6
2023-08-18T22:00:00,1628A,118.0062,37.3803,滨州市,市环保局,,42,39,63,29,42,197,110,157,139,12,13,3,12,0.4,0.7
2023-08-18T22:00:00,1629A,118.0018,37.3617,滨州市,第二水厂,,48,48,62,33,43,198,79,165,139,31,16,6,11,0.7,0.8
2023-08-18T22:00:00,1630A,117.9776,37.393,滨州市,北中新校,,49,42,71,34,45,179,101,152,136,17,13,2,8,0.5,0.7
2023-08-18T22:00:00,1631A,118.0414,36.8103,淄博市,人民公园,细颗粒物(PM2.5),62,66,88,44,51,248,162,193,165,23,39,20,18,0.7,0.7
2023-08-18T22:00:00,1633A,117.8525,36.4847,淄博市,双山,颗粒物(PM10),51,51,56,32,36,192,82,166,135,33,24,11,13,0.7,0.8
2023-08-18T22:00:00,1634A,117.9592,36.6331,淄博市,气象站,颗粒物(PM10),76,101,72,51,46,207,66,188,145,61,27,19,11,0.7,0.7
2023-08-18T22:00:00,1635A,118.3092,36.8194,淄博市,莆田园,细颗粒物(PM2.5),58,48,80,41,52,263,144,212,164,24,29,10,15,0.7,1.3
2023-08-18T22:00:00,1637A,117.558,34.8438,枣庄市,市中区政府,颗粒物(PM10),63,75,54,41,29,174,91,159,143,38,25,18,18,0.5,0.4
2023-08-18T22:00:00,1638A,117.2852,34.7837,枣庄市,薛城环保局,颗粒物(PM10),57,63,56,36,29,187,83,163,119,45,30,10,11,0.5,0.7
2023-08-18T22:00:00,1639A,117.5852,34.7745,枣庄市,峄城区政府,,,88,48,53,24,175,,157,156,28,18,6,11,0.6,0.6
2023-08-18T22:00:00,1640A,117.7276,34.5578,枣庄市,台儿庄区环保局,颗粒物(PM10),57,63,38,39,21,163,72,143,117,31,19,7,7,0.7,0.7
2023-08-18T22:00:00,1641A,117.4518,35.0992,枣庄市,山亭区环保局,,42,39,34,29,27,188,85,161,122,18,13,7,9,0.5,0.4
2023-08-18T22:00:00,1642A,121.2514,37.5639,烟台市,开发区,颗粒物(PM10),52,53,45,31,30,217,103,183,143,26,17,4,5,1.0,1.1
2023-08-18T22:00:00,1643A,121.3719,37.5433,烟台市,轴承厂,,35,34,40,24,29,186,111,179,152,8,9,5,6,0.4,0.5
2023-08-18T22:00:00,1644A,121.3181,37.5436,烟台市,西郊化工站,,36,31,39,25,28,183,110,175,149,9,11,5,5,0.2,0.3
2023-08-18T22:00:00,1645A,121.4478,37.4822,烟台市,莱山环保局,,36,36,32,20,23,183,96,175,146,13,9,4,6,0.6,0.7
2023-08-18T22:00:00,1646A,121.2611,37.4967,烟台市,福山环保局,,41,41,52,17,22,170,99,162,134,16,22,4,6,0.6,0.7
2023-08-18T22:00:00,1650A,119.1437,36.7023,潍坊市,环保局,颗粒物(PM10),54,58,54,29,37,216,132,205,184,20,18,10,9,0.9,0.7
2023-08-18T22:00:00,1653A,116.6251,35.4302,济宁市,火炬城,,49,49,55,27,32,178,96,155,123,17,14,7,8,0.7,0.8
2023-08-18T22:00:00,1655A,116.5491,35.4042,济宁市,电化厂,细颗粒物(PM2.5),67,76,54,48,30,174,82,153,115,22,12,9,8,0.8,0.8
2023-08-18T22:00:00,1656A,117.1437,36.1937,泰安市,监测站,细颗粒物(PM2.5),72,78,66,52,45,212,89,177,137,21,14,9,9,0.8,0.6
2023-08-18T22:00:00,1657A,117.0885,36.2017,泰安市,人口学校,细颗粒物(PM2.5),55,56,54,39,30,207,112,170,140,14,13,7,9,0.6,0.6
2023-08-18T22:00:00,1658A,117.1089,36.1758,泰安市,电力学校,细颗粒物(PM2.5),63,70,61,45,36,217,98,184,147,17,15,7,5,0.9,0.4
2023-08-18T22:00:00,1659A,119.471,35.4209,日照市,监测站,,44,44,37,26,22,168,78,134,108,32,31,6,6,0.8,1.2
2023-08-18T22:00:00,1660A,119.523,35.4216,日照市,市政府广场,,35,34,36,16,18,165,111,152,133,11,24,8,13,0.7,0.9
2023-08-18T22:00:00,1661A,119.5587,35.4044,日照市,港务局,,39,39,40,23,19,162,110,142,128,10,23,7,10,0.8,0.9
2023-08-18T22:00:00,1662A,122.1214,37.4236,威海市,华夏技校,,32,22,38,20,30,182,100,162,116,13,13,5,5,0.4,0.5
2023-08-18T22:00:00,1663A,122.0508,37.5236,威海市,山大分校,,39,29,39,17,25,192,122,180,142,4,6,7,7,0.5,0.6
2023-08-18T22:00:00,1664A,122.1067,37.5072,威海市,市监测站,,38,24,41,24,33,170,119,152,117,7,13,7,7,0.6,0.8
2023-08-18T22:00:00,1666A,118.6614,37.4309,东营市,市环保局,,49,41,51,34,41,211,141,187,166,9,10,7,7,0.5,0.5
2023-08-18T22:00:00,1669A,113.5824,24.7733,韶关市,市八中,,45,45,42,18,21,123,109,113,105,20,17,12,11,0.8,0.7
2023-08-18T22:00:00,1671A,113.5917,24.7972,韶关市,园林处,细颗粒物(PM2.5),53,35,35,37,21,127,71,118,102,17,13,11,11,0.9,0.8
2023-08-18T22:00:00,1672A,113.6735,24.7791,韶关市,韶关学院,,40,40,40,23,20,120,41,108,83,11,8,7,10,0.7,0.6
2023-08-18T22:00:00,1673A,113.5971,24.6863,韶关市,曲江监测站,颗粒物(PM10),51,52,42,29,24,166,82,125,98,10,13,8,9,0.6,0.7
2023-08-18T22:00:00,1674A,116.6794,23.3667,汕头市,金平子站,,36,14,26,19,15,175,115,150,138,10,16,5,8,0.7,0.9
2023-08-18T22:00:00,1675A,116.7244,23.3633,汕头市,龙湖子站,,40,23,25,14,13,189,126,170,158,10,15,5,6,0.7,0.9
2023-08-18T22:00:00,1676A,116.7258,23.2775,汕头市,濠江子站,,26,14,24,14,12,187,83,162,141,15,10,10,10,0.8,0.9
2023-08-18T22:00:00,1677A,116.7519,23.4714,汕头市,澄海子站,,44,39,22,20,13,148,138,139,138,13,14,5,7,0.8,0.8
2023-08-18T22:00:00,1678A,116.6092,23.2539,汕头市,潮阳子站,,29,24,22,8,5,164,91,134,121,15,11,9,9,0.7,0.7
2023-08-18T22:00:00,1680A,110.3539,21.2706,湛江市,湛江影剧院,,31,31,28,12,15,74,44,72,63,17,10,7,12,0.6,0.6
2023-08-18T22:00:00,1681A,110.3928,21.2228,湛江市,市环境监测站,,38,38,32,15,18,68,45,65,56,16,11,25,18,0.6,0.6
2023-08-18T22:00:00,1682A,110.4019,21.1997,湛江市,环保局宿舍,,29,29,29,15,18,73,41,70,62,18,9,17,14,0.5,0.5
2023-08-18T22:00:00,1683A,110.4111,21.2028,湛江市,霞山游泳场,,34,34,35,14,17,73,47,70,64,16,9,14,13,0.6,0.6
2023-08-18T22:00:00,1684A,110.3316,21.2679,湛江市,麻章区环保局,,37,37,35,15,18,71,43,68,60,15,11,9,9,0.7,0.7
2023-08-18T22:00:00,1685A,110.4558,21.2567,湛江市,坡头区环保局,,36,36,25,14,17,76,37,73,62,23,17,12,9,0.5,0.4
2023-08-18T22:00:00,1686A,111.0286,21.4688,茂名市,电白南海,,32,27,36,22,23,117,93,102,95,8,9,6,7,0.6,0.6
2023-08-18T22:00:00,1687A,110.9294,21.6533,茂名市,茂石化七小,颗粒物(PM10),59,68,40,34,25,89,59,84,73,16,10,5,10,0.6,0.6
2023-08-18T22:00:00,1688A,110.9107,21.6687,茂名市,健康路,颗粒物(PM10),53,56,33,34,15,91,67,86,76,13,8,4,8,0.5,0.4
2023-08-18T22:00:00,1689A,110.8592,21.6828,茂名市,高岭,颗粒物(PM10),57,63,46,31,25,89,45,81,66,25,13,6,14,0.8,0.6
2023-08-18T22:00:00,1690A,116.1231,24.3284,梅州市,梅江月梅,,23,19,21,15,11,111,71,91,84,14,10,6,2,0.8,0.7
2023-08-18T22:00:00,1691A,116.0797,24.2719,梅州市,梅县新城,,26,24,26,18,14,124,42,105,87,26,14,3,4,0.9,0.8
2023-08-18T22:00:00,1692A,116.1248,24.2654,梅州市,环境监控中心,,20,18,24,14,14,125,44,101,87,22,11,6,8,0.7,0.6
2023-08-18T22:00:00,1693A,115.3653,22.775,汕尾市,市环保局,,23,12,26,10,14,108,72,98,91,16,14,2,2,0.7,0.7
2023-08-18T22:00:00,1694A,115.3706,22.7898,汕尾市,市政府,,15,11,22,10,15,112,21,104,89,11,11,4,5,0.7,0.7
2023-08-18T22:00:00,1695A,115.3622,22.7925,汕尾市,新城中学,,18,18,26,9,12,107,54,95,86,14,10,6,6,0.7,0.7
2023-08-18T22:00:00,1696A,114.6778,23.7569,河源市,源西,,37,37,45,24,24,120,63,101,93,8,14,4,4,0.9,0.8
2023-08-18T22:00:00,1697A,114.6944,23.7586,河源市,东埔,,48,46,45,33,23,110,70,90,83,12,17,5,5,0.6,0.6
2023-08-18T22:00:00,1698A,114.6892,23.7233,河源市,老城,,50,50,47,16,17,130,70,101,95,12,12,4,4,0.8,0.7
2023-08-18T22:00:00,1699A,111.9797,21.8593,阳江市,鸳鸯湖,,36,28,35,25,19,106,103,100,100,6,10,8,7,0.7,0.8
2023-08-18T22:00:00,1701A,111.9491,21.8658,阳江市,马南垌,,35,30,36,24,22,105,93,94,92,7,11,5,8,0.6,0.6
2023-08-18T22:00:00,1702A,113.0426,23.691,清远市,环保大楼,,18,16,36,7,27,129,57,113,87,15,18,7,8,0.5,0.5
2023-08-18T22:00:00,1703A,113.0208,23.7106,清远市,凤城街办,,26,26,48,15,27,122,52,100,75,14,16,4,5,0.7,0.6
2023-08-18T22:00:00,1705A,116.6367,23.6719,潮州市,西园路,,31,8,19,12,11,133,99,115,115,12,8,5,5,0.5,0.3
2023-08-18T22:00:00,1706A,116.6447,23.6706,潮州市,档案局,,32,26,18,17,8,137,102,118,118,10,6,8,6,0.4,0.4
2023-08-18T22:00:00,1708A,116.3701,23.5345,揭阳市,新兴,,24,21,29,15,16,172,74,130,115,16,12,10,9,1.3,0.8
2023-08-18T22:00:00,1709A,116.3264,23.5443,揭阳市,西马,,28,28,31,14,16,174,77,127,120,13,12,7,7,1.2,0.9
2023-08-18T22:00:00,1710A,116.3611,23.5626,揭阳市,东兴,,45,45,31,14,13,170,83,123,117,16,15,4,4,1.1,0.9
2023-08-18T22:00:00,1711A,116.4151,23.5294,揭阳市,渔湖,,46,46,38,15,14,176,82,129,122,14,11,6,8,1.1,0.7
2023-08-18T22:00:00,1712A,112.0392,22.9169,云浮市,新市府,,33,33,26,15,16,67,29,60,45,8,5,5,4,0.7,0.6
2023-08-18T22:00:00,1714A,112.0539,22.9539,云浮市,牧羊,,46,46,40,18,18,66,5,49,29,34,23,13,17,0.6,0.6
2023-08-18T22:00:00,1715A,102.575,24.3711,玉溪市,东风水库,,33,33,24,19,12,99,51,84,76,18,15,7,6,1.1,1.1
2023-08-18T22:00:00,1718A,115.4208,35.2464,菏泽市,气象局,,48,41,66,33,37,215,65,173,143,11,8,2,4,0.6,0.5
2023-08-18T22:00:00,1719A,115.4747,35.2375,菏泽市,市政协,细颗粒物(PM2.5),54,45,62,38,39,196,89,174,145,15,18,3,6,0.5,0.5
2023-08-18T22:00:00,1721A,113.3819,40.1097,大同市,果树场,,,,,,,,,,,,,,,,
2023-08-18T22:00:00,1723A,113.2994,40.0758,大同市,云冈宾馆,颗粒物(PM10),56,61,45,18,18,141,45,136,116,68,24,12,10,0.6,0.8
2023-08-18T22:00:00,1724A,113.3444,40.0917,大同市,大同大学,颗粒物(PM10),60,70,40,33,17,140,29,134,116,81,20,9,9,0.7,0.7
2023-08-18T22:00:00,1725A,113.2661,40.1269,大同市,安家小村,颗粒物(PM10),53,56,42,11,14,140,82,133,122,24,15,12,11,0.3,0.6
2023-08-18T22:00:00,1726A,113.2711,40.0844,大同市,教育学院,颗粒物(PM10),54,58,47,20,18,138,67,128,110,47,28,16,13,0.6,0.7
2023-08-18T22:00:00,1727A,113.1147,36.1547,长治市,清华站,颗粒物(PM10),52,53,67,29,34,184,124,160,145,12,15,8,10,1.4,1.1
2023-08-18T22:00:00,1728A,113.1031,36.1989,长治市,监测站,颗粒物(PM10),52,54,62,34,35,172,134,162,153,13,20,4,5,1.4,1.1
2023-08-18T22:00:00,1730A,113.0886,36.2125,长治市,审计局,颗粒物(PM10),53,56,59,36,36,161,132,150,146,4,12,6,6,1.5,1.1
2023-08-18T22:00:00,1731A,113.0844,36.1856,长治市,长治八中,细颗粒物(PM2.5),57,59,74,40,32,167,118,156,146,15,16,9,10,1.4,1.1
2023-08-18T22:00:00,1733A,111.5531,36.0783,临汾市,临钢医院,颗粒物(PM10),113,175,220,52,62,158,90,129,127,27,17,16,11,,0.9
2023-08-18T22:00:00,1734A,111.5028,36.0714,临汾市,技工学校,颗粒物(PM10),108,165,254,51,69,177,90,145,141,34,23,17,14,1.1,0.8
2023-08-18T22:00:00,1736A,111.5018,36.0855,临汾市,市委,颗粒物(PM10),106,161,258,58,76,156,84,129,126,32,22,15,12,1.0,0.7
2023-08-18T22:00:00,1738A,113.5758,37.8572,阳泉市,市中心,颗粒物(PM10),102,153,86,51,32,141,54,131,118,44,29,10,10,1.0,0.9
2023-08-18T22:00:00,1739A,113.4894,37.8731,阳泉市,赛鱼,颗粒物(PM10),94,137,84,44,32,127,18,121,92,57,34,7,7,0.8,0.7
2023-08-18T22:00:00,1740A,113.5819,37.8486,阳泉市,南庄,颗粒物(PM10),127,204,110,51,29,144,68,134,121,25,21,9,10,0.9,0.8
2023-08-18T22:00:00,1742A,113.5614,37.8703,阳泉市,平坦,颗粒物(PM10),118,185,95,57,33,143,45,132,118,68,36,11,9,0.9,0.7
2023-08-18T22:00:00,1743A,113.5158,37.8392,阳泉市,大阳泉,颗粒物(PM10),109,167,75,51,36,144,122,132,131,14,14,12,10,0.8,0.7
2023-08-18T22:00:00,1744A,118.9233,42.2816,赤峰市,松山一中,,36,36,30,10,10,116,54,108,90,41,19,53,12,0.6,0.2
2023-08-18T22:00:00,1745A,118.9576,42.2728,赤峰市,哈达街,颗粒物(PM10),58,66,32,31,10,113,69,104,83,36,23,30,22,0.3,0.2
2023-08-18T22:00:00,1746A,118.8788,42.2554,赤峰市,天义路,,38,38,29,21,13,130,94,121,102,21,16,22,18,0.3,0.2
2023-08-18T22:00:00,1748A,123.044,41.1196,鞍山市,深沟寺,,48,48,36,31,22,164,52,150,119,18,11,2,3,1.0,1
2023-08-18T22:00:00,1749A,123.011,41.0931,鞍山市,太阳城,颗粒物(PM10),52,53,40,33,24,177,62,156,131,27,15,2,3,1.2,1.1
2023-08-18T22:00:00,1750A,123.0485,41.1442,鞍山市,太平,颗粒物(PM10),73,95,51,40,26,171,61,153,122,39,19,7,7,1.2,1.1
2023-08-18T22:00:00,1751A,122.9642,41.0971,鞍山市,铁西三道街,细颗粒物(PM2.5),65,66,50,47,28,176,86,158,137,31,19,5,6,1.1,1.1
2023-08-18T22:00:00,1752A,122.9341,41.0833,鞍山市,铁西工业园区,细颗粒物(PM2.5),70,81,51,51,30,175,26,160,120,59,22,4,5,1.2,1.1
2023-08-18T22:00:00,1753A,123.022,41.0821,鞍山市,明达新区,颗粒物(PM10),53,55,45,36,26,164,74,147,124,21,18,4,4,0.9,0.9
2023-08-18T22:00:00,1754A,123.1289,41.0228,鞍山市,千山,,,,,,,,,,,,,,,,
2023-08-18T22:00:00,1755A,123.7977,41.8491,抚顺市,望花区,,45,34,45,31,26,164,71,142,122,26,24,8,7,0.9,0.8
2023-08-18T22:00:00,1756A,123.9161,41.8822,抚顺市,顺城区,,32,27,38,22,22,154,50,140,118,29,20,4,5,0.8,0.7
2023-08-18T22:00:00,1757A,124.0436,41.8611,抚顺市,东洲区,,25,16,32,8,18,140,77,120,111,7,8,5,5,0.5,0.6
2023-08-18T22:00:00,1758A,123.9247,41.8642,抚顺市,新抚区,,29,29,38,13,19,150,73,137,118,14,18,5,5,0.6,0.8
2023-08-18T22:00:00,1759A,124.0972,41.8961,抚顺市,大伙房水库,,26,10,25,4,15,136,82,120,115,4,8,5,5,0.4,0.6
2023-08-18T22:00:00,1760A,123.7086,41.8391,抚顺市,沈抚新城,,30,30,41,17,19,166,79,133,120,10,16,5,8,1.0,0.9
2023-08-18T22:00:00,1761A,123.8275,41.3064,本溪市,大峪,,39,39,38,14,18,98,73,91,87,12,14,4,4,1.0,0.8
2023-08-18T22:00:00,1762A,123.7567,41.3325,本溪市,溪湖,颗粒物(PM10),51,51,46,34,24,87,32,83,74,41,23,6,8,2.5,1.7
2023-08-18T22:00:00,1763A,123.7169,41.3094,本溪市,彩屯,颗粒物(PM10),51,51,47,33,26,101,53,73,71,23,26,6,6,1.6,2.2
2023-08-18T22:00:00,1764A,123.7669,41.2864,本溪市,东明,,50,50,40,23,25,102,77,92,90,14,20,5,5,1.1,0.9
2023-08-18T22:00:00,1765A,123.7992,41.2664,本溪市,新立屯,,34,34,29,16,19,94,40,88,66,24,20,7,7,1.1,0.9
2023-08-18T22:00:00,1766A,123.8142,41.3472,本溪市,威宁,细颗粒物(PM2.5),57,50,44,40,26,86,41,79,62,26,19,6,6,1.7,1
2023-08-18T22:00:00,1767A,121.1115,41.0879,锦州市,南山,细颗粒物(PM2.5),72,62,42,52,33,134,48,121,90,29,21,5,7,0.8,0.9
2023-08-18T22:00:00,1768A,121.0533,40.8434,锦州市,开发区,颗粒物(PM10),58,66,56,33,30,140,116,122,122,26,11,26,10,0.9,1
2023-08-18T22:00:00,1769A,121.1836,41.1119,锦州市,百股街道,,39,39,40,22,29,127,51,120,91,30,14,8,12,0.7,0.8
2023-08-18T22:00:00,1770A,121.1178,41.1222,锦州市,天安街道,,42,42,51,27,28,138,46,122,82,40,21,4,4,1.2,1
2023-08-18T22:00:00,1771A,121.1303,41.1386,锦州市,北湖公园,,26,26,57,12,31,147,56,129,94,14,16,6,8,0.8,0.8
2023-08-18T22:00:00,1772A,126.54,43.8622,吉林市,哈达湾,,29,29,28,16,15,146,88,124,103,16,16,6,6,0.7,0.6
2023-08-18T22:00:00,1773A,126.5844,43.8358,吉林市,东局子,,31,31,25,16,13,156,70,133,106,19,13,6,6,0.9,0.7
2023-08-18T22:00:00,1774A,126.5052,43.8245,吉林市,电力学院,,36,36,32,19,17,147,62,122,95,17,16,7,7,0.7,0.7
2023-08-18T22:00:00,1775A,126.6133,43.8972,吉林市,江北,,43,43,32,24,16,144,70,124,100,17,11,8,8,0.8,0.8
2023-08-18T22:00:00,1776A,126.555,43.8306,吉林市,江南公园,,36,32,26,25,18,151,69,131,104,18,14,3,3,0.8,0.7
2023-08-18T22:00:00,1778A,126.7061,43.7133,吉林市,丰满,,,,,,,,,,,,,,,,
2023-08-18T22:00:00,1779A,123.9305,47.3636,齐齐哈尔市,安居小区,,33,29,19,23,19,95,42,81,57,8,7,5,5,0.3,0.3
2023-08-18T22:00:00,1780A,123.9488,47.3386,齐齐哈尔市,中心广场,,15,15,13,2,3,95,35,77,47,16,11,2,3,0.4,0.3
2023-08-18T22:00:00,1781A,123.9483,47.3227,齐齐哈尔市,农牧车辆厂,,29,29,26,3,5,91,42,81,53,10,8,7,7,0.3,0.3
2023-08-18T22:00:00,1783A,123.945,47.2988,齐齐哈尔市,市环境监测站,,23,23,15,10,9,91,27,74,50,19,8,8,7,0.2,0.2
2023-08-18T22:00:00,1784A,129.61,44.561,牡丹江市,环保大楼,,21,21,12,9,9,64,31,55,39,9,10,5,5,0.4,0.4
2023-08-18T22:00:00,1785A,129.6115,44.5782,牡丹江市,文化广场,,19,18,14,13,13,59,26,51,35,13,13,5,6,0.5,0.5
2023-08-18T22:00:00,1786A,129.5904,44.5963,牡丹江市,第一医院,,27,27,24,5,9,59,26,51,33,8,12,4,4,0.4,0.4
2023-08-18T22:00:00,1787A,129.6364,44.6075,牡丹江市,机车工厂,,25,25,23,7,7,61,14,52,31,21,11,2,2,0.5,0.5
2023-08-18T22:00:00,1788A,129.6386,44.5462,牡丹江市,第一中学,,31,31,24,10,6,64,22,51,30,17,11,5,5,0.3,0.4
2023-08-18T22:00:00,1789A,124.81117,46.03138,大庆市,大同区,,13,4,16,9,11,105,38,86,57,14,8,5,5,0.3,0.3
2023-08-18T22:00:00,1790A,125.129,46.533,大庆市,龙凤区,,25,20,16,17,8,99,45,91,54,18,14,6,6,0.5,0.5
2023-08-18T22:00:00,1791A,124.902,46.408,大庆市,红岗区,,16,8,10,9,11,100,51,88,56,11,9,3,3,0.3,0.4
2023-08-18T22:00:00,1792A,125.153,46.586,大庆市,萨尔图区,,25,25,23,15,8,92,46,81,46,21,15,5,4,0.4,0.3
2023-08-18T22:00:00,1793A,124.9042,46.6215,大庆市,让胡路区,,31,31,16,19,7,92,13,83,42,35,16,5,4,0.5,0.4
2023-08-18T22:00:00,1794A,118.3606,31.3519,芜湖市,监测站,,39,34,31,17,19,173,122,161,147,23,19,5,5,0.6,0.7
2023-08-18T22:00:00,1795A,118.3714,31.4134,芜湖市,科创中心,,37,31,37,18,22,174,118,158,142,20,24,7,7,0.7,0.8
2023-08-18T22:00:00,1796A,118.3673,31.3131,芜湖市,四水厂,,43,31,30,18,19,184,136,172,161,20,15,3,3,0.7,0.7
2023-08-18T22:00:00,1798A,118.5092,31.6837,马鞍山市,湖东路四小,,35,31,26,16,22,177,110,156,146,18,14,6,7,0.7,0.7
2023-08-18T22:00:00,1799A,118.5024,31.6449,马鞍山市,开发区,,,,38,,18,172,74,153,140,22,12,5,5,0.6,0.9
2023-08-18T22:00:00,1800A,118.5228,31.7231,马鞍山市,慈湖,,32,26,36,18,23,184,102,163,145,21,17,8,9,0.7,0.7
2023-08-18T22:00:00,1802A,118.6245,31.7241,马鞍山市,濮塘,,32,13,21,22,21,177,95,157,141,15,9,3,3,0.8,0.8
2023-08-18T22:00:00,1803A,115.9872,29.6815,九江市,十里,,38,38,32,26,21,157,119,150,140,14,13,8,9,0.7,0.7
2023-08-18T22:00:00,1804A,115.9584,29.7046,九江市,茅山头,,48,43,30,33,22,155,98,146,135,25,17,8,9,0.9,0.9
2023-08-18T22:00:00,1805A,115.9877,29.7295,九江市,西园,,41,41,30,25,18,167,93,157,139,33,16,10,10,0.8,0.7
2023-08-18T22:00:00,1806A,116.0172,29.6547,九江市,五七二七厂,,32,32,28,20,18,151,89,138,115,8,8,8,9,0.6,0.7
2023-08-18T22:00:00,1808A,115.9114,29.6038,九江市,综合工业园,,42,31,32,21,20,166,134,153,145,12,22,11,12,0.8,0.8
2023-08-18T22:00:00,1809A,116.0721,29.7535,九江市,石化总厂,,44,44,31,28,20,159,92,146,128,32,17,9,11,1.0,0.9
2023-08-18T22:00:00,1810A,115.9773,29.5698,九江市,庐山气象台,,46,31,27,23,20,148,146,141,141,9,6,11,9,0.8,0.7
2023-08-18T22:00:00,1812A,112.3931,34.6516,洛阳市,市委党校,颗粒物(PM10),86,122,98,44,39,162,107,150,142,13,10,8,8,0.5,0.6
2023-08-18T22:00:00,1814A,112.4657,34.6871,洛阳市,豫西宾馆,颗粒物(PM10),96,142,110,47,40,180,105,163,151,20,16,6,6,0.6,0.7
2023-08-18T22:00:00,1815A,112.494,34.6886,洛阳市,河南林校,颗粒物(PM10),88,126,102,39,36,176,104,158,148,22,20,8,7,0.7,0.8
2023-08-18T22:00:00,1816A,112.3844,34.623,洛阳市,开发区管委会,颗粒物(PM10),75,99,89,34,32,169,98,153,142,19,11,8,8,0.4,0.4
2023-08-18T22:00:00,1817A,112.4267,34.6258,洛阳市,市委新办公区,颗粒物(PM10),78,106,94,36,35,170,108,156,148,18,12,7,8,0.5,0.6
2023-08-18T22:00:00,1818A,114.4839,36.0621,安阳市,棉研所,,,,,,,,,,,,,,,,
2023-08-18T22:00:00,1819A,114.3551,36.1017,安阳市,红庙街,,39,28,60,19,30,191,124,170,150,6,11,7,9,0.9,1.4
2023-08-18T22:00:00,1820A,114.361,36.0681,安阳市,银杏小区,,,23,59,,,207,124,174,152,4,10,3,4,0.9,1.3
2023-08-18T22:00:00,1824A,114.3389,34.7781,开封市,肿瘤医院,,47,47,71,32,37,182,130,164,154,3,17,3,4,0.6,0.7
2023-08-18T22:00:00,1826A,114.2885,34.7965,开封市,世纪星幼儿园,,,51,65,,,187,128,164,155,12,21,6,6,0.9,1
2023-08-18T22:00:00,1828A,113.227,35.2125,焦作市,市环保局,颗粒物(PM10),57,64,80,37,43,201,122,178,166,13,20,9,9,0.7,0.9
2023-08-18T22:00:00,1830A,113.1992,35.2590,焦作市,影视城,,,,,,,,,,,,,,,,
2023-08-18T22:00:00,1832A,113.3257,33.742,平顶山市,新华旅馆,颗粒物(PM10),54,58,77,32,30,210,133,183,171,12,14,4,5,0.5,0.6
2023-08-18T22:00:00,1833A,113.2919,33.737,平顶山市,规划设计院,,,,85,,36,194,,177,176,13,12,8,10,0.7,0.7
2023-08-18T22:00:00,1834A,113.182,33.774,平顶山市,平顶山工学院,颗粒物(PM10),72,93,99,36,35,182,119,174,162,15,14,7,6,0.7,0.7
2023-08-18T22:00:00,1835A,111.1922,34.7752,三门峡市,市政府,颗粒物(PM10),65,80,123,32,43,145,77,134,123,36,23,7,9,0.5,0.5
2023-08-18T22:00:00,1836A,111.1587,34.7942,三门峡市,开发区,颗粒物(PM10),78,105,133,38,50,143,59,132,118,48,14,6,6,0.5,0.5
2023-08-18T22:00:00,1838A,111.143,34.7955,三门峡市,风景区,,,,,,,,,,,,,,,,
2023-08-18T22:00:00,1840A,111.2992,30.6981,宜昌市,白龙岗,颗粒物(PM10),52,53,48,31,27,160,95,146,133,24,24,5,4,0.6,0.6
2023-08-18T22:00:00,1841A,111.3549,30.6465,宜昌市,伍家岗,,,,45,,28,164,83,148,135,32,27,4,3,,0.7
2023-08-18T22:00:00,1842A,111.2628,30.6961,宜昌市,点军区,细颗粒物(PM2.5),83,69,36,61,32,188,64,150,133,20,19,6,5,0.8,0.5
2023-08-18T22:00:00,1843A,111.3275,30.7819,宜昌市,夷陵区,颗粒物(PM10),68,85,47,41,25,157,90,148,130,20,21,4,4,0.6,0.6
2023-08-18T22:00:00,1844A,112.2494,30.3197,荆州市,市图书馆,,,55,60,,38,184,94,162,154,45,22,9,8,0.7,0.8
2023-08-18T22:00:00,1845A,112.2008,30.3544,荆州市,市委党校,颗粒物(PM10),51,51,59,30,38,182,116,164,156,18,15,8,10,0.8,0.8
2023-08-18T22:00:00,1847A,113.1094,29.3578,岳阳市,南湖风景区,颗粒物(PM10),62,74,45,41,31,173,118,166,154,24,16,8,8,0.8,0.8
2023-08-18T22:00:00,1848A,113.1493,29.4251,岳阳市,城陵矶,细颗粒物(PM2.5),57,51,49,40,34,162,46,149,134,66,38,8,11,0.9,0.8
2023-08-18T22:00:00,1849A,113.1497,29.3575,岳阳市,开发区,颗粒物(PM10),54,57,50,32,33,171,120,164,153,20,20,8,9,0.8,0.8
2023-08-18T22:00:00,1850A,113.2621,29.4758,岳阳市,云溪区,细颗粒物(PM2.5),77,71,45,56,34,167,89,160,142,18,12,15,10,0.9,0.7
2023-08-18T22:00:00,1851A,112.9943,29.4402,岳阳市,君山区,细颗粒物(PM2.5),69,64,48,50,38,162,103,156,142,20,21,10,10,0.8,0.8
2023-08-18T22:00:00,1852A,113.2117,29.355,岳阳市,金凤水库,,46,46,44,32,30,184,130,170,158,8,10,6,5,0.5,0.5
2023-08-18T22:00:00,1854A,111.6975,28.9703,常德市,市二中,细颗粒物(PM2.5),80,67,46,59,35,162,115,159,146,8,13,3,3,0.8,0.7
2023-08-18T22:00:00,1857A,111.7158,29.1456,常德市,白鹤山,颗粒物(PM10),51,51,29,11,8,165,137,155,144,6,4,11,9,0.5,0.4
2023-08-18T22:00:00,1858A,110.5319,29.1217,张家界市,永定新区,细颗粒物(PM2.5),57,59,44,40,33,151,105,137,121,11,11,6,6,0.5,0.4
2023-08-18T22:00:00,1859A,110.4697,29.1242,张家界市,电业局,,,,,,,,,,,,,,,,
2023-08-18T22:00:00,1860A,110.5594,29.3547,张家界市,未央路,,,52,46,40,28,142,,140,136,16,9,4,3,0.5,0.4
2023-08-18T22:00:00,1861A,110.4417,29.315,张家界市,袁家界,,48,48,36,31,26,146,105,134,126,4,6,7,7,0.7,0.7
2023-08-18T22:00:00,1862A,110.4144,25.3167,桂林市,电子科大尧山校区,,26,20,38,18,23,100,58,90,77,5,7,10,10,0.6,0.6
2023-08-18T22:00:00,1863A,110.2819,25.2697,桂林市,监测站,,38,38,27,21,15,147,74,111,86,16,13,12,6,0.7,0.6
2023-08-18T22:00:00,1864A,110.3089,25.2708,桂林市,龙隐路小学,,26,26,25,16,14,152,79,110,86,11,11,12,10,0.6,0.6
2023-08-18T22:00:00,1865A,110.2869,25.2178,桂林市,八中,,30,28,25,21,13,127,67,101,79,19,14,10,7,0.7,0.6
2023-08-18T22:00:00,1866A,109.2262,21.588,北海市,牛尾岭水库,,31,31,18,11,9,60,29,56,48,10,8,4,3,0.4,0.4
2023-08-18T22:00:00,1867A,109.1436,21.4086,北海市,海滩公园,,30,30,35,5,6,78,65,70,66,4,5,3,3,0.5,0.6
2023-08-18T22:00:00,1868A,109.0981,21.4661,北海市,新市环保局,,19,13,19,12,8,65,58,60,60,6,4,3,3,0.5,0.5
2023-08-18T22:00:00,1869A,109.1778,21.5233,北海市,北海工业园,,29,29,28,15,12,72,49,69,62,8,8,4,4,0.5,0.5
2023-08-18T22:00:00,1870A,109.4856,24.3895,柳州市,柳东小学,,33,29,30,23,21,124,51,103,80,12,8,6,10,0.5,0.5
2023-08-18T22:00:00,1871A,109.4157,24.3277,柳州市,环保监测站,,40,40,45,23,26,140,55,114,89,17,20,4,4,0.7,0.9
2023-08-18T22:00:00,1872A,109.389,24.341,柳州市,河西水厂,,43,43,46,23,25,129,52,110,86,18,20,5,6,0.9,1.1
2023-08-18T22:00:00,1873A,109.4311,24.2921,柳州市,市四中,,38,24,48,26,28,137,66,116,99,17,21,7,7,0.8,1.1
2023-08-18T22:00:00,1874A,109.4006,24.3631,柳州市,市九中,颗粒物(PM10),56,61,49,30,25,125,50,106,86,19,18,10,11,1.0,1.1
2023-08-18T22:00:00,1875A,109.4958,24.3134,柳州市,古亭山,,33,24,44,23,25,135,46,118,90,20,19,5,9,0.7,0.8
2023-08-18T22:00:00,1876A,109.5078,18.2489,三亚市,河东子站,,21,21,19,11,10,64,64,57,57,4,6,3,3,0.3,0.3
2023-08-18T22:00:00,1877A,109.4964,18.2681,三亚市,河西子站,,,,25,10,11,65,65,56,55,8,9,2,2,0.4,0.4
2023-08-18T22:00:00,1878A,104.7778,31.4741,绵阳市,富乐山,,29,29,63,13,29,84,62,75,73,9,10,4,4,0.6,0.6
2023-08-18T22:00:00,1879A,104.7563,31.4535,绵阳市,市人大,,,,62,,27,73,,68,66,32,20,9,9,0.5,0.4
2023-08-18T22:00:00,1880A,104.6697,31.4668,绵阳市,高新区自来水公司,,30,30,62,12,23,83,62,69,69,23,24,7,7,0.5,0.5
2023-08-18T22:00:00,1881A,104.7287,31.5075,绵阳市,三水厂,,35,35,64,16,29,72,40,60,55,32,28,7,7,0.5,0.4
2023-08-18T22:00:00,1882A,104.563,28.793,宜宾市,石马中学,颗粒物(PM10),52,54,51,30,34,135,86,117,98,18,18,6,8,0.5,0.6
2023-08-18T22:00:00,1883A,104.6201,28.7728,宜宾市,市委,颗粒物(PM10),57,64,53,39,34,127,86,112,99,13,19,9,12,0.7,0.8
2023-08-18T22:00:00,1884A,104.6055,28.793,宜宾市,宜宾四中,颗粒物(PM10),58,65,56,40,38,133,91,118,104,10,16,7,11,0.6,0.7
2023-08-18T22:00:00,1885A,104.639,28.7562,宜宾市,市政府,颗粒物(PM10),54,57,51,36,32,130,91,115,102,12,17,7,7,0.6,0.7
2023-08-18T22:00:00,1886A,104.5742,28.7199,宜宾市,黄金嘴,颗粒物(PM10),59,68,55,38,32,128,90,119,106,9,19,7,11,0.5,0.7
2023-08-18T22:00:00,1888A,101.6891,26.571,攀枝花市,弄弄坪,,50,50,48,19,24,86,55,64,64,25,19,12,12,0.8,0.8
2023-08-18T22:00:00,1889A,101.5769,26.5928,攀枝花市,河门口,,26,26,44,14,26,169,66,109,102,24,26,32,26,1.5,1.6
2023-08-18T22:00:00,1890A,101.7169,26.585,攀枝花市,炳草岗,颗粒物(PM10),52,53,53,29,25,139,58,100,87,35,34,28,34,1.0,1
2023-08-18T22:00:00,1891A,101.7369,26.5008,攀枝花市,仁和,,24,13,37,10,26,155,74,114,103,12,16,6,14,0.5,0.7
2023-08-18T22:00:00,1893A,105.4324,28.9634,泸州市,九狮山,,34,34,45,12,21,147,63,133,113,10,13,5,7,0.4,0.5
2023-08-18T22:00:00,1894A,105.4427,28.9063,泸州市,小市上码头,,47,47,54,26,35,182,86,160,139,11,8,3,5,0.7,0.7
2023-08-18T22:00:00,1895A,105.4241,28.8573,泸州市,兰田宪桥,,34,34,54,19,36,198,89,168,143,7,9,4,7,0.7,0.7
2023-08-18T22:00:00,1896A,105.4379,28.8833,泸州市,市环监站,,44,44,55,12,29,180,88,157,140,8,8,4,6,0.5,0.7
2023-08-18T22:00:00,1901A,104.4239,31.1208,德阳市,东山公园,,44,44,71,16,26,101,65,84,81,12,22,1,7,0.4,0.6
2023-08-18T22:00:00,1902A,104.3826,31.1317,德阳市,西小区,,40,40,64,16,30,94,58,80,78,16,25,2,7,0.5,0.6
2023-08-18T22:00:00,1904A,104.3553,31.1091,德阳市,耐火材料厂,,46,46,80,15,31,97,45,80,75,21,27,3,6,0.5,0.7
2023-08-18T22:00:00,1905A,106.056,30.8064,南充市,西山风景区,,,44,83,,39,139,99,130,120,6,6,3,3,0.3,0.4
2023-08-18T22:00:00,1906A,106.0789,30.8023,南充市,南充市委,,47,47,97,17,42,141,85,130,115,15,13,9,9,0.3,0.3
2023-08-18T22:00:00,1907A,106.1031,30.8217,南充市,南充炼油厂,,48,48,107,23,37,138,90,124,114,13,10,9,8,0.3,0.3
2023-08-18T22:00:00,1908A,106.1064,30.7856,南充市,高坪区监测站,,46,46,98,20,32,136,86,125,113,14,11,8,8,0.4,0.3
2023-08-18T22:00:00,1909A,106.0642,30.7636,南充市,嘉陵区环保局,,41,41,99,14,37,152,86,130,111,17,16,6,6,0.4,0.4
2023-08-18T22:00:00,1910A,106.1087,30.8388,南充市,市环境监测站,细颗粒物(PM2.5),53,52,104,37,43,127,82,114,103,13,14,8,7,0.3,0.3
2023-08-18T22:00:00,1911A,106.9222,27.6869,遵义市,丁字口,,26,26,17,16,13,111,45,99,86,38,17,6,5,0.8,0.6
2023-08-18T22:00:00,1912A,106.9242,27.7019,遵义市,凤凰山,,45,39,27,31,21,130,80,116,112,22,11,6,8,0.7,0.6
2023-08-18T22:00:00,1913A,106.8906,27.6486,遵义市,忠庄,,48,46,25,33,15,116,80,108,103,24,13,3,2,0.6,0.6
2023-08-18T22:00:00,1914A,106.9231,27.6506,遵义市,舟水桥,,21,21,26,12,10,120,46,106,93,26,14,2,1,0.6,0.6
2023-08-18T22:00:00,1915A,106.9178,27.72,遵义市,干田坝,,41,41,24,27,13,120,30,103,88,41,14,4,6,0.6,0.5
2023-08-18T22:00:00,1916A,103.7897,25.5035,曲靖市,环境监测站,,32,32,37,18,19,121,58,103,96,27,23,8,5,0.7,0.7
2023-08-18T22:00:00,1917A,103.8,25.5364,曲靖市,烟厂办公区,,26,26,37,16,19,118,72,102,100,16,21,4,8,0.6,0.7
2023-08-18T22:00:00,1918A,108.7197,34.3956,咸阳市,气象站,,,,,,,,,,,,,,,,
2023-08-18T22:00:00,1919A,108.673,34.3155,咸阳市,实验中学,颗粒物(PM10),61,72,69,27,27,120,47,105,100,45,40,6,8,0.6,0.5
2023-08-18T22:00:00,1920A,108.7233,34.3617,咸阳市,师范学院,颗粒物(PM10),57,63,67,24,22,125,83,115,113,26,22,4,4,0.5,0.4
2023-08-18T22:00:00,1922A,109.0656,35.0994,铜川市,党校,颗粒物(PM10),86,121,98,32,28,115,13,100,73,60,29,8,8,0.8,0.6
2023-08-18T22:00:00,1923A,109.0697,35.0697,铜川市,王益区政府,颗粒物(PM10),81,112,75,36,32,119,21,116,91,57,25,5,6,0.6,0.4
2023-08-18T22:00:00,1924A,108.9344,34.9058,铜川市,新区管委会,颗粒物(PM10),88,125,85,38,34,142,66,127,118,53,17,8,5,0.7,0.6
2023-08-18T22:00:00,1926A,109.4131,36.6275,延安市,枣园,颗粒物(PM10),56,62,57,12,22,150,27,141,100,63,33,6,6,0.7,0.6
2023-08-18T22:00:00,1927A,109.4761,36.6028,延安市,延大医附院,颗粒物(PM10),57,63,59,12,16,167,10,142,102,83,32,5,5,0.5,0.3
2023-08-18T22:00:00,1929A,109.5056,36.6106,延安市,百米大道,颗粒物(PM10),60,69,64,20,18,163,29,136,104,70,36,6,6,0.8,0.5
2023-08-18T22:00:00,1930A,107.185,34.3063,宝鸡市,庙沟村,,25,25,35,17,19,114,67,101,90,26,16,7,7,0.3,0.3
2023-08-18T22:00:00,1931A,107.0708,34.3017,宝鸡市,竹园沟,,32,32,35,11,15,130,68,119,99,19,13,6,8,0.4,0.4
2023-08-18T22:00:00,1932A,107.1906,34.3672,宝鸡市,三陆医院,,48,48,49,7,18,135,57,119,103,27,23,8,8,0.5,0.5
2023-08-18T22:00:00,1933A,107.1431,34.3547,宝鸡市,监测站,,48,48,56,16,20,119,51,110,92,32,20,6,6,0.5,0.4
2023-08-18T22:00:00,1934A,107.1186,34.3739,宝鸡市,技工学校,,40,40,43,22,17,124,59,110,99,16,12,6,6,0.4,0.3
2023-08-18T22:00:00,1935A,107.3906,34.3528,宝鸡市,陈仓区环保局家属楼,,49,49,49,22,19,140,46,123,104,45,20,8,7,0.6,0.5
2023-08-18T22:00:00,1936A,107.2058,34.3497,宝鸡市,文理学院,颗粒物(PM10),54,58,47,3,14,129,60,118,100,28,16,4,4,0.5,0.4
2023-08-18T22:00:00,1937A,107.2386,34.3622,宝鸡市,三迪小学,,48,48,46,3,15,138,55,123,106,32,15,5,6,0.5,0.4
2023-08-18T22:00:00,1938A,109.5293,34.5101,渭南市,农科所,颗粒物(PM10),53,56,83,24,30,118,100,111,110,13,15,5,5,0.3,0.3
2023-08-18T22:00:00,1939A,109.4974,34.4877,渭南市,日报社,颗粒物(PM10),52,53,79,29,32,121,81,105,99,35,23,5,9,0.3,0.2
2023-08-18T22:00:00,1940A,109.4636,34.493,渭南市,体育馆,,46,46,76,10,22,127,88,108,103,18,16,4,4,0.3,0.3
2023-08-18T22:00:00,1941A,109.4259,34.5023,渭南市,高新一小,颗粒物(PM10),52,54,81,19,23,135,100,112,112,14,20,5,6,0.3,0.4
2023-08-18T22:00:00,1943A,102.1725,38.5339,金昌市,新川苑,,34,25,36,6,5,134,106,124,115,14,16,7,8,0.6,0.6
2023-08-18T22:00:00,1944A,102.1692,38.5167,金昌市,天庆家园,,34,15,21,4,8,140,108,132,123,18,22,7,9,0.5,0.6
2023-08-18T22:00:00,1945A,98.2908,39.7711,嘉峪关市,气象局,,30,29,37,9,10,132,93,126,120,26,17,1,6,0.3,0.4
2023-08-18T22:00:00,1947A,106.3394,38.817,石嘴山市,沙湖旅游区,颗粒物(PM10),62,73,63,16,25,180,61,163,143,54,25,5,21,0.9,0.8
2023-08-18T22:00:00,1948A,106.3668,39.0145,石嘴山市,大武口朝阳西街,颗粒物(PM10),60,70,88,26,34,172,93,160,153,58,47,8,32,0.6,0.8
2023-08-18T22:00:00,1949A,106.7704,39.2282,石嘴山市,惠农南大街,颗粒物(PM10),63,76,71,18,22,172,41,143,112,63,41,13,14,1.0,0.6
2023-08-18T22:00:00,1950A,106.7099,39.1325,石嘴山市,红果子镇惠新街,,32,32,72,8,25,229,71,169,142,48,39,11,18,0.3,0.6
2023-08-18T22:00:00,1951A,84.895,45.6094,克拉玛依市,长征新村,,28,24,20,8,6,127,58,116,110,55,16,10,10,0.4,0.2
2023-08-18T22:00:00,1952A,84.8988,45.5893,克拉玛依市,南林小区,颗粒物(PM10),54,58,24,10,11,125,7,111,98,90,25,11,9,1.2,0.3
2023-08-18T22:00:00,1954A,84.905,44.3396,克拉玛依市,独山子区,,36,18,25,13,12,161,115,145,144,11,12,8,10,0.4,0.4
2023-08-18T22:00:00,1955A,85.6979,46.098,克拉玛依市,乌尔禾区商贸楼,,31,31,16,14,7,119,97,109,109,10,6,7,6,0.6,0.4
2023-08-18T22:00:00,1956A,86.1472,41.7538,巴音郭楞州,孔雀公园,颗粒物(PM10),103,155,73,36,19,127,56,117,110,57,31,6,7,0.7,0.4
2023-08-18T22:00:00,1957A,86.1972,41.7166,巴音郭楞州,棉纺厂,,,121,72,,21,131,,124,124,34,31,5,5,0.4,0.4
2023-08-18T22:00:00,1958A,86.2357,41.7173,巴音郭楞州,经济开发区,颗粒物(PM10),78,105,52,32,18,132,77,127,121,26,12,6,6,0.4,0.3
2023-08-18T22:00:00,1961A,117.532,36.6868,济南市,东山小学,颗粒物(PM10),66,81,68,37,36,193,64,165,134,48,27,5,5,0.6,0.6
2023-08-18T22:00:00,1966A,120.0405,35.8735,青岛市,黄岛区4号,,34,27,31,22,22,151,106,144,130,11,14,3,4,0.5,0.7
2023-08-18T22:00:00,1982A,122.0693,37.2174,威海市,文登开发区,,36,29,47,17,27,168,113,148,120,8,11,6,6,0.6,0.8
2023-08-18T22:00:00,2031A,113.1817,27.9958,株洲市,云田中学,颗粒物(PM10),66,81,50,35,25,185,92,170,154,29,18,6,6,0.9,0.8
2023-08-18T22:00:00,2054A,114.1099,32.1059,信阳市,平桥分局,颗粒物(PM10),68,85,36,32,26,163,90,147,120,13,14,1,1,0.9,0.8
2023-08-18T22:00:00,2064A,113.9956,32.1271,信阳市,南湾水厂,,43,43,46,28,25,155,92,144,120,14,8,2,2,0.9,0.8
2023-08-18T22:00:00,2065A,114.0775,32.1195,信阳市,市酿酒公司,,,47,43,34,28,165,,149,134,13,16,2,2,0.7,0.7
2023-08-18T22:00:00,2066A,114.0609,32.1399,信阳市,审计局,颗粒物(PM10),51,51,49,29,30,167,114,152,130,15,15,2,3,0.8,0.7
2023-08-18T22:00:00,2067A,114.6613,33.6128,周口市,市环境监测站,,,,,,,,,,,,,,,,
2023-08-18T22:00:00,2068A,114.6758,33.6347,周口市,周口师范,颗粒物(PM10),60,69,68,27,35,168,109,156,142,8,18,2,4,0.7,0.9
2023-08-18T22:00:00,2069A,114.6546,33.5979,周口市,市运管处,颗粒物(PM10),57,64,71,39,37,153,83,146,119,23,27,4,5,0.7,0.6
2023-08-18T22:00:00,2070A,114.6369,33.6406,周口市,川汇区环保局,颗粒物(PM10),52,53,61,27,32,161,109,149,138,7,18,2,3,0.9,1
2023-08-18T22:00:00,2075A,117.6336,24.4674,漳州市,九湖,,,,,,,,,,,,,,,,
2023-08-18T22:00:00,2160A,112.85,35.5051,晋城市,自来水公司,颗粒物(PM10),80,110,131,41,44,173,144,155,155,9,16,8,9,1.0,1.3
2023-08-18T22:00:00,2161A,112.8318,35.4936,晋城市,白云商贸,,,146,146,,,134,134,134,134,16,16,10,10,1.1,1.1
2023-08-18T22:00:00,2162A,112.8508,35.4887,晋城市,市环保局,颗粒物(PM10),77,103,140,48,49,172,139,151,150,14,21,9,10,1.0,1.3
2023-08-18T22:00:00,2163A,112.8676,35.4897,晋城市,技术学院,颗粒物(PM10),70,89,121,39,44,181,144,157,157,14,20,8,10,1.0,1.4
2023-08-18T22:00:00,2165A,112.8453,35.546,晋城市,白马寺,,,,,,,,,,,,,,,,
2023-08-18T22:00:00,2166A,112.4397,39.3522,朔州市,平朔,颗粒物(PM10),70,89,100,26,34,147,52,131,115,37,23,8,9,0.5,0.5
2023-08-18T22:00:00,2167A,112.4575,39.3617,朔州市,朔唯,颗粒物(PM10),85,120,118,20,39,156,52,138,121,48,25,9,9,0.4,0.5
2023-08-18T22:00:00,2168A,112.4258,39.3197,朔州市,区政府,颗粒物(PM10),76,101,104,29,34,147,61,133,118,45,23,10,9,0.6,0.6
2023-08-18T22:00:00,2169A,112.4072,39.3278,朔州市,市环保局,颗粒物(PM10),66,81,108,18,36,158,90,143,128,27,22,8,11,0.5,0.5
2023-08-18T22:00:00,2170A,112.4272,39.3681,朔州市,市二中,颗粒物(PM10),82,114,114,31,35,154,46,136,115,41,27,7,9,0.6,0.5
2023-08-18T22:00:00,2171A,112.7532,37.6945,晋中市,锦纶小区,颗粒物(PM10),123,195,89,39,25,166,106,152,143,16,21,11,10,0.5,0.6
2023-08-18T22:00:00,2173A,112.7249,37.7067,晋中市,南都小区,颗粒物(PM10),122,193,100,49,40,161,85,150,137,26,22,7,7,0.4,0.5
2023-08-18T22:00:00,2174A,112.6991,37.6982,晋中市,榆次区政府,颗粒物(PM10),110,169,93,46,35,159,88,148,137,28,22,9,9,0.5,0.6
2023-08-18T22:00:00,2175A,110.9956,35.0147,运城市,运城中学,颗粒物(PM10),83,116,123,27,34,148,122,141,139,14,16,8,6,0.5,0.5
2023-08-18T22:00:00,2178A,110.9686,35.0303,运城市,地区技校,颗粒物(PM10),70,90,119,28,28,147,114,139,134,14,13,9,7,0.4,0.4
2023-08-18T22:00:00,2179A,111.0414,35.1147,运城市,空港新区,颗粒物(PM10),81,112,144,35,36,147,115,139,134,17,20,4,6,0.5,0.4
2023-08-18T22:00:00,2181A,112.7383,38.4519,忻州市,开发区,,44,44,127,23,49,145,82,132,121,27,21,11,11,0.6,0.7
2023-08-18T22:00:00,2182A,112.7003,38.4928,忻州市,会展中心,颗粒物(PM10),54,58,134,29,51,136,55,122,106,34,18,8,9,0.5,0.5
2023-08-18T22:00:00,2183A,111.1406,37.5211,吕梁市,环保局,颗粒物(PM10),122,194,140,30,50,149,17,140,115,94,32,7,9,0.5,0.5
2023-08-18T22:00:00,2185A,111.1297,37.5136,吕梁市,自来水公司,颗粒物(PM10),123,195,127,37,45,144,75,137,126,37,22,6,7,0.5,0.5
2023-08-18T22:00:00,2187A,106.8174,39.6973,乌海市,市林业局,颗粒物(PM10),66,82,73,26,23,135,42,125,104,56,33,11,31,0.9,1.1
2023-08-18T22:00:00,2188A,106.7907,39.6667,乌海市,中海勃湾学校,颗粒物(PM10),68,86,63,24,20,137,54,130,115,70,34,8,32,0.6,1
2023-08-18T22:00:00,2191A,122.2532,43.6801,通辽市,艺术职业学校,,36,36,35,0,16,118,68,109,73,14,17,4,5,0.2,0.4
2023-08-18T22:00:00,2192A,119.7594,49.2261,呼伦贝尔市,区环保局,,39,19,22,27,25,70,50,66,61,7,8,4,4,0.3,0.3
2023-08-18T22:00:00,2195A,107.4212,40.761,巴彦淖尔市,附二中,颗粒物(PM10),64,77,53,18,16,145,102,140,131,22,22,42,12,0.5,0.5
2023-08-18T22:00:00,2196A,107.37,40.7372,巴彦淖尔市,市环保大楼,,40,40,55,23,18,131,118,123,118,18,23,4,5,0.5,0.5
2023-08-18T22:00:00,2197A,113.1306,40.9923,乌兰察布市,集宁新区,,42,32,33,17,16,150,133,141,140,9,20,10,11,0.2,0.3
2023-08-18T22:00:00,2200A,122.0392,46.0656,兴安盟,胜华新制药厂,,38,24,15,26,11,120,35,97,60,12,10,2,2,0.3,0.3
2023-08-18T22:00:00,2201A,121.9504,46.0741,兴安盟,科右前旗环保局,,26,22,19,18,18,122,37,103,65,13,6,1,2,0.5,0.5
2023-08-18T22:00:00,2202A,116.1042,43.9317,锡林郭勒盟,市环保监测站,颗粒物(PM10),69,87,25,8,5,116,80,111,101,5,9,11,9,0.2,0.2
2023-08-18T22:00:00,2203A,116.0781,43.9311,锡林郭勒盟,市政府,颗粒物(PM10),57,63,20,2,4,119,78,113,102,14,12,13,12,0.2,0.2
2023-08-18T22:00:00,2204A,105.6467,38.8363,阿拉善盟,西城区西花园,,37,21,25,12,10,142,118,138,134,10,9,6,6,0.4,0.4
2023-08-18T22:00:00,2205A,105.6985,38.8411,阿拉善盟,蒙二幼,,38,24,17,7,6,142,120,139,134,7,7,5,6,0.4,0.4
2023-08-18T22:00:00,2206A,105.724,38.8516,阿拉善盟,环保局新楼,,40,21,16,7,5,139,127,136,135,5,5,7,7,0.4,0.4
2023-08-18T22:00:00,2207A,121.6094,41.998,阜新市,工业园区,颗粒物(PM10),54,58,55,28,28,158,53,133,104,38,22,9,14,0.9,0.6
2023-08-18T22:00:00,2208A,121.6697,42.0279,阜新市,长青街,,50,50,52,33,34,141,54,123,93,15,15,31,14,0.8,0.8
2023-08-18T22:00:00,2209A,121.6673,42.0705,阜新市,农业园区,,40,29,47,28,38,158,75,141,108,9,11,17,11,0.8,0.8
2023-08-18T22:00:00,2210A,121.6717,42.0224,阜新市,东苑,颗粒物(PM10),54,58,51,30,31,146,70,128,102,15,13,74,20,0.7,0.7
2023-08-18T22:00:00,2211A,121.6506,42.0498,阜新市,玉龙新城,,50,50,56,21,27,134,44,117,80,22,13,17,9,0.9,0.9
2023-08-18T22:00:00,2212A,123.2,41.1953,辽阳市,宏伟区,,30,30,27,18,16,136,93,116,108,8,8,6,5,0.7,0.6
2023-08-18T22:00:00,2213A,123.1683,41.2495,辽阳市,新华园,颗粒物(PM10),60,70,39,36,20,144,66,124,107,25,11,10,7,0.9,0.7
2023-08-18T22:00:00,2214A,123.2354,41.2639,辽阳市,滨河路,,39,39,31,26,21,133,72,104,87,16,13,6,7,0.8,0.8
2023-08-18T22:00:00,2215A,123.149,41.2991,辽阳市,铁西工业园,颗粒物(PM10),51,51,53,32,26,196,103,166,134,15,18,8,10,1.0,1.1
2023-08-18T22:00:00,2216A,123.8139,42.3022,铁岭市,汇工街西,,19,19,43,13,26,177,56,151,110,17,20,7,13,0.6,0.9
2023-08-18T22:00:00,2217A,123.8649,42.2923,铁岭市,水上乐园,,44,44,47,14,24,163,26,145,97,61,25,4,5,0.8,1
2023-08-18T22:00:00,2218A,123.8486,42.2867,铁岭市,银州路东段,,34,34,54,14,17,157,46,134,99,20,26,7,8,0.5,0.8
2023-08-18T22:00:00,2219A,123.7153,42.2217,铁岭市,金沙江路北,,30,30,55,15,26,167,61,141,112,25,21,6,7,0.8,1.2
2023-08-18T22:00:00,2220A,120.4318,41.5881,朝阳市,西梁,颗粒物(PM10),69,88,62,33,27,155,106,137,121,7,8,8,8,0.9,0.9
2023-08-18T22:00:00,2221A,120.4521,41.5646,朝阳市,河畔小区,颗粒物(PM10),74,97,68,32,27,151,114,135,122,6,8,6,6,1.0,0.9
2023-08-18T22:00:00,2222A,120.4176,41.5648,朝阳市,八里堡,颗粒物(PM10),57,64,58,38,32,154,98,140,120,11,12,6,8,1.0,1
2023-08-18T22:00:00,2223A,120.3806,41.5969,朝阳市,农业园区,颗粒物(PM10),59,67,61,32,30,132,62,125,109,18,15,2,3,1.0,0.9
2023-08-18T22:00:00,2225A,124.4002,43.1713,四平市,一商场,,42,36,39,29,25,159,83,143,119,13,16,6,7,0.5,0.6
2023-08-18T22:00:00,2226A,124.388,43.193,四平市,境园,,32,32,36,16,23,153,92,140,120,6,13,7,8,0.3,0.4
2023-08-18T22:00:00,2227A,125.1358,42.8845,辽源市,环保局,,32,27,23,22,15,144,100,125,95,7,12,8,7,0.8,0.6
2023-08-18T22:00:00,2229A,125.9358,41.7173,通化市,光明,,33,33,24,18,13,83,31,81,66,16,14,13,13,0.3,0.4
2023-08-18T22:00:00,2230A,125.9446,41.7325,通化市,铁路,,39,39,21,21,12,82,21,78,59,23,15,7,11,0.7,0.7
2023-08-18T22:00:00,2231A,126.4219,41.9171,白山市,喜丰,,27,27,35,3,11,112,14,91,61,28,14,6,7,0.6,0.6
2023-08-18T22:00:00,2232A,126.4077,41.9419,白山市,环保局,,41,41,33,22,12,122,19,104,67,15,12,8,8,0.6,0.6
2023-08-18T22:00:00,2233A,124.8006,45.1214,松原市,江南,,28,28,30,8,15,102,42,92,72,14,13,7,9,0.5,0.4
2023-08-18T22:00:00,2234A,124.7965,45.1722,松原市,江北,,12,9,19,6,12,95,37,92,72,7,9,4,4,0.3,0.5
2023-08-18T22:00:00,2235A,122.7911,45.6077,白城市,洮北区环保局,,15,13,10,8,6,121,46,104,69,13,11,12,8,0.1,0.1
2023-08-18T22:00:00,2236A,122.8738,45.5725,白城市,市环保局,,24,24,15,5,3,120,41,102,69,27,11,8,8,0.3,0.2
2023-08-18T22:00:00,2237A,129.47,42.8883,延边朝鲜族自治州,妇幼医院,,17,17,25,6,9,80,22,52,30,12,10,8,8,0.6,0.5
2023-08-18T22:00:00,2238A,129.5055,42.9108,延边朝鲜族自治州,延边医院,,15,15,23,6,11,73,27,50,33,10,12,7,7,0.5,0.6
2023-08-18T22:00:00,2239A,129.3964,42.8881,延边朝鲜族自治州,朝阳川镇医院,,14,14,21,6,10,112,25,68,34,6,8,6,7,0.6,0.6
2023-08-18T22:00:00,2240A,130.9762,45.3001,鸡西市,环保局,,29,29,43,9,16,61,8,49,27,26,18,5,7,0.4,0.4
2023-08-18T22:00:00,2243A,130.9429,45.3039,鸡西市,第一中学,,28,28,38,12,13,88,25,67,34,15,16,6,7,0.4,0.4
2023-08-18T22:00:00,2244A,130.2537,47.3416,鹤岗市,哈啤分公司,,23,18,21,16,9,97,61,87,77,10,13,11,12,0.2,0.3
2023-08-18T22:00:00,2245A,130.2684,47.3086,鹤岗市,斯达机电,,19,16,17,10,8,92,59,82,75,10,11,8,8,0.4,0.4
2023-08-18T22:00:00,2246A,130.3114,47.3388,鹤岗市,东山纸板厂,,18,17,24,6,10,85,57,73,67,7,12,12,12,0.4,0.5
2023-08-18T22:00:00,2247A,130.1097,47.3382,鹤岗市,五号水库,,13,13,11,7,7,98,37,83,69,6,6,11,11,0.1,0.1
2023-08-18T22:00:00,2248A,131.1511,46.6937,双鸭山市,双合村,,20,20,31,9,11,78,59,70,62,5,9,5,7,0.3,0.6
2023-08-18T22:00:00,2249A,131.1652,46.6191,双鸭山市,南小市,,29,29,26,13,11,79,56,68,63,7,7,6,6,0.3,0.1
2023-08-18T22:00:00,2250A,131.1524,46.6554,双鸭山市,环保局,,,10,17,6,7,78,,67,61,8,9,7,7,0.3,0.3
2023-08-18T22:00:00,2251A,131.12,46.5656,双鸭山市,苗圃,,23,18,10,16,12,95,66,84,67,5,4,4,3,0.3,0.4
2023-08-18T22:00:00,2252A,128.5159,47.4311,伊春市,环保局,,18,18,15,8,9,82,25,66,47,10,9,8,7,0.3,0.4
2023-08-18T22:00:00,2253A,128.9102,47.7412,伊春市,电力嘉园,,15,14,10,10,9,89,40,77,60,10,8,5,6,0.5,0.7
2023-08-18T22:00:00,2254A,129.5029,48.471,伊春市,汤旺河国家公园,,35,35,30,15,13,69,8,58,28,1,1,14,13,1.0,1.1
2023-08-18T22:00:00,2255A,130.2751,46.8028,佳木斯市,佳纺,,31,31,34,7,12,84,46,81,68,13,11,4,5,0.5,0.5
2023-08-18T22:00:00,2256A,130.3995,46.8307,佳木斯市,发电厂,,25,25,25,9,13,93,56,80,71,12,9,2,5,0.5,0.5
2023-08-18T22:00:00,2257A,130.3258,46.7975,佳木斯市,环保局,,19,17,25,9,11,88,59,75,67,6,11,3,4,0.4,0.5
2023-08-18T22:00:00,2258A,130.3648,46.8032,佳木斯市,十一中,,32,32,25,12,14,85,52,68,62,14,16,5,5,0.5,0.5
2023-08-18T22:00:00,2259A,130.3794,46.7588,佳木斯市,四丰,,24,12,15,4,9,108,75,96,88,2,3,1,1,0.3,0.4
2023-08-18T22:00:00,2262A,131.0518,45.8751,七台河市,新一中,,25,25,26,6,13,114,61,92,57,5,7,9,8,0.7,0.7
2023-08-18T22:00:00,2263A,127.4833,50.2524,黑河市,交通局,,11,8,10,4,5,85,34,66,45,10,13,6,6,0.5,0.5
2023-08-18T22:00:00,2264A,127.5144,50.2341,黑河市,环保局,,14,14,17,7,5,95,44,73,56,6,8,3,3,0.4,0.4
2023-08-18T22:00:00,2265A,127.5291,50.2472,黑河市,大黑河岛,,18,10,8,9,11,112,55,91,69,2,2,3,7,0.3,0.4
2023-08-18T22:00:00,2266A,126.9785,46.6365,绥化市,人和东街,,23,15,25,7,11,111,72,97,81,9,11,3,5,0.4,0.4
2023-08-18T22:00:00,2267A,126.964,46.6528,绥化市,党政办公中心,,23,11,21,7,10,104,72,90,76,8,11,5,7,0.3,0.4
2023-08-18T22:00:00,2269A,124.1069,50.4097,大兴安岭地区,科技局,,28,11,11,19,8,92,45,69,58,7,3,4,7,0.2,0.2
2023-08-18T22:00:00,2270A,117.396,32.939,蚌埠市,工人疗养院,颗粒物(PM10),51,51,41,27,21,188,102,164,138,17,16,4,5,0.5,0.5
2023-08-18T22:00:00,2271A,117.3605,32.9427,蚌埠市,百货大楼,颗粒物(PM10),51,51,44,23,20,192,118,167,148,13,14,5,7,0.5,0.5
2023-08-18T22:00:00,2273A,117.4185,32.8911,蚌埠市,蚌埠学院,细颗粒物(PM2.5),54,56,41,38,27,165,80,156,134,41,14,8,6,0.6,0.6
2023-08-18T22:00:00,2274A,117.3533,32.9673,蚌埠市,淮上区政府,颗粒物(PM10),67,83,43,34,27,184,93,167,141,27,16,5,6,0.6,0.6
2023-08-18T22:00:00,2275A,117.3145,32.8977,蚌埠市,高新区,,48,48,36,30,19,189,87,166,156,46,11,10,5,0.5,0.4
2023-08-18T22:00:00,2277A,116.8305,32.7727,淮南市,潘集区政府,颗粒物(PM10),53,56,38,36,26,181,115,166,149,15,10,6,8,0.4,0.4
2023-08-18T22:00:00,2278A,117.0067,32.6524,淮南市,师范学院,颗粒物(PM10),57,64,42,24,21,168,131,156,144,13,10,10,8,0.9,0.6
2023-08-18T22:00:00,2279A,116.8569,32.5951,淮南市,谢家集区政府,,41,32,30,11,9,164,129,154,142,16,12,12,13,0.4,0.4
2023-08-18T22:00:00,2280A,116.8281,32.633,淮南市,八公山区政府,颗粒物(PM10),56,61,44,33,25,161,123,156,141,15,12,10,10,0.5,0.5
2023-08-18T22:00:00,2281A,116.6325,32.6201,淮南市,焦岗湖风景区管理处,,32,32,27,11,11,156,72,146,117,30,12,3,3,0.4,0.4
2023-08-18T22:00:00,2282A,116.8004,33.975,淮北市,监测站,,50,50,38,17,20,167,111,151,131,14,12,4,4,0.6,0.7
2023-08-18T22:00:00,2283A,116.8091,33.9007,淮北市,烈山区政府,颗粒物(PM10),64,77,52,31,27,182,107,164,142,18,13,4,5,0.6,0.6
2023-08-18T22:00:00,2285A,117.8177,30.9412,铜陵市,市第四中学,,42,42,39,26,25,172,124,167,156,8,10,6,7,0.3,0.4
2023-08-18T22:00:00,2286A,117.8059,30.9273,铜陵市,市公路局,,45,35,36,26,26,194,141,189,176,11,13,5,5,0.4,0.5
2023-08-18T22:00:00,2287A,117.7807,30.9413,铜陵市,市新民污水厂,,48,39,49,20,20,203,152,197,184,10,18,5,6,0.4,0.6
2023-08-18T22:00:00,2288A,117.7439,30.8792,铜陵市,市第九中学,颗粒物(PM10),56,62,64,25,26,191,112,175,152,37,32,4,6,0.5,0.8
2023-08-18T22:00:00,2289A,117.846,30.9413,铜陵市,车站新区,,42,35,40,28,28,186,132,177,165,10,14,6,6,0.4,0.5
2023-08-18T22:00:00,2290A,117.8483,30.97,铜陵市,市职教基地,,40,36,39,21,18,184,127,172,159,11,12,4,5,0.6,0.8
2023-08-18T22:00:00,2291A,117.0809,30.5177,安庆市,环科院,臭氧1小时,53,38,33,22,26,184,162,169,164,12,12,4,6,0.7,0.8
2023-08-18T22:00:00,2292A,117.0331,30.5119,安庆市,马山宾馆,臭氧1小时,72,41,32,20,25,186,177,171,169,12,12,4,5,0.7,0.9
2023-08-18T22:00:00,2294A,116.9896,30.6145,安庆市,安庆大学,,49,35,29,24,23,159,155,154,154,9,8,5,4,0.6,0.7
2023-08-18T22:00:00,2295A,118.2903,29.6963,黄山市,延安路89号,,28,28,31,9,7,133,78,123,109,7,6,6,6,0.4,0.5
2023-08-18T22:00:00,2296A,118.327,29.7178,黄山市,黄山东路89号,,23,16,19,1,7,118,72,109,104,6,6,6,6,0.5,0.5
2023-08-18T22:00:00,2297A,118.1371,30.2756,黄山市,黄山区政府5号楼,,35,34,30,12,14,161,111,141,140,8,7,6,6,0.4,0.5
2023-08-18T22:00:00,2298A,118.3093,32.3153,滁州市,老年大学,,35,35,38,19,21,222,90,195,151,42,22,8,7,0.6,0.5
2023-08-18T22:00:00,2299A,118.3244,32.2786,滁州市,人大宾馆,,35,30,33,21,25,219,109,199,157,24,22,8,8,0.5,0.6
2023-08-18T22:00:00,2301A,115.8277,32.8929,阜阳市,市监测站,,48,48,34,21,18,169,104,158,134,22,14,7,8,0.6,0.6
2023-08-18T22:00:00,2303A,115.8554,32.8605,阜阳市,开发区,,45,44,35,15,13,169,144,156,142,14,13,7,7,0.6,0.5
2023-08-18T22:00:00,2307A,116.5079,31.737,六安市,监测大楼,,41,34,25,19,12,211,130,179,171,8,6,5,5,0.5,0.5
2023-08-18T22:00:00,2308A,116.4738,31.7643,六安市,皖西学院,,45,45,32,17,13,217,119,188,169,14,9,9,6,0.2,0.3
2023-08-18T22:00:00,2309A,116.4996,31.7905,六安市,朝阳厂,,38,33,21,18,16,220,120,190,170,10,9,8,9,0.5,0.6
2023-08-18T22:00:00,2310A,116.5567,31.7886,六安市,开发区,,45,45,35,23,20,210,91,178,150,10,8,5,7,0.6,0.6
2023-08-18T22:00:00,2311A,115.8072,33.8399,亳州市,污水处理厂,,45,45,47,25,27,150,85,141,130,13,10,11,14,0.7,0.7
2023-08-18T22:00:00,2312A,115.7789,33.8518,亳州市,三国揽胜宫,颗粒物(PM10),54,57,50,25,29,138,108,134,130,12,11,8,12,0.8,0.8
2023-08-18T22:00:00,2314A,117.47,30.6618,池州市,池州学院,,44,14,37,28,33,208,140,194,180,15,12,5,7,0.6,0.8
2023-08-18T22:00:00,2316A,118.7581,30.9454,宣城市,鳌峰子站,,37,28,32,14,21,146,116,143,136,13,15,4,5,0.4,0.4
2023-08-18T22:00:00,2317A,118.7385,30.9743,宣城市,敬亭山子站,,27,27,32,17,22,146,71,139,124,31,18,7,8,0.7,0.6
2023-08-18T22:00:00,2318A,118.7173,30.9427,宣城市,开发区子站,,35,24,33,14,22,143,110,141,134,11,13,6,6,0.4,0.4
2023-08-18T22:00:00,2319A,119.0141,25.4325,莆田市,荔城区仓后路,,,,27,0,10,137,97,123,112,6,10,7,7,0.6,0.7
2023-08-18T22:00:00,2320A,119.0015,25.4553,莆田市,莆田市监测站,,,,28,0,7,141,,124,119,2,6,6,6,0.5,0.6
2023-08-18T22:00:00,2321A,119.1119,25.4561,莆田市,涵江区六中,,32,4,23,0,8,131,100,122,116,6,10,7,8,0.6,0.7
2023-08-18T22:00:00,2322A,119.1013,25.3215,莆田市,秀屿区政府,,27,1,26,2,12,132,85,121,109,6,11,7,8,0.6,0.7
2023-08-18T22:00:00,2323A,118.981,25.4792,莆田市,东圳水库,,,,,,,,,,,,,,,,
2023-08-18T22:00:00,2324A,117.6211,26.2625,三明市,三钢,,33,33,38,18,24,118,56,103,88,16,14,14,9,0.9,0.7
2023-08-18T22:00:00,2325A,117.635,26.2714,三明市,三明二中,,28,28,37,15,20,123,43,106,88,19,13,4,5,0.9,0.8
2023-08-18T22:00:00,2326A,117.6028,26.2378,三明市,三元区政府,,25,25,34,7,19,119,70,105,96,7,15,7,12,0.7,1
2023-08-18T22:00:00,2327A,117.7275,26.3108,三明市,洋溪,,,,,,,,,,,,,,,,
2023-08-18T22:00:00,2331A,118.0966,26.6761,南平市,茫荡山,,,,,,,,,,,,,,,,
2023-08-18T22:00:00,2332A,118.1681,26.6369,南平市,南平市监测站,,30,20,23,5,8,103,96,96,95,5,5,5,4,0.6,0.5
2023-08-18T22:00:00,2333A,118.1825,26.6489,南平市,南平铝业有限公司,,30,30,23,10,9,107,96,97,94,7,7,4,4,0.5,0.5
2023-08-18T22:00:00,2334A,118.1756,26.6272,南平市,南平七中,,33,23,39,5,6,109,105,101,101,5,4,4,4,0.6,0.6
2023-08-18T22:00:00,2335A,117.0189,25.1181,龙岩市,龙岩师专,,,,,,,,,,,,,,,,
2023-08-18T22:00:00,2336A,117.0217,25.1033,龙岩市,龙岩市监测站,,30,4,20,10,7,116,94,108,102,9,16,2,3,0.5,0.5
2023-08-18T22:00:00,2337A,117.0258,25.0661,龙岩市,闽西职业技术学院,,29,17,25,11,8,126,90,108,98,5,16,4,5,0.5,0.5
2023-08-18T22:00:00,2338A,117.0196,25.0306,龙岩市,龙岩学院,,25,3,18,9,7,137,77,115,98,5,9,3,4,0.3,0.3
2023-08-18T22:00:00,2339A,119.5001,26.6946,宁德市,金涵水库,,,,,,,,,,,,,,,,
2023-08-18T22:00:00,2341A,119.5388,26.6612,宁德市,宁德市监测站,,26,19,26,10,10,141,81,124,115,8,9,2,3,0.6,0.7
2023-08-18T22:00:00,2342A,117.3102,29.3867,景德镇市,王港中学,,36,36,20,24,14,131,32,108,88,7,4,4,3,0.6,0.5
2023-08-18T22:00:00,2343A,117.2117,29.2933,景德镇市,老干部活动中心,细颗粒物(PM2.5),55,49,25,39,18,118,51,107,94,25,8,8,5,0.7,0.4
2023-08-18T22:00:00,2344A,117.1894,29.2789,景德镇市,兽医站,,39,38,23,27,21,129,52,118,93,25,9,9,7,0.8,0.5
2023-08-18T22:00:00,2345A,117.1547,29.2617,景德镇市,台达陶瓷,,43,34,24,30,20,134,27,116,93,1,2,58,22,0.8,0.6
2023-08-18T22:00:00,2346A,117.2461,29.2956,景德镇市,陶研所,,46,45,32,32,12,120,52,113,92,28,8,5,6,0.5,0.4
2023-08-18T22:00:00,2347A,114.0997,27.5002,萍乡市,武功山,,30,13,16,21,16,127,65,119,99,5,4,7,8,1.4,1.3
2023-08-18T22:00:00,2348A,113.8385,27.6434,萍乡市,中医院,,40,40,40,27,30,151,86,140,118,9,16,9,11,0.7,0.8
2023-08-18T22:00:00,2349A,113.8493,27.6253,萍乡市,市政府车库,,46,46,46,27,29,158,82,151,126,15,14,11,14,0.5,0.5
2023-08-18T22:00:00,2350A,113.8676,27.6435,萍乡市,市环保局,,43,43,48,22,31,141,77,136,116,15,16,11,15,0.4,0.6
2023-08-18T22:00:00,2351A,113.866,27.6198,萍乡市,安源区政府,,46,46,44,30,31,157,72,145,120,21,14,12,12,0.7,0.9
2023-08-18T22:00:00,2352A,115.0861,27.9317,新余市,北岗,,39,33,49,27,32,162,42,137,96,10,8,13,11,0.8,0.9
2023-08-18T22:00:00,2353A,114.9886,27.8431,新余市,飞宇,,,,63,,38,156,,141,127,17,16,15,11,0.6,0.7
2023-08-18T22:00:00,2354A,114.9231,27.8246,新余市,第二水厂,颗粒物(PM10),67,84,69,34,36,174,104,162,142,19,15,8,8,0.3,0.4
2023-08-18T22:00:00,2355A,114.9308,27.8036,新余市,市气象局,颗粒物(PM10),52,53,58,32,37,155,112,144,134,9,12,6,6,1.0,1.1
2023-08-18T22:00:00,2357A,116.9822,28.1136,鹰潭市,龙虎山,细颗粒物(PM2.5),60,39,37,43,30,161,43,138,109,6,4,2,4,0.5,0.3
2023-08-18T22:00:00,2358A,117.0564,28.2642,鹰潭市,新监测站,,47,47,36,32,24,154,115,139,129,4,5,4,10,0.6,0.7
2023-08-18T22:00:00,2359A,117.0311,28.2475,鹰潭市,财苑宾馆,颗粒物(PM10),51,51,41,26,26,151,116,137,128,6,7,3,13,0.5,0.5
2023-08-18T22:00:00,2360A,117.0222,28.2264,鹰潭市,体育馆,颗粒物(PM10),62,74,44,35,28,150,85,139,127,13,12,1,11,0.4,0.5
2023-08-18T22:00:00,2361A,117.0017,28.2131,鹰潭市,三川水表,颗粒物(PM10),62,73,45,34,28,151,67,140,120,3,7,2,6,0.6,0.6
2023-08-18T22:00:00,2362A,114.9017,25.9149,赣州市,通天岩,,,,,,,,,,,,,,,,
2023-08-18T22:00:00,2363A,114.9367,25.8664,赣州市,地委,,43,37,38,30,22,135,96,128,117,6,7,9,13,1.2,1.1
2023-08-18T22:00:00,2364A,114.9461,25.8481,赣州市,气象台,,45,35,30,31,19,154,110,141,128,14,12,5,8,0.7,0.7
2023-08-18T22:00:00,2365A,114.9322,25.8333,赣州市,市图书馆,,35,35,35,24,21,139,97,128,117,13,11,4,5,1.3,1.2
2023-08-18T22:00:00,2366A,114.8905,25.8471,赣州市,华坚鞋城,颗粒物(PM10),56,61,40,30,25,113,63,97,78,12,9,9,17,0.6,0.8
2023-08-18T22:00:00,2367A,114.9754,27.0803,吉安市,红声器材厂,细颗粒物(PM2.5),55,55,56,39,36,175,100,154,134,13,11,30,16,0.9,0.9
2023-08-18T22:00:00,2368A,114.9658,27.0999,吉安市,市森林工业局,细颗粒物(PM2.5),54,55,52,38,36,169,97,150,134,13,9,20,10,0.5,0.6
2023-08-18T22:00:00,2369A,114.99,27.1312,吉安市,市环境监测站,"颗粒物(PM10),细颗粒物(PM2.5)",52,53,54,36,32,156,109,141,124,10,12,10,11,0.8,0.9
2023-08-18T22:00:00,2370A,115.0093,27.0968,吉安市,青原区法院,细颗粒物(PM2.5),62,53,53,44,36,178,108,155,136,13,13,21,18,0.8,0.8
2023-08-18T22:00:00,2371A,114.3408,27.8064,宜春市,槟榔水业,细颗粒物(PM2.5),80,63,41,59,30,142,99,132,114,11,13,2,3,2.0,0.8
2023-08-18T22:00:00,2373A,114.3956,27.7844,宜春市,市石油公司,颗粒物(PM10),62,74,48,41,28,167,53,147,108,27,15,5,4,1.1,1
2023-08-18T22:00:00,2374A,114.3703,27.7914,宜春市,市气象局,细颗粒物(PM2.5),57,62,46,40,29,152,75,141,122,24,15,5,6,1.1,0.9
2023-08-18T22:00:00,2375A,114.4013,27.8074,宜春市,市广电局,颗粒物(PM10),51,52,43,29,29,176,107,157,133,11,12,5,7,0.9,0.8
2023-08-18T22:00:00,2376A,116.2127,28.0814,抚州市,桐源党溪,,38,36,38,26,25,146,30,137,104,10,5,3,3,0.8,0.8
2023-08-18T22:00:00,2377A,116.3544,27.9831,抚州市,市站,,48,48,56,33,37,137,117,124,121,6,10,9,13,0.8,0.9
2023-08-18T22:00:00,2378A,116.3565,27.963,抚州市,血防站,,46,46,56,29,34,138,119,127,124,3,8,5,6,0.8,1
2023-08-18T22:00:00,2379A,116.3564,28.0007,抚州市,采茶剧团,,42,42,52,17,33,132,106,121,117,24,13,10,6,0.7,0.8
2023-08-18T22:00:00,2380A,116.385,27.9647,抚州市,医学分院,,49,49,58,30,35,137,113,124,118,7,12,5,5,1.0,1.3
2023-08-18T22:00:00,2381A,118.005,28.4572,上饶市,百草园,,36,36,30,17,16,117,73,104,98,15,8,9,7,0.8,0.8
2023-08-18T22:00:00,2382A,117.9756,28.4436,上饶市,市监测站,,39,39,33,18,17,139,100,128,122,13,9,8,10,0.5,0.6
2023-08-18T22:00:00,2383A,117.9519,28.4628,上饶市,凤凰光学,,45,45,33,23,16,139,100,129,120,14,10,5,12,0.7,0.8
2023-08-18T22:00:00,2385A,114.17,35.9019,鹤壁市,市监测站,,46,14,51,32,38,202,126,174,151,12,20,2,4,0.9,1.2
2023-08-18T22:00:00,2386A,114.2956,35.7511,鹤壁市,市交警支队,,48,48,58,24,34,182,88,155,130,19,19,10,15,0.8,1
2023-08-18T22:00:00,2387A,114.2878,35.7306,鹤壁市,迎宾馆,,48,48,53,31,34,188,97,161,136,21,20,9,9,0.9,1.1
2023-08-18T22:00:00,2389A,113.836,35.311,新乡市,环保西院,,39,39,56,22,35,180,98,163,147,12,16,3,6,0.7,0.9
2023-08-18T22:00:00,2390A,113.884,35.272,新乡市,开发区,,40,30,51,19,34,188,125,171,154,7,13,2,4,0.7,1
2023-08-18T22:00:00,2391A,113.883,35.303,新乡市,环保东院,,39,39,68,21,34,187,110,169,149,10,19,2,5,0.6,1
2023-08-18T22:00:00,2392A,115.0312,35.7636,濮阳市,环保局,,43,24,48,30,37,162,103,152,126,11,13,4,5,0.8,0.9
2023-08-18T22:00:00,2394A,115.0574,35.7609,濮阳市,油田运输公司,,42,31,57,29,38,162,107,149,125,13,13,5,6,0.7,0.9
2023-08-18T22:00:00,2395A,115.0866,35.7754,濮阳市,油田物探公司,,45,37,59,31,39,170,94,156,124,13,14,4,4,0.7,1
2023-08-18T22:00:00,2396A,113.8276,34.0159,许昌市,监测站,,,,64,,37,171,,158,147,20,20,3,5,0.6,0.5
2023-08-18T22:00:00,2398A,113.7906,33.9953,许昌市,开发区,细颗粒物(PM2.5),70,81,68,51,32,164,104,151,128,26,26,2,2,0.7,0.7
2023-08-18T22:00:00,2399A,114.051,33.5699,漯河市,三五一五工厂,颗粒物(PM10),63,76,72,39,38,166,100,152,146,21,24,10,12,0.7,0.7
2023-08-18T22:00:00,2400A,114.0055,33.5698,漯河市,漯河大学,细颗粒物(PM2.5),58,61,64,41,40,168,123,157,153,16,17,8,10,0.5,0.6
2023-08-18T22:00:00,2401A,114.0138,33.5828,漯河市,市水利局,颗粒物(PM10),58,66,64,39,36,164,112,153,148,17,17,7,9,0.9,0.9
2023-08-18T22:00:00,2402A,114.0261,33.5698,漯河市,市广电局,颗粒物(PM10),55,59,63,37,37,168,121,157,152,15,18,7,8,0.6,0.6
2023-08-18T22:00:00,2404A,112.5224,33.0122,南阳市,瓦房庄,,44,44,56,26,31,178,100,166,134,16,15,6,6,0.7,0.7
2023-08-18T22:00:00,2405A,112.5003,32.9735,南阳市,汉画馆,,39,39,53,27,32,197,94,174,131,13,15,8,8,0.7,0.7
2023-08-18T22:00:00,2406A,112.5573,33.027,南阳市,气象站,细颗粒物(PM2.5),58,24,55,41,33,172,100,161,133,12,12,5,5,0.5,0.6
2023-08-18T22:00:00,2407A,112.5481,32.9689,南阳市,理工学院,,47,47,54,25,29,174,109,164,140,12,13,7,8,0.5,0.5
2023-08-18T22:00:00,2408A,115.6702,34.4285,商丘市,环境监测站,,49,48,58,34,36,151,129,145,143,8,15,6,7,0.7,0.7
2023-08-18T22:00:00,2409A,115.6458,34.4045,商丘市,粮食局,,47,47,60,32,37,151,124,144,142,10,13,3,4,0.6,0.6
2023-08-18T22:00:00,2410A,115.6293,34.3948,商丘市,睢阳区环保局,,50,50,71,32,35,145,119,138,135,15,21,6,6,0.5,0.6
2023-08-18T22:00:00,2420A,114.0189,32.9656,驻马店市,市一纸厂,,,,47,,26,171,,148,148,17,21,18,7,1.2,0.5
2023-08-18T22:00:00,2421A,114.0114,33.015,驻马店市,市彩印厂,颗粒物(PM10),59,68,53,32,25,163,119,145,143,15,15,8,8,0.6,0.6
2023-08-18T22:00:00,2422A,113.9976,32.9771,驻马店市,天方二分厂,细颗粒物(PM2.5),64,71,59,46,32,166,123,145,144,13,13,9,6,1.0,0.6
2023-08-18T22:00:00,2423A,115.0601,30.2313,黄石市,沈家营,颗粒物(PM10),54,58,55,30,23,180,80,161,128,29,21,14,9,0.8,0.6
2023-08-18T22:00:00,2424A,115.0817,30.2006,黄石市,陈家湾,颗粒物(PM10),51,52,54,22,25,172,131,147,130,6,17,9,7,0.7,0.7
2023-08-18T22:00:00,2426A,114.8988,30.2019,黄石市,铁山,,40,40,43,26,24,189,100,177,154,15,12,4,5,0.7,0.8
2023-08-18T22:00:00,2427A,115.0307,30.2092,黄石市,团城山,,49,49,50,24,20,193,98,174,147,27,16,10,7,0.6,0.6
2023-08-18T22:00:00,2428A,111.0419,32.395,十堰市,武当山,,45,45,32,26,21,141,141,125,112,6,7,10,9,0.7,0.8
2023-08-18T22:00:00,2429A,110.78,32.6494,十堰市,滨河新村,颗粒物(PM10),55,59,55,28,29,173,91,140,116,12,12,6,8,0.5,0.6
2023-08-18T22:00:00,2430A,110.7258,32.6389,十堰市,刘家沟,颗粒物(PM10),70,89,82,38,35,150,91,142,129,11,9,6,8,0.7,0.6
2023-08-18T22:00:00,2431A,110.8839,32.5714,十堰市,铁二处,,36,36,43,19,22,203,81,176,129,8,8,5,6,0.6,0.6
2023-08-18T22:00:00,2432A,112.155,32.0197,襄阳市,襄城运动路,颗粒物(PM10),78,106,62,39,33,176,129,170,158,14,14,2,2,0.9,0.9
2023-08-18T22:00:00,2433A,112.1392,32.0564,襄阳市,樊城新华路,颗粒物(PM10),75,100,60,41,34,178,130,166,153,15,13,6,6,0.7,0.7
2023-08-18T22:00:00,2434A,112.1825,32.1142,襄阳市,高新管委会,颗粒物(PM10),78,105,66,42,39,174,129,167,156,16,16,5,5,0.8,0.8
2023-08-18T22:00:00,2435A,112.2106,32.0903,襄阳市,襄州航空路,颗粒物(PM10),83,115,65,40,33,163,106,156,143,23,14,8,7,0.8,0.9
2023-08-18T22:00:00,2436A,114.8938,30.3994,鄂州市,市政府,颗粒物(PM10),52,54,41,35,21,172,90,164,145,25,14,2,3,0.6,0.6
2023-08-18T22:00:00,2437A,114.8989,30.3714,鄂州市,赵家坝,颗粒物(PM10),67,83,54,31,23,178,69,168,142,42,20,3,4,0.5,0.5
