timepoint,stationcode,longitude,latitude,area,positionname,primarypollutant,aqi,pm10,pm10_24h,pm2_5,pm2_5_24h,o3,o3_24h,o3_8h,o3_8h_24h,no2,no2_24h,so2,so2_24h,co,co_24h
2025-08-31T0600,2566A,102.1879,31.914,阿坝藏族羌族自治州,州农科所,,12,12,14,3,7,16,,,,3,6,3,2,0.0,0.1
2025-08-31T0600,2568A,102.2502,31.8896,阿坝藏族羌族自治州,马师校,,15,,14,10,15,0,,,,3,7,8,8,0.4,0.5
2025-08-31T0600,3994A,102.2165,31.9024,阿坝藏族羌族自治州,马尔康中学西区,,18,12,19,12,13,1,,,,3,5,9,8,0.5,0.6
2025-08-31T0600,2695A,80.292,41.1694,阿克苏地区,电视台,颗粒物(PM10),89,127,94,44,37,94,,,,1,9,5,5,0.5,0.5
2025-08-31T0600,2696A,80.2613,41.1551,阿克苏地区,艺术中心,颗粒物(PM10),65,79,94,33,38,61,,,,2,16,4,4,0.4,0.5
2025-08-31T0600,2204A,105.6467,38.8363,阿拉善盟,西城区西花园,,41,14,34,11,11,130,,,,7,13,9,9,0.6,0.6
2025-08-31T0600,2205A,105.6985,38.8411,阿拉善盟,蒙二幼,,39,24,28,8,8,122,,,,3,5,10,9,0.5,0.5
2025-08-31T0600,2206A,105.724,38.8516,阿拉善盟,环保局新楼,,40,20,23,9,9,128,,,,4,5,11,10,0.3,0.4
2025-08-31T0600,2708A,88.1264,47.8517,阿勒泰地区,市站,颗粒物(PM10),58,66,38,8,8,90,,,,2,16,2,3,0.3,0.3
2025-08-31T0600,2630A,80.1161,32.5,阿里地区,阿里监测站,,35,6,5,3,1,112,,,,3,4,4,5,0.2,0.2
2025-08-31T0600,3192A,80.0903,32.5028,阿里地区,阿里藏医院,,40,11,8,3,1,127,,,,1,3,6,6,0.2,0.2
2025-08-31T0600,2642A,109.0318,32.6537,安康市,香溪洞,,13,7,7,3,3,39,,,,3,5,7,7,0.4,0.4
2025-08-31T0600,2644A,109.0072,32.6975,安康市,汉滨区检察院,,11,11,9,6,6,27,,,,6,8,6,6,0.5,0.5
2025-08-31T0600,4054A,109.0325,32.6913,安康市,市邮政管理局,,,10,9,3,4,,,,,6,8,5,6,0.5,0.6
2025-08-31T0600,2291A,117.0809,30.5177,安庆市,环科院,,20,20,21,11,13,21,,,,21,9,6,7,0.7,0.7
2025-08-31T0600,2292A,117.0331,30.5119,安庆市,马山宾馆,,25,,18,17,12,27,,,,11,12,5,5,0.7,0.5
2025-08-31T0600,2294A,116.9896,30.6145,安庆市,安庆大学,,22,22,18,11,10,19,,,,14,10,4,4,0.8,0.5
2025-08-31T0600,3173A,117.0598,30.5351,安庆市,市人大,,19,19,19,12,13,33,,,,14,10,8,7,0.6,0.6
2025-08-31T0600,3123A,105.9408,26.2431,安顺市,凤凰山,,40,38,28,28,26,0,,,,24,16,11,12,0.6,0.6
2025-08-31T0600,3124A,105.9439,26.2564,安顺市,金钟山,,32,23,21,22,18,14,,,,13,6,9,12,0.5,0.5
2025-08-31T0600,3125A,105.8983,26.2481,安顺市,娄家坡,,49,,21,34,19,1,,,,23,10,14,16,0.6,0.5
2025-08-31T0600,1819A,114.3551,36.1017,安阳市,红庙街,,23,23,32,7,13,62,,,,16,15,6,8,0.6,0.6
2025-08-31T0600,1820A,114.361,36.0681,安阳市,银杏小区,,35,28,34,24,19,68,,,,11,15,8,8,0.4,0.5
2025-08-31T0600,3141A,114.3922,36.0878,安阳市,信访局,,28,28,29,15,15,80,,,,9,12,10,7,0.7,0.8
2025-08-31T0600,3669A,114.4705,36.0637,安阳市,左辅环卫站,,36,29,33,25,20,50,,,,20,17,5,7,0.6,0.7
2025-08-31T0600,3703A,114.2917,36.0949,安阳市,安钢职工学校,,35,28,38,24,20,59,,,,11,13,4,7,0.7,0.7
2025-08-31T0600,1748A,123.044,41.1196,鞍山市,深沟寺,,20,20,30,6,17,21,,,,13,10,6,6,0.7,1
2025-08-31T0600,1749A,123.011,41.0931,鞍山市,太阳城,,17,17,23,8,15,26,,,,5,9,5,6,0.5,0.9
2025-08-31T0600,1750A,123.0485,41.1442,鞍山市,太平,,17,17,33,7,19,26,,,,22,18,5,6,0.9,1.2
2025-08-31T0600,1751A,122.9642,41.0971,鞍山市,铁西三道街,,22,22,38,10,22,33,,,,16,21,5,7,0.9,1.2
2025-08-31T0600,1753A,123.022,41.0821,鞍山市,明达新区,,16,13,27,3,16,50,,,,5,9,7,8,0.7,1.1
2025-08-31T0600,4201A,122.9446,41.0826,鞍山市,兴盛南路290号,,29,29,34,10,17,18,,,,25,26,7,8,0.8,1.1
2025-08-31T0600,2195A,107.4212,40.761,巴彦淖尔市,附二中,,23,19,31,16,16,41,,,,32,18,8,12,0.5,0.7
2025-08-31T0600,2196A,107.37,40.7372,巴彦淖尔市,市环保大楼,,31,31,38,17,19,50,,,,9,15,8,11,0.5,0.7
2025-08-31T0600,1956A,86.1472,41.7538,巴音郭楞蒙古自治州,孔雀公园,,34,18,73,11,21,108,,,,4,32,5,6,0.2,0.5
2025-08-31T0600,1957A,86.1972,41.7166,巴音郭楞蒙古自治州,棉纺厂,,36,36,82,10,20,104,,,,6,18,6,5,0.1,0.3
2025-08-31T0600,1958A,86.2357,41.7173,巴音郭楞蒙古自治州,经济开发区,,35,18,63,3,14,109,,,,1,8,8,5,0.2,0.2
2025-08-31T0600,2914A,106.7677,31.8794,巴中市,苏山坪,,9,9,11,3,5,28,,,,8,8,4,4,0.4,0.4
2025-08-31T0600,3181A,106.7768,31.8526,巴中市,市五中,,9,9,12,3,6,25,,,,7,10,6,6,0.4,0.5
2025-08-31T0600,3183A,106.7418,31.8654,巴中市,圣泉水务公司,,12,8,10,3,5,36,,,,6,9,6,6,0.4,0.5
2025-08-31T0600,3616A,106.7616,31.8344,巴中市,市中心医院,,9,9,11,3,6,25,,,,8,10,6,7,0.3,0.3
2025-08-31T0600,2235A,122.7911,45.6077,白城市,洮北区环保局,,32,25,14,22,10,44,,,,4,5,2,4,0.5,0.4
2025-08-31T0600,2236A,122.8738,45.5725,白城市,市环保局,,40,39,18,28,9,42,,,,3,4,2,3,0.6,0.4
2025-08-31T0600,2231A,126.4219,41.9171,白山市,喜丰,,24,24,32,7,9,34,,,,12,10,4,7,0.5,0.6
2025-08-31T0600,2232A,126.4077,41.9419,白山市,环保局,,19,,24,13,14,45,,,,9,11,6,6,0.5,0.6
2025-08-31T0600,2647A,104.1724,36.5446,白银市,第三小学,,35,35,39,18,18,48,,,,16,19,70,20,1.3,0.9
2025-08-31T0600,2648A,104.1465,36.5482,白银市,动力公司,,39,39,39,11,12,19,,,,19,20,16,12,1.3,0.7
2025-08-31T0600,2512A,106.6103,23.9011,百色市,市监测站,,27,27,22,9,9,9,,,,17,10,6,6,0.5,0.5
2025-08-31T0600,2513A,106.6538,23.8859,百色市,市中心血站,,38,38,30,17,15,6,,,,22,16,7,6,0.7,0.7
2025-08-31T0600,3406A,106.6085,23.8798,百色市,祈福高中,,41,41,31,12,13,2,,,,19,15,4,5,0.6,0.5
2025-08-31T0600,2270A,117.396,32.939,蚌埠市,工人疗养院,,17,11,17,3,6,54,,,,1,7,4,4,0.2,0.3
2025-08-31T0600,2271A,117.3605,32.9427,蚌埠市,百货大楼,,15,10,12,3,7,45,,,,8,7,12,7,0.5,0.5
2025-08-31T0600,2273A,117.4185,32.8911,蚌埠市,蚌埠学院,,,6,12,3,8,,,,,2,7,5,6,0.2,0.4
2025-08-31T0600,2274A,117.3533,32.9673,蚌埠市,淮上区政府,,16,9,15,8,10,50,,,,6,7,7,6,0.4,0.5
2025-08-31T0600,2275A,117.3145,32.8977,蚌埠市,高新区,,15,7,10,3,7,48,,,,5,8,6,6,0.4,0.5
2025-08-31T0600,3715A,117.3092,32.9314,蚌埠市,蚌埠田家炳中学,,16,9,11,3,8,49,,,,6,9,9,6,0.3,0.3
2025-08-31T0600,1585A,109.8756,40.6532,包头市,市环境监测站,,37,37,38,10,15,42,,,,24,31,6,6,0.8,0.7
2025-08-31T0600,1587A,109.9991,40.5842,包头市,包头八中,颗粒物(PM10),52,53,40,25,18,14,,,,44,21,7,8,1.0,0.7
2025-08-31T0600,1588A,109.8538,40.6821,包头市,青山宾馆,,33,33,41,17,20,22,,,,35,33,4,6,0.7,0.6
2025-08-31T0600,1589A,109.8642,40.6288,包头市,惠龙物流,,33,33,35,11,17,36,,,,24,18,6,6,0.6,0.6
2025-08-31T0600,1590A,110.0377,40.5546,包头市,东河鸿龙湾,,46,46,36,28,18,17,,,,43,21,6,7,1.0,0.7
2025-08-31T0600,3283A,109.9154,40.5685,包头市,滨河大厦,,32,32,30,19,15,8,,,,48,20,6,5,0.5,0.4
2025-08-31T0600,3419A,109.9447,40.6261,包头市,包头市委党校,,36,36,32,15,19,29,,,,37,23,9,9,0.8,0.6
2025-08-31T0600,3683A,109.8331,40.6576,包头市,昆区政府,,30,30,41,18,20,45,,,,18,17,7,7,0.6,0.6
2025-08-31T0600,1930A,107.185,34.3063,宝鸡市,庙沟村,,13,10,16,3,6,41,,,,5,12,5,4,0.4,0.5
2025-08-31T0600,1931A,107.0708,34.3017,宝鸡市,竹园沟,,24,24,20,3,9,8,,,,8,9,8,8,0.2,0.3
2025-08-31T0600,1932A,107.1906,34.3672,宝鸡市,三陆医院,,28,24,20,19,12,11,,,,27,20,8,8,0.5,0.5
2025-08-31T0600,1933A,107.1431,34.3547,宝鸡市,监测站,,16,16,22,8,9,18,,,,8,14,8,9,0.6,0.7
2025-08-31T0600,1934A,107.1186,34.3739,宝鸡市,技工学校,,26,26,23,15,11,13,,,,14,14,6,6,0.4,0.4
2025-08-31T0600,1936A,107.2058,34.3497,宝鸡市,文理学院,,22,22,21,11,10,10,,,,17,16,7,8,0.4,0.5
2025-08-31T0600,1937A,107.2386,34.3622,宝鸡市,三迪小学,,29,29,22,18,14,11,,,,28,21,4,5,0.5,0.6
2025-08-31T0600,4308A,107.3898,34.3601,宝鸡市,陈仓区北开路21号,,20,14,8,14,12,10,,,,21,14,5,8,0.4,0.4
2025-08-31T0600,1051A,115.493,38.8632,保定市,游泳馆,,33,33,28,15,9,34,,,,22,12,2,2,0.3,0.2
2025-08-31T0600,1052A,115.5213,38.8959,保定市,华电二区,,31,31,26,15,9,54,,,,12,11,2,2,0.5,0.4
2025-08-31T0600,1053A,115.4713,38.9108,保定市,接待中心,,34,34,25,21,10,39,,,,12,6,3,1,0.2,0.2
2025-08-31T0600,1054A,115.4612,38.8416,保定市,地表水厂,,41,41,33,15,9,21,,,,29,19,6,5,0.4,0.3
2025-08-31T0600,3581A,115.31981,38.95208,保定市,满城区生态环境分局,,31,31,29,12,10,25,,,,18,14,3,3,0.2,0.2
2025-08-31T0600,3582A,115.47694,38.76408,保定市,清苑区第二中学,,48,48,42,15,11,35,,,,16,12,1,3,0.3,0.3
2025-08-31T0600,3583A,115.62909,39.02311,保定市,徐水物探局,颗粒物(PM10),56,61,36,3,5,8,,,,36,21,4,3,0.4,0.3
2025-08-31T0600,4004A,115.4202,38.8656,保定市,双鹰农机,,35,35,30,14,14,27,,,,19,13,5,5,0.3,0.3
2025-08-31T0600,4034A,115.5150,38.8590,保定市,植保所站,,37,37,36,21,17,55,,,,18,17,6,3,0.2,0.2
2025-08-31T0600,2594A,99.1678,25.1081,保山市,市环境监测站,,23,,19,16,17,14,,,,4,8,8,9,0.3,0.4
2025-08-31T0600,2595A,99.1711,25.1328,保山市,市环保局,,16,15,21,11,12,19,,,,2,5,7,7,0.3,0.4
2025-08-31T0600,1867A,109.1436,21.4086,北海市,海滩公园,,12,12,14,3,4,22,,,,11,5,6,5,0.6,0.5
2025-08-31T0600,1868A,109.0981,21.4661,北海市,新市环保局,,17,17,14,9,8,18,,,,16,8,15,6,0.6,0.5
2025-08-31T0600,1869A,109.1778,21.5233,北海市,北海工业园,,20,20,21,7,8,17,,,,11,9,24,10,0.6,0.5
2025-08-31T0600,3400A,109.1911,21.4415,北海市,龙潭自来水厂,,16,16,13,8,8,17,,,,12,6,6,4,0.5,0.4
2025-08-31T0600,1001A,116.3621,39.8784,北京市,万寿西宫,,32,32,25,20,15,23,,,,25,12,3,3,0.5,0.5
2025-08-31T0600,1002A,116.2202,40.2915,北京市,定陵,,20,20,27,11,18,31,,,,2,2,6,5,0.3,1.1
2025-08-31T0600,1003A,116.4174,39.9289,北京市,东四,,33,33,29,17,16,26,,,,28,19,3,3,0.5,0.5
2025-08-31T0600,1004A,116.4072,39.8863,北京市,天坛,,25,25,24,12,12,7,,,,20,8,3,3,0.5,0.4
2025-08-31T0600,1005A,116.462,39.9365,北京市,农展馆,,30,30,24,17,17,11,,,,29,14,8,4,0.5,0.5
2025-08-31T0600,1006A,116.3392,39.9295,北京市,官园,,32,32,28,18,17,30,,,,27,16,5,6,0.4,0.4
2025-08-31T0600,1007A,116.2878,39.9611,北京市,海淀万柳,,30,30,28,17,16,10,,,,23,14,3,3,0.3,0.4
2025-08-31T0600,1009A,116.6275,40.3275,北京市,怀柔镇,,18,18,27,11,18,37,,,,6,9,3,2,0.6,0.7
2025-08-31T0600,1010A,116.2296,40.217,北京市,昌平镇,,22,22,28,12,17,44,,,,7,10,4,4,0.5,0.6
2025-08-31T0600,1011A,116.3966,39.9821,北京市,奥体中心,,33,33,22,18,13,25,,,,23,13,3,4,0.3,0.4
2025-08-31T0600,3281A,115.9718,40.4529,北京市,延庆夏都,,32,32,32,19,20,9,,,,25,9,2,2,0.5,0.5
2025-08-31T0600,3418A,116.8336,40.4095,北京市,密云新城,,36,36,29,24,19,41,,,,3,5,2,2,0.5,0.5
2025-08-31T0600,3671A,116.088,39.9726,北京市,门头沟三家店,,25,25,28,15,14,17,,,,10,10,3,4,0.5,0.5
2025-08-31T0600,3672A,116.1541,39.8204,北京市,丰台云岗,,27,27,27,12,14,15,,,,12,11,2,3,0.4,0.5
2025-08-31T0600,3673A,116.6804,39.9081,北京市,通州东关,,31,31,24,15,15,5,,,,35,18,3,2,0.6,0.6
2025-08-31T0600,3674A,115.9577,39.7603,北京市,房山燕山,,22,22,23,13,13,20,,,,7,6,1,1,0.3,0.3
2025-08-31T0600,3675A,116.4672,39.7733,北京市,大兴旧宫,,19,19,18,11,11,1,,,,19,10,2,2,0.3,0.3
2025-08-31T0600,3694A,115.986,40.4563,北京市,延庆石河营,,29,29,33,20,20,7,,,,5,5,1,1,0.4,0.5
2025-08-31T0600,3695A,116.6151,40.3053,北京市,怀柔新城,,20,20,28,11,17,41,,,,2,5,3,3,0.5,0.6
2025-08-31T0600,3696A,116.2545,39.8768,北京市,丰台小屯,,33,33,25,19,14,18,,,,14,11,1,1,0.6,0.5
2025-08-31T0600,3697A,116.84,40.3844,北京市,密云镇,,29,29,30,13,18,20,,,,15,11,4,4,0.6,0.6
2025-08-31T0600,4182A,116.1942,39.9158,北京市,八角北路9号,,30,30,28,16,15,28,,,,10,11,3,2,0.4,0.4
2025-08-31T0600,4194A,117.0790,40.1518,北京市,洳河巡河路,,20,20,34,9,20,22,,,,4,7,3,3,0.4,0.5
2025-08-31T0600,1761A,123.8275,41.3064,本溪市,大峪,,21,21,32,6,16,5,,,,27,19,6,6,0.5,0.8
2025-08-31T0600,1762A,123.7567,41.3325,本溪市,溪湖,,32,32,39,13,18,6,,,,14,14,5,6,1.2,1.6
2025-08-31T0600,1763A,123.7169,41.3094,本溪市,彩屯,,27,27,34,14,20,3,,,,21,26,9,10,1.3,1.9
2025-08-31T0600,1764A,123.7669,41.2864,本溪市,东明,,24,24,33,6,15,13,,,,22,20,4,4,0.8,1
2025-08-31T0600,1765A,123.7992,41.2664,本溪市,新立屯,,18,18,29,6,21,11,,,,22,18,5,5,0.3,0.5
2025-08-31T0600,1766A,123.8142,41.3472,本溪市,威宁,,20,20,27,12,17,6,,,,14,15,5,5,1.0,0.9
2025-08-31T0600,2587A,105.2864,27.3125,毕节市,八中,,12,,15,7,12,38,,,,3,4,4,5,0.4,0.4
2025-08-31T0600,2588A,105.31,27.2944,毕节市,师专,,15,8,15,7,11,45,,,,4,6,5,6,0.4,0.4
2025-08-31T0600,4263A,105.3688,27.3598,毕节市,工业大道,,15,7,14,3,10,46,,,,6,6,6,7,0.6,0.6
2025-08-31T0600,1629A,118.0018,37.3617,滨州市,第二水厂,,28,,20,19,14,79,,,,4,10,3,4,0.3,0.4
2025-08-31T0600,1630A,117.9776,37.393,滨州市,北中新校,,20,17,22,14,14,63,,,,5,9,2,5,0.0,0.1
2025-08-31T0600,3514A,117.9378,37.3956,滨州市,中海酒店,,20,14,23,14,15,53,,,,4,7,2,5,0.4,0.5
2025-08-31T0600,3515A,117.9378,37.3553,滨州市,开发区一中,,30,17,21,9,15,96,,,,6,10,4,5,0.2,0.3
2025-08-31T0600,3516A,118.0917,37.694,滨州市,金海六路,,20,15,14,14,9,36,,,,18,9,3,3,0.1,0.2
2025-08-31T0600,4028A,117.9956,37.3753,滨州市,滨州市西街道办事处,,23,,15,14,16,72,,,,9,11,2,3,0.4,0.5
2025-08-31T0600,2311A,115.8072,33.8399,亳州市,污水处理厂,,39,,28,27,22,64,,,,9,8,2,4,0.7,0.7
2025-08-31T0600,2312A,115.7789,33.8518,亳州市,三国揽胜宫,,39,39,40,26,19,67,,,,8,8,3,4,0.7,0.7
2025-08-31T0600,3332A,115.7633,33.8034,亳州市,亳州学院,,42,,34,29,20,67,,,,6,6,3,4,0.8,0.8
2025-08-31T0600,2693A,82.0485,44.8556,博尔塔拉蒙古自治州,市党校,颗粒物(PM10),67,83,33,35,15,95,,,,3,7,3,4,0.1,0.1
2025-08-31T0600,2694A,82.0806,44.8969,博尔塔拉蒙古自治州,市环保局,,47,47,50,12,15,66,,,,4,7,6,5,0.3,0.3
2025-08-31T0600,1071A,116.8842,38.2991,沧州市,沧县城建局,,35,31,22,24,14,37,,,,29,18,4,3,0.3,0.2
2025-08-31T0600,1072A,116.8584,38.3254,沧州市,电视转播站,,41,41,39,17,10,26,,,,23,18,4,3,0.4,0.3
2025-08-31T0600,1073A,116.8709,38.3228,沧州市,市环保局,,41,41,29,25,17,48,,,,20,18,6,6,0.4,0.3
2025-08-31T0600,3324A,116.8136,38.3004,沧州市,河北水利电力学院,,29,29,17,17,14,28,,,,35,22,4,4,0.4,0.3
2025-08-31T0600,2622A,97.1806,31.1273,昌都市,昌都监测站,,8,,15,3,6,25,,,,2,5,3,2,0.2,0.2
2025-08-31T0600,3719A,97.1714,31.1406,昌都市,昌都会议中心,,9,6,8,3,5,27,,,,2,4,3,4,0.2,0.2
2025-08-31T0600,2690A,88.1236,43.8886,昌吉回族自治州,天山天池,,25,13,14,3,5,80,,,,6,8,2,2,0.5,0.5
2025-08-31T0600,2692A,87.2717,44.0297,昌吉回族自治州,新区政务中心,,37,37,37,17,13,62,,,,16,23,7,7,0.3,0.3
2025-08-31T0600,3613A,87.3095,44.0142,昌吉回族自治州,亚心广场,颗粒物(PM10),51,51,56,19,12,53,,,,23,28,8,9,0.4,0.5
2025-08-31T0600,1120A,125.2863,43.9027,长春市,客车厂,,43,43,45,30,27,79,,,,11,24,4,4,0.9,0.7
2025-08-31T0600,1121A,125.2841,43.8463,长春市,邮电学院,颗粒物(PM10),51,51,43,32,23,63,,,,9,15,5,5,1.1,0.8
2025-08-31T0600,1122A,125.3716,43.8772,长春市,劳动公园,,46,40,50,32,29,54,,,,17,22,7,8,0.8,0.6
2025-08-31T0600,1123A,125.3297,43.8805,长春市,园林处,颗粒物(PM10),52,54,43,32,24,71,,,,12,17,4,5,1.0,0.8
2025-08-31T0600,1124A,125.4605,43.79,长春市,净月潭,,33,33,33,16,16,11,,,,6,6,4,5,0.6,0.5
2025-08-31T0600,1126A,125.3863,43.8447,长春市,经开区环卫处,,50,50,49,24,21,14,,,,29,25,4,4,0.9,0.8
2025-08-31T0600,1127A,125.245,43.7783,长春市,高新区管委会,,42,40,38,29,23,38,,,,14,16,3,3,0.9,0.7
2025-08-31T0600,1128A,125.1761,43.8325,长春市,岱山公园,细颗粒物(PM2.5),52,41,53,36,30,26,,,,34,28,4,3,0.8,0.6
2025-08-31T0600,4281A,125.3346,43.9164,长春市,北亚泰大街1068号,,47,47,48,31,28,77,,,,14,24,8,7,1.0,0.8
2025-08-31T0600,1335A,113.0833,28.2325,长沙市,经开区环保局,,24,24,39,10,27,13,,,,12,14,4,4,0.3,0.4
2025-08-31T0600,1336A,112.8872,28.2189,长沙市,高开区环保局,,27,27,46,14,25,14,,,,19,10,5,4,0.3,0.4
2025-08-31T0600,1337A,113.0792,28.2053,长沙市,马坡岭,,27,27,41,13,25,10,,,,17,16,4,5,0.4,0.5
2025-08-31T0600,1338A,112.9394,28.19,长沙市,湖南师范大学,,25,25,42,11,24,10,,,,32,18,2,3,0.5,0.5
2025-08-31T0600,1339A,113.0178,28.1322,长沙市,雨花区环保局,,22,22,43,12,23,17,,,,14,14,5,6,0.6,0.7
2025-08-31T0600,1340A,112.9792,28.2597,长沙市,伍家岭,,23,23,41,11,28,10,,,,15,13,2,2,0.2,0.3
2025-08-31T0600,1341A,113.0014,28.1944,长沙市,火车新站,,20,20,43,7,23,28,,,,11,14,7,6,0.4,0.5
2025-08-31T0600,1342A,112.9844,28.1178,长沙市,天心区环保局,,17,17,39,11,25,24,,,,17,15,3,3,0.2,0.3
2025-08-31T0600,1343A,112.8908,28.1308,长沙市,湖南中医药大学,,20,20,44,13,32,20,,,,12,12,3,3,0.5,0.6
2025-08-31T0600,1344A,112.9581,28.3611,长沙市,沙坪,,19,19,34,9,23,20,,,,10,9,2,2,0.4,0.5
2025-08-31T0600,1727A,113.1147,36.1547,长治市,清华站,,32,25,26,22,13,52,,,,13,15,8,10,1.1,0.9
2025-08-31T0600,1730A,113.0886,36.2125,长治市,审计局,,39,,23,27,17,50,,,,12,16,6,8,0.9,0.9
2025-08-31T0600,1731A,113.0844,36.1856,长治市,长治八中,,39,32,29,27,25,55,,,,8,14,8,10,1.0,1
2025-08-31T0600,2845A,113.1569,36.1911,长治市,德盛苑,,28,,21,19,9,44,,,,10,8,7,9,0.8,0.7
2025-08-31T0600,3568A,113.06,36.0464,长治市,向阳小学,颗粒物(PM10),64,78,66,32,30,40,,,,18,22,5,8,0.9,1
2025-08-31T0600,3569A,112.8792,36.3144,长治市,屯留一中,颗粒物(PM10),53,56,40,31,26,52,,,,11,24,8,12,1.2,0.8
2025-08-31T0600,4189A,113.1131,36.19948,长治市,英华南巷50号,,45,,28,31,17,49,,,,9,14,7,11,0.9,0.9
2025-08-31T0600,4190A,113.2367,36.3344,长治市,学府街1号,,18,,26,12,12,21,,,,18,16,1,3,0.6,0.7
2025-08-31T0600,1854A,111.6975,28.9703,常德市,市二中,,15,13,24,10,17,21,,,,11,7,7,5,0.5,0.5
2025-08-31T0600,3138A,111.7153,29.0289,常德市,武陵区永安,,12,10,24,8,14,33,,,,3,4,4,5,0.3,0.4
2025-08-31T0600,3139A,111.6892,28.9881,常德市,鼎城区玉霞,,15,13,25,10,15,24,,,,7,4,9,7,0.4,0.4
2025-08-31T0600,3140A,111.6625,29.0531,常德市,武陵区长庚,,19,19,27,8,18,33,,,,3,3,6,6,0.4,0.4
2025-08-31T0600,1196A,119.9633,31.762,常州市,市监测站,,27,27,34,14,17,36,,,,18,14,12,10,0.6,0.5
2025-08-31T0600,1200A,119.9468,31.7069,常州市,武进监测站,,22,22,24,14,14,34,,,,16,11,9,9,0.6,0.4
2025-08-31T0600,1201A,119.9255,31.9087,常州市,安家,,33,33,32,12,15,11,,,,38,19,11,10,1.1,0.8
2025-08-31T0600,3002A,119.9805,31.8174,常州市,行政中心,,26,21,30,18,18,24,,,,25,17,2,2,0.7,0.6
2025-08-31T0600,3003A,120.0522,31.7748,常州市,经开区,颗粒物(PM10),53,55,38,13,15,22,,,,29,18,6,4,1.0,1
2025-08-31T0600,3010A,119.9025,31.7964,常州市,钟楼,,25,25,30,11,14,41,,,,19,16,7,7,0.7,0.6
2025-08-31T0600,3429A,119.8598,31.7066,常州市,武进经发区,,21,21,33,10,16,40,,,,11,9,8,9,0.6,0.5
2025-08-31T0600,3430A,119.5826,31.7245,常州市,金坛城区,,20,15,20,10,13,62,,,,11,11,6,7,0.6,0.4
2025-08-31T0600,2220A,120.4318,41.5881,朝阳市,西梁,细颗粒物(PM2.5),53,51,52,37,29,2,,,,20,21,5,7,1.0,1.1
2025-08-31T0600,2221A,120.4521,41.5646,朝阳市,河畔小区,,43,39,38,30,25,17,,,,15,10,6,7,1.0,1.1
2025-08-31T0600,2222A,120.4176,41.5648,朝阳市,八里堡,,38,36,43,26,26,24,,,,16,19,6,9,0.9,1.1
2025-08-31T0600,2223A,120.3806,41.5969,朝阳市,农业园区,,40,28,42,28,31,9,,,,11,16,4,5,0.9,0.9
2025-08-31T0600,1705A,116.6367,23.6719,潮州市,西园路,,18,18,22,12,12,8,,,,14,10,3,5,0.3,0.3
2025-08-31T0600,3026A,116.6183,23.6608,潮州市,市政府,,,35,26,14,11,6,,,,18,9,10,7,,0.4
2025-08-31T0600,4036A,116.6461,23.6761,潮州市,金山,,20,20,22,14,14,5,,,,13,9,5,6,0.4,0.3
2025-08-31T0600,2472A,113.0073,25.9061,郴州市,马头岭,,22,22,25,11,10,4,,,,16,12,5,6,0.4,0.4
2025-08-31T0600,2473A,113.0116,25.8226,郴州市,市职中,,20,20,18,9,13,9,,,,12,9,4,4,0.4,0.5
2025-08-31T0600,2475A,113.0383,25.8071,郴州市,市审计局,,14,14,18,9,13,18,,,,10,9,8,7,0.4,0.4
2025-08-31T0600,2476A,113.0348,25.7759,郴州市,市环保局,,23,23,22,13,15,15,,,,8,4,6,6,0.3,0.2
2025-08-31T0600,4252A,113.0138,25.8011,郴州市,好美居路49号,,14,14,18,6,11,18,,,,11,9,5,6,0.3,0.4
2025-08-31T0600,1431A,103.9728,30.7236,成都市,金泉两河,,19,19,13,10,4,24,,,,21,16,2,2,0.5,0.5
2025-08-31T0600,1432A,104.176,30.6872,成都市,十里店,,25,25,19,8,6,35,,,,19,23,2,2,0.6,0.6
2025-08-31T0600,1433A,104.079,30.5706,成都市,三瓦窑,,26,26,15,16,8,44,,,,24,27,4,2,0.4,0.4
2025-08-31T0600,1434A,104.1114,30.63,成都市,沙河铺,,34,34,21,16,8,13,,,,14,15,3,3,0.7,0.7
2025-08-31T0600,1437A,104.0786,30.6531,成都市,君平街,,32,32,23,16,10,49,,,,11,16,3,2,0.5,0.5
2025-08-31T0600,2880A,104.0239,30.65639,成都市,大石西路,,,28,21,16,11,,,,,24,22,2,2,0.6,0.6
2025-08-31T0600,3136A,104.2725,30.5589,成都市,龙泉驿区区政府,,17,17,8,3,2,48,,,,13,15,4,4,0.5,0.5
2025-08-31T0600,3357A,104.0106,30.6931,成都市,金博路,,20,20,9,3,6,40,,,,17,19,5,4,0.7,0.7
2025-08-31T0600,3359A,104.0578,30.5225,成都市,华阳,,32,22,13,22,10,39,,,,13,17,5,1,0.6,0.5
2025-08-31T0600,3488A,104.3853,30.7453,成都市,青白江技师分院,,43,32,18,30,10,14,,,,25,22,1,3,0.7,0.6
2025-08-31T0600,3489A,104.0789,30.4072,成都市,科学城,,30,29,17,21,10,31,,,,14,15,4,4,0.5,0.5
2025-08-31T0600,4011A,103.8506,30.6947,成都市,光华大道三段,,48,44,17,33,7,24,,,,21,17,4,2,0.6,0.5
2025-08-31T0600,4224A,104.2433,30.5353,成都市,鲸龙路1057号,,18,18,16,9,10,52,,,,10,18,3,3,0.4,0.4
2025-08-31T0600,1062A,117.9531,40.9081,承德市,铁路,颗粒物(PM10),51,52,40,18,20,3,,,,24,18,3,4,0.5,0.5
2025-08-31T0600,1063A,117.9392,40.9763,承德市,中国银行,颗粒物(PM10),53,55,28,17,23,7,,,,12,12,3,4,0.4,0.5
2025-08-31T0600,1064A,117.9503,40.928,承德市,开发区,,42,42,41,18,19,12,,,,17,18,4,5,0.5,0.7
2025-08-31T0600,1066A,117.9268,41.0026,承德市,离宫,,34,34,34,10,10,13,,,,12,8,5,5,0.5,0.5
2025-08-31T0600,4274A,117.7994,40.9605,承德市,滨河大街98号,,49,,30,34,19,39,,,,8,7,3,4,0.5,0.5
2025-08-31T0600,2314A,117.47,30.6618,池州市,池州学院,,12,12,22,8,13,20,,,,14,10,5,6,0.9,0.6
2025-08-31T0600,3237A,117.4918,30.6617,池州市,展览馆,,13,13,19,6,12,19,,,,11,10,5,5,0.8,0.7
2025-08-31T0600,3333A,117.5627,30.695,池州市,第八中学,,16,16,21,3,11,22,,,,6,8,5,6,0.5,0.5
2025-08-31T0600,3334A,117.5038,30.6243,池州市,第十二中学,,16,16,19,6,11,22,,,,17,14,3,4,0.8,0.8
2025-08-31T0600,1744A,118.9233,42.2816,赤峰市,松山一中,,25,25,22,6,9,1,,,,37,24,6,6,0.9,0.6
2025-08-31T0600,1745A,118.9576,42.2728,赤峰市,哈达街,,18,18,19,3,6,25,,,,15,18,19,18,0.5,0.5
2025-08-31T0600,1746A,118.8788,42.2554,赤峰市,天义路,,23,,10,16,9,12,,,,28,14,20,12,0.4,0.3
2025-08-31T0600,3058A,119.2658,42.0353,赤峰市,银河街,,34,34,47,13,20,4,,,,19,18,15,24,0.6,0.8
2025-08-31T0600,3286A,118.9359,42.3147,赤峰市,桥北物流园区,,15,12,22,10,12,11,,,,17,24,8,9,0.8,0.8
2025-08-31T0600,2521A,107.3476,22.4136,崇左市,市环保局江州分局,,24,24,26,8,9,14,,,,12,9,6,7,0.6,0.7
2025-08-31T0600,4256A,107.3750,22.3736,崇左市,石景林东路7号,,24,24,20,11,10,16,,,,16,11,4,4,0.5,0.5
2025-08-31T0600,2298A,118.3093,32.3153,滁州市,老年大学,,20,,20,14,15,37,,,,14,7,8,9,0.3,0.2
2025-08-31T0600,2299A,118.3244,32.2786,滁州市,人大宾馆,,22,,15,15,13,36,,,,11,4,5,5,0.4,0.3
2025-08-31T0600,3207A,118.3118,32.3038,滁州市,市政府原办公楼,,16,,16,11,18,36,,,,11,5,6,5,0.4,0.3
2025-08-31T0600,3331A,118.3267,32.2634,滁州市,图书馆,,26,,18,18,12,41,,,,11,4,11,10,0.4,0.3
2025-08-31T0600,2605A,101.5482,25.0441,楚雄彝族自治州,州环境监测站,,22,18,20,15,14,0,,,,15,14,4,6,0.5,0.5
2025-08-31T0600,2606A,101.538,25.0492,楚雄彝族自治州,市经济开发区,,28,28,22,15,14,0,,,,15,16,7,9,0.7,0.7
2025-08-31T0600,2548A,107.5277,31.2827,达州市,达州职业技术学院,,26,26,41,3,19,22,,,,11,10,6,7,0.3,0.4
2025-08-31T0600,2549A,107.5086,31.2186,达州市,市环境监测站,,26,26,36,12,18,35,,,,11,16,5,6,0.4,0.4
2025-08-31T0600,2550A,107.4988,31.2132,达州市,凤凰小区,,22,22,31,14,22,31,,,,9,13,3,2,0.3,0.3
2025-08-31T0600,2551A,107.5082,31.1986,达州市,达县机关宾馆,,19,19,36,6,20,25,,,,16,19,3,4,0.3,0.4
2025-08-31T0600,2552A,107.4644,31.2124,达州市,市政中心,,42,42,41,22,19,34,,,,10,9,2,3,0.3,0.3
2025-08-31T0600,2614A,100.1542,25.7054,大理白族自治州,大理市环境监测站,,25,,20,17,19,24,,,,8,11,4,4,0.5,0.6
2025-08-31T0600,2615A,100.2171,25.5811,大理白族自治州,大理古城,,12,9,16,8,10,24,,,,6,7,5,6,0.5,0.6
2025-08-31T0600,1109A,121.612,38.9741,大连市,甘井子,,20,6,13,3,8,62,,,,15,16,7,7,0.7,0.3
2025-08-31T0600,1110A,121.565,38.9511,大连市,周水子,,19,10,14,3,9,58,,,,7,13,5,5,0.4,0.4
2025-08-31T0600,1111A,121.5637,38.8845,大连市,星海三站,,22,11,17,3,8,69,,,,14,13,4,4,0.3,0.3
2025-08-31T0600,1113A,121.6251,38.8638,大连市,傅家庄,,24,7,12,3,7,74,,,,10,9,10,10,0.4,0.3
2025-08-31T0600,1114A,121.5213,38.8661,大连市,七贤岭,,20,9,13,3,8,63,,,,6,8,5,5,0.6,0.5
2025-08-31T0600,1115A,121.2529,38.8061,大连市,旅顺,,19,8,10,3,7,60,,,,2,5,7,6,0.3,0.3
2025-08-31T0600,1116A,121.7485,39.1311,大连市,金州,,22,6,15,3,9,68,,,,6,11,5,6,0.2,0.4
2025-08-31T0600,1117A,121.7811,39.0496,大连市,开发区,,21,12,20,3,10,67,,,,6,15,5,6,0.3,0.3
2025-08-31T0600,1118A,121.9762,39.0631,大连市,双D港,,21,6,12,3,8,66,,,,3,4,8,8,0.5,0.5
2025-08-31T0600,1789A,124.81117,46.03138,大庆市,大同区,,30,30,22,20,10,47,,,,8,8,8,9,0.8,0.6
2025-08-31T0600,1790A,125.129,46.533,大庆市,龙凤区,,27,27,24,9,9,33,,,,12,14,8,9,0.6,0.5
2025-08-31T0600,1791A,124.902,46.408,大庆市,红岗区,,29,29,24,12,11,33,,,,10,11,6,6,0.8,0.5
2025-08-31T0600,1792A,125.153,46.586,大庆市,萨尔图区,,25,25,35,16,13,32,,,,10,18,8,8,0.7,0.6
2025-08-31T0600,1793A,124.9042,46.6215,大庆市,让胡路区,,26,26,25,18,13,36,,,,8,12,5,6,0.5,0.3
2025-08-31T0600,3481A,125.141,46.634,大庆市,萨区政府监测点,,39,39,27,12,7,46,,,,8,13,8,8,0.6,0.4
2025-08-31T0600,1723A,113.2994,40.0758,大同市,云冈宾馆,,43,43,42,15,26,35,,,,23,27,6,8,1.6,0.9
2025-08-31T0600,1724A,113.3444,40.0917,大同市,大同大学,,36,36,37,19,22,36,,,,25,26,11,10,0.9,0.7
2025-08-31T0600,1725A,113.2661,40.1269,大同市,安家小村,,,42,43,19,22,,,,,25,22,5,8,1.3,1
2025-08-31T0600,1726A,113.2711,40.0844,大同市,教育学院,,45,45,54,21,28,20,,,,27,28,7,10,1.6,1.1
2025-08-31T0600,3282A,113.3397,40.0597,大同市,大同市卫生学校,,40,40,46,20,26,20,,,,38,28,10,11,1.2,0.8
2025-08-31T0600,3565A,113.1367,40.1122,大同市,云冈站,,34,34,47,15,26,24,,,,10,12,4,7,0.6,0.7
2025-08-31T0600,3566A,113.1186,40.2556,大同市,图书馆,,27,27,38,9,21,18,,,,5,10,3,6,0.7,0.7
2025-08-31T0600,3567A,113.5931,40.0461,大同市,区一中,,22,21,32,15,15,34,,,,7,9,9,11,0.4,0.5
2025-08-31T0600,4199A,113.2798,40.0997,大同市,魏都大道141号,,50,50,52,32,27,22,,,,23,27,4,5,1.3,1.1
2025-08-31T0600,2269A,124.1069,50.4097,大兴安岭地区,科技局,,32,32,26,3,7,0,,,,4,6,3,5,0.4,0.3
2025-08-31T0600,3663A,124.1164,50.4278,大兴安岭地区,红旗社区,,22,22,16,6,5,0,,,,6,4,5,5,0.3,0.3
2025-08-31T0600,1600A,124.3303,40.0625,丹东市,江湾东路,,16,9,15,3,9,49,,,,9,12,4,5,0.6,0.7
2025-08-31T0600,1601A,124.4256,40.1503,丹东市,临江后街,,20,10,19,3,8,62,,,,5,9,5,6,0.7,0.8
2025-08-31T0600,1602A,124.3933,40.1461,丹东市,元宝山,,17,6,12,3,7,53,,,,8,10,4,5,0.6,0.7
2025-08-31T0600,1603A,124.3633,40.1092,丹东市,民主桥,,15,10,16,3,9,47,,,,10,12,5,6,0.5,0.6
2025-08-31T0600,3541A,109.5726,19.5167,儋州市,第一中学子站,,16,16,10,3,3,29,,,,2,2,5,5,0.6,0.6
2025-08-31T0600,3542A,109.5567,19.5187,儋州市,东坡学校子站,,16,16,11,3,4,29,,,,3,3,7,7,0.4,0.4
2025-08-31T0600,2616A,98.5842,24.428,德宏傣族景颇族自治州,德宏州监测站,,21,21,27,8,14,8,,,,8,10,5,7,0.4,0.4
2025-08-31T0600,3677A,98.5881,24.4368,德宏傣族景颇族自治州,芒市人民政府综合楼,,,32,32,7,15,11,,,,7,8,,9,0.4,0.5
2025-08-31T0600,1901A,104.4239,31.1208,德阳市,东山公园,,14,6,6,3,6,37,,,,19,11,3,7,1.4,0.8
2025-08-31T0600,1902A,104.3826,31.1317,德阳市,西小区,,29,29,21,16,10,36,,,,19,18,3,3,0.8,0.7
2025-08-31T0600,1904A,104.3553,31.1091,德阳市,耐火材料厂,,32,32,19,18,11,18,,,,33,21,3,2,0.8,0.6
2025-08-31T0600,3639A,104.4019,31.1244,德阳市,市教育局,,31,31,18,14,10,22,,,,22,15,3,2,1.0,0.9
2025-08-31T0600,1622A,116.3032,37.4674,德州市,儿童乐园,,28,19,21,19,14,64,,,,18,15,8,9,0.6,0.6
2025-08-31T0600,1624A,116.2991,37.4451,德州市,监理站,,26,14,17,7,10,82,,,,12,10,11,11,0.6,0.6
2025-08-31T0600,3066A,116.2721,37.4379,德州市,九衢泉纯净水厂,,35,,18,24,13,63,,,,18,12,5,6,0.9,0.9
2025-08-31T0600,3371A,116.3728,37.4403,德州市,开发区人民医院,,32,24,20,22,12,55,,,,20,13,7,7,1.1,1
2025-08-31T0600,3511A,116.5652,37.3319,德州市,陵城艺术中心,,17,14,22,9,9,53,,,,12,11,6,9,0.7,0.7
2025-08-31T0600,4292A,116.3525,37.4209,德州市,新河东路,,25,17,19,17,13,66,,,,13,11,7,7,0.8,0.8
2025-08-31T0600,2621A,99.7056,27.8317,迪庆藏族自治州,迪庆州站,,18,16,14,7,9,56,,,,6,5,7,6,0.5,0.5
2025-08-31T0600,3180A,99.7136,27.8094,迪庆藏族自治州,质量技术监督局,,20,12,14,9,9,63,,,,5,7,7,8,0.4,0.4
2025-08-31T0600,4257A,104.6092,35.5962,定西市,将台街,,28,25,27,19,19,20,,,,24,20,7,8,0.4,0.4
2025-08-31T0600,4309A,104.6159,35.5701,定西市,正龙路62号,,34,34,34,21,19,19,,,,8,9,5,5,0.2,0.3
2025-08-31T0600,1389A,113.7547,23.0494,东莞市,莞城梨川,,24,24,18,11,10,17,,,,19,12,7,6,0.3,0.3
2025-08-31T0600,1390A,113.7944,23.0128,东莞市,东城石井,,11,11,23,3,9,6,,,,20,15,4,5,0.6,0.5
2025-08-31T0600,1391A,113.7383,22.9658,东莞市,南城西平,,24,24,21,6,7,15,,,,28,17,7,7,0.5,0.4
2025-08-31T0600,3319A,113.7338,23.0381,东莞市,万江金泰,,18,18,18,6,8,21,,,,13,10,7,7,0.6,0.6
2025-08-31T0600,3626A,113.7533,23.0202,东莞市,南城元岭,,14,14,18,3,6,21,,,,18,13,5,5,0.3,0.3
2025-08-31T0600,3627A,113.7875,23.0457,东莞市,东城主山,,14,14,22,6,8,13,,,,22,14,7,7,0.4,0.4
2025-08-31T0600,1666A,118.6614,37.4309,东营市,市环保局,,22,17,11,3,6,70,,,,12,10,6,5,0.2,0.3
2025-08-31T0600,3036A,118.6904,37.4338,东营市,开发区管委会,,23,16,16,9,5,72,,,,10,8,6,5,0.3,0.4
2025-08-31T0600,3365A,118.5719,37.565,东营市,垦利区民丰路,,22,14,15,9,9,69,,,,10,11,5,6,0.8,0.8
2025-08-31T0600,3498A,118.5055,37.8612,东营市,河口城区,,23,14,12,3,2,73,,,,12,13,4,4,0.9,0.9
2025-08-31T0600,3646A,118.4978,37.4623,东营市,胜利站,,21,20,17,7,7,65,,,,14,13,3,3,0.5,0.5
2025-08-31T0600,3734A,118.35,37.26,东营市,理想之城,,20,12,13,9,10,63,,,,12,14,3,3,0.3,0.4
2025-08-31T0600,1591A,110.0023,39.8129,鄂尔多斯市,综合楼,,29,29,28,14,11,61,,,,18,20,8,8,0.5,0.5
2025-08-31T0600,1592A,109.9486,39.8261,鄂尔多斯市,巴音孟克林场办事处,,29,29,30,9,12,74,,,,16,16,10,7,0.3,0.3
2025-08-31T0600,1593A,109.7736,39.5986,鄂尔多斯市,康泽苑,,24,24,27,12,9,18,,,,13,13,5,6,0.3,0.4
2025-08-31T0600,1594A,109.8119,39.5989,鄂尔多斯市,华泰汽车城,,36,36,23,22,14,20,,,,18,15,6,7,0.5,0.5
2025-08-31T0600,1595A,109.9734,39.7884,鄂尔多斯市,奥林花园,,31,31,34,14,15,29,,,,26,25,6,7,0.6,0.6
2025-08-31T0600,2436A,114.8938,30.3994,鄂州市,市政府,,20,20,21,10,7,22,,,,14,12,9,7,0.5,0.5
2025-08-31T0600,2437A,114.8989,30.3714,鄂州市,赵家坝,,25,25,32,3,8,22,,,,9,8,9,9,0.8,0.8
2025-08-31T0600,3654A,114.8094,30.4089,鄂州市,精准医疗中心,,20,20,35,6,10,20,,,,14,11,8,7,0.7,0.9
2025-08-31T0600,2454A,109.4978,30.2981,恩施土家族苗族自治州,湖北民院,,15,15,22,3,12,25,,,,8,9,5,5,0.2,0.3
2025-08-31T0600,2455A,109.4707,30.2798,恩施土家族苗族自治州,州电力总公司,,12,,19,8,13,22,,,,5,7,4,5,0.4,0.4
2025-08-31T0600,3549A,109.5061,30.3772,恩施土家族苗族自治州,龙凤新区,,16,15,18,11,13,28,,,,2,4,4,4,0.4,0.4
2025-08-31T0600,2499A,108.3411,21.6158,防城港市,沙万,,24,24,34,14,17,10,,,,18,13,6,4,0.7,0.5
2025-08-31T0600,2500A,108.3514,21.7731,防城港市,防城档案局,,39,39,24,8,11,9,,,,16,12,3,3,0.6,0.6
2025-08-31T0600,2501A,108.3506,21.6414,防城港市,大海花园,,25,25,26,12,12,18,,,,12,11,7,6,0.6,0.6
2025-08-31T0600,1371A,113.1294,23.0067,佛山市,湾梁,,48,,21,33,22,13,,,,25,22,6,6,0.4,0.4
2025-08-31T0600,1372A,113.1083,23.0478,佛山市,华材职中,,9,7,18,6,10,17,,,,15,14,4,4,0.5,0.5
2025-08-31T0600,1373A,113.144,23.0453,佛山市,南海气象局,,15,15,23,7,10,12,,,,20,18,5,5,0.4,0.5
2025-08-31T0600,1374A,113.2881,22.8094,佛山市,顺德苏岗,,13,13,21,3,5,13,,,,20,16,6,6,0.4,0.4
2025-08-31T0600,1376A,112.8383,22.8678,佛山市,高明孔堂,,22,22,23,11,10,0,,,,24,18,3,3,0.7,0.7
2025-08-31T0600,1377A,112.8836,23.1588,佛山市,三水监测站,,24,24,25,13,14,1,,,,31,21,9,6,0.5,0.4
2025-08-31T0600,1378A,112.867,23.185,佛山市,三水云东海,,21,21,27,12,15,0,,,,30,25,2,2,0.5,0.5
2025-08-31T0600,3625A,113.2544,22.7642,佛山市,容桂街道办,,13,,14,9,8,19,,,,18,16,6,6,0.6,0.6
2025-08-31T0600,1282A,119.2681,26.0504,福州市,师大,,13,13,14,3,3,13,,,,8,7,5,5,0.2,0.2
2025-08-31T0600,1283A,119.2984,26.1028,福州市,五四北路,,13,13,14,3,1,16,,,,12,7,4,4,0.2,0.2
2025-08-31T0600,1284A,119.2648,26.0768,福州市,杨桥西路,,15,15,14,8,3,14,,,,10,7,3,4,0.2,0.2
2025-08-31T0600,1285A,119.317,26.0746,福州市,紫阳,,14,14,17,3,2,19,,,,9,7,5,5,0.2,0.2
2025-08-31T0600,3048A,119.5799,26.0936,福州市,九龙,,9,9,10,3,0,14,,,,8,5,5,5,0.3,0.2
2025-08-31T0600,3526A,119.5189,25.9664,福州市,吴航,,7,6,9,3,4,22,,,,6,4,4,4,0.2,0.2
2025-08-31T0600,1755A,123.7977,41.8491,抚顺市,望花区,,38,38,46,18,25,3,,,,22,26,5,7,0.8,1.1
2025-08-31T0600,1756A,123.9161,41.8822,抚顺市,顺城区,,21,21,42,12,25,12,,,,18,28,4,6,0.9,1.3
2025-08-31T0600,1757A,124.0436,41.8611,抚顺市,东洲区,,17,17,31,9,21,23,,,,9,16,8,6,0.9,1.2
2025-08-31T0600,1758A,123.9247,41.8642,抚顺市,新抚区,,34,34,45,16,25,0,,,,18,22,5,6,1.1,1.3
2025-08-31T0600,1759A,124.0972,41.8961,抚顺市,大伙房水库,,20,20,34,10,21,29,,,,11,15,7,8,0.6,0.9
2025-08-31T0600,1760A,123.7086,41.8391,抚顺市,沈抚新城,颗粒物(PM10),60,70,70,23,26,1,,,,26,26,6,7,1.7,1.4
2025-08-31T0600,2376A,116.2127,28.0814,抚州市,桐源党溪,,22,21,25,15,11,23,,,,3,4,4,4,0.5,0.4
2025-08-31T0600,2377A,116.3544,27.9831,抚州市,市站,,23,20,20,16,8,35,,,,7,4,3,3,0.4,0.4
2025-08-31T0600,2378A,116.3565,27.963,抚州市,血防站,,24,24,21,12,10,31,,,,11,6,5,3,0.6,0.5
2025-08-31T0600,2379A,116.3564,28.0007,抚州市,采茶剧团,,25,25,22,13,10,30,,,,3,3,4,6,0.5,0.4
2025-08-31T0600,2380A,116.385,27.9647,抚州市,医学分院,,30,30,22,12,8,28,,,,13,7,5,4,0.6,0.6
2025-08-31T0600,2207A,121.6094,41.998,阜新市,工业园区,细颗粒物(PM2.5),55,,43,39,25,60,,,,16,15,11,13,0.7,0.8
2025-08-31T0600,2208A,121.6697,42.0279,阜新市,长青街,,29,29,38,20,22,55,,,,12,13,10,14,0.7,0.8
2025-08-31T0600,2209A,121.6673,42.0705,阜新市,农业园区,,38,38,42,22,21,70,,,,5,8,6,7,0.7,0.8
2025-08-31T0600,2210A,121.6717,42.0224,阜新市,东苑,,33,33,47,20,23,71,,,,15,16,25,17,0.7,0.8
2025-08-31T0600,2211A,121.6506,42.0498,阜新市,玉龙新城,,36,36,42,22,22,51,,,,9,14,10,12,0.7,0.8
2025-08-31T0600,2301A,115.8277,32.8929,阜阳市,市监测站,,19,16,28,3,18,59,,,,8,10,4,4,0.3,0.4
2025-08-31T0600,2303A,115.8554,32.8605,阜阳市,开发区,,19,,27,9,17,58,,,,4,7,6,6,0.3,0.3
2025-08-31T0600,2875A,115.784,32.8892,阜阳市,阜阳职业技术学院,,21,,28,12,14,65,,,,6,7,4,6,0.4,0.4
2025-08-31T0600,3468A,115.7901,32.8613,阜阳市,市规划展馆,,18,8,30,6,18,56,,,,6,8,2,3,0.4,0.5
2025-08-31T0600,2669A,102.9099,34.9841,甘南藏族自治州,州政府,,41,41,37,19,17,3,,,,21,21,5,4,0.3,0.3
2025-08-31T0600,3380A,102.8914,34.9617,甘南藏族自治州,甘肃民族师范学院,,36,36,47,6,13,6,,,,14,22,4,4,0.3,0.4
2025-08-31T0600,2570A,101.9603,30.0475,甘孜藏族自治州,水桥子,,13,9,8,3,6,39,,,,11,16,5,6,0.2,0.3
2025-08-31T0600,3065A,101.9533,29.9972,甘孜藏族自治州,州环保局,,16,10,9,3,4,50,,,,6,14,4,4,0.2,0.3
2025-08-31T0600,3414A,115.8347,28.932,赣江新区,桑海产业园,,17,17,21,10,12,16,,,,19,16,4,6,0.2,0.3
2025-08-31T0600,2363A,114.9367,25.8664,赣州市,地委,,26,26,25,13,13,23,,,,12,9,10,7,0.6,0.7
2025-08-31T0600,2364A,114.9461,25.8481,赣州市,气象台,,23,23,23,9,10,31,,,,11,8,17,9,0.6,0.5
2025-08-31T0600,2365A,114.9322,25.8333,赣州市,市图书馆,,23,23,20,15,13,32,,,,12,9,8,6,0.5,0.5
2025-08-31T0600,2366A,114.8905,25.8471,赣州市,华坚鞋城,,23,23,25,16,14,26,,,,14,11,7,6,0.6,0.5
2025-08-31T0600,3109A,115.0093,25.8613,赣州市,赣县区卫计委,,24,24,18,13,12,35,,,,4,5,7,6,0.2,0.3
2025-08-31T0600,2684A,106.2792,36.0022,固原市,监测站,,20,20,19,11,8,22,,,,19,20,9,8,0.3,0.3
2025-08-31T0600,2685A,106.2375,36.0211,固原市,新区,,23,23,19,10,8,2,,,,15,16,8,8,0.4,0.3
2025-08-31T0600,3522A,106.2177,35.9959,固原市,原州区十五小,,19,14,16,9,9,60,,,,18,16,8,8,0.2,0.2
2025-08-31T0600,2544A,106.6303,30.4576,广安市,市委,细颗粒物(PM2.5),67,,49,48,42,33,,,,12,14,9,11,0.4,0.3
2025-08-31T0600,2545A,106.6271,30.4663,广安市,友谊中学,,49,46,45,34,31,44,,,,12,14,6,10,0.8,0.8
2025-08-31T0600,2547A,106.6388,30.4551,广安市,广电花园,,40,,30,28,32,30,,,,11,14,3,7,0.5,0.5
2025-08-31T0600,2902A,106.6351,30.4865,广安市,北辰小学,,50,47,46,35,32,39,,,,11,11,5,9,0.6,0.6
2025-08-31T0600,2523A,105.8945,32.4535,广元市,黑石坡,,16,16,10,3,8,31,,,,4,11,9,9,0.3,0.4
2025-08-31T0600,2524A,105.821,32.4444,广元市,老城,,13,13,14,3,6,6,,,,22,26,3,7,0.7,0.8
2025-08-31T0600,2526A,105.8628,32.4287,广元市,监测站,,16,16,12,8,6,14,,,,12,20,8,8,0.7,0.8
2025-08-31T0600,3617A,105.8047,32.4166,广元市,经开区,,20,20,18,8,7,3,,,,26,31,5,6,0.6,0.6
2025-08-31T0600,1345A,113.2347,23.1423,广州市,广雅中学,,23,23,30,8,14,1,,,,33,29,4,3,0.4,0.5
2025-08-31T0600,1346A,113.2612,23.105,广州市,市五中,,17,17,26,6,11,6,,,,34,24,6,6,0.4,0.4
2025-08-31T0600,1348A,113.3478,23.0916,广州市,广东商学院,,22,22,28,8,13,4,,,,37,28,5,4,0.3,0.3
2025-08-31T0600,1349A,113.4332,23.1047,广州市,市八十六中,,18,18,22,6,9,4,,,,36,32,4,4,0.4,0.4
2025-08-31T0600,1350A,113.3505,22.9483,广州市,番禺中学,,18,18,23,7,10,10,,,,24,16,7,6,0.5,0.5
2025-08-31T0600,1351A,113.2146,23.3916,广州市,花都师范,,21,21,30,7,14,3,,,,33,27,5,5,0.5,0.5
2025-08-31T0600,1352A,113.2597,23.1331,广州市,市监测站,,18,18,27,7,11,8,,,,28,23,6,6,0.3,0.4
2025-08-31T0600,1353A,113.5618,23.312,广州市,九龙镇镇龙,,14,14,27,6,12,18,,,,11,18,7,7,0.3,0.4
2025-08-31T0600,1354A,113.2765,23.1544,广州市,麓湖,,23,23,23,10,11,0,,,,28,24,2,2,0.4,0.3
2025-08-31T0600,1355A,113.443,23.3035,广州市,帽峰山森林公园,,12,8,13,8,7,6,,,,19,16,6,6,0.4,0.4
2025-08-31T0600,2846A,113.3221,23.1322,广州市,体育西,,20,20,30,8,13,4,,,,34,26,7,6,0.6,0.6
2025-08-31T0600,3298A,113.5717,23.5491,广州市,从化街口,,13,13,18,3,9,3,,,,18,11,8,8,0.5,0.5
2025-08-31T0600,3299A,113.3472,23.3692,广州市,白云竹料,,16,16,28,6,12,8,,,,26,25,5,5,0.3,0.4
2025-08-31T0600,3300A,113.2981,23.237,广州市,白云嘉禾,,15,14,26,3,13,3,,,,29,29,6,6,0.3,0.4
2025-08-31T0600,3301A,113.4256,23.1716,广州市,黄埔科学城,,19,19,26,8,13,3,,,,24,20,7,7,0.6,0.6
2025-08-31T0600,3302A,113.3942,23.0483,广州市,番禺大学城,,26,26,27,8,12,11,,,,27,23,8,8,0.4,0.4
2025-08-31T0600,3303A,113.4922,22.8168,广州市,南沙黄阁,,10,10,22,3,7,29,,,,10,12,4,5,0.2,0.2
2025-08-31T0600,3304A,113.5342,22.7896,广州市,南沙街,,11,11,22,3,6,32,,,,9,13,5,5,0.4,0.4
2025-08-31T0600,3443A,113.2902,23.5544,广州市,花都梯面,,15,15,24,3,12,1,,,,14,17,6,6,0.4,0.5
2025-08-31T0600,3445A,113.7858,23.7478,广州市,从化良口,,8,8,13,3,8,12,,,,7,8,4,4,0.4,0.4
2025-08-31T0600,3446A,113.8051,23.2614,广州市,增城荔城,,20,20,19,7,8,13,,,,10,10,8,9,0.4,0.4
2025-08-31T0600,2506A,109.6047,23.0666,贵港市,江南子站,,27,27,28,16,16,7,,,,26,13,8,6,1.1,0.7
2025-08-31T0600,2508A,109.5669,23.1065,贵港市,荷城子站,,13,9,18,9,7,22,,,,12,9,4,4,0.5,0.5
2025-08-31T0600,3405A,109.5886,23.1172,贵港市,新世纪学校,,15,14,21,10,13,23,,,,12,10,1,2,0.4,0.5
2025-08-31T0600,4260A,109.5933,23.0951,贵港市,中山路155-3号,,24,24,25,13,14,22,,,,13,10,5,5,0.7,0.7
2025-08-31T0600,1439A,106.6899,26.5998,贵阳市,马鞍山,,29,29,16,3,4,8,,,,9,10,3,3,0.3,0.3
2025-08-31T0600,1441A,106.6243,26.6266,贵阳市,鉴湖路,,39,39,31,24,11,16,,,,11,15,4,4,0.3,0.2
2025-08-31T0600,1442A,106.7487,26.6343,贵阳市,燕子冲,,25,,12,17,14,10,,,,13,11,3,3,0.4,0.3
2025-08-31T0600,1443A,106.6555,26.4365,贵阳市,碧云窝,,48,48,35,14,11,0,,,,11,10,4,5,0.4,0.3
2025-08-31T0600,1445A,106.7109,26.6027,贵阳市,红边门,细颗粒物(PM2.5),52,44,23,36,16,14,,,,16,17,3,3,0.3,0.3
2025-08-31T0600,1446A,106.7164,26.5699,贵阳市,新华路,,19,19,19,7,9,21,,,,12,15,4,8,0.4,0.4
2025-08-31T0600,1447A,106.674,26.5424,贵阳市,太慈桥,,24,24,20,14,8,7,,,,14,15,4,4,0.2,0.2
2025-08-31T0600,4230A,106.6882,26.5695,贵阳市,花果园大街66号,,50,,13,35,16,15,,,,14,16,3,3,0.5,0.4
2025-08-31T0600,4231A,106.6873,26.5169,贵阳市,漓江路57号,,29,29,23,17,15,2,,,,20,16,4,4,0.5,0.5
2025-08-31T0600,1864A,110.3089,25.2708,桂林市,龙隐路小学,,30,30,28,21,18,16,,,,14,11,8,7,0.3,0.3
2025-08-31T0600,1865A,110.2869,25.2178,桂林市,八中,,36,36,26,16,12,7,,,,18,12,8,7,0.4,0.4
2025-08-31T0600,3531A,110.296,25.1253,桂林市,旅游学院,,24,24,16,9,10,6,,,,14,12,4,4,0.4,0.4
2025-08-31T0600,4222A,110.1835,25.2444,桂林市,环湖路276号,,24,24,31,12,19,10,,,,31,18,6,33,0.2,0.3
2025-08-31T0600,4301A,110.2803,25.2773,桂林市,信义路13号,,34,34,32,21,17,20,,,,15,15,10,8,0.6,0.6
2025-08-31T0600,2674A,100.2561,34.4714,果洛藏族自治州,玛沁县大武镇,,40,40,37,21,18,38,,,,4,7,18,16,0.6,0.5
2025-08-31T0600,1129A,126.5422,45.755,哈尔滨市,岭北,,,,,,,12,,,,21,14,16,15,0.8,0.7
2025-08-31T0600,1130A,126.561,45.8167,哈尔滨市,松北商大,,46,46,30,19,12,26,,,,16,14,6,6,0.6,0.5
2025-08-31T0600,1131A,126.979,45.5419,哈尔滨市,阿城会宁,,31,31,31,20,21,22,,,,8,8,8,8,0.6,0.6
2025-08-31T0600,1132A,126.599,45.7222,哈尔滨市,南岗学府路,颗粒物(PM10),54,57,38,26,15,8,,,,43,17,8,8,0.9,0.7
2025-08-31T0600,1133A,126.689,45.7733,哈尔滨市,太平宏伟公园,颗粒物(PM10),52,53,37,23,16,27,,,,25,17,8,8,0.7,0.6
2025-08-31T0600,1134A,126.635,45.7667,哈尔滨市,道外承德广场,颗粒物(PM10),65,80,50,25,14,12,,,,36,19,7,7,0.6,0.5
2025-08-31T0600,1135A,126.685,45.7319,哈尔滨市,香坊红旗大街,细颗粒物(PM2.5),54,48,37,38,25,24,,,,29,28,13,12,0.6,0.5
2025-08-31T0600,1136A,126.6411,45.7258,哈尔滨市,动力和平路,,,66,39,,12,14,,,,34,21,8,6,0.8,0.6
2025-08-31T0600,1137A,126.593,45.7478,哈尔滨市,道里建国路,颗粒物(PM10),53,56,38,26,18,36,,,,25,17,9,8,1.6,0.9
2025-08-31T0600,1138A,126.615,45.61,哈尔滨市,平房东轻厂,,40,40,31,11,12,28,,,,14,10,8,7,0.6,0.5
2025-08-31T0600,1139A,126.595,45.9855,哈尔滨市,呼兰师专,,40,33,26,28,14,35,,,,20,16,9,10,0.6,0.5
2025-08-31T0600,1140A,126.6206,45.6842,哈尔滨市,省农科院,颗粒物(PM10),52,53,51,23,21,4,,,,42,27,6,5,0.8,0.6
2025-08-31T0600,2688A,93.5128,42.8172,哈密市,地区监测站,颗粒物(PM10),53,55,71,19,25,50,,,,28,31,5,6,0.2,0.3
2025-08-31T0600,2689A,93.4961,42.8328,哈密市,哈密师范学校,颗粒物(PM10),51,52,77,27,28,18,,,,55,41,8,6,0.5,0.5
2025-08-31T0600,2671A,100.9048,36.9639,海北藏族自治州,海晏县西海镇,,16,11,18,10,10,50,,,,2,4,6,6,0.4,0.3
2025-08-31T0600,3867A,102.0738,36.5056,海东市,平安区公安北苑,,32,32,27,12,13,39,,,,2,7,6,11,0.5,0.7
2025-08-31T0600,1409A,110.576,19.9507,海口市,东寨港,,16,16,11,6,6,28,,,,2,2,9,8,0.3,0.3
2025-08-31T0600,1410A,110.3232,20.0574,海口市,海南大学,,13,11,14,3,5,39,,,,3,3,3,2,0.3,0.3
2025-08-31T0600,1411A,110.283,20.0053,海口市,秀英海南医院,,11,11,16,3,5,34,,,,3,6,6,6,0.2,0.3
2025-08-31T0600,1412A,110.338,19.9969,海口市,海南师范大学,,11,11,14,3,6,31,,,,3,4,4,4,0.3,0.3
2025-08-31T0600,1413A,110.33,20.0356,海口市,龙华路环保局宿舍,,12,11,13,6,8,36,,,,5,5,5,5,0.3,0.3
2025-08-31T0600,3539A,110.5111,19.9736,海口市,桂林洋子站,,16,16,15,3,5,30,,,,4,4,3,3,0.2,0.2
2025-08-31T0600,2673A,100.6188,36.2866,海南藏族自治州,共和县恰卜恰镇,,27,27,31,9,10,72,,,,5,8,10,10,0.5,0.4
2025-08-31T0600,2676A,97.3731,37.3753,海西蒙古族藏族自治州,德令哈市,,30,19,29,8,16,94,,,,2,3,11,8,0.4,0.4
2025-08-31T0600,1048A,114.5302,36.6116,邯郸市,东污水处理厂,,30,30,23,19,19,26,,,,31,11,6,8,0.4,0.4
2025-08-31T0600,1049A,114.4918,36.5713,邯郸市,矿院,,35,,19,24,22,40,,,,30,14,4,4,0.4,0.4
2025-08-31T0600,1050A,114.484,36.6133,邯郸市,丛台公园,,25,17,17,17,14,61,,,,11,14,6,6,0.4,0.4
2025-08-31T0600,3458A,114.7895,36.5593,邯郸市,香泉濮院小区,,35,35,32,22,14,27,,,,25,16,5,15,0.6,0.4
2025-08-31T0600,3579A,114.50634,36.77178,邯郸市,永年区实验高中,,29,29,29,15,14,40,,,,16,14,5,5,0.4,0.2
2025-08-31T0600,3580A,114.20016,36.44293,邯郸市,峰峰矿区临水派出所,,30,18,28,9,14,94,,,,9,14,10,9,0.7,0.6
2025-08-31T0600,2634A,106.9893,33.1842,汉中市,汉川机床厂子校,,22,22,16,6,9,32,,,,7,13,4,4,0.5,1
2025-08-31T0600,2635A,107.0154,33.0706,汉中市,市监测站,,13,13,14,3,6,30,,,,8,10,7,6,0.6,0.8
2025-08-31T0600,2636A,107.0089,33.1138,汉中市,鑫源开发区,,19,19,16,12,7,29,,,,10,15,6,6,0.6,0.8
2025-08-31T0600,2637A,107.007,33.0323,汉中市,南郑大河坎水厂,,12,12,12,7,7,24,,,,8,11,4,3,0.5,0.6
2025-08-31T0600,1223A,120.2072,30.2111,杭州市,滨江,,28,28,29,14,13,66,,,,16,18,7,8,0.4,0.4
2025-08-31T0600,1224A,120.0633,30.2747,杭州市,西溪,,22,22,23,10,15,58,,,,13,16,13,13,0.4,0.4
2025-08-31T0600,1226A,120.3417,30.3150,杭州市,下沙,,23,23,22,14,11,57,,,,14,15,7,7,0.3,0.3
2025-08-31T0600,1227A,120.1269,30.2456,杭州市,卧龙桥,,21,21,26,10,14,43,,,,11,12,8,8,0.6,0.5
2025-08-31T0600,1228A,120.1903,30.2692,杭州市,浙江农大,,29,22,35,20,15,45,,,,23,25,6,6,0.5,0.5
2025-08-31T0600,1230A,120.1197,30.3119,杭州市,和睦小学,,22,18,24,11,12,70,,,,8,12,6,6,0.4,0.4
2025-08-31T0600,1231A,120.3019,30.4183,杭州市,临平镇,细颗粒物(PM2.5),78,,34,57,29,66,,,,12,11,7,6,0.8,0.6
2025-08-31T0600,1232A,120.2753,30.1839,杭州市,城厢镇,,28,21,26,19,13,67,,,,10,13,10,9,0.6,0.5
2025-08-31T0600,1233A,120.0883,30.1808,杭州市,云栖,,23,23,24,12,10,37,,,,21,18,10,10,0.7,0.6
2025-08-31T0600,3557A,119.9464,30.0494,杭州市,镇二中,,18,15,25,12,15,46,,,,22,16,5,5,0.7,0.6
2025-08-31T0600,3558A,119.7183,30.2367,杭州市,市府大楼,,19,17,25,13,16,52,,,,14,12,8,8,0.3,0.3
2025-08-31T0600,3656A,120.1556,30.2864,杭州市,消防大队,,23,23,26,16,16,64,,,,12,15,7,7,0.5,0.5
2025-08-31T0600,1270A,117.1959,31.7848,合肥市,明珠广场,,14,,9,3,6,42,,,,10,10,6,6,0.4,0.5
2025-08-31T0600,1271A,117.3072,31.8764,合肥市,三里街,,15,6,14,3,7,45,,,,7,10,4,4,0.4,0.5
2025-08-31T0600,1272A,117.2588,31.8707,合肥市,琥珀山庄,,17,6,15,3,8,52,,,,7,8,7,7,0.5,0.5
2025-08-31T0600,1273A,117.1604,31.9052,合肥市,董铺水库,,13,6,10,3,6,41,,,,5,4,4,4,0.1,0.2
2025-08-31T0600,1274A,117.25,31.8571,合肥市,长江中路,,15,7,15,3,4,45,,,,9,8,7,7,0.4,0.4
2025-08-31T0600,1275A,117.266,31.9436,合肥市,庐阳区,,15,7,14,3,5,46,,,,10,9,5,5,0.4,0.4
2025-08-31T0600,1276A,117.3453,31.8616,合肥市,瑶海区,,15,6,17,3,6,46,,,,9,12,7,7,0.4,0.4
2025-08-31T0600,1277A,117.3027,31.7964,合肥市,包河区,,13,6,13,3,5,40,,,,12,11,9,9,0.4,0.5
2025-08-31T0600,1278A,117.2776,31.7385,合肥市,滨湖新区,,10,6,13,3,12,31,,,,19,11,4,4,0.5,0.5
2025-08-31T0600,1279A,117.1318,31.8403,合肥市,高新区,,15,7,11,6,7,46,,,,8,9,4,5,0.5,0.5
2025-08-31T0600,3464A,117.3803,31.9147,合肥市,高教基地,,10,7,12,3,7,32,,,,1,4,4,5,0.3,0.4
2025-08-31T0600,3614A,79.924,37.0877,和田地区,地区环保局,颗粒物(PM10),78,105,125,24,30,100,,,,2,8,3,3,0.0,0.1
2025-08-31T0600,3615A,79.9131,37.113,和田地区,市环保局,颗粒物(PM10),59,67,95,13,24,96,,,,8,21,2,2,0.3,0.3
2025-08-31T0600,2517A,108.0497,24.6947,河池市,市环保站,,17,17,20,10,11,12,,,,15,11,4,5,0.5,0.5
2025-08-31T0600,2518A,108.0983,24.6989,河池市,市疾控中心,,22,22,23,11,13,10,,,,18,16,6,7,0.7,0.6
2025-08-31T0600,1696A,114.6778,23.7569,河源市,源西,,24,24,20,7,8,0,,,,20,15,5,5,0.8,0.8
2025-08-31T0600,1697A,114.6944,23.7586,河源市,东埔,,24,24,19,9,9,2,,,,20,13,4,4,0.7,0.7
2025-08-31T0600,1698A,114.6892,23.7233,河源市,老城,,24,24,22,9,9,2,,,,11,11,5,5,0.7,0.7
2025-08-31T0600,3374A,115.5564,35.0891,菏泽市,定陶老年大学,,25,19,33,14,14,79,,,,6,10,5,6,0.4,0.6
2025-08-31T0600,4184A,115.4797,35.24401,菏泽市,永昌路1号,,33,9,33,9,24,104,,,,3,6,6,10,0.3,0.4
2025-08-31T0600,4193A,115.4715,35.2800,菏泽市,长城路999号,,31,13,33,8,17,98,,,,7,11,9,10,0.3,0.4
2025-08-31T0600,2514A,111.5264,24.4172,贺州市,环保小区,,34,34,25,18,14,20,,,,15,10,14,14,0.6,0.5
2025-08-31T0600,3534A,111.4744,24.4553,贺州市,西湾,,25,25,33,16,16,15,,,,12,11,7,10,0.4,0.4
2025-08-31T0600,2385A,114.17,35.9019,鹤壁市,市监测站,,23,20,32,7,18,71,,,,2,7,6,10,0.7,0.9
2025-08-31T0600,2386A,114.2956,35.7511,鹤壁市,市交警支队,,33,25,29,23,25,57,,,,9,12,10,9,1.0,0.8
2025-08-31T0600,2387A,114.2878,35.7306,鹤壁市,迎宾馆,,30,27,37,21,20,57,,,,6,10,4,6,1.0,0.9
2025-08-31T0600,3474A,114.2617,35.6822,鹤壁市,大新区,,25,24,34,17,19,50,,,,6,9,7,9,1.0,0.8
2025-08-31T0600,3596A,114.1572,35.9603,鹤壁市,南山宾馆,,28,18,29,8,20,87,,,,3,8,8,8,0.3,0.5
2025-08-31T0600,2244A,130.2537,47.3416,鹤岗市,哈啤分公司,,28,28,28,12,11,16,,,,7,8,12,12,0.4,0.4
2025-08-31T0600,2245A,130.2684,47.3086,鹤岗市,斯达机电,,31,31,28,6,10,63,,,,9,10,12,12,0.3,0.3
2025-08-31T0600,2246A,130.3114,47.3388,鹤岗市,东山纸板厂,颗粒物(PM10),67,84,29,29,17,7,,,,21,14,14,14,1.5,0.8
2025-08-31T0600,2247A,130.1097,47.3382,鹤岗市,五号水库,,18,10,12,3,6,19,,,,35,36,7,6,0.2,0.2
2025-08-31T0600,2263A,127.4833,50.2524,黑河市,交通局,,22,22,22,14,14,5,,,,9,10,6,6,0.4,0.3
2025-08-31T0600,2264A,127.5144,50.2341,黑河市,环保局,,23,23,21,9,10,12,,,,13,9,7,5,0.4,0.2
2025-08-31T0600,2265A,127.5291,50.2472,黑河市,大黑河岛,,,,,2,5,14,,,,2,2,23,25,0.3,0.4
2025-08-31T0600,1074A,115.6838,37.7541,衡水市,电机北厂,,30,30,27,6,12,62,,,,8,11,8,5,0.3,0.3
2025-08-31T0600,1075A,115.6303,37.7316,衡水市,市监测站,,39,39,32,10,7,53,,,,7,8,6,5,0.5,0.5
2025-08-31T0600,3188A,115.6683,37.7217,衡水市,市城管局,,29,29,25,16,12,54,,,,7,9,6,5,0.3,0.3
2025-08-31T0600,3459A,115.5989,37.5491,衡水市,地表水厂,,26,26,30,17,12,39,,,,22,13,4,2,0.2,0.2
2025-08-31T0600,2456A,112.5003,26.9167,衡阳市,原169医院,,28,28,23,12,10,17,,,,5,5,1,3,0.5,0.5
2025-08-31T0600,2457A,112.6194,26.9258,衡阳市,衡阳化工总厂,,39,34,30,27,17,19,,,,13,9,4,4,1.2,0.8
2025-08-31T0600,2458A,112.6211,26.8956,衡阳市,珠晖区环保局,,19,19,25,12,13,23,,,,19,12,9,8,1.0,1
2025-08-31T0600,2459A,112.6197,26.8733,衡阳市,市委党校,,16,16,18,8,10,17,,,,18,9,12,12,0.5,0.5
2025-08-31T0600,2460A,112.6006,26.8919,衡阳市,市监测站,,14,14,25,9,14,22,,,,19,10,3,3,0.9,0.7
2025-08-31T0600,2461A,112.5664,26.9056,衡阳市,真空机电公司,,25,25,23,12,14,12,,,,15,6,4,5,0.8,0.8
2025-08-31T0600,3399A,112.6703,26.882,衡阳市,师范学院,,22,22,28,12,12,28,,,,12,8,10,9,0.7,0.7
2025-08-31T0600,2608A,103.3772,23.3993,红河哈尼族彝族自治州,污水处理厂,,20,17,24,14,20,33,,,,8,8,12,19,0.2,0.2
2025-08-31T0600,2609A,103.3861,23.35,红河哈尼族彝族自治州,监测站,,30,30,34,14,13,42,,,,5,8,11,21,0.1,0.2
2025-08-31T0600,3038A,103.3758,23.368,红河哈尼族彝族自治州,州图书馆,,22,,19,15,21,42,,,,4,7,2,14,0.2,0.3
2025-08-31T0600,1090A,111.6507,40.7517,呼和浩特市,呼市一监,,48,36,46,33,14,30,,,,20,21,2,3,0.7,0.7
2025-08-31T0600,1091A,111.6572,40.8033,呼和浩特市,小召,,45,36,44,31,26,49,,,,22,24,6,6,0.7,0.5
2025-08-31T0600,1094A,111.7516,40.8369,呼和浩特市,如意水处理厂,,44,44,39,23,22,16,,,,43,26,6,7,0.6,0.5
2025-08-31T0600,1095A,111.7276,40.8062,呼和浩特市,二十九中,,46,39,44,32,26,41,,,,22,20,7,7,1.0,0.7
2025-08-31T0600,1096A,111.5512,40.7866,呼和浩特市,工大金川校区,,44,44,52,26,22,30,,,,27,32,6,6,0.6,0.6
2025-08-31T0600,1097A,111.717,40.7612,呼和浩特市,化肥厂生活区,细颗粒物(PM2.5),62,70,44,44,25,42,,,,22,22,6,7,0.6,0.5
2025-08-31T0600,3698A,111.5968,40.8178,呼和浩特市,红旗小学,,36,36,48,23,23,34,,,,34,33,3,4,0.3,0.3
2025-08-31T0600,3699A,111.6518,40.8389,呼和浩特市,海东办,,46,46,52,26,23,44,,,,27,33,6,7,0.8,0.7
2025-08-31T0600,2192A,119.7594,49.2261,呼伦贝尔市,区环保局,,24,16,23,14,16,76,,,,8,11,4,5,0.4,0.4
2025-08-31T0600,3061A,119.7512,49.1577,呼伦贝尔市,国华电力东,,29,18,15,6,8,90,,,,1,3,5,6,0.2,0.2
2025-08-31T0600,1250A,120.0751,30.8669,湖州市,城西水厂,,18,18,27,11,15,50,,,,19,16,7,8,0.4,0.4
2025-08-31T0600,2873A,120.0830,30.8929,湖州市,仁皇山新区,,20,19,27,14,16,44,,,,15,14,6,5,0.4,0.4
2025-08-31T0600,2907A,120.1844,30.8596,湖州市,吴兴区站,,19,19,25,9,15,46,,,,9,11,8,8,0.5,0.5
2025-08-31T0600,3562A,120.4148,30.8538,湖州市,南浔区站,,30,26,24,21,15,52,,,,10,11,8,7,0.7,0.6
2025-08-31T0600,1607A,120.9049,40.7211,葫芦岛市,龙港区,颗粒物(PM10),72,93,62,24,23,31,,,,20,12,5,13,0.5,0.8
2025-08-31T0600,1608A,120.8392,40.7514,葫芦岛市,化工街,,31,29,31,19,19,15,,,,61,26,5,9,0.6,0.8
2025-08-31T0600,1609A,120.8341,40.7073,葫芦岛市,新区,,48,,30,33,27,39,,,,30,16,4,9,0.7,0.9
2025-08-31T0600,1610A,120.8695,40.7677,葫芦岛市,东城区,,48,,34,33,29,13,,,,63,26,4,10,0.7,0.9
2025-08-31T0600,2482A,109.5981,27.5721,怀化市,林科所,,24,24,25,6,7,2,,,,7,5,4,4,0.5,0.5
2025-08-31T0600,2483A,109.9453,27.5444,怀化市,河西地税局,,33,33,28,14,17,5,,,,9,12,2,3,0.2,0.2
2025-08-31T0600,2484A,109.9781,27.5342,怀化市,市四医院,,35,32,32,24,22,10,,,,13,8,5,6,0.1,0.1
2025-08-31T0600,2485A,109.9972,27.5578,怀化市,监测楼,,42,42,34,20,18,2,,,,16,10,7,6,0.2,0.2
2025-08-31T0600,2486A,110.0394,27.583,怀化市,市委党校,,32,32,31,15,20,7,,,,9,11,6,8,0.3,0.3
2025-08-31T0600,1210A,119.036,33.5981,淮安市,钵池山,,20,,15,11,15,63,,,,8,14,5,5,0.4,0.6
2025-08-31T0600,1211A,119.007,33.575,淮安市,北京南路,,19,,22,6,15,59,,,,11,18,9,9,0.3,0.6
2025-08-31T0600,1212A,118.989,33.6067,淮安市,市监测站,,20,12,24,7,14,61,,,,14,20,12,11,0.5,0.6
2025-08-31T0600,1213A,119.135,33.5039,淮安市,楚州区监测站,,20,6,29,3,14,61,,,,9,13,7,7,0.4,0.6
2025-08-31T0600,3426A,118.8755,33.2894,淮安市,新华书店,,16,8,19,3,12,51,,,,10,13,6,7,0.7,0.9
2025-08-31T0600,4206A,119.0288,33.6319,淮安市,承德北路606号,,19,,24,8,17,58,,,,13,17,8,8,0.3,0.5
2025-08-31T0600,2282A,116.8004,33.975,淮北市,监测站,,28,20,28,19,18,71,,,,10,8,7,6,0.8,0.8
2025-08-31T0600,2283A,116.8091,33.9007,淮北市,烈山区政府,,34,34,35,6,12,60,,,,8,7,9,8,0.6,0.6
2025-08-31T0600,3330A,116.8873,33.9836,淮北市,杜集区检察院,,43,41,31,30,21,71,,,,4,3,9,8,0.7,0.7
2025-08-31T0600,4017A,116.7923,33.9535,淮北市,市博物馆,,28,,27,19,20,72,,,,8,7,8,7,0.6,0.6
2025-08-31T0600,2277A,116.8305,32.7727,淮南市,潘集区政府,,15,,15,7,13,48,,,,5,9,3,4,0.2,0.3
2025-08-31T0600,2279A,116.8569,32.5951,淮南市,谢家集区政府,,15,9,16,3,8,48,,,,3,5,7,6,0.1,0.2
2025-08-31T0600,2280A,116.8281,32.633,淮南市,八公山区政府,,15,10,13,3,10,45,,,,5,5,5,6,0.2,0.2
2025-08-31T0600,3329A,117.0108,32.5893,淮南市,山南新区,,15,7,7,6,6,48,,,,5,5,4,4,0.3,0.4
2025-08-31T0600,4209A,117.0031,32.6445,淮南市,国庆中路369号,,17,6,15,3,11,54,,,,3,5,4,4,0.3,0.4
2025-08-31T0600,2929A,114.8858,30.4519,黄冈市,红卫路,,18,18,21,8,15,22,,,,17,12,10,7,0.5,0.4
2025-08-31T0600,3398A,114.9136,30.4445,黄冈市,市林业局,,22,22,25,14,16,25,,,,14,10,10,8,0.3,0.4
2025-08-31T0600,2672A,102.0199,35.5102,黄南藏族自治州,同仁县隆务镇,,24,24,25,6,8,57,,,,2,4,9,9,0.2,0.2
2025-08-31T0600,2295A,118.2903,29.6963,黄山市,延安路89号,,13,13,25,7,9,30,,,,4,5,4,4,0.3,0.3
2025-08-31T0600,2297A,118.1371,30.2756,黄山市,黄山区政府5号楼,,16,16,22,3,10,31,,,,3,4,4,4,0.4,0.5
2025-08-31T0600,4210A,118.3354,29.7203,黄山市,滨江东路7-2号,,15,15,27,8,9,41,,,,5,7,2,3,0.3,0.3
2025-08-31T0600,2423A,115.0601,30.2313,黄石市,沈家营,,37,37,43,11,11,2,,,,17,10,8,8,0.8,0.4
2025-08-31T0600,2426A,114.8988,30.2019,黄石市,铁山,,16,15,30,11,13,6,,,,6,9,4,6,0.9,0.8
2025-08-31T0600,2427A,115.0307,30.2092,黄石市,团城山,,24,24,29,3,7,1,,,,21,15,6,7,0.5,0.5
2025-08-31T0600,3149A,115.0235,30.1578,黄石市,笔架山北路,,45,45,29,22,10,9,,,,12,8,6,6,0.5,0.6
2025-08-31T0600,4185A,115.0780,30.21118,黄石市,磁湖东路29号,,45,45,45,13,13,3,,,,34,18,11,9,0.9,0.7
2025-08-31T0600,1392A,114.4183,23.0528,惠州市,河南岸金山湖子站,,15,15,17,3,8,16,,,,15,10,9,8,0.5,0.5
2025-08-31T0600,1393A,114.4053,23.0822,惠州市,下埔横江三路子站,,,18,16,8,7,13,,,,16,8,6,6,,0.3
2025-08-31T0600,1394A,114.4103,23.1142,惠州市,江北云山西路子站,,24,24,18,10,8,13,,,,19,9,12,8,0.5,0.5
2025-08-31T0600,1395A,114.4645,22.7833,惠州市,惠阳区承修路船湖子站,,22,22,15,9,7,12,,,,18,9,8,7,0.4,0.4
2025-08-31T0600,1396A,114.5317,22.7422,惠州市,大亚湾管委会子站,,12,12,17,3,5,28,,,,11,8,8,8,0.5,0.4
2025-08-31T0600,3314A,114.4338,22.8134,惠州市,惠阳秋长,,22,22,17,6,8,20,,,,16,9,7,5,0.5,0.5
2025-08-31T0600,3452A,114.6517,22.775,惠州市,大亚湾霞涌,,12,12,13,3,6,9,,,,14,8,5,6,0.6,0.5
2025-08-31T0600,2240A,130.9762,45.3001,鸡西市,环保局,,25,25,27,13,13,11,,,,21,15,6,7,0.8,0.7
2025-08-31T0600,2243A,130.9429,45.3039,鸡西市,第一中学,,20,19,21,14,11,11,,,,18,11,9,9,0.8,0.7
2025-08-31T0600,3707A,131.0207,45.3073,鸡西市,欧美日汽修厂,,36,36,32,15,14,4,,,,22,17,8,8,0.8,0.7
2025-08-31T0600,3709A,130.9967,45.3106,鸡西市,市政设施管理处,,32,32,35,17,12,6,,,,28,21,7,7,0.8,0.7
2025-08-31T0600,2367A,114.9754,27.0803,吉安市,红声器材厂,,35,35,28,19,12,28,,,,10,6,8,9,1.1,0.9
2025-08-31T0600,2368A,114.9658,27.0999,吉安市,市森林工业局,,36,36,25,20,13,22,,,,10,6,8,9,0.6,0.6
2025-08-31T0600,2369A,114.99,27.1312,吉安市,市环境监测站,,27,27,22,16,13,28,,,,10,5,13,13,0.6,0.5
2025-08-31T0600,2370A,115.0093,27.0968,吉安市,青原区法院,,36,36,26,15,13,21,,,,12,7,8,9,0.7,0.6
2025-08-31T0600,1772A,126.54,43.8622,吉林市,哈达湾,,37,37,30,20,19,10,,,,24,13,7,7,0.5,0.5
2025-08-31T0600,1773A,126.5844,43.8358,吉林市,东局子,,42,32,27,29,26,11,,,,16,12,6,6,1.0,0.9
2025-08-31T0600,1774A,126.5052,43.8245,吉林市,电力学院,,39,39,40,26,26,2,,,,14,15,8,6,0.8,0.8
2025-08-31T0600,1775A,126.6133,43.8972,吉林市,江北,,26,26,26,14,19,8,,,,9,8,4,5,0.7,0.7
2025-08-31T0600,1776A,126.555,43.8306,吉林市,江南公园,,44,44,32,22,21,8,,,,21,11,2,2,0.5,0.5
2025-08-31T0600,2868A,126.4739,43.953,吉林市,九站,,35,33,35,24,15,5,,,,25,19,15,7,0.6,0.6
2025-08-31T0600,1299A,116.9862,36.6114,济南市,科干所,,24,12,38,12,24,75,,,,10,24,6,8,0.6,0.7
2025-08-31T0600,1300A,116.9376,36.665,济南市,农科所,,27,7,33,7,20,84,,,,11,23,7,9,0.5,0.6
2025-08-31T0600,1301A,117.1265,36.6734,济南市,开发区,,25,7,33,7,22,78,,,,9,20,7,9,0.7,0.7
2025-08-31T0600,1303A,117.0624,36.6868,济南市,省种子仓库,,24,17,40,9,18,75,,,,10,19,5,6,0.7,0.7
2025-08-31T0600,1304A,116.9489,36.6447,济南市,机床二厂,,25,12,38,7,20,79,,,,9,22,9,11,0.5,0.6
2025-08-31T0600,1305A,117.0495,36.663,济南市,市监测站,,23,,36,15,22,72,,,,9,22,10,11,0.8,0.9
2025-08-31T0600,1306A,116.7675,36.5484,济南市,长清党校,,29,,34,20,23,89,,,,10,25,5,7,0.7,0.8
2025-08-31T0600,1616A,117.6795,36.229,济南市,技术学院,,39,39,35,27,27,38,,,,17,18,14,11,1.0,1
2025-08-31T0600,1961A,117.532,36.6868,济南市,东山小学,,32,20,30,10,16,100,,,,6,18,6,6,0.4,0.5
2025-08-31T0600,3059A,117.7161,36.2049,济南市,泰兴公司,,31,31,36,19,24,31,,,,16,22,12,11,0.8,0.8
2025-08-31T0600,3064A,117.6867,36.2171,济南市,莱芜战役纪念馆,,41,41,36,23,27,30,,,,15,19,8,7,1.0,0.9
2025-08-31T0600,3494A,117.1673,36.9782,济南市,济阳区政府,,27,12,30,3,13,84,,,,11,13,5,8,0.3,0.4
2025-08-31T0600,3495A,117.1171,36.63,济南市,锦屏中学,,24,6,33,3,17,76,,,,7,18,9,10,0.7,0.8
2025-08-31T0600,3682A,116.9814,36.6819,济南市,济南四建,,27,,28,12,19,86,,,,6,18,4,6,0.7,0.8
2025-08-31T0600,1653A,116.6251,35.4302,济宁市,火炬城,,36,36,52,24,28,28,,,,12,10,4,4,0.4,0.5
2025-08-31T0600,1655A,116.5491,35.4042,济宁市,电化厂,,,44,53,24,29,,,,,11,14,2,4,0.9,1
2025-08-31T0600,3500A,116.5814,35.3707,济宁市,北湖一中,,42,42,50,23,27,41,,,,8,10,7,7,0.6,0.6
2025-08-31T0600,3501A,116.8249,35.5593,济宁市,服务中心,,18,18,34,3,13,42,,,,9,13,3,4,0.3,0.4
2025-08-31T0600,3678A,116.5907,35.4054,济宁市,市第七中学,,,41,50,27,23,,,,,12,11,5,6,0.6,0.7
2025-08-31T0600,2255A,130.2751,46.8028,佳木斯市,佳纺,,31,31,19,13,10,13,,,,26,11,10,10,0.6,0.5
2025-08-31T0600,2256A,130.3995,46.8307,佳木斯市,发电厂,,26,26,22,18,11,22,,,,19,11,7,7,0.7,0.7
2025-08-31T0600,2257A,130.3258,46.7975,佳木斯市,环保局,,25,24,21,17,11,44,,,,11,11,8,8,0.6,0.5
2025-08-31T0600,2258A,130.3648,46.8032,佳木斯市,十一中,,28,28,24,16,14,19,,,,27,16,8,7,0.8,0.7
2025-08-31T0600,2259A,130.3794,46.7588,佳木斯市,四丰,,15,12,9,10,6,0,,,,10,9,1,7,0.5,0.4
2025-08-31T0600,1252A,120.7436,30.778,嘉兴市,清河小学,,18,18,21,3,6,20,,,,14,12,6,6,0.9,0.7
2025-08-31T0600,1253A,120.726,30.7478,嘉兴市,嘉兴学院,,20,17,17,14,9,14,,,,23,10,5,5,0.6,0.5
2025-08-31T0600,2872A,120.7846,30.7525,嘉兴市,南湖区残联,,16,16,19,8,8,19,,,,15,13,7,6,0.6,0.6
2025-08-31T0600,3407A,120.6916,30.7739,嘉兴市,秀洲住建,,34,34,20,20,10,31,,,,20,13,6,7,0.7,0.5
2025-08-31T0600,1945A,98.2908,39.7711,嘉峪关市,气象局,,46,46,75,12,16,93,,,,3,15,7,18,0.4,0.7
2025-08-31T0600,2884A,98.2672,39.7978,嘉峪关市,酒钢宾馆,,46,46,85,14,21,101,,,,2,12,17,27,0.5,0.7
2025-08-31T0600,3248A,98.2643,39.7724,嘉峪关市,雄关区,,40,40,57,16,18,88,,,,6,17,9,16,0.4,0.5
2025-08-31T0600,1383A,113.1064,22.6058,江门市,北街,,10,10,20,3,7,7,,,,17,17,3,4,0.4,0.4
2025-08-31T0600,1384A,113.0731,22.5835,江门市,西区,,11,11,19,7,8,18,,,,16,16,8,8,0.2,0.4
2025-08-31T0600,1385A,113.0219,22.5311,江门市,圭峰西,,10,10,22,3,7,12,,,,16,13,3,3,0.3,0.4
2025-08-31T0600,1386A,113.0828,22.5947,江门市,东湖,,8,8,16,3,8,12,,,,15,15,5,6,0.4,0.4
2025-08-31T0600,3311A,113.1075,22.5647,江门市,江海富民,,27,27,29,3,10,15,,,,20,16,5,4,0.2,0.2
2025-08-31T0600,3449A,113.05,22.4667,江门市,新会银湖,,18,18,20,9,11,0,,,,18,15,2,2,0.4,0.3
2025-08-31T0600,3335A,113.3137,35.2641,焦作市,马村街道办,,40,36,43,28,28,56,,,,9,11,3,4,0.6,0.7
2025-08-31T0600,3336A,113.2465,35.2373,焦作市,焦作技师学院,,35,35,50,22,21,44,,,,13,14,4,9,0.8,0.9
2025-08-31T0600,3477A,113.1656,35.2539,焦作市,中站许衡医院,细颗粒物(PM2.5),53,51,37,37,30,50,,,,12,14,6,8,0.7,0.8
2025-08-31T0600,3981A,113.2449,35.1803,焦作市,原李万街道办,,38,38,39,17,19,34,,,,11,11,10,12,0.5,0.7
2025-08-31T0600,4264A,113.2340,35.2190,焦作市,新安路1731号,,42,32,42,29,28,36,,,,12,11,3,6,0.7,0.8
2025-08-31T0600,4295A,113.2722,35.2121,焦作市,人民路3066号,,33,28,41,23,28,36,,,,9,10,1,5,0.4,0.5
2025-08-31T0600,1708A,116.3701,23.5345,揭阳市,新兴,,34,34,22,14,12,3,,,,23,11,7,6,0.5,0.4
2025-08-31T0600,1709A,116.3264,23.5443,揭阳市,西马,,35,35,28,17,12,3,,,,22,10,5,4,0.5,0.4
2025-08-31T0600,1710A,116.3611,23.5626,揭阳市,东兴,,31,31,26,13,10,3,,,,24,10,9,8,0.6,0.4
2025-08-31T0600,1711A,116.4151,23.5294,揭阳市,渔湖,,41,41,26,25,11,1,,,,21,6,10,9,0.8,0.6
2025-08-31T0600,3320A,116.403,23.5699,揭阳市,曲溪,,17,17,24,11,10,13,,,,11,8,2,2,0.6,0.6
2025-08-31T0600,1944A,102.1692,38.5167,金昌市,天庆家园,,34,34,41,13,13,72,,,,21,16,4,30,0.7,0.9
2025-08-31T0600,4022A,102.1647,38.5371,金昌市,金川区人防中心,,30,30,38,14,13,78,,,,4,12,8,15,0.3,0.5
2025-08-31T0600,4239A,102.1930,38.5319,金昌市,长春路96号,,40,40,39,12,10,88,,,,12,12,6,13,0.5,0.6
2025-08-31T0600,1262A,119.647,29.077,金华市,十五中,,21,21,26,10,12,51,,,,19,14,10,5,0.6,0.4
2025-08-31T0600,1263A,119.686,29.1029,金华市,监测站,,31,31,26,13,12,35,,,,21,14,4,4,0.5,0.4
2025-08-31T0600,3659A,119.656,29.1131,金华市,气象局,,18,16,24,12,10,43,,,,27,15,13,4,0.6,0.4
2025-08-31T0600,1767A,121.1115,41.0879,锦州市,南山,,43,,32,30,27,28,,,,12,15,3,5,0.5,0.7
2025-08-31T0600,1768A,121.0604,40.8428,锦州市,开发区,,32,22,40,22,20,15,,,,55,28,8,8,0.8,0.9
2025-08-31T0600,1769A,121.1836,41.1119,锦州市,百股街道,,39,30,36,27,22,14,,,,27,13,4,9,0.8,0.8
2025-08-31T0600,1770A,121.1178,41.1222,锦州市,天安街道,,40,29,35,28,25,29,,,,39,20,6,9,0.9,0.9
2025-08-31T0600,1771A,121.1303,41.1386,锦州市,北湖公园,,36,31,35,25,24,23,,,,13,12,5,5,1.2,0.9
2025-08-31T0600,2160A,112.85,35.5051,晋城市,自来水公司,,44,44,35,22,16,21,,,,21,18,2,3,0.5,0.6
2025-08-31T0600,2161A,112.8318,35.4936,晋城市,白云商贸,,36,36,35,19,12,30,,,,17,16,2,3,0.6,0.6
2025-08-31T0600,2162A,112.8508,35.4887,晋城市,市环保局,,34,34,26,22,15,25,,,,17,15,2,3,0.7,0.6
2025-08-31T0600,2163A,112.8676,35.4897,晋城市,技术学院,,27,27,27,14,10,25,,,,17,16,3,4,0.9,0.9
2025-08-31T0600,3620A,112.8271,35.4828,晋城市,泽州一中,,34,34,32,14,13,38,,,,16,15,2,2,1.0,1
2025-08-31T0600,2173A,112.7249,37.7067,晋中市,南都小区,细颗粒物(PM2.5),83,89,71,61,43,48,,,,14,19,19,15,1.7,1.2
2025-08-31T0600,2174A,112.6991,37.6982,晋中市,榆次区政府,细颗粒物(PM2.5),72,92,71,52,34,40,,,,15,19,11,13,1.3,0.9
2025-08-31T0600,2865A,112.7195,37.6828,晋中市,榆次三中,细颗粒物(PM2.5),83,95,71,61,40,45,,,,15,18,21,18,1.4,1.1
2025-08-31T0600,4200A,112.7478,37.6954,晋中市,迎宾街26号,细颗粒物(PM2.5),79,90,70,58,36,48,,,,16,20,21,17,1.4,1.2
2025-08-31T0600,2439A,112.2014,31.0481,荆门市,竹园小学,,30,30,28,20,17,73,,,,7,9,2,2,0.8,0.8
2025-08-31T0600,2440A,112.1969,30.9891,荆门市,掇刀,,26,20,27,18,18,57,,,,14,10,2,2,0.8,0.6
2025-08-31T0600,2441A,112.2213,31.0386,荆门市,石化一小,,42,31,29,29,19,72,,,,12,11,2,4,0.6,0.5
2025-08-31T0600,3012A,112.1849,31.0362,荆门市,西山林语,,28,22,26,19,14,71,,,,8,7,1,2,0.7,0.5
2025-08-31T0600,3547A,112.1632,31.0138,荆门市,龙泉中学南校,,25,,22,17,14,64,,,,6,7,1,2,0.9,0.8
2025-08-31T0600,1844A,112.2494,30.3197,荆州市,市图书馆,,15,12,21,10,16,30,,,,20,12,4,4,0.3,0.3
2025-08-31T0600,1845A,112.2008,30.3544,荆州市,市委党校,,17,17,22,3,17,38,,,,7,8,5,6,0.5,0.6
2025-08-31T0600,3194A,112.2747,30.3122,荆州市,管委会,,25,,20,17,21,28,,,,22,10,3,2,0.5,0.5
2025-08-31T0600,4268A,112.1722,30.3366,荆州市,学苑路85号,,13,10,23,9,18,37,,,,15,16,6,6,0.3,0.4
2025-08-31T0600,2343A,117.2117,29.2933,景德镇市,老干部活动中心,,19,,22,13,15,22,,,,8,10,7,8,0.6,0.7
2025-08-31T0600,2344A,117.1894,29.2789,景德镇市,兽医站,,19,15,27,13,16,20,,,,8,10,4,6,0.7,0.8
2025-08-31T0600,2346A,117.2461,29.2956,景德镇市,陶研所,,18,18,24,12,15,15,,,,8,9,6,8,0.7,0.7
2025-08-31T0600,4289A,117.1542,29.2566,景德镇市,青少年活动中心,,15,15,29,10,18,14,,,,16,16,6,12,0.6,0.6
2025-08-31T0600,1803A,115.9872,29.6815,九江市,十里,,16,13,20,11,18,19,,,,15,15,4,5,0.4,0.6
2025-08-31T0600,1804A,115.9584,29.7046,九江市,茅山头,,20,,24,14,16,10,,,,12,12,4,4,0.4,0.4
2025-08-31T0600,1805A,115.9877,29.7295,九江市,西园,,9,9,22,6,11,28,,,,17,19,5,4,0.6,0.7
2025-08-31T0600,1808A,115.9114,29.6038,九江市,综合工业园,,19,19,23,6,13,8,,,,23,24,5,7,0.6,0.7
2025-08-31T0600,1809A,116.0721,29.7535,九江市,石化总厂,,,14,22,,22,24,,,,19,17,6,5,0.4,0.5
2025-08-31T0600,3190A,116.0254,29.6994,九江市,外国语学校,,13,13,19,3,17,19,,,,16,17,3,3,0.2,0.2
2025-08-31T0600,4253A,116.0102,29.6594,九江市,莲花大道8号,,16,11,16,11,18,14,,,,9,7,5,6,0.4,0.5
2025-08-31T0600,4240A,98.4958,39.7339,酒泉市,玉门东路5号,,46,46,90,26,30,80,,,,4,13,7,11,0.2,0.3
2025-08-31T0600,4241A,98.5099,39.7506,酒泉市,北大街108号,,46,46,93,18,24,59,,,,7,14,9,15,0.2,0.4
2025-08-31T0600,2698A,76.0072,39.4467,喀什地区,巡警大队,颗粒物(PM10),72,93,140,16,62,126,,,,13,38,3,4,0.2,0.5
2025-08-31T0600,2699A,75.9755,39.4694,喀什地区,吾办,颗粒物(PM10),91,132,167,32,55,122,,,,12,35,3,4,0.2,0.6
2025-08-31T0600,4027A,75.9483,39.4689,喀什地区,老干局,,42,42,118,9,28,133,,,,5,26,5,6,0.2,0.4
2025-08-31T0600,1824A,114.3389,34.7781,开封市,肿瘤医院,,32,16,36,7,17,100,,,,8,12,3,4,0.9,0.8
2025-08-31T0600,1826A,114.2885,34.7965,开封市,世纪星幼儿园,,31,,30,12,23,99,,,,5,10,4,6,0.9,0.9
2025-08-31T0600,3147A,114.3438,34.8106,开封市,龙亭公园,,28,,34,12,17,89,,,,8,12,4,6,1.0,1
2025-08-31T0600,3210A,114.3644,34.7964,开封市,汴京公园,,30,14,37,10,21,96,,,,5,9,4,5,0.6,0.7
2025-08-31T0600,3473A,114.2485,34.8306,开封市,技师学院,,29,,32,18,21,90,,,,6,10,5,7,1.1,1.1
2025-08-31T0600,3592A,114.4644,34.7556,开封市,祥符区生态环境局,,28,14,32,7,18,89,,,,10,16,5,5,0.8,0.8
2025-08-31T0600,1951A,84.895,45.6094,克拉玛依市,长征新村,颗粒物(PM10),57,64,33,17,10,87,,,,1,17,4,4,0.1,0.3
2025-08-31T0600,1952A,84.8988,45.5893,克拉玛依市,南林小区,,49,49,41,9,12,87,,,,2,26,6,7,0.2,0.2
2025-08-31T0600,1954A,84.905,44.3396,克拉玛依市,独山子区,,30,30,44,13,15,93,,,,9,15,6,11,0.1,0.3
2025-08-31T0600,1955A,85.6979,46.098,克拉玛依市,乌尔禾区商贸楼,,31,31,29,10,8,58,,,,7,17,3,3,0.2,0.3
2025-08-31T0600,3612A,85.1045,45.6899,克拉玛依市,白碱滩区新站,,,,46,16,14,94,,,,1,6,10,10,0.3,0.3
2025-08-31T0600,2697A,76.1454,39.7142,克孜勒苏柯尔克孜自治州,市人民政府,,38,38,81,11,32,121,,,,6,14,15,20,0.0,0.1
2025-08-31T0600,3665A,76.1658,39.7157,克孜勒苏柯尔克孜自治州,克州文化中心,颗粒物(PM10),58,65,78,24,27,132,,,,1,14,29,13,0.2,0.2
2025-08-31T0600,1450A,102.8204,24.8886,昆明市,呈贡新区,,26,,5,18,11,42,,,,11,11,3,3,0.4,0.3
2025-08-31T0600,1452A,102.7252,25.0902,昆明市,龙泉镇,,15,15,17,7,8,28,,,,10,14,2,2,0.3,0.3
2025-08-31T0600,1453A,102.7266,25.0375,昆明市,东风东路,,18,18,22,11,12,30,,,,18,18,7,4,0.3,0.3
2025-08-31T0600,1454A,102.6742,25.0669,昆明市,金鼎山,,16,16,19,7,8,39,,,,5,12,1,2,0.2,0.3
2025-08-31T0600,1455A,102.6644,25.0401,昆明市,碧鸡广场,,19,19,23,8,11,33,,,,11,19,7,7,0.3,0.4
2025-08-31T0600,3179A,102.7494,25.0119,昆明市,官渡区博物馆,,20,,18,14,9,15,,,,26,26,1,1,0.1,0.4
2025-08-31T0600,3375A,102.8017,24.8336,昆明市,青年创业园,,24,24,17,11,9,29,,,,11,13,3,2,0.4,0.4
2025-08-31T0600,3550A,102.7997,24.9786,昆明市,昆明学院,,28,28,21,15,12,18,,,,26,17,6,7,0.3,0.3
2025-08-31T0600,3551A,102.5967,24.6736,昆明市,晋宁区生态环境分局,,30,30,23,14,12,5,,,,24,13,2,3,0.4,0.3
2025-08-31T0600,3552A,102.6678,24.9856,昆明市,云天化总部,,20,20,16,12,9,42,,,,11,14,4,4,0.4,0.4
2025-08-31T0600,1456A,91.1319,29.6514,拉萨市,八廓街,,19,11,10,9,7,58,,,,12,12,8,6,0.3,0.3
2025-08-31T0600,1457A,91.1221,29.6747,拉萨市,市环保局,,17,9,13,8,9,53,,,,11,14,8,7,0.2,0.2
2025-08-31T0600,1458A,91.0874,29.6475,拉萨市,区监测站,,18,11,10,6,6,55,,,,15,17,4,3,0.2,0.2
2025-08-31T0600,1459A,91.1774,29.6541,拉萨市,西藏大学,,17,16,11,6,7,54,,,,11,13,8,6,0.3,0.3
2025-08-31T0600,1460A,90.9798,29.6588,拉萨市,区辐射站,,22,22,44,11,18,21,,,,42,19,7,5,0.4,0.3
2025-08-31T0600,1461A,91.0834,29.6292,拉萨市,拉萨火车站,,16,12,13,10,7,49,,,,16,13,5,4,0.3,0.3
2025-08-31T0600,2520A,109.2203,23.7256,来宾市,来宾技工学校,,27,27,24,10,10,10,,,,24,10,18,13,0.6,0.5
2025-08-31T0600,3535A,109.1781,23.7297,来宾市,兴宾区政府,,15,15,18,7,11,26,,,,10,8,8,7,0.4,0.4
2025-08-31T0600,4002A,109.2416,23.7461,来宾市,中南小学,,20,20,22,7,5,27,,,,15,10,14,11,0.5,0.5
2025-08-31T0600,1479A,103.831,36.0464,兰州市,铁路设计院,,42,38,54,29,32,14,,,,45,47,10,14,0.8,0.9
2025-08-31T0600,3241A,103.7439,36.0842,兰州市,百合公园,,44,44,42,22,20,11,,,,29,32,5,9,0.7,0.5
2025-08-31T0600,3242A,103.9611,35.998,兰州市,和平,,30,30,38,8,17,46,,,,16,15,7,10,0.3,0.4
2025-08-31T0600,4236A,103.6293,36.0938,兰州市,庄浪东路808号,,40,40,48,20,26,28,,,,29,38,18,17,0.5,0.4
2025-08-31T0600,4237A,103.7251,36.1043,兰州市,安宁西路88号,颗粒物(PM10),52,54,49,27,29,13,,,,36,28,4,9,0.3,0.4
2025-08-31T0600,4238A,103.8470,36.0676,兰州市,北滨河东路1号,,47,47,42,26,26,1,,,,47,40,9,14,0.7,0.7
2025-08-31T0600,3245A,103.6633,36.533,兰州新区,新区管委会,,31,31,28,15,18,21,,,,12,15,8,14,0.3,0.2
2025-08-31T0600,3246A,103.6975,36.4789,兰州新区,舟曲中学,,33,33,20,14,10,54,,,,18,14,22,14,0.4,0.4
2025-08-31T0600,1067A,116.6708,39.5111,廊坊市,药材公司,,41,41,30,14,14,23,,,,16,12,4,4,0.3,0.3
2025-08-31T0600,1068A,116.7214,39.5589,廊坊市,开发区,,35,35,30,22,14,12,,,,16,13,2,2,0.3,0.4
2025-08-31T0600,1070A,116.7244,39.5269,廊坊市,北华航天学院,,35,35,28,19,12,49,,,,15,10,4,4,0.4,0.3
2025-08-31T0600,2919A,116.7022,39.5453,廊坊市,河北工业大学,,29,29,25,16,15,48,,,,17,12,2,2,0.3,0.3
2025-08-31T0600,2535A,103.7723,29.5462,乐山市,花湖湾,,20,20,15,11,10,26,,,,8,13,8,8,0.2,0.2
2025-08-31T0600,2536A,103.7627,29.5844,乐山市,牛耳桥,,22,22,15,14,9,28,,,,10,15,6,6,0.4,0.5
2025-08-31T0600,2537A,103.7508,29.6006,乐山市,市第三水厂,,20,20,14,12,7,36,,,,11,15,4,4,0.5,0.5
2025-08-31T0600,2538A,103.7571,29.5664,乐山市,市监测站,,21,21,16,9,8,22,,,,10,12,7,6,0.7,0.6
2025-08-31T0600,3361A,103.7311,29.5628,乐山市,理工大学,,20,20,12,11,7,25,,,,6,9,10,8,0.7,0.6
2025-08-31T0600,2599A,100.2497,26.8802,丽江市,丽江古城,,14,14,18,6,8,36,,,,10,12,10,10,0.6,0.6
2025-08-31T0600,2600A,100.2203,26.8906,丽江市,市中心,,10,6,13,3,10,32,,,,13,13,10,10,0.5,0.5
2025-08-31T0600,1267A,119.914,28.4514,丽水市,监测站大楼,,,13,14,6,6,,,,,12,8,4,4,0.4,0.4
2025-08-31T0600,1268A,119.93,28.4586,丽水市,莲都小学,,,14,14,6,4,,,,,14,8,4,4,0.3,0.3
2025-08-31T0600,1269A,119.879,28.4231,丽水市,余庄前,,40,,12,28,12,3,,,,11,8,5,5,0.4,0.2
2025-08-31T0600,1173A,119.176,34.5885,连云港市,市环境监测站,,19,6,11,3,4,60,,,,7,15,5,4,0.2,0.3
2025-08-31T0600,3000A,119.3581,34.6972,连云港市,德源药业,,15,7,13,3,4,47,,,,14,21,5,4,0.5,0.6
2025-08-31T0600,3007A,119.178,34.844,连云港市,新城一中,,15,15,22,3,8,41,,,,22,19,3,4,0.6,0.8
2025-08-31T0600,3008A,119.3608,34.7519,连云港市,胡沟管理处,,,7,10,,8,69,,,,10,17,11,10,0.7,0.8
2025-08-31T0600,3009A,119.1478,34.5911,连云港市,矿山设计院,,21,6,11,3,6,67,,,,9,16,7,5,0.6,0.6
2025-08-31T0600,3434A,119.2413,34.6539,连云港市,工贸学校,,23,6,12,3,7,73,,,,3,7,5,5,0.7,0.8
2025-08-31T0600,3664A,119.4172,34.7341,连云港市,连云街道,,29,6,17,3,8,90,,,,3,12,4,4,0.6,0.8
2025-08-31T0600,2571A,102.3431,27.8099,凉山彝族自治州,青龙寺,,21,21,18,6,20,6,,,,8,4,2,2,0.7,0.4
2025-08-31T0600,2572A,102.2721,27.8415,凉山彝族自治州,邛海宾馆,,14,10,15,6,11,42,,,,8,8,10,8,0.4,0.5
2025-08-31T0600,2573A,102.2625,27.898,凉山彝族自治州,西昌市政府,,8,6,16,3,12,24,,,,6,6,5,7,0.1,0.3
2025-08-31T0600,2574A,102.2685,27.8851,凉山彝族自治州,凉山州政府,,15,,21,10,18,22,,,,8,8,8,7,1.0,0.5
2025-08-31T0600,4229A,102.2342,27.8859,凉山彝族自治州,凯乐南路30号,,15,15,17,3,10,28,,,,16,13,16,13,0.8,0.7
2025-08-31T0600,2212A,123.2,41.1953,辽阳市,宏伟区,,17,17,25,3,10,44,,,,5,8,2,2,0.6,0.9
2025-08-31T0600,2213A,123.1683,41.2495,辽阳市,新华园,,29,29,32,9,15,29,,,,13,13,6,6,0.6,0.8
2025-08-31T0600,2214A,123.2354,41.2639,辽阳市,滨河路,颗粒物(PM10),69,88,68,21,19,16,,,,29,14,4,4,0.6,0.8
2025-08-31T0600,2215A,123.149,41.2991,辽阳市,铁西工业园,颗粒物(PM10),52,53,34,17,17,10,,,,24,16,2,2,0.8,0.9
2025-08-31T0600,2227A,125.1358,42.8845,辽源市,环保局,颗粒物(PM10),51,52,47,14,16,4,,,,14,12,8,8,0.9,0.8
2025-08-31T0600,3239A,125.0764,42.9078,辽源市,银鹰制药,,31,31,30,20,19,4,,,,18,20,9,25,0.9,0.7
2025-08-31T0600,1625A,115.9848,36.4372,聊城市,区政府,,25,9,23,7,17,80,,,,8,12,9,10,0.6,0.7
2025-08-31T0600,2878A,116.0072,36.4343,聊城市,聊大东校,,25,,26,16,19,77,,,,9,13,8,10,0.4,0.5
2025-08-31T0600,3200A,115.9819,36.4978,聊城市,监控中心,,18,12,23,12,13,56,,,,9,12,8,8,0.6,0.7
2025-08-31T0600,3513A,116.0445,36.4361,聊城市,九州社区,,23,20,33,16,18,71,,,,10,13,2,6,0.4,0.5
2025-08-31T0600,4018A,116.0567,36.4608,聊城市,星美广场,,21,17,30,12,17,66,,,,7,10,6,9,0.7,0.7
2025-08-31T0600,2633A,94.3616,29.6616,林芝市,林芝人民医院,,10,10,9,3,5,9,,,,5,5,4,4,0.3,0.3
2025-08-31T0600,2603A,100.0781,23.8982,临沧市,市环保局,,25,,17,17,15,6,,,,8,9,4,7,0.4,0.3
2025-08-31T0600,2604A,100.0894,23.8822,临沧市,市气象局,,18,,16,12,12,10,,,,6,7,7,8,0.5,0.5
2025-08-31T0600,1733A,111.5531,36.0783,临汾市,临钢医院,,50,50,63,28,30,37,,,,13,17,7,9,0.9,1.4
2025-08-31T0600,1734A,111.5028,36.0714,临汾市,技工学校,细颗粒物(PM2.5),70,59,65,51,50,37,,,,10,14,8,8,1.0,1.3
2025-08-31T0600,1736A,111.5018,36.0855,临汾市,市委,细颗粒物(PM2.5),69,73,76,50,43,36,,,,14,18,6,6,1.1,1.3
2025-08-31T0600,3018A,111.505,36.1014,临汾市,唐尧大酒店,细颗粒物(PM2.5),65,72,78,47,43,34,,,,13,17,6,6,1.1,1.3
2025-08-31T0600,4244A,111.4879,36.0530,临汾市,启星学校,细颗粒物(PM2.5),79,65,61,58,52,38,,,,12,18,4,4,0.9,1.3
2025-08-31T0600,4271A,103.2464,35.6123,临夏回族自治州,滨河东路1号,,37,37,45,17,17,14,,,,10,17,7,6,0.3,0.3
2025-08-31T0600,4310A,103.2093,35.5995,临夏回族自治州,新华街21号,,32,31,38,22,20,19,,,,14,13,6,5,0.4,0.5
2025-08-31T0600,1618A,118.3429,35.0532,临沂市,沂河小区,,35,24,30,24,24,35,,,,24,21,9,9,0.4,0.6
2025-08-31T0600,1619A,118.295,35.0583,临沂市,鲁南制药厂,,31,31,28,21,20,40,,,,18,17,9,9,0.6,0.6
2025-08-31T0600,1620A,118.2794,34.9976,临沂市,新光毛纺厂,,32,29,27,22,20,30,,,,53,25,7,8,0.6,0.7
2025-08-31T0600,1621A,118.3956,35.0888,临沂市,河东保险公司,,29,27,28,20,16,29,,,,22,20,5,6,0.3,0.4
2025-08-31T0600,3370A,118.3564,35.0215,临沂市,十里堡居委,,42,,24,29,29,39,,,,21,22,11,9,0.5,0.6
2025-08-31T0600,3496A,118.3604,35.1084,临沂市,南坊新区,,,29,31,17,17,,,,,23,22,8,8,0.5,0.6
2025-08-31T0600,3860A,118.3920,35.0300,临沂市,皇山花园小区,,36,36,35,25,27,38,,,,18,24,11,9,0.6,0.7
2025-08-31T0600,1870A,109.4856,24.3895,柳州市,柳东小学,,18,18,17,6,10,28,,,,18,9,5,6,0.3,0.3
2025-08-31T0600,1871A,109.4157,24.3277,柳州市,环保监测站,,13,13,20,9,10,38,,,,11,8,7,7,0.4,0.3
2025-08-31T0600,1872A,109.389,24.341,柳州市,河西水厂,,40,40,26,16,12,16,,,,28,11,8,6,0.8,0.5
2025-08-31T0600,1873A,109.4311,24.2921,柳州市,市四中,,19,19,22,10,10,32,,,,18,12,7,7,0.4,0.4
2025-08-31T0600,1874A,109.4006,24.3631,柳州市,市九中,颗粒物(PM10),51,52,28,13,12,0,,,,30,10,5,4,0.7,0.3
2025-08-31T0600,1875A,109.4958,24.3134,柳州市,古亭山,,14,14,23,3,10,8,,,,25,12,6,6,0.4,0.4
2025-08-31T0600,3402A,109.5422,24.3996,柳州市,市二中,,33,33,22,17,12,0,,,,26,14,5,6,0.6,0.6
2025-08-31T0600,2307A,116.5079,31.737,六安市,监测大楼,,12,11,18,8,13,21,,,,5,4,4,4,0.4,0.5
2025-08-31T0600,2308A,116.4738,31.7643,六安市,皖西学院,,11,10,19,6,13,33,,,,2,4,2,3,0.2,0.3
2025-08-31T0600,2309A,116.4996,31.7905,六安市,朝阳厂,,9,8,16,3,13,26,,,,9,8,6,6,0.2,0.3
2025-08-31T0600,2310A,116.5567,31.7886,六安市,开发区,,8,7,14,3,13,22,,,,3,6,2,2,0.1,0.3
2025-08-31T0600,2577A,104.83,26.5917,六盘水市,黄土坡,,22,,13,15,8,22,,,,9,11,4,4,0.3,0.3
2025-08-31T0600,2578A,104.89,26.5939,六盘水市,水钢,,39,39,26,17,15,14,,,,19,8,5,4,0.5,0.2
2025-08-31T0600,2579A,104.8475,26.5894,六盘水市,民中,,22,22,14,7,5,15,,,,12,8,3,2,0.4,0.3
2025-08-31T0600,2580A,104.9544,26.5506,六盘水市,双水,,27,27,13,8,5,7,,,,13,7,2,2,0.2,0.1
2025-08-31T0600,2336A,117.0217,25.1033,龙岩市,龙岩市监测站,,26,21,21,18,12,14,,,,19,13,14,11,0.6,0.6
2025-08-31T0600,2337A,117.0258,25.0661,龙岩市,闽西职业技术学院,,44,44,27,20,12,17,,,,19,12,36,17,0.5,0.5
2025-08-31T0600,2338A,117.0196,25.0306,龙岩市,龙岩学院,,27,27,36,15,11,28,,,,9,8,6,7,0.5,0.5
2025-08-31T0600,2885A,104.9339,33.3826,陇南市,滨江中学,,27,27,26,13,12,17,,,,7,9,8,8,0.6,0.7
2025-08-31T0600,3247A,104.955,33.371,陇南市,市总工会,,31,31,33,9,7,15,,,,10,12,6,6,0.4,0.4
2025-08-31T0600,2487A,111.9589,27.8901,娄底市,电视发射台,,27,27,29,3,13,8,,,,6,5,5,4,0.3,0.3
2025-08-31T0600,2488A,111.9975,27.725,娄底市,市监测站,,22,22,32,14,19,17,,,,22,16,10,10,1.0,0.8
2025-08-31T0600,2489A,112.0194,27.7314,娄底市,市委党校,,24,24,34,16,23,24,,,,14,12,5,5,1.0,0.8
2025-08-31T0600,2490A,111.9561,27.7569,娄底市,涟钢,,20,20,33,10,21,14,,,,11,12,6,7,0.7,0.9
2025-08-31T0600,2491A,111.9892,27.7044,娄底市,市政府,,16,15,26,11,21,19,,,,6,7,6,6,0.7,0.7
2025-08-31T0600,1893A,105.4324,28.9634,泸州市,九狮山,,40,,27,28,28,44,,,,7,6,6,6,0.4,0.5
2025-08-31T0600,1894A,105.4427,28.9063,泸州市,小市上码头,,17,17,21,8,10,50,,,,5,6,4,4,0.4,0.5
2025-08-31T0600,1895A,105.4241,28.8573,泸州市,兰田宪桥,,20,18,23,10,12,64,,,,6,8,8,8,0.2,0.2
2025-08-31T0600,1896A,105.4379,28.8833,泸州市,市环监站,,23,18,18,12,11,71,,,,5,7,4,4,0.0,0.1
2025-08-31T0600,4272A,105.3689,28.7783,泸州市,纳溪中医医院,,19,19,20,10,14,57,,,,11,14,3,3,0.5,0.6
2025-08-31T0600,2183A,111.1406,37.5211,吕梁市,环保局,颗粒物(PM10),63,76,57,19,19,1,,,,32,27,2,3,0.9,0.7
2025-08-31T0600,2185A,111.1297,37.5136,吕梁市,自来水公司,,,87,51,24,17,1,,,,28,21,,4,0.6,0.5
2025-08-31T0600,2867A,111.1283,37.51,吕梁市,马茂庄小学,颗粒物(PM10),64,78,64,23,18,1,,,,31,28,3,4,0.8,0.6
2025-08-31T0600,1812A,112.3931,34.6516,洛阳市,市委党校,,25,22,27,17,17,35,,,,10,10,6,8,0.4,0.4
2025-08-31T0600,1815A,112.494,34.6886,洛阳市,河南林校,,28,28,37,16,19,35,,,,15,16,6,9,0.4,0.5
2025-08-31T0600,1816A,112.3844,34.623,洛阳市,开发区管委会,,25,25,23,17,17,26,,,,10,8,3,4,0.4,0.5
2025-08-31T0600,1817A,112.4267,34.6258,洛阳市,市委新办公区,,20,20,25,14,17,30,,,,8,9,6,8,0.4,0.4
2025-08-31T0600,3340A,112.6005,34.6326,洛阳市,伊滨,,26,26,29,18,18,42,,,,15,15,8,9,0.4,0.5
2025-08-31T0600,3341A,112.4951,34.6332,洛阳市,中移产业园,,33,31,28,23,19,31,,,,16,14,8,8,0.5,0.5
2025-08-31T0600,3593A,112.5736,34.8993,洛阳市,吉利监测站,,40,35,31,28,21,22,,,,9,7,4,6,0.6,0.7
2025-08-31T0600,3635A,112.3677,34.662,洛阳市,河科大西苑校区,,22,22,27,15,14,46,,,,12,14,8,8,0.5,0.5
2025-08-31T0600,3636A,112.4388,34.6781,洛阳市,英才小学,,45,33,35,31,29,37,,,,20,17,8,9,0.7,0.7
2025-08-31T0600,4214A,112.4600,34.6949,洛阳市,春都路1号院,,34,34,30,18,14,30,,,,13,12,9,11,0.8,0.8
2025-08-31T0600,2399A,114.051,33.5699,漯河市,三五一五工厂,,24,23,33,16,21,75,,,,8,10,5,7,0.6,0.6
2025-08-31T0600,2400A,114.0055,33.5698,漯河市,漯河大学,,28,,30,19,19,77,,,,8,11,4,6,0.7,0.8
2025-08-31T0600,2401A,114.0138,33.5828,漯河市,市水利局,,25,,31,17,22,76,,,,6,10,4,7,0.6,0.7
2025-08-31T0600,2402A,114.0261,33.5698,漯河市,市广电局,,35,,30,24,24,82,,,,5,8,2,4,0.8,0.8
2025-08-31T0600,3478A,113.9749,33.5664,漯河市,市图书馆,,25,,33,15,21,77,,,,6,11,4,6,0.6,0.6
2025-08-31T0600,4250A,114.0892,33.5882,漯河市,韶山路11号,,25,,33,17,21,77,,,,7,11,3,5,0.6,0.7
2025-08-31T0600,1798A,118.5092,31.6837,马鞍山市,湖东路四小,,25,17,29,17,19,32,,,,13,18,6,10,0.6,1.1
2025-08-31T0600,1799A,118.5024,31.6449,马鞍山市,开发区,,18,18,28,12,14,21,,,,22,16,7,10,0.7,0.8
2025-08-31T0600,1802A,118.6245,31.7241,马鞍山市,濮塘,,16,16,27,3,14,24,,,,11,12,8,8,1.0,0.9
2025-08-31T0600,3633A,118.4918,31.6809,马鞍山市,雨山,,12,11,32,8,17,32,,,,13,22,6,10,0.8,1.2
2025-08-31T0600,4191A,118.5274,31.72227,马鞍山市,慈湖高新区,,33,33,35,12,18,23,,,,14,21,6,11,0.7,0.7
2025-08-31T0600,1686A,111.0286,21.4688,茂名市,电白南海,,24,24,21,7,10,27,,,,8,8,4,5,0.1,0.2
2025-08-31T0600,1687A,110.9294,21.6533,茂名市,茂石化七小,,12,12,14,3,6,25,,,,7,8,5,6,0.4,0.4
2025-08-31T0600,1688A,110.9107,21.6687,茂名市,健康路,,10,9,8,7,8,28,,,,7,8,4,5,0.5,0.5
2025-08-31T0600,1689A,110.8592,21.6828,茂名市,高岭,,22,22,18,3,2,17,,,,10,12,12,11,0.5,0.5
2025-08-31T0600,3450A,111.01,21.5165,茂名市,电白水东,,14,14,10,7,5,19,,,,11,9,9,5,0.6,0.6
2025-08-31T0600,2539A,104.0308,30.0478,眉山市,黑龙滩水库,,23,8,9,3,6,72,,,,1,4,2,2,0.3,0.4
2025-08-31T0600,2540A,103.8416,30.0874,眉山市,气象局,,26,26,21,3,6,51,,,,9,14,5,6,0.1,0.2
2025-08-31T0600,3137A,103.8578,30.0744,眉山市,市委党校,,14,9,12,3,3,44,,,,9,14,6,7,0.3,0.4
2025-08-31T0600,3148A,103.8291,30.0564,眉山市,区人社局,,23,23,26,3,2,48,,,,10,19,10,10,0.5,0.5
2025-08-31T0600,1690A,116.1231,24.3284,梅州市,梅江月梅,,29,29,21,15,14,7,,,,20,12,8,8,0.5,0.5
2025-08-31T0600,1691A,116.0797,24.2719,梅州市,梅县新城,,26,24,24,18,13,8,,,,16,10,7,8,0.5,0.5
2025-08-31T0600,1692A,116.1248,24.2654,梅州市,环境监控中心,,28,28,23,17,14,5,,,,22,13,10,6,0.5,0.5
2025-08-31T0600,3315A,116.1233,24.2991,梅州市,梅龙,,29,24,22,20,15,19,,,,11,9,14,9,0.7,0.6
2025-08-31T0600,1878A,104.7778,31.4741,绵阳市,富乐山,,30,30,17,15,8,0,,,,16,15,8,8,0.6,0.5
2025-08-31T0600,1880A,104.6697,31.4668,绵阳市,高新区自来水公司,,40,40,18,14,7,14,,,,24,22,8,8,0.6,0.5
2025-08-31T0600,1881A,104.7287,31.5075,绵阳市,三水厂,,32,32,18,19,11,2,,,,19,21,10,9,0.7,0.5
2025-08-31T0600,3491A,104.69,31.5322,绵阳市,西科大附属小学,,22,22,22,8,12,4,,,,18,25,8,9,1.0,0.8
2025-08-31T0600,3492A,104.5648,31.5343,绵阳市,安州区旅游局,,28,26,24,19,12,5,,,,16,15,12,11,0.5,0.4
2025-08-31T0600,4226A,104.7651,31.4531,绵阳市,绵阳市气象局,,37,37,20,20,11,4,,,,18,21,8,8,0.5,0.4
2025-08-31T0600,1784A,129.61,44.561,牡丹江市,环保大楼,,19,,22,13,10,4,,,,15,14,2,1,0.4,0.3
2025-08-31T0600,1785A,129.6115,44.5782,牡丹江市,文化广场,,36,30,19,25,18,4,,,,20,15,6,7,0.6,0.6
2025-08-31T0600,1786A,129.5904,44.5963,牡丹江市,第一医院,,27,27,18,15,15,6,,,,20,14,7,7,0.3,0.3
2025-08-31T0600,1787A,129.6364,44.6075,牡丹江市,机车工厂,,25,25,23,11,12,1,,,,15,12,8,6,0.5,0.5
2025-08-31T0600,1788A,129.6386,44.5462,牡丹江市,第一中学,,23,23,21,7,13,3,,,,13,13,6,6,0.3,0.3
2025-08-31T0600,2531A,105.0703,29.61,内江市,市监测站,,23,6,14,3,8,71,,,,7,9,3,3,0.7,0.7
2025-08-31T0600,2532A,105.0717,29.5947,内江市,东兴区政府,,21,9,12,3,3,66,,,,5,10,4,5,0.5,0.5
2025-08-31T0600,2533A,105.0653,29.5817,内江市,内江二中,,16,,15,9,9,51,,,,10,12,1,2,0.5,0.5
2025-08-31T0600,2534A,105.0406,29.5822,内江市,内江日报社,,20,20,15,9,10,52,,,,12,13,4,4,0.3,0.3
2025-08-31T0600,2628A,92.0657,31.4846,那曲市,那曲监测站,,20,20,33,8,12,48,,,,16,19,7,7,0.4,0.4
2025-08-31T0600,4243A,92.0515,31.4787,那曲市,那曲市委宣传部,,27,27,22,11,10,46,,,,14,11,3,3,0.5,0.4
2025-08-31T0600,1290A,115.8931,28.6843,南昌市,省外办,,20,19,24,14,18,22,,,,9,9,6,5,0.7,0.7
2025-08-31T0600,1291A,115.8886,28.7003,南昌市,省林业公司,,17,17,24,9,12,25,,,,11,12,4,4,0.6,0.6
2025-08-31T0600,1292A,115.8126,28.7442,南昌市,林科所,,10,6,14,3,9,29,,,,9,10,2,3,0.4,0.3
2025-08-31T0600,1294A,115.8518,28.687,南昌市,建工学校,,46,,26,32,18,30,,,,15,17,7,7,0.7,0.7
2025-08-31T0600,1295A,115.8921,28.6424,南昌市,象湖,,18,18,18,12,10,28,,,,15,13,8,7,0.6,0.6
2025-08-31T0600,1296A,115.7423,28.7996,南昌市,武术学校,,19,19,16,11,11,3,,,,7,9,8,9,0.5,0.6
2025-08-31T0600,3046A,115.9084,28.6062,南昌市,机电学校,,19,19,24,9,11,27,,,,15,12,6,7,0.5,0.5
2025-08-31T0600,3690A,115.9721,28.7031,南昌市,外国语学校,,19,19,26,9,13,25,,,,16,12,7,8,0.5,0.5
2025-08-31T0600,4192A,115.9316,28.68677,南昌市,南京东路235号,,19,19,30,9,11,26,,,,17,13,10,9,0.8,0.7
2025-08-31T0600,1906A,106.0789,30.8023,南充市,南充市委,,12,7,19,3,13,36,,,,5,8,4,4,0.3,0.3
2025-08-31T0600,1907A,106.1031,30.8217,南充市,南充炼油厂,,19,19,28,3,16,34,,,,4,7,4,5,0.2,0.2
2025-08-31T0600,4227A,106.1083,30.7884,南充市,梨树横街98号,,13,10,19,7,14,41,,,,5,8,3,4,0.1,0.2
2025-08-31T0600,4304A,106.1172,30.843,南充市,清泉寺北路188号,,27,27,23,8,14,36,,,,6,8,4,4,0.4,0.4
2025-08-31T0600,4305A,106.067,30.7616,南充市,同庆路1号,,12,12,17,3,11,32,,,,8,9,5,4,0.3,0.3
2025-08-31T0600,1151A,118.8086,32.1065,南京市,迈皋桥,,12,,12,3,8,37,,,,22,22,3,4,1.1,0.6
2025-08-31T0600,1152A,118.7538,32.0551,南京市,草场门,,19,19,19,3,10,38,,,,13,14,5,4,0.9,0.7
2025-08-31T0600,1153A,118.7794,32.0745,南京市,山西路,,14,12,20,3,5,44,,,,18,19,4,4,0.9,0.5
2025-08-31T0600,1154A,118.7752,32.0023,南京市,中华门,,12,7,13,3,7,29,,,,10,11,4,4,1.2,0.8
2025-08-31T0600,1155A,118.8109,32.0309,南京市,瑞金路,,,6,15,3,10,,,,,18,14,6,7,0.3,0.6
2025-08-31T0600,1156A,118.7997,32.0754,南京市,玄武湖,,,9,17,,7,38,,,,8,10,4,4,1.0,0.5
2025-08-31T0600,1157A,118.6414,32.0931,南京市,浦口,,16,16,20,3,7,25,,,,18,12,10,6,0.9,0.5
2025-08-31T0600,1158A,118.7356,31.9996,南京市,奥体中心,,12,10,19,3,9,37,,,,18,14,6,6,0.7,0.5
2025-08-31T0600,1159A,118.9125,32.1028,南京市,仙林大学城,,14,14,21,3,4,36,,,,12,12,9,9,0.9,0.6
2025-08-31T0600,3422A,118.8436,31.9198,南京市,江宁彩虹桥,,12,12,18,3,10,34,,,,21,18,5,4,0.8,0.5
2025-08-31T0600,3427A,118.8554,32.3578,南京市,六合雄州,,,31,26,8,8,16,,,,26,14,10,6,,0.7
2025-08-31T0600,4249A,118.8708,31.3402,南京市,汶溪路181号,,15,8,20,3,12,46,,,,11,12,5,7,0.5,0.5
2025-08-31T0600,4312A,119.019,31.6512,南京市,中山西路1号,,12,,16,6,11,38,,,,11,14,3,4,0.6,0.7
2025-08-31T0600,1401A,108.3103,22.7881,南宁市,二十一中,,15,10,22,10,16,23,,,,12,12,4,5,0.6,0.6
2025-08-31T0600,1402A,108.3141,22.8528,南宁市,北湖,,24,24,24,13,15,32,,,,17,14,4,3,0.4,0.4
2025-08-31T0600,1403A,108.3206,22.8225,南宁市,市监测站,,18,17,22,12,18,38,,,,8,14,4,4,0.4,0.5
2025-08-31T0600,1404A,108.3829,22.8037,南宁市,大自然花园,,23,23,23,11,15,23,,,,9,11,4,5,0.5,0.5
2025-08-31T0600,1406A,108.2397,22.8467,南宁市,区农职院,,31,31,26,15,14,22,,,,16,16,9,6,0.2,0.3
2025-08-31T0600,1407A,108.3275,22.735,南宁市,英华嘉园,,43,43,24,10,14,23,,,,14,10,2,2,0.4,0.4
2025-08-31T0600,3401A,108.4834,22.7618,南宁市,红星社区,,25,25,24,10,14,14,,,,21,13,2,3,0.4,0.4
2025-08-31T0600,4221A,108.2177,22.7774,南宁市,乐贤路16号,,31,31,30,16,18,2,,,,26,20,3,4,0.6,0.5
2025-08-31T0600,2332A,118.1681,26.6369,南平市,南平市监测站,,15,,10,10,8,20,,,,11,10,6,5,0.4,0.4
2025-08-31T0600,2333A,118.1825,26.6489,南平市,南平铝业有限公司,,20,20,15,3,6,19,,,,16,11,6,6,0.6,0.5
2025-08-31T0600,2334A,118.1756,26.6272,南平市,南平七中,,11,11,13,7,9,25,,,,7,8,4,4,0.5,0.5
2025-08-31T0600,1168A,120.9098,31.9663,南通市,狼山街道,,32,25,16,22,7,41,,,,21,20,4,4,0.6,0.4
2025-08-31T0600,1169A,120.86,32.0005,南通市,虹桥,,35,32,15,24,10,50,,,,23,19,4,4,0.8,0.6
2025-08-31T0600,1170A,120.87,32.02,南通市,城中,,36,36,21,17,7,41,,,,19,18,4,5,0.7,0.5
2025-08-31T0600,1171A,120.94,31.93,南通市,星湖花园,,25,25,14,17,7,47,,,,20,18,4,4,0.5,0.3
2025-08-31T0600,1172A,120.81,32.0417,南通市,紫琅学院,,30,30,18,21,7,45,,,,18,19,4,4,0.8,0.7
2025-08-31T0600,3291A,121.067,32.062,南通市,通州监测站,,22,22,11,12,5,44,,,,18,12,2,2,0.7,0.6
2025-08-31T0600,3432A,120.9348,31.9883,南通市,环境教育馆,,31,31,20,18,5,46,,,,18,17,4,4,0.4,0.2
2025-08-31T0600,2404A,112.5224,33.0122,南阳市,瓦房庄,,24,16,24,3,6,76,,,,2,5,8,7,0.5,0.5
2025-08-31T0600,2405A,112.5003,32.9735,南阳市,汉画馆,,21,14,19,3,6,67,,,,5,7,7,8,0.5,0.5
2025-08-31T0600,2406A,112.5573,33.027,南阳市,气象站,,24,8,14,3,6,74,,,,6,8,7,7,0.4,0.4
2025-08-31T0600,2407A,112.5481,32.9689,南阳市,理工学院,,24,16,20,3,5,76,,,,3,5,8,8,0.5,0.5
2025-08-31T0600,4008A,112.5234,32.9922,南阳市,卧龙区政府,,24,8,17,7,21,75,,,,5,8,6,6,0.6,0.6
2025-08-31T0600,1234A,121.8358,29.911,宁波市,区环保大楼,,17,17,13,7,4,21,,,,8,6,5,4,0.4,0.3
2025-08-31T0600,1235A,121.56,29.82,宁波市,万里学院,,12,12,13,6,7,20,,,,9,5,7,7,0.4,0.4
2025-08-31T0600,1236A,121.713,29.9572,宁波市,龙赛医院,,24,24,13,6,6,14,,,,13,7,5,4,0.3,0.3
2025-08-31T0600,1239A,121.633,29.7733,宁波市,钱湖水厂,,4,6,7,3,3,9,,,,7,5,5,6,0.4,0.4
2025-08-31T0600,1240A,121.5856,29.8635,宁波市,太古小学,,8,8,11,3,5,18,,,,7,4,3,3,0.4,0.4
2025-08-31T0600,1241A,121.524,29.8674,宁波市,市环境监测中心,,7,7,10,3,4,20,,,,10,7,8,8,0.5,0.5
2025-08-31T0600,2871A,121.6147,29.9017,宁波市,万里国际学校,,7,6,8,3,5,22,,,,5,2,5,4,0.5,0.5
2025-08-31T0600,3710A,121.5594,29.8975,宁波市,白沙活动中心,,9,9,9,3,4,19,,,,13,8,7,6,0.3,0.3
2025-08-31T0600,2341A,119.5388,26.6612,宁德市,宁德市监测站,,8,7,11,3,5,11,,,,5,3,4,3,0.5,0.4
2025-08-31T0600,3209A,119.5231,26.6562,宁德市,宁德一中,,7,7,12,3,6,15,,,,7,5,5,4,0.4,0.3
2025-08-31T0600,2618A,98.8601,25.8567,怒江傈僳族自治州,州监测站,,28,28,22,19,13,14,,,,6,6,5,5,0.4,0.4
2025-08-31T0600,2619A,98.8546,25.8417,怒江傈僳族自治州,泸水一中,,18,18,16,7,9,3,,,,6,8,4,4,0.4,0.5
2025-08-31T0600,1888A,101.6891,26.571,攀枝花市,弄弄坪,,29,29,37,10,14,15,,,,14,13,6,9,0.8,0.8
2025-08-31T0600,1889A,101.5769,26.5928,攀枝花市,河门口,,36,36,42,16,23,7,,,,13,14,6,13,0.7,1
2025-08-31T0600,1890A,101.7169,26.585,攀枝花市,炳草岗,,38,38,40,14,18,3,,,,24,20,5,8,0.8,0.8
2025-08-31T0600,1891A,101.7369,26.5008,攀枝花市,仁和,,20,20,24,10,15,8,,,,13,10,7,10,0.6,0.6
2025-08-31T0600,2835A,101.7227,26.567,攀枝花市,四十中小,,32,32,39,14,19,4,,,,23,18,9,13,1.1,1.1
2025-08-31T0600,1604A,122.0303,41.1489,盘锦市,开发区,,49,,25,34,33,30,,,,19,16,10,9,0.7,0.6
2025-08-31T0600,1605A,122.0485,41.0883,盘锦市,兴隆台,,46,46,33,19,19,24,,,,32,22,8,7,1.1,0.8
2025-08-31T0600,1606A,121.8297,41.1028,盘锦市,新生街道,,32,,21,22,14,10,,,,38,16,5,5,0.8,0.7
2025-08-31T0600,1832A,113.3257,33.742,平顶山市,新华旅馆,,35,24,29,24,16,70,,,,7,9,4,5,0.6,0.6
2025-08-31T0600,1833A,113.2919,33.737,平顶山市,规划设计院,,28,23,22,19,16,62,,,,8,11,4,5,0.7,0.7
2025-08-31T0600,1834A,113.182,33.774,平顶山市,平顶山工学院,,23,19,21,12,10,71,,,,9,10,5,6,0.6,0.5
2025-08-31T0600,3204A,113.3025,33.73,平顶山市,规划局,,22,22,22,13,13,66,,,,8,11,4,5,0.6,0.5
2025-08-31T0600,3594A,112.8867,33.9116,平顶山市,石龙区,,23,17,21,11,13,73,,,,8,15,3,4,0.5,0.6
2025-08-31T0600,2656A,106.6692,35.5461,平凉市,聚贤嘉苑,,32,32,32,14,15,12,,,,21,19,9,8,0.5,0.5
2025-08-31T0600,2657A,106.7021,35.5307,平凉市,博物馆,,43,43,38,14,13,15,,,,21,19,8,10,0.5,0.6
2025-08-31T0600,2347A,114.0997,27.5002,萍乡市,武功山,,15,11,8,10,5,6,,,,4,5,9,9,0.8,0.7
2025-08-31T0600,2348A,113.8385,27.6434,萍乡市,中医院,,24,24,31,14,15,1,,,,23,19,12,15,0.7,1
2025-08-31T0600,2349A,113.8493,27.6253,萍乡市,市政府车库,,30,24,23,21,20,3,,,,14,14,10,14,0.6,0.9
2025-08-31T0600,2350A,113.8676,27.6435,萍乡市,市环保局,,26,26,28,16,18,8,,,,14,14,6,10,0.8,1
2025-08-31T0600,2351A,113.866,27.6198,萍乡市,安源区政府,,25,24,26,17,20,7,,,,8,10,16,18,0.6,0.9
2025-08-31T0600,2319A,119.0141,25.4325,莆田市,荔城区仓后路,,11,11,18,3,5,16,,,,9,6,7,8,0.6,0.6
2025-08-31T0600,2320A,119.0015,25.4553,莆田市,莆田市监测站,,6,6,14,3,4,18,,,,6,7,5,6,0.4,0.5
2025-08-31T0600,2321A,119.1119,25.4561,莆田市,涵江区六中,,13,13,15,6,4,9,,,,17,8,5,5,0.4,0.4
2025-08-31T0600,2322A,119.1013,25.3215,莆田市,秀屿区政府,,20,18,16,14,4,5,,,,21,9,7,6,0.5,0.3
2025-08-31T0600,2392A,115.0312,35.7636,濮阳市,环保局,,35,,27,24,19,61,,,,8,10,2,6,0.6,0.7
2025-08-31T0600,2394A,115.0574,35.7609,濮阳市,油田运输公司,,33,32,35,23,20,60,,,,12,9,2,4,0.7,0.8
2025-08-31T0600,3021A,115,35.7668,濮阳市,濮水河管理处,,34,34,30,20,17,37,,,,11,11,2,3,0.3,0.4
2025-08-31T0600,4216A,115.0924,35.7686,濮阳市,任丘路479号,,45,45,41,28,21,64,,,,8,10,5,8,0.7,0.7
2025-08-31T0600,2601A,100.98,22.7633,普洱市,市环保局,,33,33,31,21,15,15,,,,6,8,6,6,0.6,0.6
2025-08-31T0600,2602A,100.9817,22.8322,普洱市,普洱第二中学,,39,39,30,8,12,5,,,,13,10,6,6,0.5,0.4
2025-08-31T0600,2262A,131.0518,45.8751,七台河市,新一中,,16,13,21,11,11,8,,,,13,15,10,10,1.1,0.7
2025-08-31T0600,3345A,131.0577,45.7879,七台河市,中波台,,11,,12,7,9,7,,,,21,21,7,14,1.0,1
2025-08-31T0600,3637A,131.0176,45.7761,七台河市,人民广场,,27,27,28,15,16,13,,,,20,18,11,11,0.7,0.7
2025-08-31T0600,3684A,130.8781,45.8222,七台河市,新建矿广场,,41,41,38,3,8,6,,,,23,16,15,11,0.9,0.3
2025-08-31T0600,1779A,123.9305,47.3636,齐齐哈尔市,安居小区,,29,29,21,3,5,14,,,,14,9,7,10,0.5,0.4
2025-08-31T0600,1780A,123.9488,47.3386,齐齐哈尔市,中心广场,,14,14,16,3,3,22,,,,12,10,6,6,0.4,0.4
2025-08-31T0600,1781A,123.9483,47.3227,齐齐哈尔市,农牧车辆厂,,24,24,21,3,5,20,,,,8,7,7,6,0.4,0.4
2025-08-31T0600,1783A,123.945,47.2988,齐齐哈尔市,市环境监测站,,15,15,13,6,4,13,,,,14,8,6,7,0.4,0.4
2025-08-31T0600,3662A,123.6333,47.2075,齐齐哈尔市,富区青少年活动中心,,12,12,15,3,6,5,,,,7,6,4,5,0.5,0.5
2025-08-31T0600,2591A,107.9783,26.5747,黔东南苗族侗族自治州,市环境监测站,,19,19,18,13,15,4,,,,10,9,2,2,0.2,0.3
2025-08-31T0600,2881A,107.8908,26.5311,黔东南苗族侗族自治州,凯里学院,,13,9,10,9,10,4,,,,8,9,3,3,0.4,0.4
2025-08-31T0600,2593A,107.5228,26.2403,黔南布依族苗族自治州,小围寨,,12,12,10,3,5,2,,,,10,7,3,3,0.3,0.3
2025-08-31T0600,3538A,107.5175,26.2978,黔南布依族苗族自治州,沙坝,,12,12,11,3,1,5,,,,5,5,3,3,0.2,0.3
2025-08-31T0600,2589A,104.9022,25.0925,黔西南布依族苗族自治州,场坝街,,29,29,19,18,11,10,,,,20,12,21,20,0.4,0.3
2025-08-31T0600,2590A,104.8811,25.0992,黔西南布依族苗族自治州,坪东大道,,32,32,24,15,14,4,,,,10,10,6,6,0.5,0.5
2025-08-31T0600,2502A,108.6236,21.9667,钦州市,市环保站,,17,17,21,7,9,19,,,,11,11,4,3,0.5,0.5
2025-08-31T0600,2503A,108.6549,21.9481,钦州市,沙埠小学,,28,28,24,11,12,13,,,,12,9,3,2,0.4,0.4
2025-08-31T0600,2504A,108.5989,21.7431,钦州市,港区一小,,27,27,28,8,12,18,,,,16,15,4,5,0.4,0.4
2025-08-31T0600,3404A,108.5959,21.9633,钦州市,北职校,,30,30,24,12,11,7,,,,12,9,2,2,0.7,0.5
2025-08-31T0600,1043A,119.7493,40.0116,秦皇岛市,第一关,,37,37,40,3,18,8,,,,66,18,5,6,0.2,0.4
2025-08-31T0600,1044A,119.5897,39.9499,秦皇岛市,监测站,,44,44,51,12,16,4,,,,60,22,6,8,0.5,0.9
2025-08-31T0600,1046A,119.5251,39.9041,秦皇岛市,建设大厦,,34,34,44,15,17,12,,,,34,14,6,9,0.5,0.8
2025-08-31T0600,3132A,119.610547,39.943889,秦皇岛市,文明里,,37,37,48,14,19,45,,,,34,16,8,8,0.4,0.6
2025-08-31T0600,4198A,119.5090,39.8253,秦皇岛市,北戴河轮滑馆,,49,49,54,18,22,46,,,,9,8,2,4,0.4,0.7
2025-08-31T0600,1307A,120.6659,36.2403,青岛市,仰口,,24,6,12,6,5,76,,,,7,4,9,9,0.6,0.6
2025-08-31T0600,1310A,120.4134,36.0658,青岛市,市南区东部子站,,25,7,14,3,10,78,,,,5,12,6,6,0.1,0.1
2025-08-31T0600,1311A,120.3664,36.1032,青岛市,四方区子站,,23,,20,9,12,72,,,,6,22,5,6,0.3,0.3
2025-08-31T0600,1312A,120.2994,36.054,青岛市,市南区西部子站,,19,19,20,7,11,52,,,,15,30,6,6,0.9,0.7
2025-08-31T0600,1313A,120.4581,36.0858,青岛市,崂山区子站,,24,,11,7,4,76,,,,6,11,7,8,0.2,0.2
2025-08-31T0600,1315A,120.3999,36.3083,青岛市,城阳区子站,,22,19,19,15,10,40,,,,17,20,4,3,0.6,0.4
2025-08-31T0600,1966A,120.0405,35.8735,青岛市,黄岛区4号,,24,,13,9,7,74,,,,9,20,5,5,0.7,0.6
2025-08-31T0600,3362A,120.5014,36.4034,青岛市,即墨2号,,20,20,18,11,7,52,,,,15,16,5,4,0.4,0.3
2025-08-31T0600,3642A,120.3503,36.0736,青岛市,市北区南部,,24,24,19,7,10,65,,,,17,25,6,7,0.8,0.8
2025-08-31T0600,3643A,120.3948,36.1805,青岛市,李沧区北部,,28,,16,19,12,39,,,,22,24,5,5,0.5,0.4
2025-08-31T0600,4290A,120.1969,35.9546,青岛市,珠江路669号,,19,,18,12,13,58,,,,20,35,5,6,0.7,0.6
2025-08-31T0600,1702A,113.0426,23.691,清远市,环保大楼,,32,32,27,16,15,10,,,,25,17,8,8,0.7,0.7
2025-08-31T0600,1703A,113.0208,23.7106,清远市,凤城街办,,28,28,25,11,12,11,,,,27,19,8,8,0.5,0.5
2025-08-31T0600,3025A,113.0477,23.6344,清远市,技师学院,,30,30,32,12,15,0,,,,34,25,9,10,0.7,0.6
2025-08-31T0600,3318A,112.9903,23.7403,清远市,清新太和,,28,28,24,19,13,12,,,,26,16,9,9,0.5,0.5
2025-08-31T0600,3455A,113.076,23.7198,清远市,清城东城,,28,28,26,10,13,13,,,,18,14,7,7,0.6,0.6
2025-08-31T0600,2661A,107.6325,35.7357,庆阳市,庆阳五中,,21,21,24,12,9,42,,,,6,9,7,7,0.3,0.3
2025-08-31T0600,2662A,107.6364,35.7067,庆阳市,市环保局,,17,17,21,6,10,47,,,,4,6,3,3,0.4,0.4
2025-08-31T0600,1916A,103.7897,25.5035,曲靖市,环境监测站,,32,32,21,13,7,21,,,,17,10,16,5,1.7,0.4
2025-08-31T0600,1917A,103.8,25.5364,曲靖市,烟厂办公区,,31,31,19,11,17,16,,,,16,9,14,5,1.5,0.7
2025-08-31T0600,3376A,103.7947,25.462,曲靖市,南苑二区,,21,21,15,12,7,12,,,,18,9,3,4,0.6,0.4
2025-08-31T0600,3377A,103.7444,25.5261,曲靖市,曲靖师范学院,,35,31,19,24,11,3,,,,46,12,25,9,0.9,0.3
2025-08-31T0600,1264A,118.8692,28.9398,衢州市,环保大楼,,26,26,26,11,12,32,,,,14,10,4,4,0.3,0.3
2025-08-31T0600,1265A,118.8709,28.9666,衢州市,实验学校,,23,23,22,12,11,24,,,,21,10,4,5,0.4,0.4
2025-08-31T0600,1266A,118.8621,28.9808,衢州市,衢州学院,,22,22,21,11,12,29,,,,21,12,4,4,0.3,0.3
2025-08-31T0600,1611A,118.5819,24.9117,泉州市,涂山街,,32,32,20,19,10,17,,,,19,9,3,3,0.5,0.4
2025-08-31T0600,1612A,118.5972,24.8978,泉州市,津头埔,,20,17,20,14,10,20,,,,9,8,4,4,0.5,0.4
2025-08-31T0600,1613A,118.6663,24.9424,泉州市,万安,,19,19,19,11,8,10,,,,13,7,4,3,0.4,0.4
2025-08-31T0600,3529A,118.6333,24.9264,泉州市,城华南路,,18,18,17,11,8,17,,,,8,8,4,4,0.3,0.3
2025-08-31T0600,2626A,88.8876,29.2718,日喀则市,日喀则监测站,,21,10,11,3,3,65,,,,5,10,10,9,0.2,0.2
2025-08-31T0600,3726A,88.8781,29.2426,日喀则市,林业技术推广中心,,17,9,10,3,0,53,,,,6,5,6,5,0.3,0.3
2025-08-31T0600,1659A,119.471,35.4209,日照市,监测站,,23,,12,16,11,40,,,,17,27,6,6,0.9,0.7
2025-08-31T0600,1660A,119.523,35.4216,日照市,市政府广场,,16,12,12,10,7,51,,,,14,20,6,5,1.0,0.9
2025-08-31T0600,1661A,119.5587,35.4044,日照市,港务局,,30,,14,21,17,44,,,,19,23,7,4,1.0,0.9
2025-08-31T0600,3507A,119.5328,35.4625,日照市,职业技术学院,,24,24,16,12,8,51,,,,11,18,6,4,1.0,0.8
2025-08-31T0600,3604A,119.3266,35.1044,日照市,岚山环保分局,,14,6,18,3,5,43,,,,13,23,7,8,0.7,0.8
2025-08-31T0600,1835A,111.1922,34.7752,三门峡市,市政府,,31,31,28,18,15,44,,,,10,17,6,8,0.3,0.4
2025-08-31T0600,1836A,111.1587,34.7942,三门峡市,开发区,,28,28,30,16,19,26,,,,8,11,3,5,0.2,0.2
2025-08-31T0600,3039A,111.1911,34.7829,三门峡市,三门峡市第一小学,,29,27,29,20,22,41,,,,7,13,4,6,0.4,0.5
2025-08-31T0600,3598A,111.1,34.7167,三门峡市,富达温泉假日酒店,细颗粒物(PM2.5),57,,27,40,23,44,,,,16,16,4,6,0.3,0.3
2025-08-31T0600,2324A,117.6211,26.2625,三明市,三钢,,19,19,15,8,9,3,,,,18,11,3,3,1.2,0.4
2025-08-31T0600,2325A,117.635,26.2714,三明市,三明二中,,16,12,18,11,8,5,,,,16,9,2,3,0.5,0.4
2025-08-31T0600,2326A,117.6028,26.2378,三明市,三元区政府,,32,32,19,20,12,2,,,,15,12,1,2,0.4,0.4
2025-08-31T0600,1876A,109.5078,18.2489,三亚市,河东子站,,13,12,14,6,5,40,,,,2,2,3,3,0.5,0.5
2025-08-31T0600,1877A,109.4964,18.2681,三亚市,河西子站,,12,9,15,3,2,38,,,,2,3,3,2,0.3,0.3
2025-08-31T0600,3540A,109.7348,18.3443,三亚市,君悦子站,颗粒物(PM10),59,67,53,3,5,42,,,,3,3,2,2,0.4,0.4
2025-08-31T0600,2624A,91.7608,29.2313,山南市,山南监测站,,19,6,5,3,3,59,,,,23,6,4,2,0.4,0.3
2025-08-31T0600,2625A,91.7706,29.2436,山南市,山南人民医院,,20,6,7,3,5,63,,,,18,5,4,3,0.3,0.2
2025-08-31T0600,1674A,116.6794,23.3667,汕头市,金平子站,,21,21,17,10,6,7,,,,33,11,14,4,1.9,0.7
2025-08-31T0600,1675A,116.7244,23.3633,汕头市,龙湖子站,,18,18,16,3,6,14,,,,22,7,12,7,1.2,0.5
2025-08-31T0600,1676A,116.7258,23.2775,汕头市,濠江子站,,22,22,18,8,6,14,,,,16,7,7,6,1.0,0.6
2025-08-31T0600,1677A,116.7519,23.4714,汕头市,澄海子站,,22,20,21,15,8,26,,,,16,9,7,5,0.7,0.6
2025-08-31T0600,1678A,116.6092,23.2539,汕头市,潮阳子站,,13,11,19,9,6,14,,,,10,8,5,7,0.6,0.8
2025-08-31T0600,3444A,116.454,23.2684,汕头市,潮南峡山,,17,17,13,11,7,15,,,,15,8,7,6,0.2,0.4
2025-08-31T0600,3624A,116.4069,23.2533,汕头市,潮南子站,,22,22,20,12,8,10,,,,13,6,5,5,0.5,0.5
2025-08-31T0600,1693A,115.3653,22.775,汕尾市,市环保局,,18,18,15,8,7,28,,,,9,8,3,3,0.5,0.4
2025-08-31T0600,1694A,115.3706,22.7898,汕尾市,市政府,,14,14,15,8,7,28,,,,9,8,4,4,0.2,0.2
2025-08-31T0600,1695A,115.3622,22.7925,汕尾市,新城中学,,16,16,18,6,5,27,,,,9,8,5,5,0.4,0.4
2025-08-31T0600,2645A,109.9154,33.8715,商洛市,监测站,,13,13,15,6,6,9,,,,17,15,2,3,0.4,0.5
2025-08-31T0600,3045A,109.9643,33.8471,商洛市,商州区中学,,21,21,17,3,7,8,,,,19,20,4,4,0.3,0.4
2025-08-31T0600,2408A,115.6702,34.4285,商丘市,环境监测站,,35,35,46,7,32,71,,,,7,10,3,4,0.5,0.6
2025-08-31T0600,2409A,115.6458,34.4045,商丘市,粮食局,,23,23,43,14,19,73,,,,6,9,5,5,0.6,0.7
2025-08-31T0600,2410A,115.6293,34.3948,商丘市,睢阳区环保局,,25,,44,17,23,73,,,,5,8,4,5,0.4,0.5
2025-08-31T0600,3171A,115.6071,34.4465,商丘市,梁园区档案局,,21,21,44,14,23,65,,,,9,12,4,4,0.6,0.7
2025-08-31T0600,1141A,121.4,31.238,上海市,普陀,,12,12,17,3,5,19,,,,14,12,5,5,0.3,0.3
2025-08-31T0600,1142A,121.478,31.2036,上海市,十五厂,,10,10,18,3,7,15,,,,14,9,9,8,0.6,0.6
2025-08-31T0600,1143A,121.467,31.3008,上海市,虹口,,8,8,16,3,6,20,,,,10,7,6,6,0.4,0.4
2025-08-31T0600,1147A,121.425,31.2261,上海市,静安监测站,,10,10,16,3,7,26,,,,12,11,4,4,0.6,0.6
2025-08-31T0600,1148A,121.703,31.1907,上海市,浦东川沙,,19,19,18,3,6,10,,,,21,11,6,6,0.6,0.6
2025-08-31T0600,1149A,121.533,31.2284,上海市,浦东新区监测站,,13,12,13,9,8,18,,,,11,6,4,5,0.3,0.4
2025-08-31T0600,1150A,121.577,31.2071,上海市,浦东张江,,18,18,17,3,5,22,,,,14,8,6,6,0.6,0.6
2025-08-31T0600,3265A,121.4316,31.3322,上海市,宝山庙行,,8,8,15,3,7,21,,,,11,8,7,7,0.3,0.4
2025-08-31T0600,3266A,121.8791,31.4662,上海市,崇明上实东滩,,10,10,10,3,5,18,,,,17,10,5,5,0.3,0.3
2025-08-31T0600,3268A,121.3162,31.2838,上海市,嘉定南翔,,,11,15,6,7,11,,,,22,16,,4,0.2,0.2
2025-08-31T0600,3269A,121.3359,30.7456,上海市,金山新城,,10,10,11,3,6,27,,,,8,7,4,4,0.6,0.6
2025-08-31T0600,3270A,121.4996,31.0739,上海市,闵行浦江,,13,13,16,3,5,12,,,,14,8,4,4,0.7,0.7
2025-08-31T0600,3271A,121.2886,31.1663,上海市,青浦徐泾,,12,12,16,3,5,17,,,,12,8,7,7,0.5,0.4
2025-08-31T0600,3272A,121.2186,31.0378,上海市,松江图书馆,,12,10,12,6,7,11,,,,24,13,8,8,0.6,0.5
2025-08-31T0600,3273A,121.3902,31.2059,上海市,长宁仙霞,,16,16,17,6,6,17,,,,13,11,8,8,0.6,0.5
2025-08-31T0600,3274A,121.7965,31.0507,上海市,浦东惠南,,20,20,26,3,4,14,,,,14,9,10,10,0.3,0.4
2025-08-31T0600,3544A,121.4891,30.925,上海市,奉贤南桥新城,,13,13,13,6,7,15,,,,14,5,4,4,0.2,0.2
2025-08-31T0600,4183A,121.4174,31.16637,上海市,冠生园路458号,,12,12,14,8,6,17,,,,18,14,4,4,0.5,0.5
2025-08-31T0600,2382A,117.9756,28.4436,上饶市,市监测站,,23,23,23,3,8,42,,,,16,12,17,6,0.6,0.6
2025-08-31T0600,2383A,117.9519,28.4628,上饶市,凤凰光学,,27,27,24,8,11,35,,,,14,10,27,10,0.1,0.1
2025-08-31T0600,3685A,117.897,28.4315,上饶市,双创科技城,,15,15,20,10,12,45,,,,12,10,14,9,0.3,0.4
2025-08-31T0600,4211A,118.1904,28.4448,上饶市,裕丰大道,,17,17,22,11,9,18,,,,19,10,8,5,0.5,0.4
2025-08-31T0600,1669A,113.5824,24.7733,韶关市,市八中,,19,19,28,10,15,9,,,,18,13,13,12,0.6,0.6
2025-08-31T0600,1671A,113.5917,24.7972,韶关市,园林处,,31,31,24,18,16,9,,,,18,10,19,10,0.5,0.4
2025-08-31T0600,1673A,113.5971,24.6863,韶关市,曲江监测站,,35,35,36,18,21,7,,,,22,21,12,20,0.8,0.9
2025-08-31T0600,2809A,113.6668,24.7756,韶关市,大学路288号,,31,31,28,17,15,3,,,,19,11,6,8,0.6,0.6
2025-08-31T0600,3622A,113.5556,24.8082,韶关市,碧湖山庄,,33,33,31,15,17,7,,,,9,10,9,10,0.6,0.6
2025-08-31T0600,2464A,111.5283,27.2442,邵阳市,市化工厂,,22,22,27,14,18,16,,,,14,13,13,12,0.8,0.8
2025-08-31T0600,2466A,111.4328,27.2272,邵阳市,市环保局,,26,23,27,18,16,14,,,,16,9,7,8,0.7,0.7
2025-08-31T0600,4218A,111.4460,27.2472,邵阳市,北塔二期4-26地块,,20,20,29,13,17,15,,,,13,10,7,8,0.5,0.5
2025-08-31T0600,4219A,111.4739,27.2282,邵阳市,邵水西路287号,,17,17,36,7,18,29,,,,13,11,8,10,0.5,0.5
2025-08-31T0600,1247A,120.6053,29.9928,绍兴市,城东开发委,,32,32,20,10,9,39,,,,20,10,8,6,0.4,0.2
2025-08-31T0600,2921A,120.5483,30.0003,绍兴市,树下王站,,29,29,21,11,10,42,,,,19,9,7,6,0.4,0.3
2025-08-31T0600,3408A,120.5683,29.9361,绍兴市,绍兴中专,,32,32,16,10,11,16,,,,27,12,6,6,0.4,0.3
2025-08-31T0600,3409A,120.4906,30.0861,绍兴市,柯桥区政府,,31,31,24,20,11,49,,,,17,11,10,8,0.4,0.3
2025-08-31T0600,3410A,120.8752,30.0249,绍兴市,重华小学,,22,22,13,8,7,23,,,,13,7,8,8,0.4,0.4
2025-08-31T0600,3411A,120.8369,30.0137,绍兴市,上虞中学,,30,30,16,17,8,18,,,,23,11,5,5,0.4,0.4
2025-08-31T0600,3560A,120.4722,30.0415,绍兴市,柯桥妇保,,35,35,24,20,12,47,,,,15,10,5,4,0.5,0.4
2025-08-31T0600,3658A,120.6153,30.0764,绍兴市,袍江中学,,35,35,23,17,10,44,,,,18,10,8,8,0.7,0.5
2025-08-31T0600,1356A,114.1063,22.5545,深圳市,通心岭子站,,9,8,15,3,5,26,,,,9,7,6,6,0.4,0.4
2025-08-31T0600,1357A,114.117,22.5625,深圳市,洪湖,,9,8,14,3,4,26,,,,6,4,6,6,0.4,0.4
2025-08-31T0600,1358A,113.987,22.5417,深圳市,华侨城,,10,10,15,3,5,28,,,,5,6,6,6,0.2,0.2
2025-08-31T0600,1359A,113.9181,22.5171,深圳市,南海子站,,10,9,15,3,5,29,,,,4,4,5,5,0.6,0.6
2025-08-31T0600,1360A,114.2458,22.5689,深圳市,盐田,,14,14,20,3,5,6,,,,26,15,8,8,0.4,0.4
2025-08-31T0600,1361A,114.2283,22.7244,深圳市,龙岗,,9,8,15,3,4,27,,,,6,4,6,6,0.8,0.8
2025-08-31T0600,1363A,114.494,22.5422,深圳市,南澳,,6,6,10,3,3,13,,,,5,3,5,6,0.6,0.6
2025-08-31T0600,1364A,114.41,22.6342,深圳市,葵涌,,8,8,13,3,4,14,,,,8,5,8,8,0.5,0.5
2025-08-31T0600,1365A,114.297,22.5978,深圳市,梅沙,,11,11,19,3,5,22,,,,3,3,7,8,0.4,0.3
2025-08-31T0600,1366A,114.0678,22.738,深圳市,观澜,,20,20,23,3,5,18,,,,16,11,9,8,0.7,0.6
2025-08-31T0600,3305A,114.0731,22.559,深圳市,莲花,,12,12,17,3,7,23,,,,11,7,7,7,0.5,0.5
2025-08-31T0600,3306A,114.0261,22.6198,深圳市,民治,,10,6,13,3,5,30,,,,7,8,7,7,0.4,0.4
2025-08-31T0600,3307A,114.1871,22.6451,深圳市,横岗,,10,10,16,3,7,29,,,,5,5,7,6,0.6,0.7
2025-08-31T0600,3447A,114.3551,22.7151,深圳市,坪山,,13,13,15,3,6,17,,,,18,11,9,8,0.5,0.5
2025-08-31T0600,3623A,113.8953,22.5861,深圳市,西乡,,9,8,13,3,3,26,,,,12,13,5,5,0.6,0.7
2025-08-31T0600,1099A,123.505,41.7406,沈阳市,浑南东路,,26,26,38,16,23,5,,,,26,28,4,6,0.8,1.2
2025-08-31T0600,1100A,123.4231,41.6989,沈阳市,新秀街,,24,24,37,14,21,1,,,,34,31,3,7,0.9,1.2
2025-08-31T0600,1102A,123.5903,41.8411,沈阳市,东陵路,,42,42,41,17,22,1,,,,21,22,5,7,1.2,1.4
2025-08-31T0600,1103A,123.4264,41.8467,沈阳市,陵东街,,28,28,35,16,22,1,,,,18,14,3,4,1.0,1.2
2025-08-31T0600,1104A,123.4114,41.7653,沈阳市,文化路,,26,26,58,9,25,18,,,,20,20,6,9,1.0,1.3
2025-08-31T0600,1105A,123.4678,41.7867,沈阳市,小河沿,,27,27,34,16,22,4,,,,15,18,6,7,0.9,1.2
2025-08-31T0600,1106A,123.4017,41.7972,沈阳市,太原街,,30,30,44,17,28,26,,,,17,23,4,7,0.9,1.2
2025-08-31T0600,1108A,123.3783,41.9228,沈阳市,京沈街,,35,34,41,24,25,7,,,,31,27,10,10,1.6,1.3
2025-08-31T0600,2897A,123.2444,41.7347,沈阳市,沈辽西路,,38,38,44,19,22,5,,,,34,23,12,15,1.0,1.2
2025-08-31T0600,2900A,123.5953,41.9086,沈阳市,裕农路,,31,31,38,7,11,8,,,,11,16,2,4,0.9,1.3
2025-08-31T0600,2428A,111.0419,32.395,十堰市,武当山,,13,,10,6,4,39,,,,2,3,8,8,0.7,0.7
2025-08-31T0600,2429A,110.78,32.6494,十堰市,滨河新村,,25,22,27,17,8,28,,,,13,11,7,8,0.4,0.5
2025-08-31T0600,2430A,110.7258,32.6389,十堰市,刘家沟,,25,25,25,3,8,35,,,,4,5,8,8,0.5,0.5
2025-08-31T0600,2431A,110.8839,32.5714,十堰市,铁二处,,18,18,18,6,10,28,,,,4,8,8,8,0.4,0.5
2025-08-31T0600,3545A,110.8054,32.8401,十堰市,郧阳区金沙路,,20,15,22,14,8,42,,,,5,4,7,6,0.5,0.5
2025-08-31T0600,2709A,86.0497,44.2967,石河子市,艾青诗歌馆,颗粒物(PM10),51,51,53,20,28,59,,,,20,30,10,13,0.5,0.6
2025-08-31T0600,3442A,86.047,44.2331,石河子市,南区管委会,,41,41,58,11,18,82,,,,17,20,11,12,0.5,0.5
2025-08-31T0600,4051A,86.0791,44.3017,石河子市,世纪广场,颗粒物(PM10),62,73,61,20,19,60,,,,22,31,6,9,0.5,0.6
2025-08-31T0600,1029A,114.4422,38.0444,石家庄市,职工医院,,18,18,25,3,11,44,,,,13,11,3,2,0.3,0.3
2025-08-31T0600,1030A,114.6063,38.0266,石家庄市,高新区,,46,46,32,17,20,22,,,,28,16,3,2,0.4,0.5
2025-08-31T0600,1031A,114.4898,38.1328,石家庄市,西北水源,,38,38,34,9,11,4,,,,45,18,3,4,0.3,0.3
2025-08-31T0600,1032A,114.4586,38.0058,石家庄市,西南高教,,34,34,30,7,12,58,,,,10,16,2,2,0.3,0.3
2025-08-31T0600,1033A,114.5331,38.0178,石家庄市,世纪公园,,30,30,29,21,20,38,,,,17,12,3,4,0.4,0.4
2025-08-31T0600,1034A,114.509,38.0457,石家庄市,人民会堂,,29,29,33,7,12,40,,,,17,12,2,3,0.4,0.3
2025-08-31T0600,1035A,114.3524,37.8911,石家庄市,封龙山,,34,28,30,15,15,108,,,,6,6,7,5,0.5,0.5
2025-08-31T0600,2862A,114.5481,38.0378,石家庄市,22中南校区,,38,36,41,26,19,46,,,,16,11,1,2,0.4,0.3
2025-08-31T0600,3456A,114.289,38.0906,石家庄市,鹿泉一中,,26,26,31,13,16,31,,,,10,8,1,2,0.3,0.3
2025-08-31T0600,3573A,114.8506765,38.0322033,石家庄市,藁城区实验学校,,44,44,36,18,13,21,,,,42,14,4,4,0.3,0.3
2025-08-31T0600,4024A,114.6549,37.9020,石家庄市,栾城区星河路,颗粒物(PM10),56,61,42,17,20,14,,,,30,16,2,5,0.2,0.2
2025-08-31T0600,4314A,114.0494,38.059,石家庄市,矿区区委大楼,,39,39,23,11,5,1,,,,26,10,3,5,0.3,0.3
2025-08-31T0600,1948A,106.3668,39.0145,石嘴山市,大武口朝阳西街,,29,29,36,14,13,70,,,,16,17,41,27,0.7,0.7
2025-08-31T0600,1949A,106.7704,39.2282,石嘴山市,惠农南大街,,33,33,32,12,11,54,,,,20,17,9,13,0.7,0.6
2025-08-31T0600,1950A,106.7099,39.1325,石嘴山市,红果子镇惠新街,,41,41,30,22,13,50,,,,24,18,15,11,1.1,0.6
2025-08-31T0600,3520A,106.3495,38.9836,石嘴山市,妇女儿童医院,,38,38,30,19,11,60,,,,19,14,27,14,0.7,0.5
2025-08-31T0600,3521A,106.7492,39.2069,石嘴山市,石大公路,,39,39,36,19,15,47,,,,27,21,6,10,0.8,0.7
2025-08-31T0600,2248A,131.1511,46.6937,双鸭山市,双合村,,20,20,20,9,12,38,,,,10,8,18,13,0.5,0.5
2025-08-31T0600,2249A,131.1652,46.6191,双鸭山市,南小市,,27,27,18,10,8,41,,,,9,8,4,4,0.5,0.4
2025-08-31T0600,2250A,131.1524,46.6554,双鸭山市,环保局,,18,18,22,9,11,44,,,,7,11,7,13,0.5,0.5
2025-08-31T0600,2251A,131.12,46.5656,双鸭山市,苗圃,,20,,7,14,11,23,,,,8,6,3,3,0.3,0.3
2025-08-31T0600,2166A,112.4397,39.3522,朔州市,平朔,,50,50,46,18,17,18,,,,22,18,8,9,0.4,0.3
2025-08-31T0600,2167A,112.4575,39.3617,朔州市,朔唯,颗粒物(PM10),59,67,56,25,19,14,,,,64,23,21,6,0.6,0.4
2025-08-31T0600,2168A,112.4258,39.3197,朔州市,区政府,,47,47,38,23,14,28,,,,17,12,7,5,0.2,0.1
2025-08-31T0600,2169A,112.4072,39.3278,朔州市,市环保局,颗粒物(PM10),51,52,40,21,18,46,,,,14,12,3,4,0.2,0.3
2025-08-31T0600,2170A,112.4272,39.3681,朔州市,市二中,颗粒物(PM10),54,58,50,15,19,10,,,,30,21,4,6,0.2,0.3
2025-08-31T0600,3571A,112.2931,39.53,朔州市,一水厂,,44,44,65,13,19,46,,,,24,21,16,9,0.5,0.5
2025-08-31T0600,2225A,124.4002,43.1713,四平市,一商场,,38,30,45,26,33,52,,,,16,15,10,7,1.0,0.9
2025-08-31T0600,2226A,124.388,43.193,四平市,境园,,40,40,46,21,26,24,,,,28,16,4,4,0.5,0.5
2025-08-31T0600,3486A,124.4036,43.1411,四平市,植物园,,40,40,35,22,29,26,,,,15,18,8,9,0.8,0.7
2025-08-31T0600,3713A,124.3419,43.1666,四平市,世纪城,,34,34,46,18,30,38,,,,15,14,2,2,0.7,0.7
2025-08-31T0600,2234A,124.7965,45.1722,松原市,江北,,43,33,24,30,18,78,,,,6,6,6,6,0.6,0.4
2025-08-31T0600,1162A,120.591,31.3019,苏州市,彩香,,21,21,24,13,12,35,,,,16,13,6,6,0.2,0.1
2025-08-31T0600,1163A,120.596,31.3264,苏州市,轧钢厂,,39,39,27,15,10,32,,,,22,14,4,4,0.6,0.4
2025-08-31T0600,1164A,120.613,31.2703,苏州市,吴中区,,13,12,20,9,11,13,,,,14,16,6,6,0.4,0.4
2025-08-31T0600,1165A,120.543,31.2994,苏州市,苏州新区,,45,45,25,31,15,40,,,,27,14,7,6,0.6,0.3
2025-08-31T0600,1166A,120.669,31.3097,苏州市,苏州工业园区,,13,13,19,8,8,14,,,,15,11,7,7,0.5,0.5
2025-08-31T0600,1167A,120.641,31.3708,苏州市,相城区,,40,40,19,28,9,35,,,,28,15,4,3,0.6,0.5
2025-08-31T0600,3289A,120.743,31.3188,苏州市,方洲路,,9,9,17,6,14,21,,,,16,14,7,7,0.5,0.4
2025-08-31T0600,3290A,120.5031,31.2774,苏州市,木渎中学,,34,34,22,20,11,43,,,,26,16,5,4,0.5,0.1
2025-08-31T0600,3425A,120.624,31.1733,苏州市,越秀幼儿园,,17,17,25,7,10,18,,,,18,14,5,5,0.5,0.5
2025-08-31T0600,3431A,120.6505,31.416,苏州市,高铁新城,颗粒物(PM10),51,51,25,26,11,25,,,,44,21,6,4,0.6,0.3
2025-08-31T0600,1220A,118.293,33.9528,宿迁市,宿迁学院,,17,8,18,6,16,52,,,,4,11,3,3,0.2,0.3
2025-08-31T0600,1221A,118.2442,33.9592,宿迁市,宿迁中学,,17,8,17,3,13,54,,,,4,7,4,4,0.3,0.4
2025-08-31T0600,2996A,118.283,33.965,宿迁市,市供电局,,17,9,18,8,15,54,,,,7,11,6,7,0.4,0.5
2025-08-31T0600,3191A,118.3225,33.9447,宿迁市,宿豫区政府,,17,12,18,6,16,53,,,,7,11,7,7,0.3,0.4
2025-08-31T0600,3187A,116.9509,33.666,宿州市,远航博物馆,,28,28,36,18,19,51,,,,9,7,1,2,0.3,0.5
2025-08-31T0600,3463A,116.9708,33.591,宿州市,社会福利中心,,,15,33,,20,27,,,,16,11,3,4,0.2,0.4
2025-08-31T0600,3634A,116.9884,33.6305,宿州市,宿州学院,,19,13,26,12,18,59,,,,6,8,4,5,0.3,0.4
2025-08-31T0600,3701A,116.9648,33.6252,宿州市,皖北煤电集团,,28,22,33,19,24,56,,,,7,9,4,5,0.3,0.4
2025-08-31T0600,2266A,126.9785,46.6365,绥化市,人和东街,,,40,28,,14,28,,,,16,10,6,6,0.5,0.4
2025-08-31T0600,2267A,126.964,46.6528,绥化市,党政办公中心,,39,39,23,20,11,38,,,,13,8,6,6,0.5,0.4
2025-08-31T0600,2451A,113.3583,31.7275,随州市,市委党校,,23,23,31,12,20,62,,,,7,9,8,8,0.7,0.8
2025-08-31T0600,2452A,113.3833,31.6908,随州市,市林业局,,20,20,30,10,18,44,,,,7,9,4,5,0.6,0.7
