timepoint,stationcode,longitude,latitude,area,positionname,primarypollutant,aqi,pm10,pm10_24h,pm2_5,pm2_5_24h,o3,o3_24h,o3_8h,o3_8h_24h,no2,no2_24h,so2,so2_24h,co,co_24h
2025-08-31T0700,2566A,102.1879,31.914,阿坝藏族羌族自治州,州农科所,,8,8,14,3,7,16,,,,4,6,3,2,0.0,0
2025-08-31T0700,2568A,102.2502,31.8896,阿坝藏族羌族自治州,马师校,,16,,13,11,15,0,,,,3,7,8,8,0.5,0.5
2025-08-31T0700,3994A,102.2165,31.9024,阿坝藏族羌族自治州,马尔康中学西区,,22,,19,15,13,0,,,,3,5,8,8,0.6,0.6
2025-08-31T0700,2695A,80.292,41.1694,阿克苏地区,电视台,颗粒物(PM10),67,84,94,39,37,90,,,,3,9,5,5,0.5,0.5
2025-08-31T0700,2696A,80.2613,41.1551,阿克苏地区,艺术中心,颗粒物(PM10),71,91,94,37,38,59,,,,2,16,4,4,0.4,0.5
2025-08-31T0700,2204A,105.6467,38.8363,阿拉善盟,西城区西花园,,40,24,34,9,11,128,,,,7,13,10,9,0.6,0.6
2025-08-31T0700,2205A,105.6985,38.8411,阿拉善盟,蒙二幼,,37,24,29,9,8,118,,,,5,5,10,10,0.5,0.5
2025-08-31T0700,2206A,105.724,38.8516,阿拉善盟,环保局新楼,,40,20,24,8,9,126,,,,4,5,11,10,0.3,0.4
2025-08-31T0700,2708A,88.1264,47.8517,阿勒泰地区,市站,颗粒物(PM10),53,56,40,7,8,81,,,,3,16,2,3,0.4,0.3
2025-08-31T0700,2630A,80.1161,32.5,阿里地区,阿里监测站,,35,,5,3,1,111,,,,4,4,5,5,0.2,0.2
2025-08-31T0700,3192A,80.0903,32.5028,阿里地区,阿里藏医院,,39,6,8,3,1,123,,,,1,3,6,6,0.2,0.2
2025-08-31T0700,2642A,109.0318,32.6537,安康市,香溪洞,,12,8,7,3,3,37,,,,3,5,7,7,0.4,0.4
2025-08-31T0700,2644A,109.0072,32.6975,安康市,汉滨区检察院,,13,13,10,6,6,25,,,,6,8,6,6,0.5,0.5
2025-08-31T0700,4054A,109.0325,32.6913,安康市,市邮政管理局,,13,13,9,3,4,23,,,,7,8,6,6,0.6,0.6
2025-08-31T0700,2291A,117.0809,30.5177,安庆市,环科院,,18,,21,12,13,19,,,,18,10,5,7,0.7,0.7
2025-08-31T0700,2292A,117.0331,30.5119,安庆市,马山宾馆,,23,,18,16,12,24,,,,13,12,5,5,0.7,0.5
2025-08-31T0700,2294A,116.9896,30.6145,安庆市,安庆大学,,21,21,18,12,10,18,,,,14,10,4,4,0.7,0.5
2025-08-31T0700,3173A,117.0598,30.5351,安庆市,市人大,,20,16,19,14,13,22,,,,19,11,7,7,0.7,0.6
2025-08-31T0700,3122A,105.9606,26.2611,安顺市,伍家关,,23,23,21,14,13,8,,,,15,13,10,10,0.7,0.6
2025-08-31T0700,3123A,105.9408,26.2431,安顺市,凤凰山,,42,39,29,29,26,2,,,,24,16,16,12,0.6,0.6
2025-08-31T0700,3124A,105.9439,26.2564,安顺市,金钟山,,35,25,21,24,18,20,,,,12,6,16,12,0.5,0.5
2025-08-31T0700,3125A,105.8983,26.2481,安顺市,娄家坡,,42,,20,29,19,10,,,,19,10,17,15,0.6,0.5
2025-08-31T0700,1818A,114.4839,36.0621,安阳市,棉研所,,,,,,,,,,,,,,,,
2025-08-31T0700,1819A,114.3551,36.1017,安阳市,红庙街,,31,31,32,11,13,58,,,,21,15,21,8,0.7,0.6
2025-08-31T0700,1820A,114.361,36.0681,安阳市,银杏小区,,35,29,33,24,19,64,,,,14,15,8,8,0.4,0.5
2025-08-31T0700,3141A,114.3922,36.0878,安阳市,信访局,,25,22,28,14,15,80,,,,7,12,8,8,0.7,0.7
2025-08-31T0700,3669A,114.4705,36.0637,安阳市,左辅环卫站,,35,31,33,24,20,54,,,,22,17,7,7,0.7,0.7
2025-08-31T0700,3703A,114.2917,36.0949,安阳市,安钢职工学校,,35,28,37,24,20,63,,,,12,13,4,7,0.7,0.7
2025-08-31T0700,1748A,123.044,41.1196,鞍山市,深沟寺,,20,20,29,6,16,15,,,,19,10,6,6,0.7,1
2025-08-31T0700,1749A,123.011,41.0931,鞍山市,太阳城,,17,17,23,8,15,29,,,,6,9,5,6,0.6,0.9
2025-08-31T0700,1750A,123.0485,41.1442,鞍山市,太平,,18,17,32,8,18,12,,,,36,18,5,6,1.0,1.2
2025-08-31T0700,1751A,122.9642,41.0971,鞍山市,铁西三道街,,22,22,36,10,21,12,,,,36,21,5,7,0.9,1.2
2025-08-31T0700,1753A,123.022,41.0821,鞍山市,明达新区,,15,13,26,3,15,47,,,,5,9,7,8,0.7,1.1
2025-08-31T0700,1754A,123.1289,41.0228,鞍山市,千山,,,,37,,16,,,33,,,3,,4,,0.6
2025-08-31T0700,4201A,122.9446,41.0826,鞍山市,兴盛南路290号,,29,29,34,10,17,11,,,,33,26,7,8,0.8,1.1
2025-08-31T0700,2195A,107.4212,40.761,巴彦淖尔市,附二中,,19,19,30,13,16,54,,,,21,18,8,12,0.5,0.7
2025-08-31T0700,2196A,107.37,40.7372,巴彦淖尔市,市环保大楼,,35,35,38,16,19,37,,,,20,15,8,11,0.5,0.7
2025-08-31T0700,1956A,86.1472,41.7538,巴音郭楞蒙古自治州,孔雀公园,,33,18,72,14,21,105,,,,6,32,6,6,0.2,0.5
2025-08-31T0700,1957A,86.1972,41.7166,巴音郭楞蒙古自治州,棉纺厂,,32,25,81,6,19,101,,,,5,18,6,5,0.1,0.3
2025-08-31T0700,1958A,86.2357,41.7173,巴音郭楞蒙古自治州,经济开发区,,35,25,63,11,14,111,,,,2,8,5,5,0.2,0.2
2025-08-31T0700,2914A,106.7677,31.8794,巴中市,苏山坪,,10,10,11,3,5,24,,,,10,8,4,4,0.4,0.4
2025-08-31T0700,3181A,106.7768,31.8526,巴中市,市五中,,10,10,12,3,6,22,,,,9,10,6,6,0.4,0.5
2025-08-31T0700,3183A,106.7418,31.8654,巴中市,圣泉水务公司,,10,10,10,3,6,29,,,,9,9,6,6,0.5,0.5
2025-08-31T0700,3616A,106.7616,31.8344,巴中市,市中心医院,,10,10,11,3,6,20,,,,12,10,7,7,0.3,0.3
2025-08-31T0700,2235A,122.7911,45.6077,白城市,洮北区环保局,,36,28,15,25,11,49,,,,3,5,3,4,0.6,0.4
2025-08-31T0700,2236A,122.8738,45.5725,白城市,市环保局,,41,41,19,27,10,41,,,,3,4,1,3,0.6,0.5
2025-08-31T0700,2231A,126.4219,41.9171,白山市,喜丰,,24,24,31,10,9,30,,,,24,11,4,7,0.5,0.6
2025-08-31T0700,2232A,126.4077,41.9419,白山市,环保局,,16,16,23,3,13,38,,,,12,11,6,6,0.5,0.6
2025-08-31T0700,2647A,104.1724,36.5446,白银市,第三小学,,30,30,37,20,17,49,,,,16,18,70,22,1.1,0.9
2025-08-31T0700,2648A,104.1465,36.5482,白银市,动力公司,,,35,39,12,12,,,,,26,21,11,12,1.1,0.7
2025-08-31T0700,2512A,106.6103,23.9011,百色市,市监测站,,26,26,22,10,9,6,,,,16,10,5,6,0.5,0.5
2025-08-31T0700,2513A,106.6538,23.8859,百色市,市中心血站,,42,42,31,18,16,2,,,,23,16,6,6,0.7,0.7
2025-08-31T0700,3406A,106.6085,23.8798,百色市,祈福高中,,49,49,32,14,13,0,,,,19,15,4,5,0.6,0.5
2025-08-31T0700,2270A,117.396,32.939,蚌埠市,工人疗养院,,15,14,17,3,6,47,,,,4,6,7,4,0.2,0.3
2025-08-31T0700,2271A,117.3605,32.9427,蚌埠市,百货大楼,,14,12,12,3,6,42,,,,8,7,8,7,0.4,0.5
2025-08-31T0700,2273A,117.4185,32.8911,蚌埠市,蚌埠学院,,14,6,11,3,7,43,,,,3,7,5,6,0.2,0.3
2025-08-31T0700,2274A,117.3533,32.9673,蚌埠市,淮上区政府,,14,9,15,6,9,44,,,,9,7,6,6,0.4,0.5
2025-08-31T0700,2275A,117.3145,32.8977,蚌埠市,高新区,,14,14,10,3,7,44,,,,7,8,6,6,0.4,0.5
2025-08-31T0700,3715A,117.3092,32.9314,蚌埠市,蚌埠田家炳中学,,15,7,11,3,7,46,,,,7,9,9,6,0.3,0.3
2025-08-31T0700,1585A,109.8756,40.6532,包头市,市环境监测站,,38,38,38,16,15,30,,,,31,31,6,6,0.8,0.7
2025-08-31T0700,1587A,109.9991,40.5842,包头市,包头八中,颗粒物(PM10),52,53,40,25,18,14,,,,45,22,7,8,1.0,0.7
2025-08-31T0700,1588A,109.8538,40.6821,包头市,青山宾馆,,35,35,41,19,20,18,,,,37,33,5,6,0.6,0.6
2025-08-31T0700,1589A,109.8642,40.6288,包头市,惠龙物流,,39,39,35,15,17,30,,,,28,18,6,6,0.7,0.6
2025-08-31T0700,1590A,110.0377,40.5546,包头市,东河鸿龙湾,细颗粒物(PM2.5),52,52,37,36,19,28,,,,31,22,5,7,1.1,0.7
2025-08-31T0700,3283A,109.9154,40.5685,包头市,滨河大厦,,37,37,30,22,15,10,,,,46,20,6,5,0.5,0.4
2025-08-31T0700,3419A,109.9447,40.6261,包头市,包头市委党校,,26,26,31,18,19,25,,,,36,23,8,9,0.8,0.6
2025-08-31T0700,3683A,109.8331,40.6576,包头市,昆区政府,,30,30,40,21,19,38,,,,26,18,8,7,0.7,0.6
2025-08-31T0700,1930A,107.185,34.3063,宝鸡市,庙沟村,,13,8,16,3,6,40,,,,5,11,4,4,0.4,0.5
2025-08-31T0700,1931A,107.0708,34.3017,宝鸡市,竹园沟,,22,22,21,3,9,8,,,,8,10,7,8,0.2,0.3
2025-08-31T0700,1932A,107.1906,34.3672,宝鸡市,三陆医院,,,,20,,12,,,32,,,20,,8,,0.5
2025-08-31T0700,1933A,107.1431,34.3547,宝鸡市,监测站,,22,22,23,7,9,16,,,,9,14,8,9,0.6,0.7
2025-08-31T0700,1934A,107.1186,34.3739,宝鸡市,技工学校,,19,14,23,13,12,8,,,,17,15,6,6,0.4,0.4
2025-08-31T0700,1936A,107.2058,34.3497,宝鸡市,文理学院,,21,21,20,10,11,6,,,,20,16,7,8,0.4,0.5
2025-08-31T0700,1937A,107.2386,34.3622,宝鸡市,三迪小学,,28,28,22,9,14,7,,,,26,21,4,5,0.5,0.6
2025-08-31T0700,4308A,107.3898,34.3601,宝鸡市,陈仓区北开路21号,,22,22,9,13,12,10,,,,23,14,5,8,0.4,0.4
2025-08-31T0700,1051A,115.493,38.8632,保定市,游泳馆,,33,33,27,18,9,36,,,,17,12,2,2,0.3,0.2
2025-08-31T0700,1052A,115.5213,38.8959,保定市,华电二区,,37,37,25,17,9,20,,,,21,11,2,2,0.6,0.4
2025-08-31T0700,1053A,115.4713,38.9108,保定市,接待中心,,38,38,25,20,11,20,,,,19,7,1,1,0.2,0.2
2025-08-31T0700,1054A,115.4612,38.8416,保定市,地表水厂,,47,47,34,17,9,15,,,,32,20,5,5,0.4,0.3
2025-08-31T0700,3581A,115.31981,38.95208,保定市,满城区生态环境分局,,31,31,28,12,10,28,,,,22,14,3,3,0.2,0.2
2025-08-31T0700,3582A,115.47694,38.76408,保定市,清苑区第二中学,颗粒物(PM10),51,51,41,20,12,35,,,,18,12,1,3,0.5,0.3
2025-08-31T0700,3583A,115.62909,39.02311,保定市,徐水物探局,,27,27,34,3,4,21,,,,22,20,4,3,0.4,0.3
2025-08-31T0700,4004A,115.4202,38.8656,保定市,双鹰农机,,39,39,31,21,14,17,,,,21,13,5,5,0.3,0.3
2025-08-31T0700,4034A,115.5150,38.8590,保定市,植保所站,,38,38,36,18,17,52,,,,18,17,4,3,0.2,0.2
2025-08-31T0700,2594A,99.1678,25.1081,保山市,市环境监测站,,26,,19,18,18,12,,,,4,8,8,9,0.3,0.4
2025-08-31T0700,2595A,99.1711,25.1328,保山市,市环保局,,26,,21,18,13,17,,,,3,5,7,7,0.3,0.4
2025-08-31T0700,1866A,109.2262,21.588,北海市,牛尾岭水库,,16,16,10,3,4,16,,,,7,5,2,3,0.4,0.4
2025-08-31T0700,1867A,109.1436,21.4086,北海市,海滩公园,,15,15,13,3,4,17,,,,15,6,9,5,0.7,0.5
2025-08-31T0700,1868A,109.0981,21.4661,北海市,新市环保局,,12,12,14,7,8,18,,,,15,9,13,6,0.6,0.5
2025-08-31T0700,1869A,109.1778,21.5233,北海市,北海工业园,,15,15,21,3,8,16,,,,11,9,16,10,0.5,0.5
2025-08-31T0700,3400A,109.1911,21.4415,北海市,龙潭自来水厂,,18,18,13,10,8,14,,,,13,6,10,4,0.5,0.4
2025-08-31T0700,1001A,116.3621,39.8784,北京市,万寿西宫,,34,34,24,22,15,32,,,,22,12,3,3,0.6,0.5
2025-08-31T0700,1002A,116.2202,40.2915,北京市,定陵,,22,22,27,12,17,34,,,,1,2,5,5,0.4,1
2025-08-31T0700,1003A,116.4174,39.9289,北京市,东四,,33,33,27,17,14,43,,,,20,18,3,3,0.4,0.5
2025-08-31T0700,1004A,116.4072,39.8863,北京市,天坛,,29,29,24,14,12,10,,,,17,9,3,3,0.5,0.4
2025-08-31T0700,1005A,116.462,39.9365,北京市,农展馆,,30,30,22,18,15,26,,,,19,14,8,5,0.5,0.5
2025-08-31T0700,1006A,116.3392,39.9295,北京市,官园,,34,34,27,20,16,35,,,,27,16,6,6,0.4,0.4
2025-08-31T0700,1007A,116.2878,39.9611,北京市,海淀万柳,,31,31,27,17,15,7,,,,23,14,3,3,0.4,0.4
2025-08-31T0700,1008A,116.6636,40.135,北京市,顺义新城,,,,,,,,,,,,,,,,
2025-08-31T0700,1009A,116.6275,40.3275,北京市,怀柔镇,,18,18,27,11,18,37,,,,6,9,3,2,0.6,0.7
2025-08-31T0700,1010A,116.2296,40.217,北京市,昌平镇,,22,22,28,13,17,46,,,,8,10,4,4,0.5,0.6
2025-08-31T0700,1011A,116.3966,39.9821,北京市,奥体中心,,33,33,22,18,13,33,,,,18,14,4,4,0.3,0.4
2025-08-31T0700,3281A,115.9718,40.4529,北京市,延庆夏都,,33,33,32,19,20,9,,,,16,9,2,2,0.5,0.5
2025-08-31T0700,3418A,116.8336,40.4095,北京市,密云新城,,33,33,29,21,19,34,,,,6,5,2,2,0.5,0.5
2025-08-31T0700,3671A,116.088,39.9726,北京市,门头沟三家店,,21,21,28,13,14,28,,,,6,10,4,4,0.4,0.5
2025-08-31T0700,3672A,116.1541,39.8204,北京市,丰台云岗,,26,26,27,12,14,16,,,,9,11,3,3,0.4,0.4
2025-08-31T0700,3673A,116.6804,39.9081,北京市,通州东关,,34,34,23,18,14,18,,,,26,18,2,2,0.6,0.6
2025-08-31T0700,3674A,115.9577,39.7603,北京市,房山燕山,,22,22,23,14,13,17,,,,10,6,1,1,0.4,0.3
2025-08-31T0700,3675A,116.4672,39.7733,北京市,大兴旧宫,,22,22,17,12,10,4,,,,21,10,2,2,0.4,0.3
2025-08-31T0700,3694A,115.986,40.4563,北京市,延庆石河营,,33,33,33,22,20,11,,,,8,5,1,1,0.4,0.5
2025-08-31T0700,3695A,116.6151,40.3053,北京市,怀柔新城,,20,20,28,11,17,40,,,,2,5,3,3,0.5,0.6
2025-08-31T0700,3696A,116.2545,39.8768,北京市,丰台小屯,,30,30,25,19,14,21,,,,14,11,1,1,0.5,0.5
2025-08-31T0700,3697A,116.84,40.3844,北京市,密云镇,,29,29,30,13,18,30,,,,10,10,5,4,0.6,0.6
2025-08-31T0700,4182A,116.1942,39.9158,北京市,八角北路9号,,30,30,29,17,15,23,,,,17,11,3,2,0.4,0.4
2025-08-31T0700,4194A,117.0790,40.1518,北京市,洳河巡河路,,20,20,33,9,19,20,,,,4,7,3,3,0.4,0.5
2025-08-31T0700,1761A,123.8275,41.3064,本溪市,大峪,,21,21,31,6,16,6,,,,26,19,6,6,0.5,0.7
2025-08-31T0700,1762A,123.7567,41.3325,本溪市,溪湖,,30,30,38,11,18,13,,,,16,14,5,6,1.0,1.6
2025-08-31T0700,1763A,123.7169,41.3094,本溪市,彩屯,,28,28,33,15,19,5,,,,20,26,8,10,1.6,1.9
2025-08-31T0700,1764A,123.7669,41.2864,本溪市,东明,,24,24,32,7,14,12,,,,27,20,4,4,0.9,1
2025-08-31T0700,1765A,123.7992,41.2664,本溪市,新立屯,,20,20,28,7,19,16,,,,20,18,6,5,0.3,0.5
2025-08-31T0700,1766A,123.8142,41.3472,本溪市,威宁,,25,24,27,17,16,6,,,,15,15,5,5,1.6,0.9
2025-08-31T0700,2587A,105.2864,27.3125,毕节市,八中,,15,10,14,10,11,39,,,,4,4,4,5,0.4,0.4
2025-08-31T0700,2588A,105.31,27.2944,毕节市,师专,,13,13,14,9,10,40,,,,5,5,5,6,0.4,0.4
2025-08-31T0700,4263A,105.3688,27.3598,毕节市,工业大道,,19,8,13,3,9,58,,,,5,6,6,7,0.6,0.6
2025-08-31T0700,1629A,118.0018,37.3617,滨州市,第二水厂,,23,19,20,12,14,73,,,,6,10,2,4,0.4,0.4
2025-08-31T0700,1630A,117.9776,37.393,滨州市,北中新校,,22,22,22,14,14,62,,,,6,9,2,5,0.0,0.1
2025-08-31T0700,3514A,117.9378,37.3956,滨州市,中海酒店,,28,,23,19,15,41,,,,11,7,2,5,0.5,0.5
2025-08-31T0700,3515A,117.9378,37.3553,滨州市,开发区一中,,28,,21,19,15,66,,,,16,10,3,5,0.2,0.3
2025-08-31T0700,3516A,118.0917,37.694,滨州市,金海六路,,28,,14,19,10,20,,,,28,10,8,3,0.2,0.2
2025-08-31T0700,4028A,117.9956,37.3753,滨州市,滨州市西街道办事处,,21,,15,12,15,67,,,,10,11,2,3,0.4,0.4
2025-08-31T0700,2311A,115.8072,33.8399,亳州市,污水处理厂,,38,28,28,26,22,79,,,,7,8,2,4,0.6,0.7
2025-08-31T0700,2312A,115.7789,33.8518,亳州市,三国揽胜宫,,35,28,39,24,20,86,,,,6,7,3,4,0.6,0.7
2025-08-31T0700,3332A,115.7633,33.8034,亳州市,亳州学院,,36,27,33,25,21,83,,,,4,6,3,4,0.7,0.8
2025-08-31T0700,2693A,82.0485,44.8556,博尔塔拉蒙古自治州,市党校,颗粒物(PM10),75,99,36,41,17,95,,,,3,7,3,4,0.0,0.2
2025-08-31T0700,2694A,82.0806,44.8969,博尔塔拉蒙古自治州,市环保局,颗粒物(PM10),57,63,52,18,15,66,,,,6,7,6,5,0.2,0.3
2025-08-31T0700,1071A,116.8842,38.2991,沧州市,沧县城建局,,32,32,22,18,14,27,,,,37,19,4,3,0.3,0.2
2025-08-31T0700,1072A,116.8584,38.3254,沧州市,电视转播站,,43,43,39,19,11,29,,,,16,19,4,3,0.4,0.3
2025-08-31T0700,1073A,116.8709,38.3228,沧州市,市环保局,,36,30,29,25,17,51,,,,20,19,7,6,0.4,0.3
2025-08-31T0700,3324A,116.8136,38.3004,沧州市,河北水利电力学院,,28,27,18,19,14,17,,,,51,23,4,4,0.4,0.3
2025-08-31T0700,2622A,97.1806,31.1273,昌都市,昌都监测站,,9,8,15,3,6,26,,,,1,5,2,2,0.2,0.2
2025-08-31T0700,3719A,97.1714,31.1406,昌都市,昌都会议中心,,9,6,8,3,5,26,,,,2,4,3,4,0.2,0.2
2025-08-31T0700,2690A,88.1236,43.8886,昌吉回族自治州,天山天池,,25,14,15,3,5,80,,,,6,8,2,2,0.5,0.5
2025-08-31T0700,2692A,87.2717,44.0297,昌吉回族自治州,新区政务中心,,38,38,37,20,13,58,,,,16,23,6,7,0.3,0.3
2025-08-31T0700,3613A,87.3095,44.0142,昌吉回族自治州,亚心广场,颗粒物(PM10),56,61,57,12,12,57,,,,23,28,8,9,0.4,0.5
2025-08-31T0700,1120A,125.2863,43.9027,长春市,客车厂,细颗粒物(PM2.5),52,41,46,36,28,68,,,,16,23,4,4,0.9,0.7
2025-08-31T0700,1121A,125.2841,43.8463,长春市,邮电学院,,41,41,43,28,24,38,,,,16,15,5,5,0.9,0.8
2025-08-31T0700,1122A,125.3716,43.8772,长春市,劳动公园,,49,49,51,33,29,48,,,,19,22,7,7,0.9,0.6
2025-08-31T0700,1123A,125.3297,43.8805,长春市,园林处,颗粒物(PM10),51,52,43,28,24,43,,,,22,18,4,4,0.9,0.8
2025-08-31T0700,1124A,125.4605,43.79,长春市,净月潭,,34,34,34,16,17,12,,,,6,6,4,5,0.6,0.5
2025-08-31T0700,1125A,125.7194,43.515,长春市,甩湾子,,26,25,23,18,15,12,,,,13,7,3,3,0.7,0.6
2025-08-31T0700,1126A,125.3863,43.8447,长春市,经开区环卫处,,38,38,50,21,21,24,,,,17,24,4,4,0.9,0.8
2025-08-31T0700,1127A,125.245,43.7783,长春市,高新区管委会,,37,37,39,24,23,33,,,,13,16,3,3,0.8,0.8
2025-08-31T0700,1128A,125.1761,43.8325,长春市,岱山公园,细颗粒物(PM2.5),57,50,53,40,31,34,,,,27,27,3,3,0.9,0.6
2025-08-31T0700,4281A,125.3346,43.9164,长春市,北亚泰大街1068号,颗粒物(PM10),56,62,49,34,28,50,,,,28,24,7,7,1.0,0.8
2025-08-31T0700,1335A,113.0833,28.2325,长沙市,经开区环保局,,20,20,37,10,25,11,,,,12,14,4,4,0.3,0.4
2025-08-31T0700,1336A,112.8872,28.2189,长沙市,高开区环保局,,28,28,43,14,22,13,,,,18,11,4,4,0.3,0.4
2025-08-31T0700,1337A,113.0792,28.2053,长沙市,马坡岭,,28,28,40,14,24,16,,,,11,16,4,5,0.4,0.5
2025-08-31T0700,1338A,112.9394,28.19,长沙市,湖南师范大学,,17,17,39,11,22,10,,,,26,18,2,3,0.5,0.5
2025-08-31T0700,1339A,113.0178,28.1322,长沙市,雨花区环保局,,21,21,41,12,22,12,,,,17,14,5,6,0.6,0.7
2025-08-31T0700,1340A,112.9792,28.2597,长沙市,伍家岭,,28,28,39,12,27,11,,,,16,13,2,2,0.2,0.3
2025-08-31T0700,1341A,113.0014,28.1944,长沙市,火车新站,,21,21,41,7,21,23,,,,15,14,6,6,0.4,0.5
2025-08-31T0700,1342A,112.9844,28.1178,长沙市,天心区环保局,,22,22,37,12,23,17,,,,20,15,3,3,0.2,0.3
2025-08-31T0700,1343A,112.8908,28.1308,长沙市,湖南中医药大学,,22,22,42,10,30,15,,,,16,12,3,3,0.5,0.6
2025-08-31T0700,1344A,112.9581,28.3611,长沙市,沙坪,,19,19,31,9,21,24,,,,7,8,2,2,0.4,0.4
2025-08-31T0700,1727A,113.1147,36.1547,长治市,清华站,细颗粒物(PM2.5),55,,26,39,14,58,,,,10,14,8,10,1.2,1
2025-08-31T0700,1730A,113.0886,36.2125,长治市,审计局,,45,32,24,31,18,43,,,,15,16,6,8,1.0,0.9
2025-08-31T0700,1731A,113.0844,36.1856,长治市,长治八中,细颗粒物(PM2.5),54,,30,38,26,54,,,,9,14,7,10,1.1,1
2025-08-31T0700,2845A,113.1569,36.1911,长治市,德盛苑,,42,30,21,29,10,49,,,,11,8,8,9,1.0,0.8
2025-08-31T0700,3568A,113.06,36.0464,长治市,向阳小学,颗粒物(PM10),64,78,67,31,30,39,,,,21,22,4,8,1.0,1
2025-08-31T0700,3569A,112.8792,36.3144,长治市,屯留一中,颗粒物(PM10),56,61,41,39,27,50,,,,14,24,8,12,1.2,0.8
2025-08-31T0700,4189A,113.1131,36.19948,长治市,英华南巷50号,,45,36,28,31,18,46,,,,11,14,7,11,1.1,0.9
2025-08-31T0700,4190A,113.2367,36.3344,长治市,学府街1号,,36,,25,25,12,28,,,,18,16,2,3,0.9,0.7
2025-08-31T0700,1854A,111.6975,28.9703,常德市,市二中,,25,21,23,17,17,20,,,,12,7,14,5,0.5,0.5
2025-08-31T0700,1857A,111.7158,29.1456,常德市,白鹤山,,,,,,,,,,,,,,,,
2025-08-31T0700,3138A,111.7153,29.0289,常德市,武陵区永安,,15,15,23,9,14,31,,,,4,4,5,5,0.3,0.4
2025-08-31T0700,3139A,111.6892,28.9881,常德市,鼎城区玉霞,,22,22,25,15,15,16,,,,11,5,14,7,0.4,0.4
2025-08-31T0700,3140A,111.6625,29.0531,常德市,武陵区长庚,,15,15,27,9,18,25,,,,6,3,6,6,0.4,0.4
2025-08-31T0700,1196A,119.9633,31.762,常州市,市监测站,,22,22,34,14,18,38,,,,17,14,11,11,0.7,0.5
2025-08-31T0700,1200A,119.9468,31.7069,常州市,武进监测站,,22,22,24,9,15,33,,,,16,11,9,9,0.6,0.5
2025-08-31T0700,1201A,119.9255,31.9087,常州市,安家,,34,34,32,18,15,19,,,,29,19,10,10,1.0,0.8
2025-08-31T0700,3002A,119.9805,31.8174,常州市,行政中心,,26,26,30,12,19,25,,,,25,17,2,2,0.7,0.6
2025-08-31T0700,3003A,120.0522,31.7748,常州市,经开区,,48,48,38,25,16,26,,,,27,18,5,4,0.9,1
2025-08-31T0700,3010A,119.9025,31.7964,常州市,钟楼,,22,22,30,13,14,41,,,,21,16,6,7,0.7,0.6
2025-08-31T0700,3429A,119.8598,31.7066,常州市,武进经发区,,22,22,33,11,16,47,,,,10,9,8,9,0.6,0.5
2025-08-31T0700,3430A,119.5826,31.7245,常州市,金坛城区,,22,22,20,15,13,50,,,,13,11,7,7,0.6,0.5
2025-08-31T0700,2220A,120.4318,41.5881,朝阳市,西梁,细颗粒物(PM2.5),55,56,53,39,30,5,,,,23,21,6,7,1.1,1.1
2025-08-31T0700,2221A,120.4521,41.5646,朝阳市,河畔小区,颗粒物(PM10),51,51,39,33,26,35,,,,18,10,6,7,1.0,1.1
2025-08-31T0700,2222A,120.4176,41.5648,朝阳市,八里堡,,39,38,43,27,27,20,,,,26,19,5,9,1.0,1.1
2025-08-31T0700,2223A,120.3806,41.5969,朝阳市,农业园区,,40,,42,28,32,5,,,,16,16,5,5,1.0,0.9
2025-08-31T0700,1705A,116.6367,23.6719,潮州市,西园路,,20,16,22,14,12,8,,,,12,10,3,5,0.4,0.3
2025-08-31T0700,3026A,116.6183,23.6608,潮州市,市政府,,29,29,27,14,12,7,,,,16,10,8,7,0.6,0.4
2025-08-31T0700,4036A,116.6461,23.6761,潮州市,金山,,23,,23,16,15,6,,,,10,9,5,6,0.4,0.3
2025-08-31T0700,2472A,113.0073,25.9061,郴州市,马头岭,,24,24,24,6,10,4,,,,14,12,5,6,0.4,0.4
2025-08-31T0700,2473A,113.0116,25.8226,郴州市,市职中,,20,20,18,10,13,9,,,,13,9,5,4,0.4,0.4
2025-08-31T0700,2475A,113.0383,25.8071,郴州市,市审计局,,18,17,18,12,12,11,,,,11,9,8,7,0.5,0.4
2025-08-31T0700,2476A,113.0348,25.7759,郴州市,市环保局,,26,21,22,18,15,8,,,,14,4,6,6,0.3,0.2
2025-08-31T0700,4252A,113.0138,25.8011,郴州市,好美居路49号,,19,19,17,8,10,9,,,,13,9,4,6,0.4,0.4
2025-08-31T0700,1431A,103.9728,30.7236,成都市,金泉两河,,25,,14,17,5,12,,,,21,16,3,2,0.6,0.5
2025-08-31T0700,1432A,104.176,30.6872,成都市,十里店,,25,18,19,17,7,43,,,,16,24,3,2,0.6,0.6
2025-08-31T0700,1433A,104.079,30.5706,成都市,三瓦窑,,20,20,16,13,8,29,,,,27,28,9,2,0.4,0.4
2025-08-31T0700,1434A,104.1114,30.63,成都市,沙河铺,,32,32,22,6,8,19,,,,13,15,3,3,0.7,0.7
2025-08-31T0700,1437A,104.0786,30.6531,成都市,君平街,,32,32,24,7,10,34,,,,15,16,6,2,0.6,0.5
2025-08-31T0700,1438A,103.613,31.0283,成都市,灵岩寺,,,,,,,,,,,,,,,,
2025-08-31T0700,2880A,104.0239,30.65639,成都市,大石西路,,38,31,22,26,12,27,,,,22,22,2,2,0.6,0.6
2025-08-31T0700,3136A,104.2725,30.5589,成都市,龙泉驿区区政府,,19,9,8,7,2,59,,,,12,15,5,4,0.5,0.5
2025-08-31T0700,3357A,104.0106,30.6931,成都市,金博路,,12,12,9,3,7,30,,,,17,19,5,4,0.7,0.7
2025-08-31T0700,3359A,104.0578,30.5225,成都市,华阳,,22,22,14,14,11,31,,,,13,17,3,1,0.7,0.5
2025-08-31T0700,3488A,104.3853,30.7453,成都市,青白江技师分院,,37,37,19,13,10,18,,,,27,22,1,3,0.7,0.7
2025-08-31T0700,3489A,104.0789,30.4072,成都市,科学城,,20,19,18,14,11,44,,,,10,15,4,4,0.5,0.5
2025-08-31T0700,4011A,103.8506,30.6947,成都市,光华大道三段,,37,37,18,20,8,25,,,,19,17,2,2,0.5,0.5
2025-08-31T0700,4224A,104.2433,30.5353,成都市,鲸龙路1057号,,20,20,16,11,10,48,,,,10,17,3,3,0.4,0.4
2025-08-31T0700,1062A,117.9531,40.9081,承德市,铁路,,50,50,41,28,21,14,,,,18,18,3,4,0.5,0.6
2025-08-31T0700,1063A,117.9392,40.9763,承德市,中国银行,细颗粒物(PM2.5),59,,27,42,24,30,,,,12,12,3,4,0.4,0.5
2025-08-31T0700,1064A,117.9503,40.928,承德市,开发区,,,43,42,25,19,28,,,,,18,4,5,0.5,0.7
2025-08-31T0700,1066A,117.9268,41.0026,承德市,离宫,,44,44,35,7,10,35,,,,8,8,4,5,0.4,0.5
2025-08-31T0700,4274A,117.7994,40.9605,承德市,滨河大街98号,,30,,30,21,20,38,,,,14,8,3,4,0.5,0.5
2025-08-31T0700,2314A,117.47,30.6618,池州市,池州学院,,13,12,21,9,13,22,,,,12,10,5,6,0.6,0.6
2025-08-31T0700,3237A,117.4918,30.6617,池州市,展览馆,,14,14,19,6,11,13,,,,14,10,4,5,0.8,0.7
2025-08-31T0700,3333A,117.5627,30.695,池州市,第八中学,,15,15,20,3,10,20,,,,7,7,5,6,0.5,0.5
2025-08-31T0700,3334A,117.5038,30.6243,池州市,第十二中学,,22,22,19,9,11,13,,,,20,14,3,4,1.4,0.8
2025-08-31T0700,1744A,118.9233,42.2816,赤峰市,松山一中,,29,29,22,7,9,5,,,,34,24,7,6,1.1,0.6
2025-08-31T0700,1745A,118.9576,42.2728,赤峰市,哈达街,,23,23,19,6,6,22,,,,19,18,19,18,0.6,0.5
2025-08-31T0700,1746A,118.8788,42.2554,赤峰市,天义路,,28,,10,19,10,12,,,,29,14,20,12,0.5,0.3
2025-08-31T0700,3058A,119.2658,42.0353,赤峰市,银河街,,46,46,48,23,21,7,,,,23,18,70,26,0.8,0.8
2025-08-31T0700,3286A,118.9359,42.3147,赤峰市,桥北物流园区,,15,15,22,7,13,10,,,,20,24,8,9,0.8,0.8
2025-08-31T0700,2521A,107.3476,22.4136,崇左市,市环保局江州分局,,32,32,26,8,9,22,,,,11,9,6,7,0.6,0.6
2025-08-31T0700,4256A,107.3750,22.3736,崇左市,石景林东路7号,,32,32,20,12,10,32,,,,9,11,5,4,0.4,0.5
2025-08-31T0700,2298A,118.3093,32.3153,滁州市,老年大学,,20,15,19,14,15,36,,,,12,7,7,9,0.3,0.2
2025-08-31T0700,2299A,118.3244,32.2786,滁州市,人大宾馆,,20,,14,14,13,37,,,,10,4,5,5,0.4,0.3
2025-08-31T0700,3207A,118.3118,32.3038,滁州市,市政府原办公楼,,19,13,16,13,17,40,,,,10,5,6,5,0.4,0.3
2025-08-31T0700,3331A,118.3267,32.2634,滁州市,图书馆,,28,,17,19,12,42,,,,9,4,11,10,0.3,0.3
2025-08-31T0700,2605A,101.5482,25.0441,楚雄彝族自治州,州环境监测站,,23,16,20,16,14,0,,,,16,14,4,6,0.5,0.5
2025-08-31T0700,2606A,101.538,25.0492,楚雄彝族自治州,市经济开发区,,29,29,23,16,15,0,,,,17,16,6,8,0.7,0.7
2025-08-31T0700,2548A,107.5277,31.2827,达州市,达州职业技术学院,,23,23,41,3,19,11,,,,18,10,6,7,0.3,0.4
2025-08-31T0700,2549A,107.5086,31.2186,达州市,市环境监测站,,19,19,36,3,17,34,,,,15,15,5,6,0.4,0.4
2025-08-31T0700,2550A,107.4988,31.2132,达州市,凤凰小区,,25,17,31,17,21,33,,,,9,13,3,3,0.3,0.3
2025-08-31T0700,2551A,107.5082,31.1986,达州市,达县机关宾馆,,36,36,36,9,19,19,,,,21,19,3,4,0.4,0.4
2025-08-31T0700,2552A,107.4644,31.2124,达州市,市政中心,,31,31,41,19,19,35,,,,11,9,2,3,0.3,0.3
2025-08-31T0700,2614A,100.1542,25.7054,大理白族自治州,大理市环境监测站,,26,,20,18,19,14,,,,14,11,5,4,0.5,0.6
2025-08-31T0700,2615A,100.2171,25.5811,大理白族自治州,大理古城,,10,10,16,3,10,30,,,,6,7,6,6,0.5,0.6
2025-08-31T0700,1109A,121.612,38.9741,大连市,甘井子,,16,6,11,3,7,49,,,,32,16,6,7,0.7,0.3
2025-08-31T0700,1110A,121.565,38.9511,大连市,周水子,,15,9,14,3,8,46,,,,22,12,4,5,0.4,0.4
2025-08-31T0700,1111A,121.5637,38.8845,大连市,星海三站,,20,10,17,3,7,62,,,,13,13,4,4,0.4,0.3
2025-08-31T0700,1112A,121.6302,38.9117,大连市,青泥洼桥,,,,14,,8,,,,,,10,,7,,0.4
2025-08-31T0700,1113A,121.6251,38.8638,大连市,傅家庄,,21,7,11,3,6,67,,,,10,8,10,10,0.5,0.3
2025-08-31T0700,1114A,121.5213,38.8661,大连市,七贤岭,,18,10,13,3,7,57,,,,12,8,5,5,0.6,0.5
2025-08-31T0700,1115A,121.2529,38.8061,大连市,旅顺,,20,6,9,3,6,62,,,,3,5,7,6,0.4,0.3
2025-08-31T0700,1116A,121.7485,39.1311,大连市,金州,,24,6,12,3,8,74,,,,6,10,5,5,0.3,0.4
2025-08-31T0700,1117A,121.7811,39.0496,大连市,开发区,,22,11,19,3,9,68,,,,7,15,4,5,0.3,0.3
2025-08-31T0700,1118A,121.9762,39.0631,大连市,双D港,,22,,11,3,7,69,,,,4,3,8,8,0.6,0.5
2025-08-31T0700,1789A,124.81117,46.03138,大庆市,大同区,,44,44,22,22,11,50,,,,11,8,9,8,0.8,0.6
2025-08-31T0700,1790A,125.129,46.533,大庆市,龙凤区,,28,28,24,7,9,37,,,,10,13,8,9,0.6,0.5
2025-08-31T0700,1791A,124.902,46.408,大庆市,红岗区,,30,30,24,17,11,40,,,,10,10,6,6,0.8,0.5
2025-08-31T0700,1792A,125.153,46.586,大庆市,萨尔图区,,34,34,35,18,14,31,,,,12,17,8,8,0.7,0.6
2025-08-31T0700,1793A,124.9042,46.6215,大庆市,让胡路区,,27,27,25,15,13,32,,,,11,12,6,6,0.6,0.4
2025-08-31T0700,3481A,125.141,46.634,大庆市,萨区政府监测点,,41,41,28,22,8,42,,,,12,13,8,8,0.7,0.4
2025-08-31T0700,1721A,113.3819,40.1097,大同市,果树场,,33,33,32,23,21,9,,,,19,17,9,11,0.5,0.4
2025-08-31T0700,1723A,113.2994,40.0758,大同市,云冈宾馆,,45,45,41,26,25,34,,,,21,27,7,8,1.6,0.9
2025-08-31T0700,1724A,113.3444,40.0917,大同市,大同大学,,32,32,37,14,22,20,,,,40,27,11,10,0.8,0.7
2025-08-31T0700,1725A,113.2661,40.1269,大同市,安家小村,,45,45,43,17,22,18,,,,23,23,6,8,1.6,1
2025-08-31T0700,1726A,113.2711,40.0844,大同市,教育学院,,48,48,54,15,27,21,,,,28,28,8,10,1.3,1.1
2025-08-31T0700,3282A,113.3397,40.0597,大同市,大同市卫生学校,,36,34,45,25,26,23,,,,35,29,10,11,1.2,0.8
2025-08-31T0700,3565A,113.1367,40.1122,大同市,云冈站,,33,33,48,20,27,21,,,,11,12,5,7,0.7,0.7
2025-08-31T0700,3566A,113.1186,40.2556,大同市,图书馆,,24,24,38,10,21,15,,,,8,10,2,6,1.0,0.7
2025-08-31T0700,3567A,113.5931,40.0461,大同市,区一中,,28,28,31,19,15,27,,,,11,9,9,11,0.4,0.4
2025-08-31T0700,4199A,113.2798,40.0997,大同市,魏都大道141号,,44,44,51,29,27,19,,,,26,27,4,5,1.4,1.1
2025-08-31T0700,2269A,124.1069,50.4097,大兴安岭地区,科技局,,28,28,27,11,7,0,,,,3,6,3,5,0.4,0.3
2025-08-31T0700,3663A,124.1164,50.4278,大兴安岭地区,红旗社区,,24,24,16,7,5,1,,,,5,4,5,5,0.3,0.3
2025-08-31T0700,1600A,124.3303,40.0625,丹东市,江湾东路,,22,8,15,3,8,68,,,,8,12,4,5,0.7,0.7
2025-08-31T0700,1601A,124.4256,40.1503,丹东市,临江后街,,21,9,18,3,8,67,,,,8,9,4,5,0.8,0.8
2025-08-31T0700,1602A,124.3933,40.1461,丹东市,元宝山,,20,6,11,3,6,63,,,,7,10,4,5,0.7,0.7
2025-08-31T0700,1603A,124.3633,40.1092,丹东市,民主桥,,19,9,16,3,8,60,,,,13,11,6,6,0.6,0.6
2025-08-31T0700,3541A,109.5726,19.5167,儋州市,第一中学子站,,17,17,11,3,3,25,,,,3,2,5,5,0.6,0.6
2025-08-31T0700,3542A,109.5567,19.5187,儋州市,东坡学校子站,,10,10,11,3,4,25,,,,4,3,7,7,0.4,0.4
2025-08-31T0700,2616A,98.5842,24.428,德宏傣族景颇族自治州,德宏州监测站,,26,26,27,11,14,10,,,,8,10,5,7,0.4,0.3
2025-08-31T0700,3677A,98.5881,24.4368,德宏傣族景颇族自治州,芒市人民政府综合楼,,24,24,32,8,15,10,,,,7,8,5,9,0.5,0.5
2025-08-31T0700,1901A,104.4239,31.1208,德阳市,东山公园,,38,,6,26,7,34,,,,20,12,3,7,1.3,0.8
2025-08-31T0700,1902A,104.3826,31.1317,德阳市,西小区,,29,29,22,20,11,29,,,,25,18,3,3,0.9,0.8
2025-08-31T0700,1904A,104.3553,31.1091,德阳市,耐火材料厂,,40,40,20,20,11,13,,,,38,22,6,3,0.9,0.6
2025-08-31T0700,3639A,104.4019,31.1244,德阳市,市教育局,,30,30,19,14,10,24,,,,22,16,1,2,1.0,0.9
2025-08-31T0700,1622A,116.3032,37.4674,德州市,儿童乐园,,25,,20,17,13,78,,,,15,15,8,9,0.6,0.6
2025-08-31T0700,1624A,116.2991,37.4451,德州市,监理站,,25,,17,12,10,80,,,,12,10,11,11,0.6,0.6
2025-08-31T0700,3066A,116.2721,37.4379,德州市,九衢泉纯净水厂,,25,19,18,17,14,74,,,,11,12,5,6,0.9,0.9
2025-08-31T0700,3371A,116.3728,37.4403,德州市,开发区人民医院,,22,22,20,14,13,64,,,,16,13,7,7,1.1,1
2025-08-31T0700,3511A,116.5652,37.3319,德州市,陵城艺术中心,,19,17,22,12,9,58,,,,12,12,6,9,0.7,0.7
2025-08-31T0700,4292A,116.3525,37.4209,德州市,新河东路,,22,17,19,14,13,68,,,,16,11,7,7,0.8,0.8
2025-08-31T0700,2621A,99.7056,27.8317,迪庆藏族自治州,迪庆州站,,19,12,14,10,9,58,,,,4,5,6,6,0.4,0.5
2025-08-31T0700,3180A,99.7136,27.8094,迪庆藏族自治州,质量技术监督局,,19,12,14,6,9,59,,,,5,7,6,7,0.4,0.4
2025-08-31T0700,4257A,104.6092,35.5962,定西市,将台街,,28,28,27,19,19,10,,,,30,20,7,8,0.4,0.4
2025-08-31T0700,4309A,104.6159,35.5701,定西市,正龙路62号,,36,36,35,19,19,16,,,,10,9,5,5,0.2,0.3
2025-08-31T0700,1389A,113.7547,23.0494,东莞市,莞城梨川,,22,22,17,10,10,15,,,,20,12,7,6,0.4,0.3
2025-08-31T0700,1390A,113.7944,23.0128,东莞市,东城石井,,17,17,23,3,9,5,,,,19,15,4,5,0.6,0.5
2025-08-31T0700,1391A,113.7383,22.9658,东莞市,南城西平,,24,24,20,6,6,10,,,,31,17,7,7,0.5,0.4
2025-08-31T0700,3319A,113.7338,23.0381,东莞市,万江金泰,,23,23,18,8,8,11,,,,20,10,8,7,0.6,0.6
2025-08-31T0700,3626A,113.7533,23.0202,东莞市,南城元岭,,19,19,18,3,5,16,,,,22,14,6,5,0.3,0.3
2025-08-31T0700,3627A,113.7875,23.0457,东莞市,东城主山,,15,15,22,3,7,16,,,,20,14,8,6,0.4,0.4
2025-08-31T0700,1666A,118.6614,37.4309,东营市,市环保局,,21,14,11,12,6,66,,,,12,10,6,5,0.2,0.3
2025-08-31T0700,3036A,118.6904,37.4338,东营市,开发区管委会,,23,11,16,3,5,71,,,,10,8,5,5,0.3,0.3
2025-08-31T0700,3365A,118.5719,37.565,东营市,垦利区民丰路,,25,17,15,17,9,60,,,,12,11,5,6,0.8,0.8
2025-08-31T0700,3498A,118.5055,37.8612,东营市,河口城区,,29,12,12,3,2,90,,,,15,13,4,4,0.9,0.9
2025-08-31T0700,3646A,118.4978,37.4623,东营市,胜利站,,20,18,17,7,7,61,,,,16,13,4,3,0.5,0.5
2025-08-31T0700,3734A,118.35,37.26,东营市,理想之城,,17,12,13,9,10,54,,,,17,14,3,3,0.3,0.4
2025-08-31T0700,1591A,110.0023,39.8129,鄂尔多斯市,综合楼,,29,29,28,14,11,53,,,,22,20,8,8,0.5,0.5
2025-08-31T0700,1592A,109.9486,39.8261,鄂尔多斯市,巴音孟克林场办事处,,39,39,30,22,12,61,,,,21,17,9,7,0.3,0.3
2025-08-31T0700,1593A,109.7736,39.5986,鄂尔多斯市,康泽苑,,29,29,27,14,9,8,,,,19,13,5,6,0.3,0.4
2025-08-31T0700,1594A,109.8119,39.5989,鄂尔多斯市,华泰汽车城,颗粒物(PM10),53,56,25,22,14,8,,,,29,15,6,7,0.6,0.5
2025-08-31T0700,1595A,109.9734,39.7884,鄂尔多斯市,奥林花园,,39,39,34,19,15,22,,,,24,25,6,7,0.6,0.6
2025-08-31T0700,2436A,114.8938,30.3994,鄂州市,市政府,,21,21,21,7,7,19,,,,15,12,8,7,0.5,0.5
2025-08-31T0700,2437A,114.8989,30.3714,鄂州市,赵家坝,,30,30,32,7,8,13,,,,12,8,10,9,0.9,0.8
2025-08-31T0700,3654A,114.8094,30.4089,鄂州市,精准医疗中心,,21,21,35,8,10,15,,,,17,11,10,7,0.8,0.9
2025-08-31T0700,2454A,109.4978,30.2981,恩施土家族苗族自治州,湖北民院,,12,12,22,3,12,22,,,,9,9,5,5,0.3,0.3
2025-08-31T0700,2455A,109.4707,30.2798,恩施土家族苗族自治州,州电力总公司,,11,11,18,3,13,17,,,,7,6,4,5,0.4,0.4
2025-08-31T0700,3549A,109.5061,30.3772,恩施土家族苗族自治州,龙凤新区,,16,16,18,3,12,25,,,,2,4,4,4,0.4,0.4
2025-08-31T0700,2499A,108.3411,21.6158,防城港市,沙万,,22,17,33,15,16,13,,,,16,13,6,4,0.8,0.5
2025-08-31T0700,2500A,108.3514,21.7731,防城港市,防城档案局,,29,29,24,9,11,10,,,,16,12,3,3,0.6,0.6
2025-08-31T0700,2501A,108.3506,21.6414,防城港市,大海花园,,19,17,25,13,12,19,,,,12,11,7,6,0.6,0.6
2025-08-31T0700,1371A,113.1294,23.0067,佛山市,湾梁,细颗粒物(PM2.5),63,,20,45,23,14,,,,24,22,6,6,0.4,0.4
2025-08-31T0700,1372A,113.1083,23.0478,佛山市,华材职中,,9,7,17,3,9,15,,,,17,14,4,4,0.5,0.5
2025-08-31T0700,1373A,113.144,23.0453,佛山市,南海气象局,,10,,23,7,10,12,,,,20,18,5,5,0.4,0.5
2025-08-31T0700,1374A,113.2881,22.8094,佛山市,顺德苏岗,,,24,21,,5,10,,,,24,16,6,6,0.4,0.4
2025-08-31T0700,1376A,112.8383,22.8678,佛山市,高明孔堂,,23,23,23,11,10,1,,,,22,19,4,3,0.8,0.7
2025-08-31T0700,1377A,112.8836,23.1588,佛山市,三水监测站,,27,27,25,14,14,2,,,,31,21,12,6,0.5,0.4
2025-08-31T0700,1378A,112.867,23.185,佛山市,三水云东海,,21,21,27,12,14,1,,,,27,25,3,2,0.6,0.5
2025-08-31T0700,3625A,113.2544,22.7642,佛山市,容桂街道办,,13,,14,9,8,16,,,,22,16,6,6,0.6,0.6
2025-08-31T0700,1280A,119.3903,26.0543,福州市,鼓山,,,,8,,4,,,36,,,4,,1,,0.1
2025-08-31T0700,1282A,119.2681,26.0504,福州市,师大,,12,12,14,6,3,14,,,,8,7,5,5,0.2,0.2
2025-08-31T0700,1283A,119.2984,26.1028,福州市,五四北路,,17,17,14,3,1,14,,,,12,7,4,4,0.3,0.2
2025-08-31T0700,1284A,119.2648,26.0768,福州市,杨桥西路,,15,15,14,10,4,13,,,,10,7,4,4,0.2,0.2
2025-08-31T0700,1285A,119.317,26.0746,福州市,紫阳,,17,17,17,3,2,16,,,,8,7,5,5,0.3,0.2
2025-08-31T0700,3048A,119.5799,26.0936,福州市,九龙,,13,13,10,3,0,16,,,,8,5,5,5,0.3,0.2
2025-08-31T0700,3526A,119.5189,25.9664,福州市,吴航,,8,8,9,3,4,16,,,,11,5,4,4,0.2,0.2
2025-08-31T0700,1755A,123.7977,41.8491,抚顺市,望花区,,28,28,46,14,25,5,,,,23,25,5,6,0.8,1.1
2025-08-31T0700,1756A,123.9161,41.8822,抚顺市,顺城区,,21,21,42,11,25,20,,,,19,28,4,6,0.9,1.3
2025-08-31T0700,1757A,124.0436,41.8611,抚顺市,东洲区,,15,15,30,6,21,36,,,,8,15,7,6,0.8,1.2
2025-08-31T0700,1758A,123.9247,41.8642,抚顺市,新抚区,,29,29,45,13,25,8,,,,19,22,6,6,1.0,1.3
2025-08-31T0700,1759A,124.0972,41.8961,抚顺市,大伙房水库,,19,19,33,3,20,51,,,,5,14,7,8,0.4,0.9
2025-08-31T0700,1760A,123.7086,41.8391,抚顺市,沈抚新城,颗粒物(PM10),63,76,70,15,25,5,,,,24,26,6,7,2.3,1.4
2025-08-31T0700,2376A,116.2127,28.0814,抚州市,桐源党溪,,22,22,25,13,11,15,,,,7,4,4,4,0.6,0.4
2025-08-31T0700,2377A,116.3544,27.9831,抚州市,市站,,24,24,20,15,9,36,,,,7,4,3,3,0.5,0.4
2025-08-31T0700,2378A,116.3565,27.963,抚州市,血防站,,28,28,22,10,10,31,,,,10,6,5,4,0.6,0.5
2025-08-31T0700,2379A,116.3564,28.0007,抚州市,采茶剧团,,23,23,22,11,10,32,,,,3,3,4,6,0.5,0.4
2025-08-31T0700,2380A,116.385,27.9647,抚州市,医学分院,,30,30,22,14,9,26,,,,13,7,4,4,0.7,0.6
2025-08-31T0700,2207A,121.6094,41.998,阜新市,工业园区,细颗粒物(PM2.5),74,55,44,54,26,51,,,,18,15,10,13,0.8,0.8
2025-08-31T0700,2208A,121.6697,42.0279,阜新市,长青街,,29,29,37,20,21,67,,,,14,14,17,14,0.7,0.8
2025-08-31T0700,2209A,121.6673,42.0705,阜新市,农业园区,,49,49,42,27,20,60,,,,7,8,7,7,1.1,0.8
2025-08-31T0700,2210A,121.6717,42.0224,阜新市,东苑,,33,33,46,20,22,60,,,,22,17,20,17,0.7,0.8
2025-08-31T0700,2211A,121.6506,42.0498,阜新市,玉龙新城,,46,46,42,24,22,50,,,,12,14,10,12,0.9,0.8
2025-08-31T0700,2301A,115.8277,32.8929,阜阳市,市监测站,,19,,27,3,17,58,,,,9,10,4,4,0.4,0.4
2025-08-31T0700,2303A,115.8554,32.8605,阜阳市,开发区,,18,,26,8,17,57,,,,5,6,6,6,0.3,0.3
2025-08-31T0700,2875A,115.784,32.8892,阜阳市,阜阳职业技术学院,,20,7,27,6,14,61,,,,8,7,5,6,0.4,0.4
2025-08-31T0700,3468A,115.7901,32.8613,阜阳市,市规划展馆,,17,12,30,9,18,52,,,,8,8,2,2,0.4,0.5
2025-08-31T0700,3469A,115.836,32.9183,阜阳市,枣园社区,,,,30,,22,,,45,,,11,,4,,0.5
2025-08-31T0700,2669A,102.9099,34.9841,甘南藏族自治州,州政府,,35,35,37,18,17,4,,,,20,21,5,4,0.3,0.3
2025-08-31T0700,3380A,102.8914,34.9617,甘南藏族自治州,甘肃民族师范学院,,49,49,47,23,13,3,,,,17,22,5,4,0.4,0.4
2025-08-31T0700,2570A,101.9603,30.0475,甘孜藏族自治州,水桥子,,12,,8,6,6,37,,,,11,16,6,6,0.2,0.3
2025-08-31T0700,3065A,101.9533,29.9972,甘孜藏族自治州,州环保局,,15,6,9,3,4,46,,,,6,14,4,4,0.2,0.3
2025-08-31T0700,3414A,115.8347,28.932,赣江新区,桑海产业园,,14,14,20,6,12,19,,,,19,15,4,6,0.3,0.3
2025-08-31T0700,2362A,114.9017,25.9149,赣州市,通天岩,,16,16,18,3,7,25,,,,5,4,17,16,1.3,1.3
2025-08-31T0700,2363A,114.9367,25.8664,赣州市,地委,,28,28,25,13,13,22,,,,11,9,18,7,0.5,0.6
2025-08-31T0700,2364A,114.9461,25.8481,赣州市,气象台,,28,28,23,10,9,23,,,,13,8,28,9,0.6,0.5
2025-08-31T0700,2365A,114.9322,25.8333,赣州市,市图书馆,,19,18,20,13,13,27,,,,14,9,13,6,0.5,0.5
2025-08-31T0700,2366A,114.8905,25.8471,赣州市,华坚鞋城,,26,26,25,14,14,28,,,,15,11,11,6,0.6,0.5
2025-08-31T0700,3109A,115.0093,25.8613,赣州市,赣县区卫计委,,19,19,18,8,12,23,,,,4,5,7,6,0.3,0.2
2025-08-31T0700,2683A,106.2319,36.1417,固原市,马园,,,,,,,,,,,,,,,,
2025-08-31T0700,2684A,106.2792,36.0022,固原市,监测站,,18,18,19,10,8,19,,,,30,20,9,8,0.3,0.3
2025-08-31T0700,2685A,106.2375,36.0211,固原市,新区,,23,23,19,10,8,2,,,,15,16,8,8,0.4,0.3
2025-08-31T0700,3522A,106.2177,35.9959,固原市,原州区十五小,,18,16,17,10,9,57,,,,18,16,8,8,0.2,0.2
2025-08-31T0700,2543A,106.6308,30.5278,广安市,小平旧居,,,,,,,,,,,,,,,,
2025-08-31T0700,2544A,106.6303,30.4576,广安市,市委,细颗粒物(PM2.5),67,,50,48,43,32,,,,15,14,10,10,0.4,0.3
2025-08-31T0700,2545A,106.6271,30.4663,广安市,友谊中学,,47,47,46,32,32,43,,,,13,14,7,10,0.8,0.8
2025-08-31T0700,2547A,106.6388,30.4551,广安市,广电花园,,45,,30,31,33,31,,,,13,13,4,7,0.5,0.5
2025-08-31T0700,2902A,106.6351,30.4865,广安市,北辰小学,,48,48,47,33,33,37,,,,11,11,6,9,0.6,0.6
2025-08-31T0700,2523A,105.8945,32.4535,广元市,黑石坡,,15,15,11,9,8,23,,,,6,11,9,9,0.3,0.4
2025-08-31T0700,2524A,105.821,32.4444,广元市,老城,,12,11,14,7,7,6,,,,23,26,3,7,0.7,0.8
2025-08-31T0700,2526A,105.8628,32.4287,广元市,监测站,,16,12,12,11,6,10,,,,14,20,8,8,0.7,0.8
2025-08-31T0700,3617A,105.8047,32.4166,广元市,经开区,,18,18,19,8,7,5,,,,27,32,4,6,0.6,0.6
2025-08-31T0700,1345A,113.2347,23.1423,广州市,广雅中学,,22,22,30,8,13,2,,,,33,29,4,3,0.5,0.5
2025-08-31T0700,1346A,113.2612,23.105,广州市,市五中,,16,16,26,6,11,10,,,,31,24,6,6,0.4,0.4
2025-08-31T0700,1348A,113.3478,23.0916,广州市,广东商学院,,19,19,28,6,12,6,,,,32,28,4,4,0.3,0.3
2025-08-31T0700,1349A,113.4332,23.1047,广州市,市八十六中,,23,23,22,11,9,4,,,,35,32,4,4,0.5,0.4
2025-08-31T0700,1350A,113.3505,22.9483,广州市,番禺中学,,22,22,23,8,9,12,,,,22,15,8,6,0.5,0.5
2025-08-31T0700,1351A,113.2146,23.3916,广州市,花都师范,,22,22,30,7,14,4,,,,32,27,6,5,0.5,0.5
2025-08-31T0700,1352A,113.2597,23.1331,广州市,市监测站,,20,20,27,8,11,3,,,,33,23,6,6,0.4,0.4
2025-08-31T0700,1353A,113.5618,23.312,广州市,九龙镇镇龙,,16,16,26,7,12,18,,,,10,18,7,7,0.3,0.4
2025-08-31T0700,1354A,113.2765,23.1544,广州市,麓湖,,24,24,23,10,11,0,,,,28,24,2,2,0.5,0.3
2025-08-31T0700,1355A,113.443,23.3035,广州市,帽峰山森林公园,,9,9,13,3,7,10,,,,14,16,5,6,0.4,0.4
2025-08-31T0700,2846A,113.3221,23.1322,广州市,体育西,,20,20,30,10,13,3,,,,34,26,6,6,0.6,0.6
2025-08-31T0700,3298A,113.5717,23.5491,广州市,从化街口,,17,17,18,3,9,1,,,,19,11,8,8,0.5,0.5
2025-08-31T0700,3299A,113.3472,23.3692,广州市,白云竹料,,16,16,28,7,12,10,,,,23,25,6,5,0.3,0.4
2025-08-31T0700,3300A,113.2981,23.237,广州市,白云嘉禾,,14,14,26,3,13,9,,,,22,28,6,6,0.3,0.4
2025-08-31T0700,3301A,113.4256,23.1716,广州市,黄埔科学城,,19,19,26,8,13,2,,,,20,20,7,7,0.6,0.6
2025-08-31T0700,3302A,113.3942,23.0483,广州市,番禺大学城,,25,25,27,9,12,9,,,,29,23,9,8,0.4,0.4
2025-08-31T0700,3303A,113.4922,22.8168,广州市,南沙黄阁,,16,16,21,6,7,12,,,,27,12,4,5,0.3,0.2
2025-08-31T0700,3304A,113.5342,22.7896,广州市,南沙街,,12,12,21,3,6,19,,,,20,13,6,5,0.4,0.4
2025-08-31T0700,3443A,113.2902,23.5544,广州市,花都梯面,,15,15,24,3,11,1,,,,13,17,6,6,0.4,0.5
2025-08-31T0700,3445A,113.7858,23.7478,广州市,从化良口,,7,7,12,3,8,15,,,,5,8,4,4,0.3,0.4
2025-08-31T0700,3446A,113.8051,23.2614,广州市,增城荔城,,18,18,19,7,8,17,,,,8,10,8,9,0.4,0.4
2025-08-31T0700,2505A,109.568,23.1478,贵港市,德智高中,,,,,,,,,,,,,,,,
2025-08-31T0700,2506A,109.6047,23.0666,贵港市,江南子站,,29,29,28,15,16,10,,,,19,13,7,6,0.8,0.7
2025-08-31T0700,2508A,109.5669,23.1065,贵港市,荷城子站,,12,12,17,7,7,16,,,,16,9,6,4,0.5,0.5
2025-08-31T0700,3405A,109.5886,23.1172,贵港市,新世纪学校,,24,24,20,9,13,20,,,,12,10,1,2,0.5,0.5
2025-08-31T0700,4260A,109.5933,23.0951,贵港市,中山路155-3号,,24,24,25,13,14,18,,,,14,10,6,5,0.7,0.7
2025-08-31T0700,1439A,106.6899,26.5998,贵阳市,马鞍山,,31,31,16,12,4,9,,,,9,10,3,3,0.3,0.3
2025-08-31T0700,1441A,106.6243,26.6266,贵阳市,鉴湖路,,46,46,31,29,11,13,,,,11,14,3,4,0.3,0.2
2025-08-31T0700,1442A,106.7487,26.6343,贵阳市,燕子冲,,39,,13,27,14,8,,,,14,11,3,3,0.4,0.3
2025-08-31T0700,1443A,106.6555,26.4365,贵阳市,碧云窝,,44,44,35,17,11,0,,,,10,10,4,5,0.4,0.3
2025-08-31T0700,1445A,106.7109,26.6027,贵阳市,红边门,,35,24,23,24,16,14,,,,16,17,3,3,0.3,0.3
2025-08-31T0700,1446A,106.7164,26.5699,贵阳市,新华路,,19,19,19,3,8,23,,,,10,15,4,8,0.4,0.4
2025-08-31T0700,1447A,106.674,26.5424,贵阳市,太慈桥,,24,24,20,14,8,4,,,,12,15,4,4,0.2,0.2
2025-08-31T0700,1552A,106.805,26.3003,贵阳市,桐木岭,,29,29,31,12,16,6,,,,10,6,4,4,0.8,0.9
2025-08-31T0700,4230A,106.6882,26.5695,贵阳市,花果园大街66号,,33,,13,23,16,22,,,,11,15,3,3,0.4,0.4
2025-08-31T0700,4231A,106.6873,26.5169,贵阳市,漓江路57号,,34,34,23,19,15,2,,,,20,17,4,4,0.5,0.5
2025-08-31T0700,1862A,110.4144,25.3167,桂林市,电子科大尧山校区,,,,,,,,,,,,,,,,
2025-08-31T0700,1864A,110.3089,25.2708,桂林市,龙隐路小学,,37,37,28,22,18,16,,,,11,11,8,7,0.3,0.3
2025-08-31T0700,1865A,110.2869,25.2178,桂林市,八中,,35,35,27,16,12,6,,,,19,12,7,7,0.4,0.4
2025-08-31T0700,3531A,110.296,25.1253,桂林市,旅游学院,,24,24,17,9,10,3,,,,12,12,3,4,0.4,0.4
2025-08-31T0700,4222A,110.1835,25.2444,桂林市,环湖路276号,,27,27,31,12,19,11,,,,25,18,6,31,0.3,0.3
2025-08-31T0700,4301A,110.2803,25.2773,桂林市,信义路13号,,44,44,33,25,17,20,,,,15,15,12,8,0.6,0.6
2025-08-31T0700,2674A,100.2561,34.4714,果洛藏族自治州,玛沁县大武镇,,34,34,37,21,18,35,,,,3,7,18,16,0.6,0.5
2025-08-31T0700,1129A,126.5422,45.755,哈尔滨市,岭北,,,,,,,12,,,,21,14,16,15,0.7,0.7
2025-08-31T0700,1130A,126.561,45.8167,哈尔滨市,松北商大,颗粒物(PM10),52,53,31,23,12,38,,,,15,14,6,6,0.7,0.5
2025-08-31T0700,1131A,126.979,45.5419,哈尔滨市,阿城会宁,,36,36,31,24,21,23,,,,8,8,8,8,0.6,0.6
2025-08-31T0700,1132A,126.599,45.7222,哈尔滨市,南岗学府路,颗粒物(PM10),53,55,39,25,16,37,,,,26,17,8,8,0.8,0.7
2025-08-31T0700,1133A,126.689,45.7733,哈尔滨市,太平宏伟公园,颗粒物(PM10),54,57,38,27,16,33,,,,23,18,7,8,0.7,0.6
2025-08-31T0700,1134A,126.635,45.7667,哈尔滨市,道外承德广场,颗粒物(PM10),64,78,52,28,15,19,,,,30,20,7,7,0.7,0.5
2025-08-31T0700,1135A,126.685,45.7319,哈尔滨市,香坊红旗大街,细颗粒物(PM2.5),58,56,38,41,26,26,,,,28,28,13,12,0.7,0.6
2025-08-31T0700,1136A,126.6411,45.7258,哈尔滨市,动力和平路,,,80,41,,12,22,,,,31,22,7,6,0.7,0.6
2025-08-31T0700,1137A,126.593,45.7478,哈尔滨市,道里建国路,颗粒物(PM10),55,60,39,25,18,41,,,,24,17,8,8,1.8,0.9
2025-08-31T0700,1138A,126.615,45.61,哈尔滨市,平房东轻厂,,50,50,31,12,12,37,,,,10,10,7,7,0.6,0.5
2025-08-31T0700,1139A,126.595,45.9855,哈尔滨市,呼兰师专,,46,37,27,32,15,22,,,,29,17,10,10,0.7,0.5
2025-08-31T0700,1140A,126.6206,45.6842,哈尔滨市,省农科院,,44,44,51,30,21,21,,,,35,27,5,5,0.8,0.6
2025-08-31T0700,2688A,93.5128,42.8172,哈密市,地区监测站,颗粒物(PM10),72,94,71,22,26,40,,,,46,32,7,6,0.2,0.3
2025-08-31T0700,2689A,93.4961,42.8328,哈密市,哈密师范学校,颗粒物(PM10),64,78,76,22,28,29,,,,52,41,8,6,0.4,0.5
2025-08-31T0700,2671A,100.9048,36.9639,海北藏族自治州,海晏县西海镇,,20,17,18,14,11,41,,,,7,4,5,6,0.3,0.3
2025-08-31T0700,3867A,102.0738,36.5056,海东市,平安区公安北苑,,25,25,27,13,13,35,,,,4,6,7,11,0.6,0.7
2025-08-31T0700,1409A,110.576,19.9507,海口市,东寨港,,14,14,11,6,6,27,,,,3,2,8,8,0.3,0.3
2025-08-31T0700,1410A,110.3232,20.0574,海口市,海南大学,,12,12,14,3,5,36,,,,3,3,2,2,0.3,0.3
2025-08-31T0700,1411A,110.283,20.0053,海口市,秀英海南医院,,10,10,16,3,5,32,,,,4,6,6,6,0.2,0.3
2025-08-31T0700,1412A,110.338,19.9969,海口市,海南师范大学,,11,11,14,3,6,31,,,,4,4,4,4,0.4,0.3
2025-08-31T0700,1413A,110.33,20.0356,海口市,龙华路环保局宿舍,,11,10,13,6,8,33,,,,6,5,5,5,0.3,0.3
2025-08-31T0700,3539A,110.5111,19.9736,海口市,桂林洋子站,,16,16,15,3,5,29,,,,3,4,3,3,0.2,0.2
2025-08-31T0700,2673A,100.6188,36.2866,海南藏族自治州,共和县恰卜恰镇,,32,32,31,9,10,75,,,,3,8,14,10,0.5,0.4
2025-08-31T0700,2676A,97.3731,37.3753,海西蒙古族藏族自治州,德令哈市,,29,18,29,8,15,90,,,,2,3,8,8,0.3,0.4
2025-08-31T0700,1048A,114.5302,36.6116,邯郸市,东污水处理厂,,35,35,23,24,19,13,,,,37,11,6,8,0.4,0.3
2025-08-31T0700,1049A,114.4918,36.5713,邯郸市,矿院,,32,23,18,22,22,44,,,,19,13,5,4,0.5,0.4
2025-08-31T0700,1050A,114.484,36.6133,邯郸市,丛台公园,,25,,16,17,14,51,,,,20,13,7,6,0.5,0.4
2025-08-31T0700,3458A,114.7895,36.5593,邯郸市,香泉濮院小区,,40,40,32,20,14,36,,,,20,16,5,14,0.5,0.4
2025-08-31T0700,3579A,114.50634,36.77178,邯郸市,永年区实验高中,,37,37,29,16,14,26,,,,20,14,5,5,0.3,0.2
2025-08-31T0700,3580A,114.20016,36.44293,邯郸市,峰峰矿区临水派出所,,29,20,27,7,13,90,,,,9,13,8,8,0.6,0.6
2025-08-31T0700,2634A,106.9893,33.1842,汉中市,汉川机床厂子校,,14,14,16,3,9,38,,,,5,12,3,4,0.5,0.9
2025-08-31T0700,2635A,107.0154,33.0706,汉中市,市监测站,,10,10,14,3,6,26,,,,7,10,6,6,0.6,0.8
2025-08-31T0700,2636A,107.0089,33.1138,汉中市,鑫源开发区,,18,18,16,11,7,18,,,,13,15,7,6,0.6,0.8
2025-08-31T0700,2637A,107.007,33.0323,汉中市,南郑大河坎水厂,,17,17,12,3,7,20,,,,10,11,5,3,0.5,0.6
2025-08-31T0700,1223A,120.2072,30.2111,杭州市,滨江,,27,27,29,14,13,62,,,,22,18,7,8,0.4,0.4
2025-08-31T0700,1224A,120.0633,30.2747,杭州市,西溪,,21,21,23,10,15,44,,,,15,16,13,13,0.4,0.4
2025-08-31T0700,1226A,120.3417,30.3150,杭州市,下沙,,22,22,22,14,11,55,,,,17,15,8,7,0.3,0.3
2025-08-31T0700,1227A,120.1269,30.2456,杭州市,卧龙桥,,20,20,25,9,14,41,,,,11,11,8,8,0.6,0.5
2025-08-31T0700,1228A,120.1903,30.2692,杭州市,浙江农大,,28,19,35,19,15,46,,,,20,25,6,6,0.5,0.5
2025-08-31T0700,1230A,120.1197,30.3119,杭州市,和睦小学,,23,20,24,12,12,72,,,,10,12,6,6,0.5,0.4
2025-08-31T0700,1231A,120.3019,30.4183,杭州市,临平镇,细颗粒物(PM2.5),70,,34,51,31,63,,,,12,10,7,6,0.7,0.6
2025-08-31T0700,1232A,120.2753,30.1839,杭州市,城厢镇,,26,21,26,18,14,63,,,,11,12,10,9,0.6,0.5
2025-08-31T0700,1233A,120.0883,30.1808,杭州市,云栖,,23,23,24,12,10,28,,,,24,18,10,10,0.7,0.6
2025-08-31T0700,3557A,119.9464,30.0494,杭州市,镇二中,,19,17,24,13,15,50,,,,19,15,4,5,0.7,0.6
2025-08-31T0700,3558A,119.7183,30.2367,杭州市,市府大楼,,22,17,24,15,16,46,,,,16,12,8,8,0.4,0.3
2025-08-31T0700,3656A,120.1556,30.2864,杭州市,消防大队,,24,24,26,16,16,62,,,,15,15,7,7,0.5,0.5
2025-08-31T0700,1270A,117.1959,31.7848,合肥市,明珠广场,,10,6,9,3,6,28,,,,19,10,6,6,0.4,0.5
2025-08-31T0700,1271A,117.3072,31.8764,合肥市,三里街,,12,7,14,3,7,36,,,,11,9,4,4,0.4,0.5
2025-08-31T0700,1272A,117.2588,31.8707,合肥市,琥珀山庄,,14,7,14,6,8,43,,,,12,8,8,7,0.5,0.5
2025-08-31T0700,1273A,117.1604,31.9052,合肥市,董铺水库,,13,9,9,3,6,40,,,,4,4,4,4,0.1,0.2
2025-08-31T0700,1274A,117.25,31.8571,合肥市,长江中路,,14,14,15,3,4,34,,,,15,8,7,7,0.4,0.4
2025-08-31T0700,1275A,117.266,31.9436,合肥市,庐阳区,,13,12,14,3,5,40,,,,12,9,5,5,0.4,0.4
2025-08-31T0700,1276A,117.3453,31.8616,合肥市,瑶海区,,14,7,17,3,6,42,,,,11,12,7,7,0.4,0.4
2025-08-31T0700,1277A,117.3027,31.7964,合肥市,包河区,,15,,13,7,5,19,,,,30,11,9,9,0.5,0.5
2025-08-31T0700,1278A,117.2776,31.7385,合肥市,滨湖新区,,20,,13,14,12,29,,,,20,11,4,4,0.5,0.5
2025-08-31T0700,1279A,117.1318,31.8403,合肥市,高新区,,13,7,11,3,7,40,,,,15,9,5,5,0.5,0.5
2025-08-31T0700,3464A,117.3803,31.9147,合肥市,高教基地,,9,9,12,3,7,23,,,,3,3,4,5,0.3,0.4
2025-08-31T0700,3614A,79.924,37.0877,和田地区,地区环保局,颗粒物(PM10),79,107,125,21,29,96,,,,1,8,3,3,0.0,0.1
2025-08-31T0700,3615A,79.9131,37.113,和田地区,市环保局,颗粒物(PM10),56,62,94,13,24,93,,,,8,21,2,2,0.3,0.3
2025-08-31T0700,2516A,108.2011,24.715,河池市,东仁乐园,,,,,,,,,,,,,,,,
2025-08-31T0700,2517A,108.0497,24.6947,河池市,市环保站,,15,15,20,10,11,15,,,,11,11,4,5,0.6,0.5
2025-08-31T0700,2518A,108.0983,24.6989,河池市,市疾控中心,,25,25,23,12,13,11,,,,15,16,6,7,0.6,0.6
2025-08-31T0700,1696A,114.6778,23.7569,河源市,源西,,25,25,20,7,7,0,,,,19,15,5,5,0.8,0.8
2025-08-31T0700,1697A,114.6944,23.7586,河源市,东埔,,24,24,20,9,9,2,,,,17,14,5,4,0.8,0.7
2025-08-31T0700,1698A,114.6892,23.7233,河源市,老城,,18,18,21,10,9,4,,,,10,11,5,5,0.7,0.7
2025-08-31T0700,1718A,115.4208,35.2464,菏泽市,气象局,,,,38,,24,,,108,,,9,,5,,0.5
2025-08-31T0700,3374A,115.5564,35.0891,菏泽市,定陶老年大学,,31,6,32,3,14,99,,,,3,10,3,6,0.3,0.5
2025-08-31T0700,4184A,115.4797,35.24401,菏泽市,永昌路1号,,35,7,32,6,24,112,,,,1,6,6,10,0.3,0.4
2025-08-31T0700,4193A,115.4715,35.2800,菏泽市,长城路999号,,33,8,33,3,17,103,,,,6,11,8,10,0.2,0.4
2025-08-31T0700,2514A,111.5264,24.4172,贺州市,环保小区,,29,29,25,17,14,16,,,,17,10,15,14,0.6,0.5
2025-08-31T0700,2515A,111.5608,24.4078,贺州市,政协大楼,,,,19,,14,,,69,,,10,,10,,0.7
2025-08-31T0700,3534A,111.4744,24.4553,贺州市,西湾,,23,23,33,16,16,16,,,,12,11,11,10,0.5,0.4
2025-08-31T0700,2385A,114.17,35.9019,鹤壁市,市监测站,,30,30,32,14,18,59,,,,2,7,5,10,0.9,0.9
2025-08-31T0700,2386A,114.2956,35.7511,鹤壁市,市交警支队,,33,33,29,19,24,54,,,,8,12,8,9,1.2,0.8
2025-08-31T0700,2387A,114.2878,35.7306,鹤壁市,迎宾馆,,43,31,37,30,21,53,,,,8,10,4,6,1.1,0.9
2025-08-31T0700,3474A,114.2617,35.6822,鹤壁市,大新区,,23,23,34,16,19,48,,,,8,9,7,9,1.0,0.9
2025-08-31T0700,3596A,114.1572,35.9603,鹤壁市,南山宾馆,,34,34,29,10,19,69,,,,6,8,5,8,0.4,0.6
2025-08-31T0700,2244A,130.2537,47.3416,鹤岗市,哈啤分公司,,23,23,28,14,11,28,,,,9,8,12,12,0.4,0.4
2025-08-31T0700,2245A,130.2684,47.3086,鹤岗市,斯达机电,,36,36,29,6,10,32,,,,13,10,12,12,0.4,0.3
2025-08-31T0700,2246A,130.3114,47.3388,鹤岗市,东山纸板厂,,49,49,31,21,18,20,,,,21,15,14,14,1.2,0.8
2025-08-31T0700,2247A,130.1097,47.3382,鹤岗市,五号水库,,18,6,12,3,6,24,,,,35,36,6,6,0.3,0.2
2025-08-31T0700,2263A,127.4833,50.2524,黑河市,交通局,,23,23,22,14,15,9,,,,8,10,6,6,0.3,0.3
2025-08-31T0700,2264A,127.5144,50.2341,黑河市,环保局,,18,18,21,10,10,17,,,,8,9,5,5,0.3,0.2
2025-08-31T0700,2265A,127.5291,50.2472,黑河市,大黑河岛,,,,,2,5,16,,,,2,2,23,25,0.4,0.4
2025-08-31T0700,1074A,115.6838,37.7541,衡水市,电机北厂,,36,36,28,9,12,59,,,,10,11,9,5,0.4,0.3
2025-08-31T0700,1075A,115.6303,37.7316,衡水市,市监测站,,44,44,33,13,7,56,,,,9,8,6,5,0.5,0.5
2025-08-31T0700,3188A,115.6683,37.7217,衡水市,市城管局,,37,37,26,19,12,59,,,,7,9,6,5,0.4,0.3
2025-08-31T0700,3459A,115.5989,37.5491,衡水市,地表水厂,,25,24,30,17,12,29,,,,14,13,4,2,0.2,0.2
2025-08-31T0700,2456A,112.5003,26.9167,衡阳市,原169医院,,28,28,24,12,11,20,,,,4,5,3,3,0.5,0.5
2025-08-31T0700,2457A,112.6194,26.9258,衡阳市,衡阳化工总厂,,40,40,30,18,17,13,,,,12,10,4,4,0.8,0.8
2025-08-31T0700,2458A,112.6211,26.8956,衡阳市,珠晖区环保局,,20,20,25,12,13,17,,,,18,12,8,8,0.9,0.9
2025-08-31T0700,2459A,112.6197,26.8733,衡阳市,市委党校,,18,18,18,9,10,18,,,,18,9,14,12,0.7,0.5
2025-08-31T0700,2460A,112.6006,26.8919,衡阳市,市监测站,,25,25,25,11,14,12,,,,18,10,2,3,0.8,0.7
2025-08-31T0700,2461A,112.5664,26.9056,衡阳市,真空机电公司,,21,21,23,13,14,11,,,,15,7,5,5,0.9,0.8
2025-08-31T0700,3399A,112.6703,26.882,衡阳市,师范学院,,21,21,28,12,13,19,,,,13,8,10,9,0.8,0.7
2025-08-31T0700,2608A,103.3772,23.3993,红河哈尼族彝族自治州,污水处理厂,,23,23,24,10,19,31,,,,9,8,9,18,0.2,0.2
2025-08-31T0700,2609A,103.3861,23.35,红河哈尼族彝族自治州,监测站,,26,26,34,11,13,38,,,,4,8,10,21,0.1,0.2
2025-08-31T0700,3038A,103.3758,23.368,红河哈尼族彝族自治州,州图书馆,,30,,19,21,21,42,,,,4,7,2,14,0.2,0.3
2025-08-31T0700,1090A,111.6507,40.7517,呼和浩特市,呼市一监,,48,36,47,33,16,18,,,,19,21,2,3,0.7,0.7
2025-08-31T0700,1091A,111.6572,40.8033,呼和浩特市,小召,,43,36,45,30,27,39,,,,22,25,5,6,0.7,0.5
2025-08-31T0700,1094A,111.7516,40.8369,呼和浩特市,如意水处理厂,颗粒物(PM10),52,53,40,27,23,12,,,,38,26,6,7,0.8,0.5
2025-08-31T0700,1095A,111.7276,40.8062,呼和浩特市,二十九中,,48,33,44,33,27,32,,,,22,20,6,7,1.2,0.8
2025-08-31T0700,1096A,111.5512,40.7866,呼和浩特市,工大金川校区,,45,45,52,28,23,14,,,,34,33,5,6,0.6,0.6
2025-08-31T0700,1097A,111.717,40.7612,呼和浩特市,化肥厂生活区,,48,48,44,26,26,27,,,,30,23,6,7,0.9,0.5
2025-08-31T0700,3698A,111.5968,40.8178,呼和浩特市,红旗小学,,41,41,49,26,23,29,,,,32,33,4,4,0.4,0.3
2025-08-31T0700,3699A,111.6518,40.8389,呼和浩特市,海东办,颗粒物(PM10),56,61,53,28,23,23,,,,38,34,5,7,0.7,0.7
2025-08-31T0700,2192A,119.7594,49.2261,呼伦贝尔市,区环保局,,21,,22,12,16,65,,,,12,10,4,5,0.5,0.4
2025-08-31T0700,3061A,119.7512,49.1577,呼伦贝尔市,国华电力东,,23,,15,13,9,72,,,,3,3,5,6,0.2,0.2
2025-08-31T0700,1250A,120.0751,30.8669,湖州市,城西水厂,,,18,26,12,15,,,,,27,16,9,8,0.4,0.4
2025-08-31T0700,2873A,120.0830,30.8929,湖州市,仁皇山新区,,21,21,27,14,16,41,,,,21,14,7,5,0.4,0.4
2025-08-31T0700,2907A,120.1844,30.8596,湖州市,吴兴区站,,19,19,25,9,14,47,,,,9,10,8,8,0.5,0.5
2025-08-31T0700,3562A,120.4148,30.8538,湖州市,南浔区站,,28,24,25,19,15,44,,,,14,11,8,7,0.7,0.6
2025-08-31T0700,1607A,120.9049,40.7211,葫芦岛市,龙港区,颗粒物(PM10),56,61,62,24,22,27,,,,18,12,4,13,0.6,0.7
2025-08-31T0700,1608A,120.8392,40.7514,葫芦岛市,化工街,,27,22,30,14,18,21,,,,54,26,6,9,0.6,0.7
2025-08-31T0700,1609A,120.8341,40.7073,葫芦岛市,新区,,43,,30,30,26,30,,,,35,16,4,9,0.8,0.9
2025-08-31T0700,1610A,120.8695,40.7677,葫芦岛市,东城区,细颗粒物(PM2.5),53,,33,37,29,21,,,,49,26,4,10,0.7,0.9
2025-08-31T0700,2482A,109.5981,27.5721,怀化市,林科所,,31,31,25,3,7,4,,,,10,6,4,4,0.6,0.5
2025-08-31T0700,2483A,109.9453,27.5444,怀化市,河西地税局,,31,31,28,14,17,6,,,,9,11,2,3,0.2,0.2
2025-08-31T0700,2484A,109.9781,27.5342,怀化市,市四医院,,36,36,31,18,22,5,,,,13,8,6,6,0.1,0.1
2025-08-31T0700,2485A,109.9972,27.5578,怀化市,监测楼,,41,41,33,21,18,2,,,,15,10,6,6,0.2,0.2
2025-08-31T0700,2486A,110.0394,27.583,怀化市,市委党校,,24,24,30,14,19,3,,,,11,11,4,8,0.3,0.3
2025-08-31T0700,1210A,119.036,33.5981,淮安市,钵池山,,19,,14,11,14,59,,,,7,13,5,5,0.4,0.6
2025-08-31T0700,1211A,119.007,33.575,淮安市,北京南路,,17,12,21,3,14,53,,,,12,17,9,9,0.4,0.6
2025-08-31T0700,1212A,118.989,33.6067,淮安市,市监测站,,18,12,23,3,13,56,,,,15,20,13,11,0.9,0.6
2025-08-31T0700,1213A,119.135,33.5039,淮安市,楚州区监测站,,18,7,27,3,13,55,,,,11,12,7,7,0.4,0.6
2025-08-31T0700,3426A,118.8755,33.2894,淮安市,新华书店,,14,12,18,3,11,44,,,,10,13,6,7,0.7,0.8
2025-08-31T0700,4206A,119.0288,33.6319,淮安市,承德北路606号,,19,,23,9,16,58,,,,11,16,10,8,0.4,0.5
2025-08-31T0700,2282A,116.8004,33.975,淮北市,监测站,细颗粒物(PM2.5),53,,28,37,19,72,,,,10,8,7,6,0.9,0.8
2025-08-31T0700,2283A,116.8091,33.9007,淮北市,烈山区政府,,40,40,35,13,12,61,,,,10,7,8,8,0.6,0.6
2025-08-31T0700,3330A,116.8873,33.9836,淮北市,杜集区检察院,细颗粒物(PM2.5),55,43,31,39,21,65,,,,6,3,9,8,0.8,0.7
2025-08-31T0700,4017A,116.7923,33.9535,淮北市,市博物馆,,46,,27,32,20,68,,,,11,7,8,7,0.7,0.6
2025-08-31T0700,2277A,116.8305,32.7727,淮南市,潘集区政府,,15,,14,8,13,45,,,,7,8,4,4,0.2,0.3
2025-08-31T0700,2279A,116.8569,32.5951,淮南市,谢家集区政府,,21,21,16,3,7,40,,,,5,5,6,6,0.1,0.2
2025-08-31T0700,2280A,116.8281,32.633,淮南市,八公山区政府,,12,11,12,3,9,38,,,,8,5,7,7,0.1,0.2
2025-08-31T0700,2281A,116.6325,32.6201,淮南市,焦岗湖风景区管理处,,,,,,,,,,,,,,,,
2025-08-31T0700,2894A,117.0566,32.6531,淮南市,经济技术开发区消防队,,,,10,,4,,,84,,,9,,9,,0.2
2025-08-31T0700,3329A,117.0108,32.5893,淮南市,山南新区,,15,,7,9,6,47,,,,6,4,4,4,0.2,0.4
2025-08-31T0700,4209A,117.0031,32.6445,淮南市,国庆中路369号,,20,20,15,3,10,52,,,,4,5,4,4,0.3,0.4
2025-08-31T0700,2446A,114.9028,30.4742,黄冈市,职工中心,,,,16,,12,,,77,,,7,,10,,0.4
2025-08-31T0700,2929A,114.8858,30.4519,黄冈市,红卫路,,20,20,21,14,15,20,,,,19,12,9,7,0.6,0.4
2025-08-31T0700,3398A,114.9136,30.4445,黄冈市,市林业局,,23,23,25,12,16,18,,,,18,10,12,8,0.4,0.4
2025-08-31T0700,2672A,102.0199,35.5102,黄南藏族自治州,同仁县隆务镇,,22,22,25,7,8,56,,,,2,4,9,9,0.2,0.2
2025-08-31T0700,2295A,118.2903,29.6963,黄山市,延安路89号,,17,17,26,3,9,32,,,,5,5,4,4,0.3,0.3
2025-08-31T0700,2297A,118.1371,30.2756,黄山市,黄山区政府5号楼,,31,31,22,3,9,25,,,,4,4,4,4,0.4,0.4
2025-08-31T0700,4210A,118.3354,29.7203,黄山市,滨江东路7-2号,,18,18,27,6,9,37,,,,7,7,2,3,0.3,0.3
2025-08-31T0700,2423A,115.0601,30.2313,黄石市,沈家营,,46,46,42,13,10,8,,,,11,9,8,8,0.4,0.4
2025-08-31T0700,2426A,114.8988,30.2019,黄石市,铁山,,33,25,28,23,13,5,,,,21,9,6,6,0.8,0.8
2025-08-31T0700,2427A,115.0307,30.2092,黄石市,团城山,,30,30,28,3,7,0,,,,24,15,7,7,0.6,0.5
2025-08-31T0700,3149A,115.0235,30.1578,黄石市,笔架山北路,,48,48,29,7,9,11,,,,6,6,6,6,0.3,0.6
2025-08-31T0700,4185A,115.0780,30.21118,黄石市,磁湖东路29号,,43,43,44,10,13,6,,,,30,18,9,9,0.7,0.7
2025-08-31T0700,1392A,114.4183,23.0528,惠州市,河南岸金山湖子站,,18,18,16,6,7,10,,,,17,10,8,8,0.5,0.5
2025-08-31T0700,1393A,114.4053,23.0822,惠州市,下埔横江三路子站,,23,23,16,10,7,10,,,,16,8,13,6,0.5,0.3
2025-08-31T0700,1394A,114.4103,23.1142,惠州市,江北云山西路子站,,22,22,18,9,8,11,,,,18,9,12,9,0.5,0.5
2025-08-31T0700,1395A,114.4645,22.7833,惠州市,惠阳区承修路船湖子站,,24,24,15,11,7,11,,,,18,9,8,7,0.4,0.4
2025-08-31T0700,1396A,114.5317,22.7422,惠州市,大亚湾管委会子站,,13,13,16,3,5,17,,,,19,8,8,8,0.5,0.4
2025-08-31T0700,3314A,114.4338,22.8134,惠州市,惠阳秋长,,17,17,16,7,8,19,,,,16,9,9,5,0.5,0.5
2025-08-31T0700,3452A,114.6517,22.775,惠州市,大亚湾霞涌,,10,10,13,3,6,17,,,,11,8,5,6,0.6,0.5
2025-08-31T0700,2240A,130.9762,45.3001,鸡西市,环保局,,24,24,27,13,13,14,,,,21,16,7,7,0.8,0.7
2025-08-31T0700,2243A,130.9429,45.3039,鸡西市,第一中学,,29,29,20,12,11,11,,,,16,11,9,9,0.8,0.7
2025-08-31T0700,3707A,131.0207,45.3073,鸡西市,欧美日汽修厂,,49,49,32,13,14,8,,,,20,17,8,8,0.9,0.7
2025-08-31T0700,3709A,130.9967,45.3106,鸡西市,市政设施管理处,,36,36,35,11,12,11,,,,24,21,8,7,0.8,0.7
2025-08-31T0700,2367A,114.9754,27.0803,吉安市,红声器材厂,,29,29,28,19,12,27,,,,10,6,9,9,1.1,0.9
2025-08-31T0700,2368A,114.9658,27.0999,吉安市,市森林工业局,,33,33,26,20,13,22,,,,10,6,9,9,0.7,0.6
2025-08-31T0700,2369A,114.99,27.1312,吉安市,市环境监测站,,24,24,23,11,13,25,,,,10,5,17,13,0.6,0.5
2025-08-31T0700,2370A,115.0093,27.0968,吉安市,青原区法院,,35,35,26,18,13,22,,,,10,7,8,9,0.7,0.6
2025-08-31T0700,1772A,126.54,43.8622,吉林市,哈达湾,,37,37,31,21,19,13,,,,23,13,7,7,0.5,0.5
2025-08-31T0700,1773A,126.5844,43.8358,吉林市,东局子,,42,31,27,29,27,20,,,,14,12,6,6,0.9,0.9
2025-08-31T0700,1774A,126.5052,43.8245,吉林市,电力学院,,40,40,41,27,27,3,,,,15,15,8,6,0.8,0.8
2025-08-31T0700,1775A,126.6133,43.8972,吉林市,江北,,28,28,27,19,19,8,,,,11,8,5,5,0.8,0.7
2025-08-31T0700,1776A,126.555,43.8306,吉林市,江南公园,,36,36,32,19,21,16,,,,15,11,3,2,0.5,0.5
2025-08-31T0700,1778A,126.7061,43.7133,吉林市,丰满,,33,27,25,23,18,39,,,,3,4,5,5,0.7,0.7
2025-08-31T0700,2868A,126.4739,43.953,吉林市,九站,,35,35,36,20,16,12,,,,25,20,11,7,0.6,0.6
2025-08-31T0700,1299A,116.9862,36.6114,济南市,科干所,,23,7,37,7,23,72,,,,11,23,5,8,0.6,0.7
2025-08-31T0700,1300A,116.9376,36.665,济南市,农科所,,27,10,32,7,19,85,,,,12,22,7,9,0.4,0.6
2025-08-31T0700,1301A,117.1265,36.6734,济南市,开发区,,26,,32,7,22,83,,,,8,20,7,9,0.6,0.7
2025-08-31T0700,1303A,117.0624,36.6868,济南市,省种子仓库,,25,9,38,9,17,78,,,,11,18,4,6,0.6,0.7
2025-08-31T0700,1304A,116.9489,36.6447,济南市,机床二厂,,25,,36,12,19,80,,,,10,20,8,11,0.4,0.6
2025-08-31T0700,1305A,117.0495,36.663,济南市,市监测站,,23,7,34,7,21,72,,,,11,21,9,11,0.7,0.9
2025-08-31T0700,1306A,116.7675,36.5484,济南市,长清党校,,27,,33,17,22,84,,,,14,24,5,7,0.7,0.8
2025-08-31T0700,1616A,117.6795,36.229,济南市,技术学院,,20,,34,14,27,60,,,,10,18,12,11,0.9,1
2025-08-31T0700,1961A,117.532,36.6868,济南市,东山小学,,27,,29,7,16,85,,,,13,17,6,6,0.5,0.5
2025-08-31T0700,3059A,117.7161,36.2049,济南市,泰兴公司,,32,27,36,22,24,52,,,,10,22,12,11,0.8,0.8
2025-08-31T0700,3064A,117.6867,36.2171,济南市,莱芜战役纪念馆,,25,24,35,17,27,48,,,,12,18,8,7,0.8,0.9
2025-08-31T0700,3494A,117.1673,36.9782,济南市,济阳区政府,,27,10,29,7,13,86,,,,9,12,6,8,0.3,0.4
2025-08-31T0700,3495A,117.1171,36.63,济南市,锦屏中学,,26,6,32,3,16,82,,,,5,17,8,10,0.7,0.8
2025-08-31T0700,3682A,116.9814,36.6819,济南市,济南四建,,27,,27,10,19,85,,,,8,17,4,6,0.6,0.8
2025-08-31T0700,1653A,116.6251,35.4302,济宁市,火炬城,,45,45,52,27,28,43,,,,7,10,4,4,0.4,0.5
2025-08-31T0700,1655A,116.5491,35.4042,济宁市,电化厂,,44,44,53,24,29,45,,,,10,13,2,4,0.9,1
2025-08-31T0700,3500A,116.5814,35.3707,济宁市,北湖一中,,40,40,49,27,27,50,,,,5,9,6,7,0.5,0.6
2025-08-31T0700,3501A,116.8249,35.5593,济宁市,服务中心,,30,,33,21,13,33,,,,12,12,2,3,0.4,0.4
2025-08-31T0700,3678A,116.5907,35.4054,济宁市,市第七中学,,38,38,50,24,23,48,,,,7,10,4,6,0.5,0.7
2025-08-31T0700,2255A,130.2751,46.8028,佳木斯市,佳纺,,40,40,20,15,10,37,,,,14,11,10,10,0.6,0.5
2025-08-31T0700,2256A,130.3995,46.8307,佳木斯市,发电厂,,28,28,22,15,11,35,,,,16,11,7,7,0.7,0.7
2025-08-31T0700,2257A,130.3258,46.7975,佳木斯市,环保局,,26,22,21,18,11,44,,,,14,11,8,8,0.6,0.5
2025-08-31T0700,2258A,130.3648,46.8032,佳木斯市,十一中,,32,32,25,20,14,26,,,,26,16,8,7,0.7,0.7
2025-08-31T0700,2259A,130.3794,46.7588,佳木斯市,四丰,,,12,9,8,6,,,,,8,9,204,9,0.5,0.4
2025-08-31T0700,1252A,120.7436,30.778,嘉兴市,清河小学,,43,43,22,9,6,31,,,,18,12,6,6,0.9,0.7
2025-08-31T0700,1253A,120.726,30.7478,嘉兴市,嘉兴学院,,26,20,18,18,9,32,,,,17,10,7,5,0.7,0.5
2025-08-31T0700,2872A,120.7846,30.7525,嘉兴市,南湖区残联,,24,24,20,12,9,21,,,,19,13,7,6,0.6,0.6
2025-08-31T0700,3407A,120.6916,30.7739,嘉兴市,秀洲住建,,29,29,20,18,10,45,,,,15,13,7,7,0.7,0.5
2025-08-31T0700,1945A,98.2908,39.7711,嘉峪关市,气象局,颗粒物(PM10),52,53,69,9,15,96,,,,2,14,8,19,0.4,0.7
2025-08-31T0700,2884A,98.2672,39.7978,嘉峪关市,酒钢宾馆,颗粒物(PM10),54,58,81,17,20,102,,,,5,12,18,27,0.5,0.7
2025-08-31T0700,3248A,98.2643,39.7724,嘉峪关市,雄关区,,45,45,54,18,17,87,,,,9,17,10,16,0.4,0.5
2025-08-31T0700,1383A,113.1064,22.6058,江门市,北街,,12,12,20,6,7,6,,,,24,17,4,4,0.4,0.4
2025-08-31T0700,1384A,113.0731,22.5835,江门市,西区,,12,,18,8,8,15,,,,19,16,8,8,0.3,0.4
2025-08-31T0700,1385A,113.0219,22.5311,江门市,圭峰西,,12,12,22,3,7,16,,,,14,13,3,3,0.3,0.4
2025-08-31T0700,1386A,113.0828,22.5947,江门市,东湖,,10,10,16,3,8,8,,,,17,15,5,6,0.4,0.4
2025-08-31T0700,3311A,113.1075,22.5647,江门市,江海富民,,24,24,28,6,9,8,,,,21,16,4,4,0.3,0.2
2025-08-31T0700,3449A,113.05,22.4667,江门市,新会银湖,,20,20,20,9,10,1,,,,20,15,2,2,0.4,0.3
2025-08-31T0700,1830A,113.1992,35.2590,焦作市,影视城,,42,38,31,29,18,41,,,,12,9,8,9,0.8,0.8
2025-08-31T0700,3335A,113.3137,35.2641,焦作市,马村街道办,,46,42,43,32,29,41,,,,11,11,3,4,0.6,0.7
2025-08-31T0700,3336A,113.2465,35.2373,焦作市,焦作技师学院,,34,34,51,17,21,40,,,,14,14,5,9,0.8,0.9
2025-08-31T0700,3477A,113.1656,35.2539,焦作市,中站许衡医院,细颗粒物(PM2.5),64,51,38,46,31,48,,,,16,14,8,8,0.9,0.8
2025-08-31T0700,3981A,113.2449,35.1803,焦作市,原李万街道办,,44,44,39,22,19,38,,,,10,11,10,12,0.5,0.7
2025-08-31T0700,4264A,113.2340,35.2190,焦作市,新安路1731号,,35,35,42,24,28,41,,,,11,11,3,6,0.8,0.8
2025-08-31T0700,4295A,113.2722,35.2121,焦作市,人民路3066号,,36,32,41,25,28,34,,,,10,10,1,4,0.4,0.5
2025-08-31T0700,1708A,116.3701,23.5345,揭阳市,新兴,,21,21,23,13,12,8,,,,17,11,8,6,0.5,0.4
2025-08-31T0700,1709A,116.3264,23.5443,揭阳市,西马,,24,24,29,15,12,9,,,,14,10,3,4,0.5,0.4
2025-08-31T0700,1710A,116.3611,23.5626,揭阳市,东兴,,33,33,27,14,10,5,,,,20,10,12,8,0.6,0.4
2025-08-31T0700,1711A,116.4151,23.5294,揭阳市,渔湖,,35,31,26,24,12,5,,,,16,7,9,9,0.8,0.6
2025-08-31T0700,3320A,116.403,23.5699,揭阳市,曲溪,,18,18,24,10,10,11,,,,14,8,3,2,0.7,0.6
2025-08-31T0700,1944A,102.1692,38.5167,金昌市,天庆家园,,46,46,41,16,14,44,,,,28,16,6,30,0.8,0.9
2025-08-31T0700,4022A,102.1647,38.5371,金昌市,金川区人防中心,,41,41,39,22,14,48,,,,15,12,11,15,0.8,0.5
2025-08-31T0700,4239A,102.1930,38.5319,金昌市,长春路96号,颗粒物(PM10),53,56,40,20,11,42,,,,28,12,58,16,0.6,0.6
2025-08-31T0700,1262A,119.647,29.077,金华市,十五中,,24,24,26,9,12,38,,,,21,14,8,5,0.6,0.4
2025-08-31T0700,1263A,119.686,29.1029,金华市,监测站,,44,44,27,17,12,32,,,,21,14,5,4,0.5,0.4
2025-08-31T0700,3659A,119.656,29.1131,金华市,气象局,,23,23,24,10,10,46,,,,26,15,9,4,0.7,0.4
2025-08-31T0700,1767A,121.1115,41.0879,锦州市,南山,,33,,31,23,27,20,,,,13,15,3,5,0.6,0.7
2025-08-31T0700,1768A,121.0604,40.8428,锦州市,开发区,,35,30,40,24,20,10,,,,61,29,6,7,0.8,0.8
2025-08-31T0700,1769A,121.1836,41.1119,锦州市,百股街道,,32,29,34,22,22,10,,,,23,14,4,9,0.9,0.8
2025-08-31T0700,1770A,121.1178,41.1222,锦州市,天安街道,,42,31,35,29,25,14,,,,43,21,8,9,1.4,0.9
2025-08-31T0700,1771A,121.1303,41.1386,锦州市,北湖公园,,36,34,36,25,24,29,,,,16,13,8,5,1.5,0.9
2025-08-31T0700,2160A,112.85,35.5051,晋城市,自来水公司,,35,32,35,24,16,22,,,,19,18,2,3,0.6,0.6
2025-08-31T0700,2161A,112.8318,35.4936,晋城市,白云商贸,,33,33,34,22,12,30,,,,16,16,2,3,0.7,0.6
2025-08-31T0700,2162A,112.8508,35.4887,晋城市,市环保局,,28,26,26,19,16,29,,,,15,15,2,3,0.7,0.7
2025-08-31T0700,2163A,112.8676,35.4897,晋城市,技术学院,,30,30,27,17,10,25,,,,19,15,3,4,0.9,0.9
2025-08-31T0700,2165A,112.8453,35.546,晋城市,白马寺,,35,25,21,24,18,54,,,,6,8,6,8,0.7,0.8
2025-08-31T0700,3620A,112.8271,35.4828,晋城市,泽州一中,,31,31,33,17,13,40,,,,14,14,2,2,1.0,1
2025-08-31T0700,2173A,112.7249,37.7067,晋中市,南都小区,细颗粒物(PM2.5),104,95,73,78,45,43,,,,19,19,23,16,1.5,1.2
2025-08-31T0700,2174A,112.6991,37.6982,晋中市,榆次区政府,细颗粒物(PM2.5),77,95,73,56,36,34,,,,18,19,12,13,1.3,1
2025-08-31T0700,2865A,112.7195,37.6828,晋中市,榆次三中,细颗粒物(PM2.5),85,100,73,63,42,43,,,,16,18,25,18,1.8,1.2
2025-08-31T0700,4200A,112.7478,37.6954,晋中市,迎宾街26号,细颗粒物(PM2.5),83,88,72,61,37,44,,,,17,20,21,17,1.6,1.2
2025-08-31T0700,2439A,112.2014,31.0481,荆门市,竹园小学,,27,27,28,18,17,68,,,,7,9,2,2,0.7,0.8
2025-08-31T0700,2440A,112.1969,30.9891,荆门市,掇刀,,30,30,27,19,18,88,,,,19,10,2,2,0.7,0.6
2025-08-31T0700,2441A,112.2213,31.0386,荆门市,石化一小,,38,,29,26,19,69,,,,12,11,4,4,0.5,0.5
2025-08-31T0700,3012A,112.1849,31.0362,荆门市,西山林语,,26,26,26,14,14,74,,,,6,7,1,2,0.5,0.5
2025-08-31T0700,3547A,112.1632,31.0138,荆门市,龙泉中学南校,,33,,22,23,14,74,,,,9,7,1,2,0.8,0.8
2025-08-31T0700,1844A,112.2494,30.3197,荆州市,市图书馆,,13,,21,9,15,28,,,,22,12,4,4,0.2,0.3
2025-08-31T0700,1845A,112.2008,30.3544,荆州市,市委党校,,18,18,22,3,17,32,,,,13,8,5,6,0.6,0.6
2025-08-31T0700,3194A,112.2747,30.3122,荆州市,管委会,,26,,19,18,21,35,,,,14,11,1,2,0.5,0.5
2025-08-31T0700,4268A,112.1722,30.3366,荆州市,学苑路85号,,19,,22,13,17,33,,,,18,16,5,6,0.3,0.4
2025-08-31T0700,2342A,117.3102,29.3867,景德镇市,王港中学,,,,,,,,,,,,,,,,
2025-08-31T0700,2343A,117.2117,29.2933,景德镇市,老干部活动中心,,19,18,22,13,15,15,,,,12,10,6,8,0.6,0.7
2025-08-31T0700,2344A,117.1894,29.2789,景德镇市,兽医站,,20,20,27,10,16,11,,,,16,10,9,6,0.8,0.8
2025-08-31T0700,2346A,117.2461,29.2956,景德镇市,陶研所,,18,18,23,10,15,13,,,,10,9,6,8,0.7,0.7
2025-08-31T0700,4289A,117.1542,29.2566,景德镇市,青少年活动中心,,18,18,28,12,18,16,,,,14,15,8,11,0.6,0.6
2025-08-31T0700,1803A,115.9872,29.6815,九江市,十里,,,,19,,17,,,75,,,14,,5,,0.6
2025-08-31T0700,1804A,115.9584,29.7046,九江市,茅山头,,9,9,22,3,15,15,,,,9,12,4,4,0.4,0.4
2025-08-31T0700,1805A,115.9877,29.7295,九江市,西园,,8,8,20,3,9,24,,,,15,19,5,4,0.7,0.6
2025-08-31T0700,1808A,115.9114,29.6038,九江市,综合工业园,,27,27,22,6,12,12,,,,20,23,6,7,0.7,0.7
2025-08-31T0700,1809A,116.0721,29.7535,九江市,石化总厂,,,12,20,,21,21,,,,20,17,6,5,0.4,0.5
2025-08-31T0700,1810A,115.9773,29.5698,九江市,庐山气象台,,,,15,,9,,,88,,,5,,6,,0.9
2025-08-31T0700,3190A,116.0254,29.6994,九江市,外国语学校,,20,20,19,8,16,16,,,,16,16,2,3,0.2,0.2
2025-08-31T0700,4253A,116.0102,29.6594,九江市,莲花大道8号,,23,,15,16,17,13,,,,11,7,5,6,0.5,0.5
2025-08-31T0700,4240A,98.4958,39.7339,酒泉市,玉门东路5号,颗粒物(PM10),51,51,84,26,29,53,,,,13,13,7,11,0.3,0.3
2025-08-31T0700,4241A,98.5099,39.7506,酒泉市,北大街108号,,46,46,88,19,23,43,,,,18,14,12,15,0.4,0.4
2025-08-31T0700,2698A,76.0072,39.4467,喀什地区,巡警大队,颗粒物(PM10),73,96,135,19,60,121,,,,17,36,3,4,0.2,0.4
2025-08-31T0700,2699A,75.9755,39.4694,喀什地区,吾办,颗粒物(PM10),105,159,165,24,53,124,,,,10,33,4,4,0.2,0.6
2025-08-31T0700,4027A,75.9483,39.4689,喀什地区,老干局,,44,44,113,9,27,134,,,,5,25,6,6,0.2,0.4
2025-08-31T0700,1824A,114.3389,34.7781,开封市,肿瘤医院,,31,15,34,9,17,98,,,,10,12,3,4,0.9,0.8
2025-08-31T0700,1826A,114.2885,34.7965,开封市,世纪星幼儿园,,30,,29,12,22,96,,,,6,10,4,6,0.9,0.9
2025-08-31T0700,3147A,114.3438,34.8106,开封市,龙亭公园,,29,,33,11,17,92,,,,9,12,4,6,1.0,1
2025-08-31T0700,3210A,114.3644,34.7964,开封市,汴京公园,,29,14,36,11,21,91,,,,6,9,4,5,0.7,0.7
2025-08-31T0700,3473A,114.2485,34.8306,开封市,技师学院,,28,,31,18,21,87,,,,10,10,6,7,1.1,1.1
2025-08-31T0700,3592A,114.4644,34.7556,开封市,祥符区生态环境局,,27,20,31,8,18,86,,,,12,16,6,5,0.8,0.8
2025-08-31T0700,1951A,84.895,45.6094,克拉玛依市,长征新村,颗粒物(PM10),132,213,41,32,11,88,,,,1,16,4,4,0.1,0.3
2025-08-31T0700,1952A,84.8988,45.5893,克拉玛依市,南林小区,颗粒物(PM10),101,152,47,17,13,90,,,,2,25,6,7,0.1,0.2
2025-08-31T0700,1954A,84.905,44.3396,克拉玛依市,独山子区,,37,37,45,10,15,96,,,,9,15,6,11,0.1,0.3
2025-08-31T0700,1955A,85.6979,46.098,克拉玛依市,乌尔禾区商贸楼,颗粒物(PM10),110,170,36,41,9,86,,,,4,17,3,4,0.1,0.3
2025-08-31T0700,3612A,85.1045,45.6899,克拉玛依市,白碱滩区新站,颗粒物(PM10),133,216,54,39,15,95,,,,2,6,11,10,0.3,0.3
2025-08-31T0700,2697A,76.1454,39.7142,克孜勒苏柯尔克孜自治州,市人民政府,,39,39,79,13,32,120,,,,8,14,24,20,0.0,0.1
2025-08-31T0700,3665A,76.1658,39.7157,克孜勒苏柯尔克孜自治州,克州文化中心,颗粒物(PM10),56,62,78,18,27,138,,,,2,14,14,13,0.2,0.2
2025-08-31T0700,1450A,102.8204,24.8886,昆明市,呈贡新区,,26,,5,18,12,50,,,,7,11,2,3,0.4,0.3
2025-08-31T0700,1451A,102.6251,24.9608,昆明市,西山森林公园,,,,,,,,,,,,,,,,
2025-08-31T0700,1452A,102.7252,25.0902,昆明市,龙泉镇,,18,18,18,7,8,26,,,,11,14,2,2,0.3,0.3
2025-08-31T0700,1453A,102.7266,25.0375,昆明市,东风东路,,16,16,22,10,12,35,,,,14,18,3,4,0.3,0.3
2025-08-31T0700,1454A,102.6742,25.0669,昆明市,金鼎山,,13,13,19,8,8,33,,,,8,12,1,1,0.3,0.3
2025-08-31T0700,1455A,102.6644,25.0401,昆明市,碧鸡广场,,19,19,23,9,11,30,,,,13,18,7,7,0.3,0.4
2025-08-31T0700,3179A,102.7494,25.0119,昆明市,官渡区博物馆,,22,16,18,15,10,3,,,,37,27,1,1,0.3,0.4
2025-08-31T0700,3375A,102.8017,24.8336,昆明市,青年创业园,,24,24,17,11,9,31,,,,14,13,1,2,0.4,0.4
2025-08-31T0700,3550A,102.7997,24.9786,昆明市,昆明学院,,34,34,22,18,13,8,,,,33,18,6,7,0.3,0.3
2025-08-31T0700,3551A,102.5967,24.6736,昆明市,晋宁区生态环境分局,,27,27,24,17,12,7,,,,25,13,3,3,0.4,0.3
2025-08-31T0700,3552A,102.6678,24.9856,昆明市,云天化总部,,20,20,16,12,9,28,,,,18,14,4,4,0.4,0.4
2025-08-31T0700,1456A,91.1319,29.6514,拉萨市,八廓街,,19,11,11,10,8,60,,,,11,13,9,7,0.3,0.3
2025-08-31T0700,1457A,91.1221,29.6747,拉萨市,市环保局,,16,13,13,9,9,50,,,,10,13,9,7,0.2,0.2
2025-08-31T0700,1458A,91.0874,29.6475,拉萨市,区监测站,,17,9,10,9,6,54,,,,14,17,6,4,0.2,0.2
2025-08-31T0700,1459A,91.1774,29.6541,拉萨市,西藏大学,,18,13,12,7,7,55,,,,10,13,8,6,0.3,0.3
2025-08-31T0700,1460A,90.9798,29.6588,拉萨市,区辐射站,,34,34,45,12,19,14,,,,49,21,6,5,0.4,0.3
2025-08-31T0700,1461A,91.0834,29.6292,拉萨市,拉萨火车站,,18,18,14,9,8,39,,,,22,13,5,4,0.3,0.3
2025-08-31T0700,2520A,109.2203,23.7256,来宾市,来宾技工学校,,47,47,25,12,10,4,,,,25,11,15,13,0.6,0.5
2025-08-31T0700,3535A,109.1781,23.7297,来宾市,兴宾区政府,,15,15,17,3,11,14,,,,11,8,7,7,0.4,0.4
2025-08-31T0700,4002A,109.2416,23.7461,来宾市,中南小学,,28,28,22,10,5,4,,,,26,10,17,12,0.5,0.5
2025-08-31T0700,1477A,104.1373,35.9454,兰州市,榆中兰大校区,,,,,,,,,,,,,,,,
2025-08-31T0700,1479A,103.831,36.0464,兰州市,铁路设计院,,40,39,54,28,32,21,,,,43,47,11,14,0.7,0.9
2025-08-31T0700,3241A,103.7439,36.0842,兰州市,百合公园,,45,45,42,19,20,15,,,,28,32,2,8,0.5,0.5
2025-08-31T0700,3242A,103.9611,35.998,兰州市,和平,,30,30,38,13,17,41,,,,18,15,7,10,0.2,0.4
2025-08-31T0700,4236A,103.6293,36.0938,兰州市,庄浪东路808号,,42,42,48,24,26,13,,,,44,38,16,18,0.5,0.4
2025-08-31T0700,4237A,103.7251,36.1043,兰州市,安宁西路88号,颗粒物(PM10),51,52,49,32,30,15,,,,34,28,5,9,0.4,0.4
2025-08-31T0700,4238A,103.8470,36.0676,兰州市,北滨河东路1号,,46,46,42,22,26,2,,,,46,41,9,14,0.7,0.7
2025-08-31T0700,3245A,103.6633,36.533,兰州新区,新区管委会,,32,29,28,22,18,22,,,,15,16,8,14,0.3,0.2
2025-08-31T0700,3246A,103.6975,36.4789,兰州新区,舟曲中学,,35,35,19,16,9,41,,,,21,14,25,15,0.5,0.4
2025-08-31T0700,1067A,116.6708,39.5111,廊坊市,药材公司,,35,35,30,16,14,17,,,,17,12,4,4,0.4,0.3
2025-08-31T0700,1068A,116.7214,39.5589,廊坊市,开发区,,31,31,29,12,14,14,,,,14,14,1,2,0.3,0.4
2025-08-31T0700,1070A,116.7244,39.5269,廊坊市,北华航天学院,,38,38,29,19,12,26,,,,22,11,4,4,0.4,0.3
2025-08-31T0700,2919A,116.7022,39.5453,廊坊市,河北工业大学,,25,24,25,17,15,39,,,,20,12,2,2,0.4,0.3
2025-08-31T0700,2535A,103.7723,29.5462,乐山市,花湖湾,,21,21,15,11,10,23,,,,10,13,8,8,0.3,0.2
2025-08-31T0700,2536A,103.7627,29.5844,乐山市,牛耳桥,,21,21,15,12,9,23,,,,12,15,6,6,0.5,0.5
2025-08-31T0700,2537A,103.7508,29.6006,乐山市,市第三水厂,,21,21,15,11,7,28,,,,14,15,4,4,0.5,0.5
2025-08-31T0700,2538A,103.7571,29.5664,乐山市,市监测站,,20,20,16,8,8,19,,,,11,12,6,6,0.6,0.6
2025-08-31T0700,3361A,103.7311,29.5628,乐山市,理工大学,,18,18,13,9,7,18,,,,6,9,9,8,0.6,0.6
2025-08-31T0700,2598A,100.2143,26.8576,丽江市,西南郊,,12,,10,3,5,36,,,,7,9,6,6,0.6,0.7
2025-08-31T0700,2599A,100.2497,26.8802,丽江市,丽江古城,,15,15,18,7,8,28,,,,13,13,10,10,0.6,0.6
2025-08-31T0700,2600A,100.2203,26.8906,丽江市,市中心,,10,10,12,3,10,22,,,,16,13,10,10,0.6,0.5
2025-08-31T0700,1267A,119.914,28.4514,丽水市,监测站大楼,,9,8,14,6,6,20,,,,12,8,4,4,0.4,0.4
2025-08-31T0700,1268A,119.93,28.4586,丽水市,莲都小学,,18,18,14,7,4,18,,,,14,8,3,4,0.3,0.3
2025-08-31T0700,1269A,119.879,28.4231,丽水市,余庄前,,48,,12,33,13,8,,,,12,8,5,5,0.4,0.2
2025-08-31T0700,1173A,119.176,34.5885,连云港市,市环境监测站,,22,6,10,3,3,68,,,,7,15,7,4,0.2,0.3
2025-08-31T0700,3000A,119.3581,34.6972,连云港市,德源药业,,22,6,12,3,4,68,,,,10,21,4,4,0.5,0.6
2025-08-31T0700,3007A,119.178,34.844,连云港市,新城一中,,17,15,21,3,7,52,,,,9,18,3,3,0.6,0.7
2025-08-31T0700,3008A,119.3608,34.7519,连云港市,胡沟管理处,,,2,9,,7,70,,,,5,17,10,10,0.7,0.8
2025-08-31T0700,3009A,119.1478,34.5911,连云港市,矿山设计院,,24,6,10,3,6,76,,,,9,16,7,5,0.6,0.6
2025-08-31T0700,3434A,119.2413,34.6539,连云港市,工贸学校,,25,6,11,3,6,78,,,,3,7,5,5,0.7,0.8
2025-08-31T0700,3664A,119.4172,34.7341,连云港市,连云街道,,25,6,16,3,8,79,,,,4,12,3,4,0.6,0.8
2025-08-31T0700,2571A,102.3431,27.8099,凉山彝族自治州,青龙寺,,23,23,18,7,17,5,,,,10,4,2,2,0.7,0.4
2025-08-31T0700,2572A,102.2721,27.8415,凉山彝族自治州,邛海宾馆,,12,10,14,6,10,36,,,,11,8,11,8,0.4,0.5
2025-08-31T0700,2573A,102.2625,27.898,凉山彝族自治州,西昌市政府,,8,6,16,3,11,23,,,,6,6,5,7,0.1,0.3
2025-08-31T0700,2574A,102.2685,27.8851,凉山彝族自治州,凉山州政府,,15,,20,10,18,26,,,,10,8,9,7,1.0,0.5
2025-08-31T0700,4229A,102.2342,27.8859,凉山彝族自治州,凯乐南路30号,,12,12,17,3,9,32,,,,12,13,13,13,0.7,0.7
2025-08-31T0700,2212A,123.2,41.1953,辽阳市,宏伟区,,15,15,24,10,9,9,,,,18,8,2,2,0.8,0.9
2025-08-31T0700,2213A,123.1683,41.2495,辽阳市,新华园,,34,34,32,11,14,29,,,,16,13,6,6,0.6,0.7
2025-08-31T0700,2214A,123.2354,41.2639,辽阳市,滨河路,颗粒物(PM10),88,125,70,20,19,12,,,,26,14,4,4,0.7,0.8
2025-08-31T0700,2215A,123.149,41.2991,辽阳市,铁西工业园,,35,35,33,11,17,7,,,,20,16,2,2,1.1,0.9
2025-08-31T0700,2227A,125.1358,42.8845,辽源市,环保局,,45,45,47,21,16,5,,,,14,11,9,8,1.0,0.8
2025-08-31T0700,3239A,125.0764,42.9078,辽源市,银鹰制药,,36,36,30,20,20,9,,,,19,20,10,25,0.9,0.7
2025-08-31T0700,1625A,115.9848,36.4372,聊城市,区政府,,23,,22,16,17,70,,,,10,12,9,10,0.7,0.7
2025-08-31T0700,2878A,116.0072,36.4343,聊城市,聊大东校,,26,22,26,18,18,74,,,,10,13,8,10,0.4,0.5
2025-08-31T0700,3200A,115.9819,36.4978,聊城市,监控中心,,18,13,23,7,12,56,,,,9,12,7,8,0.7,0.7
2025-08-31T0700,3513A,116.0445,36.4361,聊城市,九州社区,,25,20,32,17,18,67,,,,12,13,1,6,0.4,0.5
2025-08-31T0700,4018A,116.0567,36.4608,聊城市,星美广场,,25,20,29,17,17,69,,,,8,9,5,9,0.7,0.7
2025-08-31T0700,2632A,94.3681,29.6376,林芝市,林芝监测站,,,,6,,4,,,42,,,4,,5,,0.4
2025-08-31T0700,2633A,94.3616,29.6616,林芝市,林芝人民医院,,13,13,9,6,5,7,,,,7,5,4,4,0.3,0.3
2025-08-31T0700,2603A,100.0781,23.8982,临沧市,市环保局,,26,,17,18,15,6,,,,8,9,4,7,0.4,0.3
2025-08-31T0700,2604A,100.0894,23.8822,临沧市,市气象局,,18,13,16,12,12,8,,,,8,7,8,8,0.5,0.5
2025-08-31T0700,1733A,111.5531,36.0783,临汾市,临钢医院,颗粒物(PM10),58,66,63,33,31,37,,,,14,17,6,9,0.9,1.4
2025-08-31T0700,1734A,111.5028,36.0714,临汾市,技工学校,细颗粒物(PM2.5),80,80,66,59,51,33,,,,12,14,7,8,1.1,1.3
2025-08-31T0700,1736A,111.5018,36.0855,临汾市,市委,细颗粒物(PM2.5),74,89,77,54,44,34,,,,16,18,5,6,1.0,1.3
2025-08-31T0700,3018A,111.505,36.1014,临汾市,唐尧大酒店,细颗粒物(PM2.5),73,76,78,53,44,34,,,,14,17,6,6,1.0,1.3
2025-08-31T0700,4244A,111.4879,36.0530,临汾市,启星学校,细颗粒物(PM2.5),83,72,63,61,53,34,,,,16,18,4,4,1.0,1.3
2025-08-31T0700,4271A,103.2464,35.6123,临夏回族自治州,滨河东路1号,,35,35,45,16,17,14,,,,8,17,7,6,0.3,0.3
2025-08-31T0700,4310A,103.2093,35.5995,临夏回族自治州,新华街21号,,33,33,38,17,20,16,,,,15,13,6,6,0.4,0.5
2025-08-31T0700,1618A,118.3429,35.0532,临沂市,沂河小区,,34,34,30,21,24,36,,,,22,21,9,9,0.5,0.6
2025-08-31T0700,1619A,118.295,35.0583,临沂市,鲁南制药厂,,30,27,28,21,20,39,,,,29,18,9,9,0.6,0.6
2025-08-31T0700,1620A,118.2794,34.9976,临沂市,新光毛纺厂,,25,,26,17,20,39,,,,16,25,8,8,0.4,0.6
2025-08-31T0700,1621A,118.3956,35.0888,临沂市,河东保险公司,,29,29,28,18,16,22,,,,29,20,5,6,0.5,0.4
2025-08-31T0700,3370A,118.3564,35.0215,临沂市,十里堡居委,,35,24,24,24,29,35,,,,22,22,9,9,0.4,0.6
2025-08-31T0700,3496A,118.3604,35.1084,临沂市,南坊新区,,34,34,30,17,16,36,,,,24,22,9,8,0.5,0.6
2025-08-31T0700,3860A,118.3920,35.0300,临沂市,皇山花园小区,,23,19,34,16,27,38,,,,23,24,10,9,0.4,0.7
2025-08-31T0700,1870A,109.4856,24.3895,柳州市,柳东小学,,20,20,18,9,10,13,,,,20,10,5,6,0.4,0.3
2025-08-31T0700,1871A,109.4157,24.3277,柳州市,环保监测站,,16,12,20,11,10,26,,,,17,8,8,7,0.5,0.3
2025-08-31T0700,1872A,109.389,24.341,柳州市,河西水厂,颗粒物(PM10),52,54,28,19,12,11,,,,29,12,9,6,0.6,0.5
2025-08-31T0700,1873A,109.4311,24.2921,柳州市,市四中,,18,18,23,11,10,27,,,,20,13,8,7,0.4,0.4
2025-08-31T0700,1874A,109.4006,24.3631,柳州市,市九中,,49,49,29,17,12,3,,,,24,10,5,4,0.6,0.3
2025-08-31T0700,1875A,109.4958,24.3134,柳州市,古亭山,,14,14,23,3,10,6,,,,26,13,5,6,0.4,0.4
2025-08-31T0700,3402A,109.5422,24.3996,柳州市,市二中,,36,36,23,15,12,1,,,,25,15,5,6,0.6,0.6
2025-08-31T0700,2307A,116.5079,31.737,六安市,监测大楼,,12,8,17,8,13,25,,,,4,4,4,4,0.4,0.5
2025-08-31T0700,2308A,116.4738,31.7643,六安市,皖西学院,,17,17,19,3,12,27,,,,4,3,3,2,0.2,0.3
2025-08-31T0700,2309A,116.4996,31.7905,六安市,朝阳厂,,10,10,16,3,13,25,,,,12,8,6,6,0.2,0.3
2025-08-31T0700,2310A,116.5567,31.7886,六安市,开发区,,6,,14,3,12,19,,,,3,6,2,2,0.1,0.3
2025-08-31T0700,2576A,104.8,26.5892,六盘水市,窑上,,32,32,19,3,3,12,,,,3,2,4,5,0.2,0.2
2025-08-31T0700,2577A,104.83,26.5917,六盘水市,黄土坡,,18,15,13,12,9,13,,,,12,11,4,4,0.3,0.3
2025-08-31T0700,2578A,104.89,26.5939,六盘水市,水钢,,42,42,27,15,15,12,,,,19,9,6,5,0.5,0.2
2025-08-31T0700,2579A,104.8475,26.5894,六盘水市,民中,,24,24,15,7,5,6,,,,23,9,2,2,0.6,0.3
2025-08-31T0700,2580A,104.9544,26.5506,六盘水市,双水,,29,29,14,3,5,5,,,,13,7,3,2,0.3,0.1
2025-08-31T0700,2335A,117.0189,25.1181,龙岩市,龙岩师专,,,,,,,,,,,,,,,,
2025-08-31T0700,2336A,117.0217,25.1033,龙岩市,龙岩市监测站,,28,28,21,16,12,11,,,,19,13,17,12,0.7,0.6
2025-08-31T0700,2337A,117.0258,25.0661,龙岩市,闽西职业技术学院,,42,42,27,20,13,18,,,,16,12,27,17,0.6,0.5
2025-08-31T0700,2338A,117.0196,25.0306,龙岩市,龙岩学院,,22,22,35,14,12,30,,,,8,8,7,7,0.5,0.5
2025-08-31T0700,2665A,105.0822,33.3261,陇南市,汉王镇固水子,,,,,,,,,,,,,,,,
2025-08-31T0700,2885A,104.9339,33.3826,陇南市,滨江中学,,30,30,27,11,12,13,,,,10,10,8,8,0.6,0.7
2025-08-31T0700,3247A,104.955,33.371,陇南市,市总工会,,26,26,33,9,7,11,,,,12,12,6,6,0.4,0.4
2025-08-31T0700,2487A,111.9589,27.8901,娄底市,电视发射台,,27,27,29,6,13,11,,,,6,5,4,4,0.3,0.3
2025-08-31T0700,2488A,111.9975,27.725,娄底市,市监测站,,25,25,31,16,18,15,,,,17,16,8,10,0.9,0.8
2025-08-31T0700,2489A,112.0194,27.7314,娄底市,市委党校,,25,25,33,11,22,21,,,,14,12,4,5,1.0,0.8
2025-08-31T0700,2490A,111.9561,27.7569,娄底市,涟钢,,23,23,32,15,21,10,,,,11,12,6,7,0.7,0.9
2025-08-31T0700,2491A,111.9892,27.7044,娄底市,市政府,,33,23,25,23,21,19,,,,6,7,6,6,0.7,0.7
2025-08-31T0700,1893A,105.4324,28.9634,泸州市,九狮山,,38,,27,26,28,46,,,,8,6,6,6,0.4,0.5
2025-08-31T0700,1894A,105.4427,28.9063,泸州市,小市上码头,,17,16,21,8,10,53,,,,6,6,5,4,0.4,0.5
2025-08-31T0700,1895A,105.4241,28.8573,泸州市,兰田宪桥,,25,25,23,8,12,50,,,,8,8,8,8,0.2,0.2
2025-08-31T0700,1896A,105.4379,28.8833,泸州市,市环监站,,22,22,17,14,11,59,,,,10,6,5,4,0.0,0
2025-08-31T0700,4272A,105.3689,28.7783,泸州市,纳溪中医医院,,22,19,20,15,14,48,,,,14,14,4,3,0.6,0.6
2025-08-31T0700,2183A,111.1406,37.5211,吕梁市,环保局,颗粒物(PM10),59,67,58,20,19,2,,,,30,28,1,3,0.9,0.8
2025-08-31T0700,2185A,111.1297,37.5136,吕梁市,自来水公司,颗粒物(PM10),65,80,53,20,18,2,,,,31,22,2,4,0.9,0.6
2025-08-31T0700,2867A,111.1283,37.51,吕梁市,马茂庄小学,颗粒物(PM10),63,75,66,18,19,1,,,,32,28,3,4,0.8,0.6
2025-08-31T0700,1812A,112.3931,34.6516,洛阳市,市委党校,,28,23,27,19,18,33,,,,11,10,6,7,0.5,0.4
2025-08-31T0700,1815A,112.494,34.6886,洛阳市,河南林校,,34,34,36,18,19,34,,,,16,16,6,9,0.5,0.5
2025-08-31T0700,1816A,112.3844,34.623,洛阳市,开发区管委会,,25,23,22,17,17,22,,,,11,8,4,4,0.5,0.5
2025-08-31T0700,1817A,112.4267,34.6258,洛阳市,市委新办公区,,21,21,25,14,17,24,,,,13,9,7,8,0.4,0.4
2025-08-31T0700,3340A,112.6005,34.6326,洛阳市,伊滨,,32,24,29,22,18,41,,,,15,15,8,9,0.5,0.5
2025-08-31T0700,3341A,112.4951,34.6332,洛阳市,中移产业园,,32,32,28,21,19,30,,,,16,14,8,8,0.5,0.5
2025-08-31T0700,3593A,112.5736,34.8993,洛阳市,吉利监测站,,38,32,30,26,22,24,,,,11,8,4,6,0.6,0.7
2025-08-31T0700,3635A,112.3677,34.662,洛阳市,河科大西苑校区,,26,26,27,18,15,35,,,,17,14,7,8,0.5,0.5
2025-08-31T0700,3636A,112.4388,34.6781,洛阳市,英才小学,细颗粒物(PM2.5),55,,34,39,29,39,,,,17,16,8,9,0.7,0.7
2025-08-31T0700,4214A,112.4600,34.6949,洛阳市,春都路1号院,,37,37,31,20,14,32,,,,13,12,9,11,0.7,0.8
2025-08-31T0700,2399A,114.051,33.5699,漯河市,三五一五工厂,,30,18,33,15,21,93,,,,6,10,5,7,0.6,0.6
2025-08-31T0700,2400A,114.0055,33.5698,漯河市,漯河大学,,31,,29,14,19,99,,,,6,11,4,6,0.8,0.8
2025-08-31T0700,2401A,114.0138,33.5828,漯河市,市水利局,,31,19,31,17,22,99,,,,4,9,5,6,0.7,0.7
2025-08-31T0700,2402A,114.0261,33.5698,漯河市,市广电局,,33,,29,20,24,105,,,,3,8,3,4,0.8,0.8
2025-08-31T0700,3478A,113.9749,33.5664,漯河市,市图书馆,,30,14,32,13,20,94,,,,6,10,4,6,0.6,0.6
2025-08-31T0700,4250A,114.0892,33.5882,漯河市,韶山路11号,,30,14,32,14,21,94,,,,6,11,3,5,0.7,0.7
2025-08-31T0700,1798A,118.5092,31.6837,马鞍山市,湖东路四小,,22,20,28,15,19,38,,,,13,18,6,10,0.8,1.1
2025-08-31T0700,1799A,118.5024,31.6449,马鞍山市,开发区,,24,24,28,10,14,22,,,,23,15,7,10,0.7,0.8
2025-08-31T0700,1802A,118.6245,31.7241,马鞍山市,濮塘,,17,17,26,8,14,28,,,,11,12,8,8,0.9,1
2025-08-31T0700,3633A,118.4918,31.6809,马鞍山市,雨山,,22,22,31,9,16,34,,,,14,21,6,10,0.8,1.2
2025-08-31T0700,4191A,118.5274,31.72227,马鞍山市,慈湖高新区,,29,29,34,12,17,22,,,,17,21,6,11,0.6,0.8
2025-08-31T0700,1686A,111.0286,21.4688,茂名市,电白南海,,20,19,21,14,10,16,,,,12,9,5,5,0.2,0.2
2025-08-31T0700,1687A,110.9294,21.6533,茂名市,茂石化七小,,13,12,14,9,6,20,,,,10,8,5,6,0.4,0.4
2025-08-31T0700,1688A,110.9107,21.6687,茂名市,健康路,,18,12,9,12,8,22,,,,10,8,5,5,0.6,0.5
2025-08-31T0700,1689A,110.8592,21.6828,茂名市,高岭,,34,34,19,3,2,18,,,,12,12,12,11,0.5,0.5
2025-08-31T0700,3450A,111.01,21.5165,茂名市,电白水东,,14,14,11,7,5,18,,,,11,9,8,6,0.7,0.6
2025-08-31T0700,2539A,104.0308,30.0478,眉山市,黑龙滩水库,,18,7,9,3,6,56,,,,2,4,2,2,0.4,0.4
2025-08-31T0700,2540A,103.8416,30.0874,眉山市,气象局,,19,19,22,3,7,51,,,,11,14,5,5,0.1,0.2
2025-08-31T0700,3137A,103.8578,30.0744,眉山市,市委党校,,17,9,12,3,3,54,,,,8,14,6,7,0.3,0.4
2025-08-31T0700,3148A,103.8291,30.0564,眉山市,区人社局,,25,25,26,3,3,46,,,,12,19,10,10,0.5,0.5
2025-08-31T0700,1690A,116.1231,24.3284,梅州市,梅江月梅,,23,22,21,16,14,10,,,,16,12,9,8,0.5,0.5
2025-08-31T0700,1691A,116.0797,24.2719,梅州市,梅县新城,,28,28,24,19,13,4,,,,14,10,7,8,0.5,0.5
2025-08-31T0700,1692A,116.1248,24.2654,梅州市,环境监控中心,,28,24,24,19,14,8,,,,19,13,34,7,0.5,0.5
2025-08-31T0700,3315A,116.1233,24.2991,梅州市,梅龙,,29,24,21,20,15,18,,,,12,9,13,9,0.7,0.6
2025-08-31T0700,1878A,104.7778,31.4741,绵阳市,富乐山,,28,28,18,15,9,2,,,,14,15,8,8,0.6,0.5
2025-08-31T0700,1880A,104.6697,31.4668,绵阳市,高新区自来水公司,,43,43,20,19,8,10,,,,26,23,8,8,0.7,0.5
2025-08-31T0700,1881A,104.7287,31.5075,绵阳市,三水厂,,26,22,19,18,12,2,,,,16,21,10,9,0.7,0.5
2025-08-31T0700,3491A,104.69,31.5322,绵阳市,西科大附属小学,,34,34,23,15,12,8,,,,19,25,8,9,1.0,0.8
2025-08-31T0700,3492A,104.5648,31.5343,绵阳市,安州区旅游局,,39,36,25,27,13,12,,,,20,16,14,12,0.5,0.4
2025-08-31T0700,4226A,104.7651,31.4531,绵阳市,绵阳市气象局,,39,39,22,18,11,0,,,,18,22,8,8,0.5,0.4
2025-08-31T0700,1784A,129.61,44.561,牡丹江市,环保大楼,,19,,21,13,10,6,,,,16,14,2,1,0.4,0.3
2025-08-31T0700,1785A,129.6115,44.5782,牡丹江市,文化广场,,40,36,20,28,18,7,,,,20,16,6,7,0.7,0.6
2025-08-31T0700,1786A,129.5904,44.5963,牡丹江市,第一医院,,46,38,19,32,16,7,,,,21,14,7,7,0.4,0.3
2025-08-31T0700,1787A,129.6364,44.6075,牡丹江市,机车工厂,,28,28,23,9,12,2,,,,15,12,6,6,0.5,0.5
2025-08-31T0700,1788A,129.6386,44.5462,牡丹江市,第一中学,,16,16,20,9,13,7,,,,14,13,6,6,0.4,0.3
2025-08-31T0700,2531A,105.0703,29.61,内江市,市监测站,,15,7,14,3,8,46,,,,16,9,3,3,0.7,0.7
2025-08-31T0700,2532A,105.0717,29.5947,内江市,东兴区政府,,15,7,12,3,3,47,,,,10,9,4,5,0.5,0.5
2025-08-31T0700,2533A,105.0653,29.5817,内江市,内江二中,,16,,14,11,9,40,,,,12,11,1,2,0.5,0.5
2025-08-31T0700,2534A,105.0406,29.5822,内江市,内江日报社,,17,12,15,7,9,53,,,,18,13,4,4,0.4,0.3
2025-08-31T0700,2628A,92.0657,31.4846,那曲市,那曲监测站,,27,27,33,6,12,56,,,,14,20,7,7,0.4,0.4
2025-08-31T0700,4243A,92.0515,31.4787,那曲市,那曲市委宣传部,,24,24,22,8,10,43,,,,14,11,3,3,0.5,0.4
2025-08-31T0700,1290A,115.8931,28.6843,南昌市,省外办,,20,20,23,14,17,28,,,,8,8,6,5,0.7,0.7
2025-08-31T0700,1291A,115.8886,28.7003,南昌市,省林业公司,,13,9,22,9,11,27,,,,12,11,4,4,0.6,0.6
2025-08-31T0700,1292A,115.8126,28.7442,南昌市,林科所,,6,6,13,3,8,19,,,,12,10,2,3,0.4,0.3
2025-08-31T0700,1294A,115.8518,28.687,南昌市,建工学校,,36,,25,25,19,34,,,,15,16,8,7,0.7,0.7
2025-08-31T0700,1295A,115.8921,28.6424,南昌市,象湖,,15,15,17,9,10,31,,,,14,13,8,7,0.6,0.6
2025-08-31T0700,1296A,115.7423,28.7996,南昌市,武术学校,,13,12,16,9,11,3,,,,7,9,8,9,0.5,0.6
2025-08-31T0700,3046A,115.9084,28.6062,南昌市,机电学校,,19,19,23,9,11,26,,,,19,12,7,7,0.6,0.5
2025-08-31T0700,3690A,115.9721,28.7031,南昌市,外国语学校,,17,17,24,7,12,20,,,,22,12,7,8,0.5,0.5
2025-08-31T0700,4192A,115.9316,28.68677,南昌市,南京东路235号,,18,12,28,12,11,30,,,,15,12,10,9,0.8,0.7
2025-08-31T0700,1905A,106.056,30.8064,南充市,西山风景区,,,,,,,,,,,,,,,,
2025-08-31T0700,1906A,106.0789,30.8023,南充市,南充市委,,10,9,19,6,13,29,,,,9,8,4,4,0.3,0.3
2025-08-31T0700,1907A,106.1031,30.8217,南充市,南充炼油厂,,16,16,27,9,16,38,,,,4,7,4,5,0.2,0.2
2025-08-31T0700,4227A,106.1083,30.7884,南充市,梨树横街98号,,14,10,19,8,14,44,,,,5,8,3,4,0.1,0.2
2025-08-31T0700,4304A,106.1172,30.843,南充市,清泉寺北路188号,,36,36,24,10,15,28,,,,8,8,4,4,0.4,0.4
2025-08-31T0700,4305A,106.067,30.7616,南充市,同庆路1号,,12,6,17,3,11,37,,,,9,9,5,4,0.3,0.3
2025-08-31T0700,1151A,118.8086,32.1065,南京市,迈皋桥,,13,,12,7,8,36,,,,25,22,3,3,1.1,0.7
2025-08-31T0700,1152A,118.7538,32.0551,南京市,草场门,,13,12,19,9,10,38,,,,12,14,4,4,0.8,0.7
2025-08-31T0700,1153A,118.7794,32.0745,南京市,山西路,,14,14,19,3,5,42,,,,18,19,4,4,0.8,0.5
2025-08-31T0700,1154A,118.7752,32.0023,南京市,中华门,,11,9,13,3,7,26,,,,11,11,3,4,1.1,0.9
2025-08-31T0700,1155A,118.8109,32.0309,南京市,瑞金路,,11,,14,7,10,34,,,,18,14,7,7,0.3,0.6
2025-08-31T0700,1156A,118.7997,32.0754,南京市,玄武湖,,,11,16,,7,34,,,,8,10,4,4,1.4,0.6
2025-08-31T0700,1157A,118.6414,32.0931,南京市,浦口,,18,18,20,3,7,21,,,,14,12,9,6,0.9,0.5
2025-08-31T0700,1158A,118.7356,31.9996,南京市,奥体中心,,12,11,18,3,9,38,,,,17,14,6,6,0.6,0.5
2025-08-31T0700,1159A,118.9125,32.1028,南京市,仙林大学城,,12,12,21,3,4,31,,,,14,12,9,9,0.9,0.7
2025-08-31T0700,3422A,118.8436,31.9198,南京市,江宁彩虹桥,,15,15,18,7,10,38,,,,18,18,5,4,0.7,0.5
2025-08-31T0700,3427A,118.8554,32.3578,南京市,六合雄州,,,26,25,3,8,17,,,,22,14,8,6,,0.7
2025-08-31T0700,4249A,118.8708,31.3402,南京市,汶溪路181号,,16,6,19,3,11,50,,,,10,11,5,6,0.5,0.5
2025-08-31T0700,4312A,119.019,31.6512,南京市,中山西路1号,,12,7,15,3,11,38,,,,11,13,4,4,0.7,0.7
2025-08-31T0700,1401A,108.3103,22.7881,南宁市,二十一中,,17,17,21,10,15,25,,,,14,11,4,5,0.6,0.5
2025-08-31T0700,1402A,108.3141,22.8528,南宁市,北湖,,33,33,24,12,14,43,,,,9,13,6,3,0.4,0.4
2025-08-31T0700,1403A,108.3206,22.8225,南宁市,市监测站,,18,,20,12,17,33,,,,11,13,4,4,0.4,0.4
2025-08-31T0700,1404A,108.3829,22.8037,南宁市,大自然花园,,26,26,23,11,14,15,,,,12,11,4,5,0.5,0.5
2025-08-31T0700,1405A,108.4394,22.7904,南宁市,仙葫,,23,20,22,16,14,22,,,,13,9,5,6,0.4,0.4
2025-08-31T0700,1406A,108.2397,22.8467,南宁市,区农职院,,22,22,25,14,14,19,,,,16,16,6,6,0.2,0.3
2025-08-31T0700,1407A,108.3275,22.735,南宁市,英华嘉园,颗粒物(PM10),84,117,27,14,13,2,,,,32,10,2,2,0.4,0.4
2025-08-31T0700,3401A,108.4834,22.7618,南宁市,红星社区,,27,27,24,12,14,14,,,,20,13,2,3,0.4,0.4
2025-08-31T0700,4221A,108.2177,22.7774,南宁市,乐贤路16号,,48,48,29,17,17,0,,,,26,20,4,4,0.6,0.5
2025-08-31T0700,2331A,118.0966,26.6761,南平市,茫荡山,,,,9,,6,,,46,,,,,1,,
2025-08-31T0700,2332A,118.1681,26.6369,南平市,南平市监测站,,16,,10,11,8,21,,,,9,10,5,5,0.4,0.4
2025-08-31T0700,2333A,118.1825,26.6489,南平市,南平铝业有限公司,,19,19,15,3,6,22,,,,12,11,6,6,0.6,0.5
2025-08-31T0700,2334A,118.1756,26.6272,南平市,南平七中,,10,9,13,7,9,24,,,,6,7,4,4,0.5,0.5
2025-08-31T0700,1168A,120.9098,31.9663,南通市,狼山街道,,28,28,17,16,7,38,,,,22,20,3,4,0.6,0.4
2025-08-31T0700,1169A,120.86,32.0005,南通市,虹桥,,30,30,16,18,11,50,,,,23,19,4,4,0.8,0.7
2025-08-31T0700,1170A,120.87,32.02,南通市,城中,,37,37,22,21,8,34,,,,26,18,6,5,0.7,0.5
2025-08-31T0700,1171A,120.94,31.93,南通市,星湖花园,,25,25,15,12,8,41,,,,23,18,3,4,0.5,0.3
2025-08-31T0700,1172A,120.81,32.0417,南通市,紫琅学院,,30,30,19,17,8,46,,,,19,19,4,4,0.8,0.7
2025-08-31T0700,3291A,121.067,32.062,南通市,通州监测站,,17,17,11,9,5,33,,,,18,12,2,2,0.7,0.6
2025-08-31T0700,3432A,120.9348,31.9883,南通市,环境教育馆,,34,34,21,19,6,39,,,,23,17,4,4,0.4,0.2
2025-08-31T0700,2404A,112.5224,33.0122,南阳市,瓦房庄,,24,13,23,3,6,76,,,,3,5,7,7,0.5,0.5
2025-08-31T0700,2405A,112.5003,32.9735,南阳市,汉画馆,,21,13,19,3,6,67,,,,6,7,7,8,0.5,0.5
2025-08-31T0700,2406A,112.5573,33.027,南阳市,气象站,,22,6,13,3,6,69,,,,6,8,7,7,0.4,0.4
2025-08-31T0700,2407A,112.5481,32.9689,南阳市,理工学院,,24,15,20,3,5,76,,,,4,5,8,8,0.6,0.5
2025-08-31T0700,4008A,112.5234,32.9922,南阳市,卧龙区政府,,24,9,17,7,21,74,,,,6,8,6,6,0.6,0.6
2025-08-31T0700,1234A,121.8358,29.911,宁波市,区环保大楼,,12,12,13,3,4,23,,,,8,6,6,5,0.4,0.3
2025-08-31T0700,1235A,121.56,29.82,宁波市,万里学院,,19,13,13,13,7,21,,,,11,5,7,7,0.5,0.4
2025-08-31T0700,1236A,121.713,29.9572,宁波市,龙赛医院,,26,26,13,6,6,16,,,,12,7,6,4,0.3,0.3
2025-08-31T0700,1239A,121.633,29.7733,宁波市,钱湖水厂,,5,6,6,3,3,16,,,,7,5,5,6,0.4,0.4
2025-08-31T0700,1240A,121.5856,29.8635,宁波市,太古小学,,19,19,12,3,5,21,,,,8,4,4,3,0.4,0.4
2025-08-31T0700,1241A,121.524,29.8674,宁波市,市环境监测中心,,7,7,10,3,4,19,,,,13,7,9,8,0.6,0.5
2025-08-31T0700,2871A,121.6147,29.9017,宁波市,万里国际学校,,8,6,8,3,5,23,,,,5,2,5,4,0.5,0.5
2025-08-31T0700,3710A,121.5594,29.8975,宁波市,白沙活动中心,,9,9,10,3,4,22,,,,12,8,7,6,0.3,0.3
2025-08-31T0700,2339A,119.5001,26.6946,宁德市,金涵水库,,,,12,,5,,,23,,,3,,1,,0.3
2025-08-31T0700,2341A,119.5388,26.6612,宁德市,宁德市监测站,,6,6,11,3,5,18,,,,3,3,4,3,0.4,0.4
2025-08-31T0700,3209A,119.5231,26.6562,宁德市,宁德一中,,5,6,11,3,6,16,,,,6,5,5,4,0.4,0.3
2025-08-31T0700,2618A,98.8601,25.8567,怒江傈僳族自治州,州监测站,,27,27,21,16,13,14,,,,5,5,4,5,0.4,0.4
2025-08-31T0700,2619A,98.8546,25.8417,怒江傈僳族自治州,泸水一中,,15,15,16,6,9,2,,,,7,8,4,4,0.4,0.5
2025-08-31T0700,1888A,101.6891,26.571,攀枝花市,弄弄坪,,40,40,37,11,14,8,,,,20,13,7,9,1.0,0.8
2025-08-31T0700,1889A,101.5769,26.5928,攀枝花市,河门口,,32,32,42,15,23,14,,,,9,14,7,13,0.6,1
2025-08-31T0700,1890A,101.7169,26.585,攀枝花市,炳草岗,,46,46,39,16,17,2,,,,24,20,5,8,0.8,0.8
2025-08-31T0700,1891A,101.7369,26.5008,攀枝花市,仁和,,25,25,24,11,15,6,,,,14,10,7,10,0.8,0.7
2025-08-31T0700,2835A,101.7227,26.567,攀枝花市,四十中小,,32,32,39,14,18,5,,,,21,18,8,13,1.0,1.1
2025-08-31T0700,1604A,122.0303,41.1489,盘锦市,开发区,,43,,25,30,33,42,,,,24,16,10,9,0.8,0.6
2025-08-31T0700,1605A,122.0485,41.0883,盘锦市,兴隆台,,38,38,33,25,19,23,,,,35,23,8,7,1.1,0.8
2025-08-31T0700,1606A,121.8297,41.1028,盘锦市,新生街道,,33,33,22,22,14,12,,,,35,17,5,5,1.2,0.7
2025-08-31T0700,1832A,113.3257,33.742,平顶山市,新华旅馆,,26,26,28,15,16,76,,,,8,9,4,5,0.7,0.6
2025-08-31T0700,1833A,113.2919,33.737,平顶山市,规划设计院,,21,21,22,12,16,67,,,,8,11,4,5,0.7,0.7
2025-08-31T0700,1834A,113.182,33.774,平顶山市,平顶山工学院,,21,20,21,9,10,67,,,,9,10,5,6,0.6,0.5
2025-08-31T0700,3204A,113.3025,33.73,平顶山市,规划局,,22,17,22,12,13,69,,,,8,11,3,5,0.6,0.5
2025-08-31T0700,3594A,112.8867,33.9116,平顶山市,石龙区,,25,14,21,12,13,77,,,,8,15,3,4,0.6,0.6
2025-08-31T0700,2656A,106.6692,35.5461,平凉市,聚贤嘉苑,,25,25,32,13,14,16,,,,20,19,20,9,0.5,0.5
2025-08-31T0700,2657A,106.7021,35.5307,平凉市,博物馆,,40,40,38,13,12,17,,,,20,19,8,10,0.5,0.5
2025-08-31T0700,2347A,114.0997,27.5002,萍乡市,武功山,,8,6,8,3,5,7,,,,4,5,10,9,0.8,0.7
2025-08-31T0700,2348A,113.8385,27.6434,萍乡市,中医院,,22,22,30,3,15,3,,,,19,19,11,15,0.7,1
2025-08-31T0700,2349A,113.8493,27.6253,萍乡市,市政府车库,,24,24,24,14,20,4,,,,12,14,10,14,0.6,0.9
2025-08-31T0700,2350A,113.8676,27.6435,萍乡市,市环保局,,23,23,28,14,18,6,,,,16,14,7,10,1.0,1
2025-08-31T0700,2351A,113.866,27.6198,萍乡市,安源区政府,,25,24,27,17,20,6,,,,8,10,15,18,0.6,0.9
2025-08-31T0700,2319A,119.0141,25.4325,莆田市,荔城区仓后路,,9,9,18,3,5,20,,,,6,6,6,8,0.5,0.6
2025-08-31T0700,2320A,119.0015,25.4553,莆田市,莆田市监测站,,16,12,14,11,4,14,,,,6,7,5,6,0.5,0.5
2025-08-31T0700,2321A,119.1119,25.4561,莆田市,涵江区六中,,16,11,15,11,4,15,,,,11,8,4,4,0.4,0.4
2025-08-31T0700,2322A,119.1013,25.3215,莆田市,秀屿区政府,,22,22,16,12,5,11,,,,16,9,6,6,0.5,0.3
2025-08-31T0700,2323A,118.981,25.4792,莆田市,东圳水库,,,,12,,9,,,49,,,6,,7,,0.8
2025-08-31T0700,2392A,115.0312,35.7636,濮阳市,环保局,,29,21,27,20,20,62,,,,9,9,3,5,0.6,0.6
2025-08-31T0700,2394A,115.0574,35.7609,濮阳市,油田运输公司,,32,29,35,22,20,68,,,,10,9,2,4,0.7,0.8
2025-08-31T0700,3021A,115,35.7668,濮阳市,濮水河管理处,,25,24,30,17,17,33,,,,10,11,2,3,0.3,0.4
2025-08-31T0700,4216A,115.0924,35.7686,濮阳市,任丘路479号,,36,36,40,22,21,68,,,,8,10,5,7,0.7,0.7
2025-08-31T0700,2601A,100.98,22.7633,普洱市,市环保局,,34,34,32,12,15,11,,,,9,8,6,6,0.6,0.6
2025-08-31T0700,2602A,100.9817,22.8322,普洱市,普洱第二中学,,35,35,31,12,12,7,,,,12,10,6,6,0.5,0.4
2025-08-31T0700,2262A,131.0518,45.8751,七台河市,新一中,,20,,21,14,11,12,,,,16,15,10,10,1.1,0.7
2025-08-31T0700,3345A,131.0577,45.7879,七台河市,中波台,,12,,12,8,9,9,,,,20,21,9,13,1.1,1
2025-08-31T0700,3637A,131.0176,45.7761,七台河市,人民广场,,34,34,28,10,16,12,,,,19,18,12,11,0.8,0.7
2025-08-31T0700,3684A,130.8781,45.8222,七台河市,新建矿广场,颗粒物(PM10),53,56,40,13,8,10,,,,28,16,18,11,0.8,0.4
2025-08-31T0700,1779A,123.9305,47.3636,齐齐哈尔市,安居小区,,32,32,21,3,5,9,,,,21,9,7,10,0.6,0.4
2025-08-31T0700,1780A,123.9488,47.3386,齐齐哈尔市,中心广场,,13,13,16,9,3,22,,,,13,10,7,6,0.5,0.4
2025-08-31T0700,1781A,123.9483,47.3227,齐齐哈尔市,农牧车辆厂,,24,24,21,3,5,17,,,,12,7,7,6,0.4,0.4
2025-08-31T0700,1783A,123.945,47.2988,齐齐哈尔市,市环境监测站,,22,22,13,8,4,14,,,,12,8,6,7,0.4,0.4
2025-08-31T0700,3662A,123.6333,47.2075,齐齐哈尔市,富区青少年活动中心,,27,27,16,9,6,6,,,,8,6,7,5,0.5,0.5
2025-08-31T0700,2591A,107.9783,26.5747,黔东南苗族侗族自治州,市环境监测站,,19,18,18,13,15,8,,,,8,9,2,2,0.2,0.3
2025-08-31T0700,2881A,107.8908,26.5311,黔东南苗族侗族自治州,凯里学院,,17,17,11,9,10,3,,,,8,9,3,3,0.4,0.4
2025-08-31T0700,2593A,107.5228,26.2403,黔南布依族苗族自治州,小围寨,,9,9,10,3,5,2,,,,9,7,3,3,0.3,0.3
2025-08-31T0700,3538A,107.5175,26.2978,黔南布依族苗族自治州,沙坝,,14,14,11,3,1,6,,,,5,5,4,3,0.2,0.3
2025-08-31T0700,2589A,104.9022,25.0925,黔西南布依族苗族自治州,场坝街,,34,34,20,15,11,7,,,,20,12,26,19,0.4,0.3
2025-08-31T0700,2590A,104.8811,25.0992,黔西南布依族苗族自治州,坪东大道,,32,32,24,18,13,5,,,,9,10,6,6,0.6,0.5
2025-08-31T0700,2502A,108.6236,21.9667,钦州市,市环保站,,22,22,20,7,8,16,,,,12,11,4,3,0.5,0.5
2025-08-31T0700,2503A,108.6549,21.9481,钦州市,沙埠小学,,27,27,23,12,12,10,,,,13,9,6,2,0.5,0.4
2025-08-31T0700,2504A,108.5989,21.7431,钦州市,港区一小,,18,18,28,7,12,18,,,,15,15,4,5,0.4,0.4
2025-08-31T0700,3404A,108.5959,21.9633,钦州市,北职校,,26,26,23,16,10,3,,,,16,9,3,2,1.2,0.6
2025-08-31T0700,1043A,119.7493,40.0116,秦皇岛市,第一关,,32,32,39,7,17,10,,,,60,19,5,6,0.3,0.4
2025-08-31T0700,1044A,119.5897,39.9499,秦皇岛市,监测站,,40,40,51,8,15,19,,,,46,23,5,7,0.5,0.8
2025-08-31T0700,1046A,119.5251,39.9041,秦皇岛市,建设大厦,,33,33,43,13,17,11,,,,40,15,6,8,0.5,0.8
2025-08-31T0700,3132A,119.610547,39.943889,秦皇岛市,文明里,,40,40,47,19,18,36,,,,39,17,7,8,0.4,0.6
2025-08-31T0700,4198A,119.5090,39.8253,秦皇岛市,北戴河轮滑馆,颗粒物(PM10),52,54,54,16,21,44,,,,11,8,3,4,0.4,0.7
2025-08-31T0700,1307A,120.6659,36.2403,青岛市,仰口,,23,6,12,3,5,72,,,,10,5,9,9,0.7,0.6
2025-08-31T0700,1310A,120.4134,36.0658,青岛市,市南区东部子站,,17,,14,9,10,54,,,,11,12,6,6,0.2,0.1
2025-08-31T0700,1311A,120.3664,36.1032,青岛市,四方区子站,,17,14,20,9,12,54,,,,13,23,4,6,0.4,0.3
2025-08-31T0700,1312A,120.2994,36.054,青岛市,市南区西部子站,,17,14,20,10,11,52,,,,14,29,6,6,0.8,0.7
2025-08-31T0700,1313A,120.4581,36.0858,青岛市,崂山区子站,,21,6,10,3,4,65,,,,10,11,7,8,0.2,0.2
2025-08-31T0700,1315A,120.3999,36.3083,青岛市,城阳区子站,,18,12,19,12,11,43,,,,19,20,4,3,0.6,0.4
2025-08-31T0700,1966A,120.0405,35.8735,青岛市,黄岛区4号,,23,12,13,7,8,71,,,,12,20,5,5,0.7,0.6
2025-08-31T0700,3362A,120.5014,36.4034,青岛市,即墨2号,,20,19,18,10,7,62,,,,11,15,4,4,0.4,0.3
2025-08-31T0700,3642A,120.3503,36.0736,青岛市,市北区南部,,18,18,19,9,10,57,,,,20,26,6,7,0.9,0.8
2025-08-31T0700,3643A,120.3948,36.1805,青岛市,李沧区北部,,18,,16,12,12,41,,,,21,24,5,5,0.4,0.4
2025-08-31T0700,4290A,120.1969,35.9546,青岛市,珠江路669号,,29,,18,20,14,28,,,,47,37,6,6,0.7,0.6
2025-08-31T0700,1702A,113.0426,23.691,清远市,环保大楼,,30,30,27,15,15,11,,,,24,17,9,8,0.7,0.7
2025-08-31T0700,1703A,113.0208,23.7106,清远市,凤城街办,,29,29,26,11,13,8,,,,28,20,9,8,0.5,0.5
2025-08-31T0700,3025A,113.0477,23.6344,清远市,技师学院,,30,30,31,12,15,6,,,,28,24,11,10,0.6,0.6
2025-08-31T0700,3318A,112.9903,23.7403,清远市,清新太和,,21,21,24,13,14,13,,,,23,17,8,9,0.4,0.5
2025-08-31T0700,3455A,113.076,23.7198,清远市,清城东城,,28,28,26,10,13,8,,,,19,14,8,7,0.6,0.6
2025-08-31T0700,2661A,107.6325,35.7357,庆阳市,庆阳五中,,20,20,24,12,10,40,,,,6,9,7,7,0.3,0.3
2025-08-31T0700,2662A,107.6364,35.7067,庆阳市,市环保局,,16,12,21,3,10,51,,,,3,6,3,3,0.4,0.4
2025-08-31T0700,1916A,103.7897,25.5035,曲靖市,环境监测站,,37,37,22,13,7,13,,,,18,10,17,5,1.4,0.4
2025-08-31T0700,1917A,103.8,25.5364,曲靖市,烟厂办公区,,32,32,19,22,17,10,,,,17,9,13,5,1.5,0.7
2025-08-31T0700,3376A,103.7947,25.462,曲靖市,南苑二区,,25,25,16,13,7,8,,,,21,10,4,4,1.0,0.4
2025-08-31T0700,3377A,103.7444,25.5261,曲靖市,曲靖师范学院,,34,34,20,21,12,15,,,,22,12,17,10,1.6,0.4
2025-08-31T0700,1264A,118.8692,28.9398,衢州市,环保大楼,,29,29,26,12,12,27,,,,20,10,4,4,0.3,0.3
2025-08-31T0700,1265A,118.8709,28.9666,衢州市,实验学校,,26,26,21,14,11,21,,,,24,10,5,5,0.4,0.4
2025-08-31T0700,1266A,118.8621,28.9808,衢州市,衢州学院,,27,27,21,14,11,22,,,,29,13,4,4,0.4,0.3
2025-08-31T0700,1611A,118.5819,24.9117,泉州市,涂山街,,37,37,21,22,11,17,,,,19,10,3,3,0.5,0.4
2025-08-31T0700,1612A,118.5972,24.8978,泉州市,津头埔,,38,38,21,26,11,18,,,,15,8,4,4,0.6,0.4
2025-08-31T0700,1613A,118.6663,24.9424,泉州市,万安,,22,22,20,11,9,14,,,,12,7,4,3,0.4,0.4
2025-08-31T0700,1614A,118.6117,24.9604,泉州市,清源山,,,,16,,8,,,52,,,5,,3,,0.4
2025-08-31T0700,3529A,118.6333,24.9264,泉州市,城华南路,,21,21,17,14,8,18,,,,7,8,4,4,0.3,0.3
2025-08-31T0700,2626A,88.8876,29.2718,日喀则市,日喀则监测站,,27,6,11,3,3,85,,,,3,11,10,9,0.2,0.2
2025-08-31T0700,3726A,88.8781,29.2426,日喀则市,林业技术推广中心,,25,6,10,3,0,80,,,,3,5,6,6,0.3,0.3
2025-08-31T0700,1659A,119.471,35.4209,日照市,监测站,,26,,11,18,11,33,,,,20,27,6,6,0.9,0.7
2025-08-31T0700,1660A,119.523,35.4216,日照市,市政府广场,,17,17,12,6,7,42,,,,22,20,6,5,1.0,0.9
2025-08-31T0700,1661A,119.5587,35.4044,日照市,港务局,,26,,13,18,16,30,,,,32,24,7,4,1.0,0.9
2025-08-31T0700,3507A,119.5328,35.4625,日照市,职业技术学院,,20,17,15,14,8,44,,,,13,18,5,5,1.0,0.8
2025-08-31T0700,3604A,119.3266,35.1044,日照市,岚山环保分局,,12,6,16,3,5,36,,,,17,23,8,8,0.7,0.8
2025-08-31T0700,1835A,111.1922,34.7752,三门峡市,市政府,,32,32,28,18,15,56,,,,9,17,6,8,0.3,0.4
2025-08-31T0700,1836A,111.1587,34.7942,三门峡市,开发区,,37,37,30,21,19,42,,,,7,11,3,5,0.2,0.2
2025-08-31T0700,1838A,111.143,34.7955,三门峡市,风景区,,18,18,19,10,13,42,,,,6,10,4,4,0.5,0.5
2025-08-31T0700,3039A,111.1911,34.7829,三门峡市,三门峡市第一小学,,30,28,29,21,22,54,,,,6,13,5,6,0.4,0.5
2025-08-31T0700,3598A,111.1,34.7167,三门峡市,富达温泉假日酒店,,42,,27,29,23,57,,,,8,16,4,5,0.3,0.3
2025-08-31T0700,2324A,117.6211,26.2625,三明市,三钢,,27,27,15,11,9,7,,,,16,11,4,3,1.3,0.5
2025-08-31T0700,2325A,117.635,26.2714,三明市,三明二中,,20,16,18,14,8,8,,,,12,9,3,3,0.6,0.4
2025-08-31T0700,2326A,117.6028,26.2378,三明市,三元区政府,,47,47,20,19,12,5,,,,13,12,1,2,0.6,0.4
2025-08-31T0700,2327A,117.7275,26.3108,三明市,洋溪,,,,14,,6,,,45,,,8,,3,,0.6
2025-08-31T0700,1876A,109.5078,18.2489,三亚市,河东子站,,13,12,14,3,5,39,,,,2,2,3,3,0.5,0.5
2025-08-31T0700,1877A,109.4964,18.2681,三亚市,河西子站,,11,10,15,3,2,34,,,,4,3,3,2,0.3,0.3
2025-08-31T0700,3540A,109.7348,18.3443,三亚市,君悦子站,颗粒物(PM10),55,60,53,3,5,37,,,,4,3,2,2,0.4,0.4
2025-08-31T0700,2624A,91.7608,29.2313,山南市,山南监测站,,17,6,5,3,3,52,,,,23,7,4,2,0.4,0.3
2025-08-31T0700,2625A,91.7706,29.2436,山南市,山南人民医院,,19,7,7,3,5,59,,,,14,5,4,3,0.2,0.2
2025-08-31T0700,1674A,116.6794,23.3667,汕头市,金平子站,,28,28,18,10,6,14,,,,27,11,10,4,1.5,0.7
2025-08-31T0700,1675A,116.7244,23.3633,汕头市,龙湖子站,,28,28,17,3,6,19,,,,21,8,15,8,0.9,0.6
2025-08-31T0700,1676A,116.7258,23.2775,汕头市,濠江子站,,18,18,18,7,6,11,,,,21,7,12,6,1.7,0.7
2025-08-31T0700,1677A,116.7519,23.4714,汕头市,澄海子站,,25,25,22,16,8,25,,,,16,9,14,5,0.7,0.6
2025-08-31T0700,1678A,116.6092,23.2539,汕头市,潮阳子站,,24,24,20,9,7,16,,,,8,8,5,7,0.8,0.8
2025-08-31T0700,3444A,116.454,23.2684,汕头市,潮南峡山,,25,25,14,17,8,14,,,,16,9,8,6,0.2,0.4
2025-08-31T0700,3624A,116.4069,23.2533,汕头市,潮南子站,,36,36,21,21,8,8,,,,17,6,8,5,0.6,0.5
2025-08-31T0700,1693A,115.3653,22.775,汕尾市,市环保局,,11,11,15,6,7,29,,,,9,8,3,3,0.5,0.4
2025-08-31T0700,1694A,115.3706,22.7898,汕尾市,市政府,,14,14,15,8,7,25,,,,11,8,4,4,0.3,0.2
2025-08-31T0700,1695A,115.3622,22.7925,汕尾市,新城中学,,15,15,18,6,5,24,,,,11,8,5,5,0.4,0.4
2025-08-31T0700,2645A,109.9154,33.8715,商洛市,监测站,,14,14,15,3,6,10,,,,17,15,2,3,0.4,0.5
2025-08-31T0700,3045A,109.9643,33.8471,商洛市,商州区中学,,20,20,16,3,7,10,,,,18,20,4,4,0.3,0.4
2025-08-31T0700,2408A,115.6702,34.4285,商丘市,环境监测站,细颗粒物(PM2.5),60,,46,43,33,71,,,,8,10,3,4,0.5,0.6
2025-08-31T0700,2409A,115.6458,34.4045,商丘市,粮食局,,23,11,42,11,19,72,,,,7,8,4,5,0.5,0.7
2025-08-31T0700,2410A,115.6293,34.3948,商丘市,睢阳区环保局,,22,,43,15,23,70,,,,7,7,4,5,0.5,0.5
2025-08-31T0700,3171A,115.6071,34.4465,商丘市,梁园区档案局,,22,20,44,15,23,64,,,,11,12,3,4,0.6,0.7
2025-08-31T0700,1141A,121.4,31.238,上海市,普陀,,14,14,17,3,5,19,,,,13,12,6,5,0.3,0.3
2025-08-31T0700,1142A,121.478,31.2036,上海市,十五厂,,10,10,18,3,7,18,,,,11,9,9,8,0.6,0.6
2025-08-31T0700,1143A,121.467,31.3008,上海市,虹口,,10,10,15,3,6,21,,,,9,7,6,6,0.4,0.4
2025-08-31T0700,1147A,121.425,31.2261,上海市,静安监测站,,12,12,16,3,7,25,,,,14,11,4,4,0.6,0.6
2025-08-31T0700,1148A,121.703,31.1907,上海市,浦东川沙,,22,22,17,3,6,14,,,,17,11,7,6,0.6,0.6
2025-08-31T0700,1149A,121.533,31.2284,上海市,浦东新区监测站,,15,15,13,9,8,18,,,,12,7,4,5,0.3,0.4
2025-08-31T0700,1150A,121.577,31.2071,上海市,浦东张江,,19,19,17,3,5,24,,,,14,8,6,6,0.7,0.6
2025-08-31T0700,3265A,121.4316,31.3322,上海市,宝山庙行,,13,13,15,3,7,23,,,,10,8,7,7,0.4,0.4
2025-08-31T0700,3266A,121.8791,31.4662,上海市,崇明上实东滩,,10,10,10,3,5,24,,,,10,10,5,5,0.3,0.3
2025-08-31T0700,3268A,121.3162,31.2838,上海市,嘉定南翔,,12,12,15,3,7,13,,,,19,16,9,4,0.3,0.2
2025-08-31T0700,3269A,121.3359,30.7456,上海市,金山新城,,10,10,11,3,6,29,,,,7,7,4,4,0.6,0.6
2025-08-31T0700,3270A,121.4996,31.0739,上海市,闵行浦江,,16,16,16,3,5,17,,,,11,8,5,4,0.8,0.7
2025-08-31T0700,3271A,121.2886,31.1663,上海市,青浦徐泾,,13,13,16,6,5,20,,,,12,8,7,7,0.5,0.4
2025-08-31T0700,3272A,121.2186,31.0378,上海市,松江图书馆,,11,11,12,3,6,21,,,,17,13,8,8,0.5,0.5
2025-08-31T0700,3273A,121.3902,31.2059,上海市,长宁仙霞,,17,17,17,3,6,17,,,,14,11,9,8,0.7,0.5
2025-08-31T0700,3274A,121.7965,31.0507,上海市,浦东惠南,,23,23,26,6,4,16,,,,14,10,10,10,0.3,0.4
2025-08-31T0700,3544A,121.4891,30.925,上海市,奉贤南桥新城,,16,16,13,8,7,19,,,,11,5,4,4,0.2,0.2
2025-08-31T0700,4183A,121.4174,31.16637,上海市,冠生园路458号,,14,14,14,3,6,17,,,,19,14,4,4,0.5,0.5
2025-08-31T0700,4205A,121.5419,31.2683,上海市,宁武路151号,,,,26,,8,,,47,,,13,,4,,0.3
2025-08-31T0700,2381A,118.005,28.4572,上饶市,百草园,,,,,,,,,,,,,,,,
2025-08-31T0700,2382A,117.9756,28.4436,上饶市,市监测站,,21,21,22,9,8,31,,,,19,12,24,6,0.7,0.6
2025-08-31T0700,2383A,117.9519,28.4628,上饶市,凤凰光学,,24,24,24,14,11,27,,,,17,10,29,10,0.1,0.1
2025-08-31T0700,3685A,117.897,28.4315,上饶市,双创科技城,,17,17,19,9,11,40,,,,15,10,28,10,0.4,0.4
2025-08-31T0700,4211A,118.1904,28.4448,上饶市,裕丰大道,,25,25,22,7,9,14,,,,21,10,9,5,0.5,0.4
2025-08-31T0700,1669A,113.5824,24.7733,韶关市,市八中,,23,23,28,13,15,10,,,,16,13,15,12,0.7,0.6
2025-08-31T0700,1671A,113.5917,24.7972,韶关市,园林处,,33,33,24,18,16,4,,,,17,11,10,10,0.5,0.4
2025-08-31T0700,1673A,113.5971,24.6863,韶关市,曲江监测站,,36,36,36,20,21,7,,,,20,21,11,20,0.9,0.9
2025-08-31T0700,2809A,113.6668,24.7756,韶关市,大学路288号,,35,35,28,21,15,4,,,,14,11,6,8,0.7,0.6
2025-08-31T0700,3622A,113.5556,24.8082,韶关市,碧湖山庄,,31,31,30,14,16,8,,,,11,10,10,10,0.6,0.6
2025-08-31T0700,2462A,111.5239,27.3033,邵阳市,市水土所,,,,,,,,,,,,,,,,
2025-08-31T0700,2464A,111.5283,27.2442,邵阳市,市化工厂,,21,21,27,13,18,14,,,,16,13,13,12,0.8,0.8
2025-08-31T0700,2466A,111.4328,27.2272,邵阳市,市环保局,,25,25,28,17,16,22,,,,13,9,8,8,0.7,0.7
2025-08-31T0700,4218A,111.4460,27.2472,邵阳市,北塔二期4-26地块,,33,33,29,14,17,15,,,,15,10,11,8,0.5,0.5
2025-08-31T0700,4219A,111.4739,27.2282,邵阳市,邵水西路287号,,22,22,36,6,18,28,,,,13,12,8,10,0.5,0.5
2025-08-31T0700,1247A,120.6053,29.9928,绍兴市,城东开发委,,35,35,21,13,9,43,,,,18,10,8,6,0.4,0.2
2025-08-31T0700,2921A,120.5483,30.0003,绍兴市,树下王站,,25,25,21,9,10,49,,,,16,9,8,6,0.4,0.3
2025-08-31T0700,3408A,120.5683,29.9361,绍兴市,绍兴中专,,27,27,17,9,11,19,,,,32,13,7,6,0.4,0.4
2025-08-31T0700,3409A,120.4906,30.0861,绍兴市,柯桥区政府,,32,32,25,18,11,51,,,,15,11,10,8,0.5,0.3
2025-08-31T0700,3410A,120.8752,30.0249,绍兴市,重华小学,,36,36,14,16,7,27,,,,24,7,8,8,0.6,0.4
2025-08-31T0700,3411A,120.8369,30.0137,绍兴市,上虞中学,,43,43,17,25,9,26,,,,27,11,6,5,0.5,0.4
2025-08-31T0700,3560A,120.4722,30.0415,绍兴市,柯桥妇保,,36,36,25,21,12,47,,,,17,10,4,4,0.5,0.4
2025-08-31T0700,3658A,120.6153,30.0764,绍兴市,袍江中学,,34,34,24,17,11,48,,,,17,11,8,8,0.7,0.5
2025-08-31T0700,1356A,114.1063,22.5545,深圳市,通心岭子站,,8,8,14,3,5,21,,,,12,7,7,6,0.4,0.4
2025-08-31T0700,1357A,114.117,22.5625,深圳市,洪湖,,9,9,14,3,3,19,,,,11,4,6,6,0.4,0.4
2025-08-31T0700,1358A,113.987,22.5417,深圳市,华侨城,,10,10,15,3,5,24,,,,6,5,6,6,0.2,0.2
2025-08-31T0700,1359A,113.9181,22.5171,深圳市,南海子站,,9,9,14,3,5,28,,,,4,4,5,5,0.6,0.6
2025-08-31T0700,1360A,114.2458,22.5689,深圳市,盐田,,15,15,20,3,4,1,,,,27,15,9,8,0.4,0.4
2025-08-31T0700,1361A,114.2283,22.7244,深圳市,龙岗,,14,14,15,3,4,14,,,,15,4,7,6,0.9,0.8
2025-08-31T0700,1363A,114.494,22.5422,深圳市,南澳,,6,6,9,3,2,14,,,,4,3,5,5,0.6,0.6
2025-08-31T0700,1364A,114.41,22.6342,深圳市,葵涌,,9,9,13,3,4,17,,,,6,5,7,8,0.5,0.5
2025-08-31T0700,1365A,114.297,22.5978,深圳市,梅沙,,11,11,18,3,5,22,,,,4,3,8,8,0.4,0.3
2025-08-31T0700,1366A,114.0678,22.738,深圳市,观澜,,25,25,23,3,5,16,,,,18,11,10,8,0.7,0.6
2025-08-31T0700,3305A,114.0731,22.559,深圳市,莲花,,11,11,16,3,6,16,,,,12,8,7,7,0.5,0.5
2025-08-31T0700,3306A,114.0261,22.6198,深圳市,民治,,8,7,12,3,4,20,,,,16,8,7,7,0.4,0.4
2025-08-31T0700,3307A,114.1871,22.6451,深圳市,横岗,,11,11,15,3,7,23,,,,10,5,6,6,0.6,0.7
2025-08-31T0700,3447A,114.3551,22.7151,深圳市,坪山,,31,31,15,10,6,11,,,,22,11,9,8,0.6,0.5
2025-08-31T0700,3623A,113.8953,22.5861,深圳市,西乡,,8,8,13,3,2,20,,,,15,13,5,5,0.6,0.7
2025-08-31T0700,1098A,123.6836,41.9339,沈阳市,森林路,,,,39,,25,,,56,,,14,,7,,1.1
2025-08-31T0700,1099A,123.505,41.7406,沈阳市,浑南东路,,28,28,37,17,22,4,,,,23,28,5,6,0.8,1.2
2025-08-31T0700,1100A,123.4231,41.6989,沈阳市,新秀街,,26,26,36,14,21,2,,,,32,30,3,7,0.8,1.2
2025-08-31T0700,1102A,123.5903,41.8411,沈阳市,东陵路,,41,41,41,17,22,3,,,,20,22,5,7,1.1,1.4
2025-08-31T0700,1103A,123.4264,41.8467,沈阳市,陵东街,,33,33,34,18,22,1,,,,17,14,3,4,1.4,1.3
2025-08-31T0700,1104A,123.4114,41.7653,沈阳市,文化路,,46,46,56,21,24,13,,,,21,20,7,9,1.1,1.3
2025-08-31T0700,1105A,123.4678,41.7867,沈阳市,小河沿,,28,28,34,16,22,2,,,,17,18,6,7,1.0,1.2
2025-08-31T0700,1106A,123.4017,41.7972,沈阳市,太原街,颗粒物(PM10),58,65,44,31,28,12,,,,24,22,6,7,1.4,1.2
2025-08-31T0700,1108A,123.3783,41.9228,沈阳市,京沈街,,50,50,41,23,25,4,,,,26,27,10,10,1.9,1.3
2025-08-31T0700,2897A,123.2444,41.7347,沈阳市,沈辽西路,,33,33,43,14,22,5,,,,32,23,12,15,1.0,1.2
2025-08-31T0700,2900A,123.5953,41.9086,沈阳市,裕农路,,28,28,38,6,11,8,,,,10,16,2,4,0.8,1.3
2025-08-31T0700,2428A,111.0419,32.395,十堰市,武当山,,15,6,9,3,4,45,,,,2,3,7,8,0.7,0.7
2025-08-31T0700,2429A,110.78,32.6494,十堰市,滨河新村,,12,12,27,3,8,33,,,,8,10,8,8,0.5,0.5
2025-08-31T0700,2430A,110.7258,32.6389,十堰市,刘家沟,,23,23,25,3,8,30,,,,5,5,8,8,0.5,0.5
2025-08-31T0700,2431A,110.8839,32.5714,十堰市,铁二处,,19,19,18,6,10,23,,,,6,8,8,8,0.5,0.5
2025-08-31T0700,3545A,110.8054,32.8401,十堰市,郧阳区金沙路,,24,24,22,3,8,41,,,,6,4,6,6,0.5,0.5
2025-08-31T0700,2709A,86.0497,44.2967,石河子市,艾青诗歌馆,颗粒物(PM10),51,51,54,22,27,35,,,,30,31,10,13,0.5,0.6
2025-08-31T0700,3442A,86.047,44.2331,石河子市,南区管委会,,39,39,59,11,18,98,,,,7,20,11,12,0.5,0.5
2025-08-31T0700,4051A,86.0791,44.3017,石河子市,世纪广场,颗粒物(PM10),59,68,62,15,19,44,,,,23,31,6,9,0.5,0.6
2025-08-31T0700,1029A,114.4422,38.0444,石家庄市,职工医院,,36,36,25,9,11,40,,,,15,10,4,2,0.6,0.3
2025-08-31T0700,1030A,114.6063,38.0266,石家庄市,高新区,,41,41,32,16,19,23,,,,28,16,3,2,0.5,0.5
2025-08-31T0700,1031A,114.4898,38.1328,石家庄市,西北水源,,41,41,34,9,11,8,,,,37,19,3,3,0.3,0.3
2025-08-31T0700,1032A,114.4586,38.0058,石家庄市,西南高教,,32,32,30,9,12,54,,,,10,15,3,2,0.4,0.3
2025-08-31T0700,1033A,114.5331,38.0178,石家庄市,世纪公园,,35,35,29,14,20,44,,,,13,11,4,4,0.5,0.4
2025-08-31T0700,1034A,114.509,38.0457,石家庄市,人民会堂,,23,23,33,7,12,40,,,,21,12,3,3,0.5,0.3
2025-08-31T0700,1035A,114.3524,37.8911,石家庄市,封龙山,颗粒物(PM10),62,73,32,27,15,90,,,,14,7,13,5,0.9,0.5
2025-08-31T0700,2862A,114.5481,38.0378,石家庄市,22中南校区,,36,36,40,22,19,47,,,,14,11,1,2,0.5,0.3
2025-08-31T0700,3456A,114.289,38.0906,石家庄市,鹿泉一中,,39,39,31,18,16,30,,,,16,8,3,2,0.6,0.3
2025-08-31T0700,3573A,114.8506765,38.0322033,石家庄市,藁城区实验学校,,44,44,36,18,13,42,,,,21,14,3,4,0.3,0.3
2025-08-31T0700,4024A,114.6549,37.9020,石家庄市,栾城区星河路,,49,49,42,15,20,13,,,,33,17,3,5,0.2,0.2
