timepoint,stationcode,longitude,latitude,area,positionname,primarypollutant,aqi,pm10,pm10_24h,pm2_5,pm2_5_24h,o3,o3_24h,o3_8h,o3_8h_24h,no2,no2_24h,so2,so2_24h,co,co_24h
2022-04-25T23:00:00,1001A,116.3621,39.8784,北京市,万寿西宫,颗粒物(PM10),123,195,153,65,60,196,73,173,123,51,37,2,4,1.6,1.3
2022-04-25T23:00:00,1002A,116.2202,40.2915,北京市,定陵(对照点),颗粒物(PM10),118,186,150,70,56,224,82,183,147,20,20,3,3,1.1,0.9
2022-04-25T23:00:00,1003A,116.4174,39.9289,北京市,东四,颗粒物(PM10),119,188,160,75,68,198,74,170,122,36,26,3,6,1.8,1.7
2022-04-25T23:00:00,1004A,116.4072,39.8863,北京市,天坛,颗粒物(PM10),117,183,148,62,62,196,75,174,125,28,22,3,5,1.6,1.3
2022-04-25T23:00:00,1005A,116.462,39.9365,北京市,农展馆,颗粒物(PM10),119,188,156,73,73,202,72,173,124,53,43,3,4,1.6,1.3
2022-04-25T23:00:00,1006A,116.3392,39.9295,北京市,官园,颗粒物(PM10),122,193,153,69,64,194,65,169,125,32,25,5,7,1.5,1.2
2022-04-25T23:00:00,1007A,116.2878,39.9611,北京市,海淀万柳,颗粒物(PM10),122,193,151,64,55,201,63,173,128,35,35,1,4,1.5,1.1
2022-04-25T23:00:00,1008A,116.6636,40.135,北京市,顺义新城,颗粒物(PM10),129,207,170,68,66,152,74,120,89,22,21,1,4,1.3,1.1
2022-04-25T23:00:00,1009A,116.6275,40.3275,北京市,怀柔镇,颗粒物(PM10),117,184,150,64,55,192,107,152,126,18,21,3,5,1.3,1
2022-04-25T23:00:00,1010A,116.2296,40.217,北京市,昌平镇,颗粒物(PM10),121,191,143,56,50,220,81,179,138,29,25,1,3,1.4,1.1
2022-04-25T23:00:00,1011A,116.3966,39.9821,北京市,奥体中心,细颗粒物(PM2.5),159,200,157,121,82,202,73,170,126,39,34,3,4,1.3,1.1
2022-04-25T23:00:00,1012A,116.184,39.9136,北京市,古城,颗粒物(PM10),122,194,154,75,60,193,64,174,135,29,32,2,4,1.4,1.1
2022-04-25T23:00:00,1015A,117.1444,39.1661,天津市,勤俭道,细颗粒物(PM2.5),79,98,131,58,82,209,78,167,149,35,37,12,14,1.0,1.2
2022-04-25T23:00:00,1017A,117.237,39.1082,天津市,大直沽八号路,颗粒物(PM10),75,100,124,39,48,213,72,165,144,46,38,15,16,0.8,1
2022-04-25T23:00:00,1018A,117.202,39.0927,天津市,前进道,颗粒物(PM10),65,80,96,36,45,196,81,152,135,32,39,10,12,1.1,1.3
2022-04-25T23:00:00,1019A,117.1837,39.2133,天津市,淮河道,细颗粒物(PM2.5),97,114,138,72,87,204,62,161,143,50,37,12,14,1.1,1.4
2022-04-25T23:00:00,1021A,117.307,39.0877,天津市,跃进路,颗粒物(PM10),68,85,121,29,44,194,40,147,124,71,54,9,13,0.8,1.1
2022-04-25T23:00:00,1023A,117.707,39.0343,天津市,第四大街,,32,32,90,16,64,92,50,78,70,34,51,11,9,0.6,0.9
2022-04-25T23:00:00,1024A,117.457,38.8394,天津市,永明路,颗粒物(PM10),54,57,97,30,62,144,72,134,120,24,30,15,13,0.8,0.8
2022-04-25T23:00:00,1026A,117.764,39.1587,天津市,汉北路,,22,22,85,12,54,168,59,138,110,25,24,9,11,0.5,1.1
2022-04-25T23:00:00,1027A,117.157,38.9194,天津市,团泊洼(对照点),细颗粒物(PM2.5),53,46,53,37,61,177,22,144,102,66,46,5,9,1.5,1.3
2022-04-25T23:00:00,1029A,114.4422,38.0444,石家庄市,职工医院,细颗粒物(PM2.5),110,134,176,83,81,202,44,166,111,47,41,7,8,0.8,0.9
2022-04-25T23:00:00,1030A,114.6063,38.0266,石家庄市,高新区,细颗粒物(PM2.5),72,38,134,52,75,173,75,168,113,21,17,9,13,1.0,1.2
2022-04-25T23:00:00,1031A,114.4898,38.1328,石家庄市,西北水源,细颗粒物(PM2.5),110,133,162,83,96,206,40,170,123,44,27,8,10,0.9,1
2022-04-25T23:00:00,1032A,114.4586,38.0058,石家庄市,西南高教,细颗粒物(PM2.5),117,103,154,88,97,203,50,168,113,38,30,6,8,1.1,1.2
2022-04-25T23:00:00,1033A,114.5331,38.0178,石家庄市,世纪公园,细颗粒物(PM2.5),93,117,179,69,95,198,72,165,123,26,23,1,4,1.0,1.2
2022-04-25T23:00:00,1034A,114.509,38.0457,石家庄市,人民会堂,细颗粒物(PM2.5),105,103,166,79,98,209,80,173,129,29,30,14,15,0.8,1.1
2022-04-25T23:00:00,1035A,114.3524,37.8911,石家庄市,封龙山(对照点),细颗粒物(PM2.5),123,160,181,93,87,213,187,195,190,8,12,14,14,1.3,1.1
2022-04-25T23:00:00,1037A,118.131,39.6363,唐山市,雷达站,,50,50,116,22,69,174,59,136,113,25,24,4,10,0.4,1.4
2022-04-25T23:00:00,1038A,118.1725,39.6334,唐山市,物资局,细颗粒物(PM2.5),57,43,109,40,64,168,58,129,107,28,31,7,14,0.5,1.4
2022-04-25T23:00:00,1040A,118.1705,39.6506,唐山市,十二中,颗粒物(PM10),52,53,104,31,64,155,57,120,101,19,25,6,12,0.6,1.4
2022-04-25T23:00:00,1041A,118.1869,39.622,唐山市,小山,,42,42,114,21,53,181,58,134,111,30,32,6,13,0.4,1.4
2022-04-25T23:00:00,1042A,119.5134,39.8207,秦皇岛市,北戴河环保局,,33,33,48,21,29,111,51,111,65,32,29,8,8,1.3,1.5
2022-04-25T23:00:00,1043A,119.7493,40.0116,秦皇岛市,第一关,,,,,,59,,,,,28,32,12,12,0.4,0.5
2022-04-25T23:00:00,1044A,119.5897,39.9499,秦皇岛市,监测站,,49,49,83,24,46,99,68,85,77,28,38,5,8,0.5,0.7
2022-04-25T23:00:00,1046A,119.5251,39.9041,秦皇岛市,建设大厦,颗粒物(PM10),51,52,81,30,41,106,82,93,86,15,29,4,5,0.5,0.6
2022-04-25T23:00:00,1048A,114.5302,36.6116,邯郸市,东污水处理厂,细颗粒物(PM2.5),80,72,113,59,88,148,93,139,128,15,18,6,10,0.8,0.9
2022-04-25T23:00:00,1049A,114.4918,36.5713,邯郸市,矿院,细颗粒物(PM2.5),64,67,116,46,73,151,90,141,128,12,11,3,8,0.5,0.6
2022-04-25T23:00:00,1050A,114.484,36.6133,邯郸市,丛台公园,细颗粒物(PM2.5),70,64,87,51,77,160,98,146,135,18,15,5,7,0.7,0.8
2022-04-25T23:00:00,1051A,115.493,38.8632,保定市,游泳馆,细颗粒物(PM2.5),119,145,116,90,79,153,81,151,124,28,19,15,16,0.7,0.7
2022-04-25T23:00:00,1053A,115.4713,38.9108,保定市,接待中心,细颗粒物(PM2.5),125,149,152,95,87,189,118,164,146,19,31,6,8,0.9,0.9
2022-04-25T23:00:00,1054A,115.4612,38.8416,保定市,地表水厂,细颗粒物(PM2.5),123,151,146,93,76,180,99,164,138,19,22,8,11,0.9,0.9
2022-04-25T23:00:00,1055A,115.4323,38.8697,保定市,胶片厂,细颗粒物(PM2.5),112,123,118,84,74,180,79,156,126,16,20,10,13,1.0,1
2022-04-25T23:00:00,1056A,115.5086,38.8639,保定市,监测站,细颗粒物(PM2.5),144,127,140,110,96,167,87,151,128,20,29,6,9,0.9,1
2022-04-25T23:00:00,1057A,114.8883,40.8336,张家口市,人民公园,颗粒物(PM10),117,183,237,33,51,181,93,163,118,4,11,4,5,0.2,0.4
2022-04-25T23:00:00,1059A,114.8687,40.8042,张家口市,五金库,颗粒物(PM10),100,149,287,44,58,192,96,166,118,5,16,5,7,0.1,0.3
2022-04-25T23:00:00,1060A,114.8902,40.762,张家口市,世纪豪园,颗粒物(PM10),139,228,242,60,74,189,90,165,118,10,18,3,5,0.4,0.6
2022-04-25T23:00:00,1061A,114.8916,40.8661,张家口市,北泵房(对照点),颗粒物(PM10),102,153,242,44,53,187,95,171,108,3,8,7,8,0.2,0.4
2022-04-25T23:00:00,1062A,117.9531,40.9081,承德市,铁路,"颗粒物(PM10),细颗粒物(PM2.5)",85,119,115,63,42,178,62,155,113,53,34,9,9,0.7,0.7
2022-04-25T23:00:00,1063A,117.9392,40.9763,承德市,中国银行,颗粒物(PM10),84,117,109,61,49,183,83,164,132,31,22,8,7,0.9,0.7
2022-04-25T23:00:00,1064A,117.9503,40.928,承德市,开发区,颗粒物(PM10),85,120,107,57,41,197,75,173,136,41,26,13,11,0.9,0.8
2022-04-25T23:00:00,1065A,117.8051,40.9655,承德市,文化中心,细颗粒物(PM2.5),108,114,117,81,54,202,153,182,163,15,23,6,8,0.7,0.7
2022-04-25T23:00:00,1066A,117.9268,41.0026,承德市,离宫(对照点),细颗粒物(PM2.5),89,110,108,66,44,198,98,175,140,17,19,7,6,0.7,0.7
2022-04-25T23:00:00,1067A,116.6708,39.5111,廊坊市,药材公司,细颗粒物(PM2.5),132,168,147,100,89,126,58,118,102,42,26,7,8,1.3,1.2
2022-04-25T23:00:00,1068A,116.7214,39.5589,廊坊市,开发区,细颗粒物(PM2.5),135,166,141,103,93,113,51,106,93,43,39,7,8,1.2,1.1
2022-04-25T23:00:00,1070A,116.7244,39.5269,廊坊市,北华航天学院,细颗粒物(PM2.5),142,192,159,108,100,119,48,108,90,49,30,11,11,1.5,1.3
2022-04-25T23:00:00,1071A,116.8842,38.2991,沧州市,沧县城建局,细颗粒物(PM2.5),99,102,84,74,72,145,82,135,124,43,37,16,13,0.8,0.7
2022-04-25T23:00:00,1072A,116.8584,38.3254,沧州市,电视转播站,细颗粒物(PM2.5),94,110,98,70,68,140,97,131,122,23,28,6,6,0.9,0.8
2022-04-25T23:00:00,1073A,116.8709,38.3228,沧州市,市环保局,细颗粒物(PM2.5),98,106,98,73,75,150,113,143,138,22,33,12,10,1.1,1
2022-04-25T23:00:00,1074A,115.6838,37.7541,衡水市,电机北厂,细颗粒物(PM2.5),69,73,87,50,62,153,133,146,143,15,23,9,7,0.2,0.3
2022-04-25T23:00:00,1075A,115.6303,37.7316,衡水市,市监测站,颗粒物(PM10),76,101,96,41,47,149,109,138,128,14,14,9,10,0.5,0.6
2022-04-25T23:00:00,1077A,114.4704,37.0886,邢台市,达活泉,颗粒物(PM10),74,97,158,46,75,164,110,148,136,12,19,8,8,1.0,1
2022-04-25T23:00:00,1078A,114.5062,37.0349,邢台市,邢师高专,细颗粒物(PM2.5),73,85,149,53,82,162,93,142,122,17,20,5,8,0.9,1.1
2022-04-25T23:00:00,1079A,114.5237,37.0851,邢台市,路桥公司,细颗粒物(PM2.5),89,102,157,66,95,159,107,141,126,16,23,7,9,1.1,1.1
2022-04-25T23:00:00,1081A,112.5139,37.8873,太原市,尖草坪,"颗粒物(PM10),细颗粒物(PM2.5)",104,158,101,78,49,158,22,146,114,97,38,9,11,1.0,0.5
2022-04-25T23:00:00,1083A,112.434,38.0108,太原市,上兰(对照点),,,,,37,37,156,118,148,144,10,15,10,13,0.4,0.5
2022-04-25T23:00:00,1084A,112.469,37.7124,太原市,晋源,颗粒物(PM10),69,87,93,49,55,161,76,145,121,54,47,13,16,0.5,0.6
2022-04-25T23:00:00,1085A,112.5583,37.7394,太原市,小店,颗粒物(PM10),106,162,132,75,58,159,64,146,115,61,57,21,22,1.1,1
2022-04-25T23:00:00,1086A,112.5369,37.8692,太原市,桃园,颗粒物(PM10),120,190,105,87,48,157,10,145,106,116,52,4,11,1.5,0.8
2022-04-25T23:00:00,1087A,112.57,37.8195,太原市,坞城,颗粒物(PM10),102,154,128,69,60,158,12,154,105,114,57,12,15,0.7,0.9
2022-04-25T23:00:00,1088A,112.549,37.9854,太原市,南寨,颗粒物(PM10),99,148,115,51,48,154,19,137,110,77,39,10,14,0.5,0.6
2022-04-25T23:00:00,1090A,111.6507,40.7517,呼和浩特市,呼市一监,颗粒物(PM10),84,117,127,26,42,130,90,109,93,8,38,3,9,0.2,0.4
2022-04-25T23:00:00,1091A,111.6572,40.8033,呼和浩特市,小召,颗粒物(PM10),75,100,125,21,37,121,83,102,87,9,33,5,8,0.3,0.4
2022-04-25T23:00:00,1094A,111.7516,40.8369,呼和浩特市,如意水处理厂,颗粒物(PM10),67,84,96,16,30,131,87,111,94,6,30,7,10,0.2,0.4
2022-04-25T23:00:00,1095A,111.7276,40.8062,呼和浩特市,二十九中,颗粒物(PM10),70,89,123,20,36,108,80,87,82,6,28,2,7,0.4,0.5
2022-04-25T23:00:00,1096A,111.5512,40.7866,呼和浩特市,工大金川校区,颗粒物(PM10),82,113,119,20,32,117,78,98,84,7,26,4,7,0.3,0.4
2022-04-25T23:00:00,1097A,111.717,40.7612,呼和浩特市,化肥厂生活区,颗粒物(PM10),82,113,140,34,53,118,79,100,86,6,27,8,12,0.1,0.3
2022-04-25T23:00:00,1098A,123.6836,41.9339,沈阳市,森林路(对照点),,25,22,53,11,29,142,78,132,98,17,20,10,14,0.5,0.7
2022-04-25T23:00:00,1099A,123.505,41.7406,沈阳市,浑南东路,,31,31,79,5,44,148,72,135,91,16,36,46,25,0.6,1.1
2022-04-25T23:00:00,1100A,123.4231,41.6989,沈阳市,新秀街,,28,28,83,7,40,141,71,132,93,20,38,21,19,0.4,0.9
2022-04-25T23:00:00,1102A,123.5903,41.8411,沈阳市,东陵路,,26,26,72,15,36,146,50,130,89,33,29,13,18,0.7,0.9
2022-04-25T23:00:00,1103A,123.4264,41.8467,沈阳市,陵东街,,25,11,76,4,42,154,80,136,99,15,33,13,12,0.4,0.9
2022-04-25T23:00:00,1104A,123.4114,41.7653,沈阳市,文化路,,27,22,75,1,45,160,84,141,101,9,20,14,18,0.9,1.4
2022-04-25T23:00:00,1105A,123.4678,41.7867,沈阳市,小河沿,,28,28,76,5,39,139,84,129,99,10,30,23,14,0.5,1
2022-04-25T23:00:00,1106A,123.4017,41.7972,沈阳市,太原街,,26,25,88,6,44,172,82,150,105,18,25,10,15,0.5,1
2022-04-25T23:00:00,1108A,123.3783,41.9228,沈阳市,京沈街,,31,31,79,2,42,167,90,148,108,12,29,10,16,0.9,1.3
2022-04-25T23:00:00,1109A,121.612,38.9741,大连市,甘井子,颗粒物(PM10),52,54,42,35,25,96,85,83,68,24,28,5,6,0.5,0.6
2022-04-25T23:00:00,1110A,121.565,38.9511,大连市,周水子,,48,48,38,24,19,92,92,75,74,16,23,7,10,0.4,0.6
2022-04-25T23:00:00,1111A,121.5637,38.8845,大连市,星海三站,细颗粒物(PM2.5),54,40,33,38,23,101,96,90,72,18,23,6,5,0.6,0.6
2022-04-25T23:00:00,1112A,121.6302,38.9117,大连市,青泥洼桥,,35,35,28,20,13,104,104,91,83,14,16,7,7,0.5,0.5
2022-04-25T23:00:00,1113A,121.6251,38.8638,大连市,傅家庄,,39,39,28,18,12,114,114,104,85,16,21,8,10,0.7,0.5
2022-04-25T23:00:00,1114A,121.5213,38.8661,大连市,七贤岭,颗粒物(PM10),51,52,38,20,14,33,22,21,15,18,21,12,12,0.6,0.5
2022-04-25T23:00:00,1115A,121.2529,38.8061,大连市,旅顺,,29,28,26,20,13,107,83,96,77,19,16,7,7,0.6,0.6
2022-04-25T23:00:00,1116A,121.7485,39.1311,大连市,金州,,28,27,27,5,13,105,89,105,83,12,16,2,4,0.5,0.7
2022-04-25T23:00:00,1117A,121.7811,39.0496,大连市,开发区,,37,37,32,22,20,106,96,96,54,12,31,8,6,0.5,0.6
2022-04-25T23:00:00,1118A,121.9762,39.0631,大连市,双D港,,33,31,18,23,14,113,100,96,83,22,21,11,11,0.5,0.5
2022-04-25T23:00:00,1119A,125.3325,43.9166,长春市,食品厂,,43,43,86,18,55,171,118,155,147,5,16,7,8,0.6,0.8
2022-04-25T23:00:00,1120A,125.2863,43.9027,长春市,客车厂,,,37,85,21,51,181,122,161,153,,,6,8,1.2,1.4
2022-04-25T23:00:00,1121A,125.2841,43.8463,长春市,邮电学院,,,45,103,16,51,,,,,4,13,2,4,0.9,1.1
2022-04-25T23:00:00,1122A,125.3716,43.8772,长春市,劳动公园,,,47,82,18,54,188,126,171,160,,,2,4,0.5,0.7
2022-04-25T23:00:00,1123A,125.3297,43.8805,长春市,园林处,,39,29,75,13,27,184,124,168,156,5,10,5,6,0.6,0.5
2022-04-25T23:00:00,1124A,125.4605,43.79,长春市,净月潭,,,30,75,8,34,,,,,,,,,,
2022-04-25T23:00:00,1125A,125.7194,43.515,长春市,甩湾子(对照点),,,34,71,10,37,147,100,141,122,5,12,,,0.4,0.6
2022-04-25T23:00:00,1126A,125.3863,43.8447,长春市,经开区环卫处,,,36,83,18,59,163,113,151,141,,,8,9,1.1,1.3
2022-04-25T23:00:00,1127A,125.245,43.7783,长春市,高新区管委会,,39,26,88,13,59,183,122,164,154,5,15,5,7,0.9,1.1
2022-04-25T23:00:00,1128A,125.1761,43.8325,长春市,岱山公园,,35,31,83,20,53,171,109,154,144,7,14,6,8,0.7,0.8
2022-04-25T23:00:00,1129A,126.5422,45.755,哈尔滨市,岭北(对照点),颗粒物(PM10),103,155,161,56,114,201,128,156,130,13,30,12,13,0.8,0.9
2022-04-25T23:00:00,1130A,126.561,45.8167,哈尔滨市,松北商大,,,93,130,68,127,146,,146,,14,32,13,8,1.1,1.1
2022-04-25T23:00:00,1131A,126.979,45.5419,哈尔滨市,阿城会宁,细颗粒物(PM2.5),112,169,150,84,111,179,95,165,119,20,27,28,22,0.9,0.9
2022-04-25T23:00:00,1132A,126.599,45.7222,哈尔滨市,南岗学府路,颗粒物(PM10),90,129,156,48,122,217,129,164,123,11,37,23,27,0.9,1
2022-04-25T23:00:00,1133A,126.689,45.7733,哈尔滨市,太平宏伟公园,颗粒物(PM10),112,174,201,59,143,205,126,150,102,10,41,17,19,1.0,1.1
2022-04-25T23:00:00,1134A,126.635,45.7667,哈尔滨市,道外承德广场,颗粒物(PM10),109,167,188,44,134,198,137,148,116,14,46,12,16,0.7,0.8
2022-04-25T23:00:00,1135A,126.685,45.7319,哈尔滨市,香坊红旗大街,颗粒物(PM10),96,141,174,58,136,214,124,153,108,20,51,16,18,0.8,0.9
2022-04-25T23:00:00,1136A,126.6411,45.7258,哈尔滨市,动力和平路,颗粒物(PM10),96,142,184,50,147,193,127,156,111,11,36,14,17,0.7,1.1
2022-04-25T23:00:00,1137A,126.593,45.7478,哈尔滨市,道里建国路,颗粒物(PM10),94,138,157,63,132,204,113,163,130,18,35,42,21,1.1,1.2
2022-04-25T23:00:00,1138A,126.615,45.61,哈尔滨市,平房东轻厂,,,145,179,68,157,195,126,167,124,15,32,24,24,,0
2022-04-25T23:00:00,1139A,126.595,45.9855,哈尔滨市,呼兰师专,颗粒物(PM10),120,189,229,81,207,188,130,151,115,16,45,13,16,1.1,1.2
2022-04-25T23:00:00,1140A,126.6206,45.6842,哈尔滨市,省农科院,颗粒物(PM10),110,170,174,46,130,194,118,153,116,15,34,16,18,0.7,0.8
2022-04-25T23:00:00,1141A,121.4,31.238,上海市,普陀,,30,19,21,21,16,130,75,111,84,20,15,3,4,1.6,1.6
2022-04-25T23:00:00,1142A,121.478,31.2036,上海市,十五厂,,30,17,15,21,21,116,63,97,70,21,14,27,6,1.0,0.9
2022-04-25T23:00:00,1143A,121.467,31.3008,上海市,虹口,,,12,17,,,108,58,91,62,22,15,7,4,1.2,1.1
2022-04-25T23:00:00,1144A,121.412,31.1654,上海市,徐汇上师大,,33,33,28,16,21,120,68,99,73,11,9,8,15,0.8,0.6
2022-04-25T23:00:00,1145A,121.536,31.2659,上海市,杨浦四漂,,39,7,14,27,26,121,79,101,72,11,9,9,8,0.7,0.6
2022-04-25T23:00:00,1147A,121.425,31.2261,上海市,静安监测站,,30,21,26,21,20,119,70,102,77,23,17,5,5,0,0
2022-04-25T23:00:00,1148A,121.703,31.1907,上海市,浦东川沙,,31,31,18,13,14,112,79,95,81,17,15,4,4,0.9,0.9
2022-04-25T23:00:00,1149A,121.533,31.2284,上海市,浦东新区监测站,,26,22,25,18,17,115,81,99,74,15,12,5,5,0.7,0.7
2022-04-25T23:00:00,1150A,121.577,31.2071,上海市,浦东张江,,24,14,13,14,18,108,76,92,72,14,13,3,4,0.9,0.8
2022-04-25T23:00:00,1151A,118.8086,32.1065,南京市,迈皋桥,,10,9,23,2,6,96,20,79,25,19,25,2,3,0.9,0.7
2022-04-25T23:00:00,1152A,118.7538,32.0551,南京市,草场门,,18,17,14,12,9,109,9,89,30,32,22,1,2,1.4,0.9
2022-04-25T23:00:00,1153A,118.7794,32.0745,南京市,山西路,,14,14,22,9,10,108,17,87,33,17,9,5,4,0.7,0.3
2022-04-25T23:00:00,1154A,118.7752,32.0023,南京市,中华门,,17,17,18,0,6,102,14,83,32,23,15,4,4,0.8,0.4
2022-04-25T23:00:00,1155A,118.8109,32.0309,南京市,瑞金路,,17,17,29,2,12,100,12,82,29,25,20,4,4,0.6,0.1
2022-04-25T23:00:00,1156A,118.7997,32.0754,南京市,玄武湖,,9,7,14,2,10,105,24,86,38,13,11,4,5,0.9,0.6
2022-04-25T23:00:00,1157A,118.6414,32.0931,南京市,浦口,,9,7,21,0,6,105,28,87,33,14,29,4,5,0.9,0.9
2022-04-25T23:00:00,1158A,118.7356,31.9996,南京市,奥体中心,,19,9,18,12,10,109,7,91,36,38,21,5,5,1.2,0.7
2022-04-25T23:00:00,1159A,118.9125,32.1028,南京市,仙林大学城,,13,7,16,9,12,105,22,89,41,17,13,5,4,1.0,0.8
2022-04-25T23:00:00,1160A,120.561,31.2472,苏州市,上方山(对照点),,42,34,31,29,25,130,32,88,44,20,14,4,4,0.8,0.8
2022-04-25T23:00:00,1162A,120.591,31.3019,苏州市,彩香,,46,32,28,32,34,142,35,98,54,24,17,6,6,0.7,0.7
2022-04-25T23:00:00,1163A,120.596,31.3264,苏州市,轧钢厂,,25,15,20,17,20,148,42,99,59,24,18,6,6,0.6,0.5
2022-04-25T23:00:00,1164A,120.613,31.2703,苏州市,吴中区,,29,29,32,19,25,154,19,108,58,47,20,4,4,0.5,0.5
2022-04-25T23:00:00,1165A,120.543,31.2994,苏州市,苏州新区,,36,23,28,25,29,142,40,95,56,20,18,7,7,0.8,0.7
2022-04-25T23:00:00,1166A,120.669,31.3097,苏州市,苏州工业园区,,28,28,31,18,19,141,28,101,58,30,17,4,4,0.7,0.6
2022-04-25T23:00:00,1167A,120.641,31.3708,苏州市,相城区,细颗粒物(PM2.5),53,24,25,37,37,122,16,84,44,46,21,2,2,0.8,0.7
2022-04-25T23:00:00,1168A,120.9098,31.9663,南通市,狼山街道,,49,32,22,34,13,87,41,86,38,27,20,8,7,0.8,0.7
2022-04-25T23:00:00,1169A,120.86,32.0005,南通市,虹桥,细颗粒物(PM2.5),68,22,19,49,26,80,25,77,38,42,23,4,4,0.9,0.7
2022-04-25T23:00:00,1170A,120.87,32.02,南通市,城中,细颗粒物(PM2.5),103,35,19,77,32,80,39,78,40,29,21,5,5,0.8,0.7
2022-04-25T23:00:00,1171A,120.94,31.93,南通市,星湖花园,,39,26,19,27,17,80,46,80,37,31,26,6,6,0.7,0.7
2022-04-25T23:00:00,1172A,120.81,32.0417,南通市,紫琅学院,,49,32,20,34,12,83,14,80,34,48,24,8,7,0.9,0.7
2022-04-25T23:00:00,1173A,119.176,34.5885,连云港市,市环境监测站,,24,24,28,7,13,72,70,63,63,12,13,4,4,0.4,0.6
2022-04-25T23:00:00,1177A,117.179,34.2761,徐州市,黄河新村,颗粒物(PM10),54,58,61,28,32,146,38,142,60,23,13,7,8,0.9,0.8
2022-04-25T23:00:00,1178A,117.1918,34.2384,徐州市,淮塔,,42,36,51,29,36,149,44,145,59,18,14,10,11,0.8,0.8
2022-04-25T23:00:00,1180A,117.256,34.2153,徐州市,新城区,颗粒物(PM10),51,51,65,30,38,140,48,138,55,15,16,6,7,0.8,0.8
2022-04-25T23:00:00,1181A,117.244,34.2911,徐州市,桃园路,颗粒物(PM10),57,63,64,39,39,150,37,143,48,22,16,13,15,1.0,0.8
2022-04-25T23:00:00,1182A,117.2933,34.2778,徐州市,农科院,,,41,51,24,31,142,40,134,48,,12,7,8,0.5,0.8
2022-04-25T23:00:00,1186A,119.389,32.3761,扬州市,邗江监测站,,18,17,28,12,15,52,31,48,30,10,32,7,8,0.8,1.1
2022-04-25T23:00:00,1188A,120.269,31.4867,无锡市,雪浪,,,53,36,42,26,86,54,84,43,,22,7,7,1.0,0.9
2022-04-25T23:00:00,1189A,120.275,31.6219,无锡市,黄巷,,49,42,33,34,24,83,41,76,22,23,38,6,6,0.9,1
2022-04-25T23:00:00,1190A,120.294,31.56,无锡市,曹张,颗粒物(PM10),55,60,36,31,21,75,29,75,20,28,27,4,4,0.8,0.7
2022-04-25T23:00:00,1191A,120.242,31.5031,无锡市,漆塘,,44,44,29,24,20,84,57,84,58,15,20,5,5,0.7,0.7
2022-04-25T23:00:00,1192A,120.3489,31.5863,无锡市,东亭,细颗粒物(PM2.5),58,39,33,41,26,85,47,83,24,27,34,6,6,0.8,0.8
2022-04-25T23:00:00,1193A,120.354,31.5475,无锡市,旺庄,细颗粒物(PM2.5),55,41,29,39,27,80,40,76,28,26,33,7,7,0.7,0.7
2022-04-25T23:00:00,1194A,120.245,31.5631,无锡市,荣巷,细颗粒物(PM2.5),67,31,25,48,30,87,47,80,32,21,30,7,7,0.5,0.5
2022-04-25T23:00:00,1195A,120.299,31.6817,无锡市,堰桥,细颗粒物(PM2.5),52,31,23,36,24,87,39,84,33,39,26,5,5,0.9,0.8
2022-04-25T23:00:00,1196A,119.9633,31.762,常州市,市监测站,颗粒物(PM10),55,60,46,34,22,72,53,57,20,16,35,7,9,0.7,1
2022-04-25T23:00:00,1200A,119.9468,31.7069,常州市,武进监测站,,,59,35,36,21,85,,76,38,12,27,5,5,0.6,0.7
2022-04-25T23:00:00,1201A,119.9255,31.9087,常州市,安家,细颗粒物(PM2.5),73,46,40,53,45,65,52,56,26,29,29,4,4,0.9,0.8
2022-04-25T23:00:00,1203A,119.6707,32.1875,镇江市,新区办事处,,31,22,29,14,18,54,6,54,14,62,47,4,4,1.4,0.9
2022-04-25T23:00:00,1204A,119.4974,32.1968,镇江市,职教中心,细颗粒物(PM2.5),65,28,24,47,29,74,16,56,36,53,33,8,4,1.4,0.7
2022-04-25T23:00:00,1205A,119.4303,32.1328,镇江市,丹徒区监测站,,32,26,24,19,17,69,0,63,28,63,29,3,4,0.8,0.7
2022-04-25T23:00:00,1206A,119.905,32.4878,泰州市,公园路,,20,14,27,14,22,56,26,41,31,17,24,5,6,0.8,1.3
2022-04-25T23:00:00,1207A,119.9189,32.4625,泰州市,莲花,,28,10,26,19,25,61,28,44,31,10,18,6,6,0.8,1.3
2022-04-25T23:00:00,1209A,119.888,32.4639,泰州市,留学生创业园,,29,15,28,20,28,64,12,50,18,16,24,3,4,0.7,1.3
2022-04-25T23:00:00,1210A,119.036,33.5981,淮安市,钵池山,,22,22,23,14,15,108,61,92,59,12,12,8,8,0.5,0.5
2022-04-25T23:00:00,1211A,119.007,33.575,淮安市,北京南路,,29,29,30,17,17,105,66,93,65,10,13,8,8,0.6,0.7
2022-04-25T23:00:00,1212A,118.989,33.6067,淮安市,市监测站,,,24,28,17,19,114,,101,69,12,13,8,9,0.6,0.6
2022-04-25T23:00:00,1213A,119.135,33.5039,淮安市,楚州区监测站,,33,15,26,23,24,100,65,82,59,13,14,8,9,0.6,0.5
2022-04-25T23:00:00,1214A,119.0186,33.6297,淮安市,淮阴区监测站,,29,18,20,20,15,108,62,96,62,12,13,7,8,0.6,0.6
2022-04-25T23:00:00,1215A,120.118,33.4022,盐城市,盐城电厂,,22,12,13,13,13,82,70,79,61,12,13,9,9,0.5,0.5
2022-04-25T23:00:00,1216A,120.156,33.3942,盐城市,市监测站,,21,10,10,11,10,71,65,69,58,12,12,12,8,0.3,0.3
2022-04-25T23:00:00,1218A,120.2144,33.38,盐城市,开发区管委会,,22,3,7,9,6,81,70,77,65,7,8,3,3,0.5,0.5
2022-04-25T23:00:00,1220A,118.293,33.9528,宿迁市,宿迁学院,,22,19,42,15,20,137,53,126,52,14,14,4,5,0.5,0.5
2022-04-25T23:00:00,1221A,118.2442,33.9592,宿迁市,宿迁中学,,32,32,39,15,22,142,62,126,55,7,10,5,6,0.6,0.6
2022-04-25T23:00:00,1223A,120.2072,30.2111,杭州市,滨江,,19,15,53,5,28,156,58,103,58,16,35,2,3,0.6,0.7
2022-04-25T23:00:00,1224A,120.0633,30.2747,杭州市,西溪,,14,14,39,2,20,153,38,90,38,16,24,6,6,0.5,0.6
2022-04-25T23:00:00,1226A,120.3461,30.3153,杭州市,下沙,,22,18,53,7,30,206,69,118,59,15,47,5,7,0.4,0.6
2022-04-25T23:00:00,1227A,120.1269,30.2456,杭州市,卧龙桥,,11,10,36,6,29,172,34,112,55,20,22,4,4,0.6,0.7
2022-04-25T23:00:00,1228A,120.1903,30.2692,杭州市,浙江农大,,20,13,46,14,28,181,53,113,60,20,34,3,4,0.5,0.6
2022-04-25T23:00:00,1230A,120.1197,30.3119,杭州市,和睦小学,,16,16,50,8,27,185,40,115,44,24,30,2,3,0.9,0.9
2022-04-25T23:00:00,1231A,120.3019,30.4183,杭州市,临平镇,,17,12,73,7,50,210,52,133,60,27,28,3,3,0.7,0.8
2022-04-25T23:00:00,1232A,120.2697,30.1819,杭州市,城厢镇,,24,24,56,6,36,191,58,117,64,19,38,6,6,0.4,0.7
2022-04-25T23:00:00,1233A,120.0883,30.1808,杭州市,云栖,,15,15,41,4,20,189,38,118,55,15,21,7,7,0.5,0.5
2022-04-25T23:00:00,1234A,121.8358,29.911,宁波市,区环保大楼,,24,24,24,16,15,92,66,87,60,12,18,7,8,0.6,0.6
2022-04-25T23:00:00,1235A,121.56,29.82,宁波市,万里学院,,23,16,25,6,17,116,72,101,92,12,9,8,9,0.7,0.7
2022-04-25T23:00:00,1236A,121.713,29.9572,宁波市,龙赛医院,,30,30,25,17,14,93,62,83,73,24,17,6,6,0.7,0.6
2022-04-25T23:00:00,1239A,121.633,29.7733,宁波市,钱湖水厂,,21,11,19,8,16,109,66,104,99,5,5,7,7,0.5,0.5
2022-04-25T23:00:00,1240A,121.5856,29.8635,宁波市,太古小学,,20,5,17,7,15,90,63,83,76,16,14,7,7,0.7,0.7
2022-04-25T23:00:00,1241A,121.524,29.8674,宁波市,市环境监测中心,,17,16,24,8,14,132,53,84,70,13,12,8,7,0.7,0.7
2022-04-25T23:00:00,1242A,120.634,28.0089,温州市,瓯海,,48,48,37,31,25,128,26,98,60,35,26,5,5,0.4,0.5
2022-04-25T23:00:00,1243A,120.6748,27.9939,温州市,南浦,颗粒物(PM10),51,52,42,28,24,128,27,101,60,30,26,5,5,0.5,0.6
2022-04-25T23:00:00,1244A,120.76,27.9747,温州市,龙湾,,33,33,46,12,20,106,7,88,48,45,30,4,4,0.4,0.5
2022-04-25T23:00:00,1245A,120.6709,28.0167,温州市,市站,颗粒物(PM10),52,54,48,27,27,120,22,95,56,36,28,5,4,0.5,0.6
2022-04-25T23:00:00,1247A,120.6053,29.9928,绍兴市,城东开发委,,24,14,38,2,26,111,76,98,86,7,23,5,7,0.5,0.7
2022-04-25T23:00:00,1250A,120.0751,30.8669,湖州市,城西水厂,,19,19,50,8,29,185,25,134,79,35,27,4,5,0.5,0.6
2022-04-25T23:00:00,1252A,120.7436,30.778,嘉兴市,清河小学,,16,14,29,8,20,155,51,111,71,22,25,5,6,0.4,0.5
2022-04-25T23:00:00,1253A,120.726,30.7478,嘉兴市,嘉兴学院,,19,19,32,11,25,157,51,112,68,24,24,4,6,0.5,0.6
2022-04-25T23:00:00,1255A,121.273,28.6459,台州市,黄岩环保大楼,,32,32,28,16,13,113,41,102,79,14,9,5,5,0.4,0.4
2022-04-25T23:00:00,1256A,121.419,28.6542,台州市,台州环保大楼,,34,34,31,17,14,116,44,103,71,13,12,4,4,0.3,0.4
2022-04-25T23:00:00,1257A,121.377,28.5773,台州市,路桥田洋王,,26,26,21,14,14,104,42,94,67,16,13,12,6,0.6,0.5
2022-04-25T23:00:00,1258A,122.122,30.0203,舟山市,定海檀枫,,29,25,15,20,10,74,33,70,54,35,14,1,1,0.3,0.2
2022-04-25T23:00:00,1259A,122.3094,29.9558,舟山市,普陀东港,,20,20,13,14,10,84,45,78,59,23,21,3,3,0.3,0.3
2022-04-25T23:00:00,1260A,122.19,29.9944,舟山市,临城新区,,30,30,14,13,7,83,24,74,57,41,13,2,2,0.4,0.4
2022-04-25T23:00:00,1262A,119.647,29.077,金华市,十五中,,20,12,42,14,27,109,60,88,68,10,17,6,7,0.5,0.6
2022-04-25T23:00:00,1263A,119.686,29.1029,金华市,监测站,,18,17,43,8,23,110,57,92,71,14,18,5,9,0.5,0.6
2022-04-25T23:00:00,1264A,118.8692,28.9398,衢州市,环保大楼,,24,0,44,5,21,83,76,68,57,12,20,7,8,0.7,0.9
2022-04-25T23:00:00,1265A,118.8709,28.9666,衢州市,实验学校,,25,11,32,4,17,88,79,74,60,13,20,2,4,0.6,0.8
2022-04-25T23:00:00,1266A,118.8621,28.9808,衢州市,衢州学院,,28,4,35,2,17,97,88,81,67,8,20,4,5,0.5,0.7
2022-04-25T23:00:00,1267A,119.914,28.4514,丽水市,监测站大楼,,22,22,32,15,18,81,40,73,51,8,9,5,5,0.2,0.3
2022-04-25T23:00:00,1268A,119.93,28.4586,丽水市,莲都小学,,23,23,35,9,17,88,45,79,60,6,8,5,5,0.3,0.4
2022-04-25T23:00:00,1269A,119.879,28.4231,丽水市,余庄前,,35,35,33,15,13,118,21,92,33,12,14,6,8,0.4,0.4
2022-04-25T23:00:00,1270A,117.1959,31.7848,合肥市,明珠广场,,14,5,23,7,13,98,42,98,43,20,24,5,5,0.9,0.8
2022-04-25T23:00:00,1271A,117.3072,31.8764,合肥市,三里街,,14,14,26,9,14,91,39,91,44,15,22,9,10,1.0,0.8
2022-04-25T23:00:00,1272A,117.2588,31.8707,合肥市,琥珀山庄,,15,9,23,9,14,100,45,96,49,16,20,4,4,0.9,0.7
2022-04-25T23:00:00,1273A,117.1604,31.9052,合肥市,董铺水库(对照点),,13,12,23,7,13,92,40,92,49,14,16,11,11,1.3,1.1
2022-04-25T23:00:00,1274A,117.25,31.8571,合肥市,长江中路,,15,14,26,2,10,99,47,98,53,17,22,6,8,0.7,0.5
2022-04-25T23:00:00,1275A,117.266,31.9436,合肥市,庐阳区,,22,22,30,5,13,104,53,101,58,22,30,8,8,0.7,0.6
2022-04-25T23:00:00,1276A,117.336,31.8586,合肥市,瑶海区,,23,7,27,16,25,97,39,96,47,18,21,5,7,0.9,0.7
2022-04-25T23:00:00,1277A,117.3027,31.7964,合肥市,包河区,,14,7,26,7,21,105,28,94,29,27,24,5,6,0.7,0.6
2022-04-25T23:00:00,1278A,117.2776,31.7385,合肥市,滨湖新区,,14,2,21,9,17,121,42,121,43,19,16,5,6,1.3,1.2
2022-04-25T23:00:00,1279A,117.1318,31.8403,合肥市,高新区,,18,14,22,12,16,111,41,111,51,20,21,8,9,1.4,1.1
2022-04-25T23:00:00,1280A,119.3903,26.0543,福州市,鼓山(对照点),,29,29,30,7,16,123,30,94,58,5,3,5,4,0.5,0.6
2022-04-25T23:00:00,1282A,119.2681,26.0504,福州市,师大,,33,33,44,9,21,110,29,88,65,16,15,3,4,0.2,0.4
2022-04-25T23:00:00,1283A,119.2984,26.1028,福州市,五四北路,,38,38,39,10,17,115,16,93,52,24,18,4,3,0.3,0.5
2022-04-25T23:00:00,1284A,119.2648,26.0768,福州市,杨桥西路,,30,30,42,12,25,96,25,81,56,15,13,4,4,0.5,0.6
2022-04-25T23:00:00,1285A,119.317,26.0746,福州市,紫阳,,37,37,42,5,18,120,21,96,54,20,16,7,6,0.4,0.5
2022-04-25T23:00:00,1286A,118.1608,24.8169,厦门市,溪东(对照点),,22,17,30,15,22,92,3,67,19,4,4,2,2,0.3,0.3
2022-04-25T23:00:00,1287A,118.1514,24.4767,厦门市,洪文,,15,15,19,10,12,47,34,31,24,17,22,3,5,0.3,0.4
2022-04-25T23:00:00,1288A,118.0661,24.4444,厦门市,鼓浪屿,,24,24,16,12,10,49,28,38,27,13,13,1,3,0.1,0.2
2022-04-25T23:00:00,1290A,115.8931,28.6843,南昌市,省外办,,28,12,26,6,16,100,88,84,76,5,11,2,3,0.6,0.7
2022-04-25T23:00:00,1291A,115.8886,28.7003,南昌市,省林业公司,,25,13,34,6,8,95,78,78,71,14,20,4,6,0.8,0.9
2022-04-25T23:00:00,1292A,115.8126,28.7442,南昌市,林科所,,20,5,20,7,16,98,62,75,64,6,16,4,5,0.6,0.7
2022-04-25T23:00:00,1294A,115.8518,28.687,南昌市,建工学校,,21,12,28,10,16,88,66,73,66,14,19,5,6,0.5,0.6
2022-04-25T23:00:00,1295A,115.8921,28.6424,南昌市,象湖,,27,15,22,1,8,93,85,78,74,2,7,2,2,0.6,0.7
2022-04-25T23:00:00,1296A,115.7423,28.7996,南昌市,武术学校(对照点),,,19,21,5,10,80,18,57,39,6,7,,16,0.8,0.6
2022-04-25T23:00:00,1298A,115.9314,28.6842,南昌市,省站,,25,18,28,7,15,98,77,84,76,11,9,5,5,0.4,0.4
2022-04-25T23:00:00,1299A,116.9862,36.6114,济南市,科干所,颗粒物(PM10),53,56,52,34,25,174,120,159,151,14,11,12,13,1.0,1
2022-04-25T23:00:00,1300A,116.9376,36.665,济南市,农科所,颗粒物(PM10),62,73,54,29,25,171,107,160,143,17,16,10,10,0.4,0.5
2022-04-25T23:00:00,1301A,117.1265,36.6734,济南市,开发区,颗粒物(PM10),55,59,50,31,27,179,110,160,145,18,19,8,9,0.7,0.7
2022-04-25T23:00:00,1303A,117.0624,36.6868,济南市,省种子仓库,颗粒物(PM10),64,78,67,42,34,194,101,171,150,28,19,6,11,1.1,0.9
2022-04-25T23:00:00,1304A,116.9489,36.6447,济南市,机床二厂,颗粒物(PM10),66,81,62,34,28,170,98,159,138,21,18,9,10,0.4,0.4
2022-04-25T23:00:00,1305A,117.0495,36.663,济南市,市监测站,颗粒物(PM10),58,66,53,36,26,187,121,163,149,14,12,12,13,0.5,0.5
2022-04-25T23:00:00,1306A,116.7675,36.5484,济南市,长清党校,颗粒物(PM10),61,71,52,32,28,188,106,173,163,20,13,13,13,1.0,0.8
2022-04-25T23:00:00,1307A,120.6659,36.2403,青岛市,仰口(对照点),,31,2,19,9,14,133,97,124,86,7,11,3,3,0.6,0.6
2022-04-25T23:00:00,1310A,120.4134,36.0658,青岛市,市南区东部子站,,26,2,5,0,3,86,83,82,82,7,13,5,5,0.3,0.3
2022-04-25T23:00:00,1311A,120.3664,36.1032,青岛市,四方区子站,,26,2,6,5,6,90,81,83,81,10,15,5,5,0.6,0.6
2022-04-25T23:00:00,1312A,120.2994,36.054,青岛市,市南区西部子站,,30,2,6,2,3,100,96,93,93,6,14,5,5,0.5,0.5
2022-04-25T23:00:00,1313A,120.4581,36.0858,青岛市,崂山区子站,,27,0,3,0,2,101,84,98,97,15,16,6,6,0.4,0.3
2022-04-25T23:00:00,1314A,120.1983,35.9608,青岛市,黄岛区子站,,28,12,5,12,8,97,89,89,80,20,25,4,4,0.2,0.2
2022-04-25T23:00:00,1315A,120.3999,36.3083,青岛市,城阳区子站,,28,14,18,10,8,109,87,94,69,6,13,4,4,0.5,0.5
2022-04-25T23:00:00,1316A,113.69031,34.76122,郑州市,烟厂,,44,44,96,24,43,163,68,150,124,42,23,12,12,0.5,0.7
2022-04-25T23:00:00,1317A,113.65724,34.77134,郑州市,郑纺机,,44,44,85,17,40,159,85,149,124,22,22,12,10,0.8,0.9
2022-04-25T23:00:00,1318A,113.67526,34.80246,郑州市,银行学校,,47,47,85,19,40,168,94,157,135,25,22,8,10,0.5,0.8
2022-04-25T23:00:00,1319A,113.56746,34.81334,郑州市,供水公司,,40,40,98,15,49,170,86,154,130,24,26,9,11,0.4,0.7
2022-04-25T23:00:00,1320A,113.7329,34.7178,郑州市,经开区管委,颗粒物(PM10),51,52,100,14,50,158,84,145,122,27,33,11,7,0.5,0.7
2022-04-25T23:00:00,1321A,113.73961,34.77172,郑州市,四十七中,,37,37,88,15,39,153,90,137,122,19,20,11,7,0.7,0.9
2022-04-25T23:00:00,1322A,113.60532,34.74838,郑州市,市监测站,,,51,106,,,175,99,157,134,17,24,10,11,0.7,0.9
2022-04-25T23:00:00,1323A,113.64164,34.7525,郑州市,河医大,,46,46,94,19,38,163,85,150,128,27,26,11,9,0.7,0.8
2022-04-25T23:00:00,1324A,113.51488,34.91089,郑州市,岗李水库(对照点),,36,32,97,25,52,161,82,147,122,24,19,8,7,0.8,1.1
2022-04-25T23:00:00,1325A,114.3677,30.5584,武汉市,东湖梨园,,35,35,34,17,12,96,38,78,60,39,21,5,5,0.8,0.9
2022-04-25T23:00:00,1326A,114.2529,30.558,武汉市,汉阳月湖,,27,27,23,3,9,93,50,78,68,30,24,4,4,0.7,0.8
2022-04-25T23:00:00,1327A,114.282,30.6189,武汉市,汉口花桥,,29,28,28,20,14,96,48,78,60,30,20,6,6,0.8,0.9
2022-04-25T23:00:00,1328A,114.3025,30.5332,武汉市,武昌紫阳,,30,30,23,12,11,87,50,74,61,24,16,4,5,0.8,0.9
2022-04-25T23:00:00,1329A,114.3646,30.6217,武汉市,青山钢花,,35,28,25,24,18,91,18,78,48,55,26,7,7,0.9,1
2022-04-25T23:00:00,1330A,114.1566,30.4825,武汉市,沌口新区,,38,30,26,26,15,86,38,75,61,39,26,6,6,0.8,0.8
2022-04-25T23:00:00,1331A,114.3014,30.5944,武汉市,汉口江滩,,28,28,25,17,11,83,40,68,49,33,30,6,6,0.9,0.9
2022-04-25T23:00:00,1333A,114.135,30.6319,武汉市,吴家山,,26,26,23,12,11,86,31,72,62,38,19,8,8,1.2,1.1
2022-04-25T23:00:00,1334A,113.8454,30.2917,武汉市,沉湖七壕(对照点),,29,22,23,20,11,86,50,74,66,8,8,5,5,0.7,0.7
2022-04-25T23:00:00,1335A,113.0833,28.2325,长沙市,经开区环保局,,33,8,10,23,19,104,54,91,62,25,18,3,3,0.6,0.6
2022-04-25T23:00:00,1336A,112.8872,28.2189,长沙市,高开区环保局,,,,19,23,22,94,53,84,64,29,14,5,8,0.5,0.7
2022-04-25T23:00:00,1337A,113.0792,28.2053,长沙市,马坡岭,,17,17,25,9,13,111,53,98,66,19,12,6,10,0.6,0.6
2022-04-25T23:00:00,1338A,112.9394,28.19,长沙市,湖南师范大学,,35,14,29,24,31,101,50,90,68,12,11,3,3,0.6,0.5
2022-04-25T23:00:00,1339A,113.0178,28.1322,长沙市,雨花区环保局,,23,19,20,16,17,105,68,92,66,15,13,4,6,0.6,0.5
2022-04-25T23:00:00,1340A,112.9792,28.2597,长沙市,伍家岭,,20,20,28,14,20,99,57,90,70,22,15,6,6,0.7,0.6
2022-04-25T23:00:00,1341A,113.0014,28.1944,长沙市,火车新站,,32,24,24,22,17,93,68,82,65,13,13,5,7,0.6,0.6
2022-04-25T23:00:00,1342A,112.9844,28.1178,长沙市,天心区环保局,,23,21,15,16,16,101,36,86,58,31,15,4,6,0.6,0.5
2022-04-25T23:00:00,1343A,112.8908,28.1308,长沙市,湖南中医药大学,,18,12,21,10,19,98,56,89,68,15,11,3,5,0.7,0.8
2022-04-25T23:00:00,1344A,112.9581,28.3611,长沙市,沙坪(对照点),,20,14,28,13,17,87,63,77,72,6,10,2,4,0.6,0.7
2022-04-25T23:00:00,1345A,113.2347,23.1423,广州市,广雅中学,,,31,25,18,14,88,21,68,40,,20,,6,0.5,0.9
2022-04-25T23:00:00,1346A,113.2612,23.105,广州市,市五中,,34,34,24,18,13,86,14,65,37,26,19,4,4,0.6,0.6
2022-04-25T23:00:00,1348A,113.3478,23.0916,广州市,广东商学院,,31,31,24,16,14,74,9,64,36,37,23,3,3,0.6,0.6
2022-04-25T23:00:00,1349A,113.4332,23.1047,广州市,市八十六中,,,,36,9,11,59,5,47,23,33,28,6,6,1.0,0.8
2022-04-25T23:00:00,1350A,113.3505,22.9483,广州市,番禺中学,,21,21,21,9,8,75,19,65,42,17,11,5,12,0.7,0.5
2022-04-25T23:00:00,1351A,113.2146,23.3916,广州市,花都师范,,32,32,25,18,16,97,20,72,42,24,20,3,3,0.6,0.6
2022-04-25T23:00:00,1352A,113.2597,23.1331,广州市,市监测站,,33,33,25,20,13,91,21,68,41,21,18,6,6,0.6,0.6
2022-04-25T23:00:00,1353A,113.5618,23.312,广州市,九龙镇镇龙,,34,34,29,15,14,87,13,69,38,31,24,6,7,0.5,0.5
2022-04-25T23:00:00,1354A,113.2765,23.1544,广州市,麓湖,,32,32,24,14,12,92,14,72,42,23,13,4,3,0.8,0.7
2022-04-25T23:00:00,1355A,113.443,23.3035,广州市,帽峰山森林公园(对照点),,29,29,22,15,12,91,17,73,43,22,13,5,4,0.7,0.5
2022-04-25T23:00:00,1356A,114.1063,22.5545,深圳市,通心岭子站,,28,24,17,19,11,48,23,46,38,16,7,3,3,0.8,0.6
2022-04-25T23:00:00,1357A,114.117,22.5625,深圳市,洪湖,,25,24,18,17,9,57,35,54,45,15,12,6,6,0.6,0.6
2022-04-25T23:00:00,1358A,113.987,22.5417,深圳市,华侨城,,23,23,20,12,11,44,25,40,35,16,15,5,5,0.5,0.5
2022-04-25T23:00:00,1359A,113.9181,22.5171,深圳市,南海子站,,21,21,19,12,11,49,24,45,36,19,11,3,3,0.5,0.4
2022-04-25T23:00:00,1360A,114.2458,22.5689,深圳市,盐田,,23,23,17,15,11,54,4,51,39,41,20,2,2,0.7,0.6
2022-04-25T23:00:00,1361A,114.2283,22.7244,深圳市,龙岗,,32,32,22,16,10,63,10,55,33,51,24,4,3,0.6,0.5
2022-04-25T23:00:00,1363A,114.494,22.5422,深圳市,南澳,,23,22,16,16,12,58,44,54,51,5,5,8,7,0.5,0.5
2022-04-25T23:00:00,1364A,114.41,22.6342,深圳市,葵涌,,22,22,16,14,10,57,32,51,45,11,5,4,4,0.3,0.3
2022-04-25T23:00:00,1365A,114.297,22.5978,深圳市,梅沙,,18,17,15,12,9,68,20,58,49,21,11,5,5,0.4,0.4
2022-04-25T23:00:00,1366A,114.0678,22.738,深圳市,观澜,,32,32,30,18,16,50,20,44,31,17,16,6,6,0.5,0.5
2022-04-25T23:00:00,1367A,113.5814,22.2618,珠海市,吉大,,16,14,14,11,10,54,40,51,44,7,8,10,10,0.4,0.4
2022-04-25T23:00:00,1368A,113.4881,22.2335,珠海市,前山,,14,12,14,7,8,50,44,46,44,9,9,10,9,0.3,0.3
2022-04-25T23:00:00,1369A,113.628,22.4251,珠海市,唐家,,20,6,12,14,12,67,43,60,53,10,7,9,9,0.4,0.4
2022-04-25T23:00:00,1370A,113.299,22.2281,珠海市,斗门,,20,15,15,14,11,52,41,48,43,5,6,7,8,0.5,0.5
2022-04-25T23:00:00,1371A,113.1294,23.0067,佛山市,湾梁,,27,27,27,14,13,81,28,68,45,12,11,8,8,0.4,0.4
2022-04-25T23:00:00,1372A,113.1083,23.0478,佛山市,华材职中,,19,19,21,12,12,85,33,70,46,13,15,6,7,0.5,0.5
2022-04-25T23:00:00,1373A,113.144,23.0453,佛山市,南海气象局,,31,31,27,18,15,75,17,62,37,24,19,5,4,0.6,0.5
2022-04-25T23:00:00,1374A,113.2881,22.8094,佛山市,顺德苏岗,,26,26,19,17,10,55,25,50,35,10,12,2,3,0.7,0.7
2022-04-25T23:00:00,1376A,112.8383,22.8678,佛山市,高明孔堂,,25,25,20,13,11,51,39,49,43,5,6,5,5,0.6,0.6
2022-04-25T23:00:00,1377A,112.8836,23.1588,佛山市,三水监测站,,41,41,27,20,16,52,16,43,26,24,21,5,4,0.6,0.5
2022-04-25T23:00:00,1378A,112.867,23.185,佛山市,三水云东海,,45,45,37,12,9,58,14,50,29,26,21,7,6,0.6,0.5
2022-04-25T23:00:00,1379A,113.3769,22.5211,中山市,华柏园,,16,16,19,11,12,56,38,53,43,6,6,2,2,0.4,0.3
2022-04-25T23:00:00,1380A,113.3881,22.5497,中山市,张溪,,33,33,23,11,10,58,39,53,43,5,5,1,2,0.5,0.5
2022-04-25T23:00:00,1381A,113.4075,22.5111,中山市,紫马岭,,21,21,24,13,12,55,35,53,43,6,4,2,3,0.4,0.4
2022-04-25T23:00:00,1382A,113.4411,22.4853,中山市,长江旅游区(对照点),,14,14,16,9,10,59,42,56,48,7,7,2,2,0.4,0.4
2022-04-25T23:00:00,1383A,113.1064,22.6058,江门市,北街,,23,23,21,9,9,58,39,55,44,7,8,5,5,0.4,0.4
2022-04-25T23:00:00,1384A,113.0731,22.5835,江门市,西区,,25,25,22,15,13,58,32,53,41,15,11,5,6,0.4,0.4
2022-04-25T23:00:00,1385A,113.0219,22.5311,江门市,圭峰西,,21,21,24,14,13,59,25,52,38,15,12,6,7,0.4,0.3
2022-04-25T23:00:00,1386A,113.0828,22.5947,江门市,东湖,,19,18,20,13,10,60,39,56,46,11,9,6,6,0.4,0.3
2022-04-25T23:00:00,1389A,113.7547,23.0494,东莞市,莞城梨川,,29,29,23,14,11,71,36,63,48,12,12,8,8,0.6,0.5
2022-04-25T23:00:00,1390A,113.7944,23.0128,东莞市,东城石井,,22,22,20,13,11,75,37,66,49,12,15,7,7,0.4,0.4
2022-04-25T23:00:00,1391A,113.7383,22.9658,东莞市,南城西平,,26,26,21,12,12,74,44,66,52,11,11,5,5,0.5,0.5
2022-04-25T23:00:00,1392A,114.4183,23.0528,惠州市,河南岸金山湖子站,,20,20,24,11,12,80,30,70,52,18,16,2,3,0.5,0.5
2022-04-25T23:00:00,1393A,114.4053,23.0822,惠州市,下埔横江三路子站,,15,15,22,9,13,80,37,73,53,14,16,4,3,0.5,0.5
2022-04-25T23:00:00,1394A,114.4103,23.1142,惠州市,江北云山西路子站,,13,0,28,9,12,89,35,76,57,13,12,5,5,0.4,0.4
2022-04-25T23:00:00,1395A,114.4645,22.7833,惠州市,惠阳区承修路船湖子站,,23,23,25,11,12,59,32,49,40,11,12,3,3,0.5,0.4
2022-04-25T23:00:00,1396A,114.5317,22.7422,惠州市,大亚湾管委会子站,,27,27,26,10,12,57,26,50,40,18,15,3,3,0.3,0.4
2022-04-25T23:00:00,1397A,112.4267,23.0706,肇庆市,睦岗子站,,24,24,21,12,13,58,32,58,42,14,12,8,9,0.4,0.4
2022-04-25T23:00:00,1398A,112.4645,23.0475,肇庆市,城中子站,,24,24,14,11,7,58,30,52,43,16,10,9,10,0.5,0.5
2022-04-25T23:00:00,1399A,112.5544,23.1522,肇庆市,坑口子站,,26,26,12,11,7,67,37,58,47,8,3,14,11,0.3,0.3
2022-04-25T23:00:00,1400A,112.4753,23.1,肇庆市,七星岩子站(对照点),,17,17,10,10,6,54,31,48,40,5,5,9,9,0.5,0.3
2022-04-25T23:00:00,1401A,108.3103,22.7881,南宁市,二十一中,,31,31,33,21,18,63,43,54,48,12,12,6,7,0.6,0.6
2022-04-25T23:00:00,1402A,108.3141,22.8528,南宁市,北湖,,42,42,35,23,17,68,40,56,49,12,11,7,8,0.7,0.7
2022-04-25T23:00:00,1403A,108.3206,22.8225,南宁市,市监测站,,35,25,32,24,18,61,42,52,47,15,15,7,8,0.6,0.6
2022-04-25T23:00:00,1404A,108.3829,22.8037,南宁市,大自然花园,,32,32,28,22,18,56,48,52,50,9,8,6,6,0.7,0.7
2022-04-25T23:00:00,1405A,108.4394,22.7904,南宁市,仙葫(对照点),,32,32,29,19,16,55,49,54,50,10,9,4,4,0.5,0.5
2022-04-25T23:00:00,1406A,108.2397,22.8467,南宁市,区农职院,,40,40,34,27,18,72,27,55,45,33,22,8,7,0.5,0.5
2022-04-25T23:00:00,1407A,108.3275,22.735,南宁市,英华嘉园,,44,44,43,22,19,50,20,44,35,38,26,8,7,0.6,0.6
2022-04-25T23:00:00,1408A,108.2257,22.7757,南宁市,沙井镇街道办,颗粒物(PM10),52,53,41,20,19,65,15,50,36,39,24,8,8,0.5,0.5
2022-04-25T23:00:00,1409A,110.576,19.9507,海口市,东寨港(对照点),,49,28,31,34,20,51,27,46,34,3,3,4,5,0.2,0.3
2022-04-25T23:00:00,1410A,110.3232,20.0574,海口市,海南大学,,38,38,31,24,15,57,38,52,44,3,2,5,5,0.6,0.5
2022-04-25T23:00:00,1411A,110.283,20.0053,海口市,秀英海南医院,,43,35,28,30,16,56,26,47,38,8,5,4,3,0.4,0.4
2022-04-25T23:00:00,1412A,110.338,19.9969,海口市,海南师范大学,,40,31,31,28,12,60,24,49,40,6,4,2,2,0.4,0.4
2022-04-25T23:00:00,1413A,110.33,20.0356,海口市,龙华路环保局宿舍,,49,35,29,34,16,62,23,53,42,7,4,4,4,0.3,0.4
2022-04-25T23:00:00,1414A,106.3787,29.8279,重庆市,缙云山(对照点),,46,37,27,20,13,155,147,142,142,15,11,10,11,0.2,0.5
2022-04-25T23:00:00,1416A,106.4213,29.8253,重庆市,天生,颗粒物(PM10),70,89,49,34,19,116,25,105,80,58,28,10,8,0.9,0.7
2022-04-25T23:00:00,1417A,106.6263,29.7228,重庆市,两路,颗粒物(PM10),65,79,36,35,14,120,41,103,71,83,44,11,10,0.7,0.7
2022-04-25T23:00:00,1418A,106.2953,29.5983,重庆市,虎溪,,45,45,32,26,16,119,42,100,82,55,22,8,10,0.7,0.6
2022-04-25T23:00:00,1419A,106.5777,29.5102,重庆市,南坪,颗粒物(PM10),53,56,39,28,17,127,86,108,108,42,25,6,11,0.6,0.5
2022-04-25T23:00:00,1420A,106.6556,29.6277,重庆市,唐家沱,颗粒物(PM10),58,66,42,34,17,124,26,104,75,68,49,4,6,0.6,0.6
2022-04-25T23:00:00,1421A,106.6349,29.4906,重庆市,茶园,颗粒物(PM10),61,71,39,26,16,147,25,114,74,77,37,7,11,0.7,0.6
2022-04-25T23:00:00,1422A,106.3754,29.4572,重庆市,白市驿,,45,45,39,16,11,133,116,124,124,19,20,10,9,0.8,0.8
2022-04-25T23:00:00,1425A,106.6205,29.7166,重庆市,空港,颗粒物(PM10),69,87,47,39,17,118,17,106,78,116,38,13,13,0.8,0.5
2022-04-25T23:00:00,1426A,106.4782,29.4875,重庆市,新山村,颗粒物(PM10),62,73,40,27,16,110,5,85,57,122,51,7,7,1.2,0.6
2022-04-25T23:00:00,1427A,106.5616,29.6453,重庆市,礼嘉,颗粒物(PM10),73,96,38,28,17,122,10,105,74,120,40,14,14,1.2,0.7
2022-04-25T23:00:00,1428A,106.4522,29.7091,重庆市,蔡家,颗粒物(PM10),51,52,28,18,12,101,9,91,69,87,28,6,7,0.7,0.5
2022-04-25T23:00:00,1429A,106.5093,29.3917,重庆市,鱼新街,颗粒物(PM10),57,64,35,30,18,136,10,97,72,80,39,12,17,1.1,1
2022-04-25T23:00:00,1431A,103.9728,30.7236,成都市,金泉两河,,36,36,28,17,14,176,70,149,118,19,17,2,2,0.4,0.4
2022-04-25T23:00:00,1432A,104.1419,30.6764,成都市,十里店,,33,33,38,14,16,156,72,132,115,24,27,5,5,0.4,0.4
2022-04-25T23:00:00,1433A,104.0594,30.5767,成都市,三瓦窑,,39,39,37,21,20,135,56,112,95,37,36,3,2,0.4,0.4
2022-04-25T23:00:00,1434A,104.1122,30.6306,成都市,沙河铺,,30,30,31,18,19,149,71,126,112,26,27,3,2,0.5,0.6
2022-04-25T23:00:00,1437A,104.0431,30.6556,成都市,君平街,,32,32,30,14,14,152,70,134,116,26,24,6,5,0.5,0.6
2022-04-25T23:00:00,1438A,103.6202,31.0201,成都市,灵岩寺(对照点),,24,15,15,8,9,130,74,115,106,8,6,13,10,0.2,0.3
2022-04-25T23:00:00,1439A,106.6899,26.5998,贵阳市,马鞍山,,35,24,39,24,38,105,26,68,50,10,15,4,4,0.5,0.6
2022-04-25T23:00:00,1440A,106.6971,26.5694,贵阳市,市环保站,,36,34,44,25,34,145,65,110,98,18,27,3,3,0.2,0.4
2022-04-25T23:00:00,1441A,106.6243,26.6266,贵阳市,鉴湖路,,31,31,40,12,25,133,74,112,96,10,12,3,3,0.7,0.7
2022-04-25T23:00:00,1442A,106.7487,26.6343,贵阳市,燕子冲,,,46,47,31,37,137,,115,113,,16,,6,,0.7
2022-04-25T23:00:00,1443A,106.6555,26.4365,贵阳市,碧云窝,,49,46,45,34,28,143,75,125,100,14,14,5,4,0.7,0.6
2022-04-25T23:00:00,1444A,106.694,26.5161,贵阳市,中院村,,42,41,44,29,28,150,75,122,105,16,22,4,4,0.6,0.6
2022-04-25T23:00:00,1445A,106.7109,26.6027,贵阳市,红边门,细颗粒物(PM2.5),58,34,46,41,37,141,52,110,92,27,21,3,3,0.4,0.4
2022-04-25T23:00:00,1446A,106.7164,26.5699,贵阳市,新华路,,29,29,41,19,34,153,66,114,102,14,23,5,5,0.5,0.6
2022-04-25T23:00:00,1447A,106.674,26.5424,贵阳市,太慈桥,,44,44,44,22,23,133,41,110,90,29,18,1,2,0.3,0.3
2022-04-25T23:00:00,1450A,102.8204,24.8886,昆明市,呈贡新区,颗粒物(PM10),62,73,63,33,28,147,115,143,136,18,12,12,11,0.3,0.3
2022-04-25T23:00:00,1451A,102.6251,24.9608,昆明市,西山森林公园(对照点),颗粒物(PM10),53,55,54,23,25,140,126,139,134,14,9,13,12,0.3,0.3
2022-04-25T23:00:00,1452A,102.7252,25.0902,昆明市,龙泉镇,颗粒物(PM10),56,62,59,34,28,131,109,129,122,22,14,8,11,0.5,0.4
2022-04-25T23:00:00,1453A,102.7266,25.0375,昆明市,东风东路,颗粒物(PM10),58,65,58,31,30,126,98,124,115,22,10,8,6,0.5,0.4
2022-04-25T23:00:00,1454A,102.6742,25.0669,昆明市,金鼎山,颗粒物(PM10),58,65,62,40,32,128,124,125,122,8,11,7,7,0.5,0.4
2022-04-25T23:00:00,1455A,102.6644,25.0401,昆明市,碧鸡广场,颗粒物(PM10),65,80,65,37,29,131,106,128,121,25,15,16,10,1.0,0.5
2022-04-25T23:00:00,1456A,91.1319,29.6514,拉萨市,八廓街,,28,28,26,12,12,106,84,98,95,14,12,5,6,0.2,0.1
2022-04-25T23:00:00,1457A,91.1221,29.6747,拉萨市,市环保局,,30,25,24,7,9,120,95,112,106,7,8,4,5,0.2,0.2
2022-04-25T23:00:00,1458A,91.0874,29.6475,拉萨市,区监测站,,26,24,27,6,5,108,81,101,93,17,8,6,6,0.2,0.1
2022-04-25T23:00:00,1459A,91.1774,29.6541,拉萨市,西藏大学,,26,25,26,9,8,108,82,99,96,11,7,5,5,0.2,0.2
2022-04-25T23:00:00,1460A,90.9798,29.6588,拉萨市,区辐射站,,32,32,27,14,11,121,62,116,106,50,13,7,6,0.5,0.3
2022-04-25T23:00:00,1461A,91.0834,29.6292,拉萨市,拉萨火车站,,,,34,,7,111,70,99,88,4,5,6,6,0.1,0.2
2022-04-25T23:00:00,1462A,108.882,34.2749,西安市,高压开关厂,颗粒物(PM10),101,151,78,36,24,165,5,147,104,29,20,6,7,0.7,0.3
2022-04-25T23:00:00,1463A,108.993,34.2629,西安市,兴庆小区,颗粒物(PM10),70,90,66,26,26,164,33,142,98,73,40,6,5,0.4,0.6
2022-04-25T23:00:00,1464A,109.06,34.2572,西安市,纺织城,颗粒物(PM10),79,107,84,31,28,156,3,136,86,85,38,7,6,0.7,0.6
2022-04-25T23:00:00,1465A,108.9356,34.2173,西安市,小寨,颗粒物(PM10),74,98,72,28,24,160,3,140,98,113,40,3,4,0.6,0.3
2022-04-25T23:00:00,1466A,108.954,34.2713,西安市,市人民体育场,颗粒物(PM10),76,102,67,29,25,158,5,140,100,114,33,5,6,0.9,0.5
2022-04-25T23:00:00,1467A,108.8922,34.2322,西安市,高新西区,颗粒物(PM10),94,137,68,34,27,148,12,134,88,111,37,7,8,1.4,0.6
2022-04-25T23:00:00,1468A,108.935,34.3474,西安市,经开区,颗粒物(PM10),73,95,67,30,25,160,6,137,89,103,31,2,2,1.0,0.5
2022-04-25T23:00:00,1469A,108.906,34.1546,西安市,长安区,颗粒物(PM10),66,82,74,22,28,159,49,143,114,46,28,6,6,0.7,0.6
2022-04-25T23:00:00,1472A,108.869,34.378,西安市,草滩(对照点),颗粒物(PM10),109,168,86,43,31,149,6,128,79,97,42,8,7,0.7,0.4
2022-04-25T23:00:00,1473A,108.985,34.1978,西安市,曲江文化产业集团,颗粒物(PM10),70,89,73,34,27,154,1,123,70,97,49,4,4,0.9,0.6
2022-04-25T23:00:00,1474A,109.051,34.3213,西安市,广运潭,颗粒物(PM10),65,79,72,24,26,156,48,138,101,58,44,5,5,0.6,0.6
2022-04-25T23:00:00,1476A,103.631,36.1031,兰州市,兰炼宾馆,细颗粒物(PM2.5),64,69,92,46,43,221,88,161,120,26,41,17,11,0.4,0.5
2022-04-25T23:00:00,1477A,104.1373,35.9454,兰州市,榆中兰大校区(对照点),颗粒物(PM10),71,91,54,21,14,136,115,132,127,17,15,3,3,0.8,0.4
2022-04-25T23:00:00,1478A,103.8412,36.0726,兰州市,生物制品所,颗粒物(PM10),71,91,84,37,30,116,47,108,93,57,43,10,12,0.6,0.9
2022-04-25T23:00:00,1479A,103.831,36.0464,兰州市,铁路设计院,颗粒物(PM10),66,81,78,30,26,133,82,118,105,40,46,9,20,0.3,1.2
2022-04-25T23:00:00,1483A,101.524,36.6867,西宁市,第五水厂(对照点),,27,27,35,17,18,126,77,122,115,21,16,10,11,0.6,0.6
2022-04-25T23:00:00,1484A,105.9512,38.6016,银川市,贺兰山马莲口(对照点),颗粒物(PM10),88,126,60,30,15,127,80,118,109,8,6,7,9,0.2,0.2
2022-04-25T23:00:00,1488A,106.2328,38.4975,银川市,贺兰山东路,颗粒物(PM10),140,229,87,63,27,128,73,110,96,18,23,11,13,0.7,0.5
2022-04-25T23:00:00,1489A,106.1358,38.5036,银川市,学院路,颗粒物(PM10),141,231,98,65,32,127,75,111,96,14,28,10,16,0.8,0.6
2022-04-25T23:00:00,1490A,87.5801,43.8303,乌鲁木齐市,监测站,,27,27,32,12,13,102,69,93,88,15,23,6,7,0.3,0.3
2022-04-25T23:00:00,1491A,87.6046,43.768,乌鲁木齐市,收费所,,24,24,28,11,17,94,66,82,81,11,16,6,6,0.3,0.3
2022-04-25T23:00:00,1492A,87.4754,43.9469,乌鲁木齐市,新疆农科院农场(对照点),,22,16,28,8,10,104,69,96,91,9,7,10,12,0.2,0.3
2022-04-25T23:00:00,1493A,87.5525,43.8711,乌鲁木齐市,铁路局,,26,26,30,3,12,107,67,97,91,14,18,5,5,0.4,0.5
2022-04-25T23:00:00,1494A,87.6432,43.831,乌鲁木齐市,三十一中学,,29,29,32,3,12,99,65,88,85,12,15,7,10,0.2,0.3
2022-04-25T23:00:00,1496A,87.7216,44.1747,乌鲁木齐市,米东区环保局,颗粒物(PM10),65,79,22,11,9,109,79,104,100,4,3,6,8,0.2,0.2
2022-04-25T23:00:00,1508A,112.9433,27.8614,湘潭市,板塘,,19,17,40,12,18,93,60,78,55,8,7,10,12,0.4,0.4
2022-04-25T23:00:00,1511A,112.9118,27.8403,湘潭市,市监测站,,29,10,34,20,26,72,61,58,49,10,17,7,25,0.7,1.4
2022-04-25T23:00:00,1512A,112.8937,27.8728,湘潭市,江麓,,48,48,45,19,20,79,57,60,43,14,17,11,19,0.5,0.6
2022-04-25T23:00:00,1513A,112.9227,27.8159,湘潭市,岳塘,,24,15,41,12,17,97,76,77,56,13,15,10,13,0.5,0.7
2022-04-25T23:00:00,1514A,112.9074,27.9119,湘潭市,科大,,23,20,21,16,17,97,44,80,57,27,16,2,6,0.7,0.7
2022-04-25T23:00:00,1515A,113.135,27.8244,株洲市,天台山庄,,24,2,16,9,19,91,75,78,54,16,17,4,8,0.0,0.3
2022-04-25T23:00:00,1518A,113.095,27.8867,株洲市,株冶医院,,25,9,26,11,16,99,77,81,59,17,16,4,7,0.4,0.5
2022-04-25T23:00:00,1519A,113.167,27.8667,株洲市,市四中,,25,16,22,13,18,98,79,82,64,13,16,4,7,0.4,0.5
2022-04-25T23:00:00,1520A,113.143,27.8381,株洲市,火车站,,22,14,28,10,18,94,69,74,45,12,14,5,7,0.3,0.5
2022-04-25T23:00:00,1524A,113.13,27.8528,株洲市,市监测站,,25,14,28,5,16,94,78,74,53,11,13,4,8,0.5,0.6
2022-04-25T23:00:00,1552A,106.805,26.3003,贵阳市,桐木岭(对照点),,41,41,48,27,33,125,73,110,91,5,6,7,4,0.5,0.5
2022-04-25T23:00:00,1559A,113.251,27.8336,株洲市,大京风景区(对照点),,26,7,14,12,18,106,82,85,67,7,6,5,7,0.4,0.5
2022-04-25T23:00:00,1562A,113.0048,27.9153,湘潭市,昭山,,18,12,21,12,20,91,37,75,42,15,11,5,9,0.7,0.4
2022-04-25T23:00:00,1564A,112.4876,27.9164,湘潭市,韶山(对照点),,18,9,26,11,15,91,56,75,52,3,4,4,5,0.6,0.6
2022-04-25T23:00:00,1585A,109.8756,40.6532,包头市,市环境监测站,颗粒物(PM10),124,197,122,42,39,141,79,112,91,7,35,5,13,0.4,0.7
2022-04-25T23:00:00,1587A,109.9991,40.5842,包头市,包头八中,颗粒物(PM10),101,152,154,29,52,143,82,117,96,7,32,15,16,0.3,0.4
2022-04-25T23:00:00,1588A,109.8538,40.6821,包头市,青山宾馆,颗粒物(PM10),142,233,145,87,68,137,,107,90,4,33,8,17,0.5,0.9
2022-04-25T23:00:00,1589A,109.8642,40.6288,包头市,惠龙物流,颗粒物(PM10),115,180,138,56,38,140,82,113,92,5,33,4,12,0.4,0.7
2022-04-25T23:00:00,1590A,110.0377,40.5546,包头市,东河鸿龙湾,颗粒物(PM10),90,130,116,26,37,135,79,113,91,3,26,8,14,0.4,0.6
2022-04-25T23:00:00,1591A,110.0023,39.8129,鄂尔多斯市,综合楼,颗粒物(PM10),141,232,147,62,51,121,71,109,90,10,25,5,6,0.5,0.5
2022-04-25T23:00:00,1592A,109.9486,39.8261,鄂尔多斯市,巴音孟克林场办事处,颗粒物(PM10),129,208,130,41,34,143,81,129,107,7,20,7,8,0.5,0.5
2022-04-25T23:00:00,1593A,109.7736,39.5986,鄂尔多斯市,康泽苑,颗粒物(PM10),166,281,117,48,26,146,77,136,115,10,10,5,4,0.4,0.4
2022-04-25T23:00:00,1594A,109.8119,39.5989,鄂尔多斯市,华泰汽车城,颗粒物(PM10),137,224,123,44,33,124,65,116,97,14,24,8,6,0.7,0.4
2022-04-25T23:00:00,1595A,109.9734,39.7884,鄂尔多斯市,奥林花园,颗粒物(PM10),145,240,152,44,32,121,63,110,87,14,34,5,7,,0.5
2022-04-25T23:00:00,1597A,122.2703,40.7094,营口市,大庆路,,23,19,60,13,36,143,71,129,90,13,16,5,8,0.9,0.9
2022-04-25T23:00:00,1598A,122.215,40.6511,营口市,镜湖西路,,32,32,64,4,21,155,87,138,98,11,20,4,6,0.4,0.6
2022-04-25T23:00:00,1599A,122.167,40.6655,营口市,西炮台,,31,16,46,10,23,144,97,126,99,10,20,4,6,0.4,0.6
2022-04-25T23:00:00,1600A,124.3303,40.0625,丹东市,江湾东路,,32,26,21,22,15,104,56,104,75,22,13,9,11,1.7,0.7
2022-04-25T23:00:00,1601A,124.4256,40.1503,丹东市,临江后街,,22,14,21,8,11,110,68,103,80,8,7,9,9,0.6,0.8
2022-04-25T23:00:00,1602A,124.3933,40.1461,丹东市,元宝山,,23,18,20,16,12,107,67,92,75,8,9,8,9,0.7,0.8
2022-04-25T23:00:00,1603A,124.3633,40.1092,丹东市,民主桥,,32,32,20,22,13,112,60,94,78,14,6,9,9,0.8,0.7
2022-04-25T23:00:00,1604A,122.0303,41.1489,盘锦市,开发区,,25,21,66,17,47,130,78,120,92,10,25,6,9,0.7,0.9
2022-04-25T23:00:00,1605A,122.0485,41.0883,盘锦市,兴隆台,,29,29,70,12,43,129,78,119,92,9,22,7,8,0.6,0.8
2022-04-25T23:00:00,1606A,121.8297,41.1028,盘锦市,新生街道,,35,16,42,24,44,133,81,122,94,11,13,6,7,0.6,0.8
2022-04-25T23:00:00,1607A,120.9092,40.7136,葫芦岛市,龙港区,,25,21,51,15,32,126,79,111,99,13,15,10,11,0.6,0.7
2022-04-25T23:00:00,1608A,120.8392,40.7514,葫芦岛市,化工街,,38,24,76,26,37,135,80,117,102,9,24,5,6,0.6,0.8
2022-04-25T23:00:00,1609A,120.8341,40.7073,葫芦岛市,新区,,31,31,63,17,38,138,81,117,103,12,17,8,9,0.5,0.7
2022-04-25T23:00:00,1610A,120.8695,40.7677,葫芦岛市,东城区,,32,32,70,20,41,126,73,108,94,13,19,7,8,0.5,0.7
2022-04-25T23:00:00,1611A,118.5819,24.9117,泉州市,涂山街,,24,24,27,9,13,70,12,52,23,31,17,9,8,0.5,0.5
2022-04-25T23:00:00,1612A,118.5972,24.8978,泉州市,津头埔,,22,22,26,9,14,63,8,46,20,32,19,5,4,0.3,0.3
2022-04-25T23:00:00,1613A,118.6663,24.9424,泉州市,万安,,17,17,24,6,13,83,18,56,27,17,10,4,5,0.3,0.3
2022-04-25T23:00:00,1614A,118.6117,24.9604,泉州市,清源山(对照点),,20,20,19,6,9,75,16,58,27,26,14,8,6,0.3,0.3
2022-04-25T23:00:00,1616A,117.6795,36.229,济南市,技术学院,,25,17,56,16,30,173,80,158,121,14,21,10,14,0.6,0.8
2022-04-25T23:00:00,1618A,118.3429,35.0532,临沂市,沂河小区,,,29,61,22,36,133,,133,68,,18,8,11,0.4,0.9
2022-04-25T23:00:00,1619A,118.295,35.0583,临沂市,鲁南制药厂,,25,24,56,17,32,129,63,129,67,21,21,7,10,0.7,1.1
2022-04-25T23:00:00,1620A,118.2794,34.9976,临沂市,新光毛纺厂,,30,24,57,21,37,108,57,108,61,17,18,4,6,0.6,1
2022-04-25T23:00:00,1621A,118.3956,35.0888,临沂市,河东保险公司,,31,31,57,19,34,124,43,122,58,32,25,4,6,0.4,0.9
2022-04-25T23:00:00,1622A,116.3032,37.4674,德州市,儿童乐园,细颗粒物(PM2.5),67,75,68,48,43,176,128,157,148,21,16,4,6,0.8,0.8
2022-04-25T23:00:00,1624A,116.2991,37.4451,德州市,监理站,颗粒物(PM10),67,84,71,44,36,169,124,150,140,16,12,11,15,0.5,0.5
2022-04-25T23:00:00,1625A,115.9848,36.4372,聊城市,区政府,颗粒物(PM10),71,91,63,48,31,168,90,150,132,18,21,10,14,0.9,0.7
2022-04-25T23:00:00,1628A,118.0062,37.3803,滨州市,市环保局,,41,41,113,18,57,157,51,132,87,24,27,17,35,0.9,1
2022-04-25T23:00:00,1629A,118.0018,37.3617,滨州市,第二水厂,,44,44,97,28,59,145,41,121,76,31,35,18,30,0.7,0.9
2022-04-25T23:00:00,1630A,117.9776,37.393,滨州市,北中新校,,31,31,77,14,50,139,50,118,80,27,32,15,29,0.6,0.8
2022-04-25T23:00:00,1631A,118.0414,36.8103,淄博市,人民公园,颗粒物(PM10),52,53,80,16,30,161,36,133,89,51,35,6,11,0.4,0.5
2022-04-25T23:00:00,1633A,117.8525,36.4847,淄博市,双山,,28,28,49,11,29,150,78,140,116,18,18,3,6,0.3,0.5
2022-04-25T23:00:00,1634A,117.9592,36.6331,淄博市,气象站,,25,25,54,7,25,159,77,142,117,22,25,10,11,0.3,0.5
2022-04-25T23:00:00,1635A,118.3092,36.8194,淄博市,莆田园,,23,19,71,5,30,129,73,111,88,12,21,3,8,0.2,0.8
2022-04-25T23:00:00,1637A,117.558,34.8438,枣庄市,市中区政府,颗粒物(PM10),56,61,74,34,39,147,43,128,73,27,20,4,7,0.8,0.8
2022-04-25T23:00:00,1638A,117.2852,34.7837,枣庄市,薛城环保局,"颗粒物(PM10),细颗粒物(PM2.5)",52,54,85,36,54,142,50,140,70,24,23,10,14,0.7,0.8
2022-04-25T23:00:00,1639A,117.5852,34.7745,枣庄市,峄城区政府,颗粒物(PM10),54,58,69,31,42,137,53,137,75,25,20,13,12,0.9,0.7
2022-04-25T23:00:00,1640A,117.7276,34.5578,枣庄市,台儿庄区环保局,,49,46,55,34,35,126,50,126,68,26,21,6,7,1.2,0.9
2022-04-25T23:00:00,1641A,117.4518,35.0992,枣庄市,山亭区环保局,,46,46,55,24,36,156,62,156,68,24,25,6,9,0.6,0.8
2022-04-25T23:00:00,1642A,121.2514,37.5639,烟台市,开发区,,28,5,26,5,12,138,88,138,83,2,7,5,5,0.4,0.5
2022-04-25T23:00:00,1643A,121.3719,37.5433,烟台市,轴承厂,,31,12,27,7,14,154,98,152,94,5,8,5,8,0.5,0.6
2022-04-25T23:00:00,1644A,121.3181,37.5436,烟台市,西郊化工站,,28,9,26,5,11,147,87,141,84,1,4,4,6,0.4,0.4
2022-04-25T23:00:00,1645A,121.4478,37.4822,烟台市,莱山环保局,,29,9,23,9,13,129,92,129,92,3,7,4,5,0.5,0.5
2022-04-25T23:00:00,1646A,121.2611,37.4967,烟台市,福山环保局,,32,7,28,7,12,136,102,136,100,4,9,8,8,0.5,0.6
2022-04-25T23:00:00,1650A,119.1437,36.7023,潍坊市,环保局,,34,34,58,20,30,104,57,100,68,17,17,7,7,0.7,0.8
2022-04-25T23:00:00,1653A,116.6251,35.4302,济宁市,火炬城,颗粒物(PM10),52,54,62,31,35,171,65,144,117,17,15,16,15,1.2,1
2022-04-25T23:00:00,1655A,116.5491,35.4042,济宁市,电化厂,颗粒物(PM10),58,66,71,34,36,164,67,142,115,21,17,10,9,1.3,1
2022-04-25T23:00:00,1656A,117.1437,36.1937,泰安市,监测站,,41,41,64,20,34,168,70,155,119,14,12,15,17,0.2,0.5
2022-04-25T23:00:00,1657A,117.0885,36.2017,泰安市,人口学校,颗粒物(PM10),52,53,66,27,34,166,63,157,119,19,13,8,8,0.5,0.7
2022-04-25T23:00:00,1659A,119.471,35.4209,日照市,监测站,,39,39,14,27,9,84,46,74,65,16,9,4,5,0.5,0.2
2022-04-25T23:00:00,1660A,119.523,35.4216,日照市,市政府广场,,48,48,19,33,11,79,39,74,64,24,15,4,5,0.7,0.4
2022-04-25T23:00:00,1661A,119.5587,35.4044,日照市,港务局,,29,29,12,18,4,94,52,86,81,14,8,3,3,0.5,0.3
2022-04-25T23:00:00,1662A,122.1214,37.4236,威海市,华夏技校,,35,24,18,24,17,135,89,127,89,9,11,2,3,0.4,0.3
2022-04-25T23:00:00,1663A,122.0508,37.5236,威海市,山大分校,,29,22,21,7,9,157,92,149,94,11,8,5,5,0.3,0.2
2022-04-25T23:00:00,1664A,122.1067,37.5072,威海市,市监测站,,36,32,26,25,17,150,71,150,81,26,15,6,6,0.5,0.5
2022-04-25T23:00:00,1666A,118.6614,37.4309,东营市,市环保局,,29,29,60,12,36,105,64,97,81,12,17,16,54,0.5,0.8
2022-04-25T23:00:00,1669A,113.5824,24.7733,韶关市,市八中,,45,37,31,31,17,136,10,61,44,32,19,7,10,0.7,0.4
2022-04-25T23:00:00,1671A,113.5917,24.7972,韶关市,园林处,,39,32,28,27,15,89,24,56,45,24,16,11,7,0.7,0.6
2022-04-25T23:00:00,1672A,113.6735,24.7791,韶关市,韶关学院,,40,29,28,28,21,83,24,65,56,16,16,7,12,0.4,0.6
2022-04-25T23:00:00,1673A,113.5971,24.6863,韶关市,曲江监测站,,23,20,24,16,17,80,42,60,54,14,16,8,9,0.5,0.5
2022-04-25T23:00:00,1674A,116.6794,23.3667,汕头市,金平子站,,25,19,20,17,13,55,36,49,42,6,7,7,8,0.5,0.5
2022-04-25T23:00:00,1675A,116.7244,23.3633,汕头市,龙湖子站,,13,12,18,9,10,53,34,47,45,17,16,6,7,0.5,0.6
2022-04-25T23:00:00,1676A,116.7258,23.2775,汕头市,濠江子站,,23,19,22,16,18,54,29,51,46,17,13,8,8,0.7,0.6
2022-04-25T23:00:00,1677A,116.7519,23.4714,汕头市,澄海子站,,26,26,26,12,14,63,32,52,38,15,13,8,7,0.7,0.6
2022-04-25T23:00:00,1678A,116.6092,23.2539,汕头市,潮阳子站,,38,38,30,13,11,58,35,51,48,9,8,11,10,0.6,0.6
2022-04-25T23:00:00,1680A,110.3539,21.2706,湛江市,湛江影剧院,,41,41,32,26,19,81,13,64,41,22,9,5,6,0.4,0.4
2022-04-25T23:00:00,1681A,110.3928,21.2228,湛江市,市环境监测站,,37,37,30,24,16,84,25,69,43,12,9,6,6,0.4,0.4
2022-04-25T23:00:00,1682A,110.4019,21.1997,湛江市,环保局宿舍,,42,38,36,29,17,76,27,60,42,9,10,4,5,0.4,0.5
2022-04-25T23:00:00,1683A,110.4111,21.2028,湛江市,霞山游泳场,,43,34,29,30,26,64,22,53,40,10,10,5,6,0.5,0.5
2022-04-25T23:00:00,1684A,110.3316,21.2679,湛江市,麻章区环保局,,39,39,36,25,18,88,15,70,45,19,10,5,5,0.5,0.4
2022-04-25T23:00:00,1685A,110.4558,21.2567,湛江市,坡头区环保局,,38,38,29,25,17,73,32,62,47,6,7,4,5,0.4,0.5
2022-04-25T23:00:00,1686A,111.0286,21.4688,茂名市,电白南海,,42,29,26,29,17,51,28,43,32,9,11,4,4,0.4,0.5
2022-04-25T23:00:00,1687A,110.9294,21.6533,茂名市,茂石化七小,,42,39,39,29,16,47,27,41,34,12,11,6,6,0.4,0.6
2022-04-25T23:00:00,1688A,110.9107,21.6687,茂名市,健康路,,29,29,20,20,13,50,29,48,37,6,6,7,6,0.5,0.6
2022-04-25T23:00:00,1689A,110.8592,21.6828,茂名市,高岭,,39,39,31,14,11,54,30,49,38,12,10,6,7,0.4,0.4
2022-04-25T23:00:00,1690A,116.1231,24.3284,梅州市,梅江月梅,,23,23,23,12,13,59,33,51,44,10,10,4,4,0.4,0.4
2022-04-25T23:00:00,1691A,116.0797,24.2719,梅州市,梅县新城,,18,14,25,12,15,59,33,50,42,11,11,6,7,0.4,0.4
2022-04-25T23:00:00,1692A,116.1248,24.2654,梅州市,环境监控中心,,17,17,24,11,15,57,27,49,42,16,14,6,6,0.4,0.5
2022-04-25T23:00:00,1693A,115.3653,22.775,汕尾市,市环保局,,14,7,16,7,6,57,44,49,48,5,6,6,7,0.4,0.5
2022-04-25T23:00:00,1694A,115.3706,22.7898,汕尾市,市政府,,18,18,14,10,9,54,43,48,47,6,5,5,5,0.5,0.5
2022-04-25T23:00:00,1695A,115.3622,22.7925,汕尾市,新城中学,,15,7,14,10,10,60,45,51,51,4,4,6,6,0.5,0.4
2022-04-25T23:00:00,1696A,114.6778,23.7569,河源市,源西(对照点),,24,24,26,12,12,98,28,81,62,21,14,3,3,0.5,0.5
2022-04-25T23:00:00,1697A,114.6944,23.7586,河源市,东埔,,27,27,24,14,13,97,34,82,64,14,13,4,4,0.5,0.5
2022-04-25T23:00:00,1698A,114.6892,23.7233,河源市,老城,,21,21,27,11,12,101,41,89,71,8,9,3,3,0.6,0.7
2022-04-25T23:00:00,1699A,111.9797,21.8593,阳江市,鸳鸯湖(对照点),,23,21,19,16,12,59,49,56,54,2,2,7,7,0.3,0.3
2022-04-25T23:00:00,1701A,111.9491,21.8658,阳江市,马南垌,,28,21,23,19,12,55,46,52,50,3,3,4,4,0.5,0.5
2022-04-25T23:00:00,1702A,113.0426,23.691,清远市,环保大楼(对照点),,25,25,19,14,13,95,28,76,47,12,15,8,8,0.4,0.4
2022-04-25T23:00:00,1703A,113.0208,23.7106,清远市,凤城街办,,29,29,11,15,12,90,29,74,49,18,18,8,7,0.4,0.4
2022-04-25T23:00:00,1705A,116.6367,23.6719,潮州市,西园路(对照点),,36,36,34,16,18,84,26,66,40,16,15,10,12,0.7,0.7
2022-04-25T23:00:00,1706A,116.6447,23.6706,潮州市,档案局,,49,32,39,34,18,83,26,70,40,17,16,9,10,0.6,0.6
2022-04-25T23:00:00,1708A,116.3701,23.5345,揭阳市,新兴,,26,26,29,12,17,57,23,51,37,12,9,6,8,0.5,0.4
2022-04-25T23:00:00,1709A,116.3264,23.5443,揭阳市,西马,,35,35,34,16,17,64,28,54,39,14,10,5,7,0.5,0.5
2022-04-25T23:00:00,1710A,116.3611,23.5626,揭阳市,东兴,,30,30,31,14,15,62,30,56,42,8,9,4,6,0.6,0.5
2022-04-25T23:00:00,1711A,116.4151,23.5294,揭阳市,渔湖,,29,15,24,20,11,63,25,63,39,7,4,6,6,0.5,0.4
2022-04-25T23:00:00,1712A,112.0392,22.9169,云浮市,新市府(对照点),,24,24,18,13,11,63,43,60,54,4,2,7,6,0.3,0.3
2022-04-25T23:00:00,1714A,112.0539,22.9539,云浮市,牧羊,,32,30,33,22,15,58,29,53,42,20,12,10,9,0.4,0.4
2022-04-25T23:00:00,1715A,102.575,24.3711,玉溪市,东风水库,颗粒物(PM10),74,97,63,48,34,138,115,134,127,17,17,11,9,1.0,1
2022-04-25T23:00:00,1718A,115.4208,35.2464,菏泽市,气象局,细颗粒物(PM2.5),72,84,73,52,41,176,73,160,123,25,19,7,8,0.6,0.6
2022-04-25T23:00:00,1719A,115.4747,35.2375,菏泽市,市政协,"颗粒物(PM10),细颗粒物(PM2.5)",65,79,73,47,40,185,86,166,133,22,22,10,14,0.4,0.4
2022-04-25T23:00:00,1721A,113.3819,40.1097,大同市,果树场(对照点),颗粒物(PM10),253,387,184,52,36,134,79,123,105,4,32,7,15,0.2,0.5
2022-04-25T23:00:00,1723A,113.2994,40.0758,大同市,云冈宾馆,颗粒物(PM10),133,216,157,60,39,133,72,121,99,16,36,6,15,0.5,0.9
2022-04-25T23:00:00,1724A,113.3444,40.0917,大同市,大同大学,颗粒物(PM10),197,343,177,36,30,134,72,124,103,71,39,13,24,0.1,0.3
2022-04-25T23:00:00,1725A,113.2661,40.1269,大同市,安家小村,颗粒物(PM10),160,270,158,27,25,142,78,131,109,8,31,10,21,0.3,0.9
2022-04-25T23:00:00,1726A,113.2711,40.0844,大同市,教育学院,颗粒物(PM10),190,330,190,31,34,125,73,117,96,5,36,7,19,0.3,0.7
2022-04-25T23:00:00,1727A,113.1147,36.1547,长治市,清华站,颗粒物(PM10),71,92,102,36,48,187,107,168,139,15,23,9,14,0.8,0.9
2022-04-25T23:00:00,1728A,113.1031,36.1989,长治市,监测站,细颗粒物(PM2.5),58,64,90,41,45,198,118,174,148,8,24,9,12,0.9,0.9
2022-04-25T23:00:00,1730A,113.0886,36.2125,长治市,审计局,颗粒物(PM10),63,76,100,41,47,190,100,173,143,39,41,9,15,0.9,1.1
2022-04-25T23:00:00,1731A,113.0844,36.1856,长治市,长治八中,颗粒物(PM10),72,94,128,30,40,185,100,167,136,22,26,9,16,0.7,0.9
2022-04-25T23:00:00,1733A,111.5531,36.0783,临汾市,临钢医院,颗粒物(PM10),71,92,132,47,88,196,95,170,135,29,38,26,19,1.2,1.7
2022-04-25T23:00:00,1734A,111.5028,36.0714,临汾市,技工学校,颗粒物(PM10),68,85,127,36,62,194,76,172,128,40,35,34,27,0.8,1.3
2022-04-25T23:00:00,1736A,111.5018,36.0855,临汾市,市委,颗粒物(PM10),73,96,123,35,60,202,60,177,132,48,36,22,22,1.2,1.6
2022-04-25T23:00:00,1738A,113.5758,37.8572,阳泉市,市中心,颗粒物(PM10),114,177,165,66,79,189,10,188,69,141,67,17,27,1.3,1
2022-04-25T23:00:00,1739A,113.4894,37.8731,阳泉市,赛鱼,细颗粒物(PM2.5),93,134,119,69,51,215,6,163,116,128,73,18,25,1.4,1
2022-04-25T23:00:00,1740A,113.5819,37.8486,阳泉市,南庄,颗粒物(PM10),148,246,195,96,57,224,105,180,164,55,64,8,18,1.2,1
2022-04-25T23:00:00,1742A,113.5614,37.8703,阳泉市,平坦,颗粒物(PM10),111,171,165,66,85,236,8,196,173,158,66,23,29,1.5,1.3
2022-04-25T23:00:00,1743A,113.5158,37.8392,阳泉市,大阳泉,细颗粒物(PM2.5),113,167,152,85,60,220,182,186,186,19,34,18,32,1.2,1
2022-04-25T23:00:00,1744A,118.9233,42.2816,赤峰市,松山一中,颗粒物(PM10),117,184,80,32,25,158,88,135,124,11,22,8,11,0.4,0.6
2022-04-25T23:00:00,1745A,118.9576,42.2728,赤峰市,哈达街,颗粒物(PM10),120,189,82,23,21,151,82,132,123,11,20,11,12,0.5,0.6
2022-04-25T23:00:00,1746A,118.8788,42.2554,赤峰市,天义路,,,190,70,,19,163,92,140,128,6,16,8,10,0.5,0.6
2022-04-25T23:00:00,1748A,123.044,41.1196,鞍山市,深沟寺,,29,8,41,3,22,146,91,138,105,6,9,5,6,0.3,0.5
2022-04-25T23:00:00,1749A,123.011,41.0931,鞍山市,太阳城,,26,26,60,5,27,134,80,127,96,8,13,6,8,0.5,0.7
2022-04-25T23:00:00,1750A,123.0485,41.1442,鞍山市,太平,,26,18,46,4,22,134,82,117,86,8,11,8,9,0.3,0.5
2022-04-25T23:00:00,1751A,122.9642,41.0971,鞍山市,铁西三道街,,25,25,63,3,29,134,69,121,90,24,18,12,8,1.3,0.9
2022-04-25T23:00:00,1752A,122.9341,41.0833,鞍山市,铁西工业园区,,29,22,68,2,29,149,92,136,100,2,14,7,9,0.4,0.8
2022-04-25T23:00:00,1753A,123.022,41.0821,鞍山市,明达新区,,27,10,49,3,28,130,86,123,96,3,9,5,6,0.4,0.6
2022-04-25T23:00:00,1754A,123.1289,41.0228,鞍山市,千山(对照点),,14,11,27,8,19,111,43,107,73,7,8,8,8,0.3,0.7
2022-04-25T23:00:00,1755A,123.7977,41.8491,抚顺市,望花区,,32,32,92,13,41,134,60,121,91,24,25,11,13,0.5,0.8
2022-04-25T23:00:00,1756A,123.9161,41.8822,抚顺市,顺城区,,26,22,66,8,38,135,81,120,95,12,26,5,10,0.4,0.6
2022-04-25T23:00:00,1757A,124.0436,41.8611,抚顺市,东洲区,,29,29,53,8,30,154,84,139,106,10,13,4,5,0.5,0.7
2022-04-25T23:00:00,1758A,123.9247,41.8642,抚顺市,新抚区,,27,27,72,7,39,135,82,118,95,9,37,6,9,0.6,0.8
2022-04-25T23:00:00,1759A,124.0972,41.8961,抚顺市,大伙房水库,,32,18,48,6,30,162,100,146,115,1,8,6,5,0.3,0.4
2022-04-25T23:00:00,1760A,123.7086,41.8391,抚顺市,沈抚新城,,,22,82,,,143,76,129,95,13,28,12,17,1.5,1.7
2022-04-25T23:00:00,1761A,123.8275,41.3064,本溪市,大峪,,31,20,42,1,23,132,97,127,105,7,15,12,13,0.6,0.8
2022-04-25T23:00:00,1762A,123.7567,41.3325,本溪市,溪湖,,28,17,52,4,25,124,88,117,86,18,24,16,19,0.8,1.1
2022-04-25T23:00:00,1763A,123.7169,41.3094,本溪市,彩屯,,46,46,73,20,40,91,62,87,69,38,36,36,38,2.2,2.4
2022-04-25T23:00:00,1764A,123.7669,41.2864,本溪市,东明,,31,12,40,5,17,126,97,119,96,6,13,8,9,0.5,0.7
2022-04-25T23:00:00,1765A,123.7992,41.2664,本溪市,新立屯,,34,12,38,6,21,134,106,127,105,2,7,10,10,0.9,1
2022-04-25T23:00:00,1766A,123.8142,41.3472,本溪市,威宁,,26,17,53,5,21,122,82,113,85,8,15,12,12,0.4,0.7
2022-04-25T23:00:00,1767A,121.1115,41.0879,锦州市,南山,,43,40,95,30,66,125,67,106,92,9,16,7,15,0.6,0.9
2022-04-25T23:00:00,1768A,121.0533,40.8434,锦州市,开发区,,50,50,85,27,45,110,63,98,85,21,26,12,10,0.6,0.7
2022-04-25T23:00:00,1769A,121.1836,41.1119,锦州市,百股街道,,35,35,76,6,48,142,75,122,104,18,20,12,10,0.6,0.8
2022-04-25T23:00:00,1770A,121.1178,41.1222,锦州市,天安街道,,45,37,102,31,66,154,85,130,115,14,21,9,16,0.7,1
2022-04-25T23:00:00,1771A,121.1303,41.1386,锦州市,北湖公园,,38,36,93,26,61,138,76,116,103,11,17,9,14,0.5,0.8
2022-04-25T23:00:00,1772A,126.54,43.8622,吉林市,哈达湾,,49,49,70,26,46,170,132,164,154,5,11,4,5,0.6,0.7
2022-04-25T23:00:00,1773A,126.5844,43.8358,吉林市,东局子,颗粒物(PM10),55,60,75,30,45,166,128,159,148,5,11,4,4,0.7,0.7
2022-04-25T23:00:00,1774A,126.5052,43.8245,吉林市,电力学院,颗粒物(PM10),51,52,80,29,53,181,140,173,163,7,16,11,12,0.7,0.8
2022-04-25T23:00:00,1775A,126.6133,43.8972,吉林市,江北,颗粒物(PM10),52,53,66,33,45,160,125,154,143,6,12,10,10,0.7,0.7
2022-04-25T23:00:00,1776A,126.555,43.8306,吉林市,江南公园,,50,50,68,32,49,158,124,152,142,5,11,6,6,0.7,0.7
2022-04-25T23:00:00,1778A,126.7061,43.7133,吉林市,丰满(对照点),,43,43,69,28,52,170,137,165,157,3,8,5,5,0.7,0.8
2022-04-25T23:00:00,1779A,123.9305,47.3636,齐齐哈尔市,安居小区,,42,25,35,29,14,80,70,72,72,8,16,2,2,0.5,0.5
2022-04-25T23:00:00,1780A,123.9488,47.3386,齐齐哈尔市,中心广场,,23,17,19,16,11,78,73,73,71,7,10,6,5,0.3,0.4
2022-04-25T23:00:00,1781A,123.9483,47.3227,齐齐哈尔市,农牧车辆厂,,24,22,23,16,10,84,74,79,76,7,14,3,3,0.4,0.4
2022-04-25T23:00:00,1783A,123.945,47.2988,齐齐哈尔市,市环境监测站,,30,26,26,21,16,81,70,75,73,8,13,5,5,0.6,0.6
2022-04-25T23:00:00,1784A,129.61,44.561,牡丹江市,环保大楼,,49,49,66,19,46,129,110,120,120,8,17,3,5,0.4,0.5
2022-04-25T23:00:00,1785A,129.6115,44.5782,牡丹江市,文化广场,,48,48,70,21,51,118,111,114,114,7,18,3,5,0.3,0.5
2022-04-25T23:00:00,1786A,129.5904,44.5963,牡丹江市,第一医院,细颗粒物(PM2.5),53,36,64,37,55,122,108,115,112,9,15,4,4,0.6,0.7
2022-04-25T23:00:00,1787A,129.6364,44.6075,牡丹江市,机车工厂,,35,35,76,15,53,127,106,119,116,12,20,12,13,0.3,0.5
2022-04-25T23:00:00,1788A,129.6386,44.5462,牡丹江市,第一中学,,45,45,69,15,50,127,112,120,120,11,20,2,4,0.4,0.5
2022-04-25T23:00:00,1789A,124.81117,46.03138,大庆市,大同区,,,374,145,,122,132,47,120,89,12,25,5,7,0.8,1.1
2022-04-25T23:00:00,1790A,125.129,46.533,大庆市,龙凤区,细颗粒物(PM2.5),54,52,62,38,51,94,66,83,74,11,16,5,7,0.5,0.6
2022-04-25T23:00:00,1791A,124.902,46.408,大庆市,红岗区,细颗粒物(PM2.5),74,58,81,54,64,120,63,96,78,12,20,6,7,0.8,0.9
2022-04-25T23:00:00,1792A,125.153,46.586,大庆市,萨尔图区,细颗粒物(PM2.5),62,39,58,44,60,102,73,89,80,9,14,2,2,0.5,0.5
2022-04-25T23:00:00,1793A,124.9042,46.6215,大庆市,让胡路区,,45,45,48,24,37,95,76,87,82,8,24,5,6,1.2,1.3
2022-04-25T23:00:00,1794A,118.3606,31.3519,芜湖市,监测站,,,,25,19,19,121,35,110,42,29,22,11,11,0.7,0.7
2022-04-25T23:00:00,1795A,118.3714,31.4134,芜湖市,科创中心,,26,13,32,18,21,107,8,100,30,42,26,6,6,0.9,0.8
2022-04-25T23:00:00,1796A,118.3673,31.3131,芜湖市,四水厂,,19,8,24,6,17,117,29,104,44,38,17,5,5,0.7,0.7
2022-04-25T23:00:00,1798A,118.5092,31.6837,马鞍山市,湖东路四小,,26,12,23,18,22,111,10,96,38,37,20,5,4,1.0,0.7
2022-04-25T23:00:00,1799A,118.5024,31.6449,马鞍山市,开发区,,23,13,30,8,12,102,5,84,37,45,23,8,8,1.6,1
2022-04-25T23:00:00,1800A,118.5228,31.7231,马鞍山市,慈湖,,,7,27,12,18,70,,59,30,32,25,9,8,1.2,1.1
2022-04-25T23:00:00,1802A,118.6245,31.7241,马鞍山市,濮塘(对照点),,,33,26,16,16,,,,,,6,,6,,
2022-04-25T23:00:00,1803A,115.9872,29.6815,九江市,十里,,22,19,19,15,13,95,20,86,52,34,18,4,5,0.6,0.6
2022-04-25T23:00:00,1804A,115.9584,29.7046,九江市,茅山头,,19,19,19,9,12,89,22,79,58,35,16,4,4,0.7,0.5
2022-04-25T23:00:00,1805A,115.9877,29.7295,九江市,西园,,20,20,21,6,9,89,45,83,58,28,20,8,8,0.2,0.6
2022-04-25T23:00:00,1806A,116.0172,29.6547,九江市,五七二七厂,,15,15,27,9,6,89,41,76,61,3,3,5,5,0.5,0.4
2022-04-25T23:00:00,1808A,115.9114,29.6038,九江市,综合工业园,,14,14,18,2,10,93,37,66,53,25,19,8,9,0.5,0.5
2022-04-25T23:00:00,1809A,116.0721,29.7535,九江市,石化总厂,,19,19,21,7,11,82,56,81,63,18,18,21,9,0.3,0.3
2022-04-25T23:00:00,1810A,115.9773,29.5698,九江市,庐山气象台(对照点),,31,5,12,2,9,103,99,94,94,6,8,6,5,0.5,0.3
2022-04-25T23:00:00,1812A,112.3931,34.6516,洛阳市,市委党校,颗粒物(PM10),62,73,76,41,35,173,70,142,134,25,15,11,7,0.9,0.8
2022-04-25T23:00:00,1814A,112.4657,34.6871,洛阳市,豫西宾馆,颗粒物(PM10),77,103,90,53,44,175,46,148,133,52,20,5,5,1.1,0.8
2022-04-25T23:00:00,1815A,112.494,34.6886,洛阳市,河南林校,颗粒物(PM10),82,113,88,55,37,196,64,161,146,54,22,9,10,0.7,0.5
2022-04-25T23:00:00,1816A,112.3844,34.623,洛阳市,开发区管委会,颗粒物(PM10),59,68,67,40,33,173,74,146,134,26,13,16,6,0.5,0.4
2022-04-25T23:00:00,1817A,112.4267,34.6258,洛阳市,市委新办公区,颗粒物(PM10),62,74,67,39,33,182,86,149,142,25,14,12,7,0.6,0.5
2022-04-25T23:00:00,1818A,114.4839,36.0621,安阳市,棉研所(对照点),颗粒物(PM10),53,56,89,27,42,130,75,109,100,15,15,5,7,0.7,0.7
2022-04-25T23:00:00,1819A,114.3551,36.1017,安阳市,红庙街,颗粒物(PM10),62,74,95,35,59,152,82,141,126,29,21,7,9,0.7,0.4
2022-04-25T23:00:00,1820A,114.361,36.0681,安阳市,银杏小区,,,65,89,,,164,92,152,134,28,28,6,7,1.5,0.9
2022-04-25T23:00:00,1824A,114.3389,34.7781,开封市,肿瘤医院,颗粒物(PM10),57,63,73,26,33,138,74,126,110,15,16,6,8,0.6,0.8
2022-04-25T23:00:00,1826A,114.2885,34.7965,开封市,世纪星幼儿园,,50,50,67,20,32,136,73,126,112,18,19,2,3,0.6,0.7
2022-04-25T23:00:00,1828A,113.2269,35.2127,焦作市,市环保局,细颗粒物(PM2.5),70,61,124,51,69,160,80,146,128,29,37,4,11,0.9,1.1
2022-04-25T23:00:00,1829A,113.2467,35.176,焦作市,高新区政府,颗粒物(PM10),91,132,159,46,74,146,52,127,106,43,36,12,17,0.4,0.7
2022-04-25T23:00:00,1830A,113.1987,35.2703,焦作市,影视城(对照点),"颗粒物(PM10),细颗粒物(PM2.5)",57,63,87,40,54,139,112,136,119,10,17,8,11,0.7,1
2022-04-25T23:00:00,1832A,113.3257,33.742,平顶山市,新华旅馆,颗粒物(PM10),79,108,70,51,47,157,0,127,102,67,22,6,3,0.5,0.5
2022-04-25T23:00:00,1833A,113.2919,33.737,平顶山市,规划设计院,颗粒物(PM10),59,68,65,34,33,147,59,116,109,32,20,4,4,0.7,0.7
2022-04-25T23:00:00,1834A,113.182,33.774,平顶山市,平顶山工学院,颗粒物(PM10),62,73,56,29,36,152,89,129,127,16,14,4,6,0.4,0.5
2022-04-25T23:00:00,1835A,111.1922,34.7752,三门峡市,市政府,颗粒物(PM10),62,73,98,25,44,167,56,140,104,40,37,6,11,0.5,0.7
2022-04-25T23:00:00,1836A,111.1587,34.7942,三门峡市,开发区,颗粒物(PM10),66,81,100,27,46,158,48,139,110,44,25,10,13,0.6,0.7
2022-04-25T23:00:00,1838A,111.143,34.7955,三门峡市,风景区(对照点),颗粒物(PM10),61,71,94,22,42,164,60,144,122,33,20,8,12,0.6,0.7
2022-04-25T23:00:00,1840A,111.2992,30.6981,宜昌市,白龙岗,,22,22,16,7,6,84,26,66,50,29,25,6,6,0.4,0.4
2022-04-25T23:00:00,1841A,111.3549,30.6465,宜昌市,伍家岗,,35,35,19,19,7,86,6,76,51,48,29,4,4,0.6,0.5
2022-04-25T23:00:00,1842A,111.2628,30.6961,宜昌市,点军区,,35,35,20,12,7,97,26,75,62,23,19,7,7,0.5,0.1
2022-04-25T23:00:00,1843A,111.3275,30.7819,宜昌市,夷陵区,,25,25,19,5,4,99,32,85,68,17,15,2,3,0.1,0.1
2022-04-25T23:00:00,1844A,112.2494,30.3197,荆州市,市图书馆,,28,26,16,19,9,106,83,103,95,20,17,9,8,0.6,0.6
2022-04-25T23:00:00,1845A,112.2008,30.3544,荆州市,市委党校,,,33,16,,11,109,89,105,100,15,8,8,8,,0.7
2022-04-25T23:00:00,1847A,113.1094,29.3578,岳阳市,南湖风景区,,24,24,24,15,19,113,73,101,96,13,10,7,9,0.6,0.6
2022-04-25T23:00:00,1848A,113.1493,29.4251,岳阳市,城陵矶,,26,24,22,18,16,105,33,91,77,48,16,9,13,0.7,0.7
2022-04-25T23:00:00,1849A,113.1497,29.3575,岳阳市,开发区,,32,32,23,16,15,115,66,101,95,18,9,15,8,0.7,0.7
2022-04-25T23:00:00,1850A,113.2621,29.4758,岳阳市,云溪区,,28,23,19,19,15,105,61,92,84,16,11,9,10,0.9,0.9
2022-04-25T23:00:00,1851A,112.9943,29.4402,岳阳市,君山区,,33,19,20,23,17,111,60,99,89,14,9,9,9,0.6,0.6
2022-04-25T23:00:00,1852A,113.2117,29.355,岳阳市,金凤水库(对照点),,32,16,26,22,16,108,48,93,83,20,10,4,5,0.6,0.6
2022-04-25T23:00:00,1854A,111.6975,28.9703,常德市,市二中,,25,18,27,10,18,98,80,90,85,5,6,5,6,0.7,0.8
2022-04-25T23:00:00,1857A,111.7158,29.1456,常德市,白鹤山(对照点),,28,10,19,17,23,91,88,79,78,3,2,6,7,0.7,0.7
2022-04-25T23:00:00,1858A,110.5319,29.1217,张家界市,永定新区,,,24,24,15,12,93,54,81,66,,8,6,5,0.2,0.5
2022-04-25T23:00:00,1859A,110.4697,29.1242,张家界市,电业局,,19,13,8,11,10,81,59,71,59,7,9,6,6,0.3,0.3
2022-04-25T23:00:00,1860A,110.5594,29.3547,张家界市,未央路,,20,17,15,4,6,74,61,67,55,5,5,3,3,0.4,0.4
2022-04-25T23:00:00,1861A,110.4417,29.315,张家界市,袁家界(对照点),,26,14,12,8,9,92,83,81,77,5,4,5,5,0.3,0.3
2022-04-25T23:00:00,1862A,110.4144,25.3167,桂林市,电子科大尧山校区(对照点),,42,42,25,26,17,100,14,72,48,4,4,5,5,0.6,0.6
2022-04-25T23:00:00,1863A,110.2819,25.2697,桂林市,监测站,,47,47,36,28,17,87,42,73,63,15,10,6,4,0.7,0.6
2022-04-25T23:00:00,1864A,110.3089,25.2708,桂林市,龙隐路小学,颗粒物(PM10),51,51,28,29,18,95,22,75,58,28,11,10,6,0.7,0.6
2022-04-25T23:00:00,1865A,110.2869,25.2178,桂林市,八中,细颗粒物(PM2.5),52,45,37,36,18,90,48,75,62,12,12,18,8,0.4,0.5
2022-04-25T23:00:00,1866A,109.2262,21.588,北海市,牛尾岭水库(对照点),,28,25,32,19,19,70,16,57,42,16,15,3,6,0.3,0.3
2022-04-25T23:00:00,1867A,109.1436,21.4086,北海市,海滩公园,颗粒物(PM10),51,51,34,12,13,74,23,60,51,26,11,4,5,0.5,0.4
2022-04-25T23:00:00,1868A,109.0981,21.4661,北海市,新市环保局,,27,27,33,12,18,65,45,58,53,4,11,4,6,0.4,0.5
2022-04-25T23:00:00,1869A,109.1778,21.5233,北海市,北海工业园,,29,29,45,17,20,70,40,61,53,6,14,6,9,0.2,0.4
2022-04-25T23:00:00,1870A,109.4856,24.3895,柳州市,柳东小学,,42,38,33,29,25,110,85,102,99,7,5,5,5,0.8,0.8
2022-04-25T23:00:00,1871A,109.4157,24.3277,柳州市,环保监测站,,44,44,35,26,21,102,68,91,86,14,9,5,5,0.8,0.7
2022-04-25T23:00:00,1872A,109.389,24.341,柳州市,河西水厂,,42,42,35,28,23,111,67,97,90,16,11,9,9,0.5,0.5
2022-04-25T23:00:00,1873A,109.4311,24.2921,柳州市,市四中,,50,50,39,26,21,95,63,85,80,15,9,5,6,0.8,0.7
2022-04-25T23:00:00,1874A,109.4006,24.3631,柳州市,市九中,,49,49,40,18,14,97,64,85,80,14,10,5,5,0.4,0.5
2022-04-25T23:00:00,1875A,109.4958,24.3134,柳州市,古亭山,,45,45,32,24,20,96,77,90,88,8,8,4,4,0.6,0.6
2022-04-25T23:00:00,1876A,109.5078,18.2489,三亚市,河东子站,,49,49,27,27,21,47,34,43,37,2,2,3,3,0.4,0.5
2022-04-25T23:00:00,1877A,109.4964,18.2681,三亚市,河西子站,,36,30,25,25,21,48,36,44,38,2,3,2,2,0.3,0.3
2022-04-25T23:00:00,1878A,104.7778,31.4741,绵阳市,富乐山,颗粒物(PM10),51,52,33,25,17,154,41,129,110,62,23,16,15,0.8,0.7
2022-04-25T23:00:00,1879A,104.7563,31.4535,绵阳市,市人大,"颗粒物(PM10),细颗粒物(PM2.5)",67,84,38,48,21,149,1,125,83,116,49,7,8,1.3,0.6
2022-04-25T23:00:00,1880A,104.6697,31.4668,绵阳市,高新区自来水公司,颗粒物(PM10),66,82,36,37,20,146,5,126,85,95,38,12,10,0.9,0.6
2022-04-25T23:00:00,1881A,104.7287,31.5075,绵阳市,三水厂,颗粒物(PM10),65,80,46,41,21,158,2,128,87,94,41,5,5,0.9,0.6
2022-04-25T23:00:00,1882A,104.563,28.793,宜宾市,石马中学(对照点),,41,41,36,20,22,139,90,119,107,7,15,6,8,0.5,0.6
2022-04-25T23:00:00,1883A,104.6201,28.7728,宜宾市,市委,,46,46,36,24,20,140,83,123,106,17,22,6,9,0.6,0.7
2022-04-25T23:00:00,1884A,104.6055,28.793,宜宾市,宜宾四中,,47,47,39,26,21,130,92,114,100,13,24,6,9,0.5,0.6
2022-04-25T23:00:00,1885A,104.639,28.7562,宜宾市,市政府,,42,42,41,23,20,145,91,125,107,18,26,8,11,0.5,0.4
2022-04-25T23:00:00,1886A,104.5742,28.7199,宜宾市,黄金嘴,,37,37,33,19,17,145,83,122,110,10,18,5,8,0.4,0.5
2022-04-25T23:00:00,1888A,101.6891,26.571,攀枝花市,弄弄坪,颗粒物(PM10),62,74,67,36,32,114,94,105,88,16,26,25,25,2.1,2.2
2022-04-25T23:00:00,1889A,101.5769,26.5928,攀枝花市,河门口,,48,48,51,25,23,121,98,118,113,13,16,5,8,0.6,0.7
2022-04-25T23:00:00,1890A,101.7169,26.585,攀枝花市,炳草岗,,34,34,45,16,27,116,93,110,97,17,26,15,32,0.5,0.8
2022-04-25T23:00:00,1891A,101.7369,26.5008,攀枝花市,仁和,,48,48,46,24,32,119,79,104,97,14,21,4,5,0.6,0.6
2022-04-25T23:00:00,1893A,105.4324,28.9634,泸州市,九狮山(对照点),颗粒物(PM10),73,96,44,21,18,123,49,109,92,21,15,8,8,0.6,0.5
2022-04-25T23:00:00,1894A,105.4427,28.9063,泸州市,小市上码头,,,74,48,24,20,133,71,118,112,,1,27,20,0.5,0.6
2022-04-25T23:00:00,1895A,105.4241,28.8573,泸州市,兰田宪桥,颗粒物(PM10),63,76,40,14,17,130,55,115,102,31,19,37,23,0.6,0.5
2022-04-25T23:00:00,1896A,105.4379,28.8833,泸州市,市环监站,颗粒物(PM10),63,76,44,16,17,123,59,106,99,45,22,13,17,0.6,0.4
2022-04-25T23:00:00,1901A,104.4239,31.1208,德阳市,东山公园,颗粒物(PM10),60,69,39,28,16,177,72,158,137,42,24,8,7,0.6,0.5
2022-04-25T23:00:00,1902A,104.3826,31.1317,德阳市,西小区,颗粒物(PM10),59,68,46,34,16,171,74,158,134,35,26,10,8,0.5,0.4
2022-04-25T23:00:00,1904A,104.3553,31.1091,德阳市,耐火材料厂,细颗粒物(PM2.5),67,72,48,48,18,179,68,152,124,39,28,8,9,0.5,0.4
2022-04-25T23:00:00,1905A,106.056,30.8064,南充市,西山风景区(对照点),颗粒物(PM10),54,57,43,36,30,133,98,118,114,10,15,3,3,0.6,0.5
2022-04-25T23:00:00,1906A,106.0789,30.8023,南充市,南充市委,细颗粒物(PM2.5),62,70,51,44,25,139,89,128,117,39,20,5,3,0.7,0.5
2022-04-25T23:00:00,1907A,106.1031,30.8217,南充市,南充炼油厂,颗粒物(PM10),57,64,55,37,24,155,87,136,124,21,16,18,8,0.6,0.5
2022-04-25T23:00:00,1908A,106.1064,30.7856,南充市,高坪区监测站,细颗粒物(PM2.5),63,71,45,45,26,131,72,115,106,18,14,34,17,0.6,0.5
2022-04-25T23:00:00,1909A,106.0642,30.7636,南充市,嘉陵区环保局,细颗粒物(PM2.5),80,66,42,59,26,131,60,118,99,13,13,10,10,0.7,0.3
2022-04-25T23:00:00,1910A,106.1087,30.8388,南充市,市环境监测站,细颗粒物(PM2.5),55,56,52,39,27,138,83,122,114,27,19,19,9,0.5,0.3
2022-04-25T23:00:00,1911A,106.9222,27.6869,遵义市,丁字口,,33,33,32,21,19,113,29,108,73,35,18,10,6,0.6,0.5
2022-04-25T23:00:00,1912A,106.9242,27.7019,遵义市,凤凰山,,36,18,25,25,16,118,48,109,92,28,13,6,5,0.5,0.4
2022-04-25T23:00:00,1913A,106.8906,27.6486,遵义市,忠庄,,40,40,29,20,15,114,33,107,86,34,14,1,2,0.8,0.6
2022-04-25T23:00:00,1914A,106.9231,27.6506,遵义市,舟水桥,,,114,29,,16,111,20,101,71,36,18,3,2,0.6,0.4
2022-04-25T23:00:00,1915A,106.9178,27.72,遵义市,干田坝,,20,20,23,9,18,117,24,107,76,32,15,5,5,0.9,0.8
2022-04-25T23:00:00,1916A,103.7897,25.5035,曲靖市,环境监测站,颗粒物(PM10),64,77,61,28,23,180,122,145,134,15,14,7,10,0.4,0.4
2022-04-25T23:00:00,1917A,103.8,25.5364,曲靖市,烟厂办公区,颗粒物(PM10),63,76,60,18,23,144,114,140,132,13,13,5,10,0.5,0.5
2022-04-25T23:00:00,1918A,108.7197,34.3956,咸阳市,气象站(对照点),颗粒物(PM10),81,111,76,33,28,152,29,128,91,79,32,6,7,0.9,0.7
2022-04-25T23:00:00,1919A,108.673,34.3155,咸阳市,实验中学,颗粒物(PM10),90,129,72,59,31,145,4,124,80,101,38,4,4,0.8,0.4
2022-04-25T23:00:00,1920A,108.7233,34.3617,咸阳市,师范学院,颗粒物(PM10),99,148,80,45,32,148,12,126,87,90,31,6,6,0.8,0.6
2022-04-25T23:00:00,1922A,109.0656,35.0994,铜川市,党校(对照点),颗粒物(PM10),68,86,86,21,28,133,13,117,78,86,47,6,8,0.5,0.6
2022-04-25T23:00:00,1923A,109.0697,35.0697,铜川市,王益区政府,颗粒物(PM10),77,104,94,23,31,144,25,127,89,54,36,17,13,0.7,0.7
2022-04-25T23:00:00,1924A,108.9344,34.9058,铜川市,新区管委会,,,79,80,21,29,151,,144,141,22,27,6,11,0.3,0.5
2022-04-25T23:00:00,1926A,109.4131,36.6275,延安市,枣园(对照点),颗粒物(PM10),84,117,70,31,19,146,3,137,74,72,32,4,4,0.3,0.4
2022-04-25T23:00:00,1927A,109.4761,36.6028,延安市,延大医附院,颗粒物(PM10),86,122,76,33,29,153,3,136,77,80,34,5,4,1.0,0.7
2022-04-25T23:00:00,1929A,109.5056,36.6106,延安市,百米大道,颗粒物(PM10),99,148,86,36,27,144,19,127,75,77,38,10,6,1.1,0.8
2022-04-25T23:00:00,1930A,107.185,34.3063,宝鸡市,庙沟村(对照点),,38,38,45,18,22,131,90,118,110,15,8,4,4,0.3,0.3
2022-04-25T23:00:00,1931A,107.0708,34.3017,宝鸡市,竹园沟,,40,40,50,24,22,144,74,125,102,17,13,5,6,0.3,0.3
2022-04-25T23:00:00,1932A,107.1906,34.3672,宝鸡市,三陆医院,颗粒物(PM10),64,77,58,32,22,143,35,126,92,48,26,11,6,0.5,0.6
2022-04-25T23:00:00,1933A,107.1431,34.3547,宝鸡市,监测站,,47,47,47,25,21,140,59,124,95,26,19,4,4,0.5,0.5
2022-04-25T23:00:00,1934A,107.1186,34.3739,宝鸡市,技工学校,细颗粒物(PM2.5),54,56,53,38,29,141,65,127,103,20,16,6,6,0.2,0.3
2022-04-25T23:00:00,1935A,107.3906,34.3528,宝鸡市,陈仓区环保局家属楼,细颗粒物(PM2.5),62,67,64,44,28,153,10,130,90,69,29,7,13,0.6,0.5
2022-04-25T23:00:00,1936A,107.2058,34.3497,宝鸡市,文理学院,颗粒物(PM10),54,57,53,20,22,143,57,128,97,31,24,6,7,0.3,0.3
2022-04-25T23:00:00,1937A,107.2386,34.3622,宝鸡市,三迪小学,颗粒物(PM10),60,69,55,31,26,137,41,122,86,46,29,8,8,0.4,0.4
2022-04-25T23:00:00,1938A,109.5293,34.5101,渭南市,农科所(对照点),颗粒物(PM10),58,66,78,29,33,143,95,132,122,24,29,10,12,0.4,0.5
2022-04-25T23:00:00,1939A,109.4974,34.4877,渭南市,日报社,颗粒物(PM10),62,73,83,27,31,147,84,135,114,38,38,12,16,0.4,0.5
2022-04-25T23:00:00,1940A,109.4636,34.493,渭南市,体育馆,颗粒物(PM10),60,70,78,24,25,153,98,134,121,38,37,11,11,0.5,0.5
2022-04-25T23:00:00,1941A,109.4259,34.5023,渭南市,高新一小,颗粒物(PM10),65,80,89,31,30,135,43,120,99,85,36,10,7,1.1,0.6
2022-04-25T23:00:00,1943A,102.1725,38.5339,金昌市,新川苑,颗粒物(PM10),63,75,82,27,24,103,83,100,92,10,17,9,29,0.2,0.3
2022-04-25T23:00:00,1944A,102.1692,38.5167,金昌市,天庆家园,细颗粒物(PM2.5),68,75,110,49,36,103,85,102,94,9,20,8,37,0.2,0.4
2022-04-25T23:00:00,1945A,98.2908,39.7711,嘉峪关市,气象局,颗粒物(PM10),96,141,92,36,23,118,92,111,105,4,15,1,16,0.4,0.8
2022-04-25T23:00:00,1947A,106.3394,38.817,石嘴山市,沙湖旅游区(对照点),,,,139,88,32,140,76,112,97,39,37,25,35,0.2,0.3
2022-04-25T23:00:00,1948A,106.3668,39.0145,石嘴山市,大武口朝阳西街,颗粒物(PM10),500,662,157,118,48,122,88,109,100,4,39,4,23,0.2,1.1
2022-04-25T23:00:00,1949A,106.7704,39.2282,石嘴山市,惠农南大街,颗粒物(PM10),462,562,174,106,41,133,48,112,87,30,28,20,17,1.2,0.7
2022-04-25T23:00:00,1950A,106.7099,39.1325,石嘴山市,红果子镇惠新街,颗粒物(PM10),500,713,212,121,66,123,68,107,88,16,32,22,26,0.3,0.6
2022-04-25T23:00:00,1951A,84.895,45.6094,克拉玛依市,长征新村,,20,14,13,4,5,85,62,77,69,11,11,8,8,0.2,0.2
2022-04-25T23:00:00,1952A,84.8988,45.5893,克拉玛依市,南林小区,,21,13,17,6,7,91,66,82,76,15,15,6,6,0.3,0.3
2022-04-25T23:00:00,1954A,84.905,44.3396,克拉玛依市,独山子区,,16,7,19,5,10,86,51,71,63,5,10,5,6,0.4,0.4
2022-04-25T23:00:00,1955A,85.6979,46.098,克拉玛依市,乌尔禾区商贸楼,,21,18,23,4,7,85,67,78,77,13,11,8,8,0.1,0.1
2022-04-25T23:00:00,1956A,86.1472,41.7538,巴音郭楞州,孔雀公园,颗粒物(PM10),78,105,78,13,20,105,92,99,98,5,11,1,1,0.4,0.4
2022-04-25T23:00:00,1957A,86.1972,41.7166,巴音郭楞州,棉纺厂,颗粒物(PM10),67,84,60,21,17,100,82,95,92,8,10,2,2,0.5,0.5
2022-04-25T23:00:00,1958A,86.2357,41.7173,巴音郭楞州,经济开发区,颗粒物(PM10),79,108,62,23,17,111,89,108,104,5,5,2,2,0.5,0.5
2022-04-25T23:00:00,1961A,117.532,36.6868,济南市,东山小学,,42,42,58,7,26,177,90,161,138,12,17,12,14,0.5,0.6
2022-04-25T23:00:00,1966A,120.0405,35.8735,青岛市,黄岛区4号,,23,17,6,5,2,100,71,96,82,27,16,5,4,0.4,0.3
2022-04-25T23:00:00,1982A,122.0693,37.2174,威海市,文登开发区,,46,46,21,31,13,114,87,105,92,16,16,4,4,0.4,0.2
2022-04-25T23:00:00,2031A,113.1817,27.9958,株洲市,云田中学,,26,12,24,15,19,104,81,84,63,11,10,5,7,0.4,0.5
2022-04-25T23:00:00,2054A,114.1099,32.1059,信阳市,平桥分局,,26,26,21,14,16,105,66,97,84,17,11,7,8,0.4,0.4
2022-04-25T23:00:00,2064A,113.9956,32.1271,信阳市,南湾水厂,,22,22,26,11,13,107,65,97,86,11,8,7,7,0.4,0.5
2022-04-25T23:00:00,2065A,114.0775,32.1195,信阳市,市酿酒公司,,,23,20,6,11,106,77,100,87,,11,5,6,0.5,0.5
2022-04-25T23:00:00,2066A,114.0609,32.1399,信阳市,审计局,,24,24,23,11,15,102,60,95,82,26,13,8,8,0.4,0.4
2022-04-25T23:00:00,2067A,114.6613,33.6128,周口市,市环境监测站,颗粒物(PM10),79,108,66,35,26,123,73,118,100,18,11,8,8,1.0,0.9
2022-04-25T23:00:00,2068A,114.6758,33.6347,周口市,周口师范,颗粒物(PM10),78,105,62,38,31,105,58,98,85,17,10,10,9,0.8,0.7
2022-04-25T23:00:00,2069A,114.6546,33.5979,周口市,市运管处,颗粒物(PM10),77,104,61,41,28,113,40,105,86,32,8,16,10,1.0,0.9
2022-04-25T23:00:00,2070A,114.6369,33.6406,周口市,川汇区环保局,颗粒物(PM10),77,104,60,44,33,117,72,112,99,14,8,9,11,0.8,0.7
2022-04-25T23:00:00,2075A,117.6336,24.4674,漳州市,九湖(对照点),,29,29,35,17,16,80,18,72,43,13,10,8,7,0.3,0.3
2022-04-25T23:00:00,2160A,112.85,35.5051,晋城市,自来水公司,"颗粒物(PM10),细颗粒物(PM2.5)",67,84,107,48,42,184,124,166,150,26,34,6,8,0.9,1
2022-04-25T23:00:00,2161A,112.8318,35.4936,晋城市,白云商贸,细颗粒物(PM2.5),67,75,103,48,43,190,126,172,153,21,32,6,9,0.9,1
2022-04-25T23:00:00,2162A,112.8508,35.4887,晋城市,市环保局,细颗粒物(PM2.5),77,79,107,56,49,174,98,153,130,25,30,8,12,0.8,1
2022-04-25T23:00:00,2163A,112.8676,35.4897,晋城市,技术学院,颗粒物(PM10),64,77,93,44,46,174,84,158,140,39,26,7,9,0.7,0.9
2022-04-25T23:00:00,2165A,112.8453,35.546,晋城市,白马寺 (对照点),,,,,,,,,,,,,,,,
2022-04-25T23:00:00,2166A,112.4397,39.3522,朔州市,平朔,颗粒物(PM10),156,261,146,46,39,146,69,132,117,15,35,4,10,0.4,0.4
2022-04-25T23:00:00,2167A,112.4575,39.3617,朔州市,朔唯,颗粒物(PM10),152,254,188,48,55,149,65,136,120,19,43,4,11,0.4,0.5
2022-04-25T23:00:00,2168A,112.4258,39.3197,朔州市,区政府,颗粒物(PM10),164,277,124,39,32,147,77,133,121,12,26,7,10,0.5,0.6
2022-04-25T23:00:00,2169A,112.4072,39.3278,朔州市,市环保局,颗粒物(PM10),250,385,151,27,29,138,80,124,113,11,27,7,10,0.3,0.3
2022-04-25T23:00:00,2170A,112.4272,39.3681,朔州市,市二中,颗粒物(PM10),174,298,155,51,37,151,72,137,121,12,32,6,12,0.4,0.5
2022-04-25T23:00:00,2171A,112.7532,37.6945,晋中市,锦纶小区,颗粒物(PM10),113,175,133,59,54,151,85,142,113,48,33,24,19,0.9,0.6
2022-04-25T23:00:00,2173A,112.7249,37.7067,晋中市,南都小区,颗粒物(PM10),91,132,135,63,53,162,94,148,121,35,29,27,20,0.9,0.7
2022-04-25T23:00:00,2174A,112.6991,37.6982,晋中市,榆次区政府,颗粒物(PM10),106,161,125,62,61,163,90,148,118,34,34,22,19,1.0,0.4
2022-04-25T23:00:00,2175A,110.9956,35.0147,运城市,运城中学,颗粒物(PM10),62,73,88,26,37,160,100,150,133,26,20,6,7,0.7,0.6
2022-04-25T23:00:00,2178A,110.9686,35.0303,运城市,地区技校,颗粒物(PM10),67,83,90,33,28,164,87,152,128,31,24,5,7,0.2,0.4
2022-04-25T23:00:00,2179A,111.0414,35.1147,运城市,空港新区,颗粒物(PM10),85,120,98,37,38,162,40,147,108,55,29,7,8,0.7,0.6
2022-04-25T23:00:00,2181A,112.7383,38.4519,忻州市,开发区,颗粒物(PM10),65,79,99,26,44,141,80,134,123,27,29,11,19,0.4,0.5
2022-04-25T23:00:00,2182A,112.7003,38.4928,忻州市,会展中心,颗粒物(PM10),58,65,89,14,23,146,45,131,113,62,39,9,13,0.4,0.4
2022-04-25T23:00:00,2183A,111.1406,37.5211,吕梁市,环保局,颗粒物(PM10),89,127,101,33,28,132,0,121,60,94,49,7,9,0.3,0.4
2022-04-25T23:00:00,2185A,111.1297,37.5136,吕梁市,自来水公司,颗粒物(PM10),81,112,127,24,26,129,4,116,78,89,48,5,7,0.4,0.4
2022-04-25T23:00:00,2187A,106.8174,39.6973,乌海市,市林业局,颗粒物(PM10),182,314,176,92,55,122,78,111,96,8,39,5,45,0.5,1
2022-04-25T23:00:00,2188A,106.7907,39.6667,乌海市,中海勃湾学校,颗粒物(PM10),197,344,163,71,46,127,80,116,101,14,38,8,36,0.2,0.8
2022-04-25T23:00:00,2191A,122.2532,43.6801,通辽市,艺术职业学校,颗粒物(PM10),79,108,144,33,56,167,108,155,134,15,25,6,11,0.6,0.6
2022-04-25T23:00:00,2192A,119.7594,49.2261,呼伦贝尔市,区环保局,,29,29,25,20,15,94,67,86,76,7,14,5,5,0.6,0.5
2022-04-25T23:00:00,2195A,107.4212,40.761,巴彦淖尔市,附二中,颗粒物(PM10),106,162,194,43,44,116,75,101,83,4,13,4,6,0.3,0.5
2022-04-25T23:00:00,2196A,107.37,40.7372,巴彦淖尔市,市环保大楼,颗粒物(PM10),89,128,156,39,44,116,80,100,83,4,13,4,5,0.3,0.4
2022-04-25T23:00:00,2197A,113.1306,40.9923,乌兰察布市,集宁新区,颗粒物(PM10),66,82,95,36,28,136,90,124,101,2,14,8,17,0.3,0.4
2022-04-25T23:00:00,2200A,122.0392,46.0656,兴安盟,胜华新制药厂,,30,30,34,18,20,78,70,74,70,6,9,4,4,0.2,0.2
2022-04-25T23:00:00,2201A,121.9504,46.0741,兴安盟,科右前旗环保局,,30,20,32,21,22,82,66,77,73,8,13,3,4,0.2,0.2
2022-04-25T23:00:00,2202A,116.1042,43.9317,锡林郭勒盟,市环保监测站,颗粒物(PM10),135,219,148,9,13,99,78,92,82,13,4,7,8,1.0,0.8
2022-04-25T23:00:00,2203A,116.0781,43.9311,锡林郭勒盟,市政府,颗粒物(PM10),108,165,124,16,15,94,74,88,78,17,7,5,6,0.6,0.6
2022-04-25T23:00:00,2204A,105.6467,38.8363,阿拉善盟,西城区西花园(对照点),颗粒物(PM10),500,893,108,225,32,129,86,121,105,5,6,7,9,0.3,0.3
2022-04-25T23:00:00,2205A,105.6985,38.8411,阿拉善盟,蒙二幼,颗粒物(PM10),500,741,120,224,36,131,83,120,104,5,6,6,7,0.4,0.5
2022-04-25T23:00:00,2206A,105.724,38.8516,阿拉善盟,环保局新楼,颗粒物(PM10),500,636,96,213,36,123,83,118,104,5,6,7,8,0.4,0.4
2022-04-25T23:00:00,2207A,121.6094,41.998,阜新市,工业园区,,48,48,123,9,58,212,141,168,168,17,26,11,20,0.5,0.7
2022-04-25T23:00:00,2208A,121.6697,42.0279,阜新市,长青街,,42,42,98,14,55,127,74,122,108,13,20,13,19,0.4,0.7
2022-04-25T23:00:00,2209A,121.6673,42.0705,阜新市,农业园区,,45,45,115,20,74,141,81,134,119,16,20,7,14,0.6,0.9
2022-04-25T23:00:00,2210A,121.6717,42.0224,阜新市,东苑,,,47,116,19,86,136,,131,120,16,24,10,18,0.3,0.9
2022-04-25T23:00:00,2211A,121.6506,42.0498,阜新市,玉龙新城,,24,24,90,14,47,127,72,122,108,9,20,12,17,0.2,0.5
2022-04-25T23:00:00,2212A,123.2,41.1953,辽阳市,宏伟区,,29,4,31,1,17,119,92,115,96,5,7,8,9,0.5,0.6
2022-04-25T23:00:00,2213A,123.1683,41.2495,辽阳市,新华园,,28,4,37,0,21,124,87,118,95,7,10,6,6,0.3,0.4
2022-04-25T23:00:00,2214A,123.2354,41.2639,辽阳市,滨河路,,24,10,38,2,24,121,76,118,88,18,10,35,11,0.5,0.6
2022-04-25T23:00:00,2215A,123.149,41.2991,辽阳市,铁西工业园,,26,8,50,5,26,120,83,113,93,7,15,11,14,0.4,0.6
2022-04-25T23:00:00,2216A,123.8139,42.3022,铁岭市,汇工街西,颗粒物(PM10),52,53,81,10,36,164,85,149,114,20,23,13,14,0.6,0.7
2022-04-25T23:00:00,2217A,123.8649,42.2923,铁岭市,水上乐园,,33,33,59,7,35,173,87,154,122,16,19,9,10,0.5,0.4
2022-04-25T23:00:00,2218A,123.8486,42.2867,铁岭市,银州路东段,,34,34,69,11,35,164,87,148,112,13,18,7,7,0.6,0.6
2022-04-25T23:00:00,2219A,123.7153,42.2217,铁岭市,金沙江路北,,38,38,80,11,27,164,68,145,100,30,30,8,8,1.1,0.8
2022-04-25T23:00:00,2220A,120.4318,41.5881,朝阳市,西梁,细颗粒物(PM2.5),107,85,105,80,79,143,100,136,117,10,12,12,17,0.9,1
2022-04-25T23:00:00,2221A,120.4521,41.5646,朝阳市,河畔小区,细颗粒物(PM2.5),98,88,106,73,74,144,112,139,126,7,11,8,12,0.9,0.9
2022-04-25T23:00:00,2222A,120.4176,41.5648,朝阳市,八里堡,细颗粒物(PM2.5),95,73,107,71,72,147,97,142,118,12,15,8,11,0.9,0.9
2022-04-25T23:00:00,2223A,120.3806,41.5969,朝阳市,农业园区,细颗粒物(PM2.5),97,79,103,72,67,145,97,136,115,17,23,13,16,1.0,0.9
2022-04-25T23:00:00,2225A,124.4002,43.1713,四平市,一商场,颗粒物(PM10),52,54,71,23,34,185,94,162,137,6,14,10,11,0.3,0.5
2022-04-25T23:00:00,2226A,124.388,43.193,四平市,境园,颗粒物(PM10),52,54,75,17,31,199,98,174,146,5,10,10,10,0.2,0.4
2022-04-25T23:00:00,2227A,125.1358,42.8845,辽源市,环保局,,35,32,63,22,48,170,112,162,146,5,12,6,7,0.4,0.6
2022-04-25T23:00:00,2229A,125.9358,41.7173,通化市,光明,,39,39,50,23,26,152,120,140,127,5,16,10,15,0.5,0.7
2022-04-25T23:00:00,2230A,125.9446,41.7325,通化市,铁路,,35,30,54,20,28,139,110,128,116,5,20,14,23,1.0,1.1
2022-04-25T23:00:00,2231A,126.4219,41.9171,白山市,喜丰,颗粒物(PM10),59,67,98,24,26,168,121,156,141,16,32,8,14,0.5,0.5
2022-04-25T23:00:00,2232A,126.4077,41.9419,白山市,环保局,,50,50,62,17,23,167,121,156,143,14,22,8,9,0.7,0.7
2022-04-25T23:00:00,2233A,124.8006,45.1214,松原市,江南,颗粒物(PM10),152,254,144,42,60,180,111,168,152,13,19,5,5,0.6,0.7
2022-04-25T23:00:00,2234A,124.7965,45.1722,松原市,江北,颗粒物(PM10),150,250,131,56,62,172,107,162,148,12,16,3,4,0.7,0.6
2022-04-25T23:00:00,2235A,122.7911,45.6077,白城市,洮北区环保局,,,36,46,,,114,59,100,77,10,14,4,5,0.4,0.4
2022-04-25T23:00:00,2236A,122.8738,45.5725,白城市,市环保局,,42,39,52,29,38,92,38,73,50,29,30,6,7,0.3,0.4
2022-04-25T23:00:00,2237A,129.47,42.8883,延边朝鲜族自治州,妇幼医院,,39,39,41,25,26,126,104,121,113,8,9,7,7,0.6,0.6
2022-04-25T23:00:00,2238A,129.5055,42.9108,延边朝鲜族自治州,延边医院,,42,42,44,22,23,126,115,125,120,6,12,9,10,0.5,0.6
2022-04-25T23:00:00,2239A,129.3964,42.8881,延边朝鲜族自治州,朝阳川镇医院,,44,44,45,22,22,131,115,126,118,5,10,7,7,0.5,0.5
2022-04-25T23:00:00,2240A,130.9762,45.3001,鸡西市,环保局,细颗粒物(PM2.5),95,115,110,71,78,118,68,111,84,26,38,7,8,0.5,0.6
2022-04-25T23:00:00,2243A,130.9429,45.3039,鸡西市,第一中学,细颗粒物(PM2.5),104,123,110,78,71,120,72,112,88,27,30,9,11,0.5,0.5
2022-04-25T23:00:00,2244A,130.2537,47.3416,鹤岗市,哈啤分公司,,29,18,46,17,27,109,90,103,85,6,16,10,16,0.2,0.5
2022-04-25T23:00:00,2245A,130.2684,47.3086,鹤岗市,斯达机电,,27,19,46,16,26,105,84,97,81,6,16,6,9,0.4,0.5
2022-04-25T23:00:00,2246A,130.3114,47.3388,鹤岗市,东山纸板厂,,28,19,65,14,27,105,87,101,82,4,18,8,11,0.2,0.6
2022-04-25T23:00:00,2248A,131.1511,46.6937,双鸭山市,双合村,细颗粒物(PM2.5),79,62,87,58,68,91,64,80,60,13,24,4,13,0.3,0.8
2022-04-25T23:00:00,2249A,131.1652,46.6191,双鸭山市,南小市,细颗粒物(PM2.5),105,56,81,79,63,132,82,120,90,12,17,1,3,0.7,0.7
2022-04-25T23:00:00,2250A,131.1524,46.6554,双鸭山市,环保局,细颗粒物(PM2.5),67,59,66,48,53,142,78,130,94,13,23,3,6,0.4,0.5
2022-04-25T23:00:00,2251A,131.12,46.5656,双鸭山市,苗圃(对照点),细颗粒物(PM2.5),85,68,59,63,52,142,90,118,90,10,12,2,3,0.7,0.7
2022-04-25T23:00:00,2252A,128.5159,47.4311,伊春市,环保局,,26,9,25,3,23,101,82,97,88,7,13,5,5,0.4,0.4
2022-04-25T23:00:00,2253A,128.9102,47.7412,伊春市,电力嘉园,,35,24,33,24,25,106,83,101,89,6,10,7,7,0.6,0.6
2022-04-25T23:00:00,2254A,129.5029,48.471,伊春市,汤旺河国家公园(对照点),,28,5,11,0,9,93,87,90,86,5,5,8,8,0.2,0.3
2022-04-25T23:00:00,2255A,130.2751,46.8028,佳木斯市,佳纺,,50,32,67,35,89,135,67,122,82,10,26,2,4,0.5,0.7
2022-04-25T23:00:00,2256A,130.3995,46.8307,佳木斯市,发电厂,,46,46,79,28,73,131,64,118,82,13,24,5,7,0.4,0.6
2022-04-25T23:00:00,2257A,130.3258,46.7975,佳木斯市,环保局,,45,40,92,31,77,132,66,118,80,11,26,4,5,0.6,0.7
2022-04-25T23:00:00,2258A,130.3648,46.8032,佳木斯市,十一中,,48,36,73,33,79,130,69,119,86,12,27,9,10,0.5,0.7
2022-04-25T23:00:00,2259A,130.3794,46.7588,佳木斯市,四丰(对照点),细颗粒物(PM2.5),60,42,79,43,72,136,56,121,78,18,19,5,5,0.5,0.6
2022-04-25T23:00:00,2262A,131.0518,45.8751,七台河市,新一中(对照点),细颗粒物(PM2.5),84,77,75,62,58,135,87,125,107,18,17,8,8,0.8,0.8
2022-04-25T23:00:00,2263A,127.4833,50.2524,黑河市,交通局,,20,20,15,4,12,99,57,95,72,14,8,8,5,0.4,0.4
2022-04-25T23:00:00,2264A,127.5144,50.2341,黑河市,环保局,,20,16,15,14,11,101,58,91,72,12,7,8,5,0.4,0.4
2022-04-25T23:00:00,2265A,127.5291,50.2472,黑河市,大黑河岛(对照点),,33,33,17,7,5,93,45,88,64,13,8,14,8,0.4,0.3
2022-04-25T23:00:00,2266A,126.9785,46.6365,绥化市,人和东街,细颗粒物(PM2.5),65,61,132,47,110,108,60,88,54,12,28,11,13,0.5,0.7
2022-04-25T23:00:00,2267A,126.964,46.6528,绥化市,党政办公中心,细颗粒物(PM2.5),52,48,120,36,109,111,70,97,60,14,29,8,10,0.4,0.6
2022-04-25T23:00:00,2269A,124.1069,50.4097,大兴安岭地区,科技局,,27,21,11,8,10,88,84,86,86,18,19,5,3,0.4,0.4
2022-04-25T23:00:00,2270A,117.396,32.939,蚌埠市,工人疗养院,,28,28,35,17,22,75,53,75,58,6,20,5,7,0.3,0.5
2022-04-25T23:00:00,2271A,117.3605,32.9427,蚌埠市,百货大楼,,46,46,45,17,23,94,52,88,58,12,22,5,6,0.6,0.7
2022-04-25T23:00:00,2273A,117.4185,32.8911,蚌埠市,蚌埠学院,,28,24,31,19,25,86,41,80,44,23,19,6,8,0.5,0.6
2022-04-25T23:00:00,2274A,117.3533,32.9673,蚌埠市,淮上区政府,,27,27,38,14,23,82,48,75,58,8,17,7,9,0.3,0.5
2022-04-25T23:00:00,2275A,117.3145,32.8977,蚌埠市,高新区,,25,24,35,17,24,95,59,86,64,13,20,7,8,0.4,0.5
2022-04-25T23:00:00,2277A,116.8305,32.7727,淮南市,潘集区政府,,45,21,37,31,33,107,38,100,46,6,8,3,5,0.2,0.3
2022-04-25T23:00:00,2278A,117.0067,32.6524,淮南市,师范学院,,17,17,33,11,24,112,38,108,47,4,6,6,8,0.3,0.5
2022-04-25T23:00:00,2279A,116.8569,32.5951,淮南市,谢家集区政府,,31,31,32,18,18,102,44,95,53,9,14,4,6,0.2,0.3
2022-04-25T23:00:00,2280A,116.8281,32.633,淮南市,八公山区政府,,46,46,50,23,24,94,28,91,40,6,7,7,7,0.3,0.5
2022-04-25T23:00:00,2281A,116.6325,32.6201,淮南市,焦岗湖风景区管理处(对照点),,39,39,35,16,19,114,37,100,42,12,13,6,6,0.2,0.4
2022-04-25T23:00:00,2282A,116.8004,33.975,淮北市,监测站,,42,22,34,29,38,125,58,117,53,8,11,5,5,0.5,0.6
2022-04-25T23:00:00,2283A,116.8091,33.9007,淮北市,烈山区政府,细颗粒物(PM2.5),55,47,62,39,43,127,59,113,59,3,7,3,4,0.5,0.6
2022-04-25T23:00:00,2284A,116.7856,33.9477,淮北市,职业技术学院,,30,30,38,21,27,125,56,113,53,6,12,5,6,0.7,0.8
2022-04-25T23:00:00,2285A,117.8177,30.9412,铜陵市,市第四中学,,31,31,32,9,12,91,54,90,51,13,16,18,14,0.3,0.5
2022-04-25T23:00:00,2286A,117.8059,30.9273,铜陵市,市公路局,,45,45,32,11,12,82,45,76,45,17,19,5,4,0.5,0.7
2022-04-25T23:00:00,2287A,117.7807,30.9413,铜陵市,市新民污水厂,,33,33,39,18,23,91,54,91,42,18,27,8,11,0.3,0.5
2022-04-25T23:00:00,2288A,117.7439,30.8792,铜陵市,市第九中学,,24,24,29,8,16,76,43,52,28,21,46,7,8,0.7,0.6
2022-04-25T23:00:00,2289A,117.846,30.9413,铜陵市,车站新区,,30,27,25,21,21,90,49,88,52,16,19,9,8,0.7,0.6
2022-04-25T23:00:00,2290A,117.8483,30.97,铜陵市,市职教基地,,20,20,24,8,13,102,41,98,42,23,20,9,8,0.6,0.6
2022-04-25T23:00:00,2291A,117.0809,30.5177,安庆市,环科院,,19,16,17,13,11,85,43,71,60,18,17,6,6,0.7,0.7
2022-04-25T23:00:00,2292A,117.0331,30.5119,安庆市,马山宾馆,,18,15,17,12,12,66,33,56,51,32,25,6,7,0.4,0.8
2022-04-25T23:00:00,2294A,116.9896,30.6145,安庆市,安庆大学,,20,19,20,11,10,82,62,67,67,10,13,4,4,0.5,0.5
2022-04-25T23:00:00,2295A,118.2903,29.6963,黄山市,延安路89号,,28,18,27,3,17,88,88,75,75,3,7,5,4,0.6,0.7
2022-04-25T23:00:00,2296A,118.327,29.7178,黄山市,黄山东路89号,,25,8,25,8,13,88,79,74,74,4,9,4,4,0.5,0.6
2022-04-25T23:00:00,2297A,118.1371,30.2756,黄山市,黄山区政府5号楼,,30,4,19,10,8,93,93,70,70,2,5,5,5,0.5,0.6
2022-04-25T23:00:00,2298A,118.3093,32.3153,滁州市,老年大学,,10,9,20,7,14,118,32,90,37,16,26,12,13,0.3,0.5
2022-04-25T23:00:00,2299A,118.3244,32.2786,滁州市,人大宾馆,,12,6,18,3,13,118,36,103,35,15,22,5,5,0.5,0.6
2022-04-25T23:00:00,2301A,115.8277,32.8929,阜阳市,市监测站,,46,32,19,32,17,92,40,86,49,12,10,7,7,0.7,0.7
2022-04-25T23:00:00,2303A,115.8554,32.8605,阜阳市,开发区,,50,49,22,35,19,92,28,92,42,16,13,4,4,0.6,0.6
2022-04-25T23:00:00,2307A,116.5079,31.737,六安市,监测大楼,,17,16,18,0,5,99,52,92,63,6,5,5,6,0.5,0.4
2022-04-25T23:00:00,2308A,116.4738,31.7643,六安市,皖西学院,,19,13,16,5,9,100,58,94,70,5,4,7,8,0.4,0.4
2022-04-25T23:00:00,2309A,116.4996,31.7905,六安市,朝阳厂,,16,7,16,8,13,98,50,92,66,8,4,6,6,0.4,0.4
2022-04-25T23:00:00,2310A,116.5567,31.7886,六安市,开发区,,16,14,23,6,14,96,49,83,61,5,9,5,9,0.5,0.5
2022-04-25T23:00:00,2311A,115.8072,33.8399,亳州市,污水处理厂,,46,46,40,29,28,93,60,89,65,10,11,5,6,0.6,0.7
2022-04-25T23:00:00,2312A,115.7789,33.8518,亳州市,三国揽胜宫,细颗粒物(PM2.5),53,35,40,37,32,94,40,90,54,15,11,4,5,0.8,0.8
2022-04-25T23:00:00,2314A,117.47,30.6618,池州市,池州学院,,19,17,16,13,10,82,48,74,56,6,9,5,5,0.5,0.6
2022-04-25T23:00:00,2316A,118.7581,30.9454,宣城市,鳌峰子站,,29,29,28,13,19,92,15,80,35,41,23,4,5,0.7,0.6
2022-04-25T23:00:00,2317A,118.7385,30.9743,宣城市,敬亭山子站,,26,26,28,7,18,64,16,51,26,30,27,6,6,0.6,0.6
2022-04-25T23:00:00,2318A,118.7173,30.9427,宣城市,开发区子站,,28,28,26,14,17,94,6,85,39,48,20,4,6,0.6,0.5
2022-04-25T23:00:00,2319A,119.0141,25.4325,莆田市,荔城区仓后路,,24,24,51,10,25,109,15,72,34,14,13,5,5,0.4,0.5
2022-04-25T23:00:00,2320A,119.0015,25.4553,莆田市,莆田市监测站,,20,12,51,14,31,114,19,76,38,5,9,5,5,0.5,0.7
2022-04-25T23:00:00,2321A,119.1119,25.4561,莆田市,涵江区六中,,28,28,49,12,36,116,20,75,30,9,11,6,6,0.4,0.5
2022-04-25T23:00:00,2322A,119.1013,25.3215,莆田市,秀屿区政府,,,28,32,,20,91,12,72,22,21,12,11,9,0.6,0.6
2022-04-25T23:00:00,2323A,118.981,25.4792,莆田市,东圳水库(对照点),,15,6,38,10,23,106,27,76,46,6,9,5,5,0.3,0.5
2022-04-25T23:00:00,2324A,117.6211,26.2625,三明市,三钢,,36,36,44,19,25,47,3,43,21,32,24,4,15,1.0,2.1
2022-04-25T23:00:00,2325A,117.635,26.2714,三明市,三明二中,,33,33,35,17,19,52,4,48,25,27,18,3,8,0.9,1.2
2022-04-25T23:00:00,2326A,117.6028,26.2378,三明市,三元区政府,,,,39,,22,50,6,47,24,35,18,,6,0.7,0.7
2022-04-25T23:00:00,2327A,117.7275,26.3108,三明市,洋溪(对照点),,,,37,14,18,63,14,57,36,14,12,4,6,0.4,0.7
2022-04-25T23:00:00,2331A,118.0966,26.6761,南平市,茫荡山(对照点),,20,17,15,14,14,123,49,82,48,3,4,5,5,0.3,0.5
2022-04-25T23:00:00,2332A,118.1681,26.6369,南平市,南平市监测站,,29,29,30,19,25,79,2,72,30,26,14,5,5,0.8,0.6
2022-04-25T23:00:00,2333A,118.1825,26.6489,南平市,南平铝业有限公司,,27,27,31,12,22,75,14,70,37,15,10,5,6,0.4,0.5
2022-04-25T23:00:00,2334A,118.1756,26.6272,南平市,南平七中,,28,28,31,18,22,75,5,68,31,24,11,3,3,0.6,0.5
2022-04-25T23:00:00,2335A,117.0189,25.1181,龙岩市,龙岩师专(对照点),,28,28,28,12,16,64,52,58,58,8,9,5,6,0.5,0.5
2022-04-25T23:00:00,2336A,117.0217,25.1033,龙岩市,龙岩市监测站,,20,18,28,14,17,71,50,59,57,10,9,6,5,0.4,0.4
2022-04-25T23:00:00,2337A,117.0258,25.0661,龙岩市,闽西职业技术学院,,34,34,29,14,17,68,45,65,52,12,9,6,6,0.5,0.5
2022-04-25T23:00:00,2338A,117.0196,25.0306,龙岩市,龙岩学院,,23,23,21,9,12,60,46,58,56,8,7,5,5,0.4,0.4
2022-04-25T23:00:00,2339A,119.5001,26.6946,宁德市,金涵水库(对照点),,38,38,49,21,26,120,12,96,52,14,14,6,6,1.0,1
2022-04-25T23:00:00,2341A,119.5388,26.6612,宁德市,宁德市监测站,,44,44,53,16,36,118,29,103,67,20,14,9,8,0.8,0.7
2022-04-25T23:00:00,2342A,117.3102,29.3867,景德镇市,王港中学(对照点),,20,6,24,10,17,86,64,80,77,3,4,5,5,0.6,0.6
2022-04-25T23:00:00,2343A,117.2117,29.2933,景德镇市,老干部活动中心,,30,30,39,8,21,77,63,68,67,16,14,5,5,0.3,0.3
2022-04-25T23:00:00,2344A,117.1894,29.2789,景德镇市,兽医站,,25,24,29,17,18,75,52,59,58,22,19,3,8,0.6,0.6
2022-04-25T23:00:00,2345A,117.1547,29.2617,景德镇市,台达陶瓷,,22,22,38,6,19,95,39,76,74,42,20,28,22,0.5,0.4
2022-04-25T23:00:00,2346A,117.2461,29.2956,景德镇市,陶研所,,23,21,39,7,16,95,73,78,78,8,9,7,6,0.4,0.3
2022-04-25T23:00:00,2347A,114.0997,27.5002,萍乡市,武功山(对照点),,28,2,4,4,5,93,87,76,52,6,8,15,14,0.3,0.4
2022-04-25T23:00:00,2348A,113.8385,27.6434,萍乡市,中医院,,20,4,21,14,18,85,62,74,53,11,13,4,6,0.5,0.6
2022-04-25T23:00:00,2349A,113.8493,27.6253,萍乡市,市政府车库,,14,13,27,0,9,84,42,72,50,11,17,2,6,0.5,0.6
2022-04-25T23:00:00,2350A,113.8676,27.6435,萍乡市,市环保局,,18,7,22,8,17,59,55,54,46,6,13,4,9,0.7,0.8
2022-04-25T23:00:00,2351A,113.866,27.6198,萍乡市,安源区政府,,12,1,34,3,11,70,36,58,35,7,14,9,12,0.7,0.8
2022-04-25T23:00:00,2353A,114.9886,27.8431,新余市,飞宇,,30,30,33,4,13,85,81,64,64,12,13,6,6,0.5,0.6
2022-04-25T23:00:00,2354A,114.9231,27.8246,新余市,第二水厂,,29,24,40,4,17,91,91,64,64,9,12,4,18,0.4,0.6
2022-04-25T23:00:00,2355A,114.9308,27.8036,新余市,市气象局,,27,19,86,14,33,87,85,57,57,16,41,7,50,0.7,2.7
2022-04-25T23:00:00,2357A,116.9822,28.1136,鹰潭市,龙虎山(对照点),,24,13,24,8,7,88,74,69,62,4,2,2,2,0.4,0.3
2022-04-25T23:00:00,2358A,117.0564,28.2642,鹰潭市,新监测站,,21,20,28,7,11,80,67,68,65,6,8,11,9,0.3,0.4
2022-04-25T23:00:00,2359A,117.0311,28.2475,鹰潭市,财苑宾馆,,19,19,27,2,7,73,50,60,54,7,5,4,5,0.3,0.3
2022-04-25T23:00:00,2360A,117.0222,28.2264,鹰潭市,体育馆,,20,20,32,7,9,76,60,65,58,6,4,1,2,0.5,0.5
2022-04-25T23:00:00,2361A,117.0017,28.2131,鹰潭市,三川水表,,,,35,12,9,84,61,66,58,7,6,6,5,0.3,0.4
2022-04-25T23:00:00,2362A,114.9017,25.9149,赣州市,通天岩(对照点),,50,50,33,32,17,71,53,61,48,15,15,6,9,0.7,0.7
2022-04-25T23:00:00,2363A,114.9367,25.8664,赣州市,地委,,45,45,31,22,15,64,63,64,49,12,15,5,10,0.6,0.6
2022-04-25T23:00:00,2364A,114.9461,25.8481,赣州市,气象台,,42,42,25,26,15,84,76,84,70,15,12,7,11,0.7,0.7
2022-04-25T23:00:00,2365A,114.9322,25.8333,赣州市,市图书馆,,34,34,25,22,17,71,66,71,49,15,17,4,9,0.8,0.8
2022-04-25T23:00:00,2366A,114.8905,25.8471,赣州市,华坚鞋城,,30,22,26,21,16,60,57,50,48,13,14,4,6,0.7,0.7
2022-04-25T23:00:00,2367A,114.9754,27.0803,吉安市,红声器材厂,,38,38,35,20,17,75,57,70,65,11,6,5,6,0.4,0.4
2022-04-25T23:00:00,2368A,114.9658,27.0999,吉安市,市森林工业局,,28,28,30,17,16,67,58,63,62,7,6,5,5,0.4,0.4
2022-04-25T23:00:00,2369A,114.99,27.1312,吉安市,市环境监测站,,40,40,32,15,13,69,54,65,62,10,7,8,6,0.4,0.3
2022-04-25T23:00:00,2370A,115.0093,27.0968,吉安市,青原区法院,,36,36,31,18,17,74,61,71,68,4,4,10,8,0.3,0.4
2022-04-25T23:00:00,2371A,114.3408,27.8064,宜春市,槟榔水业(对照点),,29,20,34,10,13,93,91,72,70,5,12,2,3,0.6,0.5
2022-04-25T23:00:00,2373A,114.3956,27.7844,宜春市,市石油公司,,30,20,26,13,16,94,94,67,62,2,7,3,4,0.5,0.6
2022-04-25T23:00:00,2374A,114.3703,27.7914,宜春市,市气象局,,31,18,30,12,16,97,97,70,69,7,14,4,6,0.6,0.6
2022-04-25T23:00:00,2375A,114.4013,27.8074,宜春市,市广电局,,29,28,32,9,21,90,90,70,64,6,12,1,4,0.8,0.7
2022-04-25T23:00:00,2376A,116.2127,28.0814,抚州市,桐源党溪(对照点),,33,18,28,14,14,105,105,76,71,2,3,5,6,0.6,0.6
2022-04-25T23:00:00,2377A,116.3544,27.9831,抚州市,市站,,29,28,34,16,16,92,92,70,65,7,8,5,6,0.7,0.7
2022-04-25T23:00:00,2378A,116.3565,27.963,抚州市,血防站,,34,34,33,16,14,95,95,69,63,7,8,5,5,0.5,0.6
2022-04-25T23:00:00,2379A,116.3564,28.0007,抚州市,采茶剧团,,30,25,32,17,15,93,93,71,68,6,8,6,6,0.6,0.6
2022-04-25T23:00:00,2380A,116.385,27.9647,抚州市,医学分院,,30,30,37,19,15,92,92,74,63,4,8,5,8,0.6,0.6
2022-04-25T23:00:00,2381A,118.005,28.4572,上饶市,百草园(对照点),,23,23,44,13,24,90,59,73,62,5,13,4,10,0.3,0.5
2022-04-25T23:00:00,2382A,117.9756,28.4436,上饶市,市监测站,,20,20,49,11,26,83,57,73,66,3,15,3,9,0.3,0.5
2022-04-25T23:00:00,2383A,117.9519,28.4628,上饶市,凤凰光学,,23,23,48,13,25,85,60,75,67,7,14,3,11,0.3,0.4
2022-04-25T23:00:00,2385A,114.17,35.9019,鹤壁市,市监测站,,,,147,32,61,155,110,138,128,18,30,8,13,0.3,1.1
2022-04-25T23:00:00,2386A,114.2956,35.7511,鹤壁市,市交警支队,颗粒物(PM10),60,69,103,40,63,147,85,127,115,18,23,8,11,0.9,1.1
2022-04-25T23:00:00,2387A,114.2878,35.7306,鹤壁市,迎宾馆,颗粒物(PM10),61,72,99,41,66,158,88,136,122,17,22,7,10,0.6,0.7
2022-04-25T23:00:00,2389A,113.836,35.311,新乡市,环保西院,颗粒物(PM10),58,66,105,31,64,159,79,140,123,28,38,6,7,0.7,0.9
2022-04-25T23:00:00,2390A,113.884,35.272,新乡市,开发区,颗粒物(PM10),61,71,82,22,43,149,81,133,116,31,28,4,5,0.6,0.7
2022-04-25T23:00:00,2391A,113.883,35.303,新乡市,环保东院,颗粒物(PM10),56,61,83,22,44,151,86,136,120,29,28,3,3,0.4,0.6
2022-04-25T23:00:00,2392A,115.0312,35.7636,濮阳市,环保局,细颗粒物(PM2.5),93,92,68,69,48,148,84,142,121,19,23,7,7,0.8,0.7
2022-04-25T23:00:00,2394A,115.0574,35.7609,濮阳市,油田运输公司,细颗粒物(PM2.5),90,82,71,67,48,167,84,160,135,22,22,10,10,0.8,0.6
2022-04-25T23:00:00,2395A,115.0866,35.7754,濮阳市,油田物探公司,细颗粒物(PM2.5),89,83,72,66,42,164,67,155,124,24,24,10,11,0.9,0.6
2022-04-25T23:00:00,2396A,113.8276,34.0159,许昌市,监测站,颗粒物(PM10),63,76,101,26,37,126,57,117,93,29,16,3,5,0.7,0.8
2022-04-25T23:00:00,2398A,113.7906,33.9953,许昌市,开发区,颗粒物(PM10),57,63,90,26,33,145,39,135,88,41,23,4,5,0.6,0.7
2022-04-25T23:00:00,2399A,114.051,33.5699,漯河市,三五一五工厂,,49,42,49,34,34,132,73,119,105,26,11,8,9,0.7,0.7
2022-04-25T23:00:00,2400A,114.0055,33.5698,漯河市,漯河大学,,39,36,45,27,30,121,77,112,101,18,8,9,9,0.5,0.6
2022-04-25T23:00:00,2401A,114.0138,33.5828,漯河市,市水利局,,46,41,41,32,29,120,77,111,101,14,6,5,5,0.7,0.7
2022-04-25T23:00:00,2402A,114.0261,33.5698,漯河市,市广电局,,40,39,45,28,30,127,82,117,107,15,6,4,3,0.6,0.7
2022-04-25T23:00:00,2403A,112.5192,32.9917,南阳市,环保局,,41,41,37,21,25,132,43,114,90,23,12,3,3,0.6,0.5
2022-04-25T23:00:00,2404A,112.5339,33.0086,南阳市,瓦房庄,,42,42,32,22,16,126,61,114,92,20,12,4,4,0.8,0.7
2022-04-25T23:00:00,2405A,112.5003,32.9735,南阳市,汉画馆,,41,41,35,23,24,140,53,119,97,16,6,8,7,0.8,0.8
2022-04-25T23:00:00,2406A,112.5779,33.0144,南阳市,气象站,,,42,40,23,22,124,57,114,86,30,13,,6,0.8,0.7
2022-04-25T23:00:00,2407A,112.548,32.9692,南阳市,理工学院,,,43,35,25,23,132,,127,114,22,6,15,6,0.8,0.8
2022-04-25T23:00:00,2408A,115.6702,34.4285,商丘市,环境监测站,颗粒物(PM10),72,93,81,38,31,103,56,97,82,15,14,5,7,0.7,0.8
2022-04-25T23:00:00,2409A,115.6458,34.4045,商丘市,粮食局,,,118,82,44,34,107,,103,88,22,19,10,7,0.7,0.8
2022-04-25T23:00:00,2410A,115.6293,34.3948,商丘市,睢阳区环保局,颗粒物(PM10),82,114,80,32,32,117,46,109,94,19,13,5,4,0.7,0.7
2022-04-25T23:00:00,2420A,114.0189,32.9656,驻马店市,市一纸厂,,38,29,35,26,28,113,61,104,89,16,9,9,10,0.5,0.5
2022-04-25T23:00:00,2421A,114.0114,33.015,驻马店市,市彩印厂,,25,25,30,14,24,116,75,108,95,12,9,3,4,0.4,0.3
2022-04-25T23:00:00,2422A,113.9976,32.9771,驻马店市,天方二分厂,,29,29,34,20,25,114,69,108,94,13,11,2,3,0.2,0.2
2022-04-25T23:00:00,2423A,115.0601,30.2313,黄石市,沈家营,,40,40,36,12,12,90,49,78,70,8,14,5,8,0.8,1
2022-04-25T23:00:00,2424A,115.0817,30.2006,黄石市,陈家湾,,50,50,36,10,13,96,47,84,68,7,10,5,5,0.7,0.7
2022-04-25T23:00:00,2426A,114.8988,30.2019,黄石市,铁山,,41,41,36,10,14,105,66,76,76,20,17,6,7,0.8,0.6
2022-04-25T23:00:00,2427A,115.0307,30.2092,黄石市,团城山,,39,39,32,10,11,104,55,93,75,15,13,4,6,0.7,0.7
2022-04-25T23:00:00,2428A,111.0419,32.395,十堰市,武当山(对照点),,25,12,10,14,9,106,80,93,86,6,6,6,6,0.4,0.5
2022-04-25T23:00:00,2429A,110.78,32.6494,十堰市,滨河新村,,45,45,32,27,20,92,27,84,49,15,14,9,8,0.7,0.8
2022-04-25T23:00:00,2430A,110.7258,32.6389,十堰市,刘家沟,,24,24,22,16,13,92,28,92,50,11,11,8,6,0.7,0.8
2022-04-25T23:00:00,2431A,110.8839,32.5714,十堰市,铁二处,,45,45,25,18,15,102,17,95,49,7,8,5,5,0.5,0.5
2022-04-25T23:00:00,2432A,112.155,32.0197,襄阳市,襄城运动路,,32,32,20,20,13,95,36,87,66,29,14,11,9,0.6,0.7
2022-04-25T23:00:00,2433A,112.1392,32.0564,襄阳市,樊城新华路,,30,25,25,21,20,104,56,92,78,12,7,5,5,0.6,0.7
2022-04-25T23:00:00,2434A,112.1825,32.1142,襄阳市,高新管委会,,38,38,25,24,19,92,45,84,67,22,11,4,3,0.8,0.8
