timepoint,stationcode,longitude,latitude,area,positionname,primarypollutant,aqi,pm10,pm10_24h,pm2_5,pm2_5_24h,o3,o3_24h,o3_8h,o3_8h_24h,no2,no2_24h,so2,so2_24h,co,co_24h
2025-12-17T0300,2566A,102.1879,31.914,阿坝藏族羌族自治州,州农科所,,,,,,,,,,,,,,,,
2025-12-17T0300,2568A,102.2502,31.8896,阿坝藏族羌族自治州,马师校,,19,,24,13,18,29,29,,,10,19,4,5,0.4,0.6
2025-12-17T0300,3994A,102.2165,31.9024,阿坝藏族羌族自治州,马尔康中学西区,,12,12,16,6,10,31,31,,,13,15,8,6,0.5,0.6
2025-12-17T0300,2695A,80.292,41.1694,阿克苏地区,电视台,细颗粒物(PM2.5),162,263,269,123,81,5,5,,,65,54,10,10,2.0,1.2
2025-12-17T0300,2696A,80.2613,41.1551,阿克苏地区,艺术中心,细颗粒物(PM2.5),182,289,245,137,86,10,10,,,94,55,5,4,2.3,1.1
2025-12-17T0300,2204A,105.6467,38.8363,阿拉善盟,西城区西花园,,,,,,,,,,,,,,,,
2025-12-17T0300,2205A,105.6985,38.8411,阿拉善盟,蒙二幼,,26,23,82,11,23,83,83,,,4,11,12,10,0.6,0.6
2025-12-17T0300,2206A,105.724,38.8516,阿拉善盟,环保局新楼,,25,24,73,10,19,80,80,,,4,6,12,9,0.6,0.6
2025-12-17T0300,2708A,88.1264,47.8517,阿勒泰地区,市站,,28,27,34,19,22,50,50,,,30,49,4,6,0.6,0.7
2025-12-17T0300,2630A,80.1161,32.5,阿里地区,阿里监测站,,12,6,3,3,3,38,38,,,15,11,9,10,0.5,0.5
2025-12-17T0300,3192A,80.0903,32.5028,阿里地区,阿里藏医院,,30,28,19,21,12,27,27,,,26,13,15,12,1.1,0.7
2025-12-17T0300,2642A,109.0318,32.6537,安康市,香溪洞,,,,,,,,,,,,,,,,
2025-12-17T0300,2644A,109.0072,32.6975,安康市,汉滨区检察院,,,54,66,40,37,4,4,,,21,28,,5,,0.9
2025-12-17T0300,4054A,109.0325,32.6913,安康市,市邮政管理局,,,63,74,42,43,7,7,,,22,33,,6,0.6,1
2025-12-17T0300,2291A,117.0809,30.5177,安庆市,环科院,细颗粒物(PM2.5),69,85,68,50,43,54,54,,,27,50,6,8,0.5,0.5
2025-12-17T0300,2292A,117.0331,30.5119,安庆市,马山宾馆,细颗粒物(PM2.5),69,80,69,50,45,61,61,,,26,46,5,7,0.5,0.5
2025-12-17T0300,2294A,116.9896,30.6145,安庆市,安庆大学,细颗粒物(PM2.5),83,84,73,61,44,81,81,,,7,30,4,9,0.5,0.6
2025-12-17T0300,3173A,117.0598,30.5351,安庆市,市人大,细颗粒物(PM2.5),70,85,75,51,48,54,54,,,28,46,7,9,0.5,0.6
2025-12-17T0300,3122A,105.9606,26.2611,安顺市,伍家关,,46,35,60,32,35,36,36,,,12,10,12,17,0.7,0.9
2025-12-17T0300,3123A,105.9408,26.2431,安顺市,凤凰山,,46,41,58,32,47,35,35,,,18,15,11,15,0.6,0.6
2025-12-17T0300,3124A,105.9439,26.2564,安顺市,金钟山,,45,41,54,31,41,33,33,,,16,12,13,16,0.7,0.7
2025-12-17T0300,3125A,105.8983,26.2481,安顺市,娄家坡,,46,39,61,32,45,38,38,,,12,15,14,20,0.7,0.8
2025-12-17T0300,1818A,114.4839,36.0621,安阳市,棉研所,,,,,,,,,,,,,,,,
2025-12-17T0300,1819A,114.3551,36.1017,安阳市,红庙街,细颗粒物(PM2.5),142,138,156,108,122,0,0,,,54,44,6,7,1.8,1.1
2025-12-17T0300,1820A,114.361,36.0681,安阳市,银杏小区,细颗粒物(PM2.5),150,134,163,115,133,2,2,,,46,41,4,6,1.4,1
2025-12-17T0300,3141A,114.3922,36.0878,安阳市,信访局,细颗粒物(PM2.5),140,136,167,107,132,15,15,,,46,41,9,6,1.4,0.9
2025-12-17T0300,3669A,114.4705,36.0637,安阳市,左辅环卫站,细颗粒物(PM2.5),145,151,191,111,140,32,32,,,35,37,4,4,0.9,0.9
2025-12-17T0300,3703A,114.2917,36.0949,安阳市,安钢职工学校,细颗粒物(PM2.5),148,140,172,113,135,3,3,,,44,48,4,8,1.6,1.2
2025-12-17T0300,1748A,123.044,41.1196,鞍山市,深沟寺,"颗粒物(PM10),细颗粒物(PM2.5)",59,67,88,42,60,19,19,,,35,35,10,11,0.9,1.1
2025-12-17T0300,1749A,123.011,41.0931,鞍山市,太阳城,细颗粒物(PM2.5),64,70,89,46,62,11,11,,,37,36,12,19,0.9,1.2
2025-12-17T0300,1750A,123.0485,41.1442,鞍山市,太平,"颗粒物(PM10),细颗粒物(PM2.5)",62,74,101,44,62,16,16,,,37,35,15,13,0.8,1
2025-12-17T0300,1751A,122.9642,41.0971,鞍山市,铁西三道街,"颗粒物(PM10),细颗粒物(PM2.5)",67,84,106,48,69,15,15,,,44,44,24,27,1.4,2.6
2025-12-17T0300,1753A,123.022,41.0821,鞍山市,明达新区,细颗粒物(PM2.5),59,64,86,42,62,17,17,,,31,29,16,17,0.4,0.8
2025-12-17T0300,1754A,123.1289,41.0228,鞍山市,千山,,,,71,,61,,,25,,,33,,8,,0.9
2025-12-17T0300,4201A,122.9446,41.0826,鞍山市,兴盛南路290号,细颗粒物(PM2.5),72,78,98,52,70,9,9,,,48,44,29,25,1.6,1.6
2025-12-17T0300,2195A,107.4212,40.761,巴彦淖尔市,附二中,颗粒物(PM10),53,56,100,18,49,7,7,,,42,34,5,9,0.6,0.9
2025-12-17T0300,2196A,107.37,40.7372,巴彦淖尔市,市环保大楼,颗粒物(PM10),51,51,86,16,38,24,24,,,28,28,4,5,0.4,0.7
2025-12-17T0300,1956A,86.1472,41.7538,巴音郭楞蒙古自治州,孔雀公园,颗粒物(PM10),500,752,313,71,55,2,2,,,99,54,12,11,1.0,0.9
2025-12-17T0300,1957A,86.1972,41.7166,巴音郭楞蒙古自治州,棉纺厂,颗粒物(PM10),114,177,205,40,39,0,0,,,78,48,7,8,1.2,1
2025-12-17T0300,1958A,86.2357,41.7173,巴音郭楞蒙古自治州,经济开发区,颗粒物(PM10),98,145,155,25,31,20,20,,,29,32,7,8,0.6,0.7
2025-12-17T0300,2914A,106.7677,31.8794,巴中市,苏山坪,,,,,,,,,,,,,,,,
2025-12-17T0300,3181A,106.7768,31.8526,巴中市,市五中,细颗粒物(PM2.5),78,84,89,57,58,3,3,,,19,24,5,5,1.0,1.1
2025-12-17T0300,3183A,106.7418,31.8654,巴中市,圣泉水务公司,细颗粒物(PM2.5),75,76,82,55,59,0,0,,,22,28,4,5,0.9,1
2025-12-17T0300,3616A,106.7616,31.8344,巴中市,市中心医院,细颗粒物(PM2.5),82,101,84,60,62,1,1,,,18,23,5,6,1.3,1.2
2025-12-17T0300,2235A,122.7911,45.6077,白城市,洮北区环保局,,39,39,42,24,30,29,29,,,18,27,7,7,0.2,0.3
2025-12-17T0300,2236A,122.8738,45.5725,白城市,市环保局,,35,34,34,24,25,21,21,,,18,19,5,6,0.3,0.3
2025-12-17T0300,2231A,126.4219,41.9171,白山市,喜丰,颗粒物(PM10),57,63,71,27,37,36,36,,,25,31,9,17,0.5,0.7
2025-12-17T0300,2232A,126.4077,41.9419,白山市,环保局,,34,34,50,22,41,32,32,,,18,26,10,12,0.6,1
2025-12-17T0300,2647A,104.1724,36.5446,白银市,第三小学,颗粒物(PM10),53,55,62,29,30,26,26,,,38,39,34,32,1.0,0.9
2025-12-17T0300,2648A,104.1465,36.5482,白银市,动力公司,,36,35,55,25,30,50,50,,,18,28,7,17,1.3,1
2025-12-17T0300,2512A,106.6103,23.9011,百色市,市监测站,颗粒物(PM10),54,57,70,36,41,13,13,,,26,28,8,15,0.9,1
2025-12-17T0300,2513A,106.6538,23.8859,百色市,市中心血站,细颗粒物(PM2.5),77,84,79,56,53,20,20,,,30,38,8,17,1.0,1
2025-12-17T0300,3406A,106.6085,23.8798,百色市,祈福高中,细颗粒物(PM2.5),88,95,94,65,49,1,1,,,41,44,7,11,1.0,0.9
2025-12-17T0300,2270A,117.396,32.939,蚌埠市,工人疗养院,细颗粒物(PM2.5),168,184,123,127,69,6,6,,,63,51,6,7,0.8,0.7
2025-12-17T0300,2271A,117.3605,32.9427,蚌埠市,百货大楼,细颗粒物(PM2.5),159,169,116,121,70,1,1,,,68,54,5,7,1.0,0.8
2025-12-17T0300,2273A,117.4185,32.8911,蚌埠市,蚌埠学院,细颗粒物(PM2.5),159,161,103,121,64,10,10,,,60,41,5,7,0.9,0.6
2025-12-17T0300,2274A,117.3533,32.9673,蚌埠市,淮上区政府,细颗粒物(PM2.5),175,180,122,132,77,1,1,,,68,50,10,11,0.9,0.6
2025-12-17T0300,2275A,117.3145,32.8977,蚌埠市,高新区,细颗粒物(PM2.5),175,178,115,132,72,3,3,,,65,47,7,8,0.9,0.6
2025-12-17T0300,3715A,117.3092,32.9314,蚌埠市,蚌埠田家炳中学,细颗粒物(PM2.5),188,192,129,141,76,1,1,,,65,52,6,11,0.9,0.6
2025-12-17T0300,1585A,109.8756,40.6532,包头市,市环境监测站,,43,43,53,15,23,52,52,,,20,24,10,12,1.0,0.9
2025-12-17T0300,1587A,109.9991,40.5842,包头市,包头八中,细颗粒物(PM2.5),74,71,96,54,60,5,5,,,66,46,6,14,0.9,1
2025-12-17T0300,1588A,109.8538,40.6821,包头市,青山宾馆,,45,35,47,31,32,44,44,,,26,27,7,10,0.7,0.8
2025-12-17T0300,1589A,109.8642,40.6288,包头市,惠龙物流,细颗粒物(PM2.5),52,52,64,36,33,29,29,,,39,32,9,13,1.3,1.2
2025-12-17T0300,1590A,110.0377,40.5546,包头市,东河鸿龙湾,颗粒物(PM10),56,61,82,27,46,9,9,,,68,51,6,11,0.8,1
2025-12-17T0300,3283A,109.9154,40.5685,包头市,滨河大厦,颗粒物(PM10),64,78,91,40,54,5,5,,,55,40,9,16,1.0,1
2025-12-17T0300,3419A,109.9447,40.6261,包头市,包头市委党校,,40,40,62,28,32,6,6,,,64,35,7,11,0.8,0.6
2025-12-17T0300,3683A,109.8331,40.6576,包头市,昆区政府,,42,42,59,27,34,54,54,,,24,29,9,12,0.9,1
2025-12-17T0300,1930A,107.185,34.3063,宝鸡市,庙沟村,,,,,,,,,,,,,,,,
2025-12-17T0300,1931A,107.0708,34.3017,宝鸡市,竹园沟,,26,26,46,17,34,24,24,,,1,7,6,6,0.1,0.2
2025-12-17T0300,1932A,107.1906,34.3672,宝鸡市,三陆医院,,42,42,87,22,46,20,20,,,30,41,4,6,0.5,0.7
2025-12-17T0300,1933A,107.1431,34.3547,宝鸡市,监测站,,33,32,67,23,43,18,18,,,23,29,4,5,0.4,0.6
2025-12-17T0300,1934A,107.1186,34.3739,宝鸡市,技工学校,细颗粒物(PM2.5),53,40,76,37,48,30,30,,,12,23,8,5,0.7,0.8
2025-12-17T0300,1936A,107.2058,34.3497,宝鸡市,文理学院,颗粒物(PM10),52,53,74,28,44,25,25,,,26,35,4,5,0.4,0.6
2025-12-17T0300,1937A,107.2386,34.3622,宝鸡市,三迪小学,,47,47,89,31,59,14,14,,,31,43,4,5,0.7,0.9
2025-12-17T0300,4308A,107.3898,34.3601,宝鸡市,陈仓区北开路21号,颗粒物(PM10),65,79,104,43,67,22,22,,,30,39,29,48,0.4,0.6
2025-12-17T0300,1051A,115.493,38.8632,保定市,游泳馆,细颗粒物(PM2.5),119,111,97,90,73,1,1,,,63,56,3,6,0.6,0.6
2025-12-17T0300,1052A,115.5213,38.8959,保定市,华电二区,细颗粒物(PM2.5),122,,93,92,77,5,5,,,44,46,2,5,0.7,0.8
2025-12-17T0300,1053A,115.4713,38.9108,保定市,接待中心,细颗粒物(PM2.5),115,122,101,87,73,1,1,,,62,55,1,3,1.2,0.9
2025-12-17T0300,1054A,115.4612,38.8416,保定市,地表水厂,细颗粒物(PM2.5),135,132,106,103,71,4,4,,,65,55,6,6,0.9,0.7
2025-12-17T0300,3581A,115.31981,38.95208,保定市,满城区生态环境分局,细颗粒物(PM2.5),113,124,105,85,62,2,2,,,66,59,6,7,1.5,0.9
2025-12-17T0300,3582A,115.47694,38.76408,保定市,清苑区第二中学,细颗粒物(PM2.5),132,146,127,100,72,2,2,,,64,56,4,7,1.2,0.9
2025-12-17T0300,3583A,115.62909,39.02311,保定市,徐水物探局,细颗粒物(PM2.5),123,136,119,93,71,0,0,,,66,54,13,9,1.1,1
2025-12-17T0300,4004A,115.4202,38.8656,保定市,双鹰农机,细颗粒物(PM2.5),129,138,122,98,66,9,9,,,65,50,5,6,0.9,0.8
2025-12-17T0300,4034A,115.5150,38.8590,保定市,植保所站,细颗粒物(PM2.5),118,119,115,89,77,4,4,,,63,59,3,5,1.0,1
2025-12-17T0300,2594A,99.1678,25.1081,保山市,市环境监测站,,26,20,20,18,15,32,32,,,9,9,9,7,0.3,0.4
2025-12-17T0300,2595A,99.1711,25.1328,保山市,市环保局,细颗粒物(PM2.5),53,,20,37,18,45,45,,,5,5,4,4,0.5,0.5
2025-12-17T0300,1866A,109.2262,21.588,北海市,牛尾岭水库,,,,,,,,,,,,,,,,
2025-12-17T0300,1867A,109.1436,21.4086,北海市,海滩公园,,46,46,45,29,25,83,83,,,17,15,8,10,1.0,0.8
2025-12-17T0300,1868A,109.0981,21.4661,北海市,新市环保局,细颗粒物(PM2.5),55,52,45,39,30,42,42,,,21,19,13,13,0.6,0.6
2025-12-17T0300,1869A,109.1778,21.5233,北海市,北海工业园,颗粒物(PM10),52,53,53,34,30,71,71,,,19,19,10,11,0.6,0.6
2025-12-17T0300,3400A,109.1911,21.4415,北海市,龙潭自来水厂,,49,43,43,34,30,66,66,,,13,14,6,8,0.8,0.8
2025-12-17T0300,1001A,116.3621,39.8784,北京市,万寿西宫,细颗粒物(PM2.5),98,127,74,73,40,1,1,,,73,47,5,5,1.3,1
2025-12-17T0300,1002A,116.2202,40.2915,北京市,定陵,,,,,,,,,,,,,,,,
2025-12-17T0300,1003A,116.4174,39.9289,北京市,东四,细颗粒物(PM2.5),104,120,67,78,38,4,4,,,61,39,6,6,1.2,0.8
2025-12-17T0300,1004A,116.4072,39.8863,北京市,天坛,细颗粒物(PM2.5),105,107,63,79,38,2,2,,,59,40,1,1,1.1,0.8
2025-12-17T0300,1005A,116.462,39.9365,北京市,农展馆,细颗粒物(PM2.5),84,100,63,62,35,4,4,,,64,36,5,5,1.8,1.2
2025-12-17T0300,1006A,116.3392,39.9295,北京市,官园,细颗粒物(PM2.5),93,112,62,69,33,0,0,,,69,45,6,4,1.2,0.8
2025-12-17T0300,1007A,116.2878,39.9611,北京市,海淀万柳,,,,49,,28,,,11,,,48,,3,,0.5
2025-12-17T0300,1008A,116.6636,40.135,北京市,顺义新城,细颗粒物(PM2.5),78,98,65,57,34,0,0,,,52,29,3,5,1.0,0.7
2025-12-17T0300,1009A,116.6275,40.3275,北京市,怀柔镇,,,,36,,19,,,42,,,20,,5,,0.6
2025-12-17T0300,1010A,116.2296,40.217,北京市,昌平镇,,39,39,49,24,28,4,4,,,38,38,4,5,0.7,0.7
2025-12-17T0300,1011A,116.3966,39.9821,北京市,奥体中心,颗粒物(PM10),54,58,54,30,27,2,2,,,73,47,5,4,1.1,1
2025-12-17T0300,3281A,115.9718,40.4529,北京市,延庆夏都,,46,46,65,28,38,4,4,,,35,39,1,2,1.1,1.1
2025-12-17T0300,3418A,116.8336,40.4095,北京市,密云新城,,41,41,42,23,22,24,24,,,25,14,2,2,0.5,0.5
2025-12-17T0300,3671A,116.088,39.9726,北京市,门头沟三家店,,50,50,59,24,29,1,1,,,36,38,4,4,0.6,0.7
2025-12-17T0300,3672A,116.1541,39.8204,北京市,丰台云岗,颗粒物(PM10),66,81,62,35,28,1,1,,,63,51,5,5,0.8,0.6
2025-12-17T0300,3673A,116.6804,39.9081,北京市,通州东关,,,,69,,38,,,38,,,36,,4,,0.7
2025-12-17T0300,3674A,115.9577,39.7603,北京市,房山燕山,,,,50,,28,,,26,,,31,,3,,0.6
2025-12-17T0300,3675A,116.4672,39.7733,北京市,大兴旧宫,"颗粒物(PM10),细颗粒物(PM2.5)",84,118,78,62,39,2,2,,,52,47,4,6,1.4,1
2025-12-17T0300,3694A,115.986,40.4563,北京市,延庆石河营,,50,50,67,35,44,8,8,,,24,35,3,2,1.3,1.1
2025-12-17T0300,3695A,116.6151,40.3053,北京市,怀柔新城,,38,38,34,26,19,25,25,,,14,15,3,3,0.6,0.5
2025-12-17T0300,3696A,116.2545,39.8768,北京市,丰台小屯,颗粒物(PM10),62,73,63,33,27,1,1,,,61,56,4,4,0.8,0.7
2025-12-17T0300,3697A,116.84,40.3844,北京市,密云镇,颗粒物(PM10),57,64,48,38,24,2,2,,,46,29,2,2,0.8,0.6
2025-12-17T0300,4182A,116.1942,39.9158,北京市,八角北路9号,,47,47,54,23,25,2,2,,,51,52,3,2,0.4,0.5
2025-12-17T0300,4194A,117.0790,40.1518,北京市,洳河巡河路,细颗粒物(PM2.5),85,94,91,63,59,3,3,,,33,35,3,3,1.1,1
2025-12-17T0300,1761A,123.8275,41.3064,本溪市,大峪,颗粒物(PM10),65,80,72,40,59,15,15,,,33,32,8,10,1.1,1.2
2025-12-17T0300,1762A,123.7567,41.3325,本溪市,溪湖,颗粒物(PM10),74,97,98,47,63,5,5,,,49,42,7,10,1.1,1.4
2025-12-17T0300,1763A,123.7169,41.3094,本溪市,彩屯,颗粒物(PM10),59,67,94,41,65,11,11,,,51,38,6,9,1.1,1.3
2025-12-17T0300,1764A,123.7669,41.2864,本溪市,东明,颗粒物(PM10),60,69,87,40,59,17,17,,,32,33,6,9,0.9,1.4
2025-12-17T0300,1765A,123.7992,41.2664,本溪市,新立屯,颗粒物(PM10),51,52,78,34,54,9,9,,,30,35,5,8,0.9,1.1
2025-12-17T0300,1766A,123.8142,41.3472,本溪市,威宁,颗粒物(PM10),71,91,108,48,64,6,6,,,34,37,6,8,1.1,1.3
2025-12-17T0300,2587A,105.2864,27.3125,毕节市,八中,,32,31,41,22,31,48,48,,,7,7,8,8,0.6,0.7
2025-12-17T0300,2588A,105.31,27.2944,毕节市,师专,,29,27,38,20,29,56,56,,,7,10,8,8,0.6,0.7
2025-12-17T0300,4263A,105.3688,27.3598,毕节市,工业大道,,30,27,36,21,29,47,47,,,9,7,9,10,0.7,0.9
2025-12-17T0300,1629A,118.0018,37.3617,滨州市,第二水厂,,48,48,131,24,80,37,37,,,24,43,7,10,0.4,1.1
2025-12-17T0300,1630A,117.9776,37.393,滨州市,北中新校,细颗粒物(PM2.5),62,61,127,44,83,13,13,,,43,49,5,8,0.3,0.8
2025-12-17T0300,3514A,117.9378,37.3956,滨州市,中海酒店,细颗粒物(PM2.5),79,63,126,58,90,10,10,,,47,44,6,10,1.9,1.1
2025-12-17T0300,3515A,117.9378,37.3553,滨州市,开发区一中,颗粒物(PM10),53,56,130,36,86,25,25,,,24,40,9,12,0.5,1.1
2025-12-17T0300,3516A,118.0917,37.694,滨州市,金海六路,颗粒物(PM10),51,51,117,34,70,4,4,,,55,45,5,10,0.4,0.8
2025-12-17T0300,4028A,117.9956,37.3753,滨州市,滨州市西街道办事处,细颗粒物(PM2.5),52,44,127,36,88,31,31,,,29,40,7,10,0.3,0.9
2025-12-17T0300,2311A,115.8072,33.8399,亳州市,污水处理厂,细颗粒物(PM2.5),215,200,136,165,99,11,11,,,52,48,6,9,0.9,0.6
2025-12-17T0300,2312A,115.7789,33.8518,亳州市,三国揽胜宫,细颗粒物(PM2.5),200,237,153,150,92,7,7,,,53,38,5,5,1.0,0.7
2025-12-17T0300,3332A,115.7633,33.8034,亳州市,亳州学院,细颗粒物(PM2.5),209,217,140,159,94,9,9,,,47,40,4,5,1.0,0.7
2025-12-17T0300,2693A,82.0485,44.8556,博尔塔拉蒙古自治州,市党校,颗粒物(PM10),80,110,81,41,28,24,24,,,28,23,9,8,0.9,0.7
2025-12-17T0300,2694A,82.0806,44.8969,博尔塔拉蒙古自治州,市环保局,颗粒物(PM10),63,76,82,35,31,40,40,,,11,20,8,11,0.7,0.7
2025-12-17T0300,1071A,116.8842,38.2991,沧州市,沧县城建局,,,68,123,55,93,,,,,59,50,4,6,1.1,1.3
2025-12-17T0300,1072A,116.8584,38.3254,沧州市,电视转播站,细颗粒物(PM2.5),64,69,127,46,93,0,0,,,60,55,2,4,0.9,1.2
2025-12-17T0300,1073A,116.8709,38.3228,沧州市,市环保局,细颗粒物(PM2.5),75,69,130,55,99,4,4,,,47,44,2,4,0.8,1.1
2025-12-17T0300,3324A,116.8136,38.3004,沧州市,河北水利电力学院,细颗粒物(PM2.5),64,70,129,46,79,12,12,,,43,47,6,10,0.7,1
2025-12-17T0300,2622A,97.1806,31.1273,昌都市,昌都监测站,颗粒物(PM10),52,54,55,3,30,28,28,,,13,28,4,5,0.7,1.4
2025-12-17T0300,3719A,97.1714,31.1406,昌都市,昌都会议中心,,15,15,20,9,14,36,36,,,4,12,2,2,0.3,0.4
2025-12-17T0300,2690A,88.1236,43.8886,昌吉回族自治州,天山天池,,,,,,,,,,,,,,,,
2025-12-17T0300,2692A,87.2717,44.0297,昌吉回族自治州,新区政务中心,细颗粒物(PM2.5),128,132,138,97,88,3,3,,,63,60,5,6,1.3,1.5
2025-12-17T0300,3613A,87.3095,44.0142,昌吉回族自治州,亚心广场,细颗粒物(PM2.5),104,124,163,78,101,22,22,,,41,54,8,8,1.0,1.4
2025-12-17T0300,1120A,125.2863,43.9027,长春市,客车厂,细颗粒物(PM2.5),68,49,46,49,42,13,13,,,49,34,10,11,0.7,0.6
2025-12-17T0300,1121A,125.2841,43.8463,长春市,邮电学院,细颗粒物(PM2.5),63,48,52,45,40,16,16,,,22,21,7,14,0.5,0.5
2025-12-17T0300,1122A,125.3716,43.8772,长春市,劳动公园,"颗粒物(PM10),细颗粒物(PM2.5)",59,67,66,42,41,12,12,,,41,32,9,11,0.4,0.6
2025-12-17T0300,1123A,125.3297,43.8805,长春市,园林处,细颗粒物(PM2.5),58,49,46,41,38,13,13,,,39,26,8,8,0.6,0.5
2025-12-17T0300,1124A,125.4605,43.79,长春市,净月潭,,46,42,48,32,35,26,26,,,14,18,5,7,0.4,0.4
2025-12-17T0300,1125A,125.7194,43.515,长春市,甩湾子,细颗粒物(PM2.5),125,108,62,95,56,6,6,,,23,15,4,6,1.2,0.7
2025-12-17T0300,1126A,125.3863,43.8447,长春市,经开区环卫处,颗粒物(PM10),56,61,50,35,35,8,8,,,43,32,6,8,0.6,0.6
2025-12-17T0300,1127A,125.245,43.7783,长春市,高新区管委会,细颗粒物(PM2.5),77,66,55,56,40,7,7,,,45,38,5,8,0.5,0.4
2025-12-17T0300,1128A,125.1761,43.8325,长春市,岱山公园,颗粒物(PM10),84,118,64,60,47,4,4,,,55,43,10,12,0.9,0.7
2025-12-17T0300,4281A,125.3346,43.9164,长春市,北亚泰大街1068号,细颗粒物(PM2.5),80,70,52,59,44,5,5,,,46,28,10,10,1.0,0.7
2025-12-17T0300,1335A,113.0833,28.2325,长沙市,经开区环保局,细颗粒物(PM2.5),84,82,76,62,48,21,21,,,43,47,6,8,0.7,0.7
2025-12-17T0300,1336A,112.8872,28.2189,长沙市,高开区环保局,细颗粒物(PM2.5),102,85,70,76,51,36,36,,,18,35,7,9,1.0,1.1
2025-12-17T0300,1337A,113.0792,28.2053,长沙市,马坡岭,细颗粒物(PM2.5),82,90,76,60,47,15,15,,,40,43,6,8,0.7,0.8
2025-12-17T0300,1338A,112.9394,28.19,长沙市,湖南师范大学,细颗粒物(PM2.5),79,75,70,58,42,40,40,,,26,37,6,6,0.7,0.7
2025-12-17T0300,1339A,113.0178,28.1322,长沙市,雨花区环保局,细颗粒物(PM2.5),72,81,75,52,41,40,40,,,21,39,10,11,0.7,0.8
2025-12-17T0300,1340A,112.9792,28.2597,长沙市,伍家岭,细颗粒物(PM2.5),79,94,87,58,47,34,34,,,23,42,8,8,0.7,0.9
2025-12-17T0300,1341A,113.0014,28.1944,长沙市,火车新站,细颗粒物(PM2.5),70,86,85,51,48,40,40,,,33,54,10,11,0.6,0.7
2025-12-17T0300,1342A,112.9844,28.1178,长沙市,天心区环保局,细颗粒物(PM2.5),70,77,69,51,42,47,47,,,27,40,8,9,0.4,0.5
2025-12-17T0300,1343A,112.8908,28.1308,长沙市,湖南中医药大学,细颗粒物(PM2.5),95,93,71,71,44,42,42,,,20,42,8,9,0.7,0.7
2025-12-17T0300,1344A,112.9581,28.3611,长沙市,沙坪,,,,,,,,,,,,,,,,
2025-12-17T0300,1727A,113.1147,36.1547,长治市,清华站,细颗粒物(PM2.5),89,111,90,66,68,8,8,,,54,66,14,19,1.4,1.3
2025-12-17T0300,1730A,113.0886,36.2125,长治市,审计局,细颗粒物(PM2.5),110,94,93,83,78,2,2,,,69,65,13,23,1.7,1.4
2025-12-17T0300,1731A,113.0844,36.1856,长治市,长治八中,细颗粒物(PM2.5),119,118,116,90,87,2,2,,,61,59,13,20,1.9,1.6
2025-12-17T0300,2845A,113.1569,36.1911,长治市,德盛苑,细颗粒物(PM2.5),92,100,82,68,65,19,19,,,48,45,25,19,1.7,1.4
2025-12-17T0300,3568A,113.06,36.0464,长治市,向阳小学,细颗粒物(PM2.5),99,108,119,74,80,26,26,,,40,51,14,30,1.6,1.4
2025-12-17T0300,3569A,112.8792,36.3144,长治市,屯留一中,细颗粒物(PM2.5),90,94,85,67,61,22,22,,,44,49,18,26,1.3,1.5
2025-12-17T0300,4189A,113.1131,36.19948,长治市,英华南巷50号,细颗粒物(PM2.5),98,112,102,73,68,0,0,,,56,58,11,17,1.7,1.5
2025-12-17T0300,4190A,113.2367,36.3344,长治市,学府街1号,细颗粒物(PM2.5),94,93,109,70,87,14,14,,,63,63,29,39,2.1,2.6
2025-12-17T0300,1854A,111.6975,28.9703,常德市,市二中,细颗粒物(PM2.5),117,129,80,88,56,20,20,,,35,27,6,6,0.8,0.7
2025-12-17T0300,1857A,111.7158,29.1456,常德市,白鹤山,,,,,,,,,,,,,,,,
2025-12-17T0300,3138A,111.7153,29.0289,常德市,武陵区永安,细颗粒物(PM2.5),118,123,86,89,56,25,25,,,35,34,4,5,0.9,0.8
2025-12-17T0300,3139A,111.6892,28.9881,常德市,鼎城区玉霞,细颗粒物(PM2.5),112,113,78,84,56,1,1,,,39,32,7,8,0.9,0.8
2025-12-17T0300,3140A,111.6625,29.0531,常德市,武陵区长庚,细颗粒物(PM2.5),139,133,95,106,69,18,18,,,30,30,4,5,0.8,0.7
2025-12-17T0300,1196A,119.9633,31.762,常州市,市监测站,细颗粒物(PM2.5),127,147,121,96,77,0,0,,,104,77,10,11,1.6,1.4
2025-12-17T0300,1200A,119.9468,31.7069,常州市,武进监测站,细颗粒物(PM2.5),150,185,119,115,72,1,1,,,90,64,15,14,1.3,0.9
2025-12-17T0300,1201A,119.9255,31.9087,常州市,安家,细颗粒物(PM2.5),115,143,121,87,72,1,1,,,100,81,17,16,1.2,1
2025-12-17T0300,3002A,119.9805,31.8174,常州市,行政中心,细颗粒物(PM2.5),110,146,113,83,67,2,2,,,102,71,14,13,1.3,1.1
2025-12-17T0300,3003A,120.0522,31.7748,常州市,经开区,细颗粒物(PM2.5),118,169,131,89,66,1,1,,,108,73,26,22,1.2,1
2025-12-17T0300,3010A,119.9025,31.7964,常州市,钟楼,细颗粒物(PM2.5),112,125,115,84,71,3,3,,,94,71,13,12,1.1,1
2025-12-17T0300,3429A,119.8598,31.7066,常州市,武进经发区,细颗粒物(PM2.5),124,137,111,94,77,3,3,,,107,70,13,14,1.5,1.2
2025-12-17T0300,3430A,119.5826,31.7245,常州市,金坛城区,细颗粒物(PM2.5),105,115,102,79,68,2,2,,,88,52,11,11,1.2,0.9
2025-12-17T0300,2220A,120.4318,41.5881,朝阳市,西梁,颗粒物(PM10),82,114,76,51,43,4,4,,,41,32,12,18,1.2,0.9
2025-12-17T0300,2221A,120.4521,41.5646,朝阳市,河畔小区,细颗粒物(PM2.5),55,51,47,39,33,10,10,,,29,24,8,12,0.8,0.7
2025-12-17T0300,2222A,120.4176,41.5648,朝阳市,八里堡,细颗粒物(PM2.5),59,54,66,42,39,3,3,,,41,33,9,14,1.0,1
2025-12-17T0300,2223A,120.3806,41.5969,朝阳市,农业园区,细颗粒物(PM2.5),63,66,59,45,40,9,9,,,40,31,7,12,1.0,0.9
2025-12-17T0300,1705A,116.6367,23.6719,潮州市,西园路,,,,,,,,,,,,,,,,
2025-12-17T0300,3026A,116.6183,23.6608,潮州市,市政府,,,71,63,32,34,55,55,,,,19,6,7,0.5,0.5
2025-12-17T0300,4036A,116.6461,23.6761,潮州市,金山,,50,44,54,35,37,38,38,,,14,14,2,4,0.6,0.6
2025-12-17T0300,2472A,113.0073,25.9061,郴州市,马头岭,,,,,,,,,,,,,,,,
2025-12-17T0300,2473A,113.0116,25.8226,郴州市,市职中,,45,44,42,31,26,0,0,,,26,22,3,5,0.7,0.7
2025-12-17T0300,2475A,113.0383,25.8071,郴州市,市审计局,,45,43,42,31,26,0,0,,,36,31,1,4,0.9,0.9
2025-12-17T0300,2476A,113.0348,25.7759,郴州市,市环保局,颗粒物(PM10),55,60,49,34,24,0,0,,,36,29,2,4,0.6,0.6
2025-12-17T0300,4252A,113.0138,25.8011,郴州市,好美居路49号,"颗粒物(PM10),细颗粒物(PM2.5)",57,63,41,40,26,1,1,,,35,26,2,3,0.8,0.7
2025-12-17T0300,1431A,103.9728,30.7236,成都市,金泉两河,细颗粒物(PM2.5),110,129,151,83,95,1,1,,,67,58,3,5,1.7,1.2
2025-12-17T0300,1432A,104.176,30.6872,成都市,十里店,细颗粒物(PM2.5),134,141,143,102,91,9,9,,,72,63,4,6,1.0,0.9
2025-12-17T0300,1433A,104.079,30.5706,成都市,三瓦窑,细颗粒物(PM2.5),138,148,156,105,90,1,1,,,69,73,4,5,1.0,1.1
2025-12-17T0300,1434A,104.1114,30.63,成都市,沙河铺,细颗粒物(PM2.5),149,159,148,114,110,9,9,,,54,76,,5,0.7,0.8
2025-12-17T0300,1437A,104.0786,30.6531,成都市,君平街,细颗粒物(PM2.5),149,163,171,114,113,18,18,,,58,65,4,8,1.1,1.1
2025-12-17T0300,1438A,103.613,31.0283,成都市,灵岩寺,,,,,,,,,,,,,,,,
2025-12-17T0300,2880A,104.0239,30.65639,成都市,大石西路,细颗粒物(PM2.5),134,138,154,102,102,5,5,,,66,67,6,7,1.1,1
2025-12-17T0300,3136A,104.2725,30.5589,成都市,龙泉驿区区政府,细颗粒物(PM2.5),100,107,121,75,75,33,33,,,14,30,6,7,0.7,0.8
2025-12-17T0300,3357A,104.0106,30.6931,成都市,金博路,细颗粒物(PM2.5),123,117,145,93,92,0,0,,,81,65,5,8,0.8,0.9
2025-12-17T0300,3359A,104.0578,30.5225,成都市,华阳,,,,144,,84,,,9,,,60,,4,,1.1
2025-12-17T0300,3488A,104.3880,30.7467,成都市,青石路225号,细颗粒物(PM2.5),114,124,126,86,84,37,37,,,34,48,4,6,0.6,0.7
2025-12-17T0300,3489A,104.0789,30.4072,成都市,科学城,细颗粒物(PM2.5),98,116,121,73,79,18,18,,,36,41,6,6,0.8,0.8
2025-12-17T0300,4011A,103.8506,30.6947,成都市,光华大道三段,细颗粒物(PM2.5),125,148,144,95,103,27,27,,,46,52,3,3,0.9,1
2025-12-17T0300,4224A,104.2433,30.5353,成都市,鲸龙路1057号,细颗粒物(PM2.5),120,128,133,91,87,18,18,,,46,47,7,7,0.7,0.8
2025-12-17T0300,1062A,117.9531,40.9081,承德市,铁路,颗粒物(PM10),58,66,82,38,47,7,7,,,32,39,3,4,0.9,1
2025-12-17T0300,1063A,117.9392,40.9763,承德市,中国银行,细颗粒物(PM2.5),68,73,75,49,43,2,2,,,35,31,2,2,0.9,0.8
2025-12-17T0300,1064A,117.9503,40.928,承德市,开发区,颗粒物(PM10),61,71,77,41,44,5,5,,,41,37,4,5,0.9,0.8
2025-12-17T0300,1066A,117.9268,41.0026,承德市,离宫,,,,,,,,,,,,,,,,
2025-12-17T0300,4274A,117.7994,40.9605,承德市,滨河大街98号,细颗粒物(PM2.5),59,63,64,42,42,4,4,,,43,35,3,4,1.2,1
2025-12-17T0300,2314A,117.47,30.6618,池州市,池州学院,细颗粒物(PM2.5),80,86,69,59,46,33,33,,,46,38,5,8,0.5,0.6
2025-12-17T0300,3237A,117.4918,30.6617,池州市,展览馆,细颗粒物(PM2.5),60,67,64,43,37,0,0,,,50,41,2,5,0.6,0.8
2025-12-17T0300,3333A,117.5627,30.695,池州市,第八中学,细颗粒物(PM2.5),74,87,70,54,42,37,37,,,49,53,6,13,0.7,1
2025-12-17T0300,3334A,117.5038,30.6243,池州市,第十二中学,细颗粒物(PM2.5),69,71,69,50,41,0,0,,,56,50,3,6,1.2,1.1
2025-12-17T0300,1744A,118.9233,42.2816,赤峰市,松山一中,颗粒物(PM10),59,68,85,38,42,1,1,,,40,41,9,26,1.1,1.3
2025-12-17T0300,1745A,118.9576,42.2728,赤峰市,哈达街,细颗粒物(PM2.5),74,76,85,54,45,6,6,,,38,42,17,44,1.2,1.2
2025-12-17T0300,1746A,118.8788,42.2554,赤峰市,天义路,细颗粒物(PM2.5),75,63,69,55,54,5,5,,,37,41,9,24,1.2,1.2
2025-12-17T0300,3058A,119.2658,42.0353,赤峰市,银河街,细颗粒物(PM2.5),87,86,65,64,34,6,6,,,37,23,15,13,1.9,0.9
2025-12-17T0300,3286A,118.9359,42.3147,赤峰市,桥北物流园区,细颗粒物(PM2.5),70,77,65,51,45,5,5,,,37,34,12,16,1.2,1
2025-12-17T0300,2521A,107.3476,22.4136,崇左市,市环保局江州分局,颗粒物(PM10),65,80,78,40,37,30,30,,,21,22,7,8,0.7,0.8
2025-12-17T0300,4256A,107.3750,22.3736,崇左市,石景林东路7号,细颗粒物(PM2.5),70,73,58,51,46,24,24,,,30,24,9,8,0.9,0.9
2025-12-17T0300,2298A,118.3093,32.3153,滁州市,老年大学,细颗粒物(PM2.5),69,77,72,50,44,21,21,,,28,31,10,11,0.5,0.6
2025-12-17T0300,2299A,118.3244,32.2786,滁州市,人大宾馆,细颗粒物(PM2.5),84,85,85,62,50,46,46,,,27,41,6,9,0.6,0.8
2025-12-17T0300,3207A,118.3118,32.3038,滁州市,市政府原办公楼,细颗粒物(PM2.5),77,82,78,56,45,48,48,,,26,42,5,7,0.4,0.6
2025-12-17T0300,3331A,118.3267,32.2634,滁州市,图书馆,细颗粒物(PM2.5),72,82,75,52,40,52,52,,,24,42,7,9,0.5,0.6
2025-12-17T0300,2605A,101.5482,25.0441,楚雄彝族自治州,州环境监测站,,25,21,24,17,16,0,0,,,29,18,11,14,0.6,0.7
2025-12-17T0300,2606A,101.538,25.0492,楚雄彝族自治州,市经济开发区,,26,26,26,17,18,2,2,,,26,20,11,12,0.7,0.8
2025-12-17T0300,2548A,107.5277,31.2827,达州市,达州职业技术学院,,,,,,,,,,,,,,,,
2025-12-17T0300,2549A,107.5086,31.2186,达州市,市环境监测站,细颗粒物(PM2.5),98,93,110,73,68,1,1,,,28,44,6,8,0.4,0.5
2025-12-17T0300,2550A,107.4988,31.2132,达州市,凤凰小区,细颗粒物(PM2.5),104,97,115,78,70,3,3,,,21,36,4,7,0.5,0.6
2025-12-17T0300,2551A,107.5082,31.1986,达州市,达县机关宾馆,细颗粒物(PM2.5),97,105,120,72,72,2,2,,,30,42,2,6,0.7,0.8
2025-12-17T0300,2552A,107.4644,31.2124,达州市,市政中心,细颗粒物(PM2.5),92,105,122,68,66,2,2,,,30,41,6,9,0.7,0.8
2025-12-17T0300,2614A,100.1542,25.7054,大理白族自治州,大理市环境监测站,,26,18,17,18,18,22,22,,,37,13,6,6,0.5,0.5
2025-12-17T0300,2615A,100.2171,25.5811,大理白族自治州,大理古城,,20,16,21,14,13,48,48,,,8,18,8,8,0.5,0.6
2025-12-17T0300,1109A,121.612,38.9741,大连市,甘井子,颗粒物(PM10),55,59,102,27,72,46,46,,,24,47,8,10,0,0.2
2025-12-17T0300,1110A,121.565,38.9511,大连市,周水子,,47,47,101,25,69,51,51,,,16,37,12,11,0.3,0.9
2025-12-17T0300,1111A,121.5637,38.8845,大连市,星海三站,,40,40,89,23,70,52,52,,,15,30,5,7,0.2,0.7
2025-12-17T0300,1112A,121.6302,38.9117,大连市,青泥洼桥,,36,36,98,24,70,49,49,,,17,40,8,9,0.4,1
2025-12-17T0300,1113A,121.6251,38.8638,大连市,傅家庄,,41,41,94,22,65,46,46,,,17,34,8,11,0.3,0.9
2025-12-17T0300,1114A,121.5213,38.8661,大连市,七贤岭,,45,45,99,20,67,55,55,,,14,33,6,10,0,0.6
2025-12-17T0300,1115A,121.2529,38.8061,大连市,旅顺,,33,32,102,23,70,55,55,,,9,22,6,7,0.3,0.7
2025-12-17T0300,1116A,121.7485,39.1311,大连市,金州,细颗粒物(PM2.5),54,50,91,38,68,41,41,,,16,25,8,10,0.4,0.9
2025-12-17T0300,1117A,121.7811,39.0496,大连市,开发区,颗粒物(PM10),52,53,93,29,65,44,44,,,15,28,10,10,0.3,0.8
2025-12-17T0300,1118A,121.9762,39.0631,大连市,双D港,颗粒物(PM10),54,57,92,32,65,40,40,,,24,26,16,14,0.8,1
2025-12-17T0300,1789A,124.81117,46.03138,大庆市,大同区,细颗粒物(PM2.5),68,66,48,49,30,28,28,,,20,17,6,7,0.9,0.8
2025-12-17T0300,1790A,125.129,46.533,大庆市,龙凤区,细颗粒物(PM2.5),55,51,43,39,30,24,24,,,13,17,6,6,0.6,0.6
2025-12-17T0300,1791A,124.902,46.408,大庆市,红岗区,,48,48,43,21,21,23,23,,,24,26,8,8,0.6,0.6
2025-12-17T0300,1792A,125.153,46.586,大庆市,萨尔图区,,42,37,41,29,20,27,27,,,24,27,7,7,0.8,0.8
2025-12-17T0300,1793A,124.9042,46.6215,大庆市,让胡路区,,50,42,30,35,25,27,27,,,24,15,9,7,0.7,0.5
2025-12-17T0300,3481A,125.141,46.634,大庆市,萨区政府监测点,,42,42,32,17,12,30,30,,,22,22,16,12,0.5,0.5
2025-12-17T0300,1721A,113.3819,40.1097,大同市,果树场,,40,,68,28,53,26,26,,,40,41,7,14,0.6,1
2025-12-17T0300,1723A,113.2994,40.0758,大同市,云冈宾馆,颗粒物(PM10),54,57,102,28,61,28,28,,,29,54,6,13,0.8,1.6
2025-12-17T0300,1724A,113.3444,40.0917,大同市,大同大学,,,51,95,32,54,12,12,,,57,54,,12,0.9,1.1
2025-12-17T0300,1725A,113.2661,40.1269,大同市,安家小村,颗粒物(PM10),65,79,104,41,59,2,2,,,55,53,13,17,4.5,1.7
2025-12-17T0300,1726A,113.2711,40.0844,大同市,教育学院,细颗粒物(PM2.5),59,62,102,42,60,8,8,,,55,56,6,13,1.2,1.3
2025-12-17T0300,3282A,113.3397,40.0597,大同市,大同市卫生学校,,49,49,99,27,58,41,41,,,26,55,6,11,0.6,1.1
2025-12-17T0300,3565A,113.1367,40.1122,大同市,云冈站,,42,42,63,26,45,10,10,,,44,42,6,11,0.8,0.8
2025-12-17T0300,3566A,113.1186,40.2556,大同市,图书馆,,,,117,32,58,22,22,,,27,29,5,10,1.0,1.2
2025-12-17T0300,3567A,113.5931,40.0461,大同市,区一中,,,68,104,46,65,31,31,,,44,45,,21,1.4,1.3
2025-12-17T0300,4199A,113.2798,40.0997,大同市,魏都大道141号,颗粒物(PM10),62,73,125,43,67,19,19,,,41,60,6,13,1.3,1.5
2025-12-17T0300,2269A,124.1069,50.4097,大兴安岭地区,科技局,,30,,18,21,18,30,30,,,3,5,5,6,0.2,0.2
2025-12-17T0300,3663A,124.1164,50.4278,大兴安岭地区,红旗社区,,15,,20,10,20,30,30,,,19,25,6,7,0.4,0.5
2025-12-17T0300,1600A,124.3303,40.0625,丹东市,江湾东路,细颗粒物(PM2.5),64,65,90,46,63,45,45,,,21,28,10,11,0.9,1.1
2025-12-17T0300,1601A,124.4256,40.1503,丹东市,临江后街,"颗粒物(PM10),细颗粒物(PM2.5)",57,64,79,40,50,48,48,,,16,29,6,13,0.7,0.9
2025-12-17T0300,1602A,124.3933,40.1461,丹东市,元宝山,细颗粒物(PM2.5),59,59,74,42,54,45,45,,,19,27,8,11,0.9,1.1
2025-12-17T0300,1603A,124.3633,40.1092,丹东市,民主桥,颗粒物(PM10),57,64,84,35,49,48,48,,,17,31,8,9,0.8,1
2025-12-17T0300,3541A,109.5726,19.5167,儋州市,第一中学子站,,41,41,34,16,15,56,56,,,2,3,3,3,0.5,0.5
2025-12-17T0300,3542A,109.5567,19.5187,儋州市,东坡学校子站,,39,39,33,15,14,64,64,,,1,3,4,4,0.4,0.5
2025-12-17T0300,2616A,98.5842,24.428,德宏傣族景颇族自治州,德宏州监测站,细颗粒物(PM2.5),53,46,40,37,32,5,5,,,30,20,5,6,0.6,0.6
2025-12-17T0300,3677A,98.5881,24.4368,德宏傣族景颇族自治州,芒市人民政府综合楼,,32,32,40,20,25,18,18,,,11,15,7,8,0.6,0.6
2025-12-17T0300,1901A,104.4239,31.1208,德阳市,东山公园,细颗粒物(PM2.5),140,153,130,107,84,63,63,,,35,38,4,3,1.1,1
2025-12-17T0300,1902A,104.3826,31.1317,德阳市,西小区,细颗粒物(PM2.5),147,174,158,112,96,2,2,,,66,60,,6,1.1,1
2025-12-17T0300,1904A,104.3553,31.1091,德阳市,耐火材料厂,细颗粒物(PM2.5),150,169,150,115,100,3,3,,,80,67,5,8,1.3,1.2
2025-12-17T0300,3639A,104.4019,31.1244,德阳市,市教育局,细颗粒物(PM2.5),135,126,120,103,87,1,1,,,74,62,1,3,0.9,0.8
2025-12-17T0300,1622A,116.3032,37.4674,德州市,儿童乐园,细颗粒物(PM2.5),73,88,176,53,112,1,1,,,58,64,13,15,1.1,1.6
2025-12-17T0300,1624A,116.2991,37.4451,德州市,监理站,细颗粒物(PM2.5),79,90,172,58,112,8,8,,,61,63,15,15,0.9,1.3
2025-12-17T0300,3066A,116.2721,37.4379,德州市,九衢泉纯净水厂,细颗粒物(PM2.5),73,90,169,53,106,5,5,,,62,67,16,16,0.8,1.2
2025-12-17T0300,3371A,116.3728,37.4403,德州市,开发区人民医院,颗粒物(PM10),73,95,173,51,104,8,8,,,61,68,14,15,1.0,1.3
2025-12-17T0300,3511A,116.5652,37.3319,德州市,陵城艺术中心,细颗粒物(PM2.5),83,88,172,61,114,15,15,,,47,67,17,21,0.9,1.3
2025-12-17T0300,4292A,116.3525,37.4209,德州市,新河东路,细颗粒物(PM2.5),77,85,163,56,106,4,4,,,65,69,12,15,0.9,1.3
2025-12-17T0300,2621A,99.7056,27.8317,迪庆藏族自治州,迪庆州站,,28,,31,19,19,36,36,,,13,14,4,5,0.7,0.8
2025-12-17T0300,3180A,99.7136,27.8094,迪庆藏族自治州,质量技术监督局,,40,,34,28,23,44,44,,,11,17,6,7,0.5,0.6
2025-12-17T0300,4257A,104.6092,35.5962,定西市,将台街,"颗粒物(PM10),细颗粒物(PM2.5)",52,54,84,36,53,11,11,,,33,33,10,17,0.7,1
2025-12-17T0300,4309A,104.6159,35.5701,定西市,正龙路62号,"颗粒物(PM10),细颗粒物(PM2.5)",64,77,95,46,49,31,31,,,10,20,5,13,0.7,0.9
2025-12-17T0300,1389A,113.7547,23.0494,东莞市,莞城梨川,颗粒物(PM10),54,58,69,31,35,41,41,,,40,51,7,7,0.6,0.6
2025-12-17T0300,1390A,113.7944,23.0128,东莞市,东城石井,颗粒物(PM10),51,52,63,30,34,39,39,,,31,53,7,9,0.7,0.7
2025-12-17T0300,1391A,113.7383,22.9658,东莞市,南城西平,颗粒物(PM10),61,72,77,42,44,0,0,,,111,72,10,9,0.9,0.9
2025-12-17T0300,3319A,113.7338,23.0381,东莞市,万江金泰,颗粒物(PM10),57,64,73,34,37,28,28,,,50,55,8,7,0.8,0.8
2025-12-17T0300,3626A,113.7533,23.0202,东莞市,南城元岭,,50,50,70,34,37,49,49,,,38,52,9,10,0.6,0.7
2025-12-17T0300,3627A,113.7875,23.0457,东莞市,东城主山,,,,75,38,44,50,50,,,38,53,7,8,0.5,0.6
2025-12-17T0300,1666A,118.6614,37.4309,东营市,市环保局,,36,36,105,22,66,46,46,,,22,35,6,9,0.6,1
2025-12-17T0300,3036A,118.6904,37.4338,东营市,开发区管委会,,48,48,108,22,70,42,42,,,20,32,7,9,0.4,0.7
2025-12-17T0300,3365A,118.5719,37.565,东营市,垦利区民丰路,,34,34,103,19,62,34,34,,,27,33,5,7,0.6,0.9
2025-12-17T0300,3498A,118.5055,37.8612,东营市,河口城区,,41,41,64,22,59,34,34,,,39,37,6,8,0.6,1.1
2025-12-17T0300,3646A,118.4978,37.4623,东营市,胜利站,细颗粒物(PM2.5),52,50,110,36,75,22,22,,,40,41,10,12,0.7,1
2025-12-17T0300,3734A,118.35,37.26,东营市,理想之城,,39,39,114,27,71,32,32,,,25,36,3,6,0.6,1
2025-12-17T0300,1591A,110.0023,39.8129,鄂尔多斯市,综合楼,,19,19,48,3,21,60,60,,,20,25,5,9,0.4,0.6
2025-12-17T0300,1592A,109.9486,39.8261,鄂尔多斯市,巴音孟克林场办事处,,34,34,60,14,29,64,64,,,17,28,6,10,0.1,0.4
2025-12-17T0300,1593A,109.7736,39.5986,鄂尔多斯市,康泽苑,,31,31,52,17,24,40,40,,,21,16,8,10,0.3,0.5
2025-12-17T0300,1594A,109.8119,39.5989,鄂尔多斯市,华泰汽车城,,41,41,53,22,25,29,29,,,24,26,4,5,0.4,0.6
2025-12-17T0300,1595A,109.9734,39.7884,鄂尔多斯市,奥林花园,,,,65,7,22,37,37,,,17,27,3,8,0.4,0.6
2025-12-17T0300,2436A,114.8938,30.3994,鄂州市,市政府,细颗粒物(PM2.5),94,82,65,70,44,49,49,,,25,36,5,8,0.6,0.6
2025-12-17T0300,2437A,114.8989,30.3714,鄂州市,赵家坝,,,72,65,64,43,59,59,,,16,28,,10,1.0,1.3
2025-12-17T0300,3654A,114.8094,30.4089,鄂州市,精准医疗中心,细颗粒物(PM2.5),109,85,86,82,54,50,50,,,28,39,21,33,1.2,1.2
2025-12-17T0300,2454A,109.4978,30.2981,恩施土家族苗族自治州,湖北民院,细颗粒物(PM2.5),105,87,66,79,57,10,10,,,,17,6,6,0.8,0.7
2025-12-17T0300,2455A,109.4707,30.2798,恩施土家族苗族自治州,州电力总公司,细颗粒物(PM2.5),113,96,73,85,57,2,2,,,38,31,6,6,0.5,0.3
2025-12-17T0300,3549A,109.5061,30.3772,恩施土家族苗族自治州,龙凤新区,细颗粒物(PM2.5),83,79,70,61,46,9,9,,,8,13,6,6,0.6,0.6
2025-12-17T0300,2499A,108.3411,21.6158,防城港市,沙万,,,,57,40,34,54,54,,,15,22,5,7,0.8,0.8
2025-12-17T0300,2500A,108.3514,21.7731,防城港市,防城档案局,颗粒物(PM10),65,79,74,36,38,36,36,,,18,24,4,4,0.8,0.8
2025-12-17T0300,2501A,108.3506,21.6414,防城港市,大海花园,细颗粒物(PM2.5),60,60,58,43,35,60,60,,,14,20,8,9,1.0,0.9
2025-12-17T0300,1371A,113.1294,23.0067,佛山市,湾梁,颗粒物(PM10),78,105,100,53,51,12,12,,,86,74,23,11,1.0,0.9
2025-12-17T0300,1372A,113.1083,23.0478,佛山市,华材职中,细颗粒物(PM2.5),100,119,106,75,61,4,4,,,104,83,14,9,1.0,0.9
2025-12-17T0300,1373A,113.144,23.0453,佛山市,南海气象局,细颗粒物(PM2.5),75,96,91,55,50,2,2,,,101,79,22,12,0.8,0.7
2025-12-17T0300,1374A,113.2881,22.8094,佛山市,顺德苏岗,细颗粒物(PM2.5),67,71,79,48,45,25,25,,,68,73,16,9,0.8,0.8
2025-12-17T0300,1376A,112.8383,22.8678,佛山市,高明孔堂,颗粒物(PM10),71,92,86,50,49,38,38,,,42,51,12,12,0.7,0.7
2025-12-17T0300,1377A,112.8836,23.1588,佛山市,三水监测站,细颗粒物(PM2.5),84,90,93,62,51,30,30,,,60,64,17,14,0.8,0.7
2025-12-17T0300,1378A,112.867,23.185,佛山市,三水云东海,细颗粒物(PM2.5),80,76,81,59,44,12,12,,,67,73,9,11,0.7,0.7
2025-12-17T0300,3625A,113.2544,22.7642,佛山市,容桂街道办,颗粒物(PM10),75,100,106,53,55,4,4,,,112,97,17,9,0.8,0.8
2025-12-17T0300,1280A,119.3903,26.0543,福州市,鼓山,,,,36,,15,,,72,,,11,,2,,0.6
2025-12-17T0300,1282A,119.2681,26.0504,福州市,师大,,32,32,39,20,17,37,37,,,24,25,6,7,0.4,0.4
2025-12-17T0300,1283A,119.2984,26.1028,福州市,五四北路,,35,26,42,24,20,26,26,,,26,28,4,4,0.4,0.4
2025-12-17T0300,1284A,119.2648,26.0768,福州市,杨桥西路,,35,28,36,24,17,35,35,,,19,20,4,5,0.4,0.4
2025-12-17T0300,1285A,119.317,26.0746,福州市,紫阳,,35,35,47,22,19,26,26,,,29,31,7,8,0.4,0.4
2025-12-17T0300,3048A,119.5799,26.0936,福州市,九龙,,29,29,31,18,14,26,26,,,22,19,3,3,0.3,0.4
2025-12-17T0300,3526A,119.5189,25.9664,福州市,吴航,,42,42,34,20,16,4,4,,,56,25,6,7,0.6,0.5
2025-12-17T0300,1755A,123.7977,41.8491,抚顺市,望花区,细颗粒物(PM2.5),67,71,88,48,59,9,9,,,44,30,5,9,0.8,0.9
2025-12-17T0300,1756A,123.9161,41.8822,抚顺市,顺城区,细颗粒物(PM2.5),64,66,85,46,57,8,8,,,45,35,10,10,0.8,1
2025-12-17T0300,1757A,124.0436,41.8611,抚顺市,东洲区,"颗粒物(PM10),细颗粒物(PM2.5)",53,56,67,37,48,31,31,,,20,26,6,8,0.6,0.9
2025-12-17T0300,1758A,123.9247,41.8642,抚顺市,新抚区,细颗粒物(PM2.5),67,65,88,48,60,6,6,,,41,33,9,11,1.0,1.1
2025-12-17T0300,1759A,124.0972,41.8961,抚顺市,大伙房水库,颗粒物(PM10),54,57,66,35,45,42,42,,,15,19,9,11,0.7,0.9
2025-12-17T0300,1760A,123.7086,41.8391,抚顺市,沈抚新城,细颗粒物(PM2.5),99,90,90,74,66,16,16,,,52,31,8,8,0.8,0.9
2025-12-17T0300,2376A,116.2127,28.0814,抚州市,桐源党溪,,,,,,,,,,,,,,,,
2025-12-17T0300,2377A,116.3544,27.9831,抚州市,市站,细颗粒物(PM2.5),69,78,59,50,31,25,25,,,33,32,12,7,0.6,0.7
2025-12-17T0300,2378A,116.3565,27.963,抚州市,血防站,细颗粒物(PM2.5),72,69,51,52,28,21,21,,,42,37,9,6,0.9,0.9
2025-12-17T0300,2379A,116.3564,28.0007,抚州市,采茶剧团,细颗粒物(PM2.5),62,68,54,44,32,42,42,,,16,26,6,6,0.7,0.8
2025-12-17T0300,2380A,116.385,27.9647,抚州市,医学分院,颗粒物(PM10),66,82,55,47,29,36,36,,,31,30,4,6,1.0,1
2025-12-17T0300,2207A,121.6094,41.998,阜新市,工业园区,,,,51,46,35,8,8,,,34,26,15,12,0.7,0.6
2025-12-17T0300,2208A,121.6697,42.0279,阜新市,长青街,细颗粒物(PM2.5),64,51,38,46,32,1,1,,,47,25,7,8,1.1,0.8
2025-12-17T0300,2209A,121.6673,42.0705,阜新市,农业园区,细颗粒物(PM2.5),52,47,41,36,28,29,29,,,24,17,8,7,0.7,0.9
2025-12-17T0300,2210A,121.6717,42.0224,阜新市,东苑,细颗粒物(PM2.5),55,57,48,39,34,5,5,,,45,25,9,10,1.4,0.8
2025-12-17T0300,2211A,121.6506,42.0498,阜新市,玉龙新城,颗粒物(PM10),56,62,50,27,31,7,7,,,43,26,7,8,1.0,0.8
2025-12-17T0300,2301A,115.8277,32.8929,阜阳市,市监测站,细颗粒物(PM2.5),219,226,137,169,92,16,16,,,40,39,4,5,0.8,0.7
2025-12-17T0300,2303A,115.8554,32.8605,阜阳市,开发区,细颗粒物(PM2.5),204,225,125,154,76,15,15,,,39,36,4,6,1.0,0.8
2025-12-17T0300,2875A,115.784,32.8892,阜阳市,阜阳职业技术学院,细颗粒物(PM2.5),201,210,118,151,80,24,24,,,34,34,6,7,1.1,0.9
2025-12-17T0300,3468A,115.7901,32.8613,阜阳市,市规划展馆,细颗粒物(PM2.5),228,233,131,178,92,15,15,,,36,31,7,7,1.0,0.7
2025-12-17T0300,3469A,115.836,32.9183,阜阳市,枣园社区,细颗粒物(PM2.5),224,236,138,174,94,14,14,,,40,42,5,4,0.8,0.6
2025-12-17T0300,2669A,102.9099,34.9841,甘南藏族自治州,州政府,,50,50,51,27,28,3,3,,,42,30,6,10,0.8,0.8
2025-12-17T0300,3380A,102.8914,34.9617,甘南藏族自治州,甘肃民族师范学院,颗粒物(PM10),55,59,66,14,19,4,4,,,44,39,5,8,0.7,0.8
2025-12-17T0300,2570A,101.9603,30.0475,甘孜藏族自治州,水桥子,,21,21,20,6,6,36,36,,,22,17,5,6,0.4,0.4
2025-12-17T0300,3065A,101.9533,29.9972,甘孜藏族自治州,州环保局,,18,13,22,8,5,55,55,,,10,14,5,6,0.4,0.4
2025-12-17T0300,3414A,115.8347,28.932,赣江新区,桑海产业园,细颗粒物(PM2.5),77,90,67,56,39,33,33,,,56,47,24,17,0.9,0.7
2025-12-17T0300,2362A,114.9017,25.9149,赣州市,通天岩,,25,,39,17,24,30,30,,,5,14,15,17,1.3,1.3
2025-12-17T0300,2363A,114.9367,25.8664,赣州市,地委,颗粒物(PM10),53,56,58,34,30,1,1,,,46,40,6,10,0.8,0.8
2025-12-17T0300,2364A,114.9461,25.8481,赣州市,气象台,颗粒物(PM10),63,76,68,34,29,5,5,,,59,54,6,10,0.8,0.8
2025-12-17T0300,2365A,114.9322,25.8333,赣州市,市图书馆,颗粒物(PM10),65,80,70,37,34,1,1,,,61,54,5,5,0.9,0.9
2025-12-17T0300,2366A,114.8905,25.8471,赣州市,华坚鞋城,颗粒物(PM10),65,79,69,42,33,6,6,,,64,57,8,8,0.6,0.6
2025-12-17T0300,3109A,115.0093,25.8613,赣州市,赣县区卫计委,颗粒物(PM10),51,51,55,34,32,4,4,,,41,40,7,7,0.6,0.5
2025-12-17T0300,2683A,106.2319,36.1417,固原市,马园,,,,,,,,,,,,,,,,
2025-12-17T0300,2684A,106.2792,36.0022,固原市,监测站,,33,33,71,18,33,44,44,,,16,25,5,8,0.8,0.8
2025-12-17T0300,2685A,106.2375,36.0211,固原市,新区,,44,44,76,23,28,6,6,,,48,34,3,5,1.3,0.7
2025-12-17T0300,3522A,106.2177,35.9959,固原市,原州区十五小,,21,13,58,7,24,66,66,,,9,19,6,7,0.5,0.5
2025-12-17T0300,2543A,106.6308,30.5278,广安市,小平旧居,,,,,,,,,,,,,,,,
2025-12-17T0300,2544A,106.6303,30.4576,广安市,市委,细颗粒物(PM2.5),139,122,132,106,101,3,3,,,20,33,3,4,0.9,0.9
2025-12-17T0300,2545A,106.6271,30.4663,广安市,友谊中学,细颗粒物(PM2.5),135,115,120,103,92,9,9,,,15,25,8,9,1.0,1
2025-12-17T0300,2547A,106.6388,30.4551,广安市,广电花园,细颗粒物(PM2.5),129,105,109,98,93,2,2,,,18,28,3,4,0.8,0.8
2025-12-17T0300,2902A,106.6351,30.4865,广安市,北辰小学,细颗粒物(PM2.5),120,108,120,91,92,5,5,,,20,25,19,19,1.0,1.1
2025-12-17T0300,2523A,105.8945,32.4535,广元市,黑石坡,,,,,,,,,,,,,,,,
2025-12-17T0300,2524A,105.821,32.4444,广元市,老城,细颗粒物(PM2.5),57,61,75,40,44,4,4,,,42,42,6,15,0.8,1.1
2025-12-17T0300,2526A,105.8628,32.4287,广元市,监测站,"颗粒物(PM10),细颗粒物(PM2.5)",60,70,70,43,43,5,5,,,34,33,4,8,1.2,1.1
2025-12-17T0300,3617A,105.8047,32.4166,广元市,经开区,"颗粒物(PM10),细颗粒物(PM2.5)",68,86,80,49,44,0,0,,,44,40,3,8,1.0,0.9
2025-12-17T0300,1345A,113.2347,23.1423,广州市,广雅中学,"颗粒物(PM10),细颗粒物(PM2.5)",74,98,109,54,52,0,0,,,96,83,13,8,0.7,0.7
2025-12-17T0300,1346A,113.2612,23.105,广州市,市五中,颗粒物(PM10),72,94,87,49,42,2,2,,,128,97,13,11,0.8,0.7
2025-12-17T0300,1348A,113.3478,23.0916,广州市,广东商学院,颗粒物(PM10),79,107,85,51,47,1,1,,,113,80,8,8,0.9,0.7
2025-12-17T0300,1349A,113.4332,23.1047,广州市,市八十六中,"颗粒物(PM10),细颗粒物(PM2.5)",64,78,67,46,40,1,1,,,111,95,9,8,1.2,1
2025-12-17T0300,1350A,113.3505,22.9483,广州市,番禺中学,颗粒物(PM10),73,96,99,51,52,10,10,,,92,79,5,5,0.8,0.8
2025-12-17T0300,1351A,113.2146,23.3916,广州市,花都师范,颗粒物(PM10),65,80,73,45,38,18,18,,,66,57,7,7,0.6,0.6
2025-12-17T0300,1352A,113.2597,23.1331,广州市,市监测站,颗粒物(PM10),82,113,88,52,40,1,1,,,118,87,13,11,1.0,0.9
2025-12-17T0300,1353A,113.5618,23.312,广州市,九龙镇镇龙,颗粒物(PM10),58,66,56,35,29,28,28,,,50,42,12,7,0.5,0.5
2025-12-17T0300,1354A,113.2765,23.1544,广州市,麓湖,细颗粒物(PM2.5),80,96,69,59,42,2,2,,,103,81,9,9,0.6,0.7
2025-12-17T0300,1355A,113.443,23.3035,广州市,帽峰山森林公园,,,,,,,,,,,,,,,,
2025-12-17T0300,2846A,113.3221,23.1322,广州市,体育西,颗粒物(PM10),77,103,76,50,41,0,0,,,122,79,13,11,0.9,0.7
2025-12-17T0300,3298A,113.5717,23.5491,广州市,从化街口,颗粒物(PM10),58,65,53,38,33,0,0,,,65,42,16,11,0.7,0.7
2025-12-17T0300,3299A,113.3472,23.3692,广州市,白云竹料,颗粒物(PM10),62,74,72,41,38,3,3,,,66,59,5,5,0.8,0.7
2025-12-17T0300,3300A,113.2981,23.237,广州市,白云嘉禾,颗粒物(PM10),88,126,94,52,41,0,0,,,97,73,8,8,1.0,0.8
2025-12-17T0300,3301A,113.4256,23.1716,广州市,黄埔科学城,,47,47,58,24,29,44,44,,,37,48,6,6,0.7,0.7
2025-12-17T0300,3302A,113.3942,23.0483,广州市,番禺大学城,颗粒物(PM10),74,98,88,51,45,2,2,,,118,78,14,12,0.8,0.7
2025-12-17T0300,3303A,113.4922,22.8168,广州市,南沙黄阁,颗粒物(PM10),81,111,88,57,45,5,5,,,122,89,8,11,1.1,1.1
2025-12-17T0300,3304A,113.5342,22.7896,广州市,南沙街,颗粒物(PM10),79,108,83,55,42,0,0,,,113,71,8,9,0.8,0.7
2025-12-17T0300,3443A,113.2902,23.5544,广州市,花都梯面,,34,34,36,21,20,46,46,,,26,32,7,7,0.5,0.4
2025-12-17T0300,3445A,113.7858,23.7478,广州市,从化良口,,18,16,22,12,15,20,20,,,28,20,6,7,0.5,0.5
2025-12-17T0300,3446A,113.8051,23.2614,广州市,增城荔城,,50,50,44,31,25,36,36,,,31,23,7,9,0.5,0.5
2025-12-17T0300,2505A,109.568,23.1478,贵港市,德智高中,,,,,,,,,,,,,,,,
2025-12-17T0300,2506A,109.6047,23.0666,贵港市,江南子站,细颗粒物(PM2.5),103,110,78,77,48,8,8,,,47,34,8,10,0.9,0.8
2025-12-17T0300,2508A,109.5669,23.1065,贵港市,荷城子站,细颗粒物(PM2.5),58,58,64,41,35,57,57,,,18,28,6,10,0.9,0.9
2025-12-17T0300,3405A,109.5886,23.1172,贵港市,新世纪学校,细颗粒物(PM2.5),62,66,68,44,37,56,56,,,10,19,4,8,0.7,0.7
2025-12-17T0300,4260A,109.5933,23.0951,贵港市,中山路155-3号,细颗粒物(PM2.5),68,72,62,49,40,58,58,,,18,26,6,10,0.7,0.8
2025-12-17T0300,1439A,106.6899,26.5998,贵阳市,马鞍山,,45,41,66,31,45,27,27,,,12,21,6,8,0.6,0.7
2025-12-17T0300,1441A,106.6243,26.6266,贵阳市,鉴湖路,,44,44,78,22,42,46,46,,,9,18,3,5,0.5,0.6
2025-12-17T0300,1442A,106.7487,26.6343,贵阳市,燕子冲,细颗粒物(PM2.5),52,41,68,36,57,39,39,,,16,23,7,8,0.6,0.6
2025-12-17T0300,1443A,106.6555,26.4365,贵阳市,碧云窝,,46,46,78,29,42,44,44,,,9,16,7,10,0.5,0.5
2025-12-17T0300,1445A,106.7109,26.6027,贵阳市,红边门,,49,44,70,34,50,36,36,,,11,24,6,10,0.2,0.4
2025-12-17T0300,1446A,106.7164,26.5699,贵阳市,新华路,颗粒物(PM10),53,56,76,36,45,36,36,,,12,21,7,10,0.5,0.5
2025-12-17T0300,1447A,106.674,26.5424,贵阳市,太慈桥,,45,41,71,31,45,31,31,,,15,22,4,7,0.3,0.3
2025-12-17T0300,1552A,106.805,26.3003,贵阳市,桐木岭,细颗粒物(PM2.5),62,51,68,44,47,27,27,,,6,6,4,6,0.9,0.9
2025-12-17T0300,4230A,106.6882,26.5695,贵阳市,花果园大街66号,细颗粒物(PM2.5),55,39,63,39,52,32,32,,,14,23,4,6,0.6,0.7
2025-12-17T0300,4231A,106.6873,26.5169,贵阳市,漓江路57号,,45,,58,31,43,28,28,,,15,22,5,9,0.7,0.7
2025-12-17T0300,1862A,110.4144,25.3167,桂林市,电子科大尧山校区,,,,,,,,,,,,,,,,
2025-12-17T0300,1864A,110.3089,25.2708,桂林市,龙隐路小学,细颗粒物(PM2.5),74,60,66,54,44,33,33,,,21,29,8,8,0.6,0.6
2025-12-17T0300,1865A,110.2869,25.2178,桂林市,八中,细颗粒物(PM2.5),78,78,70,57,44,23,23,,,36,39,10,8,0.7,0.7
2025-12-17T0300,3531A,110.296,25.1253,桂林市,旅游学院,细颗粒物(PM2.5),70,75,63,51,40,2,2,,,42,27,5,4,0.6,0.4
2025-12-17T0300,4222A,110.1835,25.2444,桂林市,环湖路276号,细颗粒物(PM2.5),62,70,75,44,42,0,0,,,47,44,7,7,0.5,0.5
2025-12-17T0300,4301A,110.2803,25.2773,桂林市,信义路13号,细颗粒物(PM2.5),64,61,68,46,38,32,32,,,27,36,8,6,0.9,0.9
2025-12-17T0300,2674A,100.2561,34.4714,果洛藏族自治州,玛沁县大武镇,,37,37,46,11,17,25,25,,,6,8,18,20,0.4,0.4
2025-12-17T0300,1129A,126.5422,45.755,哈尔滨市,岭北,,,,,,,,,,,,,,,,
2025-12-17T0300,1130A,126.561,45.8167,哈尔滨市,松北商大,细颗粒物(PM2.5),63,60,41,45,25,34,34,,,22,29,8,9,0.6,0.6
2025-12-17T0300,1131A,126.979,45.5419,哈尔滨市,阿城会宁,细颗粒物(PM2.5),74,67,51,54,40,8,8,,,34,26,12,13,1.1,0.9
2025-12-17T0300,1132A,126.599,45.7222,哈尔滨市,南岗学府路,细颗粒物(PM2.5),64,70,53,46,33,8,8,,,42,30,12,14,0.6,0.6
2025-12-17T0300,1133A,126.689,45.7733,哈尔滨市,太平宏伟公园,细颗粒物(PM2.5),140,183,73,107,45,11,11,,,44,30,12,14,2.0,1
2025-12-17T0300,1134A,126.635,45.7667,哈尔滨市,道外承德广场,,,86,58,49,28,,,,,45,23,12,16,0.8,0.7
2025-12-17T0300,1135A,126.685,45.7319,哈尔滨市,香坊红旗大街,,,,32,,17,,,31,,,16,,9,,0.8
2025-12-17T0300,1136A,126.6411,45.7258,哈尔滨市,动力和平路,细颗粒物(PM2.5),77,74,61,56,44,10,10,,,48,35,17,21,0.8,0.8
2025-12-17T0300,1137A,126.593,45.7478,哈尔滨市,道里建国路,,,63,39,53,32,,,,,40,20,9,11,0.8,0.6
2025-12-17T0300,1138A,126.615,45.61,哈尔滨市,平房东轻厂,细颗粒物(PM2.5),102,102,78,76,58,9,9,,,52,47,14,18,1.3,1.1
2025-12-17T0300,1139A,126.595,45.9855,哈尔滨市,呼兰师专,细颗粒物(PM2.5),89,120,73,66,57,10,10,,,46,30,14,13,0.9,0.8
2025-12-17T0300,1140A,126.6206,45.6842,哈尔滨市,省农科院,细颗粒物(PM2.5),77,74,73,56,62,7,7,,,56,44,18,23,0.7,0.8
2025-12-17T0300,2688A,93.5128,42.8172,哈密市,地区监测站,颗粒物(PM10),85,119,114,61,51,39,39,,,27,32,3,3,0.2,0.4
2025-12-17T0300,2689A,93.4961,42.8328,哈密市,哈密师范学校,颗粒物(PM10),78,105,115,47,50,36,36,,,41,38,4,7,1.0,0.9
2025-12-17T0300,2671A,100.9048,36.9639,海北藏族自治州,海晏县西海镇,,19,15,19,13,14,45,45,,,1,4,7,7,0.4,0.3
2025-12-17T0300,3867A,102.0738,36.5056,海东市,平安区公安北苑,细颗粒物(PM2.5),77,68,68,56,49,10,10,,,46,33,11,29,1.1,1.2
2025-12-17T0300,1409A,110.576,19.9507,海口市,东寨港,,,,,,,,,,,,,,,,
2025-12-17T0300,1410A,110.3232,20.0574,海口市,海南大学,,38,37,43,16,18,120,120,,,8,7,6,6,0.4,0.3
2025-12-17T0300,1411A,110.283,20.0053,海口市,秀英海南医院,,35,35,41,14,16,106,106,,,7,8,7,7,0.3,0.3
2025-12-17T0300,1412A,110.338,19.9969,海口市,海南师范大学,,36,33,40,13,16,113,113,,,8,8,6,6,0.5,0.5
2025-12-17T0300,1413A,110.33,20.0356,海口市,龙华路环保局宿舍,,38,32,41,15,19,119,119,,,9,9,8,7,0.4,0.5
2025-12-17T0300,3539A,110.5111,19.9736,海口市,桂林洋子站,,33,32,41,16,18,104,104,,,7,7,7,7,0.4,0.3
2025-12-17T0300,2673A,100.6188,36.2866,海南藏族自治州,共和县恰卜恰镇,,23,23,40,12,23,29,29,,,22,26,9,10,0.6,0.8
2025-12-17T0300,2676A,97.3731,37.3753,海西蒙古族藏族自治州,德令哈市,,16,15,26,7,11,49,49,,,6,10,11,12,0.4,0.5
2025-12-17T0300,1048A,114.5302,36.6116,邯郸市,东污水处理厂,细颗粒物(PM2.5),133,105,139,101,128,12,12,,,49,43,4,6,1.1,1
2025-12-17T0300,1049A,114.4918,36.5713,邯郸市,矿院,细颗粒物(PM2.5),140,120,140,107,128,2,2,,,54,44,3,5,1.6,1
2025-12-17T0300,1050A,114.484,36.6133,邯郸市,丛台公园,细颗粒物(PM2.5),119,130,153,90,123,6,6,,,56,43,9,8,1.0,1
2025-12-17T0300,3458A,114.7895,36.5593,邯郸市,香泉濮院小区,细颗粒物(PM2.5),145,144,194,111,150,5,5,,,65,48,13,10,1.2,1.2
2025-12-17T0300,3579A,114.50634,36.77178,邯郸市,永年区实验高中,细颗粒物(PM2.5),89,123,144,66,86,5,5,,,65,61,4,4,1.2,1.1
2025-12-17T0300,3580A,114.20016,36.44293,邯郸市,峰峰矿区临水派出所,细颗粒物(PM2.5),117,,86,88,98,60,60,,,28,30,18,13,1.4,1.1
2025-12-17T0300,2634A,106.9893,33.1842,汉中市,汉川机床厂子校,,,,,,,,,,,,,,,,
2025-12-17T0300,2635A,107.0154,33.0706,汉中市,市监测站,细颗粒物(PM2.5),103,83,86,77,68,4,4,,,31,36,5,5,1.2,1.3
2025-12-17T0300,2636A,107.0089,33.1138,汉中市,鑫源开发区,细颗粒物(PM2.5),82,89,73,60,52,16,16,,,44,35,6,6,1.3,1
2025-12-17T0300,2637A,107.007,33.0323,汉中市,南郑大河坎水厂,细颗粒物(PM2.5),72,74,83,52,56,16,16,,,15,30,6,6,0.9,1.1
2025-12-17T0300,1223A,120.2072,30.2111,杭州市,滨江,颗粒物(PM10),74,97,85,48,41,0,0,,,73,65,9,9,1.0,0.9
2025-12-17T0300,1224A,120.0633,30.2747,杭州市,西溪,细颗粒物(PM2.5),62,64,60,44,36,0,0,,,39,43,8,8,0.9,0.8
2025-12-17T0300,1226A,120.3417,30.3150,杭州市,下沙,细颗粒物(PM2.5),79,95,80,58,48,0,0,,,95,74,9,9,1.0,0.8
2025-12-17T0300,1227A,120.1269,30.2456,杭州市,卧龙桥,,,58,55,41,36,0,0,,,44,41,,8,0.6,0.7
2025-12-17T0300,1228A,120.1903,30.2692,杭州市,浙江农大,细颗粒物(PM2.5),79,92,98,58,52,1,1,,,73,79,5,8,1.0,1
2025-12-17T0300,1230A,120.1197,30.3119,杭州市,和睦小学,细颗粒物(PM2.5),70,80,81,51,45,2,2,,,62,63,10,10,1.0,1
2025-12-17T0300,1231A,120.3019,30.4183,杭州市,临平镇,颗粒物(PM10),64,77,87,44,45,5,5,,,74,68,8,8,0.9,1.1
2025-12-17T0300,1232A,120.2753,30.1839,杭州市,城厢镇,细颗粒物(PM2.5),79,98,77,58,43,0,0,,,69,62,8,8,1.1,1
2025-12-17T0300,1233A,120.0883,30.1808,杭州市,云栖,颗粒物(PM10),68,85,88,43,37,1,1,,,43,47,3,4,0.6,0.7
2025-12-17T0300,3557A,119.9464,30.0494,杭州市,镇二中,细颗粒物(PM2.5),69,61,71,50,50,1,1,,,54,55,6,6,0.8,1
2025-12-17T0300,3558A,119.7183,30.2367,杭州市,市府大楼,,49,49,68,31,38,14,14,,,33,35,10,11,0.6,0.8
2025-12-17T0300,3656A,120.1556,30.2864,杭州市,消防大队,细颗粒物(PM2.5),72,87,79,52,48,0,0,,,68,66,6,7,0.8,0.8
2025-12-17T0300,1270A,117.1959,31.7848,合肥市,明珠广场,细颗粒物(PM2.5),134,146,83,102,43,18,18,,,45,46,6,6,0.9,0.9
2025-12-17T0300,1271A,117.3072,31.8764,合肥市,三里街,细颗粒物(PM2.5),132,151,87,100,44,14,14,,,55,50,6,6,0.9,0.8
2025-12-17T0300,1272A,117.2588,31.8707,合肥市,琥珀山庄,细颗粒物(PM2.5),182,139,88,137,60,11,11,,,53,54,7,7,0.8,0.9
2025-12-17T0300,1273A,117.1604,31.9052,合肥市,董铺水库,,,,,,,,,,,,,,,,
2025-12-17T0300,1274A,117.25,31.8571,合肥市,长江中路,细颗粒物(PM2.5),132,139,85,100,46,17,17,,,,42,7,8,1.0,0.9
2025-12-17T0300,1275A,117.266,31.9436,合肥市,庐阳区,细颗粒物(PM2.5),128,158,92,97,44,14,14,,,51,45,9,10,0.9,0.8
2025-12-17T0300,1276A,117.3453,31.8616,合肥市,瑶海区,细颗粒物(PM2.5),135,146,86,103,44,17,17,,,58,48,5,6,0.9,0.8
2025-12-17T0300,1277A,117.3027,31.7964,合肥市,包河区,细颗粒物(PM2.5),134,141,86,102,47,22,22,,,53,69,7,9,1.0,0.9
2025-12-17T0300,1278A,117.2776,31.7385,合肥市,滨湖新区,细颗粒物(PM2.5),128,144,83,97,45,4,4,,,78,50,5,6,1.1,0.8
2025-12-17T0300,1279A,117.1318,31.8403,合肥市,高新区,细颗粒物(PM2.5),133,149,83,101,42,15,15,,,55,47,5,5,0.9,0.8
2025-12-17T0300,3464A,117.3803,31.9147,合肥市,高教基地,细颗粒物(PM2.5),139,136,81,106,48,13,13,,,45,34,6,6,0.9,0.7
2025-12-17T0300,3614A,79.924,37.0877,和田地区,地区环保局,颗粒物(PM10),164,278,250,114,84,35,35,,,53,47,16,13,2.7,1.5
2025-12-17T0300,3615A,79.9131,37.113,和田地区,市环保局,细颗粒物(PM2.5),195,317,235,146,83,12,12,,,86,59,14,14,3.2,1.5
2025-12-17T0300,2516A,108.2011,24.715,河池市,东仁乐园,,,,,,,,,,,,,,,,
2025-12-17T0300,2517A,108.0497,24.6947,河池市,市环保站,细颗粒物(PM2.5),64,73,68,46,41,1,1,,,38,32,2,4,0.9,0.9
2025-12-17T0300,2518A,108.0983,24.6989,河池市,市疾控中心,细颗粒物(PM2.5),77,81,68,56,46,2,2,,,40,35,6,8,1.0,0.9
2025-12-17T0300,1696A,114.6778,23.7569,河源市,源西,,,,,,,,,,,,,,,,
2025-12-17T0300,1697A,114.6944,23.7586,河源市,东埔,,38,37,39,26,25,38,38,,,26,32,8,7,0.5,0.7
2025-12-17T0300,1698A,114.6892,23.7233,河源市,老城,,28,28,35,18,21,14,14,,,37,26,6,6,0.7,0.7
2025-12-17T0300,1718A,115.4208,35.2464,菏泽市,气象局,细颗粒物(PM2.5),218,225,204,168,146,16,16,,,45,42,12,8,1.3,1
2025-12-17T0300,3374A,115.5564,35.0891,菏泽市,定陶老年大学,细颗粒物(PM2.5),218,227,183,168,133,14,14,,,52,49,12,9,1.4,0.9
2025-12-17T0300,4184A,115.4797,35.24401,菏泽市,永昌路1号,细颗粒物(PM2.5),221,224,198,171,143,19,19,,,50,46,12,11,1.4,1
2025-12-17T0300,4193A,115.4715,35.2800,菏泽市,长城路999号,细颗粒物(PM2.5),211,215,195,161,141,17,17,,,45,42,3,3,1.6,1.2
2025-12-17T0300,2514A,111.5264,24.4172,贺州市,环保小区,细颗粒物(PM2.5),59,62,54,42,31,4,4,,,30,32,5,6,0.9,0.8
2025-12-17T0300,2515A,111.5608,24.4078,贺州市,政协大楼,,50,49,47,35,24,0,0,,,33,31,7,8,0.9,0.8
2025-12-17T0300,3534A,111.4744,24.4553,贺州市,西湾,颗粒物(PM10),57,64,56,38,29,1,1,,,32,33,6,8,0.8,0.7
2025-12-17T0300,2385A,114.17,35.9019,鹤壁市,市监测站,细颗粒物(PM2.5),100,108,147,75,109,34,34,,,19,33,5,8,1.3,1.4
2025-12-17T0300,2386A,114.2956,35.7511,鹤壁市,市交警支队,细颗粒物(PM2.5),120,125,170,91,123,22,22,,,42,45,5,9,1.4,1.3
2025-12-17T0300,2387A,114.2878,35.7306,鹤壁市,迎宾馆,细颗粒物(PM2.5),113,120,163,85,118,37,37,,,30,38,12,13,1.4,1.3
2025-12-17T0300,3474A,114.2617,35.6822,鹤壁市,大新区,细颗粒物(PM2.5),103,104,152,77,115,38,38,,,30,37,10,12,1.3,1.3
2025-12-17T0300,3596A,114.1572,35.9603,鹤壁市,南山宾馆,细颗粒物(PM2.5),99,102,150,74,109,54,54,,,22,33,16,13,1.6,1.4
2025-12-17T0300,2244A,130.2537,47.3416,鹤岗市,哈啤分公司,,20,20,19,12,12,61,61,,,4,5,6,6,0.7,0.7
2025-12-17T0300,2245A,130.2684,47.3086,鹤岗市,斯达机电,,28,26,31,19,18,62,62,,,5,6,7,7,0.6,0.5
2025-12-17T0300,2246A,130.3114,47.3388,鹤岗市,东山纸板厂,,20,,23,12,17,61,61,,,6,5,5,5,0.8,0.8
2025-12-17T0300,2247A,130.1097,47.3382,鹤岗市,五号水库,,,,,,,,,,,,,,,,
2025-12-17T0300,2263A,127.4833,50.2524,黑河市,交通局,,18,11,20,7,17,55,55,,,4,9,5,4,0.3,0.7
2025-12-17T0300,2264A,127.5144,50.2341,黑河市,环保局,,20,,14,14,16,59,59,,,7,11,3,4,0.5,0.5
2025-12-17T0300,2265A,127.5291,50.2472,黑河市,大黑河岛,,,,,,,,,,,,,,,,
2025-12-17T0300,1074A,115.6838,37.7541,衡水市,电机北厂,细颗粒物(PM2.5),85,99,177,63,120,3,3,,,48,63,8,6,0.8,1.2
2025-12-17T0300,1075A,115.6303,37.7316,衡水市,市监测站,细颗粒物(PM2.5),90,96,155,67,111,4,4,,,50,65,5,7,0.9,1.1
2025-12-17T0300,3188A,115.6683,37.7217,衡水市,市城管局,细颗粒物(PM2.5),103,84,165,77,109,1,1,,,56,66,8,10,0.9,1.1
2025-12-17T0300,3459A,115.5989,37.5491,衡水市,地表水厂,细颗粒物(PM2.5),153,137,162,117,131,0,0,,,69,63,4,6,1.3,1.1
2025-12-17T0300,2456A,112.5003,26.9167,衡阳市,原169医院,,,,,,,,,,,,,,,,
2025-12-17T0300,2457A,112.6194,26.9258,衡阳市,衡阳化工总厂,细颗粒物(PM2.5),72,70,64,52,41,12,12,,,43,32,23,16,1.0,0.8
2025-12-17T0300,2458A,112.6211,26.8956,衡阳市,珠晖区环保局,细颗粒物(PM2.5),68,72,65,49,42,9,9,,,45,33,12,11,1.3,1.2
2025-12-17T0300,2459A,112.6197,26.8733,衡阳市,市委党校,细颗粒物(PM2.5),65,70,64,47,42,22,22,,,33,27,17,15,1.2,1.1
2025-12-17T0300,2460A,112.6006,26.8919,衡阳市,市监测站,细颗粒物(PM2.5),70,82,80,51,45,7,7,,,50,38,22,14,1.2,1.2
2025-12-17T0300,2461A,112.5664,26.9056,衡阳市,真空机电公司,细颗粒物(PM2.5),83,82,73,61,49,5,5,,,44,38,27,15,1.0,1.1
2025-12-17T0300,3399A,112.6703,26.882,衡阳市,师范学院,细颗粒物(PM2.5),64,69,71,46,38,26,26,,,34,26,11,10,1.2,1
2025-12-17T0300,2608A,103.3772,23.3993,红河哈尼族彝族自治州,污水处理厂,,40,37,33,28,28,52,52,,,8,8,4,5,0.4,0.4
2025-12-17T0300,2609A,103.3861,23.35,红河哈尼族彝族自治州,监测站,,36,35,38,25,29,57,57,,,4,5,7,8,0.3,0.3
2025-12-17T0300,3038A,103.3758,23.368,红河哈尼族彝族自治州,州图书馆,,27,27,26,16,18,56,56,,,4,5,5,9,0.4,0.5
2025-12-17T0300,1090A,111.6507,40.7517,呼和浩特市,呼市一监,细颗粒物(PM2.5),134,119,123,102,101,1,1,,,67,52,5,7,0.9,0.9
2025-12-17T0300,1091A,111.6572,40.8033,呼和浩特市,小召,细颗粒物(PM2.5),125,122,123,95,95,3,3,,,66,58,5,9,1.1,1
2025-12-17T0300,1094A,111.7516,40.8369,呼和浩特市,如意水处理厂,细颗粒物(PM2.5),118,123,128,89,88,2,2,,,62,56,8,12,1.0,1
2025-12-17T0300,1095A,111.7276,40.8062,呼和浩特市,二十九中,细颗粒物(PM2.5),125,129,134,95,93,4,4,,,54,46,10,12,0.8,0.9
2025-12-17T0300,1096A,111.5512,40.7866,呼和浩特市,工大金川校区,细颗粒物(PM2.5),105,105,134,79,100,12,12,,,58,62,7,10,0.9,1
2025-12-17T0300,1097A,111.717,40.7612,呼和浩特市,化肥厂生活区,细颗粒物(PM2.5),122,110,127,92,95,25,25,,,44,55,6,8,1.0,1
2025-12-17T0300,3698A,111.5968,40.8178,呼和浩特市,红旗小学,细颗粒物(PM2.5),98,92,125,73,96,7,7,,,66,59,5,8,0.8,0.9
2025-12-17T0300,3699A,111.6518,40.8389,呼和浩特市,海东办,细颗粒物(PM2.5),114,110,112,86,85,4,4,,,66,55,4,8,0.9,0.9
2025-12-17T0300,3061A,119.7512,49.1577,呼伦贝尔市,国华电力东,,43,35,27,30,22,15,15,,,37,26,8,17,0.7,0.6
2025-12-17T0300,4279A,119.7569,49.2222,呼伦贝尔市,伊敏大街东7号,颗粒物(PM10),51,51,41,34,31,14,14,,,35,28,8,10,0.6,0.6
2025-12-17T0300,1250A,120.0751,30.8669,湖州市,城西水厂,细颗粒物(PM2.5),67,78,78,48,49,10,10,,,62,65,11,11,0.8,0.7
2025-12-17T0300,2873A,120.0830,30.8929,湖州市,仁皇山新区,细颗粒物(PM2.5),64,70,73,46,45,12,12,,,68,64,10,10,0.9,0.7
2025-12-17T0300,2907A,120.1844,30.8596,湖州市,吴兴区站,细颗粒物(PM2.5),65,72,78,47,48,9,9,,,64,64,8,9,0.8,0.7
2025-12-17T0300,3562A,120.4148,30.8538,湖州市,南浔区站,细颗粒物(PM2.5),64,73,65,46,40,0,0,,,101,62,9,7,0.8,0.7
2025-12-17T0300,1607A,120.9049,40.7211,葫芦岛市,龙港区,颗粒物(PM10),51,51,58,28,41,10,10,,,46,33,17,21,1.3,0.9
2025-12-17T0300,1608A,120.8392,40.7514,葫芦岛市,化工街,,39,39,60,24,36,18,18,,,42,27,44,24,0.6,0.7
2025-12-17T0300,1609A,120.8341,40.7073,葫芦岛市,新区,,45,45,57,28,38,17,17,,,41,34,23,18,0.8,0.9
2025-12-17T0300,1610A,120.8695,40.7677,葫芦岛市,东城区,,40,40,48,28,38,14,14,,,43,32,54,20,0.7,0.8
2025-12-17T0300,2482A,109.5981,27.5721,怀化市,林科所,,,,,,,,,,,,,,,,
2025-12-17T0300,2483A,109.9453,27.5444,怀化市,河西地税局,细颗粒物(PM2.5),79,92,67,58,44,5,5,,,40,39,14,8,0.6,0.7
2025-12-17T0300,2484A,109.9781,27.5342,怀化市,市四医院,细颗粒物(PM2.5),84,87,86,62,54,0,0,,,47,45,24,17,0.8,0.7
2025-12-17T0300,2485A,109.9972,27.5578,怀化市,监测楼,,,,77,,46,,,22,,,38,,7,,0.4
2025-12-17T0300,2486A,110.0394,27.583,怀化市,市委党校,细颗粒物(PM2.5),65,74,79,47,49,10,10,,,28,32,12,10,0.3,0.4
2025-12-17T0300,1210A,119.036,33.5981,淮安市,钵池山,细颗粒物(PM2.5),149,149,107,114,66,9,9,,,54,56,6,9,1.0,0.9
2025-12-17T0300,1211A,119.007,33.575,淮安市,北京南路,细颗粒物(PM2.5),170,156,117,129,76,27,27,,,33,58,9,10,1.0,1.1
2025-12-17T0300,1212A,118.989,33.6067,淮安市,市监测站,细颗粒物(PM2.5),180,161,107,136,75,28,28,,,34,54,9,12,1.2,1.2
2025-12-17T0300,1213A,119.135,33.5039,淮安市,楚州区监测站,细颗粒物(PM2.5),201,166,116,151,79,21,21,,,38,58,9,11,1.1,1
2025-12-17T0300,3426A,118.8755,33.2894,淮安市,新华书店,细颗粒物(PM2.5),175,180,111,132,74,8,8,,,73,60,12,14,1.4,1
2025-12-17T0300,4206A,119.0288,33.6319,淮安市,承德北路606号,细颗粒物(PM2.5),170,183,124,129,71,22,22,,,37,59,8,10,1.1,1
2025-12-17T0300,2282A,116.8004,33.975,淮北市,监测站,细颗粒物(PM2.5),204,230,147,154,95,4,4,,,56,49,8,9,1.2,0.9
2025-12-17T0300,2283A,116.8091,33.9007,淮北市,烈山区政府,细颗粒物(PM2.5),207,205,140,157,99,10,10,,,46,47,,11,0.9,0.6
2025-12-17T0300,3330A,116.8873,33.9836,淮北市,杜集区检察院,细颗粒物(PM2.5),214,198,139,164,98,3,3,,,43,41,5,7,1.1,0.8
2025-12-17T0300,4017A,116.7923,33.9535,淮北市,市博物馆,细颗粒物(PM2.5),215,217,146,165,99,9,9,,,44,46,10,12,1.0,0.8
2025-12-17T0300,2277A,116.8305,32.7727,淮南市,潘集区政府,细颗粒物(PM2.5),213,203,121,163,83,9,9,,,39,33,6,10,1.2,0.8
2025-12-17T0300,2279A,116.8569,32.5951,淮南市,谢家集区政府,细颗粒物(PM2.5),186,195,106,140,64,2,2,,,51,37,9,9,0.9,0.5
2025-12-17T0300,2280A,116.8281,32.633,淮南市,八公山区政府,细颗粒物(PM2.5),200,192,114,150,73,6,6,,,43,29,7,7,0.9,0.6
2025-12-17T0300,2281A,116.6325,32.6201,淮南市,焦岗湖风景区管理处,,,,,,,,,,,,,,,,
2025-12-17T0300,2894A,117.0566,32.6531,淮南市,经济技术开发区消防队,细颗粒物(PM2.5),203,202,117,153,69,8,8,,,54,45,5,8,0.9,0.6
2025-12-17T0300,3329A,117.0108,32.5893,淮南市,山南新区,细颗粒物(PM2.5),200,214,122,150,65,11,11,,,46,33,3,4,0.9,0.6
2025-12-17T0300,4209A,117.0031,32.6445,淮南市,国庆中路369号,细颗粒物(PM2.5),193,204,104,145,70,2,2,,,49,44,8,11,0.9,0.7
2025-12-17T0300,2446A,114.9028,30.4742,黄冈市,职工中心,细颗粒物(PM2.5),72,79,63,52,42,59,59,,,17,26,5,10,0.7,0.7
2025-12-17T0300,2929A,114.8858,30.4519,黄冈市,红卫路,,,75,57,63,44,58,58,,,18,29,,8,0.6,0.6
2025-12-17T0300,3398A,114.9136,30.4445,黄冈市,市林业局,细颗粒物(PM2.5),74,92,72,54,41,62,62,,,16,26,3,8,0.8,0.8
2025-12-17T0300,2672A,102.0199,35.5102,黄南藏族自治州,同仁县隆务镇,,21,21,36,8,16,48,48,,,1,6,9,11,0.3,0.4
2025-12-17T0300,2295A,118.2903,29.6963,黄山市,延安路89号,,38,38,43,18,28,5,5,,,24,23,4,4,0.4,0.4
2025-12-17T0300,2297A,118.1371,30.2756,黄山市,黄山区政府5号楼,,48,42,31,33,24,12,12,,,12,12,5,6,0.3,0.3
2025-12-17T0300,4210A,118.3354,29.7203,黄山市,滨江东路7-2号,细颗粒物(PM2.5),68,57,62,49,40,10,10,,,22,27,4,4,0.6,0.6
2025-12-17T0300,2423A,115.0601,30.2313,黄石市,沈家营,颗粒物(PM10),68,85,75,47,41,35,35,,,24,28,6,10,1.3,1.2
2025-12-17T0300,2426A,114.8988,30.2019,黄石市,铁山,细颗粒物(PM2.5),77,73,66,56,46,50,50,,,34,39,6,8,0.9,0.9
2025-12-17T0300,2427A,115.0307,30.2092,黄石市,团城山,颗粒物(PM10),68,85,71,45,40,42,42,,,29,35,7,8,1.2,1
2025-12-17T0300,3149A,115.0235,30.1578,黄石市,笔架山北路,颗粒物(PM10),101,152,107,55,47,21,21,,,45,39,13,11,1.4,1.2
2025-12-17T0300,4185A,115.0780,30.21118,黄石市,磁湖东路29号,细颗粒物(PM2.5),73,84,82,53,51,39,39,,,22,38,8,11,1.1,1.1
2025-12-17T0300,1392A,114.4183,23.0528,惠州市,河南岸金山湖子站,颗粒物(PM10),60,70,59,39,33,27,27,,,35,35,5,5,0.8,0.7
2025-12-17T0300,1393A,114.4053,23.0822,惠州市,下埔横江三路子站,颗粒物(PM10),67,83,64,44,32,3,3,,,63,40,5,8,1.0,0.8
2025-12-17T0300,1394A,114.4103,23.1142,惠州市,江北云山西路子站,颗粒物(PM10),71,91,61,46,30,2,2,,,69,49,7,9,0.8,0.7
2025-12-17T0300,1395A,114.4645,22.7833,惠州市,惠阳区承修路船湖子站,颗粒物(PM10),64,77,74,37,36,54,54,,,30,38,9,9,0.8,0.7
2025-12-17T0300,1396A,114.5317,22.7422,惠州市,大亚湾管委会子站,颗粒物(PM10),69,87,70,48,36,15,15,,,69,43,5,7,0.6,0.6
2025-12-17T0300,3314A,114.4338,22.8134,惠州市,惠阳秋长,"颗粒物(PM10),细颗粒物(PM2.5)",58,66,71,41,37,28,28,,,50,41,11,10,0.7,0.6
2025-12-17T0300,3452A,114.6517,22.775,惠州市,大亚湾霞涌,,48,48,54,20,29,72,72,,,21,25,5,6,0.6,0.6
2025-12-17T0300,2240A,130.9762,45.3001,鸡西市,环保局,,18,8,42,3,18,56,56,,,2,7,6,7,0.2,0.2
2025-12-17T0300,2243A,130.9429,45.3039,鸡西市,第一中学,,17,10,28,8,15,54,54,,,4,10,4,4,0.2,0.2
2025-12-17T0300,3707A,131.0207,45.3073,鸡西市,欧美日汽修厂,,18,14,24,11,18,56,56,,,4,8,5,6,0.3,0.3
2025-12-17T0300,3709A,130.9967,45.3106,鸡西市,市政设施管理处,,19,13,32,6,18,58,58,,,5,12,7,9,0.4,0.4
2025-12-17T0300,2367A,114.9754,27.0803,吉安市,红声器材厂,颗粒物(PM10),51,51,50,28,27,12,12,,,42,30,6,9,0.5,0.4
2025-12-17T0300,2368A,114.9658,27.0999,吉安市,市森林工业局,,50,50,54,34,30,19,19,,,26,31,10,11,0.5,0.5
2025-12-17T0300,2369A,114.99,27.1312,吉安市,市环境监测站,细颗粒物(PM2.5),54,55,50,38,30,22,22,,,28,27,13,15,0.7,0.4
2025-12-17T0300,2370A,115.0093,27.0968,吉安市,青原区法院,颗粒物(PM10),51,52,50,29,28,0,0,,,46,28,9,12,0.5,0.5
2025-12-17T0300,1772A,126.54,43.8622,吉林市,哈达湾,细颗粒物(PM2.5),65,70,64,47,43,20,20,,,30,26,11,12,1.3,1.3
2025-12-17T0300,1773A,126.5844,43.8358,吉林市,东局子,细颗粒物(PM2.5),87,78,52,64,35,4,4,,,37,22,12,14,1.2,1
2025-12-17T0300,1774A,126.5052,43.8245,吉林市,电力学院,细颗粒物(PM2.5),74,71,68,54,52,10,10,,,35,31,12,32,1.3,1.3
2025-12-17T0300,1775A,126.6133,43.8972,吉林市,江北,细颗粒物(PM2.5),54,49,56,38,44,21,21,,,24,17,6,7,1.2,1.1
2025-12-17T0300,1776A,126.555,43.8306,吉林市,江南公园,细颗粒物(PM2.5),80,77,53,59,42,0,0,,,37,28,8,11,1.2,1
2025-12-17T0300,1778A,126.7061,43.7133,吉林市,丰满,细颗粒物(PM2.5),54,40,44,38,43,30,30,,,14,17,8,10,0.5,0.6
2025-12-17T0300,2868A,126.4739,43.953,吉林市,九站,细颗粒物(PM2.5),142,154,85,108,66,7,7,,,48,36,31,21,1.2,0.9
2025-12-17T0300,1299A,116.9862,36.6114,济南市,科干所,细颗粒物(PM2.5),113,141,164,85,98,16,16,,,39,63,7,10,1.3,1.4
2025-12-17T0300,1300A,116.9376,36.665,济南市,农科所,细颗粒物(PM2.5),102,120,171,76,97,1,1,,,46,69,1,6,1.1,1.4
2025-12-17T0300,1301A,117.1265,36.6734,济南市,开发区,细颗粒物(PM2.5),110,122,161,83,111,12,12,,,39,57,8,7,1.1,1.2
2025-12-17T0300,1303A,117.0624,36.6868,济南市,省种子仓库,细颗粒物(PM2.5),107,124,180,80,115,8,8,,,46,60,11,11,1.2,1.5
2025-12-17T0300,1304A,116.9489,36.6447,济南市,机床二厂,细颗粒物(PM2.5),113,122,173,85,122,10,10,,,43,61,9,13,1.0,1.4
2025-12-17T0300,1305A,117.0495,36.663,济南市,市监测站,细颗粒物(PM2.5),98,122,169,73,112,6,6,,,42,57,5,5,1.0,1.2
2025-12-17T0300,1306A,116.7675,36.5484,济南市,长清党校,细颗粒物(PM2.5),125,156,177,95,113,0,0,,,48,63,5,10,1.4,1.5
2025-12-17T0300,1616A,117.6795,36.229,济南市,技术学院,细颗粒物(PM2.5),138,141,138,105,97,9,9,,,47,51,2,8,1.0,1.2
2025-12-17T0300,1961A,117.532,36.6868,济南市,东山小学,细颗粒物(PM2.5),123,132,172,93,110,5,5,,,42,57,4,7,1.1,1.3
2025-12-17T0300,3059A,117.7161,36.2049,济南市,泰兴公司,细颗粒物(PM2.5),128,134,145,97,104,30,30,,,33,45,2,8,0.7,1
2025-12-17T0300,3064A,117.6867,36.2171,济南市,莱芜战役纪念馆,细颗粒物(PM2.5),133,136,144,101,105,26,26,,,37,45,4,10,0.6,0.9
2025-12-17T0300,3494A,117.1673,36.9782,济南市,济阳区政府,细颗粒物(PM2.5),80,93,172,59,111,15,15,,,39,59,4,14,0.6,1.3
2025-12-17T0300,3495A,117.1171,36.63,济南市,锦屏中学,细颗粒物(PM2.5),129,156,154,98,102,24,24,,,35,48,4,6,1.2,1.3
2025-12-17T0300,3682A,116.9814,36.6819,济南市,济南四建,细颗粒物(PM2.5),102,110,167,76,111,7,7,,,45,64,7,9,1.1,1.5
2025-12-17T0300,1653A,116.6251,35.4302,济宁市,火炬城,细颗粒物(PM2.5),213,198,154,163,117,5,5,,,61,53,6,8,1.6,1
2025-12-17T0300,1655A,116.5491,35.4042,济宁市,电化厂,细颗粒物(PM2.5),216,268,203,166,116,5,5,,,74,64,11,12,1.6,0.9
2025-12-17T0300,3500A,116.5814,35.3707,济宁市,北湖一中,细颗粒物(PM2.5),211,196,141,161,113,6,6,,,60,55,8,10,1.6,1
2025-12-17T0300,3501A,116.8249,35.5593,济宁市,服务中心,细颗粒物(PM2.5),180,214,174,136,102,6,6,,,44,47,12,15,1.1,1
2025-12-17T0300,3678A,116.5907,35.4054,济宁市,市第七中学,细颗粒物(PM2.5),201,179,145,151,102,7,7,,,66,59,11,13,1.6,1.1
2025-12-17T0300,2255A,130.2751,46.8028,佳木斯市,佳纺,,18,18,27,3,16,43,43,,,12,16,3,3,0.5,0.5
2025-12-17T0300,2256A,130.3995,46.8307,佳木斯市,发电厂,,,,,,,,,,,,,,,,
2025-12-17T0300,2257A,130.3258,46.7975,佳木斯市,环保局,,26,26,23,8,16,47,47,,,10,14,3,3,0.2,0.3
2025-12-17T0300,2258A,130.3648,46.8032,佳木斯市,十一中,,,,,,,,,,,,,,,,
2025-12-17T0300,2259A,130.3794,46.7588,佳木斯市,四丰,,,,,,,,,,,,,,,,
2025-12-17T0300,1252A,120.7436,30.778,嘉兴市,清河小学,细颗粒物(PM2.5),74,88,85,54,48,2,2,,,82,70,7,7,0.4,0.4
2025-12-17T0300,1253A,120.726,30.7478,嘉兴市,嘉兴学院,,,93,81,55,45,3,3,,,85,68,,8,1.0,0.9
2025-12-17T0300,2872A,120.7846,30.7525,嘉兴市,南湖区残联,,,99,75,61,46,8,8,,,77,62,,5,0.9,0.7
2025-12-17T0300,3407A,120.6916,30.7739,嘉兴市,秀洲住建,,,93,86,58,48,3,3,,,75,69,,8,0.4,0.5
2025-12-17T0300,1945A,98.2908,39.7711,嘉峪关市,气象局,颗粒物(PM10),73,95,66,41,22,20,20,,,35,20,69,14,1.2,0.7
2025-12-17T0300,2884A,98.2672,39.7978,嘉峪关市,酒钢宾馆,颗粒物(PM10),62,73,74,29,22,35,35,,,24,23,37,18,0.8,0.7
2025-12-17T0300,3248A,98.2643,39.7724,嘉峪关市,雄关区,颗粒物(PM10),56,62,56,26,27,6,6,,,62,30,36,16,1.0,0.8
2025-12-17T0300,1383A,113.1064,22.6058,江门市,北街,细颗粒物(PM2.5),84,92,99,62,63,19,19,,,73,93,14,12,0.7,0.8
2025-12-17T0300,1384A,113.0731,22.5835,江门市,西区,颗粒物(PM10),79,108,125,51,71,30,30,,,79,106,19,11,0.6,0.9
2025-12-17T0300,1385A,113.0219,22.5311,江门市,圭峰西,细颗粒物(PM2.5),150,158,97,115,70,21,21,,,78,70,6,7,0.9,0.8
2025-12-17T0300,1386A,113.0828,22.5947,江门市,东湖,细颗粒物(PM2.5),99,107,118,74,64,22,22,,,76,89,16,10,0.5,0.6
2025-12-17T0300,3311A,113.1075,22.5647,江门市,江海富民,细颗粒物(PM2.5),99,131,126,74,49,26,26,,,86,100,18,12,0.8,0.9
2025-12-17T0300,3449A,113.05,22.4667,江门市,新会银湖,细颗粒物(PM2.5),158,,105,120,87,22,22,,,46,73,6,8,0.9,0.9
2025-12-17T0300,1830A,113.1992,35.2590,焦作市,影视城,,,,149,,88,,,38,,,42,,6,,1.1
2025-12-17T0300,3335A,113.3137,35.2641,焦作市,马村街道办,细颗粒物(PM2.5),178,161,161,134,118,24,24,,,28,40,6,10,1.3,1.3
2025-12-17T0300,3336A,113.2465,35.2373,焦作市,焦作技师学院,细颗粒物(PM2.5),178,175,167,134,116,10,10,,,43,44,,12,1.4,1.3
2025-12-17T0300,3477A,113.1656,35.2539,焦作市,中站许衡医院,细颗粒物(PM2.5),196,177,160,147,116,28,28,,,36,42,10,11,1.4,1.3
2025-12-17T0300,3981A,113.2449,35.1803,焦作市,原李万街道办,细颗粒物(PM2.5),195,195,170,146,121,5,5,,,55,37,9,11,1.3,1.2
2025-12-17T0300,4264A,113.2340,35.2190,焦作市,新安路1731号,细颗粒物(PM2.5),192,193,168,144,121,1,1,,,56,46,17,12,1.4,1.4
2025-12-17T0300,4295A,113.2722,35.2121,焦作市,人民路3066号,细颗粒物(PM2.5),152,186,175,116,102,6,6,,,46,46,6,9,1.4,1.2
2025-12-17T0300,1708A,116.3701,23.5345,揭阳市,新兴,细颗粒物(PM2.5),90,80,74,67,44,20,20,,,54,38,12,11,0.9,0.7
2025-12-17T0300,1709A,116.3264,23.5443,揭阳市,西马,细颗粒物(PM2.5),125,109,80,95,46,9,9,,,71,36,15,8,0.9,0.7
2025-12-17T0300,1710A,116.3611,23.5626,揭阳市,东兴,细颗粒物(PM2.5),82,,79,60,43,44,44,,,34,38,12,12,0.8,0.8
2025-12-17T0300,1711A,116.4151,23.5294,揭阳市,渔湖,颗粒物(PM10),70,90,81,48,38,16,16,,,60,43,8,7,0.9,0.9
2025-12-17T0300,3320A,116.403,23.5699,揭阳市,曲溪,细颗粒物(PM2.5),72,80,85,52,45,48,48,,,32,42,9,13,0.6,0.6
2025-12-17T0300,1944A,102.1692,38.5167,金昌市,天庆家园,颗粒物(PM10),65,80,97,31,37,19,19,,,41,31,37,38,0.7,0.9
2025-12-17T0300,4022A,102.1647,38.5371,金昌市,金川区人防中心,细颗粒物(PM2.5),97,125,90,72,41,12,12,,,41,30,204,90,1.0,0.9
2025-12-17T0300,4239A,102.1930,38.5319,金昌市,长春路96号,二氧化硫,97,108,95,51,40,25,25,,,34,29,475,100,0.8,1
2025-12-17T0300,1262A,119.647,29.077,金华市,十五中,,,,80,,46,,,32,,,54,,4,,0.7
2025-12-17T0300,1263A,119.686,29.1029,金华市,监测站,,,,80,,42,,,23,,,60,,5,,0.9
2025-12-17T0300,3659A,119.656,29.1131,金华市,气象局,细颗粒物(PM2.5),112,150,94,84,54,3,3,,,77,70,10,7,0.9,0.9
2025-12-17T0300,1767A,121.1115,41.0879,锦州市,南山,细颗粒物(PM2.5),55,50,45,39,37,25,25,,,27,25,7,12,1.1,1
2025-12-17T0300,1768A,121.0604,40.8428,锦州市,开发区,颗粒物(PM10),52,53,51,28,39,30,30,,,26,29,48,18,0.7,0.7
2025-12-17T0300,1769A,121.1836,41.1119,锦州市,百股街道,,48,48,50,31,38,22,22,,,34,28,20,19,1.1,1
2025-12-17T0300,1770A,121.1178,41.1222,锦州市,天安街道,,49,49,46,34,36,12,12,,,44,25,13,13,1.0,0.9
2025-12-17T0300,1771A,121.1303,41.1386,锦州市,北湖公园,,48,48,49,27,35,28,28,,,20,21,11,14,0.7,0.8
2025-12-17T0300,2160A,112.85,35.5051,晋城市,自来水公司,颗粒物(PM10),76,102,109,39,42,22,22,,,46,37,8,11,1.6,1.9
2025-12-17T0300,2161A,112.8318,35.4936,晋城市,白云商贸,"颗粒物(PM10),细颗粒物(PM2.5)",79,108,97,58,38,32,32,,,24,29,5,6,1.2,1.3
2025-12-17T0300,2162A,112.8508,35.4887,晋城市,市环保局,颗粒物(PM10),86,121,113,63,54,17,17,,,35,33,5,10,1.5,1.7
2025-12-17T0300,2163A,112.8676,35.4897,晋城市,技术学院,"颗粒物(PM10),细颗粒物(PM2.5)",83,116,109,61,53,15,15,,,54,44,8,12,1.8,1.8
2025-12-17T0300,2165A,112.8453,35.546,晋城市,白马寺,细颗粒物(PM2.5),77,63,89,56,57,59,59,,,17,25,16,14,0.9,1.4
2025-12-17T0300,3620A,112.8271,35.4828,晋城市,泽州一中,细颗粒物(PM2.5),83,110,101,61,52,51,51,,,26,32,7,7,1.1,1.1
2025-12-17T0300,2173A,112.7249,37.7067,晋中市,南都小区,,,139,154,72,89,3,3,,,71,72,,23,1.7,2
2025-12-17T0300,2174A,112.6991,37.6982,晋中市,榆次区政府,细颗粒物(PM2.5),123,129,149,93,96,2,2,,,66,69,15,22,1.4,1.7
2025-12-17T0300,2865A,112.7195,37.6828,晋中市,榆次三中,细颗粒物(PM2.5),113,141,144,85,85,2,2,,,61,64,14,22,1.8,2
2025-12-17T0300,4200A,112.7478,37.6954,晋中市,迎宾街26号,细颗粒物(PM2.5),125,141,142,95,87,2,2,,,58,62,13,22,1.3,1.4
2025-12-17T0300,2439A,112.2014,31.0481,荆门市,竹园小学,细颗粒物(PM2.5),120,127,104,91,71,48,48,,,23,29,2,3,0.6,0.7
2025-12-17T0300,2440A,112.1969,30.9891,荆门市,掇刀,细颗粒物(PM2.5),118,132,106,89,72,69,69,,,17,29,4,5,0.6,0.7
2025-12-17T0300,2441A,112.2213,31.0386,荆门市,石化一小,细颗粒物(PM2.5),128,137,123,97,79,38,38,,,29,36,7,8,0.7,0.9
2025-12-17T0300,3012A,112.1849,31.0362,荆门市,西山林语,细颗粒物(PM2.5),112,119,97,84,62,71,71,,,18,24,7,7,0.8,0.9
2025-12-17T0300,3547A,112.1632,31.0138,荆门市,龙泉中学南校,细颗粒物(PM2.5),99,111,106,74,70,86,86,,,13,22,9,10,0.2,0.3
2025-12-17T0300,1844A,112.2494,30.3197,荆州市,市图书馆,细颗粒物(PM2.5),124,104,86,94,75,38,38,,,35,36,9,7,0.8,0.9
2025-12-17T0300,1845A,112.2008,30.3544,荆州市,市委党校,细颗粒物(PM2.5),137,121,96,104,78,34,34,,,39,42,5,4,0.8,0.9
2025-12-17T0300,3194A,112.2747,30.3122,荆州市,管委会,细颗粒物(PM2.5),119,114,86,90,75,19,19,,,44,37,7,6,0.9,0.9
2025-12-17T0300,4268A,112.1722,30.3366,荆州市,学苑路85号,细颗粒物(PM2.5),139,116,106,106,87,26,26,,,34,31,5,43,0.9,0.9
2025-12-17T0300,2342A,117.3102,29.3867,景德镇市,王港中学,,,,,,,,,,,,,,,,
2025-12-17T0300,2343A,117.2117,29.2933,景德镇市,老干部活动中心,,47,47,49,32,31,2,2,,,41,37,6,9,0.6,0.5
2025-12-17T0300,2344A,117.1894,29.2789,景德镇市,兽医站,细颗粒物(PM2.5),54,54,55,38,29,9,9,,,39,37,8,11,0.8,0.7
2025-12-17T0300,2346A,117.2461,29.2956,景德镇市,陶研所,颗粒物(PM10),56,61,45,38,31,2,2,,,34,31,4,4,0.7,0.6
2025-12-17T0300,4289A,117.1542,29.2566,景德镇市,青少年活动中心,细颗粒物(PM2.5),54,53,59,38,31,8,8,,,44,43,4,10,0.6,0.7
2025-12-17T0300,1803A,115.9872,29.6815,九江市,十里,颗粒物(PM10),65,80,72,46,48,5,5,,,80,62,9,8,1.1,1.1
2025-12-17T0300,1804A,115.9584,29.7046,九江市,茅山头,颗粒物(PM10),53,56,64,29,40,1,1,,,63,57,5,7,0.8,0.9
2025-12-17T0300,1805A,115.9877,29.7295,九江市,西园,细颗粒物(PM2.5),73,90,69,53,43,9,9,,,93,71,10,8,0.7,0.7
2025-12-17T0300,1808A,115.9114,29.6038,九江市,综合工业园,"颗粒物(PM10),细颗粒物(PM2.5)",70,90,60,51,42,54,54,,,45,55,7,5,0.9,0.8
2025-12-17T0300,1809A,116.0721,29.7535,九江市,石化总厂,细颗粒物(PM2.5),93,110,79,69,44,7,7,,,80,56,8,10,0.9,0.8
2025-12-17T0300,1810A,115.9773,29.5698,九江市,庐山气象台,,,,,,,,,,,,,,,,
2025-12-17T0300,3190A,116.0254,29.6994,九江市,外国语学校,颗粒物(PM10),70,89,67,50,41,14,14,,,89,61,13,13,0.6,0.5
2025-12-17T0300,4253A,116.0102,29.6594,九江市,莲花大道8号,细颗粒物(PM2.5),113,87,64,85,42,55,55,,,19,30,7,6,0.7,0.5
2025-12-17T0300,4240A,98.4958,39.7339,酒泉市,玉门东路5号,颗粒物(PM10),73,95,84,37,29,40,40,,,29,22,16,13,0.9,0.6
2025-12-17T0300,4241A,98.5099,39.7506,酒泉市,北大街108号,颗粒物(PM10),75,100,88,34,31,29,29,,,34,25,16,12,1.0,0.8
2025-12-17T0300,2698A,76.0072,39.4467,喀什地区,巡警大队,颗粒物(PM10),248,383,310,164,121,4,4,,,69,63,9,9,2.6,2.7
2025-12-17T0300,2699A,75.9755,39.4694,喀什地区,吾办,细颗粒物(PM2.5),201,296,271,151,135,2,2,,,71,62,12,7,2.8,2.5
2025-12-17T0300,4027A,75.9483,39.4689,喀什地区,老干局,颗粒物(PM10),309,427,329,181,123,3,3,,,87,61,9,8,5.5,3
2025-12-17T0300,1824A,114.3389,34.7781,开封市,肿瘤医院,细颗粒物(PM2.5),196,203,177,147,128,34,34,,,31,30,6,7,1.0,1.1
2025-12-17T0300,1826A,114.2885,34.7965,开封市,世纪星幼儿园,细颗粒物(PM2.5),216,190,166,166,145,31,31,,,36,33,4,6,1.0,1
2025-12-17T0300,3147A,114.3438,34.8106,开封市,龙亭公园,细颗粒物(PM2.5),226,185,180,176,155,25,25,,,39,37,4,5,0.8,0.8
2025-12-17T0300,3210A,114.3644,34.7964,开封市,汴京公园,细颗粒物(PM2.5),210,203,191,160,142,26,26,,,38,37,3,4,0.9,0.9
2025-12-17T0300,3473A,114.2485,34.8306,开封市,技师学院,细颗粒物(PM2.5),207,160,164,157,141,31,31,,,32,34,5,8,1.0,1.1
2025-12-17T0300,3592A,114.4644,34.7556,开封市,祥符区生态环境局,细颗粒物(PM2.5),214,223,209,164,143,35,35,,,30,31,8,5,0.9,0.9
2025-12-17T0300,1951A,84.895,45.6094,克拉玛依市,长征新村,细颗粒物(PM2.5),89,114,107,66,66,31,31,,,30,32,5,6,1.1,1.1
2025-12-17T0300,1952A,84.8988,45.5893,克拉玛依市,南林小区,颗粒物(PM10),91,132,104,45,49,32,32,,,21,21,3,4,1.0,1
2025-12-17T0300,1954A,84.905,44.3396,克拉玛依市,独山子区,细颗粒物(PM2.5),203,341,135,153,74,15,15,,,56,32,6,6,1.5,0.8
2025-12-17T0300,1955A,85.6979,46.098,克拉玛依市,乌尔禾区商贸楼,细颗粒物(PM2.5),68,80,89,49,62,44,44,,,14,18,5,6,0.9,0.9
2025-12-17T0300,3612A,85.1045,45.6899,克拉玛依市,白碱滩区新站,细颗粒物(PM2.5),82,110,121,60,65,44,44,,,19,26,8,9,0.7,0.8
2025-12-17T0300,2697A,76.1454,39.7142,克孜勒苏柯尔克孜自治州,市人民政府,颗粒物(PM10),145,240,243,81,87,49,49,,,16,22,6,8,0.5,0.6
2025-12-17T0300,3665A,76.1658,39.7157,克孜勒苏柯尔克孜自治州,克州文化中心,颗粒物(PM10),126,201,234,76,79,53,53,,,16,31,9,11,1.3,1.2
2025-12-17T0300,1450A,102.8204,24.8886,昆明市,呈贡新区,,44,44,31,24,20,11,11,,,43,25,10,6,0.9,0.8
2025-12-17T0300,1451A,102.6251,24.9608,昆明市,西山森林公园,,,,,,,,,,,,,,,,
2025-12-17T0300,1452A,102.7252,25.0902,昆明市,龙泉镇,,33,33,35,20,18,14,14,,,21,28,2,3,0.6,0.7
2025-12-17T0300,1453A,102.7266,25.0375,昆明市,东风东路,,41,41,39,25,24,1,1,,,44,28,4,5,0.5,0.5
2025-12-17T0300,1454A,102.6742,25.0669,昆明市,金鼎山,,48,48,45,25,24,15,15,,,33,34,3,4,0.6,0.7
2025-12-17T0300,1455A,102.6644,25.0401,昆明市,碧鸡广场,颗粒物(PM10),52,54,38,28,20,7,7,,,44,33,3,5,0.4,0.5
2025-12-17T0300,3179A,102.7494,25.0119,昆明市,官渡区博物馆,颗粒物(PM10),65,79,54,33,24,0,0,,,52,36,3,4,0.6,0.7
2025-12-17T0300,3375A,102.8017,24.8336,昆明市,青年创业园,,35,35,28,17,16,2,2,,,34,22,3,4,0.8,0.9
2025-12-17T0300,3550A,102.7997,24.9786,昆明市,昆明学院,颗粒物(PM10),73,96,45,47,23,1,1,,,46,29,2,3,0.8,0.7
2025-12-17T0300,3551A,102.5967,24.6736,昆明市,晋宁区生态环境分局,颗粒物(PM10),63,76,36,39,24,0,0,,,46,21,1,2,0.6,0.4
2025-12-17T0300,3552A,102.6678,24.9856,昆明市,云天化总部,,44,44,29,25,16,0,0,,,48,30,6,7,0.6,0.6
2025-12-17T0300,1456A,91.1319,29.6514,拉萨市,八廓街,,19,16,22,13,14,45,45,,,24,22,8,18,0.8,0.6
2025-12-17T0300,1457A,91.1221,29.6747,拉萨市,市环保局,,35,35,35,22,23,18,18,,,34,26,6,14,1.7,1.1
2025-12-17T0300,1458A,91.0874,29.6475,拉萨市,区监测站,,26,21,19,18,13,30,30,,,40,34,4,14,0.7,0.4
2025-12-17T0300,1459A,91.1774,29.6541,拉萨市,西藏大学,,20,20,22,11,13,54,54,,,19,21,6,18,0.3,0.4
2025-12-17T0300,1460A,90.9798,29.6588,拉萨市,区辐射站,,20,17,38,14,22,45,45,,,21,36,4,9,0.7,0.8
2025-12-17T0300,1461A,91.0834,29.6292,拉萨市,拉萨火车站,,24,24,27,15,14,27,27,,,43,34,5,10,1.0,0.8
2025-12-17T0300,2520A,109.2203,23.7256,来宾市,来宾技工学校,细颗粒物(PM2.5),75,68,78,55,50,17,17,,,20,26,6,10,0.9,0.9
2025-12-17T0300,3535A,109.1781,23.7297,来宾市,兴宾区政府,细颗粒物(PM2.5),63,70,67,45,40,30,30,,,14,18,5,8,0.8,0.8
2025-12-17T0300,4002A,109.2416,23.7461,来宾市,中南小学,颗粒物(PM10),64,77,81,45,42,0,0,,,41,34,5,9,1.0,1
2025-12-17T0300,1477A,104.1373,35.9454,兰州市,榆中兰大校区,,,,,,,,,,,,,,,,
2025-12-17T0300,1479A,103.831,36.0464,兰州市,铁路设计院,,,,,,,,,,,,,,,,
2025-12-17T0300,3241A,103.7439,36.0842,兰州市,百合公园,细颗粒物(PM2.5),63,60,107,45,66,5,5,,,57,76,15,20,1.1,1.6
2025-12-17T0300,3242A,103.9611,35.998,兰州市,和平,细颗粒物(PM2.5),57,60,99,40,68,34,34,,,27,38,7,20,0.9,1.5
2025-12-17T0300,4236A,103.6293,36.0938,兰州市,庄浪东路808号,颗粒物(PM10),59,67,100,39,56,14,14,,,52,68,11,21,0.8,1.2
2025-12-17T0300,4237A,103.7251,36.1043,兰州市,安宁西路88号,颗粒物(PM10),79,108,125,45,64,2,2,,,71,83,11,16,1.0,1.1
2025-12-17T0300,4238A,103.8470,36.0676,兰州市,北滨河东路1号,颗粒物(PM10),68,86,105,48,59,2,2,,,65,71,11,19,1.1,1.6
2025-12-17T0300,3245A,103.6633,36.533,兰州新区,新区管委会,细颗粒物(PM2.5),64,69,88,46,50,26,26,,,28,35,11,18,0.7,0.7
2025-12-17T0300,3246A,103.6975,36.4789,兰州新区,舟曲中学,颗粒物(PM10),71,92,96,35,41,26,26,,,42,37,9,20,0.8,0.8
2025-12-17T0300,1067A,116.6708,39.5111,廊坊市,药材公司,细颗粒物(PM2.5),114,127,107,86,68,2,2,,,73,59,14,10,1.3,1.2
2025-12-17T0300,1068A,116.7214,39.5589,廊坊市,开发区,细颗粒物(PM2.5),123,129,102,93,68,1,1,,,74,60,12,7,1.3,1
2025-12-17T0300,1070A,116.7244,39.5269,廊坊市,北华航天学院,细颗粒物(PM2.5),98,113,107,73,63,4,4,,,64,55,24,9,1.1,1
2025-12-17T0300,2919A,116.7022,39.5453,廊坊市,河北工业大学,细颗粒物(PM2.5),104,141,117,78,61,0,0,,,72,56,22,11,1.1,1
2025-12-17T0300,2535A,103.7723,29.5462,乐山市,花湖湾,,,,,,,,,,,,,,,,
2025-12-17T0300,2536A,103.7627,29.5844,乐山市,牛耳桥,细颗粒物(PM2.5),112,126,122,84,79,1,1,,,28,33,7,7,0.8,0.8
2025-12-17T0300,2537A,103.7508,29.6006,乐山市,市第三水厂,细颗粒物(PM2.5),119,124,122,90,83,1,1,,,36,39,6,7,1.1,1.1
2025-12-17T0300,2538A,103.7571,29.5664,乐山市,市监测站,细颗粒物(PM2.5),115,122,126,87,82,0,0,,,28,31,8,10,0.9,0.9
2025-12-17T0300,3361A,103.7311,29.5628,乐山市,理工大学,细颗粒物(PM2.5),124,128,128,94,84,1,1,,,33,32,5,6,0.9,0.9
2025-12-17T0300,2598A,100.2143,26.8576,丽江市,西南郊,,,,,,,,,,,,,,,,
2025-12-17T0300,2599A,100.2497,26.8802,丽江市,丽江古城,,31,31,26,17,11,46,46,,,17,14,9,8,0.6,0.5
2025-12-17T0300,2600A,100.2203,26.8906,丽江市,市中心,,26,26,26,11,11,52,52,,,12,16,6,7,0.4,0.5
2025-12-17T0300,1267A,119.914,28.4514,丽水市,监测站大楼,,,40,52,30,31,0,0,,,33,40,,8,0.4,0.5
2025-12-17T0300,1268A,119.93,28.4586,丽水市,莲都小学,,38,38,54,15,21,8,8,,,35,43,5,5,0.3,0.4
2025-12-17T0300,1269A,119.879,28.4231,丽水市,余庄前,,37,37,46,24,28,0,0,,,23,28,4,5,0.4,0.4
2025-12-17T0300,1173A,119.176,34.5885,连云港市,市环境监测站,细颗粒物(PM2.5),119,129,123,90,82,35,35,,,23,51,8,17,0.7,1
2025-12-17T0300,3000A,119.3581,34.6972,连云港市,德源药业,细颗粒物(PM2.5),100,119,132,75,77,54,54,,,18,57,5,10,0.7,0.8
2025-12-17T0300,3007A,119.178,34.844,连云港市,新城一中,细颗粒物(PM2.5),128,138,127,97,94,32,32,,,36,61,9,15,1.2,1.2
2025-12-17T0300,3008A,119.3608,34.7519,连云港市,胡沟管理处,细颗粒物(PM2.5),98,119,114,73,69,49,49,,,19,44,7,16,1.0,1.3
2025-12-17T0300,3009A,119.1478,34.5911,连云港市,矿山设计院,细颗粒物(PM2.5),156,139,134,119,78,37,37,,,18,43,7,15,0.9,1.1
2025-12-17T0300,3434A,119.2413,34.6539,连云港市,工贸学校,细颗粒物(PM2.5),145,153,121,111,81,38,38,,,27,43,12,16,1.4,1
2025-12-17T0300,3664A,119.4172,34.7341,连云港市,连云街道,细颗粒物(PM2.5),128,127,125,97,77,52,52,,,25,45,6,14,0.7,1.2
2025-12-17T0300,2571A,102.3431,27.8099,凉山彝族自治州,青龙寺,,,,,,,,,,,,,,,,
2025-12-17T0300,2572A,102.2721,27.8415,凉山彝族自治州,邛海宾馆,,32,32,54,17,33,64,64,,,10,20,7,12,0.4,0.9
2025-12-17T0300,2573A,102.2625,27.898,凉山彝族自治州,西昌市政府,,26,26,41,10,31,62,62,,,4,17,6,9,0.3,0.8
2025-12-17T0300,2574A,102.2685,27.8851,凉山彝族自治州,凉山州政府,,38,,50,26,33,51,51,,,7,20,8,11,0.5,0.9
2025-12-17T0300,4229A,102.2342,27.8859,凉山彝族自治州,凯乐南路30号,,25,25,61,11,38,34,34,,,34,42,7,10,0.5,1.2
2025-12-17T0300,2212A,123.2,41.1953,辽阳市,宏伟区,细颗粒物(PM2.5),72,68,88,52,65,15,15,,,30,30,8,10,0.7,0.9
2025-12-17T0300,2213A,123.1683,41.2495,辽阳市,新华园,细颗粒物(PM2.5),69,72,88,50,62,17,17,,,36,34,14,16,0.9,0.9
2025-12-17T0300,2214A,123.2354,41.2639,辽阳市,滨河路,细颗粒物(PM2.5),65,76,103,47,63,10,10,,,36,34,9,10,0.7,0.9
2025-12-17T0300,2215A,123.149,41.2991,辽阳市,铁西工业园,细颗粒物(PM2.5),63,61,83,45,58,1,1,,,37,34,9,11,0.7,0.9
2025-12-17T0300,2227A,125.1358,42.8845,辽源市,环保局,颗粒物(PM10),90,130,116,55,44,5,5,,,32,21,2,4,1.0,0.8
2025-12-17T0300,3239A,125.0764,42.9078,辽源市,银鹰制药,细颗粒物(PM2.5),85,90,57,63,40,7,7,,,31,19,6,4,0.8,0.5
2025-12-17T0300,1625A,115.9848,36.4372,聊城市,区政府,细颗粒物(PM2.5),155,169,177,118,122,14,14,,,54,56,14,13,1.4,1.2
2025-12-17T0300,2878A,116.0072,36.4343,聊城市,聊大东校,细颗粒物(PM2.5),160,178,191,122,125,14,14,,,56,56,10,12,1.5,1.3
2025-12-17T0300,3200A,115.9819,36.4978,聊城市,监控中心,细颗粒物(PM2.5),185,189,190,139,142,8,8,,,56,50,11,12,1.7,1.4
2025-12-17T0300,3513A,116.0445,36.4361,聊城市,九州社区,细颗粒物(PM2.5),165,186,184,125,120,14,14,,,51,47,4,7,1.4,1.2
2025-12-17T0300,4018A,116.0567,36.4608,聊城市,星美广场,细颗粒物(PM2.5),179,199,195,135,127,15,15,,,49,49,3,7,1.4,1.2
2025-12-17T0300,2632A,94.3681,29.6376,林芝市,林芝监测站,,24,17,21,3,10,75,75,,,1,15,5,5,0.4,0.5
2025-12-17T0300,2633A,94.3616,29.6616,林芝市,林芝人民医院,,,,,,,,,,,,,,,,
2025-12-17T0300,2603A,100.0781,23.8982,临沧市,市环保局,细颗粒物(PM2.5),55,,29,39,33,21,21,,,6,9,4,4,0.6,0.6
2025-12-17T0300,2604A,100.0894,23.8822,临沧市,市气象局,,32,25,30,22,19,21,21,,,10,11,5,6,0.4,0.4
2025-12-17T0300,1733A,111.5531,36.0783,临汾市,临钢医院,细颗粒物(PM2.5),148,195,228,113,124,3,3,,,46,48,8,13,2.3,2.8
2025-12-17T0300,1734A,111.5028,36.0714,临汾市,技工学校,细颗粒物(PM2.5),204,270,236,154,124,0,0,,,57,51,8,14,3.1,2.8
2025-12-17T0300,1736A,111.5018,36.0855,临汾市,市委,细颗粒物(PM2.5),201,288,251,151,131,1,1,,,62,59,10,17,3.3,3.2
2025-12-17T0300,3018A,111.505,36.1014,临汾市,唐尧大酒店,细颗粒物(PM2.5),190,242,224,143,125,1,1,,,55,56,5,12,3.2,3.2
2025-12-17T0300,4244A,111.4879,36.0530,临汾市,启星学校,细颗粒物(PM2.5),186,274,222,140,124,5,5,,,66,61,6,12,3.5,3.3
2025-12-17T0300,4271A,103.2464,35.6123,临夏回族自治州,滨河东路1号,细颗粒物(PM2.5),142,168,154,108,97,0,0,,,37,39,7,11,1.7,1.8
2025-12-17T0300,4310A,103.2093,35.5995,临夏回族自治州,新华街21号,细颗粒物(PM2.5),179,180,153,135,109,8,8,,,36,36,8,14,2.3,2
2025-12-17T0300,1618A,118.3429,35.0532,临沂市,沂河小区,细颗粒物(PM2.5),175,144,143,132,112,20,20,,,45,52,8,14,0.8,1
2025-12-17T0300,1619A,118.295,35.0583,临沂市,鲁南制药厂,细颗粒物(PM2.5),148,141,139,113,101,25,25,,,47,53,9,17,0.8,1.2
2025-12-17T0300,1620A,118.2794,34.9976,临沂市,新光毛纺厂,细颗粒物(PM2.5),142,127,146,108,106,31,31,,,33,56,8,18,1.0,1.4
2025-12-17T0300,1621A,118.3956,35.0888,临沂市,河东保险公司,细颗粒物(PM2.5),122,136,141,92,90,22,22,,,35,47,7,13,0.7,1
2025-12-17T0300,3370A,118.3564,35.0215,临沂市,十里堡居委,细颗粒物(PM2.5),113,124,137,85,82,30,30,,,35,55,8,16,0.8,1.1
2025-12-17T0300,3496A,118.3604,35.1084,临沂市,南坊新区,细颗粒物(PM2.5),125,134,133,95,91,16,16,,,52,50,8,15,1.2,1.3
2025-12-17T0300,3860A,118.3920,35.0300,临沂市,皇山花园小区,细颗粒物(PM2.5),120,139,147,91,89,33,33,,,32,57,10,18,1.0,1.2
2025-12-17T0300,1870A,109.4856,24.3895,柳州市,柳东小学,细颗粒物(PM2.5),114,109,71,86,48,49,49,,,11,13,25,15,0.7,0.7
2025-12-17T0300,1871A,109.4157,24.3277,柳州市,环保监测站,细颗粒物(PM2.5),107,105,102,80,56,27,27,,,29,38,20,19,1.0,1.2
2025-12-17T0300,1872A,109.389,24.341,柳州市,河西水厂,细颗粒物(PM2.5),109,136,118,82,53,23,23,,,41,39,9,22,0.7,0.9
2025-12-17T0300,1873A,109.4311,24.2921,柳州市,市四中,细颗粒物(PM2.5),90,111,87,67,47,32,32,,,31,38,16,17,1.2,1.2
2025-12-17T0300,1874A,109.4006,24.3631,柳州市,市九中,细颗粒物(PM2.5),95,116,111,71,58,29,29,,,31,37,39,22,0.8,0.9
2025-12-17T0300,1875A,109.4958,24.3134,柳州市,古亭山,细颗粒物(PM2.5),78,76,63,57,42,4,4,,,40,34,12,11,0.9,0.8
2025-12-17T0300,3402A,109.5422,24.3996,柳州市,市二中,细颗粒物(PM2.5),120,102,69,91,50,37,37,,,23,25,17,12,0.8,0.5
2025-12-17T0300,2307A,116.5079,31.737,六安市,监测大楼,细颗粒物(PM2.5),166,166,85,126,53,18,18,,,41,35,3,4,0.7,0.6
2025-12-17T0300,2308A,116.4738,31.7643,六安市,皖西学院,细颗粒物(PM2.5),166,174,94,126,57,20,20,,,40,40,2,3,0.7,0.5
2025-12-17T0300,2309A,116.4996,31.7905,六安市,朝阳厂,细颗粒物(PM2.5),159,151,83,121,54,18,18,,,38,38,2,4,0.8,0.7
2025-12-17T0300,2310A,116.5567,31.7886,六安市,开发区,细颗粒物(PM2.5),150,170,112,115,59,15,15,,,40,48,1,3,0.6,0.5
2025-12-17T0300,2576A,104.8,26.5892,六盘水市,窑上,,,,59,14,43,33,33,,,8,11,2,2,0.2,0.2
2025-12-17T0300,2577A,104.83,26.5917,六盘水市,黄土坡,,21,21,47,14,35,34,34,,,9,16,5,5,0.6,0.7
2025-12-17T0300,2578A,104.89,26.5939,六盘水市,水钢,,23,23,43,15,35,25,25,,,16,13,7,3,0.8,0.6
2025-12-17T0300,2579A,104.8475,26.5894,六盘水市,民中,,15,15,42,7,35,31,31,,,8,15,3,3,0.3,0.4
2025-12-17T0300,2580A,104.9544,26.5506,六盘水市,双水,,19,19,39,12,32,34,34,,,9,12,3,3,0.5,0.5
2025-12-17T0300,2335A,117.0189,25.1181,龙岩市,龙岩师专,,,,,,,,,,,,,,,,
2025-12-17T0300,2336A,117.0217,25.1033,龙岩市,龙岩市监测站,,49,45,44,34,28,7,7,,,46,37,12,18,0.8,0.7
2025-12-17T0300,2337A,117.0258,25.0661,龙岩市,闽西职业技术学院,颗粒物(PM10),52,53,45,27,24,7,7,,,39,32,22,14,0.5,0.6
2025-12-17T0300,2338A,117.0196,25.0306,龙岩市,龙岩学院,,40,37,35,28,24,18,18,,,25,19,6,7,0.5,0.5
2025-12-17T0300,2665A,105.0822,33.3261,陇南市,汉王镇固水子,,,,,,,,,,,,,,,,
2025-12-17T0300,2885A,104.9339,33.3826,陇南市,滨江中学,细颗粒物(PM2.5),78,77,118,57,67,0,0,,,52,52,16,23,2.7,3
2025-12-17T0300,3247A,104.955,33.371,陇南市,市总工会,细颗粒物(PM2.5),53,54,128,37,60,18,18,,,28,45,6,10,0.9,1.8
2025-12-17T0300,2487A,111.9589,27.8901,娄底市,电视发射台,,,,,,,,,,,,,,,,
2025-12-17T0300,2488A,111.9975,27.725,娄底市,市监测站,细颗粒物(PM2.5),109,113,106,82,70,4,4,,,60,50,8,18,1.9,1.4
2025-12-17T0300,2489A,112.0194,27.7314,娄底市,市委党校,细颗粒物(PM2.5),109,113,107,82,66,1,1,,,55,46,9,15,1.4,1.4
2025-12-17T0300,2490A,111.9561,27.7569,娄底市,涟钢,细颗粒物(PM2.5),117,114,131,88,84,18,18,,,26,46,7,18,1.1,1.3
2025-12-17T0300,2491A,111.9892,27.7044,娄底市,市政府,细颗粒物(PM2.5),122,121,113,92,74,2,2,,,26,37,7,20,1.6,1.7
2025-12-17T0300,1893A,105.4324,28.9634,泸州市,九狮山,,,,,,,,,,,,,,,,
2025-12-17T0300,1894A,105.4427,28.9063,泸州市,小市上码头,细颗粒物(PM2.5),87,103,121,64,77,14,14,,,26,29,21,12,1.0,1.1
2025-12-17T0300,1895A,105.4241,28.8573,泸州市,兰田宪桥,细颗粒物(PM2.5),84,87,109,62,72,14,14,,,20,27,7,8,0.7,0.8
2025-12-17T0300,1896A,105.4379,28.8833,泸州市,市环监站,细颗粒物(PM2.5),85,97,116,63,76,21,21,,,18,29,10,11,0.7,0.8
2025-12-17T0300,4272A,105.3689,28.7783,泸州市,纳溪中医医院,细颗粒物(PM2.5),92,82,95,68,72,7,7,,,16,26,8,8,0.7,0.8
2025-12-17T0300,2183A,111.1406,37.5211,吕梁市,环保局,,,108,85,53,38,,,,,54,50,6,8,0.7,0.7
2025-12-17T0300,2185A,111.1297,37.5136,吕梁市,自来水公司,细颗粒物(PM2.5),98,118,93,73,47,2,2,,,50,41,13,11,0.9,0.8
2025-12-17T0300,2867A,111.1283,37.51,吕梁市,马茂庄小学,颗粒物(PM10),83,116,96,39,41,0,0,,,51,47,6,10,0.7,0.7
2025-12-17T0300,1812A,112.3931,34.6516,洛阳市,市委党校,细颗粒物(PM2.5),204,179,138,154,99,6,6,,,60,54,9,12,1.3,1.2
2025-12-17T0300,1815A,112.494,34.6886,洛阳市,河南林校,细颗粒物(PM2.5),209,177,142,159,112,2,2,,,58,53,7,10,1.3,1.1
2025-12-17T0300,1816A,112.3844,34.623,洛阳市,开发区管委会,细颗粒物(PM2.5),214,223,152,164,104,10,10,,,45,44,8,19,1.2,1
2025-12-17T0300,1817A,112.4267,34.6258,洛阳市,市委新办公区,细颗粒物(PM2.5),201,223,157,151,98,2,2,,,55,48,9,11,1.4,1.1
2025-12-17T0300,3340A,112.6005,34.6326,洛阳市,伊滨,细颗粒物(PM2.5),193,217,159,145,106,1,1,,,45,46,6,9,1.5,1.1
2025-12-17T0300,3341A,112.4951,34.6332,洛阳市,中移产业园,细颗粒物(PM2.5),202,191,144,152,106,2,2,,,68,53,12,13,1.5,1.2
2025-12-17T0300,3593A,112.5736,34.8993,洛阳市,吉利监测站,细颗粒物(PM2.5),218,189,142,168,117,5,5,,,49,46,7,10,1.4,1.1
2025-12-17T0300,3635A,112.3677,34.662,洛阳市,河科大西苑校区,细颗粒物(PM2.5),180,181,137,136,90,5,5,,,53,51,,12,1.2,1.1
2025-12-17T0300,3636A,112.4388,34.6781,洛阳市,英才小学,细颗粒物(PM2.5),186,184,141,140,103,0,0,,,60,54,10,13,1.5,1.4
2025-12-17T0300,4214A,112.4600,34.6949,洛阳市,春都路1号院,细颗粒物(PM2.5),159,196,158,121,87,2,2,,,55,52,7,10,1.4,1.3
2025-12-17T0300,2399A,114.051,33.5699,漯河市,三五一五工厂,细颗粒物(PM2.5),240,238,181,190,131,33,33,,,29,32,7,8,1.1,1
2025-12-17T0300,2400A,114.0055,33.5698,漯河市,漯河大学,细颗粒物(PM2.5),221,225,166,171,122,34,34,,,36,35,6,7,0.8,0.7
2025-12-17T0300,2401A,114.0138,33.5828,漯河市,市水利局,颗粒物(PM10),140,229,171,,122,34,34,,,34,34,7,8,1.0,0.9
2025-12-17T0300,2402A,114.0261,33.5698,漯河市,市广电局,细颗粒物(PM2.5),226,227,172,176,126,38,38,,,27,32,7,7,1.0,0.9
2025-12-17T0300,3478A,113.9749,33.5664,漯河市,市图书馆,细颗粒物(PM2.5),235,256,186,185,127,30,30,,,33,35,6,5,0.9,0.8
2025-12-17T0300,4250A,114.0892,33.5882,漯河市,韶山路11号,细颗粒物(PM2.5),220,242,181,170,126,23,23,,,35,41,,9,0.9,0.8
2025-12-17T0300,1798A,118.5092,31.6837,马鞍山市,湖东路四小,细颗粒物(PM2.5),90,119,103,67,54,13,13,,,66,64,29,13,1.0,1.2
2025-12-17T0300,1799A,118.5024,31.6449,马鞍山市,开发区,细颗粒物(PM2.5),100,121,107,75,58,2,2,,,72,64,6,7,0.9,1
2025-12-17T0300,1802A,118.6245,31.7241,马鞍山市,濮塘,,,,,,,,,,,,,,,,
2025-12-17T0300,3633A,118.4918,31.6809,马鞍山市,雨山,细颗粒物(PM2.5),97,121,98,72,53,7,7,,,78,63,46,17,1.5,1.1
2025-12-17T0300,4191A,118.5274,31.72227,马鞍山市,慈湖高新区,细颗粒物(PM2.5),108,134,109,81,61,12,12,,,70,65,6,14,0.8,1.1
2025-12-17T0300,1686A,111.0286,21.4688,茂名市,电白南海,颗粒物(PM10),53,56,64,29,37,46,46,,,30,26,19,16,0.7,0.7
2025-12-17T0300,1687A,110.9294,21.6533,茂名市,茂石化七小,颗粒物(PM10),52,53,54,29,25,37,37,,,28,25,20,16,0.6,0.6
2025-12-17T0300,1688A,110.9107,21.6687,茂名市,健康路,,46,46,49,29,27,39,39,,,27,26,30,19,0.8,0.8
2025-12-17T0300,1689A,110.8592,21.6828,茂名市,高岭,颗粒物(PM10),54,58,85,34,35,32,32,,,26,34,15,20,0.8,0.9
2025-12-17T0300,3450A,111.01,21.5165,茂名市,电白水东,"颗粒物(PM10),细颗粒物(PM2.5)",62,73,55,44,30,37,37,,,30,22,38,15,1.0,0.9
2025-12-17T0300,2539A,104.0308,30.0478,眉山市,黑龙滩水库,,,,,,,,,,,,,,,,
2025-12-17T0300,2540A,103.8416,30.0874,眉山市,气象局,细颗粒物(PM2.5),140,117,129,107,91,0,0,,,33,35,9,12,0.8,0.7
2025-12-17T0300,3137A,103.8578,30.0744,眉山市,市委党校,细颗粒物(PM2.5),113,110,122,85,79,1,1,,,38,39,6,8,0.8,0.7
2025-12-17T0300,3148A,103.8291,30.0564,眉山市,区人社局,细颗粒物(PM2.5),153,147,129,117,88,0,0,,,40,40,5,8,1.4,1.3
2025-12-17T0300,1690A,116.1231,24.3284,梅州市,梅江月梅,,50,50,45,25,25,5,5,,,45,31,8,6,0.6,0.6
2025-12-17T0300,1691A,116.0797,24.2719,梅州市,梅县新城,,36,32,35,25,29,32,32,,,20,31,7,8,0.6,0.8
2025-12-17T0300,1692A,116.1248,24.2654,梅州市,环境监控中心,,46,42,46,32,29,5,5,,,49,37,22,14,0.5,0.5
2025-12-17T0300,3315A,116.1233,24.2991,梅州市,梅龙,颗粒物(PM10),52,53,47,26,26,2,2,,,47,31,8,9,0.9,0.9
2025-12-17T0300,1878A,104.7778,31.4741,绵阳市,富乐山,细颗粒物(PM2.5),107,116,102,80,63,18,18,,,33,30,10,11,0.9,0.8
2025-12-17T0300,1880A,104.6697,31.4668,绵阳市,高新区自来水公司,,,,137,,78,,,38,,,51,,8,,0.8
2025-12-17T0300,1881A,104.7287,31.5075,绵阳市,三水厂,细颗粒物(PM2.5),152,172,141,116,89,1,1,,,44,49,6,8,0.9,0.9
2025-12-17T0300,3491A,104.69,31.5322,绵阳市,西科大附属小学,细颗粒物(PM2.5),138,186,146,105,85,3,3,,,55,48,7,9,1.3,1
2025-12-17T0300,3492A,104.5648,31.5343,绵阳市,安州区旅游局,细颗粒物(PM2.5),163,156,132,124,94,7,7,,,27,38,15,15,0.9,0.9
2025-12-17T0300,4226A,104.7651,31.4531,绵阳市,绵阳市气象局,细颗粒物(PM2.5),129,144,118,98,67,0,0,,,49,43,7,7,1.0,0.8
2025-12-17T0300,1784A,129.61,44.561,牡丹江市,环保大楼,,20,20,31,8,21,40,40,,,12,13,9,8,0.2,0.3
2025-12-17T0300,1785A,129.6115,44.5782,牡丹江市,文化广场,,29,28,35,20,24,39,39,,,10,11,8,6,0.4,0.3
2025-12-17T0300,1786A,129.5904,44.5963,牡丹江市,第一医院,,,,,,,,,,,,,,,,
2025-12-17T0300,1787A,129.6364,44.6075,牡丹江市,机车工厂,,26,25,40,18,23,38,38,,,19,16,9,18,0.2,0.3
2025-12-17T0300,1788A,129.6386,44.5462,牡丹江市,第一中学,,,27,28,21,21,,,,,8,10,6,5,0.4,0.4
2025-12-17T0300,2531A,105.0703,29.61,内江市,市监测站,细颗粒物(PM2.5),140,111,105,107,84,24,24,,,27,25,5,5,0.9,0.8
2025-12-17T0300,2532A,105.0717,29.5947,内江市,东兴区政府,细颗粒物(PM2.5),140,124,111,107,82,14,14,,,32,34,4,5,0.7,0.7
2025-12-17T0300,2533A,105.0653,29.5817,内江市,内江二中,细颗粒物(PM2.5),155,152,134,118,93,11,11,,,33,37,4,5,1.0,0.9
2025-12-17T0300,2534A,105.0406,29.5822,内江市,内江日报社,细颗粒物(PM2.5),138,149,114,105,85,26,26,,,28,38,3,3,0.8,0.7
2025-12-17T0300,2628A,92.0657,31.4846,那曲市,那曲监测站,,44,44,59,25,35,14,14,,,41,28,8,12,3.0,1.5
2025-12-17T0300,4243A,92.0515,31.4787,那曲市,那曲市委宣传部,,19,19,16,11,8,21,21,,,26,12,4,4,1.4,0.7
2025-12-17T0300,1290A,115.8931,28.6843,南昌市,省外办,细颗粒物(PM2.5),73,69,76,53,54,43,43,,,37,50,12,10,1.3,1.4
2025-12-17T0300,1291A,115.8886,28.7003,南昌市,省林业公司,细颗粒物(PM2.5),64,70,70,46,46,16,16,,,71,57,7,7,0.9,0.9
2025-12-17T0300,1292A,115.8126,28.7442,南昌市,林科所,颗粒物(PM10),59,68,61,36,31,25,25,,,56,51,10,7,0.6,0.6
2025-12-17T0300,1294A,115.8518,28.687,南昌市,建工学校,颗粒物(PM10),63,76,79,41,45,24,24,,,60,59,15,13,0.9,0.9
2025-12-17T0300,1295A,115.8921,28.6424,南昌市,象湖,细颗粒物(PM2.5),64,64,70,46,46,33,33,,,45,55,12,11,0.7,0.8
2025-12-17T0300,1296A,115.7423,28.7996,南昌市,武术学校,,,,,,,,,,,,,,,,
2025-12-17T0300,3046A,115.9084,28.6062,南昌市,机电学校,"颗粒物(PM10),细颗粒物(PM2.5)",64,77,84,46,48,21,21,,,56,51,7,6,0.6,0.6
2025-12-17T0300,3690A,115.9721,28.7031,南昌市,外国语学校,细颗粒物(PM2.5),74,70,73,54,51,16,16,,,68,40,13,15,0.6,0.7
2025-12-17T0300,4192A,115.9316,28.68677,南昌市,南京东路235号,细颗粒物(PM2.5),72,69,84,52,50,38,38,,,43,46,9,10,0.7,0.9
2025-12-17T0300,1905A,106.056,30.8064,南充市,西山风景区,,,,,,,,,,,,,,,,
2025-12-17T0300,1906A,106.0789,30.8023,南充市,南充市委,细颗粒物(PM2.5),92,94,102,68,69,0,0,,,29,34,4,5,0.7,0.7
2025-12-17T0300,1907A,106.1031,30.8217,南充市,南充炼油厂,细颗粒物(PM2.5),115,118,116,87,77,1,1,,,29,30,5,6,0.9,0.9
2025-12-17T0300,4227A,106.1083,30.7884,南充市,梨树横街98号,细颗粒物(PM2.5),107,112,113,80,66,4,4,,,35,28,6,6,0.7,0.7
2025-12-17T0300,4304A,106.1172,30.843,南充市,清泉寺北路188号,细颗粒物(PM2.5),115,96,95,87,67,3,3,,,31,28,6,6,0.8,0.7
2025-12-17T0300,4305A,106.067,30.7616,南充市,同庆路1号,细颗粒物(PM2.5),94,100,104,70,64,0,0,,,33,33,6,8,0.6,0.7
2025-12-17T0300,1151A,118.8086,32.1065,南京市,迈皋桥,细颗粒物(PM2.5),70,83,79,51,42,24,24,,,52,46,3,5,0.7,0.6
2025-12-17T0300,1152A,118.7538,32.0551,南京市,草场门,颗粒物(PM10),79,107,96,46,45,16,16,,,70,73,8,6,1.1,1
2025-12-17T0300,1153A,118.7794,32.0745,南京市,山西路,颗粒物(PM10),81,112,104,56,46,10,10,,,90,77,4,4,0.8,1
2025-12-17T0300,1154A,118.7752,32.0023,南京市,中华门,颗粒物(PM10),75,100,83,53,44,0,0,,,75,59,5,4,1.1,0.9
2025-12-17T0300,1155A,118.8109,32.0309,南京市,瑞金路,颗粒物(PM10),71,92,95,51,53,2,2,,,103,79,4,4,0.7,0.9
2025-12-17T0300,1156A,118.7997,32.0754,南京市,玄武湖,颗粒物(PM10),74,97,89,53,42,11,11,,,65,49,4,4,0.7,0.9
2025-12-17T0300,1157A,118.6414,32.0931,南京市,浦口,颗粒物(PM10),75,99,88,48,41,53,53,,,27,37,9,11,0.7,0.8
2025-12-17T0300,1158A,118.7356,31.9996,南京市,奥体中心,颗粒物(PM10),70,89,86,48,45,10,10,,,83,73,7,8,0.7,0.8
2025-12-17T0300,1159A,118.9125,32.1028,南京市,仙林大学城,细颗粒物(PM2.5),79,97,97,58,44,0,0,,,94,70,9,11,0.8,1
2025-12-17T0300,3422A,118.8436,31.9198,南京市,江宁彩虹桥,颗粒物(PM10),80,109,91,58,46,3,3,,,92,72,5,6,1.6,1.1
2025-12-17T0300,3427A,118.8554,32.3578,南京市,六合雄州,细颗粒物(PM2.5),79,104,92,58,48,21,21,,,61,52,7,9,0.5,0.5
2025-12-17T0300,4249A,118.8708,31.3402,南京市,汶溪路181号,细颗粒物(PM2.5),99,98,79,74,62,9,9,,,75,57,8,9,0.7,0.8
2025-12-17T0300,4312A,119.019,31.6512,南京市,中山西路1号,细颗粒物(PM2.5),74,75,70,54,55,1,1,,,72,55,4,5,1.1,1
2025-12-17T0300,1401A,108.3103,22.7881,南宁市,二十一中,细颗粒物(PM2.5),64,54,65,46,49,27,27,,,26,34,8,7,0.9,0.8
2025-12-17T0300,1402A,108.3141,22.8528,南宁市,北湖,细颗粒物(PM2.5),67,71,74,48,49,0,0,,,56,50,10,13,0.8,0.8
2025-12-17T0300,1403A,108.3206,22.8225,南宁市,市监测站,细颗粒物(PM2.5),67,74,70,48,43,26,26,,,31,40,8,11,1.0,0.9
2025-12-17T0300,1404A,108.3829,22.8037,南宁市,大自然花园,细颗粒物(PM2.5),62,71,69,44,45,41,41,,,25,34,9,8,0.8,0.8
2025-12-17T0300,1405A,108.4394,22.7904,南宁市,仙葫,,,,,,,,,,,,,,,,
2025-12-17T0300,1406A,108.2397,22.8467,南宁市,区农职院,细颗粒物(PM2.5),62,64,71,44,43,0,0,,,37,44,6,11,0.8,0.8
2025-12-17T0300,1407A,108.3275,22.735,南宁市,英华嘉园,细颗粒物(PM2.5),60,59,68,43,50,27,27,,,30,35,5,5,0.7,0.7
2025-12-17T0300,3401A,108.4834,22.7618,南宁市,红星社区,"颗粒物(PM10),细颗粒物(PM2.5)",52,54,63,36,40,40,40,,,15,28,7,8,0.8,0.8
2025-12-17T0300,4221A,108.2177,22.7774,南宁市,乐贤路16号,细颗粒物(PM2.5),78,88,91,57,47,0,0,,,47,54,7,7,0.7,0.7
2025-12-17T0300,2331A,118.0966,26.6761,南平市,茫荡山,,,,17,,,,,86,,,,,1,,0.3
2025-12-17T0300,2332A,118.1681,26.6369,南平市,南平市监测站,,30,28,37,21,27,3,3,,,34,25,4,5,0.5,0.7
2025-12-17T0300,2333A,118.1825,26.6489,南平市,南平铝业有限公司,,33,31,37,23,28,2,2,,,38,29,7,8,0.6,0.7
2025-12-17T0300,2334A,118.1756,26.6272,南平市,南平七中,,30,26,33,21,24,8,8,,,29,20,4,6,0.6,0.6
2025-12-17T0300,1168A,120.9098,31.9663,南通市,狼山街道,细颗粒物(PM2.5),123,117,85,93,53,21,21,,,60,61,6,11,0.9,1.2
2025-12-17T0300,1169A,120.86,32.0005,南通市,虹桥,细颗粒物(PM2.5),112,101,87,84,60,20,20,,,61,72,6,13,0.9,1.2
2025-12-17T0300,1170A,120.87,32.02,南通市,城中,细颗粒物(PM2.5),128,128,105,97,61,26,26,,,61,79,8,14,1.1,1.4
2025-12-17T0300,1171A,120.94,31.93,南通市,星湖花园,细颗粒物(PM2.5),104,106,88,78,58,18,18,,,70,69,6,12,0.9,1.3
2025-12-17T0300,1172A,120.81,32.0417,南通市,紫琅学院,细颗粒物(PM2.5),134,136,106,102,61,9,9,,,68,72,8,10,0.8,1
2025-12-17T0300,3291A,121.067,32.062,南通市,通州监测站,细颗粒物(PM2.5),134,119,89,102,65,53,53,,,38,54,5,7,1.0,0.9
2025-12-17T0300,3432A,120.9348,31.9883,南通市,环境教育馆,细颗粒物(PM2.5),113,102,88,85,60,13,13,,,63,69,6,12,0.7,1
2025-12-17T0300,2404A,112.5224,33.0122,南阳市,瓦房庄,细颗粒物(PM2.5),160,141,126,122,96,60,60,,,18,27,10,8,1.0,0.9
2025-12-17T0300,2405A,112.5003,32.9735,南阳市,汉画馆,细颗粒物(PM2.5),132,140,127,100,87,59,59,,,19,30,8,7,1.2,1.1
2025-12-17T0300,2406A,112.5573,33.027,南阳市,气象站,细颗粒物(PM2.5),138,161,142,105,88,59,59,,,20,26,9,7,1.1,0.9
2025-12-17T0300,2407A,112.5481,32.9689,南阳市,理工学院,细颗粒物(PM2.5),123,131,114,93,73,55,55,,,24,27,8,7,0.9,0.8
2025-12-17T0300,4008A,112.5234,32.9922,南阳市,卧龙区政府,细颗粒物(PM2.5),132,150,136,100,90,60,60,,,22,33,9,7,0.9,0.9
2025-12-17T0300,1234A,121.8358,29.911,宁波市,区环保大楼,颗粒物(PM10),68,86,74,45,34,1,1,,,75,77,8,8,0.9,0.8
2025-12-17T0300,1235A,121.56,29.82,宁波市,万里学院,,,96,73,58,38,2,2,,,63,66,,7,0.8,0.7
2025-12-17T0300,1236A,121.713,29.9572,宁波市,龙赛医院,颗粒物(PM10),86,122,85,58,41,0,0,,,70,70,5,4,0.6,0.5
2025-12-17T0300,1239A,121.633,29.7733,宁波市,钱湖水厂,颗粒物(PM10),65,79,65,42,33,6,6,,,57,53,6,7,0.6,0.5
2025-12-17T0300,1240A,121.5856,29.8635,宁波市,太古小学,细颗粒物(PM2.5),93,116,73,69,41,1,1,,,61,55,4,4,1.2,0.9
2025-12-17T0300,1241A,121.524,29.8674,宁波市,市环境监测中心,细颗粒物(PM2.5),65,77,68,47,40,2,2,,,43,51,6,6,0.9,0.9
2025-12-17T0300,2871A,121.6147,29.9017,宁波市,万里国际学校,细颗粒物(PM2.5),94,113,72,70,42,2,2,,,78,68,5,5,1.2,0.8
2025-12-17T0300,3710A,121.5594,29.8975,宁波市,白沙活动中心,细颗粒物(PM2.5),74,88,64,54,37,1,1,,,68,63,5,5,0.9,0.8
2025-12-17T0300,2339A,119.5001,26.6946,宁德市,金涵水库,,,,27,,15,,,44,,,12,,1,,0.4
2025-12-17T0300,2341A,119.5388,26.6612,宁德市,宁德市监测站,,22,16,30,15,17,33,33,,,14,21,6,6,0.5,0.6
2025-12-17T0300,3209A,119.5231,26.6562,宁德市,宁德一中,,22,22,29,15,22,27,27,,,13,16,5,5,0.5,0.5
2025-12-17T0300,2618A,98.8601,25.8567,怒江傈僳族自治州,州监测站,,25,25,24,16,16,33,33,,,11,10,8,8,0.4,0.4
2025-12-17T0300,2619A,98.8546,25.8417,怒江傈僳族自治州,泸水一中,,19,19,26,13,18,17,17,,,13,17,5,5,0.4,0.5
2025-12-17T0300,1888A,101.6891,26.571,攀枝花市,弄弄坪,,40,35,60,28,35,30,30,,,20,28,7,7,0.8,1.4
2025-12-17T0300,1889A,101.5769,26.5928,攀枝花市,河门口,,46,46,58,28,36,14,14,,,26,26,15,19,1.3,1.4
2025-12-17T0300,1890A,101.7169,26.585,攀枝花市,炳草岗,"颗粒物(PM10),细颗粒物(PM2.5)",59,67,86,42,48,0,0,,,53,46,8,14,1.1,1.4
2025-12-17T0300,1891A,101.7369,26.5008,攀枝花市,仁和,,39,39,50,26,33,20,20,,,17,23,7,13,0.9,1.3
2025-12-17T0300,2835A,101.7227,26.567,攀枝花市,四十中小,细颗粒物(PM2.5),68,74,78,49,52,4,4,,,54,47,10,17,1.2,1.7
2025-12-17T0300,1604A,122.0303,41.1489,盘锦市,开发区,,35,35,48,22,39,42,42,,,10,12,3,5,0.4,0.6
2025-12-17T0300,1605A,122.0485,41.0883,盘锦市,兴隆台,,36,36,43,23,34,43,43,,,16,20,7,8,0.5,0.6
2025-12-17T0300,1606A,121.8297,41.1028,盘锦市,新生街道,,33,33,42,22,31,13,13,,,39,27,12,11,0.3,0.4
2025-12-17T0300,1832A,113.3257,33.742,平顶山市,新华旅馆,细颗粒物(PM2.5),124,143,149,94,94,56,56,,,28,38,12,11,0.9,0.9
2025-12-17T0300,1833A,113.2919,33.737,平顶山市,规划设计院,细颗粒物(PM2.5),112,142,158,84,95,63,63,,,25,39,10,8,0.7,0.7
2025-12-17T0300,1834A,113.182,33.774,平顶山市,平顶山工学院,细颗粒物(PM2.5),134,152,136,102,88,34,34,,,35,30,9,10,0.8,0.7
2025-12-17T0300,3204A,113.3025,33.73,平顶山市,规划局,细颗粒物(PM2.5),118,139,149,89,92,64,64,,,25,38,11,10,0.8,0.8
2025-12-17T0300,3594A,112.8867,33.9116,平顶山市,石龙区,细颗粒物(PM2.5),147,169,145,112,88,27,27,,,51,47,11,11,1.0,0.9
2025-12-17T0300,2656A,106.6692,35.5461,平凉市,聚贤嘉苑,,33,33,50,23,25,37,37,,,24,28,3,5,0.6,0.6
2025-12-17T0300,2657A,106.7021,35.5307,平凉市,博物馆,,38,38,49,23,25,37,37,,,24,24,9,4,0.6,0.6
2025-12-17T0300,2347A,114.0997,27.5002,萍乡市,武功山,,,,,,,,,,,,,,,,
2025-12-17T0300,2348A,113.8385,27.6434,萍乡市,中医院,细颗粒物(PM2.5),89,101,91,66,51,1,1,,,43,44,9,16,1.7,2.1
2025-12-17T0300,2349A,113.8493,27.6253,萍乡市,市政府车库,细颗粒物(PM2.5),115,92,92,87,65,3,3,,,37,43,8,16,2.1,3.3
2025-12-17T0300,2350A,113.8676,27.6435,萍乡市,市环保局,细颗粒物(PM2.5),108,113,80,81,49,2,2,,,38,39,13,22,1.8,1.5
2025-12-17T0300,2351A,113.866,27.6198,萍乡市,安源区政府,细颗粒物(PM2.5),110,87,80,83,62,0,0,,,35,40,10,17,1.8,2.3
2025-12-17T0300,2319A,119.0141,25.4325,莆田市,荔城区仓后路,,45,45,46,30,24,25,25,,,24,21,3,4,0.6,0.6
2025-12-17T0300,2320A,119.0015,25.4553,莆田市,莆田市监测站,,23,23,30,14,16,30,30,,,8,10,4,4,0.5,0.5
2025-12-17T0300,2321A,119.1119,25.4561,莆田市,涵江区六中,,36,36,41,24,22,24,24,,,20,22,3,4,0.5,0.6
2025-12-17T0300,2322A,119.1013,25.3215,莆田市,秀屿区政府,,45,38,38,31,22,28,28,,,28,17,5,5,0.7,0.6
2025-12-17T0300,2323A,118.981,25.4792,莆田市,东圳水库,,,,27,,19,,,83,,,11,,4,,0.9
2025-12-17T0300,2392A,115.0312,35.7636,濮阳市,环保局,细颗粒物(PM2.5),165,138,153,125,121,20,20,,,45,40,9,8,2.1,1.6
2025-12-17T0300,2394A,115.0574,35.7609,濮阳市,油田运输公司,细颗粒物(PM2.5),169,180,180,128,124,18,18,,,55,46,10,8,1.7,1.4
2025-12-17T0300,3021A,115,35.7668,濮阳市,濮水河管理处,细颗粒物(PM2.5),210,182,194,160,157,6,6,,,43,35,8,9,1.2,1.1
2025-12-17T0300,4216A,115.0924,35.7686,濮阳市,任丘路479号,细颗粒物(PM2.5),179,178,192,135,135,7,7,,,58,49,6,6,1.4,1.3
2025-12-17T0300,2601A,100.98,22.7633,普洱市,市环保局,,27,27,34,10,13,30,30,,,4,8,4,4,0.4,0.4
2025-12-17T0300,2602A,100.9817,22.8322,普洱市,普洱第二中学,,38,,33,26,16,3,3,,,18,14,5,5,0.3,0.3
2025-12-17T0300,2262A,131.0518,45.8751,七台河市,新一中,,,,,,,,,,,,,,,,
2025-12-17T0300,3345A,131.0577,45.7879,七台河市,中波台,,38,35,39,26,21,43,43,,,11,12,11,8,0.5,0.5
2025-12-17T0300,3637A,131.0176,45.7761,七台河市,人民广场,细颗粒物(PM2.5),64,,41,46,31,37,37,,,21,17,10,9,0.7,0.5
2025-12-17T0300,3684A,130.8781,45.8222,七台河市,新建矿广场,,35,27,51,24,30,38,38,,,11,11,7,11,0.3,0.3
2025-12-17T0300,1779A,123.9305,47.3636,齐齐哈尔市,安居小区,,45,45,40,30,22,20,20,,,25,20,6,6,0.8,0.8
2025-12-17T0300,1780A,123.9488,47.3386,齐齐哈尔市,中心广场,,46,46,35,19,19,18,18,,,26,22,8,7,0.7,0.7
2025-12-17T0300,1781A,123.9483,47.3227,齐齐哈尔市,农牧车辆厂,颗粒物(PM10),57,63,45,19,20,13,13,,,27,20,6,8,0.8,0.7
2025-12-17T0300,1783A,123.945,47.2988,齐齐哈尔市,市环境监测站,,46,46,56,26,28,20,20,,,28,23,6,9,0.5,0.6
2025-12-17T0300,3662A,123.6333,47.2075,齐齐哈尔市,富区青少年活动中心,颗粒物(PM10),66,82,55,41,25,16,16,,,28,21,9,8,0.9,1
2025-12-17T0300,2591A,107.9783,26.5747,黔东南苗族侗族自治州,市环境监测站,细颗粒物(PM2.5),74,78,71,54,46,21,21,,,21,22,5,7,0.6,0.7
2025-12-17T0300,2881A,107.8908,26.5311,黔东南苗族侗族自治州,凯里学院,细颗粒物(PM2.5),78,85,66,57,39,24,24,,,20,18,4,5,0.8,0.8
2025-12-17T0300,2593A,107.5228,26.2403,黔南布依族苗族自治州,小围寨,细颗粒物(PM2.5),100,97,57,75,43,22,22,,,12,12,9,7,0.7,0.7
2025-12-17T0300,3538A,107.5175,26.2978,黔南布依族苗族自治州,沙坝,细颗粒物(PM2.5),89,85,60,66,43,19,19,,,20,16,7,6,0.9,0.8
2025-12-17T0300,2589A,104.9022,25.0925,黔西南布依族苗族自治州,场坝街,,35,31,41,24,22,48,48,,,7,9,2,2,0.6,0.6
2025-12-17T0300,2590A,104.8811,25.0992,黔西南布依族苗族自治州,坪东大道,,30,30,37,16,23,50,50,,,5,8,5,5,0.7,0.7
2025-12-17T0300,2502A,108.6236,21.9667,钦州市,市环保站,细颗粒物(PM2.5),64,73,73,46,39,35,35,,,30,27,4,3,1.4,0.9
2025-12-17T0300,2503A,108.6549,21.9481,钦州市,沙埠小学,细颗粒物(PM2.5),69,70,73,50,57,56,56,,,18,28,8,6,0.7,1
2025-12-17T0300,2504A,108.5989,21.7431,钦州市,港区一小,细颗粒物(PM2.5),64,73,60,46,38,21,21,,,43,33,8,6,0.9,0.8
2025-12-17T0300,3404A,108.5959,21.9633,钦州市,北职校,细颗粒物(PM2.5),65,65,63,47,46,33,33,,,16,22,6,6,0.9,0.9
2025-12-17T0300,1043A,119.7493,40.0116,秦皇岛市,第一关,,49,,51,34,35,5,5,,,63,40,8,8,0.4,0.4
2025-12-17T0300,1044A,119.5897,39.9499,秦皇岛市,监测站,,45,45,62,26,34,9,9,,,56,39,10,10,0.7,0.7
2025-12-17T0300,1046A,119.5251,39.9041,秦皇岛市,建设大厦,颗粒物(PM10),58,65,61,40,40,5,5,,,61,33,8,7,0.9,0.6
2025-12-17T0300,3132A,119.610547,39.943889,秦皇岛市,文明里,,42,42,62,17,27,23,23,,,30,30,11,11,0.4,0.4
2025-12-17T0300,4198A,119.5090,39.8253,秦皇岛市,北戴河轮滑馆,,49,49,57,28,32,21,21,,,42,22,6,7,0.4,0.4
2025-12-17T0300,1307A,120.6659,36.2403,青岛市,仰口,,,,,,,,,,,,,,,,
2025-12-17T0300,1310A,120.4134,36.0658,青岛市,市南区东部子站,细颗粒物(PM2.5),89,110,137,66,72,42,42,,,23,44,9,12,0.9,1
2025-12-17T0300,1311A,120.3664,36.1032,青岛市,四方区子站,细颗粒物(PM2.5),89,100,132,66,78,48,48,,,19,45,4,6,0.9,1.1
2025-12-17T0300,1312A,120.2994,36.054,青岛市,市南区西部子站,细颗粒物(PM2.5),83,90,129,61,72,42,42,,,21,44,4,7,0.9,1.1
2025-12-17T0300,1313A,120.4581,36.0858,青岛市,崂山区子站,细颗粒物(PM2.5),89,100,126,66,64,48,48,,,22,46,10,12,0.9,1
2025-12-17T0300,1315A,120.3999,36.3083,青岛市,城阳区子站,颗粒物(PM10),67,83,135,46,65,55,55,,,16,46,7,10,0.8,1.1
2025-12-17T0300,3362A,120.5014,36.4034,青岛市,即墨2号,细颗粒物(PM2.5),89,93,140,66,90,36,36,,,25,51,6,11,0.9,1.1
2025-12-17T0300,3642A,120.3503,36.0736,青岛市,市北区南部,颗粒物(PM10),91,131,139,61,72,45,45,,,17,48,4,8,1.0,1.1
2025-12-17T0300,3643A,120.3948,36.1805,青岛市,李沧区北部,细颗粒物(PM2.5),94,90,130,70,84,42,42,,,25,51,8,11,1.0,1.2
2025-12-17T0300,4290A,120.1969,35.9546,青岛市,珠江路669号,细颗粒物(PM2.5),92,95,139,68,81,31,31,,,28,63,9,15,0.7,0.9
2025-12-17T0300,4291A,120.0424,35.8656,青岛市,黄岛区人民政府广场,细颗粒物(PM2.5),79,88,130,58,76,44,44,,,27,44,7,10,0.9,1.1
2025-12-17T0300,1702A,113.0426,23.691,清远市,环保大楼,,,,,,,,,,,,,,,,
2025-12-17T0300,1703A,113.0208,23.7106,清远市,凤城街办,颗粒物(PM10),53,55,54,35,30,14,14,,,40,46,6,7,0.8,0.8
2025-12-17T0300,3025A,113.0477,23.6344,清远市,技师学院,颗粒物(PM10),60,69,61,34,31,2,2,,,63,53,8,7,0.9,0.8
2025-12-17T0300,3318A,112.9903,23.7403,清远市,清新太和,,39,39,47,23,25,36,36,,,32,34,8,9,0.6,0.6
2025-12-17T0300,3455A,113.076,23.7198,清远市,清城东城,,45,45,49,29,26,20,20,,,27,32,5,6,0.5,0.5
2025-12-17T0300,2661A,107.6325,35.7357,庆阳市,庆阳五中,颗粒物(PM10),61,71,71,23,30,61,61,,,18,17,6,7,0.5,0.5
2025-12-17T0300,2662A,107.6364,35.7067,庆阳市,市环保局,颗粒物(PM10),60,70,69,19,24,71,71,,,14,15,5,4,0.5,0.5
2025-12-17T0300,1916A,103.7897,25.5035,曲靖市,环境监测站,,40,40,34,24,17,52,52,,,11,16,5,6,0.9,0.8
2025-12-17T0300,1917A,103.8,25.5364,曲靖市,烟厂办公区,,48,34,35,33,20,48,48,,,13,23,6,6,0.6,0.5
2025-12-17T0300,3376A,103.7947,25.462,曲靖市,南苑二区,,44,44,32,28,16,51,51,,,14,11,8,5,0.6,0.4
2025-12-17T0300,3377A,103.7444,25.5261,曲靖市,曲靖师范学院,细颗粒物(PM2.5),55,,41,39,30,53,53,,,10,19,3,4,0.4,0.5
2025-12-17T0300,1264A,118.8692,28.9398,衢州市,环保大楼,,,89,86,50,50,3,3,,,56,66,,9,1.0,1.1
2025-12-17T0300,1265A,118.8709,28.9666,衢州市,实验学校,颗粒物(PM10),61,71,72,36,39,2,2,,,56,58,6,5,1.1,1.1
2025-12-17T0300,1266A,118.8621,28.9808,衢州市,衢州学院,颗粒物(PM10),59,67,66,39,39,1,1,,,57,57,7,9,0.8,0.8
2025-12-17T0300,1611A,118.5819,24.9117,泉州市,涂山街,细颗粒物(PM2.5),69,72,60,50,32,10,10,,,44,29,3,3,0.8,0.6
2025-12-17T0300,1612A,118.5972,24.8978,泉州市,津头埔,,,,62,,31,,,62,,,28,,4,,0.5
2025-12-17T0300,1613A,118.6663,24.9424,泉州市,万安,细颗粒物(PM2.5),54,51,49,38,25,30,30,,,24,28,3,4,0.6,0.6
2025-12-17T0300,1614A,118.6117,24.9604,泉州市,清源山,,,,36,,22,,,99,,,8,,2,,0.4
2025-12-17T0300,3529A,118.6333,24.9264,泉州市,城华南路,颗粒物(PM10),54,57,47,34,27,19,19,,,30,23,4,5,0.6,0.5
2025-12-17T0300,2626A,88.8876,29.2718,日喀则市,日喀则监测站,,17,12,43,6,16,52,52,,,6,23,11,20,0.3,0.7
2025-12-17T0300,3726A,88.8781,29.2426,日喀则市,林业技术推广中心,,23,23,29,10,12,40,40,,,8,10,9,10,0.8,0.8
2025-12-17T0300,1659A,119.471,35.4209,日照市,监测站,细颗粒物(PM2.5),80,80,129,59,76,60,60,,,23,41,7,12,0.7,1.1
2025-12-17T0300,1660A,119.523,35.4216,日照市,市政府广场,细颗粒物(PM2.5),82,88,119,60,71,54,54,,,19,40,5,10,0.9,1.2
2025-12-17T0300,1661A,119.5587,35.4044,日照市,港务局,细颗粒物(PM2.5),85,92,130,63,82,57,57,,,19,42,7,12,0.9,1.2
2025-12-17T0300,3507A,119.5328,35.4625,日照市,职业技术学院,细颗粒物(PM2.5),73,80,122,53,64,56,56,,,22,41,6,10,0.9,1.2
