timepoint,stationcode,longitude,latitude,area,positionname,primarypollutant,aqi,pm10,pm10_24h,pm2_5,pm2_5_24h,o3,o3_24h,o3_8h,o3_8h_24h,no2,no2_24h,so2,so2_24h,co,co_24h
2025-12-17T0900,2566A,102.1879,31.914,阿坝藏族羌族自治州,州农科所,,,,,,,,,,,,,,,,
2025-12-17T0900,2568A,102.2502,31.8896,阿坝藏族羌族自治州,马师校,,19,16,23,13,16,9,9,26,24,28,19,5,5,0.7,0.6
2025-12-17T0900,3994A,102.2165,31.9024,阿坝藏族羌族自治州,马尔康中学西区,,10,7,15,7,10,30,30,33,33,12,15,6,6,0.6,0.6
2025-12-17T0900,2695A,80.292,41.1694,阿克苏地区,电视台,颗粒物(PM10),167,284,295,83,89,12,12,14,14,40,51,7,11,0.5,1.1
2025-12-17T0900,2696A,80.2613,41.1551,阿克苏地区,艺术中心,颗粒物(PM10),162,273,272,97,94,17,17,18,18,40,55,5,4,0.9,1.1
2025-12-17T0900,2204A,105.6467,38.8363,阿拉善盟,西城区西花园,,,,,,,,,,,,,,,,
2025-12-17T0900,2205A,105.6985,38.8411,阿拉善盟,蒙二幼,,33,,56,23,18,75,75,82,82,16,11,9,10,0.8,0.7
2025-12-17T0900,2206A,105.724,38.8516,阿拉善盟,环保局新楼,,27,6,47,3,13,84,84,83,83,4,6,8,9,0.6,0.6
2025-12-17T0900,2708A,88.1264,47.8517,阿勒泰地区,市站,,43,43,37,21,22,27,27,32,29,45,49,6,7,0.3,0.6
2025-12-17T0900,2630A,80.1161,32.5,阿里地区,阿里监测站,,16,6,3,3,3,51,51,46,46,3,10,6,9,0.4,0.5
2025-12-17T0900,3192A,80.0903,32.5028,阿里地区,阿里藏医院,,17,17,18,9,11,36,36,35,35,12,13,14,13,0.6,0.7
2025-12-17T0900,2642A,109.0318,32.6537,安康市,香溪洞,,,,,,,,,,,,,,,,
2025-12-17T0900,2644A,109.0072,32.6975,安康市,汉滨区检察院,细颗粒物(PM2.5),63,56,69,45,41,7,7,4,4,17,28,4,5,0.8,0.9
2025-12-17T0900,4054A,109.0325,32.6913,安康市,市邮政管理局,细颗粒物(PM2.5),63,61,77,45,47,7,7,5,5,17,31,4,6,0.8,1
2025-12-17T0900,2291A,117.0809,30.5177,安庆市,环科院,细颗粒物(PM2.5),168,169,85,127,57,32,32,54,50,26,42,7,8,0.8,0.5
2025-12-17T0900,2292A,117.0331,30.5119,安庆市,马山宾馆,细颗粒物(PM2.5),158,166,85,120,57,32,32,58,53,30,40,6,7,0.8,0.6
2025-12-17T0900,2294A,116.9896,30.6145,安庆市,安庆大学,细颗粒物(PM2.5),176,164,86,133,59,41,41,65,60,20,19,4,8,0.7,0.5
2025-12-17T0900,3173A,117.0598,30.5351,安庆市,市人大,细颗粒物(PM2.5),172,159,91,130,61,27,27,52,47,31,38,8,9,0.7,0.6
2025-12-17T0900,3122A,105.9606,26.2611,安顺市,伍家关,,,,61,28,36,43,43,35,35,16,14,14,16,0.6,0.8
2025-12-17T0900,3123A,105.9408,26.2431,安顺市,凤凰山,,35,33,57,24,46,47,47,41,41,17,16,18,16,0.6,0.6
2025-12-17T0900,3124A,105.9439,26.2564,安顺市,金钟山,,36,35,53,25,42,44,44,40,40,15,13,20,15,0.6,0.7
2025-12-17T0900,3125A,105.8983,26.2481,安顺市,娄家坡,,36,31,59,25,45,48,48,42,42,16,16,13,19,0.6,0.8
2025-12-17T0900,1818A,114.4839,36.0621,安阳市,棉研所,,,,,,,,,,,,,,,,
2025-12-17T0900,1819A,114.3551,36.1017,安阳市,红庙街,细颗粒物(PM2.5),110,110,139,83,109,7,7,7,5,44,42,4,7,1.5,1.2
2025-12-17T0900,1820A,114.361,36.0681,安阳市,银杏小区,细颗粒物(PM2.5),115,122,147,87,121,8,8,5,3,38,38,4,6,1.5,1.1
2025-12-17T0900,3141A,114.3922,36.0878,安阳市,信访局,细颗粒物(PM2.5),120,112,149,91,119,9,9,18,16,43,38,5,7,1.7,1.1
2025-12-17T0900,3669A,114.4705,36.0637,安阳市,左辅环卫站,细颗粒物(PM2.5),148,149,176,113,131,10,10,21,18,39,35,3,4,1.5,1
2025-12-17T0900,3703A,114.2917,36.0949,安阳市,安钢职工学校,细颗粒物(PM2.5),122,122,149,92,119,13,13,10,10,34,41,5,7,1.5,1.2
2025-12-17T0900,1748A,123.044,41.1196,鞍山市,深沟寺,细颗粒物(PM2.5),69,77,75,50,48,12,12,14,12,43,33,14,10,1.5,0.9
2025-12-17T0900,1749A,123.011,41.0931,鞍山市,太阳城,,,86,77,58,52,,,10,9,41,35,18,17,1.6,1.1
2025-12-17T0900,1750A,123.0485,41.1442,鞍山市,太平,颗粒物(PM10),71,92,83,51,50,9,9,,,48,34,16,12,1.2,0.8
2025-12-17T0900,1751A,122.9642,41.0971,鞍山市,铁西三道街,细颗粒物(PM2.5),112,138,95,84,58,16,16,13,13,44,43,19,26,1.9,2.2
2025-12-17T0900,1753A,123.022,41.0821,鞍山市,明达新区,细颗粒物(PM2.5),89,96,74,66,51,14,14,16,14,31,27,15,15,1.4,0.6
2025-12-17T0900,1754A,123.1289,41.0228,鞍山市,千山,,,,65,,54,,,25,,,33,,7,,0.8
2025-12-17T0900,4201A,122.9446,41.0826,鞍山市,兴盛南路290号,细颗粒物(PM2.5),107,117,88,80,62,10,10,7,7,46,43,18,25,2.1,1.5
2025-12-17T0900,2195A,107.4212,40.761,巴彦淖尔市,附二中,,,,79,,34,,,7,7,35,33,6,7,0.9,0.8
2025-12-17T0900,2196A,107.37,40.7372,巴彦淖尔市,市环保大楼,,46,46,63,6,24,5,5,16,14,36,26,4,5,0.8,0.5
2025-12-17T0900,1956A,86.1472,41.7538,巴音郭楞蒙古自治州,孔雀公园,,,,300,87,55,1,1,4,4,70,60,8,10,0.7,0.9
2025-12-17T0900,1957A,86.1972,41.7166,巴音郭楞蒙古自治州,棉纺厂,颗粒物(PM10),106,161,188,26,34,3,3,13,13,63,48,6,8,0.9,1
2025-12-17T0900,1958A,86.2357,41.7173,巴音郭楞蒙古自治州,经济开发区,颗粒物(PM10),96,142,147,25,27,13,13,20,20,38,34,6,7,0.6,0.7
2025-12-17T0900,2914A,106.7677,31.8794,巴中市,苏山坪,,,,,,,,,,,,,,,,
2025-12-17T0900,3181A,106.7768,31.8526,巴中市,市五中,细颗粒物(PM2.5),77,81,90,56,59,1,1,1,1,20,24,5,5,1.2,1.1
2025-12-17T0900,3183A,106.7418,31.8654,巴中市,圣泉水务公司,细颗粒物(PM2.5),64,59,81,46,60,6,6,3,3,16,26,4,5,0.9,1
2025-12-17T0900,3616A,106.7616,31.8344,巴中市,市中心医院,细颗粒物(PM2.5),84,77,88,62,66,1,1,1,1,20,23,5,6,1.2,1.2
2025-12-17T0900,2235A,122.7911,45.6077,白城市,洮北区环保局,细颗粒物(PM2.5),104,96,49,78,35,19,19,24,23,29,28,9,7,0.7,0.3
2025-12-17T0900,2236A,122.8738,45.5725,白城市,市环保局,"颗粒物(PM10),细颗粒物(PM2.5)",62,73,38,44,28,16,16,14,13,24,22,7,6,0.6,0.4
2025-12-17T0900,2231A,126.4219,41.9171,白山市,喜丰,,,70,64,34,32,,,30,30,29,27,15,12,0.7,0.6
2025-12-17T0900,2232A,126.4077,41.9419,白山市,环保局,,50,49,43,35,36,20,20,28,26,31,23,10,11,0.9,0.8
2025-12-17T0900,2647A,104.1724,36.5446,白银市,第三小学,细颗粒物(PM2.5),64,74,63,46,33,9,9,22,20,57,41,40,36,1.6,0.9
2025-12-17T0900,2648A,104.1465,36.5482,白银市,动力公司,细颗粒物(PM2.5),57,58,54,40,30,24,24,47,44,36,28,23,18,1.4,1.1
2025-12-17T0900,2512A,106.6103,23.9011,百色市,市监测站,细颗粒物(PM2.5),79,73,72,58,44,10,10,7,6,34,30,10,13,1.1,1
2025-12-17T0900,2513A,106.6538,23.8859,百色市,市中心血站,细颗粒物(PM2.5),78,63,81,57,55,11,11,10,10,32,39,9,16,1.0,1
2025-12-17T0900,3406A,106.6085,23.8798,百色市,祈福高中,细颗粒物(PM2.5),70,51,97,51,55,6,6,3,3,36,44,6,11,1.0,1
2025-12-17T0900,2270A,117.396,32.939,蚌埠市,工人疗养院,细颗粒物(PM2.5),176,184,148,133,91,16,16,8,8,43,54,8,7,1.0,0.7
2025-12-17T0900,2271A,117.3605,32.9427,蚌埠市,百货大楼,细颗粒物(PM2.5),163,169,139,124,92,21,21,6,6,39,56,7,7,1.1,0.9
2025-12-17T0900,2273A,117.4185,32.8911,蚌埠市,蚌埠学院,细颗粒物(PM2.5),158,166,127,120,84,15,15,10,10,46,45,5,6,1.0,0.7
2025-12-17T0900,2274A,117.3533,32.9673,蚌埠市,淮上区政府,细颗粒物(PM2.5),165,185,150,125,100,13,13,3,3,45,51,11,11,1.0,0.7
2025-12-17T0900,2275A,117.3145,32.8977,蚌埠市,高新区,细颗粒物(PM2.5),165,163,144,125,98,24,24,6,6,35,51,9,9,1.0,0.8
2025-12-17T0900,3715A,117.3092,32.9314,蚌埠市,蚌埠田家炳中学,细颗粒物(PM2.5),186,185,156,140,102,17,17,3,3,42,54,8,7,1.0,0.7
2025-12-17T0900,1585A,109.8756,40.6532,包头市,市环境监测站,颗粒物(PM10),58,65,45,26,17,4,4,37,30,56,26,13,11,1.7,0.9
2025-12-17T0900,1587A,109.9991,40.5842,包头市,包头八中,细颗粒物(PM2.5),107,96,77,80,47,6,6,8,7,62,45,13,13,2.5,1.1
2025-12-17T0900,1588A,109.8538,40.6821,包头市,青山宾馆,细颗粒物(PM2.5),78,,42,57,29,7,7,34,27,60,30,10,8,1.9,0.8
2025-12-17T0900,1589A,109.8642,40.6288,包头市,惠龙物流,细颗粒物(PM2.5),67,70,54,48,30,4,4,33,25,62,35,20,13,2.4,1.1
2025-12-17T0900,1590A,110.0377,40.5546,包头市,东河鸿龙湾,细颗粒物(PM2.5),73,74,68,53,40,8,8,8,6,57,51,7,10,1.1,1
2025-12-17T0900,3283A,109.9154,40.5685,包头市,滨河大厦,细颗粒物(PM2.5),73,82,75,53,43,6,6,7,7,55,41,9,15,1.2,0.9
2025-12-17T0900,3419A,109.9447,40.6261,包头市,包头市委党校,,,49,43,18,20,,,13,10,62,33,11,8,1.4,0.5
2025-12-17T0900,3683A,109.8331,40.6576,包头市,昆区政府,细颗粒物(PM2.5),67,66,49,48,29,7,7,37,30,60,32,11,10,1.9,1
2025-12-17T0900,1930A,107.185,34.3063,宝鸡市,庙沟村,,,,,,,,,,,,,,,,
2025-12-17T0900,1931A,107.0708,34.3017,宝鸡市,竹园沟,,38,38,36,24,24,16,16,23,21,1,3,6,6,0.2,0.2
2025-12-17T0900,1932A,107.1906,34.3672,宝鸡市,三陆医院,颗粒物(PM10),61,72,75,24,36,5,5,12,10,43,42,5,6,0.6,0.6
2025-12-17T0900,1933A,107.1431,34.3547,宝鸡市,监测站,,49,46,53,34,30,8,8,17,16,30,27,4,4,0.7,0.5
2025-12-17T0900,1934A,107.1186,34.3739,宝鸡市,技工学校,,45,40,62,31,37,12,12,23,21,24,22,10,8,1.0,0.8
2025-12-17T0900,1936A,107.2058,34.3497,宝鸡市,文理学院,颗粒物(PM10),54,58,61,28,33,8,8,20,18,37,34,5,5,0.4,0.5
2025-12-17T0900,1937A,107.2386,34.3622,宝鸡市,三迪小学,,,51,75,25,45,,,9,9,38,42,5,5,0.9,0.9
2025-12-17T0900,4308A,107.3898,34.3601,宝鸡市,陈仓区北开路21号,细颗粒物(PM2.5),85,88,94,63,57,12,12,28,25,39,39,19,35,1.1,0.5
2025-12-17T0900,1051A,115.493,38.8632,保定市,游泳馆,细颗粒物(PM2.5),192,162,108,144,84,6,6,2,2,60,57,4,5,1.0,0.7
2025-12-17T0900,1052A,115.5213,38.8959,保定市,华电二区,,,140,99,,85,3,3,2,2,47,45,4,5,1.3,0.8
2025-12-17T0900,1053A,115.4713,38.9108,保定市,接待中心,细颗粒物(PM2.5),188,184,120,141,87,4,4,2,1,65,58,2,3,1.4,1
2025-12-17T0900,1054A,115.4612,38.8416,保定市,地表水厂,细颗粒物(PM2.5),185,174,121,139,85,8,8,5,5,58,56,3,6,1.3,0.8
2025-12-17T0900,3581A,115.31981,38.95208,保定市,满城区生态环境分局,细颗粒物(PM2.5),125,129,112,95,69,4,4,2,2,49,59,5,7,1.8,1
2025-12-17T0900,3582A,115.47694,38.76408,保定市,清苑区第二中学,细颗粒物(PM2.5),156,162,138,119,81,4,4,2,2,54,58,3,7,1.4,1
2025-12-17T0900,3583A,115.62909,39.02311,保定市,徐水物探局,细颗粒物(PM2.5),134,147,124,102,76,1,1,2,1,58,56,5,8,1.7,1.1
2025-12-17T0900,4004A,115.4202,38.8656,保定市,双鹰农机,细颗粒物(PM2.5),188,206,141,141,82,13,13,10,10,61,55,5,6,1.3,0.9
2025-12-17T0900,4034A,115.5150,38.8590,保定市,植保所站,细颗粒物(PM2.5),185,179,124,139,86,7,7,4,4,60,59,4,5,1.5,1.1
2025-12-17T0900,2594A,99.1678,25.1081,保山市,市环境监测站,,30,,21,21,14,15,15,28,25,17,10,6,7,0.6,0.4
2025-12-17T0900,2595A,99.1711,25.1328,保山市,市环保局,,40,,22,28,20,22,22,39,35,10,6,3,4,0.6,0.5
2025-12-17T0900,1866A,109.2262,21.588,北海市,牛尾岭水库,,,,,,,,,,,,,,,,
2025-12-17T0900,1867A,109.1436,21.4086,北海市,海滩公园,颗粒物(PM10),62,73,48,39,28,44,44,67,58,18,14,7,9,0.9,0.8
2025-12-17T0900,1868A,109.0981,21.4661,北海市,新市环保局,细颗粒物(PM2.5),67,61,49,48,35,43,43,54,45,17,18,17,13,0.7,0.6
2025-12-17T0900,1869A,109.1778,21.5233,北海市,北海工业园,细颗粒物(PM2.5),70,79,57,51,35,32,32,51,43,24,18,7,8,0.8,0.7
2025-12-17T0900,3400A,109.1911,21.4415,北海市,龙潭自来水厂,细颗粒物(PM2.5),72,61,45,52,34,27,27,46,38,17,13,6,7,0.9,0.8
2025-12-17T0900,1001A,116.3621,39.8784,北京市,万寿西宫,颗粒物(PM10),64,78,84,43,47,7,7,2,2,61,53,4,5,1.4,1.1
2025-12-17T0900,1002A,116.2202,40.2915,北京市,定陵,,,,,,,,,,,,,,,,
2025-12-17T0900,1003A,116.4174,39.9289,北京市,东四,颗粒物(PM10),59,67,76,40,45,6,6,3,3,57,45,6,7,1.5,1
2025-12-17T0900,1004A,116.4072,39.8863,北京市,天坛,细颗粒物(PM2.5),57,58,73,40,46,3,3,2,2,39,41,1,1,1.1,0.9
2025-12-17T0900,1005A,116.462,39.9365,北京市,农展馆,颗粒物(PM10),53,56,70,32,40,6,6,4,4,47,43,4,5,1.4,1.3
2025-12-17T0900,1006A,116.3392,39.9295,北京市,官园,颗粒物(PM10),62,73,68,43,37,4,4,0,0,59,49,5,4,1.3,0.9
2025-12-17T0900,1007A,116.2878,39.9611,北京市,海淀万柳,,,,31,,15,,,14,,,28,,3,,0.3
2025-12-17T0900,1008A,116.6636,40.135,北京市,顺义新城,,44,44,69,27,38,19,19,4,4,25,36,3,4,0.6,0.8
2025-12-17T0900,1009A,116.6275,40.3275,北京市,怀柔镇,,,,33,,17,,,44,,,17,,5,,0.5
2025-12-17T0900,1010A,116.2296,40.217,北京市,昌平镇,,50,50,42,30,24,4,4,4,4,47,35,6,5,1.4,0.7
2025-12-17T0900,1011A,116.3966,39.9821,北京市,奥体中心,,,,58,,29,,,41,,,52,,5,,1.0
2025-12-17T0900,3281A,115.9718,40.4529,北京市,延庆夏都,,44,44,56,28,32,7,7,3,3,31,39,2,2,1.4,1.1
2025-12-17T0900,3418A,116.8336,40.4095,北京市,密云新城,,50,50,44,29,23,9,9,22,22,38,18,3,2,0.8,0.5
2025-12-17T0900,3671A,116.088,39.9726,北京市,门头沟三家店,颗粒物(PM10),53,56,54,24,26,5,5,2,2,36,37,4,4,0.9,0.6
2025-12-17T0900,3672A,116.1541,39.8204,北京市,丰台云岗,颗粒物(PM10),61,71,61,32,27,5,5,2,2,56,53,6,5,0.9,0.6
2025-12-17T0900,3673A,116.6804,39.9081,北京市,通州东关,,,,94,,54,,,40,,,49,,5,,1.0
2025-12-17T0900,3674A,115.9577,39.7603,北京市,房山燕山,,,,48,,25,,,28,,,27,,3,,0.6
2025-12-17T0900,3675A,116.4672,39.7733,北京市,大兴旧宫,细颗粒物(PM2.5),94,113,91,70,47,3,3,2,2,66,45,5,6,1.5,1.1
2025-12-17T0900,3694A,115.986,40.4563,北京市,延庆石河营,,40,39,57,28,39,10,10,8,8,25,33,3,2,1.4,1.1
2025-12-17T0900,3695A,116.6151,40.3053,北京市,怀柔新城,,32,32,32,22,18,23,23,24,23,23,15,3,3,0.7,0.5
2025-12-17T0900,3696A,116.2545,39.8768,北京市,丰台小屯,颗粒物(PM10),64,78,62,38,27,1,1,1,1,71,56,5,4,1.2,0.8
2025-12-17T0900,3697A,116.84,40.3844,北京市,密云镇,颗粒物(PM10),51,51,55,29,29,9,9,3,3,37,36,2,2,0.8,0.7
2025-12-17T0900,4182A,116.1942,39.9158,北京市,八角北路9号,颗粒物(PM10),57,63,53,32,24,6,6,3,3,59,53,2,2,1.0,0.5
2025-12-17T0900,4194A,117.0790,40.1518,北京市,洳河巡河路,细颗粒物(PM2.5),78,87,91,57,58,6,6,4,4,33,35,1,3,1.3,1
2025-12-17T0900,1761A,123.8275,41.3064,本溪市,大峪,细颗粒物(PM2.5),100,126,77,75,59,13,13,13,12,32,33,11,10,1.7,1.3
2025-12-17T0900,1762A,123.7567,41.3325,本溪市,溪湖,颗粒物(PM10),85,119,104,60,61,10,10,6,5,38,41,6,8,1.8,1.4
2025-12-17T0900,1763A,123.7169,41.3094,本溪市,彩屯,细颗粒物(PM2.5),133,121,90,101,63,10,10,11,10,43,37,8,8,1.8,1.3
2025-12-17T0900,1764A,123.7669,41.2864,本溪市,东明,细颗粒物(PM2.5),105,93,87,79,59,8,8,12,10,41,35,8,8,2.5,1.3
2025-12-17T0900,1765A,123.7992,41.2664,本溪市,新立屯,细颗粒物(PM2.5),97,96,81,72,56,6,6,6,6,40,35,9,8,3.9,1.5
2025-12-17T0900,1766A,123.8142,41.3472,本溪市,威宁,颗粒物(PM10),86,122,109,62,62,12,12,6,6,21,35,7,7,1.5,1.3
2025-12-17T0900,2587A,105.2864,27.3125,毕节市,八中,,35,32,34,24,25,41,41,54,52,15,7,9,8,0.7,0.7
2025-12-17T0900,2588A,105.31,27.2944,毕节市,师专,,26,26,30,18,23,41,41,57,55,21,11,8,8,0.7,0.7
2025-12-17T0900,4263A,105.3688,27.3598,毕节市,工业大道,,35,35,32,23,25,24,24,48,45,26,9,12,10,0.9,0.9
2025-12-17T0900,1629A,118.0018,37.3617,滨州市,第二水厂,细颗粒物(PM2.5),80,73,109,59,68,6,6,19,15,50,39,9,10,0.9,0.9
2025-12-17T0900,1630A,117.9776,37.393,滨州市,北中新校,细颗粒物(PM2.5),62,63,108,44,71,5,5,6,4,50,46,4,7,0.6,0.7
2025-12-17T0900,3514A,117.9378,37.3956,滨州市,中海酒店,,,70,108,53,80,,,10,10,48,41,6,9,1.9,1.2
2025-12-17T0900,3515A,117.9378,37.3553,滨州市,开发区一中,细颗粒物(PM2.5),92,88,109,68,75,2,2,11,7,46,37,13,10,1.3,1
2025-12-17T0900,3516A,118.0917,37.694,滨州市,金海六路,颗粒物(PM10),68,85,94,41,57,8,8,12,7,56,43,9,9,0.7,0.8
2025-12-17T0900,4028A,117.9956,37.3753,滨州市,滨州市西街道办事处,细颗粒物(PM2.5),73,68,107,53,79,8,8,15,11,46,38,8,9,0.8,0.8
2025-12-17T0900,2311A,115.8072,33.8399,亳州市,污水处理厂,细颗粒物(PM2.5),219,215,168,169,129,20,20,9,9,46,48,7,7,1.3,0.8
2025-12-17T0900,2312A,115.7789,33.8518,亳州市,三国揽胜宫,细颗粒物(PM2.5),214,239,191,164,120,14,14,7,7,40,43,8,6,1.4,0.9
2025-12-17T0900,3332A,115.7633,33.8034,亳州市,亳州学院,细颗粒物(PM2.5),210,222,174,160,122,17,17,10,10,37,42,8,5,1.6,0.9
2025-12-17T0900,2693A,82.0485,44.8556,博尔塔拉蒙古自治州,市党校,颗粒物(PM10),68,86,89,38,33,24,24,26,26,24,24,7,8,0.8,0.8
2025-12-17T0900,2694A,82.0806,44.8969,博尔塔拉蒙古自治州,市环保局,颗粒物(PM10),68,86,85,41,33,32,32,36,35,15,19,7,11,0.8,0.7
2025-12-17T0900,1071A,116.8842,38.2991,沧州市,沧县城建局,颗粒物(PM10),65,80,93,40,68,22,22,17,17,52,46,5,6,1.2,1.2
2025-12-17T0900,1072A,116.8584,38.3254,沧州市,电视转播站,"颗粒物(PM10),细颗粒物(PM2.5)",58,65,95,41,68,8,8,1,1,55,52,3,4,1.0,1.1
2025-12-17T0900,1073A,116.8709,38.3228,沧州市,市环保局,细颗粒物(PM2.5),62,63,96,44,75,12,12,7,7,41,39,1,4,1.0,1
2025-12-17T0900,3324A,116.8136,38.3004,沧州市,河北水利电力学院,颗粒物(PM10),63,75,96,40,60,8,8,8,8,61,45,8,10,0.9,0.9
2025-12-17T0900,2622A,97.1806,31.1273,昌都市,昌都监测站,,31,31,60,18,31,17,17,26,26,25,30,4,6,0.9,1.4
2025-12-17T0900,3719A,97.1714,31.1406,昌都市,昌都会议中心,,18,17,21,12,15,22,22,36,34,11,13,3,2,0.4,0.4
2025-12-17T0900,2690A,88.1236,43.8886,昌吉回族自治州,天山天池,,,,,,,,,,,,,,,,
2025-12-17T0900,2692A,87.2717,44.0297,昌吉回族自治州,新区政务中心,细颗粒物(PM2.5),92,95,137,68,92,8,8,5,5,46,56,6,6,1.0,1.4
2025-12-17T0900,3613A,87.3095,44.0142,昌吉回族自治州,亚心广场,细颗粒物(PM2.5),85,102,160,63,103,8,8,8,8,43,52,8,8,0.9,1.3
2025-12-17T0900,1120A,125.2863,43.9027,长春市,客车厂,,,,54,,49,,,15,15,43,38,14,13,0.9,0.6
2025-12-17T0900,1121A,125.2841,43.8463,长春市,邮电学院,细颗粒物(PM2.5),73,66,54,53,41,16,16,18,18,25,21,12,14,0.9,0.5
2025-12-17T0900,1122A,125.3716,43.8772,长春市,劳动公园,颗粒物(PM10),60,70,64,42,40,20,20,13,13,33,35,10,11,0.5,0.5
2025-12-17T0900,1123A,125.3297,43.8805,长春市,园林处,细颗粒物(PM2.5),59,50,46,42,38,21,21,16,16,31,29,8,8,0.8,0.5
2025-12-17T0900,1124A,125.4605,43.79,长春市,净月潭,细颗粒物(PM2.5),69,68,48,50,34,24,24,26,26,18,17,7,7,0.6,0.4
2025-12-17T0900,1125A,125.7194,43.515,长春市,甩湾子,细颗粒物(PM2.5),117,,76,88,71,17,17,10,10,17,18,6,6,1.1,0.9
2025-12-17T0900,1126A,125.3863,43.8447,长春市,经开区环卫处,细颗粒物(PM2.5),63,53,51,45,35,15,15,10,10,37,35,9,8,0.9,0.6
2025-12-17T0900,1127A,125.245,43.7783,长春市,高新区管委会,细颗粒物(PM2.5),107,90,59,80,45,16,16,13,13,34,39,5,7,0.6,0.4
2025-12-17T0900,1128A,125.1761,43.8325,长春市,岱山公园,细颗粒物(PM2.5),97,87,73,72,54,9,9,6,6,47,46,10,11,1.0,0.8
2025-12-17T0900,4281A,125.3346,43.9164,长春市,北亚泰大街1068号,细颗粒物(PM2.5),58,60,56,41,45,13,13,6,6,39,34,11,10,1.0,0.7
2025-12-17T0900,1335A,113.0833,28.2325,长沙市,经开区环保局,细颗粒物(PM2.5),142,110,86,108,62,20,20,25,25,31,46,7,8,0.8,0.7
2025-12-17T0900,1336A,112.8872,28.2189,长沙市,高开区环保局,细颗粒物(PM2.5),142,,81,108,68,26,26,34,31,18,30,7,9,1.1,1.1
2025-12-17T0900,1337A,113.0792,28.2053,长沙市,马坡岭,细颗粒物(PM2.5),117,124,88,88,57,20,20,23,23,27,42,8,8,0.8,0.8
2025-12-17T0900,1338A,112.9394,28.19,长沙市,湖南师范大学,细颗粒物(PM2.5),109,118,83,82,52,32,32,40,38,20,32,6,7,0.8,0.8
2025-12-17T0900,1339A,113.0178,28.1322,长沙市,雨花区环保局,细颗粒物(PM2.5),137,110,83,104,54,27,27,36,36,22,36,10,11,0.8,0.8
2025-12-17T0900,1340A,112.9792,28.2597,长沙市,伍家岭,细颗粒物(PM2.5),119,117,95,90,58,24,24,29,29,21,38,8,8,0.8,0.9
2025-12-17T0900,1341A,113.0014,28.1944,长沙市,火车新站,细颗粒物(PM2.5),122,126,96,92,58,31,31,38,38,31,49,11,11,0.7,0.7
2025-12-17T0900,1342A,112.9844,28.1178,长沙市,天心区环保局,细颗粒物(PM2.5),107,124,81,80,51,34,34,43,42,25,36,8,9,0.5,0.5
2025-12-17T0900,1343A,112.8908,28.1308,长沙市,湖南中医药大学,细颗粒物(PM2.5),132,129,86,100,58,30,30,42,40,20,33,8,9,0.8,0.8
2025-12-17T0900,1344A,112.9581,28.3611,长沙市,沙坪,,,,,,,,,,,,,,,,
2025-12-17T0900,1727A,113.1147,36.1547,长治市,清华站,细颗粒物(PM2.5),83,81,88,61,67,6,6,5,5,52,63,13,18,1.4,1.3
2025-12-17T0900,1730A,113.0886,36.2125,长治市,审计局,细颗粒物(PM2.5),83,77,90,61,74,8,8,4,4,53,65,16,20,1.6,1.4
2025-12-17T0900,1731A,113.0844,36.1856,长治市,长治八中,细颗粒物(PM2.5),92,106,114,68,85,6,6,2,2,44,58,15,19,2.2,1.7
2025-12-17T0900,2845A,113.1569,36.1911,长治市,德盛苑,细颗粒物(PM2.5),77,80,86,56,68,28,28,17,17,31,45,19,21,1.2,1.4
2025-12-17T0900,3568A,113.06,36.0464,长治市,向阳小学,细颗粒物(PM2.5),109,126,121,82,77,18,18,17,16,37,54,21,29,1.9,1.5
2025-12-17T0900,3569A,112.8792,36.3144,长治市,屯留一中,细颗粒物(PM2.5),59,60,87,42,64,16,16,21,20,43,48,13,24,1.0,1.4
2025-12-17T0900,4189A,113.1131,36.19948,长治市,英华南巷50号,细颗粒物(PM2.5),94,98,100,70,69,9,9,1,1,37,57,17,15,1.7,1.6
2025-12-17T0900,4190A,113.2367,36.3344,长治市,学府街1号,细颗粒物(PM2.5),95,91,103,71,81,14,14,12,12,51,61,30,33,2.1,2.3
2025-12-17T0900,1854A,111.6975,28.9703,常德市,市二中,细颗粒物(PM2.5),114,119,94,86,66,36,36,25,25,23,26,8,6,0.8,0.7
2025-12-17T0900,1857A,111.7158,29.1456,常德市,白鹤山,,,,,,,,,,,,,,,,
2025-12-17T0900,3138A,111.7153,29.0289,常德市,武陵区永安,细颗粒物(PM2.5),110,129,100,83,66,59,59,36,36,18,27,9,6,0.7,0.7
2025-12-17T0900,3139A,111.6892,28.9881,常德市,鼎城区玉霞,细颗粒物(PM2.5),119,117,90,90,65,24,24,5,5,24,32,9,8,1.0,0.8
2025-12-17T0900,3140A,111.6625,29.0531,常德市,武陵区长庚,细颗粒物(PM2.5),114,125,105,86,78,32,32,23,21,24,28,7,5,0.8,0.7
2025-12-17T0900,1196A,119.9633,31.762,常州市,市监测站,细颗粒物(PM2.5),158,190,127,120,82,36,36,17,17,35,75,7,10,1.0,1.4
2025-12-17T0900,1200A,119.9468,31.7069,常州市,武进监测站,细颗粒物(PM2.5),142,199,127,108,77,38,38,18,18,31,63,15,14,0.8,1
2025-12-17T0900,1201A,119.9255,31.9087,常州市,安家,细颗粒物(PM2.5),160,199,135,122,81,23,23,8,8,47,78,13,16,0.9,1
2025-12-17T0900,3002A,119.9805,31.8174,常州市,行政中心,细颗粒物(PM2.5),156,171,122,119,75,30,30,16,16,37,70,9,12,1.0,1.1
2025-12-17T0900,3003A,120.0522,31.7748,常州市,经开区,细颗粒物(PM2.5),156,212,137,119,73,25,25,6,6,32,71,18,20,0.9,1
2025-12-17T0900,3010A,119.9025,31.7964,常州市,钟楼,细颗粒物(PM2.5),160,177,121,122,77,26,26,10,10,37,73,10,12,0.9,1
2025-12-17T0900,3429A,119.8598,31.7066,常州市,武进经发区,细颗粒物(PM2.5),166,178,117,126,82,17,17,4,4,49,75,11,15,1.3,1.2
2025-12-17T0900,3430A,119.5826,31.7245,常州市,金坛城区,细颗粒物(PM2.5),166,176,108,126,73,19,19,5,5,40,55,9,11,1.0,1
2025-12-17T0900,2220A,120.4318,41.5881,朝阳市,西梁,细颗粒物(PM2.5),109,156,78,82,47,8,8,4,4,39,31,21,17,2.0,1
2025-12-17T0900,2221A,120.4521,41.5646,朝阳市,河畔小区,细颗粒物(PM2.5),72,74,49,52,34,16,16,12,12,25,23,16,12,1.2,0.7
2025-12-17T0900,2222A,120.4176,41.5648,朝阳市,八里堡,细颗粒物(PM2.5),85,88,57,63,38,11,11,4,4,37,32,16,13,1.8,0.9
2025-12-17T0900,2223A,120.3806,41.5969,朝阳市,农业园区,细颗粒物(PM2.5),148,,52,113,45,,,9,7,45,32,17,11,1.7,1
2025-12-17T0900,1705A,116.6367,23.6719,潮州市,西园路,,,,,,,,,,,,,,,,
2025-12-17T0900,3026A,116.6183,23.6608,潮州市,市政府,,46,46,61,16,33,39,39,42,41,22,19,6,6,0.6,0.5
2025-12-17T0900,4036A,116.6461,23.6761,潮州市,金山,,44,44,55,20,38,24,24,32,30,26,17,3,4,0.9,0.7
2025-12-17T0900,2472A,113.0073,25.9061,郴州市,马头岭,,,,,,,,,,,,,,,,
2025-12-17T0900,2473A,113.0116,25.8226,郴州市,市职中,细颗粒物(PM2.5),53,54,42,37,27,2,2,0,0,26,24,6,5,0.9,0.7
2025-12-17T0900,2475A,113.0383,25.8071,郴州市,市审计局,细颗粒物(PM2.5),55,57,43,39,27,2,2,0,0,30,32,6,4,1.0,0.8
2025-12-17T0900,2476A,113.0348,25.7759,郴州市,市环保局,细颗粒物(PM2.5),62,61,50,44,27,3,3,0,0,34,31,5,4,1.1,0.7
2025-12-17T0900,4252A,113.0138,25.8011,郴州市,好美居路49号,细颗粒物(PM2.5),59,58,42,42,27,17,17,4,4,30,29,9,4,0.9,0.7
2025-12-17T0900,1431A,103.9728,30.7236,成都市,金泉两河,细颗粒物(PM2.5),133,143,144,101,89,2,2,1,1,50,55,3,5,1.4,1.3
2025-12-17T0900,1432A,104.176,30.6872,成都市,十里店,细颗粒物(PM2.5),135,160,144,103,96,6,6,12,11,66,60,5,6,1.1,0.9
2025-12-17T0900,1433A,104.079,30.5706,成都市,三瓦窑,细颗粒物(PM2.5),130,141,158,99,96,2,2,1,1,54,71,6,5,1.1,1.1
2025-12-17T0900,1434A,104.1114,30.63,成都市,沙河铺,细颗粒物(PM2.5),156,146,151,119,116,1,1,9,9,59,68,5,5,0.9,0.8
2025-12-17T0900,1437A,104.0786,30.6531,成都市,君平街,细颗粒物(PM2.5),196,182,171,147,117,8,8,16,16,54,58,14,9,1.3,1
2025-12-17T0900,1438A,103.613,31.0283,成都市,灵岩寺,,,,,,,,,,,,,,,,
2025-12-17T0900,2880A,104.0239,30.65639,成都市,大石西路,细颗粒物(PM2.5),135,144,154,103,101,4,4,7,7,43,61,6,7,1.1,1
2025-12-17T0900,3136A,104.2725,30.5589,成都市,龙泉驿区区政府,细颗粒物(PM2.5),110,114,121,83,78,14,14,29,26,25,28,6,7,0.8,0.8
2025-12-17T0900,3357A,104.0106,30.6931,成都市,金博路,细颗粒物(PM2.5),129,146,140,98,92,0,0,2,2,48,62,6,9,1.5,0.8
2025-12-17T0900,3359A,104.0578,30.5225,成都市,华阳,,,,170,,95,,,12,,,63,,6,,1.2
2025-12-17T0900,3488A,104.3880,30.7467,成都市,青石路225号,细颗粒物(PM2.5),148,156,135,113,95,3,3,24,19,46,47,5,6,1.1,0.7
2025-12-17T0900,3489A,104.0789,30.4072,成都市,科学城,细颗粒物(PM2.5),94,101,125,70,84,3,3,11,11,27,38,6,6,0.9,0.8
2025-12-17T0900,4011A,103.8506,30.6947,成都市,光华大道三段,细颗粒物(PM2.5),155,178,144,118,101,,,17,17,36,49,,3,1.5,1
2025-12-17T0900,4224A,104.2433,30.5353,成都市,鲸龙路1057号,细颗粒物(PM2.5),119,122,136,90,92,2,2,10,10,43,46,7,7,1.1,0.8
2025-12-17T0900,1062A,117.9531,40.9081,承德市,铁路,颗粒物(PM10),68,86,78,45,44,6,6,6,5,36,39,3,4,1.4,1
2025-12-17T0900,1063A,117.9392,40.9763,承德市,中国银行,,50,50,73,27,40,6,6,2,2,25,31,2,2,0.9,0.8
2025-12-17T0900,1064A,117.9503,40.928,承德市,开发区,颗粒物(PM10),76,102,75,50,42,9,9,6,6,36,37,5,5,1.2,0.8
2025-12-17T0900,1066A,117.9268,41.0026,承德市,离宫,,,,,,,,,,,,,,,,
2025-12-17T0900,4274A,117.7994,40.9605,承德市,滨河大街98号,,38,38,59,18,37,7,7,4,4,39,36,3,4,1.0,0.9
2025-12-17T0900,2314A,117.47,30.6618,池州市,池州学院,细颗粒物(PM2.5),170,168,85,129,59,22,22,23,23,36,41,5,7,0.6,0.6
2025-12-17T0900,3237A,117.4918,30.6617,池州市,展览馆,细颗粒物(PM2.5),156,162,74,119,46,21,21,6,6,37,42,2,4,0.8,0.7
2025-12-17T0900,3333A,117.5627,30.695,池州市,第八中学,细颗粒物(PM2.5),127,148,87,96,54,11,11,24,23,52,58,4,13,1.0,0.9
2025-12-17T0900,3334A,117.5038,30.6243,池州市,第十二中学,细颗粒物(PM2.5),135,147,79,103,50,14,14,4,4,48,52,5,5,1.0,1
2025-12-17T0900,1744A,118.9233,42.2816,赤峰市,松山一中,细颗粒物(PM2.5),65,76,83,47,41,3,3,2,2,51,42,9,24,1.8,1.3
2025-12-17T0900,1745A,118.9576,42.2728,赤峰市,哈达街,颗粒物(PM10),54,57,78,19,42,9,9,10,10,43,42,16,44,1.7,1.2
2025-12-17T0900,1746A,118.8788,42.2554,赤峰市,天义路,细颗粒物(PM2.5),73,66,66,53,52,8,8,6,6,47,41,12,24,2.2,1.3
2025-12-17T0900,3058A,119.2658,42.0353,赤峰市,银河街,细颗粒物(PM2.5),135,156,79,103,47,11,11,7,7,34,27,19,13,3.0,1.4
2025-12-17T0900,3286A,118.9359,42.3147,赤峰市,桥北物流园区,颗粒物(PM10),57,64,68,38,49,9,9,5,5,44,35,14,16,1.3,1.1
2025-12-17T0900,2521A,107.3476,22.4136,崇左市,市环保局江州分局,颗粒物(PM10),72,94,78,42,40,4,4,23,19,33,22,8,8,0.9,0.8
2025-12-17T0900,4256A,107.3750,22.3736,崇左市,石景林东路7号,细颗粒物(PM2.5),65,68,65,47,49,9,9,20,17,32,26,10,9,0.9,0.9
2025-12-17T0900,2298A,118.3093,32.3153,滁州市,老年大学,细颗粒物(PM2.5),139,133,82,106,53,14,14,16,14,46,34,9,10,0.9,0.6
2025-12-17T0900,2299A,118.3244,32.2786,滁州市,人大宾馆,细颗粒物(PM2.5),165,152,92,125,59,24,24,35,31,43,38,6,8,0.8,0.7
2025-12-17T0900,3207A,118.3118,32.3038,滁州市,市政府原办公楼,细颗粒物(PM2.5),147,149,87,112,52,20,20,31,28,46,40,6,6,0.8,0.6
2025-12-17T0900,3331A,118.3267,32.2634,滁州市,图书馆,细颗粒物(PM2.5),140,139,82,107,46,27,27,37,34,40,37,7,8,0.8,0.5
2025-12-17T0900,2605A,101.5482,25.0441,楚雄彝族自治州,州环境监测站,,29,23,24,20,17,2,2,1,1,15,18,8,13,0.9,0.7
2025-12-17T0900,2606A,101.538,25.0492,楚雄彝族自治州,市经济开发区,,36,31,27,25,19,1,1,1,1,18,19,9,11,0.8,0.8
2025-12-17T0900,2548A,107.5277,31.2827,达州市,达州职业技术学院,,,,,,,,,,,,,,,,
2025-12-17T0900,2549A,107.5086,31.2186,达州市,市环境监测站,细颗粒物(PM2.5),98,95,111,73,70,1,1,1,1,28,42,6,8,0.5,0.5
2025-12-17T0900,2550A,107.4988,31.2132,达州市,凤凰小区,细颗粒物(PM2.5),92,97,117,68,72,4,4,3,3,20,34,5,7,0.6,0.6
2025-12-17T0900,2551A,107.5082,31.1986,达州市,达县机关宾馆,细颗粒物(PM2.5),89,102,119,66,73,3,3,2,2,27,41,3,6,0.8,0.8
2025-12-17T0900,2552A,107.4644,31.2124,达州市,市政中心,细颗粒物(PM2.5),94,121,124,70,68,3,3,3,3,26,39,6,8,0.9,0.8
2025-12-17T0900,2614A,100.1542,25.7054,大理白族自治州,大理市环境监测站,,36,32,18,25,18,8,8,26,22,38,18,7,6,0.8,0.6
2025-12-17T0900,2615A,100.2171,25.5811,大理白族自治州,大理古城,,38,26,22,26,14,21,21,43,40,29,17,8,8,0.8,0.6
2025-12-17T0900,1109A,121.612,38.9741,大连市,甘井子,,47,47,89,22,59,45,45,46,46,30,40,9,10,0,0.1
2025-12-17T0900,1110A,121.565,38.9511,大连市,周水子,,41,41,84,24,57,45,45,49,49,27,30,10,11,0.4,0.7
2025-12-17T0900,1111A,121.5637,38.8845,大连市,星海三站,,33,33,76,20,58,49,49,50,50,20,26,7,7,0.2,0.5
2025-12-17T0900,1112A,121.6302,38.9117,大连市,青泥洼桥,,32,32,82,20,58,35,35,46,45,35,36,9,9,0.5,0.8
2025-12-17T0900,1113A,121.6251,38.8638,大连市,傅家庄,,34,34,78,20,53,41,41,45,45,23,29,12,11,0.4,0.6
2025-12-17T0900,1114A,121.5213,38.8661,大连市,七贤岭,,39,39,82,21,53,49,49,54,54,22,23,7,8,0.0,0.4
2025-12-17T0900,1115A,121.2529,38.8061,大连市,旅顺,,43,37,79,30,58,41,41,51,50,18,18,7,7,0.4,0.6
2025-12-17T0900,1116A,121.7485,39.1311,大连市,金州,,46,38,81,32,62,46,46,44,44,19,25,12,10,0.7,0.8
2025-12-17T0900,1117A,121.7811,39.0496,大连市,开发区,,38,38,83,18,56,50,50,47,47,19,28,11,10,0.4,0.7
2025-12-17T0900,1118A,121.9762,39.0631,大连市,双D港,,42,42,84,27,58,53,53,47,47,21,27,14,14,0.6,0.9
2025-12-17T0900,1789A,124.81117,46.03138,大庆市,大同区,细颗粒物(PM2.5),130,124,60,99,40,23,23,24,23,29,20,10,7,1.4,0.9
2025-12-17T0900,1790A,125.129,46.533,大庆市,龙凤区,颗粒物(PM10),72,94,52,51,36,12,12,17,16,25,18,6,6,0.9,0.6
2025-12-17T0900,1791A,124.902,46.408,大庆市,红岗区,颗粒物(PM10),52,53,49,33,24,14,14,15,14,31,28,9,9,0.7,0.7
2025-12-17T0900,1792A,125.153,46.586,大庆市,萨尔图区,颗粒物(PM10),72,93,50,43,26,13,13,23,20,39,30,9,7,1.0,0.8
2025-12-17T0900,1793A,124.9042,46.6215,大庆市,让胡路区,细颗粒物(PM2.5),64,61,37,46,29,20,20,18,16,24,19,10,8,0.9,0.6
2025-12-17T0900,3481A,125.141,46.634,大庆市,萨区政府监测点,颗粒物(PM10),59,67,38,39,16,11,11,27,25,42,26,12,13,1.1,0.5
2025-12-17T0900,1721A,113.3819,40.1097,大同市,果树场,细颗粒物(PM2.5),114,121,68,86,52,19,19,16,15,51,42,9,12,1.7,1.1
2025-12-17T0900,1723A,113.2994,40.0758,大同市,云冈宾馆,细颗粒物(PM2.5),69,81,92,50,58,12,12,20,20,47,50,8,11,1.9,1.4
2025-12-17T0900,1724A,113.3444,40.0917,大同市,大同大学,细颗粒物(PM2.5),54,52,86,38,50,17,17,17,15,49,52,15,11,0.8,1
2025-12-17T0900,1725A,113.2661,40.1269,大同市,安家小村,,,78,97,70,57,,,6,2,50,51,14,16,4.0,2.2
2025-12-17T0900,1726A,113.2711,40.0844,大同市,教育学院,"颗粒物(PM10),细颗粒物(PM2.5)",75,99,93,55,56,8,8,9,9,53,54,15,11,4.1,1.4
2025-12-17T0900,3282A,113.3397,40.0597,大同市,大同市卫生学校,颗粒物(PM10),55,59,90,36,54,21,21,24,22,43,53,6,10,0.9,1
2025-12-17T0900,3565A,113.1367,40.1122,大同市,云冈站,颗粒物(PM10),65,79,54,45,39,7,7,12,10,44,40,16,10,1.0,0.8
2025-12-17T0900,3566A,113.1186,40.2556,大同市,图书馆,,,,125,55,52,17,17,25,22,23,25,8,9,1.1,1.1
2025-12-17T0900,3567A,113.5931,40.0461,大同市,区一中,细颗粒物(PM2.5),165,,101,125,65,31,31,30,30,38,46,16,22,1.8,1.4
2025-12-17T0900,4199A,113.2798,40.0997,大同市,魏都大道141号,颗粒物(PM10),86,121,115,60,65,15,15,16,14,50,58,11,11,2.9,1.6
2025-12-17T0900,2269A,124.1069,50.4097,大兴安岭地区,科技局,,19,19,18,13,18,46,46,41,41,3,5,5,6,0.2,0.2
2025-12-17T0900,3663A,124.1164,50.4278,大兴安岭地区,红旗社区,,22,22,22,8,21,25,25,25,25,27,28,8,8,0.6,0.5
2025-12-17T0900,1600A,124.3303,40.0625,丹东市,江湾东路,,34,34,84,23,58,47,47,46,46,22,26,11,11,0.8,1
2025-12-17T0900,1601A,124.4256,40.1503,丹东市,临江后街,,34,34,75,17,46,49,49,46,46,17,25,5,9,0.6,0.9
2025-12-17T0900,1602A,124.3933,40.1461,丹东市,元宝山,,42,42,71,28,52,41,41,41,41,24,25,16,11,0.9,1
2025-12-17T0900,1603A,124.3633,40.1092,丹东市,民主桥,,38,38,82,16,47,45,45,46,46,24,29,9,9,0.8,0.9
2025-12-17T0900,3541A,109.5726,19.5167,儋州市,第一中学子站,,46,46,35,21,15,77,77,63,63,8,3,4,3,0.5,0.5
2025-12-17T0900,3542A,109.5567,19.5187,儋州市,东坡学校子站,,34,34,33,21,15,86,86,71,71,9,3,5,4,0.5,0.4
2025-12-17T0900,2616A,98.5842,24.428,德宏傣族景颇族自治州,德宏州监测站,细颗粒物(PM2.5),54,49,40,38,33,5,5,6,6,19,20,6,6,0.8,0.6
2025-12-17T0900,3677A,98.5881,24.4368,德宏傣族景颇族自治州,芒市人民政府综合楼,,43,38,40,30,25,3,3,12,10,22,15,7,8,0.8,0.6
2025-12-17T0900,1901A,104.4239,31.1208,德阳市,东山公园,细颗粒物(PM2.5),129,131,136,98,93,53,53,57,57,28,36,2,3,1.1,1.1
2025-12-17T0900,1902A,104.3826,31.1317,德阳市,西小区,细颗粒物(PM2.5),150,177,163,115,102,4,4,3,3,44,60,6,6,1.7,1.1
2025-12-17T0900,1904A,104.3553,31.1091,德阳市,耐火材料厂,细颗粒物(PM2.5),155,177,153,118,104,2,2,4,3,53,68,8,7,1.6,1.2
2025-12-17T0900,3639A,104.4019,31.1244,德阳市,市教育局,细颗粒物(PM2.5),127,125,124,96,93,3,3,4,3,56,62,2,2,1.5,0.8
2025-12-17T0900,1622A,116.3032,37.4674,德州市,儿童乐园,细颗粒物(PM2.5),92,95,152,68,97,5,5,3,3,55,61,15,17,1.6,1.6
2025-12-17T0900,1624A,116.2991,37.4451,德州市,监理站,细颗粒物(PM2.5),94,105,148,70,97,10,10,11,10,56,60,16,16,1.7,1.3
2025-12-17T0900,3066A,116.2721,37.4379,德州市,九衢泉纯净水厂,细颗粒物(PM2.5),79,68,143,58,92,8,8,6,6,36,62,14,16,1.2,1.2
2025-12-17T0900,3371A,116.3728,37.4403,德州市,开发区人民医院,细颗粒物(PM2.5),73,92,148,53,90,14,14,9,9,55,64,14,16,1.1,1.2
2025-12-17T0900,3511A,116.5652,37.3319,德州市,陵城艺术中心,细颗粒物(PM2.5),92,105,154,68,104,3,3,11,9,52,62,15,19,1.7,1.3
2025-12-17T0900,4292A,116.3525,37.4209,德州市,新河东路,细颗粒物(PM2.5),98,95,139,73,92,11,11,5,5,48,65,12,15,1.0,1.2
2025-12-17T0900,2621A,99.7056,27.8317,迪庆藏族自治州,迪庆州站,,40,40,33,27,20,33,33,39,38,22,15,5,5,1.0,0.8
2025-12-17T0900,3180A,99.7136,27.8094,迪庆藏族自治州,质量技术监督局,,40,36,33,28,25,20,20,41,38,34,16,7,7,0.9,0.6
2025-12-17T0900,4257A,104.6092,35.5962,定西市,将台街,细颗粒物(PM2.5),68,76,73,49,47,9,9,9,9,30,31,15,17,1.6,0.9
2025-12-17T0900,4309A,104.6159,35.5701,定西市,正龙路62号,颗粒物(PM10),66,82,83,40,44,19,19,26,25,16,16,9,12,1.2,0.8
2025-12-17T0900,1389A,113.7547,23.0494,东莞市,莞城梨川,,49,49,65,29,33,35,35,30,30,44,48,8,7,0.6,0.6
2025-12-17T0900,1390A,113.7944,23.0128,东莞市,东城石井,"颗粒物(PM10),细颗粒物(PM2.5)",54,58,57,38,33,26,26,26,26,52,47,11,9,0.8,0.7
2025-12-17T0900,1391A,113.7383,22.9658,东莞市,南城西平,颗粒物(PM10),56,62,72,38,42,14,14,2,2,70,74,9,9,0.8,0.8
2025-12-17T0900,3319A,113.7338,23.0381,东莞市,万江金泰,颗粒物(PM10),52,53,71,28,37,38,38,24,24,41,52,8,7,0.8,0.8
2025-12-17T0900,3626A,113.7533,23.0202,东莞市,南城元岭,颗粒物(PM10),51,51,64,34,35,41,41,39,39,46,48,10,9,0.8,0.7
2025-12-17T0900,3627A,113.7875,23.0457,东莞市,东城主山,颗粒物(PM10),61,71,72,37,43,42,42,28,28,43,53,11,8,0.5,0.6
2025-12-17T0900,1666A,118.6614,37.4309,东营市,市环保局,,48,48,80,31,50,25,25,38,35,47,30,12,8,0.9,0.9
2025-12-17T0900,3036A,118.6904,37.4338,东营市,开发区管委会,颗粒物(PM10),60,69,84,36,53,16,16,35,31,51,27,13,9,0.7,0.6
2025-12-17T0900,3365A,118.5719,37.565,东营市,垦利区民丰路,细颗粒物(PM2.5),92,95,83,68,51,20,20,31,28,55,29,7,6,0.9,0.8
2025-12-17T0900,3498A,118.5055,37.8612,东营市,河口城区,颗粒物(PM10),54,58,60,34,44,32,32,40,36,34,31,6,7,0.7,0.9
2025-12-17T0900,3646A,118.4978,37.4623,东营市,胜利站,颗粒物(PM10),60,69,90,34,59,21,21,22,20,50,38,14,11,0.8,0.9
2025-12-17T0900,3734A,118.35,37.26,东营市,理想之城,"颗粒物(PM10),细颗粒物(PM2.5)",52,53,90,36,56,2,2,22,19,38,32,4,5,0.9,0.9
2025-12-17T0900,1591A,110.0023,39.8129,鄂尔多斯市,综合楼,,31,31,37,9,15,38,38,50,47,35,23,8,7,0.6,0.6
2025-12-17T0900,1592A,109.9486,39.8261,鄂尔多斯市,巴音孟克林场办事处,,31,31,45,14,22,52,52,57,56,26,24,11,8,0.2,0.3
2025-12-17T0900,1593A,109.7736,39.5986,鄂尔多斯市,康泽苑,,27,27,45,14,22,22,22,38,34,26,16,7,10,0.4,0.4
2025-12-17T0900,1594A,109.8119,39.5989,鄂尔多斯市,华泰汽车城,,39,39,49,17,24,4,4,20,16,36,25,3,5,0.7,0.6
2025-12-17T0900,1595A,109.9734,39.7884,鄂尔多斯市,奥林花园,,,83,54,,17,6,6,27,20,61,31,7,6,0.8,0.6
2025-12-17T0900,2436A,114.8938,30.3994,鄂州市,市政府,细颗粒物(PM2.5),210,166,87,160,69,27,27,38,36,29,34,5,7,0.8,0.7
2025-12-17T0900,2437A,114.8989,30.3714,鄂州市,赵家坝,细颗粒物(PM2.5),202,169,86,152,66,33,33,46,43,23,26,6,9,1.2,1.2
2025-12-17T0900,3654A,114.8094,30.4089,鄂州市,精准医疗中心,细颗粒物(PM2.5),209,174,101,159,76,35,35,44,43,26,33,22,28,1.2,1.3
2025-12-17T0900,2454A,109.4978,30.2981,恩施土家族苗族自治州,湖北民院,细颗粒物(PM2.5),78,65,70,57,61,5,5,8,8,14,18,6,6,0.8,0.7
2025-12-17T0900,2455A,109.4707,30.2798,恩施土家族苗族自治州,州电力总公司,细颗粒物(PM2.5),94,82,78,70,62,2,2,3,3,19,30,6,6,0.5,0.4
2025-12-17T0900,3549A,109.5061,30.3772,恩施土家族苗族自治州,龙凤新区,细颗粒物(PM2.5),59,63,73,42,49,2,2,6,5,9,12,6,6,0.7,0.6
2025-12-17T0900,2499A,108.3411,21.6158,防城港市,沙万,,,,53,42,36,45,45,47,47,20,19,6,6,0.7,0.7
2025-12-17T0900,2500A,108.3514,21.7731,防城港市,防城档案局,颗粒物(PM10),60,70,64,38,38,43,43,37,37,20,22,6,4,0.9,0.8
2025-12-17T0900,2501A,108.3506,21.6414,防城港市,大海花园,颗粒物(PM10),58,66,57,40,37,53,53,57,56,17,18,8,8,0.8,0.8
2025-12-17T0900,1371A,113.1294,23.0067,佛山市,湾梁,,,75,96,32,46,,,10,8,60,70,14,13,1.0,0.9
2025-12-17T0900,1372A,113.1083,23.0478,佛山市,华材职中,颗粒物(PM10),69,88,104,47,60,16,16,6,6,68,82,11,10,1.0,0.9
2025-12-17T0900,1373A,113.144,23.0453,佛山市,南海气象局,"颗粒物(PM10),细颗粒物(PM2.5)",59,67,85,42,49,16,16,5,5,61,77,14,14,0.8,0.7
2025-12-17T0900,1374A,113.2881,22.8094,佛山市,顺德苏岗,颗粒物(PM10),62,73,75,36,44,17,17,16,16,70,68,12,10,0.9,0.8
2025-12-17T0900,1376A,112.8383,22.8678,佛山市,高明孔堂,颗粒物(PM10),63,76,86,42,49,33,33,27,26,47,48,25,13,0.8,0.7
2025-12-17T0900,1377A,112.8836,23.1588,佛山市,三水监测站,细颗粒物(PM2.5),72,88,91,52,49,26,26,27,24,51,61,22,12,0.8,0.7
2025-12-17T0900,1378A,112.867,23.185,佛山市,三水云东海,细颗粒物(PM2.5),75,83,81,55,45,15,15,11,11,60,71,16,10,0.9,0.7
2025-12-17T0900,3625A,113.2544,22.7642,佛山市,容桂街道办,颗粒物(PM10),68,85,103,44,55,11,11,5,5,85,95,10,10,0.9,0.8
2025-12-17T0900,1280A,119.3903,26.0543,福州市,鼓山,,,,37,,14,,,71,,,12,,2,,0.6
2025-12-17T0900,1282A,119.2681,26.0504,福州市,师大,,50,50,39,28,18,37,37,37,37,25,26,11,7,0.5,0.4
2025-12-17T0900,1283A,119.2984,26.1028,福州市,五四北路,,47,47,42,29,22,30,30,26,26,25,29,5,4,0.4,0.4
2025-12-17T0900,1284A,119.2648,26.0768,福州市,杨桥西路,颗粒物(PM10),51,51,36,32,20,33,33,33,33,22,21,8,5,0.5,0.4
2025-12-17T0900,1285A,119.317,26.0746,福州市,紫阳,颗粒物(PM10),53,55,47,28,21,31,31,30,29,30,31,9,7,0.5,0.4
2025-12-17T0900,3048A,119.5799,26.0936,福州市,九龙,颗粒物(PM10),52,54,32,27,16,19,19,18,18,36,24,4,3,0.4,0.4
2025-12-17T0900,3526A,119.5189,25.9664,福州市,吴航,,42,42,34,26,17,28,28,11,11,29,28,8,7,0.6,0.5
2025-12-17T0900,1755A,123.7977,41.8491,抚顺市,望花区,细颗粒物(PM2.5),94,109,78,70,51,11,11,8,7,38,30,5,6,1.5,0.9
2025-12-17T0900,1756A,123.9161,41.8822,抚顺市,顺城区,细颗粒物(PM2.5),87,101,75,64,49,11,11,7,7,41,33,10,9,1.2,0.8
2025-12-17T0900,1757A,124.0436,41.8611,抚顺市,东洲区,细颗粒物(PM2.5),102,,62,76,47,14,14,28,26,35,21,9,7,1.0,0.8
2025-12-17T0900,1758A,123.9247,41.8642,抚顺市,新抚区,细颗粒物(PM2.5),95,98,86,71,53,12,12,6,6,37,32,13,10,1.1,1
2025-12-17T0900,1759A,124.0972,41.8961,抚顺市,大伙房水库,细颗粒物(PM2.5),98,,59,73,42,15,15,29,25,37,18,18,11,1.2,0.8
2025-12-17T0900,1760A,123.7086,41.8391,抚顺市,沈抚新城,细颗粒物(PM2.5),153,,79,117,61,22,22,17,17,41,32,13,8,1.3,0.8
2025-12-17T0900,2376A,116.2127,28.0814,抚州市,桐源党溪,,,,,,,,,,,,,,,,
2025-12-17T0900,2377A,116.3544,27.9831,抚州市,市站,细颗粒物(PM2.5),63,66,65,45,37,44,44,26,26,22,33,9,9,0.7,0.8
2025-12-17T0900,2378A,116.3565,27.963,抚州市,血防站,细颗粒物(PM2.5),64,68,58,46,34,21,21,16,16,39,39,6,7,1.0,1
2025-12-17T0900,2379A,116.3564,28.0007,抚州市,采茶剧团,细颗粒物(PM2.5),63,61,58,45,36,50,50,39,39,13,23,6,6,0.7,0.7
2025-12-17T0900,2380A,116.385,27.9647,抚州市,医学分院,细颗粒物(PM2.5),60,68,61,43,34,40,40,27,27,25,32,4,6,1.0,1
2025-12-17T0900,2207A,121.6094,41.998,阜新市,工业园区,细颗粒物(PM2.5),92,92,62,68,34,7,7,8,8,40,28,26,12,0.9,0.6
2025-12-17T0900,2208A,121.6697,42.0279,阜新市,长青街,颗粒物(PM10),69,88,39,47,28,7,7,2,2,39,28,12,8,1.0,0.8
2025-12-17T0900,2209A,121.6673,42.0705,阜新市,农业园区,,45,41,37,31,23,42,42,40,40,18,16,13,7,0.6,0.8
2025-12-17T0900,2210A,121.6717,42.0224,阜新市,东苑,颗粒物(PM10),69,87,50,42,30,11,11,7,6,39,28,14,10,1.1,1
2025-12-17T0900,2211A,121.6506,42.0498,阜新市,玉龙新城,细颗粒物(PM2.5),102,102,54,76,29,,,7,7,37,30,9,8,1.2,0.8
2025-12-17T0900,2301A,115.8277,32.8929,阜阳市,市监测站,细颗粒物(PM2.5),222,229,173,172,124,12,12,13,12,42,39,5,5,1.0,0.8
2025-12-17T0900,2303A,115.8554,32.8605,阜阳市,开发区,细颗粒物(PM2.5),208,236,162,158,105,11,11,12,11,40,37,5,6,1.2,0.9
2025-12-17T0900,2875A,115.784,32.8892,阜阳市,阜阳职业技术学院,细颗粒物(PM2.5),214,207,157,164,110,21,21,21,20,35,34,6,7,1.3,1
2025-12-17T0900,3468A,115.7901,32.8613,阜阳市,市规划展馆,细颗粒物(PM2.5),225,238,170,175,126,11,11,13,11,39,34,8,7,1.2,0.9
2025-12-17T0900,3469A,115.836,32.9183,阜阳市,枣园社区,细颗粒物(PM2.5),226,246,175,176,126,11,11,12,10,38,38,6,5,1.0,0.7
2025-12-17T0900,2669A,102.9099,34.9841,甘南藏族自治州,州政府,颗粒物(PM10),53,56,49,29,27,1,1,4,4,38,30,6,9,1.1,0.8
2025-12-17T0900,3380A,102.8914,34.9617,甘南藏族自治州,甘肃民族师范学院,颗粒物(PM10),66,82,61,28,19,2,2,5,5,40,37,5,7,0.8,0.7
2025-12-17T0900,2570A,101.9603,30.0475,甘孜藏族自治州,水桥子,,31,31,21,12,7,18,18,35,32,38,18,7,6,0.6,0.4
2025-12-17T0900,3065A,101.9533,29.9972,甘孜藏族自治州,州环保局,,29,29,22,6,6,46,46,57,55,19,13,5,5,0.5,0.4
2025-12-17T0900,3414A,115.8347,28.932,赣江新区,桑海产业园,颗粒物(PM10),75,100,76,49,43,38,38,42,42,34,41,18,18,0.9,0.8
2025-12-17T0900,2362A,114.9017,25.9149,赣州市,通天岩,,39,39,38,20,23,25,25,24,23,8,14,16,17,1.7,1.4
2025-12-17T0900,2363A,114.9367,25.8664,赣州市,地委,颗粒物(PM10),52,54,59,26,31,16,16,6,6,23,40,6,8,0.7,0.8
2025-12-17T0900,2364A,114.9461,25.8481,赣州市,气象台,,47,47,69,25,30,10,10,6,6,39,56,7,9,0.9,0.8
2025-12-17T0900,2365A,114.9322,25.8333,赣州市,市图书馆,,38,38,71,19,35,17,17,4,4,30,56,3,5,0.6,0.9
2025-12-17T0900,2366A,114.8905,25.8471,赣州市,华坚鞋城,,49,49,70,26,35,10,10,5,5,37,58,9,8,0.5,0.6
2025-12-17T0900,3109A,115.0093,25.8613,赣州市,赣县区卫计委,细颗粒物(PM2.5),55,44,53,39,32,6,6,4,4,41,45,7,7,0.5,0.6
2025-12-17T0900,2683A,106.2319,36.1417,固原市,马园,,,,,,,,,,,,,,,,
2025-12-17T0900,2684A,106.2792,36.0022,固原市,监测站,,42,42,59,13,29,43,43,42,42,28,26,4,7,0.5,0.8
2025-12-17T0900,2685A,106.2375,36.0211,固原市,新区,,42,42,65,13,23,29,29,30,30,47,35,4,4,0.9,0.8
2025-12-17T0900,3522A,106.2177,35.9959,固原市,原州区十五小,,24,24,45,10,18,65,65,71,71,15,16,6,7,0.4,0.5
2025-12-17T0900,2543A,106.6308,30.5278,广安市,小平旧居,,,,,,,,,,,,,,,,
2025-12-17T0900,2544A,106.6303,30.4576,广安市,市委,细颗粒物(PM2.5),120,106,128,91,99,4,4,3,3,23,29,3,3,1.2,1
2025-12-17T0900,2545A,106.6271,30.4663,广安市,友谊中学,细颗粒物(PM2.5),99,90,116,74,90,9,9,8,8,17,22,8,9,1.3,1
2025-12-17T0900,2547A,106.6388,30.4551,广安市,广电花园,细颗粒物(PM2.5),89,76,102,66,89,4,4,2,2,19,25,3,4,0.9,0.8
2025-12-17T0900,2902A,106.6351,30.4865,广安市,北辰小学,细颗粒物(PM2.5),113,100,118,85,92,6,6,5,5,17,23,20,19,1.2,1.1
2025-12-17T0900,2523A,105.8945,32.4535,广元市,黑石坡,,,,,,,,,,,,,,,,
2025-12-17T0900,2524A,105.821,32.4444,广元市,老城,细颗粒物(PM2.5),58,62,73,41,46,6,6,5,5,28,42,5,14,1.2,1.1
2025-12-17T0900,2526A,105.8628,32.4287,广元市,监测站,细颗粒物(PM2.5),79,80,70,58,44,4,4,6,5,30,31,4,7,4.5,1.3
2025-12-17T0900,3617A,105.8047,32.4166,广元市,经开区,细颗粒物(PM2.5),63,74,80,45,45,1,1,1,0,34,40,3,8,0.9,0.9
2025-12-17T0900,1345A,113.2347,23.1423,广州市,广雅中学,颗粒物(PM10),61,72,103,34,50,12,12,2,2,67,84,12,9,0.8,0.7
2025-12-17T0900,1346A,113.2612,23.105,广州市,市五中,颗粒物(PM10),55,59,84,31,40,24,24,5,5,75,96,17,12,0.9,0.8
2025-12-17T0900,1348A,113.3478,23.0916,广州市,广东商学院,颗粒物(PM10),52,54,78,31,42,24,24,11,11,60,77,12,8,0.8,0.7
2025-12-17T0900,1349A,113.4332,23.1047,广州市,市八十六中,,47,47,64,28,38,35,35,8,8,48,94,16,9,1.1,1
2025-12-17T0900,1350A,113.3505,22.9483,广州市,番禺中学,颗粒物(PM10),55,60,91,33,48,16,16,6,6,75,76,5,5,0.9,0.8
2025-12-17T0900,1351A,113.2146,23.3916,广州市,花都师范,,39,39,69,22,36,54,54,34,34,28,48,13,8,0.5,0.6
2025-12-17T0900,1352A,113.2597,23.1331,广州市,市监测站,颗粒物(PM10),56,62,90,31,41,19,19,4,4,67,88,18,12,1.0,0.9
2025-12-17T0900,1353A,113.5618,23.312,广州市,九龙镇镇龙,颗粒物(PM10),54,58,59,33,31,24,24,34,30,47,43,13,9,0.7,0.5
2025-12-17T0900,1354A,113.2765,23.1544,广州市,麓湖,,47,47,69,31,43,35,35,7,7,43,80,16,10,0.5,0.6
2025-12-17T0900,1355A,113.443,23.3035,广州市,帽峰山森林公园,,,,,,,,,,,,,,,,
2025-12-17T0900,2846A,113.3221,23.1322,广州市,体育西,颗粒物(PM10),66,81,76,32,39,46,46,14,14,35,75,18,12,0.8,0.7
2025-12-17T0900,3298A,113.5717,23.5491,广州市,从化街口,颗粒物(PM10),55,59,57,36,35,14,14,4,4,45,45,22,16,0.9,0.7
2025-12-17T0900,3299A,113.3472,23.3692,广州市,白云竹料,颗粒物(PM10),55,59,74,32,39,26,26,7,7,47,60,14,6,1.0,0.8
2025-12-17T0900,3300A,113.2981,23.237,广州市,白云嘉禾,颗粒物(PM10),57,64,97,31,43,27,27,6,6,48,74,15,9,0.9,0.9
2025-12-17T0900,3301A,113.4256,23.1716,广州市,黄埔科学城,颗粒物(PM10),53,56,55,32,28,53,53,42,42,29,42,14,7,0.9,0.7
2025-12-17T0900,3302A,113.3942,23.0483,广州市,番禺大学城,颗粒物(PM10),58,65,86,30,43,18,18,4,4,70,78,15,12,0.8,0.7
2025-12-17T0900,3303A,113.4922,22.8168,广州市,南沙黄阁,颗粒物(PM10),65,79,89,43,46,16,16,6,6,84,92,18,11,1.1,1.1
2025-12-17T0900,3304A,113.5342,22.7896,广州市,南沙街,颗粒物(PM10),55,60,86,38,44,21,21,4,4,66,74,12,10,0.7,0.7
2025-12-17T0900,3443A,113.2902,23.5544,广州市,花都梯面,,43,43,38,27,22,50,50,37,37,21,31,18,8,0.7,0.5
2025-12-17T0900,3445A,113.7858,23.7478,广州市,从化良口,,23,21,21,16,15,29,29,23,23,21,19,8,7,0.6,0.5
2025-12-17T0900,3446A,113.8051,23.2614,广州市,增城荔城,,40,40,47,27,28,33,33,29,27,26,26,10,8,0.6,0.5
2025-12-17T0900,2505A,109.568,23.1478,贵港市,德智高中,,,,,,,,,,,,,,,,
2025-12-17T0900,2506A,109.6047,23.0666,贵港市,江南子站,细颗粒物(PM2.5),82,92,82,60,55,29,29,21,21,32,33,8,9,0.8,0.8
2025-12-17T0900,2508A,109.5669,23.1065,贵港市,荷城子站,颗粒物(PM10),58,66,64,39,37,43,43,44,44,23,27,7,8,0.9,0.9
2025-12-17T0900,3405A,109.5886,23.1172,贵港市,新世纪学校,,,,68,,40,,,57,,,17,,6,,0.7
2025-12-17T0900,4260A,109.5933,23.0951,贵港市,中山路155-3号,细颗粒物(PM2.5),65,69,63,47,44,54,54,52,52,19,24,8,8,0.7,0.8
2025-12-17T0900,1439A,106.6899,26.5998,贵阳市,马鞍山,,27,27,62,17,42,38,38,38,38,16,20,6,8,0.6,0.7
2025-12-17T0900,1441A,106.6243,26.6266,贵阳市,鉴湖路,,39,39,74,17,40,51,51,47,47,15,17,4,4,0.5,0.6
2025-12-17T0900,1442A,106.7487,26.6343,贵阳市,燕子冲,细颗粒物(PM2.5),55,41,63,39,54,48,48,49,49,18,22,16,9,0.7,0.6
2025-12-17T0900,1443A,106.6555,26.4365,贵阳市,碧云窝,,48,48,73,22,43,46,46,46,46,19,16,9,10,0.5,0.5
2025-12-17T0900,1445A,106.7109,26.6027,贵阳市,红边门,,34,34,64,22,47,52,52,48,48,16,21,10,9,0.1,0.3
2025-12-17T0900,1446A,106.7164,26.5699,贵阳市,新华路,颗粒物(PM10),51,51,73,27,46,50,50,47,47,17,20,11,10,0.6,0.5
2025-12-17T0900,1447A,106.674,26.5424,贵阳市,太慈桥,,29,29,67,14,45,40,40,41,41,23,22,4,6,0.3,0.4
2025-12-17T0900,1552A,106.805,26.3003,贵阳市,桐木岭,,48,48,71,29,50,59,59,47,47,3,6,7,6,0.9,0.9
2025-12-17T0900,4230A,106.6882,26.5695,贵阳市,花果园大街66号,,36,34,59,25,51,47,47,45,45,23,22,6,5,0.6,0.7
2025-12-17T0900,4231A,106.6873,26.5169,贵阳市,漓江路57号,,42,,54,29,43,40,40,40,40,29,22,10,8,0.8,0.7
2025-12-17T0900,1862A,110.4144,25.3167,桂林市,电子科大尧山校区,,,,,,,,,,,,,,,,
2025-12-17T0900,1864A,110.3089,25.2708,桂林市,龙隐路小学,细颗粒物(PM2.5),65,61,68,47,47,52,52,32,32,14,26,8,8,0.5,0.6
2025-12-17T0900,1865A,110.2869,25.2178,桂林市,八中,细颗粒物(PM2.5),67,75,74,48,48,41,41,19,19,28,41,9,8,0.7,0.8
2025-12-17T0900,3531A,110.296,25.1253,桂林市,旅游学院,颗粒物(PM10),67,83,70,41,42,4,4,2,2,32,30,5,5,0.5,0.5
2025-12-17T0900,4222A,110.1835,25.2444,桂林市,环湖路276号,"颗粒物(PM10),细颗粒物(PM2.5)",58,66,72,41,41,21,21,3,3,34,43,8,7,0.4,0.5
2025-12-17T0900,4301A,110.2803,25.2773,桂林市,信义路13号,颗粒物(PM10),60,69,71,36,42,55,55,34,34,18,33,6,6,0.8,0.9
2025-12-17T0900,2674A,100.2561,34.4714,果洛藏族自治州,玛沁县大武镇,,36,36,46,7,17,19,19,25,23,10,9,20,19,0.4,0.5
2025-12-17T0900,1129A,126.5422,45.755,哈尔滨市,岭北,,,,,,,,,,,,,,,,
2025-12-17T0900,1130A,126.561,45.8167,哈尔滨市,松北商大,细颗粒物(PM2.5),65,74,49,47,31,14,14,20,20,43,34,16,9,0.9,0.6
2025-12-17T0900,1131A,126.979,45.5419,哈尔滨市,阿城会宁,细颗粒物(PM2.5),88,83,56,65,44,22,22,15,15,26,29,17,14,1.1,0.9
2025-12-17T0900,1132A,126.599,45.7222,哈尔滨市,南岗学府路,细颗粒物(PM2.5),59,64,61,42,40,17,17,8,8,31,36,14,14,0.7,0.7
2025-12-17T0900,1133A,126.689,45.7733,哈尔滨市,太平宏伟公园,颗粒物(PM10),65,79,102,37,59,18,18,10,10,35,37,14,16,1.0,1.3
2025-12-17T0900,1134A,126.635,45.7667,哈尔滨市,道外承德广场,细颗粒物(PM2.5),67,75,65,48,35,17,17,18,15,45,31,20,17,1.0,0.8
2025-12-17T0900,1135A,126.685,45.7319,哈尔滨市,香坊红旗大街,,,,,,,,,,,,,,,,
2025-12-17T0900,1136A,126.6411,45.7258,哈尔滨市,动力和平路,细颗粒物(PM2.5),78,98,73,57,54,17,17,9,9,39,42,21,21,0.9,0.9
2025-12-17T0900,1137A,126.593,45.7478,哈尔滨市,道里建国路,细颗粒物(PM2.5),95,71,48,71,39,12,12,10,10,35,26,24,12,1.0,0.7
2025-12-17T0900,1138A,126.615,45.61,哈尔滨市,平房东轻厂,,,78,81,58,63,20,20,16,16,29,45,,17,1.1,1.1
2025-12-17T0900,1139A,126.595,45.9855,哈尔滨市,呼兰师专,细颗粒物(PM2.5),78,86,84,57,64,13,13,10,10,41,37,16,14,1.0,0.9
2025-12-17T0900,1140A,126.6206,45.6842,哈尔滨市,省农科院,,,73,82,56,70,17,17,10,10,40,50,,24,0.7,0.8
2025-12-17T0900,2688A,93.5128,42.8172,哈密市,地区监测站,颗粒物(PM10),77,103,118,49,55,39,39,46,46,28,28,4,4,0.0,0.3
2025-12-17T0900,2689A,93.4961,42.8328,哈密市,哈密师范学校,颗粒物(PM10),86,121,115,43,55,22,22,44,42,60,34,6,7,1.2,0.9
2025-12-17T0900,2671A,100.9048,36.9639,海北藏族自治州,海晏县西海镇,,33,30,20,23,15,35,35,45,43,12,5,6,7,0.6,0.4
2025-12-17T0900,3867A,102.0738,36.5056,海东市,平安区公安北苑,细颗粒物(PM2.5),87,85,70,64,52,7,7,21,18,49,32,17,29,1.7,1.3
2025-12-17T0900,1409A,110.576,19.9507,海口市,东寨港,,,,,,,,,,,,,,,,
2025-12-17T0900,1410A,110.3232,20.0574,海口市,海南大学,,41,41,50,23,23,90,90,117,114,16,10,10,6,0.4,0.4
2025-12-17T0900,1411A,110.283,20.0053,海口市,秀英海南医院,颗粒物(PM10),58,65,44,40,23,97,97,108,108,22,10,10,8,0.5,0.3
2025-12-17T0900,1412A,110.338,19.9969,海口市,海南师范大学,,,67,43,34,22,102,102,117,116,22,11,,6,,0.5
2025-12-17T0900,1413A,110.33,20.0356,海口市,龙华路环保局宿舍,颗粒物(PM10),57,63,44,30,24,95,95,117,116,23,12,11,8,0.5,0.4
2025-12-17T0900,3539A,110.5111,19.9736,海口市,桂林洋子站,颗粒物(PM10),61,72,50,42,24,98,98,108,108,23,10,10,8,0.4,0.4
2025-12-17T0900,2673A,100.6188,36.2866,海南藏族自治州,共和县恰卜恰镇,,28,28,36,12,22,11,11,26,23,37,25,10,11,0.8,0.7
2025-12-17T0900,2676A,97.3731,37.3753,海西蒙古族藏族自治州,德令哈市,,17,10,24,10,10,54,54,54,54,4,10,13,12,0.3,0.5
2025-12-17T0900,1048A,114.5302,36.6116,邯郸市,东污水处理厂,细颗粒物(PM2.5),135,124,125,103,116,8,8,11,9,52,43,7,5,2.1,1.1
2025-12-17T0900,1049A,114.4918,36.5713,邯郸市,矿院,细颗粒物(PM2.5),132,107,125,100,115,6,6,4,3,49,44,7,5,2.1,1.2
2025-12-17T0900,1050A,114.484,36.6133,邯郸市,丛台公园,细颗粒物(PM2.5),138,119,137,105,109,12,12,8,7,48,44,13,9,1.9,1.1
2025-12-17T0900,3458A,114.7895,36.5593,邯郸市,香泉濮院小区,细颗粒物(PM2.5),209,185,177,159,142,8,8,4,4,55,49,20,11,1.6,1.1
2025-12-17T0900,3579A,114.50634,36.77178,邯郸市,永年区实验高中,细颗粒物(PM2.5),107,137,133,80,78,7,7,6,6,59,61,6,6,2.1,1.2
2025-12-17T0900,3580A,114.20016,36.44293,邯郸市,峰峰矿区临水派出所,细颗粒物(PM2.5),119,,78,90,88,63,63,57,56,19,25,18,16,1.7,1.3
2025-12-17T0900,2634A,106.9893,33.1842,汉中市,汉川机床厂子校,,,,,,,,,,,,,,,,
2025-12-17T0900,2635A,107.0154,33.0706,汉中市,市监测站,细颗粒物(PM2.5),80,84,87,59,71,5,5,4,4,27,35,5,6,1.5,1.3
2025-12-17T0900,2636A,107.0089,33.1138,汉中市,鑫源开发区,细颗粒物(PM2.5),84,74,75,62,53,7,7,10,9,30,36,6,6,1.2,1.1
2025-12-17T0900,2637A,107.007,33.0323,汉中市,南郑大河坎水厂,细颗粒物(PM2.5),67,70,83,48,58,4,4,10,8,26,33,6,6,1.0,1
2025-12-17T0900,1223A,120.2072,30.2111,杭州市,滨江,细颗粒物(PM2.5),75,96,93,55,44,7,7,1,1,62,69,12,10,1.0,0.9
2025-12-17T0900,1224A,120.0633,30.2747,杭州市,西溪,颗粒物(PM10),55,60,60,37,38,0,0,0,0,38,39,8,8,0.9,0.8
2025-12-17T0900,1226A,120.3417,30.3150,杭州市,下沙,细颗粒物(PM2.5),98,117,87,73,52,18,18,3,3,62,80,15,10,1.2,0.9
2025-12-17T0900,1227A,120.1269,30.2456,杭州市,卧龙桥,细颗粒物(PM2.5),68,67,56,49,37,7,7,1,1,49,40,11,9,0.9,0.6
2025-12-17T0900,1228A,120.1903,30.2692,杭州市,浙江农大,细颗粒物(PM2.5),98,110,106,73,58,7,7,2,2,75,79,7,7,1.0,1.1
2025-12-17T0900,1230A,120.1197,30.3119,杭州市,和睦小学,,,100,86,56,48,9,9,3,3,65,63,,11,0.9,1
2025-12-17T0900,1231A,120.3019,30.4183,杭州市,临平镇,细颗粒物(PM2.5),98,117,89,73,47,22,22,10,10,49,66,14,9,1.2,1
2025-12-17T0900,1232A,120.2753,30.1839,杭州市,城厢镇,细颗粒物(PM2.5),104,100,83,78,49,15,15,2,2,63,65,15,9,1.3,1.1
2025-12-17T0900,1233A,120.0883,30.1808,杭州市,云栖,,,71,87,45,38,,,3,3,38,47,4,4,0.8,0.6
2025-12-17T0900,3557A,119.9464,30.0494,杭州市,镇二中,细颗粒物(PM2.5),70,69,73,51,52,4,4,2,2,48,54,8,7,1.3,1.1
2025-12-17T0900,3558A,119.7183,30.2367,杭州市,市府大楼,细颗粒物(PM2.5),57,58,68,40,38,9,9,14,13,34,35,11,11,0.9,0.8
2025-12-17T0900,3656A,120.1556,30.2864,杭州市,消防大队,细颗粒物(PM2.5),87,96,83,64,51,8,8,1,1,65,68,10,7,0.9,0.9
2025-12-17T0900,1270A,117.1959,31.7848,合肥市,明珠广场,细颗粒物(PM2.5),218,229,117,168,70,6,6,13,9,40,42,6,6,1.4,0.9
2025-12-17T0900,1271A,117.3072,31.8764,合肥市,三里街,细颗粒物(PM2.5),208,217,118,158,69,7,7,10,8,43,49,6,6,1.3,0.9
2025-12-17T0900,1272A,117.2588,31.8707,合肥市,琥珀山庄,细颗粒物(PM2.5),192,217,118,144,82,7,7,7,7,38,52,7,7,1.3,0.9
2025-12-17T0900,1273A,117.1604,31.9052,合肥市,董铺水库,,,,,,,,,,,,,,,,
2025-12-17T0900,1274A,117.25,31.8571,合肥市,长江中路,细颗粒物(PM2.5),216,212,115,166,72,8,8,11,9,35,40,7,8,1.4,1
2025-12-17T0900,1275A,117.266,31.9436,合肥市,庐阳区,细颗粒物(PM2.5),201,217,122,151,68,8,8,9,7,39,44,9,10,1.3,0.9
2025-12-17T0900,1276A,117.3453,31.8616,合肥市,瑶海区,细颗粒物(PM2.5),206,215,120,156,71,8,8,14,10,49,51,5,6,1.3,0.9
2025-12-17T0900,1277A,117.3027,31.7964,合肥市,包河区,细颗粒物(PM2.5),216,207,115,166,73,9,9,15,12,48,57,6,8,1.4,1
2025-12-17T0900,1278A,117.2776,31.7385,合肥市,滨湖新区,细颗粒物(PM2.5),228,224,118,178,73,10,10,10,7,45,55,5,6,1.3,0.9
2025-12-17T0900,1279A,117.1318,31.8403,合肥市,高新区,细颗粒物(PM2.5),217,215,117,167,71,9,9,12,10,40,46,4,5,1.3,0.9
2025-12-17T0900,3464A,117.3803,31.9147,合肥市,高教基地,细颗粒物(PM2.5),217,219,115,167,75,8,8,13,12,41,38,7,6,1.2,0.8
2025-12-17T0900,3614A,79.924,37.0877,和田地区,地区环保局,颗粒物(PM10),147,244,249,93,88,45,45,47,47,42,46,7,14,1.6,1.5
2025-12-17T0900,3615A,79.9131,37.113,和田地区,市环保局,颗粒物(PM10),148,246,246,83,85,40,40,27,27,54,56,10,14,1.2,1.4
2025-12-17T0900,2516A,108.2011,24.715,河池市,东仁乐园,,,,,,,,,,,,,,,,
2025-12-17T0900,2517A,108.0497,24.6947,河池市,市环保站,颗粒物(PM10),61,72,70,41,42,6,6,2,2,27,30,2,4,0.9,0.9
2025-12-17T0900,2518A,108.0983,24.6989,河池市,市疾控中心,细颗粒物(PM2.5),68,74,70,49,49,2,2,1,1,33,34,6,7,1.1,1
2025-12-17T0900,1696A,114.6778,23.7569,河源市,源西,,,,,,,,,,,,,,,,
2025-12-17T0900,1697A,114.6944,23.7586,河源市,东埔,,43,43,41,28,27,28,28,30,29,35,31,9,7,0.8,0.7
2025-12-17T0900,1698A,114.6892,23.7233,河源市,老城,,45,45,38,24,23,14,14,10,10,28,28,6,6,0.9,0.7
2025-12-17T0900,1718A,115.4208,35.2464,菏泽市,气象局,细颗粒物(PM2.5),165,161,214,125,156,13,13,14,12,34,41,3,8,1.5,1.1
2025-12-17T0900,3374A,115.5564,35.0891,菏泽市,定陶老年大学,细颗粒物(PM2.5),203,173,198,153,148,9,9,11,9,43,47,4,9,1.4,1
2025-12-17T0900,4184A,115.4797,35.24401,菏泽市,永昌路1号,细颗粒物(PM2.5),196,172,210,147,155,16,16,16,15,37,45,3,10,1.4,1.1
2025-12-17T0900,4193A,115.4715,35.2800,菏泽市,长城路999号,细颗粒物(PM2.5),127,124,200,96,148,14,14,14,12,31,40,3,3,1.7,1.3
2025-12-17T0900,2514A,111.5264,24.4172,贺州市,环保小区,颗粒物(PM10),68,85,60,23,32,7,7,8,8,26,32,6,5,1.0,0.9
2025-12-17T0900,2515A,111.5608,24.4078,贺州市,政协大楼,,38,37,49,26,25,4,4,0,0,24,33,7,8,1.1,0.9
2025-12-17T0900,3534A,111.4744,24.4553,贺州市,西湾,颗粒物(PM10),53,55,60,27,29,6,6,1,1,24,33,6,7,0.9,0.8
2025-12-17T0900,2385A,114.17,35.9019,鹤壁市,市监测站,细颗粒物(PM2.5),83,95,127,61,93,30,30,35,34,18,25,4,8,1.1,1.3
2025-12-17T0900,2386A,114.2956,35.7511,鹤壁市,市交警支队,颗粒物(PM10),76,102,148,52,104,2,2,20,18,56,42,6,8,1.5,1.2
2025-12-17T0900,2387A,114.2878,35.7306,鹤壁市,迎宾馆,颗粒物(PM10),74,98,140,50,101,7,7,30,26,44,32,10,11,1.4,1.2
2025-12-17T0900,3474A,114.2617,35.6822,鹤壁市,大新区,颗粒物(PM10),65,80,127,45,95,22,22,36,34,31,31,6,10,1.1,1.1
2025-12-17T0900,3596A,114.1572,35.9603,鹤壁市,南山宾馆,细颗粒物(PM2.5),112,115,130,84,94,42,42,54,52,17,26,35,15,1.3,1.3
2025-12-17T0900,2244A,130.2537,47.3416,鹤岗市,哈啤分公司,,28,20,18,19,13,60,60,59,59,7,5,8,6,0.7,0.7
2025-12-17T0900,2245A,130.2684,47.3086,鹤岗市,斯达机电,,34,34,31,13,18,56,56,62,61,13,6,8,7,0.7,0.6
2025-12-17T0900,2246A,130.3114,47.3388,鹤岗市,东山纸板厂,,20,14,25,10,17,63,63,59,59,8,6,6,5,0.9,0.8
2025-12-17T0900,2247A,130.1097,47.3382,鹤岗市,五号水库,,,,,,,,,,,,,,,,
2025-12-17T0900,2263A,127.4833,50.2524,黑河市,交通局,,19,19,19,8,16,50,50,52,52,19,10,3,4,0.3,0.6
2025-12-17T0900,2264A,127.5144,50.2341,黑河市,环保局,,18,,14,12,16,51,51,57,57,17,11,4,4,0.6,0.5
2025-12-17T0900,2265A,127.5291,50.2472,黑河市,大黑河岛,,,,,,,,,,,,,,,,
2025-12-17T0900,1074A,115.6838,37.7541,衡水市,电机北厂,细颗粒物(PM2.5),98,96,148,73,102,12,12,9,9,34,57,6,7,0.8,1.1
2025-12-17T0900,1075A,115.6303,37.7316,衡水市,市监测站,细颗粒物(PM2.5),77,57,129,56,95,2,2,2,2,40,60,4,6,1.1,1.1
2025-12-17T0900,3188A,115.6683,37.7217,衡水市,市城管局,细颗粒物(PM2.5),79,64,137,58,95,1,1,4,4,43,60,6,10,1.1,1.1
2025-12-17T0900,3459A,115.5989,37.5491,衡水市,地表水厂,细颗粒物(PM2.5),70,,132,51,111,3,3,1,1,36,61,3,6,1.1,1.1
2025-12-17T0900,2456A,112.5003,26.9167,衡阳市,原169医院,,,,,,,,,,,,,,,,
2025-12-17T0900,2457A,112.6194,26.9258,衡阳市,衡阳化工总厂,细颗粒物(PM2.5),83,106,67,61,43,19,19,10,10,42,33,11,19,1.2,0.9
2025-12-17T0900,2458A,112.6211,26.8956,衡阳市,珠晖区环保局,细颗粒物(PM2.5),74,63,65,54,44,24,24,11,11,33,34,8,14,1.6,1.2
2025-12-17T0900,2459A,112.6197,26.8733,衡阳市,市委党校,细颗粒物(PM2.5),84,76,65,62,42,15,15,24,22,35,25,12,16,1.2,1.1
2025-12-17T0900,2460A,112.6006,26.8919,衡阳市,市监测站,细颗粒物(PM2.5),89,101,82,66,46,9,9,8,8,48,39,15,19,1.4,1.2
2025-12-17T0900,2461A,112.5664,26.9056,衡阳市,真空机电公司,细颗粒物(PM2.5),77,82,74,56,49,21,21,11,11,39,36,10,15,1.2,1.1
2025-12-17T0900,3399A,112.6703,26.882,衡阳市,师范学院,颗粒物(PM10),68,86,66,43,37,38,38,34,34,29,24,6,10,1.0,1
2025-12-17T0900,2608A,103.3772,23.3993,红河哈尼族彝族自治州,污水处理厂,,40,29,33,28,29,45,45,52,50,13,8,4,5,0.4,0.4
2025-12-17T0900,2609A,103.3861,23.35,红河哈尼族彝族自治州,监测站,,34,34,39,21,29,46,46,56,54,12,6,7,8,0.3,0.3
2025-12-17T0900,3038A,103.3758,23.368,红河哈尼族彝族自治州,州图书馆,,18,16,26,12,18,48,48,56,54,8,6,5,9,0.3,0.5
2025-12-17T0900,1090A,111.6507,40.7517,呼和浩特市,呼市一监,细颗粒物(PM2.5),144,119,124,110,107,4,4,1,1,46,52,6,6,1.3,0.9
2025-12-17T0900,1091A,111.6572,40.8033,呼和浩特市,小召,细颗粒物(PM2.5),122,110,126,92,101,6,6,4,4,55,56,6,8,1.5,1
2025-12-17T0900,1094A,111.7516,40.8369,呼和浩特市,如意水处理厂,颗粒物(PM10),64,78,131,35,85,5,5,3,3,61,56,11,12,1.2,1.1
2025-12-17T0900,1095A,111.7276,40.8062,呼和浩特市,二十九中,颗粒物(PM10),75,100,138,52,100,4,4,11,9,59,45,13,12,1.1,0.9
2025-12-17T0900,1096A,111.5512,40.7866,呼和浩特市,工大金川校区,细颗粒物(PM2.5),62,68,128,44,96,6,6,8,8,59,61,7,9,0.9,0.9
2025-12-17T0900,1097A,111.717,40.7612,呼和浩特市,化肥厂生活区,细颗粒物(PM2.5),114,104,130,86,102,9,9,15,13,54,53,8,7,1.6,1.1
2025-12-17T0900,3698A,111.5968,40.8178,呼和浩特市,红旗小学,细颗粒物(PM2.5),84,70,116,62,93,8,8,6,6,53,59,6,7,1.1,0.9
2025-12-17T0900,3699A,111.6518,40.8389,呼和浩特市,海东办,细颗粒物(PM2.5),99,88,112,74,88,5,5,4,4,56,56,5,7,1.2,1
2025-12-17T0900,3061A,119.7512,49.1577,呼伦贝尔市,国华电力东,,38,26,27,26,21,58,58,35,35,23,29,6,18,0.6,0.7
2025-12-17T0900,4279A,119.7569,49.2222,呼伦贝尔市,伊敏大街东7号,,28,25,41,19,30,47,47,25,25,11,26,6,11,0.5,0.6
2025-12-17T0900,1250A,120.0751,30.8669,湖州市,城西水厂,细颗粒物(PM2.5),95,111,78,71,50,15,15,11,11,58,62,14,11,1.0,0.8
2025-12-17T0900,2873A,120.0830,30.8929,湖州市,仁皇山新区,细颗粒物(PM2.5),117,120,74,88,47,31,31,15,15,55,63,15,10,1.1,0.8
2025-12-17T0900,2907A,120.1844,30.8596,湖州市,吴兴区站,细颗粒物(PM2.5),122,130,76,92,49,30,30,11,11,62,64,14,9,1.3,0.8
2025-12-17T0900,3562A,120.4148,30.8538,湖州市,南浔区站,细颗粒物(PM2.5),125,154,69,95,44,6,6,2,1,92,64,11,8,1.4,0.8
2025-12-17T0900,1607A,120.9049,40.7211,葫芦岛市,龙港区,细颗粒物(PM2.5),163,132,54,124,41,20,20,12,12,49,36,72,21,1.8,0.9
2025-12-17T0900,1608A,120.8392,40.7514,葫芦岛市,化工街,细颗粒物(PM2.5),144,207,62,110,34,11,11,12,12,47,29,40,25,1.7,0.7
2025-12-17T0900,1609A,120.8341,40.7073,葫芦岛市,新区,细颗粒物(PM2.5),75,70,49,55,33,9,9,13,11,55,36,42,16,1.5,0.8
2025-12-17T0900,1610A,120.8695,40.7677,葫芦岛市,东城区,细颗粒物(PM2.5),113,109,51,85,38,11,11,8,8,50,37,58,19,1.4,0.9
2025-12-17T0900,2482A,109.5981,27.5721,怀化市,林科所,,,,,,,,,,,,,,,,
2025-12-17T0900,2483A,109.9453,27.5444,怀化市,河西地税局,细颗粒物(PM2.5),65,76,74,47,49,10,10,20,20,40,39,13,10,0.8,0.7
2025-12-17T0900,2484A,109.9781,27.5342,怀化市,市四医院,细颗粒物(PM2.5),63,73,90,45,57,23,23,9,9,26,44,21,20,0.5,0.7
2025-12-17T0900,2485A,109.9972,27.5578,怀化市,监测楼,颗粒物(PM10),59,67,80,41,49,25,25,,,22,35,16,9,0.3,0.4
2025-12-17T0900,2486A,110.0394,27.583,怀化市,市委党校,颗粒物(PM10),60,70,80,42,51,37,37,21,21,15,29,21,15,0.3,0.4
2025-12-17T0900,1210A,119.036,33.5981,淮安市,钵池山,细颗粒物(PM2.5),124,122,122,94,82,25,25,15,15,34,53,6,8,1.0,1
2025-12-17T0900,1211A,119.007,33.575,淮安市,北京南路,细颗粒物(PM2.5),124,122,128,94,90,30,30,24,24,26,52,9,10,1.1,1.1
2025-12-17T0900,1212A,118.989,33.6067,淮安市,市监测站,细颗粒物(PM2.5),119,119,119,90,88,29,29,19,19,28,51,9,11,1.2,1.2
2025-12-17T0900,1213A,119.135,33.5039,淮安市,楚州区监测站,细颗粒物(PM2.5),137,134,128,104,94,22,22,23,23,30,50,9,11,1.4,1.1
2025-12-17T0900,3426A,118.8755,33.2894,淮安市,新华书店,细颗粒物(PM2.5),145,154,129,111,90,21,21,12,12,44,58,11,13,1.5,1.2
2025-12-17T0900,4206A,119.0288,33.6319,淮安市,承德北路606号,细颗粒物(PM2.5),129,129,138,98,86,25,25,16,16,30,55,8,10,1.0,1.1
2025-12-17T0900,2282A,116.8004,33.975,淮北市,监测站,细颗粒物(PM2.5),213,242,180,163,120,7,7,4,3,54,51,10,10,1.5,1
2025-12-17T0900,2283A,116.8091,33.9007,淮北市,烈山区政府,细颗粒物(PM2.5),215,222,168,165,125,10,10,8,7,47,48,10,11,1.1,0.8
2025-12-17T0900,3330A,116.8873,33.9836,淮北市,杜集区检察院,细颗粒物(PM2.5),219,202,164,169,124,7,7,3,2,42,44,6,7,1.3,1
2025-12-17T0900,4017A,116.7923,33.9535,淮北市,市博物馆,细颗粒物(PM2.5),222,234,176,172,126,6,6,7,5,50,47,11,12,1.4,1
2025-12-17T0900,2277A,116.8305,32.7727,淮南市,潘集区政府,细颗粒物(PM2.5),218,202,149,168,113,10,10,8,7,35,31,6,7,1.2,0.9
2025-12-17T0900,2279A,116.8569,32.5951,淮南市,谢家集区政府,细颗粒物(PM2.5),332,331,145,282,97,5,5,2,2,41,38,9,9,1.1,0.7
2025-12-17T0900,2280A,116.8281,32.633,淮南市,八公山区政府,细颗粒物(PM2.5),216,217,150,166,106,7,7,5,4,34,31,5,7,1.1,0.7
2025-12-17T0900,2281A,116.6325,32.6201,淮南市,焦岗湖风景区管理处,,,,,,,,,,,,,,,,
2025-12-17T0900,2894A,117.0566,32.6531,淮南市,经济技术开发区消防队,细颗粒物(PM2.5),213,209,149,163,99,8,8,7,6,45,45,5,7,1.0,0.7
2025-12-17T0900,3329A,117.0108,32.5893,淮南市,山南新区,细颗粒物(PM2.5),215,230,160,165,95,12,12,9,8,37,37,3,4,1.1,0.7
2025-12-17T0900,4209A,117.0031,32.6445,淮南市,国庆中路369号,细颗粒物(PM2.5),217,206,138,167,100,1,1,2,1,39,44,8,10,1.1,0.8
2025-12-17T0900,2446A,114.9028,30.4742,黄冈市,职工中心,细颗粒物(PM2.5),162,167,87,123,60,34,34,50,46,23,25,4,9,0.9,0.8
2025-12-17T0900,2929A,114.8858,30.4519,黄冈市,红卫路,细颗粒物(PM2.5),180,147,77,136,63,32,32,48,44,25,28,5,8,0.9,0.7
2025-12-17T0900,3398A,114.9136,30.4445,黄冈市,市林业局,细颗粒物(PM2.5),198,177,93,148,61,34,34,50,47,25,24,5,8,1.1,0.9
2025-12-17T0900,2672A,102.0199,35.5102,黄南藏族自治州,同仁县隆务镇,,24,24,32,10,15,47,47,48,48,1,5,10,10,0.2,0.3
2025-12-17T0900,2295A,118.2903,29.6963,黄山市,延安路89号,,,49,45,32,29,,,5,5,17,23,4,4,,0.4
2025-12-17T0900,2297A,118.1371,30.2756,黄山市,黄山区政府5号楼,颗粒物(PM10),53,55,33,26,25,8,8,10,9,10,12,6,6,0.4,0.3
2025-12-17T0900,4210A,118.3354,29.7203,黄山市,滨江东路7-2号,颗粒物(PM10),61,71,64,43,42,6,6,7,6,22,28,4,4,0.6,0.6
2025-12-17T0900,2423A,115.0601,30.2313,黄石市,沈家营,细颗粒物(PM2.5),139,156,90,106,53,30,30,37,35,21,23,7,9,1.3,1.2
2025-12-17T0900,2426A,114.8988,30.2019,黄石市,铁山,细颗粒物(PM2.5),195,,80,146,65,28,28,44,42,38,36,5,8,0.8,1
2025-12-17T0900,2427A,115.0307,30.2092,黄石市,团城山,细颗粒物(PM2.5),169,155,84,128,56,29,29,41,38,32,31,7,8,1.4,1
2025-12-17T0900,3149A,115.0235,30.1578,黄石市,笔架山北路,细颗粒物(PM2.5),192,213,128,144,64,16,16,25,25,44,38,13,12,1.3,1.2
2025-12-17T0900,4185A,115.0780,30.21118,黄石市,磁湖东路29号,细颗粒物(PM2.5),178,155,97,134,66,37,37,41,41,18,32,8,11,1.1,1.1
2025-12-17T0900,1392A,114.4183,23.0528,惠州市,河南岸金山湖子站,细颗粒物(PM2.5),58,62,60,41,34,18,18,18,17,38,35,6,5,0.9,0.8
2025-12-17T0900,1393A,114.4053,23.0822,惠州市,下埔横江三路子站,颗粒物(PM10),51,52,62,31,32,33,33,9,9,34,42,10,7,0.8,0.8
2025-12-17T0900,1394A,114.4103,23.1142,惠州市,江北云山西路子站,,48,48,59,26,29,34,34,7,7,39,52,9,8,0.7,0.7
2025-12-17T0900,1395A,114.4645,22.7833,惠州市,惠阳区承修路船湖子站,,48,48,67,27,32,50,50,44,44,25,33,9,9,0.7,0.7
2025-12-17T0900,1396A,114.5317,22.7422,惠州市,大亚湾管委会子站,,41,41,66,24,34,53,53,40,40,26,36,7,8,0.6,0.6
2025-12-17T0900,3314A,114.4338,22.8134,惠州市,惠阳秋长,,48,48,65,29,35,53,53,41,41,30,38,15,11,0.6,0.6
2025-12-17T0900,3452A,114.6517,22.775,惠州市,大亚湾霞涌,,24,,48,15,25,75,75,74,73,15,24,5,5,0.5,0.6
2025-12-17T0900,2240A,130.9762,45.3001,鸡西市,环保局,,26,26,35,11,13,49,49,52,51,11,7,7,7,0.3,0.2
2025-12-17T0900,2243A,130.9429,45.3039,鸡西市,第一中学,,31,31,23,19,11,50,50,52,51,8,9,4,4,0.2,0.2
2025-12-17T0900,3707A,131.0207,45.3073,鸡西市,欧美日汽修厂,颗粒物(PM10),54,57,23,19,14,44,44,44,42,15,10,8,6,0.4,0.3
2025-12-17T0900,3709A,130.9967,45.3106,鸡西市,市政设施管理处,,36,32,26,25,14,44,44,45,43,19,15,8,9,0.6,0.4
2025-12-17T0900,2367A,114.9754,27.0803,吉安市,红声器材厂,,50,49,50,35,29,10,10,8,7,33,33,7,8,0.6,0.4
2025-12-17T0900,2368A,114.9658,27.0999,吉安市,市森林工业局,颗粒物(PM10),51,52,54,32,30,10,10,22,19,30,27,11,11,0.5,0.5
2025-12-17T0900,2369A,114.99,27.1312,吉安市,市环境监测站,颗粒物(PM10),52,53,50,34,30,16,16,17,16,34,27,15,15,1.0,0.6
2025-12-17T0900,2370A,115.0093,27.0968,吉安市,青原区法院,,50,50,51,33,28,2,2,1,1,42,34,9,11,0.7,0.5
2025-12-17T0900,1772A,126.54,43.8622,吉林市,哈达湾,细颗粒物(PM2.5),80,87,70,59,47,18,18,16,16,32,29,15,12,1.6,1.3
2025-12-17T0900,1773A,126.5844,43.8358,吉林市,东局子,细颗粒物(PM2.5),94,88,60,70,44,6,6,5,4,37,27,17,14,1.5,1.1
2025-12-17T0900,1774A,126.5052,43.8245,吉林市,电力学院,细颗粒物(PM2.5),85,90,75,63,56,16,16,10,10,31,32,18,22,1.4,1.3
2025-12-17T0900,1775A,126.6133,43.8972,吉林市,江北,细颗粒物(PM2.5),107,107,68,80,52,12,12,16,14,36,22,12,8,1.7,1.2
2025-12-17T0900,1776A,126.555,43.8306,吉林市,江南公园,细颗粒物(PM2.5),95,90,62,71,48,3,3,1,1,35,31,18,12,1.5,1.1
2025-12-17T0900,1778A,126.7061,43.7133,吉林市,丰满,细颗粒物(PM2.5),70,51,44,51,43,23,23,25,24,18,17,11,9,0.7,0.6
2025-12-17T0900,2868A,126.4739,43.953,吉林市,九站,细颗粒物(PM2.5),183,185,109,138,83,12,12,8,8,44,39,23,23,1.5,1
2025-12-17T0900,1299A,116.9862,36.6114,济南市,科干所,细颗粒物(PM2.5),108,139,170,81,104,6,6,8,7,42,60,10,10,1.5,1.5
2025-12-17T0900,1300A,116.9376,36.665,济南市,农科所,细颗粒物(PM2.5),85,105,167,63,98,2,2,2,1,38,62,5,5,1.6,1.4
2025-12-17T0900,1301A,117.1265,36.6734,济南市,开发区,细颗粒物(PM2.5),125,134,165,95,116,4,4,6,5,39,56,6,7,1.4,1.3
2025-12-17T0900,1303A,117.0624,36.6868,济南市,省种子仓库,细颗粒物(PM2.5),104,122,177,78,114,8,8,7,7,45,55,9,10,1.6,1.4
2025-12-17T0900,1304A,116.9489,36.6447,济南市,机床二厂,细颗粒物(PM2.5),170,173,176,129,126,4,4,5,4,37,56,11,10,2.0,1.3
2025-12-17T0900,1305A,117.0495,36.663,济南市,市监测站,细颗粒物(PM2.5),110,132,170,83,114,3,3,3,2,49,55,5,6,1.4,1.2
2025-12-17T0900,1306A,116.7675,36.5484,济南市,长清党校,,,76,181,59,118,5,5,1,1,33,60,4,9,,1.5
2025-12-17T0900,1616A,117.6795,36.229,济南市,技术学院,细颗粒物(PM2.5),122,119,146,92,104,17,17,15,15,47,48,3,7,1.0,1.1
2025-12-17T0900,1961A,117.532,36.6868,济南市,东山小学,细颗粒物(PM2.5),98,88,175,73,118,11,11,6,6,40,56,2,7,1.3,1.4
2025-12-17T0900,3059A,117.7161,36.2049,济南市,泰兴公司,细颗粒物(PM2.5),134,144,150,102,108,6,6,20,17,56,46,4,7,1.0,0.9
2025-12-17T0900,3064A,117.6867,36.2171,济南市,莱芜战役纪念馆,细颗粒物(PM2.5),118,119,149,89,110,23,23,27,26,43,44,4,9,0.6,0.8
2025-12-17T0900,3494A,117.1673,36.9782,济南市,济阳区政府,细颗粒物(PM2.5),110,107,157,83,104,9,9,11,10,43,54,6,12,1.3,1.2
2025-12-17T0900,3495A,117.1171,36.63,济南市,锦屏中学,细颗粒物(PM2.5),83,93,167,61,112,22,22,17,17,22,48,4,6,1.1,1.4
2025-12-17T0900,3682A,116.9814,36.6819,济南市,济南四建,细颗粒物(PM2.5),108,112,162,81,113,3,3,3,3,39,58,8,8,1.9,1.5
2025-12-17T0900,1653A,116.6251,35.4302,济宁市,火炬城,细颗粒物(PM2.5),233,210,177,183,141,6,6,4,4,47,53,6,8,1.8,1.2
2025-12-17T0900,1655A,116.5491,35.4042,济宁市,电化厂,细颗粒物(PM2.5),149,174,227,114,136,7,7,5,5,50,64,5,12,1.4,1.1
2025-12-17T0900,3500A,116.5814,35.3707,济宁市,北湖一中,细颗粒物(PM2.5),210,188,165,160,135,,,5,4,44,55,6,9,1.8,1.3
2025-12-17T0900,3501A,116.8249,35.5593,济宁市,服务中心,细颗粒物(PM2.5),173,224,194,131,119,3,3,3,3,42,47,8,14,1.6,1.1
2025-12-17T0900,3678A,116.5907,35.4054,济宁市,市第七中学,细颗粒物(PM2.5),208,187,166,158,125,8,8,6,6,52,58,9,13,1.8,1.3
2025-12-17T0900,2255A,130.2751,46.8028,佳木斯市,佳纺,,46,46,26,27,13,35,35,42,41,20,14,4,3,0.7,0.5
2025-12-17T0900,2256A,130.3995,46.8307,佳木斯市,发电厂,,,,,,,,,,,,,,,,
2025-12-17T0900,2257A,130.3258,46.7975,佳木斯市,环保局,颗粒物(PM10),52,54,23,22,13,35,35,46,44,23,13,2,3,0.4,0.2
2025-12-17T0900,2258A,130.3648,46.8032,佳木斯市,十一中,,,,,,,,,,,,,,,,
2025-12-17T0900,2259A,130.3794,46.7588,佳木斯市,四丰,,,,,,,,,,,,,,,,
2025-12-17T0900,1252A,120.7436,30.778,嘉兴市,清河小学,细颗粒物(PM2.5),112,132,92,84,54,9,9,4,4,81,73,12,8,1.1,0.5
2025-12-17T0900,1253A,120.726,30.7478,嘉兴市,嘉兴学院,细颗粒物(PM2.5),113,148,88,85,51,15,15,8,8,78,69,14,9,1.5,1
2025-12-17T0900,2872A,120.7846,30.7525,嘉兴市,南湖区残联,细颗粒物(PM2.5),113,142,84,85,52,20,20,10,10,71,68,11,6,1.4,0.8
2025-12-17T0900,3407A,120.6916,30.7739,嘉兴市,秀洲住建,细颗粒物(PM2.5),133,147,93,101,54,11,11,4,4,75,71,13,9,1.0,0.5
2025-12-17T0900,1945A,98.2908,39.7711,嘉峪关市,气象局,颗粒物(PM10),63,75,72,29,26,4,4,25,19,40,23,17,20,1.4,0.8
2025-12-17T0900,2884A,98.2672,39.7978,嘉峪关市,酒钢宾馆,颗粒物(PM10),75,100,81,29,26,7,7,30,26,47,25,44,24,1.1,0.8
2025-12-17T0900,3248A,98.2643,39.7724,嘉峪关市,雄关区,颗粒物(PM10),73,96,58,38,28,2,2,16,10,55,34,36,19,1.6,0.9
2025-12-17T0900,1383A,113.1064,22.6058,江门市,北街,颗粒物(PM10),56,62,96,38,62,29,29,27,27,59,86,17,14,0.7,0.8
2025-12-17T0900,1384A,113.0731,22.5835,江门市,西区,颗粒物(PM10),52,54,118,35,67,24,24,23,22,72,103,17,12,0.9,0.9
2025-12-17T0900,1385A,113.0219,22.5311,江门市,圭峰西,,40,34,106,28,76,61,61,31,31,36,72,13,8,0.7,0.8
2025-12-17T0900,1386A,113.0828,22.5947,江门市,东湖,颗粒物(PM10),61,72,115,37,65,22,22,23,22,66,86,15,12,0.6,0.6
2025-12-17T0900,3311A,113.1075,22.5647,江门市,江海富民,颗粒物(PM10),77,103,126,48,54,28,28,30,29,69,94,15,14,1.0,0.9
2025-12-17T0900,3449A,113.05,22.4667,江门市,新会银湖,细颗粒物(PM2.5),75,76,108,55,95,10,10,10,10,61,75,11,8,0.9,0.9
2025-12-17T0900,1830A,113.1992,35.2590,焦作市,影视城,,,,169,,107,,,39,,,41,,6,,1.2
2025-12-17T0900,3335A,113.3137,35.2641,焦作市,马村街道办,细颗粒物(PM2.5),172,168,173,130,133,10,10,16,16,28,39,5,9,1.4,1.4
2025-12-17T0900,3336A,113.2465,35.2373,焦作市,焦作技师学院,细颗粒物(PM2.5),178,189,183,134,132,9,9,13,11,36,43,12,13,1.7,1.4
2025-12-17T0900,3477A,113.1656,35.2539,焦作市,中站许衡医院,细颗粒物(PM2.5),172,164,176,130,133,24,24,27,24,38,42,11,12,1.3,1.4
2025-12-17T0900,3981A,113.2449,35.1803,焦作市,原李万街道办,细颗粒物(PM2.5),188,161,177,141,135,4,4,6,5,39,40,7,11,1.8,1.3
2025-12-17T0900,4264A,113.2340,35.2190,焦作市,新安路1731号,细颗粒物(PM2.5),182,194,184,137,137,9,9,3,3,34,46,7,13,1.6,1.4
2025-12-17T0900,4295A,113.2722,35.2121,焦作市,人民路3066号,细颗粒物(PM2.5),144,164,182,110,113,5,5,4,4,33,43,6,9,1.6,1.3
2025-12-17T0900,1708A,116.3701,23.5345,揭阳市,新兴,细颗粒物(PM2.5),105,93,80,79,52,23,23,19,16,57,43,14,12,1.4,0.8
2025-12-17T0900,1709A,116.3264,23.5443,揭阳市,西马,细颗粒物(PM2.5),134,146,92,102,58,11,11,8,7,70,42,12,8,1.3,0.8
2025-12-17T0900,1710A,116.3611,23.5626,揭阳市,东兴,细颗粒物(PM2.5),93,115,84,69,50,17,17,20,17,57,40,14,13,1.5,0.9
2025-12-17T0900,1711A,116.4151,23.5294,揭阳市,渔湖,颗粒物(PM10),81,111,85,54,39,15,15,10,9,59,45,9,7,1.3,0.9
2025-12-17T0900,3320A,116.403,23.5699,揭阳市,曲溪,颗粒物(PM10),81,112,87,57,48,20,20,25,24,58,42,9,13,1.0,0.7
2025-12-17T0900,1944A,102.1692,38.5167,金昌市,天庆家园,细颗粒物(PM2.5),77,102,98,56,40,19,19,22,20,34,34,42,44,1.1,0.8
2025-12-17T0900,4022A,102.1647,38.5371,金昌市,金川区人防中心,细颗粒物(PM2.5),75,74,98,55,47,26,26,20,20,23,32,31,115,0.8,0.9
2025-12-17T0900,4239A,102.1930,38.5319,金昌市,长春路96号,颗粒物(PM10),66,81,99,39,42,26,26,24,24,22,29,21,113,0.9,0.9
2025-12-17T0900,1262A,119.647,29.077,金华市,十五中,细颗粒物(PM2.5),102,139,95,76,55,3,3,,,79,61,6,5,1.0,0.8
2025-12-17T0900,1263A,119.686,29.1029,金华市,监测站,,,,87,,44,,,26,,,64,,5,,0.9
2025-12-17T0900,3659A,119.656,29.1131,金华市,气象局,细颗粒物(PM2.5),98,142,108,73,61,3,3,3,3,80,73,10,8,1.1,1
2025-12-17T0900,1767A,121.1115,41.0879,锦州市,南山,细颗粒物(PM2.5),97,89,40,72,33,15,15,26,22,34,25,16,10,1.6,0.9
2025-12-17T0900,1768A,121.0604,40.8428,锦州市,开发区,细颗粒物(PM2.5),93,111,50,69,35,9,9,17,15,49,31,52,20,1.5,0.7
2025-12-17T0900,1769A,121.1836,41.1119,锦州市,百股街道,细颗粒物(PM2.5),132,,45,100,36,9,9,15,14,43,30,28,18,1.4,1
2025-12-17T0900,1770A,121.1178,41.1222,锦州市,天安街道,细颗粒物(PM2.5),85,81,40,63,30,14,14,20,18,42,26,17,14,1.4,0.8
2025-12-17T0900,1771A,121.1303,41.1386,锦州市,北湖公园,细颗粒物(PM2.5),87,,43,64,30,17,17,26,23,29,20,16,12,0.9,0.6
2025-12-17T0900,2160A,112.85,35.5051,晋城市,自来水公司,颗粒物(PM10),88,126,111,46,43,11,11,25,22,44,34,10,11,2.2,1.8
2025-12-17T0900,2161A,112.8318,35.4936,晋城市,白云商贸,颗粒物(PM10),91,131,107,56,47,10,10,28,24,42,29,6,7,1.7,1.2
2025-12-17T0900,2162A,112.8508,35.4887,晋城市,市环保局,颗粒物(PM10),86,121,113,61,56,12,12,21,17,39,30,9,9,2.1,1.6
2025-12-17T0900,2163A,112.8676,35.4897,晋城市,技术学院,"颗粒物(PM10),细颗粒物(PM2.5)",92,133,110,68,55,10,10,15,11,54,43,13,10,2.3,1.8
2025-12-17T0900,2165A,112.8453,35.546,晋城市,白马寺,细颗粒物(PM2.5),88,113,90,65,60,33,33,50,46,29,23,17,16,1.5,1.3
2025-12-17T0900,3620A,112.8271,35.4828,晋城市,泽州一中,颗粒物(PM10),78,105,102,53,53,22,22,45,41,42,31,8,7,1.6,1.1
2025-12-17T0900,2173A,112.7249,37.7067,晋中市,南都小区,细颗粒物(PM2.5),88,117,157,65,91,10,10,5,5,48,72,11,23,1.7,2
2025-12-17T0900,2174A,112.6991,37.6982,晋中市,榆次区政府,细颗粒物(PM2.5),118,139,150,89,99,4,4,2,2,47,69,13,21,1.5,1.7
2025-12-17T0900,2865A,112.7195,37.6828,晋中市,榆次三中,细颗粒物(PM2.5),94,112,149,70,90,6,6,3,3,45,66,10,22,1.7,2.1
2025-12-17T0900,4200A,112.7478,37.6954,晋中市,迎宾街26号,细颗粒物(PM2.5),98,122,146,73,91,7,7,4,4,40,63,12,21,1.0,1.5
2025-12-17T0900,2439A,112.2014,31.0481,荆门市,竹园小学,细颗粒物(PM2.5),130,142,119,99,80,45,45,49,48,26,29,1,3,0.7,0.6
2025-12-17T0900,2440A,112.1969,30.9891,荆门市,掇刀,细颗粒物(PM2.5),118,130,116,89,78,66,66,67,67,19,24,3,4,0.6,0.7
2025-12-17T0900,2441A,112.2213,31.0386,荆门市,石化一小,细颗粒物(PM2.5),139,159,131,106,87,41,41,44,43,26,30,6,8,0.8,0.7
2025-12-17T0900,3012A,112.1849,31.0362,荆门市,西山林语,细颗粒物(PM2.5),122,138,110,92,71,47,47,63,62,27,23,5,7,0.9,0.8
2025-12-17T0900,3547A,112.1632,31.0138,荆门市,龙泉中学南校,细颗粒物(PM2.5),127,133,116,96,77,65,65,72,72,21,21,10,10,0.3,0.2
2025-12-17T0900,1844A,112.2494,30.3197,荆州市,市图书馆,细颗粒物(PM2.5),130,99,93,99,85,38,38,43,42,22,32,7,7,0.8,0.8
2025-12-17T0900,1845A,112.2008,30.3544,荆州市,市委党校,细颗粒物(PM2.5),128,114,105,97,88,35,35,37,37,28,39,5,5,0.9,0.9
2025-12-17T0900,3194A,112.2747,30.3122,荆州市,管委会,细颗粒物(PM2.5),127,107,95,96,83,23,23,30,28,30,35,6,6,0.9,0.9
2025-12-17T0900,4268A,112.1722,30.3366,荆州市,学苑路85号,细颗粒物(PM2.5),127,112,108,96,89,44,44,40,40,21,29,4,32,0.9,0.9
2025-12-17T0900,2342A,117.3102,29.3867,景德镇市,王港中学,,,,,,,,,,,,,,,,
2025-12-17T0900,2343A,117.2117,29.2933,景德镇市,老干部活动中心,,49,49,52,24,32,30,30,16,16,21,36,7,9,0.5,0.6
2025-12-17T0900,2344A,117.1894,29.2789,景德镇市,兽医站,,50,50,55,21,30,44,44,26,26,14,35,7,11,0.7,0.8
2025-12-17T0900,2346A,117.2461,29.2956,景德镇市,陶研所,,33,24,46,23,31,31,31,18,18,18,30,3,4,0.6,0.6
2025-12-17T0900,4289A,117.1542,29.2566,景德镇市,青少年活动中心,,39,34,58,27,32,40,40,22,22,20,42,4,10,0.5,0.7
2025-12-17T0900,1803A,115.9872,29.6815,九江市,十里,细颗粒物(PM2.5),94,96,81,70,52,48,48,15,15,33,64,7,8,1.0,1.1
2025-12-17T0900,1804A,115.9584,29.7046,九江市,茅山头,细颗粒物(PM2.5),90,107,72,67,44,39,39,8,8,32,58,6,7,1.0,0.9
2025-12-17T0900,1805A,115.9877,29.7295,九江市,西园,细颗粒物(PM2.5),85,89,78,63,49,39,39,17,17,46,72,5,8,0.7,0.7
2025-12-17T0900,1808A,115.9114,29.6038,九江市,综合工业园,细颗粒物(PM2.5),107,105,68,80,46,45,45,28,28,43,60,4,5,0.8,0.9
2025-12-17T0900,1809A,116.0721,29.7535,九江市,石化总厂,细颗粒物(PM2.5),90,104,92,67,52,42,42,18,18,33,62,3,9,0.8,0.9
2025-12-17T0900,1810A,115.9773,29.5698,九江市,庐山气象台,,,,,,,,,,,,,,,,
2025-12-17T0900,3190A,116.0254,29.6994,九江市,外国语学校,细颗粒物(PM2.5),84,101,77,62,46,39,39,19,19,39,66,9,13,0.6,0.5
2025-12-17T0900,4253A,116.0102,29.6594,九江市,莲花大道8号,细颗粒物(PM2.5),122,98,77,92,51,50,50,49,48,21,31,6,6,0.7,0.6
2025-12-17T0900,4240A,98.4958,39.7339,酒泉市,玉门东路5号,颗粒物(PM10),75,100,90,29,32,20,20,40,40,44,25,13,13,1.0,0.7
2025-12-17T0900,4241A,98.5099,39.7506,酒泉市,北大街108号,颗粒物(PM10),85,119,89,21,31,12,12,38,38,38,25,13,12,1.0,0.7
2025-12-17T0900,2698A,76.0072,39.4467,喀什地区,巡警大队,颗粒物(PM10),147,243,305,83,118,11,11,7,7,46,59,4,9,1.9,2.4
2025-12-17T0900,2699A,75.9755,39.4694,喀什地区,吾办,颗粒物(PM10),131,211,266,95,134,6,6,3,3,56,61,9,8,2.3,2.4
2025-12-17T0900,4027A,75.9483,39.4689,喀什地区,老干局,颗粒物(PM10),145,239,325,85,125,7,7,4,4,51,63,4,8,2.7,3.2
2025-12-17T0900,1824A,114.3389,34.7781,开封市,肿瘤医院,细颗粒物(PM2.5),165,162,185,125,135,19,19,29,26,39,31,8,7,1.2,1.1
2025-12-17T0900,1826A,114.2885,34.7965,开封市,世纪星幼儿园,细颗粒物(PM2.5),190,166,171,143,155,15,15,28,24,45,33,5,5,1.1,1
2025-12-17T0900,3147A,114.3438,34.8106,开封市,龙亭公园,细颗粒物(PM2.5),179,167,188,135,162,13,13,20,18,40,38,4,5,1.0,0.8
2025-12-17T0900,3210A,114.3644,34.7964,开封市,汴京公园,细颗粒物(PM2.5),179,178,199,135,150,12,12,21,18,47,38,4,4,1.0,0.9
2025-12-17T0900,3473A,114.2485,34.8306,开封市,技师学院,细颗粒物(PM2.5),163,169,168,124,145,17,17,25,22,36,33,7,7,1.1,1.1
2025-12-17T0900,3592A,114.4644,34.7556,开封市,祥符区生态环境局,细颗粒物(PM2.5),199,203,221,149,156,18,18,28,24,40,32,12,8,0.9,0.9
2025-12-17T0900,1951A,84.895,45.6094,克拉玛依市,长征新村,细颗粒物(PM2.5),88,118,117,65,70,23,23,32,31,32,31,5,6,1.2,1.2
2025-12-17T0900,1952A,84.8988,45.5893,克拉玛依市,南林小区,颗粒物(PM10),82,114,112,51,51,25,25,34,32,21,21,3,3,1.0,1
2025-12-17T0900,1954A,84.905,44.3396,克拉玛依市,独山子区,细颗粒物(PM2.5),200,169,202,150,117,35,35,26,26,23,39,6,6,0.7,1
2025-12-17T0900,1955A,85.6979,46.098,克拉玛依市,乌尔禾区商贸楼,细颗粒物(PM2.5),89,90,87,66,61,25,25,39,36,20,18,5,6,1.0,0.9
2025-12-17T0900,3612A,85.1045,45.6899,克拉玛依市,白碱滩区新站,细颗粒物(PM2.5),83,109,119,61,65,29,29,35,34,30,27,8,8,0.8,0.8
2025-12-17T0900,2697A,76.1454,39.7142,克孜勒苏柯尔克孜自治州,市人民政府,颗粒物(PM10),125,200,235,63,85,48,48,51,51,12,21,6,8,0.5,0.5
2025-12-17T0900,3665A,76.1658,39.7157,克孜勒苏柯尔克孜自治州,克州文化中心,颗粒物(PM10),119,188,223,61,76,38,38,53,52,24,27,8,11,0.9,1.1
2025-12-17T0900,1450A,102.8204,24.8886,昆明市,呈贡新区,,45,,34,31,25,46,46,28,28,15,25,1,6,0.9,0.9
2025-12-17T0900,1451A,102.6251,24.9608,昆明市,西山森林公园,,,,,,,,,,,,,,,,
2025-12-17T0900,1452A,102.7252,25.0902,昆明市,龙泉镇,,46,43,31,32,19,20,20,15,15,25,26,3,3,0.8,0.7
2025-12-17T0900,1453A,102.7266,25.0375,昆明市,东风东路,,47,47,38,28,24,23,23,16,16,31,29,6,6,0.5,0.4
2025-12-17T0900,1454A,102.6742,25.0669,昆明市,金鼎山,,42,42,40,28,24,36,36,27,27,18,28,4,4,0.7,0.7
2025-12-17T0900,1455A,102.6644,25.0401,昆明市,碧鸡广场,颗粒物(PM10),51,51,40,32,22,27,27,24,24,29,30,3,4,0.4,0.4
2025-12-17T0900,3179A,102.7494,25.0119,昆明市,官渡区博物馆,,46,45,51,32,25,2,2,0,0,47,38,2,4,0.6,0.6
2025-12-17T0900,3375A,102.8017,24.8336,昆明市,青年创业园,细颗粒物(PM2.5),57,58,33,40,20,31,31,8,8,15,23,2,3,1.0,0.8
2025-12-17T0900,3550A,102.7997,24.9786,昆明市,昆明学院,细颗粒物(PM2.5),67,82,53,48,28,5,5,4,4,47,32,3,3,0.9,0.7
2025-12-17T0900,3551A,102.5967,24.6736,昆明市,晋宁区生态环境分局,,50,50,44,27,27,5,5,1,1,40,24,2,2,0.5,0.5
2025-12-17T0900,3552A,102.6678,24.9856,昆明市,云天化总部,颗粒物(PM10),54,57,33,34,19,12,12,8,8,41,32,6,7,0.7,0.6
2025-12-17T0900,1456A,91.1319,29.6514,拉萨市,八廓街,细颗粒物(PM2.5),68,55,25,49,17,45,45,54,54,26,22,16,15,0.7,0.6
2025-12-17T0900,1457A,91.1221,29.6747,拉萨市,市环保局,细颗粒物(PM2.5),73,68,38,53,26,13,13,31,31,40,27,8,11,1.7,1.2
2025-12-17T0900,1458A,91.0874,29.6475,拉萨市,区监测站,,,27,19,20,13,26,26,42,42,43,34,8,11,,0.4
2025-12-17T0900,1459A,91.1774,29.6541,拉萨市,西藏大学,,19,17,21,13,13,47,47,55,55,24,22,16,14,0.3,0.4
2025-12-17T0900,1460A,90.9798,29.6588,拉萨市,区辐射站,细颗粒物(PM2.5),82,84,36,60,22,16,16,28,27,58,35,8,9,1.5,0.8
2025-12-17T0900,1461A,91.0834,29.6292,拉萨市,拉萨火车站,,25,25,26,10,13,19,19,40,39,50,32,5,9,0.7,0.8
2025-12-17T0900,2520A,109.2203,23.7256,来宾市,来宾技工学校,细颗粒物(PM2.5),79,66,79,58,53,5,5,13,11,29,26,8,9,1.2,1
2025-12-17T0900,3535A,109.1781,23.7297,来宾市,兴宾区政府,细颗粒物(PM2.5),60,62,69,43,43,12,12,24,22,12,18,5,8,0.9,0.8
2025-12-17T0900,4002A,109.2416,23.7461,来宾市,中南小学,细颗粒物(PM2.5),79,87,85,58,47,7,7,2,2,31,34,7,9,1.1,1
2025-12-17T0900,1477A,104.1373,35.9454,兰州市,榆中兰大校区,,,,,,,,,,,,,,,,
2025-12-17T0900,1479A,103.831,36.0464,兰州市,铁路设计院,,,,,,,,,,,,,,,,
2025-12-17T0900,3241A,103.7439,36.0842,兰州市,百合公园,"颗粒物(PM10),细颗粒物(PM2.5)",79,107,101,58,62,3,3,6,4,51,73,21,22,1.5,1.5
2025-12-17T0900,3242A,103.9611,35.998,兰州市,和平,细颗粒物(PM2.5),89,106,92,66,61,12,12,24,21,51,40,14,16,2.1,1.4
2025-12-17T0900,4236A,103.6293,36.0938,兰州市,庄浪东路808号,颗粒物(PM10),77,103,91,48,49,5,5,10,10,70,64,17,20,1.6,1.1
2025-12-17T0900,4237A,103.7251,36.1043,兰州市,安宁西路88号,颗粒物(PM10),97,143,121,69,60,3,3,2,2,62,78,25,18,1.7,1
2025-12-17T0900,4238A,103.8470,36.0676,兰州市,北滨河东路1号,颗粒物(PM10),79,108,100,54,55,2,2,2,2,58,68,16,17,2.5,1.5
2025-12-17T0900,3245A,103.6633,36.533,兰州新区,新区管委会,细颗粒物(PM2.5),84,93,84,62,48,6,6,22,20,41,34,14,17,1.2,0.7
2025-12-17T0900,3246A,103.6975,36.4789,兰州新区,舟曲中学,细颗粒物(PM2.5),95,124,96,71,40,14,14,25,25,48,37,15,19,0.9,0.7
2025-12-17T0900,1067A,116.6708,39.5111,廊坊市,药材公司,细颗粒物(PM2.5),109,116,107,82,69,4,4,2,2,55,58,4,10,1.5,1.2
2025-12-17T0900,1068A,116.7214,39.5589,廊坊市,开发区,细颗粒物(PM2.5),93,101,101,69,67,4,4,1,1,61,59,2,8,1.2,1.1
2025-12-17T0900,1070A,116.7244,39.5269,廊坊市,北华航天学院,细颗粒物(PM2.5),105,109,104,79,65,6,6,5,4,55,52,4,10,1.2,1.1
2025-12-17T0900,2919A,116.7022,39.5453,廊坊市,河北工业大学,细颗粒物(PM2.5),95,125,115,71,63,5,5,1,1,56,55,6,11,1.1,1.1
2025-12-17T0900,2535A,103.7723,29.5462,乐山市,花湖湾,,,,,,,,,,,,,,,,
2025-12-17T0900,2536A,103.7627,29.5844,乐山市,牛耳桥,细颗粒物(PM2.5),95,115,125,71,80,0,0,0,0,20,31,7,7,0.9,0.8
2025-12-17T0900,2537A,103.7508,29.6006,乐山市,市第三水厂,细颗粒物(PM2.5),84,80,120,62,85,2,2,1,1,30,38,6,7,1.3,1.1
2025-12-17T0900,2538A,103.7571,29.5664,乐山市,市监测站,细颗粒物(PM2.5),89,98,126,66,84,0,0,1,0,17,29,7,10,1.3,0.9
2025-12-17T0900,3361A,103.7311,29.5628,乐山市,理工大学,细颗粒物(PM2.5),100,102,127,75,87,2,2,1,1,18,29,5,6,1.3,0.9
2025-12-17T0900,2598A,100.2143,26.8576,丽江市,西南郊,,,,,,,,,,,,,,,,
2025-12-17T0900,2599A,100.2497,26.8802,丽江市,丽江古城,颗粒物(PM10),51,52,30,21,14,25,25,43,40,31,17,12,9,0.9,0.6
2025-12-17T0900,2600A,100.2203,26.8906,丽江市,市中心,,36,36,27,19,12,19,19,45,40,39,17,7,7,0.6,0.4
2025-12-17T0900,1267A,119.914,28.4514,丽水市,监测站大楼,,42,42,54,24,30,9,9,1,1,28,39,6,6,0.5,0.5
2025-12-17T0900,1268A,119.93,28.4586,丽水市,莲都小学,颗粒物(PM10),53,55,50,24,20,8,8,4,4,36,42,7,5,0.4,0.4
2025-12-17T0900,1269A,119.879,28.4231,丽水市,余庄前,,50,50,44,32,27,5,5,1,1,32,28,5,5,0.5,0.4
2025-12-17T0900,1173A,119.176,34.5885,连云港市,市环境监测站,细颗粒物(PM2.5),85,90,124,63,84,35,35,38,38,27,44,10,16,0.7,0.9
2025-12-17T0900,3000A,119.3581,34.6972,连云港市,德源药业,颗粒物(PM10),57,63,125,24,76,53,53,52,52,22,46,6,10,0.5,0.9
2025-12-17T0900,3007A,119.178,34.844,连云港市,新城一中,细颗粒物(PM2.5),74,93,132,54,98,35,35,27,27,33,57,10,15,1.0,1.3
2025-12-17T0900,3008A,119.3608,34.7519,连云港市,胡沟管理处,,46,46,117,22,72,52,52,48,48,19,39,7,16,0.5,1.3
2025-12-17T0900,3009A,119.1478,34.5911,连云港市,矿山设计院,细颗粒物(PM2.5),83,102,136,61,81,34,34,38,38,24,38,8,14,0.8,1
2025-12-17T0900,3434A,119.2413,34.6539,连云港市,工贸学校,细颗粒物(PM2.5),63,66,128,45,88,42,42,42,42,29,43,12,16,0.9,1.1
2025-12-17T0900,3664A,119.4172,34.7341,连云港市,连云街道,,40,40,122,26,80,50,50,52,52,30,44,8,13,0.4,1.1
2025-12-17T0900,2571A,102.3431,27.8099,凉山彝族自治州,青龙寺,,,,,,,,,,,,,,,,
2025-12-17T0900,2572A,102.2721,27.8415,凉山彝族自治州,邛海宾馆,,36,36,48,16,29,45,45,60,57,16,18,6,11,0.5,0.8
2025-12-17T0900,2573A,102.2625,27.898,凉山彝族自治州,西昌市政府,,35,35,40,23,28,32,32,53,49,28,17,6,9,0.7,0.7
2025-12-17T0900,2574A,102.2685,27.8851,凉山彝族自治州,凉山州政府,,39,39,48,22,32,20,20,42,39,37,21,10,11,0.8,0.9
2025-12-17T0900,4229A,102.2342,27.8859,凉山彝族自治州,凯乐南路30号,,42,42,52,19,31,10,10,32,27,48,40,7,10,0.9,1
2025-12-17T0900,2212A,123.2,41.1953,辽阳市,宏伟区,细颗粒物(PM2.5),87,81,79,64,58,15,15,15,15,31,29,17,10,1.3,0.7
2025-12-17T0900,2213A,123.1683,41.2495,辽阳市,新华园,细颗粒物(PM2.5),132,136,85,100,57,16,16,14,13,42,33,28,11,1.7,0.9
2025-12-17T0900,2214A,123.2354,41.2639,辽阳市,滨河路,细颗粒物(PM2.5),90,108,95,67,55,10,10,8,8,36,34,36,20,1.2,0.8
2025-12-17T0900,2215A,123.149,41.2991,辽阳市,铁西工业园,细颗粒物(PM2.5),139,,73,106,50,4,4,2,2,40,34,16,11,1.5,0.8
2025-12-17T0900,2227A,125.1358,42.8845,辽源市,环保局,细颗粒物(PM2.5),104,128,127,78,51,10,10,7,7,28,24,8,4,1.4,0.8
2025-12-17T0900,3239A,125.0764,42.9078,辽源市,银鹰制药,细颗粒物(PM2.5),93,104,62,69,43,13,13,10,10,28,22,7,4,1.1,0.6
2025-12-17T0900,1625A,115.9848,36.4372,聊城市,区政府,细颗粒物(PM2.5),120,96,180,91,126,9,9,11,10,45,56,11,14,1.8,1.4
2025-12-17T0900,2878A,116.0072,36.4343,聊城市,聊大东校,细颗粒物(PM2.5),103,92,189,77,126,10,10,11,10,43,55,7,12,1.8,1.5
2025-12-17T0900,3200A,115.9819,36.4978,聊城市,监控中心,细颗粒物(PM2.5),64,59,180,46,136,11,11,8,8,32,50,8,11,1.5,1.5
2025-12-17T0900,3513A,116.0445,36.4361,聊城市,九州社区,细颗粒物(PM2.5),83,80,177,61,117,15,15,13,13,28,46,2,7,1.3,1.3
2025-12-17T0900,4018A,116.0567,36.4608,聊城市,星美广场,细颗粒物(PM2.5),78,85,187,57,125,15,15,12,12,39,49,3,6,1.3,1.3
2025-12-17T0900,2632A,94.3681,29.6376,林芝市,林芝监测站,,18,,19,12,10,36,36,65,61,18,14,5,5,0.6,0.5
2025-12-17T0900,2633A,94.3616,29.6616,林芝市,林芝人民医院,,,,,,,,,,,,,,,,
2025-12-17T0900,2603A,100.0781,23.8982,临沧市,市环保局,,33,24,28,23,35,10,10,18,16,12,9,3,4,0.7,0.6
2025-12-17T0900,2604A,100.0894,23.8822,临沧市,市气象局,,32,32,30,22,19,10,10,18,17,14,11,7,6,0.6,0.5
2025-12-17T0900,1733A,111.5531,36.0783,临汾市,临钢医院,细颗粒物(PM2.5),119,157,224,90,124,7,7,7,7,33,47,8,13,1.8,2.6
2025-12-17T0900,1734A,111.5028,36.0714,临汾市,技工学校,细颗粒物(PM2.5),100,141,235,75,127,4,4,0,0,33,51,9,15,1.6,2.8
2025-12-17T0900,1736A,111.5018,36.0855,临汾市,市委,细颗粒物(PM2.5),108,159,253,81,137,6,6,2,2,41,59,11,18,1.9,3.2
2025-12-17T0900,3018A,111.505,36.1014,临汾市,唐尧大酒店,细颗粒物(PM2.5),105,147,225,79,131,4,4,1,1,38,56,6,12,2.1,3.2
2025-12-17T0900,4244A,111.4879,36.0530,临汾市,启星学校,"颗粒物(PM10),细颗粒物(PM2.5)",105,160,225,79,129,4,4,4,4,41,63,6,12,2.0,3.2
2025-12-17T0900,4271A,103.2464,35.6123,临夏回族自治州,滨河东路1号,细颗粒物(PM2.5),133,150,159,101,102,9,9,9,9,35,39,8,11,2.5,1.8
2025-12-17T0900,4310A,103.2093,35.5995,临夏回族自治州,新华街21号,细颗粒物(PM2.5),143,140,156,109,112,8,8,12,11,36,34,9,14,2.5,2
2025-12-17T0900,1618A,118.3429,35.0532,临沂市,沂河小区,细颗粒物(PM2.5),129,112,142,98,116,32,32,27,27,36,44,9,12,0.8,0.9
2025-12-17T0900,1619A,118.295,35.0583,临沂市,鲁南制药厂,细颗粒物(PM2.5),108,110,136,81,103,41,41,34,34,32,44,10,14,0.8,0.9
2025-12-17T0900,1620A,118.2794,34.9976,临沂市,新光毛纺厂,细颗粒物(PM2.5),109,105,135,82,103,37,37,34,34,30,42,10,15,1.1,1.2
2025-12-17T0900,1621A,118.3956,35.0888,临沂市,河东保险公司,细颗粒物(PM2.5),109,124,140,82,91,20,20,24,22,40,42,8,12,0.8,0.9
2025-12-17T0900,3370A,118.3564,35.0215,临沂市,十里堡居委,细颗粒物(PM2.5),85,105,134,63,82,32,32,31,30,38,45,9,13,0.8,0.9
2025-12-17T0900,3496A,118.3604,35.1084,临沂市,南坊新区,细颗粒物(PM2.5),107,107,132,80,93,32,32,26,26,34,43,9,12,1.2,1.2
2025-12-17T0900,3860A,118.3920,35.0300,临沂市,皇山花园小区,细颗粒物(PM2.5),94,97,140,70,88,36,36,31,30,35,48,11,15,0.9,1.1
2025-12-17T0900,1870A,109.4856,24.3895,柳州市,柳东小学,细颗粒物(PM2.5),82,81,80,60,56,34,34,43,42,7,10,18,17,0.6,0.7
2025-12-17T0900,1871A,109.4157,24.3277,柳州市,环保监测站,细颗粒物(PM2.5),99,93,103,74,64,18,18,26,24,32,36,22,21,1.2,1.2
2025-12-17T0900,1872A,109.389,24.341,柳州市,河西水厂,细颗粒物(PM2.5),92,131,124,68,61,14,14,21,20,38,38,21,22,0.7,0.9
2025-12-17T0900,1873A,109.4311,24.2921,柳州市,市四中,细颗粒物(PM2.5),77,79,90,56,52,21,21,33,31,33,33,22,19,1.2,1.2
2025-12-17T0900,1874A,109.4006,24.3631,柳州市,市九中,细颗粒物(PM2.5),80,94,110,59,63,21,21,28,26,33,34,23,24,1.1,0.9
2025-12-17T0900,1875A,109.4958,24.3134,柳州市,古亭山,细颗粒物(PM2.5),73,75,71,53,46,18,18,14,14,22,30,12,12,1.0,0.9
2025-12-17T0900,3402A,109.5422,24.3996,柳州市,市二中,细颗粒物(PM2.5),89,85,78,66,58,23,23,32,30,22,22,16,14,0.7,0.6
2025-12-17T0900,2307A,116.5079,31.737,六安市,监测大楼,细颗粒物(PM2.5),225,206,119,175,85,13,13,18,16,37,35,3,4,0.9,0.7
2025-12-17T0900,2308A,116.4738,31.7643,六安市,皖西学院,细颗粒物(PM2.5),221,210,126,171,86,15,15,18,16,35,40,2,3,0.9,0.6
2025-12-17T0900,2309A,116.4996,31.7905,六安市,朝阳厂,细颗粒物(PM2.5),209,192,112,159,82,14,14,18,15,35,36,4,4,1.1,0.7
2025-12-17T0900,2310A,116.5567,31.7886,六安市,开发区,细颗粒物(PM2.5),219,231,149,169,88,12,12,15,13,35,47,1,2,0.8,0.6
2025-12-17T0900,2576A,104.8,26.5892,六盘水市,窑上,,38,38,54,13,37,56,56,46,46,5,10,1,2,0.3,0.2
2025-12-17T0900,2577A,104.83,26.5917,六盘水市,黄土坡,,40,36,43,28,32,57,57,52,52,24,16,13,6,0.7,0.7
2025-12-17T0900,2578A,104.89,26.5939,六盘水市,水钢,,38,38,45,26,36,51,51,33,33,21,16,12,7,0.5,0.9
2025-12-17T0900,2579A,104.8475,26.5894,六盘水市,民中,,32,32,38,17,30,59,59,48,48,17,15,8,4,0.2,0.4
2025-12-17T0900,2580A,104.9544,26.5506,六盘水市,双水,,31,31,41,16,33,66,66,46,46,9,12,4,3,0.5,0.5
2025-12-17T0900,2335A,117.0189,25.1181,龙岩市,龙岩师专,,,,,,,,,,,,,,,,
2025-12-17T0900,2336A,117.0217,25.1033,龙岩市,龙岩市监测站,,49,43,47,34,29,17,17,8,8,32,42,24,17,1.1,0.8
2025-12-17T0900,2337A,117.0258,25.0661,龙岩市,闽西职业技术学院,,,45,48,30,25,,,6,6,29,34,,15,0.8,0.6
2025-12-17T0900,2338A,117.0196,25.0306,龙岩市,龙岩学院,,50,47,38,35,25,14,14,14,13,28,22,8,8,0.7,0.5
2025-12-17T0900,2665A,105.0822,33.3261,陇南市,汉王镇固水子,,,,,,,,,,,,,,,,
2025-12-17T0900,2885A,104.9339,33.3826,陇南市,滨江中学,颗粒物(PM10),70,89,117,41,67,2,2,1,1,45,54,16,24,1.8,3.2
2025-12-17T0900,3247A,104.955,33.371,陇南市,市总工会,颗粒物(PM10),85,119,121,34,56,3,3,10,10,45,46,12,10,1.1,1.8
2025-12-17T0900,2487A,111.9589,27.8901,娄底市,电视发射台,,,,,,,,,,,,,,,,
2025-12-17T0900,2488A,111.9975,27.725,娄底市,市监测站,细颗粒物(PM2.5),83,92,107,61,70,34,34,29,29,46,47,12,19,0.8,1.4
2025-12-17T0900,2489A,112.0194,27.7314,娄底市,市委党校,细颗粒物(PM2.5),95,102,112,71,69,50,50,22,22,28,47,11,15,0.9,1.4
2025-12-17T0900,2490A,111.9561,27.7569,娄底市,涟钢,细颗粒物(PM2.5),99,90,129,74,84,10,10,18,18,31,45,7,18,0.8,1.2
2025-12-17T0900,2491A,111.9892,27.7044,娄底市,市政府,细颗粒物(PM2.5),97,103,120,72,79,4,4,4,4,22,38,8,19,1.5,1.9
2025-12-17T0900,1893A,105.4324,28.9634,泸州市,九狮山,,,,,,,,,,,,,,,,
2025-12-17T0900,1894A,105.4427,28.9063,泸州市,小市上码头,细颗粒物(PM2.5),75,82,111,55,72,14,14,16,16,23,29,13,13,1.2,1.1
2025-12-17T0900,1895A,105.4241,28.8573,泸州市,兰田宪桥,细颗粒物(PM2.5),79,75,103,58,70,4,4,12,10,31,28,8,8,1.0,0.8
2025-12-17T0900,1896A,105.4379,28.8833,泸州市,市环监站,细颗粒物(PM2.5),72,78,107,52,70,2,2,13,10,30,29,16,11,0.7,0.8
2025-12-17T0900,4272A,105.3689,28.7783,泸州市,纳溪中医医院,细颗粒物(PM2.5),88,81,96,65,76,1,1,5,5,20,24,8,8,1.0,0.8
2025-12-17T0900,2183A,111.1406,37.5211,吕梁市,环保局,细颗粒物(PM2.5),82,99,96,60,45,5,5,3,3,46,50,6,9,1.0,0.8
2025-12-17T0900,2185A,111.1297,37.5136,吕梁市,自来水公司,颗粒物(PM10),81,111,103,56,52,4,4,2,2,42,43,12,11,0.9,0.8
2025-12-17T0900,2867A,111.1283,37.51,吕梁市,马茂庄小学,细颗粒物(PM2.5),88,114,107,65,46,3,3,1,1,44,47,17,11,1.0,0.8
2025-12-17T0900,1812A,112.3931,34.6516,洛阳市,市委党校,细颗粒物(PM2.5),206,192,162,156,124,7,7,6,6,46,54,10,12,1.7,1.3
2025-12-17T0900,1815A,112.494,34.6886,洛阳市,河南林校,细颗粒物(PM2.5),218,196,163,168,137,4,4,4,3,41,52,7,9,1.6,1.2
2025-12-17T0900,1816A,112.3844,34.623,洛阳市,开发区管委会,细颗粒物(PM2.5),215,222,184,165,132,6,6,5,5,33,42,8,16,1.5,1.1
2025-12-17T0900,1817A,112.4267,34.6258,洛阳市,市委新办公区,细颗粒物(PM2.5),200,211,188,150,123,7,7,5,3,39,49,8,11,1.3,1.2
2025-12-17T0900,3340A,112.6005,34.6326,洛阳市,伊滨,细颗粒物(PM2.5),189,214,187,142,127,3,3,2,2,27,43,7,9,1.5,1.3
2025-12-17T0900,3341A,112.4951,34.6332,洛阳市,中移产业园,细颗粒物(PM2.5),202,190,168,152,129,5,5,6,4,45,54,11,13,1.6,1.3
2025-12-17T0900,3593A,112.5736,34.8993,洛阳市,吉利监测站,细颗粒物(PM2.5),213,191,165,163,139,4,4,4,4,37,45,7,10,1.7,1.2
2025-12-17T0900,3635A,112.3677,34.662,洛阳市,河科大西苑校区,细颗粒物(PM2.5),188,211,162,141,112,6,6,4,4,41,51,9,12,1.6,1.2
2025-12-17T0900,3636A,112.4388,34.6781,洛阳市,英才小学,细颗粒物(PM2.5),204,204,167,154,126,1,1,1,0,50,55,13,13,1.8,1.5
2025-12-17T0900,4214A,112.4600,34.6949,洛阳市,春都路1号院,细颗粒物(PM2.5),172,219,183,130,106,4,4,4,3,46,52,9,10,1.8,1.4
2025-12-17T0900,2399A,114.051,33.5699,漯河市,三五一五工厂,细颗粒物(PM2.5),219,226,210,169,155,24,24,30,28,32,30,9,8,1.2,1
2025-12-17T0900,2400A,114.0055,33.5698,漯河市,漯河大学,细颗粒物(PM2.5),201,196,188,151,144,26,26,32,31,39,34,8,7,0.9,0.8
2025-12-17T0900,2401A,114.0138,33.5828,漯河市,市水利局,细颗粒物(PM2.5),203,207,194,153,144,26,26,33,31,37,33,9,8,1.1,0.9
2025-12-17T0900,2402A,114.0261,33.5698,漯河市,市广电局,细颗粒物(PM2.5),205,203,197,155,147,26,26,35,33,32,30,8,7,1.1,1
2025-12-17T0900,3478A,113.9749,33.5664,漯河市,市图书馆,细颗粒物(PM2.5),211,233,214,161,151,21,21,29,28,36,33,6,6,1.0,0.9
2025-12-17T0900,4250A,114.0892,33.5882,漯河市,韶山路11号,细颗粒物(PM2.5),210,209,209,160,149,18,18,20,20,37,39,9,9,0.9,0.8
2025-12-17T0900,1798A,118.5092,31.6837,马鞍山市,湖东路四小,细颗粒物(PM2.5),128,156,113,97,60,13,13,12,10,53,64,10,14,1.0,1.1
2025-12-17T0900,1799A,118.5024,31.6449,马鞍山市,开发区,细颗粒物(PM2.5),119,141,111,90,61,7,7,9,9,60,63,7,9,1.1,0.9
2025-12-17T0900,1802A,118.6245,31.7241,马鞍山市,濮塘,,,,,,,,,,,,,,,,
2025-12-17T0900,3633A,118.4918,31.6809,马鞍山市,雨山,细颗粒物(PM2.5),130,133,107,99,59,11,11,8,8,60,64,12,20,1.0,1.1
2025-12-17T0900,4191A,118.5274,31.72227,马鞍山市,慈湖高新区,细颗粒物(PM2.5),159,197,122,121,69,13,13,8,8,55,66,7,13,1.0,1
2025-12-17T0900,1686A,111.0286,21.4688,茂名市,电白南海,细颗粒物(PM2.5),64,51,65,46,40,37,37,41,38,22,27,33,17,0.8,0.7
2025-12-17T0900,1687A,110.9294,21.6533,茂名市,茂石化七小,,46,46,52,27,25,29,29,38,37,24,24,12,12,0.7,0.6
2025-12-17T0900,1688A,110.9107,21.6687,茂名市,健康路,,42,39,46,29,27,32,32,36,35,23,25,20,21,0.9,0.8
2025-12-17T0900,1689A,110.8592,21.6828,茂名市,高岭,,44,44,78,19,34,35,35,31,31,21,32,13,20,0.8,0.9
2025-12-17T0900,3450A,111.01,21.5165,茂名市,电白水东,细颗粒物(PM2.5),58,63,58,41,34,25,25,36,32,28,25,35,18,1.0,0.9
2025-12-17T0900,2539A,104.0308,30.0478,眉山市,黑龙滩水库,,,,,,,,,,,,,,,,
2025-12-17T0900,2540A,103.8416,30.0874,眉山市,气象局,细颗粒物(PM2.5),125,127,131,95,94,3,3,2,2,22,33,11,12,1.0,0.8
2025-12-17T0900,3137A,103.8578,30.0744,眉山市,市委党校,细颗粒物(PM2.5),100,117,125,75,83,3,3,5,2,35,38,7,8,1.0,0.8
2025-12-17T0900,3148A,103.8291,30.0564,眉山市,区人社局,细颗粒物(PM2.5),138,138,133,105,95,1,1,2,0,30,38,7,8,1.6,1.3
2025-12-17T0900,1690A,116.1231,24.3284,梅州市,梅江月梅,,49,49,46,26,26,16,16,5,5,24,32,7,7,0.6,0.6
2025-12-17T0900,1691A,116.0797,24.2719,梅州市,梅县新城,颗粒物(PM10),51,52,42,33,32,6,6,17,13,33,33,8,8,1.0,0.8
2025-12-17T0900,1692A,116.1248,24.2654,梅州市,环境监控中心,,44,44,48,27,30,21,21,6,6,28,38,14,13,0.5,0.5
2025-12-17T0900,3315A,116.1233,24.2991,梅州市,梅龙,颗粒物(PM10),52,53,49,26,28,14,14,7,7,30,32,12,10,1.0,1
2025-12-17T0900,1878A,104.7778,31.4741,绵阳市,富乐山,细颗粒物(PM2.5),102,107,108,76,69,3,3,20,15,34,29,10,11,1.0,0.9
2025-12-17T0900,1880A,104.6697,31.4668,绵阳市,高新区自来水公司,,,,139,,82,,,42,,,52,,9,,0.8
2025-12-17T0900,1881A,104.7287,31.5075,绵阳市,三水厂,细颗粒物(PM2.5),162,174,151,123,100,2,2,1,1,28,48,7,7,1.1,0.9
2025-12-17T0900,3491A,104.69,31.5322,绵阳市,西科大附属小学,颗粒物(PM10),106,162,158,79,91,4,4,2,2,35,47,8,8,1.6,1.1
2025-12-17T0900,3492A,104.5648,31.5343,绵阳市,安州区旅游局,细颗粒物(PM2.5),110,123,137,83,101,4,4,5,5,33,36,13,14,1.2,0.9
2025-12-17T0900,4226A,104.7651,31.4531,绵阳市,绵阳市气象局,细颗粒物(PM2.5),134,162,127,102,75,0,0,1,1,34,42,6,6,1.4,0.9
2025-12-17T0900,1784A,129.61,44.561,牡丹江市,环保大楼,,41,41,28,23,18,32,32,36,35,20,14,11,9,0.5,0.3
2025-12-17T0900,1785A,129.6115,44.5782,牡丹江市,文化广场,,42,35,31,29,22,32,32,34,34,20,13,9,7,0.6,0.4
2025-12-17T0900,1786A,129.5904,44.5963,牡丹江市,第一医院,,,,,,,,,,,,,,,,
2025-12-17T0900,1787A,129.6364,44.6075,牡丹江市,机车工厂,,43,43,34,16,18,25,25,28,28,33,16,6,17,0.4,0.2
2025-12-17T0900,1788A,129.6386,44.5462,牡丹江市,第一中学,,46,,27,32,19,26,26,38,35,23,10,9,6,0.6,0.4
2025-12-17T0900,2531A,105.0703,29.61,内江市,市监测站,细颗粒物(PM2.5),138,119,113,105,93,15,15,23,21,23,25,5,5,1.1,0.9
2025-12-17T0900,2532A,105.0717,29.5947,内江市,东兴区政府,细颗粒物(PM2.5),134,123,118,102,89,5,5,14,12,31,34,5,5,0.8,0.7
2025-12-17T0900,2533A,105.0653,29.5817,内江市,内江二中,细颗粒物(PM2.5),149,147,141,114,101,8,8,14,13,32,35,5,5,0.9,1
2025-12-17T0900,2534A,105.0406,29.5822,内江市,内江日报社,细颗粒物(PM2.5),137,108,119,104,91,7,7,16,14,40,37,3,3,0.9,0.8
2025-12-17T0900,2628A,92.0657,31.4846,那曲市,那曲监测站,细颗粒物(PM2.5),190,221,59,143,35,23,23,22,22,46,28,17,11,1.9,1.5
2025-12-17T0900,4243A,92.0515,31.4787,那曲市,那曲市委宣传部,细颗粒物(PM2.5),90,95,21,67,12,9,9,25,22,37,14,14,4,2.0,0.8
2025-12-17T0900,1290A,115.8931,28.6843,南昌市,省外办,细颗粒物(PM2.5),79,97,79,58,54,59,59,50,50,34,43,12,12,1.4,1.5
2025-12-17T0900,1291A,115.8886,28.7003,南昌市,省林业公司,细颗粒物(PM2.5),77,102,75,56,48,52,52,35,35,37,51,8,8,0.8,0.9
2025-12-17T0900,1292A,115.8126,28.7442,南昌市,林科所,颗粒物(PM10),74,97,66,48,36,59,59,44,44,28,42,10,8,0.7,0.6
2025-12-17T0900,1294A,115.8518,28.687,南昌市,建工学校,颗粒物(PM10),80,109,83,58,48,46,46,39,39,42,50,15,15,1.0,0.9
2025-12-17T0900,1295A,115.8921,28.6424,南昌市,象湖,细颗粒物(PM2.5),70,84,70,51,46,53,53,45,45,34,47,12,13,0.8,0.8
2025-12-17T0900,1296A,115.7423,28.7996,南昌市,武术学校,,,,,,,,,,,,,,,,
2025-12-17T0900,3046A,115.9084,28.6062,南昌市,机电学校,颗粒物(PM10),78,106,84,56,48,53,53,44,44,33,44,9,8,0.7,0.7
2025-12-17T0900,3690A,115.9721,28.7031,南昌市,外国语学校,颗粒物(PM10),80,109,79,54,51,52,52,43,43,34,38,14,16,0.7,0.7
2025-12-17T0900,4192A,115.9316,28.68677,南昌市,南京东路235号,颗粒物(PM10),75,100,85,52,49,64,64,50,50,35,41,9,11,0.8,0.9
2025-12-17T0900,1905A,106.056,30.8064,南充市,西山风景区,,,,,,,,,,,,,,,,
2025-12-17T0900,1906A,106.0789,30.8023,南充市,南充市委,细颗粒物(PM2.5),80,76,100,59,69,1,1,0,0,23,31,4,5,0.8,0.7
2025-12-17T0900,1907A,106.1031,30.8217,南充市,南充炼油厂,细颗粒物(PM2.5),104,95,113,78,78,1,1,1,0,24,28,6,6,1.1,0.9
2025-12-17T0900,4227A,106.1083,30.7884,南充市,梨树横街98号,细颗粒物(PM2.5),84,86,111,62,68,3,3,5,4,20,27,5,6,0.8,0.7
2025-12-17T0900,4304A,106.1172,30.843,南充市,清泉寺北路188号,细颗粒物(PM2.5),80,80,91,59,68,4,4,4,3,26,27,6,6,0.9,0.7
2025-12-17T0900,4305A,106.067,30.7616,南充市,同庆路1号,细颗粒物(PM2.5),92,112,104,68,66,1,1,0,0,28,31,6,7,1.0,0.8
2025-12-17T0900,1151A,118.8086,32.1065,南京市,迈皋桥,细颗粒物(PM2.5),125,150,93,95,50,26,26,24,24,23,46,4,5,0.9,0.7
2025-12-17T0900,1152A,118.7538,32.0551,南京市,草场门,细颗粒物(PM2.5),128,158,108,97,53,19,19,17,17,45,68,6,7,1.1,1
2025-12-17T0900,1153A,118.7794,32.0745,南京市,山西路,细颗粒物(PM2.5),149,173,121,114,57,19,19,13,13,57,75,4,4,0.9,0.9
2025-12-17T0900,1154A,118.7752,32.0023,南京市,中华门,细颗粒物(PM2.5),134,153,95,102,51,22,22,9,9,30,56,4,4,1.0,0.9
2025-12-17T0900,1155A,118.8109,32.0309,南京市,瑞金路,细颗粒物(PM2.5),138,153,107,105,60,23,23,12,12,38,74,4,4,0.8,0.9
2025-12-17T0900,1156A,118.7997,32.0754,南京市,玄武湖,细颗粒物(PM2.5),144,158,102,110,53,30,30,20,20,30,49,4,4,1.0,1
2025-12-17T0900,1157A,118.6414,32.0931,南京市,浦口,细颗粒物(PM2.5),134,166,101,102,49,16,16,36,30,45,36,8,10,1.2,0.8
2025-12-17T0900,1158A,118.7356,31.9996,南京市,奥体中心,细颗粒物(PM2.5),144,154,98,110,53,40,40,26,26,34,67,6,8,0.8,0.8
2025-12-17T0900,1159A,118.9125,32.1028,南京市,仙林大学城,细颗粒物(PM2.5),147,158,111,112,57,14,14,4,4,41,72,6,10,1.1,1
2025-12-17T0900,3422A,118.8436,31.9198,南京市,江宁彩虹桥,细颗粒物(PM2.5),134,153,97,102,52,19,19,5,5,43,72,3,6,1.1,1.2
2025-12-17T0900,3427A,118.8554,32.3578,南京市,六合雄州,细颗粒物(PM2.5),139,170,106,106,58,28,28,15,15,31,50,7,9,0.8,0.6
2025-12-17T0900,4249A,118.8708,31.3402,南京市,汶溪路181号,细颗粒物(PM2.5),92,91,85,68,66,19,19,12,12,66,62,8,9,0.8,0.8
2025-12-17T0900,4312A,119.019,31.6512,南京市,中山西路1号,细颗粒物(PM2.5),110,124,75,83,58,15,15,4,4,46,58,4,5,1.2,1.1
2025-12-17T0900,1401A,108.3103,22.7881,南宁市,二十一中,细颗粒物(PM2.5),59,56,66,42,48,14,14,14,13,34,33,10,8,0.9,0.9
2025-12-17T0900,1402A,108.3141,22.8528,南宁市,北湖,细颗粒物(PM2.5),60,64,74,43,49,11,11,7,6,44,47,20,13,0.8,0.8
2025-12-17T0900,1403A,108.3206,22.8225,南宁市,市监测站,细颗粒物(PM2.5),60,63,70,43,44,13,13,16,14,40,41,12,10,0.9,0.9
2025-12-17T0900,1404A,108.3829,22.8037,南宁市,大自然花园,细颗粒物(PM2.5),62,55,68,44,45,24,24,30,30,31,31,8,8,0.8,0.8
2025-12-17T0900,1405A,108.4394,22.7904,南宁市,仙葫,,,,,,,,,,,,,,,,
2025-12-17T0900,1406A,108.2397,22.8467,南宁市,区农职院,颗粒物(PM10),56,61,69,39,43,19,19,9,9,31,40,10,10,0.8,0.8
2025-12-17T0900,1407A,108.3275,22.735,南宁市,英华嘉园,细颗粒物(PM2.5),65,74,66,47,47,9,9,17,14,42,35,7,5,0.8,0.7
2025-12-17T0900,3401A,108.4834,22.7618,南宁市,红星社区,细颗粒物(PM2.5),57,51,60,40,39,20,20,35,32,25,22,11,8,0.9,0.8
2025-12-17T0900,4221A,108.2177,22.7774,南宁市,乐贤路16号,细颗粒物(PM2.5),74,84,86,54,50,7,7,2,2,34,50,9,10,0.7,0.7
2025-12-17T0900,2331A,118.0966,26.6761,南平市,茫荡山,,,,18,,,,,88,,,,,2,,0.3
2025-12-17T0900,2332A,118.1681,26.6369,南平市,南平市监测站,,38,35,33,26,24,7,7,4,4,22,26,5,4,0.8,0.7
2025-12-17T0900,2333A,118.1825,26.6489,南平市,南平铝业有限公司,细颗粒物(PM2.5),52,,36,36,26,4,4,2,2,24,28,8,7,0.9,0.6
2025-12-17T0900,2334A,118.1756,26.6272,南平市,南平七中,,36,30,31,25,22,5,5,5,5,23,21,5,5,0.8,0.6
2025-12-17T0900,1168A,120.9098,31.9663,南通市,狼山街道,细颗粒物(PM2.5),143,161,102,109,67,39,39,33,33,22,56,4,11,1.0,1.2
2025-12-17T0900,1169A,120.86,32.0005,南通市,虹桥,细颗粒物(PM2.5),152,146,103,116,76,37,37,30,30,25,66,6,13,1.0,1.3
2025-12-17T0900,1170A,120.87,32.02,南通市,城中,细颗粒物(PM2.5),153,166,120,117,75,34,34,30,30,28,72,7,13,1.2,1.5
2025-12-17T0900,1171A,120.94,31.93,南通市,星湖花园,细颗粒物(PM2.5),166,178,103,126,71,38,38,34,34,27,61,4,11,1.1,1.4
2025-12-17T0900,1172A,120.81,32.0417,南通市,紫琅学院,细颗粒物(PM2.5),169,191,128,128,78,30,30,19,19,31,68,6,10,0.9,1
2025-12-17T0900,3291A,121.067,32.062,南通市,通州监测站,细颗粒物(PM2.5),170,149,102,129,79,24,24,40,39,37,48,3,7,1.1,0.9
2025-12-17T0900,3432A,120.9348,31.9883,南通市,环境教育馆,,,,98,,69,,,30,30,28,62,6,12,0.8,1
2025-12-17T0900,2404A,112.5224,33.0122,南阳市,瓦房庄,细颗粒物(PM2.5),165,150,136,125,106,32,32,49,46,31,25,10,9,1.1,0.9
2025-12-17T0900,2405A,112.5003,32.9735,南阳市,汉画馆,细颗粒物(PM2.5),144,152,138,110,96,21,21,48,43,36,28,7,8,1.3,1.1
2025-12-17T0900,2406A,112.5573,33.027,南阳市,气象站,细颗粒物(PM2.5),132,158,155,100,98,38,38,50,47,34,25,9,8,1.1,1
2025-12-17T0900,2407A,112.5481,32.9689,南阳市,理工学院,细颗粒物(PM2.5),115,132,125,87,81,34,34,50,47,38,26,8,8,0.9,0.8
2025-12-17T0900,4008A,112.5234,32.9922,南阳市,卧龙区政府,细颗粒物(PM2.5),150,172,150,115,99,20,20,48,43,47,31,8,8,1.2,0.9
2025-12-17T0900,1234A,121.8358,29.911,宁波市,区环保大楼,细颗粒物(PM2.5),93,133,83,69,39,9,9,2,2,89,79,14,8,1.1,0.8
2025-12-17T0900,1235A,121.56,29.82,宁波市,万里学院,细颗粒物(PM2.5),92,101,79,68,44,15,15,3,3,67,65,12,7,1.0,0.8
2025-12-17T0900,1236A,121.713,29.9572,宁波市,龙赛医院,细颗粒物(PM2.5),99,129,100,74,50,6,6,1,1,76,72,8,5,0.8,0.6
2025-12-17T0900,1239A,121.633,29.7733,宁波市,钱湖水厂,细颗粒物(PM2.5),72,76,67,52,36,11,11,6,6,50,53,7,6,0.6,0.5
2025-12-17T0900,1240A,121.5856,29.8635,宁波市,太古小学,细颗粒物(PM2.5),99,112,86,74,50,16,16,3,3,59,57,9,4,1.2,1
2025-12-17T0900,1241A,121.524,29.8674,宁波市,市环境监测中心,细颗粒物(PM2.5),84,101,77,62,46,16,16,9,9,53,53,10,7,0.9,0.9
2025-12-17T0900,2871A,121.6147,29.9017,宁波市,万里国际学校,细颗粒物(PM2.5),103,111,84,77,51,13,13,4,4,74,73,10,5,1.2,0.9
2025-12-17T0900,3710A,121.5594,29.8975,宁波市,白沙活动中心,细颗粒物(PM2.5),88,85,71,65,43,16,16,7,7,70,67,10,6,1.0,0.8
2025-12-17T0900,2339A,119.5001,26.6946,宁德市,金涵水库,,,,26,,13,,,44,,,11,,1,,0.4
2025-12-17T0900,2341A,119.5388,26.6612,宁德市,宁德市监测站,,30,30,29,15,16,24,24,25,25,23,19,6,6,0.8,0.6
2025-12-17T0900,3209A,119.5231,26.6562,宁德市,宁德一中,,30,30,28,15,20,28,28,26,26,21,16,5,5,0.8,0.5
2025-12-17T0900,2618A,98.8601,25.8567,怒江傈僳族自治州,州监测站,,25,25,26,15,17,29,29,34,34,12,10,8,8,0.4,0.4
2025-12-17T0900,2619A,98.8546,25.8417,怒江傈僳族自治州,泸水一中,,22,20,25,15,18,4,4,16,14,19,16,5,5,0.6,0.5
2025-12-17T0900,1888A,101.6891,26.571,攀枝花市,弄弄坪,细颗粒物(PM2.5),105,116,64,79,39,1,1,23,18,37,29,8,7,1.4,1.4
2025-12-17T0900,1889A,101.5769,26.5928,攀枝花市,河门口,颗粒物(PM10),57,63,56,33,33,2,2,11,10,30,26,17,20,1.3,1.4
2025-12-17T0900,1890A,101.7169,26.585,攀枝花市,炳草岗,细颗粒物(PM2.5),117,122,84,88,44,2,2,1,1,40,47,15,14,1.0,1.4
2025-12-17T0900,1891A,101.7369,26.5008,攀枝花市,仁和,,45,45,51,30,33,5,5,16,14,28,24,7,13,1.1,1.3
2025-12-17T0900,2835A,101.7227,26.567,攀枝花市,四十中小,细颗粒物(PM2.5),97,107,82,72,54,4,4,3,3,36,48,11,17,1.3,1.6
2025-12-17T0900,1604A,122.0303,41.1489,盘锦市,开发区,细颗粒物(PM2.5),53,41,39,37,31,12,12,33,29,32,13,6,4,0.8,0.5
2025-12-17T0900,1605A,122.0485,41.0883,盘锦市,兴隆台,细颗粒物(PM2.5),135,103,38,103,31,9,9,32,27,56,23,11,8,1.6,0.6
2025-12-17T0900,1606A,121.8297,41.1028,盘锦市,新生街道,,45,40,35,31,23,7,7,7,6,44,30,16,11,0.7,0.4
2025-12-17T0900,1832A,113.3257,33.742,平顶山市,新华旅馆,细颗粒物(PM2.5),147,183,150,112,95,9,9,54,49,53,36,8,11,1.2,0.9
2025-12-17T0900,1833A,113.2919,33.737,平顶山市,规划设计院,细颗粒物(PM2.5),153,189,166,117,99,7,7,50,43,54,36,7,9,1.1,0.8
2025-12-17T0900,1834A,113.182,33.774,平顶山市,平顶山工学院,细颗粒物(PM2.5),149,154,148,114,98,22,22,42,38,42,30,9,10,0.9,0.7
2025-12-17T0900,3204A,113.3025,33.73,平顶山市,规划局,细颗粒物(PM2.5),156,180,156,119,96,6,6,49,43,46,35,7,10,1.2,0.8
2025-12-17T0900,3594A,112.8867,33.9116,平顶山市,石龙区,细颗粒物(PM2.5),178,220,165,134,104,5,5,19,14,59,46,9,11,1.5,1
2025-12-17T0900,2656A,106.6692,35.5461,平凉市,聚贤嘉苑,,45,45,44,19,23,12,12,33,30,45,27,6,5,0.8,0.6
2025-12-17T0900,2657A,106.7021,35.5307,平凉市,博物馆,,50,50,44,25,21,16,16,36,33,42,23,12,6,0.9,0.6
2025-12-17T0900,2347A,114.0997,27.5002,萍乡市,武功山,,,,,,,,,,,,,,,,
2025-12-17T0900,2348A,113.8385,27.6434,萍乡市,中医院,细颗粒物(PM2.5),104,135,101,78,58,5,5,2,2,43,45,20,15,2.5,2.2
2025-12-17T0900,2349A,113.8493,27.6253,萍乡市,市政府车库,细颗粒物(PM2.5),72,82,84,52,68,7,7,3,3,33,40,16,13,1.6,2.7
2025-12-17T0900,2350A,113.8676,27.6435,萍乡市,市环保局,细颗粒物(PM2.5),69,84,84,50,53,6,6,2,2,35,38,22,19,1.3,1.6
2025-12-17T0900,2351A,113.866,27.6198,萍乡市,安源区政府,细颗粒物(PM2.5),89,75,83,66,67,5,5,1,1,30,40,17,16,1.5,2.4
2025-12-17T0900,2319A,119.0141,25.4325,莆田市,荔城区仓后路,,39,39,46,25,25,20,20,21,20,27,22,4,4,0.7,0.6
2025-12-17T0900,2320A,119.0015,25.4553,莆田市,莆田市监测站,,19,18,30,13,17,34,34,28,28,12,11,4,4,0.5,0.5
2025-12-17T0900,2321A,119.1119,25.4561,莆田市,涵江区六中,,45,45,43,29,25,13,13,15,15,32,26,4,4,0.8,0.6
2025-12-17T0900,2322A,119.1013,25.3215,莆田市,秀屿区政府,,49,49,42,26,27,22,22,20,20,28,22,5,5,0.8,0.6
2025-12-17T0900,2323A,118.981,25.4792,莆田市,东圳水库,,,,27,,20,,,81,,,11,,4,,0.9
2025-12-17T0900,2392A,115.0312,35.7636,濮阳市,环保局,细颗粒物(PM2.5),160,160,156,122,127,11,11,14,12,42,41,7,8,2.2,1.8
2025-12-17T0900,2394A,115.0574,35.7609,濮阳市,油田运输公司,细颗粒物(PM2.5),150,211,188,115,130,12,12,13,12,49,48,7,8,1.8,1.5
2025-12-17T0900,3021A,115,35.7668,濮阳市,濮水河管理处,细颗粒物(PM2.5),213,193,196,163,162,6,6,6,6,37,35,8,9,1.4,1.1
2025-12-17T0900,4216A,115.0924,35.7686,濮阳市,任丘路479号,细颗粒物(PM2.5),155,169,193,118,139,10,10,7,7,43,50,4,6,1.6,1.3
2025-12-17T0900,2601A,100.98,22.7633,普洱市,市环保局,,40,40,35,7,13,4,4,16,14,13,9,5,4,0.7,0.4
2025-12-17T0900,2602A,100.9817,22.8322,普洱市,普洱第二中学,,44,44,33,28,18,2,2,2,2,19,15,6,5,0.7,0.3
2025-12-17T0900,2262A,131.0518,45.8751,七台河市,新一中,,,,,,,,,,,,,,,,
2025-12-17T0900,3345A,131.0577,45.7879,七台河市,中波台,颗粒物(PM10),57,64,40,31,20,34,34,37,36,21,14,12,9,0.6,0.5
2025-12-17T0900,3637A,131.0176,45.7761,七台河市,人民广场,,,57,41,33,32,,,32,31,25,21,9,10,0.7,0.5
2025-12-17T0900,3684A,130.8781,45.8222,七台河市,新建矿广场,颗粒物(PM10),68,85,52,44,31,23,23,32,30,22,12,13,10,0.4,0.4
2025-12-17T0900,1779A,123.9305,47.3636,齐齐哈尔市,安居小区,颗粒物(PM10),67,83,47,41,25,14,14,19,18,26,20,7,7,1.1,0.9
2025-12-17T0900,1780A,123.9488,47.3386,齐齐哈尔市,中心广场,颗粒物(PM10),67,83,43,46,23,7,7,15,14,40,23,8,8,1.5,0.8
2025-12-17T0900,1781A,123.9483,47.3227,齐齐哈尔市,农牧车辆厂,颗粒物(PM10),81,112,54,49,23,7,7,12,11,31,21,6,7,1.2,0.7
2025-12-17T0900,1783A,123.945,47.2988,齐齐哈尔市,市环境监测站,颗粒物(PM10),87,123,64,58,32,12,12,16,14,40,25,11,8,1.4,0.6
2025-12-17T0900,3662A,123.6333,47.2075,齐齐哈尔市,富区青少年活动中心,细颗粒物(PM2.5),156,187,68,119,33,16,16,14,14,39,24,19,10,1.5,1
2025-12-17T0900,2591A,107.9783,26.5747,黔东南苗族侗族自治州,市环境监测站,细颗粒物(PM2.5),84,83,84,62,57,17,17,22,20,12,20,5,6,0.7,0.7
2025-12-17T0900,2881A,107.8908,26.5311,黔东南苗族侗族自治州,凯里学院,细颗粒物(PM2.5),68,68,75,49,49,18,18,22,20,12,17,4,5,0.8,0.8
2025-12-17T0900,2593A,107.5228,26.2403,黔南布依族苗族自治州,小围寨,,39,39,58,27,46,24,24,19,19,8,11,7,7,0.7,0.7
2025-12-17T0900,3538A,107.5175,26.2978,黔南布依族苗族自治州,沙坝,,42,39,59,29,45,24,24,22,21,15,14,6,6,0.8,0.8
2025-12-17T0900,2589A,104.9022,25.0925,黔西南布依族苗族自治州,场坝街,细颗粒物(PM2.5),67,51,42,48,26,18,18,37,34,17,10,3,2,0.7,0.6
2025-12-17T0900,2590A,104.8811,25.0992,黔西南布依族苗族自治州,坪东大道,,45,40,37,31,26,22,22,39,36,12,8,6,5,0.8,0.7
2025-12-17T0900,2502A,108.6236,21.9667,钦州市,市环保站,"颗粒物(PM10),细颗粒物(PM2.5)",70,90,76,51,44,24,24,32,31,35,26,5,3,1.3,1.3
2025-12-17T0900,2503A,108.6549,21.9481,钦州市,沙埠小学,细颗粒物(PM2.5),65,73,74,47,55,41,41,40,39,20,27,6,5,0.7,1.2
2025-12-17T0900,2504A,108.5989,21.7431,钦州市,港区一小,细颗粒物(PM2.5),65,75,64,47,41,36,36,26,26,26,33,7,6,0.9,0.9
2025-12-17T0900,3404A,108.5959,21.9633,钦州市,北职校,,,59,59,46,46,,,30,30,19,18,9,7,0.8,0.9
2025-12-17T0900,1043A,119.7493,40.0116,秦皇岛市,第一关,,49,40,40,34,29,14,14,8,7,62,44,12,8,0.5,0.3
2025-12-17T0900,1044A,119.5897,39.9499,秦皇岛市,监测站,颗粒物(PM10),70,90,52,32,26,5,5,12,7,61,39,12,10,1.4,0.7
2025-12-17T0900,1046A,119.5251,39.9041,秦皇岛市,建设大厦,颗粒物(PM10),72,93,54,46,37,7,7,11,7,44,30,8,7,1.2,0.6
2025-12-17T0900,3132A,119.610547,39.943889,秦皇岛市,文明里,颗粒物(PM10),73,95,52,25,21,3,3,15,10,52,29,12,11,1.3,0.5
2025-12-17T0900,4198A,119.5090,39.8253,秦皇岛市,北戴河轮滑馆,颗粒物(PM10),61,72,50,40,29,10,10,17,12,49,27,5,6,1.0,0.5
2025-12-17T0900,1307A,120.6659,36.2403,青岛市,仰口,,,,,,,,,,,,,,,,
