timepoint,stationcode,longitude,latitude,area,positionname,primarypollutant,aqi,pm10,pm10_24h,pm2_5,pm2_5_24h,o3,o3_24h,o3_8h,o3_8h_24h,no2,no2_24h,so2,so2_24h,co,co_24h
2025-12-17T0400,2566A,102.1879,31.914,阿坝藏族羌族自治州,州农科所,,,,,,,,,,,,,,,,
2025-12-17T0400,2568A,102.2502,31.8896,阿坝藏族羌族自治州,马师校,,18,,24,12,17,29,29,,,8,19,4,5,0.4,0.6
2025-12-17T0400,3994A,102.2165,31.9024,阿坝藏族羌族自治州,马尔康中学西区,,12,9,15,8,10,36,36,,,9,15,6,6,0.5,0.6
2025-12-17T0400,2695A,80.292,41.1694,阿克苏地区,电视台,颗粒物(PM10),143,236,271,89,83,8,8,,,52,54,8,10,1.1,1.2
2025-12-17T0400,2696A,80.2613,41.1551,阿克苏地区,艺术中心,细颗粒物(PM2.5),168,274,251,127,89,10,10,,,87,57,4,4,2.2,1.2
2025-12-17T0400,2204A,105.6467,38.8363,阿拉善盟,西城区西花园,,,,,,,,,,,,,,,,
2025-12-17T0400,2205A,105.6985,38.8411,阿拉善盟,蒙二幼,,27,17,79,8,23,85,85,,,4,11,12,10,0.6,0.6
2025-12-17T0400,2206A,105.724,38.8516,阿拉善盟,环保局新楼,,26,16,71,7,19,83,83,,,4,6,11,9,0.6,0.6
2025-12-17T0400,2708A,88.1264,47.8517,阿勒泰地区,市站,,,28,34,13,22,,,,,,49,4,6,0.3,0.7
2025-12-17T0400,2630A,80.1161,32.5,阿里地区,阿里监测站,,16,6,3,3,3,50,50,,,2,11,8,10,0.4,0.5
2025-12-17T0400,3192A,80.0903,32.5028,阿里地区,阿里藏医院,,32,26,19,22,12,34,34,,,18,13,12,12,0.8,0.7
2025-12-17T0400,2642A,109.0318,32.6537,安康市,香溪洞,,,,,,,,,,,,,,,,
2025-12-17T0400,2644A,109.0072,32.6975,安康市,汉滨区检察院,细颗粒物(PM2.5),53,50,66,37,38,3,3,,,18,27,4,5,0.7,0.9
2025-12-17T0400,4054A,109.0325,32.6913,安康市,市邮政管理局,细颗粒物(PM2.5),57,62,74,40,43,5,5,,,21,32,6,6,0.7,1
2025-12-17T0400,2291A,117.0809,30.5177,安庆市,环科院,细颗粒物(PM2.5),79,96,69,58,44,55,55,,,24,49,6,8,0.5,0.5
2025-12-17T0400,2292A,117.0331,30.5119,安庆市,马山宾馆,细颗粒物(PM2.5),77,89,70,56,45,60,60,,,25,45,5,7,0.6,0.5
2025-12-17T0400,2294A,116.9896,30.6145,安庆市,安庆大学,细颗粒物(PM2.5),100,99,75,75,45,77,77,,,8,29,4,9,0.5,0.6
2025-12-17T0400,3173A,117.0598,30.5351,安庆市,市人大,细颗粒物(PM2.5),80,89,77,59,49,54,54,,,26,45,8,9,0.5,0.6
2025-12-17T0400,3122A,105.9606,26.2611,安顺市,伍家关,,46,36,60,32,35,28,28,,,19,11,11,17,0.6,0.9
2025-12-17T0400,3123A,105.9408,26.2431,安顺市,凤凰山,,49,42,58,34,47,40,40,,,12,15,12,15,0.6,0.6
2025-12-17T0400,3124A,105.9439,26.2564,安顺市,金钟山,,48,41,54,33,42,38,38,,,10,12,13,16,0.7,0.7
2025-12-17T0400,3125A,105.8983,26.2481,安顺市,娄家坡,,48,40,61,33,45,37,37,,,11,15,12,19,0.7,0.8
2025-12-17T0400,1818A,114.4839,36.0621,安阳市,棉研所,,,,,,,,,,,,,,,,
2025-12-17T0400,1819A,114.3551,36.1017,安阳市,红庙街,细颗粒物(PM2.5),132,121,154,100,121,1,1,,,53,44,6,7,2.0,1.1
2025-12-17T0400,1820A,114.361,36.0681,安阳市,银杏小区,细颗粒物(PM2.5),145,126,161,111,132,3,3,,,41,40,4,6,1.5,1
2025-12-17T0400,3141A,114.3922,36.0878,安阳市,信访局,细颗粒物(PM2.5),140,133,165,107,130,8,8,,,48,40,7,6,1.7,1
2025-12-17T0400,3669A,114.4705,36.0637,安阳市,左辅环卫站,细颗粒物(PM2.5),149,153,189,114,139,26,26,,,36,36,4,4,0.9,0.9
2025-12-17T0400,3703A,114.2917,36.0949,安阳市,安钢职工学校,细颗粒物(PM2.5),135,140,170,103,133,8,8,,,39,47,4,8,1.4,1.2
2025-12-17T0400,1748A,123.044,41.1196,鞍山市,深沟寺,细颗粒物(PM2.5),60,67,88,43,59,17,17,,,35,34,13,11,0.9,1.1
2025-12-17T0400,1749A,123.011,41.0931,鞍山市,太阳城,细颗粒物(PM2.5),65,68,89,47,62,13,13,,,34,36,14,19,0.8,1.2
2025-12-17T0400,1750A,123.0485,41.1442,鞍山市,太平,,,,100,,62,,,27,,,35,,13,,1.0
2025-12-17T0400,1751A,122.9642,41.0971,鞍山市,铁西三道街,细颗粒物(PM2.5),72,90,106,52,68,13,13,,,44,44,34,27,2.0,2.5
2025-12-17T0400,1753A,123.022,41.0821,鞍山市,明达新区,细颗粒物(PM2.5),62,65,86,44,61,18,18,,,29,28,15,16,0.4,0.7
2025-12-17T0400,1754A,123.1289,41.0228,鞍山市,千山,,,,72,,63,,,25,,,34,,9,,1.0
2025-12-17T0400,4201A,122.9446,41.0826,鞍山市,兴盛南路290号,细颗粒物(PM2.5),82,84,98,60,70,8,8,,,45,44,20,25,1.5,1.6
2025-12-17T0400,2195A,107.4212,40.761,巴彦淖尔市,附二中,颗粒物(PM10),52,54,96,14,46,16,16,,,29,33,5,8,0.6,0.9
2025-12-17T0400,2196A,107.37,40.7372,巴彦淖尔市,市环保大楼,,43,43,81,10,35,33,33,,,15,27,4,5,0.5,0.6
2025-12-17T0400,1956A,86.1472,41.7538,巴音郭楞蒙古自治州,孔雀公园,颗粒物(PM10),166,281,314,60,56,1,1,,,94,56,11,11,1.3,0.9
2025-12-17T0400,1957A,86.1972,41.7166,巴音郭楞蒙古自治州,棉纺厂,颗粒物(PM10),109,168,204,28,38,3,3,,,58,49,7,8,0.9,1
2025-12-17T0400,1958A,86.2357,41.7173,巴音郭楞蒙古自治州,经济开发区,颗粒物(PM10),102,153,154,15,30,20,20,,,24,33,6,8,0.7,0.7
2025-12-17T0400,2914A,106.7677,31.8794,巴中市,苏山坪,,,,,,,,,,,,,,,,
2025-12-17T0400,3181A,106.7768,31.8526,巴中市,市五中,细颗粒物(PM2.5),75,81,89,55,58,2,2,,,17,24,5,5,1.0,1.1
2025-12-17T0400,3183A,106.7418,31.8654,巴中市,圣泉水务公司,细颗粒物(PM2.5),72,72,82,52,59,1,1,,,20,28,4,5,0.9,1
2025-12-17T0400,3616A,106.7616,31.8344,巴中市,市中心医院,颗粒物(PM10),69,88,85,47,62,1,1,,,16,23,6,6,1.2,1.2
2025-12-17T0400,2235A,122.7911,45.6077,白城市,洮北区环保局,,35,34,43,24,30,30,30,,,17,27,7,7,0.2,0.3
2025-12-17T0400,2236A,122.8738,45.5725,白城市,市环保局,,36,31,34,25,25,17,17,,,18,19,4,6,0.3,0.3
2025-12-17T0400,2231A,126.4219,41.9171,白山市,喜丰,颗粒物(PM10),56,61,69,23,36,35,35,,,25,30,10,16,0.5,0.7
2025-12-17T0400,2232A,126.4077,41.9419,白山市,环保局,,32,32,49,20,40,31,31,,,19,25,10,12,0.6,0.9
2025-12-17T0400,2647A,104.1724,36.5446,白银市,第三小学,,47,47,61,26,30,27,27,,,37,39,38,31,0.9,0.9
2025-12-17T0400,2648A,104.1465,36.5482,白银市,动力公司,,35,35,54,24,29,52,52,,,17,27,9,17,1.5,1
2025-12-17T0400,2512A,106.6103,23.9011,百色市,市监测站,"颗粒物(PM10),细颗粒物(PM2.5)",52,53,70,36,41,7,7,,,28,28,7,14,0.9,1
2025-12-17T0400,2513A,106.6538,23.8859,百色市,市中心血站,细颗粒物(PM2.5),67,69,80,48,53,15,15,,,30,38,8,17,0.9,1
2025-12-17T0400,3406A,106.6085,23.8798,百色市,祈福高中,细颗粒物(PM2.5),82,98,95,60,50,1,1,,,35,44,6,11,1.0,0.9
2025-12-17T0400,2270A,117.396,32.939,蚌埠市,工人疗养院,细颗粒物(PM2.5),179,190,128,135,73,3,3,,,63,52,6,7,0.9,0.7
2025-12-17T0400,2271A,117.3605,32.9427,蚌埠市,百货大楼,细颗粒物(PM2.5),179,178,121,135,75,1,1,,,63,54,5,7,1.0,0.8
2025-12-17T0400,2273A,117.4185,32.8911,蚌埠市,蚌埠学院,细颗粒物(PM2.5),168,171,107,127,67,5,5,,,61,42,5,7,0.9,0.6
2025-12-17T0400,2274A,117.3533,32.9673,蚌埠市,淮上区政府,细颗粒物(PM2.5),185,190,127,139,81,1,1,,,61,50,9,11,0.9,0.7
2025-12-17T0400,2275A,117.3145,32.8977,蚌埠市,高新区,细颗粒物(PM2.5),196,195,120,147,77,2,2,,,60,48,7,8,1.0,0.7
2025-12-17T0400,3715A,117.3092,32.9314,蚌埠市,蚌埠田家炳中学,细颗粒物(PM2.5),200,202,134,150,81,1,1,,,60,53,6,10,1.0,0.7
2025-12-17T0400,1585A,109.8756,40.6532,包头市,市环境监测站,,42,42,49,19,21,48,48,,,22,24,9,12,0.9,0.9
2025-12-17T0400,1587A,109.9991,40.5842,包头市,包头八中,颗粒物(PM10),58,65,93,35,58,11,11,,,58,46,6,14,0.8,1
2025-12-17T0400,1588A,109.8538,40.6821,包头市,青山宾馆,,42,36,44,29,30,41,41,,,26,26,6,9,0.7,0.8
2025-12-17T0400,1589A,109.8642,40.6288,包头市,惠龙物流,细颗粒物(PM2.5),52,50,61,36,32,45,45,,,25,32,8,13,1.0,1.2
2025-12-17T0400,1590A,110.0377,40.5546,包头市,东河鸿龙湾,颗粒物(PM10),58,65,80,32,45,4,4,,,71,51,6,11,1.0,1
2025-12-17T0400,3283A,109.9154,40.5685,包头市,滨河大厦,颗粒物(PM10),54,57,88,29,52,13,13,,,47,40,8,16,0.8,1
2025-12-17T0400,3419A,109.9447,40.6261,包头市,包头市委党校,细颗粒物(PM2.5),58,42,58,41,30,23,23,,,43,34,7,10,0.6,0.6
2025-12-17T0400,3683A,109.8331,40.6576,包头市,昆区政府,,46,46,54,26,31,49,49,,,25,28,8,11,0.8,0.9
2025-12-17T0400,1930A,107.185,34.3063,宝鸡市,庙沟村,,,,,,,,,,,,,,,,
2025-12-17T0400,1931A,107.0708,34.3017,宝鸡市,竹园沟,,26,26,44,18,32,25,25,,,2,6,5,6,0.1,0.2
2025-12-17T0400,1932A,107.1906,34.3672,宝鸡市,三陆医院,,41,41,84,20,44,18,18,,,30,40,4,6,0.4,0.6
2025-12-17T0400,1933A,107.1431,34.3547,宝鸡市,监测站,,36,36,64,21,39,21,21,,,20,28,4,5,0.4,0.5
2025-12-17T0400,1934A,107.1186,34.3739,宝鸡市,技工学校,,50,40,73,35,46,25,25,,,15,23,7,5,0.7,0.8
2025-12-17T0400,1936A,107.2058,34.3497,宝鸡市,文理学院,,45,45,71,27,42,24,24,,,25,35,5,6,0.4,0.5
2025-12-17T0400,1937A,107.2386,34.3622,宝鸡市,三迪小学,,48,48,86,32,56,11,11,,,33,42,3,5,0.7,0.9
2025-12-17T0400,4308A,107.3898,34.3601,宝鸡市,陈仓区北开路21号,细颗粒物(PM2.5),67,61,101,48,64,38,38,,,25,38,72,50,0.5,0.6
2025-12-17T0400,1051A,115.493,38.8632,保定市,游泳馆,细颗粒物(PM2.5),128,111,98,97,73,1,1,,,62,55,3,5,0.6,0.6
2025-12-17T0400,1052A,115.5213,38.8959,保定市,华电二区,细颗粒物(PM2.5),122,95,93,92,77,4,4,,,45,45,1,4,0.9,0.8
2025-12-17T0400,1053A,115.4713,38.9108,保定市,接待中心,细颗粒物(PM2.5),130,142,102,99,74,1,1,,,63,56,1,3,1.0,0.9
2025-12-17T0400,1054A,115.4612,38.8416,保定市,地表水厂,细颗粒物(PM2.5),135,129,107,103,72,4,4,,,66,55,4,6,0.9,0.7
2025-12-17T0400,3581A,115.31981,38.95208,保定市,满城区生态环境分局,细颗粒物(PM2.5),107,124,106,80,63,2,2,,,62,59,6,7,1.4,0.9
2025-12-17T0400,3582A,115.47694,38.76408,保定市,清苑区第二中学,细颗粒物(PM2.5),124,150,127,94,73,3,3,,,62,55,5,7,1.1,0.9
2025-12-17T0400,3583A,115.62909,39.02311,保定市,徐水物探局,细颗粒物(PM2.5),115,134,120,87,72,0,0,,,63,55,8,8,1.1,1
2025-12-17T0400,4004A,115.4202,38.8656,保定市,双鹰农机,细颗粒物(PM2.5),122,161,123,92,67,10,10,,,69,51,5,6,1.0,0.8
2025-12-17T0400,4034A,115.5150,38.8590,保定市,植保所站,细颗粒物(PM2.5),112,118,115,84,77,4,4,,,62,58,1,5,1.1,1
2025-12-17T0400,2594A,99.1678,25.1081,保山市,市环境监测站,,18,17,21,12,15,27,27,,,15,10,9,7,0.4,0.4
2025-12-17T0400,2595A,99.1711,25.1328,保山市,市环保局,,50,,21,35,19,42,42,,,7,6,4,4,0.5,0.5
2025-12-17T0400,1866A,109.2262,21.588,北海市,牛尾岭水库,,,,,,,,,,,,,,,,
2025-12-17T0400,1867A,109.1436,21.4086,北海市,海滩公园,,45,45,45,29,25,73,73,,,17,16,8,10,0.9,0.8
2025-12-17T0400,1868A,109.0981,21.4661,北海市,新市环保局,细颗粒物(PM2.5),67,63,46,48,31,35,35,,,19,19,19,13,0.6,0.6
2025-12-17T0400,1869A,109.1778,21.5233,北海市,北海工业园,细颗粒物(PM2.5),74,62,53,54,31,31,31,,,20,19,9,11,0.7,0.6
2025-12-17T0400,3400A,109.1911,21.4415,北海市,龙潭自来水厂,,43,39,43,30,30,44,44,,,12,14,5,8,0.8,0.8
2025-12-17T0400,1001A,116.3621,39.8784,北京市,万寿西宫,细颗粒物(PM2.5),97,124,76,72,42,1,1,,,76,47,5,5,1.3,1
2025-12-17T0400,1002A,116.2202,40.2915,北京市,定陵,,,,,,,,,,,,,,,,
2025-12-17T0400,1003A,116.4174,39.9289,北京市,东四,细颗粒物(PM2.5),100,116,69,75,39,3,3,,,61,39,6,6,1.3,0.8
2025-12-17T0400,1004A,116.4072,39.8863,北京市,天坛,细颗粒物(PM2.5),100,105,64,75,40,2,2,,,55,40,1,1,1.1,0.8
2025-12-17T0400,1005A,116.462,39.9365,北京市,农展馆,颗粒物(PM10),60,69,64,40,35,3,3,,,59,37,5,5,1.5,1.2
2025-12-17T0400,1006A,116.3392,39.9295,北京市,官园,细颗粒物(PM2.5),89,107,64,66,34,0,0,,,70,46,6,4,1.4,0.8
2025-12-17T0400,1007A,116.2878,39.9611,北京市,海淀万柳,,,,47,,26,,,11,,,46,,3,,0.5
2025-12-17T0400,1008A,116.6636,40.135,北京市,顺义新城,颗粒物(PM10),65,79,66,46,35,0,0,,,52,30,3,5,0.9,0.7
2025-12-17T0400,1009A,116.6275,40.3275,北京市,怀柔镇,,,,35,,19,,,42,,,20,,5,,0.6
2025-12-17T0400,1010A,116.2296,40.217,北京市,昌平镇,,37,37,47,23,27,8,8,,,32,38,5,5,0.6,0.7
2025-12-17T0400,1011A,116.3966,39.9821,北京市,奥体中心,颗粒物(PM10),58,66,54,35,27,2,2,,,71,48,4,4,1.1,1
2025-12-17T0400,3281A,115.9718,40.4529,北京市,延庆夏都,,39,39,63,23,37,3,3,,,36,39,1,2,1.1,1.1
2025-12-17T0400,3418A,116.8336,40.4095,北京市,密云新城,,38,38,42,20,22,30,30,,,16,14,2,2,0.5,0.5
2025-12-17T0400,3671A,116.088,39.9726,北京市,门头沟三家店,,46,46,58,21,29,2,2,,,34,38,4,4,0.6,0.7
2025-12-17T0400,3672A,116.1541,39.8204,北京市,丰台云岗,颗粒物(PM10),62,74,61,32,28,1,1,,,58,52,5,5,0.8,0.6
2025-12-17T0400,3673A,116.6804,39.9081,北京市,通州东关,,,,69,,38,,,38,,,35,,4,,0.7
2025-12-17T0400,3674A,115.9577,39.7603,北京市,房山燕山,,,,49,,28,,,26,,,31,,3,,0.6
2025-12-17T0400,3675A,116.4672,39.7733,北京市,大兴旧宫,细颗粒物(PM2.5),87,120,79,64,39,2,2,,,58,47,5,6,1.4,1
2025-12-17T0400,3694A,115.986,40.4563,北京市,延庆石河营,,46,45,65,32,44,8,8,,,21,34,3,2,1.4,1.1
2025-12-17T0400,3695A,116.6151,40.3053,北京市,怀柔新城,,40,40,33,28,18,23,23,,,16,15,3,3,0.6,0.5
2025-12-17T0400,3696A,116.2545,39.8768,北京市,丰台小屯,颗粒物(PM10),61,72,62,33,27,1,1,,,64,56,4,4,0.9,0.7
2025-12-17T0400,3697A,116.84,40.3844,北京市,密云镇,颗粒物(PM10),57,64,50,38,25,2,2,,,45,30,2,2,0.8,0.6
2025-12-17T0400,4182A,116.1942,39.9158,北京市,八角北路9号,,49,49,53,24,24,2,2,,,51,52,1,2,0.4,0.5
2025-12-17T0400,4194A,117.0790,40.1518,北京市,洳河巡河路,细颗粒物(PM2.5),84,93,91,62,59,4,4,,,32,35,3,3,1.1,1
2025-12-17T0400,1761A,123.8275,41.3064,本溪市,大峪,颗粒物(PM10),64,78,72,40,58,16,16,,,31,32,8,10,1.1,1.3
2025-12-17T0400,1762A,123.7567,41.3325,本溪市,溪湖,颗粒物(PM10),76,102,98,49,63,3,3,,,49,42,6,9,1.4,1.4
2025-12-17T0400,1763A,123.7169,41.3094,本溪市,彩屯,"颗粒物(PM10),细颗粒物(PM2.5)",60,69,93,43,64,11,11,,,39,38,6,9,1.3,1.3
2025-12-17T0400,1764A,123.7669,41.2864,本溪市,东明,细颗粒物(PM2.5),59,62,86,42,58,13,13,,,33,33,6,9,0.9,1.3
2025-12-17T0400,1765A,123.7992,41.2664,本溪市,新立屯,颗粒物(PM10),53,55,78,36,53,8,8,,,32,35,6,8,1.0,1.1
2025-12-17T0400,1766A,123.8142,41.3472,本溪市,威宁,"颗粒物(PM10),细颗粒物(PM2.5)",67,83,108,48,64,5,5,,,33,37,6,8,1.1,1.3
2025-12-17T0400,2587A,105.2864,27.3125,毕节市,八中,,32,31,40,22,30,40,40,,,8,7,8,8,0.6,0.7
2025-12-17T0400,2588A,105.31,27.2944,毕节市,师专,,30,27,37,21,28,52,52,,,8,10,8,8,0.6,0.7
2025-12-17T0400,4263A,105.3688,27.3598,毕节市,工业大道,,33,31,35,23,28,38,38,,,10,8,9,10,0.7,0.9
2025-12-17T0400,1629A,118.0018,37.3617,滨州市,第二水厂,颗粒物(PM10),51,51,128,33,78,24,24,,,31,41,7,10,0.3,1
2025-12-17T0400,1630A,117.9776,37.393,滨州市,北中新校,颗粒物(PM10),59,68,125,41,81,0,0,,,54,49,4,8,0.4,0.8
2025-12-17T0400,3514A,117.9378,37.3956,滨州市,中海酒店,细颗粒物(PM2.5),77,61,123,56,88,10,10,,,46,43,7,10,1.2,1.1
2025-12-17T0400,3515A,117.9378,37.3553,滨州市,开发区一中,细颗粒物(PM2.5),64,61,127,46,85,2,2,,,49,39,9,12,0.6,1.1
2025-12-17T0400,3516A,118.0917,37.694,滨州市,金海六路,颗粒物(PM10),52,54,113,34,68,4,4,,,58,45,5,10,0.5,0.8
2025-12-17T0400,4028A,117.9956,37.3753,滨州市,滨州市西街道办事处,细颗粒物(PM2.5),64,51,124,46,87,10,10,,,41,40,7,10,0.4,0.8
2025-12-17T0400,2311A,115.8072,33.8399,亳州市,污水处理厂,细颗粒物(PM2.5),213,200,141,163,104,8,8,,,54,48,5,8,1.0,0.7
2025-12-17T0400,2312A,115.7789,33.8518,亳州市,三国揽胜宫,细颗粒物(PM2.5),206,239,160,156,97,5,5,,,51,40,5,5,1.0,0.8
2025-12-17T0400,3332A,115.7633,33.8034,亳州市,亳州学院,细颗粒物(PM2.5),209,223,146,159,99,8,8,,,46,40,4,5,1.1,0.7
2025-12-17T0400,2693A,82.0485,44.8556,博尔塔拉蒙古自治州,市党校,颗粒物(PM10),77,104,83,42,29,30,30,,,21,23,7,8,0.8,0.7
2025-12-17T0400,2694A,82.0806,44.8969,博尔塔拉蒙古自治州,市环保局,颗粒物(PM10),69,87,83,34,32,37,37,,,12,20,8,11,0.7,0.7
2025-12-17T0400,1071A,116.8842,38.2991,沧州市,沧县城建局,细颗粒物(PM2.5),68,64,118,49,90,17,17,,,48,49,3,6,1.1,1.3
2025-12-17T0400,1072A,116.8584,38.3254,沧州市,电视转播站,颗粒物(PM10),59,68,123,41,89,1,1,,,52,54,3,4,0.9,1.1
2025-12-17T0400,1073A,116.8709,38.3228,沧州市,市环保局,细颗粒物(PM2.5),74,82,125,54,95,6,6,,,38,43,1,4,0.8,1
2025-12-17T0400,3324A,116.8136,38.3004,沧州市,河北水利电力学院,细颗粒物(PM2.5),75,73,124,55,77,6,6,,,51,46,7,10,0.9,1
2025-12-17T0400,2622A,97.1806,31.1273,昌都市,昌都监测站,,,,57,4,30,28,28,,,10,28,4,6,0.7,1.4
2025-12-17T0400,3719A,97.1714,31.1406,昌都市,昌都会议中心,,12,12,20,8,14,36,36,,,3,12,2,2,0.3,0.4
2025-12-17T0400,2690A,88.1236,43.8886,昌吉回族自治州,天山天池,,,,,,,,,,,,,,,,
2025-12-17T0400,2692A,87.2717,44.0297,昌吉回族自治州,新区政务中心,细颗粒物(PM2.5),107,112,139,80,90,9,9,,,52,60,4,6,1.0,1.5
2025-12-17T0400,3613A,87.3095,44.0142,昌吉回族自治州,亚心广场,细颗粒物(PM2.5),113,124,164,85,103,5,5,,,56,54,8,8,1.0,1.4
2025-12-17T0400,1120A,125.2863,43.9027,长春市,客车厂,细颗粒物(PM2.5),70,55,47,51,42,14,14,,,46,35,14,11,0.7,0.6
2025-12-17T0400,1121A,125.2841,43.8463,长春市,邮电学院,细颗粒物(PM2.5),63,57,53,45,40,18,18,,,20,21,7,14,0.5,0.5
2025-12-17T0400,1122A,125.3716,43.8772,长春市,劳动公园,颗粒物(PM10),56,62,66,34,41,17,17,,,32,33,9,11,0.4,0.6
2025-12-17T0400,1123A,125.3297,43.8805,长春市,园林处,细颗粒物(PM2.5),55,45,46,39,37,16,16,,,35,26,8,8,0.6,0.5
2025-12-17T0400,1124A,125.4605,43.79,长春市,净月潭,,45,41,48,31,34,25,25,,,13,18,6,7,0.4,0.4
2025-12-17T0400,1125A,125.7194,43.515,长春市,甩湾子,细颗粒物(PM2.5),118,99,64,89,58,6,6,,,22,15,4,6,1.2,0.8
2025-12-17T0400,1126A,125.3863,43.8447,长春市,经开区环卫处,颗粒物(PM10),51,51,50,35,35,7,7,,,43,33,6,8,0.6,0.6
2025-12-17T0400,1127A,125.245,43.7783,长春市,高新区管委会,细颗粒物(PM2.5),74,63,56,54,40,7,7,,,43,39,5,8,0.5,0.4
2025-12-17T0400,1128A,125.1761,43.8325,长春市,岱山公园,细颗粒物(PM2.5),74,88,66,54,48,4,4,,,56,44,10,11,0.8,0.7
2025-12-17T0400,4281A,125.3346,43.9164,长春市,北亚泰大街1068号,,,74,53,59,44,4,4,,,44,30,8,10,,0.7
2025-12-17T0400,1335A,113.0833,28.2325,长沙市,经开区环保局,细颗粒物(PM2.5),97,86,77,72,49,30,30,,,28,48,6,8,0.7,0.7
2025-12-17T0400,1336A,112.8872,28.2189,长沙市,高开区环保局,细颗粒物(PM2.5),112,93,72,84,53,32,32,,,18,34,6,9,0.9,1.1
2025-12-17T0400,1337A,113.0792,28.2053,长沙市,马坡岭,细颗粒物(PM2.5),84,91,78,62,48,26,26,,,26,43,7,8,0.7,0.8
2025-12-17T0400,1338A,112.9394,28.19,长沙市,湖南师范大学,细颗粒物(PM2.5),85,90,71,63,43,40,40,,,17,36,5,6,0.7,0.7
2025-12-17T0400,1339A,113.0178,28.1322,长沙市,雨花区环保局,细颗粒物(PM2.5),85,81,76,63,43,38,38,,,19,39,10,11,0.7,0.8
2025-12-17T0400,1340A,112.9792,28.2597,长沙市,伍家岭,细颗粒物(PM2.5),88,90,88,65,49,29,29,,,20,42,6,8,0.7,0.9
2025-12-17T0400,1341A,113.0014,28.1944,长沙市,火车新站,细颗粒物(PM2.5),79,87,86,58,49,40,40,,,30,54,10,11,0.6,0.7
2025-12-17T0400,1342A,112.9844,28.1178,长沙市,天心区环保局,细颗粒物(PM2.5),83,82,70,61,43,44,44,,,24,40,9,9,0.4,0.5
2025-12-17T0400,1343A,112.8908,28.1308,长沙市,湖南中医药大学,细颗粒物(PM2.5),99,100,73,74,46,41,41,,,17,40,7,9,0.7,0.8
2025-12-17T0400,1344A,112.9581,28.3611,长沙市,沙坪,,,,,,,,,,,,,,,,
2025-12-17T0400,1727A,113.1147,36.1547,长治市,清华站,细颗粒物(PM2.5),92,90,90,68,68,7,7,,,50,65,12,19,1.4,1.3
2025-12-17T0400,1730A,113.0886,36.2125,长治市,审计局,细颗粒物(PM2.5),92,85,92,68,77,1,1,,,69,65,16,22,1.5,1.4
2025-12-17T0400,1731A,113.0844,36.1856,长治市,长治八中,细颗粒物(PM2.5),118,106,115,89,87,1,1,,,58,58,13,20,1.9,1.7
2025-12-17T0400,2845A,113.1569,36.1911,长治市,德盛苑,细颗粒物(PM2.5),92,87,84,68,66,19,19,,,44,46,25,20,1.7,1.4
2025-12-17T0400,3568A,113.06,36.0464,长治市,向阳小学,细颗粒物(PM2.5),110,140,121,83,80,13,13,,,51,52,21,30,2.0,1.4
2025-12-17T0400,3569A,112.8792,36.3144,长治市,屯留一中,细颗粒物(PM2.5),74,75,86,54,62,22,22,,,40,49,16,26,1.1,1.5
2025-12-17T0400,4189A,113.1131,36.19948,长治市,英华南巷50号,细颗粒物(PM2.5),92,99,101,68,68,0,0,,,52,58,12,17,1.7,1.5
2025-12-17T0400,4190A,113.2367,36.3344,长治市,学府街1号,细颗粒物(PM2.5),90,94,107,67,86,12,12,,,62,62,24,37,1.9,2.6
2025-12-17T0400,1854A,111.6975,28.9703,常德市,市二中,细颗粒物(PM2.5),122,131,83,92,59,35,35,,,23,27,6,6,0.8,0.7
2025-12-17T0400,1857A,111.7158,29.1456,常德市,白鹤山,,,,,,,,,,,,,,,,
2025-12-17T0400,3138A,111.7153,29.0289,常德市,武陵区永安,细颗粒物(PM2.5),114,126,88,86,58,38,38,,,26,33,5,5,0.8,0.8
2025-12-17T0400,3139A,111.6892,28.9881,常德市,鼎城区玉霞,细颗粒物(PM2.5),112,121,81,84,57,1,1,,,35,32,6,8,0.9,0.8
2025-12-17T0400,3140A,111.6625,29.0531,常德市,武陵区长庚,细颗粒物(PM2.5),135,123,96,103,71,16,16,,,27,29,4,5,0.8,0.7
2025-12-17T0400,1196A,119.9633,31.762,常州市,市监测站,细颗粒物(PM2.5),117,133,121,88,78,0,0,,,100,79,11,11,1.4,1.4
2025-12-17T0400,1200A,119.9468,31.7069,常州市,武进监测站,细颗粒物(PM2.5),139,169,121,106,74,1,1,,,85,66,15,14,1.2,0.9
2025-12-17T0400,1201A,119.9255,31.9087,常州市,安家,细颗粒物(PM2.5),117,152,123,88,74,4,4,,,88,81,16,16,1.0,1
2025-12-17T0400,3002A,119.9805,31.8174,常州市,行政中心,细颗粒物(PM2.5),114,143,114,86,68,2,2,,,94,72,14,13,1.3,1.1
2025-12-17T0400,3003A,120.0522,31.7748,常州市,经开区,细颗粒物(PM2.5),132,181,132,100,67,0,0,,,92,73,23,22,1.1,1
2025-12-17T0400,3010A,119.9025,31.7964,常州市,钟楼,细颗粒物(PM2.5),115,128,116,87,73,3,3,,,91,73,13,12,1.1,1
2025-12-17T0400,3429A,119.8598,31.7066,常州市,武进经发区,细颗粒物(PM2.5),124,139,111,94,77,2,2,,,101,72,14,14,1.5,1.2
2025-12-17T0400,3430A,119.5826,31.7245,常州市,金坛城区,细颗粒物(PM2.5),89,99,101,66,67,1,1,,,83,54,9,10,1.0,0.9
2025-12-17T0400,2220A,120.4318,41.5881,朝阳市,西梁,细颗粒物(PM2.5),84,79,75,62,43,4,4,,,39,32,14,18,1.8,0.9
2025-12-17T0400,2221A,120.4521,41.5646,朝阳市,河畔小区,细颗粒物(PM2.5),57,57,46,40,32,14,14,,,26,23,8,12,0.8,0.7
2025-12-17T0400,2222A,120.4176,41.5648,朝阳市,八里堡,细颗粒物(PM2.5),62,55,63,44,38,3,3,,,41,33,8,14,1.0,1
2025-12-17T0400,2223A,120.3806,41.5969,朝阳市,农业园区,细颗粒物(PM2.5),80,64,56,59,41,6,6,,,46,32,7,12,1.3,0.9
2025-12-17T0400,1705A,116.6367,23.6719,潮州市,西园路,,,,,,,,,,,,,,,,
2025-12-17T0400,3026A,116.6183,23.6608,潮州市,市政府,,47,47,63,23,34,53,53,,,7,18,5,7,0.4,0.5
2025-12-17T0400,4036A,116.6461,23.6761,潮州市,金山,,49,38,54,34,37,38,38,,,11,14,3,4,0.6,0.6
2025-12-17T0400,2472A,113.0073,25.9061,郴州市,马头岭,,,,,,,,,,,,,,,,
2025-12-17T0400,2473A,113.0116,25.8226,郴州市,市职中,,43,39,41,30,26,0,0,,,26,22,3,5,0.7,0.7
2025-12-17T0400,2475A,113.0383,25.8071,郴州市,市审计局,,48,48,42,33,26,0,0,,,36,31,2,4,0.9,0.9
2025-12-17T0400,2476A,113.0348,25.7759,郴州市,市环保局,颗粒物(PM10),52,53,48,34,24,0,0,,,33,29,3,4,0.6,0.6
2025-12-17T0400,4252A,113.0138,25.8011,郴州市,好美居路49号,,50,47,41,35,26,2,2,,,31,27,2,3,0.8,0.7
2025-12-17T0400,1431A,103.9728,30.7236,成都市,金泉两河,细颗粒物(PM2.5),117,131,151,88,94,0,0,,,61,57,3,5,1.6,1.2
2025-12-17T0400,1432A,104.176,30.6872,成都市,十里店,细颗粒物(PM2.5),125,139,144,95,93,16,16,,,59,62,4,6,0.9,0.9
2025-12-17T0400,1433A,104.079,30.5706,成都市,三瓦窑,细颗粒物(PM2.5),120,154,157,91,91,0,0,,,61,73,4,5,0.9,1.1
2025-12-17T0400,1434A,104.1114,30.63,成都市,沙河铺,细颗粒物(PM2.5),150,136,148,115,111,11,11,,,45,75,4,5,0.6,0.8
2025-12-17T0400,1437A,104.0786,30.6531,成都市,君平街,细颗粒物(PM2.5),140,162,172,107,113,26,26,,,42,64,5,8,1.0,1.1
2025-12-17T0400,1438A,103.613,31.0283,成都市,灵岩寺,,,,,,,,,,,,,,,,
2025-12-17T0400,2880A,104.0239,30.65639,成都市,大石西路,细颗粒物(PM2.5),135,134,154,103,103,17,17,,,47,66,5,7,0.9,1
2025-12-17T0400,3136A,104.2725,30.5589,成都市,龙泉驿区区政府,细颗粒物(PM2.5),104,114,122,78,76,30,30,,,14,30,6,7,0.7,0.8
2025-12-17T0400,3357A,104.0106,30.6931,成都市,金博路,细颗粒物(PM2.5),119,132,145,90,92,7,7,,,68,65,7,8,0.8,0.8
2025-12-17T0400,3359A,104.0578,30.5225,成都市,华阳,,,,146,,85,,,9,,,60,,4,,1.1
2025-12-17T0400,3488A,104.3880,30.7467,成都市,青石路225号,细颗粒物(PM2.5),147,126,128,112,86,31,31,,,34,48,4,6,0.6,0.7
2025-12-17T0400,3489A,104.0789,30.4072,成都市,科学城,细颗粒物(PM2.5),98,114,122,73,80,14,14,,,32,40,6,6,0.8,0.8
2025-12-17T0400,4011A,103.8506,30.6947,成都市,光华大道三段,细颗粒物(PM2.5),137,149,143,104,102,34,34,,,35,51,3,3,0.8,1
2025-12-17T0400,4224A,104.2433,30.5353,成都市,鲸龙路1057号,细颗粒物(PM2.5),120,126,134,91,88,12,12,,,46,47,6,7,0.7,0.8
2025-12-17T0400,1062A,117.9531,40.9081,承德市,铁路,颗粒物(PM10),58,66,81,37,47,8,8,,,30,39,2,4,0.9,1
2025-12-17T0400,1063A,117.9392,40.9763,承德市,中国银行,细颗粒物(PM2.5),64,76,75,46,42,2,2,,,34,31,2,2,0.9,0.8
2025-12-17T0400,1064A,117.9503,40.928,承德市,开发区,细颗粒物(PM2.5),60,65,76,43,44,5,5,,,39,37,3,5,0.9,0.8
2025-12-17T0400,1066A,117.9268,41.0026,承德市,离宫,,,,,,,,,,,,,,,,
2025-12-17T0400,4274A,117.7994,40.9605,承德市,滨河大街98号,颗粒物(PM10),58,65,63,39,41,4,4,,,42,35,3,4,1.1,1
2025-12-17T0400,2314A,117.47,30.6618,池州市,池州学院,细颗粒物(PM2.5),77,81,70,56,46,19,19,,,50,38,4,8,0.5,0.6
2025-12-17T0400,3237A,117.4918,30.6617,池州市,展览馆,细颗粒物(PM2.5),59,64,64,42,37,0,0,,,45,42,2,5,0.7,0.8
2025-12-17T0400,3333A,117.5627,30.695,池州市,第八中学,细颗粒物(PM2.5),83,99,71,61,43,42,42,,,43,53,6,13,0.8,1
2025-12-17T0400,3334A,117.5038,30.6243,池州市,第十二中学,细颗粒物(PM2.5),68,70,70,49,42,0,0,,,54,51,3,6,1.4,1.1
2025-12-17T0400,1744A,118.9233,42.2816,赤峰市,松山一中,颗粒物(PM10),59,68,84,35,41,1,1,,,39,41,8,26,1.2,1.3
2025-12-17T0400,1745A,118.9576,42.2728,赤峰市,哈达街,细颗粒物(PM2.5),63,61,84,45,45,8,8,,,36,42,16,44,1.1,1.2
2025-12-17T0400,1746A,118.8788,42.2554,赤峰市,天义路,细颗粒物(PM2.5),70,55,68,51,53,5,5,,,36,41,8,24,1.2,1.2
2025-12-17T0400,3058A,119.2658,42.0353,赤峰市,银河街,细颗粒物(PM2.5),84,90,67,62,36,6,6,,,36,24,16,13,2.0,1
2025-12-17T0400,3286A,118.9359,42.3147,赤峰市,桥北物流园区,细颗粒物(PM2.5),67,72,66,48,46,5,5,,,34,34,11,16,1.2,1
2025-12-17T0400,2521A,107.3476,22.4136,崇左市,市环保局江州分局,颗粒物(PM10),60,69,78,40,37,31,31,,,20,22,8,8,0.7,0.8
2025-12-17T0400,4256A,107.3750,22.3736,崇左市,石景林东路7号,细颗粒物(PM2.5),64,64,59,46,46,23,23,,,28,24,8,9,0.8,0.9
2025-12-17T0400,2298A,118.3093,32.3153,滁州市,老年大学,细颗粒物(PM2.5),69,81,73,50,45,16,16,,,41,31,10,11,0.6,0.6
2025-12-17T0400,2299A,118.3244,32.2786,滁州市,人大宾馆,细颗粒物(PM2.5),84,90,85,62,51,42,42,,,27,40,6,9,0.6,0.8
2025-12-17T0400,3207A,118.3118,32.3038,滁州市,市政府原办公楼,细颗粒物(PM2.5),70,81,78,51,45,34,34,,,32,41,4,7,0.4,0.6
2025-12-17T0400,3331A,118.3267,32.2634,滁州市,图书馆,细颗粒物(PM2.5),70,79,76,51,40,47,47,,,26,41,7,9,0.4,0.6
2025-12-17T0400,2605A,101.5482,25.0441,楚雄彝族自治州,州环境监测站,,26,25,24,18,16,1,1,,,24,18,10,14,0.6,0.7
2025-12-17T0400,2606A,101.538,25.0492,楚雄彝族自治州,市经济开发区,,28,26,26,19,18,1,1,,,22,20,10,12,0.7,0.8
2025-12-17T0400,2548A,107.5277,31.2827,达州市,达州职业技术学院,,,,,,,,,,,,,,,,
2025-12-17T0400,2549A,107.5086,31.2186,达州市,市环境监测站,细颗粒物(PM2.5),92,94,111,68,69,1,1,,,26,43,5,8,0.4,0.5
2025-12-17T0400,2550A,107.4988,31.2132,达州市,凤凰小区,细颗粒物(PM2.5),94,105,116,70,70,3,3,,,19,35,4,7,0.5,0.6
2025-12-17T0400,2551A,107.5082,31.1986,达州市,达县机关宾馆,细颗粒物(PM2.5),97,100,119,72,71,2,2,,,26,42,2,6,0.6,0.8
2025-12-17T0400,2552A,107.4644,31.2124,达州市,市政中心,细颗粒物(PM2.5),85,100,123,63,66,3,3,,,26,40,6,9,0.7,0.8
2025-12-17T0400,2614A,100.1542,25.7054,大理白族自治州,大理市环境监测站,,18,17,17,12,18,24,24,,,30,14,6,6,0.5,0.5
2025-12-17T0400,2615A,100.2171,25.5811,大理白族自治州,大理古城,,15,11,21,9,13,48,48,,,5,18,8,8,0.5,0.6
2025-12-17T0400,1109A,121.612,38.9741,大连市,甘井子,颗粒物(PM10),54,57,100,24,70,46,46,,,25,45,9,10,0,0.2
2025-12-17T0400,1110A,121.565,38.9511,大连市,周水子,,44,44,98,23,67,51,51,,,16,36,11,11,0.3,0.9
2025-12-17T0400,1111A,121.5637,38.8845,大连市,星海三站,,38,38,87,22,68,50,50,,,17,29,5,7,0.3,0.7
2025-12-17T0400,1112A,121.6302,38.9117,大连市,青泥洼桥,,34,34,95,22,68,46,46,,,20,40,8,9,0.4,1
2025-12-17T0400,1113A,121.6251,38.8638,大连市,傅家庄,,38,38,91,20,63,46,46,,,17,33,9,11,0.3,0.9
2025-12-17T0400,1114A,121.5213,38.8661,大连市,七贤岭,,41,41,96,17,64,58,58,,,14,31,6,10,0,0.6
2025-12-17T0400,1115A,121.2529,38.8061,大连市,旅顺,,31,31,98,21,68,55,55,,,8,21,6,7,0.3,0.7
2025-12-17T0400,1116A,121.7485,39.1311,大连市,金州,细颗粒物(PM2.5),53,48,89,37,67,42,42,,,16,25,8,10,0.5,0.9
2025-12-17T0400,1117A,121.7811,39.0496,大连市,开发区,,50,50,92,26,63,47,47,,,14,28,10,10,0.3,0.7
2025-12-17T0400,1118A,121.9762,39.0631,大连市,双D港,,49,49,91,29,64,45,45,,,21,26,15,14,0.7,1
2025-12-17T0400,1789A,124.81117,46.03138,大庆市,大同区,细颗粒物(PM2.5),58,58,49,41,31,26,26,,,22,17,6,7,0.9,0.8
2025-12-17T0400,1790A,125.129,46.533,大庆市,龙凤区,细颗粒物(PM2.5),52,48,44,36,31,23,23,,,14,17,5,6,0.6,0.6
2025-12-17T0400,1791A,124.902,46.408,大庆市,红岗区,,46,46,44,30,21,12,12,,,33,26,7,8,0.8,0.6
2025-12-17T0400,1792A,125.153,46.586,大庆市,萨尔图区,,41,41,41,26,21,28,28,,,22,28,7,7,0.8,0.8
2025-12-17T0400,1793A,124.9042,46.6215,大庆市,让胡路区,细颗粒物(PM2.5),57,45,31,40,25,14,14,,,34,16,8,7,0.9,0.5
2025-12-17T0400,3481A,125.141,46.634,大庆市,萨区政府监测点,,37,37,33,17,12,35,35,,,17,23,14,12,0.5,0.5
2025-12-17T0400,1721A,113.3819,40.1097,大同市,果树场,细颗粒物(PM2.5),53,44,67,37,53,13,13,,,49,41,8,13,1.3,1
2025-12-17T0400,1723A,113.2994,40.0758,大同市,云冈宾馆,颗粒物(PM10),54,57,100,37,61,28,28,,,31,53,8,13,0.9,1.5
2025-12-17T0400,1724A,113.3444,40.0917,大同市,大同大学,细颗粒物(PM2.5),54,52,93,38,54,3,3,,,68,54,12,12,0.8,1.1
2025-12-17T0400,1725A,113.2661,40.1269,大同市,安家小村,颗粒物(PM10),67,84,102,42,59,2,2,,,53,52,13,17,4.2,1.8
2025-12-17T0400,1726A,113.2711,40.0844,大同市,教育学院,颗粒物(PM10),55,59,100,31,59,17,17,,,39,55,5,12,1.0,1.2
2025-12-17T0400,3282A,113.3397,40.0597,大同市,大同市卫生学校,颗粒物(PM10),51,52,97,30,57,21,21,,,43,54,6,11,1.0,1.1
2025-12-17T0400,3565A,113.1367,40.1122,大同市,云冈站,,46,44,62,32,44,11,11,,,40,42,6,10,0.9,0.8
2025-12-17T0400,3566A,113.1186,40.2556,大同市,图书馆,,,,118,36,57,24,24,,,22,28,3,10,0.9,1.2
2025-12-17T0400,3567A,113.5931,40.0461,大同市,区一中,,,75,103,53,64,27,27,,,,46,15,22,1.5,1.3
2025-12-17T0400,4199A,113.2798,40.0997,大同市,魏都大道141号,颗粒物(PM10),58,65,123,34,66,16,16,,,44,59,6,13,1.9,1.5
2025-12-17T0400,2269A,124.1069,50.4097,大兴安岭地区,科技局,,25,,18,17,18,41,41,,,3,5,5,6,0.2,0.2
2025-12-17T0400,3663A,124.1164,50.4278,大兴安岭地区,红旗社区,,15,,20,10,20,28,28,,,20,26,6,7,0.4,0.5
2025-12-17T0400,1600A,124.3303,40.0625,丹东市,江湾东路,细颗粒物(PM2.5),54,54,90,38,63,50,50,,,18,28,10,11,0.8,1.2
2025-12-17T0400,1601A,124.4256,40.1503,丹东市,临江后街,颗粒物(PM10),54,57,80,35,50,50,50,,,15,28,6,13,0.7,0.9
2025-12-17T0400,1602A,124.3933,40.1461,丹东市,元宝山,细颗粒物(PM2.5),57,57,74,40,54,39,39,,,25,27,9,11,0.9,1.1
2025-12-17T0400,1603A,124.3633,40.1092,丹东市,民主桥,颗粒物(PM10),54,57,85,30,50,52,52,,,14,31,8,9,0.8,1
2025-12-17T0400,3541A,109.5726,19.5167,儋州市,第一中学子站,,40,40,34,15,15,57,57,,,2,3,3,3,0.5,0.5
2025-12-17T0400,3542A,109.5567,19.5187,儋州市,东坡学校子站,,39,39,32,14,14,66,66,,,1,3,4,4,0.4,0.5
2025-12-17T0400,2616A,98.5842,24.428,德宏傣族景颇族自治州,德宏州监测站,,48,37,40,33,32,8,8,,,23,20,5,6,0.6,0.6
2025-12-17T0400,3677A,98.5881,24.4368,德宏傣族景颇族自治州,芒市人民政府综合楼,,35,32,40,24,25,13,13,,,13,15,7,8,0.6,0.6
2025-12-17T0400,1901A,104.4239,31.1208,德阳市,东山公园,细颗粒物(PM2.5),139,150,131,106,86,63,63,,,33,39,3,3,1.1,1
2025-12-17T0400,1902A,104.3826,31.1317,德阳市,西小区,细颗粒物(PM2.5),135,166,159,103,97,2,2,,,67,60,6,6,1.0,1
2025-12-17T0400,1904A,104.3553,31.1091,德阳市,耐火材料厂,细颗粒物(PM2.5),148,156,151,113,101,2,2,,,72,68,7,8,1.3,1.2
2025-12-17T0400,3639A,104.4019,31.1244,德阳市,市教育局,细颗粒物(PM2.5),139,125,121,106,88,1,1,,,67,63,1,3,0.8,0.8
2025-12-17T0400,1622A,116.3032,37.4674,德州市,儿童乐园,颗粒物(PM10),73,95,173,51,110,1,1,,,57,64,14,16,1.2,1.6
2025-12-17T0400,1624A,116.2991,37.4451,德州市,监理站,细颗粒物(PM2.5),70,80,168,51,110,9,9,,,56,63,16,15,0.9,1.3
2025-12-17T0400,3066A,116.2721,37.4379,德州市,九衢泉纯净水厂,细颗粒物(PM2.5),73,85,166,53,105,5,5,,,60,67,15,16,0.8,1.2
2025-12-17T0400,3371A,116.3728,37.4403,德州市,开发区人民医院,细颗粒物(PM2.5),83,92,170,61,103,9,9,,,58,67,26,16,1.0,1.3
2025-12-17T0400,3511A,116.5652,37.3319,德州市,陵城艺术中心,细颗粒物(PM2.5),89,88,169,66,113,11,11,,,48,66,17,20,0.9,1.3
2025-12-17T0400,4292A,116.3525,37.4209,德州市,新河东路,细颗粒物(PM2.5),73,80,160,53,104,4,4,,,63,69,12,15,0.9,1.2
2025-12-17T0400,2621A,99.7056,27.8317,迪庆藏族自治州,迪庆州站,,23,23,32,14,19,40,40,,,10,14,5,5,0.6,0.8
2025-12-17T0400,3180A,99.7136,27.8094,迪庆藏族自治州,质量技术监督局,,40,,34,28,23,43,43,,,10,16,7,7,0.5,0.6
2025-12-17T0400,4257A,104.6092,35.5962,定西市,将台街,颗粒物(PM10),51,51,83,33,52,11,11,,,31,33,9,17,0.7,1
2025-12-17T0400,4309A,104.6159,35.5701,定西市,正龙路62号,细颗粒物(PM2.5),63,66,94,45,49,28,28,,,11,19,5,13,0.7,0.9
2025-12-17T0400,1389A,113.7547,23.0494,东莞市,莞城梨川,颗粒物(PM10),54,57,68,30,34,39,39,,,42,50,9,7,0.6,0.6
2025-12-17T0400,1390A,113.7944,23.0128,东莞市,东城石井,颗粒物(PM10),51,52,62,30,34,38,38,,,29,51,7,9,0.7,0.7
2025-12-17T0400,1391A,113.7383,22.9658,东莞市,南城西平,颗粒物(PM10),61,72,76,43,44,1,1,,,106,71,9,9,0.8,0.9
2025-12-17T0400,3319A,113.7338,23.0381,东莞市,万江金泰,颗粒物(PM10),58,65,72,34,37,25,25,,,53,54,8,7,0.8,0.8
2025-12-17T0400,3626A,113.7533,23.0202,东莞市,南城元岭,,49,49,68,33,36,48,48,,,36,50,10,10,0.6,0.7
2025-12-17T0400,3627A,113.7875,23.0457,东莞市,东城主山,颗粒物(PM10),61,71,73,37,43,39,39,,,45,51,9,8,0.5,0.6
2025-12-17T0400,1666A,118.6614,37.4309,东营市,市环保局,,44,44,102,19,64,40,40,,,27,34,7,9,0.6,0.9
2025-12-17T0400,3036A,118.6904,37.4338,东营市,开发区管委会,,46,46,104,29,68,35,35,,,24,31,8,9,0.4,0.7
2025-12-17T0400,3365A,118.5719,37.565,东营市,垦利区民丰路,,36,36,99,24,60,20,20,,,37,32,6,7,0.6,0.9
2025-12-17T0400,3498A,118.5055,37.8612,东营市,河口城区,,46,46,63,24,57,37,37,,,37,36,6,7,0.6,1
2025-12-17T0400,3646A,118.4978,37.4623,东营市,胜利站,细颗粒物(PM2.5),52,51,107,36,73,22,22,,,40,40,10,12,0.7,1
2025-12-17T0400,3734A,118.35,37.26,东营市,理想之城,,39,39,110,22,68,28,28,,,25,35,2,6,0.6,1
2025-12-17T0400,1591A,110.0023,39.8129,鄂尔多斯市,综合楼,,24,24,47,9,21,45,45,,,27,25,5,9,0.6,0.6
2025-12-17T0400,1592A,109.9486,39.8261,鄂尔多斯市,巴音孟克林场办事处,,29,29,58,12,29,63,63,,,14,28,6,10,0.1,0.4
2025-12-17T0400,1593A,109.7736,39.5986,鄂尔多斯市,康泽苑,,35,31,52,24,24,38,38,,,18,16,8,10,0.3,0.4
2025-12-17T0400,1594A,109.8119,39.5989,鄂尔多斯市,华泰汽车城,,34,34,52,19,25,20,20,,,30,26,3,5,0.4,0.6
2025-12-17T0400,1595A,109.9734,39.7884,鄂尔多斯市,奥林花园,,,,65,5,22,28,28,,,32,27,1,8,0.4,0.6
2025-12-17T0400,2436A,114.8938,30.3994,鄂州市,市政府,细颗粒物(PM2.5),128,100,68,97,47,40,40,,,28,36,5,8,0.6,0.6
2025-12-17T0400,2437A,114.8989,30.3714,鄂州市,赵家坝,细颗粒物(PM2.5),124,,67,94,46,48,48,,,,29,7,10,1.0,1.3
2025-12-17T0400,3654A,114.8094,30.4089,鄂州市,精准医疗中心,细颗粒物(PM2.5),130,,87,99,56,50,50,,,24,39,17,31,0.9,1.2
2025-12-17T0400,2454A,109.4978,30.2981,恩施土家族苗族自治州,湖北民院,,,76,67,69,58,12,12,,,17,17,,6,0.7,0.7
2025-12-17T0400,2455A,109.4707,30.2798,恩施土家族苗族自治州,州电力总公司,细颗粒物(PM2.5),100,86,74,75,58,2,2,,,27,31,6,6,0.4,0.3
2025-12-17T0400,3549A,109.5061,30.3772,恩施土家族苗族自治州,龙凤新区,细颗粒物(PM2.5),82,76,71,60,47,8,8,,,6,13,6,6,0.6,0.6
2025-12-17T0400,2499A,108.3411,21.6158,防城港市,沙万,,,,56,40,34,47,47,,,16,21,5,7,0.7,0.8
2025-12-17T0400,2500A,108.3514,21.7731,防城港市,防城档案局,颗粒物(PM10),61,72,70,38,38,38,38,,,16,23,4,4,0.8,0.8
2025-12-17T0400,2501A,108.3506,21.6414,防城港市,大海花园,细颗粒物(PM2.5),60,54,58,43,35,57,57,,,13,20,8,8,0.8,0.9
2025-12-17T0400,1371A,113.1294,23.0067,佛山市,湾梁,颗粒物(PM10),79,107,100,55,51,2,2,,,96,73,23,12,1.0,0.9
2025-12-17T0400,1372A,113.1083,23.0478,佛山市,华材职中,细颗粒物(PM2.5),89,102,105,66,61,4,4,,,97,83,13,10,1.0,0.8
2025-12-17T0400,1373A,113.144,23.0453,佛山市,南海气象局,细颗粒物(PM2.5),78,98,90,57,51,1,1,,,99,79,24,13,0.8,0.7
2025-12-17T0400,1374A,113.2881,22.8094,佛山市,顺德苏岗,细颗粒物(PM2.5),73,74,80,53,46,23,23,,,65,72,16,9,0.8,0.8
2025-12-17T0400,1376A,112.8383,22.8678,佛山市,高明孔堂,颗粒物(PM10),63,76,87,44,49,30,30,,,38,51,9,12,0.7,0.7
2025-12-17T0400,1377A,112.8836,23.1588,佛山市,三水监测站,细颗粒物(PM2.5),64,73,93,46,51,37,37,,,51,63,13,14,0.8,0.7
2025-12-17T0400,1378A,112.867,23.185,佛山市,三水云东海,细颗粒物(PM2.5),69,78,82,50,44,19,19,,,53,72,8,11,0.7,0.7
2025-12-17T0400,3625A,113.2544,22.7642,佛山市,容桂街道办,细颗粒物(PM2.5),79,88,106,58,56,6,6,,,103,97,16,10,0.8,0.8
2025-12-17T0400,1280A,119.3903,26.0543,福州市,鼓山,,,,35,,15,,,72,,,12,,2,,0.6
2025-12-17T0400,1282A,119.2681,26.0504,福州市,师大,,31,31,39,19,17,40,40,,,23,25,7,7,0.4,0.4
2025-12-17T0400,1283A,119.2984,26.1028,福州市,五四北路,,36,29,41,25,20,28,28,,,23,28,4,4,0.4,0.4
2025-12-17T0400,1284A,119.2648,26.0768,福州市,杨桥西路,,36,36,36,25,17,40,40,,,16,20,4,5,0.4,0.4
2025-12-17T0400,1285A,119.317,26.0746,福州市,紫阳,,37,37,47,23,20,32,32,,,24,31,7,8,0.4,0.4
2025-12-17T0400,3048A,119.5799,26.0936,福州市,九龙,,25,25,31,17,14,25,25,,,19,20,3,3,0.4,0.3
2025-12-17T0400,3526A,119.5189,25.9664,福州市,吴航,,39,39,34,20,16,4,4,,,51,26,6,7,0.6,0.5
2025-12-17T0400,1755A,123.7977,41.8491,抚顺市,望花区,细颗粒物(PM2.5),72,65,87,52,58,3,3,,,45,31,4,8,0.9,0.9
2025-12-17T0400,1756A,123.9161,41.8822,抚顺市,顺城区,细颗粒物(PM2.5),73,68,84,53,56,7,7,,,44,35,14,10,0.8,0.9
2025-12-17T0400,1757A,124.0436,41.8611,抚顺市,东洲区,颗粒物(PM10),55,59,66,36,48,32,32,,,17,25,6,8,0.6,0.9
2025-12-17T0400,1758A,123.9247,41.8642,抚顺市,新抚区,细颗粒物(PM2.5),74,75,87,54,59,4,4,,,42,33,8,10,1.1,1.1
2025-12-17T0400,1759A,124.0972,41.8961,抚顺市,大伙房水库,细颗粒物(PM2.5),52,47,65,36,45,42,42,,,11,18,9,11,0.7,0.9
2025-12-17T0400,1760A,123.7086,41.8391,抚顺市,沈抚新城,细颗粒物(PM2.5),104,89,90,78,66,16,16,,,50,31,8,8,0.8,0.9
2025-12-17T0400,2376A,116.2127,28.0814,抚州市,桐源党溪,,,,,,,,,,,,,,,,
2025-12-17T0400,2377A,116.3544,27.9831,抚州市,市站,细颗粒物(PM2.5),64,68,60,46,32,20,20,,,30,33,9,7,0.6,0.7
2025-12-17T0400,2378A,116.3565,27.963,抚州市,血防站,细颗粒物(PM2.5),67,68,52,48,29,1,1,,,45,38,6,6,1.0,0.9
2025-12-17T0400,2379A,116.3564,28.0007,抚州市,采茶剧团,细颗粒物(PM2.5),59,64,54,42,32,38,38,,,15,25,6,6,0.7,0.8
2025-12-17T0400,2380A,116.385,27.9647,抚州市,医学分院,颗粒物(PM10),60,70,55,40,30,11,11,,,45,30,4,6,1.1,1
2025-12-17T0400,2207A,121.6094,41.998,阜新市,工业园区,颗粒物(PM10),98,146,53,40,34,10,10,,,32,25,12,11,0.7,0.6
2025-12-17T0400,2208A,121.6697,42.0279,阜新市,长青街,细颗粒物(PM2.5),60,54,37,43,31,1,1,,,45,26,7,8,1.1,0.8
2025-12-17T0400,2209A,121.6673,42.0705,阜新市,农业园区,,50,50,41,27,28,42,42,,,15,17,7,6,0.6,0.8
2025-12-17T0400,2210A,121.6717,42.0224,阜新市,东苑,"颗粒物(PM10),细颗粒物(PM2.5)",57,63,47,40,34,5,5,,,44,26,11,10,3.2,0.9
2025-12-17T0400,2211A,121.6506,42.0498,阜新市,玉龙新城,颗粒物(PM10),54,58,50,24,30,7,7,,,39,26,6,8,0.9,0.8
2025-12-17T0400,2301A,115.8277,32.8929,阜阳市,市监测站,细颗粒物(PM2.5),210,224,143,160,97,14,14,,,40,39,4,5,0.8,0.7
2025-12-17T0400,2303A,115.8554,32.8605,阜阳市,开发区,细颗粒物(PM2.5),205,223,132,155,81,15,15,,,38,37,4,6,1.0,0.8
2025-12-17T0400,2875A,115.784,32.8892,阜阳市,阜阳职业技术学院,细颗粒物(PM2.5),205,211,125,155,85,21,21,,,33,34,6,7,1.1,0.9
2025-12-17T0400,3468A,115.7901,32.8613,阜阳市,市规划展馆,细颗粒物(PM2.5),226,235,138,176,98,13,13,,,36,32,6,7,1.0,0.7
2025-12-17T0400,3469A,115.836,32.9183,阜阳市,枣园社区,细颗粒物(PM2.5),224,231,144,174,100,12,12,,,39,41,4,4,0.8,0.6
2025-12-17T0400,2669A,102.9099,34.9841,甘南藏族自治州,州政府,,46,46,51,24,28,7,7,,,38,30,6,9,0.8,0.8
2025-12-17T0400,3380A,102.8914,34.9617,甘南藏族自治州,甘肃民族师范学院,颗粒物(PM10),55,60,65,11,19,6,6,,,40,38,5,8,0.8,0.8
2025-12-17T0400,2570A,101.9603,30.0475,甘孜藏族自治州,水桥子,,15,15,20,8,6,34,34,,,24,17,5,6,0.4,0.4
2025-12-17T0400,3065A,101.9533,29.9972,甘孜藏族自治州,州环保局,,19,,22,12,6,60,60,,,7,14,5,6,0.4,0.4
2025-12-17T0400,3414A,115.8347,28.932,赣江新区,桑海产业园,细颗粒物(PM2.5),82,95,68,60,40,38,38,,,35,45,26,18,0.9,0.7
2025-12-17T0400,2362A,114.9017,25.9149,赣州市,通天岩,,23,17,38,16,24,28,28,,,6,14,15,17,1.4,1.3
2025-12-17T0400,2363A,114.9367,25.8664,赣州市,地委,颗粒物(PM10),51,52,58,32,30,3,3,,,41,40,6,10,0.8,0.8
2025-12-17T0400,2364A,114.9461,25.8481,赣州市,气象台,颗粒物(PM10),61,72,69,29,30,5,5,,,53,54,5,10,0.8,0.8
2025-12-17T0400,2365A,114.9322,25.8333,赣州市,市图书馆,颗粒物(PM10),61,71,71,35,34,1,1,,,56,55,5,5,1.0,0.9
2025-12-17T0400,2366A,114.8905,25.8471,赣州市,华坚鞋城,颗粒物(PM10),63,76,69,41,34,6,6,,,56,57,10,8,0.6,0.6
2025-12-17T0400,3109A,115.0093,25.8613,赣州市,赣县区卫计委,,40,34,55,28,32,3,3,,,46,41,7,7,0.6,0.5
2025-12-17T0400,2683A,106.2319,36.1417,固原市,马园,,,,,,,,,,,,,,,,
2025-12-17T0400,2684A,106.2792,36.0022,固原市,监测站,,22,18,69,15,32,43,43,,,21,25,4,7,0.7,0.8
2025-12-17T0400,2685A,106.2375,36.0211,固原市,新区,,29,29,75,12,27,18,18,,,38,35,3,5,1.0,0.8
2025-12-17T0400,3522A,106.2177,35.9959,固原市,原州区十五小,,25,10,55,6,23,78,78,,,5,18,5,7,0.3,0.5
2025-12-17T0400,2543A,106.6308,30.5278,广安市,小平旧居,,,,,,,,,,,,,,,,
2025-12-17T0400,2544A,106.6303,30.4576,广安市,市委,细颗粒物(PM2.5),135,115,132,103,102,3,3,,,19,32,3,4,0.9,0.9
2025-12-17T0400,2545A,106.6271,30.4663,广安市,友谊中学,细颗粒物(PM2.5),119,110,120,90,92,8,8,,,15,24,8,9,0.9,1
2025-12-17T0400,2547A,106.6388,30.4551,广安市,广电花园,细颗粒物(PM2.5),123,102,109,93,93,3,3,,,16,27,3,4,0.8,0.8
2025-12-17T0400,2902A,106.6351,30.4865,广安市,北辰小学,细颗粒物(PM2.5),124,106,120,94,92,5,5,,,20,25,19,19,1.0,1.1
2025-12-17T0400,2523A,105.8945,32.4535,广元市,黑石坡,,,,,,,,,,,,,,,,
2025-12-17T0400,2524A,105.821,32.4444,广元市,老城,细颗粒物(PM2.5),55,48,75,39,45,5,5,,,38,42,5,15,0.8,1.1
2025-12-17T0400,2526A,105.8628,32.4287,广元市,监测站,细颗粒物(PM2.5),60,62,70,43,44,15,15,,,19,32,1,8,0.8,1.1
2025-12-17T0400,3617A,105.8047,32.4166,广元市,经开区,颗粒物(PM10),65,79,80,46,44,0,0,,,42,40,3,8,0.9,0.9
2025-12-17T0400,1345A,113.2347,23.1423,广州市,广雅中学,颗粒物(PM10),73,96,107,51,51,0,0,,,94,83,10,8,0.7,0.7
2025-12-17T0400,1346A,113.2612,23.105,广州市,市五中,颗粒物(PM10),70,90,87,46,42,2,2,,,125,97,12,11,0.8,0.7
2025-12-17T0400,1348A,113.3478,23.0916,广州市,广东商学院,颗粒物(PM10),65,79,84,40,47,2,2,,,102,80,8,8,0.8,0.7
2025-12-17T0400,1349A,113.4332,23.1047,广州市,市八十六中,颗粒物(PM10),60,70,67,41,40,1,1,,,106,95,9,8,1.2,1
2025-12-17T0400,1350A,113.3505,22.9483,广州市,番禺中学,颗粒物(PM10),70,89,98,49,51,5,5,,,94,78,5,5,0.8,0.8
2025-12-17T0400,1351A,113.2146,23.3916,广州市,花都师范,颗粒物(PM10),63,76,73,44,38,18,18,,,66,57,7,7,0.6,0.6
2025-12-17T0400,1352A,113.2597,23.1331,广州市,市监测站,颗粒物(PM10),80,110,89,51,41,2,2,,,110,87,12,11,1.0,0.9
2025-12-17T0400,1353A,113.5618,23.312,广州市,九龙镇镇龙,颗粒物(PM10),57,64,57,35,29,31,31,,,44,41,11,7,0.6,0.5
2025-12-17T0400,1354A,113.2765,23.1544,广州市,麓湖,细颗粒物(PM2.5),78,93,70,57,43,2,2,,,97,82,9,9,0.7,0.7
2025-12-17T0400,1355A,113.443,23.3035,广州市,帽峰山森林公园,,,,,,,,,,,,,,,,
2025-12-17T0400,2846A,113.3221,23.1322,广州市,体育西,颗粒物(PM10),71,91,77,45,41,0,0,,,113,80,12,11,0.9,0.7
2025-12-17T0400,3298A,113.5717,23.5491,广州市,从化街口,颗粒物(PM10),56,61,54,36,33,0,0,,,62,42,21,11,0.7,0.7
2025-12-17T0400,3299A,113.3472,23.3692,广州市,白云竹料,颗粒物(PM10),60,69,72,39,38,2,2,,,60,59,4,5,0.8,0.7
2025-12-17T0400,3300A,113.2981,23.237,广州市,白云嘉禾,颗粒物(PM10),83,116,96,49,42,0,0,,,88,74,8,8,1.0,0.8
2025-12-17T0400,3301A,113.4256,23.1716,广州市,黄埔科学城,,41,41,57,22,29,49,49,,,28,47,7,7,0.7,0.7
2025-12-17T0400,3302A,113.3942,23.0483,广州市,番禺大学城,颗粒物(PM10),71,91,88,46,45,2,2,,,109,78,13,12,0.8,0.7
2025-12-17T0400,3303A,113.4922,22.8168,广州市,南沙黄阁,细颗粒物(PM2.5),93,109,90,69,46,5,5,,,119,90,11,11,1.1,1.1
2025-12-17T0400,3304A,113.5342,22.7896,广州市,南沙街,颗粒物(PM10),77,103,85,54,44,0,0,,,113,74,8,9,0.8,0.7
2025-12-17T0400,3443A,113.2902,23.5544,广州市,花都梯面,,38,38,37,23,21,38,38,,,30,32,7,7,0.5,0.4
2025-12-17T0400,3445A,113.7858,23.7478,广州市,从化良口,,19,18,21,13,15,7,7,,,35,20,7,7,0.5,0.5
2025-12-17T0400,3446A,113.8051,23.2614,广州市,增城荔城,,45,45,45,29,26,35,35,,,28,23,6,9,0.5,0.5
2025-12-17T0400,2505A,109.568,23.1478,贵港市,德智高中,,,,,,,,,,,,,,,,
2025-12-17T0400,2506A,109.6047,23.0666,贵港市,江南子站,细颗粒物(PM2.5),74,70,78,54,49,50,50,,,20,33,7,10,0.7,0.8
2025-12-17T0400,2508A,109.5669,23.1065,贵港市,荷城子站,细颗粒物(PM2.5),52,48,64,36,35,56,56,,,15,28,5,10,0.8,0.9
2025-12-17T0400,3405A,109.5886,23.1172,贵港市,新世纪学校,"颗粒物(PM10),细颗粒物(PM2.5)",53,56,68,37,37,53,53,,,9,18,3,8,0.7,0.7
2025-12-17T0400,4260A,109.5933,23.0951,贵港市,中山路155-3号,细颗粒物(PM2.5),65,57,62,47,40,61,61,,,16,26,5,10,0.7,0.8
2025-12-17T0400,1439A,106.6899,26.5998,贵阳市,马鞍山,,39,36,66,27,45,36,36,,,10,20,6,7,0.6,0.7
2025-12-17T0400,1441A,106.6243,26.6266,贵阳市,鉴湖路,,39,39,77,22,41,48,48,,,9,18,3,4,0.5,0.6
2025-12-17T0400,1442A,106.7487,26.6343,贵阳市,燕子冲,细颗粒物(PM2.5),52,44,68,36,56,49,49,,,13,23,8,8,0.6,0.6
2025-12-17T0400,1443A,106.6555,26.4365,贵阳市,碧云窝,,46,46,78,27,42,56,56,,,9,16,7,10,0.4,0.5
2025-12-17T0400,1445A,106.7109,26.6027,贵阳市,红边门,,49,34,70,34,50,45,45,,,9,23,6,10,0.1,0.4
2025-12-17T0400,1446A,106.7164,26.5699,贵阳市,新华路,细颗粒物(PM2.5),52,48,76,36,46,43,43,,,11,21,7,9,0.5,0.5
2025-12-17T0400,1447A,106.674,26.5424,贵阳市,太慈桥,,45,39,70,31,46,38,38,,,14,22,5,7,0.3,0.3
2025-12-17T0400,1552A,106.805,26.3003,贵阳市,桐木岭,细颗粒物(PM2.5),52,48,68,36,48,38,38,,,3,6,3,6,0.9,0.9
2025-12-17T0400,4230A,106.6882,26.5695,贵阳市,花果园大街66号,细颗粒物(PM2.5),52,,63,36,53,39,39,,,13,23,4,5,0.6,0.7
2025-12-17T0400,4231A,106.6873,26.5169,贵阳市,漓江路57号,,45,31,58,31,43,31,31,,,15,22,6,9,0.7,0.7
2025-12-17T0400,1862A,110.4144,25.3167,桂林市,电子科大尧山校区,,,,,,,,,,,,,,,,
2025-12-17T0400,1864A,110.3089,25.2708,桂林市,龙隐路小学,细颗粒物(PM2.5),67,61,66,48,45,34,34,,,19,28,9,8,0.5,0.6
2025-12-17T0400,1865A,110.2869,25.2178,桂林市,八中,细颗粒物(PM2.5),73,66,70,53,45,25,25,,,31,40,9,8,0.8,0.7
2025-12-17T0400,3531A,110.296,25.1253,桂林市,旅游学院,细颗粒物(PM2.5),67,70,64,48,40,1,1,,,33,27,5,4,0.6,0.5
2025-12-17T0400,4222A,110.1835,25.2444,桂林市,环湖路276号,"颗粒物(PM10),细颗粒物(PM2.5)",62,73,74,44,42,0,0,,,45,44,8,7,0.5,0.5
2025-12-17T0400,4301A,110.2803,25.2773,桂林市,信义路13号,细颗粒物(PM2.5),65,65,68,47,38,25,25,,,25,36,6,6,0.9,0.9
2025-12-17T0400,2674A,100.2561,34.4714,果洛藏族自治州,玛沁县大武镇,,38,38,46,7,17,24,24,,,6,8,19,20,0.5,0.4
2025-12-17T0400,1129A,126.5422,45.755,哈尔滨市,岭北,,,,,,,,,,,,,,,,
2025-12-17T0400,1130A,126.561,45.8167,哈尔滨市,松北商大,细颗粒物(PM2.5),57,57,43,40,26,28,28,,,29,30,11,9,0.7,0.6
2025-12-17T0400,1131A,126.979,45.5419,哈尔滨市,阿城会宁,细颗粒物(PM2.5),55,48,52,39,40,24,24,,,20,26,12,13,1.0,0.9
2025-12-17T0400,1132A,126.599,45.7222,哈尔滨市,南岗学府路,细颗粒物(PM2.5),73,68,55,53,35,3,3,,,49,31,10,14,0.8,0.6
2025-12-17T0400,1133A,126.689,45.7733,哈尔滨市,太平宏伟公园,细颗粒物(PM2.5),125,168,79,95,48,10,10,,,42,32,11,15,2.3,1.1
2025-12-17T0400,1134A,126.635,45.7667,哈尔滨市,道外承德广场,颗粒物(PM10),62,74,58,41,29,24,24,,,36,24,10,16,0.8,0.7
2025-12-17T0400,1135A,126.685,45.7319,哈尔滨市,香坊红旗大街,,,,32,,16,,,31,,,17,,8,,0.9
2025-12-17T0400,1136A,126.6411,45.7258,哈尔滨市,动力和平路,细颗粒物(PM2.5),79,81,63,58,46,9,9,,,52,36,17,21,0.9,0.8
2025-12-17T0400,1137A,126.593,45.7478,哈尔滨市,道里建国路,细颗粒物(PM2.5),67,57,40,48,32,10,10,,,40,21,10,11,0.7,0.6
2025-12-17T0400,1138A,126.615,45.61,哈尔滨市,平房东轻厂,细颗粒物(PM2.5),85,84,79,63,59,13,13,,,43,47,13,18,1.1,1.1
2025-12-17T0400,1139A,126.595,45.9855,哈尔滨市,呼兰师专,细颗粒物(PM2.5),84,106,77,62,59,8,8,,,49,31,11,13,0.8,0.8
2025-12-17T0400,1140A,126.6206,45.6842,哈尔滨市,省农科院,细颗粒物(PM2.5),90,78,75,67,64,7,7,,,59,45,20,23,0.8,0.8
2025-12-17T0400,2688A,93.5128,42.8172,哈密市,地区监测站,颗粒物(PM10),78,105,114,52,52,47,47,,,19,31,3,3,0.0,0.4
2025-12-17T0400,2689A,93.4961,42.8328,哈密市,哈密师范学校,颗粒物(PM10),77,103,116,43,51,50,50,,,25,37,6,7,0.8,0.9
2025-12-17T0400,2671A,100.9048,36.9639,海北藏族自治州,海晏县西海镇,,18,18,19,12,14,46,46,,,2,4,8,7,0.4,0.4
2025-12-17T0400,3867A,102.0738,36.5056,海东市,平安区公安北苑,细颗粒物(PM2.5),75,67,68,55,50,9,9,,,44,33,11,29,1.1,1.2
2025-12-17T0400,1409A,110.576,19.9507,海口市,东寨港,,,,,,,,,,,,,,,,
2025-12-17T0400,1410A,110.3232,20.0574,海口市,海南大学,颗粒物(PM10),56,62,44,30,18,129,129,,,13,8,6,6,0.4,0.3
2025-12-17T0400,1411A,110.283,20.0053,海口市,秀英海南医院,,37,34,41,22,16,117,117,,,10,8,8,7,0.4,0.3
2025-12-17T0400,1412A,110.338,19.9969,海口市,海南师范大学,,39,32,40,20,16,124,124,,,10,8,6,6,0.6,0.5
2025-12-17T0400,1413A,110.33,20.0356,海口市,龙华路环保局宿舍,,41,32,41,27,20,129,129,,,15,10,8,7,0.4,0.5
2025-12-17T0400,3539A,110.5111,19.9736,海口市,桂林洋子站,,35,32,41,16,18,111,111,,,8,7,8,7,0.3,0.3
2025-12-17T0400,2673A,100.6188,36.2866,海南藏族自治州,共和县恰卜恰镇,,25,25,39,10,22,16,16,,,32,26,9,10,0.7,0.8
2025-12-17T0400,2676A,97.3731,37.3753,海西蒙古族藏族自治州,德令哈市,,19,11,26,6,11,58,58,,,2,9,11,12,0.3,0.5
2025-12-17T0400,1048A,114.5302,36.6116,邯郸市,东污水处理厂,细颗粒物(PM2.5),137,105,137,104,126,10,10,,,47,43,4,6,1.0,1
2025-12-17T0400,1049A,114.4918,36.5713,邯郸市,矿院,细颗粒物(PM2.5),144,123,138,110,127,2,2,,,59,45,5,5,2.3,1
2025-12-17T0400,1050A,114.484,36.6133,邯郸市,丛台公园,细颗粒物(PM2.5),125,120,151,95,121,6,6,,,53,43,9,8,1.3,1
2025-12-17T0400,3458A,114.7895,36.5593,邯郸市,香泉濮院小区,细颗粒物(PM2.5),139,129,190,106,148,4,4,,,60,48,12,10,1.2,1.1
2025-12-17T0400,3579A,114.50634,36.77178,邯郸市,永年区实验高中,细颗粒物(PM2.5),88,115,142,65,84,5,5,,,66,61,7,5,1.2,1.1
2025-12-17T0400,3580A,114.20016,36.44293,邯郸市,峰峰矿区临水派出所,细颗粒物(PM2.5),117,,85,88,96,58,58,,,28,28,27,13,1.7,1.2
2025-12-17T0400,2634A,106.9893,33.1842,汉中市,汉川机床厂子校,,,,,,,,,,,,,,,,
2025-12-17T0400,2635A,107.0154,33.0706,汉中市,市监测站,细颗粒物(PM2.5),104,80,86,78,68,3,3,,,32,36,4,5,1.3,1.3
2025-12-17T0400,2636A,107.0089,33.1138,汉中市,鑫源开发区,细颗粒物(PM2.5),74,69,74,54,52,12,12,,,41,35,6,6,1.2,1
2025-12-17T0400,2637A,107.007,33.0323,汉中市,南郑大河坎水厂,细颗粒物(PM2.5),67,62,83,48,56,15,15,,,14,30,5,6,0.8,1.1
2025-12-17T0400,1223A,120.2072,30.2111,杭州市,滨江,颗粒物(PM10),75,100,87,50,42,0,0,,,70,66,9,9,1.0,0.9
2025-12-17T0400,1224A,120.0633,30.2747,杭州市,西溪,细颗粒物(PM2.5),59,62,60,42,37,0,0,,,40,43,8,8,0.8,0.8
2025-12-17T0400,1226A,120.3417,30.3150,杭州市,下沙,细颗粒物(PM2.5),78,93,81,57,48,0,0,,,87,75,9,9,1.1,0.8
2025-12-17T0400,1227A,120.1269,30.2456,杭州市,卧龙桥,细颗粒物(PM2.5),55,55,55,39,36,0,0,,,39,41,8,8,0.6,0.6
2025-12-17T0400,1228A,120.1903,30.2692,杭州市,浙江农大,细颗粒物(PM2.5),77,88,99,56,53,1,1,,,66,79,5,7,0.9,1
2025-12-17T0400,1230A,120.1197,30.3119,杭州市,和睦小学,细颗粒物(PM2.5),69,78,82,50,46,2,2,,,59,63,10,10,0.9,1
2025-12-17T0400,1231A,120.3019,30.4183,杭州市,临平镇,颗粒物(PM10),62,74,87,42,45,7,7,,,67,68,8,8,0.8,1.1
2025-12-17T0400,1232A,120.2753,30.1839,杭州市,城厢镇,细颗粒物(PM2.5),77,94,78,56,44,0,0,,,66,62,8,8,1.1,1.1
2025-12-17T0400,1233A,120.0883,30.1808,杭州市,云栖,颗粒物(PM10),65,79,88,42,37,1,1,,,44,48,4,4,0.6,0.7
2025-12-17T0400,3557A,119.9464,30.0494,杭州市,镇二中,细颗粒物(PM2.5),69,60,71,50,50,2,2,,,52,55,6,6,0.9,1
2025-12-17T0400,3558A,119.7183,30.2367,杭州市,市府大楼,,45,45,68,29,38,18,18,,,24,35,10,11,0.6,0.8
2025-12-17T0400,3656A,120.1556,30.2864,杭州市,消防大队,细颗粒物(PM2.5),70,85,80,51,48,0,0,,,65,67,6,7,0.8,0.8
2025-12-17T0400,1270A,117.1959,31.7848,合肥市,明珠广场,细颗粒物(PM2.5),149,158,88,114,46,13,13,,,42,45,6,6,1.0,0.9
2025-12-17T0400,1271A,117.3072,31.8764,合肥市,三里街,细颗粒物(PM2.5),134,156,91,102,47,9,9,,,51,50,6,6,0.9,0.9
2025-12-17T0400,1272A,117.2588,31.8707,合肥市,琥珀山庄,细颗粒物(PM2.5),144,153,92,110,63,10,10,,,49,54,7,7,0.9,0.9
2025-12-17T0400,1273A,117.1604,31.9052,合肥市,董铺水库,,,,,,,,,,,,,,,,
2025-12-17T0400,1274A,117.25,31.8571,合肥市,长江中路,细颗粒物(PM2.5),149,151,89,114,50,10,10,,,44,42,7,8,1.0,0.9
2025-12-17T0400,1275A,117.266,31.9436,合肥市,庐阳区,细颗粒物(PM2.5),138,161,96,105,47,10,10,,,45,46,9,10,0.9,0.8
2025-12-17T0400,1276A,117.3453,31.8616,合肥市,瑶海区,细颗粒物(PM2.5),138,156,91,105,47,13,13,,,54,49,6,6,0.9,0.8
2025-12-17T0400,1277A,117.3027,31.7964,合肥市,包河区,细颗粒物(PM2.5),147,149,90,112,51,15,15,,,54,68,7,9,1.0,0.9
2025-12-17T0400,1278A,117.2776,31.7385,合肥市,滨湖新区,细颗粒物(PM2.5),149,161,88,114,49,11,11,,,60,51,5,6,1.0,0.9
2025-12-17T0400,1279A,117.1318,31.8403,合肥市,高新区,细颗粒物(PM2.5),160,168,87,122,46,11,11,,,52,47,5,5,1.0,0.8
2025-12-17T0400,3464A,117.3803,31.9147,合肥市,高教基地,细颗粒物(PM2.5),165,166,86,125,52,16,16,,,44,35,6,6,0.9,0.7
2025-12-17T0400,3614A,79.924,37.0877,和田地区,地区环保局,颗粒物(PM10),152,254,249,88,84,59,59,,,36,46,22,13,1.3,1.4
2025-12-17T0400,3615A,79.9131,37.113,和田地区,市环保局,"颗粒物(PM10),细颗粒物(PM2.5)",163,276,245,124,86,37,37,,,52,58,10,14,1.3,1.4
2025-12-17T0400,2516A,108.2011,24.715,河池市,东仁乐园,,,,,,,,,,,,,,,,
2025-12-17T0400,2517A,108.0497,24.6947,河池市,市环保站,细颗粒物(PM2.5),63,64,68,45,41,2,2,,,35,32,2,4,0.8,0.9
2025-12-17T0400,2518A,108.0983,24.6989,河池市,市疾控中心,细颗粒物(PM2.5),75,70,68,55,47,1,1,,,38,35,5,8,1.0,0.9
2025-12-17T0400,1696A,114.6778,23.7569,河源市,源西,,,,,,,,,,,,,,,,
2025-12-17T0400,1697A,114.6944,23.7586,河源市,东埔,,38,37,39,26,25,33,33,,,26,32,7,7,0.5,0.7
2025-12-17T0400,1698A,114.6892,23.7233,河源市,老城,,31,31,35,17,21,10,10,,,35,26,6,6,0.6,0.7
2025-12-17T0400,1718A,115.4208,35.2464,菏泽市,气象局,细颗粒物(PM2.5),213,222,207,163,149,13,13,,,48,42,13,8,1.3,1
2025-12-17T0400,3374A,115.5564,35.0891,菏泽市,定陶老年大学,细颗粒物(PM2.5),213,210,188,163,137,11,11,,,52,49,11,9,1.4,0.9
2025-12-17T0400,4184A,115.4797,35.24401,菏泽市,永昌路1号,细颗粒物(PM2.5),210,217,201,160,146,16,16,,,52,45,12,11,1.4,1
2025-12-17T0400,4193A,115.4715,35.2800,菏泽市,长城路999号,细颗粒物(PM2.5),211,217,197,161,144,13,13,,,49,41,6,3,1.6,1.2
2025-12-17T0400,2514A,111.5264,24.4172,贺州市,环保小区,细颗粒物(PM2.5),55,44,55,39,31,7,7,,,27,32,5,6,0.9,0.9
2025-12-17T0400,2515A,111.5608,24.4078,贺州市,政协大楼,,43,43,48,25,24,0,0,,,31,31,7,8,0.9,0.8
2025-12-17T0400,3534A,111.4744,24.4553,贺州市,西湾,颗粒物(PM10),55,60,57,34,29,0,0,,,30,33,6,7,0.8,0.8
2025-12-17T0400,2385A,114.17,35.9019,鹤壁市,市监测站,细颗粒物(PM2.5),94,111,145,70,107,36,36,,,18,32,8,8,1.3,1.4
2025-12-17T0400,2386A,114.2956,35.7511,鹤壁市,市交警支队,细颗粒物(PM2.5),104,118,167,78,121,27,27,,,39,44,6,9,1.3,1.3
2025-12-17T0400,2387A,114.2878,35.7306,鹤壁市,迎宾馆,细颗粒物(PM2.5),115,120,160,87,116,36,36,,,29,36,13,12,1.3,1.3
2025-12-17T0400,3474A,114.2617,35.6822,鹤壁市,大新区,细颗粒物(PM2.5),109,96,148,82,114,26,26,,,35,36,8,12,1.3,1.2
2025-12-17T0400,3596A,114.1572,35.9603,鹤壁市,南山宾馆,细颗粒物(PM2.5),98,104,147,73,107,55,55,,,20,32,16,13,1.5,1.4
2025-12-17T0400,2244A,130.2537,47.3416,鹤岗市,哈啤分公司,,23,23,19,14,12,61,61,,,4,5,6,6,0.7,0.7
2025-12-17T0400,2245A,130.2684,47.3086,鹤岗市,斯达机电,,28,26,31,19,18,62,62,,,5,6,8,7,0.6,0.6
2025-12-17T0400,2246A,130.3114,47.3388,鹤岗市,东山纸板厂,,20,20,23,12,16,61,61,,,6,5,6,5,0.9,0.8
2025-12-17T0400,2247A,130.1097,47.3382,鹤岗市,五号水库,,,,,,,,,,,,,,,,
2025-12-17T0400,2263A,127.4833,50.2524,黑河市,交通局,,18,,20,10,17,57,57,,,4,9,3,4,0.2,0.7
2025-12-17T0400,2264A,127.5144,50.2341,黑河市,环保局,,19,,14,12,16,59,59,,,7,11,3,4,0.6,0.5
2025-12-17T0400,2265A,127.5291,50.2472,黑河市,大黑河岛,,,,,,,,,,,,,,,,
2025-12-17T0400,1074A,115.6838,37.7541,衡水市,电机北厂,细颗粒物(PM2.5),89,106,172,66,117,13,13,,,38,62,8,6,0.7,1.2
2025-12-17T0400,1075A,115.6303,37.7316,衡水市,市监测站,细颗粒物(PM2.5),113,112,152,85,109,0,0,,,50,64,4,7,1.1,1.1
2025-12-17T0400,3188A,115.6683,37.7217,衡水市,市城管局,细颗粒物(PM2.5),103,100,161,77,106,4,4,,,54,65,7,10,0.8,1.1
2025-12-17T0400,3459A,115.5989,37.5491,衡水市,地表水厂,细颗粒物(PM2.5),140,115,159,107,129,1,1,,,67,63,3,6,1.3,1.1
2025-12-17T0400,2456A,112.5003,26.9167,衡阳市,原169医院,,,,,,,,,,,,,,,,
2025-12-17T0400,2457A,112.6194,26.9258,衡阳市,衡阳化工总厂,细颗粒物(PM2.5),79,80,65,58,41,8,8,,,44,32,51,18,1.0,0.8
2025-12-17T0400,2458A,112.6211,26.8956,衡阳市,珠晖区环保局,细颗粒物(PM2.5),73,68,65,53,42,5,5,,,50,33,35,12,1.4,1.2
2025-12-17T0400,2459A,112.6197,26.8733,衡阳市,市委党校,细颗粒物(PM2.5),67,67,64,48,42,27,27,,,29,26,14,16,1.2,1.1
2025-12-17T0400,2460A,112.6006,26.8919,衡阳市,市监测站,细颗粒物(PM2.5),74,79,80,54,45,10,10,,,43,38,73,17,1.2,1.2
2025-12-17T0400,2461A,112.5664,26.9056,衡阳市,真空机电公司,细颗粒物(PM2.5),73,74,73,53,49,3,3,,,44,38,10,15,1.0,1.1
2025-12-17T0400,3399A,112.6703,26.882,衡阳市,师范学院,细颗粒物(PM2.5),67,79,69,48,38,26,26,,,34,26,10,10,1.2,1
2025-12-17T0400,2608A,103.3772,23.3993,红河哈尼族彝族自治州,污水处理厂,,45,35,33,31,28,52,52,,,7,8,7,6,0.5,0.4
2025-12-17T0400,2609A,103.3861,23.35,红河哈尼族彝族自治州,监测站,,39,36,39,27,29,58,58,,,4,5,7,8,0.3,0.3
2025-12-17T0400,3038A,103.3758,23.368,红河哈尼族彝族自治州,州图书馆,,29,23,27,20,19,55,55,,,4,5,6,9,0.3,0.5
2025-12-17T0400,1090A,111.6507,40.7517,呼和浩特市,呼市一监,细颗粒物(PM2.5),127,107,123,96,102,0,0,,,56,52,5,7,0.9,0.9
2025-12-17T0400,1091A,111.6572,40.8033,呼和浩特市,小召,细颗粒物(PM2.5),117,110,123,88,96,8,8,,,58,58,6,9,0.9,1
2025-12-17T0400,1094A,111.7516,40.8369,呼和浩特市,如意水处理厂,细颗粒物(PM2.5),115,132,129,87,89,3,3,,,65,56,,12,1.0,1
2025-12-17T0400,1095A,111.7276,40.8062,呼和浩特市,二十九中,细颗粒物(PM2.5),130,124,134,99,94,5,5,,,50,46,12,12,0.8,0.8
2025-12-17T0400,1096A,111.5512,40.7866,呼和浩特市,工大金川校区,细颗粒物(PM2.5),113,106,134,85,100,2,2,,,67,62,6,9,0.9,1
2025-12-17T0400,1097A,111.717,40.7612,呼和浩特市,化肥厂生活区,细颗粒物(PM2.5),128,118,128,97,96,7,7,,,57,55,6,8,1.2,1
2025-12-17T0400,3698A,111.5968,40.8178,呼和浩特市,红旗小学,细颗粒物(PM2.5),84,73,122,62,95,4,4,,,57,59,4,7,0.7,0.9
2025-12-17T0400,3699A,111.6518,40.8389,呼和浩特市,海东办,细颗粒物(PM2.5),97,88,112,72,85,4,4,,,64,55,4,8,0.9,0.9
2025-12-17T0400,3061A,119.7512,49.1577,呼伦贝尔市,国华电力东,,43,33,27,30,21,19,19,,,38,27,7,17,0.7,0.6
2025-12-17T0400,4279A,119.7569,49.2222,呼伦贝尔市,伊敏大街东7号,细颗粒物(PM2.5),53,51,42,37,31,16,16,,,28,28,8,10,0.6,0.6
2025-12-17T0400,1250A,120.0751,30.8669,湖州市,城西水厂,细颗粒物(PM2.5),72,83,78,52,49,10,10,,,63,64,12,11,0.9,0.7
2025-12-17T0400,2873A,120.0830,30.8929,湖州市,仁皇山新区,细颗粒物(PM2.5),70,76,73,51,44,23,23,,,56,63,11,10,0.9,0.7
2025-12-17T0400,2907A,120.1844,30.8596,湖州市,吴兴区站,细颗粒物(PM2.5),68,74,76,49,47,8,8,,,79,65,8,9,0.9,0.7
2025-12-17T0400,3562A,120.4148,30.8538,湖州市,南浔区站,细颗粒物(PM2.5),70,79,63,51,40,1,1,,,80,62,9,7,0.9,0.7
2025-12-17T0400,1607A,120.9049,40.7211,葫芦岛市,龙港区,,47,47,54,29,38,10,10,,,47,33,20,19,1.4,0.8
2025-12-17T0400,1608A,120.8392,40.7514,葫芦岛市,化工街,,44,44,56,27,33,23,23,,,34,26,104,25,0.6,0.6
2025-12-17T0400,1609A,120.8341,40.7073,葫芦岛市,新区,,48,48,54,30,35,14,14,,,43,33,21,17,1.1,0.9
2025-12-17T0400,1610A,120.8695,40.7677,葫芦岛市,东城区,颗粒物(PM10),55,60,45,37,36,6,6,,,48,32,30,19,1.2,0.8
2025-12-17T0400,2482A,109.5981,27.5721,怀化市,林科所,,,,,,,,,,,,,,,,
2025-12-17T0400,2483A,109.9453,27.5444,怀化市,河西地税局,细颗粒物(PM2.5),69,74,69,50,45,12,12,,,31,39,15,8,0.6,0.7
2025-12-17T0400,2484A,109.9781,27.5342,怀化市,市四医院,细颗粒物(PM2.5),77,91,88,56,54,0,0,,,42,46,39,18,0.7,0.7
2025-12-17T0400,2485A,109.9972,27.5578,怀化市,监测楼,,,,78,,46,,,,,,38,,7,,0.4
2025-12-17T0400,2486A,110.0394,27.583,怀化市,市委党校,细颗粒物(PM2.5),62,70,79,44,49,16,16,,,25,32,62,12,0.4,0.4
2025-12-17T0400,1210A,119.036,33.5981,淮安市,钵池山,细颗粒物(PM2.5),162,156,111,123,69,21,21,,,36,56,6,9,1.0,0.9
2025-12-17T0400,1211A,119.007,33.575,淮安市,北京南路,细颗粒物(PM2.5),169,151,121,128,80,32,32,,,23,57,8,10,0.9,1.1
2025-12-17T0400,1212A,118.989,33.6067,淮安市,市监测站,细颗粒物(PM2.5),178,156,110,134,78,23,23,,,34,54,8,12,1.3,1.3
2025-12-17T0400,1213A,119.135,33.5039,淮安市,楚州区监测站,细颗粒物(PM2.5),186,149,119,140,83,31,31,,,25,57,8,11,0.9,1
2025-12-17T0400,3426A,118.8755,33.2894,淮安市,新华书店,细颗粒物(PM2.5),178,173,114,134,77,16,16,,,62,60,11,14,1.3,1.1
2025-12-17T0400,4206A,119.0288,33.6319,淮安市,承德北路606号,细颗粒物(PM2.5),170,183,128,129,74,22,22,,,33,59,7,10,1.1,1
2025-12-17T0400,2282A,116.8004,33.975,淮北市,监测站,细颗粒物(PM2.5),204,227,152,154,99,2,2,,,59,50,8,9,1.3,0.9
2025-12-17T0400,2283A,116.8091,33.9007,淮北市,烈山区政府,细颗粒物(PM2.5),208,201,144,158,103,6,6,,,45,47,10,11,0.9,0.6
2025-12-17T0400,3330A,116.8873,33.9836,淮北市,杜集区检察院,细颗粒物(PM2.5),213,196,144,163,102,0,0,,,44,41,4,7,1.1,0.9
2025-12-17T0400,4017A,116.7923,33.9535,淮北市,市博物馆,细颗粒物(PM2.5),218,218,151,168,104,6,6,,,47,46,10,12,1.1,0.8
2025-12-17T0400,2277A,116.8305,32.7727,淮南市,潘集区政府,细颗粒物(PM2.5),213,212,126,163,87,8,8,,,37,33,6,10,1.3,0.8
2025-12-17T0400,2279A,116.8569,32.5951,淮南市,谢家集区政府,细颗粒物(PM2.5),198,185,111,148,68,0,0,,,50,37,9,9,1.0,0.5
2025-12-17T0400,2280A,116.8281,32.633,淮南市,八公山区政府,细颗粒物(PM2.5),208,200,119,158,79,5,5,,,41,30,6,7,1.0,0.7
2025-12-17T0400,2281A,116.6325,32.6201,淮南市,焦岗湖风景区管理处,,,,,,,,,,,,,,,,
2025-12-17T0400,2894A,117.0566,32.6531,淮南市,经济技术开发区消防队,细颗粒物(PM2.5),214,203,122,164,74,6,6,,,52,46,4,8,0.9,0.6
2025-12-17T0400,3329A,117.0108,32.5893,淮南市,山南新区,细颗粒物(PM2.5),210,235,128,160,69,8,8,,,45,34,3,4,1.0,0.6
2025-12-17T0400,4209A,117.0031,32.6445,淮南市,国庆中路369号,细颗粒物(PM2.5),204,193,110,154,75,0,0,,,46,45,8,10,1.0,0.7
2025-12-17T0400,2446A,114.9028,30.4742,黄冈市,职工中心,细颗粒物(PM2.5),92,103,65,68,43,52,52,,,17,26,5,10,0.8,0.7
2025-12-17T0400,2929A,114.8858,30.4519,黄冈市,红卫路,细颗粒物(PM2.5),110,96,59,83,46,47,47,,,23,29,6,8,0.7,0.6
2025-12-17T0400,3398A,114.9136,30.4445,黄冈市,市林业局,细颗粒物(PM2.5),100,125,74,75,42,51,51,,,20,25,3,8,0.9,0.8
2025-12-17T0400,2672A,102.0199,35.5102,黄南藏族自治州,同仁县隆务镇,,22,22,35,9,16,48,48,,,2,6,9,11,0.2,0.4
2025-12-17T0400,2295A,118.2903,29.6963,黄山市,延安路89号,,,36,43,35,29,5,5,,,,23,4,4,0.4,0.4
2025-12-17T0400,2297A,118.1371,30.2756,黄山市,黄山区政府5号楼,,34,34,31,20,25,10,10,,,12,12,5,6,0.3,0.3
2025-12-17T0400,4210A,118.3354,29.7203,黄山市,滨江东路7-2号,细颗粒物(PM2.5),69,50,62,50,41,6,6,,,24,27,4,4,0.5,0.6
2025-12-17T0400,2423A,115.0601,30.2313,黄石市,沈家营,颗粒物(PM10),70,89,77,46,41,41,41,,,20,27,7,10,1.2,1.2
2025-12-17T0400,2426A,114.8988,30.2019,黄石市,铁山,细颗粒物(PM2.5),107,,67,80,48,52,52,,,27,39,6,8,0.8,0.9
2025-12-17T0400,2427A,115.0307,30.2092,黄石市,团城山,细颗粒物(PM2.5),74,86,72,54,41,47,47,,,26,35,7,8,1.2,1
2025-12-17T0400,3149A,115.0235,30.1578,黄石市,笔架山北路,颗粒物(PM10),94,138,109,54,48,26,26,,,37,40,13,11,1.4,1.2
2025-12-17T0400,4185A,115.0780,30.21118,黄石市,磁湖东路29号,"颗粒物(PM10),细颗粒物(PM2.5)",67,84,83,48,52,45,45,,,17,37,9,11,1.2,1.1
2025-12-17T0400,1392A,114.4183,23.0528,惠州市,河南岸金山湖子站,颗粒物(PM10),60,70,59,41,33,24,24,,,32,34,5,5,0.8,0.7
2025-12-17T0400,1393A,114.4053,23.0822,惠州市,下埔横江三路子站,颗粒物(PM10),61,72,64,38,32,2,2,,,57,40,5,8,0.9,0.8
2025-12-17T0400,1394A,114.4103,23.1142,惠州市,江北云山西路子站,颗粒物(PM10),66,82,61,42,30,2,2,,,68,49,7,9,0.8,0.7
2025-12-17T0400,1395A,114.4645,22.7833,惠州市,惠阳区承修路船湖子站,颗粒物(PM10),54,57,73,29,35,51,51,,,24,36,8,9,0.7,0.7
2025-12-17T0400,1396A,114.5317,22.7422,惠州市,大亚湾管委会子站,颗粒物(PM10),62,73,70,42,36,38,38,,,44,43,6,7,0.6,0.6
2025-12-17T0400,3314A,114.4338,22.8134,惠州市,惠阳秋长,颗粒物(PM10),51,51,70,33,37,49,49,,,31,39,12,10,0.6,0.6
2025-12-17T0400,3452A,114.6517,22.775,惠州市,大亚湾霞涌,,42,42,54,21,29,75,75,,,21,25,5,6,0.6,0.6
2025-12-17T0400,2240A,130.9762,45.3001,鸡西市,环保局,,19,7,40,3,17,58,58,,,2,7,6,6,0.2,0.2
2025-12-17T0400,2243A,130.9429,45.3039,鸡西市,第一中学,,17,10,27,9,14,54,54,,,4,10,4,4,0.2,0.2
2025-12-17T0400,3707A,131.0207,45.3073,鸡西市,欧美日汽修厂,,18,,23,12,17,55,55,,,5,8,6,6,0.3,0.3
2025-12-17T0400,3709A,130.9967,45.3106,鸡西市,市政设施管理处,,18,12,30,12,17,53,53,,,9,12,8,9,0.4,0.4
2025-12-17T0400,2367A,114.9754,27.0803,吉安市,红声器材厂,,47,47,50,31,27,7,7,,,39,30,6,9,0.4,0.4
2025-12-17T0400,2368A,114.9658,27.0999,吉安市,市森林工业局,,50,50,54,32,30,24,24,,,24,30,10,11,0.5,0.5
2025-12-17T0400,2369A,114.99,27.1312,吉安市,市环境监测站,,49,47,50,34,30,13,13,,,31,27,12,15,0.8,0.5
2025-12-17T0400,2370A,115.0093,27.0968,吉安市,青原区法院,,43,43,50,23,27,0,0,,,42,29,9,12,0.5,0.5
2025-12-17T0400,1772A,126.54,43.8622,吉林市,哈达湾,细颗粒物(PM2.5),70,77,65,51,44,17,17,,,33,27,10,12,1.3,1.3
2025-12-17T0400,1773A,126.5844,43.8358,吉林市,东局子,细颗粒物(PM2.5),84,77,52,62,35,5,5,,,34,23,12,14,1.1,1
2025-12-17T0400,1774A,126.5052,43.8245,吉林市,电力学院,细颗粒物(PM2.5),74,71,68,54,52,9,9,,,34,31,12,30,1.3,1.3
2025-12-17T0400,1775A,126.6133,43.8972,吉林市,江北,细颗粒物(PM2.5),63,60,55,45,43,12,12,,,31,17,5,7,1.2,1.1
2025-12-17T0400,1776A,126.555,43.8306,吉林市,江南公园,细颗粒物(PM2.5),79,76,54,58,42,0,0,,,36,28,7,11,1.2,1
2025-12-17T0400,1778A,126.7061,43.7133,吉林市,丰满,细颗粒物(PM2.5),59,43,44,42,42,25,25,,,17,17,7,10,0.6,0.6
2025-12-17T0400,2868A,126.4739,43.953,吉林市,九站,细颗粒物(PM2.5),156,169,90,119,70,7,7,,,47,37,26,21,1.2,1
2025-12-17T0400,1299A,116.9862,36.6114,济南市,科干所,细颗粒物(PM2.5),95,117,165,71,99,6,6,,,50,63,7,10,1.2,1.4
2025-12-17T0400,1300A,116.9376,36.665,济南市,农科所,细颗粒物(PM2.5),89,115,172,66,98,1,1,,,49,67,1,6,1.1,1.4
2025-12-17T0400,1301A,117.1265,36.6734,济南市,开发区,细颗粒物(PM2.5),113,115,163,85,113,4,4,,,46,57,5,7,1.1,1.3
2025-12-17T0400,1303A,117.0624,36.6868,济南市,省种子仓库,细颗粒物(PM2.5),104,122,181,78,116,7,7,,,48,59,10,11,1.2,1.5
2025-12-17T0400,1304A,116.9489,36.6447,济南市,机床二厂,细颗粒物(PM2.5),113,115,173,85,123,2,2,,,48,60,7,12,1.0,1.4
2025-12-17T0400,1305A,117.0495,36.663,济南市,市监测站,细颗粒物(PM2.5),104,115,171,78,114,2,2,,,47,57,5,5,1.0,1.2
2025-12-17T0400,1306A,116.7675,36.5484,济南市,长清党校,细颗粒物(PM2.5),123,137,178,93,115,0,0,,,44,62,5,10,1.3,1.5
2025-12-17T0400,1616A,117.6795,36.229,济南市,技术学院,细颗粒物(PM2.5),144,156,141,110,99,0,0,,,55,51,2,8,1.2,1.2
2025-12-17T0400,1961A,117.532,36.6868,济南市,东山小学,细颗粒物(PM2.5),147,144,175,112,113,5,5,,,44,57,4,7,1.4,1.3
2025-12-17T0400,3059A,117.7161,36.2049,济南市,泰兴公司,细颗粒物(PM2.5),125,122,146,95,106,33,33,,,30,44,2,8,0.7,1
2025-12-17T0400,3064A,117.6867,36.2171,济南市,莱芜战役纪念馆,细颗粒物(PM2.5),124,127,146,94,106,24,24,,,38,45,4,10,0.6,0.9
2025-12-17T0400,3494A,117.1673,36.9782,济南市,济阳区政府,细颗粒物(PM2.5),89,93,170,66,110,6,6,,,48,59,3,13,0.7,1.2
2025-12-17T0400,3495A,117.1171,36.63,济南市,锦屏中学,细颗粒物(PM2.5),129,147,158,98,105,30,30,,,28,48,4,6,1.1,1.3
2025-12-17T0400,3682A,116.9814,36.6819,济南市,济南四建,细颗粒物(PM2.5),104,110,167,78,112,2,2,,,49,63,6,9,1.1,1.5
2025-12-17T0400,1653A,116.6251,35.4302,济宁市,火炬城,细颗粒物(PM2.5),221,201,158,171,122,3,3,,,59,53,6,8,1.7,1
2025-12-17T0400,1655A,116.5491,35.4042,济宁市,电化厂,细颗粒物(PM2.5),216,269,209,166,121,5,5,,,73,64,11,12,1.7,1
2025-12-17T0400,3500A,116.5814,35.3707,济宁市,北湖一中,细颗粒物(PM2.5),212,193,145,162,117,5,5,,,61,55,7,9,1.8,1.1
2025-12-17T0400,3501A,116.8249,35.5593,济宁市,服务中心,细颗粒物(PM2.5),186,215,177,140,105,4,4,,,43,47,12,16,1.2,1
2025-12-17T0400,3678A,116.5907,35.4054,济宁市,市第七中学,细颗粒物(PM2.5),206,188,148,156,106,6,6,,,66,59,12,13,1.8,1.1
2025-12-17T0400,2255A,130.2751,46.8028,佳木斯市,佳纺,,19,19,25,6,14,47,47,,,8,16,3,3,0.5,0.5
2025-12-17T0400,2256A,130.3995,46.8307,佳木斯市,发电厂,,,,,,,,,,,,,,,,
2025-12-17T0400,2257A,130.3258,46.7975,佳木斯市,环保局,,27,27,22,10,14,55,55,,,6,14,3,3,0.2,0.3
2025-12-17T0400,2258A,130.3648,46.8032,佳木斯市,十一中,,,,,,,,,,,,,,,,
2025-12-17T0400,2259A,130.3794,46.7588,佳木斯市,四丰,,,,,,,,,,,,,,,,
2025-12-17T0400,1252A,120.7436,30.778,嘉兴市,清河小学,细颗粒物(PM2.5),85,100,86,63,48,2,2,,,80,72,7,7,0.4,0.5
2025-12-17T0400,1253A,120.726,30.7478,嘉兴市,嘉兴学院,细颗粒物(PM2.5),80,96,81,59,46,16,16,,,63,69,10,8,0.9,0.9
2025-12-17T0400,2872A,120.7846,30.7525,嘉兴市,南湖区残联,,,105,76,66,47,10,10,,,72,63,7,5,,0.7
2025-12-17T0400,3407A,120.6916,30.7739,嘉兴市,秀洲住建,细颗粒物(PM2.5),89,101,87,66,49,6,6,,,68,70,8,8,0.5,0.5
2025-12-17T0400,1945A,98.2908,39.7711,嘉峪关市,气象局,颗粒物(PM10),74,97,68,39,23,21,21,,,32,21,98,17,1.6,0.7
2025-12-17T0400,2884A,98.2672,39.7978,嘉峪关市,酒钢宾馆,颗粒物(PM10),56,61,74,29,23,34,34,,,17,23,32,19,0.6,0.7
2025-12-17T0400,3248A,98.2643,39.7724,嘉峪关市,雄关区,,50,50,55,21,27,1,1,,,61,32,23,17,0.8,0.8
2025-12-17T0400,1383A,113.1064,22.6058,江门市,北街,细颗粒物(PM2.5),78,79,99,57,63,29,29,,,67,93,17,12,0.7,0.8
2025-12-17T0400,1384A,113.0731,22.5835,江门市,西区,颗粒物(PM10),70,90,124,47,70,24,24,,,79,106,17,11,0.7,0.8
2025-12-17T0400,1385A,113.0219,22.5311,江门市,圭峰西,细颗粒物(PM2.5),158,149,102,120,74,16,16,,,81,72,7,8,0.9,0.8
2025-12-17T0400,1386A,113.0828,22.5947,江门市,东湖,细颗粒物(PM2.5),94,102,118,70,65,21,21,,,71,89,16,10,0.5,0.6
2025-12-17T0400,3311A,113.1075,22.5647,江门市,江海富民,细颗粒物(PM2.5),94,127,127,70,50,26,26,,,82,100,18,13,0.8,0.9
2025-12-17T0400,3449A,113.05,22.4667,江门市,新会银湖,细颗粒物(PM2.5),160,,107,122,90,17,17,,,50,73,6,8,0.9,0.9
2025-12-17T0400,1830A,113.1992,35.2590,焦作市,影视城,,,,154,,91,,,38,,,43,,6,,1.1
2025-12-17T0400,3335A,113.3137,35.2641,焦作市,马村街道办,细颗粒物(PM2.5),178,161,164,134,121,23,23,,,28,40,7,10,1.2,1.3
2025-12-17T0400,3336A,113.2465,35.2373,焦作市,焦作技师学院,细颗粒物(PM2.5),168,170,170,127,120,13,13,,,38,44,10,12,1.3,1.3
2025-12-17T0400,3477A,113.1656,35.2539,焦作市,中站许衡医院,细颗粒物(PM2.5),190,181,164,143,120,17,17,,,47,43,12,11,1.4,1.4
2025-12-17T0400,3981A,113.2449,35.1803,焦作市,原李万街道办,细颗粒物(PM2.5),178,152,172,134,124,1,1,,,52,38,9,11,1.4,1.2
2025-12-17T0400,4264A,113.2340,35.2190,焦作市,新安路1731号,细颗粒物(PM2.5),178,171,170,134,124,3,3,,,48,46,13,13,1.4,1.4
2025-12-17T0400,4295A,113.2722,35.2121,焦作市,人民路3066号,细颗粒物(PM2.5),144,146,176,110,104,4,4,,,40,45,5,9,1.4,1.2
2025-12-17T0400,1708A,116.3701,23.5345,揭阳市,新兴,细颗粒物(PM2.5),100,94,74,75,45,6,6,,,68,39,11,11,0.9,0.7
2025-12-17T0400,1709A,116.3264,23.5443,揭阳市,西马,细颗粒物(PM2.5),125,121,81,95,48,7,7,,,65,37,10,8,1.0,0.7
2025-12-17T0400,1710A,116.3611,23.5626,揭阳市,东兴,细颗粒物(PM2.5),97,,78,72,44,25,25,,,52,38,14,12,1.0,0.8
2025-12-17T0400,1711A,116.4151,23.5294,揭阳市,渔湖,细颗粒物(PM2.5),72,80,80,52,38,10,10,,,55,43,6,7,1.0,0.9
2025-12-17T0400,3320A,116.403,23.5699,揭阳市,曲溪,细颗粒物(PM2.5),68,76,85,49,46,30,30,,,39,41,6,13,0.7,0.7
2025-12-17T0400,1944A,102.1692,38.5167,金昌市,天庆家园,颗粒物(PM10),63,75,97,37,37,17,17,,,42,32,32,39,0.7,0.9
2025-12-17T0400,4022A,102.1647,38.5371,金昌市,金川区人防中心,细颗粒物(PM2.5),82,112,93,60,43,8,8,,,41,31,118,94,1.1,0.9
2025-12-17T0400,4239A,102.1930,38.5319,金昌市,长春路96号,二氧化硫,76,87,95,40,40,24,24,,,29,29,332,113,0.8,0.9
2025-12-17T0400,1262A,119.647,29.077,金华市,十五中,,,,81,,47,,,32,,,54,,4,,0.7
2025-12-17T0400,1263A,119.686,29.1029,金华市,监测站,,,,81,,42,,,23,,,60,,5,,0.9
2025-12-17T0400,3659A,119.656,29.1131,金华市,气象局,细颗粒物(PM2.5),93,126,96,69,55,2,2,,,65,70,9,8,0.8,0.9
2025-12-17T0400,1767A,121.1115,41.0879,锦州市,南山,,46,46,42,31,35,21,21,,,29,24,6,11,0.9,0.9
2025-12-17T0400,1768A,121.0604,40.8428,锦州市,开发区,,48,48,49,30,38,25,25,,,27,29,40,19,0.7,0.7
2025-12-17T0400,1769A,121.1836,41.1119,锦州市,百股街道,,44,44,48,29,37,23,23,,,31,28,16,18,1.0,1
2025-12-17T0400,1770A,121.1178,41.1222,锦州市,天安街道,,43,42,43,30,34,22,22,,,31,25,10,13,0.8,0.8
2025-12-17T0400,1771A,121.1303,41.1386,锦州市,北湖公园,,38,38,46,24,31,33,33,,,13,19,9,14,0.5,0.7
2025-12-17T0400,2160A,112.85,35.5051,晋城市,自来水公司,颗粒物(PM10),74,98,109,46,43,34,34,,,32,36,8,11,1.6,1.9
2025-12-17T0400,2161A,112.8318,35.4936,晋城市,白云商贸,颗粒物(PM10),83,115,98,58,40,38,38,,,22,29,6,6,1.1,1.3
2025-12-17T0400,2162A,112.8508,35.4887,晋城市,市环保局,颗粒物(PM10),86,121,113,58,54,31,31,,,24,31,7,10,1.5,1.7
2025-12-17T0400,2163A,112.8676,35.4897,晋城市,技术学院,"颗粒物(PM10),细颗粒物(PM2.5)",77,104,108,56,53,21,21,,,47,44,8,11,1.8,1.8
2025-12-17T0400,2165A,112.8453,35.546,晋城市,白马寺,细颗粒物(PM2.5),74,69,88,54,58,56,56,,,17,24,16,14,0.8,1.3
2025-12-17T0400,3620A,112.8271,35.4828,晋城市,泽州一中,颗粒物(PM10),85,119,99,58,50,53,53,,,22,33,8,7,1.0,1.1
2025-12-17T0400,2173A,112.7249,37.7067,晋中市,南都小区,细颗粒物(PM2.5),100,136,156,75,90,3,3,,,66,72,14,23,1.7,2
2025-12-17T0400,2174A,112.6991,37.6982,晋中市,榆次区政府,细颗粒物(PM2.5),122,129,150,92,97,2,2,,,58,69,13,22,1.4,1.7
2025-12-17T0400,2865A,112.7195,37.6828,晋中市,榆次三中,细颗粒物(PM2.5),104,127,145,78,86,2,2,,,59,65,13,22,1.7,2
2025-12-17T0400,4200A,112.7478,37.6954,晋中市,迎宾街26号,细颗粒物(PM2.5),113,132,143,85,88,3,3,,,56,62,13,22,1.2,1.4
2025-12-17T0400,2439A,112.2014,31.0481,荆门市,竹园小学,细颗粒物(PM2.5),117,130,106,88,72,47,47,,,23,29,1,3,0.6,0.7
2025-12-17T0400,2440A,112.1969,30.9891,荆门市,掇刀,细颗粒物(PM2.5),114,127,108,86,73,70,70,,,16,28,4,5,0.5,0.7
2025-12-17T0400,2441A,112.2213,31.0386,荆门市,石化一小,细颗粒物(PM2.5),118,139,124,89,80,47,47,,,23,35,8,8,0.7,0.8
2025-12-17T0400,3012A,112.1849,31.0362,荆门市,西山林语,细颗粒物(PM2.5),112,120,100,84,64,59,59,,,19,24,6,7,0.8,0.9
2025-12-17T0400,3547A,112.1632,31.0138,荆门市,龙泉中学南校,细颗粒物(PM2.5),104,117,108,78,71,70,70,,,11,22,8,10,0.2,0.3
2025-12-17T0400,1844A,112.2494,30.3197,荆州市,市图书馆,细颗粒物(PM2.5),130,99,88,99,77,49,49,,,24,36,8,7,0.7,0.9
2025-12-17T0400,1845A,112.2008,30.3544,荆州市,市委党校,细颗粒物(PM2.5),135,113,97,103,80,42,42,,,32,42,5,4,0.8,0.9
2025-12-17T0400,3194A,112.2747,30.3122,荆州市,管委会,细颗粒物(PM2.5),124,102,88,94,76,36,36,,,28,37,6,6,0.8,0.9
2025-12-17T0400,4268A,112.1722,30.3366,荆州市,学苑路85号,细颗粒物(PM2.5),127,118,107,96,87,37,37,,,28,31,5,41,0.8,0.9
2025-12-17T0400,2342A,117.3102,29.3867,景德镇市,王港中学,,,,,,,,,,,,,,,,
2025-12-17T0400,2343A,117.2117,29.2933,景德镇市,老干部活动中心,细颗粒物(PM2.5),53,46,50,37,32,3,3,,,35,37,6,9,0.6,0.6
2025-12-17T0400,2344A,117.1894,29.2789,景德镇市,兽医站,,50,50,55,34,30,6,6,,,41,38,7,11,0.8,0.7
2025-12-17T0400,2346A,117.2461,29.2956,景德镇市,陶研所,颗粒物(PM10),54,58,46,34,31,2,2,,,33,31,5,4,0.6,0.6
2025-12-17T0400,4289A,117.1542,29.2566,景德镇市,青少年活动中心,,46,45,59,32,32,14,14,,,35,43,4,10,0.6,0.7
2025-12-17T0400,1803A,115.9872,29.6815,九江市,十里,"颗粒物(PM10),细颗粒物(PM2.5)",65,79,74,47,48,4,4,,,79,63,8,8,1.0,1.1
2025-12-17T0400,1804A,115.9584,29.7046,九江市,茅山头,颗粒物(PM10),62,74,65,42,40,1,1,,,62,58,6,7,0.9,0.9
2025-12-17T0400,1805A,115.9877,29.7295,九江市,西园,"颗粒物(PM10),细颗粒物(PM2.5)",70,89,71,51,44,7,7,,,88,71,9,8,0.7,0.7
2025-12-17T0400,1808A,115.9114,29.6038,九江市,综合工业园,细颗粒物(PM2.5),79,78,61,58,43,53,53,,,38,55,7,5,0.8,0.9
2025-12-17T0400,1809A,116.0721,29.7535,九江市,石化总厂,细颗粒物(PM2.5),94,115,81,70,45,7,7,,,72,58,6,10,0.8,0.9
2025-12-17T0400,1810A,115.9773,29.5698,九江市,庐山气象台,,,,,,,,,,,,,,,,
2025-12-17T0400,3190A,116.0254,29.6994,九江市,外国语学校,细颗粒物(PM2.5),73,90,69,53,42,4,4,,,94,62,12,13,0.6,0.5
2025-12-17T0400,4253A,116.0102,29.6594,九江市,莲花大道8号,细颗粒物(PM2.5),82,92,66,60,43,46,46,,,28,31,8,6,0.7,0.5
2025-12-17T0400,4240A,98.4958,39.7339,酒泉市,玉门东路5号,颗粒物(PM10),63,75,85,32,29,55,55,,,15,22,12,13,0.5,0.6
2025-12-17T0400,4241A,98.5099,39.7506,酒泉市,北大街108号,颗粒物(PM10),52,53,88,21,31,56,56,,,12,25,10,12,0.3,0.8
2025-12-17T0400,2698A,76.0072,39.4467,喀什地区,巡警大队,颗粒物(PM10),190,330,308,135,120,4,4,,,69,62,9,9,2.8,2.7
2025-12-17T0400,2699A,75.9755,39.4694,喀什地区,吾办,细颗粒物(PM2.5),190,270,269,143,135,2,2,,,66,61,8,7,2.8,2.5
2025-12-17T0400,4027A,75.9483,39.4689,喀什地区,老干局,颗粒物(PM10),243,380,329,174,125,3,3,,,79,61,7,8,5.9,3.1
2025-12-17T0400,1824A,114.3389,34.7781,开封市,肿瘤医院,细颗粒物(PM2.5),192,187,179,144,130,27,27,,,36,30,6,7,1.1,1.1
2025-12-17T0400,1826A,114.2885,34.7965,开封市,世纪星幼儿园,细颗粒物(PM2.5),211,176,168,161,148,30,30,,,36,33,4,5,1.0,1
2025-12-17T0400,3147A,114.3438,34.8106,开封市,龙亭公园,细颗粒物(PM2.5),221,176,182,171,158,19,19,,,43,37,4,5,0.9,0.8
2025-12-17T0400,3210A,114.3644,34.7964,开封市,汴京公园,细颗粒物(PM2.5),205,194,194,155,145,20,20,,,43,37,3,4,0.9,0.9
2025-12-17T0400,3473A,114.2485,34.8306,开封市,技师学院,细颗粒物(PM2.5),196,171,166,147,143,31,31,,,30,34,5,7,1.0,1.1
2025-12-17T0400,3592A,114.4644,34.7556,开封市,祥符区生态环境局,细颗粒物(PM2.5),211,214,212,161,146,30,30,,,32,31,8,6,0.9,0.9
2025-12-17T0400,1951A,84.895,45.6094,克拉玛依市,长征新村,细颗粒物(PM2.5),95,120,109,71,67,32,32,,,26,32,5,6,1.1,1.1
2025-12-17T0400,1952A,84.8988,45.5893,克拉玛依市,南林小区,颗粒物(PM10),87,123,107,43,49,37,37,,,17,21,3,4,1.0,1
2025-12-17T0400,1954A,84.905,44.3396,克拉玛依市,独山子区,细颗粒物(PM2.5),236,358,149,186,81,25,25,,,45,34,6,6,1.5,0.9
2025-12-17T0400,1955A,85.6979,46.098,克拉玛依市,乌尔禾区商贸楼,细颗粒物(PM2.5),80,85,89,59,62,38,38,,,17,18,5,6,1.0,0.9
2025-12-17T0400,3612A,85.1045,45.6899,克拉玛依市,白碱滩区新站,细颗粒物(PM2.5),85,101,120,63,65,41,41,,,20,26,8,9,0.7,0.8
2025-12-17T0400,2697A,76.1454,39.7142,克孜勒苏柯尔克孜自治州,市人民政府,颗粒物(PM10),141,232,242,81,87,48,48,,,14,22,5,8,0.5,0.6
2025-12-17T0400,3665A,76.1658,39.7157,克孜勒苏柯尔克孜自治州,克州文化中心,颗粒物(PM10),127,203,232,68,79,53,53,,,13,30,9,11,0.9,1.2
2025-12-17T0400,1450A,102.8204,24.8886,昆明市,呈贡新区,,33,31,31,23,20,28,28,,,29,25,12,6,1.0,0.8
2025-12-17T0400,1451A,102.6251,24.9608,昆明市,西山森林公园,,,,,,,,,,,,,,,,
2025-12-17T0400,1452A,102.7252,25.0902,昆明市,龙泉镇,,26,22,34,18,17,21,21,,,15,27,2,3,0.6,0.7
2025-12-17T0400,1453A,102.7266,25.0375,昆明市,东风东路,,34,34,39,20,24,7,7,,,38,29,5,5,0.4,0.5
2025-12-17T0400,1454A,102.6742,25.0669,昆明市,金鼎山,,37,37,43,23,23,29,29,,,20,33,3,4,0.6,0.7
2025-12-17T0400,1455A,102.6644,25.0401,昆明市,碧鸡广场,,36,36,38,20,20,25,25,,,25,33,3,4,0.3,0.5
2025-12-17T0400,3179A,102.7494,25.0119,昆明市,官渡区博物馆,颗粒物(PM10),54,57,53,31,24,0,0,,,51,36,3,4,0.6,0.6
2025-12-17T0400,3375A,102.8017,24.8336,昆明市,青年创业园,,35,35,27,17,16,1,1,,,37,22,3,4,0.8,0.8
2025-12-17T0400,3550A,102.7997,24.9786,昆明市,昆明学院,颗粒物(PM10),63,76,46,36,24,1,1,,,51,30,3,3,0.6,0.7
2025-12-17T0400,3551A,102.5967,24.6736,昆明市,晋宁区生态环境分局,颗粒物(PM10),59,67,38,39,25,1,1,,,43,22,2,2,0.6,0.4
2025-12-17T0400,3552A,102.6678,24.9856,昆明市,云天化总部,,47,47,29,27,17,0,0,,,42,31,6,7,0.6,0.6
2025-12-17T0400,1456A,91.1319,29.6514,拉萨市,八廓街,,17,,22,11,15,52,52,,,18,22,7,17,0.6,0.6
2025-12-17T0400,1457A,91.1221,29.6747,拉萨市,市环保局,,35,29,35,24,24,23,23,,,28,26,5,14,1.5,1.1
2025-12-17T0400,1458A,91.0874,29.6475,拉萨市,区监测站,,19,19,19,7,13,34,34,,,34,34,4,13,0.6,0.4
2025-12-17T0400,1459A,91.1774,29.6541,拉萨市,西藏大学,,18,13,22,7,13,55,55,,,16,21,6,17,0.2,0.4
2025-12-17T0400,1460A,90.9798,29.6588,拉萨市,区辐射站,,19,19,37,11,21,36,36,,,30,36,4,9,0.8,0.8
2025-12-17T0400,1461A,91.0834,29.6292,拉萨市,拉萨火车站,,19,14,27,13,14,36,36,,,32,33,5,10,1.1,0.8
2025-12-17T0400,2520A,109.2203,23.7256,来宾市,来宾技工学校,细颗粒物(PM2.5),73,75,78,53,50,8,8,,,27,26,5,10,0.9,0.9
2025-12-17T0400,3535A,109.1781,23.7297,来宾市,兴宾区政府,细颗粒物(PM2.5),63,69,68,45,41,25,25,,,14,18,5,8,0.8,0.8
2025-12-17T0400,4002A,109.2416,23.7461,来宾市,中南小学,细颗粒物(PM2.5),67,70,81,48,42,0,0,,,37,34,5,9,1.0,1
2025-12-17T0400,1477A,104.1373,35.9454,兰州市,榆中兰大校区,,,,,,,,,,,,,,,,
2025-12-17T0400,1479A,103.831,36.0464,兰州市,铁路设计院,,,,,,,,,,,,,,,,
2025-12-17T0400,3241A,103.7439,36.0842,兰州市,百合公园,细颗粒物(PM2.5),64,71,105,46,64,3,3,,,58,75,20,21,1.1,1.6
2025-12-17T0400,3242A,103.9611,35.998,兰州市,和平,"颗粒物(PM10),细颗粒物(PM2.5)",55,60,97,39,67,21,21,,,38,38,7,18,1.0,1.4
2025-12-17T0400,4236A,103.6293,36.0938,兰州市,庄浪东路808号,细颗粒物(PM2.5),62,69,97,44,54,15,15,,,47,67,11,21,0.8,1.1
2025-12-17T0400,4237A,103.7251,36.1043,兰州市,安宁西路88号,颗粒物(PM10),79,108,124,47,62,2,2,,,71,82,14,16,1.0,1
2025-12-17T0400,4238A,103.8470,36.0676,兰州市,北滨河东路1号,颗粒物(PM10),72,93,104,49,58,2,2,,,64,70,10,18,1.3,1.5
2025-12-17T0400,3245A,103.6633,36.533,兰州新区,新区管委会,细颗粒物(PM2.5),62,62,87,44,50,30,30,,,20,35,6,17,0.5,0.7
2025-12-17T0400,3246A,103.6975,36.4789,兰州新区,舟曲中学,颗粒物(PM10),68,86,96,33,41,32,32,,,34,38,7,20,0.7,0.8
2025-12-17T0400,1067A,116.6708,39.5111,廊坊市,药材公司,细颗粒物(PM2.5),98,111,106,73,67,1,1,,,70,59,7,10,1.2,1.2
2025-12-17T0400,1068A,116.7214,39.5589,廊坊市,开发区,细颗粒物(PM2.5),115,124,101,87,66,1,1,,,71,60,7,8,1.2,1
2025-12-17T0400,1070A,116.7244,39.5269,廊坊市,北华航天学院,细颗粒物(PM2.5),99,114,104,74,61,2,2,,,66,55,8,10,1.0,1
2025-12-17T0400,2919A,116.7022,39.5453,廊坊市,河北工业大学,颗粒物(PM10),91,132,114,66,60,1,1,,,67,56,8,11,1.0,1
2025-12-17T0400,2535A,103.7723,29.5462,乐山市,花湖湾,,,,,,,,,,,,,,,,
2025-12-17T0400,2536A,103.7627,29.5844,乐山市,牛耳桥,细颗粒物(PM2.5),107,122,122,80,79,0,0,,,26,33,6,7,0.8,0.8
2025-12-17T0400,2537A,103.7508,29.6006,乐山市,市第三水厂,细颗粒物(PM2.5),114,122,122,86,84,1,1,,,33,40,6,7,1.0,1.1
2025-12-17T0400,2538A,103.7571,29.5664,乐山市,市监测站,细颗粒物(PM2.5),117,120,126,88,82,0,0,,,27,31,8,10,0.9,0.9
2025-12-17T0400,3361A,103.7311,29.5628,乐山市,理工大学,细颗粒物(PM2.5),119,123,129,90,85,0,0,,,28,32,5,6,0.9,0.9
2025-12-17T0400,2598A,100.2143,26.8576,丽江市,西南郊,,,,,,,,,,,,,,,,
2025-12-17T0400,2599A,100.2497,26.8802,丽江市,丽江古城,,25,23,26,17,11,52,52,,,13,14,8,8,0.5,0.5
2025-12-17T0400,2600A,100.2203,26.8906,丽江市,市中心,,18,18,26,8,11,48,48,,,11,16,6,7,0.3,0.5
2025-12-17T0400,1267A,119.914,28.4514,丽水市,监测站大楼,,46,46,52,29,30,0,0,,,36,39,5,8,0.4,0.5
2025-12-17T0400,1268A,119.93,28.4586,丽水市,莲都小学,,44,44,53,18,21,2,2,,,39,43,5,5,0.3,0.4
2025-12-17T0400,1269A,119.879,28.4231,丽水市,余庄前,,36,36,45,24,28,0,0,,,22,28,4,5,0.4,0.4
2025-12-17T0400,1173A,119.176,34.5885,连云港市,市环境监测站,细颗粒物(PM2.5),107,110,124,80,83,40,40,,,20,50,9,17,0.7,1
2025-12-17T0400,3000A,119.3581,34.6972,连云港市,德源药业,细颗粒物(PM2.5),94,110,133,70,78,48,48,,,22,55,8,10,1.5,0.9
2025-12-17T0400,3007A,119.178,34.844,连云港市,新城一中,细颗粒物(PM2.5),119,129,128,90,96,27,27,,,41,62,9,15,1.1,1.3
2025-12-17T0400,3008A,119.3608,34.7519,连云港市,胡沟管理处,细颗粒物(PM2.5),98,114,116,73,71,41,41,,,26,42,13,16,2.2,1.3
2025-12-17T0400,3009A,119.1478,34.5911,连云港市,矿山设计院,细颗粒物(PM2.5),110,132,135,83,79,41,41,,,17,43,7,15,0.9,1.1
2025-12-17T0400,3434A,119.2413,34.6539,连云港市,工贸学校,细颗粒物(PM2.5),120,126,123,91,83,44,44,,,23,43,10,16,0.9,1
2025-12-17T0400,3664A,119.4172,34.7341,连云港市,连云街道,细颗粒物(PM2.5),117,116,127,88,79,52,52,,,26,44,7,14,0.7,1.2
2025-12-17T0400,2571A,102.3431,27.8099,凉山彝族自治州,青龙寺,,,,,,,,,,,,,,,,
2025-12-17T0400,2572A,102.2721,27.8415,凉山彝族自治州,邛海宾馆,,31,31,53,17,32,58,58,,,15,20,7,11,0.4,0.9
2025-12-17T0400,2573A,102.2625,27.898,凉山彝族自治州,西昌市政府,,25,25,41,10,30,63,63,,,4,17,6,9,0.3,0.8
2025-12-17T0400,2574A,102.2685,27.8851,凉山彝族自治州,凉山州政府,,35,,50,24,33,55,55,,,6,20,7,11,0.5,0.9
2025-12-17T0400,4229A,102.2342,27.8859,凉山彝族自治州,凯乐南路30号,,23,23,60,10,37,52,52,,,17,41,7,10,0.5,1.1
2025-12-17T0400,2212A,123.2,41.1953,辽阳市,宏伟区,细颗粒物(PM2.5),69,65,88,50,65,18,18,,,27,30,8,10,0.6,0.9
2025-12-17T0400,2213A,123.1683,41.2495,辽阳市,新华园,细颗粒物(PM2.5),73,81,89,53,62,8,8,,,39,34,7,16,1.1,0.9
2025-12-17T0400,2214A,123.2354,41.2639,辽阳市,滨河路,细颗粒物(PM2.5),67,79,103,48,63,8,8,,,35,34,10,10,0.8,0.9
2025-12-17T0400,2215A,123.149,41.2991,辽阳市,铁西工业园,细颗粒物(PM2.5),67,66,82,48,58,0,0,,,38,34,8,11,0.8,0.9
2025-12-17T0400,2227A,125.1358,42.8845,辽源市,环保局,颗粒物(PM10),90,130,116,53,44,6,6,,,31,22,2,4,1.0,0.8
2025-12-17T0400,3239A,125.0764,42.9078,辽源市,银鹰制药,细颗粒物(PM2.5),80,78,56,59,39,9,9,,,27,20,2,4,0.8,0.5
2025-12-17T0400,1625A,115.9848,36.4372,聊城市,区政府,细颗粒物(PM2.5),175,190,179,132,123,8,8,,,58,56,26,14,1.6,1.2
2025-12-17T0400,2878A,116.0072,36.4343,聊城市,聊大东校,细颗粒物(PM2.5),152,185,192,116,125,9,9,,,58,56,12,12,1.6,1.4
2025-12-17T0400,3200A,115.9819,36.4978,聊城市,监控中心,细颗粒物(PM2.5),192,185,192,144,144,8,8,,,53,50,11,12,1.7,1.4
2025-12-17T0400,3513A,116.0445,36.4361,聊城市,九州社区,细颗粒物(PM2.5),148,173,184,113,120,12,12,,,48,46,4,7,1.4,1.2
2025-12-17T0400,4018A,116.0567,36.4608,聊城市,星美广场,细颗粒物(PM2.5),160,183,195,122,128,11,11,,,48,49,3,7,1.4,1.2
2025-12-17T0400,2632A,94.3681,29.6376,林芝市,林芝监测站,,22,13,21,3,10,69,69,,,1,14,4,5,0.4,0.5
2025-12-17T0400,2633A,94.3616,29.6616,林芝市,林芝人民医院,,,,,,,,,,,,,,,,
2025-12-17T0400,2603A,100.0781,23.8982,临沧市,市环保局,细颗粒物(PM2.5),52,,29,36,34,20,20,,,5,9,3,4,0.5,0.6
2025-12-17T0400,2604A,100.0894,23.8822,临沧市,市气象局,,35,27,30,24,19,18,18,,,10,11,5,6,0.4,0.4
2025-12-17T0400,1733A,111.5531,36.0783,临汾市,临钢医院,细颗粒物(PM2.5),118,161,229,89,124,8,8,,,35,48,8,13,1.7,2.8
2025-12-17T0400,1734A,111.5028,36.0714,临汾市,技工学校,细颗粒物(PM2.5),175,223,238,132,126,0,0,,,49,51,8,14,2.6,2.9
2025-12-17T0400,1736A,111.5018,36.0855,临汾市,市委,细颗粒物(PM2.5),162,239,254,123,133,1,1,,,50,59,8,17,2.8,3.2
2025-12-17T0400,3018A,111.505,36.1014,临汾市,唐尧大酒店,细颗粒物(PM2.5),138,178,224,105,126,0,0,,,43,56,3,12,2.6,3.2
2025-12-17T0400,4244A,111.4879,36.0530,临汾市,启星学校,细颗粒物(PM2.5),152,224,223,116,126,3,3,,,60,61,6,12,2.9,3.3
2025-12-17T0400,4271A,103.2464,35.6123,临夏回族自治州,滨河东路1号,细颗粒物(PM2.5),139,158,155,106,98,6,6,,,30,39,7,11,1.8,1.8
2025-12-17T0400,4310A,103.2093,35.5995,临夏回族自治州,新华街21号,细颗粒物(PM2.5),178,175,153,134,110,9,9,,,30,36,7,14,2.6,2
2025-12-17T0400,1618A,118.3429,35.0532,临沂市,沂河小区,细颗粒物(PM2.5),169,144,144,128,114,17,17,,,49,51,8,14,0.8,0.9
2025-12-17T0400,1619A,118.295,35.0583,临沂市,鲁南制药厂,细颗粒物(PM2.5),140,134,141,107,103,31,31,,,39,52,9,16,0.8,1.1
2025-12-17T0400,1620A,118.2794,34.9976,临沂市,新光毛纺厂,细颗粒物(PM2.5),138,129,146,105,107,30,30,,,35,55,8,17,1.0,1.4
2025-12-17T0400,1621A,118.3956,35.0888,临沂市,河东保险公司,细颗粒物(PM2.5),118,134,142,89,90,16,16,,,40,47,7,13,0.8,1
2025-12-17T0400,3370A,118.3564,35.0215,临沂市,十里堡居委,细颗粒物(PM2.5),110,124,138,83,83,29,29,,,37,53,8,15,0.8,1
2025-12-17T0400,3496A,118.3604,35.1084,临沂市,南坊新区,细颗粒物(PM2.5),132,132,134,100,92,20,20,,,45,49,9,14,1.2,1.3
2025-12-17T0400,3860A,118.3920,35.0300,临沂市,皇山花园小区,细颗粒物(PM2.5),115,127,147,87,90,27,27,,,38,55,9,18,0.9,1.2
2025-12-17T0400,1870A,109.4856,24.3895,柳州市,柳东小学,细颗粒物(PM2.5),112,107,73,84,50,46,46,,,11,12,21,15,0.7,0.7
2025-12-17T0400,1871A,109.4157,24.3277,柳州市,环保监测站,细颗粒物(PM2.5),110,106,101,83,58,27,27,,,31,38,18,19,1.0,1.2
2025-12-17T0400,1872A,109.389,24.341,柳州市,河西水厂,细颗粒物(PM2.5),103,142,119,77,55,15,15,,,44,39,8,21,0.6,0.9
2025-12-17T0400,1873A,109.4311,24.2921,柳州市,市四中,细颗粒物(PM2.5),94,108,88,70,48,29,29,,,29,37,15,17,1.1,1.2
2025-12-17T0400,1874A,109.4006,24.3631,柳州市,市九中,细颗粒物(PM2.5),103,136,112,77,59,24,24,,,34,36,22,23,0.8,0.9
2025-12-17T0400,1875A,109.4958,24.3134,柳州市,古亭山,细颗粒物(PM2.5),72,78,64,52,43,6,6,,,38,34,11,11,0.9,0.8
2025-12-17T0400,3402A,109.5422,24.3996,柳州市,市二中,细颗粒物(PM2.5),115,95,71,87,52,32,32,,,21,25,16,12,0.8,0.5
2025-12-17T0400,2307A,116.5079,31.737,六安市,监测大楼,细颗粒物(PM2.5),190,177,90,143,57,16,16,,,42,36,3,4,0.8,0.6
2025-12-17T0400,2308A,116.4738,31.7643,六安市,皖西学院,细颗粒物(PM2.5),193,187,99,145,61,18,18,,,40,40,2,3,0.8,0.5
2025-12-17T0400,2309A,116.4996,31.7905,六安市,朝阳厂,细颗粒物(PM2.5),172,164,88,130,58,15,15,,,39,39,4,4,0.9,0.7
2025-12-17T0400,2310A,116.5567,31.7886,六安市,开发区,细颗粒物(PM2.5),172,186,117,130,63,13,13,,,41,48,1,3,0.7,0.5
2025-12-17T0400,2576A,104.8,26.5892,六盘水市,窑上,,27,27,57,11,41,28,28,,,8,11,2,2,0.2,0.2
2025-12-17T0400,2577A,104.83,26.5917,六盘水市,黄土坡,,19,,46,13,35,34,34,,,10,16,6,5,0.6,0.7
2025-12-17T0400,2578A,104.89,26.5939,六盘水市,水钢,,27,27,43,15,34,30,30,,,10,13,6,3,0.7,0.6
2025-12-17T0400,2579A,104.8475,26.5894,六盘水市,民中,,17,17,41,7,34,29,29,,,10,15,3,3,0.3,0.4
2025-12-17T0400,2580A,104.9544,26.5506,六盘水市,双水,,19,19,38,13,32,32,32,,,10,12,5,3,0.5,0.5
2025-12-17T0400,2335A,117.0189,25.1181,龙岩市,龙岩师专,,,,,,,,,,,,,,,,
2025-12-17T0400,2336A,117.0217,25.1033,龙岩市,龙岩市监测站,,46,40,45,32,28,11,11,,,39,38,12,18,0.7,0.7
2025-12-17T0400,2337A,117.0258,25.0661,龙岩市,闽西职业技术学院,,50,50,46,26,25,9,9,,,35,32,17,14,0.5,0.6
2025-12-17T0400,2338A,117.0196,25.0306,龙岩市,龙岩学院,,39,35,35,27,24,12,12,,,28,20,7,7,0.6,0.5
2025-12-17T0400,2665A,105.0822,33.3261,陇南市,汉王镇固水子,,,,,,,,,,,,,,,,
2025-12-17T0400,2885A,104.9339,33.3826,陇南市,滨江中学,细颗粒物(PM2.5),67,71,118,48,67,0,0,,,50,53,14,23,2.3,3.1
2025-12-17T0400,3247A,104.955,33.371,陇南市,市总工会,颗粒物(PM10),64,77,127,31,59,1,1,,,49,46,6,10,1.4,1.8
2025-12-17T0400,2487A,111.9589,27.8901,娄底市,电视发射台,,,,,,,,,,,,,,,,
2025-12-17T0400,2488A,111.9975,27.725,娄底市,市监测站,细颗粒物(PM2.5),105,119,107,79,70,4,4,,,56,50,8,18,1.9,1.4
2025-12-17T0400,2489A,112.0194,27.7314,娄底市,市委党校,细颗粒物(PM2.5),103,108,108,77,66,2,2,,,51,46,9,15,1.3,1.4
2025-12-17T0400,2490A,111.9561,27.7569,娄底市,涟钢,细颗粒物(PM2.5),109,109,131,82,85,17,17,,,25,46,7,18,0.8,1.3
2025-12-17T0400,2491A,111.9892,27.7044,娄底市,市政府,细颗粒物(PM2.5),117,114,114,88,75,4,4,,,22,37,7,20,1.5,1.7
2025-12-17T0400,1893A,105.4324,28.9634,泸州市,九狮山,,,,,,,,,,,,,,,,
2025-12-17T0400,1894A,105.4427,28.9063,泸州市,小市上码头,细颗粒物(PM2.5),88,100,120,65,76,14,14,,,24,29,31,12,1.0,1.1
2025-12-17T0400,1895A,105.4241,28.8573,泸州市,兰田宪桥,细颗粒物(PM2.5),88,91,108,65,72,14,14,,,18,27,7,8,0.7,0.8
2025-12-17T0400,1896A,105.4379,28.8833,泸州市,市环监站,细颗粒物(PM2.5),90,99,115,67,75,9,9,,,23,29,10,11,0.7,0.8
2025-12-17T0400,4272A,105.3689,28.7783,泸州市,纳溪中医医院,细颗粒物(PM2.5),92,76,95,68,72,7,7,,,16,25,8,8,0.7,0.8
2025-12-17T0400,2183A,111.1406,37.5211,吕梁市,环保局,颗粒物(PM10),81,111,87,55,39,3,3,,,51,50,5,8,0.9,0.7
2025-12-17T0400,2185A,111.1297,37.5136,吕梁市,自来水公司,细颗粒物(PM2.5),89,118,94,66,47,2,2,,,49,42,14,12,0.9,0.8
2025-12-17T0400,2867A,111.1283,37.51,吕梁市,马茂庄小学,颗粒物(PM10),82,114,98,44,41,0,0,,,50,47,6,10,0.7,0.7
2025-12-17T0400,1812A,112.3931,34.6516,洛阳市,市委党校,细颗粒物(PM2.5),205,178,142,155,104,6,6,,,55,54,9,12,1.3,1.2
2025-12-17T0400,1815A,112.494,34.6886,洛阳市,河南林校,细颗粒物(PM2.5),206,173,146,156,117,1,1,,,52,53,6,10,1.3,1.1
2025-12-17T0400,1816A,112.3844,34.623,洛阳市,开发区管委会,细颗粒物(PM2.5),213,216,158,163,109,6,6,,,41,44,7,19,1.2,1
2025-12-17T0400,1817A,112.4267,34.6258,洛阳市,市委新办公区,细颗粒物(PM2.5),206,221,162,156,102,2,2,,,52,48,9,11,1.3,1.1
2025-12-17T0400,3340A,112.6005,34.6326,洛阳市,伊滨,细颗粒物(PM2.5),189,213,163,142,109,1,1,,,42,46,6,9,1.4,1.1
2025-12-17T0400,3341A,112.4951,34.6332,洛阳市,中移产业园,细颗粒物(PM2.5),199,185,148,149,110,2,2,,,64,54,8,13,1.4,1.2
2025-12-17T0400,3593A,112.5736,34.8993,洛阳市,吉利监测站,细颗粒物(PM2.5),223,194,146,173,122,6,6,,,50,46,6,10,1.5,1.2
2025-12-17T0400,3635A,112.3677,34.662,洛阳市,河科大西苑校区,细颗粒物(PM2.5),176,180,142,133,94,5,5,,,50,51,8,12,,1.1
2025-12-17T0400,3636A,112.4388,34.6781,洛阳市,英才小学,细颗粒物(PM2.5),192,182,145,144,107,0,0,,,59,54,10,13,1.5,1.4
2025-12-17T0400,4214A,112.4600,34.6949,洛阳市,春都路1号院,细颗粒物(PM2.5),160,192,162,122,90,4,4,,,49,52,7,10,1.4,1.3
2025-12-17T0400,2399A,114.051,33.5699,漯河市,三五一五工厂,细颗粒物(PM2.5),239,245,186,189,136,31,31,,,30,32,7,8,1.1,1
2025-12-17T0400,2400A,114.0055,33.5698,漯河市,漯河大学,细颗粒物(PM2.5),223,214,171,173,127,35,35,,,35,36,6,7,0.8,0.7
2025-12-17T0400,2401A,114.0138,33.5828,漯河市,市水利局,细颗粒物(PM2.5),225,224,176,175,127,34,34,,,35,35,7,8,1.0,0.9
2025-12-17T0400,2402A,114.0261,33.5698,漯河市,市广电局,细颗粒物(PM2.5),228,232,178,178,130,39,39,,,27,32,6,7,1.0,0.9
2025-12-17T0400,3478A,113.9749,33.5664,漯河市,市图书馆,细颗粒物(PM2.5),232,253,192,182,132,30,30,,,33,35,5,5,0.9,0.8
2025-12-17T0400,4250A,114.0892,33.5882,漯河市,韶山路11号,细颗粒物(PM2.5),230,241,186,180,130,25,25,,,34,40,9,9,0.9,0.8
2025-12-17T0400,1798A,118.5092,31.6837,马鞍山市,湖东路四小,细颗粒物(PM2.5),97,126,105,72,55,11,11,,,63,64,24,14,1.1,1.2
2025-12-17T0400,1799A,118.5024,31.6449,马鞍山市,开发区,细颗粒物(PM2.5),99,117,108,74,58,1,1,,,70,64,8,8,1.1,1
2025-12-17T0400,1802A,118.6245,31.7241,马鞍山市,濮塘,,,,,,,,,,,,,,,,
2025-12-17T0400,3633A,118.4918,31.6809,马鞍山市,雨山,细颗粒物(PM2.5),99,118,99,74,54,4,4,,,77,64,38,18,1.4,1.1
2025-12-17T0400,4191A,118.5274,31.72227,马鞍山市,慈湖高新区,细颗粒物(PM2.5),117,141,111,88,62,10,10,,,68,65,6,14,0.9,1.1
2025-12-17T0400,1686A,111.0286,21.4688,茂名市,电白南海,颗粒物(PM10),57,63,64,36,37,38,38,,,30,26,19,16,0.8,0.7
2025-12-17T0400,1687A,110.9294,21.6533,茂名市,茂石化七小,,39,39,53,24,25,46,46,,,18,25,9,15,0.5,0.6
2025-12-17T0400,1688A,110.9107,21.6687,茂名市,健康路,,42,34,48,29,27,43,43,,,23,26,18,19,0.8,0.8
2025-12-17T0400,1689A,110.8592,21.6828,茂名市,高岭,,44,44,83,22,34,41,41,,,19,34,15,19,0.8,0.9
2025-12-17T0400,3450A,111.01,21.5165,茂名市,电白水东,细颗粒物(PM2.5),64,75,56,46,30,19,19,,,43,23,36,16,1.0,0.9
2025-12-17T0400,2539A,104.0308,30.0478,眉山市,黑龙滩水库,,,,,,,,,,,,,,,,
2025-12-17T0400,2540A,103.8416,30.0874,眉山市,气象局,细颗粒物(PM2.5),119,144,130,90,91,2,2,,,28,35,9,12,0.7,0.7
2025-12-17T0400,3137A,103.8578,30.0744,眉山市,市委党校,细颗粒物(PM2.5),100,110,123,75,79,1,1,,,35,39,6,8,0.7,0.7
2025-12-17T0400,3148A,103.8291,30.0564,眉山市,区人社局,细颗粒物(PM2.5),147,144,130,112,90,0,0,,,34,40,6,8,1.4,1.3
2025-12-17T0400,1690A,116.1231,24.3284,梅州市,梅江月梅,颗粒物(PM10),52,54,45,25,25,1,1,,,38,31,6,6,0.6,0.6
2025-12-17T0400,1691A,116.0797,24.2719,梅州市,梅县新城,,40,31,36,28,30,9,9,,,32,31,7,8,0.7,0.8
2025-12-17T0400,1692A,116.1248,24.2654,梅州市,环境监控中心,,50,50,47,30,30,3,3,,,46,37,13,14,0.5,0.5
2025-12-17T0400,3315A,116.1233,24.2991,梅州市,梅龙,颗粒物(PM10),56,61,48,35,27,1,1,,,44,32,8,9,0.9,0.9
2025-12-17T0400,1878A,104.7778,31.4741,绵阳市,富乐山,细颗粒物(PM2.5),107,116,103,80,64,27,27,,,21,29,10,11,0.9,0.8
2025-12-17T0400,1880A,104.6697,31.4668,绵阳市,高新区自来水公司,,,,135,,78,,,38,,,51,,8,,0.8
2025-12-17T0400,1881A,104.7287,31.5075,绵阳市,三水厂,细颗粒物(PM2.5),158,172,143,120,91,1,1,,,39,49,7,8,0.9,0.9
2025-12-17T0400,3491A,104.69,31.5322,绵阳市,西科大附属小学,细颗粒物(PM2.5),132,178,148,100,86,2,2,,,47,48,8,9,1.3,1
2025-12-17T0400,3492A,104.5648,31.5343,绵阳市,安州区旅游局,细颗粒物(PM2.5),147,151,133,112,96,6,6,,,28,38,14,15,0.9,0.9
2025-12-17T0400,4226A,104.7651,31.4531,绵阳市,绵阳市气象局,细颗粒物(PM2.5),127,138,119,96,68,2,2,,,43,43,6,7,1.0,0.8
2025-12-17T0400,1784A,129.61,44.561,牡丹江市,环保大楼,,16,16,30,11,20,40,40,,,12,13,8,8,0.2,0.3
2025-12-17T0400,1785A,129.6115,44.5782,牡丹江市,文化广场,,29,22,34,20,24,41,41,,,10,11,7,6,0.4,0.3
2025-12-17T0400,1786A,129.5904,44.5963,牡丹江市,第一医院,,,,,,,,,,,,,,,,
2025-12-17T0400,1787A,129.6364,44.6075,牡丹江市,机车工厂,,26,26,38,18,21,38,38,,,13,16,3,18,0.2,0.2
2025-12-17T0400,1788A,129.6386,44.5462,牡丹江市,第一中学,,26,18,28,18,21,45,45,,,8,10,6,5,0.4,0.4
2025-12-17T0400,2531A,105.0703,29.61,内江市,市监测站,细颗粒物(PM2.5),138,144,106,105,85,28,28,,,24,25,5,5,1.0,0.8
2025-12-17T0400,2532A,105.0717,29.5947,内江市,东兴区政府,细颗粒物(PM2.5),143,118,111,109,83,18,18,,,28,33,5,5,0.8,0.7
2025-12-17T0400,2533A,105.0653,29.5817,内江市,内江二中,细颗粒物(PM2.5),160,124,134,122,94,17,17,,,30,36,5,5,1.1,0.9
2025-12-17T0400,2534A,105.0406,29.5822,内江市,内江日报社,细颗粒物(PM2.5),142,126,115,108,86,22,22,,,29,38,3,3,1.2,0.7
2025-12-17T0400,2628A,92.0657,31.4846,那曲市,那曲监测站,,30,30,59,14,35,16,16,,,35,29,8,12,2.3,1.5
2025-12-17T0400,4243A,92.0515,31.4787,那曲市,那曲市委宣传部,,15,15,15,8,7,27,27,,,16,12,4,3,1.0,0.7
2025-12-17T0400,1290A,115.8931,28.6843,南昌市,省外办,细颗粒物(PM2.5),73,78,76,53,54,47,47,,,37,49,17,11,1.3,1.5
2025-12-17T0400,1291A,115.8886,28.7003,南昌市,省林业公司,颗粒物(PM10),68,85,71,48,46,23,23,,,64,57,12,7,1.0,0.9
2025-12-17T0400,1292A,115.8126,28.7442,南昌市,林科所,颗粒物(PM10),64,78,61,39,32,55,55,,,28,49,14,8,0.7,0.6
2025-12-17T0400,1294A,115.8518,28.687,南昌市,建工学校,细颗粒物(PM2.5),69,83,79,50,45,41,41,,,40,57,20,14,0.9,0.9
2025-12-17T0400,1295A,115.8921,28.6424,南昌市,象湖,细颗粒物(PM2.5),67,68,69,48,46,45,45,,,38,53,18,12,0.8,0.8
2025-12-17T0400,1296A,115.7423,28.7996,南昌市,武术学校,,,,,,,,,,,,,,,,
2025-12-17T0400,3046A,115.9084,28.6062,南昌市,机电学校,"颗粒物(PM10),细颗粒物(PM2.5)",70,89,84,51,48,46,46,,,34,50,12,7,0.7,0.6
2025-12-17T0400,3690A,115.9721,28.7031,南昌市,外国语学校,细颗粒物(PM2.5),73,94,74,53,51,58,58,,,33,39,18,15,0.7,0.7
2025-12-17T0400,4192A,115.9316,28.68677,南昌市,南京东路235号,细颗粒物(PM2.5),69,75,83,50,50,46,46,,,39,45,13,10,0.8,0.9
2025-12-17T0400,1905A,106.056,30.8064,南充市,西山风景区,,,,,,,,,,,,,,,,
2025-12-17T0400,1906A,106.0789,30.8023,南充市,南充市委,细颗粒物(PM2.5),92,94,102,68,69,0,0,,,24,33,4,5,0.7,0.7
2025-12-17T0400,1907A,106.1031,30.8217,南充市,南充炼油厂,细颗粒物(PM2.5),113,105,115,85,78,2,2,,,24,29,5,6,0.9,0.9
2025-12-17T0400,4227A,106.1083,30.7884,南充市,梨树横街98号,细颗粒物(PM2.5),103,109,113,77,67,3,3,,,30,28,5,6,0.6,0.7
2025-12-17T0400,4304A,106.1172,30.843,南充市,清泉寺北路188号,细颗粒物(PM2.5),99,,94,74,67,2,2,,,24,28,6,6,0.7,0.7
2025-12-17T0400,4305A,106.067,30.7616,南充市,同庆路1号,细颗粒物(PM2.5),98,98,104,73,65,0,0,,,30,33,6,7,0.6,0.7
2025-12-17T0400,1151A,118.8086,32.1065,南京市,迈皋桥,"颗粒物(PM10),细颗粒物(PM2.5)",67,84,80,48,43,45,45,,,34,46,3,5,0.6,0.7
2025-12-17T0400,1152A,118.7538,32.0551,南京市,草场门,细颗粒物(PM2.5),77,100,97,56,45,30,30,,,53,72,9,7,1.0,1
2025-12-17T0400,1153A,118.7794,32.0745,南京市,山西路,颗粒物(PM10),81,112,106,56,46,18,18,,,82,78,4,4,0.8,0.9
2025-12-17T0400,1154A,118.7752,32.0023,南京市,中华门,颗粒物(PM10),71,92,84,51,44,10,10,,,59,59,4,4,1.1,0.9
2025-12-17T0400,1155A,118.8109,32.0309,南京市,瑞金路,细颗粒物(PM2.5),73,85,96,53,53,12,12,,,71,79,4,4,0.6,0.9
2025-12-17T0400,1156A,118.7997,32.0754,南京市,玄武湖,"颗粒物(PM10),细颗粒物(PM2.5)",68,86,90,49,42,37,37,,,46,49,4,4,0.6,0.9
2025-12-17T0400,1157A,118.6414,32.0931,南京市,浦口,细颗粒物(PM2.5),80,107,89,59,41,41,41,,,37,37,9,11,0.8,0.8
2025-12-17T0400,1158A,118.7356,31.9996,南京市,奥体中心,细颗粒物(PM2.5),70,83,86,51,45,47,47,,,47,72,8,8,0.6,0.8
2025-12-17T0400,1159A,118.9125,32.1028,南京市,仙林大学城,细颗粒物(PM2.5),85,107,98,63,45,1,1,,,86,71,8,11,0.8,1
2025-12-17T0400,3422A,118.8436,31.9198,南京市,江宁彩虹桥,细颗粒物(PM2.5),73,94,91,53,46,2,2,,,96,73,4,6,1.2,1.1
2025-12-17T0400,3427A,118.8554,32.3578,南京市,六合雄州,颗粒物(PM10),84,118,93,58,48,13,13,,,60,52,8,9,0.5,0.5
2025-12-17T0400,4249A,118.8708,31.3402,南京市,汶溪路181号,细颗粒物(PM2.5),93,96,80,69,63,10,10,,,76,58,8,9,0.8,0.8
2025-12-17T0400,4312A,119.019,31.6512,南京市,中山西路1号,细颗粒物(PM2.5),78,70,71,57,55,1,1,,,78,56,4,5,1.0,1
2025-12-17T0400,1401A,108.3103,22.7881,南宁市,二十一中,细颗粒物(PM2.5),68,62,66,49,49,12,12,,,36,34,7,7,1.0,0.8
2025-12-17T0400,1402A,108.3141,22.8528,南宁市,北湖,颗粒物(PM10),66,82,74,46,49,0,0,,,49,49,11,13,0.8,0.8
2025-12-17T0400,1403A,108.3206,22.8225,南宁市,市监测站,细颗粒物(PM2.5),68,61,70,49,43,10,10,,,44,40,8,10,1.0,0.9
2025-12-17T0400,1404A,108.3829,22.8037,南宁市,大自然花园,细颗粒物(PM2.5),64,58,69,46,45,32,32,,,27,34,8,8,0.8,0.8
2025-12-17T0400,1405A,108.4394,22.7904,南宁市,仙葫,,,,,,,,,,,,,,,,
2025-12-17T0400,1406A,108.2397,22.8467,南宁市,区农职院,细颗粒物(PM2.5),62,55,70,44,43,4,4,,,29,43,7,11,0.8,0.8
2025-12-17T0400,1407A,108.3275,22.735,南宁市,英华嘉园,细颗粒物(PM2.5),60,60,67,43,49,16,16,,,37,34,5,5,0.7,0.7
2025-12-17T0400,3401A,108.4834,22.7618,南宁市,红星社区,颗粒物(PM10),52,54,63,35,40,42,42,,,15,27,6,8,0.8,0.8
2025-12-17T0400,4221A,108.2177,22.7774,南宁市,乐贤路16号,细颗粒物(PM2.5),79,85,89,58,48,0,0,,,45,53,15,7,0.6,0.7
2025-12-17T0400,2331A,118.0966,26.6761,南平市,茫荡山,,,,16,,,,,86,,,,,1,,0.3
2025-12-17T0400,2332A,118.1681,26.6369,南平市,南平市监测站,,28,27,37,19,27,3,3,,,31,25,3,5,0.5,0.7
2025-12-17T0400,2333A,118.1825,26.6489,南平市,南平铝业有限公司,,32,28,37,22,28,2,2,,,34,29,7,8,0.6,0.7
2025-12-17T0400,2334A,118.1756,26.6272,南平市,南平七中,,32,22,33,22,24,6,6,,,26,20,4,6,0.6,0.6
2025-12-17T0400,1168A,120.9098,31.9663,南通市,狼山街道,细颗粒物(PM2.5),128,130,88,97,56,41,41,,,43,61,5,11,0.9,1.2
2025-12-17T0400,1169A,120.86,32.0005,南通市,虹桥,细颗粒物(PM2.5),125,110,89,95,62,43,43,,,41,72,5,13,0.9,1.2
2025-12-17T0400,1170A,120.87,32.02,南通市,城中,细颗粒物(PM2.5),124,124,107,94,63,40,40,,,46,78,6,14,1.1,1.4
2025-12-17T0400,1171A,120.94,31.93,南通市,星湖花园,细颗粒物(PM2.5),122,111,90,92,60,38,38,,,50,68,6,12,0.9,1.4
2025-12-17T0400,1172A,120.81,32.0417,南通市,紫琅学院,细颗粒物(PM2.5),147,156,110,112,64,21,21,,,55,73,11,10,0.9,1
2025-12-17T0400,3291A,121.067,32.062,南通市,通州监测站,细颗粒物(PM2.5),147,124,90,112,68,65,65,,,31,53,4,7,1.0,0.9
2025-12-17T0400,3432A,120.9348,31.9883,南通市,环境教育馆,细颗粒物(PM2.5),137,124,90,104,62,49,49,,,43,68,7,12,0.7,1
2025-12-17T0400,2404A,112.5224,33.0122,南阳市,瓦房庄,细颗粒物(PM2.5),158,141,128,120,98,54,54,,,20,26,11,8,1.0,0.9
2025-12-17T0400,2405A,112.5003,32.9735,南阳市,汉画馆,细颗粒物(PM2.5),133,142,129,101,89,54,54,,,20,29,8,7,1.2,1.1
2025-12-17T0400,2406A,112.5573,33.027,南阳市,气象站,细颗粒物(PM2.5),144,165,145,110,90,56,56,,,22,26,11,8,1.1,0.9
2025-12-17T0400,2407A,112.5481,32.9689,南阳市,理工学院,细颗粒物(PM2.5),125,140,116,95,75,53,53,,,25,27,9,7,0.9,0.8
2025-12-17T0400,4008A,112.5234,32.9922,南阳市,卧龙区政府,细颗粒物(PM2.5),143,154,139,109,92,55,55,,,24,32,10,8,0.9,0.9
2025-12-17T0400,1234A,121.8358,29.911,宁波市,区环保大楼,颗粒物(PM10),75,100,77,53,35,0,0,,,74,78,8,8,1.0,0.8
2025-12-17T0400,1235A,121.56,29.82,宁波市,万里学院,细颗粒物(PM2.5),74,88,73,54,39,1,1,,,59,66,7,7,0.8,0.7
2025-12-17T0400,1236A,121.713,29.9572,宁波市,龙赛医院,颗粒物(PM10),84,118,88,57,42,0,0,,,68,71,5,4,0.6,0.5
2025-12-17T0400,1239A,121.633,29.7733,宁波市,钱湖水厂,颗粒物(PM10),62,73,66,43,33,7,7,,,49,53,5,6,0.5,0.5
2025-12-17T0400,1240A,121.5856,29.8635,宁波市,太古小学,细颗粒物(PM2.5),87,105,75,64,43,1,1,,,58,56,5,4,1.2,1
2025-12-17T0400,1241A,121.524,29.8674,宁波市,市环境监测中心,细颗粒物(PM2.5),67,78,69,48,41,3,3,,,46,51,6,6,0.8,0.9
2025-12-17T0400,2871A,121.6147,29.9017,宁波市,万里国际学校,细颗粒物(PM2.5),90,111,75,67,44,2,2,,,69,70,4,5,1.2,0.9
2025-12-17T0400,3710A,121.5594,29.8975,宁波市,白沙活动中心,细颗粒物(PM2.5),74,87,65,54,38,1,1,,,68,64,5,5,0.8,0.8
2025-12-17T0400,2339A,119.5001,26.6946,宁德市,金涵水库,,,,27,,15,,,44,,,12,,1,,0.4
2025-12-17T0400,2341A,119.5388,26.6612,宁德市,宁德市监测站,,22,20,30,15,17,33,33,,,12,20,5,6,0.5,0.6
2025-12-17T0400,3209A,119.5231,26.6562,宁德市,宁德一中,,22,21,28,15,22,24,24,,,13,16,5,5,0.5,0.5
2025-12-17T0400,2618A,98.8601,25.8567,怒江傈僳族自治州,州监测站,,25,21,24,17,17,37,37,,,9,10,8,8,0.4,0.4
2025-12-17T0400,2619A,98.8546,25.8417,怒江傈僳族自治州,泸水一中,,19,13,25,13,18,17,17,,,12,17,5,5,0.4,0.5
2025-12-17T0400,1888A,101.6891,26.571,攀枝花市,弄弄坪,,40,40,60,27,35,29,29,,,20,28,7,7,0.9,1.4
2025-12-17T0400,1889A,101.5769,26.5928,攀枝花市,河门口,,47,47,58,28,35,14,14,,,28,26,15,20,1.3,1.4
2025-12-17T0400,1890A,101.7169,26.585,攀枝花市,炳草岗,细颗粒物(PM2.5),68,69,85,49,48,2,2,,,45,47,7,14,1.1,1.4
2025-12-17T0400,1891A,101.7369,26.5008,攀枝花市,仁和,,38,38,50,26,33,19,19,,,16,23,7,13,1.5,1.3
2025-12-17T0400,2835A,101.7227,26.567,攀枝花市,四十中小,细颗粒物(PM2.5),68,74,78,49,52,2,2,,,50,47,10,17,1.1,1.7
2025-12-17T0400,1604A,122.0303,41.1489,盘锦市,开发区,,32,28,46,22,37,42,42,,,10,12,3,5,0.4,0.6
2025-12-17T0400,1605A,122.0485,41.0883,盘锦市,兴隆台,,34,34,41,23,32,41,41,,,17,19,7,7,0.5,0.6
2025-12-17T0400,1606A,121.8297,41.1028,盘锦市,新生街道,,31,31,40,21,29,3,3,,,46,27,11,11,0.4,0.4
2025-12-17T0400,1832A,113.3257,33.742,平顶山市,新华旅馆,细颗粒物(PM2.5),108,125,150,81,95,56,56,,,27,39,11,11,0.8,0.9
2025-12-17T0400,1833A,113.2919,33.737,平顶山市,规划设计院,细颗粒物(PM2.5),107,139,159,80,96,64,64,,,24,38,10,9,0.6,0.8
2025-12-17T0400,1834A,113.182,33.774,平顶山市,平顶山工学院,细颗粒物(PM2.5),138,151,139,105,90,40,40,,,31,31,9,10,0.8,0.7
2025-12-17T0400,3204A,113.3025,33.73,平顶山市,规划局,细颗粒物(PM2.5),105,122,150,79,93,64,64,,,23,37,10,10,0.7,0.8
2025-12-17T0400,3594A,112.8867,33.9116,平顶山市,石龙区,细颗粒物(PM2.5),147,174,146,112,90,21,21,,,51,46,9,11,1.0,0.9
2025-12-17T0400,2656A,106.6692,35.5461,平凉市,聚贤嘉苑,,30,30,48,20,24,39,39,,,19,28,3,5,0.5,0.6
2025-12-17T0400,2657A,106.7021,35.5307,平凉市,博物馆,,37,37,48,20,24,39,39,,,20,24,9,5,0.5,0.6
2025-12-17T0400,2347A,114.0997,27.5002,萍乡市,武功山,,,,,,,,,,,,,,,,
2025-12-17T0400,2348A,113.8385,27.6434,萍乡市,中医院,细颗粒物(PM2.5),83,78,92,61,53,1,1,,,41,45,7,15,2.0,2.1
2025-12-17T0400,2349A,113.8493,27.6253,萍乡市,市政府车库,细颗粒物(PM2.5),95,72,85,71,66,2,2,,,36,43,8,15,1.9,3.2
2025-12-17T0400,2350A,113.8676,27.6435,萍乡市,市环保局,细颗粒物(PM2.5),97,103,82,72,51,1,1,,,34,39,13,21,1.5,1.5
2025-12-17T0400,2351A,113.866,27.6198,萍乡市,安源区政府,细颗粒物(PM2.5),105,84,81,79,64,0,0,,,32,40,10,17,1.7,2.4
2025-12-17T0400,2319A,119.0141,25.4325,莆田市,荔城区仓后路,,41,41,46,26,24,22,22,,,20,22,3,4,0.6,0.6
2025-12-17T0400,2320A,119.0015,25.4553,莆田市,莆田市监测站,,19,19,30,12,16,30,30,,,7,10,3,4,0.4,0.5
2025-12-17T0400,2321A,119.1119,25.4561,莆田市,涵江区六中,,42,40,41,29,22,2,2,,,46,24,3,4,0.6,0.6
2025-12-17T0400,2322A,119.1013,25.3215,莆田市,秀屿区政府,细颗粒物(PM2.5),52,40,39,36,23,21,21,,,30,18,5,5,0.7,0.6
2025-12-17T0400,2323A,118.981,25.4792,莆田市,东圳水库,,,,28,,20,,,83,,,12,,4,,0.9
2025-12-17T0400,2392A,115.0312,35.7636,濮阳市,环保局,细颗粒物(PM2.5),168,159,154,127,122,14,14,,,49,40,9,8,2.2,1.6
2025-12-17T0400,2394A,115.0574,35.7609,濮阳市,油田运输公司,细颗粒物(PM2.5),173,179,182,131,126,11,11,,,60,47,10,8,1.7,1.4
2025-12-17T0400,3021A,115,35.7668,濮阳市,濮水河管理处,细颗粒物(PM2.5),206,177,195,156,158,6,6,,,40,35,9,9,1.2,1.1
2025-12-17T0400,4216A,115.0924,35.7686,濮阳市,任丘路479号,细颗粒物(PM2.5),180,177,193,136,136,5,5,,,60,49,6,6,1.4,1.3
2025-12-17T0400,2601A,100.98,22.7633,普洱市,市环保局,,28,28,34,15,13,24,24,,,5,8,4,4,0.4,0.4
2025-12-17T0400,2602A,100.9817,22.8322,普洱市,普洱第二中学,,40,,33,28,16,1,1,,,21,14,5,5,0.3,0.3
2025-12-17T0400,2262A,131.0518,45.8751,七台河市,新一中,,,,,,,,,,,,,,,,
2025-12-17T0400,3345A,131.0577,45.7879,七台河市,中波台,,30,28,38,21,20,40,40,,,13,12,12,8,0.6,0.5
2025-12-17T0400,3637A,131.0176,45.7761,七台河市,人民广场,细颗粒物(PM2.5),55,,40,39,30,30,30,,,30,17,14,9,0.6,0.5
2025-12-17T0400,3684A,130.8781,45.8222,七台河市,新建矿广场,,29,22,50,20,29,41,41,,,7,10,8,11,0.3,0.3
2025-12-17T0400,1779A,123.9305,47.3636,齐齐哈尔市,安居小区,颗粒物(PM10),52,53,41,31,23,20,20,,,23,20,6,6,0.8,0.8
2025-12-17T0400,1780A,123.9488,47.3386,齐齐哈尔市,中心广场,,44,44,35,29,19,15,15,,,29,22,7,7,0.9,0.7
2025-12-17T0400,1781A,123.9483,47.3227,齐齐哈尔市,农牧车辆厂,颗粒物(PM10),51,51,46,18,20,12,12,,,25,20,5,7,0.8,0.7
2025-12-17T0400,1783A,123.945,47.2988,齐齐哈尔市,市环境监测站,颗粒物(PM10),53,55,57,28,29,16,16,,,30,24,6,8,0.5,0.6
2025-12-17T0400,3662A,123.6333,47.2075,齐齐哈尔市,富区青少年活动中心,颗粒物(PM10),57,64,56,39,26,12,12,,,32,22,7,9,0.7,1
2025-12-17T0400,2591A,107.9783,26.5747,黔东南苗族侗族自治州,市环境监测站,细颗粒物(PM2.5),88,92,73,65,48,23,23,,,16,22,6,7,0.7,0.7
2025-12-17T0400,2881A,107.8908,26.5311,黔东南苗族侗族自治州,凯里学院,细颗粒物(PM2.5),77,88,68,56,40,19,19,,,20,18,5,5,0.8,0.8
2025-12-17T0400,2593A,107.5228,26.2403,黔南布依族苗族自治州,小围寨,细颗粒物(PM2.5),79,68,58,58,44,14,14,,,17,12,9,7,0.8,0.7
2025-12-17T0400,3538A,107.5175,26.2978,黔南布依族苗族自治州,沙坝,细颗粒物(PM2.5),73,61,60,53,44,17,17,,,16,16,6,6,0.9,0.8
2025-12-17T0400,2589A,104.9022,25.0925,黔西南布依族苗族自治州,场坝街,,39,32,41,27,22,40,40,,,9,9,2,2,0.6,0.6
2025-12-17T0400,2590A,104.8811,25.0992,黔西南布依族苗族自治州,坪东大道,,36,36,38,24,24,44,44,,,8,8,6,5,0.7,0.7
2025-12-17T0400,2502A,108.6236,21.9667,钦州市,市环保站,颗粒物(PM10),73,95,73,48,39,21,21,,,36,26,4,3,3.3,1.1
2025-12-17T0400,2503A,108.6549,21.9481,钦州市,沙埠小学,细颗粒物(PM2.5),69,66,73,50,57,47,47,,,18,27,6,6,0.7,1
2025-12-17T0400,2504A,108.5989,21.7431,钦州市,港区一小,细颗粒物(PM2.5),64,76,60,46,39,29,29,,,43,33,8,6,0.8,0.8
2025-12-17T0400,3404A,108.5959,21.9633,钦州市,北职校,细颗粒物(PM2.5),68,55,61,49,46,26,26,,,20,21,6,6,0.8,0.9
2025-12-17T0400,1043A,119.7493,40.0116,秦皇岛市,第一关,,39,36,49,27,34,5,5,,,64,41,9,8,0.4,0.3
2025-12-17T0400,1044A,119.5897,39.9499,秦皇岛市,监测站,,43,43,60,23,32,3,3,,,64,40,12,10,0.7,0.7
2025-12-17T0400,1046A,119.5251,39.9041,秦皇岛市,建设大厦,"颗粒物(PM10),细颗粒物(PM2.5)",58,65,59,41,39,5,5,,,53,33,8,7,1.1,0.6
2025-12-17T0400,3132A,119.610547,39.943889,秦皇岛市,文明里,,39,39,59,12,25,14,14,,,42,29,12,11,0.4,0.4
2025-12-17T0400,4198A,119.5090,39.8253,秦皇岛市,北戴河轮滑馆,颗粒物(PM10),60,70,55,37,31,6,6,,,58,23,5,7,0.9,0.4
2025-12-17T0400,1307A,120.6659,36.2403,青岛市,仰口,,,,,,,,,,,,,,,,
2025-12-17T0400,1310A,120.4134,36.0658,青岛市,市南区东部子站,细颗粒物(PM2.5),67,75,137,48,73,48,48,,,18,43,9,12,0.7,1
2025-12-17T0400,1311A,120.3664,36.1032,青岛市,四方区子站,细颗粒物(PM2.5),70,75,132,51,79,49,49,,,18,43,3,6,0.8,1
2025-12-17T0400,1312A,120.2994,36.054,青岛市,市南区西部子站,颗粒物(PM10),62,73,128,42,72,42,42,,,19,41,4,7,0.8,1.1
2025-12-17T0400,1313A,120.4581,36.0858,青岛市,崂山区子站,颗粒物(PM10),63,75,126,44,64,52,52,,,19,45,9,12,0.7,1
2025-12-17T0400,1315A,120.3999,36.3083,青岛市,城阳区子站,颗粒物(PM10),60,70,134,42,65,53,53,,,16,44,6,10,0.7,1.1
2025-12-17T0400,3362A,120.5014,36.4034,青岛市,即墨2号,细颗粒物(PM2.5),79,81,139,58,90,36,36,,,23,49,6,11,0.8,1.1
2025-12-17T0400,3642A,120.3503,36.0736,青岛市,市北区南部,颗粒物(PM10),83,115,140,41,72,46,46,,,15,46,4,8,0.8,1.1
2025-12-17T0400,3643A,120.3948,36.1805,青岛市,李沧区北部,细颗粒物(PM2.5),83,78,130,61,84,44,44,,,21,50,8,11,0.9,1.2
2025-12-17T0400,4290A,120.1969,35.9546,青岛市,珠江路669号,细颗粒物(PM2.5),77,73,139,56,82,28,28,,,32,63,10,15,0.6,0.9
2025-12-17T0400,4291A,120.0424,35.8656,青岛市,黄岛区人民政府广场,细颗粒物(PM2.5),67,70,129,48,76,45,45,,,26,43,7,10,0.8,1.1
2025-12-17T0400,1702A,113.0426,23.691,清远市,环保大楼,,,,,,,,,,,,,,,,
2025-12-17T0400,1703A,113.0208,23.7106,清远市,凤城街办,颗粒物(PM10),51,51,55,32,31,10,10,,,40,47,6,7,0.8,0.8
2025-12-17T0400,3025A,113.0477,23.6344,清远市,技师学院,颗粒物(PM10),55,60,62,29,31,3,3,,,57,53,7,7,0.8,0.8
2025-12-17T0400,3318A,112.9903,23.7403,清远市,清新太和,,34,34,47,20,25,36,36,,,28,34,10,9,0.6,0.6
2025-12-17T0400,3455A,113.076,23.7198,清远市,清城东城,,37,37,50,24,26,30,30,,,28,32,6,6,0.5,0.5
2025-12-17T0400,2661A,107.6325,35.7357,庆阳市,庆阳五中,颗粒物(PM10),59,68,71,21,29,62,62,,,17,17,6,7,0.6,0.5
2025-12-17T0400,2662A,107.6364,35.7067,庆阳市,市环保局,颗粒物(PM10),58,66,69,20,23,77,77,,,10,15,3,4,0.5,0.5
2025-12-17T0400,1916A,103.7897,25.5035,曲靖市,环境监测站,,46,33,34,32,18,50,50,,,11,16,7,6,1.0,0.8
2025-12-17T0400,1917A,103.8,25.5364,曲靖市,烟厂办公区,,40,40,36,18,21,46,46,,,12,22,8,6,0.6,0.5
2025-12-17T0400,3376A,103.7947,25.462,曲靖市,南苑二区,颗粒物(PM10),52,54,33,28,17,48,48,,,12,11,8,5,0.6,0.4
2025-12-17T0400,3377A,103.7444,25.5261,曲靖市,曲靖师范学院,细颗粒物(PM2.5),55,,41,39,31,49,49,,,11,19,5,4,0.5,0.5
2025-12-17T0400,1264A,118.8692,28.9398,衢州市,环保大楼,颗粒物(PM10),69,87,87,49,50,2,2,,,58,67,6,9,1.0,1.2
2025-12-17T0400,1265A,118.8709,28.9666,衢州市,实验学校,颗粒物(PM10),62,74,73,40,40,2,2,,,55,58,6,5,1.2,1.1
2025-12-17T0400,1266A,118.8621,28.9808,衢州市,衢州学院,颗粒物(PM10),58,65,67,39,40,1,1,,,52,57,7,9,0.7,0.9
2025-12-17T0400,1611A,118.5819,24.9117,泉州市,涂山街,细颗粒物(PM2.5),68,67,60,49,33,15,15,,,36,29,3,3,0.8,0.6
2025-12-17T0400,1612A,118.5972,24.8978,泉州市,津头埔,,,,63,,31,,,62,,,29,,4,,0.5
2025-12-17T0400,1613A,118.6663,24.9424,泉州市,万安,细颗粒物(PM2.5),53,50,50,37,26,20,20,,,26,28,3,4,0.6,0.6
2025-12-17T0400,1614A,118.6117,24.9604,泉州市,清源山,,,,36,,22,,,99,,,8,,2,,0.4
2025-12-17T0400,3529A,118.6333,24.9264,泉州市,城华南路,颗粒物(PM10),54,58,48,36,27,20,20,,,24,24,4,5,0.6,0.5
2025-12-17T0400,2626A,88.8876,29.2718,日喀则市,日喀则监测站,,15,10,42,3,14,48,48,,,7,22,10,19,0.3,0.7
2025-12-17T0400,3726A,88.8781,29.2426,日喀则市,林业技术推广中心,,24,24,29,8,12,35,35,,,9,10,8,10,0.9,0.8
2025-12-17T0400,1659A,119.471,35.4209,日照市,监测站,颗粒物(PM10),63,75,128,44,76,61,61,,,22,40,8,12,0.7,1.1
2025-12-17T0400,1660A,119.523,35.4216,日照市,市政府广场,细颗粒物(PM2.5),64,68,119,46,71,54,54,,,19,39,6,9,0.9,1.2
2025-12-17T0400,1661A,119.5587,35.4044,日照市,港务局,细颗粒物(PM2.5),78,80,130,57,82,59,59,,,18,40,8,12,0.9,1.2
2025-12-17T0400,3507A,119.5328,35.4625,日照市,职业技术学院,颗粒物(PM10),60,70,122,41,64,54,54,,,22,39,7,10,0.9,1.1
2025-12-17T0400,3604A,119.3266,35.1044,日照市,岚山环保分局,细颗粒物(PM2.5),87,92,139,64,87,62,62,,,18,45,10,23,0.9,1.7
