timepoint,stationcode,longitude,latitude,area,positionname,primarypollutant,aqi,pm10,pm10_24h,pm2_5,pm2_5_24h,o3,o3_24h,o3_8h,o3_8h_24h,no2,no2_24h,so2,so2_24h,co,co_24h
2024-05-17T0000,2566A,102.1879,31.914,阿坝藏族羌族自治州,州农科所,,13,12,23,9,8,36,,43,42,11,14,2,3,0.0,0.2
2024-05-17T0000,2568A,102.2502,31.8896,阿坝藏族羌族自治州,马师校,,28,,10,19,13,75,,106,100,8,9,4,4,0.3,0.3
2024-05-17T0000,3994A,102.2165,31.9024,阿坝藏族羌族自治州,马尔康中学西区,,29,21,18,7,11,92,,112,108,7,7,3,3,0.3,0.3
2024-05-17T0000,2695A,80.292,41.1694,阿克苏地区,电视台,颗粒物(PM10),165,279,290,79,80,43,,98,81,58,32,4,6,0.8,0.5
2024-05-17T0000,2696A,80.2613,41.1551,阿克苏地区,艺术中心,颗粒物(PM10),174,298,272,98,90,0,,100,72,111,44,7,5,1.7,0.7
2024-05-17T0000,2204A,105.6467,38.8363,阿拉善盟,西城区西花园,颗粒物(PM10),93,135,131,41,28,115,,148,126,9,15,9,10,0.7,0.7
2024-05-17T0000,2205A,105.6985,38.8411,阿拉善盟,蒙二幼,颗粒物(PM10),102,154,142,43,68,118,,146,130,4,9,8,9,0.4,0.5
2024-05-17T0000,2206A,105.724,38.8516,阿拉善盟,环保局新楼,颗粒物(PM10),93,136,136,61,60,129,,147,137,4,6,9,10,0.5,0.5
2024-05-17T0000,2708A,88.1264,47.8517,阿勒泰地区,市站,颗粒物(PM10),66,82,33,19,11,77,,109,91,5,6,5,5,0.3,0.3
2024-05-17T0000,2630A,80.1161,32.5,阿里地区,阿里监测站,,38,17,19,8,7,120,,144,132,19,11,8,8,0.5,0.4
2024-05-17T0000,3192A,80.0903,32.5028,阿里地区,阿里藏医院,,41,15,20,6,6,130,,147,138,7,8,6,8,0.4,0.5
2024-05-17T0000,2642A,109.0318,32.6537,安康市,香溪洞,细颗粒物(PM2.5),55,52,49,39,24,105,,147,138,6,7,7,8,0.6,0.5
2024-05-17T0000,2643A,109.0281,32.6939,安康市,安康市监测站,颗粒物(PM10),85,120,64,59,28,60,,149,108,23,12,11,11,0.8,0.5
2024-05-17T0000,2644A,109.0072,32.6975,安康市,汉滨区检察院,颗粒物(PM10),58,65,49,40,24,67,,146,110,12,10,7,9,0.5,0.4
2024-05-17T0000,2291A,117.0809,30.5177,安庆市,环科院,颗粒物(PM10),59,67,60,34,28,109,,163,130,29,26,6,8,0.5,0.4
2024-05-17T0000,2292A,117.0331,30.5119,安庆市,马山宾馆,颗粒物(PM10),73,95,60,50,29,52,,175,102,80,35,12,10,0.6,0.4
2024-05-17T0000,2294A,116.9896,30.6145,安庆市,安庆大学,细颗粒物(PM2.5),93,103,60,69,30,115,,168,142,25,20,12,10,0.6,0.4
2024-05-17T0000,3173A,117.0598,30.5351,安庆市,市人大,颗粒物(PM10),68,86,60,44,29,80,,173,131,50,21,11,9,0.7,0.5
2024-05-17T0000,3122A,105.9606,26.2611,安顺市,伍家关,,,,,,,,,,,,,,,,
2024-05-17T0000,3123A,105.9408,26.2431,安顺市,凤凰山,,27,27,28,16,22,78,,100,88,6,7,5,8,0.7,0.7
2024-05-17T0000,3124A,105.9439,26.2564,安顺市,金钟山,,27,27,29,18,21,80,,99,88,5,6,4,6,0.5,0.4
2024-05-17T0000,3125A,105.8983,26.2481,安顺市,娄家坡,,39,39,39,21,24,79,,103,88,3,5,6,8,0.5,0.5
2024-05-17T0000,1818A,114.4839,36.0621,安阳市,棉研所,,,,,,,,,,,,,,,,
2024-05-17T0000,1819A,114.3551,36.1017,安阳市,红庙街,,40,40,89,23,24,123,,181,164,11,18,6,8,0.5,0.7
2024-05-17T0000,1820A,114.361,36.0681,安阳市,银杏小区,,38,31,89,17,32,120,,177,160,7,18,7,16,0.5,0.5
2024-05-17T0000,3141A,114.3922,36.0878,安阳市,信访局,颗粒物(PM10),68,86,113,17,23,135,,180,164,10,22,5,6,0.6,0.6
2024-05-17T0000,3669A,114.4705,36.0637,安阳市,左辅环卫站,,41,41,69,16,23,109,,170,152,14,16,8,9,0.8,0.7
2024-05-17T0000,3703A,114.2917,36.0949,安阳市,安钢职工学校,,45,45,86,25,26,122,,173,158,12,22,6,19,0.4,0.5
2024-05-17T0000,1748A,123.044,41.1196,鞍山市,深沟寺,,39,39,38,16,20,84,,113,,16,18,9,11,0.6,0.7
2024-05-17T0000,1749A,123.011,41.0931,鞍山市,太阳城,颗粒物(PM10),58,65,37,28,14,60,,118,92,34,18,17,12,2.1,0.9
2024-05-17T0000,1750A,123.0485,41.1442,鞍山市,太平,颗粒物(PM10),51,51,62,19,25,86,,116,89,23,27,7,10,0.6,0.7
2024-05-17T0000,1751A,122.9642,41.0971,鞍山市,铁西三道街,颗粒物(PM10),89,128,71,49,28,20,,114,56,85,43,14,14,1.3,1.1
2024-05-17T0000,1752A,122.9341,41.0833,鞍山市,铁西工业园区,颗粒物(PM10),98,145,103,53,34,32,,110,61,63,45,12,18,1.2,1.1
2024-05-17T0000,1753A,123.022,41.0821,鞍山市,明达新区,颗粒物(PM10),52,54,42,29,17,50,,115,80,38,21,16,14,1.9,0.9
2024-05-17T0000,1754A,123.1289,41.0228,鞍山市,千山,,,,,,,,,,,,,,,,
2024-05-17T0000,2195A,107.4212,40.761,巴彦淖尔市,附二中,颗粒物(PM10),119,188,142,68,51,76,,126,96,31,34,2,7,0.4,0.4
2024-05-17T0000,2196A,107.37,40.7372,巴彦淖尔市,市环保大楼,颗粒物(PM10),121,191,143,60,41,57,,122,93,28,25,4,5,0.3,0.4
2024-05-17T0000,1956A,86.1472,41.7538,巴音郭楞蒙古自治州,孔雀公园,颗粒物(PM10),157,264,444,80,137,57,,83,66,44,29,9,11,0.3,0.3
2024-05-17T0000,1957A,86.1972,41.7166,巴音郭楞蒙古自治州,棉纺厂,颗粒物(PM10),344,455,564,77,159,85,,90,81,15,22,3,4,0.2,0.3
2024-05-17T0000,1958A,86.2357,41.7173,巴音郭楞蒙古自治州,经济开发区,颗粒物(PM10),189,328,530,70,152,93,,98,93,9,10,7,8,0.2,0.2
2024-05-17T0000,2914A,106.7677,31.8794,巴中市,苏山坪,颗粒物(PM10),53,55,63,34,42,130,,135,130,8,11,6,6,0.4,0.5
2024-05-17T0000,3182A,106.7656,31.8545,巴中市,丽阳花园,细颗粒物(PM2.5),69,72,62,50,42,54,,142,103,32,22,6,6,0.6,0.6
2024-05-17T0000,3183A,106.7418,31.8654,巴中市,圣泉水务公司,细颗粒物(PM2.5),79,81,57,58,40,42,,138,92,47,23,4,4,0.6,0.4
2024-05-17T0000,3616A,106.7616,31.8344,巴中市,市中心医院,细颗粒物(PM2.5),73,73,65,53,45,54,,144,105,29,23,6,6,0.7,0.6
2024-05-17T0000,2235A,122.7911,45.6077,白城市,洮北区环保局,,30,30,20,10,9,76,,108,96,15,12,6,6,0.3,0.3
2024-05-17T0000,2236A,122.8738,45.5725,白城市,市环保局,,26,12,9,12,9,81,,109,94,19,12,5,4,0.3,0.3
2024-05-17T0000,2231A,126.4219,41.9171,白山市,喜丰,,42,42,33,15,10,31,,102,72,28,17,13,9,1.0,0.9
2024-05-17T0000,2232A,126.4077,41.9419,白山市,环保局,,45,45,37,7,10,43,,90,66,24,19,9,10,0.8,0.8
2024-05-17T0000,2647A,104.1724,36.5446,白银市,第三小学,颗粒物(PM10),94,138,108,51,39,38,,154,118,81,24,36,21,1.0,0.7
2024-05-17T0000,2648A,104.1465,36.5482,白银市,动力公司,颗粒物(PM10),88,125,92,54,39,66,,157,121,40,17,14,15,0.7,0.6
2024-05-17T0000,2512A,106.6103,23.9011,百色市,市监测站,颗粒物(PM10),55,60,32,28,15,42,,92,84,23,10,13,7,0.8,0.6
2024-05-17T0000,2513A,106.6538,23.8859,百色市,市中心血站,颗粒物(PM10),53,55,37,30,19,53,,81,74,22,16,11,8,0.7,0.6
2024-05-17T0000,3406A,106.6085,23.8798,百色市,祈福高中,颗粒物(PM10),59,68,37,31,20,55,,93,87,24,13,12,9,0.9,0.7
2024-05-17T0000,2270A,117.396,32.939,蚌埠市,工人疗养院,颗粒物(PM10),54,58,49,30,23,126,,172,157,16,14,12,11,0.4,0.3
2024-05-17T0000,2271A,117.3605,32.9427,蚌埠市,百货大楼,颗粒物(PM10),57,64,52,28,30,125,,170,154,21,17,10,8,0.5,0.5
2024-05-17T0000,2273A,117.4185,32.8911,蚌埠市,蚌埠学院,颗粒物(PM10),56,61,40,34,18,122,,166,146,15,14,8,7,0.4,0.4
2024-05-17T0000,2274A,117.3533,32.9673,蚌埠市,淮上区政府,颗粒物(PM10),59,68,56,35,24,124,,167,152,14,10,10,11,0.4,0.4
2024-05-17T0000,2275A,117.3145,32.8977,蚌埠市,高新区,颗粒物(PM10),64,78,60,44,26,112,,170,150,20,11,9,9,0.4,0.3
2024-05-17T0000,3715A,117.3092,32.9314,蚌埠市,蚌埠田家炳中学,颗粒物(PM10),59,68,61,32,28,109,,171,151,19,12,14,21,0.4,0.4
2024-05-17T0000,1585A,109.8756,40.6532,包头市,市环境监测站,颗粒物(PM10),56,61,109,22,45,24,,127,91,65,44,8,20,0.5,0.7
2024-05-17T0000,1587A,109.9991,40.5842,包头市,包头八中,颗粒物(PM10),62,74,120,26,41,24,,126,87,67,39,7,24,0.4,0.6
2024-05-17T0000,1588A,109.8538,40.6821,包头市,青山宾馆,,50,50,97,31,41,26,,122,86,48,47,10,19,0.4,0.7
2024-05-17T0000,1589A,109.8642,40.6288,包头市,惠龙物流,颗粒物(PM10),52,53,106,17,39,66,,129,103,28,37,9,24,0.4,0.7
2024-05-17T0000,1590A,110.0377,40.5546,包头市,东河鸿龙湾,颗粒物(PM10),59,68,100,17,33,29,,137,92,42,33,7,19,0.6,0.7
2024-05-17T0000,3283A,109.9154,40.5685,包头市,滨河大厦,,45,45,94,15,38,64,,132,100,29,34,12,20,0.4,0.6
2024-05-17T0000,3419A,109.9447,40.6261,包头市,包头市委党校,颗粒物(PM10),57,63,110,6,34,51,,130,98,46,44,12,24,0.4,0.6
2024-05-17T0000,3683A,109.8331,40.6576,包头市,昆区政府,细颗粒物(PM2.5),75,,104,55,40,58,,126,99,32,42,8,25,0.2,0.6
2024-05-17T0000,1930A,107.185,34.3063,宝鸡市,庙沟村,,41,41,52,24,22,103,,144,117,12,12,9,9,0.6,0.6
2024-05-17T0000,1931A,107.0708,34.3017,宝鸡市,竹园沟,颗粒物(PM10),52,53,46,33,23,70,,136,93,26,16,6,6,0.6,0.5
2024-05-17T0000,1932A,107.1906,34.3672,宝鸡市,三陆医院,颗粒物(PM10),59,68,71,40,29,46,,164,120,53,30,12,9,0.8,0.6
2024-05-17T0000,1933A,107.1431,34.3547,宝鸡市,监测站,颗粒物(PM10),52,53,58,29,26,58,,150,103,38,25,7,8,0.5,0.5
2024-05-17T0000,1934A,107.1186,34.3739,宝鸡市,技工学校,细颗粒物(PM2.5),54,56,58,38,26,72,,151,122,26,19,11,9,0.6,0.5
2024-05-17T0000,1935A,107.3906,34.3528,宝鸡市,陈仓区环保局家属楼,颗粒物(PM10),61,72,64,43,29,46,,165,113,40,23,5,6,0.5,0.4
2024-05-17T0000,1936A,107.2058,34.3497,宝鸡市,文理学院,颗粒物(PM10),55,60,63,21,26,64,,172,115,33,23,7,7,0.4,0.4
2024-05-17T0000,1937A,107.2386,34.3622,宝鸡市,三迪小学,颗粒物(PM10),59,67,69,31,29,53,,166,123,42,25,7,9,0.6,0.6
2024-05-17T0000,1051A,115.493,38.8632,保定市,游泳馆,,,102,93,,28,84,,171,148,18,15,6,7,0.2,0.4
2024-05-17T0000,1052A,115.5213,38.8959,保定市,华电二区,颗粒物(PM10),61,71,50,22,19,98,,164,139,18,20,4,5,0.5,0.4
2024-05-17T0000,1053A,115.4713,38.9108,保定市,接待中心,颗粒物(PM10),54,58,53,22,21,104,,164,141,11,16,4,5,0.5,0.5
2024-05-17T0000,1054A,115.4612,38.8416,保定市,地表水厂,颗粒物(PM10),72,94,62,31,29,85,,165,136,25,15,4,6,0.5,0.4
2024-05-17T0000,3581A,115.31981,38.95208,保定市,满城区生态环境分局,颗粒物(PM10),71,92,87,39,36,87,,162,130,14,18,6,5,0.5,0.4
2024-05-17T0000,3582A,115.47694,38.76408,保定市,清苑区第二中学,颗粒物(PM10),60,70,68,26,21,78,,164,135,37,16,3,5,0.4,0.5
2024-05-17T0000,3583A,115.62909,39.02311,保定市,徐水物探局,颗粒物(PM10),73,95,81,24,20,95,,170,142,26,22,9,9,0.3,0.3
2024-05-17T0000,4004A,115.4202,38.8656,保定市,双鹰农机,颗粒物(PM10),62,74,64,3,19,98,,166,137,22,22,8,8,0.1,0.2
2024-05-17T0000,4034A,115.5150,38.8590,保定市,植保所站,颗粒物(PM10),78,106,69,42,35,91,,173,147,36,21,10,9,0.4,0.4
2024-05-17T0000,2594A,99.1678,25.1081,保山市,市环境监测站,,40,40,34,13,18,76,,116,100,6,8,4,4,0.5,0.5
2024-05-17T0000,2595A,99.1711,25.1328,保山市,市环保局,,41,41,43,12,17,93,,124,110,4,7,4,4,0.5,0.5
2024-05-17T0000,1866A,109.2262,21.588,北海市,牛尾岭水库,,,,,,,,,,,,,,,,
2024-05-17T0000,1867A,109.1436,21.4086,北海市,海滩公园,臭氧1小时,53,36,40,10,16,162,,177,170,6,10,8,12,0.6,0.6
2024-05-17T0000,1868A,109.0981,21.4661,北海市,新市环保局,臭氧1小时,52,31,38,14,18,161,,176,165,7,12,7,10,0.7,0.7
2024-05-17T0000,1869A,109.1778,21.5233,北海市,北海工业园,,48,39,42,17,22,152,,180,165,8,12,8,15,0.7,0.7
2024-05-17T0000,3400A,109.1911,21.4415,北海市,龙潭自来水厂,臭氧1小时,52,39,37,14,21,161,,172,166,7,11,8,9,0.6,0.6
2024-05-17T0000,1001A,116.3621,39.8784,北京市,万寿西宫,颗粒物(PM10),69,87,75,27,25,92,,170,156,31,28,2,2,0.6,0.4
2024-05-17T0000,1002A,116.2202,40.2915,北京市,定陵,颗粒物(PM10),64,77,55,28,20,127,,150,146,18,20,1,2,0.4,0.3
2024-05-17T0000,1003A,116.4174,39.9289,北京市,东四,颗粒物(PM10),71,92,78,29,24,109,,170,158,28,32,5,3,0.5,0.5
2024-05-17T0000,1004A,116.4072,39.8863,北京市,天坛,颗粒物(PM10),58,65,64,24,24,75,,163,145,24,30,3,3,0.6,0.5
2024-05-17T0000,1005A,116.462,39.9365,北京市,农展馆,颗粒物(PM10),65,80,78,25,29,91,,151,138,28,31,4,4,0.6,0.4
2024-05-17T0000,1006A,116.3392,39.9295,北京市,官园,颗粒物(PM10),71,91,79,29,24,106,,174,163,28,31,6,4,0.5,0.3
2024-05-17T0000,1007A,116.2878,39.9611,北京市,海淀万柳,颗粒物(PM10),62,74,78,33,25,56,,159,141,72,45,5,6,0.8,0.5
2024-05-17T0000,1008A,116.6636,40.135,北京市,顺义新城,颗粒物(PM10),74,98,74,48,24,99,,158,151,42,38,2,2,0.5,0.3
2024-05-17T0000,1009A,116.6275,40.3275,北京市,怀柔镇,颗粒物(PM10),51,51,55,19,18,129,,153,152,13,17,5,4,0.5,0.4
2024-05-17T0000,1010A,116.2296,40.217,北京市,昌平镇,颗粒物(PM10),63,75,64,26,22,107,,138,135,23,25,2,2,0.5,0.3
2024-05-17T0000,1011A,116.3966,39.9821,北京市,奥体中心,颗粒物(PM10),66,82,63,28,24,76,,151,141,48,34,3,3,0.7,0.4
2024-05-17T0000,1012A,116.184,39.9136,北京市,古城,颗粒物(PM10),86,122,93,35,25,47,,141,121,74,46,3,2,1.0,0.6
2024-05-17T0000,3281A,115.9718,40.4529,北京市,延庆夏都,颗粒物(PM10),81,112,59,47,26,123,,154,152,28,24,1,2,0.4,0.2
2024-05-17T0000,3417A,117.0709,40.1465,北京市,平谷新城,颗粒物(PM10),58,66,62,30,28,151,,173,169,14,19,3,2,0.4,0.3
2024-05-17T0000,3418A,116.8336,40.4095,北京市,密云新城,颗粒物(PM10),58,66,58,25,26,93,,162,146,21,16,1,2,0.4,0.3
2024-05-17T0000,3671A,116.088,39.9726,北京市,门头沟三家店,,,,,,,,,,,,,,,,
2024-05-17T0000,3672A,116.1541,39.8204,北京市,丰台云岗,颗粒物(PM10),73,95,76,31,21,105,,145,136,23,28,3,3,0.7,0.4
2024-05-17T0000,3673A,116.6804,39.9081,北京市,通州东关,颗粒物(PM10),77,104,77,30,26,71,,159,132,43,34,4,5,0.5,0.4
2024-05-17T0000,3674A,115.9577,39.7603,北京市,房山燕山,颗粒物(PM10),83,115,85,40,22,62,,140,125,45,27,2,4,0.6,0.4
2024-05-17T0000,3675A,116.4672,39.7733,北京市,大兴旧宫,颗粒物(PM10),62,74,81,22,21,92,,165,148,19,25,3,2,0.5,0.4
2024-05-17T0000,3694A,115.986,40.4563,北京市,延庆石河营,颗粒物(PM10),65,79,53,34,21,126,,160,160,22,27,3,2,0.3,0.2
2024-05-17T0000,3695A,116.6151,40.3053,北京市,怀柔新城,颗粒物(PM10),54,57,56,19,18,125,,145,144,14,18,1,2,0.4,0.3
2024-05-17T0000,3696A,116.2545,39.8768,北京市,丰台小屯,颗粒物(PM10),68,86,72,31,28,59,,146,130,49,34,1,2,0.7,0.4
2024-05-17T0000,3697A,116.84,40.3844,北京市,密云镇,颗粒物(PM10),56,62,53,20,17,91,,159,147,34,25,1,2,0.5,0.3
2024-05-17T0000,1761A,123.8275,41.3064,本溪市,大峪,颗粒物(PM10),55,59,45,19,13,64,,122,96,25,22,9,10,0.6,0.6
2024-05-17T0000,1762A,123.7567,41.3325,本溪市,溪湖,颗粒物(PM10),63,76,61,25,18,48,,121,91,37,24,9,9,0.8,0.6
2024-05-17T0000,1763A,123.7169,41.3094,本溪市,彩屯,"颗粒物(PM10),细颗粒物(PM2.5)",55,60,45,39,29,37,,111,75,47,33,8,10,0.8,0.8
2024-05-17T0000,1764A,123.7669,41.2864,本溪市,东明,颗粒物(PM10),57,64,45,23,17,31,,113,79,59,31,10,11,0.7,0.6
2024-05-17T0000,1765A,123.7992,41.2664,本溪市,新立屯,,33,33,28,14,10,42,,114,72,50,28,11,11,0.9,0.8
2024-05-17T0000,1766A,123.8142,41.3472,本溪市,威宁,颗粒物(PM10),51,52,42,19,20,36,,109,66,45,25,7,7,0.6,0.5
2024-05-17T0000,2587A,105.2864,27.3125,毕节市,八中,,39,38,28,27,21,36,,78,63,17,12,5,7,0.6,0.5
2024-05-17T0000,2588A,105.31,27.2944,毕节市,师专,,36,35,25,25,19,41,,75,63,21,12,6,7,0.5,0.5
2024-05-17T0000,3537A,105.3631,27.3533,毕节市,长征村,,42,40,28,29,21,62,,86,78,7,6,6,6,0.5,0.5
2024-05-17T0000,1629A,118.0018,37.3617,滨州市,第二水厂,颗粒物(PM10),60,70,78,19,24,103,,161,122,28,24,8,8,0.8,0.6
2024-05-17T0000,1630A,117.9776,37.393,滨州市,北中新校,颗粒物(PM10),59,68,79,29,24,105,,161,123,30,23,12,17,0.7,0.8
2024-05-17T0000,3514A,117.9378,37.3956,滨州市,中海酒店,颗粒物(PM10),60,70,75,31,28,101,,166,136,34,19,18,18,0.6,0.6
2024-05-17T0000,3515A,117.9378,37.3553,滨州市,开发区一中,颗粒物(PM10),70,90,86,19,21,86,,152,114,38,22,18,14,0.8,0.7
2024-05-17T0000,3516A,118.0917,37.694,滨州市,金海六路,颗粒物(PM10),72,93,74,24,13,68,,153,114,44,22,7,8,0.6,0.5
2024-05-17T0000,4028A,117.9956,37.3753,滨州市,滨州市西街道办事处,颗粒物(PM10),60,70,73,27,24,99,,152,120,27,21,11,11,0.7,0.7
2024-05-17T0000,2311A,115.8072,33.8399,亳州市,污水处理厂,颗粒物(PM10),60,70,60,35,23,165,,168,167,5,15,10,11,0.6,0.3
2024-05-17T0000,2312A,115.7789,33.8518,亳州市,三国揽胜宫,颗粒物(PM10),64,78,60,16,27,157,,166,165,6,7,12,11,0.7,0.5
2024-05-17T0000,3332A,115.7633,33.8034,亳州市,亳州学院,颗粒物(PM10),61,71,57,30,23,155,,169,164,6,9,10,10,0.6,0.4
2024-05-17T0000,2693A,82.0485,44.8556,博尔塔拉蒙古自治州,市党校,颗粒物(PM10),104,158,64,39,18,88,,126,97,4,7,9,9,0.3,0.2
2024-05-17T0000,2694A,82.0806,44.8969,博尔塔拉蒙古自治州,市环保局,颗粒物(PM10),88,126,71,25,16,90,,133,102,5,12,10,10,0.1,0.2
2024-05-17T0000,1071A,116.8842,38.2991,沧州市,沧县城建局,颗粒物(PM10),64,77,66,30,19,91,,146,124,25,18,4,6,0.5,0.4
2024-05-17T0000,1072A,116.8584,38.3254,沧州市,电视转播站,颗粒物(PM10),60,69,58,19,17,93,,137,118,16,13,8,7,0.3,0.2
2024-05-17T0000,1073A,116.8709,38.3228,沧州市,市环保局,颗粒物(PM10),64,77,61,17,14,85,,134,114,22,15,6,7,0.3,0.3
2024-05-17T0000,3324A,116.8136,38.3004,沧州市,河北水利电力学院,颗粒物(PM10),65,80,64,24,15,104,,143,123,17,18,9,9,0.3,0.2
2024-05-17T0000,2622A,97.1806,31.1273,昌都市,昌都监测站,,39,,10,12,8,124,,115,110,2,9,7,6,0.3,0.4
2024-05-17T0000,3719A,97.1714,31.1406,昌都市,昌都会议中心,,43,10,9,9,6,136,,128,128,2,7,6,6,0.2,0.3
2024-05-17T0000,2690A,88.1236,43.8886,昌吉回族自治州,天山天池,颗粒物(PM10),58,66,194,32,55,80,,116,108,6,5,6,8,0.5,0.5
2024-05-17T0000,2692A,87.2717,44.0297,昌吉回族自治州,新区政务中心,颗粒物(PM10),63,75,69,32,23,51,,132,100,65,20,10,9,0.7,0.5
2024-05-17T0000,3613A,87.3095,44.0142,昌吉回族自治州,亚心广场,颗粒物(PM10),75,100,95,31,26,54,,141,103,82,32,11,9,0.7,0.6
2024-05-17T0000,1119A,125.3325,43.9166,长春市,食品厂,颗粒物(PM10),66,81,52,41,21,9,,103,77,92,35,9,7,0.5,0.3
2024-05-17T0000,1120A,125.2863,43.9027,长春市,客车厂,,49,49,43,19,18,19,,96,65,78,41,6,5,0.6,0.5
2024-05-17T0000,1121A,125.2841,43.8463,长春市,邮电学院,,41,41,36,24,14,55,,97,76,30,27,8,7,0.4,0.3
2024-05-17T0000,1122A,125.3716,43.8772,长春市,劳动公园,颗粒物(PM10),61,71,40,31,17,18,,102,70,78,36,6,5,0.6,0.5
2024-05-17T0000,1123A,125.3297,43.8805,长春市,园林处,"颗粒物(PM10),细颗粒物(PM2.5)",54,58,32,38,17,27,,99,78,76,33,8,6,0.5,0.4
2024-05-17T0000,1124A,125.4605,43.79,长春市,净月潭,,30,16,13,10,7,94,,103,101,6,6,8,8,0.3,0.3
2024-05-17T0000,1125A,125.7194,43.515,长春市,甩湾子,,,,,,,,,,,,,,,,
2024-05-17T0000,1126A,125.3863,43.8447,长春市,经开区环卫处,颗粒物(PM10),66,82,38,22,13,6,,101,62,81,34,6,6,0.5,0.4
2024-05-17T0000,1127A,125.245,43.7783,长春市,高新区管委会,,37,36,31,19,12,12,,96,69,73,27,7,7,0.5,0.4
2024-05-17T0000,1128A,125.1761,43.8325,长春市,岱山公园,,43,43,34,19,15,25,,96,54,85,44,8,6,0.5,0.4
2024-05-17T0000,1335A,113.0833,28.2325,长沙市,经开区环保局,细颗粒物(PM2.5),74,84,92,54,38,101,,224,188,43,16,8,9,0.6,0.5
2024-05-17T0000,1336A,112.8872,28.2189,长沙市,高开区环保局,颗粒物(PM10),68,86,89,35,34,136,,217,181,24,15,7,7,0.7,0.6
2024-05-17T0000,1337A,113.0792,28.2053,长沙市,马坡岭,细颗粒物(PM2.5),87,110,90,64,46,68,,199,143,55,17,9,10,0.7,0.5
2024-05-17T0000,1338A,112.9394,28.19,长沙市,湖南师范大学,细颗粒物(PM2.5),73,77,93,53,39,94,,226,166,24,11,3,5,0.9,0.7
2024-05-17T0000,1339A,113.0178,28.1322,长沙市,雨花区环保局,颗粒物(PM10),64,78,90,37,39,85,,217,175,61,14,8,8,0.6,0.4
2024-05-17T0000,1340A,112.9792,28.2597,长沙市,伍家岭,细颗粒物(PM2.5),137,145,95,104,39,2,,216,141,93,22,8,8,1.0,0.5
2024-05-17T0000,1341A,113.0014,28.1944,长沙市,火车新站,颗粒物(PM10),70,89,96,48,40,76,,225,166,67,22,6,6,1.0,0.8
2024-05-17T0000,1342A,112.9844,28.1178,长沙市,天心区环保局,细颗粒物(PM2.5),63,74,94,45,39,102,,223,173,47,26,6,6,0.6,1
2024-05-17T0000,1343A,112.8908,28.1308,长沙市,湖南中医药大学,颗粒物(PM10),82,113,94,51,39,15,,217,118,104,25,7,8,1.1,0.9
2024-05-17T0000,1344A,112.9581,28.3611,长沙市,沙坪,颗粒物(PM10),58,66,75,37,33,100,,209,152,16,13,8,8,0.8,0.6
2024-05-17T0000,1727A,113.1147,36.1547,长治市,清华站,,38,33,36,14,11,121,,155,137,15,14,9,10,0.3,0.4
2024-05-17T0000,1728A,113.1031,36.1989,长治市,监测站,,40,33,40,17,12,126,,158,134,17,18,2,8,0.4,0.6
2024-05-17T0000,1730A,113.0886,36.2125,长治市,审计局,,39,28,36,14,13,122,,162,141,15,13,12,14,0.4,0.3
2024-05-17T0000,1731A,113.0844,36.1856,长治市,长治八中,,41,41,43,18,12,117,,160,138,21,20,8,8,0.7,0.5
2024-05-17T0000,2845A,113.1569,36.1911,长治市,德盛苑,,45,34,36,24,14,144,,164,148,10,10,6,6,0.6,0.5
2024-05-17T0000,3568A,113.06,36.0464,长治市,向阳小学,颗粒物(PM10),57,63,58,33,24,110,,155,130,22,17,16,14,0.7,0.5
2024-05-17T0000,3569A,112.8792,36.3144,长治市,屯留一中,,35,31,38,10,12,112,,158,134,16,18,8,8,0.4,0.5
2024-05-17T0000,3570A,113.235,36.3489,长治市,潞城四中,颗粒物(PM10),53,56,58,27,24,82,,172,135,50,20,7,7,0.6,0.5
2024-05-17T0000,1854A,111.6975,28.9703,常德市,市二中,颗粒物(PM10),59,68,81,33,29,115,,176,154,12,12,8,11,0.6,0.5
2024-05-17T0000,1857A,111.7158,29.1456,常德市,白鹤山,,,,,,,,,,,,,,,,
2024-05-17T0000,3138A,111.7153,29.0289,常德市,武陵区永安,细颗粒物(PM2.5),54,42,78,38,29,124,,182,154,11,10,8,10,0.5,0.4
2024-05-17T0000,3139A,111.6892,28.9881,常德市,鼎城区玉霞,颗粒物(PM10),65,79,90,40,32,93,,179,145,16,13,7,9,0.6,0.5
2024-05-17T0000,3140A,111.6625,29.0531,常德市,武陵区长庚,细颗粒物(PM2.5),64,76,77,46,30,108,,177,155,17,10,10,11,0.6,0.5
2024-05-17T0000,1196A,119.9633,31.762,常州市,市监测站,颗粒物(PM10),52,54,42,28,20,124,,156,130,25,31,9,10,0.5,0.4
2024-05-17T0000,1200A,119.9468,31.7069,常州市,武进监测站,,43,37,32,15,14,136,,158,148,18,22,8,8,0.4,0.4
2024-05-17T0000,1201A,119.9255,31.9087,常州市,安家,,49,49,38,25,17,125,,148,126,26,34,8,10,0.4,0.5
2024-05-17T0000,3002A,119.9805,31.8174,常州市,行政中心,颗粒物(PM10),53,56,48,21,16,129,,148,133,22,23,10,9,0.2,0.4
2024-05-17T0000,3003A,120.0522,31.7748,常州市,经开区,颗粒物(PM10),57,63,44,28,16,112,,154,134,35,36,13,11,0.8,0.6
2024-05-17T0000,3010A,119.9025,31.7964,常州市,钟楼,,50,50,37,20,16,134,,153,141,20,25,9,11,0.5,0.5
2024-05-17T0000,3429A,119.8598,31.7066,常州市,武进经发区,颗粒物(PM10),55,60,46,28,20,125,,156,130,30,31,24,10,0.5,0.7
2024-05-17T0000,3430A,119.5826,31.7245,常州市,金坛城区,颗粒物(PM10),63,76,42,36,20,134,,164,146,20,23,9,12,0.6,0.5
2024-05-17T0000,2220A,120.4318,41.5881,朝阳市,西梁,,36,36,28,25,21,50,,132,110,49,26,16,14,0.7,0.6
2024-05-17T0000,2221A,120.4521,41.5646,朝阳市,河畔小区,颗粒物(PM10),51,52,48,27,19,82,,146,130,34,22,15,13,0.7,0.5
2024-05-17T0000,2222A,120.4176,41.5648,朝阳市,八里堡,"颗粒物(PM10),细颗粒物(PM2.5)",58,66,58,41,21,74,,142,124,48,26,17,15,0.9,0.7
2024-05-17T0000,2223A,120.3806,41.5969,朝阳市,农业园区,,49,,33,34,25,65,,146,119,36,23,14,13,0.6,0.5
2024-05-17T0000,1705A,116.6367,23.6719,潮州市,西园路,颗粒物(PM10),51,51,60,25,37,113,,196,149,16,19,4,8,0.3,0.4
2024-05-17T0000,3026A,116.6183,23.6608,潮州市,市政府,,45,45,70,19,36,121,,206,154,16,26,7,16,0.5,0.6
2024-05-17T0000,4036A,116.6461,23.6761,潮州市,金山,,40,40,60,20,34,109,,198,148,14,17,8,9,0.4,0.5
2024-05-17T0000,2472A,113.0073,25.9061,郴州市,马头岭,颗粒物(PM10),58,66,68,26,22,52,,134,109,21,16,4,8,0.8,0.8
2024-05-17T0000,2473A,113.0116,25.8226,郴州市,市职中,细颗粒物(PM2.5),54,55,48,38,32,27,,152,96,32,18,5,10,0.7,0.6
2024-05-17T0000,2474A,113.0161,25.8001,郴州市,兴隆步行街,细颗粒物(PM2.5),64,72,55,46,34,34,,147,99,35,20,6,9,0.8,0.7
2024-05-17T0000,2475A,113.0383,25.8071,郴州市,市审计局,,45,43,46,31,31,57,,154,112,33,25,7,8,0.6,0.6
2024-05-17T0000,2476A,113.0348,25.7759,郴州市,市环保局,颗粒物(PM10),55,60,56,34,30,56,,143,99,31,31,6,7,0.6,0.6
2024-05-17T0000,1431A,103.9728,30.7236,成都市,金泉两河,细颗粒物(PM2.5),110,123,80,83,47,65,,196,147,49,29,5,4,0.7,0.5
2024-05-17T0000,1432A,104.176,30.6872,成都市,十里店,,38,38,60,15,33,115,,172,148,16,26,3,4,0.5,0.6
2024-05-17T0000,1433A,104.079,30.5706,成都市,三瓦窑,,39,39,60,22,37,99,,176,140,24,24,2,3,0.5,0.5
2024-05-17T0000,1434A,104.1114,30.63,成都市,沙河铺,,38,38,52,20,30,100,,159,120,18,23,5,6,0.4,0.5
2024-05-17T0000,1437A,104.0786,30.6531,成都市,君平街,,48,48,71,23,41,97,,193,156,25,26,5,6,0.6,0.7
2024-05-17T0000,1438A,103.613,31.0283,成都市,灵岩寺,,,,,,,,,,,,,,,,
2024-05-17T0000,2880A,104.0239,30.65639,成都市,大石西路,颗粒物(PM10),51,51,67,23,40,89,,197,158,34,29,4,5,0.5,0.6
2024-05-17T0000,3136A,104.2725,30.5589,成都市,龙泉驿区区政府,,43,22,28,14,20,135,,148,131,3,6,3,3,0.4,0.5
2024-05-17T0000,3357A,104.0106,30.6931,成都市,金博路,细颗粒物(PM2.5),62,69,79,44,47,84,,199,152,36,31,2,3,0.7,0.7
2024-05-17T0000,3359A,104.0578,30.5225,成都市,华阳,,39,34,47,22,34,122,,168,146,9,12,2,2,0.4,0.5
2024-05-17T0000,3487A,104.2394,30.5319,成都市,车城东七路,,42,34,45,20,28,134,,152,138,6,9,3,3,0.4,0.5
2024-05-17T0000,3488A,104.3853,30.7453,成都市,青白江技师分院,,41,22,35,17,18,131,,150,134,9,12,4,4,0.5,0.6
2024-05-17T0000,3489A,104.0789,30.4072,成都市,科学城,,40,33,49,19,29,128,,167,148,10,10,3,3,0.6,0.6
2024-05-17T0000,4011A,103.8506,30.6947,成都市,光华大道三段,细颗粒物(PM2.5),138,130,93,105,60,89,,211,157,35,28,2,5,1.1,0.9
2024-05-17T0000,1062A,117.9531,40.9081,承德市,铁路,颗粒物(PM10),54,57,39,37,9,120,,140,131,24,20,11,11,0.4,0.4
2024-05-17T0000,1063A,117.9392,40.9763,承德市,中国银行,颗粒物(PM10),54,57,39,18,11,61,,148,123,36,21,9,10,0.4,0.4
2024-05-17T0000,1064A,117.9503,40.928,承德市,开发区,颗粒物(PM10),53,56,48,19,12,115,,147,139,21,20,8,9,0.4,0.4
2024-05-17T0000,1065A,117.8051,40.9655,承德市,文化中心,颗粒物(PM10),65,79,55,20,12,50,,144,102,53,27,8,10,0.4,0.4
2024-05-17T0000,1066A,117.9268,41.0026,承德市,离宫,,44,44,30,23,13,71,,139,111,34,15,4,5,0.3,0.3
2024-05-17T0000,2314A,117.47,30.6618,池州市,池州学院,颗粒物(PM10),57,64,48,30,27,106,,168,141,20,16,6,6,0.5,0.5
2024-05-17T0000,3237A,117.4918,30.6617,池州市,展览馆,颗粒物(PM10),51,52,53,26,25,107,,164,136,14,13,4,4,0.6,0.6
2024-05-17T0000,3333A,117.5627,30.695,池州市,第八中学,,50,50,50,25,23,105,,170,139,13,11,4,4,0.6,0.5
2024-05-17T0000,3334A,117.5038,30.6243,池州市,第十二中学,,46,46,55,28,25,86,,170,128,16,19,5,6,1.0,0.6
2024-05-17T0000,1744A,118.9233,42.2816,赤峰市,松山一中,颗粒物(PM10),53,56,37,22,15,76,,104,100,37,28,14,11,0.8,0.5
2024-05-17T0000,1745A,118.9576,42.2728,赤峰市,哈达街,颗粒物(PM10),52,54,26,21,7,78,,108,103,33,25,12,8,0.7,0.4
2024-05-17T0000,1746A,118.8788,42.2554,赤峰市,天义路,,47,47,21,13,7,48,,113,98,44,20,11,8,0.7,0.4
2024-05-17T0000,3058A,119.2658,42.0353,赤峰市,银河街,,49,,17,34,20,99,,120,117,20,20,17,16,0.5,0.4
2024-05-17T0000,3286A,118.9359,42.3147,赤峰市,桥北物流园区,颗粒物(PM10),63,75,27,28,15,57,,105,90,60,26,14,10,0.8,0.4
2024-05-17T0000,2521A,107.3476,22.4136,崇左市,市环保局江州分局,颗粒物(PM10),59,67,50,32,28,30,,119,88,23,11,8,8,0.7,0.7
2024-05-17T0000,2522A,107.3702,22.3707,崇左市,城南新区,细颗粒物(PM2.5),55,58,45,39,30,106,,123,113,12,11,7,6,0.9,0.8
2024-05-17T0000,2298A,118.3093,32.3153,滁州市,老年大学,,40,40,44,21,14,113,,156,139,18,16,10,8,0.6,0.5
2024-05-17T0000,2299A,118.3244,32.2786,滁州市,人大宾馆,,46,46,38,25,16,103,,152,135,23,20,9,7,0.6,0.5
2024-05-17T0000,3207A,118.3118,32.3038,滁州市,市政府原办公楼,,46,46,36,23,17,108,,151,133,20,18,8,8,0.5,0.5
2024-05-17T0000,3331A,118.3267,32.2634,滁州市,图书馆,,44,44,38,24,16,106,,151,135,19,17,11,9,0.5,0.5
2024-05-17T0000,2605A,101.5482,25.0441,楚雄彝族自治州,州环境监测站,,31,17,17,17,15,98,,112,109,6,7,6,6,0.6,0.6
2024-05-17T0000,2606A,101.538,25.0492,楚雄彝族自治州,市经济开发区,,31,31,19,20,16,93,,106,103,7,9,4,5,0.6,0.6
2024-05-17T0000,2548A,107.5277,31.2827,达州市,达州职业技术学院,,40,40,53,21,24,18,,138,73,56,28,6,6,0.4,0.4
2024-05-17T0000,2549A,107.5086,31.2186,达州市,市环境监测站,颗粒物(PM10),58,65,67,27,30,39,,140,87,50,40,6,7,0.6,0.7
2024-05-17T0000,2550A,107.4988,31.2132,达州市,凤凰小区,颗粒物(PM10),58,66,66,34,33,37,,148,95,54,36,7,7,0.6,0.7
2024-05-17T0000,2551A,107.5082,31.1986,达州市,达县机关宾馆,细颗粒物(PM2.5),69,83,69,50,34,5,,141,70,87,45,6,5,0.7,0.6
2024-05-17T0000,2552A,107.4644,31.2124,达州市,市政中心,颗粒物(PM10),68,85,67,39,31,21,,149,90,74,42,8,9,0.9,0.8
2024-05-17T0000,2614A,100.1542,25.7054,大理白族自治州,大理市环境监测站,,40,40,34,26,19,106,,114,109,7,14,6,6,0.5,0.5
2024-05-17T0000,2615A,100.2171,25.5811,大理白族自治州,大理古城,,33,31,27,23,18,94,,117,105,11,12,8,8,0.7,0.7
2024-05-17T0000,1109A,121.612,38.9741,大连市,甘井子,颗粒物(PM10),64,78,69,36,27,114,,109,108,30,31,13,11,0.4,0.6
2024-05-17T0000,1110A,121.565,38.9511,大连市,周水子,细颗粒物(PM2.5),64,76,59,46,35,118,,126,103,24,30,10,11,0.4,0.6
2024-05-17T0000,1111A,121.5637,38.8845,大连市,星海三站,细颗粒物(PM2.5),60,68,55,43,27,144,,153,148,11,8,10,9,0.6,0.6
2024-05-17T0000,1112A,121.6302,38.9117,大连市,青泥洼桥,颗粒物(PM10),57,64,58,35,25,125,,138,130,19,25,11,11,0.6,0.7
2024-05-17T0000,1113A,121.6251,38.8638,大连市,傅家庄,颗粒物(PM10),59,68,50,37,24,141,,146,146,18,16,14,10,0.5,0.5
2024-05-17T0000,1114A,121.5213,38.8661,大连市,七贤岭,颗粒物(PM10),87,124,76,40,30,120,,155,134,19,19,10,11,0.5,0.7
2024-05-17T0000,1115A,121.2529,38.8061,大连市,旅顺,细颗粒物(PM2.5),53,48,48,37,27,151,,180,176,14,19,11,11,0.4,0.4
2024-05-17T0000,1116A,121.7485,39.1311,大连市,金州,颗粒物(PM10),63,76,70,38,27,116,,148,134,22,23,11,10,0.7,0.7
2024-05-17T0000,1117A,121.7811,39.0496,大连市,开发区,颗粒物(PM10),67,83,60,47,26,89,,126,108,43,33,11,8,0.7,0.7
2024-05-17T0000,1118A,121.9762,39.0631,大连市,双D港,,33,27,32,23,16,65,,112,85,11,18,7,8,0.5,0.6
2024-05-17T0000,1789A,124.81117,46.03138,大庆市,大同区,,47,47,34,31,24,74,,119,100,22,14,7,7,0.4,0.4
2024-05-17T0000,1790A,125.129,46.533,大庆市,龙凤区,,41,41,29,12,18,83,,112,95,16,19,20,9,0.4,0.4
2024-05-17T0000,1791A,124.902,46.408,大庆市,红岗区,,38,38,20,18,13,87,,123,106,18,12,8,7,0.4,0.4
2024-05-17T0000,1792A,125.153,46.586,大庆市,萨尔图区,,28,25,23,17,12,88,,107,95,13,13,14,9,0.2,0.3
2024-05-17T0000,1793A,124.9042,46.6215,大庆市,让胡路区,,39,29,26,27,19,94,,112,100,14,13,9,5,0.3,0.3
2024-05-17T0000,3481A,125.141,46.634,大庆市,萨区政府监测点,,30,27,21,15,11,96,,116,105,12,12,11,8,0.2,0.1
2024-05-17T0000,1721A,113.3819,40.1097,大同市,果树场,,,,,,,,,,,,,,,,
2024-05-17T0000,1723A,113.2994,40.0758,大同市,云冈宾馆,颗粒物(PM10),76,102,115,34,42,63,,147,106,25,30,6,10,0.9,1
2024-05-17T0000,1724A,113.3444,40.0917,大同市,大同大学,颗粒物(PM10),68,85,99,22,34,68,,146,101,17,30,16,21,0.7,0.7
2024-05-17T0000,1725A,113.2661,40.1269,大同市,安家小村,颗粒物(PM10),68,86,128,15,35,62,,133,102,23,27,9,14,0.4,0.8
2024-05-17T0000,1726A,113.2711,40.0844,大同市,教育学院,颗粒物(PM10),68,86,130,24,37,84,,146,110,15,41,7,15,0.4,1
2024-05-17T0000,3282A,113.3397,40.0597,大同市,大同市卫生学校,颗粒物(PM10),68,86,109,29,36,75,,147,106,16,34,11,15,0.8,0.8
2024-05-17T0000,3565A,113.1367,40.1122,大同市,云冈站,颗粒物(PM10),74,97,110,53,38,47,,145,88,32,26,19,18,0.4,0.4
2024-05-17T0000,3566A,113.1186,40.2556,大同市,图书馆,颗粒物(PM10),59,68,105,22,39,56,,132,92,11,15,10,12,0.6,0.6
2024-05-17T0000,3567A,113.5931,40.0461,大同市,区一中,颗粒物(PM10),77,104,107,33,27,102,,162,115,8,21,4,11,0.2,0.4
2024-05-17T0000,3676A,113.2802,40.0995,大同市,第二人民医院,颗粒物(PM10),65,79,145,20,37,73,,140,106,16,32,9,15,0.4,1.2
2024-05-17T0000,2269A,124.1069,50.4097,大兴安岭地区,科技局,,,40,30,15,15,84,,98,93,8,6,2,3,,0.3
2024-05-17T0000,3663A,124.1164,50.4278,大兴安岭地区,红旗社区,,29,29,20,8,9,88,,105,100,14,10,6,6,0.4,0.4
2024-05-17T0000,1600A,124.3303,40.0625,丹东市,江湾东路,,42,42,35,27,15,38,,108,78,36,14,9,9,0.6,0.4
2024-05-17T0000,1601A,124.4256,40.1503,丹东市,临江后街,,38,38,24,18,11,69,,111,95,15,12,8,8,0.5,0.3
2024-05-17T0000,1602A,124.3933,40.1461,丹东市,元宝山,,45,45,24,16,10,74,,103,90,15,13,13,10,1.0,0.4
2024-05-17T0000,1603A,124.3633,40.1092,丹东市,民主桥,颗粒物(PM10),51,52,35,34,13,35,,100,73,41,17,11,11,0.6,0.3
2024-05-17T0000,3541A,109.5726,19.5167,儋州市,第一中学子站,,30,26,26,3,7,94,,112,109,3,3,4,4,0.5,0.5
2024-05-17T0000,3542A,109.5567,19.5187,儋州市,东坡学校子站,,30,29,30,9,11,96,,111,109,3,3,5,4,0.4,0.5
2024-05-17T0000,2616A,98.5842,24.428,德宏傣族景颇族自治州,德宏州监测站,细颗粒物(PM2.5),65,65,47,47,41,66,,136,97,15,18,2,4,0.9,0.8
2024-05-17T0000,3677A,98.5881,24.4368,德宏傣族景颇族自治州,芒市人民政府综合楼,颗粒物(PM10),53,55,46,32,29,65,,128,93,12,14,4,5,0.6,0.6
2024-05-17T0000,1901A,104.4239,31.1208,德阳市,东山公园,,48,48,64,17,29,122,,148,128,7,15,3,5,0.4,0.5
2024-05-17T0000,1902A,104.3826,31.1317,德阳市,西小区,,45,45,66,23,38,86,,152,117,29,27,2,4,0.5,0.6
2024-05-17T0000,1904A,104.3553,31.1091,德阳市,耐火材料厂,,41,41,69,20,36,96,,172,123,19,28,6,8,0.4,0.6
2024-05-17T0000,3639A,104.4019,31.1244,德阳市,市教育局,颗粒物(PM10),51,52,62,26,33,19,,142,86,87,31,3,3,0.6,0.6
2024-05-17T0000,1622A,116.3032,37.4674,德州市,儿童乐园,颗粒物(PM10),74,97,78,31,19,119,,155,144,20,16,12,12,0.7,0.5
2024-05-17T0000,1624A,116.2991,37.4451,德州市,监理站,颗粒物(PM10),71,92,80,31,20,116,,156,143,20,14,17,16,0.5,0.4
2024-05-17T0000,3066A,116.2721,37.4379,德州市,九衢泉纯净水厂,颗粒物(PM10),67,83,74,24,18,110,,148,134,22,20,10,10,0.5,0.3
2024-05-17T0000,3371A,116.3728,37.4403,德州市,开发区人民医院,颗粒物(PM10),67,83,82,24,18,119,,155,138,9,9,11,13,0.5,0.3
2024-05-17T0000,3372A,116.3572,37.4094,德州市,太阳城中学,颗粒物(PM10),64,78,81,27,24,116,,151,131,14,16,10,12,0.5,0.4
2024-05-17T0000,3511A,116.5652,37.3319,德州市,陵城艺术中心,颗粒物(PM10),60,70,82,19,19,112,,145,132,14,16,7,10,0.5,0.5
2024-05-17T0000,2621A,99.7056,27.8317,迪庆藏族自治州,迪庆州站,,33,28,26,16,14,103,,111,107,9,11,8,8,0.4,0.4
2024-05-17T0000,3180A,99.7136,27.8094,迪庆藏族自治州,质量技术监督局,,32,24,26,10,9,102,,110,104,7,10,7,7,0.4,0.4
2024-05-17T0000,2663A,104.6241,35.5734,定西市,东关小学,颗粒物(PM10),86,121,81,32,25,70,,165,129,29,17,4,5,0.3,0.3
2024-05-17T0000,2664A,104.6194,35.5934,定西市,供电公司,颗粒物(PM10),79,108,75,35,29,20,,158,103,75,22,5,6,0.4,0.3
2024-05-17T0000,1389A,113.7547,23.0494,东莞市,莞城梨川,"颗粒物(PM10),臭氧1小时",60,69,50,25,23,168,,187,167,17,25,9,10,0.8,0.8
2024-05-17T0000,1390A,113.7944,23.0128,东莞市,东城石井,臭氧1小时,62,60,47,23,22,169,,205,179,20,24,8,8,0.6,0.6
2024-05-17T0000,1391A,113.7383,22.9658,东莞市,南城西平,颗粒物(PM10),62,74,51,30,23,134,,200,177,28,34,8,7,0.6,0.8
2024-05-17T0000,3319A,113.7338,23.0381,东莞市,万江金泰,颗粒物(PM10),57,63,50,25,22,153,,177,157,17,25,8,8,0.6,0.6
2024-05-17T0000,3626A,113.7533,23.0202,东莞市,南城元岭,颗粒物(PM10),58,65,52,24,23,158,,205,170,18,29,10,10,0.7,0.7
2024-05-17T0000,3627A,113.7875,23.0457,东莞市,东城主山,臭氧1小时,63,57,46,25,22,170,,198,174,15,24,9,9,0.5,0.6
2024-05-17T0000,1666A,118.6614,37.4309,东营市,市环保局,颗粒物(PM10),58,66,60,19,15,112,,174,141,27,27,12,15,0.2,0.1
2024-05-17T0000,3036A,118.6904,37.4338,东营市,开发区管委会,颗粒物(PM10),71,91,68,22,18,98,,163,132,32,26,8,11,0.5,0.4
2024-05-17T0000,3365A,118.5719,37.565,东营市,垦利区民丰路,细颗粒物(PM2.5),85,68,67,63,16,131,,170,141,21,24,12,12,0.6,0.5
2024-05-17T0000,3498A,118.5055,37.8612,东营市,河口城区,颗粒物(PM10),65,80,66,24,19,98,,167,141,28,14,8,8,0.4,0.2
2024-05-17T0000,3646A,118.4978,37.4623,东营市,胜利站,颗粒物(PM10),62,73,65,22,21,116,,166,142,29,26,14,13,0.7,0.5
2024-05-17T0000,3734A,118.35,37.26,东营市,理想之城,颗粒物(PM10),62,73,69,24,18,84,,166,123,37,23,12,14,0.6,0.6
2024-05-17T0000,1591A,110.0023,39.8129,鄂尔多斯市,综合楼,颗粒物(PM10),135,219,161,53,53,93,,125,104,25,23,8,9,0.5,0.6
2024-05-17T0000,1592A,109.9486,39.8261,鄂尔多斯市,巴音孟克林场办事处,颗粒物(PM10),135,219,153,85,57,84,,121,98,26,19,7,10,0.5,0.6
2024-05-17T0000,1593A,109.7736,39.5986,鄂尔多斯市,康泽苑,颗粒物(PM10),133,215,138,70,47,78,,137,102,16,21,6,7,0.2,0.4
2024-05-17T0000,1594A,109.8119,39.5989,鄂尔多斯市,华泰汽车城,细颗粒物(PM2.5),122,175,126,92,50,52,,128,88,33,27,6,8,0.4,0.5
2024-05-17T0000,1595A,109.9734,39.7884,鄂尔多斯市,奥林花园,颗粒物(PM10),125,200,141,58,48,80,,124,99,28,24,6,10,0.5,0.5
2024-05-17T0000,2436A,114.8938,30.3994,鄂州市,市政府,细颗粒物(PM2.5),80,85,60,59,23,110,,186,163,23,17,15,13,0.7,0.8
2024-05-17T0000,2437A,114.8989,30.3714,鄂州市,赵家坝,细颗粒物(PM2.5),79,88,63,58,24,97,,190,155,20,12,4,4,0.8,0.6
2024-05-17T0000,3654A,114.8094,30.4089,鄂州市,精准医疗中心,颗粒物(PM10),73,95,65,48,24,98,,186,157,35,19,37,15,2.1,0.8
2024-05-17T0000,2454A,109.4978,30.2981,恩施土家族苗族自治州,湖北民院,颗粒物(PM10),61,71,60,39,33,77,,153,126,26,13,8,8,0.6,0.6
2024-05-17T0000,2455A,109.4707,30.2798,恩施土家族苗族自治州,州电力总公司,细颗粒物(PM2.5),60,67,55,43,32,73,,148,122,25,21,8,8,0.6,0.6
2024-05-17T0000,3549A,109.5061,30.3772,恩施土家族苗族自治州,龙凤新区,颗粒物(PM10),54,57,56,36,27,41,,146,94,14,13,6,6,0.7,0.6
2024-05-17T0000,2499A,108.3411,21.6158,防城港市,沙万,,42,35,44,15,21,132,,156,141,11,14,6,8,0.4,0.8
2024-05-17T0000,2500A,108.3514,21.7731,防城港市,防城档案局,,41,38,58,14,26,130,,146,142,16,17,6,5,0.7,0.8
2024-05-17T0000,2501A,108.3506,21.6414,防城港市,大海花园,,45,28,41,11,19,142,,164,155,9,13,5,9,0.4,0.8
2024-05-17T0000,1371A,113.1294,23.0067,佛山市,湾梁,颗粒物(PM10),57,63,58,21,23,154,,250,198,18,30,5,6,0.4,0.5
2024-05-17T0000,1372A,113.1083,23.0478,佛山市,华材职中,颗粒物(PM10),60,70,54,26,27,153,,253,203,21,29,4,5,0.5,0.5
2024-05-17T0000,1373A,113.144,23.0453,佛山市,南海气象局,,50,50,53,30,28,136,,237,183,27,37,5,6,0.5,0.5
2024-05-17T0000,1374A,113.2881,22.8094,佛山市,顺德苏岗,颗粒物(PM10),67,83,45,44,22,150,,235,187,19,27,7,7,0.6,0.5
2024-05-17T0000,1376A,112.8383,22.8678,佛山市,高明孔堂,颗粒物(PM10),56,61,44,15,20,156,,206,190,17,21,7,7,0.5,0.5
2024-05-17T0000,1377A,112.8836,23.1588,佛山市,三水监测站,颗粒物(PM10),60,70,67,27,28,112,,252,188,47,54,10,9,0.5,0.6
2024-05-17T0000,1378A,112.867,23.185,佛山市,三水云东海,颗粒物(PM10),58,65,60,29,38,136,,248,193,39,45,7,6,0.6,0.6
2024-05-17T0000,3625A,113.2544,22.7642,佛山市,容桂街道办,颗粒物(PM10),51,51,43,22,18,157,,218,185,22,31,6,7,0.4,0.4
2024-05-17T0000,1280A,119.3903,26.0543,福州市,鼓山,,,,,,,,,,,,,,,,
2024-05-17T0000,1282A,119.2681,26.0504,福州市,师大,,25,24,40,7,14,79,,134,102,14,12,4,4,0.4,0.4
2024-05-17T0000,1283A,119.2984,26.1028,福州市,五四北路,,,,25,7,17,82,,145,110,23,12,4,4,0.3,0.4
2024-05-17T0000,1284A,119.2648,26.0768,福州市,杨桥西路,,29,29,44,8,16,74,,141,107,18,12,4,4,0.4,0.4
2024-05-17T0000,1285A,119.317,26.0746,福州市,紫阳,,31,22,42,3,15,97,,136,103,9,9,4,4,0.2,0.3
2024-05-17T0000,3048A,119.5799,26.0936,福州市,九龙,,20,17,31,3,8,64,,140,107,13,7,4,4,0.2,0.2
2024-05-17T0000,3526A,119.5189,25.9664,福州市,吴航,,26,24,30,10,11,82,,137,112,15,5,4,4,0.3,0.3
2024-05-17T0000,1755A,123.7977,41.8491,抚顺市,望花区,颗粒物(PM10),67,83,49,20,18,43,,125,79,37,27,6,7,0.4,0.4
2024-05-17T0000,1756A,123.9161,41.8822,抚顺市,顺城区,,35,35,29,18,12,32,,118,67,48,27,8,7,0.4,0.3
2024-05-17T0000,1757A,124.0436,41.8611,抚顺市,东洲区,,22,22,16,12,10,60,,113,90,15,9,4,4,0.2,0.2
2024-05-17T0000,1758A,123.9247,41.8642,抚顺市,新抚区,,39,39,33,19,15,24,,121,66,50,29,9,8,0.3,0.3
2024-05-17T0000,1759A,124.0972,41.8961,抚顺市,大伙房水库,,22,22,16,13,9,67,,118,93,20,10,7,6,0.2,0.2
2024-05-17T0000,1760A,123.7086,41.8391,抚顺市,沈抚新城,颗粒物(PM10),64,77,47,29,22,34,,123,81,43,24,16,13,1.3,0.9
2024-05-17T0000,2376A,116.2127,28.0814,抚州市,桐源党溪,颗粒物(PM10),55,59,68,31,27,41,,161,88,19,8,4,6,0.6,0.6
2024-05-17T0000,2377A,116.3544,27.9831,抚州市,市站,颗粒物(PM10),63,75,72,38,31,44,,170,120,44,14,6,5,0.9,0.8
2024-05-17T0000,2378A,116.3565,27.963,抚州市,血防站,颗粒物(PM10),63,76,73,34,32,36,,186,130,75,16,5,5,0.8,0.7
2024-05-17T0000,2379A,116.3564,28.0007,抚州市,采茶剧团,细颗粒物(PM2.5),62,50,70,44,30,47,,164,115,47,15,3,6,0.9,0.8
2024-05-17T0000,2380A,116.385,27.9647,抚州市,医学分院,颗粒物(PM10),66,82,77,35,26,73,,180,137,47,17,3,5,1.3,1
2024-05-17T0000,2207A,121.6094,41.998,阜新市,工业园区,颗粒物(PM10),55,59,70,35,35,65,,145,109,38,29,25,19,0.6,0.6
2024-05-17T0000,2208A,121.6697,42.0279,阜新市,长青街,细颗粒物(PM2.5),53,42,54,37,37,77,,147,128,39,25,38,28,0.7,1.1
2024-05-17T0000,2209A,121.6673,42.0705,阜新市,农业园区,颗粒物(PM10),54,58,68,27,20,102,,139,127,26,15,28,24,0.5,0.5
2024-05-17T0000,2210A,121.6717,42.0224,阜新市,东苑,细颗粒物(PM2.5),55,53,77,39,39,97,,131,126,36,30,26,37,0.6,1.4
2024-05-17T0000,2211A,121.6506,42.0498,阜新市,玉龙新城,颗粒物(PM10),67,84,58,39,28,12,,137,100,67,30,10,16,0.7,0.6
2024-05-17T0000,2301A,115.8277,32.8929,阜阳市,市监测站,臭氧1小时,72,79,66,43,27,177,,177,176,13,15,8,7,0.6,0.4
2024-05-17T0000,2303A,115.8554,32.8605,阜阳市,开发区,颗粒物(PM10),70,90,70,37,25,166,,175,172,8,11,7,6,0.4,0.3
2024-05-17T0000,2875A,115.784,32.8892,阜阳市,阜阳职业技术学院,臭氧1小时,78,76,66,34,24,182,,184,183,11,14,7,7,0.4,0.4
2024-05-17T0000,3468A,115.7901,32.8613,阜阳市,市规划展馆,臭氧1小时,73,77,71,43,29,178,,183,180,12,12,6,5,0.5,0.4
2024-05-17T0000,3469A,115.836,32.9183,阜阳市,枣园社区,臭氧1小时,75,73,67,43,27,180,,180,179,17,17,7,7,0.5,0.3
2024-05-17T0000,2669A,102.9099,34.9841,甘南藏族自治州,州政府,颗粒物(PM10),98,146,58,44,23,35,,140,114,56,14,8,7,0.8,0.7
2024-05-17T0000,3380A,102.8914,34.9617,甘南藏族自治州,甘肃民族师范学院,颗粒物(PM10),112,174,75,49,21,4,,144,93,82,29,8,8,0.4,0.5
2024-05-17T0000,2570A,101.9603,30.0475,甘孜藏族自治州,水桥子,,16,8,14,6,10,41,,82,53,32,21,2,3,0.3,0.3
2024-05-17T0000,3065A,101.9533,29.9972,甘孜藏族自治州,州环保局,,20,8,18,3,6,63,,82,59,15,22,1,2,0.2,0.3
2024-05-17T0000,3414A,115.8347,28.932,赣江新区,桑海产业园,颗粒物(PM10),100,149,74,49,27,45,,173,116,71,24,8,10,0.8,0.6
2024-05-17T0000,2362A,114.9017,25.9149,赣州市,通天岩,,,,,,,,,,,,,,,,
2024-05-17T0000,2363A,114.9367,25.8664,赣州市,地委,颗粒物(PM10),57,63,52,27,26,50,,160,106,16,18,8,8,0.5,0.7
2024-05-17T0000,2364A,114.9461,25.8481,赣州市,气象台,颗粒物(PM10),55,60,48,31,27,50,,170,115,9,17,8,10,0.5,0.4
2024-05-17T0000,2365A,114.9322,25.8333,赣州市,市图书馆,,48,48,52,30,26,50,,167,106,38,24,4,6,0.8,0.8
2024-05-17T0000,2366A,114.8905,25.8471,赣州市,华坚鞋城,颗粒物(PM10),63,76,58,33,28,49,,165,108,40,26,9,14,0.6,0.5
2024-05-17T0000,3109A,115.0093,25.8613,赣州市,赣县区卫计委,,43,43,49,29,26,46,,162,102,40,25,4,5,0.6,0.6
2024-05-17T0000,2683A,106.2319,36.1417,固原市,马园,颗粒物(PM10),79,108,88,40,30,30,,158,118,66,20,6,6,0.3,0.2
2024-05-17T0000,2684A,106.2792,36.0022,固原市,监测站,颗粒物(PM10),74,97,78,26,28,74,,154,126,29,13,7,4,0.4,0.3
2024-05-17T0000,2685A,106.2375,36.0211,固原市,新区,颗粒物(PM10),67,83,67,33,26,25,,155,118,70,14,2,4,0.6,0.3
2024-05-17T0000,3522A,106.2177,35.9959,固原市,原州区十五小,颗粒物(PM10),62,73,63,28,26,125,,163,149,18,10,6,6,0.2,0.2
2024-05-17T0000,2543A,106.6308,30.5278,广安市,小平旧居,,,,,,,,,,,,,,,,
2024-05-17T0000,2544A,106.6303,30.4576,广安市,市委,颗粒物(PM10),62,73,66,37,33,84,,160,127,37,22,13,10,0.6,0.5
2024-05-17T0000,2545A,106.6271,30.4663,广安市,友谊中学,颗粒物(PM10),54,57,55,35,31,79,,160,130,38,25,10,8,0.6,0.6
2024-05-17T0000,2547A,106.6388,30.4551,广安市,广电花园,颗粒物(PM10),54,57,58,31,32,78,,154,127,32,22,12,9,0.7,0.7
2024-05-17T0000,2902A,106.6351,30.4865,广安市,北辰小学,颗粒物(PM10),56,62,59,33,30,63,,162,136,32,20,9,9,0.7,0.6
2024-05-17T0000,2523A,105.8945,32.4535,广元市,黑石坡,细颗粒物(PM2.5),57,52,44,40,30,123,,129,126,7,12,6,9,0.3,0.4
2024-05-17T0000,2524A,105.821,32.4444,广元市,老城,颗粒物(PM10),56,62,54,32,29,44,,138,108,66,33,10,10,0.6,0.6
2024-05-17T0000,2526A,105.8628,32.4287,广元市,监测站,颗粒物(PM10),60,69,56,34,34,97,,145,127,12,13,5,6,0.4,0.4
2024-05-17T0000,3617A,105.8047,32.4166,广元市,经开区,细颗粒物(PM2.5),69,72,77,50,52,73,,145,124,32,21,4,7,0.5,0.6
2024-05-17T0000,1345A,113.2347,23.1423,广州市,广雅中学,颗粒物(PM10),61,71,64,27,26,133,,230,184,30,40,6,7,0.6,0.6
2024-05-17T0000,1346A,113.2612,23.105,广州市,市五中,颗粒物(PM10),58,65,54,30,27,138,,242,199,27,34,5,6,0.6,0.6
2024-05-17T0000,1348A,113.3478,23.0916,广州市,广东商学院,颗粒物(PM10),56,62,55,29,26,117,,232,174,37,43,6,7,0.6,0.6
2024-05-17T0000,1349A,113.4332,23.1047,广州市,市八十六中,颗粒物(PM10),58,65,63,29,24,82,,221,158,58,51,6,8,0.7,0.7
2024-05-17T0000,1350A,113.3505,22.9483,广州市,番禺中学,颗粒物(PM10),56,62,51,36,19,134,,257,191,31,34,6,6,0.5,0.5
2024-05-17T0000,1351A,113.2146,23.3916,广州市,花都师范,颗粒物(PM10),62,73,76,28,32,98,,210,155,49,42,6,7,0.5,0.6
2024-05-17T0000,1352A,113.2597,23.1331,广州市,市监测站,颗粒物(PM10),56,61,55,27,27,125,,222,177,30,40,6,7,0.5,0.5
2024-05-17T0000,1353A,113.5618,23.312,广州市,九龙镇镇龙,颗粒物(PM10),71,91,61,37,31,36,,150,110,76,34,7,7,0.6,0.6
2024-05-17T0000,1354A,113.2765,23.1544,广州市,麓湖,颗粒物(PM10),59,67,61,28,27,129,,218,164,31,39,6,7,0.6,0.6
2024-05-17T0000,1355A,113.443,23.3035,广州市,帽峰山森林公园,颗粒物(PM10),58,66,49,37,30,130,,184,158,29,33,7,8,0.4,0.5
2024-05-17T0000,2846A,113.3221,23.1322,广州市,体育西,颗粒物(PM10),57,64,59,24,25,125,,229,176,31,36,6,7,0.5,0.6
2024-05-17T0000,3298A,113.5717,23.5491,广州市,从化街口,颗粒物(PM10),52,53,41,29,22,35,,150,84,44,32,6,6,0.8,0.7
2024-05-17T0000,3299A,113.3472,23.3692,广州市,白云竹料,颗粒物(PM10),59,68,57,32,28,110,,186,145,44,35,5,5,0.5,0.6
2024-05-17T0000,3300A,113.2981,23.237,广州市,白云嘉禾,颗粒物(PM10),60,69,59,25,26,113,,198,161,48,44,6,7,0.7,0.7
2024-05-17T0000,3301A,113.4256,23.1716,广州市,黄埔科学城,颗粒物(PM10),58,65,55,22,28,106,,204,167,36,33,8,8,0.7,0.7
2024-05-17T0000,3302A,113.3942,23.0483,广州市,番禺大学城,颗粒物(PM10),56,61,54,31,26,117,,230,175,40,40,7,9,0.5,0.3
2024-05-17T0000,3303A,113.4922,22.8168,广州市,南沙黄阁,颗粒物(PM10),57,64,55,24,22,161,,220,170,20,35,7,7,0.6,0.7
2024-05-17T0000,3304A,113.5342,22.7896,广州市,南沙街,颗粒物(PM10),56,62,47,34,23,142,,211,169,25,31,7,8,0.6,0.6
2024-05-17T0000,3443A,113.2902,23.5544,广州市,花都梯面,颗粒物(PM10),52,54,38,31,22,116,,180,116,32,32,5,5,0.6,0.5
2024-05-17T0000,3445A,113.7858,23.7478,广州市,从化良口,,27,16,25,10,15,86,,139,112,16,15,6,6,0.5,0.5
2024-05-17T0000,3446A,113.8051,23.2614,广州市,增城荔城,颗粒物(PM10),60,70,49,27,24,153,,160,135,24,21,7,7,0.7,0.6
2024-05-17T0000,2505A,109.568,23.1478,贵港市,德智高中,,,,,,,,,,,,,,,,
2024-05-17T0000,2506A,109.6047,23.0666,贵港市,江南子站,细颗粒物(PM2.5),100,114,81,75,44,56,,174,124,45,26,10,10,0.9,0.8
2024-05-17T0000,2507A,109.6014,23.0948,贵港市,贵城子站,细颗粒物(PM2.5),83,108,71,61,42,63,,168,127,43,17,12,9,0.9,0.7
2024-05-17T0000,2508A,109.5669,23.1065,贵港市,荷城子站,颗粒物(PM10),63,75,63,36,33,77,,158,120,31,14,9,10,0.5,0.6
2024-05-17T0000,3405A,109.5886,23.1172,贵港市,新世纪学校,颗粒物(PM10),58,66,65,36,36,77,,168,125,25,12,10,11,0.8,0.8
2024-05-17T0000,1439A,106.6899,26.5998,贵阳市,马鞍山,,36,36,32,22,15,48,,88,56,16,15,3,3,0.7,0.7
2024-05-17T0000,1440A,106.6971,26.5694,贵阳市,市环保站,,48,44,41,33,26,62,,92,67,24,25,5,4,0.5,0.5
2024-05-17T0000,1441A,106.6243,26.6266,贵阳市,鉴湖路,,48,48,36,24,18,69,,102,76,9,12,3,3,0.4,0.4
2024-05-17T0000,1442A,106.7487,26.6343,贵阳市,燕子冲,,45,41,37,31,25,49,,95,59,14,15,6,7,0.7,0.6
2024-05-17T0000,1443A,106.6555,26.4365,贵阳市,碧云窝,,41,41,38,22,16,62,,98,78,15,12,4,5,0.5,0.5
2024-05-17T0000,1444A,106.694,26.5161,贵阳市,中院村,,46,46,44,24,21,62,,85,59,12,23,9,8,0.7,0.5
2024-05-17T0000,1445A,106.7109,26.6027,贵阳市,红边门,,46,46,42,31,28,68,,96,68,20,25,7,6,0.6,0.6
2024-05-17T0000,1446A,106.7164,26.5699,贵阳市,新华路,,46,46,40,24,22,66,,102,70,20,20,7,8,0.5,0.5
2024-05-17T0000,1447A,106.674,26.5424,贵阳市,太慈桥,,39,39,34,22,17,59,,92,50,14,18,4,5,0.3,0.3
2024-05-17T0000,1552A,106.805,26.3003,贵阳市,桐木岭,,,,,,,,,,,,,,,,
2024-05-17T0000,1862A,110.4144,25.3167,桂林市,电子科大尧山校区,颗粒物(PM10),52,53,60,33,30,52,,129,94,9,8,6,8,0.5,0.5
2024-05-17T0000,1863A,110.2819,25.2697,桂林市,监测站,颗粒物(PM10),55,59,77,36,30,74,,162,109,16,20,9,12,0.7,0.7
2024-05-17T0000,1864A,110.3089,25.2708,桂林市,龙隐路小学,颗粒物(PM10),57,63,66,36,36,47,,148,96,27,17,7,14,0.9,0.7
2024-05-17T0000,1865A,110.2869,25.2178,桂林市,八中,颗粒物(PM10),55,60,71,35,35,48,,152,100,27,21,7,10,0.7,0.7
2024-05-17T0000,3403A,110.1764,25.2381,桂林市,创业大厦,颗粒物(PM10),64,78,69,41,36,28,,176,112,65,22,9,16,0.7,0.7
2024-05-17T0000,3531A,110.296,25.1253,桂林市,旅游学院,,35,31,48,24,28,66,,148,97,14,18,6,10,0.5,0.6
2024-05-17T0000,2674A,100.2561,34.4714,果洛藏族自治州,玛沁县大武镇,,38,,13,18,11,120,,137,128,15,12,11,11,0.4,0.4
2024-05-17T0000,1129A,126.5422,45.755,哈尔滨市,岭北,,26,26,30,15,17,50,,99,74,33,33,11,13,0.9,0.6
2024-05-17T0000,1130A,126.561,45.8167,哈尔滨市,松北商大,,35,35,32,14,10,29,,97,66,45,27,5,5,0.6,0.5
2024-05-17T0000,1131A,126.979,45.5419,哈尔滨市,阿城会宁,,44,44,25,11,9,20,,93,67,31,16,8,6,0.5,0.3
2024-05-17T0000,1132A,126.599,45.7222,哈尔滨市,南岗学府路,颗粒物(PM10),61,72,49,33,17,5,,101,60,74,35,6,7,1.3,0.7
2024-05-17T0000,1133A,126.689,45.7733,哈尔滨市,太平宏伟公园,颗粒物(PM10),51,52,63,24,23,20,,98,59,63,37,8,9,0.8,0.6
2024-05-17T0000,1134A,126.635,45.7667,哈尔滨市,道外承德广场,,,,47,,28,,,84,,,41,,8,,0.9
2024-05-17T0000,1135A,126.685,45.7319,哈尔滨市,香坊红旗大街,颗粒物(PM10),64,78,61,40,27,5,,96,53,80,40,14,14,0.9,0.5
2024-05-17T0000,1136A,126.6411,45.7258,哈尔滨市,动力和平路,,37,37,47,20,27,28,,98,68,55,36,12,11,0.7,0.6
2024-05-17T0000,1137A,126.593,45.7478,哈尔滨市,道里建国路,,43,43,41,27,20,13,,97,61,84,37,12,14,1.1,1.6
2024-05-17T0000,1138A,126.615,45.61,哈尔滨市,平房东轻厂,颗粒物(PM10),55,60,45,18,17,42,,97,67,41,26,8,7,0.3,0.4
2024-05-17T0000,1139A,126.595,45.9855,哈尔滨市,呼兰师专,颗粒物(PM10),53,56,39,32,19,47,,101,82,48,32,9,7,0.5,0.4
2024-05-17T0000,1140A,126.6206,45.6842,哈尔滨市,省农科院,二氧化氮,55,57,49,30,28,4,,101,50,109,44,12,14,0.5,0.5
2024-05-17T0000,2688A,93.5128,42.8172,哈密市,地区监测站,颗粒物(PM10),500,973,1027,351,349,54,,72,61,21,24,4,4,0.3,0.4
2024-05-17T0000,2689A,93.4961,42.8328,哈密市,哈密师范学校,颗粒物(PM10),500,747,846,271,291,43,,64,49,22,24,6,6,0.4,0.6
2024-05-17T0000,2671A,100.9048,36.9639,海北藏族自治州,海晏县西海镇,颗粒物(PM10),56,61,84,29,29,127,,146,135,9,11,12,12,0.4,0.4
2024-05-17T0000,3867A,102.0738,36.5056,海东市,平安区公安北苑,细颗粒物(PM2.5),68,84,112,49,63,119,,155,132,12,17,11,10,0.5,0.6
2024-05-17T0000,1409A,110.576,19.9507,海口市,东寨港,,,,,,,,,,,,,,,,
2024-05-17T0000,1410A,110.3232,20.0574,海口市,海南大学,,44,44,34,18,13,110,,131,127,18,10,5,5,0.3,0.4
2024-05-17T0000,1411A,110.283,20.0053,海口市,秀英海南医院,,41,41,32,17,13,121,,130,128,5,5,4,4,0.3,0.3
2024-05-17T0000,1412A,110.338,19.9969,海口市,海南师范大学,,42,42,31,20,13,117,,129,125,4,3,6,6,0.3,0.4
2024-05-17T0000,1413A,110.33,20.0356,海口市,龙华路环保局宿舍,,40,40,32,16,12,112,,129,123,10,4,7,7,0.3,0.3
2024-05-17T0000,3539A,110.5111,19.9736,海口市,桂林洋子站,,41,41,31,15,12,114,,128,125,4,3,6,6,0.3,0.3
2024-05-17T0000,2673A,100.6188,36.2866,海南藏族自治州,共和县恰卜恰镇,颗粒物(PM10),56,61,39,17,14,134,,153,139,12,12,10,9,0.5,0.5
2024-05-17T0000,2676A,97.3731,37.3753,海西蒙古族藏族自治州,德令哈市,颗粒物(PM10),80,110,59,35,22,99,,150,126,11,6,6,6,0.5,0.5
2024-05-17T0000,1048A,114.5302,36.6116,邯郸市,东污水处理厂,,43,33,45,24,26,135,,155,152,10,20,9,12,0.9,0.6
2024-05-17T0000,1049A,114.4918,36.5713,邯郸市,矿院,,40,32,44,27,23,125,,153,147,15,20,10,12,1.1,0.8
2024-05-17T0000,1050A,114.484,36.6133,邯郸市,丛台公园,,42,39,58,23,23,133,,154,150,9,17,7,10,0.6,0.6
2024-05-17T0000,3458A,114.7895,36.5593,邯郸市,香泉濮院小区,,50,50,69,20,22,136,,163,159,11,12,9,13,0.7,0.4
2024-05-17T0000,3579A,114.50634,36.77178,邯郸市,永年区实验高中,细颗粒物(PM2.5),58,62,80,41,30,147,,163,160,11,25,9,21,0.3,0.8
2024-05-17T0000,3580A,114.20016,36.44293,邯郸市,峰峰矿区临水派出所,颗粒物(PM10),53,56,62,25,21,143,,167,160,6,11,9,10,0.8,0.7
2024-05-17T0000,2634A,106.9893,33.1842,汉中市,汉川机床厂子校,细颗粒物(PM2.5),59,46,53,42,26,61,,152,117,21,9,5,5,0.7,0.7
2024-05-17T0000,2635A,107.0154,33.0706,汉中市,市监测站,颗粒物(PM10),70,90,66,45,29,58,,156,115,40,13,11,9,0.7,0.5
2024-05-17T0000,2636A,107.0089,33.1138,汉中市,鑫源开发区,细颗粒物(PM2.5),65,69,61,47,28,74,,158,118,39,13,11,9,0.7,0.5
2024-05-17T0000,2637A,107.007,33.0323,汉中市,南郑大河坎水厂,细颗粒物(PM2.5),97,103,68,72,39,52,,132,98,21,11,9,9,0.9,0.7
2024-05-17T0000,1223A,120.2072,30.2111,杭州市,滨江,,45,45,31,31,16,71,,148,121,32,19,5,5,0.5,0.4
2024-05-17T0000,1224A,120.0633,30.2747,杭州市,西溪,,29,29,22,15,8,29,,130,93,39,22,6,6,0.6,0.5
2024-05-17T0000,1226A,120.3461,30.3153,杭州市,下沙,细颗粒物(PM2.5),83,105,51,61,17,8,,136,99,131,37,11,8,0.8,0.4
2024-05-17T0000,1227A,120.1269,30.2456,杭州市,卧龙桥,,24,24,28,14,12,45,,141,86,20,16,4,5,0.5,0.4
2024-05-17T0000,1228A,120.1903,30.2692,杭州市,浙江农大,颗粒物(PM10),86,122,42,60,15,36,,141,103,69,24,8,7,0.6,0.3
2024-05-17T0000,1230A,120.1197,30.3119,杭州市,和睦小学,细颗粒物(PM2.5),79,102,30,58,15,38,,137,104,29,24,5,4,0.8,0.5
2024-05-17T0000,1231A,120.3019,30.4183,杭州市,临平镇,颗粒物(PM10),69,87,40,44,16,43,,146,115,60,27,6,6,0.7,0.4
2024-05-17T0000,1232A,120.2697,30.1819,杭州市,城厢镇,,46,46,28,14,8,76,,136,111,38,28,6,6,0.5,0.4
2024-05-17T0000,1233A,120.0883,30.1808,杭州市,云栖,,22,22,23,12,10,44,,136,86,38,24,7,7,0.4,0.4
2024-05-17T0000,3557A,119.9464,30.0494,杭州市,镇二中,,48,42,34,33,15,27,,120,65,57,34,8,8,0.7,0.6
2024-05-17T0000,3558A,119.7183,30.2367,杭州市,市府大楼,,34,34,31,20,16,58,,124,91,24,17,6,6,0.5,0.4
2024-05-17T0000,3656A,120.1556,30.2864,杭州市,消防大队,颗粒物(PM10),94,138,39,61,18,26,,144,96,98,32,8,7,0.8,0.5
2024-05-17T0000,1270A,117.1959,31.7848,合肥市,明珠广场,颗粒物(PM10),54,58,48,27,23,120,,146,134,27,27,8,9,0.6,0.5
2024-05-17T0000,1271A,117.3072,31.8764,合肥市,三里街,颗粒物(PM10),52,53,46,27,16,116,,141,133,28,31,7,8,0.3,0.3
2024-05-17T0000,1272A,117.2588,31.8707,合肥市,琥珀山庄,,46,46,41,22,11,129,,152,143,19,18,10,11,0.3,0.3
2024-05-17T0000,1273A,117.1604,31.9052,合肥市,董铺水库,颗粒物(PM10),60,70,46,29,11,142,,160,151,18,17,2,2,0.3,0.3
2024-05-17T0000,1274A,117.25,31.8571,合肥市,长江中路,颗粒物(PM10),53,56,48,24,28,124,,138,133,17,20,6,7,0.5,0.4
2024-05-17T0000,1275A,117.266,31.9436,合肥市,庐阳区,颗粒物(PM10),60,70,44,36,22,120,,151,140,20,16,5,4,0.3,0.2
2024-05-17T0000,1276A,117.336,31.8586,合肥市,瑶海区,颗粒物(PM10),57,63,51,24,22,77,,137,120,49,29,8,8,0.5,0.5
2024-05-17T0000,1277A,117.3027,31.7964,合肥市,包河区,颗粒物(PM10),53,56,40,19,13,98,,149,136,37,19,7,7,0.3,0.3
2024-05-17T0000,1278A,117.2776,31.7385,合肥市,滨湖新区,,46,46,40,22,17,129,,143,137,14,14,6,6,0.4,0.3
2024-05-17T0000,1279A,117.1318,31.8403,合肥市,高新区,颗粒物(PM10),62,73,46,30,17,115,,146,135,30,23,8,8,0.6,0.5
2024-05-17T0000,3464A,117.3803,31.9147,合肥市,高教基地,颗粒物(PM10),52,53,39,22,13,96,,152,137,21,15,6,6,0.3,0.3
2024-05-17T0000,3614A,79.924,37.0877,和田地区,地区环保局,颗粒物(PM10),158,266,237,65,65,66,,125,109,29,12,5,7,0.7,0.5
2024-05-17T0000,3615A,79.9131,37.113,和田地区,市环保局,颗粒物(PM10),118,185,203,64,68,78,,117,105,26,21,7,7,0.7,0.7
2024-05-17T0000,2516A,108.2011,24.715,河池市,东仁乐园,颗粒物(PM10),56,61,62,27,25,5,,16,8,17,8,3,3,0.8,0.7
2024-05-17T0000,2517A,108.0497,24.6947,河池市,市环保站,颗粒物(PM10),51,51,42,26,21,20,,88,52,30,14,8,8,0.6,0.6
2024-05-17T0000,2518A,108.0983,24.6989,河池市,市疾控中心,颗粒物(PM10),54,57,45,27,25,15,,93,50,34,17,9,10,0.6,0.6
2024-05-17T0000,1696A,114.6778,23.7569,河源市,源西,,,,,,,,,,,,,,,,
2024-05-17T0000,1697A,114.6944,23.7586,河源市,东埔,颗粒物(PM10),62,73,45,37,24,136,,147,113,18,22,8,8,0.7,0.7
2024-05-17T0000,1698A,114.6892,23.7233,河源市,老城,颗粒物(PM10),60,69,43,32,20,156,,145,112,15,16,7,7,0.6,0.5
2024-05-17T0000,1718A,115.4208,35.2464,菏泽市,气象局,颗粒物(PM10),63,76,94,17,25,141,,167,151,12,20,4,8,0.3,0.4
2024-05-17T0000,1719A,115.4747,35.2375,菏泽市,市政协,颗粒物(PM10),52,53,86,19,30,139,,164,153,6,12,2,6,0,0.1
2024-05-17T0000,3374A,115.5564,35.0891,菏泽市,定陶老年大学,,40,34,76,7,25,128,,150,131,10,20,3,9,0.5,0.5
2024-05-17T0000,3647A,115.4702,35.2706,菏泽市,菏泽医专,颗粒物(PM10),54,57,78,9,13,147,,167,154,7,14,5,6,0.2,0.3
2024-05-17T0000,2514A,111.5264,24.4172,贺州市,环保小区,,,64,62,43,30,,,137,,21,20,7,8,0.7,0.7
2024-05-17T0000,2515A,111.5608,24.4078,贺州市,政协大楼,颗粒物(PM10),57,63,56,34,25,55,,148,101,27,22,11,10,0.6,0.6
2024-05-17T0000,3534A,111.4744,24.4553,贺州市,西湾,"颗粒物(PM10),细颗粒物(PM2.5)",57,63,68,40,33,28,,131,69,36,25,6,8,0.6,0.6
2024-05-17T0000,2385A,114.17,35.9019,鹤壁市,市监测站,颗粒物(PM10),54,58,81,31,38,144,,168,160,5,16,7,15,0.7,0.6
2024-05-17T0000,2386A,114.2956,35.7511,鹤壁市,市交警支队,颗粒物(PM10),52,53,70,25,24,132,,179,160,14,22,8,11,0.3,0.4
2024-05-17T0000,2387A,114.2878,35.7306,鹤壁市,迎宾馆,,43,42,75,28,33,135,,182,162,14,21,12,14,0.4,0.5
2024-05-17T0000,3474A,114.2617,35.6822,鹤壁市,大新区,,44,44,94,18,34,103,,168,140,14,30,9,14,0.5,0.6
2024-05-17T0000,3596A,114.1572,35.9603,鹤壁市,南山宾馆,颗粒物(PM10),60,70,73,40,30,136,,173,159,18,21,10,14,0.7,0.7
2024-05-17T0000,2244A,130.2537,47.3416,鹤岗市,哈啤分公司,,29,29,18,9,9,54,,77,59,6,6,12,12,0.5,0.5
2024-05-17T0000,2245A,130.2684,47.3086,鹤岗市,斯达机电,,27,27,19,18,12,63,,79,61,7,10,11,10,0.4,0.4
2024-05-17T0000,2246A,130.3114,47.3388,鹤岗市,东山纸板厂,颗粒物(PM10),137,223,35,17,13,2,,75,37,36,15,16,14,1.3,0.7
2024-05-17T0000,2247A,130.1097,47.3382,鹤岗市,五号水库,,19,19,15,7,6,58,,89,65,6,6,11,11,0.2,0.2
2024-05-17T0000,2263A,127.4833,50.2524,黑河市,交通局,,24,22,19,15,14,75,,93,82,10,10,24,9,0.2,0.2
2024-05-17T0000,2264A,127.5144,50.2341,黑河市,环保局,,27,17,14,15,11,84,,96,88,7,8,4,4,0.3,0.3
2024-05-17T0000,2265A,127.5291,50.2472,黑河市,大黑河岛,,,,,,,,,,,,,,,,
2024-05-17T0000,1074A,115.6838,37.7541,衡水市,电机北厂,颗粒物(PM10),65,79,56,31,16,127,,150,146,11,13,5,5,0.4,0.3
2024-05-17T0000,1075A,115.6303,37.7316,衡水市,市监测站,颗粒物(PM10),62,74,56,27,14,122,,149,143,17,18,7,6,0.4,0.3
2024-05-17T0000,3188A,115.6683,37.7217,衡水市,市城管局,颗粒物(PM10),56,61,53,31,20,119,,149,143,19,18,4,4,0.4,0.3
2024-05-17T0000,3459A,115.5989,37.5491,衡水市,地表水厂,颗粒物(PM10),62,74,62,23,17,110,,142,133,18,19,6,4,0.5,0.4
2024-05-17T0000,2456A,112.5003,26.9167,衡阳市,原169医院,颗粒物(PM10),68,85,78,43,38,83,,166,126,12,12,5,6,0.9,0.8
2024-05-17T0000,2457A,112.6194,26.9258,衡阳市,衡阳化工总厂,"颗粒物(PM10),细颗粒物(PM2.5)",80,110,93,59,42,96,,217,163,22,15,14,13,0.8,0.7
2024-05-17T0000,2458A,112.6211,26.8956,衡阳市,珠晖区环保局,"颗粒物(PM10),细颗粒物(PM2.5)",67,83,87,48,40,131,,219,176,16,19,16,11,0.8,0.8
2024-05-17T0000,2459A,112.6197,26.8733,衡阳市,市委党校,颗粒物(PM10),82,114,88,57,37,111,,214,160,22,16,16,11,0.8,0.7
2024-05-17T0000,2460A,112.6006,26.8919,衡阳市,市监测站,细颗粒物(PM2.5),77,97,89,56,43,129,,222,168,18,15,17,12,0.9,1
2024-05-17T0000,2461A,112.5664,26.9056,衡阳市,真空机电公司,颗粒物(PM10),70,89,87,44,41,120,,206,166,26,17,15,11,0.9,0.8
2024-05-17T0000,3399A,112.6703,26.882,衡阳市,师范学院,细颗粒物(PM2.5),93,112,87,69,43,93,,202,147,28,17,16,14,0.8,0.7
2024-05-17T0000,2608A,103.3772,23.3993,红河哈尼族彝族自治州,污水处理厂,,,,21,15,17,,,88,81,5,9,6,12,0.4,0.5
2024-05-17T0000,2609A,103.3861,23.35,红河哈尼族彝族自治州,监测站,,25,13,14,9,9,80,,83,80,8,11,14,12,0.3,0.4
2024-05-17T0000,3038A,103.3758,23.368,红河哈尼族彝族自治州,州图书馆,,24,,15,12,14,76,,76,76,4,8,4,9,0.4,0.4
2024-05-17T0000,1090A,111.6507,40.7517,呼和浩特市,呼市一监,,48,48,78,26,31,53,,141,98,33,27,5,9,0.4,0.5
2024-05-17T0000,1091A,111.6572,40.8033,呼和浩特市,小召,,41,41,79,18,25,46,,120,89,42,34,6,9,0.5,0.4
2024-05-17T0000,1094A,111.7516,40.8369,呼和浩特市,如意水处理厂,,50,50,78,11,21,41,,119,85,43,37,5,8,0.3,0.4
2024-05-17T0000,1095A,111.7276,40.8062,呼和浩特市,二十九中,,45,45,82,20,29,67,,130,99,25,31,2,5,0.4,0.5
2024-05-17T0000,1096A,111.5512,40.7866,呼和浩特市,工大金川校区,,45,45,81,16,29,56,,122,84,29,41,4,7,0.3,0.3
2024-05-17T0000,1097A,111.717,40.7612,呼和浩特市,化肥厂生活区,,46,46,87,17,33,58,,131,95,34,27,5,9,0.4,0.5
2024-05-17T0000,3698A,111.5968,40.8178,呼和浩特市,红旗小学,颗粒物(PM10),52,53,99,16,30,51,,124,93,41,40,3,6,0.3,0.4
2024-05-17T0000,3699A,111.6518,40.8389,呼和浩特市,海东办,颗粒物(PM10),54,58,86,16,30,29,,121,89,58,37,4,6,0.3,0.4
2024-05-17T0000,2192A,119.7594,49.2261,呼伦贝尔市,区环保局,,46,46,37,22,13,63,,103,85,16,14,5,5,0.4,0.3
2024-05-17T0000,3061A,119.7512,49.1577,呼伦贝尔市,国华电力东,,33,33,28,17,10,54,,107,81,6,6,3,3,0.2,0.2
2024-05-17T0000,1250A,120.0751,30.8669,湖州市,城西水厂,颗粒物(PM10),68,85,43,35,14,102,,142,131,36,32,6,5,0.7,0.5
2024-05-17T0000,2873A,120.0875,30.8955,湖州市,仁皇山新区,颗粒物(PM10),57,64,38,35,14,103,,144,132,35,32,7,6,0.6,0.5
2024-05-17T0000,2907A,120.1844,30.8596,湖州市,吴兴区站,颗粒物(PM10),57,64,37,27,13,79,,146,130,35,29,6,6,0.6,0.4
2024-05-17T0000,3562A,120.4148,30.8538,湖州市,南浔区站,颗粒物(PM10),56,61,36,24,14,54,,143,121,44,25,8,6,0.4,0.3
2024-05-17T0000,1607A,120.9092,40.7136,葫芦岛市,龙港区,细颗粒物(PM2.5),63,58,57,45,26,133,,138,118,14,27,10,27,0.7,0.8
2024-05-17T0000,1608A,120.8392,40.7514,葫芦岛市,化工街,颗粒物(PM10),54,58,68,22,20,110,,144,119,20,40,12,19,1.2,1.2
2024-05-17T0000,1609A,120.8341,40.7073,葫芦岛市,新区,细颗粒物(PM2.5),68,57,52,49,25,128,,145,123,14,34,7,11,0.6,0.8
2024-05-17T0000,1610A,120.8695,40.7677,葫芦岛市,东城区,细颗粒物(PM2.5),57,,53,40,23,94,,142,114,19,37,6,20,0.9,1.1
2024-05-17T0000,2482A,109.5981,27.5721,怀化市,林科所,颗粒物(PM10),57,63,74,29,29,131,,169,144,6,10,11,7,0.8,0.8
2024-05-17T0000,2483A,109.9453,27.5444,怀化市,河西地税局,细颗粒物(PM2.5),59,61,77,42,39,56,,153,100,16,13,6,6,0.7,0.6
2024-05-17T0000,2484A,109.9781,27.5342,怀化市,市四医院,颗粒物(PM10),79,108,102,54,46,60,,161,109,31,19,6,7,0.8,0.6
2024-05-17T0000,2485A,109.9972,27.5578,怀化市,监测楼,颗粒物(PM10),71,92,97,41,39,41,,151,,34,15,7,11,0.7,0.7
2024-05-17T0000,2486A,110.0394,27.583,怀化市,市委党校,颗粒物(PM10),61,71,99,42,38,72,,165,118,23,12,5,9,0.6,0.5
2024-05-17T0000,1210A,119.036,33.5981,淮安市,钵池山,,41,41,40,18,15,110,,150,136,24,21,10,10,0.7,0.5
2024-05-17T0000,1211A,119.007,33.575,淮安市,北京南路,,48,48,49,21,20,98,,148,131,31,27,14,12,0.4,0.4
2024-05-17T0000,1212A,118.989,33.6067,淮安市,市监测站,,41,41,42,27,19,92,,149,128,39,24,18,11,0.9,0.6
2024-05-17T0000,1213A,119.135,33.5039,淮安市,楚州区监测站,,42,34,55,29,36,110,,154,136,24,35,8,9,0.6,0.6
2024-05-17T0000,1214A,119.0186,33.6297,淮安市,淮阴区监测站,,41,41,42,20,25,104,,146,134,30,23,10,9,0.5,0.5
2024-05-17T0000,3426A,118.8755,33.2894,淮安市,新华书店,,38,38,38,25,21,91,,148,124,31,23,7,7,0.6,0.5
2024-05-17T0000,2282A,116.8004,33.975,淮北市,监测站,颗粒物(PM10),58,66,61,31,23,129,,163,154,15,18,8,9,0.6,0.5
2024-05-17T0000,2283A,116.8091,33.9007,淮北市,烈山区政府,颗粒物(PM10),60,69,90,27,25,110,,160,146,16,23,7,8,0.4,0.4
2024-05-17T0000,3330A,116.8873,33.9836,淮北市,杜集区检察院,细颗粒物(PM2.5),105,,77,79,30,137,,168,161,11,18,7,7,0.5,0.4
2024-05-17T0000,4017A,116.7923,33.9535,淮北市,市博物馆,颗粒物(PM10),57,64,74,32,28,129,,163,154,13,18,9,10,0.7,0.5
2024-05-17T0000,2277A,116.8305,32.7727,淮南市,潘集区政府,颗粒物(PM10),54,58,63,30,31,118,,159,143,19,20,6,8,0.2,0.2
2024-05-17T0000,2278A,117.0067,32.6524,淮南市,师范学院,颗粒物(PM10),52,54,50,30,21,122,,161,147,14,11,9,8,0.3,0.3
2024-05-17T0000,2279A,116.8569,32.5951,淮南市,谢家集区政府,颗粒物(PM10),58,66,52,17,16,100,,156,130,20,16,6,6,0.1,0.1
2024-05-17T0000,2280A,116.8281,32.633,淮南市,八公山区政府,颗粒物(PM10),54,57,52,24,18,105,,147,130,15,13,3,4,0.4,0.2
2024-05-17T0000,2281A,116.6325,32.6201,淮南市,焦岗湖风景区管理处,,48,48,38,18,14,95,,123,116,20,19,3,4,0.2,0.2
2024-05-17T0000,2894A,117.0566,32.6531,淮南市,经济技术开发区消防队,颗粒物(PM10),53,55,57,32,25,113,,159,137,19,17,6,6,0.3,0.2
2024-05-17T0000,3329A,117.0108,32.5893,淮南市,山南新区,颗粒物(PM10),64,78,64,32,14,120,,165,146,18,16,6,6,0.3,0.2
2024-05-17T0000,2446A,114.9028,30.4742,黄冈市,职工中心,细颗粒物(PM2.5),85,99,68,63,31,108,,189,157,27,12,12,10,0.7,0.4
2024-05-17T0000,2929A,114.8858,30.4519,黄冈市,红卫路,细颗粒物(PM2.5),85,99,64,63,30,101,,171,144,20,9,14,13,0.9,0.8
2024-05-17T0000,3398A,114.9136,30.4445,黄冈市,市林业局,细颗粒物(PM2.5),82,89,58,60,26,117,,196,163,25,9,6,6,0.5,0.4
2024-05-17T0000,2672A,102.0199,35.5102,黄南藏族自治州,同仁县隆务镇,,42,42,33,20,14,110,,151,132,2,2,8,8,0.6,0.6
2024-05-17T0000,2295A,118.2903,29.6963,黄山市,延安路89号,颗粒物(PM10),53,55,57,12,20,49,,158,102,18,10,4,5,0.4,0.4
2024-05-17T0000,2296A,118.327,29.7178,黄山市,黄山东路89号,,49,49,47,33,17,37,,147,87,18,11,5,6,0.4,0.3
2024-05-17T0000,2297A,118.1371,30.2756,黄山市,黄山区政府5号楼,,35,30,38,24,21,52,,129,85,10,9,4,4,0.5,0.4
2024-05-17T0000,2423A,115.0601,30.2313,黄石市,沈家营,细颗粒物(PM2.5),100,86,49,75,23,71,,190,155,46,16,25,13,0.8,0.6
2024-05-17T0000,2424A,115.0817,30.2006,黄石市,陈家湾,细颗粒物(PM2.5),63,74,53,45,24,102,,196,168,28,13,12,10,1.0,0.7
2024-05-17T0000,2426A,114.8988,30.2019,黄石市,铁山,颗粒物(PM10),58,66,51,32,21,120,,195,162,16,11,13,11,0.7,0.8
2024-05-17T0000,2427A,115.0307,30.2092,黄石市,团城山,细颗粒物(PM2.5),74,76,57,54,20,101,,190,167,25,10,18,12,0.7,0.6
2024-05-17T0000,3149A,115.0235,30.1578,黄石市,笔架山北路,细颗粒物(PM2.5),63,74,50,45,17,118,,186,167,20,10,25,12,1.0,0.6
2024-05-17T0000,1392A,114.4183,23.0528,惠州市,河南岸金山湖子站,颗粒物(PM10),58,65,53,28,26,142,,169,165,14,15,6,7,0.5,0.5
2024-05-17T0000,1393A,114.4053,23.0822,惠州市,下埔横江三路子站,臭氧1小时,62,66,52,33,26,169,,178,178,14,17,8,8,0.6,0.6
2024-05-17T0000,1394A,114.4103,23.1142,惠州市,江北云山西路子站,臭氧1小时,73,63,52,26,21,178,,188,188,8,14,8,8,0.6,0.6
2024-05-17T0000,1395A,114.4645,22.7833,惠州市,惠阳区承修路船湖子站,颗粒物(PM10),58,65,48,28,22,159,,188,174,14,15,4,6,0.5,0.5
2024-05-17T0000,1396A,114.5317,22.7422,惠州市,大亚湾管委会子站,臭氧1小时,60,60,50,26,23,168,,199,182,17,20,6,6,0.6,0.6
2024-05-17T0000,3314A,114.4338,22.8134,惠州市,惠阳秋长,臭氧1小时,84,68,54,25,23,187,,220,204,13,15,6,6,0.6,0.6
2024-05-17T0000,3452A,114.6517,22.775,惠州市,大亚湾霞涌,臭氧1小时,74,56,43,22,19,179,,200,192,7,11,6,7,0.3,0.4
2024-05-17T0000,2240A,130.9762,45.3001,鸡西市,环保局,,,40,20,16,8,50,,61,55,16,10,6,7,,0.2
2024-05-17T0000,2243A,130.9429,45.3039,鸡西市,第一中学,,34,34,22,13,12,48,,78,65,11,9,8,8,0.4,0.3
2024-05-17T0000,3707A,131.0207,45.3073,鸡西市,欧美日汽修厂,颗粒物(PM10),56,62,31,22,22,13,,72,49,51,17,4,4,0.5,0.4
2024-05-17T0000,3709A,130.9967,45.3106,鸡西市,市政设施管理处,颗粒物(PM10),54,58,35,28,18,20,,72,45,35,21,7,7,0.5,0.4
2024-05-17T0000,2367A,114.9754,27.0803,吉安市,红声器材厂,颗粒物(PM10),52,54,70,30,28,78,,197,128,30,23,12,15,0.6,0.6
2024-05-17T0000,2368A,114.9658,27.0999,吉安市,市森林工业局,颗粒物(PM10),56,62,69,36,33,70,,188,116,35,20,13,15,0.6,0.5
2024-05-17T0000,2369A,114.99,27.1312,吉安市,市环境监测站,颗粒物(PM10),52,54,63,30,28,87,,190,133,26,19,14,17,0.6,0.6
2024-05-17T0000,2370A,115.0093,27.0968,吉安市,青原区法院,,46,38,67,32,31,92,,184,118,23,21,16,19,0.6,0.5
2024-05-17T0000,1772A,126.54,43.8622,吉林市,哈达湾,颗粒物(PM10),54,58,28,20,11,27,,104,75,45,21,7,7,0.7,0.5
2024-05-17T0000,1773A,126.5844,43.8358,吉林市,东局子,,45,45,31,15,11,43,,101,64,33,22,5,5,0.7,0.6
2024-05-17T0000,1774A,126.5052,43.8245,吉林市,电力学院,颗粒物(PM10),52,53,36,26,15,19,,108,58,37,22,8,9,0.7,0.6
2024-05-17T0000,1775A,126.6133,43.8972,吉林市,江北,,34,34,38,13,13,39,,100,64,39,22,9,8,0.6,0.6
2024-05-17T0000,1776A,126.555,43.8306,吉林市,江南公园,,31,31,25,11,12,50,,101,70,25,20,5,6,0.5,0.5
2024-05-17T0000,1778A,126.7061,43.7133,吉林市,丰满,,,,,,,,,,,,,,,,
2024-05-17T0000,2868A,126.4739,43.953,吉林市,九站,细颗粒物(PM2.5),90,93,41,67,22,6,,102,61,71,28,19,12,0.7,0.6
2024-05-17T0000,1299A,116.9862,36.6114,济南市,科干所,颗粒物(PM10),60,70,58,17,15,157,,162,159,9,10,8,9,0.7,0.6
2024-05-17T0000,1300A,116.9376,36.665,济南市,农科所,颗粒物(PM10),61,71,65,15,14,149,,159,150,14,17,6,7,0.5,0.5
2024-05-17T0000,1301A,117.1265,36.6734,济南市,开发区,颗粒物(PM10),61,71,59,20,17,167,,171,169,8,10,8,8,0.6,0.5
2024-05-17T0000,1303A,117.0624,36.6868,济南市,省种子仓库,颗粒物(PM10),58,66,82,14,14,163,,160,157,4,10,4,5,0.3,0.3
2024-05-17T0000,1304A,116.9489,36.6447,济南市,机床二厂,颗粒物(PM10),66,81,77,17,14,154,,159,154,5,9,10,11,0.2,0.2
2024-05-17T0000,1305A,117.0495,36.663,济南市,市监测站,颗粒物(PM10),67,83,64,20,13,170,,171,169,14,14,10,9,0.3,0.3
2024-05-17T0000,1306A,116.7675,36.5484,济南市,长清党校,颗粒物(PM10),58,66,65,15,16,152,,164,157,11,13,11,12,0.5,0.5
2024-05-17T0000,1616A,117.6795,36.229,济南市,技术学院,颗粒物(PM10),62,73,63,24,19,104,,165,146,39,38,12,11,0.6,0.5
2024-05-17T0000,1961A,117.532,36.6868,济南市,东山小学,颗粒物(PM10),59,68,57,17,12,160,,173,165,13,14,7,7,0.3,0.2
2024-05-17T0000,3059A,117.7161,36.2049,济南市,泰兴公司,颗粒物(PM10),64,78,58,24,16,50,,158,116,74,37,11,10,0.6,0.4
2024-05-17T0000,3064A,117.6867,36.2171,济南市,莱芜战役纪念馆,颗粒物(PM10),64,78,65,29,22,82,,150,129,39,31,9,9,0.9,0.7
2024-05-17T0000,3494A,117.1673,36.9782,济南市,济阳区政府,颗粒物(PM10),79,107,82,22,18,98,,160,138,45,25,10,10,0.6,0.5
2024-05-17T0000,3495A,117.1171,36.63,济南市,锦屏中学,颗粒物(PM10),61,71,54,17,12,168,,170,169,5,7,8,8,0.3,0.3
2024-05-17T0000,3682A,116.9814,36.6819,济南市,济南四建,颗粒物(PM10),64,78,72,24,16,154,,158,154,9,12,8,9,0.3,0.3
2024-05-17T0000,1653A,116.6251,35.4302,济宁市,火炬城,颗粒物(PM10),60,70,66,12,14,117,,157,146,14,16,10,9,0.5,0.5
2024-05-17T0000,1655A,116.5491,35.4042,济宁市,电化厂,颗粒物(PM10),75,100,94,19,20,132,,157,148,7,23,10,8,0.7,0.5
2024-05-17T0000,3500A,116.5814,35.3707,济宁市,北湖一中,颗粒物(PM10),83,116,74,12,15,127,,148,141,7,18,10,5,0.3,0.3
2024-05-17T0000,3501A,116.8249,35.5593,济宁市,服务中心,颗粒物(PM10),76,101,78,22,18,104,,142,122,18,26,6,7,0.6,0.6
2024-05-17T0000,3678A,116.5907,35.4054,济宁市,市第七中学,颗粒物(PM10),55,60,70,12,14,132,,161,150,11,15,9,7,0.4,0.4
2024-05-17T0000,2255A,130.2751,46.8028,佳木斯市,佳纺,颗粒物(PM10),59,68,34,26,10,20,,89,43,32,17,3,4,0.4,0.4
2024-05-17T0000,2256A,130.3995,46.8307,佳木斯市,发电厂,颗粒物(PM10),53,56,18,28,12,4,,84,47,54,15,7,5,0.8,0.4
2024-05-17T0000,2257A,130.3258,46.7975,佳木斯市,环保局,,44,44,22,14,8,17,,78,37,39,22,4,5,0.5,0.5
2024-05-17T0000,2258A,130.3648,46.8032,佳木斯市,十一中,颗粒物(PM10),55,59,22,29,10,10,,84,44,54,23,6,6,0.8,0.5
2024-05-17T0000,2259A,130.3794,46.7588,佳木斯市,四丰,,20,20,12,8,6,52,,83,63,8,9,1,4,0.5,0.5
2024-05-17T0000,1252A,120.7436,30.778,嘉兴市,清河小学,颗粒物(PM10),51,52,38,15,12,78,,146,118,28,30,5,5,0.8,0.7
2024-05-17T0000,1253A,120.726,30.7478,嘉兴市,嘉兴学院,颗粒物(PM10),51,52,40,20,12,80,,153,124,25,29,6,6,0.4,0.4
2024-05-17T0000,2872A,120.7846,30.7525,嘉兴市,南湖区残联,颗粒物(PM10),57,63,49,22,14,90,,160,129,20,24,8,7,0.5,0.4
2024-05-17T0000,3407A,120.6916,30.7739,嘉兴市,秀洲住建,,49,49,35,26,16,89,,165,132,14,20,7,6,0.5,0.4
2024-05-17T0000,1945A,98.2908,39.7711,嘉峪关市,气象局,颗粒物(PM10),500,676,951,290,406,7,,106,75,87,29,6,13,0.7,0.6
2024-05-17T0000,2884A,98.2672,39.7978,嘉峪关市,酒钢宾馆,颗粒物(PM10),500,688,982,271,477,37,,108,91,52,25,4,20,0.2,0.5
2024-05-17T0000,3248A,98.2643,39.7724,嘉峪关市,雄关区,颗粒物(PM10),466,566,780,146,213,25,,104,76,50,27,8,12,0.3,0.5
2024-05-17T0000,1383A,113.1064,22.6058,江门市,北街,颗粒物(PM10),52,53,42,29,20,154,,200,182,19,22,5,5,0.6,0.6
2024-05-17T0000,1384A,113.0731,22.5835,江门市,西区,"颗粒物(PM10),臭氧1小时",58,65,45,21,16,166,,205,192,14,18,7,8,0.4,0.4
2024-05-17T0000,1385A,113.0219,22.5311,江门市,圭峰西,臭氧1小时,53,50,40,19,17,162,,196,190,15,18,5,6,0.6,0.6
2024-05-17T0000,1386A,113.0828,22.5947,江门市,东湖,颗粒物(PM10),58,65,43,17,17,160,,201,188,16,18,7,7,0.5,0.5
2024-05-17T0000,3311A,113.1075,22.5647,江门市,江海富民,颗粒物(PM10),63,76,52,30,18,150,,202,186,18,20,6,6,0.6,0.5
2024-05-17T0000,3449A,113.05,22.4667,江门市,新会银湖,颗粒物(PM10),52,53,43,19,21,154,,210,190,12,23,6,6,0.6,0.5
2024-05-17T0000,1828A,113.227,35.2125,焦作市,市环保局,颗粒物(PM10),70,89,68,29,27,135,,186,168,13,18,4,8,0.5,0.3
2024-05-17T0000,1830A,113.1992,35.2590,焦作市,影视城,,,,,,,,,,,,,,,,
2024-05-17T0000,3169A,113.2725,35.2067,焦作市,太极体育中心,颗粒物(PM10),67,83,73,24,23,136,,187,168,11,16,5,10,0.5,0.3
2024-05-17T0000,3335A,113.3137,35.2641,焦作市,马村街道办,颗粒物(PM10),51,52,70,22,24,121,,175,153,10,18,3,6,0.4,0.4
2024-05-17T0000,3336A,113.2465,35.2373,焦作市,焦作技师学院,颗粒物(PM10),55,59,76,27,24,131,,173,155,11,19,3,6,0.4,0.3
2024-05-17T0000,3477A,113.1656,35.2539,焦作市,中站许衡医院,,46,46,61,27,24,125,,166,148,11,15,7,9,0.3,0.3
2024-05-17T0000,3981A,113.2449,35.1803,焦作市,原李万街道办,颗粒物(PM10),60,69,67,22,26,128,,170,156,15,23,8,9,0.4,0.4
2024-05-17T0000,1708A,116.3701,23.5345,揭阳市,新兴,,41,41,67,20,43,123,,221,157,12,27,6,12,0.4,0.7
2024-05-17T0000,1709A,116.3264,23.5443,揭阳市,西马,,40,40,73,16,40,125,,216,161,8,20,6,10,0.5,0.7
2024-05-17T0000,1710A,116.3611,23.5626,揭阳市,东兴,,42,42,72,14,33,122,,212,158,7,24,7,13,0.5,0.7
2024-05-17T0000,1711A,116.4151,23.5294,揭阳市,渔湖,,39,39,66,14,38,114,,208,152,9,25,7,12,0.5,0.7
2024-05-17T0000,3320A,116.403,23.5699,揭阳市,曲溪,,42,42,67,14,35,117,,226,159,13,23,8,11,0.4,0.6
2024-05-17T0000,1944A,102.1692,38.5167,金昌市,天庆家园,细颗粒物(PM2.5),99,138,236,74,98,66,,160,117,53,24,10,10,1.0,0.7
2024-05-17T0000,3170A,102.1864,38.5253,金昌市,市委党校,颗粒物(PM10),126,201,297,66,102,61,,152,110,54,20,9,16,0.7,0.6
2024-05-17T0000,4022A,102.1647,38.5371,金昌市,金川区人防中心,颗粒物(PM10),94,137,297,46,117,97,,142,113,18,17,10,11,0.7,0.5
2024-05-17T0000,1262A,119.647,29.077,金华市,十五中,颗粒物(PM10),53,56,47,26,19,65,,156,105,41,23,5,4,0.5,0.4
2024-05-17T0000,1263A,119.686,29.1029,金华市,监测站,颗粒物(PM10),52,54,43,28,21,29,,150,88,80,27,6,4,0.4,0.3
2024-05-17T0000,3659A,119.656,29.1131,金华市,气象局,,48,48,47,23,19,39,,154,89,80,46,9,5,0.4,0.3
2024-05-17T0000,1767A,121.1115,41.0879,锦州市,南山,细颗粒物(PM2.5),68,,44,49,26,96,,155,136,23,24,8,16,0.5,0.5
2024-05-17T0000,1768A,121.0533,40.8434,锦州市,开发区,细颗粒物(PM2.5),92,75,47,68,35,126,,151,118,46,28,12,10,0.7,0.7
2024-05-17T0000,1769A,121.1836,41.1119,锦州市,百股街道,,42,42,54,27,20,105,,161,140,26,29,10,30,0.6,0.6
2024-05-17T0000,1770A,121.1178,41.1222,锦州市,天安街道,细颗粒物(PM2.5),70,,53,51,28,106,,138,126,20,26,8,20,0.7,0.7
2024-05-17T0000,1771A,121.1303,41.1386,锦州市,北湖公园,细颗粒物(PM2.5),69,50,39,50,30,118,,145,135,22,25,10,11,0.7,0.7
2024-05-17T0000,2160A,112.85,35.5051,晋城市,自来水公司,颗粒物(PM10),53,56,61,19,16,100,,179,157,30,34,6,9,0.6,0.7
2024-05-17T0000,2161A,112.8318,35.4936,晋城市,白云商贸,颗粒物(PM10),64,78,58,14,10,89,,179,154,34,25,6,9,0.6,0.6
2024-05-17T0000,2162A,112.8508,35.4887,晋城市,市环保局,颗粒物(PM10),54,58,86,17,19,91,,183,158,36,32,6,9,0.5,0.6
2024-05-17T0000,2163A,112.8676,35.4897,晋城市,技术学院,,47,47,51,14,13,90,,180,155,42,27,6,8,0.6,0.7
2024-05-17T0000,2165A,112.8453,35.546,晋城市,白马寺,,,,,,,,,,,,,,,,
2024-05-17T0000,3620A,112.8271,35.4828,晋城市,泽州一中,颗粒物(PM10),52,54,56,12,12,97,,180,159,37,30,6,9,0.9,0.8
2024-05-17T0000,2171A,112.7532,37.6945,晋中市,锦纶小区,颗粒物(PM10),89,127,85,34,24,76,,188,137,54,31,22,15,0.7,0.4
2024-05-17T0000,2173A,112.7249,37.7067,晋中市,南都小区,颗粒物(PM10),83,115,79,39,24,89,,195,150,40,24,21,15,0.9,0.6
2024-05-17T0000,2174A,112.6991,37.6982,晋中市,榆次区政府,颗粒物(PM10),79,107,79,36,25,84,,193,146,38,26,19,14,1.1,0.7
2024-05-17T0000,2865A,112.7195,37.6828,晋中市,榆次三中,颗粒物(PM10),87,124,87,34,28,85,,196,145,43,27,22,15,0.9,0.8
2024-05-17T0000,2439A,112.2014,31.0481,荆门市,竹园小学,颗粒物(PM10),72,93,70,45,26,157,,187,176,15,19,12,10,0.5,0.5
2024-05-17T0000,2440A,112.1969,30.9891,荆门市,掇刀,颗粒物(PM10),78,106,78,39,25,140,,185,171,21,22,12,11,0.6,0.6
2024-05-17T0000,2441A,112.2213,31.0386,荆门市,石化一小,颗粒物(PM10),82,114,84,48,31,127,,192,174,30,19,14,14,0.6,0.5
2024-05-17T0000,3012A,112.1849,31.0362,荆门市,西山林语,颗粒物(PM10),70,90,71,45,29,156,,188,177,13,14,14,13,0.6,0.5
2024-05-17T0000,3547A,112.1632,31.0138,荆门市,龙泉中学南校,颗粒物(PM10),67,84,82,37,28,128,,182,164,17,22,12,9,0.6,0.5
2024-05-17T0000,1844A,112.2494,30.3197,荆州市,市图书馆,细颗粒物(PM2.5),68,78,60,49,33,146,,185,167,19,22,11,9,0.6,0.5
2024-05-17T0000,1845A,112.2008,30.3544,荆州市,市委党校,细颗粒物(PM2.5),69,77,62,50,30,139,,183,164,24,19,10,10,0.6,0.5
2024-05-17T0000,3194A,112.2747,30.3122,荆州市,管委会,颗粒物(PM10),65,79,61,44,29,152,,189,169,20,18,6,7,0.6,0.5
2024-05-17T0000,3548A,112.1655,30.3364,荆州市,学苑路,细颗粒物(PM2.5),59,56,47,42,27,140,,194,169,19,14,7,7,0.6,0.5
2024-05-17T0000,2342A,117.3102,29.3867,景德镇市,王港中学,,,,,,,,,,,,,,,,
2024-05-17T0000,2343A,117.2117,29.2933,景德镇市,老干部活动中心,细颗粒物(PM2.5),52,52,51,36,24,69,,166,126,23,16,7,6,0.4,0.3
2024-05-17T0000,2344A,117.1894,29.2789,景德镇市,兽医站,,48,48,55,30,23,86,,176,138,18,10,7,9,0.6,0.4
2024-05-17T0000,2345A,117.1547,29.2617,景德镇市,台达陶瓷,颗粒物(PM10),65,80,56,39,25,75,,158,98,34,26,9,14,0.4,0.3
2024-05-17T0000,2346A,117.2461,29.2956,景德镇市,陶研所,,44,44,46,20,21,74,,158,124,11,10,4,4,0.3,0.2
2024-05-17T0000,1803A,115.9872,29.6815,九江市,十里,颗粒物(PM10),57,64,57,39,24,64,,175,118,42,23,7,11,0.7,0.6
2024-05-17T0000,1804A,115.9584,29.7046,九江市,茅山头,细颗粒物(PM2.5),59,63,53,42,19,73,,174,131,60,23,9,9,0.6,0.5
2024-05-17T0000,1805A,115.9877,29.7295,九江市,西园,细颗粒物(PM2.5),70,84,60,51,23,41,,162,111,69,25,56,20,0.7,0.7
2024-05-17T0000,1806A,116.0172,29.6547,九江市,五七二七厂,颗粒物(PM10),53,56,51,19,22,137,,165,140,9,13,10,16,0.6,0.8
2024-05-17T0000,1808A,115.9114,29.6038,九江市,综合工业园,颗粒物(PM10),68,85,68,42,31,116,,164,135,44,31,11,13,0.7,0.7
2024-05-17T0000,1809A,116.0721,29.7535,九江市,石化总厂,细颗粒物(PM2.5),63,67,58,45,33,128,,176,164,31,22,14,14,0.7,0.7
2024-05-17T0000,1810A,115.9773,29.5698,九江市,庐山气象台,,50,40,32,22,18,157,,150,148,2,3,8,8,0.6,0.7
2024-05-17T0000,3190A,116.0254,29.6994,九江市,外国语学校,细颗粒物(PM2.5),53,54,60,37,30,66,,168,137,42,23,41,17,0.6,0.6
2024-05-17T0000,2658A,98.5061,39.7443,酒泉市,仓门街子站,颗粒物(PM10),500,637,1042,181,245,24,,109,83,69,29,9,14,0.7,0.6
2024-05-17T0000,2659A,98.4989,39.7256,酒泉市,油田生活基地,颗粒物(PM10),500,698,1070,190,263,28,,106,84,55,27,11,16,0.3,0.4
2024-05-17T0000,2698A,76.0072,39.4467,喀什地区,巡警大队,颗粒物(PM10),181,311,186,83,43,10,,117,88,111,47,5,4,1.3,0.5
2024-05-17T0000,2699A,75.9755,39.4694,喀什地区,吾办,,,48,173,,66,14,,14,,65,60,8,4,1.1,0.8
2024-05-17T0000,4027A,75.9483,39.4689,喀什地区,老干局,颗粒物(PM10),179,308,294,76,57,16,,113,85,83,45,8,5,0.9,0.6
2024-05-17T0000,1824A,114.3389,34.7781,开封市,肿瘤医院,颗粒物(PM10),77,104,94,24,21,115,,169,141,16,22,4,5,0.5,0.3
2024-05-17T0000,1826A,114.2885,34.7965,开封市,世纪星幼儿园,颗粒物(PM10),87,123,107,52,36,120,,172,145,15,24,6,7,0.4,0.3
2024-05-17T0000,3147A,114.3438,34.8106,开封市,龙亭公园,颗粒物(PM10),169,288,108,59,30,122,,172,147,13,18,5,6,0.6,0.5
2024-05-17T0000,3210A,114.3644,34.7964,开封市,汴京公园,颗粒物(PM10),63,76,91,37,28,122,,173,148,17,22,4,5,0.5,0.4
2024-05-17T0000,3473A,114.2485,34.8306,开封市,技师学院,颗粒物(PM10),71,92,120,44,28,127,,176,152,14,21,6,8,0.6,0.4
2024-05-17T0000,3592A,114.4644,34.7556,开封市,祥符区生态环境局,颗粒物(PM10),86,122,99,42,36,115,,160,134,17,27,6,7,0.5,0.4
2024-05-17T0000,1951A,84.895,45.6094,克拉玛依市,长征新村,颗粒物(PM10),69,87,65,18,12,104,,123,108,2,10,8,9,0.1,0.2
2024-05-17T0000,1952A,84.8988,45.5893,克拉玛依市,南林小区,颗粒物(PM10),66,82,75,43,25,111,,124,113,1,16,8,8,0.3,0.4
2024-05-17T0000,1954A,84.905,44.3396,克拉玛依市,独山子区,,,,52,,26,95,,146,117,11,16,7,8,0.3,0.3
2024-05-17T0000,1955A,85.6979,46.098,克拉玛依市,乌尔禾区商贸楼,颗粒物(PM10),72,94,53,3,8,99,,121,110,2,7,9,10,0.1,0.2
2024-05-17T0000,3612A,85.1045,45.6899,克拉玛依市,白碱滩区新站,颗粒物(PM10),58,66,61,28,21,106,,131,115,2,10,8,9,0.1,0.1
2024-05-17T0000,2697A,76.1454,39.7142,克孜勒苏柯尔克孜自治州,市人民政府,颗粒物(PM10),109,167,122,69,53,56,,122,102,35,12,8,11,0.7,0.5
2024-05-17T0000,3665A,76.1658,39.7157,克孜勒苏柯尔克孜自治州,克州文化中心,颗粒物(PM10),130,209,119,74,52,18,,123,99,85,15,9,12,0.5,0.4
2024-05-17T0000,1450A,102.8204,24.8886,昆明市,呈贡新区,,30,30,22,19,15,71,,104,92,20,11,4,5,0.6,0.7
2024-05-17T0000,1451A,102.6251,24.9608,昆明市,西山森林公园,,,,,,,,,,,,,,,,
2024-05-17T0000,1452A,102.7252,25.0902,昆明市,龙泉镇,,28,28,19,15,13,78,,108,97,14,14,10,7,0.8,0.6
2024-05-17T0000,1453A,102.7266,25.0375,昆明市,东风东路,,28,28,22,18,13,75,,104,94,13,13,9,6,0.7,0.6
2024-05-17T0000,1454A,102.6742,25.0669,昆明市,金鼎山,,26,22,21,14,13,82,,109,100,10,14,6,6,0.6,0.6
2024-05-17T0000,1455A,102.6644,25.0401,昆明市,碧鸡广场,,30,30,20,16,7,75,,102,94,13,13,3,4,0.6,0.6
2024-05-17T0000,3179A,102.7494,25.0119,昆明市,官渡区博物馆,,28,23,21,11,12,89,,120,108,11,13,12,9,0.8,0.6
2024-05-17T0000,3375A,102.8017,24.8336,昆明市,青年创业园,,27,23,14,16,11,84,,114,105,13,10,8,8,0.6,0.6
2024-05-17T0000,3550A,102.7997,24.9786,昆明市,昆明学院,,32,32,23,20,16,77,,116,104,19,14,8,8,0.7,0.6
2024-05-17T0000,3551A,102.5967,24.6736,昆明市,晋宁区生态环境分局,,32,32,20,17,15,75,,109,99,13,11,2,2,0.8,0.8
2024-05-17T0000,3552A,102.6678,24.9856,昆明市,云天化总部,,27,27,22,18,14,83,,112,104,7,10,8,8,0.7,0.9
2024-05-17T0000,1456A,91.1319,29.6514,拉萨市,八廓街,,40,16,16,8,9,128,,150,144,17,10,10,9,0.7,0.6
2024-05-17T0000,1457A,91.1221,29.6747,拉萨市,市环保局,,40,14,17,7,8,127,,146,141,12,12,6,6,0.3,0.3
2024-05-17T0000,1458A,91.0874,29.6475,拉萨市,区监测站,,44,14,13,7,8,140,,150,145,10,10,5,5,0.2,0.2
2024-05-17T0000,1459A,91.1774,29.6541,拉萨市,西藏大学,,41,17,16,6,9,131,,151,146,10,8,4,4,0.4,0.4
2024-05-17T0000,1460A,90.9798,29.6588,拉萨市,区辐射站,,38,18,20,9,10,119,,140,134,19,15,7,7,0.4,0.4
2024-05-17T0000,1461A,91.0834,29.6292,拉萨市,拉萨火车站,,44,10,13,7,8,140,,148,146,5,6,5,6,0.2,0.2
2024-05-17T0000,2520A,109.2203,23.7256,来宾市,来宾技工学校,颗粒物(PM10),62,73,60,40,32,107,,164,142,18,16,9,8,1.1,0.9
2024-05-17T0000,3535A,109.1781,23.7297,来宾市,兴宾区政府,颗粒物(PM10),61,72,50,41,29,82,,152,130,24,17,9,8,1.1,0.9
2024-05-17T0000,4002A,109.2416,23.7461,来宾市,中南小学,细颗粒物(PM2.5),65,74,63,47,37,88,,164,140,35,21,7,6,1.1,0.9
2024-05-17T0000,1476A,103.631,36.1031,兰州市,兰炼宾馆,"颗粒物(PM10),细颗粒物(PM2.5)",78,106,99,57,42,19,,183,121,110,42,8,13,0.8,0.4
2024-05-17T0000,1477A,104.1373,35.9454,兰州市,榆中兰大校区,,,,,,,,,,,,,,,,
2024-05-17T0000,1478A,103.8412,36.0726,兰州市,生物制品所,颗粒物(PM10),98,146,101,55,46,4,,159,107,105,39,11,12,0.4,0.4
2024-05-17T0000,1479A,103.831,36.0464,兰州市,铁路设计院,颗粒物(PM10),83,116,97,44,34,8,,162,86,110,55,11,12,0.8,0.5
2024-05-17T0000,3186A,103.7158,36.1058,兰州市,教育港,颗粒物(PM10),86,121,110,43,49,66,,182,128,51,35,9,11,0.5,0.4
2024-05-17T0000,3241A,103.7439,36.0842,兰州市,百合公园,颗粒物(PM10),66,82,85,39,33,41,,166,110,68,34,6,6,0.5,0.3
2024-05-17T0000,3242A,103.9611,35.998,兰州市,和平,颗粒物(PM10),79,107,125,36,55,124,,166,150,15,20,8,10,0.2,0.3
2024-05-17T0000,3245A,103.6633,36.533,兰州新区,新区管委会,颗粒物(PM10),71,91,111,49,43,93,,168,135,25,16,59,16,0.5,0.4
2024-05-17T0000,3246A,103.6975,36.4789,兰州新区,舟曲中学,颗粒物(PM10),85,120,125,40,49,95,,164,143,36,17,14,10,0.5,0.4
2024-05-17T0000,1067A,116.6708,39.5111,廊坊市,药材公司,颗粒物(PM10),65,79,70,29,24,95,,173,148,21,17,7,4,0.5,0.4
2024-05-17T0000,1068A,116.7214,39.5589,廊坊市,开发区,颗粒物(PM10),68,85,67,25,23,91,,176,151,26,21,5,5,0.5,0.5
2024-05-17T0000,1070A,116.7244,39.5269,廊坊市,北华航天学院,颗粒物(PM10),73,95,70,30,26,88,,170,144,21,16,5,4,0.5,0.4
2024-05-17T0000,2919A,116.7022,39.5453,廊坊市,河北工业大学,颗粒物(PM10),71,91,72,32,33,100,,182,153,21,18,3,3,0.5,0.4
2024-05-17T0000,2535A,103.7723,29.5462,乐山市,花湖湾,细颗粒物(PM2.5),69,69,52,50,39,84,,153,136,27,14,10,5,1.2,0.7
2024-05-17T0000,2536A,103.7627,29.5844,乐山市,牛耳桥,细颗粒物(PM2.5),68,69,57,49,41,71,,153,124,37,21,21,8,1.5,0.7
2024-05-17T0000,2537A,103.7508,29.6006,乐山市,市第三水厂,颗粒物(PM10),60,69,58,42,39,72,,152,129,36,17,21,8,1.2,0.6
2024-05-17T0000,2538A,103.7571,29.5664,乐山市,市监测站,颗粒物(PM10),61,71,58,37,47,66,,158,130,36,16,22,11,1.4,0.6
2024-05-17T0000,3361A,103.7311,29.5628,乐山市,理工大学,颗粒物(PM10),58,66,58,38,40,67,,164,126,40,17,22,11,1.5,0.7
2024-05-17T0000,2598A,100.2143,26.8576,丽江市,西南郊,,,,,,,,,,,,,,,,
2024-05-17T0000,2599A,100.2497,26.8802,丽江市,丽江古城,,31,25,31,13,21,98,,112,102,6,11,6,7,0.5,0.6
2024-05-17T0000,2600A,100.2203,26.8906,丽江市,市中心,,33,14,23,12,13,104,,115,108,6,10,8,9,0.5,0.5
2024-05-17T0000,1267A,119.914,28.4514,丽水市,监测站大楼,,35,25,37,9,15,111,,145,134,12,11,3,3,0.1,0.2
2024-05-17T0000,1268A,119.93,28.4586,丽水市,莲都小学,,35,22,40,9,14,109,,148,138,14,10,4,4,0.2,0.3
2024-05-17T0000,1269A,119.879,28.4231,丽水市,余庄前,,27,21,33,12,18,84,,142,115,13,10,4,4,0.3,0.3
2024-05-17T0000,1173A,119.176,34.5885,连云港市,市环境监测站,,41,41,53,17,15,115,,143,126,20,17,8,8,0.3,0.3
2024-05-17T0000,3000A,119.3581,34.6972,连云港市,德源药业,,46,46,46,14,17,126,,154,133,17,14,8,8,0.4,0.4
2024-05-17T0000,3007A,119.178,34.844,连云港市,新城一中,,44,44,47,17,17,104,,163,137,27,21,8,9,0.5,0.5
2024-05-17T0000,3008A,119.3608,34.7519,连云港市,胡沟管理处,,44,31,44,12,8,140,,154,145,11,12,10,9,0.4,0.4
2024-05-17T0000,3009A,119.1478,34.5911,连云港市,矿山设计院,,46,46,65,17,15,138,,144,142,13,16,9,11,0.6,0.5
2024-05-17T0000,3434A,119.2413,34.6539,连云港市,工贸学校,颗粒物(PM10),61,71,59,29,23,130,,159,149,15,13,10,9,0.5,0.4
2024-05-17T0000,3664A,119.4172,34.7341,连云港市,连云街道,颗粒物(PM10),55,59,65,14,15,151,,162,157,10,9,6,5,0.3,0.3
2024-05-17T0000,2571A,102.3431,27.8099,凉山彝族自治州,青龙寺,,29,29,22,19,17,67,,110,87,6,7,6,6,0.7,0.6
2024-05-17T0000,2572A,102.2721,27.8415,凉山彝族自治州,邛海宾馆,,25,,20,17,14,48,,112,83,16,13,7,9,0.8,0.7
2024-05-17T0000,2573A,102.2625,27.898,凉山彝族自治州,西昌市政府,,48,48,28,28,19,55,,108,78,21,11,9,12,0.8,0.7
2024-05-17T0000,2574A,102.2685,27.8851,凉山彝族自治州,凉山州政府,,39,38,28,27,18,55,,110,82,21,13,7,10,0.8,0.7
2024-05-17T0000,2575A,102.237,27.8914,凉山彝族自治州,长安,颗粒物(PM10),59,68,37,25,17,50,,112,79,22,15,8,11,0.8,0.7
2024-05-17T0000,2212A,123.2,41.1953,辽阳市,宏伟区,,32,32,31,12,14,95,,108,93,12,18,11,15,0.5,0.7
2024-05-17T0000,2213A,123.1683,41.2495,辽阳市,新华园,,38,38,51,22,22,90,,116,88,23,30,13,17,0.5,0.7
2024-05-17T0000,2214A,123.2354,41.2639,辽阳市,滨河路,,50,50,54,23,20,80,,107,83,23,28,9,12,0.4,0.5
2024-05-17T0000,2215A,123.149,41.2991,辽阳市,铁西工业园,,50,50,53,20,24,78,,112,79,23,29,12,16,0.7,0.8
2024-05-17T0000,2227A,125.1358,42.8845,辽源市,环保局,颗粒物(PM10),54,58,27,23,13,7,,107,57,58,27,8,8,0.9,0.6
2024-05-17T0000,3239A,125.0764,42.9078,辽源市,银鹰制药,,50,50,28,23,14,5,,104,48,64,33,11,14,0.7,0.5
2024-05-17T0000,1625A,115.9848,36.4372,聊城市,区政府,颗粒物(PM10),125,200,85,24,20,114,,146,134,21,19,15,12,0.7,0.6
2024-05-17T0000,2878A,116.0072,36.4343,聊城市,聊大东校,颗粒物(PM10),65,79,83,27,28,121,,154,141,20,18,13,11,0.6,0.5
2024-05-17T0000,3200A,115.9819,36.4978,聊城市,监控中心,颗粒物(PM10),76,102,90,12,13,124,,153,143,20,19,16,14,0.5,0.4
2024-05-17T0000,3513A,116.0445,36.4361,聊城市,九州社区,颗粒物(PM10),63,76,85,17,17,111,,152,132,18,17,7,11,0.4,0.4
2024-05-17T0000,4018A,116.0567,36.4608,聊城市,星美广场,颗粒物(PM10),64,77,83,27,18,125,,157,140,14,17,8,10,0.5,0.4
2024-05-17T0000,2632A,94.3681,29.6376,林芝市,林芝监测站,,35,6,11,3,9,112,,112,112,1,2,6,6,0.6,0.5
2024-05-17T0000,2633A,94.3616,29.6616,林芝市,林芝人民医院,,35,8,9,6,6,110,,114,114,4,4,7,7,0.3,0.3
2024-05-17T0000,2603A,100.0781,23.8982,临沧市,市环保局,细颗粒物(PM2.5),53,50,47,37,37,88,,129,119,10,12,7,10,0.5,0.5
2024-05-17T0000,2604A,100.0894,23.8822,临沧市,市气象局,细颗粒物(PM2.5),64,54,45,46,38,81,,128,116,16,14,6,9,0.7,0.6
2024-05-17T0000,1733A,111.5531,36.0783,临汾市,临钢医院,颗粒物(PM10),69,87,75,28,27,80,,165,130,28,17,14,10,1.0,0.8
2024-05-17T0000,1734A,111.5028,36.0714,临汾市,技工学校,颗粒物(PM10),70,90,74,35,25,80,,181,136,34,24,14,8,0.7,0.7
2024-05-17T0000,1736A,111.5018,36.0855,临汾市,市委,颗粒物(PM10),64,78,79,30,30,79,,186,141,33,21,19,12,0.8,0.7
2024-05-17T0000,3018A,111.505,36.1014,临汾市,唐尧大酒店,颗粒物(PM10),69,87,88,31,23,68,,160,124,32,18,15,9,0.7,0.8
2024-05-17T0000,3668A,111.5036,36.0414,临汾市,城南,颗粒物(PM10),91,131,82,43,42,67,,178,128,36,22,13,10,0.7,0.7
2024-05-17T0000,2667A,103.2069,35.5993,临夏回族自治州,环保局,颗粒物(PM10),110,170,120,58,36,80,,154,122,22,18,4,5,0.4,0.4
2024-05-17T0000,2668A,103.2417,35.6057,临夏回族自治州,建设大厦,颗粒物(PM10),107,164,109,62,41,79,,159,123,22,17,10,11,0.4,0.4
2024-05-17T0000,1618A,118.3429,35.0532,临沂市,沂河小区,颗粒物(PM10),57,63,74,29,40,104,,170,134,34,26,16,16,0.3,0.4
2024-05-17T0000,1619A,118.295,35.0583,临沂市,鲁南制药厂,颗粒物(PM10),52,53,61,20,30,97,,168,132,33,24,30,16,0.4,0.3
2024-05-17T0000,1620A,118.2794,34.9976,临沂市,新光毛纺厂,颗粒物(PM10),58,66,77,20,29,94,,161,124,32,26,27,15,0.5,0.5
2024-05-17T0000,1621A,118.3956,35.0888,临沂市,河东保险公司,颗粒物(PM10),58,66,61,21,38,80,,162,122,36,23,14,13,0.4,0.3
2024-05-17T0000,3370A,118.3564,35.0215,临沂市,十里堡居委,颗粒物(PM10),53,56,61,29,23,88,,165,126,31,24,13,12,0.5,0.4
2024-05-17T0000,3496A,118.3604,35.1084,临沂市,南坊新区,颗粒物(PM10),57,63,64,22,20,94,,156,126,31,25,16,13,0.5,0.5
2024-05-17T0000,3860A,118.3920,35.0300,临沂市,皇山花园小区,颗粒物(PM10),54,58,73,31,25,91,,159,123,26,20,20,15,0.6,0.4
2024-05-17T0000,1870A,109.4856,24.3895,柳州市,柳东小学,颗粒物(PM10),52,53,56,34,38,54,,127,101,38,18,7,10,0.7,0.7
2024-05-17T0000,1871A,109.4157,24.3277,柳州市,环保监测站,颗粒物(PM10),64,77,61,43,35,46,,130,96,39,20,10,12,1.0,0.8
2024-05-17T0000,1872A,109.389,24.341,柳州市,河西水厂,颗粒物(PM10),76,102,67,46,37,31,,123,84,48,24,13,14,0.9,0.9
2024-05-17T0000,1873A,109.4311,24.2921,柳州市,市四中,细颗粒物(PM2.5),62,66,60,44,35,62,,138,108,35,19,12,10,0.9,0.8
2024-05-17T0000,1874A,109.4006,24.3631,柳州市,市九中,颗粒物(PM10),78,106,73,49,37,44,,129,94,40,24,9,10,0.8,0.7
2024-05-17T0000,1875A,109.4958,24.3134,柳州市,古亭山,,47,47,56,28,32,47,,131,88,49,25,8,9,0.6,0.6
2024-05-17T0000,3402A,109.5422,24.3996,柳州市,市二中,颗粒物(PM10),62,74,62,43,36,28,,126,76,40,25,8,9,0.7,0.7
2024-05-17T0000,2307A,116.5079,31.737,六安市,监测大楼,,50,50,32,29,15,157,,148,140,9,14,6,5,0.4,0.3
2024-05-17T0000,2308A,116.4738,31.7643,六安市,皖西学院,臭氧1小时,60,55,40,27,13,168,,156,150,8,14,4,4,0.5,0.4
2024-05-17T0000,2309A,116.4996,31.7905,六安市,朝阳厂,颗粒物(PM10),51,51,37,27,15,157,,148,140,6,11,6,6,0.3,0.3
2024-05-17T0000,2310A,116.5567,31.7886,六安市,开发区,细颗粒物(PM2.5),93,,56,69,26,116,,144,129,20,21,10,11,0.6,0.5
2024-05-17T0000,2576A,104.8,26.5892,六盘水市,窑上,,,,,,,,,,,,,,,,
2024-05-17T0000,2577A,104.83,26.5917,六盘水市,黄土坡,,23,,16,15,12,71,,76,73,13,14,4,5,0.4,0.4
2024-05-17T0000,2578A,104.89,26.5939,六盘水市,水钢,,29,,19,20,15,87,,85,85,6,7,7,8,0.3,0.3
2024-05-17T0000,2579A,104.8475,26.5894,六盘水市,民中,,25,,15,17,11,72,,76,73,12,12,6,6,0.7,0.6
2024-05-17T0000,2580A,104.9544,26.5506,六盘水市,双水,,28,6,12,3,8,89,,92,92,5,7,5,6,0.4,0.4
2024-05-17T0000,2335A,117.0189,25.1181,龙岩市,龙岩师专,,,,,,,,,,,,,,,,
2024-05-17T0000,2336A,117.0217,25.1033,龙岩市,龙岩市监测站,臭氧1小时,64,67,44,39,29,171,,173,173,19,16,9,10,0.4,0.4
2024-05-17T0000,2337A,117.0258,25.0661,龙岩市,闽西职业技术学院,细颗粒物(PM2.5),62,72,50,44,27,162,,171,171,20,21,19,14,0.5,0.5
2024-05-17T0000,2338A,117.0196,25.0306,龙岩市,龙岩学院,臭氧1小时,57,52,40,37,23,165,,164,156,12,12,8,5,0.5,0.5
2024-05-17T0000,2665A,105.0822,33.3261,陇南市,汉王镇固水子,,,,,,,,,,,,,,,,
2024-05-17T0000,2885A,104.9339,33.3826,陇南市,滨江中学,颗粒物(PM10),56,61,66,28,25,123,,155,138,2,4,5,7,0.8,0.8
2024-05-17T0000,3247A,104.955,33.371,陇南市,市总工会,,48,48,55,24,23,113,,142,129,5,7,6,7,0.7,0.6
2024-05-17T0000,2487A,111.9589,27.8901,娄底市,电视发射台,颗粒物(PM10),55,60,84,33,33,89,,175,115,8,8,7,8,0.8,0.9
2024-05-17T0000,2488A,111.9975,27.725,娄底市,市监测站,颗粒物(PM10),67,83,105,43,40,82,,179,148,35,10,7,7,0.8,0.6
2024-05-17T0000,2489A,112.0194,27.7314,娄底市,市委党校,细颗粒物(PM2.5),62,72,95,44,39,116,,169,144,12,10,7,6,0.7,0.6
2024-05-17T0000,2490A,111.9561,27.7569,娄底市,涟钢,细颗粒物(PM2.5),100,118,108,75,43,58,,158,110,30,26,9,13,0.6,0.8
2024-05-17T0000,2491A,111.9892,27.7044,娄底市,市政府,细颗粒物(PM2.5),87,101,97,64,42,76,,182,144,23,12,8,9,1.0,0.7
2024-05-17T0000,1893A,105.4324,28.9634,泸州市,九狮山,颗粒物(PM10),59,68,40,22,23,49,,114,74,19,13,7,8,0.4,0.4
2024-05-17T0000,1894A,105.4427,28.9063,泸州市,小市上码头,颗粒物(PM10),57,63,40,32,21,71,,131,102,17,11,22,17,0.3,0.3
2024-05-17T0000,1895A,105.4241,28.8573,泸州市,兰田宪桥,颗粒物(PM10),58,65,35,32,22,46,,126,89,25,13,5,5,0.5,0.3
2024-05-17T0000,1896A,105.4379,28.8833,泸州市,市环监站,颗粒物(PM10),54,58,41,36,23,59,,124,98,24,12,6,10,0.5,0.3
2024-05-17T0000,3490A,105.3617,28.7703,泸州市,纳溪区环保局,颗粒物(PM10),53,55,40,22,18,48,,124,74,28,21,3,4,0.3,0.3
2024-05-17T0000,2183A,111.1406,37.5211,吕梁市,环保局,颗粒物(PM10),72,94,84,33,37,51,,172,100,61,40,4,5,0.5,0.5
2024-05-17T0000,2185A,111.1297,37.5136,吕梁市,自来水公司,颗粒物(PM10),66,81,76,36,30,69,,161,117,40,33,4,5,0.6,0.6
2024-05-17T0000,2867A,111.1283,37.51,吕梁市,马茂庄小学,颗粒物(PM10),83,116,92,45,32,38,,173,103,81,42,4,5,0.5,0.5
2024-05-17T0000,1812A,112.3931,34.6516,洛阳市,市委党校,颗粒物(PM10),62,74,69,39,33,104,,160,142,24,19,7,6,0.6,0.5
2024-05-17T0000,1814A,112.4657,34.6871,洛阳市,豫西宾馆,颗粒物(PM10),69,87,73,37,25,69,,166,142,46,26,8,8,0.6,0.5
2024-05-17T0000,1815A,112.494,34.6886,洛阳市,河南林校,颗粒物(PM10),63,76,55,37,26,55,,163,134,68,29,9,7,0.4,0.3
2024-05-17T0000,1816A,112.3844,34.623,洛阳市,开发区管委会,颗粒物(PM10),62,74,63,35,28,93,,153,132,19,13,6,5,0.5,0.3
2024-05-17T0000,1817A,112.4267,34.6258,洛阳市,市委新办公区,颗粒物(PM10),62,74,64,40,31,100,,167,145,20,15,8,8,0.4,0.3
2024-05-17T0000,3340A,112.6005,34.6326,洛阳市,伊滨,颗粒物(PM10),83,116,65,49,27,68,,164,127,32,27,7,7,0.5,0.3
2024-05-17T0000,3341A,112.4951,34.6332,洛阳市,中移产业园,颗粒物(PM10),65,79,62,39,27,82,,170,139,33,22,7,9,0.8,0.5
2024-05-17T0000,3593A,112.5736,34.8993,洛阳市,吉利监测站,颗粒物(PM10),73,95,67,42,27,63,,165,118,58,27,10,7,0.4,0.4
2024-05-17T0000,3635A,112.3677,34.662,洛阳市,河科大西苑校区,颗粒物(PM10),65,79,70,32,32,105,,157,140,18,24,8,8,0.6,0.5
2024-05-17T0000,3636A,112.4388,34.6781,洛阳市,英才小学,颗粒物(PM10),67,83,71,37,25,86,,162,143,30,28,9,8,0.7,0.5
2024-05-17T0000,2399A,114.051,33.5699,漯河市,三五一五工厂,颗粒物(PM10),63,76,90,31,29,116,,162,144,16,23,7,9,0.5,0.5
2024-05-17T0000,2400A,114.0055,33.5698,漯河市,漯河大学,颗粒物(PM10),68,85,81,36,32,107,,160,136,19,23,8,10,0.4,0.3
2024-05-17T0000,2401A,114.0138,33.5828,漯河市,市水利局,颗粒物(PM10),60,70,81,31,32,112,,164,143,15,17,7,10,0.5,0.5
2024-05-17T0000,2402A,114.0261,33.5698,漯河市,市广电局,颗粒物(PM10),61,71,75,33,27,116,,163,143,13,19,5,8,0.5,0.5
2024-05-17T0000,3478A,113.9749,33.5664,漯河市,市图书馆,颗粒物(PM10),65,80,80,34,33,113,,167,144,21,16,7,5,0.5,0.4
2024-05-17T0000,3479A,114.0967,33.5906,漯河市,召陵区卫健委,细颗粒物(PM2.5),94,79,81,70,40,114,,161,143,14,15,6,9,0.5,0.5
2024-05-17T0000,1798A,118.5092,31.6837,马鞍山市,湖东路四小,细颗粒物(PM2.5),58,64,48,41,19,75,,153,111,43,24,8,6,1.1,0.7
2024-05-17T0000,1799A,118.5024,31.6449,马鞍山市,开发区,颗粒物(PM10),58,65,52,40,21,51,,151,88,58,44,9,8,1.0,0.7
2024-05-17T0000,1800A,118.5228,31.7231,马鞍山市,慈湖,,43,43,36,12,17,71,,149,105,50,35,5,5,1.2,0.8
2024-05-17T0000,1802A,118.6245,31.7241,马鞍山市,濮塘,,35,32,34,24,23,98,,148,128,18,16,4,6,0.6,0.5
2024-05-17T0000,3633A,118.4918,31.6809,马鞍山市,雨山,细颗粒物(PM2.5),52,52,38,36,21,79,,154,113,39,24,12,8,1.1,0.6
2024-05-17T0000,1686A,111.0286,21.4688,茂名市,电白南海,颗粒物(PM10),52,53,48,24,17,153,,171,166,5,10,7,10,0.5,0.3
2024-05-17T0000,1687A,110.9294,21.6533,茂名市,茂石化七小,,48,48,43,24,21,146,,169,162,13,12,10,11,0.5,0.6
2024-05-17T0000,1688A,110.9107,21.6687,茂名市,健康路,,48,48,40,29,19,148,,163,157,11,11,15,13,0.6,0.6
2024-05-17T0000,1689A,110.8592,21.6828,茂名市,高岭,颗粒物(PM10),79,107,51,27,23,155,,166,161,14,14,15,15,0.6,0.7
2024-05-17T0000,3450A,111.01,21.5165,茂名市,电白水东,,49,46,40,22,20,155,,170,167,14,16,6,9,0.4,0.5
2024-05-17T0000,2539A,104.0308,30.0478,眉山市,黑龙滩水库,,40,39,40,28,28,106,,166,141,6,5,5,5,0.5,0.4
2024-05-17T0000,2540A,103.8416,30.0874,眉山市,气象局,细颗粒物(PM2.5),58,53,52,41,40,101,,170,138,27,24,8,8,0.5,0.5
2024-05-17T0000,3137A,103.8578,30.0744,眉山市,市委党校,颗粒物(PM10),53,56,52,31,28,106,,162,134,24,19,8,7,0.3,0.3
2024-05-17T0000,3148A,103.8291,30.0564,眉山市,区人社局,颗粒物(PM10),63,76,52,41,34,107,,166,137,27,25,13,9,0.5,0.4
2024-05-17T0000,1690A,116.1231,24.3284,梅州市,梅江月梅,颗粒物(PM10),64,77,43,43,24,163,,168,164,19,18,9,5,0.6,0.5
2024-05-17T0000,1691A,116.0797,24.2719,梅州市,梅县新城,颗粒物(PM10),61,71,45,34,24,160,,166,154,16,15,17,5,0.6,0.5
2024-05-17T0000,1692A,116.1248,24.2654,梅州市,环境监控中心,细颗粒物(PM2.5),60,68,46,43,25,75,,161,129,61,24,4,5,0.6,0.5
2024-05-17T0000,3315A,116.1233,24.2991,梅州市,梅龙,颗粒物(PM10),65,80,45,46,24,152,,158,148,16,11,12,10,0.8,0.7
2024-05-17T0000,1878A,104.7778,31.4741,绵阳市,富乐山,,49,49,52,24,35,105,,165,140,16,14,9,9,0.5,0.5
2024-05-17T0000,1879A,104.7563,31.4535,绵阳市,市人大,颗粒物(PM10),55,59,61,30,34,94,,151,118,24,24,8,7,0.5,0.6
2024-05-17T0000,1880A,104.6697,31.4668,绵阳市,高新区自来水公司,颗粒物(PM10),51,51,75,21,40,112,,160,121,16,39,12,11,0.7,0.8
2024-05-17T0000,1881A,104.7287,31.5075,绵阳市,三水厂,,49,49,71,32,47,70,,162,120,43,34,7,6,0.4,0.5
2024-05-17T0000,3491A,104.69,31.5322,绵阳市,西科大附属小学,颗粒物(PM10),51,51,68,24,39,75,,166,121,45,33,6,7,0.4,0.5
2024-05-17T0000,3492A,104.5648,31.5343,绵阳市,安州区旅游局,颗粒物(PM10),59,67,71,41,52,54,,161,114,37,22,8,10,0.8,0.7
2024-05-17T0000,1784A,129.61,44.561,牡丹江市,环保大楼,,36,25,18,25,11,43,,86,55,14,13,5,5,0.3,0.3
2024-05-17T0000,1785A,129.6115,44.5782,牡丹江市,文化广场,,34,34,26,18,18,30,,80,49,28,20,6,8,0.5,0.4
2024-05-17T0000,1786A,129.5904,44.5963,牡丹江市,第一医院,,47,47,22,27,16,22,,84,56,28,15,8,6,0.5,0.4
2024-05-17T0000,1787A,129.6364,44.6075,牡丹江市,机车工厂,,36,36,28,17,12,41,,85,59,14,11,7,8,0.4,0.3
2024-05-17T0000,1788A,129.6386,44.5462,牡丹江市,第一中学,,26,21,25,18,14,50,,89,62,10,14,5,6,0.2,0.2
2024-05-17T0000,2531A,105.0703,29.61,内江市,市监测站,细颗粒物(PM2.5),55,39,34,39,32,36,,134,93,50,22,7,9,0.6,0.5
2024-05-17T0000,2532A,105.0717,29.5947,内江市,东兴区政府,细颗粒物(PM2.5),52,52,41,36,24,52,,136,114,39,15,10,10,0.6,0.5
2024-05-17T0000,2533A,105.0653,29.5817,内江市,内江二中,细颗粒物(PM2.5),53,51,37,37,27,40,,131,97,29,17,8,8,0.6,0.4
2024-05-17T0000,2534A,105.0406,29.5822,内江市,内江日报社,二氧化氮,55,50,40,37,26,12,,141,102,110,26,10,8,0.6,0.4
2024-05-17T0000,2628A,92.0657,31.4846,那曲市,那曲监测站,,34,32,23,16,13,106,,138,125,7,10,4,5,0.4,0.5
2024-05-17T0000,3128A,92.0506,31.4797,那曲市,那曲会议中心,,25,17,17,7,8,78,,97,90,7,7,2,3,0.4,0.5
2024-05-17T0000,1290A,115.8931,28.6843,南昌市,省外办,颗粒物(PM10),72,93,74,51,32,68,,172,131,49,19,7,8,0.8,0.6
2024-05-17T0000,1291A,115.8886,28.7003,南昌市,省林业公司,颗粒物(PM10),79,107,75,51,32,24,,174,125,87,23,5,6,0.9,0.6
2024-05-17T0000,1292A,115.8126,28.7442,南昌市,林科所,颗粒物(PM10),53,56,67,34,26,72,,194,122,65,26,6,7,0.4,0.5
2024-05-17T0000,1294A,115.8518,28.687,南昌市,建工学校,颗粒物(PM10),72,94,74,45,24,19,,194,150,100,19,6,7,1.0,0.6
2024-05-17T0000,1295A,115.8921,28.6424,南昌市,象湖,颗粒物(PM10),72,94,73,38,29,59,,195,130,56,21,4,6,0.8,0.6
2024-05-17T0000,1296A,115.7423,28.7996,南昌市,武术学校,细颗粒物(PM2.5),52,,37,36,32,62,,187,122,6,8,9,9,0.4,0.4
2024-05-17T0000,1298A,115.9314,28.6842,南昌市,省站,颗粒物(PM10),76,101,91,48,32,56,,179,132,42,9,11,10,0.9,0.7
2024-05-17T0000,3046A,115.9084,28.6062,南昌市,机电学校,颗粒物(PM10),81,112,81,46,29,66,,185,132,46,15,8,9,0.8,0.7
2024-05-17T0000,3690A,115.9721,28.7031,南昌市,外国语学校,颗粒物(PM10),63,76,70,40,28,77,,176,138,26,12,3,4,0.4,0.3
2024-05-17T0000,1905A,106.056,30.8064,南充市,西山风景区,,49,43,41,34,33,136,,156,153,10,9,15,9,0.6,0.5
2024-05-17T0000,1906A,106.0789,30.8023,南充市,南充市委,颗粒物(PM10),60,69,59,35,34,42,,157,121,60,27,8,10,0.4,0.3
2024-05-17T0000,1907A,106.1031,30.8217,南充市,南充炼油厂,颗粒物(PM10),70,89,64,40,37,93,,180,158,44,21,11,11,0.5,0.4
2024-05-17T0000,1908A,106.1064,30.7856,南充市,高坪区监测站,颗粒物(PM10),60,70,54,40,30,101,,168,154,37,20,16,11,0.1,0.2
2024-05-17T0000,1909A,106.0642,30.7636,南充市,嘉陵区环保局,颗粒物(PM10),67,84,62,41,35,64,,165,137,48,23,9,10,0.5,0.3
2024-05-17T0000,1910A,106.1087,30.8388,南充市,市环境监测站,颗粒物(PM10),63,76,64,35,35,64,,156,132,60,28,10,10,0.7,0.5
2024-05-17T0000,1151A,118.8086,32.1065,南京市,迈皋桥,,31,29,36,12,12,98,,150,118,23,21,4,4,0.5,0.5
2024-05-17T0000,1152A,118.7538,32.0551,南京市,草场门,,34,34,32,19,17,64,,152,110,52,28,2,3,0.3,0.2
2024-05-17T0000,1153A,118.7794,32.0745,南京市,山西路,,31,31,40,14,18,75,,143,111,32,19,4,4,0.3,0.3
2024-05-17T0000,1154A,118.7752,32.0023,南京市,中华门,,39,39,40,19,12,46,,150,101,57,29,7,7,0.4,0.4
2024-05-17T0000,1155A,118.8109,32.0309,南京市,瑞金路,,36,36,34,22,14,67,,146,103,40,28,7,7,0.3,0.3
2024-05-17T0000,1156A,118.7997,32.0754,南京市,玄武湖,,36,36,34,12,12,84,,146,112,25,10,8,8,0.1,0.1
2024-05-17T0000,1157A,118.6414,32.0931,南京市,浦口,,40,40,37,20,13,46,,139,98,58,28,14,8,0.8,0.6
2024-05-17T0000,1158A,118.7356,31.9996,南京市,奥体中心,,32,32,35,12,14,66,,150,114,47,24,8,9,0.3,0.3
2024-05-17T0000,1159A,118.9125,32.1028,南京市,仙林大学城,,29,29,36,7,5,87,,159,134,39,30,9,8,0.4,0.4
2024-05-17T0000,3422A,118.8436,31.9198,南京市,江宁彩虹桥,,45,45,36,19,14,63,,152,106,43,23,4,4,0.5,0.5
2024-05-17T0000,3423A,119.0138,31.6494,南京市,溧水永阳,,43,31,31,30,14,96,,134,108,22,17,11,5,0.4,0.3
2024-05-17T0000,3424A,118.879,31.3302,南京市,高淳老职中,,47,47,35,28,18,87,,132,108,22,17,6,7,0.3,0.2
2024-05-17T0000,3427A,118.8554,32.3578,南京市,六合雄州,,35,35,38,15,16,84,,154,109,34,35,5,9,0.4,0.7
2024-05-17T0000,1401A,108.3103,22.7881,南宁市,二十一中,颗粒物(PM10),55,59,59,35,36,127,,144,118,17,21,6,8,0.7,0.6
2024-05-17T0000,1402A,108.3141,22.8528,南宁市,北湖,"颗粒物(PM10),细颗粒物(PM2.5)",57,63,65,40,37,117,,127,109,16,23,6,12,0.8,0.8
2024-05-17T0000,1403A,108.3206,22.8225,南宁市,市监测站,颗粒物(PM10),59,68,64,39,38,118,,122,100,17,30,7,10,0.8,0.8
2024-05-17T0000,1404A,108.3829,22.8037,南宁市,大自然花园,颗粒物(PM10),52,54,55,33,38,129,,139,114,12,19,6,7,0.6,0.6
2024-05-17T0000,1405A,108.4394,22.7904,南宁市,仙葫,颗粒物(PM10),51,52,58,32,34,121,,120,110,14,20,7,9,0.9,0.9
2024-05-17T0000,1406A,108.2397,22.8467,南宁市,区农职院,颗粒物(PM10),61,71,66,36,34,115,,128,100,22,25,5,9,0.6,0.7
2024-05-17T0000,1407A,108.3275,22.735,南宁市,英华嘉园,颗粒物(PM10),51,51,62,28,37,120,,133,109,22,26,8,8,0.7,0.7
2024-05-17T0000,1408A,108.2257,22.7757,南宁市,沙井镇街道办,颗粒物(PM10),60,69,71,38,41,101,,122,92,24,28,6,12,0.6,0.7
2024-05-17T0000,3401A,108.4834,22.7618,南宁市,红星社区,,50,50,58,35,36,133,,135,112,13,21,8,11,0.7,0.7
2024-05-17T0000,2331A,118.0966,26.6761,南平市,茫荡山,,,,,,,,,,,,,,,,
2024-05-17T0000,2332A,118.1681,26.6369,南平市,南平市监测站,,39,39,43,26,25,112,,172,132,15,16,5,6,0.6,0.7
2024-05-17T0000,2333A,118.1825,26.6489,南平市,南平铝业有限公司,,49,42,42,34,29,85,,165,123,24,18,9,7,0.7,0.7
2024-05-17T0000,2334A,118.1756,26.6272,南平市,南平七中,,44,44,39,22,26,120,,176,139,12,13,4,5,0.6,0.7
2024-05-17T0000,1168A,120.9098,31.9663,南通市,狼山街道,,47,47,32,11,10,90,,156,132,41,27,12,11,0.4,0.4
2024-05-17T0000,1169A,120.86,32.0005,南通市,虹桥,,39,39,41,11,13,75,,139,107,45,41,6,8,0.4,0.4
2024-05-17T0000,1170A,120.87,32.02,南通市,城中,,49,49,50,15,15,82,,147,125,38,31,6,7,0.5,0.6
2024-05-17T0000,1171A,120.94,31.93,南通市,星湖花园,,35,35,32,10,11,78,,161,132,47,32,11,10,0.5,0.5
2024-05-17T0000,1172A,120.81,32.0417,南通市,紫琅学院,颗粒物(PM10),51,51,33,13,8,88,,145,115,42,45,10,11,0.4,0.5
2024-05-17T0000,3291A,121.067,32.062,南通市,通州监测站,,36,36,43,9,10,84,,162,138,31,33,11,12,0.3,0.5
2024-05-17T0000,3432A,120.9348,31.9883,南通市,环境教育馆,,36,36,45,15,12,78,,155,133,49,29,12,9,0.5,0.5
2024-05-17T0000,2404A,112.5224,33.0122,南阳市,瓦房庄,颗粒物(PM10),68,85,64,36,26,150,,158,152,15,19,6,7,0.5,0.4
2024-05-17T0000,2405A,112.5003,32.9735,南阳市,汉画馆,颗粒物(PM10),71,92,69,37,26,141,,158,147,20,24,5,6,0.5,0.4
2024-05-17T0000,2406A,112.5573,33.027,南阳市,气象站,颗粒物(PM10),69,87,69,31,20,151,,166,160,18,18,5,4,0.4,0.3
2024-05-17T0000,2407A,112.5481,32.9689,南阳市,理工学院,颗粒物(PM10),75,100,72,36,23,140,,160,148,20,23,6,6,0.7,0.5
2024-05-17T0000,4008A,112.5234,32.9922,南阳市,卧龙区政府,颗粒物(PM10),68,86,66,34,26,144,,160,149,18,19,6,6,0.7,0.5
2024-05-17T0000,1234A,121.8358,29.911,宁波市,区环保大楼,,35,18,29,3,11,109,,118,113,10,28,5,6,0.4,0.5
2024-05-17T0000,1235A,121.56,29.82,宁波市,万里学院,,32,21,28,3,6,100,,134,107,17,18,4,4,0.3,0.4
2024-05-17T0000,1236A,121.713,29.9572,宁波市,龙赛医院,,33,10,31,7,11,103,,122,106,13,26,4,6,0.3,0.4
2024-05-17T0000,1239A,121.633,29.7733,宁波市,钱湖水厂,,33,14,26,3,9,105,,131,112,4,9,3,4,0.3,0.3
2024-05-17T0000,1240A,121.5856,29.8635,宁波市,太古小学,,32,19,26,3,6,100,,129,108,16,21,5,5,0.4,0.5
2024-05-17T0000,1241A,121.524,29.8674,宁波市,市环境监测中心,,29,22,32,6,9,90,,135,110,27,24,10,9,0.4,0.4
2024-05-17T0000,2871A,121.6147,29.9017,宁波市,万里国际学校,,36,27,32,7,13,115,,139,120,11,27,3,4,0.3,0.4
2024-05-17T0000,3710A,121.5594,29.8975,宁波市,白沙活动中心,,31,24,31,3,7,99,,130,104,14,20,9,9,0.3,0.4
2024-05-17T0000,2339A,119.5001,26.6946,宁德市,金涵水库,,,,,,,,,,,,,,,,
2024-05-17T0000,2341A,119.5388,26.6612,宁德市,宁德市监测站,,25,14,37,12,21,77,,133,98,9,11,7,8,0.3,0.3
2024-05-17T0000,3209A,119.5231,26.6562,宁德市,宁德一中,,24,20,40,10,17,75,,134,102,8,10,6,7,0.2,0.3
2024-05-17T0000,2618A,98.8601,25.8567,怒江傈僳族自治州,州监测站,,39,36,28,27,21,80,,122,102,12,8,8,8,0.4,0.4
2024-05-17T0000,2619A,98.8546,25.8417,怒江傈僳族自治州,泸水一中,,33,33,36,15,23,46,,99,75,24,19,7,7,0.5,0.4
2024-05-17T0000,1888A,101.6891,26.571,攀枝花市,弄弄坪,颗粒物(PM10),53,56,40,30,19,89,,120,110,22,23,16,17,0.8,0.8
2024-05-17T0000,1889A,101.5769,26.5928,攀枝花市,河门口,,47,47,41,32,26,70,,134,122,28,24,12,20,0.8,1.1
2024-05-17T0000,1890A,101.7169,26.585,攀枝花市,炳草岗,,50,50,37,28,23,64,,121,102,34,25,21,26,0.7,0.6
2024-05-17T0000,1891A,101.7369,26.5008,攀枝花市,仁和,细颗粒物(PM2.5),63,59,36,45,25,76,,136,119,18,14,15,17,0.7,0.5
2024-05-17T0000,2835A,101.7227,26.567,攀枝花市,四十中小,,34,34,35,20,16,107,,131,126,13,14,15,18,0.8,0.8
2024-05-17T0000,1604A,122.0303,41.1489,盘锦市,开发区,,,,53,49,27,130,,149,148,20,24,7,11,0.6,0.7
2024-05-17T0000,1605A,122.0485,41.0883,盘锦市,兴隆台,细颗粒物(PM2.5),67,73,54,48,29,116,,142,137,33,32,10,13,0.7,0.8
2024-05-17T0000,1606A,121.8297,41.1028,盘锦市,新生街道,细颗粒物(PM2.5),59,,45,42,24,121,,146,141,16,22,7,14,0.7,0.8
2024-05-17T0000,1832A,113.3257,33.742,平顶山市,新华旅馆,颗粒物(PM10),69,87,87,43,29,161,,178,170,15,23,8,9,0.4,0.4
2024-05-17T0000,1833A,113.2919,33.737,平顶山市,规划设计院,颗粒物(PM10),64,78,64,33,27,138,,168,155,17,14,7,8,0.7,0.6
2024-05-17T0000,1834A,113.182,33.774,平顶山市,平顶山工学院,颗粒物(PM10),58,66,57,24,25,149,,161,154,8,10,5,6,0.5,0.5
2024-05-17T0000,3204A,113.3025,33.73,平顶山市,规划局,颗粒物(PM10),51,51,65,32,29,152,,166,158,14,15,6,7,0.5,0.5
2024-05-17T0000,3594A,112.8867,33.9116,平顶山市,石龙区,颗粒物(PM10),51,52,75,20,23,136,,160,145,4,15,5,5,0.4,0.4
2024-05-17T0000,2656A,106.6692,35.5461,平凉市,聚贤嘉苑,颗粒物(PM10),53,55,74,23,25,88,,164,116,29,19,10,9,0.3,0.4
2024-05-17T0000,2657A,106.7021,35.5307,平凉市,博物馆,颗粒物(PM10),57,64,73,31,25,85,,170,129,30,18,14,10,0.4,0.5
2024-05-17T0000,2347A,114.0997,27.5002,萍乡市,武功山,,41,41,35,8,11,87,,149,114,7,7,8,7,0.5,0.5
2024-05-17T0000,2348A,113.8385,27.6434,萍乡市,中医院,细颗粒物(PM2.5),74,91,72,54,33,55,,178,130,41,17,4,11,0.7,0.7
2024-05-17T0000,2349A,113.8493,27.6253,萍乡市,市政府车库,细颗粒物(PM2.5),63,64,67,45,37,75,,176,131,24,13,10,18,0.7,1
2024-05-17T0000,2350A,113.8676,27.6435,萍乡市,市环保局,细颗粒物(PM2.5),68,78,73,49,39,77,,173,135,25,14,6,14,0.6,0.6
2024-05-17T0000,2351A,113.866,27.6198,萍乡市,安源区政府,颗粒物(PM10),62,74,78,35,30,84,,181,137,17,16,12,16,0.5,1.1
2024-05-17T0000,2319A,119.0141,25.4325,莆田市,荔城区仓后路,,25,19,42,6,16,79,,148,93,13,12,5,5,0.5,0.6
2024-05-17T0000,2320A,119.0015,25.4553,莆田市,莆田市监测站,,27,10,33,3,15,84,,146,102,1,6,6,7,0.4,0.5
2024-05-17T0000,2321A,119.1119,25.4561,莆田市,涵江区六中,,26,20,39,3,11,83,,144,94,22,17,7,8,0.5,0.6
2024-05-17T0000,2322A,119.1013,25.3215,莆田市,秀屿区政府,,,,41,1,11,104,,128,103,9,13,7,8,0.4,0.5
2024-05-17T0000,2323A,118.981,25.4792,莆田市,东圳水库,,,,,,,,,,,,,,,,
2024-05-17T0000,2392A,115.0312,35.7636,濮阳市,环保局,,39,33,63,10,15,123,,154,142,8,12,7,9,0.3,0.3
2024-05-17T0000,2394A,115.0574,35.7609,濮阳市,油田运输公司,,43,17,67,12,18,136,,163,153,7,11,8,10,0.1,0.2
2024-05-17T0000,2395A,115.0866,35.7754,濮阳市,油田物探公司,,45,18,49,9,22,141,,166,156,4,11,7,8,0.3,0.1
2024-05-17T0000,3021A,115,35.7668,濮阳市,濮水河管理处,,37,22,80,9,20,118,,151,137,8,13,7,9,0.3,0.3
2024-05-17T0000,2601A,100.98,22.7633,普洱市,市环保局,,38,,29,26,20,79,,108,96,8,7,10,10,0.4,0.4
2024-05-17T0000,2602A,100.9817,22.8322,普洱市,普洱第二中学,,28,20,25,19,12,83,,108,96,6,7,9,9,0.5,0.5
2024-05-17T0000,2262A,131.0518,45.8751,七台河市,新一中,,16,12,9,8,5,50,,88,64,6,7,8,9,0.8,0.7
2024-05-17T0000,3345A,131.0577,45.7879,七台河市,中波台,,33,33,18,12,11,36,,82,54,39,21,7,7,0.5,0.5
2024-05-17T0000,3637A,131.0176,45.7761,七台河市,人民广场,,41,41,27,23,16,38,,80,48,30,19,9,9,0.4,0.4
2024-05-17T0000,3684A,130.8781,45.8222,七台河市,新建矿广场,,25,17,24,17,16,37,,83,56,23,22,9,10,0.4,0.5
2024-05-17T0000,1779A,123.9305,47.3636,齐齐哈尔市,安居小区,,32,18,27,12,12,101,,101,98,10,13,4,4,0.3,0.3
2024-05-17T0000,1780A,123.9488,47.3386,齐齐哈尔市,中心广场,,39,,28,27,14,98,,99,95,9,13,7,6,0.3,0.3
2024-05-17T0000,1781A,123.9483,47.3227,齐齐哈尔市,农牧车辆厂,,32,29,26,8,8,102,,108,106,7,8,7,7,0.3,0.3
2024-05-17T0000,1783A,123.945,47.2988,齐齐哈尔市,市环境监测站,,30,24,24,14,10,94,,106,99,8,8,4,4,0.2,0.2
2024-05-17T0000,3662A,123.6333,47.2075,齐齐哈尔市,富区青少年活动中心,,29,18,25,3,8,91,,110,103,9,9,6,5,0.3,0.3
2024-05-17T0000,2591A,107.9783,26.5747,黔东南苗族侗族自治州,市环境监测站,,36,36,41,22,28,67,,100,85,14,14,3,4,0.5,0.5
2024-05-17T0000,2881A,107.8908,26.5311,黔东南苗族侗族自治州,凯里学院,,38,38,30,22,23,61,,120,92,13,9,3,3,0.5,0.4
2024-05-17T0000,2593A,107.5228,26.2403,黔南布依族苗族自治州,小围寨,,28,27,25,19,13,78,,111,93,6,6,5,5,0.6,0.6
2024-05-17T0000,3538A,107.5175,26.2978,黔南布依族苗族自治州,沙坝,,39,39,28,14,11,49,,103,79,17,8,5,4,0.4,0.4
2024-05-17T0000,2589A,104.9022,25.0925,黔西南布依族苗族自治州,场坝街,,22,16,14,3,5,68,,93,79,16,15,2,3,0.2,0.2
2024-05-17T0000,2590A,104.8811,25.0992,黔西南布依族苗族自治州,坪东大道,,21,14,17,9,6,65,,89,77,4,6,2,2,0,0.1
2024-05-17T0000,2502A,108.6236,21.9667,钦州市,市环保站,,41,41,56,9,28,130,,131,110,10,14,7,8,0.7,1.1
2024-05-17T0000,2503A,108.6549,21.9481,钦州市,沙埠小学,颗粒物(PM10),53,56,58,15,32,126,,130,107,17,17,9,7,0.8,0.9
2024-05-17T0000,2504A,108.5989,21.7431,钦州市,港区一小,,45,40,57,17,25,142,,157,157,12,21,7,8,0.5,0.8
2024-05-17T0000,3404A,108.5959,21.9633,钦州市,北职校,颗粒物(PM10),67,83,58,17,34,122,,127,102,13,15,9,10,1.0,1.2
2024-05-17T0000,1042A,119.5134,39.8207,秦皇岛市,北戴河环保局,颗粒物(PM10),56,62,66,31,17,116,,126,125,23,27,4,7,0.5,0.6
2024-05-17T0000,1043A,119.7493,40.0116,秦皇岛市,第一关,颗粒物(PM10),72,94,75,45,31,40,,129,79,63,33,5,8,0.3,0.5
2024-05-17T0000,1044A,119.5897,39.9499,秦皇岛市,监测站,细颗粒物(PM2.5),72,89,73,52,28,105,,124,111,23,30,5,7,0.4,0.5
2024-05-17T0000,1046A,119.5251,39.9041,秦皇岛市,建设大厦,颗粒物(PM10),73,95,67,41,26,79,,114,98,28,27,3,6,0.4,0.5
2024-05-17T0000,3132A,119.610547,39.943889,秦皇岛市,文明里,颗粒物(PM10),80,109,93,43,26,95,,118,108,36,37,5,8,0.5,0.6
2024-05-17T0000,1307A,120.6659,36.2403,青岛市,仰口,,46,46,46,19,20,144,,173,166,8,9,6,6,0.5,0.5
2024-05-17T0000,1310A,120.4134,36.0658,青岛市,市南区东部子站,颗粒物(PM10),53,56,58,17,17,109,,152,139,17,30,8,9,0.4,0.5
2024-05-17T0000,1311A,120.3664,36.1032,青岛市,四方区子站,细颗粒物(PM2.5),58,,56,41,20,130,,166,149,17,41,5,7,0.4,0.5
2024-05-17T0000,1312A,120.2994,36.054,青岛市,市南区西部子站,,44,44,70,20,40,119,,153,140,26,48,8,10,0.5,0.5
2024-05-17T0000,1313A,120.4581,36.0858,青岛市,崂山区子站,,36,36,50,14,17,114,,158,146,21,33,9,10,0.4,0.5
2024-05-17T0000,1314A,120.1983,35.9608,青岛市,黄岛区子站,,46,44,50,32,31,119,,159,140,12,19,7,8,0.5,0.6
