timepoint,stationcode,longitude,latitude,area,positionname,primarypollutant,aqi,pm10,pm10_24h,pm2_5,pm2_5_24h,o3,o3_24h,o3_8h,o3_8h_24h,no2,no2_24h,so2,so2_24h,co,co_24h
2024-05-17T1300,2566A,102.1879,31.914,阿坝藏族羌族自治州,州农科所,,29,29,24,8,10,39,,24,24,12,15,2,2,0.0,0.1
2024-05-17T1300,2568A,102.2502,31.8896,阿坝藏族羌族自治州,马师校,,34,26,13,13,13,106,,58,58,12,11,3,4,0.3,0.3
2024-05-17T1300,3994A,102.2165,31.9024,阿坝藏族羌族自治州,马尔康中学西区,,,20,18,9,13,92,,64,61,,7,4,4,0.3,0.3
2024-05-17T1300,2695A,80.292,41.1694,阿克苏地区,电视台,颗粒物(PM10),149,248,274,67,77,96,,53,53,15,31,4,5,0.3,0.4
2024-05-17T1300,2696A,80.2613,41.1551,阿克苏地区,艺术中心,颗粒物(PM10),140,230,263,72,88,93,,40,40,23,45,4,5,0.4,0.7
2024-05-17T1300,2204A,105.6467,38.8363,阿拉善盟,西城区西花园,颗粒物(PM10),111,171,138,29,32,148,,142,142,5,10,9,9,0.8,0.8
2024-05-17T1300,2205A,105.6985,38.8411,阿拉善盟,蒙二幼,颗粒物(PM10),97,144,153,42,45,142,,134,134,6,8,9,9,0.4,0.4
2024-05-17T1300,2206A,105.724,38.8516,阿拉善盟,环保局新楼,颗粒物(PM10),97,144,147,56,65,141,,143,143,6,6,9,10,0.5,0.5
2024-05-17T1300,2708A,88.1264,47.8517,阿勒泰地区,市站,,31,31,44,11,11,55,,73,52,8,6,6,5,0.4,0.3
2024-05-17T1300,2630A,80.1161,32.5,阿里地区,阿里监测站,,40,14,18,3,7,127,,103,103,8,15,8,7,0.4,0.4
2024-05-17T1300,3192A,80.0903,32.5028,阿里地区,阿里藏医院,,41,14,18,10,7,130,,97,97,5,10,7,8,0.4,0.5
2024-05-17T1300,2642A,109.0318,32.6537,安康市,香溪洞,颗粒物(PM10),59,68,57,29,35,133,,78,78,4,8,6,8,0.5,0.6
2024-05-17T1300,2643A,109.0281,32.6939,安康市,安康市监测站,细颗粒物(PM2.5),55,56,76,39,39,143,,90,90,7,13,10,11,0.5,0.7
2024-05-17T1300,2644A,109.0072,32.6975,安康市,汉滨区检察院,,49,47,58,34,39,132,,67,67,6,11,10,9,0.4,0.4
2024-05-17T1300,2291A,117.0809,30.5177,安庆市,环科院,臭氧1小时,93,81,68,28,36,194,,139,139,9,34,7,7,0.5,0.5
2024-05-17T1300,2292A,117.0331,30.5119,安庆市,马山宾馆,臭氧1小时,98,71,71,28,38,198,,122,122,17,50,10,10,0.5,0.5
2024-05-17T1300,2294A,116.9896,30.6145,安庆市,安庆大学,臭氧1小时,99,84,79,33,45,199,,151,151,13,22,11,11,0.4,0.5
2024-05-17T1300,3173A,117.0598,30.5351,安庆市,市人大,臭氧1小时,100,88,71,30,37,200,,140,140,11,25,8,11,0.6,0.6
2024-05-17T1300,3123A,105.9408,26.2431,安顺市,凤凰山,,26,11,21,3,12,82,,84,83,4,6,5,5,0.8,0.7
2024-05-17T1300,3124A,105.9439,26.2564,安顺市,金钟山,,25,9,21,6,12,80,,85,83,5,6,4,4,0.7,0.6
2024-05-17T1300,3125A,105.8983,26.2481,安顺市,娄家坡,,25,20,33,9,15,77,,84,81,3,4,7,7,0.5,0.5
2024-05-17T1300,1819A,114.3551,36.1017,安阳市,红庙街,臭氧1小时,112,111,103,38,28,223,,126,126,7,13,10,9,1.0,0.7
2024-05-17T1300,1820A,114.361,36.0681,安阳市,银杏小区,臭氧1小时,111,102,97,57,33,222,,133,133,2,9,13,13,1.1,0.6
2024-05-17T1300,3141A,114.3922,36.0878,安阳市,信访局,臭氧1小时,109,118,114,41,29,218,,120,120,7,15,8,7,1.1,0.7
2024-05-17T1300,3669A,114.4705,36.0637,安阳市,左辅环卫站,臭氧1小时,101,105,76,39,26,202,,114,114,9,12,12,9,1.3,0.9
2024-05-17T1300,3703A,114.2917,36.0949,安阳市,安钢职工学校,臭氧1小时,110,126,96,30,31,220,,113,113,13,18,12,11,1.1,0.7
2024-05-17T1300,1748A,123.044,41.1196,鞍山市,深沟寺,臭氧1小时,63,54,40,25,20,170,,138,138,9,14,11,10,0.7,0.6
2024-05-17T1300,1749A,123.011,41.0931,鞍山市,太阳城,臭氧1小时,70,40,48,15,19,176,,144,144,12,18,12,11,0.8,0.9
2024-05-17T1300,1750A,123.0485,41.1442,鞍山市,太平,臭氧1小时,73,68,57,32,26,178,,138,138,13,21,10,8,0.6,0.6
2024-05-17T1300,1751A,122.9642,41.0971,鞍山市,铁西三道街,臭氧1小时,78,73,67,34,28,182,,139,139,14,39,10,11,0.6,0.8
2024-05-17T1300,1752A,122.9341,41.0833,鞍山市,铁西工业园区,臭氧1小时,78,71,81,27,30,182,,146,146,9,35,10,12,0.6,0.8
2024-05-17T1300,1753A,123.022,41.0821,鞍山市,明达新区,臭氧1小时,68,48,41,21,19,174,,142,142,10,19,13,12,0.7,0.8
2024-05-17T1300,2195A,107.4212,40.761,巴彦淖尔市,附二中,颗粒物(PM10),157,263,184,74,57,125,,92,92,8,22,2,3,0.3,0.4
2024-05-17T1300,2196A,107.37,40.7372,巴彦淖尔市,市环保大楼,颗粒物(PM10),158,265,190,60,52,121,,84,84,8,18,3,4,0.3,0.3
2024-05-17T1300,1956A,86.1472,41.7538,巴音郭楞蒙古自治州,孔雀公园,颗粒物(PM10),133,216,310,73,106,96,,55,55,13,36,8,8,0.3,0.4
2024-05-17T1300,1957A,86.1972,41.7166,巴音郭楞蒙古自治州,棉纺厂,颗粒物(PM10),152,254,418,108,121,96,,57,48,13,25,4,4,0.4,0.4
2024-05-17T1300,1958A,86.2357,41.7173,巴音郭楞蒙古自治州,经济开发区,颗粒物(PM10),168,285,363,88,107,100,,90,81,15,10,8,8,0.3,0.2
2024-05-17T1300,2914A,106.7677,31.8794,巴中市,苏山坪,颗粒物(PM10),51,51,54,32,34,153,,114,111,11,11,4,5,0.6,0.4
2024-05-17T1300,3182A,106.7656,31.8545,巴中市,丽阳花园,臭氧1小时,62,41,56,27,39,169,,85,85,10,22,6,5,0.4,0.6
2024-05-17T1300,3183A,106.7418,31.8654,巴中市,圣泉水务公司,,50,43,56,27,38,159,,88,88,10,22,4,3,0.4,0.4
2024-05-17T1300,3616A,106.7616,31.8344,巴中市,市中心医院,臭氧1小时,60,42,60,24,41,168,,78,78,7,21,7,6,0.4,0.5
2024-05-17T1300,2235A,122.7911,45.6077,白城市,洮北区环保局,,47,47,32,19,14,143,,105,105,10,12,8,7,0.4,0.3
2024-05-17T1300,2236A,122.8738,45.5725,白城市,市环保局,,41,32,14,15,14,131,,103,103,9,12,8,6,0.5,0.3
2024-05-17T1300,2231A,126.4219,41.9171,白山市,喜丰,,40,28,42,8,11,125,,78,78,6,21,12,10,1.0,1
2024-05-17T1300,2232A,126.4077,41.9419,白山市,环保局,,,,38,,10,116,,68,68,,23,12,10,0.8,0.8
2024-05-17T1300,2647A,104.1724,36.5446,白银市,第三小学,颗粒物(PM10),74,97,110,30,38,144,,112,112,11,32,9,57,0.4,0.7
2024-05-17T1300,2648A,104.1465,36.5482,白银市,动力公司,颗粒物(PM10),70,90,92,33,37,154,,129,129,8,22,12,46,0.4,0.7
2024-05-17T1300,2512A,106.6103,23.9011,百色市,市监测站,细颗粒物(PM2.5),65,70,54,47,28,40,,27,24,21,18,8,10,0.9,0.8
2024-05-17T1300,2513A,106.6538,23.8859,百色市,市中心血站,细颗粒物(PM2.5),72,59,58,52,35,45,,28,27,19,22,6,12,0.7,0.7
2024-05-17T1300,3406A,106.6085,23.8798,百色市,祈福高中,细颗粒物(PM2.5),62,48,58,44,31,50,,34,34,18,18,10,11,0.9,0.8
2024-05-17T1300,2270A,117.396,32.939,蚌埠市,工人疗养院,臭氧1小时,85,78,63,25,27,188,,149,149,6,13,7,9,0.4,0.4
2024-05-17T1300,2271A,117.3605,32.9427,蚌埠市,百货大楼,臭氧1小时,90,76,64,34,32,192,,154,154,7,16,5,6,0.4,0.4
2024-05-17T1300,2273A,117.4185,32.8911,蚌埠市,蚌埠学院,臭氧1小时,79,61,53,31,28,183,,139,139,10,17,9,10,0.6,0.5
2024-05-17T1300,2274A,117.3533,32.9673,蚌埠市,淮上区政府,臭氧1小时,89,75,64,32,31,191,,155,155,2,9,7,8,0.4,0.4
2024-05-17T1300,2275A,117.3145,32.8977,蚌埠市,高新区,臭氧1小时,90,80,73,34,34,192,,146,146,3,13,6,9,0.4,0.4
2024-05-17T1300,3715A,117.3092,32.9314,蚌埠市,蚌埠田家炳中学,细颗粒物(PM2.5),104,83,72,78,39,194,,142,142,5,14,7,16,,0.4
2024-05-17T1300,1585A,109.8756,40.6532,包头市,市环境监测站,颗粒物(PM10),82,113,116,32,47,102,,52,52,24,36,17,13,0.4,0.6
2024-05-17T1300,1587A,109.9991,40.5842,包头市,包头八中,颗粒物(PM10),80,109,134,47,49,97,,48,48,24,40,14,15,0.4,0.9
2024-05-17T1300,1588A,109.8538,40.6821,包头市,青山宾馆,颗粒物(PM10),67,84,92,44,36,107,,53,53,22,29,22,14,0.6,0.5
2024-05-17T1300,1589A,109.8642,40.6288,包头市,惠龙物流,颗粒物(PM10),80,109,114,43,42,101,,58,58,28,33,18,15,0.5,0.7
2024-05-17T1300,1590A,110.0377,40.5546,包头市,东河鸿龙湾,,,89,122,27,36,99,,43,43,,33,14,10,0.6,0.7
2024-05-17T1300,3283A,109.9154,40.5685,包头市,滨河大厦,颗粒物(PM10),80,110,116,41,48,104,,49,49,23,36,16,14,0.5,0.6
2024-05-17T1300,3419A,109.9447,40.6261,包头市,包头市委党校,颗粒物(PM10),77,103,116,28,37,101,,58,58,25,36,18,20,0.4,0.8
2024-05-17T1300,3683A,109.8331,40.6576,包头市,昆区政府,颗粒物(PM10),78,106,107,39,39,100,,59,59,30,26,20,14,0.4,0.3
2024-05-17T1300,1930A,107.185,34.3063,宝鸡市,庙沟村,颗粒物(PM10),52,53,48,27,23,138,,107,107,5,9,9,9,0.6,0.6
2024-05-17T1300,1931A,107.0708,34.3017,宝鸡市,竹园沟,,47,35,46,32,27,150,,91,91,11,18,6,6,0.5,0.5
2024-05-17T1300,1932A,107.1906,34.3672,宝鸡市,三陆医院,颗粒物(PM10),63,75,70,43,36,167,,75,75,16,35,6,10,0.6,0.6
2024-05-17T1300,1933A,107.1431,34.3547,宝鸡市,监测站,颗粒物(PM10),59,67,61,28,30,157,,80,80,13,30,8,9,0.4,0.5
2024-05-17T1300,1934A,107.1186,34.3739,宝鸡市,技工学校,颗粒物(PM10),62,73,61,29,32,157,,80,80,13,23,7,9,0.5,0.5
2024-05-17T1300,1935A,107.3906,34.3528,宝鸡市,陈仓区环保局家属楼,颗粒物(PM10),70,90,66,23,37,164,,77,77,15,27,12,16,0.4,0.5
2024-05-17T1300,1936A,107.2058,34.3497,宝鸡市,文理学院,臭氧1小时,60,50,60,37,28,168,,92,92,10,24,6,7,0.4,0.4
2024-05-17T1300,1937A,107.2386,34.3622,宝鸡市,三迪小学,臭氧1小时,62,67,66,43,37,169,,78,78,11,30,8,8,0.6,0.6
2024-05-17T1300,1051A,115.493,38.8632,保定市,游泳馆,臭氧1小时,104,118,120,30,35,207,,123,123,4,15,6,7,0.2,0.3
2024-05-17T1300,1052A,115.5213,38.8959,保定市,华电二区,臭氧1小时,93,90,75,33,27,194,,109,109,12,23,5,4,0.2,0.4
2024-05-17T1300,1053A,115.4713,38.9108,保定市,接待中心,臭氧1小时,101,46,70,31,26,201,,114,114,8,19,4,4,0.4,0.5
2024-05-17T1300,1054A,115.4612,38.8416,保定市,地表水厂,臭氧1小时,103,91,80,33,40,205,,126,126,6,15,4,6,0.4,0.4
2024-05-17T1300,3581A,115.31981,38.95208,保定市,满城区生态环境分局,臭氧1小时,106,100,103,39,37,212,,130,130,10,18,6,5,0.4,0.5
2024-05-17T1300,3582A,115.47694,38.76408,保定市,清苑区第二中学,臭氧1小时,103,89,89,11,31,206,,124,124,9,20,5,6,0.3,0.5
2024-05-17T1300,3583A,115.62909,39.02311,保定市,徐水物探局,臭氧1小时,105,97,104,34,30,210,,115,115,10,24,10,10,0.2,0.3
2024-05-17T1300,4004A,115.4202,38.8656,保定市,双鹰农机,臭氧1小时,106,70,80,35,26,212,,130,130,12,21,7,8,0,0.1
2024-05-17T1300,4034A,115.5150,38.8590,保定市,植保所站,臭氧1小时,103,69,90,34,39,205,,117,117,14,21,5,8,0.3,0.5
2024-05-17T1300,2594A,99.1678,25.1081,保山市,市环境监测站,,43,43,38,14,19,100,,76,76,6,8,4,4,0.5,0.5
2024-05-17T1300,2595A,99.1711,25.1328,保山市,市环保局,颗粒物(PM10),56,61,44,27,14,109,,89,89,4,6,4,4,0.6,0.5
2024-05-17T1300,1867A,109.1436,21.4086,北海市,海滩公园,颗粒物(PM10),51,52,47,17,17,146,,132,125,6,8,9,10,0.6,0.6
2024-05-17T1300,1868A,109.0981,21.4661,北海市,新市环保局,,47,47,45,24,20,131,,133,122,7,9,6,8,0.6,0.7
2024-05-17T1300,1869A,109.1778,21.5233,北海市,北海工业园,颗粒物(PM10),52,54,49,22,24,132,,118,107,4,11,7,12,0.6,0.7
2024-05-17T1300,3400A,109.1911,21.4415,北海市,龙潭自来水厂,细颗粒物(PM2.5),52,52,44,36,24,137,,125,114,7,9,8,10,0.6,0.6
2024-05-17T1300,1001A,116.3621,39.8784,北京市,万寿西宫,臭氧1小时,115,79,93,33,37,229,,131,131,19,36,5,3,0.6,0.6
2024-05-17T1300,1002A,116.2202,40.2915,北京市,定陵,臭氧1小时,109,52,70,20,26,218,,150,150,14,19,4,2,0.6,0.4
2024-05-17T1300,1003A,116.4174,39.9289,北京市,东四,臭氧1小时,112,100,101,38,37,224,,126,126,24,41,6,5,0.6,0.6
2024-05-17T1300,1004A,116.4072,39.8863,北京市,天坛,臭氧1小时,112,93,84,38,34,224,,125,125,17,27,7,4,0.7,0.7
2024-05-17T1300,1005A,116.462,39.9365,北京市,农展馆,臭氧1小时,101,88,88,31,35,202,,107,107,17,45,6,5,0.7,0.6
2024-05-17T1300,1006A,116.3392,39.9295,北京市,官园,臭氧1小时,111,94,99,29,34,221,,132,132,19,41,7,6,0.5,0.5
2024-05-17T1300,1007A,116.2878,39.9611,北京市,海淀万柳,颗粒物(PM10),118,185,91,28,35,217,,130,130,22,46,9,7,0.5,0.6
2024-05-17T1300,1008A,116.6636,40.135,北京市,顺义新城,臭氧1小时,106,76,79,26,34,212,,139,139,14,30,7,3,0.7,0.5
2024-05-17T1300,1009A,116.6275,40.3275,北京市,怀柔镇,臭氧1小时,108,77,69,25,25,215,,155,155,10,18,7,5,0.6,0.5
2024-05-17T1300,1010A,116.2296,40.217,北京市,昌平镇,臭氧1小时,109,62,85,21,33,218,,134,134,14,29,4,2,0.5,0.5
2024-05-17T1300,1011A,116.3966,39.9821,北京市,奥体中心,臭氧1小时,92,67,81,26,34,193,,111,111,21,42,5,4,0.6,0.6
2024-05-17T1300,1012A,116.184,39.9136,北京市,古城,臭氧1小时,105,74,100,28,32,209,,133,133,21,39,4,3,0.8,0.8
2024-05-17T1300,3281A,115.9718,40.4529,北京市,延庆夏都,,43,31,86,13,39,135,,107,107,11,29,3,2,0.2,0.4
2024-05-17T1300,3417A,117.0709,40.1465,北京市,平谷新城,臭氧1小时,107,86,73,33,34,214,,133,133,12,17,12,4,0.9,0.5
2024-05-17T1300,3418A,116.8336,40.4095,北京市,密云新城,臭氧1小时,103,71,68,28,33,206,,154,154,12,18,4,2,0.5,0.4
2024-05-17T1300,3672A,116.1541,39.8204,北京市,丰台云岗,臭氧1小时,105,88,88,37,33,209,,133,133,18,25,4,3,0.6,0.6
2024-05-17T1300,3673A,116.6804,39.9081,北京市,通州东关,臭氧1小时,97,83,105,30,38,197,,106,106,6,40,6,5,0.6,0.5
2024-05-17T1300,3674A,115.9577,39.7603,北京市,房山燕山,臭氧1小时,101,106,105,26,31,202,,116,116,19,32,4,3,0.4,0.5
2024-05-17T1300,3675A,116.4672,39.7733,北京市,大兴旧宫,臭氧1小时,97,71,79,27,28,197,,97,97,11,29,3,3,0.6,0.5
2024-05-17T1300,3694A,115.986,40.4563,北京市,延庆石河营,,41,34,74,11,31,129,,99,99,13,31,2,2,0.2,0.4
2024-05-17T1300,3695A,116.6151,40.3053,北京市,怀柔新城,臭氧1小时,98,67,68,22,26,198,,147,147,11,19,3,2,0.6,0.5
2024-05-17T1300,3696A,116.2545,39.8768,北京市,丰台小屯,臭氧1小时,103,84,87,29,34,206,,130,130,17,35,4,2,0.5,0.5
2024-05-17T1300,3697A,116.84,40.3844,北京市,密云镇,臭氧1小时,94,50,63,25,24,195,,132,132,10,30,3,2,0.5,0.4
2024-05-17T1300,1761A,123.8275,41.3064,本溪市,大峪,臭氧1小时,72,75,48,20,15,177,,110,110,8,20,12,10,0.6,0.6
2024-05-17T1300,1762A,123.7567,41.3325,本溪市,溪湖,颗粒物(PM10),57,63,61,20,21,160,,103,103,15,25,19,11,1.0,0.7
2024-05-17T1300,1763A,123.7169,41.3094,本溪市,彩屯,,47,46,56,30,36,150,,96,96,22,37,16,14,1.2,1.3
2024-05-17T1300,1764A,123.7669,41.2864,本溪市,东明,颗粒物(PM10),57,63,52,19,21,160,,101,101,11,32,14,11,0.6,0.7
2024-05-17T1300,1765A,123.7992,41.2664,本溪市,新立屯,颗粒物(PM10),62,74,35,22,15,163,,129,129,11,23,14,12,0.8,0.8
2024-05-17T1300,1766A,123.8142,41.3472,本溪市,威宁,颗粒物(PM10),71,91,50,17,21,158,,87,87,12,28,10,7,0.5,0.6
2024-05-17T1300,2587A,105.2864,27.3125,毕节市,八中,,42,39,35,29,27,73,,36,36,15,14,6,6,0.7,0.6
2024-05-17T1300,2588A,105.31,27.2944,毕节市,师专,,39,34,33,27,25,68,,37,37,18,15,7,7,0.6,0.6
2024-05-17T1300,3537A,105.3631,27.3533,毕节市,长征村,细颗粒物(PM2.5),58,55,39,41,30,80,,49,49,10,7,7,6,0.6,0.5
2024-05-17T1300,1629A,118.0018,37.3617,滨州市,第二水厂,臭氧1小时,112,88,81,36,34,224,,125,125,16,29,12,11,1.0,0.9
2024-05-17T1300,1630A,117.9776,37.393,滨州市,北中新校,臭氧1小时,113,92,82,34,32,226,,126,126,17,30,15,13,1.0,0.9
2024-05-17T1300,3514A,117.9378,37.3956,滨州市,中海酒店,臭氧1小时,112,88,75,53,32,223,,136,136,16,22,22,18,0.7,0.8
2024-05-17T1300,3515A,117.9378,37.3553,滨州市,开发区一中,臭氧1小时,102,97,92,39,29,204,,118,118,11,26,24,18,0.8,0.9
2024-05-17T1300,3516A,118.0917,37.694,滨州市,金海六路,臭氧1小时,102,66,86,19,22,203,,130,130,8,23,10,12,0.7,0.6
2024-05-17T1300,4028A,117.9956,37.3753,滨州市,滨州市西街道办事处,臭氧1小时,106,85,85,34,36,212,,120,120,14,26,14,14,1.0,0.9
2024-05-17T1300,2311A,115.8072,33.8399,亳州市,污水处理厂,颗粒物(PM10),61,72,74,40,36,168,,152,152,4,6,10,10,0.5,0.5
2024-05-17T1300,2312A,115.7789,33.8518,亳州市,三国揽胜宫,臭氧1小时,67,80,78,35,34,173,,158,158,3,5,10,11,0.4,0.6
2024-05-17T1300,3332A,115.7633,33.8034,亳州市,亳州学院,"颗粒物(PM10),臭氧1小时",58,66,74,34,32,166,,148,148,3,6,10,10,0.5,0.5
2024-05-17T1300,2693A,82.0485,44.8556,博尔塔拉蒙古自治州,市党校,颗粒物(PM10),54,58,122,19,31,80,,90,76,8,6,9,10,0.2,0.4
2024-05-17T1300,2694A,82.0806,44.8969,博尔塔拉蒙古自治州,市环保局,颗粒物(PM10),61,72,111,15,24,83,,89,72,10,8,10,9,0.4,0.2
2024-05-17T1300,1071A,116.8842,38.2991,沧州市,沧县城建局,臭氧1小时,101,77,77,27,25,201,,128,128,14,19,8,6,0.6,0.5
2024-05-17T1300,1072A,116.8584,38.3254,沧州市,电视转播站,臭氧1小时,75,59,72,29,24,180,,115,115,8,16,10,10,0.4,0.3
2024-05-17T1300,1073A,116.8709,38.3228,沧州市,市环保局,臭氧1小时,85,76,72,11,19,188,,121,121,10,18,12,8,0.4,0.3
2024-05-17T1300,3324A,116.8136,38.3004,沧州市,河北水利电力学院,臭氧1小时,99,68,72,40,22,199,,126,126,12,17,13,11,0.3,0.3
2024-05-17T1300,2622A,97.1806,31.1273,昌都市,昌都监测站,,41,7,8,3,6,131,,118,118,9,7,7,7,0.4,0.4
2024-05-17T1300,2690A,88.1236,43.8886,昌吉回族自治州,天山天池,颗粒物(PM10),59,67,97,14,25,96,,81,81,6,6,11,7,0.5,0.5
2024-05-17T1300,2692A,87.2717,44.0297,昌吉回族自治州,新区政务中心,颗粒物(PM10),57,63,118,27,33,98,,63,63,5,17,8,8,0.3,0.4
2024-05-17T1300,3613A,87.3095,44.0142,昌吉回族自治州,亚心广场,颗粒物(PM10),58,66,136,12,32,107,,77,77,8,23,10,8,0.4,0.4
2024-05-17T1300,1119A,125.3325,43.9166,长春市,食品厂,颗粒物(PM10),51,51,47,16,18,150,,97,97,15,36,9,8,0.3,0.2
2024-05-17T1300,1120A,125.2863,43.9027,长春市,客车厂,,47,40,37,22,16,149,,101,101,12,32,8,6,0.5,0.4
2024-05-17T1300,1121A,125.2841,43.8463,长春市,邮电学院,,49,45,38,15,16,154,,98,98,10,23,10,8,0.4,0.3
2024-05-17T1300,1122A,125.3716,43.8772,长春市,劳动公园,,50,39,44,14,17,159,,101,101,10,39,8,6,0.4,0.4
2024-05-17T1300,1123A,125.3297,43.8805,长春市,园林处,,48,30,35,21,18,153,,98,98,11,32,8,7,0.4,0.3
2024-05-17T1300,1124A,125.4605,43.79,长春市,净月潭,,50,32,22,19,13,157,,103,103,7,9,10,8,0.5,0.3
2024-05-17T1300,1126A,125.3863,43.8447,长春市,经开区环卫处,,48,45,41,18,16,152,,96,96,10,38,8,6,0.4,0.4
2024-05-17T1300,1127A,125.245,43.7783,长春市,高新区管委会,,,34,31,20,15,152,,102,102,8,28,10,7,,0.4
2024-05-17T1300,1128A,125.1761,43.8325,长春市,岱山公园,,50,45,40,35,20,154,,101,101,12,44,9,7,0.4,0.4
2024-05-17T1300,1335A,113.0833,28.2325,长沙市,经开区环保局,臭氧1小时,74,86,79,49,41,179,,135,135,7,15,11,9,0.6,0.5
2024-05-17T1300,1336A,112.8872,28.2189,长沙市,高开区环保局,颗粒物(PM10),63,76,83,42,36,157,,128,128,10,17,9,9,0.7,0.7
2024-05-17T1300,1337A,113.0792,28.2053,长沙市,马坡岭,"颗粒物(PM10),细颗粒物(PM2.5)",63,76,77,45,44,163,,120,120,5,18,12,10,0.7,0.6
2024-05-17T1300,1338A,112.9394,28.19,长沙市,湖南师范大学,颗粒物(PM10),68,86,85,46,48,146,,124,124,18,15,4,3,0.8,0.9
2024-05-17T1300,1339A,113.0178,28.1322,长沙市,雨花区环保局,颗粒物(PM10),64,78,79,38,38,155,,111,111,5,25,9,10,0.5,0.5
2024-05-17T1300,1340A,112.9792,28.2597,长沙市,伍家岭,颗粒物(PM10),67,84,92,36,48,160,,110,110,7,39,10,9,0.5,0.7
2024-05-17T1300,1341A,113.0014,28.1944,长沙市,火车新站,颗粒物(PM10),68,85,86,39,43,160,,117,117,8,32,7,7,0.8,0.9
2024-05-17T1300,1342A,112.9844,28.1178,长沙市,天心区环保局,颗粒物(PM10),77,104,81,37,44,156,,124,124,14,28,6,8,0.6,0.8
2024-05-17T1300,1343A,112.8908,28.1308,长沙市,湖南中医药大学,"颗粒物(PM10),细颗粒物(PM2.5)",59,68,85,42,44,158,,112,112,5,37,10,10,0.9,1
2024-05-17T1300,1344A,112.9581,28.3611,长沙市,沙坪,细颗粒物(PM2.5),57,56,67,40,38,156,,116,116,9,18,10,9,0.5,0.7
2024-05-17T1300,1727A,113.1147,36.1547,长治市,清华站,臭氧1小时,92,66,45,31,18,193,,133,133,11,17,13,10,0.4,0.4
2024-05-17T1300,1728A,113.1031,36.1989,长治市,监测站,臭氧1小时,95,64,46,34,18,196,,135,135,14,20,6,4,0.5,0.6
2024-05-17T1300,1730A,113.0886,36.2125,长治市,审计局,臭氧1小时,92,100,45,27,20,193,,130,130,11,15,16,14,0.3,0.4
2024-05-17T1300,1731A,113.0844,36.1856,长治市,长治八中,臭氧1小时,102,80,53,22,23,204,,136,136,14,22,11,8,0.6,0.7
2024-05-17T1300,2845A,113.1569,36.1911,长治市,德盛苑,臭氧1小时,98,82,41,34,19,198,,155,155,9,10,12,7,0.6,0.6
2024-05-17T1300,3568A,113.06,36.0464,长治市,向阳小学,臭氧1小时,100,89,63,45,33,200,,142,142,14,17,15,15,0.6,0.6
2024-05-17T1300,3569A,112.8792,36.3144,长治市,屯留一中,"颗粒物(PM10),臭氧1小时",69,87,43,37,18,175,,103,103,9,21,14,9,0.5,0.5
2024-05-17T1300,3570A,113.235,36.3489,长治市,潞城四中,颗粒物(PM10),75,100,67,52,33,173,,136,136,11,23,7,9,0.4,0.6
2024-05-17T1300,1854A,111.6975,28.9703,常德市,市二中,颗粒物(PM10),58,65,77,35,33,129,,105,105,4,10,9,9,0.5,0.5
2024-05-17T1300,3138A,111.7153,29.0289,常德市,武陵区永安,颗粒物(PM10),51,51,71,24,35,130,,116,116,4,11,8,10,0.4,0.5
2024-05-17T1300,3139A,111.6892,28.9881,常德市,鼎城区玉霞,颗粒物(PM10),56,62,81,29,35,130,,100,100,3,12,9,8,0.4,0.5
2024-05-17T1300,3140A,111.6625,29.0531,常德市,武陵区长庚,颗粒物(PM10),57,64,78,28,37,123,,113,113,3,10,8,10,0.4,0.6
2024-05-17T1300,1196A,119.9633,31.762,常州市,市监测站,臭氧1小时,106,58,60,32,27,212,,115,115,11,29,10,10,0.5,0.5
2024-05-17T1300,1200A,119.9468,31.7069,常州市,武进监测站,臭氧1小时,108,40,44,26,22,215,,122,122,10,22,9,9,0.5,0.5
2024-05-17T1300,1201A,119.9255,31.9087,常州市,安家,臭氧1小时,95,43,47,24,25,196,,119,119,10,28,8,9,0.5,0.5
2024-05-17T1300,3002A,119.9805,31.8174,常州市,行政中心,臭氧1小时,97,45,62,23,23,197,,112,112,11,26,11,11,0.2,0.3
2024-05-17T1300,3003A,120.0522,31.7748,常州市,经开区,臭氧1小时,108,43,63,28,23,215,,116,116,16,32,10,12,0.5,0.8
2024-05-17T1300,3010A,119.9025,31.7964,常州市,钟楼,臭氧1小时,104,50,51,28,22,208,,118,118,12,24,10,10,0.6,0.5
2024-05-17T1300,3429A,119.8598,31.7066,常州市,武进经发区,臭氧1小时,106,51,58,23,29,212,,115,115,12,31,10,13,0.5,0.5
2024-05-17T1300,3430A,119.5826,31.7245,常州市,金坛城区,臭氧1小时,93,40,47,14,24,194,,124,124,4,22,9,11,0.5,0.7
2024-05-17T1300,2220A,120.4318,41.5881,朝阳市,西梁,臭氧1小时,63,21,36,21,28,170,,105,105,10,26,15,16,0.7,0.7
2024-05-17T1300,2221A,120.4521,41.5646,朝阳市,河畔小区,臭氧1小时,83,56,63,21,31,186,,115,115,10,22,12,15,0.7,0.6
2024-05-17T1300,2222A,120.4176,41.5648,朝阳市,八里堡,臭氧1小时,64,58,65,24,32,171,,109,109,13,26,13,16,0.9,0.8
2024-05-17T1300,2223A,120.3806,41.5969,朝阳市,农业园区,颗粒物(PM10),90,130,45,29,35,184,,112,112,14,25,16,14,0.9,0.6
2024-05-17T1300,1705A,116.6367,23.6719,潮州市,西园路,臭氧1小时,59,48,51,25,28,167,,104,104,14,16,7,5,0.2,0.3
2024-05-17T1300,3026A,116.6183,23.6608,潮州市,市政府,臭氧1小时,78,57,55,21,24,182,,108,108,18,18,10,8,0.5,0.5
2024-05-17T1300,4036A,116.6461,23.6761,潮州市,金山,臭氧1小时,73,67,52,26,27,178,,104,104,14,15,13,9,0.4,0.4
2024-05-17T1300,2472A,113.0073,25.9061,郴州市,马头岭,,50,50,61,22,20,92,,66,66,8,15,7,6,0.9,0.8
2024-05-17T1300,2473A,113.0116,25.8226,郴州市,市职中,,39,39,46,25,31,117,,77,77,10,19,9,8,0.7,0.7
2024-05-17T1300,2474A,113.0161,25.8001,郴州市,兴隆步行街,颗粒物(PM10),54,57,55,30,32,118,,82,82,13,18,7,8,0.6,0.7
2024-05-17T1300,2475A,113.0383,25.8071,郴州市,市审计局,,47,47,45,28,29,128,,85,85,15,21,6,8,0.6,0.6
2024-05-17T1300,2476A,113.0348,25.7759,郴州市,市环保局,,45,45,51,28,28,124,,84,84,14,22,6,7,0.6,0.6
2024-05-17T1300,1431A,103.9728,30.7236,成都市,金泉两河,细颗粒物(PM2.5),69,79,79,50,46,167,,68,68,14,26,4,4,0.4,0.5
2024-05-17T1300,1432A,104.176,30.6872,成都市,十里店,颗粒物(PM10),78,105,56,53,27,173,,79,71,35,26,5,4,0.8,0.6
2024-05-17T1300,1433A,104.079,30.5706,成都市,三瓦窑,细颗粒物(PM2.5),100,104,65,75,41,156,,74,74,34,30,7,4,0.8,0.6
2024-05-17T1300,1434A,104.1114,30.63,成都市,沙河铺,,,99,50,,24,171,,85,75,29,22,8,6,0.8,0.5
2024-05-17T1300,1437A,104.0786,30.6531,成都市,君平街,细颗粒物(PM2.5),109,105,68,82,41,200,,71,71,29,26,8,5,0.9,0.7
2024-05-17T1300,2880A,104.0239,30.65639,成都市,大石西路,臭氧1小时,101,102,69,71,41,202,,69,69,30,33,8,5,0.8,0.6
2024-05-17T1300,3136A,104.2725,30.5589,成都市,龙泉驿区区政府,臭氧1小时,75,63,32,41,18,180,,118,118,8,7,6,3,0.6,0.5
2024-05-17T1300,3357A,104.0106,30.6931,成都市,金博路,细颗粒物(PM2.5),89,92,78,66,49,180,,54,54,17,27,5,3,0.7,0.6
2024-05-17T1300,3359A,104.0578,30.5225,成都市,华阳,细颗粒物(PM2.5),77,88,51,56,35,147,,94,94,25,16,6,4,0.7,0.5
2024-05-17T1300,3487A,104.2394,30.5319,成都市,车城东七路,细颗粒物(PM2.5),85,94,45,63,28,174,,114,107,9,13,6,4,0.6,0.5
2024-05-17T1300,3488A,104.3853,30.7453,成都市,青白江技师分院,臭氧1小时,59,46,36,30,18,167,,90,90,14,20,8,4,0.7,0.6
2024-05-17T1300,3489A,104.0789,30.4072,成都市,科学城,细颗粒物(PM2.5),102,103,50,76,34,160,,97,97,19,15,5,4,0.8,0.6
2024-05-17T1300,4011A,103.8506,30.6947,成都市,光华大道三段,细颗粒物(PM2.5),84,101,110,62,73,159,,68,68,22,33,4,3,0.9,1
2024-05-17T1300,1062A,117.9531,40.9081,承德市,铁路,臭氧1小时,54,28,51,8,18,163,,118,118,9,21,13,11,0.4,0.4
2024-05-17T1300,1063A,117.9392,40.9763,承德市,中国银行,臭氧1小时,54,34,48,3,15,163,,111,111,8,20,15,11,0.4,0.4
2024-05-17T1300,1064A,117.9503,40.928,承德市,开发区,臭氧1小时,53,49,60,12,17,162,,118,118,13,21,12,10,0.5,0.4
2024-05-17T1300,1065A,117.8051,40.9655,承德市,文化中心,臭氧1小时,65,56,74,32,22,172,,110,110,14,31,44,19,0.9,0.5
2024-05-17T1300,1066A,117.9268,41.0026,承德市,离宫,,50,27,43,8,18,158,,112,112,7,17,11,6,0.4,0.4
2024-05-17T1300,2314A,117.47,30.6618,池州市,池州学院,臭氧1小时,79,54,49,28,26,183,,134,134,8,15,7,6,0.4,0.5
2024-05-17T1300,3237A,117.4918,30.6617,池州市,展览馆,臭氧1小时,69,65,53,25,25,175,,134,134,7,13,6,5,0.4,0.6
2024-05-17T1300,3333A,117.5627,30.695,池州市,第八中学,臭氧1小时,77,56,48,35,25,181,,134,134,4,11,6,4,0.5,0.5
2024-05-17T1300,3334A,117.5038,30.6243,池州市,第十二中学,臭氧1小时,74,67,52,29,26,179,,131,131,9,16,6,6,0.4,0.8
2024-05-17T1300,1744A,118.9233,42.2816,赤峰市,松山一中,颗粒物(PM10),78,105,66,17,24,135,,78,78,14,37,10,14,0.4,0.7
2024-05-17T1300,1745A,118.9576,42.2728,赤峰市,哈达街,,42,40,49,21,27,134,,77,77,24,36,11,14,0.4,0.6
2024-05-17T1300,1746A,118.8788,42.2554,赤峰市,天义路,,47,43,37,15,13,148,,88,88,14,28,7,10,0.3,0.5
2024-05-17T1300,3058A,119.2658,42.0353,赤峰市,银河街,臭氧1小时,74,,26,47,35,179,,107,107,18,24,17,20,0.7,0.6
2024-05-17T1300,3286A,118.9359,42.3147,赤峰市,桥北物流园区,,46,43,51,20,24,146,,86,86,16,32,8,18,0.4,0.6
2024-05-17T1300,2521A,107.3476,22.4136,崇左市,市环保局江州分局,,45,42,52,19,27,141,,98,98,3,10,8,8,0.5,0.7
2024-05-17T1300,2522A,107.3702,22.3707,崇左市,城南新区,,42,36,50,17,28,133,,101,101,6,11,6,7,0.4,0.8
2024-05-17T1300,2298A,118.3093,32.3153,滁州市,老年大学,臭氧1小时,106,72,58,34,23,212,,156,156,9,16,13,9,0.6,0.6
2024-05-17T1300,2299A,118.3244,32.2786,滁州市,人大宾馆,臭氧1小时,105,60,49,45,32,210,,143,143,13,20,10,8,0.6,0.6
2024-05-17T1300,3207A,118.3118,32.3038,滁州市,市政府原办公楼,臭氧1小时,104,59,52,35,27,207,,146,146,9,17,10,8,0.6,0.6
2024-05-17T1300,3331A,118.3267,32.2634,滁州市,图书馆,臭氧1小时,102,69,51,25,25,204,,139,139,10,18,12,10,0.6,0.5
2024-05-17T1300,2605A,101.5482,25.0441,楚雄彝族自治州,州环境监测站,,35,15,21,14,18,112,,90,90,4,5,6,6,0.6,0.6
2024-05-17T1300,2606A,101.538,25.0492,楚雄彝族自治州,市经济开发区,,35,22,23,16,19,109,,84,84,6,7,4,4,0.5,0.6
2024-05-17T1300,2548A,107.5277,31.2827,达州市,达州职业技术学院,颗粒物(PM10),54,58,53,29,24,145,,66,66,14,29,6,6,0.4,0.4
2024-05-17T1300,2549A,107.5086,31.2186,达州市,市环境监测站,颗粒物(PM10),63,76,66,27,29,141,,65,65,32,38,7,6,0.5,0.6
2024-05-17T1300,2550A,107.4988,31.2132,达州市,凤凰小区,颗粒物(PM10),57,63,65,31,33,163,,75,75,15,32,7,7,0.4,0.6
2024-05-17T1300,2551A,107.5082,31.1986,达州市,达县机关宾馆,颗粒物(PM10),56,61,70,27,36,146,,71,71,25,45,5,5,0.5,0.6
2024-05-17T1300,2552A,107.4644,31.2124,达州市,市政中心,颗粒物(PM10),57,64,66,27,32,156,,66,66,23,39,22,9,1.2,0.7
2024-05-17T1300,2614A,100.1542,25.7054,大理白族自治州,大理市环境监测站,,35,32,38,13,20,110,,94,91,7,9,6,6,0.5,0.5
2024-05-17T1300,2615A,100.2171,25.5811,大理白族自治州,大理古城,,,26,28,10,18,112,,,,7,10,,8,0.8,0.7
2024-05-17T1300,1109A,121.612,38.9741,大连市,甘井子,颗粒物(PM10),59,68,76,25,30,136,,118,118,21,31,9,11,0.6,0.5
2024-05-17T1300,1110A,121.565,38.9511,大连市,周水子,,,60,70,27,38,134,,105,105,,28,10,10,0.4,0.5
2024-05-17T1300,1111A,121.5637,38.8845,大连市,星海三站,,49,49,62,21,35,156,,124,121,10,12,8,9,0.6,0.6
2024-05-17T1300,1112A,121.6302,38.9117,大连市,青泥洼桥,颗粒物(PM10),59,67,64,28,30,94,,108,104,12,22,8,10,0.9,0.7
2024-05-17T1300,1113A,121.6251,38.8638,大连市,傅家庄,,47,47,58,21,29,142,,127,124,11,16,9,10,0.6,0.5
2024-05-17T1300,1114A,121.5213,38.8661,大连市,七贤岭,颗粒物(PM10),52,53,85,24,35,139,,117,117,14,21,9,10,0.5,0.6
2024-05-17T1300,1115A,121.2529,38.8061,大连市,旅顺,颗粒物(PM10),51,51,57,25,34,159,,138,138,15,18,10,11,0.4,0.5
2024-05-17T1300,1116A,121.7485,39.1311,大连市,金州,颗粒物(PM10),55,59,72,26,32,142,,130,130,9,17,9,10,0.7,0.7
2024-05-17T1300,1117A,121.7811,39.0496,大连市,开发区,颗粒物(PM10),54,58,68,22,33,131,,121,121,19,28,6,9,0.6,0.6
2024-05-17T1300,1118A,121.9762,39.0631,大连市,双D港,,46,46,35,24,20,136,,130,130,10,13,8,8,0.6,0.6
2024-05-17T1300,1789A,124.81117,46.03138,大庆市,大同区,颗粒物(PM10),64,78,44,31,26,162,,109,109,8,13,10,8,0.5,0.4
2024-05-17T1300,1790A,125.129,46.533,大庆市,龙凤区,颗粒物(PM10),61,71,41,26,17,144,,96,96,14,19,8,8,0.4,0.4
2024-05-17T1300,1791A,124.902,46.408,大庆市,红岗区,颗粒物(PM10),60,70,30,19,16,137,,101,101,9,13,8,8,0.4,0.4
2024-05-17T1300,1792A,125.153,46.586,大庆市,萨尔图区,颗粒物(PM10),61,71,35,17,15,127,,89,89,15,15,10,9,0.3,0.3
2024-05-17T1300,1793A,124.9042,46.6215,大庆市,让胡路区,颗粒物(PM10),51,52,34,29,21,138,,101,101,8,13,6,6,0.3,0.3
2024-05-17T1300,3481A,125.141,46.634,大庆市,萨区政府监测点,颗粒物(PM10),61,72,35,15,15,139,,99,99,10,14,9,10,0.2,0.2
2024-05-17T1300,1723A,113.2994,40.0758,大同市,云冈宾馆,颗粒物(PM10),53,56,110,32,39,124,,74,74,14,20,11,10,0.6,1.1
2024-05-17T1300,1724A,113.3444,40.0917,大同市,大同大学,颗粒物(PM10),59,68,96,15,31,126,,76,76,11,17,18,20,0.4,0.7
2024-05-17T1300,1725A,113.2661,40.1269,大同市,安家小村,颗粒物(PM10),62,73,118,12,30,117,,69,69,11,17,13,12,0.2,0.5
2024-05-17T1300,1726A,113.2711,40.0844,大同市,教育学院,细颗粒物(PM2.5),107,,114,80,41,126,,76,76,17,23,13,12,0.4,0.6
2024-05-17T1300,3282A,113.3397,40.0597,大同市,大同市卫生学校,颗粒物(PM10),51,52,100,20,34,125,,76,76,14,18,14,14,0.6,0.9
2024-05-17T1300,3565A,113.1367,40.1122,大同市,云冈站,,48,48,106,15,36,112,,77,77,4,19,6,15,0.2,0.3
2024-05-17T1300,3566A,113.1186,40.2556,大同市,图书馆,,35,35,100,18,42,103,,64,64,11,14,14,14,0.7,0.7
2024-05-17T1300,3567A,113.5931,40.0461,大同市,区一中,,45,45,106,26,34,129,,76,76,11,17,11,7,0.3,0.4
2024-05-17T1300,3676A,113.2802,40.0995,大同市,第二人民医院,颗粒物(PM10),68,85,119,15,31,121,,72,72,11,17,14,13,0.4,0.8
2024-05-17T1300,2269A,124.1069,50.4097,大兴安岭地区,科技局,,,20,31,19,16,56,,68,60,7,8,2,2,,
2024-05-17T1300,3663A,124.1164,50.4278,大兴安岭地区,红旗社区,,18,14,24,12,10,54,,57,57,9,12,6,6,0.4,0.4
2024-05-17T1300,1600A,124.3303,40.0625,丹东市,江湾东路,,,63,38,21,19,150,,93,93,10,16,,9,0.5,0.5
2024-05-17T1300,1601A,124.4256,40.1503,丹东市,临江后街,,44,40,29,13,13,140,,88,88,9,14,14,9,0.4,0.4
2024-05-17T1300,1602A,124.3933,40.1461,丹东市,元宝山,,41,37,30,11,13,130,,80,80,12,16,14,11,0.5,0.5
2024-05-17T1300,1603A,124.3633,40.1092,丹东市,民主桥,,45,45,41,18,19,137,,85,85,7,20,14,12,0.3,0.4
2024-05-17T1300,3541A,109.5726,19.5167,儋州市,第一中学子站,,25,24,28,15,7,78,,90,85,2,2,3,4,0.6,0.5
2024-05-17T1300,3542A,109.5567,19.5187,儋州市,东坡学校子站,,26,25,30,14,12,83,,94,88,1,3,4,4,0.5,0.5
2024-05-17T1300,2616A,98.5842,24.428,德宏傣族景颇族自治州,德宏州监测站,细颗粒物(PM2.5),58,46,50,41,40,78,,46,46,16,18,2,4,1.0,0.8
2024-05-17T1300,3677A,98.5881,24.4368,德宏傣族景颇族自治州,芒市人民政府综合楼,细颗粒物(PM2.5),58,52,49,41,31,70,,51,51,18,14,4,5,0.8,0.7
2024-05-17T1300,1901A,104.4239,31.1208,德阳市,东山公园,颗粒物(PM10),63,76,73,36,36,148,,86,86,13,14,4,4,0.5,0.5
2024-05-17T1300,1902A,104.3826,31.1317,德阳市,西小区,细颗粒物(PM2.5),68,67,71,49,45,147,,69,69,21,29,6,9,0.6,0.6
2024-05-17T1300,1904A,104.3553,31.1091,德阳市,耐火材料厂,颗粒物(PM10),77,104,77,54,45,155,,71,71,31,26,10,10,0.7,0.6
2024-05-17T1300,3639A,104.4019,31.1244,德阳市,市教育局,颗粒物(PM10),58,66,64,39,38,146,,70,70,16,37,6,4,0.6,0.6
2024-05-17T1300,1622A,116.3032,37.4674,德州市,儿童乐园,臭氧1小时,103,75,80,29,25,205,,137,137,12,16,14,11,0.9,0.7
2024-05-17T1300,1624A,116.2991,37.4451,德州市,监理站,臭氧1小时,109,88,84,34,27,217,,134,134,12,15,20,16,0.8,0.5
2024-05-17T1300,3066A,116.2721,37.4379,德州市,九衢泉纯净水厂,,,,79,36,25,196,,121,121,20,20,13,10,0.8,0.5
2024-05-17T1300,3371A,116.3728,37.4403,德州市,开发区人民医院,臭氧1小时,109,83,85,31,26,218,,126,126,8,12,15,12,0.7,0.5
2024-05-17T1300,3372A,116.3572,37.4094,德州市,太阳城中学,臭氧1小时,112,92,84,44,27,223,,116,116,13,17,14,11,0.9,0.6
2024-05-17T1300,3511A,116.5652,37.3319,德州市,陵城艺术中心,臭氧1小时,84,83,84,29,26,187,,118,118,7,14,13,9,0.7,0.6
2024-05-17T1300,2621A,99.7056,27.8317,迪庆藏族自治州,迪庆州站,,37,21,28,13,15,118,,96,96,10,11,8,9,0.4,0.4
2024-05-17T1300,3180A,99.7136,27.8094,迪庆藏族自治州,质量技术监督局,,37,27,26,9,10,116,,104,104,8,9,7,7,0.4,0.4
2024-05-17T1300,2663A,104.6241,35.5734,定西市,东关小学,颗粒物(PM10),67,83,97,22,26,162,,83,83,5,21,5,5,0.3,0.3
2024-05-17T1300,2664A,104.6194,35.5934,定西市,供电公司,颗粒物(PM10),68,86,88,28,31,156,,78,78,2,28,7,6,0.2,0.3
2024-05-17T1300,1389A,113.7547,23.0494,东莞市,莞城梨川,臭氧1小时,112,48,55,22,24,224,,164,164,20,22,9,9,0.8,0.8
2024-05-17T1300,1390A,113.7944,23.0128,东莞市,东城石井,臭氧1小时,124,48,53,27,23,248,,164,164,18,22,8,8,0.6,0.6
2024-05-17T1300,1391A,113.7383,22.9658,东莞市,南城西平,臭氧1小时,119,65,57,31,24,237,,153,153,21,24,6,7,0.6,0.6
2024-05-17T1300,3319A,113.7338,23.0381,东莞市,万江金泰,臭氧1小时,109,54,55,25,24,217,,160,160,18,21,8,8,0.6,0.6
2024-05-17T1300,3626A,113.7533,23.0202,东莞市,南城元岭,臭氧1小时,118,60,59,31,24,235,,166,166,16,23,9,10,0.7,0.7
2024-05-17T1300,3627A,113.7875,23.0457,东莞市,东城主山,臭氧1小时,120,57,51,22,23,240,,165,165,17,19,9,9,0.6,0.6
2024-05-17T1300,1666A,118.6614,37.4309,东营市,市环保局,臭氧1小时,104,85,73,36,24,208,,128,128,18,26,14,14,0.3,0.3
2024-05-17T1300,3036A,118.6904,37.4338,东营市,开发区管委会,臭氧1小时,100,116,88,34,24,200,,125,125,20,27,11,12,0.6,0.5
2024-05-17T1300,3365A,118.5719,37.565,东营市,垦利区民丰路,臭氧1小时,101,83,78,31,28,201,,127,127,18,26,14,14,0.7,0.7
2024-05-17T1300,3498A,118.5055,37.8612,东营市,河口城区,臭氧1小时,107,80,79,29,26,214,,137,137,12,19,9,11,0.4,0.4
2024-05-17T1300,3646A,118.4978,37.4623,东营市,胜利站,,,,73,,25,186,,126,126,15,28,11,14,0.6,0.7
2024-05-17T1300,3734A,118.35,37.26,东营市,理想之城,,,88,78,48,24,,,85,,17,25,16,15,0.6,0.6
2024-05-17T1300,1591A,110.0023,39.8129,鄂尔多斯市,综合楼,颗粒物(PM10),128,205,172,85,56,128,,89,89,10,25,8,11,0.3,0.5
2024-05-17T1300,1592A,109.9486,39.8261,鄂尔多斯市,巴音孟克林场办事处,颗粒物(PM10),129,207,168,78,62,120,,92,92,6,23,10,8,0.4,0.5
2024-05-17T1300,1593A,109.7736,39.5986,鄂尔多斯市,康泽苑,细颗粒物(PM2.5),134,190,187,102,64,134,,84,84,7,14,5,5,0.3,0.2
2024-05-17T1300,1594A,109.8119,39.5989,鄂尔多斯市,华泰汽车城,颗粒物(PM10),123,195,167,85,74,125,,65,65,8,24,6,6,0.3,0.4
2024-05-17T1300,1595A,109.9734,39.7884,鄂尔多斯市,奥林花园,"颗粒物(PM10),细颗粒物(PM2.5)",122,193,167,92,59,125,,67,67,7,30,6,7,0.4,0.5
2024-05-17T1300,2436A,114.8938,30.3994,鄂州市,市政府,臭氧1小时,79,60,77,25,38,183,,133,133,6,19,10,13,0.6,0.8
2024-05-17T1300,2437A,114.8989,30.3714,鄂州市,赵家坝,,,,76,,39,183,,128,128,,15,8,4,,0.8
2024-05-17T1300,3654A,114.8094,30.4089,鄂州市,精准医疗中心,臭氧1小时,78,62,87,22,38,182,,120,120,2,26,7,15,0.4,1
2024-05-17T1300,2454A,109.4978,30.2981,恩施土家族苗族自治州,湖北民院,颗粒物(PM10),53,56,60,33,33,148,,87,87,5,13,8,8,0.6,0.6
2024-05-17T1300,2455A,109.4707,30.2798,恩施土家族苗族自治州,州电力总公司,细颗粒物(PM2.5),58,64,62,41,35,147,,70,70,14,20,9,9,0.6,0.6
2024-05-17T1300,3549A,109.5061,30.3772,恩施土家族苗族自治州,龙凤新区,颗粒物(PM10),54,58,55,30,29,146,,90,90,15,13,6,6,0.7,0.7
2024-05-17T1300,2499A,108.3411,21.6158,防城港市,沙万,颗粒物(PM10),54,58,53,25,21,122,,128,114,10,15,7,8,0.6,0.7
2024-05-17T1300,2500A,108.3514,21.7731,防城港市,防城档案局,颗粒物(PM10),53,55,51,25,22,125,,113,103,12,15,8,6,0.8,0.8
2024-05-17T1300,2501A,108.3506,21.6414,防城港市,大海花园,,46,46,46,25,20,126,,134,119,7,13,6,11,0.5,0.6
2024-05-17T1300,1371A,113.1294,23.0067,佛山市,湾梁,臭氧1小时,99,70,62,25,22,199,,145,145,16,21,5,5,0.4,0.4
2024-05-17T1300,1372A,113.1083,23.0478,佛山市,华材职中,臭氧1小时,98,61,58,27,26,198,,150,150,19,23,4,4,0.5,0.5
2024-05-17T1300,1373A,113.144,23.0453,佛山市,南海气象局,臭氧1小时,93,77,57,28,29,194,,147,147,20,30,5,5,0.5,0.5
2024-05-17T1300,1374A,113.2881,22.8094,佛山市,顺德苏岗,臭氧1小时,62,46,53,24,24,169,,128,128,15,21,6,7,0.5,0.5
2024-05-17T1300,1376A,112.8383,22.8678,佛山市,高明孔堂,,50,42,50,28,22,158,,130,127,13,18,6,7,0.5,0.5
2024-05-17T1300,1377A,112.8836,23.1588,佛山市,三水监测站,臭氧1小时,89,68,71,41,29,191,,124,124,26,39,7,8,0.6,0.6
2024-05-17T1300,1378A,112.867,23.185,佛山市,三水云东海,臭氧1小时,79,63,63,35,36,183,,128,128,25,32,4,5,0.6,0.6
2024-05-17T1300,3625A,113.2544,22.7642,佛山市,容桂街道办,臭氧1小时,64,58,50,24,21,171,,134,134,23,26,6,6,0.5,0.4
2024-05-17T1300,1282A,119.2681,26.0504,福州市,师大,,42,21,26,3,7,134,,93,93,3,12,4,4,0.4,0.4
2024-05-17T1300,1283A,119.2984,26.1028,福州市,五四北路,,,,19,12,8,149,,101,101,12,15,4,4,0.4,0.4
2024-05-17T1300,1284A,119.2648,26.0768,福州市,杨桥西路,,45,32,28,7,7,143,,94,94,7,15,4,4,0.4,0.4
2024-05-17T1300,1285A,119.317,26.0746,福州市,紫阳,,44,43,27,10,6,140,,93,93,9,11,3,4,0.4,0.3
2024-05-17T1300,3048A,119.5799,26.0936,福州市,九龙,,47,47,25,8,5,125,,93,93,1,8,5,5,0.3,0.3
2024-05-17T1300,3526A,119.5189,25.9664,福州市,吴航,,40,34,32,12,13,126,,77,77,1,16,4,6,0.4,0.3
2024-05-17T1300,1755A,123.7977,41.8491,抚顺市,望花区,臭氧1小时,90,80,54,24,22,192,,113,113,14,28,9,8,0.5,0.5
2024-05-17T1300,1756A,123.9161,41.8822,抚顺市,顺城区,臭氧1小时,74,66,35,19,16,179,,104,104,14,29,11,8,0.6,0.4
2024-05-17T1300,1757A,124.0436,41.8611,抚顺市,东洲区,臭氧1小时,58,47,21,20,14,166,,106,106,9,11,11,5,0.3,0.2
2024-05-17T1300,1758A,123.9247,41.8642,抚顺市,新抚区,臭氧1小时,73,55,36,17,16,178,,104,104,10,28,10,8,0.5,0.3
2024-05-17T1300,1759A,124.0972,41.8961,抚顺市,大伙房水库,臭氧1小时,64,48,21,15,11,171,,105,105,8,11,9,7,0.3,0.2
2024-05-17T1300,1760A,123.7086,41.8391,抚顺市,沈抚新城,臭氧1小时,85,80,61,24,28,188,,109,109,9,31,10,17,0.5,1.1
2024-05-17T1300,2376A,116.2127,28.0814,抚州市,桐源党溪,颗粒物(PM10),54,57,59,30,29,132,,76,76,3,13,6,6,0.5,0.6
2024-05-17T1300,2377A,116.3544,27.9831,抚州市,市站,,48,48,61,22,31,143,,105,105,5,17,4,5,0.7,0.8
2024-05-17T1300,2378A,116.3565,27.963,抚州市,血防站,,48,38,62,22,33,152,,110,110,4,19,4,4,0.6,0.7
2024-05-17T1300,2379A,116.3564,28.0007,抚州市,采茶剧团,,45,,52,22,32,141,,106,106,4,18,3,5,0.8,0.9
2024-05-17T1300,2380A,116.385,27.9647,抚州市,医学分院,,47,47,70,17,28,148,,104,104,5,24,3,3,0.7,1
2024-05-17T1300,2207A,121.6094,41.998,阜新市,工业园区,臭氧1小时,94,95,64,21,32,195,,154,154,12,23,12,22,0.7,0.6
2024-05-17T1300,2208A,121.6697,42.0279,阜新市,长青街,臭氧1小时,80,74,50,17,36,184,,148,148,14,20,11,20,0.6,0.6
2024-05-17T1300,2209A,121.6673,42.0705,阜新市,农业园区,,,95,72,27,29,191,,160,160,,18,12,17,0.6,0.5
2024-05-17T1300,2210A,121.6717,42.0224,阜新市,东苑,臭氧1小时,83,83,63,21,34,186,,146,146,15,26,12,26,0.9,0.7
2024-05-17T1300,2211A,121.6506,42.0498,阜新市,玉龙新城,臭氧1小时,79,83,61,14,30,183,,140,140,10,27,12,14,0.6,0.6
2024-05-17T1300,2301A,115.8277,32.8929,阜阳市,市监测站,臭氧1小时,73,71,82,35,36,178,,164,164,10,13,8,7,0.5,0.5
2024-05-17T1300,2303A,115.8554,32.8605,阜阳市,开发区,臭氧1小时,75,80,87,29,34,180,,162,162,5,8,6,8,0.4,0.5
2024-05-17T1300,2875A,115.784,32.8892,阜阳市,阜阳职业技术学院,臭氧1小时,79,83,82,31,32,183,,168,168,9,12,7,7,0.4,0.4
2024-05-17T1300,3468A,115.7901,32.8613,阜阳市,市规划展馆,颗粒物(PM10),119,187,88,30,37,183,,168,168,7,11,5,6,0.5,0.5
2024-05-17T1300,3469A,115.836,32.9183,阜阳市,枣园社区,颗粒物(PM10),80,110,82,38,40,176,,165,165,13,15,6,7,0.4,0.4
2024-05-17T1300,2669A,102.9099,34.9841,甘南藏族自治州,州政府,颗粒物(PM10),73,95,105,36,36,141,,64,64,4,24,8,8,0.3,0.7
2024-05-17T1300,3380A,102.8914,34.9617,甘南藏族自治州,甘肃民族师范学院,颗粒物(PM10),76,102,126,25,35,146,,57,57,5,34,8,8,0.3,0.3
2024-05-17T1300,2570A,101.9603,30.0475,甘孜藏族自治州,水桥子,,33,12,11,3,8,105,,62,62,12,20,3,2,0.2,0.3
2024-05-17T1300,3065A,101.9533,29.9972,甘孜藏族自治州,州环保局,,34,8,12,3,6,108,,77,77,12,22,2,1,0.2,0.3
2024-05-17T1300,3414A,115.8347,28.932,赣江新区,桑海产业园,臭氧1小时,72,66,83,30,35,177,,119,119,10,36,12,11,0.6,0.7
2024-05-17T1300,2363A,114.9367,25.8664,赣州市,地委,,48,41,53,22,27,153,,94,94,7,21,12,12,0.5,0.5
2024-05-17T1300,2364A,114.9461,25.8481,赣州市,气象台,,49,38,48,20,27,156,,94,94,5,8,11,16,0.3,0.4
2024-05-17T1300,2365A,114.9322,25.8333,赣州市,市图书馆,,,,52,,27,152,,93,93,,29,4,7,0.5,0.8
2024-05-17T1300,3109A,115.0093,25.8613,赣州市,赣县区卫计委,,45,45,48,20,28,144,,90,90,9,26,5,5,0.5,0.6
2024-05-17T1300,2683A,106.2319,36.1417,固原市,马园,颗粒物(PM10),62,73,94,21,33,161,,94,94,10,33,6,6,0.2,0.2
2024-05-17T1300,2684A,106.2792,36.0022,固原市,监测站,颗粒物(PM10),58,66,76,16,24,161,,100,100,8,22,4,4,0.2,0.3
2024-05-17T1300,2685A,106.2375,36.0211,固原市,新区,颗粒物(PM10),57,63,72,14,27,159,,93,93,8,27,4,3,0.3,0.4
2024-05-17T1300,3522A,106.2177,35.9959,固原市,原州区十五小,,,56,75,24,30,167,,121,121,4,14,7,6,,0.3
2024-05-17T1300,2544A,106.6303,30.4576,广安市,市委,颗粒物(PM10),56,62,65,28,31,160,,80,80,12,23,12,11,0.5,0.5
2024-05-17T1300,2545A,106.6271,30.4663,广安市,友谊中学,颗粒物(PM10),51,51,52,29,31,159,,74,74,13,24,9,9,0.6,0.6
2024-05-17T1300,2547A,106.6388,30.4551,广安市,广电花园,颗粒物(PM10),54,57,54,25,30,159,,75,75,12,22,12,11,0.6,0.7
2024-05-17T1300,2902A,106.6351,30.4865,广安市,北辰小学,颗粒物(PM10),55,59,60,28,31,151,,77,77,8,19,11,10,0.5,0.6
2024-05-17T1300,2523A,105.8945,32.4535,广元市,黑石坡,,45,24,39,6,23,144,,97,95,10,11,9,9,0.5,0.4
2024-05-17T1300,2524A,105.821,32.4444,广元市,老城,"颗粒物(PM10),臭氧1小时",52,54,51,17,28,161,,73,73,15,35,2,8,0.6,0.5
2024-05-17T1300,2526A,105.8628,32.4287,广元市,监测站,臭氧1小时,58,29,45,10,28,166,,92,92,9,13,6,6,0.4,0.4
2024-05-17T1300,3617A,105.8047,32.4166,广元市,经开区,臭氧1小时,57,59,67,37,46,165,,75,75,14,20,9,8,0.6,0.5
2024-05-17T1300,1345A,113.2347,23.1423,广州市,广雅中学,臭氧1小时,98,64,67,26,28,198,,142,142,26,30,6,7,0.7,0.6
2024-05-17T1300,1346A,113.2612,23.105,广州市,市五中,臭氧1小时,109,58,59,30,30,217,,160,160,20,25,7,6,0.6,0.6
2024-05-17T1300,1348A,113.3478,23.0916,广州市,广东商学院,臭氧1小时,93,60,59,31,28,194,,135,135,21,31,6,7,0.6,0.6
2024-05-17T1300,1349A,113.4332,23.1047,广州市,市八十六中,臭氧1小时,128,90,67,43,28,256,,144,144,34,45,13,8,0.9,0.7
2024-05-17T1300,1350A,113.3505,22.9483,广州市,番禺中学,臭氧1小时,104,48,58,25,27,208,,159,159,19,27,6,6,0.4,0.4
2024-05-17T1300,1351A,113.2146,23.3916,广州市,花都师范,臭氧1小时,108,71,73,31,31,216,,140,140,24,33,7,7,0.5,0.5
2024-05-17T1300,1352A,113.2597,23.1331,广州市,市监测站,,,66,60,28,29,191,,140,140,,31,6,6,0.6,0.5
2024-05-17T1300,1353A,113.5618,23.312,广州市,九龙镇镇龙,,,,59,,28,182,,113,113,17,32,7,7,,0.6
2024-05-17T1300,1354A,113.2765,23.1544,广州市,麓湖,臭氧1小时,102,65,65,31,31,204,,113,113,18,36,7,7,0.7,0.6
2024-05-17T1300,1355A,113.443,23.3035,广州市,帽峰山森林公园,臭氧1小时,95,54,50,25,31,196,,149,149,16,22,6,7,0.4,0.4
2024-05-17T1300,2846A,113.3221,23.1322,广州市,体育西,臭氧1小时,98,62,63,30,27,198,,133,133,20,28,7,7,0.6,0.5
2024-05-17T1300,3298A,113.5717,23.5491,广州市,从化街口,臭氧1小时,55,49,50,29,28,164,,101,101,12,30,6,6,0.6,0.7
2024-05-17T1300,3299A,113.3472,23.3692,广州市,白云竹料,臭氧1小时,116,78,66,35,31,232,,155,155,21,29,5,5,0.5,0.5
2024-05-17T1300,3300A,113.2981,23.237,广州市,白云嘉禾,臭氧1小时,88,85,66,42,28,190,,126,126,36,42,7,7,0.7,0.7
2024-05-17T1300,3301A,113.4256,23.1716,广州市,黄埔科学城,臭氧1小时,118,95,63,61,31,236,,134,134,30,29,8,7,0.8,0.7
2024-05-17T1300,3302A,113.3942,23.0483,广州市,番禺大学城,臭氧1小时,84,57,57,22,27,187,,137,137,20,30,8,9,0.4,0.4
2024-05-17T1300,3303A,113.4922,22.8168,广州市,南沙黄阁,颗粒物(PM10),55,60,60,26,25,151,,123,122,16,26,6,7,0.6,0.6
2024-05-17T1300,3304A,113.5342,22.7896,广州市,南沙街,,50,39,54,21,26,158,,129,122,12,24,8,7,0.6,0.6
2024-05-17T1300,3443A,113.2902,23.5544,广州市,花都梯面,臭氧1小时,112,65,55,33,30,223,,122,122,17,31,6,5,0.6,0.6
2024-05-17T1300,3445A,113.7858,23.7478,广州市,从化良口,,45,32,27,21,18,144,,91,91,7,12,6,6,0.6,0.5
2024-05-17T1300,3446A,113.8051,23.2614,广州市,增城荔城,臭氧1小时,65,40,50,21,24,172,,130,130,13,20,5,6,0.6,0.7
2024-05-17T1300,2506A,109.6047,23.0666,贵港市,江南子站,臭氧1小时,62,68,75,24,34,169,,127,127,14,22,19,10,0.6,0.6
2024-05-17T1300,2507A,109.6014,23.0948,贵港市,贵城子站,颗粒物(PM10),63,76,68,33,36,160,,125,125,20,21,31,11,1.0,0.7
2024-05-17T1300,2508A,109.5669,23.1065,贵港市,荷城子站,"颗粒物(PM10),臭氧1小时",59,68,63,34,30,167,,130,130,14,18,27,11,0.6,0.5
2024-05-17T1300,3405A,109.5886,23.1172,贵港市,新世纪学校,颗粒物(PM10),64,78,63,34,32,165,,131,131,15,14,32,13,0.9,0.8
2024-05-17T1300,1439A,106.6899,26.5998,贵阳市,马鞍山,,29,29,33,17,17,48,,58,52,17,14,3,3,0.7,0.7
2024-05-17T1300,1440A,106.6971,26.5694,贵阳市,市环保站,,50,41,40,35,29,60,,75,65,22,22,4,5,0.6,0.5
2024-05-17T1300,1441A,106.6243,26.6266,贵阳市,鉴湖路,,27,27,33,17,19,62,,74,64,12,10,3,3,0.5,0.4
2024-05-17T1300,1442A,106.7487,26.6343,贵阳市,燕子冲,,36,36,38,22,27,64,,67,62,19,16,5,6,0.6,0.6
2024-05-17T1300,1443A,106.6555,26.4365,贵阳市,碧云窝,,29,29,36,17,17,72,,70,68,9,11,5,6,0.6,0.5
2024-05-17T1300,1444A,106.694,26.5161,贵阳市,中院村,,34,34,44,17,22,56,,62,55,19,18,8,8,0.6,0.5
2024-05-17T1300,1445A,106.7109,26.6027,贵阳市,红边门,,46,46,42,31,29,61,,72,65,28,24,5,5,0.8,0.6
2024-05-17T1300,1446A,106.7164,26.5699,贵阳市,新华路,,35,34,40,24,25,69,,73,68,17,18,5,6,0.5,0.5
2024-05-17T1300,1447A,106.674,26.5424,贵阳市,太慈桥,,39,31,38,27,20,58,,64,57,16,17,6,5,0.5,0.4
2024-05-17T1300,1862A,110.4144,25.3167,桂林市,电子科大尧山校区,颗粒物(PM10),64,78,60,42,36,92,,56,56,11,8,15,16,0.6,0.5
2024-05-17T1300,1863A,110.2819,25.2697,桂林市,监测站,细颗粒物(PM2.5),80,82,67,59,45,94,,70,70,18,17,8,11,0.6,0.6
2024-05-17T1300,1864A,110.3089,25.2708,桂林市,龙隐路小学,"颗粒物(PM10),细颗粒物(PM2.5)",59,68,60,42,38,85,,60,60,21,18,10,10,0.8,0.8
2024-05-17T1300,1865A,110.2869,25.2178,桂林市,八中,颗粒物(PM10),61,71,62,40,35,81,,57,57,20,17,7,10,0.8,0.7
2024-05-17T1300,3403A,110.1764,25.2381,桂林市,创业大厦,,,,73,41,42,94,,48,48,15,36,9,12,,0.7
2024-05-17T1300,3531A,110.296,25.1253,桂林市,旅游学院,,44,44,44,29,28,99,,62,62,11,15,10,9,0.7,0.6
2024-05-17T1300,2674A,100.2561,34.4714,果洛藏族自治州,玛沁县大武镇,,34,18,17,15,14,108,,100,96,14,13,10,12,0.5,0.4
2024-05-17T1300,1129A,126.5422,45.755,哈尔滨市,岭北,,46,37,24,16,12,145,,101,101,11,23,12,12,0.6,0.6
2024-05-17T1300,1130A,126.561,45.8167,哈尔滨市,松北商大,,43,28,28,20,12,136,,90,90,10,22,6,5,0.4,0.4
2024-05-17T1300,1131A,126.979,45.5419,哈尔滨市,阿城会宁,,41,29,30,19,10,130,,86,86,7,14,11,8,0.4,0.4
2024-05-17T1300,1132A,126.599,45.7222,哈尔滨市,南岗学府路,,45,34,41,14,14,143,,94,94,9,36,6,6,0.5,0.6
2024-05-17T1300,1133A,126.689,45.7733,哈尔滨市,太平宏伟公园,颗粒物(PM10),57,64,59,22,20,142,,92,92,12,37,8,8,0.4,0.6
2024-05-17T1300,1134A,126.635,45.7667,哈尔滨市,道外承德广场,,,33,31,,25,139,,94,94,16,33,6,7,0.5,0.5
2024-05-17T1300,1135A,126.685,45.7319,哈尔滨市,香坊红旗大街,,44,24,45,22,21,138,,89,89,10,41,13,15,0.4,0.5
2024-05-17T1300,1136A,126.6411,45.7258,哈尔滨市,动力和平路,颗粒物(PM10),58,65,42,32,16,139,,88,88,11,35,9,10,0.5,0.5
2024-05-17T1300,1137A,126.593,45.7478,哈尔滨市,道里建国路,,43,40,32,21,15,135,,91,91,13,37,9,10,0.3,0.8
2024-05-17T1300,1139A,126.595,45.9855,哈尔滨市,呼兰师专,颗粒物(PM10),52,54,36,30,19,144,,94,94,11,28,8,7,0.3,0.4
2024-05-17T1300,1140A,126.6206,45.6842,哈尔滨市,省农科院,,46,44,42,30,25,145,,94,94,8,43,9,10,0.3,0.4
2024-05-17T1300,2688A,93.5128,42.8172,哈密市,地区监测站,颗粒物(PM10),500,925,998,340,335,74,,39,39,12,26,3,3,0.2,0.4
2024-05-17T1300,2689A,93.4961,42.8328,哈密市,哈密师范学校,颗粒物(PM10),500,794,800,271,270,64,,31,31,13,24,4,6,0.3,0.5
2024-05-17T1300,2671A,100.9048,36.9639,海北藏族自治州,海晏县西海镇,颗粒物(PM10),96,142,83,33,29,157,,98,98,9,11,17,12,0.4,0.4
2024-05-17T1300,3867A,102.0738,36.5056,海东市,平安区公安北苑,颗粒物(PM10),76,101,106,35,53,156,,87,87,10,15,11,10,0.6,0.6
2024-05-17T1300,1410A,110.3232,20.0574,海口市,海南大学,,42,42,43,16,17,98,,106,106,4,10,5,5,0.4,0.4
2024-05-17T1300,1411A,110.283,20.0053,海口市,秀英海南医院,,45,45,40,16,17,91,,110,104,4,6,4,4,0.3,0.3
2024-05-17T1300,1412A,110.338,19.9969,海口市,海南师范大学,,36,36,40,16,17,92,,108,106,2,3,6,6,0.4,0.4
2024-05-17T1300,1413A,110.33,20.0356,海口市,龙华路环保局宿舍,,45,45,40,18,16,94,,103,102,2,7,6,6,0.3,0.3
2024-05-17T1300,3539A,110.5111,19.9736,海口市,桂林洋子站,,30,30,40,13,15,88,,102,99,1,4,6,6,0.3,0.3
2024-05-17T1300,2673A,100.6188,36.2866,海南藏族自治州,共和县恰卜恰镇,颗粒物(PM10),51,51,52,33,24,121,,100,79,7,16,10,11,0.2,0.5
2024-05-17T1300,2676A,97.3731,37.3753,海西蒙古族藏族自治州,德令哈市,,45,45,68,22,27,111,,143,125,11,7,8,6,0.7,0.5
2024-05-17T1300,1048A,114.5302,36.6116,邯郸市,东污水处理厂,臭氧1小时,92,91,65,39,33,193,,131,131,6,14,11,11,0.6,0.7
2024-05-17T1300,1049A,114.4918,36.5713,邯郸市,矿院,臭氧1小时,101,39,42,39,31,201,,133,133,10,16,11,11,0.9,0.9
2024-05-17T1300,1050A,114.484,36.6133,邯郸市,丛台公园,臭氧1小时,99,77,70,36,31,199,,135,135,7,12,10,10,0.6,0.7
2024-05-17T1300,3458A,114.7895,36.5593,邯郸市,香泉濮院小区,臭氧1小时,110,116,80,33,27,220,,137,137,6,11,10,9,0.7,0.6
2024-05-17T1300,3579A,114.50634,36.77178,邯郸市,永年区实验高中,臭氧1小时,109,88,85,43,38,218,,140,140,11,19,14,14,0.4,0.6
2024-05-17T1300,3580A,114.20016,36.44293,邯郸市,峰峰矿区临水派出所,臭氧1小时,124,94,70,41,27,247,,149,149,12,10,15,12,1.3,0.9
2024-05-17T1300,2634A,106.9893,33.1842,汉中市,汉川机床厂子校,颗粒物(PM10),53,56,50,26,30,160,,92,92,6,13,8,5,0.8,0.7
2024-05-17T1300,2635A,107.0154,33.0706,汉中市,市监测站,臭氧1小时,73,76,77,38,43,178,,102,102,10,20,12,12,0.9,0.8
2024-05-17T1300,2636A,107.0089,33.1138,汉中市,鑫源开发区,,,,65,39,37,181,,103,103,9,18,15,11,,0.7
2024-05-17T1300,2637A,107.007,33.0323,汉中市,南郑大河坎水厂,颗粒物(PM10),58,65,72,39,51,147,,78,78,7,13,11,10,0.9,0.8
2024-05-17T1300,1223A,120.2072,30.2111,杭州市,滨江,臭氧1小时,106,50,37,22,19,212,,128,128,14,21,6,5,0.5,0.5
2024-05-17T1300,1224A,120.0633,30.2747,杭州市,西溪,臭氧1小时,78,44,33,30,19,182,,90,90,10,24,7,6,0.6,0.6
2024-05-17T1300,1226A,120.3461,30.3153,杭州市,下沙,臭氧1小时,101,49,63,24,32,202,,129,129,13,53,9,9,0.5,0.5
2024-05-17T1300,1227A,120.1269,30.2456,杭州市,卧龙桥,臭氧1小时,99,39,27,26,16,199,,106,106,12,18,6,5,0.5,0.5
2024-05-17T1300,1228A,120.1903,30.2692,杭州市,浙江农大,臭氧1小时,90,46,48,26,23,192,,113,113,19,30,8,7,0.4,0.4
2024-05-17T1300,1230A,120.1197,30.3119,杭州市,和睦小学,臭氧1小时,80,41,40,27,23,184,,109,109,25,26,5,5,0.6,0.6
2024-05-17T1300,1231A,120.3019,30.4183,杭州市,临平镇,臭氧1小时,95,47,55,21,25,196,,125,125,13,36,6,6,0.5,0.5
2024-05-17T1300,1232A,120.2697,30.1819,杭州市,城厢镇,,,56,45,37,22,191,,122,122,,34,7,6,0.5,0.4
2024-05-17T1300,1233A,120.0883,30.1808,杭州市,云栖,臭氧1小时,111,54,31,29,16,222,,102,102,25,32,8,7,0.6,0.5
2024-05-17T1300,3557A,119.9464,30.0494,杭州市,镇二中,臭氧1小时,67,38,35,25,21,173,,106,106,25,38,8,8,0.7,0.6
2024-05-17T1300,3558A,119.7183,30.2367,杭州市,市府大楼,,50,34,32,19,17,160,,100,100,8,20,6,6,0.5,0.5
2024-05-17T1300,3656A,120.1556,30.2864,杭州市,消防大队,臭氧1小时,68,46,50,26,25,174,,104,104,14,41,7,7,0.6,0.5
2024-05-17T1300,1270A,117.1959,31.7848,合肥市,明珠广场,臭氧1小时,100,70,61,31,30,200,,143,143,15,30,8,8,0.7,0.6
2024-05-17T1300,1271A,117.3072,31.8764,合肥市,三里街,臭氧1小时,83,75,63,29,28,186,,134,134,20,35,8,7,0.5,0.4
2024-05-17T1300,1272A,117.2588,31.8707,合肥市,琥珀山庄,臭氧1小时,102,78,56,29,20,204,,145,145,12,19,10,10,0.5,0.4
2024-05-17T1300,1273A,117.1604,31.9052,合肥市,董铺水库,臭氧1小时,106,68,56,31,20,212,,162,162,11,17,2,2,0.4,0.4
2024-05-17T1300,1274A,117.25,31.8571,合肥市,长江中路,臭氧1小时,92,75,60,42,35,193,,144,144,13,21,7,6,0.7,0.5
2024-05-17T1300,1275A,117.266,31.9436,合肥市,庐阳区,臭氧1小时,99,83,56,31,32,199,,140,140,12,18,4,4,0.3,0.3
2024-05-17T1300,1276A,117.336,31.8586,合肥市,瑶海区,臭氧1小时,73,68,64,37,32,178,,141,141,11,27,9,8,0.7,0.6
2024-05-17T1300,1277A,117.3027,31.7964,合肥市,包河区,臭氧1小时,83,66,53,29,24,186,,140,140,9,22,9,7,0.5,0.4
2024-05-17T1300,1278A,117.2776,31.7385,合肥市,滨湖新区,臭氧1小时,75,53,53,34,29,180,,154,154,7,14,7,7,0.5,0.4
2024-05-17T1300,1279A,117.1318,31.8403,合肥市,高新区,臭氧1小时,101,70,58,33,27,201,,148,148,15,23,8,8,0.7,0.6
2024-05-17T1300,3464A,117.3803,31.9147,合肥市,高教基地,臭氧1小时,80,66,55,32,24,184,,150,150,9,14,6,6,0.4,0.3
2024-05-17T1300,3614A,79.924,37.0877,和田地区,地区环保局,颗粒物(PM10),173,295,235,99,66,110,,89,89,6,11,5,6,0.6,0.6
2024-05-17T1300,3615A,79.9131,37.113,和田地区,市环保局,颗粒物(PM10),173,296,188,59,71,105,,69,69,,24,6,7,,0.7
2024-05-17T1300,2516A,108.2011,24.715,河池市,东仁乐园,颗粒物(PM10),64,78,59,31,25,6,,6,6,9,11,3,3,0.9,0.7
2024-05-17T1300,2517A,108.0497,24.6947,河池市,市环保站,细颗粒物(PM2.5),54,49,43,38,23,38,,31,31,28,21,9,8,0.8,0.6
2024-05-17T1300,2518A,108.0983,24.6989,河池市,市疾控中心,颗粒物(PM10),53,56,48,34,26,58,,29,29,17,24,8,9,0.6,0.6
2024-05-17T1300,1697A,114.6944,23.7586,河源市,东埔,臭氧1小时,100,65,58,26,30,200,,149,149,16,16,8,8,0.7,0.7
2024-05-17T1300,1698A,114.6892,23.7233,河源市,老城,臭氧1小时,94,56,54,28,28,195,,142,142,11,12,6,7,0.6,0.6
2024-05-17T1300,1718A,115.4208,35.2464,菏泽市,气象局,臭氧1小时,79,99,86,44,30,183,,124,124,14,16,9,6,0.5,0.4
2024-05-17T1300,1719A,115.4747,35.2375,菏泽市,市政协,细颗粒物(PM2.5),112,,77,84,37,185,,124,124,10,10,8,6,0.4,0.1
2024-05-17T1300,3374A,115.5564,35.0891,菏泽市,定陶老年大学,颗粒物(PM10),67,83,68,31,27,160,,111,111,12,13,7,5,0.8,0.6
2024-05-17T1300,3647A,115.4702,35.2706,菏泽市,菏泽医专,颗粒物(PM10),67,84,83,28,21,163,,117,115,10,12,6,5,0.2,0.2
2024-05-17T1300,2514A,111.5264,24.4172,贺州市,环保小区,臭氧1小时,59,60,64,30,36,167,,95,95,15,21,8,9,0.6,0.6
2024-05-17T1300,2515A,111.5608,24.4078,贺州市,政协大楼,,,51,59,24,32,165,,95,95,15,20,11,12,,0.6
2024-05-17T1300,3534A,111.4744,24.4553,贺州市,西湾,臭氧1小时,70,50,70,17,36,176,,92,92,14,28,7,8,0.5,0.6
2024-05-17T1300,2385A,114.17,35.9019,鹤壁市,市监测站,臭氧1小时,108,71,78,41,38,216,,118,118,8,12,18,14,0.9,0.8
2024-05-17T1300,2386A,114.2956,35.7511,鹤壁市,市交警支队,臭氧1小时,88,72,72,25,28,190,,100,100,9,20,12,11,0.7,0.5
2024-05-17T1300,2387A,114.2878,35.7306,鹤壁市,迎宾馆,臭氧1小时,95,70,73,44,37,196,,105,105,9,20,19,14,0.8,0.6
2024-05-17T1300,3474A,114.2617,35.6822,鹤壁市,大新区,颗粒物(PM10),70,89,88,36,36,161,,94,94,14,25,13,12,0.9,0.7
2024-05-17T1300,3596A,114.1572,35.9603,鹤壁市,南山宾馆,臭氧1小时,108,95,79,40,36,216,,138,138,15,18,15,14,1.3,0.9
2024-05-17T1300,2244A,130.2537,47.3416,鹤岗市,哈啤分公司,,32,6,19,3,9,102,,90,90,4,7,12,12,0.6,0.5
2024-05-17T1300,2245A,130.2684,47.3086,鹤岗市,斯达机电,,33,14,18,6,12,103,,81,81,7,11,11,12,0.3,0.4
2024-05-17T1300,2246A,130.3114,47.3388,鹤岗市,东山纸板厂,,33,18,55,6,15,105,,81,81,4,18,15,15,0.3,0.8
2024-05-17T1300,2247A,130.1097,47.3382,鹤岗市,五号水库,,36,19,18,3,6,115,,97,97,5,7,11,11,0.2,0.2
2024-05-17T1300,2263A,127.4833,50.2524,黑河市,交通局,,36,36,26,15,15,95,,88,88,14,10,6,9,0.2,0.2
2024-05-17T1300,2264A,127.5144,50.2341,黑河市,环保局,,,47,13,,14,109,,96,96,,9,4,5,0.4,0.3
2024-05-17T1300,1075A,115.6303,37.7316,衡水市,市监测站,臭氧1小时,93,73,72,23,23,194,,120,120,14,19,8,7,0.5,0.4
2024-05-17T1300,3188A,115.6683,37.7217,衡水市,市城管局,臭氧1小时,98,79,66,44,27,198,,130,130,13,17,6,4,0.3,0.4
2024-05-17T1300,3459A,115.5989,37.5491,衡水市,地表水厂,臭氧1小时,103,92,72,29,23,206,,126,126,10,19,6,5,0.4,0.4
2024-05-17T1300,2456A,112.5003,26.9167,衡阳市,原169医院,颗粒物(PM10),56,61,73,36,40,105,,56,56,7,17,6,8,0.7,0.8
2024-05-17T1300,2457A,112.6194,26.9258,衡阳市,衡阳化工总厂,颗粒物(PM10),60,70,93,31,48,136,,78,78,5,18,11,13,0.5,0.8
2024-05-17T1300,2458A,112.6211,26.8956,衡阳市,珠晖区环保局,颗粒物(PM10),58,65,81,29,44,137,,84,84,6,17,10,12,0.8,0.8
2024-05-17T1300,2459A,112.6197,26.8733,衡阳市,市委党校,颗粒物(PM10),84,117,90,25,44,135,,80,80,8,18,8,11,0.6,0.7
2024-05-17T1300,2460A,112.6006,26.8919,衡阳市,市监测站,细颗粒物(PM2.5),57,59,83,40,48,138,,87,87,6,17,10,16,0.6,1.1
2024-05-17T1300,2461A,112.5664,26.9056,衡阳市,真空机电公司,,49,49,87,31,43,128,,74,74,5,22,9,21,0.6,1.2
2024-05-17T1300,3399A,112.6703,26.882,衡阳市,师范学院,细颗粒物(PM2.5),68,66,80,49,48,135,,78,78,9,19,10,11,0.5,0.7
2024-05-17T1300,2608A,103.3772,23.3993,红河哈尼族彝族自治州,污水处理厂,,28,20,15,16,13,89,,83,83,5,6,6,6,0.5,0.5
2024-05-17T1300,2609A,103.3861,23.35,红河哈尼族彝族自治州,监测站,,29,14,12,3,8,91,,88,88,6,8,6,8,0.4,0.3
2024-05-17T1300,3038A,103.3758,23.368,红河哈尼族彝族自治州,州图书馆,,27,20,11,16,11,84,,84,84,4,5,4,4,0.4,0.4
2024-05-17T1300,1090A,111.6507,40.7517,呼和浩特市,呼市一监,颗粒物(PM10),56,61,71,18,28,114,,66,66,14,23,14,8,0.4,0.4
2024-05-17T1300,1091A,111.6572,40.8033,呼和浩特市,小召,颗粒物(PM10),57,63,71,17,20,101,,64,64,23,25,11,8,0.4,0.4
2024-05-17T1300,1094A,111.7516,40.8369,呼和浩特市,如意水处理厂,颗粒物(PM10),55,59,68,15,16,106,,63,63,15,26,13,7,0.4,0.4
2024-05-17T1300,1095A,111.7276,40.8062,呼和浩特市,二十九中,颗粒物(PM10),52,53,77,18,25,112,,67,67,15,21,9,4,0.4,0.4
2024-05-17T1300,1096A,111.5512,40.7866,呼和浩特市,工大金川校区,颗粒物(PM10),54,57,74,22,25,108,,53,53,12,25,7,7,0.3,0.3
2024-05-17T1300,1097A,111.717,40.7612,呼和浩特市,化肥厂生活区,颗粒物(PM10),58,66,79,29,32,106,,65,65,20,23,8,7,0.3,0.4
2024-05-17T1300,3698A,111.5968,40.8178,呼和浩特市,红旗小学,颗粒物(PM10),64,78,84,28,26,114,,59,59,15,26,6,5,0.3,0.3
2024-05-17T1300,3699A,111.6518,40.8389,呼和浩特市,海东办,颗粒物(PM10),64,78,74,27,25,105,,62,62,15,25,8,5,0.4,0.4
2024-05-17T1300,2192A,119.7594,49.2261,呼伦贝尔市,区环保局,,25,21,41,17,19,75,,60,59,8,13,5,4,0.4,0.3
2024-05-17T1300,3061A,119.7512,49.1577,呼伦贝尔市,国华电力东,颗粒物(PM10),71,92,41,14,13,77,,65,65,5,7,5,4,0.3,0.2
2024-05-17T1300,1250A,120.0751,30.8669,湖州市,城西水厂,臭氧1小时,93,40,58,20,25,194,,109,109,18,36,6,6,0.6,0.6
2024-05-17T1300,2873A,120.0875,30.8955,湖州市,仁皇山新区,臭氧1小时,92,36,46,20,24,193,,109,109,19,35,6,6,0.7,0.6
2024-05-17T1300,2907A,120.1844,30.8596,湖州市,吴兴区站,臭氧1小时,102,42,57,17,28,204,,100,100,10,33,5,6,0.5,0.5
2024-05-17T1300,3562A,120.4148,30.8538,湖州市,南浔区站,,,47,49,29,23,200,,127,127,14,29,6,7,,0.3
2024-05-17T1300,1607A,120.9092,40.7136,葫芦岛市,龙港区,颗粒物(PM10),57,63,60,27,30,158,,130,130,10,14,9,9,0.7,0.7
2024-05-17T1300,1608A,120.8392,40.7514,葫芦岛市,化工街,颗粒物(PM10),62,73,70,22,24,166,,122,122,15,25,12,13,1.2,1.2
2024-05-17T1300,1609A,120.8341,40.7073,葫芦岛市,新区,臭氧1小时,60,50,52,32,35,168,,128,128,11,18,10,9,0.7,0.7
2024-05-17T1300,1610A,120.8695,40.7677,葫芦岛市,东城区,臭氧1小时,72,59,54,32,35,177,,123,123,13,25,9,11,0.8,1
2024-05-17T1300,2482A,109.5981,27.5721,怀化市,林科所,,49,49,64,29,30,105,,94,90,6,14,9,8,0.8,0.8
2024-05-17T1300,2483A,109.9453,27.5444,怀化市,河西地税局,细颗粒物(PM2.5),65,,62,47,45,115,,59,59,6,16,7,7,0.6,0.6
2024-05-17T1300,2484A,109.9781,27.5342,怀化市,市四医院,颗粒物(PM10),57,64,90,35,46,117,,68,68,15,23,6,7,0.6,0.7
2024-05-17T1300,2485A,109.9972,27.5578,怀化市,监测楼,颗粒物(PM10),58,65,86,35,40,91,,64,64,17,18,8,9,0.7,0.7
2024-05-17T1300,2486A,110.0394,27.583,怀化市,市委党校,"颗粒物(PM10),细颗粒物(PM2.5)",54,58,80,38,38,101,,58,58,16,16,7,6,0.7,0.6
2024-05-17T1300,1210A,119.036,33.5981,淮安市,钵池山,臭氧1小时,79,73,47,32,22,183,,118,118,11,21,10,10,0.7,0.6
2024-05-17T1300,1211A,119.007,33.575,淮安市,北京南路,臭氧1小时,83,75,53,31,24,186,,116,116,14,26,10,12,0.5,0.4
2024-05-17T1300,1212A,118.989,33.6067,淮安市,市监测站,臭氧1小时,87,73,53,41,29,189,,115,115,14,29,12,14,1.1,0.7
2024-05-17T1300,1213A,119.135,33.5039,淮安市,楚州区监测站,臭氧1小时,88,68,51,37,32,190,,118,118,17,25,10,9,0.9,0.7
2024-05-17T1300,1214A,119.0186,33.6297,淮安市,淮阴区监测站,臭氧1小时,83,73,53,43,26,186,,119,119,17,27,12,11,0.8,0.5
2024-05-17T1300,3426A,118.8755,33.2894,淮安市,新华书店,臭氧1小时,77,65,44,33,27,181,,106,106,12,25,8,8,0.7,0.6
2024-05-17T1300,2282A,116.8004,33.975,淮北市,监测站,臭氧1小时,79,84,73,40,35,183,,159,159,7,11,7,8,0.6,0.6
2024-05-17T1300,2283A,116.8091,33.9007,淮北市,烈山区政府,臭氧1小时,75,97,94,34,32,180,,146,146,4,13,7,7,0.6,0.5
2024-05-17T1300,3330A,116.8873,33.9836,淮北市,杜集区检察院,臭氧1小时,98,91,83,49,44,198,,165,165,6,12,7,7,0.6,0.5
2024-05-17T1300,4017A,116.7923,33.9535,淮北市,市博物馆,臭氧1小时,84,85,79,36,36,187,,160,160,5,10,7,8,0.7,0.7
2024-05-17T1300,2277A,116.8305,32.7727,淮南市,潘集区政府,臭氧1小时,83,85,72,35,36,186,,146,146,9,18,7,8,0.3,0.3
2024-05-17T1300,2278A,117.0067,32.6524,淮南市,师范学院,臭氧1小时,72,71,63,29,33,177,,150,150,5,10,9,9,0.3,0.3
2024-05-17T1300,2279A,116.8569,32.5951,淮南市,谢家集区政府,臭氧1小时,78,68,60,20,20,182,,136,136,5,14,6,5,0.2,0.2
2024-05-17T1300,2280A,116.8281,32.633,淮南市,八公山区政府,颗粒物(PM10),63,76,64,32,27,163,,129,129,6,11,4,4,0.4,0.4
2024-05-17T1300,2894A,117.0566,32.6531,淮南市,经济技术开发区消防队,臭氧1小时,72,64,61,25,27,177,,138,138,7,15,4,6,0.3,0.3
2024-05-17T1300,3329A,117.0108,32.5893,淮南市,山南新区,臭氧1小时,87,79,74,29,25,189,,150,150,6,14,6,6,0.3,0.3
2024-05-17T1300,2446A,114.9028,30.4742,黄冈市,职工中心,臭氧1小时,72,69,87,31,46,177,,134,134,2,16,6,13,0.5,0.6
2024-05-17T1300,2929A,114.8858,30.4519,黄冈市,红卫路,臭氧1小时,74,65,81,34,45,179,,129,129,2,13,11,14,0.4,0.9
2024-05-17T1300,3398A,114.9136,30.4445,黄冈市,市林业局,臭氧1小时,90,57,76,25,42,192,,144,144,2,14,5,7,0.4,0.5
2024-05-17T1300,2672A,102.0199,35.5102,黄南藏族自治州,同仁县隆务镇,,,124,50,37,23,112,,91,,11,3,,8,0.7,0.6
2024-05-17T1300,2295A,118.2903,29.6963,黄山市,延安路89号,臭氧1小时,60,58,52,27,16,168,,86,86,4,12,6,5,0.4,0.4
2024-05-17T1300,2296A,118.327,29.7178,黄山市,黄山东路89号,,50,42,46,27,24,160,,86,86,6,14,6,6,0.3,0.4
2024-05-17T1300,2297A,118.1371,30.2756,黄山市,黄山区政府5号楼,臭氧1小时,54,41,34,12,22,163,,90,90,6,9,6,5,0.4,0.5
2024-05-17T1300,2423A,115.0601,30.2313,黄石市,沈家营,臭氧1小时,99,75,81,28,43,199,,128,128,6,29,14,19,0.4,0.7
2024-05-17T1300,2424A,115.0817,30.2006,黄石市,陈家湾,臭氧1小时,106,68,78,35,40,211,,116,116,8,28,6,10,0.6,0.9
2024-05-17T1300,2426A,114.8988,30.2019,黄石市,铁山,臭氧1小时,75,54,65,25,34,180,,146,146,3,16,9,15,0.7,0.9
2024-05-17T1300,2427A,115.0307,30.2092,黄石市,团城山,臭氧1小时,82,76,82,20,39,185,,120,120,4,23,10,19,0.5,0.8
2024-05-17T1300,3149A,115.0235,30.1578,黄石市,笔架山北路,臭氧1小时,97,56,75,22,37,197,,134,134,5,21,10,18,0.6,0.8
2024-05-17T1300,1392A,114.4183,23.0528,惠州市,河南岸金山湖子站,臭氧1小时,53,53,50,26,23,162,,134,134,7,12,5,6,0.5,0.4
2024-05-17T1300,1393A,114.4053,23.0822,惠州市,下埔横江三路子站,臭氧1小时,59,49,52,20,24,167,,147,147,10,14,7,8,0.6,0.6
2024-05-17T1300,1394A,114.4103,23.1142,惠州市,江北云山西路子站,臭氧1小时,58,38,49,24,22,166,,150,150,6,10,6,7,0.5,0.5
2024-05-17T1300,1395A,114.4645,22.7833,惠州市,惠阳区承修路船湖子站,臭氧1小时,60,35,50,17,21,168,,120,120,13,15,5,5,0.5,0.5
2024-05-17T1300,1396A,114.5317,22.7422,惠州市,大亚湾管委会子站,,45,36,52,16,22,143,,122,122,12,19,6,6,0.6,0.6
2024-05-17T1300,3314A,114.4338,22.8134,惠州市,惠阳秋长,臭氧1小时,74,39,56,16,21,179,,136,136,8,13,5,6,0.5,0.6
2024-05-17T1300,3452A,114.6517,22.775,惠州市,大亚湾霞涌,颗粒物(PM10),51,51,48,8,17,156,,120,120,6,9,6,7,0.4,0.4
2024-05-17T1300,2240A,130.9762,45.3001,鸡西市,环保局,,24,23,22,9,9,74,,66,66,2,8,5,6,0.5,0.3
2024-05-17T1300,2243A,130.9429,45.3039,鸡西市,第一中学,细颗粒物(PM2.5),60,,23,43,20,95,,74,74,1,7,7,7,0.2,0.2
2024-05-17T1300,3707A,131.0207,45.3073,鸡西市,欧美日汽修厂,,34,34,33,22,21,84,,62,62,7,18,5,3,0.2,0.4
2024-05-17T1300,3709A,130.9967,45.3106,鸡西市,市政设施管理处,,48,,36,33,17,92,,64,64,8,19,7,7,0.3,0.4
2024-05-17T1300,2367A,114.9754,27.0803,吉安市,红声器材厂,,50,50,57,20,27,154,,104,104,15,20,11,13,0.5,0.5
2024-05-17T1300,2368A,114.9658,27.0999,吉安市,市森林工业局,,50,50,60,30,35,156,,107,107,12,21,14,14,0.4,0.5
2024-05-17T1300,2369A,114.99,27.1312,吉安市,市环境监测站,臭氧1小时,62,54,54,26,27,169,,116,116,11,19,14,15,0.7,0.7
2024-05-17T1300,2370A,115.0093,27.0968,吉安市,青原区法院,,48,46,52,25,28,153,,102,102,15,21,10,15,0.5,0.5
2024-05-17T1300,1772A,126.54,43.8622,吉林市,哈达湾,,42,13,28,8,11,133,,95,95,4,20,6,7,0.4,0.5
2024-05-17T1300,1773A,126.5844,43.8358,吉林市,东局子,,41,29,33,10,11,129,,90,90,8,21,5,5,0.4,0.5
2024-05-17T1300,1774A,126.5052,43.8245,吉林市,电力学院,,42,24,39,12,18,134,,87,87,5,23,8,9,0.5,0.6
2024-05-17T1300,1775A,126.6133,43.8972,吉林市,江北,,41,29,36,8,13,131,,91,91,9,20,8,8,0.4,0.5
2024-05-17T1300,1776A,126.555,43.8306,吉林市,江南公园,,42,27,26,18,13,133,,92,92,6,19,5,6,0.4,0.5
2024-05-17T1300,2868A,126.4739,43.953,吉林市,九站,,44,39,42,29,23,138,,98,98,8,29,6,9,0.5,0.6
2024-05-17T1300,1299A,116.9862,36.6114,济南市,科干所,臭氧1小时,87,85,67,37,21,189,,152,152,9,9,11,9,0.9,0.7
2024-05-17T1300,1300A,116.9376,36.665,济南市,农科所,臭氧1小时,90,90,73,44,21,192,,145,145,13,16,9,7,0.7,0.5
2024-05-17T1300,1301A,117.1265,36.6734,济南市,开发区,臭氧1小时,104,85,67,42,24,207,,158,158,16,13,12,8,0.8,0.6
2024-05-17T1300,1303A,117.0624,36.6868,济南市,省种子仓库,臭氧1小时,103,95,83,31,17,206,,143,143,6,15,8,5,0.5,0.4
2024-05-17T1300,1304A,116.9489,36.6447,济南市,机床二厂,臭氧1小时,80,107,84,37,23,184,,147,147,9,8,13,11,0.4,0.3
2024-05-17T1300,1305A,117.0495,36.663,济南市,市监测站,臭氧1小时,104,90,71,34,18,208,,162,162,19,17,13,10,0.5,0.3
2024-05-17T1300,1306A,116.7675,36.5484,济南市,长清党校,颗粒物(PM10),78,105,78,39,23,181,,147,147,12,12,14,12,0.8,0.5
2024-05-17T1300,1616A,117.6795,36.229,济南市,技术学院,臭氧1小时,101,75,79,39,27,201,,129,129,12,28,13,14,0.6,0.7
2024-05-17T1300,1961A,117.532,36.6868,济南市,东山小学,臭氧1小时,90,85,77,29,19,192,,154,154,11,14,8,8,0.4,0.4
2024-05-17T1300,3059A,117.7161,36.2049,济南市,泰兴公司,臭氧1小时,88,80,78,34,26,190,,120,120,11,31,13,13,0.5,0.5
2024-05-17T1300,3064A,117.6867,36.2171,济南市,莱芜战役纪念馆,臭氧1小时,74,85,79,34,27,179,,128,128,11,22,9,12,0.9,0.9
2024-05-17T1300,3494A,117.1673,36.9782,济南市,济阳区政府,臭氧1小时,101,93,90,39,27,202,,136,136,14,26,15,12,0.7,0.7
2024-05-17T1300,3495A,117.1171,36.63,济南市,锦屏中学,臭氧1小时,101,76,61,34,19,202,,161,161,9,7,11,8,0.4,0.3
2024-05-17T1300,3682A,116.9814,36.6819,济南市,济南四建,臭氧1小时,89,92,76,44,23,191,,148,148,14,12,12,9,0.8,0.4
2024-05-17T1300,1653A,116.6251,35.4302,济宁市,火炬城,颗粒物(PM10),65,80,81,39,21,171,,137,137,5,6,10,9,0.7,0.6
2024-05-17T1300,1655A,116.5491,35.4042,济宁市,电化厂,臭氧1小时,89,110,96,29,24,191,,140,140,3,6,10,8,0.7,0.7
2024-05-17T1300,3500A,116.5814,35.3707,济宁市,北湖一中,颗粒物(PM10),73,95,84,19,20,172,,136,136,6,7,9,6,0.5,0.4
2024-05-17T1300,3501A,116.8249,35.5593,济宁市,服务中心,颗粒物(PM10),68,86,99,34,22,167,,125,125,9,13,4,5,0.7,0.6
2024-05-17T1300,3678A,116.5907,35.4054,济宁市,市第七中学,臭氧1小时,87,107,76,41,21,189,,144,144,5,7,9,7,0.6,0.5
2024-05-17T1300,2255A,130.2751,46.8028,佳木斯市,佳纺,,36,30,37,15,13,113,,88,88,3,19,3,4,0.3,0.4
2024-05-17T1300,2256A,130.3995,46.8307,佳木斯市,发电厂,,35,24,27,10,14,110,,85,85,5,19,4,6,0.3,0.4
2024-05-17T1300,2257A,130.3258,46.7975,佳木斯市,环保局,,35,22,24,13,12,111,,85,85,4,23,4,5,0.4,0.5
2024-05-17T1300,2258A,130.3648,46.8032,佳木斯市,十一中,,35,,27,21,15,112,,87,87,6,25,6,6,0.4,0.5
2024-05-17T1300,2259A,130.3794,46.7588,佳木斯市,四丰,,35,9,12,8,7,112,,90,90,4,8,1,1,0.5,0.5
2024-05-17T1300,1252A,120.7436,30.778,嘉兴市,清河小学,臭氧1小时,95,57,47,23,17,196,,128,128,17,27,6,6,0.7,0.8
2024-05-17T1300,1253A,120.726,30.7478,嘉兴市,嘉兴学院,臭氧1小时,101,56,46,26,18,201,,128,128,16,23,7,6,0.5,0.4
2024-05-17T1300,2872A,120.7846,30.7525,嘉兴市,南湖区残联,臭氧1小时,109,72,59,30,20,217,,139,139,12,21,8,8,0.5,0.5
2024-05-17T1300,3407A,120.6916,30.7739,嘉兴市,秀洲住建,,,,42,,21,216,,134,134,15,17,6,7,0.6,0.5
2024-05-17T1300,1945A,98.2908,39.7711,嘉峪关市,气象局,颗粒物(PM10),286,410,704,224,318,111,,82,82,2,23,4,11,0.3,0.5
2024-05-17T1300,2884A,98.2672,39.7978,嘉峪关市,酒钢宾馆,颗粒物(PM10),309,427,719,222,322,115,,87,87,4,14,9,12,0.3,0.3
2024-05-17T1300,3248A,98.2643,39.7724,嘉峪关市,雄关区,颗粒物(PM10),195,340,601,111,174,110,,76,76,4,20,6,10,0.6,0.5
2024-05-17T1300,1383A,113.1064,22.6058,江门市,北街,臭氧1小时,70,48,50,26,24,176,,137,137,18,21,4,5,0.6,0.6
2024-05-17T1300,1384A,113.0731,22.5835,江门市,西区,,50,42,57,24,20,158,,140,134,13,16,7,7,0.4,0.4
2024-05-17T1300,1385A,113.0219,22.5311,江门市,圭峰西,臭氧1小时,59,46,48,23,21,167,,135,132,12,16,5,5,0.6,0.6
2024-05-17T1300,1386A,113.0828,22.5947,江门市,东湖,颗粒物(PM10),52,54,53,30,21,158,,132,129,17,17,8,7,0.4,0.5
2024-05-17T1300,3311A,113.1075,22.5647,江门市,江海富民,颗粒物(PM10),57,63,64,20,26,155,,132,130,17,18,7,6,0.5,0.6
2024-05-17T1300,3449A,113.05,22.4667,江门市,新会银湖,,48,47,47,21,20,153,,113,113,6,19,6,6,0.5,0.6
2024-05-17T1300,1828A,113.227,35.2125,焦作市,市环保局,臭氧1小时,109,58,68,36,30,217,,137,137,14,15,7,8,0.6,0.5
2024-05-17T1300,3169A,113.2725,35.2067,焦作市,太极体育中心,臭氧1小时,109,86,77,35,28,217,,139,139,11,13,8,8,0.4,0.4
2024-05-17T1300,3335A,113.3137,35.2641,焦作市,马村街道办,臭氧1小时,111,78,73,31,25,222,,135,135,14,15,13,7,0.7,0.5
2024-05-17T1300,3336A,113.2465,35.2373,焦作市,焦作技师学院,臭氧1小时,105,83,80,31,27,209,,134,134,14,16,7,5,0.6,0.4
2024-05-17T1300,3477A,113.1656,35.2539,焦作市,中站许衡医院,臭氧1小时,102,49,63,28,29,204,,126,126,20,18,17,11,0.7,0.5
2024-05-17T1300,3981A,113.2449,35.1803,焦作市,原李万街道办,臭氧1小时,87,71,77,29,29,189,,122,122,15,19,12,10,0.5,0.5
2024-05-17T1300,1708A,116.3701,23.5345,揭阳市,新兴,,,50,53,20,28,178,,117,117,,17,11,8,0.5,0.5
2024-05-17T1300,1709A,116.3264,23.5443,揭阳市,西马,臭氧1小时,77,55,58,18,24,181,,115,115,11,13,11,9,0.6,0.6
2024-05-17T1300,1710A,116.3611,23.5626,揭阳市,东兴,臭氧1小时,73,47,59,17,22,178,,102,102,11,17,12,10,0.5,0.6
2024-05-17T1300,1711A,116.4151,23.5294,揭阳市,渔湖,臭氧1小时,65,61,54,46,27,172,,89,89,13,18,13,9,0.5,0.6
2024-05-17T1300,3320A,116.403,23.5699,揭阳市,曲溪,臭氧1小时,83,56,56,30,24,186,,113,113,17,18,13,8,0.5,0.5
2024-05-17T1300,1944A,102.1692,38.5167,金昌市,天庆家园,颗粒物(PM10),109,167,199,53,89,169,,107,107,12,33,32,22,0.5,0.8
2024-05-17T1300,3170A,102.1864,38.5253,金昌市,市委党校,颗粒物(PM10),112,174,253,54,91,160,,92,92,7,31,19,23,0.4,0.7
2024-05-17T1300,4022A,102.1647,38.5371,金昌市,金川区人防中心,颗粒物(PM10),114,177,219,53,79,156,,101,101,10,20,36,16,0.3,0.6
2024-05-17T1300,1262A,119.647,29.077,金华市,十五中,臭氧1小时,85,37,40,23,19,188,,122,122,11,25,5,5,0.5,0.4
2024-05-17T1300,1263A,119.686,29.1029,金华市,监测站,臭氧1小时,87,48,49,25,25,189,,102,102,12,45,4,4,0.4,0.4
2024-05-17T1300,3659A,119.656,29.1131,金华市,气象局,臭氧1小时,83,43,43,22,21,186,,109,109,11,54,6,6,0.3,0.3
2024-05-17T1300,1767A,121.1115,41.0879,锦州市,南山,臭氧1小时,79,55,46,40,35,183,,145,145,18,18,9,10,0.5,0.5
2024-05-17T1300,1768A,121.0533,40.8434,锦州市,开发区,细颗粒物(PM2.5),62,68,68,44,45,165,,132,132,20,35,10,11,0.6,0.7
2024-05-17T1300,1769A,121.1836,41.1119,锦州市,百股街道,臭氧1小时,92,53,47,36,28,193,,153,153,17,22,11,11,0.6,0.6
2024-05-17T1300,1770A,121.1178,41.1222,锦州市,天安街道,臭氧1小时,64,60,52,37,38,171,,135,135,16,18,10,9,0.7,0.8
2024-05-17T1300,1771A,121.1303,41.1386,锦州市,北湖公园,臭氧1小时,75,67,48,35,36,180,,137,137,18,21,10,10,0.7,0.7
2024-05-17T1300,2160A,112.85,35.5051,晋城市,自来水公司,臭氧1小时,108,63,65,19,20,215,,138,138,15,26,12,11,0.9,1
2024-05-17T1300,2161A,112.8318,35.4936,晋城市,白云商贸,臭氧1小时,110,70,65,14,19,220,,132,132,13,26,11,10,0.8,0.9
2024-05-17T1300,2162A,112.8508,35.4887,晋城市,市环保局,臭氧1小时,112,64,81,29,23,224,,132,132,15,28,14,11,0.9,0.8
2024-05-17T1300,2163A,112.8676,35.4897,晋城市,技术学院,臭氧1小时,108,65,51,27,18,215,,127,127,15,27,13,11,1.1,0.9
2024-05-17T1300,3620A,112.8271,35.4828,晋城市,泽州一中,臭氧1小时,105,69,63,22,19,209,,133,133,17,27,15,10,1.1,1
2024-05-17T1300,2171A,112.7532,37.6945,晋中市,锦纶小区,颗粒物(PM10),58,66,99,14,31,137,,107,107,12,30,11,19,0.3,0.7
2024-05-17T1300,2173A,112.7249,37.7067,晋中市,南都小区,颗粒物(PM10),53,56,91,19,36,134,,103,103,9,27,9,19,0.2,0.6
2024-05-17T1300,2174A,112.6991,37.6982,晋中市,榆次区政府,颗粒物(PM10),53,56,90,18,31,140,,105,105,12,29,10,19,0.3,0.7
2024-05-17T1300,2865A,112.7195,37.6828,晋中市,榆次三中,颗粒物(PM10),56,61,101,12,35,136,,104,104,8,26,9,20,0.4,1
2024-05-17T1300,2439A,112.2014,31.0481,荆门市,竹园小学,臭氧1小时,82,96,99,37,52,185,,134,134,12,16,12,11,0.6,0.6
2024-05-17T1300,2440A,112.1969,30.9891,荆门市,掇刀,臭氧1小时,78,86,107,52,46,182,,126,126,11,18,12,13,0.6,0.6
2024-05-17T1300,2441A,112.2213,31.0386,荆门市,石化一小,臭氧1小时,87,92,115,42,52,189,,142,142,11,19,13,13,0.6,0.6
2024-05-17T1300,3012A,112.1849,31.0362,荆门市,西山林语,臭氧1小时,87,113,100,37,54,189,,132,132,10,14,15,14,0.6,0.6
2024-05-17T1300,3547A,112.1632,31.0138,荆门市,龙泉中学南校,臭氧1小时,80,86,96,42,41,184,,121,121,10,20,12,10,0.6,0.6
2024-05-17T1300,1844A,112.2494,30.3197,荆州市,市图书馆,细颗粒物(PM2.5),67,71,72,48,43,172,,125,125,11,16,8,8,0.5,0.5
2024-05-17T1300,1845A,112.2008,30.3544,荆州市,市委党校,臭氧1小时,62,71,72,36,41,169,,124,124,10,15,9,10,0.6,0.6
2024-05-17T1300,3194A,112.2747,30.3122,荆州市,管委会,臭氧1小时,70,63,71,39,37,176,,130,130,9,14,6,6,0.5,0.6
2024-05-17T1300,3548A,112.1655,30.3364,荆州市,学苑路,,,40,55,33,41,184,,127,127,6,13,7,7,,0.6
2024-05-17T1300,2343A,117.2117,29.2933,景德镇市,老干部活动中心,臭氧1小时,64,49,49,26,29,171,,99,99,10,19,11,9,0.4,0.4
2024-05-17T1300,2344A,117.1894,29.2789,景德镇市,兽医站,臭氧1小时,73,54,52,33,25,178,,106,106,4,14,12,10,0.5,0.5
2024-05-17T1300,2345A,117.1547,29.2617,景德镇市,台达陶瓷,颗粒物(PM10),55,59,58,37,31,146,,100,100,27,31,20,15,0.6,0.4
2024-05-17T1300,2346A,117.2461,29.2956,景德镇市,陶研所,臭氧1小时,53,49,46,25,23,162,,93,93,18,11,5,4,0.4,0.3
2024-05-17T1300,1803A,115.9872,29.6815,九江市,十里,臭氧1小时,87,62,61,37,32,189,,126,126,11,29,7,7,0.6,0.6
2024-05-17T1300,1804A,115.9584,29.7046,九江市,茅山头,臭氧1小时,82,59,58,21,27,185,,135,135,10,28,10,9,0.6,0.6
2024-05-17T1300,1805A,115.9877,29.7295,九江市,西园,臭氧1小时,78,67,76,29,33,182,,111,111,11,37,21,25,0.7,0.7
2024-05-17T1300,1806A,116.0172,29.6547,九江市,五七二七厂,臭氧1小时,79,60,51,26,25,183,,134,134,10,14,12,15,0.7,0.7
2024-05-17T1300,1808A,115.9114,29.6038,九江市,综合工业园,臭氧1小时,83,81,74,35,40,186,,143,143,14,33,9,11,0.9,0.8
2024-05-17T1300,1809A,116.0721,29.7535,九江市,石化总厂,臭氧1小时,70,66,65,33,41,176,,135,135,11,20,16,15,0.8,0.7
2024-05-17T1300,1810A,115.9773,29.5698,九江市,庐山气象台,,47,46,38,24,23,150,,153,150,3,4,7,12,0.7,0.8
2024-05-17T1300,3190A,116.0254,29.6994,九江市,外国语学校,臭氧1小时,68,57,62,30,37,174,,120,120,17,28,10,17,0.6,0.6
2024-05-17T1300,2658A,98.5061,39.7443,酒泉市,仓门街子站,颗粒物(PM10),500,664,729,156,200,91,,60,60,5,20,9,15,0.2,0.4
2024-05-17T1300,2659A,98.4989,39.7256,酒泉市,油田生活基地,颗粒物(PM10),500,691,746,242,226,94,,71,71,5,17,2,13,0.3,0.3
2024-05-17T1300,2698A,76.0072,39.4467,喀什地区,巡警大队,颗粒物(PM10),132,213,217,50,49,102,,56,56,11,42,3,3,0.2,0.5
2024-05-17T1300,2699A,75.9755,39.4694,喀什地区,吾办,细颗粒物(PM2.5),144,214,186,110,98,93,,39,39,13,50,4,5,0.5,0.8
2024-05-17T1300,4027A,75.9483,39.4689,喀什地区,老干局,颗粒物(PM10),134,217,264,53,56,101,,39,39,8,35,5,6,0.4,0.6
2024-05-17T1300,1824A,114.3389,34.7781,开封市,肿瘤医院,臭氧1小时,114,118,108,31,25,227,,124,124,15,17,10,6,0.6,0.4
2024-05-17T1300,1826A,114.2885,34.7965,开封市,世纪星幼儿园,臭氧1小时,114,99,111,42,49,228,,128,128,14,17,8,6,0.4,0.4
2024-05-17T1300,3147A,114.3438,34.8106,开封市,龙亭公园,臭氧1小时,116,172,118,56,47,232,,128,128,12,15,10,6,0.6,0.6
2024-05-17T1300,3210A,114.3644,34.7964,开封市,汴京公园,臭氧1小时,117,93,102,33,35,233,,129,129,15,17,9,5,0.5,0.5
2024-05-17T1300,3473A,114.2485,34.8306,开封市,技师学院,臭氧1小时,115,92,115,39,40,229,,123,123,16,19,10,8,0.6,0.6
2024-05-17T1300,3592A,114.4644,34.7556,开封市,祥符区生态环境局,臭氧1小时,109,138,111,42,41,217,,131,131,13,18,10,7,0.5,0.5
2024-05-17T1300,1951A,84.895,45.6094,克拉玛依市,长征新村,,27,12,52,3,10,85,,107,96,6,4,8,8,0.2,0.2
2024-05-17T1300,1952A,84.8988,45.5893,克拉玛依市,南林小区,,27,15,61,3,19,86,,113,103,10,4,7,8,0.2,0.3
2024-05-17T1300,1954A,84.905,44.3396,克拉玛依市,独山子区,颗粒物(PM10),57,64,64,24,30,88,,98,93,12,14,8,8,0.3,0.3
2024-05-17T1300,1955A,85.6979,46.098,克拉玛依市,乌尔禾区商贸楼,,25,20,50,3,9,79,,103,94,2,2,9,10,0.2,0.1
2024-05-17T1300,3612A,85.1045,45.6899,克拉玛依市,白碱滩区新站,,33,32,54,13,20,103,,112,106,3,3,8,8,0.1,0.1
2024-05-17T1300,2697A,76.1454,39.7142,克孜勒苏柯尔克孜自治州,市人民政府,颗粒物(PM10),124,197,153,80,62,107,,84,84,5,15,7,11,0.6,0.6
2024-05-17T1300,3665A,76.1658,39.7157,克孜勒苏柯尔克孜自治州,克州文化中心,颗粒物(PM10),135,220,158,84,64,104,,88,88,6,15,8,11,0.4,0.4
2024-05-17T1300,1450A,102.8204,24.8886,昆明市,呈贡新区,,37,23,28,15,18,116,,89,89,6,11,5,5,0.5,0.6
2024-05-17T1300,1452A,102.7252,25.0902,昆明市,龙泉镇,,38,20,22,17,16,121,,88,88,10,13,8,7,0.6,0.7
2024-05-17T1300,1453A,102.7266,25.0375,昆明市,东风东路,,39,28,27,19,16,123,,85,85,11,12,6,6,0.6,0.6
2024-05-17T1300,1454A,102.6742,25.0669,昆明市,金鼎山,,39,,26,27,17,117,,86,86,11,13,6,6,0.5,0.6
2024-05-17T1300,1455A,102.6644,25.0401,昆明市,碧鸡广场,,37,17,23,13,12,118,,84,84,9,13,4,3,0.6,0.6
2024-05-17T1300,3179A,102.7494,25.0119,昆明市,官渡区博物馆,,43,22,23,19,13,136,,98,98,7,10,9,9,0.5,0.6
2024-05-17T1300,3375A,102.8017,24.8336,昆明市,青年创业园,,40,,19,19,17,128,,100,100,5,9,8,9,0.5,0.6
2024-05-17T1300,3550A,102.7997,24.9786,昆明市,昆明学院,,41,20,25,17,18,131,,96,96,8,12,8,8,0.5,0.7
2024-05-17T1300,3551A,102.5967,24.6736,昆明市,晋宁区生态环境分局,,36,,24,19,16,114,,86,86,4,10,2,2,0.6,0.9
2024-05-17T1300,3552A,102.6678,24.9856,昆明市,云天化总部,,42,16,22,13,16,132,,92,92,6,7,10,8,0.7,0.8
2024-05-17T1300,1456A,91.1319,29.6514,拉萨市,八廓街,臭氧1小时,54,8,14,7,7,163,,142,142,4,8,8,9,0.4,0.6
2024-05-17T1300,1457A,91.1221,29.6747,拉萨市,市环保局,,50,9,15,3,7,157,,130,130,11,12,6,6,0.3,0.3
2024-05-17T1300,1458A,91.0874,29.6475,拉萨市,区监测站,,50,8,14,6,7,158,,137,137,6,10,5,5,0.2,0.2
2024-05-17T1300,1459A,91.1774,29.6541,拉萨市,西藏大学,臭氧1小时,53,6,14,3,7,162,,147,147,3,5,3,4,0.2,0.4
2024-05-17T1300,1460A,90.9798,29.6588,拉萨市,区辐射站,,46,11,16,3,7,146,,126,126,15,12,6,6,0.4,0.4
2024-05-17T1300,1461A,91.0834,29.6292,拉萨市,拉萨火车站,,49,7,12,6,6,154,,135,135,8,6,6,6,0.1,0.2
2024-05-17T1300,2520A,109.2203,23.7256,来宾市,来宾技工学校,颗粒物(PM10),55,59,72,29,39,144,,100,100,7,18,7,9,0.5,0.8
2024-05-17T1300,3535A,109.1781,23.7297,来宾市,兴宾区政府,,45,42,62,22,36,142,,95,95,9,19,9,8,0.6,0.9
2024-05-17T1300,4002A,109.2416,23.7461,来宾市,中南小学,颗粒物(PM10),54,58,74,21,39,150,,94,94,8,24,6,6,0.5,0.8
2024-05-17T1300,1476A,103.631,36.1031,兰州市,兰炼宾馆,臭氧1小时,111,101,117,46,52,222,,94,94,38,52,34,19,0.9,0.5
2024-05-17T1300,1478A,103.8412,36.0726,兰州市,生物制品所,颗粒物(PM10),74,97,130,48,52,153,,59,59,30,54,22,15,0.5,0.4
2024-05-17T1300,1479A,103.831,36.0464,兰州市,铁路设计院,颗粒物(PM10),76,102,114,33,38,138,,54,54,60,68,27,15,0.7,0.6
2024-05-17T1300,3186A,103.7158,36.1058,兰州市,教育港,颗粒物(PM10),92,133,141,59,57,187,,85,85,27,40,28,17,0.6,0.5
2024-05-17T1300,3241A,103.7439,36.0842,兰州市,百合公园,颗粒物(PM10),71,92,101,36,38,164,,69,69,28,45,27,10,0.5,0.5
2024-05-17T1300,3242A,103.9611,35.998,兰州市,和平,颗粒物(PM10),83,116,143,40,45,160,,106,104,20,22,17,12,0.4,0.3
2024-05-17T1300,3245A,103.6633,36.533,兰州新区,新区管委会,臭氧1小时,60,54,96,26,41,168,,99,99,9,18,15,19,0.5,0.4
2024-05-17T1300,3246A,103.6975,36.4789,兰州新区,舟曲中学,颗粒物(PM10),73,96,124,50,50,165,,96,96,11,21,13,18,0.5,0.5
2024-05-17T1300,1067A,116.6708,39.5111,廊坊市,药材公司,臭氧1小时,101,95,84,49,32,202,,121,121,12,22,8,6,0.7,0.5
2024-05-17T1300,1068A,116.7214,39.5589,廊坊市,开发区,臭氧1小时,95,91,83,36,30,196,,110,110,14,27,8,5,0.5,0.5
2024-05-17T1300,1070A,116.7244,39.5269,廊坊市,北华航天学院,臭氧1小时,90,96,94,34,32,192,,110,110,9,24,7,5,0.6,0.5
2024-05-17T1300,2919A,116.7022,39.5453,廊坊市,河北工业大学,臭氧1小时,100,100,95,37,30,200,,115,115,11,25,6,4,0.6,0.5
2024-05-17T1300,2535A,103.7723,29.5462,乐山市,花湖湾,细颗粒物(PM2.5),78,77,62,57,46,42,,47,29,43,22,4,5,1.0,0.8
2024-05-17T1300,2536A,103.7627,29.5844,乐山市,牛耳桥,细颗粒物(PM2.5),83,90,66,61,46,62,,43,37,43,31,12,9,0.8,0.8
2024-05-17T1300,2537A,103.7508,29.6006,乐山市,市第三水厂,细颗粒物(PM2.5),78,78,65,57,43,67,,50,50,42,27,13,9,0.7,0.7
2024-05-17T1300,2538A,103.7571,29.5664,乐山市,市监测站,细颗粒物(PM2.5),78,87,65,57,46,51,,48,41,44,25,10,11,1.0,0.8
2024-05-17T1300,3361A,103.7311,29.5628,乐山市,理工大学,细颗粒物(PM2.5),95,93,68,71,47,52,,36,34,47,28,10,14,0.9,0.9
2024-05-17T1300,2599A,100.2497,26.8802,丽江市,丽江古城,,38,38,30,16,17,107,,90,90,8,11,6,7,0.5,0.5
2024-05-17T1300,2600A,100.2203,26.8906,丽江市,市中心,,35,25,18,11,12,112,,97,97,8,10,8,8,0.6,0.6
2024-05-17T1300,1267A,119.914,28.4514,丽水市,监测站大楼,,45,25,28,14,11,142,,102,102,7,13,3,3,0.3,0.1
2024-05-17T1300,1268A,119.93,28.4586,丽水市,莲都小学,,45,36,31,12,11,141,,95,95,7,19,4,4,0.2,0.2
2024-05-17T1300,1269A,119.879,28.4231,丽水市,余庄前,,45,20,25,10,14,141,,88,88,5,11,4,4,0.3,0.3
2024-05-17T1300,1173A,119.176,34.5885,连云港市,市环境监测站,臭氧1小时,80,88,58,41,23,184,,119,119,15,20,9,9,0.3,0.4
2024-05-17T1300,3000A,119.3581,34.6972,连云港市,德源药业,臭氧1小时,95,75,50,36,28,196,,135,135,10,16,8,8,0.6,0.4
2024-05-17T1300,3007A,119.178,34.844,连云港市,新城一中,臭氧1小时,105,74,52,34,22,210,,133,133,15,21,9,8,0.8,0.6
2024-05-17T1300,3008A,119.3608,34.7519,连云港市,胡沟管理处,臭氧1小时,83,78,51,31,15,186,,158,158,8,10,10,9,0.5,0.4
2024-05-17T1300,3009A,119.1478,34.5911,连云港市,矿山设计院,臭氧1小时,78,88,62,34,20,182,,127,127,13,16,8,10,0.8,0.6
2024-05-17T1300,3434A,119.2413,34.6539,连云港市,工贸学校,臭氧1小时,102,79,65,42,32,203,,142,142,12,13,10,10,0.7,0.5
2024-05-17T1300,3664A,119.4172,34.7341,连云港市,连云街道,臭氧1小时,95,80,69,39,24,196,,157,157,12,11,6,6,0.6,0.4
2024-05-17T1300,2571A,102.3431,27.8099,凉山彝族自治州,青龙寺,,30,12,25,10,16,95,,45,45,4,7,7,6,0.5,0.6
2024-05-17T1300,2572A,102.2721,27.8415,凉山彝族自治州,邛海宾馆,,30,25,22,18,16,96,,56,56,5,12,9,9,0.6,0.7
2024-05-17T1300,2573A,102.2625,27.898,凉山彝族自治州,西昌市政府,,40,34,32,28,24,93,,53,48,11,14,12,12,0.6,0.7
2024-05-17T1300,2574A,102.2685,27.8851,凉山彝族自治州,凉山州政府,,30,30,29,21,20,96,,60,51,9,15,8,10,0.7,0.7
2024-05-17T1300,2575A,102.237,27.8914,凉山彝族自治州,长安,,37,37,43,20,18,92,,52,52,19,17,9,10,0.6,0.8
2024-05-17T1300,2212A,123.2,41.1953,辽阳市,宏伟区,,50,47,30,20,15,160,,140,140,10,14,12,13,0.7,0.6
2024-05-17T1300,2213A,123.1683,41.2495,辽阳市,新华园,臭氧1小时,60,54,38,21,20,168,,143,143,15,20,15,15,0.7,0.6
2024-05-17T1300,2214A,123.2354,41.2639,辽阳市,滨河路,,50,48,44,18,19,159,,133,133,12,18,16,11,0.5,0.4
2024-05-17T1300,2215A,123.149,41.2991,辽阳市,铁西工业园,臭氧1小时,60,61,42,17,18,168,,142,142,18,20,14,14,0.7,0.6
2024-05-17T1300,2227A,125.1358,42.8845,辽源市,环保局,,45,22,30,11,14,142,,94,94,6,32,8,9,0.5,0.6
2024-05-17T1300,3239A,125.0764,42.9078,辽源市,银鹰制药,,45,30,34,16,18,143,,95,95,8,37,6,14,0.5,0.6
2024-05-17T1300,1625A,115.9848,36.4372,聊城市,区政府,臭氧1小时,83,92,92,36,24,186,,119,119,17,18,14,11,1.0,0.7
2024-05-17T1300,2878A,116.0072,36.4343,聊城市,聊大东校,臭氧1小时,103,101,87,68,36,205,,130,130,15,17,12,10,0.7,0.6
2024-05-17T1300,3200A,115.9819,36.4978,聊城市,监控中心,臭氧1小时,98,102,93,22,15,198,,129,129,15,19,16,13,0.7,0.5
2024-05-17T1300,3513A,116.0445,36.4361,聊城市,九州社区,臭氧1小时,99,102,90,35,20,199,,123,123,14,17,10,11,0.6,0.4
2024-05-17T1300,4018A,116.0567,36.4608,聊城市,星美广场,臭氧1小时,102,107,89,39,24,203,,130,130,11,15,14,10,0.8,0.5
2024-05-17T1300,2632A,94.3681,29.6376,林芝市,林芝监测站,,42,,8,7,7,132,,95,94,2,2,7,6,0.5,0.6
2024-05-17T1300,2633A,94.3616,29.6616,林芝市,林芝人民医院,,43,,7,3,4,137,,99,99,5,4,7,7,0.3,0.3
2024-05-17T1300,2603A,100.0781,23.8982,临沧市,市环保局,细颗粒物(PM2.5),53,46,46,37,34,109,,74,74,7,12,7,8,0.5,0.5
2024-05-17T1300,2604A,100.0894,23.8822,临沧市,市气象局,,48,40,43,33,34,105,,74,74,9,14,7,8,0.7,0.7
2024-05-17T1300,1733A,111.5531,36.0783,临汾市,临钢医院,臭氧1小时,104,66,85,42,32,207,,108,108,9,21,,11,0.9,0.9
2024-05-17T1300,1734A,111.5028,36.0714,临汾市,技工学校,臭氧1小时,112,75,87,34,32,223,,124,124,14,27,10,10,0.8,0.7
2024-05-17T1300,1736A,111.5018,36.0855,临汾市,市委,臭氧1小时,115,83,84,28,31,230,,128,128,11,22,15,14,0.8,0.8
2024-05-17T1300,3018A,111.505,36.1014,临汾市,唐尧大酒店,臭氧1小时,102,86,97,29,28,203,,111,111,9,21,11,10,0.7,0.8
2024-05-17T1300,3668A,111.5036,36.0414,临汾市,城南,臭氧1小时,114,73,94,54,45,227,,109,109,11,25,15,10,0.8,0.8
2024-05-17T1300,2667A,103.2069,35.5993,临夏回族自治州,环保局,颗粒物(PM10),86,122,159,44,46,141,,81,81,7,16,5,5,0.4,0.4
2024-05-17T1300,2668A,103.2417,35.6057,临夏回族自治州,建设大厦,颗粒物(PM10),87,124,151,41,50,138,,87,87,14,18,12,11,0.4,0.4
2024-05-17T1300,1618A,118.3429,35.0532,临沂市,沂河小区,细颗粒物(PM2.5),110,100,73,83,35,204,,139,139,16,24,12,15,0.5,0.3
2024-05-17T1300,1619A,118.295,35.0583,临沂市,鲁南制药厂,臭氧1小时,104,61,56,48,24,208,,144,144,10,19,11,15,0.5,0.4
2024-05-17T1300,1620A,118.2794,34.9976,临沂市,新光毛纺厂,臭氧1小时,102,90,75,37,29,204,,136,136,10,22,10,16,0.6,0.5
2024-05-17T1300,1621A,118.3956,35.0888,临沂市,河东保险公司,臭氧1小时,87,92,62,42,32,189,,130,130,10,20,10,12,0.4,0.3
2024-05-17T1300,3370A,118.3564,35.0215,临沂市,十里堡居委,臭氧1小时,105,85,62,44,35,210,,138,138,12,20,9,11,0.6,0.4
2024-05-17T1300,3496A,118.3604,35.1084,临沂市,南坊新区,臭氧1小时,101,105,75,39,27,202,,136,136,18,23,12,14,0.7,0.6
2024-05-17T1300,3860A,118.3920,35.0300,临沂市,皇山花园小区,臭氧1小时,104,100,73,40,30,208,,136,136,18,18,13,16,0.7,0.5
2024-05-17T1300,1870A,109.4856,24.3895,柳州市,柳东小学,细颗粒物(PM2.5),62,63,58,44,41,119,,48,48,20,29,9,8,0.6,0.6
2024-05-17T1300,1871A,109.4157,24.3277,柳州市,环保监测站,颗粒物(PM10),53,55,71,31,40,114,,63,63,18,26,9,10,0.8,0.8
2024-05-17T1300,1872A,109.389,24.341,柳州市,河西水厂,颗粒物(PM10),52,53,76,30,38,121,,61,61,16,30,9,12,0.8,0.9
2024-05-17T1300,1873A,109.4311,24.2921,柳州市,市四中,颗粒物(PM10),65,79,68,38,39,115,,61,61,18,29,8,8,0.7,0.8
2024-05-17T1300,1874A,109.4006,24.3631,柳州市,市九中,颗粒物(PM10),59,68,87,26,42,127,,63,63,19,30,8,9,0.6,0.7
2024-05-17T1300,1875A,109.4958,24.3134,柳州市,古亭山,颗粒物(PM10),64,77,60,41,34,119,,63,63,20,35,11,10,0.6,0.6
2024-05-17T1300,3402A,109.5422,24.3996,柳州市,市二中,颗粒物(PM10),55,60,67,37,35,118,,47,47,16,33,12,10,0.6,0.6
2024-05-17T1300,2307A,116.5079,31.737,六安市,监测大楼,臭氧1小时,73,52,40,30,24,178,,159,159,6,11,5,5,0.4,0.4
2024-05-17T1300,2308A,116.4738,31.7643,六安市,皖西学院,,,,49,,21,173,,161,159,10,12,4,4,0.5,0.4
2024-05-17T1300,2309A,116.4996,31.7905,六安市,朝阳厂,臭氧1小时,58,64,44,21,20,166,,155,154,3,8,7,6,0.3,0.3
2024-05-17T1300,2310A,116.5567,31.7886,六安市,开发区,臭氧1小时,70,60,63,34,32,176,,133,133,8,19,9,11,0.5,0.5
2024-05-17T1300,2577A,104.83,26.5917,六盘水市,黄土坡,,27,19,12,11,9,86,,63,61,11,14,6,5,0.7,0.5
2024-05-17T1300,2578A,104.89,26.5939,六盘水市,水钢,,30,24,15,21,11,80,,73,65,15,8,9,8,1.2,0.4
2024-05-17T1300,2579A,104.8475,26.5894,六盘水市,民中,,39,,12,27,9,65,,66,58,20,12,8,6,1.3,0.6
2024-05-17T1300,2580A,104.9544,26.5506,六盘水市,双水,,27,9,7,8,6,85,,74,67,8,7,7,6,0.4,0.4
2024-05-17T1300,2336A,117.0217,25.1033,龙岩市,龙岩市监测站,臭氧1小时,75,61,54,25,31,180,,137,137,10,17,6,10,0.4,0.4
2024-05-17T1300,2337A,117.0258,25.0661,龙岩市,闽西职业技术学院,臭氧1小时,65,49,55,24,32,172,,128,128,8,18,6,13,0.5,0.5
2024-05-17T1300,2338A,117.0196,25.0306,龙岩市,龙岩学院,臭氧1小时,77,55,44,21,28,181,,145,145,8,11,3,5,0.4,0.4
2024-05-17T1300,2885A,104.9339,33.3826,陇南市,滨江中学,颗粒物(PM10),59,68,68,27,24,126,,89,89,5,5,6,9,0.5,0.8
2024-05-17T1300,3247A,104.955,33.371,陇南市,市总工会,,47,47,52,25,23,120,,94,94,7,7,8,7,0.7,0.7
2024-05-17T1300,2487A,111.9589,27.8901,娄底市,电视发射台,颗粒物(PM10),59,67,68,38,34,131,,88,88,7,9,9,9,0.9,0.9
2024-05-17T1300,2488A,111.9975,27.725,娄底市,市监测站,细颗粒物(PM2.5),64,65,88,46,45,135,,68,68,5,23,5,6,0.7,0.8
2024-05-17T1300,2489A,112.0194,27.7314,娄底市,市委党校,颗粒物(PM10),65,79,81,40,45,132,,82,82,11,15,7,8,0.7,0.7
2024-05-17T1300,2490A,111.9561,27.7569,娄底市,涟钢,颗粒物(PM10),53,56,92,26,48,112,,66,66,26,31,16,13,0.7,0.7
2024-05-17T1300,2491A,111.9892,27.7044,娄底市,市政府,,,65,72,53,42,138,,82,82,,14,8,8,0.4,0.8
2024-05-17T1300,1893A,105.4324,28.9634,泸州市,九狮山,,43,40,48,30,28,99,,55,55,11,14,5,6,0.3,0.4
2024-05-17T1300,1894A,105.4427,28.9063,泸州市,小市上码头,颗粒物(PM10),51,52,52,34,28,120,,66,66,15,15,16,17,0.4,0.3
2024-05-17T1300,1895A,105.4241,28.8573,泸州市,兰田宪桥,,44,44,50,30,29,110,,54,54,13,17,8,6,0.4,0.4
2024-05-17T1300,1896A,105.4379,28.8833,泸州市,市环监站,,49,47,51,34,32,103,,53,53,17,17,9,20,0.5,0.4
2024-05-17T1300,3490A,105.3617,28.7703,泸州市,纳溪区环保局,颗粒物(PM10),55,60,47,31,23,80,,36,36,21,24,9,4,0.4,0.3
2024-05-17T1300,2183A,111.1406,37.5211,吕梁市,环保局,"颗粒物(PM10),臭氧1小时",72,93,96,40,39,177,,96,96,14,40,8,5,0.5,0.5
2024-05-17T1300,2185A,111.1297,37.5136,吕梁市,自来水公司,颗粒物(PM10),72,93,81,43,35,169,,97,97,16,28,9,6,0.6,0.6
2024-05-17T1300,2867A,111.1283,37.51,吕梁市,马茂庄小学,颗粒物(PM10),79,108,95,42,35,176,,100,100,13,40,8,5,0.5,0.5
2024-05-17T1300,1812A,112.3931,34.6516,洛阳市,市委党校,臭氧1小时,54,45,70,33,37,163,,101,101,5,23,3,6,0.5,0.6
2024-05-17T1300,1814A,112.4657,34.6871,洛阳市,豫西宾馆,臭氧1小时,79,54,81,25,32,183,,101,101,6,23,5,8,0.5,0.6
2024-05-17T1300,1815A,112.494,34.6886,洛阳市,河南林校,,,50,65,22,32,178,,97,97,,30,5,8,0.4,0.4
2024-05-17T1300,1816A,112.3844,34.623,洛阳市,开发区管委会,,49,39,62,19,31,154,,91,91,3,16,2,5,0.3,0.4
2024-05-17T1300,1817A,112.4267,34.6258,洛阳市,市委新办公区,臭氧1小时,55,40,64,27,36,164,,97,97,4,16,5,8,0.3,0.3
2024-05-17T1300,3340A,112.6005,34.6326,洛阳市,伊滨,臭氧1小时,59,48,73,25,30,167,,95,95,8,21,6,7,0.3,0.4
2024-05-17T1300,3341A,112.4951,34.6332,洛阳市,中移产业园,臭氧1小时,60,42,66,27,31,168,,97,97,6,19,5,7,0.7,0.7
2024-05-17T1300,3593A,112.5736,34.8993,洛阳市,吉利监测站,臭氧1小时,68,60,71,25,29,174,,107,107,13,23,8,6,0.2,0.3
2024-05-17T1300,3635A,112.3677,34.662,洛阳市,河科大西苑校区,颗粒物(PM10),51,51,78,24,35,156,,90,90,2,26,4,8,0.6,0.6
2024-05-17T1300,3636A,112.4388,34.6781,洛阳市,英才小学,臭氧1小时,65,55,81,23,33,172,,97,97,8,23,5,9,0.6,0.7
2024-05-17T1300,2399A,114.051,33.5699,漯河市,三五一五工厂,颗粒物(PM10),129,208,103,30,32,183,,158,158,9,14,6,7,0.7,0.6
2024-05-17T1300,2400A,114.0055,33.5698,漯河市,漯河大学,臭氧1小时,80,78,90,39,38,184,,152,152,13,17,11,9,0.6,0.5
2024-05-17T1300,2401A,114.0138,33.5828,漯河市,市水利局,臭氧1小时,80,70,85,41,37,184,,157,157,7,11,9,8,0.7,0.6
2024-05-17T1300,2402A,114.0261,33.5698,漯河市,市广电局,臭氧1小时,84,81,86,37,32,187,,157,157,7,11,6,6,0.8,0.6
2024-05-17T1300,3478A,113.9749,33.5664,漯河市,市图书馆,臭氧1小时,79,84,89,45,39,183,,153,153,4,10,9,6,0.6,0.5
2024-05-17T1300,3479A,114.0967,33.5906,漯河市,召陵区卫健委,细颗粒物(PM2.5),88,85,87,65,42,181,,157,157,7,9,6,7,0.7,0.6
2024-05-17T1300,1798A,118.5092,31.6837,马鞍山市,湖东路四小,臭氧1小时,103,82,58,18,26,206,,140,140,11,26,8,8,0.8,0.8
2024-05-17T1300,1799A,118.5024,31.6449,马鞍山市,开发区,臭氧1小时,101,67,61,35,30,201,,130,130,15,36,10,10,0.8,0.8
2024-05-17T1300,1800A,118.5228,31.7231,马鞍山市,慈湖,,,54,48,34,22,195,,130,130,17,35,,7,1.2,1.1
2024-05-17T1300,1802A,118.6245,31.7241,马鞍山市,濮塘,臭氧1小时,102,66,45,42,32,204,,134,134,12,17,7,5,0.8,0.7
2024-05-17T1300,3633A,118.4918,31.6809,马鞍山市,雨山,臭氧1小时,103,59,52,32,30,205,,139,139,10,26,11,10,0.8,0.9
2024-05-17T1300,1686A,111.0286,21.4688,茂名市,电白南海,,48,48,53,22,20,121,,117,113,7,9,8,9,0.5,0.4
2024-05-17T1300,1687A,110.9294,21.6533,茂名市,茂石化七小,,41,41,47,17,24,121,,132,120,8,11,7,8,0.5,0.6
2024-05-17T1300,1688A,110.9107,21.6687,茂名市,健康路,,39,39,46,14,20,116,,130,117,6,9,9,11,0.6,0.6
2024-05-17T1300,1689A,110.8592,21.6828,茂名市,高岭,,48,48,56,22,25,127,,132,121,8,12,9,14,0.6,0.6
2024-05-17T1300,3450A,111.01,21.5165,茂名市,电白水东,,41,41,46,19,21,109,,122,112,14,14,5,7,0.4,0.4
2024-05-17T1300,2539A,104.0308,30.0478,眉山市,黑龙滩水库,,45,38,35,22,25,142,,84,84,14,9,6,5,0.6,0.5
2024-05-17T1300,2540A,103.8416,30.0874,眉山市,气象局,细颗粒物(PM2.5),79,60,58,58,45,135,,60,60,21,32,11,9,0.5,0.5
2024-05-17T1300,3137A,103.8578,30.0744,眉山市,市委党校,细颗粒物(PM2.5),73,83,59,53,34,128,,70,70,24,28,16,10,0.4,0.4
2024-05-17T1300,3148A,103.8291,30.0564,眉山市,区人社局,细颗粒物(PM2.5),77,69,56,56,42,112,,57,57,39,37,15,14,0.5,0.5
2024-05-17T1300,1690A,116.1231,24.3284,梅州市,梅江月梅,臭氧1小时,101,51,54,23,31,201,,133,133,10,17,4,6,0.5,0.6
2024-05-17T1300,1691A,116.0797,24.2719,梅州市,梅县新城,臭氧1小时,85,55,56,27,31,188,,127,127,11,16,5,5,0.5,0.6
2024-05-17T1300,1692A,116.1248,24.2654,梅州市,环境监控中心,臭氧1小时,78,52,53,22,32,182,,131,131,10,23,4,5,0.5,0.6
2024-05-17T1300,3315A,116.1233,24.2991,梅州市,梅龙,臭氧1小时,99,46,55,22,30,199,,146,146,6,10,9,10,0.7,0.7
2024-05-17T1300,1878A,104.7778,31.4741,绵阳市,富乐山,臭氧1小时,55,50,50,31,31,164,,92,92,8,14,8,9,0.8,0.5
2024-05-17T1300,1879A,104.7563,31.4535,绵阳市,市人大,颗粒物(PM10),56,62,61,22,33,150,,79,79,16,27,10,8,0.6,0.6
2024-05-17T1300,1880A,104.6697,31.4668,绵阳市,高新区自来水公司,臭氧1小时,63,52,67,32,32,170,,89,89,13,34,11,11,0.7,0.7
2024-05-17T1300,1881A,104.7287,31.5075,绵阳市,三水厂,细颗粒物(PM2.5),62,72,64,44,42,168,,72,72,14,39,4,6,0.4,0.5
2024-05-17T1300,3491A,104.69,31.5322,绵阳市,西科大附属小学,臭氧1小时,55,53,64,26,33,164,,85,85,12,32,7,7,0.4,0.5
2024-05-17T1300,3492A,104.5648,31.5343,绵阳市,安州区旅游局,颗粒物(PM10),56,62,69,37,49,153,,85,85,15,23,10,9,0.6,0.7
2024-05-17T1300,1784A,129.61,44.561,牡丹江市,环保大楼,,32,16,20,7,12,102,,68,68,3,12,5,5,0.2,0.3
2024-05-17T1300,1785A,129.6115,44.5782,牡丹江市,文化广场,,31,18,25,6,16,98,,63,63,6,17,6,7,0.2,0.3
2024-05-17T1300,1786A,129.5904,44.5963,牡丹江市,第一医院,,32,31,28,15,18,100,,63,63,5,14,4,5,0.1,0.4
2024-05-17T1300,1787A,129.6364,44.6075,牡丹江市,机车工厂,,32,26,28,3,12,100,,64,64,3,11,4,7,0.2,0.3
2024-05-17T1300,1788A,129.6386,44.5462,牡丹江市,第一中学,,34,16,25,7,13,106,,72,72,5,12,5,6,0.2,0.2
2024-05-17T1300,2531A,105.0703,29.61,内江市,市监测站,,49,44,36,34,36,138,,68,68,13,26,8,8,0.4,0.5
2024-05-17T1300,2532A,105.0717,29.5947,内江市,东兴区政府,,42,37,42,25,27,133,,78,78,11,18,10,11,0.5,0.5
2024-05-17T1300,2533A,105.0653,29.5817,内江市,内江二中,,39,35,38,22,28,124,,69,69,11,18,9,9,0.4,0.5
2024-05-17T1300,2534A,105.0406,29.5822,内江市,内江日报社,,42,35,37,28,32,134,,75,75,13,34,11,10,0.5,0.5
2024-05-17T1300,2628A,92.0657,31.4846,那曲市,那曲监测站,,46,22,19,9,9,146,,131,131,5,8,5,5,0.3,0.4
2024-05-17T1300,3128A,92.0506,31.4797,那曲市,那曲会议中心,,,42,20,14,8,,,89,89,4,5,3,3,0.3,0.4
2024-05-17T1300,1290A,115.8931,28.6843,南昌市,省外办,臭氧1小时,63,73,81,41,42,170,,120,120,10,27,15,9,0.5,0.6
2024-05-17T1300,1291A,115.8886,28.7003,南昌市,省林业公司,臭氧1小时,74,73,82,41,40,179,,116,116,12,42,14,8,0.6,0.7
2024-05-17T1300,1292A,115.8126,28.7442,南昌市,林科所,臭氧1小时,87,61,71,29,34,189,,127,127,9,54,11,10,0.4,0.5
2024-05-17T1300,1294A,115.8518,28.687,南昌市,建工学校,臭氧1小时,78,90,83,26,34,182,,126,126,7,34,16,10,0.5,0.7
2024-05-17T1300,1295A,115.8921,28.6424,南昌市,象湖,臭氧1小时,87,70,80,42,39,189,,100,100,9,45,15,8,0.6,0.7
2024-05-17T1300,1296A,115.7423,28.7996,南昌市,武术学校,"细颗粒物(PM2.5),臭氧1小时",62,,33,44,34,169,,97,97,4,7,14,10,0.3,0.4
2024-05-17T1300,1298A,115.9314,28.6842,南昌市,省站,臭氧1小时,79,76,108,38,44,183,,112,112,2,31,17,11,0.6,0.8
2024-05-17T1300,3046A,115.9084,28.6062,南昌市,机电学校,细颗粒物(PM2.5),113,,90,85,41,176,,96,96,5,40,18,11,0.6,0.8
2024-05-17T1300,3690A,115.9721,28.7031,南昌市,外国语学校,臭氧1小时,74,77,80,45,42,179,,104,104,8,28,9,5,0.3,0.4
2024-05-17T1300,1905A,106.056,30.8064,南充市,西山风景区,细颗粒物(PM2.5),52,45,48,36,33,143,,68,68,15,16,4,7,0.6,0.6
2024-05-17T1300,1906A,106.0789,30.8023,南充市,南充市委,颗粒物(PM10),61,72,64,37,34,162,,67,67,17,33,7,8,0.2,0.3
2024-05-17T1300,1907A,106.1031,30.8217,南充市,南充炼油厂,臭氧1小时,75,62,74,29,40,180,,81,81,10,24,8,8,0.4,0.5
2024-05-17T1300,1908A,106.1064,30.7856,南充市,高坪区监测站,臭氧1小时,62,63,64,38,34,169,,82,82,19,29,9,11,0,0.2
2024-05-17T1300,1909A,106.0642,30.7636,南充市,嘉陵区环保局,,,66,64,34,34,169,,80,80,,29,7,11,0.4,0.4
2024-05-17T1300,1910A,106.1087,30.8388,南充市,市环境监测站,颗粒物(PM10),56,61,70,25,36,164,,77,77,14,29,8,8,0.4,0.5
2024-05-17T1300,1151A,118.8086,32.1065,南京市,迈皋桥,臭氧1小时,103,57,36,31,18,205,,125,125,19,23,9,5,1.2,0.7
2024-05-17T1300,1152A,118.7538,32.0551,南京市,草场门,臭氧1小时,102,61,42,31,24,204,,125,125,18,32,9,5,0.9,0.5
2024-05-17T1300,1153A,118.7794,32.0745,南京市,山西路,臭氧1小时,95,70,44,24,22,196,,120,120,19,23,4,4,0.9,0.5
2024-05-17T1300,1154A,118.7752,32.0023,南京市,中华门,臭氧1小时,100,61,43,19,18,200,,,,18,33,13,8,0.4,0.5
2024-05-17T1300,1155A,118.8109,32.0309,南京市,瑞金路,臭氧1小时,101,72,44,31,22,201,,119,119,11,29,12,7,0.6,0.4
2024-05-17T1300,1156A,118.7997,32.0754,南京市,玄武湖,臭氧1小时,80,71,43,38,18,184,,113,113,13,14,14,9,0.6,0.2
2024-05-17T1300,1157A,118.6414,32.0931,南京市,浦口,臭氧1小时,68,62,49,27,22,174,,115,115,20,32,7,10,0.7,0.7
2024-05-17T1300,1158A,118.7356,31.9996,南京市,奥体中心,臭氧1小时,92,68,45,34,21,193,,122,122,21,28,15,10,0.9,0.5
2024-05-17T1300,1159A,118.9125,32.1028,南京市,仙林大学城,臭氧1小时,106,53,39,17,12,211,,126,126,15,27,12,10,0.6,0.5
2024-05-17T1300,3422A,118.8436,31.9198,南京市,江宁彩虹桥,臭氧1小时,107,100,43,34,20,214,,116,116,9,28,4,4,0.7,0.6
2024-05-17T1300,3423A,119.0138,31.6494,南京市,溧水永阳,臭氧1小时,83,51,36,23,19,186,,123,123,11,18,5,6,0.5,0.4
2024-05-17T1300,3424A,118.879,31.3302,南京市,高淳老职中,臭氧1小时,72,44,39,16,23,177,,116,116,11,17,6,7,0.3,0.3
2024-05-17T1300,3427A,118.8554,32.3578,南京市,六合雄州,臭氧1小时,105,31,40,30,22,209,,117,117,26,37,19,11,1.5,0.9
2024-05-17T1300,1401A,108.3103,22.7881,南宁市,二十一中,,45,27,55,23,32,141,,135,135,8,17,6,7,0.6,0.7
2024-05-17T1300,1402A,108.3141,22.8528,南宁市,北湖,颗粒物(PM10),52,53,56,24,32,135,,130,130,8,14,6,7,0.7,0.8
2024-05-17T1300,1403A,108.3206,22.8225,南宁市,市监测站,,42,36,55,24,31,134,,130,130,10,21,6,8,0.7,0.8
2024-05-17T1300,1404A,108.3829,22.8037,南宁市,大自然花园,,41,36,52,22,32,130,,130,127,7,14,6,7,0.5,0.6
2024-05-17T1300,1405A,108.4394,22.7904,南宁市,仙葫,颗粒物(PM10),57,63,54,26,30,124,,120,119,10,14,6,8,0.7,0.9
2024-05-17T1300,1406A,108.2397,22.8467,南宁市,区农职院,,48,48,59,22,28,152,,138,138,12,21,6,7,0.6,0.6
2024-05-17T1300,1407A,108.3275,22.735,南宁市,英华嘉园,颗粒物(PM10),53,55,57,22,31,120,,113,113,15,22,7,8,0.6,0.7
2024-05-17T1300,1408A,108.2257,22.7757,南宁市,沙井镇街道办,颗粒物(PM10),53,55,68,17,33,126,,107,107,9,26,5,9,0.6,0.7
2024-05-17T1300,3401A,108.4834,22.7618,南宁市,红星社区,,44,29,53,23,31,138,,130,130,9,17,9,10,0.6,0.7
2024-05-17T1300,2332A,118.1681,26.6369,南平市,南平市监测站,,42,29,39,14,23,134,,94,94,8,13,5,5,0.5,0.6
2024-05-17T1300,2333A,118.1825,26.6489,南平市,南平铝业有限公司,,40,18,37,9,24,128,,93,93,7,14,5,6,0.4,0.6
2024-05-17T1300,2334A,118.1756,26.6272,南平市,南平七中,,42,24,34,11,21,134,,97,97,7,10,4,4,0.6,0.7
2024-05-17T1300,1169A,120.86,32.0005,南通市,虹桥,臭氧1小时,100,50,41,24,14,200,,104,104,23,44,10,8,0.6,0.4
2024-05-17T1300,1170A,120.87,32.02,南通市,城中,臭氧1小时,79,60,48,29,17,183,,110,110,24,33,8,7,0.6,0.6
2024-05-17T1300,1171A,120.94,31.93,南通市,星湖花园,臭氧1小时,85,45,38,16,14,188,,114,114,18,38,10,10,0.5,0.5
2024-05-17T1300,1172A,120.81,32.0417,南通市,紫琅学院,臭氧1小时,93,53,40,26,14,194,,108,108,39,45,13,11,0.6,0.5
2024-05-17T1300,3291A,121.067,32.062,南通市,通州监测站,臭氧1小时,102,51,44,17,12,204,,120,120,,28,11,11,0.5,0.4
2024-05-17T1300,3432A,120.9348,31.9883,南通市,环境教育馆,臭氧1小时,79,41,40,20,14,183,,111,111,19,35,10,10,0.5,0.5
2024-05-17T1300,2404A,112.5224,33.0122,南阳市,瓦房庄,臭氧1小时,62,60,75,29,34,169,,133,133,11,16,8,7,0.6,0.5
2024-05-17T1300,2405A,112.5003,32.9735,南阳市,汉画馆,颗粒物(PM10),63,75,81,36,34,165,,129,129,13,19,6,6,0.5,0.5
2024-05-17T1300,2406A,112.5573,33.027,南阳市,气象站,臭氧1小时,70,69,78,29,30,176,,142,142,13,15,5,5,0.4,0.4
2024-05-17T1300,2407A,112.5481,32.9689,南阳市,理工学院,臭氧1小时,63,63,81,30,34,170,,136,136,11,16,7,6,0.6,0.6
2024-05-17T1300,4008A,112.5234,32.9922,南阳市,卧龙区政府,臭氧1小时,58,64,77,38,35,166,,132,132,13,16,8,7,0.7,0.7
2024-05-17T1300,1234A,121.8358,29.911,宁波市,区环保大楼,,43,43,24,13,9,114,,106,106,14,13,5,5,0.5,0.4
2024-05-17T1300,1235A,121.56,29.82,宁波市,万里学院,,,21,21,,7,135,,108,108,4,14,4,4,0.4,0.4
2024-05-17T1300,1236A,121.713,29.9572,宁波市,龙赛医院,,40,27,19,8,8,126,,105,105,8,14,4,5,0.3,0.3
2024-05-17T1300,1239A,121.633,29.7733,宁波市,钱湖水厂,,40,14,12,12,6,125,,106,106,2,3,4,4,0.3,0.3
2024-05-17T1300,1240A,121.5856,29.8635,宁波市,太古小学,,40,17,20,10,5,126,,101,101,9,15,5,5,0.4,0.4
2024-05-17T1300,1241A,121.524,29.8674,宁波市,市环境监测中心,,43,16,21,9,6,135,,109,109,11,18,9,10,0.4,0.4
2024-05-17T1300,2871A,121.6147,29.9017,宁波市,万里国际学校,,43,18,24,8,8,137,,112,112,8,12,3,3,0.3,0.3
2024-05-17T1300,3710A,121.5594,29.8975,宁波市,白沙活动中心,,41,27,25,6,4,131,,107,107,9,14,9,9,0.4,0.4
2024-05-17T1300,2341A,119.5388,26.6612,宁德市,宁德市监测站,,37,37,22,11,12,115,,78,78,7,11,7,8,0.3,0.3
2024-05-17T1300,3209A,119.5231,26.6562,宁德市,宁德一中,,37,37,23,12,12,115,,83,83,6,9,6,7,0.3,0.2
2024-05-17T1300,2618A,98.8601,25.8567,怒江傈僳族自治州,州监测站,,33,33,29,20,23,83,,63,63,7,10,8,8,0.4,0.4
2024-05-17T1300,2619A,98.8546,25.8417,怒江傈僳族自治州,泸水一中,,43,43,34,25,23,71,,49,49,12,18,7,7,0.3,0.4
2024-05-17T1300,1888A,101.6891,26.571,攀枝花市,弄弄坪,颗粒物(PM10),52,53,49,31,28,156,,81,81,21,22,29,21,1.7,0.8
2024-05-17T1300,1889A,101.5769,26.5928,攀枝花市,河门口,,49,42,52,28,35,156,,67,67,16,28,20,20,1.0,1.1
2024-05-17T1300,1890A,101.7169,26.585,攀枝花市,炳草岗,臭氧1小时,57,49,47,23,28,165,,72,72,19,28,36,28,1.2,0.7
2024-05-17T1300,1891A,101.7369,26.5008,攀枝花市,仁和,,48,40,47,29,35,153,,82,82,10,17,21,20,0.6,0.6
2024-05-17T1300,2835A,101.7227,26.567,攀枝花市,四十中小,臭氧1小时,62,39,40,26,23,169,,84,84,12,19,23,20,1.2,0.9
2024-05-17T1300,1604A,122.0303,41.1489,盘锦市,开发区,臭氧1小时,97,65,50,31,30,197,,158,158,13,20,8,9,0.4,0.5
2024-05-17T1300,1605A,122.0485,41.0883,盘锦市,兴隆台,臭氧1小时,89,66,55,34,30,191,,155,155,17,28,10,11,0.5,0.7
2024-05-17T1300,1606A,121.8297,41.1028,盘锦市,新生街道,臭氧1小时,82,55,41,19,29,185,,142,142,11,16,8,10,0.6,0.6
2024-05-17T1300,1832A,113.3257,33.742,平顶山市,新华旅馆,臭氧1小时,83,67,82,42,40,186,,155,155,9,13,8,8,0.4,0.4
2024-05-17T1300,1833A,113.2919,33.737,平顶山市,规划设计院,臭氧1小时,63,58,71,34,34,170,,140,140,7,12,8,7,0.7,0.7
2024-05-17T1300,1834A,113.182,33.774,平顶山市,平顶山工学院,细颗粒物(PM2.5),67,69,67,48,32,162,,145,145,6,8,5,5,0.5,0.5
2024-05-17T1300,3204A,113.3025,33.73,平顶山市,规划局,臭氧1小时,62,44,56,33,34,169,,142,140,9,11,6,6,0.5,0.5
2024-05-17T1300,3594A,112.8867,33.9116,平顶山市,石龙区,,,43,78,21,25,162,,106,106,5,19,6,6,,0.4
2024-05-17T1300,2656A,106.6692,35.5461,平凉市,聚贤嘉苑,臭氧1小时,77,73,70,17,23,181,,123,123,8,22,8,9,0.2,0.3
2024-05-17T1300,2657A,106.7021,35.5307,平凉市,博物馆,臭氧1小时,84,111,70,18,25,187,,127,127,10,19,3,8,0.4,0.4
2024-05-17T1300,2347A,114.0997,27.5002,萍乡市,武功山,,37,29,35,17,11,117,,90,90,5,7,9,8,0.4,0.5
2024-05-17T1300,2348A,113.8385,27.6434,萍乡市,中医院,,,43,67,25,36,134,,96,96,,23,3,4,0.4,0.8
2024-05-17T1300,2349A,113.8493,27.6253,萍乡市,市政府车库,颗粒物(PM10),53,55,58,23,40,126,,84,84,5,16,7,13,0.5,1
2024-05-17T1300,2350A,113.8676,27.6435,萍乡市,市环保局,,45,45,66,21,39,131,,91,91,4,20,4,9,0.4,0.8
2024-05-17T1300,2351A,113.866,27.6198,萍乡市,安源区政府,,48,48,70,21,32,130,,84,84,2,16,10,15,0.3,1
2024-05-17T1300,2319A,119.0141,25.4325,莆田市,荔城区仓后路,颗粒物(PM10),51,52,30,15,9,141,,94,94,9,14,5,5,0.5,0.5
2024-05-17T1300,2320A,119.0015,25.4553,莆田市,莆田市监测站,,45,28,20,14,6,142,,102,102,7,5,7,7,0.5,0.4
2024-05-17T1300,2321A,119.1119,25.4561,莆田市,涵江区六中,,44,33,27,9,7,140,,98,98,10,21,8,8,0.8,0.6
2024-05-17T1300,2322A,119.1013,25.3215,莆田市,秀屿区政府,,43,32,29,18,7,136,,101,101,7,15,8,8,0.6,0.5
2024-05-17T1300,2392A,115.0312,35.7636,濮阳市,环保局,臭氧1小时,75,78,68,29,22,180,,113,113,11,12,14,9,0.6,0.4
2024-05-17T1300,2394A,115.0574,35.7609,濮阳市,油田运输公司,臭氧1小时,94,93,72,30,21,195,,122,122,13,11,15,11,0.5,0.2
2024-05-17T1300,2395A,115.0866,35.7754,濮阳市,油田物探公司,臭氧1小时,90,110,51,33,22,192,,123,123,9,9,14,9,0.6,0.4
2024-05-17T1300,3021A,115,35.7668,濮阳市,濮水河管理处,臭氧1小时,62,70,75,34,25,169,,99,99,8,12,14,9,0.7,0.4
2024-05-17T1300,2601A,100.98,22.7633,普洱市,市环保局,,34,34,26,12,19,100,,93,93,6,6,10,10,0.5,0.4
2024-05-17T1300,2602A,100.9817,22.8322,普洱市,普洱第二中学,,33,31,25,3,13,105,,92,92,7,7,9,9,0.6,0.5
2024-05-17T1300,2262A,131.0518,45.8751,七台河市,新一中,,38,6,12,3,7,119,,90,90,5,8,8,9,0.7,0.7
2024-05-17T1300,3345A,131.0577,45.7879,七台河市,中波台,,35,19,24,3,9,111,,79,79,10,22,7,8,0.4,0.5
2024-05-17T1300,3637A,131.0176,45.7761,七台河市,人民广场,,33,11,31,3,18,103,,72,72,8,19,10,11,0.3,0.5
2024-05-17T1300,3684A,130.8781,45.8222,七台河市,新建矿广场,,34,17,27,14,16,108,,79,79,13,20,9,10,0.4,0.5
2024-05-17T1300,1779A,123.9305,47.3636,齐齐哈尔市,安居小区,颗粒物(PM10),64,78,37,32,19,127,,97,97,15,14,6,5,0.5,0.3
2024-05-17T1300,1780A,123.9488,47.3386,齐齐哈尔市,中心广场,颗粒物(PM10),77,103,43,39,18,131,,101,101,14,13,9,8,0.5,0.3
2024-05-17T1300,1781A,123.9483,47.3227,齐齐哈尔市,农牧车辆厂,,,,41,,10,132,,102,102,11,10,10,8,0.4,0.3
2024-05-17T1300,1783A,123.945,47.2988,齐齐哈尔市,市环境监测站,颗粒物(PM10),66,82,39,23,17,134,,104,104,10,10,8,5,0.3,0.2
2024-05-17T1300,3662A,123.6333,47.2075,齐齐哈尔市,富区青少年活动中心,颗粒物(PM10),73,96,36,22,12,134,,100,100,11,11,8,7,0.4,0.4
2024-05-17T1300,2591A,107.9783,26.5747,黔东南苗族侗族自治州,市环境监测站,颗粒物(PM10),51,52,39,30,24,28,,65,48,40,16,3,4,0.8,0.5
2024-05-17T1300,2881A,107.8908,26.5311,黔东南苗族侗族自治州,凯里学院,,41,41,37,24,23,65,,47,47,7,12,3,4,0.5,0.5
2024-05-17T1300,2593A,107.5228,26.2403,黔南布依族苗族自治州,小围寨,,35,27,31,24,18,59,,82,77,5,6,4,5,0.7,0.6
2024-05-17T1300,3538A,107.5175,26.2978,黔南布依族苗族自治州,沙坝,,,34,32,24,16,53,,72,66,8,8,3,4,,0.5
2024-05-17T1300,2589A,104.9022,25.0925,黔西南布依族苗族自治州,场坝街,,21,13,13,8,6,66,,64,60,31,17,2,2,0.3,0.3
2024-05-17T1300,2590A,104.8811,25.0992,黔西南布依族苗族自治州,坪东大道,,19,12,19,8,7,59,,62,57,5,4,2,2,0,0
2024-05-17T1300,2502A,108.6236,21.9667,钦州市,市环保站,颗粒物(PM10),51,51,55,19,23,129,,121,118,6,11,8,8,0.6,0.8
2024-05-17T1300,2503A,108.6549,21.9481,钦州市,沙埠小学,颗粒物(PM10),52,53,58,22,25,130,,112,112,7,17,6,9,0.8,0.8
2024-05-17T1300,2504A,108.5989,21.7431,钦州市,港区一小,颗粒物(PM10),57,64,63,24,23,130,,105,101,10,20,9,9,0.6,0.7
2024-05-17T1300,3404A,108.5959,21.9633,钦州市,北职校,,48,48,57,23,26,134,,122,121,8,12,9,10,0.6,0.8
2024-05-17T1300,1042A,119.5134,39.8207,秦皇岛市,北戴河环保局,臭氧1小时,63,67,75,34,33,170,,120,120,22,30,4,4,0.4,0.5
2024-05-17T1300,1043A,119.7493,40.0116,秦皇岛市,第一关,臭氧1小时,74,88,91,41,48,179,,125,125,20,39,7,7,0.5,0.5
2024-05-17T1300,1044A,119.5897,39.9499,秦皇岛市,监测站,颗粒物(PM10),73,96,96,52,50,171,,124,124,22,34,6,6,0.4,0.5
2024-05-17T1300,1046A,119.5251,39.9041,秦皇岛市,建设大厦,颗粒物(PM10),66,82,80,37,38,158,,118,118,17,30,4,4,0.3,0.4
2024-05-17T1300,3132A,119.610547,39.943889,秦皇岛市,文明里,颗粒物(PM10),77,103,112,41,44,162,,118,118,28,40,5,6,0.5,0.5
2024-05-17T1300,1307A,120.6659,36.2403,青岛市,仰口,颗粒物(PM10),58,66,53,31,24,142,,129,124,16,11,7,7,0.7,0.6
2024-05-17T1300,1310A,120.4134,36.0658,青岛市,市南区东部子站,颗粒物(PM10),59,68,54,29,19,149,,110,110,22,18,11,9,0.7,0.5
2024-05-17T1300,1311A,120.3664,36.1032,青岛市,四方区子站,细颗粒物(PM2.5),85,70,53,63,27,171,,119,119,30,25,9,7,0.6,0.5
2024-05-17T1300,1312A,120.2994,36.054,青岛市,市南区西部子站,细颗粒物(PM2.5),68,58,58,49,47,141,,110,110,32,30,9,9,0.6,0.5
2024-05-17T1300,1313A,120.4581,36.0858,青岛市,崂山区子站,,,66,48,34,19,153,,121,121,26,21,10,10,,0.5
2024-05-17T1300,1314A,120.1983,35.9608,青岛市,黄岛区子站,细颗粒物(PM2.5),64,75,53,46,31,150,,106,106,21,17,10,8,0.7,0.6
2024-05-17T1300,1315A,120.3999,36.3083,青岛市,城阳区子站,颗粒物(PM10),67,83,58,24,18,167,,123,123,25,29,12,11,0.8,0.7
2024-05-17T1300,1966A,120.0405,35.8735,青岛市,黄岛区4号,颗粒物(PM10),76,102,53,36,18,142,,105,99,27,18,12,10,0.8,0.6
2024-05-17T1300,3362A,120.5014,36.4034,青岛市,即墨2号,臭氧1小时,85,89,69,28,21,188,,147,147,8,18,8,9,0.7,0.7
2024-05-17T1300,3642A,120.3503,36.0736,青岛市,市北区南部,颗粒物(PM10),54,57,50,29,18,162,,116,116,24,21,10,8,0.8,0.7
2024-05-17T1300,3643A,120.3948,36.1805,青岛市,李沧区北部,臭氧1小时,68,80,65,39,25,174,,121,121,30,28,13,11,0.8,0.6
2024-05-17T1300,1702A,113.0426,23.691,清远市,环保大楼,臭氧1小时,75,72,63,32,36,180,,94,94,26,25,6,7,0.6,0.6
2024-05-17T1300,1703A,113.0208,23.7106,清远市,凤城街办,臭氧1小时,95,89,67,47,32,196,,112,112,31,27,9,10,0.5,0.5
2024-05-17T1300,3025A,113.0477,23.6344,清远市,技师学院,臭氧1小时,97,84,78,37,36,197,,104,104,20,34,7,9,0.4,0.4
2024-05-17T1300,3318A,112.9903,23.7403,清远市,清新太和,臭氧1小时,103,79,68,42,35,206,,129,129,25,25,10,11,0.5,0.6
2024-05-17T1300,3455A,113.076,23.7198,清远市,清城东城,,,68,65,40,33,196,,96,96,22,24,8,8,,0.5
2024-05-17T1300,2661A,107.6325,35.7357,庆阳市,庆阳五中,颗粒物(PM10),73,95,63,29,29,177,,115,115,9,17,8,10,0.4,0.4
2024-05-17T1300,2662A,107.6364,35.7067,庆阳市,市环保局,颗粒物(PM10),65,80,54,24,24,169,,115,115,7,15,8,8,0.3,0.6
2024-05-17T1300,1916A,103.7897,25.5035,曲靖市,环境监测站,,36,,23,24,13,114,,67,67,11,12,4,4,0.8,0.7
2024-05-17T1300,1917A,103.8,25.5364,曲靖市,烟厂办公区,,36,33,24,18,12,114,,70,70,9,11,4,4,0.7,0.7
2024-05-17T1300,3376A,103.7947,25.462,曲靖市,南苑二区,,38,33,25,21,15,121,,73,73,13,13,5,5,0.7,0.6
2024-05-17T1300,3377A,103.7444,25.5261,曲靖市,曲靖师范学院,,35,25,22,22,19,109,,75,75,13,12,10,7,0.8,0.6
2024-05-17T1300,1264A,118.8692,28.9398,衢州市,环保大楼,臭氧1小时,80,33,51,23,31,184,,117,117,11,32,6,6,0.6,0.5
2024-05-17T1300,1265A,118.8709,28.9666,衢州市,实验学校,臭氧1小时,84,38,47,23,28,187,,106,106,12,34,8,7,0.6,0.5
2024-05-17T1300,1266A,118.8621,28.9808,衢州市,衢州学院,臭氧1小时,93,44,47,26,26,194,,97,97,12,39,8,7,0.6,0.4
2024-05-17T1300,1611A,118.5819,24.9117,泉州市,涂山街,,45,45,45,17,15,135,,74,74,11,20,2,2,0.3,0.4
2024-05-17T1300,1612A,118.5972,24.8978,泉州市,津头埔,颗粒物(PM10),52,54,41,20,14,159,,92,92,18,25,2,3,0.4,0.4
2024-05-17T1300,1613A,118.6663,24.9424,泉州市,万安,颗粒物(PM10),52,53,36,22,12,160,,97,97,11,23,2,3,0.3,0.3
2024-05-17T1300,3529A,118.6333,24.9264,泉州市,城华南路,,48,46,34,20,14,152,,86,86,14,22,4,5,0.3,0.3
2024-05-17T1300,2626A,88.8876,29.2718,日喀则市,日喀则监测站,,50,17,20,8,7,160,,125,125,4,8,5,5,0.4,0.4
2024-05-17T1300,3726A,88.8781,29.2426,日喀则市,林业技术推广中心,,49,16,29,7,8,156,,103,103,7,10,6,6,0.4,0.4
2024-05-17T1300,1659A,119.471,35.4209,日照市,监测站,臭氧1小时,104,95,65,54,28,208,,131,131,25,31,15,14,1.2,0.9
2024-05-17T1300,1660A,119.523,35.4216,日照市,市政府广场,颗粒物(PM10),81,112,66,45,24,179,,124,124,36,40,13,13,0.8,0.7
2024-05-17T1300,1661A,119.5587,35.4044,日照市,港务局,臭氧1小时,89,112,84,39,22,191,,113,113,24,36,12,12,0.8,0.7
2024-05-17T1300,3507A,119.5328,35.4625,日照市,职业技术学院,颗粒物(PM10),90,129,71,39,23,159,,111,111,38,28,14,12,1.1,0.7
2024-05-17T1300,3604A,119.3266,35.1044,日照市,岚山环保分局,,,,61,,23,217,,134,134,10,17,9,9,0.6,0.5
2024-05-17T1300,1835A,111.1922,34.7752,三门峡市,市政府,颗粒物(PM10),55,60,51,27,22,163,,89,89,16,30,21,11,0.7,0.6
2024-05-17T1300,1836A,111.1587,34.7942,三门峡市,开发区,,,72,59,42,29,189,,69,,17,19,,11,1.0,0.7
2024-05-17T1300,3039A,111.1911,34.7829,三门峡市,三门峡市第一小学,臭氧1小时,68,64,56,35,26,174,,97,97,18,22,22,12,0.6,0.5
2024-05-17T1300,3598A,111.1,34.7167,三门峡市,富达温泉假日酒店,臭氧1小时,62,63,66,33,32,169,,89,89,24,32,20,13,1.0,1
2024-05-17T1300,2324A,117.6211,26.2625,三明市,三钢,臭氧1小时,83,45,45,20,33,186,,123,123,12,20,12,9,0.9,0.6
2024-05-17T1300,2325A,117.635,26.2714,三明市,三明二中,臭氧1小时,90,48,40,23,25,192,,125,125,14,16,17,10,1.4,0.8
2024-05-17T1300,2326A,117.6028,26.2378,三明市,三元区政府,臭氧1小时,90,51,55,28,35,192,,111,111,13,30,14,11,0.9,1
2024-05-17T1300,1876A,109.5078,18.2489,三亚市,河东子站,,27,26,26,12,10,84,,93,86,3,3,4,4,0.4,0.3
2024-05-17T1300,1877A,109.4964,18.2681,三亚市,河西子站,,28,21,25,12,10,87,,88,84,3,3,2,2,0.3,0.3
