timepoint,stationcode,longitude,latitude,area,positionname,primarypollutant,aqi,pm10,pm10_24h,pm2_5,pm2_5_24h,o3,o3_24h,o3_8h,o3_8h_24h,no2,no2_24h,so2,so2_24h,co,co_24h
2025-08-25T2100,2566A,102.1879,31.914,阿坝藏族羌族自治州,州农科所,,23,23,19,9,6,41,,60,59,5,5,14,14,0.1,0.1
2025-08-25T2100,2568A,102.2502,31.8896,阿坝藏族羌族自治州,马师校,,,,17,,15,40,,43,43,7,5,8,8,0.8,0.7
2025-08-25T2100,3994A,102.2165,31.9024,阿坝藏族羌族自治州,马尔康中学西区,,45,,14,31,10,47,,57,57,5,3,8,8,0.7,0.6
2025-08-25T2100,2695A,80.292,41.1694,阿克苏地区,电视台,,37,37,42,20,26,105,,118,118,6,11,4,4,0.5,0.6
2025-08-25T2100,2696A,80.2613,41.1551,阿克苏地区,艺术中心,,36,32,42,20,28,114,,124,124,6,18,3,5,0.3,0.2
2025-08-25T2100,2204A,105.6467,38.8363,阿拉善盟,西城区西花园,,49,29,29,21,14,154,,155,155,8,10,9,9,1.0,0.9
2025-08-25T2100,2205A,105.6985,38.8411,阿拉善盟,蒙二幼,,45,34,31,14,12,141,,141,141,4,6,10,10,0.5,0.5
2025-08-25T2100,2206A,105.724,38.8516,阿拉善盟,环保局新楼,,46,21,23,13,11,146,,146,146,4,5,11,10,0.5,0.4
2025-08-25T2100,2708A,88.1264,47.8517,阿勒泰地区,市站,,28,20,24,13,6,88,,90,90,11,15,3,3,0.4,0.5
2025-08-25T2100,2630A,80.1161,32.5,阿里地区,阿里监测站,,20,7,5,3,2,63,,65,65,5,4,6,6,0.1,0.1
2025-08-25T2100,3192A,80.0903,32.5028,阿里地区,阿里藏医院,,23,11,7,3,2,73,,73,73,1,1,6,6,0.3,0.3
2025-08-25T2100,2642A,109.0318,32.6537,安康市,香溪洞,,23,23,25,12,10,53,,73,71,8,8,7,6,0.4,0.6
2025-08-25T2100,2644A,109.0072,32.6975,安康市,汉滨区检察院,,27,27,28,3,6,33,,70,65,18,9,5,6,0.5,0.5
2025-08-25T2100,4054A,109.0325,32.6913,安康市,市邮政管理局,,18,18,28,3,10,39,,67,62,12,9,5,6,0.7,0.6
2025-08-25T2100,2291A,117.0809,30.5177,安庆市,环科院,,17,16,26,6,14,52,,111,85,6,19,5,5,0.6,0.6
2025-08-25T2100,2292A,117.0331,30.5119,安庆市,马山宾馆,,15,12,24,3,12,48,,109,81,9,20,4,5,0.4,0.4
2025-08-25T2100,2294A,116.9896,30.6145,安庆市,安庆大学,,14,14,27,6,17,33,,121,80,15,19,3,5,0.4,0.5
2025-08-25T2100,3173A,117.0598,30.5351,安庆市,市人大,,16,15,23,6,14,50,,112,81,10,14,4,5,0.4,0.5
2025-08-25T2100,3122A,105.9606,26.2611,安顺市,伍家关,,14,8,8,3,5,43,,66,56,6,8,5,5,0.5,0.5
2025-08-25T2100,3123A,105.9408,26.2431,安顺市,凤凰山,,28,,12,19,13,29,,60,47,13,11,6,6,0.4,0.4
2025-08-25T2100,3124A,105.9439,26.2564,安顺市,金钟山,,12,11,12,3,8,38,,63,51,7,6,6,6,0.5,0.4
2025-08-25T2100,3125A,105.8983,26.2481,安顺市,娄家坡,,18,,9,12,7,39,,59,50,6,5,8,8,0.5,0.4
2025-08-25T2100,1818A,114.4839,36.0621,安阳市,棉研所,,,,,,,,,,,,,,,,
2025-08-25T2100,1819A,114.3551,36.1017,安阳市,红庙街,,40,40,35,20,17,122,,154,150,14,12,8,8,0.9,0.8
2025-08-25T2100,1820A,114.361,36.0681,安阳市,银杏小区,,38,36,37,20,22,120,,162,158,19,13,8,8,0.7,0.6
2025-08-25T2100,3141A,114.3922,36.0878,安阳市,信访局,,42,28,34,20,19,133,,168,164,15,13,7,8,0.9,0.9
2025-08-25T2100,3669A,114.4705,36.0637,安阳市,左辅环卫站,,39,36,36,27,22,90,,159,148,27,16,6,7,0.7,0.7
2025-08-25T2100,3703A,114.2917,36.0949,安阳市,安钢职工学校,,42,37,40,29,24,123,,155,153,14,10,7,12,1.0,0.7
2025-08-25T2100,1748A,123.044,41.1196,鞍山市,深沟寺,,16,16,28,8,14,34,,39,39,20,21,7,6,1.4,1.1
2025-08-25T2100,1749A,123.011,41.0931,鞍山市,太阳城,,20,19,24,14,16,32,,39,39,23,20,5,5,1.1,1.1
2025-08-25T2100,1750A,123.0485,41.1442,鞍山市,太平,,18,18,29,10,15,35,,35,35,20,25,9,6,1.4,1.3
2025-08-25T2100,1751A,122.9642,41.0971,鞍山市,铁西三道街,,21,21,34,14,24,32,,22,22,27,33,12,10,1.8,2.1
2025-08-25T2100,1753A,123.022,41.0821,鞍山市,明达新区,,15,14,22,10,14,32,,36,36,19,23,7,7,1.2,1.2
2025-08-25T2100,1754A,123.1289,41.0228,鞍山市,千山,,,,,,,,,,,,,,,,
2025-08-25T2100,4201A,122.9446,41.0826,鞍山市,兴盛南路290号,,16,16,31,10,19,34,,29,29,25,37,9,10,1.2,2.2
2025-08-25T2100,2195A,107.4212,40.761,巴彦淖尔市,附二中,,40,40,41,20,20,114,,143,140,7,10,8,11,0.6,0.7
2025-08-25T2100,2196A,107.37,40.7372,巴彦淖尔市,市环保大楼,,36,34,36,11,14,114,,137,132,10,11,12,9,0.6,0.6
2025-08-25T2100,1956A,86.1472,41.7538,巴音郭楞蒙古自治州,孔雀公园,颗粒物(PM10),70,90,91,23,24,46,,81,78,42,24,4,5,0.3,0.3
2025-08-25T2100,1957A,86.1972,41.7166,巴音郭楞蒙古自治州,棉纺厂,颗粒物(PM10),56,62,122,23,23,63,,95,91,27,15,4,5,0.3,0.3
2025-08-25T2100,1958A,86.2357,41.7173,巴音郭楞蒙古自治州,经济开发区,,29,29,88,11,17,72,,98,96,10,9,4,4,0.2,0.3
2025-08-25T2100,2914A,106.7677,31.8794,巴中市,苏山坪,,26,10,12,7,8,82,,74,74,4,5,4,4,0.4,0.4
2025-08-25T2100,3181A,106.7768,31.8526,巴中市,市五中,,22,22,18,9,10,53,,79,76,9,7,6,6,0.4,0.4
2025-08-25T2100,3183A,106.7418,31.8654,巴中市,圣泉水务公司,,17,17,15,9,9,39,,82,78,20,5,6,6,0.6,0.6
2025-08-25T2100,3616A,106.7616,31.8344,巴中市,市中心医院,,,17,16,6,10,,,78,77,19,8,6,6,0.4,0.4
2025-08-25T2100,2235A,122.7911,45.6077,白城市,洮北区环保局,,18,10,16,8,11,56,,90,84,8,14,6,6,0.3,0.4
2025-08-25T2100,2236A,122.8738,45.5725,白城市,市环保局,,17,,14,9,8,53,,85,80,2,15,3,4,0.4,0.4
2025-08-25T2100,2231A,126.4219,41.9171,白山市,喜丰,,24,24,21,12,7,22,,36,26,12,17,6,6,0.5,0.6
2025-08-25T2100,2232A,126.4077,41.9419,白山市,环保局,,24,24,19,12,13,20,,33,28,11,15,6,5,0.7,0.7
2025-08-25T2100,2647A,104.1724,36.5446,白银市,第三小学,,19,19,41,6,17,46,,76,58,14,20,7,46,0.6,0.8
2025-08-25T2100,2648A,104.1465,36.5482,白银市,动力公司,,19,19,33,3,15,54,,108,68,13,18,8,37,0.5,0.6
2025-08-25T2100,2512A,106.6103,23.9011,百色市,市监测站,,18,18,22,8,7,28,,54,43,8,11,5,5,0.4,0.4
2025-08-25T2100,2513A,106.6538,23.8859,百色市,市中心血站,,21,21,25,12,10,15,,50,40,22,17,4,4,0.6,0.6
2025-08-25T2100,3406A,106.6085,23.8798,百色市,祈福高中,,24,24,28,11,9,23,,51,40,14,13,4,5,0.5,0.5
2025-08-25T2100,2270A,117.396,32.939,蚌埠市,工人疗养院,,25,21,20,7,6,77,,124,112,9,8,5,4,0.3,0.3
2025-08-25T2100,2271A,117.3605,32.9427,蚌埠市,百货大楼,,22,21,17,8,8,68,,128,115,16,11,7,7,0.4,0.5
2025-08-25T2100,2273A,117.4185,32.8911,蚌埠市,蚌埠学院,,25,22,14,12,9,80,,131,119,8,8,7,7,0.4,0.4
2025-08-25T2100,2274A,117.3533,32.9673,蚌埠市,淮上区政府,,19,19,18,10,10,57,,135,119,17,12,6,6,0.3,0.3
2025-08-25T2100,2275A,117.3145,32.8977,蚌埠市,高新区,,19,19,18,10,9,55,,130,114,19,13,7,8,0.5,0.5
2025-08-25T2100,3715A,117.3092,32.9314,蚌埠市,蚌埠田家炳中学,,18,,21,3,9,55,,130,115,17,13,5,6,0.3,0.3
2025-08-25T2100,1585A,109.8756,40.6532,包头市,市环境监测站,,,,36,,17,,,144,140,,39,,7,,0.8
2025-08-25T2100,1587A,109.9991,40.5842,包头市,包头八中,,39,39,41,19,21,83,,132,125,38,29,6,10,0.7,1.1
2025-08-25T2100,1588A,109.8538,40.6821,包头市,青山宾馆,,,24,30,16,18,,,153,137,,33,,5,,0.7
2025-08-25T2100,1589A,109.8642,40.6288,包头市,惠龙物流,,32,32,32,16,18,80,,142,130,36,25,4,7,0.6,0.8
2025-08-25T2100,1590A,110.0377,40.5546,包头市,东河鸿龙湾,,42,42,38,14,18,81,,146,135,38,27,7,6,0.8,0.9
2025-08-25T2100,3283A,109.9154,40.5685,包头市,滨河大厦,,33,33,37,18,20,96,,140,132,24,34,5,8,0.5,0.7
2025-08-25T2100,3419A,109.9447,40.6261,包头市,包头市委党校,,40,40,35,14,19,89,,147,135,38,32,6,10,0.5,0.7
2025-08-25T2100,3683A,109.8331,40.6576,包头市,昆区政府,,40,40,35,23,18,82,,156,144,45,24,5,8,0.7,0.8
2025-08-25T2100,1930A,107.185,34.3063,宝鸡市,庙沟村,,42,42,27,17,12,80,,92,92,12,14,4,4,0.7,0.6
2025-08-25T2100,1931A,107.0708,34.3017,宝鸡市,竹园沟,,28,27,25,19,15,37,,80,76,11,14,7,7,0.5,0.4
2025-08-25T2100,1932A,107.1906,34.3672,宝鸡市,三陆医院,,48,42,31,33,26,76,,107,105,25,20,8,8,0.8,0.7
2025-08-25T2100,1933A,107.1431,34.3547,宝鸡市,监测站,,46,46,35,24,17,54,,107,102,17,15,8,8,1.1,0.9
2025-08-25T2100,1934A,107.1186,34.3739,宝鸡市,技工学校,,48,42,32,33,21,82,,118,117,15,15,6,7,0.8,0.7
2025-08-25T2100,1936A,107.2058,34.3497,宝鸡市,文理学院,,50,50,35,24,23,58,,108,102,26,18,7,8,0.7,0.6
2025-08-25T2100,1937A,107.2386,34.3622,宝鸡市,三迪小学,细颗粒物(PM2.5),52,49,33,36,26,80,,116,113,30,19,5,5,0.7,0.6
2025-08-25T2100,4308A,107.3898,34.3601,宝鸡市,陈仓区北开路21号,颗粒物(PM10),53,56,38,28,19,121,,126,126,10,14,6,6,0.6,0.5
2025-08-25T2100,1051A,115.493,38.8632,保定市,游泳馆,,34,34,28,18,14,74,,137,125,28,17,9,10,0.5,0.3
2025-08-25T2100,1052A,115.5213,38.8959,保定市,华电二区,,35,35,26,10,10,101,,150,142,10,18,2,3,0.7,0.5
2025-08-25T2100,1053A,115.4713,38.9108,保定市,接待中心,,33,33,25,13,12,81,,122,115,10,14,3,3,0.5,0.4
2025-08-25T2100,1054A,115.4612,38.8416,保定市,地表水厂,,46,46,36,13,11,73,,130,117,24,24,4,5,0.5,0.4
2025-08-25T2100,3581A,115.31981,38.95208,保定市,满城区生态环境分局,,44,44,24,14,7,89,,132,127,17,18,3,3,0.1,0
2025-08-25T2100,3582A,115.47694,38.76408,保定市,清苑区第二中学,,36,36,44,10,14,85,,118,111,7,18,4,5,0.4,0.4
2025-08-25T2100,3583A,115.62909,39.02311,保定市,徐水物探局,颗粒物(PM10),53,55,31,3,1,92,,142,135,24,27,2,2,0.4,0.3
2025-08-25T2100,4004A,115.4202,38.8656,保定市,双鹰农机,,36,36,30,21,15,78,,134,123,19,17,4,5,0.2,0.2
2025-08-25T2100,4034A,115.5150,38.8590,保定市,植保所站,,38,38,32,14,9,112,,158,148,13,22,3,2,0.3,0.3
2025-08-25T2100,2594A,99.1678,25.1081,保山市,市环境监测站,,20,16,13,14,14,23,,66,58,5,6,10,9,0.4,0.4
2025-08-25T2100,2595A,99.1711,25.1328,保山市,市环保局,,,,14,,11,,,36,,,5,,7,,0.4
2025-08-25T2100,1866A,109.2262,21.588,北海市,牛尾岭水库,,10,,6,3,4,30,,39,38,3,3,2,1,0.4,0.4
2025-08-25T2100,1867A,109.1436,21.4086,北海市,海滩公园,,19,19,12,3,2,39,,47,46,5,6,4,5,0.4,0.5
2025-08-25T2100,1868A,109.0981,21.4661,北海市,新市环保局,,,13,12,9,6,,,40,39,12,8,7,5,0.4,0.3
2025-08-25T2100,1869A,109.1778,21.5233,北海市,北海工业园,,15,,12,10,7,30,,40,39,10,7,6,5,0.4,0.4
2025-08-25T2100,3400A,109.1911,21.4415,北海市,龙潭自来水厂,,12,12,10,6,6,37,,44,43,5,6,4,3,0.4,0.4
2025-08-25T2100,1001A,116.3621,39.8784,北京市,万寿西宫,,33,26,21,13,14,104,,140,137,17,18,3,3,0.5,0.6
2025-08-25T2100,1002A,116.2202,40.2915,北京市,定陵,,19,17,16,6,8,58,,106,96,1,2,4,5,0.3,0.3
2025-08-25T2100,1003A,116.4174,39.9289,北京市,东四,,35,26,24,11,13,112,,144,141,16,20,3,3,0.5,0.6
2025-08-25T2100,1004A,116.4072,39.8863,北京市,天坛,,21,21,21,12,12,64,,131,117,16,20,3,3,0.5,0.5
2025-08-25T2100,1005A,116.462,39.9365,北京市,农展馆,,34,23,23,13,13,106,,142,139,18,22,3,3,0.7,0.6
2025-08-25T2100,1006A,116.3392,39.9295,北京市,官园,,35,23,23,15,13,110,,135,133,16,19,7,6,0.4,0.4
2025-08-25T2100,1007A,116.2878,39.9611,北京市,海淀万柳,,29,29,21,14,11,85,,117,113,17,18,3,3,0.4,0.4
2025-08-25T2100,1008A,116.6636,40.135,北京市,顺义新城,,,,,,,,,,,,,,,,
2025-08-25T2100,1009A,116.6275,40.3275,北京市,怀柔镇,,30,16,16,7,9,93,,100,100,12,9,3,2,0.5,0.6
2025-08-25T2100,1010A,116.2296,40.217,北京市,昌平镇,,21,13,18,8,9,67,,108,100,6,11,4,4,0.5,0.6
2025-08-25T2100,1011A,116.3966,39.9821,北京市,奥体中心,,32,21,22,10,12,102,,110,110,14,17,4,4,0.4,0.4
2025-08-25T2100,3281A,115.9718,40.4529,北京市,延庆夏都,,19,19,21,9,10,42,,98,86,12,13,3,4,0.5,0.4
2025-08-25T2100,3418A,116.8336,40.4095,北京市,密云新城,,28,10,15,3,8,89,,84,84,5,7,2,2,0.3,0.4
2025-08-25T2100,3671A,116.088,39.9726,北京市,门头沟三家店,,32,32,24,21,13,55,,116,106,12,12,3,3,0.5,0.5
2025-08-25T2100,3672A,116.1541,39.8204,北京市,丰台云岗,,38,38,23,21,12,51,,123,107,19,10,5,5,0.5,0.4
2025-08-25T2100,3673A,116.6804,39.9081,北京市,通州东关,,38,38,38,16,14,109,,141,139,18,26,2,4,0.6,0.6
2025-08-25T2100,3674A,115.9577,39.7603,北京市,房山燕山,,22,22,21,9,13,65,,105,91,8,9,1,2,0.3,0.4
2025-08-25T2100,3675A,116.4672,39.7733,北京市,大兴旧宫,,23,23,21,11,12,67,,138,125,17,16,2,2,0.6,0.6
2025-08-25T2100,3694A,115.986,40.4563,北京市,延庆石河营,,19,19,17,11,9,21,,84,69,9,10,1,1,0.4,0.4
2025-08-25T2100,3695A,116.6151,40.3053,北京市,怀柔新城,,30,13,17,7,10,93,,92,92,9,4,3,3,0.3,0.5
2025-08-25T2100,3696A,116.2545,39.8768,北京市,丰台小屯,,29,29,22,13,12,76,,122,114,19,12,2,2,0.6,0.6
2025-08-25T2100,3697A,116.84,40.3844,北京市,密云镇,,28,16,16,8,10,89,,91,91,10,11,4,4,0.4,0.6
2025-08-25T2100,4182A,116.1942,39.9158,北京市,八角北路9号,,41,41,27,16,13,79,,134,126,21,13,3,1,0.5,0.2
2025-08-25T2100,4194A,117.0790,40.1518,北京市,洳河巡河路,,26,26,20,16,10,49,,108,99,11,6,3,3,0.5,0.4
2025-08-25T2100,1761A,123.8275,41.3064,本溪市,大峪,,14,6,19,3,9,42,,41,40,13,21,5,5,0.6,0.9
2025-08-25T2100,1762A,123.7567,41.3325,本溪市,溪湖,,18,12,25,3,10,55,,44,44,10,15,12,11,0.9,1.1
2025-08-25T2100,1763A,123.7169,41.3094,本溪市,彩屯,,16,13,26,8,14,50,,26,26,12,25,8,8,0.7,1.3
2025-08-25T2100,1764A,123.7669,41.2864,本溪市,东明,,12,9,24,3,10,32,,34,33,21,22,5,5,1.2,1
2025-08-25T2100,1765A,123.7992,41.2664,本溪市,新立屯,,12,10,22,3,6,38,,40,40,12,13,4,4,1.2,1
2025-08-25T2100,1766A,123.8142,41.3472,本溪市,威宁,,10,,16,3,9,31,,29,29,15,14,13,9,0.5,0.8
2025-08-25T2100,2587A,105.2864,27.3125,毕节市,八中,细颗粒物(PM2.5),54,55,16,38,11,38,,58,56,13,6,6,5,0.6,0.4
2025-08-25T2100,2588A,105.31,27.2944,毕节市,师专,颗粒物(PM10),53,56,17,22,8,20,,59,53,35,9,6,6,0.4,0.4
2025-08-25T2100,4263A,105.3688,27.3598,毕节市,工业大道,,25,25,14,15,7,32,,63,59,21,9,8,7,0.6,0.5
2025-08-25T2100,1629A,118.0018,37.3617,滨州市,第二水厂,,28,24,27,14,21,89,,98,98,9,7,3,2,0.7,0.8
2025-08-25T2100,1630A,117.9776,37.393,滨州市,北中新校,,31,31,31,17,20,74,,96,96,15,11,3,3,0.9,0.9
2025-08-25T2100,3514A,117.9378,37.3956,滨州市,中海酒店,,31,31,27,14,19,64,,93,93,12,8,2,2,0.8,0.8
2025-08-25T2100,3515A,117.9378,37.3553,滨州市,开发区一中,,32,31,30,22,20,95,,109,109,12,12,4,5,0.3,0.5
2025-08-25T2100,3516A,118.0917,37.694,滨州市,金海六路,,45,39,23,31,26,107,,100,100,19,13,3,2,0.7,0.8
2025-08-25T2100,4028A,117.9956,37.3753,滨州市,滨州市西街道办事处,,28,22,20,19,22,88,,104,104,14,10,2,1,0.7,0.7
2025-08-25T2100,2311A,115.8072,33.8399,亳州市,污水处理厂,,23,,13,16,13,51,,67,66,11,7,5,3,0.6,0.5
2025-08-25T2100,2312A,115.7789,33.8518,亳州市,三国揽胜宫,,26,26,18,17,15,68,,75,75,8,5,3,3,0.7,0.8
2025-08-25T2100,3332A,115.7633,33.8034,亳州市,亳州学院,,19,14,15,12,15,60,,68,67,10,8,3,3,0.6,0.6
2025-08-25T2100,2693A,82.0485,44.8556,博尔塔拉蒙古自治州,市党校,,,20,18,10,15,100,,103,103,9,5,,2,0.1,0.2
2025-08-25T2100,2694A,82.0806,44.8969,博尔塔拉蒙古自治州,市环保局,,30,28,27,13,12,95,,103,103,7,6,6,3,0.3,0.3
2025-08-25T2100,1071A,116.8842,38.2991,沧州市,沧县城建局,,46,46,26,26,19,86,,139,134,38,11,2,3,0.5,0.4
2025-08-25T2100,1072A,116.8584,38.3254,沧州市,电视转播站,,,,45,19,19,,,123,123,22,15,2,3,0.4,0.5
2025-08-25T2100,1073A,116.8709,38.3228,沧州市,市环保局,,50,50,36,25,24,103,,132,131,19,12,5,5,0.4,0.5
2025-08-25T2100,3324A,116.8136,38.3004,沧州市,河北水利电力学院,,41,41,24,26,25,106,,145,142,28,12,3,4,0.4,0.5
2025-08-25T2100,2622A,97.1806,31.1273,昌都市,昌都监测站,,13,10,12,6,5,41,,47,46,4,4,5,5,0.2,0.3
2025-08-25T2100,3719A,97.1714,31.1406,昌都市,昌都会议中心,,12,12,10,7,5,37,,48,46,7,5,4,4,0.3,0.3
2025-08-25T2100,2690A,88.1236,43.8886,昌吉回族自治州,天山天池,,25,25,25,12,10,67,,83,83,10,9,12,11,0.5,0.5
2025-08-25T2100,2692A,87.2717,44.0297,昌吉回族自治州,新区政务中心,,30,26,25,3,6,96,,103,103,7,10,1,2,0.4,0.5
2025-08-25T2100,3613A,87.3095,44.0142,昌吉回族自治州,亚心广场,,30,27,31,12,10,93,,100,100,10,12,7,8,0.3,0.3
2025-08-25T2100,1120A,125.2863,43.9027,长春市,客车厂,,34,34,25,18,12,22,,85,61,43,28,4,4,0.4,0.4
2025-08-25T2100,1121A,125.2841,43.8463,长春市,邮电学院,,20,20,20,12,9,18,,75,55,24,15,5,5,0.6,0.5
2025-08-25T2100,1122A,125.3716,43.8772,长春市,劳动公园,,30,30,28,13,9,41,,81,65,22,22,7,8,0.5,0.5
2025-08-25T2100,1123A,125.3297,43.8805,长春市,园林处,,28,28,21,10,7,32,,82,65,28,19,4,5,0.7,0.6
2025-08-25T2100,1124A,125.4605,43.79,长春市,净月潭,,10,10,15,3,5,22,,65,47,5,6,4,4,0.3,0.3
2025-08-25T2100,1125A,125.7194,43.515,长春市,甩湾子,,,,,,,,,,,,,,,,
2025-08-25T2100,1126A,125.3863,43.8447,长春市,经开区环卫处,,22,22,26,10,7,24,,76,59,30,23,3,4,0.6,0.5
2025-08-25T2100,1127A,125.245,43.7783,长春市,高新区管委会,,13,,22,8,8,39,,81,67,15,18,2,3,0.5,0.5
2025-08-25T2100,1128A,125.1761,43.8325,长春市,岱山公园,,27,27,31,12,10,18,,80,59,43,37,3,4,0.4,0.4
2025-08-25T2100,4281A,125.3346,43.9164,长春市,北亚泰大街1068号,,46,46,33,20,13,17,,80,58,42,30,7,8,0.7,0.5
2025-08-25T2100,1335A,113.0833,28.2325,长沙市,经开区环保局,,23,23,20,12,10,32,,114,89,27,12,7,6,0.3,0.3
2025-08-25T2100,1336A,112.8872,28.2189,长沙市,高开区环保局,,27,27,27,13,12,56,,93,79,14,10,4,6,0.3,0.3
2025-08-25T2100,1337A,113.0792,28.2053,长沙市,马坡岭,,26,26,22,10,10,43,,127,97,17,10,4,5,0.5,0.5
2025-08-25T2100,1338A,112.9394,28.19,长沙市,湖南师范大学,,25,25,25,13,12,59,,104,87,17,13,3,5,0.2,0.2
2025-08-25T2100,1339A,113.0178,28.1322,长沙市,雨花区环保局,,24,24,26,11,10,52,,105,89,10,11,5,7,0.5,0.5
2025-08-25T2100,1340A,112.9792,28.2597,长沙市,伍家岭,,28,28,30,12,11,49,,98,84,15,15,3,3,0.2,0.2
2025-08-25T2100,1341A,113.0014,28.1944,长沙市,火车新站,,23,23,28,12,9,49,,102,86,16,12,6,7,0.4,0.4
2025-08-25T2100,1342A,112.9844,28.1178,长沙市,天心区环保局,,22,20,22,15,13,57,,106,89,11,10,3,5,0.4,0.5
2025-08-25T2100,1343A,112.8908,28.1308,长沙市,湖南中医药大学,,36,,27,25,15,56,,98,78,10,10,3,5,0.6,0.6
2025-08-25T2100,1344A,112.9581,28.3611,长沙市,沙坪,,23,23,20,13,9,53,,123,99,17,11,2,3,0.4,0.3
2025-08-25T2100,1727A,113.1147,36.1547,长治市,清华站,,30,27,31,7,17,96,,117,111,13,17,8,9,1.2,1.1
2025-08-25T2100,1730A,113.0886,36.2125,长治市,审计局,,31,26,26,9,16,99,,115,112,9,17,6,7,0.9,1.1
2025-08-25T2100,1731A,113.0844,36.1856,长治市,长治八中,,34,29,29,19,24,107,,120,117,12,13,9,10,1.0,1.2
2025-08-25T2100,2845A,113.1569,36.1911,长治市,德盛苑,,37,24,34,14,20,118,,118,118,4,11,8,9,1.0,1.3
2025-08-25T2100,3568A,113.06,36.0464,长治市,向阳小学,颗粒物(PM10),63,75,65,35,26,52,,100,90,16,12,3,5,0.9,1
2025-08-25T2100,3569A,112.8792,36.3144,长治市,屯留一中,细颗粒物(PM2.5),52,43,17,36,16,88,,108,104,26,16,10,10,0.7,0.5
2025-08-25T2100,4189A,113.1131,36.19948,长治市,英华南巷50号,,34,32,34,22,21,106,,121,117,15,17,8,10,0.9,1.1
2025-08-25T2100,4190A,113.2367,36.3344,长治市,学府街1号,,40,33,43,19,30,127,,120,120,6,14,2,4,1.1,1.2
2025-08-25T2100,1854A,111.6975,28.9703,常德市,市二中,,,29,16,25,10,53,,83,77,32,9,5,5,,0.3
2025-08-25T2100,1857A,111.7158,29.1456,常德市,白鹤山,,,,,,,,,,,,,,,,
2025-08-25T2100,3138A,111.7153,29.0289,常德市,武陵区永安,,50,,16,35,11,66,,86,83,11,3,7,5,0.5,0.5
2025-08-25T2100,3139A,111.6892,28.9881,常德市,鼎城区玉霞,,43,31,18,30,11,54,,81,74,17,7,5,4,0.5,0.3
2025-08-25T2100,3140A,111.6625,29.0531,常德市,武陵区长庚,,33,33,17,16,8,74,,75,75,6,4,5,5,0.3,0.2
2025-08-25T2100,1196A,119.9633,31.762,常州市,市监测站,,22,,23,15,18,63,,143,80,27,22,8,11,0.5,0.8
2025-08-25T2100,1200A,119.9468,31.7069,常州市,武进监测站,,34,34,33,13,17,66,,149,86,22,18,4,6,0.8,1.1
2025-08-25T2100,1201A,119.9255,31.9087,常州市,安家,,37,37,35,22,17,33,,154,90,38,28,9,11,0.9,0.9
2025-08-25T2100,3002A,119.9805,31.8174,常州市,行政中心,,29,29,36,14,17,48,,139,79,32,22,9,11,0.6,0.8
2025-08-25T2100,3003A,120.0522,31.7748,常州市,经开区,,35,35,43,14,17,49,,138,75,33,27,6,7,1.2,1
2025-08-25T2100,3010A,119.9025,31.7964,常州市,钟楼,,30,30,35,12,14,51,,128,83,36,22,6,8,0.6,0.6
2025-08-25T2100,3429A,119.8598,31.7066,常州市,武进经发区,,38,38,38,20,21,58,,146,78,21,19,7,10,0.9,1.1
2025-08-25T2100,3430A,119.5826,31.7245,常州市,金坛城区,,,31,26,14,15,,,137,99,14,15,6,9,0.6,0.5
2025-08-25T2100,2220A,120.4318,41.5881,朝阳市,西梁,,43,43,23,21,12,16,,91,77,51,16,9,6,0.7,0.6
2025-08-25T2100,2221A,120.4521,41.5646,朝阳市,河畔小区,,23,23,18,11,11,55,,95,88,14,8,8,7,0.6,0.6
2025-08-25T2100,2222A,120.4176,41.5648,朝阳市,八里堡,,48,48,26,20,13,36,,100,87,37,14,8,7,0.7,0.6
2025-08-25T2100,2223A,120.3806,41.5969,朝阳市,农业园区,,21,21,24,12,14,33,,89,76,18,13,10,10,0.5,0.5
2025-08-25T2100,1705A,116.6367,23.6719,潮州市,西园路,,39,39,27,23,16,63,,98,95,14,10,9,5,0.4,0.3
2025-08-25T2100,3026A,116.6183,23.6608,潮州市,市政府,颗粒物(PM10),51,51,30,24,14,72,,101,100,12,9,9,6,0.5,0.4
2025-08-25T2100,4036A,116.6461,23.6761,潮州市,金山,,23,23,26,16,15,60,,98,93,13,9,12,6,0.4,0.3
2025-08-25T2100,2472A,113.0073,25.9061,郴州市,马头岭,,33,33,25,9,9,20,,72,61,22,11,17,6,0.4,0.3
2025-08-25T2100,2473A,113.0116,25.8226,郴州市,市职中,,35,35,19,18,12,25,,60,50,16,11,5,4,0.4,0.3
2025-08-25T2100,2475A,113.0383,25.8071,郴州市,市审计局,,26,26,17,16,10,27,,65,56,19,9,9,6,0.3,0.3
2025-08-25T2100,2476A,113.0348,25.7759,郴州市,市环保局,,42,42,24,28,12,23,,58,48,25,16,2,3,0.3,0.3
2025-08-25T2100,4252A,113.0138,25.8011,郴州市,好美居路49号,,28,,19,19,12,32,,62,56,16,10,5,5,0.3,0.3
2025-08-25T2100,1431A,103.9728,30.7236,成都市,金泉两河,,24,24,20,11,7,42,,63,61,16,12,3,2,0.7,0.7
2025-08-25T2100,1432A,104.176,30.6872,成都市,十里店,,,32,21,17,9,,,79,79,20,12,3,2,0.5,0.6
2025-08-25T2100,1433A,104.079,30.5706,成都市,三瓦窑,,43,43,20,12,9,66,,91,88,19,14,2,2,0.5,0.4
2025-08-25T2100,1434A,104.1114,30.63,成都市,沙河铺,,40,40,24,3,9,52,,69,67,17,12,3,3,0.7,0.7
2025-08-25T2100,1437A,104.0786,30.6531,成都市,君平街,,32,32,26,13,12,62,,81,79,10,8,3,2,0.7,0.6
2025-08-25T2100,1438A,103.613,31.0283,成都市,灵岩寺,,,,,,,,,,,,,,,,
2025-08-25T2100,2880A,104.0239,30.65639,成都市,大石西路,细颗粒物(PM2.5),62,,26,44,16,44,,59,57,16,15,2,2,0.8,0.8
2025-08-25T2100,3136A,104.2725,30.5589,成都市,龙泉驿区区政府,,19,19,8,9,4,57,,84,83,17,9,5,4,0.6,0.5
2025-08-25T2100,3357A,104.0106,30.6931,成都市,金博路,,31,31,20,17,10,34,,59,55,20,14,4,5,0.7,0.7
2025-08-25T2100,3359A,104.0578,30.5225,成都市,华阳,,28,27,18,19,13,67,,86,85,20,14,3,2,0.9,0.8
2025-08-25T2100,3488A,104.3853,30.7453,成都市,青白江技师分院,,38,38,18,25,10,39,,71,69,20,10,1,4,0.7,0.7
2025-08-25T2100,3489A,104.0789,30.4072,成都市,科学城,,29,29,15,18,11,74,,80,80,15,7,4,3,0.6,0.5
2025-08-25T2100,4011A,103.8506,30.6947,成都市,光华大道三段,,31,31,25,14,12,55,,75,75,17,14,4,4,0.9,0.9
2025-08-25T2100,4224A,104.2433,30.5353,成都市,鲸龙路1057号,,31,31,17,20,11,58,,86,84,20,9,4,3,0.5,0.4
2025-08-25T2100,1062A,117.9531,40.9081,承德市,铁路,,24,22,26,6,9,75,,97,95,13,11,2,3,0.2,0.3
2025-08-25T2100,1063A,117.9392,40.9763,承德市,中国银行,,24,23,21,9,8,76,,102,99,8,8,1,2,0.2,0.3
2025-08-25T2100,1064A,117.9503,40.928,承德市,开发区,,32,32,31,16,13,92,,100,100,8,12,3,4,0.2,0.3
2025-08-25T2100,1066A,117.9268,41.0026,承德市,离宫,,29,,20,20,10,26,,86,73,4,6,1,1,0.2,0.3
2025-08-25T2100,4274A,117.7994,40.9605,承德市,滨河大街98号,,,10,28,10,13,71,,89,86,,8,2,4,0.3,0.5
2025-08-25T2100,2314A,117.47,30.6618,池州市,池州学院,,17,10,22,3,12,53,,113,90,6,11,5,6,0.4,0.6
2025-08-25T2100,3237A,117.4918,30.6617,池州市,展览馆,,15,10,22,6,12,48,,112,89,7,13,5,6,0.5,0.7
2025-08-25T2100,3333A,117.5627,30.695,池州市,第八中学,,18,18,22,8,11,44,,111,86,8,8,5,6,0.3,0.3
2025-08-25T2100,3334A,117.5038,30.6243,池州市,第十二中学,,,12,22,3,13,45,,,,,24,2,4,1.0,1
2025-08-25T2100,1744A,118.9233,42.2816,赤峰市,松山一中,,29,29,24,8,9,82,,105,97,20,23,5,7,0.6,0.7
2025-08-25T2100,1745A,118.9576,42.2728,赤峰市,哈达街,,28,28,25,3,11,89,,108,98,15,19,11,14,0.5,0.6
2025-08-25T2100,1746A,118.8788,42.2554,赤峰市,天义路,,,11,13,11,13,,,112,106,19,19,8,17,0.5,0.3
2025-08-25T2100,3058A,119.2658,42.0353,赤峰市,银河街,,29,29,23,17,14,68,,93,84,11,13,5,13,0.5,0.6
2025-08-25T2100,3286A,118.9359,42.3147,赤峰市,桥北物流园区,,32,32,25,14,13,63,,97,87,24,16,8,9,0.6,0.7
2025-08-25T2100,2521A,107.3476,22.4136,崇左市,市环保局江州分局,,14,10,22,6,9,42,,48,48,5,8,10,7,0.5,0.5
2025-08-25T2100,4256A,107.3750,22.3736,崇左市,石景林东路7号,,15,14,19,10,11,46,,52,52,7,10,6,4,0.4,0.5
2025-08-25T2100,2298A,118.3093,32.3153,滁州市,老年大学,,25,13,21,3,7,80,,142,118,3,8,7,11,0.2,0.3
2025-08-25T2100,2299A,118.3244,32.2786,滁州市,人大宾馆,,26,6,13,3,13,82,,144,119,1,5,4,6,0.3,0.4
2025-08-25T2100,3207A,118.3118,32.3038,滁州市,市政府原办公楼,,25,,17,13,17,77,,137,114,1,6,5,8,0.3,0.4
2025-08-25T2100,3331A,118.3267,32.2634,滁州市,图书馆,,,20,16,,15,85,,144,121,2,6,9,11,0.2,0.3
2025-08-25T2100,2605A,101.5482,25.0441,楚雄彝族自治州,州环境监测站,,33,33,13,16,10,46,,57,57,20,13,7,6,0.5,0.4
2025-08-25T2100,2606A,101.538,25.0492,楚雄彝族自治州,市经济开发区,,43,,14,30,10,39,,58,58,31,13,10,8,0.7,0.5
2025-08-25T2100,2548A,107.5277,31.2827,达州市,达州职业技术学院,,44,44,30,7,8,23,,82,70,39,14,7,9,0.5,0.4
2025-08-25T2100,2549A,107.5086,31.2186,达州市,市环境监测站,,,34,23,12,4,,,72,66,,19,,9,,0.4
2025-08-25T2100,2550A,107.4988,31.2132,达州市,凤凰小区,,29,29,20,19,7,24,,74,67,46,17,2,3,0.5,0.3
2025-08-25T2100,2551A,107.5082,31.1986,达州市,达县机关宾馆,,44,44,20,14,6,7,,75,61,63,22,5,7,0.5,0.3
2025-08-25T2100,2552A,107.4644,31.2124,达州市,市政中心,,41,41,27,19,4,29,,78,69,43,14,4,6,0.4,0.3
2025-08-25T2100,2614A,100.1542,25.7054,大理白族自治州,大理市环境监测站,,32,23,11,22,14,28,,45,40,14,11,4,4,0.5,0.5
2025-08-25T2100,2615A,100.2171,25.5811,大理白族自治州,大理古城,,23,23,15,13,6,37,,44,42,10,8,6,5,0.6,0.7
2025-08-25T2100,1109A,121.612,38.9741,大连市,甘井子,,24,15,16,7,13,76,,96,92,11,16,7,7,0.2,0.3
2025-08-25T2100,1110A,121.565,38.9511,大连市,周水子,,24,11,22,7,17,75,,96,91,13,15,8,8,0.4,0.3
2025-08-25T2100,1111A,121.5637,38.8845,大连市,星海三站,,25,17,23,10,15,79,,96,91,10,12,3,4,0.4,0.4
2025-08-25T2100,1112A,121.6302,38.9117,大连市,青泥洼桥,,24,20,20,11,16,74,,97,92,10,10,6,6,0.5,0.4
2025-08-25T2100,1113A,121.6251,38.8638,大连市,傅家庄,,26,14,18,9,12,81,,96,90,11,8,9,9,0.5,0.4
2025-08-25T2100,1114A,121.5213,38.8661,大连市,七贤岭,,27,16,21,9,15,86,,106,100,5,6,5,6,0.6,0.6
2025-08-25T2100,1115A,121.2529,38.8061,大连市,旅顺,,25,7,22,7,16,79,,85,83,6,6,7,6,0.4,0.4
2025-08-25T2100,1116A,121.7485,39.1311,大连市,金州,,21,13,15,8,13,66,,102,99,13,11,4,4,0.4,0.3
2025-08-25T2100,1117A,121.7811,39.0496,大连市,开发区,,23,16,21,11,13,72,,94,93,12,18,5,6,0.2,0.1
2025-08-25T2100,1118A,121.9762,39.0631,大连市,双D港,,23,23,13,7,7,63,,96,82,9,4,7,7,0.4,0.4
2025-08-25T2100,1789A,124.81117,46.03138,大庆市,大同区,,16,,21,11,8,37,,77,62,11,13,9,9,0.6,0.6
2025-08-25T2100,1790A,125.129,46.533,大庆市,龙凤区,,21,21,23,7,8,42,,60,53,14,15,7,7,0.5,0.5
2025-08-25T2100,1791A,124.902,46.408,大庆市,红岗区,,29,24,24,20,13,32,,74,58,20,14,6,8,0.6,0.5
2025-08-25T2100,1792A,125.153,46.586,大庆市,萨尔图区,,16,16,20,3,6,45,,57,52,9,10,7,7,0.5,0.5
2025-08-25T2100,1793A,124.9042,46.6215,大庆市,让胡路区,,25,25,24,11,11,48,,63,54,6,12,5,5,0.3,0.3
2025-08-25T2100,3481A,125.141,46.634,大庆市,萨区政府监测点,,21,21,20,3,3,48,,63,56,7,8,7,7,0.3,0.3
2025-08-25T2100,1721A,113.3819,40.1097,大同市,果树场,,,,35,,15,,,52,,,21,,12,,0.6
2025-08-25T2100,1723A,113.2994,40.0758,大同市,云冈宾馆,颗粒物(PM10),66,82,54,35,21,61,,133,126,52,28,9,10,1.2,1.2
2025-08-25T2100,1724A,113.3444,40.0917,大同市,大同大学,,,57,43,22,17,,,134,134,71,30,6,13,0.8,0.8
2025-08-25T2100,1725A,113.2661,40.1269,大同市,安家小村,颗粒物(PM10),57,63,57,11,15,88,,136,128,24,24,4,8,0.7,1.2
2025-08-25T2100,1726A,113.2711,40.0844,大同市,教育学院,颗粒物(PM10),55,59,59,33,23,90,,137,133,35,28,12,15,0.9,0.9
2025-08-25T2100,3282A,113.3397,40.0597,大同市,大同市卫生学校,颗粒物(PM10),54,57,43,26,19,76,,126,121,40,27,8,10,0.6,0.6
2025-08-25T2100,3565A,113.1367,40.1122,大同市,云冈站,,40,40,45,13,20,55,,122,114,20,17,10,9,0.4,0.4
2025-08-25T2100,3566A,113.1186,40.2556,大同市,图书馆,,44,44,29,21,14,40,,131,111,6,8,2,4,0.7,0.8
2025-08-25T2100,3567A,113.5931,40.0461,大同市,区一中,,37,37,33,17,14,81,,133,123,8,11,12,14,0.6,0.5
2025-08-25T2100,4199A,113.2798,40.0997,大同市,魏都大道141号,,49,48,53,34,23,83,,138,133,34,28,7,7,0.7,1.1
2025-08-25T2100,2269A,124.1069,50.4097,大兴安岭地区,科技局,,49,49,23,13,8,12,,42,36,6,4,8,6,0.4,0.3
2025-08-25T2100,3663A,124.1164,50.4278,大兴安岭地区,红旗社区,,22,22,8,3,3,9,,34,30,4,2,5,5,0.3,0.3
2025-08-25T2100,1600A,124.3303,40.0625,丹东市,江湾东路,,20,17,17,14,12,48,,78,65,19,12,4,4,1.0,0.7
2025-08-25T2100,1601A,124.4256,40.1503,丹东市,临江后街,,17,12,16,10,8,54,,76,68,12,9,6,6,0.8,0.7
2025-08-25T2100,1602A,124.3933,40.1461,丹东市,元宝山,,14,12,14,7,8,43,,65,55,10,10,1,1,0.5,0.5
2025-08-25T2100,1603A,124.3633,40.1092,丹东市,民主桥,,16,16,17,10,10,51,,70,61,18,13,6,5,0.6,0.6
2025-08-25T2100,3541A,109.5726,19.5167,儋州市,第一中学子站,,16,16,11,6,2,34,,35,33,1,2,5,4,0.8,0.8
2025-08-25T2100,3542A,109.5567,19.5187,儋州市,东坡学校子站,,22,22,10,7,5,34,,33,33,2,4,7,7,0.5,0.5
2025-08-25T2100,2616A,98.5842,24.428,德宏傣族景颇族自治州,德宏州监测站,,30,30,21,16,10,28,,64,60,21,8,6,6,0.8,0.6
2025-08-25T2100,3677A,98.5881,24.4368,德宏傣族景颇族自治州,芒市人民政府综合楼,,46,46,27,12,9,33,,60,57,11,7,7,7,0.4,0.5
2025-08-25T2100,1901A,104.4239,31.1208,德阳市,东山公园,,18,,8,12,9,42,,58,57,9,5,3,3,0.8,0.8
2025-08-25T2100,1902A,104.3826,31.1317,德阳市,西小区,,25,25,12,17,10,45,,63,62,17,10,1,1,0.7,0.6
2025-08-25T2100,1904A,104.3553,31.1091,德阳市,耐火材料厂,,23,23,16,14,10,36,,57,55,14,11,2,1,0.6,0.6
2025-08-25T2100,3639A,104.4019,31.1244,德阳市,市教育局,,25,25,16,16,10,44,,62,61,12,5,8,7,0.8,0.8
2025-08-25T2100,1622A,116.3032,37.4674,德州市,儿童乐园,,32,24,23,19,16,101,,129,125,17,10,8,8,0.7,0.6
2025-08-25T2100,1624A,116.2991,37.4451,德州市,监理站,,35,29,19,9,10,111,,132,130,12,9,9,9,0.7,0.6
2025-08-25T2100,3066A,116.2721,37.4379,德州市,九衢泉纯净水厂,,35,29,22,14,16,109,,126,125,11,11,5,6,1.0,0.9
2025-08-25T2100,3371A,116.3728,37.4403,德州市,开发区人民医院,,27,27,22,17,13,86,,126,119,23,9,10,11,1.2,1
2025-08-25T2100,3511A,116.5652,37.3319,德州市,陵城艺术中心,,41,41,32,22,13,99,,136,127,18,15,10,13,0.7,0.8
2025-08-25T2100,4292A,116.3525,37.4209,德州市,新河东路,,34,34,22,19,13,86,,132,126,40,18,9,10,1.0,0.8
2025-08-25T2100,2621A,99.7056,27.8317,迪庆藏族自治州,迪庆州站,,16,16,13,10,10,39,,35,34,6,6,6,6,0.5,0.5
2025-08-25T2100,3180A,99.7136,27.8094,迪庆藏族自治州,质量技术监督局,,16,16,16,11,9,38,,38,37,12,9,8,8,0.5,0.5
2025-08-25T2100,4257A,104.6092,35.5962,定西市,将台街,,29,29,24,12,15,67,,76,75,9,18,7,8,0.4,0.4
2025-08-25T2100,4309A,104.6159,35.5701,定西市,正龙路62号,,25,25,25,15,15,62,,68,68,6,11,5,4,0.3,0.2
2025-08-25T2100,1389A,113.7547,23.0494,东莞市,莞城梨川,,,23,20,13,12,20,,74,52,,11,6,6,0.3,0.3
2025-08-25T2100,1390A,113.7944,23.0128,东莞市,东城石井,,21,21,23,8,10,16,,74,48,21,16,4,4,0.7,0.7
2025-08-25T2100,1391A,113.7383,22.9658,东莞市,南城西平,,22,22,20,3,7,17,,66,40,26,20,7,7,0.5,0.5
2025-08-25T2100,3319A,113.7338,23.0381,东莞市,万江金泰,,23,23,20,8,6,18,,71,48,23,14,6,6,0.6,0.5
2025-08-25T2100,3626A,113.7533,23.0202,东莞市,南城元岭,,20,20,20,9,9,21,,72,46,22,16,6,7,0.3,0.3
2025-08-25T2100,3627A,113.7875,23.0457,东莞市,东城主山,,20,20,23,9,9,17,,73,48,20,16,5,6,0.4,0.4
2025-08-25T2100,1666A,118.6614,37.4309,东营市,市环保局,,36,36,29,22,21,92,,84,84,13,18,7,6,0.7,0.7
2025-08-25T2100,3036A,118.6904,37.4338,东营市,开发区管委会,,31,28,37,14,21,97,,88,88,10,18,6,6,0.6,0.8
2025-08-25T2100,3365A,118.5719,37.565,东营市,垦利区民丰路,,25,24,33,17,24,79,,84,84,15,16,8,9,1.2,1.3
2025-08-25T2100,3498A,118.5055,37.8612,东营市,河口城区,,31,14,24,3,13,98,,108,108,13,16,4,4,1.0,1.3
2025-08-25T2100,3646A,118.4978,37.4623,东营市,胜利站,,36,36,32,24,19,91,,89,89,17,18,3,3,1.2,1
2025-08-25T2100,3734A,118.35,37.26,东营市,理想之城,,42,,30,29,23,71,,73,73,20,13,14,14,0.8,0.8
2025-08-25T2100,1591A,110.0023,39.8129,鄂尔多斯市,综合楼,,44,44,40,12,15,100,,132,128,27,32,8,9,0.5,0.6
2025-08-25T2100,1592A,109.9486,39.8261,鄂尔多斯市,巴音孟克林场办事处,颗粒物(PM10),68,85,48,17,14,65,,143,131,54,34,5,6,0.7,0.8
2025-08-25T2100,1593A,109.7736,39.5986,鄂尔多斯市,康泽苑,颗粒物(PM10),60,70,38,19,12,86,,139,131,30,14,5,5,0.4,0.4
2025-08-25T2100,1594A,109.8119,39.5989,鄂尔多斯市,华泰汽车城,颗粒物(PM10),67,83,37,22,16,22,,127,105,67,26,8,9,0.7,0.6
2025-08-25T2100,1595A,109.9734,39.7884,鄂尔多斯市,奥林花园,颗粒物(PM10),59,68,44,19,15,67,,130,120,38,34,6,6,0.6,0.7
2025-08-25T2100,2436A,114.8938,30.3994,鄂州市,市政府,,33,33,40,16,12,67,,107,82,15,26,7,11,0.5,0.7
2025-08-25T2100,2437A,114.8989,30.3714,鄂州市,赵家坝,,39,39,46,9,11,78,,114,88,10,16,8,11,0.6,0.8
2025-08-25T2100,3654A,114.8094,30.4089,鄂州市,精准医疗中心,,37,37,29,14,11,70,,120,85,18,18,14,9,1.1,0.8
2025-08-25T2100,2454A,109.4978,30.2981,恩施土家族苗族自治州,湖北民院,,29,22,16,20,12,42,,71,64,10,6,7,6,0.3,0.1
2025-08-25T2100,2455A,109.4707,30.2798,恩施土家族苗族自治州,州电力总公司,,39,31,15,27,7,21,,66,55,17,7,5,5,0.2,0.1
2025-08-25T2100,3549A,109.5061,30.3772,恩施土家族苗族自治州,龙凤新区,,23,21,17,16,9,40,,86,72,10,5,5,5,0.4,0.3
2025-08-25T2100,2499A,108.3411,21.6158,防城港市,沙万,,21,21,19,14,11,15,,34,27,22,15,10,6,1.3,0.7
2025-08-25T2100,2500A,108.3514,21.7731,防城港市,防城档案局,,18,18,17,9,8,22,,36,32,14,10,2,3,0.3,0.4
2025-08-25T2100,2501A,108.3506,21.6414,防城港市,大海花园,,19,,18,13,12,20,,34,30,15,15,9,10,1.0,1
2025-08-25T2100,1371A,113.1294,23.0067,佛山市,湾梁,,35,,21,24,14,15,,74,53,39,28,7,7,0.5,0.5
2025-08-25T2100,1372A,113.1083,23.0478,佛山市,华材职中,,27,27,19,9,6,17,,76,54,33,16,3,4,0.6,0.5
2025-08-25T2100,1373A,113.144,23.0453,佛山市,南海气象局,,36,36,24,11,9,6,,74,48,42,19,5,5,0.5,0.5
2025-08-25T2100,1374A,113.2881,22.8094,佛山市,顺德苏岗,,24,24,23,7,6,19,,59,49,25,18,6,6,0.3,0.6
2025-08-25T2100,1376A,112.8383,22.8678,佛山市,高明孔堂,,28,28,20,8,7,15,,80,64,43,19,8,7,0.5,0.4
2025-08-25T2100,1377A,112.8836,23.1588,佛山市,三水监测站,,,80,24,10,11,0,,73,50,78,24,,12,0.7,0.6
2025-08-25T2100,1378A,112.867,23.185,佛山市,三水云东海,,46,46,32,21,12,0,,77,50,59,23,3,2,0.7,0.6
2025-08-25T2100,3625A,113.2544,22.7642,佛山市,容桂街道办,,14,14,12,3,8,27,,59,50,20,18,6,6,0.6,0.6
2025-08-25T2100,1280A,119.3903,26.0543,福州市,鼓山,,,,,,,,,,,,,,,,
2025-08-25T2100,1282A,119.2681,26.0504,福州市,师大,,,,16,0,5,17,,63,49,6,6,5,5,0.1,0.2
2025-08-25T2100,1283A,119.2984,26.1028,福州市,五四北路,,,6,15,3,3,,,53,47,6,7,4,4,0.1,0.2
2025-08-25T2100,1284A,119.2648,26.0768,福州市,杨桥西路,,8,7,14,3,4,24,,62,51,6,6,3,4,0.1,0.2
2025-08-25T2100,1285A,119.317,26.0746,福州市,紫阳,,9,9,15,3,4,20,,52,44,5,4,4,5,0.1,0.2
2025-08-25T2100,3048A,119.5799,26.0936,福州市,九龙,,12,10,12,3,2,38,,45,44,4,5,4,5,0.1,0.2
2025-08-25T2100,3526A,119.5189,25.9664,福州市,吴航,,11,6,8,3,4,35,,42,41,3,3,6,7,0.2,0.2
2025-08-25T2100,1755A,123.7977,41.8491,抚顺市,望花区,,19,8,11,3,7,60,,44,44,9,16,6,6,0.5,0.6
2025-08-25T2100,1756A,123.9161,41.8822,抚顺市,顺城区,,15,9,10,6,7,45,,39,39,15,16,4,4,0.7,0.7
2025-08-25T2100,1757A,124.0436,41.8611,抚顺市,东洲区,,15,6,10,3,6,46,,36,36,8,11,6,5,0.6,0.6
2025-08-25T2100,1758A,123.9247,41.8642,抚顺市,新抚区,,11,8,11,3,5,35,,34,34,12,15,5,5,0.7,0.8
2025-08-25T2100,1759A,124.0972,41.8961,抚顺市,大伙房水库,,14,6,8,3,5,42,,37,37,10,10,7,7,0.6,0.6
2025-08-25T2100,1760A,123.7086,41.8391,抚顺市,沈抚新城,,21,21,9,3,4,59,,45,45,10,14,4,4,0.5,0.6
2025-08-25T2100,2376A,116.2127,28.0814,抚州市,桐源党溪,,28,28,20,19,9,27,,84,70,15,4,5,5,0.4,0.8
2025-08-25T2100,2377A,116.3544,27.9831,抚州市,市站,,37,37,21,17,8,74,,100,96,10,5,1,2,0.3,0.2
2025-08-25T2100,2378A,116.3565,27.963,抚州市,血防站,,32,32,20,16,9,73,,95,92,12,7,3,3,0.4,0.3
2025-08-25T2100,2379A,116.3564,28.0007,抚州市,采茶剧团,,40,40,21,19,11,66,,97,93,9,4,5,5,0.6,0.6
2025-08-25T2100,2380A,116.385,27.9647,抚州市,医学分院,,48,48,26,14,9,70,,99,92,11,8,3,5,0.3,0.3
2025-08-25T2100,2207A,121.6094,41.998,阜新市,工业园区,,49,49,23,20,11,5,,91,79,56,17,7,8,0.6,0.6
2025-08-25T2100,2208A,121.6697,42.0279,阜新市,长青街,,27,27,17,17,9,29,,76,70,23,12,4,5,0.6,0.5
2025-08-25T2100,2209A,121.6673,42.0705,阜新市,农业园区,细颗粒物(PM2.5),58,,17,41,5,62,,81,74,6,9,6,4,2.0,1
2025-08-25T2100,2210A,121.6717,42.0224,阜新市,东苑,,42,42,22,10,4,35,,83,75,33,17,8,10,0.7,0.5
2025-08-25T2100,2211A,121.6506,42.0498,阜新市,玉龙新城,,42,42,21,13,9,7,,81,66,43,17,7,7,0.6,1
2025-08-25T2100,2301A,115.8277,32.8929,阜阳市,市监测站,,31,31,25,12,13,69,,98,94,8,16,4,4,0.1,0.1
2025-08-25T2100,2303A,115.8554,32.8605,阜阳市,开发区,,21,15,19,3,11,67,,90,87,5,12,6,6,0.3,0.3
2025-08-25T2100,2875A,115.784,32.8892,阜阳市,阜阳职业技术学院,,28,28,20,6,11,79,,110,105,6,11,5,5,0.3,0.3
2025-08-25T2100,3468A,115.7901,32.8613,阜阳市,市规划展馆,,21,18,28,8,17,67,,106,101,4,11,2,2,0.4,0.5
2025-08-25T2100,3469A,115.836,32.9183,阜阳市,枣园社区,,26,26,27,7,16,70,,97,92,8,12,2,2,0.4,0.4
2025-08-25T2100,2669A,102.9099,34.9841,甘南藏族自治州,州政府,,22,15,22,15,16,51,,69,65,5,8,5,4,0.2,0.3
2025-08-25T2100,3380A,102.8914,34.9617,甘南藏族自治州,甘肃民族师范学院,,42,42,34,11,17,54,,79,73,6,13,5,4,0.1,0.2
2025-08-25T2100,2570A,101.9603,30.0475,甘孜藏族自治州,水桥子,,14,6,6,3,4,42,,68,63,14,10,6,6,0.4,0.4
2025-08-25T2100,3065A,101.9533,29.9972,甘孜藏族自治州,州环保局,,18,13,12,3,5,55,,73,68,8,11,4,4,0.3,0.3
2025-08-25T2100,3414A,115.8347,28.932,赣江新区,桑海产业园,,22,22,25,7,12,40,,130,96,30,16,4,6,0.3,0.3
2025-08-25T2100,2362A,114.9017,25.9149,赣州市,通天岩,,28,25,16,19,8,34,,69,62,4,3,18,17,1.2,1
2025-08-25T2100,2363A,114.9367,25.8664,赣州市,地委,,,23,17,12,8,,,102,101,12,8,5,6,0.7,0.7
2025-08-25T2100,2364A,114.9461,25.8481,赣州市,气象台,,28,28,18,9,5,55,,106,96,8,6,9,10,0.5,0.5
2025-08-25T2100,2365A,114.9322,25.8333,赣州市,市图书馆,,22,21,15,15,9,53,,103,95,10,7,4,5,0.5,0.4
2025-08-25T2100,2366A,114.8905,25.8471,赣州市,华坚鞋城,,36,,18,25,9,55,,87,86,13,10,5,5,0.4,0.4
2025-08-25T2100,3109A,115.0093,25.8613,赣州市,赣县区卫计委,,22,19,17,15,9,45,,107,95,10,5,6,6,0.5,0.5
2025-08-25T2100,2683A,106.2319,36.1417,固原市,马园,,,,,,,,,,,,,,,,
2025-08-25T2100,2684A,106.2792,36.0022,固原市,监测站,,22,8,32,3,5,70,,92,85,7,6,6,6,0.2,0.2
2025-08-25T2100,2685A,106.2375,36.0211,固原市,新区,,20,,15,8,10,63,,78,74,9,9,7,8,0.3,0.3
2025-08-25T2100,3522A,106.2177,35.9959,固原市,原州区十五小,,16,6,14,3,10,51,,78,70,15,10,9,9,0.4,0.4
2025-08-25T2100,2543A,106.6308,30.5278,广安市,小平旧居,,,,,,,,,,,,,,,,
2025-08-25T2100,2544A,106.6303,30.4576,广安市,市委,,38,27,23,26,17,92,,110,108,13,9,4,3,0.3,0.2
2025-08-25T2100,2545A,106.6271,30.4663,广安市,友谊中学,,33,28,20,19,14,104,,121,119,12,9,6,6,0.8,0.7
2025-08-25T2100,2547A,106.6388,30.4551,广安市,广电花园,,28,20,28,12,15,89,,107,104,12,9,4,4,0.7,0.7
2025-08-25T2100,2902A,106.6351,30.4865,广安市,北辰小学,,32,32,22,19,14,101,,118,116,8,6,15,15,0.5,0.4
2025-08-25T2100,2523A,105.8945,32.4535,广元市,黑石坡,,29,29,18,20,11,48,,60,60,4,6,2,3,0.2,0.3
2025-08-25T2100,2524A,105.821,32.4444,广元市,老城,,17,12,12,8,7,20,,76,70,34,17,4,4,0.8,0.8
2025-08-25T2100,2526A,105.8628,32.4287,广元市,监测站,,,11,16,3,7,,,68,68,18,12,11,9,0.8,0.9
2025-08-25T2100,3617A,105.8047,32.4166,广元市,经开区,,20,20,16,11,11,20,,66,60,23,16,5,6,0.7,0.7
2025-08-25T2100,1345A,113.2347,23.1423,广州市,广雅中学,,48,48,30,23,12,11,,75,51,54,29,3,3,0.6,0.4
2025-08-25T2100,1346A,113.2612,23.105,广州市,市五中,,36,36,25,17,12,11,,87,62,46,22,5,6,0.3,0.2
2025-08-25T2100,1348A,113.3478,23.0916,广州市,广东商学院,,36,36,20,13,9,9,,76,42,62,32,4,5,0.1,0.1
2025-08-25T2100,1349A,113.4332,23.1047,广州市,市八十六中,,35,35,23,15,11,4,,62,28,52,34,4,4,0.3,0.3
2025-08-25T2100,1350A,113.3505,22.9483,广州市,番禺中学,,28,28,24,13,10,22,,75,55,29,17,6,7,0.5,0.5
2025-08-25T2100,1351A,113.2146,23.3916,广州市,花都师范,,38,38,28,12,10,11,,79,63,66,28,6,5,0.6,0.5
2025-08-25T2100,1352A,113.2597,23.1331,广州市,市监测站,,40,40,25,18,10,6,,77,53,57,26,5,6,0.5,0.4
2025-08-25T2100,1353A,113.5618,23.312,广州市,九龙镇镇龙,,46,46,22,22,10,17,,70,56,33,16,7,7,0.5,0.4
2025-08-25T2100,1354A,113.2765,23.1544,广州市,麓湖,,33,33,24,18,11,2,,69,42,43,26,2,2,0.5,0.3
2025-08-25T2100,1355A,113.443,23.3035,广州市,帽峰山森林公园,,11,10,12,3,5,34,,73,62,16,10,5,6,0.4,0.4
2025-08-25T2100,2846A,113.3221,23.1322,广州市,体育西,,43,43,31,28,16,8,,80,54,57,28,3,3,0.5,0.4
2025-08-25T2100,3298A,113.5717,23.5491,广州市,从化街口,,33,33,22,12,10,33,,73,69,30,13,8,7,0.7,0.6
2025-08-25T2100,3299A,113.3472,23.3692,广州市,白云竹料,,27,27,21,14,10,22,,66,52,32,18,5,4,0.6,0.5
2025-08-25T2100,3300A,113.2981,23.237,广州市,白云嘉禾,,32,32,22,15,11,1,,69,45,56,26,6,6,0.6,0.4
2025-08-25T2100,3301A,113.4256,23.1716,广州市,黄埔科学城,,,46,25,20,11,0,,66,37,,18,9,6,0.6,0.4
2025-08-25T2100,3302A,113.3942,23.0483,广州市,番禺大学城,,31,31,25,16,12,1,,75,40,54,26,10,11,0.6,0.4
2025-08-25T2100,3303A,113.4922,22.8168,广州市,南沙黄阁,,26,26,23,6,8,26,,73,52,28,17,4,4,0.4,0.4
2025-08-25T2100,3304A,113.5342,22.7896,广州市,南沙街,,21,21,20,6,7,21,,70,46,32,18,7,7,0.4,0.4
2025-08-25T2100,3443A,113.2902,23.5544,广州市,花都梯面,,31,31,18,14,8,13,,64,55,26,12,6,6,0.5,0.4
2025-08-25T2100,3445A,113.7858,23.7478,广州市,从化良口,,15,10,13,3,8,46,,50,50,12,6,4,4,0.4,0.4
2025-08-25T2100,3446A,113.8051,23.2614,广州市,增城荔城,,30,30,18,15,9,25,,74,64,21,9,8,8,0.4,0.4
2025-08-25T2100,2505A,109.568,23.1478,贵港市,德智高中,,,,,,,,,,,,,,,,
2025-08-25T2100,2506A,109.6047,23.0666,贵港市,江南子站,,,100,32,,20,13,,58,46,42,13,9,7,0.9,0.7
2025-08-25T2100,2508A,109.5669,23.1065,贵港市,荷城子站,,31,31,16,19,8,27,,62,52,29,9,3,3,0.9,0.5
2025-08-25T2100,3405A,109.5886,23.1172,贵港市,新世纪学校,,36,36,20,22,13,38,,63,56,22,10,1,2,0.9,0.6
2025-08-25T2100,4260A,109.5933,23.0951,贵港市,中山路155-3号,颗粒物(PM10),53,55,27,27,15,30,,69,54,24,13,7,5,1.0,0.6
2025-08-25T2100,1439A,106.6899,26.5998,贵阳市,马鞍山,,,12,14,,2,33,,65,56,8,9,3,3,0.2,0.2
2025-08-25T2100,1441A,106.6243,26.6266,贵阳市,鉴湖路,,36,36,25,3,3,36,,61,55,13,8,3,5,0.1,0.2
2025-08-25T2100,1442A,106.7487,26.6343,贵阳市,燕子冲,,18,14,12,12,13,20,,57,46,20,12,2,2,0.3,0.2
2025-08-25T2100,1443A,106.6555,26.4365,贵阳市,碧云窝,,29,29,28,9,8,37,,61,54,14,12,6,5,0.2,0.2
2025-08-25T2100,1445A,106.7109,26.6027,贵阳市,红边门,,24,24,19,12,9,30,,55,46,21,16,6,8,0.1,0.2
2025-08-25T2100,1446A,106.7164,26.5699,贵阳市,新华路,,17,17,16,3,10,34,,52,45,14,14,7,11,0.1,0.3
2025-08-25T2100,1447A,106.674,26.5424,贵阳市,太慈桥,,19,19,16,7,5,23,,59,51,26,12,6,5,0.2,0.1
2025-08-25T2100,1552A,106.805,26.3003,贵阳市,桐木岭,,24,24,26,9,13,35,,54,48,6,6,2,2,0.8,0.8
2025-08-25T2100,4230A,106.6882,26.5695,贵阳市,花果园大街66号,,20,,6,14,11,34,,54,49,15,9,3,4,0.2,0.4
2025-08-25T2100,4231A,106.6873,26.5169,贵阳市,漓江路57号,,19,19,16,12,7,32,,60,52,13,10,4,5,0.3,0.4
2025-08-25T2100,1862A,110.4144,25.3167,桂林市,电子科大尧山校区,,,,,,,,,,,,,,,,
2025-08-25T2100,1864A,110.3089,25.2708,桂林市,龙隐路小学,,30,30,24,13,11,40,,61,56,14,10,7,7,0.3,0.3
2025-08-25T2100,1865A,110.2869,25.2178,桂林市,八中,,15,15,24,7,12,28,,63,54,17,10,7,9,0.6,0.5
2025-08-25T2100,3531A,110.296,25.1253,桂林市,旅游学院,,25,17,16,17,11,34,,57,51,10,8,9,6,0.4,0.4
2025-08-25T2100,4222A,110.1835,25.2444,桂林市,环湖路276号,,24,24,31,9,18,39,,60,56,16,15,5,26,0.2,0.2
2025-08-25T2100,4301A,110.2803,25.2773,桂林市,信义路13号,,33,33,25,10,7,43,,69,64,22,11,14,10,0.6,0.5
2025-08-25T2100,2674A,100.2561,34.4714,果洛藏族自治州,玛沁县大武镇,,33,33,29,18,15,38,,77,64,8,5,13,12,0.4,0.4
2025-08-25T2100,1129A,126.5422,45.755,哈尔滨市,岭北,,,24,24,,,12,,12,12,23,26,11,12,0.7,0.8
2025-08-25T2100,1130A,126.561,45.8167,哈尔滨市,松北商大,,41,41,49,13,12,13,,72,61,57,30,6,7,0.5,0.5
2025-08-25T2100,1131A,126.979,45.5419,哈尔滨市,阿城会宁,,29,29,28,14,11,31,,67,59,13,17,8,8,0.4,0.5
2025-08-25T2100,1132A,126.599,45.7222,哈尔滨市,南岗学府路,,,37,41,,12,,,84,84,9,29,7,8,0.6,0.6
2025-08-25T2100,1133A,126.689,45.7733,哈尔滨市,太平宏伟公园,颗粒物(PM10),57,64,45,10,11,38,,74,68,29,29,8,8,0.5,0.6
2025-08-25T2100,1134A,126.635,45.7667,哈尔滨市,道外承德广场,,50,50,43,13,11,38,,72,67,25,26,6,7,1.0,1
2025-08-25T2100,1135A,126.685,45.7319,哈尔滨市,香坊红旗大街,,36,36,40,11,21,38,,75,71,31,32,8,19,0.6,0.3
2025-08-25T2100,1136A,126.6411,45.7258,哈尔滨市,动力和平路,,32,32,39,9,6,51,,82,78,19,27,6,7,0.6,0.6
2025-08-25T2100,1137A,126.593,45.7478,哈尔滨市,道里建国路,,30,30,32,11,11,59,,88,84,18,26,9,12,0.6,1.1
2025-08-25T2100,1138A,126.615,45.61,哈尔滨市,平房东轻厂,,47,47,35,14,10,6,,76,58,59,27,10,9,0.6,0.5
2025-08-25T2100,1139A,126.595,45.9855,哈尔滨市,呼兰师专,,47,47,38,20,9,57,,82,76,22,29,9,9,0.5,0.4
2025-08-25T2100,1140A,126.6206,45.6842,哈尔滨市,省农科院,,41,41,47,13,15,38,,75,68,25,32,8,11,0.7,0.7
2025-08-25T2100,2688A,93.5128,42.8172,哈密市,地区监测站,颗粒物(PM10),124,198,77,14,18,112,,99,99,6,15,3,4,0.3,0.4
2025-08-25T2100,2689A,93.4961,42.8328,哈密市,哈密师范学校,颗粒物(PM10),92,133,58,16,15,110,,97,97,10,20,4,4,0.0,0.1
2025-08-25T2100,2671A,100.9048,36.9639,海北藏族自治州,海晏县西海镇,,42,34,33,29,25,117,,131,130,6,5,4,7,0.5,0.5
2025-08-25T2100,3867A,102.0738,36.5056,海东市,平安区公安北苑,,39,39,40,25,26,98,,119,117,15,8,16,11,1.5,0.7
2025-08-25T2100,1409A,110.576,19.9507,海口市,东寨港,,12,11,13,8,6,38,,43,43,2,2,7,7,0.2,0.1
2025-08-25T2100,1410A,110.3232,20.0574,海口市,海南大学,,22,22,20,8,7,41,,44,44,2,2,2,2,0.3,0.3
2025-08-25T2100,1411A,110.283,20.0053,海口市,秀英海南医院,,,26,18,8,7,40,,42,42,5,3,5,5,,0.3
2025-08-25T2100,1412A,110.338,19.9969,海口市,海南师范大学,,22,22,18,8,7,41,,45,44,4,3,4,4,0.3,0.3
2025-08-25T2100,1413A,110.33,20.0356,海口市,龙华路环保局宿舍,,20,20,18,9,7,41,,45,44,3,3,5,5,0.3,0.3
2025-08-25T2100,3539A,110.5111,19.9736,海口市,桂林洋子站,,23,23,20,9,8,38,,44,44,4,2,4,3,0.2,0.2
2025-08-25T2100,2673A,100.6188,36.2866,海南藏族自治州,共和县恰卜恰镇,,42,42,32,21,16,103,,113,112,6,6,10,11,0.6,0.5
2025-08-25T2100,2676A,97.3731,37.3753,海西蒙古族藏族自治州,德令哈市,,31,25,26,18,17,97,,116,94,1,4,12,13,0.4,0.4
2025-08-25T2100,1048A,114.5302,36.6116,邯郸市,东污水处理厂,颗粒物(PM10),56,61,31,25,21,77,,157,137,36,14,7,7,0.4,0.4
2025-08-25T2100,1049A,114.4918,36.5713,邯郸市,矿院,,42,,27,29,25,80,,165,147,33,13,4,6,0.4,0.5
2025-08-25T2100,1050A,114.484,36.6133,邯郸市,丛台公园,,37,26,25,17,17,116,,170,155,18,14,6,9,0.4,0.5
2025-08-25T2100,3458A,114.7895,36.5593,邯郸市,香泉濮院小区,,,51,31,9,7,,,142,140,25,10,3,3,0.5,0.4
2025-08-25T2100,3579A,114.50634,36.77178,邯郸市,永年区实验高中,,40,40,32,21,13,90,,161,146,34,14,5,6,0.6,0.8
2025-08-25T2100,3580A,114.20016,36.44293,邯郸市,峰峰矿区临水派出所,细颗粒物(PM2.5),55,56,43,39,12,150,,159,159,11,8,6,9,1.0,0.9
2025-08-25T2100,2634A,106.9893,33.1842,汉中市,汉川机床厂子校,,28,28,12,7,5,28,,57,52,12,10,3,4,0.4,0.4
2025-08-25T2100,2635A,107.0154,33.0706,汉中市,市监测站,,17,17,12,10,7,43,,58,58,12,6,6,6,0.6,0.6
2025-08-25T2100,2636A,107.0089,33.1138,汉中市,鑫源开发区,,14,14,9,3,4,22,,55,52,18,7,6,6,0.5,0.5
2025-08-25T2100,2637A,107.007,33.0323,汉中市,南郑大河坎水厂,,18,18,12,9,6,28,,57,55,17,8,6,5,0.4,0.4
2025-08-25T2100,1223A,120.2072,30.2111,杭州市,滨江,,47,47,38,19,17,49,,130,83,34,25,8,7,0.5,0.4
2025-08-25T2100,1224A,120.0633,30.2747,杭州市,西溪,,26,26,27,17,19,39,,106,57,33,21,10,11,0.4,0.4
2025-08-25T2100,1226A,120.3417,30.3150,杭州市,下沙,,40,40,35,15,15,60,,134,80,42,25,6,7,0.3,0.3
2025-08-25T2100,1227A,120.1269,30.2456,杭州市,卧龙桥,,30,30,28,14,15,44,,121,68,21,19,8,8,0.5,0.5
2025-08-25T2100,1228A,120.1903,30.2692,杭州市,浙江农大,,37,37,23,18,14,47,,112,61,22,16,5,6,0.7,0.7
2025-08-25T2100,1230A,120.1197,30.3119,杭州市,和睦小学,,32,32,28,14,16,53,,118,62,27,21,5,6,0.5,0.5
2025-08-25T2100,1231A,120.3019,30.4183,杭州市,临平镇,,37,37,39,12,18,70,,144,78,22,20,6,6,0.3,0.4
2025-08-25T2100,1232A,120.2753,30.1839,杭州市,城厢镇,,41,41,36,15,18,62,,144,104,21,17,8,8,0.5,0.5
2025-08-25T2100,1233A,120.0883,30.1808,杭州市,云栖,,26,26,25,8,15,33,,136,83,40,29,10,10,0.7,0.7
2025-08-25T2100,3557A,119.9464,30.0494,杭州市,镇二中,,21,21,32,12,24,59,,116,84,13,25,4,5,0.6,0.7
2025-08-25T2100,3558A,119.7183,30.2367,杭州市,市府大楼,,19,19,21,13,13,43,,90,62,11,13,8,8,0.3,0.3
2025-08-25T2100,3656A,120.1556,30.2864,杭州市,消防大队,,41,41,36,19,21,56,,118,66,27,21,7,6,0.6,0.7
2025-08-25T2100,1270A,117.1959,31.7848,合肥市,明珠广场,,16,7,27,3,9,49,,125,84,18,22,6,7,0.5,0.5
2025-08-25T2100,1271A,117.3072,31.8764,合肥市,三里街,,15,12,23,3,8,47,,115,85,15,19,4,5,0.4,0.5
2025-08-25T2100,1272A,117.2588,31.8707,合肥市,琥珀山庄,,20,14,25,11,12,62,,143,95,10,15,7,8,0.4,0.5
2025-08-25T2100,1273A,117.1604,31.9052,合肥市,董铺水库,,16,7,22,7,8,49,,107,80,7,11,4,4,0.3,0.3
2025-08-25T2100,1274A,117.25,31.8571,合肥市,长江中路,,18,7,24,3,6,56,,120,86,12,16,7,8,0.4,0.4
2025-08-25T2100,1275A,117.266,31.9436,合肥市,庐阳区,,19,14,30,7,8,59,,118,94,11,19,5,6,0.4,0.4
2025-08-25T2100,1276A,117.3453,31.8616,合肥市,瑶海区,,,,27,,8,,,62,,,20,,6,,0.6
2025-08-25T2100,1277A,117.3027,31.7964,合肥市,包河区,,14,14,24,9,8,42,,117,75,22,27,10,11,0.5,0.5
2025-08-25T2100,1278A,117.2776,31.7385,合肥市,滨湖新区,,21,9,25,9,13,65,,130,84,5,13,4,5,0.4,0.5
2025-08-25T2100,1279A,117.1318,31.8403,合肥市,高新区,,19,14,27,3,8,60,,127,94,12,23,5,6,0.4,0.5
2025-08-25T2100,3464A,117.3803,31.9147,合肥市,高教基地,,19,,21,13,10,51,,115,82,8,11,4,5,0.3,0.4
2025-08-25T2100,3614A,79.924,37.0877,和田地区,地区环保局,颗粒物(PM10),106,161,142,47,40,98,,110,109,8,6,1,2,0.3,0.4
2025-08-25T2100,3615A,79.9131,37.113,和田地区,市环保局,颗粒物(PM10),107,163,132,38,42,80,,108,105,28,11,1,2,0.4,0.3
2025-08-25T2100,2516A,108.2011,24.715,河池市,东仁乐园,,,,,,,,,,,,,,,,
2025-08-25T2100,2517A,108.0497,24.6947,河池市,市环保站,,19,,24,9,9,58,,62,61,6,9,8,5,0.5,0.5
2025-08-25T2100,2518A,108.0983,24.6989,河池市,市疾控中心,,30,30,24,18,9,30,,62,57,22,12,7,6,0.7,0.6
2025-08-25T2100,1696A,114.6778,23.7569,河源市,源西,,11,7,16,3,6,34,,50,46,10,8,5,6,0.6,0.6
2025-08-25T2100,1697A,114.6944,23.7586,河源市,东埔,,13,7,13,6,7,41,,60,56,13,12,4,5,0.4,0.5
2025-08-25T2100,1698A,114.6892,23.7233,河源市,老城,,,,20,,10,,,65,64,14,10,4,5,0.5,0.6
2025-08-25T2100,1718A,115.4208,35.2464,菏泽市,气象局,,39,35,28,24,18,124,,140,140,12,8,4,4,0.5,0.4
2025-08-25T2100,3374A,115.5564,35.0891,菏泽市,定陶老年大学,,37,36,30,17,13,116,,135,134,11,9,6,5,0.6,0.5
2025-08-25T2100,4184A,115.4797,35.24401,菏泽市,永昌路1号,,38,35,28,22,18,120,,129,129,12,9,8,8,0.5,0.4
2025-08-25T2100,4193A,115.4715,35.2800,菏泽市,长城路999号,,37,31,26,19,12,118,,137,137,17,9,6,7,0.7,0.7
2025-08-25T2100,2514A,111.5264,24.4172,贺州市,环保小区,,20,20,19,7,13,34,,49,46,9,11,12,14,0.5,0.5
2025-08-25T2100,2515A,111.5608,24.4078,贺州市,政协大楼,,18,18,19,12,10,34,,47,42,8,10,4,6,0.5,0.5
2025-08-25T2100,3534A,111.4744,24.4553,贺州市,西湾,,22,,31,15,13,29,,53,47,16,13,11,10,0.4,0.3
2025-08-25T2100,2385A,114.17,35.9019,鹤壁市,市监测站,,46,44,33,32,22,76,,123,117,19,9,7,7,0.7,0.5
2025-08-25T2100,2386A,114.2956,35.7511,鹤壁市,市交警支队,,41,41,27,22,20,98,,116,114,18,14,6,7,1.0,0.5
2025-08-25T2100,2387A,114.2878,35.7306,鹤壁市,迎宾馆,,35,34,30,24,18,96,,111,110,18,12,5,5,0.8,0.7
2025-08-25T2100,3474A,114.2617,35.6822,鹤壁市,大新区,,35,35,30,22,18,69,,95,90,15,10,6,6,0.7,0.6
2025-08-25T2100,3596A,114.1572,35.9603,鹤壁市,南山宾馆,,45,41,33,31,22,102,,135,132,15,10,5,5,0.7,0.6
2025-08-25T2100,2244A,130.2537,47.3416,鹤岗市,哈啤分公司,,19,19,18,3,5,32,,50,46,3,4,11,11,0.4,0.4
2025-08-25T2100,2245A,130.2684,47.3086,鹤岗市,斯达机电,,35,35,18,17,8,23,,50,45,22,8,12,12,0.7,0.5
2025-08-25T2100,2246A,130.3114,47.3388,鹤岗市,东山纸板厂,颗粒物(PM10),51,51,26,14,11,6,,51,38,21,9,13,14,1.0,0.7
2025-08-25T2100,2247A,130.1097,47.3382,鹤岗市,五号水库,,8,8,7,3,5,22,,51,40,7,8,6,6,0.5,0.5
2025-08-25T2100,2263A,127.4833,50.2524,黑河市,交通局,颗粒物(PM10),51,51,27,7,6,14,,61,48,19,9,6,6,0.5,0.4
2025-08-25T2100,2264A,127.5144,50.2341,黑河市,环保局,,49,49,27,14,11,22,,60,51,24,11,5,5,0.7,0.6
2025-08-25T2100,2265A,127.5291,50.2472,黑河市,大黑河岛,,,,,12,6,18,,40,37,2,2,22,23,,0.3
2025-08-25T2100,1074A,115.6838,37.7541,衡水市,电机北厂,颗粒物(PM10),52,54,27,26,13,104,,130,127,19,9,4,3,0.5,0.4
2025-08-25T2100,1075A,115.6303,37.7316,衡水市,市监测站,,41,41,32,13,11,84,,129,124,19,7,5,6,0.6,0.5
2025-08-25T2100,3188A,115.6683,37.7217,衡水市,市城管局,,45,45,28,16,14,117,,130,128,9,6,8,8,0.5,0.4
2025-08-25T2100,3459A,115.5989,37.5491,衡水市,地表水厂,,41,41,29,17,12,36,,129,116,68,7,2,2,0.4,0.3
2025-08-25T2100,2456A,112.5003,26.9167,衡阳市,原169医院,,22,22,21,15,9,51,,97,85,4,4,2,3,0.6,0.5
2025-08-25T2100,2457A,112.6194,26.9258,衡阳市,衡阳化工总厂,,36,36,25,22,12,42,,91,76,12,10,4,5,0.8,0.7
2025-08-25T2100,2458A,112.6211,26.8956,衡阳市,珠晖区环保局,,24,24,22,12,10,47,,91,78,9,12,7,8,0.6,0.6
2025-08-25T2100,2459A,112.6197,26.8733,衡阳市,市委党校,,27,27,16,16,10,46,,83,72,8,9,10,10,0.4,0.4
2025-08-25T2100,2460A,112.6006,26.8919,衡阳市,市监测站,,23,,23,16,13,47,,88,77,9,11,5,6,0.5,0.6
2025-08-25T2100,2461A,112.5664,26.9056,衡阳市,真空机电公司,,22,17,25,15,11,48,,90,77,9,10,5,7,0.6,0.9
2025-08-25T2100,3399A,112.6703,26.882,衡阳市,师范学院,,32,,23,22,10,44,,80,70,10,8,9,9,0.6,0.5
2025-08-25T2100,2608A,103.3772,23.3993,红河哈尼族彝族自治州,污水处理厂,,36,31,26,25,21,36,,64,56,8,10,8,14,0.3,0.3
2025-08-25T2100,2609A,103.3861,23.35,红河哈尼族彝族自治州,监测站,,,32,36,16,16,,,66,60,5,6,9,22,0.1,0.2
2025-08-25T2100,3038A,103.3758,23.368,红河哈尼族彝族自治州,州图书馆,,32,,19,22,20,39,,65,58,5,7,2,14,0.3,0.3
2025-08-25T2100,1090A,111.6507,40.7517,呼和浩特市,呼市一监,,41,41,27,19,14,99,,128,126,15,16,1,3,0.4,0.6
2025-08-25T2100,1091A,111.6572,40.8033,呼和浩特市,小召,,22,19,21,12,13,68,,115,109,26,24,8,9,0.5,0.6
2025-08-25T2100,1094A,111.7516,40.8369,呼和浩特市,如意水处理厂,,28,28,26,10,11,61,,110,100,28,25,5,5,0.2,0.4
2025-08-25T2100,1095A,111.7276,40.8062,呼和浩特市,二十九中,,25,19,28,10,12,79,,118,110,17,15,6,7,0.6,0.8
2025-08-25T2100,1096A,111.5512,40.7866,呼和浩特市,工大金川校区,,,35,33,7,10,,,117,115,26,22,4,5,0.2,0.3
2025-08-25T2100,1097A,111.717,40.7612,呼和浩特市,化肥厂生活区,颗粒物(PM10),61,71,27,31,13,61,,139,130,42,21,6,7,0.6,0.6
2025-08-25T2100,3698A,111.5968,40.8178,呼和浩特市,红旗小学,,24,24,23,14,9,68,,116,105,24,26,4,4,0.2,0.2
2025-08-25T2100,3699A,111.6518,40.8389,呼和浩特市,海东办,,46,46,24,12,10,51,,118,106,39,26,5,5,0.5,0.5
2025-08-25T2100,2192A,119.7594,49.2261,呼伦贝尔市,区环保局,,48,48,30,31,19,15,,62,50,42,18,5,5,0.6,0.7
2025-08-25T2100,3061A,119.7512,49.1577,呼伦贝尔市,国华电力东,,,19,17,15,8,17,,65,50,,6,,1,0.3,0.2
2025-08-25T2100,1250A,120.0751,30.8669,湖州市,城西水厂,,28,28,43,16,24,55,,126,91,34,32,6,7,0.4,0.5
2025-08-25T2100,2873A,120.0830,30.8929,湖州市,仁皇山新区,,25,25,42,14,23,41,,126,84,30,26,4,5,0.3,0.4
2025-08-25T2100,2907A,120.1844,30.8596,湖州市,吴兴区站,,30,30,37,15,22,54,,148,98,22,14,7,7,0.6,0.6
2025-08-25T2100,3562A,120.4148,30.8538,湖州市,南浔区站,,35,35,35,20,21,64,,119,91,16,15,6,6,0.6,0.7
2025-08-25T2100,1607A,120.9049,40.7211,葫芦岛市,龙港区,,26,23,22,18,10,18,,77,68,39,19,4,5,0.6,0.6
2025-08-25T2100,1608A,120.8392,40.7514,葫芦岛市,化工街,,46,46,12,22,9,12,,78,70,62,22,9,8,0.9,0.6
2025-08-25T2100,1609A,120.8341,40.7073,葫芦岛市,新区,,35,35,16,14,12,22,,80,76,58,19,5,4,0.8,0.7
2025-08-25T2100,1610A,120.8695,40.7677,葫芦岛市,东城区,,,34,17,30,13,,,78,78,73,18,5,5,1.0,0.7
2025-08-25T2100,2482A,109.5981,27.5721,怀化市,林科所,,30,30,18,10,5,25,,64,55,10,6,5,4,0.5,0.4
2025-08-25T2100,2483A,109.9453,27.5444,怀化市,河西地税局,,36,36,16,25,8,11,,58,48,20,7,3,3,0.1,0
2025-08-25T2100,2484A,109.9781,27.5342,怀化市,市四医院,,45,45,26,22,12,24,,67,58,18,9,5,5,0.6,0.4
2025-08-25T2100,2485A,109.9972,27.5578,怀化市,监测楼,,,22,20,20,10,,,75,70,16,10,4,4,0.3,0.2
2025-08-25T2100,2486A,110.0394,27.583,怀化市,市委党校,,25,25,21,15,10,32,,66,59,11,9,8,8,0.1,0.1
2025-08-25T2100,1210A,119.036,33.5981,淮安市,钵池山,,29,14,10,11,11,90,,91,91,7,8,4,4,0.6,0.7
2025-08-25T2100,1211A,119.007,33.575,淮安市,北京南路,,24,24,14,10,9,73,,83,82,20,13,7,10,0.6,0.9
2025-08-25T2100,1212A,118.989,33.6067,淮安市,市监测站,,41,41,17,17,9,76,,89,87,22,11,10,10,0.8,0.5
2025-08-25T2100,1213A,119.135,33.5039,淮安市,楚州区监测站,,29,29,21,8,8,69,,92,86,17,13,7,8,0.7,0.6
2025-08-25T2100,3426A,118.8755,33.2894,淮安市,新华书店,,24,15,10,13,9,76,,96,93,16,11,6,6,0.3,0.2
2025-08-25T2100,4206A,119.0288,33.6319,淮安市,承德北路606号,,27,24,14,9,9,84,,85,85,13,10,8,8,0.9,0.5
2025-08-25T2100,2282A,116.8004,33.975,淮北市,监测站,,38,38,19,14,12,62,,81,80,12,10,6,6,0.9,0.7
2025-08-25T2100,2283A,116.8091,33.9007,淮北市,烈山区政府,颗粒物(PM10),52,53,28,23,10,61,,83,82,14,9,8,8,0.9,0.6
2025-08-25T2100,3330A,116.8873,33.9836,淮北市,杜集区检察院,,40,40,27,28,21,68,,80,80,8,8,8,8,0.7,0.6
2025-08-25T2100,4017A,116.7923,33.9535,淮北市,市博物馆,,39,35,24,27,18,72,,82,82,12,10,9,8,0.8,0.6
2025-08-25T2100,2277A,116.8305,32.7727,淮南市,潘集区政府,,19,11,18,9,11,59,,93,84,5,11,2,3,0.1,0.3
2025-08-25T2100,2279A,116.8569,32.5951,淮南市,谢家集区政府,,20,14,23,3,9,64,,117,109,2,10,6,9,0.0,0.2
2025-08-25T2100,2280A,116.8281,32.633,淮南市,八公山区政府,,21,14,25,8,12,65,,114,105,5,10,6,7,0.2,0.3
2025-08-25T2100,2281A,116.6325,32.6201,淮南市,焦岗湖风景区管理处,,,,,,,,,,,,,,,,
2025-08-25T2100,2894A,117.0566,32.6531,淮南市,经济技术开发区消防队,,23,19,16,3,6,73,,124,116,3,11,8,9,0.2,0.3
2025-08-25T2100,3329A,117.0108,32.5893,淮南市,山南新区,,23,18,12,7,7,71,,139,130,3,8,4,5,0.3,0.5
2025-08-25T2100,4209A,117.0031,32.6445,淮南市,国庆中路369号,,25,15,23,10,15,77,,129,122,2,9,3,5,0.3,0.3
2025-08-25T2100,2446A,114.9028,30.4742,黄冈市,职工中心,,22,13,26,12,18,70,,124,91,7,21,8,11,0.4,0.5
2025-08-25T2100,2929A,114.8858,30.4519,黄冈市,红卫路,,23,21,33,14,20,71,,120,88,8,25,10,16,0.4,0.7
2025-08-25T2100,3398A,114.9136,30.4445,黄冈市,市林业局,,23,21,38,16,21,69,,124,92,8,25,5,12,0.3,0.5
2025-08-25T2100,2672A,102.0199,35.5102,黄南藏族自治州,同仁县隆务镇,颗粒物(PM10),54,57,26,28,13,98,,104,104,5,2,10,9,0.4,0.4
2025-08-25T2100,2295A,118.2903,29.6963,黄山市,延安路89号,,15,15,35,3,14,38,,94,68,7,7,3,4,0.3,0.4
2025-08-25T2100,2297A,118.1371,30.2756,黄山市,黄山区政府5号楼,,14,13,24,3,12,43,,66,55,3,5,4,4,0.4,0.4
2025-08-25T2100,4210A,118.3354,29.7203,黄山市,滨江东路7-2号,,13,13,30,3,10,41,,94,68,5,8,2,2,0.3,0.4
2025-08-25T2100,2423A,115.0601,30.2313,黄石市,沈家营,,34,34,47,7,11,36,,115,74,15,25,7,8,0.8,0.5
2025-08-25T2100,2426A,114.8988,30.2019,黄石市,铁山,,27,27,30,9,9,52,,100,56,9,11,5,7,0.5,0.6
2025-08-25T2100,2427A,115.0307,30.2092,黄石市,团城山,,31,31,27,3,4,58,,112,72,14,13,9,7,1.0,0.7
2025-08-25T2100,3149A,115.0235,30.1578,黄石市,笔架山北路,,26,26,23,6,6,45,,106,62,14,11,4,6,0.5,0.5
2025-08-25T2100,4185A,115.0780,30.21118,黄石市,磁湖东路29号,,38,38,49,13,13,50,,110,69,21,26,16,12,1.0,0.7
2025-08-25T2100,1392A,114.4183,23.0528,惠州市,河南岸金山湖子站,,14,14,18,3,7,34,,63,54,10,11,8,8,0.4,0.4
2025-08-25T2100,1393A,114.4053,23.0822,惠州市,下埔横江三路子站,,,17,18,9,8,,,68,59,8,8,4,7,0.4,0.2
2025-08-25T2100,1394A,114.4103,23.1142,惠州市,江北云山西路子站,,16,16,18,3,7,43,,72,62,7,9,8,9,0.5,0.5
2025-08-25T2100,1395A,114.4645,22.7833,惠州市,惠阳区承修路船湖子站,,13,12,16,3,7,40,,59,54,7,8,7,8,0.5,0.5
2025-08-25T2100,1396A,114.5317,22.7422,惠州市,大亚湾管委会子站,,11,11,10,3,6,32,,61,56,13,11,7,8,0.7,0.8
2025-08-25T2100,3314A,114.4338,22.8134,惠州市,惠阳秋长,,15,12,14,3,8,45,,64,58,9,8,7,7,0.4,0.4
2025-08-25T2100,3452A,114.6517,22.775,惠州市,大亚湾霞涌,,15,15,13,6,7,34,,66,60,9,9,5,6,0.3,0.3
2025-08-25T2100,2240A,130.9762,45.3001,鸡西市,环保局,,17,12,20,6,7,52,,68,66,8,13,7,7,0.5,0.5
2025-08-25T2100,2243A,130.9429,45.3039,鸡西市,第一中学,,17,15,20,6,10,52,,66,64,8,15,9,9,0.6,0.6
2025-08-25T2100,3707A,131.0207,45.3073,鸡西市,欧美日汽修厂,,16,14,23,9,12,50,,67,65,8,16,10,11,0.6,0.6
2025-08-25T2100,3709A,130.9967,45.3106,鸡西市,市政设施管理处,,16,14,27,3,10,49,,70,67,12,20,6,8,0.6,0.6
2025-08-25T2100,2367A,114.9754,27.0803,吉安市,红声器材厂,,30,30,24,8,8,66,,83,81,5,4,8,10,0.6,0.6
2025-08-25T2100,2368A,114.9658,27.0999,吉安市,市森林工业局,,32,32,20,20,9,61,,86,83,7,5,12,9,0.1,0.4
2025-08-25T2100,2369A,114.99,27.1312,吉安市,市环境监测站,,23,23,17,13,8,70,,100,96,5,4,12,14,0.5,0.5
2025-08-25T2100,2370A,115.0093,27.0968,吉安市,青原区法院,,22,22,19,12,10,68,,86,84,10,11,7,8,0.5,0.5
2025-08-25T2100,1772A,126.54,43.8622,吉林市,哈达湾,,18,18,16,7,9,50,,59,54,17,14,13,8,0.8,0.4
2025-08-25T2100,1773A,126.5844,43.8358,吉林市,东局子,,40,,13,28,9,43,,49,42,22,15,8,5,1.3,0.9
2025-08-25T2100,1774A,126.5052,43.8245,吉林市,电力学院,,20,18,17,14,11,53,,56,55,9,17,11,7,0.9,0.7
2025-08-25T2100,1775A,126.6133,43.8972,吉林市,江北,,23,,13,16,6,35,,45,38,16,7,6,4,0.8,0.5
2025-08-25T2100,1776A,126.555,43.8306,吉林市,江南公园,,,25,15,17,9,,,46,45,17,18,4,2,0.8,0.4
2025-08-25T2100,1778A,126.7061,43.7133,吉林市,丰满,,19,6,7,3,4,58,,75,57,10,4,4,4,0.7,0.6
2025-08-25T2100,2868A,126.4739,43.953,吉林市,九站,,20,20,21,12,11,43,,57,46,16,20,6,8,0.8,0.5
2025-08-25T2100,1299A,116.9862,36.6114,济南市,科干所,,35,27,38,24,36,94,,114,112,20,16,6,6,0.5,0.6
2025-08-25T2100,1300A,116.9376,36.665,济南市,农科所,,,,31,,18,94,,104,104,,16,,7,0.5,0.4
2025-08-25T2100,1301A,117.1265,36.6734,济南市,开发区,,34,27,37,17,24,106,,121,119,16,16,7,7,0.6,0.7
2025-08-25T2100,1303A,117.0624,36.6868,济南市,省种子仓库,,36,36,43,17,19,105,,121,120,18,12,4,5,0.7,0.7
2025-08-25T2100,1304A,116.9489,36.6447,济南市,机床二厂,,33,32,41,15,21,105,,112,112,16,14,8,8,0.5,0.5
2025-08-25T2100,1305A,117.0495,36.663,济南市,市监测站,,37,37,41,20,25,99,,116,115,21,16,10,9,0.7,0.8
2025-08-25T2100,1306A,116.7675,36.5484,济南市,长清党校,,32,29,31,22,17,90,,106,105,19,14,6,5,0.7,0.7
2025-08-25T2100,1616A,117.6795,36.229,济南市,技术学院,,35,22,45,17,27,109,,118,118,12,17,8,8,0.7,1
2025-08-25T2100,1961A,117.532,36.6868,济南市,东山小学,,37,37,43,20,22,70,,122,120,27,15,6,6,0.5,0.4
2025-08-25T2100,3059A,117.7161,36.2049,济南市,泰兴公司,,36,36,43,17,28,84,,106,106,22,17,11,12,0.7,0.9
2025-08-25T2100,3064A,117.6867,36.2171,济南市,莱芜战役纪念馆,,39,39,45,18,33,102,,114,114,16,18,7,8,0.6,0.9
2025-08-25T2100,3494A,117.1673,36.9782,济南市,济阳区政府,颗粒物(PM10),53,56,36,22,17,75,,119,115,25,6,7,7,0.5,0.4
2025-08-25T2100,3495A,117.1171,36.63,济南市,锦屏中学,,27,27,40,12,19,52,,108,101,17,15,8,8,0.8,0.9
2025-08-25T2100,3682A,116.9814,36.6819,济南市,济南四建,,34,34,31,20,20,100,,125,123,21,12,4,5,0.6,0.6
2025-08-25T2100,1653A,116.6251,35.4302,济宁市,火炬城,,36,29,49,14,30,114,,116,116,5,7,5,5,0.5,0.5
2025-08-25T2100,1655A,116.5491,35.4042,济宁市,电化厂,,35,32,46,17,26,109,,124,122,13,10,2,3,0.8,0.9
2025-08-25T2100,3500A,116.5814,35.3707,济宁市,北湖一中,,38,26,49,19,30,120,,120,120,4,8,7,7,0.2,0.3
2025-08-25T2100,3501A,116.8249,35.5593,济宁市,服务中心,,35,35,52,18,31,111,,127,126,9,9,4,3,0.6,0.6
2025-08-25T2100,3678A,116.5907,35.4054,济宁市,市第七中学,,37,31,50,7,24,117,,119,119,7,7,9,9,0.4,0.5
2025-08-25T2100,2255A,130.2751,46.8028,佳木斯市,佳纺,,29,29,18,7,6,18,,45,40,14,11,10,10,0.4,0.4
2025-08-25T2100,2256A,130.3995,46.8307,佳木斯市,发电厂,,34,34,21,8,10,27,,48,42,8,10,13,9,0.6,0.6
2025-08-25T2100,2257A,130.3258,46.7975,佳木斯市,环保局,,34,34,19,13,8,20,,44,40,24,15,10,10,0.7,0.6
2025-08-25T2100,2258A,130.3648,46.8032,佳木斯市,十一中,,24,24,17,14,9,19,,49,44,22,12,12,11,0.7,0.6
2025-08-25T2100,2259A,130.3794,46.7588,佳木斯市,四丰,,,16,9,,,4,,6,5,31,15,,47,0.5,0.4
2025-08-25T2100,1252A,120.7436,30.778,嘉兴市,清河小学,,29,29,33,14,14,59,,118,75,26,18,6,6,0.6,0.6
2025-08-25T2100,1253A,120.726,30.7478,嘉兴市,嘉兴学院,,23,23,31,16,17,63,,125,76,24,15,4,5,0.4,0.4
2025-08-25T2100,2872A,120.7846,30.7525,嘉兴市,南湖区残联,,32,32,31,17,17,66,,128,82,27,17,8,6,0.6,0.6
2025-08-25T2100,3407A,120.6916,30.7739,嘉兴市,秀洲住建,,26,26,32,14,16,68,,120,76,25,19,6,7,0.6,0.6
2025-08-25T2100,1945A,98.2908,39.7711,嘉峪关市,气象局,颗粒物(PM10),56,61,117,36,30,108,,130,121,15,8,25,6,1.2,0.7
2025-08-25T2100,2884A,98.2672,39.7978,嘉峪关市,酒钢宾馆,颗粒物(PM10),57,63,137,39,36,126,,142,134,10,15,21,20,1.4,1.6
2025-08-25T2100,3248A,98.2643,39.7724,嘉峪关市,雄关区,颗粒物(PM10),58,65,94,23,25,118,,120,115,12,11,10,10,0.8,0.4
2025-08-25T2100,1383A,113.1064,22.6058,江门市,北街,,,6,17,3,7,,,54,47,14,15,3,4,,0.5
2025-08-25T2100,1384A,113.0731,22.5835,江门市,西区,,29,29,19,3,9,29,,55,46,11,12,8,7,0.5,0.4
2025-08-25T2100,1385A,113.0219,22.5311,江门市,圭峰西,,16,16,19,6,8,32,,59,50,11,11,1,2,0.5,0.5
2025-08-25T2100,1386A,113.0828,22.5947,江门市,东湖,,14,14,15,3,8,25,,48,41,14,13,10,8,0.4,0.3
2025-08-25T2100,3311A,113.1075,22.5647,江门市,江海富民,,30,30,28,11,10,31,,53,44,11,14,4,4,0.1,0.1
2025-08-25T2100,3449A,113.05,22.4667,江门市,新会银湖,,14,14,16,7,8,8,,45,36,23,13,3,3,0.4,0.4
2025-08-25T2100,1830A,113.1992,35.2590,焦作市,影视城,,,,49,,22,,,,,,12,,9,,0.9
2025-08-25T2100,3335A,113.3137,35.2641,焦作市,马村街道办,颗粒物(PM10),59,67,55,41,32,84,,124,119,11,13,5,6,0.7,0.7
2025-08-25T2100,3336A,113.2465,35.2373,焦作市,焦作技师学院,颗粒物(PM10),55,60,55,27,24,98,,132,128,11,13,7,8,1.0,0.9
2025-08-25T2100,3477A,113.1656,35.2539,焦作市,中站许衡医院,细颗粒物(PM2.5),57,49,48,40,38,101,,147,144,11,13,6,8,0.8,0.8
2025-08-25T2100,3981A,113.2449,35.1803,焦作市,原李万街道办,颗粒物(PM10),52,53,49,29,21,110,,137,135,9,10,12,14,0.6,0.6
2025-08-25T2100,4264A,113.2340,35.2190,焦作市,新安路1731号,,,55,53,34,26,,,143,143,8,10,7,8,0.7,0.7
2025-08-25T2100,4295A,113.2722,35.2121,焦作市,人民路3066号,颗粒物(PM10),59,68,56,36,29,108,,132,129,7,9,5,5,1.0,0.8
2025-08-25T2100,1708A,116.3701,23.5345,揭阳市,新兴,,32,24,33,22,17,73,,105,100,12,16,6,8,0.6,0.5
2025-08-25T2100,1709A,116.3264,23.5443,揭阳市,西马,,31,31,36,18,19,73,,107,102,8,13,3,4,0.6,0.6
2025-08-25T2100,1710A,116.3611,23.5626,揭阳市,东兴,,31,31,35,21,17,78,,106,102,8,12,11,7,0.6,0.6
2025-08-25T2100,1711A,116.4151,23.5294,揭阳市,渔湖,,33,33,37,19,15,66,,120,114,16,16,8,11,0.9,0.7
2025-08-25T2100,3320A,116.403,23.5699,揭阳市,曲溪,,,,28,8,15,,,120,120,9,11,2,3,0.7,0.5
2025-08-25T2100,1944A,102.1692,38.5167,金昌市,天庆家园,颗粒物(PM10),95,139,70,46,29,86,,96,93,10,14,10,38,0.7,0.7
2025-08-25T2100,4022A,102.1647,38.5371,金昌市,金川区人防中心,颗粒物(PM10),85,120,68,46,27,81,,97,91,9,10,9,12,0.6,0.6
2025-08-25T2100,4239A,102.1930,38.5319,金昌市,长春路96号,颗粒物(PM10),125,200,69,50,26,93,,106,102,7,8,5,6,0.6,0.6
2025-08-25T2100,1262A,119.647,29.077,金华市,十五中,,27,25,30,11,14,84,,157,130,5,10,3,4,0.3,0.4
2025-08-25T2100,1263A,119.686,29.1029,金华市,监测站,,24,19,29,10,14,75,,148,122,10,12,4,5,0.3,0.4
2025-08-25T2100,3659A,119.656,29.1131,金华市,气象局,,22,20,28,7,13,68,,138,114,15,12,2,3,0.4,0.5
2025-08-25T2100,1767A,121.1115,41.0879,锦州市,南山,,38,38,19,13,12,52,,84,82,14,8,3,4,0.8,0.6
2025-08-25T2100,1768A,121.0604,40.8428,锦州市,开发区,,33,33,16,15,11,40,,84,79,35,15,4,5,0.9,0.9
2025-08-25T2100,1769A,121.1836,41.1119,锦州市,百股街道,,22,22,15,9,5,44,,87,84,19,8,5,5,0.8,0.7
2025-08-25T2100,1770A,121.1178,41.1222,锦州市,天安街道,,25,25,16,13,11,80,,92,92,22,12,9,7,1.1,0.7
2025-08-25T2100,1771A,121.1303,41.1386,锦州市,北湖公园,,26,15,15,11,10,82,,83,83,8,6,8,5,1.0,0.7
2025-08-25T2100,2160A,112.85,35.5051,晋城市,自来水公司,颗粒物(PM10),83,115,63,48,34,142,,116,116,15,14,6,5,0.9,0.8
2025-08-25T2100,2161A,112.8318,35.4936,晋城市,白云商贸,颗粒物(PM10),68,85,54,48,32,138,,111,111,11,10,6,5,0.8,0.8
2025-08-25T2100,2162A,112.8508,35.4887,晋城市,市环保局,颗粒物(PM10),67,83,57,44,30,111,,92,92,13,11,3,2,0.8,0.8
2025-08-25T2100,2163A,112.8676,35.4897,晋城市,技术学院,,,69,55,34,27,,,95,95,13,11,6,3,1.0,1
2025-08-25T2100,2165A,112.8453,35.546,晋城市,白马寺,细颗粒物(PM2.5),70,,36,51,35,150,,120,120,9,8,8,6,0.9,0.9
2025-08-25T2100,3620A,112.8271,35.4828,晋城市,泽州一中,细颗粒物(PM2.5),67,80,53,48,31,132,,104,104,12,10,4,3,0.9,0.9
2025-08-25T2100,2173A,112.7249,37.7067,晋中市,南都小区,,41,41,29,25,17,100,,154,150,25,13,5,9,0.7,0.6
2025-08-25T2100,2174A,112.6991,37.6982,晋中市,榆次区政府,,,44,30,31,16,,,154,154,,11,,6,,0.5
2025-08-25T2100,2865A,112.7195,37.6828,晋中市,榆次三中,,46,46,28,12,13,80,,154,148,32,13,7,8,0.7,0.6
2025-08-25T2100,4200A,112.7478,37.6954,晋中市,迎宾街26号,,34,34,24,9,9,91,,158,152,26,11,7,9,0.7,0.7
2025-08-25T2100,2439A,112.2014,31.0481,荆门市,竹园小学,,31,31,41,18,30,73,,127,110,18,12,3,3,0.1,0.4
2025-08-25T2100,2440A,112.1969,30.9891,荆门市,掇刀,,34,34,38,18,23,73,,131,113,9,11,2,2,0.5,0.7
2025-08-25T2100,2441A,112.2213,31.0386,荆门市,石化一小,,44,44,41,10,22,65,,129,107,19,12,8,5,0.8,0.9
2025-08-25T2100,3012A,112.1849,31.0362,荆门市,西山林语,,30,30,37,13,22,78,,126,108,9,8,1,2,0.4,0.6
2025-08-25T2100,3547A,112.1632,31.0138,荆门市,龙泉中学南校,,28,28,35,18,23,74,,130,111,19,9,4,4,0.6,0.9
2025-08-25T2100,1844A,112.2494,30.3197,荆州市,市图书馆,,21,17,21,12,18,66,,93,85,13,12,4,4,0.5,0.5
2025-08-25T2100,1845A,112.2008,30.3544,荆州市,市委党校,,21,20,22,8,16,67,,90,85,16,14,5,5,0.4,0.4
2025-08-25T2100,3194A,112.2747,30.3122,荆州市,管委会,,26,26,22,9,14,63,,88,80,11,10,1,1,0.6,0.6
2025-08-25T2100,4268A,112.1722,30.3366,荆州市,学苑路85号,,26,24,23,18,19,66,,96,90,7,9,6,7,0.3,0.4
2025-08-25T2100,2342A,117.3102,29.3867,景德镇市,王港中学,,,,,,,,,,,,,,,,
2025-08-25T2100,2343A,117.2117,29.2933,景德镇市,老干部活动中心,,18,16,33,3,20,55,,108,82,6,11,7,11,0.5,0.7
2025-08-25T2100,2344A,117.1894,29.2789,景德镇市,兽医站,,23,23,38,10,19,57,,109,84,5,15,4,10,0.7,0.9
2025-08-25T2100,2346A,117.2461,29.2956,景德镇市,陶研所,,18,10,32,7,20,57,,96,78,4,12,6,8,0.5,0.7
2025-08-25T2100,4289A,117.1542,29.2566,景德镇市,青少年活动中心,,18,16,38,7,21,57,,98,76,5,23,1,21,0.5,0.7
2025-08-25T2100,1803A,115.9872,29.6815,九江市,十里,,28,,27,19,21,57,,110,72,18,25,6,6,0.6,0.6
2025-08-25T2100,1804A,115.9584,29.7046,九江市,茅山头,,30,30,28,14,18,50,,98,66,11,18,5,5,0.5,0.5
2025-08-25T2100,1805A,115.9877,29.7295,九江市,西园,,19,19,27,11,14,51,,114,74,18,37,4,8,0.5,0.6
2025-08-25T2100,1808A,115.9114,29.6038,九江市,综合工业园,,35,35,29,17,17,26,,92,53,44,29,6,8,0.7,0.7
2025-08-25T2100,1809A,116.0721,29.7535,九江市,石化总厂,,39,27,28,27,22,38,,99,70,23,22,6,7,0.4,0.5
2025-08-25T2100,1810A,115.9773,29.5698,九江市,庐山气象台,,29,17,13,8,5,91,,104,95,4,4,7,6,1.2,0.9
2025-08-25T2100,3190A,116.0254,29.6994,九江市,外国语学校,,27,27,22,13,21,47,,98,70,26,21,7,9,0.8,0.8
2025-08-25T2100,4253A,116.0102,29.6594,九江市,莲花大道8号,,19,,18,13,13,48,,89,60,9,11,5,5,0.5,0.5
2025-08-25T2100,4240A,98.4958,39.7339,酒泉市,玉门东路5号,细颗粒物(PM2.5),67,63,110,48,38,112,,118,107,6,11,7,31,0.3,0.3
2025-08-25T2100,4241A,98.5099,39.7506,酒泉市,北大街108号,颗粒物(PM10),58,66,118,35,32,104,,120,110,5,9,8,12,0.4,0.3
2025-08-25T2100,2698A,76.0072,39.4467,喀什地区,巡警大队,,40,40,66,16,27,123,,136,136,10,24,3,3,0.2,0.4
2025-08-25T2100,2699A,75.9755,39.4694,喀什地区,吾办,颗粒物(PM10),55,59,61,20,30,118,,133,133,14,20,8,8,0.4,0.4
2025-08-25T2100,4027A,75.9483,39.4689,喀什地区,老干局,,,41,50,,16,126,,140,140,,16,5,4,0.2,0.2
2025-08-25T2100,1824A,114.3389,34.7781,开封市,肿瘤医院,,32,28,36,16,19,102,,121,119,18,13,4,3,0.8,0.7
2025-08-25T2100,1826A,114.2885,34.7965,开封市,世纪星幼儿园,,34,33,31,16,21,108,,120,119,11,10,6,5,0.8,0.8
2025-08-25T2100,3147A,114.3438,34.8106,开封市,龙亭公园,,,,36,2,13,97,,117,115,18,8,5,4,,0.9
2025-08-25T2100,3210A,114.3644,34.7964,开封市,汴京公园,,44,44,36,17,21,98,,121,118,15,10,5,5,0.7,0.7
2025-08-25T2100,3473A,114.2485,34.8306,开封市,技师学院,,40,,32,28,21,87,,121,117,16,9,5,5,1.0,0.9
2025-08-25T2100,3592A,114.4644,34.7556,开封市,祥符区生态环境局,,31,31,32,14,18,77,,114,109,31,18,3,4,0.8,0.8
2025-08-25T2100,1951A,84.895,45.6094,克拉玛依市,长征新村,,28,13,15,10,6,88,,101,100,8,5,3,3,0.2,0.2
2025-08-25T2100,1952A,84.8988,45.5893,克拉玛依市,南林小区,,,20,16,9,7,84,,102,100,8,5,,6,,0.1
2025-08-25T2100,1954A,84.905,44.3396,克拉玛依市,独山子区,,27,21,21,8,8,85,,94,94,13,10,7,10,0.3,0.3
2025-08-25T2100,1955A,85.6979,46.098,克拉玛依市,乌尔禾区商贸楼,,41,41,16,13,7,60,,104,98,34,10,7,7,0.3,0.2
2025-08-25T2100,3612A,85.1045,45.6899,克拉玛依市,白碱滩区新站,,45,45,35,11,10,106,,109,109,6,5,9,9,0.4,0.5
2025-08-25T2100,2697A,76.1454,39.7142,克孜勒苏柯尔克孜自治州,市人民政府,,41,38,42,19,19,129,,133,133,7,12,4,6,0.1,0.1
2025-08-25T2100,3665A,76.1658,39.7157,克孜勒苏柯尔克孜自治州,克州文化中心,,44,44,41,20,22,125,,129,129,6,10,6,7,0.2,0.2
2025-08-25T2100,1450A,102.8204,24.8886,昆明市,呈贡新区,,15,,4,6,9,47,,62,59,6,9,4,3,0.3,0.5
2025-08-25T2100,1451A,102.6251,24.9608,昆明市,西山森林公园,,,,,,,,,,,,,,,,
2025-08-25T2100,1452A,102.7252,25.0902,昆明市,龙泉镇,,26,26,13,8,7,37,,62,58,13,9,2,1,0.2,0.2
2025-08-25T2100,1453A,102.7266,25.0375,昆明市,东风东路,,19,19,16,8,8,35,,64,58,16,14,3,3,0.3,0.3
2025-08-25T2100,1454A,102.6742,25.0669,昆明市,金鼎山,,16,16,18,6,9,42,,65,60,10,9,1,2,0.2,0.2
2025-08-25T2100,1455A,102.6644,25.0401,昆明市,碧鸡广场,,29,,16,20,5,30,,64,58,26,15,7,7,0.3,0.4
2025-08-25T2100,3179A,102.7494,25.0119,昆明市,官渡区博物馆,,23,23,14,13,10,24,,63,56,29,18,2,1,0.4,0.4
2025-08-25T2100,3375A,102.8017,24.8336,昆明市,青年创业园,,14,7,11,3,7,44,,58,55,4,7,1,2,0.2,0.3
2025-08-25T2100,3550A,102.7997,24.9786,昆明市,昆明学院,,11,11,14,3,8,33,,67,60,15,12,8,6,0.2,0.3
2025-08-25T2100,3551A,102.5967,24.6736,昆明市,晋宁区生态环境分局,,26,26,17,9,7,37,,68,63,16,9,4,4,0.5,0.5
2025-08-25T2100,3552A,102.6678,24.9856,昆明市,云天化总部,,13,9,11,6,7,39,,67,62,18,11,3,4,0.2,0.3
2025-08-25T2100,1456A,91.1319,29.6514,拉萨市,八廓街,,19,14,9,6,7,58,,70,70,19,11,6,8,0.3,0.2
2025-08-25T2100,1457A,91.1221,29.6747,拉萨市,市环保局,,18,10,10,7,7,57,,66,66,15,10,8,9,0.3,0.2
2025-08-25T2100,1458A,91.0874,29.6475,拉萨市,区监测站,,18,9,8,8,6,57,,71,71,22,13,4,6,0.5,0.4
2025-08-25T2100,1459A,91.1774,29.6541,拉萨市,西藏大学,,20,9,8,6,6,62,,67,67,12,11,6,9,0.2,0.2
2025-08-25T2100,1460A,90.9798,29.6588,拉萨市,区辐射站,,18,13,13,8,8,55,,67,67,17,19,4,6,0.4,0.4
2025-08-25T2100,1461A,91.0834,29.6292,拉萨市,拉萨火车站,,17,12,8,7,6,54,,69,69,22,12,5,7,0.3,0.2
2025-08-25T2100,2520A,109.2203,23.7256,来宾市,来宾技工学校,,33,33,23,20,12,46,,70,65,15,9,12,9,0.6,0.5
2025-08-25T2100,3535A,109.1781,23.7297,来宾市,兴宾区政府,,37,37,24,24,14,37,,73,64,20,9,8,8,0.8,0.7
2025-08-25T2100,4002A,109.2416,23.7461,来宾市,中南小学,,27,27,23,17,10,53,,74,70,12,10,18,17,0.6,0.6
2025-08-25T2100,1477A,104.1373,35.9454,兰州市,榆中兰大校区,,,,,,,,,,,,,,,,
2025-08-25T2100,1479A,103.831,36.0464,兰州市,铁路设计院,,31,31,42,19,24,59,,88,76,15,38,8,12,0.5,0.6
2025-08-25T2100,3241A,103.7439,36.0842,兰州市,百合公园,,35,35,39,14,16,60,,96,88,7,22,3,6,0.2,0.6
2025-08-25T2100,3242A,103.9611,35.998,兰州市,和平,,26,26,26,14,12,64,,89,78,6,11,7,8,0.5,0.4
2025-08-25T2100,4236A,103.6293,36.0938,兰州市,庄浪东路808号,,28,28,44,16,19,52,,126,95,21,33,11,17,0.4,0.5
2025-08-25T2100,4237A,103.7251,36.1043,兰州市,安宁西路88号,,37,37,39,18,24,71,,114,103,4,16,3,7,0.3,0.4
2025-08-25T2100,4238A,103.8470,36.0676,兰州市,北滨河东路1号,,29,29,32,19,16,63,,96,84,12,28,7,11,0.4,0.5
2025-08-25T2100,3245A,103.6633,36.533,兰州新区,新区管委会,,23,23,33,11,20,66,,103,88,10,16,14,23,0.4,0.4
2025-08-25T2100,3246A,103.6975,36.4789,兰州新区,舟曲中学,,20,12,29,6,16,64,,106,87,12,15,17,27,0.4,0.4
2025-08-25T2100,1067A,116.6708,39.5111,廊坊市,药材公司,,37,37,22,12,13,85,,144,137,22,14,4,4,0.4,0.4
2025-08-25T2100,1068A,116.7214,39.5589,廊坊市,开发区,,36,36,27,16,14,97,,147,141,20,14,2,2,0.4,0.3
2025-08-25T2100,1070A,116.7244,39.5269,廊坊市,北华航天学院,颗粒物(PM10),51,52,37,14,14,124,,150,148,14,11,4,4,0.4,0.4
2025-08-25T2100,2919A,116.7022,39.5453,廊坊市,河北工业大学,,45,45,38,12,13,117,,154,152,14,12,2,2,0.3,0.3
2025-08-25T2100,2535A,103.7723,29.5462,乐山市,花湖湾,,18,12,14,11,9,57,,74,72,16,4,2,2,0.4,0.4
2025-08-25T2100,2536A,103.7627,29.5844,乐山市,牛耳桥,,21,15,13,14,13,65,,86,82,12,7,5,4,0.6,0.6
2025-08-25T2100,2537A,103.7508,29.6006,乐山市,市第三水厂,,20,14,14,14,12,60,,82,80,12,8,3,3,0.6,0.6
2025-08-25T2100,2538A,103.7571,29.5664,乐山市,市监测站,,20,13,16,10,9,63,,74,73,7,5,6,6,0.8,0.8
2025-08-25T2100,3361A,103.7311,29.5628,乐山市,理工大学,,19,14,15,10,12,59,,85,83,10,6,6,6,0.7,0.7
2025-08-25T2100,2598A,100.2143,26.8576,丽江市,西南郊,,16,15,6,3,3,51,,54,54,10,8,6,6,0.9,0.9
2025-08-25T2100,2599A,100.2497,26.8802,丽江市,丽江古城,,24,24,15,11,4,49,,52,52,10,9,8,10,0.5,0.5
2025-08-25T2100,2600A,100.2203,26.8906,丽江市,市中心,,18,,7,12,6,44,,50,49,15,11,10,10,0.6,0.6
2025-08-25T2100,1267A,119.914,28.4514,丽水市,监测站大楼,,22,22,16,8,8,70,,76,69,9,8,4,4,0.3,0.3
2025-08-25T2100,1268A,119.93,28.4586,丽水市,莲都小学,,22,22,19,7,6,59,,74,68,11,8,3,3,0.3,0.3
2025-08-25T2100,1269A,119.879,28.4231,丽水市,余庄前,,17,17,16,9,10,32,,88,55,18,9,5,5,0.3,0.4
2025-08-25T2100,1173A,119.176,34.5885,连云港市,市环境监测站,,45,41,24,31,14,89,,110,107,14,12,3,4,0.7,0.6
2025-08-25T2100,3000A,119.3581,34.6972,连云港市,德源药业,,34,34,23,19,15,86,,108,108,18,14,4,4,0.9,0.7
2025-08-25T2100,3007A,119.178,34.844,连云港市,新城一中,细颗粒物(PM2.5),58,51,34,41,26,100,,120,118,10,10,4,4,0.9,0.8
2025-08-25T2100,3008A,119.3608,34.7519,连云港市,胡沟管理处,,35,31,22,24,14,88,,113,111,18,17,10,10,0.7,0.7
2025-08-25T2100,3009A,119.1478,34.5911,连云港市,矿山设计院,颗粒物(PM10),51,51,24,29,15,76,,104,101,19,16,12,12,0.9,0.8
2025-08-25T2100,3434A,119.2413,34.6539,连云港市,工贸学校,,43,43,26,28,18,85,,110,107,19,14,6,6,0.9,0.8
2025-08-25T2100,3664A,119.4172,34.7341,连云港市,连云街道,,38,37,30,26,18,103,,116,116,6,8,5,5,0.8,0.8
2025-08-25T2100,2571A,102.3431,27.8099,凉山彝族自治州,青龙寺,,17,17,12,7,6,39,,54,50,5,4,2,2,0.5,0.5
2025-08-25T2100,2572A,102.2721,27.8415,凉山彝族自治州,邛海宾馆,,,22,12,12,5,,,64,63,13,7,6,7,0.4,0.5
2025-08-25T2100,2573A,102.2625,27.898,凉山彝族自治州,西昌市政府,,14,11,12,3,7,43,,61,58,11,10,6,8,0.3,0.4
2025-08-25T2100,2574A,102.2685,27.8851,凉山彝族自治州,凉山州政府,,26,26,17,18,12,44,,65,62,9,8,8,11,0.8,1.1
2025-08-25T2100,4229A,102.2342,27.8859,凉山彝族自治州,凯乐南路30号,,18,18,13,3,5,42,,61,58,16,12,22,17,1.1,1
2025-08-25T2100,2212A,123.2,41.1953,辽阳市,宏伟区,,10,8,24,3,12,32,,33,33,17,21,2,2,0.7,1
2025-08-25T2100,2213A,123.1683,41.2495,辽阳市,新华园,,15,15,22,7,12,45,,43,43,20,25,5,7,0.4,0.7
2025-08-25T2100,2214A,123.2354,41.2639,辽阳市,滨河路,颗粒物(PM10),89,128,29,8,14,35,,32,32,16,22,4,4,0.6,0.9
2025-08-25T2100,2215A,123.149,41.2991,辽阳市,铁西工业园,,10,10,21,6,9,32,,30,30,20,22,2,3,0.7,1
2025-08-25T2100,2227A,125.1358,42.8845,辽源市,环保局,,37,37,23,9,3,64,,66,65,5,8,8,7,0.5,0.5
2025-08-25T2100,3239A,125.0764,42.9078,辽源市,银鹰制药,,14,8,7,7,4,44,,65,60,13,8,9,8,0.5,0.5
2025-08-25T2100,1625A,115.9848,36.4372,聊城市,区政府,,30,22,18,12,12,96,,120,118,17,10,9,9,0.6,0.7
2025-08-25T2100,2878A,116.0072,36.4343,聊城市,聊大东校,,29,27,20,20,11,92,,127,123,20,11,9,8,0.5,0.4
2025-08-25T2100,3200A,115.9819,36.4978,聊城市,监控中心,,28,27,20,9,8,88,,128,122,26,15,8,8,0.7,0.6
2025-08-25T2100,3513A,116.0445,36.4361,聊城市,九州社区,,42,42,26,20,11,76,,125,117,23,10,4,4,0.3,0.3
2025-08-25T2100,4018A,116.0567,36.4608,聊城市,星美广场,,34,34,23,9,10,76,,119,113,20,8,3,2,0.6,0.6
2025-08-25T2100,2632A,94.3681,29.6376,林芝市,林芝监测站,,12,,6,8,4,20,,33,32,7,4,5,5,0.4,0.4
2025-08-25T2100,2633A,94.3616,29.6616,林芝市,林芝人民医院,,18,18,10,10,4,17,,32,30,7,3,7,7,0.6,0.5
2025-08-25T2100,2603A,100.0781,23.8982,临沧市,市环保局,细颗粒物(PM2.5),83,,14,61,24,25,,46,42,12,8,7,5,0.3,0.3
2025-08-25T2100,2604A,100.0894,23.8822,临沧市,市气象局,,20,18,14,14,13,23,,42,39,9,7,7,7,0.5,0.5
2025-08-25T2100,1733A,111.5531,36.0783,临汾市,临钢医院,,43,43,42,11,11,85,,118,113,22,16,8,10,0.7,0.9
2025-08-25T2100,1734A,111.5028,36.0714,临汾市,技工学校,细颗粒物(PM2.5),53,53,38,37,25,70,,107,104,25,12,5,7,0.8,0.9
2025-08-25T2100,1736A,111.5018,36.0855,临汾市,市委,,41,41,47,10,13,79,,112,109,23,15,3,3,0.8,1
2025-08-25T2100,3018A,111.505,36.1014,临汾市,唐尧大酒店,颗粒物(PM10),58,66,55,7,14,71,,109,105,27,15,4,4,0.6,0.8
2025-08-25T2100,4244A,111.4879,36.0530,临汾市,启星学校,,44,44,40,19,23,76,,111,108,26,16,3,4,0.7,0.9
2025-08-25T2100,4271A,103.2464,35.6123,临夏回族自治州,滨河东路1号,颗粒物(PM10),53,55,57,16,33,43,,75,69,22,15,8,7,0.3,0.4
2025-08-25T2100,4310A,103.2093,35.5995,临夏回族自治州,新华街21号,,,,51,36,39,83,,87,86,12,14,7,6,0.5,0.6
2025-08-25T2100,1618A,118.3429,35.0532,临沂市,沂河小区,细颗粒物(PM2.5),64,66,49,46,39,104,,116,115,19,20,17,11,0.7,0.6
2025-08-25T2100,1619A,118.295,35.0583,临沂市,鲁南制药厂,细颗粒物(PM2.5),60,61,48,43,33,99,,120,119,20,17,16,11,0.6,0.5
2025-08-25T2100,1620A,118.2794,34.9976,临沂市,新光毛纺厂,细颗粒物(PM2.5),54,53,50,38,36,102,,119,118,21,22,15,11,0.7,0.6
2025-08-25T2100,1621A,118.3956,35.0888,临沂市,河东保险公司,细颗粒物(PM2.5),54,56,46,38,29,117,,128,128,17,19,12,8,0.5,0.4
2025-08-25T2100,3370A,118.3564,35.0215,临沂市,十里堡居委,细颗粒物(PM2.5),77,63,52,56,47,110,,119,119,21,23,16,13,0.7,0.6
2025-08-25T2100,3496A,118.3604,35.1084,临沂市,南坊新区,颗粒物(PM10),60,70,54,34,29,106,,124,123,22,23,12,9,0.8,0.6
2025-08-25T2100,3860A,118.3920,35.0300,临沂市,皇山花园小区,细颗粒物(PM2.5),65,56,63,47,40,110,,116,116,17,22,15,12,0.7,0.7
2025-08-25T2100,1870A,109.4856,24.3895,柳州市,柳东小学,,20,15,21,13,12,64,,78,71,5,8,4,5,0.2,0.3
2025-08-25T2100,1871A,109.4157,24.3277,柳州市,环保监测站,,16,15,30,10,13,49,,70,58,12,12,7,10,0.1,0.3
2025-08-25T2100,1872A,109.389,24.341,柳州市,河西水厂,,26,26,29,10,24,54,,71,62,10,12,4,7,0.4,0.5
2025-08-25T2100,1873A,109.4311,24.2921,柳州市,市四中,,16,16,25,8,13,51,,68,59,11,13,6,9,0.2,0.3
2025-08-25T2100,1874A,109.4006,24.3631,柳州市,市九中,,48,48,36,7,13,46,,69,59,10,12,4,6,0.2,0.2
2025-08-25T2100,1875A,109.4958,24.3134,柳州市,古亭山,,40,40,24,21,11,23,,65,48,18,14,6,6,0.5,0.5
2025-08-25T2100,3402A,109.5422,24.3996,柳州市,市二中,,14,11,23,8,12,42,,77,63,13,12,5,6,0.6,0.6
2025-08-25T2100,2307A,116.5079,31.737,六安市,监测大楼,,39,25,25,3,10,122,,84,,3,7,33,5,0,0.3
2025-08-25T2100,2308A,116.4738,31.7643,六安市,皖西学院,,15,15,24,9,11,44,,98,80,5,4,3,3,0.2,0.3
2025-08-25T2100,2309A,116.4996,31.7905,六安市,朝阳厂,,13,12,18,8,11,40,,92,74,11,11,5,5,0.2,0.3
2025-08-25T2100,2310A,116.5567,31.7886,六安市,开发区,,29,,19,20,13,31,,88,68,15,10,3,2,0.3,0.4
2025-08-25T2100,2576A,104.8,26.5892,六盘水市,窑上,,26,26,24,10,3,28,,55,51,2,3,3,5,0.1,0.2
2025-08-25T2100,2577A,104.83,26.5917,六盘水市,黄土坡,,19,18,12,13,7,36,,54,52,9,8,8,9,0.2,0.2
2025-08-25T2100,2578A,104.89,26.5939,六盘水市,水钢,,24,24,21,15,17,41,,58,56,6,4,12,11,0.1,0.1
2025-08-25T2100,2579A,104.8475,26.5894,六盘水市,民中,,13,11,11,3,4,39,,54,53,5,5,1,5,0.2,0.2
2025-08-25T2100,2580A,104.9544,26.5506,六盘水市,双水,,11,9,8,6,7,35,,53,50,12,6,6,6,0.2,0.2
2025-08-25T2100,2335A,117.0189,25.1181,龙岩市,龙岩师专,,,,,,,,,,,,,,,,
2025-08-25T2100,2336A,117.0217,25.1033,龙岩市,龙岩市监测站,,,,18,4,8,46,,75,64,12,8,4,6,0.5,0.5
2025-08-25T2100,2337A,117.0258,25.0661,龙岩市,闽西职业技术学院,,14,,15,3,7,42,,71,60,13,7,6,5,0.6,0.6
2025-08-25T2100,2338A,117.0196,25.0306,龙岩市,龙岩学院,,,,16,2,8,49,,75,64,7,9,6,7,0.4,0.4
2025-08-25T2100,2665A,105.0822,33.3261,陇南市,汉王镇固水子,,,,,,,,,,,,,,,,
2025-08-25T2100,2885A,104.9339,33.3826,陇南市,滨江中学,,28,28,24,19,12,66,,68,68,2,3,8,8,0.6,0.7
2025-08-25T2100,3247A,104.955,33.371,陇南市,市总工会,,25,25,27,8,6,74,,76,75,5,5,6,6,0.6,0.7
2025-08-25T2100,2487A,111.9589,27.8901,娄底市,电视发射台,,19,16,27,13,13,44,,80,61,5,8,4,5,0.4,0.7
2025-08-25T2100,2488A,111.9975,27.725,娄底市,市监测站,,23,,34,16,19,66,,86,74,13,16,10,15,0.6,1
2025-08-25T2100,2489A,112.0194,27.7314,娄底市,市委党校,,33,33,31,16,18,38,,80,64,24,12,16,15,0.7,0.6
2025-08-25T2100,2490A,111.9561,27.7569,娄底市,涟钢,,44,44,39,8,19,25,,74,55,26,20,3,7,0.9,0.9
2025-08-25T2100,2491A,111.9892,27.7044,娄底市,市政府,细颗粒物(PM2.5),59,,29,42,19,46,,80,70,18,10,8,9,1.2,0.7
2025-08-25T2100,1893A,105.4324,28.9634,泸州市,九狮山,细颗粒物(PM2.5),55,,20,39,22,60,,112,104,13,8,6,7,0.4,0.3
2025-08-25T2100,1894A,105.4427,28.9063,泸州市,小市上码头,,,34,17,13,4,75,,93,91,12,6,4,4,,0
2025-08-25T2100,1895A,105.4241,28.8573,泸州市,兰田宪桥,,42,42,22,16,6,75,,114,109,7,9,7,7,0.4,0.3
2025-08-25T2100,1896A,105.4379,28.8833,泸州市,市环监站,,34,33,15,20,10,107,,120,118,12,10,9,8,0.2,0.2
2025-08-25T2100,4272A,105.3689,28.7783,泸州市,纳溪中医医院,,31,31,17,20,10,97,,133,131,18,17,2,2,0.4,0.4
2025-08-25T2100,2183A,111.1406,37.5211,吕梁市,环保局,,,,50,,18,,,141,141,47,25,5,5,1.0,0.8
2025-08-25T2100,2185A,111.1297,37.5136,吕梁市,自来水公司,,,,46,,17,65,,124,118,17,18,2,4,0.7,0.7
2025-08-25T2100,2867A,111.1283,37.51,吕梁市,马茂庄小学,颗粒物(PM10),68,85,53,28,18,44,,134,124,41,25,2,4,0.8,0.7
2025-08-25T2100,1812A,112.3931,34.6516,洛阳市,市委党校,细颗粒物(PM2.5),70,71,49,51,35,130,,141,140,11,13,11,11,0.8,0.7
2025-08-25T2100,1815A,112.494,34.6886,洛阳市,河南林校,细颗粒物(PM2.5),72,87,73,52,36,134,,153,153,19,20,8,9,0.8,0.7
2025-08-25T2100,1816A,112.3844,34.623,洛阳市,开发区管委会,,,65,48,52,36,,,157,157,13,10,6,6,0.9,0.8
2025-08-25T2100,1817A,112.4267,34.6258,洛阳市,市委新办公区,细颗粒物(PM2.5),83,68,47,61,38,115,,140,139,14,13,8,9,0.8,0.7
2025-08-25T2100,3340A,112.6005,34.6326,洛阳市,伊滨,细颗粒物(PM2.5),82,97,61,60,42,100,,135,132,17,14,7,9,1.0,0.9
2025-08-25T2100,3341A,112.4951,34.6332,洛阳市,中移产业园,细颗粒物(PM2.5),74,75,55,54,42,101,,141,139,32,19,8,9,0.9,0.8
2025-08-25T2100,3593A,112.5736,34.8993,洛阳市,吉利监测站,细颗粒物(PM2.5),62,57,61,44,39,107,,132,131,17,10,6,6,1.1,1
2025-08-25T2100,3635A,112.3677,34.662,洛阳市,河科大西苑校区,"颗粒物(PM10),细颗粒物(PM2.5)",60,70,53,43,27,139,,152,152,15,15,8,9,0.9,0.8
2025-08-25T2100,3636A,112.4388,34.6781,洛阳市,英才小学,细颗粒物(PM2.5),93,85,63,69,57,128,,143,143,15,14,7,8,1.0,0.9
2025-08-25T2100,4214A,112.4600,34.6949,洛阳市,春都路1号院,细颗粒物(PM2.5),65,70,47,47,35,117,,132,132,14,15,7,9,1.0,0.9
2025-08-25T2100,2399A,114.051,33.5699,漯河市,三五一五工厂,,45,39,26,31,21,76,,90,86,11,9,5,5,0.6,0.6
2025-08-25T2100,2400A,114.0055,33.5698,漯河市,漯河大学,,45,35,24,31,19,85,,92,90,11,8,4,4,0.6,0.6
2025-08-25T2100,2401A,114.0138,33.5828,漯河市,市水利局,颗粒物(PM10),52,53,31,34,23,83,,90,88,12,8,6,5,0.5,0.5
2025-08-25T2100,2402A,114.0261,33.5698,漯河市,市广电局,细颗粒物(PM2.5),58,,24,41,26,88,,99,96,10,8,4,3,0.6,0.5
2025-08-25T2100,3478A,113.9749,33.5664,漯河市,市图书馆,细颗粒物(PM2.5),58,,26,41,20,73,,88,86,10,7,5,5,0.4,0.4
2025-08-25T2100,4250A,114.0892,33.5882,漯河市,韶山路11号,,38,38,27,23,21,69,,88,84,14,10,3,3,0.6,0.6
2025-08-25T2100,1798A,118.5092,31.6837,马鞍山市,湖东路四小,,23,,34,16,17,70,,161,123,11,13,7,8,0.9,0.7
2025-08-25T2100,1799A,118.5024,31.6449,马鞍山市,开发区,,24,22,38,9,14,76,,165,125,6,15,7,10,0.5,0.6
2025-08-25T2100,1802A,118.6245,31.7241,马鞍山市,濮塘,,26,19,29,14,15,81,,180,132,7,8,7,9,0.9,0.8
2025-08-25T2100,3633A,118.4918,31.6809,马鞍山市,雨山,,30,30,37,9,15,68,,153,115,11,15,9,8,0.6,0.7
2025-08-25T2100,4191A,118.5274,31.72227,马鞍山市,慈湖高新区,,22,22,36,10,15,59,,151,116,20,18,9,9,1.2,0.6
2025-08-25T2100,1686A,111.0286,21.4688,茂名市,电白南海,,24,24,23,7,9,21,,33,30,8,5,4,4,0.6,0.7
2025-08-25T2100,1687A,110.9294,21.6533,茂名市,茂石化七小,,,9,12,3,5,23,,29,28,,7,5,6,,0.4
2025-08-25T2100,1688A,110.9107,21.6687,茂名市,健康路,,9,9,6,3,4,24,,31,30,8,7,4,4,0.8,0.8
2025-08-25T2100,1689A,110.8592,21.6828,茂名市,高岭,,12,12,16,3,0,26,,32,32,9,10,10,10,0.6,0.6
2025-08-25T2100,3450A,111.01,21.5165,茂名市,电白水东,,9,9,10,3,5,24,,35,34,8,6,5,5,0.6,0.6
2025-08-25T2100,2539A,104.0308,30.0478,眉山市,黑龙滩水库,,32,,8,16,6,102,,109,109,5,2,3,2,0.3,0.3
2025-08-25T2100,2540A,103.8416,30.0874,眉山市,气象局,,34,34,23,14,4,61,,88,84,25,9,13,12,0.6,0.5
2025-08-25T2100,3137A,103.8578,30.0744,眉山市,市委党校,,29,29,11,17,2,68,,81,80,23,10,7,7,0.6,0.5
2025-08-25T2100,3148A,103.8291,30.0564,眉山市,区人社局,,32,32,18,9,1,70,,81,80,21,13,10,9,0.7,0.6
2025-08-25T2100,1690A,116.1231,24.3284,梅州市,梅江月梅,,42,42,25,13,15,47,,90,77,21,12,8,10,0.6,0.7
2025-08-25T2100,1691A,116.0797,24.2719,梅州市,梅县新城,,15,15,26,3,13,42,,91,75,15,11,6,8,0.6,0.5
2025-08-25T2100,1692A,116.1248,24.2654,梅州市,环境监控中心,,20,20,28,11,15,32,,86,68,16,13,4,6,0.6,0.6
2025-08-25T2100,3315A,116.1233,24.2991,梅州市,梅龙,,19,19,25,8,13,50,,86,74,14,10,7,9,0.7,0.6
2025-08-25T2100,1878A,104.7778,31.4741,绵阳市,富乐山,,19,18,16,13,10,26,,49,47,9,5,8,8,0.5,0.5
2025-08-25T2100,1880A,104.6697,31.4668,绵阳市,高新区自来水公司,,22,22,16,7,5,19,,42,36,27,12,8,8,0.5,0.5
2025-08-25T2100,1881A,104.7287,31.5075,绵阳市,三水厂,,20,,14,14,10,15,,44,38,28,10,8,8,0.5,0.4
2025-08-25T2100,3491A,104.69,31.5322,绵阳市,西科大附属小学,,25,25,62,13,10,14,,43,35,28,12,8,8,0.7,0.7
2025-08-25T2100,3492A,104.5648,31.5343,绵阳市,安州区旅游局,,,25,16,12,3,,,46,43,9,9,10,8,0.3,0.3
2025-08-25T2100,4226A,104.7651,31.4531,绵阳市,绵阳市气象局,,23,23,14,15,9,23,,46,39,19,8,9,9,0.4,0.4
2025-08-25T2100,1784A,129.61,44.561,牡丹江市,环保大楼,,18,13,17,12,11,43,,41,41,10,16,4,4,0.3,0.3
2025-08-25T2100,1785A,129.6115,44.5782,牡丹江市,文化广场,,26,21,20,18,21,45,,38,37,10,18,6,6,0.5,0.5
2025-08-25T2100,1786A,129.5904,44.5963,牡丹江市,第一医院,,18,,18,12,16,46,,42,41,11,19,7,7,0.2,0.3
2025-08-25T2100,1787A,129.6364,44.6075,牡丹江市,机车工厂,,14,,18,9,9,42,,40,39,8,14,6,6,0.4,0.4
2025-08-25T2100,1788A,129.6386,44.5462,牡丹江市,第一中学,,13,8,19,7,9,39,,38,35,11,15,6,6,0.2,0.3
2025-08-25T2100,2531A,105.0703,29.61,内江市,市监测站,,22,21,14,12,11,70,,101,98,11,7,1,1,0.7,0.7
2025-08-25T2100,2532A,105.0717,29.5947,内江市,东兴区政府,,22,15,17,9,5,69,,100,93,12,10,6,6,1.8,0.8
2025-08-25T2100,2533A,105.0653,29.5817,内江市,内江二中,,30,30,16,15,10,74,,98,97,13,9,3,3,0.6,0.6
2025-08-25T2100,2534A,105.0406,29.5822,内江市,内江日报社,,32,32,14,17,11,84,,107,104,11,10,8,8,0.4,0.4
2025-08-25T2100,2628A,92.0657,31.4846,那曲市,那曲监测站,,45,45,24,27,12,47,,64,62,39,15,9,7,0.8,0.5
2025-08-25T2100,4243A,92.0515,31.4787,那曲市,那曲市委宣传部,,,22,12,11,6,34,,70,64,15,9,,4,0.4,0.4
2025-08-25T2100,1290A,115.8931,28.6843,南昌市,省外办,,30,30,24,19,18,57,,112,94,14,11,6,6,0.6,0.5
2025-08-25T2100,1291A,115.8886,28.7003,南昌市,省林业公司,,32,22,22,22,13,52,,114,94,15,9,3,4,0.5,0.5
2025-08-25T2100,1292A,115.8126,28.7442,南昌市,林科所,,25,,19,9,10,78,,120,97,8,21,3,5,0.4,0.6
2025-08-25T2100,1294A,115.8518,28.687,南昌市,建工学校,,24,24,25,12,17,70,,112,96,19,17,6,8,0.6,0.6
2025-08-25T2100,1295A,115.8921,28.6424,南昌市,象湖,,25,25,21,12,10,74,,119,105,14,14,7,8,0.5,0.5
2025-08-25T2100,1296A,115.7423,28.7996,南昌市,武术学校,,22,22,16,12,10,40,,93,67,9,9,8,10,0.5,0.5
2025-08-25T2100,3046A,115.9084,28.6062,南昌市,机电学校,,25,25,29,12,11,76,,124,112,14,12,6,7,0.5,0.5
2025-08-25T2100,3690A,115.9721,28.7031,南昌市,外国语学校,,25,25,30,11,11,58,,128,108,19,14,6,9,0.4,0.5
2025-08-25T2100,4192A,115.9316,28.68677,南昌市,南京东路235号,,34,34,29,7,11,61,,116,99,13,14,9,8,0.6,0.6
2025-08-25T2100,1905A,106.056,30.8064,南充市,西山风景区,,,,,,,,,,,,,,,,
2025-08-25T2100,1906A,106.0789,30.8023,南充市,南充市委,,23,23,19,16,13,61,,110,108,18,10,4,4,0.4,0.4
2025-08-25T2100,1907A,106.1031,30.8217,南充市,南充炼油厂,,27,27,27,10,12,69,,105,105,9,6,4,5,0.2,0.2
2025-08-25T2100,4227A,106.1083,30.7884,南充市,梨树横街98号,,33,30,19,23,13,84,,127,127,11,6,3,3,0.2,0.2
2025-08-25T2100,4304A,106.1172,30.843,南充市,清泉寺北路188号,,28,25,20,19,13,75,,110,110,11,7,4,3,0.3,0.4
2025-08-25T2100,4305A,106.067,30.7616,南充市,同庆路1号,,,15,20,14,11,,,121,121,14,11,4,4,0.4,0.3
2025-08-25T2100,1151A,118.8086,32.1065,南京市,迈皋桥,,25,13,20,9,11,79,,184,154,17,25,4,4,1.0,0.8
2025-08-25T2100,1152A,118.7538,32.0551,南京市,草场门,,,12,23,7,10,,,166,142,12,23,2,4,0.6,0.7
2025-08-25T2100,1153A,118.7794,32.0745,南京市,山西路,,25,9,28,3,6,80,,180,151,6,17,3,4,0.5,0.6
2025-08-25T2100,1154A,118.7752,32.0023,南京市,中华门,,,12,20,3,8,,,152,129,8,13,4,4,0.7,1
2025-08-25T2100,1155A,118.8109,32.0309,南京市,瑞金路,,22,9,20,3,10,68,,170,137,18,25,7,7,0.5,0.5
2025-08-25T2100,1156A,118.7997,32.0754,南京市,玄武湖,,22,6,25,3,6,68,,162,133,11,10,4,4,0.5,0.5
2025-08-25T2100,1157A,118.6414,32.0931,南京市,浦口,,23,15,26,3,8,72,,158,137,7,13,5,6,0.7,0.7
2025-08-25T2100,1158A,118.7356,31.9996,南京市,奥体中心,,25,6,24,3,10,78,,161,132,10,21,5,7,0.4,0.5
2025-08-25T2100,1159A,118.9125,32.1028,南京市,仙林大学城,,19,17,31,3,7,59,,184,145,14,14,8,9,0.9,0.8
2025-08-25T2100,3422A,118.8436,31.9198,南京市,江宁彩虹桥,,24,21,27,12,11,75,,173,137,12,12,4,4,0.5,0.5
2025-08-25T2100,3427A,118.8554,32.3578,南京市,六合雄州,,22,14,24,3,8,68,,131,110,9,14,4,5,0.6,0.7
2025-08-25T2100,4249A,118.8708,31.3402,南京市,汶溪路181号,,,,27,9,17,,,152,135,8,10,6,7,0.5,0.5
2025-08-25T2100,4312A,119.019,31.6512,南京市,中山西路1号,,20,12,22,9,14,61,,121,94,12,15,3,4,0.6,0.6
2025-08-25T2100,1401A,108.3103,22.7881,南宁市,二十一中,,16,11,17,11,10,46,,52,48,11,9,4,5,0.5,0.4
2025-08-25T2100,1402A,108.3141,22.8528,南宁市,北湖,,26,26,21,14,12,49,,58,58,12,11,4,6,0.3,0.2
2025-08-25T2100,1403A,108.3206,22.8225,南宁市,市监测站,,24,24,20,12,12,43,,54,53,18,12,5,5,0.4,0.4
2025-08-25T2100,1404A,108.3829,22.8037,南宁市,大自然花园,,20,20,20,12,13,54,,54,50,11,9,5,5,0.6,0.6
2025-08-25T2100,1405A,108.4394,22.7904,南宁市,仙葫,,18,13,23,12,11,50,,53,48,9,8,4,5,0.3,0.4
2025-08-25T2100,1406A,108.2397,22.8467,南宁市,区农职院,,18,,20,12,10,42,,51,49,19,14,6,8,0.3,0.3
2025-08-25T2100,1407A,108.3275,22.735,南宁市,英华嘉园,,16,12,19,11,14,25,,53,45,11,8,1,1,0.3,0.3
2025-08-25T2100,3401A,108.4834,22.7618,南宁市,红星社区,,18,18,20,9,12,30,,58,48,18,12,2,2,0.5,0.4
2025-08-25T2100,4221A,108.2177,22.7774,南宁市,乐贤路16号,,18,,22,12,13,14,,52,42,30,18,2,2,0.4,0.3
2025-08-25T2100,2331A,118.0966,26.6761,南平市,茫荡山,,,,,,,,,,,,,,,,
2025-08-25T2100,2332A,118.1681,26.6369,南平市,南平市监测站,,12,12,12,3,4,21,,57,42,15,8,4,4,0.5,0.4
2025-08-25T2100,2333A,118.1825,26.6489,南平市,南平铝业有限公司,,25,25,15,8,8,23,,56,43,14,7,4,5,0.7,0.5
2025-08-25T2100,2334A,118.1756,26.6272,南平市,南平七中,,8,,19,3,6,19,,58,42,13,7,3,4,0.7,0.6
2025-08-25T2100,1168A,120.9098,31.9663,南通市,狼山街道,,23,19,29,11,16,10,,145,61,45,23,2,5,0.9,0.9
2025-08-25T2100,1169A,120.86,32.0005,南通市,虹桥,,26,26,29,10,18,28,,153,75,52,28,4,6,1.2,1
2025-08-25T2100,1170A,120.87,32.02,南通市,城中,,28,21,34,13,15,17,,124,60,55,24,6,7,1.2,0.9
2025-08-25T2100,1171A,120.94,31.93,南通市,星湖花园,,25,16,26,14,17,20,,148,71,50,23,2,4,0.7,0.6
2025-08-25T2100,1172A,120.81,32.0417,南通市,紫琅学院,,25,25,30,14,14,25,,147,70,43,25,8,6,1.8,0.8
2025-08-25T2100,3291A,121.067,32.062,南通市,通州监测站,,18,14,25,9,13,27,,129,70,36,15,1,2,0.7,0.7
2025-08-25T2100,3432A,120.9348,31.9883,南通市,环境教育馆,,17,17,32,9,15,21,,137,62,34,21,2,5,0.4,0.5
2025-08-25T2100,2404A,112.5224,33.0122,南阳市,瓦房庄,,39,39,30,23,16,83,,98,98,6,6,7,7,0.5,0.5
2025-08-25T2100,2405A,112.5003,32.9735,南阳市,汉画馆,,33,33,26,17,13,77,,96,96,9,9,7,7,0.6,0.6
2025-08-25T2100,2406A,112.5573,33.027,南阳市,气象站,,,29,23,19,14,84,,101,101,9,8,,8,0.5,0.5
2025-08-25T2100,2407A,112.5481,32.9689,南阳市,理工学院,,37,37,27,16,10,80,,100,100,6,7,8,8,0.6,0.6
2025-08-25T2100,4008A,112.5234,32.9922,南阳市,卧龙区政府,,35,35,27,17,20,77,,96,96,12,11,6,6,0.6,0.6
2025-08-25T2100,1234A,121.8358,29.911,宁波市,区环保大楼,,21,21,23,6,6,38,,76,64,12,10,4,5,0.3,0.3
2025-08-25T2100,1235A,121.56,29.82,宁波市,万里学院,,19,17,16,13,8,45,,93,84,10,7,7,7,0.4,0.4
2025-08-25T2100,1236A,121.713,29.9572,宁波市,龙赛医院,,26,26,20,6,6,37,,88,75,12,10,4,5,0.3,0.3
2025-08-25T2100,1239A,121.633,29.7733,宁波市,钱湖水厂,,15,12,12,3,6,45,,90,78,8,9,5,6,0.3,0.3
2025-08-25T2100,1240A,121.5856,29.8635,宁波市,太古小学,,19,19,18,10,7,45,,89,79,7,6,2,4,0.4,0.4
2025-08-25T2100,1241A,121.524,29.8674,宁波市,市环境监测中心,,23,23,18,11,5,45,,94,79,11,9,8,8,0.5,0.5
2025-08-25T2100,2871A,121.6147,29.9017,宁波市,万里国际学校,,18,18,14,8,7,50,,96,84,7,7,4,5,0.6,0.6
2025-08-25T2100,3710A,121.5594,29.8975,宁波市,白沙活动中心,,16,16,15,9,6,47,,99,84,11,9,5,6,0.3,0.3
2025-08-25T2100,2339A,119.5001,26.6946,宁德市,金涵水库,,,,,,,,,,,,,,,,
2025-08-25T2100,2341A,119.5388,26.6612,宁德市,宁德市监测站,,13,,19,9,11,30,,53,47,7,7,3,3,0.3,0.4
2025-08-25T2100,3209A,119.5231,26.6562,宁德市,宁德一中,,10,8,15,3,6,31,,55,49,4,4,3,4,0.2,0.2
2025-08-25T2100,2618A,98.8601,25.8567,怒江傈僳族自治州,州监测站,,25,25,20,12,10,32,,49,47,6,7,6,4,0.4,0.4
2025-08-25T2100,2619A,98.8546,25.8417,怒江傈僳族自治州,泸水一中,,,7,15,,8,20,,36,34,9,9,4,4,0.4,0.5
2025-08-25T2100,1888A,101.6891,26.571,攀枝花市,弄弄坪,,50,50,36,16,12,43,,71,70,19,16,8,7,1.0,0.8
2025-08-25T2100,1889A,101.5769,26.5928,攀枝花市,河门口,,26,26,30,12,16,54,,73,73,11,18,9,14,0.7,1.3
2025-08-25T2100,1890A,101.7169,26.585,攀枝花市,炳草岗,,35,35,30,24,14,33,,71,68,25,16,9,9,0.8,0.7
2025-08-25T2100,1891A,101.7369,26.5008,攀枝花市,仁和,,38,38,24,23,14,29,,68,60,13,9,8,9,0.7,0.6
2025-08-25T2100,2835A,101.7227,26.567,攀枝花市,四十中小,,30,30,20,14,10,40,,75,73,29,12,9,9,1.4,0.8
2025-08-25T2100,1604A,122.0303,41.1489,盘锦市,开发区,,21,18,10,11,8,66,,74,72,15,9,7,7,0.5,0.5
2025-08-25T2100,1605A,122.0485,41.0883,盘锦市,兴隆台,,22,22,11,6,5,65,,70,66,12,12,5,5,0.4,0.4
2025-08-25T2100,1606A,121.8297,41.1028,盘锦市,新生街道,,20,9,9,9,7,24,,64,55,40,15,4,4,0.5,0.5
2025-08-25T2100,1832A,113.3257,33.742,平顶山市,新华旅馆,颗粒物(PM10),51,52,46,27,25,68,,99,96,14,14,6,5,0.7,0.6
2025-08-25T2100,1833A,113.2919,33.737,平顶山市,规划设计院,,46,45,37,32,29,80,,107,107,12,15,5,4,0.8,0.6
2025-08-25T2100,1834A,113.182,33.774,平顶山市,平顶山工学院,细颗粒物(PM2.5),55,46,33,39,24,86,,117,116,20,12,6,5,0.8,0.6
2025-08-25T2100,3204A,113.3025,33.73,平顶山市,规划局,,34,34,40,23,21,83,,111,111,12,14,7,5,0.7,0.6
2025-08-25T2100,3594A,112.8867,33.9116,平顶山市,石龙区,细颗粒物(PM2.5),53,48,42,37,27,100,,127,125,16,14,7,8,0.7,0.7
2025-08-25T2100,2656A,106.6692,35.5461,平凉市,聚贤嘉苑,,37,37,43,16,18,69,,84,77,12,21,9,10,0.9,0.8
2025-08-25T2100,2657A,106.7021,35.5307,平凉市,博物馆,,41,41,38,21,16,76,,84,77,9,19,9,8,0.5,0.5
2025-08-25T2100,2347A,114.0997,27.5002,萍乡市,武功山,,10,,5,3,4,29,,59,50,5,4,7,8,0.7,0.6
2025-08-25T2100,2348A,113.8385,27.6434,萍乡市,中医院,,36,36,26,17,13,56,,113,82,18,17,11,14,0.7,0.9
2025-08-25T2100,2349A,113.8493,27.6253,萍乡市,市政府车库,,35,35,17,15,14,43,,88,70,24,12,15,12,1.4,0.6
2025-08-25T2100,2350A,113.8676,27.6435,萍乡市,市环保局,,32,32,27,18,16,53,,105,82,16,14,10,11,1.0,0.9
2025-08-25T2100,2351A,113.866,27.6198,萍乡市,安源区政府,,38,,26,26,15,41,,86,70,20,9,16,15,1.4,0.8
2025-08-25T2100,2319A,119.0141,25.4325,莆田市,荔城区仓后路,,22,22,21,3,6,31,,59,52,7,6,7,7,0.5,0.6
2025-08-25T2100,2320A,119.0015,25.4553,莆田市,莆田市监测站,,,,17,2,6,31,,60,54,6,6,4,5,0.3,0.4
2025-08-25T2100,2321A,119.1119,25.4561,莆田市,涵江区六中,,9,8,17,3,6,28,,60,52,8,7,4,4,0.3,0.4
2025-08-25T2100,2322A,119.1013,25.3215,莆田市,秀屿区政府,,8,6,26,3,8,23,,47,41,8,9,4,5,0.3,0.4
2025-08-25T2100,2323A,118.981,25.4792,莆田市,东圳水库,,,,,,,,,,,,,,,,
2025-08-25T2100,2392A,115.0312,35.7636,濮阳市,环保局,,32,24,23,18,17,102,,128,125,17,10,5,5,0.7,0.6
2025-08-25T2100,2394A,115.0574,35.7609,濮阳市,油田运输公司,,39,39,30,13,16,96,,133,128,18,8,4,4,0.7,0.6
2025-08-25T2100,3021A,115,35.7668,濮阳市,濮水河管理处,,33,33,30,11,14,58,,113,102,16,9,2,3,0.6,0.5
2025-08-25T2100,4216A,115.0924,35.7686,濮阳市,任丘路479号,,45,45,35,14,15,90,,126,121,19,9,5,3,0.7,0.7
2025-08-25T2100,2601A,100.98,22.7633,普洱市,市环保局,,33,33,27,14,12,29,,51,48,9,7,6,6,0.6,0.6
2025-08-25T2100,2602A,100.9817,22.8322,普洱市,普洱第二中学,,42,,26,29,13,25,,52,49,14,7,6,6,0.5,0.4
2025-08-25T2100,2262A,131.0518,45.8751,七台河市,新一中,,17,,16,11,9,53,,80,74,12,14,9,10,0.8,0.8
2025-08-25T2100,3345A,131.0577,45.7879,七台河市,中波台,,17,,6,8,7,53,,63,61,14,18,7,8,0.4,0.4
2025-08-25T2100,3637A,131.0176,45.7761,七台河市,人民广场,,19,17,24,10,13,59,,65,63,13,15,10,10,0.6,0.7
2025-08-25T2100,3684A,130.8781,45.8222,七台河市,新建矿广场,,18,,11,10,7,57,,54,50,7,16,11,11,0.3,0.4
2025-08-25T2100,1779A,123.9305,47.3636,齐齐哈尔市,安居小区,,24,24,28,10,10,28,,52,50,28,19,2,1,0.7,0.6
2025-08-25T2100,1780A,123.9488,47.3386,齐齐哈尔市,中心广场,,30,30,22,3,4,50,,59,58,20,15,5,5,0.5,0.5
2025-08-25T2100,1781A,123.9483,47.3227,齐齐哈尔市,农牧车辆厂,,39,39,28,13,9,31,,59,55,27,16,6,6,0.5,0.4
2025-08-25T2100,1783A,123.945,47.2988,齐齐哈尔市,市环境监测站,,33,33,20,11,8,25,,59,55,29,15,6,6,0.5,0.5
2025-08-25T2100,3662A,123.6333,47.2075,齐齐哈尔市,富区青少年活动中心,,30,30,29,14,14,31,,51,47,19,14,5,5,0.7,0.5
2025-08-25T2100,2591A,107.9783,26.5747,黔东南苗族侗族自治州,市环境监测站,,18,13,15,12,12,27,,51,44,9,7,2,2,0.3,0.4
2025-08-25T2100,2881A,107.8908,26.5311,黔东南苗族侗族自治州,凯里学院,,17,17,11,7,8,25,,48,42,10,8,3,3,0.4,0.4
2025-08-25T2100,2593A,107.5228,26.2403,黔南布依族苗族自治州,小围寨,,12,12,7,3,1,26,,42,38,5,6,3,2,0.2,0.3
2025-08-25T2100,3538A,107.5175,26.2978,黔南布依族苗族自治州,沙坝,,9,7,12,3,0,27,,40,37,5,5,3,3,0.3,0.2
2025-08-25T2100,2589A,104.9022,25.0925,黔西南布依族苗族自治州,场坝街,,24,24,17,10,7,39,,47,43,7,8,3,13,0.3,0.3
2025-08-25T2100,2590A,104.8811,25.0992,黔西南布依族苗族自治州,坪东大道,,26,,20,18,12,30,,47,41,7,6,2,3,0.5,0.5
2025-08-25T2100,2502A,108.6236,21.9667,钦州市,市环保站,,,17,20,7,6,,,38,38,14,10,2,2,0.4,0.5
2025-08-25T2100,2503A,108.6549,21.9481,钦州市,沙埠小学,,10,6,16,3,9,32,,41,40,6,8,3,3,0.3,0.4
2025-08-25T2100,2504A,108.5989,21.7431,钦州市,港区一小,,20,20,18,6,6,17,,33,28,20,12,3,3,0.5,0.5
2025-08-25T2100,3404A,108.5959,21.9633,钦州市,北职校,,15,15,17,6,8,26,,40,37,9,8,1,2,0.5,0.5
2025-08-25T2100,1043A,119.7493,40.0116,秦皇岛市,第一关,,27,27,14,3,6,38,,87,79,35,17,5,5,0.2,0.2
2025-08-25T2100,1044A,119.5897,39.9499,秦皇岛市,监测站,,23,23,26,7,5,68,,99,95,21,10,5,4,0.4,0.4
2025-08-25T2100,1046A,119.5251,39.9041,秦皇岛市,建设大厦,,32,22,23,22,9,77,,97,95,10,8,6,6,0.4,0.4
2025-08-25T2100,3132A,119.610547,39.943889,秦皇岛市,文明里,,,20,18,8,8,,,95,95,14,9,5,5,0.3,0.3
2025-08-25T2100,4198A,119.5090,39.8253,秦皇岛市,北戴河轮滑馆,,26,26,22,14,11,66,,92,89,9,7,2,2,0.4,0.4
2025-08-25T2100,1307A,120.6659,36.2403,青岛市,仰口,,33,23,28,23,22,87,,132,115,2,5,9,9,1.3,1.1
2025-08-25T2100,1310A,120.4134,36.0658,青岛市,市南区东部子站,,34,34,27,22,22,87,,146,129,13,16,6,6,0.6,0.3
2025-08-25T2100,1311A,120.3664,36.1032,青岛市,四方区子站,,42,31,27,29,21,105,,145,139,5,14,6,9,0.7,0.3
2025-08-25T2100,1312A,120.2994,36.054,青岛市,市南区西部子站,,35,34,27,24,18,95,,124,113,11,23,5,5,1.2,0.8
2025-08-25T2100,1313A,120.4581,36.0858,青岛市,崂山区子站,,29,29,27,19,16,91,,142,130,12,13,8,8,0.6,0.4
2025-08-25T2100,1315A,120.3999,36.3083,青岛市,城阳区子站,,34,34,33,20,19,90,,136,123,13,13,7,7,1.0,0.8
2025-08-25T2100,1966A,120.0405,35.8735,青岛市,黄岛区4号,,35,31,25,24,15,101,,138,120,13,14,6,6,1.1,0.7
2025-08-25T2100,3362A,120.5014,36.4034,青岛市,即墨2号,,32,26,34,22,27,96,,132,124,10,12,3,4,0.7,0.5
2025-08-25T2100,3642A,120.3503,36.0736,青岛市,市北区南部,,35,,27,24,19,85,,139,127,17,22,7,6,1.3,0.8
2025-08-25T2100,3643A,120.3948,36.1805,青岛市,李沧区北部,,49,,24,34,24,89,,128,116,11,12,5,5,0.9,0.5
2025-08-25T2100,4290A,120.1969,35.9546,青岛市,珠江路669号,,46,34,25,32,21,79,,147,123,20,16,6,6,1.0,0.6
2025-08-25T2100,1702A,113.0426,23.691,清远市,环保大楼,,30,30,19,9,11,49,,82,78,31,12,9,9,0.7,0.7
2025-08-25T2100,1703A,113.0208,23.7106,清远市,凤城街办,,31,30,17,10,7,20,,71,63,62,17,8,9,0.6,0.4
2025-08-25T2100,3025A,113.0477,23.6344,清远市,技师学院,,30,30,24,13,10,36,,78,71,32,17,8,12,0.5,0.4
2025-08-25T2100,3318A,112.9903,23.7403,清远市,清新太和,,16,15,15,3,6,51,,77,74,22,12,7,7,0.4,0.4
2025-08-25T2100,3455A,113.076,23.7198,清远市,清城东城,,31,31,19,10,8,43,,74,71,24,12,7,8,0.6,0.5
2025-08-25T2100,2661A,107.6325,35.7357,庆阳市,庆阳五中,,41,41,31,18,17,76,,96,90,15,12,7,7,0.6,0.5
2025-08-25T2100,2662A,107.6364,35.7067,庆阳市,市环保局,,38,38,27,17,14,78,,100,94,15,8,5,4,0.7,0.5
2025-08-25T2100,1916A,103.7897,25.5035,曲靖市,环境监测站,,49,49,20,7,7,41,,57,55,8,10,6,6,0.3,0.4
2025-08-25T2100,1917A,103.8,25.5364,曲靖市,烟厂办公区,,29,20,15,20,9,37,,50,49,8,8,4,4,0.4,0.5
2025-08-25T2100,3376A,103.7947,25.462,曲靖市,南苑二区,,,18,12,11,6,38,,55,54,,7,4,4,0.4,0.5
2025-08-25T2100,3377A,103.7444,25.5261,曲靖市,曲靖师范学院,,22,22,14,6,8,43,,59,57,10,11,6,7,0.3,0.3
2025-08-25T2100,1264A,118.8692,28.9398,衢州市,环保大楼,,30,30,25,15,14,68,,104,78,12,9,2,3,0.4,0.5
2025-08-25T2100,1265A,118.8709,28.9666,衢州市,实验学校,,34,34,26,18,14,73,,111,91,11,14,4,4,0.4,0.4
2025-08-25T2100,1266A,118.8621,28.9808,衢州市,衢州学院,,24,24,23,14,14,69,,123,94,15,20,3,4,0.3,0.4
2025-08-25T2100,1611A,118.5819,24.9117,泉州市,涂山街,,20,20,23,8,14,37,,77,72,11,9,4,2,0.4,0.4
2025-08-25T2100,1612A,118.5972,24.8978,泉州市,津头埔,,34,34,24,15,13,59,,77,74,12,8,3,4,0.4,0.4
2025-08-25T2100,1613A,118.6663,24.9424,泉州市,万安,,28,28,26,6,12,30,,76,67,11,10,5,3,0.4,0.5
2025-08-25T2100,1614A,118.6117,24.9604,泉州市,清源山,,,,,,,,,,,,,,,,
2025-08-25T2100,3529A,118.6333,24.9264,泉州市,城华南路,,12,12,23,3,14,30,,76,67,13,9,6,3,0.4,0.4
2025-08-25T2100,2626A,88.8876,29.2718,日喀则市,日喀则监测站,,17,9,9,3,2,52,,64,62,8,10,10,9,0.3,0.3
2025-08-25T2100,3726A,88.8781,29.2426,日喀则市,林业技术推广中心,,32,32,10,3,1,50,,60,59,3,3,6,6,0.4,0.3
2025-08-25T2100,1659A,119.471,35.4209,日照市,监测站,,33,27,20,22,18,104,,113,110,12,17,6,6,0.7,0.6
2025-08-25T2100,1660A,119.523,35.4216,日照市,市政府广场,,,29,24,20,14,,,121,121,9,13,5,5,1.0,0.8
2025-08-25T2100,1661A,119.5587,35.4044,日照市,港务局,,49,,33,34,34,109,,128,123,11,20,7,8,0.9,0.9
2025-08-25T2100,3507A,119.5328,35.4625,日照市,职业技术学院,,36,36,22,19,15,102,,114,110,12,15,4,4,0.9,0.7
2025-08-25T2100,3604A,119.3266,35.1044,日照市,岚山环保分局,"颗粒物(PM10),细颗粒物(PM2.5)",62,73,51,44,32,79,,130,122,35,23,17,12,1.7,1.4
2025-08-25T2100,1835A,111.1922,34.7752,三门峡市,市政府,,38,38,39,22,24,72,,94,86,10,12,6,7,0.6,0.6
2025-08-25T2100,1836A,111.1587,34.7942,三门峡市,开发区,,,44,52,26,29,64,,94,85,,15,5,5,,0.6
2025-08-25T2100,1838A,111.143,34.7955,三门峡市,风景区,,32,23,39,22,24,71,,102,93,11,11,5,5,0.6,0.6
2025-08-25T2100,3039A,111.1911,34.7829,三门峡市,三门峡市第一小学,,39,38,47,27,29,70,,95,88,10,11,4,4,0.6,0.6
2025-08-25T2100,3598A,111.1,34.7167,三门峡市,富达温泉假日酒店,,30,30,34,20,37,48,,91,75,14,14,4,4,0.7,0.7
2025-08-25T2100,2324A,117.6211,26.2625,三明市,三钢,,26,21,17,18,12,25,,72,59,18,10,1,3,0.5,0.8
2025-08-25T2100,2325A,117.635,26.2714,三明市,三明二中,,22,18,26,15,8,21,,68,54,19,8,1,2,0.5,0.6
2025-08-25T2100,2326A,117.6028,26.2378,三明市,三元区政府,,27,27,22,10,10,24,,75,61,20,15,1,3,0.4,1
2025-08-25T2100,2327A,117.7275,26.3108,三明市,洋溪,,,,,,,,,,,,,,,,
2025-08-25T2100,1876A,109.5078,18.2489,三亚市,河东子站,,30,30,25,11,7,50,,47,47,2,2,3,2,0.7,0.8
2025-08-25T2100,1877A,109.4964,18.2681,三亚市,河西子站,,,,3,,2,,,41,,,,,3,,0.6
2025-08-25T2100,3540A,109.7348,18.3443,三亚市,君悦子站,,,,143,28,23,66,,61,61,2,2,3,3,0.6,0.6
2025-08-25T2100,2624A,91.7608,29.2313,山南市,山南监测站,,,11,4,3,2,,,63,63,1,10,3,3,0.3,0.3
2025-08-25T2100,2625A,91.7706,29.2436,山南市,山南人民医院,,21,10,7,6,4,65,,64,64,1,10,3,3,0.1,0.2
2025-08-25T2100,1674A,116.6794,23.3667,汕头市,金平子站,,22,,22,9,10,69,,95,83,9,12,2,4,0.4,0.5
2025-08-25T2100,1675A,116.7244,23.3633,汕头市,龙湖子站,,24,24,24,3,9,66,,88,76,10,11,7,8,0.4,0.5
2025-08-25T2100,1676A,116.7258,23.2775,汕头市,濠江子站,,19,12,23,3,10,58,,69,62,12,8,5,6,0.6,0.6
2025-08-25T2100,1677A,116.7519,23.4714,汕头市,澄海子站,,35,30,30,11,12,111,,102,102,9,12,4,6,0.6,0.6
2025-08-25T2100,1678A,116.6092,23.2539,汕头市,潮阳子站,,,16,22,6,9,67,,74,65,,11,6,6,,0.7
2025-08-25T2100,3444A,116.454,23.2684,汕头市,潮南峡山,,19,19,24,12,13,58,,96,86,8,11,6,8,0.4,0.6
2025-08-25T2100,3624A,116.4069,23.2533,汕头市,潮南子站,,27,27,31,15,15,51,,90,78,7,7,5,5,0.5,0.6
2025-08-25T2100,1693A,115.3653,22.775,汕尾市,市环保局,,17,10,17,3,8,53,,60,59,8,7,3,3,0.4,0.4
2025-08-25T2100,1694A,115.3706,22.7898,汕尾市,市政府,,17,9,14,3,4,52,,65,62,9,8,4,4,0.6,0.6
2025-08-25T2100,1695A,115.3622,22.7925,汕尾市,新城中学,,20,20,18,6,5,52,,65,62,8,7,5,5,0.4,0.4
2025-08-25T2100,2645A,109.9154,33.8715,商洛市,监测站,,25,25,26,14,12,36,,68,64,11,16,5,12,0.7,0.8
2025-08-25T2100,3045A,109.9643,33.8471,商洛市,商州区中学,,35,35,28,12,10,9,,62,55,24,17,5,10,0.5,0.6
2025-08-25T2100,2408A,115.6702,34.4285,商丘市,环境监测站,颗粒物(PM10),88,126,50,23,41,116,,128,128,8,8,1,1,0.6,0.6
2025-08-25T2100,2409A,115.6458,34.4045,商丘市,粮食局,,44,44,36,25,26,97,,127,126,12,7,4,4,0.7,0.7
2025-08-25T2100,2410A,115.6293,34.3948,商丘市,睢阳区环保局,颗粒物(PM10),51,52,37,27,23,77,,121,118,11,8,3,2,0.6,0.5
2025-08-25T2100,3171A,115.6071,34.4465,商丘市,梁园区档案局,,40,35,33,28,23,106,,124,124,10,10,2,2,0.8,0.7
2025-08-25T2100,1141A,121.4,31.238,上海市,普陀,,34,34,27,14,11,43,,129,82,50,21,5,6,0.5,0.4
2025-08-25T2100,1142A,121.478,31.2036,上海市,十五厂,,32,32,26,14,12,39,,120,70,50,20,8,8,0.8,0.7
2025-08-25T2100,1143A,121.467,31.3008,上海市,虹口,,34,34,27,16,13,28,,114,68,58,19,5,6,0.8,0.7
2025-08-25T2100,1147A,121.425,31.2261,上海市,静安监测站,,32,32,26,16,14,47,,126,83,50,20,4,4,0.7,0.7
2025-08-25T2100,1148A,121.703,31.1907,上海市,浦东川沙,,46,46,29,16,12,47,,109,73,37,20,7,7,0.7,0.7
2025-08-25T2100,1149A,121.533,31.2284,上海市,浦东新区监测站,,32,32,26,18,14,49,,116,76,39,17,5,5,0.3,0.4
2025-08-25T2100,1150A,121.577,31.2071,上海市,浦东张江,,42,42,28,20,11,58,,119,79,39,19,6,5,0.8,0.8
2025-08-25T2100,3265A,121.4316,31.3322,上海市,宝山庙行,,35,35,27,15,13,30,,118,67,54,21,6,6,0.6,0.4
2025-08-25T2100,3266A,121.8791,31.4662,上海市,崇明上实东滩,,30,14,23,9,10,94,,125,103,7,16,4,5,0.4,0.4
2025-08-25T2100,3268A,121.3162,31.2838,上海市,嘉定南翔,,47,37,29,16,15,3,,124,62,93,31,5,5,0.7,0.4
2025-08-25T2100,3269A,121.3359,30.7456,上海市,金山新城,,30,27,27,16,15,93,,129,104,15,13,4,4,0.6,0.6
2025-08-25T2100,3270A,121.4996,31.0739,上海市,闵行浦江,,36,36,26,12,10,66,,116,75,23,15,4,5,0.8,0.8
2025-08-25T2100,3271A,121.2886,31.1663,上海市,青浦徐泾,,29,27,23,15,14,25,,120,65,57,21,7,7,0.8,0.7
2025-08-25T2100,3272A,121.2186,31.0378,上海市,松江图书馆,,28,28,23,15,13,53,,129,85,37,20,8,8,0.6,0.6
2025-08-25T2100,3273A,121.3902,31.2059,上海市,长宁仙霞,,24,24,28,12,13,47,,112,69,38,20,8,9,0.6,0.6
2025-08-25T2100,3274A,121.7965,31.0507,上海市,浦东惠南,,29,29,27,15,7,67,,118,99,26,17,10,10,0.3,0.3
2025-08-25T2100,3544A,121.4891,30.925,上海市,奉贤南桥新城,,36,36,26,17,13,72,,125,95,26,14,5,5,0.7,0.7
2025-08-25T2100,4183A,121.4174,31.16637,上海市,冠生园路458号,,28,28,25,13,12,37,,103,64,48,22,4,4,0.7,0.8
2025-08-25T2100,4205A,121.5419,31.2683,上海市,宁武路151号,,36,36,35,17,13,36,,105,55,48,28,4,3,0.5,0.4
2025-08-25T2100,2381A,118.005,28.4572,上饶市,百草园,,,,,,,,,,,,,,,,
2025-08-25T2100,2382A,117.9756,28.4436,上饶市,市监测站,细颗粒物(PM2.5),74,,39,54,29,55,,104,85,9,12,5,11,0.5,0.5
2025-08-25T2100,2383A,117.9519,28.4628,上饶市,凤凰光学,,35,35,37,20,24,43,,103,79,18,12,11,16,0.2,0.3
2025-08-25T2100,3685A,117.897,28.4315,上饶市,双创科技城,,35,35,34,24,23,46,,112,83,19,15,8,19,0.4,0.5
2025-08-25T2100,4211A,118.1904,28.4448,上饶市,裕丰大道,颗粒物(PM10),51,52,26,29,14,44,,77,62,9,8,18,20,0.4,0.4
2025-08-25T2100,1669A,113.5824,24.7733,韶关市,市八中,,18,18,25,7,12,39,,65,60,10,12,9,18,0.5,0.5
2025-08-25T2100,1671A,113.5917,24.7972,韶关市,园林处,,16,16,17,6,10,40,,59,56,8,11,9,13,0.3,0.3
2025-08-25T2100,1673A,113.5971,24.6863,韶关市,曲江监测站,,18,18,21,6,10,43,,78,66,14,17,14,12,0.6,0.6
