timepoint,stationcode,longitude,latitude,area,positionname,primarypollutant,aqi,pm10,pm10_24h,pm2_5,pm2_5_24h,o3,o3_24h,o3_8h,o3_8h_24h,no2,no2_24h,so2,so2_24h,co,co_24h
2025-01-07T0000,2566A,102.1879,31.914,阿坝藏族羌族自治州,州农科所,,36,36,38,14,12,41,,62,48,20,18,5,6,0.9,0.9
2025-01-07T0000,2568A,102.2502,31.8896,阿坝藏族羌族自治州,马师校,,25,25,14,16,12,19,,50,23,26,24,5,5,0.6,0.5
2025-01-07T0000,3994A,102.2165,31.9024,阿坝藏族羌族自治州,马尔康中学西区,,30,,19,21,14,31,,58,33,21,20,4,4,0.6,0.5
2025-01-07T0000,2695A,80.292,41.1694,阿克苏地区,电视台,细颗粒物(PM2.5),210,256,123,160,81,4,,49,26,74,41,8,5,3.1,1.3
2025-01-07T0000,2696A,80.2613,41.1551,阿克苏地区,艺术中心,细颗粒物(PM2.5),124,164,134,94,82,1,,39,24,71,41,6,4,1.7,1.3
2025-01-07T0000,2204A,105.6467,38.8363,阿拉善盟,西城区西花园,,46,33,70,32,33,31,,74,43,31,22,10,12,1.3,1.2
2025-01-07T0000,2205A,105.6985,38.8411,阿拉善盟,蒙二幼,,50,50,74,16,19,39,,70,44,24,20,5,6,0.7,0.6
2025-01-07T0000,2206A,105.724,38.8516,阿拉善盟,环保局新楼,,30,30,45,9,15,64,,79,61,10,11,8,10,0.7,0.7
2025-01-07T0000,2708A,88.1264,47.8517,阿勒泰地区,市站,,27,27,17,18,14,27,,48,13,53,51,10,11,0.4,0.4
2025-01-07T0000,2630A,80.1161,32.5,阿里地区,阿里监测站,,27,8,9,7,8,86,,96,93,4,4,8,7,0.5,0.5
2025-01-07T0000,3192A,80.0903,32.5028,阿里地区,阿里藏医院,,28,8,10,3,3,88,,92,91,2,4,8,8,0.5,0.5
2025-01-07T0000,2642A,109.0318,32.6537,安康市,香溪洞,细颗粒物(PM2.5),108,89,70,81,60,15,,42,40,41,26,18,10,1.0,0.8
2025-01-07T0000,2644A,109.0072,32.6975,安康市,汉滨区检察院,细颗粒物(PM2.5),160,166,99,122,80,10,,22,12,56,43,7,8,1.5,1.2
2025-01-07T0000,4054A,109.0325,32.6913,安康市,市邮政管理局,细颗粒物(PM2.5),182,181,112,137,83,5,,18,7,48,43,7,7,2.0,1.3
2025-01-07T0000,2291A,117.0809,30.5177,安庆市,环科院,颗粒物(PM10),78,106,105,30,55,55,,101,84,18,36,8,7,0.7,0.9
2025-01-07T0000,2292A,117.0331,30.5119,安庆市,马山宾馆,颗粒物(PM10),77,104,105,30,60,51,,96,78,24,38,9,8,0.5,0.8
2025-01-07T0000,2294A,116.9896,30.6145,安庆市,安庆大学,颗粒物(PM10),75,99,104,28,58,54,,104,82,31,36,12,11,0.7,0.8
2025-01-07T0000,3173A,117.0598,30.5351,安庆市,市人大,颗粒物(PM10),78,106,113,31,63,51,,96,76,28,42,8,7,0.6,0.8
2025-01-07T0000,3122A,105.9606,26.2611,安顺市,伍家关,细颗粒物(PM2.5),63,59,52,45,38,102,,97,97,15,19,12,18,0.9,0.8
2025-01-07T0000,3123A,105.9408,26.2431,安顺市,凤凰山,细颗粒物(PM2.5),65,56,49,47,44,98,,88,88,16,22,16,23,0.6,0.7
2025-01-07T0000,3124A,105.9439,26.2564,安顺市,金钟山,细颗粒物(PM2.5),68,70,56,49,43,96,,89,89,12,15,18,21,0.7,0.7
2025-01-07T0000,3125A,105.8983,26.2481,安顺市,娄家坡,细颗粒物(PM2.5),65,57,55,47,46,96,,84,84,14,19,19,28,0.6,0.7
2025-01-07T0000,1818A,114.4839,36.0621,安阳市,棉研所,颗粒物(PM10),71,92,71,51,25,4,,67,25,59,31,8,8,0.7,0.4
2025-01-07T0000,1819A,114.3551,36.1017,安阳市,红庙街,颗粒物(PM10),57,63,61,31,22,16,,70,40,41,17,6,4,0.8,0.7
2025-01-07T0000,1820A,114.361,36.0681,安阳市,银杏小区,颗粒物(PM10),60,69,67,30,23,28,,68,40,33,26,6,2,0.5,0.4
2025-01-07T0000,3141A,114.3922,36.0878,安阳市,信访局,颗粒物(PM10),54,58,62,32,30,38,,67,45,31,22,6,2,0.3,0.2
2025-01-07T0000,3669A,114.4705,36.0637,安阳市,左辅环卫站,颗粒物(PM10),69,88,78,42,28,8,,69,32,57,23,5,6,0.6,0.5
2025-01-07T0000,3703A,114.2917,36.0949,安阳市,安钢职工学校,颗粒物(PM10),72,94,80,47,32,6,,66,36,57,30,6,5,0.6,0.6
2025-01-07T0000,1748A,123.044,41.1196,鞍山市,深沟寺,细颗粒物(PM2.5),75,79,120,55,94,16,,46,29,60,42,19,15,1.6,1.7
2025-01-07T0000,1749A,123.011,41.0931,鞍山市,太阳城,细颗粒物(PM2.5),80,86,122,59,91,7,,53,33,65,42,12,12,1.3,1.5
2025-01-07T0000,1750A,123.0485,41.1442,鞍山市,太平,细颗粒物(PM2.5),90,106,140,67,98,11,,43,18,59,48,22,19,1.6,1.7
2025-01-07T0000,1751A,122.9642,41.0971,鞍山市,铁西三道街,细颗粒物(PM2.5),88,105,142,65,103,12,,48,22,59,49,14,21,1.8,1.9
2025-01-07T0000,1752A,122.9341,41.0833,鞍山市,铁西工业园区,细颗粒物(PM2.5),94,113,151,70,116,18,,50,24,63,54,15,17,1.7,1.8
2025-01-07T0000,1753A,123.022,41.0821,鞍山市,明达新区,细颗粒物(PM2.5),80,86,119,59,92,23,,51,40,32,26,13,14,1.5,1.5
2025-01-07T0000,1754A,123.1289,41.0228,鞍山市,千山,,,,108,,63,,,48,34,,31,,9,,0.9
2025-01-07T0000,2195A,107.4212,40.761,巴彦淖尔市,附二中,,27,27,45,12,20,42,,57,47,26,36,8,9,0.5,0.5
2025-01-07T0000,2196A,107.37,40.7372,巴彦淖尔市,市环保大楼,,30,26,36,21,16,45,,61,52,24,19,5,5,0.5,0.4
2025-01-07T0000,1956A,86.1472,41.7538,巴音郭楞蒙古自治州,孔雀公园,细颗粒物(PM2.5),115,129,89,87,61,25,,67,50,92,41,6,7,1.6,0.9
2025-01-07T0000,1957A,86.1972,41.7166,巴音郭楞蒙古自治州,棉纺厂,颗粒物(PM10),102,153,116,59,61,2,,63,32,114,54,5,4,1.7,1
2025-01-07T0000,1958A,86.2357,41.7173,巴音郭楞蒙古自治州,经济开发区,颗粒物(PM10),61,72,71,41,45,8,,76,39,93,39,4,5,0.8,0.7
2025-01-07T0000,2914A,106.7677,31.8794,巴中市,苏山坪,细颗粒物(PM2.5),53,48,43,37,35,45,,60,60,18,13,2,2,0.6,0.6
2025-01-07T0000,3182A,106.7656,31.8545,巴中市,丽阳花园,细颗粒物(PM2.5),107,114,73,80,52,3,,9,5,33,40,4,4,1.2,1
2025-01-07T0000,3183A,106.7418,31.8654,巴中市,圣泉水务公司,细颗粒物(PM2.5),80,78,55,59,44,4,,23,6,47,35,4,4,0.6,0.6
2025-01-07T0000,3616A,106.7616,31.8344,巴中市,市中心医院,细颗粒物(PM2.5),107,113,74,80,58,3,,10,3,31,36,4,3,0.9,0.8
2025-01-07T0000,2235A,122.7911,45.6077,白城市,洮北区环保局,,43,43,83,24,78,52,,61,48,15,30,8,10,0.7,1
2025-01-07T0000,2236A,122.8738,45.5725,白城市,市环保局,,27,27,95,16,68,52,,56,25,15,38,5,5,0.6,0.9
2025-01-07T0000,2231A,126.4219,41.9171,白山市,喜丰,细颗粒物(PM2.5),55,58,59,39,40,29,,63,45,40,28,10,13,1.0,1
2025-01-07T0000,2232A,126.4077,41.9419,白山市,环保局,细颗粒物(PM2.5),72,81,70,52,46,36,,69,53,22,22,5,9,1.2,1.1
2025-01-07T0000,2647A,104.1724,36.5446,白银市,第三小学,,38,38,72,15,41,58,,77,69,22,30,12,107,0.8,1.2
2025-01-07T0000,2648A,104.1465,36.5482,白银市,动力公司,,33,32,54,23,36,71,,96,75,23,26,10,82,0.7,0.8
2025-01-07T0000,2512A,106.6103,23.9011,百色市,市监测站,细颗粒物(PM2.5),87,94,74,64,51,30,,112,77,56,34,10,13,1.2,1.1
2025-01-07T0000,2513A,106.6538,23.8859,百色市,市中心血站,细颗粒物(PM2.5),137,156,108,104,77,18,,102,57,85,52,28,22,1.4,1.2
2025-01-07T0000,3406A,106.6085,23.8798,百色市,祈福高中,细颗粒物(PM2.5),103,125,104,77,54,12,,98,62,72,44,6,10,1.2,1
2025-01-07T0000,2270A,117.396,32.939,蚌埠市,工人疗养院,,34,34,109,20,44,62,,69,61,23,36,5,6,0.4,0.6
2025-01-07T0000,2271A,117.3605,32.9427,蚌埠市,百货大楼,,38,35,115,26,47,54,,68,59,24,40,7,7,0.5,0.7
2025-01-07T0000,2273A,117.4185,32.8911,蚌埠市,蚌埠学院,,34,34,102,21,41,60,,74,66,21,33,6,8,0.3,0.5
2025-01-07T0000,2274A,117.3533,32.9673,蚌埠市,淮上区政府,,49,46,127,34,50,49,,68,52,21,33,9,10,0.4,0.6
2025-01-07T0000,2275A,117.3145,32.8977,蚌埠市,高新区,细颗粒物(PM2.5),58,63,106,41,53,15,,64,40,60,49,9,8,0.5,0.6
2025-01-07T0000,3715A,117.3092,32.9314,蚌埠市,蚌埠田家炳中学,颗粒物(PM10),66,81,137,35,57,4,,65,34,66,54,8,9,0.5,0.7
2025-01-07T0000,1585A,109.8756,40.6532,包头市,市环境监测站,,20,13,35,11,14,61,,55,53,11,31,8,17,0.4,0.8
2025-01-07T0000,1587A,109.9991,40.5842,包头市,包头八中,,21,21,45,3,18,51,,58,51,15,35,4,11,0.4,0.8
2025-01-07T0000,1588A,109.8538,40.6821,包头市,青山宾馆,,18,12,30,3,14,55,,52,46,12,28,11,17,0.6,1
2025-01-07T0000,1589A,109.8642,40.6288,包头市,惠龙物流,,,21,48,12,21,,,43,,24,31,39,15,0.3,1
2025-01-07T0000,1590A,110.0377,40.5546,包头市,东河鸿龙湾,,18,,33,12,14,38,,60,52,29,34,9,12,0.6,0.9
2025-01-07T0000,3283A,109.9154,40.5685,包头市,滨河大厦,,15,9,41,6,25,48,,59,51,23,37,9,13,0.6,0.9
2025-01-07T0000,3419A,109.9447,40.6261,包头市,包头市委党校,,18,18,48,3,16,53,,56,53,17,38,6,11,0.9,1.4
2025-01-07T0000,3683A,109.8331,40.6576,包头市,昆区政府,,18,16,33,3,15,57,,56,53,14,25,9,19,0.5,0.9
2025-01-07T0000,1930A,107.185,34.3063,宝鸡市,庙沟村,"颗粒物(PM10),细颗粒物(PM2.5)",65,79,89,47,60,42,,67,51,37,38,8,9,0.7,0.7
2025-01-07T0000,1931A,107.0708,34.3017,宝鸡市,竹园沟,颗粒物(PM10),63,75,83,42,52,38,,70,53,25,28,6,7,0.6,0.7
2025-01-07T0000,1932A,107.1906,34.3672,宝鸡市,三陆医院,细颗粒物(PM2.5),77,72,91,56,55,36,,62,44,27,39,4,6,0.8,0.9
2025-01-07T0000,1933A,107.1431,34.3547,宝鸡市,监测站,细颗粒物(PM2.5),89,100,91,66,55,15,,65,39,46,37,7,8,0.7,0.8
2025-01-07T0000,1934A,107.1186,34.3739,宝鸡市,技工学校,细颗粒物(PM2.5),82,83,96,60,57,30,,64,44,28,32,10,12,0.7,0.8
2025-01-07T0000,1935A,107.3906,34.3528,宝鸡市,陈仓区环保局家属楼,细颗粒物(PM2.5),103,98,99,77,58,12,,64,35,54,44,8,14,1.0,0.8
2025-01-07T0000,1936A,107.2058,34.3497,宝鸡市,文理学院,细颗粒物(PM2.5),83,92,89,61,53,35,,68,45,33,38,6,7,0.7,0.8
2025-01-07T0000,1937A,107.2386,34.3622,宝鸡市,三迪小学,细颗粒物(PM2.5),99,92,83,74,56,25,,61,41,35,34,6,8,0.8,0.7
2025-01-07T0000,1051A,115.493,38.8632,保定市,游泳馆,细颗粒物(PM2.5),59,64,34,42,13,15,,67,26,40,20,9,4,0.8,0.4
2025-01-07T0000,1052A,115.5213,38.8959,保定市,华电二区,细颗粒物(PM2.5),59,44,27,42,17,23,,68,37,26,16,3,2,0.2,0.1
2025-01-07T0000,1053A,115.4713,38.9108,保定市,接待中心,,45,45,29,31,11,32,,66,40,25,12,6,3,0.7,0.6
2025-01-07T0000,1054A,115.4612,38.8416,保定市,地表水厂,细颗粒物(PM2.5),67,66,39,48,15,16,,71,30,45,24,4,2,0.5,0.2
2025-01-07T0000,3581A,115.31981,38.95208,保定市,满城区生态环境分局,,19,19,27,3,12,49,,69,40,17,18,1,3,0.3,0.3
2025-01-07T0000,3582A,115.47694,38.76408,保定市,清苑区第二中学,,45,45,30,20,15,20,,66,34,42,18,4,3,0.5,0.3
2025-01-07T0000,3583A,115.62909,39.02311,保定市,徐水物探局,,42,42,26,14,10,17,,60,18,40,28,6,3,0.5,0.3
2025-01-07T0000,4004A,115.4202,38.8656,保定市,双鹰农机,颗粒物(PM10),55,60,36,36,16,11,,70,27,49,24,6,3,0.6,0.4
2025-01-07T0000,4034A,115.5150,38.8590,保定市,植保所站,颗粒物(PM10),53,56,36,35,18,11,,64,28,42,24,7,3,0.7,0.5
2025-01-07T0000,2594A,99.1678,25.1081,保山市,市环境监测站,,28,28,30,13,17,51,,75,62,7,11,5,4,0.5,0.5
2025-01-07T0000,2595A,99.1711,25.1328,保山市,市环保局,,22,19,29,15,19,59,,77,68,4,7,5,6,0.3,0.5
2025-01-07T0000,1866A,109.2262,21.588,北海市,牛尾岭水库,细颗粒物(PM2.5),115,97,92,87,84,90,,178,125,,22,10,11,0.8,0.7
2025-01-07T0000,1867A,109.1436,21.4086,北海市,海滩公园,细颗粒物(PM2.5),83,73,108,61,83,171,,198,173,18,25,8,23,1.0,1
2025-01-07T0000,1868A,109.0981,21.4661,北海市,新市环保局,细颗粒物(PM2.5),79,64,108,58,88,157,,173,148,23,39,8,16,0.7,0.9
2025-01-07T0000,1869A,109.1778,21.5233,北海市,北海工业园,细颗粒物(PM2.5),129,116,127,98,97,88,,174,131,33,34,12,23,1.1,1.1
2025-01-07T0000,3400A,109.1911,21.4415,北海市,龙潭自来水厂,细颗粒物(PM2.5),110,90,117,83,113,66,,182,142,28,26,6,12,1.1,1
2025-01-07T0000,1001A,116.3621,39.8784,北京市,万寿西宫,,15,13,16,3,6,48,,56,43,13,17,3,3,0.2,0.2
2025-01-07T0000,1002A,116.2202,40.2915,北京市,定陵,,,,,,,,,,,,,,,,
2025-01-07T0000,1003A,116.4174,39.9289,北京市,东四,,16,13,16,3,6,50,,58,46,10,13,2,2,0.1,0.2
2025-01-07T0000,1004A,116.4072,39.8863,北京市,天坛,,19,12,16,3,6,58,,65,55,8,11,3,3,0.1,0.2
2025-01-07T0000,1005A,116.462,39.9365,北京市,农展馆,,18,13,14,3,5,56,,67,51,11,15,1,2,0.3,0.4
2025-01-07T0000,1006A,116.3392,39.9295,北京市,官园,,17,11,14,3,5,54,,56,51,4,12,3,4,0.4,0.4
2025-01-07T0000,1007A,116.2878,39.9611,北京市,海淀万柳,,17,12,15,3,6,52,,55,49,4,15,2,2,0.4,0.4
2025-01-07T0000,1008A,116.6636,40.135,北京市,顺义新城,,14,14,16,3,5,44,,57,46,14,10,1,2,0.2,0.2
2025-01-07T0000,1009A,116.6275,40.3275,北京市,怀柔镇,,20,6,7,3,5,61,,66,63,2,2,1,2,0.2,0.2
2025-01-07T0000,1010A,116.2296,40.217,北京市,昌平镇,,21,14,15,6,7,20,,62,48,41,10,1,2,0.6,0.4
2025-01-07T0000,1011A,116.3966,39.9821,北京市,奥体中心,,17,17,16,3,6,47,,60,42,17,20,3,3,0.2,0.2
2025-01-07T0000,1012A,116.184,39.9136,北京市,古城,,12,12,21,3,6,34,,38,38,2,4,3,1,0.4,0.4
2025-01-07T0000,3281A,115.9718,40.4529,北京市,延庆夏都,,18,7,14,3,6,55,,58,57,1,7,1,2,0.1,0.2
2025-01-07T0000,3417A,117.0709,40.1465,北京市,平谷新城,,15,15,14,7,6,31,,60,37,14,11,3,2,0.5,0.4
2025-01-07T0000,3418A,116.8336,40.4095,北京市,密云新城,,19,6,14,3,6,59,,58,54,2,9,3,2,0.1,0.2
2025-01-07T0000,3671A,116.088,39.9726,北京市,门头沟三家店,,18,11,16,3,6,55,,59,49,2,6,1,4,0.2,0.2
2025-01-07T0000,3672A,116.1541,39.8204,北京市,丰台云岗,,19,11,14,3,5,58,,64,57,2,3,2,3,0.1,0.1
2025-01-07T0000,3673A,116.6804,39.9081,北京市,通州东关,,24,24,20,8,7,13,,56,33,42,12,2,2,0.3,0.2
2025-01-07T0000,3674A,115.9577,39.7603,北京市,房山燕山,,21,11,10,3,5,65,,77,62,2,4,3,3,0.2,0.2
2025-01-07T0000,3675A,116.4672,39.7733,北京市,大兴旧宫,,14,13,17,3,4,44,,60,37,12,13,3,2,0.3,0.3
2025-01-07T0000,3694A,115.986,40.4563,北京市,延庆石河营,,18,6,14,3,7,55,,58,57,1,10,1,1,0.2,0.3
2025-01-07T0000,3695A,116.6151,40.3053,北京市,怀柔新城,,19,6,7,3,4,58,,65,60,2,2,3,3,0.1,0.1
2025-01-07T0000,3696A,116.2545,39.8768,北京市,丰台小屯,,17,13,28,3,8,54,,58,43,2,16,4,4,0.2,0.2
2025-01-07T0000,3697A,116.84,40.3844,北京市,密云镇,,16,7,18,3,7,50,,52,43,6,23,3,2,0.2,0.3
2025-01-07T0000,1761A,123.8275,41.3064,本溪市,大峪,细颗粒物(PM2.5),83,77,105,61,86,9,,53,29,58,43,5,9,2.7,1.6
2025-01-07T0000,1762A,123.7567,41.3325,本溪市,溪湖,细颗粒物(PM2.5),89,105,122,66,84,9,,52,24,46,38,9,12,1.8,1.5
2025-01-07T0000,1763A,123.7169,41.3094,本溪市,彩屯,细颗粒物(PM2.5),79,81,110,58,85,16,,48,18,44,41,6,9,1.3,1.2
2025-01-07T0000,1764A,123.7669,41.2864,本溪市,东明,细颗粒物(PM2.5),94,95,109,70,88,8,,51,24,58,48,8,13,1.5,1.7
2025-01-07T0000,1765A,123.7992,41.2664,本溪市,新立屯,颗粒物(PM10),55,59,80,35,40,18,,50,18,51,48,4,7,1.1,1.3
2025-01-07T0000,1766A,123.8142,41.3472,本溪市,威宁,细颗粒物(PM2.5),90,104,130,67,114,12,,53,24,50,47,3,5,1.2,1.1
2025-01-07T0000,2587A,105.2864,27.3125,毕节市,八中,,26,22,90,18,70,38,,63,46,14,19,6,7,0.8,0.8
2025-01-07T0000,2588A,105.31,27.2944,毕节市,师专,,33,27,88,23,72,38,,72,46,14,17,7,8,0.8,0.8
2025-01-07T0000,3537A,105.3631,27.3533,毕节市,长征村,,40,32,93,28,81,42,,80,49,15,16,8,8,0.9,0.9
2025-01-07T0000,1629A,118.0018,37.3617,滨州市,第二水厂,,31,31,37,14,10,41,,68,42,26,22,9,9,0.1,0.1
2025-01-07T0000,1630A,117.9776,37.393,滨州市,北中新校,颗粒物(PM10),54,58,41,29,14,38,,65,41,36,27,49,11,1.3,0.4
2025-01-07T0000,3514A,117.9378,37.3956,滨州市,中海酒店,,39,39,34,22,18,32,,65,36,32,20,12,8,0.6,0.4
2025-01-07T0000,3515A,117.9378,37.3553,滨州市,开发区一中,,39,39,47,22,16,34,,67,31,37,30,8,8,0.3,0.3
2025-01-07T0000,3516A,118.0917,37.694,滨州市,金海六路,颗粒物(PM10),53,56,40,29,15,12,,62,21,48,35,12,6,0.5,0.4
2025-01-07T0000,4028A,117.9956,37.3753,滨州市,滨州市西街道办事处,,34,34,35,19,17,32,,67,39,34,22,10,9,0.6,0.7
2025-01-07T0000,2311A,115.8072,33.8399,亳州市,污水处理厂,颗粒物(PM10),59,68,96,34,40,4,,74,52,62,30,7,6,0.6,0.4
2025-01-07T0000,2312A,115.7789,33.8518,亳州市,三国揽胜宫,颗粒物(PM10),63,75,95,39,38,5,,77,46,61,32,5,5,0.7,0.4
2025-01-07T0000,3332A,115.7633,33.8034,亳州市,亳州学院,颗粒物(PM10),59,67,93,33,33,19,,76,46,47,23,4,4,0.6,0.5
2025-01-07T0000,2693A,82.0485,44.8556,博尔塔拉蒙古自治州,市党校,,50,42,50,35,42,44,,51,50,22,19,6,7,1.3,1.2
2025-01-07T0000,2694A,82.0806,44.8969,博尔塔拉蒙古自治州,市环保局,颗粒物(PM10),59,68,54,39,32,37,,65,53,43,18,7,7,1.6,0.9
2025-01-07T0000,1071A,116.8842,38.2991,沧州市,沧县城建局,,40,40,36,19,18,24,,62,35,40,23,5,4,0.5,0.5
2025-01-07T0000,1072A,116.8584,38.3254,沧州市,电视转播站,,38,38,33,22,11,20,,66,41,48,28,5,6,0.3,0.2
2025-01-07T0000,1073A,116.8709,38.3228,沧州市,市环保局,,42,42,34,24,21,23,,64,43,37,20,6,3,0.3,0.2
2025-01-07T0000,3324A,116.8136,38.3004,沧州市,河北水利电力学院,,41,41,28,26,19,11,,60,31,49,22,11,8,0.4,0.2
2025-01-07T0000,2622A,97.1806,31.1273,昌都市,昌都监测站,颗粒物(PM10),78,106,42,44,19,2,,58,21,58,32,7,7,1.7,1.2
2025-01-07T0000,3719A,97.1714,31.1406,昌都市,昌都会议中心,,22,18,12,15,10,41,,71,57,21,10,4,4,0.9,0.8
2025-01-07T0000,2690A,88.1236,43.8886,昌吉回族自治州,天山天池,,27,6,3,3,1,86,,94,90,2,2,7,7,0.5,0.5
2025-01-07T0000,2692A,87.2717,44.0297,昌吉回族自治州,新区政务中心,细颗粒物(PM2.5),102,121,96,76,55,19,,40,33,48,37,3,3,1.6,1.3
2025-01-07T0000,3613A,87.3095,44.0142,昌吉回族自治州,亚心广场,细颗粒物(PM2.5),122,114,92,92,75,30,,50,43,44,34,7,7,1.5,1.4
2025-01-07T0000,1119A,125.3325,43.9166,长春市,食品厂,细颗粒物(PM2.5),134,111,96,102,82,7,,43,16,56,47,15,17,1.0,0.9
2025-01-07T0000,1120A,125.2863,43.9027,长春市,客车厂,细颗粒物(PM2.5),108,92,95,81,91,17,,43,17,52,51,17,24,0.8,0.9
2025-01-07T0000,1121A,125.2841,43.8463,长春市,邮电学院,细颗粒物(PM2.5),145,118,98,111,92,12,,48,21,55,50,10,17,1.0,0.9
2025-01-07T0000,1122A,125.3716,43.8772,长春市,劳动公园,细颗粒物(PM2.5),138,109,95,105,79,19,,52,27,52,50,11,19,1.2,1.1
2025-01-07T0000,1123A,125.3297,43.8805,长春市,园林处,细颗粒物(PM2.5),124,121,85,94,73,16,,46,23,50,46,14,13,1.1,1
2025-01-07T0000,1124A,125.4605,43.79,长春市,净月潭,细颗粒物(PM2.5),119,104,94,90,75,37,,51,37,24,32,7,8,0.7,0.8
2025-01-07T0000,1125A,125.7194,43.515,长春市,甩湾子,,,,,,,,,,,,,,,,
2025-01-07T0000,1126A,125.3863,43.8447,长春市,经开区环卫处,细颗粒物(PM2.5),133,130,102,101,77,5,,44,19,57,48,10,14,1.1,0.9
2025-01-07T0000,1127A,125.245,43.7783,长春市,高新区管委会,细颗粒物(PM2.5),166,139,99,126,95,11,,48,18,54,49,8,9,1.6,1.2
2025-01-07T0000,1128A,125.1761,43.8325,长春市,岱山公园,细颗粒物(PM2.5),104,105,100,78,91,14,,49,17,56,48,9,9,0.9,1
2025-01-07T0000,1335A,113.0833,28.2325,长沙市,经开区环保局,颗粒物(PM10),90,130,92,64,45,15,,95,62,69,46,4,8,0.8,0.7
2025-01-07T0000,1336A,112.8872,28.2189,长沙市,高开区环保局,颗粒物(PM10),80,109,98,57,62,41,,103,72,34,41,6,5,0.3,0.5
2025-01-07T0000,1337A,113.0792,28.2053,长沙市,马坡岭,颗粒物(PM10),87,123,91,62,62,27,,103,72,53,40,5,4,0.9,0.7
2025-01-07T0000,1338A,112.9394,28.19,长沙市,湖南师范大学,颗粒物(PM10),92,133,96,58,62,36,,103,76,46,45,5,4,0.8,0.9
2025-01-07T0000,1339A,113.0178,28.1322,长沙市,雨花区环保局,细颗粒物(PM2.5),88,123,95,65,60,25,,94,69,62,48,7,6,1.0,0.8
2025-01-07T0000,1340A,112.9792,28.2597,长沙市,伍家岭,颗粒物(PM10),84,118,104,61,66,35,,96,68,42,40,6,4,0.7,0.6
2025-01-07T0000,1341A,113.0014,28.1944,长沙市,火车新站,细颗粒物(PM2.5),98,117,100,73,68,32,,100,74,59,50,5,4,0.9,0.8
2025-01-07T0000,1342A,112.9844,28.1178,长沙市,天心区环保局,细颗粒物(PM2.5),88,124,97,65,65,23,,102,74,61,47,4,3,0.9,0.8
2025-01-07T0000,1343A,112.8908,28.1308,长沙市,湖南中医药大学,细颗粒物(PM2.5),95,112,98,71,64,37,,105,74,46,44,7,6,0.9,1
2025-01-07T0000,1344A,112.9581,28.3611,长沙市,沙坪,细颗粒物(PM2.5),98,94,78,73,61,34,,101,69,41,25,8,7,1.5,1.2
2025-01-07T0000,1727A,113.1147,36.1547,长治市,清华站,,50,50,46,22,16,8,,55,23,47,34,17,14,0.8,0.7
2025-01-07T0000,1728A,113.1031,36.1989,长治市,监测站,,45,45,46,14,21,24,,61,34,37,36,15,14,0.9,1
2025-01-07T0000,1730A,113.0886,36.2125,长治市,审计局,,41,41,42,12,18,26,,59,37,35,34,18,16,0.6,0.7
2025-01-07T0000,1731A,113.0844,36.1856,长治市,长治八中,颗粒物(PM10),53,55,58,28,26,25,,57,34,36,36,18,15,0.6,0.7
2025-01-07T0000,2845A,113.1569,36.1911,长治市,德盛苑,,44,44,42,19,15,31,,61,47,34,27,19,16,0.9,1
2025-01-07T0000,3568A,113.06,36.0464,长治市,向阳小学,,42,42,58,28,22,30,,58,39,30,27,21,20,0.6,0.7
2025-01-07T0000,3569A,112.8792,36.3144,长治市,屯留一中,,33,22,33,14,11,6,,61,26,66,42,18,14,0.9,0.8
2025-01-07T0000,3570A,113.235,36.3489,长治市,潞城四中,颗粒物(PM10),61,72,66,23,22,19,,65,23,47,37,20,21,1.0,0.9
2025-01-07T0000,1854A,111.6975,28.9703,常德市,市二中,细颗粒物(PM2.5),77,88,113,56,95,67,,100,82,17,24,7,6,0.7,0.9
2025-01-07T0000,1857A,111.7158,29.1456,常德市,白鹤山,,,,,,,,,,,,,,,,
2025-01-07T0000,3138A,111.7153,29.0289,常德市,武陵区永安,颗粒物(PM10),70,90,111,48,82,70,,103,85,13,20,7,5,0.8,1
2025-01-07T0000,3139A,111.6892,28.9881,常德市,鼎城区玉霞,颗粒物(PM10),81,111,121,52,89,70,,100,85,11,18,7,6,0.7,0.9
2025-01-07T0000,3140A,111.6625,29.0531,常德市,武陵区长庚,细颗粒物(PM2.5),108,108,118,81,90,50,,100,80,27,24,4,4,0.8,0.9
2025-01-07T0000,1196A,119.9633,31.762,常州市,市监测站,"颗粒物(PM10),细颗粒物(PM2.5)",72,93,92,52,55,36,,74,55,46,36,11,11,0.5,0.5
2025-01-07T0000,1200A,119.9468,31.7069,常州市,武进监测站,颗粒物(PM10),67,84,90,38,52,41,,75,58,39,35,7,7,0.5,0.6
2025-01-07T0000,1201A,119.9255,31.9087,常州市,安家,颗粒物(PM10),64,78,98,36,56,36,,74,46,50,50,10,11,0.5,0.6
2025-01-07T0000,3002A,119.9805,31.8174,常州市,行政中心,细颗粒物(PM2.5),72,86,83,52,54,28,,71,46,46,36,11,11,0.6,0.6
2025-01-07T0000,3003A,120.0522,31.7748,常州市,经开区,颗粒物(PM10),76,102,102,45,51,18,,81,48,58,40,14,13,0.5,0.6
2025-01-07T0000,3010A,119.9025,31.7964,常州市,钟楼,颗粒物(PM10),60,69,90,36,54,42,,72,49,40,42,10,11,2.1,1.3
2025-01-07T0000,3429A,119.8598,31.7066,常州市,武进经发区,颗粒物(PM10),72,94,114,39,54,18,,76,41,70,48,8,8,0.6,0.7
2025-01-07T0000,3430A,119.5826,31.7245,常州市,金坛城区,颗粒物(PM10),72,93,107,39,51,35,,84,58,34,24,9,10,0.7,0.8
2025-01-07T0000,2220A,120.4318,41.5881,朝阳市,西梁,,19,16,54,13,33,46,,58,40,16,30,5,9,0.6,1.1
2025-01-07T0000,2221A,120.4521,41.5646,朝阳市,河畔小区,,21,21,47,9,24,49,,50,47,14,24,6,8,0.7,1.1
2025-01-07T0000,2222A,120.4176,41.5648,朝阳市,八里堡,,24,24,56,8,25,44,,55,44,13,23,11,11,0.3,0.7
2025-01-07T0000,2223A,120.3806,41.5969,朝阳市,农业园区,,15,11,49,8,33,47,,64,50,16,26,8,9,0.6,1
2025-01-07T0000,1705A,116.6367,23.6719,潮州市,西园路,细颗粒物(PM2.5),89,89,65,66,47,57,,122,98,28,19,5,6,0.4,0.3
2025-01-07T0000,3026A,116.6183,23.6608,潮州市,市政府,细颗粒物(PM2.5),63,56,57,45,38,75,,118,105,24,19,6,6,0.6,0.4
2025-01-07T0000,4036A,116.6461,23.6761,潮州市,金山,细颗粒物(PM2.5),79,69,58,58,45,45,,118,90,30,20,6,7,0.8,0.7
2025-01-07T0000,2472A,113.0073,25.9061,郴州市,马头岭,细颗粒物(PM2.5),102,97,116,76,76,63,,116,98,28,31,8,14,0.8,0.9
2025-01-07T0000,2473A,113.0116,25.8226,郴州市,市职中,细颗粒物(PM2.5),114,108,109,86,88,30,,111,53,37,36,4,10,1.0,1
2025-01-07T0000,2474A,113.0161,25.8001,郴州市,兴隆步行街,细颗粒物(PM2.5),127,128,125,96,97,6,,119,57,64,42,6,10,1.2,1.1
2025-01-07T0000,2475A,113.0383,25.8071,郴州市,市审计局,细颗粒物(PM2.5),115,107,114,87,94,16,,118,65,55,33,4,8,2.0,1.4
2025-01-07T0000,2476A,113.0348,25.7759,郴州市,市环保局,细颗粒物(PM2.5),134,143,119,102,99,15,,112,61,74,47,6,10,1.2,1.1
2025-01-07T0000,1431A,103.9728,30.7236,成都市,金泉两河,细颗粒物(PM2.5),89,82,86,66,65,26,,62,28,32,44,2,3,0.7,0.8
2025-01-07T0000,1432A,104.176,30.6872,成都市,十里店,细颗粒物(PM2.5),89,80,85,66,67,24,,42,30,40,51,2,2,0.6,0.6
2025-01-07T0000,1433A,104.079,30.5706,成都市,三瓦窑,细颗粒物(PM2.5),93,91,86,69,64,14,,50,38,48,49,1,1,0.5,0.8
2025-01-07T0000,1434A,104.1114,30.63,成都市,沙河铺,细颗粒物(PM2.5),89,88,79,66,61,29,,52,37,34,41,2,2,0.6,0.6
2025-01-07T0000,1437A,104.0786,30.6531,成都市,君平街,细颗粒物(PM2.5),70,62,81,51,64,15,,54,28,48,47,6,6,0.8,0.9
2025-01-07T0000,1438A,103.613,31.0283,成都市,灵岩寺,,,,,,,,,,,,,,,,
2025-01-07T0000,2880A,104.0239,30.65639,成都市,大石西路,细颗粒物(PM2.5),70,66,84,51,60,22,,55,30,39,45,3,3,0.7,0.8
2025-01-07T0000,3136A,104.2725,30.5589,成都市,龙泉驿区区政府,细颗粒物(PM2.5),79,63,73,58,61,45,,65,51,19,26,4,4,0.5,0.6
2025-01-07T0000,3357A,104.0106,30.6931,成都市,金博路,细颗粒物(PM2.5),75,63,87,55,65,21,,58,26,35,41,2,2,0.7,0.9
2025-01-07T0000,3359A,104.0578,30.5225,成都市,华阳,细颗粒物(PM2.5),100,92,81,75,64,13,,59,38,49,40,3,3,0.7,0.7
2025-01-07T0000,3487A,104.2394,30.5319,成都市,车城东七路,细颗粒物(PM2.5),75,70,75,55,60,37,,60,44,26,30,2,2,0.6,0.7
2025-01-07T0000,3488A,104.3853,30.7453,成都市,青白江技师分院,细颗粒物(PM2.5),110,,82,83,70,2,,46,22,48,40,3,2,0.7,0.6
2025-01-07T0000,3489A,104.0789,30.4072,成都市,科学城,细颗粒物(PM2.5),109,95,71,82,60,18,,62,40,34,28,4,4,0.7,0.6
2025-01-07T0000,4011A,103.8506,30.6947,成都市,光华大道三段,细颗粒物(PM2.5),73,68,93,53,70,31,,57,33,27,38,1,2,0.6,0.7
2025-01-07T0000,1062A,117.9531,40.9081,承德市,铁路,,36,30,27,25,10,27,,60,48,21,15,8,6,0.7,0.3
2025-01-07T0000,1063A,117.9392,40.9763,承德市,中国银行,,26,26,24,15,7,16,,56,39,24,12,1,2,0.5,0.3
2025-01-07T0000,1064A,117.9503,40.928,承德市,开发区,,31,31,32,17,16,25,,66,52,24,17,5,4,0.5,0.4
2025-01-07T0000,1065A,117.8051,40.9655,承德市,文化中心,,40,40,39,25,18,11,,60,38,39,23,5,4,0.6,0.4
2025-01-07T0000,1066A,117.9268,41.0026,承德市,离宫,,30,29,21,21,21,38,,59,48,12,8,6,5,0.1,0.2
2025-01-07T0000,2314A,117.47,30.6618,池州市,池州学院,颗粒物(PM10),79,108,76,13,41,38,,96,72,37,25,10,8,0.5,0.6
2025-01-07T0000,3237A,117.4918,30.6617,池州市,展览馆,颗粒物(PM10),84,117,88,43,45,34,,85,62,41,30,18,10,0.6,0.7
2025-01-07T0000,3333A,117.5627,30.695,池州市,第八中学,颗粒物(PM10),89,128,92,48,51,25,,88,59,49,33,11,11,0.6,0.6
2025-01-07T0000,3334A,117.5038,30.6243,池州市,第十二中学,颗粒物(PM10),84,118,85,46,48,32,,95,66,41,31,10,6,0.7,0.9
2025-01-07T0000,1744A,118.9233,42.2816,赤峰市,松山一中,,17,16,18,10,5,26,,56,43,33,21,22,10,1.0,0.7
2025-01-07T0000,1745A,118.9576,42.2728,赤峰市,哈达街,,20,20,21,3,9,43,,53,46,20,24,11,7,0.7,0.7
2025-01-07T0000,1746A,118.8788,42.2554,赤峰市,天义路,,22,22,20,3,6,40,,53,40,14,19,14,10,0.7,0.7
2025-01-07T0000,3058A,119.2658,42.0353,赤峰市,银河街,,29,21,58,20,31,29,,51,45,25,23,19,27,1.0,1.1
2025-01-07T0000,3286A,118.9359,42.3147,赤峰市,桥北物流园区,,23,,12,16,10,21,,56,38,39,27,10,6,0.8,0.7
2025-01-07T0000,2521A,107.3476,22.4136,崇左市,市环保局江州分局,细颗粒物(PM2.5),119,159,114,90,68,48,,157,98,52,34,7,10,,0.6
2025-01-07T0000,2522A,107.3702,22.3707,崇左市,城南新区,细颗粒物(PM2.5),108,104,86,81,62,74,,161,127,50,30,9,9,1.1,1
2025-01-07T0000,2298A,118.3093,32.3153,滁州市,老年大学,,43,43,95,21,41,46,,76,54,31,32,4,5,0.3,0.5
2025-01-07T0000,2299A,118.3244,32.2786,滁州市,人大宾馆,颗粒物(PM10),51,52,115,28,44,42,,77,56,25,28,7,9,0.5,0.6
2025-01-07T0000,3207A,118.3118,32.3038,滁州市,市政府原办公楼,,48,48,96,30,44,50,,74,54,28,28,5,6,0.1,0.2
2025-01-07T0000,3331A,118.3267,32.2634,滁州市,图书馆,颗粒物(PM10),52,54,104,25,34,34,,62,46,27,26,5,6,0.5,0.5
2025-01-07T0000,2605A,101.5482,25.0441,楚雄彝族自治州,州环境监测站,细颗粒物(PM2.5),52,,38,36,30,58,,72,68,8,17,5,6,0.6,0.6
2025-01-07T0000,2606A,101.538,25.0492,楚雄彝族自治州,市经济开发区,,45,45,40,23,28,56,,68,64,13,17,5,5,0.8,0.7
2025-01-07T0000,2548A,107.5277,31.2827,达州市,达州职业技术学院,细颗粒物(PM2.5),159,,83,121,75,8,,11,10,11,16,7,6,0.9,0.7
2025-01-07T0000,2549A,107.5086,31.2186,达州市,市环境监测站,细颗粒物(PM2.5),125,121,87,95,59,6,,5,5,36,40,7,7,1.1,0.9
2025-01-07T0000,2550A,107.4988,31.2132,达州市,凤凰小区,细颗粒物(PM2.5),125,114,84,95,61,6,,6,6,35,40,9,10,1.0,0.8
2025-01-07T0000,2551A,107.5082,31.1986,达州市,达县机关宾馆,细颗粒物(PM2.5),125,117,83,95,59,4,,5,4,35,40,8,8,1.0,1
2025-01-07T0000,2552A,107.4644,31.2124,达州市,市政中心,细颗粒物(PM2.5),117,111,106,88,68,5,,5,5,40,46,6,12,1.3,1.5
2025-01-07T0000,2614A,100.1542,25.7054,大理白族自治州,大理市环境监测站,,30,27,27,21,21,74,,83,82,7,7,6,7,0.5,0.5
2025-01-07T0000,2615A,100.2171,25.5811,大理白族自治州,大理古城,,38,,29,26,19,65,,88,82,12,12,5,5,0.6,0.6
2025-01-07T0000,1109A,121.612,38.9741,大连市,甘井子,,25,25,42,10,16,62,,72,55,25,30,9,9,0.8,0.5
2025-01-07T0000,1110A,121.565,38.9511,大连市,周水子,,21,21,34,11,18,47,,62,44,28,27,12,13,0.5,0.5
2025-01-07T0000,1111A,121.5637,38.8845,大连市,星海三站,,24,24,32,14,16,36,,69,52,27,18,8,10,0.5,0.4
2025-01-07T0000,1112A,121.6302,38.9117,大连市,青泥洼桥,,17,14,26,7,15,54,,58,46,11,18,10,12,0.5,0.5
2025-01-07T0000,1113A,121.6251,38.8638,大连市,傅家庄,,19,19,28,8,13,58,,66,56,17,17,17,15,0.5,0.5
2025-01-07T0000,1114A,121.5213,38.8661,大连市,七贤岭,,19,19,24,10,13,52,,71,58,12,15,10,11,0.6,0.6
2025-01-07T0000,1115A,121.2529,38.8061,大连市,旅顺,,20,14,20,8,12,62,,73,66,8,16,10,11,0.5,0.6
2025-01-07T0000,1116A,121.7485,39.1311,大连市,金州,,26,23,32,18,23,58,,69,60,13,15,6,8,0.7,0.6
2025-01-07T0000,1117A,121.7811,39.0496,大连市,开发区,,36,36,41,21,21,24,,60,39,46,22,13,13,0.7,0.6
2025-01-07T0000,1118A,121.9762,39.0631,大连市,双D港,,20,17,29,11,17,61,,76,64,14,14,8,11,0.7,0.7
2025-01-07T0000,1789A,124.81117,46.03138,大庆市,大同区,细颗粒物(PM2.5),144,116,139,110,92,23,,44,22,35,41,7,11,1.0,1.1
2025-01-07T0000,1790A,125.129,46.533,大庆市,龙凤区,细颗粒物(PM2.5),147,138,95,112,67,27,,46,28,48,45,44,9,1.6,0.9
2025-01-07T0000,1791A,124.902,46.408,大庆市,红岗区,细颗粒物(PM2.5),128,,87,97,67,8,,36,23,48,38,6,7,1.0,0.8
2025-01-07T0000,1792A,125.153,46.586,大庆市,萨尔图区,细颗粒物(PM2.5),92,98,86,68,69,28,,42,28,53,51,6,8,0.5,0.9
2025-01-07T0000,1793A,124.9042,46.6215,大庆市,让胡路区,细颗粒物(PM2.5),73,64,74,53,64,13,,46,29,66,36,6,7,1.1,0.7
2025-01-07T0000,3481A,125.141,46.634,大庆市,萨区政府监测点,细颗粒物(PM2.5),62,59,77,44,57,26,,46,31,46,37,6,6,0.7,0.8
2025-01-07T0000,1721A,113.3819,40.1097,大同市,果树场,,39,39,45,22,18,21,,54,31,36,37,14,18,1.0,0.7
2025-01-07T0000,1723A,113.2994,40.0758,大同市,云冈宾馆,,39,39,30,16,10,25,,62,48,35,20,19,11,0.8,0.7
2025-01-07T0000,1724A,113.3444,40.0917,大同市,大同大学,,43,43,26,16,10,14,,61,41,42,23,24,17,1.0,0.7
2025-01-07T0000,1725A,113.2661,40.1269,大同市,安家小村,,31,31,33,17,11,24,,64,52,34,17,21,18,0.8,1
2025-01-07T0000,1726A,113.2711,40.0844,大同市,教育学院,,22,19,34,15,22,49,,57,47,14,28,7,11,0.4,0.7
2025-01-07T0000,3282A,113.3397,40.0597,大同市,大同市卫生学校,,38,38,27,18,12,10,,54,40,51,26,19,9,0.9,0.7
2025-01-07T0000,3565A,113.1367,40.1122,大同市,云冈站,,24,24,29,7,11,16,,62,40,41,29,18,21,0.5,0.5
2025-01-07T0000,3566A,113.1186,40.2556,大同市,图书馆,,23,23,28,16,13,50,,66,55,8,14,8,21,0.6,0.8
2025-01-07T0000,3567A,113.5931,40.0461,大同市,区一中,,33,33,35,7,14,37,,53,39,22,24,25,21,0.8,0.7
2025-01-07T0000,3676A,113.2802,40.0995,大同市,第二人民医院,,26,26,40,12,19,30,,61,45,35,29,20,15,0.7,0.9
2025-01-07T0000,2269A,124.1069,50.4097,大兴安岭地区,科技局,,26,,17,18,20,70,,68,68,2,4,5,5,0.4,0.4
2025-01-07T0000,3663A,124.1164,50.4278,大兴安岭地区,红旗社区,,20,6,7,3,5,64,,63,63,4,7,1,2,0.2,0.3
2025-01-07T0000,1600A,124.3303,40.0625,丹东市,江湾东路,细颗粒物(PM2.5),60,55,63,43,42,38,,66,45,24,24,11,9,1.1,0.8
2025-01-07T0000,1601A,124.4256,40.1503,丹东市,临江后街,细颗粒物(PM2.5),120,,60,91,72,14,,66,47,52,27,20,10,1.2,0.9
2025-01-07T0000,1602A,124.3933,40.1461,丹东市,元宝山,,40,36,54,28,43,32,,45,36,12,22,6,8,0.8,0.9
2025-01-07T0000,1603A,124.3633,40.1092,丹东市,民主桥,颗粒物(PM10),57,63,70,39,39,15,,61,34,42,29,11,11,1.2,0.9
2025-01-07T0000,3541A,109.5726,19.5167,儋州市,第一中学子站,细颗粒物(PM2.5),69,74,67,50,46,153,,152,152,14,18,7,9,0.7,0.7
2025-01-07T0000,3542A,109.5567,19.5187,儋州市,东坡学校子站,臭氧1小时,70,76,63,47,47,176,,177,177,13,14,7,8,0.8,0.7
2025-01-07T0000,2616A,98.5842,24.428,德宏傣族景颇族自治州,德宏州监测站,"颗粒物(PM10),细颗粒物(PM2.5)",55,60,60,39,35,40,,79,53,23,27,6,9,0.8,0.7
2025-01-07T0000,3677A,98.5881,24.4368,德宏傣族景颇族自治州,芒市人民政府综合楼,细颗粒物(PM2.5),54,55,50,38,32,33,,74,56,17,18,5,6,0.7,0.6
2025-01-07T0000,1901A,104.4239,31.1208,德阳市,东山公园,细颗粒物(PM2.5),94,77,82,70,73,36,,45,43,20,32,3,3,0.9,0.8
2025-01-07T0000,1902A,104.3826,31.1317,德阳市,西小区,细颗粒物(PM2.5),98,85,103,73,81,30,,33,33,22,44,4,3,0.7,0.9
2025-01-07T0000,1904A,104.3553,31.1091,德阳市,耐火材料厂,细颗粒物(PM2.5),99,78,94,74,81,20,,30,30,29,42,5,5,0.8,0.9
2025-01-07T0000,3639A,104.4019,31.1244,德阳市,市教育局,细颗粒物(PM2.5),95,79,86,71,75,26,,35,33,27,43,4,5,0.8,0.9
2025-01-07T0000,1622A,116.3032,37.4674,德州市,儿童乐园,颗粒物(PM10),58,66,47,27,12,37,,66,49,35,27,10,6,0.7,0.6
2025-01-07T0000,1624A,116.2991,37.4451,德州市,监理站,颗粒物(PM10),56,61,36,24,9,27,,70,42,47,30,14,12,0.7,0.5
2025-01-07T0000,3066A,116.2721,37.4379,德州市,九衢泉纯净水厂,颗粒物(PM10),57,63,45,34,16,20,,65,32,44,29,12,10,0.8,0.5
2025-01-07T0000,3371A,116.3728,37.4403,德州市,开发区人民医院,颗粒物(PM10),53,56,40,22,12,45,,67,51,28,27,12,10,0.6,0.5
2025-01-07T0000,3372A,116.3572,37.4094,德州市,太阳城中学,颗粒物(PM10),53,56,43,31,16,38,,71,45,35,24,13,10,0.6,0.5
2025-01-07T0000,3511A,116.5652,37.3319,德州市,陵城艺术中心,细颗粒物(PM2.5),55,58,44,39,14,17,,64,35,44,21,12,9,0.8,0.6
2025-01-07T0000,2621A,99.7056,27.8317,迪庆藏族自治州,迪庆州站,,32,32,27,21,19,77,,89,83,9,12,8,8,0.7,0.6
2025-01-07T0000,3180A,99.7136,27.8094,迪庆藏族自治州,质量技术监督局,,35,,23,24,18,73,,86,79,6,11,7,8,0.4,0.5
2025-01-07T0000,2663A,104.6241,35.5734,定西市,东关小学,细颗粒物(PM2.5),59,66,60,42,41,53,,68,55,16,23,11,15,0.6,0.8
2025-01-07T0000,2664A,104.6194,35.5934,定西市,供电公司,细颗粒物(PM2.5),53,53,64,37,45,24,,76,56,52,30,12,14,1.0,1.2
2025-01-07T0000,1389A,113.7547,23.0494,东莞市,莞城梨川,细颗粒物(PM2.5),77,96,78,56,50,59,,159,98,63,37,8,8,1.0,0.9
2025-01-07T0000,1390A,113.7944,23.0128,东莞市,东城石井,细颗粒物(PM2.5),62,72,67,44,44,46,,147,96,48,33,6,7,0.8,0.7
2025-01-07T0000,1391A,113.7383,22.9658,东莞市,南城西平,细颗粒物(PM2.5),85,112,84,63,52,20,,163,103,114,63,7,6,0.9,0.7
2025-01-07T0000,3319A,113.7338,23.0381,东莞市,万江金泰,细颗粒物(PM2.5),78,95,77,57,49,48,,152,88,65,37,7,7,0.9,0.8
2025-01-07T0000,3626A,113.7533,23.0202,东莞市,南城元岭,细颗粒物(PM2.5),79,96,79,58,52,59,,170,96,64,38,9,9,1.0,0.9
2025-01-07T0000,3627A,113.7875,23.0457,东莞市,东城主山,细颗粒物(PM2.5),85,100,81,63,50,31,,146,71,89,46,11,11,1.0,0.8
2025-01-07T0000,1666A,118.6614,37.4309,东营市,市环保局,,36,36,47,24,29,25,,62,36,41,33,8,7,0.6,0.7
2025-01-07T0000,3036A,118.6904,37.4338,东营市,开发区管委会,,41,41,49,22,27,29,,63,40,48,41,7,5,0.6,0.7
2025-01-07T0000,3365A,118.5719,37.565,东营市,垦利区民丰路,颗粒物(PM10),52,53,49,22,27,17,,59,30,43,37,13,12,0.4,0.5
2025-01-07T0000,3498A,118.5055,37.8612,东营市,河口城区,颗粒物(PM10),51,51,44,34,19,18,,68,38,47,31,8,4,0.6,0.5
2025-01-07T0000,3646A,118.4978,37.4623,东营市,胜利站,,49,49,64,24,34,34,,54,29,32,44,10,9,0.4,0.7
2025-01-07T0000,3734A,118.35,37.26,东营市,理想之城,,44,44,56,22,32,26,,62,37,48,46,9,7,0,0.2
2025-01-07T0000,1591A,110.0023,39.8129,鄂尔多斯市,综合楼,,36,36,28,12,6,30,,72,53,40,24,10,8,0.5,0.6
2025-01-07T0000,1592A,109.9486,39.8261,鄂尔多斯市,巴音孟克林场办事处,,27,27,28,7,9,40,,70,52,25,24,7,9,0.4,0.5
2025-01-07T0000,1593A,109.7736,39.5986,鄂尔多斯市,康泽苑,,15,9,18,7,6,48,,66,57,14,11,6,5,0.4,0.4
2025-01-07T0000,1594A,109.8119,39.5989,鄂尔多斯市,华泰汽车城,,19,19,23,7,7,45,,70,59,23,17,7,6,0.5,0.5
2025-01-07T0000,1595A,109.9734,39.7884,鄂尔多斯市,奥林花园,,36,36,33,7,9,25,,71,50,45,33,8,7,0.4,0.5
2025-01-07T0000,2436A,114.8938,30.3994,鄂州市,市政府,颗粒物(PM10),83,116,90,59,59,63,,53,52,28,41,9,9,0.7,0.8
2025-01-07T0000,2437A,114.8989,30.3714,鄂州市,赵家坝,颗粒物(PM10),91,131,93,59,60,61,,60,58,30,43,7,7,0.5,0.7
2025-01-07T0000,3654A,114.8094,30.4089,鄂州市,精准医疗中心,细颗粒物(PM2.5),90,125,85,67,58,49,,72,65,38,33,12,10,0.6,0.9
2025-01-07T0000,2454A,109.4978,30.2981,恩施土家族苗族自治州,湖北民院,细颗粒物(PM2.5),158,,71,120,83,14,,15,10,26,22,7,7,1.4,1
2025-01-07T0000,2455A,109.4707,30.2798,恩施土家族苗族自治州,州电力总公司,细颗粒物(PM2.5),120,108,83,91,70,8,,12,8,30,26,8,7,1.2,1.3
2025-01-07T0000,3549A,109.5061,30.3772,恩施土家族苗族自治州,龙凤新区,细颗粒物(PM2.5),114,98,72,86,60,6,,13,7,18,25,6,6,1.5,1.1
2025-01-07T0000,2499A,108.3411,21.6158,防城港市,沙万,细颗粒物(PM2.5),89,84,106,66,69,110,,157,112,30,40,21,18,0.8,1
2025-01-07T0000,2500A,108.3514,21.7731,防城港市,防城档案局,颗粒物(PM10),99,147,133,70,73,61,,162,107,43,42,7,9,1.1,1
2025-01-07T0000,2501A,108.3506,21.6414,防城港市,大海花园,细颗粒物(PM2.5),89,88,102,66,71,140,,165,146,22,29,16,17,0.9,1.1
2025-01-07T0000,1371A,113.1294,23.0067,佛山市,湾梁,颗粒物(PM10),75,100,93,44,49,23,,131,92,94,52,7,9,1.0,0.7
2025-01-07T0000,1372A,113.1083,23.0478,佛山市,华材职中,细颗粒物(PM2.5),110,161,108,83,71,9,,146,70,142,77,9,10,1.2,0.9
2025-01-07T0000,1373A,113.144,23.0453,佛山市,南海气象局,细颗粒物(PM2.5),80,94,83,59,61,7,,144,93,130,56,8,9,1.1,0.8
2025-01-07T0000,1374A,113.2881,22.8094,佛山市,顺德苏岗,细颗粒物(PM2.5),83,79,86,61,57,35,,114,76,63,49,8,9,0.8,0.8
2025-01-07T0000,1376A,112.8383,22.8678,佛山市,高明孔堂,细颗粒物(PM2.5),98,85,107,73,83,57,,160,116,49,38,9,12,0.8,0.8
2025-01-07T0000,1377A,112.8836,23.1588,佛山市,三水监测站,细颗粒物(PM2.5),112,124,112,84,81,53,,149,92,87,50,20,15,1.1,1
2025-01-07T0000,1378A,112.867,23.185,佛山市,三水云东海,细颗粒物(PM2.5),98,94,92,73,73,31,,150,84,94,51,11,13,0.9,0.9
2025-01-07T0000,3625A,113.2544,22.7642,佛山市,容桂街道办,细颗粒物(PM2.5),107,136,97,80,61,14,,125,82,121,58,8,9,1.2,0.9
2025-01-07T0000,1280A,119.3903,26.0543,福州市,鼓山,,,,45,,26,,,142,142,,14,,2,,0.4
2025-01-07T0000,1282A,119.2681,26.0504,福州市,师大,细颗粒物(PM2.5),62,58,49,44,35,114,,113,106,15,22,4,4,0.4,0.5
2025-01-07T0000,1283A,119.2984,26.1028,福州市,五四北路,,,,42,,34,,,67,,,26,,2,,0.5
2025-01-07T0000,1284A,119.2648,26.0768,福州市,杨桥西路,细颗粒物(PM2.5),67,60,51,48,36,115,,116,113,15,22,1,2,0.5,0.4
2025-01-07T0000,1285A,119.317,26.0746,福州市,紫阳,细颗粒物(PM2.5),73,59,54,53,35,113,,106,106,16,30,4,4,0.5,0.5
2025-01-07T0000,3048A,119.5799,26.0936,福州市,九龙,细颗粒物(PM2.5),63,56,44,45,32,99,,121,112,18,16,2,2,0.4,0.5
2025-01-07T0000,3526A,119.5189,25.9664,福州市,吴航,细颗粒物(PM2.5),64,74,49,46,31,116,,125,124,15,23,2,2,0.5,0.5
2025-01-07T0000,1755A,123.7977,41.8491,抚顺市,望花区,细颗粒物(PM2.5),145,197,138,111,105,9,,38,16,55,46,5,8,1.5,1.2
2025-01-07T0000,1756A,123.9161,41.8822,抚顺市,顺城区,细颗粒物(PM2.5),129,150,145,98,100,13,,38,19,54,52,6,8,1.8,1.4
2025-01-07T0000,1757A,124.0436,41.8611,抚顺市,东洲区,细颗粒物(PM2.5),110,114,142,83,105,20,,46,31,37,38,5,8,1.3,1.4
2025-01-07T0000,1758A,123.9247,41.8642,抚顺市,新抚区,细颗粒物(PM2.5),113,123,135,85,104,12,,40,19,55,54,3,6,1.2,1.3
2025-01-07T0000,1759A,124.0972,41.8961,抚顺市,大伙房水库,细颗粒物(PM2.5),99,106,127,74,100,10,,42,30,56,41,8,9,1.2,1.3
2025-01-07T0000,1760A,123.7086,41.8391,抚顺市,沈抚新城,细颗粒物(PM2.5),122,108,129,92,104,14,,44,22,53,50,4,7,1.3,1.1
2025-01-07T0000,2376A,116.2127,28.0814,抚州市,桐源党溪,"颗粒物(PM10),细颗粒物(PM2.5)",64,77,94,46,62,38,,112,66,3,11,1,5,0.4,0.6
2025-01-07T0000,2377A,116.3544,27.9831,抚州市,市站,细颗粒物(PM2.5),72,79,100,52,69,79,,117,101,21,32,4,5,1.0,1.2
2025-01-07T0000,2378A,116.3565,27.963,抚州市,血防站,细颗粒物(PM2.5),69,86,103,50,67,78,,118,101,18,32,10,11,0.9,1.1
2025-01-07T0000,2379A,116.3564,28.0007,抚州市,采茶剧团,细颗粒物(PM2.5),72,76,98,52,69,66,,99,82,13,27,1,3,1.0,1.3
2025-01-07T0000,2380A,116.385,27.9647,抚州市,医学分院,颗粒物(PM10),69,87,102,49,62,63,,94,80,20,32,30,13,0.9,1
2025-01-07T0000,2207A,121.6094,41.998,阜新市,工业园区,颗粒物(PM10),75,100,94,17,44,31,,56,24,28,35,14,11,1.0,1.2
2025-01-07T0000,2208A,121.6697,42.0279,阜新市,长青街,,29,29,55,16,27,45,,60,44,16,23,7,8,0.4,0.5
2025-01-07T0000,2209A,121.6673,42.0705,阜新市,农业园区,,34,34,41,7,17,44,,60,50,13,12,9,10,0.8,0.8
2025-01-07T0000,2210A,121.6717,42.0224,阜新市,东苑,,40,40,58,12,24,41,,58,44,19,21,9,11,0.5,0.8
2025-01-07T0000,2211A,121.6506,42.0498,阜新市,玉龙新城,颗粒物(PM10),74,97,80,28,40,12,,64,24,43,34,6,7,0.9,1
2025-01-07T0000,2301A,115.8277,32.8929,阜阳市,市监测站,,43,39,84,30,49,45,,63,46,26,28,7,8,0.3,0.5
2025-01-07T0000,2303A,115.8554,32.8605,阜阳市,开发区,颗粒物(PM10),66,82,117,29,47,33,,64,46,29,26,8,9,0.4,0.5
2025-01-07T0000,2875A,115.784,32.8892,阜阳市,阜阳职业技术学院,,48,35,90,33,48,51,,66,55,20,25,10,10,0.4,0.5
2025-01-07T0000,3468A,115.7901,32.8613,阜阳市,市规划展馆,,30,30,89,12,38,56,,67,58,18,23,7,9,0.6,0.8
2025-01-07T0000,3469A,115.836,32.9183,阜阳市,枣园社区,颗粒物(PM10),53,56,97,22,43,54,,69,52,22,30,6,8,0.4,0.6
2025-01-07T0000,2669A,102.9099,34.9841,甘南藏族自治州,州政府,颗粒物(PM10),65,79,61,44,34,53,,79,74,26,27,12,14,1.0,1
2025-01-07T0000,3380A,102.8914,34.9617,甘南藏族自治州,甘肃民族师范学院,颗粒物(PM10),59,68,62,40,31,33,,92,82,47,28,5,7,0.7,0.6
2025-01-07T0000,2570A,101.9603,30.0475,甘孜藏族自治州,水桥子,,40,40,31,22,18,64,,75,69,16,24,2,2,0.6,0.5
2025-01-07T0000,3065A,101.9533,29.9972,甘孜藏族自治州,州环保局,,46,46,32,20,12,70,,78,72,12,15,4,4,0.5,0.4
2025-01-07T0000,3414A,115.8347,28.932,赣江新区,桑海产业园,颗粒物(PM10),96,141,109,59,68,72,,88,75,26,43,14,11,0.7,0.7
2025-01-07T0000,2362A,114.9017,25.9149,赣州市,通天岩,细颗粒物(PM2.5),94,79,87,70,60,66,,127,87,4,11,1,3,0.7,0.8
2025-01-07T0000,2363A,114.9367,25.8664,赣州市,地委,细颗粒物(PM2.5),94,100,91,70,68,25,,121,94,63,26,1,3,1.6,1.5
2025-01-07T0000,2364A,114.9461,25.8481,赣州市,气象台,细颗粒物(PM2.5),94,127,112,70,63,32,,135,99,91,49,10,12,1.3,1
2025-01-07T0000,2365A,114.9322,25.8333,赣州市,市图书馆,细颗粒物(PM2.5),94,115,102,70,67,36,,132,105,75,39,4,5,1.2,1
2025-01-07T0000,2366A,114.8905,25.8471,赣州市,华坚鞋城,细颗粒物(PM2.5),92,100,100,68,66,100,,128,116,20,24,7,7,0.7,0.7
2025-01-07T0000,3109A,115.0093,25.8613,赣州市,赣县区卫计委,细颗粒物(PM2.5),107,108,108,80,80,38,,118,82,56,32,3,5,0.8,0.7
2025-01-07T0000,2683A,106.2319,36.1417,固原市,马园,细颗粒物(PM2.5),68,72,62,49,27,17,,,,52,37,10,8,1.1,0.9
2025-01-07T0000,2684A,106.2792,36.0022,固原市,监测站,细颗粒物(PM2.5),52,50,43,36,20,13,,75,53,66,24,13,8,1.2,0.7
2025-01-07T0000,2685A,106.2375,36.0211,固原市,新区,颗粒物(PM10),51,52,47,26,18,23,,67,50,52,33,8,7,0.7,0.7
2025-01-07T0000,3522A,106.2177,35.9959,固原市,原州区十五小,颗粒物(PM10),56,62,47,30,20,44,,75,68,39,18,10,8,0.7,0.6
2025-01-07T0000,2543A,106.6308,30.5278,广安市,小平旧居,,,,,,,,,,,,,,,,
2025-01-07T0000,2544A,106.6303,30.4576,广安市,市委,细颗粒物(PM2.5),129,103,96,98,86,22,,30,23,25,29,3,3,1.0,0.9
2025-01-07T0000,2545A,106.6271,30.4663,广安市,友谊中学,细颗粒物(PM2.5),124,105,96,94,85,16,,24,18,28,31,4,4,1.1,1
2025-01-07T0000,2547A,106.6388,30.4551,广安市,广电花园,细颗粒物(PM2.5),127,,90,96,82,18,,26,17,26,28,4,3,0.7,0.7
2025-01-07T0000,2902A,106.6351,30.4865,广安市,北辰小学,细颗粒物(PM2.5),123,107,93,93,80,15,,22,19,30,30,4,4,1.4,1.3
2025-01-07T0000,2523A,105.8945,32.4535,广元市,黑石坡,细颗粒物(PM2.5),79,76,64,58,55,23,,36,31,31,32,12,11,0.8,0.7
2025-01-07T0000,2524A,105.821,32.4444,广元市,老城,"颗粒物(PM10),细颗粒物(PM2.5)",70,89,94,51,59,13,,26,11,62,60,4,4,1.3,1.4
2025-01-07T0000,2526A,105.8628,32.4287,广元市,监测站,细颗粒物(PM2.5),100,109,72,75,57,7,,30,14,66,52,12,4,1.8,1.3
2025-01-07T0000,3617A,105.8047,32.4166,广元市,经开区,细颗粒物(PM2.5),82,86,104,60,75,11,,21,16,58,56,7,9,1.2,1.4
2025-01-07T0000,1345A,113.2347,23.1423,广州市,广雅中学,细颗粒物(PM2.5),109,148,108,82,67,4,,137,58,146,67,11,11,1.2,0.9
2025-01-07T0000,1346A,113.2612,23.105,广州市,市五中,细颗粒物(PM2.5),99,104,93,74,71,15,,144,83,106,42,6,6,1.0,0.8
2025-01-07T0000,1348A,113.3478,23.0916,广州市,广东商学院,细颗粒物(PM2.5),84,96,80,62,58,39,,141,96,99,43,6,6,0.9,0.7
2025-01-07T0000,1349A,113.4332,23.1047,广州市,市八十六中,细颗粒物(PM2.5),93,120,88,69,53,17,,128,63,125,62,7,7,1.0,0.9
2025-01-07T0000,1350A,113.3505,22.9483,广州市,番禺中学,细颗粒物(PM2.5),85,106,91,63,58,33,,134,88,93,52,4,5,1.2,0.9
2025-01-07T0000,1351A,113.2146,23.3916,广州市,花都师范,细颗粒物(PM2.5),82,90,84,60,58,96,,130,109,40,33,9,8,0.8,0.8
2025-01-07T0000,1352A,113.2597,23.1331,广州市,市监测站,细颗粒物(PM2.5),80,106,94,59,58,4,,135,75,134,52,7,8,1.3,1
2025-01-07T0000,1353A,113.5618,23.312,广州市,九龙镇镇龙,细颗粒物(PM2.5),92,108,85,68,57,22,,133,72,68,44,5,6,0.9,0.8
2025-01-07T0000,1354A,113.2765,23.1544,广州市,麓湖,细颗粒物(PM2.5),72,76,82,52,61,3,,139,74,119,44,4,6,1.0,0.9
2025-01-07T0000,1355A,113.443,23.3035,广州市,帽峰山森林公园,细颗粒物(PM2.5),57,52,62,40,40,115,,148,134,17,19,8,8,0.6,0.6
2025-01-07T0000,2846A,113.3221,23.1322,广州市,体育西,细颗粒物(PM2.5),85,98,88,63,59,19,,135,88,96,34,6,7,1.0,0.8
2025-01-07T0000,3298A,113.5717,23.5491,广州市,从化街口,细颗粒物(PM2.5),100,116,89,75,62,2,,140,66,95,42,8,8,1.1,0.9
2025-01-07T0000,3299A,113.3472,23.3692,广州市,白云竹料,细颗粒物(PM2.5),104,122,93,78,63,10,,141,85,102,39,8,9,1.1,0.9
2025-01-07T0000,3300A,113.2981,23.237,广州市,白云嘉禾,细颗粒物(PM2.5),85,117,100,63,61,5,,137,60,127,60,9,9,1.1,0.9
2025-01-07T0000,3301A,113.4256,23.1716,广州市,黄埔科学城,细颗粒物(PM2.5),72,78,70,52,48,78,,135,91,41,30,8,7,0.9,0.8
2025-01-07T0000,3302A,113.3942,23.0483,广州市,番禺大学城,细颗粒物(PM2.5),80,90,78,59,50,40,,142,91,88,50,10,10,0.9,0.8
2025-01-07T0000,3303A,113.4922,22.8168,广州市,南沙黄阁,"颗粒物(PM10),细颗粒物(PM2.5)",82,113,97,60,60,7,,144,66,122,60,7,11,1.1,0.9
2025-01-07T0000,3304A,113.5342,22.7896,广州市,南沙街,"颗粒物(PM10),细颗粒物(PM2.5)",78,106,89,57,55,19,,173,104,113,53,7,8,0.9,0.8
2025-01-07T0000,3443A,113.2902,23.5544,广州市,花都梯面,细颗粒物(PM2.5),67,66,75,48,53,8,,142,62,87,34,8,11,0.8,0.8
2025-01-07T0000,3445A,113.7858,23.7478,广州市,从化良口,细颗粒物(PM2.5),58,56,53,41,40,69,,130,103,32,17,6,6,0.8,0.7
2025-01-07T0000,3446A,113.8051,23.2614,广州市,增城荔城,细颗粒物(PM2.5),62,64,62,44,44,69,,132,81,27,21,6,6,0.7,0.9
2025-01-07T0000,2505A,109.568,23.1478,贵港市,德智高中,,,,,,,,,,,,,,,,
2025-01-07T0000,2506A,109.6047,23.0666,贵港市,江南子站,细颗粒物(PM2.5),135,139,173,103,114,121,,165,135,40,53,16,15,1.1,1.4
2025-01-07T0000,2507A,109.6014,23.0948,贵港市,贵城子站,细颗粒物(PM2.5),133,123,126,101,99,114,,157,132,29,38,14,13,1.0,1.1
2025-01-07T0000,2508A,109.5669,23.1065,贵港市,荷城子站,细颗粒物(PM2.5),117,114,128,88,90,107,,144,119,34,37,13,14,1.0,1.1
2025-01-07T0000,3405A,109.5886,23.1172,贵港市,新世纪学校,细颗粒物(PM2.5),113,124,121,85,82,97,,159,129,47,33,15,14,0.9,1
2025-01-07T0000,1439A,106.6899,26.5998,贵阳市,马鞍山,细颗粒物(PM2.5),77,78,64,56,47,45,,52,40,26,41,9,11,0.5,0.8
2025-01-07T0000,1440A,106.6971,26.5694,贵阳市,市环保站,细颗粒物(PM2.5),102,88,88,76,63,49,,50,40,39,54,24,24,1.0,1
2025-01-07T0000,1441A,106.6243,26.6266,贵阳市,鉴湖路,细颗粒物(PM2.5),70,61,62,51,44,64,,65,49,29,37,10,10,0.7,0.8
2025-01-07T0000,1442A,106.7487,26.6343,贵阳市,燕子冲,细颗粒物(PM2.5),100,78,67,75,55,58,,55,52,26,38,18,19,0.8,0.8
2025-01-07T0000,1443A,106.6555,26.4365,贵阳市,碧云窝,细颗粒物(PM2.5),113,124,89,85,60,13,,49,22,62,46,37,28,1.2,0.9
2025-01-07T0000,1444A,106.694,26.5161,贵阳市,中院村,细颗粒物(PM2.5),92,97,98,68,68,20,,36,28,74,61,37,39,1.2,1.2
2025-01-07T0000,1445A,106.7109,26.6027,贵阳市,红边门,细颗粒物(PM2.5),100,95,76,75,60,55,,48,48,32,49,39,36,0.9,0.9
2025-01-07T0000,1446A,106.7164,26.5699,贵阳市,新华路,细颗粒物(PM2.5),89,95,78,66,55,49,,55,40,34,46,24,24,0.9,0.9
2025-01-07T0000,1447A,106.674,26.5424,贵阳市,太慈桥,细颗粒物(PM2.5),94,92,74,70,52,11,,51,25,69,48,17,18,1.1,0.8
2025-01-07T0000,1552A,106.805,26.3003,贵阳市,桐木岭,细颗粒物(PM2.5),69,76,65,50,44,104,,103,97,2,2,11,15,0.5,0.5
2025-01-07T0000,1862A,110.4144,25.3167,桂林市,电子科大尧山校区,细颗粒物(PM2.5),58,55,64,41,49,120,,118,112,16,17,6,7,0.6,0.6
2025-01-07T0000,1863A,110.2819,25.2697,桂林市,监测站,细颗粒物(PM2.5),58,48,83,41,65,108,,115,100,24,28,14,14,0.7,0.8
2025-01-07T0000,1864A,110.3089,25.2708,桂林市,龙隐路小学,细颗粒物(PM2.5),68,,77,49,76,112,,129,114,24,24,13,15,0.6,0.8
2025-01-07T0000,1865A,110.2869,25.2178,桂林市,八中,细颗粒物(PM2.5),59,49,80,42,66,100,,122,96,20,23,13,13,0.8,1
2025-01-07T0000,3403A,110.1764,25.2381,桂林市,创业大厦,细颗粒物(PM2.5),64,66,101,46,75,116,,128,111,21,32,10,17,0.7,0.8
2025-01-07T0000,3531A,110.296,25.1253,桂林市,旅游学院,细颗粒物(PM2.5),70,58,88,51,71,109,,123,104,18,31,8,10,0.9,1
2025-01-07T0000,2674A,100.2561,34.4714,果洛藏族自治州,玛沁县大武镇,颗粒物(PM10),52,53,40,25,15,34,,80,56,11,11,14,14,0.5,0.5
2025-01-07T0000,1129A,126.5422,45.755,哈尔滨市,岭北,细颗粒物(PM2.5),211,189,115,161,98,17,,62,36,77,46,15,15,2.8,1.4
2025-01-07T0000,1130A,126.561,45.8167,哈尔滨市,松北商大,细颗粒物(PM2.5),168,144,102,127,85,18,,53,36,64,40,6,7,1.3,1
2025-01-07T0000,1131A,126.979,45.5419,哈尔滨市,阿城会宁,细颗粒物(PM2.5),163,132,126,124,123,29,,43,25,34,43,6,11,1.3,1.4
2025-01-07T0000,1132A,126.599,45.7222,哈尔滨市,南岗学府路,细颗粒物(PM2.5),172,162,123,130,89,15,,48,32,69,45,11,10,0.9,0.9
2025-01-07T0000,1133A,126.689,45.7733,哈尔滨市,太平宏伟公园,细颗粒物(PM2.5),214,183,118,164,89,6,,48,25,72,51,12,8,2.0,1.1
2025-01-07T0000,1134A,126.635,45.7667,哈尔滨市,道外承德广场,细颗粒物(PM2.5),163,166,117,124,76,9,,45,20,72,48,7,7,1.2,1.1
2025-01-07T0000,1135A,126.685,45.7319,哈尔滨市,香坊红旗大街,细颗粒物(PM2.5),198,161,118,148,98,9,,45,21,77,52,12,13,1.4,1.1
2025-01-07T0000,1136A,126.6411,45.7258,哈尔滨市,动力和平路,细颗粒物(PM2.5),183,158,106,138,88,5,,44,24,68,44,9,10,1.2,1
2025-01-07T0000,1137A,126.593,45.7478,哈尔滨市,道里建国路,细颗粒物(PM2.5),182,147,111,137,99,6,,43,20,76,51,9,8,1.1,1
2025-01-07T0000,1138A,126.615,45.61,哈尔滨市,平房东轻厂,细颗粒物(PM2.5),180,141,114,136,95,15,,44,22,56,49,5,12,1.2,1
2025-01-07T0000,1139A,126.595,45.9855,哈尔滨市,呼兰师专,细颗粒物(PM2.5),196,,106,147,94,14,,46,20,66,42,11,11,1.1,0.9
2025-01-07T0000,1140A,126.6206,45.6842,哈尔滨市,省农科院,细颗粒物(PM2.5),199,180,137,149,112,8,,43,14,75,55,9,9,1.3,1.3
2025-01-07T0000,2688A,93.5128,42.8172,哈密市,地区监测站,细颗粒物(PM2.5),102,98,151,76,77,25,,36,22,51,53,3,7,0.8,1.1
2025-01-07T0000,2689A,93.4961,42.8328,哈密市,哈密师范学校,细颗粒物(PM2.5),113,159,146,85,70,7,,34,20,78,57,7,11,2.0,1.6
2025-01-07T0000,2671A,100.9048,36.9639,海北藏族自治州,海晏县西海镇,,46,46,37,24,22,82,,85,84,13,13,17,21,1.1,1.2
2025-01-07T0000,3867A,102.0738,36.5056,海东市,平安区公安北苑,细颗粒物(PM2.5),74,63,62,54,45,49,,74,64,20,28,23,21,0.9,1
2025-01-07T0000,1409A,110.576,19.9507,海口市,东寨港,细颗粒物(PM2.5),70,,65,51,67,129,,178,168,6,12,7,9,0.7,0.8
2025-01-07T0000,1410A,110.3232,20.0574,海口市,海南大学,臭氧1小时,57,59,78,38,53,165,,201,196,21,25,6,8,0.6,0.7
2025-01-07T0000,1411A,110.283,20.0053,海口市,秀英海南医院,臭氧1小时,60,67,74,38,53,168,,197,194,15,27,4,6,0.5,0.6
2025-01-07T0000,1412A,110.338,19.9969,海口市,海南师范大学,臭氧1小时,63,72,74,41,51,170,,206,201,13,17,6,7,0.6,0.7
2025-01-07T0000,1413A,110.33,20.0356,海口市,龙华路环保局宿舍,臭氧1小时,63,64,72,39,51,170,,203,199,11,18,6,8,0.6,0.7
2025-01-07T0000,3539A,110.5111,19.9736,海口市,桂林洋子站,细颗粒物(PM2.5),54,55,77,38,53,155,,202,193,10,19,5,6,0.5,0.6
2025-01-07T0000,2673A,100.6188,36.2866,海南藏族自治州,共和县恰卜恰镇,颗粒物(PM10),58,65,38,37,20,68,,80,55,23,21,30,11,1.6,1
2025-01-07T0000,2676A,97.3731,37.3753,海西蒙古族藏族自治州,德令哈市,,29,29,32,15,10,44,,78,49,20,14,17,17,0.6,0.5
2025-01-07T0000,1048A,114.5302,36.6116,邯郸市,东污水处理厂,颗粒物(PM10),51,51,43,29,19,37,,58,42,25,22,5,3,0.5,0.4
2025-01-07T0000,1049A,114.4918,36.5713,邯郸市,矿院,颗粒物(PM10),59,68,39,34,11,21,,62,33,38,23,4,3,0.7,0.4
2025-01-07T0000,1050A,114.484,36.6133,邯郸市,丛台公园,颗粒物(PM10),52,53,47,24,13,32,,60,40,33,24,4,2,0.7,0.4
2025-01-07T0000,3458A,114.7895,36.5593,邯郸市,香泉濮院小区,颗粒物(PM10),56,62,59,36,15,43,,80,61,28,17,7,5,0.5,0.3
2025-01-07T0000,3579A,114.50634,36.77178,邯郸市,永年区实验高中,颗粒物(PM10),68,85,61,26,18,30,,50,36,34,31,10,7,0.8,0.4
2025-01-07T0000,3580A,114.20016,36.44293,邯郸市,峰峰矿区临水派出所,,48,48,50,28,18,51,,70,59,18,17,13,9,0.8,0.6
2025-01-07T0000,2634A,106.9893,33.1842,汉中市,汉川机床厂子校,细颗粒物(PM2.5),267,233,126,217,136,15,,36,26,42,25,6,6,2.1,1.6
2025-01-07T0000,2635A,107.0154,33.0706,汉中市,市监测站,细颗粒物(PM2.5),279,242,210,229,201,14,,18,13,71,52,7,6,3.2,2.7
2025-01-07T0000,2636A,107.0089,33.1138,汉中市,鑫源开发区,细颗粒物(PM2.5),295,,197,245,199,10,,20,16,63,44,7,6,2.8,2.3
2025-01-07T0000,2637A,107.007,33.0323,汉中市,南郑大河坎水厂,细颗粒物(PM2.5),313,300,225,263,201,13,,19,15,49,39,5,4,3.6,2.5
2025-01-07T0000,1223A,120.2072,30.2111,杭州市,滨江,颗粒物(PM10),90,129,103,54,58,42,,79,57,46,48,8,7,0.6,0.7
2025-01-07T0000,1224A,120.0633,30.2747,杭州市,西溪,颗粒物(PM10),76,101,90,55,53,8,,87,44,66,42,6,7,0.9,0.8
2025-01-07T0000,1226A,120.3461,30.3153,杭州市,下沙,颗粒物(PM10),95,140,107,55,62,26,,82,38,65,59,9,8,0.8,0.9
2025-01-07T0000,1227A,120.1269,30.2456,杭州市,卧龙桥,细颗粒物(PM2.5),68,84,76,49,52,25,,87,39,52,36,7,7,0.7,0.7
2025-01-07T0000,1228A,120.1903,30.2692,杭州市,浙江农大,颗粒物(PM10),75,99,100,48,62,37,,77,48,52,52,9,7,0.6,0.7
2025-01-07T0000,1230A,120.1197,30.3119,杭州市,和睦小学,颗粒物(PM10),73,96,93,50,62,30,,81,55,65,53,10,8,0.8,0.9
2025-01-07T0000,1231A,120.3019,30.4183,杭州市,临平镇,颗粒物(PM10),90,129,118,48,60,37,,89,61,43,40,8,8,0.9,0.9
2025-01-07T0000,1232A,120.2697,30.1819,杭州市,城厢镇,颗粒物(PM10),84,118,104,56,62,43,,80,57,54,56,7,7,0.8,0.9
2025-01-07T0000,1233A,120.0883,30.1808,杭州市,云栖,,,,,,,,,,,,,,,,
2025-01-07T0000,3557A,119.9464,30.0494,杭州市,镇二中,,,110,83,72,57,7,,80,37,,45,,7,0.9,0.8
2025-01-07T0000,3558A,119.7183,30.2367,杭州市,市府大楼,细颗粒物(PM2.5),99,121,88,74,61,22,,88,50,54,43,7,8,1.1,1
2025-01-07T0000,3656A,120.1556,30.2864,杭州市,消防大队,颗粒物(PM10),78,105,96,49,60,31,,85,55,61,48,11,10,0.8,0.9
2025-01-07T0000,1270A,117.1959,31.7848,合肥市,明珠广场,,46,46,87,24,42,47,,72,48,26,33,9,9,0.5,0.6
2025-01-07T0000,1271A,117.3072,31.8764,合肥市,三里街,颗粒物(PM10),52,53,94,27,43,42,,70,46,27,30,5,5,0.6,0.7
2025-01-07T0000,1272A,117.2588,31.8707,合肥市,琥珀山庄,颗粒物(PM10),54,58,91,25,42,39,,66,48,37,35,7,6,0.4,0.5
2025-01-07T0000,1273A,117.1604,31.9052,合肥市,董铺水库,,,70,89,,37,30,,70,48,34,28,5,4,0.2,0.4
2025-01-07T0000,1274A,117.25,31.8571,合肥市,长江中路,颗粒物(PM10),54,58,90,33,43,37,,65,48,33,29,7,7,0.6,0.7
2025-01-07T0000,1275A,117.266,31.9436,合肥市,庐阳区,颗粒物(PM10),60,70,90,34,36,33,,76,53,30,22,5,5,0.7,0.7
2025-01-07T0000,1276A,117.336,31.8586,合肥市,瑶海区,颗粒物(PM10),53,56,100,24,41,45,,69,46,27,32,9,8,0.3,0.7
2025-01-07T0000,1277A,117.3027,31.7964,合肥市,包河区,,48,48,94,22,41,33,,65,36,40,42,4,5,0.4,0.6
2025-01-07T0000,1278A,117.2776,31.7385,合肥市,滨湖新区,,46,46,98,17,38,46,,71,48,20,34,6,7,0.2,0.3
2025-01-07T0000,1279A,117.1318,31.8403,合肥市,高新区,颗粒物(PM10),57,63,89,29,41,30,,69,45,50,34,3,2,1.0,0.8
2025-01-07T0000,3464A,117.3803,31.9147,合肥市,高教基地,颗粒物(PM10),51,52,89,23,36,42,,77,54,26,32,8,8,0.4,0.4
2025-01-07T0000,3614A,79.924,37.0877,和田地区,地区环保局,颗粒物(PM10),91,132,146,54,72,38,,84,63,40,40,22,23,0.9,1.1
2025-01-07T0000,3615A,79.9131,37.113,和田地区,市环保局,颗粒物(PM10),72,93,115,37,64,42,,84,64,38,48,17,21,0.8,2.3
2025-01-07T0000,2516A,108.2011,24.715,河池市,东仁乐园,细颗粒物(PM2.5),107,117,101,80,62,43,,114,68,61,46,12,12,0.9,0.8
2025-01-07T0000,2517A,108.0497,24.6947,河池市,市环保站,细颗粒物(PM2.5),127,114,76,96,58,20,,125,73,65,32,8,9,1.3,0.9
2025-01-07T0000,2518A,108.0983,24.6989,河池市,市疾控中心,细颗粒物(PM2.5),108,105,88,81,61,36,,129,65,64,46,6,6,1.0,0.9
2025-01-07T0000,1696A,114.6778,23.7569,河源市,源西,细颗粒物(PM2.5),68,59,70,49,56,58,,117,56,49,32,6,7,0.6,0.7
2025-01-07T0000,1697A,114.6944,23.7586,河源市,东埔,细颗粒物(PM2.5),77,62,75,56,61,86,,136,89,39,30,5,6,0.8,0.8
2025-01-07T0000,1698A,114.6892,23.7233,河源市,老城,细颗粒物(PM2.5),72,68,73,52,60,56,,133,73,44,26,4,6,0.8,0.8
2025-01-07T0000,1718A,115.4208,35.2464,菏泽市,气象局,颗粒物(PM10),70,89,77,45,27,8,,74,38,73,28,6,5,0.6,0.4
2025-01-07T0000,1719A,115.4747,35.2375,菏泽市,市政协,颗粒物(PM10),61,72,75,42,26,9,,75,30,65,32,8,7,0.8,0.6
2025-01-07T0000,3374A,115.5564,35.0891,菏泽市,定陶老年大学,颗粒物(PM10),63,75,68,41,24,16,,72,34,57,32,10,9,0.5,0.3
2025-01-07T0000,3647A,115.4702,35.2706,菏泽市,菏泽医专,颗粒物(PM10),59,67,71,28,20,24,,75,42,55,30,8,10,0.7,0.5
2025-01-07T0000,2514A,111.5264,24.4172,贺州市,环保小区,细颗粒物(PM2.5),144,119,108,110,93,38,,127,81,46,28,7,8,1.1,1
2025-01-07T0000,2515A,111.5608,24.4078,贺州市,政协大楼,细颗粒物(PM2.5),92,105,108,68,73,29,,123,56,57,39,6,7,0.9,0.9
2025-01-07T0000,3534A,111.4744,24.4553,贺州市,西湾,细颗粒物(PM2.5),112,116,118,84,90,20,,132,82,60,25,7,8,1.1,1
2025-01-07T0000,2385A,114.17,35.9019,鹤壁市,市监测站,颗粒物(PM10),61,71,73,26,26,31,,71,38,24,21,2,4,0.4,0.6
2025-01-07T0000,2386A,114.2956,35.7511,鹤壁市,市交警支队,颗粒物(PM10),54,58,73,28,22,32,,69,40,38,33,4,3,0.4,0.5
2025-01-07T0000,2387A,114.2878,35.7306,鹤壁市,迎宾馆,颗粒物(PM10),59,67,80,16,21,34,,70,40,38,30,4,5,0.4,0.4
2025-01-07T0000,3474A,114.2617,35.6822,鹤壁市,大新区,,,135,79,,22,9,,67,26,64,37,7,5,0.5,0.5
2025-01-07T0000,3596A,114.1572,35.9603,鹤壁市,南山宾馆,细颗粒物(PM2.5),63,72,78,45,40,23,,72,40,38,22,4,5,0.6,0.7
2025-01-07T0000,2244A,130.2537,47.3416,鹤岗市,哈啤分公司,细颗粒物(PM2.5),54,55,47,38,34,24,,49,26,27,20,15,16,0.9,0.7
2025-01-07T0000,2245A,130.2684,47.3086,鹤岗市,斯达机电,细颗粒物(PM2.5),64,48,46,46,29,30,,62,41,32,20,20,15,0.4,0.3
2025-01-07T0000,2246A,130.3114,47.3388,鹤岗市,东山纸板厂,细颗粒物(PM2.5),80,,41,59,46,21,,36,12,36,39,17,19,0.6,1
2025-01-07T0000,2247A,130.1097,47.3382,鹤岗市,五号水库,,26,26,36,18,18,50,,65,51,16,16,8,8,0.5,0.5
2025-01-07T0000,2263A,127.4833,50.2524,黑河市,交通局,,28,28,19,17,15,42,,56,47,10,11,6,7,0.6,0.5
2025-01-07T0000,2264A,127.5144,50.2341,黑河市,环保局,,42,,21,29,17,40,,54,44,11,10,7,7,0.7,0.6
2025-01-07T0000,2265A,127.5291,50.2472,黑河市,大黑河岛,,,50,24,24,11,9,,32,25,7,8,2,2,,
2025-01-07T0000,1074A,115.6838,37.7541,衡水市,电机北厂,,30,30,34,13,14,57,,71,56,16,16,10,7,0.4,0.3
2025-01-07T0000,1075A,115.6303,37.7316,衡水市,市监测站,,37,37,33,18,10,45,,60,48,25,20,13,10,0.5,0.4
2025-01-07T0000,3188A,115.6683,37.7217,衡水市,市城管局,,50,50,34,33,17,23,,67,41,35,18,14,9,0.5,0.4
2025-01-07T0000,3459A,115.5989,37.5491,衡水市,地表水厂,,45,45,35,24,13,26,,68,27,42,30,10,8,0.5,0.4
2025-01-07T0000,2456A,112.5003,26.9167,衡阳市,原169医院,细颗粒物(PM2.5),79,,70,58,66,45,,99,57,47,36,7,26,0.5,0.6
2025-01-07T0000,2457A,112.6194,26.9258,衡阳市,衡阳化工总厂,细颗粒物(PM2.5),87,93,92,64,75,53,,117,88,41,32,15,8,0.9,0.9
2025-01-07T0000,2458A,112.6211,26.8956,衡阳市,珠晖区环保局,细颗粒物(PM2.5),82,75,81,60,72,60,,112,78,40,42,10,11,0.8,0.9
2025-01-07T0000,2459A,112.6197,26.8733,衡阳市,市委党校,细颗粒物(PM2.5),77,62,86,56,72,76,,126,102,27,32,9,9,0.8,1
2025-01-07T0000,2460A,112.6006,26.8919,衡阳市,市监测站,细颗粒物(PM2.5),100,108,103,75,81,51,,118,89,37,29,13,9,0.9,0.9
2025-01-07T0000,2461A,112.5664,26.9056,衡阳市,真空机电公司,细颗粒物(PM2.5),82,90,103,60,73,54,,114,79,50,38,6,7,0.8,1
2025-01-07T0000,3399A,112.6703,26.882,衡阳市,师范学院,细颗粒物(PM2.5),92,86,98,68,84,73,,129,101,30,28,11,10,0.8,0.8
2025-01-07T0000,2608A,103.3772,23.3993,红河哈尼族彝族自治州,污水处理厂,细颗粒物(PM2.5),79,62,68,58,66,83,,105,89,11,14,6,8,0.5,0.6
2025-01-07T0000,2609A,103.3861,23.35,红河哈尼族彝族自治州,监测站,细颗粒物(PM2.5),65,57,69,47,61,109,,120,105,10,15,8,8,0.8,0.9
2025-01-07T0000,3038A,103.3758,23.368,红河哈尼族彝族自治州,州图书馆,细颗粒物(PM2.5),84,,65,62,65,75,,99,84,13,13,13,8,0.6,0.7
2025-01-07T0000,1090A,111.6507,40.7517,呼和浩特市,呼市一监,,17,17,26,8,12,51,,64,61,17,17,9,10,0.4,0.5
2025-01-07T0000,1091A,111.6572,40.8033,呼和浩特市,小召,,16,7,26,6,9,51,,59,58,20,22,6,8,0.4,0.5
2025-01-07T0000,1094A,111.7516,40.8369,呼和浩特市,如意水处理厂,,18,6,23,3,9,55,,55,54,5,14,7,9,0.3,0.5
2025-01-07T0000,1095A,111.7276,40.8062,呼和浩特市,二十九中,,19,7,21,3,7,59,,57,57,8,21,6,8,0.2,0.4
2025-01-07T0000,1096A,111.5512,40.7866,呼和浩特市,工大金川校区,,14,6,32,3,13,43,,56,55,22,23,6,7,0.4,0.5
2025-01-07T0000,1097A,111.717,40.7612,呼和浩特市,化肥厂生活区,,17,6,26,3,10,54,,56,55,14,20,6,8,0.4,0.5
2025-01-07T0000,3698A,111.5968,40.8178,呼和浩特市,红旗小学,,19,9,29,6,11,29,,56,50,37,29,4,5,0.5,0.5
2025-01-07T0000,3699A,111.6518,40.8389,呼和浩特市,海东办,,20,,26,3,10,62,,60,60,6,19,6,8,0.4,0.6
2025-01-07T0000,2192A,119.7594,49.2261,呼伦贝尔市,区环保局,细颗粒物(PM2.5),55,,27,39,23,7,,48,33,50,24,7,7,0.8,0.5
2025-01-07T0000,3061A,119.7512,49.1577,呼伦贝尔市,国华电力东,,28,28,28,19,21,49,,52,50,9,9,5,5,0.4,0.4
2025-01-07T0000,1250A,120.0751,30.8669,湖州市,城西水厂,颗粒物(PM10),72,94,117,35,63,44,,81,43,39,52,9,10,0.6,0.8
2025-01-07T0000,2873A,120.0875,30.8955,湖州市,仁皇山新区,颗粒物(PM10),56,62,93,32,57,51,,87,67,36,51,9,9,0.5,0.7
2025-01-07T0000,2907A,120.1844,30.8596,湖州市,吴兴区站,颗粒物(PM10),58,66,89,32,56,47,,85,58,31,42,8,8,0.7,0.7
2025-01-07T0000,3562A,120.4148,30.8538,湖州市,南浔区站,颗粒物(PM10),60,70,94,39,61,40,,78,59,38,37,9,11,0.5,0.6
2025-01-07T0000,1607A,120.9092,40.7136,葫芦岛市,龙港区,细颗粒物(PM2.5),53,50,58,37,40,21,,70,34,63,35,28,33,1.1,0.8
2025-01-07T0000,1608A,120.8392,40.7514,葫芦岛市,化工街,颗粒物(PM10),51,51,87,27,47,7,,54,14,57,47,9,23,1.2,1.2
2025-01-07T0000,1609A,120.8341,40.7073,葫芦岛市,新区,颗粒物(PM10),63,76,54,39,38,9,,62,18,62,44,20,22,1.2,1
2025-01-07T0000,1610A,120.8695,40.7677,葫芦岛市,东城区,细颗粒物(PM2.5),65,68,88,47,60,8,,58,16,49,46,43,36,1.1,0.8
2025-01-07T0000,2482A,109.5981,27.5721,怀化市,林科所,细颗粒物(PM2.5),72,59,59,52,52,95,,101,99,22,31,38,14,0.9,1.1
2025-01-07T0000,2483A,109.9453,27.5444,怀化市,河西地税局,细颗粒物(PM2.5),95,82,93,71,79,89,,92,88,11,18,19,10,0.9,1.1
2025-01-07T0000,2484A,109.9781,27.5342,怀化市,市四医院,细颗粒物(PM2.5),100,90,108,75,85,70,,94,81,20,28,10,5,1.0,1.2
2025-01-07T0000,2485A,109.9972,27.5578,怀化市,监测楼,细颗粒物(PM2.5),100,92,90,75,71,62,,87,75,25,25,16,5,0.7,0.9
2025-01-07T0000,2486A,110.0394,27.583,怀化市,市委党校,细颗粒物(PM2.5),92,89,91,68,74,70,,90,83,23,25,6,8,0.9,1.1
2025-01-07T0000,1210A,119.036,33.5981,淮安市,钵池山,颗粒物(PM10),51,51,121,35,63,34,,73,53,44,36,8,10,0.6,0.8
2025-01-07T0000,1211A,119.007,33.575,淮安市,北京南路,颗粒物(PM10),69,88,132,39,60,0,,67,42,72,41,8,11,0.7,0.5
2025-01-07T0000,1212A,118.989,33.6067,淮安市,市监测站,细颗粒物(PM2.5),67,73,127,48,67,3,,68,39,73,43,9,10,0.6,0.8
2025-01-07T0000,1213A,119.135,33.5039,淮安市,楚州区监测站,颗粒物(PM10),62,73,133,41,58,17,,68,47,55,40,8,10,0.5,0.7
2025-01-07T0000,1214A,119.0186,33.6297,淮安市,淮阴区监测站,颗粒物(PM10),62,73,139,43,70,15,,68,38,61,45,9,11,0.6,0.8
2025-01-07T0000,3426A,118.8755,33.2894,淮安市,新华书店,颗粒物(PM10),55,60,137,25,56,48,,73,63,27,31,15,17,0.4,0.7
2025-01-07T0000,2282A,116.8004,33.975,淮北市,监测站,,30,30,101,15,35,57,,66,56,13,23,5,7,0.9,1.1
2025-01-07T0000,2283A,116.8091,33.9007,淮北市,烈山区政府,颗粒物(PM10),69,87,105,39,42,9,,71,45,75,38,6,5,0.7,0.6
2025-01-07T0000,3330A,116.8873,33.9836,淮北市,杜集区检察院,颗粒物(PM10),54,58,113,26,46,26,,70,44,36,26,2,4,0.2,0.3
2025-01-07T0000,4017A,116.7923,33.9535,淮北市,市博物馆,,40,40,100,27,37,34,,70,55,40,34,5,7,0.6,0.7
2025-01-07T0000,2277A,116.8305,32.7727,淮南市,潘集区政府,细颗粒物(PM2.5),69,77,114,50,64,23,,67,41,51,31,16,11,0.3,0.5
2025-01-07T0000,2278A,117.0067,32.6524,淮南市,师范学院,颗粒物(PM10),67,83,112,38,60,37,,65,46,28,30,7,6,0.6,0.6
2025-01-07T0000,2279A,116.8569,32.5951,淮南市,谢家集区政府,颗粒物(PM10),54,58,102,30,50,28,,67,44,31,22,8,8,0.4,0.6
2025-01-07T0000,2280A,116.8281,32.633,淮南市,八公山区政府,颗粒物(PM10),62,74,104,29,48,34,,67,45,36,27,6,6,0.4,0.5
2025-01-07T0000,2281A,116.6325,32.6201,淮南市,焦岗湖风景区管理处,,48,48,75,24,40,17,,46,30,23,15,3,4,0.2,0.3
2025-01-07T0000,2894A,117.0566,32.6531,淮南市,经济技术开发区消防队,颗粒物(PM10),63,76,115,39,56,39,,70,52,18,21,8,7,0.4,0.5
2025-01-07T0000,3329A,117.0108,32.5893,淮南市,山南新区,颗粒物(PM10),54,58,118,26,50,47,,71,59,23,26,9,9,0.4,0.6
2025-01-07T0000,2446A,114.9028,30.4742,黄冈市,职工中心,颗粒物(PM10),86,122,90,59,55,60,,62,61,35,39,9,8,0.4,0.5
2025-01-07T0000,2929A,114.8858,30.4519,黄冈市,红卫路,颗粒物(PM10),80,109,88,54,55,64,,61,60,28,31,8,7,0.8,1
2025-01-07T0000,3398A,114.9136,30.4445,黄冈市,市林业局,细颗粒物(PM2.5),82,101,84,60,55,66,,63,63,18,23,11,9,0.7,0.8
2025-01-07T0000,2672A,102.0199,35.5102,黄南藏族自治州,同仁县隆务镇,颗粒物(PM10),51,52,47,29,26,78,,87,82,3,6,10,11,0.5,0.6
2025-01-07T0000,2295A,118.2903,29.6963,黄山市,延安路89号,细颗粒物(PM2.5),62,70,62,44,39,35,,94,60,20,21,4,4,0.3,0.4
2025-01-07T0000,2296A,118.327,29.7178,黄山市,黄山东路89号,颗粒物(PM10),62,73,73,33,39,41,,85,54,24,22,6,6,0.5,0.5
2025-01-07T0000,2297A,118.1371,30.2756,黄山市,黄山区政府5号楼,颗粒物(PM10),62,73,73,40,44,42,,103,67,10,12,7,8,0.5,0.5
2025-01-07T0000,2423A,115.0601,30.2313,黄石市,沈家营,"颗粒物(PM10),细颗粒物(PM2.5)",77,104,94,56,50,22,,67,46,49,38,12,12,1.1,1
2025-01-07T0000,2424A,115.0817,30.2006,黄石市,陈家湾,细颗粒物(PM2.5),77,84,90,56,62,35,,59,44,22,32,8,8,0.8,0.8
2025-01-07T0000,2426A,114.8988,30.2019,黄石市,铁山,细颗粒物(PM2.5),83,94,85,61,65,12,,72,40,36,30,4,8,0.9,0.9
2025-01-07T0000,2427A,115.0307,30.2092,黄石市,团城山,细颗粒物(PM2.5),83,111,90,61,57,20,,66,50,60,38,7,9,1.1,1
2025-01-07T0000,3149A,115.0235,30.1578,黄石市,笔架山北路,细颗粒物(PM2.5),84,86,91,62,68,9,,77,50,60,37,11,17,1.2,1.3
2025-01-07T0000,1392A,114.4183,23.0528,惠州市,河南岸金山湖子站,细颗粒物(PM2.5),64,71,74,46,51,97,,126,82,20,25,8,9,0.7,0.8
2025-01-07T0000,1393A,114.4053,23.0822,惠州市,下埔横江三路子站,颗粒物(PM10),63,76,78,43,53,120,,142,101,22,26,9,9,0.8,0.9
2025-01-07T0000,1394A,114.4103,23.1142,惠州市,江北云山西路子站,细颗粒物(PM2.5),63,74,79,45,52,117,,145,118,29,27,11,10,0.8,0.8
2025-01-07T0000,1395A,114.4645,22.7833,惠州市,惠阳区承修路船湖子站,颗粒物(PM10),54,58,79,30,44,103,,136,121,17,19,8,10,0.4,0.5
2025-01-07T0000,1396A,114.5317,22.7422,惠州市,大亚湾管委会子站,颗粒物(PM10),55,59,65,32,41,91,,152,133,39,26,10,12,0.6,0.6
2025-01-07T0000,3314A,114.4338,22.8134,惠州市,惠阳秋长,颗粒物(PM10),79,107,76,52,47,33,,154,108,70,26,8,8,1.1,0.8
2025-01-07T0000,3452A,114.6517,22.775,惠州市,大亚湾霞涌,颗粒物(PM10),54,58,59,32,44,69,,144,112,35,18,7,9,0.4,0.6
2025-01-07T0000,2240A,130.9762,45.3001,鸡西市,环保局,细颗粒物(PM2.5),63,62,73,45,52,19,,51,29,48,32,10,10,1.0,0.7
2025-01-07T0000,2243A,130.9429,45.3039,鸡西市,第一中学,,26,25,56,18,41,42,,64,55,25,22,7,11,0.3,0.4
2025-01-07T0000,3707A,131.0207,45.3073,鸡西市,欧美日汽修厂,细颗粒物(PM2.5),110,126,119,83,82,10,,44,14,31,29,16,30,0.8,1
2025-01-07T0000,3709A,130.9967,45.3106,鸡西市,市政设施管理处,细颗粒物(PM2.5),139,137,93,106,63,10,,44,15,48,41,18,12,1.7,1.1
2025-01-07T0000,2367A,114.9754,27.0803,吉安市,红声器材厂,细颗粒物(PM2.5),69,84,122,50,85,76,,125,100,32,42,17,12,0.6,0.8
2025-01-07T0000,2368A,114.9658,27.0999,吉安市,市森林工业局,细颗粒物(PM2.5),63,73,113,45,82,77,,124,102,28,36,15,14,0.6,0.8
2025-01-07T0000,2369A,114.99,27.1312,吉安市,市环境监测站,细颗粒物(PM2.5),79,75,109,58,84,83,,129,106,28,38,24,15,0.6,0.9
2025-01-07T0000,2370A,115.0093,27.0968,吉安市,青原区法院,细颗粒物(PM2.5),77,78,121,56,89,81,,128,105,36,49,15,13,0.5,0.9
2025-01-07T0000,1772A,126.54,43.8622,吉林市,哈达湾,细颗粒物(PM2.5),93,82,88,69,69,35,,54,41,36,39,10,14,1.0,1
2025-01-07T0000,1773A,126.5844,43.8358,吉林市,东局子,细颗粒物(PM2.5),87,87,90,64,70,30,,56,38,38,37,6,8,0.9,1
2025-01-07T0000,1774A,126.5052,43.8245,吉林市,电力学院,细颗粒物(PM2.5),128,112,122,97,101,8,,47,12,51,45,13,14,1.6,1.6
2025-01-07T0000,1775A,126.6133,43.8972,吉林市,江北,细颗粒物(PM2.5),92,88,101,68,76,40,,51,43,28,42,11,14,1.0,1.1
2025-01-07T0000,1776A,126.555,43.8306,吉林市,江南公园,细颗粒物(PM2.5),104,91,90,78,78,23,,53,35,45,41,11,13,1.0,1.2
2025-01-07T0000,1778A,126.7061,43.7133,吉林市,丰满,细颗粒物(PM2.5),74,56,64,54,63,47,,60,50,14,22,6,9,0.8,0.9
2025-01-07T0000,2868A,126.4739,43.953,吉林市,九站,细颗粒物(PM2.5),107,98,93,80,74,24,,47,29,48,44,6,10,1.1,1.1
2025-01-07T0000,1299A,116.9862,36.6114,济南市,科干所,,31,31,32,10,9,61,,70,60,21,26,8,6,0.6,0.5
2025-01-07T0000,1300A,116.9376,36.665,济南市,农科所,颗粒物(PM10),52,54,47,20,9,30,,69,29,43,34,17,10,0.6,0.5
2025-01-07T0000,1301A,117.1265,36.6734,济南市,开发区,,20,20,33,12,13,62,,68,48,21,32,7,7,0.5,0.5
2025-01-07T0000,1303A,117.0624,36.6868,济南市,省种子仓库,,36,36,37,12,10,41,,71,45,36,27,7,6,0.6,0.5
2025-01-07T0000,1304A,116.9489,36.6447,济南市,机床二厂,颗粒物(PM10),53,56,46,22,12,25,,75,32,50,27,23,14,1.0,0.8
2025-01-07T0000,1305A,117.0495,36.663,济南市,市监测站,,27,27,34,12,8,53,,71,50,28,28,7,6,0.6,0.6
2025-01-07T0000,1306A,116.7675,36.5484,济南市,长清党校,,29,29,39,12,10,34,,75,50,46,29,7,6,0.8,0.8
2025-01-07T0000,1616A,117.6795,36.229,济南市,技术学院,细颗粒物(PM2.5),55,58,51,39,22,5,,63,28,59,37,13,11,1.0,0.8
2025-01-07T0000,1961A,117.532,36.6868,济南市,东山小学,,32,32,48,10,16,35,,69,34,38,35,7,8,0.6,0.6
2025-01-07T0000,3059A,117.7161,36.2049,济南市,泰兴公司,细颗粒物(PM2.5),85,90,64,63,29,9,,67,24,71,39,19,12,0.9,0.5
2025-01-07T0000,3064A,117.6867,36.2171,济南市,莱芜战役纪念馆,颗粒物(PM10),67,83,63,36,22,10,,66,29,68,41,12,10,0.9,0.6
2025-01-07T0000,3494A,117.1673,36.9782,济南市,济阳区政府,颗粒物(PM10),52,54,37,20,10,25,,59,37,39,32,14,8,0.5,0.4
2025-01-07T0000,3495A,117.1171,36.63,济南市,锦屏中学,,22,22,28,10,9,63,,72,52,21,29,7,7,0.3,0.3
2025-01-07T0000,3682A,116.9814,36.6819,济南市,济南四建,,46,46,40,20,13,31,,64,30,43,34,14,9,0.8,0.7
2025-01-07T0000,1653A,116.6251,35.4302,济宁市,火炬城,,40,40,58,12,14,19,,70,42,51,28,7,8,0.6,0.5
2025-01-07T0000,1655A,116.5491,35.4042,济宁市,电化厂,颗粒物(PM10),62,74,75,41,24,4,,69,35,78,42,23,12,0.9,0.6
2025-01-07T0000,3500A,116.5814,35.3707,济宁市,北湖一中,细颗粒物(PM2.5),62,54,63,44,19,8,,74,45,73,30,20,6,1.3,0.9
2025-01-07T0000,3501A,116.8249,35.5593,济宁市,服务中心,颗粒物(PM10),51,52,70,30,21,39,,71,43,41,35,14,13,0.7,0.6
2025-01-07T0000,3678A,116.5907,35.4054,济宁市,市第七中学,,49,49,65,22,17,22,,74,48,60,32,6,3,0.9,0.8
2025-01-07T0000,2255A,130.2751,46.8028,佳木斯市,佳纺,细颗粒物(PM2.5),74,58,76,54,70,36,,54,34,26,32,9,12,0.8,1
2025-01-07T0000,2256A,130.3995,46.8307,佳木斯市,发电厂,细颗粒物(PM2.5),65,47,56,47,54,40,,54,34,22,29,10,8,0.6,0.7
2025-01-07T0000,2257A,130.3258,46.7975,佳木斯市,环保局,细颗粒物(PM2.5),70,64,61,51,49,32,,51,28,33,33,10,11,0.7,0.7
2025-01-07T0000,2258A,130.3648,46.8032,佳木斯市,十一中,细颗粒物(PM2.5),73,55,52,53,49,40,,50,37,27,31,7,8,0.6,0.7
2025-01-07T0000,2259A,130.3794,46.7588,佳木斯市,四丰,细颗粒物(PM2.5),59,66,39,42,32,47,,59,52,15,11,1,1,0.8,0.7
2025-01-07T0000,1252A,120.7436,30.778,嘉兴市,清河小学,颗粒物(PM10),75,100,106,42,55,31,,69,52,47,49,11,11,1.2,1.2
2025-01-07T0000,1253A,120.726,30.7478,嘉兴市,嘉兴学院,颗粒物(PM10),71,92,106,46,62,35,,74,56,44,47,8,9,0.7,0.7
2025-01-07T0000,2872A,120.7846,30.7525,嘉兴市,南湖区残联,颗粒物(PM10),82,113,113,47,60,42,,77,60,37,47,9,10,0.7,0.8
2025-01-07T0000,3407A,120.6916,30.7739,嘉兴市,秀洲住建,颗粒物(PM10),71,92,114,40,65,38,,76,54,40,48,8,8,0.6,0.7
2025-01-07T0000,1945A,98.2908,39.7711,嘉峪关市,气象局,,29,29,57,14,24,69,,79,70,10,30,3,11,0.3,0.7
2025-01-07T0000,2884A,98.2672,39.7978,嘉峪关市,酒钢宾馆,,31,31,63,12,25,68,,69,66,9,30,16,35,0.4,0.9
2025-01-07T0000,3248A,98.2643,39.7724,嘉峪关市,雄关区,,35,35,55,24,25,67,,81,74,14,40,6,11,0.3,0.7
2025-01-07T0000,1383A,113.1064,22.6058,江门市,北街,细颗粒物(PM2.5),109,105,88,82,70,68,,158,122,68,55,6,7,1.1,1
2025-01-07T0000,1384A,113.0731,22.5835,江门市,西区,细颗粒物(PM2.5),128,180,125,97,77,48,,152,98,78,60,9,11,1.0,0.9
2025-01-07T0000,1385A,113.0219,22.5311,江门市,圭峰西,细颗粒物(PM2.5),125,125,85,95,72,87,,159,126,57,46,7,8,0.9,0.8
2025-01-07T0000,1386A,113.0828,22.5947,江门市,东湖,细颗粒物(PM2.5),124,148,109,94,75,56,,154,104,62,51,8,9,1.1,0.9
2025-01-07T0000,3311A,113.1075,22.5647,江门市,江海富民,细颗粒物(PM2.5),118,156,111,89,64,65,,156,112,66,58,9,10,1.0,0.9
2025-01-07T0000,3449A,113.05,22.4667,江门市,新会银湖,细颗粒物(PM2.5),133,108,91,101,79,47,,143,83,64,58,6,7,0.8,0.8
2025-01-07T0000,1828A,113.227,35.2125,焦作市,市环保局,颗粒物(PM10),60,69,72,26,25,42,,62,44,22,22,6,6,0.7,0.6
2025-01-07T0000,1830A,113.1992,35.2590,焦作市,影视城,颗粒物(PM10),55,60,70,28,30,57,,64,61,20,21,12,10,0.9,0.8
2025-01-07T0000,3169A,113.2725,35.2067,焦作市,太极体育中心,颗粒物(PM10),74,98,80,26,17,36,,63,44,36,27,10,8,0.9,0.6
2025-01-07T0000,3335A,113.3137,35.2641,焦作市,马村街道办,颗粒物(PM10),61,72,82,30,28,43,,63,43,19,23,6,8,0.7,0.7
2025-01-07T0000,3336A,113.2465,35.2373,焦作市,焦作技师学院,颗粒物(PM10),55,60,75,29,24,45,,67,48,26,29,5,7,0.6,0.5
2025-01-07T0000,3477A,113.1656,35.2539,焦作市,中站许衡医院,颗粒物(PM10),55,60,65,29,28,47,,64,50,28,23,9,7,0.6,0.5
2025-01-07T0000,3981A,113.2449,35.1803,焦作市,原李万街道办,颗粒物(PM10),58,65,73,34,29,44,,62,47,22,20,6,6,0.8,0.6
2025-01-07T0000,1708A,116.3701,23.5345,揭阳市,新兴,细颗粒物(PM2.5),62,63,70,44,47,87,,128,109,33,34,8,10,0.6,0.7
2025-01-07T0000,1709A,116.3264,23.5443,揭阳市,西马,颗粒物(PM10),55,60,73,38,44,103,,143,125,21,27,9,10,0.7,0.7
2025-01-07T0000,1710A,116.3611,23.5626,揭阳市,东兴,颗粒物(PM10),63,76,76,39,40,94,,136,118,28,32,10,11,0.7,0.8
2025-01-07T0000,1711A,116.4151,23.5294,揭阳市,渔湖,颗粒物(PM10),55,59,77,34,48,84,,138,114,34,40,11,13,0.7,0.8
2025-01-07T0000,3320A,116.403,23.5699,揭阳市,曲溪,细颗粒物(PM2.5),57,53,84,40,51,101,,148,125,33,46,16,7,0.7,0.9
2025-01-07T0000,1944A,102.1692,38.5167,金昌市,天庆家园,细颗粒物(PM2.5),54,47,54,38,31,49,,76,55,27,21,17,20,0.9,1
2025-01-07T0000,3170A,102.1864,38.5253,金昌市,市委党校,颗粒物(PM10),59,67,65,30,27,71,,83,74,27,22,24,23,0.9,0.9
2025-01-07T0000,4022A,102.1647,38.5371,金昌市,金川区人防中心,细颗粒物(PM2.5),87,77,64,64,33,39,,76,53,27,18,16,16,1.0,0.8
2025-01-07T0000,1262A,119.647,29.077,金华市,十五中,颗粒物(PM10),80,109,97,42,57,46,,91,64,53,50,5,5,0.7,0.8
2025-01-07T0000,1263A,119.686,29.1029,金华市,监测站,颗粒物(PM10),80,109,103,50,63,52,,93,59,49,57,7,7,0.8,0.9
2025-01-07T0000,3659A,119.656,29.1131,金华市,气象局,颗粒物(PM10),85,119,106,44,62,49,,97,60,50,50,6,8,0.6,0.9
2025-01-07T0000,1767A,121.1115,41.0879,锦州市,南山,细颗粒物(PM2.5),102,,53,76,46,14,,67,48,58,30,21,17,1.6,1.1
2025-01-07T0000,1768A,121.0533,40.8434,锦州市,开发区,细颗粒物(PM2.5),95,119,100,71,53,7,,51,16,88,58,34,42,1.5,1
2025-01-07T0000,1769A,121.1836,41.1119,锦州市,百股街道,,32,32,53,19,34,45,,69,54,19,29,18,18,0.6,0.6
2025-01-07T0000,1770A,121.1178,41.1222,锦州市,天安街道,,37,37,47,20,31,31,,67,56,34,23,31,17,0.8,0.7
2025-01-07T0000,1771A,121.1303,41.1386,锦州市,北湖公园,,27,27,43,9,28,56,,62,56,10,18,33,20,0.4,0.6
2025-01-07T0000,2160A,112.85,35.5051,晋城市,自来水公司,,50,50,62,9,18,44,,61,42,27,31,8,13,0.5,0.9
2025-01-07T0000,2161A,112.8318,35.4936,晋城市,白云商贸,,41,41,61,7,15,41,,60,42,30,31,8,12,0.6,0.9
2025-01-07T0000,2162A,112.8508,35.4887,晋城市,市环保局,,44,44,61,14,22,40,,59,39,30,34,8,13,0.7,1
2025-01-07T0000,2163A,112.8676,35.4897,晋城市,技术学院,,45,45,63,12,20,46,,63,42,29,37,8,13,0.5,0.9
2025-01-07T0000,2165A,112.8453,35.546,晋城市,白马寺,,28,28,40,17,15,41,,51,48,12,12,12,17,0.6,0.8
2025-01-07T0000,3620A,112.8271,35.4828,晋城市,泽州一中,,37,37,48,9,14,45,,62,47,31,30,6,12,0.5,0.9
2025-01-07T0000,2171A,112.7532,37.6945,晋中市,锦纶小区,颗粒物(PM10),59,68,61,29,18,4,,51,26,59,37,16,10,0.6,0.4
2025-01-07T0000,2173A,112.7249,37.7067,晋中市,南都小区,颗粒物(PM10),65,79,61,39,25,4,,55,28,60,37,16,11,0.7,0.4
2025-01-07T0000,2174A,112.6991,37.6982,晋中市,榆次区政府,颗粒物(PM10),62,73,60,26,18,6,,51,34,58,39,11,10,0.9,0.7
2025-01-07T0000,2865A,112.7195,37.6828,晋中市,榆次三中,颗粒物(PM10),62,73,58,31,14,4,,51,35,57,35,16,11,0.9,0.7
2025-01-07T0000,2439A,112.2014,31.0481,荆门市,竹园小学,颗粒物(PM10),88,126,92,42,53,56,,67,54,26,30,12,12,0.6,0.7
2025-01-07T0000,2440A,112.1969,30.9891,荆门市,掇刀,颗粒物(PM10),87,123,85,42,52,61,,73,65,27,27,11,10,0.6,0.6
2025-01-07T0000,2441A,112.2213,31.0386,荆门市,石化一小,颗粒物(PM10),89,128,98,46,58,57,,70,58,26,32,10,8,0.5,0.7
2025-01-07T0000,3012A,112.1849,31.0362,荆门市,西山林语,颗粒物(PM10),80,110,89,39,53,65,,74,68,21,20,9,8,0.5,0.5
2025-01-07T0000,3547A,112.1632,31.0138,荆门市,龙泉中学南校,颗粒物(PM10),91,131,86,50,56,69,,75,72,16,21,13,11,0.7,0.8
2025-01-07T0000,1844A,112.2494,30.3197,荆州市,市图书馆,细颗粒物(PM2.5),89,89,84,66,87,37,,84,54,34,34,8,7,0.7,0.9
2025-01-07T0000,1845A,112.2008,30.3544,荆州市,市委党校,细颗粒物(PM2.5),89,100,87,66,85,39,,81,56,35,35,10,8,0.6,0.7
2025-01-07T0000,3194A,112.2747,30.3122,荆州市,管委会,细颗粒物(PM2.5),88,98,93,65,83,27,,88,47,35,35,6,6,0.7,0.8
2025-01-07T0000,3548A,112.1655,30.3364,荆州市,学苑路,细颗粒物(PM2.5),79,87,85,58,73,44,,88,61,47,49,14,11,0.9,1
2025-01-07T0000,2342A,117.3102,29.3867,景德镇市,王港中学,,,,,,,,,,,,,,,,
2025-01-07T0000,2343A,117.2117,29.2933,景德镇市,老干部活动中心,颗粒物(PM10),65,79,65,32,39,42,,79,51,37,31,5,6,0.7,0.7
2025-01-07T0000,2344A,117.1894,29.2789,景德镇市,兽医站,颗粒物(PM10),65,80,68,32,29,61,,96,72,30,35,4,4,0.4,0.5
2025-01-07T0000,2345A,117.1547,29.2617,景德镇市,台达陶瓷,颗粒物(PM10),65,79,65,35,33,60,,92,58,43,62,3,15,0.3,0.5
2025-01-07T0000,2346A,117.2461,29.2956,景德镇市,陶研所,颗粒物(PM10),57,64,59,27,32,40,,79,47,25,36,3,4,0.3,0.4
2025-01-07T0000,1803A,115.9872,29.6815,九江市,十里,颗粒物(PM10),78,105,93,55,63,70,,78,69,20,36,8,8,0.6,0.9
2025-01-07T0000,1804A,115.9584,29.7046,九江市,茅山头,颗粒物(PM10),79,107,101,51,58,77,,86,80,24,42,5,4,0.8,1
2025-01-07T0000,1805A,115.9877,29.7295,九江市,西园,颗粒物(PM10),78,106,98,52,66,62,,70,61,22,44,8,9,0.5,0.7
2025-01-07T0000,1806A,116.0172,29.6547,九江市,五七二七厂,颗粒物(PM10),89,128,97,45,57,65,,80,71,26,27,8,7,0.4,0.6
2025-01-07T0000,1808A,115.9114,29.6038,九江市,综合工业园,颗粒物(PM10),86,121,137,58,62,78,,71,66,26,40,8,8,0.4,0.5
2025-01-07T0000,1809A,116.0721,29.7535,九江市,石化总厂,颗粒物(PM10),86,122,109,58,73,62,,73,63,26,44,10,12,0.7,0.9
2025-01-07T0000,1810A,115.9773,29.5698,九江市,庐山气象台,颗粒物(PM10),80,109,59,47,37,80,,104,98,15,12,10,8,1.0,1.1
2025-01-07T0000,3190A,116.0254,29.6994,九江市,外国语学校,颗粒物(PM10),82,114,114,56,69,68,,73,67,20,36,7,8,0.5,0.7
2025-01-07T0000,2658A,98.5061,39.7443,酒泉市,仓门街子站,,24,22,44,15,23,75,,84,77,6,15,5,6,0.3,0.5
2025-01-07T0000,2659A,98.4989,39.7256,酒泉市,油田生活基地,颗粒物(PM10),54,58,53,25,24,51,,75,67,17,19,9,6,0.4,0.5
2025-01-07T0000,2698A,76.0072,39.4467,喀什地区,巡警大队,细颗粒物(PM2.5),150,193,179,115,109,11,,69,51,105,74,9,7,2.9,2.4
2025-01-07T0000,2699A,75.9755,39.4694,喀什地区,吾办,细颗粒物(PM2.5),162,183,181,123,131,9,,59,43,105,73,3,3,3.4,2.7
2025-01-07T0000,4027A,75.9483,39.4689,喀什地区,老干局,细颗粒物(PM2.5),179,266,236,135,131,5,,64,47,90,64,8,7,4.4,4
2025-01-07T0000,1824A,114.3389,34.7781,开封市,肿瘤医院,细颗粒物(PM2.5),72,88,85,52,34,9,,69,32,68,31,3,3,0.6,0.6
2025-01-07T0000,1826A,114.2885,34.7965,开封市,世纪星幼儿园,细颗粒物(PM2.5),79,73,78,58,38,25,,68,42,54,28,5,4,0.6,0.5
2025-01-07T0000,3147A,114.3438,34.8106,开封市,龙亭公园,细颗粒物(PM2.5),72,84,86,52,34,8,,70,41,68,36,3,3,0.9,0.6
2025-01-07T0000,3210A,114.3644,34.7964,开封市,汴京公园,细颗粒物(PM2.5),87,107,93,64,48,7,,73,36,72,36,6,5,0.8,0.6
2025-01-07T0000,3473A,114.2485,34.8306,开封市,技师学院,颗粒物(PM10),63,76,82,41,31,30,,68,50,52,34,3,2,0.3,0.2
2025-01-07T0000,3592A,114.4644,34.7556,开封市,祥符区生态环境局,颗粒物(PM10),77,103,101,53,40,8,,64,24,77,39,6,5,0.4,0.5
2025-01-07T0000,1951A,84.895,45.6094,克拉玛依市,长征新村,,48,43,48,33,32,51,,58,53,33,26,4,7,0.8,0.7
2025-01-07T0000,1952A,84.8988,45.5893,克拉玛依市,南林小区,,38,36,43,26,32,54,,59,55,14,15,4,4,0.8,0.9
2025-01-07T0000,1954A,84.905,44.3396,克拉玛依市,独山子区,细颗粒物(PM2.5),103,102,137,77,109,69,,65,61,23,28,4,4,1.0,1.1
2025-01-07T0000,1955A,85.6979,46.098,克拉玛依市,乌尔禾区商贸楼,,25,25,25,13,27,68,,70,64,27,25,4,5,0.8,0.7
2025-01-07T0000,3612A,85.1045,45.6899,克拉玛依市,白碱滩区新站,颗粒物(PM10),52,54,43,34,28,65,,62,60,22,24,8,8,1.0,1
2025-01-07T0000,2697A,76.1454,39.7142,克孜勒苏柯尔克孜自治州,市人民政府,细颗粒物(PM2.5),119,134,136,90,98,28,,73,61,62,36,10,6,1.3,1.4
2025-01-07T0000,3665A,76.1658,39.7157,克孜勒苏柯尔克孜自治州,克州文化中心,细颗粒物(PM2.5),112,133,123,84,91,35,,71,64,59,42,14,11,1.3,1.2
2025-01-07T0000,1450A,102.8204,24.8886,昆明市,呈贡新区,,42,,41,29,34,58,,74,66,15,20,6,9,0.5,0.7
2025-01-07T0000,1451A,102.6251,24.9608,昆明市,西山森林公园,,,,,,,,,,,,,,,,
2025-01-07T0000,1452A,102.7252,25.0902,昆明市,龙泉镇,,31,31,40,21,27,55,,76,67,16,28,6,7,0.6,0.8
2025-01-07T0000,1453A,102.7266,25.0375,昆明市,东风东路,,42,38,45,29,34,53,,71,59,13,20,6,9,0.5,0.8
2025-01-07T0000,1454A,102.6742,25.0669,昆明市,金鼎山,,40,31,44,28,29,57,,75,66,17,25,5,6,0.6,0.7
2025-01-07T0000,1455A,102.6644,25.0401,昆明市,碧鸡广场,,46,37,41,32,31,48,,74,63,25,28,8,9,0.7,0.9
2025-01-07T0000,3179A,102.7494,25.0119,昆明市,官渡区博物馆,,38,35,50,26,32,60,,77,68,11,23,6,10,0.6,1
2025-01-07T0000,3375A,102.8017,24.8336,昆明市,青年创业园,,45,45,43,28,27,42,,79,64,24,26,10,7,0.3,0.4
2025-01-07T0000,3550A,102.7997,24.9786,昆明市,昆明学院,,44,44,59,30,37,58,,75,66,14,27,8,10,0.6,0.8
2025-01-07T0000,3551A,102.5967,24.6736,昆明市,晋宁区生态环境分局,,41,41,51,24,35,63,,75,72,9,18,2,2,0.6,0.9
2025-01-07T0000,3552A,102.6678,24.9856,昆明市,云天化总部,,35,35,43,24,29,60,,81,72,9,24,7,9,0.4,0.6
2025-01-07T0000,1456A,91.1319,29.6514,拉萨市,八廓街,,30,29,30,12,18,96,,89,78,7,32,6,7,0.4,0.7
2025-01-07T0000,1457A,91.1221,29.6747,拉萨市,市环保局,,40,40,47,19,26,87,,84,76,17,34,5,7,0.7,1.6
2025-01-07T0000,1458A,91.0874,29.6475,拉萨市,区监测站,,33,21,25,13,16,103,,86,86,5,38,6,6,0.3,0.7
2025-01-07T0000,1459A,91.1774,29.6541,拉萨市,西藏大学,,45,45,26,14,12,94,,92,80,12,22,5,5,0.4,0.6
2025-01-07T0000,1460A,90.9798,29.6588,拉萨市,区辐射站,颗粒物(PM10),51,51,43,23,28,93,,81,75,10,40,7,9,0.5,0.9
2025-01-07T0000,1461A,91.0834,29.6292,拉萨市,拉萨火车站,,36,25,31,9,18,113,,105,105,2,38,4,5,0.3,1
2025-01-07T0000,2520A,109.2203,23.7256,来宾市,来宾技工学校,细颗粒物(PM2.5),180,205,134,136,111,8,,136,90,95,53,42,13,1.4,1.2
2025-01-07T0000,3535A,109.1781,23.7297,来宾市,兴宾区政府,细颗粒物(PM2.5),150,163,139,115,107,76,,151,113,33,33,7,8,1.1,1
2025-01-07T0000,4002A,109.2416,23.7461,来宾市,中南小学,细颗粒物(PM2.5),172,208,136,130,107,8,,133,78,94,49,8,9,1.5,1.2
2025-01-07T0000,1476A,103.631,36.1031,兰州市,兰炼宾馆,颗粒物(PM10),52,53,112,28,81,59,,67,43,26,71,14,24,0.5,1.4
2025-01-07T0000,1477A,104.1373,35.9454,兰州市,榆中兰大校区,,,,,,,,,,,,,,,,
2025-01-07T0000,1478A,103.8412,36.0726,兰州市,生物制品所,细颗粒物(PM2.5),65,61,121,47,94,35,,28,18,46,78,12,18,0.6,1.9
2025-01-07T0000,1479A,103.831,36.0464,兰州市,铁路设计院,细颗粒物(PM2.5),59,58,137,42,102,46,,25,21,35,80,7,17,0.6,2.1
2025-01-07T0000,3186A,103.7158,36.1058,兰州市,教育港,细颗粒物(PM2.5),58,54,132,41,91,48,,56,29,38,78,16,23,0.6,1.7
2025-01-07T0000,3241A,103.7439,36.0842,兰州市,百合公园,颗粒物(PM10),54,58,112,29,85,31,,44,26,52,72,12,19,0.9,2.1
2025-01-07T0000,3242A,103.9611,35.998,兰州市,和平,细颗粒物(PM2.5),92,89,121,68,94,35,,51,44,58,64,41,26,1.4,1.8
2025-01-07T0000,3245A,103.6633,36.533,兰州新区,新区管委会,,47,47,62,31,39,62,,85,74,20,22,17,23,0.5,0.6
2025-01-07T0000,3246A,103.6975,36.4789,兰州新区,舟曲中学,,29,29,61,13,39,58,,79,69,24,34,11,22,0.5,0.7
2025-01-07T0000,1067A,116.6708,39.5111,廊坊市,药材公司,,29,29,20,14,8,14,,64,26,52,28,4,3,0.4,0.3
2025-01-07T0000,1068A,116.7214,39.5589,廊坊市,开发区,,26,26,17,9,6,23,,70,33,45,21,4,4,0.4,0.3
2025-01-07T0000,1070A,116.7244,39.5269,廊坊市,北华航天学院,,26,26,22,12,7,38,,70,41,31,16,7,6,0.4,0.4
2025-01-07T0000,2919A,116.7022,39.5453,廊坊市,河北工业大学,,25,25,23,10,7,39,,71,42,34,23,5,4,0.4,0.3
2025-01-07T0000,2535A,103.7723,29.5462,乐山市,花湖湾,细颗粒物(PM2.5),117,,117,88,99,37,,46,39,29,25,6,5,0.6,0.6
2025-01-07T0000,2536A,103.7627,29.5844,乐山市,牛耳桥,细颗粒物(PM2.5),156,139,114,119,100,10,,31,16,40,33,6,5,0.8,0.8
2025-01-07T0000,2537A,103.7508,29.6006,乐山市,市第三水厂,细颗粒物(PM2.5),169,128,88,128,100,14,,44,23,40,35,4,4,0.9,1
2025-01-07T0000,2538A,103.7571,29.5664,乐山市,市监测站,细颗粒物(PM2.5),119,111,98,90,81,21,,38,28,31,28,4,4,1.5,1.5
2025-01-07T0000,3361A,103.7311,29.5628,乐山市,理工大学,细颗粒物(PM2.5),144,125,106,110,93,14,,43,31,37,28,7,6,1.0,0.9
2025-01-07T0000,2598A,100.2143,26.8576,丽江市,西南郊,,,,,,,,,,,,,,,,
2025-01-07T0000,2599A,100.2497,26.8802,丽江市,丽江古城,,26,24,33,16,22,81,,84,78,8,12,9,9,0.5,0.6
2025-01-07T0000,2600A,100.2203,26.8906,丽江市,市中心,,25,18,24,12,15,78,,82,75,8,13,9,11,0.5,0.6
2025-01-07T0000,1267A,119.914,28.4514,丽水市,监测站大楼,细颗粒物(PM2.5),65,67,68,47,58,39,,98,65,44,34,6,7,0.6,0.7
2025-01-07T0000,1268A,119.93,28.4586,丽水市,莲都小学,细颗粒物(PM2.5),75,85,77,55,51,34,,113,83,44,30,6,6,0.8,0.7
2025-01-07T0000,1269A,119.879,28.4231,丽水市,余庄前,细颗粒物(PM2.5),64,63,66,46,52,27,,112,70,30,27,4,5,0.5,0.5
2025-01-07T0000,1173A,119.176,34.5885,连云港市,市环境监测站,,39,39,124,17,64,32,,62,38,40,52,9,11,0.9,1
2025-01-07T0000,3000A,119.3581,34.6972,连云港市,德源药业,颗粒物(PM10),51,51,117,31,67,2,,55,15,70,62,8,10,0.4,0.7
2025-01-07T0000,3007A,119.178,34.844,连云港市,新城一中,颗粒物(PM10),55,60,111,27,66,34,,67,46,41,40,11,15,1.1,1
2025-01-07T0000,3008A,119.3608,34.7519,连云港市,胡沟管理处,,41,41,99,17,55,40,,65,54,27,34,10,10,0.7,1
2025-01-07T0000,3009A,119.1478,34.5911,连云港市,矿山设计院,颗粒物(PM10),51,51,124,17,63,9,,64,26,58,51,7,9,0.6,0.8
2025-01-07T0000,3434A,119.2413,34.6539,连云港市,工贸学校,,31,31,106,17,64,25,,64,44,40,40,8,12,0.5,0.8
2025-01-07T0000,3664A,119.4172,34.7341,连云港市,连云街道,,38,38,101,22,59,32,,57,36,30,40,8,18,0.5,1
2025-01-07T0000,2571A,102.3431,27.8099,凉山彝族自治州,青龙寺,,41,41,53,15,21,57,,93,77,10,11,6,9,0.6,0.9
2025-01-07T0000,2572A,102.2721,27.8415,凉山彝族自治州,邛海宾馆,细颗粒物(PM2.5),80,80,61,59,42,37,,75,56,26,23,11,12,0.9,1
2025-01-07T0000,2573A,102.2625,27.898,凉山彝族自治州,西昌市政府,细颗粒物(PM2.5),65,58,60,47,48,43,,78,66,22,24,9,12,0.9,1.2
2025-01-07T0000,2574A,102.2685,27.8851,凉山彝族自治州,凉山州政府,细颗粒物(PM2.5),59,61,66,42,44,43,,80,64,25,27,7,9,0.6,0.9
2025-01-07T0000,2575A,102.237,27.8914,凉山彝族自治州,长安,细颗粒物(PM2.5),73,78,70,53,45,37,,79,65,31,33,8,11,0.9,0.9
2025-01-07T0000,2212A,123.2,41.1953,辽阳市,宏伟区,细颗粒物(PM2.5),110,132,113,83,98,7,,49,23,50,36,23,15,1.2,0.9
2025-01-07T0000,2213A,123.1683,41.2495,辽阳市,新华园,细颗粒物(PM2.5),104,124,147,78,118,4,,44,12,72,58,46,17,1.5,1.7
2025-01-07T0000,2214A,123.2354,41.2639,辽阳市,滨河路,细颗粒物(PM2.5),90,83,99,67,96,13,,49,31,56,40,22,22,1.1,1.1
2025-01-07T0000,2215A,123.149,41.2991,辽阳市,铁西工业园,细颗粒物(PM2.5),186,210,141,140,110,4,,46,8,65,44,10,9,2.3,1.5
2025-01-07T0000,2227A,125.1358,42.8845,辽源市,环保局,细颗粒物(PM2.5),98,91,80,73,60,8,,57,25,50,38,7,9,1.7,1.5
2025-01-07T0000,3239A,125.0764,42.9078,辽源市,银鹰制药,细颗粒物(PM2.5),90,78,75,67,64,10,,59,27,50,37,7,30,1.6,1.1
2025-01-07T0000,1625A,115.9848,36.4372,聊城市,区政府,细颗粒物(PM2.5),63,69,44,45,14,11,,73,35,74,29,21,12,1.0,0.7
2025-01-07T0000,2878A,116.0072,36.4343,聊城市,聊大东校,颗粒物(PM10),58,66,49,38,16,8,,70,31,75,31,12,8,0.8,0.6
2025-01-07T0000,3200A,115.9819,36.4978,聊城市,监控中心,颗粒物(PM10),59,67,61,36,21,16,,70,25,72,44,19,13,0.9,0.8
2025-01-07T0000,3513A,116.0445,36.4361,聊城市,九州社区,颗粒物(PM10),51,52,43,29,14,8,,74,38,66,25,14,9,0.6,0.5
2025-01-07T0000,4018A,116.0567,36.4608,聊城市,星美广场,,48,48,50,24,16,32,,77,41,43,25,12,12,0.7,0.6
2025-01-07T0000,2632A,94.3681,29.6376,林芝市,林芝监测站,,26,7,28,3,10,81,,79,79,2,6,6,6,0.3,0.3
2025-01-07T0000,2633A,94.3616,29.6616,林芝市,林芝人民医院,,24,14,29,3,8,75,,73,73,1,5,5,6,0.4,0.4
2025-01-07T0000,2603A,100.0781,23.8982,临沧市,市环保局,,50,41,40,35,29,31,,71,48,15,15,8,8,0.5,0.5
2025-01-07T0000,2604A,100.0894,23.8822,临沧市,市气象局,,50,37,41,35,33,32,,67,51,13,16,8,9,0.7,0.7
2025-01-07T0000,1733A,111.5531,36.0783,临汾市,临钢医院,,15,7,41,6,13,48,,54,48,15,27,6,4,0.4,0.5
2025-01-07T0000,1734A,111.5028,36.0714,临汾市,技工学校,,28,,53,19,22,34,,52,43,22,30,7,6,0.5,0.6
2025-01-07T0000,1736A,111.5018,36.0855,临汾市,市委,,38,38,53,7,15,44,,56,52,19,27,3,3,0.5,0.6
2025-01-07T0000,3018A,111.505,36.1014,临汾市,唐尧大酒店,,27,27,47,8,18,39,,53,49,20,26,7,6,0.5,0.6
2025-01-07T0000,3668A,111.5036,36.0414,临汾市,城南,,40,40,62,18,29,4,,52,26,42,33,4,4,0.5,0.6
2025-01-07T0000,2667A,103.2069,35.5993,临夏回族自治州,环保局,细颗粒物(PM2.5),102,129,105,76,61,24,,74,54,37,31,12,15,1.9,1.7
2025-01-07T0000,2668A,103.2417,35.6057,临夏回族自治州,建设大厦,颗粒物(PM10),88,126,97,61,45,28,,74,48,32,26,13,16,1.6,1.3
2025-01-07T0000,1618A,118.3429,35.0532,临沂市,沂河小区,颗粒物(PM10),60,70,102,37,46,9,,68,35,73,46,22,15,0.7,0.7
2025-01-07T0000,1619A,118.295,35.0583,临沂市,鲁南制药厂,颗粒物(PM10),79,107,115,46,39,6,,69,25,73,48,38,18,0.8,0.4
2025-01-07T0000,1620A,118.2794,34.9976,临沂市,新光毛纺厂,颗粒物(PM10),51,51,100,30,39,6,,62,22,69,54,16,12,0.8,0.8
2025-01-07T0000,1621A,118.3956,35.0888,临沂市,河东保险公司,颗粒物(PM10),59,68,93,40,43,5,,69,41,73,44,15,9,0.9,0.8
2025-01-07T0000,3370A,118.3564,35.0215,临沂市,十里堡居委,颗粒物(PM10),60,70,102,36,45,6,,71,33,70,46,25,15,1.0,1
2025-01-07T0000,3496A,118.3604,35.1084,临沂市,南坊新区,颗粒物(PM10),54,58,99,34,41,11,,69,38,66,50,12,9,0.6,0.6
2025-01-07T0000,3860A,118.3920,35.0300,临沂市,皇山花园小区,颗粒物(PM10),53,56,98,24,38,10,,68,38,73,49,13,9,0.3,0.4
2025-01-07T0000,1870A,109.4856,24.3895,柳州市,柳东小学,细颗粒物(PM2.5),87,87,97,64,76,101,,146,124,25,27,12,14,0.8,0.6
2025-01-07T0000,1871A,109.4157,24.3277,柳州市,环保监测站,细颗粒物(PM2.5),93,88,120,69,82,101,,137,102,32,43,12,16,0.9,1.1
2025-01-07T0000,1872A,109.389,24.341,柳州市,河西水厂,细颗粒物(PM2.5),135,173,150,103,91,58,,136,75,69,59,20,21,1.1,1.2
2025-01-07T0000,1873A,109.4311,24.2921,柳州市,市四中,细颗粒物(PM2.5),84,76,101,62,73,101,,141,94,34,41,19,13,1.4,1.6
2025-01-07T0000,1874A,109.4006,24.3631,柳州市,市九中,细颗粒物(PM2.5),105,82,120,79,92,82,,142,99,40,44,9,13,1.0,1.2
2025-01-07T0000,1875A,109.4958,24.3134,柳州市,古亭山,细颗粒物(PM2.5),70,88,87,51,62,92,,141,95,38,40,29,23,0.8,1
2025-01-07T0000,3402A,109.5422,24.3996,柳州市,市二中,细颗粒物(PM2.5),82,100,93,60,59,62,,137,88,51,44,11,11,1.0,1
2025-01-07T0000,2307A,116.5079,31.737,六安市,监测大楼,,46,46,80,23,40,55,,76,59,21,23,6,6,0.4,0.6
2025-01-07T0000,2308A,116.4738,31.7643,六安市,皖西学院,颗粒物(PM10),51,51,89,29,41,53,,78,58,27,28,6,6,0.7,0.8
2025-01-07T0000,2309A,116.4996,31.7905,六安市,朝阳厂,,49,49,75,27,41,50,,75,55,21,22,3,3,0.8,0.9
2025-01-07T0000,2310A,116.5567,31.7886,六安市,开发区,颗粒物(PM10),63,75,108,37,45,39,,74,46,32,31,5,5,0.6,0.7
2025-01-07T0000,2576A,104.8,26.5892,六盘水市,窑上,颗粒物(PM10),51,51,65,29,39,25,,54,46,28,18,15,16,1.1,1
2025-01-07T0000,2577A,104.83,26.5917,六盘水市,黄土坡,细颗粒物(PM2.5),52,,58,36,47,38,,55,50,20,28,8,11,1.2,1.1
2025-01-07T0000,2578A,104.89,26.5939,六盘水市,水钢,,43,40,57,30,45,32,,68,56,26,22,2,6,1.1,1
2025-01-07T0000,2579A,104.8475,26.5894,六盘水市,民中,,42,31,54,29,45,39,,58,52,18,29,8,12,1.2,1.2
2025-01-07T0000,2580A,104.9544,26.5506,六盘水市,双水,,39,27,58,27,42,50,,68,57,16,23,7,9,0.9,0.9
2025-01-07T0000,2335A,117.0189,25.1181,龙岩市,龙岩师专,,,,,,,,,,,,,,,,
2025-01-07T0000,2336A,117.0217,25.1033,龙岩市,龙岩市监测站,,46,43,45,32,30,35,,105,62,42,26,8,7,0.7,0.6
2025-01-07T0000,2337A,117.0258,25.0661,龙岩市,闽西职业技术学院,颗粒物(PM10),51,51,62,27,30,7,,102,40,67,40,18,11,0.6,0.6
2025-01-07T0000,2338A,117.0196,25.0306,龙岩市,龙岩学院,,42,42,44,24,27,42,,101,66,27,24,11,10,0.4,0.5
2025-01-07T0000,2665A,105.0822,33.3261,陇南市,汉王镇固水子,,,,,,,,,,,,,,,,
2025-01-07T0000,2885A,104.9339,33.3826,陇南市,滨江中学,细颗粒物(PM2.5),63,71,71,45,34,36,,66,51,38,38,8,82,1.3,1.5
2025-01-07T0000,3247A,104.955,33.371,陇南市,市总工会,颗粒物(PM10),55,60,68,31,37,45,,72,67,37,34,6,38,0.7,0.8
2025-01-07T0000,2487A,111.9589,27.8901,娄底市,电视发射台,细颗粒物(PM2.5),69,60,46,50,43,84,,116,106,17,16,7,7,0.7,0.6
2025-01-07T0000,2488A,111.9975,27.725,娄底市,市监测站,细颗粒物(PM2.5),82,97,88,60,65,82,,114,100,21,37,13,13,0.5,0.8
2025-01-07T0000,2489A,112.0194,27.7314,娄底市,市委党校,"颗粒物(PM10),细颗粒物(PM2.5)",72,94,81,52,56,86,,108,99,21,36,7,8,0.7,0.8
2025-01-07T0000,2490A,111.9561,27.7569,娄底市,涟钢,细颗粒物(PM2.5),82,91,82,60,58,88,,108,100,12,22,8,11,0.5,0.9
2025-01-07T0000,2491A,111.9892,27.7044,娄底市,市政府,细颗粒物(PM2.5),80,91,78,59,60,85,,109,102,19,27,8,7,0.6,0.8
2025-01-07T0000,1893A,105.4324,28.9634,泸州市,九狮山,,,,,,,,,,,,,,,,
2025-01-07T0000,1894A,105.4427,28.9063,泸州市,小市上码头,细颗粒物(PM2.5),199,170,117,149,102,8,,40,25,51,31,3,3,0.9,0.7
2025-01-07T0000,1895A,105.4241,28.8573,泸州市,兰田宪桥,细颗粒物(PM2.5),211,161,115,161,106,8,,39,22,50,27,4,3,1.0,0.8
2025-01-07T0000,1896A,105.4379,28.8833,泸州市,市环监站,细颗粒物(PM2.5),195,169,112,146,97,6,,36,18,44,29,5,5,1.0,0.7
2025-01-07T0000,3490A,105.3617,28.7703,泸州市,纳溪区环保局,细颗粒物(PM2.5),186,150,107,140,101,8,,37,17,32,25,4,4,1.1,1
2025-01-07T0000,2183A,111.1406,37.5211,吕梁市,环保局,颗粒物(PM10),56,62,78,18,17,2,,46,17,46,35,3,3,0.4,0.4
2025-01-07T0000,2185A,111.1297,37.5136,吕梁市,自来水公司,颗粒物(PM10),78,105,81,24,18,4,,42,21,46,35,10,7,0.6,0.5
2025-01-07T0000,2867A,111.1283,37.51,吕梁市,马茂庄小学,颗粒物(PM10),60,69,80,20,17,2,,43,16,50,39,4,7,0.4,0.4
2025-01-07T0000,1812A,112.3931,34.6516,洛阳市,市委党校,"颗粒物(PM10),细颗粒物(PM2.5)",90,129,73,67,28,2,,53,30,61,41,8,7,1.2,0.8
2025-01-07T0000,1814A,112.4657,34.6871,洛阳市,豫西宾馆,颗粒物(PM10),73,95,77,49,31,6,,58,24,64,42,8,8,0.7,0.7
2025-01-07T0000,1815A,112.494,34.6886,洛阳市,河南林校,细颗粒物(PM2.5),89,86,68,66,37,5,,51,18,58,38,2,4,0.7,0.7
2025-01-07T0000,1816A,112.3844,34.623,洛阳市,开发区管委会,细颗粒物(PM2.5),75,92,65,55,33,26,,57,37,38,32,7,8,0.7,0.6
2025-01-07T0000,1817A,112.4267,34.6258,洛阳市,市委新办公区,细颗粒物(PM2.5),98,116,75,73,38,7,,58,32,68,35,6,7,1.0,0.7
2025-01-07T0000,3340A,112.6005,34.6326,洛阳市,伊滨,颗粒物(PM10),88,126,93,46,33,5,,58,19,69,43,7,5,0.5,0.3
2025-01-07T0000,3341A,112.4951,34.6332,洛阳市,中移产业园,颗粒物(PM10),69,88,68,42,28,9,,62,30,66,38,7,7,0.7,0.7
2025-01-07T0000,3593A,112.5736,34.8993,洛阳市,吉利监测站,颗粒物(PM10),70,90,80,41,30,2,,57,21,58,44,2,5,0.6,0.5
2025-01-07T0000,3635A,112.3677,34.662,洛阳市,河科大西苑校区,细颗粒物(PM2.5),97,127,82,72,37,4,,50,22,52,43,6,7,1.2,0.8
2025-01-07T0000,3636A,112.4388,34.6781,洛阳市,英才小学,细颗粒物(PM2.5),99,139,78,74,35,0,,51,18,67,49,8,7,1.1,0.7
2025-01-07T0000,2399A,114.051,33.5699,漯河市,三五一五工厂,"颗粒物(PM10),细颗粒物(PM2.5)",67,83,98,48,37,10,,72,36,59,26,8,8,0.5,0.6
2025-01-07T0000,2400A,114.0055,33.5698,漯河市,漯河大学,颗粒物(PM10),60,69,90,31,30,35,,75,48,40,27,6,7,0.4,0.4
2025-01-07T0000,2401A,114.0138,33.5828,漯河市,市水利局,颗粒物(PM10),70,90,90,46,34,28,,72,49,41,23,8,8,0.6,0.6
2025-01-07T0000,2402A,114.0261,33.5698,漯河市,市广电局,细颗粒物(PM2.5),68,76,90,49,38,28,,72,46,41,24,7,8,0.6,0.6
2025-01-07T0000,3478A,113.9749,33.5664,漯河市,市图书馆,颗粒物(PM10),61,72,90,36,32,23,,72,48,57,30,7,7,0.5,0.5
2025-01-07T0000,3479A,114.0967,33.5906,漯河市,召陵区卫健委,细颗粒物(PM2.5),85,106,92,63,40,7,,70,24,71,40,9,8,0.4,0.4
2025-01-07T0000,1798A,118.5092,31.6837,马鞍山市,湖东路四小,,42,42,106,14,43,45,,82,51,28,43,4,10,0.6,1
2025-01-07T0000,1799A,118.5024,31.6449,马鞍山市,开发区,,47,47,107,20,58,42,,79,58,28,35,9,10,0.8,0.8
2025-01-07T0000,1800A,118.5228,31.7231,马鞍山市,慈湖,,43,42,113,30,54,23,,76,30,51,47,6,11,0.6,0.9
2025-01-07T0000,1802A,118.6245,31.7241,马鞍山市,濮塘,,48,48,101,18,45,38,,86,55,33,35,7,10,0.2,0.4
2025-01-07T0000,3633A,118.4918,31.6809,马鞍山市,雨山,,48,48,112,17,47,27,,76,47,43,41,7,12,0.8,1.1
2025-01-07T0000,1686A,111.0286,21.4688,茂名市,电白南海,细颗粒物(PM2.5),67,63,85,48,54,142,,163,157,24,33,6,12,0.8,1
2025-01-07T0000,1687A,110.9294,21.6533,茂名市,茂石化七小,颗粒物(PM10),62,73,90,41,46,140,,160,152,20,26,13,15,0.6,0.8
2025-01-07T0000,1688A,110.9107,21.6687,茂名市,健康路,细颗粒物(PM2.5),73,70,87,53,57,154,,171,165,22,29,13,16,0.8,0.9
2025-01-07T0000,1689A,110.8592,21.6828,茂名市,高岭,细颗粒物(PM2.5),73,78,104,53,68,154,,159,149,28,42,20,30,0.8,1
2025-01-07T0000,3450A,111.01,21.5165,茂名市,电白水东,细颗粒物(PM2.5),73,85,80,53,48,134,,162,156,23,22,12,16,0.7,0.8
2025-01-07T0000,2539A,104.0308,30.0478,眉山市,黑龙滩水库,细颗粒物(PM2.5),83,90,76,61,52,49,,68,62,14,14,3,3,0.8,0.8
2025-01-07T0000,2540A,103.8416,30.0874,眉山市,气象局,细颗粒物(PM2.5),122,132,120,92,89,10,,33,20,54,46,4,5,0.7,0.8
2025-01-07T0000,3137A,103.8578,30.0744,眉山市,市委党校,细颗粒物(PM2.5),104,95,101,78,80,17,,29,20,50,46,5,7,0.5,0.7
2025-01-07T0000,3148A,103.8291,30.0564,眉山市,区人社局,细颗粒物(PM2.5),98,77,86,73,86,27,,30,23,41,51,8,10,0.6,0.8
2025-01-07T0000,1690A,116.1231,24.3284,梅州市,梅江月梅,颗粒物(PM10),65,80,59,42,44,17,,116,56,55,36,9,10,0.7,0.6
2025-01-07T0000,1691A,116.0797,24.2719,梅州市,梅县新城,颗粒物(PM10),55,60,64,38,44,14,,113,39,56,42,5,6,0.7,0.7
2025-01-07T0000,1692A,116.1248,24.2654,梅州市,环境监控中心,颗粒物(PM10),61,71,69,37,47,14,,111,43,58,39,6,11,0.7,0.7
2025-01-07T0000,3315A,116.1233,24.2991,梅州市,梅龙,"颗粒物(PM10),细颗粒物(PM2.5)",60,70,60,43,40,14,,106,45,57,34,8,8,0.8,0.8
2025-01-07T0000,1878A,104.7778,31.4741,绵阳市,富乐山,细颗粒物(PM2.5),74,69,78,54,59,31,,51,38,28,34,2,3,0.8,0.9
2025-01-07T0000,1879A,104.7563,31.4535,绵阳市,市人大,细颗粒物(PM2.5),73,81,101,53,66,7,,26,18,52,48,1,3,1.0,1.1
2025-01-07T0000,1880A,104.6697,31.4668,绵阳市,高新区自来水公司,细颗粒物(PM2.5),79,80,95,58,72,2,,28,10,54,45,4,4,0.7,0.8
2025-01-07T0000,1881A,104.7287,31.5075,绵阳市,三水厂,细颗粒物(PM2.5),89,92,96,66,71,3,,40,15,57,46,6,6,0.9,0.9
2025-01-07T0000,3491A,104.69,31.5322,绵阳市,西科大附属小学,细颗粒物(PM2.5),92,98,91,68,64,7,,38,18,52,43,5,6,1.1,1.1
2025-01-07T0000,3492A,104.5648,31.5343,绵阳市,安州区旅游局,细颗粒物(PM2.5),98,88,100,73,75,7,,35,11,48,41,8,8,0.8,1
2025-01-07T0000,1784A,129.61,44.561,牡丹江市,环保大楼,细颗粒物(PM2.5),63,55,83,45,52,20,,37,14,40,45,6,10,0.7,0.9
2025-01-07T0000,1785A,129.6115,44.5782,牡丹江市,文化广场,细颗粒物(PM2.5),69,75,95,50,60,20,,40,18,43,44,10,13,1.3,1.3
2025-01-07T0000,1786A,129.5904,44.5963,牡丹江市,第一医院,细颗粒物(PM2.5),108,91,98,81,79,23,,38,18,35,39,9,11,1.1,1
2025-01-07T0000,1787A,129.6364,44.6075,牡丹江市,机车工厂,细颗粒物(PM2.5),89,104,100,66,62,10,,40,17,52,39,33,20,1.4,1.1
2025-01-07T0000,1788A,129.6386,44.5462,牡丹江市,第一中学,,45,45,66,30,50,27,,39,20,29,33,6,8,0.6,0.8
2025-01-07T0000,2531A,105.0703,29.61,内江市,市监测站,细颗粒物(PM2.5),110,,69,83,70,37,,53,46,22,28,5,6,0.7,0.8
2025-01-07T0000,2532A,105.0717,29.5947,内江市,东兴区政府,细颗粒物(PM2.5),104,83,70,78,69,36,,52,42,22,27,2,3,0.8,0.8
2025-01-07T0000,2533A,105.0653,29.5817,内江市,内江二中,细颗粒物(PM2.5),109,96,79,82,76,35,,54,41,24,25,8,9,0.9,0.9
2025-01-07T0000,2534A,105.0406,29.5822,内江市,内江日报社,细颗粒物(PM2.5),104,92,75,78,72,30,,52,38,26,28,10,10,0.9,0.9
2025-01-07T0000,2628A,92.0657,31.4846,那曲市,那曲监测站,"颗粒物(PM10),细颗粒物(PM2.5)",58,66,38,41,23,18,,96,72,63,22,16,9,3.8,1.2
2025-01-07T0000,3128A,92.0506,31.4797,那曲市,那曲会议中心,,39,39,26,24,17,56,,100,88,24,13,5,4,1.1,0.8
2025-01-07T0000,1290A,115.8931,28.6843,南昌市,省外办,细颗粒物(PM2.5),92,114,121,68,86,67,,81,64,36,60,11,7,0.7,0.8
2025-01-07T0000,1291A,115.8886,28.7003,南昌市,省林业公司,颗粒物(PM10),95,139,114,56,77,65,,90,67,42,56,11,9,0.8,0.8
2025-01-07T0000,1292A,115.8126,28.7442,南昌市,林科所,颗粒物(PM10),91,132,115,61,80,87,,94,79,30,57,11,8,0.8,0.8
2025-01-07T0000,1294A,115.8518,28.687,南昌市,建工学校,颗粒物(PM10),89,128,118,62,76,73,,95,79,31,50,12,11,0.9,0.9
2025-01-07T0000,1295A,115.8921,28.6424,南昌市,象湖,细颗粒物(PM2.5),92,111,115,68,84,72,,104,84,37,51,11,9,0.7,0.7
2025-01-07T0000,1296A,115.7423,28.7996,南昌市,武术学校,颗粒物(PM10),60,69,55,37,47,40,,79,47,20,16,2,2,0.9,0.8
2025-01-07T0000,1298A,115.9314,28.6842,南昌市,省站,细颗粒物(PM2.5),88,120,124,65,82,64,,89,72,25,39,11,9,0.7,0.7
2025-01-07T0000,3046A,115.9084,28.6062,南昌市,机电学校,颗粒物(PM10),92,134,140,61,87,64,,96,74,32,50,13,12,0.6,0.8
2025-01-07T0000,3690A,115.9721,28.7031,南昌市,外国语学校,颗粒物(PM10),95,140,115,63,73,66,,95,78,31,43,9,7,0.5,0.6
2025-01-07T0000,1905A,106.056,30.8064,南充市,西山风景区,细颗粒物(PM2.5),95,73,59,71,59,27,,50,12,12,20,1,2,1.1,1.1
2025-01-07T0000,1906A,106.0789,30.8023,南充市,南充市委,细颗粒物(PM2.5),129,112,81,98,69,6,,21,8,31,30,3,3,0.8,0.7
2025-01-07T0000,1907A,106.1031,30.8217,南充市,南充炼油厂,细颗粒物(PM2.5),129,130,99,98,75,13,,17,11,26,35,3,4,0.8,0.8
2025-01-07T0000,1908A,106.1064,30.7856,南充市,高坪区监测站,细颗粒物(PM2.5),114,118,88,86,68,12,,11,,29,37,2,2,0.7,0.7
2025-01-07T0000,1909A,106.0642,30.7636,南充市,嘉陵区环保局,细颗粒物(PM2.5),113,102,82,85,67,11,,16,6,31,37,4,4,0.9,0.9
2025-01-07T0000,1910A,106.1087,30.8388,南充市,市环境监测站,细颗粒物(PM2.5),114,102,89,86,69,13,,23,14,21,30,5,5,0.7,0.7
2025-01-07T0000,1151A,118.8086,32.1065,南京市,迈皋桥,,33,33,90,12,37,22,,78,47,60,43,4,5,0.3,0.6
2025-01-07T0000,1152A,118.7538,32.0551,南京市,草场门,,46,46,110,17,41,39,,74,52,44,38,7,11,0.0,0.4
2025-01-07T0000,1153A,118.7794,32.0745,南京市,山西路,,39,39,116,19,41,54,,80,66,49,36,4,6,0.5,0.8
2025-01-07T0000,1154A,118.7752,32.0023,南京市,中华门,,34,34,98,14,37,44,,63,47,34,42,8,12,0.8,1
2025-01-07T0000,1155A,118.8109,32.0309,南京市,瑞金路,,31,31,106,12,41,56,,71,54,20,31,4,7,0.8,1.1
2025-01-07T0000,1156A,118.7997,32.0754,南京市,玄武湖,,33,33,104,9,39,41,,72,50,25,25,7,10,0.7,0.9
2025-01-07T0000,1157A,118.6414,32.0931,南京市,浦口,,37,37,108,11,37,62,,72,57,8,14,6,9,0.2,0.4
2025-01-07T0000,1158A,118.7356,31.9996,南京市,奥体中心,,38,38,106,17,40,51,,77,58,41,40,12,12,0.6,0.9
2025-01-07T0000,1159A,118.9125,32.1028,南京市,仙林大学城,,39,39,114,22,42,28,,76,46,50,39,8,9,0.3,0.5
2025-01-07T0000,3422A,118.8436,31.9198,南京市,江宁彩虹桥,,38,38,106,12,39,48,,79,61,27,30,7,10,0.4,0.6
2025-01-07T0000,3423A,119.0138,31.6494,南京市,溧水永阳,,39,39,88,19,53,44,,78,57,29,33,4,5,0.2,0.5
2025-01-07T0000,3424A,118.879,31.3302,南京市,高淳老职中,颗粒物(PM10),53,55,97,21,61,49,,86,60,24,32,4,6,0.3,0.6
2025-01-07T0000,3427A,118.8554,32.3578,南京市,六合雄州,,35,35,85,11,40,18,,65,48,30,19,2,4,0.5,0.7
2025-01-07T0000,1401A,108.3103,22.7881,南宁市,二十一中,细颗粒物(PM2.5),122,121,93,92,74,105,,174,140,57,46,7,8,1.2,1.1
2025-01-07T0000,1402A,108.3141,22.8528,南宁市,北湖,细颗粒物(PM2.5),162,166,102,123,78,10,,164,110,120,55,19,17,1.4,1.1
2025-01-07T0000,1403A,108.3206,22.8225,南宁市,市监测站,细颗粒物(PM2.5),104,106,90,78,68,118,,160,138,47,43,16,15,1.4,1.2
2025-01-07T0000,1404A,108.3829,22.8037,南宁市,大自然花园,细颗粒物(PM2.5),115,98,86,87,68,124,,162,138,39,37,9,10,1.1,1
2025-01-07T0000,1405A,108.4394,22.7904,南宁市,仙葫,细颗粒物(PM2.5),134,109,93,102,77,72,,156,121,84,43,6,7,1.1,1
2025-01-07T0000,1406A,108.2397,22.8467,南宁市,区农职院,细颗粒物(PM2.5),105,112,96,79,67,47,,157,97,62,43,26,14,1.2,1
2025-01-07T0000,1407A,108.3275,22.735,南宁市,英华嘉园,细颗粒物(PM2.5),166,168,109,126,75,4,,147,56,140,70,10,10,1.5,1.1
2025-01-07T0000,1408A,108.2257,22.7757,南宁市,沙井镇街道办,细颗粒物(PM2.5),135,188,130,103,77,5,,136,49,121,72,7,7,1.1,0.9
2025-01-07T0000,3401A,108.4834,22.7618,南宁市,红星社区,细颗粒物(PM2.5),124,119,100,94,78,42,,163,92,85,46,10,12,1.2,1.1
2025-01-07T0000,2331A,118.0966,26.6761,南平市,茫荡山,,,,,,,,,,,,,,,,
2025-01-07T0000,2332A,118.1681,26.6369,南平市,南平市监测站,,42,42,49,29,36,17,,93,47,48,35,4,4,0.6,0.6
2025-01-07T0000,2333A,118.1825,26.6489,南平市,南平铝业有限公司,,49,49,44,28,32,11,,94,38,52,34,8,5,0.7,0.7
2025-01-07T0000,2334A,118.1756,26.6272,南平市,南平七中,,40,39,49,28,37,35,,94,54,30,26,2,3,0.5,0.6
2025-01-07T0000,1168A,120.9098,31.9663,南通市,狼山街道,细颗粒物(PM2.5),73,81,118,53,64,56,,80,65,20,25,7,8,0.8,0.9
2025-01-07T0000,1169A,120.86,32.0005,南通市,虹桥,细颗粒物(PM2.5),74,77,102,54,62,56,,79,64,22,27,7,8,0.8,0.8
2025-01-07T0000,1170A,120.87,32.02,南通市,城中,细颗粒物(PM2.5),74,91,129,54,59,55,,80,64,28,31,9,9,0.9,0.8
2025-01-07T0000,1171A,120.94,31.93,南通市,星湖花园,,,78,119,51,62,,,72,,23,32,7,8,0.8,0.8
2025-01-07T0000,1172A,120.81,32.0417,南通市,紫琅学院,细颗粒物(PM2.5),79,90,120,58,60,47,,80,58,32,31,4,5,1.0,0.9
2025-01-07T0000,3291A,121.067,32.062,南通市,通州监测站,细颗粒物(PM2.5),79,92,122,58,65,49,,86,68,33,32,3,5,0.7,0.7
2025-01-07T0000,3432A,120.9348,31.9883,南通市,环境教育馆,细颗粒物(PM2.5),65,78,118,47,58,53,,88,68,32,28,6,7,0.7,0.8
2025-01-07T0000,2404A,112.5224,33.0122,南阳市,瓦房庄,颗粒物(PM10),75,99,97,50,40,48,,69,56,21,21,7,7,0.6,0.6
2025-01-07T0000,2405A,112.5003,32.9735,南阳市,汉画馆,颗粒物(PM10),69,87,90,44,43,35,,66,50,36,32,7,7,0.6,0.6
2025-01-07T0000,2406A,112.5573,33.027,南阳市,气象站,颗粒物(PM10),77,103,109,41,34,47,,74,54,26,24,7,6,0.6,0.6
2025-01-07T0000,2407A,112.5481,32.9689,南阳市,理工学院,细颗粒物(PM2.5),70,84,90,51,43,40,,68,51,31,26,7,7,0.5,0.6
2025-01-07T0000,4008A,112.5234,32.9922,南阳市,卧龙区政府,颗粒物(PM10),72,93,93,43,38,36,,63,49,30,27,6,6,0.6,0.7
2025-01-07T0000,1234A,121.8358,29.911,宁波市,区环保大楼,颗粒物(PM10),83,115,121,46,70,3,,82,34,84,55,8,12,0.9,0.9
2025-01-07T0000,1235A,121.56,29.82,宁波市,万里学院,细颗粒物(PM2.5),79,105,108,58,71,30,,84,48,58,49,7,7,0.8,0.9
2025-01-07T0000,1236A,121.713,29.9572,宁波市,龙赛医院,颗粒物(PM10),98,146,136,53,69,51,,80,44,40,55,10,17,0.8,0.9
2025-01-07T0000,1239A,121.633,29.7733,宁波市,钱湖水厂,颗粒物(PM10),105,160,112,75,68,3,,90,43,87,40,7,7,0.8,0.9
2025-01-07T0000,1240A,121.5856,29.8635,宁波市,太古小学,颗粒物(PM10),93,136,119,55,65,27,,84,49,58,47,10,10,1.0,1.1
2025-01-07T0000,1241A,121.524,29.8674,宁波市,市环境监测中心,颗粒物(PM10),77,104,110,52,72,20,,82,36,67,51,11,10,0.8,0.9
2025-01-07T0000,2871A,121.6147,29.9017,宁波市,万里国际学校,颗粒物(PM10),93,135,116,58,53,3,,82,27,82,59,8,8,1.1,1
2025-01-07T0000,3710A,121.5594,29.8975,宁波市,白沙活动中心,颗粒物(PM10),81,112,110,59,64,19,,89,41,70,55,10,10,0.7,0.8
2025-01-07T0000,2339A,119.5001,26.6946,宁德市,金涵水库,,,,,,,,,,,,,,,,
2025-01-07T0000,2341A,119.5388,26.6612,宁德市,宁德市监测站,细颗粒物(PM2.5),67,49,40,48,32,49,,109,92,32,13,2,3,0.6,0.5
2025-01-07T0000,3209A,119.5231,26.6562,宁德市,宁德一中,细颗粒物(PM2.5),57,54,40,40,29,88,,112,102,10,10,2,3,0.6,0.6
2025-01-07T0000,2618A,98.8601,25.8567,怒江傈僳族自治州,州监测站,颗粒物(PM10),57,64,43,39,25,26,,71,54,31,17,4,4,0.8,0.6
2025-01-07T0000,2619A,98.8546,25.8417,怒江傈僳族自治州,泸水一中,,49,48,43,34,27,18,,52,27,30,24,8,7,0.7,0.5
2025-01-07T0000,1888A,101.6891,26.571,攀枝花市,弄弄坪,细颗粒物(PM2.5),75,89,80,55,50,21,,69,50,52,43,17,28,0.9,1.4
2025-01-07T0000,1889A,101.5769,26.5928,攀枝花市,河门口,细颗粒物(PM2.5),65,71,68,47,44,33,,76,62,29,32,10,19,1.0,1.5
2025-01-07T0000,1890A,101.7169,26.585,攀枝花市,炳草岗,细颗粒物(PM2.5),77,85,79,56,51,18,,71,44,53,48,20,26,0.8,1
2025-01-07T0000,1891A,101.7369,26.5008,攀枝花市,仁和,"颗粒物(PM10),细颗粒物(PM2.5)",54,58,62,38,42,24,,83,52,25,29,6,16,0.6,0.9
2025-01-07T0000,2835A,101.7227,26.567,攀枝花市,四十中小,细颗粒物(PM2.5),68,82,79,49,48,47,,82,59,32,41,80,32,0.9,1.1
2025-01-07T0000,1604A,122.0303,41.1489,盘锦市,开发区,,39,39,75,24,56,12,,60,28,46,31,8,11,1.0,1
2025-01-07T0000,1605A,122.0485,41.0883,盘锦市,兴隆台,颗粒物(PM10),60,70,70,37,55,7,,54,22,55,35,14,16,1.0,0.9
2025-01-07T0000,1606A,121.8297,41.1028,盘锦市,新生街道,,43,43,46,28,29,8,,62,14,58,40,15,14,0.8,0.8
2025-01-07T0000,1832A,113.3257,33.742,平顶山市,新华旅馆,颗粒物(PM10),72,93,89,40,38,8,,70,36,69,26,7,10,0.2,0.3
2025-01-07T0000,1833A,113.2919,33.737,平顶山市,规划设计院,颗粒物(PM10),72,93,78,45,30,14,,70,45,63,24,6,7,0.3,0.2
2025-01-07T0000,1834A,113.182,33.774,平顶山市,平顶山工学院,颗粒物(PM10),86,122,79,46,24,14,,71,47,57,20,6,7,0.8,0.7
2025-01-07T0000,3204A,113.3025,33.73,平顶山市,规划局,颗粒物(PM10),75,100,85,46,34,19,,68,46,52,21,7,8,0.3,0.3
2025-01-07T0000,3594A,112.8867,33.9116,平顶山市,石龙区,颗粒物(PM10),78,105,90,35,32,5,,72,38,61,19,7,9,0.7,0.8
2025-01-07T0000,2656A,106.6692,35.5461,平凉市,聚贤嘉苑,颗粒物(PM10),52,53,55,32,25,33,,76,47,52,41,14,15,0.7,0.6
2025-01-07T0000,2657A,106.7021,35.5307,平凉市,博物馆,细颗粒物(PM2.5),62,69,69,44,33,45,,80,47,42,40,9,10,1.0,0.9
2025-01-07T0000,2347A,114.0997,27.5002,萍乡市,武功山,细颗粒物(PM2.5),84,,57,62,54,65,,118,91,20,17,7,8,0.9,0.5
2025-01-07T0000,2348A,113.8385,27.6434,萍乡市,中医院,细颗粒物(PM2.5),88,105,118,65,77,85,,113,95,16,27,23,12,0.9,1.2
2025-01-07T0000,2349A,113.8493,27.6253,萍乡市,市政府车库,细颗粒物(PM2.5),98,87,104,73,92,74,,114,95,25,29,17,14,0.9,1.5
2025-01-07T0000,2350A,113.8676,27.6435,萍乡市,市环保局,细颗粒物(PM2.5),99,101,120,74,93,84,,113,98,20,35,20,15,0.9,1.2
2025-01-07T0000,2351A,113.866,27.6198,萍乡市,安源区政府,细颗粒物(PM2.5),89,98,118,66,87,77,,119,101,29,32,12,11,1.3,1.5
2025-01-07T0000,2319A,119.0141,25.4325,莆田市,荔城区仓后路,,50,50,56,32,34,111,,113,111,10,24,2,3,0.6,0.7
2025-01-07T0000,2320A,119.0015,25.4553,莆田市,莆田市监测站,细颗粒物(PM2.5),53,45,44,37,30,120,,115,114,9,14,3,3,0.6,0.6
2025-01-07T0000,2321A,119.1119,25.4561,莆田市,涵江区六中,细颗粒物(PM2.5),59,52,59,42,39,121,,120,120,10,30,1,2,0.4,0.6
2025-01-07T0000,2322A,119.1013,25.3215,莆田市,秀屿区政府,,50,50,47,34,31,115,,123,122,13,20,2,3,0.6,0.7
2025-01-07T0000,2323A,118.981,25.4792,莆田市,东圳水库,,,,,,,,,,,,,,,,
2025-01-07T0000,2392A,115.0312,35.7636,濮阳市,环保局,颗粒物(PM10),52,54,55,30,17,37,,65,42,28,23,4,4,0.4,0.3
2025-01-07T0000,2394A,115.0574,35.7609,濮阳市,油田运输公司,颗粒物(PM10),56,61,60,28,19,38,,62,33,28,25,4,3,0.4,0.4
2025-01-07T0000,2395A,115.0866,35.7754,濮阳市,油田物探公司,颗粒物(PM10),51,51,61,26,20,40,,63,39,28,26,5,4,0.4,0.4
2025-01-07T0000,3021A,115,35.7668,濮阳市,濮水河管理处,颗粒物(PM10),81,111,68,53,20,4,,60,20,55,25,10,7,0.7,0.5
2025-01-07T0000,2601A,100.98,22.7633,普洱市,市环保局,,38,38,54,19,21,56,,73,61,12,10,5,4,0.6,0.6
2025-01-07T0000,2602A,100.9817,22.8322,普洱市,普洱第二中学,,36,36,52,12,22,36,,71,51,13,15,4,5,0.6,0.7
2025-01-07T0000,2262A,131.0518,45.8751,七台河市,新一中,细颗粒物(PM2.5),62,60,69,44,53,29,,69,49,44,25,9,9,2.2,2.1
2025-01-07T0000,3345A,131.0577,45.7879,七台河市,中波台,细颗粒物(PM2.5),93,85,101,69,78,5,,41,15,72,51,14,15,1.5,1.4
2025-01-07T0000,3637A,131.0176,45.7761,七台河市,人民广场,细颗粒物(PM2.5),83,96,126,61,82,11,,38,16,63,54,6,8,1.0,1.3
2025-01-07T0000,3684A,130.8781,45.8222,七台河市,新建矿广场,细颗粒物(PM2.5),100,,122,75,80,12,,40,18,57,56,8,9,0.7,1
2025-01-07T0000,1779A,123.9305,47.3636,齐齐哈尔市,安居小区,颗粒物(PM10),58,66,63,40,49,42,,54,33,23,27,13,13,0.6,0.7
2025-01-07T0000,1780A,123.9488,47.3386,齐齐哈尔市,中心广场,,45,45,58,27,40,56,,49,36,12,25,7,8,0.4,0.8
2025-01-07T0000,1781A,123.9483,47.3227,齐齐哈尔市,农牧车辆厂,,50,39,54,35,45,50,,50,36,16,28,10,11,0.6,0.7
2025-01-07T0000,1783A,123.945,47.2988,齐齐哈尔市,市环境监测站,,48,48,71,33,54,42,,54,39,27,30,5,7,0.6,0.8
2025-01-07T0000,3662A,123.6333,47.2075,齐齐哈尔市,富区青少年活动中心,细颗粒物(PM2.5),74,,74,54,50,54,,58,45,14,28,10,17,0.7,1
2025-01-07T0000,2591A,107.9783,26.5747,黔东南苗族侗族自治州,市环境监测站,,45,38,66,31,53,86,,93,60,9,27,3,5,0.8,0.7
2025-01-07T0000,2881A,107.8908,26.5311,黔东南苗族侗族自治州,凯里学院,细颗粒物(PM2.5),60,48,58,43,47,62,,92,55,22,23,5,4,0.6,0.7
2025-01-07T0000,2593A,107.5228,26.2403,黔南布依族苗族自治州,小围寨,细颗粒物(PM2.5),98,83,58,73,49,51,,84,71,24,24,11,9,0.7,0.6
2025-01-07T0000,3538A,107.5175,26.2978,黔南布依族苗族自治州,沙坝,细颗粒物(PM2.5),119,100,67,90,54,15,,68,46,39,27,10,7,1.0,0.7
2025-01-07T0000,2589A,104.9022,25.0925,黔西南布依族苗族自治州,场坝街,细颗粒物(PM2.5),97,,74,72,61,66,,64,63,11,22,3,42,0.7,0.7
2025-01-07T0000,2590A,104.8811,25.0992,黔西南布依族苗族自治州,坪东大道,细颗粒物(PM2.5),122,,63,92,51,37,,61,55,22,22,4,6,0.8,0.8
2025-01-07T0000,2502A,108.6236,21.9667,钦州市,市环保站,细颗粒物(PM2.5),156,241,147,119,79,24,,154,104,117,48,28,15,1.8,1.4
2025-01-07T0000,2503A,108.6549,21.9481,钦州市,沙埠小学,颗粒物(PM10),139,227,142,104,85,8,,161,80,132,61,12,13,1.2,1
2025-01-07T0000,2504A,108.5989,21.7431,钦州市,港区一小,颗粒物(PM10),111,171,166,75,78,31,,149,83,99,61,13,14,1.2,1.3
2025-01-07T0000,3404A,108.5959,21.9633,钦州市,北职校,颗粒物(PM10),96,142,122,58,76,67,,162,110,65,49,17,15,1.2,1.6
2025-01-07T0000,1042A,119.5134,39.8207,秦皇岛市,北戴河环保局,,20,20,30,10,16,29,,60,37,32,29,2,3,0.5,0.5
2025-01-07T0000,1043A,119.7493,40.0116,秦皇岛市,第一关,,18,,33,12,28,33,,62,22,26,44,4,6,0.3,0.5
2025-01-07T0000,1044A,119.5897,39.9499,秦皇岛市,监测站,,24,24,37,12,20,40,,54,27,19,37,4,6,0.3,0.5
2025-01-07T0000,1046A,119.5251,39.9041,秦皇岛市,建设大厦,,25,,45,17,26,52,,58,34,14,41,1,4,0.2,0.5
2025-01-07T0000,3132A,119.610547,39.943889,秦皇岛市,文明里,,20,,41,14,26,48,,51,28,12,43,4,6,0.2,0.5
2025-01-07T0000,1307A,120.6659,36.2403,青岛市,仰口,,42,42,52,16,34,60,,72,66,16,16,6,5,0.7,0.8
