timepoint,stationcode,longitude,latitude,area,positionname,primarypollutant,aqi,pm10,pm10_24h,pm2_5,pm2_5_24h,o3,o3_24h,o3_8h,o3_8h_24h,no2,no2_24h,so2,so2_24h,co,co_24h
2025-01-07T2200,2566A,102.1879,31.914,阿坝藏族羌族自治州,州农科所,,21,17,19,3,8,66,,,,5,16,10,7,1.0,1
2025-01-07T2200,2568A,102.2502,31.8896,阿坝藏族羌族自治州,马师校,,30,21,13,21,14,62,,68,67,8,20,5,5,0.5,0.5
2025-01-07T2200,3994A,102.2165,31.9024,阿坝藏族羌族自治州,马尔康中学西区,,31,31,21,13,14,68,,76,74,10,16,4,4,0.6,0.6
2025-01-07T2200,2695A,80.292,41.1694,阿克苏地区,电视台,细颗粒物(PM2.5),118,162,153,89,101,12,,62,58,96,52,6,6,1.8,2
2025-01-07T2200,2696A,80.2613,41.1551,阿克苏地区,艺术中心,细颗粒物(PM2.5),93,92,140,69,84,27,,66,64,60,43,3,4,1.1,1.5
2025-01-07T2200,2204A,105.6467,38.8363,阿拉善盟,西城区西花园,,33,23,35,23,23,76,,81,79,10,18,7,9,0.8,1.1
2025-01-07T2200,2205A,105.6985,38.8411,阿拉善盟,蒙二幼,,25,6,28,3,9,78,,76,76,8,16,3,5,0.4,0.6
2025-01-07T2200,2206A,105.724,38.8516,阿拉善盟,环保局新楼,,26,6,22,3,6,83,,80,80,5,8,7,9,0.6,0.7
2025-01-07T2200,2708A,88.1264,47.8517,阿勒泰地区,市站,,35,22,19,16,16,5,,42,18,70,53,8,11,0.6,0.4
2025-01-07T2200,2630A,80.1161,32.5,阿里地区,阿里监测站,,27,27,12,12,5,64,,99,94,19,7,24,8,0.8,0.5
2025-01-07T2200,3192A,80.0903,32.5028,阿里地区,阿里藏医院,,25,11,9,6,3,77,,94,92,6,3,7,8,0.5,0.5
2025-01-07T2200,2642A,109.0318,32.6537,安康市,香溪洞,细颗粒物(PM2.5),62,60,64,44,43,47,,76,72,29,21,12,12,0.7,0.6
2025-01-07T2200,2644A,109.0072,32.6975,安康市,汉滨区检察院,颗粒物(PM10),69,88,102,46,71,17,,54,47,47,40,6,7,0.7,1
2025-01-07T2200,4054A,109.0325,32.6913,安康市,市邮政管理局,细颗粒物(PM2.5),77,100,114,56,78,10,,40,30,52,44,7,8,1.2,1.5
2025-01-07T2200,2291A,117.0809,30.5177,安庆市,环科院,颗粒物(PM10),63,76,65,44,28,40,,58,49,30,21,8,7,0.9,0.8
2025-01-07T2200,2292A,117.0331,30.5119,安庆市,马山宾馆,细颗粒物(PM2.5),58,63,59,41,26,27,,56,43,48,28,8,9,0.6,0.5
2025-01-07T2200,2294A,116.9896,30.6145,安庆市,安庆大学,,38,37,57,26,20,36,,66,51,27,24,6,10,0.7,0.6
2025-01-07T2200,3173A,117.0598,30.5351,安庆市,市人大,细颗粒物(PM2.5),64,74,63,46,28,14,,57,40,64,32,8,7,0.7,0.6
2025-01-07T2200,3122A,105.9606,26.2611,安顺市,伍家关,,,,32,,27,,,68,,,17,,10,,0.9
2025-01-07T2200,3123A,105.9408,26.2431,安顺市,凤凰山,,39,39,47,19,31,42,,84,52,27,19,20,17,0.8,0.8
2025-01-07T2200,3124A,105.9439,26.2564,安顺市,金钟山,,23,21,37,16,31,48,,82,56,21,15,15,16,0.7,0.8
2025-01-07T2200,3125A,105.8983,26.2481,安顺市,娄家坡,,25,17,36,17,31,48,,80,53,22,17,16,16,0.7,0.7
2025-01-07T2200,1818A,114.4839,36.0621,安阳市,棉研所,细颗粒物(PM2.5),72,76,75,52,35,15,,60,45,45,38,11,11,0.7,0.8
2025-01-07T2200,1819A,114.3551,36.1017,安阳市,红庙街,颗粒物(PM10),65,80,59,41,29,19,,62,45,41,27,8,7,0.9,0.9
2025-01-07T2200,1820A,114.361,36.0681,安阳市,银杏小区,"颗粒物(PM10),细颗粒物(PM2.5)",59,67,53,42,23,16,,62,44,43,27,5,4,0.8,0.5
2025-01-07T2200,3141A,114.3922,36.0878,安阳市,信访局,颗粒物(PM10),56,61,54,27,26,14,,60,45,46,26,6,6,0.5,0.5
2025-01-07T2200,3669A,114.4705,36.0637,安阳市,左辅环卫站,细颗粒物(PM2.5),82,93,77,60,38,22,,63,49,36,33,7,9,0.7,0.7
2025-01-07T2200,3703A,114.2917,36.0949,安阳市,安钢职工学校,细颗粒物(PM2.5),92,102,68,68,34,9,,63,46,59,33,13,7,1.3,0.5
2025-01-07T2200,1748A,123.044,41.1196,鞍山市,深沟寺,颗粒物(PM10),56,61,74,39,51,25,,58,37,40,41,9,16,0.7,1.3
2025-01-07T2200,1749A,123.011,41.0931,鞍山市,太阳城,颗粒物(PM10),51,52,73,27,46,28,,60,46,36,41,8,12,0.7,1.4
2025-01-07T2200,1750A,123.0485,41.1442,鞍山市,太平,细颗粒物(PM2.5),112,140,100,84,58,7,,55,31,56,46,13,16,1.7,1.5
2025-01-07T2200,1751A,122.9642,41.0971,鞍山市,铁西三道街,细颗粒物(PM2.5),158,187,97,120,58,8,,61,35,63,46,17,14,1.7,1.7
2025-01-07T2200,1752A,122.9341,41.0833,鞍山市,铁西工业园区,,,292,109,,65,19,,56,36,75,55,20,14,3.2,1.9
2025-01-07T2200,1753A,123.022,41.0821,鞍山市,明达新区,颗粒物(PM10),58,66,69,35,45,15,,60,45,36,26,10,13,0.9,1.4
2025-01-07T2200,1754A,123.1289,41.0228,鞍山市,千山,,,,57,,30,,,34,,,28,,8,,0.9
2025-01-07T2200,2195A,107.4212,40.761,巴彦淖尔市,附二中,颗粒物(PM10),56,61,40,27,18,32,,62,53,39,22,11,7,0.6,0.5
2025-01-07T2200,2196A,107.37,40.7372,巴彦淖尔市,市环保大楼,,46,46,36,11,17,38,,66,56,31,22,12,6,0.5,0.5
2025-01-07T2200,1956A,86.1472,41.7538,巴音郭楞蒙古自治州,孔雀公园,细颗粒物(PM2.5),84,99,82,62,55,10,,68,64,92,57,5,5,1.0,1
2025-01-07T2200,1957A,86.1972,41.7166,巴音郭楞蒙古自治州,棉纺厂,细颗粒物(PM2.5),102,121,97,76,44,2,,61,55,95,60,4,4,1.6,1
2025-01-07T2200,1958A,86.2357,41.7173,巴音郭楞蒙古自治州,经济开发区,颗粒物(PM10),74,97,63,48,37,17,,64,60,67,42,4,5,0.9,0.7
2025-01-07T2200,2914A,106.7677,31.8794,巴中市,苏山坪,细颗粒物(PM2.5),62,62,40,44,30,56,,73,65,8,8,4,3,0.5,0.4
2025-01-07T2200,3182A,106.7656,31.8545,巴中市,丽阳花园,细颗粒物(PM2.5),77,80,82,56,59,4,,36,36,53,34,4,4,1.0,1
2025-01-07T2200,3183A,106.7418,31.8654,巴中市,圣泉水务公司,细颗粒物(PM2.5),115,116,69,87,52,5,,38,38,52,37,4,4,0.9,0.7
2025-01-07T2200,3616A,106.7616,31.8344,巴中市,市中心医院,细颗粒物(PM2.5),74,60,79,54,68,18,,37,37,41,29,5,4,0.6,0.8
2025-01-07T2200,2235A,122.7911,45.6077,白城市,洮北区环保局,,29,28,34,20,28,50,,60,58,15,18,4,6,0.4,0.6
2025-01-07T2200,2236A,122.8738,45.5725,白城市,市环保局,,26,19,33,18,20,48,,60,58,14,19,4,6,0.5,0.6
2025-01-07T2200,2231A,126.4219,41.9171,白山市,喜丰,颗粒物(PM10),52,53,62,25,36,47,,55,49,22,31,17,18,0.9,1
2025-01-07T2200,2232A,126.4077,41.9419,白山市,环保局,,50,50,75,24,43,60,,44,44,10,22,9,10,0.9,1.2
2025-01-07T2200,2647A,104.1724,36.5446,白银市,第三小学,,39,39,45,23,25,55,,66,63,29,30,12,29,0.9,1
2025-01-07T2200,2648A,104.1465,36.5482,白银市,动力公司,,40,39,39,28,23,54,,74,68,27,27,9,20,0.7,0.7
2025-01-07T2200,2512A,106.6103,23.9011,百色市,市监测站,细颗粒物(PM2.5),79,74,101,58,78,68,,129,111,37,36,11,16,1.1,1.2
2025-01-07T2200,2513A,106.6538,23.8859,百色市,市中心血站,细颗粒物(PM2.5),123,132,124,93,98,55,,136,108,75,49,17,22,1.3,1.2
2025-01-07T2200,3406A,106.6085,23.8798,百色市,祈福高中,细颗粒物(PM2.5),107,162,118,80,78,13,,133,97,90,46,8,11,1.3,1.1
2025-01-07T2200,2270A,117.396,32.939,蚌埠市,工人疗养院,细颗粒物(PM2.5),73,86,52,53,30,25,,59,48,64,43,8,7,0.7,0.5
2025-01-07T2200,2271A,117.3605,32.9427,蚌埠市,百货大楼,细颗粒物(PM2.5),75,86,49,55,32,32,,60,46,51,42,9,8,0.7,0.6
2025-01-07T2200,2273A,117.4185,32.8911,蚌埠市,蚌埠学院,细颗粒物(PM2.5),99,134,64,74,37,11,,63,44,80,43,24,10,0.6,0.4
2025-01-07T2200,2274A,117.3533,32.9673,蚌埠市,淮上区政府,细颗粒物(PM2.5),89,102,62,66,37,21,,59,42,62,43,10,10,0.6,0.5
2025-01-07T2200,2275A,117.3145,32.8977,蚌埠市,高新区,细颗粒物(PM2.5),142,151,76,108,47,8,,54,35,83,56,12,13,0.7,0.5
2025-01-07T2200,3715A,117.3092,32.9314,蚌埠市,蚌埠田家炳中学,细颗粒物(PM2.5),103,124,75,77,43,5,,53,29,68,52,16,10,0.7,0.6
2025-01-07T2200,1585A,109.8756,40.6532,包头市,市环境监测站,颗粒物(PM10),60,69,49,9,16,69,,70,70,9,28,9,21,0.4,1
2025-01-07T2200,1587A,109.9991,40.5842,包头市,包头八中,颗粒物(PM10),68,85,56,3,18,69,,66,66,5,28,5,16,0.5,0.9
2025-01-07T2200,1588A,109.8538,40.6821,包头市,青山宾馆,颗粒物(PM10),51,51,38,3,12,71,,63,62,3,22,10,13,0.4,0.7
2025-01-07T2200,1589A,109.8642,40.6288,包头市,惠龙物流,颗粒物(PM10),51,52,57,8,24,74,,71,71,6,34,6,31,0.2,1
2025-01-07T2200,1590A,110.0377,40.5546,包头市,东河鸿龙湾,颗粒物(PM10),55,59,43,3,12,66,,66,66,10,28,10,14,0.5,0.8
2025-01-07T2200,3283A,109.9154,40.5685,包头市,滨河大厦,,28,28,40,3,14,71,,68,68,7,28,7,15,0.5,0.8
2025-01-07T2200,3419A,109.9447,40.6261,包头市,包头市委党校,颗粒物(PM10),62,74,49,3,16,63,,67,66,8,26,5,14,0.6,1.1
2025-01-07T2200,3683A,109.8331,40.6576,包头市,昆区政府,,46,46,50,3,18,71,,68,68,6,25,10,28,0.3,1.2
2025-01-07T2200,1930A,107.185,34.3063,宝鸡市,庙沟村,细颗粒物(PM2.5),60,62,70,43,46,64,,71,69,26,30,8,7,0.6,0.6
2025-01-07T2200,1931A,107.0708,34.3017,宝鸡市,竹园沟,颗粒物(PM10),60,69,70,38,43,41,,71,62,29,26,6,6,0.6,0.6
2025-01-07T2200,1932A,107.1906,34.3672,宝鸡市,三陆医院,细颗粒物(PM2.5),147,129,80,112,51,18,,64,48,62,39,9,6,0.8,0.8
2025-01-07T2200,1933A,107.1431,34.3547,宝鸡市,监测站,细颗粒物(PM2.5),95,90,82,71,49,14,,62,48,55,37,8,8,0.8,0.6
2025-01-07T2200,1934A,107.1186,34.3739,宝鸡市,技工学校,细颗粒物(PM2.5),90,78,79,67,47,28,,62,50,40,30,7,9,0.8,0.6
2025-01-07T2200,1935A,107.3906,34.3528,宝鸡市,陈仓区环保局家属楼,细颗粒物(PM2.5),138,126,87,105,54,9,,63,45,72,44,10,42,1.1,0.9
2025-01-07T2200,1936A,107.2058,34.3497,宝鸡市,文理学院,细颗粒物(PM2.5),107,100,77,80,46,25,,66,51,53,36,7,7,0.8,0.7
2025-01-07T2200,1937A,107.2386,34.3622,宝鸡市,三迪小学,细颗粒物(PM2.5),128,126,73,97,46,9,,53,38,72,38,8,7,0.8,0.7
2025-01-07T2200,1051A,115.493,38.8632,保定市,游泳馆,颗粒物(PM10),60,70,43,30,16,13,,66,42,50,24,8,6,0.6,0.5
2025-01-07T2200,1052A,115.5213,38.8959,保定市,华电二区,,49,49,26,27,17,2,,66,47,65,17,1,3,0.4,0.2
2025-01-07T2200,1053A,115.4713,38.9108,保定市,接待中心,颗粒物(PM10),54,58,31,36,13,16,,66,50,46,13,4,2,0.8,0.6
2025-01-07T2200,1054A,115.4612,38.8416,保定市,地表水厂,颗粒物(PM10),63,76,49,36,20,25,,71,47,46,28,4,2,0.4,0.3
2025-01-07T2200,3581A,115.31981,38.95208,保定市,满城区生态环境分局,颗粒物(PM10),56,61,32,31,12,24,,71,56,49,17,2,3,0.4,0.3
2025-01-07T2200,3582A,115.47694,38.76408,保定市,清苑区第二中学,颗粒物(PM10),70,89,40,43,13,19,,69,50,56,19,8,4,0.5,0.3
2025-01-07T2200,3583A,115.62909,39.02311,保定市,徐水物探局,,45,45,25,12,7,19,,63,38,41,22,5,4,0.4,0.3
2025-01-07T2200,4004A,115.4202,38.8656,保定市,双鹰农机,颗粒物(PM10),62,74,41,43,19,29,,69,46,40,26,6,8,0.6,0.4
2025-01-07T2200,4034A,115.5150,38.8590,保定市,植保所站,颗粒物(PM10),58,65,36,37,19,5,,65,44,59,22,6,4,0.7,0.5
2025-01-07T2200,2594A,99.1678,25.1081,保山市,市环境监测站,,28,28,22,19,14,62,,81,77,12,8,5,5,0.4,0.4
2025-01-07T2200,2595A,99.1711,25.1328,保山市,市环保局,,40,28,24,28,19,62,,82,78,5,6,6,5,0.3,0.3
2025-01-07T2200,1866A,109.2262,21.588,北海市,牛尾岭水库,细颗粒物(PM2.5),112,109,74,84,75,99,,138,124,23,20,10,10,0.7,0.6
2025-01-07T2200,1867A,109.1436,21.4086,北海市,海滩公园,颗粒物(PM10),60,69,80,34,58,134,,156,149,16,21,9,11,0.9,0.9
2025-01-07T2200,1868A,109.0981,21.4661,北海市,新市环保局,细颗粒物(PM2.5),70,88,79,51,63,118,,146,138,27,29,10,12,0.7,0.8
2025-01-07T2200,1869A,109.1778,21.5233,北海市,北海工业园,细颗粒物(PM2.5),140,160,111,107,85,88,,134,123,38,32,14,19,1.0,0.9
2025-01-07T2200,3400A,109.1911,21.4415,北海市,龙潭自来水厂,细颗粒物(PM2.5),80,81,90,59,79,126,,144,133,16,24,10,10,0.7,0.9
2025-01-07T2200,1001A,116.3621,39.8784,北京市,万寿西宫,,17,9,12,3,4,54,,57,55,8,11,3,3,0.2,0.2
2025-01-07T2200,1002A,116.2202,40.2915,北京市,定陵,,,,,,,,,,,,,,,,
2025-01-07T2200,1003A,116.4174,39.9289,北京市,东四,,19,10,12,3,4,58,,58,57,6,8,2,2,0.1,0.1
2025-01-07T2200,1004A,116.4072,39.8863,北京市,天坛,,20,12,13,3,4,61,,62,59,5,7,3,2,0.1,0.1
2025-01-07T2200,1005A,116.462,39.9365,北京市,农展馆,,21,7,12,3,3,65,,62,62,5,10,2,2,0.3,0.3
2025-01-07T2200,1006A,116.3392,39.9295,北京市,官园,,16,15,13,3,5,51,,56,54,6,5,3,4,0.4,0.4
2025-01-07T2200,1007A,116.2878,39.9611,北京市,海淀万柳,,17,15,13,3,5,52,,53,53,9,7,2,2,0.2,0.4
2025-01-07T2200,1008A,116.6636,40.135,北京市,顺义新城,,18,9,15,3,5,55,,54,53,6,12,3,2,0.2,0.2
2025-01-07T2200,1009A,116.6275,40.3275,北京市,怀柔镇,,19,7,8,3,4,59,,60,56,4,4,2,1,0.2,0.2
2025-01-07T2200,1010A,116.2296,40.217,北京市,昌平镇,,19,6,14,3,4,60,,57,56,1,11,2,2,0.4,0.4
2025-01-07T2200,1011A,116.3966,39.9821,北京市,奥体中心,,18,8,14,3,4,57,,58,56,9,15,3,4,0.1,0.2
2025-01-07T2200,1012A,116.184,39.9136,北京市,古城,,17,11,13,3,4,54,,49,49,6,7,3,2,0.3,0.3
2025-01-07T2200,3281A,115.9718,40.4529,北京市,延庆夏都,,18,6,9,3,2,56,,56,56,2,3,2,2,0.1,0.2
2025-01-07T2200,3417A,117.0709,40.1465,北京市,平谷新城,,17,6,11,3,4,52,,54,53,2,7,1,2,0.2,0.3
2025-01-07T2200,3418A,116.8336,40.4095,北京市,密云新城,,18,8,11,3,5,56,,60,59,3,11,3,2,0.1,0.2
2025-01-07T2200,3671A,116.088,39.9726,北京市,门头沟三家店,,19,19,16,6,4,54,,56,51,6,6,2,3,0.1,0.2
2025-01-07T2200,3672A,116.1541,39.8204,北京市,丰台云岗,,19,19,18,3,5,54,,56,52,3,8,2,3,0.2,0.2
2025-01-07T2200,3673A,116.6804,39.9081,北京市,通州东关,,18,18,26,3,7,49,,56,51,4,12,1,2,0.2,0.2
2025-01-07T2200,3674A,115.9577,39.7603,北京市,房山燕山,,22,11,14,3,8,69,,63,62,1,7,3,2,0.2,0.2
2025-01-07T2200,3675A,116.4672,39.7733,北京市,大兴旧宫,,17,11,14,3,3,53,,52,48,4,10,3,2,0.2,0.3
2025-01-07T2200,3694A,115.986,40.4563,北京市,延庆石河营,,19,8,9,3,3,59,,58,58,2,3,3,2,0.3,0.2
2025-01-07T2200,3695A,116.6151,40.3053,北京市,怀柔新城,,19,6,7,3,4,58,,58,56,1,3,2,2,0.1,0.1
2025-01-07T2200,3696A,116.2545,39.8768,北京市,丰台小屯,,17,11,19,3,4,54,,56,52,2,10,4,4,0.2,0.2
2025-01-07T2200,3697A,116.84,40.3844,北京市,密云镇,,17,10,16,3,5,52,,56,54,4,14,3,2,0.2,0.3
2025-01-07T2200,1761A,123.8275,41.3064,本溪市,大峪,细颗粒物(PM2.5),65,75,78,47,58,19,,53,43,46,43,5,7,1.1,2.1
2025-01-07T2200,1762A,123.7567,41.3325,本溪市,溪湖,颗粒物(PM10),81,111,81,57,47,8,,58,38,54,37,11,11,1.0,1.3
2025-01-07T2200,1763A,123.7169,41.3094,本溪市,彩屯,细颗粒物(PM2.5),57,56,72,40,53,19,,53,35,43,40,7,8,1.0,1.3
2025-01-07T2200,1764A,123.7669,41.2864,本溪市,东明,细颗粒物(PM2.5),67,74,78,48,47,8,,51,29,65,45,9,12,1.0,1.6
2025-01-07T2200,1765A,123.7992,41.2664,本溪市,新立屯,,46,46,53,30,26,14,,56,32,52,47,5,10,0.6,1.6
2025-01-07T2200,1766A,123.8142,41.3472,本溪市,威宁,细颗粒物(PM2.5),85,107,102,63,55,13,,56,34,54,40,4,4,1.2,1.2
2025-01-07T2200,2587A,105.2864,27.3125,毕节市,八中,,23,18,16,16,13,65,,66,64,11,14,6,6,0.6,0.7
2025-01-07T2200,2588A,105.31,27.2944,毕节市,师专,,25,20,14,17,11,64,,66,63,12,13,5,6,0.6,0.7
2025-01-07T2200,3537A,105.3631,27.3533,毕节市,长征村,,23,13,17,12,15,72,,74,68,8,13,6,8,0.6,0.8
2025-01-07T2200,1629A,118.0018,37.3617,滨州市,第二水厂,颗粒物(PM10),58,66,56,27,22,12,,58,44,53,34,12,14,0.4,0.3
2025-01-07T2200,1630A,117.9776,37.393,滨州市,北中新校,颗粒物(PM10),63,75,62,29,27,18,,54,41,51,38,10,18,0.4,0.5
2025-01-07T2200,3514A,117.9378,37.3956,滨州市,中海酒店,细颗粒物(PM2.5),70,88,55,51,32,10,,54,38,57,32,26,14,0.7,0.6
2025-01-07T2200,3515A,117.9378,37.3553,滨州市,开发区一中,颗粒物(PM10),54,58,61,27,24,22,,56,43,49,40,12,12,0.3,0.4
2025-01-07T2200,3516A,118.0917,37.694,滨州市,金海六路,细颗粒物(PM2.5),83,110,56,61,26,8,,52,32,63,39,15,8,1.0,0.5
2025-01-07T2200,4028A,117.9956,37.3753,滨州市,滨州市西街道办事处,颗粒物(PM10),67,83,58,36,31,8,,54,40,51,34,9,15,1.1,0.9
2025-01-07T2200,2311A,115.8072,33.8399,亳州市,污水处理厂,颗粒物(PM10),61,71,65,43,33,47,,61,54,26,36,6,7,0.5,0.5
2025-01-07T2200,2312A,115.7789,33.8518,亳州市,三国揽胜宫,细颗粒物(PM2.5),67,80,72,48,36,51,,68,61,30,38,8,6,0.5,0.5
2025-01-07T2200,3332A,115.7633,33.8034,亳州市,亳州学院,细颗粒物(PM2.5),77,90,67,56,35,45,,66,57,23,32,8,5,0.7,0.6
2025-01-07T2200,2693A,82.0485,44.8556,博尔塔拉蒙古自治州,市党校,"颗粒物(PM10),细颗粒物(PM2.5)",52,54,62,36,47,51,,54,54,19,18,6,7,1.3,1.3
2025-01-07T2200,2694A,82.0806,44.8969,博尔塔拉蒙古自治州,市环保局,颗粒物(PM10),53,55,63,32,36,56,,62,62,17,17,6,6,0.9,1.1
2025-01-07T2200,1071A,116.8842,38.2991,沧州市,沧县城建局,颗粒物(PM10),74,98,53,47,29,7,,50,32,71,38,10,6,0.7,0.5
2025-01-07T2200,1072A,116.8584,38.3254,沧州市,电视转播站,颗粒物(PM10),61,71,47,39,22,2,,58,35,77,43,11,8,0.6,0.4
2025-01-07T2200,1073A,116.8709,38.3228,沧州市,市环保局,颗粒物(PM10),62,74,44,39,25,2,,56,32,66,35,6,4,0.6,0.4
2025-01-07T2200,3324A,116.8136,38.3004,沧州市,河北水利电力学院,颗粒物(PM10),63,75,53,37,24,4,,54,34,63,35,12,10,0.6,0.5
2025-01-07T2200,2622A,97.1806,31.1273,昌都市,昌都监测站,,29,24,37,20,15,66,,86,85,18,22,7,6,0.8,0.8
2025-01-07T2200,3719A,97.1714,31.1406,昌都市,昌都会议中心,,26,10,12,9,10,82,,90,90,2,8,4,4,0.7,0.8
2025-01-07T2200,2690A,88.1236,43.8886,昌吉回族自治州,天山天池,,25,6,4,3,1,80,,86,86,2,2,7,7,0.4,0.5
2025-01-07T2200,2692A,87.2717,44.0297,昌吉回族自治州,新区政务中心,细颗粒物(PM2.5),122,130,150,92,99,6,,24,18,51,45,3,4,1.8,1.7
2025-01-07T2200,3613A,87.3095,44.0142,昌吉回族自治州,亚心广场,细颗粒物(PM2.5),168,161,161,127,130,17,,26,22,47,45,7,7,1.7,1.7
2025-01-07T2200,1119A,125.3325,43.9166,长春市,食品厂,,39,39,75,26,59,46,,50,48,19,36,7,13,0.4,0.7
2025-01-07T2200,1120A,125.2863,43.9027,长春市,客车厂,,40,38,64,28,54,44,,49,45,21,37,8,14,0.4,0.6
2025-01-07T2200,1121A,125.2841,43.8463,长春市,邮电学院,颗粒物(PM10),53,56,70,33,58,46,,58,52,21,33,11,14,0.4,0.7
2025-01-07T2200,1122A,125.3716,43.8772,长春市,劳动公园,,45,45,74,22,53,53,,58,56,16,35,10,15,0.6,0.8
2025-01-07T2200,1123A,125.3297,43.8805,长春市,园林处,,36,36,67,25,53,49,,56,51,14,31,8,12,0.4,0.7
2025-01-07T2200,1124A,125.4605,43.79,长春市,净月潭,,50,50,65,22,46,46,,57,54,16,21,8,9,0.3,0.5
2025-01-07T2200,1125A,125.7194,43.515,长春市,甩湾子,,,,,,,,,,,,,,,,
2025-01-07T2200,1126A,125.3863,43.8447,长春市,经开区环卫处,,41,41,74,22,51,47,,51,49,16,35,10,15,0.5,0.7
2025-01-07T2200,1127A,125.245,43.7783,长春市,高新区管委会,,30,30,69,20,56,42,,56,52,24,34,12,9,0.9,1.1
2025-01-07T2200,1128A,125.1761,43.8325,长春市,岱山公园,,42,42,63,22,49,50,,58,54,18,34,8,8,0.5,0.7
2025-01-07T2200,1335A,113.0833,28.2325,长沙市,经开区环保局,颗粒物(PM10),106,161,138,67,65,41,,41,40,40,44,5,4,0.7,0.7
2025-01-07T2200,1336A,112.8872,28.2189,长沙市,高开区环保局,颗粒物(PM10),98,146,128,67,63,44,,50,48,31,30,8,6,0.6,0.5
2025-01-07T2200,1337A,113.0792,28.2053,长沙市,马坡岭,颗粒物(PM10),100,150,130,73,68,52,,50,50,34,39,7,6,0.8,0.8
2025-01-07T2200,1338A,112.9394,28.19,长沙市,湖南师范大学,颗粒物(PM10),103,155,136,68,67,51,,52,51,30,34,7,6,0.8,0.8
2025-01-07T2200,1339A,113.0178,28.1322,长沙市,雨花区环保局,颗粒物(PM10),99,147,128,70,65,54,,48,48,31,41,9,7,0.8,0.8
2025-01-07T2200,1340A,112.9792,28.2597,长沙市,伍家岭,颗粒物(PM10),96,142,132,58,64,43,,44,44,35,36,6,6,0.5,0.5
2025-01-07T2200,1341A,113.0014,28.1944,长沙市,火车新站,颗粒物(PM10),95,139,129,70,72,57,,52,52,32,40,6,5,0.6,0.7
2025-01-07T2200,1342A,112.9844,28.1178,长沙市,天心区环保局,颗粒物(PM10),102,153,132,62,67,52,,42,42,30,41,5,4,0.6,0.7
2025-01-07T2200,1343A,112.8908,28.1308,长沙市,湖南中医药大学,细颗粒物(PM2.5),107,141,132,80,72,48,,53,52,36,33,9,7,0.9,0.9
2025-01-07T2200,1344A,112.9581,28.3611,长沙市,沙坪,细颗粒物(PM2.5),113,119,112,85,73,43,,47,47,30,33,9,8,1.3,1.3
2025-01-07T2200,1727A,113.1147,36.1547,长治市,清华站,,34,34,34,12,13,44,,60,54,23,29,12,14,0.6,0.7
2025-01-07T2200,1728A,113.1031,36.1989,长治市,监测站,,31,31,39,14,18,41,,62,54,29,31,10,14,0.8,1
2025-01-07T2200,1730A,113.0886,36.2125,长治市,审计局,,33,33,39,12,15,40,,60,56,25,32,9,13,0.5,0.6
2025-01-07T2200,1731A,113.0844,36.1856,长治市,长治八中,,48,48,47,23,23,36,,59,52,26,31,10,14,0.6,0.7
2025-01-07T2200,2845A,113.1569,36.1911,长治市,德盛苑,,31,31,28,12,12,48,,62,58,23,23,8,14,0.8,0.9
2025-01-07T2200,3568A,113.06,36.0464,长治市,向阳小学,颗粒物(PM10),53,55,55,27,22,24,,62,52,42,27,20,25,0.5,0.6
2025-01-07T2200,3569A,112.8792,36.3144,长治市,屯留一中,,23,23,27,13,8,50,,65,57,30,37,10,12,0.8,0.8
2025-01-07T2200,3570A,113.235,36.3489,长治市,潞城四中,,46,46,56,24,22,34,,63,58,31,32,28,36,1.9,1.3
2025-01-07T2200,1854A,111.6975,28.9703,常德市,市二中,细颗粒物(PM2.5),150,133,112,115,66,16,,70,56,60,24,6,9,1.0,0.7
2025-01-07T2200,1857A,111.7158,29.1456,常德市,白鹤山,,,,,,,,,,,,,,,,
2025-01-07T2200,3138A,111.7153,29.0289,常德市,武陵区永安,细颗粒物(PM2.5),123,123,115,93,59,28,,72,64,44,17,6,8,1.1,0.8
2025-01-07T2200,3139A,111.6892,28.9881,常德市,鼎城区玉霞,细颗粒物(PM2.5),152,194,132,116,66,6,,69,53,65,23,7,9,1.2,0.8
2025-01-07T2200,3140A,111.6625,29.0531,常德市,武陵区长庚,细颗粒物(PM2.5),114,127,116,86,63,27,,74,64,46,22,4,5,0.9,0.7
2025-01-07T2200,1196A,119.9633,31.762,常州市,市监测站,细颗粒物(PM2.5),78,85,70,57,44,7,,56,38,80,47,15,11,0.8,0.5
2025-01-07T2200,1200A,119.9468,31.7069,常州市,武进监测站,细颗粒物(PM2.5),68,78,73,49,43,6,,55,38,74,49,10,8,0.9,0.6
2025-01-07T2200,1201A,119.9255,31.9087,常州市,安家,细颗粒物(PM2.5),89,104,80,66,46,5,,54,30,89,62,15,12,0.7,0.6
2025-01-07T2200,3002A,119.9805,31.8174,常州市,行政中心,细颗粒物(PM2.5),65,68,63,47,42,21,,53,40,56,47,12,11,0.7,0.6
2025-01-07T2200,3003A,120.0522,31.7748,常州市,经开区,细颗粒物(PM2.5),82,86,88,60,47,5,,62,43,82,51,17,15,0.7,0.5
2025-01-07T2200,3010A,119.9025,31.7964,常州市,钟楼,细颗粒物(PM2.5),74,82,70,54,42,8,,56,38,74,52,13,12,0.8,0.8
2025-01-07T2200,3429A,119.8598,31.7066,常州市,武进经发区,细颗粒物(PM2.5),72,85,86,52,46,16,,62,41,68,57,12,10,0.6,0.6
2025-01-07T2200,3430A,119.5826,31.7245,常州市,金坛城区,颗粒物(PM10),51,51,72,33,38,44,,66,52,32,33,8,9,0.5,0.7
2025-01-07T2200,2220A,120.4318,41.5881,朝阳市,西梁,,,16,37,6,15,50,,57,54,17,20,6,7,,0.8
2025-01-07T2200,2221A,120.4521,41.5646,朝阳市,河畔小区,,26,26,34,9,12,58,,58,57,7,14,6,6,0.3,0.9
2025-01-07T2200,2222A,120.4176,41.5648,朝阳市,八里堡,,18,17,45,6,16,56,,55,55,2,16,7,10,0.3,0.5
2025-01-07T2200,2223A,120.3806,41.5969,朝阳市,农业园区,,19,11,24,9,12,59,,64,64,5,11,5,7,0.5,0.7
2025-01-07T2200,1705A,116.6367,23.6719,潮州市,西园路,颗粒物(PM10),75,100,78,33,49,104,,102,99,18,22,6,6,0.2,0.3
2025-01-07T2200,3026A,116.6183,23.6608,潮州市,市政府,颗粒物(PM10),65,79,72,24,40,99,,98,94,15,22,6,6,0.5,0.5
2025-01-07T2200,4036A,116.6461,23.6761,潮州市,金山,颗粒物(PM10),66,81,68,30,44,96,,100,94,18,21,7,7,0.5,0.6
2025-01-07T2200,2472A,113.0073,25.9061,郴州市,马头岭,颗粒物(PM10),89,127,106,52,61,68,,81,80,28,29,13,12,0.8,0.9
2025-01-07T2200,2473A,113.0116,25.8226,郴州市,市职中,细颗粒物(PM2.5),97,101,95,72,74,60,,82,75,30,31,10,9,0.8,0.9
2025-01-07T2200,2474A,113.0161,25.8001,郴州市,兴隆步行街,细颗粒物(PM2.5),94,114,107,70,82,64,,84,79,29,36,12,10,0.9,1
2025-01-07T2200,2475A,113.0383,25.8071,郴州市,市审计局,细颗粒物(PM2.5),93,97,98,69,77,64,,86,82,22,33,10,8,0.9,1.4
2025-01-07T2200,2476A,113.0348,25.7759,郴州市,市环保局,细颗粒物(PM2.5),94,112,111,70,87,64,,87,82,27,42,11,11,1.0,1.1
2025-01-07T2200,1431A,103.9728,30.7236,成都市,金泉两河,颗粒物(PM10),53,56,60,30,40,41,,52,50,36,30,2,2,0.6,0.7
2025-01-07T2200,1432A,104.176,30.6872,成都市,十里店,细颗粒物(PM2.5),55,50,65,39,49,37,,52,49,36,35,2,2,0.4,0.5
2025-01-07T2200,1433A,104.079,30.5706,成都市,三瓦窑,,45,45,60,25,43,46,,55,52,23,26,3,2,0.4,0.5
2025-01-07T2200,1434A,104.1114,30.63,成都市,沙河铺,颗粒物(PM10),52,53,60,33,46,51,,53,52,23,27,3,2,0.4,0.5
2025-01-07T2200,1437A,104.0786,30.6531,成都市,君平街,,35,35,52,21,39,44,,55,52,30,29,4,5,0.6,0.7
2025-01-07T2200,1438A,103.613,31.0283,成都市,灵岩寺,,,,,,,,,,,,,,,,
2025-01-07T2200,2880A,104.0239,30.65639,成都市,大石西路,,45,45,57,23,38,51,,54,53,23,27,3,3,0.5,0.6
2025-01-07T2200,3136A,104.2725,30.5589,成都市,龙泉驿区区政府,细颗粒物(PM2.5),52,44,61,36,53,30,,47,45,23,30,3,3,0.5,0.6
2025-01-07T2200,3357A,104.0106,30.6931,成都市,金博路,,46,46,56,22,42,46,,53,51,24,28,1,1,0.4,0.6
2025-01-07T2200,3359A,104.0578,30.5225,成都市,华阳,,45,41,59,31,50,42,,50,48,27,29,3,3,0.6,0.6
2025-01-07T2200,3487A,104.2394,30.5319,成都市,车城东七路,,48,38,62,33,52,34,,44,43,32,34,2,1,0.4,0.7
2025-01-07T2200,3488A,104.3853,30.7453,成都市,青白江技师分院,,49,49,62,29,55,5,,46,44,54,36,1,2,0.5,0.6
2025-01-07T2200,3489A,104.0789,30.4072,成都市,科学城,,,,64,30,54,43,,50,48,16,27,,4,0.9,0.6
2025-01-07T2200,4011A,103.8506,30.6947,成都市,光华大道三段,颗粒物(PM10),52,53,59,34,40,25,,52,46,41,27,1,2,0.6,0.6
2025-01-07T2200,1062A,117.9531,40.9081,承德市,铁路,,21,21,28,10,13,60,,64,64,6,16,4,6,0.2,0.4
2025-01-07T2200,1063A,117.9392,40.9763,承德市,中国银行,,19,8,28,3,12,60,,59,59,2,20,1,2,0.2,0.4
2025-01-07T2200,1064A,117.9503,40.928,承德市,开发区,,32,32,34,20,18,66,,69,69,3,20,4,5,0.3,0.5
2025-01-07T2200,1065A,117.8051,40.9655,承德市,文化中心,,31,31,34,17,13,42,,65,61,18,22,4,4,0.4,0.4
2025-01-07T2200,1066A,117.9268,41.0026,承德市,离宫,,46,,23,32,22,53,,59,58,4,9,5,6,0.2,0.3
2025-01-07T2200,2314A,117.47,30.6618,池州市,池州学院,颗粒物(PM10),70,89,77,46,22,5,,47,32,73,41,9,13,0.7,0.5
2025-01-07T2200,3237A,117.4918,30.6617,池州市,展览馆,细颗粒物(PM2.5),70,80,74,51,33,2,,43,27,62,40,6,10,0.8,0.6
2025-01-07T2200,3333A,117.5627,30.695,池州市,第八中学,细颗粒物(PM2.5),69,83,79,50,37,8,,43,26,65,43,7,9,0.5,0.6
2025-01-07T2200,3334A,117.5038,30.6243,池州市,第十二中学,细颗粒物(PM2.5),73,87,79,53,36,3,,44,27,66,41,5,7,0.8,0.7
2025-01-07T2200,1744A,118.9233,42.2816,赤峰市,松山一中,,15,11,23,3,7,47,,55,51,10,18,8,10,0.6,0.8
2025-01-07T2200,1745A,118.9576,42.2728,赤峰市,哈达街,,19,,13,13,10,49,,52,46,14,21,6,7,0.6,0.7
2025-01-07T2200,1746A,118.8788,42.2554,赤峰市,天义路,,14,8,19,6,8,43,,52,47,15,15,8,10,0.6,0.6
2025-01-07T2200,3058A,119.2658,42.0353,赤峰市,银河街,,28,28,34,8,14,41,,49,44,13,19,17,18,0.6,0.8
2025-01-07T2200,3286A,118.9359,42.3147,赤峰市,桥北物流园区,,15,6,12,3,10,45,,52,47,19,26,4,5,0.6,0.7
2025-01-07T2200,2521A,107.3476,22.4136,崇左市,市环保局江州分局,,,140,129,48,61,63,,146,121,64,44,6,7,,0.9
2025-01-07T2200,2522A,107.3702,22.3707,崇左市,城南新区,细颗粒物(PM2.5),105,95,111,79,88,63,,148,125,57,39,7,10,1.2,1.2
2025-01-07T2200,2298A,118.3093,32.3153,滁州市,老年大学,,44,44,44,28,25,24,,74,61,50,32,4,4,0.5,0.4
2025-01-07T2200,2299A,118.3244,32.2786,滁州市,人大宾馆,,48,48,48,30,25,35,,73,,39,25,7,8,0.6,0.5
2025-01-07T2200,3207A,118.3118,32.3038,滁州市,市政府原办公楼,,49,42,43,34,27,53,,69,59,32,30,6,5,0.2,0.1
2025-01-07T2200,3331A,118.3267,32.2634,滁州市,图书馆,,50,50,45,25,20,41,,60,53,30,24,5,5,0.6,0.5
2025-01-07T2200,2605A,101.5482,25.0441,楚雄彝族自治州,州环境监测站,,43,30,33,30,29,71,,76,75,7,12,6,8,0.5,0.5
2025-01-07T2200,2606A,101.538,25.0492,楚雄彝族自治州,市经济开发区,,40,36,36,28,24,66,,70,69,10,12,5,6,0.6,0.6
2025-01-07T2200,2548A,107.5277,31.2827,达州市,达州职业技术学院,,,80,95,,92,5,,26,25,26,16,5,6,0.8,0.8
2025-01-07T2200,2549A,107.5086,31.2186,达州市,市环境监测站,细颗粒物(PM2.5),92,76,103,68,76,4,,6,6,47,39,5,7,0.8,1
2025-01-07T2200,2550A,107.4988,31.2132,达州市,凤凰小区,细颗粒物(PM2.5),92,75,96,68,77,4,,10,10,45,37,7,9,0.8,0.9
2025-01-07T2200,2551A,107.5082,31.1986,达州市,达县机关宾馆,细颗粒物(PM2.5),90,83,93,67,74,3,,8,8,45,38,6,8,0.9,1
2025-01-07T2200,2552A,107.4644,31.2124,达州市,市政中心,细颗粒物(PM2.5),67,63,102,48,75,5,,7,7,55,43,4,6,1.1,1.4
2025-01-07T2200,2614A,100.1542,25.7054,大理白族自治州,大理市环境监测站,,30,,21,21,17,79,,84,84,7,6,7,6,0.5,0.5
2025-01-07T2200,2615A,100.2171,25.5811,大理白族自治州,大理古城,,25,23,20,14,15,78,,88,87,8,8,5,5,0.6,0.6
2025-01-07T2200,1109A,121.612,38.9741,大连市,甘井子,,22,22,23,12,9,42,,60,49,32,25,8,8,0.9,0.8
2025-01-07T2200,1110A,121.565,38.9511,大连市,周水子,,36,34,26,25,12,9,,53,34,60,32,14,13,0.8,0.5
2025-01-07T2200,1111A,121.5637,38.8845,大连市,星海三站,,30,30,22,21,12,21,,58,39,39,20,13,12,0.7,0.4
2025-01-07T2200,1112A,121.6302,38.9117,大连市,青泥洼桥,,30,30,19,14,9,25,,50,40,34,18,11,12,0.8,0.5
2025-01-07T2200,1113A,121.6251,38.8638,大连市,傅家庄,,24,24,19,12,7,27,,56,43,38,19,13,13,0.7,0.5
2025-01-07T2200,1114A,121.5213,38.8661,大连市,七贤岭,,24,24,17,13,8,39,,62,53,21,15,11,12,0.6,0.6
2025-01-07T2200,1115A,121.2529,38.8061,大连市,旅顺,,16,16,15,8,7,51,,64,58,16,11,11,10,0.6,0.5
2025-01-07T2200,1116A,121.7485,39.1311,大连市,金州,,46,40,29,32,20,38,,60,50,21,17,7,8,0.9,0.7
2025-01-07T2200,1117A,121.7811,39.0496,大连市,开发区,,33,30,26,23,12,10,,56,38,59,26,15,13,0.8,0.5
2025-01-07T2200,1118A,121.9762,39.0631,大连市,双D港,,33,33,20,21,10,53,,68,61,14,11,13,10,0.8,0.7
2025-01-07T2200,1789A,124.81117,46.03138,大庆市,大同区,细颗粒物(PM2.5),73,,70,53,63,30,,51,45,25,22,4,6,0.5,0.6
2025-01-07T2200,1790A,125.129,46.533,大庆市,龙凤区,,48,41,69,33,49,41,,52,48,23,36,5,10,0.7,0.8
2025-01-07T2200,1791A,124.902,46.408,大庆市,红岗区,,44,44,63,24,43,33,,43,40,20,29,6,7,0.5,0.7
2025-01-07T2200,1792A,125.153,46.586,大庆市,萨尔图区,,30,25,60,21,48,51,,56,55,15,36,4,6,0.2,0.5
2025-01-07T2200,1793A,124.9042,46.6215,大庆市,让胡路区,,46,37,51,32,42,51,,58,54,13,26,8,7,0.4,0.5
2025-01-07T2200,3481A,125.141,46.634,大庆市,萨区政府监测点,,32,32,60,19,41,46,,56,53,13,29,4,5,0.6,0.7
2025-01-07T2200,1721A,113.3819,40.1097,大同市,果树场,颗粒物(PM10),89,127,54,18,18,65,,63,61,8,27,8,11,0.2,0.6
2025-01-07T2200,1723A,113.2994,40.0758,大同市,云冈宾馆,,21,16,30,3,7,65,,72,70,3,13,8,10,0.4,0.5
2025-01-07T2200,1724A,113.3444,40.0917,大同市,大同大学,颗粒物(PM10),115,180,49,3,10,59,,70,67,3,18,12,16,0.3,0.6
2025-01-07T2200,1725A,113.2661,40.1269,大同市,安家小村,颗粒物(PM10),102,154,43,3,5,62,,70,67,3,12,13,17,0.4,0.5
2025-01-07T2200,1726A,113.2711,40.0844,大同市,教育学院,颗粒物(PM10),126,201,49,3,9,60,,67,64,6,17,6,8,0.4,0.5
2025-01-07T2200,3282A,113.3397,40.0597,大同市,大同市卫生学校,颗粒物(PM10),84,118,46,9,13,60,,63,62,5,26,6,9,0.4,0.6
2025-01-07T2200,3565A,113.1367,40.1122,大同市,云冈站,颗粒物(PM10),131,212,40,9,7,58,,70,67,11,15,12,12,0.6,0.4
2025-01-07T2200,3566A,113.1186,40.2556,大同市,图书馆,颗粒物(PM10),56,61,38,3,13,59,,72,69,9,11,12,16,0.7,0.7
2025-01-07T2200,3567A,113.5931,40.0461,大同市,区一中,颗粒物(PM10),58,66,44,18,13,62,,64,64,5,24,6,15,0.3,0.8
2025-01-07T2200,3676A,113.2802,40.0995,大同市,第二人民医院,颗粒物(PM10),112,174,52,3,10,65,,71,69,4,18,10,14,0.4,0.6
2025-01-07T2200,2269A,124.1069,50.4097,大兴安岭地区,科技局,,23,17,20,16,16,63,,65,63,3,6,5,6,0.3,0.3
2025-01-07T2200,3663A,124.1164,50.4278,大兴安岭地区,红旗社区,,19,7,6,7,4,59,,64,64,4,5,3,2,0.3,0.2
2025-01-07T2200,1600A,124.3303,40.0625,丹东市,江湾东路,细颗粒物(PM2.5),100,82,67,75,50,28,,57,46,35,28,12,16,1.6,1.5
2025-01-07T2200,1601A,124.4256,40.1503,丹东市,临江后街,细颗粒物(PM2.5),100,112,67,75,41,13,,53,37,55,37,20,25,1.8,1.2
2025-01-07T2200,1602A,124.3933,40.1461,丹东市,元宝山,,36,36,54,24,40,33,,39,37,12,24,10,13,0.8,1.2
2025-01-07T2200,1603A,124.3633,40.1092,丹东市,民主桥,颗粒物(PM10),56,61,68,34,42,22,,49,38,41,38,12,18,1.1,1.3
2025-01-07T2200,3541A,109.5726,19.5167,儋州市,第一中学子站,颗粒物(PM10),52,53,44,26,25,94,,120,96,8,9,5,6,0.6,0.6
2025-01-07T2200,3542A,109.5567,19.5187,儋州市,东坡学校子站,,49,49,47,24,24,106,,138,109,7,8,6,6,0.6,0.6
2025-01-07T2200,2616A,98.5842,24.428,德宏傣族景颇族自治州,德宏州监测站,颗粒物(PM10),62,73,59,36,32,22,,84,72,45,26,6,8,0.9,0.7
2025-01-07T2200,3677A,98.5881,24.4368,德宏傣族景颇族自治州,芒市人民政府综合楼,,48,48,50,25,30,49,,78,71,11,19,4,6,0.5,0.6
2025-01-07T2200,1901A,104.4239,31.1208,德阳市,东山公园,,42,41,59,29,50,66,,70,70,14,24,2,2,0.6,0.8
2025-01-07T2200,1902A,104.3826,31.1317,德阳市,西小区,颗粒物(PM10),52,53,71,35,55,52,,60,60,24,34,1,2,0.5,0.7
2025-01-07T2200,1904A,104.3553,31.1091,德阳市,耐火材料厂,细颗粒物(PM2.5),55,42,68,39,60,45,,55,55,29,33,4,4,0.6,0.8
2025-01-07T2200,3639A,104.4019,31.1244,德阳市,市教育局,细颗粒物(PM2.5),52,43,61,36,52,46,,60,60,33,36,4,4,0.6,0.8
2025-01-07T2200,1622A,116.3032,37.4674,德州市,儿童乐园,颗粒物(PM10),58,66,65,39,23,33,,62,51,44,30,11,15,0.9,0.8
2025-01-07T2200,1624A,116.2991,37.4451,德州市,监理站,颗粒物(PM10),59,68,55,39,23,30,,58,45,49,36,17,17,0.8,0.7
2025-01-07T2200,3066A,116.2721,37.4379,德州市,九衢泉纯净水厂,细颗粒物(PM2.5),79,88,62,58,29,17,,60,42,65,35,17,14,0.9,0.7
2025-01-07T2200,3371A,116.3728,37.4403,德州市,开发区人民医院,颗粒物(PM10),54,58,53,31,21,42,,62,54,34,28,12,13,0.6,0.6
2025-01-07T2200,3372A,116.3572,37.4094,德州市,太阳城中学,细颗粒物(PM2.5),73,85,64,53,28,16,,62,45,65,36,13,12,0.7,0.6
2025-01-07T2200,3511A,116.5652,37.3319,德州市,陵城艺术中心,颗粒物(PM10),58,66,60,27,25,22,,53,45,42,32,18,11,0.8,0.8
2025-01-07T2200,2621A,99.7056,27.8317,迪庆藏族自治州,迪庆州站,,27,26,24,17,18,85,,88,87,8,10,8,8,0.5,0.6
2025-01-07T2200,3180A,99.7136,27.8094,迪庆藏族自治州,质量技术监督局,,25,17,23,15,16,77,,82,80,7,8,7,7,0.4,0.4
2025-01-07T2200,2663A,104.6241,35.5734,定西市,东关小学,颗粒物(PM10),65,79,58,45,36,33,,70,61,32,22,27,14,1.3,0.7
2025-01-07T2200,2664A,104.6194,35.5934,定西市,供电公司,颗粒物(PM10),60,69,54,37,32,5,,76,60,67,27,14,10,1.2,1
2025-01-07T2200,1389A,113.7547,23.0494,东莞市,莞城梨川,,,128,96,71,58,,,155,155,67,56,7,8,0.8,0.9
2025-01-07T2200,1390A,113.7944,23.0128,东莞市,东城石井,"颗粒物(PM10),细颗粒物(PM2.5)",67,83,83,48,51,82,,151,139,45,50,6,7,0.8,0.8
2025-01-07T2200,1391A,113.7383,22.9658,东莞市,南城西平,细颗粒物(PM2.5),102,135,105,76,62,72,,182,165,100,76,5,6,0.8,0.7
2025-01-07T2200,3319A,113.7338,23.0381,东莞市,万江金泰,细颗粒物(PM2.5),97,129,91,72,57,77,,152,144,82,58,4,10,0.9,0.8
2025-01-07T2200,3626A,113.7533,23.0202,东莞市,南城元岭,细颗粒物(PM2.5),97,129,99,72,62,76,,164,146,81,59,8,9,1.0,0.9
2025-01-07T2200,3627A,113.7875,23.0457,东莞市,东城主山,颗粒物(PM10),72,94,97,50,58,75,,147,129,62,60,10,12,0.8,0.9
2025-01-07T2200,1666A,118.6614,37.4309,东营市,市环保局,颗粒物(PM10),56,61,46,31,21,10,,53,36,62,36,16,9,0.6,0.6
2025-01-07T2200,3036A,118.6904,37.4338,东营市,开发区管委会,颗粒物(PM10),58,66,44,31,21,6,,55,39,79,42,12,8,0.7,0.6
2025-01-07T2200,3365A,118.5719,37.565,东营市,垦利区民丰路,颗粒物(PM10),64,78,47,41,20,1,,50,36,74,38,17,15,0.7,0.4
2025-01-07T2200,3498A,118.5055,37.8612,东营市,河口城区,,36,36,42,20,17,44,,62,56,25,31,4,7,0.5,0.5
2025-01-07T2200,3646A,118.4978,37.4623,东营市,胜利站,颗粒物(PM10),62,74,48,41,25,5,,46,32,72,40,20,12,1.0,0.6
2025-01-07T2200,3734A,118.35,37.26,东营市,理想之城,颗粒物(PM10),60,70,47,31,22,6,,55,34,70,41,14,10,0.6,0.3
2025-01-07T2200,1591A,110.0023,39.8129,鄂尔多斯市,综合楼,颗粒物(PM10),51,51,23,3,3,56,,76,70,23,14,7,6,0.5,0.4
2025-01-07T2200,1592A,109.9486,39.8261,鄂尔多斯市,巴音孟克林场办事处,,36,36,21,7,7,61,,75,70,13,14,8,7,0.3,0.4
2025-01-07T2200,1593A,109.7736,39.5986,鄂尔多斯市,康泽苑,,29,29,14,7,5,55,,67,64,10,10,6,6,0.4,0.4
2025-01-07T2200,1594A,109.8119,39.5989,鄂尔多斯市,华泰汽车城,,36,36,19,12,8,66,,73,70,9,14,7,6,0.4,0.5
2025-01-07T2200,1595A,109.9734,39.7884,鄂尔多斯市,奥林花园,,41,41,24,3,4,60,,73,71,17,16,5,5,0.4,0.3
2025-01-07T2200,2436A,114.8938,30.3994,鄂州市,市政府,细颗粒物(PM2.5),90,105,91,67,47,5,,53,32,79,38,10,10,1.2,0.8
2025-01-07T2200,2437A,114.8989,30.3714,鄂州市,赵家坝,细颗粒物(PM2.5),108,130,104,81,53,6,,59,40,75,41,8,8,1.1,0.5
2025-01-07T2200,3654A,114.8094,30.4089,鄂州市,精准医疗中心,细颗粒物(PM2.5),83,112,100,61,52,33,,64,58,58,35,16,12,0.8,0.7
2025-01-07T2200,2454A,109.4978,30.2981,恩施土家族苗族自治州,湖北民院,细颗粒物(PM2.5),75,,79,55,86,35,,63,62,17,19,7,7,0.8,1
2025-01-07T2200,2455A,109.4707,30.2798,恩施土家族苗族自治州,州电力总公司,细颗粒物(PM2.5),72,70,85,52,72,38,,60,58,25,23,7,8,0.7,1
2025-01-07T2200,3549A,109.5061,30.3772,恩施土家族苗族自治州,龙凤新区,细颗粒物(PM2.5),67,54,92,48,70,17,,47,46,13,20,6,6,0.7,1.3
2025-01-07T2200,2499A,108.3411,21.6158,防城港市,沙万,细颗粒物(PM2.5),73,93,98,53,68,91,,143,120,43,42,18,14,0.8,0.8
2025-01-07T2200,2500A,108.3514,21.7731,防城港市,防城档案局,细颗粒物(PM2.5),95,132,126,71,73,40,,145,115,54,48,6,9,0.9,1
2025-01-07T2200,2501A,108.3506,21.6414,防城港市,大海花园,细颗粒物(PM2.5),83,84,96,61,69,109,,162,150,32,32,16,13,0.8,1
2025-01-07T2200,1371A,113.1294,23.0067,佛山市,湾梁,颗粒物(PM10),101,151,100,57,52,47,,127,110,122,82,8,8,0.9,0.8
2025-01-07T2200,1372A,113.1083,23.0478,佛山市,华材职中,细颗粒物(PM2.5),114,136,115,86,76,76,,140,117,82,95,8,9,1.0,1
2025-01-07T2200,1373A,113.144,23.0453,佛山市,南海气象局,细颗粒物(PM2.5),97,135,91,72,62,48,,120,105,97,84,8,9,1.1,0.9
2025-01-07T2200,1374A,113.2881,22.8094,佛山市,顺德苏岗,颗粒物(PM10),71,92,97,46,64,57,,125,115,62,72,8,8,0.6,0.8
2025-01-07T2200,1376A,112.8383,22.8678,佛山市,高明孔堂,细颗粒物(PM2.5),92,95,104,68,79,117,,165,161,38,51,7,11,0.6,0.8
2025-01-07T2200,1377A,112.8836,23.1588,佛山市,三水监测站,细颗粒物(PM2.5),98,129,107,73,76,41,,142,114,103,62,9,14,1.0,1
2025-01-07T2200,1378A,112.867,23.185,佛山市,三水云东海,细颗粒物(PM2.5),82,97,92,60,66,46,,141,115,81,63,11,12,0.9,0.9
2025-01-07T2200,3625A,113.2544,22.7642,佛山市,容桂街道办,颗粒物(PM10),67,83,121,44,70,67,,138,127,59,84,9,9,0.7,1
2025-01-07T2200,1280A,119.3903,26.0543,福州市,鼓山,,,,72,,32,,,106,,,12,,3,,0.4
2025-01-07T2200,1282A,119.2681,26.0504,福州市,师大,"颗粒物(PM10),细颗粒物(PM2.5)",65,80,77,47,43,105,,122,119,26,21,4,4,0.5,0.5
2025-01-07T2200,1283A,119.2984,26.1028,福州市,五四北路,细颗粒物(PM2.5),73,81,88,53,53,111,,120,119,19,20,2,3,0.5,0.8
2025-01-07T2200,1284A,119.2648,26.0768,福州市,杨桥西路,颗粒物(PM10),67,84,82,43,43,110,,118,117,20,17,2,3,0.5,0.5
2025-01-07T2200,1285A,119.317,26.0746,福州市,紫阳,颗粒物(PM10),81,111,85,47,45,101,,108,106,30,25,4,5,0.5,0.5
2025-01-07T2200,3048A,119.5799,26.0936,福州市,九龙,颗粒物(PM10),62,74,75,36,40,104,,123,121,19,16,2,3,0.5,0.4
2025-01-07T2200,3526A,119.5189,25.9664,福州市,吴航,颗粒物(PM10),69,88,80,40,40,114,,129,128,17,17,3,3,0.6,0.6
2025-01-07T2200,1755A,123.7977,41.8491,抚顺市,望花区,"颗粒物(PM10),细颗粒物(PM2.5)",72,93,126,52,70,16,,48,38,44,40,6,5,1.0,1.2
2025-01-07T2200,1756A,123.9161,41.8822,抚顺市,顺城区,细颗粒物(PM2.5),95,102,118,71,69,14,,45,33,53,46,11,7,1.6,1.5
2025-01-07T2200,1757A,124.0436,41.8611,抚顺市,东洲区,颗粒物(PM10),60,70,93,40,60,30,,51,46,26,29,1,4,0.9,1.1
2025-01-07T2200,1758A,123.9247,41.8642,抚顺市,新抚区,细颗粒物(PM2.5),87,99,105,64,67,14,,46,35,62,49,5,5,1.1,1
2025-01-07T2200,1759A,124.0972,41.8961,抚顺市,大伙房水库,细颗粒物(PM2.5),54,53,82,38,57,34,,52,47,28,34,9,9,0.7,0.9
2025-01-07T2200,1760A,123.7086,41.8391,抚顺市,沈抚新城,细颗粒物(PM2.5),87,64,88,64,59,19,,52,37,47,40,10,6,1.2,1.1
2025-01-07T2200,2376A,116.2127,28.0814,抚州市,桐源党溪,颗粒物(PM10),69,88,87,40,39,36,,75,65,4,3,1,2,0.5,0.5
2025-01-07T2200,2377A,116.3544,27.9831,抚州市,市站,颗粒物(PM10),75,99,91,48,42,70,,85,84,26,21,4,6,1.0,1
2025-01-07T2200,2378A,116.3565,27.963,抚州市,血防站,颗粒物(PM10),77,104,94,49,42,71,,90,89,24,17,8,10,0.8,0.9
2025-01-07T2200,2379A,116.3564,28.0007,抚州市,采茶剧团,颗粒物(PM10),72,94,89,49,40,55,,75,73,20,13,3,3,1.0,1
2025-01-07T2200,2380A,116.385,27.9647,抚州市,医学分院,颗粒物(PM10),85,119,95,54,41,60,,69,68,23,19,10,14,0.8,0.8
2025-01-07T2200,2207A,121.6094,41.998,阜新市,工业园区,颗粒物(PM10),58,66,52,34,20,18,,61,43,45,26,6,8,0.8,0.9
2025-01-07T2200,2208A,121.6697,42.0279,阜新市,长青街,,29,29,26,17,12,42,,62,57,20,13,9,6,0.5,0.4
2025-01-07T2200,2209A,121.6673,42.0705,阜新市,农业园区,,24,24,22,12,7,42,,62,55,17,7,11,9,0.6,0.7
2025-01-07T2200,2210A,121.6717,42.0224,阜新市,东苑,,28,28,29,12,8,47,,58,54,11,12,11,9,0.7,0.4
2025-01-07T2200,2211A,121.6506,42.0498,阜新市,玉龙新城,颗粒物(PM10),55,59,59,24,23,16,,63,38,43,28,9,6,1.0,0.8
2025-01-07T2200,2301A,115.8277,32.8929,阜阳市,市监测站,细颗粒物(PM2.5),70,84,53,51,36,22,,60,49,52,33,8,8,0.6,0.4
2025-01-07T2200,2303A,115.8554,32.8605,阜阳市,开发区,颗粒物(PM10),102,153,82,70,35,14,,64,43,55,33,10,10,0.7,0.5
2025-01-07T2200,2875A,115.784,32.8892,阜阳市,阜阳职业技术学院,细颗粒物(PM2.5),77,88,56,56,31,36,,67,56,39,30,11,10,0.5,0.4
2025-01-07T2200,3468A,115.7901,32.8613,阜阳市,市规划展馆,颗粒物(PM10),63,75,53,44,26,48,,70,64,30,24,12,9,0.8,0.7
2025-01-07T2200,3469A,115.836,32.9183,阜阳市,枣园社区,细颗粒物(PM2.5),69,85,58,50,30,7,,71,51,75,39,6,7,0.7,0.6
2025-01-07T2200,2669A,102.9099,34.9841,甘南藏族自治州,州政府,细颗粒物(PM2.5),79,71,56,58,38,64,,78,75,14,19,9,9,0.9,0.8
2025-01-07T2200,3380A,102.8914,34.9617,甘南藏族自治州,甘肃民族师范学院,细颗粒物(PM2.5),60,66,60,43,36,66,,83,77,20,27,5,6,0.6,0.6
2025-01-07T2200,2570A,101.9603,30.0475,甘孜藏族自治州,水桥子,,26,,19,18,14,77,,81,80,9,14,2,2,0.6,0.6
2025-01-07T2200,3065A,101.9533,29.9972,甘孜藏族自治州,州环保局,,24,16,22,10,10,75,,81,80,12,14,4,4,0.5,0.5
2025-01-07T2200,3414A,115.8347,28.932,赣江新区,桑海产业园,颗粒物(PM10),60,70,100,33,40,5,,64,49,62,28,12,14,0.6,0.6
2025-01-07T2200,2362A,114.9017,25.9149,赣州市,通天岩,细颗粒物(PM2.5),57,59,70,40,49,62,,115,93,5,6,3,3,0.6,0.6
2025-01-07T2200,2363A,114.9367,25.8664,赣州市,地委,颗粒物(PM10),61,71,81,39,56,83,,105,100,20,31,4,3,1.3,1.4
2025-01-07T2200,2364A,114.9461,25.8481,赣州市,气象台,颗粒物(PM10),73,96,98,36,53,88,,108,103,28,47,12,11,0.8,0.9
2025-01-07T2200,2365A,114.9322,25.8333,赣州市,市图书馆,颗粒物(PM10),69,88,86,42,53,92,,115,109,24,38,5,6,0.8,1
2025-01-07T2200,2366A,114.8905,25.8471,赣州市,华坚鞋城,颗粒物(PM10),67,84,86,39,50,91,,109,104,19,24,9,8,0.5,0.6
2025-01-07T2200,3109A,115.0093,25.8613,赣州市,赣县区卫计委,细颗粒物(PM2.5),78,95,91,57,67,72,,101,94,26,31,6,6,0.5,0.6
2025-01-07T2200,2683A,106.2319,36.1417,固原市,马园,颗粒物(PM10),91,132,83,56,39,9,,64,50,65,38,11,9,1.1,1
2025-01-07T2200,2684A,106.2792,36.0022,固原市,监测站,细颗粒物(PM2.5),108,97,53,81,30,28,,78,65,53,31,22,10,1.9,1
2025-01-07T2200,2685A,106.2375,36.0211,固原市,新区,颗粒物(PM10),57,63,59,26,26,22,,67,57,62,40,6,7,0.6,0.7
2025-01-07T2200,3522A,106.2177,35.9959,固原市,原州区十五小,,47,47,56,20,27,52,,75,68,32,28,9,10,0.6,0.7
2025-01-07T2200,2543A,106.6308,30.5278,广安市,小平旧居,,,,,,,,,,,,,,,,
2025-01-07T2200,2544A,106.6303,30.4576,广安市,市委,细颗粒物(PM2.5),54,44,79,38,76,40,,37,37,19,22,2,2,0.7,0.9
2025-01-07T2200,2545A,106.6271,30.4663,广安市,友谊中学,细颗粒物(PM2.5),60,44,80,43,72,42,,37,37,21,24,2,3,0.8,1
2025-01-07T2200,2547A,106.6388,30.4551,广安市,广电花园,细颗粒物(PM2.5),59,48,76,42,71,38,,32,32,20,23,2,3,0.6,0.8
2025-01-07T2200,2902A,106.6351,30.4865,广安市,北辰小学,细颗粒物(PM2.5),59,,73,42,68,45,,42,42,20,22,2,3,1.0,1.2
2025-01-07T2200,2523A,105.8945,32.4535,广元市,黑石坡,,48,48,53,29,37,55,,65,52,9,13,11,11,0.4,0.5
2025-01-07T2200,2524A,105.821,32.4444,广元市,老城,颗粒物(PM10),69,88,62,39,32,3,,67,41,70,33,1,2,0.9,0.7
2025-01-07T2200,2526A,105.8628,32.4287,广元市,监测站,细颗粒物(PM2.5),60,56,53,43,36,23,,67,44,42,34,1,3,0.9,1
2025-01-07T2200,3617A,105.8047,32.4166,广元市,经开区,颗粒物(PM10),59,67,38,39,36,5,,59,38,65,40,5,5,1.1,0.8
2025-01-07T2200,1345A,113.2347,23.1423,广州市,广雅中学,细颗粒物(PM2.5),110,148,110,83,65,6,,114,76,160,96,10,10,1.2,0.9
2025-01-07T2200,1346A,113.2612,23.105,广州市,市五中,细颗粒物(PM2.5),137,158,98,104,71,55,,129,102,93,66,6,5,1.1,0.9
2025-01-07T2200,1348A,113.3478,23.0916,广州市,广东商学院,细颗粒物(PM2.5),132,170,98,100,63,34,,140,108,147,81,6,6,1.0,0.8
2025-01-07T2200,1349A,113.4332,23.1047,广州市,市八十六中,"颗粒物(PM10),细颗粒物(PM2.5)",79,107,105,58,61,55,,126,92,92,94,7,7,0.7,0.9
2025-01-07T2200,1350A,113.3505,22.9483,广州市,番禺中学,颗粒物(PM10),58,66,108,40,68,74,,142,126,58,73,4,7,0.8,1
2025-01-07T2200,1351A,113.2146,23.3916,广州市,花都师范,细颗粒物(PM2.5),70,85,84,51,56,80,,129,122,52,44,8,8,0.8,0.7
2025-01-07T2200,1352A,113.2597,23.1331,广州市,市监测站,细颗粒物(PM2.5),93,126,94,69,56,31,,125,92,112,72,7,7,1.2,1
2025-01-07T2200,1353A,113.5618,23.312,广州市,九龙镇镇龙,细颗粒物(PM2.5),90,119,88,67,58,10,,123,88,95,57,5,6,0.9,0.8
2025-01-07T2200,1354A,113.2765,23.1544,广州市,麓湖,细颗粒物(PM2.5),80,91,76,59,53,5,,126,82,134,80,4,4,1.2,0.9
2025-01-07T2200,1355A,113.443,23.3035,广州市,帽峰山森林公园,颗粒物(PM10),58,65,53,33,38,135,,144,142,26,19,8,8,0.6,0.6
2025-01-07T2200,2846A,113.3221,23.1322,广州市,体育西,细颗粒物(PM2.5),118,155,92,89,58,47,,130,105,104,58,7,6,1.0,0.8
2025-01-07T2200,3298A,113.5717,23.5491,广州市,从化街口,细颗粒物(PM2.5),79,89,92,58,61,27,,130,99,77,57,6,7,1.0,0.9
2025-01-07T2200,3299A,113.3472,23.3692,广州市,白云竹料,细颗粒物(PM2.5),90,110,96,67,62,55,,136,111,65,54,9,9,1.0,0.9
2025-01-07T2200,3300A,113.2981,23.237,广州市,白云嘉禾,颗粒物(PM10),80,110,99,53,56,20,,126,84,118,73,9,9,1.0,0.9
2025-01-07T2200,3301A,113.4256,23.1716,广州市,黄埔科学城,细颗粒物(PM2.5),74,96,72,54,48,13,,129,91,99,43,7,7,1.0,0.8
2025-01-07T2200,3302A,113.3942,23.0483,广州市,番禺大学城,细颗粒物(PM2.5),93,132,93,69,58,68,,142,123,93,79,11,11,0.9,0.9
2025-01-07T2200,3303A,113.4922,22.8168,广州市,南沙黄阁,,48,48,104,29,61,87,,157,142,37,72,6,7,0.6,0.8
2025-01-07T2200,3304A,113.5342,22.7896,广州市,南沙街,颗粒物(PM10),55,60,91,33,55,71,,174,150,45,60,4,6,0.6,0.7
2025-01-07T2200,3443A,113.2902,23.5544,广州市,花都梯面,细颗粒物(PM2.5),63,67,67,45,47,32,,140,101,61,42,8,10,0.9,0.8
2025-01-07T2200,3445A,113.7858,23.7478,广州市,从化良口,细颗粒物(PM2.5),53,53,52,37,40,84,,129,119,26,23,6,6,0.8,0.8
2025-01-07T2200,3446A,113.8051,23.2614,广州市,增城荔城,细颗粒物(PM2.5),88,94,66,65,48,51,,142,119,47,27,5,6,1.0,0.7
2025-01-07T2200,2505A,109.568,23.1478,贵港市,德智高中,,,,,,,,,,,,,,,,
2025-01-07T2200,2506A,109.6047,23.0666,贵港市,江南子站,细颗粒物(PM2.5),115,156,131,87,87,76,,158,144,52,41,12,14,0.9,1.1
2025-01-07T2200,2507A,109.6014,23.0948,贵港市,贵城子站,细颗粒物(PM2.5),89,96,107,66,81,104,,146,137,22,27,10,12,0.9,1
2025-01-07T2200,2508A,109.5669,23.1065,贵港市,荷城子站,细颗粒物(PM2.5),89,97,116,66,78,101,,134,125,29,35,13,14,0.8,0.9
2025-01-07T2200,3405A,109.5886,23.1172,贵港市,新世纪学校,细颗粒物(PM2.5),92,105,117,68,76,106,,147,137,28,32,14,14,0.8,0.9
2025-01-07T2200,1439A,106.6899,26.5998,贵阳市,马鞍山,,39,39,56,19,41,60,,63,63,16,21,2,5,0.3,0.4
2025-01-07T2200,1440A,106.6971,26.5694,贵阳市,市环保站,,50,41,61,35,50,62,,80,59,29,31,6,12,0.7,0.7
2025-01-07T2200,1441A,106.6243,26.6266,贵阳市,鉴湖路,,35,24,52,24,41,41,,55,47,20,22,5,5,0.5,0.6
2025-01-07T2200,1442A,106.7487,26.6343,贵阳市,燕子冲,,49,,52,34,48,66,,84,72,14,17,7,11,0.5,0.6
2025-01-07T2200,1443A,106.6555,26.4365,贵阳市,碧云窝,,49,41,72,34,50,52,,60,48,25,41,11,17,0.6,0.7
2025-01-07T2200,1444A,106.694,26.5161,贵阳市,中院村,,45,36,62,31,47,57,,71,59,21,30,11,19,0.7,0.7
2025-01-07T2200,1445A,106.7109,26.6027,贵阳市,红边门,细颗粒物(PM2.5),52,41,61,36,50,64,,76,64,23,27,9,16,0.6,0.6
2025-01-07T2200,1446A,106.7164,26.5699,贵阳市,新华路,,42,39,57,29,43,68,,81,67,16,20,4,9,0.4,0.5
2025-01-07T2200,1447A,106.674,26.5424,贵阳市,太慈桥,,45,36,55,31,43,61,,74,60,19,29,5,10,0.6,0.7
2025-01-07T2200,1552A,106.805,26.3003,贵阳市,桐木岭,,,,78,,54,,,85,,,2,,13,,0.4
2025-01-07T2200,1862A,110.4144,25.3167,桂林市,电子科大尧山校区,细颗粒物(PM2.5),67,73,68,48,46,86,,106,88,17,20,10,8,0.6,0.6
2025-01-07T2200,1863A,110.2819,25.2697,桂林市,监测站,,,,71,,53,68,,103,87,23,25,14,14,,0.8
2025-01-07T2200,1864A,110.3089,25.2708,桂林市,龙隐路小学,细颗粒物(PM2.5),85,86,69,63,54,83,,107,97,19,23,15,15,0.7,0.7
2025-01-07T2200,1865A,110.2869,25.2178,桂林市,八中,细颗粒物(PM2.5),87,90,70,64,54,75,,94,87,21,22,14,13,0.8,0.8
2025-01-07T2200,3403A,110.1764,25.2381,桂林市,创业大厦,细颗粒物(PM2.5),89,105,79,66,55,80,,111,93,23,22,13,12,0.7,0.7
2025-01-07T2200,3531A,110.296,25.1253,桂林市,旅游学院,细颗粒物(PM2.5),73,80,74,53,56,80,,91,86,20,27,10,10,1.0,0.9
2025-01-07T2200,2674A,100.2561,34.4714,果洛藏族自治州,玛沁县大武镇,,43,43,48,21,21,73,,76,76,2,8,14,18,0.5,0.6
2025-01-07T2200,1129A,126.5422,45.755,哈尔滨市,岭北,,25,19,148,17,133,55,,56,56,16,52,14,20,0.8,2.4
2025-01-07T2200,1130A,126.561,45.8167,哈尔滨市,松北商大,,45,,141,31,123,46,,50,50,12,50,5,8,0.6,1.3
2025-01-07T2200,1131A,126.979,45.5419,哈尔滨市,阿城会宁,,,64,136,34,123,44,,37,36,,36,10,10,0.7,1.2
2025-01-07T2200,1132A,126.599,45.7222,哈尔滨市,南岗学府路,,39,39,167,23,126,42,,42,42,19,52,18,18,0.2,0.9
2025-01-07T2200,1133A,126.689,45.7733,哈尔滨市,太平宏伟公园,,30,21,171,21,128,39,,42,42,16,50,6,9,0.3,1.2
2025-01-07T2200,1134A,126.635,45.7667,哈尔滨市,道外承德广场,,39,39,163,17,114,39,,40,40,14,50,4,8,0.8,1.2
2025-01-07T2200,1135A,126.685,45.7319,哈尔滨市,香坊红旗大街,,20,17,148,14,129,43,,42,42,12,51,6,14,0.6,1.3
2025-01-07T2200,1136A,126.6411,45.7258,哈尔滨市,动力和平路,,,,169,17,137,34,,22,,17,50,,17,0.4,1.3
2025-01-07T2200,1137A,126.593,45.7478,哈尔滨市,道里建国路,,26,26,144,18,125,41,,40,40,17,54,5,15,0.4,1.3
2025-01-07T2200,1138A,126.615,45.61,哈尔滨市,平房东轻厂,,46,46,142,32,124,37,,36,36,23,44,10,7,0.4,1
2025-01-07T2200,1139A,126.595,45.9855,哈尔滨市,呼兰师专,,15,12,135,10,120,42,,46,46,11,47,7,11,0.5,1.2
2025-01-07T2200,1140A,126.6206,45.6842,哈尔滨市,省农科院,,46,46,171,24,138,40,,36,36,16,52,4,9,0.9,1.4
2025-01-07T2200,2688A,93.5128,42.8172,哈密市,地区监测站,颗粒物(PM10),52,53,106,30,62,40,,57,49,37,49,3,8,0.1,1.2
2025-01-07T2200,2689A,93.4961,42.8328,哈密市,哈密师范学校,,39,39,86,27,50,29,,58,51,52,53,4,10,0.5,1.7
2025-01-07T2200,2671A,100.9048,36.9639,海北藏族自治州,海晏县西海镇,细颗粒物(PM2.5),65,71,50,47,32,58,,96,87,35,16,39,21,1.3,1
2025-01-07T2200,3867A,102.0738,36.5056,海东市,平安区公安北苑,细颗粒物(PM2.5),77,60,60,56,45,67,,85,82,11,24,10,15,0.8,0.8
2025-01-07T2200,1409A,110.576,19.9507,海口市,东寨港,,37,37,37,23,31,103,,114,113,5,5,8,9,0.6,0.6
2025-01-07T2200,1410A,110.3232,20.0574,海口市,海南大学,颗粒物(PM10),56,61,51,26,27,122,,134,130,14,14,5,6,0.5,0.5
2025-01-07T2200,1411A,110.283,20.0053,海口市,秀英海南医院,颗粒物(PM10),54,57,53,24,24,120,,133,127,13,12,3,3,0.4,0.4
2025-01-07T2200,1412A,110.338,19.9969,海口市,海南师范大学,颗粒物(PM10),55,59,54,24,25,124,,134,132,9,10,5,5,0.4,0.5
2025-01-07T2200,1413A,110.33,20.0356,海口市,龙华路环保局宿舍,颗粒物(PM10),52,54,51,26,26,125,,135,131,8,9,5,6,0.4,0.4
2025-01-07T2200,3539A,110.5111,19.9736,海口市,桂林洋子站,颗粒物(PM10),51,52,41,24,23,120,,130,129,6,8,4,5,0.3,0.4
2025-01-07T2200,2673A,100.6188,36.2866,海南藏族自治州,共和县恰卜恰镇,细颗粒物(PM2.5),59,61,55,42,34,55,,92,76,21,24,12,17,1.2,1.2
2025-01-07T2200,2676A,97.3731,37.3753,海西蒙古族藏族自治州,德令哈市,,35,35,32,14,10,67,,76,75,15,15,16,17,0.5,0.6
2025-01-07T2200,1048A,114.5302,36.6116,邯郸市,东污水处理厂,颗粒物(PM10),53,56,41,34,21,22,,56,46,40,29,9,11,0.8,1
2025-01-07T2200,1049A,114.4918,36.5713,邯郸市,矿院,颗粒物(PM10),57,63,45,29,21,17,,57,43,44,34,6,8,0.7,0.8
2025-01-07T2200,1050A,114.484,36.6133,邯郸市,丛台公园,颗粒物(PM10),58,66,50,35,20,15,,57,45,52,34,9,10,0.8,0.9
2025-01-07T2200,3458A,114.7895,36.5593,邯郸市,香泉濮院小区,颗粒物(PM10),63,75,69,37,32,42,,72,65,26,32,10,12,0.6,0.9
2025-01-07T2200,3579A,114.50634,36.77178,邯郸市,永年区实验高中,颗粒物(PM10),80,109,57,47,19,8,,54,37,69,35,12,16,0.8,0.9
2025-01-07T2200,3580A,114.20016,36.44293,邯郸市,峰峰矿区临水派出所,,43,43,36,16,14,43,,64,56,25,20,14,14,0.8,0.7
2025-01-07T2200,2634A,106.9893,33.1842,汉中市,汉川机床厂子校,细颗粒物(PM2.5),107,90,144,80,143,44,,63,59,14,28,6,7,0.8,1.4
2025-01-07T2200,2635A,107.0154,33.0706,汉中市,市监测站,细颗粒物(PM2.5),208,195,212,158,195,19,,41,36,72,63,8,8,2.7,3
2025-01-07T2200,2636A,107.0089,33.1138,汉中市,鑫源开发区,细颗粒物(PM2.5),226,179,205,176,198,14,,44,38,73,55,9,8,2.8,2.4
2025-01-07T2200,2637A,107.007,33.0323,汉中市,南郑大河坎水厂,细颗粒物(PM2.5),193,198,230,145,194,30,,44,39,42,43,10,6,1.7,2.8
2025-01-07T2200,1223A,120.2072,30.2111,杭州市,滨江,细颗粒物(PM2.5),95,116,112,71,60,11,,47,31,80,49,7,8,0.8,0.7
2025-01-07T2200,1224A,120.0633,30.2747,杭州市,西溪,细颗粒物(PM2.5),94,111,82,70,47,11,,61,36,59,48,6,7,1.0,0.9
2025-01-07T2200,1226A,120.3461,30.3153,杭州市,下沙,细颗粒物(PM2.5),107,157,122,80,58,2,,50,20,95,62,10,9,1.1,0.9
2025-01-07T2200,1227A,120.1269,30.2456,杭州市,卧龙桥,细颗粒物(PM2.5),73,88,79,53,46,5,,54,28,62,48,6,7,0.7,0.7
2025-01-07T2200,1228A,120.1903,30.2692,杭州市,浙江农大,细颗粒物(PM2.5),98,126,102,73,56,7,,49,32,79,50,7,8,0.8,0.7
2025-01-07T2200,1230A,120.1197,30.3119,杭州市,和睦小学,细颗粒物(PM2.5),85,112,78,63,43,14,,55,38,77,51,8,9,1.0,0.8
2025-01-07T2200,1231A,120.3019,30.4183,杭州市,临平镇,颗粒物(PM10),69,88,99,46,51,3,,62,34,85,42,9,9,1.1,1
2025-01-07T2200,1232A,120.2697,30.1819,杭州市,城厢镇,细颗粒物(PM2.5),98,127,122,73,63,3,,49,26,95,60,7,7,1.0,1
2025-01-07T2200,1233A,120.0883,30.1808,杭州市,云栖,颗粒物(PM10),76,102,118,43,105,5,,25,20,58,59,6,7,0.7,0.9
2025-01-07T2200,3557A,119.9464,30.0494,杭州市,镇二中,细颗粒物(PM2.5),98,106,92,73,60,6,,44,31,69,58,7,8,0.9,0.8
2025-01-07T2200,3558A,119.7183,30.2367,杭州市,市府大楼,细颗粒物(PM2.5),104,114,94,78,62,19,,72,49,60,48,7,8,1.0,1
2025-01-07T2200,3656A,120.1556,30.2864,杭州市,消防大队,细颗粒物(PM2.5),98,118,91,73,49,9,,55,34,81,50,9,10,1.1,0.9
2025-01-07T2200,1270A,117.1959,31.7848,合肥市,明珠广场,颗粒物(PM10),65,80,52,41,24,2,,41,26,73,41,10,9,0.8,0.6
2025-01-07T2200,1271A,117.3072,31.8764,合肥市,三里街,颗粒物(PM10),64,78,53,44,25,3,,45,23,77,43,5,6,0.8,0.7
2025-01-07T2200,1272A,117.2588,31.8707,合肥市,琥珀山庄,细颗粒物(PM2.5),74,73,52,54,32,7,,52,31,81,38,6,7,1.1,0.5
2025-01-07T2200,1273A,117.1604,31.9052,合肥市,董铺水库,颗粒物(PM10),58,66,58,17,13,4,,58,34,71,38,5,5,0.4,0.3
2025-01-07T2200,1274A,117.25,31.8571,合肥市,长江中路,颗粒物(PM10),58,66,51,36,27,10,,43,25,65,36,7,8,0.8,0.6
2025-01-07T2200,1275A,117.266,31.9436,合肥市,庐阳区,颗粒物(PM10),58,66,51,27,22,5,,63,38,68,31,4,5,0.7,0.6
2025-01-07T2200,1276A,117.336,31.8586,合肥市,瑶海区,,,73,54,35,23,,,48,28,91,46,11,9,0.7,0.4
2025-01-07T2200,1277A,117.3027,31.7964,合肥市,包河区,颗粒物(PM10),57,63,52,29,23,3,,43,34,76,46,5,5,0.6,0.5
2025-01-07T2200,1278A,117.2776,31.7385,合肥市,滨湖新区,颗粒物(PM10),63,75,49,31,20,0,,46,35,69,30,11,8,0.4,0.3
2025-01-07T2200,1279A,117.1318,31.8403,合肥市,高新区,颗粒物(PM10),58,66,51,32,24,3,,52,34,84,53,1,2,0.8,0.8
2025-01-07T2200,3464A,117.3803,31.9147,合肥市,高教基地,颗粒物(PM10),62,73,54,38,24,3,,55,27,80,39,6,8,0.6,0.4
2025-01-07T2200,3614A,79.924,37.0877,和田地区,地区环保局,颗粒物(PM10),79,108,128,27,47,32,,80,71,48,28,18,19,0.4,0.6
2025-01-07T2200,3615A,79.9131,37.113,和田地区,市环保局,颗粒物(PM10),69,88,107,34,53,18,,73,67,82,52,21,20,1.1,1.9
2025-01-07T2200,2516A,108.2011,24.715,河池市,东仁乐园,细颗粒物(PM2.5),124,125,102,94,70,50,,102,89,42,39,14,14,1.0,0.8
2025-01-07T2200,2517A,108.0497,24.6947,河池市,市环保站,细颗粒物(PM2.5),97,76,85,72,69,66,,100,87,13,30,10,11,0.8,0.9
2025-01-07T2200,2518A,108.0983,24.6989,河池市,市疾控中心,细颗粒物(PM2.5),123,111,88,93,70,38,,106,87,43,36,10,8,1.0,0.9
2025-01-07T2200,1696A,114.6778,23.7569,河源市,源西,细颗粒物(PM2.5),69,63,68,50,52,59,,118,85,48,36,6,7,0.7,0.6
2025-01-07T2200,1697A,114.6944,23.7586,河源市,东埔,细颗粒物(PM2.5),73,70,72,53,56,72,,131,103,50,35,5,6,0.9,0.8
2025-01-07T2200,1698A,114.6892,23.7233,河源市,老城,细颗粒物(PM2.5),70,75,66,51,50,47,,122,99,53,34,4,5,0.9,0.8
2025-01-07T2200,1718A,115.4208,35.2464,菏泽市,气象局,颗粒物(PM10),80,109,87,48,44,31,,56,41,47,52,8,8,0.6,0.6
2025-01-07T2200,1719A,115.4747,35.2375,菏泽市,市政协,,,,78,,43,,,28,,,61,,7,,0.7
2025-01-07T2200,3374A,115.5564,35.0891,菏泽市,定陶老年大学,"颗粒物(PM10),细颗粒物(PM2.5)",73,95,77,53,41,31,,57,50,45,42,12,11,0.4,0.4
2025-01-07T2200,3647A,115.4702,35.2706,菏泽市,菏泽医专,颗粒物(PM10),67,83,71,31,27,39,,62,50,43,44,9,10,0.7,0.6
2025-01-07T2200,2514A,111.5264,24.4172,贺州市,环保小区,细颗粒物(PM2.5),98,101,96,73,80,82,,126,115,26,31,9,8,0.9,0.9
2025-01-07T2200,2515A,111.5608,24.4078,贺州市,政协大楼,细颗粒物(PM2.5),92,95,92,68,59,86,,121,112,21,39,8,7,0.8,0.9
2025-01-07T2200,3534A,111.4744,24.4553,贺州市,西湾,细颗粒物(PM2.5),92,110,102,68,73,89,,129,118,14,25,9,9,0.9,0.9
2025-01-07T2200,2385A,114.17,35.9019,鹤壁市,市监测站,颗粒物(PM10),80,109,58,39,21,7,,65,32,43,25,4,4,0.6,0.4
2025-01-07T2200,2386A,114.2956,35.7511,鹤壁市,市交警支队,颗粒物(PM10),65,80,58,40,20,2,,52,36,67,38,3,2,1.0,0.5
2025-01-07T2200,2387A,114.2878,35.7306,鹤壁市,迎宾馆,颗粒物(PM10),68,86,64,31,17,2,,54,38,60,32,2,3,0.7,0.5
2025-01-07T2200,3474A,114.2617,35.6822,鹤壁市,大新区,颗粒物(PM10),59,68,67,37,26,2,,51,32,68,42,6,6,0.5,0.4
2025-01-07T2200,3596A,114.1572,35.9603,鹤壁市,南山宾馆,细颗粒物(PM2.5),52,43,46,36,32,56,,68,49,8,16,4,5,0.6,0.6
2025-01-07T2200,2244A,130.2537,47.3416,鹤岗市,哈啤分公司,,43,35,48,30,36,47,,44,44,9,17,17,19,0.6,0.7
2025-01-07T2200,2245A,130.2684,47.3086,鹤岗市,斯达机电,细颗粒物(PM2.5),57,51,50,40,43,46,,49,39,18,23,16,18,0.4,0.5
2025-01-07T2200,2246A,130.3114,47.3388,鹤岗市,东山纸板厂,细颗粒物(PM2.5),102,,33,76,51,34,,44,32,18,25,15,17,1.7,0.7
2025-01-07T2200,2247A,130.1097,47.3382,鹤岗市,五号水库,,37,37,38,24,23,53,,62,54,15,14,8,9,0.6,0.5
2025-01-07T2200,2263A,127.4833,50.2524,黑河市,交通局,,32,25,25,22,19,43,,42,40,6,7,6,6,0.4,0.5
2025-01-07T2200,2264A,127.5144,50.2341,黑河市,环保局,,22,22,18,15,18,43,,41,40,5,8,5,6,0.8,0.6
2025-01-07T2200,2265A,127.5291,50.2472,黑河市,大黑河岛,,,28,20,8,14,5,,6,5,6,7,3,2,,
2025-01-07T2200,1074A,115.6838,37.7541,衡水市,电机北厂,,40,39,41,28,20,39,,62,53,30,23,10,10,0.5,0.5
2025-01-07T2200,1075A,115.6303,37.7316,衡水市,市监测站,颗粒物(PM10),52,53,44,20,19,28,,53,44,42,32,14,13,0.5,0.5
2025-01-07T2200,3188A,115.6683,37.7217,衡水市,市城管局,颗粒物(PM10),51,51,47,27,24,39,,59,52,26,26,10,12,0.6,0.6
2025-01-07T2200,3459A,115.5989,37.5491,衡水市,地表水厂,细颗粒物(PM2.5),60,56,46,43,25,8,,59,32,67,39,18,10,0.7,0.6
2025-01-07T2200,2456A,112.5003,26.9167,衡阳市,原169医院,细颗粒物(PM2.5),100,114,85,75,62,33,,52,44,32,30,10,26,0.7,0.6
2025-01-07T2200,2457A,112.6194,26.9258,衡阳市,衡阳化工总厂,细颗粒物(PM2.5),117,144,108,88,76,50,,74,67,26,28,10,10,0.9,0.9
2025-01-07T2200,2458A,112.6211,26.8956,衡阳市,珠晖区环保局,细颗粒物(PM2.5),102,120,96,76,66,43,,70,63,35,34,10,11,0.9,0.9
2025-01-07T2200,2459A,112.6197,26.8733,衡阳市,市委党校,细颗粒物(PM2.5),99,121,95,74,63,56,,80,74,26,25,10,11,0.9,0.9
2025-01-07T2200,2460A,112.6006,26.8919,衡阳市,市监测站,细颗粒物(PM2.5),130,146,120,99,79,55,,77,72,22,24,10,11,0.9,0.9
2025-01-07T2200,2461A,112.5664,26.9056,衡阳市,真空机电公司,细颗粒物(PM2.5),107,140,115,80,67,50,,68,64,30,31,6,8,0.9,0.9
2025-01-07T2200,3399A,112.6703,26.882,衡阳市,师范学院,细颗粒物(PM2.5),74,,105,54,71,54,,78,70,27,28,11,12,0.9,0.8
2025-01-07T2200,2608A,103.3772,23.3993,红河哈尼族彝族自治州,污水处理厂,细颗粒物(PM2.5),99,82,69,74,67,82,,110,99,12,11,7,8,0.6,0.5
2025-01-07T2200,2609A,103.3861,23.35,红河哈尼族彝族自治州,监测站,细颗粒物(PM2.5),93,80,71,69,64,85,,124,107,6,11,6,9,0.6,0.8
2025-01-07T2200,3038A,103.3758,23.368,红河哈尼族彝族自治州,州图书馆,细颗粒物(PM2.5),97,,67,72,58,83,,106,97,11,12,7,9,0.6,0.6
2025-01-07T2200,1090A,111.6507,40.7517,呼和浩特市,呼市一监,,24,24,43,3,16,76,,81,81,4,16,9,11,0.3,0.5
2025-01-07T2200,1091A,111.6572,40.8033,呼和浩特市,小召,,22,17,40,3,12,68,,73,73,10,21,7,9,0.4,0.6
2025-01-07T2200,1094A,111.7516,40.8369,呼和浩特市,如意水处理厂,,19,10,23,3,8,60,,67,67,2,10,8,9,0.3,0.4
2025-01-07T2200,1095A,111.7276,40.8062,呼和浩特市,二十九中,,21,21,31,3,11,61,,66,66,5,16,7,8,0.3,0.4
2025-01-07T2200,1096A,111.5512,40.7866,呼和浩特市,工大金川校区,,31,31,37,3,11,62,,72,72,7,23,6,9,0.3,0.5
2025-01-07T2200,1097A,111.717,40.7612,呼和浩特市,化肥厂生活区,,20,11,28,3,9,63,,70,70,9,19,6,7,0.4,0.5
2025-01-07T2200,3698A,111.5968,40.8178,呼和浩特市,红旗小学,,20,9,42,3,12,64,,71,71,6,28,4,6,0.2,0.5
2025-01-07T2200,3699A,111.6518,40.8389,呼和浩特市,海东办,,22,7,38,3,9,69,,74,74,4,16,7,9,0.4,0.6
2025-01-07T2200,2192A,119.7594,49.2261,呼伦贝尔市,区环保局,,30,30,33,18,27,61,,62,62,18,30,5,6,0.4,0.5
2025-01-07T2200,3061A,119.7512,49.1577,呼伦贝尔市,国华电力东,,33,,24,23,18,74,,70,70,6,10,4,4,0.4,0.4
2025-01-07T2200,1250A,120.0751,30.8669,湖州市,城西水厂,细颗粒物(PM2.5),80,100,93,59,45,9,,55,45,109,54,11,10,0.9,0.7
2025-01-07T2200,2873A,120.0875,30.8955,湖州市,仁皇山新区,颗粒物(PM10),60,70,75,40,37,13,,61,42,64,47,6,9,0.8,0.7
2025-01-07T2200,2907A,120.1844,30.8596,湖州市,吴兴区站,颗粒物(PM10),58,65,68,37,39,23,,62,47,55,37,6,7,0.7,0.7
2025-01-07T2200,3562A,120.4148,30.8538,湖州市,南浔区站,细颗粒物(PM2.5),72,74,77,52,49,23,,62,43,57,39,10,11,0.6,0.7
2025-01-07T2200,1607A,120.9092,40.7136,葫芦岛市,龙港区,,36,36,43,16,29,66,,56,54,12,31,2,14,0,0.6
2025-01-07T2200,1608A,120.8392,40.7514,葫芦岛市,化工街,,36,36,74,7,36,45,,40,29,18,43,1,15,0.7,1.3
2025-01-07T2200,1609A,120.8341,40.7073,葫芦岛市,新区,,31,31,39,3,18,55,,50,37,10,37,9,15,0.6,0.9
2025-01-07T2200,1610A,120.8695,40.7677,葫芦岛市,东城区,,18,18,62,6,33,57,,45,38,9,36,5,40,0.1,0.7
2025-01-07T2200,2482A,109.5981,27.5721,怀化市,林科所,,47,47,60,29,46,66,,77,72,21,24,1,17,0.8,0.9
2025-01-07T2200,2483A,109.9453,27.5444,怀化市,河西地税局,颗粒物(PM10),56,62,93,38,61,64,,75,69,9,12,3,10,0.8,0.9
2025-01-07T2200,2484A,109.9781,27.5342,怀化市,市四医院,颗粒物(PM10),58,65,98,40,63,63,,67,65,12,17,3,12,0.8,0.9
2025-01-07T2200,2485A,109.9972,27.5578,怀化市,监测楼,颗粒物(PM10),57,63,91,36,59,62,,66,66,15,19,7,12,0.5,0.6
2025-01-07T2200,2486A,110.0394,27.583,怀化市,市委党校,颗粒物(PM10),59,68,94,37,61,60,,66,63,18,20,5,5,0.6,0.7
2025-01-07T2200,1210A,119.036,33.5981,淮安市,钵池山,颗粒物(PM10),59,68,51,36,34,36,,63,51,42,36,9,11,0.6,0.6
2025-01-07T2200,1211A,119.007,33.575,淮安市,北京南路,颗粒物(PM10),65,80,67,42,37,2,,52,34,69,48,10,14,0.7,0.8
2025-01-07T2200,1212A,118.989,33.6067,淮安市,市监测站,细颗粒物(PM2.5),77,73,61,56,42,32,,60,42,41,48,8,12,0.5,0.6
2025-01-07T2200,1213A,119.135,33.5039,淮安市,楚州区监测站,颗粒物(PM10),68,85,64,47,33,1,,56,33,70,49,7,9,0.5,0.6
2025-01-07T2200,1214A,119.0186,33.6297,淮安市,淮阴区监测站,颗粒物(PM10),64,78,68,37,39,20,,59,44,56,47,8,11,0.7,0.6
2025-01-07T2200,3426A,118.8755,33.2894,淮安市,新华书店,细颗粒物(PM2.5),60,60,55,43,31,32,,62,51,43,31,9,11,0.5,0.5
2025-01-07T2200,2282A,116.8004,33.975,淮北市,监测站,颗粒物(PM10),78,106,71,50,34,45,,62,52,28,35,9,8,1.2,1.2
2025-01-07T2200,2283A,116.8091,33.9007,淮北市,烈山区政府,细颗粒物(PM2.5),114,144,96,86,51,15,,71,48,73,57,12,7,1.0,0.7
2025-01-07T2200,3330A,116.8873,33.9836,淮北市,杜集区检察院,细颗粒物(PM2.5),95,126,86,71,41,38,,69,58,36,30,10,6,0.6,0.5
2025-01-07T2200,4017A,116.7923,33.9535,淮北市,市博物馆,颗粒物(PM10),80,109,81,58,43,42,,65,56,37,42,12,9,0.7,0.8
2025-01-07T2200,2277A,116.8305,32.7727,淮南市,潘集区政府,细颗粒物(PM2.5),83,95,77,61,50,31,,64,52,50,42,9,11,0.5,0.4
2025-01-07T2200,2278A,117.0067,32.6524,淮南市,师范学院,颗粒物(PM10),66,82,63,36,38,21,,55,38,62,37,9,8,0.9,0.7
2025-01-07T2200,2279A,116.8569,32.5951,淮南市,谢家集区政府,颗粒物(PM10),68,85,57,41,31,48,,60,55,29,28,8,9,0.6,0.6
2025-01-07T2200,2280A,116.8281,32.633,淮南市,八公山区政府,颗粒物(PM10),54,57,54,29,26,63,,72,72,23,29,4,6,0.4,0.4
2025-01-07T2200,2281A,116.6325,32.6201,淮南市,焦岗湖风景区管理处,颗粒物(PM10),55,59,48,35,29,40,,45,45,10,17,1,3,0.3,0.2
2025-01-07T2200,2894A,117.0566,32.6531,淮南市,经济技术开发区消防队,颗粒物(PM10),67,83,64,46,34,32,,64,48,48,26,8,9,0.5,0.4
2025-01-07T2200,3329A,117.0108,32.5893,淮南市,山南新区,颗粒物(PM10),68,86,57,44,25,37,,58,44,43,26,9,9,0.6,0.5
2025-01-07T2200,2446A,114.9028,30.4742,黄冈市,职工中心,颗粒物(PM10),80,109,95,57,47,38,,57,51,58,38,12,10,0.6,0.4
2025-01-07T2200,2929A,114.8858,30.4519,黄冈市,红卫路,细颗粒物(PM2.5),75,92,87,55,46,36,,58,50,53,32,9,8,1.1,0.8
2025-01-07T2200,3398A,114.9136,30.4445,黄冈市,市林业局,细颗粒物(PM2.5),78,95,82,57,45,42,,59,53,44,23,14,11,1.0,0.7
2025-01-07T2200,2672A,102.0199,35.5102,黄南藏族自治州,同仁县隆务镇,颗粒物(PM10),63,75,62,42,49,76,,91,87,5,6,7,8,0.7,0.7
2025-01-07T2200,2295A,118.2903,29.6963,黄山市,延安路89号,细颗粒物(PM2.5),70,74,76,51,44,38,,80,75,26,21,4,5,0.5,0.4
2025-01-07T2200,2296A,118.327,29.7178,黄山市,黄山东路89号,颗粒物(PM10),70,89,89,46,42,39,,68,60,26,25,6,7,0.5,0.5
2025-01-07T2200,2297A,118.1371,30.2756,黄山市,黄山区政府5号楼,细颗粒物(PM2.5),54,49,72,38,36,25,,67,51,15,12,8,8,0.5,0.5
2025-01-07T2200,2423A,115.0601,30.2313,黄石市,沈家营,细颗粒物(PM2.5),84,106,110,62,55,22,,58,50,53,46,14,12,1.0,0.8
2025-01-07T2200,2424A,115.0817,30.2006,黄石市,陈家湾,,,,95,,61,,,26,,,41,,8,,0.9
2025-01-07T2200,2426A,114.8988,30.2019,黄石市,铁山,颗粒物(PM10),90,130,103,64,64,6,,51,33,54,42,5,9,0.6,0.6
2025-01-07T2200,2427A,115.0307,30.2092,黄石市,团城山,细颗粒物(PM2.5),89,104,104,66,55,25,,58,51,49,44,12,9,1.1,0.9
2025-01-07T2200,3149A,115.0235,30.1578,黄石市,笔架山北路,颗粒物(PM10),66,82,83,47,51,38,,60,54,29,35,11,11,0.7,0.9
2025-01-07T2200,1392A,114.4183,23.0528,惠州市,河南岸金山湖子站,颗粒物(PM10),64,77,75,43,50,59,,130,114,45,28,9,8,0.7,0.7
2025-01-07T2200,1393A,114.4053,23.0822,惠州市,下埔横江三路子站,颗粒物(PM10),67,84,78,47,49,78,,145,130,42,29,7,8,0.9,0.8
2025-01-07T2200,1394A,114.4103,23.1142,惠州市,江北云山西路子站,颗粒物(PM10),59,68,76,37,48,110,,153,144,27,30,8,10,0.8,0.8
2025-01-07T2200,1395A,114.4645,22.7833,惠州市,惠阳区承修路船湖子站,颗粒物(PM10),56,61,81,23,42,84,,124,112,18,30,8,9,0.4,0.5
2025-01-07T2200,1396A,114.5317,22.7422,惠州市,大亚湾管委会子站,颗粒物(PM10),53,55,65,22,36,92,,140,123,26,38,11,11,0.5,0.6
2025-01-07T2200,3314A,114.4338,22.8134,惠州市,惠阳秋长,颗粒物(PM10),59,68,84,21,42,102,,149,136,23,36,6,8,0.7,0.8
2025-01-07T2200,3452A,114.6517,22.775,惠州市,大亚湾霞涌,颗粒物(PM10),60,69,60,33,38,71,,127,112,27,22,7,8,0.5,0.5
2025-01-07T2200,2240A,130.9762,45.3001,鸡西市,环保局,细颗粒物(PM2.5),78,70,78,57,52,46,,48,45,19,32,9,13,0.6,0.8
2025-01-07T2200,2243A,130.9429,45.3039,鸡西市,第一中学,细颗粒物(PM2.5),69,66,52,50,41,38,,50,41,28,30,7,10,0.4,0.5
2025-01-07T2200,3707A,131.0207,45.3073,鸡西市,欧美日汽修厂,细颗粒物(PM2.5),88,92,107,65,71,51,,45,45,12,27,4,16,0.3,0.8
2025-01-07T2200,3709A,130.9967,45.3106,鸡西市,市政设施管理处,细颗粒物(PM2.5),70,72,90,51,62,44,,42,42,20,37,7,13,0.9,1.1
2025-01-07T2200,2367A,114.9754,27.0803,吉安市,红声器材厂,颗粒物(PM10),71,91,90,42,46,66,,88,82,43,34,18,15,0.7,0.6
2025-01-07T2200,2368A,114.9658,27.0999,吉安市,市森林工业局,颗粒物(PM10),71,91,87,44,46,74,,85,81,31,29,20,17,0.7,0.7
2025-01-07T2200,2369A,114.99,27.1312,吉安市,市环境监测站,颗粒物(PM10),74,97,83,53,49,72,,94,88,34,29,16,18,0.6,0.6
2025-01-07T2200,2370A,115.0093,27.0968,吉安市,青原区法院,颗粒物(PM10),71,91,88,46,51,79,,96,90,37,38,14,15,0.6,0.6
2025-01-07T2200,1772A,126.54,43.8622,吉林市,哈达湾,,44,44,63,23,46,51,,57,55,17,30,12,10,0.6,0.8
2025-01-07T2200,1773A,126.5844,43.8358,吉林市,东局子,,38,37,58,26,46,48,,59,56,18,26,9,7,0.5,0.8
2025-01-07T2200,1774A,126.5052,43.8245,吉林市,电力学院,,43,32,75,30,67,50,,60,57,14,30,8,11,0.5,1
2025-01-07T2200,1775A,126.6133,43.8972,吉林市,江北,,46,46,69,31,52,54,,58,56,15,27,10,13,0.6,0.9
2025-01-07T2200,1776A,126.555,43.8306,吉林市,江南公园,,38,32,61,26,52,50,,56,54,18,31,11,11,0.6,0.9
2025-01-07T2200,1778A,126.7061,43.7133,吉林市,丰满,,30,26,43,21,41,49,,57,55,13,13,6,6,0.6,0.7
2025-01-07T2200,2868A,126.4739,43.953,吉林市,九站,,50,48,83,35,64,50,,55,54,18,38,12,11,0.6,0.9
2025-01-07T2200,1299A,116.9862,36.6114,济南市,科干所,,34,34,44,12,16,61,,61,59,22,26,10,10,0.7,0.7
2025-01-07T2200,1300A,116.9376,36.665,济南市,农科所,颗粒物(PM10),61,71,63,24,20,11,,54,33,70,45,19,15,0.8,0.7
2025-01-07T2200,1301A,117.1265,36.6734,济南市,开发区,,42,42,43,20,21,50,,58,51,28,28,10,9,0.7,0.6
2025-01-07T2200,1303A,117.0624,36.6868,济南市,省种子仓库,颗粒物(PM10),56,61,53,39,26,16,,58,42,67,33,16,10,1.0,0.7
2025-01-07T2200,1304A,116.9489,36.6447,济南市,机床二厂,颗粒物(PM10),68,85,67,27,24,12,,59,38,63,39,35,21,1.2,1
2025-01-07T2200,1305A,117.0495,36.663,济南市,市监测站,,37,37,45,15,16,52,,61,50,28,30,9,9,0.7,0.7
2025-01-07T2200,1306A,116.7675,36.5484,济南市,长清党校,,49,49,51,24,22,15,,66,52,66,30,11,10,1.0,0.9
2025-01-07T2200,1616A,117.6795,36.229,济南市,技术学院,细颗粒物(PM2.5),85,100,67,63,38,6,,49,33,68,48,20,17,1.7,1.4
2025-01-07T2200,1961A,117.532,36.6868,济南市,东山小学,,42,42,46,17,15,40,,58,43,33,31,8,9,0.7,0.7
2025-01-07T2200,3059A,117.7161,36.2049,济南市,泰兴公司,细颗粒物(PM2.5),98,129,80,73,44,10,,49,29,75,51,26,18,1.4,1.1
2025-01-07T2200,3064A,117.6867,36.2171,济南市,莱芜战役纪念馆,细颗粒物(PM2.5),92,129,80,68,37,10,,50,35,75,54,18,15,1.4,1.3
2025-01-07T2200,3494A,117.1673,36.9782,济南市,济阳区政府,颗粒物(PM10),59,68,63,27,22,17,,53,42,50,32,16,13,0.6,0.6
2025-01-07T2200,3495A,117.1171,36.63,济南市,锦屏中学,,34,34,37,12,15,56,,63,56,24,25,10,9,0.4,0.4
2025-01-07T2200,3682A,116.9814,36.6819,济南市,济南四建,颗粒物(PM10),54,58,51,27,22,14,,52,35,68,42,23,14,1.2,0.9
2025-01-07T2200,1653A,116.6251,35.4302,济宁市,火炬城,颗粒物(PM10),59,67,52,36,21,13,,55,45,58,42,12,10,0.8,0.7
2025-01-07T2200,1655A,116.5491,35.4042,济宁市,电化厂,细颗粒物(PM2.5),77,98,84,56,41,6,,51,36,80,58,22,19,0.9,0.8
2025-01-07T2200,3500A,116.5814,35.3707,济宁市,北湖一中,"颗粒物(PM10),细颗粒物(PM2.5)",58,66,64,41,38,23,,54,43,57,52,13,12,1.1,1.2
2025-01-07T2200,3501A,116.8249,35.5593,济宁市,服务中心,颗粒物(PM10),63,76,71,43,33,7,,59,43,76,50,19,15,0.9,0.8
2025-01-07T2200,3678A,116.5907,35.4054,济宁市,市第七中学,颗粒物(PM10),60,70,63,36,28,21,,59,47,60,51,9,7,1.0,1
2025-01-07T2200,2255A,130.2751,46.8028,佳木斯市,佳纺,细颗粒物(PM2.5),64,64,54,46,46,14,,44,35,48,24,11,6,1.3,0.8
2025-01-07T2200,2256A,130.3995,46.8307,佳木斯市,发电厂,细颗粒物(PM2.5),64,46,39,46,39,40,,47,44,12,16,8,8,0.6,0.6
2025-01-07T2200,2257A,130.3258,46.7975,佳木斯市,环保局,细颗粒物(PM2.5),55,50,50,39,40,8,,38,32,55,26,15,9,1.2,0.8
2025-01-07T2200,2258A,130.3648,46.8032,佳木斯市,十一中,,46,37,45,32,42,40,,40,37,18,22,7,6,0.5,0.6
2025-01-07T2200,2259A,130.3794,46.7588,佳木斯市,四丰,颗粒物(PM10),62,74,68,36,37,20,,35,23,30,22,1,1,0.9,0.8
2025-01-07T2200,1252A,120.7436,30.778,嘉兴市,清河小学,颗粒物(PM10),59,68,91,41,54,3,,54,33,78,41,10,11,0.6,1.3
2025-01-07T2200,1253A,120.726,30.7478,嘉兴市,嘉兴学院,细颗粒物(PM2.5),72,83,91,52,52,9,,58,40,73,38,8,9,1.2,0.8
2025-01-07T2200,2872A,120.7846,30.7525,嘉兴市,南湖区残联,颗粒物(PM10),65,80,103,42,50,14,,60,37,71,39,9,10,0.9,0.8
2025-01-07T2200,3407A,120.6916,30.7739,嘉兴市,秀洲住建,细颗粒物(PM2.5),62,71,91,44,54,3,,60,37,73,42,8,8,0.9,0.8
2025-01-07T2200,1945A,98.2908,39.7711,嘉峪关市,气象局,颗粒物(PM10),60,70,54,31,23,22,,65,53,57,29,12,23,0.5,0.6
2025-01-07T2200,2884A,98.2672,39.7978,嘉峪关市,酒钢宾馆,颗粒物(PM10),71,92,73,29,29,20,,53,46,48,34,23,58,0.5,1
2025-01-07T2200,3248A,98.2643,39.7724,嘉峪关市,雄关区,颗粒物(PM10),55,59,55,33,26,38,,58,54,37,38,13,20,0,0.8
2025-01-07T2200,1383A,113.1064,22.6058,江门市,北街,,46,46,98,26,77,90,,173,154,37,74,5,7,0.6,0.9
2025-01-07T2200,1384A,113.0731,22.5835,江门市,西区,颗粒物(PM10),63,75,141,30,78,95,,180,162,29,72,9,10,0.6,0.9
2025-01-07T2200,1385A,113.0219,22.5311,江门市,圭峰西,"颗粒物(PM10),细颗粒物(PM2.5)",52,53,93,36,78,104,,184,169,31,56,6,7,0.6,0.9
2025-01-07T2200,1386A,113.0828,22.5947,江门市,东湖,细颗粒物(PM2.5),62,54,121,44,82,99,,177,159,28,66,8,9,0.6,0.9
2025-01-07T2200,3311A,113.1075,22.5647,江门市,江海富民,颗粒物(PM10),73,96,132,39,71,100,,188,170,32,70,8,10,0.6,0.9
2025-01-07T2200,3449A,113.05,22.4667,江门市,新会银湖,细颗粒物(PM2.5),52,51,97,36,87,95,,192,169,30,57,7,7,0.5,0.8
2025-01-07T2200,1828A,113.227,35.2125,焦作市,市环保局,,48,48,51,14,19,55,,61,54,18,22,9,10,0.7,0.8
2025-01-07T2200,1830A,113.1992,35.2590,焦作市,影视城,,40,40,40,20,21,60,,69,68,20,18,8,10,0.8,0.9
2025-01-07T2200,3169A,113.2725,35.2067,焦作市,太极体育中心,颗粒物(PM10),52,54,52,9,15,57,,63,59,24,28,11,12,0.7,0.8
2025-01-07T2200,3335A,113.3137,35.2641,焦作市,马村街道办,,49,49,49,20,22,55,,60,59,16,20,8,8,0.6,0.7
2025-01-07T2200,3336A,113.2465,35.2373,焦作市,焦作技师学院,,36,36,47,17,19,54,,64,58,29,29,9,9,0.6,0.7
2025-01-07T2200,3477A,113.1656,35.2539,焦作市,中站许衡医院,,46,46,47,26,23,56,,59,57,20,22,5,8,0.6,0.7
2025-01-07T2200,3981A,113.2449,35.1803,焦作市,原李万街道办,颗粒物(PM10),54,57,52,9,18,42,,64,55,28,23,7,10,0.8,0.8
2025-01-07T2200,1708A,116.3701,23.5345,揭阳市,新兴,颗粒物(PM10),65,79,76,32,48,106,,116,104,18,31,7,10,0.6,0.7
2025-01-07T2200,1709A,116.3264,23.5443,揭阳市,西马,颗粒物(PM10),71,92,83,29,47,110,,131,112,16,30,8,10,0.5,0.7
2025-01-07T2200,1710A,116.3611,23.5626,揭阳市,东兴,颗粒物(PM10),67,84,83,27,41,103,,122,111,20,31,10,12,0.7,0.8
2025-01-07T2200,1711A,116.4151,23.5294,揭阳市,渔湖,颗粒物(PM10),60,70,79,38,41,109,,106,101,18,42,11,14,0.6,0.7
2025-01-07T2200,3320A,116.403,23.5699,揭阳市,曲溪,颗粒物(PM10),69,88,80,39,46,111,,131,118,26,37,5,10,0.7,0.8
2025-01-07T2200,1944A,102.1692,38.5167,金昌市,天庆家园,,48,47,63,33,40,54,,76,70,18,25,15,24,0.8,1.1
2025-01-07T2200,3170A,102.1864,38.5253,金昌市,市委党校,细颗粒物(PM2.5),69,64,92,50,46,60,,94,82,36,29,10,34,1.1,0.9
2025-01-07T2200,4022A,102.1647,38.5371,金昌市,金川区人防中心,细颗粒物(PM2.5),75,92,74,55,47,49,,74,69,19,22,12,24,0.8,0.8
2025-01-07T2200,1262A,119.647,29.077,金华市,十五中,细颗粒物(PM2.5),113,161,124,85,58,6,,56,31,78,59,5,5,0.7,0.8
2025-01-07T2200,1263A,119.686,29.1029,金华市,监测站,细颗粒物(PM2.5),103,153,129,77,58,2,,48,25,90,69,6,7,1.1,0.9
2025-01-07T2200,3659A,119.656,29.1131,金华市,气象局,颗粒物(PM10),108,166,132,78,54,1,,53,28,85,65,6,7,1.0,0.8
2025-01-07T2200,1767A,121.1115,41.0879,锦州市,南山,,19,17,53,8,46,58,,56,55,13,33,12,17,0.5,1.3
2025-01-07T2200,1768A,121.0533,40.8434,锦州市,开发区,,39,39,121,19,49,37,,40,32,30,62,13,30,0.6,1.1
2025-01-07T2200,1769A,121.1836,41.1119,锦州市,百股街道,,20,20,44,9,27,62,,60,55,8,25,8,15,0.3,0.8
2025-01-07T2200,1770A,121.1178,41.1222,锦州市,天安街道,,32,32,38,11,21,62,,58,56,6,21,8,16,0.5,0.7
2025-01-07T2200,1771A,121.1303,41.1386,锦州市,北湖公园,,20,20,30,10,16,56,,56,54,8,16,8,20,0.4,0.6
2025-01-07T2200,2160A,112.85,35.5051,晋城市,自来水公司,,39,39,45,14,17,64,,68,66,21,31,10,11,0.7,0.8
2025-01-07T2200,2161A,112.8318,35.4936,晋城市,白云商贸,颗粒物(PM10),53,56,38,9,10,62,,70,66,21,27,9,9,0.6,0.7
2025-01-07T2200,2162A,112.8508,35.4887,晋城市,市环保局,,44,44,40,12,17,60,,68,65,24,32,9,10,0.9,0.9
2025-01-07T2200,2163A,112.8676,35.4897,晋城市,技术学院,,32,32,42,9,13,59,,74,69,29,33,8,10,0.6,0.7
2025-01-07T2200,2165A,112.8453,35.546,晋城市,白马寺,,32,32,25,12,13,52,,58,57,11,9,15,12,0.7,0.6
2025-01-07T2200,3620A,112.8271,35.4828,晋城市,泽州一中,,22,22,27,12,8,66,,71,70,22,25,8,7,0.7,0.7
2025-01-07T2200,2171A,112.7532,37.6945,晋中市,锦纶小区,,48,48,65,17,22,36,,65,60,35,35,7,19,0.4,0.6
2025-01-07T2200,2173A,112.7249,37.7067,晋中市,南都小区,,46,46,65,26,29,42,,68,62,30,37,9,22,0.4,0.6
2025-01-07T2200,2174A,112.6991,37.6982,晋中市,榆次区政府,,41,41,66,13,28,47,,66,61,26,37,7,21,0.5,0.9
2025-01-07T2200,2865A,112.7195,37.6828,晋中市,榆次三中,,48,48,68,14,22,40,,64,59,31,35,12,21,0.8,0.9
2025-01-07T2200,2439A,112.2014,31.0481,荆门市,竹园小学,颗粒物(PM10),73,96,110,48,45,6,,59,39,62,30,12,14,0.9,0.6
2025-01-07T2200,2440A,112.1969,30.9891,荆门市,掇刀,颗粒物(PM10),81,112,107,58,45,7,,61,38,71,31,11,11,1.1,0.6
2025-01-07T2200,2441A,112.2213,31.0386,荆门市,石化一小,颗粒物(PM10),86,121,115,62,48,8,,59,41,79,33,13,12,1.1,0.5
2025-01-07T2200,3012A,112.1849,31.0362,荆门市,西山林语,颗粒物(PM10),63,75,102,44,41,37,,61,47,28,23,7,9,0.5,0.5
2025-01-07T2200,3547A,112.1632,31.0138,荆门市,龙泉中学南校,颗粒物(PM10),69,87,109,46,49,30,,64,51,32,20,14,14,0.8,0.7
2025-01-07T2200,1844A,112.2494,30.3197,荆州市,市图书馆,细颗粒物(PM2.5),84,101,95,62,59,28,,70,56,55,31,6,7,0.9,0.7
2025-01-07T2200,1845A,112.2008,30.3544,荆州市,市委党校,细颗粒物(PM2.5),82,96,96,60,59,28,,67,48,53,33,8,9,0.7,0.6
2025-01-07T2200,3194A,112.2747,30.3122,荆州市,管委会,细颗粒物(PM2.5),87,104,99,64,60,13,,73,54,62,27,6,7,1.0,0.7
2025-01-07T2200,3548A,112.1655,30.3364,荆州市,学苑路,细颗粒物(PM2.5),72,86,91,52,56,54,,76,68,51,43,11,13,0.6,0.8
2025-01-07T2200,2342A,117.3102,29.3867,景德镇市,王港中学,,,,,,,,,,,,,,,,
2025-01-07T2200,2343A,117.2117,29.2933,景德镇市,老干部活动中心,颗粒物(PM10),69,87,84,44,42,37,,73,61,30,27,5,6,0.9,0.8
2025-01-07T2200,2344A,117.1894,29.2789,景德镇市,兽医站,颗粒物(PM10),79,107,95,39,36,49,,84,70,22,20,4,4,0.6,0.5
2025-01-07T2200,2345A,117.1547,29.2617,景德镇市,台达陶瓷,颗粒物(PM10),82,114,99,52,35,13,,83,58,72,38,45,15,0.9,0.5
2025-01-07T2200,2346A,117.2461,29.2956,景德镇市,陶研所,颗粒物(PM10),62,73,70,34,32,38,,77,66,25,24,3,3,0.5,0.5
2025-01-07T2200,1803A,115.9872,29.6815,九江市,十里,细颗粒物(PM2.5),64,58,61,46,32,12,,55,42,48,24,8,9,0.7,0.6
2025-01-07T2200,1804A,115.9584,29.7046,九江市,茅山头,细颗粒物(PM2.5),57,56,66,40,33,32,,60,51,42,25,6,7,0.7,0.7
2025-01-07T2200,1805A,115.9877,29.7295,九江市,西园,颗粒物(PM10),56,62,61,37,30,23,,49,40,57,29,9,9,0.4,0.4
2025-01-07T2200,1806A,116.0172,29.6547,九江市,五七二七厂,颗粒物(PM10),53,56,73,28,31,44,,54,49,22,25,6,7,0.3,0.4
2025-01-07T2200,1808A,115.9114,29.6038,九江市,综合工业园,颗粒物(PM10),54,58,69,36,36,16,,52,36,69,37,11,10,0.3,0.3
2025-01-07T2200,1809A,116.0721,29.7535,九江市,石化总厂,颗粒物(PM10),53,56,67,30,36,27,,52,45,43,26,10,11,0.6,0.6
2025-01-07T2200,1810A,115.9773,29.5698,九江市,庐山气象台,颗粒物(PM10),70,90,91,47,46,111,,100,100,11,12,14,9,1.0,0.9
2025-01-07T2200,3190A,116.0254,29.6994,九江市,外国语学校,细颗粒物(PM2.5),57,60,67,40,32,32,,53,45,35,22,8,8,0.5,0.5
2025-01-07T2200,2658A,98.5061,39.7443,酒泉市,仓门街子站,颗粒物(PM10),81,112,55,44,24,21,,78,66,49,20,14,15,1.1,0.7
2025-01-07T2200,2659A,98.4989,39.7256,酒泉市,油田生活基地,颗粒物(PM10),104,158,66,48,24,8,,68,52,54,23,14,13,1.2,0.6
2025-01-07T2200,2698A,76.0072,39.4467,喀什地区,巡警大队,细颗粒物(PM2.5),143,160,195,109,111,31,,74,74,101,69,9,8,2.4,2.9
2025-01-07T2200,2699A,75.9755,39.4694,喀什地区,吾办,细颗粒物(PM2.5),135,160,170,103,115,11,,68,65,119,66,2,3,2.9,2.6
2025-01-07T2200,4027A,75.9483,39.4689,喀什地区,老干局,细颗粒物(PM2.5),182,221,199,137,105,7,,73,68,116,58,8,5,4.3,3.1
2025-01-07T2200,1824A,114.3389,34.7781,开封市,肿瘤医院,颗粒物(PM10),76,101,76,44,41,11,,56,42,63,45,6,5,0.7,0.6
2025-01-07T2200,1826A,114.2885,34.7965,开封市,世纪星幼儿园,细颗粒物(PM2.5),67,81,69,48,47,10,,55,40,64,42,4,6,0.5,0.5
2025-01-07T2200,3147A,114.3438,34.8106,开封市,龙亭公园,颗粒物(PM10),71,91,70,38,35,14,,58,45,68,48,3,4,0.6,0.6
2025-01-07T2200,3210A,114.3644,34.7964,开封市,汴京公园,颗粒物(PM10),85,120,87,58,48,10,,60,39,71,50,9,7,0.6,0.6
2025-01-07T2200,3473A,114.2485,34.8306,开封市,技师学院,颗粒物(PM10),52,53,67,23,31,31,,59,52,52,43,3,4,0.3,0.3
2025-01-07T2200,3592A,114.4644,34.7556,开封市,祥符区生态环境局,颗粒物(PM10),74,97,83,48,45,18,,57,41,59,48,7,6,0.4,0.4
2025-01-07T2200,1951A,84.895,45.6094,克拉玛依市,长征新村,,46,42,49,32,35,41,,57,49,37,30,5,5,0.7,0.7
2025-01-07T2200,1952A,84.8988,45.5893,克拉玛依市,南林小区,,46,46,42,32,33,52,,60,52,16,14,4,4,0.8,0.8
2025-01-07T2200,1954A,84.905,44.3396,克拉玛依市,独山子区,细颗粒物(PM2.5),104,94,119,78,97,69,,68,68,25,31,4,4,0.8,1.1
2025-01-07T2200,1955A,85.6979,46.098,克拉玛依市,乌尔禾区商贸楼,细颗粒物(PM2.5),62,49,24,44,26,67,,76,76,33,23,4,4,1.0,0.8
2025-01-07T2200,3612A,85.1045,45.6899,克拉玛依市,白碱滩区新站,,49,40,41,34,28,39,,65,51,40,26,9,8,1.0,1
2025-01-07T2200,2697A,76.1454,39.7142,克孜勒苏柯尔克孜自治州,市人民政府,细颗粒物(PM2.5),105,126,115,79,80,51,,90,88,63,27,5,5,1.3,1.1
2025-01-07T2200,3665A,76.1658,39.7157,克孜勒苏柯尔克孜自治州,克州文化中心,细颗粒物(PM2.5),128,153,114,97,82,36,,79,77,85,38,9,9,1.6,1.1
2025-01-07T2200,1450A,102.8204,24.8886,昆明市,呈贡新区,,40,40,31,27,23,57,,84,79,20,14,5,8,0.5,0.6
2025-01-07T2200,1451A,102.6251,24.9608,昆明市,西山森林公园,,,,,,,,,,,,,,,,
2025-01-07T2200,1452A,102.7252,25.0902,昆明市,龙泉镇,,45,45,29,27,20,70,,86,84,14,16,8,7,0.5,0.6
2025-01-07T2200,1453A,102.7266,25.0375,昆明市,东风东路,,37,37,32,21,24,59,,85,81,16,14,7,7,0.5,0.5
2025-01-07T2200,1454A,102.6742,25.0669,昆明市,金鼎山,,33,33,36,23,23,65,,84,82,17,16,6,7,0.6,0.5
2025-01-07T2200,1455A,102.6644,25.0401,昆明市,碧鸡广场,,40,36,31,28,25,59,,83,80,22,17,8,9,0.6,0.6
2025-01-07T2200,3179A,102.7494,25.0119,昆明市,官渡区博物馆,,40,38,33,28,23,65,,88,85,15,11,7,7,0.7,0.6
2025-01-07T2200,3375A,102.8017,24.8336,昆明市,青年创业园,,38,38,35,22,23,50,,92,84,26,22,6,8,0.3,0.3
2025-01-07T2200,3550A,102.7997,24.9786,昆明市,昆明学院,,35,35,34,22,24,68,,86,83,13,15,8,9,0.6,0.6
2025-01-07T2200,3551A,102.5967,24.6736,昆明市,晋宁区生态环境分局,,45,45,36,27,23,67,,90,88,14,11,2,2,0.7,0.7
2025-01-07T2200,3552A,102.6678,24.9856,昆明市,云天化总部,,30,29,28,21,20,76,,94,91,8,8,7,7,0.3,0.4
2025-01-07T2200,1456A,91.1319,29.6514,拉萨市,八廓街,,37,37,19,10,10,99,,104,102,10,17,7,6,0.2,0.3
2025-01-07T2200,1457A,91.1221,29.6747,拉萨市,市环保局,,33,33,30,19,18,92,,108,106,19,20,6,6,0.7,0.6
2025-01-07T2200,1458A,91.0874,29.6475,拉萨市,区监测站,,34,20,15,8,9,106,,111,110,10,16,6,6,0.4,0.4
2025-01-07T2200,1459A,91.1774,29.6541,拉萨市,西藏大学,,35,35,30,13,14,104,,106,105,7,18,6,5,0.4,0.5
2025-01-07T2200,1460A,90.9798,29.6588,拉萨市,区辐射站,,38,38,28,16,17,92,,105,99,24,20,8,8,0.6,0.6
2025-01-07T2200,1461A,91.0834,29.6292,拉萨市,拉萨火车站,,36,25,13,8,8,113,,116,116,5,8,4,4,0.3,0.4
2025-01-07T2200,2520A,109.2203,23.7256,来宾市,来宾技工学校,细颗粒物(PM2.5),102,124,138,76,108,66,,118,110,40,50,17,14,1.3,1.2
2025-01-07T2200,3535A,109.1781,23.7297,来宾市,兴宾区政府,细颗粒物(PM2.5),134,144,156,102,121,82,,119,,26,38,13,12,1.0,1.1
2025-01-07T2200,4002A,109.2416,23.7461,来宾市,中南小学,细颗粒物(PM2.5),108,127,141,81,101,57,,110,97,36,45,15,10,1.3,1.2
2025-01-07T2200,1476A,103.631,36.1031,兰州市,兰炼宾馆,细颗粒物(PM2.5),92,109,67,68,38,10,,70,50,87,49,23,22,1.3,0.7
2025-01-07T2200,1477A,104.1373,35.9454,兰州市,榆中兰大校区,,,,,,,,,,,,,,,,
2025-01-07T2200,1478A,103.8412,36.0726,兰州市,生物制品所,颗粒物(PM10),69,88,66,49,39,4,,45,29,81,60,18,22,1.0,0.9
2025-01-07T2200,1479A,103.831,36.0464,兰州市,铁路设计院,细颗粒物(PM2.5),87,99,75,64,45,4,,44,19,97,62,16,20,1.4,1
2025-01-07T2200,3186A,103.7158,36.1058,兰州市,教育港,颗粒物(PM10),77,103,70,52,38,7,,63,40,80,46,21,26,1.1,0.8
2025-01-07T2200,3241A,103.7439,36.0842,兰州市,百合公园,细颗粒物(PM2.5),73,86,62,53,32,8,,59,42,88,50,16,23,1.3,0.9
2025-01-07T2200,3242A,103.9611,35.998,兰州市,和平,细颗粒物(PM2.5),63,65,82,45,49,61,,53,49,37,49,12,26,0.8,1
2025-01-07T2200,3245A,103.6633,36.533,兰州新区,新区管委会,"颗粒物(PM10),细颗粒物(PM2.5)",59,68,51,42,30,42,,82,71,32,22,13,14,0.5,0.5
2025-01-07T2200,3246A,103.6975,36.4789,兰州新区,舟曲中学,颗粒物(PM10),55,59,38,25,19,54,,78,71,27,21,10,17,0.5,0.5
2025-01-07T2200,1067A,116.6708,39.5111,廊坊市,药材公司,,39,39,26,3,9,55,,58,44,10,25,4,4,0.3,0.5
2025-01-07T2200,1068A,116.7214,39.5589,廊坊市,开发区,,28,28,22,3,5,61,,65,57,6,18,4,4,0.2,0.3
2025-01-07T2200,1070A,116.7244,39.5269,廊坊市,北华航天学院,,40,40,27,3,7,62,,64,54,1,17,7,7,0.3,0.4
2025-01-07T2200,2919A,116.7022,39.5453,廊坊市,河北工业大学,,36,36,26,3,7,62,,66,59,9,20,4,5,0.2,0.3
2025-01-07T2200,2535A,103.7723,29.5462,乐山市,花湖湾,颗粒物(PM10),55,60,76,38,62,34,,47,44,32,28,4,5,0.6,0.5
2025-01-07T2200,2536A,103.7627,29.5844,乐山市,牛耳桥,细颗粒物(PM2.5),65,56,83,47,74,26,,41,36,37,31,5,5,0.6,0.7
2025-01-07T2200,2537A,103.7508,29.6006,乐山市,市第三水厂,细颗粒物(PM2.5),64,57,87,46,77,20,,43,37,45,34,3,4,0.6,0.7
2025-01-07T2200,2538A,103.7571,29.5664,乐山市,市监测站,细颗粒物(PM2.5),57,46,77,40,68,40,,48,46,20,25,4,4,1.2,1.4
2025-01-07T2200,3361A,103.7311,29.5628,乐山市,理工大学,细颗粒物(PM2.5),58,50,89,41,77,33,,48,42,29,30,6,7,0.6,0.8
2025-01-07T2200,2598A,100.2143,26.8576,丽江市,西南郊,,29,28,28,6,11,92,,96,96,3,3,5,4,0.7,0.8
2025-01-07T2200,2599A,100.2497,26.8802,丽江市,丽江古城,,28,18,24,18,15,89,,93,92,7,8,8,9,0.4,0.5
2025-01-07T2200,2600A,100.2203,26.8906,丽江市,市中心,,27,9,14,8,9,84,,91,90,8,8,8,9,0.4,0.4
2025-01-07T2200,1267A,119.914,28.4514,丽水市,监测站大楼,细颗粒物(PM2.5),74,95,76,54,47,32,,76,68,51,36,5,6,0.7,0.6
2025-01-07T2200,1268A,119.93,28.4586,丽水市,莲都小学,颗粒物(PM10),71,92,82,47,45,52,,79,75,31,34,8,7,0.7,0.7
2025-01-07T2200,1269A,119.879,28.4231,丽水市,余庄前,颗粒物(PM10),70,89,77,48,49,32,,76,62,30,31,4,5,0.5,0.5
2025-01-07T2200,1173A,119.176,34.5885,连云港市,市环境监测站,颗粒物(PM10),70,90,67,46,30,29,,60,50,52,46,13,17,0.9,0.9
2025-01-07T2200,3000A,119.3581,34.6972,连云港市,德源药业,"颗粒物(PM10),细颗粒物(PM2.5)",58,66,54,41,28,13,,61,47,59,47,11,10,0.4,0.4
2025-01-07T2200,3007A,119.178,34.844,连云港市,新城一中,细颗粒物(PM2.5),72,72,62,52,33,34,,63,54,45,47,12,12,1.0,0.9
2025-01-07T2200,3008A,119.3608,34.7519,连云港市,胡沟管理处,颗粒物(PM10),59,68,50,36,22,20,,57,47,49,35,15,10,0.8,0.7
2025-01-07T2200,3009A,119.1478,34.5911,连云港市,矿山设计院,颗粒物(PM10),74,97,73,53,32,25,,58,46,51,46,13,16,0.7,0.6
2025-01-07T2200,3434A,119.2413,34.6539,连云港市,工贸学校,颗粒物(PM10),60,70,44,41,24,35,,64,55,43,32,16,14,0.7,0.5
2025-01-07T2200,3664A,119.4172,34.7341,连云港市,连云街道,颗粒物(PM10),54,58,38,26,19,60,,63,63,21,22,12,10,0.5,0.4
2025-01-07T2200,2571A,102.3431,27.8099,凉山彝族自治州,青龙寺,,36,36,35,13,12,66,,69,68,9,9,6,6,0.7,0.7
2025-01-07T2200,2572A,102.2721,27.8415,凉山彝族自治州,邛海宾馆,,23,23,41,13,27,66,,68,68,12,14,10,10,0.7,0.8
2025-01-07T2200,2573A,102.2625,27.898,凉山彝族自治州,西昌市政府,,23,23,38,12,26,68,,64,64,8,12,7,9,0.8,0.9
2025-01-07T2200,2574A,102.2685,27.8851,凉山彝族自治州,凉山州政府,,21,21,38,14,25,63,,63,63,9,14,9,8,0.6,0.6
2025-01-07T2200,2575A,102.237,27.8914,凉山彝族自治州,长安,,26,26,45,15,27,67,,67,67,14,19,11,9,0.6,0.5
2025-01-07T2200,2212A,123.2,41.1953,辽阳市,宏伟区,细颗粒物(PM2.5),88,80,84,65,51,8,,55,36,51,35,18,18,1.1,0.9
2025-01-07T2200,2213A,123.1683,41.2495,辽阳市,新华园,细颗粒物(PM2.5),95,110,105,71,68,6,,54,34,72,52,20,24,1.7,1.7
2025-01-07T2200,2214A,123.2354,41.2639,辽阳市,滨河路,细颗粒物(PM2.5),63,49,71,45,47,9,,59,40,54,39,8,22,1.0,1.1
2025-01-07T2200,2215A,123.149,41.2991,辽阳市,铁西工业园,细颗粒物(PM2.5),133,102,136,101,77,3,,55,24,59,49,8,13,1.5,1.7
2025-01-07T2200,2227A,125.1358,42.8845,辽源市,环保局,,28,28,55,14,40,57,,62,58,13,31,8,9,0.4,1.1
2025-01-07T2200,3239A,125.0764,42.9078,辽源市,银鹰制药,,26,26,57,17,43,54,,57,54,16,31,8,8,0.5,1
2025-01-07T2200,1625A,115.9848,36.4372,聊城市,区政府,"颗粒物(PM10),细颗粒物(PM2.5)",64,78,65,46,34,37,,59,46,39,47,18,16,1.0,1
2025-01-07T2200,2878A,116.0072,36.4343,聊城市,聊大东校,颗粒物(PM10),67,83,73,42,33,33,,55,42,45,49,13,12,0.9,0.8
2025-01-07T2200,3200A,115.9819,36.4978,聊城市,监控中心,颗粒物(PM10),65,79,68,44,32,28,,57,41,55,51,18,16,1.0,1
2025-01-07T2200,3513A,116.0445,36.4361,聊城市,九州社区,"颗粒物(PM10),细颗粒物(PM2.5)",62,74,59,44,29,30,,60,47,46,43,16,13,0.7,0.7
2025-01-07T2200,4018A,116.0567,36.4608,聊城市,星美广场,颗粒物(PM10),63,75,54,39,24,41,,61,50,37,32,16,13,0.8,0.8
2025-01-07T2200,2632A,94.3681,29.6376,林芝市,林芝监测站,,30,12,14,6,5,93,,90,90,1,2,7,6,0.4,0.4
2025-01-07T2200,2633A,94.3616,29.6616,林芝市,林芝人民医院,,28,,14,17,7,87,,86,86,1,2,6,6,0.4,0.4
2025-01-07T2200,2603A,100.0781,23.8982,临沧市,市环保局,细颗粒物(PM2.5),58,56,35,41,22,45,,82,74,21,15,10,10,0.5,0.5
2025-01-07T2200,2604A,100.0894,23.8822,临沧市,市气象局,细颗粒物(PM2.5),60,58,37,43,29,44,,83,74,22,15,9,9,0.7,0.6
2025-01-07T2200,1733A,111.5531,36.0783,临汾市,临钢医院,,26,,35,12,16,10,,58,49,52,31,2,7,0.6,0.7
2025-01-07T2200,1734A,111.5028,36.0714,临汾市,技工学校,细颗粒物(PM2.5),59,54,41,42,27,20,,60,53,40,29,10,10,0.7,0.8
2025-01-07T2200,1736A,111.5018,36.0855,临汾市,市委,,40,40,46,10,17,23,,62,56,43,30,2,6,0.6,0.7
2025-01-07T2200,3018A,111.505,36.1014,临汾市,唐尧大酒店,颗粒物(PM10),51,51,44,7,17,13,,57,50,51,31,5,9,0.8,0.8
2025-01-07T2200,3668A,111.5036,36.0414,临汾市,城南,细颗粒物(PM2.5),90,94,48,67,26,4,,58,45,60,36,11,9,0.8,0.7
2025-01-07T2200,2667A,103.2069,35.5993,临夏回族自治州,环保局,细颗粒物(PM2.5),104,131,90,78,49,19,,69,61,58,30,15,14,2.0,1.3
2025-01-07T2200,2668A,103.2417,35.6057,临夏回族自治州,建设大厦,颗粒物(PM10),109,168,94,71,43,14,,71,56,55,27,14,16,1.8,1.3
2025-01-07T2200,1618A,118.3429,35.0532,临沂市,沂河小区,颗粒物(PM10),64,78,64,44,33,22,,59,43,60,50,34,23,0.7,0.6
2025-01-07T2200,1619A,118.295,35.0583,临沂市,鲁南制药厂,颗粒物(PM10),79,107,79,54,37,6,,60,35,75,52,41,24,0.6,0.5
2025-01-07T2200,1620A,118.2794,34.9976,临沂市,新光毛纺厂,,,,54,,30,18,,62,42,68,48,41,16,0.9,0.7
2025-01-07T2200,1621A,118.3956,35.0888,临沂市,河东保险公司,细颗粒物(PM2.5),60,66,58,43,31,36,,64,53,41,45,14,12,0.7,0.7
2025-01-07T2200,3370A,118.3564,35.0215,临沂市,十里堡居委,颗粒物(PM10),68,85,58,41,29,14,,64,48,60,46,25,16,1.1,0.9
2025-01-07T2200,3496A,118.3604,35.1084,临沂市,南坊新区,颗粒物(PM10),58,66,63,34,30,37,,62,50,48,51,10,11,0.6,0.4
2025-01-07T2200,3860A,118.3920,35.0300,临沂市,皇山花园小区,颗粒物(PM10),70,90,53,41,23,16,,62,48,64,47,24,12,0.5,0.3
2025-01-07T2200,1870A,109.4856,24.3895,柳州市,柳东小学,细颗粒物(PM2.5),84,82,88,62,66,93,,112,109,22,23,16,14,0.7,0.8
2025-01-07T2200,1871A,109.4157,24.3277,柳州市,环保监测站,细颗粒物(PM2.5),89,101,94,66,62,65,,108,98,30,27,13,16,0.7,0.8
2025-01-07T2200,1872A,109.389,24.341,柳州市,河西水厂,细颗粒物(PM2.5),80,87,115,59,72,60,,95,87,35,44,15,23,1.1,1
2025-01-07T2200,1873A,109.4311,24.2921,柳州市,市四中,细颗粒物(PM2.5),87,69,78,64,57,92,,113,109,24,28,14,14,1.3,1.3
2025-01-07T2200,1874A,109.4006,24.3631,柳州市,市九中,,,,94,70,72,60,,104,91,34,33,10,15,0.9,1
2025-01-07T2200,1875A,109.4958,24.3134,柳州市,古亭山,细颗粒物(PM2.5),74,85,70,54,48,90,,119,116,24,22,16,20,0.8,0.8
2025-01-07T2200,3402A,109.5422,24.3996,柳州市,市二中,细颗粒物(PM2.5),84,73,69,62,52,87,,112,108,24,29,14,13,0.8,0.8
2025-01-07T2200,2307A,116.5079,31.737,六安市,监测大楼,细颗粒物(PM2.5),57,54,44,40,26,20,,55,39,58,34,10,6,0.6,0.5
2025-01-07T2200,2308A,116.4738,31.7643,六安市,皖西学院,颗粒物(PM10),71,92,54,51,29,6,,62,41,74,38,6,5,1.0,0.8
2025-01-07T2200,2309A,116.4996,31.7905,六安市,朝阳厂,颗粒物(PM10),62,74,49,41,28,3,,59,42,73,35,3,3,1.0,0.8
2025-01-07T2200,2310A,116.5567,31.7886,六安市,开发区,细颗粒物(PM2.5),102,136,75,76,37,6,,60,34,52,37,5,4,0.8,0.6
2025-01-07T2200,2576A,104.8,26.5892,六盘水市,窑上,,,,39,,18,,,50,,,14,,12,,1.0
2025-01-07T2200,2577A,104.83,26.5917,六盘水市,黄土坡,,19,19,19,12,17,57,,56,55,14,18,10,10,0.9,1.1
2025-01-07T2200,2578A,104.89,26.5939,六盘水市,水钢,,22,17,21,15,15,59,,60,60,12,16,3,4,1.0,1.1
2025-01-07T2200,2579A,104.8475,26.5894,六盘水市,民中,,17,17,18,9,13,54,,49,48,14,19,9,9,0.9,1
2025-01-07T2200,2580A,104.9544,26.5506,六盘水市,双水,,20,7,18,6,14,63,,60,60,10,13,8,8,0.8,0.9
2025-01-07T2200,2335A,117.0189,25.1181,龙岩市,龙岩师专,,,,,,,,,,,,,,,,
2025-01-07T2200,2336A,117.0217,25.1033,龙岩市,龙岩市监测站,细颗粒物(PM2.5),73,72,52,53,38,40,,112,89,58,31,7,9,0.7,0.7
2025-01-07T2200,2337A,117.0258,25.0661,龙岩市,闽西职业技术学院,颗粒物(PM10),66,81,65,35,35,55,,108,94,47,34,6,10,0.7,0.7
2025-01-07T2200,2338A,117.0196,25.0306,龙岩市,龙岩学院,,48,48,48,31,31,61,,111,97,24,23,12,10,0.5,0.5
2025-01-07T2200,2665A,105.0822,33.3261,陇南市,汉王镇固水子,,,,,,,,,,,,,,,,
2025-01-07T2200,2885A,104.9339,33.3826,陇南市,滨江中学,细颗粒物(PM2.5),67,81,65,48,36,41,,88,66,39,29,14,9,1.6,1.2
2025-01-07T2200,3247A,104.955,33.371,陇南市,市总工会,颗粒物(PM10),59,68,61,33,28,48,,93,78,39,23,6,5,0.6,0.6
2025-01-07T2200,2487A,111.9589,27.8901,娄底市,电视发射台,细颗粒物(PM2.5),103,103,83,77,60,56,,84,79,24,20,8,9,0.8,0.7
2025-01-07T2200,2488A,111.9975,27.725,娄底市,市监测站,细颗粒物(PM2.5),119,149,127,90,76,54,,66,63,30,35,12,15,0.7,0.8
2025-01-07T2200,2489A,112.0194,27.7314,娄底市,市委党校,细颗粒物(PM2.5),117,147,121,88,73,58,,62,60,32,34,9,9,0.7,0.8
2025-01-07T2200,2490A,111.9561,27.7569,娄底市,涟钢,细颗粒物(PM2.5),122,157,119,92,75,25,,60,54,50,24,10,10,0.9,0.8
2025-01-07T2200,2491A,111.9892,27.7044,娄底市,市政府,细颗粒物(PM2.5),139,157,117,106,73,36,,62,54,43,32,8,8,0.8,0.8
2025-01-07T2200,1893A,105.4324,28.9634,泸州市,九狮山,,,,,,,,,,,,,,,,
2025-01-07T2200,1894A,105.4427,28.9063,泸州市,小市上码头,细颗粒物(PM2.5),99,81,111,74,99,24,,26,23,26,34,2,2,0.7,0.8
2025-01-07T2200,1895A,105.4241,28.8573,泸州市,兰田宪桥,细颗粒物(PM2.5),90,67,104,67,105,33,,25,24,18,32,2,2,0.8,0.9
2025-01-07T2200,1896A,105.4379,28.8833,泸州市,市环监站,细颗粒物(PM2.5),87,75,109,64,95,21,,19,16,29,34,4,4,0.7,0.8
2025-01-07T2200,3490A,105.3617,28.7703,泸州市,纳溪区环保局,细颗粒物(PM2.5),84,77,98,62,90,22,,21,19,25,29,4,4,0.7,0.9
2025-01-07T2200,2183A,111.1406,37.5211,吕梁市,环保局,颗粒物(PM10),66,81,71,28,21,2,,40,29,54,38,3,5,0.4,0.5
2025-01-07T2200,2185A,111.1297,37.5136,吕梁市,自来水公司,颗粒物(PM10),66,82,96,30,24,5,,39,34,48,36,10,11,0.6,0.6
2025-01-07T2200,2867A,111.1283,37.51,吕梁市,马茂庄小学,颗粒物(PM10),59,67,72,25,20,3,,40,28,54,41,16,9,0.6,0.5
2025-01-07T2200,1812A,112.3931,34.6516,洛阳市,市委党校,,37,37,80,16,36,56,,59,59,20,37,4,7,0.4,0.8
2025-01-07T2200,1814A,112.4657,34.6871,洛阳市,豫西宾馆,,46,46,92,22,44,55,,64,63,23,36,7,9,0.5,0.7
2025-01-07T2200,1815A,112.494,34.6886,洛阳市,河南林校,,39,34,81,27,51,50,,60,58,20,35,2,4,0.5,0.8
2025-01-07T2200,1816A,112.3844,34.623,洛阳市,开发区管委会,,44,44,60,30,38,47,,66,62,24,29,8,6,0.5,0.6
2025-01-07T2200,1817A,112.4267,34.6258,洛阳市,市委新办公区,,37,37,60,24,37,58,,71,69,22,30,5,5,0.5,0.6
2025-01-07T2200,3340A,112.6005,34.6326,洛阳市,伊滨,,38,38,81,15,31,64,,68,68,19,37,4,5,0,0.3
2025-01-07T2200,3341A,112.4951,34.6332,洛阳市,中移产业园,,33,33,59,12,27,64,,73,72,20,34,4,6,0.4,0.6
2025-01-07T2200,3593A,112.5736,34.8993,洛阳市,吉利监测站,,,,63,,28,,,32,,,33,,4,,0.5
2025-01-07T2200,3635A,112.3677,34.662,洛阳市,河科大西苑校区,,42,42,82,22,45,56,,66,66,16,29,2,6,0.5,0.8
2025-01-07T2200,3636A,112.4388,34.6781,洛阳市,英才小学,,36,36,84,23,45,48,,61,59,28,39,4,10,0.4,0.7
2025-01-07T2200,2399A,114.051,33.5699,漯河市,三五一五工厂,细颗粒物(PM2.5),63,73,74,45,43,47,,66,56,30,37,10,10,0.6,0.5
2025-01-07T2200,2400A,114.0055,33.5698,漯河市,漯河大学,细颗粒物(PM2.5),77,86,79,56,41,40,,66,50,38,42,8,8,0.5,0.5
2025-01-07T2200,2401A,114.0138,33.5828,漯河市,市水利局,细颗粒物(PM2.5),67,78,74,48,40,39,,67,53,34,35,9,9,0.5,0.6
2025-01-07T2200,2402A,114.0261,33.5698,漯河市,市广电局,细颗粒物(PM2.5),80,90,70,59,44,41,,66,58,34,33,9,9,0.7,0.6
2025-01-07T2200,3478A,113.9749,33.5664,漯河市,市图书馆,颗粒物(PM10),66,81,75,47,42,47,,63,58,32,41,8,8,0.6,0.5
2025-01-07T2200,3479A,114.0967,33.5906,漯河市,召陵区卫健委,细颗粒物(PM2.5),67,80,81,48,49,48,,66,56,36,46,9,10,0.5,0.5
2025-01-07T2200,1798A,118.5092,31.6837,马鞍山市,湖东路四小,颗粒物(PM10),59,67,53,40,24,5,,56,38,81,43,8,9,1.0,0.9
2025-01-07T2200,1799A,118.5024,31.6449,马鞍山市,开发区,颗粒物(PM10),72,93,60,48,30,4,,52,28,61,42,8,10,1.0,0.9
2025-01-07T2200,1800A,118.5228,31.7231,马鞍山市,慈湖,细颗粒物(PM2.5),70,75,56,51,34,4,,49,33,73,54,8,11,1.1,1.1
2025-01-07T2200,1802A,118.6245,31.7241,马鞍山市,濮塘,颗粒物(PM10),52,54,46,34,21,31,,58,35,38,34,10,10,0.4,0.4
2025-01-07T2200,3633A,118.4918,31.6809,马鞍山市,雨山,"颗粒物(PM10),细颗粒物(PM2.5)",63,76,56,45,27,2,,53,33,80,45,11,10,1.1,0.9
2025-01-07T2200,1686A,111.0286,21.4688,茂名市,电白南海,颗粒物(PM10),56,61,79,22,43,140,,152,150,19,28,5,8,0.5,0.8
2025-01-07T2200,1687A,110.9294,21.6533,茂名市,茂石化七小,颗粒物(PM10),58,66,85,27,39,140,,151,147,16,20,10,13,0.6,0.7
2025-01-07T2200,1688A,110.9107,21.6687,茂名市,健康路,细颗粒物(PM2.5),58,61,78,41,50,143,,158,152,21,24,12,13,0.7,0.8
2025-01-07T2200,1689A,110.8592,21.6828,茂名市,高岭,颗粒物(PM10),64,78,92,39,54,132,,153,144,32,32,14,18,0.7,0.8
2025-01-07T2200,3450A,111.01,21.5165,茂名市,电白水东,,,66,76,24,42,130,,151,150,,20,8,13,0.6,0.7
2025-01-07T2200,2539A,104.0308,30.0478,眉山市,黑龙滩水库,细颗粒物(PM2.5),72,82,74,52,53,15,,47,30,18,17,2,3,0.8,0.8
2025-01-07T2200,2540A,103.8416,30.0874,眉山市,气象局,细颗粒物(PM2.5),113,116,105,85,75,20,,39,33,34,42,4,4,0.8,0.7
2025-01-07T2200,3137A,103.8578,30.0744,眉山市,市委党校,细颗粒物(PM2.5),94,80,76,70,62,20,,40,36,42,42,5,5,0.6,0.6
2025-01-07T2200,3148A,103.8291,30.0564,眉山市,区人社局,细颗粒物(PM2.5),107,,75,80,69,16,,38,30,42,47,8,9,0.8,0.7
2025-01-07T2200,1690A,116.1231,24.3284,梅州市,梅江月梅,颗粒物(PM10),63,75,66,42,46,52,,132,110,47,35,11,10,0.7,0.7
2025-01-07T2200,1691A,116.0797,24.2719,梅州市,梅县新城,颗粒物(PM10),74,98,69,49,42,58,,122,90,47,41,5,5,0.8,0.8
2025-01-07T2200,1692A,116.1248,24.2654,梅州市,环境监控中心,细颗粒物(PM2.5),79,78,64,58,40,6,,118,87,79,38,9,10,0.9,0.7
2025-01-07T2200,3315A,116.1233,24.2991,梅州市,梅龙,细颗粒物(PM2.5),80,97,62,59,40,16,,117,93,72,35,7,9,1.1,0.8
2025-01-07T2200,1878A,104.7778,31.4741,绵阳市,富乐山,,40,36,52,28,42,45,,67,66,24,26,2,3,0.6,0.7
2025-01-07T2200,1879A,104.7563,31.4535,绵阳市,市人大,,47,47,66,26,40,24,,56,54,58,41,2,2,0.8,0.9
2025-01-07T2200,1880A,104.6697,31.4668,绵阳市,高新区自来水公司,细颗粒物(PM2.5),58,63,60,41,44,3,,64,52,64,38,4,3,0.7,0.6
2025-01-07T2200,1881A,104.7287,31.5075,绵阳市,三水厂,颗粒物(PM10),52,54,76,35,53,4,,59,50,66,45,6,6,1.0,0.8
2025-01-07T2200,3491A,104.69,31.5322,绵阳市,西科大附属小学,细颗粒物(PM2.5),74,83,68,54,46,8,,52,46,58,38,6,5,1.0,1
2025-01-07T2200,3492A,104.5648,31.5343,绵阳市,安州区旅游局,细颗粒物(PM2.5),77,82,72,56,50,10,,37,32,46,32,10,11,0.9,0.8
2025-01-07T2200,1784A,129.61,44.561,牡丹江市,环保大楼,细颗粒物(PM2.5),64,,60,46,45,53,,40,38,17,37,7,11,0.5,0.7
2025-01-07T2200,1785A,129.6115,44.5782,牡丹江市,文化广场,细颗粒物(PM2.5),64,,65,46,47,50,,42,42,24,38,9,12,0.8,1.1
2025-01-07T2200,1786A,129.5904,44.5963,牡丹江市,第一医院,细颗粒物(PM2.5),67,48,71,48,59,55,,44,44,16,34,8,10,0.3,0.7
2025-01-07T2200,1787A,129.6364,44.6075,牡丹江市,机车工厂,细颗粒物(PM2.5),138,,86,105,58,60,,43,43,13,40,11,25,1.8,1.1
2025-01-07T2200,1788A,129.6386,44.5462,牡丹江市,第一中学,细颗粒物(PM2.5),58,59,50,41,42,52,,41,32,16,30,7,9,0.6,0.7
2025-01-07T2200,2531A,105.0703,29.61,内江市,市监测站,细颗粒物(PM2.5),64,,64,46,70,40,,34,34,14,23,4,5,0.6,0.8
2025-01-07T2200,2532A,105.0717,29.5947,内江市,东兴区政府,颗粒物(PM10),52,53,68,34,64,35,,30,30,18,26,2,2,0.7,0.8
2025-01-07T2200,2533A,105.0653,29.5817,内江市,内江二中,细颗粒物(PM2.5),58,,76,41,68,30,,28,28,25,29,7,8,0.8,0.9
2025-01-07T2200,2534A,105.0406,29.5822,内江市,内江日报社,细颗粒物(PM2.5),55,54,68,39,67,34,,31,31,16,24,9,10,0.8,0.9
2025-01-07T2200,2628A,92.0657,31.4846,那曲市,那曲监测站,,32,15,47,13,26,102,,106,106,6,22,5,9,0.4,1.1
2025-01-07T2200,3128A,92.0506,31.4797,那曲市,那曲会议中心,,34,19,35,10,23,108,,111,111,2,11,2,4,0.4,0.7
2025-01-07T2200,1290A,115.8931,28.6843,南昌市,省外办,颗粒物(PM10),54,58,98,36,50,37,,60,53,46,38,11,10,0.6,0.7
2025-01-07T2200,1291A,115.8886,28.7003,南昌市,省林业公司,,48,48,106,27,45,38,,66,58,44,38,11,11,0.5,0.6
2025-01-07T2200,1292A,115.8126,28.7442,南昌市,林科所,,46,46,98,27,42,49,,72,62,34,31,7,9,0.6,0.7
2025-01-07T2200,1294A,115.8518,28.687,南昌市,建工学校,颗粒物(PM10),54,57,104,25,45,48,,69,62,27,27,11,12,0.6,0.8
2025-01-07T2200,1295A,115.8921,28.6424,南昌市,象湖,颗粒物(PM10),51,51,94,24,46,50,,72,66,35,32,11,12,0.4,0.5
2025-01-07T2200,1296A,115.7423,28.7996,南昌市,武术学校,,39,37,65,27,32,30,,64,54,21,20,2,2,0.7,0.7
2025-01-07T2200,1298A,115.9314,28.6842,南昌市,省站,颗粒物(PM10),55,59,111,24,44,43,,62,56,25,24,10,11,0.5,0.6
2025-01-07T2200,3046A,115.9084,28.6062,南昌市,机电学校,颗粒物(PM10),55,60,118,27,44,42,,66,59,34,28,13,14,0.5,0.6
2025-01-07T2200,3690A,115.9721,28.7031,南昌市,外国语学校,,50,50,109,34,43,38,,62,54,35,31,10,9,0.5,0.5
2025-01-07T2200,1905A,106.056,30.8064,南充市,西山风景区,细颗粒物(PM2.5),55,41,55,39,55,28,,31,31,11,12,3,3,1.0,1
2025-01-07T2200,1906A,106.0789,30.8023,南充市,南充市委,细颗粒物(PM2.5),68,51,72,49,67,20,,23,23,29,26,3,3,0.6,0.7
2025-01-07T2200,1907A,106.1031,30.8217,南充市,南充炼油厂,细颗粒物(PM2.5),67,60,81,48,67,22,,27,27,29,25,3,3,0.6,0.7
2025-01-07T2200,1908A,106.1064,30.7856,南充市,高坪区监测站,细颗粒物(PM2.5),70,55,79,51,64,23,,25,25,26,26,2,2,0.5,0.6
2025-01-07T2200,1909A,106.0642,30.7636,南充市,嘉陵区环保局,细颗粒物(PM2.5),70,56,78,51,66,12,,20,19,31,30,3,4,0.7,0.8
2025-01-07T2200,1910A,106.1087,30.8388,南充市,市环境监测站,细颗粒物(PM2.5),68,61,79,49,64,25,,30,30,19,20,4,5,0.5,0.6
2025-01-07T2200,1151A,118.8086,32.1065,南京市,迈皋桥,颗粒物(PM10),51,52,40,34,22,29,,57,46,60,48,5,4,1.0,0.5
2025-01-07T2200,1152A,118.7538,32.0551,南京市,草场门,颗粒物(PM10),56,61,48,39,24,14,,60,44,73,44,14,10,0.6,0.2
2025-01-07T2200,1153A,118.7794,32.0745,南京市,山西路,颗粒物(PM10),56,61,50,31,23,38,,70,60,77,52,10,5,1.1,0.7
2025-01-07T2200,1154A,118.7752,32.0023,南京市,中华门,颗粒物(PM10),57,63,44,34,22,5,,50,35,87,48,23,15,1.5,1
2025-01-07T2200,1155A,118.8109,32.0309,南京市,瑞金路,颗粒物(PM10),58,66,48,29,22,4,,54,39,84,42,6,7,1.6,1.1
2025-01-07T2200,1156A,118.7997,32.0754,南京市,玄武湖,颗粒物(PM10),54,58,48,31,20,9,,59,44,40,23,13,10,1.1,0.8
2025-01-07T2200,1157A,118.6414,32.0931,南京市,浦口,颗粒物(PM10),57,64,44,34,20,38,,62,56,22,15,10,8,0.6,0.3
2025-01-07T2200,1158A,118.7356,31.9996,南京市,奥体中心,颗粒物(PM10),59,67,48,36,22,6,,62,46,84,47,13,12,1.2,0.8
2025-01-07T2200,1159A,118.9125,32.1028,南京市,仙林大学城,颗粒物(PM10),59,68,48,34,22,1,,53,29,78,46,10,8,0.7,0.5
2025-01-07T2200,3422A,118.8436,31.9198,南京市,江宁彩虹桥,颗粒物(PM10),60,70,48,39,20,7,,61,39,73,42,11,9,0.9,0.5
2025-01-07T2200,3423A,119.0138,31.6494,南京市,溧水永阳,细颗粒物(PM2.5),53,44,39,37,27,21,,60,48,46,34,4,4,0.5,0.3
2025-01-07T2200,3424A,118.879,31.3302,南京市,高淳老职中,,46,,44,32,25,32,,64,52,37,29,4,6,0.6,0.4
2025-01-07T2200,3427A,118.8554,32.3578,南京市,六合雄州,细颗粒物(PM2.5),59,51,43,42,22,19,,63,45,43,22,6,4,0.8,0.6
2025-01-07T2200,1401A,108.3103,22.7881,南宁市,二十一中,细颗粒物(PM2.5),124,124,113,94,90,121,,163,151,43,42,13,9,1.2,1.1
2025-01-07T2200,1402A,108.3141,22.8528,南宁市,北湖,细颗粒物(PM2.5),137,168,132,104,100,68,,152,114,79,65,16,14,1.5,1.3
2025-01-07T2200,1403A,108.3206,22.8225,南宁市,市监测站,细颗粒物(PM2.5),122,138,110,92,82,93,,147,134,62,44,19,15,1.4,1.3
2025-01-07T2200,1404A,108.3829,22.8037,南宁市,大自然花园,细颗粒物(PM2.5),122,124,106,92,87,118,,154,143,41,40,14,10,1.2,1.1
2025-01-07T2200,1405A,108.4394,22.7904,南宁市,仙葫,细颗粒物(PM2.5),120,109,112,91,98,126,,146,136,28,50,8,8,1.0,1
2025-01-07T2200,1406A,108.2397,22.8467,南宁市,区农职院,细颗粒物(PM2.5),100,112,118,75,83,60,,151,123,54,46,12,18,1.1,1.1
2025-01-07T2200,1407A,108.3275,22.735,南宁市,英华嘉园,细颗粒物(PM2.5),119,133,127,90,98,91,,152,134,48,58,12,11,1.2,1.1
2025-01-07T2200,1408A,108.2257,22.7757,南宁市,沙井镇街道办,细颗粒物(PM2.5),119,160,146,90,95,5,,137,98,116,79,6,7,1.0,1
2025-01-07T2200,3401A,108.4834,22.7618,南宁市,红星社区,细颗粒物(PM2.5),120,121,115,91,85,86,,160,140,51,48,11,11,1.2,1.1
2025-01-07T2200,2331A,118.0966,26.6761,南平市,茫荡山,,,,,,,,,,,,,,,,
2025-01-07T2200,2332A,118.1681,26.6369,南平市,南平市监测站,颗粒物(PM10),54,58,55,35,35,39,,101,71,38,32,4,5,0.7,0.6
2025-01-07T2200,2333A,118.1825,26.6489,南平市,南平铝业有限公司,颗粒物(PM10),58,66,56,39,36,26,,97,68,48,36,6,8,0.8,0.7
2025-01-07T2200,2334A,118.1756,26.6272,南平市,南平七中,细颗粒物(PM2.5),55,57,56,39,35,32,,97,71,39,28,2,3,0.8,0.6
2025-01-07T2200,1168A,120.9098,31.9663,南通市,狼山街道,细颗粒物(PM2.5),68,69,63,49,41,3,,55,31,76,32,6,8,1.2,0.9
2025-01-07T2200,1169A,120.86,32.0005,南通市,虹桥,细颗粒物(PM2.5),69,73,64,50,44,0,,53,34,87,36,9,8,0.7,0.7
2025-01-07T2200,1170A,120.87,32.02,南通市,城中,颗粒物(PM10),60,70,75,38,41,8,,60,34,82,39,9,10,0.9,0.8
2025-01-07T2200,1171A,120.94,31.93,南通市,星湖花园,细颗粒物(PM2.5),73,86,66,53,42,5,,49,25,82,39,11,9,1.1,0.9
2025-01-07T2200,1172A,120.81,32.0417,南通市,紫琅学院,颗粒物(PM10),60,70,70,38,44,3,,64,37,79,39,4,6,1.0,0.9
2025-01-07T2200,3291A,121.067,32.062,南通市,通州监测站,细颗粒物(PM2.5),79,88,74,58,45,9,,68,38,80,40,5,5,0.8,0.7
2025-01-07T2200,3432A,120.9348,31.9883,南通市,环境教育馆,颗粒物(PM10),58,66,65,38,37,5,,61,31,77,37,6,7,1.0,0.8
2025-01-07T2200,2404A,112.5224,33.0122,南阳市,瓦房庄,细颗粒物(PM2.5),80,103,91,59,43,39,,68,62,38,25,9,8,0.7,0.6
2025-01-07T2200,2405A,112.5003,32.9735,南阳市,汉画馆,细颗粒物(PM2.5),87,108,85,64,43,24,,66,54,55,33,9,7,0.6,0.6
2025-01-07T2200,2406A,112.5573,33.027,南阳市,气象站,颗粒物(PM10),83,116,103,48,38,50,,75,69,33,28,8,8,0.7,0.6
2025-01-07T2200,2407A,112.5481,32.9689,南阳市,理工学院,细颗粒物(PM2.5),92,105,84,68,46,43,,69,61,35,28,9,7,0.6,0.5
2025-01-07T2200,4008A,112.5234,32.9922,南阳市,卧龙区政府,细颗粒物(PM2.5),84,114,88,62,41,30,,65,56,46,27,7,6,0.6,0.6
2025-01-07T2200,1234A,121.8358,29.911,宁波市,区环保大楼,细颗粒物(PM2.5),75,82,91,55,49,18,,66,40,64,47,12,11,1.0,0.9
2025-01-07T2200,1235A,121.56,29.82,宁波市,万里学院,细颗粒物(PM2.5),97,119,107,72,62,4,,58,35,79,46,8,7,0.8,0.8
2025-01-07T2200,1236A,121.713,29.9572,宁波市,龙赛医院,细颗粒物(PM2.5),89,126,110,66,55,3,,69,41,91,42,15,12,1.0,0.9
2025-01-07T2200,1239A,121.633,29.7733,宁波市,钱湖水厂,细颗粒物(PM2.5),82,95,115,60,66,25,,60,48,43,44,7,9,0.8,0.8
2025-01-07T2200,1240A,121.5856,29.8635,宁波市,太古小学,细颗粒物(PM2.5),85,106,112,63,60,5,,58,40,88,44,17,11,1.2,1.1
2025-01-07T2200,1241A,121.524,29.8674,宁波市,市环境监测中心,细颗粒物(PM2.5),128,149,105,97,59,2,,58,41,86,46,11,11,1.1,0.9
2025-01-07T2200,2871A,121.6147,29.9017,宁波市,万里国际学校,细颗粒物(PM2.5),79,96,107,58,54,5,,57,38,84,54,13,9,0.8,0.9
2025-01-07T2200,3710A,121.5594,29.8975,宁波市,白沙活动中心,细颗粒物(PM2.5),90,105,103,67,61,5,,59,37,91,51,11,10,0.8,0.7
2025-01-07T2200,2339A,119.5001,26.6946,宁德市,金涵水库,,,,,,,,,,,,,,,,
2025-01-07T2200,2341A,119.5388,26.6612,宁德市,宁德市监测站,,,83,73,49,48,,,122,,7,14,4,5,0.7,0.6
2025-01-07T2200,3209A,119.5231,26.6562,宁德市,宁德一中,颗粒物(PM10),60,70,70,42,46,95,,121,116,12,14,3,4,0.7,0.7
2025-01-07T2200,2618A,98.8601,25.8567,怒江傈僳族自治州,州监测站,颗粒物(PM10),52,53,42,31,23,39,,84,77,31,18,3,4,0.7,0.6
2025-01-07T2200,2619A,98.8546,25.8417,怒江傈僳族自治州,泸水一中,,50,50,39,33,27,21,,61,49,32,22,8,7,0.8,0.5
2025-01-07T2200,1888A,101.6891,26.571,攀枝花市,弄弄坪,颗粒物(PM10),52,54,75,27,45,32,,82,70,53,40,38,30,1.8,1.4
2025-01-07T2200,1889A,101.5769,26.5928,攀枝花市,河门口,颗粒物(PM10),54,57,57,33,37,40,,85,80,35,30,12,16,0.9,1.2
2025-01-07T2200,1890A,101.7169,26.585,攀枝花市,炳草岗,颗粒物(PM10),55,59,76,22,48,23,,80,69,61,41,16,23,0.9,0.9
2025-01-07T2200,1891A,101.7369,26.5008,攀枝花市,仁和,细颗粒物(PM2.5),68,77,50,49,33,13,,85,69,66,27,8,13,1.4,0.9
2025-01-07T2200,2835A,101.7227,26.567,攀枝花市,四十中小,颗粒物(PM10),58,66,78,39,50,33,,74,60,59,40,16,43,1.2,1.1
2025-01-07T2200,1604A,122.0303,41.1489,盘锦市,开发区,颗粒物(PM10),94,137,49,62,33,22,,57,37,42,33,12,14,1.2,1.1
2025-01-07T2200,1605A,122.0485,41.0883,盘锦市,兴隆台,颗粒物(PM10),55,59,46,37,24,40,,53,42,26,36,17,20,0.6,0.8
2025-01-07T2200,1606A,121.8297,41.1028,盘锦市,新生街道,颗粒物(PM10),55,60,32,35,16,10,,59,31,59,40,12,15,0.9,0.7
2025-01-07T2200,1832A,113.3257,33.742,平顶山市,新华旅馆,颗粒物(PM10),74,97,87,46,37,45,,66,54,35,38,8,9,0.5,0.3
2025-01-07T2200,1833A,113.2919,33.737,平顶山市,规划设计院,细颗粒物(PM2.5),80,98,84,59,40,22,,70,54,60,38,7,8,0.6,0.4
2025-01-07T2200,1834A,113.182,33.774,平顶山市,平顶山工学院,颗粒物(PM10),70,90,85,34,37,67,,74,72,16,28,6,8,0.7,0.8
2025-01-07T2200,3204A,113.3025,33.73,平顶山市,规划局,细颗粒物(PM2.5),77,95,82,56,43,31,,66,56,50,36,9,9,0.5,0.4
2025-01-07T2200,3594A,112.8867,33.9116,平顶山市,石龙区,颗粒物(PM10),74,98,88,27,31,14,,74,51,62,31,7,8,0.7,0.7
2025-01-07T2200,2656A,106.6692,35.5461,平凉市,聚贤嘉苑,颗粒物(PM10),58,66,50,28,20,27,,76,58,58,39,18,16,0.7,0.6
2025-01-07T2200,2657A,106.7021,35.5307,平凉市,博物馆,细颗粒物(PM2.5),69,69,59,50,30,29,,73,55,58,36,27,17,0.7,0.7
2025-01-07T2200,2347A,114.0997,27.5002,萍乡市,武功山,细颗粒物(PM2.5),80,76,63,59,47,58,,92,80,24,19,7,8,0.9,0.8
2025-01-07T2200,2348A,113.8385,27.6434,萍乡市,中医院,细颗粒物(PM2.5),132,180,114,100,54,16,,89,68,63,24,21,17,2.0,1
2025-01-07T2200,2349A,113.8493,27.6253,萍乡市,市政府车库,细颗粒物(PM2.5),135,146,100,103,65,22,,89,72,56,27,21,17,1.3,1
2025-01-07T2200,2350A,113.8676,27.6435,萍乡市,市环保局,细颗粒物(PM2.5),139,173,112,106,65,19,,89,72,65,26,21,19,1.7,0.9
2025-01-07T2200,2351A,113.866,27.6198,萍乡市,安源区政府,细颗粒物(PM2.5),133,154,109,101,63,27,,90,76,51,30,16,13,1.1,1
2025-01-07T2200,2319A,119.0141,25.4325,莆田市,荔城区仓后路,颗粒物(PM10),59,67,75,31,38,109,,117,115,14,14,2,3,0.7,0.7
2025-01-07T2200,2320A,119.0015,25.4553,莆田市,莆田市监测站,颗粒物(PM10),51,52,71,28,38,103,,123,118,11,13,3,4,0.6,0.6
2025-01-07T2200,2321A,119.1119,25.4561,莆田市,涵江区六中,颗粒物(PM10),61,71,77,37,37,119,,120,120,14,15,2,2,0.5,0.5
2025-01-07T2200,2322A,119.1013,25.3215,莆田市,秀屿区政府,颗粒物(PM10),65,79,75,44,40,113,,123,121,21,17,4,3,0.5,0.7
2025-01-07T2200,2323A,118.981,25.4792,莆田市,东圳水库,,,,70,,27,,,,,,12,,2,,0.6
2025-01-07T2200,2392A,115.0312,35.7636,濮阳市,环保局,,49,49,56,26,26,39,,55,49,28,39,6,6,0.5,0.5
2025-01-07T2200,2394A,115.0574,35.7609,濮阳市,油田运输公司,颗粒物(PM10),57,63,60,26,21,33,,50,42,30,35,4,5,0.5,0.5
2025-01-07T2200,2395A,115.0866,35.7754,濮阳市,油田物探公司,颗粒物(PM10),59,68,55,31,22,28,,61,43,37,32,6,6,0.6,0.5
2025-01-07T2200,3021A,115,35.7668,濮阳市,濮水河管理处,颗粒物(PM10),64,78,78,30,35,32,,50,39,29,41,7,8,0.5,0.6
2025-01-07T2200,2601A,100.98,22.7633,普洱市,市环保局,,50,50,47,14,14,56,,69,67,14,11,4,4,0.6,0.6
2025-01-07T2200,2602A,100.9817,22.8322,普洱市,普洱第二中学,颗粒物(PM10),51,52,41,34,18,41,,71,65,20,13,5,5,0.7,0.6
2025-01-07T2200,2262A,131.0518,45.8751,七台河市,新一中,,45,45,63,31,49,50,,69,67,24,26,11,10,1.9,2
2025-01-07T2200,3345A,131.0577,45.7879,七台河市,中波台,细颗粒物(PM2.5),54,46,77,38,62,43,,44,41,26,45,13,14,1.0,1.2
2025-01-07T2200,3637A,131.0176,45.7761,七台河市,人民广场,颗粒物(PM10),66,82,100,43,68,41,,44,40,30,44,6,7,0.8,1.1
2025-01-07T2200,3684A,130.8781,45.8222,七台河市,新建矿广场,细颗粒物(PM2.5),79,58,77,58,61,34,,44,42,31,42,10,11,0.8,0.8
2025-01-07T2200,1779A,123.9305,47.3636,齐齐哈尔市,安居小区,,29,23,29,20,16,43,,54,44,16,17,7,9,0.5,0.5
2025-01-07T2200,1780A,123.9488,47.3386,齐齐哈尔市,中心广场,,26,26,25,12,12,44,,55,43,12,13,3,4,0.4,0.4
2025-01-07T2200,1781A,123.9483,47.3227,齐齐哈尔市,农牧车辆厂,,29,29,24,17,11,46,,54,46,11,13,5,6,0.4,0.4
2025-01-07T2200,1783A,123.945,47.2988,齐齐哈尔市,市环境监测站,,,37,30,,15,48,,57,42,11,17,3,4,0.4,0.5
2025-01-07T2200,3662A,123.6333,47.2075,齐齐哈尔市,富区青少年活动中心,颗粒物(PM10),53,56,32,29,16,37,,60,44,23,14,11,9,0.7,0.5
2025-01-07T2200,2591A,107.9783,26.5747,黔东南苗族侗族自治州,市环境监测站,细颗粒物(PM2.5),74,77,57,54,47,68,,87,72,14,14,4,5,0.5,0.6
2025-01-07T2200,2881A,107.8908,26.5311,黔东南苗族侗族自治州,凯里学院,,,,61,47,44,66,,90,72,16,14,5,5,0.7,0.6
2025-01-07T2200,2593A,107.5228,26.2403,黔南布依族苗族自治州,小围寨,细颗粒物(PM2.5),70,66,64,51,53,67,,79,71,16,19,6,8,0.6,0.6
2025-01-07T2200,3538A,107.5175,26.2978,黔南布依族苗族自治州,沙坝,细颗粒物(PM2.5),73,75,76,53,59,60,,76,67,18,23,5,9,0.4,0.6
2025-01-07T2200,2589A,104.9022,25.0925,黔西南布依族苗族自治州,场坝街,细颗粒物(PM2.5),149,131,89,114,76,75,,99,76,22,17,10,6,0.8,0.7
2025-01-07T2200,2590A,104.8811,25.0992,黔西南布依族苗族自治州,坪东大道,细颗粒物(PM2.5),147,127,88,112,83,71,,92,77,21,18,8,6,0.8,0.8
2025-01-07T2200,2502A,108.6236,21.9667,钦州市,市环保站,细颗粒物(PM2.5),119,173,153,90,82,64,,134,116,64,57,11,14,1.2,1.1
2025-01-07T2200,2503A,108.6549,21.9481,钦州市,沙埠小学,细颗粒物(PM2.5),192,179,136,144,82,19,,135,110,97,60,8,12,1.0,0.9
2025-01-07T2200,2504A,108.5989,21.7431,钦州市,港区一小,颗粒物(PM10),154,258,150,84,71,24,,137,104,107,60,12,13,1.2,1
2025-01-07T2200,3404A,108.5959,21.9633,钦州市,北职校,颗粒物(PM10),88,125,137,58,50,33,,140,123,100,56,8,15,1.1,1.1
2025-01-07T2200,1042A,119.5134,39.8207,秦皇岛市,北戴河环保局,,36,36,18,17,9,11,,54,39,51,22,2,2,0.5,0.3
2025-01-07T2200,1043A,119.7493,40.0116,秦皇岛市,第一关,,30,25,18,21,14,41,,51,35,23,34,3,4,0.3,0.4
2025-01-07T2200,1044A,119.5897,39.9499,秦皇岛市,监测站,,38,38,22,11,11,43,,53,38,21,20,3,4,0.3,0.4
2025-01-07T2200,1046A,119.5251,39.9041,秦皇岛市,建设大厦,,35,32,21,24,15,22,,51,30,40,24,2,2,0.4,0.3
2025-01-07T2200,3132A,119.610547,39.943889,秦皇岛市,文明里,,30,27,24,21,17,38,,50,37,31,25,4,5,0.4,0.3
2025-01-07T2200,1307A,120.6659,36.2403,青岛市,仰口,,31,31,35,20,18,54,,61,57,18,17,6,6,0.5,0.6
2025-01-07T2200,1310A,120.4134,36.0658,青岛市,市南区东部子站,,44,44,45,24,16,8,,53,38,70,34,14,12,0.9,0.7
2025-01-07T2200,1311A,120.3664,36.1032,青岛市,四方区子站,,48,48,38,22,18,7,,56,37,80,40,21,17,0.9,0.9
2025-01-07T2200,1312A,120.2994,36.054,青岛市,市南区西部子站,颗粒物(PM10),58,66,32,17,12,21,,60,49,53,24,14,12,0.9,0.8
2025-01-07T2200,1313A,120.4581,36.0858,青岛市,崂山区子站,,19,19,30,12,13,37,,59,46,36,31,11,12,0.9,0.9
2025-01-07T2200,1314A,120.1983,35.9608,青岛市,黄岛区子站,,44,44,28,27,14,24,,59,35,47,24,10,9,1.0,0.7
2025-01-07T2200,1315A,120.3999,36.3083,青岛市,城阳区子站,颗粒物(PM10),75,100,57,51,25,9,,55,31,71,53,16,13,1.8,1.1
2025-01-07T2200,1966A,120.0405,35.8735,青岛市,黄岛区4号,颗粒物(PM10),56,61,37,31,14,22,,60,43,56,32,11,10,1.0,0.8
2025-01-07T2200,3362A,120.5014,36.4034,青岛市,即墨2号,细颗粒物(PM2.5),88,109,58,65,29,0,,48,30,73,47,26,15,1.5,0.9
