timepoint,stationcode,longitude,latitude,area,positionname,primarypollutant,aqi,pm10,pm10_24h,pm2_5,pm2_5_24h,o3,o3_24h,o3_8h,o3_8h_24h,no2,no2_24h,so2,so2_24h,co,co_24h
2022-07-30T14:00:00,1001A,116.3621,39.8784,北京市,万寿西宫,,50,24,58,11,36,159,159,94,94,10,18,3,3,0.7,0.7
2022-07-30T14:00:00,1002A,116.2202,40.2915,北京市,定陵(对照点),臭氧1小时,60,15,53,17,22,206,168,110,110,5,9,3,3,0.6,0.6
2022-07-30T14:00:00,1003A,116.4174,39.9289,北京市,东四,臭氧1小时,79,24,48,16,30,183,183,120,120,10,19,1,2,0.5,0.5
2022-07-30T14:00:00,1004A,116.4072,39.8863,北京市,天坛,,45,25,52,17,36,142,142,89,89,9,16,3,3,0.5,0.5
2022-07-30T14:00:00,1005A,116.462,39.9365,北京市,农展馆,臭氧1小时,64,22,56,14,35,171,171,108,108,9,19,3,3,0.6,0.6
2022-07-30T14:00:00,1006A,116.3392,39.9295,北京市,官园,臭氧1小时,83,21,49,16,35,186,186,114,114,7,15,3,3,0.6,0.5
2022-07-30T14:00:00,1007A,116.2878,39.9611,北京市,海淀万柳,臭氧1小时,53,29,54,23,39,162,162,104,104,19,22,3,2,0.5,0.6
2022-07-30T14:00:00,1008A,116.6636,40.135,北京市,顺义新城,,45,25,65,19,43,165,143,98,98,3,10,3,3,0.7,0.7
2022-07-30T14:00:00,1009A,116.6275,40.3275,北京市,怀柔镇,,49,23,46,17,31,190,154,111,111,9,19,3,3,0.6,0.5
2022-07-30T14:00:00,1010A,116.2296,40.217,北京市,昌平镇,臭氧1小时,68,30,56,19,37,196,174,104,104,8,16,3,3,0.6,0.6
2022-07-30T14:00:00,1011A,116.3966,39.9821,北京市,奥体中心,,46,38,62,18,37,149,147,108,99,9,16,3,3,0.7,0.5
2022-07-30T14:00:00,1012A,116.184,39.9136,北京市,古城,臭氧1小时,62,18,61,18,38,169,169,105,105,10,22,3,3,0.5,0.5
2022-07-30T14:00:00,1015A,117.1444,39.1661,天津市,勤俭道,,29,24,38,17,27,183,91,93,80,15,18,8,8,0.6,0.8
2022-07-30T14:00:00,1017A,117.237,39.1082,天津市,大直沽八号路,,30,26,37,21,28,164,93,75,68,14,21,8,8,0.5,0.6
2022-07-30T14:00:00,1018A,117.202,39.0927,天津市,前进道,,31,30,34,21,23,177,99,81,76,12,19,5,6,0.7,0.7
2022-07-30T14:00:00,1019A,117.1837,39.2133,天津市,淮河道,,32,20,46,13,28,190,101,83,83,16,23,8,8,0.6,0.8
2022-07-30T14:00:00,1021A,117.307,39.0877,天津市,跃进路,,29,26,34,15,20,170,91,75,75,16,25,6,7,0.5,0.6
2022-07-30T14:00:00,1023A,117.707,39.0343,天津市,第四大街,,23,7,32,3,19,156,72,58,58,14,30,5,5,0.5,0.7
2022-07-30T14:00:00,1024A,117.457,38.8394,天津市,永明路,,32,10,35,8,20,169,101,91,91,1,13,6,7,0.5,0.7
2022-07-30T14:00:00,1026A,117.764,39.1587,天津市,汉北路,,35,9,24,5,18,160,111,93,86,3,9,7,6,0.8,0.8
2022-07-30T14:00:00,1027A,117.157,38.9194,天津市,团泊洼(对照点),,42,18,37,17,21,172,134,97,97,3,20,6,4,1.0,1
2022-07-30T14:00:00,1029A,114.4422,38.0444,石家庄市,职工医院,臭氧1小时,87,30,36,27,24,189,189,112,112,10,21,5,6,0.7,0.5
2022-07-30T14:00:00,1030A,114.6063,38.0266,石家庄市,高新区,,50,46,49,25,27,171,159,106,106,13,25,5,5,0.6,0.6
2022-07-30T14:00:00,1031A,114.4898,38.1328,石家庄市,西北水源,臭氧1小时,58,40,53,25,31,179,166,107,107,8,36,3,3,0.6,0.7
2022-07-30T14:00:00,1032A,114.4586,38.0058,石家庄市,西南高教,臭氧1小时,80,51,42,28,22,184,184,111,111,12,27,3,2,0.7,0.7
2022-07-30T14:00:00,1033A,114.5331,38.0178,石家庄市,世纪公园,颗粒物(PM10),51,51,47,35,28,161,145,94,94,5,17,4,4,0.6,0.5
2022-07-30T14:00:00,1034A,114.509,38.0457,石家庄市,人民会堂,臭氧1小时,74,37,38,29,22,179,179,108,108,10,19,5,5,0.7,0.7
2022-07-30T14:00:00,1035A,114.3524,37.8911,石家庄市,封龙山(对照点),,45,23,24,23,23,142,142,127,115,11,8,3,4,0.6,0.6
2022-07-30T14:00:00,1037A,118.131,39.6363,唐山市,雷达站,,32,31,49,22,28,167,100,118,90,13,12,3,4,0.5,1
2022-07-30T14:00:00,1038A,118.1725,39.6334,唐山市,物资局,,,,38,,20,148,,136,,,10,,6,,0.6
2022-07-30T14:00:00,1040A,118.1705,39.6506,唐山市,十二中,,33,30,46,20,27,160,105,103,86,13,21,2,5,0.7,1.1
2022-07-30T14:00:00,1041A,118.1869,39.622,唐山市,小山,,34,32,39,23,28,164,107,97,83,13,22,3,6,0.9,1.1
2022-07-30T14:00:00,1042A,119.5134,39.8207,秦皇岛市,北戴河环保局,,36,34,24,4,4,130,113,114,80,4,11,3,2,0.3,0.5
2022-07-30T14:00:00,1043A,119.7493,40.0116,秦皇岛市,第一关,,33,19,19,14,4,125,104,62,62,2,35,6,5,0.6,0.6
2022-07-30T14:00:00,1044A,119.5897,39.9499,秦皇岛市,监测站,,34,22,20,17,17,148,106,67,67,3,17,5,6,0.1,0.3
2022-07-30T14:00:00,1046A,119.5251,39.9041,秦皇岛市,建设大厦,,34,12,23,4,8,140,108,59,59,2,23,1,2,0.1,0.4
2022-07-30T14:00:00,1047A,114.5129,36.61763,邯郸市,环保局,,,,,,,,,,,,,,,,
2022-07-30T14:00:00,1048A,114.5302,36.6116,邯郸市,东污水处理厂,,49,39,41,34,30,148,132,87,87,4,18,4,6,0.9,0.8
2022-07-30T14:00:00,1049A,114.4918,36.5713,邯郸市,矿院,,,37,42,,22,151,137,94,94,5,18,6,7,0.7,0.7
2022-07-30T14:00:00,1050A,114.484,36.6133,邯郸市,丛台公园,,47,47,54,32,26,150,136,91,91,6,18,3,5,0.5,0.5
2022-07-30T14:00:00,1051A,115.493,38.8632,保定市,游泳馆,,49,34,37,19,24,154,154,108,108,9,24,2,4,0.3,0.3
2022-07-30T14:00:00,1052A,115.5213,38.8959,保定市,华电二区,,,,44,,18,153,153,98,98,,18,,5,0.5,0.5
2022-07-30T14:00:00,1053A,115.4713,38.9108,保定市,接待中心,臭氧1小时,53,26,41,7,13,164,162,106,106,8,23,4,4,0.4,0.4
2022-07-30T14:00:00,1054A,115.4612,38.8416,保定市,地表水厂,臭氧1小时,60,35,56,15,21,168,168,112,112,4,21,5,5,0.5,0.5
2022-07-30T14:00:00,1055A,115.4323,38.8697,保定市,胶片厂,臭氧1小时,60,31,33,19,20,168,168,114,114,8,24,4,4,0.6,0.5
2022-07-30T14:00:00,1056A,115.5086,38.8639,保定市,监测站,臭氧1小时,54,44,42,30,25,163,163,112,112,5,23,8,9,0.4,0.5
2022-07-30T14:00:00,1057A,114.8883,40.8336,张家口市,人民公园,,46,29,28,2,7,159,145,126,120,7,10,6,6,0.4,0.4
2022-07-30T14:00:00,1059A,114.8687,40.8042,张家口市,五金库,,44,29,34,15,15,146,140,117,117,10,14,8,8,0.3,0.3
2022-07-30T14:00:00,1060A,114.8902,40.762,张家口市,世纪豪园,,45,35,32,21,12,159,144,129,129,9,12,5,6,0.3,0.3
2022-07-30T14:00:00,1061A,114.8916,40.8661,张家口市,北泵房(对照点),,46,25,30,10,18,160,146,125,120,4,6,6,6,0.6,0.6
2022-07-30T14:00:00,1062A,117.9531,40.9081,承德市,铁路,,42,39,31,20,21,138,134,95,95,7,20,4,4,0.5,0.5
2022-07-30T14:00:00,1063A,117.9392,40.9763,承德市,中国银行,,46,17,22,13,11,146,145,102,102,4,15,6,5,0.4,0.4
2022-07-30T14:00:00,1064A,117.9503,40.928,承德市,开发区,,46,37,31,22,19,148,146,103,103,8,18,3,3,0.5,0.5
2022-07-30T14:00:00,1065A,117.8051,40.9655,承德市,文化中心,,47,27,25,28,19,149,149,105,105,4,16,5,6,0.5,0.4
2022-07-30T14:00:00,1066A,117.9268,41.0026,承德市,离宫(对照点),,43,31,27,13,16,140,137,96,96,4,8,2,1,0.4,0.4
2022-07-30T14:00:00,1067A,116.6708,39.5111,廊坊市,药材公司,,47,32,35,25,23,166,148,98,98,12,21,6,7,0.6,0.5
2022-07-30T14:00:00,1068A,116.7214,39.5589,廊坊市,开发区,,46,32,36,30,29,151,146,91,91,14,27,8,8,0.8,0.7
2022-07-30T14:00:00,1070A,116.7244,39.5269,廊坊市,北华航天学院,细颗粒物(PM2.5),57,32,50,40,34,179,148,94,94,10,23,7,7,0.6,0.5
2022-07-30T14:00:00,1071A,116.8842,38.2991,沧州市,沧县城建局,,37,30,54,22,33,149,118,72,72,7,20,7,8,0.3,0.5
2022-07-30T14:00:00,1072A,116.8584,38.3254,沧州市,电视转播站,,38,21,46,16,32,161,121,77,77,7,19,9,7,0.3,0.4
2022-07-30T14:00:00,1073A,116.8709,38.3228,沧州市,市环保局,,38,29,57,18,29,150,119,72,72,6,20,6,8,0.3,0.4
2022-07-30T14:00:00,1074A,115.6838,37.7541,衡水市,电机北厂,,43,36,39,24,24,136,136,94,94,7,18,8,10,0.4,0.5
2022-07-30T14:00:00,1075A,115.6303,37.7316,衡水市,市监测站,,43,43,57,27,24,137,137,93,92,9,14,6,5,0.6,0.6
2022-07-30T14:00:00,1077A,114.4704,37.0886,邢台市,达活泉,,46,39,38,32,18,158,143,103,103,2,10,7,7,0.4,0.4
2022-07-30T14:00:00,1078A,114.5062,37.0349,邢台市,邢师高专,,46,43,37,32,23,150,142,114,114,5,16,4,5,0.3,0.4
2022-07-30T14:00:00,1079A,114.5237,37.0851,邢台市,路桥公司,,49,49,42,24,16,143,132,96,96,9,23,4,6,0.5,0.5
2022-07-30T14:00:00,1080A,114.4725,37.0719,邢台市,市环保局,颗粒物(PM10),59,68,43,34,21,154,146,107,107,6,14,6,6,0.4,0.4
2022-07-30T14:00:00,1081A,112.5139,37.8873,太原市,尖草坪,臭氧1小时,67,53,51,28,25,203,173,114,114,9,18,7,6,0.7,0.6
2022-07-30T14:00:00,1083A,112.434,38.0108,太原市,上兰(对照点),,,,,,,,,,,,,,,,
2022-07-30T14:00:00,1084A,112.469,37.7124,太原市,晋源,,50,50,51,31,26,159,152,111,111,5,16,6,5,0.6,0.5
2022-07-30T14:00:00,1085A,112.5583,37.7394,太原市,小店,臭氧1小时,59,48,56,31,27,189,167,127,127,10,18,8,8,0.6,0.5
2022-07-30T14:00:00,1086A,112.5369,37.8692,太原市,桃园,臭氧1小时,73,52,54,29,27,203,178,111,111,11,24,8,8,0.7,0.7
2022-07-30T14:00:00,1087A,112.57,37.8195,太原市,坞城,臭氧1小时,58,49,46,25,22,188,166,120,120,7,14,8,7,0.6,0.5
2022-07-30T14:00:00,1088A,112.549,37.9854,太原市,南寨,臭氧1小时,59,44,47,30,26,220,167,103,103,11,23,6,6,0.6,0.5
2022-07-30T14:00:00,1089A,112.4701,37.782,太原市,金胜,,,,,,,,,,,,,,,,
2022-07-30T14:00:00,1090A,111.6507,40.7517,呼和浩特市,呼市一监,臭氧1小时,78,51,49,21,19,182,182,131,131,8,17,11,8,0.5,0.4
2022-07-30T14:00:00,1091A,111.6572,40.8033,呼和浩特市,小召,臭氧1小时,69,51,52,25,21,175,175,127,127,15,29,12,8,0.5,0.5
2022-07-30T14:00:00,1094A,111.7516,40.8369,呼和浩特市,如意水处理厂,臭氧1小时,87,65,62,29,21,189,189,129,129,12,37,13,9,0.6,0.5
2022-07-30T14:00:00,1095A,111.7276,40.8062,呼和浩特市,二十九中,臭氧1小时,70,49,47,27,19,176,176,121,121,14,29,13,10,0.6,0.5
2022-07-30T14:00:00,1096A,111.5512,40.7866,呼和浩特市,工大金川校区,臭氧1小时,64,50,64,20,27,171,171,128,128,8,33,8,8,0.5,0.6
2022-07-30T14:00:00,1097A,111.717,40.7612,呼和浩特市,化肥厂生活区,臭氧1小时,79,71,64,32,26,183,183,126,126,12,25,12,8,0.6,0.5
2022-07-30T14:00:00,1098A,123.6836,41.9339,沈阳市,森林路(对照点),,,,,,,,,,,,,,,,
2022-07-30T14:00:00,1099A,123.505,41.7406,沈阳市,浑南东路,,28,16,25,15,15,96,87,56,56,6,23,9,10,0.5,0.9
2022-07-30T14:00:00,1100A,123.4231,41.6989,沈阳市,新秀街,,46,19,25,32,17,86,76,50,50,11,29,4,5,0.5,1
2022-07-30T14:00:00,1102A,123.5903,41.8411,沈阳市,东陵路,,27,27,26,14,12,90,73,49,49,7,18,13,10,0.4,0.7
2022-07-30T14:00:00,1103A,123.4264,41.8467,沈阳市,陵东街,,30,18,20,12,13,94,94,56,56,8,22,5,4,0.6,0.9
2022-07-30T14:00:00,1104A,123.4114,41.7653,沈阳市,文化路,,32,18,26,11,16,110,100,67,67,10,21,8,10,0.5,0.9
2022-07-30T14:00:00,1105A,123.4678,41.7867,沈阳市,小河沿,,29,22,23,12,13,103,90,59,59,8,21,8,8,0.5,1
2022-07-30T14:00:00,1106A,123.4017,41.7972,沈阳市,太原街,,33,17,22,13,16,109,105,66,66,12,20,5,6,0.4,0.8
2022-07-30T14:00:00,1108A,123.3783,41.9228,沈阳市,京沈街,,41,20,22,14,14,129,129,76,76,7,19,10,10,1.1,1.1
2022-07-30T14:00:00,1109A,121.612,38.9741,大连市,甘井子,,17,17,20,8,12,79,51,39,39,15,20,4,4,0.6,0.5
2022-07-30T14:00:00,1110A,121.565,38.9511,大连市,周水子,,19,19,21,6,12,78,37,31,29,7,14,3,6,0.4,0.5
2022-07-30T14:00:00,1111A,121.5637,38.8845,大连市,星海三站,,23,17,18,12,17,107,73,50,50,16,19,5,6,0.3,0.3
2022-07-30T14:00:00,1112A,121.6302,38.9117,大连市,青泥洼桥,,17,13,18,11,15,80,52,40,40,8,16,6,6,0.5,0.5
2022-07-30T14:00:00,1113A,121.6251,38.8638,大连市,傅家庄,,29,20,18,20,11,89,67,49,49,2,5,8,8,0.7,0.6
2022-07-30T14:00:00,1114A,121.5213,38.8661,大连市,七贤岭,,,,18,,9,80,,84,,,12,,7,,0.6
2022-07-30T14:00:00,1115A,121.2529,38.8061,大连市,旅顺,,19,15,15,10,11,85,60,39,39,5,10,4,4,0.6,0.6
2022-07-30T14:00:00,1116A,121.7485,39.1311,大连市,金州,,20,14,18,14,14,69,30,36,27,6,11,6,6,0.3,0.4
2022-07-30T14:00:00,1117A,121.7811,39.0496,大连市,开发区,,23,23,21,8,15,94,57,46,46,15,17,12,11,0.8,0.8
2022-07-30T14:00:00,1118A,121.9762,39.0631,大连市,双D港,,16,13,16,9,12,85,51,44,44,9,13,9,8,0.3,0.4
2022-07-30T14:00:00,1119A,125.3325,43.9166,长春市,食品厂,,27,26,14,12,7,89,84,72,72,16,18,2,2,0.5,0.7
2022-07-30T14:00:00,1120A,125.2863,43.9027,长春市,客车厂,,30,22,13,10,6,98,94,84,84,13,15,3,3,0.5,0.5
2022-07-30T14:00:00,1121A,125.2841,43.8463,长春市,邮电学院,,30,19,13,10,7,95,95,83,83,7,10,4,4,0.3,0.3
2022-07-30T14:00:00,1122A,125.3716,43.8772,长春市,劳动公园,,35,21,10,11,6,109,109,89,89,4,8,1,2,0.4,0.4
2022-07-30T14:00:00,1123A,125.3297,43.8805,长春市,园林处,,29,21,15,11,10,92,91,75,75,11,13,2,2,0.5,0.5
2022-07-30T14:00:00,1124A,125.4605,43.79,长春市,净月潭,,30,17,11,10,5,104,95,81,81,2,3,4,4,0.2,0.2
2022-07-30T14:00:00,1125A,125.7194,43.515,长春市,甩湾子(对照点),,,,,,,,,,,,,,,,
2022-07-30T14:00:00,1126A,125.3863,43.8447,长春市,经开区环卫处,,32,20,11,13,5,101,101,80,80,7,10,3,3,0.5,0.5
2022-07-30T14:00:00,1127A,125.245,43.7783,长春市,高新区管委会,细颗粒物(PM2.5),64,24,10,46,9,96,96,83,83,5,8,3,4,0.5,0.4
2022-07-30T14:00:00,1128A,125.1761,43.8325,长春市,岱山公园,,29,14,13,11,8,92,92,79,79,4,13,4,4,0.4,0.4
2022-07-30T14:00:00,1129A,126.5422,45.755,哈尔滨市,岭北(对照点),,30,12,13,6,10,97,95,68,68,6,12,5,6,0.5,0.5
2022-07-30T14:00:00,1130A,126.561,45.8167,哈尔滨市,松北商大,,29,18,22,8,10,91,91,65,65,8,14,5,5,0.8,0.8
2022-07-30T14:00:00,1131A,126.979,45.5419,哈尔滨市,阿城会宁,,27,0,13,7,5,86,86,64,64,8,8,10,10,0.5,0.5
2022-07-30T14:00:00,1132A,126.599,45.7222,哈尔滨市,南岗学府路,,29,9,12,6,9,92,92,59,59,4,13,6,7,0.5,0.5
2022-07-30T14:00:00,1133A,126.689,45.7733,哈尔滨市,太平宏伟公园,,,,30,7,8,93,93,62,62,9,21,6,5,0.3,0.4
2022-07-30T14:00:00,1134A,126.635,45.7667,哈尔滨市,道外承德广场,,26,11,19,2,5,83,81,54,54,14,24,8,8,0.5,0.5
2022-07-30T14:00:00,1135A,126.685,45.7319,哈尔滨市,香坊红旗大街,,29,29,25,6,6,86,86,56,56,13,21,10,10,0.5,0.5
2022-07-30T14:00:00,1136A,126.6411,45.7258,哈尔滨市,动力和平路,,,,19,,,90,90,59,59,9,17,7,7,0.6,0.6
2022-07-30T14:00:00,1137A,126.593,45.7478,哈尔滨市,道里建国路,,27,11,21,10,8,86,86,54,54,12,23,7,8,1.2,1.8
2022-07-30T14:00:00,1138A,126.615,45.61,哈尔滨市,平房东轻厂,,30,30,17,7,5,77,77,54,54,5,14,2,2,0.5,0.5
2022-07-30T14:00:00,1139A,126.595,45.9855,哈尔滨市,呼兰师专,,,,30,0,1,82,82,48,48,10,16,8,8,0.7,0.7
2022-07-30T14:00:00,1140A,126.6206,45.6842,哈尔滨市,省农科院,,28,7,12,6,7,90,89,56,56,6,18,7,8,0.4,0.3
2022-07-30T14:00:00,1141A,121.4,31.238,上海市,普陀,,25,22,16,17,8,50,50,35,35,18,13,4,3,0.6,0.3
2022-07-30T14:00:00,1142A,121.478,31.2036,上海市,十五厂,,29,28,20,20,12,35,33,24,24,27,17,1,1,0.8,0.5
2022-07-30T14:00:00,1143A,121.467,31.3008,上海市,虹口,,24,24,19,13,7,39,37,25,25,15,12,3,3,0.4,0.2
2022-07-30T14:00:00,1144A,121.412,31.1654,上海市,徐汇上师大,,21,21,20,14,13,48,48,30,30,20,15,3,2,0.5,0.4
2022-07-30T14:00:00,1145A,121.536,31.2659,上海市,杨浦四漂,,23,14,14,16,10,50,50,37,37,6,10,4,3,0.5,0.4
2022-07-30T14:00:00,1146A,120.978,31.0935,上海市,青浦淀山湖(对照点),,,,,,,,,,,,,,,,
2022-07-30T14:00:00,1147A,121.425,31.2261,上海市,静安监测站,,28,23,19,19,10,38,31,28,28,31,18,3,3,0.7,0.5
2022-07-30T14:00:00,1148A,121.703,31.1907,上海市,浦东川沙,,19,16,20,13,9,59,56,44,44,8,13,2,3,0.2,0.2
2022-07-30T14:00:00,1149A,121.533,31.2284,上海市,浦东新区监测站,,35,30,20,24,13,40,26,24,24,31,16,5,5,0.6,0.4
2022-07-30T14:00:00,1150A,121.577,31.2071,上海市,浦东张江,,18,18,11,11,8,55,55,38,38,12,15,5,4,0.6,0.6
2022-07-30T14:00:00,1151A,118.8086,32.1065,南京市,迈皋桥,,38,33,30,12,10,120,120,60,60,8,28,2,2,0.3,0.4
2022-07-30T14:00:00,1152A,118.7538,32.0551,南京市,草场门,,50,29,23,12,11,160,160,69,69,12,27,3,3,0.4,0.5
2022-07-30T14:00:00,1153A,118.7794,32.0745,南京市,山西路,臭氧1小时,59,31,29,14,11,167,167,80,80,3,23,3,4,0.1,0.3
2022-07-30T14:00:00,1154A,118.7752,32.0023,南京市,中华门,,47,29,28,12,6,150,150,70,70,7,26,4,4,0.8,0.9
2022-07-30T14:00:00,1155A,118.8109,32.0309,南京市,瑞金路,,29,28,26,19,11,102,92,40,39,2,16,4,4,0.5,0.3
2022-07-30T14:00:00,1156A,118.7997,32.0754,南京市,玄武湖,,49,22,25,11,14,154,154,72,72,12,31,5,4,0.6,0.7
2022-07-30T14:00:00,1157A,118.6414,32.0931,南京市,浦口,,45,26,26,5,11,148,141,70,70,9,22,6,5,0.4,0.5
2022-07-30T14:00:00,1158A,118.7356,31.9996,南京市,奥体中心,臭氧1小时,55,34,32,14,16,164,164,74,74,11,27,4,4,0.3,0.4
2022-07-30T14:00:00,1159A,118.9125,32.1028,南京市,仙林大学城,,46,31,26,19,13,145,145,74,74,7,19,6,5,0.5,0.6
2022-07-30T14:00:00,1160A,120.561,31.2472,苏州市,上方山(对照点),,33,33,31,12,10,89,47,44,44,16,13,6,7,0.5,0.4
2022-07-30T14:00:00,1161A,120.628,31.2864,苏州市,南门,,,,,,,,,,,,,,,,
2022-07-30T14:00:00,1162A,120.591,31.3019,苏州市,彩香,,22,13,20,15,9,88,59,45,45,12,8,5,5,0.5,0.4
2022-07-30T14:00:00,1163A,120.596,31.3264,苏州市,轧钢厂,,23,20,22,8,8,89,71,47,47,5,9,6,6,0.3,0.3
2022-07-30T14:00:00,1164A,120.613,31.2703,苏州市,吴中区,,21,16,20,14,10,88,67,53,53,21,16,5,5,0.4,0.3
2022-07-30T14:00:00,1165A,120.543,31.2994,苏州市,苏州新区,,22,17,18,12,11,100,70,49,49,15,14,6,7,0.6,0.5
2022-07-30T14:00:00,1166A,120.669,31.3097,苏州市,苏州工业园区,,21,15,19,9,11,75,66,44,44,10,14,4,5,0.6,0.5
2022-07-30T14:00:00,1167A,120.641,31.3708,苏州市,相城区,,24,18,22,8,12,97,74,47,47,5,15,4,4,0.4,0.4
2022-07-30T14:00:00,1168A,120.9098,31.9663,南通市,狼山街道,,20,20,20,5,3,65,50,45,45,12,9,7,7,0.5,0.4
2022-07-30T14:00:00,1169A,120.86,32.0005,南通市,虹桥,,26,26,22,18,12,67,52,41,41,8,10,11,10,0.5,0.5
2022-07-30T14:00:00,1170A,120.87,32.02,南通市,城中,,35,24,19,24,11,58,53,42,42,6,9,8,8,0.5,0.5
2022-07-30T14:00:00,1171A,120.94,31.93,南通市,星湖花园,,15,8,17,5,6,64,46,40,40,8,7,6,6,0.6,0.5
2022-07-30T14:00:00,1172A,120.81,32.0417,南通市,紫琅学院,,25,25,21,9,5,61,58,40,40,2,4,4,3,0.6,0.6
2022-07-30T14:00:00,1173A,119.176,34.5885,连云港市,市环境监测站,,27,19,21,12,12,87,85,57,57,4,6,2,2,0.3,0.4
2022-07-30T14:00:00,1177A,117.179,34.2761,徐州市,黄河新村,,32,29,27,22,19,106,91,83,77,13,16,6,6,0.6,0.7
2022-07-30T14:00:00,1178A,117.1918,34.2384,徐州市,淮塔,,45,31,29,31,21,103,103,79,76,10,14,5,5,0.4,0.5
2022-07-30T14:00:00,1180A,117.256,34.2153,徐州市,新城区,,42,42,34,22,18,98,91,75,73,8,12,6,6,0.5,0.6
2022-07-30T14:00:00,1181A,117.244,34.2911,徐州市,桃园路,,29,24,32,7,12,108,92,80,77,10,14,2,5,0.6,0.8
2022-07-30T14:00:00,1182A,117.2933,34.2778,徐州市,农科院,,27,27,26,7,11,89,78,62,62,10,20,3,3,0.3,0.4
2022-07-30T14:00:00,1186A,119.389,32.3761,扬州市,邗江监测站,,25,22,27,12,11,120,79,54,54,1,7,6,6,0.6,0.7
2022-07-30T14:00:00,1188A,120.269,31.4867,无锡市,雪浪,,34,34,26,22,12,123,96,59,59,8,14,10,11,0.6,0.6
2022-07-30T14:00:00,1189A,120.275,31.6219,无锡市,黄巷,,36,36,26,19,9,138,98,64,64,13,19,7,8,0.7,0.6
2022-07-30T14:00:00,1190A,120.294,31.56,无锡市,曹张,,,,19,,10,136,83,60,60,12,11,6,6,0.7,0.7
2022-07-30T14:00:00,1191A,120.242,31.5031,无锡市,漆塘,,,,,,,,,,,,,,,,
2022-07-30T14:00:00,1192A,120.3489,31.5863,无锡市,东亭,,24,24,22,12,10,121,73,54,54,12,13,8,8,0.6,0.5
2022-07-30T14:00:00,1193A,120.354,31.5475,无锡市,旺庄,,31,31,20,14,9,132,93,62,62,13,17,11,12,0.7,0.7
2022-07-30T14:00:00,1194A,120.245,31.5631,无锡市,荣巷,,35,29,19,24,12,112,92,60,60,4,7,6,6,0.6,0.5
2022-07-30T14:00:00,1195A,120.299,31.6817,无锡市,堰桥,,,29,24,14,8,141,90,54,54,,8,7,7,0.7,0.5
2022-07-30T14:00:00,1196A,119.9633,31.762,常州市,市监测站,颗粒物(PM10),51,51,28,17,9,125,118,59,59,7,19,7,8,0.6,0.5
2022-07-30T14:00:00,1200A,119.9468,31.7069,常州市,武进监测站,,,49,26,32,19,146,146,73,73,7,15,,16,0.8,1
2022-07-30T14:00:00,1201A,119.9255,31.9087,常州市,安家,,34,34,28,23,20,132,106,62,62,2,15,6,7,0.6,0.6
2022-07-30T14:00:00,1203A,119.6707,32.1875,镇江市,新区办事处,,29,21,27,13,15,132,90,56,56,12,21,3,4,0.5,0.6
2022-07-30T14:00:00,1204A,119.4974,32.1968,镇江市,职教中心,,33,27,26,9,8,120,104,60,60,9,19,3,4,0.6,0.6
2022-07-30T14:00:00,1205A,119.4303,32.1328,镇江市,丹徒区监测站,,36,27,27,17,16,141,114,64,64,3,15,3,4,0.5,0.6
2022-07-30T14:00:00,1206A,119.905,32.4878,泰州市,公园路,,17,17,19,9,11,113,50,42,38,5,8,7,8,0.3,0.4
2022-07-30T14:00:00,1207A,119.9189,32.4625,泰州市,莲花,,20,15,17,14,16,117,48,42,38,4,8,8,9,0.6,0.6
2022-07-30T14:00:00,1209A,119.888,32.4639,泰州市,留学生创业园,,18,16,21,8,11,128,56,46,44,5,8,7,8,0.5,0.6
2022-07-30T14:00:00,1210A,119.036,33.5981,淮安市,钵池山,,18,17,22,12,12,93,56,40,40,3,9,8,8,0.5,0.6
2022-07-30T14:00:00,1211A,119.007,33.575,淮安市,北京南路,,18,17,22,11,14,77,56,41,41,4,10,6,6,0.3,0.4
2022-07-30T14:00:00,1212A,118.989,33.6067,淮安市,市监测站,,22,22,27,7,8,83,58,42,42,5,11,6,6,0.6,0.6
2022-07-30T14:00:00,1213A,119.135,33.5039,淮安市,楚州区监测站,,17,15,23,9,11,98,54,40,40,4,11,7,7,0.4,0.4
2022-07-30T14:00:00,1214A,119.0186,33.6297,淮安市,淮阴区监测站,,24,24,25,11,12,82,59,40,40,3,10,8,8,0.4,0.5
2022-07-30T14:00:00,1215A,120.118,33.4022,盐城市,盐城电厂,,22,22,21,10,7,64,63,56,50,5,8,5,5,0.3,0.2
2022-07-30T14:00:00,1216A,120.156,33.3942,盐城市,市监测站,,19,18,19,5,4,60,58,51,50,3,6,4,3,0.2,0.2
2022-07-30T14:00:00,1218A,120.2144,33.38,盐城市,开发区管委会,,20,8,10,6,6,64,61,51,50,6,9,10,8,0.2,0.2
2022-07-30T14:00:00,1220A,118.293,33.9528,宿迁市,宿迁学院,,17,11,18,9,14,88,54,59,46,1,6,3,3,0.4,0.5
2022-07-30T14:00:00,1221A,118.2442,33.9592,宿迁市,宿迁中学,,38,19,21,26,15,79,51,48,44,2,7,2,1,0.5,0.5
2022-07-30T14:00:00,1223A,120.2072,30.2111,杭州市,滨江,臭氧1小时,54,31,30,15,13,172,163,75,75,11,16,5,6,0.5,0.5
2022-07-30T14:00:00,1224A,120.0633,30.2747,杭州市,西溪,,36,26,25,13,9,144,113,62,62,8,13,9,9,0.5,0.5
2022-07-30T14:00:00,1225A,119.026,29.635,杭州市,千岛湖(对照点),,,,,,,,,,,,,,,,
2022-07-30T14:00:00,1226A,120.3461,30.3153,杭州市,下沙,,38,38,27,15,10,124,105,63,63,10,12,4,5,0.4,0.4
2022-07-30T14:00:00,1227A,120.1269,30.2456,杭州市,卧龙桥,,46,30,26,15,11,167,145,70,70,8,14,5,4,0.5,0.5
2022-07-30T14:00:00,1228A,120.1903,30.2692,杭州市,浙江农大,,47,31,23,17,12,157,150,70,70,12,13,4,4,0.5,0.6
2022-07-30T14:00:00,1229A,120.157,30.2897,杭州市,朝晖五区,,,,,,,,,,,,,,,,
2022-07-30T14:00:00,1230A,120.1197,30.3119,杭州市,和睦小学,,44,35,32,15,16,144,140,74,74,9,16,6,6,0.6,0.6
2022-07-30T14:00:00,1231A,120.3019,30.4183,杭州市,临平镇,,32,26,26,8,6,126,101,71,71,9,11,3,4,0.2,0.3
2022-07-30T14:00:00,1232A,120.2697,30.1819,杭州市,城厢镇,,42,41,34,16,14,154,133,65,65,14,20,6,7,0.4,0.5
2022-07-30T14:00:00,1233A,120.0883,30.1808,杭州市,云栖,,42,16,26,11,11,181,133,72,72,7,12,7,8,0.3,0.3
2022-07-30T14:00:00,1234A,121.8358,29.911,宁波市,区环保大楼,,25,25,19,15,9,65,65,40,40,14,18,9,9,0.6,0.5
2022-07-30T14:00:00,1235A,121.56,29.82,宁波市,万里学院,,28,28,20,10,10,83,83,47,47,6,9,10,9,0.6,0.7
2022-07-30T14:00:00,1236A,121.713,29.9572,宁波市,龙赛医院,,22,15,23,5,8,69,68,44,44,4,16,4,8,0.3,0.4
2022-07-30T14:00:00,1239A,121.633,29.7733,宁波市,钱湖水厂,,21,13,13,7,8,74,66,39,39,9,13,6,8,0.6,0.6
2022-07-30T14:00:00,1240A,121.5856,29.8635,宁波市,太古小学,,27,18,15,9,11,84,84,46,46,9,10,8,8,0.7,0.6
2022-07-30T14:00:00,1241A,121.524,29.8674,宁波市,市环境监测中心,,21,17,18,2,9,68,66,38,38,5,12,3,3,0.5,0.5
2022-07-30T14:00:00,1242A,120.634,28.0089,温州市,瓯海,,39,31,23,14,9,132,123,79,79,10,14,6,6,0.4,0.4
2022-07-30T14:00:00,1243A,120.6748,27.9939,温州市,南浦,,38,38,19,19,8,115,115,64,64,3,6,6,5,0.4,0.5
2022-07-30T14:00:00,1244A,120.76,27.9747,温州市,龙湾,,32,25,17,9,7,104,100,62,62,1,7,6,6,0.4,0.4
2022-07-30T14:00:00,1245A,120.6709,28.0167,温州市,市站,,37,34,23,10,6,116,116,65,65,11,14,6,5,0.4,0.4
2022-07-30T14:00:00,1246A,120.598,30.0911,绍兴市,袍江站,,,,,,,,,,,,,,,,
2022-07-30T14:00:00,1247A,120.6053,29.9928,绍兴市,城东开发委,,33,30,27,16,15,124,104,73,73,5,12,7,6,0.3,0.4
2022-07-30T14:00:00,1250A,120.0751,30.8669,湖州市,城西水厂,,21,12,21,4,6,107,65,46,46,5,20,4,5,0.3,0.3
2022-07-30T14:00:00,1252A,120.7436,30.778,嘉兴市,清河小学,,19,10,18,5,6,84,60,50,50,10,11,4,4,0.4,0.3
2022-07-30T14:00:00,1253A,120.726,30.7478,嘉兴市,嘉兴学院,,20,20,20,8,9,76,56,45,45,9,12,3,3,0.3,0.3
2022-07-30T14:00:00,1255A,121.273,28.6459,台州市,黄岩环保大楼,,25,24,11,12,8,80,80,46,46,4,6,5,5,0.3,0.3
2022-07-30T14:00:00,1256A,121.419,28.6542,台州市,台州环保大楼,,24,22,17,16,7,76,76,49,49,6,8,4,4,0.3,0.3
2022-07-30T14:00:00,1257A,121.377,28.5773,台州市,路桥田洋王,,26,26,17,16,8,81,78,54,54,5,8,4,3,0.3,0.3
2022-07-30T14:00:00,1258A,122.122,30.0203,舟山市,定海檀枫,,19,15,14,6,5,59,59,34,34,3,5,3,2,0.3,0.3
2022-07-30T14:00:00,1259A,122.3094,29.9558,舟山市,普陀东港,,24,19,15,9,7,75,75,41,41,11,14,4,3,0.4,0.3
2022-07-30T14:00:00,1260A,122.19,29.9944,舟山市,临城新区,,22,21,18,8,6,68,68,35,35,6,8,3,3,0.3,0.3
2022-07-30T14:00:00,1261A,119.649,29.1131,金华市,四中(停运161031),,,,,,,,,,,,,,,,
2022-07-30T14:00:00,1262A,119.647,29.077,金华市,十五中,臭氧1小时,77,62,48,25,29,188,181,130,130,10,18,4,10,0.4,0.4
2022-07-30T14:00:00,1263A,119.686,29.1029,金华市,监测站,臭氧1小时,101,66,48,33,25,202,202,135,135,8,16,4,9,0.6,0.6
2022-07-30T14:00:00,1264A,118.8692,28.9398,衢州市,环保大楼,臭氧1小时,90,60,46,26,25,209,192,126,126,9,18,6,9,0.5,0.5
2022-07-30T14:00:00,1265A,118.8709,28.9666,衢州市,实验学校,臭氧1小时,92,41,35,24,18,199,193,117,117,8,20,5,8,0.5,0.5
2022-07-30T14:00:00,1266A,118.8621,28.9808,衢州市,衢州学院,臭氧1小时,90,40,40,19,24,196,192,113,113,12,24,6,8,0.5,0.5
2022-07-30T14:00:00,1267A,119.914,28.4514,丽水市,监测站大楼,,40,25,27,24,15,127,127,75,75,5,11,6,6,0.4,0.4
2022-07-30T14:00:00,1268A,119.93,28.4586,丽水市,莲都小学,,47,47,30,26,12,143,143,82,82,5,10,6,6,0.4,0.4
2022-07-30T14:00:00,1269A,119.879,28.4231,丽水市,余庄前,,45,7,19,14,14,141,141,86,86,5,13,5,6,0.4,0.4
2022-07-30T14:00:00,1270A,117.1959,31.7848,合肥市,明珠广场,臭氧1小时,78,51,39,40,23,196,182,124,124,23,44,6,6,0.8,0.7
2022-07-30T14:00:00,1271A,117.3072,31.8764,合肥市,三里街,颗粒物(PM10),52,53,36,34,20,174,147,112,112,15,18,8,7,0.7,0.7
2022-07-30T14:00:00,1272A,117.2588,31.8707,合肥市,琥珀山庄,,,,32,41,21,186,158,118,118,11,16,,7,0.7,0.8
2022-07-30T14:00:00,1273A,117.1604,31.9052,合肥市,董铺水库(对照点),,45,41,35,27,17,154,142,108,108,6,12,6,6,0.8,0.7
2022-07-30T14:00:00,1274A,117.25,31.8571,合肥市,长江中路,臭氧1小时,65,61,40,36,26,199,172,131,131,7,12,6,6,0.7,0.8
2022-07-30T14:00:00,1275A,117.266,31.9436,合肥市,庐阳区,,50,44,38,27,23,174,157,115,115,6,17,5,6,0.6,0.6
2022-07-30T14:00:00,1276A,117.336,31.8586,合肥市,瑶海区,颗粒物(PM10),54,58,40,32,20,170,137,112,112,12,18,9,10,0.4,0.6
2022-07-30T14:00:00,1277A,117.3027,31.7964,合肥市,包河区,颗粒物(PM10),52,53,38,27,25,182,147,110,110,18,36,5,8,0.5,0.6
2022-07-30T14:00:00,1278A,117.2776,31.7385,合肥市,滨湖新区,,45,44,43,27,21,156,142,107,107,10,20,8,8,0.6,0.6
2022-07-30T14:00:00,1279A,117.1318,31.8403,合肥市,高新区,臭氧1小时,63,41,35,31,24,177,170,120,120,8,19,6,6,0.4,0.4
2022-07-30T14:00:00,1280A,119.3903,26.0543,福州市,鼓山(对照点),,,,,,,,,,,,,,,,
2022-07-30T14:00:00,1282A,119.2681,26.0504,福州市,师大,臭氧1小时,65,41,36,21,12,172,172,103,103,7,11,3,4,0.3,0.3
2022-07-30T14:00:00,1283A,119.2984,26.1028,福州市,五四北路,臭氧1小时,57,25,34,22,14,168,165,103,103,10,17,3,4,0.3,0.3
2022-07-30T14:00:00,1284A,119.2648,26.0768,福州市,杨桥西路,,49,31,36,19,16,165,154,96,96,5,10,4,4,0.3,0.3
2022-07-30T14:00:00,1285A,119.317,26.0746,福州市,紫阳,臭氧1小时,68,48,38,21,14,174,174,109,109,8,14,4,5,0.4,0.4
2022-07-30T14:00:00,1286A,118.1608,24.8169,厦门市,溪东(对照点),,,,,,,,,,,,,,,,
2022-07-30T14:00:00,1287A,118.1514,24.4767,厦门市,洪文,,,,44,,23,159,150,98,98,18,30,4,4,0.5,0.4
2022-07-30T14:00:00,1288A,118.0661,24.4444,厦门市,鼓浪屿,臭氧1小时,72,37,39,23,27,177,177,91,91,11,35,3,8,0.8,0.8
2022-07-30T14:00:00,1290A,115.8931,28.6843,南昌市,省外办,,35,26,26,8,6,153,110,104,104,4,13,3,5,0.5,0.5
2022-07-30T14:00:00,1291A,115.8886,28.7003,南昌市,省林业公司,,34,2,16,5,4,154,108,91,91,11,22,2,4,0.5,0.5
2022-07-30T14:00:00,1292A,115.8126,28.7442,南昌市,林科所,,29,5,10,7,6,142,92,90,90,5,11,4,4,0.7,0.7
2022-07-30T14:00:00,1294A,115.8518,28.687,南昌市,建工学校,,31,20,23,14,13,155,98,95,95,8,17,4,5,0.5,0.5
2022-07-30T14:00:00,1295A,115.8921,28.6424,南昌市,象湖,,38,38,33,5,4,156,109,89,89,8,22,3,4,0.6,0.6
2022-07-30T14:00:00,1296A,115.7423,28.7996,南昌市,武术学校(对照点),,28,22,15,12,11,107,89,70,70,3,3,7,5,0.6,0.6
2022-07-30T14:00:00,1298A,115.9314,28.6842,南昌市,省站,,35,16,26,16,12,151,111,102,102,3,11,4,6,0.6,0.7
2022-07-30T14:00:00,1299A,116.9862,36.6114,济南市,科干所,,35,31,25,24,18,102,102,71,54,15,19,3,2,0.7,0.7
2022-07-30T14:00:00,1300A,116.9376,36.665,济南市,农科所,,39,39,24,15,11,120,107,62,62,18,27,4,4,0.4,0.4
2022-07-30T14:00:00,1301A,117.1265,36.6734,济南市,开发区,,42,42,26,26,17,124,121,61,61,17,19,3,2,0.7,0.6
2022-07-30T14:00:00,1303A,117.0624,36.6868,济南市,省种子仓库,,41,41,31,24,18,131,111,59,59,11,21,2,2,0.5,0.5
2022-07-30T14:00:00,1304A,116.9489,36.6447,济南市,机床二厂,,39,39,35,17,15,124,124,69,69,13,24,3,3,0.5,0.5
2022-07-30T14:00:00,1305A,117.0495,36.663,济南市,市监测站,,38,37,26,24,18,121,121,65,64,13,16,5,4,0.8,0.7
2022-07-30T14:00:00,1306A,116.7675,36.5484,济南市,长清党校,,32,17,23,17,17,128,100,62,62,10,24,6,5,0.6,0.6
2022-07-30T14:00:00,1307A,120.6659,36.2403,青岛市,仰口(对照点),,,,,,,,,,,,,,,,
2022-07-30T14:00:00,1308A,120.3905,36.1851,青岛市,李沧区子站,,,,,,,,,,,,,,,,
2022-07-30T14:00:00,1309A,120.3471,36.0699,青岛市,市北区子站,,,,,,,,,,,,,,,,
2022-07-30T14:00:00,1310A,120.4134,36.0658,青岛市,市南区东部子站,,26,17,18,9,10,89,82,72,72,5,7,7,6,0.4,0.3
2022-07-30T14:00:00,1311A,120.3664,36.1032,青岛市,四方区子站,,17,17,16,7,9,96,41,60,56,6,9,9,6,0.4,0.4
2022-07-30T14:00:00,1312A,120.2994,36.054,青岛市,市南区西部子站,,27,27,22,12,8,86,83,72,72,10,11,7,7,0.4,0.4
2022-07-30T14:00:00,1313A,120.4581,36.0858,青岛市,崂山区子站,,27,17,20,14,7,99,84,80,80,6,8,6,5,0.2,0.1
2022-07-30T14:00:00,1314A,120.1983,35.9608,青岛市,黄岛区子站,,29,12,18,20,14,111,91,81,81,10,11,6,5,0.4,0.4
2022-07-30T14:00:00,1315A,120.3999,36.3083,青岛市,城阳区子站,,17,15,23,9,11,99,52,45,45,4,13,5,5,0.4,0.5
2022-07-30T14:00:00,1316A,113.69031,34.76122,郑州市,烟厂,,46,46,35,20,26,132,121,90,90,6,11,3,4,0.5,0.6
2022-07-30T14:00:00,1317A,113.65724,34.77134,郑州市,郑纺机,,,49,38,,,129,123,107,93,4,6,5,5,0.5,0.6
2022-07-30T14:00:00,1318A,113.67526,34.80246,郑州市,银行学校,,39,38,35,23,23,130,123,91,91,6,12,3,3,0.5,0.5
2022-07-30T14:00:00,1319A,113.56746,34.81334,郑州市,供水公司,颗粒物(PM10),52,53,40,34,30,144,140,98,98,4,11,6,5,0.6,0.6
2022-07-30T14:00:00,1320A,113.7329,34.7178,郑州市,经开区管委,,37,22,34,17,25,134,117,88,88,5,12,2,2,0.4,0.5
2022-07-30T14:00:00,1321A,113.73961,34.77172,郑州市,四十七中,,39,32,40,14,20,137,123,93,93,5,15,4,4,0.6,0.6
2022-07-30T14:00:00,1322A,113.60532,34.74838,郑州市,市监测站,,,52,44,,,140,135,101,98,6,15,3,3,0.6,0.7
2022-07-30T14:00:00,1323A,113.64164,34.7525,郑州市,河医大,,,43,41,,20,125,124,100,87,9,16,2,2,0.6,0.7
2022-07-30T14:00:00,1324A,113.51488,34.91089,郑州市,岗李水库(对照点),,,,,,,,,,,,,,,,
2022-07-30T14:00:00,1325A,114.3677,30.5584,武汉市,东湖梨园,臭氧1小时,75,39,26,20,12,180,180,115,115,10,11,9,7,0.9,0.7
2022-07-30T14:00:00,1326A,114.2529,30.558,武汉市,汉阳月湖,臭氧1小时,53,31,24,17,10,162,162,108,108,14,16,6,6,0.7,0.6
2022-07-30T14:00:00,1327A,114.282,30.6189,武汉市,汉口花桥,,46,29,25,15,15,145,145,104,104,8,12,7,7,0.6,0.5
2022-07-30T14:00:00,1328A,114.3025,30.5332,武汉市,武昌紫阳,臭氧1小时,72,31,26,20,12,177,177,108,108,10,13,6,5,0.8,0.8
2022-07-30T14:00:00,1329A,114.3646,30.6217,武汉市,青山钢花,,47,32,27,19,18,149,149,101,101,10,15,5,5,0.3,0.4
2022-07-30T14:00:00,1330A,114.1566,30.4825,武汉市,沌口新区,,50,22,31,18,17,159,159,105,105,11,21,6,5,0.6,0.7
2022-07-30T14:00:00,1331A,114.3014,30.5944,武汉市,汉口江滩,,50,33,27,20,14,159,159,107,107,15,15,7,6,0.6,0.6
2022-07-30T14:00:00,1333A,114.135,30.6319,武汉市,吴家山,,45,24,29,12,15,141,141,96,96,6,12,4,3,0.7,0.7
2022-07-30T14:00:00,1334A,113.8454,30.2917,武汉市,沉湖七壕(对照点),,34,20,22,12,11,122,107,82,82,6,10,7,7,0.7,0.7
2022-07-30T14:00:00,1335A,113.0833,28.2325,长沙市,经开区环保局,,46,31,15,21,13,147,147,87,87,4,11,4,4,0.5,0.5
2022-07-30T14:00:00,1336A,112.8872,28.2189,长沙市,高开区环保局,,47,16,14,32,16,148,148,92,92,3,20,7,7,0.2,0.2
2022-07-30T14:00:00,1337A,113.0792,28.2053,长沙市,马坡岭,,49,30,19,34,16,138,138,78,78,4,12,5,8,0.6,0.6
2022-07-30T14:00:00,1338A,112.9394,28.19,长沙市,湖南师范大学,,44,29,20,14,8,140,139,93,93,1,12,3,3,0.3,0.3
2022-07-30T14:00:00,1339A,113.0178,28.1322,长沙市,雨花区环保局,,50,29,17,30,10,160,160,95,95,2,19,5,5,0.3,0.3
2022-07-30T14:00:00,1340A,112.9792,28.2597,长沙市,伍家岭,,43,31,17,18,14,137,137,81,81,3,17,2,2,0.4,0.3
2022-07-30T14:00:00,1341A,113.0014,28.1944,长沙市,火车新站,,44,17,14,18,12,138,138,92,92,2,19,5,5,0.4,0.4
2022-07-30T14:00:00,1342A,112.9844,28.1178,长沙市,天心区环保局,,48,29,24,24,15,154,152,92,92,2,20,2,2,0.4,0.5
2022-07-30T14:00:00,1343A,112.8908,28.1308,长沙市,湖南中医药大学,,47,31,25,24,21,159,148,93,93,2,22,1,1,0.6,0.6
2022-07-30T14:00:00,1344A,112.9581,28.3611,长沙市,沙坪(对照点),,40,33,18,19,11,126,126,78,78,4,7,4,4,0.6,0.5
2022-07-30T14:00:00,1345A,113.2347,23.1423,广州市,广雅中学,臭氧1小时,93,67,62,43,35,240,194,146,146,22,26,4,5,0.7,0.8
2022-07-30T14:00:00,1346A,113.2612,23.105,广州市,市五中,臭氧1小时,104,60,57,39,40,265,207,154,154,17,23,5,5,0.7,0.7
2022-07-30T14:00:00,1348A,113.3478,23.0916,广州市,广东商学院,臭氧1小时,110,67,57,38,35,261,220,127,127,17,31,5,5,0.7,0.7
2022-07-30T14:00:00,1349A,113.4332,23.1047,广州市,市八十六中,臭氧1小时,115,84,71,42,37,300,230,131,131,24,40,9,8,0.7,0.7
2022-07-30T14:00:00,1350A,113.3505,22.9483,广州市,番禺中学,臭氧1小时,103,62,58,31,31,264,205,140,140,16,21,9,10,0.7,0.8
2022-07-30T14:00:00,1351A,113.2146,23.3916,广州市,花都师范,臭氧1小时,114,72,63,46,37,247,228,144,144,16,30,6,7,0.7,0.8
2022-07-30T14:00:00,1352A,113.2597,23.1331,广州市,市监测站,臭氧1小时,98,67,60,40,36,244,198,144,144,15,21,4,5,0.8,0.8
2022-07-30T14:00:00,1353A,113.5618,23.312,广州市,九龙镇镇龙,臭氧1小时,85,107,71,47,45,235,188,120,120,16,32,8,8,0.7,0.7
2022-07-30T14:00:00,1354A,113.2765,23.1544,广州市,麓湖,臭氧1小时,116,64,55,41,35,255,231,137,137,16,24,4,5,0.8,0.7
2022-07-30T14:00:00,1355A,113.443,23.3035,广州市,帽峰山森林公园(对照点),臭氧1小时,102,65,58,33,33,240,204,124,124,,15,4,6,0.5,0.6
2022-07-30T14:00:00,1356A,114.1063,22.5545,深圳市,通心岭子站,,23,20,48,16,32,204,60,62,62,32,37,3,3,0.7,0.9
2022-07-30T14:00:00,1357A,114.117,22.5625,深圳市,洪湖,,23,22,68,16,35,212,63,58,58,28,50,8,8,0.6,0.9
2022-07-30T14:00:00,1358A,113.987,22.5417,深圳市,华侨城,,26,26,54,12,33,161,59,75,75,32,22,5,5,0.6,0.6
2022-07-30T14:00:00,1359A,113.9181,22.5171,深圳市,南海子站,,26,24,44,18,32,183,76,86,86,28,23,3,4,0.8,0.7
2022-07-30T14:00:00,1360A,114.2458,22.5689,深圳市,盐田,,21,20,35,13,27,190,66,51,51,11,53,3,5,0.7,0.8
2022-07-30T14:00:00,1361A,114.2283,22.7244,深圳市,龙岗,,29,23,62,11,33,215,91,81,81,17,44,4,5,0.6,0.7
2022-07-30T14:00:00,1362A,113.8953,22.5861,深圳市,西乡,,,,,,,,,,,,,,,,
2022-07-30T14:00:00,1363A,114.494,22.5422,深圳市,南澳,,37,10,31,6,23,156,117,89,89,14,11,9,8,0.2,0.2
2022-07-30T14:00:00,1364A,114.41,22.6342,深圳市,葵涌,,30,18,42,10,26,152,93,80,80,11,16,7,8,0.5,0.6
2022-07-30T14:00:00,1365A,114.297,22.5978,深圳市,梅沙,,21,20,39,11,23,183,66,73,73,21,24,6,6,0.3,0.4
2022-07-30T14:00:00,1366A,114.0678,22.738,深圳市,观澜,,28,28,63,18,39,245,70,70,70,24,24,8,8,0.7,0.7
2022-07-30T14:00:00,1367A,113.5814,22.2618,珠海市,吉大,,34,27,36,9,27,142,108,103,89,12,7,7,8,0.6,0.6
2022-07-30T14:00:00,1368A,113.4881,22.2335,珠海市,前山,,32,31,35,22,27,130,99,94,90,26,18,8,9,0.4,0.4
2022-07-30T14:00:00,1369A,113.628,22.4251,珠海市,唐家,,32,27,36,9,28,185,101,107,92,26,8,7,7,0.4,0.5
2022-07-30T14:00:00,1370A,113.299,22.2281,珠海市,斗门,,45,27,34,31,28,162,126,103,103,15,8,5,5,0.6,0.6
2022-07-30T14:00:00,1371A,113.1294,23.0067,佛山市,湾梁,颗粒物(PM10),54,58,60,23,35,235,144,116,116,10,16,4,6,0.4,0.5
2022-07-30T14:00:00,1372A,113.1083,23.0478,佛山市,华材职中,颗粒物(PM10),63,75,61,24,38,223,151,109,109,12,18,4,6,0.4,0.4
2022-07-30T14:00:00,1373A,113.144,23.0453,佛山市,南海气象局,颗粒物(PM10),69,87,63,26,38,222,140,109,109,15,19,4,5,0.5,0.7
2022-07-30T14:00:00,1374A,113.2881,22.8094,佛山市,顺德苏岗,臭氧1小时,124,41,45,41,35,247,247,132,132,17,18,5,5,0.7,0.7
2022-07-30T14:00:00,1375A,113.2544,22.7642,佛山市,容桂街道办,,,,,,,,,,,,,,,,
2022-07-30T14:00:00,1376A,112.8383,22.8678,佛山市,高明孔堂,细颗粒物(PM2.5),94,76,48,70,110,188,168,128,128,11,11,6,7,0.7,0.6
2022-07-30T14:00:00,1377A,112.8836,23.1588,佛山市,三水监测站,臭氧1小时,131,90,78,59,44,261,261,125,125,20,37,11,8,0.5,0.6
2022-07-30T14:00:00,1378A,112.867,23.185,佛山市,三水云东海,臭氧1小时,135,88,67,32,43,269,269,130,130,20,31,10,11,0.5,0.5
2022-07-30T14:00:00,1379A,113.3769,22.5211,中山市,华柏园,臭氧1小时,60,39,50,26,32,195,168,105,105,8,9,2,2,0.5,0.6
2022-07-30T14:00:00,1380A,113.3881,22.5497,中山市,张溪,,50,44,61,29,34,188,158,109,109,10,11,2,4,0.7,0.8
2022-07-30T14:00:00,1381A,113.4075,22.5111,中山市,紫马岭,,50,50,49,25,29,211,160,99,99,9,13,5,7,0.8,1
2022-07-30T14:00:00,1382A,113.4411,22.4853,中山市,长江旅游区(对照点),,48,40,42,33,38,190,144,94,94,8,8,3,3,0.5,0.6
2022-07-30T14:00:00,1383A,113.1064,22.6058,江门市,北街,,40,40,43,22,26,190,122,94,94,8,14,5,4,0.6,0.7
2022-07-30T14:00:00,1384A,113.0731,22.5835,江门市,西区,,42,42,48,29,30,175,126,99,99,16,19,6,6,0.6,0.6
2022-07-30T14:00:00,1385A,113.0219,22.5311,江门市,圭峰西,,47,47,50,26,29,176,126,102,102,19,13,5,4,0.5,0.5
2022-07-30T14:00:00,1386A,113.0828,22.5947,江门市,东湖,,43,36,48,30,28,176,136,98,98,13,15,6,6,0.6,0.7
2022-07-30T14:00:00,1387A,113.7875,23.0457,东莞市,东城主山,,,,,,,,,,,,,,,,
2022-07-30T14:00:00,1388A,113.7533,23.0202,东莞市,南城元岭,,,,,,,,,,,,,,,,
2022-07-30T14:00:00,1389A,113.7547,23.0494,东莞市,莞城梨川,,44,33,62,20,36,312,140,142,142,13,23,8,9,0.4,0.5
2022-07-30T14:00:00,1390A,113.7944,23.0128,东莞市,东城石井,,50,27,55,16,34,311,160,154,154,14,27,7,7,0.6,0.7
2022-07-30T14:00:00,1391A,113.7383,22.9658,东莞市,南城西平,,45,24,59,14,42,263,143,145,145,14,32,7,8,0.8,1
2022-07-30T14:00:00,1392A,114.4183,23.0528,惠州市,河南岸金山湖子站,,44,44,53,18,22,220,114,92,92,15,19,3,5,0.4,0.5
2022-07-30T14:00:00,1393A,114.4053,23.0822,惠州市,下埔横江三路子站,,47,47,50,18,21,217,124,104,104,14,16,2,5,0.4,0.5
2022-07-30T14:00:00,1394A,114.4103,23.1142,惠州市,江北云山西路子站,,,,48,17,28,225,125,109,109,2,5,4,7,0.4,0.5
2022-07-30T14:00:00,1395A,114.4645,22.7833,惠州市,惠阳区承修路船湖子站,,40,22,48,14,23,224,125,82,82,14,22,5,5,0.4,0.6
2022-07-30T14:00:00,1396A,114.5317,22.7422,惠州市,大亚湾管委会子站,,33,33,40,19,25,196,102,67,67,21,24,6,7,0.4,0.5
2022-07-30T14:00:00,1397A,112.4267,23.0706,肇庆市,睦岗子站,,49,40,47,28,28,154,154,101,101,10,30,11,11,0.4,0.5
2022-07-30T14:00:00,1398A,112.4645,23.0475,肇庆市,城中子站,,50,41,49,24,27,160,160,103,103,18,34,14,16,0.5,0.6
2022-07-30T14:00:00,1399A,112.5544,23.1522,肇庆市,坑口子站,臭氧1小时,104,64,39,40,27,207,207,130,130,8,11,6,4,0.5,0.4
2022-07-30T14:00:00,1400A,112.4753,23.1,肇庆市,七星岩子站(对照点),,,,,,,,,,,,,,,,
2022-07-30T14:00:00,1401A,108.3103,22.7881,南宁市,二十一中,臭氧1小时,65,45,40,30,24,172,172,88,88,12,16,6,7,0.8,0.6
2022-07-30T14:00:00,1402A,108.3141,22.8528,南宁市,北湖,臭氧1小时,79,55,50,35,28,184,183,88,88,13,15,5,6,0.7,0.7
2022-07-30T14:00:00,1403A,108.3206,22.8225,南宁市,市监测站,颗粒物(PM10),91,132,51,33,29,184,184,81,81,16,22,5,8,1.1,0.7
2022-07-30T14:00:00,1404A,108.3829,22.8037,南宁市,大自然花园,臭氧1小时,59,48,46,32,20,167,167,82,82,10,16,8,8,0.6,0.6
2022-07-30T14:00:00,1405A,108.4394,22.7904,南宁市,仙葫(对照点),颗粒物(PM10),53,56,46,28,29,164,145,75,75,8,13,8,8,0.6,0.6
2022-07-30T14:00:00,1406A,108.2397,22.8467,南宁市,区农职院,臭氧1小时,105,68,53,41,32,210,210,90,90,18,25,9,10,0.7,0.7
2022-07-30T14:00:00,1407A,108.3275,22.735,南宁市,英华嘉园,颗粒物(PM10),61,72,54,30,25,148,130,68,68,16,29,8,8,0.7,0.7
2022-07-30T14:00:00,1408A,108.2257,22.7757,南宁市,沙井镇街道办,颗粒物(PM10),54,58,59,35,28,152,152,80,80,10,26,12,9,0.7,0.7
2022-07-30T14:00:00,1409A,110.576,19.9507,海口市,东寨港(对照点),,,25,31,17,16,112,112,61,61,,,6,5,0.4,0.3
2022-07-30T14:00:00,1410A,110.3232,20.0574,海口市,海南大学,,35,35,27,22,14,97,97,69,69,2,8,7,6,0.5,0.5
2022-07-30T14:00:00,1411A,110.283,20.0053,海口市,秀英海南医院,,,,,,,,,,,,,,,,
2022-07-30T14:00:00,1412A,110.338,19.9969,海口市,海南师范大学,,41,41,32,13,14,124,113,80,80,7,13,4,4,0.5,0.4
2022-07-30T14:00:00,1413A,110.33,20.0356,海口市,龙华路环保局宿舍,,37,29,25,14,15,131,117,91,91,5,9,3,3,0.5,0.5
2022-07-30T14:00:00,1414A,106.3787,29.8279,重庆市,缙云山(对照点),臭氧1小时,103,18,16,9,9,206,206,143,124,15,12,5,5,0.4,0.3
2022-07-30T14:00:00,1416A,106.4213,29.8253,重庆市,天生,颗粒物(PM10),97,143,47,13,19,194,194,94,94,10,29,5,6,0.6,0.7
2022-07-30T14:00:00,1417A,106.6263,29.7228,重庆市,两路,臭氧1小时,67,25,30,12,19,210,173,94,94,19,40,8,8,0.5,0.6
2022-07-30T14:00:00,1418A,106.2953,29.5983,重庆市,虎溪,臭氧1小时,78,31,36,13,17,228,182,99,99,12,39,6,6,0.5,0.6
2022-07-30T14:00:00,1419A,106.5777,29.5102,重庆市,南坪,臭氧1小时,119,34,34,15,17,249,237,133,133,16,20,4,5,0.7,0.7
2022-07-30T14:00:00,1420A,106.6556,29.6277,重庆市,唐家沱,臭氧1小时,82,17,32,5,8,257,185,110,110,10,42,7,7,0.7,0.7
2022-07-30T14:00:00,1421A,106.6349,29.4906,重庆市,茶园,臭氧1小时,103,30,74,12,21,242,206,110,110,14,61,6,7,0.6,0.8
2022-07-30T14:00:00,1422A,106.3754,29.4572,重庆市,白市驿,臭氧1小时,52,35,44,8,15,241,161,92,92,14,32,9,6,0.8,0.7
2022-07-30T14:00:00,1425A,106.6205,29.7166,重庆市,空港,臭氧1小时,78,18,38,9,17,223,182,104,104,6,24,7,8,0.7,0.7
2022-07-30T14:00:00,1426A,106.4782,29.4875,重庆市,新山村,,50,30,48,7,16,234,157,102,102,14,56,6,7,0.5,0.7
2022-07-30T14:00:00,1427A,106.5616,29.6453,重庆市,礼嘉,臭氧1小时,108,7,31,6,11,260,215,103,103,25,59,8,9,0.4,0.6
2022-07-30T14:00:00,1428A,106.4522,29.7091,重庆市,蔡家,臭氧1小时,103,29,32,5,16,209,206,96,96,14,26,4,4,0.6,0.7
2022-07-30T14:00:00,1429A,106.5093,29.3917,重庆市,鱼新街,,37,10,52,5,26,207,116,72,72,10,49,5,7,0.7,0.9
2022-07-30T14:00:00,1431A,103.9728,30.7236,成都市,金泉两河,臭氧1小时,116,62,54,37,33,232,232,123,123,11,19,5,5,0.5,0.5
2022-07-30T14:00:00,1432A,104.1419,30.6764,成都市,十里店,臭氧1小时,103,46,56,34,36,261,205,110,110,7,27,3,3,0.5,0.6
2022-07-30T14:00:00,1433A,104.0594,30.5767,成都市,三瓦窑,臭氧1小时,99,51,54,33,33,228,199,110,110,16,44,2,2,0.4,0.5
2022-07-30T14:00:00,1434A,104.1122,30.6306,成都市,沙河铺,臭氧1小时,113,54,51,35,32,263,226,119,119,11,23,3,3,0.5,0.6
2022-07-30T14:00:00,1437A,104.0431,30.6556,成都市,君平街,臭氧1小时,127,81,59,55,39,256,253,135,135,17,24,6,7,0.7,0.6
2022-07-30T14:00:00,1438A,103.6202,31.0201,成都市,灵岩寺(对照点),,50,46,34,29,23,177,157,141,100,2,3,4,12,0.8,0.7
2022-07-30T14:00:00,1439A,106.6899,26.5998,贵阳市,马鞍山,,40,17,26,9,14,163,128,66,66,6,16,4,4,0.5,0.7
2022-07-30T14:00:00,1440A,106.6971,26.5694,贵阳市,市环保站,,45,27,32,12,15,176,144,74,74,7,24,4,4,0.3,0.4
2022-07-30T14:00:00,1441A,106.6243,26.6266,贵阳市,鉴湖路,,42,27,27,12,14,147,134,87,87,13,14,3,3,0.7,0.5
2022-07-30T14:00:00,1442A,106.7487,26.6343,贵阳市,燕子冲,,35,24,29,19,21,159,109,60,60,3,11,6,7,0.6,0.7
2022-07-30T14:00:00,1443A,106.6555,26.4365,贵阳市,碧云窝,,40,31,38,12,12,164,128,82,82,5,17,5,5,0.3,0.4
2022-07-30T14:00:00,1444A,106.694,26.5161,贵阳市,中院村,,45,22,32,9,13,172,142,79,79,8,17,1,2,0.4,0.5
2022-07-30T14:00:00,1445A,106.7109,26.6027,贵阳市,红边门,,41,27,34,17,23,182,129,71,71,8,25,2,4,0.3,0.4
2022-07-30T14:00:00,1446A,106.7164,26.5699,贵阳市,新华路,,45,24,33,19,21,183,144,70,70,4,24,5,4,0.4,0.5
2022-07-30T14:00:00,1447A,106.674,26.5424,贵阳市,太慈桥,,44,24,28,7,12,167,140,77,77,7,18,4,5,0.3,0.4
2022-07-30T14:00:00,1450A,102.8204,24.8886,昆明市,呈贡新区,,36,21,30,12,14,114,114,60,60,8,20,8,9,0.5,0.6
2022-07-30T14:00:00,1451A,102.6251,24.9608,昆明市,西山森林公园(对照点),,36,22,20,20,15,126,115,64,64,6,10,7,8,0.5,0.6
2022-07-30T14:00:00,1452A,102.7252,25.0902,昆明市,龙泉镇,,46,22,40,18,24,147,145,73,73,9,28,7,6,0.2,0.4
2022-07-30T14:00:00,1453A,102.7266,25.0375,昆明市,东风东路,,41,14,36,14,18,147,129,66,66,9,31,4,6,0.2,0.5
2022-07-30T14:00:00,1454A,102.6742,25.0669,昆明市,金鼎山,,41,16,39,9,25,141,131,64,64,4,24,1,10,0.2,0.5
2022-07-30T14:00:00,1455A,102.6644,25.0401,昆明市,碧鸡广场,,38,8,34,17,18,135,121,63,63,8,26,6,8,0.4,0.6
2022-07-30T14:00:00,1456A,91.1319,29.6514,拉萨市,八廓街,,38,3,11,3,6,119,119,72,72,3,11,7,7,0.2,0.2
2022-07-30T14:00:00,1457A,91.1221,29.6747,拉萨市,市环保局,,36,9,11,7,5,115,115,76,76,13,17,7,7,0.1,0.2
2022-07-30T14:00:00,1458A,91.0874,29.6475,拉萨市,区监测站,,40,7,9,0,1,128,128,84,84,6,15,8,8,0.2,0.3
2022-07-30T14:00:00,1459A,91.1774,29.6541,拉萨市,西藏大学,,39,6,11,5,4,124,124,76,76,8,14,8,9,0.3,0.3
2022-07-30T14:00:00,1460A,90.9798,29.6588,拉萨市,区辐射站,,34,10,12,6,11,106,106,74,74,11,19,8,9,0.2,0.2
2022-07-30T14:00:00,1461A,91.0834,29.6292,拉萨市,拉萨火车站,,37,15,12,5,4,116,116,75,74,10,16,10,9,0.2,0.2
2022-07-30T14:00:00,1462A,108.882,34.2749,西安市,高压开关厂,臭氧1小时,64,51,55,25,26,188,171,122,122,12,21,6,7,0.5,0.5
2022-07-30T14:00:00,1463A,108.993,34.2629,西安市,兴庆小区,臭氧1小时,63,58,55,28,32,189,170,118,118,11,20,6,6,1.5,0.7
2022-07-30T14:00:00,1464A,109.06,34.2572,西安市,纺织城,臭氧1小时,57,50,58,29,32,181,165,110,110,11,27,6,7,0.5,0.5
2022-07-30T14:00:00,1465A,108.9356,34.2173,西安市,小寨,臭氧1小时,73,51,53,25,24,196,178,119,119,15,24,4,4,0.6,0.5
2022-07-30T14:00:00,1466A,108.954,34.2713,西安市,市人民体育场,臭氧1小时,69,54,56,25,27,194,175,123,123,12,20,5,6,0.5,0.5
2022-07-30T14:00:00,1467A,108.8922,34.2322,西安市,高新西区,臭氧1小时,69,65,50,29,29,205,175,120,120,11,20,7,7,0.7,0.7
2022-07-30T14:00:00,1468A,108.935,34.3474,西安市,经开区,臭氧1小时,53,44,52,24,27,178,162,120,120,5,12,3,4,0.4,0.4
2022-07-30T14:00:00,1469A,108.906,34.1546,西安市,长安区,臭氧1小时,95,63,66,28,28,279,196,126,126,11,26,7,6,0.5,0.5
2022-07-30T14:00:00,1470A,109.2,34.6575,西安市,阎良区,,,,,,,,,,,,,,,,
2022-07-30T14:00:00,1471A,109.2186,34.3731,西安市,临潼区,,49,48,54,25,29,169,156,114,114,11,20,3,3,0.4,0.5
2022-07-30T14:00:00,1472A,108.869,34.378,西安市,草滩(对照点),颗粒物(PM10),51,51,47,27,27,153,136,106,106,10,15,9,8,0.7,0.8
2022-07-30T14:00:00,1473A,108.985,34.1978,西安市,曲江文化产业集团,臭氧1小时,78,61,56,39,44,202,182,119,119,12,23,6,6,0.8,0.7
2022-07-30T14:00:00,1474A,109.051,34.3213,西安市,广运潭,颗粒物(PM10),51,52,57,23,29,169,150,107,107,6,15,7,8,0.7,0.7
2022-07-30T14:00:00,1476A,103.631,36.1031,兰州市,兰炼宾馆,,48,29,41,8,18,180,152,102,102,6,19,5,12,0.3,0.3
2022-07-30T14:00:00,1477A,104.1373,35.9454,兰州市,榆中兰大校区(对照点),,,,,,,,,,,,,,,,
2022-07-30T14:00:00,1478A,103.8412,36.0726,兰州市,生物制品所,,48,23,34,13,20,225,151,102,102,7,14,11,8,0.8,0.8
2022-07-30T14:00:00,1479A,103.831,36.0464,兰州市,铁路设计院,,46,36,33,10,10,216,147,100,100,12,17,12,8,0.8,0.5
2022-07-30T14:00:00,1480A,101.748,36.6428,西宁市,市环境监测站,,,,,,,,,,,,,,,,
2022-07-30T14:00:00,1482A,101.834,36.5819,西宁市,四陆医院,,,,,,,,,,,,,,,,
2022-07-30T14:00:00,1483A,101.524,36.6867,西宁市,第五水厂(对照点),,,,,,,,,,,,,,,,
2022-07-30T14:00:00,1484A,105.9512,38.6016,银川市,贺兰山马莲口(对照点),臭氧1小时,82,47,35,22,16,191,185,125,125,10,11,11,10,0.4,0.3
2022-07-30T14:00:00,1488A,106.2328,38.4975,银川市,贺兰山东路,臭氧1小时,63,42,48,14,16,224,170,123,123,10,15,9,10,0.5,0.5
2022-07-30T14:00:00,1489A,106.1358,38.5036,银川市,学院路,臭氧1小时,60,52,56,24,22,194,168,120,120,9,12,10,10,0.5,0.5
2022-07-30T14:00:00,1490A,87.5801,43.8303,乌鲁木齐市,监测站,,37,24,37,16,11,124,118,77,62,9,33,4,5,0.3,0.4
2022-07-30T14:00:00,1491A,87.6046,43.768,乌鲁木齐市,收费所,,38,29,45,10,15,119,119,72,56,9,30,6,7,0.3,0.3
2022-07-30T14:00:00,1492A,87.4754,43.9469,乌鲁木齐市,新疆农科院农场(对照点),,46,46,67,4,12,116,114,67,67,6,27,6,7,0.5,0.6
2022-07-30T14:00:00,1493A,87.5525,43.8711,乌鲁木齐市,铁路局,,41,23,41,9,16,130,129,70,70,6,28,4,4,0.5,0.6
2022-07-30T14:00:00,1494A,87.6432,43.831,乌鲁木齐市,三十一中学,,40,33,42,10,9,130,125,84,74,5,17,5,5,0.2,0.3
2022-07-30T14:00:00,1496A,87.7216,44.1747,乌鲁木齐市,米东区环保局,,39,32,50,12,14,124,122,82,82,5,13,9,6,0.3,0.3
2022-07-30T14:00:00,1508A,112.9433,27.8614,湘潭市,板塘,,50,42,28,18,14,161,159,94,94,9,24,4,4,0.5,0.4
2022-07-30T14:00:00,1511A,112.9118,27.8403,湘潭市,市监测站,,46,34,20,23,16,158,147,100,100,8,20,5,5,0.6,0.6
2022-07-30T14:00:00,1512A,112.8937,27.8728,湘潭市,江麓,,41,41,29,21,18,124,124,79,79,5,20,8,7,0.6,0.5
2022-07-30T14:00:00,1513A,112.9227,27.8159,湘潭市,岳塘,,,45,33,19,15,161,151,92,92,,22,3,19,0.4,0.6
2022-07-30T14:00:00,1514A,112.9074,27.9119,湘潭市,科大,,44,37,29,22,14,140,140,88,88,6,23,2,2,0.5,0.5
2022-07-30T14:00:00,1515A,113.135,27.8244,株洲市,天台山庄,细颗粒物(PM2.5),62,18,16,44,23,163,163,94,94,7,21,5,6,0.4,0.4
2022-07-30T14:00:00,1518A,113.095,27.8867,株洲市,株冶医院,臭氧1小时,83,19,12,16,13,186,186,110,110,6,17,5,4,0.4,0.5
2022-07-30T14:00:00,1519A,113.167,27.8667,株洲市,市四中,细颗粒物(PM2.5),52,27,21,36,24,153,153,86,86,6,22,3,4,0.4,0.5
2022-07-30T14:00:00,1520A,113.143,27.8381,株洲市,火车站,臭氧1小时,65,34,24,26,18,172,172,101,101,12,25,6,5,0.3,0.3
2022-07-30T14:00:00,1524A,113.13,27.8528,株洲市,市监测站,臭氧1小时,74,29,23,15,15,179,179,102,102,8,22,3,6,0.3,0.3
2022-07-30T14:00:00,1552A,106.805,26.3003,贵阳市,桐木岭(对照点),,,,,,,,,,,,,,,,
2022-07-30T14:00:00,1559A,113.251,27.8336,株洲市,大京风景区(对照点),,42,4,8,11,35,133,133,76,76,4,10,3,2,0.4,0.4
2022-07-30T14:00:00,1562A,113.0048,27.9153,湘潭市,昭山,,50,27,15,14,13,157,157,88,88,4,21,5,5,0.4,0.4
2022-07-30T14:00:00,1564A,112.4876,27.9164,湘潭市,韶山(对照点),,31,28,26,13,8,98,98,64,64,8,9,5,5,0.7,0.8
2022-07-30T14:00:00,1585A,109.8756,40.6532,包头市,市环境监测站,,43,43,37,17,17,173,132,113,113,18,20,10,11,0.7,0.6
2022-07-30T14:00:00,1587A,109.9991,40.5842,包头市,包头八中,颗粒物(PM10),52,54,40,28,24,167,148,124,124,20,22,44,16,1.0,0.6
2022-07-30T14:00:00,1588A,109.8538,40.6821,包头市,青山宾馆,,47,47,36,27,21,172,113,104,104,31,28,12,12,0.8,0.7
2022-07-30T14:00:00,1589A,109.8642,40.6288,包头市,惠龙物流,,46,45,41,24,18,178,146,124,124,19,20,13,11,0.7,0.5
2022-07-30T14:00:00,1590A,110.0377,40.5546,包头市,东河鸿龙湾,颗粒物(PM10),55,59,48,33,16,168,143,122,122,16,19,11,12,0.8,0.7
2022-07-30T14:00:00,1591A,110.0023,39.8129,鄂尔多斯市,综合楼,,47,30,42,13,12,149,149,126,126,9,16,8,11,0.7,0.5
2022-07-30T14:00:00,1592A,109.9486,39.8261,鄂尔多斯市,巴音孟克林场办事处,,49,41,49,17,16,155,154,131,131,8,15,8,10,0.8,0.8
2022-07-30T14:00:00,1593A,109.7736,39.5986,鄂尔多斯市,康泽苑,,44,41,40,12,12,162,140,129,129,4,10,4,5,0.7,0.7
2022-07-30T14:00:00,1594A,109.8119,39.5989,鄂尔多斯市,华泰汽车城,,44,31,37,17,17,158,140,132,132,4,7,6,7,0.7,0.7
2022-07-30T14:00:00,1595A,109.9734,39.7884,鄂尔多斯市,奥林花园,,47,41,55,14,18,151,149,125,125,7,17,6,10,0.8,0.8
2022-07-30T14:00:00,1596A,122.2414,40.6592,营口市,学府南路,,,,,,,,,,,,,,,,
2022-07-30T14:00:00,1597A,122.2703,40.7094,营口市,大庆路,,21,21,20,9,14,118,63,82,82,10,13,5,5,0.7,0.6
2022-07-30T14:00:00,1598A,122.215,40.6511,营口市,镜湖西路,,21,17,19,4,11,118,66,84,84,11,16,4,3,0.6,0.8
2022-07-30T14:00:00,1599A,122.167,40.6655,营口市,西炮台,,26,16,19,7,20,114,82,81,81,7,9,6,7,1.0,1.1
2022-07-30T14:00:00,1600A,124.3303,40.0625,丹东市,江湾东路,,26,21,24,18,17,79,65,57,40,7,8,7,12,0.6,0.5
2022-07-30T14:00:00,1601A,124.4256,40.1503,丹东市,临江后街,,19,15,18,13,13,69,49,49,34,3,4,4,10,0.7,0.6
2022-07-30T14:00:00,1602A,124.3933,40.1461,丹东市,元宝山,,18,16,21,12,17,69,43,44,26,6,7,4,4,0.3,0.4
2022-07-30T14:00:00,1603A,124.3633,40.1092,丹东市,民主桥,,22,20,21,15,15,70,57,54,36,7,7,2,2,0.8,0.7
2022-07-30T14:00:00,1604A,122.0303,41.1489,盘锦市,开发区,,24,19,18,7,12,110,74,72,72,7,13,5,4,0.5,0.6
2022-07-30T14:00:00,1605A,122.0485,41.0883,盘锦市,兴隆台,,21,20,18,8,9,105,65,68,65,9,16,4,4,0.4,0.5
2022-07-30T14:00:00,1606A,121.8297,41.1028,盘锦市,新生街道,,27,20,17,5,10,118,85,85,85,5,9,5,5,0.4,0.5
2022-07-30T14:00:00,1607A,120.9092,40.7136,葫芦岛市,龙港区,,32,19,15,20,14,103,101,85,85,5,9,3,4,0.4,0.5
2022-07-30T14:00:00,1608A,120.8392,40.7514,葫芦岛市,化工街,,28,19,22,19,16,88,88,68,68,6,21,5,5,0.8,0.7
2022-07-30T14:00:00,1609A,120.8341,40.7073,葫芦岛市,新区,,39,38,18,27,17,108,108,85,85,2,12,3,3,0.6,0.6
2022-07-30T14:00:00,1610A,120.8695,40.7677,葫芦岛市,东城区,,33,33,23,21,25,99,99,76,76,4,23,6,7,0.3,0.4
2022-07-30T14:00:00,1611A,118.5819,24.9117,泉州市,涂山街,,46,42,34,18,14,145,145,104,104,7,12,7,8,0.5,0.5
2022-07-30T14:00:00,1612A,118.5972,24.8978,泉州市,津头埔,臭氧1小时,55,47,38,20,15,164,164,104,104,15,17,6,7,0.4,0.4
2022-07-30T14:00:00,1613A,118.6663,24.9424,泉州市,万安,臭氧1小时,72,54,36,23,18,177,177,103,103,5,11,8,7,0.6,0.6
2022-07-30T14:00:00,1614A,118.6117,24.9604,泉州市,清源山(对照点),,,,,,,,,,,,,,,,
2022-07-30T14:00:00,1616A,117.6795,36.229,济南市,技术学院,,22,5,20,13,17,101,70,47,47,4,17,4,5,0.4,0.7
2022-07-30T14:00:00,1618A,118.3429,35.0532,临沂市,沂河小区,,20,12,31,3,13,84,63,52,52,6,16,5,7,0.2,0.6
2022-07-30T14:00:00,1619A,118.295,35.0583,临沂市,鲁南制药厂,,20,2,19,6,13,87,64,52,52,5,15,3,6,0.3,0.8
2022-07-30T14:00:00,1620A,118.2794,34.9976,临沂市,新光毛纺厂,,21,5,21,9,14,91,65,54,54,7,16,4,5,0.3,0.6
2022-07-30T14:00:00,1621A,118.3956,35.0888,临沂市,河东保险公司,,19,7,22,8,11,73,60,48,48,3,16,5,5,0.2,0.7
2022-07-30T14:00:00,1622A,116.3032,37.4674,德州市,儿童乐园,,39,27,34,19,23,131,122,97,97,5,11,6,6,0.5,0.6
2022-07-30T14:00:00,1624A,116.2991,37.4451,德州市,监理站,,41,19,30,16,22,138,130,100,100,6,12,4,5,0.4,0.4
2022-07-30T14:00:00,1625A,115.9848,36.4372,聊城市,区政府,臭氧1小时,53,38,30,30,19,162,162,102,102,8,13,11,9,1.1,0.9
2022-07-30T14:00:00,1628A,118.0062,37.3803,滨州市,市环保局,,33,28,53,23,37,135,96,63,63,8,17,5,8,0.0,0.3
2022-07-30T14:00:00,1629A,118.0018,37.3617,滨州市,第二水厂,,29,16,40,14,33,127,91,64,64,4,18,6,6,0.5,0.9
2022-07-30T14:00:00,1630A,117.9776,37.393,滨州市,北中新校,,29,23,38,16,34,132,90,60,60,5,16,10,12,0.2,0.5
2022-07-30T14:00:00,1631A,118.0414,36.8103,淄博市,人民公园,,34,34,40,13,19,98,96,56,56,7,25,8,8,0.3,0.7
2022-07-30T14:00:00,1632A,118.0253,36.8406,淄博市,东风化工厂,,,,,,,,,,,,,,,,
2022-07-30T14:00:00,1633A,117.8525,36.4847,淄博市,双山,,38,38,29,22,17,114,114,50,50,14,15,10,9,0.3,0.4
2022-07-30T14:00:00,1634A,117.9592,36.6331,淄博市,气象站,,34,19,37,17,21,121,106,62,62,11,24,11,13,0.1,0.2
2022-07-30T14:00:00,1635A,118.3092,36.8194,淄博市,莆田园,,32,31,32,22,26,103,92,53,53,6,21,7,7,0,0.2
2022-07-30T14:00:00,1636A,117.8661,36.805,淄博市,三金集团,,,,,,,,,,,,,,,,
2022-07-30T14:00:00,1637A,117.558,34.8438,枣庄市,市中区政府,,18,7,25,7,12,113,55,78,49,9,17,6,8,0.2,0.5
2022-07-30T14:00:00,1638A,117.2852,34.7837,枣庄市,薛城环保局,,34,34,31,12,15,97,68,74,55,9,18,10,10,0.2,0.4
2022-07-30T14:00:00,1639A,117.5852,34.7745,枣庄市,峄城区政府,,17,12,24,6,15,108,54,74,54,10,15,12,9,0.3,0.5
2022-07-30T14:00:00,1640A,117.7276,34.5578,枣庄市,台儿庄区环保局,,16,5,23,7,13,100,49,37,36,9,12,10,11,0.4,0.5
2022-07-30T14:00:00,1641A,117.4518,35.0992,枣庄市,山亭区环保局,,27,14,23,15,18,109,84,74,58,8,12,10,10,0.5,0.6
2022-07-30T14:00:00,1642A,121.2514,37.5639,烟台市,开发区,,22,22,28,12,14,88,57,36,36,1,14,7,6,0.4,0.5
2022-07-30T14:00:00,1643A,121.3719,37.5433,烟台市,轴承厂,,25,22,24,13,17,93,77,54,54,4,6,8,7,0.1,0.1
2022-07-30T14:00:00,1644A,121.3181,37.5436,烟台市,西郊化工站,,24,17,20,9,11,74,74,52,52,5,6,10,8,0.1,0.1
2022-07-30T14:00:00,1645A,121.4478,37.4822,烟台市,莱山环保局,,24,14,20,13,14,91,74,47,47,2,5,8,9,0.4,0.4
2022-07-30T14:00:00,1646A,121.2611,37.4967,烟台市,福山环保局,,,,28,,12,35,,37,,,16,,6,,0.4
2022-07-30T14:00:00,1648A,119.12,36.7019,潍坊市,仲裁委,,,,,,,,,,,,,,,,
2022-07-30T14:00:00,1650A,119.1437,36.7023,潍坊市,环保局,,27,27,31,18,23,102,67,58,58,2,9,12,6,0.2,0.5
2022-07-30T14:00:00,1652A,119.1936,36.7729,潍坊市,寒亭监测站,,,,,,,,,,,,,,,,
2022-07-30T14:00:00,1653A,116.6251,35.4302,济宁市,火炬城,,25,18,35,12,22,108,80,58,58,2,15,8,12,0.4,0.6
2022-07-30T14:00:00,1655A,116.5491,35.4042,济宁市,电化厂,,31,23,33,12,22,105,98,73,73,2,11,7,15,0.6,0.9
2022-07-30T14:00:00,1656A,117.1437,36.1937,泰安市,监测站,,25,24,26,16,17,84,77,66,54,2,8,6,6,0.2,0.4
2022-07-30T14:00:00,1657A,117.0885,36.2017,泰安市,人口学校,,29,29,22,14,13,92,84,76,59,5,7,8,7,0.3,0.3
2022-07-30T14:00:00,1658A,117.1089,36.1758,泰安市,电力学校,,28,27,25,19,17,84,75,60,50,1,6,7,7,0.1,0.3
2022-07-30T14:00:00,1659A,119.471,35.4209,日照市,监测站,,20,17,19,11,15,83,62,55,55,10,12,4,4,0.3,0.4
2022-07-30T14:00:00,1660A,119.523,35.4216,日照市,市政府广场,,19,17,18,9,12,84,60,56,56,7,9,6,5,0.4,0.4
2022-07-30T14:00:00,1661A,119.5587,35.4044,日照市,港务局,,25,14,18,11,9,110,77,71,71,6,10,5,4,0.5,0.5
2022-07-30T14:00:00,1662A,122.1214,37.4236,威海市,华夏技校,,28,19,21,19,20,73,73,42,42,12,10,6,7,0.2,0.2
2022-07-30T14:00:00,1663A,122.0508,37.5236,威海市,山大分校,,33,22,19,15,16,105,105,52,52,9,11,4,4,0.2,0.2
2022-07-30T14:00:00,1664A,122.1067,37.5072,威海市,市监测站,,32,22,22,22,19,74,74,41,41,10,15,5,5,0.3,0.3
2022-07-30T14:00:00,1665A,118.5019,37.4658,东营市,西城阳光环保公司,,,,,,,,,,,,,,,,
2022-07-30T14:00:00,1666A,118.6614,37.4309,东营市,市环保局,,28,27,27,19,20,114,80,82,66,2,8,10,13,0.3,0.6
2022-07-30T14:00:00,1669A,113.5824,24.7733,韶关市,市八中,,50,40,39,35,17,154,154,103,103,9,14,6,7,0.5,0.6
2022-07-30T14:00:00,1670A,113.5556,24.8082,韶关市,碧湖山庄,,,,,,,,,,,,,,,,
2022-07-30T14:00:00,1671A,113.5917,24.7972,韶关市,园林处,,46,42,36,26,24,146,146,94,94,4,8,7,9,0.4,0.4
2022-07-30T14:00:00,1672A,113.6735,24.7791,韶关市,韶关学院,,43,38,47,28,29,251,136,94,94,6,14,12,12,0.4,0.5
2022-07-30T14:00:00,1673A,113.5971,24.6863,韶关市,曲江监测站,臭氧1小时,97,63,51,34,24,197,197,105,105,21,24,31,13,1.6,0.7
2022-07-30T14:00:00,1674A,116.6794,23.3667,汕头市,金平子站,臭氧1小时,84,27,38,16,18,187,187,128,128,11,20,13,12,0.8,0.8
2022-07-30T14:00:00,1675A,116.7244,23.3633,汕头市,龙湖子站,,46,46,50,18,14,154,142,112,112,10,20,9,12,0.7,0.8
2022-07-30T14:00:00,1676A,116.7258,23.2775,汕头市,濠江子站,臭氧1小时,69,63,39,20,14,189,175,120,120,11,18,12,13,0.6,0.8
2022-07-30T14:00:00,1677A,116.7519,23.4714,汕头市,澄海子站,臭氧1小时,77,53,41,30,21,181,181,121,121,12,16,8,10,0.7,0.7
2022-07-30T14:00:00,1678A,116.6092,23.2539,汕头市,潮阳子站,臭氧1小时,88,57,43,60,11,190,190,115,115,9,15,12,13,0.7,0.7
2022-07-30T14:00:00,1679A,116.4069,23.2533,汕头市,潮南子站,,,,,,,,,,,,,,,,
2022-07-30T14:00:00,1680A,110.3539,21.2706,湛江市,湛江影剧院,,34,30,31,20,14,106,106,62,62,6,11,6,10,0.5,0.6
2022-07-30T14:00:00,1681A,110.3928,21.2228,湛江市,市环境监测站,,39,39,35,11,17,104,104,61,61,7,13,5,13,0.5,0.5
2022-07-30T14:00:00,1682A,110.4019,21.1997,湛江市,环保局宿舍,,50,50,32,27,22,108,108,62,62,8,9,6,24,0.5,0.5
2022-07-30T14:00:00,1683A,110.4111,21.2028,湛江市,霞山游泳场,,34,34,29,20,16,107,104,62,62,10,10,7,15,0.6,0.6
2022-07-30T14:00:00,1684A,110.3316,21.2679,湛江市,麻章区环保局,,50,50,34,24,17,104,104,56,56,7,13,6,13,0.5,0.6
2022-07-30T14:00:00,1685A,110.4558,21.2567,湛江市,坡头区环保局,颗粒物(PM10),60,69,28,21,18,112,103,60,60,12,13,6,11,0.4,0.5
2022-07-30T14:00:00,1686A,111.0286,21.4688,茂名市,电白南海,,44,44,43,24,21,138,117,84,83,6,10,6,8,0.5,0.5
2022-07-30T14:00:00,1687A,110.9294,21.6533,茂名市,茂石化七小,,49,48,47,34,28,122,122,79,79,7,12,17,12,0.5,0.5
2022-07-30T14:00:00,1688A,110.9107,21.6687,茂名市,健康路,,42,39,37,23,21,133,133,86,86,3,8,16,18,0.6,0.6
2022-07-30T14:00:00,1689A,110.8592,21.6828,茂名市,高岭,,38,38,40,24,31,112,112,75,75,6,14,12,21,0.3,0.4
2022-07-30T14:00:00,1690A,116.1231,24.3284,梅州市,梅江月梅,,41,21,26,14,15,136,129,75,75,5,10,4,4,0.5,0.5
2022-07-30T14:00:00,1691A,116.0797,24.2719,梅州市,梅县新城,,46,29,28,16,19,146,146,83,83,8,14,6,5,0.5,0.5
2022-07-30T14:00:00,1692A,116.1248,24.2654,梅州市,环境监控中心,,43,25,29,26,31,157,136,83,83,8,13,6,7,0.6,0.5
2022-07-30T14:00:00,1693A,115.3653,22.775,汕尾市,市环保局,,40,36,30,20,21,134,127,99,99,5,9,6,6,0.7,0.7
2022-07-30T14:00:00,1694A,115.3706,22.7898,汕尾市,市政府,,47,28,30,24,20,156,148,116,116,4,9,6,6,0.8,0.8
2022-07-30T14:00:00,1695A,115.3622,22.7925,汕尾市,新城中学,,,74,49,27,28,150,150,107,107,,8,,6,,0.6
2022-07-30T14:00:00,1696A,114.6778,23.7569,河源市,源西(对照点),,50,50,38,26,21,167,138,94,94,3,8,4,4,0.5,0.5
2022-07-30T14:00:00,1697A,114.6944,23.7586,河源市,东埔,臭氧1小时,73,43,36,27,22,178,178,103,103,10,11,5,5,0.6,0.5
2022-07-30T14:00:00,1698A,114.6892,23.7233,河源市,老城,,,,53,30,20,184,178,104,104,8,11,2,2,0.6,0.6
2022-07-30T14:00:00,1699A,111.9797,21.8593,阳江市,鸳鸯湖(对照点),,,,,,,,,,,,,,,,
2022-07-30T14:00:00,1700A,111.9508,21.8536,阳江市,南恩路,,,,,,,,,,,,,,,,
2022-07-30T14:00:00,1701A,111.9491,21.8658,阳江市,马南垌,细颗粒物(PM2.5),52,31,46,36,31,149,113,97,85,12,10,6,7,0.5,0.7
2022-07-30T14:00:00,1702A,113.0426,23.691,清远市,环保大楼(对照点),臭氧1小时,124,59,52,44,36,248,248,156,156,8,16,4,5,0.7,0.7
2022-07-30T14:00:00,1703A,113.0208,23.7106,清远市,凤城街办,臭氧1小时,93,49,51,35,34,194,194,133,133,12,17,4,5,0.9,0.9
2022-07-30T14:00:00,1705A,116.6367,23.6719,潮州市,西园路(对照点),,32,24,28,22,18,130,100,77,77,5,9,5,5,0.2,0.3
2022-07-30T14:00:00,1706A,116.6447,23.6706,潮州市,档案局,,35,18,27,12,11,147,111,86,86,4,9,7,7,0.7,0.7
2022-07-30T14:00:00,1708A,116.3701,23.5345,揭阳市,新兴,,49,49,43,24,24,178,144,102,102,4,13,6,7,0.5,0.7
2022-07-30T14:00:00,1709A,116.3264,23.5443,揭阳市,西马,,43,28,41,22,24,184,136,94,94,4,14,8,10,0.5,0.6
2022-07-30T14:00:00,1710A,116.3611,23.5626,揭阳市,东兴,,43,30,44,27,22,180,136,95,95,5,16,5,7,0.6,0.8
2022-07-30T14:00:00,1711A,116.4151,23.5294,揭阳市,渔湖,,46,34,47,20,24,173,146,100,100,5,20,5,6,0.5,0.7
2022-07-30T14:00:00,1712A,112.0392,22.9169,云浮市,新市府(对照点),,,,,,,,,,,,,,,,
2022-07-30T14:00:00,1713A,112.0369,22.9394,云浮市,市监测站,,,,,,,,,,,,,,,,
2022-07-30T14:00:00,1714A,112.0539,22.9539,云浮市,牧羊,,45,44,64,26,23,148,141,77,77,11,28,24,36,0.5,0.6
2022-07-30T14:00:00,1715A,102.575,24.3711,玉溪市,东风水库,,38,2,18,11,9,120,120,52,52,11,14,4,5,0.6,0.8
2022-07-30T14:00:00,1718A,115.4208,35.2464,菏泽市,气象局,,45,29,37,29,30,144,144,89,89,6,11,4,4,0.4,0.5
2022-07-30T14:00:00,1719A,115.4747,35.2375,菏泽市,市政协,,48,44,42,29,26,152,152,94,94,7,12,7,8,0.3,0.3
2022-07-30T14:00:00,1720A,115.455,35.27,菏泽市,菏泽学院,,,,,,,,,,,,,,,,
2022-07-30T14:00:00,1721A,113.3819,40.1097,大同市,果树场(对照点),,,,,,,,,,,,,,,,
2022-07-30T14:00:00,1723A,113.2994,40.0758,大同市,云冈宾馆,,45,32,48,12,13,152,143,113,113,10,20,13,24,0.4,0.4
2022-07-30T14:00:00,1724A,113.3444,40.0917,大同市,大同大学,,46,26,36,6,12,158,146,118,118,6,16,8,22,0.3,0.4
2022-07-30T14:00:00,1725A,113.2661,40.1269,大同市,安家小村,,48,30,48,11,14,166,153,124,124,7,16,22,23,0.4,0.5
2022-07-30T14:00:00,1726A,113.2711,40.0844,大同市,教育学院,,45,29,48,18,15,150,141,112,112,8,17,22,33,0.3,0.4
2022-07-30T14:00:00,1727A,113.1147,36.1547,长治市,清华站,,49,29,44,22,22,154,154,102,102,5,18,9,9,0.6,1.1
2022-07-30T14:00:00,1728A,113.1031,36.1989,长治市,监测站,,50,38,57,22,21,160,160,107,107,8,18,8,9,0.8,1.5
2022-07-30T14:00:00,1730A,113.0886,36.2125,长治市,审计局,臭氧1小时,75,35,40,19,22,180,180,117,117,10,19,8,10,0.8,1.6
2022-07-30T14:00:00,1731A,113.0844,36.1856,长治市,长治八中,,49,37,43,20,20,155,154,105,105,7,17,10,11,1.0,1.5
2022-07-30T14:00:00,1733A,111.5531,36.0783,临汾市,临钢医院,,45,12,30,13,19,152,141,107,107,6,18,2,2,0.6,0.5
2022-07-30T14:00:00,1734A,111.5028,36.0714,临汾市,技工学校,,50,17,33,13,24,188,157,114,114,5,11,1,3,0.5,0.6
2022-07-30T14:00:00,1735A,111.5169,36.0822,临汾市,工商学校,,,,,,,,,,,,,,,,
2022-07-30T14:00:00,1736A,111.5018,36.0855,临汾市,市委,,46,19,37,17,25,186,147,112,112,6,15,2,3,0.5,0.6
2022-07-30T14:00:00,1738A,113.5758,37.8572,阳泉市,市中心,,47,27,50,10,21,154,150,100,89,7,19,8,17,0.7,0.9
2022-07-30T14:00:00,1739A,113.4894,37.8731,阳泉市,赛鱼,,49,26,48,16,18,154,154,105,94,8,14,10,11,0.7,0.7
2022-07-30T14:00:00,1740A,113.5819,37.8486,阳泉市,南庄,,46,24,56,18,27,146,146,97,87,6,17,8,17,0.7,0.9
2022-07-30T14:00:00,1741A,113.6292,37.8531,阳泉市,白羊墅,,,,,,,,,,,,,,,,
2022-07-30T14:00:00,1742A,113.5614,37.8703,阳泉市,平坦,,49,31,50,20,16,156,156,117,94,9,18,9,17,0.8,1
2022-07-30T14:00:00,1743A,113.5158,37.8392,阳泉市,大阳泉,,47,18,36,10,18,151,148,107,102,9,12,8,7,0.7,0.7
2022-07-30T14:00:00,1744A,118.9233,42.2816,赤峰市,松山一中,,35,24,27,4,12,127,110,93,93,13,18,10,12,0.4,0.7
2022-07-30T14:00:00,1745A,118.9576,42.2728,赤峰市,哈达街,,42,23,24,12,10,137,132,110,110,10,19,10,11,0.4,0.4
2022-07-30T14:00:00,1746A,118.8788,42.2554,赤峰市,天义路,,39,13,21,8,9,130,122,103,103,10,16,10,12,0.3,0.4
2022-07-30T14:00:00,1748A,123.044,41.1196,鞍山市,深沟寺,,20,20,20,13,13,80,38,36,36,15,10,5,6,0.7,0.7
2022-07-30T14:00:00,1749A,123.011,41.0931,鞍山市,太阳城,,38,31,24,26,15,72,21,32,32,23,14,6,5,2.2,1.1
2022-07-30T14:00:00,1750A,123.0485,41.1442,鞍山市,太平,,20,17,25,14,16,63,50,39,38,23,18,4,5,0.9,0.9
2022-07-30T14:00:00,1751A,122.9642,41.0971,鞍山市,铁西三道街,,27,27,35,13,19,76,36,43,43,31,28,6,6,1.6,1.3
2022-07-30T14:00:00,1752A,122.9341,41.0833,鞍山市,铁西工业园区,,22,22,27,11,17,71,39,44,44,19,16,5,5,0.9,1.2
2022-07-30T14:00:00,1753A,123.022,41.0821,鞍山市,明达新区,,21,21,21,11,12,73,30,46,46,21,12,2,3,1.0,0.6
2022-07-30T14:00:00,1754A,123.1289,41.0228,鞍山市,千山(对照点),,,,,,,,,,,,,,,,
2022-07-30T14:00:00,1755A,123.7977,41.8491,抚顺市,望花区,,32,27,29,12,19,104,101,60,60,7,21,4,3,0.4,0.8
2022-07-30T14:00:00,1756A,123.9161,41.8822,抚顺市,顺城区,,40,33,24,26,17,125,125,65,65,16,26,11,8,1.0,0.7
2022-07-30T14:00:00,1757A,124.0436,41.8611,抚顺市,东洲区,,30,25,24,15,11,94,94,60,60,5,9,8,8,0.3,0.5
2022-07-30T14:00:00,1758A,123.9247,41.8642,抚顺市,新抚区,,36,34,23,24,15,115,115,82,82,14,18,5,3,1.0,0.7
2022-07-30T14:00:00,1759A,124.0972,41.8961,抚顺市,大伙房水库,,26,17,16,14,8,84,83,50,50,4,8,5,5,0.2,0.3
2022-07-30T14:00:00,1760A,123.7086,41.8391,抚顺市,沈抚新城,,29,19,22,14,14,102,92,54,54,8,17,4,6,0.5,0.7
2022-07-30T14:00:00,1761A,123.8275,41.3064,本溪市,大峪,,15,12,18,9,11,68,46,40,34,5,13,5,5,0.5,0.6
2022-07-30T14:00:00,1762A,123.7567,41.3325,本溪市,溪湖,,23,23,26,10,13,75,52,41,41,5,22,6,7,0.8,1.2
2022-07-30T14:00:00,1763A,123.7169,41.3094,本溪市,彩屯,,32,32,34,12,19,50,31,37,27,19,18,4,4,1.5,1.5
2022-07-30T14:00:00,1764A,123.7669,41.2864,本溪市,东明,,22,22,21,10,10,67,45,59,39,8,14,5,5,0.4,0.4
2022-07-30T14:00:00,1765A,123.7992,41.2664,本溪市,新立屯,,29,29,21,9,9,68,38,48,48,5,8,3,3,0.5,0.5
2022-07-30T14:00:00,1766A,123.8142,41.3472,本溪市,威宁,,18,18,27,5,8,68,40,31,31,4,11,8,8,0.4,0.5
2022-07-30T14:00:00,1767A,121.1115,41.0879,锦州市,南山,,30,11,18,14,12,97,94,75,75,5,15,4,6,0.6,0.7
2022-07-30T14:00:00,1768A,121.0533,40.8434,锦州市,开发区,,38,31,27,18,22,119,119,91,91,2,31,3,10,0.7,0.8
2022-07-30T14:00:00,1769A,121.1836,41.1119,锦州市,百股街道,,36,19,12,15,13,114,114,93,93,2,10,4,7,0.5,0.6
2022-07-30T14:00:00,1770A,121.1178,41.1222,锦州市,天安街道,,31,23,18,14,18,108,99,86,86,8,17,5,7,0.7,0.8
2022-07-30T14:00:00,1771A,121.1303,41.1386,锦州市,北湖公园,,39,25,20,27,22,104,101,82,82,6,13,3,4,0.5,0.7
2022-07-30T14:00:00,1772A,126.54,43.8622,吉林市,哈达湾,,27,9,14,12,10,96,84,58,58,4,7,5,5,0.6,0.6
2022-07-30T14:00:00,1773A,126.5844,43.8358,吉林市,东局子,,26,16,16,8,9,95,81,54,54,7,12,8,8,0.7,0.7
2022-07-30T14:00:00,1774A,126.5052,43.8245,吉林市,电力学院,,25,14,17,11,8,87,77,51,51,5,12,7,7,0.6,0.6
2022-07-30T14:00:00,1775A,126.6133,43.8972,吉林市,江北,,25,16,17,10,8,84,80,49,49,5,9,7,7,0.7,0.7
2022-07-30T14:00:00,1776A,126.555,43.8306,吉林市,江南公园,,25,16,14,12,9,95,77,56,56,6,9,3,4,0.6,0.3
2022-07-30T14:00:00,1778A,126.7061,43.7133,吉林市,丰满(对照点),,,,,,,,,,,,,,,,
2022-07-30T14:00:00,1779A,123.9305,47.3636,齐齐哈尔市,安居小区,,31,25,29,7,14,99,99,76,76,10,15,5,5,0.4,0.5
2022-07-30T14:00:00,1780A,123.9488,47.3386,齐齐哈尔市,中心广场,,32,12,24,4,10,100,100,82,82,7,12,3,4,0.4,0.5
2022-07-30T14:00:00,1781A,123.9483,47.3227,齐齐哈尔市,农牧车辆厂,,29,29,34,9,12,94,92,75,75,5,6,3,3,0.4,0.4
2022-07-30T14:00:00,1783A,123.945,47.2988,齐齐哈尔市,市环境监测站,,31,9,21,9,10,99,99,77,77,6,11,7,8,0.4,0.3
2022-07-30T14:00:00,1784A,129.61,44.561,牡丹江市,环保大楼,,22,18,16,7,8,70,69,51,51,6,8,4,4,0.3,0.3
2022-07-30T14:00:00,1785A,129.6115,44.5782,牡丹江市,文化广场,,15,11,17,7,8,64,47,43,43,13,8,2,2,0.5,0.4
2022-07-30T14:00:00,1786A,129.5904,44.5963,牡丹江市,第一医院,,12,9,8,5,6,51,37,31,31,7,7,2,3,0.7,0.7
2022-07-30T14:00:00,1787A,129.6364,44.6075,牡丹江市,机车工厂,,15,11,17,8,7,66,47,37,37,7,9,5,3,0.4,0.4
2022-07-30T14:00:00,1788A,129.6386,44.5462,牡丹江市,第一中学,,15,15,24,10,10,57,47,39,39,6,11,3,3,0.4,0.4
2022-07-30T14:00:00,1789A,124.81117,46.03138,大庆市,大同区,,27,1,13,1,7,96,84,59,57,4,8,4,4,0.4,0.4
2022-07-30T14:00:00,1790A,125.129,46.533,大庆市,龙凤区,,,,12,,6,106,76,70,70,,11,6,5,0.2,0.2
2022-07-30T14:00:00,1791A,124.902,46.408,大庆市,红岗区,,24,7,7,6,6,100,75,72,72,5,7,4,2,0.4,0.4
2022-07-30T14:00:00,1792A,125.153,46.586,大庆市,萨尔图区,,24,2,18,9,10,90,74,72,72,7,13,3,3,0.4,0.4
2022-07-30T14:00:00,1793A,124.9042,46.6215,大庆市,让胡路区,,30,18,15,8,9,113,93,84,84,6,13,4,5,0.3,0.2
2022-07-30T14:00:00,1794A,118.3606,31.3519,芜湖市,监测站,,36,29,34,7,22,142,114,78,76,11,22,10,12,0.4,0.7
2022-07-30T14:00:00,1795A,118.3714,31.4134,芜湖市,科创中心,,38,19,33,8,19,153,119,77,77,5,21,7,9,0.5,0.7
2022-07-30T14:00:00,1796A,118.3673,31.3131,芜湖市,四水厂,,43,25,37,10,19,161,136,85,85,9,20,8,9,0.4,0.6
2022-07-30T14:00:00,1797A,118.4022,31.3839,芜湖市,济民医院(对照点),,,,,,,,,,,,,,,,
2022-07-30T14:00:00,1798A,118.5092,31.6837,马鞍山市,湖东路四小,,43,41,31,11,18,170,136,80,80,8,20,3,4,0.6,0.8
2022-07-30T14:00:00,1799A,118.5024,31.6449,马鞍山市,开发区,,43,10,28,9,23,170,135,77,77,8,20,9,10,0.7,0.9
2022-07-30T14:00:00,1800A,118.5228,31.7231,马鞍山市,慈湖,,41,26,35,14,23,150,130,77,77,3,21,4,8,0.6,0.9
2022-07-30T14:00:00,1801A,118.48,31.6928,马鞍山市,马钢动力厂,,,,,,,,,,,,,,,,
2022-07-30T14:00:00,1802A,118.6245,31.7241,马鞍山市,濮塘(对照点),,,,29,,19,136,124,70,70,2,13,2,3,0.4,0.6
2022-07-30T14:00:00,1803A,115.9872,29.6815,九江市,十里,,46,26,21,22,15,147,147,102,102,6,13,6,6,0.8,0.8
2022-07-30T14:00:00,1804A,115.9584,29.7046,九江市,茅山头,,42,29,21,24,16,133,133,93,93,5,10,6,6,0.7,0.6
2022-07-30T14:00:00,1805A,115.9877,29.7295,九江市,西园,,42,23,29,17,14,134,134,91,91,11,21,9,10,1.0,0.7
2022-07-30T14:00:00,1806A,116.0172,29.6547,九江市,五七二七厂,,43,32,24,28,15,138,135,100,100,4,10,4,5,0.9,0.6
2022-07-30T14:00:00,1808A,115.9114,29.6038,九江市,综合工业园,,48,31,22,24,13,151,151,95,95,7,17,5,5,0.7,0.6
2022-07-30T14:00:00,1809A,116.0721,29.7535,九江市,石化总厂,,45,38,34,21,15,142,142,98,98,6,18,5,5,0.7,0.6
2022-07-30T14:00:00,1810A,115.9773,29.5698,九江市,庐山气象台(对照点),,43,32,26,30,23,124,124,110,107,10,8,7,8,0.5,0.6
2022-07-30T14:00:00,1811A,112.3628,34.6692,洛阳市,中信二小,,,,,,,,,,,,,,,,
2022-07-30T14:00:00,1812A,112.3931,34.6516,洛阳市,市委党校,,47,36,47,26,28,169,149,103,103,3,17,4,5,0.5,0.6
2022-07-30T14:00:00,1814A,112.4657,34.6871,洛阳市,豫西宾馆,,44,32,46,27,26,159,140,100,100,4,14,3,3,0.4,0.5
2022-07-30T14:00:00,1815A,112.494,34.6886,洛阳市,河南林校,,41,32,37,24,21,152,130,95,95,2,10,1,1,0.2,0.3
2022-07-30T14:00:00,1816A,112.3844,34.623,洛阳市,开发区管委会,,47,40,44,28,27,170,150,103,103,2,11,6,6,0.8,0.8
2022-07-30T14:00:00,1817A,112.4267,34.6258,洛阳市,市委新办公区,,44,36,45,30,26,159,139,98,98,1,9,4,5,0.4,0.5
2022-07-30T14:00:00,1818A,114.4839,36.0621,安阳市,棉研所(对照点),,,,,,,,,,,,,,,,
2022-07-30T14:00:00,1819A,114.3551,36.1017,安阳市,红庙街,颗粒物(PM10),51,52,43,32,21,149,138,94,94,12,24,3,5,0.4,0.5
2022-07-30T14:00:00,1820A,114.361,36.0681,安阳市,银杏小区,,,48,42,,23,154,147,100,100,2,13,3,4,0.4,0.4
2022-07-30T14:00:00,1824A,114.3389,34.7781,开封市,肿瘤医院,,39,3,32,18,20,135,123,90,90,4,10,4,3,0.4,0.5
2022-07-30T14:00:00,1826A,114.2885,34.7965,开封市,世纪星幼儿园,,35,27,35,18,20,131,110,82,82,4,10,5,5,0.6,0.7
2022-07-30T14:00:00,1828A,113.227,35.2125,焦作市,市环保局,,49,42,40,24,18,158,156,108,108,2,4,1,3,0.6,0.5
2022-07-30T14:00:00,1829A,113.2464,35.1764,焦作市,高新区政府（停运20220628）,,,,,,,,,,,,,,,,
2022-07-30T14:00:00,1830A,113.1992,35.2590,焦作市,影视城(对照点),,,,,,,,,,,,,,,,
2022-07-30T14:00:00,1832A,113.3257,33.742,平顶山市,新华旅馆,,42,41,41,23,20,137,134,98,98,7,14,3,3,0.3,0.3
2022-07-30T14:00:00,1833A,113.2919,33.737,平顶山市,规划设计院,,45,45,43,27,20,138,129,92,92,8,14,3,6,0.6,0.6
2022-07-30T14:00:00,1834A,113.182,33.774,平顶山市,平顶山工学院,,47,47,48,28,27,140,123,88,88,8,16,3,6,0.5,0.5
2022-07-30T14:00:00,1835A,111.1922,34.7752,三门峡市,市政府,,41,32,40,21,25,169,131,115,115,8,11,5,6,0.5,0.6
2022-07-30T14:00:00,1836A,111.1587,34.7942,三门峡市,开发区,颗粒物(PM10),59,67,69,20,25,171,130,113,113,8,14,2,4,0.5,0.6
2022-07-30T14:00:00,1838A,111.143,34.7955,三门峡市,风景区(对照点),,,,,,,,,,,,,,,,
2022-07-30T14:00:00,1839A,111.3009,30.7157,宜昌市,四零三,,,,,,,,,,,,,,,,
2022-07-30T14:00:00,1840A,111.2992,30.6981,宜昌市,白龙岗,臭氧1小时,59,36,33,19,16,167,167,94,94,17,20,11,10,0.6,0.6
2022-07-30T14:00:00,1841A,111.3549,30.6465,宜昌市,伍家岗,,,46,36,24,21,158,158,93,93,20,26,,3,0.6,0.6
2022-07-30T14:00:00,1842A,111.2628,30.6961,宜昌市,点军区,臭氧1小时,57,39,36,19,15,165,165,84,84,14,18,4,4,0.6,0.6
2022-07-30T14:00:00,1843A,111.3275,30.7819,宜昌市,夷陵区,,46,29,34,19,13,147,147,91,91,10,14,5,5,0.5,0.6
2022-07-30T14:00:00,1844A,112.2494,30.3197,荆州市,市图书馆,,45,14,24,16,16,141,141,102,102,6,13,7,9,0.5,0.6
2022-07-30T14:00:00,1845A,112.2008,30.3544,荆州市,市委党校,,46,24,32,13,17,147,147,99,99,4,12,7,9,0.6,0.7
2022-07-30T14:00:00,1847A,113.1094,29.3578,岳阳市,南湖风景区,,41,41,25,23,20,129,129,76,76,9,14,5,8,0.6,0.6
2022-07-30T14:00:00,1848A,113.1493,29.4251,岳阳市,城陵矶,,38,33,32,20,18,119,119,73,73,5,17,7,16,0.6,0.7
2022-07-30T14:00:00,1849A,113.1497,29.3575,岳阳市,开发区,,42,34,26,23,23,141,133,78,78,9,18,6,10,0.5,0.5
2022-07-30T14:00:00,1850A,113.2621,29.4758,岳阳市,云溪区,,41,34,27,20,16,130,130,89,89,5,9,7,11,0.6,0.6
2022-07-30T14:00:00,1851A,112.9943,29.4402,岳阳市,君山区,,39,26,23,21,16,122,122,87,87,2,7,6,6,0.5,0.5
2022-07-30T14:00:00,1852A,113.2117,29.355,岳阳市,金凤水库(对照点),,45,45,26,22,15,139,134,78,78,5,17,2,5,0.7,0.7
2022-07-30T14:00:00,1854A,111.6975,28.9703,常德市,市二中,,36,26,20,21,13,114,114,65,65,8,14,4,4,0.6,0.6
2022-07-30T14:00:00,1857A,111.7158,29.1456,常德市,白鹤山(对照点),,36,26,24,23,13,114,114,83,83,3,6,5,5,0.5,0.5
2022-07-30T14:00:00,1858A,110.5319,29.1217,张家界市,永定新区,,33,17,15,22,19,109,103,73,73,2,8,3,3,0.2,0.2
2022-07-30T14:00:00,1859A,110.4697,29.1242,张家界市,电业局,,35,26,17,11,7,114,111,74,74,2,5,4,4,0.2,0.2
2022-07-30T14:00:00,1860A,110.5594,29.3547,张家界市,未央路,,30,25,26,14,14,103,95,65,65,4,5,2,2,0.2,0.3
2022-07-30T14:00:00,1861A,110.4417,29.315,张家界市,袁家界(对照点),,,18,19,7,12,126,112,106,106,5,5,5,5,,0.6
2022-07-30T14:00:00,1862A,110.4144,25.3167,桂林市,电子科大尧山校区(对照点),,,,32,12,20,151,70,54,54,4,7,7,19,0.6,0.7
2022-07-30T14:00:00,1863A,110.2819,25.2697,桂林市,监测站,,33,33,33,13,14,102,82,44,44,10,18,11,24,0.6,0.7
2022-07-30T14:00:00,1864A,110.3089,25.2708,桂林市,龙隐路小学,,24,18,26,14,17,110,75,45,45,8,16,8,21,0.4,0.4
2022-07-30T14:00:00,1865A,110.2869,25.2178,桂林市,八中,,25,19,28,8,15,118,77,43,43,11,16,14,20,0.6,0.6
2022-07-30T14:00:00,1866A,109.2262,21.588,北海市,牛尾岭水库(对照点),,18,15,28,12,10,70,56,37,37,2,5,5,5,0.4,0.4
2022-07-30T14:00:00,1867A,109.1436,21.4086,北海市,海滩公园,,19,12,13,10,5,61,60,50,50,2,2,4,4,0.5,0.5
2022-07-30T14:00:00,1868A,109.0981,21.4661,北海市,新市环保局,,20,15,10,7,9,62,62,50,50,1,2,4,4,0.4,0.4
2022-07-30T14:00:00,1869A,109.1778,21.5233,北海市,北海工业园,,,11,14,10,9,65,61,44,44,,,5,5,0.4,0.4
2022-07-30T14:00:00,1870A,109.4856,24.3895,柳州市,柳东小学,,40,37,47,28,44,92,70,51,51,5,8,22,23,0.6,0.7
2022-07-30T14:00:00,1871A,109.4157,24.3277,柳州市,环保监测站,颗粒物(PM10),52,53,47,28,30,81,56,46,44,30,19,38,13,1.3,0.6
2022-07-30T14:00:00,1872A,109.389,24.341,柳州市,河西水厂,,43,43,54,25,30,75,62,34,34,15,20,11,9,0.9,1
2022-07-30T14:00:00,1873A,109.4311,24.2921,柳州市,市四中,颗粒物(PM10),51,52,53,30,36,94,58,49,49,26,16,24,14,1.3,0.8
2022-07-30T14:00:00,1874A,109.4006,24.3631,柳州市,市九中,,,43,59,,35,74,62,48,41,21,18,16,16,0.8,0.8
2022-07-30T14:00:00,1875A,109.4958,24.3134,柳州市,古亭山,,32,32,41,19,28,100,67,51,51,8,12,10,12,0.6,0.7
2022-07-30T14:00:00,1876A,109.5078,18.2489,三亚市,河东子站,,13,2,14,6,7,42,41,30,30,5,8,1,2,0.4,0.4
2022-07-30T14:00:00,1877A,109.4964,18.2681,三亚市,河西子站,,14,3,12,6,9,49,43,33,33,4,7,4,4,0.3,0.3
2022-07-30T14:00:00,1878A,104.7778,31.4741,绵阳市,富乐山,颗粒物(PM10),52,53,33,13,21,155,155,97,97,7,14,14,12,0.5,0.6
2022-07-30T14:00:00,1879A,104.7563,31.4535,绵阳市,市人大,,46,34,44,30,22,147,147,82,82,8,25,10,4,0.5,0.6
2022-07-30T14:00:00,1880A,104.6697,31.4668,绵阳市,高新区自来水公司,臭氧1小时,59,40,48,40,26,167,167,93,93,12,28,8,7,0.4,0.6
2022-07-30T14:00:00,1881A,104.7287,31.5075,绵阳市,三水厂,臭氧1小时,70,38,52,22,27,176,176,81,81,8,32,5,5,0.5,0.7
2022-07-30T14:00:00,1882A,104.563,28.793,宜宾市,石马中学(对照点),,50,45,54,34,31,179,159,78,78,7,24,7,6,0.6,0.6
2022-07-30T14:00:00,1883A,104.6201,28.7728,宜宾市,市委,臭氧1小时,70,50,51,35,30,180,176,90,90,13,28,8,8,0.6,0.6
2022-07-30T14:00:00,1884A,104.6055,28.793,宜宾市,宜宾四中,臭氧1小时,68,45,66,34,34,186,174,99,99,8,28,10,10,0.7,0.7
2022-07-30T14:00:00,1885A,104.639,28.7562,宜宾市,市政府,臭氧1小时,95,72,67,36,32,196,196,110,110,11,40,11,10,0.7,0.8
2022-07-30T14:00:00,1886A,104.5742,28.7199,宜宾市,黄金嘴,臭氧1小时,73,52,47,32,27,178,178,108,108,7,25,7,7,0.6,0.6
2022-07-30T14:00:00,1888A,101.6891,26.571,攀枝花市,弄弄坪,,43,34,48,19,28,154,136,58,58,12,32,11,12,1.1,1.6
2022-07-30T14:00:00,1889A,101.5769,26.5928,攀枝花市,河门口,,44,32,37,23,21,177,139,65,65,26,22,41,23,2.7,1.6
2022-07-30T14:00:00,1890A,101.7169,26.585,攀枝花市,炳草岗,,40,26,47,18,24,150,128,57,57,19,36,21,17,0.6,0.9
2022-07-30T14:00:00,1891A,101.7369,26.5008,攀枝花市,仁和,,40,39,34,25,21,127,125,62,62,7,14,30,17,0.3,0.5
2022-07-30T14:00:00,1893A,105.4324,28.9634,泸州市,九狮山(对照点),,42,27,30,11,17,134,134,72,72,11,19,8,7,0.2,0.4
2022-07-30T14:00:00,1894A,105.4427,28.9063,泸州市,小市上码头,臭氧1小时,84,33,54,23,28,201,187,116,116,12,24,12,12,0.6,0.7
2022-07-30T14:00:00,1895A,105.4241,28.8573,泸州市,兰田宪桥,臭氧1小时,62,34,50,27,32,201,169,103,103,10,26,10,12,0.4,0.5
2022-07-30T14:00:00,1896A,105.4379,28.8833,泸州市,市环监站,,48,26,54,19,36,210,153,106,106,13,32,6,9,0.4,0.5
2022-07-30T14:00:00,1897A,104.7547,29.3628,自贡市,大塘山(对照点),,,,,,,,,,,,,,,,
2022-07-30T14:00:00,1900A,104.7692,29.3411,自贡市,春华路,,,,,,,,,,,,,,,,
2022-07-30T14:00:00,1901A,104.4239,31.1208,德阳市,东山公园,臭氧1小时,72,41,42,16,20,177,177,101,101,6,15,4,8,0.6,0.7
2022-07-30T14:00:00,1902A,104.3826,31.1317,德阳市,西小区,臭氧1小时,97,52,53,14,17,197,197,98,98,10,22,11,10,0.6,0.7
2022-07-30T14:00:00,1903A,104.4053,31.1167,德阳市,市检察院,,,,,,,,,,,,,,,,
2022-07-30T14:00:00,1904A,104.3553,31.1091,德阳市,耐火材料厂,臭氧1小时,80,42,52,17,19,184,184,96,96,9,24,6,7,0.6,0.7
2022-07-30T14:00:00,1905A,106.056,30.8064,南充市,西山风景区(对照点),,44,34,36,17,22,140,140,93,93,10,19,4,4,0.8,0.8
2022-07-30T14:00:00,1906A,106.0789,30.8023,南充市,南充市委,,47,41,44,11,20,150,150,109,109,2,12,2,2,0.4,0.4
2022-07-30T14:00:00,1907A,106.1031,30.8217,南充市,南充炼油厂,臭氧1小时,64,43,49,17,22,171,171,98,98,8,12,7,7,0.5,0.5
2022-07-30T14:00:00,1908A,106.1064,30.7856,南充市,高坪区监测站,,47,47,35,15,22,149,149,88,88,8,19,3,2,0.4,0.5
2022-07-30T14:00:00,1909A,106.0642,30.7636,南充市,嘉陵区环保局,,45,40,40,16,24,141,141,96,96,4,15,5,5,0.3,0.4
2022-07-30T14:00:00,1910A,106.1087,30.8388,南充市,市环境监测站,,46,42,50,32,24,144,140,94,94,8,15,4,4,0.3,0.3
2022-07-30T14:00:00,1911A,106.9222,27.6869,遵义市,丁字口,,32,8,27,6,17,134,102,60,60,2,16,6,6,0.6,0.7
2022-07-30T14:00:00,1912A,106.9242,27.7019,遵义市,凤凰山,,30,14,23,6,13,132,96,73,62,4,13,3,3,0.5,0.6
2022-07-30T14:00:00,1913A,106.8906,27.6486,遵义市,忠庄,,32,15,37,6,14,130,100,62,62,5,16,1,2,0.3,0.4
2022-07-30T14:00:00,1914A,106.9231,27.6506,遵义市,舟水桥,,30,19,33,5,15,122,93,53,53,5,13,2,2,0.4,0.4
2022-07-30T14:00:00,1915A,106.9178,27.72,遵义市,干田坝,,32,5,25,12,16,135,101,62,62,6,16,5,5,0.6,0.7
2022-07-30T14:00:00,1916A,103.7897,25.5035,曲靖市,环境监测站,,45,27,34,21,22,159,144,70,70,9,19,4,6,0.5,0.6
2022-07-30T14:00:00,1917A,103.8,25.5364,曲靖市,烟厂办公区,,45,24,35,21,21,156,144,73,73,4,17,4,9,0.5,0.7
2022-07-30T14:00:00,1918A,108.7197,34.3956,咸阳市,气象站(对照点),,50,40,53,26,27,182,157,126,126,1,10,6,6,0.9,0.9
2022-07-30T14:00:00,1919A,108.673,34.3155,咸阳市,实验中学,臭氧1小时,60,52,52,25,27,222,168,128,128,10,18,4,5,0.4,0.4
2022-07-30T14:00:00,1920A,108.7233,34.3617,咸阳市,师范学院,颗粒物(PM10),52,53,54,27,28,186,158,124,124,5,12,6,6,0.7,0.7
2022-07-30T14:00:00,1922A,109.0656,35.0994,铜川市,党校(对照点),,34,34,47,17,21,121,89,88,88,4,12,4,4,0.7,0.7
2022-07-30T14:00:00,1923A,109.0697,35.0697,铜川市,王益区政府,,41,34,42,23,22,144,129,110,110,4,10,4,5,0.7,0.6
2022-07-30T14:00:00,1924A,108.9344,34.9058,铜川市,新区管委会,,43,38,50,24,26,161,137,109,109,9,19,6,7,0.5,0.6
2022-07-30T14:00:00,1925A,108.9589,34.8731,铜川市,新区兰芝公司,,,,,,,,,,,,,,,,
2022-07-30T14:00:00,1926A,109.4131,36.6275,延安市,枣园(对照点),,40,28,37,18,17,137,128,79,79,3,18,4,4,0.6,0.6
2022-07-30T14:00:00,1927A,109.4761,36.6028,延安市,延大医附院,,37,32,47,19,20,128,116,76,76,2,23,4,4,0.3,0.4
2022-07-30T14:00:00,1928A,109.4824,36.5767,延安市,市监测站,,,,,,,,,,,,,,,,
2022-07-30T14:00:00,1929A,109.5056,36.6106,延安市,百米大道,,33,33,53,17,21,134,105,76,76,7,24,7,8,0.6,0.7
2022-07-30T14:00:00,1930A,107.185,34.3063,宝鸡市,庙沟村(对照点),,40,40,52,28,25,156,125,102,79,7,14,5,5,0.5,0.4
2022-07-30T14:00:00,1931A,107.0708,34.3017,宝鸡市,竹园沟,颗粒物(PM10),55,59,49,32,32,177,148,87,87,10,15,5,5,0.6,0.5
2022-07-30T14:00:00,1932A,107.1906,34.3672,宝鸡市,三陆医院,颗粒物(PM10),57,63,63,28,27,179,155,109,109,9,18,6,6,0.5,0.5
2022-07-30T14:00:00,1933A,107.1431,34.3547,宝鸡市,监测站,颗粒物(PM10),57,63,56,35,33,176,155,104,104,18,22,6,6,0.5,0.5
2022-07-30T14:00:00,1934A,107.1186,34.3739,宝鸡市,技工学校,,,76,61,28,20,178,161,105,105,15,21,,6,0.5,0.5
2022-07-30T14:00:00,1935A,107.3906,34.3528,宝鸡市,陈仓区环保局家属楼,颗粒物(PM10),54,58,65,34,32,184,151,101,101,8,23,6,6,0.5,0.5
2022-07-30T14:00:00,1936A,107.2058,34.3497,宝鸡市,文理学院,,50,50,60,28,28,183,156,111,111,12,19,8,9,0.4,0.4
2022-07-30T14:00:00,1937A,107.2386,34.3622,宝鸡市,三迪小学,颗粒物(PM10),51,51,59,35,37,171,146,103,103,14,24,6,6,0.4,0.5
2022-07-30T14:00:00,1938A,109.5293,34.5101,渭南市,农科所(对照点),,,,,,,,,,,,,,,,
2022-07-30T14:00:00,1939A,109.4974,34.4877,渭南市,日报社,,48,36,46,28,32,156,152,121,121,7,15,6,6,0.4,0.4
2022-07-30T14:00:00,1940A,109.4636,34.493,渭南市,体育馆,,49,41,44,25,29,166,156,126,126,6,11,3,4,0.4,0.4
2022-07-30T14:00:00,1941A,109.4259,34.5023,渭南市,高新一小,,,53,55,24,27,151,144,110,110,,16,5,5,0.3,0.3
2022-07-30T14:00:00,1943A,102.1725,38.5339,金昌市,新川苑,,,61,44,14,9,147,128,113,113,6,16,9,13,,0.6
2022-07-30T14:00:00,1944A,102.1692,38.5167,金昌市,天庆家园,颗粒物(PM10),56,62,51,15,11,143,128,105,105,4,19,8,22,0.5,0.6
2022-07-30T14:00:00,1945A,98.2908,39.7711,嘉峪关市,气象局,,40,22,43,7,12,144,126,105,89,4,21,5,3,0.4,0.5
2022-07-30T14:00:00,1947A,106.3394,38.817,石嘴山市,沙湖旅游区(对照点),颗粒物(PM10),56,61,71,17,24,203,163,119,119,9,16,21,22,0.4,0.4
2022-07-30T14:00:00,1948A,106.3668,39.0145,石嘴山市,大武口朝阳西街,臭氧1小时,90,72,65,33,24,192,192,110,110,15,19,23,14,1.1,0.8
2022-07-30T14:00:00,1949A,106.7704,39.2282,石嘴山市,惠农南大街,,44,44,53,18,18,181,140,98,98,9,17,12,12,0.5,0.5
2022-07-30T14:00:00,1950A,106.7099,39.1325,石嘴山市,红果子镇惠新街,颗粒物(PM10),72,93,82,24,23,179,139,108,108,20,17,12,13,0.4,0.4
2022-07-30T14:00:00,1951A,84.895,45.6094,克拉玛依市,长征新村,,31,23,28,7,6,112,98,112,69,2,8,8,8,0.2,0.2
2022-07-30T14:00:00,1952A,84.8988,45.5893,克拉玛依市,南林小区,,33,14,27,11,11,116,103,116,62,7,17,9,8,0.4,0.5
2022-07-30T14:00:00,1953A,85.1186,45.6886,克拉玛依市,白碱滩区,,,,,,,,,,,,,,,,
2022-07-30T14:00:00,1954A,84.905,44.3396,克拉玛依市,独山子区,,40,23,19,6,10,128,125,110,99,5,7,9,9,0.5,0.5
2022-07-30T14:00:00,1955A,85.6979,46.098,克拉玛依市,乌尔禾区商贸楼,,32,26,33,10,12,120,100,90,90,1,6,12,12,0.3,0.2
2022-07-30T14:00:00,1956A,86.1472,41.7538,巴音郭楞州,孔雀公园,,50,50,54,21,12,120,109,72,63,12,29,4,4,0.2,0.4
2022-07-30T14:00:00,1957A,86.1972,41.7166,巴音郭楞州,棉纺厂,颗粒物(PM10),53,56,53,18,18,115,115,96,70,5,25,4,4,0.2,0.3
2022-07-30T14:00:00,1958A,86.2357,41.7173,巴音郭楞州,经济开发区,,37,31,37,4,15,118,116,105,89,3,14,5,5,0.2,0.2
2022-07-30T14:00:00,1959A,118.746,36.881,寿光市,监测站,,,,,,,,,,,,,,,,
2022-07-30T14:00:00,1960A,118.780,36.864,寿光市,世纪学校,,,,,,,,,,,,,,,,
2022-07-30T14:00:00,1961A,117.532,36.6868,济南市,东山小学,细颗粒物(PM2.5),59,56,43,42,18,123,123,66,66,11,22,4,3,0.7,0.6
2022-07-30T14:00:00,1962A,117.541,36.710,章丘市,明水开发区,,,,,,,,,,,,,,,,
2022-07-30T14:00:00,1963A,120.610,36.440,即墨市,环保局子站,,,,,,,,,,,,,,,,
2022-07-30T14:00:00,1964A,120.470,36.390,即墨市,开发区子站,,,,,,,,,,,,,,,,
2022-07-30T14:00:00,1965A,120.005,35.878,胶南市,JN子站,,,,,,,,,,,,,,,,
2022-07-30T14:00:00,1966A,120.0405,35.8735,青岛市,黄岛区4号,,30,17,18,14,8,118,93,80,80,8,4,6,4,0.5,0.4
2022-07-30T14:00:00,1967A,120.008,36.283,胶州市,胶州环保局,,,,,,,,,,,,,,,,
2022-07-30T14:00:00,1968A,120.014,36.253,胶州市,胶州一中,,,,,,,,,,,,,,,,
2022-07-30T14:00:00,1969A,120.537,36.865,莱西市,环保局子站,,,,,,,,,,,,,,,,
2022-07-30T14:00:00,1970A,120.515,36.885,莱西市,人民广场子站,,,,,,,,,,,,,,,,
2022-07-30T14:00:00,1971A,119.952,36.792,平度市,1号,,,,,,,,,,,,,,,,
2022-07-30T14:00:00,1972A,119.976,36.799,平度市,2号,,,,,,,,,,,,,,,,
2022-07-30T14:00:00,1973A,120.747,37.825,蓬莱市,蓬莱环保局,,,,,,,,,,,,,,,,
2022-07-30T14:00:00,1974A,120.773,37.809,蓬莱市,蓬莱博物馆,,,,,,,,,,,,,,,,
2022-07-30T14:00:00,1975A,120.399,37.374,招远市,招远环保局,,,,,,,,,,,,,,,,
2022-07-30T14:00:00,1976A,120.394,37.364,招远市,招远教育局,,,,,,,,,,,,,,,,
2022-07-30T14:00:00,1977A,119.941,37.177,莱州市,莱州环保局,,,,,,,,,,,,,,,,
2022-07-30T14:00:00,1978A,119.959,37.180,莱州市,莱州外经委,,,,,,,,,,,,,,,,
2022-07-30T14:00:00,1979A,122.471,37.154,荣成市,荣成市环保局办公楼,,,,,,,,,,,,,,,,
2022-07-30T14:00:00,1980A,122.410,37.161,荣成市,山东成山轮胎公司,,,,,,,,,,,,,,,,
2022-07-30T14:00:00,1981A,122.038,37.197,文登市,文登市环保局,,,,,,,,,,,,,,,,
2022-07-30T14:00:00,1982A,122.0693,37.2174,威海市,文登开发区,,23,12,21,9,13,73,73,49,49,9,11,5,5,0.1,0.2
2022-07-30T14:00:00,1983A,121.531,36.913,乳山市,乳山市环保局,,,,,,,,,,,,,,,,
2022-07-30T14:00:00,1984A,121.544,36.907,乳山市,乳山市气象局,,,,,,,,,,,,,,,,
2022-07-30T14:00:00,1985A,120.636,31.155,吴江市,吴江市环保局,,,,,,,,,,,,,,,,
2022-07-30T14:00:00,1986A,120.635,31.170,吴江市,教师进修学校,,,,,,,,,,,,,,,,
2022-07-30T14:00:00,1987A,120.658,31.172,吴江市,吴江开发区,,,,,,,,,,,,,,,,
2022-07-30T14:00:00,1988A,120.953,31.388,昆山市,昆山实验小学,,,,,,,,,,,,,,,,
2022-07-30T14:00:00,1989A,120.999,31.381,昆山市,震川中学,,,,,,,,,,,,,,,,
2022-07-30T14:00:00,1990A,120.758,31.670,常熟市,海虞子站,,,,,,,,,,,,,,,,
2022-07-30T14:00:00,1991A,120.721,31.671,常熟市,兴福子站,,,,,,,,,,,,,,,,
2022-07-30T14:00:00,1992A,120.734,31.656,常熟市,菱塘子站,,,,,,,,,,,,,,,,
2022-07-30T14:00:00,1993A,120.526,31.874,张家港市,张家港市监测站,,,,,,,,,,,,,,,,
2022-07-30T14:00:00,1994A,120.550,31.882,张家港市,城北小学,,,,,,,,,,,,,,,,
2022-07-30T14:00:00,1995A,121.115,31.453,太仓市,太仓市监测站,,,,,,,,,,,,,,,,
2022-07-30T14:00:00,1996A,121.140,31.422,太仓市,科教新城实小,,,,,,,,,,,,,,,,
2022-07-30T14:00:00,1997A,119.146,31.955,句容市,消防指挥中心,,,,,,,,,,,,,,,,
2022-07-30T14:00:00,1998A,119.180,31.955,句容市,房家坝,,,,,,,,,,,,,,,,
2022-07-30T14:00:00,1999A,120.268,31.920,江阴市,虹桥邮政,,,,,,,,,,,,,,,,
2022-07-30T14:00:00,2000A,120.237,31.909,江阴市,五星公园,,,,,,,,,,,,,,,,
2022-07-30T14:00:00,2001A,120.302,31.920,江阴市,第二实验小学,,,,,,,,,,,,,,,,
2022-07-30T14:00:00,2002A,119.818,31.354,宜兴市,宜兴市环保局,,,,,,,,,,,,,,,,
2022-07-30T14:00:00,2003A,119.794,31.371,宜兴市,宜园,,,,,,,,,,,,,,,,
2022-07-30T14:00:00,2004A,119.579,31.751,金坛市,金坛市环境监测站,,,,,,,,,,,,,,,,
2022-07-30T14:00:00,2005A,119.579,31.737,金坛市,金坛市自来水公司,,,,,,,,,,,,,,,,
2022-07-30T14:00:00,2006A,119.460,31.400,溧阳市,溧阳市东门子站,,,,,,,,,,,,,,,,
2022-07-30T14:00:00,2007A,119.438,31.317,溧阳市,燕山子站,,,,,,,,,,,,,,,,
2022-07-30T14:00:00,2008A,121.173,31.896,海门市,海门市监测站,,,,,,,,,,,,,,,,
2022-07-30T14:00:00,2009A,121.1518,31.89708,海门市,社会福利院,,,,,,,,,,,,,,,,
2022-07-30T14:00:00,2010A,119.7183,30.2366,临安市,市政府,,,,,,,,,,,,,,,,
2022-07-30T14:00:00,2011A,119.6942,30.2311,临安市,四中,,,,,,,,,,,,,,,,
2022-07-30T14:00:00,2012A,119.954,30.054,富阳市,监测站,,,,,,,,,,,,,,,,
2022-07-30T14:00:00,2013A,119.946,30.049,富阳市,富春二小,,,,,,,,,,,,,,,,
2022-07-30T14:00:00,2014A,120.091,29.305,义乌市,江东,,,,,,,,,,,,,,,,
2022-07-30T14:00:00,2015A,120.040,29.334,义乌市,北苑,,,,,,,,,,,,,,,,
2022-07-30T14:00:00,2016A,120.251,29.719,诸暨市,图书馆,,,,,,,,,,,,,,,,
2022-07-30T14:00:00,2017A,120.209,29.732,诸暨市,富林印务,,,,,,,,,,,,,,,,
2022-07-30T14:00:00,2018A,121.989,39.625,瓦房店市,抱龙山庄,,,,,,,,,,,,,,,,
2022-07-30T14:00:00,2019A,122.011,39.617,瓦房店市,东山公园,,,,,,,,,,,,,,,,
2022-07-30T14:00:00,2031A,113.1817,27.9958,株洲市,云田中学,臭氧1小时,64,29,19,29,13,171,171,99,99,5,12,3,3,0.7,0.7
2022-07-30T14:00:00,2054A,114.1099,32.1059,信阳市,平桥分局,,36,31,36,17,19,127,115,94,94,4,11,6,6,0.6,0.7
2022-07-30T14:00:00,2064A,113.9956,32.1271,信阳市,南湾水厂,,36,19,28,21,17,132,113,83,83,3,8,6,6,0.5,0.6
2022-07-30T14:00:00,2065A,114.0775,32.1195,信阳市,市酿酒公司,,36,16,22,16,17,123,114,90,90,2,10,8,8,0.5,0.6
2022-07-30T14:00:00,2066A,114.0609,32.1399,信阳市,审计局,,37,20,30,18,18,129,116,89,89,2,10,7,7,0.5,0.6
2022-07-30T14:00:00,2067A,114.6613,33.6128,周口市,市环境监测站,,42,42,33,18,19,120,119,95,95,4,7,4,6,0.3,0.4
2022-07-30T14:00:00,2068A,114.6758,33.6347,周口市,周口师范,,37,35,34,20,18,124,118,93,93,3,7,2,4,0.5,0.5
2022-07-30T14:00:00,2069A,114.6546,33.5979,周口市,市运管处,,36,34,33,21,18,115,114,93,93,3,8,2,5,0.6,0.7
2022-07-30T14:00:00,2070A,114.6369,33.6406,周口市,川汇区环保局,,37,30,29,19,18,123,116,91,91,2,7,2,5,0.5,0.5
2022-07-30T14:00:00,2075A,117.6336,24.4674,漳州市,九湖(对照点),,,,,,,,,,,,,,,,
2022-07-30T14:00:00,2160A,112.85,35.5051,晋城市,自来水公司,,43,22,40,12,23,154,137,108,98,4,8,3,4,0.4,0.6
2022-07-30T14:00:00,2161A,112.8318,35.4936,晋城市,白云商贸,,47,23,36,7,19,164,149,108,108,5,12,2,3,0.6,0.8
2022-07-30T14:00:00,2162A,112.8508,35.4887,晋城市,市环保局,,46,9,39,17,25,162,145,104,104,5,13,2,2,0.4,0.6
2022-07-30T14:00:00,2163A,112.8676,35.4897,晋城市,技术学院,,43,8,29,7,16,156,135,100,98,4,12,3,2,0.3,0.5
2022-07-30T14:00:00,2164A,112.8271,35.4828,晋城市,泽州一中,,,,,,,,,,,,,,,,
2022-07-30T14:00:00,2165A,112.8453,35.546,晋城市,白马寺 (对照点),,,,,,,,,,,,,,,,
2022-07-30T14:00:00,2166A,112.4397,39.3522,朔州市,平朔,,45,41,49,23,24,157,144,119,119,8,15,6,7,0.7,0.7
2022-07-30T14:00:00,2167A,112.4575,39.3617,朔州市,朔唯,,45,31,58,22,28,157,143,116,116,10,21,4,7,0.6,0.7
2022-07-30T14:00:00,2168A,112.4258,39.3197,朔州市,区政府,,49,49,49,22,22,156,141,125,125,10,14,8,10,0.7,0.7
2022-07-30T14:00:00,2169A,112.4072,39.3278,朔州市,市环保局,,44,44,48,14,16,155,139,124,124,8,12,6,7,0.6,0.6
2022-07-30T14:00:00,2170A,112.4272,39.3681,朔州市,市二中,,45,40,49,21,26,157,142,124,124,7,13,5,5,0.8,0.8
2022-07-30T14:00:00,2171A,112.7532,37.6945,晋中市,锦纶小区,,48,37,44,24,24,171,153,120,120,7,11,8,8,0.4,0.4
2022-07-30T14:00:00,2173A,112.7249,37.7067,晋中市,南都小区,,50,36,45,24,24,168,157,118,118,7,13,8,7,0.5,0.4
2022-07-30T14:00:00,2174A,112.6991,37.6982,晋中市,榆次区政府,,50,40,45,32,23,157,157,115,115,5,9,6,5,0.7,0.5
2022-07-30T14:00:00,2175A,110.9956,35.0147,运城市,运城中学,,43,38,39,30,27,164,121,123,118,5,5,5,6,0.5,0.6
2022-07-30T14:00:00,2176A,111.0233,35.0611,运城市,禹都开发区,,,,,,,,,,,,,,,,
2022-07-30T14:00:00,2178A,110.9686,35.0303,运城市,地区技校,,40,39,36,27,20,169,128,132,122,4,5,5,6,0.5,0.6
2022-07-30T14:00:00,2179A,111.0414,35.1147,运城市,空港新区,颗粒物(PM10),53,56,51,29,27,165,134,118,118,6,11,7,9,0.4,0.4
2022-07-30T14:00:00,2181A,112.7383,38.4519,忻州市,开发区,,46,33,43,27,29,170,146,121,106,4,13,9,10,0.6,0.7
2022-07-30T14:00:00,2182A,112.7003,38.4928,忻州市,会展中心,,45,29,43,21,25,171,143,121,111,5,15,8,11,0.4,0.5
2022-07-30T14:00:00,2183A,111.1406,37.5211,吕梁市,环保局,"颗粒物(PM10),臭氧1小时",54,57,73,31,24,169,163,98,98,7,41,5,5,0.5,0.5
2022-07-30T14:00:00,2185A,111.1297,37.5136,吕梁市,自来水公司,细颗粒物(PM2.5),58,58,76,41,29,165,158,90,90,8,29,7,6,0.5,0.5
2022-07-30T14:00:00,2186A,106.8288,39.6778,乌海市,聚英学校,,,,,,,,,,,,,,,,
2022-07-30T14:00:00,2187A,106.8174,39.6973,乌海市,市林业局,颗粒物(PM10),58,65,85,22,23,196,129,101,90,8,18,8,20,0.6,0.7
2022-07-30T14:00:00,2188A,106.7907,39.6667,乌海市,中海勃湾学校,颗粒物(PM10),60,70,66,19,20,197,133,114,90,12,22,13,22,0.5,0.6
2022-07-30T14:00:00,2191A,122.2532,43.6801,通辽市,艺术职业学校,,24,17,22,16,10,75,74,55,55,10,10,5,4,0.5,0.3
2022-07-30T14:00:00,2192A,119.7594,49.2261,呼伦贝尔市,区环保局,,28,19,23,19,13,96,73,83,53,9,9,4,5,0.3,0.3
2022-07-30T14:00:00,2194A,107.5936,40.916,巴彦淖尔市,秋林养殖基地(对照点),,,,,,,,,,,,,,,,
2022-07-30T14:00:00,2195A,107.4212,40.761,巴彦淖尔市,附二中,,35,33,83,20,25,162,109,96,72,6,10,3,5,0.6,0.6
2022-07-30T14:00:00,2196A,107.37,40.7372,巴彦淖尔市,市环保大楼,颗粒物(PM10),58,65,82,30,27,169,110,106,74,7,11,4,4,0.8,0.7
2022-07-30T14:00:00,2197A,113.1306,40.9923,乌兰察布市,集宁新区,臭氧1小时,77,40,40,16,18,181,181,129,129,6,11,16,13,0.3,0.5
2022-07-30T14:00:00,2200A,122.0392,46.0656,兴安盟,胜华新制药厂,,32,15,20,7,13,101,101,77,77,1,7,2,3,0.1,0.2
2022-07-30T14:00:00,2201A,121.9504,46.0741,兴安盟,科右前旗环保局,,34,5,14,5,12,107,107,86,86,3,5,3,3,0.1,0.2
2022-07-30T14:00:00,2202A,116.1042,43.9317,锡林郭勒盟,市环保监测站,,48,48,33,9,7,169,145,121,121,3,7,12,12,0.3,0.2
2022-07-30T14:00:00,2203A,116.0781,43.9311,锡林郭勒盟,市政府,,44,33,30,10,4,138,138,113,113,6,7,9,8,0.3,0.3
2022-07-30T14:00:00,2204A,105.6467,38.8363,阿拉善盟,西城区西花园(对照点),,45,43,37,14,17,164,142,125,124,6,7,5,4,0.4,0.4
2022-07-30T14:00:00,2205A,105.6985,38.8411,阿拉善盟,蒙二幼,颗粒物(PM10),58,66,43,21,23,162,146,133,129,5,6,9,8,0.5,0.4
2022-07-30T14:00:00,2206A,105.724,38.8516,阿拉善盟,环保局新楼,,45,19,20,16,13,171,143,138,131,7,7,8,8,0.4,0.4
2022-07-30T14:00:00,2207A,121.6094,41.998,阜新市,工业园区,,,,20,12,11,110,105,93,93,10,11,5,10,0.6,0.6
2022-07-30T14:00:00,2208A,121.6697,42.0279,阜新市,长青街,,36,19,18,12,12,116,114,102,102,7,10,6,11,0.5,0.5
2022-07-30T14:00:00,2209A,121.6673,42.0705,阜新市,农业园区,,34,26,22,17,27,107,107,95,95,6,7,7,25,0.7,0.7
2022-07-30T14:00:00,2210A,121.6717,42.0224,阜新市,东苑,,35,34,23,16,18,110,109,97,97,6,9,2,9,0.5,0.5
2022-07-30T14:00:00,2211A,121.6506,42.0498,阜新市,玉龙新城,,37,27,22,13,13,116,116,99,99,6,9,6,15,0.6,0.6
2022-07-30T14:00:00,2212A,123.2,41.1953,辽阳市,宏伟区,,37,37,21,8,10,69,42,57,43,9,9,4,5,0.4,0.4
2022-07-30T14:00:00,2213A,123.1683,41.2495,辽阳市,新华园,颗粒物(PM10),51,52,33,11,14,76,51,43,43,15,20,5,6,0.5,0.7
2022-07-30T14:00:00,2214A,123.2354,41.2639,辽阳市,滨河路,,26,26,32,10,7,76,51,43,38,7,14,6,6,0.3,0.4
2022-07-30T14:00:00,2215A,123.149,41.2991,辽阳市,铁西工业园,颗粒物(PM10),60,70,40,16,18,69,55,36,36,9,23,4,4,0.5,0.9
2022-07-30T14:00:00,2216A,123.8139,42.3022,铁岭市,汇工街西,,42,26,27,12,14,132,132,77,77,6,15,7,7,0.6,0.7
2022-07-30T14:00:00,2217A,123.8649,42.2923,铁岭市,水上乐园,,36,22,24,14,13,115,115,70,70,10,21,6,5,0.4,0.5
2022-07-30T14:00:00,2218A,123.8486,42.2867,铁岭市,银州路东段,,37,22,20,14,12,116,116,74,74,12,21,5,4,0.5,0.7
2022-07-30T14:00:00,2219A,123.7153,42.2217,铁岭市,金沙江路北,,45,30,22,14,12,143,143,76,76,14,24,8,6,0.8,0.9
2022-07-30T14:00:00,2220A,120.4318,41.5881,朝阳市,西梁,,,,23,,19,98,98,80,80,4,7,6,7,1.0,0.9
2022-07-30T14:00:00,2221A,120.4521,41.5646,朝阳市,河畔小区,,,,26,14,13,109,109,90,90,4,5,6,7,0.7,0.6
2022-07-30T14:00:00,2222A,120.4176,41.5648,朝阳市,八里堡,,33,33,30,22,13,104,102,85,85,7,10,4,5,0.9,0.7
2022-07-30T14:00:00,2223A,120.3806,41.5969,朝阳市,农业园区,,37,37,30,20,14,104,92,81,81,6,11,6,6,0.9,0.6
2022-07-30T14:00:00,2225A,124.4002,43.1713,四平市,一商场,,33,23,14,7,12,103,103,82,82,2,8,1,2,0.4,0.5
2022-07-30T14:00:00,2226A,124.388,43.193,四平市,境园,,30,14,12,20,10,95,95,78,78,4,8,7,7,0.6,0.5
2022-07-30T14:00:00,2227A,125.1358,42.8845,辽源市,环保局,,26,23,15,16,9,93,82,56,56,3,8,5,6,0.5,0.5
2022-07-30T14:00:00,2229A,125.9358,41.7173,通化市,光明,,15,6,27,3,12,57,46,31,31,4,13,8,13,0.5,0.6
2022-07-30T14:00:00,2230A,125.9446,41.7325,通化市,铁路,,15,10,28,4,15,63,48,32,32,7,15,8,13,0.5,0.7
2022-07-30T14:00:00,2231A,126.4219,41.9171,白山市,喜丰,,24,24,41,9,15,63,63,31,31,6,13,9,13,0.7,0.8
2022-07-30T14:00:00,2232A,126.4077,41.9419,白山市,环保局,,21,15,37,9,15,74,67,35,35,5,13,6,11,0.6,0.6
2022-07-30T14:00:00,2233A,124.8006,45.1214,松原市,江南,,26,12,11,3,6,98,83,76,76,5,9,4,3,0.4,0.4
2022-07-30T14:00:00,2234A,124.7965,45.1722,松原市,江北,,27,7,8,2,7,100,86,79,79,6,8,3,2,0.4,0.3
2022-07-30T14:00:00,2235A,122.7911,45.6077,白城市,洮北区环保局,,30,16,21,16,11,99,95,80,80,3,10,5,5,0.2,0.2
2022-07-30T14:00:00,2236A,122.8738,45.5725,白城市,市环保局,,31,8,23,4,7,98,98,82,82,5,15,4,4,0.3,0.2
2022-07-30T14:00:00,2237A,129.47,42.8883,延边朝鲜族自治州,妇幼医院,,40,40,21,20,12,80,59,48,48,9,7,8,7,0.4,0.4
2022-07-30T14:00:00,2238A,129.5055,42.9108,延边朝鲜族自治州,延边医院,,,,,,,,,,,,,,,,
2022-07-30T14:00:00,2239A,129.3964,42.8881,延边朝鲜族自治州,朝阳川镇医院,,25,25,20,9,6,73,45,40,40,6,8,6,7,0.4,0.4
2022-07-30T14:00:00,2240A,130.9762,45.3001,鸡西市,环保局,,24,24,23,12,13,68,68,55,53,12,14,2,3,0.1,0.1
2022-07-30T14:00:00,2243A,130.9429,45.3039,鸡西市,第一中学,,,,22,4,11,76,76,59,58,1,3,3,4,0.2,0.2
2022-07-30T14:00:00,2244A,130.2537,47.3416,鹤岗市,哈啤分公司,,30,9,11,4,7,94,94,77,77,5,9,7,8,0.3,0.3
2022-07-30T14:00:00,2245A,130.2684,47.3086,鹤岗市,斯达机电,,27,6,11,5,6,85,85,73,73,3,6,7,8,0.2,0.3
2022-07-30T14:00:00,2246A,130.3114,47.3388,鹤岗市,东山纸板厂,,28,5,18,4,10,87,87,73,73,3,8,8,7,0.4,0.4
2022-07-30T14:00:00,2247A,130.1097,47.3382,鹤岗市,五号水库(对照点),,,5,12,,0,79,78,66,66,5,9,2,3,0.1,0.1
2022-07-30T14:00:00,2248A,131.1511,46.6937,双鸭山市,双合村,,28,6,19,4,9,94,88,82,78,5,9,4,5,0.3,0.3
2022-07-30T14:00:00,2249A,131.1652,46.6191,双鸭山市,南小市,,21,14,26,3,9,83,65,57,57,5,8,4,4,0.1,0.2
2022-07-30T14:00:00,2250A,131.1524,46.6554,双鸭山市,环保局,,28,11,15,4,5,87,87,74,74,7,11,8,5,0.3,0.4
2022-07-30T14:00:00,2251A,131.12,46.5656,双鸭山市,苗圃(对照点),,,,20,,16,96,,73,73,,5,,3,,0.5
2022-07-30T14:00:00,2252A,128.5159,47.4311,伊春市,环保局,,27,11,12,3,7,84,84,66,66,7,11,5,4,0.1,0.1
2022-07-30T14:00:00,2253A,128.9102,47.7412,伊春市,电力嘉园,,26,5,7,3,5,85,81,69,69,1,5,5,5,0.4,0.4
2022-07-30T14:00:00,2254A,129.5029,48.471,伊春市,汤旺河国家公园(对照点),,22,0,7,0,5,68,68,45,45,2,2,4,6,0.2,0.4
2022-07-30T14:00:00,2255A,130.2751,46.8028,佳木斯市,佳纺,,31,5,14,8,10,98,98,82,82,2,9,3,3,0.5,0.5
2022-07-30T14:00:00,2256A,130.3995,46.8307,佳木斯市,发电厂,,30,16,28,6,11,96,96,80,80,4,8,3,3,0.3,0.4
2022-07-30T14:00:00,2257A,130.3258,46.7975,佳木斯市,环保局,,30,13,21,10,11,95,95,80,80,3,7,1,1,0.3,0.4
2022-07-30T14:00:00,2258A,130.3648,46.8032,佳木斯市,十一中,,28,20,25,8,12,88,88,76,76,7,11,4,4,0.3,0.4
2022-07-30T14:00:00,2259A,130.3794,46.7588,佳木斯市,四丰(对照点),,29,8,15,7,10,92,92,80,80,3,6,1,1,0.3,0.4
2022-07-30T14:00:00,2262A,131.0518,45.8751,七台河市,新一中(对照点),,32,0,14,5,11,112,100,92,92,4,8,7,7,0.6,0.7
2022-07-30T14:00:00,2263A,127.4833,50.2524,黑河市,交通局,,19,18,12,8,9,67,59,53,53,7,11,6,5,0.6,0.5
2022-07-30T14:00:00,2264A,127.5144,50.2341,黑河市,环保局,,20,11,11,5,6,68,62,57,57,3,8,5,6,0.4,0.6
2022-07-30T14:00:00,2265A,127.5291,50.2472,黑河市,大黑河岛(对照点),,20,2,3,4,10,67,62,56,56,7,7,8,8,0.9,1.1
2022-07-30T14:00:00,2266A,126.9785,46.6365,绥化市,人和东街,,24,11,17,7,15,78,76,61,61,11,10,7,7,0.3,0.4
2022-07-30T14:00:00,2267A,126.964,46.6528,绥化市,党政办公中心,,28,9,15,6,11,95,88,74,74,7,10,5,6,0.3,0.4
2022-07-30T14:00:00,2269A,124.1069,50.4097,大兴安岭地区,科技局,,19,4,6,2,7,64,60,35,35,4,4,4,3,0.3,0.3
2022-07-30T14:00:00,2270A,117.396,32.939,蚌埠市,工人疗养院,,41,38,36,18,23,131,131,79,71,1,7,8,8,0.3,0.3
2022-07-30T14:00:00,2271A,117.3605,32.9427,蚌埠市,百货大楼,,46,39,36,20,21,146,146,74,74,8,13,8,8,0.2,0.2
2022-07-30T14:00:00,2273A,117.4185,32.8911,蚌埠市,蚌埠学院,,41,36,34,24,21,134,129,77,77,3,20,10,13,0.4,0.4
2022-07-30T14:00:00,2274A,117.3533,32.9673,蚌埠市,淮上区政府,,45,44,37,24,21,141,141,87,70,1,7,8,8,0.3,0.3
2022-07-30T14:00:00,2275A,117.3145,32.8977,蚌埠市,高新区,,46,46,35,31,26,138,138,84,81,12,19,8,8,0.6,0.6
2022-07-30T14:00:00,2277A,116.8305,32.7727,淮南市,潘集区政府,,,,33,,22,118,,72,71,,11,,7,,0.2
2022-07-30T14:00:00,2278A,117.0067,32.6524,淮南市,师范学院,,45,34,38,27,21,145,142,94,94,2,6,6,8,0.3,0.3
2022-07-30T14:00:00,2279A,116.8569,32.5951,淮南市,谢家集区政府,,49,38,34,26,18,162,156,108,108,8,11,7,8,0.3,0.3
2022-07-30T14:00:00,2280A,116.8281,32.633,淮南市,八公山区政府,,49,40,29,32,19,160,156,105,105,6,10,11,11,0.4,0.4
2022-07-30T14:00:00,2281A,116.6325,32.6201,淮南市,焦岗湖风景区管理处(对照点),,43,35,35,17,15,136,136,91,91,7,15,7,9,0.2,0.3
2022-07-30T14:00:00,2282A,116.8004,33.975,淮北市,监测站,,39,4,25,10,18,124,124,107,107,1,6,5,5,0.4,0.5
2022-07-30T14:00:00,2283A,116.8091,33.9007,淮北市,烈山区政府,,41,6,14,9,16,131,131,114,114,2,4,11,10,0.6,0.6
2022-07-30T14:00:00,2284A,116.7856,33.9477,淮北市,职业技术学院,,39,11,28,10,17,123,123,103,103,2,13,6,6,0.4,0.6
2022-07-30T14:00:00,2285A,117.8177,30.9412,铜陵市,市第四中学,臭氧1小时,59,61,40,30,25,167,167,110,110,10,32,6,7,0.6,0.6
2022-07-30T14:00:00,2286A,117.8059,30.9273,铜陵市,市公路局,,48,42,48,18,23,152,151,99,99,9,29,6,6,0.8,0.8
2022-07-30T14:00:00,2287A,117.7807,30.9413,铜陵市,市新民污水厂,,48,47,46,21,21,152,152,93,93,7,19,9,12,0.6,0.5
2022-07-30T14:00:00,2288A,117.7439,30.8792,铜陵市,市第九中学,细颗粒物(PM2.5),55,42,45,39,25,174,156,98,98,8,22,9,9,0.7,0.8
2022-07-30T14:00:00,2289A,117.846,30.9413,铜陵市,车站新区,臭氧1小时,52,50,51,26,20,162,161,111,111,6,13,7,4,0.7,0.6
2022-07-30T14:00:00,2290A,117.8483,30.97,铜陵市,市职教基地,,,48,42,25,20,154,150,93,93,10,13,3,4,,1
2022-07-30T14:00:00,2291A,117.0809,30.5177,安庆市,环科院,,49,39,32,27,26,158,156,122,122,5,8,5,7,0.9,0.9
2022-07-30T14:00:00,2292A,117.0331,30.5119,安庆市,马山宾馆,,50,32,33,24,26,166,157,124,124,7,11,6,7,0.8,0.8
2022-07-30T14:00:00,2294A,116.9896,30.6145,安庆市,安庆大学,,46,38,26,22,20,146,146,106,106,5,7,4,4,0.6,0.5
2022-07-30T14:00:00,2295A,118.2903,29.6963,黄山市,延安路89号,,40,31,28,23,12,149,128,89,89,3,5,6,6,0.2,0.3
2022-07-30T14:00:00,2296A,118.327,29.7178,黄山市,黄山东路89号,,40,25,22,2,9,146,128,87,87,2,4,5,5,0.4,0.4
2022-07-30T14:00:00,2297A,118.1371,30.2756,黄山市,黄山区政府5号楼,,32,32,30,18,13,125,100,74,74,5,6,6,6,0.5,0.5
2022-07-30T14:00:00,2298A,118.3093,32.3153,滁州市,老年大学,,41,39,27,16,15,134,129,73,73,9,17,6,6,0.1,0.2
2022-07-30T14:00:00,2299A,118.3244,32.2786,滁州市,人大宾馆,,42,24,19,16,13,145,133,77,77,10,19,5,5,0.3,0.4
2022-07-30T14:00:00,2301A,115.8277,32.8929,阜阳市,市监测站,,45,34,26,25,21,143,143,91,91,5,11,7,6,0.5,0.6
2022-07-30T14:00:00,2303A,115.8554,32.8605,阜阳市,开发区,,,14,26,14,13,124,124,90,90,8,12,4,4,,0.5
2022-07-30T14:00:00,2306A,116.989,33.6306,宿州市,火车站,,,,,,,,,,,,,,,,
2022-07-30T14:00:00,2307A,116.5079,31.737,六安市,监测大楼,,41,26,30,20,15,136,130,94,94,2,7,5,6,0.4,0.4
2022-07-30T14:00:00,2308A,116.4738,31.7643,六安市,皖西学院,,39,21,28,18,16,134,124,92,92,2,6,10,10,0.4,0.4
2022-07-30T14:00:00,2309A,116.4996,31.7905,六安市,朝阳厂,,35,18,29,14,20,118,111,82,82,2,8,9,9,0.4,0.4
2022-07-30T14:00:00,2310A,116.5567,31.7886,六安市,开发区,,37,24,31,23,21,124,118,86,86,2,10,9,8,0.4,0.3
2022-07-30T14:00:00,2311A,115.8072,33.8399,亳州市,污水处理厂,,37,34,28,25,17,116,116,76,76,5,9,6,7,0.4,0.5
2022-07-30T14:00:00,2312A,115.7789,33.8518,亳州市,三国揽胜宫,,43,33,32,30,19,114,114,77,77,1,7,6,8,0.5,0.5
2022-07-30T14:00:00,2314A,117.47,30.6618,池州市,池州学院,,50,50,42,30,26,163,157,114,114,4,11,5,18,0.7,0.6
2022-07-30T14:00:00,2315A,117.4974,30.6539,池州市,平天湖(对照点),,,,,,,,,,,,,,,,
2022-07-30T14:00:00,2316A,118.7581,30.9454,宣城市,鳌峰子站,,31,21,30,10,19,138,97,74,74,8,16,4,7,0.3,0.4
2022-07-30T14:00:00,2317A,118.7385,30.9743,宣城市,敬亭山子站,,32,14,34,8,19,155,100,77,77,9,22,6,7,0.3,0.4
2022-07-30T14:00:00,2318A,118.7173,30.9427,宣城市,开发区子站,,32,26,33,10,18,149,102,101,101,6,13,5,6,0.3,0.4
2022-07-30T14:00:00,2319A,119.0141,25.4325,莆田市,荔城区仓后路,,41,40,40,17,14,142,130,90,90,12,13,5,4,0.6,0.6
2022-07-30T14:00:00,2320A,119.0015,25.4553,莆田市,莆田市监测站,,49,49,34,13,17,162,142,94,94,9,9,7,6,0.7,0.7
2022-07-30T14:00:00,2321A,119.1119,25.4561,莆田市,涵江区六中,,33,33,37,8,14,120,105,91,91,8,14,9,7,0.6,0.6
2022-07-30T14:00:00,2322A,119.1013,25.3215,莆田市,秀屿区政府,,35,33,37,13,13,113,110,85,85,2,8,5,6,0.7,0.7
2022-07-30T14:00:00,2323A,118.981,25.4792,莆田市,东圳水库(对照点),,,,,,,,,,,,,,,,
2022-07-30T14:00:00,2324A,117.6211,26.2625,三明市,三钢,,44,32,33,29,24,139,139,78,78,8,16,3,9,0.6,0.9
2022-07-30T14:00:00,2325A,117.635,26.2714,三明市,三明二中,,42,40,28,23,18,132,132,78,78,5,12,4,7,0.7,0.9
2022-07-30T14:00:00,2326A,117.6028,26.2378,三明市,三元区政府,臭氧1小时,64,45,34,26,25,171,171,79,79,17,16,27,12,1.9,1.2
2022-07-30T14:00:00,2327A,117.7275,26.3108,三明市,洋溪(对照点),,,,,,,,,,,,,,,,
2022-07-30T14:00:00,2331A,118.0966,26.6761,南平市,茫荡山(对照点),,,,,,,,,,,,,,,,
2022-07-30T14:00:00,2332A,118.1681,26.6369,南平市,南平市监测站,,34,29,27,22,16,117,108,70,70,4,6,6,5,0.3,0.3
2022-07-30T14:00:00,2333A,118.1825,26.6489,南平市,南平铝业有限公司,,39,39,28,24,20,112,107,70,70,3,6,4,3,0.5,0.5
2022-07-30T14:00:00,2334A,118.1756,26.6272,南平市,南平七中,,38,36,30,26,21,113,105,68,68,3,6,6,5,0.5,0.4
2022-07-30T14:00:00,2335A,117.0189,25.1181,龙岩市,龙岩师专(对照点),,,,,,,,,,,,,,,,
2022-07-30T14:00:00,2336A,117.0217,25.1033,龙岩市,龙岩市监测站,,44,44,33,18,18,131,121,80,80,6,16,6,8,0.5,0.6
2022-07-30T14:00:00,2337A,117.0258,25.0661,龙岩市,闽西职业技术学院,,39,32,35,22,22,139,124,79,79,4,16,6,9,0.5,0.6
2022-07-30T14:00:00,2338A,117.0196,25.0306,龙岩市,龙岩学院,,44,44,34,17,19,137,118,73,73,5,18,4,5,0.3,0.5
2022-07-30T14:00:00,2339A,119.5001,26.6946,宁德市,金涵水库(对照点),,,,38,,15,110,,86,,,7,,6,,0.3
2022-07-30T14:00:00,2341A,119.5388,26.6612,宁德市,宁德市监测站,,40,40,28,19,13,111,111,72,72,6,9,9,8,0.5,0.5
2022-07-30T14:00:00,2342A,117.3102,29.3867,景德镇市,王港中学(对照点),,50,50,36,23,21,146,116,102,102,3,14,5,6,0.4,0.4
2022-07-30T14:00:00,2343A,117.2117,29.2933,景德镇市,老干部活动中心,细颗粒物(PM2.5),54,48,50,38,23,121,106,71,71,8,14,6,10,0.4,0.4
2022-07-30T14:00:00,2344A,117.1894,29.2789,景德镇市,兽医站,,49,49,40,25,23,115,106,71,71,7,13,5,7,0.4,0.6
2022-07-30T14:00:00,2345A,117.1547,29.2617,景德镇市,台达陶瓷,,38,38,41,26,23,113,100,71,71,6,16,7,16,0.4,0.4
2022-07-30T14:00:00,2346A,117.2461,29.2956,景德镇市,陶研所,,36,26,33,18,18,129,113,80,80,4,8,10,11,0.4,0.5
2022-07-30T14:00:00,2347A,114.0997,27.5002,萍乡市,武功山(对照点),,34,13,12,15,9,119,106,70,70,6,8,16,14,0.4,0.4
2022-07-30T14:00:00,2348A,113.8385,27.6434,萍乡市,中医院,,40,14,40,21,21,125,125,70,70,9,20,9,15,0.5,0.7
2022-07-30T14:00:00,2349A,113.8493,27.6253,萍乡市,市政府车库,,45,35,34,27,21,148,144,84,84,10,19,11,13,0.6,0.6
2022-07-30T14:00:00,2350A,113.8676,27.6435,萍乡市,市环保局,,43,26,26,16,20,139,137,80,80,7,15,8,14,0.4,0.6
2022-07-30T14:00:00,2351A,113.866,27.6198,萍乡市,安源区政府,,45,33,30,20,20,151,143,83,83,7,13,14,14,0.4,0.5
2022-07-30T14:00:00,2352A,115.0861,27.9317,新余市,北岗(对照点),,39,35,31,27,20,125,107,68,68,3,7,10,12,1.1,1
2022-07-30T14:00:00,2353A,114.9886,27.8431,新余市,飞宇,颗粒物(PM10),58,66,38,25,18,134,134,76,76,5,10,12,15,0.7,0.8
2022-07-30T14:00:00,2354A,114.9231,27.8246,新余市,第二水厂,颗粒物(PM10),67,84,44,39,23,171,171,84,84,14,17,14,11,1.6,1.2
2022-07-30T14:00:00,2355A,114.9308,27.8036,新余市,市气象局,细颗粒物(PM2.5),75,88,48,55,30,165,165,74,74,17,18,30,23,1.9,1.3
2022-07-30T14:00:00,2357A,116.9822,28.1136,鹰潭市,龙虎山(对照点),,38,38,35,16,12,120,120,84,84,5,8,1,2,0.4,0.4
2022-07-30T14:00:00,2358A,117.0564,28.2642,鹰潭市,新监测站,,42,27,32,20,14,134,134,90,90,1,2,1,10,0.5,0.4
2022-07-30T14:00:00,2359A,117.0311,28.2475,鹰潭市,财苑宾馆,,41,40,34,10,14,129,129,88,88,2,6,2,2,0.4,0.3
2022-07-30T14:00:00,2360A,117.0222,28.2264,鹰潭市,体育馆,,40,38,32,20,13,128,128,87,87,2,7,1,1,0.6,0.5
2022-07-30T14:00:00,2361A,117.0017,28.2131,鹰潭市,三川水表,,,,37,,14,67,,67,,,5,,2,,0.8
2022-07-30T14:00:00,2362A,114.9017,25.9149,赣州市,通天岩(对照点),,30,25,21,14,11,108,94,73,73,2,5,5,5,0.4,0.4
2022-07-30T14:00:00,2363A,114.9367,25.8664,赣州市,地委,,40,39,33,22,15,128,125,82,82,5,11,15,15,0.8,0.7
2022-07-30T14:00:00,2364A,114.9461,25.8481,赣州市,气象台,,45,30,28,20,17,144,142,89,89,5,12,9,9,0.6,0.8
2022-07-30T14:00:00,2365A,114.9322,25.8333,赣州市,市图书馆,,49,38,30,20,17,159,155,104,104,6,14,9,18,0.9,1
2022-07-30T14:00:00,2366A,114.8905,25.8471,赣州市,华坚鞋城,,47,47,39,18,19,152,127,90,90,7,16,12,9,0.7,0.7
2022-07-30T14:00:00,2367A,114.9754,27.0803,吉安市,红声器材厂,,47,40,40,21,22,184,149,92,92,6,11,6,8,0.5,0.4
2022-07-30T14:00:00,2368A,114.9658,27.0999,吉安市,市森林工业局,,49,43,40,27,25,164,154,99,99,5,11,7,10,0.5,0.4
2022-07-30T14:00:00,2369A,114.99,27.1312,吉安市,市环境监测站,,49,43,38,24,22,160,155,98,98,7,10,6,10,0.7,0.6
2022-07-30T14:00:00,2370A,115.0093,27.0968,吉安市,青原区法院,,49,42,36,22,20,180,154,92,92,2,7,7,14,0.5,0.4
2022-07-30T14:00:00,2371A,114.3408,27.8064,宜春市,槟榔水业(对照点),,,,,,,,,,,,,,,,
2022-07-30T14:00:00,2373A,114.3956,27.7844,宜春市,市石油公司,,34,27,36,18,19,119,108,68,68,10,16,10,6,0.8,0.8
2022-07-30T14:00:00,2374A,114.3703,27.7914,宜春市,市气象局,,37,37,36,19,17,125,114,77,77,6,15,11,7,0.7,0.7
2022-07-30T14:00:00,2375A,114.4013,27.8074,宜春市,市广电局,,34,31,34,7,19,127,106,74,74,4,10,6,7,1.2,0.8
2022-07-30T14:00:00,2376A,116.2127,28.0814,抚州市,桐源党溪(对照点),,37,36,25,23,15,123,118,74,74,3,9,15,7,0.7,0.6
2022-07-30T14:00:00,2377A,116.3544,27.9831,抚州市,市站,,42,42,33,22,17,140,134,90,90,4,10,4,3,0.5,0.5
2022-07-30T14:00:00,2378A,116.3565,27.963,抚州市,血防站,,45,35,32,25,19,142,142,89,89,6,11,28,8,0.4,0.3
