timepoint,stationcode,longitude,latitude,area,positionname,primarypollutant,aqi,pm10,pm10_24h,pm2_5,pm2_5_24h,o3,o3_24h,o3_8h,o3_8h_24h,no2,no2_24h,so2,so2_24h,co,co_24h
2023-07-19T19:00:00,1001A,116.3621,39.8784,北京市,万寿西宫,臭氧1小时,93,57,62,35,38,232,194,217,216,12,21,3,2,0.5,0.6
2023-07-19T19:00:00,1002A,116.2202,40.2915,北京市,定陵,臭氧1小时,116,67,44,38,25,299,232,245,245,11,10,1,3,0.6,0.5
2023-07-19T19:00:00,1003A,116.4174,39.9289,北京市,东四,臭氧1小时,99,58,61,31,34,236,199,224,224,10,20,5,4,0.4,0.5
2023-07-19T19:00:00,1004A,116.4072,39.8863,北京市,天坛,臭氧1小时,84,55,61,38,39,228,187,212,212,17,24,4,2,0.2,0.4
2023-07-19T19:00:00,1005A,116.462,39.9365,北京市,农展馆,臭氧1小时,92,60,61,32,31,232,193,216,216,13,27,3,3,0.4,0.5
2023-07-19T19:00:00,1006A,116.3392,39.9295,北京市,官园,臭氧1小时,102,63,56,40,28,244,203,230,230,8,21,3,2,0.4,0.5
2023-07-19T19:00:00,1007A,116.2878,39.9611,北京市,海淀万柳,臭氧1小时,92,60,53,32,28,238,193,224,224,15,31,2,2,0.5,0.5
2023-07-19T19:00:00,1008A,116.6636,40.135,北京市,顺义新城,臭氧1小时,93,59,45,37,24,256,194,228,228,19,19,1,2,0.5,0.4
2023-07-19T19:00:00,1009A,116.6275,40.3275,北京市,怀柔镇,臭氧1小时,115,61,43,34,24,321,230,262,262,14,17,3,3,0.7,0.6
2023-07-19T19:00:00,1010A,116.2296,40.217,北京市,昌平镇,臭氧1小时,111,72,44,38,24,278,222,239,239,16,23,3,3,0.5,0.4
2023-07-19T19:00:00,1011A,116.3966,39.9821,北京市,奥体中心,臭氧1小时,62,64,52,35,27,213,169,196,196,18,34,3,3,0.3,0.4
2023-07-19T19:00:00,1012A,116.184,39.9136,北京市,古城,臭氧1小时,100,60,58,42,32,224,200,214,214,13,23,3,2,0.5,0.5
2023-07-19T19:00:00,1015A,117.1444,39.1661,天津市,勤俭道,臭氧1小时,119,53,63,35,40,238,238,230,230,16,19,8,9,0.5,0.7
2023-07-19T19:00:00,1017A,117.237,39.1082,天津市,大直沽八号路,臭氧1小时,115,61,67,38,43,230,230,206,206,13,17,3,4,0.5,0.7
2023-07-19T19:00:00,1018A,117.202,39.0927,天津市,前进道,臭氧1小时,113,60,62,38,41,226,226,204,204,17,23,5,6,0.5,0.8
2023-07-19T19:00:00,1019A,117.1837,39.2133,天津市,淮河道,臭氧1小时,113,53,62,39,40,232,225,226,226,21,21,6,8,0.5,0.7
2023-07-19T19:00:00,1021A,117.307,39.0877,天津市,跃进路,臭氧1小时,118,60,64,37,41,235,235,218,218,17,20,8,7,0.6,0.7
2023-07-19T19:00:00,1023A,117.707,39.0343,天津市,第四大街,臭氧1小时,117,75,65,41,39,240,233,224,224,31,24,28,11,0.9,0.9
2023-07-19T19:00:00,1024A,117.457,38.8394,天津市,永明路,臭氧1小时,129,62,57,37,38,270,258,237,237,27,26,8,9,0.6,0.6
2023-07-19T19:00:00,1026A,117.764,39.1587,天津市,汉北路,臭氧1小时,123,89,68,58,43,274,246,247,247,27,23,5,7,0.9,0.9
2023-07-19T19:00:00,1027A,117.157,38.9194,天津市,团泊洼,臭氧1小时,104,48,58,38,38,218,207,199,199,12,20,3,4,0.5,0.6
2023-07-19T19:00:00,1029A,114.4422,38.0444,石家庄市,职工医院,臭氧1小时,102,65,61,38,34,236,204,214,213,5,14,4,8,0.5,0.6
2023-07-19T19:00:00,1030A,114.6063,38.0266,石家庄市,高新区,臭氧1小时,107,48,69,34,40,234,214,220,218,9,18,1,4,0.4,0.6
2023-07-19T19:00:00,1031A,114.4898,38.1328,石家庄市,西北水源,臭氧1小时,103,59,70,36,33,232,205,218,216,10,24,2,5,0.4,0.6
2023-07-19T19:00:00,1032A,114.4586,38.0058,石家庄市,西南高教,臭氧1小时,97,70,61,43,37,226,197,207,207,5,17,1,5,0.5,0.6
2023-07-19T19:00:00,1033A,114.5331,38.0178,石家庄市,世纪公园,臭氧1小时,100,61,62,35,37,223,200,204,202,9,18,4,6,0.5,0.6
2023-07-19T19:00:00,1034A,114.509,38.0457,石家庄市,人民会堂,臭氧1小时,107,55,67,36,39,242,213,220,218,8,15,4,7,0.4,0.6
2023-07-19T19:00:00,1035A,114.3524,37.8911,石家庄市,封龙山,臭氧1小时,101,61,61,45,37,217,201,198,198,8,9,6,4,0.7,0.9
2023-07-19T19:00:00,1037A,118.131,39.6363,唐山市,雷达站,臭氧1小时,99,71,70,43,36,304,199,247,247,16,25,4,4,0.4,0.6
2023-07-19T19:00:00,1038A,118.1725,39.6334,唐山市,物资局,颗粒物(PM10),61,71,58,38,33,293,168,235,232,22,20,6,4,0.7,0.7
2023-07-19T19:00:00,1040A,118.1705,39.6506,唐山市,十二中,细颗粒物(PM2.5),62,60,59,44,40,278,160,233,230,26,16,4,3,0.7,0.7
2023-07-19T19:00:00,1041A,118.1869,39.622,唐山市,小山,臭氧1小时,67,66,61,40,34,306,173,232,231,20,19,8,5,0.8,0.7
2023-07-19T19:00:00,1042A,119.5134,39.8207,秦皇岛市,北戴河环保局,臭氧1小时,102,57,51,30,22,254,204,233,233,6,14,3,3,0.9,1.1
2023-07-19T19:00:00,1043A,119.7493,40.0116,秦皇岛市,第一关,臭氧1小时,92,80,67,40,31,243,193,225,225,13,42,1,4,0.8,0.9
2023-07-19T19:00:00,1044A,119.5897,39.9499,秦皇岛市,监测站,臭氧1小时,103,75,57,40,27,250,206,230,230,21,23,9,6,0.7,0.8
2023-07-19T19:00:00,1046A,119.5251,39.9041,秦皇岛市,建设大厦,臭氧1小时,109,73,72,38,23,269,218,250,250,15,23,8,12,0.6,0.9
2023-07-19T19:00:00,1048A,114.5302,36.6116,邯郸市,东污水处理厂,,44,30,50,17,35,186,139,172,164,4,18,3,5,0.3,0.6
2023-07-19T19:00:00,1049A,114.4918,36.5713,邯郸市,矿院,,44,31,50,24,38,178,139,167,161,4,15,4,8,0.4,0.6
2023-07-19T19:00:00,1050A,114.484,36.6133,邯郸市,丛台公园,,45,36,49,17,32,186,143,175,169,2,11,4,5,0.4,0.6
2023-07-19T19:00:00,1051A,115.493,38.8632,保定市,游泳馆,臭氧1小时,103,52,55,27,43,216,205,201,201,6,13,8,7,0.4,0.4
2023-07-19T19:00:00,1052A,115.5213,38.8959,保定市,华电二区,,,,54,,33,213,206,196,196,4,9,,6,0.2,0.3
2023-07-19T19:00:00,1053A,115.4713,38.9108,保定市,接待中心,臭氧1小时,97,48,65,30,36,197,197,187,187,4,11,3,2,0.4,0.5
2023-07-19T19:00:00,1054A,115.4612,38.8416,保定市,地表水厂,臭氧1小时,78,79,70,36,38,196,182,186,186,19,22,10,9,0.5,0.5
2023-07-19T19:00:00,1056A,115.5086,38.8639,保定市,监测站,臭氧1小时,97,80,74,40,50,214,197,190,190,16,20,10,8,0.4,0.5
2023-07-19T19:00:00,1057A,114.8883,40.8336,张家口市,人民公园,臭氧1小时,98,39,37,17,17,224,198,210,210,9,9,3,4,0.4,0.3
2023-07-19T19:00:00,1059A,114.8687,40.8042,张家口市,五金库,臭氧1小时,87,58,46,20,28,213,189,203,203,12,13,5,5,0.5,0.5
2023-07-19T19:00:00,1060A,114.8902,40.762,张家口市,世纪豪园,,,,47,,27,221,182,206,206,,11,6,7,0.3,0.3
2023-07-19T19:00:00,1061A,114.8916,40.8661,张家口市,北泵房,臭氧1小时,109,45,38,26,19,243,218,223,223,6,8,9,8,0.8,0.7
2023-07-19T19:00:00,1062A,117.9531,40.9081,承德市,铁路,臭氧1小时,101,80,54,44,33,213,202,206,206,19,29,7,8,0.7,0.6
2023-07-19T19:00:00,1063A,117.9392,40.9763,承德市,中国银行,臭氧1小时,108,74,58,50,33,239,216,229,229,16,21,8,11,0.7,0.6
2023-07-19T19:00:00,1064A,117.9503,40.928,承德市,开发区,臭氧1小时,89,82,50,34,28,221,191,212,211,37,22,7,8,0.7,0.6
2023-07-19T19:00:00,1065A,117.8051,40.9655,承德市,文化中心,臭氧1小时,114,68,60,41,33,252,228,232,232,19,28,97,25,0.5,0.8
2023-07-19T19:00:00,1066A,117.9268,41.0026,承德市,离宫,臭氧1小时,79,72,51,28,36,221,183,205,205,11,15,5,7,0.6,0.6
2023-07-19T19:00:00,1067A,116.6708,39.5111,廊坊市,药材公司,臭氧1小时,87,64,81,29,44,223,189,209,209,12,17,2,2,0.5,0.5
2023-07-19T19:00:00,1068A,116.7214,39.5589,廊坊市,开发区,臭氧1小时,97,57,65,38,46,216,197,209,209,12,11,2,3,0.5,0.5
2023-07-19T19:00:00,1070A,116.7244,39.5269,廊坊市,北华航天学院,臭氧1小时,99,62,71,36,48,223,199,215,215,6,11,5,6,0.4,0.5
2023-07-19T19:00:00,1071A,116.8842,38.2991,沧州市,沧县城建局,臭氧1小时,75,51,57,31,36,230,180,208,205,22,18,4,7,0.4,0.4
2023-07-19T19:00:00,1072A,116.8584,38.3254,沧州市,电视转播站,臭氧1小时,92,49,53,34,35,228,193,216,211,11,15,4,8,0.5,0.5
2023-07-19T19:00:00,1073A,116.8709,38.3228,沧州市,市环保局,臭氧1小时,79,53,55,36,37,221,183,206,204,19,22,5,8,0.3,0.3
2023-07-19T19:00:00,1074A,115.6838,37.7541,衡水市,电机北厂,臭氧1小时,108,44,56,38,36,217,215,214,214,6,9,5,6,0.3,0.5
2023-07-19T19:00:00,1075A,115.6303,37.7316,衡水市,市监测站,臭氧1小时,101,44,56,22,32,206,201,202,202,9,17,6,11,0.5,0.6
2023-07-19T19:00:00,1077A,114.4704,37.0886,邢台市,达活泉,,,,84,16,33,223,155,198,193,2,15,10,16,0.5,1
2023-07-19T19:00:00,1078A,114.5062,37.0349,邢台市,邢师高专,,50,33,67,18,38,225,160,202,196,5,31,4,8,0.2,0.6
2023-07-19T19:00:00,1079A,114.5237,37.0851,邢台市,路桥公司,臭氧1小时,54,46,68,18,39,232,163,215,203,3,18,6,10,0.3,0.7
2023-07-19T19:00:00,1080A,114.4725,37.0719,邢台市,市环保局,臭氧1小时,59,54,79,20,39,243,167,215,209,9,22,4,8,0.3,0.7
2023-07-19T19:00:00,1081A,112.522,37.8873,太原市,尖草坪,臭氧1小时,103,41,55,21,27,249,206,222,222,15,23,8,12,0.5,0.7
2023-07-19T19:00:00,1083A,112.434,38.0108,太原市,上兰,,,,,,,,,,,,,,,,
2023-07-19T19:00:00,1084A,112.469,37.7124,太原市,晋源,臭氧1小时,80,43,60,29,38,219,184,204,204,19,25,5,8,0.6,0.8
2023-07-19T19:00:00,1085A,112.5583,37.7394,太原市,小店,臭氧1小时,98,46,64,31,34,233,198,211,211,20,28,7,8,0.5,0.6
2023-07-19T19:00:00,1086A,112.5369,37.8692,太原市,桃园,臭氧1小时,94,38,51,22,29,246,195,218,218,15,26,7,10,0.5,0.7
2023-07-19T19:00:00,1087A,112.57,37.8195,太原市,坞城,臭氧1小时,95,40,55,20,31,232,196,214,214,13,29,6,10,0.5,0.8
2023-07-19T19:00:00,1088A,112.549,37.9854,太原市,南寨,臭氧1小时,79,47,64,15,28,268,183,235,229,17,34,6,9,0.4,0.7
2023-07-19T19:00:00,1090A,111.6507,40.7517,呼和浩特市,呼市一监,臭氧1小时,111,53,62,21,30,238,221,218,218,9,21,7,8,0.6,0.6
2023-07-19T19:00:00,1091A,111.6572,40.8033,呼和浩特市,小召,臭氧1小时,110,51,61,22,30,231,220,211,211,14,28,10,11,0.5,0.6
2023-07-19T19:00:00,1094A,111.7516,40.8369,呼和浩特市,如意水处理厂,臭氧1小时,115,47,61,24,30,245,230,226,226,12,25,11,11,0.5,0.6
2023-07-19T19:00:00,1095A,111.7276,40.8062,呼和浩特市,二十九中,臭氧1小时,112,50,62,22,30,241,224,220,220,13,29,8,9,0.5,0.7
2023-07-19T19:00:00,1096A,111.5512,40.7866,呼和浩特市,工大金川校区,臭氧1小时,104,60,66,21,31,228,208,204,204,20,31,12,10,0.6,0.7
2023-07-19T19:00:00,1097A,111.717,40.7612,呼和浩特市,化肥厂生活区,臭氧1小时,95,76,76,25,31,213,196,196,196,21,26,8,8,0.7,0.8
2023-07-19T19:00:00,1098A,123.6836,41.9339,沈阳市,森林路,,,,,,,,,,,,,,,,
2023-07-19T19:00:00,1099A,123.505,41.7406,沈阳市,浑南东路,臭氧1小时,113,81,66,44,36,261,225,233,233,23,41,7,16,1.5,1.4
2023-07-19T19:00:00,1100A,123.4231,41.6989,沈阳市,新秀街,臭氧1小时,105,76,55,35,26,242,209,211,211,28,33,9,20,1.4,1.2
2023-07-19T19:00:00,1102A,123.5903,41.8411,沈阳市,东陵路,臭氧1小时,113,53,58,40,32,264,225,235,235,16,22,14,15,1.2,1.2
2023-07-19T19:00:00,1103A,123.4264,41.8467,沈阳市,陵东街,臭氧1小时,103,59,47,44,29,225,206,206,206,14,21,9,12,1.3,1.3
2023-07-19T19:00:00,1104A,123.4114,41.7653,沈阳市,文化路,臭氧1小时,104,77,59,40,31,248,208,220,220,20,30,8,17,1.3,1.2
2023-07-19T19:00:00,1105A,123.4678,41.7867,沈阳市,小河沿,臭氧1小时,106,71,55,42,32,246,211,216,216,23,29,8,12,1.4,1.4
2023-07-19T19:00:00,1106A,123.4017,41.7972,沈阳市,太原街,臭氧1小时,109,64,54,50,35,253,217,226,226,23,27,5,14,1.3,1.1
2023-07-19T19:00:00,1108A,123.3783,41.9228,沈阳市,京沈街,臭氧1小时,104,82,62,53,41,227,207,215,215,20,16,7,10,1.0,0.9
2023-07-19T19:00:00,1109A,121.612,38.9741,大连市,甘井子,细颗粒物(PM2.5),59,60,46,42,29,187,147,176,175,22,27,5,5,0.7,0.6
2023-07-19T19:00:00,1110A,121.565,38.9511,大连市,周水子,细颗粒物(PM2.5),54,47,33,38,28,187,153,175,174,20,24,5,5,0.7,0.7
2023-07-19T19:00:00,1111A,121.5637,38.8845,大连市,星海三站,细颗粒物(PM2.5),64,71,51,46,30,168,133,150,150,32,24,4,4,0.7,0.5
2023-07-19T19:00:00,1112A,121.6302,38.9117,大连市,青泥洼桥,,,,38,,25,180,145,171,170,19,19,5,5,0.8,0.7
2023-07-19T19:00:00,1113A,121.6251,38.8638,大连市,傅家庄,细颗粒物(PM2.5),64,42,49,46,29,180,168,164,164,13,16,8,9,0.7,0.6
2023-07-19T19:00:00,1114A,121.5213,38.8661,大连市,七贤岭,臭氧1小时,80,53,35,38,27,195,184,187,187,11,12,7,6,0.5,0.4
2023-07-19T19:00:00,1115A,121.2529,38.8061,大连市,旅顺,,49,46,33,34,28,181,142,163,163,58,36,5,5,0.6,0.4
2023-07-19T19:00:00,1116A,121.7485,39.1311,大连市,金州,臭氧1小时,73,56,39,38,27,178,178,172,172,16,16,10,9,0.8,0.8
2023-07-19T19:00:00,1117A,121.7811,39.0496,大连市,开发区,细颗粒物(PM2.5),53,53,43,37,32,204,156,177,177,34,44,9,8,0.7,0.7
2023-07-19T19:00:00,1118A,121.9762,39.0631,大连市,双D港,细颗粒物(PM2.5),58,56,42,41,27,188,156,165,165,23,25,9,8,0.7,0.6
2023-07-19T19:00:00,1119A,125.3325,43.9166,长春市,食品厂,,35,35,46,18,22,132,100,114,114,19,40,5,5,0.7,0.7
2023-07-19T19:00:00,1120A,125.2863,43.9027,长春市,客车厂,,40,40,48,22,23,134,96,116,116,20,36,4,4,0.9,0.7
2023-07-19T19:00:00,1121A,125.2841,43.8463,长春市,邮电学院,,32,32,38,18,19,134,93,113,113,12,20,4,4,0.6,0.6
2023-07-19T19:00:00,1122A,125.3716,43.8772,长春市,劳动公园,,32,31,48,21,19,123,100,108,108,13,32,5,5,0.8,0.7
2023-07-19T19:00:00,1123A,125.3297,43.8805,长春市,园林处,,35,35,46,22,15,134,105,118,118,18,33,3,4,0.9,0.6
2023-07-19T19:00:00,1124A,125.4605,43.79,长春市,净月潭,,31,20,24,8,12,112,97,102,100,4,7,3,3,0.4,0.4
2023-07-19T19:00:00,1125A,125.7194,43.515,长春市,甩湾子,,43,11,32,10,14,185,137,137,137,4,10,4,5,0.6,0.8
2023-07-19T19:00:00,1126A,125.3863,43.8447,长春市,经开区环卫处,,33,13,48,12,17,126,103,112,112,15,32,5,5,0.5,0.5
2023-07-19T19:00:00,1127A,125.245,43.7783,长春市,高新区管委会,,36,36,38,17,18,120,99,109,109,13,24,4,4,0.4,0.4
2023-07-19T19:00:00,1128A,125.1761,43.8325,长春市,岱山公园,,43,43,49,21,29,134,92,115,115,22,39,3,4,0.6,0.6
2023-07-19T19:00:00,1129A,126.5422,45.755,哈尔滨市,岭北,,45,44,32,31,18,142,142,128,128,9,22,11,13,1.1,0.6
2023-07-19T19:00:00,1130A,126.561,45.8167,哈尔滨市,松北商大,,38,36,31,26,12,115,98,104,104,15,23,5,5,0.7,0.6
2023-07-19T19:00:00,1131A,126.979,45.5419,哈尔滨市,阿城会宁,,36,36,29,16,14,99,81,87,87,8,18,8,9,0.6,0.6
2023-07-19T19:00:00,1132A,126.599,45.7222,哈尔滨市,南岗学府路,颗粒物(PM10),55,60,55,30,24,121,120,109,109,6,29,6,6,0.9,1.1
2023-07-19T19:00:00,1133A,126.689,45.7733,哈尔滨市,太平宏伟公园,颗粒物(PM10),52,54,59,22,18,114,111,102,102,13,27,6,5,0.6,0.7
2023-07-19T19:00:00,1134A,126.635,45.7667,哈尔滨市,道外承德广场,,49,49,48,9,6,124,124,110,110,15,37,5,5,0.6,0.7
2023-07-19T19:00:00,1135A,126.685,45.7319,哈尔滨市,香坊红旗大街,,48,48,54,33,25,112,103,102,102,25,40,10,13,0.7,0.7
2023-07-19T19:00:00,1136A,126.6411,45.7258,哈尔滨市,动力和平路,,,52,42,,,123,121,110,110,17,38,9,10,0.7,0.7
2023-07-19T19:00:00,1137A,126.593,45.7478,哈尔滨市,道里建国路,颗粒物(PM10),53,55,39,25,14,126,120,107,107,22,43,7,9,1.1,1.5
2023-07-19T19:00:00,1138A,126.615,45.61,哈尔滨市,平房东轻厂,颗粒物(PM10),56,61,30,21,12,119,113,101,101,5,26,8,8,0.9,0.8
2023-07-19T19:00:00,1139A,126.595,45.9855,哈尔滨市,呼兰师专,,,47,33,39,13,127,109,114,114,,20,,8,0.6,0.5
2023-07-19T19:00:00,1140A,126.6206,45.6842,哈尔滨市,省农科院,颗粒物(PM10),56,61,45,34,16,129,119,115,115,27,40,13,13,0.6,0.6
2023-07-19T19:00:00,1141A,121.4,31.238,上海市,普陀,,17,17,20,5,8,98,40,67,66,23,24,4,6,0.4,0.5
2023-07-19T19:00:00,1142A,121.478,31.2036,上海市,十五厂,,21,21,16,11,9,95,45,64,63,13,12,8,8,0.4,0.4
2023-07-19T19:00:00,1143A,121.467,31.3008,上海市,虹口,,13,12,16,6,7,73,40,53,53,17,19,6,8,0.5,0.5
2023-07-19T19:00:00,1144A,121.412,31.1654,上海市,徐汇上师大,,13,13,18,4,6,103,39,73,71,23,18,4,4,0.7,0.7
2023-07-19T19:00:00,1145A,121.536,31.2659,上海市,杨浦四漂,,22,22,16,2,5,71,43,50,49,16,17,5,6,0.3,0.3
2023-07-19T19:00:00,1147A,121.425,31.2261,上海市,静安监测站,,17,17,19,6,9,83,28,57,56,33,26,3,3,0.3,0.3
2023-07-19T19:00:00,1148A,121.703,31.1907,上海市,浦东川沙,,18,8,8,7,5,76,57,64,64,13,14,6,6,0.3,0.3
2023-07-19T19:00:00,1149A,121.533,31.2284,上海市,浦东新区监测站,,19,16,12,7,7,98,58,70,70,15,15,7,7,0.3,0.3
2023-07-19T19:00:00,1150A,121.577,31.2071,上海市,浦东张江,,15,15,12,2,6,90,45,58,58,20,19,5,5,0.6,0.5
2023-07-19T19:00:00,1151A,118.8086,32.1065,南京市,迈皋桥,,19,14,19,2,8,144,47,92,91,37,19,5,4,0.7,0.5
2023-07-19T19:00:00,1152A,118.7538,32.0551,南京市,草场门,,17,12,16,2,6,138,54,92,92,32,20,2,4,0.7,0.6
2023-07-19T19:00:00,1153A,118.7794,32.0745,南京市,山西路,,17,12,22,5,7,146,52,100,98,29,16,3,4,0.4,0.2
2023-07-19T19:00:00,1154A,118.7752,32.0023,南京市,中华门,,,,19,,8,127,,106,106,,15,,5,,0.8
2023-07-19T19:00:00,1155A,118.8109,32.0309,南京市,瑞金路,,19,7,18,7,9,126,59,91,91,16,12,3,4,0.5,0.3
2023-07-19T19:00:00,1156A,118.7997,32.0754,南京市,玄武湖,,20,4,18,1,8,126,34,84,81,40,20,5,6,0.7,0.6
2023-07-19T19:00:00,1157A,118.6414,32.0931,南京市,浦口,,19,12,20,2,11,168,60,106,106,22,21,3,4,0.7,0.7
2023-07-19T19:00:00,1158A,118.7356,31.9996,南京市,奥体中心,,20,7,21,7,12,134,61,96,96,19,17,5,6,0.6,0.4
2023-07-19T19:00:00,1159A,118.9125,32.1028,南京市,仙林大学城,,17,7,18,7,10,131,54,92,90,24,14,6,8,0.5,0.4
2023-07-19T19:00:00,1160A,120.561,31.2472,苏州市,上方山,颗粒物(PM10),56,61,31,21,15,113,31,79,78,36,19,5,17,0.7,0.5
2023-07-19T19:00:00,1162A,120.591,31.3019,苏州市,彩香,,32,32,25,17,15,135,31,86,85,37,17,8,7,0.8,0.6
2023-07-19T19:00:00,1163A,120.596,31.3264,苏州市,轧钢厂,,26,26,27,11,14,97,25,76,74,45,22,10,9,0.9,0.6
2023-07-19T19:00:00,1164A,120.613,31.2703,苏州市,吴中区,,28,25,28,11,14,152,24,95,92,55,27,9,8,0.7,0.6
2023-07-19T19:00:00,1165A,120.543,31.2994,苏州市,苏州新区,,32,28,26,22,16,129,31,84,82,45,20,8,8,1.0,0.7
2023-07-19T19:00:00,1166A,120.669,31.3097,苏州市,苏州工业园区,,34,34,24,18,14,112,24,79,77,46,20,11,10,0.8,0.7
2023-07-19T19:00:00,1167A,120.641,31.3708,苏州市,相城区,,24,24,17,10,11,119,25,78,74,40,19,7,9,1.0,0.8
2023-07-19T19:00:00,1168A,120.9098,31.9663,南通市,狼山街道,,12,6,6,0,0,83,36,68,62,13,12,6,6,0.4,0.4
2023-07-19T19:00:00,1169A,120.86,32.0005,南通市,虹桥,,11,7,9,5,5,98,35,74,68,11,5,8,8,0.8,0.7
2023-07-19T19:00:00,1170A,120.87,32.02,南通市,城中,,12,12,9,6,3,98,34,75,70,8,3,8,9,0.5,0.4
2023-07-19T19:00:00,1171A,120.94,31.93,南通市,星湖花园,,13,7,6,1,1,76,41,61,53,12,11,4,4,0.4,0.4
2023-07-19T19:00:00,1172A,120.81,32.0417,南通市,紫琅学院,,18,18,14,5,2,89,29,65,60,22,15,6,5,0.8,0.6
2023-07-19T19:00:00,1173A,119.176,34.5885,连云港市,市环境监测站,,,,22,,7,135,81,114,112,,13,6,5,0.1,0.1
2023-07-19T19:00:00,1177A,117.179,34.2761,徐州市,黄河新村,,17,17,25,8,16,75,36,54,53,9,8,5,6,0.2,0.2
2023-07-19T19:00:00,1178A,117.1918,34.2384,徐州市,淮塔,,16,14,26,11,16,73,36,54,53,11,14,8,8,0.3,0.4
2023-07-19T19:00:00,1180A,117.256,34.2153,徐州市,新城区,,,27,34,8,15,78,40,59,58,7,9,,6,0.2,0.2
2023-07-19T19:00:00,1181A,117.244,34.2911,徐州市,桃园路,,17,17,32,10,12,85,47,62,61,6,10,7,8,0.3,0.3
2023-07-19T19:00:00,1182A,117.2933,34.2778,徐州市,农科院,,13,9,23,9,15,72,41,59,57,10,18,4,5,0.2,0.3
2023-07-19T19:00:00,1186A,119.389,32.3761,扬州市,邗江监测站,,19,19,21,11,10,103,35,68,67,28,16,3,5,0.6,0.6
2023-07-19T19:00:00,1188A,120.269,31.4867,无锡市,雪浪,,24,24,23,14,12,151,56,96,95,28,24,3,4,0.7,0.6
2023-07-19T19:00:00,1189A,120.275,31.6219,无锡市,黄巷,,38,38,28,22,13,109,17,79,72,65,30,7,6,0.9,0.8
2023-07-19T19:00:00,1190A,120.294,31.56,无锡市,曹张,,33,33,22,9,13,92,39,73,72,19,16,4,4,0.7,0.7
2023-07-19T19:00:00,1191A,120.242,31.5031,无锡市,漆塘,,22,22,21,14,12,150,64,101,101,20,19,5,6,0.7,0.7
2023-07-19T19:00:00,1192A,120.3489,31.5863,无锡市,东亭,,,24,24,5,14,124,33,84,82,34,25,,10,0.6,0.5
2023-07-19T19:00:00,1193A,120.354,31.5475,无锡市,旺庄,,19,19,19,7,10,130,33,88,86,30,20,7,7,0.5,0.5
2023-07-19T19:00:00,1194A,120.245,31.5631,无锡市,荣巷,,24,24,22,14,12,102,46,79,79,29,20,8,8,0.5,0.5
2023-07-19T19:00:00,1195A,120.299,31.6817,无锡市,堰桥,,24,24,18,12,10,89,35,75,70,29,18,6,7,0.7,0.7
2023-07-19T19:00:00,1196A,119.9633,31.762,常州市,市监测站,,46,38,32,32,18,91,49,74,73,46,27,6,7,1.1,0.8
2023-07-19T19:00:00,1200A,119.9468,31.7069,常州市,武进监测站,,37,37,31,23,16,119,56,94,92,41,22,10,11,1.0,0.8
2023-07-19T19:00:00,1201A,119.9255,31.9087,常州市,安家,,50,39,29,35,18,107,22,73,67,63,26,5,4,1.5,0.8
2023-07-19T19:00:00,1203A,119.6707,32.1875,镇江市,新区办事处,细颗粒物(PM2.5),73,46,22,53,16,90,46,70,68,45,22,2,3,1.2,0.6
2023-07-19T19:00:00,1204A,119.4974,32.1968,镇江市,职教中心,,24,22,22,14,11,99,22,72,66,48,25,2,3,0.8,0.7
2023-07-19T19:00:00,1205A,119.4303,32.1328,镇江市,丹徒区监测站,,45,36,31,31,20,120,50,91,86,33,19,8,6,1.1,0.7
2023-07-19T19:00:00,1206A,119.905,32.4878,泰州市,公园路,,20,7,8,14,7,93,37,69,63,14,9,7,8,0.5,0.5
2023-07-19T19:00:00,1207A,119.9189,32.4625,泰州市,莲花,,20,10,10,14,9,86,36,65,60,13,8,6,7,0.3,0.3
2023-07-19T19:00:00,1209A,119.888,32.4639,泰州市,留学生创业园,,,24,16,17,9,88,41,66,62,11,6,,8,0.7,0.7
2023-07-19T19:00:00,1210A,119.036,33.5981,淮安市,钵池山,,29,22,17,20,11,63,54,57,57,17,15,6,6,0.6,0.5
2023-07-19T19:00:00,1211A,119.007,33.575,淮安市,北京南路,,27,27,19,15,10,62,52,53,53,21,17,6,7,0.7,0.6
2023-07-19T19:00:00,1212A,118.989,33.6067,淮安市,市监测站,,31,31,23,17,5,65,37,47,43,28,15,7,7,0.7,0.5
2023-07-19T19:00:00,1213A,119.135,33.5039,淮安市,楚州区监测站,,25,24,15,17,5,64,27,56,54,32,11,5,6,0.7,0.6
2023-07-19T19:00:00,1214A,119.0186,33.6297,淮安市,淮阴区监测站,,41,41,24,14,8,70,40,60,59,28,16,8,8,0.5,0.3
2023-07-19T19:00:00,1215A,120.118,33.4022,盐城市,盐城电厂,,22,22,16,9,8,92,53,75,74,8,6,4,4,0.4,0.3
2023-07-19T19:00:00,1216A,120.156,33.3942,盐城市,市监测站,,20,15,10,14,6,86,58,75,74,4,5,3,2,0.3,0.2
2023-07-19T19:00:00,1218A,120.2144,33.38,盐城市,开发区管委会,,21,21,14,10,7,79,53,65,65,10,7,4,4,0.2,0.2
2023-07-19T19:00:00,1220A,118.293,33.9528,宿迁市,宿迁学院,,30,21,21,21,18,65,29,54,51,22,13,6,6,0.4,0.4
2023-07-19T19:00:00,1221A,118.2442,33.9592,宿迁市,宿迁中学,,29,23,19,20,15,74,25,53,48,26,12,6,6,0.4,0.4
2023-07-19T19:00:00,1223A,120.2072,30.2111,杭州市,滨江,,33,28,38,18,22,210,104,156,155,15,19,6,6,0.8,0.8
2023-07-19T19:00:00,1224A,120.0633,30.2747,杭州市,西溪,,32,28,31,14,18,147,101,132,128,10,18,4,6,0.5,0.7
2023-07-19T19:00:00,1226A,120.3461,30.3153,杭州市,下沙,,36,34,45,20,26,234,114,170,167,15,24,3,4,0.4,0.5
2023-07-19T19:00:00,1227A,120.1269,30.2456,杭州市,卧龙桥,,34,25,29,12,22,157,107,139,136,11,11,4,4,0.5,0.6
2023-07-19T19:00:00,1228A,120.1903,30.2692,杭州市,浙江农大,,31,23,30,17,25,210,98,160,156,10,18,6,6,0.3,0.4
2023-07-19T19:00:00,1230A,120.1197,30.3119,杭州市,和睦小学,,30,24,37,21,23,203,89,156,152,8,13,5,6,0.5,0.6
2023-07-19T19:00:00,1231A,120.3019,30.4183,杭州市,临平镇,,32,14,50,8,23,212,102,164,161,4,17,4,4,0.4,0.5
2023-07-19T19:00:00,1232A,120.2697,30.1819,杭州市,城厢镇,,30,18,36,18,37,195,95,150,146,13,16,6,6,0.5,0.6
2023-07-19T19:00:00,1233A,120.0883,30.1808,杭州市,云栖,,40,36,33,18,15,175,125,137,137,13,13,4,4,0.8,0.8
2023-07-19T19:00:00,1234A,121.8358,29.911,宁波市,区环保大楼,,32,29,24,22,16,154,95,128,128,15,28,2,2,0.5,0.5
2023-07-19T19:00:00,1235A,121.56,29.82,宁波市,万里学院,,40,38,38,28,21,205,78,137,136,30,30,4,5,0.7,0.6
2023-07-19T19:00:00,1236A,121.713,29.9572,宁波市,龙赛医院,,33,28,37,20,16,191,103,145,145,16,29,6,7,0.5,0.6
2023-07-19T19:00:00,1239A,121.633,29.7733,宁波市,钱湖水厂,,32,32,32,18,13,147,92,126,125,8,13,2,2,0.4,0.5
2023-07-19T19:00:00,1240A,121.5856,29.8635,宁波市,太古小学,,,,,,,,,,,,,,,,
2023-07-19T19:00:00,1241A,121.524,29.8674,宁波市,市环境监测中心,,29,29,32,14,12,234,64,146,145,28,19,3,4,0.8,0.7
2023-07-19T19:00:00,1242A,120.634,28.0089,温州市,瓯海,,30,30,38,17,20,159,88,117,112,14,21,7,7,0.5,0.6
2023-07-19T19:00:00,1243A,120.6748,27.9939,温州市,南浦,,32,28,36,18,18,164,101,120,117,8,15,6,6,0.5,0.5
2023-07-19T19:00:00,1244A,120.76,27.9747,温州市,龙湾,,30,30,34,14,16,124,88,101,95,13,17,6,6,0.5,0.5
2023-07-19T19:00:00,1245A,120.6709,28.0167,温州市,市站,,32,32,38,14,20,118,69,86,82,17,24,5,5,0.6,0.6
2023-07-19T19:00:00,1247A,120.6053,29.9928,绍兴市,城东开发委,,22,9,38,4,27,170,70,131,125,13,16,5,5,0.6,0.7
2023-07-19T19:00:00,1250A,120.0751,30.8669,湖州市,城西水厂,,,,35,4,28,181,83,136,135,12,28,1,2,0.5,0.6
2023-07-19T19:00:00,1252A,120.7436,30.778,嘉兴市,清河小学,,27,27,23,12,10,134,74,106,106,21,18,6,6,0.6,0.6
2023-07-19T19:00:00,1253A,120.726,30.7478,嘉兴市,嘉兴学院,,30,30,23,20,16,134,67,107,107,22,17,3,2,0.5,0.4
2023-07-19T19:00:00,1255A,121.273,28.6459,台州市,黄岩环保大楼,,31,31,24,16,17,138,40,97,82,21,16,2,3,0.6,0.5
2023-07-19T19:00:00,1256A,121.419,28.6542,台州市,台州环保大楼,,34,34,33,23,18,146,58,100,93,9,20,2,2,0.4,0.5
2023-07-19T19:00:00,1257A,121.377,28.5773,台州市,路桥田洋王,颗粒物(PM10),64,78,39,36,20,110,37,79,72,25,26,2,2,0.8,0.6
2023-07-19T19:00:00,1258A,122.122,30.0203,舟山市,定海檀枫,,22,19,22,13,14,100,70,77,77,6,9,6,6,0.5,0.5
2023-07-19T19:00:00,1259A,122.3094,29.9558,舟山市,普陀东港,,25,24,19,10,10,143,80,67,67,9,10,4,4,0.3,0.3
2023-07-19T19:00:00,1260A,122.19,29.9944,舟山市,临城新区,,28,22,25,14,12,110,87,83,83,5,8,2,3,0.3,0.3
2023-07-19T19:00:00,1262A,119.647,29.077,金华市,十五中,,20,20,22,9,9,134,58,99,95,14,13,2,2,0.4,0.4
2023-07-19T19:00:00,1263A,119.686,29.1029,金华市,监测站,,25,25,20,8,11,124,62,100,97,13,13,4,3,0.4,0.4
2023-07-19T19:00:00,1264A,118.8692,28.9398,衢州市,环保大楼,,15,12,24,5,15,111,45,86,83,18,16,4,3,0.3,0.4
2023-07-19T19:00:00,1265A,118.8709,28.9666,衢州市,实验学校,,19,19,34,11,14,92,46,76,70,13,14,4,3,0.3,0.4
2023-07-19T19:00:00,1266A,118.8621,28.9808,衢州市,衢州学院,,15,14,25,4,13,130,47,98,93,17,16,4,4,0.5,0.5
2023-07-19T19:00:00,1267A,119.914,28.4514,丽水市,监测站大楼,,17,4,19,5,6,129,52,95,92,17,15,5,6,0.6,0.5
2023-07-19T19:00:00,1268A,119.93,28.4586,丽水市,莲都小学,,,23,21,13,9,141,50,102,98,15,14,,5,0.5,0.5
2023-07-19T19:00:00,1269A,119.879,28.4231,丽水市,余庄前,,20,17,19,10,8,147,62,113,112,20,17,6,5,0.5,0.5
2023-07-19T19:00:00,1270A,117.1959,31.7848,合肥市,明珠广场,,24,24,25,9,18,124,58,99,92,17,26,5,5,0.6,0.7
2023-07-19T19:00:00,1271A,117.3072,31.8764,合肥市,三里街,,31,31,25,7,16,126,56,105,102,14,22,4,4,0.4,0.5
2023-07-19T19:00:00,1272A,117.2588,31.8707,合肥市,琥珀山庄,,34,34,26,12,20,130,65,115,111,11,15,4,4,0.5,0.6
2023-07-19T19:00:00,1273A,117.1604,31.9052,合肥市,董铺水库,,34,34,23,5,16,139,75,115,115,8,14,3,3,0.5,0.4
2023-07-19T19:00:00,1274A,117.25,31.8571,合肥市,长江中路,,31,31,31,12,20,134,67,119,112,8,13,5,7,0.5,0.5
2023-07-19T19:00:00,1275A,117.266,31.9436,合肥市,庐阳区,,27,27,37,5,23,132,66,114,110,11,24,4,4,0.6,0.7
2023-07-19T19:00:00,1276A,117.336,31.8586,合肥市,瑶海区,,34,34,31,10,16,117,63,104,101,9,16,8,8,0.5,0.6
2023-07-19T19:00:00,1277A,117.3027,31.7964,合肥市,包河区,颗粒物(PM10),52,53,27,19,18,119,47,106,101,30,37,5,6,0.4,0.5
2023-07-19T19:00:00,1278A,117.2776,31.7385,合肥市,滨湖新区,,39,36,25,27,18,115,66,109,106,14,15,3,5,0.5,0.5
2023-07-19T19:00:00,1279A,117.1318,31.8403,合肥市,高新区,,29,29,29,10,23,131,58,112,108,21,20,8,8,0.5,0.5
2023-07-19T19:00:00,1280A,119.3903,26.0543,福州市,鼓山,,,,,,,,,,,,,,,,
2023-07-19T19:00:00,1282A,119.2681,26.0504,福州市,师大,,24,24,27,6,11,97,57,86,80,12,13,4,5,0.3,0.3
2023-07-19T19:00:00,1283A,119.2984,26.1028,福州市,五四北路,,,32,26,12,10,95,53,86,80,12,12,,3,0.4,0.4
2023-07-19T19:00:00,1284A,119.2648,26.0768,福州市,杨桥西路,,35,35,28,8,8,85,47,80,74,9,12,3,3,0.2,0.2
2023-07-19T19:00:00,1285A,119.317,26.0746,福州市,紫阳,,,38,28,15,8,106,66,88,84,,12,1,2,0.4,0.4
2023-07-19T19:00:00,1286A,118.1608,24.8169,厦门市,溪东,,,,,,,,,,,,,,,,
2023-07-19T19:00:00,1287A,118.1514,24.4767,厦门市,洪文,,23,23,14,12,5,54,28,46,46,17,10,3,2,0.5,0.4
2023-07-19T19:00:00,1288A,118.0661,24.4444,厦门市,鼓浪屿,,15,15,12,7,5,44,29,35,35,4,9,2,3,0.4,0.4
2023-07-19T19:00:00,1290A,115.8931,28.6843,南昌市,省外办,,21,17,20,12,12,107,65,85,85,9,13,6,8,0.5,0.6
2023-07-19T19:00:00,1291A,115.8886,28.7003,南昌市,省林业公司,,21,9,14,12,10,105,67,88,88,9,14,5,6,0.4,0.5
2023-07-19T19:00:00,1292A,115.8126,28.7442,南昌市,林科所,,24,14,11,5,6,110,74,88,88,9,17,7,6,0.5,0.6
2023-07-19T19:00:00,1294A,115.8518,28.687,南昌市,建工学校,,20,18,24,12,14,105,62,87,86,8,10,5,4,0.5,0.6
2023-07-19T19:00:00,1295A,115.8921,28.6424,南昌市,象湖,,19,12,11,13,11,112,58,90,88,10,13,4,4,0.5,0.6
2023-07-19T19:00:00,1296A,115.7423,28.7996,南昌市,武术学校,,17,17,19,9,11,88,37,68,66,2,2,2,2,0.4,0.4
2023-07-19T19:00:00,1298A,115.9314,28.6842,南昌市,省站,,22,22,20,10,12,107,64,91,91,8,9,7,8,0.4,0.5
2023-07-19T19:00:00,1299A,116.9862,36.6114,济南市,科干所,,39,39,41,24,23,207,124,162,156,20,15,5,7,0.4,0.5
2023-07-19T19:00:00,1300A,116.9376,36.665,济南市,农科所,,36,32,46,7,18,215,113,191,182,21,20,6,8,0.2,0.3
2023-07-19T19:00:00,1301A,117.1265,36.6734,济南市,开发区,,43,42,48,17,22,223,135,179,176,19,21,4,6,0.6,0.6
2023-07-19T19:00:00,1303A,117.0624,36.6868,济南市,省种子仓库,,47,31,48,17,23,249,149,220,215,8,15,4,7,0.5,0.6
2023-07-19T19:00:00,1304A,116.9489,36.6447,济南市,机床二厂,,43,34,49,7,22,226,137,197,191,16,19,7,10,0.5,0.6
2023-07-19T19:00:00,1305A,117.0495,36.663,济南市,市监测站,,43,32,43,20,24,243,136,197,191,16,17,5,7,0.5,0.5
2023-07-19T19:00:00,1306A,116.7675,36.5484,济南市,长清党校,,41,24,47,15,26,204,129,159,156,14,21,5,8,0.5,0.5
2023-07-19T19:00:00,1307A,120.6659,36.2403,青岛市,仰口,,39,22,26,27,23,108,96,103,103,5,9,5,5,0.4,0.3
2023-07-19T19:00:00,1310A,120.4134,36.0658,青岛市,市南区东部子站,,28,22,22,9,10,101,89,92,92,23,17,5,5,0.3,0.3
2023-07-19T19:00:00,1311A,120.3664,36.1032,青岛市,四方区子站,,33,22,23,14,9,122,104,117,117,23,29,4,4,0.6,0.6
2023-07-19T19:00:00,1312A,120.2994,36.054,青岛市,市南区西部子站,,31,31,29,15,10,83,65,73,67,42,33,8,7,0.6,0.5
2023-07-19T19:00:00,1313A,120.4581,36.0858,青岛市,崂山区子站,,30,29,21,12,10,105,93,99,98,23,18,7,6,0.4,0.3
2023-07-19T19:00:00,1314A,120.1983,35.9608,青岛市,黄岛区子站,,30,12,32,12,18,128,93,117,117,17,29,5,6,0.6,0.7
2023-07-19T19:00:00,1315A,120.3999,36.3083,青岛市,城阳区子站,,48,48,45,17,16,171,105,146,143,32,31,5,6,0.6,0.5
2023-07-19T19:00:00,1316A,113.69031,34.76122,郑州市,烟厂,,35,26,44,16,22,178,109,144,142,14,21,2,2,0.5,0.5
2023-07-19T19:00:00,1317A,113.65724,34.77134,郑州市,郑纺机,,,27,45,,22,182,109,142,140,11,16,1,2,0.6,0.5
2023-07-19T19:00:00,1318A,113.67526,34.80246,郑州市,银行学校,,35,35,39,15,21,180,110,148,145,11,17,2,2,0.5,0.6
2023-07-19T19:00:00,1319A,113.56746,34.81334,郑州市,供水公司,,33,33,52,15,22,204,102,162,156,23,26,6,6,0.5,0.7
2023-07-19T19:00:00,1320A,113.7329,34.7178,郑州市,经开区管委,,31,22,46,16,23,178,97,129,126,6,20,2,2,0.5,0.5
2023-07-19T19:00:00,1321A,113.73961,34.77172,郑州市,四十七中,,34,23,44,13,24,187,106,140,138,7,15,2,2,0.4,0.5
2023-07-19T19:00:00,1322A,113.60532,34.74838,郑州市,市监测站,,33,33,59,20,23,184,104,146,146,17,26,3,2,0.4,0.5
2023-07-19T19:00:00,1323A,113.64164,34.7525,郑州市,河医大,,42,42,48,18,19,173,103,137,135,11,15,4,5,0.5,0.5
2023-07-19T19:00:00,1324A,113.51488,34.91089,郑州市,岗李水库,,38,36,47,18,24,213,119,175,170,22,18,4,4,0.6,0.7
2023-07-19T19:00:00,1325A,114.3677,30.5584,武汉市,东湖梨园,,23,5,31,0,15,123,73,93,93,11,16,7,7,0.4,0.6
2023-07-19T19:00:00,1326A,114.2529,30.558,武汉市,汉阳月湖,,,14,32,2,13,129,,106,106,21,25,5,6,0.5,0.6
2023-07-19T19:00:00,1327A,114.282,30.6189,武汉市,汉口花桥,,19,16,35,7,17,132,60,95,95,19,20,7,12,0.6,0.7
2023-07-19T19:00:00,1328A,114.3025,30.5332,武汉市,武昌紫阳,,21,12,31,9,14,138,65,99,97,16,22,5,6,0.8,0.9
2023-07-19T19:00:00,1329A,114.3646,30.6217,武汉市,青山钢花,,28,12,38,19,20,158,55,108,105,26,23,8,8,1.0,0.8
2023-07-19T19:00:00,1330A,114.1566,30.4825,武汉市,沌口新区,,,20,35,12,21,119,68,94,94,13,24,7,8,,0.7
2023-07-19T19:00:00,1331A,114.3014,30.5944,武汉市,汉口江滩,,17,4,27,2,13,133,54,95,93,23,20,4,4,0.6,0.7
2023-07-19T19:00:00,1333A,114.135,30.6319,武汉市,吴家山,,17,4,32,2,15,113,54,86,82,17,18,6,6,0.6,0.7
2023-07-19T19:00:00,1334A,113.8454,30.2917,武汉市,沉湖七壕,,27,27,27,6,10,98,76,87,87,16,21,5,5,0.7,0.7
2023-07-19T19:00:00,1335A,113.0833,28.2325,长沙市,经开区环保局,,24,16,12,8,10,142,75,114,114,11,12,4,4,0.4,0.3
2023-07-19T19:00:00,1336A,112.8872,28.2189,长沙市,高开区环保局,,22,10,14,14,12,121,69,102,102,8,10,4,5,0.5,0.5
2023-07-19T19:00:00,1337A,113.0792,28.2053,长沙市,马坡岭,,,,10,,9,134,74,97,97,11,14,4,4,0.4,0.4
2023-07-19T19:00:00,1338A,112.9394,28.19,长沙市,湖南师范大学,,,23,14,8,6,124,74,104,104,7,6,2,2,,0.6
2023-07-19T19:00:00,1339A,113.0178,28.1322,长沙市,雨花区环保局,,20,20,15,13,9,108,60,86,86,16,10,4,4,0.5,0.4
2023-07-19T19:00:00,1340A,112.9792,28.2597,长沙市,伍家岭,,24,1,14,11,13,143,76,114,114,12,14,2,2,0.4,0.4
2023-07-19T19:00:00,1341A,113.0014,28.1944,长沙市,火车新站,,22,15,9,5,4,116,68,97,97,14,9,4,4,0.7,0.7
2023-07-19T19:00:00,1342A,112.9844,28.1178,长沙市,天心区环保局,,22,15,7,12,7,120,70,92,92,16,11,1,1,0.7,0.5
2023-07-19T19:00:00,1343A,112.8908,28.1308,长沙市,湖南中医药大学,,25,13,14,2,7,136,80,111,111,3,5,3,3,0.6,0.6
2023-07-19T19:00:00,1344A,112.9581,28.3611,长沙市,沙坪,,40,40,17,17,7,113,69,91,91,3,4,4,4,0.4,0.4
2023-07-19T19:00:00,1345A,113.2347,23.1423,广州市,广雅中学,,24,24,23,12,14,134,36,94,93,34,23,4,3,0.9,0.9
2023-07-19T19:00:00,1346A,113.2612,23.105,广州市,市五中,,26,26,26,14,16,142,32,94,92,28,21,8,8,0.5,0.6
2023-07-19T19:00:00,1348A,113.3478,23.0916,广州市,广东商学院,,22,22,24,12,13,142,35,88,86,27,27,5,5,0.6,0.7
2023-07-19T19:00:00,1349A,113.4332,23.1047,广州市,市八十六中,,23,23,27,12,17,142,31,89,80,38,30,5,4,0.6,0.7
2023-07-19T19:00:00,1350A,113.3505,22.9483,广州市,番禺中学,,,,,,,,,,,,,,,,
2023-07-19T19:00:00,1351A,113.2146,23.3916,广州市,花都师范,,22,22,22,14,15,188,57,120,118,33,26,6,6,0.6,0.7
2023-07-19T19:00:00,1352A,113.2597,23.1331,广州市,市监测站,,21,21,23,10,13,143,41,99,98,35,32,7,6,0.7,0.8
2023-07-19T19:00:00,1353A,113.5618,23.312,广州市,九龙镇镇龙,,28,28,21,13,10,111,32,80,78,39,17,5,5,0.8,0.8
2023-07-19T19:00:00,1354A,113.2765,23.1544,广州市,麓湖,,17,17,21,10,12,150,44,110,100,27,25,6,5,0.7,0.9
2023-07-19T19:00:00,1355A,113.443,23.3035,广州市,帽峰山森林公园,,22,20,17,13,9,136,69,100,100,20,11,7,6,0.3,0.3
2023-07-19T19:00:00,1356A,114.1063,22.5545,深圳市,通心岭子站,,13,13,16,6,7,43,33,41,40,7,4,4,4,0.5,0.5
2023-07-19T19:00:00,1357A,114.117,22.5625,深圳市,洪湖,,16,16,19,6,6,48,39,45,44,8,8,5,5,0.6,0.6
2023-07-19T19:00:00,1358A,113.987,22.5417,深圳市,华侨城,,15,15,19,8,7,38,26,34,33,12,9,7,7,0.7,0.7
2023-07-19T19:00:00,1359A,113.9181,22.5171,深圳市,南海子站,,28,28,30,10,12,45,33,36,36,15,18,4,4,0.6,0.6
2023-07-19T19:00:00,1360A,114.2458,22.5689,深圳市,盐田,,16,16,21,8,8,41,24,35,33,26,15,4,4,0.5,0.5
2023-07-19T19:00:00,1361A,114.2283,22.7244,深圳市,龙岗,,13,13,16,4,5,52,40,47,47,7,9,6,6,0.7,0.8
2023-07-19T19:00:00,1363A,114.494,22.5422,深圳市,南澳,,12,10,16,0,4,46,37,46,41,7,5,5,5,0.7,0.6
2023-07-19T19:00:00,1364A,114.41,22.6342,深圳市,葵涌,,17,17,17,6,7,51,24,38,32,15,10,5,5,0.5,0.5
2023-07-19T19:00:00,1365A,114.297,22.5978,深圳市,梅沙,,25,25,25,8,7,46,30,43,40,17,9,5,5,0.8,0.6
2023-07-19T19:00:00,1366A,114.0678,22.738,深圳市,观澜,,16,16,21,8,10,57,31,45,44,13,14,6,6,0.6,0.7
2023-07-19T19:00:00,1367A,113.5814,22.2618,珠海市,吉大,,,18,22,5,10,60,37,54,52,,12,,4,0.5,0.6
2023-07-19T19:00:00,1368A,113.4881,22.2335,珠海市,前山,,,14,16,9,9,56,41,52,51,,9,6,6,,0.3
2023-07-19T19:00:00,1369A,113.628,22.4251,珠海市,唐家,,16,16,20,8,8,60,40,55,53,7,11,4,4,0.2,0.2
2023-07-19T19:00:00,1370A,113.299,22.2281,珠海市,斗门,,13,11,15,6,7,63,41,56,53,7,4,4,4,0.5,0.5
2023-07-19T19:00:00,1371A,113.1294,23.0067,佛山市,湾梁,,24,24,25,10,13,103,42,83,81,22,24,8,8,0.4,0.5
2023-07-19T19:00:00,1372A,113.1083,23.0478,佛山市,华材职中,,20,17,18,14,12,112,50,89,88,22,24,7,7,0.5,0.5
2023-07-19T19:00:00,1373A,113.144,23.0453,佛山市,南海气象局,,22,22,26,12,12,76,30,60,58,20,21,7,7,0.5,0.5
2023-07-19T19:00:00,1374A,113.2881,22.8094,佛山市,顺德苏岗,,16,6,12,7,9,77,50,63,63,8,21,6,6,0.6,0.7
2023-07-19T19:00:00,1376A,112.8383,22.8678,佛山市,高明孔堂,,24,20,28,6,11,125,74,99,97,10,21,4,4,0.5,0.7
2023-07-19T19:00:00,1377A,112.8836,23.1588,佛山市,三水监测站,,27,27,25,18,18,134,50,105,105,26,30,7,7,0.7,0.8
2023-07-19T19:00:00,1378A,112.867,23.185,佛山市,三水云东海,,40,40,28,9,16,137,53,109,109,26,22,3,4,0.4,0.5
2023-07-19T19:00:00,1379A,113.3769,22.5211,中山市,华柏园,,15,9,18,3,8,61,45,56,55,9,9,5,4,0.5,0.4
2023-07-19T19:00:00,1380A,113.3881,22.5497,中山市,张溪,,14,8,22,2,12,64,44,60,59,7,10,5,5,0.4,0.4
2023-07-19T19:00:00,1381A,113.4075,22.5111,中山市,紫马岭,,16,16,20,7,9,63,48,58,57,4,4,6,6,0.3,0.2
2023-07-19T19:00:00,1382A,113.4411,22.4853,中山市,长江旅游区,,17,1,18,3,7,66,52,62,61,3,4,9,9,0.3,0.3
2023-07-19T19:00:00,1383A,113.1064,22.6058,江门市,北街,,17,12,24,7,13,100,53,79,77,10,16,5,5,0.5,0.5
2023-07-19T19:00:00,1384A,113.0731,22.5835,江门市,西区,,24,24,21,15,13,98,51,80,79,13,16,5,5,0.6,0.5
2023-07-19T19:00:00,1385A,113.0219,22.5311,江门市,圭峰西,,18,12,19,6,11,96,56,77,76,8,11,3,3,0.6,0.6
2023-07-19T19:00:00,1386A,113.0828,22.5947,江门市,东湖,,19,18,25,13,15,104,58,87,86,10,12,6,6,0.5,0.5
2023-07-19T19:00:00,1389A,113.7547,23.0494,东莞市,莞城梨川,,20,17,17,8,9,117,64,97,95,13,16,9,9,0.7,0.7
2023-07-19T19:00:00,1390A,113.7944,23.0128,东莞市,东城石井,,18,18,19,8,9,110,56,90,88,14,15,7,7,0.5,0.6
2023-07-19T19:00:00,1391A,113.7383,22.9658,东莞市,南城西平,,16,16,18,7,10,99,46,70,70,16,21,7,7,0.7,0.7
2023-07-19T19:00:00,1392A,114.4183,23.0528,惠州市,河南岸金山湖子站,,22,22,16,6,6,53,37,47,45,8,8,4,3,0.6,0.6
2023-07-19T19:00:00,1393A,114.4053,23.0822,惠州市,下埔横江三路子站,,17,17,12,8,6,54,35,47,46,10,7,4,4,0.7,0.6
2023-07-19T19:00:00,1394A,114.4103,23.1142,惠州市,江北云山西路子站,,15,15,15,9,7,55,38,49,48,5,4,3,4,0.5,0.5
2023-07-19T19:00:00,1395A,114.4645,22.7833,惠州市,惠阳区承修路船湖子站,,,,,,,,,,,,,,,,
2023-07-19T19:00:00,1396A,114.5317,22.7422,惠州市,大亚湾管委会子站,,35,35,19,8,9,52,33,44,43,22,14,3,3,0.5,0.5
2023-07-19T19:00:00,1397A,112.4267,23.0706,肇庆市,睦岗子站,,22,22,27,11,17,122,45,93,93,28,22,6,7,0.7,0.6
2023-07-19T19:00:00,1398A,112.4645,23.0475,肇庆市,城中子站,,21,15,25,10,16,120,44,92,91,42,25,9,11,0.7,0.6
2023-07-19T19:00:00,1399A,112.5544,23.1522,肇庆市,坑口子站,,21,21,27,12,18,168,58,110,110,23,29,5,7,0.4,0.5
2023-07-19T19:00:00,1400A,112.4753,23.1,肇庆市,七星岩子站,,25,14,28,8,16,144,80,104,104,15,21,9,9,0.5,0.5
2023-07-19T19:00:00,1401A,108.3103,22.7881,南宁市,二十一中,,26,26,18,8,8,88,78,81,81,6,5,4,4,0.7,0.7
2023-07-19T19:00:00,1402A,108.3141,22.8528,南宁市,北湖,,22,21,18,15,11,86,68,76,76,9,6,5,6,0.8,0.8
2023-07-19T19:00:00,1403A,108.3206,22.8225,南宁市,市监测站,,22,14,17,14,11,81,70,76,74,12,10,5,5,0.6,0.6
2023-07-19T19:00:00,1404A,108.3829,22.8037,南宁市,大自然花园,,21,18,15,11,11,74,67,70,70,7,6,5,5,0.7,0.7
2023-07-19T19:00:00,1405A,108.4394,22.7904,南宁市,仙葫,,,,14,12,8,76,66,69,69,8,8,5,5,0.6,0.7
2023-07-19T19:00:00,1406A,108.2397,22.8467,南宁市,区农职院,,27,27,19,13,9,107,79,87,87,14,12,7,6,0.6,0.5
2023-07-19T19:00:00,1407A,108.3275,22.735,南宁市,英华嘉园,,22,22,16,12,8,76,70,70,70,9,8,5,5,0.6,0.6
2023-07-19T19:00:00,1408A,108.2257,22.7757,南宁市,沙井镇街道办,,25,23,17,10,12,88,78,76,76,22,17,4,4,0.7,0.7
2023-07-19T19:00:00,1409A,110.576,19.9507,海口市,东寨港,,,,,,,,,,,,,,,,
2023-07-19T19:00:00,1410A,110.3232,20.0574,海口市,海南大学,,14,14,21,9,8,64,29,39,34,5,7,5,5,0.4,0.4
2023-07-19T19:00:00,1411A,110.283,20.0053,海口市,秀英海南医院,,,17,20,11,9,64,30,54,50,,13,5,5,0.4,0.4
2023-07-19T19:00:00,1412A,110.338,19.9969,海口市,海南师范大学,,18,17,21,12,9,61,36,52,51,8,6,6,6,0.5,0.3
2023-07-19T19:00:00,1413A,110.33,20.0356,海口市,龙华路环保局宿舍,,22,16,20,15,9,63,37,55,53,11,8,6,6,0.4,0.4
2023-07-19T19:00:00,1414A,106.3787,29.8279,重庆市,缙云山,,23,9,23,15,12,134,71,88,71,10,17,8,9,0.3,0.4
2023-07-19T19:00:00,1416A,106.4213,29.8253,重庆市,天生,,30,22,39,21,26,108,49,46,46,14,28,5,7,0.8,0.9
2023-07-19T19:00:00,1417A,106.6263,29.7228,重庆市,两路,,26,22,26,18,20,92,41,69,49,41,41,8,8,1.3,1
2023-07-19T19:00:00,1418A,106.2953,29.5983,重庆市,虎溪,,23,21,36,9,26,96,73,58,58,16,32,4,7,0.6,0.5
2023-07-19T19:00:00,1419A,106.5777,29.5102,重庆市,南坪,,23,23,37,12,22,109,51,60,48,22,32,6,7,0.5,0.5
2023-07-19T19:00:00,1420A,106.6556,29.6277,重庆市,唐家沱,,,14,34,,23,93,63,67,67,,37,8,6,,0.7
2023-07-19T19:00:00,1421A,106.6349,29.4906,重庆市,茶园,,22,8,35,6,12,123,69,75,75,25,37,4,5,0.7,0.8
2023-07-19T19:00:00,1422A,106.3754,29.4572,重庆市,白市驿,,26,10,21,18,16,104,55,79,52,14,19,5,7,0.7,0.7
2023-07-19T19:00:00,1425A,106.6205,29.7166,重庆市,空港,,31,31,33,13,18,109,55,79,68,28,31,8,9,1.0,0.7
2023-07-19T19:00:00,1426A,106.4782,29.4875,重庆市,新山村,,24,24,32,16,19,102,48,72,50,29,28,5,6,0.5,0.5
2023-07-19T19:00:00,1427A,106.5616,29.6453,重庆市,礼嘉,,31,31,40,15,21,84,46,62,60,42,45,9,7,1.1,0.9
2023-07-19T19:00:00,1428A,106.4522,29.7091,重庆市,蔡家,,24,23,43,13,22,108,75,71,71,15,33,3,5,0.7,0.7
2023-07-19T19:00:00,1429A,106.5093,29.3917,重庆市,鱼新街,,22,13,28,15,19,91,57,68,50,18,26,4,5,0.9,1
2023-07-19T19:00:00,1431A,103.9728,30.7236,成都市,金泉两河,臭氧1小时,63,57,37,36,23,229,170,187,187,18,17,4,3,0.5,0.5
2023-07-19T19:00:00,1432A,104.176,30.6872,成都市,十里店,,49,35,36,8,21,184,156,169,169,7,17,4,3,0.5,0.6
2023-07-19T19:00:00,1433A,104.079,30.5706,成都市,三瓦窑,,49,20,46,8,24,187,156,166,166,13,34,3,2,0.5,0.5
2023-07-19T19:00:00,1434A,104.1114,30.63,成都市,沙河铺,,47,31,37,12,23,191,148,166,166,5,17,2,2,0.6,0.6
2023-07-19T19:00:00,1437A,104.0786,30.6531,成都市,君平街,臭氧1小时,59,45,41,40,32,224,167,191,191,10,22,4,2,0.6,0.6
2023-07-19T19:00:00,1438A,103.613,31.0283,成都市,灵岩寺,臭氧1小时,84,35,32,26,22,194,187,175,175,3,6,3,13,0.5,0.5
2023-07-19T19:00:00,1439A,106.6899,26.5998,贵阳市,马鞍山,,,9,6,0,0,76,41,64,62,11,8,,5,0.6,0.6
2023-07-19T19:00:00,1440A,106.6971,26.5694,贵阳市,市环保站,,23,7,3,13,5,79,35,72,63,45,16,4,3,0.4,0.3
2023-07-19T19:00:00,1441A,106.6243,26.6266,贵阳市,鉴湖路,,21,9,8,5,5,87,65,72,72,13,9,4,3,0.7,0.6
2023-07-19T19:00:00,1442A,106.7487,26.6343,贵阳市,燕子冲,,19,7,4,9,8,78,59,70,70,13,8,5,5,0.6,0.7
2023-07-19T19:00:00,1443A,106.6555,26.4365,贵阳市,碧云窝,,21,12,11,2,2,82,66,70,70,7,10,4,5,0.5,0.6
2023-07-19T19:00:00,1444A,106.694,26.5161,贵阳市,中院村,,16,14,14,7,3,69,51,58,58,15,12,4,4,0.5,0.5
2023-07-19T19:00:00,1445A,106.7109,26.6027,贵阳市,红边门,,18,17,11,12,7,81,40,66,58,31,12,4,4,0.8,0.5
2023-07-19T19:00:00,1446A,106.7164,26.5699,贵阳市,新华路,,16,12,6,5,5,82,46,70,67,31,10,2,3,0.8,0.6
2023-07-19T19:00:00,1447A,106.674,26.5424,贵阳市,太慈桥,,14,14,11,2,0,60,39,49,49,16,11,3,4,0.5,0.4
2023-07-19T19:00:00,1450A,102.8204,24.8886,昆明市,呈贡新区,,26,26,22,13,16,110,69,107,78,20,14,5,7,0.8,0.7
2023-07-19T19:00:00,1451A,102.6251,24.9608,昆明市,西山森林公园,,29,10,16,2,9,148,92,133,97,8,8,6,7,0.6,0.5
2023-07-19T19:00:00,1452A,102.7252,25.0902,昆明市,龙泉镇,,20,8,18,9,13,117,62,110,72,12,11,7,8,0.5,0.4
2023-07-19T19:00:00,1453A,102.7266,25.0375,昆明市,东风东路,,24,9,19,6,10,121,74,110,79,14,13,3,4,0.5,0.4
2023-07-19T19:00:00,1454A,102.6742,25.0669,昆明市,金鼎山,,24,17,22,12,12,126,74,116,82,12,10,18,11,0.6,0.5
2023-07-19T19:00:00,1455A,102.6644,25.0401,昆明市,碧鸡广场,,,,23,,10,126,77,117,87,14,11,,9,0.5,0.4
2023-07-19T19:00:00,1456A,91.1319,29.6514,拉萨市,八廓街,,34,14,14,7,10,118,108,112,111,8,8,6,6,0.1,0.2
2023-07-19T19:00:00,1457A,91.1221,29.6747,拉萨市,市环保局,,29,12,8,6,7,110,91,101,101,16,13,5,5,0.3,0.2
2023-07-19T19:00:00,1458A,91.0874,29.6475,拉萨市,区监测站,,,7,7,5,5,110,105,103,103,14,14,,7,0.4,0.3
2023-07-19T19:00:00,1459A,91.1774,29.6541,拉萨市,西藏大学,,33,3,7,5,8,116,104,106,106,7,10,9,9,0.1,0.1
2023-07-19T19:00:00,1460A,90.9798,29.6588,拉萨市,区辐射站,,29,7,9,5,6,114,92,103,103,8,12,10,9,0.2,0.2
2023-07-19T19:00:00,1461A,91.0834,29.6292,拉萨市,拉萨火车站,,32,12,11,5,6,106,101,98,98,12,13,9,9,0.4,0.4
2023-07-19T19:00:00,1462A,108.882,34.2749,西安市,高压开关厂,臭氧1小时,69,51,46,30,23,193,175,184,184,22,25,9,8,0.6,0.5
2023-07-19T19:00:00,1463A,108.993,34.2629,西安市,兴庆小区,臭氧1小时,64,40,40,21,19,188,171,181,181,11,12,6,7,1.1,0.7
2023-07-19T19:00:00,1464A,109.06,34.2572,西安市,纺织城,臭氧1小时,53,50,40,22,22,192,162,182,182,16,18,4,5,0.5,0.5
2023-07-19T19:00:00,1465A,108.9356,34.2173,西安市,小寨,臭氧1小时,57,49,42,26,20,192,165,185,185,14,12,7,7,0.5,0.5
2023-07-19T19:00:00,1466A,108.954,34.2713,西安市,市人民体育场,臭氧1小时,64,60,45,28,23,194,171,184,184,20,19,8,7,0.5,0.5
2023-07-19T19:00:00,1467A,108.8922,34.2322,西安市,高新西区,臭氧1小时,88,44,38,26,23,211,190,201,201,16,16,8,7,0.6,0.6
2023-07-19T19:00:00,1468A,108.935,34.3474,西安市,经开区,臭氧1小时,74,45,48,24,26,183,179,178,178,10,17,4,4,0.4,0.4
2023-07-19T19:00:00,1469A,108.906,34.1546,西安市,长安区,臭氧1小时,83,40,53,30,24,214,186,203,203,15,25,4,4,0.3,0.4
2023-07-19T19:00:00,1471A,109.2186,34.3731,西安市,临潼区,臭氧1小时,74,43,52,26,26,180,179,173,173,19,21,7,8,0.6,0.6
2023-07-19T19:00:00,1472A,108.869,34.378,西安市,草滩,臭氧1小时,85,44,45,15,18,191,188,182,182,18,24,8,10,0.6,0.5
2023-07-19T19:00:00,1473A,108.985,34.1978,西安市,曲江文化产业集团,臭氧1小时,63,47,43,23,21,200,170,190,190,17,15,5,5,0.5,0.4
2023-07-19T19:00:00,1474A,109.051,34.3213,西安市,广运潭,臭氧1小时,63,48,49,24,25,180,170,174,174,16,26,8,9,0.5,0.5
2023-07-19T19:00:00,1476A,103.631,36.1031,兰州市,兰炼宾馆,颗粒物(PM10),55,59,45,36,24,215,124,174,174,30,24,5,6,0.5,0.4
2023-07-19T19:00:00,1477A,104.1373,35.9454,兰州市,榆中兰大校区,,,,,,,,,,,,,,,,
2023-07-19T19:00:00,1478A,103.8412,36.0726,兰州市,生物制品所,,46,46,41,22,21,195,134,169,169,28,22,7,8,0.6,0.6
2023-07-19T19:00:00,1479A,103.831,36.0464,兰州市,铁路设计院,,47,47,34,26,16,185,125,156,156,41,27,5,7,0.4,0.3
2023-07-19T19:00:00,1483A,101.524,36.6867,西宁市,第五水厂,,,,,,,,,,,,,,,,
2023-07-19T19:00:00,1484A,105.9512,38.6016,银川市,贺兰山马莲口,臭氧1小时,88,14,21,18,14,219,190,183,183,9,10,5,6,0.5,0.6
2023-07-19T19:00:00,1488A,106.2328,38.4975,银川市,贺兰山东路,臭氧1小时,94,62,41,26,23,222,195,190,190,18,17,8,12,0.5,0.4
2023-07-19T19:00:00,1489A,106.1358,38.5036,银川市,学院路,臭氧1小时,89,38,43,9,16,214,191,180,180,14,19,9,11,0.5,0.5
2023-07-19T19:00:00,1490A,87.5801,43.8303,乌鲁木齐市,监测站,,40,29,44,26,15,146,128,129,129,11,24,4,4,0.4,0.4
2023-07-19T19:00:00,1491A,87.6046,43.768,乌鲁木齐市,收费所,,41,32,36,12,12,150,129,133,133,17,25,10,9,0.3,0.2
2023-07-19T19:00:00,1492A,87.4754,43.9469,乌鲁木齐市,新疆农科院农场,颗粒物(PM10),52,54,80,28,45,132,131,122,122,11,46,14,14,0.3,0.3
2023-07-19T19:00:00,1493A,87.5525,43.8711,乌鲁木齐市,铁路局,,41,27,40,20,13,148,131,132,132,13,28,2,4,0.2,0.4
2023-07-19T19:00:00,1494A,87.6432,43.831,乌鲁木齐市,三十一中学,,40,10,34,28,11,140,126,123,123,26,30,2,3,0.3,0.4
2023-07-19T19:00:00,1496A,87.7216,44.1747,乌鲁木齐市,米东区环保局,,39,24,54,14,18,130,123,120,120,2,24,5,6,0.3,0.4
2023-07-19T19:00:00,1508A,112.9433,27.8614,湘潭市,板塘,,37,37,19,14,9,130,30,85,82,22,16,11,8,0.7,0.7
2023-07-19T19:00:00,1511A,112.9118,27.8403,湘潭市,市监测站,,28,24,15,19,11,130,49,86,84,22,13,4,3,0.7,0.6
2023-07-19T19:00:00,1512A,112.8937,27.8728,湘潭市,江麓,,48,48,23,12,10,144,32,92,90,33,16,24,8,1.0,0.2
2023-07-19T19:00:00,1513A,112.9227,27.8159,湘潭市,岳塘,,,16,21,9,10,109,44,81,77,19,15,,2,0.8,0.6
2023-07-19T19:00:00,1514A,112.9074,27.9119,湘潭市,科大,,36,36,22,16,10,153,35,105,100,31,13,20,8,0.7,0.8
2023-07-19T19:00:00,1515A,113.135,27.8244,株洲市,天台山庄,,24,24,14,13,10,91,59,76,75,10,7,5,5,0.6,0.5
2023-07-19T19:00:00,1518A,113.095,27.8867,株洲市,株冶医院,,22,22,17,13,11,109,48,83,82,24,15,4,3,0.4,0.4
2023-07-19T19:00:00,1519A,113.167,27.8667,株洲市,市四中,,20,20,15,11,8,82,52,68,68,8,8,3,5,0.4,0.6
2023-07-19T19:00:00,1520A,113.143,27.8381,株洲市,火车站,,21,21,15,11,7,88,54,76,75,8,7,5,5,0.6,0.5
2023-07-19T19:00:00,1524A,113.13,27.8528,株洲市,市监测站,,24,24,16,3,7,95,63,82,82,12,11,5,5,0.6,0.5
2023-07-19T19:00:00,1552A,106.805,26.3003,贵阳市,桐木岭,,22,22,17,9,9,113,65,73,73,1,2,2,2,0.5,0.4
2023-07-19T19:00:00,1559A,113.251,27.8336,株洲市,大京风景区,,13,6,14,9,7,72,32,55,52,6,4,4,4,0.3,0.4
2023-07-19T19:00:00,1562A,113.0048,27.9153,湘潭市,昭山,,19,19,16,10,9,136,32,93,87,28,17,3,3,0.5,0.5
2023-07-19T19:00:00,1564A,112.4876,27.9164,湘潭市,韶山,,24,22,19,11,8,101,74,86,86,6,6,6,6,0.3,0.4
2023-07-19T19:00:00,1585A,109.8756,40.6532,包头市,市环境监测站,臭氧1小时,111,51,41,22,22,239,222,215,215,21,25,12,12,0.6,0.6
2023-07-19T19:00:00,1587A,109.9991,40.5842,包头市,包头八中,臭氧1小时,123,60,53,24,26,261,245,242,242,19,24,12,15,0.6,0.7
2023-07-19T19:00:00,1588A,109.8538,40.6821,包头市,青山宾馆,臭氧1小时,114,44,37,25,24,235,228,209,209,19,24,9,10,0.6,0.7
2023-07-19T19:00:00,1589A,109.8642,40.6288,包头市,惠龙物流,臭氧1小时,118,45,41,24,24,247,235,219,219,16,20,10,11,0.5,0.4
2023-07-19T19:00:00,1590A,110.0377,40.5546,包头市,东河鸿龙湾,臭氧1小时,107,54,50,24,21,241,214,222,222,17,20,10,13,0.5,0.5
2023-07-19T19:00:00,1591A,110.0023,39.8129,鄂尔多斯市,综合楼,臭氧1小时,65,61,59,19,23,198,172,182,182,27,22,7,8,0.7,0.7
2023-07-19T19:00:00,1592A,109.9486,39.8261,鄂尔多斯市,巴音孟克林场办事处,臭氧1小时,90,61,48,27,24,204,192,196,196,15,16,9,9,0.5,0.5
2023-07-19T19:00:00,1593A,109.7736,39.5986,鄂尔多斯市,康泽苑,臭氧1小时,67,36,43,12,15,185,173,180,180,14,15,9,10,0.6,0.6
2023-07-19T19:00:00,1594A,109.8119,39.5989,鄂尔多斯市,华泰汽车城,,50,44,42,22,21,179,158,173,172,12,17,7,9,0.5,0.6
2023-07-19T19:00:00,1595A,109.9734,39.7884,鄂尔多斯市,奥林花园,臭氧1小时,68,56,64,19,26,192,174,181,181,12,25,7,8,0.7,0.8
2023-07-19T19:00:00,1597A,122.2703,40.7094,营口市,大庆路,臭氧1小时,115,60,41,51,30,229,229,198,198,13,16,8,6,1.0,0.8
2023-07-19T19:00:00,1598A,122.2150,40.6511,营口市,镜湖西路,臭氧1小时,113,57,36,53,27,229,226,198,198,11,12,6,6,0.8,0.6
2023-07-19T19:00:00,1599A,122.1658,40.6789,营口市,西炮台,臭氧1小时,112,48,33,34,19,223,223,190,190,10,12,8,8,0.9,0.6
2023-07-19T19:00:00,1600A,124.3303,40.0625,丹东市,江湾东路,,40,35,35,23,26,167,128,147,147,14,15,12,4,0.7,0.8
2023-07-19T19:00:00,1601A,124.4256,40.1503,丹东市,临江后街,,41,33,34,20,22,170,131,145,145,9,11,5,5,0.8,0.8
2023-07-19T19:00:00,1602A,124.3933,40.1461,丹东市,元宝山,,38,38,39,22,22,157,116,138,138,18,16,7,7,0.9,0.7
2023-07-19T19:00:00,1603A,124.3633,40.1092,丹东市,民主桥,,39,31,32,18,20,161,124,140,140,12,15,5,5,0.7,0.7
2023-07-19T19:00:00,1604A,122.0303,41.1489,盘锦市,开发区,臭氧1小时,110,64,41,34,24,229,220,186,186,21,18,4,4,1.0,0.9
2023-07-19T19:00:00,1605A,122.0485,41.0883,盘锦市,兴隆台,臭氧1小时,108,65,40,40,24,222,215,182,182,21,18,4,4,0.9,0.8
2023-07-19T19:00:00,1606A,121.8297,41.1028,盘锦市,新生街道,臭氧1小时,121,65,38,33,21,262,242,220,220,15,13,6,6,0.8,0.7
2023-07-19T19:00:00,1607A,120.9092,40.7136,葫芦岛市,龙港区,臭氧1小时,121,60,54,43,35,260,242,236,236,7,18,3,4,0.7,0.7
2023-07-19T19:00:00,1608A,120.8392,40.7514,葫芦岛市,化工街,臭氧1小时,111,80,70,46,35,248,221,237,237,15,25,8,8,0.8,0.6
2023-07-19T19:00:00,1609A,120.8341,40.7073,葫芦岛市,新区,臭氧1小时,107,77,59,42,39,226,213,208,208,15,27,7,6,0.9,0.9
2023-07-19T19:00:00,1610A,120.8695,40.7677,葫芦岛市,东城区,臭氧1小时,117,70,63,39,34,264,233,248,248,20,38,6,7,0.9,0.8
2023-07-19T19:00:00,1611A,118.5819,24.9117,泉州市,涂山街,,24,24,26,7,9,76,50,63,62,10,13,9,9,0.7,0.7
2023-07-19T19:00:00,1612A,118.5972,24.8978,泉州市,津头埔,,25,25,24,11,13,81,47,70,68,19,17,8,8,0.5,0.5
2023-07-19T19:00:00,1613A,118.6663,24.9424,泉州市,万安,,22,22,26,14,13,114,49,76,74,26,15,8,8,0.7,0.6
2023-07-19T19:00:00,1614A,118.6117,24.9604,泉州市,清源山,,,,,,,,,,,,,,,,
2023-07-19T19:00:00,1616A,117.6795,36.229,济南市,技术学院,,50,31,49,16,23,190,158,169,169,16,26,7,9,0.9,1
2023-07-19T19:00:00,1618A,118.3429,35.0532,临沂市,沂河小区,,48,48,37,28,21,169,114,151,148,16,14,4,5,0.2,0.3
2023-07-19T19:00:00,1619A,118.295,35.0583,临沂市,鲁南制药厂,,48,36,31,21,17,192,151,168,168,11,10,4,3,0.8,0.9
2023-07-19T19:00:00,1620A,118.2794,34.9976,临沂市,新光毛纺厂,,39,31,30,16,16,169,123,146,144,9,14,5,7,0.3,0.3
2023-07-19T19:00:00,1621A,118.3956,35.0888,临沂市,河东保险公司,,33,29,29,22,16,163,104,136,134,12,12,2,3,0.4,0.4
2023-07-19T19:00:00,1622A,116.3032,37.4674,德州市,儿童乐园,臭氧1小时,111,46,62,24,38,224,222,220,220,9,17,8,11,0.5,0.5
2023-07-19T19:00:00,1624A,116.2991,37.4451,德州市,监理站,臭氧1小时,106,42,63,27,39,215,212,209,209,12,22,7,10,0.4,0.5
2023-07-19T19:00:00,1625A,115.9848,36.4372,聊城市,区政府,,43,30,46,16,28,213,136,155,152,14,20,8,10,0.6,0.7
2023-07-19T19:00:00,1628A,118.0062,37.3803,滨州市,市环保局,臭氧1小时,106,50,56,30,35,218,212,212,212,8,22,4,9,0.4,0.6
2023-07-19T19:00:00,1629A,118.0018,37.3617,滨州市,第二水厂,臭氧1小时,99,51,55,27,32,220,199,212,212,13,26,3,6,0.5,0.6
2023-07-19T19:00:00,1630A,117.9776,37.393,滨州市,北中新校,臭氧1小时,90,42,58,27,32,213,192,208,208,9,16,4,8,0.4,0.6
2023-07-19T19:00:00,1631A,118.0414,36.8103,淄博市,人民公园,臭氧1小时,103,51,53,29,26,268,206,239,239,19,26,12,14,0.6,0.6
2023-07-19T19:00:00,1633A,117.8525,36.4847,淄博市,双山,,44,30,39,16,21,179,140,160,159,12,19,11,8,0.8,0.5
2023-07-19T19:00:00,1634A,117.9592,36.6331,淄博市,气象站,,42,40,43,22,23,183,134,171,166,11,15,5,8,0.2,0.4
2023-07-19T19:00:00,1635A,118.3092,36.8194,淄博市,莆田园,臭氧1小时,73,36,51,22,27,236,178,222,219,12,18,7,12,0.5,0.4
2023-07-19T19:00:00,1637A,117.558,34.8438,枣庄市,市中区政府,,39,39,42,24,19,155,110,140,140,24,23,16,15,0.4,0.4
2023-07-19T19:00:00,1638A,117.2852,34.7837,枣庄市,薛城环保局,,,42,39,14,13,143,64,110,108,,22,,10,0.6,0.4
2023-07-19T19:00:00,1639A,117.5852,34.7745,枣庄市,峄城区政府,,36,36,37,19,13,147,100,130,130,14,16,8,10,0.5,0.5
2023-07-19T19:00:00,1640A,117.7276,34.5578,枣庄市,台儿庄区环保局,,31,29,25,19,14,141,98,113,113,14,23,8,9,0.4,0.5
2023-07-19T19:00:00,1641A,117.4518,35.0992,枣庄市,山亭区环保局,,46,46,32,22,20,180,146,143,143,13,12,6,7,0.2,0.2
2023-07-19T19:00:00,1642A,121.2514,37.5639,烟台市,开发区,臭氧1小时,101,39,41,22,20,217,201,203,203,9,22,7,8,0.8,0.7
2023-07-19T19:00:00,1643A,121.3719,37.5433,烟台市,轴承厂,臭氧1小时,93,48,40,26,20,203,194,198,198,11,15,5,4,0.4,0.4
2023-07-19T19:00:00,1644A,121.3181,37.5436,烟台市,西郊化工站,臭氧1小时,90,48,49,28,22,217,192,201,201,17,22,6,5,0.4,0.4
2023-07-19T19:00:00,1645A,121.4478,37.4822,烟台市,莱山环保局,臭氧1小时,72,31,27,24,16,211,177,195,195,6,12,4,5,0.6,0.5
2023-07-19T19:00:00,1646A,121.2611,37.4967,烟台市,福山环保局,臭氧1小时,64,58,50,24,15,201,171,182,182,28,28,10,8,0.8,0.7
2023-07-19T19:00:00,1650A,119.1437,36.7023,潍坊市,环保局,臭氧1小时,84,41,43,27,27,206,187,197,197,13,14,8,9,0.6,0.6
2023-07-19T19:00:00,1653A,116.6251,35.4302,济宁市,火炬城,,34,34,35,17,17,155,108,113,113,6,9,5,6,0.6,0.6
2023-07-19T19:00:00,1655A,116.5491,35.4042,济宁市,电化厂,,,29,35,19,20,120,106,113,113,4,9,,5,0.6,0.5
2023-07-19T19:00:00,1656A,117.1437,36.1937,泰安市,监测站,,48,41,42,11,18,172,153,148,148,9,13,7,8,0.2,0.2
2023-07-19T19:00:00,1657A,117.0885,36.2017,泰安市,人口学校,,43,29,33,16,17,174,136,145,145,11,13,7,8,0.4,0.4
2023-07-19T19:00:00,1658A,117.1089,36.1758,泰安市,电力学校,,42,36,43,17,22,177,133,149,148,6,13,8,9,0.4,0.4
2023-07-19T19:00:00,1659A,119.471,35.4209,日照市,监测站,,41,41,29,16,17,129,59,109,107,78,41,18,7,1.0,0.6
2023-07-19T19:00:00,1660A,119.523,35.4216,日照市,市政府广场,,29,29,27,15,15,109,89,101,101,24,16,9,8,0.4,0.3
2023-07-19T19:00:00,1661A,119.5587,35.4044,日照市,港务局,,27,19,25,7,12,120,85,104,103,20,16,8,7,0.5,0.5
2023-07-19T19:00:00,1662A,122.1214,37.4236,威海市,华夏技校,颗粒物(PM10),51,51,27,29,20,168,128,158,155,41,16,10,7,0.6,0.4
2023-07-19T19:00:00,1663A,122.0508,37.5236,威海市,山大分校,,47,42,29,20,16,195,150,177,176,25,10,5,6,0.5,0.4
2023-07-19T19:00:00,1664A,122.1067,37.5072,威海市,市监测站,,45,34,32,29,26,178,144,155,155,38,20,9,8,0.6,0.5
2023-07-19T19:00:00,1666A,118.6614,37.4309,东营市,市环保局,臭氧1小时,108,58,50,39,31,238,215,228,228,9,14,13,13,0.3,0.3
2023-07-19T19:00:00,1669A,113.5824,24.7733,韶关市,市八中,,29,29,16,2,3,76,63,59,59,10,6,9,12,0.5,0.5
2023-07-19T19:00:00,1671A,113.5917,24.7972,韶关市,园林处,,,13,14,14,9,72,51,58,57,,4,,14,0.6,0.5
2023-07-19T19:00:00,1672A,113.6735,24.7791,韶关市,韶关学院,,19,19,15,4,7,49,28,41,40,8,6,16,9,0.5,0.4
2023-07-19T19:00:00,1673A,113.5971,24.6863,韶关市,曲江监测站,,26,26,22,12,9,76,30,50,50,10,9,24,14,0.8,0.8
2023-07-19T19:00:00,1674A,116.6794,23.3667,汕头市,金平子站,,19,10,16,13,18,59,46,52,52,14,8,5,4,0.7,0.7
2023-07-19T19:00:00,1675A,116.7244,23.3633,汕头市,龙湖子站,,,,16,,6,70,47,61,61,,8,,4,0.7,0.7
2023-07-19T19:00:00,1676A,116.7258,23.2775,汕头市,濠江子站,,29,23,16,20,6,60,47,54,54,13,7,8,8,0.6,0.5
2023-07-19T19:00:00,1677A,116.7519,23.4714,汕头市,澄海子站,,26,26,16,13,16,62,52,56,56,13,9,4,3,0.8,0.6
2023-07-19T19:00:00,1678A,116.6092,23.2539,汕头市,潮阳子站,,32,32,17,8,5,68,55,58,58,6,6,9,9,0.5,0.5
2023-07-19T19:00:00,1680A,110.3539,21.2706,湛江市,湛江影剧院,,35,25,22,24,15,81,52,58,58,4,4,5,5,0.7,0.6
2023-07-19T19:00:00,1681A,110.3928,21.2228,湛江市,市环境监测站,,23,23,18,11,8,79,53,59,58,4,5,6,6,0.5,0.5
2023-07-19T19:00:00,1682A,110.4019,21.1997,湛江市,环保局宿舍,,20,20,21,6,9,78,53,58,57,3,5,2,2,0.5,0.5
2023-07-19T19:00:00,1683A,110.4111,21.2028,湛江市,霞山游泳场,,20,20,22,6,9,77,52,58,57,6,6,5,5,0.4,0.4
2023-07-19T19:00:00,1684A,110.3316,21.2679,湛江市,麻章区环保局,,18,17,19,12,18,86,49,57,56,5,5,4,4,0.5,0.6
2023-07-19T19:00:00,1685A,110.4558,21.2567,湛江市,坡头区环保局,,19,17,17,5,10,76,58,60,59,4,4,4,5,0.4,0.4
2023-07-19T19:00:00,1686A,111.0286,21.4688,茂名市,电白南海,,,24,27,9,12,76,64,68,68,4,4,4,3,,0.6
2023-07-19T19:00:00,1687A,110.9294,21.6533,茂名市,茂石化七小,,22,22,23,14,11,60,50,55,55,5,4,4,5,0.6,0.6
2023-07-19T19:00:00,1688A,110.9107,21.6687,茂名市,健康路,,16,14,15,9,5,58,49,55,55,6,4,4,4,0.5,0.5
2023-07-19T19:00:00,1689A,110.8592,21.6828,茂名市,高岭,,27,27,22,17,16,62,53,58,58,4,6,6,7,0.6,0.7
2023-07-19T19:00:00,1690A,116.1231,24.3284,梅州市,梅江月梅,,17,17,11,11,8,48,37,42,42,14,8,2,1,0.5,0.4
2023-07-19T19:00:00,1691A,116.0797,24.2719,梅州市,梅县新城,,14,12,9,3,4,62,42,49,49,8,8,4,4,0.6,0.5
2023-07-19T19:00:00,1692A,116.1248,24.2654,梅州市,环境监控中心,,21,21,12,14,4,50,37,45,45,11,9,3,2,0.6,0.5
2023-07-19T19:00:00,1693A,115.3653,22.775,汕尾市,市环保局,,,27,15,10,7,46,38,44,39,6,5,,7,0.6,0.5
2023-07-19T19:00:00,1694A,115.3706,22.7898,汕尾市,市政府,,20,20,12,10,5,49,42,46,43,6,5,4,4,0.7,0.6
2023-07-19T19:00:00,1695A,115.3622,22.7925,汕尾市,新城中学,,29,29,13,9,7,44,35,41,36,4,3,6,6,0.5,0.5
2023-07-19T19:00:00,1696A,114.6778,23.7569,河源市,源西,,15,15,12,6,7,47,35,42,42,5,11,4,4,0.6,0.6
2023-07-19T19:00:00,1697A,114.6944,23.7586,河源市,东埔,,19,19,22,8,6,44,29,39,39,11,8,5,5,0.8,0.6
2023-07-19T19:00:00,1698A,114.6892,23.7233,河源市,老城,,15,15,19,4,5,46,33,40,40,4,5,4,4,0.6,0.6
2023-07-19T19:00:00,1699A,111.9797,21.8593,阳江市,鸳鸯湖,,21,21,23,4,10,57,50,53,53,2,5,4,4,0.6,0.6
2023-07-19T19:00:00,1701A,111.9491,21.8658,阳江市,马南垌,,,,21,,11,55,42,50,49,,4,5,4,,0.3
2023-07-19T19:00:00,1702A,113.0426,23.691,清远市,环保大楼,,21,12,13,7,10,83,65,76,76,15,6,7,6,0.4,0.3
2023-07-19T19:00:00,1703A,113.0208,23.7106,清远市,凤城街办,,22,16,16,11,9,91,69,78,78,10,6,5,4,0.7,0.6
2023-07-19T19:00:00,1705A,116.6367,23.6719,潮州市,西园路,,25,24,16,17,9,61,42,44,44,6,7,4,4,0.4,0.3
2023-07-19T19:00:00,1706A,116.6447,23.6706,潮州市,档案局,,23,20,13,16,3,57,52,53,53,7,8,5,5,0.4,0.4
2023-07-19T19:00:00,1708A,116.3701,23.5345,揭阳市,新兴,,19,19,20,10,10,50,35,42,42,17,11,6,8,1.0,0.6
2023-07-19T19:00:00,1709A,116.3264,23.5443,揭阳市,西马,,25,25,14,12,9,38,28,33,32,20,9,5,6,1.1,0.7
2023-07-19T19:00:00,1710A,116.3611,23.5626,揭阳市,东兴,,17,17,20,8,7,46,26,40,39,24,13,1,5,1.0,0.8
2023-07-19T19:00:00,1711A,116.4151,23.5294,揭阳市,渔湖,,21,21,18,10,7,41,18,35,34,22,8,2,2,0.9,0.5
2023-07-19T19:00:00,1712A,112.0392,22.9169,云浮市,新市府,,18,18,29,12,17,69,32,60,57,3,9,4,4,0.8,0.8
2023-07-19T19:00:00,1714A,112.0539,22.9539,云浮市,牧羊,,15,12,31,10,15,87,46,68,66,8,15,6,9,0.4,0.5
2023-07-19T19:00:00,1715A,102.575,24.3711,玉溪市,东风水库,,24,11,17,6,9,128,75,105,80,10,9,4,5,0.8,0.7
2023-07-19T19:00:00,1718A,115.4208,35.2464,菏泽市,气象局,,40,40,41,14,20,165,99,114,113,8,11,2,6,0.3,0.4
2023-07-19T19:00:00,1719A,115.4747,35.2375,菏泽市,市政协,,,,36,12,21,172,99,114,113,8,11,4,6,0.1,0.2
2023-07-19T19:00:00,1721A,113.3819,40.1097,大同市,果树场,臭氧1小时,57,53,59,20,30,216,165,202,200,26,28,5,5,0.5,0.6
2023-07-19T19:00:00,1723A,113.2994,40.0758,大同市,云冈宾馆,臭氧1小时,80,49,64,30,30,239,184,226,223,26,27,7,10,0.6,0.7
2023-07-19T19:00:00,1724A,113.3444,40.0917,大同市,大同大学,臭氧1小时,79,33,59,24,29,225,183,210,210,13,23,12,13,0.6,0.8
2023-07-19T19:00:00,1725A,113.2661,40.1269,大同市,安家小村,臭氧1小时,94,45,66,21,25,230,195,215,215,14,18,8,12,0.4,0.7
2023-07-19T19:00:00,1726A,113.2711,40.0844,大同市,教育学院,臭氧1小时,79,45,68,21,30,224,183,212,212,23,32,8,12,0.6,0.7
2023-07-19T19:00:00,1727A,113.1147,36.1547,长治市,清华站,臭氧1小时,105,46,61,31,40,236,209,222,222,10,13,9,9,0.9,0.8
2023-07-19T19:00:00,1728A,113.1031,36.1989,长治市,监测站,臭氧1小时,109,47,57,36,38,240,217,222,222,17,18,12,12,1.0,1.1
2023-07-19T19:00:00,1730A,113.0886,36.2125,长治市,审计局,臭氧1小时,80,43,51,31,43,224,184,208,207,18,13,15,14,1.0,1.1
2023-07-19T19:00:00,1731A,113.0844,36.1856,长治市,长治八中,臭氧1小时,106,50,58,36,36,229,211,215,215,10,11,10,11,0.7,0.8
2023-07-19T19:00:00,1733A,111.5531,36.0783,临汾市,临钢医院,臭氧1小时,93,38,54,37,42,210,194,199,199,11,19,8,7,1.1,1.1
2023-07-19T19:00:00,1734A,111.5028,36.0714,临汾市,技工学校,臭氧1小时,98,47,62,30,32,222,198,212,212,10,20,4,4,0.9,1
2023-07-19T19:00:00,1736A,111.5018,36.0855,临汾市,市委,臭氧1小时,73,50,66,32,42,198,178,191,191,14,22,7,6,0.8,1
2023-07-19T19:00:00,1738A,113.5758,37.8572,阳泉市,市中心,臭氧1小时,104,38,53,36,28,216,207,208,208,15,37,12,14,0.8,0.9
2023-07-19T19:00:00,1739A,113.4894,37.8731,阳泉市,赛鱼,臭氧1小时,77,72,54,30,25,212,181,204,202,41,44,11,12,0.8,0.8
2023-07-19T19:00:00,1740A,113.5819,37.8486,阳泉市,南庄,臭氧1小时,105,79,70,32,28,219,210,210,210,13,29,10,14,0.8,0.8
2023-07-19T19:00:00,1742A,113.5614,37.8703,阳泉市,平坦,臭氧1小时,101,63,60,33,34,211,201,204,204,16,44,12,13,0.8,0.7
2023-07-19T19:00:00,1743A,113.5158,37.8392,阳泉市,大阳泉,臭氧1小时,105,44,50,39,37,215,209,211,211,11,14,12,14,0.7,0.7
2023-07-19T19:00:00,1744A,118.9233,42.2816,赤峰市,松山一中,,44,44,32,14,14,200,116,176,170,57,32,19,12,1.0,0.5
2023-07-19T19:00:00,1745A,118.9576,42.2728,赤峰市,哈达街,臭氧1小时,63,39,32,10,13,207,170,193,192,20,19,15,16,0.5,0.4
2023-07-19T19:00:00,1746A,118.8788,42.2554,赤峰市,天义路,,47,23,22,13,10,206,148,192,189,40,16,15,16,0.6,0.3
2023-07-19T19:00:00,1748A,123.044,41.1196,鞍山市,深沟寺,臭氧1小时,111,75,47,52,30,245,222,227,227,19,14,12,10,1.1,0.9
2023-07-19T19:00:00,1749A,123.011,41.0931,鞍山市,太阳城,臭氧1小时,108,71,47,45,27,243,216,224,224,21,15,10,10,1.3,1.1
2023-07-19T19:00:00,1750A,123.0485,41.1442,鞍山市,太平,臭氧1小时,108,90,57,51,32,242,215,224,224,27,19,10,10,1.4,1.1
2023-07-19T19:00:00,1751A,122.9642,41.0971,鞍山市,铁西三道街,臭氧1小时,110,94,66,57,35,249,220,231,231,28,23,11,10,1.6,1.4
2023-07-19T19:00:00,1752A,122.9341,41.0833,鞍山市,铁西工业园区,臭氧1小时,106,89,59,54,30,242,211,221,221,29,22,12,9,1.7,1.3
2023-07-19T19:00:00,1753A,123.022,41.0821,鞍山市,明达新区,臭氧1小时,109,67,45,48,28,246,217,224,224,20,16,6,7,1.0,0.9
2023-07-19T19:00:00,1754A,123.1289,41.0228,鞍山市,千山,,,,,,,,,,,,,,,,
2023-07-19T19:00:00,1755A,123.7977,41.8491,抚顺市,望花区,臭氧1小时,115,92,69,45,40,266,229,229,229,25,28,8,9,1.3,1
2023-07-19T19:00:00,1756A,123.9161,41.8822,抚顺市,顺城区,臭氧1小时,122,77,63,45,38,267,244,236,236,26,28,6,5,1.5,1.2
2023-07-19T19:00:00,1757A,124.0436,41.8611,抚顺市,东洲区,臭氧1小时,115,96,52,42,35,246,230,224,224,25,13,14,10,1.1,0.8
2023-07-19T19:00:00,1758A,123.9247,41.8642,抚顺市,新抚区,臭氧1小时,117,88,66,58,45,260,234,231,231,26,25,10,7,1.5,1.1
2023-07-19T19:00:00,1759A,124.0972,41.8961,抚顺市,大伙房水库,臭氧1小时,115,86,46,39,33,240,230,215,215,15,10,7,5,1.0,0.8
2023-07-19T19:00:00,1760A,123.7086,41.8391,抚顺市,沈抚新城,臭氧1小时,106,89,72,45,42,251,211,190,190,26,29,10,14,1.4,1.3
2023-07-19T19:00:00,1761A,123.8275,41.3064,本溪市,大峪,臭氧1小时,78,80,80,36,33,208,182,185,185,26,24,10,8,1.3,1.3
2023-07-19T19:00:00,1762A,123.7567,41.3325,本溪市,溪湖,臭氧1小时,72,51,66,33,36,198,177,186,186,8,23,5,8,0.8,1.5
2023-07-19T19:00:00,1763A,123.7169,41.3094,本溪市,彩屯,颗粒物(PM10),52,54,63,34,39,186,155,175,175,17,29,6,7,1.0,1.7
2023-07-19T19:00:00,1764A,123.7669,41.2864,本溪市,东明,颗粒物(PM10),73,95,67,43,38,188,165,176,176,51,34,12,10,2.4,1.5
2023-07-19T19:00:00,1765A,123.7992,41.2664,本溪市,新立屯,,,81,43,32,29,159,,151,148,45,27,7,8,1.0,1.1
2023-07-19T19:00:00,1766A,123.8142,41.3472,本溪市,威宁,颗粒物(PM10),58,65,74,35,42,191,151,172,172,20,24,7,7,0.7,1.1
2023-07-19T19:00:00,1767A,121.1115,41.0879,锦州市,南山,臭氧1小时,105,93,58,45,41,278,209,254,253,26,26,5,9,1.1,0.9
2023-07-19T19:00:00,1768A,121.0533,40.8434,锦州市,开发区,臭氧1小时,121,100,84,41,38,266,241,242,242,12,24,7,17,1.0,1.1
2023-07-19T19:00:00,1769A,121.1836,41.1119,锦州市,百股街道,臭氧1小时,112,89,57,44,37,283,224,258,258,18,25,6,8,0.9,0.8
2023-07-19T19:00:00,1770A,121.1178,41.1222,锦州市,天安街道,臭氧1小时,102,100,71,35,36,280,204,247,246,27,29,6,10,1.2,1.1
2023-07-19T19:00:00,1771A,121.1303,41.1386,锦州市,北湖公园,臭氧1小时,111,71,73,40,36,285,222,254,250,25,24,5,7,1.1,1
2023-07-19T19:00:00,1772A,126.54,43.8622,吉林市,哈达湾,,37,22,32,11,20,138,117,119,119,12,16,5,5,0.7,0.6
2023-07-19T19:00:00,1773A,126.5844,43.8358,吉林市,东局子,,30,21,32,13,18,133,94,118,114,32,19,5,5,0.8,0.8
2023-07-19T19:00:00,1774A,126.5052,43.8245,吉林市,电力学院,,40,18,30,12,15,128,128,111,111,10,18,6,6,0.6,0.6
2023-07-19T19:00:00,1775A,126.6133,43.8972,吉林市,江北,,35,28,36,15,17,139,111,121,117,15,13,6,6,0.7,0.8
2023-07-19T19:00:00,1776A,126.555,43.8306,吉林市,江南公园,,37,20,29,13,20,132,116,117,117,16,17,4,5,0.7,0.8
2023-07-19T19:00:00,1778A,126.7061,43.7133,吉林市,丰满,,,,,,,,,,,,,,,,
2023-07-19T19:00:00,1779A,123.9305,47.3636,齐齐哈尔市,安居小区,颗粒物(PM10),52,54,33,16,9,120,102,112,112,23,15,5,5,0.6,0.5
2023-07-19T19:00:00,1780A,123.9488,47.3386,齐齐哈尔市,中心广场,,34,34,22,11,5,125,105,113,113,22,13,4,4,0.4,0.3
2023-07-19T19:00:00,1781A,123.9483,47.3227,齐齐哈尔市,农牧车辆厂,,48,48,35,9,7,128,115,119,119,10,9,6,6,0.4,0.3
2023-07-19T19:00:00,1783A,123.945,47.2988,齐齐哈尔市,市环境监测站,,38,38,18,21,10,132,117,122,122,10,7,7,7,0.3,0.2
2023-07-19T19:00:00,1784A,129.61,44.561,牡丹江市,环保大楼,,31,24,13,19,9,104,97,94,94,13,11,5,5,0.4,0.4
2023-07-19T19:00:00,1785A,129.6115,44.5782,牡丹江市,文化广场,,25,23,13,17,14,90,80,86,86,28,15,7,6,0.6,0.5
2023-07-19T19:00:00,1786A,129.5904,44.5963,牡丹江市,第一医院,,25,11,19,17,11,87,77,80,80,19,11,5,4,0.5,0.4
2023-07-19T19:00:00,1787A,129.6364,44.6075,牡丹江市,机车工厂,,21,21,29,14,12,110,66,88,88,10,10,4,3,0.5,0.6
2023-07-19T19:00:00,1788A,129.6386,44.5462,牡丹江市,第一中学,,27,27,14,6,6,96,46,91,87,42,10,4,4,0.4,0.3
2023-07-19T19:00:00,1789A,124.81117,46.03138,大庆市,大同区,,41,29,17,9,10,144,129,131,131,15,10,4,4,0.4,0.3
2023-07-19T19:00:00,1790A,125.129,46.533,大庆市,龙凤区,,39,21,19,6,8,134,124,108,108,12,11,4,5,0.3,0.3
2023-07-19T19:00:00,1791A,124.902,46.408,大庆市,红岗区,,43,28,16,18,11,153,136,131,131,12,10,2,2,0.4,0.4
2023-07-19T19:00:00,1792A,125.153,46.586,大庆市,萨尔图区,,38,16,17,7,12,128,120,106,106,14,12,4,4,0.5,0.2
2023-07-19T19:00:00,1793A,124.9042,46.6215,大庆市,让胡路区,,41,17,14,6,7,151,129,121,121,13,10,2,3,0.4,0.3
2023-07-19T19:00:00,1794A,118.3606,31.3519,芜湖市,监测站,,33,28,26,23,17,166,97,126,125,15,21,3,3,0.5,0.6
2023-07-19T19:00:00,1795A,118.3714,31.4134,芜湖市,科创中心,,27,25,29,13,16,145,84,122,119,13,25,5,5,0.3,0.5
2023-07-19T19:00:00,1796A,118.3673,31.3131,芜湖市,四水厂,,30,12,23,14,15,175,95,130,128,13,15,2,3,0.6,0.7
2023-07-19T19:00:00,1798A,118.5092,31.6837,马鞍山市,湖东路四小,,25,21,28,17,19,130,76,95,95,11,19,5,7,0.8,0.9
2023-07-19T19:00:00,1799A,118.5024,31.6449,马鞍山市,开发区,,26,26,36,12,16,124,68,93,93,15,24,8,8,0.7,0.8
2023-07-19T19:00:00,1800A,118.5228,31.7231,马鞍山市,慈湖,,23,21,46,16,24,128,73,94,94,12,25,12,12,0.8,1
2023-07-19T19:00:00,1802A,118.6245,31.7241,马鞍山市,濮塘,,25,6,14,12,16,137,80,106,106,8,13,4,4,0.6,0.7
2023-07-19T19:00:00,1803A,115.9872,29.6815,九江市,十里,,30,28,21,21,15,139,79,95,95,11,15,8,10,0.6,0.6
2023-07-19T19:00:00,1804A,115.9584,29.7046,九江市,茅山头,,26,10,19,12,12,116,82,92,92,17,20,9,9,0.8,0.8
2023-07-19T19:00:00,1805A,115.9877,29.7295,九江市,西园,,21,17,22,11,10,144,66,96,96,40,30,11,10,0.5,0.5
2023-07-19T19:00:00,1806A,116.0172,29.6547,九江市,五七二七厂,,18,18,27,8,9,85,41,63,62,3,6,8,8,0.4,0.5
2023-07-19T19:00:00,1808A,115.9114,29.6038,九江市,综合工业园,,23,22,21,13,10,97,72,78,78,25,18,10,10,0.7,0.7
2023-07-19T19:00:00,1809A,116.0721,29.7535,九江市,石化总厂,,29,27,21,20,10,91,67,77,77,21,15,14,10,0.6,0.6
2023-07-19T19:00:00,1810A,115.9773,29.5698,九江市,庐山气象台,,18,9,8,11,7,90,55,75,57,4,2,7,7,0.9,0.8
2023-07-19T19:00:00,1812A,112.3931,34.6516,洛阳市,市委党校,,49,44,55,33,37,212,154,173,173,4,22,4,7,0.8,0.8
2023-07-19T19:00:00,1814A,112.4657,34.6871,洛阳市,豫西宾馆,,48,48,61,29,35,209,151,184,183,5,15,2,4,0.6,0.7
2023-07-19T19:00:00,1815A,112.494,34.6886,洛阳市,河南林校,,47,39,55,24,33,204,148,184,182,10,20,4,6,0.6,0.7
2023-07-19T19:00:00,1816A,112.3844,34.623,洛阳市,开发区管委会,,50,50,54,29,30,213,160,182,182,12,18,8,9,1.0,0.9
2023-07-19T19:00:00,1817A,112.4267,34.6258,洛阳市,市委新办公区,细颗粒物(PM2.5),52,52,56,36,35,209,154,177,177,6,12,3,3,0.5,0.3
2023-07-19T19:00:00,1818A,114.4839,36.0621,安阳市,棉研所,,36,19,56,20,30,181,113,160,148,5,22,6,7,0.5,0.7
2023-07-19T19:00:00,1819A,114.3551,36.1017,安阳市,红庙街,,39,36,54,10,28,204,122,168,154,2,9,5,6,0.2,0.4
2023-07-19T19:00:00,1820A,114.361,36.0681,安阳市,银杏小区,,40,21,54,21,45,211,127,164,153,2,13,4,6,0.2,0.4
2023-07-19T19:00:00,1824A,114.3389,34.7781,开封市,肿瘤医院,,,,53,,27,159,83,95,92,6,12,,7,0.4,0.6
2023-07-19T19:00:00,1826A,114.2885,34.7965,开封市,世纪星幼儿园,,,50,47,,,175,87,113,101,6,14,4,4,0.5,0.6
2023-07-19T19:00:00,1828A,113.227,35.2125,焦作市,市环保局,臭氧1小时,68,46,49,21,31,196,174,190,186,12,11,1,2,0.6,0.6
2023-07-19T19:00:00,1830A,113.1992,35.2590,焦作市,影视城,臭氧1小时,57,35,36,23,23,198,165,190,188,8,6,3,4,0.6,0.7
2023-07-19T19:00:00,1832A,113.3257,33.742,平顶山市,新华旅馆,,49,37,50,34,31,150,102,107,99,16,22,2,6,0.6,0.7
2023-07-19T19:00:00,1833A,113.2919,33.737,平顶山市,规划设计院,,40,36,56,28,26,146,103,100,100,12,24,5,8,0.7,0.7
2023-07-19T19:00:00,1834A,113.182,33.774,平顶山市,平顶山工学院,,37,37,54,22,22,157,107,112,112,8,18,4,7,0.5,0.5
2023-07-19T19:00:00,1835A,111.1922,34.7752,三门峡市,市政府,,43,41,49,21,26,169,137,151,149,14,21,4,5,0.6,0.6
2023-07-19T19:00:00,1836A,111.1587,34.7942,三门峡市,开发区,,45,38,60,27,28,187,141,159,156,17,17,3,8,0.4,0.4
2023-07-19T19:00:00,1838A,111.143,34.7955,三门峡市,风景区,,46,32,52,26,35,187,146,162,158,14,15,7,6,0.3,0.4
2023-07-19T19:00:00,1840A,111.2992,30.6981,宜昌市,白龙岗,,26,17,25,12,17,120,82,95,95,16,17,5,5,0.4,0.4
2023-07-19T19:00:00,1841A,111.3549,30.6465,宜昌市,伍家岗,,34,19,28,17,19,132,108,107,107,17,21,3,3,0.6,0.6
2023-07-19T19:00:00,1842A,111.2628,30.6961,宜昌市,点军区,,29,18,26,5,14,128,91,103,103,7,10,4,5,0.4,0.5
2023-07-19T19:00:00,1843A,111.3275,30.7819,宜昌市,夷陵区,,27,25,29,7,15,122,86,100,100,13,13,2,2,0.6,0.6
2023-07-19T19:00:00,1844A,112.2494,30.3197,荆州市,市图书馆,,39,28,44,25,27,140,123,122,122,13,13,7,8,0.7,0.7
2023-07-19T19:00:00,1845A,112.2008,30.3544,荆州市,市委党校,,35,26,47,23,29,125,112,114,114,10,12,6,7,0.8,0.8
2023-07-19T19:00:00,1847A,113.1094,29.3578,岳阳市,南湖风景区,,21,11,28,8,19,134,66,100,79,9,10,7,8,0.8,0.9
2023-07-19T19:00:00,1848A,113.1493,29.4251,岳阳市,城陵矶,,16,15,25,4,18,115,51,75,69,17,18,5,6,0.6,0.7
2023-07-19T19:00:00,1849A,113.1497,29.3575,岳阳市,开发区,,18,14,34,4,17,135,56,100,72,6,11,7,8,0.5,0.7
2023-07-19T19:00:00,1850A,113.2621,29.4758,岳阳市,云溪区,,18,9,27,3,17,126,56,91,71,2,11,10,9,0.5,0.7
2023-07-19T19:00:00,1851A,112.9943,29.4402,岳阳市,君山区,,24,16,23,6,20,120,76,86,86,10,11,6,6,0.6,0.7
2023-07-19T19:00:00,1852A,113.2117,29.355,岳阳市,金凤水库,,19,6,24,3,18,121,60,80,79,1,6,3,3,0.3,0.5
2023-07-19T19:00:00,1854A,111.6975,28.9703,常德市,市二中,,35,18,18,17,16,126,111,112,112,3,6,3,4,0.4,0.4
2023-07-19T19:00:00,1857A,111.7158,29.1456,常德市,白鹤山,,26,18,15,10,8,127,81,110,91,7,7,6,5,0.4,0.4
2023-07-19T19:00:00,1858A,110.5319,29.1217,张家界市,永定新区,,19,19,35,13,25,105,57,70,68,8,12,4,4,0.3,0.5
2023-07-19T19:00:00,1859A,110.4697,29.1242,张家界市,电业局,,25,25,31,16,23,110,61,108,75,16,15,4,5,0.4,0.4
2023-07-19T19:00:00,1860A,110.5594,29.3547,张家界市,未央路,,23,23,31,15,21,83,46,79,73,13,8,3,3,0.3,0.3
2023-07-19T19:00:00,1861A,110.4417,29.315,张家界市,袁家界,,16,16,19,11,15,111,30,105,62,10,4,6,5,0.6,0.6
2023-07-19T19:00:00,1862A,110.4144,25.3167,桂林市,电子科大尧山校区,,47,47,24,17,14,97,82,81,81,6,7,10,5,0.7,0.7
2023-07-19T19:00:00,1863A,110.2819,25.2697,桂林市,监测站,,31,31,27,15,12,85,81,80,80,8,10,4,5,0.7,0.7
2023-07-19T19:00:00,1864A,110.3089,25.2708,桂林市,龙隐路小学,,,,21,,13,85,76,76,76,7,8,,7,0.6,0.6
2023-07-19T19:00:00,1865A,110.2869,25.2178,桂林市,八中,,23,19,23,10,15,86,73,76,76,9,14,3,4,0.5,0.6
2023-07-19T19:00:00,1866A,109.2262,21.588,北海市,牛尾岭水库,,19,16,20,8,8,82,58,72,72,5,6,6,4,0.5,0.5
2023-07-19T19:00:00,1867A,109.1436,21.4086,北海市,海滩公园,,31,31,28,10,6,108,63,82,78,4,4,4,4,0.6,0.6
2023-07-19T19:00:00,1868A,109.0981,21.4661,北海市,新市环保局,,25,25,22,7,9,99,74,79,79,5,4,2,3,0.6,0.6
2023-07-19T19:00:00,1869A,109.1778,21.5233,北海市,北海工业园,,32,32,30,12,11,93,72,78,78,3,4,4,4,0.5,0.5
2023-07-19T19:00:00,1870A,109.4856,24.3895,柳州市,柳东小学,,27,24,17,15,11,86,86,78,78,10,6,8,8,0.4,0.3
2023-07-19T19:00:00,1871A,109.4157,24.3277,柳州市,环保监测站,,,21,15,,9,78,78,73,73,10,7,4,4,0.4,0.4
2023-07-19T19:00:00,1872A,109.389,24.341,柳州市,河西水厂,,26,17,16,14,11,82,82,75,75,10,9,8,8,0.5,0.6
2023-07-19T19:00:00,1873A,109.4311,24.2921,柳州市,市四中,,32,32,19,14,10,83,83,75,75,9,8,7,7,0.5,0.7
2023-07-19T19:00:00,1874A,109.4006,24.3631,柳州市,市九中,,25,23,19,15,13,83,80,76,76,11,7,5,6,0.5,0.5
2023-07-19T19:00:00,1875A,109.4958,24.3134,柳州市,古亭山,,34,34,18,18,11,93,81,76,76,9,8,5,6,0.5,0.6
2023-07-19T19:00:00,1876A,109.5078,18.2489,三亚市,河东子站,,22,22,19,13,9,68,52,60,59,2,2,2,2,0.5,0.5
2023-07-19T19:00:00,1877A,109.4964,18.2681,三亚市,河西子站,,23,23,20,12,10,67,54,62,61,7,7,1,1,0.2,0.4
2023-07-19T19:00:00,1878A,104.7778,31.4741,绵阳市,富乐山,,45,34,35,22,22,188,141,164,164,10,10,4,3,0.5,0.7
2023-07-19T19:00:00,1879A,104.7563,31.4535,绵阳市,市人大,,,31,35,24,23,172,134,155,155,12,20,,11,0.6,0.6
2023-07-19T19:00:00,1880A,104.6697,31.4668,绵阳市,高新区自来水公司,,48,39,48,20,27,185,152,165,165,13,27,6,6,0.6,0.6
2023-07-19T19:00:00,1881A,104.7287,31.5075,绵阳市,三水厂,,41,36,44,24,27,183,130,158,158,30,26,6,6,0.6,0.5
2023-07-19T19:00:00,1882A,104.563,28.793,宜宾市,石马中学,,25,18,28,9,18,140,80,94,94,22,16,4,6,0.5,0.5
2023-07-19T19:00:00,1883A,104.6201,28.7728,宜宾市,市委,,21,20,32,13,21,126,66,84,84,18,22,8,10,0.5,0.5
2023-07-19T19:00:00,1884A,104.6055,28.793,宜宾市,宜宾四中,,23,22,38,15,24,128,73,86,86,16,24,8,10,0.6,0.6
2023-07-19T19:00:00,1885A,104.639,28.7562,宜宾市,市政府,,23,23,35,13,18,124,71,83,83,11,22,7,9,0.7,0.6
2023-07-19T19:00:00,1886A,104.5742,28.7199,宜宾市,黄金嘴,,24,20,34,13,21,127,74,90,90,10,19,4,7,0.7,0.7
2023-07-19T19:00:00,1888A,101.6891,26.571,攀枝花市,弄弄坪,,48,48,54,18,24,166,89,143,139,16,25,17,16,0.8,1.1
2023-07-19T19:00:00,1889A,101.5769,26.5928,攀枝花市,河门口,,42,42,47,22,25,177,115,152,152,18,21,20,26,1.2,1.1
2023-07-19T19:00:00,1890A,101.7169,26.585,攀枝花市,炳草岗,,48,48,51,25,24,163,80,163,126,29,24,48,25,0.9,0.9
2023-07-19T19:00:00,1891A,101.7369,26.5008,攀枝花市,仁和,颗粒物(PM10),51,51,36,31,23,169,89,147,141,20,15,23,15,0.9,0.7
2023-07-19T19:00:00,1893A,105.4324,28.9634,泸州市,九狮山,,16,11,25,9,10,95,49,51,51,14,20,5,6,0.5,0.5
2023-07-19T19:00:00,1894A,105.4427,28.9063,泸州市,小市上码头,颗粒物(PM10),57,64,49,8,16,116,51,69,62,19,16,17,12,0.8,0.7
2023-07-19T19:00:00,1895A,105.4241,28.8573,泸州市,兰田宪桥,,35,35,34,19,17,107,61,66,66,11,12,6,7,0.8,0.6
2023-07-19T19:00:00,1896A,105.4379,28.8833,泸州市,市环监站,,28,28,26,12,11,113,56,62,60,13,11,14,7,0.8,0.6
2023-07-19T19:00:00,1901A,104.4239,31.1208,德阳市,东山公园,臭氧1小时,65,44,48,33,28,194,172,170,170,36,18,10,3,0.7,0.6
2023-07-19T19:00:00,1902A,104.3826,31.1317,德阳市,西小区,臭氧1小时,74,54,57,34,31,200,179,176,176,22,26,8,4,0.6,0.6
2023-07-19T19:00:00,1904A,104.3553,31.1091,德阳市,耐火材料厂,臭氧1小时,75,60,54,34,33,204,180,181,181,20,25,8,3,0.8,0.7
2023-07-19T19:00:00,1905A,106.056,30.8064,南充市,西山风景区,,23,20,35,8,26,166,71,134,122,6,7,4,7,0.3,0.5
2023-07-19T19:00:00,1906A,106.0789,30.8023,南充市,南充市委,,25,17,52,3,25,166,80,140,126,13,17,8,14,0.4,0.5
2023-07-19T19:00:00,1907A,106.1031,30.8217,南充市,南充炼油厂,,27,27,56,13,27,169,81,144,131,12,18,7,15,0.3,0.4
2023-07-19T19:00:00,1908A,106.1064,30.7856,南充市,高坪区监测站,,25,25,52,9,29,158,78,135,123,15,23,7,28,0.3,0.5
2023-07-19T19:00:00,1909A,106.0642,30.7636,南充市,嘉陵区环保局,,27,27,50,17,30,163,76,134,120,16,20,5,17,0.5,0.5
2023-07-19T19:00:00,1910A,106.1087,30.8388,南充市,市环境监测站,,30,30,48,16,31,169,74,154,131,18,20,6,13,0.4,0.5
2023-07-19T19:00:00,1911A,106.9222,27.6869,遵义市,丁字口,,16,13,17,7,9,67,50,61,61,16,16,3,4,0.6,0.5
2023-07-19T19:00:00,1912A,106.9242,27.7019,遵义市,凤凰山,,19,19,20,12,21,65,42,63,51,15,10,6,7,0.7,0.4
2023-07-19T19:00:00,1913A,106.8906,27.6486,遵义市,忠庄,,17,13,19,7,10,69,53,59,59,10,10,2,2,0.5,0.5
2023-07-19T19:00:00,1914A,106.9231,27.6506,遵义市,舟水桥,,19,7,11,13,13,73,57,64,63,5,10,1,1,0.6,0.7
2023-07-19T19:00:00,1915A,106.9178,27.72,遵义市,干田坝,,27,27,12,11,9,69,47,68,53,13,10,5,5,0.5,0.5
2023-07-19T19:00:00,1916A,103.7897,25.5035,曲靖市,环境监测站,,17,10,16,11,9,112,53,102,63,15,13,1,4,0.7,0.7
2023-07-19T19:00:00,1917A,103.8,25.5364,曲靖市,烟厂办公区,,18,3,17,4,10,106,55,97,64,8,8,3,5,0.5,0.5
2023-07-19T19:00:00,1918A,108.7197,34.3956,咸阳市,气象站,,,,,,,,,,,,,,,,
2023-07-19T19:00:00,1919A,108.673,34.3155,咸阳市,实验中学,臭氧1小时,80,46,43,22,23,204,184,187,187,11,17,6,6,0.6,0.5
2023-07-19T19:00:00,1920A,108.7233,34.3617,咸阳市,师范学院,臭氧1小时,79,49,47,26,24,196,183,186,186,18,20,7,6,0.7,0.6
2023-07-19T19:00:00,1922A,109.0656,35.0994,铜川市,党校,臭氧1小时,55,42,48,18,20,170,164,156,156,6,20,8,7,0.9,0.8
2023-07-19T19:00:00,1923A,109.0697,35.0697,铜川市,王益区政府,臭氧1小时,60,38,38,23,21,173,168,161,161,9,19,5,4,0.6,0.6
2023-07-19T19:00:00,1924A,108.9344,34.9058,铜川市,新区管委会,臭氧1小时,53,42,41,24,23,170,162,162,162,12,16,7,8,0.5,0.5
2023-07-19T19:00:00,1926A,109.4131,36.6275,延安市,枣园,,45,32,38,21,20,173,142,142,142,11,26,7,6,0.6,0.6
2023-07-19T19:00:00,1927A,109.4761,36.6028,延安市,延大医附院,,46,26,39,15,21,175,146,155,155,12,28,5,5,0.3,0.3
2023-07-19T19:00:00,1929A,109.5056,36.6106,延安市,百米大道,,43,26,48,20,26,172,136,151,151,20,31,6,9,0.5,0.6
2023-07-19T19:00:00,1930A,107.185,34.3063,宝鸡市,庙沟村,,45,38,35,23,21,184,142,163,163,4,6,10,9,0.4,0.4
2023-07-19T19:00:00,1931A,107.0708,34.3017,宝鸡市,竹园沟,臭氧1小时,73,49,31,24,23,210,178,187,187,11,14,5,6,0.5,0.5
2023-07-19T19:00:00,1932A,107.1906,34.3672,宝鸡市,三陆医院,臭氧1小时,77,52,49,25,27,206,181,191,191,17,20,8,9,0.5,0.5
2023-07-19T19:00:00,1933A,107.1431,34.3547,宝鸡市,监测站,臭氧1小时,72,47,43,25,25,207,177,191,191,14,17,10,9,0.5,0.5
2023-07-19T19:00:00,1934A,107.1186,34.3739,宝鸡市,技工学校,臭氧1小时,77,45,44,21,27,206,181,190,190,16,17,6,6,0.5,0.5
2023-07-19T19:00:00,1935A,107.3906,34.3528,宝鸡市,陈仓区环保局家属楼,臭氧1小时,104,52,52,24,31,208,207,200,200,18,32,7,7,0.5,0.5
2023-07-19T19:00:00,1936A,107.2058,34.3497,宝鸡市,文理学院,臭氧1小时,82,47,48,28,34,204,185,192,192,12,16,11,10,0.5,0.5
2023-07-19T19:00:00,1937A,107.2386,34.3622,宝鸡市,三迪小学,臭氧1小时,70,68,73,40,43,202,176,197,192,20,14,6,5,0.6,0.6
2023-07-19T19:00:00,1938A,109.5293,34.5101,渭南市,农科所,,46,36,48,24,28,172,147,156,156,13,21,5,5,0.7,0.8
2023-07-19T19:00:00,1939A,109.4974,34.4877,渭南市,日报社,臭氧1小时,63,44,54,29,30,191,170,176,176,18,27,7,7,0.5,0.5
2023-07-19T19:00:00,1940A,109.4636,34.493,渭南市,体育馆,臭氧1小时,82,34,48,22,25,194,185,178,178,6,32,5,6,0.4,0.5
2023-07-19T19:00:00,1941A,109.4259,34.5023,渭南市,高新一小,臭氧1小时,79,38,53,22,24,189,183,179,179,9,14,6,6,0.4,0.5
2023-07-19T19:00:00,1943A,102.1725,38.5339,金昌市,新川苑,颗粒物(PM10),430,530,148,97,28,155,123,126,126,10,16,8,11,0.5,0.6
2023-07-19T19:00:00,1944A,102.1692,38.5167,金昌市,天庆家园,颗粒物(PM10),238,376,116,89,32,160,131,128,128,8,20,5,14,0.4,0.6
2023-07-19T19:00:00,1945A,98.2908,39.7711,嘉峪关市,气象局,,40,9,88,5,19,141,125,126,123,7,17,3,6,0.2,0.3
2023-07-19T19:00:00,1947A,106.3394,38.817,石嘴山市,沙湖旅游区,臭氧1小时,85,45,40,14,15,201,188,193,193,11,13,18,17,0.6,0.6
2023-07-19T19:00:00,1948A,106.3668,39.0145,石嘴山市,大武口朝阳西街,臭氧1小时,88,53,52,17,22,207,190,186,186,13,18,11,20,0.4,0.5
2023-07-19T19:00:00,1949A,106.7704,39.2282,石嘴山市,惠农南大街,臭氧1小时,63,35,45,15,17,198,170,185,185,16,16,5,4,0.4,0.4
2023-07-19T19:00:00,1950A,106.7099,39.1325,石嘴山市,红果子镇惠新街,臭氧1小时,72,35,48,16,20,200,177,192,191,14,17,6,7,0.4,0.4
2023-07-19T19:00:00,1951A,84.895,45.6094,克拉玛依市,长征新村,,40,27,28,4,6,135,127,124,124,8,13,9,9,0.2,0.2
2023-07-19T19:00:00,1952A,84.8988,45.5893,克拉玛依市,南林小区,颗粒物(PM10),51,51,34,11,9,125,115,115,115,18,32,4,4,0.1,0.2
2023-07-19T19:00:00,1954A,84.905,44.3396,克拉玛依市,独山子区,,47,47,39,13,15,181,144,159,159,8,12,15,13,0.3,0.5
2023-07-19T19:00:00,1955A,85.6979,46.098,克拉玛依市,乌尔禾区商贸楼,,36,16,17,11,7,114,113,106,106,4,10,7,7,0.3,0.3
2023-07-19T19:00:00,1956A,86.1472,41.7538,巴音郭楞州,孔雀公园,颗粒物(PM10),55,60,82,16,20,153,128,135,135,4,16,5,6,0.2,0.3
2023-07-19T19:00:00,1957A,86.1972,41.7166,巴音郭楞州,棉纺厂,颗粒物(PM10),59,67,85,20,27,155,140,139,139,3,12,4,5,0.2,0.3
2023-07-19T19:00:00,1958A,86.2357,41.7173,巴音郭楞州,经济开发区,颗粒物(PM10),63,75,73,24,21,157,140,140,140,4,5,4,4,0.2,0.2
2023-07-19T19:00:00,1961A,117.532,36.6868,济南市,东山小学,,46,32,48,15,23,212,146,195,184,12,18,5,6,0.4,0.5
2023-07-19T19:00:00,1966A,120.0405,35.8735,青岛市,黄岛区4号,,,19,29,7,16,113,95,113,107,,,,7,0.5,0.9
2023-07-19T19:00:00,1982A,122.0693,37.2174,威海市,文登开发区,,45,36,36,19,17,164,142,159,158,16,20,5,6,0.5,0.5
2023-07-19T19:00:00,2031A,113.1817,27.9958,株洲市,云田中学,,16,15,13,6,11,120,51,86,85,8,10,6,6,0.5,0.5
2023-07-19T19:00:00,2054A,114.1099,32.1059,信阳市,平桥分局,,19,13,26,0,13,101,58,85,84,3,8,6,6,0.3,0.4
2023-07-19T19:00:00,2064A,113.9956,32.1271,信阳市,南湾水厂,,19,19,29,2,14,97,51,73,72,2,8,1,6,0.4,0.5
2023-07-19T19:00:00,2065A,114.0775,32.1195,信阳市,市酿酒公司,,25,25,28,7,19,97,52,80,79,8,11,7,7,0.6,0.6
2023-07-19T19:00:00,2066A,114.0609,32.1399,信阳市,审计局,,19,19,30,12,22,107,59,88,87,8,9,1,1,0.6,0.6
2023-07-19T19:00:00,2067A,114.6613,33.6128,周口市,市环境监测站,,,,46,12,20,112,75,89,89,8,10,2,4,0.4,0.5
2023-07-19T19:00:00,2068A,114.6758,33.6347,周口市,周口师范,,24,7,34,2,12,106,76,87,87,5,8,3,6,0.4,0.3
2023-07-19T19:00:00,2069A,114.6546,33.5979,周口市,市运管处,,,,30,5,16,111,76,88,88,2,4,6,6,0.5,0.5
2023-07-19T19:00:00,2070A,114.6369,33.6406,周口市,川汇区环保局,,24,9,27,2,11,99,74,82,82,5,8,2,2,0.4,0.5
2023-07-19T19:00:00,2075A,117.6336,24.4674,漳州市,九湖,,,,,,,,,,,,,,,,
2023-07-19T19:00:00,2160A,112.85,35.5051,晋城市,自来水公司,臭氧1小时,98,47,63,22,34,221,198,208,208,15,18,8,8,0.9,1
2023-07-19T19:00:00,2161A,112.8318,35.4936,晋城市,白云商贸,臭氧1小时,84,47,52,24,31,214,187,200,198,16,19,11,10,0.8,0.9
2023-07-19T19:00:00,2162A,112.8508,35.4887,晋城市,市环保局,臭氧1小时,69,46,59,24,36,200,175,188,188,15,21,10,9,0.8,0.9
2023-07-19T19:00:00,2163A,112.8676,35.4897,晋城市,技术学院,臭氧1小时,80,64,64,17,32,215,184,197,196,16,19,10,9,0.9,0.9
2023-07-19T19:00:00,2165A,112.8453,35.546,晋城市,白马寺,,,,,,,,,,,,,,,,
2023-07-19T19:00:00,2166A,112.4397,39.3522,朔州市,平朔,臭氧1小时,75,37,60,19,28,201,180,193,193,12,29,8,11,0.7,0.7
2023-07-19T19:00:00,2167A,112.4575,39.3617,朔州市,朔唯,臭氧1小时,95,42,79,22,29,211,196,206,206,6,29,8,10,0.5,0.6
2023-07-19T19:00:00,2168A,112.4258,39.3197,朔州市,区政府,,,38,55,7,21,195,174,188,187,,26,4,7,0.5,0.5
2023-07-19T19:00:00,2169A,112.4072,39.3278,朔州市,市环保局,臭氧1小时,74,30,58,18,27,208,179,200,199,12,18,4,11,0.4,0.5
2023-07-19T19:00:00,2170A,112.4272,39.3681,朔州市,市二中,臭氧1小时,77,44,80,27,27,200,181,195,195,8,29,9,11,0.5,0.6
2023-07-19T19:00:00,2171A,112.7532,37.6945,晋中市,锦纶小区,臭氧1小时,106,48,52,17,21,229,211,216,216,14,19,12,12,0.5,0.6
2023-07-19T19:00:00,2173A,112.7249,37.7067,晋中市,南都小区,臭氧1小时,102,53,58,22,26,234,204,218,216,14,22,11,12,0.5,0.5
2023-07-19T19:00:00,2174A,112.6991,37.6982,晋中市,榆次区政府,臭氧1小时,99,56,53,25,25,223,199,210,210,16,19,10,11,0.5,0.6
2023-07-19T19:00:00,2175A,110.9956,35.0147,运城市,运城中学,,48,37,45,20,24,170,153,153,145,7,6,5,5,0.7,0.8
2023-07-19T19:00:00,2178A,110.9686,35.0303,运城市,地区技校,臭氧1小时,60,34,38,24,20,189,168,180,164,5,5,3,4,0.6,1
2023-07-19T19:00:00,2179A,111.0414,35.1147,运城市,空港新区,,50,32,51,23,31,174,158,155,155,6,9,3,3,0.7,0.7
2023-07-19T19:00:00,2181A,112.7383,38.4519,忻州市,开发区,臭氧1小时,63,40,50,16,27,187,170,178,178,20,26,10,12,0.6,0.6
2023-07-19T19:00:00,2182A,112.7003,38.4928,忻州市,会展中心,,50,45,53,29,31,194,160,178,175,18,28,8,9,0.4,0.6
2023-07-19T19:00:00,2183A,111.1406,37.5211,吕梁市,环保局,臭氧1小时,105,57,73,28,38,209,209,194,194,16,34,7,6,0.6,0.6
2023-07-19T19:00:00,2185A,111.1297,37.5136,吕梁市,自来水公司,臭氧1小时,104,47,77,30,40,208,208,191,191,19,31,7,8,0.6,0.6
2023-07-19T19:00:00,2187A,106.8174,39.6973,乌海市,市林业局,臭氧1小时,55,58,54,18,19,194,164,184,184,11,12,12,17,0.6,0.7
2023-07-19T19:00:00,2188A,106.7907,39.6667,乌海市,中海勃湾学校,,49,31,47,18,21,187,156,181,178,14,14,11,18,0.6,0.5
2023-07-19T19:00:00,2191A,122.2532,43.6801,通辽市,艺术职业学校,,47,47,53,28,30,163,131,155,154,19,16,5,5,0.6,0.8
2023-07-19T19:00:00,2192A,119.7594,49.2261,呼伦贝尔市,区环保局,,31,31,29,17,20,92,85,88,88,9,8,5,5,0.4,0.4
2023-07-19T19:00:00,2195A,107.4212,40.761,巴彦淖尔市,附二中,,50,21,45,13,19,174,158,166,166,8,8,2,3,0.4,0.6
2023-07-19T19:00:00,2196A,107.37,40.7372,巴彦淖尔市,市环保大楼,,50,28,45,16,20,177,159,167,167,7,7,2,2,0.5,0.5
2023-07-19T19:00:00,2197A,113.1306,40.9923,乌兰察布市,集宁新区,臭氧1小时,106,39,45,25,27,226,212,208,208,10,18,13,17,0.7,0.8
2023-07-19T19:00:00,2200A,122.0392,46.0656,兴安盟,胜华新制药厂,,31,31,23,15,15,113,75,107,103,12,6,3,3,0.4,0.5
2023-07-19T19:00:00,2201A,121.9504,46.0741,兴安盟,科右前旗环保局,,30,30,25,12,17,128,84,113,104,3,4,3,3,0.3,0.4
2023-07-19T19:00:00,2202A,116.1042,43.9317,锡林郭勒盟,市环保监测站,,40,29,26,9,10,170,126,156,155,22,10,17,11,0.6,0.3
2023-07-19T19:00:00,2203A,116.0781,43.9311,锡林郭勒盟,市政府,,45,24,28,10,12,184,141,171,170,13,13,10,9,0.3,0.3
2023-07-19T19:00:00,2204A,105.6467,38.8363,阿拉善盟,西城区西花园,,50,27,31,21,18,216,160,174,150,10,10,9,10,0.5,0.5
2023-07-19T19:00:00,2205A,105.6985,38.8411,阿拉善盟,蒙二幼,臭氧1小时,59,30,30,14,15,221,167,169,154,7,7,9,9,0.5,0.5
2023-07-19T19:00:00,2206A,105.724,38.8516,阿拉善盟,环保局新楼,臭氧1小时,59,18,22,16,17,233,167,174,155,7,6,10,11,0.4,0.4
2023-07-19T19:00:00,2207A,121.6094,41.998,阜新市,工业园区,臭氧1小时,102,87,63,30,30,211,203,200,200,19,24,5,9,1.0,1
2023-07-19T19:00:00,2208A,121.6697,42.0279,阜新市,长青街,臭氧1小时,101,68,66,27,33,204,202,200,200,18,18,6,12,,1
2023-07-19T19:00:00,2209A,121.6673,42.0705,阜新市,农业园区,臭氧1小时,104,61,47,19,42,208,208,195,195,10,11,8,8,0.9,1
2023-07-19T19:00:00,2210A,121.6717,42.0224,阜新市,东苑,臭氧1小时,100,69,72,35,39,200,200,194,194,14,16,7,15,0.8,0.8
2023-07-19T19:00:00,2211A,121.6506,42.0498,阜新市,玉龙新城,臭氧1小时,97,74,57,30,27,280,197,204,204,13,15,4,4,1.0,1
2023-07-19T19:00:00,2212A,123.2,41.1953,辽阳市,宏伟区,臭氧1小时,103,70,52,42,23,230,206,214,214,17,18,8,7,1.0,0.8
2023-07-19T19:00:00,2213A,123.1683,41.2495,辽阳市,新华园,臭氧1小时,98,77,64,47,30,223,198,208,208,19,22,7,9,1.3,0.9
2023-07-19T19:00:00,2214A,123.2354,41.2639,辽阳市,滨河路,臭氧1小时,104,77,60,46,32,240,207,220,220,18,22,10,11,1.1,1
2023-07-19T19:00:00,2215A,123.149,41.2991,辽阳市,铁西工业园,臭氧1小时,113,98,69,43,32,240,226,223,223,28,29,18,16,1.8,1.2
2023-07-19T19:00:00,2216A,123.8139,42.3022,铁岭市,汇工街西,颗粒物(PM10),61,72,72,34,39,228,160,202,202,13,23,6,13,0.9,1.1
2023-07-19T19:00:00,2217A,123.8649,42.2923,铁岭市,水上乐园,臭氧1小时,106,57,59,39,37,255,212,222,222,21,21,7,5,1.0,1.1
2023-07-19T19:00:00,2218A,123.8486,42.2867,铁岭市,银州路东段,臭氧1小时,87,76,71,38,38,240,189,212,212,24,25,7,7,1.0,1.1
2023-07-19T19:00:00,2219A,123.7153,42.2217,铁岭市,金沙江路北,颗粒物(PM10),56,61,60,34,34,229,161,197,197,19,25,11,11,0.9,1.2
2023-07-19T19:00:00,2220A,120.4318,41.5881,朝阳市,西梁,,,115,55,,27,220,220,196,196,16,14,10,12,1.2,1
2023-07-19T19:00:00,2221A,120.4521,41.5646,朝阳市,河畔小区,臭氧1小时,127,100,59,28,26,253,253,200,200,12,13,6,8,1.0,0.8
2023-07-19T19:00:00,2222A,120.4176,41.5648,朝阳市,八里堡,臭氧1小时,125,111,61,80,33,250,250,207,207,21,25,5,8,1.3,1
2023-07-19T19:00:00,2223A,120.3806,41.5969,朝阳市,农业园区,臭氧1小时,98,144,52,22,27,198,198,190,190,17,16,4,6,1.1,1
2023-07-19T19:00:00,2225A,124.4002,43.1713,四平市,一商场,臭氧1小时,84,72,56,50,36,224,187,200,200,18,20,9,9,1.1,0.8
2023-07-19T19:00:00,2226A,124.388,43.193,四平市,境园,臭氧1小时,104,67,49,37,29,217,207,201,201,11,17,7,6,0.7,0.6
2023-07-19T19:00:00,2227A,125.1358,42.8845,辽源市,环保局,,48,36,41,30,31,182,151,170,170,10,15,6,15,1.2,0.9
2023-07-19T19:00:00,2229A,125.9358,41.7173,通化市,光明,,33,33,60,16,40,137,94,119,118,14,21,8,30,0.6,1
2023-07-19T19:00:00,2230A,125.9446,41.7325,通化市,铁路,,38,29,52,26,38,136,86,116,116,12,16,4,17,0.5,0.9
2023-07-19T19:00:00,2231A,126.4219,41.9171,白山市,喜丰,颗粒物(PM10),61,72,67,20,31,123,65,107,102,12,19,7,11,0.5,0.7
2023-07-19T19:00:00,2232A,126.4077,41.9419,白山市,环保局,,45,45,57,16,31,135,47,108,102,25,19,6,6,0.6,0.5
2023-07-19T19:00:00,2233A,124.8006,45.1214,松原市,江南,,47,41,24,28,15,153,148,140,140,14,16,8,6,0.6,0.5
2023-07-19T19:00:00,2234A,124.7965,45.1722,松原市,江北,,43,42,20,30,16,145,125,132,132,9,10,5,4,0.7,0.5
2023-07-19T19:00:00,2235A,122.7911,45.6077,白城市,洮北区环保局,,40,40,20,22,10,154,117,135,127,11,10,6,6,0.3,0.1
2023-07-19T19:00:00,2236A,122.8738,45.5725,白城市,市环保局,,30,28,20,17,11,157,94,137,124,11,9,7,6,0.4,0.3
2023-07-19T19:00:00,2237A,129.47,42.8883,延边朝鲜族自治州,妇幼医院,,33,30,20,23,12,93,65,86,84,16,11,8,8,0.6,0.5
2023-07-19T19:00:00,2238A,129.5055,42.9108,延边朝鲜族自治州,延边医院,,28,28,24,13,10,92,62,88,85,22,11,6,6,0.7,0.6
2023-07-19T19:00:00,2239A,129.3964,42.8881,延边朝鲜族自治州,朝阳川镇医院,,34,34,19,15,8,97,69,90,88,13,8,5,6,0.5,0.5
2023-07-19T19:00:00,2240A,130.9762,45.3001,鸡西市,环保局,,27,27,25,12,11,80,57,63,63,20,22,4,5,0.3,0.4
2023-07-19T19:00:00,2243A,130.9429,45.3039,鸡西市,第一中学,,27,27,18,17,8,90,67,73,73,12,15,5,5,0.2,0.3
2023-07-19T19:00:00,2244A,130.2537,47.3416,鹤岗市,哈啤分公司,,19,18,12,9,7,103,59,89,86,19,11,11,11,0.5,0.4
2023-07-19T19:00:00,2245A,130.2684,47.3086,鹤岗市,斯达机电,,20,16,13,10,7,92,64,82,82,12,12,11,10,0.3,0.4
2023-07-19T19:00:00,2246A,130.3114,47.3388,鹤岗市,东山纸板厂,,18,15,21,12,12,106,57,91,86,23,15,8,10,0.4,0.4
2023-07-19T19:00:00,2247A,130.1097,47.3382,鹤岗市,五号水库,,10,5,7,7,6,93,28,87,76,8,6,8,8,0.2,0.2
2023-07-19T19:00:00,2248A,131.1511,46.6937,双鸭山市,双合村,颗粒物(PM10),60,70,28,24,9,93,25,88,75,38,14,21,11,2.0,0.5
2023-07-19T19:00:00,2249A,131.1652,46.6191,双鸭山市,南小市,,48,32,25,33,10,99,15,86,72,56,11,31,7,2.5,0.3
2023-07-19T19:00:00,2250A,131.1524,46.6554,双鸭山市,环保局,颗粒物(PM10),52,54,12,30,8,101,14,83,70,55,16,22,10,2.4,0.6
2023-07-19T19:00:00,2251A,131.12,46.5656,双鸭山市,苗圃,,33,33,22,6,6,113,41,90,82,8,7,3,4,0.7,0.5
2023-07-19T19:00:00,2252A,128.5159,47.4311,伊春市,环保局,,21,21,18,2,2,87,47,76,70,14,9,5,6,0.4,0.4
2023-07-19T19:00:00,2253A,128.9102,47.7412,伊春市,电力嘉园,,25,17,8,17,9,100,71,88,86,5,6,3,6,0.6,0.7
2023-07-19T19:00:00,2254A,129.5029,48.471,伊春市,汤旺河国家公园,,34,34,28,13,13,74,16,56,46,2,1,17,14,0.6,0.5
2023-07-19T19:00:00,2255A,130.2751,46.8028,佳木斯市,佳纺,,21,19,25,11,10,96,67,85,85,11,19,3,3,0.4,0.4
2023-07-19T19:00:00,2256A,130.3995,46.8307,佳木斯市,发电厂,,34,34,17,14,9,109,75,95,95,17,17,5,3,0.7,0.6
2023-07-19T19:00:00,2257A,130.3258,46.7975,佳木斯市,环保局,,23,23,26,6,12,93,66,86,85,11,21,2,3,0.4,0.5
2023-07-19T19:00:00,2258A,130.3648,46.8032,佳木斯市,十一中,,25,25,25,16,16,97,53,84,83,26,26,3,4,0.7,0.6
2023-07-19T19:00:00,2259A,130.3794,46.7588,佳木斯市,四丰,,34,14,15,0,10,159,107,141,140,11,11,1,1,0.4,0.4
2023-07-19T19:00:00,2262A,131.0518,45.8751,七台河市,新一中,,22,22,15,12,7,101,66,97,89,9,8,7,7,1.0,0.9
2023-07-19T19:00:00,2263A,127.4833,50.2524,黑河市,交通局,,26,21,34,16,24,90,83,85,85,15,15,2,4,0.7,0.8
2023-07-19T19:00:00,2264A,127.5144,50.2341,黑河市,环保局,,41,41,50,22,25,97,91,87,87,7,12,2,4,0.6,0.6
2023-07-19T19:00:00,2265A,127.5291,50.2472,黑河市,大黑河岛,,37,37,27,16,34,117,104,103,103,1,1,2,3,0.5,0.5
2023-07-19T19:00:00,2266A,126.9785,46.6365,绥化市,人和东街,,34,24,13,11,8,120,106,112,112,15,17,6,7,0.4,0.3
2023-07-19T19:00:00,2267A,126.964,46.6528,绥化市,党政办公中心,,35,21,16,13,11,112,112,106,106,10,14,5,6,0.5,0.4
2023-07-19T19:00:00,2269A,124.1069,50.4097,大兴安岭地区,科技局,,33,14,25,14,15,104,104,96,96,5,8,5,5,0.3,0.3
2023-07-19T19:00:00,2270A,117.396,32.939,蚌埠市,工人疗养院,,10,10,20,1,8,70,26,31,26,4,12,8,8,0.0,0.1
2023-07-19T19:00:00,2271A,117.3605,32.9427,蚌埠市,百货大楼,,10,10,20,0,6,68,22,31,26,9,13,3,4,0.2,0.3
2023-07-19T19:00:00,2273A,117.4185,32.8911,蚌埠市,蚌埠学院,,10,9,18,7,12,70,21,29,20,13,17,8,9,0.3,0.3
2023-07-19T19:00:00,2274A,117.3533,32.9673,蚌埠市,淮上区政府,,9,7,18,6,10,61,24,34,30,10,14,4,4,0.2,0.2
2023-07-19T19:00:00,2275A,117.3145,32.8977,蚌埠市,高新区,,19,19,20,6,8,73,12,38,31,24,16,8,7,0.1,0.2
2023-07-19T19:00:00,2277A,116.8305,32.7727,淮南市,潘集区政府,,15,6,23,10,16,68,32,51,50,9,15,4,5,0.2,0.3
2023-07-19T19:00:00,2278A,117.0067,32.6524,淮南市,师范学院,,19,8,25,13,20,81,32,61,56,8,9,8,9,0.2,0.2
2023-07-19T19:00:00,2279A,116.8569,32.5951,淮南市,谢家集区政府,,14,11,20,2,8,135,44,87,83,14,16,4,9,0.2,0.2
2023-07-19T19:00:00,2280A,116.8281,32.633,淮南市,八公山区政府,,16,12,30,11,17,130,33,79,76,14,16,8,7,0.4,0.4
2023-07-19T19:00:00,2281A,116.6325,32.6201,淮南市,焦岗湖风景区管理处,,,8,27,,8,68,18,43,41,13,21,5,5,0.3,0.3
2023-07-19T19:00:00,2282A,116.8004,33.975,淮北市,监测站,,16,16,20,3,6,65,28,48,42,16,11,2,3,0.3,0.3
2023-07-19T19:00:00,2283A,116.8091,33.9007,淮北市,烈山区政府,,22,8,12,15,11,72,35,51,47,9,11,3,4,0.3,0.3
2023-07-19T19:00:00,2285A,117.8177,30.9412,铜陵市,市第四中学,,38,25,33,26,18,112,49,83,83,25,15,18,13,0.4,0.5
2023-07-19T19:00:00,2286A,117.8059,30.9273,铜陵市,市公路局,,27,27,33,12,18,132,54,95,95,20,17,7,5,0.5,0.9
2023-07-19T19:00:00,2287A,117.7807,30.9413,铜陵市,市新民污水厂,,22,22,28,2,12,135,47,97,96,21,20,5,5,0.3,0.6
2023-07-19T19:00:00,2288A,117.7439,30.8792,铜陵市,市第九中学,,23,18,39,6,14,114,26,85,77,45,31,6,5,0.5,1
2023-07-19T19:00:00,2289A,117.846,30.9413,铜陵市,车站新区,,26,23,34,18,17,130,65,92,92,22,20,3,3,0.5,0.6
2023-07-19T19:00:00,2290A,117.8483,30.97,铜陵市,市职教基地,,22,13,28,2,14,104,68,78,78,9,14,3,5,0.6,0.7
2023-07-19T19:00:00,2291A,117.0809,30.5177,安庆市,环科院,,30,30,19,6,10,92,51,80,79,21,14,4,6,0.4,0.7
2023-07-19T19:00:00,2292A,117.0331,30.5119,安庆市,马山宾馆,,22,15,17,6,10,108,68,88,86,10,15,4,8,0.6,0.9
2023-07-19T19:00:00,2294A,116.9896,30.6145,安庆市,安庆大学,,24,24,17,7,8,94,74,86,86,8,15,4,5,0.4,0.5
2023-07-19T19:00:00,2295A,118.2903,29.6963,黄山市,延安路89号,,20,20,26,7,4,88,38,61,61,7,7,5,5,0.3,0.3
2023-07-19T19:00:00,2296A,118.327,29.7178,黄山市,黄山东路89号,,10,10,21,4,5,82,32,56,56,9,8,6,6,0.2,0.2
2023-07-19T19:00:00,2297A,118.1371,30.2756,黄山市,黄山区政府5号楼,,12,12,19,1,5,59,33,46,46,6,5,7,7,0.2,0.1
2023-07-19T19:00:00,2298A,118.3093,32.3153,滁州市,老年大学,,26,16,26,10,12,172,82,113,113,16,18,9,10,0.5,0.3
2023-07-19T19:00:00,2299A,118.3244,32.2786,滁州市,人大宾馆,,25,13,21,15,13,187,80,121,121,18,27,5,7,0.5,0.4
2023-07-19T19:00:00,2301A,115.8277,32.8929,阜阳市,市监测站,,17,2,14,1,8,96,52,64,63,10,18,4,5,0.5,0.5
2023-07-19T19:00:00,2303A,115.8554,32.8605,阜阳市,开发区,,15,4,12,6,12,97,48,64,63,15,20,5,6,0.6,0.5
2023-07-19T19:00:00,2307A,116.5079,31.737,六安市,监测大楼,,18,2,15,1,8,99,56,80,76,3,3,3,1,0.2,0.3
2023-07-19T19:00:00,2308A,116.4738,31.7643,六安市,皖西学院,,20,8,17,5,8,110,63,81,76,6,9,4,5,0.1,0.3
2023-07-19T19:00:00,2309A,116.4996,31.7905,六安市,朝阳厂,,,8,12,4,11,113,62,81,78,,7,6,6,0.3,0.4
2023-07-19T19:00:00,2310A,116.5567,31.7886,六安市,开发区,,17,16,19,10,17,92,52,74,71,8,8,6,7,0.3,0.4
2023-07-19T19:00:00,2311A,115.8072,33.8399,亳州市,污水处理厂,,18,7,23,6,14,71,55,60,58,6,12,2,4,0.6,0.6
2023-07-19T19:00:00,2312A,115.7789,33.8518,亳州市,三国揽胜宫,,17,3,22,3,11,74,52,60,57,5,7,3,4,0.6,0.6
2023-07-19T19:00:00,2314A,117.47,30.6618,池州市,池州学院,,15,12,14,6,7,120,45,84,82,5,4,5,7,0.6,0.8
2023-07-19T19:00:00,2316A,118.7581,30.9454,宣城市,鳌峰子站,,29,29,26,4,14,94,55,83,80,15,16,12,5,0.4,0.5
2023-07-19T19:00:00,2317A,118.7385,30.9743,宣城市,敬亭山子站,,22,19,25,5,12,95,70,83,81,17,16,5,6,0.4,0.4
2023-07-19T19:00:00,2318A,118.7173,30.9427,宣城市,开发区子站,,24,21,23,4,9,98,76,90,88,7,15,5,5,0.2,0.4
2023-07-19T19:00:00,2319A,119.0141,25.4325,莆田市,荔城区仓后路,,50,50,27,19,10,101,77,78,78,13,10,6,6,0.5,0.5
2023-07-19T19:00:00,2320A,119.0015,25.4553,莆田市,莆田市监测站,,39,23,23,27,9,100,65,74,74,9,5,7,7,0.7,0.6
2023-07-19T19:00:00,2321A,119.1119,25.4561,莆田市,涵江区六中,,47,47,27,25,8,123,78,84,84,14,11,7,7,0.9,0.8
2023-07-19T19:00:00,2322A,119.1013,25.3215,莆田市,秀屿区政府,,38,38,24,16,10,132,64,95,95,9,5,8,7,0.8,0.6
2023-07-19T19:00:00,2323A,118.981,25.4792,莆田市,东圳水库,,,,,,,,,,,,,,,,
2023-07-19T19:00:00,2324A,117.6211,26.2625,三明市,三钢,,24,24,25,14,15,100,41,72,71,11,15,6,11,0.4,0.6
2023-07-19T19:00:00,2325A,117.635,26.2714,三明市,三明二中,,15,0,22,10,12,110,36,79,77,17,17,4,8,0.7,0.7
2023-07-19T19:00:00,2326A,117.6028,26.2378,三明市,三元区政府,,23,23,20,10,12,91,36,65,63,17,16,7,9,1.1,0.9
2023-07-19T19:00:00,2327A,117.7275,26.3108,三明市,洋溪,,,,,,,,,,,,,,,,
2023-07-19T19:00:00,2331A,118.0966,26.6761,南平市,茫荡山,,,,,,,,,,,,,,,,
2023-07-19T19:00:00,2332A,118.1681,26.6369,南平市,南平市监测站,,11,6,16,3,6,68,33,58,55,6,8,4,5,0.6,0.5
2023-07-19T19:00:00,2333A,118.1825,26.6489,南平市,南平铝业有限公司,,13,11,17,3,5,64,41,58,56,7,10,6,8,0.5,0.6
2023-07-19T19:00:00,2334A,118.1756,26.6272,南平市,南平七中,,12,7,16,3,5,68,37,58,56,6,6,4,4,0.5,0.5
2023-07-19T19:00:00,2335A,117.0189,25.1181,龙岩市,龙岩师专,,,,,,,,,,,,,,,,
2023-07-19T19:00:00,2336A,117.0217,25.1033,龙岩市,龙岩市监测站,,12,12,19,5,7,60,35,49,49,10,14,3,3,0.5,0.5
2023-07-19T19:00:00,2337A,117.0258,25.0661,龙岩市,闽西职业技术学院,,23,23,21,4,6,64,35,47,47,9,13,3,4,0.4,0.4
2023-07-19T19:00:00,2338A,117.0196,25.0306,龙岩市,龙岩学院,,18,18,13,4,4,51,24,42,42,5,9,3,4,0.3,0.3
2023-07-19T19:00:00,2339A,119.5001,26.6946,宁德市,金涵水库,,,,,,,,,,,,,,,,
2023-07-19T19:00:00,2341A,119.5388,26.6612,宁德市,宁德市监测站,,,24,27,,13,129,55,93,84,13,8,7,8,0.7,0.7
2023-07-19T19:00:00,2342A,117.3102,29.3867,景德镇市,王港中学,,23,17,15,11,11,93,72,81,81,5,5,2,5,0.6,0.3
2023-07-19T19:00:00,2343A,117.2117,29.2933,景德镇市,老干部活动中心,,21,21,19,5,12,87,53,73,72,10,10,5,7,0.2,0.2
2023-07-19T19:00:00,2344A,117.1894,29.2789,景德镇市,兽医站,,18,12,18,11,15,96,57,75,74,12,15,5,7,0.4,0.3
2023-07-19T19:00:00,2345A,117.1547,29.2617,景德镇市,台达陶瓷,,20,16,17,8,10,88,62,68,68,4,12,8,9,0.5,0.4
2023-07-19T19:00:00,2346A,117.2461,29.2956,景德镇市,陶研所,,19,19,27,6,6,86,58,70,70,2,4,6,7,0.2,0.2
2023-07-19T19:00:00,2347A,114.0997,27.5002,萍乡市,武功山,,8,8,5,3,4,46,22,39,37,5,4,18,18,0.5,0.4
2023-07-19T19:00:00,2348A,113.8385,27.6434,萍乡市,中医院,,11,8,15,4,11,82,34,52,50,4,7,6,10,0.4,0.4
2023-07-19T19:00:00,2349A,113.8493,27.6253,萍乡市,市政府车库,,14,4,20,6,14,89,44,50,50,8,13,4,17,0.2,0.7
2023-07-19T19:00:00,2350A,113.8676,27.6435,萍乡市,市环保局,,12,4,20,8,12,76,26,46,45,10,9,8,14,0.4,0.5
2023-07-19T19:00:00,2351A,113.866,27.6198,萍乡市,安源区政府,,13,13,22,3,14,83,27,49,48,10,15,9,17,0.3,0.9
2023-07-19T19:00:00,2352A,115.0861,27.9317,新余市,北岗,,13,13,15,7,10,71,38,57,56,6,11,5,9,0.5,0.6
2023-07-19T19:00:00,2353A,114.9886,27.8431,新余市,飞宇,,26,26,26,13,11,71,34,55,53,10,10,5,5,0.8,0.7
2023-07-19T19:00:00,2354A,114.9231,27.8246,新余市,第二水厂,,,,25,,7,75,28,58,54,,8,6,6,1.5,0.3
2023-07-19T19:00:00,2355A,114.9308,27.8036,新余市,市气象局,,30,30,23,20,10,77,29,62,58,17,7,6,7,2.0,0.7
2023-07-19T19:00:00,2357A,116.9822,28.1136,鹰潭市,龙虎山,,9,5,13,3,7,64,27,42,41,2,2,2,3,0.9,0.9
2023-07-19T19:00:00,2358A,117.0564,28.2642,鹰潭市,新监测站,,21,21,27,11,15,104,38,75,71,9,9,3,12,0.3,0.4
2023-07-19T19:00:00,2359A,117.0311,28.2475,鹰潭市,财苑宾馆,,27,27,31,6,14,105,40,72,70,3,10,5,11,0.3,0.5
2023-07-19T19:00:00,2360A,117.0222,28.2264,鹰潭市,体育馆,,27,27,31,2,12,108,36,72,70,7,8,2,2,0.2,0.3
2023-07-19T19:00:00,2361A,117.0017,28.2131,鹰潭市,三川水表,,16,16,25,5,12,109,43,78,73,3,6,2,5,0.5,0.5
2023-07-19T19:00:00,2362A,114.9017,25.9149,赣州市,通天岩,,,,,,,,,,,,,,,,
2023-07-19T19:00:00,2363A,114.9367,25.8664,赣州市,地委,,30,26,22,21,10,25,15,23,22,19,7,2,2,1.1,0.9
2023-07-19T19:00:00,2364A,114.9461,25.8481,赣州市,气象台,,22,22,19,8,11,55,27,45,42,21,9,6,5,0.8,0.6
2023-07-19T19:00:00,2365A,114.9322,25.8333,赣州市,市图书馆,,26,26,24,12,10,49,31,40,39,20,10,27,19,0.8,0.9
2023-07-19T19:00:00,2366A,114.8905,25.8471,赣州市,华坚鞋城,,22,22,21,3,10,50,32,46,45,24,11,8,5,0.8,0.4
2023-07-19T19:00:00,2367A,114.9754,27.0803,吉安市,红声器材厂,,24,24,25,13,11,70,43,58,54,6,7,11,8,0.7,0.7
2023-07-19T19:00:00,2368A,114.9658,27.0999,吉安市,市森林工业局,,16,16,19,9,11,64,38,54,51,8,8,5,4,0.5,0.7
2023-07-19T19:00:00,2369A,114.99,27.1312,吉安市,市环境监测站,,15,15,18,10,9,66,41,54,54,8,8,8,8,0.8,0.7
2023-07-19T19:00:00,2370A,115.0093,27.0968,吉安市,青原区法院,,20,18,19,14,12,64,42,54,53,11,11,11,12,0.7,0.7
2023-07-19T19:00:00,2371A,114.3408,27.8064,宜春市,槟榔水业,,22,22,22,10,8,74,22,36,35,5,5,2,2,0.2,0.1
2023-07-19T19:00:00,2373A,114.3956,27.7844,宜春市,市石油公司,,19,19,20,10,10,78,33,47,45,6,8,1,2,0.5,0.5
2023-07-19T19:00:00,2374A,114.3703,27.7914,宜春市,市气象局,,20,20,25,12,12,85,27,44,42,12,13,2,2,0.6,0.6
2023-07-19T19:00:00,2375A,114.4013,27.8074,宜春市,市广电局,,18,18,24,8,12,101,36,52,50,6,8,5,6,0.5,0.5
2023-07-19T19:00:00,2376A,116.2127,28.0814,抚州市,桐源党溪,,17,17,24,3,12,116,41,76,74,2,3,1,5,0.7,0.8
2023-07-19T19:00:00,2377A,116.3544,27.9831,抚州市,市站,,17,17,24,8,13,87,48,67,64,6,6,4,7,0.6,1
2023-07-19T19:00:00,2378A,116.3565,27.963,抚州市,血防站,,24,24,27,9,11,77,39,58,56,8,8,4,7,0.8,0.8
2023-07-19T19:00:00,2379A,116.3564,28.0007,抚州市,采茶剧团,,18,18,23,10,12,84,40,61,59,10,9,4,4,0.7,0.7
2023-07-19T19:00:00,2380A,116.385,27.9647,抚州市,医学分院,,18,18,21,7,10,86,42,61,60,10,8,4,14,1.0,0.9
2023-07-19T19:00:00,2381A,118.005,28.4572,上饶市,百草园,,21,21,21,2,10,93,31,71,65,6,6,2,7,0.6,0.6
2023-07-19T19:00:00,2382A,117.9756,28.4436,上饶市,市监测站,,32,32,22,15,10,115,53,90,85,14,11,5,16,0.4,0.4
2023-07-19T19:00:00,2383A,117.9519,28.4628,上饶市,凤凰光学,,35,35,22,12,9,108,41,73,66,28,13,8,20,0.8,0.8
2023-07-19T19:00:00,2385A,114.17,35.9019,鹤壁市,市监测站,,42,39,47,23,31,194,132,172,163,12,14,5,4,0.7,0.7
2023-07-19T19:00:00,2386A,114.2956,35.7511,鹤壁市,市交警支队,,,48,54,14,28,169,113,139,135,14,22,,14,0.5,0.6
2023-07-19T19:00:00,2387A,114.2878,35.7306,鹤壁市,迎宾馆,,37,37,45,16,30,169,109,137,133,14,19,11,7,0.5,0.6
2023-07-19T19:00:00,2389A,113.836,35.311,新乡市,环保西院,,37,37,55,19,34,171,106,158,148,9,20,4,7,0.9,1.1
2023-07-19T19:00:00,2390A,113.884,35.272,新乡市,开发区,,34,24,38,14,22,175,107,151,141,2,17,1,2,0.4,0.7
2023-07-19T19:00:00,2391A,113.883,35.303,新乡市,环保东院,,40,40,47,14,21,170,105,153,142,9,14,4,6,0.5,0.6
2023-07-19T19:00:00,2392A,115.0312,35.7636,濮阳市,环保局,,36,35,40,24,27,164,115,136,123,11,13,1,3,0.5,0.5
2023-07-19T19:00:00,2394A,115.0574,35.7609,濮阳市,油田运输公司,,,,,,,,,,,,,,,,
2023-07-19T19:00:00,2395A,115.0866,35.7754,濮阳市,油田物探公司,,39,39,50,20,30,162,108,126,117,9,13,4,4,0.5,0.5
2023-07-19T19:00:00,2396A,113.8276,34.0159,许昌市,监测站,,32,32,37,18,23,135,96,93,90,12,15,3,4,0.3,0.3
2023-07-19T19:00:00,2398A,113.7906,33.9953,许昌市,开发区,,40,40,40,26,25,130,83,85,84,12,18,1,2,0.6,0.6
2023-07-19T19:00:00,2399A,114.051,33.5699,漯河市,三五一五工厂,,30,20,33,14,20,121,94,86,86,9,16,9,10,0.4,0.5
2023-07-19T19:00:00,2400A,114.0055,33.5698,漯河市,漯河大学,,33,19,33,15,28,133,104,88,88,8,13,13,13,0.3,0.4
2023-07-19T19:00:00,2401A,114.0138,33.5828,漯河市,市水利局,,31,19,34,7,18,128,97,86,86,9,12,7,8,0.4,0.5
2023-07-19T19:00:00,2402A,114.0261,33.5698,漯河市,市广电局,,32,17,30,13,22,127,101,89,89,7,13,10,10,0.4,0.5
2023-07-19T19:00:00,2404A,112.5224,33.0122,南阳市,瓦房庄,,33,28,44,11,19,144,105,116,104,12,16,4,5,0.5,0.5
2023-07-19T19:00:00,2405A,112.5003,32.9735,南阳市,汉画馆,,34,24,35,17,24,150,107,122,104,12,11,10,10,0.4,0.4
2023-07-19T19:00:00,2406A,112.5573,33.027,南阳市,气象站,,,,41,14,27,148,120,107,107,,17,4,4,,0.5
2023-07-19T19:00:00,2407A,112.5481,32.9689,南阳市,理工学院,,34,21,35,16,24,145,106,110,101,10,13,5,5,0.4,0.4
2023-07-19T19:00:00,2408A,115.6702,34.4285,商丘市,环境监测站,,17,14,35,7,18,93,54,82,79,8,14,8,9,0.5,0.5
2023-07-19T19:00:00,2409A,115.6458,34.4045,商丘市,粮食局,,18,3,32,5,17,93,55,82,79,10,12,2,4,0.3,0.4
2023-07-19T19:00:00,2410A,115.6293,34.3948,商丘市,睢阳区环保局,,,10,36,4,20,101,56,88,84,10,13,,5,0.5,0.6
2023-07-19T19:00:00,2420A,114.0189,32.9656,驻马店市,市一纸厂,,,,,,,,,,,,,,,,
2023-07-19T19:00:00,2421A,114.0114,33.015,驻马店市,市彩印厂,,28,14,29,9,18,120,88,95,95,2,6,6,6,0.3,0.3
2023-07-19T19:00:00,2422A,113.9976,32.9771,驻马店市,天方二分厂,,29,28,30,20,24,120,82,95,95,9,8,6,4,0.4,0.3
2023-07-19T19:00:00,2423A,115.0601,30.2313,黄石市,沈家营,,39,39,58,2,17,101,47,85,83,9,15,5,8,0.1,0.6
2023-07-19T19:00:00,2424A,115.0817,30.2006,黄石市,陈家湾,,22,22,57,13,20,120,46,97,95,21,5,5,6,0.4,0.5
2023-07-19T19:00:00,2426A,114.8988,30.2019,黄石市,铁山,,16,16,30,6,17,122,37,96,93,15,14,14,10,0.4,0.7
2023-07-19T19:00:00,2427A,115.0307,30.2092,黄石市,团城山,,35,35,47,0,14,110,47,90,88,3,5,6,8,0.2,0.5
2023-07-19T19:00:00,2428A,111.0419,32.395,十堰市,武当山,,20,6,21,13,16,148,62,140,64,8,5,7,7,0.8,0.8
2023-07-19T19:00:00,2429A,110.78,32.6494,十堰市,滨河新村,颗粒物(PM10),52,54,48,32,28,148,92,104,104,13,12,5,6,1.1,0.8
2023-07-19T19:00:00,2430A,110.7258,32.6389,十堰市,刘家沟,颗粒物(PM10),51,52,49,32,29,157,99,118,118,17,11,5,6,0.7,0.5
2023-07-19T19:00:00,2431A,110.8839,32.5714,十堰市,铁二处,,36,36,37,15,22,166,89,118,116,8,5,4,5,0.5,0.5
2023-07-19T19:00:00,2432A,112.155,32.0197,襄阳市,襄城运动路,,35,23,52,24,35,146,90,122,116,12,20,7,9,0.7,0.8
2023-07-19T19:00:00,2433A,112.1392,32.0564,襄阳市,樊城新华路,,42,38,62,29,35,153,95,109,109,15,18,6,9,0.7,0.8
2023-07-19T19:00:00,2434A,112.1825,32.1142,襄阳市,高新管委会,,46,32,57,32,44,158,91,105,105,17,25,7,11,0.6,0.5
2023-07-19T19:00:00,2435A,112.2106,32.0903,襄阳市,襄州航空路,,26,26,59,8,35,147,74,93,93,9,20,5,8,0.7,0.8
2023-07-19T19:00:00,2436A,114.8938,30.3994,鄂州市,市政府,,21,21,40,3,13,140,64,97,93,13,14,5,7,0.5,0.4
2023-07-19T19:00:00,2437A,114.8989,30.3714,鄂州市,赵家坝,,22,22,34,0,12,126,46,90,89,8,11,4,4,0.6,0.6
2023-07-19T19:00:00,2439A,112.2014,31.0481,荆门市,竹园小学,,48,48,60,31,35,163,94,119,117,15,16,10,9,0.7,0.9
2023-07-19T19:00:00,2440A,112.1969,30.9891,荆门市,掇刀,,44,44,51,28,34,164,101,138,130,23,17,21,11,0.7,0.7
2023-07-19T19:00:00,2441A,112.2213,31.0386,荆门市,石化一小,,46,43,61,32,39,166,108,123,119,14,18,5,8,0.4,0.5
2023-07-19T19:00:00,2443A,113.9153,30.9285,孝感市,文化路,,,16,18,15,14,96,69,78,76,12,12,,6,0.7,0.7
2023-07-19T19:00:00,2444A,113.942,30.9075,孝感市,东城区,,24,9,18,12,13,86,75,77,76,10,13,6,7,0.7,0.7
2023-07-19T19:00:00,2446A,114.9028,30.4742,黄冈市,职工中心,,19,13,26,6,14,126,59,87,86,3,4,5,6,0.5,0.4
2023-07-19T19:00:00,2447A,114.3175,29.8142,咸宁市,森林公园,,12,10,21,7,12,106,37,67,50,4,4,4,5,0.5,0.7
2023-07-19T19:00:00,2448A,114.3107,29.8454,咸宁市,市发改委,,,15,19,6,14,134,67,79,74,6,5,5,4,,0.5
2023-07-19T19:00:00,2449A,114.2936,29.8566,咸宁市,咸安区政府,,21,21,27,13,18,117,66,73,73,9,7,2,2,0.6,0.6
2023-07-19T19:00:00,2451A,113.3583,31.7275,随州市,市委党校,,23,19,29,16,20,122,66,96,93,2,7,7,6,0.5,0.5
2023-07-19T19:00:00,2452A,113.3833,31.6908,随州市,市林业局,,18,17,28,9,18,130,57,95,92,5,11,3,3,0.5,0.6
2023-07-19T19:00:00,2453A,113.3983,31.7308,随州市,市立交桥水厂,,26,18,25,16,18,111,82,89,89,4,10,6,6,0.6,0.6
2023-07-19T19:00:00,2454A,109.4978,30.2981,恩施土家族苗族自治州,湖北民院,,20,20,32,12,18,90,60,81,79,8,11,8,9,0.6,0.7
2023-07-19T19:00:00,2455A,109.4707,30.2798,恩施土家族苗族自治州,州电力总公司,,20,18,24,14,21,95,46,73,72,19,18,9,9,0.6,0.6
2023-07-19T19:00:00,2456A,112.5003,26.9167,衡阳市,原169医院,,26,26,19,10,11,90,65,83,83,4,9,6,9,0.3,0.4
2023-07-19T19:00:00,2457A,112.6194,26.9258,衡阳市,衡阳化工总厂,,,16,20,12,8,100,60,91,89,5,7,5,10,,0.5
2023-07-19T19:00:00,2458A,112.6211,26.8956,衡阳市,珠晖区环保局,,,15,17,,,92,63,87,85,4,12,5,6,0.5,0.6
2023-07-19T19:00:00,2459A,112.6197,26.8733,衡阳市,市委党校,,,9,16,20,8,93,63,86,85,5,10,6,8,,0.6
2023-07-19T19:00:00,2460A,112.6006,26.8919,衡阳市,市监测站,,20,19,14,4,9,93,62,87,85,6,9,5,7,0.4,0.5
2023-07-19T19:00:00,2461A,112.5664,26.9056,衡阳市,真空机电公司,,,24,20,,10,97,61,89,88,6,9,5,13,0.6,0.7
2023-07-19T19:00:00,2462A,111.5239,27.3033,邵阳市,市水土所,,32,32,26,22,20,85,54,78,76,4,5,6,7,0.4,0.5
2023-07-19T19:00:00,2463A,111.4733,27.2317,邵阳市,市一中,,24,24,30,15,17,92,62,85,84,12,5,5,6,0.5,0.5
2023-07-19T19:00:00,2464A,111.5283,27.2442,邵阳市,市化工厂,,28,28,23,17,17,96,76,89,89,12,9,6,8,0.3,0.4
2023-07-19T19:00:00,2465A,111.4503,27.2537,邵阳市,市罐头厂,,29,29,25,14,17,89,52,82,79,16,7,4,4,0.4,0.4
2023-07-19T19:00:00,2466A,111.4328,27.2272,邵阳市,市环保局,,28,28,22,17,17,92,65,84,83,15,6,3,6,0.6,0.5
