timepoint,stationcode,longitude,latitude,area,positionname,primarypollutant,aqi,pm10,pm10_24h,pm2_5,pm2_5_24h,o3,o3_24h,o3_8h,o3_8h_24h,no2,no2_24h,so2,so2_24h,co,co_24h
2022-01-10T13:00:00,1001A,116.3621,39.8784,北京市,万寿西宫,,25,25,48,6,36,62,62,56,56,10,40,4,4,0.4,0.8
2022-01-10T13:00:00,1002A,116.2202,40.2915,北京市,定陵(对照点),,49,49,37,4,27,71,71,67,67,1,19,1,2,0.2,0.5
2022-01-10T13:00:00,1003A,116.4174,39.9289,北京市,东四,,20,11,50,5,37,64,62,52,52,6,35,1,1,0.3,0.7
2022-01-10T13:00:00,1004A,116.4072,39.8863,北京市,天坛,,21,17,44,7,34,66,66,59,59,7,27,1,1,0.2,0.7
2022-01-10T13:00:00,1005A,116.462,39.9365,北京市,农展馆,,20,1,58,5,37,63,63,41,41,6,40,2,2,0.2,0.8
2022-01-10T13:00:00,1006A,116.3392,39.9295,北京市,官园,,19,14,50,7,38,58,58,49,49,8,37,3,2,0.3,0.7
2022-01-10T13:00:00,1007A,116.2878,39.9611,北京市,海淀万柳,,20,20,56,6,38,64,64,44,44,10,45,3,3,0.2,0.7
2022-01-10T13:00:00,1008A,116.6636,40.135,北京市,顺义新城,,21,10,51,5,39,65,65,45,45,5,32,1,1,0.2,0.7
2022-01-10T13:00:00,1009A,116.6275,40.3275,北京市,怀柔镇,,21,9,46,4,38,66,66,35,35,4,27,2,2,0.2,0.6
2022-01-10T13:00:00,1010A,116.2296,40.217,北京市,昌平镇,,22,0,38,3,31,68,68,60,60,5,24,3,2,0.1,0.5
2022-01-10T13:00:00,1011A,116.3966,39.9821,北京市,奥体中心,,21,10,50,5,34,68,67,60,60,6,37,2,2,0.2,0.7
2022-01-10T13:00:00,1012A,116.184,39.9136,北京市,古城,,20,19,60,4,39,64,64,44,44,4,46,3,2,0.2,0.8
2022-01-10T13:00:00,1015A,117.1444,39.1661,天津市,勤俭道,,20,20,53,6,28,65,64,27,27,10,43,5,8,0.3,0.6
2022-01-10T13:00:00,1017A,117.237,39.1082,天津市,大直沽八号路,,21,21,50,6,30,67,67,24,24,5,37,5,7,0.5,0.7
2022-01-10T13:00:00,1018A,117.202,39.0927,天津市,前进道,,22,16,44,6,26,70,70,31,31,9,38,5,7,0.3,0.5
2022-01-10T13:00:00,1019A,117.1837,39.2133,天津市,淮河道,,22,20,63,6,34,69,69,26,26,8,45,4,11,0.3,0.8
2022-01-10T13:00:00,1021A,117.307,39.0877,天津市,跃进路,,22,20,48,6,27,68,68,23,23,9,44,3,5,0.4,0.6
2022-01-10T13:00:00,1023A,117.707,39.0343,天津市,第四大街,,48,48,51,32,28,48,48,14,11,22,54,9,7,0.9,0.7
2022-01-10T13:00:00,1024A,117.457,38.8394,天津市,永明路,,45,45,44,30,27,62,54,16,16,16,38,8,9,0.7,0.6
2022-01-10T13:00:00,1026A,117.764,39.1587,天津市,汉北路,颗粒物(PM10),54,57,52,37,31,47,47,12,12,22,42,9,7,0.7,0.5
2022-01-10T13:00:00,1027A,117.157,38.9194,天津市,团泊洼(对照点),,22,15,41,7,24,69,69,24,24,12,49,4,6,0.3,0.5
2022-01-10T13:00:00,1029A,114.4422,38.0444,石家庄市,职工医院,细颗粒物(PM2.5),74,74,157,54,132,42,42,12,12,23,66,5,6,1.0,1.7
2022-01-10T13:00:00,1030A,114.6063,38.0266,石家庄市,高新区,细颗粒物(PM2.5),57,59,153,40,108,46,46,14,14,19,59,5,5,0.7,1.4
2022-01-10T13:00:00,1031A,114.4898,38.1328,石家庄市,西北水源,细颗粒物(PM2.5),74,66,175,54,134,47,47,15,15,20,66,6,6,0.3,1.1
2022-01-10T13:00:00,1032A,114.4586,38.0058,石家庄市,西南高教,细颗粒物(PM2.5),72,80,184,52,141,44,44,14,14,21,58,5,7,0.6,1.5
2022-01-10T13:00:00,1033A,114.5331,38.0178,石家庄市,世纪公园,细颗粒物(PM2.5),69,73,174,50,137,47,47,15,15,17,62,4,5,0.6,1.4
2022-01-10T13:00:00,1034A,114.509,38.0457,石家庄市,人民会堂,,,,168,,131,36,36,10,10,11,55,,7,0.5,1.4
2022-01-10T13:00:00,1035A,114.3524,37.8911,石家庄市,封龙山(对照点),细颗粒物(PM2.5),95,90,153,71,112,49,49,19,19,21,74,1,4,0.8,1.4
2022-01-10T13:00:00,1037A,118.131,39.6363,唐山市,雷达站,,,,70,,38,59,59,37,31,,37,4,8,0.3,0.8
2022-01-10T13:00:00,1038A,118.1725,39.6334,唐山市,物资局,,29,29,65,14,38,68,68,36,36,8,40,7,11,0.4,0.8
2022-01-10T13:00:00,1040A,118.1705,39.6506,唐山市,十二中,,35,35,66,6,39,71,71,38,36,8,42,5,9,0.3,0.8
2022-01-10T13:00:00,1041A,118.1869,39.622,唐山市,小山,,31,31,74,9,39,72,72,31,31,8,45,4,9,0.3,0.8
2022-01-10T13:00:00,1042A,119.5134,39.8207,秦皇岛市,北戴河环保局,,42,41,44,29,33,61,59,46,46,8,33,10,11,0.6,0.7
2022-01-10T13:00:00,1043A,119.7493,40.0116,秦皇岛市,第一关,颗粒物(PM10),66,81,60,19,37,64,64,34,34,13,46,7,12,0.4,0.6
2022-01-10T13:00:00,1044A,119.5897,39.9499,秦皇岛市,监测站,颗粒物(PM10),53,55,63,24,44,57,57,33,33,18,50,8,12,0.5,0.7
2022-01-10T13:00:00,1046A,119.5251,39.9041,秦皇岛市,建设大厦,,,69,73,38,46,52,52,31,31,16,41,,12,0.5,0.8
2022-01-10T13:00:00,1048A,114.5302,36.6116,邯郸市,东污水处理厂,细颗粒物(PM2.5),165,138,215,125,203,24,24,9,9,39,57,2,1,1.0,1.5
2022-01-10T13:00:00,1049A,114.4918,36.5713,邯郸市,矿院,细颗粒物(PM2.5),178,130,201,134,199,32,26,22,14,35,47,4,3,0.9,1.3
2022-01-10T13:00:00,1050A,114.484,36.6133,邯郸市,丛台公园,细颗粒物(PM2.5),162,136,219,123,212,30,30,20,13,41,64,6,4,0.9,1.6
2022-01-10T13:00:00,1051A,115.493,38.8632,保定市,游泳馆,细颗粒物(PM2.5),63,43,98,45,85,45,45,20,20,40,65,6,7,0.6,1
2022-01-10T13:00:00,1052A,115.5213,38.8959,保定市,华电二区,颗粒物(PM10),56,62,103,39,78,38,38,18,18,40,68,13,9,0.6,1.1
2022-01-10T13:00:00,1053A,115.4713,38.9108,保定市,接待中心,颗粒物(PM10),53,55,109,36,77,48,48,22,22,34,59,7,6,0.8,1.2
2022-01-10T13:00:00,1054A,115.4612,38.8416,保定市,地表水厂,,45,45,108,25,69,49,49,22,22,33,61,10,11,0.6,1
2022-01-10T13:00:00,1055A,115.4323,38.8697,保定市,胶片厂,,,,97,34,73,45,45,20,20,36,60,9,9,0.7,1
2022-01-10T13:00:00,1056A,115.5086,38.8639,保定市,监测站,细颗粒物(PM2.5),52,50,109,36,82,40,40,18,18,38,61,6,6,0.7,1.1
2022-01-10T13:00:00,1057A,114.8883,40.8336,张家口市,人民公园,,23,12,22,2,8,75,73,72,60,7,11,4,3,0.4,0.4
2022-01-10T13:00:00,1059A,114.8687,40.8042,张家口市,五金库,,23,22,25,10,14,73,71,65,60,7,13,6,7,0.4,0.4
2022-01-10T13:00:00,1060A,114.8902,40.762,张家口市,世纪豪园,,23,19,22,4,11,74,73,68,62,7,13,4,5,0.3,0.4
2022-01-10T13:00:00,1061A,114.8916,40.8661,张家口市,北泵房(对照点),,24,22,25,5,21,79,76,68,59,2,6,8,8,0.5,0.6
2022-01-10T13:00:00,1062A,117.9531,40.9081,承德市,铁路,,29,29,82,14,54,66,66,41,41,10,40,3,9,0.2,1.2
2022-01-10T13:00:00,1063A,117.9392,40.9763,承德市,中国银行,,31,31,78,2,59,70,70,36,36,11,42,6,10,0.5,1.3
2022-01-10T13:00:00,1064A,117.9503,40.928,承德市,开发区,,39,39,81,15,53,74,74,43,43,11,48,6,11,0.4,1.3
2022-01-10T13:00:00,1065A,117.8051,40.9655,承德市,文化中心,,22,22,73,4,55,67,66,37,37,8,45,2,7,0.3,1
2022-01-10T13:00:00,1066A,117.9268,41.0026,承德市,离宫(对照点),,22,22,56,15,44,69,69,50,50,2,28,3,5,0.2,0.7
2022-01-10T13:00:00,1067A,116.6708,39.5111,廊坊市,药材公司,,46,46,75,2,40,63,63,32,32,8,47,3,5,0.4,0.9
2022-01-10T13:00:00,1068A,116.7214,39.5589,廊坊市,开发区,,40,40,73,5,40,66,66,30,30,11,48,2,4,0.2,0.9
2022-01-10T13:00:00,1070A,116.7244,39.5269,廊坊市,北华航天学院,,45,45,81,2,36,65,65,31,31,17,50,4,6,0.2,0.8
2022-01-10T13:00:00,1071A,116.8842,38.2991,沧州市,沧县城建局,,39,39,70,12,48,66,66,17,17,13,47,6,9,0.4,0.7
2022-01-10T13:00:00,1072A,116.8584,38.3254,沧州市,电视转播站,,35,35,67,3,38,64,63,20,20,20,44,5,7,0.4,0.7
2022-01-10T13:00:00,1073A,116.8709,38.3228,沧州市,市环保局,,41,41,58,12,41,65,65,19,19,22,44,4,6,0.3,0.7
2022-01-10T13:00:00,1074A,115.6838,37.7541,衡水市,电机北厂,,49,49,194,32,182,51,51,13,13,44,51,9,9,0.6,1.4
2022-01-10T13:00:00,1075A,115.6303,37.7316,衡水市,市监测站,,,,189,,188,48,48,13,13,21,46,,6,0.3,1.1
2022-01-10T13:00:00,1077A,114.4704,37.0886,邢台市,达活泉,细颗粒物(PM2.5),84,88,222,62,198,37,37,17,17,35,75,15,9,0.7,1.8
2022-01-10T13:00:00,1078A,114.5062,37.0349,邢台市,邢师高专,细颗粒物(PM2.5),89,77,212,66,194,37,37,15,15,30,70,6,3,0.7,1.6
2022-01-10T13:00:00,1079A,114.5237,37.0851,邢台市,路桥公司,细颗粒物(PM2.5),85,72,198,63,184,37,37,17,17,27,60,6,4,0.6,1.5
2022-01-10T13:00:00,1080A,114.4725,37.0719,邢台市,市环保局,细颗粒物(PM2.5),92,91,232,68,190,34,34,14,14,36,70,12,9,0.7,1.7
2022-01-10T13:00:00,1081A,112.5139,37.8873,太原市,尖草坪,细颗粒物(PM2.5),97,116,182,72,121,44,44,18,18,37,76,32,26,1.6,1.7
2022-01-10T13:00:00,1083A,112.434,38.0108,太原市,上兰(对照点),细颗粒物(PM2.5),102,105,148,76,115,46,46,20,20,34,66,17,19,0.9,1.7
2022-01-10T13:00:00,1084A,112.469,37.7124,太原市,晋源,细颗粒物(PM2.5),107,105,200,80,162,46,46,20,20,39,84,16,26,1.2,2
2022-01-10T13:00:00,1085A,112.5583,37.7394,太原市,小店,,,,218,,163,50,50,27,27,34,79,16,32,1.2,1.9
2022-01-10T13:00:00,1086A,112.5369,37.8692,太原市,桃园,细颗粒物(PM2.5),102,103,176,76,133,48,48,25,25,36,77,25,27,1.4,1.7
2022-01-10T13:00:00,1087A,112.57,37.8195,太原市,坞城,细颗粒物(PM2.5),99,113,191,74,141,52,52,27,27,34,78,19,36,1.3,1.9
2022-01-10T13:00:00,1088A,112.549,37.9854,太原市,南寨,细颗粒物(PM2.5),88,95,167,65,117,49,49,19,19,30,67,18,20,0.8,1.6
2022-01-10T13:00:00,1090A,111.6507,40.7517,呼和浩特市,呼市一监,,44,44,75,24,49,78,62,73,60,15,21,13,11,0.6,0.7
2022-01-10T13:00:00,1091A,111.6572,40.8033,呼和浩特市,小召,颗粒物(PM10),51,51,64,29,42,70,48,67,60,31,33,16,13,0.7,0.6
2022-01-10T13:00:00,1094A,111.7516,40.8369,呼和浩特市,如意水处理厂,,21,21,41,8,27,64,52,58,57,30,30,14,13,0.6,0.6
2022-01-10T13:00:00,1095A,111.7276,40.8062,呼和浩特市,二十九中,,28,28,54,14,35,70,57,63,61,25,29,13,14,0.5,0.6
2022-01-10T13:00:00,1096A,111.5512,40.7866,呼和浩特市,工大金川校区,,50,50,82,27,53,65,56,64,42,15,26,17,18,0.5,0.7
2022-01-10T13:00:00,1097A,111.717,40.7612,呼和浩特市,化肥厂生活区,,26,24,71,18,47,66,59,61,59,15,28,12,14,0.7,0.8
2022-01-10T13:00:00,1098A,123.6836,41.9339,沈阳市,森林路(对照点),,23,21,63,16,49,59,50,41,41,7,29,12,12,0.5,0.6
2022-01-10T13:00:00,1099A,123.505,41.7406,沈阳市,浑南东路,,35,35,107,14,76,54,54,36,36,17,55,18,23,0.5,1.3
2022-01-10T13:00:00,1100A,123.4231,41.6989,沈阳市,新秀街,,,27,113,13,77,52,52,30,30,17,73,,17,0.5,1.3
2022-01-10T13:00:00,1102A,123.5903,41.8411,沈阳市,东陵路,,33,23,78,23,65,52,52,31,31,11,42,13,15,0.3,0.8
2022-01-10T13:00:00,1103A,123.4264,41.8467,沈阳市,陵东街,,23,23,116,7,77,58,58,34,34,10,62,13,21,0.5,1.5
2022-01-10T13:00:00,1104A,123.4114,41.7653,沈阳市,文化路,,23,23,108,12,84,49,49,32,32,13,61,34,33,0.3,1.4
2022-01-10T13:00:00,1105A,123.4678,41.7867,沈阳市,小河沿,,21,21,104,11,72,51,51,31,31,15,62,8,17,0.3,1.2
2022-01-10T13:00:00,1106A,123.4017,41.7972,沈阳市,太原街,,28,28,85,13,64,45,45,25,25,22,61,8,24,0.3,0.9
2022-01-10T13:00:00,1108A,123.3783,41.9228,沈阳市,京沈街,,39,39,82,7,58,55,54,43,43,8,45,7,15,0.5,1
2022-01-10T13:00:00,1109A,121.612,38.9741,大连市,甘井子,,39,39,68,25,50,55,50,42,26,25,43,10,13,0.5,0.9
2022-01-10T13:00:00,1110A,121.565,38.9511,大连市,周水子,,38,38,66,18,40,56,56,43,26,20,45,9,17,0.6,1.1
2022-01-10T13:00:00,1111A,121.5637,38.8845,大连市,星海三站,颗粒物(PM10),53,56,66,24,45,57,33,57,17,22,53,12,20,0.6,1.1
2022-01-10T13:00:00,1112A,121.6302,38.9117,大连市,青泥洼桥,,28,27,76,19,44,56,46,28,26,36,57,15,20,1.0,1.3
2022-01-10T13:00:00,1113A,121.6251,38.8638,大连市,傅家庄,颗粒物(PM10),56,61,60,37,46,43,38,24,21,30,52,14,17,0.8,1.1
2022-01-10T13:00:00,1114A,121.5213,38.8661,大连市,七贤岭,,49,49,54,25,56,63,56,62,30,16,30,12,14,0.7,1.2
2022-01-10T13:00:00,1115A,121.2529,38.8061,大连市,旅顺,,42,42,57,24,49,69,64,52,38,16,32,11,16,0.5,1
2022-01-10T13:00:00,1116A,121.7485,39.1311,大连市,金州,,49,46,86,34,61,62,47,27,22,25,41,14,18,0.8,1.1
2022-01-10T13:00:00,1117A,121.7811,39.0496,大连市,开发区,,50,50,59,30,45,54,38,22,22,34,55,12,18,0.8,1.2
2022-01-10T13:00:00,1118A,121.9762,39.0631,大连市,双D港,,45,41,69,31,51,69,62,36,28,24,53,8,20,0.4,1.1
2022-01-10T13:00:00,1119A,125.3325,43.9166,长春市,食品厂,细颗粒物(PM2.5),109,101,86,82,73,50,42,23,23,28,50,11,17,0.8,0.9
2022-01-10T13:00:00,1120A,125.2863,43.9027,长春市,客车厂,细颗粒物(PM2.5),99,111,84,74,66,60,50,28,28,26,53,1,16,0.6,0.8
2022-01-10T13:00:00,1121A,125.2841,43.8463,长春市,邮电学院,细颗粒物(PM2.5),104,134,94,78,69,52,41,20,20,26,53,11,12,0.8,1
2022-01-10T13:00:00,1122A,125.3716,43.8772,长春市,劳动公园,细颗粒物(PM2.5),105,97,85,79,76,57,57,33,33,24,47,12,14,0.7,0.9
2022-01-10T13:00:00,1123A,125.3297,43.8805,长春市,园林处,,,,71,72,56,54,50,25,25,25,50,13,19,0.7,0.7
2022-01-10T13:00:00,1124A,125.4605,43.79,长春市,净月潭,细颗粒物(PM2.5),95,101,76,71,61,73,53,36,36,24,32,5,3,0.6,0.6
2022-01-10T13:00:00,1125A,125.7194,43.515,长春市,甩湾子(对照点),细颗粒物(PM2.5),65,54,99,47,100,76,51,33,33,15,30,5,4,0.8,1.4
2022-01-10T13:00:00,1127A,125.245,43.7783,长春市,高新区管委会,细颗粒物(PM2.5),92,90,88,68,81,65,54,32,32,15,38,8,8,0.7,1
2022-01-10T13:00:00,1128A,125.1761,43.8325,长春市,岱山公园,细颗粒物(PM2.5),90,83,87,67,72,75,59,41,41,22,42,3,3,0.7,0.8
2022-01-10T13:00:00,1129A,126.5422,45.755,哈尔滨市,岭北(对照点),细颗粒物(PM2.5),236,204,147,186,104,55,22,13,13,61,55,41,21,0.9,0.5
2022-01-10T13:00:00,1130A,126.561,45.8167,哈尔滨市,松北商大,细颗粒物(PM2.5),264,217,120,214,108,48,27,19,19,66,59,18,15,2.0,1.4
2022-01-10T13:00:00,1131A,126.979,45.5419,哈尔滨市,阿城会宁,细颗粒物(PM2.5),148,130,82,113,73,69,36,31,31,39,38,30,19,1.3,1.3
2022-01-10T13:00:00,1133A,126.689,45.7733,哈尔滨市,太平宏伟公园,细颗粒物(PM2.5),169,181,173,128,145,49,32,20,20,52,70,39,29,1.5,1.8
2022-01-10T13:00:00,1134A,126.635,45.7667,哈尔滨市,道外承德广场,细颗粒物(PM2.5),216,182,136,166,120,36,14,7,7,60,62,33,27,1.5,1.5
2022-01-10T13:00:00,1135A,126.685,45.7319,哈尔滨市,香坊红旗大街,细颗粒物(PM2.5),241,237,161,191,148,50,17,15,15,79,69,82,53,2.2,1.8
2022-01-10T13:00:00,1136A,126.6411,45.7258,哈尔滨市,动力和平路,细颗粒物(PM2.5),245,270,149,195,129,43,26,22,22,39,39,53,39,1.0,0.9
2022-01-10T13:00:00,1137A,126.593,45.7478,哈尔滨市,道里建国路,细颗粒物(PM2.5),236,229,126,186,112,40,17,9,9,60,63,42,34,0.9,1
2022-01-10T13:00:00,1138A,126.615,45.61,哈尔滨市,平房东轻厂,细颗粒物(PM2.5),264,232,140,214,130,57,11,9,9,85,55,54,24,1.8,1.3
2022-01-10T13:00:00,1139A,126.595,45.9855,哈尔滨市,呼兰师专,细颗粒物(PM2.5),175,148,126,132,115,40,38,27,18,39,46,27,32,1.4,1.4
2022-01-10T13:00:00,1140A,126.6206,45.6842,哈尔滨市,省农科院,细颗粒物(PM2.5),252,216,160,202,137,37,11,10,10,72,70,44,39,2.4,1.7
2022-01-10T13:00:00,1141A,121.4,31.238,上海市,普陀,细颗粒物(PM2.5),158,98,92,120,102,76,44,57,35,68,70,6,5,1.5,1.2
2022-01-10T13:00:00,1142A,121.478,31.2036,上海市,十五厂,细颗粒物(PM2.5),139,102,80,106,97,73,42,62,51,66,53,9,7,2.0,1.5
2022-01-10T13:00:00,1143A,121.467,31.3008,上海市,虹口,细颗粒物(PM2.5),119,73,67,90,80,68,46,65,34,60,64,5,4,1.2,1
2022-01-10T13:00:00,1144A,121.412,31.1654,上海市,徐汇上师大,细颗粒物(PM2.5),169,100,78,128,108,68,39,35,29,70,70,10,8,1.7,1.4
2022-01-10T13:00:00,1145A,121.536,31.2659,上海市,杨浦四漂,细颗粒物(PM2.5),107,67,60,80,71,78,47,71,48,74,63,9,7,1.2,0.7
2022-01-10T13:00:00,1147A,121.425,31.2261,上海市,静安监测站,细颗粒物(PM2.5),162,102,89,123,104,75,45,55,42,65,63,7,6,2.2,1.3
2022-01-10T13:00:00,1148A,121.703,31.1907,上海市,浦东川沙,,,,66,,93,80,58,80,37,,44,4,4,,1.4
2022-01-10T13:00:00,1149A,121.533,31.2284,上海市,浦东新区监测站,细颗粒物(PM2.5),108,75,57,81,70,82,50,61,48,61,56,8,6,1.8,1.3
2022-01-10T13:00:00,1150A,121.577,31.2071,上海市,浦东张江,细颗粒物(PM2.5),137,82,72,104,95,84,57,67,44,58,61,6,6,1.1,1
2022-01-10T13:00:00,1151A,118.8086,32.1065,南京市,迈皋桥,细颗粒物(PM2.5),153,161,135,117,100,61,14,6,6,64,64,4,4,1.0,1
2022-01-10T13:00:00,1152A,118.7538,32.0551,南京市,草场门,细颗粒物(PM2.5),132,144,124,100,88,50,19,8,8,62,66,8,6,0.9,0.8
2022-01-10T13:00:00,1153A,118.7794,32.0745,南京市,山西路,细颗粒物(PM2.5),163,163,143,124,106,58,30,12,12,65,74,4,4,0.8,0.8
2022-01-10T13:00:00,1154A,118.7752,32.0023,南京市,中华门,细颗粒物(PM2.5),140,156,141,107,95,58,21,9,9,65,65,4,4,0.9,0.9
2022-01-10T13:00:00,1155A,118.8109,32.0309,南京市,瑞金路,细颗粒物(PM2.5),144,123,121,110,98,61,31,13,13,59,68,3,4,0.9,0.9
2022-01-10T13:00:00,1156A,118.7997,32.0754,南京市,玄武湖,细颗粒物(PM2.5),153,135,119,117,98,59,25,14,14,65,69,5,5,1.1,1
2022-01-10T13:00:00,1157A,118.6414,32.0931,南京市,浦口,细颗粒物(PM2.5),125,156,131,95,85,66,21,8,8,69,75,5,5,1.2,1.1
2022-01-10T13:00:00,1158A,118.7356,31.9996,南京市,奥体中心,细颗粒物(PM2.5),153,151,139,117,101,63,26,12,12,59,64,6,6,1.1,1.1
2022-01-10T13:00:00,1159A,118.9125,32.1028,南京市,仙林大学城,细颗粒物(PM2.5),138,146,125,105,91,68,25,8,8,62,57,11,7,1.2,1.2
2022-01-10T13:00:00,1160A,120.561,31.2472,苏州市,上方山(对照点),细颗粒物(PM2.5),199,146,91,149,109,36,23,6,6,59,63,10,8,1.2,1
2022-01-10T13:00:00,1162A,120.591,31.3019,苏州市,彩香,细颗粒物(PM2.5),203,132,98,153,125,51,35,10,10,47,66,4,6,1.1,1.2
2022-01-10T13:00:00,1163A,120.596,31.3264,苏州市,轧钢厂,细颗粒物(PM2.5),140,89,76,107,90,62,47,20,20,43,62,9,9,1.0,1.1
2022-01-10T13:00:00,1164A,120.613,31.2703,苏州市,吴中区,细颗粒物(PM2.5),182,126,95,137,111,61,16,9,9,69,69,5,5,1.2,1.2
2022-01-10T13:00:00,1165A,120.543,31.2994,苏州市,苏州新区,细颗粒物(PM2.5),208,201,146,158,123,53,24,12,12,57,55,9,9,1.1,1
2022-01-10T13:00:00,1166A,120.669,31.3097,苏州市,苏州工业园区,细颗粒物(PM2.5),190,118,104,143,101,63,37,16,16,44,56,5,5,1.0,1.2
2022-01-10T13:00:00,1167A,120.641,31.3708,苏州市,相城区,细颗粒物(PM2.5),207,123,109,157,132,62,47,25,25,47,63,5,7,1.1,1.2
2022-01-10T13:00:00,1168A,120.9098,31.9663,南通市,狼山街道,细颗粒物(PM2.5),147,114,112,112,96,83,65,68,38,38,39,4,3,1.0,0.9
2022-01-10T13:00:00,1169A,120.86,32.0005,南通市,虹桥,细颗粒物(PM2.5),147,88,91,112,110,95,69,78,49,37,39,12,9,0.8,0.8
2022-01-10T13:00:00,1170A,120.87,32.02,南通市,城中,细颗粒物(PM2.5),145,108,109,111,109,101,69,92,55,58,55,7,5,0.9,0.9
2022-01-10T13:00:00,1171A,120.94,31.93,南通市,星湖花园,细颗粒物(PM2.5),140,112,107,107,102,90,54,90,32,46,46,4,6,0.9,0.9
2022-01-10T13:00:00,1172A,120.81,32.0417,南通市,紫琅学院,细颗粒物(PM2.5),168,134,112,127,110,105,68,80,29,39,41,8,8,0.8,0.7
2022-01-10T13:00:00,1173A,119.176,34.5885,连云港市,市环境监测站,细颗粒物(PM2.5),107,122,75,80,53,91,35,48,33,39,30,7,6,0.9,0.7
2022-01-10T13:00:00,1177A,117.179,34.2761,徐州市,黄河新村,细颗粒物(PM2.5),152,166,147,116,112,74,32,25,13,77,70,8,7,1.5,1.7
2022-01-10T13:00:00,1178A,117.1918,34.2384,徐州市,淮塔,细颗粒物(PM2.5),149,116,97,114,111,77,41,44,10,58,59,10,7,1.1,1
2022-01-10T13:00:00,1180A,117.256,34.2153,徐州市,新城区,细颗粒物(PM2.5),169,166,134,128,106,92,23,60,7,70,50,9,7,1.3,0.9
2022-01-10T13:00:00,1181A,117.244,34.2911,徐州市,桃园路,细颗粒物(PM2.5),393,227,180,343,129,75,16,29,5,82,60,10,10,1.7,1.5
2022-01-10T13:00:00,1182A,117.2933,34.2778,徐州市,农科院,细颗粒物(PM2.5),185,197,150,139,129,81,8,16,5,80,51,13,11,,0.8
2022-01-10T13:00:00,1186A,119.389,32.3761,扬州市,邗江监测站,细颗粒物(PM2.5),145,117,149,111,122,97,73,49,27,37,51,13,14,0.8,0.9
2022-01-10T13:00:00,1188A,120.269,31.4867,无锡市,雪浪,细颗粒物(PM2.5),153,151,108,117,82,47,44,11,11,48,52,10,8,1.2,1.2
2022-01-10T13:00:00,1190A,120.294,31.56,无锡市,曹张,细颗粒物(PM2.5),163,149,119,124,98,42,21,11,11,59,58,11,9,1.4,1.3
2022-01-10T13:00:00,1191A,120.242,31.5031,无锡市,漆塘,细颗粒物(PM2.5),153,162,102,117,72,53,22,8,8,,36,8,6,1.2,1.2
2022-01-10T13:00:00,1192A,120.3489,31.5863,无锡市,东亭,细颗粒物(PM2.5),160,156,138,122,103,53,32,12,12,57,70,8,7,1.5,1.4
2022-01-10T13:00:00,1193A,120.354,31.5475,无锡市,旺庄,细颗粒物(PM2.5),168,149,124,127,100,57,35,17,17,54,64,11,9,1.5,1.4
2022-01-10T13:00:00,1194A,120.245,31.5631,无锡市,荣巷,细颗粒物(PM2.5),147,146,103,112,82,31,21,8,8,60,56,10,8,1.3,1.2
2022-01-10T13:00:00,1195A,120.299,31.6817,无锡市,堰桥,细颗粒物(PM2.5),178,168,153,134,112,55,51,22,22,40,66,10,8,1.3,1.4
2022-01-10T13:00:00,1196A,119.9633,31.762,常州市,市监测站,细颗粒物(PM2.5),170,172,173,129,124,35,35,14,14,58,74,8,7,0.8,0.9
2022-01-10T13:00:00,1200A,119.9468,31.7069,常州市,武进监测站,细颗粒物(PM2.5),178,173,171,134,133,31,31,8,8,57,66,3,3,1.0,1
2022-01-10T13:00:00,1201A,119.9255,31.9087,常州市,安家,细颗粒物(PM2.5),214,203,192,164,157,63,26,8,8,65,66,11,10,1.3,1.3
2022-01-10T13:00:00,1203A,119.6707,32.1875,镇江市,新区办事处,细颗粒物(PM2.5),199,165,146,149,132,77,34,21,17,58,57,8,6,1.1,1.1
2022-01-10T13:00:00,1204A,119.4974,32.1968,镇江市,职教中心,细颗粒物(PM2.5),212,165,141,162,127,79,35,32,10,50,54,7,6,1.1,1.1
2022-01-10T13:00:00,1205A,119.4303,32.1328,镇江市,丹徒区监测站,细颗粒物(PM2.5),202,180,156,152,136,81,29,6,6,56,62,6,7,0.9,1
2022-01-10T13:00:00,1206A,119.905,32.4878,泰州市,公园路,细颗粒物(PM2.5),185,175,162,139,131,106,46,43,33,48,31,8,7,1.1,1
2022-01-10T13:00:00,1207A,119.9189,32.4625,泰州市,莲花,细颗粒物(PM2.5),199,168,155,149,141,107,69,58,53,40,34,10,6,0.8,0.7
2022-01-10T13:00:00,1209A,119.888,32.4639,泰州市,留学生创业园,细颗粒物(PM2.5),168,169,166,127,121,110,69,61,54,32,28,16,7,0.8,0.8
2022-01-10T13:00:00,1210A,119.036,33.5981,淮安市,钵池山,细颗粒物(PM2.5),196,228,174,147,154,98,24,28,8,77,55,5,3,1.6,1.3
2022-01-10T13:00:00,1211A,119.007,33.575,淮安市,北京南路,细颗粒物(PM2.5),210,224,205,160,156,79,20,28,7,88,66,10,5,1.9,1.5
2022-01-10T13:00:00,1212A,118.989,33.6067,淮安市,市监测站,颗粒物(PM10),133,215,188,,129,70,40,33,8,,68,13,9,0.8,1.3
2022-01-10T13:00:00,1213A,119.135,33.5039,淮安市,楚州区监测站,细颗粒物(PM2.5),176,205,190,133,155,99,67,32,24,31,38,9,9,1.1,1.2
2022-01-10T13:00:00,1214A,119.0186,33.6297,淮安市,淮阴区监测站,细颗粒物(PM2.5),200,189,191,150,155,88,56,41,14,45,50,25,17,1.2,1.3
2022-01-10T13:00:00,1215A,120.118,33.4022,盐城市,盐城电厂,细颗粒物(PM2.5),89,103,141,66,107,97,47,18,18,42,43,9,8,0.6,0.9
2022-01-10T13:00:00,1216A,120.156,33.3942,盐城市,市监测站,细颗粒物(PM2.5),105,73,140,79,119,107,86,42,42,32,47,4,3,0.6,0.9
2022-01-10T13:00:00,1218A,120.2144,33.38,盐城市,开发区管委会,细颗粒物(PM2.5),93,75,105,69,90,94,65,23,23,35,49,2,6,0.7,1
2022-01-10T13:00:00,1220A,118.293,33.9528,宿迁市,宿迁学院,细颗粒物(PM2.5),238,198,203,188,168,63,35,10,10,71,72,6,5,1.7,1.8
2022-01-10T13:00:00,1221A,118.2442,33.9592,宿迁市,宿迁中学,细颗粒物(PM2.5),223,199,218,173,170,71,47,11,11,53,59,7,7,1.1,1.4
2022-01-10T13:00:00,1223A,120.2072,30.2111,杭州市,滨江,细颗粒物(PM2.5),69,64,68,50,69,21,21,9,9,41,60,5,5,0.9,0.8
2022-01-10T13:00:00,1224A,120.0633,30.2747,杭州市,西溪,,,100,74,68,65,29,21,8,8,,53,8,6,0.9,0.8
2022-01-10T13:00:00,1226A,120.3461,30.3153,杭州市,下沙,颗粒物(PM10),85,119,114,52,56,42,14,13,13,65,64,8,7,1.1,1
2022-01-10T13:00:00,1227A,120.1269,30.2456,杭州市,卧龙桥,细颗粒物(PM2.5),85,74,83,63,72,34,30,16,16,37,47,6,6,0.9,1
2022-01-10T13:00:00,1228A,120.1903,30.2692,杭州市,浙江农大,颗粒物(PM10),62,73,86,34,43,26,24,13,13,37,54,7,6,0.9,0.9
2022-01-10T13:00:00,1230A,120.1197,30.3119,杭州市,和睦小学,细颗粒物(PM2.5),104,109,106,78,78,22,16,8,8,47,56,5,5,0.9,0.8
2022-01-10T13:00:00,1231A,120.3019,30.4183,杭州市,临平镇,细颗粒物(PM2.5),127,134,142,96,93,54,31,14,14,45,53,6,5,1.1,1.1
2022-01-10T13:00:00,1232A,120.2697,30.1819,杭州市,城厢镇,细颗粒物(PM2.5),122,110,103,92,83,33,27,10,10,54,75,7,6,1.0,1
2022-01-10T13:00:00,1233A,120.0883,30.1808,杭州市,云栖,,43,43,60,22,37,34,34,18,18,28,37,6,6,0.8,0.8
2022-01-10T13:00:00,1234A,121.8358,29.911,宁波市,区环保大楼,颗粒物(PM10),88,126,88,48,38,75,51,22,22,42,50,13,11,1.2,1.2
2022-01-10T13:00:00,1235A,121.56,29.82,宁波市,万里学院,细颗粒物(PM2.5),93,94,61,69,43,83,54,25,25,45,39,14,14,1.1,1.1
2022-01-10T13:00:00,1236A,121.713,29.9572,宁波市,龙赛医院,细颗粒物(PM2.5),84,90,65,62,42,76,46,20,20,47,52,15,13,1.2,1.1
2022-01-10T13:00:00,1239A,121.633,29.7733,宁波市,钱湖水厂,细颗粒物(PM2.5),115,107,75,87,75,80,50,26,26,59,41,14,12,1.1,1
2022-01-10T13:00:00,1240A,121.5856,29.8635,宁波市,太古小学,,,113,91,69,43,74,47,22,22,48,44,12,9,,1.1
2022-01-10T13:00:00,1241A,121.524,29.8674,宁波市,市环境监测中心,细颗粒物(PM2.5),92,70,62,68,58,81,54,24,24,36,46,10,10,1.0,1
2022-01-10T13:00:00,1242A,120.634,28.0089,温州市,瓯海,,27,27,37,14,26,69,69,24,24,30,45,8,6,0.6,0.7
2022-01-10T13:00:00,1243A,120.6748,27.9939,温州市,南浦,,37,37,54,22,33,58,58,27,27,28,36,7,6,0.6,0.7
2022-01-10T13:00:00,1244A,120.76,27.9747,温州市,龙湾,,,37,62,20,34,49,49,20,20,37,47,,5,0.4,0.4
2022-01-10T13:00:00,1245A,120.6709,28.0167,温州市,市站,,35,35,54,20,32,64,64,30,30,24,40,6,5,0.5,0.5
2022-01-10T13:00:00,1247A,120.6053,29.9928,绍兴市,城东开发委,细颗粒物(PM2.5),149,124,103,114,96,44,44,20,20,36,40,8,8,0.8,0.8
2022-01-10T13:00:00,1250A,120.0751,30.8669,湖州市,城西水厂,细颗粒物(PM2.5),185,99,65,139,90,38,16,36,10,62,55,10,7,1.1,0.9
2022-01-10T13:00:00,1252A,120.7436,30.778,嘉兴市,清河小学,细颗粒物(PM2.5),166,170,123,126,98,72,25,12,10,61,59,12,10,1.1,0.9
2022-01-10T13:00:00,1253A,120.726,30.7478,嘉兴市,嘉兴学院,细颗粒物(PM2.5),110,151,125,83,71,69,31,14,10,57,62,15,11,1.0,0.8
2022-01-10T13:00:00,1255A,121.273,28.6459,台州市,黄岩环保大楼,,38,38,34,25,22,64,64,39,39,36,26,6,5,0.5,0.5
2022-01-10T13:00:00,1256A,121.419,28.6542,台州市,台州环保大楼,,38,38,52,25,43,79,79,40,40,26,30,6,6,0.4,0.5
2022-01-10T13:00:00,1257A,121.377,28.5773,台州市,路桥田洋王,,47,47,58,26,31,71,71,39,39,24,28,5,5,0.5,0.6
2022-01-10T13:00:00,1258A,122.122,30.0203,舟山市,定海檀枫,细颗粒物(PM2.5),69,68,42,50,31,89,89,66,52,25,27,6,5,0.7,0.6
2022-01-10T13:00:00,1259A,122.3094,29.9558,舟山市,普陀东港,细颗粒物(PM2.5),80,81,52,59,39,98,95,96,73,21,16,6,5,0.8,0.6
2022-01-10T13:00:00,1260A,122.19,29.9944,舟山市,临城新区,细颗粒物(PM2.5),77,86,50,56,31,95,95,81,60,27,24,7,5,0.8,0.7
2022-01-10T13:00:00,1262A,119.647,29.077,金华市,十五中,,,43,53,30,35,56,56,19,19,27,43,,8,0.5,0.6
2022-01-10T13:00:00,1263A,119.686,29.1029,金华市,监测站,,39,39,51,20,33,49,49,22,22,29,44,12,8,0.8,0.7
2022-01-10T13:00:00,1264A,118.8692,28.9398,衢州市,环保大楼,颗粒物(PM10),61,72,54,38,28,31,31,15,15,19,31,4,5,0.6,0.6
2022-01-10T13:00:00,1265A,118.8709,28.9666,衢州市,实验学校,,50,47,40,35,30,43,43,20,20,24,40,10,9,0.7,0.7
2022-01-10T13:00:00,1266A,118.8621,28.9808,衢州市,衢州学院,颗粒物(PM10),60,70,61,29,26,58,41,37,36,26,36,8,6,0.6,0.6
2022-01-10T13:00:00,1267A,119.914,28.4514,丽水市,监测站大楼,,33,33,26,20,22,48,48,29,29,14,25,5,5,0.5,0.5
2022-01-10T13:00:00,1268A,119.93,28.4586,丽水市,莲都小学,,31,31,30,20,20,48,48,30,30,20,32,6,6,0.5,0.5
2022-01-10T13:00:00,1269A,119.879,28.4231,丽水市,余庄前,,37,37,27,21,16,46,46,22,22,27,26,8,7,0.6,0.5
2022-01-10T13:00:00,1270A,117.1959,31.7848,合肥市,明珠广场,细颗粒物(PM2.5),79,92,100,58,62,56,21,22,10,65,58,6,6,0.7,0.8
2022-01-10T13:00:00,1271A,117.3072,31.8764,合肥市,三里街,,,107,122,73,88,68,33,23,10,,51,6,6,0.9,0.8
2022-01-10T13:00:00,1272A,117.2588,31.8707,合肥市,琥珀山庄,细颗粒物(PM2.5),83,100,108,61,66,67,44,19,16,41,49,6,6,1.1,1.1
2022-01-10T13:00:00,1273A,117.1604,31.9052,合肥市,董铺水库(对照点),细颗粒物(PM2.5),77,79,90,56,55,76,59,36,20,28,43,6,6,0.8,0.8
2022-01-10T13:00:00,1274A,117.25,31.8571,合肥市,长江中路,细颗粒物(PM2.5),83,97,96,61,63,73,34,30,14,50,49,7,7,1.6,1.4
2022-01-10T13:00:00,1275A,117.266,31.9436,合肥市,庐阳区,颗粒物(PM10),113,175,129,68,68,50,25,12,12,44,57,6,6,0.9,0.9
2022-01-10T13:00:00,1276A,117.336,31.8586,合肥市,瑶海区,,,,124,,74,74,50,22,21,32,50,6,6,,1
2022-01-10T13:00:00,1277A,117.3027,31.7964,合肥市,包河区,细颗粒物(PM2.5),113,119,118,85,84,58,37,15,15,50,51,6,6,1.0,1
2022-01-10T13:00:00,1278A,117.2776,31.7385,合肥市,滨湖新区,细颗粒物(PM2.5),94,112,101,70,67,76,42,42,16,48,49,5,5,0.9,0.9
2022-01-10T13:00:00,1279A,117.1318,31.8403,合肥市,高新区,细颗粒物(PM2.5),77,70,98,56,73,72,33,36,16,60,57,7,8,1.2,1.2
2022-01-10T13:00:00,1280A,119.3903,26.0543,福州市,鼓山(对照点),,,40,30,35,26,71,17,40,14,,39,,4,1.1,1
2022-01-10T13:00:00,1282A,119.2681,26.0504,福州市,师大,,32,26,38,22,32,70,42,38,22,23,31,2,3,0.9,0.9
2022-01-10T13:00:00,1283A,119.2984,26.1028,福州市,五四北路,,29,20,32,20,27,73,42,45,27,26,27,3,3,0.9,0.8
2022-01-10T13:00:00,1284A,119.2648,26.0768,福州市,杨桥西路,,25,15,38,17,32,66,50,40,28,14,28,3,2,0.6,0.6
2022-01-10T13:00:00,1285A,119.317,26.0746,福州市,紫阳,,39,39,40,27,31,58,29,34,16,28,31,3,4,0.9,0.7
2022-01-10T13:00:00,1286A,118.1608,24.8169,厦门市,溪东(对照点),,27,23,34,11,27,99,85,64,64,8,11,3,2,0.4,0.4
2022-01-10T13:00:00,1287A,118.1514,24.4767,厦门市,洪文,,43,43,44,27,42,123,62,48,36,27,24,6,5,0.6,0.6
2022-01-10T13:00:00,1288A,118.0661,24.4444,厦门市,鼓浪屿,,48,48,43,24,28,137,84,61,58,21,14,11,6,0.6,0.6
2022-01-10T13:00:00,1290A,115.8931,28.6843,南昌市,省外办,细颗粒物(PM2.5),79,77,92,58,67,49,49,28,26,29,41,9,9,0.8,0.8
2022-01-10T13:00:00,1291A,115.8886,28.7003,南昌市,省林业公司,细颗粒物(PM2.5),74,74,95,54,69,54,50,25,25,28,40,12,10,0.8,1
2022-01-10T13:00:00,1292A,115.8126,28.7442,南昌市,林科所,,,58,76,54,66,58,51,21,21,,35,8,7,1.0,1
2022-01-10T13:00:00,1294A,115.8518,28.687,南昌市,建工学校,细颗粒物(PM2.5),74,74,95,54,66,51,47,30,30,33,42,12,12,1.1,1.2
2022-01-10T13:00:00,1295A,115.8921,28.6424,南昌市,象湖,细颗粒物(PM2.5),70,58,68,51,62,45,43,26,26,39,48,3,3,0.9,0.9
2022-01-10T13:00:00,1296A,115.7423,28.7996,南昌市,武术学校(对照点),,,65,45,42,40,51,51,27,27,,13,2,8,1.3,1.1
2022-01-10T13:00:00,1298A,115.9314,28.6842,南昌市,省站,细颗粒物(PM2.5),89,81,91,66,72,57,50,38,38,23,30,14,12,0.9,0.9
2022-01-10T13:00:00,1299A,116.9862,36.6114,济南市,科干所,细颗粒物(PM2.5),209,190,292,159,223,26,15,15,15,59,80,5,13,1.7,2.3
2022-01-10T13:00:00,1300A,116.9376,36.665,济南市,农科所,细颗粒物(PM2.5),238,215,280,188,203,22,9,13,13,46,66,8,12,1.6,2
2022-01-10T13:00:00,1301A,117.1265,36.6734,济南市,开发区,细颗粒物(PM2.5),227,193,316,177,239,14,6,8,8,51,76,9,12,1.5,2.2
2022-01-10T13:00:00,1303A,117.0624,36.6868,济南市,省种子仓库,细颗粒物(PM2.5),236,207,294,186,236,26,9,14,14,51,68,,12,1.7,2.1
2022-01-10T13:00:00,1304A,116.9489,36.6447,济南市,机床二厂,细颗粒物(PM2.5),231,212,295,181,226,21,10,13,13,51,74,3,10,1.6,2
2022-01-10T13:00:00,1305A,117.0495,36.663,济南市,市监测站,细颗粒物(PM2.5),220,186,303,170,237,24,9,15,15,61,77,8,12,1.6,2.1
2022-01-10T13:00:00,1306A,116.7675,36.5484,济南市,长清党校,细颗粒物(PM2.5),231,212,296,181,211,52,19,11,11,45,64,5,11,1.4,1.9
2022-01-10T13:00:00,1307A,120.6659,36.2403,青岛市,仰口(对照点),细颗粒物(PM2.5),70,61,52,51,40,87,25,53,27,58,36,8,7,1.3,1.1
2022-01-10T13:00:00,1310A,120.4134,36.0658,青岛市,市南区东部子站,细颗粒物(PM2.5),113,109,52,85,31,51,4,35,24,74,54,6,7,1.9,0.9
2022-01-10T13:00:00,1311A,120.3664,36.1032,青岛市,四方区子站,细颗粒物(PM2.5),208,117,63,158,52,42,4,5,5,69,66,5,7,1.9,1
2022-01-10T13:00:00,1312A,120.2994,36.054,青岛市,市南区西部子站,细颗粒物(PM2.5),129,129,66,98,35,71,8,28,8,74,64,7,10,,0.7
2022-01-10T13:00:00,1313A,120.4581,36.0858,青岛市,崂山区子站,细颗粒物(PM2.5),113,112,55,85,34,54,6,30,17,70,64,8,10,1.9,1
2022-01-10T13:00:00,1314A,120.1983,35.9608,青岛市,黄岛区子站,细颗粒物(PM2.5),147,127,73,112,48,51,12,25,14,66,72,6,11,1.7,0.9
2022-01-10T13:00:00,1315A,120.3999,36.3083,青岛市,城阳区子站,细颗粒物(PM2.5),147,178,101,112,48,74,0,6,3,77,73,8,11,1.9,1.4
2022-01-10T13:00:00,1316A,113.69031,34.76122,郑州市,烟厂,细颗粒物(PM2.5),158,156,147,120,124,37,14,30,20,30,39,6,6,1.5,1.2
2022-01-10T13:00:00,1317A,113.65724,34.77134,郑州市,郑纺机,细颗粒物(PM2.5),166,164,135,126,136,34,16,25,23,26,40,5,5,1.8,1.7
2022-01-10T13:00:00,1318A,113.67526,34.80246,郑州市,银行学校,细颗粒物(PM2.5),175,131,125,132,139,47,14,29,25,31,38,5,5,1.7,1.4
2022-01-10T13:00:00,1319A,113.56746,34.81334,郑州市,供水公司,细颗粒物(PM2.5),186,175,147,140,152,39,14,25,23,29,41,4,4,,1.6
2022-01-10T13:00:00,1320A,113.7329,34.7178,郑州市,经开区管委,细颗粒物(PM2.5),179,132,130,135,135,41,17,36,21,23,30,4,4,1.2,1
2022-01-10T13:00:00,1321A,113.73961,34.77172,郑州市,四十七中,细颗粒物(PM2.5),202,177,158,152,133,40,13,27,22,31,32,6,6,2.0,1.4
2022-01-10T13:00:00,1322A,113.60532,34.74838,郑州市,市监测站,细颗粒物(PM2.5),193,187,154,145,146,33,16,26,18,32,45,4,4,1.3,1.3
2022-01-10T13:00:00,1323A,113.64164,34.7525,郑州市,河医大,细颗粒物(PM2.5),183,187,155,138,143,31,13,29,14,30,43,6,6,1.3,1.2
2022-01-10T13:00:00,1324A,113.51488,34.91089,郑州市,岗李水库(对照点),细颗粒物(PM2.5),188,162,123,141,150,47,20,40,31,24,32,9,8,1.5,1.4
2022-01-10T13:00:00,1325A,114.3677,30.5584,武汉市,东湖梨园,细颗粒物(PM2.5),117,82,74,88,71,47,12,24,10,45,47,10,7,1.3,1
2022-01-10T13:00:00,1326A,114.2529,30.558,武汉市,汉阳月湖,,,113,72,,58,42,16,26,10,44,53,7,6,1.2,0.9
2022-01-10T13:00:00,1327A,114.282,30.6189,武汉市,汉口花桥,细颗粒物(PM2.5),102,90,72,76,65,33,17,18,8,42,57,10,8,1.1,1.1
2022-01-10T13:00:00,1328A,114.3025,30.5332,武汉市,武昌紫阳,细颗粒物(PM2.5),128,85,68,97,73,60,10,23,8,60,61,10,6,1.4,0.9
2022-01-10T13:00:00,1329A,114.3646,30.6217,武汉市,青山钢花,细颗粒物(PM2.5),119,88,74,90,77,36,13,14,8,36,49,7,6,1.2,1.1
2022-01-10T13:00:00,1330A,114.1566,30.4825,武汉市,沌口新区,细颗粒物(PM2.5),97,119,77,72,60,52,8,17,6,56,57,11,9,1.3,1.1
2022-01-10T13:00:00,1331A,114.3014,30.5944,武汉市,汉口江滩,细颗粒物(PM2.5),108,103,75,81,74,42,16,30,12,46,51,9,7,1.2,1
2022-01-10T13:00:00,1333A,114.135,30.6319,武汉市,吴家山,细颗粒物(PM2.5),102,81,75,76,67,59,19,9,9,50,63,10,9,0.8,0.8
2022-01-10T13:00:00,1334A,113.8454,30.2917,武汉市,沉湖七壕(对照点),颗粒物(PM10),75,100,60,54,36,86,14,28,10,40,32,16,6,1.2,0.9
2022-01-10T13:00:00,1335A,113.0833,28.2325,长沙市,经开区环保局,,,43,51,48,64,59,10,16,14,,39,6,5,,0.8
2022-01-10T13:00:00,1336A,112.8872,28.2189,长沙市,高开区环保局,细颗粒物(PM2.5),85,40,40,63,58,62,14,8,8,34,43,5,4,0.8,0.8
2022-01-10T13:00:00,1337A,113.0792,28.2053,长沙市,马坡岭,细颗粒物(PM2.5),69,39,54,50,66,58,11,14,11,39,37,6,13,1.0,1
2022-01-10T13:00:00,1338A,112.9394,28.19,长沙市,湖南师范大学,细颗粒物(PM2.5),75,39,47,55,63,60,23,19,13,30,37,5,4,0.8,0.9
2022-01-10T13:00:00,1339A,113.0178,28.1322,长沙市,雨花区环保局,细颗粒物(PM2.5),63,37,51,45,65,43,12,10,9,37,41,7,7,1.1,1
2022-01-10T13:00:00,1340A,112.9792,28.2597,长沙市,伍家岭,细颗粒物(PM2.5),78,57,82,57,66,55,13,7,7,35,40,6,5,0.8,0.8
2022-01-10T13:00:00,1341A,113.0014,28.1944,长沙市,火车新站,细颗粒物(PM2.5),73,45,48,53,60,54,12,8,8,40,46,5,5,0.9,0.8
2022-01-10T13:00:00,1342A,112.9844,28.1178,长沙市,天心区环保局,细颗粒物(PM2.5),72,31,45,52,67,59,14,12,11,36,43,5,5,0.8,0.9
2022-01-10T13:00:00,1343A,112.8908,28.1308,长沙市,湖南中医药大学,细颗粒物(PM2.5),85,54,66,63,67,61,7,3,3,39,45,9,8,0.9,0.9
2022-01-10T13:00:00,1344A,112.9581,28.3611,长沙市,沙坪(对照点),细颗粒物(PM2.5),72,56,45,52,50,61,10,32,15,39,31,5,5,1.0,0.9
2022-01-10T13:00:00,1345A,113.2347,23.1423,广州市,广雅中学,颗粒物(PM10),58,65,51,34,30,43,12,7,7,46,38,7,7,1.1,1
2022-01-10T13:00:00,1346A,113.2612,23.105,广州市,市五中,,43,43,41,27,27,56,19,12,12,41,36,5,5,1.3,1.1
2022-01-10T13:00:00,1348A,113.3478,23.0916,广州市,广东商学院,,,,28,,22,30,12,9,9,,45,,6,0.7,0.7
2022-01-10T13:00:00,1349A,113.4332,23.1047,广州市,市八十六中,,42,42,47,24,25,62,13,9,9,46,36,7,6,0.9,0.9
2022-01-10T13:00:00,1350A,113.3505,22.9483,广州市,番禺中学,颗粒物(PM10),52,53,45,25,24,76,13,9,9,57,43,15,10,1.0,0.9
2022-01-10T13:00:00,1351A,113.2146,23.3916,广州市,花都师范,,35,32,29,24,22,37,26,26,18,25,27,5,5,0.8,0.8
2022-01-10T13:00:00,1352A,113.2597,23.1331,广州市,市监测站,,43,43,47,26,33,55,17,10,10,43,43,6,6,1.1,1
2022-01-10T13:00:00,1353A,113.5618,23.312,广州市,九龙镇镇龙,,38,38,39,22,25,64,14,26,20,30,26,5,5,0.7,0.7
2022-01-10T13:00:00,1354A,113.2765,23.1544,广州市,麓湖,,39,39,38,24,25,54,16,7,7,41,39,7,5,0.8,0.9
2022-01-10T13:00:00,1355A,113.443,23.3035,广州市,帽峰山森林公园(对照点),,34,34,32,21,23,63,24,11,11,27,27,5,5,1.0,1
2022-01-10T13:00:00,1356A,114.1063,22.5545,深圳市,通心岭子站,,,46,46,28,28,127,69,31,28,,29,2,2,,0.7
2022-01-10T13:00:00,1357A,114.117,22.5625,深圳市,洪湖,颗粒物(PM10),58,66,66,34,33,132,76,37,21,30,41,8,7,0.7,0.7
2022-01-10T13:00:00,1358A,113.987,22.5417,深圳市,华侨城,细颗粒物(PM2.5),54,53,43,38,28,133,49,37,26,34,31,5,5,0.6,0.5
2022-01-10T13:00:00,1359A,113.9181,22.5171,深圳市,南海子站,,,58,58,36,35,139,61,41,29,,36,,7,0.5,0.5
2022-01-10T13:00:00,1360A,114.2458,22.5689,深圳市,盐田,,41,41,43,25,28,113,73,36,36,31,42,8,7,0.7,0.7
2022-01-10T13:00:00,1361A,114.2283,22.7244,深圳市,龙岗,颗粒物(PM10),55,59,43,37,25,143,82,36,36,23,17,5,5,1.0,0.9
2022-01-10T13:00:00,1363A,114.494,22.5422,深圳市,南澳,,35,34,42,24,28,141,97,55,55,10,18,7,7,0.4,0.5
2022-01-10T13:00:00,1364A,114.41,22.6342,深圳市,葵涌,,38,38,41,23,25,141,92,39,39,11,14,6,6,0.6,0.6
2022-01-10T13:00:00,1365A,114.297,22.5978,深圳市,梅沙,,40,40,43,26,26,137,92,56,56,15,24,7,7,0.9,0.9
2022-01-10T13:00:00,1366A,114.0678,22.738,深圳市,观澜,颗粒物(PM10),57,63,49,34,26,100,65,28,22,32,27,7,7,0.8,0.8
2022-01-10T13:00:00,1367A,113.5814,22.2618,珠海市,吉大,颗粒物(PM10),51,51,62,28,36,163,47,30,30,41,46,8,8,0.7,0.7
2022-01-10T13:00:00,1368A,113.4881,22.2335,珠海市,前山,颗粒物(PM10),52,53,74,25,31,139,65,26,26,36,51,9,10,0.7,0.8
2022-01-10T13:00:00,1369A,113.628,22.4251,珠海市,唐家,细颗粒物(PM2.5),55,48,54,39,38,194,45,31,31,42,35,11,10,0.6,0.6
2022-01-10T13:00:00,1370A,113.299,22.2281,珠海市,斗门,颗粒物(PM10),54,58,85,30,55,179,63,24,24,39,55,9,9,0.8,0.8
2022-01-10T13:00:00,1371A,113.1294,23.0067,佛山市,湾梁,颗粒物(PM10),56,61,49,21,21,65,14,10,10,52,48,8,7,0.8,0.7
2022-01-10T13:00:00,1372A,113.1083,23.0478,佛山市,华材职中,颗粒物(PM10),58,66,46,29,25,52,10,7,7,43,32,10,8,0.8,0.8
2022-01-10T13:00:00,1373A,113.144,23.0453,佛山市,南海气象局,,50,50,41,21,25,52,6,2,2,51,44,6,5,1.0,0.8
2022-01-10T13:00:00,1374A,113.2881,22.8094,佛山市,顺德苏岗,,,45,44,29,28,78,20,12,12,52,50,5,4,,0.8
2022-01-10T13:00:00,1376A,112.8383,22.8678,佛山市,高明孔堂,,43,43,41,26,23,54,12,7,7,40,39,10,8,1.0,0.9
2022-01-10T13:00:00,1377A,112.8836,23.1588,佛山市,三水监测站,,49,41,34,34,24,37,5,3,3,37,33,18,10,0.8,0.8
2022-01-10T13:00:00,1378A,112.867,23.185,佛山市,三水云东海,细颗粒物(PM2.5),55,39,36,39,22,45,11,7,7,36,33,32,13,0.8,0.8
2022-01-10T13:00:00,1379A,113.3769,22.5211,中山市,华柏园,"颗粒物(PM10),细颗粒物(PM2.5)",54,57,57,38,39,131,28,18,18,55,53,7,6,0.8,0.8
2022-01-10T13:00:00,1380A,113.3881,22.5497,中山市,张溪,细颗粒物(PM2.5),57,62,68,40,43,123,31,20,20,50,47,6,6,0.9,0.8
2022-01-10T13:00:00,1381A,113.4075,22.5111,中山市,紫马岭,颗粒物(PM10),57,63,60,30,30,144,31,18,18,47,49,6,8,0.8,0.8
2022-01-10T13:00:00,1382A,113.4411,22.4853,中山市,长江旅游区(对照点),,48,44,52,33,34,137,43,22,22,48,53,6,6,0.8,0.8
2022-01-10T13:00:00,1383A,113.1064,22.6058,江门市,北街,,,,54,27,25,66,27,14,14,49,57,,8,1.0,1
2022-01-10T13:00:00,1384A,113.0731,22.5835,江门市,西区,颗粒物(PM10),52,54,61,26,29,75,26,13,13,47,57,9,7,0.8,0.8
2022-01-10T13:00:00,1385A,113.0219,22.5311,江门市,圭峰西,,50,50,53,28,32,79,28,13,13,51,59,7,5,0.8,0.9
2022-01-10T13:00:00,1386A,113.0828,22.5947,江门市,东湖,颗粒物(PM10),53,55,63,27,30,75,28,14,14,43,53,11,8,0.8,0.8
2022-01-10T13:00:00,1389A,113.7547,23.0494,东莞市,莞城梨川,,44,44,34,27,24,64,40,33,31,36,24,10,9,0.8,0.7
2022-01-10T13:00:00,1390A,113.7944,23.0128,东莞市,东城石井,,37,37,31,23,21,85,54,28,28,35,29,9,7,0.8,0.8
2022-01-10T13:00:00,1391A,113.7383,22.9658,东莞市,南城西平,,49,49,35,33,29,95,45,19,19,42,36,6,5,0.9,0.9
2022-01-10T13:00:00,1392A,114.4183,23.0528,惠州市,河南岸金山湖子站,,42,42,32,22,21,63,36,29,21,25,25,4,5,0.7,0.7
2022-01-10T13:00:00,1393A,114.4053,23.0822,惠州市,下埔横江三路子站,,42,42,31,21,17,59,39,28,23,24,26,7,5,0.7,0.7
2022-01-10T13:00:00,1394A,114.4103,23.1142,惠州市,江北云山西路子站,,33,32,29,23,22,62,35,28,20,20,22,4,4,0.7,0.6
2022-01-10T13:00:00,1395A,114.4645,22.7833,惠州市,惠阳区承修路船湖子站,颗粒物(PM10),53,56,43,31,23,79,53,20,20,31,29,4,4,0.8,0.7
2022-01-10T13:00:00,1396A,114.5317,22.7422,惠州市,大亚湾管委会子站,,40,40,38,21,24,98,92,27,27,13,27,1,3,0.7,0.8
2022-01-10T13:00:00,1397A,112.4267,23.0706,肇庆市,睦岗子站,,40,40,38,25,22,43,16,15,13,33,35,8,8,0.9,0.9
2022-01-10T13:00:00,1398A,112.4645,23.0475,肇庆市,城中子站,,40,40,36,26,22,61,17,17,11,34,36,10,9,0.8,0.7
2022-01-10T13:00:00,1399A,112.5544,23.1522,肇庆市,坑口子站,,40,40,34,27,23,53,17,14,11,32,33,10,9,0.8,0.8
2022-01-10T13:00:00,1400A,112.4753,23.1,肇庆市,七星岩子站(对照点),,42,38,35,29,25,47,11,11,9,29,30,7,7,0.8,0.8
2022-01-10T13:00:00,1401A,108.3103,22.7881,南宁市,二十一中,,,21,24,,13,15,8,11,8,20,21,6,7,1.2,1.1
2022-01-10T13:00:00,1402A,108.3141,22.8528,南宁市,北湖,,27,27,28,15,18,16,10,8,8,17,20,11,13,1.0,1
2022-01-10T13:00:00,1403A,108.3206,22.8225,南宁市,市监测站,,33,33,27,13,16,14,8,12,8,30,33,8,10,1.2,1.1
2022-01-10T13:00:00,1404A,108.3829,22.8037,南宁市,大自然花园,,28,28,19,17,15,18,6,12,7,26,24,8,6,1.2,1.1
2022-01-10T13:00:00,1405A,108.4394,22.7904,南宁市,仙葫(对照点),,23,23,17,13,13,22,5,12,7,22,19,6,6,1.6,1.5
2022-01-10T13:00:00,1406A,108.2397,22.8467,南宁市,区农职院,,20,20,27,14,16,14,8,5,5,23,30,8,9,1.2,1.1
2022-01-10T13:00:00,1407A,108.3275,22.735,南宁市,英华嘉园,,26,26,20,12,13,16,8,12,10,27,25,7,6,1.5,1.3
2022-01-10T13:00:00,1408A,108.2257,22.7757,南宁市,沙井镇街道办,,30,30,29,19,18,11,6,4,4,20,26,6,7,1.1,1
2022-01-10T13:00:00,1409A,110.576,19.9507,海口市,东寨港(对照点),,,40,29,17,12,100,84,76,60,1,2,8,5,,0.4
2022-01-10T13:00:00,1410A,110.3232,20.0574,海口市,海南大学,,29,23,31,14,16,124,90,86,76,5,5,4,5,0.4,0.4
2022-01-10T13:00:00,1411A,110.283,20.0053,海口市,秀英海南医院,,32,32,32,17,17,117,87,91,80,5,6,2,4,0.4,0.4
2022-01-10T13:00:00,1412A,110.338,19.9969,海口市,海南师范大学,,27,26,31,14,15,112,84,82,74,5,8,3,3,0.4,0.4
2022-01-10T13:00:00,1413A,110.33,20.0356,海口市,龙华路环保局宿舍,,38,38,34,16,16,124,89,82,78,6,10,4,5,0.4,0.4
2022-01-10T13:00:00,1414A,106.3787,29.8279,重庆市,缙云山(对照点),,,,46,,30,65,43,55,39,,33,7,5,,0.6
2022-01-10T13:00:00,1416A,106.4213,29.8253,重庆市,天生,细颗粒物(PM2.5),64,58,64,46,49,38,38,29,16,20,46,8,9,0.2,0.3
2022-01-10T13:00:00,1417A,106.6263,29.7228,重庆市,两路,细颗粒物(PM2.5),80,101,62,59,44,54,19,33,9,36,45,11,9,0.9,1
2022-01-10T13:00:00,1418A,106.2953,29.5983,重庆市,虎溪,细颗粒物(PM2.5),64,62,62,46,46,42,31,41,18,28,47,10,9,0.1,0.1
2022-01-10T13:00:00,1419A,106.5777,29.5102,重庆市,南坪,颗粒物(PM10),72,93,61,47,35,73,9,15,7,48,45,13,8,1.3,1.1
2022-01-10T13:00:00,1420A,106.6556,29.6277,重庆市,唐家沱,颗粒物(PM10),72,93,62,45,35,62,16,43,10,39,36,9,8,1.2,1.1
2022-01-10T13:00:00,1421A,106.6349,29.4906,重庆市,茶园,细颗粒物(PM2.5),94,91,70,70,48,30,11,10,5,42,48,12,9,0.6,0.6
2022-01-10T13:00:00,1422A,106.3754,29.4572,重庆市,白市驿,细颗粒物(PM2.5),114,88,74,86,48,52,24,28,16,30,41,16,9,0.9,0.9
2022-01-10T13:00:00,1425A,106.6205,29.7166,重庆市,空港,细颗粒物(PM2.5),105,87,57,79,46,70,19,35,8,37,41,15,12,0.5,0.5
2022-01-10T13:00:00,1426A,106.4782,29.4875,重庆市,新山村,细颗粒物(PM2.5),70,67,58,51,46,45,16,20,10,38,52,3,4,1.2,1.3
2022-01-10T13:00:00,1427A,106.5616,29.6453,重庆市,礼嘉,细颗粒物(PM2.5),62,66,55,44,32,49,27,40,18,41,44,12,11,1.0,1
2022-01-10T13:00:00,1428A,106.4522,29.7091,重庆市,蔡家,细颗粒物(PM2.5),74,69,67,54,49,31,26,8,8,28,54,7,6,1.1,1.1
2022-01-10T13:00:00,1429A,106.5093,29.3917,重庆市,鱼新街,细颗粒物(PM2.5),78,93,64,57,42,38,11,26,11,41,42,23,11,1.0,0.9
2022-01-10T13:00:00,1431A,103.9728,30.7236,成都市,金泉两河,细颗粒物(PM2.5),99,93,104,74,81,16,16,3,3,57,40,3,2,0.8,0.9
2022-01-10T13:00:00,1432A,104.1419,30.6764,成都市,十里店,细颗粒物(PM2.5),67,72,105,48,70,35,29,6,6,50,42,5,5,0.9,1
2022-01-10T13:00:00,1433A,104.0594,30.5767,成都市,三瓦窑,细颗粒物(PM2.5),90,82,100,67,79,30,14,6,6,56,40,3,3,1.0,1
2022-01-10T13:00:00,1434A,104.1122,30.6306,成都市,沙河铺,细颗粒物(PM2.5),89,75,96,66,83,33,8,5,5,67,40,7,7,1.3,1
2022-01-10T13:00:00,1437A,104.0431,30.6556,成都市,君平街,细颗粒物(PM2.5),92,85,114,68,92,19,19,7,7,63,48,9,8,1.3,1.2
2022-01-10T13:00:00,1438A,103.6202,31.0201,成都市,灵岩寺(对照点),,22,15,43,15,23,51,51,45,45,7,18,5,6,0.8,1
2022-01-10T13:00:00,1439A,106.6899,26.5998,贵阳市,马鞍山,,,,27,,24,44,14,35,12,,20,10,10,0.7,0.7
2022-01-10T13:00:00,1440A,106.6971,26.5694,贵阳市,市环保站,,,27,33,21,20,34,23,20,15,27,26,,8,0.6,0.5
2022-01-10T13:00:00,1441A,106.6243,26.6266,贵阳市,鉴湖路,,22,22,35,5,19,41,18,36,16,18,21,10,12,0.8,0.8
2022-01-10T13:00:00,1442A,106.7487,26.6343,贵阳市,燕子冲,,42,27,32,29,32,57,18,28,16,16,18,9,9,1.0,0.9
2022-01-10T13:00:00,1443A,106.6555,26.4365,贵阳市,碧云窝,,46,46,39,22,16,54,20,37,19,21,19,18,11,0.9,0.9
2022-01-10T13:00:00,1444A,106.694,26.5161,贵阳市,中院村,,32,29,32,22,19,39,16,36,14,23,23,24,14,1.0,0.9
2022-01-10T13:00:00,1445A,106.7109,26.6027,贵阳市,红边门,,,22,36,27,25,44,,26,15,19,29,15,13,1.2,1
2022-01-10T13:00:00,1446A,106.7164,26.5699,贵阳市,新华路,,28,27,35,19,22,41,16,33,14,17,23,9,10,0.5,0.5
2022-01-10T13:00:00,1447A,106.674,26.5424,贵阳市,太慈桥,,34,34,39,9,18,45,14,38,11,25,23,13,14,0.9,0.9
2022-01-10T13:00:00,1450A,102.8204,24.8886,昆明市,呈贡新区,,28,19,23,8,12,96,89,76,76,9,14,5,6,0.1,0.2
2022-01-10T13:00:00,1451A,102.6251,24.9608,昆明市,西山森林公园(对照点),,37,37,18,8,11,90,82,73,72,8,11,9,10,0.3,0.4
2022-01-10T13:00:00,1452A,102.7252,25.0902,昆明市,龙泉镇,,29,16,35,7,15,92,90,56,46,6,30,8,9,0.2,0.4
2022-01-10T13:00:00,1453A,102.7266,25.0375,昆明市,东风东路,,27,14,23,7,10,92,85,63,60,11,22,7,7,0.4,0.5
2022-01-10T13:00:00,1454A,102.6742,25.0669,昆明市,金鼎山,,25,0,26,6,14,87,80,60,60,9,23,9,10,0.3,0.4
2022-01-10T13:00:00,1455A,102.6644,25.0401,昆明市,碧鸡广场,,25,20,23,10,14,80,79,58,58,9,30,9,10,0.1,0.3
2022-01-10T13:00:00,1456A,91.1319,29.6514,拉萨市,八廓街,,24,24,19,16,14,88,74,65,59,15,18,7,8,0.8,0.7
2022-01-10T13:00:00,1457A,91.1221,29.6747,拉萨市,市环保局,,33,33,31,20,19,81,69,46,46,23,34,6,7,0.7,1
2022-01-10T13:00:00,1459A,91.1774,29.6541,拉萨市,西藏大学,,28,28,17,12,8,97,79,77,65,10,11,3,3,0.4,0.5
2022-01-10T13:00:00,1460A,90.9798,29.6588,拉萨市,区辐射站,颗粒物(PM10),56,61,44,34,28,75,54,36,36,24,33,7,8,0.7,0.9
2022-01-10T13:00:00,1461A,91.0834,29.6292,拉萨市,拉萨火车站,,23,23,19,14,6,85,56,51,30,25,23,6,6,0.7,0.7
2022-01-10T13:00:00,1462A,108.882,34.2749,西安市,高压开关厂,细颗粒物(PM2.5),117,102,147,88,146,94,94,57,57,12,29,12,9,0.7,1.2
2022-01-10T13:00:00,1463A,108.993,34.2629,西安市,兴庆小区,细颗粒物(PM2.5),123,114,136,93,142,80,80,46,46,15,33,10,7,1.1,1.7
2022-01-10T13:00:00,1464A,109.06,34.2572,西安市,纺织城,细颗粒物(PM2.5),132,127,159,100,143,84,84,30,30,15,41,7,6,1.2,1.7
2022-01-10T13:00:00,1465A,108.9356,34.2173,西安市,小寨,细颗粒物(PM2.5),119,115,170,90,152,87,87,54,54,18,39,10,7,0.7,1.2
2022-01-10T13:00:00,1466A,108.954,34.2713,西安市,市人民体育场,细颗粒物(PM2.5),120,109,142,91,147,84,84,44,44,16,34,11,8,1.1,1.6
2022-01-10T13:00:00,1467A,108.8922,34.2322,西安市,高新西区,细颗粒物(PM2.5),119,118,150,90,152,88,88,52,52,12,31,,8,0.9,1.5
2022-01-10T13:00:00,1468A,108.935,34.3474,西安市,经开区,细颗粒物(PM2.5),129,102,136,98,159,85,85,44,44,11,30,9,7,1.0,1.5
2022-01-10T13:00:00,1469A,108.906,34.1546,西安市,长安区,细颗粒物(PM2.5),103,121,164,77,139,91,91,62,62,13,34,9,6,1.3,2
2022-01-10T13:00:00,1471A,109.2186,34.3731,西安市,临潼区,细颗粒物(PM2.5),170,144,144,129,151,83,83,63,54,18,29,13,10,1.2,1.5
2022-01-10T13:00:00,1472A,108.869,34.378,西安市,草滩(对照点),细颗粒物(PM2.5),112,104,150,84,157,87,87,40,40,15,36,8,6,0.9,1.4
2022-01-10T13:00:00,1473A,108.985,34.1978,西安市,曲江文化产业集团,细颗粒物(PM2.5),105,117,167,79,135,84,84,51,51,14,35,10,7,0.8,1.3
2022-01-10T13:00:00,1474A,109.051,34.3213,西安市,广运潭,细颗粒物(PM2.5),142,109,139,108,150,89,89,36,36,8,30,14,12,1.0,1.5
2022-01-10T13:00:00,1476A,103.631,36.1031,兰州市,兰炼宾馆,颗粒物(PM10),73,96,132,43,67,92,70,72,64,38,37,10,13,0.9,1
2022-01-10T13:00:00,1477A,104.1373,35.9454,兰州市,榆中兰大校区(对照点),颗粒物(PM10),61,72,110,15,45,113,91,107,86,26,28,21,13,1.1,1.3
2022-01-10T13:00:00,1478A,103.8412,36.0726,兰州市,生物制品所,颗粒物(PM10),62,73,139,33,55,100,63,81,65,40,34,20,16,1.1,0.9
2022-01-10T13:00:00,1479A,103.831,36.0464,兰州市,铁路设计院,,,75,131,32,54,81,49,74,52,60,57,,19,,1.1
2022-01-10T13:00:00,1483A,101.524,36.6867,西宁市,第五水厂(对照点),"颗粒物(PM10),细颗粒物(PM2.5)",82,114,97,60,50,90,74,70,48,42,37,19,16,2.3,1.8
2022-01-10T13:00:00,1484A,105.9512,38.6016,银川市,贺兰山马莲口(对照点),细颗粒物(PM2.5),112,110,240,84,181,79,72,62,62,25,43,21,13,0.5,0.7
2022-01-10T13:00:00,1488A,106.2328,38.4975,银川市,贺兰山东路,细颗粒物(PM2.5),122,122,303,92,229,54,54,33,25,37,72,12,25,1.0,3.1
2022-01-10T13:00:00,1489A,106.1358,38.5036,银川市,学院路,细颗粒物(PM2.5),115,144,304,87,213,64,64,29,29,33,78,16,22,1.2,3.6
2022-01-10T13:00:00,1490A,87.5801,43.8303,乌鲁木齐市,监测站,细颗粒物(PM2.5),110,77,134,83,155,46,6,4,4,73,86,5,4,2.1,2.1
2022-01-10T13:00:00,1491A,87.6046,43.768,乌鲁木齐市,收费所,细颗粒物(PM2.5),87,101,135,64,132,37,14,6,6,55,73,2,3,1.2,1.7
2022-01-10T13:00:00,1492A,87.4754,43.9469,乌鲁木齐市,新疆农科院农场(对照点),细颗粒物(PM2.5),222,145,246,172,232,45,19,8,8,64,96,8,10,1.3,1.7
2022-01-10T13:00:00,1493A,87.5525,43.8711,乌鲁木齐市,铁路局,细颗粒物(PM2.5),247,204,188,197,220,32,5,4,4,88,77,6,5,3.7,2.7
2022-01-10T13:00:00,1494A,87.6432,43.831,乌鲁木齐市,三十一中学,细颗粒物(PM2.5),104,68,137,78,159,52,7,4,4,79,90,12,10,1.8,1.8
2022-01-10T13:00:00,1496A,87.7216,44.1747,乌鲁木齐市,米东区环保局,细颗粒物(PM2.5),248,228,261,198,237,38,22,14,11,76,82,4,4,2.8,3
2022-01-10T13:00:00,1508A,112.9433,27.8614,湘潭市,板塘,细颗粒物(PM2.5),65,53,65,47,68,58,7,5,5,37,52,5,7,0.6,0.8
2022-01-10T13:00:00,1511A,112.9118,27.8403,湘潭市,市监测站,细颗粒物(PM2.5),75,49,76,55,70,55,6,5,5,38,42,6,8,1.4,0.9
2022-01-10T13:00:00,1512A,112.8937,27.8728,湘潭市,江麓,细颗粒物(PM2.5),79,58,75,58,71,70,11,4,4,36,42,8,9,0.7,0.7
2022-01-10T13:00:00,1513A,112.9227,27.8159,湘潭市,岳塘,细颗粒物(PM2.5),72,52,71,52,66,63,15,14,12,41,46,4,4,1.0,0.9
2022-01-10T13:00:00,1514A,112.9074,27.9119,湘潭市,科大,细颗粒物(PM2.5),79,61,83,58,70,64,13,9,9,40,45,5,6,0.8,0.8
2022-01-10T13:00:00,1515A,113.135,27.8244,株洲市,天台山庄,,,,71,63,77,40,16,10,9,,37,,6,0.5,0.6
2022-01-10T13:00:00,1518A,113.095,27.8867,株洲市,株冶医院,细颗粒物(PM2.5),58,48,74,41,68,30,18,13,13,35,47,5,5,1.0,1
2022-01-10T13:00:00,1519A,113.167,27.8667,株洲市,市四中,细颗粒物(PM2.5),77,80,91,56,79,35,18,12,12,34,38,6,6,0.8,0.8
2022-01-10T13:00:00,1520A,113.143,27.8381,株洲市,火车站,细颗粒物(PM2.5),77,75,92,56,69,40,21,11,11,41,47,6,6,0.9,0.9
2022-01-10T13:00:00,1524A,113.13,27.8528,株洲市,市监测站,细颗粒物(PM2.5),85,68,85,63,84,37,16,11,11,40,47,4,6,0.6,0.6
2022-01-10T13:00:00,1552A,106.805,26.3003,贵阳市,桐木岭(对照点),,32,29,24,22,16,69,30,44,29,10,5,8,8,0.9,0.7
2022-01-10T13:00:00,1559A,113.251,27.8336,株洲市,大京风景区(对照点),细颗粒物(PM2.5),72,66,76,52,66,42,29,15,15,28,31,5,5,0.7,0.7
2022-01-10T13:00:00,1562A,113.0048,27.9153,湘潭市,昭山,细颗粒物(PM2.5),72,48,71,52,69,46,4,3,3,40,42,5,5,0.9,0.7
2022-01-10T13:00:00,1564A,112.4876,27.9164,湘潭市,韶山(对照点),细颗粒物(PM2.5),77,67,62,56,41,71,53,35,35,18,19,5,4,0.7,0.6
2022-01-10T13:00:00,1585A,109.8756,40.6532,包头市,市环境监测站,,,26,76,6,49,73,73,62,58,,28,4,13,0.4,1.4
2022-01-10T13:00:00,1587A,109.9991,40.5842,包头市,包头八中,,38,38,87,19,49,70,55,62,56,28,32,15,19,0.9,0.9
2022-01-10T13:00:00,1588A,109.8538,40.6821,包头市,青山宾馆,,29,29,61,13,40,74,74,60,58,11,24,6,11,0.3,0.8
2022-01-10T13:00:00,1589A,109.8642,40.6288,包头市,惠龙物流,,40,40,94,19,60,63,44,60,50,32,30,24,19,1.9,1.5
2022-01-10T13:00:00,1590A,110.0377,40.5546,包头市,东河鸿龙湾,,28,28,61,8,43,64,59,58,52,22,28,17,18,0.8,0.9
2022-01-10T13:00:00,1591A,110.0023,39.8129,鄂尔多斯市,综合楼,,39,39,83,17,54,79,75,60,60,10,36,6,14,0.3,0.8
2022-01-10T13:00:00,1592A,109.9486,39.8261,鄂尔多斯市,巴音孟克林场办事处,,41,41,75,9,45,96,80,64,64,11,35,8,17,0.5,1
2022-01-10T13:00:00,1593A,109.7736,39.5986,鄂尔多斯市,康泽苑,,39,39,55,2,34,113,82,72,72,14,28,7,10,0.3,0.7
2022-01-10T13:00:00,1594A,109.8119,39.5989,鄂尔多斯市,华泰汽车城,,,,63,7,43,104,79,62,62,11,31,6,10,0.3,0.7
2022-01-10T13:00:00,1595A,109.9734,39.7884,鄂尔多斯市,奥林花园,,31,31,73,5,40,94,80,68,68,6,29,8,15,0.5,1
2022-01-10T13:00:00,1597A,122.2703,40.7094,营口市,大庆路,,,20,146,11,107,75,68,52,52,11,45,10,12,,1.6
2022-01-10T13:00:00,1598A,122.215,40.6511,营口市,镜湖西路,,,58,116,9,86,66,45,41,41,,40,7,11,0.7,0.9
2022-01-10T13:00:00,1599A,122.167,40.6655,营口市,西炮台,,25,25,100,11,80,57,38,35,35,9,38,7,10,0.3,0.9
2022-01-10T13:00:00,1600A,124.3303,40.0625,丹东市,江湾东路,细颗粒物(PM2.5),77,74,70,56,55,74,50,39,33,30,37,17,21,1.5,1.5
2022-01-10T13:00:00,1601A,124.4256,40.1503,丹东市,临江后街,细颗粒物(PM2.5),64,67,85,46,60,78,50,24,24,30,49,20,30,1.4,1.5
2022-01-10T13:00:00,1602A,124.3933,40.1461,丹东市,元宝山,细颗粒物(PM2.5),73,70,62,53,48,78,54,38,31,25,28,16,23,1.5,1.2
2022-01-10T13:00:00,1603A,124.3633,40.1092,丹东市,民主桥,细颗粒物(PM2.5),75,70,65,55,46,71,43,37,30,37,39,17,17,1.5,1.2
2022-01-10T13:00:00,1604A,122.0303,41.1489,盘锦市,开发区,,26,26,68,7,63,74,72,65,65,10,40,5,11,0.7,1.2
2022-01-10T13:00:00,1605A,122.0485,41.0883,盘锦市,兴隆台,,22,22,70,9,50,68,66,60,60,14,46,9,15,0.6,0.9
2022-01-10T13:00:00,1606A,121.8297,41.1028,盘锦市,新生街道,,21,19,78,9,56,65,65,58,58,14,47,8,17,0.6,1
2022-01-10T13:00:00,1607A,120.9092,40.7136,葫芦岛市,龙港区,,45,45,69,14,57,69,64,56,56,11,36,22,38,1.1,1.6
2022-01-10T13:00:00,1608A,120.8392,40.7514,葫芦岛市,化工街,,21,16,73,6,47,65,65,57,57,6,38,9,43,1.1,1.8
2022-01-10T13:00:00,1609A,120.8341,40.7073,葫芦岛市,新区,,20,16,69,7,55,64,64,58,58,8,36,10,24,0.5,1.1
2022-01-10T13:00:00,1610A,120.8695,40.7677,葫芦岛市,东城区,,,,97,7,61,67,67,62,62,5,41,4,66,,1.3
2022-01-10T13:00:00,1611A,118.5819,24.9117,泉州市,涂山街,,28,28,36,19,32,110,75,44,43,21,26,7,8,0.6,0.6
2022-01-10T13:00:00,1612A,118.5972,24.8978,泉州市,津头埔,,33,33,41,18,33,122,82,44,42,22,28,8,8,0.5,0.6
2022-01-10T13:00:00,1613A,118.6663,24.9424,泉州市,万安,,28,28,40,16,36,114,79,42,38,15,24,5,6,0.5,0.6
2022-01-10T13:00:00,1614A,118.6117,24.9604,泉州市,清源山(对照点),,27,21,34,15,31,116,84,56,56,12,19,7,8,0.4,0.6
2022-01-10T13:00:00,1616A,117.6795,36.229,济南市,技术学院,细颗粒物(PM2.5),182,136,272,137,222,78,30,10,10,47,67,3,11,1.8,2.2
2022-01-10T13:00:00,1618A,118.3429,35.0532,临沂市,沂河小区,细颗粒物(PM2.5),244,,146,194,110,77,15,61,20,76,54,,19,,1
2022-01-10T13:00:00,1619A,118.295,35.0583,临沂市,鲁南制药厂,细颗粒物(PM2.5),238,249,141,188,117,79,13,52,21,106,60,20,28,1.7,1.2
2022-01-10T13:00:00,1620A,118.2794,34.9976,临沂市,新光毛纺厂,细颗粒物(PM2.5),216,251,150,166,112,72,9,29,14,94,61,16,26,2.1,1.4
2022-01-10T13:00:00,1621A,118.3956,35.0888,临沂市,河东保险公司,细颗粒物(PM2.5),203,180,137,153,98,80,18,26,10,75,61,10,11,1.2,1
2022-01-10T13:00:00,1622A,116.3032,37.4674,德州市,儿童乐园,颗粒物(PM10),57,64,227,30,179,66,54,66,16,18,44,14,9,0.9,1.7
2022-01-10T13:00:00,1624A,116.2991,37.4451,德州市,监理站,细颗粒物(PM2.5),110,70,239,83,210,75,54,71,16,28,53,19,12,0.5,1.2
2022-01-10T13:00:00,1625A,115.9848,36.4372,聊城市,区政府,细颗粒物(PM2.5),261,250,236,211,182,59,18,6,6,39,50,8,9,1.5,1.6
2022-01-10T13:00:00,1628A,118.0062,37.3803,滨州市,市环保局,细颗粒物(PM2.5),62,58,56,44,34,79,43,20,20,21,34,12,17,0.4,0.4
2022-01-10T13:00:00,1629A,118.0018,37.3617,滨州市,第二水厂,,,,60,,32,58,31,15,15,21,37,14,18,0.7,0.8
2022-01-10T13:00:00,1630A,117.9776,37.393,滨州市,北中新校,细颗粒物(PM2.5),54,47,58,38,33,75,47,20,20,24,42,13,16,0.5,0.6
2022-01-10T13:00:00,1631A,118.0414,36.8103,淄博市,人民公园,细颗粒物(PM2.5),182,158,194,137,139,41,15,7,7,46,63,25,30,1.1,1.9
2022-01-10T13:00:00,1633A,117.8525,36.4847,淄博市,双山,细颗粒物(PM2.5),262,256,299,212,250,97,7,11,6,59,72,13,19,2.8,2.2
2022-01-10T13:00:00,1634A,117.9592,36.6331,淄博市,气象站,细颗粒物(PM2.5),211,189,337,161,256,57,17,13,13,50,82,22,37,2.2,3.2
2022-01-10T13:00:00,1635A,118.3092,36.8194,淄博市,莆田园,细颗粒物(PM2.5),153,119,120,117,95,69,19,11,11,48,57,35,24,0.9,1.1
2022-01-10T13:00:00,1637A,117.558,34.8438,枣庄市,市中区政府,细颗粒物(PM2.5),223,241,269,173,184,92,45,15,15,52,68,27,30,1.4,1.5
2022-01-10T13:00:00,1638A,117.2852,34.7837,枣庄市,薛城环保局,细颗粒物(PM2.5),245,225,218,195,178,90,45,42,17,49,63,19,16,1.4,1.3
2022-01-10T13:00:00,1639A,117.5852,34.7745,枣庄市,峄城区政府,细颗粒物(PM2.5),238,234,271,188,199,90,36,9,9,52,64,23,20,1.1,1.3
2022-01-10T13:00:00,1640A,117.7276,34.5578,枣庄市,台儿庄区环保局,细颗粒物(PM2.5),238,256,215,188,162,103,34,14,14,60,72,14,8,1.3,1.3
2022-01-10T13:00:00,1641A,117.4518,35.0992,枣庄市,山亭区环保局,细颗粒物(PM2.5),201,178,236,151,190,118,73,31,31,27,52,12,19,1.1,1.5
2022-01-10T13:00:00,1642A,121.2514,37.5639,烟台市,开发区,,,41,54,31,31,69,36,7,7,33,50,,5,0.7,1
2022-01-10T13:00:00,1643A,121.3719,37.5433,烟台市,轴承厂,细颗粒物(PM2.5),93,80,46,69,36,62,7,21,14,69,47,22,12,1.3,0.8
2022-01-10T13:00:00,1644A,121.3181,37.5436,烟台市,西郊化工站,颗粒物(PM10),98,146,50,70,29,72,7,38,16,83,46,10,7,1.7,1.1
2022-01-10T13:00:00,1645A,121.4478,37.4822,烟台市,莱山环保局,,41,41,50,28,32,69,23,14,14,52,48,7,6,0.6,0.8
2022-01-10T13:00:00,1646A,121.2611,37.4967,烟台市,福山环保局,颗粒物(PM10),102,153,83,61,44,69,5,5,5,54,45,6,5,1.2,1.2
2022-01-10T13:00:00,1650A,119.1437,36.7023,潍坊市,环保局,细颗粒物(PM2.5),115,97,102,87,71,69,13,8,7,,70,9,14,1.1,1.1
2022-01-10T13:00:00,1653A,116.6251,35.4302,济宁市,火炬城,细颗粒物(PM2.5),267,212,156,217,158,91,8,8,5,62,53,9,5,1.5,1.2
2022-01-10T13:00:00,1655A,116.5491,35.4042,济宁市,电化厂,细颗粒物(PM2.5),267,212,156,217,166,88,12,34,8,52,52,10,13,1.7,1.5
2022-01-10T13:00:00,1656A,117.1437,36.1937,泰安市,监测站,细颗粒物(PM2.5),225,289,235,175,213,62,7,1,1,54,58,14,18,1.3,1.5
2022-01-10T13:00:00,1657A,117.0885,36.2017,泰安市,人口学校,细颗粒物(PM2.5),206,202,212,156,189,67,6,24,6,63,60,,9,1.3,1.2
2022-01-10T13:00:00,1658A,117.1089,36.1758,泰安市,电力学校,细颗粒物(PM2.5),201,228,264,151,193,64,3,2,2,58,65,,22,1.7,1.5
2022-01-10T13:00:00,1659A,119.471,35.4209,日照市,监测站,细颗粒物(PM2.5),110,122,116,83,69,71,37,10,10,43,48,12,12,0.8,1.3
2022-01-10T13:00:00,1660A,119.523,35.4216,日照市,市政府广场,细颗粒物(PM2.5),104,119,89,78,52,69,48,13,13,44,61,10,9,1.0,1.2
2022-01-10T13:00:00,1661A,119.5587,35.4044,日照市,港务局,细颗粒物(PM2.5),103,117,83,77,50,75,37,13,13,60,63,9,9,1.0,1
2022-01-10T13:00:00,1662A,122.1214,37.4236,威海市,华夏技校,细颗粒物(PM2.5),55,46,30,39,28,70,54,47,38,21,24,5,4,0.6,0.5
2022-01-10T13:00:00,1663A,122.0508,37.5236,威海市,山大分校,细颗粒物(PM2.5),80,68,29,59,23,75,50,44,39,25,25,7,6,0.8,0.4
2022-01-10T13:00:00,1664A,122.1067,37.5072,威海市,市监测站,细颗粒物(PM2.5),65,68,35,47,25,74,47,34,22,27,36,7,5,1.0,0.7
2022-01-10T13:00:00,1666A,118.6614,37.4309,东营市,市环保局,,45,29,24,31,17,74,45,52,25,15,20,5,6,0.5,0.4
2022-01-10T13:00:00,1669A,113.5824,24.7733,韶关市,市八中,,26,18,17,18,16,38,27,38,23,16,15,6,6,0.7,0.7
2022-01-10T13:00:00,1671A,113.5917,24.7972,韶关市,园林处,,29,18,16,20,16,34,26,34,22,9,10,6,6,0.8,0.8
2022-01-10T13:00:00,1672A,113.6735,24.7791,韶关市,韶关学院,,32,19,17,22,16,35,24,22,18,16,18,9,9,0.7,0.7
2022-01-10T13:00:00,1673A,113.5971,24.6863,韶关市,曲江监测站,,30,20,18,21,11,29,14,24,13,19,17,7,7,1.0,0.8
2022-01-10T13:00:00,1674A,116.6794,23.3667,汕头市,金平子站,颗粒物(PM10),67,84,43,39,32,127,69,92,44,23,21,9,11,0.6,0.6
2022-01-10T13:00:00,1675A,116.7244,23.3633,汕头市,龙湖子站,,43,41,35,30,27,130,89,101,55,19,18,8,8,0.7,0.6
2022-01-10T13:00:00,1676A,116.7258,23.2775,汕头市,濠江子站,,38,28,33,26,22,127,87,100,62,18,16,10,10,0.7,0.6
2022-01-10T13:00:00,1677A,116.7519,23.4714,汕头市,澄海子站,细颗粒物(PM2.5),55,57,37,39,32,127,80,90,46,26,22,9,11,0.7,0.6
2022-01-10T13:00:00,1678A,116.6092,23.2539,汕头市,潮阳子站,颗粒物(PM10),52,53,46,29,26,166,71,109,52,23,20,11,12,0.6,0.5
2022-01-10T13:00:00,1680A,110.3539,21.2706,湛江市,湛江影剧院,细颗粒物(PM2.5),94,66,76,70,68,113,112,53,53,27,32,7,19,0.8,1
2022-01-10T13:00:00,1681A,110.3928,21.2228,湛江市,市环境监测站,细颗粒物(PM2.5),102,72,60,76,60,125,114,99,64,27,24,7,8,0.8,0.7
2022-01-10T13:00:00,1682A,110.4019,21.1997,湛江市,环保局宿舍,细颗粒物(PM2.5),99,68,55,74,53,136,112,130,68,31,19,5,5,0.9,0.9
2022-01-10T13:00:00,1683A,110.4111,21.2028,湛江市,霞山游泳场,细颗粒物(PM2.5),98,72,61,73,56,125,110,123,64,25,18,6,6,0.8,0.6
2022-01-10T13:00:00,1684A,110.3316,21.2679,湛江市,麻章区环保局,细颗粒物(PM2.5),83,63,96,61,83,107,107,49,49,21,32,8,28,1.0,1.2
2022-01-10T13:00:00,1685A,110.4558,21.2567,湛江市,坡头区环保局,细颗粒物(PM2.5),90,63,56,67,57,130,123,128,68,25,19,6,6,0.9,0.7
2022-01-10T13:00:00,1686A,111.0286,21.4688,茂名市,电白南海,颗粒物(PM10),74,97,94,46,53,130,105,74,62,29,27,10,11,0.7,0.6
2022-01-10T13:00:00,1687A,110.9294,21.6533,茂名市,茂石化七小,细颗粒物(PM2.5),77,95,97,56,65,120,104,66,51,17,22,10,14,0.6,0.7
2022-01-10T13:00:00,1688A,110.9107,21.6687,茂名市,健康路,细颗粒物(PM2.5),74,91,106,54,71,116,106,70,56,15,21,7,17,0.7,0.9
2022-01-10T13:00:00,1689A,110.8592,21.6828,茂名市,高岭,细颗粒物(PM2.5),62,70,82,44,55,103,103,51,51,14,22,12,27,0.6,0.9
2022-01-10T13:00:00,1690A,116.1231,24.3284,梅州市,梅江月梅,,,26,25,25,16,44,29,12,12,,21,12,8,0.8,0.7
2022-01-10T13:00:00,1691A,116.0797,24.2719,梅州市,梅县新城,,39,39,19,24,16,48,31,27,18,24,18,7,6,0.8,0.7
2022-01-10T13:00:00,1692A,116.1248,24.2654,梅州市,环境监控中心,,38,36,22,26,17,46,31,21,15,24,22,9,6,0.6,0.5
2022-01-10T13:00:00,1693A,115.3653,22.775,汕尾市,市环保局,,,,38,,26,139,,46,40,,11,,7,,0.8
2022-01-10T13:00:00,1694A,115.3706,22.7898,汕尾市,市政府,,49,48,33,34,28,138,91,46,46,14,16,5,5,0.6,0.7
2022-01-10T13:00:00,1695A,115.3622,22.7925,汕尾市,新城中学,颗粒物(PM10),52,53,39,26,30,139,91,44,44,9,16,5,5,0.5,0.5
2022-01-10T13:00:00,1696A,114.6778,23.7569,河源市,源西(对照点),,24,24,20,15,16,51,37,23,23,12,18,3,3,0.8,0.8
2022-01-10T13:00:00,1697A,114.6944,23.7586,河源市,东埔,,25,20,21,17,16,54,38,24,21,16,23,4,4,0.9,0.9
2022-01-10T13:00:00,1698A,114.6892,23.7233,河源市,老城,,23,20,20,16,15,51,37,22,22,14,21,4,4,0.9,0.9
2022-01-10T13:00:00,1699A,111.9797,21.8593,阳江市,鸳鸯湖(对照点),"颗粒物(PM10),细颗粒物(PM2.5)",65,80,64,47,55,150,66,32,25,32,30,9,8,0.9,0.9
2022-01-10T13:00:00,1701A,111.9491,21.8658,阳江市,马南垌,细颗粒物(PM2.5),74,76,63,54,62,142,79,42,31,43,43,9,8,0.9,0.8
2022-01-10T13:00:00,1702A,113.0426,23.691,清远市,环保大楼(对照点),,30,17,23,21,22,34,14,11,11,18,17,6,6,1.1,1
2022-01-10T13:00:00,1703A,113.0208,23.7106,清远市,凤城街办,,25,20,22,17,18,36,15,18,12,23,21,6,7,1.0,1
2022-01-10T13:00:00,1705A,116.6367,23.6719,潮州市,西园路(对照点),颗粒物(PM10),59,67,35,40,29,96,96,40,40,24,16,11,7,1.0,0.8
2022-01-10T13:00:00,1706A,116.6447,23.6706,潮州市,档案局,细颗粒物(PM2.5),69,67,34,50,26,89,89,37,37,24,17,12,8,1.0,0.9
2022-01-10T13:00:00,1708A,116.3701,23.5345,揭阳市,新兴,细颗粒物(PM2.5),63,65,47,45,36,116,82,38,38,18,23,9,10,0.9,0.9
2022-01-10T13:00:00,1709A,116.3264,23.5443,揭阳市,西马,细颗粒物(PM2.5),64,64,44,46,30,127,74,35,35,14,18,7,6,0.7,0.6
2022-01-10T13:00:00,1710A,116.3611,23.5626,揭阳市,东兴,颗粒物(PM10),56,62,45,39,33,111,79,34,34,17,27,9,14,0.9,0.9
2022-01-10T13:00:00,1711A,116.4151,23.5294,揭阳市,渔湖,颗粒物(PM10),61,71,46,30,35,106,76,30,30,24,25,11,11,0.8,0.7
2022-01-10T13:00:00,1712A,112.0392,22.9169,云浮市,新市府(对照点),细颗粒物(PM2.5),67,39,53,48,39,18,18,18,18,31,42,9,30,0.8,0.9
2022-01-10T13:00:00,1714A,112.0539,22.9539,云浮市,牧羊,细颗粒物(PM2.5),52,45,50,36,32,19,19,8,8,29,34,10,15,0.9,0.9
2022-01-10T13:00:00,1715A,102.575,24.3711,玉溪市,东风水库,,25,18,20,4,12,86,78,54,40,10,16,7,9,0.5,0.6
2022-01-10T13:00:00,1718A,115.4208,35.2464,菏泽市,气象局,细颗粒物(PM2.5),108,94,193,81,138,74,14,20,10,29,41,5,5,1.1,1
2022-01-10T13:00:00,1719A,115.4747,35.2375,菏泽市,市政协,细颗粒物(PM2.5),103,78,172,77,147,83,15,15,7,,44,6,8,,1.4
2022-01-10T13:00:00,1721A,113.3819,40.1097,大同市,果树场(对照点),,23,21,61,4,28,72,72,69,58,6,14,8,10,0.4,0.5
2022-01-10T13:00:00,1723A,113.2994,40.0758,大同市,云冈宾馆,,,,47,,19,69,59,64,34,,34,,24,0.6,0.8
2022-01-10T13:00:00,1724A,113.3444,40.0917,大同市,大同大学,,29,29,66,8,35,58,58,53,39,12,29,10,22,0.5,0.9
2022-01-10T13:00:00,1725A,113.2661,40.1269,大同市,安家小村,,22,20,67,10,31,72,68,70,42,11,28,13,22,0.6,0.9
2022-01-10T13:00:00,1726A,113.2711,40.0844,大同市,教育学院,,33,33,82,22,46,73,64,68,34,15,31,12,27,0.5,0.8
2022-01-10T13:00:00,1727A,113.1147,36.1547,长治市,清华站,细颗粒物(PM2.5),134,181,117,102,110,99,66,66,34,,36,,12,0.9,1.2
2022-01-10T13:00:00,1728A,113.1031,36.1989,长治市,监测站,细颗粒物(PM2.5),107,140,125,80,113,97,69,64,31,30,33,11,10,1.0,1.4
2022-01-10T13:00:00,1730A,113.0886,36.2125,长治市,审计局,细颗粒物(PM2.5),94,129,115,70,102,88,62,62,23,30,44,25,15,1.0,1.6
2022-01-10T13:00:00,1731A,113.0844,36.1856,长治市,长治八中,细颗粒物(PM2.5),139,171,143,106,110,82,57,52,19,31,43,28,17,1.2,1.7
2022-01-10T13:00:00,1733A,111.5531,36.0783,临汾市,临钢医院,细颗粒物(PM2.5),83,84,173,61,159,52,52,21,21,30,55,7,9,2.1,2.9
2022-01-10T13:00:00,1734A,111.5028,36.0714,临汾市,技工学校,细颗粒物(PM2.5),85,91,192,63,172,56,48,23,23,26,54,8,14,1.1,2.2
2022-01-10T13:00:00,1736A,111.5018,36.0855,临汾市,市委,细颗粒物(PM2.5),87,86,186,64,174,59,51,22,22,29,56,9,11,1.3,2.3
2022-01-10T13:00:00,1738A,113.5758,37.8572,阳泉市,市中心,细颗粒物(PM2.5),245,199,186,195,159,34,32,11,11,64,80,16,26,1.8,2
2022-01-10T13:00:00,1739A,113.4894,37.8731,阳泉市,赛鱼,细颗粒物(PM2.5),192,183,162,144,125,35,27,10,10,73,72,25,22,2.1,1.9
2022-01-10T13:00:00,1740A,113.5819,37.8486,阳泉市,南庄,细颗粒物(PM2.5),207,195,190,157,146,39,33,14,14,62,76,21,28,1.9,2.2
2022-01-10T13:00:00,1742A,113.5614,37.8703,阳泉市,平坦,细颗粒物(PM2.5),255,179,164,205,165,40,28,10,10,66,80,17,27,2.3,2.2
2022-01-10T13:00:00,1743A,113.5158,37.8392,阳泉市,大阳泉,细颗粒物(PM2.5),119,93,138,90,129,53,47,53,27,50,78,19,26,1.5,1.7
2022-01-10T13:00:00,1744A,118.9233,42.2816,赤峰市,松山一中,,36,36,37,6,13,71,60,68,59,13,25,6,20,0.3,0.4
2022-01-10T13:00:00,1745A,118.9576,42.2728,赤峰市,哈达街,,36,36,43,2,18,71,57,64,53,10,22,10,22,0.4,0.5
2022-01-10T13:00:00,1746A,118.8788,42.2554,赤峰市,天义路,,,,27,,13,66,58,63,54,12,22,14,15,0.4,0.8
2022-01-10T13:00:00,1748A,123.044,41.1196,鞍山市,深沟寺,,42,42,111,11,68,53,52,35,35,15,50,14,16,0.6,1.3
2022-01-10T13:00:00,1749A,123.011,41.0931,鞍山市,太阳城,,44,44,98,14,62,65,58,40,40,17,47,15,16,0.6,1.2
2022-01-10T13:00:00,1750A,123.0485,41.1442,鞍山市,太平,,25,25,117,12,82,55,55,34,34,15,54,11,23,0.6,1.5
2022-01-10T13:00:00,1751A,122.9642,41.0971,鞍山市,铁西三道街,颗粒物(PM10),54,58,110,15,66,46,46,29,29,24,56,19,28,1.2,1.9
2022-01-10T13:00:00,1752A,122.9341,41.0833,鞍山市,铁西工业园区,,24,24,131,12,93,55,55,29,29,20,64,15,30,0.6,2.1
2022-01-10T13:00:00,1753A,123.022,41.0821,鞍山市,明达新区,,20,20,91,13,62,59,54,37,37,16,51,9,14,0.6,1.1
2022-01-10T13:00:00,1754A,123.1289,41.0228,鞍山市,千山(对照点),,24,24,80,16,64,55,48,31,25,22,43,12,10,0.5,1.3
2022-01-10T13:00:00,1755A,123.7977,41.8491,抚顺市,望花区,,28,22,119,19,84,70,55,38,38,13,44,7,9,0.8,1.4
2022-01-10T13:00:00,1756A,123.9161,41.8822,抚顺市,顺城区,,26,26,119,14,90,64,62,39,39,17,47,9,12,0.6,1.4
2022-01-10T13:00:00,1757A,124.0436,41.8611,抚顺市,东洲区,,27,27,108,17,76,68,50,19,19,12,38,7,10,0.7,1.1
2022-01-10T13:00:00,1758A,123.9247,41.8642,抚顺市,新抚区,,30,24,144,21,101,58,57,30,30,19,54,12,12,0.7,1.4
2022-01-10T13:00:00,1759A,124.0972,41.8961,抚顺市,大伙房水库,,,115,106,15,72,83,56,23,23,,36,,9,0.7,1.1
2022-01-10T13:00:00,1760A,123.7086,41.8391,抚顺市,沈抚新城,,33,33,99,22,70,56,55,37,37,16,47,6,10,0.6,1.2
2022-01-10T13:00:00,1761A,123.8275,41.3064,本溪市,大峪,颗粒物(PM10),55,60,90,13,58,68,52,25,25,16,43,17,17,0.7,1.1
2022-01-10T13:00:00,1762A,123.7567,41.3325,本溪市,溪湖,,26,26,104,13,62,73,57,31,31,15,42,14,17,0.5,1.1
2022-01-10T13:00:00,1763A,123.7169,41.3094,本溪市,彩屯,,33,33,92,16,64,61,50,25,25,15,39,10,15,0.6,1.2
2022-01-10T13:00:00,1764A,123.7669,41.2864,本溪市,东明,,30,30,93,17,61,60,50,26,26,20,47,8,10,0.6,1.2
2022-01-10T13:00:00,1765A,123.7992,41.2664,本溪市,新立屯,,31,31,80,19,59,66,54,26,26,14,42,16,14,0.5,0.9
2022-01-10T13:00:00,1766A,123.8142,41.3472,本溪市,威宁,,37,37,118,17,73,67,50,22,22,19,48,10,8,0.5,1.1
2022-01-10T13:00:00,1767A,121.1115,41.0879,锦州市,南山,,29,29,78,6,67,71,71,66,66,9,42,7,26,0.6,1.4
2022-01-10T13:00:00,1768A,121.0533,40.8434,锦州市,开发区,,25,20,96,17,60,68,68,53,53,7,52,6,37,0.3,0.8
2022-01-10T13:00:00,1769A,121.1836,41.1119,锦州市,百股街道,,23,23,87,5,65,71,71,60,60,12,43,6,31,0.5,1.2
2022-01-10T13:00:00,1770A,121.1178,41.1222,锦州市,天安街道,,28,28,74,12,57,68,68,62,62,7,43,13,46,0.7,1.3
2022-01-10T13:00:00,1771A,121.1303,41.1386,锦州市,北湖公园,,23,18,66,6,54,72,72,67,67,6,38,9,38,0.5,1.1
2022-01-10T13:00:00,1772A,126.54,43.8622,吉林市,哈达湾,,33,30,85,23,66,68,56,42,30,14,40,8,13,0.8,1.3
2022-01-10T13:00:00,1773A,126.5844,43.8358,吉林市,东局子,,32,31,63,22,51,68,52,41,35,17,35,11,11,0.6,0.9
2022-01-10T13:00:00,1774A,126.5052,43.8245,吉林市,电力学院,,28,26,112,19,92,71,57,25,25,14,48,9,20,0.7,1.9
2022-01-10T13:00:00,1775A,126.6133,43.8972,吉林市,江北,,32,30,78,22,63,64,53,37,30,17,37,10,19,0.7,1.4
2022-01-10T13:00:00,1776A,126.555,43.8306,吉林市,江南公园,,,,61,,57,70,60,59,39,14,28,,8,,0.9
2022-01-10T13:00:00,1778A,126.7061,43.7133,吉林市,丰满(对照点),细颗粒物(PM2.5),57,38,53,40,56,80,64,56,56,13,14,10,8,0.7,0.9
2022-01-10T13:00:00,1779A,123.9305,47.3636,齐齐哈尔市,安居小区,,,38,72,33,60,44,19,33,31,,19,6,12,0.4,0.7
2022-01-10T13:00:00,1780A,123.9488,47.3386,齐齐哈尔市,中心广场,,45,45,71,24,47,44,42,36,36,12,23,13,37,0.6,0.7
2022-01-10T13:00:00,1781A,123.9483,47.3227,齐齐哈尔市,农牧车辆厂,,43,41,74,30,58,37,37,30,29,18,31,101,95,0.4,0.6
2022-01-10T13:00:00,1783A,123.945,47.2988,齐齐哈尔市,市环境监测站,细颗粒物(PM2.5),77,51,94,56,75,27,25,19,19,10,23,53,96,0.4,0.7
2022-01-10T13:00:00,1785A,129.6115,44.5782,牡丹江市,文化广场,细颗粒物(PM2.5),59,66,99,42,62,67,39,27,27,46,48,51,16,1.8,1.2
2022-01-10T13:00:00,1786A,129.5904,44.5963,牡丹江市,第一医院,,,60,106,52,90,58,58,27,27,34,53,16,19,,1.4
2022-01-10T13:00:00,1787A,129.6364,44.6075,牡丹江市,机车工厂,细颗粒物(PM2.5),78,64,103,57,77,66,42,19,19,39,48,31,12,1.1,1.1
2022-01-10T13:00:00,1788A,129.6386,44.5462,牡丹江市,第一中学,"颗粒物(PM10),细颗粒物(PM2.5)",57,63,69,40,59,75,55,41,36,33,38,24,8,0.8,0.9
2022-01-10T13:00:00,1789A,124.81117,46.03138,大庆市,大同区,细颗粒物(PM2.5),172,164,160,130,126,77,49,32,32,24,48,,14,0.9,1
2022-01-10T13:00:00,1790A,125.129,46.533,大庆市,龙凤区,细颗粒物(PM2.5),135,124,133,103,103,58,37,17,17,34,49,32,24,1.0,1.1
2022-01-10T13:00:00,1791A,124.902,46.408,大庆市,红岗区,细颗粒物(PM2.5),143,103,111,109,105,64,41,24,21,30,41,16,12,1.2,1.6
2022-01-10T13:00:00,1792A,125.153,46.586,大庆市,萨尔图区,细颗粒物(PM2.5),169,123,133,128,116,52,41,20,20,29,48,20,18,0.8,0.8
2022-01-10T13:00:00,1793A,124.9042,46.6215,大庆市,让胡路区,细颗粒物(PM2.5),140,132,130,107,93,54,48,28,28,25,47,18,13,1.0,1.1
2022-01-10T13:00:00,1794A,118.3606,31.3519,芜湖市,监测站,细颗粒物(PM2.5),149,94,64,114,95,40,5,18,7,69,59,8,6,1.1,0.8
2022-01-10T13:00:00,1795A,118.3714,31.4134,芜湖市,科创中心,细颗粒物(PM2.5),155,174,74,118,96,34,6,5,5,56,72,,7,1.5,0.8
2022-01-10T13:00:00,1796A,118.3673,31.3131,芜湖市,四水厂,细颗粒物(PM2.5),143,63,57,109,95,39,8,21,12,66,51,7,6,1.1,0.8
2022-01-10T13:00:00,1798A,118.5092,31.6837,马鞍山市,湖东路四小,细颗粒物(PM2.5),142,106,97,108,107,14,14,6,6,56,60,9,8,1.2,1.3
2022-01-10T13:00:00,1799A,118.5024,31.6449,马鞍山市,开发区,细颗粒物(PM2.5),125,92,93,95,104,28,28,9,9,50,61,8,9,1.3,1.4
2022-01-10T13:00:00,1800A,118.5228,31.7231,马鞍山市,慈湖,细颗粒物(PM2.5),145,102,123,111,120,27,16,8,8,60,63,8,8,1.2,1.3
2022-01-10T13:00:00,1802A,118.6245,31.7241,马鞍山市,濮塘(对照点),细颗粒物(PM2.5),115,111,96,87,74,32,20,8,8,46,44,10,10,1.0,1.1
2022-01-10T13:00:00,1803A,115.9872,29.6815,九江市,十里,细颗粒物(PM2.5),65,52,69,47,56,83,50,48,38,30,34,10,8,0.7,0.6
2022-01-10T13:00:00,1804A,115.9584,29.7046,九江市,茅山头,颗粒物(PM10),54,57,68,37,62,65,38,41,30,35,35,6,6,0.4,0.8
2022-01-10T13:00:00,1805A,115.9877,29.7295,九江市,西园,细颗粒物(PM2.5),79,65,74,58,73,77,48,54,33,28,34,5,5,0.4,0.4
2022-01-10T13:00:00,1806A,116.0172,29.6547,九江市,五七二七厂,细颗粒物(PM2.5),59,52,68,42,52,57,54,51,50,17,16,5,6,0.5,0.5
2022-01-10T13:00:00,1808A,115.9114,29.6038,九江市,综合工业园,,,74,87,63,76,68,32,18,9,48,46,,5,0.4,0.5
2022-01-10T13:00:00,1809A,116.0721,29.7535,九江市,石化总厂,细颗粒物(PM2.5),68,69,70,49,54,76,47,56,35,27,30,17,14,0.8,0.7
2022-01-10T13:00:00,1810A,115.9773,29.5698,九江市,庐山气象台(对照点),,30,18,20,21,17,81,65,66,58,10,10,10,8,0.6,0.6
2022-01-10T13:00:00,1812A,112.3931,34.6516,洛阳市,市委党校,细颗粒物(PM2.5),198,203,205,148,151,56,44,20,17,46,52,12,7,1.3,1.4
2022-01-10T13:00:00,1814A,112.4657,34.6871,洛阳市,豫西宾馆,细颗粒物(PM2.5),216,228,187,166,144,58,34,22,15,49,49,10,8,1.7,1.5
2022-01-10T13:00:00,1815A,112.494,34.6886,洛阳市,河南林校,细颗粒物(PM2.5),251,237,198,201,164,58,42,28,22,43,48,5,4,0.8,0.7
2022-01-10T13:00:00,1816A,112.3844,34.623,洛阳市,开发区管委会,细颗粒物(PM2.5),170,158,192,129,148,74,65,19,19,34,53,10,5,1.1,1.4
2022-01-10T13:00:00,1817A,112.4267,34.6258,洛阳市,市委新办公区,细颗粒物(PM2.5),216,214,206,166,158,75,50,22,18,49,54,10,5,1.3,1.2
2022-01-10T13:00:00,1818A,114.4839,36.0621,安阳市,棉研所(对照点),细颗粒物(PM2.5),200,218,146,150,103,35,19,30,15,54,31,5,3,1.4,1.2
2022-01-10T13:00:00,1819A,114.3551,36.1017,安阳市,红庙街,细颗粒物(PM2.5),188,162,187,141,166,19,19,15,8,60,60,9,6,1.7,2
2022-01-10T13:00:00,1820A,114.361,36.0681,安阳市,银杏小区,细颗粒物(PM2.5),192,164,194,144,178,19,17,11,8,55,53,6,3,1.7,1.9
2022-01-10T13:00:00,1824A,114.3389,34.7781,开封市,肿瘤医院,细颗粒物(PM2.5),182,123,106,137,114,44,16,34,16,25,14,3,3,1.7,1
2022-01-10T13:00:00,1826A,114.2885,34.7965,开封市,世纪星幼儿园,细颗粒物(PM2.5),217,143,114,167,117,50,25,45,25,34,19,4,4,1.7,1.1
2022-01-10T13:00:00,1828A,113.2269,35.2127,焦作市,市环保局,细颗粒物(PM2.5),225,197,205,175,167,32,20,26,18,30,41,7,7,1.5,1.4
2022-01-10T13:00:00,1829A,113.2467,35.176,焦作市,高新区政府,细颗粒物(PM2.5),221,200,185,171,151,38,26,36,24,28,35,11,11,1.3,1.1
2022-01-10T13:00:00,1830A,113.1987,35.2703,焦作市,影视城(对照点),细颗粒物(PM2.5),196,156,194,147,139,48,24,16,16,28,39,5,6,1.5,1.4
2022-01-10T13:00:00,1832A,113.3257,33.742,平顶山市,新华旅馆,细颗粒物(PM2.5),200,217,175,150,128,59,59,26,26,32,40,7,4,1.4,1.1
2022-01-10T13:00:00,1833A,113.2919,33.737,平顶山市,规划设计院,细颗粒物(PM2.5),242,195,159,192,160,50,50,19,19,29,41,8,6,1.6,1.3
2022-01-10T13:00:00,1834A,113.182,33.774,平顶山市,平顶山工学院,细颗粒物(PM2.5),219,168,176,169,150,70,70,24,24,26,38,12,8,1.6,1.5
2022-01-10T13:00:00,1835A,111.1922,34.7752,三门峡市,市政府,细颗粒物(PM2.5),87,95,138,64,146,94,68,45,26,26,38,9,9,0.7,1.3
2022-01-10T13:00:00,1836A,111.1587,34.7942,三门峡市,开发区,细颗粒物(PM2.5),90,113,152,67,153,81,71,41,31,17,35,10,9,1.0,1.6
2022-01-10T13:00:00,1838A,111.143,34.7955,三门峡市,风景区(对照点),细颗粒物(PM2.5),89,90,138,66,147,88,71,45,30,19,32,10,8,0.8,1.4
2022-01-10T13:00:00,1840A,111.2992,30.6981,宜昌市,白龙岗,细颗粒物(PM2.5),105,88,84,79,73,38,26,35,18,36,35,4,3,0.8,0.8
2022-01-10T13:00:00,1841A,111.3549,30.6465,宜昌市,伍家岗,细颗粒物(PM2.5),100,88,79,75,80,34,24,33,15,35,34,6,5,0.7,0.7
2022-01-10T13:00:00,1842A,111.2628,30.6961,宜昌市,点军区,细颗粒物(PM2.5),100,91,82,75,71,39,31,38,13,26,33,6,6,0.6,0.7
2022-01-10T13:00:00,1843A,111.3275,30.7819,宜昌市,夷陵区,细颗粒物(PM2.5),110,106,70,83,65,44,14,39,13,46,35,6,6,1.0,0.9
2022-01-10T13:00:00,1844A,112.2494,30.3197,荆州市,市图书馆,细颗粒物(PM2.5),77,81,65,56,50,69,16,35,21,47,35,8,7,1.1,0.9
2022-01-10T13:00:00,1845A,112.2008,30.3544,荆州市,市委党校,细颗粒物(PM2.5),83,74,70,61,58,79,18,25,20,47,43,10,8,1.1,1.1
2022-01-10T13:00:00,1847A,113.1094,29.3578,岳阳市,南湖风景区,细颗粒物(PM2.5),67,65,87,48,63,82,46,19,19,25,37,9,9,1.0,1.2
2022-01-10T13:00:00,1848A,113.1493,29.4251,岳阳市,城陵矶,,,,79,,57,77,44,25,18,25,46,10,12,0.7,0.8
2022-01-10T13:00:00,1849A,113.1497,29.3575,岳阳市,开发区,细颗粒物(PM2.5),68,65,71,49,54,84,38,21,21,32,36,7,8,1.1,1
2022-01-10T13:00:00,1850A,113.2621,29.4758,岳阳市,云溪区,细颗粒物(PM2.5),82,74,73,60,59,82,29,34,23,31,28,8,8,0.9,1
2022-01-10T13:00:00,1851A,112.9943,29.4402,岳阳市,君山区,细颗粒物(PM2.5),93,62,76,69,71,76,48,41,30,26,40,5,7,0.5,0.6
2022-01-10T13:00:00,1852A,113.2117,29.355,岳阳市,金凤水库(对照点),细颗粒物(PM2.5),67,74,69,48,53,86,30,32,28,38,35,12,8,0.8,0.7
2022-01-10T13:00:00,1854A,111.6975,28.9703,常德市,市二中,细颗粒物(PM2.5),87,52,49,64,62,67,64,49,39,20,24,9,8,0.9,0.9
2022-01-10T13:00:00,1857A,111.7158,29.1456,常德市,白鹤山(对照点),细颗粒物(PM2.5),84,64,58,62,51,76,76,59,59,12,15,6,6,0.7,0.7
2022-01-10T13:00:00,1858A,110.5319,29.1217,张家界市,永定新区,细颗粒物(PM2.5),92,93,62,68,47,37,25,11,11,21,21,5,3,0.9,0.9
2022-01-10T13:00:00,1859A,110.4697,29.1242,张家界市,电业局,细颗粒物(PM2.5),67,56,38,48,32,42,36,29,29,17,16,5,4,1.1,1.1
2022-01-10T13:00:00,1860A,110.5594,29.3547,张家界市,未央路,细颗粒物(PM2.5),53,36,17,37,22,41,32,22,22,13,11,2,2,0.6,0.6
2022-01-10T13:00:00,1861A,110.4417,29.315,张家界市,袁家界(对照点),,35,35,25,15,12,52,51,43,43,21,19,5,6,0.6,0.6
2022-01-10T13:00:00,1862A,110.4144,25.3167,桂林市,电子科大尧山校区(对照点),,19,11,19,13,18,38,31,29,28,13,13,4,4,0.5,0.5
2022-01-10T13:00:00,1863A,110.2819,25.2697,桂林市,监测站,,20,20,25,14,21,29,23,27,21,20,19,4,5,0.9,0.9
2022-01-10T13:00:00,1864A,110.3089,25.2708,桂林市,龙隐路小学,,28,16,23,19,19,36,30,26,26,19,19,5,5,0.9,0.8
2022-01-10T13:00:00,1865A,110.2869,25.2178,桂林市,八中,,33,22,28,23,24,33,28,27,22,24,24,6,5,0.9,0.9
2022-01-10T13:00:00,1866A,109.2262,21.588,北海市,牛尾岭水库(对照点),细颗粒物(PM2.5),117,100,43,88,39,63,63,23,23,33,21,11,6,1.2,1
2022-01-10T13:00:00,1867A,109.1436,21.4086,北海市,海滩公园,细颗粒物(PM2.5),98,122,46,73,33,92,92,34,34,26,22,17,10,1.3,1.1
2022-01-10T13:00:00,1868A,109.0981,21.4661,北海市,新市环保局,细颗粒物(PM2.5),89,84,37,66,24,26,25,13,13,40,22,12,8,1.2,0.9
2022-01-10T13:00:00,1869A,109.1778,21.5233,北海市,北海工业园,细颗粒物(PM2.5),110,135,51,83,36,32,32,14,14,39,24,35,13,1.5,1.1
2022-01-10T13:00:00,1870A,109.4856,24.3895,柳州市,柳东小学,,20,12,15,14,16,30,19,20,19,6,7,10,14,1.0,0.9
2022-01-10T13:00:00,1871A,109.4157,24.3277,柳州市,环保监测站,,36,26,21,25,21,22,5,14,4,20,22,20,13,1.1,0.9
2022-01-10T13:00:00,1872A,109.389,24.341,柳州市,河西水厂,,46,46,52,20,27,15,12,15,11,16,22,15,27,0.8,0.9
2022-01-10T13:00:00,1873A,109.4311,24.2921,柳州市,市四中,,41,41,25,10,11,25,13,13,10,17,20,14,11,1.2,1.1
2022-01-10T13:00:00,1874A,109.4006,24.3631,柳州市,市九中,,29,19,24,20,22,23,12,15,11,15,20,14,13,1.2,1
2022-01-10T13:00:00,1875A,109.4958,24.3134,柳州市,古亭山,,18,17,18,12,15,24,14,18,17,11,11,8,9,1.0,1
2022-01-10T13:00:00,1876A,109.5078,18.2489,三亚市,河东子站,,38,38,27,11,12,87,82,73,73,5,7,2,2,0.5,0.5
2022-01-10T13:00:00,1877A,109.4964,18.2681,三亚市,河西子站,,25,24,24,12,11,91,80,72,68,6,7,3,3,0.4,0.4
2022-01-10T13:00:00,1878A,104.7778,31.4741,绵阳市,富乐山,细颗粒物(PM2.5),65,69,73,47,61,33,4,30,4,46,34,6,5,1.0,0.9
2022-01-10T13:00:00,1879A,104.7563,31.4535,绵阳市,市人大,细颗粒物(PM2.5),72,84,82,52,62,35,6,28,7,56,43,4,2,1.7,1.4
2022-01-10T13:00:00,1880A,104.6697,31.4668,绵阳市,高新区自来水公司,细颗粒物(PM2.5),84,87,86,62,74,17,3,9,3,48,42,9,6,1.2,1.1
2022-01-10T13:00:00,1881A,104.7287,31.5075,绵阳市,三水厂,细颗粒物(PM2.5),78,92,98,57,71,7,1,4,1,42,36,8,5,0.9,0.8
2022-01-10T13:00:00,1882A,104.563,28.793,宜宾市,石马中学(对照点),细颗粒物(PM2.5),90,73,101,67,87,48,35,31,29,22,30,8,10,0.9,1
2022-01-10T13:00:00,1883A,104.6201,28.7728,宜宾市,市委,细颗粒物(PM2.5),84,73,99,62,83,43,24,23,20,31,35,8,11,0.9,1
2022-01-10T13:00:00,1884A,104.6055,28.793,宜宾市,宜宾四中,细颗粒物(PM2.5),87,69,94,64,83,36,31,23,21,25,37,8,11,0.9,1
2022-01-10T13:00:00,1885A,104.639,28.7562,宜宾市,市政府,细颗粒物(PM2.5),80,60,88,59,78,42,30,25,24,29,37,6,8,1.0,1
2022-01-10T13:00:00,1886A,104.5742,28.7199,宜宾市,黄金嘴,细颗粒物(PM2.5),72,65,86,52,68,45,36,33,32,25,31,6,8,0.9,1
2022-01-10T13:00:00,1888A,101.6891,26.571,攀枝花市,弄弄坪,细颗粒物(PM2.5),64,58,115,46,82,107,59,20,20,44,47,15,15,1.1,2.3
2022-01-10T13:00:00,1889A,101.5769,26.5928,攀枝花市,河门口,细颗粒物(PM2.5),78,92,118,57,82,116,54,23,17,68,55,79,46,4.6,3
2022-01-10T13:00:00,1890A,101.7169,26.585,攀枝花市,炳草岗,细颗粒物(PM2.5),74,58,87,54,72,105,47,19,19,50,66,37,27,1.7,2.1
2022-01-10T13:00:00,1891A,101.7369,26.5008,攀枝花市,仁和,细颗粒物(PM2.5),59,57,83,42,63,117,78,36,26,32,37,32,18,1.5,1.7
2022-01-10T13:00:00,1893A,105.4324,28.9634,泸州市,九狮山(对照点),细颗粒物(PM2.5),94,84,66,70,62,43,28,22,20,24,36,6,12,0.6,0.6
2022-01-10T13:00:00,1894A,105.4427,28.9063,泸州市,小市上码头,细颗粒物(PM2.5),83,70,69,61,67,38,19,21,14,29,38,11,15,1.0,1.1
2022-01-10T13:00:00,1895A,105.4241,28.8573,泸州市,兰田宪桥,细颗粒物(PM2.5),83,59,67,61,59,31,26,20,20,28,41,11,13,0.6,0.8
2022-01-10T13:00:00,1896A,105.4379,28.8833,泸州市,市环监站,细颗粒物(PM2.5),77,68,72,56,64,26,22,14,14,26,38,5,7,0.7,0.9
2022-01-10T13:00:00,1901A,104.4239,31.1208,德阳市,东山公园,细颗粒物(PM2.5),102,91,91,76,74,15,15,6,6,39,43,6,4,1.0,1
2022-01-10T13:00:00,1902A,104.3826,31.1317,德阳市,西小区,细颗粒物(PM2.5),103,106,94,77,76,6,6,4,3,50,42,8,4,1.2,1.1
2022-01-10T13:00:00,1904A,104.3553,31.1091,德阳市,耐火材料厂,细颗粒物(PM2.5),128,131,101,97,81,7,7,3,3,,49,6,4,1.0,1
2022-01-10T13:00:00,1905A,106.056,30.8064,南充市,西山风景区(对照点),细颗粒物(PM2.5),57,49,62,40,50,50,50,30,30,9,13,3,3,0.7,0.8
2022-01-10T13:00:00,1906A,106.0789,30.8023,南充市,南充市委,细颗粒物(PM2.5),62,53,75,44,60,62,62,31,31,6,19,5,6,0.8,0.9
2022-01-10T13:00:00,1907A,106.1031,30.8217,南充市,南充炼油厂,"颗粒物(PM10),细颗粒物(PM2.5)",55,60,74,39,54,48,48,25,25,11,17,2,2,0.7,0.8
2022-01-10T13:00:00,1908A,106.1064,30.7856,南充市,高坪区监测站,细颗粒物(PM2.5),68,58,69,49,56,61,61,33,33,4,18,2,3,0.7,0.9
2022-01-10T13:00:00,1909A,106.0642,30.7636,南充市,嘉陵区环保局,细颗粒物(PM2.5),52,33,59,36,49,61,61,32,28,5,22,6,6,0.8,0.9
2022-01-10T13:00:00,1910A,106.1087,30.8388,南充市,市环境监测站,细颗粒物(PM2.5),55,50,70,39,60,42,42,20,20,9,16,2,3,0.7,0.7
2022-01-10T13:00:00,1911A,106.9222,27.6869,遵义市,丁字口,,33,20,30,23,25,40,21,32,19,24,18,21,14,0.9,0.9
2022-01-10T13:00:00,1912A,106.9242,27.7019,遵义市,凤凰山,,20,20,28,9,21,37,24,35,25,17,14,9,7,0.7,0.7
2022-01-10T13:00:00,1913A,106.8906,27.6486,遵义市,忠庄,,23,19,35,16,22,38,12,29,15,29,17,14,9,0.9,0.9
2022-01-10T13:00:00,1914A,106.9231,27.6506,遵义市,舟水桥,,34,34,26,18,23,46,9,35,16,37,15,34,12,1.0,0.7
2022-01-10T13:00:00,1915A,106.9178,27.72,遵义市,干田坝,,12,11,26,6,18,37,16,26,19,24,16,9,10,0.9,0.9
2022-01-10T13:00:00,1916A,103.7897,25.5035,曲靖市,环境监测站,细颗粒物(PM2.5),62,52,41,44,20,88,76,75,48,21,27,10,7,0.8,0.7
2022-01-10T13:00:00,1917A,103.8,25.5364,曲靖市,烟厂办公区,细颗粒物(PM2.5),54,44,29,38,18,80,71,62,46,14,24,11,7,0.8,0.7
2022-01-10T13:00:00,1918A,108.7197,34.3956,咸阳市,气象站(对照点),细颗粒物(PM2.5),100,104,155,75,158,87,87,57,57,5,24,9,7,1.3,2
2022-01-10T13:00:00,1919A,108.673,34.3155,咸阳市,实验中学,细颗粒物(PM2.5),109,109,157,82,160,90,90,64,64,16,36,11,9,0.8,1.4
2022-01-10T13:00:00,1920A,108.7233,34.3617,咸阳市,师范学院,细颗粒物(PM2.5),114,125,150,86,160,88,88,60,60,18,34,11,8,1.4,1.8
2022-01-10T13:00:00,1922A,109.0656,35.0994,铜川市,党校(对照点),,,,111,26,106,84,71,53,53,7,39,,11,0.5,1.1
2022-01-10T13:00:00,1923A,109.0697,35.0697,铜川市,王益区政府,,31,31,117,21,102,86,86,39,39,18,46,5,8,0.4,1.2
2022-01-10T13:00:00,1924A,108.9344,34.9058,铜川市,新区管委会,细颗粒物(PM2.5),100,83,139,75,133,88,88,61,61,17,37,9,13,0.7,1.2
2022-01-10T13:00:00,1926A,109.4131,36.6275,延安市,枣园(对照点),颗粒物(PM10),60,69,80,9,68,106,84,75,75,14,37,4,5,0.4,1.1
2022-01-10T13:00:00,1927A,109.4761,36.6028,延安市,延大医附院,,26,25,79,16,73,101,83,71,71,6,37,5,6,0.5,1.3
2022-01-10T13:00:00,1929A,109.5056,36.6106,延安市,百米大道,,26,26,81,6,77,106,83,73,73,7,34,6,8,0.4,1.2
2022-01-10T13:00:00,1930A,107.185,34.3063,宝鸡市,庙沟村(对照点),细颗粒物(PM2.5),68,69,102,49,91,106,106,98,98,9,19,5,5,0.6,1
2022-01-10T13:00:00,1931A,107.0708,34.3017,宝鸡市,竹园沟,细颗粒物(PM2.5),68,72,106,49,103,106,106,60,60,12,23,7,6,0.7,1.2
2022-01-10T13:00:00,1932A,107.1906,34.3672,宝鸡市,三陆医院,细颗粒物(PM2.5),77,89,118,56,103,105,105,74,74,13,36,8,7,0.9,1.4
2022-01-10T13:00:00,1933A,107.1431,34.3547,宝鸡市,监测站,,,,106,,101,97,97,68,68,,32,,4,0.8,1.2
2022-01-10T13:00:00,1934A,107.1186,34.3739,宝鸡市,技工学校,颗粒物(PM10),69,88,111,47,94,98,98,62,62,15,27,6,6,0.4,0.9
2022-01-10T13:00:00,1935A,107.3906,34.3528,宝鸡市,陈仓区环保局家属楼,颗粒物(PM10),68,85,132,44,107,102,102,80,80,8,36,5,6,0.8,1.4
2022-01-10T13:00:00,1936A,107.2058,34.3497,宝鸡市,文理学院,细颗粒物(PM2.5),77,76,107,56,98,103,103,88,88,12,25,7,7,0.6,1
2022-01-10T13:00:00,1937A,107.2386,34.3622,宝鸡市,三迪小学,细颗粒物(PM2.5),69,81,113,50,98,103,103,83,83,14,32,6,6,0.7,1.1
2022-01-10T13:00:00,1938A,109.5293,34.5101,渭南市,农科所(对照点),细颗粒物(PM2.5),153,153,164,117,129,79,79,26,26,18,43,10,6,1.2,1.7
2022-01-10T13:00:00,1939A,109.4974,34.4877,渭南市,日报社,细颗粒物(PM2.5),188,180,165,141,137,75,75,22,22,,51,12,10,1.2,1.4
2022-01-10T13:00:00,1940A,109.4636,34.493,渭南市,体育馆,细颗粒物(PM2.5),175,172,161,132,138,86,86,30,30,22,45,9,6,1.1,1.5
2022-01-10T13:00:00,1941A,109.4259,34.5023,渭南市,高新一小,细颗粒物(PM2.5),163,166,172,124,158,84,84,30,30,23,46,14,10,1.2,1.7
2022-01-10T13:00:00,1943A,102.1725,38.5339,金昌市,新川苑,颗粒物(PM10),106,161,94,76,34,87,71,60,37,24,24,146,20,0.7,0.7
2022-01-10T13:00:00,1944A,102.1692,38.5167,金昌市,天庆家园,颗粒物(PM10),119,188,116,69,28,86,54,58,36,18,23,46,16,1.1,0.7
2022-01-10T13:00:00,1945A,98.2908,39.7711,嘉峪关市,气象局,颗粒物(PM10),59,68,70,19,26,87,87,43,42,12,34,2,9,0.6,0.7
2022-01-10T13:00:00,1947A,106.3394,38.817,石嘴山市,沙湖旅游区(对照点),细颗粒物(PM2.5),137,121,273,104,193,71,71,41,41,18,30,27,23,1.0,2
2022-01-10T13:00:00,1948A,106.3668,39.0145,石嘴山市,大武口朝阳西街,细颗粒物(PM2.5),129,125,150,98,128,89,67,88,41,24,38,24,21,1.0,1.6
2022-01-10T13:00:00,1949A,106.7704,39.2282,石嘴山市,惠农南大街,颗粒物(PM10),56,61,148,32,120,71,51,58,50,29,42,32,37,1.4,1.7
2022-01-10T13:00:00,1950A,106.7099,39.1325,石嘴山市,红果子镇惠新街,细颗粒物(PM2.5),138,147,148,105,121,84,69,72,39,23,28,26,42,1.5,1.6
2022-01-10T13:00:00,1951A,84.895,45.6094,克拉玛依市,长征新村,细颗粒物(PM2.5),204,244,251,154,161,42,17,32,20,72,55,7,7,1.8,1.6
2022-01-10T13:00:00,1952A,84.8988,45.5893,克拉玛依市,南林小区,细颗粒物(PM2.5),214,272,266,164,154,41,24,35,22,52,45,11,10,1.5,1.4
2022-01-10T13:00:00,1954A,84.905,44.3396,克拉玛依市,独山子区,颗粒物(PM10),97,143,144,68,83,72,72,52,44,36,53,5,5,1.3,1.4
2022-01-10T13:00:00,1955A,85.6979,46.098,克拉玛依市,乌尔禾区商贸楼,细颗粒物(PM2.5),237,221,212,187,163,60,36,39,33,48,45,8,9,1.5,1.5
2022-01-10T13:00:00,1956A,86.1472,41.7538,巴音郭楞州,孔雀公园,细颗粒物(PM2.5),119,140,138,90,82,100,30,74,52,91,61,6,5,1.0,0.7
2022-01-10T13:00:00,1957A,86.1972,41.7166,巴音郭楞州,棉纺厂,细颗粒物(PM2.5),115,131,125,87,73,96,38,59,43,63,48,5,5,1.0,0.8
2022-01-10T13:00:00,1958A,86.2357,41.7173,巴音郭楞州,经济开发区,细颗粒物(PM2.5),98,121,129,73,68,100,54,85,70,46,27,4,2,0.9,0.8
2022-01-10T13:00:00,1961A,117.532,36.6868,济南市,东山小学,细颗粒物(PM2.5),228,203,365,178,278,16,14,7,7,48,70,9,13,1.4,3.6
2022-01-10T13:00:00,1966A,120.0405,35.8735,青岛市,黄岛区4号,细颗粒物(PM2.5),199,168,76,149,50,47,16,28,20,68,70,9,11,1.9,1.2
2022-01-10T13:00:00,1982A,122.0693,37.2174,威海市,文登开发区,细颗粒物(PM2.5),70,75,62,51,47,80,23,11,10,50,46,6,5,0.9,1.1
2022-01-10T13:00:00,2031A,113.1817,27.9958,株洲市,云田中学,细颗粒物(PM2.5),62,58,73,44,69,47,16,21,21,29,27,5,5,0.7,0.7
2022-01-10T13:00:00,2054A,114.1099,32.1059,信阳市,平桥分局,细颗粒物(PM2.5),98,80,83,73,69,93,31,32,10,35,37,5,6,0.8,0.8
2022-01-10T13:00:00,2064A,113.9956,32.1271,信阳市,南湾水厂,细颗粒物(PM2.5),105,84,76,79,68,100,40,55,32,28,32,6,8,0.8,0.7
2022-01-10T13:00:00,2065A,114.0775,32.1195,信阳市,市酿酒公司,细颗粒物(PM2.5),104,87,80,78,74,95,31,32,14,28,33,8,9,0.7,0.7
2022-01-10T13:00:00,2066A,114.0609,32.1399,信阳市,审计局,细颗粒物(PM2.5),109,99,86,82,77,93,33,34,16,35,43,7,14,0.6,0.7
2022-01-10T13:00:00,2067A,114.6613,33.6128,周口市,市环境监测站,细颗粒物(PM2.5),149,135,102,114,99,69,16,55,7,25,28,6,8,1.0,0.9
2022-01-10T13:00:00,2068A,114.6758,33.6347,周口市,周口师范,细颗粒物(PM2.5),152,120,98,116,100,79,16,63,5,31,30,7,8,1.0,0.9
2022-01-10T13:00:00,2069A,114.6546,33.5979,周口市,市运管处,细颗粒物(PM2.5),156,149,110,119,101,76,19,47,15,27,33,8,10,1.1,0.9
2022-01-10T13:00:00,2070A,114.6369,33.6406,周口市,川汇区环保局,细颗粒物(PM2.5),147,110,105,112,97,71,20,62,8,24,25,10,11,1.0,1
2022-01-10T13:00:00,2075A,117.6336,24.4674,漳州市,九湖(对照点),细颗粒物(PM2.5),75,81,63,55,43,140,77,64,43,27,24,8,7,0.7,0.7
2022-01-10T13:00:00,2160A,112.85,35.5051,晋城市,自来水公司,细颗粒物(PM2.5),160,137,171,122,136,119,59,74,32,34,34,16,11,1.5,1.2
2022-01-10T13:00:00,2161A,112.8318,35.4936,晋城市,白云商贸,细颗粒物(PM2.5),223,135,185,173,151,102,60,51,33,30,36,18,11,1.8,1.8
2022-01-10T13:00:00,2162A,112.8508,35.4887,晋城市,市环保局,细颗粒物(PM2.5),180,169,181,136,150,110,57,61,36,27,29,17,12,1.5,1.3
2022-01-10T13:00:00,2163A,112.8676,35.4897,晋城市,技术学院,细颗粒物(PM2.5),238,212,184,188,144,105,43,61,33,35,33,14,8,,1.5
2022-01-10T13:00:00,2165A,112.8453,35.546,晋城市,白马寺 (对照点),细颗粒物(PM2.5),147,149,173,112,123,110,71,72,52,26,29,18,13,1.5,1.5
2022-01-10T13:00:00,2166A,112.4397,39.3522,朔州市,平朔,颗粒物(PM10),70,90,107,33,67,65,65,27,27,19,56,15,26,0.6,0.9
2022-01-10T13:00:00,2167A,112.4575,39.3617,朔州市,朔唯,颗粒物(PM10),85,119,120,34,62,65,65,24,24,18,56,14,35,0.7,0.9
2022-01-10T13:00:00,2168A,112.4258,39.3197,朔州市,区政府,颗粒物(PM10),60,70,116,31,66,63,56,30,30,22,47,17,25,0.7,1
2022-01-10T13:00:00,2169A,112.4072,39.3278,朔州市,市环保局,颗粒物(PM10),68,86,128,24,64,63,61,29,29,18,45,14,19,0.4,0.7
2022-01-10T13:00:00,2170A,112.4272,39.3681,朔州市,市二中,细颗粒物(PM2.5),63,66,118,45,68,65,65,27,27,18,62,10,27,0.3,0.8
2022-01-10T13:00:00,2171A,112.7532,37.6945,晋中市,锦纶小区,细颗粒物(PM2.5),102,71,171,76,168,57,57,20,20,27,68,16,35,0.8,1.7
2022-01-10T13:00:00,2173A,112.7249,37.7067,晋中市,南都小区,细颗粒物(PM2.5),138,72,180,105,175,63,60,23,23,21,65,14,33,0.7,1.7
2022-01-10T13:00:00,2174A,112.6991,37.6982,晋中市,榆次区政府,细颗粒物(PM2.5),97,64,189,72,180,56,56,21,21,26,72,16,35,0.8,1.8
2022-01-10T13:00:00,2175A,110.9956,35.0147,运城市,运城中学,颗粒物(PM10),99,147,221,53,178,85,80,39,39,16,39,9,11,0.6,1.7
2022-01-10T13:00:00,2178A,110.9686,35.0303,运城市,地区技校,颗粒物(PM10),116,182,214,62,172,74,74,35,35,23,50,7,8,0.6,1.9
2022-01-10T13:00:00,2179A,111.0414,35.1147,运城市,空港新区,颗粒物(PM10),116,181,226,53,175,77,70,32,32,,53,8,15,0.4,2.3
2022-01-10T13:00:00,2181A,112.7383,38.4519,忻州市,开发区,,,,189,,143,60,60,33,33,,60,,22,0.5,1.6
2022-01-10T13:00:00,2182A,112.7003,38.4928,忻州市,会展中心,颗粒物(PM10),61,71,173,27,127,57,57,33,33,18,61,15,19,0.3,1.3
2022-01-10T13:00:00,2183A,111.1406,37.5211,吕梁市,环保局,,,111,168,59,94,57,53,23,23,,63,,23,,1.1
2022-01-10T13:00:00,2185A,111.1297,37.5136,吕梁市,自来水公司,颗粒物(PM10),85,119,166,62,89,48,48,26,26,28,57,18,18,0.6,1.1
2022-01-10T13:00:00,2187A,106.8174,39.6973,乌海市,市林业局,,24,16,120,13,89,76,75,64,64,10,29,8,16,0.3,1.2
2022-01-10T13:00:00,2188A,106.7907,39.6667,乌海市,中海勃湾学校,,24,18,116,12,86,84,76,72,69,13,28,8,11,0.3,1.1
2022-01-10T13:00:00,2191A,122.2532,43.6801,通辽市,艺术职业学校,,26,25,36,18,30,75,54,60,51,9,12,6,8,0.3,0.3
2022-01-10T13:00:00,2192A,119.7594,49.2261,呼伦贝尔市,区环保局,,30,25,30,21,23,46,46,35,35,7,21,6,6,0.2,0.3
2022-01-10T13:00:00,2195A,107.4212,40.761,巴彦淖尔市,附二中,,43,32,87,30,53,62,60,61,41,15,30,7,16,0.4,0.7
2022-01-10T13:00:00,2196A,107.37,40.7372,巴彦淖尔市,市环保大楼,,30,28,76,21,53,69,66,63,42,15,32,10,15,0.4,0.7
2022-01-10T13:00:00,2197A,113.1306,40.9923,乌兰察布市,集宁新区,,,19,25,12,16,84,76,69,69,8,16,,11,0.3,0.2
2022-01-10T13:00:00,2200A,122.0392,46.0656,兴安盟,胜华新制药厂,,18,18,42,12,33,61,51,44,42,7,12,3,5,0.2,0.3
2022-01-10T13:00:00,2201A,121.9504,46.0741,兴安盟,科右前旗环保局,,18,10,37,12,29,64,55,44,44,5,11,4,5,0.4,0.5
2022-01-10T13:00:00,2202A,116.1042,43.9317,锡林郭勒盟,市环保监测站,,18,10,14,12,8,65,54,61,48,2,16,9,10,0.2,0.3
2022-01-10T13:00:00,2203A,116.0781,43.9311,锡林郭勒盟,市政府,,18,11,13,2,4,67,56,62,47,4,15,9,9,0.5,0.4
2022-01-10T13:00:00,2204A,105.6467,38.8363,阿拉善盟,西城区西花园(对照点),,27,25,78,16,54,106,86,94,78,13,20,3,5,0.3,0.6
2022-01-10T13:00:00,2205A,105.6985,38.8411,阿拉善盟,蒙二幼,,27,7,62,16,56,106,85,96,79,11,15,7,9,0.0,0.4
2022-01-10T13:00:00,2206A,105.724,38.8516,阿拉善盟,环保局新楼,,,,68,,54,107,80,94,82,17,22,5,6,0.2,0.4
2022-01-10T13:00:00,2207A,121.6094,41.998,阜新市,工业园区,颗粒物(PM10),56,62,74,11,53,68,63,60,59,11,33,2,16,0.3,0.9
2022-01-10T13:00:00,2208A,121.6697,42.0279,阜新市,长青街,,26,26,69,3,37,68,63,64,63,5,34,6,23,0.4,0.7
2022-01-10T13:00:00,2209A,121.6673,42.0705,阜新市,农业园区,,41,41,41,6,31,70,59,63,61,4,14,6,20,0.3,0.5
2022-01-10T13:00:00,2210A,121.6717,42.0224,阜新市,东苑,颗粒物(PM10),75,99,76,7,45,68,65,62,60,3,27,3,23,0.5,0.9
2022-01-10T13:00:00,2211A,121.6506,42.0498,阜新市,玉龙新城,,23,23,54,3,36,71,66,67,65,4,27,5,19,0.3,0.7
2022-01-10T13:00:00,2212A,123.2,41.1953,辽阳市,宏伟区,,20,20,113,14,79,51,47,22,22,20,50,12,15,0.9,1.6
2022-01-10T13:00:00,2213A,123.1683,41.2495,辽阳市,新华园,,22,22,118,12,92,49,49,23,23,19,58,17,20,0.7,1.6
2022-01-10T13:00:00,2214A,123.2354,41.2639,辽阳市,滨河路,,34,34,129,14,96,53,43,22,22,20,48,14,17,0.4,1.4
2022-01-10T13:00:00,2215A,123.149,41.2991,辽阳市,铁西工业园,,26,26,165,9,83,57,52,28,28,11,47,9,14,0.4,1.7
2022-01-10T13:00:00,2216A,123.8139,42.3022,铁岭市,汇工街西,,40,40,99,6,83,68,52,26,26,2,29,4,21,0.4,1.2
2022-01-10T13:00:00,2217A,123.8649,42.2923,铁岭市,水上乐园,,32,32,86,9,55,70,57,43,31,14,37,5,5,0.5,0.8
2022-01-10T13:00:00,2218A,123.8486,42.2867,铁岭市,银州路东段,,37,37,77,12,53,68,50,43,36,14,34,7,6,0.3,0.6
2022-01-10T13:00:00,2219A,123.7153,42.2217,铁岭市,金沙江路北,,27,27,84,5,63,64,51,33,33,10,43,4,4,0.6,0.9
2022-01-10T13:00:00,2220A,120.4318,41.5881,朝阳市,西梁,,38,38,67,10,34,71,67,61,61,7,29,12,23,0.6,0.9
2022-01-10T13:00:00,2221A,120.4521,41.5646,朝阳市,河畔小区,,43,43,47,7,26,67,64,61,58,7,24,5,12,0.4,0.7
2022-01-10T13:00:00,2222A,120.4176,41.5648,朝阳市,八里堡,,38,38,57,2,25,69,63,60,59,3,22,8,20,0.1,0.4
2022-01-10T13:00:00,2223A,120.3806,41.5969,朝阳市,农业园区,,,51,53,7,32,78,71,64,62,,29,,14,0.5,0.8
2022-01-10T13:00:00,2225A,124.4002,43.1713,四平市,一商场,颗粒物(PM10),56,61,105,22,54,76,60,48,48,14,41,7,11,0.4,1
2022-01-10T13:00:00,2226A,124.388,43.193,四平市,境园,细颗粒物(PM2.5),55,43,85,39,55,75,61,45,45,11,45,10,12,0.7,1
2022-01-10T13:00:00,2227A,125.1358,42.8845,辽源市,环保局,,,30,92,22,78,74,52,32,32,13,30,,8,,0.9
2022-01-10T13:00:00,2229A,125.9358,41.7173,通化市,光明,细颗粒物(PM2.5),205,203,135,155,93,40,21,14,14,42,48,77,36,2.4,1.8
2022-01-10T13:00:00,2230A,125.9446,41.7325,通化市,铁路,细颗粒物(PM2.5),189,194,111,142,77,59,23,17,17,47,50,67,29,2.5,1.9
2022-01-10T13:00:00,2231A,126.4219,41.9171,白山市,喜丰,"颗粒物(PM10),细颗粒物(PM2.5)",97,144,139,72,74,69,52,31,31,33,52,58,40,1.2,1.5
2022-01-10T13:00:00,2232A,126.4077,41.9419,白山市,环保局,颗粒物(PM10),111,171,112,76,66,69,14,24,15,40,52,44,29,,1.5
2022-01-10T13:00:00,2233A,124.8006,45.1214,松原市,江南,细颗粒物(PM2.5),108,112,159,81,108,55,35,20,20,26,52,16,12,1.2,1.1
2022-01-10T13:00:00,2234A,124.7965,45.1722,松原市,江北,细颗粒物(PM2.5),100,105,136,75,102,67,46,29,29,20,44,17,8,0.7,1
2022-01-10T13:00:00,2235A,122.7911,45.6077,白城市,洮北区环保局,,,26,50,9,29,54,42,38,34,6,16,,10,0.2,0.3
2022-01-10T13:00:00,2236A,122.8738,45.5725,白城市,市环保局,,30,25,53,21,40,58,45,38,38,11,24,9,11,0.4,0.5
2022-01-10T13:00:00,2237A,129.47,42.8883,延边朝鲜族自治州,妇幼医院,颗粒物(PM10),59,68,71,37,58,91,55,57,39,31,26,47,17,0.8,1
2022-01-10T13:00:00,2238A,129.5055,42.9108,延边朝鲜族自治州,延边医院,,,,78,,63,85,53,34,28,,41,,17,1.0,1.1
2022-01-10T13:00:00,2239A,129.3964,42.8881,延边朝鲜族自治州,朝阳川镇医院,细颗粒物(PM2.5),57,46,62,40,49,92,64,46,46,23,22,26,7,0.8,0.9
2022-01-10T13:00:00,2240A,130.9762,45.3001,鸡西市,环保局,细颗粒物(PM2.5),83,72,101,61,84,63,47,34,34,39,55,11,15,0.6,1.1
2022-01-10T13:00:00,2243A,130.9429,45.3039,鸡西市,第一中学,细颗粒物(PM2.5),67,74,87,48,60,66,60,41,41,28,38,16,19,0.4,0.6
2022-01-10T13:00:00,2244A,130.2537,47.3416,鹤岗市,哈啤分公司,,,62,69,37,37,61,48,52,42,,27,13,9,0.5,0.7
2022-01-10T13:00:00,2245A,130.2684,47.3086,鹤岗市,斯达机电,颗粒物(PM10),79,108,74,34,34,55,33,42,28,31,32,10,11,0.6,0.7
2022-01-10T13:00:00,2246A,130.3114,47.3388,鹤岗市,东山纸板厂,颗粒物(PM10),72,94,121,30,56,36,29,19,19,40,52,19,16,0.7,1.9
2022-01-10T13:00:00,2248A,131.1511,46.6937,双鸭山市,双合村,细颗粒物(PM2.5),130,55,113,99,70,50,45,23,23,20,33,14,17,0.8,1.4
2022-01-10T13:00:00,2249A,131.1652,46.6191,双鸭山市,南小市,细颗粒物(PM2.5),109,114,60,82,48,65,49,53,38,27,22,19,11,0.8,0.8
2022-01-10T13:00:00,2250A,131.1524,46.6554,双鸭山市,环保局,细颗粒物(PM2.5),89,90,63,66,52,58,42,24,24,28,33,6,5,0.5,0.5
2022-01-10T13:00:00,2251A,131.12,46.5656,双鸭山市,苗圃(对照点),细颗粒物(PM2.5),132,118,48,100,44,63,38,56,45,42,16,29,8,1.5,0.9
2022-01-10T13:00:00,2252A,128.5159,47.4311,伊春市,环保局,细颗粒物(PM2.5),53,30,30,37,28,32,26,20,20,27,35,8,8,0.7,0.7
2022-01-10T13:00:00,2253A,128.9102,47.7412,伊春市,电力嘉园,,,19,47,19,27,28,17,23,14,,32,10,8,0.5,0.6
2022-01-10T13:00:00,2254A,129.5029,48.471,伊春市,汤旺河国家公园(对照点),,17,4,4,3,1,54,54,40,40,3,4,8,6,0.2,0.2
2022-01-10T13:00:00,2255A,130.2751,46.8028,佳木斯市,佳纺,细颗粒物(PM2.5),140,136,85,107,83,60,32,20,20,34,34,18,18,1.0,1.1
2022-01-10T13:00:00,2256A,130.3995,46.8307,佳木斯市,发电厂,细颗粒物(PM2.5),108,90,75,81,61,61,54,26,26,,39,,10,,0.8
2022-01-10T13:00:00,2257A,130.3258,46.7975,佳木斯市,环保局,细颗粒物(PM2.5),165,158,85,125,64,59,29,16,16,44,46,19,12,0.5,1.2
2022-01-10T13:00:00,2258A,130.3648,46.8032,佳木斯市,十一中,细颗粒物(PM2.5),102,93,76,76,69,57,34,21,21,40,52,14,9,0.6,1.1
2022-01-10T13:00:00,2259A,130.3794,46.7588,佳木斯市,四丰(对照点),细颗粒物(PM2.5),118,128,89,89,49,58,50,49,43,19,15,12,11,0.3,0.4
2022-01-10T13:00:00,2262A,131.0518,45.8751,七台河市,新一中(对照点),,,,54,,41,66,60,48,46,21,16,,6,1.0,0.7
2022-01-10T13:00:00,2263A,127.4833,50.2524,黑河市,交通局,,20,13,40,14,34,48,48,36,34,6,23,6,8,0.5,0.8
2022-01-10T13:00:00,2264A,127.5144,50.2341,黑河市,环保局,,19,19,45,10,42,48,48,40,40,8,21,7,12,0.4,0.6
2022-01-10T13:00:00,2265A,127.5291,50.2472,黑河市,大黑河岛(对照点),,16,16,30,2,34,44,44,36,36,9,21,5,11,0.5,0.7
2022-01-10T13:00:00,2266A,126.9785,46.6365,绥化市,人和东街,细颗粒物(PM2.5),55,56,95,39,78,38,38,19,19,26,42,15,16,0.5,0.6
2022-01-10T13:00:00,2267A,126.964,46.6528,绥化市,党政办公中心,细颗粒物(PM2.5),80,81,118,59,96,42,42,20,20,23,47,11,21,0.5,0.8
2022-01-10T13:00:00,2269A,124.1069,50.4097,大兴安岭地区,科技局,,,16,18,10,18,46,,37,33,9,13,3,10,0.1,0
2022-01-10T13:00:00,2270A,117.396,32.939,蚌埠市,工人疗养院,细颗粒物(PM2.5),162,174,155,123,120,72,50,62,14,55,56,9,10,0.8,0.8
2022-01-10T13:00:00,2271A,117.3605,32.9427,蚌埠市,百货大楼,细颗粒物(PM2.5),147,190,187,112,116,95,65,50,18,46,64,7,6,0.6,0.9
2022-01-10T13:00:00,2273A,117.4185,32.8911,蚌埠市,蚌埠学院,细颗粒物(PM2.5),107,107,138,80,104,106,101,52,34,21,59,10,12,0.5,0.7
2022-01-10T13:00:00,2274A,117.3533,32.9673,蚌埠市,淮上区政府,细颗粒物(PM2.5),153,164,162,117,118,94,64,19,19,47,68,12,11,0.4,0.7
2022-01-10T13:00:00,2275A,117.3145,32.8977,蚌埠市,高新区,细颗粒物(PM2.5),119,117,144,90,119,108,82,34,28,38,58,11,9,0.6,0.8
2022-01-10T13:00:00,2277A,116.8305,32.7727,淮南市,潘集区政府,细颗粒物(PM2.5),132,117,160,100,127,90,68,46,33,35,38,7,6,0.7,0.8
2022-01-10T13:00:00,2278A,117.0067,32.6524,淮南市,师范学院,细颗粒物(PM2.5),113,117,156,85,105,99,56,63,23,36,51,9,8,0.7,0.9
2022-01-10T13:00:00,2279A,116.8569,32.5951,淮南市,谢家集区政府,细颗粒物(PM2.5),87,66,112,64,88,100,74,50,40,26,43,7,10,0.6,0.6
2022-01-10T13:00:00,2280A,116.8281,32.633,淮南市,八公山区政府,细颗粒物(PM2.5),118,93,97,89,88,90,74,51,47,17,28,6,10,0.6,0.6
2022-01-10T13:00:00,2281A,116.6325,32.6201,淮南市,焦岗湖风景区管理处(对照点),细颗粒物(PM2.5),104,94,105,78,86,104,70,26,26,,54,7,7,0.6,0.7
2022-01-10T13:00:00,2282A,116.8004,33.975,淮北市,监测站,细颗粒物(PM2.5),175,172,144,132,107,87,66,39,22,34,46,6,4,1.3,1.3
2022-01-10T13:00:00,2283A,116.8091,33.9007,淮北市,烈山区政府,细颗粒物(PM2.5),152,136,129,116,105,101,30,38,36,69,41,7,6,1.3,0.9
2022-01-10T13:00:00,2284A,116.7856,33.9477,淮北市,职业技术学院,细颗粒物(PM2.5),190,180,151,143,118,87,51,25,16,39,48,7,6,1.2,1.3
2022-01-10T13:00:00,2285A,117.8177,30.9412,铜陵市,市第四中学,,,90,64,65,50,58,36,33,15,,50,,4,0.8,0.8
2022-01-10T13:00:00,2286A,117.8059,30.9273,铜陵市,市公路局,细颗粒物(PM2.5),94,91,71,70,54,53,40,34,19,41,45,8,7,0.9,0.9
2022-01-10T13:00:00,2287A,117.7807,30.9413,铜陵市,市新民污水厂,细颗粒物(PM2.5),70,82,85,51,59,49,43,29,16,40,48,7,6,1.0,1
2022-01-10T13:00:00,2288A,117.7439,30.8792,铜陵市,市第九中学,细颗粒物(PM2.5),100,76,82,75,72,56,33,18,18,44,43,6,3,1.1,1
2022-01-10T13:00:00,2289A,117.846,30.9413,铜陵市,车站新区,细颗粒物(PM2.5),70,72,60,51,50,57,32,19,14,33,39,3,3,0.8,0.8
2022-01-10T13:00:00,2290A,117.8483,30.97,铜陵市,市职教基地,"颗粒物(PM10),细颗粒物(PM2.5)",63,75,64,45,42,64,33,28,19,37,37,9,9,0.8,0.7
2022-01-10T13:00:00,2291A,117.0809,30.5177,安庆市,环科院,细颗粒物(PM2.5),87,55,48,64,56,92,39,54,28,33,25,9,7,1.1,0.8
2022-01-10T13:00:00,2292A,117.0331,30.5119,安庆市,马山宾馆,细颗粒物(PM2.5),79,49,47,58,54,91,50,66,31,38,36,5,6,0.8,0.9
2022-01-10T13:00:00,2294A,116.9896,30.6145,安庆市,安庆大学,细颗粒物(PM2.5),64,68,64,46,51,95,58,36,34,27,37,4,4,0.6,0.5
2022-01-10T13:00:00,2295A,118.2903,29.6963,黄山市,延安路89号,细颗粒物(PM2.5),94,92,50,70,42,43,30,18,16,20,22,7,7,0.5,0.5
2022-01-10T13:00:00,2296A,118.327,29.7178,黄山市,黄山东路89号,细颗粒物(PM2.5),92,72,51,68,45,40,26,16,14,24,22,6,6,0.7,0.6
2022-01-10T13:00:00,2297A,118.1371,30.2756,黄山市,黄山区政府5号楼,,43,43,35,28,27,58,35,29,24,20,17,5,6,0.8,0.8
2022-01-10T13:00:00,2298A,118.3093,32.3153,滁州市,老年大学,细颗粒物(PM2.5),107,105,136,80,95,108,97,43,43,28,61,10,11,0.6,0.8
2022-01-10T13:00:00,2299A,118.3244,32.2786,滁州市,人大宾馆,细颗粒物(PM2.5),163,149,124,124,98,102,84,35,35,39,63,15,10,0.8,0.9
2022-01-10T13:00:00,2301A,115.8277,32.8929,阜阳市,市监测站,细颗粒物(PM2.5),182,166,143,137,119,97,25,26,16,60,45,11,10,1.0,0.9
2022-01-10T13:00:00,2303A,115.8554,32.8605,阜阳市,开发区,细颗粒物(PM2.5),193,200,176,145,130,101,10,16,11,63,45,9,7,1.1,1
2022-01-10T13:00:00,2307A,116.5079,31.737,六安市,监测大楼,细颗粒物(PM2.5),110,109,81,83,67,91,13,41,18,,38,6,6,0.8,0.5
2022-01-10T13:00:00,2308A,116.4738,31.7643,六安市,皖西学院,细颗粒物(PM2.5),98,122,84,73,61,92,16,58,12,65,40,8,7,0.8,0.6
2022-01-10T13:00:00,2309A,116.4996,31.7905,六安市,朝阳厂,细颗粒物(PM2.5),107,110,79,80,64,93,14,60,11,68,43,10,6,0.8,0.7
2022-01-10T13:00:00,2310A,116.5567,31.7886,六安市,开发区,细颗粒物(PM2.5),114,117,96,86,67,103,18,52,12,68,39,13,6,0.7,0.5
2022-01-10T13:00:00,2311A,115.8072,33.8399,亳州市,污水处理厂,细颗粒物(PM2.5),169,161,135,128,108,91,27,40,38,51,29,7,6,1.1,0.8
2022-01-10T13:00:00,2312A,115.7789,33.8518,亳州市,三国揽胜宫,细颗粒物(PM2.5),176,198,157,133,108,88,36,54,30,40,30,7,5,0.9,0.7
2022-01-10T13:00:00,2314A,117.47,30.6618,池州市,池州学院,细颗粒物(PM2.5),75,69,83,55,72,72,48,38,20,28,30,8,8,0.7,1
2022-01-10T13:00:00,2316A,118.7581,30.9454,宣城市,鳌峰子站,细颗粒物(PM2.5),143,74,52,109,86,65,37,55,28,46,42,12,8,1.1,0.9
2022-01-10T13:00:00,2317A,118.7385,30.9743,宣城市,敬亭山子站,,,,51,,86,66,30,36,24,51,37,14,10,,0.8
2022-01-10T13:00:00,2318A,118.7173,30.9427,宣城市,开发区子站,细颗粒物(PM2.5),142,61,52,108,86,66,35,55,32,48,36,9,6,1.1,0.9
2022-01-10T13:00:00,2319A,119.0141,25.4325,莆田市,荔城区仓后路,,,,41,,36,80,65,44,40,18,27,4,4,,0.6
2022-01-10T13:00:00,2320A,119.0015,25.4553,莆田市,莆田市监测站,,22,12,41,9,35,92,70,47,47,12,27,4,5,0.6,0.7
2022-01-10T13:00:00,2321A,119.1119,25.4561,莆田市,涵江区六中,,22,21,36,15,31,86,70,54,40,12,25,5,6,0.5,0.5
2022-01-10T13:00:00,2322A,119.1013,25.3215,莆田市,秀屿区政府,,40,34,31,28,32,90,61,44,33,21,22,5,5,0.7,0.7
2022-01-10T13:00:00,2323A,118.981,25.4792,莆田市,东圳水库(对照点),,23,12,33,9,24,93,71,56,56,8,19,3,4,0.4,0.5
2022-01-10T13:00:00,2324A,117.6211,26.2625,三明市,三钢,,28,27,21,19,16,18,15,18,15,15,18,6,10,1.2,1.7
2022-01-10T13:00:00,2325A,117.635,26.2714,三明市,三明二中,,33,33,22,19,16,24,18,21,18,16,18,6,8,1.0,1
2022-01-10T13:00:00,2326A,117.6028,26.2378,三明市,三元区政府,,34,34,19,23,17,24,15,23,17,24,21,7,6,1.2,1
2022-01-10T13:00:00,2327A,117.7275,26.3108,三明市,洋溪(对照点),,42,42,28,29,19,25,18,19,18,16,18,9,8,1.1,1.1
2022-01-10T13:00:00,2331A,118.0966,26.6761,南平市,茫荡山(对照点),,14,7,3,8,4,50,43,36,36,7,8,2,2,0.9,0.9
2022-01-10T13:00:00,2332A,118.1681,26.6369,南平市,南平市监测站,,,21,19,,18,45,41,19,19,14,17,6,5,0.8,0.7
2022-01-10T13:00:00,2333A,118.1825,26.6489,南平市,南平铝业有限公司,,24,24,20,13,16,52,40,20,20,11,13,13,5,0.7,0.6
2022-01-10T13:00:00,2334A,118.1756,26.6272,南平市,南平七中,,,22,20,12,18,52,41,18,18,12,16,11,11,,0.8
2022-01-10T13:00:00,2335A,117.0189,25.1181,龙岩市,龙岩师专(对照点),,43,38,26,30,21,29,18,22,11,26,21,13,11,0.7,0.6
2022-01-10T13:00:00,2336A,117.0217,25.1033,龙岩市,龙岩市监测站,,43,40,27,30,19,38,16,28,9,30,25,12,10,0.8,0.6
2022-01-10T13:00:00,2337A,117.0258,25.0661,龙岩市,闽西职业技术学院,,45,45,31,30,18,42,16,22,9,28,25,12,9,0.8,0.6
2022-01-10T13:00:00,2338A,117.0196,25.0306,龙岩市,龙岩学院,颗粒物(PM10),55,60,34,38,21,46,20,15,12,30,26,11,7,0.6,0.6
2022-01-10T13:00:00,2339A,119.5001,26.6946,宁德市,金涵水库(对照点),颗粒物(PM10),52,53,42,31,38,48,31,37,22,32,32,8,7,0.8,0.6
2022-01-10T13:00:00,2341A,119.5388,26.6612,宁德市,宁德市监测站,,,54,38,29,39,58,35,34,17,,28,,8,0.7,0.6
2022-01-10T13:00:00,2342A,117.3102,29.3867,景德镇市,王港中学(对照点),,27,27,24,18,16,51,45,17,17,5,8,5,4,0.3,0.3
2022-01-10T13:00:00,2343A,117.2117,29.2933,景德镇市,老干部活动中心,,32,32,39,21,25,35,31,23,16,15,20,3,4,0.8,0.8
2022-01-10T13:00:00,2344A,117.1894,29.2789,景德镇市,兽医站,,29,18,36,20,25,33,33,25,18,7,13,4,5,0.7,0.7
2022-01-10T13:00:00,2345A,117.1547,29.2617,景德镇市,台达陶瓷,,,34,38,22,23,31,16,22,14,25,25,,7,0.7,0.9
2022-01-10T13:00:00,2346A,117.2461,29.2956,景德镇市,陶研所,颗粒物(PM10),51,52,40,18,20,37,31,18,14,16,17,5,6,0.7,0.7
2022-01-10T13:00:00,2347A,114.0997,27.5002,萍乡市,武功山(对照点),,39,39,30,27,30,42,26,26,26,16,22,7,5,1.0,1.2
2022-01-10T13:00:00,2348A,113.8385,27.6434,萍乡市,中医院,细颗粒物(PM2.5),92,77,79,68,71,41,41,30,30,27,31,8,10,1.3,1.4
2022-01-10T13:00:00,2349A,113.8493,27.6253,萍乡市,市政府车库,细颗粒物(PM2.5),100,80,75,75,69,37,37,26,26,30,36,10,12,1.1,1.4
2022-01-10T13:00:00,2350A,113.8676,27.6435,萍乡市,市环保局,细颗粒物(PM2.5),105,79,80,79,75,40,40,30,30,27,36,7,9,0.8,1.1
2022-01-10T13:00:00,2351A,113.866,27.6198,萍乡市,安源区政府,细颗粒物(PM2.5),93,84,81,69,62,36,35,28,26,26,30,4,6,0.6,1.1
2022-01-10T13:00:00,2352A,115.0861,27.9317,新余市,北岗(对照点),细颗粒物(PM2.5),68,58,54,49,44,46,32,18,18,30,29,23,7,0.6,0.6
2022-01-10T13:00:00,2353A,114.9886,27.8431,新余市,飞宇,颗粒物(PM10),65,80,72,44,41,41,41,27,21,33,36,20,9,0.6,0.7
2022-01-10T13:00:00,2354A,114.9231,27.8246,新余市,第二水厂,细颗粒物(PM2.5),65,69,69,47,47,42,39,27,24,29,33,12,6,0.5,0.7
2022-01-10T13:00:00,2355A,114.9308,27.8036,新余市,市气象局,细颗粒物(PM2.5),60,65,61,43,49,40,40,32,24,30,30,12,7,0.6,0.6
2022-01-10T13:00:00,2357A,116.9822,28.1136,鹰潭市,龙虎山(对照点),,45,40,31,31,40,69,42,46,46,15,9,33,6,1.1,0.9
2022-01-10T13:00:00,2358A,117.0564,28.2642,鹰潭市,新监测站,细颗粒物(PM2.5),58,32,40,41,60,68,37,30,28,19,27,20,8,0.8,0.8
2022-01-10T13:00:00,2359A,117.0311,28.2475,鹰潭市,财苑宾馆,细颗粒物(PM2.5),64,32,42,46,59,64,36,34,28,17,23,16,9,0.9,0.9
2022-01-10T13:00:00,2360A,117.0222,28.2264,鹰潭市,体育馆,细颗粒物(PM2.5),62,36,43,44,60,65,39,34,28,18,26,14,10,0.7,0.6
2022-01-10T13:00:00,2361A,117.0017,28.2131,鹰潭市,三川水表,细颗粒物(PM2.5),64,33,53,46,61,63,38,28,25,18,29,14,11,1.0,1
2022-01-10T13:00:00,2362A,114.9017,25.9149,赣州市,通天岩(对照点),,31,31,29,20,19,54,31,36,31,9,8,1,3,1.2,1.2
2022-01-10T13:00:00,2363A,114.9367,25.8664,赣州市,地委,,39,35,30,27,20,48,21,24,17,19,15,8,8,1.2,1.1
2022-01-10T13:00:00,2364A,114.9461,25.8481,赣州市,气象台,,42,40,28,29,21,37,14,22,11,27,20,5,5,1.0,0.9
2022-01-10T13:00:00,2365A,114.9322,25.8333,赣州市,市图书馆,,32,26,29,22,19,33,11,20,10,28,23,5,7,1.4,1.3
2022-01-10T13:00:00,2366A,114.8905,25.8471,赣州市,华坚鞋城,,48,48,44,18,21,38,20,27,22,21,15,12,8,1.1,1.1
2022-01-10T13:00:00,2367A,114.9754,27.0803,吉安市,红声器材厂,颗粒物(PM10),54,58,50,32,30,58,46,55,51,25,18,9,17,0.7,0.6
2022-01-10T13:00:00,2368A,114.9658,27.0999,吉安市,市森林工业局,细颗粒物(PM2.5),55,52,45,39,32,62,50,60,54,32,26,5,12,0.8,0.7
2022-01-10T13:00:00,2369A,114.99,27.1312,吉安市,市环境监测站,,,54,46,38,30,60,39,56,48,27,20,3,11,,0.9
2022-01-10T13:00:00,2370A,115.0093,27.0968,吉安市,青原区法院,细颗粒物(PM2.5),58,52,45,41,35,60,39,54,50,28,18,13,21,0.8,0.7
2022-01-10T13:00:00,2371A,114.3408,27.8064,宜春市,槟榔水业(对照点),细颗粒物(PM2.5),67,66,52,48,38,52,37,52,24,27,28,8,7,0.9,0.8
2022-01-10T13:00:00,2373A,114.3956,27.7844,宜春市,市石油公司,细颗粒物(PM2.5),69,67,48,50,36,45,30,45,20,22,23,13,11,0.9,0.9
2022-01-10T13:00:00,2374A,114.3703,27.7914,宜春市,市气象局,细颗粒物(PM2.5),73,68,50,53,39,45,35,45,20,26,29,8,6,1.0,1
2022-01-10T13:00:00,2375A,114.4013,27.8074,宜春市,市广电局,细颗粒物(PM2.5),75,63,50,55,40,46,26,42,13,28,28,4,7,1.1,1
2022-01-10T13:00:00,2376A,116.2127,28.0814,抚州市,桐源党溪(对照点),细颗粒物(PM2.5),57,52,46,40,37,67,58,35,35,3,6,7,11,0.9,1
2022-01-10T13:00:00,2377A,116.3544,27.9831,抚州市,市站,细颗粒物(PM2.5),53,53,53,37,41,83,64,48,42,21,27,15,8,0.9,0.9
2022-01-10T13:00:00,2378A,116.3565,27.963,抚州市,血防站,细颗粒物(PM2.5),64,60,57,46,45,83,62,52,41,16,20,15,7,0.8,0.8
2022-01-10T13:00:00,2379A,116.3564,28.0007,抚州市,采茶剧团,"颗粒物(PM10),细颗粒物(PM2.5)",53,56,52,37,41,76,56,41,38,29,24,16,9,0.8,0.8
2022-01-10T13:00:00,2380A,116.385,27.9647,抚州市,医学分院,颗粒物(PM10),56,61,54,37,38,82,58,48,35,9,13,14,8,1.1,1.1
2022-01-10T13:00:00,2381A,118.005,28.4572,上饶市,百草园(对照点),细颗粒物(PM2.5),65,52,54,47,39,36,30,19,19,29,28,9,16,0.6,1.3
2022-01-10T13:00:00,2382A,117.9756,28.4436,上饶市,市监测站,颗粒物(PM10),57,64,71,36,47,37,35,15,15,24,27,8,23,0.6,0.7
2022-01-10T13:00:00,2383A,117.9519,28.4628,上饶市,凤凰光学,细颗粒物(PM2.5),53,54,58,37,39,38,31,17,17,27,27,10,9,1.1,1.2
2022-01-10T13:00:00,2385A,114.17,35.9019,鹤壁市,市监测站,细颗粒物(PM2.5),215,177,231,165,191,23,16,6,6,62,66,6,5,1.7,2.3
2022-01-10T13:00:00,2386A,114.2956,35.7511,鹤壁市,市交警支队,细颗粒物(PM2.5),246,223,196,196,160,24,15,17,7,63,46,7,6,1.7,1.4
2022-01-10T13:00:00,2387A,114.2878,35.7306,鹤壁市,迎宾馆,细颗粒物(PM2.5),230,199,166,180,148,32,16,24,8,63,43,6,6,1.5,1.3
2022-01-10T13:00:00,2389A,113.836,35.311,新乡市,环保西院,细颗粒物(PM2.5),306,275,182,256,151,33,17,31,18,63,36,10,10,2.3,1.4
2022-01-10T13:00:00,2390A,113.884,35.272,新乡市,开发区,细颗粒物(PM2.5),296,277,172,246,135,33,20,31,16,56,29,8,8,2.0,1.2
2022-01-10T13:00:00,2391A,113.883,35.303,新乡市,环保东院,细颗粒物(PM2.5),269,220,140,219,120,38,22,38,18,58,32,8,8,2.0,1.3
2022-01-10T13:00:00,2392A,115.0312,35.7636,濮阳市,环保局,细颗粒物(PM2.5),307,264,159,257,154,41,19,16,15,44,34,8,8,1.9,1.4
