timepoint,stationcode,longitude,latitude,area,positionname,primarypollutant,aqi,pm10,pm10_24h,pm2_5,pm2_5_24h,o3,o3_24h,o3_8h,o3_8h_24h,no2,no2_24h,so2,so2_24h,co,co_24h
2022-01-10T12:00:00,1001A,116.3621,39.8784,北京市,万寿西宫,,20,14,49,6,37,61,61,51,51,10,41,4,4,0.4,0.8
2022-01-10T12:00:00,1002A,116.2202,40.2915,北京市,定陵(对照点),,22,14,37,3,29,70,70,66,66,2,20,3,3,0.2,0.5
2022-01-10T12:00:00,1003A,116.4174,39.9289,北京市,东四,,21,21,51,5,38,64,64,50,50,6,36,1,2,0.3,0.8
2022-01-10T12:00:00,1004A,116.4072,39.8863,北京市,天坛,,25,25,45,5,35,66,66,56,56,7,28,1,1,0.2,0.7
2022-01-10T12:00:00,1005A,116.462,39.9365,北京市,农展馆,,20,15,60,5,37,62,62,36,36,7,41,2,2,0.2,0.8
2022-01-10T12:00:00,1006A,116.3392,39.9295,北京市,官园,,23,23,51,6,40,58,58,42,42,8,38,1,2,0.2,0.7
2022-01-10T12:00:00,1007A,116.2878,39.9611,北京市,海淀万柳,,28,28,57,6,39,61,61,36,36,11,47,3,3,0.3,0.7
2022-01-10T12:00:00,1008A,116.6636,40.135,北京市,顺义新城,,20,12,53,5,39,63,63,37,37,5,32,1,2,0.2,0.7
2022-01-10T12:00:00,1009A,116.6275,40.3275,北京市,怀柔镇,,20,12,47,5,38,62,62,29,29,6,28,1,2,0.2,0.6
2022-01-10T12:00:00,1010A,116.2296,40.217,北京市,昌平镇,,21,16,41,4,32,67,67,59,59,5,25,3,3,0.1,0.5
2022-01-10T12:00:00,1011A,116.3966,39.9821,北京市,奥体中心,,22,18,52,4,36,68,68,58,58,5,39,2,2,0.2,0.7
2022-01-10T12:00:00,1012A,116.184,39.9136,北京市,古城,,43,43,62,5,41,61,61,36,36,5,47,3,2,0.2,0.8
2022-01-10T12:00:00,1015A,117.1444,39.1661,天津市,勤俭道,,21,21,55,8,29,65,65,19,19,11,44,5,9,0.3,0.6
2022-01-10T12:00:00,1017A,117.237,39.1082,天津市,大直沽八号路,,33,33,51,19,30,58,58,16,16,11,38,5,7,0.6,0.8
2022-01-10T12:00:00,1018A,117.202,39.0927,天津市,前进道,,26,26,46,15,27,63,63,22,22,13,39,5,7,0.4,0.5
2022-01-10T12:00:00,1019A,117.1837,39.2133,天津市,淮河道,,22,22,65,9,35,66,66,17,17,9,46,4,11,0.3,0.8
2022-01-10T12:00:00,1021A,117.307,39.0877,天津市,跃进路,,38,38,49,22,28,56,56,15,15,16,44,3,5,0.5,0.6
2022-01-10T12:00:00,1023A,117.707,39.0343,天津市,第四大街,细颗粒物(PM2.5),94,104,51,70,28,43,15,14,6,47,54,12,7,1.6,0.7
2022-01-10T12:00:00,1024A,117.457,38.8394,天津市,永明路,细颗粒物(PM2.5),87,90,43,64,26,62,32,16,9,30,38,13,9,1.5,0.6
2022-01-10T12:00:00,1026A,117.764,39.1587,天津市,汉北路,细颗粒物(PM2.5),82,91,52,60,30,42,25,6,6,41,42,13,7,1.2,0.5
2022-01-10T12:00:00,1027A,117.157,38.9194,天津市,团泊洼(对照点),,23,23,42,14,24,64,64,16,16,15,50,5,6,0.4,0.6
2022-01-10T12:00:00,1029A,114.4422,38.0444,石家庄市,职工医院,细颗粒物(PM2.5),104,107,161,78,136,36,26,7,7,26,67,6,6,1.1,1.7
2022-01-10T12:00:00,1030A,114.6063,38.0266,石家庄市,高新区,细颗粒物(PM2.5),73,74,159,53,113,33,33,8,8,22,61,5,5,0.8,1.5
2022-01-10T12:00:00,1031A,114.4898,38.1328,石家庄市,西北水源,细颗粒物(PM2.5),88,82,180,65,138,32,32,10,10,24,68,7,6,0.4,1.2
2022-01-10T12:00:00,1032A,114.4586,38.0058,石家庄市,西南高教,细颗粒物(PM2.5),68,75,189,49,145,39,28,9,9,26,60,7,7,0.8,1.6
2022-01-10T12:00:00,1033A,114.5331,38.0178,石家庄市,世纪公园,细颗粒物(PM2.5),74,78,180,54,142,35,35,10,10,23,64,5,5,0.7,1.4
2022-01-10T12:00:00,1034A,114.509,38.0457,石家庄市,人民会堂,,,75,168,51,132,27,,4,4,16,56,7,7,0.7,1.4
2022-01-10T12:00:00,1035A,114.3524,37.8911,石家庄市,封龙山(对照点),细颗粒物(PM2.5),113,127,155,85,113,43,29,14,14,33,75,1,5,0.9,1.4
2022-01-10T12:00:00,1037A,118.131,39.6363,唐山市,雷达站,,,,69,,38,56,,37,23,,36,,8,,0.8
2022-01-10T12:00:00,1038A,118.1725,39.6334,唐山市,物资局,,30,28,66,21,38,62,62,29,28,12,41,8,11,0.6,0.8
2022-01-10T12:00:00,1040A,118.1705,39.6506,唐山市,十二中,,27,27,67,12,39,63,63,38,27,14,43,4,9,0.5,0.8
2022-01-10T12:00:00,1041A,118.1869,39.622,唐山市,小山,,36,36,75,11,40,64,64,22,22,15,46,5,9,0.5,0.8
2022-01-10T12:00:00,1042A,119.5134,39.8207,秦皇岛市,北戴河环保局,,48,45,43,33,33,61,56,42,42,10,34,12,11,0.6,0.7
2022-01-10T12:00:00,1043A,119.7493,40.0116,秦皇岛市,第一关,,48,48,58,17,37,60,60,27,27,15,47,8,12,0.4,0.6
2022-01-10T12:00:00,1044A,119.5897,39.9499,秦皇岛市,监测站,颗粒物(PM10),59,67,63,31,44,49,49,26,26,24,51,11,12,0.6,0.7
2022-01-10T12:00:00,1046A,119.5251,39.9041,秦皇岛市,建设大厦,,,,72,,45,46,,25,25,20,42,,12,0.6,0.8
2022-01-10T12:00:00,1048A,114.5302,36.6116,邯郸市,东污水处理厂,细颗粒物(PM2.5),142,144,219,108,207,21,15,8,6,47,57,3,1,1.0,1.5
2022-01-10T12:00:00,1049A,114.4918,36.5713,邯郸市,矿院,细颗粒物(PM2.5),153,145,203,117,201,32,17,22,12,,47,4,3,1.0,1.3
2022-01-10T12:00:00,1050A,114.484,36.6133,邯郸市,丛台公园,细颗粒物(PM2.5),145,133,222,111,216,29,21,20,10,49,65,7,4,0.9,1.6
2022-01-10T12:00:00,1051A,115.493,38.8632,保定市,游泳馆,细颗粒物(PM2.5),64,50,101,46,88,40,40,14,14,39,66,6,7,0.6,1
2022-01-10T12:00:00,1052A,115.5213,38.8959,保定市,华电二区,颗粒物(PM10),52,54,105,31,80,38,38,14,14,45,69,8,8,0.7,1.2
2022-01-10T12:00:00,1053A,115.4713,38.9108,保定市,接待中心,细颗粒物(PM2.5),52,52,111,36,80,46,46,17,17,34,60,8,6,0.8,1.2
2022-01-10T12:00:00,1054A,115.4612,38.8416,保定市,地表水厂,,49,49,111,33,71,44,44,16,16,34,62,10,11,0.6,1.1
2022-01-10T12:00:00,1055A,115.4323,38.8697,保定市,胶片厂,颗粒物(PM10),51,51,98,34,75,45,45,15,15,34,60,9,9,0.7,1
2022-01-10T12:00:00,1056A,115.5086,38.8639,保定市,监测站,细颗粒物(PM2.5),52,51,112,36,84,37,37,14,14,36,62,4,6,0.7,1.2
2022-01-10T12:00:00,1057A,114.8883,40.8336,张家口市,人民公园,,24,19,23,8,8,75,75,72,57,7,11,2,3,0.3,0.4
2022-01-10T12:00:00,1059A,114.8687,40.8042,张家口市,五金库,,24,24,27,5,15,73,72,65,58,8,14,7,7,0.4,0.5
2022-01-10T12:00:00,1060A,114.8902,40.762,张家口市,世纪豪园,,23,17,24,7,12,74,72,68,60,8,14,4,5,0.3,0.4
2022-01-10T12:00:00,1061A,114.8916,40.8661,张家口市,北泵房(对照点),,25,14,26,4,22,79,78,68,57,2,6,8,8,0.5,0.6
2022-01-10T12:00:00,1062A,117.9531,40.9081,承德市,铁路,,29,29,83,13,54,66,66,33,33,10,41,3,10,0.2,1.2
2022-01-10T12:00:00,1063A,117.9392,40.9763,承德市,中国银行,,29,29,80,8,60,68,68,28,28,12,43,6,10,0.5,1.4
2022-01-10T12:00:00,1064A,117.9503,40.928,承德市,开发区,,,,82,19,54,73,73,34,34,12,49,6,12,0.4,1.3
2022-01-10T12:00:00,1065A,117.8051,40.9655,承德市,文化中心,,22,22,75,1,57,67,67,29,29,8,46,2,7,0.3,1
2022-01-10T12:00:00,1066A,117.9268,41.0026,承德市,离宫(对照点),,24,24,58,14,45,68,68,42,42,3,29,3,5,0.2,0.7
2022-01-10T12:00:00,1067A,116.6708,39.5111,廊坊市,药材公司,,44,44,76,9,41,58,58,23,23,11,48,3,5,0.4,0.9
2022-01-10T12:00:00,1068A,116.7214,39.5589,廊坊市,开发区,,22,22,74,3,41,61,61,22,22,14,49,2,4,0.2,0.9
2022-01-10T12:00:00,1070A,116.7244,39.5269,廊坊市,北华航天学院,,42,42,81,7,37,61,61,23,23,19,51,4,6,0.2,0.8
2022-01-10T12:00:00,1071A,116.8842,38.2991,沧州市,沧县城建局,细颗粒物(PM2.5),52,49,70,36,49,60,40,9,9,28,47,11,9,0.6,0.7
2022-01-10T12:00:00,1072A,116.8584,38.3254,沧州市,电视转播站,颗粒物(PM10),51,51,68,23,40,64,47,13,13,26,45,6,7,0.6,0.7
2022-01-10T12:00:00,1073A,116.8709,38.3228,沧州市,市环保局,颗粒物(PM10),52,53,59,28,43,64,42,10,10,30,44,4,6,0.5,0.7
2022-01-10T12:00:00,1074A,115.6838,37.7541,衡水市,电机北厂,细颗粒物(PM2.5),72,61,202,52,190,46,29,9,7,49,52,10,9,0.8,1.4
2022-01-10T12:00:00,1075A,115.6303,37.7316,衡水市,市监测站,细颗粒物(PM2.5),82,62,191,60,190,40,26,7,7,34,48,12,6,0.5,1.2
2022-01-10T12:00:00,1077A,114.4704,37.0886,邢台市,达活泉,,,83,229,66,205,36,36,12,12,35,76,12,9,,1.8
2022-01-10T12:00:00,1078A,114.5062,37.0349,邢台市,邢师高专,细颗粒物(PM2.5),100,100,219,75,200,32,32,11,11,34,72,6,3,0.8,1.7
2022-01-10T12:00:00,1079A,114.5237,37.0851,邢台市,路桥公司,细颗粒物(PM2.5),83,86,205,61,191,34,34,12,12,28,62,7,4,0.7,1.6
2022-01-10T12:00:00,1080A,114.4725,37.0719,邢台市,市环保局,细颗粒物(PM2.5),89,119,238,66,197,31,31,10,10,37,71,12,9,0.8,1.7
2022-01-10T12:00:00,1081A,112.5139,37.8873,太原市,尖草坪,细颗粒物(PM2.5),93,109,183,69,122,42,41,13,13,35,77,27,27,1.4,1.8
2022-01-10T12:00:00,1083A,112.434,38.0108,太原市,上兰(对照点),细颗粒物(PM2.5),108,109,147,81,114,45,45,15,15,32,66,16,19,0.8,1.7
2022-01-10T12:00:00,1084A,112.469,37.7124,太原市,晋源,细颗粒物(PM2.5),109,108,202,82,164,42,42,14,14,40,85,20,27,1.4,2.1
2022-01-10T12:00:00,1085A,112.5583,37.7394,太原市,小店,,,,217,,162,44,,20,20,35,81,16,33,1.2,2
2022-01-10T12:00:00,1086A,112.5369,37.8692,太原市,桃园,细颗粒物(PM2.5),94,100,179,70,135,44,44,19,19,34,78,22,28,1.2,1.8
2022-01-10T12:00:00,1087A,112.57,37.8195,太原市,坞城,,,109,194,71,143,44,,20,20,32,79,21,38,1.3,1.9
2022-01-10T12:00:00,1088A,112.549,37.9854,太原市,南寨,细颗粒物(PM2.5),92,98,167,68,118,45,44,13,13,30,67,18,20,0.8,1.6
2022-01-10T12:00:00,1090A,111.6507,40.7517,呼和浩特市,呼市一监,,34,34,80,20,54,78,63,73,61,15,22,11,11,0.5,0.7
2022-01-10T12:00:00,1091A,111.6572,40.8033,呼和浩特市,小召,,48,48,70,17,48,70,47,67,62,34,35,16,14,0.7,0.7
2022-01-10T12:00:00,1094A,111.7516,40.8369,呼和浩特市,如意水处理厂,,20,14,45,4,31,64,64,58,58,18,31,9,13,0.4,0.6
2022-01-10T12:00:00,1095A,111.7276,40.8062,呼和浩特市,二十九中,,20,20,60,9,39,70,61,63,62,23,30,13,14,0.4,0.6
2022-01-10T12:00:00,1096A,111.5512,40.7866,呼和浩特市,工大金川校区,颗粒物(PM10),55,60,91,34,60,65,47,64,42,20,27,20,18,0.6,0.7
2022-01-10T12:00:00,1097A,111.717,40.7612,呼和浩特市,化肥厂生活区,,20,20,77,12,51,66,48,61,60,26,29,15,14,0.8,0.9
2022-01-10T12:00:00,1098A,123.6836,41.9339,沈阳市,森林路(对照点),,,25,64,20,50,69,47,36,36,10,29,11,12,,0.6
2022-01-10T12:00:00,1099A,123.505,41.7406,沈阳市,浑南东路,,38,38,111,16,80,54,49,30,30,20,56,20,23,0.6,1.3
2022-01-10T12:00:00,1100A,123.4231,41.6989,沈阳市,新秀街,,,23,118,12,81,44,41,22,22,,75,,16,0.5,1.3
2022-01-10T12:00:00,1102A,123.5903,41.8411,沈阳市,东陵路,,38,22,82,26,67,57,48,26,26,14,42,14,15,0.4,0.8
2022-01-10T12:00:00,1103A,123.4264,41.8467,沈阳市,陵东街,,29,29,122,13,82,54,54,28,28,14,64,15,22,0.6,1.5
2022-01-10T12:00:00,1104A,123.4114,41.7653,沈阳市,文化路,,28,28,116,17,91,42,42,26,26,20,63,36,34,0.4,1.4
2022-01-10T12:00:00,1105A,123.4678,41.7867,沈阳市,小河沿,,24,24,111,14,78,46,46,25,25,20,64,12,17,0.4,1.3
2022-01-10T12:00:00,1106A,123.4017,41.7972,沈阳市,太原街,,33,33,91,19,69,38,38,20,20,27,63,14,25,0.4,0.9
2022-01-10T12:00:00,1108A,123.3783,41.9228,沈阳市,京沈街,,20,20,88,11,63,55,55,38,38,10,47,8,16,0.6,1.1
2022-01-10T12:00:00,1109A,121.612,38.9741,大连市,甘井子,细颗粒物(PM2.5),82,83,69,60,51,55,38,42,23,36,43,12,13,0.6,0.9
2022-01-10T12:00:00,1110A,121.565,38.9511,大连市,周水子,颗粒物(PM10),62,73,66,42,40,54,39,43,22,34,46,16,17,1.0,1.1
2022-01-10T12:00:00,1111A,121.5637,38.8845,大连市,星海三站,,,84,66,56,46,57,23,57,16,,54,,20,1.0,1.1
2022-01-10T12:00:00,1112A,121.6302,38.9117,大连市,青泥洼桥,颗粒物(PM10),74,97,77,51,44,56,36,28,24,48,58,19,20,1.1,1.3
2022-01-10T12:00:00,1113A,121.6251,38.8638,大连市,傅家庄,细颗粒物(PM2.5),88,83,60,65,46,43,30,24,18,38,52,15,17,0.9,1.1
2022-01-10T12:00:00,1114A,121.5213,38.8661,大连市,七贤岭,细颗粒物(PM2.5),82,83,54,60,57,63,45,62,27,26,31,13,14,1.1,1.2
2022-01-10T12:00:00,1115A,121.2529,38.8061,大连市,旅顺,细颗粒物(PM2.5),67,61,57,48,49,70,56,52,36,23,32,14,16,0.6,1
2022-01-10T12:00:00,1116A,121.7485,39.1311,大连市,金州,细颗粒物(PM2.5),67,63,87,48,62,62,48,27,18,23,41,16,18,0.6,1.1
2022-01-10T12:00:00,1117A,121.7811,39.0496,大连市,开发区,细颗粒物(PM2.5),57,59,59,40,45,54,40,18,18,35,55,14,18,0.7,1.2
2022-01-10T12:00:00,1118A,121.9762,39.0631,大连市,双D港,细颗粒物(PM2.5),74,71,70,54,51,69,48,36,22,43,54,9,20,0.8,1.1
2022-01-10T12:00:00,1119A,125.3325,43.9166,长春市,食品厂,细颗粒物(PM2.5),142,126,86,108,72,50,38,18,18,30,51,10,18,0.9,0.9
2022-01-10T12:00:00,1120A,125.2863,43.9027,长春市,客车厂,细颗粒物(PM2.5),110,133,83,83,65,60,49,22,22,26,53,1,16,0.7,0.8
2022-01-10T12:00:00,1121A,125.2841,43.8463,长春市,邮电学院,细颗粒物(PM2.5),124,151,93,94,68,52,37,15,15,28,54,12,13,0.9,1
2022-01-10T12:00:00,1122A,125.3716,43.8772,长春市,劳动公园,细颗粒物(PM2.5),125,117,84,95,76,53,53,28,28,27,48,12,14,0.8,0.9
2022-01-10T12:00:00,1123A,125.3297,43.8805,长春市,园林处,,,,72,,56,54,48,19,19,,51,14,19,,0.7
2022-01-10T12:00:00,1124A,125.4605,43.79,长春市,净月潭,细颗粒物(PM2.5),97,78,74,72,60,77,50,34,34,25,31,4,3,0.6,0.6
2022-01-10T12:00:00,1125A,125.7194,43.515,长春市,甩湾子(对照点),,36,33,100,25,101,76,47,29,29,15,30,5,5,0.7,1.4
2022-01-10T12:00:00,1127A,125.245,43.7783,长春市,高新区管委会,细颗粒物(PM2.5),109,98,88,82,80,65,51,26,26,17,39,8,8,0.8,1
2022-01-10T12:00:00,1128A,125.1761,43.8325,长春市,岱山公园,颗粒物(PM10),99,147,86,66,71,75,59,36,36,22,42,3,3,0.7,0.8
2022-01-10T12:00:00,1129A,126.5422,45.755,哈尔滨市,岭北(对照点),细颗粒物(PM2.5),226,176,142,176,99,55,19,12,12,61,54,29,21,0.9,0.5
2022-01-10T12:00:00,1130A,126.561,45.8167,哈尔滨市,松北商大,细颗粒物(PM2.5),237,188,114,187,102,48,25,17,17,63,57,19,16,1.9,1.3
2022-01-10T12:00:00,1131A,126.979,45.5419,哈尔滨市,阿城会宁,细颗粒物(PM2.5),152,126,80,116,71,69,26,30,30,44,37,30,19,1.5,1.3
2022-01-10T12:00:00,1133A,126.689,45.7733,哈尔滨市,太平宏伟公园,细颗粒物(PM2.5),217,261,170,167,143,49,22,18,18,65,70,37,29,1.8,1.8
2022-01-10T12:00:00,1134A,126.635,45.7667,哈尔滨市,道外承德广场,细颗粒物(PM2.5),232,231,131,182,114,37,8,6,6,60,61,33,26,1.7,1.4
2022-01-10T12:00:00,1135A,126.685,45.7319,哈尔滨市,香坊红旗大街,细颗粒物(PM2.5),294,231,156,244,144,50,22,14,14,76,68,68,53,2.2,1.8
2022-01-10T12:00:00,1136A,126.6411,45.7258,哈尔滨市,动力和平路,细颗粒物(PM2.5),244,200,141,194,124,43,31,21,21,36,38,46,39,1.0,0.9
2022-01-10T12:00:00,1137A,126.593,45.7478,哈尔滨市,道里建国路,细颗粒物(PM2.5),247,225,120,197,106,40,14,8,8,64,62,41,34,1.0,1
2022-01-10T12:00:00,1138A,126.615,45.61,哈尔滨市,平房东轻厂,细颗粒物(PM2.5),260,211,132,210,123,57,15,9,9,69,52,38,22,1.6,1.2
2022-01-10T12:00:00,1139A,126.595,45.9855,哈尔滨市,呼兰师专,细颗粒物(PM2.5),162,168,123,123,112,45,31,27,14,38,45,31,32,1.5,1.4
2022-01-10T12:00:00,1140A,126.6206,45.6842,哈尔滨市,省农科院,,,,154,,129,41,21,9,9,,68,73,38,1.6,1.6
2022-01-10T12:00:00,1141A,121.4,31.238,上海市,普陀,细颗粒物(PM2.5),149,112,91,114,100,76,37,57,36,81,69,8,5,1.9,1.2
2022-01-10T12:00:00,1142A,121.478,31.2036,上海市,十五厂,细颗粒物(PM2.5),153,96,78,117,95,73,56,62,53,56,52,7,7,1.7,1.4
2022-01-10T12:00:00,1143A,121.467,31.3008,上海市,虹口,细颗粒物(PM2.5),119,80,67,90,79,68,43,65,34,70,64,8,4,1.5,1
2022-01-10T12:00:00,1144A,121.412,31.1654,上海市,徐汇上师大,细颗粒物(PM2.5),169,102,76,128,105,68,38,35,27,77,69,10,8,1.9,1.4
2022-01-10T12:00:00,1145A,121.536,31.2659,上海市,杨浦四漂,细颗粒物(PM2.5),94,56,59,70,70,78,74,71,51,50,62,7,7,0.8,0.7
2022-01-10T12:00:00,1147A,121.425,31.2261,上海市,静安监测站,细颗粒物(PM2.5),156,110,88,119,102,75,39,55,43,77,62,6,6,1.9,1.3
2022-01-10T12:00:00,1148A,121.703,31.1907,上海市,浦东川沙,细颗粒物(PM2.5),124,59,65,94,92,80,,80,34,,43,4,4,1.6,1.4
2022-01-10T12:00:00,1149A,121.533,31.2284,上海市,浦东新区监测站,细颗粒物(PM2.5),102,59,56,76,69,82,75,61,50,39,54,6,6,1.3,1.3
2022-01-10T12:00:00,1150A,121.577,31.2071,上海市,浦东张江,细颗粒物(PM2.5),133,78,71,101,94,84,69,67,43,52,61,6,6,1.0,1
2022-01-10T12:00:00,1151A,118.8086,32.1065,南京市,迈皋桥,细颗粒物(PM2.5),163,164,133,124,99,61,12,4,4,62,64,4,4,1.0,0.9
2022-01-10T12:00:00,1152A,118.7538,32.0551,南京市,草场门,细颗粒物(PM2.5),132,136,122,100,87,50,20,6,6,57,66,7,6,0.9,0.8
2022-01-10T12:00:00,1153A,118.7794,32.0745,南京市,山西路,细颗粒物(PM2.5),170,161,142,129,105,62,24,8,8,70,73,5,4,0.8,0.8
2022-01-10T12:00:00,1155A,118.8109,32.0309,南京市,瑞金路,细颗粒物(PM2.5),140,130,119,107,96,67,34,10,10,55,68,4,4,0.8,0.9
2022-01-10T12:00:00,1156A,118.7997,32.0754,南京市,玄武湖,细颗粒物(PM2.5),163,141,117,124,97,59,37,11,11,48,68,5,5,1.0,1
2022-01-10T12:00:00,1157A,118.6414,32.0931,南京市,浦口,细颗粒物(PM2.5),128,141,129,97,84,66,8,6,6,79,74,5,5,1.2,1.1
2022-01-10T12:00:00,1158A,118.7356,31.9996,南京市,奥体中心,细颗粒物(PM2.5),147,144,138,112,99,66,19,10,10,62,63,6,6,1.1,1.1
2022-01-10T12:00:00,1159A,118.9125,32.1028,南京市,仙林大学城,细颗粒物(PM2.5),140,151,122,107,89,68,18,5,5,64,56,11,7,1.3,1.1
2022-01-10T12:00:00,1160A,120.561,31.2472,苏州市,上方山(对照点),细颗粒物(PM2.5),195,149,87,146,106,36,5,3,3,78,63,10,8,1.3,1
2022-01-10T12:00:00,1162A,120.591,31.3019,苏州市,彩香,细颗粒物(PM2.5),188,140,95,141,122,51,30,6,6,53,66,5,6,1.0,1.1
2022-01-10T12:00:00,1163A,120.596,31.3264,苏州市,轧钢厂,细颗粒物(PM2.5),142,86,74,108,88,62,44,14,14,46,62,10,9,0.9,1.1
2022-01-10T12:00:00,1164A,120.613,31.2703,苏州市,吴中区,细颗粒物(PM2.5),172,121,92,130,108,61,16,7,7,69,67,5,5,1.1,1.1
2022-01-10T12:00:00,1165A,120.543,31.2994,苏州市,苏州新区,细颗粒物(PM2.5),190,186,142,143,120,54,26,10,10,56,54,9,9,1.0,1
2022-01-10T12:00:00,1166A,120.669,31.3097,苏州市,苏州工业园区,细颗粒物(PM2.5),192,117,104,144,99,68,41,11,11,40,55,5,5,1.0,1.2
2022-01-10T12:00:00,1167A,120.641,31.3708,苏州市,相城区,细颗粒物(PM2.5),199,127,106,149,129,66,37,19,19,56,62,6,7,1.1,1.2
2022-01-10T12:00:00,1168A,120.9098,31.9663,南通市,狼山街道,细颗粒物(PM2.5),168,136,111,127,94,89,53,68,35,50,39,3,3,1.0,0.9
2022-01-10T12:00:00,1169A,120.86,32.0005,南通市,虹桥,细颗粒物(PM2.5),143,91,91,109,109,95,64,78,45,40,39,11,8,0.8,0.8
2022-01-10T12:00:00,1170A,120.87,32.02,南通市,城中,细颗粒物(PM2.5),143,116,108,109,108,101,62,92,51,62,54,7,5,1.0,0.9
2022-01-10T12:00:00,1171A,120.94,31.93,南通市,星湖花园,细颗粒物(PM2.5),144,125,106,110,101,90,47,90,28,53,45,7,6,0.9,0.8
2022-01-10T12:00:00,1172A,120.81,32.0417,南通市,紫琅学院,细颗粒物(PM2.5),195,135,109,146,108,105,55,80,25,45,40,13,8,0.9,0.7
2022-01-10T12:00:00,1173A,119.176,34.5885,连云港市,市环境监测站,细颗粒物(PM2.5),79,90,78,58,57,91,44,48,36,32,30,6,6,0.7,0.7
2022-01-10T12:00:00,1177A,117.179,34.2761,徐州市,黄河新村,细颗粒物(PM2.5),158,197,147,120,112,74,13,25,9,88,69,8,7,2.0,1.7
2022-01-10T12:00:00,1178A,117.1918,34.2384,徐州市,淮塔,细颗粒物(PM2.5),170,123,96,129,111,77,12,44,6,79,58,10,7,1.3,1
2022-01-10T12:00:00,1180A,117.256,34.2153,徐州市,新城区,细颗粒物(PM2.5),183,171,132,138,105,92,18,60,5,64,48,8,7,1.0,0.9
2022-01-10T12:00:00,1181A,117.244,34.2911,徐州市,桃园路,颗粒物(PM10),137,224,178,,129,75,8,29,3,83,59,11,10,2.1,1.4
2022-01-10T12:00:00,1182A,117.2933,34.2778,徐州市,农科院,细颗粒物(PM2.5),203,180,148,153,129,81,10,16,4,68,49,11,11,,0.8
2022-01-10T12:00:00,1186A,119.389,32.3761,扬州市,邗江监测站,细颗粒物(PM2.5),166,144,149,126,121,97,54,49,20,48,51,16,14,0.9,0.9
2022-01-10T12:00:00,1188A,120.269,31.4867,无锡市,雪浪,细颗粒物(PM2.5),149,163,105,114,79,47,16,6,6,72,52,10,8,1.3,1.2
2022-01-10T12:00:00,1190A,120.294,31.56,无锡市,曹张,细颗粒物(PM2.5),160,148,116,122,95,42,23,8,8,56,57,10,9,1.3,1.3
2022-01-10T12:00:00,1191A,120.242,31.5031,无锡市,漆塘,细颗粒物(PM2.5),153,178,98,117,69,53,,8,5,66,36,10,6,,1.2
2022-01-10T12:00:00,1192A,120.3489,31.5863,无锡市,东亭,细颗粒物(PM2.5),163,161,135,124,101,53,25,8,8,64,69,7,7,1.2,1.4
2022-01-10T12:00:00,1193A,120.354,31.5475,无锡市,旺庄,细颗粒物(PM2.5),168,151,121,127,97,57,34,13,13,54,64,11,9,1.3,1.4
2022-01-10T12:00:00,1194A,120.245,31.5631,无锡市,荣巷,细颗粒物(PM2.5),144,144,100,110,79,31,14,6,6,69,56,10,8,1.3,1.1
2022-01-10T12:00:00,1195A,120.299,31.6817,无锡市,堰桥,细颗粒物(PM2.5),178,171,150,134,109,70,47,16,16,44,66,11,8,1.2,1.4
2022-01-10T12:00:00,1196A,119.9633,31.762,常州市,市监测站,细颗粒物(PM2.5),188,188,171,141,122,20,17,10,10,79,74,9,7,1.0,0.9
2022-01-10T12:00:00,1200A,119.9468,31.7069,常州市,武进监测站,细颗粒物(PM2.5),199,195,169,149,131,23,11,4,4,79,66,3,3,1.1,1
2022-01-10T12:00:00,1201A,119.9255,31.9087,常州市,安家,细颗粒物(PM2.5),227,220,189,177,154,63,11,5,5,76,65,11,10,1.4,1.3
2022-01-10T12:00:00,1203A,119.6707,32.1875,镇江市,新区办事处,细颗粒物(PM2.5),208,178,143,158,130,77,46,21,15,49,56,7,6,1.1,1.1
2022-01-10T12:00:00,1204A,119.4974,32.1968,镇江市,职教中心,细颗粒物(PM2.5),216,171,138,166,123,79,20,32,7,62,54,8,6,1.1,1.1
2022-01-10T12:00:00,1205A,119.4303,32.1328,镇江市,丹徒区监测站,细颗粒物(PM2.5),224,202,153,174,134,81,6,2,2,80,62,7,7,1.0,1
2022-01-10T12:00:00,1206A,119.905,32.4878,泰州市,公园路,细颗粒物(PM2.5),180,190,159,136,128,106,47,43,34,42,30,7,7,1.1,1
2022-01-10T12:00:00,1207A,119.9189,32.4625,泰州市,莲花,细颗粒物(PM2.5),196,173,152,147,138,107,62,58,51,41,33,8,6,0.7,0.7
2022-01-10T12:00:00,1209A,119.888,32.4639,泰州市,留学生创业园,细颗粒物(PM2.5),169,172,164,128,119,110,65,61,52,38,27,9,7,0.9,0.8
2022-01-10T12:00:00,1210A,119.036,33.5981,淮安市,钵池山,细颗粒物(PM2.5),210,221,173,160,153,98,9,28,5,68,53,4,3,1.6,1.3
2022-01-10T12:00:00,1211A,119.007,33.575,淮安市,北京南路,细颗粒物(PM2.5),216,219,203,166,156,79,15,28,5,84,65,8,5,1.6,1.5
2022-01-10T12:00:00,1212A,118.989,33.6067,淮安市,市监测站,细颗粒物(PM2.5),186,263,187,140,130,70,8,33,3,91,68,,9,1.2,1.3
2022-01-10T12:00:00,1213A,119.135,33.5039,淮安市,楚州区监测站,细颗粒物(PM2.5),205,208,190,155,155,99,39,32,18,47,38,10,9,1.2,1.2
2022-01-10T12:00:00,1214A,119.0186,33.6297,淮安市,淮阴区监测站,细颗粒物(PM2.5),210,211,192,160,156,88,21,41,7,59,50,24,17,1.3,1.3
2022-01-10T12:00:00,1215A,120.118,33.4022,盐城市,盐城电厂,细颗粒物(PM2.5),83,106,143,61,109,97,31,13,13,50,42,10,8,0.6,0.9
2022-01-10T12:00:00,1216A,120.156,33.3942,盐城市,市监测站,细颗粒物(PM2.5),89,68,144,66,122,107,74,33,33,34,47,4,3,0.5,0.9
2022-01-10T12:00:00,1218A,120.2144,33.38,盐城市,开发区管委会,细颗粒物(PM2.5),64,58,107,46,92,94,47,15,15,44,48,2,6,0.7,1
2022-01-10T12:00:00,1220A,118.293,33.9528,宿迁市,宿迁学院,细颗粒物(PM2.5),242,220,202,192,167,63,10,6,6,80,70,7,5,1.9,1.7
2022-01-10T12:00:00,1221A,118.2442,33.9592,宿迁市,宿迁中学,细颗粒物(PM2.5),238,247,218,188,169,71,13,6,6,72,58,8,7,1.5,1.4
2022-01-10T12:00:00,1223A,120.2072,30.2111,杭州市,滨江,细颗粒物(PM2.5),109,89,67,82,69,22,21,7,7,46,61,6,5,0.9,0.8
2022-01-10T12:00:00,1224A,120.0633,30.2747,杭州市,西溪,细颗粒物(PM2.5),112,101,73,84,65,29,,6,6,58,53,7,6,0.9,0.8
2022-01-10T12:00:00,1226A,120.3461,30.3153,杭州市,下沙,颗粒物(PM10),83,116,112,46,55,44,17,13,13,59,63,8,7,1.1,1
2022-01-10T12:00:00,1227A,120.1269,30.2456,杭州市,卧龙桥,细颗粒物(PM2.5),98,86,83,73,72,34,34,13,13,36,48,6,6,1.0,1
2022-01-10T12:00:00,1228A,120.1903,30.2692,杭州市,浙江农大,颗粒物(PM10),69,87,85,39,43,26,26,10,10,36,54,7,6,0.9,0.9
2022-01-10T12:00:00,1230A,120.1197,30.3119,杭州市,和睦小学,细颗粒物(PM2.5),117,124,106,88,78,22,18,6,6,46,57,5,5,0.9,0.8
2022-01-10T12:00:00,1231A,120.3019,30.4183,杭州市,临平镇,细颗粒物(PM2.5),127,151,139,96,92,54,24,10,10,49,52,6,5,1.1,1.1
2022-01-10T12:00:00,1232A,120.2697,30.1819,杭州市,城厢镇,细颗粒物(PM2.5),152,139,101,116,82,33,18,7,7,,76,7,6,1.0,1
2022-01-10T12:00:00,1233A,120.0883,30.1808,杭州市,云栖,颗粒物(PM10),61,72,60,43,37,31,31,15,15,33,37,6,6,0.9,0.8
2022-01-10T12:00:00,1234A,121.8358,29.911,宁波市,区环保大楼,颗粒物(PM10),82,113,85,41,37,75,54,16,16,41,49,15,11,1.3,1.2
2022-01-10T12:00:00,1235A,121.56,29.82,宁波市,万里学院,细颗粒物(PM2.5),87,86,58,64,42,83,54,19,19,44,38,18,14,1.1,1.1
2022-01-10T12:00:00,1236A,121.713,29.9572,宁波市,龙赛医院,细颗粒物(PM2.5),73,75,63,53,41,76,55,17,15,37,51,15,13,1.1,1.1
2022-01-10T12:00:00,1239A,121.633,29.7733,宁波市,钱湖水厂,细颗粒物(PM2.5),105,95,72,79,73,80,34,21,21,66,39,15,12,1.2,1
2022-01-10T12:00:00,1240A,121.5856,29.8635,宁波市,太古小学,细颗粒物(PM2.5),83,107,89,61,42,74,48,16,16,46,43,15,8,1.1,1.1
2022-01-10T12:00:00,1241A,121.524,29.8674,宁波市,市环境监测中心,细颗粒物(PM2.5),92,73,62,68,57,81,54,18,18,43,45,12,10,1.1,0.9
2022-01-10T12:00:00,1242A,120.634,28.0089,温州市,瓯海,,31,31,38,17,27,40,40,16,16,38,46,7,6,0.7,0.7
2022-01-10T12:00:00,1243A,120.6748,27.9939,温州市,南浦,,40,40,54,25,34,39,39,23,23,31,36,7,6,0.6,0.7
2022-01-10T12:00:00,1244A,120.76,27.9747,温州市,龙湾,,38,38,64,21,35,31,31,14,14,42,48,5,5,0.4,0.4
2022-01-10T12:00:00,1245A,120.6709,28.0167,温州市,市站,,45,45,55,28,32,38,38,25,25,37,41,6,5,0.6,0.5
2022-01-10T12:00:00,1247A,120.6053,29.9928,绍兴市,城东开发委,细颗粒物(PM2.5),147,120,100,112,94,39,37,17,17,30,40,8,8,0.8,0.8
2022-01-10T12:00:00,1250A,120.0751,30.8669,湖州市,城西水厂,细颗粒物(PM2.5),180,99,62,136,88,38,15,36,9,62,54,10,7,1.1,0.9
2022-01-10T12:00:00,1252A,120.7436,30.778,嘉兴市,清河小学,细颗粒物(PM2.5),159,161,119,121,96,72,16,12,8,63,58,12,10,1.1,0.9
2022-01-10T12:00:00,1253A,120.726,30.7478,嘉兴市,嘉兴学院,细颗粒物(PM2.5),107,150,122,80,70,69,16,14,6,63,61,14,11,1.1,0.8
2022-01-10T12:00:00,1255A,121.273,28.6459,台州市,黄岩环保大楼,,38,36,35,26,22,62,62,34,34,32,26,6,6,0.6,0.5
2022-01-10T12:00:00,1256A,121.419,28.6542,台州市,台州环保大楼,,44,44,52,30,43,73,73,32,32,28,30,6,6,0.5,0.5
2022-01-10T12:00:00,1257A,121.377,28.5773,台州市,路桥田洋王,,45,45,60,25,31,69,69,39,35,21,29,6,5,0.5,0.6
2022-01-10T12:00:00,1258A,122.122,30.0203,舟山市,定海檀枫,,,,40,,30,79,78,66,50,29,26,7,4,0.7,0.6
2022-01-10T12:00:00,1259A,122.3094,29.9558,舟山市,普陀东港,细颗粒物(PM2.5),80,77,49,59,37,98,78,96,72,25,16,6,5,0.8,0.6
2022-01-10T12:00:00,1260A,122.19,29.9944,舟山市,临城新区,细颗粒物(PM2.5),74,80,48,54,29,84,79,81,57,29,24,8,5,0.8,0.7
2022-01-10T12:00:00,1262A,119.647,29.077,金华市,十五中,,,48,52,30,34,30,,12,12,26,44,9,8,0.6,0.6
2022-01-10T12:00:00,1263A,119.686,29.1029,金华市,监测站,,45,45,51,19,34,46,46,17,17,23,44,7,8,0.7,0.7
2022-01-10T12:00:00,1264A,118.8692,28.9398,衢州市,环保大楼,颗粒物(PM10),61,72,52,38,28,25,25,12,12,21,31,4,5,0.6,0.6
2022-01-10T12:00:00,1265A,118.8709,28.9666,衢州市,实验学校,细颗粒物(PM2.5),54,51,39,38,29,28,28,16,16,32,41,8,8,0.8,0.7
2022-01-10T12:00:00,1266A,118.8621,28.9808,衢州市,衢州学院,颗粒物(PM10),64,77,59,32,26,58,30,37,36,30,37,7,6,0.7,0.6
2022-01-10T12:00:00,1267A,119.914,28.4514,丽水市,监测站大楼,,32,30,25,22,21,41,41,26,26,14,25,5,5,0.6,0.5
2022-01-10T12:00:00,1268A,119.93,28.4586,丽水市,莲都小学,,33,27,29,23,19,43,43,27,27,20,32,6,6,0.6,0.5
2022-01-10T12:00:00,1269A,119.879,28.4231,丽水市,余庄前,,35,35,27,19,15,41,41,16,16,24,26,8,7,0.6,0.5
2022-01-10T12:00:00,1270A,117.1959,31.7848,合肥市,明珠广场,细颗粒物(PM2.5),85,88,99,63,62,56,17,22,8,70,57,5,6,0.8,0.8
2022-01-10T12:00:00,1271A,117.3072,31.8764,合肥市,三里街,细颗粒物(PM2.5),122,127,122,92,88,68,,23,7,45,50,6,6,0.9,0.8
2022-01-10T12:00:00,1272A,117.2588,31.8707,合肥市,琥珀山庄,细颗粒物(PM2.5),107,129,107,80,65,67,42,19,11,40,49,8,6,1.1,1.1
2022-01-10T12:00:00,1273A,117.1604,31.9052,合肥市,董铺水库(对照点),细颗粒物(PM2.5),98,106,90,73,54,76,53,36,15,31,43,7,7,0.8,0.8
2022-01-10T12:00:00,1274A,117.25,31.8571,合肥市,长江中路,细颗粒物(PM2.5),107,122,94,80,62,74,42,30,11,40,48,9,7,1.7,1.4
2022-01-10T12:00:00,1275A,117.266,31.9436,合肥市,庐阳区,颗粒物(PM10),101,151,126,73,68,50,25,10,10,41,57,7,6,1.0,0.9
2022-01-10T12:00:00,1276A,117.336,31.8586,合肥市,瑶海区,,,136,123,,73,74,43,22,15,38,50,,6,1.2,1
2022-01-10T12:00:00,1277A,117.3027,31.7964,合肥市,包河区,细颗粒物(PM2.5),122,122,116,92,83,58,28,10,10,54,51,6,6,1.1,1
2022-01-10T12:00:00,1278A,117.2776,31.7385,合肥市,滨湖新区,细颗粒物(PM2.5),98,114,100,73,67,76,29,42,11,61,50,5,5,1.0,0.9
2022-01-10T12:00:00,1279A,117.1318,31.8403,合肥市,高新区,细颗粒物(PM2.5),89,89,98,66,73,72,45,36,12,49,56,6,8,1.1,1.2
2022-01-10T12:00:00,1280A,119.3903,26.0543,福州市,鼓山(对照点),,,,31,,26,71,,40,15,36,39,4,4,1.1,1
2022-01-10T12:00:00,1282A,119.2681,26.0504,福州市,师大,,39,37,39,27,32,70,26,38,20,28,31,2,3,1.0,0.9
2022-01-10T12:00:00,1283A,119.2984,26.1028,福州市,五四北路,,33,29,33,23,27,73,30,45,26,33,27,3,3,0.9,0.8
2022-01-10T12:00:00,1284A,119.2648,26.0768,福州市,杨桥西路,,32,25,38,22,32,66,33,40,25,22,28,3,2,0.7,0.6
2022-01-10T12:00:00,1285A,119.317,26.0746,福州市,紫阳,,40,40,40,26,31,58,16,34,14,30,31,4,4,0.8,0.7
2022-01-10T12:00:00,1286A,118.1608,24.8169,厦门市,溪东(对照点),,25,14,34,15,27,99,79,60,60,8,11,3,2,0.4,0.4
2022-01-10T12:00:00,1287A,118.1514,24.4767,厦门市,洪文,,44,44,44,22,43,123,54,48,34,30,24,7,5,0.6,0.6
2022-01-10T12:00:00,1288A,118.0661,24.4444,厦门市,鼓浪屿,,40,40,43,26,28,137,69,61,54,26,13,12,6,0.6,0.6
2022-01-10T12:00:00,1290A,115.8931,28.6843,南昌市,省外办,细颗粒物(PM2.5),79,73,92,58,68,47,41,28,22,31,41,10,9,0.8,0.8
2022-01-10T12:00:00,1291A,115.8886,28.7003,南昌市,省林业公司,细颗粒物(PM2.5),80,73,96,59,70,54,43,20,20,28,40,12,10,0.9,1
2022-01-10T12:00:00,1292A,115.8126,28.7442,南昌市,林科所,,,,77,,67,58,40,18,15,,35,,7,,1
2022-01-10T12:00:00,1294A,115.8518,28.687,南昌市,建工学校,细颗粒物(PM2.5),85,85,96,63,66,51,40,27,27,34,42,12,12,1.2,1.2
2022-01-10T12:00:00,1295A,115.8921,28.6424,南昌市,象湖,细颗粒物(PM2.5),75,66,68,55,62,45,34,24,24,42,48,3,3,0.9,0.9
2022-01-10T12:00:00,1296A,115.7423,28.7996,南昌市,武术学校(对照点),,,,45,,42,48,47,19,19,11,13,,8,1.3,1.1
2022-01-10T12:00:00,1298A,115.9314,28.6842,南昌市,省站,细颗粒物(PM2.5),84,75,91,62,72,57,44,36,36,25,30,14,12,0.9,0.9
2022-01-10T12:00:00,1299A,116.9862,36.6114,济南市,科干所,细颗粒物(PM2.5),206,188,292,156,223,49,26,14,14,56,80,5,14,1.5,2.3
2022-01-10T12:00:00,1300A,116.9376,36.665,济南市,农科所,细颗粒物(PM2.5),248,230,286,198,206,22,16,12,12,47,68,8,12,1.6,2
2022-01-10T12:00:00,1301A,117.1265,36.6734,济南市,开发区,细颗粒物(PM2.5),236,217,322,186,242,14,,7,7,54,78,9,12,1.4,2.2
2022-01-10T12:00:00,1303A,117.0624,36.6868,济南市,省种子仓库,细颗粒物(PM2.5),253,222,297,203,238,26,,14,14,48,69,,12,1.5,2.1
2022-01-10T12:00:00,1304A,116.9489,36.6447,济南市,机床二厂,细颗粒物(PM2.5),243,227,300,193,229,21,20,12,12,50,76,3,10,1.4,2
2022-01-10T12:00:00,1305A,117.0495,36.663,济南市,市监测站,细颗粒物(PM2.5),230,203,308,180,240,24,20,15,15,58,79,8,13,1.5,2.1
2022-01-10T12:00:00,1306A,116.7675,36.5484,济南市,长清党校,细颗粒物(PM2.5),226,227,297,176,210,52,13,9,9,55,64,8,11,1.4,1.9
2022-01-10T12:00:00,1307A,120.6659,36.2403,青岛市,仰口(对照点),细颗粒物(PM2.5),79,75,50,58,38,87,25,53,30,58,34,8,7,1.3,1.1
2022-01-10T12:00:00,1310A,120.4134,36.0658,青岛市,市南区东部子站,细颗粒物(PM2.5),77,85,50,56,29,51,8,35,28,65,53,5,7,1.4,0.8
2022-01-10T12:00:00,1311A,120.3664,36.1032,青岛市,四方区子站,细颗粒物(PM2.5),128,88,63,97,47,42,4,5,5,64,66,6,8,1.4,0.9
2022-01-10T12:00:00,1312A,120.2994,36.054,青岛市,市南区西部子站,,,85,65,59,32,71,8,28,8,,63,7,11,1.4,0.7
2022-01-10T12:00:00,1313A,120.4581,36.0858,青岛市,崂山区子站,细颗粒物(PM2.5),89,88,53,66,31,54,12,30,21,61,63,8,10,1.4,0.9
2022-01-10T12:00:00,1314A,120.1983,35.9608,青岛市,黄岛区子站,细颗粒物(PM2.5),132,124,71,100,45,51,17,25,16,54,72,6,11,1.3,0.9
2022-01-10T12:00:00,1315A,120.3999,36.3083,青岛市,城阳区子站,细颗粒物(PM2.5),110,156,96,83,45,74,0,6,4,77,71,8,11,2.2,1.4
2022-01-10T12:00:00,1316A,113.69031,34.76122,郑州市,烟厂,细颗粒物(PM2.5),168,176,146,127,123,37,16,30,22,30,41,6,6,1.3,1.2
2022-01-10T12:00:00,1317A,113.65724,34.77134,郑州市,郑纺机,细颗粒物(PM2.5),190,167,134,143,136,34,21,25,24,26,42,5,5,1.7,1.7
2022-01-10T12:00:00,1318A,113.67526,34.80246,郑州市,银行学校,细颗粒物(PM2.5),173,172,124,131,138,47,19,29,27,27,39,5,5,1.4,1.4
2022-01-10T12:00:00,1319A,113.56746,34.81334,郑州市,供水公司,细颗粒物(PM2.5),217,190,147,167,152,39,20,25,24,30,42,5,5,,1.6
2022-01-10T12:00:00,1320A,113.7329,34.7178,郑州市,经开区管委,细颗粒物(PM2.5),186,155,128,140,133,41,18,36,22,24,32,4,4,1.1,1
2022-01-10T12:00:00,1321A,113.73961,34.77172,郑州市,四十七中,细颗粒物(PM2.5),165,188,156,125,131,40,15,27,25,23,33,6,6,1.4,1.4
2022-01-10T12:00:00,1322A,113.60532,34.74838,郑州市,市监测站,细颗粒物(PM2.5),216,209,154,166,147,33,22,26,19,34,47,4,4,1.3,1.3
2022-01-10T12:00:00,1323A,113.64164,34.7525,郑州市,河医大,细颗粒物(PM2.5),204,192,154,154,144,31,17,29,15,31,44,6,6,1.3,1.2
2022-01-10T12:00:00,1324A,113.51488,34.91089,郑州市,岗李水库(对照点),细颗粒物(PM2.5),213,207,123,163,151,47,25,40,33,25,33,8,8,1.5,1.5
2022-01-10T12:00:00,1325A,114.3677,30.5584,武汉市,东湖梨园,细颗粒物(PM2.5),123,86,73,93,70,47,11,24,9,40,46,10,7,1.2,0.9
2022-01-10T12:00:00,1326A,114.2529,30.558,武汉市,汉阳月湖,,,102,70,69,58,42,,26,9,48,54,7,5,,0.9
2022-01-10T12:00:00,1327A,114.282,30.6189,武汉市,汉口花桥,细颗粒物(PM2.5),108,84,71,81,64,33,9,18,7,46,58,12,8,1.2,1.1
2022-01-10T12:00:00,1328A,114.3025,30.5332,武汉市,武昌紫阳,细颗粒物(PM2.5),125,79,67,95,72,60,9,23,8,60,61,9,6,1.3,0.9
2022-01-10T12:00:00,1329A,114.3646,30.6217,武汉市,青山钢花,细颗粒物(PM2.5),107,76,73,80,76,36,9,14,7,38,49,7,6,1.2,1.1
2022-01-10T12:00:00,1330A,114.1566,30.4825,武汉市,沌口新区,细颗粒物(PM2.5),98,124,75,73,59,52,6,17,7,53,56,11,9,1.4,1
2022-01-10T12:00:00,1331A,114.3014,30.5944,武汉市,汉口江滩,细颗粒物(PM2.5),112,93,74,84,74,42,10,30,11,48,52,9,7,1.3,1
2022-01-10T12:00:00,1333A,114.135,30.6319,武汉市,吴家山,细颗粒物(PM2.5),113,97,74,85,66,59,13,7,7,53,62,10,9,0.9,0.8
2022-01-10T12:00:00,1334A,113.8454,30.2917,武汉市,沉湖七壕(对照点),"颗粒物(PM10),细颗粒物(PM2.5)",72,93,58,52,35,86,13,28,11,41,31,26,6,1.3,0.9
2022-01-10T12:00:00,1335A,113.0833,28.2325,长沙市,经开区环保局,,,48,51,50,66,59,,16,16,43,39,,5,0.9,0.7
2022-01-10T12:00:00,1336A,112.8872,28.2189,长沙市,高开区环保局,细颗粒物(PM2.5),87,47,41,64,58,62,6,8,7,41,43,5,4,0.9,0.8
2022-01-10T12:00:00,1337A,113.0792,28.2053,长沙市,马坡岭,细颗粒物(PM2.5),69,42,55,50,68,58,7,14,12,38,36,6,13,1.1,1
2022-01-10T12:00:00,1338A,112.9394,28.19,长沙市,湖南师范大学,细颗粒物(PM2.5),72,38,48,52,65,60,14,19,12,35,37,5,5,0.9,0.9
2022-01-10T12:00:00,1339A,113.0178,28.1322,长沙市,雨花区环保局,细颗粒物(PM2.5),64,41,53,46,67,43,7,10,9,37,41,7,7,1.1,1
2022-01-10T12:00:00,1340A,112.9792,28.2597,长沙市,伍家岭,细颗粒物(PM2.5),77,60,84,56,67,55,12,6,6,41,40,6,5,0.8,0.8
2022-01-10T12:00:00,1341A,113.0014,28.1944,长沙市,火车新站,细颗粒物(PM2.5),64,40,48,46,62,54,8,8,8,42,46,5,5,0.9,0.8
2022-01-10T12:00:00,1342A,112.9844,28.1178,长沙市,天心区环保局,细颗粒物(PM2.5),72,38,46,52,68,59,5,12,12,40,42,5,5,0.9,0.9
2022-01-10T12:00:00,1343A,112.8908,28.1308,长沙市,湖南中医药大学,细颗粒物(PM2.5),79,58,66,58,67,61,5,2,2,43,44,8,8,0.9,0.9
2022-01-10T12:00:00,1344A,112.9581,28.3611,长沙市,沙坪(对照点),细颗粒物(PM2.5),57,45,45,40,51,61,12,32,17,36,31,5,5,1.0,0.9
2022-01-10T12:00:00,1345A,113.2347,23.1423,广州市,广雅中学,颗粒物(PM10),53,55,51,28,31,44,8,6,6,43,38,7,7,1.1,1
2022-01-10T12:00:00,1346A,113.2612,23.105,广州市,市五中,,40,40,42,25,28,56,9,11,11,42,36,5,5,1.3,1.1
2022-01-10T12:00:00,1348A,113.3478,23.0916,广州市,广东商学院,,,17,28,18,22,30,,8,7,53,45,7,6,0.7,0.7
2022-01-10T12:00:00,1349A,113.4332,23.1047,广州市,市八十六中,,40,40,47,23,25,62,13,8,8,46,36,8,6,1.0,0.9
2022-01-10T12:00:00,1350A,113.3505,22.9483,广州市,番禺中学,,45,45,45,22,24,76,11,8,8,51,42,14,10,1.0,0.9
2022-01-10T12:00:00,1351A,113.2146,23.3916,广州市,花都师范,,36,33,30,25,22,37,18,26,17,27,27,5,5,0.8,0.8
2022-01-10T12:00:00,1352A,113.2597,23.1331,广州市,市监测站,,39,39,48,23,34,55,13,8,8,41,42,6,6,1.0,1
2022-01-10T12:00:00,1353A,113.5618,23.312,广州市,九龙镇镇龙,,37,37,40,22,26,64,19,26,21,24,26,5,5,0.7,0.7
2022-01-10T12:00:00,1354A,113.2765,23.1544,广州市,麓湖,,35,35,39,22,26,54,12,6,6,40,39,7,5,0.8,0.9
2022-01-10T12:00:00,1355A,113.443,23.3035,广州市,帽峰山森林公园(对照点),,32,32,33,20,24,63,21,9,9,27,27,6,5,0.9,1
2022-01-10T12:00:00,1356A,114.1063,22.5545,深圳市,通心岭子站,,,49,47,29,28,127,105,31,21,35,29,,2,0.8,0.7
2022-01-10T12:00:00,1357A,114.117,22.5625,深圳市,洪湖,颗粒物(PM10),64,77,67,36,34,132,28,37,14,51,41,8,7,0.8,0.7
2022-01-10T12:00:00,1358A,113.987,22.5417,深圳市,华侨城,,50,50,43,35,29,133,36,37,23,37,30,6,5,0.6,0.5
2022-01-10T12:00:00,1359A,113.9181,22.5171,深圳市,南海子站,,,58,58,35,35,139,,41,23,38,35,7,7,0.5,0.5
2022-01-10T12:00:00,1360A,114.2458,22.5689,深圳市,盐田,,45,45,44,27,29,113,41,36,28,42,42,9,7,0.7,0.7
2022-01-10T12:00:00,1361A,114.2283,22.7244,深圳市,龙岗,,49,49,43,32,25,143,52,32,29,25,17,5,5,1.0,0.9
2022-01-10T12:00:00,1363A,114.494,22.5422,深圳市,南澳,,38,35,43,26,28,141,76,50,50,13,19,7,7,0.4,0.5
2022-01-10T12:00:00,1364A,114.41,22.6342,深圳市,葵涌,,41,41,42,25,25,141,71,30,30,12,14,6,6,0.6,0.7
2022-01-10T12:00:00,1365A,114.297,22.5978,深圳市,梅沙,,43,43,44,27,26,137,66,51,51,18,24,8,7,0.9,0.9
2022-01-10T12:00:00,1366A,114.0678,22.738,深圳市,观澜,颗粒物(PM10),54,58,49,31,26,100,42,28,17,33,27,8,7,0.8,0.8
2022-01-10T12:00:00,1367A,113.5814,22.2618,珠海市,吉大,,48,48,62,24,37,163,40,26,26,41,46,8,8,0.7,0.7
2022-01-10T12:00:00,1368A,113.4881,22.2335,珠海市,前山,颗粒物(PM10),51,52,74,24,31,139,47,20,20,43,51,9,10,0.7,0.8
2022-01-10T12:00:00,1369A,113.628,22.4251,珠海市,唐家,,49,44,54,34,39,194,33,29,29,41,35,11,10,0.6,0.6
2022-01-10T12:00:00,1370A,113.299,22.2281,珠海市,斗门,,50,50,86,28,56,179,42,17,17,35,55,8,9,0.7,0.8
2022-01-10T12:00:00,1371A,113.1294,23.0067,佛山市,湾梁,颗粒物(PM10),53,56,49,18,22,65,12,9,9,48,48,8,7,0.8,0.7
2022-01-10T12:00:00,1372A,113.1083,23.0478,佛山市,华材职中,颗粒物(PM10),54,58,46,26,26,52,8,6,6,38,32,9,8,0.8,0.8
2022-01-10T12:00:00,1373A,113.144,23.0453,佛山市,南海气象局,颗粒物(PM10),51,51,41,20,25,52,4,1,1,45,43,5,5,0.9,0.8
2022-01-10T12:00:00,1374A,113.2881,22.8094,佛山市,顺德苏岗,,,37,45,24,28,78,14,11,11,,51,,4,0.8,0.8
2022-01-10T12:00:00,1376A,112.8383,22.8678,佛山市,高明孔堂,,46,46,41,24,23,54,10,6,6,38,39,9,8,1.0,0.9
2022-01-10T12:00:00,1377A,112.8836,23.1588,佛山市,三水监测站,,49,44,34,34,24,37,5,2,2,35,32,15,10,0.9,0.8
2022-01-10T12:00:00,1378A,112.867,23.185,佛山市,三水云东海,细颗粒物(PM2.5),52,40,36,36,22,45,12,6,6,33,33,31,13,0.9,0.8
2022-01-10T12:00:00,1379A,113.3769,22.5211,中山市,华柏园,颗粒物(PM10),55,59,59,34,40,131,19,17,17,50,53,10,6,0.8,0.8
2022-01-10T12:00:00,1380A,113.3881,22.5497,中山市,张溪,颗粒物(PM10),61,72,69,37,45,123,24,18,18,45,48,6,6,0.8,0.8
2022-01-10T12:00:00,1381A,113.4075,22.5111,中山市,紫马岭,颗粒物(PM10),55,60,62,27,31,144,21,17,17,45,50,6,9,0.8,0.8
2022-01-10T12:00:00,1382A,113.4411,22.4853,中山市,长江旅游区(对照点),颗粒物(PM10),52,53,53,30,34,137,31,18,18,48,53,6,6,0.8,0.7
2022-01-10T12:00:00,1383A,113.1064,22.6058,江门市,北街,,,,55,,25,66,,10,10,43,58,10,8,0.9,1
2022-01-10T12:00:00,1384A,113.0731,22.5835,江门市,西区,颗粒物(PM10),51,52,63,24,29,75,23,10,10,43,57,9,7,0.8,0.8
2022-01-10T12:00:00,1385A,113.0219,22.5311,江门市,圭峰西,,43,43,54,27,33,79,21,10,10,48,60,7,5,0.9,0.9
2022-01-10T12:00:00,1386A,113.0828,22.5947,江门市,东湖,,49,49,65,22,30,75,25,11,11,39,53,11,8,0.8,0.8
2022-01-10T12:00:00,1389A,113.7547,23.0494,东莞市,莞城梨川,,36,36,34,23,25,64,38,33,30,27,24,11,9,0.8,0.7
2022-01-10T12:00:00,1390A,113.7944,23.0128,东莞市,东城石井,,34,34,32,20,21,85,38,26,26,33,29,7,7,0.8,0.8
2022-01-10T12:00:00,1391A,113.7383,22.9658,东莞市,南城西平,,46,46,35,31,29,95,32,14,14,37,35,6,5,0.9,0.8
2022-01-10T12:00:00,1392A,114.4183,23.0528,惠州市,河南岸金山湖子站,,36,36,32,20,22,63,25,29,20,26,25,5,5,0.7,0.7
2022-01-10T12:00:00,1393A,114.4053,23.0822,惠州市,下埔横江三路子站,,37,37,32,18,17,59,27,28,22,26,26,5,5,0.7,0.7
2022-01-10T12:00:00,1394A,114.4103,23.1142,惠州市,江北云山西路子站,,40,40,30,23,23,62,22,28,19,25,22,3,4,0.7,0.6
2022-01-10T12:00:00,1395A,114.4645,22.7833,惠州市,惠阳区承修路船湖子站,颗粒物(PM10),51,51,44,26,23,79,26,18,16,29,28,4,4,0.8,0.7
2022-01-10T12:00:00,1396A,114.5317,22.7422,惠州市,大亚湾管委会子站,颗粒物(PM10),58,66,39,24,25,98,62,27,16,27,27,2,3,0.7,0.8
2022-01-10T12:00:00,1397A,112.4267,23.0706,肇庆市,睦岗子站,,39,39,38,24,23,49,17,15,13,31,35,8,8,0.8,0.9
2022-01-10T12:00:00,1398A,112.4645,23.0475,肇庆市,城中子站,,39,39,36,26,22,61,17,17,10,33,36,10,9,0.7,0.7
2022-01-10T12:00:00,1399A,112.5544,23.1522,肇庆市,坑口子站,,39,39,35,26,23,53,14,14,10,31,33,10,9,0.8,0.8
2022-01-10T12:00:00,1400A,112.4753,23.1,肇庆市,七星岩子站(对照点),,40,36,35,28,25,47,12,11,9,27,30,7,7,0.8,0.8
2022-01-10T12:00:00,1401A,108.3103,22.7881,南宁市,二十一中,,,28,24,,13,15,5,11,9,23,21,6,7,1.2,1.1
2022-01-10T12:00:00,1402A,108.3141,22.8528,南宁市,北湖,,29,29,28,18,18,16,7,8,8,18,20,14,13,1.0,1
2022-01-10T12:00:00,1403A,108.3206,22.8225,南宁市,市监测站,,43,43,27,17,16,14,7,12,8,35,33,20,10,1.2,1.1
2022-01-10T12:00:00,1404A,108.3829,22.8037,南宁市,大自然花园,,26,22,18,18,15,18,5,12,8,24,24,6,6,1.2,1.1
2022-01-10T12:00:00,1405A,108.4394,22.7904,南宁市,仙葫(对照点),,21,21,16,14,13,22,4,12,8,23,19,6,6,1.6,1.4
2022-01-10T12:00:00,1406A,108.2397,22.8467,南宁市,区农职院,,23,21,27,16,15,14,6,4,4,22,30,8,9,1.3,1.1
2022-01-10T12:00:00,1407A,108.3275,22.735,南宁市,英华嘉园,,22,22,20,13,13,16,7,12,11,26,24,7,6,1.5,1.3
2022-01-10T12:00:00,1408A,108.2257,22.7757,南宁市,沙井镇街道办,,32,26,29,22,18,11,5,4,4,21,26,7,7,1.1,1
2022-01-10T12:00:00,1409A,110.576,19.9507,海口市,东寨港(对照点),,,,28,,11,100,83,76,58,1,2,,5,0.5,0.4
2022-01-10T12:00:00,1410A,110.3232,20.0574,海口市,海南大学,,36,36,31,14,16,124,73,86,74,7,5,4,5,0.4,0.4
2022-01-10T12:00:00,1411A,110.283,20.0053,海口市,秀英海南医院,,32,28,31,22,17,117,81,91,80,7,6,3,4,0.4,0.4
2022-01-10T12:00:00,1412A,110.338,19.9969,海口市,海南师范大学,,33,33,31,15,14,112,82,82,74,9,8,2,3,0.4,0.4
2022-01-10T12:00:00,1413A,110.33,20.0356,海口市,龙华路环保局宿舍,,37,37,34,15,16,124,82,82,78,11,10,4,5,0.4,0.4
2022-01-10T12:00:00,1414A,106.3787,29.8279,重庆市,缙云山(对照点),,,0,46,0,30,65,,55,40,20,34,3,5,0.4,0.6
2022-01-10T12:00:00,1416A,106.4213,29.8253,重庆市,天生,细颗粒物(PM2.5),72,79,65,52,49,37,22,29,14,27,47,12,9,0.3,0.3
2022-01-10T12:00:00,1417A,106.6263,29.7228,重庆市,两路,颗粒物(PM10),81,112,61,56,44,54,8,33,10,46,45,10,9,1.1,1
2022-01-10T12:00:00,1418A,106.2953,29.5983,重庆市,虎溪,细颗粒物(PM2.5),80,66,63,59,47,42,20,41,16,35,48,11,9,0.2,0.2
2022-01-10T12:00:00,1419A,106.5777,29.5102,重庆市,南坪,颗粒物(PM10),68,86,58,42,35,73,8,15,8,45,44,15,8,1.2,1.1
2022-01-10T12:00:00,1420A,106.6556,29.6277,重庆市,唐家沱,颗粒物(PM10),69,87,60,41,34,62,8,43,10,51,36,8,8,1.3,1.1
2022-01-10T12:00:00,1421A,106.6349,29.4906,重庆市,茶园,细颗粒物(PM2.5),79,91,69,58,46,30,6,10,5,41,49,8,9,0.7,0.6
2022-01-10T12:00:00,1422A,106.3754,29.4572,重庆市,白市驿,细颗粒物(PM2.5),107,85,76,80,48,52,12,28,17,34,42,14,8,1.0,0.9
2022-01-10T12:00:00,1425A,106.6205,29.7166,重庆市,空港,细颗粒物(PM2.5),100,103,54,75,45,70,8,35,9,47,41,14,12,0.6,0.5
2022-01-10T12:00:00,1426A,106.4782,29.4875,重庆市,新山村,细颗粒物(PM2.5),102,100,58,76,46,45,10,20,10,48,53,3,4,1.3,1.3
2022-01-10T12:00:00,1427A,106.5616,29.6453,重庆市,礼嘉,细颗粒物(PM2.5),69,83,55,50,32,49,17,40,19,48,46,12,11,1.1,1
2022-01-10T12:00:00,1428A,106.4522,29.7091,重庆市,蔡家,,,74,67,53,49,31,,6,6,32,56,8,6,1.1,1.2
2022-01-10T12:00:00,1429A,106.5093,29.3917,重庆市,鱼新街,细颗粒物(PM2.5),77,78,63,56,42,38,10,26,12,38,43,19,10,1.0,0.9
2022-01-10T12:00:00,1431A,103.9728,30.7236,成都市,金泉两河,细颗粒物(PM2.5),93,86,105,69,82,7,7,2,2,54,39,3,2,0.8,0.9
2022-01-10T12:00:00,1432A,104.1419,30.6764,成都市,十里店,细颗粒物(PM2.5),73,81,107,53,71,35,11,2,2,58,41,5,5,1.1,1
2022-01-10T12:00:00,1433A,104.0594,30.5767,成都市,三瓦窑,细颗粒物(PM2.5),87,78,101,64,80,37,11,5,5,54,38,3,4,1.1,1
2022-01-10T12:00:00,1434A,104.1122,30.6306,成都市,沙河铺,细颗粒物(PM2.5),88,72,97,65,84,33,15,4,4,51,39,6,7,1.1,1
2022-01-10T12:00:00,1437A,104.0431,30.6556,成都市,君平街,细颗粒物(PM2.5),94,87,115,70,93,22,12,5,5,59,47,9,8,1.4,1.2
2022-01-10T12:00:00,1438A,103.6202,31.0201,成都市,灵岩寺(对照点),,20,14,44,14,23,51,51,41,41,6,18,5,6,0.8,1
2022-01-10T12:00:00,1439A,106.6899,26.5998,贵阳市,马鞍山,,,22,28,24,25,44,,35,13,14,20,8,10,0.7,0.7
2022-01-10T12:00:00,1440A,106.6971,26.5694,贵阳市,市环保站,,,34,34,19,20,34,,20,14,24,26,,8,0.5,0.5
2022-01-10T12:00:00,1441A,106.6243,26.6266,贵阳市,鉴湖路,,27,27,37,9,21,41,17,36,17,17,21,11,13,0.8,0.9
2022-01-10T12:00:00,1442A,106.7487,26.6343,贵阳市,燕子冲,,39,31,32,27,32,57,20,28,17,14,18,9,10,0.9,0.9
2022-01-10T12:00:00,1443A,106.6555,26.4365,贵阳市,碧云窝,颗粒物(PM10),53,56,39,31,16,54,14,37,20,23,19,16,11,1.1,0.9
2022-01-10T12:00:00,1444A,106.694,26.5161,贵阳市,中院村,,39,39,33,24,19,39,16,36,15,22,23,17,13,0.9,0.9
2022-01-10T12:00:00,1445A,106.7109,26.6027,贵阳市,红边门,,,34,37,29,26,44,,26,16,18,30,12,14,2.3,1
2022-01-10T12:00:00,1446A,106.7164,26.5699,贵阳市,新华路,,32,31,35,22,23,41,17,33,15,14,22,7,10,0.5,0.5
2022-01-10T12:00:00,1447A,106.674,26.5424,贵阳市,太慈桥,,39,39,40,19,20,45,14,38,12,22,23,12,14,0.9,0.9
2022-01-10T12:00:00,1450A,102.8204,24.8886,昆明市,呈贡新区,,26,24,24,9,13,96,81,74,74,12,14,5,6,0.1,0.2
2022-01-10T12:00:00,1451A,102.6251,24.9608,昆明市,西山森林公园(对照点),,29,29,19,8,11,90,76,73,70,10,12,9,10,0.3,0.4
2022-01-10T12:00:00,1452A,102.7252,25.0902,昆明市,龙泉镇,,26,15,36,9,15,92,82,56,35,12,30,8,9,0.2,0.4
2022-01-10T12:00:00,1453A,102.7266,25.0375,昆明市,东风东路,,25,19,22,8,10,92,80,63,52,12,22,6,7,0.4,0.5
2022-01-10T12:00:00,1454A,102.6742,25.0669,昆明市,金鼎山,,25,10,26,8,14,87,78,58,58,9,23,9,10,0.3,0.4
2022-01-10T12:00:00,1455A,102.6644,25.0401,昆明市,碧鸡广场,,22,22,23,12,14,80,70,51,51,15,30,9,11,0.2,0.3
2022-01-10T12:00:00,1456A,91.1319,29.6514,拉萨市,八廓街,,26,25,19,18,13,88,62,65,57,16,18,7,8,0.8,0.7
2022-01-10T12:00:00,1457A,91.1221,29.6747,拉萨市,市环保局,,34,34,31,23,19,81,57,43,43,29,33,7,7,0.8,1
2022-01-10T12:00:00,1459A,91.1774,29.6541,拉萨市,西藏大学,,22,21,17,11,8,97,69,77,63,9,11,3,3,0.4,0.5
2022-01-10T12:00:00,1460A,90.9798,29.6588,拉萨市,区辐射站,细颗粒物(PM2.5),74,70,43,54,27,75,51,34,34,30,33,8,8,0.9,0.9
2022-01-10T12:00:00,1461A,91.0834,29.6292,拉萨市,拉萨火车站,,,30,18,17,6,85,,51,26,35,23,7,6,0.8,0.7
2022-01-10T12:00:00,1462A,108.882,34.2749,西安市,高压开关厂,细颗粒物(PM2.5),114,108,147,86,146,85,85,50,50,13,30,11,9,0.7,1.3
2022-01-10T12:00:00,1463A,108.993,34.2629,西安市,兴庆小区,细颗粒物(PM2.5),129,123,135,98,143,78,72,40,40,17,33,10,7,1.2,1.7
2022-01-10T12:00:00,1464A,109.06,34.2572,西安市,纺织城,细颗粒物(PM2.5),147,147,158,112,143,73,73,23,23,19,42,6,5,1.3,1.7
2022-01-10T12:00:00,1465A,108.9356,34.2173,西安市,小寨,细颗粒物(PM2.5),120,117,170,91,152,78,78,47,47,19,40,10,7,0.8,1.2
2022-01-10T12:00:00,1466A,108.954,34.2713,西安市,市人民体育场,细颗粒物(PM2.5),124,118,141,94,149,78,74,37,37,19,35,11,8,1.2,1.7
2022-01-10T12:00:00,1467A,108.8922,34.2322,西安市,高新西区,细颗粒物(PM2.5),117,108,150,88,152,77,77,45,45,13,32,11,8,0.9,1.6
2022-01-10T12:00:00,1468A,108.935,34.3474,西安市,经开区,细颗粒物(PM2.5),137,110,136,104,160,78,78,38,38,12,30,10,7,1.0,1.5
2022-01-10T12:00:00,1469A,108.906,34.1546,西安市,长安区,细颗粒物(PM2.5),108,138,163,81,140,83,83,54,54,14,36,10,5,1.4,2
2022-01-10T12:00:00,1471A,109.2186,34.3731,西安市,临潼区,细颗粒物(PM2.5),195,161,142,146,151,80,67,63,53,25,30,13,10,1.4,1.5
2022-01-10T12:00:00,1472A,108.869,34.378,西安市,草滩(对照点),细颗粒物(PM2.5),125,114,150,95,158,77,77,31,31,16,37,9,6,1.0,1.4
2022-01-10T12:00:00,1473A,108.985,34.1978,西安市,曲江文化产业集团,颗粒物(PM10),112,173,167,83,135,79,75,46,46,15,36,10,7,0.9,1.4
2022-01-10T12:00:00,1474A,109.051,34.3213,西安市,广运潭,细颗粒物(PM2.5),163,126,138,124,150,80,80,28,28,10,30,15,12,1.1,1.6
2022-01-10T12:00:00,1476A,103.631,36.1031,兰州市,兰炼宾馆,颗粒物(PM10),72,94,136,44,71,92,60,72,63,47,39,10,14,0.9,1
2022-01-10T12:00:00,1477A,104.1373,35.9454,兰州市,榆中兰大校区(对照点),颗粒物(PM10),64,77,111,18,47,113,85,107,87,26,29,22,13,0.8,1.3
2022-01-10T12:00:00,1478A,103.8412,36.0726,兰州市,生物制品所,颗粒物(PM10),69,88,142,31,57,100,70,81,67,28,35,18,17,1.1,1
2022-01-10T12:00:00,1479A,103.831,36.0464,兰州市,铁路设计院,,,71,136,35,57,81,,74,56,64,59,,20,0.8,1.3
2022-01-10T12:00:00,1483A,101.524,36.6867,西宁市,第五水厂(对照点),细颗粒物(PM2.5),79,102,95,58,49,90,65,70,45,40,37,15,16,1.9,1.8
2022-01-10T12:00:00,1484A,105.9512,38.6016,银川市,贺兰山马莲口(对照点),细颗粒物(PM2.5),142,139,248,108,186,79,67,59,59,26,44,20,13,0.4,0.7
2022-01-10T12:00:00,1488A,106.2328,38.4975,银川市,贺兰山东路,细颗粒物(PM2.5),142,170,308,108,234,43,33,33,21,52,73,27,25,1.6,3.1
2022-01-10T12:00:00,1489A,106.1358,38.5036,银川市,学院路,细颗粒物(PM2.5),143,164,309,109,217,40,40,24,24,52,81,28,22,1.8,3.6
2022-01-10T12:00:00,1490A,87.5801,43.8303,乌鲁木齐市,监测站,细颗粒物(PM2.5),117,58,136,88,157,46,5,4,4,68,87,5,4,1.9,2.1
2022-01-10T12:00:00,1491A,87.6046,43.768,乌鲁木齐市,收费所,细颗粒物(PM2.5),82,108,132,60,131,37,9,5,5,54,73,3,3,1.2,1.7
2022-01-10T12:00:00,1492A,87.4754,43.9469,乌鲁木齐市,新疆农科院农场(对照点),细颗粒物(PM2.5),275,154,250,225,233,45,11,6,6,73,97,7,11,1.2,1.7
2022-01-10T12:00:00,1493A,87.5525,43.8711,乌鲁木齐市,铁路局,细颗粒物(PM2.5),223,127,188,173,220,32,4,3,3,73,76,6,5,3.4,2.6
2022-01-10T12:00:00,1494A,87.6432,43.831,乌鲁木齐市,三十一中学,细颗粒物(PM2.5),95,61,136,71,157,52,8,3,3,68,89,11,10,1.5,1.8
2022-01-10T12:00:00,1496A,87.7216,44.1747,乌鲁木齐市,米东区环保局,细颗粒物(PM2.5),243,212,261,193,237,38,16,14,9,90,82,4,4,3.0,3
2022-01-10T12:00:00,1508A,112.9433,27.8614,湘潭市,板塘,,,44,66,48,70,58,11,5,5,,52,7,7,0.7,0.8
2022-01-10T12:00:00,1511A,112.9118,27.8403,湘潭市,市监测站,细颗粒物(PM2.5),70,56,78,51,71,55,8,4,4,36,41,7,8,1.1,0.8
2022-01-10T12:00:00,1512A,112.8937,27.8728,湘潭市,江麓,细颗粒物(PM2.5),79,52,76,58,72,70,9,3,3,32,42,8,9,0.7,0.7
2022-01-10T12:00:00,1513A,112.9227,27.8159,湘潭市,岳塘,细颗粒物(PM2.5),69,56,72,50,67,63,15,14,13,40,45,4,4,0.9,0.9
2022-01-10T12:00:00,1514A,112.9074,27.9119,湘潭市,科大,细颗粒物(PM2.5),75,66,84,55,70,64,13,8,8,34,44,5,7,0.8,0.8
2022-01-10T12:00:00,1515A,113.135,27.8244,株洲市,天台山庄,,,29,73,,78,40,17,10,7,,37,6,6,,0.6
2022-01-10T12:00:00,1518A,113.095,27.8867,株洲市,株冶医院,细颗粒物(PM2.5),65,39,76,47,70,30,17,13,12,34,47,4,5,1.0,1
2022-01-10T12:00:00,1519A,113.167,27.8667,株洲市,市四中,细颗粒物(PM2.5),99,61,93,74,81,35,28,11,11,26,37,7,6,0.7,0.8
2022-01-10T12:00:00,1520A,113.143,27.8381,株洲市,火车站,细颗粒物(PM2.5),74,63,94,54,70,40,23,11,10,39,47,6,6,0.9,0.9
2022-01-10T12:00:00,1524A,113.13,27.8528,株洲市,市监测站,细颗粒物(PM2.5),89,61,88,66,86,37,18,10,10,43,47,5,6,0.6,0.6
2022-01-10T12:00:00,1552A,106.805,26.3003,贵阳市,桐木岭(对照点),,28,27,24,19,16,69,27,44,30,8,5,8,8,0.8,0.7
2022-01-10T12:00:00,1559A,113.251,27.8336,株洲市,大京风景区(对照点),细颗粒物(PM2.5),74,56,77,54,67,42,29,12,12,26,31,5,5,0.6,0.8
2022-01-10T12:00:00,1562A,113.0048,27.9153,湘潭市,昭山,细颗粒物(PM2.5),69,46,73,50,70,46,5,3,3,37,41,5,6,0.8,0.7
2022-01-10T12:00:00,1564A,112.4876,27.9164,湘潭市,韶山(对照点),细颗粒物(PM2.5),87,67,62,64,40,71,43,32,32,21,18,5,4,0.7,0.6
2022-01-10T12:00:00,1585A,109.8756,40.6532,包头市,市环境监测站,,,,79,,53,67,64,62,56,,30,5,13,0.5,1.6
2022-01-10T12:00:00,1587A,109.9991,40.5842,包头市,包头八中,,32,32,96,4,57,70,58,62,57,24,34,8,20,0.6,1
2022-01-10T12:00:00,1588A,109.8538,40.6821,包头市,青山宾馆,,30,30,63,10,43,70,70,60,57,13,24,6,12,0.4,0.8
2022-01-10T12:00:00,1589A,109.8642,40.6288,包头市,惠龙物流,,,26,101,12,64,63,,60,52,31,31,,19,1.4,1.5
2022-01-10T12:00:00,1590A,110.0377,40.5546,包头市,东河鸿龙湾,,22,22,65,2,49,64,51,58,53,26,30,11,18,0.6,0.9
2022-01-10T12:00:00,1591A,110.0023,39.8129,鄂尔多斯市,综合楼,,34,34,89,17,59,79,72,55,55,12,38,9,15,0.4,0.9
2022-01-10T12:00:00,1592A,109.9486,39.8261,鄂尔多斯市,巴音孟克林场办事处,,34,34,80,9,50,96,79,60,60,11,36,8,17,0.4,1.1
2022-01-10T12:00:00,1593A,109.7736,39.5986,鄂尔多斯市,康泽苑,,26,18,60,2,38,113,83,69,69,15,29,7,11,0.4,0.7
2022-01-10T12:00:00,1594A,109.8119,39.5989,鄂尔多斯市,华泰汽车城,,29,29,66,9,47,104,82,59,59,12,32,6,10,0.3,0.8
2022-01-10T12:00:00,1595A,109.9734,39.7884,鄂尔多斯市,奥林花园,,25,24,79,9,45,94,78,64,64,6,32,8,16,0.5,1
2022-01-10T12:00:00,1597A,122.2703,40.7094,营口市,大庆路,,,19,149,11,110,75,63,39,39,11,46,9,13,,1.6
2022-01-10T12:00:00,1598A,122.215,40.6511,营口市,镜湖西路,,,,119,,90,66,,35,35,8,40,6,12,0.6,0.9
2022-01-10T12:00:00,1599A,122.167,40.6655,营口市,西炮台,,25,25,104,12,83,57,34,32,32,10,39,5,10,0.3,0.9
2022-01-10T12:00:00,1600A,124.3303,40.0625,丹东市,江湾东路,细颗粒物(PM2.5),82,77,69,60,54,74,48,39,30,30,37,18,21,1.5,1.4
2022-01-10T12:00:00,1601A,124.4256,40.1503,丹东市,临江后街,细颗粒物(PM2.5),69,71,84,50,59,78,43,19,19,34,48,30,30,1.3,1.5
2022-01-10T12:00:00,1602A,124.3933,40.1461,丹东市,元宝山,细颗粒物(PM2.5),72,68,61,52,47,78,54,38,26,20,27,17,23,1.3,1.2
2022-01-10T12:00:00,1603A,124.3633,40.1092,丹东市,民主桥,细颗粒物(PM2.5),70,66,64,51,45,71,46,37,29,31,38,16,17,1.3,1.2
2022-01-10T12:00:00,1604A,122.0303,41.1489,盘锦市,开发区,,22,10,71,7,66,82,69,63,63,12,42,5,12,0.7,1.3
2022-01-10T12:00:00,1605A,122.0485,41.0883,盘锦市,兴隆台,,21,20,73,9,53,68,65,59,59,14,48,8,15,0.6,1
2022-01-10T12:00:00,1606A,121.8297,41.1028,盘锦市,新生街道,,21,14,81,10,57,65,65,55,55,14,48,9,17,0.6,1
2022-01-10T12:00:00,1607A,120.9092,40.7136,葫芦岛市,龙港区,颗粒物(PM10),53,55,73,14,59,69,60,52,52,13,37,20,42,1.1,1.6
2022-01-10T12:00:00,1608A,120.8392,40.7514,葫芦岛市,化工街,,38,38,75,14,48,63,63,52,52,8,40,12,46,0.9,1.8
2022-01-10T12:00:00,1609A,120.8341,40.7073,葫芦岛市,新区,,24,24,73,8,57,62,62,53,53,11,37,13,26,0.6,1.1
2022-01-10T12:00:00,1610A,120.8695,40.7677,葫芦岛市,东城区,,,25,97,6,63,65,61,58,58,,42,,71,0.4,1.3
2022-01-10T12:00:00,1611A,118.5819,24.9117,泉州市,涂山街,,30,30,36,19,32,110,64,44,38,23,26,6,8,0.6,0.6
2022-01-10T12:00:00,1612A,118.5972,24.8978,泉州市,津头埔,,41,41,41,19,33,122,66,44,37,25,28,7,8,0.6,0.6
2022-01-10T12:00:00,1613A,118.6663,24.9424,泉州市,万安,,44,44,41,21,36,114,66,42,32,18,25,6,6,0.6,0.6
2022-01-10T12:00:00,1614A,118.6117,24.9604,泉州市,清源山(对照点),,,31,35,18,31,116,68,56,52,,19,8,8,,0.6
2022-01-10T12:00:00,1616A,117.6795,36.229,济南市,技术学院,细颗粒物(PM2.5),201,153,276,151,224,78,29,7,7,48,67,4,11,1.7,2.2
2022-01-10T12:00:00,1618A,118.3429,35.0532,临沂市,沂河小区,颗粒物(PM10),159,268,149,,109,77,14,61,20,,53,17,19,1.6,1
2022-01-10T12:00:00,1619A,118.295,35.0583,临沂市,鲁南制药厂,细颗粒物(PM2.5),218,244,140,168,117,79,14,52,25,89,58,29,28,1.7,1.2
2022-01-10T12:00:00,1620A,118.2794,34.9976,临沂市,新光毛纺厂,细颗粒物(PM2.5),226,224,148,176,112,72,11,29,15,68,59,14,26,2.1,1.4
2022-01-10T12:00:00,1621A,118.3956,35.0888,临沂市,河东保险公司,细颗粒物(PM2.5),182,212,139,137,99,80,10,26,10,81,60,16,12,1.6,1
2022-01-10T12:00:00,1622A,116.3032,37.4674,德州市,儿童乐园,细颗粒物(PM2.5),119,116,235,90,187,66,31,66,10,35,46,14,9,1.2,1.7
2022-01-10T12:00:00,1624A,116.2991,37.4451,德州市,监理站,细颗粒物(PM2.5),240,155,248,190,217,75,28,71,11,46,55,18,12,0.9,1.3
2022-01-10T12:00:00,1625A,115.9848,36.4372,聊城市,区政府,细颗粒物(PM2.5),272,283,232,222,179,59,7,4,4,49,50,8,9,1.7,1.5
2022-01-10T12:00:00,1628A,118.0062,37.3803,滨州市,市环保局,,40,40,58,28,35,79,46,15,15,24,35,13,17,0.4,0.4
2022-01-10T12:00:00,1629A,118.0018,37.3617,滨州市,第二水厂,,,,63,,34,58,30,11,11,,37,,18,0.7,0.8
2022-01-10T12:00:00,1630A,117.9776,37.393,滨州市,北中新校,颗粒物(PM10),56,62,60,27,35,75,44,18,15,28,42,12,16,0.5,0.6
2022-01-10T12:00:00,1631A,118.0414,36.8103,淄博市,人民公园,细颗粒物(PM2.5),230,219,201,180,144,41,13,5,5,50,64,24,32,1.7,1.9
2022-01-10T12:00:00,1633A,117.8525,36.4847,淄博市,双山,细颗粒物(PM2.5),251,259,297,201,248,97,12,11,6,55,70,16,20,2.7,2.2
2022-01-10T12:00:00,1634A,117.9592,36.6331,淄博市,气象站,细颗粒物(PM2.5),240,233,345,190,261,57,24,11,11,50,84,20,37,2.7,3.2
2022-01-10T12:00:00,1635A,118.3092,36.8194,淄博市,莆田园,细颗粒物(PM2.5),158,134,122,120,96,69,15,9,9,50,57,26,23,1.2,1.1
2022-01-10T12:00:00,1637A,117.558,34.8438,枣庄市,市中区政府,细颗粒物(PM2.5),240,278,268,190,184,92,24,11,11,68,67,31,30,1.5,1.5
2022-01-10T12:00:00,1638A,117.2852,34.7837,枣庄市,薛城环保局,细颗粒物(PM2.5),238,247,217,188,176,90,32,42,14,62,62,23,18,1.6,1.3
2022-01-10T12:00:00,1639A,117.5852,34.7745,枣庄市,峄城区政府,细颗粒物(PM2.5),238,266,270,188,198,90,10,4,4,66,63,24,20,1.3,1.3
2022-01-10T12:00:00,1640A,117.7276,34.5578,枣庄市,台儿庄区环保局,细颗粒物(PM2.5),243,261,214,193,161,103,20,10,10,62,72,15,8,1.3,1.3
2022-01-10T12:00:00,1641A,117.4518,35.0992,枣庄市,山亭区环保局,细颗粒物(PM2.5),231,219,235,181,190,118,57,25,25,41,52,21,20,1.3,1.5
2022-01-10T12:00:00,1642A,121.2514,37.5639,烟台市,开发区,,,51,53,51,30,72,,6,1,52,50,6,5,0.7,1
2022-01-10T12:00:00,1643A,121.3719,37.5433,烟台市,轴承厂,细颗粒物(PM2.5),72,61,43,52,33,65,18,21,14,58,45,32,11,1.0,0.8
2022-01-10T12:00:00,1644A,121.3181,37.5436,烟台市,西郊化工站,颗粒物(PM10),69,88,45,46,27,73,9,38,18,84,43,20,7,1.7,1
2022-01-10T12:00:00,1645A,121.4478,37.4822,烟台市,莱山环保局,细颗粒物(PM2.5),88,112,49,65,31,69,44,12,12,33,47,6,6,0.4,0.8
2022-01-10T12:00:00,1646A,121.2611,37.4967,烟台市,福山环保局,细颗粒物(PM2.5),110,146,77,83,42,71,6,5,5,53,44,10,5,1.8,1.1
2022-01-10T12:00:00,1650A,119.1437,36.7023,潍坊市,环保局,,,,104,,73,69,,8,6,63,70,,14,1.3,1.1
2022-01-10T12:00:00,1653A,116.6251,35.4302,济宁市,火炬城,细颗粒物(PM2.5),282,233,153,232,154,91,4,8,5,70,51,12,5,1.8,1.1
2022-01-10T12:00:00,1655A,116.5491,35.4042,济宁市,电化厂,细颗粒物(PM2.5),277,223,152,227,162,88,9,34,8,59,50,12,13,1.8,1.5
2022-01-10T12:00:00,1656A,117.1437,36.1937,泰安市,监测站,细颗粒物(PM2.5),320,288,233,270,214,62,0,0,0,63,58,16,18,1.7,1.5
2022-01-10T12:00:00,1657A,117.0885,36.2017,泰安市,人口学校,细颗粒物(PM2.5),248,208,214,198,190,67,6,24,6,62,59,8,9,1.3,1.2
2022-01-10T12:00:00,1658A,117.1089,36.1758,泰安市,电力学校,细颗粒物(PM2.5),223,274,268,173,195,64,,2,2,57,64,,22,1.4,1.6
2022-01-10T12:00:00,1659A,119.471,35.4209,日照市,监测站,细颗粒物(PM2.5),95,114,114,71,67,71,16,5,5,59,47,14,12,0.9,1.3
2022-01-10T12:00:00,1660A,119.523,35.4216,日照市,市政府广场,细颗粒物(PM2.5),89,117,88,66,51,69,25,7,7,66,60,12,9,1.0,1.2
2022-01-10T12:00:00,1661A,119.5587,35.4044,日照市,港务局,细颗粒物(PM2.5),94,114,82,70,50,75,25,9,9,69,62,10,9,1.0,1
2022-01-10T12:00:00,1662A,122.1214,37.4236,威海市,华夏技校,细颗粒物(PM2.5),55,46,29,39,27,72,41,47,36,31,24,6,4,0.6,0.5
2022-01-10T12:00:00,1663A,122.0508,37.5236,威海市,山大分校,,49,44,28,34,21,75,43,44,37,28,25,6,5,0.5,0.4
2022-01-10T12:00:00,1664A,122.1067,37.5072,威海市,市监测站,颗粒物(PM10),51,51,34,30,24,75,33,34,20,37,36,7,5,0.8,0.7
2022-01-10T12:00:00,1666A,118.6614,37.4309,东营市,市环保局,,31,31,24,19,16,74,38,52,23,19,20,5,6,0.5,0.4
2022-01-10T12:00:00,1669A,113.5824,24.7733,韶关市,市八中,,25,14,18,17,16,38,23,38,24,16,15,6,6,0.7,0.7
2022-01-10T12:00:00,1671A,113.5917,24.7972,韶关市,园林处,,32,15,16,22,16,34,22,34,23,10,10,6,6,0.8,0.8
2022-01-10T12:00:00,1672A,113.6735,24.7791,韶关市,韶关学院,,30,17,16,21,15,35,22,22,18,15,18,8,9,0.7,0.7
2022-01-10T12:00:00,1673A,113.5971,24.6863,韶关市,曲江监测站,,20,19,18,14,10,29,11,24,14,20,17,7,7,0.9,0.8
2022-01-10T12:00:00,1674A,116.6794,23.3667,汕头市,金平子站,细颗粒物(PM2.5),55,30,41,39,32,127,68,92,44,22,21,9,11,0.6,0.5
2022-01-10T12:00:00,1675A,116.7244,23.3633,汕头市,龙湖子站,,45,40,36,31,27,130,87,101,53,18,18,8,8,0.7,0.6
2022-01-10T12:00:00,1676A,116.7258,23.2775,汕头市,濠江子站,,35,24,34,24,22,127,90,100,60,14,16,11,10,0.7,0.6
2022-01-10T12:00:00,1677A,116.7519,23.4714,汕头市,澄海子站,,50,33,37,35,32,127,93,90,40,19,21,11,11,0.6,0.6
2022-01-10T12:00:00,1678A,116.6092,23.2539,汕头市,潮阳子站,,44,44,45,26,26,166,72,109,54,20,20,12,12,0.6,0.5
2022-01-10T12:00:00,1680A,110.3539,21.2706,湛江市,湛江影剧院,细颗粒物(PM2.5),99,56,77,74,68,113,83,38,38,30,32,7,20,0.8,1
2022-01-10T12:00:00,1681A,110.3928,21.2228,湛江市,市环境监测站,细颗粒物(PM2.5),108,58,60,81,60,125,85,99,59,30,24,7,8,0.9,0.7
2022-01-10T12:00:00,1682A,110.4019,21.1997,湛江市,环保局宿舍,细颗粒物(PM2.5),104,71,56,78,53,136,80,130,67,34,19,6,6,,0.9
2022-01-10T12:00:00,1683A,110.4111,21.2028,湛江市,霞山游泳场,细颗粒物(PM2.5),108,67,62,81,56,125,80,123,62,27,18,6,7,0.8,0.6
2022-01-10T12:00:00,1684A,110.3316,21.2679,湛江市,麻章区环保局,细颗粒物(PM2.5),94,58,98,70,83,105,82,36,36,27,32,8,29,1.0,1.2
2022-01-10T12:00:00,1685A,110.4558,21.2567,湛江市,坡头区环保局,细颗粒物(PM2.5),94,60,57,70,57,130,91,128,62,27,19,7,6,0.9,0.7
2022-01-10T12:00:00,1686A,111.0286,21.4688,茂名市,电白南海,细颗粒物(PM2.5),85,105,93,63,52,130,92,74,54,33,27,10,11,0.7,0.6
2022-01-10T12:00:00,1687A,110.9294,21.6533,茂名市,茂石化七小,细颗粒物(PM2.5),98,112,97,73,64,120,88,66,43,20,21,13,14,0.7,0.7
2022-01-10T12:00:00,1688A,110.9107,21.6687,茂名市,健康路,细颗粒物(PM2.5),87,105,105,64,71,116,90,70,49,19,22,10,18,0.9,1
2022-01-10T12:00:00,1689A,110.8592,21.6828,茂名市,高岭,细颗粒物(PM2.5),70,80,82,51,55,101,88,42,42,19,22,16,29,0.7,0.9
2022-01-10T12:00:00,1690A,116.1231,24.3284,梅州市,梅江月梅,,,30,25,21,16,50,,10,9,20,20,17,8,,0.7
2022-01-10T12:00:00,1691A,116.0797,24.2719,梅州市,梅县新城,,35,35,20,22,16,48,25,27,17,23,17,8,6,0.8,0.7
2022-01-10T12:00:00,1692A,116.1248,24.2654,梅州市,环境监控中心,,43,34,23,30,17,47,24,21,13,24,22,10,6,0.6,0.5
2022-01-10T12:00:00,1693A,115.3653,22.775,汕尾市,市环保局,,,50,40,25,26,139,64,46,40,,11,7,7,0.8,0.8
2022-01-10T12:00:00,1694A,115.3706,22.7898,汕尾市,市政府,颗粒物(PM10),53,56,34,32,28,138,75,43,39,16,16,5,5,0.6,0.7
2022-01-10T12:00:00,1695A,115.3622,22.7925,汕尾市,新城中学,颗粒物(PM10),51,52,40,27,30,139,67,42,37,19,17,6,5,0.5,0.5
2022-01-10T12:00:00,1696A,114.6778,23.7569,河源市,源西(对照点),,23,22,20,16,16,51,31,23,20,13,18,3,3,0.9,0.8
2022-01-10T12:00:00,1697A,114.6944,23.7586,河源市,东埔,,,26,21,16,16,54,27,24,18,18,23,,4,0.9,0.9
2022-01-10T12:00:00,1698A,114.6892,23.7233,河源市,老城,,26,26,21,17,16,51,31,21,20,15,22,4,4,0.9,0.9
2022-01-10T12:00:00,1699A,111.9797,21.8593,阳江市,鸳鸯湖(对照点),颗粒物(PM10),65,79,65,43,56,150,49,32,19,34,30,9,8,1.0,0.9
2022-01-10T12:00:00,1701A,111.9491,21.8658,阳江市,马南垌,细颗粒物(PM2.5),68,78,63,49,62,142,56,42,24,44,43,8,8,0.9,0.8
2022-01-10T12:00:00,1702A,113.0426,23.691,清远市,环保大楼(对照点),,39,22,23,27,22,34,14,10,10,16,17,6,6,1.1,1
2022-01-10T12:00:00,1703A,113.0208,23.7106,清远市,凤城街办,,26,23,22,18,18,36,14,18,13,23,21,6,7,1.0,1
2022-01-10T12:00:00,1705A,116.6367,23.6719,潮州市,西园路(对照点),颗粒物(PM10),52,53,34,30,29,87,67,31,31,19,15,10,7,0.9,0.8
2022-01-10T12:00:00,1706A,116.6447,23.6706,潮州市,档案局,颗粒物(PM10),64,78,33,37,25,86,60,30,29,22,16,12,8,0.9,0.8
2022-01-10T12:00:00,1708A,116.3701,23.5345,揭阳市,新兴,颗粒物(PM10),65,79,47,41,36,116,59,29,29,27,24,14,10,0.9,0.9
2022-01-10T12:00:00,1709A,116.3264,23.5443,揭阳市,西马,颗粒物(PM10),58,65,44,40,30,127,61,28,28,22,18,7,6,0.8,0.6
2022-01-10T12:00:00,1710A,116.3611,23.5626,揭阳市,东兴,颗粒物(PM10),67,84,45,42,33,111,66,25,25,26,27,14,14,1.1,0.9
2022-01-10T12:00:00,1711A,116.4151,23.5294,揭阳市,渔湖,颗粒物(PM10),57,64,45,34,35,106,55,22,22,25,25,18,11,0.7,0.7
2022-01-10T12:00:00,1714A,112.0539,22.9539,云浮市,牧羊,,49,46,51,34,32,15,14,7,7,31,34,10,16,0.9,0.9
2022-01-10T12:00:00,1715A,102.575,24.3711,玉溪市,东风水库,,30,30,21,12,13,86,59,54,35,24,17,9,9,0.7,0.6
2022-01-10T12:00:00,1718A,115.4208,35.2464,菏泽市,气象局,细颗粒物(PM2.5),132,117,197,100,141,74,11,20,9,28,41,5,6,1.0,1
2022-01-10T12:00:00,1719A,115.4747,35.2375,菏泽市,市政协,,,,176,,150,83,,15,6,25,44,,9,,1.4
2022-01-10T12:00:00,1721A,113.3819,40.1097,大同市,果树场(对照点),,22,19,65,6,31,70,70,69,57,6,16,9,11,0.3,0.6
2022-01-10T12:00:00,1723A,113.2994,40.0758,大同市,云冈宾馆,,28,28,47,13,19,69,53,64,35,20,35,11,26,0.7,0.8
2022-01-10T12:00:00,1724A,113.3444,40.0917,大同市,大同大学,,34,34,68,13,36,56,52,53,38,15,30,12,24,0.7,1
2022-01-10T12:00:00,1725A,113.2661,40.1269,大同市,安家小村,,32,32,75,10,35,72,63,70,41,12,30,12,23,0.7,1
2022-01-10T12:00:00,1726A,113.2711,40.0844,大同市,教育学院,,36,36,87,24,50,73,57,68,33,17,32,14,29,0.7,0.8
2022-01-10T12:00:00,1727A,113.1147,36.1547,长治市,清华站,细颗粒物(PM2.5),225,199,116,175,111,99,37,66,33,67,37,,12,2.0,1.3
2022-01-10T12:00:00,1728A,113.1031,36.1989,长治市,监测站,细颗粒物(PM2.5),214,180,124,164,114,97,41,64,29,50,34,23,10,2.0,1.5
2022-01-10T12:00:00,1730A,113.0886,36.2125,长治市,审计局,细颗粒物(PM2.5),195,165,115,146,104,88,39,62,19,52,44,44,15,2.0,1.6
2022-01-10T12:00:00,1731A,113.0844,36.1856,长治市,长治八中,细颗粒物(PM2.5),190,201,143,143,111,82,36,52,17,51,44,41,16,2.0,1.7
2022-01-10T12:00:00,1733A,111.5531,36.0783,临汾市,临钢医院,细颗粒物(PM2.5),98,100,175,73,162,48,48,15,15,32,55,10,9,2.0,3
2022-01-10T12:00:00,1734A,111.5028,36.0714,临汾市,技工学校,细颗粒物(PM2.5),100,122,195,75,175,56,45,17,17,28,55,10,14,1.2,2.3
2022-01-10T12:00:00,1736A,111.5018,36.0855,临汾市,市委,细颗粒物(PM2.5),112,109,188,84,177,59,47,16,16,31,56,11,12,1.5,2.3
2022-01-10T12:00:00,1738A,113.5758,37.8572,阳泉市,市中心,细颗粒物(PM2.5),252,210,185,202,156,34,22,7,7,72,81,23,27,2.0,2
2022-01-10T12:00:00,1739A,113.4894,37.8731,阳泉市,赛鱼,细颗粒物(PM2.5),188,196,160,141,124,35,17,7,7,79,72,29,23,2.3,1.8
2022-01-10T12:00:00,1740A,113.5819,37.8486,阳泉市,南庄,细颗粒物(PM2.5),217,217,189,167,144,39,25,11,11,69,77,26,29,2.1,2.2
2022-01-10T12:00:00,1742A,113.5614,37.8703,阳泉市,平坦,细颗粒物(PM2.5),258,192,162,208,162,40,18,7,7,76,80,26,28,2.5,2.2
2022-01-10T12:00:00,1743A,113.5158,37.8392,阳泉市,大阳泉,细颗粒物(PM2.5),140,120,140,107,130,53,36,53,23,61,79,23,27,1.8,1.8
2022-01-10T12:00:00,1744A,118.9233,42.2816,赤峰市,松山一中,,29,29,39,7,15,71,64,68,59,13,27,7,24,0.3,0.5
2022-01-10T12:00:00,1745A,118.9576,42.2728,赤峰市,哈达街,,30,30,46,3,20,71,60,64,54,10,23,13,28,0.4,0.5
2022-01-10T12:00:00,1746A,118.8788,42.2554,赤峰市,天义路,,,21,28,16,14,66,58,63,55,15,22,6,15,,0.8
2022-01-10T12:00:00,1748A,123.044,41.1196,鞍山市,深沟寺,,44,44,115,12,72,53,50,30,30,17,52,14,17,0.6,1.4
2022-01-10T12:00:00,1749A,123.011,41.0931,鞍山市,太阳城,,45,45,101,14,64,65,55,34,34,18,48,14,18,0.6,1.2
2022-01-10T12:00:00,1750A,123.0485,41.1442,鞍山市,太平,,,24,123,12,87,51,50,28,28,,56,,24,0.6,1.6
2022-01-10T12:00:00,1751A,122.9642,41.0971,鞍山市,铁西三道街,颗粒物(PM10),55,60,115,15,70,39,39,24,24,30,58,23,30,1.6,2
2022-01-10T12:00:00,1752A,122.9341,41.0833,鞍山市,铁西工业园区,,24,24,138,13,98,42,39,23,23,36,66,32,32,1.5,2.2
2022-01-10T12:00:00,1753A,123.022,41.0821,鞍山市,明达新区,,19,19,93,12,63,59,53,31,31,16,51,9,15,0.5,1.1
2022-01-10T12:00:00,1754A,123.1289,41.0228,鞍山市,千山(对照点),,23,23,81,16,65,58,48,31,20,21,43,11,10,0.5,1.4
2022-01-10T12:00:00,1755A,123.7977,41.8491,抚顺市,望花区,,26,18,123,18,87,70,54,32,32,13,44,8,9,0.8,1.4
2022-01-10T12:00:00,1756A,123.9161,41.8822,抚顺市,顺城区,,23,23,123,9,94,64,62,34,34,16,49,10,12,0.6,1.4
2022-01-10T12:00:00,1757A,124.0436,41.8611,抚顺市,东洲区,颗粒物(PM10),60,69,113,22,80,68,43,16,14,16,39,6,10,0.7,1.1
2022-01-10T12:00:00,1758A,123.9247,41.8642,抚顺市,新抚区,,26,22,150,18,106,67,58,24,24,18,54,12,12,0.6,1.4
2022-01-10T12:00:00,1759A,124.0972,41.8961,抚顺市,大伙房水库,,,,108,14,77,83,,16,16,9,35,8,9,0.7,1.1
2022-01-10T12:00:00,1760A,123.7086,41.8391,抚顺市,沈抚新城,,26,25,103,18,72,61,55,32,32,14,48,7,10,0.6,1.2
2022-01-10T12:00:00,1761A,123.8275,41.3064,本溪市,大峪,,,,92,,60,68,41,19,19,25,44,19,17,,1.1
2022-01-10T12:00:00,1762A,123.7567,41.3325,本溪市,溪湖,,41,41,107,23,65,73,52,25,25,18,43,15,17,0.6,1.1
2022-01-10T12:00:00,1763A,123.7169,41.3094,本溪市,彩屯,,,39,96,25,67,61,50,20,19,,41,,15,0.7,1.2
2022-01-10T12:00:00,1764A,123.7669,41.2864,本溪市,东明,,42,37,96,29,63,60,41,21,21,29,48,14,10,0.9,1.2
2022-01-10T12:00:00,1765A,123.7992,41.2664,本溪市,新立屯,,50,42,82,35,60,66,44,24,20,22,42,17,14,0.8,0.9
2022-01-10T12:00:00,1766A,123.8142,41.3472,本溪市,威宁,颗粒物(PM10),56,61,124,34,76,67,40,16,16,26,49,9,8,0.8,1.2
2022-01-10T12:00:00,1767A,121.1115,41.0879,锦州市,南山,,23,21,79,6,68,71,71,63,63,9,43,8,26,0.6,1.4
2022-01-10T12:00:00,1768A,121.0533,40.8434,锦州市,开发区,,25,12,98,17,61,68,65,48,48,9,52,6,38,0.3,0.8
2022-01-10T12:00:00,1769A,121.1836,41.1119,锦州市,百股街道,,25,25,89,8,67,71,71,56,56,13,45,8,32,0.5,1.2
2022-01-10T12:00:00,1770A,121.1178,41.1222,锦州市,天安街道,,25,25,75,11,58,67,67,59,59,8,43,16,47,0.7,1.3
2022-01-10T12:00:00,1771A,121.1303,41.1386,锦州市,北湖公园,,24,24,68,6,55,72,72,65,65,6,40,11,39,0.5,1.1
2022-01-10T12:00:00,1772A,126.54,43.8622,吉林市,哈达湾,细颗粒物(PM2.5),83,78,86,61,67,68,47,42,26,27,41,18,13,1.1,1.3
2022-01-10T12:00:00,1773A,126.5844,43.8358,吉林市,东局子,,,87,65,67,52,68,39,41,34,,36,16,11,1.0,0.9
2022-01-10T12:00:00,1774A,126.5052,43.8245,吉林市,电力学院,细颗粒物(PM2.5),82,79,113,60,92,71,44,20,20,29,49,16,20,1.1,1.9
2022-01-10T12:00:00,1775A,126.6133,43.8972,吉林市,江北,细颗粒物(PM2.5),79,74,78,58,64,64,39,37,28,37,38,16,20,1.1,1.4
2022-01-10T12:00:00,1776A,126.555,43.8306,吉林市,江南公园,,,82,61,73,57,70,,59,37,31,28,12,8,1.0,0.9
2022-01-10T12:00:00,1778A,126.7061,43.7133,吉林市,丰满(对照点),细颗粒物(PM2.5),88,62,53,65,57,80,65,55,55,13,14,10,8,0.9,0.9
2022-01-10T12:00:00,1779A,123.9305,47.3636,齐齐哈尔市,安居小区,,,46,75,41,62,44,38,33,32,8,20,,12,,0.7
2022-01-10T12:00:00,1780A,123.9488,47.3386,齐齐哈尔市,中心广场,,46,46,75,27,48,44,44,36,34,13,24,21,38,0.6,0.8
2022-01-10T12:00:00,1781A,123.9483,47.3227,齐齐哈尔市,农牧车辆厂,细颗粒物(PM2.5),53,46,79,37,60,37,37,30,27,23,32,150,95,0.5,0.6
2022-01-10T12:00:00,1783A,123.945,47.2988,齐齐哈尔市,市环境监测站,细颗粒物(PM2.5),80,71,98,59,76,27,26,18,18,11,23,70,97,0.5,0.7
2022-01-10T12:00:00,1785A,129.6115,44.5782,牡丹江市,文化广场,"颗粒物(PM10),细颗粒物(PM2.5)",67,84,98,48,62,67,37,27,27,44,47,27,14,1.0,1.1
2022-01-10T12:00:00,1786A,129.5904,44.5963,牡丹江市,第一医院,,,77,106,60,90,51,,22,21,42,53,24,20,1.0,1.4
2022-01-10T12:00:00,1787A,129.6364,44.6075,牡丹江市,机车工厂,细颗粒物(PM2.5),77,69,103,56,77,66,29,15,15,48,48,50,11,0.9,1.1
2022-01-10T12:00:00,1788A,129.6386,44.5462,牡丹江市,第一中学,细颗粒物(PM2.5),74,69,69,54,59,76,42,41,35,41,38,23,8,1.0,0.9
2022-01-10T12:00:00,1789A,124.81117,46.03138,大庆市,大同区,细颗粒物(PM2.5),159,151,159,121,125,77,,29,29,26,48,13,14,0.9,1
2022-01-10T12:00:00,1790A,125.129,46.533,大庆市,龙凤区,细颗粒物(PM2.5),140,132,133,107,102,58,30,14,14,38,49,33,23,1.1,1.1
2022-01-10T12:00:00,1791A,124.902,46.408,大庆市,红岗区,细颗粒物(PM2.5),160,129,112,122,103,64,34,24,19,29,41,12,12,1.3,1.6
2022-01-10T12:00:00,1792A,125.153,46.586,大庆市,萨尔图区,细颗粒物(PM2.5),185,136,133,139,115,52,35,15,15,33,48,20,18,0.9,0.8
2022-01-10T12:00:00,1793A,124.9042,46.6215,大庆市,让胡路区,细颗粒物(PM2.5),173,155,128,131,91,54,44,26,25,27,48,17,13,1.0,1.1
2022-01-10T12:00:00,1794A,118.3606,31.3519,芜湖市,监测站,细颗粒物(PM2.5),147,66,63,112,95,40,6,18,8,64,58,7,6,1.1,0.8
2022-01-10T12:00:00,1795A,118.3714,31.4134,芜湖市,科创中心,,,,69,,95,34,,5,4,66,72,9,7,1.1,0.7
2022-01-10T12:00:00,1796A,118.3673,31.3131,芜湖市,四水厂,细颗粒物(PM2.5),148,66,57,113,94,39,11,21,14,57,50,7,6,1.0,0.7
2022-01-10T12:00:00,1798A,118.5092,31.6837,马鞍山市,湖东路四小,细颗粒物(PM2.5),139,112,96,106,107,9,9,5,5,60,61,10,8,1.3,1.3
2022-01-10T12:00:00,1799A,118.5024,31.6449,马鞍山市,开发区,细颗粒物(PM2.5),142,95,94,108,104,16,16,6,6,55,61,9,9,1.4,1.4
2022-01-10T12:00:00,1800A,118.5228,31.7231,马鞍山市,慈湖,细颗粒物(PM2.5),142,101,123,108,121,32,15,7,7,60,62,8,8,1.1,1.3
2022-01-10T12:00:00,1802A,118.6245,31.7241,马鞍山市,濮塘(对照点),细颗粒物(PM2.5),109,112,96,82,74,39,17,7,7,45,43,10,10,1.0,1.1
2022-01-10T12:00:00,1803A,115.9872,29.6815,九江市,十里,细颗粒物(PM2.5),65,53,70,47,57,83,45,48,39,33,34,8,8,0.6,0.6
2022-01-10T12:00:00,1804A,115.9584,29.7046,九江市,茅山头,,,49,69,38,64,65,26,41,31,,35,,6,0.5,0.8
2022-01-10T12:00:00,1805A,115.9877,29.7295,九江市,西园,细颗粒物(PM2.5),80,70,74,59,74,77,39,54,33,33,34,6,5,0.4,0.4
2022-01-10T12:00:00,1806A,116.0172,29.6547,九江市,五七二七厂,细颗粒物(PM2.5),64,56,69,46,53,57,53,51,50,18,16,6,6,0.4,0.5
2022-01-10T12:00:00,1808A,115.9114,29.6038,九江市,综合工业园,,,76,87,61,77,68,,18,6,40,46,5,5,0.5,0.5
2022-01-10T12:00:00,1809A,116.0721,29.7535,九江市,石化总厂,细颗粒物(PM2.5),73,79,70,53,55,76,41,56,34,28,30,16,14,0.7,0.7
2022-01-10T12:00:00,1810A,115.9773,29.5698,九江市,庐山气象台(对照点),,38,26,20,26,16,81,61,66,58,10,10,9,8,0.6,0.6
2022-01-10T12:00:00,1812A,112.3931,34.6516,洛阳市,市委党校,细颗粒物(PM2.5),233,249,203,183,150,56,26,20,14,50,52,6,7,1.5,1.4
2022-01-10T12:00:00,1814A,112.4657,34.6871,洛阳市,豫西宾馆,细颗粒物(PM2.5),226,228,184,176,142,58,26,22,14,45,49,8,9,1.7,1.5
2022-01-10T12:00:00,1815A,112.494,34.6886,洛阳市,河南林校,细颗粒物(PM2.5),251,243,195,201,161,58,34,28,20,42,48,4,4,0.8,0.7
2022-01-10T12:00:00,1816A,112.3844,34.623,洛阳市,开发区管委会,细颗粒物(PM2.5),231,225,192,181,148,74,31,18,12,49,53,4,5,1.5,1.4
2022-01-10T12:00:00,1817A,112.4267,34.6258,洛阳市,市委新办公区,细颗粒物(PM2.5),245,250,203,195,157,75,31,22,13,51,54,6,5,1.4,1.2
2022-01-10T12:00:00,1818A,114.4839,36.0621,安阳市,棉研所(对照点),细颗粒物(PM2.5),261,273,139,211,100,35,14,30,15,52,30,4,3,1.7,1.2
2022-01-10T12:00:00,1819A,114.3551,36.1017,安阳市,红庙街,细颗粒物(PM2.5),231,227,188,181,168,18,13,15,8,68,61,8,6,2.0,2
2022-01-10T12:00:00,1820A,114.361,36.0681,安阳市,银杏小区,细颗粒物(PM2.5),258,242,195,208,180,19,10,11,8,62,53,4,2,2.0,1.9
2022-01-10T12:00:00,1824A,114.3389,34.7781,开封市,肿瘤医院,细颗粒物(PM2.5),173,142,104,131,111,44,9,34,18,29,14,3,3,2.0,1
2022-01-10T12:00:00,1826A,114.2885,34.7965,开封市,世纪星幼儿园,细颗粒物(PM2.5),200,154,111,150,113,50,14,45,27,34,18,4,4,2.1,1
2022-01-10T12:00:00,1828A,113.2269,35.2127,焦作市,市环保局,细颗粒物(PM2.5),228,212,204,178,166,35,19,26,19,29,41,6,8,1.4,1.4
2022-01-10T12:00:00,1829A,113.2467,35.176,焦作市,高新区政府,细颗粒物(PM2.5),223,235,184,173,151,38,21,36,24,28,36,11,12,1.2,1.1
2022-01-10T12:00:00,1830A,113.1987,35.2703,焦作市,影视城(对照点),细颗粒物(PM2.5),195,177,193,146,138,49,20,16,16,25,40,5,6,1.5,1.4
2022-01-10T12:00:00,1832A,113.3257,33.742,平顶山市,新华旅馆,细颗粒物(PM2.5),195,216,177,146,130,39,39,20,20,36,42,5,4,1.5,1.1
2022-01-10T12:00:00,1833A,113.2919,33.737,平顶山市,规划设计院,细颗粒物(PM2.5),240,202,158,190,158,33,33,17,14,36,42,7,7,1.8,1.3
2022-01-10T12:00:00,1834A,113.182,33.774,平顶山市,平顶山工学院,细颗粒物(PM2.5),236,178,174,186,149,54,37,17,17,35,38,10,8,1.7,1.5
2022-01-10T12:00:00,1835A,111.1922,34.7752,三门峡市,市政府,细颗粒物(PM2.5),115,129,140,87,149,94,57,45,19,31,39,10,9,0.9,1.4
2022-01-10T12:00:00,1836A,111.1587,34.7942,三门峡市,开发区,细颗粒物(PM2.5),103,143,153,77,155,81,63,41,25,19,35,11,10,1.1,1.7
2022-01-10T12:00:00,1838A,111.143,34.7955,三门峡市,风景区(对照点),细颗粒物(PM2.5),88,113,140,65,150,88,65,45,24,23,32,10,8,0.8,1.4
2022-01-10T12:00:00,1840A,111.2992,30.6981,宜昌市,白龙岗,细颗粒物(PM2.5),98,88,84,73,72,38,18,35,19,38,35,3,3,0.8,0.8
2022-01-10T12:00:00,1841A,111.3549,30.6465,宜昌市,伍家岗,细颗粒物(PM2.5),107,71,79,80,80,34,10,33,16,42,34,6,5,0.7,0.7
2022-01-10T12:00:00,1842A,111.2628,30.6961,宜昌市,点军区,细颗粒物(PM2.5),104,105,82,78,70,39,9,38,14,39,33,6,6,0.7,0.7
2022-01-10T12:00:00,1843A,111.3275,30.7819,宜昌市,夷陵区,细颗粒物(PM2.5),104,93,69,78,65,44,7,39,16,50,34,6,6,1.1,0.9
2022-01-10T12:00:00,1844A,112.2494,30.3197,荆州市,市图书馆,细颗粒物(PM2.5),75,84,64,55,50,69,19,35,25,41,34,6,7,1.1,0.9
2022-01-10T12:00:00,1845A,112.2008,30.3544,荆州市,市委党校,细颗粒物(PM2.5),84,76,70,62,58,79,26,25,23,39,41,9,8,1.1,1.1
2022-01-10T12:00:00,1847A,113.1094,29.3578,岳阳市,南湖风景区,细颗粒物(PM2.5),68,81,88,49,63,82,28,15,15,30,37,10,9,1.1,1.2
2022-01-10T12:00:00,1848A,113.1493,29.4251,岳阳市,城陵矶,,,,79,,57,77,,25,13,33,46,11,12,0.9,0.8
2022-01-10T12:00:00,1849A,113.1497,29.3575,岳阳市,开发区,细颗粒物(PM2.5),72,67,71,52,54,84,24,18,18,40,35,7,8,1.3,1
2022-01-10T12:00:00,1850A,113.2621,29.4758,岳阳市,云溪区,细颗粒物(PM2.5),82,74,73,60,59,82,21,34,24,35,28,8,8,1.0,0.9
2022-01-10T12:00:00,1851A,112.9943,29.4402,岳阳市,君山区,细颗粒物(PM2.5),87,70,76,64,71,76,41,41,28,27,40,5,8,0.5,0.5
2022-01-10T12:00:00,1852A,113.2117,29.355,岳阳市,金凤水库(对照点),细颗粒物(PM2.5),72,73,68,52,53,86,38,32,29,34,34,15,8,0.7,0.7
2022-01-10T12:00:00,1854A,111.6975,28.9703,常德市,市二中,细颗粒物(PM2.5),92,50,48,68,61,67,42,49,35,27,23,8,8,1.1,0.9
2022-01-10T12:00:00,1857A,111.7158,29.1456,常德市,白鹤山(对照点),细颗粒物(PM2.5),75,64,58,55,51,73,73,59,55,13,15,6,6,0.7,0.7
2022-01-10T12:00:00,1858A,110.5319,29.1217,张家界市,永定新区,细颗粒物(PM2.5),92,86,60,68,47,37,14,10,10,32,20,5,3,1.0,0.9
2022-01-10T12:00:00,1859A,110.4697,29.1242,张家界市,电业局,细颗粒物(PM2.5),63,49,37,45,31,42,33,28,28,18,16,5,4,1.1,1.1
2022-01-10T12:00:00,1860A,110.5594,29.3547,张家界市,未央路,细颗粒物(PM2.5),54,37,16,38,21,41,24,20,20,16,11,2,2,0.7,0.6
2022-01-10T12:00:00,1861A,110.4417,29.315,张家界市,袁家界(对照点),,34,34,24,16,12,52,47,42,42,20,19,5,6,0.6,0.6
2022-01-10T12:00:00,1862A,110.4144,25.3167,桂林市,电子科大尧山校区(对照点),,20,13,19,14,18,38,31,29,28,12,14,4,5,0.5,0.5
2022-01-10T12:00:00,1863A,110.2819,25.2697,桂林市,监测站,,23,23,26,13,21,29,26,27,21,19,19,4,5,0.9,0.9
2022-01-10T12:00:00,1864A,110.3089,25.2708,桂林市,龙隐路小学,,26,18,23,18,18,36,33,26,25,18,19,5,5,0.8,0.9
2022-01-10T12:00:00,1865A,110.2869,25.2178,桂林市,八中,,25,25,28,17,24,33,28,27,21,25,24,6,5,0.9,0.9
2022-01-10T12:00:00,1866A,109.2262,21.588,北海市,牛尾岭水库(对照点),,,,41,,36,40,40,14,14,33,20,12,6,1.3,1
2022-01-10T12:00:00,1867A,109.1436,21.4086,北海市,海滩公园,细颗粒物(PM2.5),85,96,42,63,31,77,77,24,24,24,22,17,10,1.3,1.1
2022-01-10T12:00:00,1868A,109.0981,21.4661,北海市,新市环保局,细颗粒物(PM2.5),85,90,34,63,22,26,22,10,10,38,21,12,8,1.2,0.9
2022-01-10T12:00:00,1869A,109.1778,21.5233,北海市,北海工业园,细颗粒物(PM2.5),117,138,47,88,33,26,22,10,10,47,23,16,12,1.4,1.1
2022-01-10T12:00:00,1870A,109.4856,24.3895,柳州市,柳东小学,,18,14,15,12,16,30,18,20,20,7,7,14,14,1.0,0.9
2022-01-10T12:00:00,1871A,109.4157,24.3277,柳州市,环保监测站,,38,31,21,26,20,22,4,14,5,24,22,19,13,1.3,0.9
2022-01-10T12:00:00,1872A,109.389,24.341,柳州市,河西水厂,,43,43,52,17,27,16,14,15,11,16,22,10,28,0.7,0.9
2022-01-10T12:00:00,1873A,109.4311,24.2921,柳州市,市四中,,34,34,24,14,11,25,8,13,10,24,20,19,11,1.4,1.1
2022-01-10T12:00:00,1874A,109.4006,24.3631,柳州市,市九中,,30,30,24,20,21,23,9,15,11,20,20,22,13,1.4,1
2022-01-10T12:00:00,1875A,109.4958,24.3134,柳州市,古亭山,,20,20,18,12,15,24,14,18,17,11,11,9,9,1.0,1
2022-01-10T12:00:00,1876A,109.5078,18.2489,三亚市,河东子站,,40,40,27,12,12,89,82,72,72,5,7,2,2,0.5,0.5
2022-01-10T12:00:00,1877A,109.4964,18.2681,三亚市,河西子站,,28,28,24,12,12,91,76,72,67,8,7,3,3,0.4,0.4
2022-01-10T12:00:00,1878A,104.7778,31.4741,绵阳市,富乐山,细颗粒物(PM2.5),63,66,73,45,62,33,3,30,6,40,33,5,5,1.0,0.9
2022-01-10T12:00:00,1879A,104.7563,31.4535,绵阳市,市人大,细颗粒物(PM2.5),69,82,82,50,63,35,5,28,10,52,42,3,2,1.8,1.4
2022-01-10T12:00:00,1880A,104.6697,31.4668,绵阳市,高新区自来水公司,细颗粒物(PM2.5),82,88,88,60,75,17,2,9,4,49,41,8,6,1.3,1.1
2022-01-10T12:00:00,1881A,104.7287,31.5075,绵阳市,三水厂,细颗粒物(PM2.5),79,91,100,58,72,7,2,4,2,38,35,8,5,0.9,0.8
2022-01-10T12:00:00,1882A,104.563,28.793,宜宾市,石马中学(对照点),细颗粒物(PM2.5),79,63,102,58,87,48,31,31,29,20,30,8,10,0.9,1
2022-01-10T12:00:00,1883A,104.6201,28.7728,宜宾市,市委,细颗粒物(PM2.5),80,70,100,59,84,43,16,23,21,34,35,9,11,1.0,1
2022-01-10T12:00:00,1884A,104.6055,28.793,宜宾市,宜宾四中,细颗粒物(PM2.5),80,63,95,59,84,36,21,23,21,26,37,9,12,0.9,1
2022-01-10T12:00:00,1885A,104.639,28.7562,宜宾市,市政府,细颗粒物(PM2.5),78,58,89,57,78,42,21,25,25,31,37,7,8,1.0,1
2022-01-10T12:00:00,1886A,104.5742,28.7199,宜宾市,黄金嘴,细颗粒物(PM2.5),62,55,87,44,68,45,30,33,32,24,31,5,8,0.9,1
2022-01-10T12:00:00,1888A,101.6891,26.571,攀枝花市,弄弄坪,细颗粒物(PM2.5),94,99,118,70,86,107,37,13,13,48,48,17,15,1.5,2.3
2022-01-10T12:00:00,1889A,101.5769,26.5928,攀枝花市,河门口,,,200,120,132,83,116,23,23,11,113,56,185,47,9.5,3.1
2022-01-10T12:00:00,1890A,101.7169,26.585,攀枝花市,炳草岗,细颗粒物(PM2.5),87,79,90,64,74,105,36,14,14,51,66,48,28,1.9,2.2
2022-01-10T12:00:00,1891A,101.7369,26.5008,攀枝花市,仁和,细颗粒物(PM2.5),89,89,86,66,66,117,46,36,18,54,38,31,21,2.3,1.8
2022-01-10T12:00:00,1893A,105.4324,28.9634,泸州市,九狮山(对照点),细颗粒物(PM2.5),72,48,64,52,61,43,19,22,20,29,37,6,12,0.6,0.6
2022-01-10T12:00:00,1894A,105.4427,28.9063,泸州市,小市上码头,细颗粒物(PM2.5),87,53,68,64,66,38,15,21,15,33,37,11,15,1.1,1.1
2022-01-10T12:00:00,1895A,105.4241,28.8573,泸州市,兰田宪桥,细颗粒物(PM2.5),78,57,67,57,59,31,22,20,19,27,41,10,13,0.7,0.8
2022-01-10T12:00:00,1896A,105.4379,28.8833,泸州市,市环监站,细颗粒物(PM2.5),88,75,72,65,64,26,14,14,14,31,39,5,7,0.8,0.9
2022-01-10T12:00:00,1901A,104.4239,31.1208,德阳市,东山公园,细颗粒物(PM2.5),98,88,93,73,75,11,10,6,6,35,43,6,4,0.9,1
2022-01-10T12:00:00,1902A,104.3826,31.1317,德阳市,西小区,细颗粒物(PM2.5),97,105,96,72,78,6,5,4,3,48,42,7,4,1.2,1.1
2022-01-10T12:00:00,1904A,104.3553,31.1091,德阳市,耐火材料厂,,,,103,,82,6,5,3,2,,49,5,3,1.1,1
2022-01-10T12:00:00,1905A,106.056,30.8064,南充市,西山风景区(对照点),细颗粒物(PM2.5),62,44,62,44,50,35,35,27,27,10,13,3,4,0.7,0.8
2022-01-10T12:00:00,1906A,106.0789,30.8023,南充市,南充市委,细颗粒物(PM2.5),69,70,76,50,61,43,40,26,26,8,20,4,6,0.8,0.9
2022-01-10T12:00:00,1907A,106.1031,30.8217,南充市,南充炼油厂,细颗粒物(PM2.5),62,71,75,44,55,35,35,23,22,11,17,2,2,0.7,0.8
2022-01-10T12:00:00,1908A,106.1064,30.7856,南充市,高坪区监测站,细颗粒物(PM2.5),62,70,70,44,56,48,41,32,29,7,18,2,4,0.7,0.9
2022-01-10T12:00:00,1909A,106.0642,30.7636,南充市,嘉陵区环保局,细颗粒物(PM2.5),70,46,61,51,49,47,44,32,25,8,23,6,6,0.9,0.9
2022-01-10T12:00:00,1910A,106.1087,30.8388,南充市,市环境监测站,细颗粒物(PM2.5),77,64,71,56,61,27,27,17,17,6,17,3,3,0.7,0.7
2022-01-10T12:00:00,1911A,106.9222,27.6869,遵义市,丁字口,,30,30,32,18,25,40,20,32,20,25,17,20,14,1.0,0.9
2022-01-10T12:00:00,1912A,106.9242,27.7019,遵义市,凤凰山,,19,19,29,12,21,37,23,35,24,20,14,8,7,0.7,0.7
2022-01-10T12:00:00,1913A,106.8906,27.6486,遵义市,忠庄,,35,26,36,24,23,38,12,29,17,32,17,15,9,0.9,0.9
2022-01-10T12:00:00,1914A,106.9231,27.6506,遵义市,舟水桥,,27,27,26,16,23,46,10,35,19,33,14,34,11,1.0,0.7
2022-01-10T12:00:00,1915A,106.9178,27.72,遵义市,干田坝,,16,16,28,6,19,37,23,26,20,18,16,9,11,0.9,0.9
2022-01-10T12:00:00,1916A,103.7897,25.5035,曲靖市,环境监测站,颗粒物(PM10),63,75,40,29,20,88,61,75,46,22,27,11,7,0.8,0.7
2022-01-10T12:00:00,1917A,103.8,25.5364,曲靖市,烟厂办公区,颗粒物(PM10),54,57,29,31,18,80,53,62,46,17,24,11,8,0.9,0.7
2022-01-10T12:00:00,1918A,108.7197,34.3956,咸阳市,气象站(对照点),细颗粒物(PM2.5),134,98,156,102,159,78,78,47,47,8,25,10,7,1.5,2
2022-01-10T12:00:00,1919A,108.673,34.3155,咸阳市,实验中学,细颗粒物(PM2.5),114,96,158,86,162,83,83,53,53,16,36,12,9,0.8,1.4
2022-01-10T12:00:00,1920A,108.7233,34.3617,咸阳市,师范学院,细颗粒物(PM2.5),134,114,150,102,163,81,81,50,50,19,34,12,8,1.4,1.8
2022-01-10T12:00:00,1922A,109.0656,35.0994,铜川市,党校(对照点),,,,109,,108,84,,42,42,7,40,11,11,0.5,1.1
2022-01-10T12:00:00,1923A,109.0697,35.0697,铜川市,王益区政府,,41,41,120,22,105,83,81,30,30,19,47,6,8,0.5,1.2
2022-01-10T12:00:00,1924A,108.9344,34.9058,铜川市,新区管委会,细颗粒物(PM2.5),117,102,142,88,136,82,75,53,53,23,38,9,13,0.8,1.2
2022-01-10T12:00:00,1926A,109.4131,36.6275,延安市,枣园(对照点),,27,27,80,8,71,106,81,74,74,15,38,5,5,0.3,1.1
2022-01-10T12:00:00,1927A,109.4761,36.6028,延安市,延大医附院,,26,24,81,17,76,101,81,68,68,6,38,6,6,0.5,1.3
2022-01-10T12:00:00,1929A,109.5056,36.6106,延安市,百米大道,,25,12,84,6,80,106,80,72,72,7,36,6,8,0.4,1.3
2022-01-10T12:00:00,1930A,107.185,34.3063,宝鸡市,庙沟村(对照点),细颗粒物(PM2.5),70,74,102,51,92,102,102,96,96,10,20,6,5,0.6,1
2022-01-10T12:00:00,1931A,107.0708,34.3017,宝鸡市,竹园沟,细颗粒物(PM2.5),74,78,106,54,105,102,102,52,52,13,23,7,6,0.7,1.2
2022-01-10T12:00:00,1932A,107.1906,34.3672,宝鸡市,三陆医院,细颗粒物(PM2.5),74,72,119,54,105,102,102,62,62,11,36,8,7,0.9,1.4
2022-01-10T12:00:00,1933A,107.1431,34.3547,宝鸡市,监测站,,,61,105,55,101,93,,59,59,13,32,4,4,0.8,1.2
2022-01-10T12:00:00,1934A,107.1186,34.3739,宝鸡市,技工学校,细颗粒物(PM2.5),72,86,112,52,96,91,91,54,54,18,28,6,6,0.4,0.9
2022-01-10T12:00:00,1935A,107.3906,34.3528,宝鸡市,陈仓区环保局家属楼,"颗粒物(PM10),细颗粒物(PM2.5)",62,74,134,44,110,98,98,73,73,9,37,5,6,0.8,1.4
2022-01-10T12:00:00,1936A,107.2058,34.3497,宝鸡市,文理学院,细颗粒物(PM2.5),77,86,109,56,100,100,100,80,80,10,25,7,7,0.6,1
2022-01-10T12:00:00,1937A,107.2386,34.3622,宝鸡市,三迪小学,细颗粒物(PM2.5),73,68,115,53,101,99,99,81,81,13,32,6,6,0.7,1.1
2022-01-10T12:00:00,1938A,109.5293,34.5101,渭南市,农科所(对照点),细颗粒物(PM2.5),195,195,164,146,128,64,64,17,17,24,43,10,6,1.3,1.7
2022-01-10T12:00:00,1939A,109.4974,34.4877,渭南市,日报社,细颗粒物(PM2.5),199,188,163,149,136,50,,18,14,37,50,14,10,,1.4
2022-01-10T12:00:00,1940A,109.4636,34.493,渭南市,体育馆,细颗粒物(PM2.5),206,190,160,156,138,68,68,24,24,26,45,12,6,1.3,1.5
2022-01-10T12:00:00,1941A,109.4259,34.5023,渭南市,高新一小,细颗粒物(PM2.5),202,172,171,152,159,65,65,21,21,28,46,14,10,1.4,1.7
2022-01-10T12:00:00,1943A,102.1725,38.5339,金昌市,新川苑,颗粒物(PM10),101,152,91,64,33,88,41,60,35,47,24,130,14,1.1,0.7
2022-01-10T12:00:00,1944A,102.1692,38.5167,金昌市,天庆家园,颗粒物(PM10),118,186,112,68,27,89,30,58,35,47,23,94,14,1.4,0.7
2022-01-10T12:00:00,1945A,98.2908,39.7711,嘉峪关市,气象局,颗粒物(PM10),64,78,71,31,26,84,76,43,34,17,34,3,9,0.6,0.7
2022-01-10T12:00:00,1947A,106.3394,38.817,石嘴山市,沙湖旅游区(对照点),细颗粒物(PM2.5),137,131,291,104,205,56,56,36,36,20,32,24,23,1.0,2.1
2022-01-10T12:00:00,1948A,106.3668,39.0145,石嘴山市,大武口朝阳西街,细颗粒物(PM2.5),138,118,156,105,134,89,57,88,38,29,39,23,22,1.2,1.7
2022-01-10T12:00:00,1949A,106.7704,39.2282,石嘴山市,惠农南大街,颗粒物(PM10),59,68,158,27,128,71,51,58,50,27,43,30,38,1.4,1.8
2022-01-10T12:00:00,1950A,106.7099,39.1325,石嘴山市,红果子镇惠新街,细颗粒物(PM2.5),163,143,154,124,126,84,47,72,38,29,28,31,42,1.9,1.6
2022-01-10T12:00:00,1951A,84.895,45.6094,克拉玛依市,长征新村,细颗粒物(PM2.5),228,253,252,178,161,42,41,32,22,56,55,8,7,1.5,1.6
2022-01-10T12:00:00,1952A,84.8988,45.5893,克拉玛依市,南林小区,细颗粒物(PM2.5),210,264,265,160,147,41,30,35,23,52,45,11,10,1.4,1.4
2022-01-10T12:00:00,1954A,84.905,44.3396,克拉玛依市,独山子区,颗粒物(PM10),81,111,145,48,84,71,37,52,42,58,53,6,5,1.8,1.4
2022-01-10T12:00:00,1955A,85.6979,46.098,克拉玛依市,乌尔禾区商贸楼,细颗粒物(PM2.5),208,214,212,158,162,60,31,39,34,50,46,8,9,1.5,1.5
2022-01-10T12:00:00,1956A,86.1472,41.7538,巴音郭楞州,孔雀公园,细颗粒物(PM2.5),114,141,138,86,82,100,36,74,59,74,59,4,5,0.8,0.7
2022-01-10T12:00:00,1957A,86.1972,41.7166,巴音郭楞州,棉纺厂,细颗粒物(PM2.5),102,138,126,76,72,96,26,59,46,73,47,5,5,1.1,0.8
2022-01-10T12:00:00,1958A,86.2357,41.7173,巴音郭楞州,经济开发区,颗粒物(PM10),91,132,129,63,68,100,35,85,74,46,26,3,2,0.9,0.8
2022-01-10T12:00:00,1961A,117.532,36.6868,济南市,东山小学,细颗粒物(PM2.5),248,227,372,198,283,16,16,5,5,52,72,9,13,1.5,3.7
2022-01-10T12:00:00,1966A,120.0405,35.8735,青岛市,黄岛区4号,细颗粒物(PM2.5),153,141,73,117,46,48,24,28,22,56,69,10,11,1.6,1.1
2022-01-10T12:00:00,1982A,122.0693,37.2174,威海市,文登开发区,细颗粒物(PM2.5),89,112,60,66,46,80,14,11,8,70,45,8,5,1.2,1
2022-01-10T12:00:00,2031A,113.1817,27.9958,株洲市,云田中学,细颗粒物(PM2.5),74,53,75,54,70,47,10,20,20,35,26,6,5,0.7,0.7
2022-01-10T12:00:00,2054A,114.1099,32.1059,信阳市,平桥分局,细颗粒物(PM2.5),102,96,83,76,69,93,12,32,8,49,36,6,6,0.9,0.8
2022-01-10T12:00:00,2064A,113.9956,32.1271,信阳市,南湾水厂,细颗粒物(PM2.5),102,81,75,76,67,100,25,55,32,33,32,6,8,0.7,0.8
2022-01-10T12:00:00,2065A,114.0775,32.1195,信阳市,市酿酒公司,细颗粒物(PM2.5),104,94,78,78,73,95,18,32,11,41,33,9,9,0.8,0.7
2022-01-10T12:00:00,2066A,114.0609,32.1399,信阳市,审计局,细颗粒物(PM2.5),117,115,85,88,76,93,16,34,12,47,43,8,15,0.6,0.7
2022-01-10T12:00:00,2067A,114.6613,33.6128,周口市,市环境监测站,细颗粒物(PM2.5),150,146,100,115,97,69,8,55,10,29,27,9,8,1.1,0.9
2022-01-10T12:00:00,2068A,114.6758,33.6347,周口市,周口师范,细颗粒物(PM2.5),149,129,96,114,98,79,9,63,8,32,29,10,8,1.0,0.9
2022-01-10T12:00:00,2069A,114.6546,33.5979,周口市,市运管处,细颗粒物(PM2.5),166,160,107,126,99,76,12,47,20,33,32,13,10,1.2,0.9
2022-01-10T12:00:00,2070A,114.6369,33.6406,周口市,川汇区环保局,细颗粒物(PM2.5),139,123,103,106,96,71,12,62,8,25,24,12,11,1.1,1
2022-01-10T12:00:00,2075A,117.6336,24.4674,漳州市,九湖(对照点),细颗粒物(PM2.5),64,68,62,46,42,140,81,64,37,21,23,8,7,0.7,0.7
2022-01-10T12:00:00,2160A,112.85,35.5051,晋城市,自来水公司,细颗粒物(PM2.5),238,223,170,188,135,119,25,74,32,47,34,11,11,2.6,1.2
2022-01-10T12:00:00,2161A,112.8318,35.4936,晋城市,白云商贸,细颗粒物(PM2.5),225,210,186,175,150,102,32,51,30,43,36,12,11,2.4,1.8
2022-01-10T12:00:00,2162A,112.8508,35.4887,晋城市,市环保局,细颗粒物(PM2.5),243,239,180,193,150,110,32,61,34,35,29,12,13,2.2,1.3
2022-01-10T12:00:00,2163A,112.8676,35.4897,晋城市,技术学院,细颗粒物(PM2.5),255,205,181,205,142,105,,61,32,41,33,8,8,,1.5
2022-01-10T12:00:00,2165A,112.8453,35.546,晋城市,白马寺 (对照点),细颗粒物(PM2.5),199,195,172,149,122,110,47,72,51,33,29,15,13,1.8,1.5
2022-01-10T12:00:00,2166A,112.4397,39.3522,朔州市,平朔,颗粒物(PM10),58,66,109,39,71,52,50,23,23,29,58,23,26,0.7,1
2022-01-10T12:00:00,2167A,112.4575,39.3617,朔州市,朔唯,颗粒物(PM10),64,78,122,35,65,50,47,19,19,31,57,23,35,0.7,0.9
2022-01-10T12:00:00,2168A,112.4258,39.3197,朔州市,区政府,细颗粒物(PM2.5),70,71,122,51,69,63,48,27,27,25,49,26,26,0.8,1
2022-01-10T12:00:00,2169A,112.4072,39.3278,朔州市,市环保局,颗粒物(PM10),70,90,133,34,68,63,53,26,26,23,47,24,19,0.5,0.8
2022-01-10T12:00:00,2170A,112.4272,39.3681,朔州市,市二中,"颗粒物(PM10),细颗粒物(PM2.5)",62,73,125,44,71,52,52,19,19,26,64,16,28,0.4,0.8
2022-01-10T12:00:00,2171A,112.7532,37.6945,晋中市,锦纶小区,细颗粒物(PM2.5),108,82,174,81,170,57,49,13,13,29,69,18,36,0.8,1.7
2022-01-10T12:00:00,2173A,112.7249,37.7067,晋中市,南都小区,细颗粒物(PM2.5),163,120,183,124,177,63,57,16,16,18,66,15,34,0.7,1.7
2022-01-10T12:00:00,2174A,112.6991,37.6982,晋中市,榆次区政府,细颗粒物(PM2.5),107,94,192,80,182,52,52,14,14,24,73,16,36,0.7,1.8
2022-01-10T12:00:00,2175A,110.9956,35.0147,运城市,运城中学,细颗粒物(PM2.5),172,178,223,130,183,85,78,32,32,17,39,8,11,0.4,1.7
2022-01-10T12:00:00,2178A,110.9686,35.0303,运城市,地区技校,细颗粒物(PM2.5),150,200,214,115,175,73,70,28,28,22,51,7,8,0.5,1.9
2022-01-10T12:00:00,2179A,111.0414,35.1147,运城市,空港新区,,,,228,,181,77,,27,27,,53,,15,,2.3
2022-01-10T12:00:00,2181A,112.7383,38.4519,忻州市,开发区,,,,190,,144,57,57,25,25,15,61,16,23,,1.7
2022-01-10T12:00:00,2182A,112.7003,38.4928,忻州市,会展中心,颗粒物(PM10),66,82,180,33,133,50,50,26,26,20,64,16,20,0.4,1.4
2022-01-10T12:00:00,2183A,111.1406,37.5211,吕梁市,环保局,,,132,170,64,95,57,,15,15,30,62,,23,0.9,1.1
2022-01-10T12:00:00,2185A,111.1297,37.5136,吕梁市,自来水公司,细颗粒物(PM2.5),93,134,167,69,90,45,45,21,21,31,57,19,18,0.8,1.1
2022-01-10T12:00:00,2187A,106.8174,39.6973,乌海市,市林业局,,23,18,130,15,97,76,72,62,62,11,31,12,17,0.4,1.3
2022-01-10T12:00:00,2188A,106.7907,39.6667,乌海市,中海勃湾学校,,24,23,126,13,93,84,75,72,69,13,30,9,12,0.3,1.2
2022-01-10T12:00:00,2191A,122.2532,43.6801,通辽市,艺术职业学校,,28,28,36,15,30,75,51,60,51,10,12,5,8,0.2,0.3
2022-01-10T12:00:00,2192A,119.7594,49.2261,呼伦贝尔市,区环保局,,32,19,31,22,22,47,42,34,34,9,21,7,6,0.3,0.3
2022-01-10T12:00:00,2195A,107.4212,40.761,巴彦淖尔市,附二中,颗粒物(PM10),67,84,100,37,62,62,47,61,39,19,32,9,19,0.6,0.8
2022-01-10T12:00:00,2196A,107.37,40.7372,巴彦淖尔市,市环保大楼,颗粒物(PM10),58,66,88,37,63,69,56,63,39,17,34,12,16,0.5,0.8
2022-01-10T12:00:00,2197A,113.1306,40.9923,乌兰察布市,集宁新区,,,19,26,12,16,84,77,65,65,,16,,11,0.2,0.2
2022-01-10T12:00:00,2200A,122.0392,46.0656,兴安盟,胜华新制药厂,,30,25,42,21,33,61,50,44,41,9,12,4,5,0.3,0.3
2022-01-10T12:00:00,2201A,121.9504,46.0741,兴安盟,科右前旗环保局,,18,13,37,12,29,65,53,44,43,6,11,5,5,0.5,0.5
2022-01-10T12:00:00,2202A,116.1042,43.9317,锡林郭勒盟,市环保监测站,,17,12,15,10,8,66,53,61,49,4,17,9,10,0.2,0.3
2022-01-10T12:00:00,2203A,116.0781,43.9311,锡林郭勒盟,市政府,,17,15,13,2,5,67,53,62,48,5,16,9,9,0.5,0.4
2022-01-10T12:00:00,2204A,105.6467,38.8363,阿拉善盟,西城区西花园(对照点),,27,27,81,13,57,111,85,94,78,13,20,3,5,0.2,0.6
2022-01-10T12:00:00,2205A,105.6985,38.8411,阿拉善盟,蒙二幼,,29,12,66,20,59,114,80,96,80,13,15,7,9,0.2,0.5
2022-01-10T12:00:00,2206A,105.724,38.8516,阿拉善盟,环保局新楼,,28,19,69,19,55,111,77,94,84,19,22,5,6,0.4,0.5
2022-01-10T12:00:00,2207A,121.6094,41.998,阜新市,工业园区,,49,49,75,11,55,68,64,60,59,13,33,2,17,0.3,0.9
2022-01-10T12:00:00,2208A,121.6697,42.0279,阜新市,长青街,,22,22,70,3,38,68,63,64,64,5,35,6,24,0.4,0.7
2022-01-10T12:00:00,2209A,121.6673,42.0705,阜新市,农业园区,,,24,42,6,33,70,60,63,62,,15,6,21,,0.5
2022-01-10T12:00:00,2210A,121.6717,42.0224,阜新市,东苑,颗粒物(PM10),65,79,77,7,46,68,63,62,60,5,28,11,25,0.6,0.9
2022-01-10T12:00:00,2211A,121.6506,42.0498,阜新市,玉龙新城,,21,16,56,3,37,71,66,67,65,4,28,5,19,0.3,0.7
2022-01-10T12:00:00,2212A,123.2,41.1953,辽阳市,宏伟区,,23,19,118,16,83,51,39,16,16,24,51,15,15,0.9,1.7
2022-01-10T12:00:00,2213A,123.1683,41.2495,辽阳市,新华园,,22,22,123,13,96,46,40,18,18,26,60,21,21,0.8,1.6
2022-01-10T12:00:00,2214A,123.2354,41.2639,辽阳市,滨河路,,38,38,135,23,101,53,33,17,17,27,49,15,17,0.5,1.5
2022-01-10T12:00:00,2215A,123.149,41.2991,辽阳市,铁西工业园,,29,29,172,9,86,57,45,22,22,15,48,13,14,0.5,1.7
2022-01-10T12:00:00,2216A,123.8139,42.3022,铁岭市,汇工街西,,28,28,102,8,86,68,53,20,20,2,30,6,21,0.4,1.2
2022-01-10T12:00:00,2217A,123.8649,42.2923,铁岭市,水上乐园,,23,23,91,12,58,70,57,43,25,16,38,6,5,0.5,0.8
2022-01-10T12:00:00,2218A,123.8486,42.2867,铁岭市,银州路东段,,34,34,81,14,55,68,52,43,31,16,35,8,6,0.3,0.6
2022-01-10T12:00:00,2219A,123.7153,42.2217,铁岭市,金沙江路北,,24,24,87,13,66,64,51,28,28,13,44,6,4,0.7,1
2022-01-10T12:00:00,2220A,120.4318,41.5881,朝阳市,西梁,,27,27,70,12,36,71,71,61,61,9,30,14,24,0.6,1
2022-01-10T12:00:00,2221A,120.4521,41.5646,朝阳市,河畔小区,,,41,50,8,27,67,,61,58,10,25,6,12,0.4,0.7
2022-01-10T12:00:00,2222A,120.4176,41.5648,朝阳市,八里堡,,29,29,60,2,27,69,69,60,60,3,24,9,22,0.1,0.6
2022-01-10T12:00:00,2223A,120.3806,41.5969,朝阳市,农业园区,,,34,56,7,34,78,78,64,62,,29,5,14,0.5,0.8
2022-01-10T12:00:00,2225A,124.4002,43.1713,四平市,一商场,,50,50,107,16,56,76,55,44,44,17,41,9,11,0.5,1
2022-01-10T12:00:00,2226A,124.388,43.193,四平市,境园,,36,36,87,14,56,75,58,39,39,14,45,4,12,0.6,1
2022-01-10T12:00:00,2227A,125.1358,42.8845,辽源市,环保局,,,66,97,54,83,74,54,26,26,11,31,,9,0.1,0.8
2022-01-10T12:00:00,2229A,125.9358,41.7173,通化市,光明,细颗粒物(PM2.5),221,223,133,171,92,58,24,13,13,34,47,80,34,2.5,1.7
2022-01-10T12:00:00,2230A,125.9446,41.7325,通化市,铁路,细颗粒物(PM2.5),176,172,108,133,75,59,23,15,15,50,49,52,27,3.1,1.8
2022-01-10T12:00:00,2231A,126.4219,41.9171,白山市,喜丰,"颗粒物(PM10),细颗粒物(PM2.5)",92,133,139,68,75,69,47,27,27,40,52,71,40,1.3,1.5
2022-01-10T12:00:00,2232A,126.4077,41.9419,白山市,环保局,,,120,110,57,66,69,,24,16,56,52,68,29,1.8,1.5
2022-01-10T12:00:00,2233A,124.8006,45.1214,松原市,江南,细颗粒物(PM2.5),98,125,159,73,107,55,31,18,18,25,52,16,11,1.0,1.1
2022-01-10T12:00:00,2234A,124.7965,45.1722,松原市,江北,细颗粒物(PM2.5),102,102,135,76,102,67,44,25,25,19,44,16,8,0.6,1
2022-01-10T12:00:00,2235A,122.7911,45.6077,白城市,洮北区环保局,,,32,51,14,30,54,38,38,33,9,17,,11,,0.3
2022-01-10T12:00:00,2236A,122.8738,45.5725,白城市,市环保局,,33,29,53,23,40,58,43,37,36,12,25,10,11,0.4,0.5
2022-01-10T12:00:00,2237A,129.47,42.8883,延边朝鲜族自治州,妇幼医院,颗粒物(PM10),54,57,71,35,58,91,49,57,38,32,25,48,16,0.8,1
2022-01-10T12:00:00,2238A,129.5055,42.9108,延边朝鲜族自治州,延边医院,细颗粒物(PM2.5),159,,77,121,62,85,36,34,25,52,40,,17,1.3,1.1
2022-01-10T12:00:00,2239A,129.3964,42.8881,延边朝鲜族自治州,朝阳川镇医院,,50,50,63,33,49,92,63,43,43,20,22,16,6,0.8,0.9
2022-01-10T12:00:00,2240A,130.9762,45.3001,鸡西市,环保局,细颗粒物(PM2.5),90,77,98,67,82,63,48,31,31,34,56,12,15,0.5,1.1
2022-01-10T12:00:00,2243A,130.9429,45.3039,鸡西市,第一中学,细颗粒物(PM2.5),69,83,87,50,59,66,57,37,37,28,38,16,18,0.4,0.6
2022-01-10T12:00:00,2244A,130.2537,47.3416,鹤岗市,哈啤分公司,,,63,68,37,37,61,45,52,43,20,27,,9,,0.7
2022-01-10T12:00:00,2245A,130.2684,47.3086,鹤岗市,斯达机电,颗粒物(PM10),67,83,74,36,34,55,44,42,30,20,32,9,11,0.6,0.7
2022-01-10T12:00:00,2246A,130.3114,47.3388,鹤岗市,东山纸板厂,颗粒物(PM10),83,116,120,38,56,41,26,17,17,47,52,22,15,1.0,1.9
2022-01-10T12:00:00,2248A,131.1511,46.6937,双鸭山市,双合村,细颗粒物(PM2.5),153,138,112,117,68,50,45,20,20,19,32,15,17,0.8,1.4
2022-01-10T12:00:00,2249A,131.1652,46.6191,双鸭山市,南小市,细颗粒物(PM2.5),168,205,57,127,46,65,47,53,38,29,22,26,10,1.2,0.8
2022-01-10T12:00:00,2250A,131.1524,46.6554,双鸭山市,环保局,细颗粒物(PM2.5),120,119,61,91,51,58,39,24,20,35,32,7,5,0.8,0.5
2022-01-10T12:00:00,2251A,131.12,46.5656,双鸭山市,苗圃(对照点),细颗粒物(PM2.5),155,117,46,118,43,63,37,56,47,43,14,32,7,2.0,0.9
2022-01-10T12:00:00,2252A,128.5159,47.4311,伊春市,环保局,细颗粒物(PM2.5),65,34,30,47,28,36,23,19,19,29,35,10,8,0.8,0.6
2022-01-10T12:00:00,2253A,128.9102,47.7412,伊春市,电力嘉园,,,34,47,35,27,28,,23,15,29,32,10,9,0.5,0.6
2022-01-10T12:00:00,2254A,129.5029,48.471,伊春市,汤旺河国家公园(对照点),,16,2,4,2,1,51,51,37,37,2,4,7,6,0.2,0.2
2022-01-10T12:00:00,2255A,130.2751,46.8028,佳木斯市,佳纺,细颗粒物(PM2.5),139,130,81,106,78,68,24,17,17,40,33,20,18,1.4,1
2022-01-10T12:00:00,2256A,130.3995,46.8307,佳木斯市,发电厂,细颗粒物(PM2.5),109,95,73,82,59,61,,19,19,23,38,13,10,0.8,0.8
2022-01-10T12:00:00,2257A,130.3258,46.7975,佳木斯市,环保局,细颗粒物(PM2.5),179,178,80,135,59,60,24,13,13,47,45,19,11,0.8,1.2
2022-01-10T12:00:00,2258A,130.3648,46.8032,佳木斯市,十一中,细颗粒物(PM2.5),128,116,73,97,67,58,31,18,18,41,51,10,9,0.7,1.1
2022-01-10T12:00:00,2259A,130.3794,46.7588,佳木斯市,四丰(对照点),细颗粒物(PM2.5),144,158,87,110,46,58,48,49,42,20,14,13,11,0.4,0.4
2022-01-10T12:00:00,2262A,131.0518,45.8751,七台河市,新一中(对照点),,,117,53,70,40,66,51,48,44,,16,8,6,1.1,0.7
2022-01-10T12:00:00,2263A,127.4833,50.2524,黑河市,交通局,,20,16,41,14,34,42,41,36,33,12,23,6,8,0.7,0.8
2022-01-10T12:00:00,2264A,127.5144,50.2341,黑河市,环保局,,19,19,45,13,42,46,46,39,39,9,22,7,12,0.4,0.6
2022-01-10T12:00:00,2265A,127.5291,50.2472,黑河市,大黑河岛(对照点),,14,10,30,2,35,44,44,36,35,8,21,7,11,0.5,0.7
2022-01-10T12:00:00,2266A,126.9785,46.6365,绥化市,人和东街,细颗粒物(PM2.5),65,67,98,47,80,38,33,16,16,29,43,23,17,0.5,0.7
2022-01-10T12:00:00,2267A,126.964,46.6528,绥化市,党政办公中心,细颗粒物(PM2.5),59,61,118,42,96,44,35,16,16,25,47,12,22,0.5,0.8
2022-01-10T12:00:00,2269A,124.1069,50.4097,大兴安岭地区,科技局,,,16,18,9,18,46,,37,34,,13,,10,,0
2022-01-10T12:00:00,2270A,117.396,32.939,蚌埠市,工人疗养院,细颗粒物(PM2.5),188,197,154,141,120,78,30,62,11,57,55,10,11,0.9,0.8
2022-01-10T12:00:00,2271A,117.3605,32.9427,蚌埠市,百货大楼,细颗粒物(PM2.5),172,232,186,130,115,95,45,50,11,58,63,12,6,0.7,0.9
2022-01-10T12:00:00,2273A,117.4185,32.8911,蚌埠市,蚌埠学院,细颗粒物(PM2.5),139,146,139,106,105,106,67,52,26,43,60,15,12,0.6,0.7
2022-01-10T12:00:00,2274A,117.3533,32.9673,蚌埠市,淮上区政府,细颗粒物(PM2.5),170,194,161,129,117,94,36,14,12,61,68,14,11,0.6,0.7
2022-01-10T12:00:00,2275A,117.3145,32.8977,蚌埠市,高新区,细颗粒物(PM2.5),153,151,144,117,120,108,56,34,21,58,58,13,9,0.7,0.8
2022-01-10T12:00:00,2277A,116.8305,32.7727,淮南市,潘集区政府,细颗粒物(PM2.5),180,172,160,136,127,90,75,46,28,27,37,10,7,0.7,0.8
2022-01-10T12:00:00,2278A,117.0067,32.6524,淮南市,师范学院,细颗粒物(PM2.5),145,151,155,111,105,99,69,63,18,18,50,10,8,0.7,0.9
2022-01-10T12:00:00,2279A,116.8569,32.5951,淮南市,谢家集区政府,细颗粒物(PM2.5),117,117,112,88,88,100,73,50,37,27,43,8,10,0.6,0.6
2022-01-10T12:00:00,2280A,116.8281,32.633,淮南市,八公山区政府,细颗粒物(PM2.5),129,107,97,98,88,90,62,51,44,29,28,8,10,0.7,0.6
2022-01-10T12:00:00,2281A,116.6325,32.6201,淮南市,焦岗湖风景区管理处(对照点),细颗粒物(PM2.5),114,98,107,86,88,104,46,17,17,32,53,8,7,,0.7
2022-01-10T12:00:00,2282A,116.8004,33.975,淮北市,监测站,细颗粒物(PM2.5),165,185,142,125,106,87,,39,18,61,46,5,4,1.3,1.3
2022-01-10T12:00:00,2283A,116.8091,33.9007,淮北市,烈山区政府,细颗粒物(PM2.5),144,129,129,110,105,101,48,38,37,45,39,6,6,1.0,0.9
2022-01-10T12:00:00,2284A,116.7856,33.9477,淮北市,职业技术学院,细颗粒物(PM2.5),173,167,149,131,117,87,26,25,12,63,47,7,6,1.5,1.3
2022-01-10T12:00:00,2285A,117.8177,30.9412,铜陵市,市第四中学,细颗粒物(PM2.5),104,95,63,78,50,61,,33,15,48,50,5,4,0.8,0.8
2022-01-10T12:00:00,2286A,117.8059,30.9273,铜陵市,市公路局,细颗粒物(PM2.5),100,76,70,75,54,58,29,34,17,54,45,10,8,0.9,0.9
2022-01-10T12:00:00,2287A,117.7807,30.9413,铜陵市,市新民污水厂,细颗粒物(PM2.5),83,76,86,61,60,53,25,29,13,57,48,7,6,1.0,1
2022-01-10T12:00:00,2288A,117.7439,30.8792,铜陵市,市第九中学,细颗粒物(PM2.5),89,83,82,66,72,56,32,15,15,40,43,4,3,0.9,1
2022-01-10T12:00:00,2289A,117.846,30.9413,铜陵市,车站新区,细颗粒物(PM2.5),93,72,59,69,50,57,20,19,12,42,39,2,3,0.8,0.8
2022-01-10T12:00:00,2290A,117.8483,30.97,铜陵市,市职教基地,细颗粒物(PM2.5),60,62,64,43,43,64,25,28,18,39,36,8,9,0.7,0.7
2022-01-10T12:00:00,2291A,117.0809,30.5177,安庆市,环科院,细颗粒物(PM2.5),89,58,48,66,55,94,31,54,28,39,24,7,7,0.9,0.8
2022-01-10T12:00:00,2292A,117.0331,30.5119,安庆市,马山宾馆,细颗粒物(PM2.5),78,49,47,57,54,93,51,66,28,35,36,6,6,0.8,0.9
2022-01-10T12:00:00,2294A,116.9896,30.6145,安庆市,安庆大学,细颗粒物(PM2.5),68,70,63,49,51,95,39,36,31,38,36,4,4,0.6,0.5
2022-01-10T12:00:00,2295A,118.2903,29.6963,黄山市,延安路89号,细颗粒物(PM2.5),70,45,44,51,42,43,27,18,14,22,22,7,7,0.6,0.5
2022-01-10T12:00:00,2296A,118.327,29.7178,黄山市,黄山东路89号,细颗粒物(PM2.5),114,82,50,86,45,40,25,16,13,20,22,6,6,0.7,0.6
2022-01-10T12:00:00,2297A,118.1371,30.2756,黄山市,黄山区政府5号楼,,48,47,35,33,27,58,23,29,24,25,17,6,6,0.9,0.8
2022-01-10T12:00:00,2298A,118.3093,32.3153,滁州市,老年大学,细颗粒物(PM2.5),129,127,136,98,95,108,78,36,31,37,61,12,11,0.7,0.8
2022-01-10T12:00:00,2299A,118.3244,32.2786,滁州市,人大宾馆,细颗粒物(PM2.5),186,175,122,140,96,102,65,25,25,49,62,15,10,0.8,0.9
2022-01-10T12:00:00,2301A,115.8277,32.8929,阜阳市,市监测站,细颗粒物(PM2.5),172,159,143,130,119,97,15,26,16,60,44,13,10,1.1,0.9
2022-01-10T12:00:00,2303A,115.8554,32.8605,阜阳市,开发区,细颗粒物(PM2.5),199,216,174,149,129,101,14,16,11,56,43,10,7,1.2,0.9
2022-01-10T12:00:00,2307A,116.5079,31.737,六安市,监测大楼,细颗粒物(PM2.5),119,103,80,90,67,91,14,41,22,,38,6,6,0.7,0.5
2022-01-10T12:00:00,2308A,116.4738,31.7643,六安市,皖西学院,细颗粒物(PM2.5),110,116,84,83,61,92,15,58,12,64,40,9,7,0.8,0.6
2022-01-10T12:00:00,2309A,116.4996,31.7905,六安市,朝阳厂,细颗粒物(PM2.5),115,106,79,87,64,93,12,60,11,66,42,10,6,0.8,0.7
2022-01-10T12:00:00,2310A,116.5567,31.7886,六安市,开发区,细颗粒物(PM2.5),110,118,96,83,66,103,20,52,13,59,38,10,6,0.6,0.5
2022-01-10T12:00:00,2311A,115.8072,33.8399,亳州市,污水处理厂,细颗粒物(PM2.5),162,153,135,123,108,91,37,40,40,40,27,7,6,1.0,0.8
2022-01-10T12:00:00,2312A,115.7789,33.8518,亳州市,三国揽胜宫,细颗粒物(PM2.5),166,198,156,126,108,88,22,54,31,54,29,8,5,1.0,0.7
2022-01-10T12:00:00,2314A,117.47,30.6618,池州市,池州学院,细颗粒物(PM2.5),88,82,84,65,73,72,31,38,16,34,30,8,8,0.9,1
2022-01-10T12:00:00,2316A,118.7581,30.9454,宣城市,鳌峰子站,细颗粒物(PM2.5),139,61,50,106,85,65,32,55,27,48,41,12,7,1.1,0.9
2022-01-10T12:00:00,2317A,118.7385,30.9743,宣城市,敬亭山子站,细颗粒物(PM2.5),142,68,50,108,85,67,,36,22,,36,,10,,0.8
2022-01-10T12:00:00,2318A,118.7173,30.9427,宣城市,开发区子站,细颗粒物(PM2.5),138,65,51,105,85,66,33,55,32,52,36,10,6,1.2,0.9
2022-01-10T12:00:00,2319A,119.0141,25.4325,莆田市,荔城区仓后路,,,,42,,36,80,53,44,37,,27,,4,0.6,0.6
2022-01-10T12:00:00,2320A,119.0015,25.4553,莆田市,莆田市监测站,,19,15,42,8,35,92,60,42,42,12,27,4,5,0.6,0.7
2022-01-10T12:00:00,2321A,119.1119,25.4561,莆田市,涵江区六中,,25,22,37,17,32,86,54,54,37,17,25,5,6,0.5,0.5
2022-01-10T12:00:00,2322A,119.1013,25.3215,莆田市,秀屿区政府,,38,32,31,26,32,90,44,44,31,24,21,4,5,0.7,0.7
2022-01-10T12:00:00,2323A,118.981,25.4792,莆田市,东圳水库(对照点),,20,14,34,8,24,93,64,53,53,8,19,3,4,0.4,0.5
2022-01-10T12:00:00,2324A,117.6211,26.2625,三明市,三钢,,29,29,21,16,16,18,18,18,15,10,18,6,10,1.2,1.7
2022-01-10T12:00:00,2325A,117.635,26.2714,三明市,三明二中,,28,20,21,19,16,24,21,21,18,12,18,7,8,0.9,1
2022-01-10T12:00:00,2326A,117.6028,26.2378,三明市,三元区政府,,26,18,18,18,17,24,20,23,17,17,20,5,6,1.0,1
2022-01-10T12:00:00,2327A,117.7275,26.3108,三明市,洋溪(对照点),,49,47,28,34,18,25,16,19,18,17,18,11,8,1.1,1.1
2022-01-10T12:00:00,2331A,118.0966,26.6761,南平市,茫荡山(对照点),,14,1,2,4,3,50,43,35,35,6,8,2,2,0.9,0.9
2022-01-10T12:00:00,2332A,118.1681,26.6369,南平市,南平市监测站,,26,22,20,18,19,50,26,15,15,16,17,12,5,0.9,0.7
2022-01-10T12:00:00,2333A,118.1825,26.6489,南平市,南平铝业有限公司,,23,19,20,16,17,52,25,17,17,12,13,10,5,0.7,0.6
2022-01-10T12:00:00,2334A,118.1756,26.6272,南平市,南平七中,,,21,21,13,19,52,,15,13,14,17,10,11,0.8,0.8
2022-01-10T12:00:00,2335A,117.0189,25.1181,龙岩市,龙岩师专(对照点),,42,31,26,29,21,52,12,22,11,27,21,15,11,0.7,0.6
2022-01-10T12:00:00,2336A,117.0217,25.1033,龙岩市,龙岩市监测站,,36,33,28,25,19,60,12,28,9,30,25,13,10,0.7,0.6
2022-01-10T12:00:00,2337A,117.0258,25.0661,龙岩市,闽西职业技术学院,颗粒物(PM10),53,56,32,22,18,52,12,22,8,28,25,14,9,0.8,0.6
2022-01-10T12:00:00,2338A,117.0196,25.0306,龙岩市,龙岩学院,颗粒物(PM10),55,60,34,31,21,53,11,15,11,35,26,12,7,0.8,0.5
2022-01-10T12:00:00,2339A,119.5001,26.6946,宁德市,金涵水库(对照点),,49,45,42,34,38,48,33,37,22,27,33,7,7,0.8,0.6
2022-01-10T12:00:00,2341A,119.5388,26.6612,宁德市,宁德市监测站,,,,38,37,40,58,,34,15,26,28,8,8,0.7,0.6
2022-01-10T12:00:00,2342A,117.3102,29.3867,景德镇市,王港中学(对照点),,36,31,24,25,17,51,32,13,13,7,8,4,4,0.3,0.4
2022-01-10T12:00:00,2343A,117.2117,29.2933,景德镇市,老干部活动中心,,32,32,39,20,25,35,24,23,15,16,20,3,4,0.8,0.8
2022-01-10T12:00:00,2344A,117.1894,29.2789,景德镇市,兽医站,,31,31,37,21,26,33,28,25,18,6,13,4,5,0.7,0.7
2022-01-10T12:00:00,2345A,117.1547,29.2617,景德镇市,台达陶瓷,,,,38,,23,31,22,22,15,20,24,,7,0.9,0.9
2022-01-10T12:00:00,2346A,117.2461,29.2956,景德镇市,陶研所,,35,35,40,23,20,38,22,18,11,17,17,7,6,0.7,0.7
2022-01-10T12:00:00,2347A,114.0997,27.5002,萍乡市,武功山(对照点),,,23,28,37,29,42,27,25,25,,22,10,4,,1.2
2022-01-10T12:00:00,2348A,113.8385,27.6434,萍乡市,中医院,细颗粒物(PM2.5),95,79,80,71,71,36,32,30,29,29,31,9,10,1.3,1.5
2022-01-10T12:00:00,2349A,113.8493,27.6253,萍乡市,市政府车库,细颗粒物(PM2.5),104,88,75,78,69,30,28,25,25,34,36,11,12,1.2,1.4
2022-01-10T12:00:00,2350A,113.8676,27.6435,萍乡市,市环保局,细颗粒物(PM2.5),102,77,81,76,75,34,34,28,28,29,36,9,9,0.9,1.1
2022-01-10T12:00:00,2351A,113.866,27.6198,萍乡市,安源区政府,细颗粒物(PM2.5),90,91,80,67,62,36,23,28,25,30,30,4,6,1.1,1.1
2022-01-10T12:00:00,2352A,115.0861,27.9317,新余市,北岗(对照点),细颗粒物(PM2.5),73,62,54,53,44,46,37,15,15,29,29,14,6,0.6,0.6
2022-01-10T12:00:00,2353A,114.9886,27.8431,新余市,飞宇,颗粒物(PM10),65,80,71,46,40,41,41,27,17,31,36,15,9,0.6,0.7
2022-01-10T12:00:00,2354A,114.9231,27.8246,新余市,第二水厂,细颗粒物(PM2.5),67,74,69,48,47,42,42,27,20,28,33,8,6,0.5,0.7
2022-01-10T12:00:00,2355A,114.9308,27.8036,新余市,市气象局,细颗粒物(PM2.5),68,68,61,49,49,40,34,32,21,35,30,11,7,0.6,0.6
2022-01-10T12:00:00,2357A,116.9822,28.1136,鹰潭市,龙虎山(对照点),,49,28,30,34,41,69,53,44,44,8,9,12,6,1.1,0.9
2022-01-10T12:00:00,2358A,117.0564,28.2642,鹰潭市,新监测站,,,36,40,48,60,68,32,30,25,23,27,20,8,,0.8
2022-01-10T12:00:00,2359A,117.0311,28.2475,鹰潭市,财苑宾馆,细颗粒物(PM2.5),73,37,42,53,60,64,32,34,25,18,23,21,8,1.0,0.9
2022-01-10T12:00:00,2360A,117.0222,28.2264,鹰潭市,体育馆,细颗粒物(PM2.5),67,41,43,48,60,65,37,34,24,20,26,23,9,0.8,0.6
2022-01-10T12:00:00,2361A,117.0017,28.2131,鹰潭市,三川水表,细颗粒物(PM2.5),73,42,53,53,61,63,31,28,21,21,29,22,10,1.2,1
2022-01-10T12:00:00,2362A,114.9017,25.9149,赣州市,通天岩(对照点),,33,33,28,22,18,54,31,36,32,7,8,2,3,1.2,1.1
2022-01-10T12:00:00,2363A,114.9367,25.8664,赣州市,地委,,39,35,29,27,20,48,14,24,18,23,15,8,8,1.2,1.1
2022-01-10T12:00:00,2364A,114.9461,25.8481,赣州市,气象台,,38,35,27,26,20,40,11,22,12,33,20,6,5,1.0,0.9
2022-01-10T12:00:00,2365A,114.9322,25.8333,赣州市,市图书馆,,33,33,28,21,19,36,9,20,11,27,23,6,7,1.4,1.3
2022-01-10T12:00:00,2366A,114.8905,25.8471,赣州市,华坚鞋城,颗粒物(PM10),53,55,43,18,20,42,18,27,23,20,14,12,8,1.1,1
2022-01-10T12:00:00,2367A,114.9754,27.0803,吉安市,红声器材厂,颗粒物(PM10),53,55,50,36,31,58,43,55,52,28,18,14,17,0.7,0.6
2022-01-10T12:00:00,2368A,114.9658,27.0999,吉安市,市森林工业局,细颗粒物(PM2.5),55,50,45,39,32,62,52,60,54,31,26,8,12,0.7,0.7
2022-01-10T12:00:00,2369A,114.99,27.1312,吉安市,市环境监测站,细颗粒物(PM2.5),55,56,46,39,30,60,38,56,48,30,20,4,11,1.0,0.9
2022-01-10T12:00:00,2370A,115.0093,27.0968,吉安市,青原区法院,细颗粒物(PM2.5),53,52,45,37,35,60,45,54,52,28,17,23,21,0.7,0.7
2022-01-10T12:00:00,2371A,114.3408,27.8064,宜春市,槟榔水业(对照点),细颗粒物(PM2.5),69,72,51,50,37,52,29,52,22,28,28,9,7,0.9,0.8
2022-01-10T12:00:00,2373A,114.3956,27.7844,宜春市,市石油公司,细颗粒物(PM2.5),72,68,47,52,35,45,22,45,18,26,23,14,11,0.9,0.9
2022-01-10T12:00:00,2374A,114.3703,27.7914,宜春市,市气象局,细颗粒物(PM2.5),75,70,49,55,38,45,25,45,18,31,29,9,6,1.0,1
2022-01-10T12:00:00,2375A,114.4013,27.8074,宜春市,市广电局,细颗粒物(PM2.5),74,62,49,54,39,46,20,42,11,29,28,5,7,1.1,1
2022-01-10T12:00:00,2376A,116.2127,28.0814,抚州市,桐源党溪(对照点),细颗粒物(PM2.5),65,58,47,47,37,67,62,30,30,2,6,16,11,1.0,1
2022-01-10T12:00:00,2377A,116.3544,27.9831,抚州市,市站,细颗粒物(PM2.5),63,62,54,45,41,83,61,48,39,24,27,13,8,0.9,0.9
2022-01-10T12:00:00,2378A,116.3565,27.963,抚州市,血防站,细颗粒物(PM2.5),68,64,57,49,45,83,55,52,39,21,20,13,7,0.8,0.8
2022-01-10T12:00:00,2379A,116.3564,28.0007,抚州市,采茶剧团,细颗粒物(PM2.5),63,62,52,45,41,76,56,41,35,23,24,17,8,0.8,0.8
2022-01-10T12:00:00,2380A,116.385,27.9647,抚州市,医学分院,细颗粒物(PM2.5),59,63,54,42,38,82,52,48,32,15,13,15,8,1.1,1.1
2022-01-10T12:00:00,2381A,118.005,28.4572,上饶市,百草园(对照点),,,,53,,38,36,27,16,16,,28,,16,0.6,1.4
2022-01-10T12:00:00,2382A,117.9756,28.4436,上饶市,市监测站,细颗粒物(PM2.5),62,69,70,44,47,37,31,12,12,25,27,7,24,0.7,0.7
2022-01-10T12:00:00,2383A,117.9519,28.4628,上饶市,凤凰光学,颗粒物(PM10),55,59,57,37,39,42,28,14,14,27,26,24,8,1.1,1.2
2022-01-10T12:00:00,2385A,114.17,35.9019,鹤壁市,市监测站,细颗粒物(PM2.5),215,184,235,165,193,23,13,5,5,64,67,5,5,1.8,2.4
2022-01-10T12:00:00,2386A,114.2956,35.7511,鹤壁市,市交警支队,细颗粒物(PM2.5),305,267,194,255,158,24,8,17,6,69,45,6,6,2.3,1.5
2022-01-10T12:00:00,2387A,114.2878,35.7306,鹤壁市,迎宾馆,细颗粒物(PM2.5),272,224,164,222,146,32,8,24,6,68,43,5,6,2.0,1.4
2022-01-10T12:00:00,2389A,113.836,35.311,新乡市,环保西院,细颗粒物(PM2.5),304,293,176,254,145,33,12,31,20,63,35,10,11,2.8,1.3
2022-01-10T12:00:00,2390A,113.884,35.272,新乡市,开发区,细颗粒物(PM2.5),299,282,166,249,130,33,14,31,17,53,28,8,8,2.5,1.2
2022-01-10T12:00:00,2391A,113.883,35.303,新乡市,环保东院,细颗粒物(PM2.5),270,222,135,220,116,38,16,38,19,57,31,8,8,2.6,1.3
2022-01-10T12:00:00,2392A,115.0312,35.7636,濮阳市,环保局,细颗粒物(PM2.5),252,204,154,202,150,41,19,16,13,40,34,8,8,1.9,1.3
2022-01-10T12:00:00,2394A,115.0574,35.7609,濮阳市,油田运输公司,细颗粒物(PM2.5),216,165,136,166,134,36,17,16,12,37,33,8,8,1.7,1.2
2022-01-10T12:00:00,2395A,115.0866,35.7754,濮阳市,油田物探公司,细颗粒物(PM2.5),209,160,130,159,129,38,20,17,12,34,31,6,5,1.7,1.2
2022-01-10T12:00:00,2396A,113.8276,34.0159,许昌市,监测站,细颗粒物(PM2.5),209,133,93,159,114,35,16,24,22,26,23,6,6,1.3,1.1
