timepoint,stationcode,longitude,latitude,area,positionname,primarypollutant,aqi,pm10,pm10_24h,pm2_5,pm2_5_24h,o3,o3_24h,o3_8h,o3_8h_24h,no2,no2_24h,so2,so2_24h,co,co_24h
2023-01-22T05:00:00,1001A,116.3621,39.8784,北京市,万寿西宫,细颗粒物(PM2.5),84,92,74,62,44,58,19,13,13,40,38,6,4,0.6,0.6
2023-01-22T05:00:00,1002A,116.2202,40.2915,北京市,定陵,颗粒物(PM10),61,71,55,41,32,56,38,35,35,7,11,3,3,0.4,0.3
2023-01-22T05:00:00,1003A,116.4174,39.9289,北京市,东四,细颗粒物(PM2.5),98,115,82,73,46,52,31,22,22,28,31,8,5,0.5,0.7
2023-01-22T05:00:00,1004A,116.4072,39.8863,北京市,天坛,细颗粒物(PM2.5),85,84,67,63,43,54,19,11,11,28,34,1,3,0.5,0.5
2023-01-22T05:00:00,1005A,116.462,39.9365,北京市,农展馆,细颗粒物(PM2.5),118,125,86,89,53,59,27,19,19,32,35,6,7,0.4,0.4
2023-01-22T05:00:00,1006A,116.3392,39.9295,北京市,官园,细颗粒物(PM2.5),84,94,75,62,46,66,12,13,13,46,35,6,5,0.6,0.5
2023-01-22T05:00:00,1007A,116.2878,39.9611,北京市,海淀万柳,细颗粒物(PM2.5),99,113,71,74,39,47,4,8,7,49,37,7,6,0.6,0.5
2023-01-22T05:00:00,1008A,116.6636,40.135,北京市,顺义新城,细颗粒物(PM2.5),133,141,85,101,54,72,39,31,31,19,20,4,5,0.5,0.5
2023-01-22T05:00:00,1009A,116.6275,40.3275,北京市,怀柔镇,细颗粒物(PM2.5),92,113,79,68,38,62,35,35,34,13,16,4,3,0.4,0.4
2023-01-22T05:00:00,1010A,116.2296,40.217,北京市,昌平镇,细颗粒物(PM2.5),73,80,61,53,35,57,25,37,29,20,20,1,4,0.7,0.5
2023-01-22T05:00:00,1011A,116.3966,39.9821,北京市,奥体中心,细颗粒物(PM2.5),147,140,78,112,51,54,6,11,9,53,37,20,10,0.9,0.6
2023-01-22T05:00:00,1012A,116.184,39.9136,北京市,古城,细颗粒物(PM2.5),102,105,85,76,53,60,8,21,17,45,26,2,4,0.6,0.6
2023-01-22T05:00:00,1015A,117.1444,39.1661,天津市,勤俭道,细颗粒物(PM2.5),402,441,256,352,183,63,27,24,24,41,39,29,31,1.1,0.9
2023-01-22T05:00:00,1017A,117.237,39.1082,天津市,大直沽八号路,,,,260,,172,44,,46,,,37,,39,,0.9
2023-01-22T05:00:00,1018A,117.202,39.0927,天津市,前进道,细颗粒物(PM2.5),320,344,223,270,150,80,45,43,43,30,31,27,29,1.0,0.8
2023-01-22T05:00:00,1019A,117.1837,39.2133,天津市,淮河道,颗粒物(PM10),373,478,288,320,184,71,37,43,41,28,32,30,30,1.2,1
2023-01-22T05:00:00,1021A,117.307,39.0877,天津市,跃进路,细颗粒物(PM2.5),410,454,277,364,205,77,29,29,29,34,37,35,34,1.2,0.9
2023-01-22T05:00:00,1023A,117.707,39.0343,天津市,第四大街,细颗粒物(PM2.5),387,459,240,337,162,66,6,12,7,50,46,14,16,1.3,1.1
2023-01-22T05:00:00,1024A,117.457,38.8394,天津市,永明路,细颗粒物(PM2.5),423,480,281,384,214,69,14,12,12,50,39,41,38,1.5,1
2023-01-22T05:00:00,1026A,117.764,39.1587,天津市,汉北路,颗粒物(PM10),500,602,194,442,122,70,3,6,4,42,31,14,14,1.5,0.9
2023-01-22T05:00:00,1027A,117.157,38.9194,天津市,团泊洼,"颗粒物(PM10),细颗粒物(PM2.5)",440,540,275,410,201,74,5,12,9,48,36,15,33,1.3,1
2023-01-22T05:00:00,1029A,114.4422,38.0444,石家庄市,职工医院,细颗粒物(PM2.5),105,124,106,79,64,68,17,40,29,42,28,21,12,1.0,0.8
2023-01-22T05:00:00,1030A,114.6063,38.0266,石家庄市,高新区,细颗粒物(PM2.5),139,154,113,106,68,72,33,40,33,27,20,15,12,0.8,0.7
2023-01-22T05:00:00,1031A,114.4898,38.1328,石家庄市,西北水源,细颗粒物(PM2.5),88,117,105,65,59,66,15,32,22,37,21,9,10,0.9,0.9
2023-01-22T05:00:00,1032A,114.4586,38.0058,石家庄市,西南高教,细颗粒物(PM2.5),100,117,105,75,67,66,33,44,33,28,25,16,12,0.9,0.8
2023-01-22T05:00:00,1033A,114.5331,38.0178,石家庄市,世纪公园,细颗粒物(PM2.5),156,152,95,119,64,65,26,50,34,28,17,15,13,0.8,0.7
2023-01-22T05:00:00,1034A,114.509,38.0457,石家庄市,人民会堂,细颗粒物(PM2.5),140,146,103,107,65,71,31,48,37,24,18,14,10,1.0,0.8
2023-01-22T05:00:00,1035A,114.3524,37.8911,石家庄市,封龙山,颗粒物(PM10),67,83,87,36,54,68,68,60,60,19,23,28,30,0.7,1.1
2023-01-22T05:00:00,1037A,118.131,39.6363,唐山市,雷达站,细颗粒物(PM2.5),180,192,219,136,155,73,27,19,19,35,40,48,30,2.8,1.4
2023-01-22T05:00:00,1038A,118.1725,39.6334,唐山市,物资局,细颗粒物(PM2.5),172,205,197,130,124,74,26,20,20,44,45,39,30,2.9,1.4
2023-01-22T05:00:00,1040A,118.1705,39.6506,唐山市,十二中,细颗粒物(PM2.5),185,200,210,139,149,64,16,8,8,48,49,30,27,2.8,1.5
2023-01-22T05:00:00,1041A,118.1869,39.622,唐山市,小山,细颗粒物(PM2.5),172,218,206,130,133,73,24,18,18,44,41,54,37,3.2,1.5
2023-01-22T05:00:00,1042A,119.5134,39.8207,秦皇岛市,北戴河环保局,细颗粒物(PM2.5),234,253,126,184,80,49,26,18,18,21,21,9,6,1.6,1.4
2023-01-22T05:00:00,1043A,119.7493,40.0116,秦皇岛市,第一关,细颗粒物(PM2.5),170,175,122,129,83,68,40,27,27,19,26,13,10,1.0,0.9
2023-01-22T05:00:00,1044A,119.5897,39.9499,秦皇岛市,监测站,细颗粒物(PM2.5),178,171,140,134,111,60,31,31,31,12,20,12,15,1.0,0.9
2023-01-22T05:00:00,1046A,119.5251,39.9041,秦皇岛市,建设大厦,细颗粒物(PM2.5),142,173,126,108,76,69,31,34,31,29,29,13,14,1.3,1.1
2023-01-22T05:00:00,1048A,114.5302,36.6116,邯郸市,东污水处理厂,细颗粒物(PM2.5),170,180,132,129,80,57,42,42,42,21,19,22,17,1.0,1
2023-01-22T05:00:00,1049A,114.4918,36.5713,邯郸市,矿院,细颗粒物(PM2.5),168,164,118,127,80,49,38,40,38,25,28,19,16,1.0,1
2023-01-22T05:00:00,1050A,114.484,36.6133,邯郸市,丛台公园,细颗粒物(PM2.5),145,144,116,111,75,52,30,39,35,20,21,15,15,1.1,1.1
2023-01-22T05:00:00,1051A,115.493,38.8632,保定市,游泳馆,细颗粒物(PM2.5),183,151,93,138,74,79,15,37,17,48,28,19,13,0.8,0.6
2023-01-22T05:00:00,1052A,115.5213,38.8959,保定市,华电二区,细颗粒物(PM2.5),210,147,98,160,79,68,8,43,28,50,28,10,12,1.4,1.2
2023-01-22T05:00:00,1053A,115.4713,38.9108,保定市,接待中心,细颗粒物(PM2.5),172,147,106,130,73,61,8,28,16,47,24,16,10,1.2,0.8
2023-01-22T05:00:00,1054A,115.4612,38.8416,保定市,地表水厂,细颗粒物(PM2.5),213,244,129,163,76,71,11,24,15,61,37,17,11,1.4,0.7
2023-01-22T05:00:00,1056A,115.5086,38.8639,保定市,监测站,细颗粒物(PM2.5),162,136,106,123,74,78,12,41,21,55,32,13,13,1.1,0.7
2023-01-22T05:00:00,1057A,114.8883,40.8336,张家口市,人民公园,颗粒物(PM10),64,78,86,36,42,78,50,48,48,11,16,11,15,0.7,0.8
2023-01-22T05:00:00,1059A,114.8687,40.8042,张家口市,五金库,,,,53,,33,54,,48,,,18,,14,,0.7
2023-01-22T05:00:00,1060A,114.8902,40.762,张家口市,世纪豪园,颗粒物(PM10),79,108,126,46,75,76,54,50,50,9,20,3,13,0.5,0.7
2023-01-22T05:00:00,1061A,114.8916,40.8661,张家口市,北泵房,颗粒物(PM10),66,82,94,37,53,83,58,55,55,10,19,9,20,0.8,1
2023-01-22T05:00:00,1062A,117.9531,40.9081,承德市,铁路,细颗粒物(PM2.5),147,161,102,112,63,62,8,12,9,40,32,16,18,1.6,1.1
2023-01-22T05:00:00,1063A,117.9392,40.9763,承德市,中国银行,细颗粒物(PM2.5),144,140,88,110,57,57,10,7,7,29,28,7,12,1.0,1
2023-01-22T05:00:00,1064A,117.9503,40.928,承德市,开发区,细颗粒物(PM2.5),110,97,80,83,55,65,9,7,7,41,32,8,11,1.3,1
2023-01-22T05:00:00,1065A,117.8051,40.9655,承德市,文化中心,细颗粒物(PM2.5),124,122,116,94,75,62,18,18,18,31,28,9,24,1.3,1
2023-01-22T05:00:00,1066A,117.9268,41.0026,承德市,离宫,细颗粒物(PM2.5),130,138,71,99,48,56,14,24,20,29,19,18,17,1.0,0.8
2023-01-22T05:00:00,1067A,116.6708,39.5111,廊坊市,药材公司,细颗粒物(PM2.5),268,286,156,218,108,71,22,32,28,44,36,24,16,1.1,0.8
2023-01-22T05:00:00,1068A,116.7214,39.5589,廊坊市,开发区,细颗粒物(PM2.5),284,290,148,234,107,77,24,31,28,49,37,27,22,1.0,1
2023-01-22T05:00:00,1070A,116.7244,39.5269,廊坊市,北华航天学院,细颗粒物(PM2.5),280,301,153,230,106,75,30,35,34,42,33,34,24,0.9,0.8
2023-01-22T05:00:00,1071A,116.8842,38.2991,沧州市,沧县城建局,细颗粒物(PM2.5),189,207,188,142,126,87,47,48,48,33,30,21,25,1.3,1.2
2023-01-22T05:00:00,1072A,116.8584,38.3254,沧州市,电视转播站,细颗粒物(PM2.5),208,208,174,158,131,92,43,39,39,32,30,16,21,1.2,1.1
2023-01-22T05:00:00,1073A,116.8709,38.3228,沧州市,市环保局,细颗粒物(PM2.5),209,212,177,159,128,82,43,40,39,34,35,19,23,1.0,0.9
2023-01-22T05:00:00,1074A,115.6838,37.7541,衡水市,电机北厂,细颗粒物(PM2.5),357,381,247,307,170,69,14,23,17,51,32,32,23,1.6,1.2
2023-01-22T05:00:00,1075A,115.6303,37.7316,衡水市,市监测站,细颗粒物(PM2.5),367,414,252,317,166,68,11,25,17,52,27,36,28,1.4,1
2023-01-22T05:00:00,1077A,114.4704,37.0886,邢台市,达活泉,细颗粒物(PM2.5),119,110,87,90,68,62,45,42,42,22,21,15,17,1.0,0.9
2023-01-22T05:00:00,1078A,114.5062,37.0349,邢台市,邢师高专,细颗粒物(PM2.5),113,103,91,85,60,62,50,46,46,12,15,10,11,1.0,1
2023-01-22T05:00:00,1079A,114.5237,37.0851,邢台市,路桥公司,细颗粒物(PM2.5),102,112,90,76,57,73,49,48,48,12,12,8,10,1.0,0.8
2023-01-22T05:00:00,1080A,114.4725,37.0719,邢台市,市环保局,细颗粒物(PM2.5),117,122,94,88,68,63,49,46,46,12,14,12,12,0.9,0.8
2023-01-22T05:00:00,1081A,112.522,37.8873,太原市,尖草坪,细颗粒物(PM2.5),148,150,166,113,101,72,47,43,43,20,35,25,31,0.6,0.9
2023-01-22T05:00:00,1083A,112.434,38.0108,太原市,上兰,,,,,,,,,,,,,,,,
2023-01-22T05:00:00,1084A,112.469,37.7124,太原市,晋源,,,712,238,,133,66,29,32,31,71,49,53,31,2.8,1.4
2023-01-22T05:00:00,1085A,112.5583,37.7394,太原市,小店,,,578,248,,131,78,8,10,9,67,49,94,42,2.7,1.3
2023-01-22T05:00:00,1086A,112.5369,37.8692,太原市,桃园,细颗粒物(PM2.5),114,130,136,86,75,70,55,52,52,15,31,24,24,0.5,0.8
2023-01-22T05:00:00,1087A,112.57,37.8195,太原市,坞城,细颗粒物(PM2.5),296,303,173,246,109,76,27,36,34,46,39,34,32,1.3,1.1
2023-01-22T05:00:00,1088A,112.549,37.9854,太原市,南寨,细颗粒物(PM2.5),153,205,138,117,70,77,9,12,10,36,36,8,18,1.1,1
2023-01-22T05:00:00,1089A,112.4783,37.7778,太原市,金胜,,,,,,,,,,,,,,,,
2023-01-22T05:00:00,1090A,111.6507,40.7517,呼和浩特市,呼市一监,细颗粒物(PM2.5),500,425,225,563,260,76,7,18,13,57,37,60,41,1.7,1.2
2023-01-22T05:00:00,1091A,111.6572,40.8033,呼和浩特市,小召,细颗粒物(PM2.5),500,488,227,613,272,69,14,17,14,59,46,41,58,1.7,1.1
2023-01-22T05:00:00,1094A,111.7516,40.8369,呼和浩特市,如意水处理厂,颗粒物(PM10),437,537,330,361,196,77,13,17,14,2,30,17,30,1.6,1.2
2023-01-22T05:00:00,1095A,111.7276,40.8062,呼和浩特市,二十九中,细颗粒物(PM2.5),500,514,427,522,282,75,8,14,12,48,40,22,45,2.0,1.1
2023-01-22T05:00:00,1096A,111.5512,40.7866,呼和浩特市,工大金川校区,"颗粒物(PM10),细颗粒物(PM2.5)",500,1334,445,932,329,77,7,25,19,57,39,71,54,2.4,1.4
2023-01-22T05:00:00,1097A,111.717,40.7612,呼和浩特市,化肥厂生活区,颗粒物(PM10),500,611,429,473,283,96,12,42,21,46,39,23,57,2.7,1.5
2023-01-22T05:00:00,1098A,123.6836,41.9339,沈阳市,森林路,,,,,,,,,,,,,,,,
2023-01-22T05:00:00,1099A,123.505,41.7406,沈阳市,浑南东路,细颗粒物(PM2.5),237,216,94,187,68,57,18,17,17,19,21,11,17,0.9,0.9
2023-01-22T05:00:00,1100A,123.4231,41.6989,沈阳市,新秀街,细颗粒物(PM2.5),356,381,131,306,80,68,16,14,13,25,21,10,16,1.4,1.1
2023-01-22T05:00:00,1102A,123.5903,41.8411,沈阳市,东陵路,细颗粒物(PM2.5),139,139,87,106,52,70,27,29,28,16,19,7,14,0.9,1.1
2023-01-22T05:00:00,1103A,123.4264,41.8467,沈阳市,陵东街,细颗粒物(PM2.5),215,221,102,165,63,69,14,24,16,27,28,13,17,1.2,1.1
2023-01-22T05:00:00,1104A,123.4114,41.7653,沈阳市,文化路,细颗粒物(PM2.5),255,260,110,205,68,72,6,6,6,45,30,25,21,1.3,0.9
2023-01-22T05:00:00,1105A,123.4678,41.7867,沈阳市,小河沿,细颗粒物(PM2.5),218,220,99,168,63,68,13,16,15,32,25,13,15,0.9,0.9
2023-01-22T05:00:00,1106A,123.4017,41.7972,沈阳市,太原街,细颗粒物(PM2.5),276,312,126,226,79,68,5,11,7,28,24,32,24,1.2,1
2023-01-22T05:00:00,1108A,123.3783,41.9228,沈阳市,京沈街,细颗粒物(PM2.5),231,197,127,181,71,66,16,24,18,22,23,16,21,1.1,0.9
2023-01-22T05:00:00,1109A,121.612,38.9741,大连市,甘井子,细颗粒物(PM2.5),298,224,178,248,158,76,29,26,26,25,21,15,33,0.7,0.6
2023-01-22T05:00:00,1110A,121.565,38.9511,大连市,周水子,细颗粒物(PM2.5),295,260,125,245,102,72,26,18,18,22,36,18,73,1.0,0.9
2023-01-22T05:00:00,1111A,121.5637,38.8845,大连市,星海三站,细颗粒物(PM2.5),324,246,409,274,262,64,13,10,10,39,32,10,33,1.1,0.8
2023-01-22T05:00:00,1112A,121.6302,38.9117,大连市,青泥洼桥,细颗粒物(PM2.5),293,219,153,243,246,80,31,18,18,23,30,22,52,1.2,0.9
2023-01-22T05:00:00,1113A,121.6251,38.8638,大连市,傅家庄,细颗粒物(PM2.5),200,194,97,150,71,84,36,52,36,36,22,16,22,1.3,0.9
2023-01-22T05:00:00,1114A,121.5213,38.8661,大连市,七贤岭,细颗粒物(PM2.5),396,396,285,346,228,82,6,13,9,41,28,29,26,1.2,0.9
2023-01-22T05:00:00,1115A,121.2529,38.8061,大连市,旅顺,颗粒物(PM10),435,535,179,387,124,81,17,54,45,33,18,22,21,0.9,0.6
2023-01-22T05:00:00,1116A,121.7485,39.1311,大连市,金州,细颗粒物(PM2.5),295,300,150,245,93,72,36,32,32,17,21,16,17,1.1,1
2023-01-22T05:00:00,1117A,121.7811,39.0496,大连市,开发区,细颗粒物(PM2.5),328,291,132,278,136,71,36,36,36,18,26,19,21,1.3,1
2023-01-22T05:00:00,1118A,121.9762,39.0631,大连市,双D港,,,280,132,,64,76,39,43,41,19,18,13,10,0.9,0.8
2023-01-22T05:00:00,1119A,125.3325,43.9166,长春市,食品厂,细颗粒物(PM2.5),215,151,117,165,93,61,34,32,32,19,19,17,18,0.9,0.7
2023-01-22T05:00:00,1120A,125.2863,43.9027,长春市,客车厂,细颗粒物(PM2.5),195,140,103,146,78,57,21,25,24,32,22,25,19,0.7,0.6
2023-01-22T05:00:00,1121A,125.2841,43.8463,长春市,邮电学院,细颗粒物(PM2.5),192,144,105,144,79,57,19,25,23,34,21,37,21,0.7,0.6
2023-01-22T05:00:00,1122A,125.3716,43.8772,长春市,劳动公园,细颗粒物(PM2.5),211,155,111,161,85,62,29,32,31,26,22,25,25,1.3,1
2023-01-22T05:00:00,1123A,125.3297,43.8805,长春市,园林处,细颗粒物(PM2.5),179,159,93,135,69,58,18,34,27,40,24,67,27,0.9,0.7
2023-01-22T05:00:00,1124A,125.4605,43.79,长春市,净月潭,细颗粒物(PM2.5),140,124,89,107,54,69,36,40,38,12,12,6,10,0.9,0.7
2023-01-22T05:00:00,1125A,125.7194,43.515,长春市,甩湾子,,,,,,,,,,,,,,,,
2023-01-22T05:00:00,1126A,125.3863,43.8447,长春市,经开区环卫处,细颗粒物(PM2.5),180,133,109,136,77,62,35,33,33,16,20,20,28,0.9,0.7
2023-01-22T05:00:00,1127A,125.245,43.7783,长春市,高新区管委会,细颗粒物(PM2.5),216,126,147,166,122,66,16,15,15,37,20,52,24,1.0,0.8
2023-01-22T05:00:00,1128A,125.1761,43.8325,长春市,岱山公园,细颗粒物(PM2.5),195,161,102,146,81,62,15,24,19,35,14,42,14,0.8,0.7
2023-01-22T05:00:00,1129A,126.5422,45.755,哈尔滨市,岭北,细颗粒物(PM2.5),256,240,119,206,92,60,39,37,37,17,24,23,23,0.8,0.6
2023-01-22T05:00:00,1130A,126.561,45.8167,哈尔滨市,松北商大,细颗粒物(PM2.5),251,232,135,201,101,60,30,28,28,20,22,16,18,1.1,1
2023-01-22T05:00:00,1131A,126.979,45.5419,哈尔滨市,阿城会宁,细颗粒物(PM2.5),212,126,125,162,89,63,24,34,32,25,20,17,21,0.9,0.6
2023-01-22T05:00:00,1132A,126.599,45.7222,哈尔滨市,南岗学府路,细颗粒物(PM2.5),188,82,122,141,88,48,28,31,31,29,30,10,23,0.6,0.7
2023-01-22T05:00:00,1133A,126.689,45.7733,哈尔滨市,太平宏伟公园,细颗粒物(PM2.5),225,146,111,175,70,55,22,44,39,37,26,19,22,0.8,1
2023-01-22T05:00:00,1134A,126.635,45.7667,哈尔滨市,道外承德广场,细颗粒物(PM2.5),179,97,102,135,66,49,32,34,34,28,30,17,20,0.7,0.9
2023-01-22T05:00:00,1135A,126.685,45.7319,哈尔滨市,香坊红旗大街,细颗粒物(PM2.5),135,66,116,103,99,52,40,45,44,22,26,9,22,0.7,0.9
2023-01-22T05:00:00,1136A,126.6411,45.7258,哈尔滨市,动力和平路,细颗粒物(PM2.5),127,76,108,96,79,46,30,39,37,28,33,4,22,0.7,0.8
2023-01-22T05:00:00,1137A,126.593,45.7478,哈尔滨市,道里建国路,细颗粒物(PM2.5),250,164,110,200,85,39,20,29,27,29,31,22,25,1.0,0.8
2023-01-22T05:00:00,1138A,126.615,45.61,哈尔滨市,平房东轻厂,细颗粒物(PM2.5),301,219,162,251,118,64,15,14,14,33,32,22,29,1.5,1.1
2023-01-22T05:00:00,1139A,126.595,45.9855,哈尔滨市,呼兰师专,细颗粒物(PM2.5),207,180,149,157,112,55,28,22,22,19,24,15,23,1.1,1
2023-01-22T05:00:00,1140A,126.6206,45.6842,哈尔滨市,省农科院,,,,107,,89,31,,32,,,26,,68,,1.2
2023-01-22T05:00:00,1141A,121.4,31.238,上海市,普陀,,22,22,64,15,17,106,43,74,64,28,16,4,5,0.6,0.6
2023-01-22T05:00:00,1142A,121.478,31.2036,上海市,十五厂,,23,18,57,16,19,90,40,58,50,27,20,4,5,0.4,0.5
2023-01-22T05:00:00,1143A,121.467,31.3008,上海市,虹口,,26,22,53,18,17,94,32,69,50,25,13,8,9,0.6,0.6
2023-01-22T05:00:00,1144A,121.412,31.1654,上海市,徐汇上师大,,25,20,60,17,19,81,42,58,53,25,18,8,8,0.6,0.6
2023-01-22T05:00:00,1145A,121.536,31.2659,上海市,杨浦四漂,,26,12,49,18,18,98,32,65,51,33,16,6,6,0.6,0.6
2023-01-22T05:00:00,1147A,121.425,31.2261,上海市,静安监测站,,23,22,58,16,17,97,42,66,58,31,21,7,7,0.6,0.6
2023-01-22T05:00:00,1148A,121.703,31.1907,上海市,浦东川沙,,25,12,53,17,22,91,33,53,44,25,13,5,6,0.5,0.6
2023-01-22T05:00:00,1149A,121.533,31.2284,上海市,浦东新区监测站,,33,24,54,23,19,90,27,62,49,34,16,5,6,0.3,0.3
2023-01-22T05:00:00,1150A,121.577,31.2071,上海市,浦东张江,,24,19,56,9,12,86,14,62,43,48,16,4,5,0.6,0.5
2023-01-22T05:00:00,1151A,118.8086,32.1065,南京市,迈皋桥,细颗粒物(PM2.5),89,94,98,66,38,113,51,66,52,18,11,3,4,0.4,0.3
2023-01-22T05:00:00,1152A,118.7538,32.0551,南京市,草场门,细颗粒物(PM2.5),85,96,97,63,37,107,44,63,51,19,13,1,2,0.9,0.7
2023-01-22T05:00:00,1153A,118.7794,32.0745,南京市,山西路,细颗粒物(PM2.5),83,88,98,61,39,116,50,71,54,14,9,3,4,0.4,0.4
2023-01-22T05:00:00,1154A,118.7752,32.0023,南京市,中华门,细颗粒物(PM2.5),67,70,94,48,37,110,49,60,55,14,11,4,6,0.2,0.2
2023-01-22T05:00:00,1155A,118.8109,32.0309,南京市,瑞金路,颗粒物(PM10),80,109,118,53,39,110,48,63,54,11,11,2,3,0.3,0.4
2023-01-22T05:00:00,1156A,118.7997,32.0754,南京市,玄武湖,细颗粒物(PM2.5),84,98,98,62,37,101,38,55,41,17,10,5,4,0.5,0.4
2023-01-22T05:00:00,1157A,118.6414,32.0931,南京市,浦口,颗粒物(PM10),81,111,104,56,40,110,47,62,53,17,15,3,3,0.7,0.7
2023-01-22T05:00:00,1158A,118.7356,31.9996,南京市,奥体中心,细颗粒物(PM2.5),85,96,106,63,39,109,50,66,59,21,17,3,5,0.5,0.5
2023-01-22T05:00:00,1159A,118.9125,32.1028,南京市,仙林大学城,细颗粒物(PM2.5),85,90,95,63,41,120,53,67,55,14,11,4,5,0.9,0.7
2023-01-22T05:00:00,1160A,120.561,31.2472,苏州市,上方山,,38,25,75,26,30,103,52,55,53,6,10,5,6,0.5,0.5
2023-01-22T05:00:00,1162A,120.591,31.3019,苏州市,彩香,,48,48,81,29,28,109,51,68,58,4,6,4,6,0.4,0.5
2023-01-22T05:00:00,1163A,120.596,31.3264,苏州市,轧钢厂,颗粒物(PM10),54,58,86,36,26,113,49,70,59,8,7,4,6,0.4,0.4
2023-01-22T05:00:00,1164A,120.613,31.2703,苏州市,吴中区,颗粒物(PM10),51,52,79,31,26,115,56,70,63,6,8,4,6,0.4,0.5
2023-01-22T05:00:00,1165A,120.543,31.2994,苏州市,苏州新区,,43,43,78,26,26,108,53,67,59,5,7,6,7,0.6,0.6
2023-01-22T05:00:00,1166A,120.669,31.3097,苏州市,苏州工业园区,,50,50,79,29,27,114,55,74,65,6,6,5,7,0.4,0.4
2023-01-22T05:00:00,1167A,120.641,31.3708,苏州市,相城区,细颗粒物(PM2.5),52,52,83,36,26,113,55,73,63,2,4,6,8,0.5,0.5
2023-01-22T05:00:00,1168A,120.9098,31.9663,南通市,狼山街道,,23,23,68,16,24,93,59,56,56,7,8,8,8,0.3,0.3
2023-01-22T05:00:00,1169A,120.86,32.0005,南通市,虹桥,,23,23,70,12,26,94,59,59,56,9,10,3,4,0.4,0.4
2023-01-22T05:00:00,1170A,120.87,32.02,南通市,城中,,26,22,71,18,30,106,68,64,62,5,9,4,5,0.3,0.3
2023-01-22T05:00:00,1171A,120.94,31.93,南通市,星湖花园,,25,25,68,14,20,93,60,57,57,4,6,6,8,0.4,0.5
2023-01-22T05:00:00,1172A,120.81,32.0417,南通市,紫琅学院,,22,22,77,9,23,93,56,55,52,5,7,3,5,0.3,0.3
2023-01-22T05:00:00,1173A,119.176,34.5885,连云港市,市环境监测站,细颗粒物(PM2.5),67,68,96,48,41,96,56,73,66,8,10,8,10,0.1,0.3
2023-01-22T05:00:00,1177A,117.179,34.2761,徐州市,黄河新村,,,,146,,72,72,,67,,,15,,12,,0.8
2023-01-22T05:00:00,1178A,117.1918,34.2384,徐州市,淮塔,细颗粒物(PM2.5),100,129,141,75,68,102,69,89,81,9,13,7,9,0.8,0.7
2023-01-22T05:00:00,1180A,117.256,34.2153,徐州市,新城区,细颗粒物(PM2.5),114,129,140,86,70,100,62,84,72,8,11,8,11,0.7,0.8
2023-01-22T05:00:00,1181A,117.244,34.2911,徐州市,桃园路,细颗粒物(PM2.5),92,119,143,68,63,100,68,83,77,8,10,7,9,0.7,0.6
2023-01-22T05:00:00,1182A,117.2933,34.2778,徐州市,农科院,细颗粒物(PM2.5),92,119,128,68,55,106,68,86,77,5,7,7,9,0.7,0.7
2023-01-22T05:00:00,1186A,119.389,32.3761,扬州市,邗江监测站,细颗粒物(PM2.5),120,85,111,91,56,112,59,66,60,13,22,4,8,0.4,0.6
2023-01-22T05:00:00,1188A,120.269,31.4867,无锡市,雪浪,,39,31,73,27,24,102,48,60,53,7,9,5,7,0.6,0.7
2023-01-22T05:00:00,1189A,120.275,31.6219,无锡市,黄巷,细颗粒物(PM2.5),62,55,86,44,27,113,51,67,59,11,13,6,8,0.9,0.7
2023-01-22T05:00:00,1190A,120.294,31.56,无锡市,曹张,细颗粒物(PM2.5),52,35,77,36,29,109,48,63,56,3,5,9,11,1.0,1
2023-01-22T05:00:00,1191A,120.242,31.5031,无锡市,漆塘,,42,31,76,29,25,112,52,68,60,8,8,6,8,0.4,0.5
2023-01-22T05:00:00,1192A,120.3489,31.5863,无锡市,东亭,,45,34,74,31,27,107,52,60,55,8,12,8,9,0.7,0.7
2023-01-22T05:00:00,1193A,120.354,31.5475,无锡市,旺庄,,49,39,77,34,29,90,47,58,53,8,13,2,4,0.4,0.5
2023-01-22T05:00:00,1194A,120.245,31.5631,无锡市,荣巷,,42,31,79,29,28,103,52,61,57,12,14,8,10,0.4,0.5
2023-01-22T05:00:00,1195A,120.299,31.6817,无锡市,堰桥,,39,31,81,27,29,108,48,63,54,5,8,2,4,0.6,0.5
2023-01-22T05:00:00,1196A,119.9633,31.762,常州市,市监测站,颗粒物(PM10),64,77,93,35,36,113,51,61,56,9,15,4,7,0.3,0.5
2023-01-22T05:00:00,1200A,119.9468,31.7069,常州市,武进监测站,颗粒物(PM10),60,70,99,33,33,111,50,67,59,7,10,5,7,0.5,0.4
2023-01-22T05:00:00,1201A,119.9255,31.9087,常州市,安家,颗粒物(PM10),89,127,96,61,38,115,38,63,51,18,14,6,7,0.6,0.5
2023-01-22T05:00:00,1203A,119.6707,32.1875,镇江市,新区办事处,细颗粒物(PM2.5),87,82,114,64,51,113,60,63,60,12,21,2,5,0.7,0.7
2023-01-22T05:00:00,1204A,119.4974,32.1968,镇江市,职教中心,细颗粒物(PM2.5),117,77,110,88,52,112,55,64,58,11,18,2,7,0.5,0.5
2023-01-22T05:00:00,1205A,119.4303,32.1328,镇江市,丹徒区监测站,细颗粒物(PM2.5),115,109,112,87,50,116,52,65,57,19,19,3,4,0.6,0.6
2023-01-22T05:00:00,1206A,119.905,32.4878,泰州市,公园路,,,,118,24,64,117,57,51,51,6,12,4,6,0.8,0.8
2023-01-22T05:00:00,1207A,119.9189,32.4625,泰州市,莲花,,38,27,113,26,63,123,62,56,56,11,16,6,9,0.4,0.5
2023-01-22T05:00:00,1209A,119.888,32.4639,泰州市,留学生创业园,,43,43,128,12,57,117,61,55,55,7,12,6,9,0.5,0.6
2023-01-22T05:00:00,1210A,119.036,33.5981,淮安市,钵池山,,42,31,87,29,40,101,65,63,63,8,11,5,6,0.4,0.5
2023-01-22T05:00:00,1211A,119.007,33.575,淮安市,北京南路,细颗粒物(PM2.5),54,41,102,38,37,100,63,61,61,9,13,6,8,0.4,0.6
2023-01-22T05:00:00,1212A,118.989,33.6067,淮安市,市监测站,,29,29,93,19,39,104,72,68,68,9,13,5,7,0.5,0.6
2023-01-22T05:00:00,1213A,119.135,33.5039,淮安市,楚州区监测站,,38,17,104,26,44,103,64,64,64,8,14,5,7,0.6,0.7
2023-01-22T05:00:00,1214A,119.0186,33.6297,淮安市,淮阴区监测站,,39,35,108,27,48,103,70,67,67,5,11,7,10,0.4,0.5
2023-01-22T05:00:00,1215A,120.118,33.4022,盐城市,盐城电厂,,28,17,67,19,23,102,81,86,83,6,8,6,7,0.4,0.4
2023-01-22T05:00:00,1216A,120.156,33.3942,盐城市,市监测站,,29,5,57,20,22,95,77,81,78,3,7,5,6,0.3,0.3
2023-01-22T05:00:00,1218A,120.2144,33.38,盐城市,开发区管委会,,,,72,,19,80,,77,,,9,,6,,0.4
2023-01-22T05:00:00,1220A,118.293,33.9528,宿迁市,宿迁学院,颗粒物(PM10),91,131,155,56,82,102,50,62,58,2,7,5,10,0.7,0.8
2023-01-22T05:00:00,1221A,118.2442,33.9592,宿迁市,宿迁中学,颗粒物(PM10),89,127,141,61,68,102,54,60,58,7,11,6,8,0.7,0.7
2023-01-22T05:00:00,1223A,120.2072,30.2111,杭州市,滨江,颗粒物(PM10),63,76,114,34,37,81,48,55,52,9,10,6,7,0.4,0.4
2023-01-22T05:00:00,1224A,120.0633,30.2747,杭州市,西溪,细颗粒物(PM2.5),248,365,171,198,66,93,16,35,21,17,16,6,6,0.5,0.6
2023-01-22T05:00:00,1226A,120.3461,30.3153,杭州市,下沙,颗粒物(PM10),70,89,106,49,37,93,58,66,63,10,11,6,6,0.5,0.5
2023-01-22T05:00:00,1227A,120.1269,30.2456,杭州市,卧龙桥,细颗粒物(PM2.5),163,224,124,124,52,88,18,26,20,16,14,6,6,0.4,0.3
2023-01-22T05:00:00,1228A,120.1903,30.2692,杭州市,浙江农大,细颗粒物(PM2.5),72,78,110,52,44,86,50,56,53,11,13,4,5,0.5,0.5
2023-01-22T05:00:00,1230A,120.1197,30.3119,杭州市,和睦小学,细颗粒物(PM2.5),105,120,133,79,56,87,44,46,36,14,16,6,6,0.5,0.5
2023-01-22T05:00:00,1231A,120.3019,30.4183,杭州市,临平镇,颗粒物(PM10),58,66,103,32,30,93,59,62,61,6,8,6,7,0.4,0.4
2023-01-22T05:00:00,1232A,120.2697,30.1819,杭州市,城厢镇,颗粒物(PM10),68,85,119,44,46,85,51,59,56,12,15,6,6,0.4,0.4
2023-01-22T05:00:00,1233A,120.0883,30.1808,杭州市,云栖,细颗粒物(PM2.5),85,86,116,63,44,90,11,37,20,12,12,5,6,0.4,0.5
2023-01-22T05:00:00,1234A,121.8358,29.911,宁波市,区环保大楼,,32,31,54,22,22,84,41,64,57,12,12,7,7,0.5,0.5
2023-01-22T05:00:00,1235A,121.56,29.82,宁波市,万里学院,颗粒物(PM10),53,56,78,32,26,88,60,70,66,10,13,5,5,0.4,0.4
2023-01-22T05:00:00,1236A,121.713,29.9572,宁波市,龙赛医院,颗粒物(PM10),53,56,83,27,25,90,58,69,64,4,12,7,9,0.5,0.5
2023-01-22T05:00:00,1239A,121.633,29.7733,宁波市,钱湖水厂,,40,38,56,28,22,84,46,61,54,5,9,2,4,0.5,0.5
2023-01-22T05:00:00,1240A,121.5856,29.8635,宁波市,太古小学,,49,49,82,30,22,78,53,60,58,6,11,8,9,0.4,0.4
2023-01-22T05:00:00,1241A,121.524,29.8674,宁波市,市环境监测中心,颗粒物(PM10),52,53,80,30,28,76,55,58,57,10,15,3,5,0.2,0.2
2023-01-22T05:00:00,1242A,120.634,28.0089,温州市,瓯海,,43,34,65,30,34,81,42,44,43,13,13,6,6,0.3,0.3
2023-01-22T05:00:00,1243A,120.6748,27.9939,温州市,南浦,,40,37,67,28,35,80,45,45,45,11,12,5,6,0.4,0.4
2023-01-22T05:00:00,1244A,120.76,27.9747,温州市,龙湾,,33,33,76,21,32,81,50,47,47,8,15,5,6,0.2,0.3
2023-01-22T05:00:00,1245A,120.6709,28.0167,温州市,市站,颗粒物(PM10),51,52,80,32,38,84,44,43,43,12,14,4,5,0.4,0.4
2023-01-22T05:00:00,1247A,120.6053,29.9928,绍兴市,城东开发委,颗粒物(PM10),56,62,91,35,32,82,55,68,59,11,13,3,4,0.3,0.3
2023-01-22T05:00:00,1250A,120.0751,30.8669,湖州市,城西水厂,颗粒物(PM10),51,52,85,34,30,106,56,65,60,14,17,4,5,0.5,0.5
2023-01-22T05:00:00,1252A,120.7436,30.778,嘉兴市,清河小学,,40,40,76,20,23,99,47,63,56,14,16,7,8,0.5,0.6
2023-01-22T05:00:00,1253A,120.726,30.7478,嘉兴市,嘉兴学院,颗粒物(PM10),52,53,78,25,24,108,60,74,67,10,12,7,8,0.2,0.3
2023-01-22T05:00:00,1255A,121.273,28.6459,台州市,黄岩环保大楼,,32,28,120,22,62,74,61,57,57,1,10,7,10,0.3,0.4
2023-01-22T05:00:00,1256A,121.419,28.6542,台州市,台州环保大楼,细颗粒物(PM2.5),59,52,151,42,85,84,56,58,57,4,11,8,10,0.4,0.5
2023-01-22T05:00:00,1257A,121.377,28.5773,台州市,路桥田洋王,,49,45,154,34,86,78,61,59,59,6,14,6,8,0.3,0.4
2023-01-22T05:00:00,1258A,122.122,30.0203,舟山市,定海檀枫,,37,37,75,18,30,92,42,58,51,10,9,4,5,0.3,0.3
2023-01-22T05:00:00,1259A,122.3094,29.9558,舟山市,普陀东港,,20,20,54,8,18,91,63,71,68,6,9,5,5,0.5,0.5
2023-01-22T05:00:00,1260A,122.19,29.9944,舟山市,临城新区,,33,33,66,22,24,91,45,54,51,11,12,5,6,0.3,0.3
2023-01-22T05:00:00,1262A,119.647,29.077,金华市,十五中,细颗粒物(PM2.5),92,84,91,68,54,88,33,46,41,12,11,4,5,0.4,0.5
2023-01-22T05:00:00,1263A,119.686,29.1029,金华市,监测站,细颗粒物(PM2.5),83,78,99,61,57,92,36,50,41,11,11,4,6,0.6,0.6
2023-01-22T05:00:00,1264A,118.8692,28.9398,衢州市,环保大楼,细颗粒物(PM2.5),72,71,88,52,49,85,40,49,44,8,10,5,6,0.5,0.6
2023-01-22T05:00:00,1265A,118.8709,28.9666,衢州市,实验学校,细颗粒物(PM2.5),64,74,96,46,49,94,38,54,45,4,6,5,6,0.6,0.7
2023-01-22T05:00:00,1266A,118.8621,28.9808,衢州市,衢州学院,细颗粒物(PM2.5),69,76,93,50,48,90,42,55,48,6,7,4,5,0.5,0.5
2023-01-22T05:00:00,1267A,119.914,28.4514,丽水市,监测站大楼,细颗粒物(PM2.5),107,86,72,80,45,74,31,32,32,6,10,8,9,0.3,0.4
2023-01-22T05:00:00,1268A,119.93,28.4586,丽水市,莲都小学,细颗粒物(PM2.5),109,99,77,82,50,86,33,32,32,5,8,7,8,0.4,0.4
2023-01-22T05:00:00,1269A,119.879,28.4231,丽水市,余庄前,细颗粒物(PM2.5),115,104,64,87,40,81,19,23,22,7,6,8,8,0.4,0.4
2023-01-22T05:00:00,1270A,117.1959,31.7848,合肥市,明珠广场,,46,46,122,31,62,108,81,78,78,13,18,4,6,0.5,0.7
2023-01-22T05:00:00,1271A,117.3072,31.8764,合肥市,三里街,,41,41,123,27,70,95,78,72,72,12,22,4,6,0.4,0.6
2023-01-22T05:00:00,1272A,117.2588,31.8707,合肥市,琥珀山庄,,46,46,124,31,62,103,79,78,78,15,18,4,6,0.5,0.7
2023-01-22T05:00:00,1273A,117.1604,31.9052,合肥市,董铺水库,细颗粒物(PM2.5),62,66,113,44,46,94,60,68,64,2,8,2,3,0.3,0.5
2023-01-22T05:00:00,1274A,117.25,31.8571,合肥市,长江中路,,42,41,115,29,58,100,74,76,75,13,15,9,10,0.8,1
2023-01-22T05:00:00,1275A,117.266,31.9436,合肥市,庐阳区,,48,48,116,24,51,96,76,73,73,4,13,6,8,0.4,0.6
2023-01-22T05:00:00,1276A,117.336,31.8586,合肥市,瑶海区,,39,39,117,21,59,96,79,77,77,7,15,5,6,0.4,0.6
2023-01-22T05:00:00,1277A,117.3027,31.7964,合肥市,包河区,,44,44,114,22,57,104,84,81,81,8,16,5,7,0.4,0.6
2023-01-22T05:00:00,1278A,117.2776,31.7385,合肥市,滨湖新区,颗粒物(PM10),52,53,115,34,47,98,83,80,80,12,16,8,12,0.5,0.7
2023-01-22T05:00:00,1279A,117.1318,31.8403,合肥市,高新区,颗粒物(PM10),57,63,111,34,53,102,81,79,78,8,14,6,7,0.7,0.8
2023-01-22T05:00:00,1280A,119.3903,26.0543,福州市,鼓山,,,,,,,,,,,,,,,,
2023-01-22T05:00:00,1282A,119.2681,26.0504,福州市,师大,细颗粒物(PM2.5),83,49,101,61,67,86,55,54,54,6,12,4,6,0.5,0.5
2023-01-22T05:00:00,1283A,119.2984,26.1028,福州市,五四北路,细颗粒物(PM2.5),162,88,104,123,78,90,42,50,44,5,12,4,6,0.5,0.5
2023-01-22T05:00:00,1284A,119.2648,26.0768,福州市,杨桥西路,细颗粒物(PM2.5),72,37,90,52,57,91,57,58,57,4,9,3,5,0.6,0.6
2023-01-22T05:00:00,1285A,119.317,26.0746,福州市,紫阳,细颗粒物(PM2.5),113,63,117,85,80,89,45,43,43,5,13,3,6,0.6,0.6
2023-01-22T05:00:00,1286A,118.1608,24.8169,厦门市,溪东,,,,,,,,,,,,,,,,
2023-01-22T05:00:00,1287A,118.1514,24.4767,厦门市,洪文,细颗粒物(PM2.5),82,66,56,60,40,89,34,30,30,14,15,2,1,0.8,0.6
2023-01-22T05:00:00,1288A,118.0661,24.4444,厦门市,鼓浪屿,细颗粒物(PM2.5),67,54,53,48,38,94,14,14,14,41,31,6,5,1.1,0.8
2023-01-22T05:00:00,1290A,115.8931,28.6843,南昌市,省外办,细颗粒物(PM2.5),145,136,148,111,89,78,65,61,61,11,20,8,10,0.8,0.9
2023-01-22T05:00:00,1291A,115.8886,28.7003,南昌市,省林业公司,细颗粒物(PM2.5),149,124,143,114,94,78,63,59,59,2,13,4,8,1.0,0.9
2023-01-22T05:00:00,1292A,115.8126,28.7442,南昌市,林科所,细颗粒物(PM2.5),132,122,123,100,75,81,63,68,62,8,10,5,8,0.7,0.7
2023-01-22T05:00:00,1294A,115.8518,28.687,南昌市,建工学校,细颗粒物(PM2.5),134,170,147,102,70,78,64,69,65,10,15,8,12,0.9,0.8
2023-01-22T05:00:00,1295A,115.8921,28.6424,南昌市,象湖,细颗粒物(PM2.5),142,146,130,108,88,73,63,60,60,8,17,8,10,0.8,0.8
2023-01-22T05:00:00,1296A,115.7423,28.7996,南昌市,武术学校,细颗粒物(PM2.5),112,112,90,84,58,77,53,47,47,7,9,9,10,0.7,0.7
2023-01-22T05:00:00,1298A,115.9314,28.6842,南昌市,省站,细颗粒物(PM2.5),155,167,164,118,100,75,64,59,59,4,10,8,12,0.7,0.7
2023-01-22T05:00:00,1299A,116.9862,36.6114,济南市,科干所,细颗粒物(PM2.5),138,171,188,105,102,99,58,85,62,13,15,12,19,0.6,0.6
2023-01-22T05:00:00,1300A,116.9376,36.665,济南市,农科所,细颗粒物(PM2.5),277,330,258,227,152,92,33,31,31,30,29,21,25,1.0,0.7
2023-01-22T05:00:00,1301A,117.1265,36.6734,济南市,开发区,细颗粒物(PM2.5),115,134,190,87,114,109,62,91,63,15,19,12,22,0.8,0.8
2023-01-22T05:00:00,1303A,117.0624,36.6868,济南市,省种子仓库,细颗粒物(PM2.5),279,322,262,229,164,103,42,82,52,17,23,32,36,0.7,0.6
2023-01-22T05:00:00,1304A,116.9489,36.6447,济南市,机床二厂,细颗粒物(PM2.5),287,349,264,237,126,94,27,73,50,42,30,36,37,1.1,0.7
2023-01-22T05:00:00,1305A,117.0495,36.663,济南市,市监测站,细颗粒物(PM2.5),257,293,225,207,134,103,46,90,59,28,30,22,24,0.8,0.8
2023-01-22T05:00:00,1306A,116.7675,36.5484,济南市,长清党校,细颗粒物(PM2.5),253,288,188,203,101,96,42,89,59,35,21,24,18,0.8,0.7
2023-01-22T05:00:00,1307A,120.6659,36.2403,青岛市,仰口,细颗粒物(PM2.5),140,161,83,107,41,96,79,94,89,11,9,9,9,1.0,0.8
2023-01-22T05:00:00,1310A,120.4134,36.0658,青岛市,市南区东部子站,颗粒物(PM10),68,85,69,22,20,101,84,97,93,6,3,9,9,0.5,0.4
2023-01-22T05:00:00,1311A,120.3664,36.1032,青岛市,四方区子站,颗粒物(PM10),69,88,90,24,35,86,75,84,81,17,17,7,9,0.6,0.6
2023-01-22T05:00:00,1312A,120.2994,36.054,青岛市,市南区西部子站,颗粒物(PM10),74,97,77,24,23,104,75,101,94,28,12,8,9,0.6,0.5
2023-01-22T05:00:00,1313A,120.4581,36.0858,青岛市,崂山区子站,颗粒物(PM10),71,92,81,31,28,97,75,95,88,16,12,7,9,0.4,0.4
2023-01-22T05:00:00,1314A,120.1983,35.9608,青岛市,黄岛区子站,颗粒物(PM10),71,92,73,27,23,107,97,107,103,2,2,6,7,0.4,0.3
2023-01-22T05:00:00,1315A,120.3999,36.3083,青岛市,城阳区子站,颗粒物(PM10),70,90,77,34,29,88,81,83,82,11,13,6,7,0.6,0.6
2023-01-22T05:00:00,1316A,113.69031,34.76122,郑州市,烟厂,细颗粒物(PM2.5),368,429,240,318,153,48,17,28,16,33,36,22,24,1.1,0.9
2023-01-22T05:00:00,1317A,113.65724,34.77134,郑州市,郑纺机,细颗粒物(PM2.5),342,336,275,292,170,52,20,10,10,37,47,19,30,1.0,0.8
2023-01-22T05:00:00,1318A,113.67526,34.80246,郑州市,银行学校,细颗粒物(PM2.5),355,399,238,305,158,60,22,23,15,34,35,25,26,0.9,0.7
2023-01-22T05:00:00,1319A,113.56746,34.81334,郑州市,供水公司,细颗粒物(PM2.5),276,332,209,226,78,63,20,24,18,27,29,19,19,1.1,1
2023-01-22T05:00:00,1320A,113.7329,34.7178,郑州市,经开区管委,细颗粒物(PM2.5),327,396,243,277,151,51,27,23,18,28,38,21,19,1.2,1
2023-01-22T05:00:00,1321A,113.73961,34.77172,郑州市,四十七中,细颗粒物(PM2.5),364,354,279,314,191,52,23,15,15,23,31,19,22,0.9,0.7
2023-01-22T05:00:00,1322A,113.60532,34.74838,郑州市,市监测站,细颗粒物(PM2.5),334,329,260,284,157,61,22,17,17,27,32,22,26,1.3,1.1
2023-01-22T05:00:00,1323A,113.64164,34.7525,郑州市,河医大,细颗粒物(PM2.5),348,356,265,298,164,55,10,13,10,39,36,22,31,1.0,0.8
2023-01-22T05:00:00,1324A,113.51488,34.91089,郑州市,岗李水库,,,,,,,,,,,,,,,,
2023-01-22T05:00:00,1325A,114.3677,30.5584,武汉市,东湖梨园,细颗粒物(PM2.5),77,71,121,56,77,94,78,80,79,18,24,6,8,0.6,0.9
2023-01-22T05:00:00,1326A,114.2529,30.558,武汉市,汉阳月湖,颗粒物(PM10),65,79,134,46,77,72,54,65,59,20,29,6,7,0.7,0.9
2023-01-22T05:00:00,1327A,114.282,30.6189,武汉市,汉口花桥,细颗粒物(PM2.5),89,79,122,66,75,85,76,77,76,14,25,6,9,0.7,0.9
2023-01-22T05:00:00,1328A,114.3025,30.5332,武汉市,武昌紫阳,细颗粒物(PM2.5),79,72,117,58,80,89,70,76,72,13,23,8,10,0.8,1.1
2023-01-22T05:00:00,1329A,114.3646,30.6217,武汉市,青山钢花,细颗粒物(PM2.5),83,93,137,61,86,93,81,81,81,15,28,8,11,0.7,1
2023-01-22T05:00:00,1330A,114.1566,30.4825,武汉市,沌口新区,细颗粒物(PM2.5),89,73,116,66,81,82,63,64,63,16,23,8,11,0.7,0.8
2023-01-22T05:00:00,1331A,114.3014,30.5944,武汉市,汉口江滩,细颗粒物(PM2.5),80,74,124,59,71,100,74,78,76,13,19,6,8,0.7,0.9
2023-01-22T05:00:00,1333A,114.135,30.6319,武汉市,吴家山,细颗粒物(PM2.5),92,90,125,68,77,80,68,76,74,17,28,8,8,0.7,0.8
2023-01-22T05:00:00,1334A,113.8454,30.2917,武汉市,沉湖七壕,细颗粒物(PM2.5),251,362,141,201,82,80,35,48,38,14,18,13,10,1.0,1
2023-01-22T05:00:00,1335A,113.0833,28.2325,长沙市,经开区环保局,细颗粒物(PM2.5),165,145,186,125,141,62,54,58,53,8,19,4,7,0.4,0.8
2023-01-22T05:00:00,1336A,112.8872,28.2189,长沙市,高开区环保局,细颗粒物(PM2.5),156,127,164,119,129,63,56,60,58,8,17,6,10,0.7,1
2023-01-22T05:00:00,1337A,113.0792,28.2053,长沙市,马坡岭,细颗粒物(PM2.5),144,206,190,110,149,56,55,44,44,10,17,8,14,0.6,0.8
2023-01-22T05:00:00,1338A,112.9394,28.19,长沙市,湖南师范大学,细颗粒物(PM2.5),132,108,170,100,132,56,56,51,51,10,19,4,8,0.8,1
2023-01-22T05:00:00,1339A,113.0178,28.1322,长沙市,雨花区环保局,细颗粒物(PM2.5),147,124,165,112,133,58,57,44,44,7,19,3,8,0.5,0.7
2023-01-22T05:00:00,1340A,112.9792,28.2597,长沙市,伍家岭,细颗粒物(PM2.5),125,174,221,95,145,63,63,50,50,6,18,10,12,0.6,1
2023-01-22T05:00:00,1341A,113.0014,28.1944,长沙市,火车新站,细颗粒物(PM2.5),180,169,181,136,149,56,56,46,46,11,24,6,11,0.7,1
2023-01-22T05:00:00,1342A,112.9844,28.1178,长沙市,天心区环保局,细颗粒物(PM2.5),175,159,175,132,135,57,57,45,45,9,21,7,12,0.5,0.7
2023-01-22T05:00:00,1343A,112.8908,28.1308,长沙市,湖南中医药大学,细颗粒物(PM2.5),210,186,166,160,122,62,45,60,55,14,21,6,8,0.8,0.9
2023-01-22T05:00:00,1344A,112.9581,28.3611,长沙市,沙坪,细颗粒物(PM2.5),130,128,162,99,118,61,55,54,54,12,17,4,7,0.6,0.9
2023-01-22T05:00:00,1345A,113.2347,23.1423,广州市,广雅中学,细颗粒物(PM2.5),79,66,53,58,41,120,45,58,50,20,20,9,6,0.8,0.8
2023-01-22T05:00:00,1346A,113.2612,23.105,广州市,市五中,细颗粒物(PM2.5),78,63,55,57,47,118,47,60,52,16,18,8,7,0.6,0.7
2023-01-22T05:00:00,1348A,113.3478,23.0916,广州市,广东商学院,细颗粒物(PM2.5),60,52,50,43,37,116,47,57,52,16,15,6,7,0.7,0.7
2023-01-22T05:00:00,1349A,113.4332,23.1047,广州市,市八十六中,细颗粒物(PM2.5),94,108,70,70,46,112,40,53,46,13,13,9,6,0.7,0.7
2023-01-22T05:00:00,1350A,113.3505,22.9483,广州市,番禺中学,细颗粒物(PM2.5),75,64,53,55,43,120,46,54,47,19,18,7,5,0.7,0.7
2023-01-22T05:00:00,1351A,113.2146,23.3916,广州市,花都师范,细颗粒物(PM2.5),193,181,70,145,52,127,33,66,49,25,16,13,8,0.6,0.6
2023-01-22T05:00:00,1352A,113.2597,23.1331,广州市,市监测站,细颗粒物(PM2.5),64,60,53,46,36,120,48,61,53,13,13,7,7,0.7,0.8
2023-01-22T05:00:00,1353A,113.5618,23.312,广州市,九龙镇镇龙,细颗粒物(PM2.5),185,160,73,139,57,100,36,41,34,12,11,17,10,0.8,0.7
2023-01-22T05:00:00,1354A,113.2765,23.1544,广州市,麓湖,细颗粒物(PM2.5),60,52,47,43,35,122,35,64,51,15,13,4,5,0.5,0.5
2023-01-22T05:00:00,1355A,113.443,23.3035,广州市,帽峰山森林公园,细颗粒物(PM2.5),75,67,61,55,42,103,41,47,40,13,13,6,6,0.9,1
2023-01-22T05:00:00,1356A,114.1063,22.5545,深圳市,通心岭子站,细颗粒物(PM2.5),60,51,39,43,28,81,43,62,48,8,8,4,2,0.6,0.7
2023-01-22T05:00:00,1357A,114.117,22.5625,深圳市,洪湖,细颗粒物(PM2.5),72,66,50,52,35,95,58,54,49,9,14,8,7,0.5,0.6
2023-01-22T05:00:00,1358A,113.987,22.5417,深圳市,华侨城,细颗粒物(PM2.5),67,57,41,48,30,92,50,56,51,10,11,6,5,0.6,0.7
2023-01-22T05:00:00,1359A,113.9181,22.5171,深圳市,南海子站,细颗粒物(PM2.5),75,64,42,55,29,92,44,61,53,13,13,6,4,0.7,0.7
2023-01-22T05:00:00,1360A,114.2458,22.5689,深圳市,盐田,,40,28,36,28,26,86,31,52,44,21,17,6,6,0.6,0.6
2023-01-22T05:00:00,1361A,114.2283,22.7244,深圳市,龙岗,细颗粒物(PM2.5),84,72,48,62,36,91,50,66,55,5,4,8,5,0.7,0.6
2023-01-22T05:00:00,1363A,114.494,22.5422,深圳市,南澳,,29,26,35,20,22,92,79,67,67,6,8,5,4,0.7,0.7
2023-01-22T05:00:00,1364A,114.41,22.6342,深圳市,葵涌,细颗粒物(PM2.5),62,54,43,44,31,84,54,66,59,8,7,8,7,0.7,0.7
2023-01-22T05:00:00,1365A,114.297,22.5978,深圳市,梅沙,,50,46,37,35,23,96,61,59,58,5,6,4,4,0.5,0.5
2023-01-22T05:00:00,1366A,114.0678,22.738,深圳市,观澜,细颗粒物(PM2.5),78,73,59,57,40,94,55,56,55,8,11,8,8,0.7,0.7
2023-01-22T05:00:00,1367A,113.5814,22.2618,珠海市,吉大,细颗粒物(PM2.5),55,44,46,39,29,115,68,77,67,7,13,8,8,0.4,0.4
2023-01-22T05:00:00,1368A,113.4881,22.2335,珠海市,前山,,41,41,46,23,28,106,56,75,62,12,16,3,3,0.4,0.4
2023-01-22T05:00:00,1369A,113.628,22.4251,珠海市,唐家,细颗粒物(PM2.5),60,48,46,43,32,96,51,50,50,12,18,9,8,0.4,0.4
2023-01-22T05:00:00,1370A,113.299,22.2281,珠海市,斗门,细颗粒物(PM2.5),64,62,59,46,44,110,61,75,69,9,13,4,5,0.3,0.4
2023-01-22T05:00:00,1371A,113.1294,23.0067,佛山市,湾梁,细颗粒物(PM2.5),72,63,59,52,42,126,57,71,64,13,14,12,10,0.6,0.7
2023-01-22T05:00:00,1372A,113.1083,23.0478,佛山市,华材职中,细颗粒物(PM2.5),65,51,52,47,41,125,46,68,59,12,15,9,8,0.4,0.5
2023-01-22T05:00:00,1373A,113.144,23.0453,佛山市,南海气象局,细颗粒物(PM2.5),82,68,61,60,47,106,35,46,42,16,17,7,6,0.3,0.4
2023-01-22T05:00:00,1374A,113.2881,22.8094,佛山市,顺德苏岗,细颗粒物(PM2.5),73,54,45,53,36,114,35,56,46,14,15,8,7,0.7,0.7
2023-01-22T05:00:00,1376A,112.8383,22.8678,佛山市,高明孔堂,,33,28,50,23,36,129,44,75,61,2,5,2,4,0.3,0.4
2023-01-22T05:00:00,1377A,112.8836,23.1588,佛山市,三水监测站,细颗粒物(PM2.5),72,56,55,52,42,130,52,70,62,17,15,5,6,0.5,0.5
2023-01-22T05:00:00,1378A,112.867,23.185,佛山市,三水云东海,细颗粒物(PM2.5),58,41,48,41,39,131,40,74,62,14,14,5,5,0.5,0.6
2023-01-22T05:00:00,1379A,113.3769,22.5211,中山市,华柏园,细颗粒物(PM2.5),85,58,58,63,44,98,47,58,54,16,21,7,6,0.3,0.4
2023-01-22T05:00:00,1380A,113.3881,22.5497,中山市,张溪,细颗粒物(PM2.5),88,75,54,65,44,104,47,67,55,13,16,6,4,0.5,0.5
2023-01-22T05:00:00,1381A,113.4075,22.5111,中山市,紫马岭,细颗粒物(PM2.5),139,104,69,106,50,104,21,37,25,11,14,8,6,0.5,0.6
2023-01-22T05:00:00,1382A,113.4411,22.4853,中山市,长江旅游区,,,,,,,,,,,,,,,,
2023-01-22T05:00:00,1383A,113.1064,22.6058,江门市,北街,,49,43,47,34,35,123,69,71,70,11,14,7,7,0.5,0.7
2023-01-22T05:00:00,1384A,113.0731,22.5835,江门市,西区,,49,42,55,34,39,119,69,76,75,14,17,8,8,0.4,0.5
2023-01-22T05:00:00,1385A,113.0219,22.5311,江门市,圭峰西,,45,42,44,31,36,113,74,80,79,11,15,4,5,0.6,0.7
2023-01-22T05:00:00,1386A,113.0828,22.5947,江门市,东湖,,48,44,51,33,39,123,61,76,69,12,15,6,6,0.5,0.6
2023-01-22T05:00:00,1389A,113.7547,23.0494,东莞市,莞城梨川,细颗粒物(PM2.5),103,92,51,77,39,101,46,69,54,10,11,12,10,0.7,0.7
2023-01-22T05:00:00,1390A,113.7944,23.0128,东莞市,东城石井,细颗粒物(PM2.5),117,112,51,88,38,103,44,67,53,8,6,19,12,0.8,0.7
2023-01-22T05:00:00,1391A,113.7383,22.9658,东莞市,南城西平,细颗粒物(PM2.5),113,102,64,85,47,104,43,55,51,10,13,15,10,0.7,0.7
2023-01-22T05:00:00,1392A,114.4183,23.0528,惠州市,河南岸金山湖子站,细颗粒物(PM2.5),100,94,58,75,46,76,35,50,42,5,7,5,5,0.6,0.6
2023-01-22T05:00:00,1393A,114.4053,23.0822,惠州市,下埔横江三路子站,细颗粒物(PM2.5),80,99,57,59,44,82,38,57,44,10,12,5,4,0.7,0.7
2023-01-22T05:00:00,1394A,114.4103,23.1142,惠州市,江北云山西路子站,细颗粒物(PM2.5),107,92,57,80,52,86,37,54,44,4,5,5,5,0.7,0.7
2023-01-22T05:00:00,1395A,114.4645,22.7833,惠州市,惠阳区承修路船湖子站,细颗粒物(PM2.5),108,87,51,81,46,86,43,57,49,6,10,10,5,0.6,0.7
2023-01-22T05:00:00,1396A,114.5317,22.7422,惠州市,大亚湾管委会子站,细颗粒物(PM2.5),69,86,40,50,31,86,48,61,53,8,10,5,4,0.6,0.6
2023-01-22T05:00:00,1397A,112.4267,23.0706,肇庆市,睦岗子站,细颗粒物(PM2.5),69,67,56,50,40,122,71,76,75,14,17,12,10,0.3,0.4
2023-01-22T05:00:00,1398A,112.4645,23.0475,肇庆市,城中子站,细颗粒物(PM2.5),69,66,59,50,42,125,71,80,75,8,11,14,10,0.7,0.8
2023-01-22T05:00:00,1399A,112.5544,23.1522,肇庆市,坑口子站,细颗粒物(PM2.5),60,55,58,43,46,119,50,48,48,10,14,10,12,0.4,0.5
2023-01-22T05:00:00,1400A,112.4753,23.1,肇庆市,七星岩子站,颗粒物(PM10),51,51,50,33,33,129,78,81,78,4,6,6,5,0.7,0.7
2023-01-22T05:00:00,1401A,108.3103,22.7881,南宁市,二十一中,细颗粒物(PM2.5),159,181,94,121,70,112,75,92,82,14,16,12,12,0.8,0.9
2023-01-22T05:00:00,1402A,108.3141,22.8528,南宁市,北湖,细颗粒物(PM2.5),245,265,104,195,80,118,40,81,53,17,16,11,11,1.1,1.1
2023-01-22T05:00:00,1403A,108.3206,22.8225,南宁市,市监测站,细颗粒物(PM2.5),134,194,88,102,60,115,76,88,79,13,20,11,11,1.0,1.1
2023-01-22T05:00:00,1404A,108.3829,22.8037,南宁市,大自然花园,细颗粒物(PM2.5),128,141,92,97,70,110,74,82,78,9,15,7,9,0.8,0.9
2023-01-22T05:00:00,1405A,108.4394,22.7904,南宁市,仙葫,细颗粒物(PM2.5),163,146,109,124,79,115,78,76,76,10,13,10,11,0.8,0.9
2023-01-22T05:00:00,1406A,108.2397,22.8467,南宁市,区农职院,细颗粒物(PM2.5),144,185,94,110,63,116,66,85,76,11,14,12,10,0.6,0.8
2023-01-22T05:00:00,1407A,108.3275,22.735,南宁市,英华嘉园,细颗粒物(PM2.5),200,199,111,150,94,101,61,80,59,14,19,11,11,0.7,0.9
2023-01-22T05:00:00,1408A,108.2257,22.7757,南宁市,沙井镇街道办,细颗粒物(PM2.5),114,113,83,86,61,107,60,72,69,19,18,9,10,0.9,1
2023-01-22T05:00:00,1409A,110.576,19.9507,海口市,东寨港,,,77,49,58,31,33,5,8,7,,,6,6,0.6,0.6
2023-01-22T05:00:00,1410A,110.3232,20.0574,海口市,海南大学,细颗粒物(PM2.5),65,71,55,47,33,100,67,78,75,7,7,6,5,0.5,0.5
2023-01-22T05:00:00,1411A,110.283,20.0053,海口市,秀英海南医院,颗粒物(PM10),57,64,55,31,25,98,64,80,74,7,8,7,6,0.7,0.7
2023-01-22T05:00:00,1412A,110.338,19.9969,海口市,海南师范大学,颗粒物(PM10),57,64,56,37,27,98,45,68,61,8,6,3,3,0.6,0.6
2023-01-22T05:00:00,1413A,110.33,20.0356,海口市,龙华路环保局宿舍,颗粒物(PM10),55,60,55,35,28,102,66,78,75,4,5,6,6,0.5,0.5
2023-01-22T05:00:00,1414A,106.3787,29.8279,重庆市,缙云山,细颗粒物(PM2.5),90,106,82,67,54,74,38,43,42,16,18,4,5,0.7,0.6
2023-01-22T05:00:00,1416A,106.4213,29.8253,重庆市,天生,细颗粒物(PM2.5),271,295,146,221,118,53,3,4,3,21,27,12,9,1.0,0.8
2023-01-22T05:00:00,1417A,106.6263,29.7228,重庆市,两路,细颗粒物(PM2.5),186,189,102,140,75,34,13,16,13,27,26,11,8,1.0,1
2023-01-22T05:00:00,1418A,106.2953,29.5983,重庆市,虎溪,细颗粒物(PM2.5),199,161,98,149,83,38,5,16,10,23,23,5,6,1.0,0.9
2023-01-22T05:00:00,1419A,106.5777,29.5102,重庆市,南坪,细颗粒物(PM2.5),152,158,104,116,77,35,11,19,17,21,19,10,10,0.9,1
2023-01-22T05:00:00,1420A,106.6556,29.6277,重庆市,唐家沱,细颗粒物(PM2.5),104,102,101,78,80,48,10,16,12,15,23,3,5,0.5,0.6
2023-01-22T05:00:00,1421A,106.6349,29.4906,重庆市,茶园,细颗粒物(PM2.5),180,167,124,136,100,23,8,8,8,25,29,5,6,1.1,1.1
2023-01-22T05:00:00,1422A,106.3754,29.4572,重庆市,白市驿,细颗粒物(PM2.5),188,174,99,141,73,38,17,36,26,20,25,11,8,0.9,0.9
2023-01-22T05:00:00,1425A,106.6205,29.7166,重庆市,空港,细颗粒物(PM2.5),193,180,99,145,78,36,9,10,9,22,21,12,10,0.6,0.5
2023-01-22T05:00:00,1426A,106.4782,29.4875,重庆市,新山村,细颗粒物(PM2.5),103,122,104,77,74,34,9,7,7,37,43,7,9,0.7,0.9
2023-01-22T05:00:00,1427A,106.5616,29.6453,重庆市,礼嘉,细颗粒物(PM2.5),102,150,96,76,60,45,7,21,11,47,40,5,6,0.7,0.7
2023-01-22T05:00:00,1428A,106.4522,29.7091,重庆市,蔡家,细颗粒物(PM2.5),144,132,96,110,71,49,8,11,10,18,20,5,5,0.9,0.8
2023-01-22T05:00:00,1429A,106.5093,29.3917,重庆市,鱼新街,细颗粒物(PM2.5),176,163,111,133,88,40,11,14,12,27,30,13,11,1.1,1.2
2023-01-22T05:00:00,1431A,103.9728,30.7236,成都市,金泉两河,细颗粒物(PM2.5),390,324,137,340,129,56,0,0,0,18,19,1,2,1.2,0.7
2023-01-22T05:00:00,1432A,104.176,30.6872,成都市,十里店,细颗粒物(PM2.5),258,222,111,208,95,52,0,10,5,31,19,1,3,0.8,0.7
2023-01-22T05:00:00,1433A,104.079,30.5706,成都市,三瓦窑,细颗粒物(PM2.5),246,211,102,196,87,58,1,2,2,28,22,4,2,1.0,0.8
2023-01-22T05:00:00,1434A,104.1114,30.63,成都市,沙河铺,细颗粒物(PM2.5),223,194,111,173,92,60,3,6,4,25,17,2,2,0.9,0.7
2023-01-22T05:00:00,1437A,104.0786,30.6531,成都市,君平街,细颗粒物(PM2.5),214,173,98,164,93,56,22,20,15,24,25,2,2,1.0,0.8
2023-01-22T05:00:00,1438A,103.613,31.0283,成都市,灵岩寺,细颗粒物(PM2.5),54,37,73,38,59,58,53,51,51,7,10,18,5,0.6,0.6
2023-01-22T05:00:00,1439A,106.6899,26.5998,贵阳市,马鞍山,细颗粒物(PM2.5),62,48,50,44,43,59,22,34,27,8,12,5,5,0.4,0.4
2023-01-22T05:00:00,1440A,106.6971,26.5694,贵阳市,市环保站,,48,24,57,33,49,59,30,35,32,11,18,5,5,0.5,0.5
2023-01-22T05:00:00,1441A,106.6243,26.6266,贵阳市,鉴湖路,,19,19,52,12,39,56,28,30,28,10,12,4,5,0.6,0.5
2023-01-22T05:00:00,1442A,106.7487,26.6343,贵阳市,燕子冲,细颗粒物(PM2.5),79,61,69,58,61,53,18,26,21,8,12,4,6,0.5,0.6
2023-01-22T05:00:00,1443A,106.6555,26.4365,贵阳市,碧云窝,,42,39,72,29,50,63,28,34,32,9,12,11,12,0.7,0.7
2023-01-22T05:00:00,1444A,106.694,26.5161,贵阳市,中院村,,45,36,88,31,69,60,28,32,31,10,16,12,23,0.6,0.6
2023-01-22T05:00:00,1445A,106.7109,26.6027,贵阳市,红边门,,42,24,68,29,61,61,29,35,32,7,15,9,13,0.6,0.7
2023-01-22T05:00:00,1446A,106.7164,26.5699,贵阳市,新华路,,39,36,76,27,57,58,28,34,31,5,12,8,9,0.6,0.6
2023-01-22T05:00:00,1447A,106.674,26.5424,贵阳市,太慈桥,,49,44,73,34,49,63,28,34,32,10,14,3,4,0.5,0.5
2023-01-22T05:00:00,1450A,102.8204,24.8886,昆明市,呈贡新区,,36,11,33,25,23,90,83,80,80,2,4,5,9,0.4,0.4
2023-01-22T05:00:00,1451A,102.6251,24.9608,昆明市,西山森林公园,,28,22,21,11,16,99,89,93,92,5,3,9,8,0.5,0.5
2023-01-22T05:00:00,1452A,102.7252,25.0902,昆明市,龙泉镇,细颗粒物(PM2.5),120,97,70,91,31,94,39,27,27,13,18,10,14,0.6,0.6
2023-01-22T05:00:00,1453A,102.7266,25.0375,昆明市,东风东路,,44,44,38,27,29,91,74,71,71,9,11,12,14,0.4,0.4
2023-01-22T05:00:00,1454A,102.6742,25.0669,昆明市,金鼎山,细颗粒物(PM2.5),108,59,44,81,35,98,60,40,40,5,13,9,30,0.3,0.4
2023-01-22T05:00:00,1455A,102.6644,25.0401,昆明市,碧鸡广场,细颗粒物(PM2.5),82,81,86,60,64,96,46,42,42,12,16,7,18,0.5,0.5
2023-01-22T05:00:00,1456A,91.1319,29.6514,拉萨市,八廓街,,26,15,37,4,15,111,82,76,76,14,15,6,7,0.6,0.7
2023-01-22T05:00:00,1457A,91.1221,29.6747,拉萨市,市环保局,,25,10,29,0,11,112,77,73,73,19,16,4,9,0.6,0.6
2023-01-22T05:00:00,1458A,91.0874,29.6475,拉萨市,区监测站,,33,15,23,4,8,119,104,102,102,6,6,4,7,0.1,0
2023-01-22T05:00:00,1459A,91.1774,29.6541,拉萨市,西藏大学,,29,10,24,1,10,110,92,93,93,13,12,7,8,0.5,0.3
2023-01-22T05:00:00,1460A,90.9798,29.6588,拉萨市,区辐射站,,26,8,22,6,13,128,83,84,84,7,12,5,7,0.6,0.6
2023-01-22T05:00:00,1461A,91.0834,29.6292,拉萨市,拉萨火车站,,34,9,20,6,8,115,108,109,109,6,8,9,9,0.2,0.2
2023-01-22T05:00:00,1462A,108.882,34.2749,西安市,高压开关厂,细颗粒物(PM2.5),367,461,331,317,191,93,37,38,33,39,35,34,22,1.6,1.3
2023-01-22T05:00:00,1463A,108.993,34.2629,西安市,兴庆小区,细颗粒物(PM2.5),310,347,306,260,202,78,34,29,29,34,47,35,23,1.1,1.3
2023-01-22T05:00:00,1464A,109.06,34.2572,西安市,纺织城,细颗粒物(PM2.5),396,472,317,346,205,64,17,17,17,32,45,33,25,1.4,1.4
2023-01-22T05:00:00,1465A,108.9356,34.2173,西安市,小寨,细颗粒物(PM2.5),346,405,336,296,203,86,25,23,19,48,38,27,24,1.4,1.4
2023-01-22T05:00:00,1466A,108.954,34.2713,西安市,市人民体育场,细颗粒物(PM2.5),309,350,340,259,196,81,31,20,20,43,48,22,19,1.2,1.2
2023-01-22T05:00:00,1467A,108.8922,34.2322,西安市,高新西区,细颗粒物(PM2.5),424,459,321,386,203,92,28,29,28,49,39,28,23,1.7,1.5
2023-01-22T05:00:00,1468A,108.935,34.3474,西安市,经开区,颗粒物(PM10),446,546,364,403,228,83,25,11,11,41,44,30,23,1.3,1.2
2023-01-22T05:00:00,1469A,108.906,34.1546,西安市,长安区,细颗粒物(PM2.5),410,444,356,364,217,89,25,26,24,30,32,45,24,1.6,1.5
2023-01-22T05:00:00,1471A,109.2186,34.3731,西安市,临潼区,细颗粒物(PM2.5),462,416,403,442,256,57,7,9,8,64,52,39,37,1.9,1.7
2023-01-22T05:00:00,1472A,108.869,34.378,西安市,草滩,颗粒物(PM10),338,450,284,229,121,71,19,20,16,38,31,15,15,0.8,0.4
2023-01-22T05:00:00,1473A,108.985,34.1978,西安市,曲江文化产业集团,细颗粒物(PM2.5),296,290,383,246,232,82,38,27,27,27,36,18,25,1.1,1.2
2023-01-22T05:00:00,1474A,109.051,34.3213,西安市,广运潭,细颗粒物(PM2.5),339,392,299,289,186,61,21,20,20,34,39,28,19,1.4,1.4
2023-01-22T05:00:00,1476A,103.631,36.1031,兰州市,兰炼宾馆,细颗粒物(PM2.5),94,113,188,70,137,81,38,17,17,23,47,56,66,1.0,1.3
2023-01-22T05:00:00,1477A,104.1373,35.9454,兰州市,榆中兰大校区,,,,,,,,,,,,,,,,
2023-01-22T05:00:00,1478A,103.8412,36.0726,兰州市,生物制品所,细颗粒物(PM2.5),73,94,139,53,83,64,20,17,17,44,62,12,29,1.2,1.4
2023-01-22T05:00:00,1479A,103.831,36.0464,兰州市,铁路设计院,细颗粒物(PM2.5),123,134,198,93,144,60,9,12,10,64,68,24,49,1.9,2.4
2023-01-22T05:00:00,1483A,101.524,36.6867,西宁市,第五水厂,,,,,,,,,,,,,,,,
2023-01-22T05:00:00,1484A,105.9512,38.6016,银川市,贺兰山马莲口,颗粒物(PM10),53,55,59,24,19,89,65,76,69,14,12,22,20,0.7,0.7
2023-01-22T05:00:00,1488A,106.2328,38.4975,银川市,贺兰山东路,细颗粒物(PM2.5),105,137,183,79,100,84,42,37,36,28,37,12,29,1.0,1.2
2023-01-22T05:00:00,1489A,106.1358,38.5036,银川市,学院路,颗粒物(PM10),84,118,163,51,80,81,35,33,33,34,37,18,36,1.0,1.1
2023-01-22T05:00:00,1490A,87.5801,43.8303,乌鲁木齐市,监测站,细颗粒物(PM2.5),67,69,73,48,52,77,65,57,57,27,56,8,10,0.3,0.5
2023-01-22T05:00:00,1491A,87.6046,43.768,乌鲁木齐市,收费所,细颗粒物(PM2.5),72,77,85,52,57,63,60,51,51,20,47,4,7,0.4,0.8
2023-01-22T05:00:00,1492A,87.4754,43.9469,乌鲁木齐市,新疆农科院农场,细颗粒物(PM2.5),129,20,100,98,171,80,52,44,44,30,58,9,9,1.0,1.5
2023-01-22T05:00:00,1493A,87.5525,43.8711,乌鲁木齐市,铁路局,细颗粒物(PM2.5),85,64,101,63,97,84,75,63,63,10,48,5,7,0.4,0.8
2023-01-22T05:00:00,1494A,87.6432,43.831,乌鲁木齐市,三十一中学,细颗粒物(PM2.5),58,62,67,41,53,75,65,62,62,15,35,6,8,0.5,0.7
2023-01-22T05:00:00,1496A,87.7216,44.1747,乌鲁木齐市,米东区环保局,细颗粒物(PM2.5),102,97,237,76,208,86,65,65,65,34,51,13,12,0.8,1.5
2023-01-22T05:00:00,1508A,112.9433,27.8614,湘潭市,板塘,细颗粒物(PM2.5),189,161,164,142,122,59,54,56,56,7,19,4,6,0.7,0.8
2023-01-22T05:00:00,1511A,112.9118,27.8403,湘潭市,市监测站,细颗粒物(PM2.5),262,221,174,212,129,57,45,55,52,11,20,8,9,0.8,0.9
2023-01-22T05:00:00,1512A,112.8937,27.8728,湘潭市,江麓,细颗粒物(PM2.5),284,266,183,234,128,57,38,55,49,19,26,7,7,0.9,0.9
2023-01-22T05:00:00,1513A,112.9227,27.8159,湘潭市,岳塘,细颗粒物(PM2.5),250,227,164,200,117,55,47,53,51,16,23,8,9,0.5,0.6
2023-01-22T05:00:00,1514A,112.9074,27.9119,湘潭市,科大,细颗粒物(PM2.5),243,244,175,193,126,57,43,56,52,14,19,8,9,1.1,1.2
2023-01-22T05:00:00,1515A,113.135,27.8244,株洲市,天台山庄,细颗粒物(PM2.5),258,218,167,208,138,64,41,39,39,15,24,7,13,0.7,0.7
2023-01-22T05:00:00,1518A,113.095,27.8867,株洲市,株冶医院,细颗粒物(PM2.5),241,192,174,191,129,64,36,34,33,12,19,4,9,0.7,0.7
2023-01-22T05:00:00,1519A,113.167,27.8667,株洲市,市四中,细颗粒物(PM2.5),199,166,150,149,109,65,53,49,49,9,16,8,12,0.5,0.6
2023-01-22T05:00:00,1520A,113.143,27.8381,株洲市,火车站,细颗粒物(PM2.5),240,210,182,190,129,66,44,44,44,14,21,9,14,0.7,0.9
2023-01-22T05:00:00,1524A,113.13,27.8528,株洲市,市监测站,细颗粒物(PM2.5),268,207,191,218,148,63,39,36,36,21,25,11,16,0.8,0.8
2023-01-22T05:00:00,1552A,106.805,26.3003,贵阳市,桐木岭,,,,,,,,,,,,,,,,
2023-01-22T05:00:00,1559A,113.251,27.8336,株洲市,大京风景区,"颗粒物(PM10),细颗粒物(PM2.5)",117,183,143,88,92,72,59,51,51,5,9,3,8,0.5,0.7
2023-01-22T05:00:00,1562A,113.0048,27.9153,湘潭市,昭山,细颗粒物(PM2.5),175,170,189,132,129,57,57,51,51,8,17,3,5,0.8,1
2023-01-22T05:00:00,1564A,112.4876,27.9164,湘潭市,韶山,细颗粒物(PM2.5),129,129,184,98,98,59,50,46,46,16,21,5,9,1.0,1.2
2023-01-22T05:00:00,1585A,109.8756,40.6532,包头市,市环境监测站,颗粒物(PM10),88,126,138,56,66,79,45,54,52,21,31,16,25,0.9,1.1
2023-01-22T05:00:00,1587A,109.9991,40.5842,包头市,包头八中,细颗粒物(PM2.5),253,241,208,203,94,78,17,29,26,57,39,20,28,1.7,0.9
2023-01-22T05:00:00,1588A,109.8538,40.6821,包头市,青山宾馆,细颗粒物(PM2.5),153,157,141,117,68,81,37,56,51,26,30,8,16,0.9,1.1
2023-01-22T05:00:00,1589A,109.8642,40.6288,包头市,惠龙物流,细颗粒物(PM2.5),124,179,167,94,90,84,44,55,53,29,36,14,24,1.1,1.2
2023-01-22T05:00:00,1590A,110.0377,40.5546,包头市,东河鸿龙湾,细颗粒物(PM2.5),346,445,187,296,95,83,16,21,18,60,30,24,19,2.3,1
2023-01-22T05:00:00,1591A,110.0023,39.8129,鄂尔多斯市,综合楼,颗粒物(PM10),73,95,149,29,55,86,80,68,68,5,13,6,15,0.4,0.6
2023-01-22T05:00:00,1592A,109.9486,39.8261,鄂尔多斯市,巴音孟克林场办事处,颗粒物(PM10),75,100,155,31,73,87,76,69,69,6,11,9,16,0.8,0.7
2023-01-22T05:00:00,1593A,109.7736,39.5986,鄂尔多斯市,康泽苑,颗粒物(PM10),76,102,130,31,65,83,70,63,63,8,15,5,10,0.6,0.7
2023-01-22T05:00:00,1594A,109.8119,39.5989,鄂尔多斯市,华泰汽车城,颗粒物(PM10),71,92,135,39,77,87,72,68,68,7,11,7,13,0.5,0.5
2023-01-22T05:00:00,1595A,109.9734,39.7884,鄂尔多斯市,奥林花园,颗粒物(PM10),74,97,122,29,40,84,75,67,67,6,10,8,11,0.5,0.5
2023-01-22T05:00:00,1596A,122.2414,40.6592,营口市,学府南路,,,,,,,,,,,,,,,,
2023-01-22T05:00:00,1597A,122.2703,40.7094,营口市,大庆路,细颗粒物(PM2.5),285,236,135,235,138,73,16,14,14,19,22,14,22,1.3,1
2023-01-22T05:00:00,1598A,122.2150,40.6511,营口市,镜湖西路,细颗粒物(PM2.5),315,343,161,265,137,75,16,21,18,38,26,15,19,1.5,0.9
2023-01-22T05:00:00,1599A,122.1658,40.6789,营口市,西炮台,细颗粒物(PM2.5),260,246,134,210,115,70,20,16,16,20,22,5,14,1.2,0.8
2023-01-22T05:00:00,1600A,124.3303,40.0625,丹东市,江湾东路,细颗粒物(PM2.5),139,127,111,106,82,66,43,38,38,12,13,13,23,0.6,0.8
2023-01-22T05:00:00,1601A,124.4256,40.1503,丹东市,临江后街,细颗粒物(PM2.5),98,96,130,73,94,67,47,37,37,8,16,13,24,0.6,0.7
2023-01-22T05:00:00,1602A,124.3933,40.1461,丹东市,元宝山,细颗粒物(PM2.5),122,119,149,92,103,62,38,28,28,12,18,16,26,0.8,1.1
2023-01-22T05:00:00,1603A,124.3633,40.1092,丹东市,民主桥,细颗粒物(PM2.5),139,133,191,106,139,62,34,30,30,18,19,16,32,0.6,0.6
2023-01-22T05:00:00,1604A,122.0303,41.1489,盘锦市,开发区,细颗粒物(PM2.5),114,112,81,86,45,73,33,38,36,7,12,10,12,0.9,0.8
2023-01-22T05:00:00,1605A,122.0485,41.0883,盘锦市,兴隆台,细颗粒物(PM2.5),122,125,117,92,50,71,32,35,33,16,20,20,23,0.8,0.7
2023-01-22T05:00:00,1606A,121.8297,41.1028,盘锦市,新生街道,细颗粒物(PM2.5),112,114,64,84,34,76,31,36,34,16,14,12,10,0.9,0.8
2023-01-22T05:00:00,1607A,120.9092,40.7136,葫芦岛市,龙港区,细颗粒物(PM2.5),99,124,96,74,59,76,36,41,40,21,17,107,43,1.5,0.9
2023-01-22T05:00:00,1608A,120.8392,40.7514,葫芦岛市,化工街,细颗粒物(PM2.5),83,114,121,61,62,69,35,40,39,6,19,34,25,1.3,1.4
2023-01-22T05:00:00,1609A,120.8341,40.7073,葫芦岛市,新区,细颗粒物(PM2.5),120,101,144,91,89,72,38,41,40,15,25,28,22,0.8,0.8
2023-01-22T05:00:00,1610A,120.8695,40.7677,葫芦岛市,东城区,细颗粒物(PM2.5),129,126,146,98,70,68,36,41,39,14,27,23,31,1.3,1.4
2023-01-22T05:00:00,1611A,118.5819,24.9117,泉州市,涂山街,细颗粒物(PM2.5),402,418,185,352,141,89,21,22,16,17,14,18,18,0.7,0.5
2023-01-22T05:00:00,1612A,118.5972,24.8978,泉州市,津头埔,细颗粒物(PM2.5),462,442,205,443,183,89,19,16,14,20,20,18,19,0.8,0.7
2023-01-22T05:00:00,1613A,118.6663,24.9424,泉州市,万安,细颗粒物(PM2.5),210,166,118,160,100,95,39,41,38,8,11,10,12,0.5,0.5
2023-01-22T05:00:00,1614A,118.6117,24.9604,泉州市,清源山,,,,,,,,,,,,,,,,
2023-01-22T05:00:00,1616A,117.6795,36.229,济南市,技术学院,细颗粒物(PM2.5),130,158,155,99,75,99,55,54,52,31,29,12,17,0.9,0.9
2023-01-22T05:00:00,1618A,118.3429,35.0532,临沂市,沂河小区,细颗粒物(PM2.5),133,149,141,101,79,92,56,54,54,8,10,13,16,0.7,0.7
2023-01-22T05:00:00,1619A,118.295,35.0583,临沂市,鲁南制药厂,细颗粒物(PM2.5),112,134,142,84,76,95,62,58,58,15,20,24,25,0.3,0.4
2023-01-22T05:00:00,1620A,118.2794,34.9976,临沂市,新光毛纺厂,细颗粒物(PM2.5),102,139,142,76,73,92,56,52,52,6,11,14,19,0.6,0.6
2023-01-22T05:00:00,1621A,118.3956,35.0888,临沂市,河东保险公司,细颗粒物(PM2.5),180,175,134,136,80,98,42,42,41,18,17,16,16,1.0,0.8
2023-01-22T05:00:00,1622A,116.3032,37.4674,德州市,儿童乐园,细颗粒物(PM2.5),343,361,222,293,139,81,29,32,29,34,23,21,19,1.4,0.9
2023-01-22T05:00:00,1624A,116.2991,37.4451,德州市,监理站,细颗粒物(PM2.5),321,362,220,271,130,81,28,36,30,42,25,28,21,1.6,1.1
2023-01-22T05:00:00,1625A,115.9848,36.4372,聊城市,区政府,细颗粒物(PM2.5),293,366,245,243,137,78,23,36,31,30,21,25,19,1.5,1
2023-01-22T05:00:00,1628A,118.0062,37.3803,滨州市,市环保局,细颗粒物(PM2.5),350,415,363,300,170,88,8,6,6,55,41,31,40,1.2,1
2023-01-22T05:00:00,1629A,118.0018,37.3617,滨州市,第二水厂,细颗粒物(PM2.5),393,461,293,343,197,90,8,14,10,58,38,37,37,1.5,1.1
2023-01-22T05:00:00,1630A,117.9776,37.393,滨州市,北中新校,细颗粒物(PM2.5),408,473,361,361,237,92,5,8,6,52,43,23,38,1.3,1
2023-01-22T05:00:00,1631A,118.0414,36.8103,淄博市,人民公园,细颗粒物(PM2.5),196,127,257,147,139,105,56,80,73,24,32,8,34,0.6,0.7
2023-01-22T05:00:00,1633A,117.8525,36.4847,淄博市,双山,细颗粒物(PM2.5),112,149,178,84,133,97,48,60,57,14,20,18,39,1.2,1.2
2023-01-22T05:00:00,1634A,117.9592,36.6331,淄博市,气象站,细颗粒物(PM2.5),110,145,259,83,106,100,58,68,65,8,17,20,44,1.0,1
2023-01-22T05:00:00,1635A,118.3092,36.8194,淄博市,莆田园,细颗粒物(PM2.5),79,102,217,58,81,105,71,92,79,2,20,8,33,0.8,1
2023-01-22T05:00:00,1637A,117.558,34.8438,枣庄市,市中区政府,细颗粒物(PM2.5),156,195,196,119,107,106,51,58,56,20,25,13,26,1.2,1.3
2023-01-22T05:00:00,1638A,117.2852,34.7837,枣庄市,薛城环保局,细颗粒物(PM2.5),168,205,154,127,82,102,61,62,61,21,22,15,16,1.0,1
2023-01-22T05:00:00,1639A,117.5852,34.7745,枣庄市,峄城区政府,细颗粒物(PM2.5),144,193,162,110,79,105,60,73,64,17,18,21,19,0.7,0.7
2023-01-22T05:00:00,1640A,117.7276,34.5578,枣庄市,台儿庄区环保局,细颗粒物(PM2.5),144,178,174,110,94,97,44,60,52,18,26,10,13,0.8,0.8
2023-01-22T05:00:00,1641A,117.4518,35.0992,枣庄市,山亭区环保局,细颗粒物(PM2.5),125,168,141,95,70,101,67,82,72,16,17,16,20,1.0,0.9
2023-01-22T05:00:00,1642A,121.2514,37.5639,烟台市,开发区,细颗粒物(PM2.5),70,83,72,51,42,72,64,66,64,8,12,10,12,0.6,0.6
2023-01-22T05:00:00,1643A,121.3719,37.5433,烟台市,轴承厂,细颗粒物(PM2.5),97,97,67,72,38,86,74,74,74,4,5,5,5,0.5,0.4
2023-01-22T05:00:00,1644A,121.3181,37.5436,烟台市,西郊化工站,颗粒物(PM10),67,83,64,45,26,88,87,83,83,3,6,7,8,0.7,0.7
2023-01-22T05:00:00,1645A,121.4478,37.4822,烟台市,莱山环保局,细颗粒物(PM2.5),92,107,64,68,33,85,68,71,70,12,7,9,10,0.9,0.8
2023-01-22T05:00:00,1646A,121.2611,37.4967,烟台市,福山环保局,细颗粒物(PM2.5),83,100,87,61,44,75,55,50,50,16,16,8,9,0.7,0.7
2023-01-22T05:00:00,1650A,119.1437,36.7023,潍坊市,环保局,细颗粒物(PM2.5),142,161,138,108,78,89,43,54,49,19,17,10,13,1.5,1.2
2023-01-22T05:00:00,1653A,116.6251,35.4302,济宁市,火炬城,细颗粒物(PM2.5),289,410,209,239,144,89,56,55,45,25,22,54,29,0.9,0.7
2023-01-22T05:00:00,1655A,116.5491,35.4042,济宁市,电化厂,细颗粒物(PM2.5),330,411,184,280,125,88,47,57,50,22,17,58,21,0.9,0.7
2023-01-22T05:00:00,1656A,117.1437,36.1937,泰安市,监测站,细颗粒物(PM2.5),208,202,192,158,121,93,54,50,50,21,22,17,20,1.2,1.2
2023-01-22T05:00:00,1657A,117.0885,36.2017,泰安市,人口学校,细颗粒物(PM2.5),125,144,155,95,76,91,58,65,59,21,21,16,19,0.7,0.7
2023-01-22T05:00:00,1658A,117.1089,36.1758,泰安市,电力学校,细颗粒物(PM2.5),240,244,194,190,102,88,28,38,35,43,27,23,24,1.3,1
2023-01-22T05:00:00,1659A,119.471,35.4209,日照市,监测站,颗粒物(PM10),79,107,78,55,29,92,45,87,66,24,22,12,10,0.9,0.6
2023-01-22T05:00:00,1660A,119.523,35.4216,日照市,市政府广场,颗粒物(PM10),62,73,74,23,24,84,54,70,62,24,17,8,9,0.5,0.8
2023-01-22T05:00:00,1661A,119.5587,35.4044,日照市,港务局,颗粒物(PM10),63,75,79,19,24,96,65,69,65,25,25,6,8,0.6,0.8
2023-01-22T05:00:00,1662A,122.1214,37.4236,威海市,华夏技校,颗粒物(PM10),58,66,41,27,19,85,85,81,80,10,12,2,4,0.2,0.3
2023-01-22T05:00:00,1663A,122.0508,37.5236,威海市,山大分校,,49,49,45,17,14,88,86,85,84,7,7,4,5,0.3,0.3
2023-01-22T05:00:00,1664A,122.1067,37.5072,威海市,市监测站,颗粒物(PM10),58,66,43,17,14,92,92,91,91,5,7,4,4,0.3,0.3
2023-01-22T05:00:00,1666A,118.6614,37.4309,东营市,市环保局,细颗粒物(PM2.5),235,263,221,185,152,94,32,42,32,28,24,50,37,1.2,1
2023-01-22T05:00:00,1669A,113.5824,24.7733,韶关市,市八中,细颗粒物(PM2.5),127,122,71,96,48,92,31,44,37,12,17,16,15,0.6,0.7
2023-01-22T05:00:00,1671A,113.5917,24.7972,韶关市,园林处,细颗粒物(PM2.5),166,134,81,126,64,97,37,43,39,7,11,17,14,0.5,0.5
2023-01-22T05:00:00,1672A,113.6735,24.7791,韶关市,韶关学院,细颗粒物(PM2.5),135,106,62,103,52,102,22,42,32,11,12,9,12,0.6,0.6
2023-01-22T05:00:00,1673A,113.5971,24.6863,韶关市,曲江监测站,细颗粒物(PM2.5),224,181,106,174,87,83,20,19,19,13,25,17,23,0.9,1.2
2023-01-22T05:00:00,1674A,116.6794,23.3667,汕头市,金平子站,细颗粒物(PM2.5),188,145,56,141,51,87,26,72,45,14,13,12,11,0.8,0.7
2023-01-22T05:00:00,1675A,116.7244,23.3633,汕头市,龙湖子站,细颗粒物(PM2.5),246,164,52,196,47,91,24,79,54,20,13,12,11,0.9,0.6
2023-01-22T05:00:00,1676A,116.7258,23.2775,汕头市,濠江子站,细颗粒物(PM2.5),209,110,53,159,46,89,28,68,57,17,11,10,9,1.0,0.9
2023-01-22T05:00:00,1677A,116.7519,23.4714,汕头市,澄海子站,细颗粒物(PM2.5),192,147,67,144,65,88,21,60,34,18,15,5,5,0.8,0.6
2023-01-22T05:00:00,1678A,116.6092,23.2539,汕头市,潮阳子站,细颗粒物(PM2.5),203,134,71,153,54,93,24,74,51,16,11,7,7,1.1,0.7
2023-01-22T05:00:00,1680A,110.3539,21.2706,湛江市,湛江影剧院,,50,50,61,24,35,111,85,91,88,4,9,6,8,0.5,0.6
2023-01-22T05:00:00,1681A,110.3928,21.2228,湛江市,市环境监测站,颗粒物(PM10),51,52,62,28,41,112,84,91,86,7,10,6,9,0.3,0.4
2023-01-22T05:00:00,1682A,110.4019,21.1997,湛江市,环保局宿舍,,50,50,59,28,40,109,82,92,88,7,11,3,6,0.4,0.5
2023-01-22T05:00:00,1683A,110.4111,21.2028,湛江市,霞山游泳场,颗粒物(PM10),52,54,58,27,39,119,83,97,90,10,11,5,7,0.5,0.6
2023-01-22T05:00:00,1684A,110.3316,21.2679,湛江市,麻章区环保局,颗粒物(PM10),52,54,68,27,44,107,83,90,86,6,10,9,12,0.6,0.7
2023-01-22T05:00:00,1685A,110.4558,21.2567,湛江市,坡头区环保局,,42,42,61,29,43,106,78,86,82,7,10,6,9,0.7,0.7
2023-01-22T05:00:00,1686A,111.0286,21.4688,茂名市,电白南海,,44,44,79,29,47,115,74,89,77,7,10,8,8,0.4,0.5
2023-01-22T05:00:00,1687A,110.9294,21.6533,茂名市,茂石化七小,细颗粒物(PM2.5),94,88,63,70,50,104,70,71,70,5,8,5,7,0.5,0.6
2023-01-22T05:00:00,1688A,110.9107,21.6687,茂名市,健康路,细颗粒物(PM2.5),74,78,60,54,41,111,80,82,80,6,10,12,13,0.5,0.6
2023-01-22T05:00:00,1689A,110.8592,21.6828,茂名市,高岭,细颗粒物(PM2.5),64,53,56,46,47,105,77,74,74,10,14,16,17,0.3,0.4
2023-01-22T05:00:00,1690A,116.1231,24.3284,梅州市,梅江月梅,细颗粒物(PM2.5),127,90,50,96,44,59,18,22,19,6,6,8,7,0.8,0.8
2023-01-22T05:00:00,1691A,116.0797,24.2719,梅州市,梅县新城,细颗粒物(PM2.5),149,127,55,114,56,54,18,20,19,8,10,12,8,0.7,0.7
2023-01-22T05:00:00,1692A,116.1248,24.2654,梅州市,环境监控中心,细颗粒物(PM2.5),82,60,38,60,39,54,34,39,37,6,9,10,7,0.6,0.7
2023-01-22T05:00:00,1693A,115.3653,22.775,汕尾市,市环保局,细颗粒物(PM2.5),127,118,55,96,50,74,47,46,46,6,8,12,10,0.6,0.7
2023-01-22T05:00:00,1694A,115.3706,22.7898,汕尾市,市政府,细颗粒物(PM2.5),139,111,54,106,52,77,48,45,44,7,8,12,10,0.6,0.6
2023-01-22T05:00:00,1695A,115.3622,22.7925,汕尾市,新城中学,细颗粒物(PM2.5),122,104,57,92,51,75,53,46,46,5,7,8,7,0.5,0.5
2023-01-22T05:00:00,1696A,114.6778,23.7569,河源市,源西,细颗粒物(PM2.5),105,88,61,79,46,95,30,41,38,14,10,5,5,0.6,0.6
2023-01-22T05:00:00,1697A,114.6944,23.7586,河源市,东埔,细颗粒物(PM2.5),130,113,63,99,51,72,24,34,29,8,8,5,5,0.6,0.6
2023-01-22T05:00:00,1698A,114.6892,23.7233,河源市,老城,细颗粒物(PM2.5),123,117,72,93,52,73,26,32,30,10,10,5,5,0.8,0.7
2023-01-22T05:00:00,1699A,111.9797,21.8593,阳江市,鸳鸯湖,,45,29,41,31,33,108,65,76,72,8,8,5,6,0.6,0.6
2023-01-22T05:00:00,1701A,111.9491,21.8658,阳江市,马南垌,,42,36,51,29,32,115,66,80,78,15,11,5,6,0.5,0.6
2023-01-22T05:00:00,1702A,113.0426,23.691,清远市,环保大楼,细颗粒物(PM2.5),173,138,67,131,54,118,52,53,53,14,15,13,8,0.7,0.8
2023-01-22T05:00:00,1703A,113.0208,23.7106,清远市,凤城街办,细颗粒物(PM2.5),140,142,75,107,51,95,28,24,24,19,18,11,8,0.8,0.7
2023-01-22T05:00:00,1705A,116.6367,23.6719,潮州市,西园路,细颗粒物(PM2.5),78,70,58,57,58,79,19,24,21,8,12,6,6,0.7,0.8
2023-01-22T05:00:00,1706A,116.6447,23.6706,潮州市,档案局,细颗粒物(PM2.5),83,58,58,61,59,86,20,24,22,7,12,6,7,0.9,1
2023-01-22T05:00:00,1708A,116.3701,23.5345,揭阳市,新兴,细颗粒物(PM2.5),221,143,75,171,79,76,21,26,25,6,8,10,7,0.7,0.7
2023-01-22T05:00:00,1709A,116.3264,23.5443,揭阳市,西马,细颗粒物(PM2.5),163,150,79,124,81,72,23,27,24,6,10,11,9,0.6,0.7
2023-01-22T05:00:00,1710A,116.3611,23.5626,揭阳市,东兴,细颗粒物(PM2.5),233,148,75,183,72,78,23,26,25,13,15,12,6,0.8,0.9
2023-01-22T05:00:00,1711A,116.4151,23.5294,揭阳市,渔湖,细颗粒物(PM2.5),147,114,72,112,68,76,25,25,25,8,9,7,7,0.8,0.7
2023-01-22T05:00:00,1712A,112.0392,22.9169,云浮市,新市府,细颗粒物(PM2.5),222,212,69,172,59,64,14,28,18,14,10,7,6,0.7,0.6
2023-01-22T05:00:00,1714A,112.0539,22.9539,云浮市,牧羊,细颗粒物(PM2.5),68,58,51,49,40,97,55,60,58,5,9,8,9,0.6,0.6
2023-01-22T05:00:00,1715A,102.575,24.3711,玉溪市,东风水库,,48,40,40,33,28,92,68,61,61,6,7,10,9,0.7,0.7
2023-01-22T05:00:00,1718A,115.4208,35.2464,菏泽市,气象局,颗粒物(PM10),171,292,239,,134,95,34,47,35,27,25,40,16,1.2,0.9
2023-01-22T05:00:00,1719A,115.4747,35.2375,菏泽市,市政协,细颗粒物(PM2.5),247,323,239,197,133,93,32,42,33,27,24,41,13,1.3,1
2023-01-22T05:00:00,1721A,113.3819,40.1097,大同市,果树场,,,,,,,,,,,,,,,,
2023-01-22T05:00:00,1723A,113.2994,40.0758,大同市,云冈宾馆,细颗粒物(PM2.5),203,331,176,153,106,84,9,10,8,44,29,25,25,1.5,1.1
2023-01-22T05:00:00,1724A,113.3444,40.0917,大同市,大同大学,细颗粒物(PM2.5),137,187,148,104,70,77,36,33,33,22,22,30,24,1.4,1.1
2023-01-22T05:00:00,1725A,113.2661,40.1269,大同市,安家小村,细颗粒物(PM2.5),144,190,161,110,66,86,30,30,24,26,20,24,21,3.7,1.4
2023-01-22T05:00:00,1726A,113.2711,40.0844,大同市,教育学院,细颗粒物(PM2.5),219,265,176,169,106,72,13,32,22,41,30,41,34,1.9,0.9
2023-01-22T05:00:00,1727A,113.1147,36.1547,长治市,清华站,细颗粒物(PM2.5),153,177,142,117,84,72,11,30,21,38,32,25,21,1.1,0.9
2023-01-22T05:00:00,1728A,113.1031,36.1989,长治市,监测站,细颗粒物(PM2.5),100,134,131,75,83,69,34,18,17,26,33,17,19,1.2,1.2
2023-01-22T05:00:00,1730A,113.0886,36.2125,长治市,审计局,细颗粒物(PM2.5),92,124,122,68,84,71,44,24,24,15,27,19,22,0.8,0.8
2023-01-22T05:00:00,1731A,113.0844,36.1856,长治市,长治八中,细颗粒物(PM2.5),213,202,153,163,86,71,2,14,7,46,30,40,23,1.5,1
2023-01-22T05:00:00,1733A,111.5531,36.0783,临汾市,临钢医院,细颗粒物(PM2.5),130,174,206,99,102,60,22,16,16,15,24,6,11,1.9,1.4
2023-01-22T05:00:00,1734A,111.5028,36.0714,临汾市,技工学校,细颗粒物(PM2.5),268,334,274,218,157,55,13,7,7,28,28,34,27,4.4,2.1
2023-01-22T05:00:00,1736A,111.5018,36.0855,临汾市,市委,细颗粒物(PM2.5),265,342,259,215,135,54,14,9,9,34,34,27,17,2.1,1.4
2023-01-22T05:00:00,1738A,113.5758,37.8572,阳泉市,市中心,细颗粒物(PM2.5),119,154,135,90,68,89,13,12,11,60,41,24,28,1.7,1.2
2023-01-22T05:00:00,1739A,113.4894,37.8731,阳泉市,赛鱼,细颗粒物(PM2.5),112,131,107,84,49,87,33,43,36,48,35,35,27,1.1,0.8
2023-01-22T05:00:00,1740A,113.5819,37.8486,阳泉市,南庄,颗粒物(PM10),117,183,148,84,79,87,30,42,37,35,37,27,30,1.7,1.2
2023-01-22T05:00:00,1742A,113.5614,37.8703,阳泉市,平坦,细颗粒物(PM2.5),140,136,163,107,85,86,41,33,33,46,41,32,29,1.0,1.3
2023-01-22T05:00:00,1743A,113.5158,37.8392,阳泉市,大阳泉,颗粒物(PM10),84,117,94,57,45,91,58,71,62,30,20,31,25,1.0,0.7
2023-01-22T05:00:00,1744A,118.9233,42.2816,赤峰市,松山一中,细颗粒物(PM2.5),244,295,312,194,215,78,27,17,17,26,25,56,80,0.8,0.8
2023-01-22T05:00:00,1745A,118.9576,42.2728,赤峰市,哈达街,细颗粒物(PM2.5),134,134,198,102,141,80,25,40,25,29,22,72,88,1.1,0.8
2023-01-22T05:00:00,1746A,118.8788,42.2554,赤峰市,天义路,细颗粒物(PM2.5),440,523,293,409,198,79,16,15,15,29,22,63,62,1.3,0.8
2023-01-22T05:00:00,1748A,123.044,41.1196,鞍山市,深沟寺,细颗粒物(PM2.5),117,115,121,88,86,71,43,42,41,11,13,8,22,0.9,0.8
2023-01-22T05:00:00,1749A,123.011,41.0931,鞍山市,太阳城,细颗粒物(PM2.5),102,125,192,76,136,73,45,34,34,12,13,10,31,0.6,0.6
2023-01-22T05:00:00,1750A,123.0485,41.1442,鞍山市,太平,细颗粒物(PM2.5),418,458,184,377,126,62,14,44,27,41,20,14,27,2.1,1
2023-01-22T05:00:00,1751A,122.9642,41.0971,鞍山市,铁西三道街,,,792,291,,186,72,9,12,11,28,27,29,61,3.4,1.4
2023-01-22T05:00:00,1752A,122.9341,41.0833,鞍山市,铁西工业园区,颗粒物(PM10),477,577,239,413,148,69,7,10,9,34,22,18,22,2.6,1
2023-01-22T05:00:00,1753A,123.022,41.0821,鞍山市,明达新区,细颗粒物(PM2.5),110,117,146,83,104,60,47,41,41,9,13,9,30,0.7,0.7
2023-01-22T05:00:00,1754A,123.1289,41.0228,鞍山市,千山,,,,,,,,,,,,,,,,
2023-01-22T05:00:00,1755A,123.7977,41.8491,抚顺市,望花区,细颗粒物(PM2.5),308,255,179,258,130,69,29,21,21,18,21,17,19,1.2,1
2023-01-22T05:00:00,1756A,123.9161,41.8822,抚顺市,顺城区,细颗粒物(PM2.5),165,212,197,125,106,67,42,17,17,12,21,8,17,0.6,0.6
2023-01-22T05:00:00,1757A,124.0436,41.8611,抚顺市,东洲区,细颗粒物(PM2.5),168,174,105,127,51,70,38,45,40,12,11,10,14,1.2,0.7
2023-01-22T05:00:00,1758A,123.9247,41.8642,抚顺市,新抚区,细颗粒物(PM2.5),308,349,151,258,108,68,26,16,16,18,18,10,12,1.3,1.1
2023-01-22T05:00:00,1759A,124.0972,41.8961,抚顺市,大伙房水库,细颗粒物(PM2.5),160,195,79,122,37,72,38,44,36,14,9,5,6,1.2,0.8
2023-01-22T05:00:00,1760A,123.7086,41.8391,抚顺市,沈抚新城,细颗粒物(PM2.5),196,191,116,147,60,74,35,35,32,21,22,15,24,1.3,1.3
2023-01-22T05:00:00,1761A,123.8275,41.3064,本溪市,大峪,细颗粒物(PM2.5),186,203,127,140,109,60,22,19,19,21,19,10,18,1.0,0.7
2023-01-22T05:00:00,1762A,123.7567,41.3325,本溪市,溪湖,"颗粒物(PM10),细颗粒物(PM2.5)",500,608,206,519,191,65,9,12,10,39,36,18,50,1.4,0.9
2023-01-22T05:00:00,1763A,123.7169,41.3094,本溪市,彩屯,细颗粒物(PM2.5),249,255,217,199,180,47,9,15,10,41,46,13,68,2.6,3.3
2023-01-22T05:00:00,1764A,123.7669,41.2864,本溪市,东明,细颗粒物(PM2.5),260,254,142,210,200,59,16,11,11,33,28,21,59,0.9,0.8
2023-01-22T05:00:00,1765A,123.7992,41.2664,本溪市,新立屯,细颗粒物(PM2.5),285,234,147,235,131,67,26,22,22,21,15,8,22,0.6,0.5
2023-01-22T05:00:00,1766A,123.8142,41.3472,本溪市,威宁,细颗粒物(PM2.5),140,183,113,107,83,62,17,12,12,29,23,7,9,1.1,0.8
2023-01-22T05:00:00,1767A,121.1115,41.0879,锦州市,南山,细颗粒物(PM2.5),122,158,95,92,57,88,44,49,45,13,16,28,22,1.0,0.9
2023-01-22T05:00:00,1768A,121.0533,40.8434,锦州市,开发区,细颗粒物(PM2.5),87,104,82,64,41,79,48,55,51,5,13,17,12,0.8,0.8
2023-01-22T05:00:00,1769A,121.1836,41.1119,锦州市,百股街道,细颗粒物(PM2.5),185,195,110,139,61,85,41,43,42,17,19,33,22,1.1,0.9
2023-01-22T05:00:00,1770A,121.1178,41.1222,锦州市,天安街道,细颗粒物(PM2.5),118,167,111,89,65,81,40,38,38,20,26,26,22,0.8,0.9
2023-01-22T05:00:00,1771A,121.1303,41.1386,锦州市,北湖公园,细颗粒物(PM2.5),122,160,110,92,61,89,45,43,43,10,14,25,22,1.0,1.1
2023-01-22T05:00:00,1772A,126.54,43.8622,吉林市,哈达湾,细颗粒物(PM2.5),234,218,115,184,85,68,32,46,32,27,18,20,18,1.1,0.8
2023-01-22T05:00:00,1773A,126.5844,43.8358,吉林市,东局子,细颗粒物(PM2.5),228,214,118,178,90,62,32,36,32,20,14,16,17,1.0,0.7
2023-01-22T05:00:00,1774A,126.5052,43.8245,吉林市,电力学院,细颗粒物(PM2.5),214,194,83,164,59,65,24,43,35,31,15,24,15,1.4,0.9
2023-01-22T05:00:00,1775A,126.6133,43.8972,吉林市,江北,细颗粒物(PM2.5),213,207,119,163,81,68,37,50,44,17,12,13,17,1.1,0.7
2023-01-22T05:00:00,1776A,126.555,43.8306,吉林市,江南公园,细颗粒物(PM2.5),249,243,136,199,104,64,27,44,37,31,19,19,22,1.0,0.7
2023-01-22T05:00:00,1778A,126.7061,43.7133,吉林市,丰满,,,,,,,,,,,,,,,,
2023-01-22T05:00:00,1779A,123.9305,47.3636,齐齐哈尔市,安居小区,细颗粒物(PM2.5),58,39,50,41,47,61,51,49,49,4,7,8,11,0.2,0.3
2023-01-22T05:00:00,1780A,123.9488,47.3386,齐齐哈尔市,中心广场,,35,34,61,24,43,63,49,52,52,9,7,11,11,0.2,0.2
2023-01-22T05:00:00,1781A,123.9483,47.3227,齐齐哈尔市,农牧车辆厂,,38,29,57,26,43,60,48,48,48,10,10,8,18,0.3,0.4
2023-01-22T05:00:00,1783A,123.945,47.2988,齐齐哈尔市,市环境监测站,,38,31,57,26,50,60,52,53,53,8,10,10,18,0.2,0.3
2023-01-22T05:00:00,1784A,129.61,44.561,牡丹江市,环保大楼,细颗粒物(PM2.5),75,58,119,55,83,58,37,42,41,23,23,26,32,0.8,0.6
2023-01-22T05:00:00,1785A,129.6115,44.5782,牡丹江市,文化广场,细颗粒物(PM2.5),84,69,112,62,77,48,45,41,41,11,22,16,21,0.5,0.8
2023-01-22T05:00:00,1786A,129.5904,44.5963,牡丹江市,第一医院,细颗粒物(PM2.5),95,95,108,71,89,49,42,42,42,15,23,11,20,0.8,0.8
2023-01-22T05:00:00,1787A,129.6364,44.6075,牡丹江市,机车工厂,细颗粒物(PM2.5),68,69,76,49,53,54,47,45,45,12,18,3,3,0.5,0.7
2023-01-22T05:00:00,1788A,129.6386,44.5462,牡丹江市,第一中学,细颗粒物(PM2.5),85,64,80,63,61,54,47,46,46,12,15,10,14,0.5,0.7
2023-01-22T05:00:00,1789A,124.81117,46.03138,大庆市,大同区,细颗粒物(PM2.5),110,98,100,83,79,50,34,44,40,16,15,8,11,0.7,0.9
2023-01-22T05:00:00,1790A,125.129,46.533,大庆市,龙凤区,细颗粒物(PM2.5),74,46,68,54,53,56,48,43,43,8,15,15,34,0.4,0.3
2023-01-22T05:00:00,1791A,124.902,46.408,大庆市,红岗区,细颗粒物(PM2.5),82,66,91,60,75,59,37,39,35,19,14,8,13,0.4,0.5
2023-01-22T05:00:00,1792A,125.153,46.586,大庆市,萨尔图区,细颗粒物(PM2.5),68,54,80,49,65,60,51,47,47,5,10,10,15,0.3,0.4
2023-01-22T05:00:00,1793A,124.9042,46.6215,大庆市,让胡路区,细颗粒物(PM2.5),80,61,74,59,51,61,48,47,47,8,13,7,18,0.4,0.5
2023-01-22T05:00:00,1794A,118.3606,31.3519,芜湖市,监测站,细颗粒物(PM2.5),109,102,122,82,59,101,54,55,53,19,24,4,5,0.7,0.6
2023-01-22T05:00:00,1795A,118.3714,31.4134,芜湖市,科创中心,细颗粒物(PM2.5),88,98,119,65,58,103,56,63,58,12,13,4,6,0.4,0.5
2023-01-22T05:00:00,1796A,118.3673,31.3131,芜湖市,四水厂,细颗粒物(PM2.5),89,101,134,66,59,99,53,61,57,15,15,5,7,0.8,0.6
2023-01-22T05:00:00,1798A,118.5092,31.6837,马鞍山市,湖东路四小,细颗粒物(PM2.5),80,70,99,59,53,99,58,64,62,8,12,6,7,0.5,0.6
2023-01-22T05:00:00,1799A,118.5024,31.6449,马鞍山市,开发区,细颗粒物(PM2.5),78,79,106,57,49,101,59,65,62,14,15,6,7,0.4,0.4
2023-01-22T05:00:00,1800A,118.5228,31.7231,马鞍山市,慈湖,细颗粒物(PM2.5),84,80,98,62,46,105,58,65,62,9,10,6,7,0.5,0.5
2023-01-22T05:00:00,1802A,118.6245,31.7241,马鞍山市,濮塘,颗粒物(PM10),63,75,99,43,45,100,52,56,55,8,9,5,6,0.6,0.6
2023-01-22T05:00:00,1803A,115.9872,29.6815,九江市,十里,细颗粒物(PM2.5),165,164,212,125,131,77,60,66,60,10,19,6,14,0.9,1
2023-01-22T05:00:00,1804A,115.9584,29.7046,九江市,茅山头,细颗粒物(PM2.5),225,168,195,175,128,76,55,59,53,14,24,8,15,1.0,1.1
2023-01-22T05:00:00,1805A,115.9877,29.7295,九江市,西园,细颗粒物(PM2.5),225,203,184,175,130,84,56,58,53,12,22,5,14,1.1,1
2023-01-22T05:00:00,1806A,116.0172,29.6547,九江市,五七二七厂,细颗粒物(PM2.5),155,160,178,118,106,78,62,66,64,11,19,5,10,0.9,1.1
2023-01-22T05:00:00,1808A,115.9114,29.6038,九江市,综合工业园,细颗粒物(PM2.5),163,154,193,124,135,77,59,67,59,14,21,6,12,0.9,1
2023-01-22T05:00:00,1809A,116.0721,29.7535,九江市,石化总厂,细颗粒物(PM2.5),262,277,206,212,119,88,49,66,52,13,20,8,14,1.0,1.1
2023-01-22T05:00:00,1810A,115.9773,29.5698,九江市,庐山气象台,,22,13,29,15,21,80,60,56,56,4,4,6,7,0.8,0.8
2023-01-22T05:00:00,1812A,112.3931,34.6516,洛阳市,市委党校,"颗粒物(PM10),细颗粒物(PM2.5)",110,170,217,83,124,62,44,29,29,14,32,16,28,0.9,0.9
2023-01-22T05:00:00,1814A,112.4657,34.6871,洛阳市,豫西宾馆,细颗粒物(PM2.5),170,234,232,129,133,60,16,16,16,34,33,18,28,1.5,1.4
2023-01-22T05:00:00,1815A,112.494,34.6886,洛阳市,河南林校,细颗粒物(PM2.5),242,282,220,192,133,77,47,68,57,29,30,12,17,1.3,1
2023-01-22T05:00:00,1816A,112.3844,34.623,洛阳市,开发区管委会,细颗粒物(PM2.5),112,149,194,84,120,69,44,43,43,12,24,11,19,0.8,0.8
2023-01-22T05:00:00,1817A,112.4267,34.6258,洛阳市,市委新办公区,细颗粒物(PM2.5),119,162,206,90,126,61,47,39,39,17,30,13,20,0.9,0.9
2023-01-22T05:00:00,1818A,114.4839,36.0621,安阳市,棉研所,,,,,,,,,,,,,,,,
2023-01-22T05:00:00,1819A,114.3551,36.1017,安阳市,红庙街,细颗粒物(PM2.5),137,160,171,104,100,57,37,34,34,28,33,16,14,1.6,1.4
2023-01-22T05:00:00,1820A,114.361,36.0681,安阳市,银杏小区,细颗粒物(PM2.5),158,162,165,120,93,54,36,32,32,24,29,18,16,1.3,1.2
2023-01-22T05:00:00,1824A,114.3389,34.7781,开封市,肿瘤医院,细颗粒物(PM2.5),208,269,243,158,144,78,27,32,30,18,22,18,15,0.8,0.6
2023-01-22T05:00:00,1826A,114.2885,34.7965,开封市,世纪星幼儿园,细颗粒物(PM2.5),234,253,232,184,142,85,30,34,32,23,23,17,14,1.2,0.9
2023-01-22T05:00:00,1828A,113.227,35.2125,焦作市,市环保局,细颗粒物(PM2.5),299,335,220,249,140,53,3,6,5,39,31,22,24,1.8,1.2
2023-01-22T05:00:00,1830A,113.1992,35.2590,焦作市,影视城,,,,,,,,,,,,,,,,
2023-01-22T05:00:00,1832A,113.3257,33.742,平顶山市,新华旅馆,细颗粒物(PM2.5),199,265,279,149,168,90,29,23,22,37,44,20,22,1.2,1
2023-01-22T05:00:00,1833A,113.2919,33.737,平顶山市,规划设计院,细颗粒物(PM2.5),203,265,255,153,156,92,28,26,24,22,24,16,14,1.5,1.3
2023-01-22T05:00:00,1834A,113.182,33.774,平顶山市,平顶山工学院,细颗粒物(PM2.5),192,253,248,144,130,95,38,40,40,15,18,22,14,1.0,0.9
2023-01-22T05:00:00,1835A,111.1922,34.7752,三门峡市,市政府,细颗粒物(PM2.5),156,176,165,119,89,57,22,21,21,21,25,14,18,1.4,1.2
2023-01-22T05:00:00,1836A,111.1587,34.7942,三门峡市,开发区,细颗粒物(PM2.5),168,224,191,127,81,62,24,25,21,19,20,10,17,1.3,1.1
2023-01-22T05:00:00,1838A,111.143,34.7955,三门峡市,风景区,,,,,,,,,,,,,,,,
2023-01-22T05:00:00,1840A,111.2992,30.6981,宜昌市,白龙岗,细颗粒物(PM2.5),185,197,145,139,98,82,56,62,59,17,27,6,7,1.0,1
2023-01-22T05:00:00,1841A,111.3549,30.6465,宜昌市,伍家岗,细颗粒物(PM2.5),149,167,160,114,109,80,53,62,59,17,26,9,10,0.9,1
2023-01-22T05:00:00,1842A,111.2628,30.6961,宜昌市,点军区,细颗粒物(PM2.5),160,175,146,122,97,79,50,64,55,23,20,9,8,1.0,0.9
2023-01-22T05:00:00,1843A,111.3275,30.7819,宜昌市,夷陵区,细颗粒物(PM2.5),160,151,134,122,105,71,51,54,53,14,22,7,8,0.8,0.9
2023-01-22T05:00:00,1844A,112.2494,30.3197,荆州市,市图书馆,细颗粒物(PM2.5),153,146,209,117,156,58,45,55,52,18,28,6,11,0.9,1.1
2023-01-22T05:00:00,1845A,112.2008,30.3544,荆州市,市委党校,细颗粒物(PM2.5),182,166,210,137,151,59,35,57,48,16,23,6,9,1.0,1
2023-01-22T05:00:00,1847A,113.1094,29.3578,岳阳市,南湖风景区,细颗粒物(PM2.5),196,148,209,147,167,72,69,61,61,13,28,9,13,0.8,1.2
2023-01-22T05:00:00,1848A,113.1493,29.4251,岳阳市,城陵矶,细颗粒物(PM2.5),127,150,193,96,135,70,61,59,58,18,31,7,11,1.1,1.3
2023-01-22T05:00:00,1849A,113.1497,29.3575,岳阳市,开发区,细颗粒物(PM2.5),137,141,206,104,178,67,57,57,57,16,26,5,7,0.6,0.9
2023-01-22T05:00:00,1850A,113.2621,29.4758,岳阳市,云溪区,细颗粒物(PM2.5),123,143,179,93,133,59,51,52,52,16,25,10,11,0.9,1.1
2023-01-22T05:00:00,1851A,112.9943,29.4402,岳阳市,君山区,细颗粒物(PM2.5),211,190,243,161,198,56,55,53,53,13,24,9,11,0.9,1.2
2023-01-22T05:00:00,1852A,113.2117,29.355,岳阳市,金凤水库,细颗粒物(PM2.5),119,136,191,90,147,53,48,46,46,12,18,5,7,0.8,1
2023-01-22T05:00:00,1854A,111.6975,28.9703,常德市,市二中,细颗粒物(PM2.5),254,282,253,204,199,46,38,42,38,14,18,6,10,1.1,1.1
2023-01-22T05:00:00,1857A,111.7158,29.1456,常德市,白鹤山,细颗粒物(PM2.5),223,206,223,173,152,65,43,46,44,11,15,4,7,1.0,1.1
2023-01-22T05:00:00,1858A,110.5319,29.1217,张家界市,永定新区,细颗粒物(PM2.5),244,230,303,194,260,48,39,37,37,8,26,10,28,0.7,1.2
2023-01-22T05:00:00,1859A,110.4697,29.1242,张家界市,电业局,细颗粒物(PM2.5),186,163,232,140,197,60,41,39,39,7,19,7,11,0.6,1
2023-01-22T05:00:00,1860A,110.5594,29.3547,张家界市,未央路,细颗粒物(PM2.5),142,137,122,108,89,82,33,45,42,6,12,5,6,0.7,0.8
2023-01-22T05:00:00,1861A,110.4417,29.315,张家界市,袁家界,细颗粒物(PM2.5),52,50,74,36,46,101,81,80,80,8,10,9,10,0.7,0.6
2023-01-22T05:00:00,1862A,110.4144,25.3167,桂林市,电子科大尧山校区,,,,,,,,,,,,,,,,
2023-01-22T05:00:00,1863A,110.2819,25.2697,桂林市,监测站,细颗粒物(PM2.5),160,129,104,122,74,98,64,64,64,9,14,5,8,0.8,0.6
2023-01-22T05:00:00,1864A,110.3089,25.2708,桂林市,龙隐路小学,细颗粒物(PM2.5),179,120,100,135,80,95,61,64,64,16,16,8,14,0.7,0.6
2023-01-22T05:00:00,1865A,110.2869,25.2178,桂林市,八中,细颗粒物(PM2.5),176,121,97,133,79,91,59,58,58,13,15,6,11,0.6,0.5
2023-01-22T05:00:00,1866A,109.2262,21.588,北海市,牛尾岭水库,颗粒物(PM10),68,86,82,44,59,97,56,65,61,10,13,7,8,0.3,0.6
2023-01-22T05:00:00,1867A,109.1436,21.4086,北海市,海滩公园,细颗粒物(PM2.5),80,87,98,59,68,125,81,80,80,8,12,7,8,0.5,0.7
2023-01-22T05:00:00,1868A,109.0981,21.4661,北海市,新市环保局,细颗粒物(PM2.5),73,80,83,53,62,122,76,79,78,8,12,4,5,0.4,0.6
2023-01-22T05:00:00,1869A,109.1778,21.5233,北海市,北海工业园,细颗粒物(PM2.5),92,101,87,68,60,120,72,80,76,6,9,6,7,0.3,0.5
2023-01-22T05:00:00,1870A,109.4856,24.3895,柳州市,柳东小学,细颗粒物(PM2.5),216,190,92,166,77,86,48,61,53,14,10,25,11,1.2,1
2023-01-22T05:00:00,1871A,109.4157,24.3277,柳州市,环保监测站,细颗粒物(PM2.5),199,193,103,149,72,87,39,42,40,22,17,24,11,1.0,0.9
2023-01-22T05:00:00,1872A,109.389,24.341,柳州市,河西水厂,细颗粒物(PM2.5),234,238,114,184,80,86,32,44,35,21,15,26,15,1.0,0.7
2023-01-22T05:00:00,1873A,109.4311,24.2921,柳州市,市四中,细颗粒物(PM2.5),186,197,101,140,69,98,56,61,58,18,18,26,13,0.9,0.8
2023-01-22T05:00:00,1874A,109.4006,24.3631,柳州市,市九中,细颗粒物(PM2.5),200,190,119,150,91,82,42,39,39,21,19,23,16,1.1,1
2023-01-22T05:00:00,1875A,109.4958,24.3134,柳州市,古亭山,细颗粒物(PM2.5),142,109,86,108,68,89,48,53,48,9,11,16,13,0.7,0.6
2023-01-22T05:00:00,1876A,109.5078,18.2489,三亚市,河东子站,,26,21,27,12,16,91,83,82,81,3,7,2,2,0.4,0.4
2023-01-22T05:00:00,1877A,109.4964,18.2681,三亚市,河西子站,,25,19,26,13,16,103,80,87,84,3,6,4,4,0.4,0.4
2023-01-22T05:00:00,1878A,104.7778,31.4741,绵阳市,富乐山,细颗粒物(PM2.5),203,167,107,153,94,68,3,13,6,30,23,3,3,1.0,0.8
2023-01-22T05:00:00,1879A,104.7563,31.4535,绵阳市,市人大,细颗粒物(PM2.5),208,211,125,158,106,56,0,5,2,35,38,2,5,1.2,1
2023-01-22T05:00:00,1880A,104.6697,31.4668,绵阳市,高新区自来水公司,细颗粒物(PM2.5),287,271,150,237,113,73,4,11,6,15,19,6,5,1.3,1
2023-01-22T05:00:00,1881A,104.7287,31.5075,绵阳市,三水厂,细颗粒物(PM2.5),273,254,145,223,122,70,3,4,3,17,23,3,3,1.5,1.2
2023-01-22T05:00:00,1882A,104.563,28.793,宜宾市,石马中学,细颗粒物(PM2.5),206,179,150,156,135,43,20,20,19,12,15,7,7,0.9,0.9
2023-01-22T05:00:00,1883A,104.6201,28.7728,宜宾市,市委,细颗粒物(PM2.5),201,172,144,151,123,42,25,21,19,18,28,9,8,0.8,0.8
2023-01-22T05:00:00,1884A,104.6055,28.793,宜宾市,宜宾四中,细颗粒物(PM2.5),195,160,148,146,132,43,30,26,23,18,27,6,6,0.8,0.8
2023-01-22T05:00:00,1885A,104.639,28.7562,宜宾市,市政府,细颗粒物(PM2.5),190,159,142,143,121,46,22,18,18,18,26,8,9,0.7,0.7
2023-01-22T05:00:00,1886A,104.5742,28.7199,宜宾市,黄金嘴,细颗粒物(PM2.5),211,185,164,161,140,47,27,15,15,15,25,12,11,0.6,0.8
2023-01-22T05:00:00,1888A,101.6891,26.571,攀枝花市,弄弄坪,,35,35,62,19,41,89,69,74,67,11,29,5,35,0.4,2.2
2023-01-22T05:00:00,1889A,101.5769,26.5928,攀枝花市,河门口,,43,43,39,28,27,98,44,45,41,19,18,16,20,1.4,1.2
2023-01-22T05:00:00,1890A,101.7169,26.585,攀枝花市,炳草岗,,37,37,55,17,30,94,41,63,54,24,25,8,15,0.7,1
2023-01-22T05:00:00,1891A,101.7369,26.5008,攀枝花市,仁和,,21,21,48,13,31,102,55,60,59,8,22,8,24,0.3,1.2
2023-01-22T05:00:00,1893A,105.4324,28.9634,泸州市,九狮山,细颗粒物(PM2.5),143,132,107,109,78,22,0,4,2,18,20,8,11,0.8,0.7
2023-01-22T05:00:00,1894A,105.4427,28.9063,泸州市,小市上码头,细颗粒物(PM2.5),188,177,135,141,103,36,11,14,10,22,26,7,8,0.9,0.8
2023-01-22T05:00:00,1895A,105.4241,28.8573,泸州市,兰田宪桥,细颗粒物(PM2.5),169,160,137,128,105,29,13,16,12,14,23,5,6,0.9,1
2023-01-22T05:00:00,1896A,105.4379,28.8833,泸州市,市环监站,细颗粒物(PM2.5),175,169,130,132,93,33,16,14,14,15,22,6,7,0.8,0.8
2023-01-22T05:00:00,1901A,104.4239,31.1208,德阳市,东山公园,细颗粒物(PM2.5),196,170,120,147,104,65,36,36,33,15,20,3,3,0.9,0.9
2023-01-22T05:00:00,1902A,104.3826,31.1317,德阳市,西小区,细颗粒物(PM2.5),247,210,132,197,115,59,5,9,7,32,29,5,4,1.1,1
2023-01-22T05:00:00,1904A,104.3553,31.1091,德阳市,耐火材料厂,细颗粒物(PM2.5),260,294,191,210,137,60,14,17,16,21,21,13,5,0.8,0.8
2023-01-22T05:00:00,1905A,106.056,30.8064,南充市,西山风景区,,,,,,,,,,,,,,,,
2023-01-22T05:00:00,1906A,106.0789,30.8023,南充市,南充市委,细颗粒物(PM2.5),271,248,160,221,136,39,4,8,7,15,23,8,8,0.9,0.9
2023-01-22T05:00:00,1907A,106.1031,30.8217,南充市,南充炼油厂,细颗粒物(PM2.5),211,262,161,161,132,47,1,6,3,15,24,7,8,1.1,0.9
2023-01-22T05:00:00,1908A,106.1064,30.7856,南充市,高坪区监测站,细颗粒物(PM2.5),275,275,159,225,133,41,5,4,4,16,24,10,9,1.0,1.1
2023-01-22T05:00:00,1909A,106.0642,30.7636,南充市,嘉陵区环保局,细颗粒物(PM2.5),218,235,166,168,144,42,4,6,5,15,27,5,7,0.9,1
2023-01-22T05:00:00,1910A,106.1087,30.8388,南充市,市环境监测站,细颗粒物(PM2.5),289,280,153,239,124,45,1,26,10,23,22,9,10,1.0,0.8
2023-01-22T05:00:00,1911A,106.9222,27.6869,遵义市,丁字口,细颗粒物(PM2.5),168,148,87,127,68,67,27,34,31,16,16,17,17,0.8,0.8
2023-01-22T05:00:00,1912A,106.9242,27.7019,遵义市,凤凰山,细颗粒物(PM2.5),80,93,75,59,36,65,21,34,25,18,16,6,7,0.8,0.7
2023-01-22T05:00:00,1913A,106.8906,27.6486,遵义市,忠庄,细颗粒物(PM2.5),129,126,68,98,47,63,21,36,30,13,10,4,4,0.5,0.3
2023-01-22T05:00:00,1914A,106.9231,27.6506,遵义市,舟水桥,细颗粒物(PM2.5),144,144,85,110,60,70,29,34,31,13,12,6,9,0.5,0.5
2023-01-22T05:00:00,1915A,106.9178,27.72,遵义市,干田坝,细颗粒物(PM2.5),147,111,82,112,60,60,15,26,22,19,14,14,14,0.7,0.6
2023-01-22T05:00:00,1916A,103.7897,25.5035,曲靖市,环境监测站,,25,25,52,6,28,97,80,73,73,2,5,5,11,0.4,0.5
2023-01-22T05:00:00,1917A,103.8,25.5364,曲靖市,烟厂办公区,,28,28,50,10,35,94,81,78,78,3,6,4,13,0.3,0.4
2023-01-22T05:00:00,1918A,108.7197,34.3956,咸阳市,气象站,细颗粒物(PM2.5),408,433,308,362,199,64,21,27,25,44,43,20,20,1.6,1.3
2023-01-22T05:00:00,1919A,108.673,34.3155,咸阳市,实验中学,细颗粒物(PM2.5),418,453,336,377,217,68,28,35,30,32,37,16,13,1.4,1.2
2023-01-22T05:00:00,1920A,108.7233,34.3617,咸阳市,师范学院,细颗粒物(PM2.5),413,444,328,369,207,69,37,47,39,27,36,11,12,2.0,1.7
2023-01-22T05:00:00,1922A,109.0656,35.0994,铜川市,党校,颗粒物(PM10),88,126,158,54,69,72,42,36,36,14,26,15,22,0.9,1.2
2023-01-22T05:00:00,1923A,109.0697,35.0697,铜川市,王益区政府,细颗粒物(PM2.5),114,111,182,86,100,66,22,16,16,24,32,9,20,0.9,1.1
2023-01-22T05:00:00,1924A,108.9344,34.9058,铜川市,新区管委会,细颗粒物(PM2.5),109,88,231,82,97,77,52,57,56,7,20,13,30,0.6,0.9
2023-01-22T05:00:00,1926A,109.4131,36.6275,延安市,枣园,细颗粒物(PM2.5),92,101,117,68,64,70,21,20,20,19,26,5,8,1.1,1
2023-01-22T05:00:00,1927A,109.4761,36.6028,延安市,延大医附院,细颗粒物(PM2.5),117,114,161,88,89,68,17,14,14,24,33,6,13,1.2,1
2023-01-22T05:00:00,1929A,109.5056,36.6106,延安市,百米大道,细颗粒物(PM2.5),145,150,170,111,99,71,16,14,14,38,43,10,16,1.3,1.1
2023-01-22T05:00:00,1930A,107.185,34.3063,宝鸡市,庙沟村,细颗粒物(PM2.5),143,168,170,109,97,80,54,58,55,15,16,10,11,1.0,1
2023-01-22T05:00:00,1931A,107.0708,34.3017,宝鸡市,竹园沟,细颗粒物(PM2.5),158,132,169,120,106,86,26,32,29,20,24,5,7,1.0,1
2023-01-22T05:00:00,1932A,107.1906,34.3672,宝鸡市,三陆医院,细颗粒物(PM2.5),251,199,206,201,139,76,35,33,33,15,25,12,18,1.1,1.1
2023-01-22T05:00:00,1933A,107.1431,34.3547,宝鸡市,监测站,细颗粒物(PM2.5),199,166,225,149,150,80,28,23,23,17,30,6,14,1.0,1.1
2023-01-22T05:00:00,1934A,107.1186,34.3739,宝鸡市,技工学校,细颗粒物(PM2.5),186,147,238,140,177,82,38,36,35,15,35,7,18,0.8,0.9
2023-01-22T05:00:00,1935A,107.3906,34.3528,宝鸡市,陈仓区环保局家属楼,细颗粒物(PM2.5),247,243,242,197,156,83,51,49,48,37,37,115,48,3.4,1.9
2023-01-22T05:00:00,1936A,107.2058,34.3497,宝鸡市,文理学院,细颗粒物(PM2.5),252,207,217,202,138,78,31,31,30,25,33,12,17,1.3,1.2
2023-01-22T05:00:00,1937A,107.2386,34.3622,宝鸡市,三迪小学,细颗粒物(PM2.5),245,238,231,195,146,77,39,41,40,21,33,12,18,1.3,1.3
2023-01-22T05:00:00,1938A,109.5293,34.5101,渭南市,农科所,细颗粒物(PM2.5),233,219,301,183,175,54,28,18,18,35,39,17,18,1.3,1.5
2023-01-22T05:00:00,1939A,109.4974,34.4877,渭南市,日报社,细颗粒物(PM2.5),172,168,290,130,177,53,53,29,29,22,48,15,17,0.9,1.6
2023-01-22T05:00:00,1940A,109.4636,34.493,渭南市,体育馆,细颗粒物(PM2.5),204,238,273,154,169,60,50,41,41,26,42,16,22,0.9,1.3
2023-01-22T05:00:00,1941A,109.4259,34.5023,渭南市,高新一小,细颗粒物(PM2.5),325,349,322,275,196,58,19,24,22,32,39,19,18,1.3,1.4
2023-01-22T05:00:00,1943A,102.1725,38.5339,金昌市,新川苑,颗粒物(PM10),76,101,154,48,70,99,61,44,44,15,21,56,83,0.6,0.8
2023-01-22T05:00:00,1944A,102.1692,38.5167,金昌市,天庆家园,细颗粒物(PM2.5),87,105,129,64,79,99,48,42,42,22,21,65,93,0.8,0.9
2023-01-22T05:00:00,1945A,98.2908,39.7711,嘉峪关市,气象局,颗粒物(PM10),146,241,186,46,45,94,90,88,88,3,7,4,12,0.2,0.3
2023-01-22T05:00:00,1947A,106.3394,38.817,石嘴山市,沙湖旅游区,颗粒物(PM10),106,161,106,54,45,93,43,57,46,19,17,12,12,1.2,1
2023-01-22T05:00:00,1948A,106.3668,39.0145,石嘴山市,大武口朝阳西街,细颗粒物(PM2.5),186,156,182,140,84,81,36,37,37,25,29,33,57,1.0,0.9
2023-01-22T05:00:00,1949A,106.7704,39.2282,石嘴山市,惠农南大街,细颗粒物(PM2.5),117,136,139,88,52,80,35,62,56,35,23,51,38,1.4,1
2023-01-22T05:00:00,1950A,106.7099,39.1325,石嘴山市,红果子镇惠新街,细颗粒物(PM2.5),117,166,160,88,71,85,32,43,33,22,23,34,37,1.3,1.2
2023-01-22T05:00:00,1951A,84.895,45.6094,克拉玛依市,长征新村,细颗粒物(PM2.5),85,89,115,63,87,82,76,70,70,18,31,10,12,0.7,0.7
2023-01-22T05:00:00,1952A,84.8988,45.5893,克拉玛依市,南林小区,细颗粒物(PM2.5),114,115,126,86,96,81,50,63,57,33,28,3,9,0.7,0.6
2023-01-22T05:00:00,1954A,84.905,44.3396,克拉玛依市,独山子区,,26,21,47,14,35,96,82,77,77,8,12,7,9,0.4,0.5
2023-01-22T05:00:00,1955A,85.6979,46.098,克拉玛依市,乌尔禾区商贸楼,颗粒物(PM10),56,61,80,32,72,81,52,50,44,18,22,12,17,0.4,0.6
2023-01-22T05:00:00,1956A,86.1472,41.7538,巴音郭楞州,孔雀公园,颗粒物(PM10),230,371,396,104,125,78,58,46,46,23,39,5,5,0.8,1
2023-01-22T05:00:00,1957A,86.1972,41.7166,巴音郭楞州,棉纺厂,颗粒物(PM10),322,437,475,104,126,81,17,27,12,76,51,2,3,0.6,0.7
2023-01-22T05:00:00,1958A,86.2357,41.7173,巴音郭楞州,经济开发区,颗粒物(PM10),195,340,377,73,106,82,71,60,60,16,26,3,3,0.8,0.8
2023-01-22T05:00:00,1961A,117.532,36.6868,济南市,东山小学,颗粒物(PM10),86,122,166,61,83,102,64,90,73,9,11,6,14,0.7,0.7
2023-01-22T05:00:00,1966A,120.0405,35.8735,青岛市,黄岛区4号,颗粒物(PM10),87,124,74,63,27,96,82,96,89,5,4,8,7,0.7,0.6
2023-01-22T05:00:00,1982A,122.0693,37.2174,威海市,文登开发区,颗粒物(PM10),53,56,50,34,26,83,64,66,66,9,12,5,5,0.3,0.3
2023-01-22T05:00:00,2031A,113.1817,27.9958,株洲市,云田中学,细颗粒物(PM2.5),190,158,160,143,112,62,52,55,55,14,17,5,10,0.7,0.8
2023-01-22T05:00:00,2054A,114.1099,32.1059,信阳市,平桥分局,细颗粒物(PM2.5),140,149,223,107,131,100,25,53,39,14,23,,23,1.3,1.1
2023-01-22T05:00:00,2064A,113.9956,32.1271,信阳市,南湾水厂,细颗粒物(PM2.5),201,210,154,151,92,103,71,84,77,14,16,14,11,1.0,1.1
2023-01-22T05:00:00,2065A,114.0775,32.1195,信阳市,市酿酒公司,细颗粒物(PM2.5),168,141,192,127,158,102,49,40,40,16,29,13,24,0.9,1.1
2023-01-22T05:00:00,2066A,114.0609,32.1399,信阳市,审计局,细颗粒物(PM2.5),221,194,211,171,160,100,56,40,40,13,27,16,23,0.9,1.2
2023-01-22T05:00:00,2067A,114.6613,33.6128,周口市,市环境监测站,细颗粒物(PM2.5),354,295,355,304,245,94,36,42,40,20,29,11,29,1.0,0.9
2023-01-22T05:00:00,2068A,114.6758,33.6347,周口市,周口师范,细颗粒物(PM2.5),327,299,265,277,181,102,46,54,48,22,26,13,15,0.7,0.7
2023-01-22T05:00:00,2069A,114.6546,33.5979,周口市,市运管处,细颗粒物(PM2.5),344,327,296,294,206,100,45,60,54,24,30,12,21,0.8,0.6
2023-01-22T05:00:00,2070A,114.6369,33.6406,周口市,川汇区环保局,细颗粒物(PM2.5),322,294,330,272,220,91,40,38,38,26,32,11,23,0.7,0.8
2023-01-22T05:00:00,2075A,117.6336,24.4674,漳州市,九湖,,,,,,,,,,,,,,,,
2023-01-22T05:00:00,2160A,112.85,35.5051,晋城市,自来水公司,细颗粒物(PM2.5),110,132,121,83,58,48,10,14,13,37,36,22,12,1.3,1.3
2023-01-22T05:00:00,2161A,112.8318,35.4936,晋城市,白云商贸,颗粒物(PM10),82,113,108,44,51,61,61,43,43,14,28,9,11,1.0,1.4
2023-01-22T05:00:00,2162A,112.8508,35.4887,晋城市,市环保局,细颗粒物(PM2.5),134,149,123,102,63,55,15,14,14,37,36,26,13,1.8,1.3
2023-01-22T05:00:00,2163A,112.8676,35.4897,晋城市,技术学院,细颗粒物(PM2.5),117,118,116,88,58,54,16,20,16,42,38,24,14,1.8,1.4
2023-01-22T05:00:00,2165A,112.8453,35.546,晋城市,白马寺 ,,,,,,,,,,,,,,,,
2023-01-22T05:00:00,2166A,112.4397,39.3522,朔州市,平朔,细颗粒物(PM2.5),172,146,151,130,126,80,30,31,27,31,30,60,40,1.5,0.9
2023-01-22T05:00:00,2167A,112.4575,39.3617,朔州市,朔唯,细颗粒物(PM2.5),139,139,159,106,110,86,29,20,20,28,27,67,45,1.3,0.7
2023-01-22T05:00:00,2168A,112.4258,39.3197,朔州市,区政府,细颗粒物(PM2.5),75,95,167,55,96,85,58,47,47,9,20,14,29,0.7,0.7
2023-01-22T05:00:00,2169A,112.4072,39.3278,朔州市,市环保局,颗粒物(PM10),65,79,129,32,70,83,68,68,68,4,14,12,18,0.6,0.6
2023-01-22T05:00:00,2170A,112.4272,39.3681,朔州市,市二中,细颗粒物(PM2.5),110,144,143,83,72,87,36,26,26,22,19,49,28,1.2,0.7
2023-01-22T05:00:00,2171A,112.7532,37.6945,晋中市,锦纶小区,细颗粒物(PM2.5),214,225,185,164,90,83,30,29,29,25,26,34,34,1.2,0.9
2023-01-22T05:00:00,2173A,112.7249,37.7067,晋中市,南都小区,颗粒物(PM10),170,289,268,102,173,80,26,18,18,26,34,48,44,1.3,1.1
2023-01-22T05:00:00,2174A,112.6991,37.6982,晋中市,榆次区政府,颗粒物(PM10),171,292,229,114,126,80,15,12,12,38,35,43,38,1.4,1
2023-01-22T05:00:00,2175A,110.9956,35.0147,运城市,运城中学,细颗粒物(PM2.5),243,287,228,193,132,64,38,29,29,19,26,24,20,1.7,1.9
2023-01-22T05:00:00,2178A,110.9686,35.0303,运城市,地区技校,细颗粒物(PM2.5),266,362,246,216,151,61,18,20,20,36,29,23,23,2.1,2
2023-01-22T05:00:00,2179A,111.0414,35.1147,运城市,空港新区,细颗粒物(PM2.5),320,355,233,270,137,64,14,17,14,28,27,18,15,1.9,1.6
2023-01-22T05:00:00,2181A,112.7383,38.4519,忻州市,开发区,细颗粒物(PM2.5),156,162,131,119,87,61,26,24,21,22,22,8,11,1.4,1.1
2023-01-22T05:00:00,2182A,112.7003,38.4928,忻州市,会展中心,细颗粒物(PM2.5),152,165,119,116,78,65,18,27,24,28,25,13,19,1.3,1
2023-01-22T05:00:00,2183A,111.1406,37.5211,吕梁市,环保局,颗粒物(PM10),69,88,129,36,58,60,34,31,31,16,31,10,16,0.6,0.6
2023-01-22T05:00:00,2185A,111.1297,37.5136,吕梁市,自来水公司,细颗粒物(PM2.5),107,141,144,80,66,53,17,16,16,22,30,18,21,0.7,0.7
2023-01-22T05:00:00,2187A,106.8174,39.6973,乌海市,市林业局,颗粒物(PM10),84,117,117,38,49,90,71,71,69,8,9,14,13,0.8,0.6
2023-01-22T05:00:00,2188A,106.7907,39.6667,乌海市,中海勃湾学校,颗粒物(PM10),79,107,114,45,44,92,56,74,59,22,15,14,11,0.5,0.4
2023-01-22T05:00:00,2191A,122.2532,43.6801,通辽市,艺术职业学校,细颗粒物(PM2.5),93,101,93,69,60,49,36,34,34,15,17,8,13,0.7,0.8
2023-01-22T05:00:00,2192A,119.7594,49.2261,呼伦贝尔市,区环保局,,36,36,51,25,37,60,53,55,55,5,9,5,6,0.1,0
2023-01-22T05:00:00,2195A,107.4212,40.761,巴彦淖尔市,附二中,颗粒物(PM10),81,112,144,44,44,90,80,80,80,3,6,3,4,0.4,0.4
2023-01-22T05:00:00,2196A,107.37,40.7372,巴彦淖尔市,市环保大楼,颗粒物(PM10),88,125,128,46,45,91,73,77,75,6,7,4,4,0.5,0.5
2023-01-22T05:00:00,2197A,113.1306,40.9923,乌兰察布市,集宁新区,细颗粒物(PM2.5),362,456,196,312,106,76,36,16,16,2,12,14,38,0.1,0.8
2023-01-22T05:00:00,2200A,122.0392,46.0656,兴安盟,胜华新制药厂,颗粒物(PM10),55,59,89,30,71,55,53,53,53,7,13,5,13,0.3,0.4
2023-01-22T05:00:00,2201A,121.9504,46.0741,兴安盟,科右前旗环保局,颗粒物(PM10),53,56,66,36,56,55,55,53,53,8,13,4,9,0.5,0.6
2023-01-22T05:00:00,2202A,116.1042,43.9317,锡林郭勒盟,市环保监测站,细颗粒物(PM2.5),68,55,114,49,58,67,50,44,44,2,6,7,13,0.3,0.3
2023-01-22T05:00:00,2203A,116.0781,43.9311,锡林郭勒盟,市政府,颗粒物(PM10),81,112,188,28,109,66,44,36,36,10,14,8,21,0.2,0.3
2023-01-22T05:00:00,2204A,105.6467,38.8363,阿拉善盟,西城区西花园,颗粒物(PM10),73,96,136,47,51,90,81,73,73,6,12,7,14,0.5,0.5
2023-01-22T05:00:00,2205A,105.6985,38.8411,阿拉善盟,蒙二幼,细颗粒物(PM2.5),130,120,130,99,71,91,83,69,69,6,14,11,18,0.4,0.5
2023-01-22T05:00:00,2206A,105.724,38.8516,阿拉善盟,环保局新楼,细颗粒物(PM2.5),90,100,84,67,58,95,89,79,78,4,7,5,8,0.5,0.5
2023-01-22T05:00:00,2207A,121.6094,41.998,阜新市,工业园区,细颗粒物(PM2.5),165,91,139,125,79,64,36,37,36,7,12,13,26,0.6,0.6
2023-01-22T05:00:00,2208A,121.6697,42.0279,阜新市,长青街,细颗粒物(PM2.5),142,150,103,108,62,66,37,42,39,9,16,81,34,0.7,0.8
2023-01-22T05:00:00,2209A,121.6673,42.0705,阜新市,农业园区,细颗粒物(PM2.5),105,73,81,79,44,67,37,45,41,8,10,10,19,0.7,0.7
2023-01-22T05:00:00,2210A,121.6717,42.0224,阜新市,东苑,细颗粒物(PM2.5),172,106,165,130,90,68,35,39,37,4,12,138,49,0.8,0.8
2023-01-22T05:00:00,2211A,121.6506,42.0498,阜新市,玉龙新城,细颗粒物(PM2.5),112,90,97,84,63,73,38,44,41,6,9,7,18,0.6,0.6
2023-01-22T05:00:00,2212A,123.2,41.1953,辽阳市,宏伟区,细颗粒物(PM2.5),148,76,91,113,46,67,31,47,43,15,9,9,15,0.9,0.6
2023-01-22T05:00:00,2213A,123.1683,41.2495,辽阳市,新华园,细颗粒物(PM2.5),332,272,138,282,100,72,25,38,30,23,13,16,23,1.2,0.7
2023-01-22T05:00:00,2214A,123.2354,41.2639,辽阳市,滨河路,细颗粒物(PM2.5),226,216,96,176,78,68,31,46,26,18,13,7,12,1.0,0.7
2023-01-22T05:00:00,2215A,123.149,41.2991,辽阳市,铁西工业园,细颗粒物(PM2.5),349,238,144,299,124,64,6,10,9,34,18,10,14,2.3,0.9
2023-01-22T05:00:00,2216A,123.8139,42.3022,铁岭市,汇工街西,细颗粒物(PM2.5),204,156,104,154,63,66,17,24,19,23,16,7,10,1.1,0.7
2023-01-22T05:00:00,2217A,123.8649,42.2923,铁岭市,水上乐园,细颗粒物(PM2.5),208,259,164,158,87,66,14,24,17,22,14,6,13,1.1,0.6
2023-01-22T05:00:00,2218A,123.8486,42.2867,铁岭市,银州路东段,细颗粒物(PM2.5),294,239,159,244,126,69,13,19,14,22,17,10,21,0.9,0.6
2023-01-22T05:00:00,2219A,123.7153,42.2217,铁岭市,金沙江路北,细颗粒物(PM2.5),215,172,125,165,70,69,18,24,21,19,14,8,12,1.1,0.8
2023-01-22T05:00:00,2220A,120.4318,41.5881,朝阳市,西梁,细颗粒物(PM2.5),289,226,207,239,126,80,34,46,42,18,20,44,59,1.1,0.8
2023-01-22T05:00:00,2221A,120.4521,41.5646,朝阳市,河畔小区,细颗粒物(PM2.5),104,108,142,78,81,67,42,39,39,9,14,44,35,1.0,1
2023-01-22T05:00:00,2222A,120.4176,41.5648,朝阳市,八里堡,细颗粒物(PM2.5),332,193,249,282,127,76,29,48,44,20,24,40,78,1.6,1.1
2023-01-22T05:00:00,2223A,120.3806,41.5969,朝阳市,农业园区,细颗粒物(PM2.5),202,202,192,152,118,80,33,27,27,12,15,27,40,1.2,1
2023-01-22T05:00:00,2225A,124.4002,43.1713,四平市,一商场,细颗粒物(PM2.5),199,173,121,149,78,63,22,35,32,13,11,8,16,0.8,0.6
2023-01-22T05:00:00,2226A,124.388,43.193,四平市,境园,细颗粒物(PM2.5),172,157,100,130,67,69,25,30,29,14,10,12,14,0.8,0.6
2023-01-22T05:00:00,2227A,125.1358,42.8845,辽源市,环保局,细颗粒物(PM2.5),300,296,119,250,96,73,11,20,15,32,19,14,43,1.6,1
2023-01-22T05:00:00,2229A,125.9358,41.7173,通化市,光明,细颗粒物(PM2.5),358,368,253,308,199,71,15,13,13,29,28,15,57,0.8,1
2023-01-22T05:00:00,2230A,125.9446,41.7325,通化市,铁路,细颗粒物(PM2.5),276,270,202,226,152,73,15,11,11,29,28,13,44,1.0,1
2023-01-22T05:00:00,2231A,126.4219,41.9171,白山市,喜丰,细颗粒物(PM2.5),261,296,98,211,59,69,26,48,34,26,18,24,23,1.1,0.8
2023-01-22T05:00:00,2232A,126.4077,41.9419,白山市,环保局,细颗粒物(PM2.5),476,515,197,464,107,60,11,7,7,33,29,31,66,1.4,1.2
2023-01-22T05:00:00,2233A,124.8006,45.1214,松原市,江南,细颗粒物(PM2.5),216,89,120,166,95,46,36,39,36,15,23,15,25,0.7,0.8
2023-01-22T05:00:00,2234A,124.7965,45.1722,松原市,江北,细颗粒物(PM2.5),108,100,100,81,78,44,40,44,41,10,14,9,11,0.8,0.8
2023-01-22T05:00:00,2235A,122.7911,45.6077,白城市,洮北区环保局,,,,85,,51,52,,52,,,14,,11,,0.5
2023-01-22T05:00:00,2236A,122.8738,45.5725,白城市,市环保局,颗粒物(PM10),55,59,71,37,36,56,47,49,49,13,14,10,10,0.6,0.7
2023-01-22T05:00:00,2237A,129.47,42.8883,延边朝鲜族自治州,妇幼医院,细颗粒物(PM2.5),75,77,74,55,48,51,33,28,28,14,26,13,30,0.8,0.8
2023-01-22T05:00:00,2238A,129.5055,42.9108,延边朝鲜族自治州,延边医院,细颗粒物(PM2.5),128,86,154,97,105,45,20,21,20,28,31,35,40,0.7,0.8
2023-01-22T05:00:00,2239A,129.3964,42.8881,延边朝鲜族自治州,朝阳川镇医院,细颗粒物(PM2.5),64,59,53,46,35,57,31,34,33,10,13,6,16,0.7,0.7
2023-01-22T05:00:00,2240A,130.9762,45.3001,鸡西市,环保局,细颗粒物(PM2.5),57,51,92,40,66,55,44,53,51,17,22,11,21,0.6,0.9
2023-01-22T05:00:00,2243A,130.9429,45.3039,鸡西市,第一中学,细颗粒物(PM2.5),72,58,94,52,70,54,48,49,48,6,10,12,17,0.5,0.5
2023-01-22T05:00:00,2244A,130.2537,47.3416,鹤岗市,哈啤分公司,,22,21,45,15,34,56,55,56,55,4,10,9,20,0.2,0.4
2023-01-22T05:00:00,2245A,130.2684,47.3086,鹤岗市,斯达机电,,32,30,60,22,44,62,62,61,61,2,13,9,23,0.2,0.3
2023-01-22T05:00:00,2246A,130.3114,47.3388,鹤岗市,东山纸板厂,,32,32,59,15,37,57,56,56,56,5,6,16,24,0.2,0.4
2023-01-22T05:00:00,2247A,130.1097,47.3382,鹤岗市,五号水库,,23,17,26,16,22,60,60,60,60,3,6,5,7,0.3,0.4
2023-01-22T05:00:00,2248A,131.1511,46.6937,双鸭山市,双合村,,49,12,67,34,50,57,52,48,48,5,14,9,15,0.3,0.7
2023-01-22T05:00:00,2249A,131.1652,46.6191,双鸭山市,南小市,细颗粒物(PM2.5),84,95,95,62,62,54,39,40,40,14,18,16,22,0.6,0.8
2023-01-22T05:00:00,2250A,131.1524,46.6554,双鸭山市,环保局,,48,45,101,33,84,57,55,49,49,5,18,6,17,0.4,1
2023-01-22T05:00:00,2251A,131.12,46.5656,双鸭山市,苗圃,细颗粒物(PM2.5),79,55,53,58,45,58,51,50,50,15,19,8,18,0.4,0.7
2023-01-22T05:00:00,2252A,128.5159,47.4311,伊春市,环保局,,25,25,46,4,32,52,50,50,50,3,7,4,11,0.5,0.5
2023-01-22T05:00:00,2253A,128.9102,47.7412,伊春市,电力嘉园,细颗粒物(PM2.5),52,38,62,36,53,54,54,54,54,2,5,8,21,0.8,0.8
2023-01-22T05:00:00,2254A,129.5029,48.471,伊春市,汤旺河国家公园,,,,17,,9,58,38,42,40,2,2,4,6,0.2,0.2
2023-01-22T05:00:00,2255A,130.2751,46.8028,佳木斯市,佳纺,细颗粒物(PM2.5),58,52,74,41,65,52,51,50,48,8,13,3,11,0.4,0.6
2023-01-22T05:00:00,2256A,130.3995,46.8307,佳木斯市,发电厂,细颗粒物(PM2.5),67,50,39,48,35,57,45,50,47,9,13,8,11,0.6,0.5
2023-01-22T05:00:00,2257A,130.3258,46.7975,佳木斯市,环保局,细颗粒物(PM2.5),74,59,72,54,62,49,38,48,44,17,17,10,19,0.4,0.4
2023-01-22T05:00:00,2258A,130.3648,46.8032,佳木斯市,十一中,细颗粒物(PM2.5),52,48,56,36,48,46,42,44,44,14,18,7,6,0.5,0.5
2023-01-22T05:00:00,2259A,130.3794,46.7588,佳木斯市,四丰,细颗粒物(PM2.5),64,51,42,46,36,106,92,89,89,5,8,1,1,0.8,0.6
2023-01-22T05:00:00,2262A,131.0518,45.8751,七台河市,新一中,,23,18,36,16,29,70,58,61,61,6,8,8,11,0.9,0.7
2023-01-22T05:00:00,2263A,127.4833,50.2524,黑河市,交通局,,28,28,53,15,39,54,51,48,48,6,16,9,18,0.4,0.6
2023-01-22T05:00:00,2264A,127.5144,50.2341,黑河市,环保局,,35,17,97,24,65,53,53,50,50,3,16,8,25,0.2,0.5
2023-01-22T05:00:00,2265A,127.5291,50.2472,黑河市,大黑河岛,,43,12,28,30,31,113,53,52,52,2,4,3,8,0.4,0.4
2023-01-22T05:00:00,2266A,126.9785,46.6365,绥化市,人和东街,,33,29,70,23,54,66,54,51,51,4,11,3,11,0.4,0.5
2023-01-22T05:00:00,2267A,126.964,46.6528,绥化市,党政办公中心,,38,35,72,26,57,60,50,49,49,2,10,2,11,0.4,0.6
2023-01-22T05:00:00,2269A,124.1069,50.4097,大兴安岭地区,科技局,细颗粒物(PM2.5),62,43,41,44,38,50,35,35,35,10,10,18,15,0.4,0.4
2023-01-22T05:00:00,2270A,117.396,32.939,蚌埠市,工人疗养院,细颗粒物(PM2.5),129,132,132,98,82,103,49,56,54,12,17,3,7,0.7,0.6
2023-01-22T05:00:00,2271A,117.3605,32.9427,蚌埠市,百货大楼,细颗粒物(PM2.5),113,117,138,85,77,101,48,49,49,16,22,8,10,0.7,0.6
2023-01-22T05:00:00,2273A,117.4185,32.8911,蚌埠市,蚌埠学院,细颗粒物(PM2.5),110,134,120,83,56,107,32,59,50,30,15,6,8,0.7,0.6
2023-01-22T05:00:00,2274A,117.3533,32.9673,蚌埠市,淮上区政府,细颗粒物(PM2.5),110,129,151,83,79,98,55,53,53,11,19,8,11,0.7,0.6
2023-01-22T05:00:00,2275A,117.3145,32.8977,蚌埠市,高新区,细颗粒物(PM2.5),122,119,118,92,65,101,41,54,44,30,17,6,8,0.6,0.6
2023-01-22T05:00:00,2277A,116.8305,32.7727,淮南市,潘集区政府,细颗粒物(PM2.5),189,185,162,142,101,94,31,48,42,12,13,4,10,0.5,0.6
2023-01-22T05:00:00,2278A,117.0067,32.6524,淮南市,师范学院,颗粒物(PM10),73,95,134,50,71,92,48,54,50,9,15,8,11,0.5,0.6
2023-01-22T05:00:00,2279A,116.8569,32.5951,淮南市,谢家集区政府,细颗粒物(PM2.5),87,92,117,64,60,100,52,65,59,11,13,6,10,0.4,0.5
2023-01-22T05:00:00,2280A,116.8281,32.633,淮南市,八公山区政府,细颗粒物(PM2.5),105,119,129,79,75,99,42,60,53,6,12,8,11,0.5,0.6
2023-01-22T05:00:00,2281A,116.6325,32.6201,淮南市,焦岗湖风景区管理处,,,,98,,48,40,,42,,,2,,2,,1.1
2023-01-22T05:00:00,2282A,116.8004,33.975,淮北市,监测站,细颗粒物(PM2.5),130,164,149,99,77,99,78,78,78,5,13,9,11,0.7,0.7
2023-01-22T05:00:00,2283A,116.8091,33.9007,淮北市,烈山区政府,细颗粒物(PM2.5),120,135,136,91,76,101,72,84,78,14,16,5,8,0.6,0.6
2023-01-22T05:00:00,2284A,116.7856,33.9477,淮北市,职业技术学院,细颗粒物(PM2.5),144,167,150,110,87,99,73,82,78,12,16,8,11,0.5,0.4
2023-01-22T05:00:00,2285A,117.8177,30.9412,铜陵市,市第四中学,细颗粒物(PM2.5),98,124,146,73,67,100,42,60,53,34,27,7,10,0.6,0.6
2023-01-22T05:00:00,2286A,117.8059,30.9273,铜陵市,市公路局,细颗粒物(PM2.5),107,97,134,80,76,90,46,55,52,17,19,3,5,0.6,0.6
2023-01-22T05:00:00,2287A,117.7807,30.9413,铜陵市,市新民污水厂,颗粒物(PM10),87,124,142,62,61,102,52,66,60,16,20,5,6,0.7,0.6
2023-01-22T05:00:00,2288A,117.7439,30.8792,铜陵市,市第九中学,细颗粒物(PM2.5),92,105,141,68,76,96,59,62,62,10,15,6,10,0.8,0.7
2023-01-22T05:00:00,2289A,117.846,30.9413,铜陵市,车站新区,细颗粒物(PM2.5),93,131,130,69,64,99,55,58,57,10,13,9,11,0.6,0.6
2023-01-22T05:00:00,2290A,117.8483,30.97,铜陵市,市职教基地,细颗粒物(PM2.5),94,104,132,70,74,98,54,60,57,15,17,7,10,0.5,0.5
2023-01-22T05:00:00,2291A,117.0809,30.5177,安庆市,环科院,细颗粒物(PM2.5),93,98,182,69,105,102,80,73,73,10,20,7,10,0.5,0.7
2023-01-22T05:00:00,2292A,117.0331,30.5119,安庆市,马山宾馆,细颗粒物(PM2.5),90,90,186,67,101,100,81,72,72,6,19,6,10,0.4,0.6
2023-01-22T05:00:00,2294A,116.9896,30.6145,安庆市,安庆大学,细颗粒物(PM2.5),90,91,186,67,115,101,78,76,76,8,15,7,11,0.5,0.8
2023-01-22T05:00:00,2295A,118.2903,29.6963,黄山市,延安路89号,细颗粒物(PM2.5),309,344,213,259,166,101,21,20,18,12,13,10,16,0.6,0.5
2023-01-22T05:00:00,2296A,118.327,29.7178,黄山市,黄山东路89号,细颗粒物(PM2.5),323,287,161,273,131,96,11,29,17,20,17,13,15,0.7,0.6
2023-01-22T05:00:00,2297A,118.1371,30.2756,黄山市,黄山区政府5号楼,颗粒物(PM10),67,84,96,42,48,102,60,58,58,7,9,6,8,0.6,0.6
2023-01-22T05:00:00,2298A,118.3093,32.3153,滁州市,老年大学,细颗粒物(PM2.5),123,107,114,93,67,106,51,60,54,13,19,4,7,0.6,0.7
2023-01-22T05:00:00,2299A,118.3244,32.2786,滁州市,人大宾馆,细颗粒物(PM2.5),125,121,111,95,57,103,46,58,50,16,18,4,6,0.6,0.5
2023-01-22T05:00:00,2301A,115.8277,32.8929,阜阳市,市监测站,细颗粒物(PM2.5),456,472,195,434,144,102,21,43,25,28,22,32,15,1.2,0.8
2023-01-22T05:00:00,2303A,115.8554,32.8605,阜阳市,开发区,颗粒物(PM10),423,523,182,301,79,107,24,71,42,28,19,24,10,1.3,0.8
2023-01-22T05:00:00,2307A,116.5079,31.737,六安市,监测大楼,细颗粒物(PM2.5),67,61,118,48,73,105,55,76,70,7,12,5,7,0.4,0.5
2023-01-22T05:00:00,2308A,116.4738,31.7643,六安市,皖西学院,细颗粒物(PM2.5),92,100,129,68,65,106,60,82,69,6,12,8,6,0.3,0.5
2023-01-22T05:00:00,2309A,116.4996,31.7905,六安市,朝阳厂,细颗粒物(PM2.5),135,109,123,103,79,102,65,73,65,8,14,14,7,0.5,0.6
2023-01-22T05:00:00,2310A,116.5567,31.7886,六安市,开发区,细颗粒物(PM2.5),77,92,133,56,66,104,51,70,62,5,12,6,10,0.4,0.5
2023-01-22T05:00:00,2311A,115.8072,33.8399,亳州市,污水处理厂,细颗粒物(PM2.5),145,170,150,111,85,95,58,60,60,12,15,6,7,0.6,0.6
2023-01-22T05:00:00,2312A,115.7789,33.8518,亳州市,三国揽胜宫,细颗粒物(PM2.5),149,189,177,114,99,105,58,60,60,9,9,6,8,0.8,0.7
2023-01-22T05:00:00,2314A,117.47,30.6618,池州市,池州学院,细颗粒物(PM2.5),105,106,190,79,116,103,68,53,53,5,14,6,10,0.5,0.7
2023-01-22T05:00:00,2316A,118.7581,30.9454,宣城市,鳌峰子站,细颗粒物(PM2.5),112,131,126,84,57,94,56,62,57,10,11,8,8,0.5,0.6
2023-01-22T05:00:00,2317A,118.7385,30.9743,宣城市,敬亭山子站,细颗粒物(PM2.5),112,110,124,84,53,106,46,52,45,15,16,6,6,0.4,0.5
2023-01-22T05:00:00,2318A,118.7173,30.9427,宣城市,开发区子站,细颗粒物(PM2.5),105,103,118,79,57,102,53,68,61,10,11,4,5,0.4,0.5
2023-01-22T05:00:00,2319A,119.0141,25.4325,莆田市,荔城区仓后路,细颗粒物(PM2.5),304,262,88,254,62,92,32,62,42,12,10,9,7,0.9,0.7
2023-01-22T05:00:00,2320A,119.0015,25.4553,莆田市,莆田市监测站,,29,17,49,20,30,96,64,72,69,4,5,5,6,0.5,0.6
2023-01-22T05:00:00,2321A,119.1119,25.4561,莆田市,涵江区六中,细颗粒物(PM2.5),82,55,85,60,68,86,33,54,46,12,12,5,6,0.7,0.7
2023-01-22T05:00:00,2322A,119.1013,25.3215,莆田市,秀屿区政府,细颗粒物(PM2.5),232,134,103,182,82,94,38,57,48,12,11,8,7,0.9,0.7
2023-01-22T05:00:00,2323A,118.981,25.4792,莆田市,东圳水库,,,,,,,,,,,,,,,,
2023-01-22T05:00:00,2324A,117.6211,26.2625,三明市,三钢,,45,12,63,31,47,89,60,62,62,5,7,6,15,0.4,0.4
2023-01-22T05:00:00,2325A,117.635,26.2714,三明市,三明二中,,,,60,29,40,83,56,58,58,8,10,3,11,0.4,0.3
2023-01-22T05:00:00,2326A,117.6028,26.2378,三明市,三元区政府,,38,23,64,26,53,87,56,63,61,7,9,3,9,0.7,0.6
2023-01-22T05:00:00,2327A,117.7275,26.3108,三明市,洋溪,,,,,,,,,,,,,,,,
2023-01-22T05:00:00,2331A,118.0966,26.6761,南平市,茫荡山,,,,,,,,,,,,,,,,
2023-01-22T05:00:00,2332A,118.1681,26.6369,南平市,南平市监测站,细颗粒物(PM2.5),52,28,84,36,67,90,53,50,50,5,9,4,11,0.3,0.3
2023-01-22T05:00:00,2333A,118.1825,26.6489,南平市,南平铝业有限公司,,35,27,83,24,63,91,55,53,53,3,5,7,13,0.4,0.4
2023-01-22T05:00:00,2334A,118.1756,26.6272,南平市,南平七中,,34,34,59,20,40,97,57,53,53,6,7,4,7,0.4,0.4
2023-01-22T05:00:00,2335A,117.0189,25.1181,龙岩市,龙岩师专,,,,,,,,,,,,,,,,
2023-01-22T05:00:00,2336A,117.0217,25.1033,龙岩市,龙岩市监测站,,46,27,54,32,47,67,36,41,39,8,10,6,16,0.5,0.5
2023-01-22T05:00:00,2337A,117.0258,25.0661,龙岩市,闽西职业技术学院,细颗粒物(PM2.5),55,54,78,39,73,65,36,35,35,5,8,10,24,0.5,0.6
2023-01-22T05:00:00,2338A,117.0196,25.0306,龙岩市,龙岩学院,细颗粒物(PM2.5),105,77,70,79,60,63,36,36,36,8,10,11,10,0.4,0.4
2023-01-22T05:00:00,2339A,119.5001,26.6946,宁德市,金涵水库,,,,,,,,,,,,,,,,
2023-01-22T05:00:00,2341A,119.5388,26.6612,宁德市,宁德市监测站,细颗粒物(PM2.5),300,239,121,250,96,83,20,28,25,17,16,14,11,0.7,0.7
2023-01-22T05:00:00,2342A,117.3102,29.3867,景德镇市,王港中学,细颗粒物(PM2.5),90,79,129,67,80,96,26,41,29,3,9,4,31,0.1,0.3
2023-01-22T05:00:00,2343A,117.2117,29.2933,景德镇市,老干部活动中心,颗粒物(PM10),99,147,206,2,87,79,40,34,34,9,15,9,20,0.7,0.6
2023-01-22T05:00:00,2344A,117.1894,29.2789,景德镇市,兽医站,细颗粒物(PM2.5),114,142,207,86,144,87,43,40,40,6,14,12,44,0.4,0.6
2023-01-22T05:00:00,2345A,117.1547,29.2617,景德镇市,台达陶瓷,细颗粒物(PM2.5),132,129,191,100,137,84,42,37,37,8,14,18,46,0.7,0.8
2023-01-22T05:00:00,2346A,117.2461,29.2956,景德镇市,陶研所,细颗粒物(PM2.5),119,126,174,90,116,86,33,34,34,3,11,4,10,0.6,0.6
2023-01-22T05:00:00,2347A,114.0997,27.5002,萍乡市,武功山,细颗粒物(PM2.5),119,113,94,90,68,75,32,34,30,14,14,10,10,0.6,0.6
2023-01-22T05:00:00,2348A,113.8385,27.6434,萍乡市,中医院,细颗粒物(PM2.5),340,396,134,290,94,79,12,46,32,21,12,33,14,2.7,1
2023-01-22T05:00:00,2349A,113.8493,27.6253,萍乡市,市政府车库,细颗粒物(PM2.5),318,332,157,268,103,83,18,34,26,15,18,20,14,1.0,1.2
2023-01-22T05:00:00,2350A,113.8676,27.6435,萍乡市,市环保局,细颗粒物(PM2.5),384,400,142,334,97,83,16,53,34,20,14,49,25,1.6,0.8
2023-01-22T05:00:00,2351A,113.866,27.6198,萍乡市,安源区政府,细颗粒物(PM2.5),284,276,139,234,100,78,22,38,28,16,19,26,22,0.6,0.7
2023-01-22T05:00:00,2352A,115.0861,27.9317,新余市,北岗,细颗粒物(PM2.5),192,170,114,144,80,70,29,30,29,14,15,14,14,0.7,0.7
2023-01-22T05:00:00,2353A,114.9886,27.8431,新余市,飞宇,细颗粒物(PM2.5),132,176,125,100,60,69,38,44,40,11,15,14,23,0.8,0.8
2023-01-22T05:00:00,2354A,114.9231,27.8246,新余市,第二水厂,细颗粒物(PM2.5),107,132,138,80,67,69,43,41,41,9,16,8,12,0.4,0.5
2023-01-22T05:00:00,2355A,114.9308,27.8036,新余市,市气象局,细颗粒物(PM2.5),99,112,116,74,66,74,55,56,54,6,13,10,14,0.5,0.7
2023-01-22T05:00:00,2357A,116.9822,28.1136,鹰潭市,龙虎山,细颗粒物(PM2.5),133,147,93,101,48,103,24,46,37,4,3,3,6,0.7,0.6
2023-01-22T05:00:00,2358A,117.0564,28.2642,鹰潭市,新监测站,细颗粒物(PM2.5),107,108,112,80,71,96,56,59,57,4,7,11,14,0.5,0.5
2023-01-22T05:00:00,2359A,117.0311,28.2475,鹰潭市,财苑宾馆,细颗粒物(PM2.5),98,105,112,73,72,97,53,58,55,8,10,10,11,0.5,0.6
2023-01-22T05:00:00,2360A,117.0222,28.2264,鹰潭市,体育馆,细颗粒物(PM2.5),104,106,112,78,77,94,53,51,51,7,11,20,16,0.4,0.5
2023-01-22T05:00:00,2361A,117.0017,28.2131,鹰潭市,三川水表,细颗粒物(PM2.5),140,145,109,107,67,96,41,51,48,7,8,25,8,0.8,0.7
