timepoint,stationcode,longitude,latitude,area,positionname,primarypollutant,aqi,pm10,pm10_24h,pm2_5,pm2_5_24h,o3,o3_24h,o3_8h,o3_8h_24h,no2,no2_24h,so2,so2_24h,co,co_24h
2025-07-18T2300,2566A,102.1879,31.914,阿坝藏族羌族自治州,州农科所,,21,21,33,3,13,34,,67,57,5,7,14,14,0.8,1
2025-07-18T2300,2568A,102.2502,31.8896,阿坝藏族羌族自治州,马师校,,36,,19,25,21,15,,73,52,8,8,7,7,0.7,0.7
2025-07-18T2300,3994A,102.2165,31.9024,阿坝藏族羌族自治州,马尔康中学西区,,19,,17,13,15,22,,79,63,6,6,7,7,0.7,0.7
2025-07-18T2300,2695A,80.292,41.1694,阿克苏地区,电视台,颗粒物(PM10),120,190,96,74,36,,,130,,,9,3,6,0.6,0.4
2025-07-18T2300,2696A,80.2613,41.1551,阿克苏地区,艺术中心,颗粒物(PM10),126,201,105,72,51,54,,133,117,34,7,3,3,0.5,0.5
2025-07-18T2300,2204A,105.6467,38.8363,阿拉善盟,西城区西花园,细颗粒物(PM2.5),63,,35,45,16,99,,123,110,11,12,7,7,0.8,0.7
2025-07-18T2300,2205A,105.6985,38.8411,阿拉善盟,蒙二幼,,33,26,37,23,17,104,,128,112,9,11,8,9,0.5,0.5
2025-07-18T2300,2206A,105.724,38.8516,阿拉善盟,环保局新楼,,32,32,33,19,16,78,,121,87,6,6,10,11,0.6,0.8
2025-07-18T2300,2708A,88.1264,47.8517,阿勒泰地区,市站,,22,19,19,6,4,69,,107,101,25,12,1,2,0.2,0.2
2025-07-18T2300,2630A,80.1161,32.5,阿里地区,阿里监测站,,20,6,1,3,2,64,,96,76,11,6,6,6,0.2,0.2
2025-07-18T2300,3192A,80.0903,32.5028,阿里地区,阿里藏医院,,25,7,5,3,2,78,,113,88,3,3,6,6,0.3,0.4
2025-07-18T2300,2642A,109.0318,32.6537,安康市,香溪洞,,26,19,23,9,9,82,,103,96,3,5,6,8,0.5,0.5
2025-07-18T2300,2644A,109.0072,32.6975,安康市,汉滨区检察院,,22,22,20,12,10,45,,86,78,6,5,37,6,0.7,0.7
2025-07-18T2300,4054A,109.0325,32.6913,安康市,市邮政管理局,,20,20,24,10,12,60,,95,87,7,6,4,7,0.5,0.5
2025-07-18T2300,2291A,117.0809,30.5177,安庆市,环科院,,45,23,33,18,26,141,,170,153,5,4,4,4,0.6,0.7
2025-07-18T2300,2292A,117.0331,30.5119,安庆市,马山宾馆,,45,29,32,14,25,141,,159,146,7,6,3,3,0.4,0.6
2025-07-18T2300,2294A,116.9896,30.6145,安庆市,安庆大学,,39,24,27,16,22,124,,154,144,8,6,3,3,0.5,0.5
2025-07-18T2300,3173A,117.0598,30.5351,安庆市,市人大,,46,26,31,18,24,145,,167,153,10,8,3,3,0.7,0.7
2025-07-18T2300,3123A,105.9408,26.2431,安顺市,凤凰山,,25,21,18,17,13,62,,91,79,6,7,4,4,0.6,0.6
2025-07-18T2300,3124A,105.9439,26.2564,安顺市,金钟山,,25,24,20,17,15,58,,96,77,5,5,5,6,0.4,0.4
2025-07-18T2300,3125A,105.8983,26.2481,安顺市,娄家坡,,17,12,14,10,12,52,,88,70,5,4,7,5,0.4,0.4
2025-07-18T2300,1819A,114.3551,36.1017,安阳市,红庙街,,45,38,44,12,23,142,,176,158,13,11,4,4,0.4,0.6
2025-07-18T2300,1820A,114.361,36.0681,安阳市,银杏小区,,39,29,48,25,30,123,,165,146,9,9,5,6,0.4,0.6
2025-07-18T2300,3141A,114.3922,36.0878,安阳市,信访局,,47,36,42,6,16,148,,182,166,19,12,6,6,0.6,0.7
2025-07-18T2300,3669A,114.4705,36.0637,安阳市,左辅环卫站,,43,43,48,18,28,98,,159,139,26,12,5,5,0.7,0.8
2025-07-18T2300,3703A,114.2917,36.0949,安阳市,安钢职工学校,,40,32,54,16,30,126,,164,149,7,6,1,3,0.4,0.6
2025-07-18T2300,1748A,123.044,41.1196,鞍山市,深沟寺,,32,32,44,16,25,32,,70,58,12,25,3,5,1.0,1.4
2025-07-18T2300,1749A,123.011,41.0931,鞍山市,太阳城,,38,38,56,18,31,54,,95,73,10,23,6,7,1.0,1.5
2025-07-18T2300,1750A,123.0485,41.1442,鞍山市,太平,,36,36,58,20,32,54,,110,87,12,25,5,7,1.0,1.4
2025-07-18T2300,1751A,122.9642,41.0971,鞍山市,铁西三道街,,49,45,59,34,42,32,,92,67,32,33,4,7,1.5,1.4
2025-07-18T2300,1753A,123.022,41.0821,鞍山市,明达新区,,26,26,47,18,32,52,,104,83,8,22,4,6,1.0,1.5
2025-07-18T2300,4201A,122.9446,41.0826,鞍山市,兴盛南路290号,,37,37,58,24,31,46,,105,79,31,34,7,8,1.2,1.3
2025-07-18T2300,2195A,107.4212,40.761,巴彦淖尔市,附二中,,32,14,34,11,18,102,,152,128,6,10,5,7,0.5,0.6
2025-07-18T2300,2196A,107.37,40.7372,巴彦淖尔市,市环保大楼,,39,39,46,21,19,96,,147,125,9,12,5,6,0.5,0.5
2025-07-18T2300,1956A,86.1472,41.7538,巴音郭楞蒙古自治州,孔雀公园,颗粒物(PM10),77,104,36,28,16,52,,115,106,60,9,3,2,0.7,0.3
2025-07-18T2300,1957A,86.1972,41.7166,巴音郭楞蒙古自治州,棉纺厂,颗粒物(PM10),75,100,47,29,10,54,,127,117,64,12,4,4,0.8,0.2
2025-07-18T2300,1958A,86.2357,41.7173,巴音郭楞蒙古自治州,经济开发区,颗粒物(PM10),61,72,27,15,8,61,,121,111,28,6,2,3,0.3,0.2
2025-07-18T2300,2914A,106.7677,31.8794,巴中市,苏山坪,,22,22,21,15,16,61,,83,78,6,6,4,4,0.4,0.4
2025-07-18T2300,3181A,106.7768,31.8526,巴中市,市五中,,24,24,21,14,12,51,,92,80,8,8,8,8,0.5,0.5
2025-07-18T2300,3183A,106.7418,31.8654,巴中市,圣泉水务公司,,,21,17,14,10,,,75,,6,4,6,6,0.6,0.6
2025-07-18T2300,3616A,106.7616,31.8344,巴中市,市中心医院,,22,22,20,12,12,36,,91,78,20,8,8,8,0.4,0.3
2025-07-18T2300,2235A,122.7911,45.6077,白城市,洮北区环保局,,33,,10,23,14,72,,96,80,5,4,2,5,0.3,0.3
2025-07-18T2300,2236A,122.8738,45.5725,白城市,市环保局,,24,24,21,11,9,36,,103,70,25,7,5,4,0.5,0.5
2025-07-18T2300,2231A,126.4219,41.9171,白山市,喜丰,,18,18,21,6,7,14,,75,41,13,13,5,5,0.5,0.6
2025-07-18T2300,2232A,126.4077,41.9419,白山市,环保局,,28,28,20,10,5,17,,82,40,11,10,3,3,0.8,0.6
2025-07-18T2300,2647A,104.1724,36.5446,白银市,第三小学,颗粒物(PM10),187,324,85,71,31,106,,108,108,4,12,5,31,0.4,0.8
2025-07-18T2300,2648A,104.1465,36.5482,白银市,动力公司,颗粒物(PM10),165,280,75,97,30,102,,102,102,5,10,8,13,0.3,0.5
2025-07-18T2300,2512A,106.6103,23.9011,百色市,市监测站,,36,34,41,25,21,36,,149,95,22,14,5,8,0.6,0.6
2025-07-18T2300,2513A,106.6538,23.8859,百色市,市中心血站,"颗粒物(PM10),细颗粒物(PM2.5)",68,85,56,49,36,35,,141,94,35,25,4,8,1.0,0.8
2025-07-18T2300,3406A,106.6085,23.8798,百色市,祈福高中,颗粒物(PM10),56,62,57,29,30,41,,131,94,29,21,5,8,0.7,0.8
2025-07-18T2300,2270A,117.396,32.939,蚌埠市,工人疗养院,,40,40,43,23,20,121,,180,171,22,15,5,4,0.4,0.4
2025-07-18T2300,2271A,117.3605,32.9427,蚌埠市,百货大楼,,41,37,34,20,19,131,,183,174,16,13,6,6,0.5,0.5
2025-07-18T2300,2273A,117.4185,32.8911,蚌埠市,蚌埠学院,,41,36,31,27,24,130,,181,172,8,12,5,6,0.4,0.5
2025-07-18T2300,2274A,117.3533,32.9673,蚌埠市,淮上区政府,,46,46,37,29,23,138,,184,178,17,12,6,5,0.6,0.6
2025-07-18T2300,2275A,117.3145,32.8977,蚌埠市,高新区,,44,36,34,25,21,139,,174,169,10,13,5,6,0.5,0.5
2025-07-18T2300,3715A,117.3092,32.9314,蚌埠市,蚌埠田家炳中学,,42,41,39,27,24,134,,174,165,8,11,6,6,0.3,0.4
2025-07-18T2300,1585A,109.8756,40.6532,包头市,市环境监测站,,45,45,40,21,15,143,,192,168,20,27,13,10,1.0,0.9
2025-07-18T2300,1587A,109.9991,40.5842,包头市,包头八中,颗粒物(PM10),53,55,58,23,21,130,,187,165,18,30,11,11,0.7,0.9
2025-07-18T2300,1588A,109.8538,40.6821,包头市,青山宾馆,,43,40,38,20,18,135,,191,166,20,36,15,10,1.5,0.8
2025-07-18T2300,1589A,109.8642,40.6288,包头市,惠龙物流,,50,50,39,16,15,135,,186,163,13,22,10,9,0.8,0.8
2025-07-18T2300,1590A,110.0377,40.5546,包头市,东河鸿龙湾,,47,47,46,12,16,137,,190,170,13,28,5,6,0.7,0.7
2025-07-18T2300,3283A,109.9154,40.5685,包头市,滨河大厦,,42,36,40,16,19,133,,193,172,11,25,5,6,0.6,0.6
2025-07-18T2300,3683A,109.8331,40.6576,包头市,昆区政府,颗粒物(PM10),51,52,44,23,21,121,,191,162,32,28,23,10,1.9,1.2
2025-07-18T2300,1930A,107.185,34.3063,宝鸡市,庙沟村,,28,25,24,11,14,89,,130,,17,9,4,4,0.7,0.5
2025-07-18T2300,1931A,107.0708,34.3017,宝鸡市,竹园沟,,24,24,22,14,19,74,,153,120,12,10,7,7,0.9,1.1
2025-07-18T2300,1932A,107.1906,34.3672,宝鸡市,三陆医院,,34,20,31,3,10,107,,159,144,7,13,6,7,0.6,0.6
2025-07-18T2300,1933A,107.1431,34.3547,宝鸡市,监测站,,31,,30,14,16,98,,160,141,8,11,8,8,0.4,0.4
2025-07-18T2300,1934A,107.1186,34.3739,宝鸡市,技工学校,,32,22,26,18,17,102,,153,142,10,11,5,6,0.6,0.6
2025-07-18T2300,1936A,107.2058,34.3497,宝鸡市,文理学院,,36,36,31,16,16,99,,165,146,13,11,6,7,0.5,0.5
2025-07-18T2300,1937A,107.2386,34.3622,宝鸡市,三迪小学,,41,31,34,20,18,131,,162,144,8,13,7,8,0.5,0.5
2025-07-18T2300,4308A,107.3898,34.3601,宝鸡市,陈仓区北开路21号,,35,34,21,21,15,111,,170,154,15,11,9,8,0.4,0.4
2025-07-18T2300,1051A,115.493,38.8632,保定市,游泳馆,,48,48,38,18,17,99,,177,150,22,17,4,3,0.1,0.1
2025-07-18T2300,1052A,115.5213,38.8959,保定市,华电二区,颗粒物(PM10),52,54,39,30,14,115,,187,158,25,22,3,3,0.3,0.3
2025-07-18T2300,1053A,115.4713,38.9108,保定市,接待中心,,42,42,35,14,14,121,,178,158,16,16,3,2,0.3,0.3
2025-07-18T2300,1054A,115.4612,38.8416,保定市,地表水厂,颗粒物(PM10),57,64,57,17,15,110,,173,146,18,20,3,2,0.1,0.2
2025-07-18T2300,3581A,115.31981,38.95208,保定市,满城区生态环境分局,颗粒物(PM10),57,63,40,27,14,114,,195,164,14,16,3,3,0.3,0.3
2025-07-18T2300,3582A,115.47694,38.76408,保定市,清苑区第二中学,颗粒物(PM10),77,103,58,30,21,92,,170,141,20,20,2,2,0.4,0.3
2025-07-18T2300,3583A,115.62909,39.02311,保定市,徐水物探局,,,67,43,9,8,,,199,,13,21,2,2,0.4,0.4
2025-07-18T2300,4004A,115.4202,38.8656,保定市,双鹰农机,,41,41,33,19,12,118,,182,155,22,23,2,7,0.2,0.2
2025-07-18T2300,4034A,115.5150,38.8590,保定市,植保所站,颗粒物(PM10),66,81,47,21,17,100,,193,156,36,30,2,3,0.2,0.3
2025-07-18T2300,2594A,99.1678,25.1081,保山市,市环境监测站,,49,,21,34,18,46,,81,70,10,7,8,6,0.5,0.5
2025-07-18T2300,2595A,99.1711,25.1328,保山市,市环保局,,19,19,25,9,11,60,,87,76,4,6,8,7,0.3,0.3
2025-07-18T2300,1867A,109.1436,21.4086,北海市,海滩公园,,36,36,30,3,3,78,,70,70,4,4,2,2,0.5,0.6
2025-07-18T2300,1868A,109.0981,21.4661,北海市,新市环保局,,21,11,15,9,9,67,,82,69,6,6,2,4,0.3,0.3
2025-07-18T2300,1869A,109.1778,21.5233,北海市,北海工业园,,19,,21,10,10,59,,102,80,5,6,3,5,0.3,0.3
2025-07-18T2300,3400A,109.1911,21.4415,北海市,龙潭自来水厂,,23,12,15,6,8,71,,81,69,4,5,4,5,0.4,0.5
2025-07-18T2300,1001A,116.3621,39.8784,北京市,万寿西宫,臭氧1小时,59,62,40,27,18,167,,210,195,8,14,4,4,0.6,0.6
2025-07-18T2300,1002A,116.2202,40.2915,北京市,定陵,,49,49,25,24,14,85,,198,169,3,2,4,5,0.5,0.5
2025-07-18T2300,1003A,116.4174,39.9289,北京市,东四,臭氧1小时,69,52,36,24,16,175,,214,202,19,24,7,6,0.5,0.5
2025-07-18T2300,1004A,116.4072,39.8863,北京市,天坛,臭氧1小时,62,46,37,27,18,169,,203,184,17,21,6,5,0.6,0.6
2025-07-18T2300,1005A,116.462,39.9365,北京市,农展馆,颗粒物(PM10),52,54,38,26,17,159,,185,177,11,21,3,4,0.8,0.8
2025-07-18T2300,1006A,116.3392,39.9295,北京市,官园,臭氧1小时,58,56,37,33,18,166,,208,189,20,23,6,6,0.6,0.6
2025-07-18T2300,1007A,116.2878,39.9611,北京市,海淀万柳,颗粒物(PM10),52,53,37,22,16,144,,206,175,23,31,1,2,0.6,0.5
2025-07-18T2300,1008A,116.6636,40.135,北京市,顺义新城,臭氧1小时,69,62,35,38,16,175,,191,180,18,14,4,4,0.6,0.5
2025-07-18T2300,1009A,116.6275,40.3275,北京市,怀柔镇,,33,31,22,21,12,105,,184,158,11,11,1,3,0.7,0.5
2025-07-18T2300,1010A,116.2296,40.217,北京市,昌平镇,,48,48,28,30,15,124,,211,188,14,10,3,4,0.7,0.6
2025-07-18T2300,1011A,116.3966,39.9821,北京市,奥体中心,臭氧1小时,60,53,36,26,18,168,,187,176,14,23,5,5,0.4,0.4
2025-07-18T2300,3281A,115.9718,40.4529,北京市,延庆夏都,颗粒物(PM10),53,55,25,29,15,140,,190,190,12,10,5,5,0.6,0.4
2025-07-18T2300,3418A,116.8336,40.4095,北京市,密云新城,,47,47,24,19,12,75,,165,138,16,7,3,3,0.9,0.8
2025-07-18T2300,3671A,116.088,39.9726,北京市,门头沟三家店,,48,48,32,32,16,97,,195,151,12,13,4,4,0.5,0.4
2025-07-18T2300,3672A,116.1541,39.8204,北京市,丰台云岗,颗粒物(PM10),74,98,42,52,15,64,,206,170,40,17,2,3,0.6,0.5
2025-07-18T2300,3673A,116.6804,39.9081,北京市,通州东关,臭氧1小时,78,57,48,32,21,182,,193,191,18,22,5,5,0.6,0.7
2025-07-18T2300,3674A,115.9577,39.7603,北京市,房山燕山,,48,42,28,26,16,151,,181,167,4,7,2,2,0.5,0.5
2025-07-18T2300,3675A,116.4672,39.7733,北京市,大兴旧宫,颗粒物(PM10),51,51,39,21,16,156,,195,179,16,20,3,3,0.7,0.7
2025-07-18T2300,3694A,115.986,40.4563,北京市,延庆石河营,颗粒物(PM10),52,53,28,33,16,111,,172,169,12,12,3,3,0.6,0.5
2025-07-18T2300,3695A,116.6151,40.3053,北京市,怀柔新城,,34,30,21,22,12,107,,177,153,6,7,2,2,0.7,0.6
2025-07-18T2300,3696A,116.2545,39.8768,北京市,丰台小屯,颗粒物(PM10),51,52,40,26,18,122,,197,165,31,21,2,2,0.6,0.6
2025-07-18T2300,3697A,116.84,40.3844,北京市,密云镇,臭氧1小时,87,62,26,24,14,189,,169,168,16,14,7,5,0.8,0.6
2025-07-18T2300,4182A,116.1942,39.9158,北京市,八角北路9号,颗粒物(PM10),68,86,43,30,18,104,,220,177,36,17,4,4,0.6,0.6
2025-07-18T2300,4194A,117.0790,40.1518,北京市,洳河巡河路,臭氧1小时,60,55,31,28,16,168,,184,181,13,10,4,5,0.8,0.7
2025-07-18T2300,1761A,123.8275,41.3064,本溪市,大峪,,27,27,44,10,21,19,,107,46,15,18,5,5,0.6,0.8
2025-07-18T2300,1762A,123.7567,41.3325,本溪市,溪湖,,39,39,47,19,25,14,,94,44,21,22,4,7,2.0,1.4
2025-07-18T2300,1763A,123.7169,41.3094,本溪市,彩屯,,26,26,45,10,30,8,,97,46,23,25,7,8,0.8,1.2
2025-07-18T2300,1764A,123.7669,41.2864,本溪市,东明,,28,28,49,15,25,29,,109,64,21,26,4,5,0.8,1.3
2025-07-18T2300,1765A,123.7992,41.2664,本溪市,新立屯,,18,18,39,3,22,7,,111,46,30,22,4,5,0.7,1.1
2025-07-18T2300,1766A,123.8142,41.3472,本溪市,威宁,,19,19,36,10,24,7,,106,44,24,20,5,5,0.6,1
2025-07-18T2300,2587A,105.2864,27.3125,毕节市,八中,,23,,28,16,25,63,,118,96,10,14,3,4,0.4,0.4
2025-07-18T2300,2588A,105.31,27.2944,毕节市,师专,,22,21,40,10,19,69,,116,96,9,16,4,5,0.4,0.5
2025-07-18T2300,4263A,105.3688,27.3598,毕节市,工业大道,,21,19,33,10,21,67,,118,97,14,18,6,6,0.6,0.7
2025-07-18T2300,1629A,118.0018,37.3617,滨州市,第二水厂,,28,27,41,17,25,88,,192,138,10,14,4,6,0.6,0.7
2025-07-18T2300,1630A,117.9776,37.393,滨州市,北中新校,,30,22,35,12,22,96,,192,143,11,17,14,16,0.3,0.4
2025-07-18T2300,3514A,117.9378,37.3956,滨州市,中海酒店,,30,17,32,17,25,96,,180,142,3,8,8,12,0.7,0.8
2025-07-18T2300,3515A,117.9378,37.3553,滨州市,开发区一中,,32,29,39,22,24,92,,193,147,17,18,13,15,0.7,0.5
2025-07-18T2300,3516A,118.0917,37.694,滨州市,金海六路,,27,27,35,14,20,79,,183,125,12,16,25,14,0.3,0.4
2025-07-18T2300,4028A,117.9956,37.3753,滨州市,滨州市西街道办事处,,30,17,34,12,24,96,,207,150,11,13,3,6,0.4,0.5
2025-07-18T2300,2311A,115.8072,33.8399,亳州市,污水处理厂,臭氧1小时,55,36,29,25,19,164,,171,168,8,10,3,5,0.5,0.5
2025-07-18T2300,2312A,115.7789,33.8518,亳州市,三国揽胜宫,臭氧1小时,59,49,35,20,18,167,,169,169,5,10,5,6,0.5,0.5
2025-07-18T2300,3332A,115.7633,33.8034,亳州市,亳州学院,,47,31,27,18,13,149,,170,168,14,16,3,3,0.6,0.6
2025-07-18T2300,2693A,82.0485,44.8556,博尔塔拉蒙古自治州,市党校,细颗粒物(PM2.5),82,,22,60,19,92,,120,115,22,8,3,3,0.2,0.1
2025-07-18T2300,2694A,82.0806,44.8969,博尔塔拉蒙古自治州,市环保局,颗粒物(PM10),65,80,29,23,15,40,,122,108,56,9,1,3,1.0,0.1
2025-07-18T2300,1071A,116.8842,38.2991,沧州市,沧县城建局,,39,39,36,11,7,94,,201,165,23,19,3,2,0.4,0.3
2025-07-18T2300,1072A,116.8584,38.3254,沧州市,电视转播站,,41,41,38,17,16,108,,175,156,19,18,7,4,0.3,0.3
2025-07-18T2300,1073A,116.8709,38.3228,沧州市,市环保局,,39,39,36,22,14,92,,166,139,16,17,3,3,0.3,0.3
2025-07-18T2300,3324A,116.8136,38.3004,沧州市,河北水利电力学院,,34,34,28,19,16,105,,189,162,20,20,4,3,0.4,0.3
2025-07-18T2300,2622A,97.1806,31.1273,昌都市,昌都监测站,,31,,20,19,12,99,,106,104,4,7,2,3,0.2,0.1
2025-07-18T2300,3719A,97.1714,31.1406,昌都市,昌都会议中心,,30,15,21,14,12,95,,106,104,4,5,3,4,0.2,0.2
2025-07-18T2300,2690A,88.1236,43.8886,昌吉回族自治州,天山天池,,25,18,13,3,4,77,,116,102,5,5,3,3,0.5,0.5
2025-07-18T2300,2692A,87.2717,44.0297,昌吉回族自治州,新区政务中心,,27,21,26,16,11,84,,131,118,20,15,8,5,0.5,0.5
2025-07-18T2300,3613A,87.3095,44.0142,昌吉回族自治州,亚心广场,,41,41,38,9,12,65,,122,106,37,22,7,6,0.3,0.2
2025-07-18T2300,1120A,125.2863,43.9027,长春市,客车厂,颗粒物(PM10),58,65,29,23,15,0,,76,29,53,34,3,4,0.7,0.5
2025-07-18T2300,1121A,125.2841,43.8463,长春市,邮电学院,,26,26,20,12,11,6,,72,45,44,21,4,4,0.5,0.4
2025-07-18T2300,1122A,125.3716,43.8772,长春市,劳动公园,,48,48,30,23,16,18,,78,56,41,28,4,5,0.5,0.5
2025-07-18T2300,1123A,125.3297,43.8805,长春市,园林处,颗粒物(PM10),54,58,30,18,11,30,,75,58,38,23,3,4,0.7,0.6
2025-07-18T2300,1124A,125.4605,43.79,长春市,净月潭,,18,18,22,6,9,14,,62,43,6,10,5,6,0.2,0.3
2025-07-18T2300,1126A,125.3863,43.8447,长春市,经开区环卫处,颗粒物(PM10),59,68,32,17,11,2,,78,60,61,30,5,5,0.6,0.5
2025-07-18T2300,1127A,125.245,43.7783,长春市,高新区管委会,,21,21,21,10,10,24,,76,52,30,21,3,3,0.4,0.5
2025-07-18T2300,1128A,125.1761,43.8325,长春市,岱山公园,,35,23,18,10,8,7,,72,51,70,25,3,3,0.4,0.3
2025-07-18T2300,4281A,125.3346,43.9164,长春市,北亚泰大街1068号,颗粒物(PM10),60,70,30,30,15,3,,73,46,65,34,6,6,0.8,0.5
2025-07-18T2300,1335A,113.0833,28.2325,长沙市,经开区环保局,,27,27,34,10,24,63,,112,85,12,11,4,4,0.4,0.4
2025-07-18T2300,1336A,112.8872,28.2189,长沙市,高开区环保局,,32,32,41,13,24,68,,118,99,11,9,4,3,0.5,0.5
2025-07-18T2300,1337A,113.0792,28.2053,长沙市,马坡岭,,32,32,35,18,26,66,,124,95,9,8,5,4,0.5,0.5
2025-07-18T2300,1338A,112.9394,28.19,长沙市,湖南师范大学,,27,27,36,16,23,67,,115,92,14,11,2,2,0.4,0.4
2025-07-18T2300,1339A,113.0178,28.1322,长沙市,雨花区环保局,,26,26,35,16,19,75,,121,95,8,8,4,4,0.7,0.7
2025-07-18T2300,1340A,112.9792,28.2597,长沙市,伍家岭,,29,29,41,16,23,59,,110,86,13,12,1,2,0.4,0.4
2025-07-18T2300,1341A,113.0014,28.1944,长沙市,火车新站,,26,26,37,12,19,66,,110,88,10,7,6,6,0.5,0.5
2025-07-18T2300,1342A,112.9844,28.1178,长沙市,天心区环保局,,32,24,33,22,21,85,,120,102,6,7,1,2,0.4,0.4
2025-07-18T2300,1343A,112.8908,28.1308,长沙市,湖南中医药大学,,25,25,37,16,26,66,,117,96,11,10,2,2,0.9,0.9
2025-07-18T2300,1344A,112.9581,28.3611,长沙市,沙坪,,38,38,33,17,26,53,,93,76,10,9,3,3,0.5,0.5
2025-07-18T2300,1727A,113.1147,36.1547,长治市,清华站,,49,35,35,19,17,156,,156,153,8,10,7,8,0.6,0.8
2025-07-18T2300,1730A,113.0886,36.2125,长治市,审计局,,46,30,29,24,19,145,,150,143,9,11,5,5,0.7,1
2025-07-18T2300,1731A,113.0844,36.1856,长治市,长治八中,,50,37,37,28,26,157,,157,151,5,8,7,8,0.5,0.7
2025-07-18T2300,2845A,113.1569,36.1911,长治市,德盛苑,,43,36,37,19,19,135,,147,141,8,8,6,7,0.7,1.6
2025-07-18T2300,3568A,113.06,36.0464,长治市,向阳小学,颗粒物(PM10),60,69,64,24,19,145,,155,154,9,8,6,7,0.7,0.7
2025-07-18T2300,3569A,112.8792,36.3144,长治市,屯留一中,"颗粒物(PM10),细颗粒物(PM2.5)",53,55,44,37,32,130,,161,145,21,12,8,9,0.4,0.5
2025-07-18T2300,4189A,113.1131,36.19948,长治市,英华南巷50号,,42,42,41,19,21,130,,146,137,11,11,6,7,0.8,1.3
2025-07-18T2300,4190A,113.2367,36.3344,长治市,学府街1号,,42,42,43,15,30,121,,151,143,21,20,5,6,0.4,0.7
2025-07-18T2300,1854A,111.6975,28.9703,常德市,市二中,,19,19,19,13,14,44,,110,74,11,8,2,2,0.6,0.6
2025-07-18T2300,3138A,111.7153,29.0289,常德市,武陵区永安,,26,24,24,18,17,58,,112,85,10,5,2,2,0.3,0.3
2025-07-18T2300,3139A,111.6892,28.9881,常德市,鼎城区玉霞,,22,22,25,13,16,43,,112,78,8,5,3,3,0.5,0.5
2025-07-18T2300,3140A,111.6625,29.0531,常德市,武陵区长庚,,28,15,20,14,15,87,,106,86,5,6,2,2,0.5,0.5
2025-07-18T2300,1196A,119.9633,31.762,常州市,市监测站,,23,10,22,7,15,73,,150,108,14,7,11,9,0.7,0.5
2025-07-18T2300,1200A,119.9468,31.7069,常州市,武进监测站,,24,23,26,7,15,76,,150,109,10,6,9,9,0.9,0.8
2025-07-18T2300,1201A,119.9255,31.9087,常州市,安家,,21,21,31,7,14,67,,140,107,24,12,8,7,0.7,0.7
2025-07-18T2300,3002A,119.9805,31.8174,常州市,行政中心,,22,19,30,12,16,70,,145,108,17,10,10,8,0.7,0.4
2025-07-18T2300,3003A,120.0522,31.7748,常州市,经开区,,24,22,36,12,14,74,,151,108,16,12,8,5,0.5,0.3
2025-07-18T2300,3010A,119.9025,31.7964,常州市,钟楼,,23,17,23,8,14,72,,140,106,15,11,8,6,0.8,0.6
2025-07-18T2300,3429A,119.8598,31.7066,常州市,武进经发区,,23,19,27,9,18,71,,145,105,12,9,7,6,0.8,0.8
2025-07-18T2300,3430A,119.5826,31.7245,常州市,金坛城区,,23,19,24,8,15,73,,149,119,15,7,8,6,0.6,0.4
2025-07-18T2300,2220A,120.4318,41.5881,朝阳市,西梁,颗粒物(PM10),55,59,25,14,12,23,,100,84,48,19,10,8,0.7,0.5
2025-07-18T2300,2221A,120.4521,41.5646,朝阳市,河畔小区,,35,26,17,24,12,38,,104,92,42,10,7,5,0.6,0.4
2025-07-18T2300,2222A,120.4176,41.5648,朝阳市,八里堡,,49,49,30,16,12,26,,107,83,48,20,6,5,0.5,0.5
2025-07-18T2300,2223A,120.3806,41.5969,朝阳市,农业园区,,23,23,18,12,8,42,,102,81,25,14,6,7,0.4,0.4
2025-07-18T2300,1705A,116.6367,23.6719,潮州市,西园路,,18,13,19,6,12,55,,108,93,5,5,1,2,0.3,0.3
2025-07-18T2300,3026A,116.6183,23.6608,潮州市,市政府,,20,9,22,8,12,63,,113,96,11,9,7,4,0.3,0.4
2025-07-18T2300,4036A,116.6461,23.6761,潮州市,金山,,22,18,19,12,13,70,,119,107,3,3,4,4,0.6,0.6
2025-07-18T2300,2473A,113.0116,25.8226,郴州市,市职中,,29,29,29,13,19,14,,76,44,14,13,4,5,0.7,0.7
2025-07-18T2300,2475A,113.0383,25.8071,郴州市,市审计局,,35,33,25,24,19,23,,87,50,15,14,3,3,0.5,0.4
2025-07-18T2300,2476A,113.0348,25.7759,郴州市,市环保局,,,32,36,,53,19,,78,44,21,17,5,4,0.3,0.3
2025-07-18T2300,4252A,113.0138,25.8011,郴州市,好美居路49号,,,37,29,22,20,,,96,,18,16,2,2,0.5,0.5
2025-07-18T2300,1431A,103.9728,30.7236,成都市,金泉两河,,32,26,39,22,24,76,,90,82,15,22,3,4,0.4,0.5
2025-07-18T2300,1432A,104.176,30.6872,成都市,十里店,,32,28,51,22,31,82,,119,106,16,21,4,5,0.4,0.5
2025-07-18T2300,1433A,104.079,30.5706,成都市,三瓦窑,,46,42,50,32,32,72,,124,108,25,35,3,4,0.5,0.6
2025-07-18T2300,1434A,104.1114,30.63,成都市,沙河铺,,40,40,44,17,29,68,,90,81,18,24,5,5,0.4,0.5
2025-07-18T2300,1437A,104.0786,30.6531,成都市,君平街,,,38,52,21,32,,,116,114,15,28,6,6,0.8,1
2025-07-18T2300,2880A,104.0239,30.65639,成都市,大石西路,,26,22,39,16,32,83,,101,94,15,25,2,3,0.7,0.8
2025-07-18T2300,3136A,104.2725,30.5589,成都市,龙泉驿区区政府,,31,31,35,17,21,61,,120,102,28,19,4,5,0.5,0.5
2025-07-18T2300,3357A,104.0106,30.6931,成都市,金博路,,25,17,32,9,23,80,,94,88,15,26,6,6,0.6,0.7
2025-07-18T2300,3359A,104.0578,30.5225,成都市,华阳,,45,36,42,31,32,66,,110,98,25,23,2,4,0.7,0.7
2025-07-18T2300,3488A,104.3853,30.7453,成都市,青白江技师分院,,26,26,44,14,30,64,,111,96,18,25,5,5,0.5,0.6
2025-07-18T2300,3489A,104.0789,30.4072,成都市,科学城,,42,42,45,25,30,70,,119,98,19,19,3,3,0.6,0.7
2025-07-18T2300,4011A,103.8506,30.6947,成都市,光华大道三段,,38,,36,26,24,84,,102,97,16,18,5,7,0.7,0.7
2025-07-18T2300,4224A,104.2433,30.5353,成都市,鲸龙路1057号,,50,50,51,33,36,58,,107,92,27,22,6,6,0.8,0.8
2025-07-18T2300,1062A,117.9531,40.9081,承德市,铁路,,28,28,19,13,7,51,,114,87,12,16,2,2,0.3,0.2
2025-07-18T2300,1063A,117.9392,40.9763,承德市,中国银行,,23,23,20,16,12,30,,124,91,17,8,3,2,0.3,0.3
2025-07-18T2300,1064A,117.9503,40.928,承德市,开发区,,42,42,33,12,10,46,,123,93,21,12,2,2,0.3,0.2
2025-07-18T2300,1066A,117.9268,41.0026,承德市,离宫,,30,23,19,21,14,38,,107,69,13,8,2,2,0.3,0.2
2025-07-18T2300,2314A,117.47,30.6618,池州市,池州学院,,37,35,37,24,26,117,,181,157,16,16,6,7,0.5,0.6
2025-07-18T2300,3237A,117.4918,30.6617,池州市,展览馆,,38,30,38,19,24,121,,186,161,10,16,5,5,0.6,0.8
2025-07-18T2300,3333A,117.5627,30.695,池州市,第八中学,,38,28,37,17,23,120,,185,164,9,15,5,5,0.7,0.7
2025-07-18T2300,3334A,117.5038,30.6243,池州市,第十二中学,,40,27,34,16,23,127,,192,165,8,16,3,3,0.8,0.9
2025-07-18T2300,1744A,118.9233,42.2816,赤峰市,松山一中,,26,26,16,15,6,72,,132,114,23,18,12,11,0.5,0.5
2025-07-18T2300,1745A,118.9576,42.2728,赤峰市,哈达街,,30,30,24,14,11,76,,133,118,22,18,15,12,0.5,0.5
2025-07-18T2300,1746A,118.8788,42.2554,赤峰市,天义路,,30,30,13,21,11,71,,135,117,20,13,15,12,0.2,0.2
2025-07-18T2300,3058A,119.2658,42.0353,赤峰市,银河街,颗粒物(PM10),51,51,24,26,13,50,,116,89,22,15,16,12,0.6,0.6
2025-07-18T2300,3286A,118.9359,42.3147,赤峰市,桥北物流园区,,34,34,22,22,11,31,,112,100,37,13,17,13,0.6,0.4
2025-07-18T2300,2521A,107.3476,22.4136,崇左市,市环保局江州分局,颗粒物(PM10),56,61,39,26,18,82,,118,113,24,11,8,7,0.7,0.6
2025-07-18T2300,4256A,107.3750,22.3736,崇左市,石景林东路7号,细颗粒物(PM2.5),80,78,35,59,22,44,,113,87,22,12,2,3,0.7,0.5
2025-07-18T2300,2298A,118.3093,32.3153,滁州市,老年大学,,33,27,30,14,22,105,,128,,10,7,6,6,0.3,0.4
2025-07-18T2300,2299A,118.3244,32.2786,滁州市,人大宾馆,,33,18,20,13,23,103,,142,135,9,13,5,4,0.3,0.3
2025-07-18T2300,3207A,118.3118,32.3038,滁州市,市政府原办公楼,,40,,26,28,33,100,,139,133,8,5,4,4,0.3,0.4
2025-07-18T2300,3331A,118.3267,32.2634,滁州市,图书馆,,31,20,30,15,22,97,,131,127,9,7,9,9,0.3,0.4
2025-07-18T2300,2605A,101.5482,25.0441,楚雄彝族自治州,州环境监测站,,13,13,17,7,12,41,,54,47,6,9,6,7,0.5,0.6
2025-07-18T2300,2606A,101.538,25.0492,楚雄彝族自治州,市经济开发区,,43,43,32,11,15,39,,55,46,7,9,6,7,0.6,0.6
2025-07-18T2300,2548A,107.5277,31.2827,达州市,达州职业技术学院,,25,25,27,3,3,52,,98,84,16,11,8,10,0.5,0.6
2025-07-18T2300,2549A,107.5086,31.2186,达州市,市环境监测站,,27,27,29,3,4,59,,102,88,23,18,5,8,0.2,0.3
2025-07-18T2300,2550A,107.4988,31.2132,达州市,凤凰小区,,19,17,22,3,7,60,,101,90,22,14,6,8,0.2,0.2
2025-07-18T2300,2551A,107.5082,31.1986,达州市,达县机关宾馆,,21,17,22,3,5,66,,102,89,20,16,3,6,0.2,0.3
2025-07-18T2300,2552A,107.4644,31.2124,达州市,市政中心,,29,29,28,3,7,78,,100,92,10,10,4,6,0.2,0.2
2025-07-18T2300,2614A,100.1542,25.7054,大理白族自治州,大理市环境监测站,,29,,19,20,17,54,,88,72,9,8,5,5,0.3,0.4
2025-07-18T2300,2615A,100.2171,25.5811,大理白族自治州,大理古城,,19,18,24,13,14,42,,88,65,19,11,5,5,0.8,0.8
2025-07-18T2300,1109A,121.612,38.9741,大连市,甘井子,,33,24,21,23,18,71,,122,100,19,16,1,5,0.3,0.3
2025-07-18T2300,1110A,121.565,38.9511,大连市,周水子,,26,25,23,18,18,74,,104,102,10,16,2,3,0.4,0.4
2025-07-18T2300,1111A,121.5637,38.8845,大连市,星海三站,,28,,17,19,14,82,,94,90,4,5,4,4,0.3,0.4
2025-07-18T2300,1112A,121.6302,38.9117,大连市,青泥洼桥,,33,26,26,23,20,66,,110,92,10,12,6,6,0.5,0.5
2025-07-18T2300,1113A,121.6251,38.8638,大连市,傅家庄,,27,13,16,12,14,86,,102,96,7,8,10,9,0.2,0.2
2025-07-18T2300,1114A,121.5213,38.8661,大连市,七贤岭,颗粒物(PM10),62,74,33,27,14,83,,109,104,6,7,10,10,0.4,0.3
2025-07-18T2300,1115A,121.2529,38.8061,大连市,旅顺,,50,50,24,13,13,70,,87,84,12,15,5,4,0.3,0.3
2025-07-18T2300,1116A,121.7485,39.1311,大连市,金州,,45,39,25,31,21,40,,116,95,26,17,9,9,0.3,0.3
2025-07-18T2300,1117A,121.7811,39.0496,大连市,开发区,,48,,22,33,20,49,,101,77,36,19,17,16,0.7,0.7
2025-07-18T2300,1118A,121.9762,39.0631,大连市,双D港,,25,,20,17,21,38,,131,75,6,10,7,8,0.4,0.4
2025-07-18T2300,1789A,124.81117,46.03138,大庆市,大同区,,19,19,11,11,7,57,,102,83,10,7,7,6,0.7,0.6
2025-07-18T2300,1790A,125.129,46.533,大庆市,龙凤区,,22,15,12,8,7,68,,102,85,9,7,5,4,0.6,0.5
2025-07-18T2300,1791A,124.902,46.408,大庆市,红岗区,,20,17,16,14,12,57,,107,85,11,7,6,7,0.9,0.7
2025-07-18T2300,1792A,125.153,46.586,大庆市,萨尔图区,,22,22,16,11,4,56,,73,64,10,7,8,9,0.5,0.4
2025-07-18T2300,1793A,124.9042,46.6215,大庆市,让胡路区,,22,22,19,13,12,34,,89,,23,8,10,9,0.5,0.3
2025-07-18T2300,3481A,125.141,46.634,大庆市,萨区政府监测点,,28,25,22,7,2,87,,95,84,6,5,6,6,0.4,0.3
2025-07-18T2300,1723A,113.2994,40.0758,大同市,云冈宾馆,,46,46,41,11,16,91,,151,126,18,18,9,10,0.7,0.7
2025-07-18T2300,1724A,113.3444,40.0917,大同市,大同大学,,37,37,28,17,12,82,,156,131,23,17,11,11,0.5,0.4
2025-07-18T2300,1725A,113.2661,40.1269,大同市,安家小村,颗粒物(PM10),58,66,54,14,12,74,,157,122,22,18,10,10,0.5,0.6
2025-07-18T2300,1726A,113.2711,40.0844,大同市,教育学院,颗粒物(PM10),60,69,49,24,17,84,,153,124,24,23,12,11,0.4,0.4
2025-07-18T2300,3282A,113.3397,40.0597,大同市,大同市卫生学校,,44,44,35,16,14,93,,141,126,19,19,5,11,0.7,0.4
2025-07-18T2300,3565A,113.1367,40.1122,大同市,云冈站,,,84,63,36,20,,,141,,32,28,5,6,0.6,0.4
2025-07-18T2300,3566A,113.1186,40.2556,大同市,图书馆,,41,41,46,19,18,52,,150,116,13,11,7,9,0.7,0.6
2025-07-18T2300,3567A,113.5931,40.0461,大同市,区一中,,25,25,24,17,10,73,,142,112,18,13,10,12,0.5,0.4
2025-07-18T2300,4199A,113.2798,40.0997,大同市,魏都大道141号,,49,49,44,19,15,78,,161,131,24,18,12,11,0.6,0.6
2025-07-18T2300,1600A,124.3303,40.0625,丹东市,江湾东路,,26,,13,18,11,53,,96,71,12,10,4,6,0.7,0.7
2025-07-18T2300,1601A,124.4256,40.1503,丹东市,临江后街,,47,47,16,27,9,34,,92,69,27,10,7,7,1.2,0.8
2025-07-18T2300,1602A,124.3933,40.1461,丹东市,元宝山,,34,34,14,17,8,45,,82,60,13,10,3,3,0.6,0.6
2025-07-18T2300,1603A,124.3633,40.1092,丹东市,民主桥,,26,26,14,15,9,56,,94,74,12,10,5,4,1.1,1.1
2025-07-18T2300,3541A,109.5726,19.5167,儋州市,第一中学子站,,18,18,18,9,9,36,,48,41,4,4,5,5,0.5,0.5
2025-07-18T2300,3542A,109.5567,19.5187,儋州市,东坡学校子站,,14,14,17,8,10,39,,52,44,4,4,5,5,0.5,0.6
2025-07-18T2300,2616A,98.5842,24.428,德宏傣族景颇族自治州,德宏州监测站,,15,13,15,10,9,26,,64,52,8,8,9,15,0.6,0.5
2025-07-18T2300,3677A,98.5881,24.4368,德宏傣族景颇族自治州,芒市人民政府综合楼,,25,25,24,14,8,27,,64,57,7,9,8,19,0.5,0.5
2025-07-18T2300,1901A,104.4239,31.1208,德阳市,东山公园,,20,,28,14,23,57,,98,79,33,15,5,6,0.8,0.9
2025-07-18T2300,1902A,104.3826,31.1317,德阳市,西小区,,25,17,35,17,26,69,,98,82,23,23,6,9,0.9,0.9
2025-07-18T2300,1904A,104.3553,31.1091,德阳市,耐火材料厂,,24,,34,16,25,76,,99,85,14,16,2,5,0.4,0.5
2025-07-18T2300,3639A,104.4019,31.1244,德阳市,市教育局,,24,16,36,14,24,75,,102,86,13,13,6,6,0.7,0.8
2025-07-18T2300,1622A,116.3032,37.4674,德州市,儿童乐园,,47,41,31,19,14,148,,195,177,17,12,9,9,0.5,0.5
2025-07-18T2300,1624A,116.2991,37.4451,德州市,监理站,,49,27,25,9,11,155,,190,178,16,14,9,9,0.4,0.4
2025-07-18T2300,3066A,116.2721,37.4379,德州市,九衢泉纯净水厂,,44,29,32,9,17,140,,175,165,22,30,4,4,0.5,0.5
2025-07-18T2300,3371A,116.3728,37.4403,德州市,开发区人民医院,,39,39,30,17,15,124,,189,160,28,19,9,9,0.6,0.7
2025-07-18T2300,3511A,116.5652,37.3319,德州市,陵城艺术中心,,41,34,35,14,13,130,,196,164,14,15,8,7,0.2,0.2
2025-07-18T2300,4292A,116.3525,37.4209,德州市,新河东路,,46,46,31,22,16,89,,184,156,55,24,9,9,0.4,0.6
2025-07-18T2300,2621A,99.7056,27.8317,迪庆藏族自治州,迪庆州站,,27,,25,15,18,86,,102,94,13,7,8,8,0.4,0.3
2025-07-18T2300,3180A,99.7136,27.8094,迪庆藏族自治州,质量技术监督局,,29,15,29,13,12,91,,102,93,15,12,8,8,0.4,0.4
2025-07-18T2300,4257A,104.6092,35.5962,定西市,将台街,,44,44,35,16,19,101,,105,101,4,3,7,8,0.0,0.1
2025-07-18T2300,4309A,104.6159,35.5701,定西市,正龙路62号,颗粒物(PM10),54,58,29,21,18,102,,99,98,1,1,5,7,0.2,0.2
2025-07-18T2300,1389A,113.7547,23.0494,东莞市,莞城梨川,,38,38,44,24,30,46,,106,73,23,28,7,7,0.6,0.6
2025-07-18T2300,1390A,113.7944,23.0128,东莞市,东城石井,,44,44,36,28,21,41,,72,55,30,28,3,2,0.7,0.7
2025-07-18T2300,1391A,113.7383,22.9658,东莞市,南城西平,,38,38,32,18,13,38,,74,58,39,23,4,4,0.8,0.7
2025-07-18T2300,3319A,113.7338,23.0381,东莞市,万江金泰,,37,37,42,22,25,26,,88,57,23,30,3,3,1.0,1
2025-07-18T2300,3626A,113.7533,23.0202,东莞市,南城元岭,,37,37,37,21,22,45,,91,66,24,28,3,4,0.7,0.7
2025-07-18T2300,3627A,113.7875,23.0457,东莞市,东城主山,,40,40,58,20,26,50,,99,71,17,25,4,4,0.5,0.6
2025-07-18T2300,1666A,118.6614,37.4309,东营市,市环保局,,29,6,25,3,16,90,,143,108,13,16,9,12,0.3,0.5
2025-07-18T2300,3036A,118.6904,37.4338,东营市,开发区管委会,,,12,31,3,15,96,,152,116,12,13,6,10,,0.6
2025-07-18T2300,3365A,118.5719,37.565,东营市,垦利区民丰路,,28,7,25,3,15,88,,160,116,15,16,11,12,0.5,0.6
2025-07-18T2300,3498A,118.5055,37.8612,东营市,河口城区,,33,6,25,3,13,103,,157,121,10,13,7,10,0.5,0.6
2025-07-18T2300,3646A,118.4978,37.4623,东营市,胜利站,,,22,35,3,14,,,162,122,12,19,3,6,0.4,0.6
2025-07-18T2300,3734A,118.35,37.26,东营市,理想之城,,23,7,27,3,18,71,,152,108,12,18,6,10,0.3,0.5
2025-07-18T2300,1591A,110.0023,39.8129,鄂尔多斯市,综合楼,颗粒物(PM10),56,61,45,17,13,108,,175,,22,23,12,11,0.9,0.8
2025-07-18T2300,1592A,109.9486,39.8261,鄂尔多斯市,巴音孟克林场办事处,,46,46,63,17,17,116,,184,156,21,21,4,8,0.6,0.7
2025-07-18T2300,1593A,109.7736,39.5986,鄂尔多斯市,康泽苑,,48,48,49,12,13,134,,185,155,10,20,4,4,0.4,0.4
2025-07-18T2300,1594A,109.8119,39.5989,鄂尔多斯市,华泰汽车城,,38,36,48,14,15,121,,165,138,18,24,6,6,0.6,0.6
2025-07-18T2300,1595A,109.9734,39.7884,鄂尔多斯市,奥林花园,颗粒物(PM10),53,56,55,22,22,108,,174,139,26,27,7,9,0.9,1
2025-07-18T2300,2436A,114.8938,30.3994,鄂州市,市政府,,42,42,32,26,16,96,,132,120,20,10,6,4,0.6,0.6
2025-07-18T2300,2437A,114.8989,30.3714,鄂州市,赵家坝,,,30,29,17,10,,,134,122,12,13,7,8,0.5,0.6
2025-07-18T2300,3654A,114.8094,30.4089,鄂州市,精准医疗中心,,37,37,26,11,7,89,,134,119,17,14,10,4,0.9,0.7
2025-07-18T2300,2454A,109.4978,30.2981,恩施土家族苗族自治州,湖北民院,,26,26,28,11,12,58,,102,79,8,8,4,5,0.5,0.5
2025-07-18T2300,2455A,109.4707,30.2798,恩施土家族苗族自治州,州电力总公司,,20,7,19,6,13,61,,98,77,7,8,8,8,0.5,0.5
2025-07-18T2300,3549A,109.5061,30.3772,恩施土家族苗族自治州,龙凤新区,,19,17,20,3,13,58,,99,83,4,6,4,5,0.5,0.5
2025-07-18T2300,2499A,108.3411,21.6158,防城港市,沙万,,19,19,25,12,11,56,,81,63,12,12,3,4,0.4,0.4
2025-07-18T2300,2500A,108.3514,21.7731,防城港市,防城档案局,,21,21,30,12,14,43,,98,75,7,8,3,3,0.6,0.6
2025-07-18T2300,2501A,108.3506,21.6414,防城港市,大海花园,,20,12,26,7,8,61,,97,75,11,9,3,6,0.5,0.5
2025-07-18T2300,1371A,113.1294,23.0067,佛山市,湾梁,,29,24,46,20,29,26,,120,71,37,28,5,5,0.7,0.8
2025-07-18T2300,1372A,113.1083,23.0478,佛山市,华材职中,,29,27,47,20,28,27,,142,81,38,28,7,9,0.8,0.7
2025-07-18T2300,1373A,113.144,23.0453,佛山市,南海气象局,,30,30,45,21,28,17,,115,67,38,26,3,3,0.8,0.7
2025-07-18T2300,1374A,113.2881,22.8094,佛山市,顺德苏岗,,31,31,44,12,24,44,,104,72,31,25,7,7,0.5,0.6
2025-07-18T2300,1376A,112.8383,22.8678,佛山市,高明孔堂,,25,25,39,12,20,30,,130,75,14,13,6,8,0.7,0.8
2025-07-18T2300,1377A,112.8836,23.1588,佛山市,三水监测站,,34,34,46,10,25,26,,124,77,48,36,4,8,0.8,0.7
2025-07-18T2300,1378A,112.867,23.185,佛山市,三水云东海,,37,37,44,24,28,23,,115,65,34,33,1,2,0.7,0.7
2025-07-18T2300,3625A,113.2544,22.7642,佛山市,容桂街道办,,16,12,32,7,23,47,,109,72,32,27,5,6,0.6,0.6
2025-07-18T2300,1282A,119.2681,26.0504,福州市,师大,,9,,17,3,7,27,,55,28,2,7,4,4,0.2,0.3
2025-07-18T2300,1283A,119.2984,26.1028,福州市,五四北路,,,,18,2,9,25,,48,27,6,13,4,4,0.2,0.3
2025-07-18T2300,1284A,119.2648,26.0768,福州市,杨桥西路,,9,6,18,3,7,27,,54,29,4,10,3,3,0.1,0.3
2025-07-18T2300,1285A,119.317,26.0746,福州市,紫阳,,8,8,19,3,7,22,,43,24,5,10,4,4,0.1,0.2
2025-07-18T2300,3048A,119.5799,26.0936,福州市,九龙,,15,15,15,3,8,29,,50,38,2,5,4,4,0.2,0.2
2025-07-18T2300,3526A,119.5189,25.9664,福州市,吴航,,13,13,18,3,10,30,,46,36,1,11,4,4,0.3,0.4
2025-07-18T2300,1755A,123.7977,41.8491,抚顺市,望花区,,35,33,37,24,21,46,,118,90,38,27,9,10,1.2,0.9
2025-07-18T2300,1756A,123.9161,41.8822,抚顺市,顺城区,,36,36,34,12,18,8,,122,68,36,25,4,6,0.8,0.8
2025-07-18T2300,1757A,124.0436,41.8611,抚顺市,东洲区,,26,26,27,11,17,14,,131,78,30,20,5,6,0.6,0.7
2025-07-18T2300,1758A,123.9247,41.8642,抚顺市,新抚区,,30,30,35,12,18,7,,124,65,26,21,4,5,0.7,0.8
2025-07-18T2300,1759A,124.0972,41.8961,抚顺市,大伙房水库,,22,22,24,10,12,19,,109,66,31,20,5,5,0.6,0.6
2025-07-18T2300,1760A,123.7086,41.8391,抚顺市,沈抚新城,,36,,23,25,15,50,,112,84,34,24,8,5,1.4,0.8
2025-07-18T2300,2376A,116.2127,28.0814,抚州市,桐源党溪,,49,49,47,31,29,15,,114,59,3,2,3,5,0.6,0.6
2025-07-18T2300,2377A,116.3544,27.9831,抚州市,市站,,47,47,53,29,34,64,,115,96,8,7,1,13,0.6,0.7
2025-07-18T2300,2378A,116.3565,27.963,抚州市,血防站,,42,42,48,26,32,48,,106,73,15,10,5,6,0.6,0.6
2025-07-18T2300,2379A,116.3564,28.0007,抚州市,采茶剧团,,50,50,54,28,32,79,,113,94,5,4,5,5,0.7,0.7
2025-07-18T2300,2380A,116.385,27.9647,抚州市,医学分院,,42,42,55,26,32,40,,122,90,8,6,5,5,0.9,0.8
2025-07-18T2300,2207A,121.6094,41.998,阜新市,工业园区,,42,42,21,10,7,4,,99,72,56,18,4,4,0.4,0.4
2025-07-18T2300,2208A,121.6697,42.0279,阜新市,长青街,,27,27,13,16,7,20,,87,64,28,11,5,5,0.5,0.6
2025-07-18T2300,2209A,121.6673,42.0705,阜新市,农业园区,,21,21,15,7,4,45,,88,64,10,7,5,3,0.7,0.8
2025-07-18T2300,2210A,121.6717,42.0224,阜新市,东苑,,38,38,23,11,10,21,,95,72,38,14,5,6,0.5,0.6
2025-07-18T2300,2211A,121.6506,42.0498,阜新市,玉龙新城,,41,41,22,11,9,5,,89,56,40,17,4,4,0.7,0.6
2025-07-18T2300,2301A,115.8277,32.8929,阜阳市,市监测站,,42,42,39,27,26,118,,176,156,16,14,4,4,0.4,0.4
2025-07-18T2300,2303A,115.8554,32.8605,阜阳市,开发区,,50,50,44,20,19,121,,170,154,18,13,7,6,0.4,0.4
2025-07-18T2300,2875A,115.784,32.8892,阜阳市,阜阳职业技术学院,,47,37,35,20,19,148,,186,178,8,7,4,4,0.5,0.5
2025-07-18T2300,3468A,115.7901,32.8613,阜阳市,市规划展馆,,41,31,37,15,23,130,,176,168,13,10,3,2,0.4,0.4
2025-07-18T2300,3469A,115.836,32.9183,阜阳市,枣园社区,,50,50,40,26,23,132,,178,166,13,11,3,2,0.5,0.5
2025-07-18T2300,2669A,102.9099,34.9841,甘南藏族自治州,州政府,,23,20,19,16,14,67,,100,90,13,11,2,2,0.4,0.3
2025-07-18T2300,3380A,102.8914,34.9617,甘南藏族自治州,甘肃民族师范学院,,19,16,31,10,12,60,,110,96,6,9,9,9,0.4,0.4
2025-07-18T2300,2570A,101.9603,30.0475,甘孜藏族自治州,水桥子,,16,14,24,3,16,41,,104,73,32,20,6,6,0.5,0.4
2025-07-18T2300,3065A,101.9533,29.9972,甘孜藏族自治州,州环保局,,25,,28,8,12,80,,107,90,15,20,5,2,0.3,0.6
2025-07-18T2300,3414A,115.8347,28.932,赣江新区,桑海产业园,,43,29,29,19,18,137,,173,166,8,9,6,9,0.6,0.6
2025-07-18T2300,2363A,114.9367,25.8664,赣州市,地委,,34,34,31,16,20,43,,87,56,8,8,8,9,1.0,0.9
2025-07-18T2300,2364A,114.9461,25.8481,赣州市,气象台,,29,29,31,14,19,44,,97,57,5,7,8,11,0.5,0.5
2025-07-18T2300,2365A,114.9322,25.8333,赣州市,市图书馆,,23,21,30,16,21,44,,95,58,5,7,4,5,0.5,0.4
2025-07-18T2300,2366A,114.8905,25.8471,赣州市,华坚鞋城,,28,28,34,14,17,52,,80,54,7,11,3,5,0.4,0.4
2025-07-18T2300,3109A,115.0093,25.8613,赣州市,赣县区卫计委,,26,,29,18,19,38,,86,61,9,7,5,4,0.6,0.7
2025-07-18T2300,2683A,106.2319,36.1417,固原市,马园,颗粒物(PM10),88,126,46,29,16,93,,113,66,14,20,5,5,0.6,0.6
2025-07-18T2300,2684A,106.2792,36.0022,固原市,监测站,,42,40,30,29,17,92,,119,89,11,8,4,4,0.2,0.3
2025-07-18T2300,2685A,106.2375,36.0211,固原市,新区,,36,,29,25,22,90,,118,88,7,8,6,6,0.5,0.6
2025-07-18T2300,3522A,106.2177,35.9959,固原市,原州区十五小,,33,33,31,18,20,93,,131,108,8,6,9,9,0.4,0.5
2025-07-18T2300,2544A,106.6303,30.4576,广安市,市委,,,33,26,19,15,,,114,106,12,9,5,5,0.4,0.4
2025-07-18T2300,2545A,106.6271,30.4663,广安市,友谊中学,,28,27,24,19,16,80,,116,100,13,11,4,4,0.6,0.6
2025-07-18T2300,2547A,106.6388,30.4551,广安市,广电花园,,28,27,33,19,14,75,,112,94,13,9,77,58,0.6,0.5
2025-07-18T2300,2902A,106.6351,30.4865,广安市,北辰小学,,30,28,29,21,15,84,,124,103,8,7,4,4,0.5,0.4
2025-07-18T2300,2523A,105.8945,32.4535,广元市,黑石坡,,28,23,22,19,14,42,,60,51,7,9,8,8,0.4,0.4
2025-07-18T2300,2524A,105.821,32.4444,广元市,老城,,13,13,16,9,8,33,,91,75,26,13,8,7,0.7,0.6
2025-07-18T2300,2526A,105.8628,32.4287,广元市,监测站,,22,22,20,7,8,26,,75,64,16,12,11,12,0.9,0.8
2025-07-18T2300,3617A,105.8047,32.4166,广元市,经开区,,25,25,24,15,15,13,,85,66,39,15,5,6,0.8,0.7
2025-07-18T2300,1345A,113.2347,23.1423,广州市,广雅中学,,28,28,57,18,32,27,,158,86,45,38,3,5,0.6,0.6
2025-07-18T2300,1346A,113.2612,23.105,广州市,市五中,,21,21,50,14,31,42,,155,88,29,29,4,7,0.6,0.6
2025-07-18T2300,1348A,113.3478,23.0916,广州市,广东商学院,,21,21,46,14,29,52,,141,83,35,46,3,4,0.6,0.7
2025-07-18T2300,1349A,113.4332,23.1047,广州市,市八十六中,,24,24,43,14,26,44,,85,52,27,50,3,2,0.5,0.6
2025-07-18T2300,1350A,113.3505,22.9483,广州市,番禺中学,,26,26,48,15,22,40,,121,80,35,26,4,5,0.6,0.6
2025-07-18T2300,1351A,113.2146,23.3916,广州市,花都师范,,,25,53,11,30,,,132,,15,39,3,4,0.6,0.8
2025-07-18T2300,1352A,113.2597,23.1331,广州市,市监测站,,22,20,54,15,32,28,,162,87,35,35,6,8,0.5,0.6
2025-07-18T2300,1353A,113.5618,23.312,广州市,九龙镇镇龙,,29,29,46,18,29,35,,119,68,19,22,6,6,0.5,0.6
2025-07-18T2300,1354A,113.2765,23.1544,广州市,麓湖,,27,27,51,14,33,22,,151,73,33,40,2,3,0.8,0.9
2025-07-18T2300,2846A,113.3221,23.1322,广州市,体育西,,23,23,54,15,32,45,,153,86,30,44,5,7,0.7,0.8
2025-07-18T2300,3298A,113.5717,23.5491,广州市,从化街口,,20,14,43,9,28,61,,91,60,7,16,4,5,0.6,0.7
2025-07-18T2300,3299A,113.3472,23.3692,广州市,白云竹料,,20,20,48,14,32,47,,102,69,13,24,3,3,0.5,0.7
2025-07-18T2300,3300A,113.2981,23.237,广州市,白云嘉禾,,28,28,54,17,34,32,,161,82,38,45,5,5,0.7,0.8
2025-07-18T2300,3301A,113.4256,23.1716,广州市,黄埔科学城,,26,26,52,16,30,44,,122,69,16,33,3,3,0.7,0.8
2025-07-18T2300,3302A,113.3942,23.0483,广州市,番禺大学城,,,27,47,14,25,,,130,93,29,30,5,6,0.6,0.7
2025-07-18T2300,3303A,113.4922,22.8168,广州市,南沙黄阁,,29,29,41,17,23,39,,90,70,44,33,5,4,0.4,0.3
2025-07-18T2300,3304A,113.5342,22.7896,广州市,南沙街,,26,26,36,16,22,38,,86,74,42,23,6,4,0.7,0.6
2025-07-18T2300,3443A,113.2902,23.5544,广州市,花都梯面,,20,18,39,11,25,61,,104,67,9,16,5,5,0.6,0.6
2025-07-18T2300,3445A,113.7858,23.7478,广州市,从化良口,,21,9,29,3,22,66,,70,60,7,8,4,5,0.6,0.7
2025-07-18T2300,3446A,113.8051,23.2614,广州市,增城荔城,,20,20,40,12,30,41,,107,66,8,13,6,6,0.3,0.4
2025-07-18T2300,2506A,109.6047,23.0666,贵港市,江南子站,颗粒物(PM10),57,63,36,30,21,64,,124,112,28,11,6,7,0.8,0.6
2025-07-18T2300,2508A,109.5669,23.1065,贵港市,荷城子站,细颗粒物(PM2.5),62,70,33,44,18,51,,107,90,29,12,8,8,0.6,0.5
2025-07-18T2300,3405A,109.5886,23.1172,贵港市,新世纪学校,细颗粒物(PM2.5),62,63,36,44,24,58,,112,91,22,15,7,7,0.6,0.4
2025-07-18T2300,4260A,109.5933,23.0951,贵港市,中山路155-3号,颗粒物(PM10),59,67,36,32,20,76,,124,117,27,10,4,4,0.7,0.5
2025-07-18T2300,1439A,106.6899,26.5998,贵阳市,马鞍山,,19,19,20,12,5,38,,83,58,8,10,3,3,0.3,0.3
2025-07-18T2300,1441A,106.6243,26.6266,贵阳市,鉴湖路,,29,29,24,14,7,42,,83,62,12,9,4,6,0.2,0.2
2025-07-18T2300,1442A,106.7487,26.6343,贵阳市,燕子冲,,39,27,18,27,21,59,,93,74,17,17,9,10,0.2,0.3
2025-07-18T2300,1443A,106.6555,26.4365,贵阳市,碧云窝,,46,46,33,19,13,37,,83,57,20,10,8,8,0.6,0.5
2025-07-18T2300,1445A,106.7109,26.6027,贵阳市,红边门,,28,19,25,19,14,57,,87,65,12,16,6,7,0.1,0.2
2025-07-18T2300,1446A,106.7164,26.5699,贵阳市,新华路,,31,31,33,17,15,59,,87,67,15,14,9,21,0.3,0.4
2025-07-18T2300,1447A,106.674,26.5424,贵阳市,太慈桥,,18,12,20,12,10,56,,84,64,14,15,4,4,0.2,0.3
2025-07-18T2300,4230A,106.6882,26.5695,贵阳市,花果园大街66号,,33,,15,23,18,56,,87,68,12,12,4,6,0.3,0.3
2025-07-18T2300,4231A,106.6873,26.5169,贵阳市,漓江路57号,,18,17,25,12,12,45,,80,58,14,12,4,7,0.3,0.4
2025-07-18T2300,1864A,110.3089,25.2708,桂林市,龙隐路小学,,42,42,35,24,17,55,,119,90,10,9,10,12,0.5,0.4
2025-07-18T2300,1865A,110.2869,25.2178,桂林市,八中,,31,31,34,15,15,42,,114,82,13,13,8,9,0.6,0.6
2025-07-18T2300,3531A,110.296,25.1253,桂林市,旅游学院,,20,19,22,14,15,42,,100,72,9,11,18,4,0.3,0.2
2025-07-18T2300,4222A,110.1835,25.2444,桂林市,环湖路276号,,45,39,37,31,19,51,,118,96,11,23,35,12,0.4,0.3
2025-07-18T2300,4301A,110.2803,25.2773,桂林市,信义路13号,,45,42,33,31,18,55,,127,94,16,11,12,11,0.8,0.7
2025-07-18T2300,2674A,100.2561,34.4714,果洛藏族自治州,玛沁县大武镇,,30,26,25,17,11,96,,122,114,5,4,16,17,0.3,0.3
2025-07-18T2300,1129A,126.5422,45.755,哈尔滨市,岭北,,21,10,23,9,19,67,,103,98,26,27,8,8,0.4,0.4
2025-07-18T2300,1130A,126.561,45.8167,哈尔滨市,松北商大,,41,41,38,12,8,26,,86,74,29,28,8,7,0.7,0.7
2025-07-18T2300,1131A,126.979,45.5419,哈尔滨市,阿城会宁,,29,29,30,16,14,25,,72,60,21,18,4,5,0.5,0.6
2025-07-18T2300,1132A,126.599,45.7222,哈尔滨市,南岗学府路,,33,33,43,7,18,49,,82,75,22,38,6,6,0.7,0.9
2025-07-18T2300,1133A,126.689,45.7733,哈尔滨市,太平宏伟公园,,,42,50,12,16,38,,79,75,,41,6,7,0.7,0.5
2025-07-18T2300,1134A,126.635,45.7667,哈尔滨市,道外承德广场,颗粒物(PM10),51,51,57,13,16,37,,74,67,29,33,6,6,0.8,0.9
2025-07-18T2300,1135A,126.685,45.7319,哈尔滨市,香坊红旗大街,,23,22,37,16,21,42,,87,80,35,42,4,6,0.8,0.9
2025-07-18T2300,1136A,126.6411,45.7258,哈尔滨市,动力和平路,,,54,54,,,29,,88,78,40,40,4,6,0.6,0.8
2025-07-18T2300,1137A,126.593,45.7478,哈尔滨市,道里建国路,,37,37,56,13,16,47,,86,81,30,38,6,8,1.1,1.3
2025-07-18T2300,1138A,126.615,45.61,哈尔滨市,平房东轻厂,,28,28,44,9,9,33,,78,67,27,32,8,8,0.5,0.6
2025-07-18T2300,1139A,126.595,45.9855,哈尔滨市,呼兰师专,颗粒物(PM10),56,61,27,15,9,40,,108,93,40,29,7,10,0.8,0.6
2025-07-18T2300,1140A,126.6206,45.6842,哈尔滨市,省农科院,,30,30,41,13,25,20,,78,61,54,51,9,10,0.7,0.8
2025-07-18T2300,2688A,93.5128,42.8172,哈密市,地区监测站,,,,38,,29,94,,121,109,22,12,5,5,0.2,0.1
2025-07-18T2300,2689A,93.4961,42.8328,哈密市,哈密师范学校,,43,43,38,16,13,90,,123,106,28,15,4,4,0.4,0.3
2025-07-18T2300,2671A,100.9048,36.9639,海北藏族自治州,海晏县西海镇,,38,25,18,24,16,120,,120,119,3,4,7,10,0.5,0.5
2025-07-18T2300,3867A,102.0738,36.5056,海东市,平安区公安北苑,,39,,32,27,17,69,,141,111,20,7,9,13,0.8,0.7
2025-07-18T2300,1409A,110.576,19.9507,海口市,东寨港,,20,20,24,13,12,35,,66,50,8,7,4,5,0.4,0.5
2025-07-18T2300,1410A,110.3232,20.0574,海口市,海南大学,,26,26,25,11,12,47,,86,65,9,10,3,2,0.3,0.4
2025-07-18T2300,1411A,110.283,20.0053,海口市,秀英海南医院,,20,20,26,8,13,42,,73,56,10,10,6,5,0.3,0.4
2025-07-18T2300,1412A,110.338,19.9969,海口市,海南师范大学,,19,19,26,11,16,39,,81,59,11,9,6,4,0.4,0.4
2025-07-18T2300,1413A,110.33,20.0356,海口市,龙华路环保局宿舍,,19,19,26,9,13,46,,82,61,10,11,6,6,0.3,0.3
2025-07-18T2300,3539A,110.5111,19.9736,海口市,桂林洋子站,,26,26,28,12,15,36,,75,54,14,11,5,5,0.3,0.3
2025-07-18T2300,2673A,100.6188,36.2866,海南藏族自治州,共和县恰卜恰镇,,40,27,43,8,16,127,,142,128,4,5,14,11,0.5,0.7
2025-07-18T2300,2676A,97.3731,37.3753,海西蒙古族藏族自治州,德令哈市,,,31,25,24,14,121,,133,126,5,3,22,17,,0.6
2025-07-18T2300,1048A,114.5302,36.6116,邯郸市,东污水处理厂,颗粒物(PM10),52,54,41,7,8,142,,172,148,12,12,3,4,0.4,0.4
2025-07-18T2300,1049A,114.4918,36.5713,邯郸市,矿院,,36,32,31,14,14,114,,173,148,22,15,5,5,0.5,0.4
2025-07-18T2300,1050A,114.484,36.6133,邯郸市,丛台公园,,48,32,34,14,15,153,,184,167,12,10,7,7,0.5,0.5
2025-07-18T2300,3458A,114.7895,36.5593,邯郸市,香泉濮院小区,,47,47,40,8,4,133,,163,158,12,10,2,3,0.4,0.3
2025-07-18T2300,3579A,114.50634,36.77178,邯郸市,永年区实验高中,颗粒物(PM10),51,51,52,23,26,126,,178,146,24,15,3,4,0.4,0.6
2025-07-18T2300,3580A,114.20016,36.44293,邯郸市,峰峰矿区临水派出所,,48,42,47,3,10,152,,184,168,14,6,9,11,0.2,0.4
2025-07-18T2300,2634A,106.9893,33.1842,汉中市,汉川机床厂子校,,19,15,19,13,12,53,,101,83,13,10,3,3,0.3,0.3
2025-07-18T2300,2635A,107.0154,33.0706,汉中市,市监测站,,25,25,16,13,8,35,,81,70,14,6,5,5,0.7,0.6
2025-07-18T2300,2636A,107.0089,33.1138,汉中市,鑫源开发区,,32,32,18,6,6,41,,87,74,23,8,5,5,0.5,0.4
2025-07-18T2300,2637A,107.007,33.0323,汉中市,南郑大河坎水厂,,22,22,17,14,9,26,,85,69,16,7,7,7,0.6,0.5
2025-07-18T2300,1223A,120.2072,30.2111,杭州市,滨江,,28,23,28,19,16,61,,151,123,21,21,6,6,0.4,0.5
2025-07-18T2300,1224A,120.0633,30.2747,杭州市,西溪,,36,29,23,25,19,51,,148,116,23,16,4,4,0.5,0.5
2025-07-18T2300,1226A,120.3417,30.3150,杭州市,下沙,,26,25,24,18,16,73,,146,118,25,20,5,5,0.4,0.5
2025-07-18T2300,1227A,120.1269,30.2456,杭州市,卧龙桥,,33,33,29,22,18,29,,143,99,11,8,7,7,0.6,0.5
2025-07-18T2300,1228A,120.1903,30.2692,杭州市,浙江农大,,42,37,26,29,21,55,,137,104,29,22,4,4,0.5,0.5
2025-07-18T2300,1230A,120.1197,30.3119,杭州市,和睦小学,,39,39,27,23,17,61,,156,125,28,17,4,4,0.7,0.7
2025-07-18T2300,1231A,120.3019,30.4183,杭州市,临平镇,,25,25,37,14,17,76,,163,130,14,14,5,5,0.5,0.6
2025-07-18T2300,1232A,120.2753,30.1839,杭州市,城厢镇,,25,25,29,15,22,51,,145,112,18,14,8,6,0.6,0.7
2025-07-18T2300,1233A,120.0883,30.1808,杭州市,云栖,,39,39,36,22,23,22,,133,96,16,14,7,8,1.3,0.9
2025-07-18T2300,3557A,119.9464,30.0494,杭州市,镇二中,,33,23,29,23,22,83,,160,139,15,16,3,4,0.7,0.7
2025-07-18T2300,3558A,119.7183,30.2367,杭州市,市府大楼,,38,31,30,24,22,119,,162,143,10,10,6,6,0.6,0.6
2025-07-18T2300,3656A,120.1556,30.2864,杭州市,消防大队,细颗粒物(PM2.5),54,39,31,38,22,53,,142,114,32,17,6,6,0.7,0.6
2025-07-18T2300,1270A,117.1959,31.7848,合肥市,明珠广场,,39,27,27,17,18,123,,160,132,16,14,5,5,0.5,0.5
2025-07-18T2300,1271A,117.3072,31.8764,合肥市,三里街,,34,34,28,17,18,99,,127,113,25,12,5,6,0.5,0.5
2025-07-18T2300,1272A,117.2588,31.8707,合肥市,琥珀山庄,,37,24,23,18,17,116,,138,126,14,10,8,8,0.7,0.7
2025-07-18T2300,1273A,117.1604,31.9052,合肥市,董铺水库,,37,29,26,14,14,116,,123,116,8,6,5,5,0.4,0.4
2025-07-18T2300,1274A,117.25,31.8571,合肥市,长江中路,,39,29,28,18,18,122,,145,131,13,9,6,6,0.5,0.5
2025-07-18T2300,1275A,117.266,31.9436,合肥市,庐阳区,,38,29,28,19,16,120,,136,128,12,10,8,9,0.5,0.5
2025-07-18T2300,1276A,117.3453,31.8616,合肥市,瑶海区,,35,34,28,15,16,110,,129,120,17,10,6,6,0.7,0.7
2025-07-18T2300,1277A,117.3027,31.7964,合肥市,包河区,,31,31,30,17,18,82,,103,100,52,36,5,5,0.7,0.6
2025-07-18T2300,1278A,117.2776,31.7385,合肥市,滨湖新区,,38,31,30,22,25,119,,144,128,13,9,6,7,0.5,0.5
2025-07-18T2300,1279A,117.1318,31.8403,合肥市,高新区,,39,27,27,15,17,123,,145,129,14,11,5,5,0.6,0.5
2025-07-18T2300,3464A,117.3803,31.9147,合肥市,高教基地,,32,31,25,17,17,101,,127,119,18,9,5,5,0.6,0.6
2025-07-18T2300,3614A,79.924,37.0877,和田地区,地区环保局,颗粒物(PM10),383,486,582,155,174,64,,105,98,30,14,3,3,0.9,0.7
2025-07-18T2300,3615A,79.9131,37.113,和田地区,市环保局,颗粒物(PM10),368,474,475,132,146,22,,104,88,51,20,1,2,0.6,0.3
2025-07-18T2300,2517A,108.0497,24.6947,河池市,市环保站,,35,29,30,24,18,47,,104,76,13,9,6,7,0.7,0.6
2025-07-18T2300,2518A,108.0983,24.6989,河池市,市疾控中心,,50,50,33,25,21,32,,110,75,23,15,4,5,0.7,0.7
2025-07-18T2300,1696A,114.6778,23.7569,河源市,源西,,19,6,36,3,26,59,,82,74,9,12,3,3,0.7,0.8
2025-07-18T2300,1697A,114.6944,23.7586,河源市,东埔,,22,,37,13,31,70,,96,84,12,15,4,5,0.5,0.6
2025-07-18T2300,1698A,114.6892,23.7233,河源市,老城,,23,15,43,6,31,71,,92,78,8,13,4,5,0.4,0.6
2025-07-18T2300,1718A,115.4208,35.2464,菏泽市,气象局,,46,44,46,24,23,145,,188,171,21,22,2,3,0.4,0.4
2025-07-18T2300,3374A,115.5564,35.0891,菏泽市,定陶老年大学,,49,31,34,14,14,154,,188,171,16,18,2,2,0.3,0.3
2025-07-18T2300,4184A,115.4797,35.24401,菏泽市,永昌路1号,,48,48,40,22,22,139,,191,170,26,21,5,6,0.2,0.3
2025-07-18T2300,4193A,115.4715,35.2800,菏泽市,长城路999号,颗粒物(PM10),54,57,43,14,17,86,,194,165,36,25,6,7,0.5,0.5
2025-07-18T2300,2514A,111.5264,24.4172,贺州市,环保小区,,23,19,36,16,23,46,,85,61,7,11,11,13,0.7,0.7
2025-07-18T2300,2515A,111.5608,24.4078,贺州市,政协大楼,,48,,30,33,24,42,,94,65,11,12,13,14,0.6,0.6
2025-07-18T2300,3534A,111.4744,24.4553,贺州市,西湾,,26,,32,18,24,40,,88,63,10,10,7,7,0.4,0.5
2025-07-18T2300,2385A,114.17,35.9019,鹤壁市,市监测站,,41,37,42,23,32,129,,170,159,13,10,5,5,0.5,0.7
2025-07-18T2300,2386A,114.2956,35.7511,鹤壁市,市交警支队,,46,46,46,24,31,125,,172,155,26,21,8,5,0.9,0.9
2025-07-18T2300,2387A,114.2878,35.7306,鹤壁市,迎宾馆,,50,50,48,29,32,118,,170,155,24,16,11,6,0.7,0.7
2025-07-18T2300,3474A,114.2617,35.6822,鹤壁市,大新区,,33,33,47,21,26,93,,174,154,31,9,8,7,0.6,0.6
2025-07-18T2300,3596A,114.1572,35.9603,鹤壁市,南山宾馆,颗粒物(PM10),53,55,52,30,36,114,,178,161,25,9,5,4,0.7,0.8
2025-07-18T2300,2244A,130.2537,47.3416,鹤岗市,哈啤分公司,,18,18,16,9,11,40,,94,72,9,8,10,10,0.8,0.8
2025-07-18T2300,2245A,130.2684,47.3086,鹤岗市,斯达机电,,29,29,32,7,11,39,,91,80,17,13,11,11,0.6,0.6
2025-07-18T2300,2246A,130.3114,47.3388,鹤岗市,东山纸板厂,颗粒物(PM10),51,52,38,24,16,12,,77,49,20,16,11,11,1.1,0.9
2025-07-18T2300,2247A,130.1097,47.3382,鹤岗市,五号水库,,11,11,9,6,5,14,,85,46,9,10,7,8,0.1,0.1
2025-07-18T2300,2263A,127.4833,50.2524,黑河市,交通局,,27,27,24,8,8,27,,67,50,17,10,6,7,0.3,0.3
2025-07-18T2300,2264A,127.5144,50.2341,黑河市,环保局,,29,29,24,17,12,28,,69,53,22,11,5,6,0.3,0.3
2025-07-18T2300,1074A,115.6838,37.7541,衡水市,电机北厂,,43,41,38,25,17,136,,171,150,15,10,6,5,0.4,0.4
2025-07-18T2300,1075A,115.6303,37.7316,衡水市,市监测站,颗粒物(PM10),52,54,53,9,11,136,,169,146,15,12,9,9,0.3,0.3
2025-07-18T2300,3188A,115.6683,37.7217,衡水市,市城管局,,47,47,38,17,19,127,,171,149,17,12,2,5,0.6,0.5
2025-07-18T2300,3459A,115.5989,37.5491,衡水市,地表水厂,颗粒物(PM10),56,62,47,12,9,96,,163,134,28,32,8,7,0.2,0.2
2025-07-18T2300,2456A,112.5003,26.9167,衡阳市,原169医院,,34,34,28,18,16,85,,114,106,17,10,4,3,0.7,0.5
2025-07-18T2300,2457A,112.6194,26.9258,衡阳市,衡阳化工总厂,,39,39,37,19,23,87,,105,96,8,11,1,3,0.7,0.7
2025-07-18T2300,2458A,112.6211,26.8956,衡阳市,珠晖区环保局,,,,34,20,18,81,,105,98,14,13,4,4,0.6,0.6
2025-07-18T2300,2459A,112.6197,26.8733,衡阳市,市委党校,颗粒物(PM10),82,113,80,17,20,65,,120,93,10,10,5,6,0.7,0.7
2025-07-18T2300,2460A,112.6006,26.8919,衡阳市,市监测站,,32,32,37,18,23,91,,113,105,8,11,2,2,0.6,0.7
2025-07-18T2300,2461A,112.5664,26.9056,衡阳市,真空机电公司,,35,31,33,24,20,88,,105,98,7,7,6,5,0.9,0.8
2025-07-18T2300,3399A,112.6703,26.882,衡阳市,师范学院,,38,37,35,26,21,93,,108,100,8,9,6,6,0.8,0.8
2025-07-18T2300,2608A,103.3772,23.3993,红河哈尼族彝族自治州,污水处理厂,,29,29,21,18,13,36,,79,54,12,9,10,15,0.4,0.4
2025-07-18T2300,2609A,103.3861,23.35,红河哈尼族彝族自治州,监测站,,28,28,29,17,15,34,,72,47,6,5,7,13,0.3,0.3
2025-07-18T2300,3038A,103.3758,23.368,红河哈尼族彝族自治州,州图书馆,,23,23,17,10,15,37,,76,51,6,5,2,10,0.2,0.3
2025-07-18T2300,1090A,111.6507,40.7517,呼和浩特市,呼市一监,颗粒物(PM10),53,56,38,21,14,90,,184,156,21,16,8,9,0.5,0.5
2025-07-18T2300,1091A,111.6572,40.8033,呼和浩特市,小召,,46,46,32,22,14,104,,179,160,28,24,8,8,0.6,0.6
2025-07-18T2300,1094A,111.7516,40.8369,呼和浩特市,如意水处理厂,,42,42,35,17,14,105,,195,173,13,20,1,3,0.4,0.4
2025-07-18T2300,1095A,111.7276,40.8062,呼和浩特市,二十九中,颗粒物(PM10),55,60,40,19,21,108,,200,173,15,21,6,7,0.7,0.8
2025-07-18T2300,1096A,111.5512,40.7866,呼和浩特市,工大金川校区,颗粒物(PM10),62,74,43,25,16,99,,193,166,28,32,20,8,0.4,0.4
2025-07-18T2300,1097A,111.717,40.7612,呼和浩特市,化肥厂生活区,,50,50,35,20,14,91,,198,165,23,21,7,8,0.4,0.5
2025-07-18T2300,3698A,111.5968,40.8178,呼和浩特市,红旗小学,颗粒物(PM10),63,75,40,33,15,62,,197,162,69,25,5,6,0.5,0.4
2025-07-18T2300,3699A,111.6518,40.8389,呼和浩特市,海东办,颗粒物(PM10),64,78,35,30,15,84,,201,177,49,26,6,6,0.6,0.5
2025-07-18T2300,2192A,119.7594,49.2261,呼伦贝尔市,区环保局,,25,25,23,15,18,49,,69,64,27,23,5,6,0.4,0.5
2025-07-18T2300,3061A,119.7512,49.1577,呼伦贝尔市,国华电力东,,21,21,17,6,8,65,,90,83,6,8,3,2,0.5,0.5
2025-07-18T2300,1250A,120.0751,30.8669,湖州市,城西水厂,,42,42,38,27,26,75,,172,147,18,11,6,6,0.8,0.8
2025-07-18T2300,2873A,120.0830,30.8929,湖州市,仁皇山新区,,41,41,38,23,24,65,,165,139,21,9,3,3,0.8,0.8
2025-07-18T2300,2907A,120.1844,30.8596,湖州市,吴兴区站,,36,36,31,21,23,74,,153,130,9,6,6,6,0.5,0.6
2025-07-18T2300,3562A,120.4148,30.8538,湖州市,南浔区站,,35,26,32,24,24,72,,158,124,11,9,5,5,0.6,0.7
2025-07-18T2300,1607A,120.9049,40.7211,葫芦岛市,龙港区,,40,,28,28,16,64,,121,100,15,17,3,6,0.6,0.6
2025-07-18T2300,1608A,120.8392,40.7514,葫芦岛市,化工街,,38,34,19,14,10,21,,122,99,75,27,8,12,0.5,0.4
2025-07-18T2300,1609A,120.8341,40.7073,葫芦岛市,新区,,28,,21,19,15,72,,119,108,25,14,4,7,0.8,0.8
2025-07-18T2300,1610A,120.8695,40.7677,葫芦岛市,东城区,,47,47,27,29,17,20,,125,102,80,24,7,9,0.7,0.7
2025-07-18T2300,2482A,109.5981,27.5721,怀化市,林科所,,26,26,25,3,9,12,,60,43,6,7,10,5,0.2,0.3
2025-07-18T2300,2483A,109.9453,27.5444,怀化市,河西地税局,,25,25,24,14,16,11,,66,48,20,12,1,2,0.3,0.3
2025-07-18T2300,2484A,109.9781,27.5342,怀化市,市四医院,,30,30,34,17,18,38,,70,64,15,11,8,10,0.4,0.4
2025-07-18T2300,2485A,109.9972,27.5578,怀化市,监测楼,,25,25,29,15,18,33,,71,63,11,7,6,12,0.1,0.1
2025-07-18T2300,2486A,110.0394,27.583,怀化市,市委党校,,30,30,27,20,19,30,,74,63,10,7,13,20,0.4,0.4
2025-07-18T2300,1210A,119.036,33.5981,淮安市,钵池山,,36,,36,25,27,94,,178,149,18,13,7,7,0.7,0.7
2025-07-18T2300,1211A,119.007,33.575,淮安市,北京南路,,32,27,34,18,24,102,,173,148,12,12,7,7,0.5,0.7
2025-07-18T2300,1212A,118.989,33.6067,淮安市,市监测站,,33,19,35,19,25,104,,172,148,8,10,8,8,0.7,0.8
2025-07-18T2300,1213A,119.135,33.5039,淮安市,楚州区监测站,,35,,38,24,26,84,,156,135,12,7,7,7,0.5,0.5
2025-07-18T2300,3426A,118.8755,33.2894,淮安市,新华书店,,31,16,30,9,19,99,,151,136,8,10,8,8,0.5,0.6
2025-07-18T2300,4206A,119.0288,33.6319,淮安市,承德北路606号,,33,27,51,23,27,98,,169,145,11,12,6,6,0.5,0.6
2025-07-18T2300,2282A,116.8004,33.975,淮北市,监测站,,49,32,35,25,20,156,,192,177,11,8,7,8,0.7,0.7
2025-07-18T2300,2283A,116.8091,33.9007,淮北市,烈山区政府,颗粒物(PM10),56,61,46,26,17,151,,187,172,12,7,7,9,0.7,0.7
2025-07-18T2300,3330A,116.8873,33.9836,淮北市,杜集区检察院,,47,41,28,31,18,150,,186,172,9,8,7,7,0.7,0.7
2025-07-18T2300,4017A,116.7923,33.9535,淮北市,市博物馆,,50,50,34,30,18,153,,191,178,12,8,9,9,0.7,0.7
2025-07-18T2300,2277A,116.8305,32.7727,淮南市,潘集区政府,颗粒物(PM10),56,62,45,26,21,142,,166,156,10,9,1,2,0.3,0.3
2025-07-18T2300,2279A,116.8569,32.5951,淮南市,谢家集区政府,,40,38,37,18,19,125,,162,149,9,9,9,8,0.3,0.4
2025-07-18T2300,2280A,116.8281,32.633,淮南市,八公山区政府,,44,44,38,21,19,131,,172,157,8,7,4,7,0.4,0.5
2025-07-18T2300,2894A,117.0566,32.6531,淮南市,经济技术开发区消防队,,50,50,29,20,9,127,,157,149,15,10,7,7,0.3,0.2
2025-07-18T2300,3329A,117.0108,32.5893,淮南市,山南新区,,44,44,40,24,16,125,,163,156,8,7,9,9,0.4,0.4
2025-07-18T2300,4209A,117.0031,32.6445,淮南市,国庆中路369号,,42,36,34,28,21,132,,174,168,8,6,11,11,0.3,0.3
2025-07-18T2300,2446A,114.9028,30.4742,黄冈市,职工中心,,39,28,27,24,18,124,,135,128,2,2,8,8,0.6,0.5
2025-07-18T2300,2929A,114.8858,30.4519,黄冈市,红卫路,,37,24,24,17,14,116,,139,128,1,2,8,8,0.5,0.4
2025-07-18T2300,3398A,114.9136,30.4445,黄冈市,市林业局,,35,31,27,13,14,112,,146,134,4,6,6,7,0.4,0.3
2025-07-18T2300,2672A,102.0199,35.5102,黄南藏族自治州,同仁县隆务镇,,34,34,28,16,11,62,,68,66,17,17,9,9,0.3,0.3
2025-07-18T2300,2295A,118.2903,29.6963,黄山市,延安路89号,,40,36,27,15,13,127,,135,130,4,6,3,3,0.4,0.5
2025-07-18T2300,2297A,118.1371,30.2756,黄山市,黄山区政府5号楼,,41,41,26,18,14,57,,124,107,9,4,4,4,0.5,0.5
2025-07-18T2300,4210A,118.3354,29.7203,黄山市,滨江东路7-2号,,38,35,30,23,12,119,,131,125,4,4,2,2,0.5,0.5
2025-07-18T2300,2423A,115.0601,30.2313,黄石市,沈家营,颗粒物(PM10),52,54,42,18,13,102,,134,120,15,9,13,8,1.2,0.6
2025-07-18T2300,2426A,114.8988,30.2019,黄石市,铁山,,34,30,25,12,11,108,,138,117,24,9,11,12,0.1,0.3
2025-07-18T2300,2427A,115.0307,30.2092,黄石市,团城山,,44,38,28,17,9,138,,152,140,4,5,7,8,1.1,0.8
2025-07-18T2300,3149A,115.0235,30.1578,黄石市,笔架山北路,,40,30,27,10,7,127,,144,130,8,8,6,7,0.5,0.5
2025-07-18T2300,4185A,115.0780,30.21118,黄石市,磁湖东路29号,,44,44,43,24,16,126,,140,124,1,9,9,7,0.5,0.6
2025-07-18T2300,1392A,114.4183,23.0528,惠州市,河南岸金山湖子站,,43,43,37,24,21,43,,89,58,25,20,7,7,0.6,0.6
2025-07-18T2300,1393A,114.4053,23.0822,惠州市,下埔横江三路子站,,42,42,38,26,24,57,,94,70,21,17,4,4,0.4,0.4
2025-07-18T2300,1394A,114.4103,23.1142,惠州市,江北云山西路子站,,38,38,40,24,24,63,,97,70,16,16,9,7,0.6,0.6
2025-07-18T2300,1395A,114.4645,22.7833,惠州市,惠阳区承修路船湖子站,,50,50,39,30,21,47,,94,55,26,24,7,7,0.7,0.6
2025-07-18T2300,1396A,114.5317,22.7422,惠州市,大亚湾管委会子站,,37,37,28,23,17,53,,87,49,28,24,7,7,0.7,0.6
2025-07-18T2300,3314A,114.4338,22.8134,惠州市,惠阳秋长,,,36,42,30,24,,,82,,22,27,9,6,0.5,0.5
2025-07-18T2300,3452A,114.6517,22.775,惠州市,大亚湾霞涌,,33,32,20,23,16,66,,96,74,22,18,6,6,0.9,0.9
2025-07-18T2300,2240A,130.9762,45.3001,鸡西市,环保局,,20,20,20,3,8,30,,92,66,23,13,6,5,0.3,0.3
2025-07-18T2300,2243A,130.9429,45.3039,鸡西市,第一中学,,22,22,16,8,8,42,,91,68,24,13,9,9,0.4,0.3
2025-07-18T2300,3707A,131.0207,45.3073,鸡西市,欧美日汽修厂,,32,32,22,10,7,14,,88,62,27,14,6,7,0.3,0.2
2025-07-18T2300,3709A,130.9967,45.3106,鸡西市,市政设施管理处,,34,34,20,12,9,20,,87,59,27,17,4,6,0.5,0.5
2025-07-18T2300,2367A,114.9754,27.0803,吉安市,红声器材厂,,26,26,38,15,21,71,,108,92,7,7,7,7,0.7,0.7
2025-07-18T2300,2368A,114.9658,27.0999,吉安市,市森林工业局,,26,26,39,15,21,74,,110,96,5,7,8,8,0.5,0.5
2025-07-18T2300,2369A,114.99,27.1312,吉安市,市环境监测站,,,26,34,18,19,,,138,,6,7,10,14,0.6,0.6
2025-07-18T2300,2370A,115.0093,27.0968,吉安市,青原区法院,,31,31,36,18,20,50,,100,83,15,12,8,7,0.8,0.7
2025-07-18T2300,1772A,126.54,43.8622,吉林市,哈达湾,,25,25,14,17,9,35,,101,78,23,12,6,7,0.6,0.4
2025-07-18T2300,1773A,126.5844,43.8358,吉林市,东局子,,27,27,20,11,8,40,,88,63,12,13,5,5,0.6,0.5
2025-07-18T2300,1774A,126.5052,43.8245,吉林市,电力学院,,26,26,19,14,11,26,,103,72,22,10,5,5,0.7,0.6
2025-07-18T2300,1775A,126.6133,43.8972,吉林市,江北,,,19,17,,,53,,97,70,8,9,2,3,0.9,0.6
2025-07-18T2300,1776A,126.555,43.8306,吉林市,江南公园,,28,,16,19,14,42,,93,69,9,11,2,2,0.4,0.6
2025-07-18T2300,2868A,126.4739,43.953,吉林市,九站,,25,25,23,16,10,54,,100,74,22,17,2,3,0.5,0.5
2025-07-18T2300,1299A,116.9862,36.6114,济南市,科干所,,41,34,31,22,16,129,,186,159,23,25,6,6,0.5,0.4
2025-07-18T2300,1300A,116.9376,36.665,济南市,农科所,,44,34,36,17,15,140,,187,164,18,22,8,8,0.4,0.4
2025-07-18T2300,1301A,117.1265,36.6734,济南市,开发区,颗粒物(PM10),52,54,31,24,17,119,,182,156,37,22,9,8,0.7,0.6
2025-07-18T2300,1303A,117.0624,36.6868,济南市,省种子仓库,颗粒物(PM10),53,56,41,19,15,152,,200,172,22,24,7,7,0.6,0.5
2025-07-18T2300,1304A,116.9489,36.6447,济南市,机床二厂,颗粒物(PM10),51,51,42,22,17,139,,188,162,26,26,7,6,0.3,0.5
2025-07-18T2300,1305A,117.0495,36.663,济南市,市监测站,,42,42,29,15,14,132,,181,152,27,22,9,9,0.6,0.5
2025-07-18T2300,1306A,116.7675,36.5484,济南市,长清党校,,46,37,29,17,21,145,,174,166,20,18,5,5,0.5,0.5
2025-07-18T2300,1616A,117.6795,36.229,济南市,技术学院,,36,29,34,22,23,115,,194,180,26,28,9,10,0.6,0.8
2025-07-18T2300,1961A,117.532,36.6868,济南市,东山小学,颗粒物(PM10),58,66,34,27,16,94,,186,159,29,19,12,8,0.5,0.3
2025-07-18T2300,3059A,117.7161,36.2049,济南市,泰兴公司,,31,31,38,19,22,97,,191,174,30,30,8,9,0.5,0.6
2025-07-18T2300,3064A,117.6867,36.2171,济南市,莱芜战役纪念馆,,40,39,42,28,25,105,,193,178,27,30,8,9,0.9,0.9
2025-07-18T2300,3494A,117.1673,36.9782,济南市,济阳区政府,,44,44,41,22,14,103,,177,156,16,22,13,9,0.4,0.4
2025-07-18T2300,3495A,117.1171,36.63,济南市,锦屏中学,,37,37,25,20,12,105,,188,158,20,14,8,8,0.7,0.6
2025-07-18T2300,3682A,116.9814,36.6819,济南市,济南四建,,45,41,36,24,18,143,,195,170,25,26,6,5,0.6,0.5
2025-07-18T2300,1653A,116.6251,35.4302,济宁市,火炬城,,50,50,38,19,19,107,,163,145,18,13,4,5,0.6,0.6
2025-07-18T2300,1655A,116.5491,35.4042,济宁市,电化厂,,45,45,39,19,18,121,,179,160,23,11,8,7,0.7,0.6
2025-07-18T2300,3500A,116.5814,35.3707,济宁市,北湖一中,,41,40,39,17,19,131,,170,150,19,15,8,7,0.5,0.5
2025-07-18T2300,3501A,116.8249,35.5593,济宁市,服务中心,,42,42,37,12,12,114,,161,146,22,30,2,2,0.4,0.4
2025-07-18T2300,3678A,116.5907,35.4054,济宁市,市第七中学,,44,44,39,19,15,133,,162,151,15,11,5,6,0.5,0.4
2025-07-18T2300,2255A,130.2751,46.8028,佳木斯市,佳纺,,30,30,25,13,14,0,,82,43,45,24,8,8,0.4,0.4
2025-07-18T2300,2256A,130.3995,46.8307,佳木斯市,发电厂,,34,34,24,19,15,19,,77,40,28,27,5,6,0.7,0.6
2025-07-18T2300,2257A,130.3258,46.7975,佳木斯市,环保局,,37,37,29,18,15,2,,85,47,57,29,9,9,0.6,0.6
2025-07-18T2300,2258A,130.3648,46.8032,佳木斯市,十一中,,33,32,23,23,16,3,,94,46,56,23,6,7,0.8,0.6
2025-07-18T2300,2259A,130.3794,46.7588,佳木斯市,四丰,,,,,,,4,,,,35,19,1,11,0.6,0.6
2025-07-18T2300,1252A,120.7436,30.778,嘉兴市,清河小学,,19,8,28,8,19,59,,158,124,13,12,7,8,0.5,0.6
2025-07-18T2300,1253A,120.726,30.7478,嘉兴市,嘉兴学院,,18,15,27,9,22,55,,161,126,11,8,3,3,0.7,0.8
2025-07-18T2300,2872A,120.7846,30.7525,嘉兴市,南湖区残联,,18,10,26,7,18,56,,157,120,10,8,6,5,0.4,0.6
2025-07-18T2300,3407A,120.6916,30.7739,嘉兴市,秀洲住建,,20,13,31,9,21,61,,171,134,18,13,5,5,0.5,0.6
2025-07-18T2300,1945A,98.2908,39.7711,嘉峪关市,气象局,颗粒物(PM10),59,68,93,22,24,65,,120,105,24,11,9,13,0.9,0.8
2025-07-18T2300,2884A,98.2672,39.7978,嘉峪关市,酒钢宾馆,颗粒物(PM10),62,73,105,22,24,82,,131,117,20,9,10,15,1.5,1.4
2025-07-18T2300,3248A,98.2643,39.7724,嘉峪关市,雄关区,颗粒物(PM10),55,60,77,17,19,66,,109,94,29,15,9,8,0.9,0.7
2025-07-18T2300,1383A,113.1064,22.6058,江门市,北街,,24,24,35,10,23,53,,104,79,28,13,2,2,0.5,0.5
2025-07-18T2300,1384A,113.0731,22.5835,江门市,西区,,24,24,36,15,22,53,,101,73,22,15,5,6,0.6,0.7
2025-07-18T2300,1385A,113.0219,22.5311,江门市,圭峰西,,28,27,40,19,23,35,,85,58,16,11,4,5,0.7,0.7
2025-07-18T2300,1386A,113.0828,22.5947,江门市,东湖,,19,16,32,13,24,41,,92,66,18,14,5,5,0.6,0.6
2025-07-18T2300,3311A,113.1075,22.5647,江门市,江海富民,,28,28,46,16,25,62,,98,77,18,15,7,8,0.4,0.4
2025-07-18T2300,3449A,113.05,22.4667,江门市,新会银湖,,26,,32,18,23,21,,82,44,30,16,2,3,0.5,0.4
2025-07-18T2300,3335A,113.3137,35.2641,焦作市,马村街道办,,50,50,47,24,28,124,,186,167,17,14,5,8,0.6,0.7
2025-07-18T2300,3336A,113.2465,35.2373,焦作市,焦作技师学院,,41,41,40,17,14,130,,176,165,13,11,5,5,0.8,0.8
2025-07-18T2300,3477A,113.1656,35.2539,焦作市,中站许衡医院,,42,38,33,22,22,133,,184,171,15,9,8,7,0.6,0.5
2025-07-18T2300,3981A,113.2449,35.1803,焦作市,原李万街道办,颗粒物(PM10),52,53,46,17,14,129,,181,164,16,12,10,8,0.9,0.8
2025-07-18T2300,4264A,113.2340,35.2190,焦作市,新安路1731号,,45,43,38,17,18,141,,187,172,10,8,5,5,0.3,0.3
2025-07-18T2300,4295A,113.2722,35.2121,焦作市,人民路3066号,颗粒物(PM10),52,53,47,26,26,124,,178,161,20,13,9,6,0.3,0.3
2025-07-18T2300,1708A,116.3701,23.5345,揭阳市,新兴,,25,,26,16,20,77,,136,112,7,10,4,7,0.6,0.7
2025-07-18T2300,1709A,116.3264,23.5443,揭阳市,西马,,24,,24,7,13,75,,137,110,4,5,2,4,0.6,0.7
2025-07-18T2300,1710A,116.3611,23.5626,揭阳市,东兴,,20,12,22,10,12,63,,115,94,8,10,2,4,0.6,0.7
2025-07-18T2300,1711A,116.4151,23.5294,揭阳市,渔湖,,25,6,25,6,12,79,,132,110,7,12,5,7,0.5,0.5
2025-07-18T2300,3320A,116.403,23.5699,揭阳市,曲溪,,23,12,22,6,12,73,,140,110,10,10,4,6,0.5,0.6
2025-07-18T2300,1944A,102.1692,38.5167,金昌市,天庆家园,颗粒物(PM10),54,58,205,23,51,97,,100,100,7,6,14,22,0.8,0.9
2025-07-18T2300,4022A,102.1647,38.5371,金昌市,金川区人防中心,颗粒物(PM10),53,56,221,21,57,90,,105,103,8,6,9,9,0.6,0.6
2025-07-18T2300,4239A,102.1930,38.5319,金昌市,长春路96号,,46,46,209,20,54,91,,104,103,3,4,12,11,1.0,0.8
2025-07-18T2300,1262A,119.647,29.077,金华市,十五中,,17,16,25,11,15,54,,138,90,22,16,1,2,0.3,0.4
2025-07-18T2300,1263A,119.686,29.1029,金华市,监测站,,23,23,26,13,15,48,,134,86,24,16,2,3,0.3,0.4
2025-07-18T2300,3659A,119.656,29.1131,金华市,气象局,,23,23,27,11,14,37,,128,80,31,17,3,3,0.6,0.6
2025-07-18T2300,1767A,121.1115,41.0879,锦州市,南山,,36,32,21,25,14,57,,112,97,32,10,6,5,0.7,0.6
2025-07-18T2300,1768A,121.0604,40.8428,锦州市,开发区,颗粒物(PM10),55,59,30,18,14,37,,122,97,60,21,6,8,0.7,0.9
2025-07-18T2300,1769A,121.1836,41.1119,锦州市,百股街道,,27,27,20,12,5,59,,121,104,25,13,6,7,0.7,0.6
2025-07-18T2300,1770A,121.1178,41.1222,锦州市,天安街道,,43,35,20,30,12,69,,109,101,31,15,7,7,0.9,0.6
2025-07-18T2300,1771A,121.1303,41.1386,锦州市,北湖公园,,46,,21,32,13,75,,105,99,23,9,6,5,0.9,0.7
2025-07-18T2300,2160A,112.85,35.5051,晋城市,自来水公司,臭氧1小时,54,52,49,17,17,163,,184,183,11,10,4,4,0.5,0.5
2025-07-18T2300,2161A,112.8318,35.4936,晋城市,白云商贸,颗粒物(PM10),56,62,42,17,9,151,,170,169,9,9,6,6,0.5,0.5
2025-07-18T2300,2162A,112.8508,35.4887,晋城市,市环保局,,48,48,47,19,16,145,,167,166,6,6,4,4,0.4,0.4
2025-07-18T2300,2163A,112.8676,35.4897,晋城市,技术学院,颗粒物(PM10),52,53,40,19,14,141,,162,161,8,8,4,4,0.5,0.5
2025-07-18T2300,3620A,112.8271,35.4828,晋城市,泽州一中,颗粒物(PM10),75,100,41,27,13,157,,175,172,6,4,3,4,0.6,0.3
2025-07-18T2300,2173A,112.7249,37.7067,晋中市,南都小区,颗粒物(PM10),53,55,40,28,21,138,,161,145,5,10,6,5,1.0,0.5
2025-07-18T2300,2174A,112.6991,37.6982,晋中市,榆次区政府,,46,46,39,22,15,145,,164,150,6,10,12,10,1.0,0.7
2025-07-18T2300,2865A,112.7195,37.6828,晋中市,榆次三中,,45,44,38,22,17,142,,168,150,6,11,11,10,1.1,0.7
2025-07-18T2300,4200A,112.7478,37.6954,晋中市,迎宾街26号,颗粒物(PM10),52,53,44,24,16,148,,165,143,8,17,11,10,0.7,0.4
2025-07-18T2300,2439A,112.2014,31.0481,荆门市,竹园小学,,43,43,30,19,16,65,,129,100,23,12,2,2,0.7,0.9
2025-07-18T2300,2440A,112.1969,30.9891,荆门市,掇刀,,30,26,56,8,24,93,,121,107,6,18,12,42,0.7,0.6
2025-07-18T2300,2441A,112.2213,31.0386,荆门市,石化一小,,42,42,32,12,20,76,,140,107,23,10,6,7,0.6,0.6
2025-07-18T2300,3012A,112.1849,31.0362,荆门市,西山林语,,26,19,27,16,15,83,,131,97,10,4,6,6,0.5,0.6
2025-07-18T2300,3547A,112.1632,31.0138,荆门市,龙泉中学南校,,26,23,24,17,16,81,,131,106,12,7,4,4,0.7,0.7
2025-07-18T2300,1844A,112.2494,30.3197,荆州市,市图书馆,,28,23,23,16,14,88,,138,121,9,9,3,3,0.6,0.6
2025-07-18T2300,1845A,112.2008,30.3544,荆州市,市委党校,,35,35,28,21,16,72,,127,111,19,13,2,2,0.7,0.7
2025-07-18T2300,3194A,112.2747,30.3122,荆州市,管委会,,35,32,24,24,13,63,,126,95,17,12,6,6,0.7,0.7
2025-07-18T2300,4268A,112.1722,30.3366,荆州市,学苑路85号,,35,26,20,24,19,76,,135,122,10,8,4,4,0.5,0.5
2025-07-18T2300,2343A,117.2117,29.2933,景德镇市,老干部活动中心,,32,32,23,18,12,95,,109,106,7,6,6,6,0.4,0.4
2025-07-18T2300,2344A,117.1894,29.2789,景德镇市,兽医站,,32,32,27,18,14,99,,117,114,8,5,3,3,0.8,0.8
2025-07-18T2300,2346A,117.2461,29.2956,景德镇市,陶研所,,35,35,26,21,17,67,,114,106,9,7,4,4,0.8,0.8
2025-07-18T2300,1803A,115.9872,29.6815,九江市,十里,,43,,23,30,24,126,,146,138,11,9,4,4,0.8,0.7
2025-07-18T2300,1804A,115.9584,29.7046,九江市,茅山头,,50,38,32,35,21,130,,141,136,7,7,5,4,0.6,0.6
2025-07-18T2300,1805A,115.9877,29.7295,九江市,西园,颗粒物(PM10),92,134,30,17,15,136,,154,142,14,13,5,5,0.7,0.8
2025-07-18T2300,1808A,115.9114,29.6038,九江市,综合工业园,,45,29,26,19,18,142,,158,149,7,11,6,5,0.6,0.9
2025-07-18T2300,1809A,116.0721,29.7535,九江市,石化总厂,,39,36,30,22,16,123,,129,125,13,17,8,8,0.6,0.7
2025-07-18T2300,1810A,115.9773,29.5698,九江市,庐山气象台,,50,30,20,28,13,158,,150,150,9,5,7,6,1.2,0.8
2025-07-18T2300,3190A,116.0254,29.6994,九江市,外国语学校,,40,27,21,25,18,127,,150,139,11,9,7,7,0.8,0.9
2025-07-18T2300,4253A,116.0102,29.6594,九江市,莲花大道8号,,39,22,20,18,18,122,,134,125,3,2,4,4,0.7,0.8
2025-07-18T2300,4240A,98.4958,39.7339,酒泉市,玉门东路5号,颗粒物(PM10),69,88,122,40,38,56,,114,95,20,10,11,12,0.3,0.3
2025-07-18T2300,4241A,98.5099,39.7506,酒泉市,北大街108号,颗粒物(PM10),57,63,130,29,32,70,,126,104,14,9,17,20,0.5,0.3
2025-07-18T2300,2698A,76.0072,39.4467,喀什地区,巡警大队,颗粒物(PM10),101,151,104,45,30,94,,126,117,31,31,4,5,0.5,0.5
2025-07-18T2300,2699A,75.9755,39.4694,喀什地区,吾办,颗粒物(PM10),96,142,117,55,45,87,,126,117,24,34,5,6,0.7,0.7
2025-07-18T2300,4027A,75.9483,39.4689,喀什地区,老干局,颗粒物(PM10),95,140,114,56,35,82,,130,118,31,27,6,5,0.5,0.5
2025-07-18T2300,1824A,114.3389,34.7781,开封市,肿瘤医院,颗粒物(PM10),53,56,50,24,26,151,,190,174,21,17,2,3,0.7,0.8
2025-07-18T2300,1826A,114.2885,34.7965,开封市,世纪星幼儿园,臭氧1小时,55,42,49,27,27,164,,178,172,14,15,4,4,0.8,0.9
2025-07-18T2300,3147A,114.3438,34.8106,开封市,龙亭公园,,49,42,48,20,22,155,,183,166,16,14,3,2,0.5,0.6
2025-07-18T2300,3210A,114.3644,34.7964,开封市,汴京公园,颗粒物(PM10),53,55,57,26,28,148,,184,169,18,14,5,5,0.6,0.6
2025-07-18T2300,3473A,114.2485,34.8306,开封市,技师学院,,48,48,49,33,27,119,,182,166,33,20,8,6,0.8,0.8
2025-07-18T2300,3592A,114.4644,34.7556,开封市,祥符区生态环境局,,40,40,44,18,24,122,,177,153,35,27,4,5,0.6,0.6
2025-07-18T2300,1951A,84.895,45.6094,克拉玛依市,长征新村,,29,25,28,3,8,91,,118,109,10,10,3,4,0.6,0.6
2025-07-18T2300,1952A,84.8988,45.5893,克拉玛依市,南林小区,,28,22,28,11,13,89,,117,107,8,12,5,5,0.1,0.1
2025-07-18T2300,1954A,84.905,44.3396,克拉玛依市,独山子区,,48,48,23,12,14,62,,120,101,30,10,8,8,0.6,0.3
2025-07-18T2300,1955A,85.6979,46.098,克拉玛依市,乌尔禾区商贸楼,,48,48,25,14,14,76,,107,95,13,6,5,5,0.3,0.4
2025-07-18T2300,3612A,85.1045,45.6899,克拉玛依市,白碱滩区新站,颗粒物(PM10),53,55,39,30,19,93,,130,121,10,10,9,10,0.3,0.6
2025-07-18T2300,2697A,76.1454,39.7142,克孜勒苏柯尔克孜自治州,市人民政府,颗粒物(PM10),93,136,85,49,38,30,,133,116,88,17,4,14,0.6,0.2
2025-07-18T2300,3665A,76.1658,39.7157,克孜勒苏柯尔克孜自治州,克州文化中心,颗粒物(PM10),107,163,93,47,43,80,,133,125,40,16,4,13,0.3,0.3
2025-07-18T2300,1450A,102.8204,24.8886,昆明市,呈贡新区,,36,,22,25,19,46,,104,84,35,20,6,6,0.6,0.5
2025-07-18T2300,1452A,102.7252,25.0902,昆明市,龙泉镇,,40,40,25,14,13,20,,114,78,34,17,1,1,0.6,0.4
2025-07-18T2300,1453A,102.7266,25.0375,昆明市,东风东路,,24,24,25,14,16,44,,112,79,20,16,5,5,0.5,0.4
2025-07-18T2300,1454A,102.6742,25.0669,昆明市,金鼎山,,24,24,28,6,12,48,,109,79,10,13,2,2,0.4,0.5
2025-07-18T2300,1455A,102.6644,25.0401,昆明市,碧鸡广场,,27,27,27,10,14,37,,98,68,20,16,5,6,0.5,0.5
2025-07-18T2300,3179A,102.7494,25.0119,昆明市,官渡区博物馆,,19,19,27,6,11,49,,114,85,13,11,2,2,0.4,0.4
2025-07-18T2300,3375A,102.8017,24.8336,昆明市,青年创业园,,46,46,33,17,20,60,,97,85,14,17,3,8,0.6,0.6
2025-07-18T2300,3550A,102.7997,24.9786,昆明市,昆明学院,,26,26,29,17,17,49,,118,91,25,23,9,7,0.5,0.4
2025-07-18T2300,3551A,102.5967,24.6736,昆明市,晋宁区生态环境分局,,36,36,18,14,12,47,,89,69,12,13,4,5,0.5,0.5
2025-07-18T2300,3552A,102.6678,24.9856,昆明市,云天化总部,,18,18,21,10,13,49,,102,78,9,12,3,6,0.3,0.3
2025-07-18T2300,1456A,91.1319,29.6514,拉萨市,八廓街,,28,17,18,7,10,89,,127,116,16,15,4,5,0.3,0.2
2025-07-18T2300,1457A,91.1221,29.6747,拉萨市,市环保局,,27,27,21,16,10,70,,132,110,24,14,6,6,0.4,0.3
2025-07-18T2300,1458A,91.0874,29.6475,拉萨市,区监测站,,27,24,13,10,8,56,,118,105,53,18,4,3,0.3,0.2
2025-07-18T2300,1459A,91.1774,29.6541,拉萨市,西藏大学,,27,23,15,9,7,85,,122,115,24,13,6,6,0.2,0.2
2025-07-18T2300,1460A,90.9798,29.6588,拉萨市,区辐射站,,28,17,19,8,8,89,,110,106,12,16,5,5,0.2,0.3
2025-07-18T2300,1461A,91.0834,29.6292,拉萨市,拉萨火车站,,24,19,13,14,8,74,,122,113,27,12,5,4,0.4,0.2
2025-07-18T2300,2520A,109.2203,23.7256,来宾市,来宾技工学校,颗粒物(PM10),54,57,54,35,28,64,,164,136,21,19,7,13,0.7,0.7
2025-07-18T2300,3535A,109.1781,23.7297,来宾市,兴宾区政府,细颗粒物(PM2.5),60,60,32,43,20,64,,145,128,22,15,7,7,0.7,0.6
2025-07-18T2300,4002A,109.2416,23.7461,来宾市,中南小学,,45,45,47,22,24,78,,168,141,17,16,2,3,0.6,0.7
2025-07-18T2300,1479A,103.831,36.0464,兰州市,铁路设计院,颗粒物(PM10),152,253,71,58,25,100,,121,106,16,22,14,10,0.4,0.4
2025-07-18T2300,3241A,103.7439,36.0842,兰州市,百合公园,颗粒物(PM10),128,206,50,44,22,91,,122,102,10,12,8,7,0.9,0.4
2025-07-18T2300,3242A,103.9611,35.998,兰州市,和平,颗粒物(PM10),172,294,62,85,21,94,,113,107,14,13,14,11,0.8,0.7
2025-07-18T2300,4236A,103.6293,36.0938,兰州市,庄浪东路808号,颗粒物(PM10),156,262,76,65,33,96,,147,113,16,19,12,13,0.4,0.4
2025-07-18T2300,4237A,103.7251,36.1043,兰州市,安宁西路88号,颗粒物(PM10),143,235,66,53,26,110,,140,126,5,6,9,7,0.5,0.4
2025-07-18T2300,4238A,103.8470,36.0676,兰州市,北滨河东路1号,颗粒物(PM10),108,166,52,46,25,75,,127,104,28,17,19,9,1.2,0.6
2025-07-18T2300,3246A,103.6975,36.4789,兰州新区,舟曲中学,颗粒物(PM10),151,252,68,56,28,100,,116,109,16,12,6,10,0.4,0.5
2025-07-18T2300,1067A,116.6708,39.5111,廊坊市,药材公司,,44,44,44,20,19,138,,201,185,16,27,4,4,0.4,0.3
2025-07-18T2300,1068A,116.7214,39.5589,廊坊市,开发区,,49,42,46,24,20,156,,206,195,15,31,4,3,0.5,0.4
2025-07-18T2300,1070A,116.7244,39.5269,廊坊市,北华航天学院,颗粒物(PM10),67,84,60,17,20,149,,212,198,9,21,4,3,0.5,0.4
2025-07-18T2300,2919A,116.7022,39.5453,廊坊市,河北工业大学,臭氧1小时,52,52,58,16,17,161,,207,196,11,25,6,5,0.5,0.4
2025-07-18T2300,2535A,103.7723,29.5462,乐山市,花湖湾,,25,24,36,17,27,45,,114,66,12,14,2,2,0.8,0.8
2025-07-18T2300,2536A,103.7627,29.5844,乐山市,牛耳桥,,27,27,39,15,29,59,,136,89,20,22,5,6,0.8,0.8
2025-07-18T2300,2537A,103.7508,29.6006,乐山市,市第三水厂,,24,24,38,11,15,68,,136,92,23,23,4,3,1.0,1
2025-07-18T2300,2538A,103.7571,29.5664,乐山市,市监测站,,29,29,39,20,27,48,,122,76,21,18,4,5,1.0,0.9
2025-07-18T2300,3361A,103.7311,29.5628,乐山市,理工大学,,29,29,35,20,27,44,,122,68,25,22,5,4,1.0,1
2025-07-18T2300,2599A,100.2497,26.8802,丽江市,丽江古城,,40,36,30,28,19,75,,100,91,13,11,10,10,0.6,0.5
2025-07-18T2300,2600A,100.2203,26.8906,丽江市,市中心,,29,22,20,20,18,88,,102,93,11,11,9,9,0.7,0.7
2025-07-18T2300,1267A,119.914,28.4514,丽水市,监测站大楼,,9,,22,6,10,19,,90,52,8,11,4,5,0.2,0.3
2025-07-18T2300,1268A,119.93,28.4586,丽水市,莲都小学,,7,6,21,3,8,20,,92,56,6,10,3,3,0.2,0.3
2025-07-18T2300,1269A,119.879,28.4231,丽水市,余庄前,,7,7,20,3,13,8,,96,54,5,7,4,4,0.2,0.4
2025-07-18T2300,1173A,119.176,34.5885,连云港市,市环境监测站,,36,36,34,22,22,110,,182,151,16,14,4,5,0.4,0.4
2025-07-18T2300,3000A,119.3581,34.6972,连云港市,德源药业,,41,41,39,17,19,88,,164,132,30,29,4,4,0.9,0.8
2025-07-18T2300,3007A,119.178,34.844,连云港市,新城一中,,34,34,37,16,22,86,,190,149,39,23,6,7,0.8,0.8
2025-07-18T2300,3008A,119.3608,34.7519,连云港市,胡沟管理处,,38,22,26,12,17,120,,168,143,11,16,9,8,0.6,0.6
2025-07-18T2300,3009A,119.1478,34.5911,连云港市,矿山设计院,,36,36,35,24,23,110,,179,148,16,16,4,4,0.6,0.5
2025-07-18T2300,3434A,119.2413,34.6539,连云港市,工贸学校,,38,28,31,22,22,120,,178,151,6,10,8,7,0.9,0.9
2025-07-18T2300,3664A,119.4172,34.7341,连云港市,连云街道,,38,33,31,19,19,119,,170,153,12,17,7,5,0.7,0.7
2025-07-18T2300,2571A,102.3431,27.8099,凉山彝族自治州,青龙寺,,37,37,30,16,13,51,,100,67,7,8,6,7,0.6,0.6
2025-07-18T2300,2572A,102.2721,27.8415,凉山彝族自治州,邛海宾馆,,39,39,35,25,23,66,,122,86,10,18,8,10,0.5,0.6
2025-07-18T2300,2573A,102.2625,27.898,凉山彝族自治州,西昌市政府,,29,24,28,20,24,63,,118,87,9,9,6,11,0.5,0.6
2025-07-18T2300,2574A,102.2685,27.8851,凉山彝族自治州,凉山州政府,,46,43,34,32,25,62,,120,89,19,17,9,13,0.8,0.8
2025-07-18T2300,4229A,102.2342,27.8859,凉山彝族自治州,凯乐南路30号,,35,34,35,24,24,67,,113,90,7,14,7,13,0.8,1.1
2025-07-18T2300,2212A,123.2,41.1953,辽阳市,宏伟区,,18,11,37,3,19,57,,122,96,10,22,2,2,0.7,0.9
2025-07-18T2300,2213A,123.1683,41.2495,辽阳市,新华园,,22,20,38,15,19,53,,134,108,16,21,2,4,0.6,0.6
2025-07-18T2300,2214A,123.2354,41.2639,辽阳市,滨河路,,33,33,36,17,20,42,,134,96,12,20,3,3,0.5,0.5
2025-07-18T2300,2215A,123.149,41.2991,辽阳市,铁西工业园,,26,26,37,13,17,58,,114,95,12,17,4,3,0.8,0.7
2025-07-18T2300,2227A,125.1358,42.8845,辽源市,环保局,,35,35,24,16,8,41,,113,84,14,12,5,6,0.5,0.6
2025-07-18T2300,3239A,125.0764,42.9078,辽源市,银鹰制药,,45,39,20,31,14,33,,114,80,29,19,6,6,0.4,0.6
2025-07-18T2300,1625A,115.9848,36.4372,聊城市,区政府,,49,34,33,18,19,154,,190,173,14,16,5,7,0.6,0.7
2025-07-18T2300,2878A,116.0072,36.4343,聊城市,聊大东校,,48,34,36,23,24,151,,188,172,15,18,6,6,0.7,0.8
2025-07-18T2300,3200A,115.9819,36.4978,聊城市,监控中心,,41,28,38,9,18,131,,202,168,23,29,7,7,0.5,0.6
2025-07-18T2300,3513A,116.0445,36.4361,聊城市,九州社区,,41,41,45,16,24,131,,177,158,21,22,4,6,0.4,0.5
2025-07-18T2300,4018A,116.0567,36.4608,聊城市,星美广场,,46,46,54,16,25,130,,178,155,19,23,4,6,0.5,0.7
2025-07-18T2300,2632A,94.3681,29.6376,林芝市,林芝监测站,,21,13,13,7,6,66,,92,82,2,4,6,6,0.4,0.4
2025-07-18T2300,2633A,94.3616,29.6616,林芝市,林芝人民医院,,35,35,17,8,7,66,,98,87,1,3,2,4,0.4,0.3
2025-07-18T2300,2603A,100.0781,23.8982,临沧市,市环保局,,42,,18,29,13,31,,48,43,6,6,12,10,0.3,0.3
2025-07-18T2300,2604A,100.0894,23.8822,临沧市,市气象局,,16,15,18,11,14,25,,41,38,8,6,9,8,0.5,0.5
2025-07-18T2300,1733A,111.5531,36.0783,临汾市,临钢医院,颗粒物(PM10),51,52,51,18,15,131,,175,161,16,11,4,5,0.6,0.8
2025-07-18T2300,1734A,111.5028,36.0714,临汾市,技工学校,颗粒物(PM10),52,53,49,28,28,124,,187,158,17,12,5,5,0.5,0.5
2025-07-18T2300,1736A,111.5018,36.0855,临汾市,市委,颗粒物(PM10),60,69,61,17,16,134,,206,171,19,13,6,7,0.5,0.6
2025-07-18T2300,3018A,111.505,36.1014,临汾市,唐尧大酒店,颗粒物(PM10),57,63,58,13,18,132,,194,164,15,12,5,4,0.5,0.6
2025-07-18T2300,4244A,111.4879,36.0530,临汾市,启星学校,,50,50,47,25,32,129,,185,157,16,13,6,6,0.5,0.5
2025-07-18T2300,4271A,103.2464,35.6123,临夏回族自治州,滨河东路1号,,42,42,41,25,21,5,,85,41,34,15,3,4,0.5,0.4
2025-07-18T2300,4310A,103.2093,35.5995,临夏回族自治州,新华街21号,,41,41,45,27,22,49,,103,80,19,10,4,6,0.5,0.4
2025-07-18T2300,1618A,118.3429,35.0532,临沂市,沂河小区,颗粒物(PM10),51,51,39,35,24,113,,177,155,22,17,9,10,0.6,0.4
2025-07-18T2300,1619A,118.295,35.0583,临沂市,鲁南制药厂,,46,46,40,29,23,122,,182,165,14,14,9,10,0.7,0.5
2025-07-18T2300,1620A,118.2794,34.9976,临沂市,新光毛纺厂,,36,36,30,25,20,115,,182,162,29,17,8,9,0.7,0.6
2025-07-18T2300,1621A,118.3956,35.0888,临沂市,河东保险公司,,41,34,35,22,19,130,,184,161,16,21,7,7,0.7,0.6
2025-07-18T2300,3370A,118.3564,35.0215,临沂市,十里堡居委,,44,44,34,22,23,117,,197,180,24,16,10,11,0.9,0.6
2025-07-18T2300,3496A,118.3604,35.1084,临沂市,南坊新区,,44,44,41,24,20,132,,183,163,15,19,9,10,0.7,0.5
2025-07-18T2300,1870A,109.4856,24.3895,柳州市,柳东小学,,42,39,38,29,25,91,,148,132,8,10,5,10,0.6,0.6
2025-07-18T2300,1871A,109.4157,24.3277,柳州市,环保监测站,,42,42,42,18,24,74,,169,132,22,14,7,8,0.6,0.6
2025-07-18T2300,1872A,109.389,24.341,柳州市,河西水厂,颗粒物(PM10),51,51,52,30,26,59,,175,140,34,21,5,5,0.8,0.7
2025-07-18T2300,1873A,109.4311,24.2921,柳州市,市四中,,46,46,48,27,25,80,,166,131,20,19,7,8,0.6,0.6
2025-07-18T2300,1874A,109.4006,24.3631,柳州市,市九中,颗粒物(PM10),73,95,58,30,28,61,,164,126,28,20,4,4,0.6,0.6
2025-07-18T2300,1875A,109.4958,24.3134,柳州市,古亭山,,41,41,37,20,21,43,,135,97,25,18,4,5,0.6,0.7
2025-07-18T2300,3402A,109.5422,24.3996,柳州市,市二中,颗粒物(PM10),51,52,42,29,25,54,,158,116,19,20,8,12,0.8,0.7
2025-07-18T2300,2307A,116.5079,31.737,六安市,监测大楼,,31,28,26,14,19,98,,152,130,6,5,5,5,0.4,0.5
2025-07-18T2300,2308A,116.4738,31.7643,六安市,皖西学院,,38,31,31,15,18,121,,160,138,10,10,2,2,0.3,0.4
2025-07-18T2300,2309A,116.4996,31.7905,六安市,朝阳厂,,34,31,28,14,19,106,,152,128,13,11,5,4,0.4,0.4
2025-07-18T2300,2310A,116.5567,31.7886,六安市,开发区,,29,15,23,15,18,90,,148,118,10,8,3,3,0.3,0.4
2025-07-18T2300,2577A,104.83,26.5917,六盘水市,黄土坡,,36,36,27,20,16,57,,89,61,19,17,10,10,0.4,0.4
2025-07-18T2300,2578A,104.89,26.5939,六盘水市,水钢,,33,33,35,21,16,64,,94,72,10,14,6,8,0.3,0.6
2025-07-18T2300,2579A,104.8475,26.5894,六盘水市,民中,,32,32,27,19,15,45,,93,60,31,19,12,10,1.0,0.7
2025-07-18T2300,2580A,104.9544,26.5506,六盘水市,双水,,29,29,23,16,11,55,,95,72,14,10,14,11,0.3,0.3
2025-07-18T2300,2336A,117.0217,25.1033,龙岩市,龙岩市监测站,,15,12,28,10,14,44,,99,80,15,8,17,6,0.6,0.5
2025-07-18T2300,2337A,117.0258,25.0661,龙岩市,闽西职业技术学院,,17,17,25,9,15,50,,94,75,10,8,8,6,0.6,0.6
2025-07-18T2300,2338A,117.0196,25.0306,龙岩市,龙岩学院,,22,22,27,9,16,30,,97,66,14,9,2,2,0.4,0.5
2025-07-18T2300,2885A,104.9339,33.3826,陇南市,滨江中学,,44,44,40,26,19,86,,105,99,7,5,6,6,0.5,0.5
2025-07-18T2300,3247A,104.955,33.371,陇南市,市总工会,,,43,50,,20,,,119,117,5,5,5,5,,0.3
2025-07-18T2300,2487A,111.9589,27.8901,娄底市,电视发射台,,30,24,41,21,15,53,,60,50,6,5,7,7,0.5,0.4
2025-07-18T2300,2488A,111.9975,27.725,娄底市,市监测站,,39,32,28,27,20,82,,99,89,9,12,5,6,0.5,0.5
2025-07-18T2300,2489A,112.0194,27.7314,娄底市,市委党校,,32,31,27,22,20,91,,101,96,7,9,3,4,0.7,0.6
2025-07-18T2300,2490A,111.9561,27.7569,娄底市,涟钢,,36,29,32,25,23,62,,81,71,11,16,15,13,1.0,1.5
2025-07-18T2300,2491A,111.9892,27.7044,娄底市,市政府,,30,28,29,20,20,93,,107,100,4,6,3,5,1.0,0.9
2025-07-18T2300,1893A,105.4324,28.9634,泸州市,九狮山,,45,,44,31,29,113,,162,137,7,13,3,5,0.3,0.5
2025-07-18T2300,1894A,105.4427,28.9063,泸州市,小市上码头,,29,9,35,3,19,91,,150,123,5,12,2,4,0.2,0.3
2025-07-18T2300,1895A,105.4241,28.8573,泸州市,兰田宪桥,,30,10,38,3,23,94,,146,124,4,15,8,8,0.3,0.4
2025-07-18T2300,1896A,105.4379,28.8833,泸州市,市环监站,,35,9,35,3,25,109,,160,137,5,14,6,9,0.2,0.3
2025-07-18T2300,4272A,105.3689,28.7783,泸州市,纳溪中医医院,,31,20,39,3,24,97,,153,133,7,19,4,4,0.5,0.6
2025-07-18T2300,2183A,111.1406,37.5211,吕梁市,环保局,颗粒物(PM10),75,100,63,31,20,97,,164,148,57,27,6,4,0.9,0.6
2025-07-18T2300,2185A,111.1297,37.5136,吕梁市,自来水公司,细颗粒物(PM2.5),92,98,67,68,21,111,,163,153,35,23,4,4,0.8,0.4
2025-07-18T2300,2867A,111.1283,37.51,吕梁市,马茂庄小学,颗粒物(PM10),63,76,65,34,20,106,,159,142,51,28,7,6,0.8,0.6
2025-07-18T2300,1812A,112.3931,34.6516,洛阳市,市委党校,臭氧1小时,54,43,41,21,20,163,,197,183,9,12,8,9,0.5,0.5
2025-07-18T2300,1815A,112.494,34.6886,洛阳市,河南林校,颗粒物(PM10),55,59,50,29,24,151,,208,194,17,16,8,9,0.9,0.8
2025-07-18T2300,1816A,112.3844,34.623,洛阳市,开发区管委会,,47,43,38,27,23,150,,195,175,7,9,4,4,0.6,0.6
2025-07-18T2300,1817A,112.4267,34.6258,洛阳市,市委新办公区,,48,41,38,30,29,153,,185,170,10,13,8,9,0.7,0.6
2025-07-18T2300,3340A,112.6005,34.6326,洛阳市,伊滨,,,,57,30,24,144,,190,172,12,15,4,5,0.9,0.8
2025-07-18T2300,3341A,112.4951,34.6332,洛阳市,中移产业园,臭氧1小时,62,50,49,24,24,169,,188,174,9,14,5,7,0.7,0.8
2025-07-18T2300,3593A,112.5736,34.8993,洛阳市,吉利监测站,颗粒物(PM10),51,52,50,28,26,136,,189,164,11,11,7,9,0.5,0.6
2025-07-18T2300,3635A,112.3677,34.662,洛阳市,河科大西苑校区,,48,42,44,17,17,152,,187,173,4,9,8,9,0.4,0.4
2025-07-18T2300,3636A,112.4388,34.6781,洛阳市,英才小学,,50,44,56,30,25,159,,181,167,6,11,7,8,0.6,0.6
2025-07-18T2300,4214A,112.4600,34.6949,洛阳市,春都路1号院,臭氧1小时,60,50,46,20,18,168,,194,178,11,13,6,7,0.6,0.6
2025-07-18T2300,2399A,114.051,33.5699,漯河市,三五一五工厂,,46,46,41,23,24,120,,166,147,18,14,6,5,0.7,0.7
2025-07-18T2300,2400A,114.0055,33.5698,漯河市,漯河大学,,45,44,44,22,21,142,,178,163,14,12,4,4,0.6,0.6
2025-07-18T2300,2401A,114.0138,33.5828,漯河市,市水利局,,48,48,44,27,23,126,,158,144,14,13,4,4,0.6,0.6
2025-07-18T2300,2402A,114.0261,33.5698,漯河市,市广电局,,46,46,38,24,21,135,,180,164,16,13,3,3,0.5,0.6
2025-07-18T2300,3478A,113.9749,33.5664,漯河市,市图书馆,,42,38,42,26,24,134,,170,156,12,10,6,6,0.6,0.6
2025-07-18T2300,4250A,114.0892,33.5882,漯河市,韶山路11号,颗粒物(PM10),51,51,49,25,27,112,,156,133,21,20,2,4,0.7,0.7
2025-07-18T2300,1798A,118.5092,31.6837,马鞍山市,湖东路四小,,33,28,47,11,25,104,,172,141,11,11,6,6,0.4,0.6
2025-07-18T2300,1799A,118.5024,31.6449,马鞍山市,开发区,,33,28,33,10,20,104,,180,152,14,8,8,6,0.5,0.5
2025-07-18T2300,1802A,118.6245,31.7241,马鞍山市,濮塘,,31,29,30,15,29,99,,161,132,8,7,7,6,0.6,0.6
2025-07-18T2300,3633A,118.4918,31.6809,马鞍山市,雨山,,33,26,29,10,22,104,,172,141,11,10,6,6,0.4,0.6
2025-07-18T2300,4191A,118.5274,31.72227,马鞍山市,慈湖高新区,,32,14,35,8,22,101,,169,137,11,14,7,7,0.5,0.5
2025-07-18T2300,1686A,111.0286,21.4688,茂名市,电白南海,,16,14,34,3,21,49,,75,60,8,10,3,6,0.2,0.4
2025-07-18T2300,1687A,110.9294,21.6533,茂名市,茂石化七小,,22,22,35,14,21,39,,73,57,9,10,12,10,0.4,0.4
2025-07-18T2300,1688A,110.9107,21.6687,茂名市,健康路,,15,9,28,9,18,47,,77,63,8,11,6,17,0.4,0.5
2025-07-18T2300,1689A,110.8592,21.6828,茂名市,高岭,,34,34,42,12,16,25,,68,49,19,15,11,11,0.3,0.3
2025-07-18T2300,3450A,111.01,21.5165,茂名市,电白水东,,,19,32,,16,47,,80,69,19,13,6,11,0.4,0.5
2025-07-18T2300,2539A,104.0308,30.0478,眉山市,黑龙滩水库,,28,27,37,19,12,65,,81,81,17,15,3,2,0.5,0.6
2025-07-18T2300,2540A,103.8416,30.0874,眉山市,气象局,,30,30,52,17,27,67,,117,94,18,22,3,2,0.5,0.6
2025-07-18T2300,3137A,103.8578,30.0744,眉山市,市委党校,,24,22,45,14,27,76,,123,106,16,21,7,6,0.6,0.6
2025-07-18T2300,3148A,103.8291,30.0564,眉山市,区人社局,,49,49,59,12,25,82,,133,114,18,23,9,10,0.6,0.9
2025-07-18T2300,1690A,116.1231,24.3284,梅州市,梅江月梅,,24,24,17,3,9,38,,78,67,16,5,6,6,0.7,0.7
2025-07-18T2300,1691A,116.0797,24.2719,梅州市,梅县新城,,18,7,18,3,9,57,,98,82,11,8,6,7,0.5,0.5
2025-07-18T2300,1692A,116.1248,24.2654,梅州市,环境监控中心,,20,,16,8,11,63,,103,81,9,10,3,6,0.4,0.3
2025-07-18T2300,3315A,116.1233,24.2991,梅州市,梅龙,,19,9,16,3,6,60,,93,79,7,3,6,7,0.6,0.5
2025-07-18T2300,1878A,104.7778,31.4741,绵阳市,富乐山,,19,19,26,12,19,29,,85,60,22,11,8,8,0.5,0.5
2025-07-18T2300,1880A,104.6697,31.4668,绵阳市,高新区自来水公司,,24,24,27,14,15,38,,81,61,16,11,9,9,0.7,0.6
2025-07-18T2300,1881A,104.7287,31.5075,绵阳市,三水厂,,24,24,27,16,19,17,,90,59,35,15,6,6,0.5,0.4
2025-07-18T2300,3491A,104.69,31.5322,绵阳市,西科大附属小学,,30,30,30,18,18,26,,83,57,28,19,7,7,0.8,0.7
2025-07-18T2300,3492A,104.5648,31.5343,绵阳市,安州区旅游局,,18,17,27,3,13,57,,89,76,14,11,4,5,0.2,0.2
2025-07-18T2300,4226A,104.7651,31.4531,绵阳市,绵阳市气象局,,25,25,24,13,18,36,,89,71,26,12,8,12,0.6,0.5
2025-07-18T2300,1784A,129.61,44.561,牡丹江市,环保大楼,,19,12,14,10,10,28,,99,73,38,16,2,2,0.3,0.3
2025-07-18T2300,1785A,129.6115,44.5782,牡丹江市,文化广场,,28,,15,19,13,33,,94,69,32,19,5,6,0.5,0.5
2025-07-18T2300,1786A,129.5904,44.5963,牡丹江市,第一医院,,39,37,20,27,15,33,,100,70,27,18,6,6,0.3,0.3
2025-07-18T2300,1787A,129.6364,44.6075,牡丹江市,机车工厂,,32,23,24,22,14,23,,96,61,21,17,6,5,0.5,0.4
2025-07-18T2300,1788A,129.6386,44.5462,牡丹江市,第一中学,,16,16,14,3,7,32,,95,66,24,16,6,5,0.5,0.5
2025-07-18T2300,2531A,105.0703,29.61,内江市,市监测站,颗粒物(PM10),59,68,31,22,25,96,,153,118,10,14,6,7,0.7,0.7
2025-07-18T2300,2532A,105.0717,29.5947,内江市,东兴区政府,,27,26,27,13,19,84,,144,109,11,14,5,6,0.5,0.6
2025-07-18T2300,2533A,105.0653,29.5817,内江市,内江二中,,41,41,32,26,28,89,,146,109,12,16,5,5,0.6,0.6
2025-07-18T2300,2534A,105.0406,29.5822,内江市,内江日报社,,35,28,26,24,28,76,,126,94,15,23,2,2,0.5,0.6
2025-07-18T2300,2628A,92.0657,31.4846,那曲市,那曲监测站,,34,34,37,16,16,68,,108,99,27,18,10,10,0.6,0.4
2025-07-18T2300,4243A,92.0515,31.4787,那曲市,那曲市委宣传部,,,19,32,16,16,,,124,,15,14,6,5,0.3,0.3
2025-07-18T2300,1290A,115.8931,28.6843,南昌市,省外办,,38,32,35,24,25,121,,145,144,10,10,6,6,0.7,0.7
2025-07-18T2300,1291A,115.8886,28.7003,南昌市,省林业公司,,,36,33,19,19,,,157,157,9,12,11,10,0.7,0.7
2025-07-18T2300,1292A,115.8126,28.7442,南昌市,林科所,,44,19,23,12,15,138,,162,162,9,7,6,6,0.3,0.3
2025-07-18T2300,1294A,115.8518,28.687,南昌市,建工学校,,46,46,36,18,14,138,,162,162,14,13,8,8,0.7,0.7
2025-07-18T2300,1295A,115.8921,28.6424,南昌市,象湖,,44,37,26,17,17,140,,163,163,9,7,7,7,0.6,0.6
2025-07-18T2300,1296A,115.7423,28.7996,南昌市,武术学校,,28,18,21,9,9,89,,140,127,7,5,18,22,0.8,0.8
2025-07-18T2300,3046A,115.9084,28.6062,南昌市,机电学校,,46,38,36,22,19,145,,164,164,11,10,5,5,0.7,0.7
2025-07-18T2300,3690A,115.9721,28.7031,南昌市,外国语学校,,45,34,35,22,18,141,,166,166,8,8,10,11,0.5,0.5
2025-07-18T2300,4192A,115.9316,28.68677,南昌市,南京东路235号,,50,50,39,18,18,130,,153,152,11,11,4,3,0.7,0.8
2025-07-18T2300,1906A,106.0789,30.8023,南充市,南充市委,,27,,24,14,14,84,,118,100,10,8,4,4,0.6,0.5
2025-07-18T2300,1907A,106.1031,30.8217,南充市,南充炼油厂,,29,27,28,20,20,79,,87,79,5,6,4,4,0.3,0.1
2025-07-18T2300,4227A,106.1083,30.7884,南充市,梨树横街98号,,36,25,32,25,17,78,,106,90,7,8,2,3,0.3,0.3
2025-07-18T2300,4304A,106.1172,30.843,南充市,清泉寺北路188号,,25,25,28,12,11,80,,88,88,8,7,1,3,0.2,0.2
2025-07-18T2300,4305A,106.067,30.7616,南充市,同庆路1号,,28,28,28,17,17,82,,111,95,11,9,2,2,0.3,0.3
2025-07-18T2300,1151A,118.8086,32.1065,南京市,迈皋桥,,31,17,25,9,16,98,,139,123,22,22,4,4,0.1,0.1
2025-07-18T2300,1152A,118.7538,32.0551,南京市,草场门,,28,17,27,7,16,89,,134,114,15,14,8,7,0.5,0.5
2025-07-18T2300,1153A,118.7794,32.0745,南京市,山西路,,30,19,30,3,11,95,,139,119,19,17,4,4,0.5,0.5
2025-07-18T2300,1154A,118.7752,32.0023,南京市,中华门,,29,17,25,3,16,90,,144,114,7,9,11,12,0.5,0.6
2025-07-18T2300,1155A,118.8109,32.0309,南京市,瑞金路,,28,14,26,9,18,88,,144,116,2,7,6,6,0.2,0.2
2025-07-18T2300,1156A,118.7997,32.0754,南京市,玄武湖,,26,22,29,3,10,82,,127,105,14,12,9,9,0.3,0.3
2025-07-18T2300,1157A,118.6414,32.0931,南京市,浦口,,26,26,32,11,15,82,,135,115,20,11,4,5,0.5,0.7
2025-07-18T2300,1158A,118.7356,31.9996,南京市,奥体中心,,31,19,28,9,19,98,,149,122,10,10,4,4,0.3,0.3
2025-07-18T2300,1159A,118.9125,32.1028,南京市,仙林大学城,,30,29,36,3,15,95,,84,,8,14,6,6,0.6,0.7
2025-07-18T2300,3422A,118.8436,31.9198,南京市,江宁彩虹桥,,34,34,32,12,19,88,,,,8,11,4,4,0.5,0.6
2025-07-18T2300,3427A,118.8554,32.3578,南京市,六合雄州,,25,23,26,7,18,80,,130,116,14,11,3,3,0.2,0.3
2025-07-18T2300,4249A,118.8708,31.3402,南京市,汶溪路181号,,30,16,24,16,20,93,,153,143,16,11,6,5,0.6,0.6
2025-07-18T2300,4312A,119.019,31.6512,南京市,中山西路1号,,25,,25,12,17,77,,131,116,11,7,4,4,0.6,0.7
2025-07-18T2300,1401A,108.3103,22.7881,南宁市,二十一中,,50,43,35,35,20,77,,124,102,16,12,6,5,0.7,0.6
2025-07-18T2300,1402A,108.3141,22.8528,南宁市,北湖,细颗粒物(PM2.5),63,61,37,45,18,64,,129,116,35,16,4,4,0.7,0.6
2025-07-18T2300,1403A,108.3206,22.8225,南宁市,市监测站,颗粒物(PM10),52,53,37,33,20,82,,126,113,20,16,7,8,0.5,0.5
2025-07-18T2300,1404A,108.3829,22.8037,南宁市,大自然花园,"颗粒物(PM10),细颗粒物(PM2.5)",59,67,39,42,21,91,,161,131,14,12,5,5,0.4,0.4
2025-07-18T2300,1405A,108.4394,22.7904,南宁市,仙葫,细颗粒物(PM2.5),64,62,36,46,24,91,,149,123,10,11,4,7,0.8,0.8
2025-07-18T2300,1406A,108.2397,22.8467,南宁市,区农职院,细颗粒物(PM2.5),54,51,43,38,23,56,,122,103,22,15,4,6,0.7,0.6
2025-07-18T2300,1407A,108.3275,22.735,南宁市,英华嘉园,细颗粒物(PM2.5),53,46,35,37,20,82,,138,113,20,16,1,2,0.5,0.5
2025-07-18T2300,3401A,108.4834,22.7618,南宁市,红星社区,颗粒物(PM10),59,68,36,41,24,94,,174,137,13,9,4,3,0.7,0.5
2025-07-18T2300,4221A,108.2177,22.7774,南宁市,乐贤路16号,,50,50,43,28,22,31,,126,91,50,20,6,7,0.7,0.5
2025-07-18T2300,2332A,118.1681,26.6369,南平市,南平市监测站,,16,16,23,9,15,16,,78,46,10,9,5,5,0.6,0.7
2025-07-18T2300,2333A,118.1825,26.6489,南平市,南平铝业有限公司,,22,22,30,7,16,15,,82,48,16,14,4,7,0.6,0.6
2025-07-18T2300,2334A,118.1756,26.6272,南平市,南平七中,,16,14,29,11,13,12,,75,44,12,8,4,4,0.6,0.6
2025-07-18T2300,1168A,120.9098,31.9663,南通市,狼山街道,,30,12,20,7,12,96,,127,100,6,5,3,3,0.7,0.6
2025-07-18T2300,1169A,120.86,32.0005,南通市,虹桥,,31,22,18,11,13,98,,129,102,10,7,2,2,0.9,0.8
2025-07-18T2300,1170A,120.87,32.02,南通市,城中,,27,19,23,3,10,85,,105,85,7,6,4,3,0.6,0.5
2025-07-18T2300,1171A,120.94,31.93,南通市,星湖花园,,31,12,15,7,10,98,,123,98,8,8,2,2,0.5,0.4
2025-07-18T2300,1172A,120.81,32.0417,南通市,紫琅学院,,25,13,14,3,8,79,,108,84,10,6,5,4,0.8,0.7
2025-07-18T2300,3291A,121.067,32.062,南通市,通州监测站,,31,12,15,3,10,97,,111,98,4,4,1,4,0.7,0.7
2025-07-18T2300,3432A,120.9348,31.9883,南通市,环境教育馆,,33,22,26,3,11,103,,133,108,6,5,2,2,0.4,0.3
2025-07-18T2300,2404A,112.5224,33.0122,南阳市,瓦房庄,,49,42,38,23,19,156,,181,172,10,11,6,6,0.6,0.5
2025-07-18T2300,2405A,112.5003,32.9735,南阳市,汉画馆,,47,41,35,14,13,150,,178,170,14,13,6,6,0.4,0.4
2025-07-18T2300,2406A,112.5573,33.027,南阳市,气象站,臭氧1小时,52,43,35,24,19,161,,190,179,11,10,7,7,0.5,0.5
2025-07-18T2300,2407A,112.5481,32.9689,南阳市,理工学院,,46,41,35,17,13,145,,180,171,13,11,6,7,0.5,0.5
2025-07-18T2300,4008A,112.5234,32.9922,南阳市,卧龙区政府,,48,41,34,24,19,153,,181,173,13,11,4,4,0.7,0.6
2025-07-18T2300,1234A,121.8358,29.911,宁波市,区环保大楼,,15,11,24,10,14,23,,72,33,4,6,3,3,0.3,0.4
2025-07-18T2300,1235A,121.56,29.82,宁波市,万里学院,,16,16,28,3,15,17,,92,46,11,10,3,4,0.3,0.5
2025-07-18T2300,1236A,121.713,29.9572,宁波市,龙赛医院,,11,11,24,7,13,19,,81,33,5,7,6,5,0.2,0.3
2025-07-18T2300,1239A,121.633,29.7733,宁波市,钱湖水厂,,8,8,17,3,11,12,,71,36,5,5,4,4,0.4,0.4
2025-07-18T2300,1240A,121.5856,29.8635,宁波市,太古小学,,9,,19,6,11,19,,88,44,3,5,1,1,0.3,0.4
2025-07-18T2300,1241A,121.524,29.8674,宁波市,市环境监测中心,,13,12,28,9,12,16,,92,40,7,12,4,4,0.4,0.6
2025-07-18T2300,2871A,121.6147,29.9017,宁波市,万里国际学校,,13,13,19,3,11,21,,91,44,4,7,3,3,0.4,0.5
2025-07-18T2300,3710A,121.5594,29.8975,宁波市,白沙活动中心,,12,12,21,3,12,17,,98,47,6,9,4,4,0.2,0.4
2025-07-18T2300,2341A,119.5388,26.6612,宁德市,宁德市监测站,,9,,19,6,13,15,,63,27,14,8,8,8,0.3,0.4
2025-07-18T2300,3209A,119.5231,26.6562,宁德市,宁德一中,,9,,20,6,10,25,,66,32,4,5,4,4,0.2,0.3
2025-07-18T2300,2618A,98.8601,25.8567,怒江傈僳族自治州,州监测站,,36,36,26,23,16,45,,93,81,16,9,6,6,0.6,0.4
2025-07-18T2300,2619A,98.8546,25.8417,怒江傈僳族自治州,泸水一中,,28,23,32,19,16,27,,72,57,16,12,6,6,0.5,0.4
2025-07-18T2300,1888A,101.6891,26.571,攀枝花市,弄弄坪,,41,41,56,21,27,48,,118,92,16,19,9,20,0.7,0.8
2025-07-18T2300,1889A,101.5769,26.5928,攀枝花市,河门口,,35,35,43,24,25,63,,143,94,16,14,11,12,1.0,0.8
2025-07-18T2300,1890A,101.7169,26.585,攀枝花市,炳草岗,,45,34,52,31,30,57,,129,108,34,19,26,21,0.8,0.7
2025-07-18T2300,1891A,101.7369,26.5008,攀枝花市,仁和,,33,33,33,20,23,38,,105,74,17,12,8,10,0.6,0.6
2025-07-18T2300,2835A,101.7227,26.567,攀枝花市,四十中小,,45,45,47,25,29,65,,131,105,27,19,124,38,1.3,0.9
2025-07-18T2300,1604A,122.0303,41.1489,盘锦市,开发区,,45,,15,31,11,72,,105,97,25,11,10,9,0.8,0.4
2025-07-18T2300,1605A,122.0485,41.0883,盘锦市,兴隆台,,32,32,18,19,9,73,,114,102,26,11,6,7,0.9,0.6
2025-07-18T2300,1606A,121.8297,41.1028,盘锦市,新生街道,,22,,12,14,8,70,,106,93,14,19,3,4,0.6,0.5
2025-07-18T2300,1832A,113.3257,33.742,平顶山市,新华旅馆,,46,40,43,20,21,147,,178,160,13,12,5,6,0.4,0.5
2025-07-18T2300,1833A,113.2919,33.737,平顶山市,规划设计院,,43,42,42,30,26,135,,171,150,16,13,13,10,0.7,0.7
2025-07-18T2300,1834A,113.182,33.774,平顶山市,平顶山工学院,颗粒物(PM10),51,51,35,17,20,147,,189,164,13,11,6,7,0.5,0.6
2025-07-18T2300,3204A,113.3025,33.73,平顶山市,规划局,,45,39,40,16,17,144,,182,165,14,12,12,7,0.6,0.7
2025-07-18T2300,3594A,112.8867,33.9116,平顶山市,石龙区,颗粒物(PM10),52,54,45,24,24,128,,183,161,15,14,7,10,0.6,0.8
2025-07-18T2300,2656A,106.6692,35.5461,平凉市,聚贤嘉苑,,43,43,50,23,20,91,,122,113,24,15,10,10,0.8,0.8
2025-07-18T2300,2657A,106.7021,35.5307,平凉市,博物馆,颗粒物(PM10),54,58,46,21,18,71,,122,111,34,13,8,8,1.1,0.9
2025-07-18T2300,2347A,114.0997,27.5002,萍乡市,武功山,,24,16,8,3,5,74,,75,67,3,4,13,12,0.4,0.3
2025-07-18T2300,2348A,113.8385,27.6434,萍乡市,中医院,细颗粒物(PM2.5),52,41,37,36,23,111,,124,119,12,11,19,20,0.9,0.9
2025-07-18T2300,2349A,113.8493,27.6253,萍乡市,市政府车库,,45,40,31,31,27,112,,110,110,9,13,11,13,1.2,1.1
2025-07-18T2300,2350A,113.8676,27.6435,萍乡市,市环保局,,45,35,38,31,25,131,,127,126,5,12,8,9,0.8,0.8
2025-07-18T2300,2351A,113.866,27.6198,萍乡市,安源区政府,,45,45,36,31,26,110,,113,111,10,12,10,10,1.9,1.2
2025-07-18T2300,2319A,119.0141,25.4325,莆田市,荔城区仓后路,,9,7,22,3,7,28,,56,31,4,7,4,4,0.4,0.5
2025-07-18T2300,2320A,119.0015,25.4553,莆田市,莆田市监测站,,10,6,22,3,6,30,,58,34,4,5,4,4,0.3,0.4
2025-07-18T2300,2321A,119.1119,25.4561,莆田市,涵江区六中,,10,8,20,3,8,31,,58,34,2,7,3,3,0.2,0.3
2025-07-18T2300,2322A,119.1013,25.3215,莆田市,秀屿区政府,,11,11,23,3,8,25,,57,28,4,7,3,3,0.4,0.5
2025-07-18T2300,2392A,115.0312,35.7636,濮阳市,环保局,,48,34,37,22,22,151,,203,180,19,14,8,7,0.5,0.5
2025-07-18T2300,2394A,115.0574,35.7609,濮阳市,油田运输公司,,46,46,41,18,21,132,,193,170,21,14,8,6,0.6,0.6
2025-07-18T2300,3021A,115,35.7668,濮阳市,濮水河管理处,,36,36,36,23,23,114,,188,158,19,13,3,3,0.5,0.4
2025-07-18T2300,4216A,115.0924,35.7686,濮阳市,任丘路479号,,47,47,44,24,22,120,,182,162,19,14,7,10,0.4,0.5
2025-07-18T2300,2601A,100.98,22.7633,普洱市,市环保局,,24,24,22,15,9,31,,49,44,6,4,5,5,0.5,0.5
2025-07-18T2300,2602A,100.9817,22.8322,普洱市,普洱第二中学,,32,31,20,22,10,21,,58,46,10,6,5,5,0.6,0.5
2025-07-18T2300,2262A,131.0518,45.8751,七台河市,新一中,,39,31,17,27,12,57,,122,88,24,16,9,10,1.1,1
2025-07-18T2300,3345A,131.0577,45.7879,七台河市,中波台,,19,,10,9,7,31,,88,67,37,19,7,8,0.4,0.5
2025-07-18T2300,3637A,131.0176,45.7761,七台河市,人民广场,,22,22,21,10,12,57,,98,78,15,13,11,12,0.6,0.6
2025-07-18T2300,3684A,130.8781,45.8222,七台河市,新建矿广场,,13,7,21,7,10,34,,104,79,26,20,8,13,0.4,0.5
2025-07-18T2300,1779A,123.9305,47.3636,齐齐哈尔市,安居小区,,35,35,25,9,10,85,,112,106,19,14,1,2,0.5,0.4
2025-07-18T2300,1780A,123.9488,47.3386,齐齐哈尔市,中心广场,,40,40,22,12,6,80,,118,110,17,11,3,3,0.5,0.4
2025-07-18T2300,1781A,123.9483,47.3227,齐齐哈尔市,农牧车辆厂,,27,27,26,16,7,67,,114,105,18,12,6,6,0.3,0.2
2025-07-18T2300,1783A,123.945,47.2988,齐齐哈尔市,市环境监测站,,25,16,21,13,12,77,,115,108,12,12,5,5,0.5,0.4
2025-07-18T2300,3662A,123.6333,47.2075,齐齐哈尔市,富区青少年活动中心,细颗粒物(PM2.5),98,76,23,73,14,73,,117,98,13,17,5,6,0.4,0.4
2025-07-18T2300,2591A,107.9783,26.5747,黔东南苗族侗族自治州,市环境监测站,,,,28,66,28,23,,59,,15,10,2,2,,0.6
2025-07-18T2300,2881A,107.8908,26.5311,黔东南苗族侗族自治州,凯里学院,,18,14,22,12,15,21,,71,46,9,10,1,2,0.4,0.4
2025-07-18T2300,2593A,107.5228,26.2403,黔南布依族苗族自治州,小围寨,,18,17,21,12,11,36,,55,45,5,5,3,2,0.5,0.4
2025-07-18T2300,3538A,107.5175,26.2978,黔南布依族苗族自治州,沙坝,,31,31,21,7,4,29,,60,45,10,9,3,3,0.5,0.4
2025-07-18T2300,2589A,104.9022,25.0925,黔西南布依族苗族自治州,场坝街,,25,25,22,9,9,56,,79,70,9,9,8,12,0.4,0.4
2025-07-18T2300,2590A,104.8811,25.0992,黔西南布依族苗族自治州,坪东大道,,27,27,21,14,13,50,,81,66,12,12,3,6,0.4,0.4
2025-07-18T2300,2502A,108.6236,21.9667,钦州市,市环保站,,22,22,32,9,13,45,,121,92,12,12,3,4,0.1,0.5
2025-07-18T2300,2503A,108.6549,21.9481,钦州市,沙埠小学,,47,47,49,20,19,29,,136,92,28,20,2,3,0.4,0.6
2025-07-18T2300,2504A,108.5989,21.7431,钦州市,港区一小,,36,36,46,12,14,49,,102,75,16,20,2,5,0.4,0.6
2025-07-18T2300,1043A,119.7493,40.0116,秦皇岛市,第一关,,44,29,19,6,7,8,,127,93,87,28,5,5,0.4,0.3
2025-07-18T2300,1044A,119.5897,39.9499,秦皇岛市,监测站,,41,41,31,7,5,66,,125,109,26,20,4,4,0.3,0.3
2025-07-18T2300,1046A,119.5251,39.9041,秦皇岛市,建设大厦,,19,18,21,3,7,48,,118,96,37,23,5,4,0.4,0.3
2025-07-18T2300,3132A,119.610547,39.943889,秦皇岛市,文明里,,28,19,24,9,7,89,,120,104,13,18,4,4,0.3,0.2
2025-07-18T2300,4198A,119.5090,39.8253,秦皇岛市,北戴河轮滑馆,,23,23,27,11,10,55,,110,91,26,18,2,2,0.3,0.3
2025-07-18T2300,1307A,120.6659,36.2403,青岛市,仰口,,33,15,23,12,13,103,,124,117,6,8,8,9,0.4,0.4
2025-07-18T2300,1310A,120.4134,36.0658,青岛市,市南区东部子站,,35,,24,17,14,109,,156,140,7,7,7,8,0.2,0.2
2025-07-18T2300,1311A,120.3664,36.1032,青岛市,四方区子站,,42,19,29,17,19,132,,176,148,9,16,4,6,0.2,0.3
2025-07-18T2300,1312A,120.2994,36.054,青岛市,市南区西部子站,,29,22,31,15,18,90,,151,98,37,31,8,9,0.6,0.7
2025-07-18T2300,1313A,120.4581,36.0858,青岛市,崂山区子站,,31,17,22,9,13,99,,156,140,15,15,7,8,0.2,0.2
2025-07-18T2300,1315A,120.3999,36.3083,青岛市,城阳区子站,,36,22,25,12,14,114,,137,128,10,14,6,6,0.4,0.4
2025-07-18T2300,1966A,120.0405,35.8735,青岛市,黄岛区4号,,46,24,33,12,19,147,,214,190,6,13,9,11,0.5,0.6
2025-07-18T2300,3362A,120.5014,36.4034,青岛市,即墨2号,,36,23,29,8,12,115,,132,123,6,14,3,3,0.3,0.3
2025-07-18T2300,3642A,120.3503,36.0736,青岛市,市北区南部,,40,26,29,14,17,125,,164,138,11,23,10,12,0.5,0.6
2025-07-18T2300,3643A,120.3948,36.1805,青岛市,李沧区北部,,31,17,24,17,19,98,,141,128,12,12,6,6,0.3,0.4
2025-07-18T2300,4290A,120.1969,35.9546,青岛市,珠江路669号,,45,27,30,20,21,142,,168,160,6,26,6,8,0.7,0.6
2025-07-18T2300,1702A,113.0426,23.691,清远市,环保大楼,,22,18,45,11,28,69,,89,61,7,15,5,9,0.7,0.8
2025-07-18T2300,1703A,113.0208,23.7106,清远市,凤城街办,,20,15,35,10,23,64,,84,56,10,16,4,6,0.5,0.6
2025-07-18T2300,3025A,113.0477,23.6344,清远市,技师学院,,20,18,44,11,27,62,,87,54,9,23,10,10,0.5,0.6
2025-07-18T2300,3318A,112.9903,23.7403,清远市,清新太和,,30,30,31,13,20,38,,85,58,15,12,5,5,0.5,0.7
2025-07-18T2300,3455A,113.076,23.7198,清远市,清城东城,,19,17,36,7,19,60,,86,53,7,14,5,6,0.7,0.8
2025-07-18T2300,2661A,107.6325,35.7357,庆阳市,庆阳五中,,42,29,35,20,22,132,,135,135,7,6,6,6,0.5,0.6
2025-07-18T2300,2662A,107.6364,35.7067,庆阳市,市环保局,,42,35,36,22,19,133,,141,140,6,5,10,11,0.4,0.8
2025-07-18T2300,1916A,103.7897,25.5035,曲靖市,环境监测站,,26,26,26,12,11,65,,109,92,16,11,5,6,0.5,0.4
2025-07-18T2300,1917A,103.8,25.5364,曲靖市,烟厂办公区,,24,24,27,12,11,63,,111,95,18,10,4,5,0.6,0.5
2025-07-18T2300,3376A,103.7947,25.462,曲靖市,南苑二区,,29,29,19,10,11,58,,108,93,15,9,3,4,0.5,0.4
2025-07-18T2300,3377A,103.7444,25.5261,曲靖市,曲靖师范学院,,35,33,27,24,28,49,,97,85,24,13,7,10,0.4,0.4
2025-07-18T2300,1264A,118.8692,28.9398,衢州市,环保大楼,,20,20,29,9,16,63,,143,105,9,10,3,3,0.3,0.4
2025-07-18T2300,1265A,118.8709,28.9666,衢州市,实验学校,,20,18,28,8,18,63,,141,102,8,9,6,5,0.4,0.5
2025-07-18T2300,1266A,118.8621,28.9808,衢州市,衢州学院,,20,18,28,9,16,62,,142,102,12,11,4,4,0.3,0.4
2025-07-18T2300,1611A,118.5819,24.9117,泉州市,涂山街,,10,6,28,3,13,32,,83,45,4,10,2,2,0.3,0.5
2025-07-18T2300,1612A,118.5972,24.8978,泉州市,津头埔,,9,6,26,3,11,28,,92,42,3,8,2,2,0.3,0.4
2025-07-18T2300,1613A,118.6663,24.9424,泉州市,万安,,8,6,26,3,11,24,,79,36,4,10,1,2,0.3,0.4
2025-07-18T2300,3529A,118.6333,24.9264,泉州市,城华南路,,9,6,23,3,13,27,,84,39,3,7,3,4,0.3,0.4
2025-07-18T2300,2626A,88.8876,29.2718,日喀则市,日喀则监测站,,15,11,5,6,4,45,,67,54,16,10,11,14,0.4,0.3
2025-07-18T2300,3726A,88.8781,29.2426,日喀则市,林业技术推广中心,,26,7,7,3,1,83,,97,96,2,4,9,8,0.1,0.1
2025-07-18T2300,1659A,119.471,35.4209,日照市,监测站,,38,34,34,11,23,121,,192,169,21,21,9,6,1.0,0.8
2025-07-18T2300,1660A,119.523,35.4216,日照市,市政府广场,,42,27,32,9,18,132,,190,171,8,13,6,9,0.8,1.1
2025-07-18T2300,1661A,119.5587,35.4044,日照市,港务局,,39,29,37,21,29,124,,198,167,11,18,9,13,0.7,1.1
2025-07-18T2300,3507A,119.5328,35.4625,日照市,职业技术学院,,45,19,36,14,21,141,,199,177,9,15,6,9,0.7,1
2025-07-18T2300,3604A,119.3266,35.1044,日照市,岚山环保分局,,36,24,36,10,19,113,,202,168,14,14,9,14,0.6,0.9
2025-07-18T2300,1835A,111.1922,34.7752,三门峡市,市政府,,49,45,47,25,24,155,,183,182,8,9,2,3,0.8,0.8
2025-07-18T2300,1836A,111.1587,34.7942,三门峡市,开发区,臭氧1小时,55,50,48,31,26,164,,194,192,16,14,7,9,0.4,0.5
2025-07-18T2300,3039A,111.1911,34.7829,三门峡市,三门峡市第一小学,颗粒物(PM10),51,51,47,26,28,159,,192,190,15,15,10,11,0.5,0.5
2025-07-18T2300,3598A,111.1,34.7167,三门峡市,富达温泉假日酒店,颗粒物(PM10),52,54,46,27,26,152,,180,179,8,8,9,10,0.4,0.4
2025-07-18T2300,2324A,117.6211,26.2625,三明市,三钢,,13,13,28,3,22,39,,97,71,6,11,4,5,0.3,1.1
2025-07-18T2300,2325A,117.635,26.2714,三明市,三明二中,,12,9,27,3,11,36,,94,65,6,11,2,2,0.2,0.2
2025-07-18T2300,2326A,117.6028,26.2378,三明市,三元区政府,,13,9,28,3,15,40,,102,64,5,13,1,4,0.1,0.6
2025-07-18T2300,1876A,109.5078,18.2489,三亚市,河东子站,,20,18,18,14,11,51,,64,61,11,6,3,3,0.4,0.4
2025-07-18T2300,1877A,109.4964,18.2681,三亚市,河西子站,,23,23,19,13,8,49,,64,60,9,6,3,3,0.2,0.2
2025-07-18T2300,3540A,109.7348,18.3443,三亚市,君悦子站,,16,16,21,8,9,47,,74,62,8,9,2,2,0.4,0.3
2025-07-18T2300,2624A,91.7608,29.2313,山南市,山南监测站,,31,7,12,3,5,98,,115,112,5,9,3,5,0.3,0.3
2025-07-18T2300,2625A,91.7706,29.2436,山南市,山南人民医院,,34,10,12,6,7,107,,118,116,3,10,3,7,0.2,0.3
2025-07-18T2300,1674A,116.6794,23.3667,汕头市,金平子站,,26,,20,11,12,82,,129,110,13,12,3,3,0.8,0.7
2025-07-18T2300,1675A,116.7244,23.3633,汕头市,龙湖子站,,25,16,19,8,11,77,,120,101,13,9,6,7,0.9,0.7
2025-07-18T2300,1676A,116.7258,23.2775,汕头市,濠江子站,,24,18,25,11,13,74,,118,101,8,7,5,5,0.8,0.8
2025-07-18T2300,1677A,116.7519,23.4714,汕头市,澄海子站,,25,25,25,15,14,69,,125,100,15,10,5,4,0.7,0.7
2025-07-18T2300,1678A,116.6092,23.2539,汕头市,潮阳子站,,24,19,21,14,12,75,,142,123,9,8,4,5,0.6,0.6
2025-07-18T2300,3444A,116.454,23.2684,汕头市,潮南峡山,,27,7,22,6,15,85,,136,113,6,9,6,6,0.6,0.7
2025-07-18T2300,3624A,116.4069,23.2533,汕头市,潮南子站,,26,14,27,7,14,83,,133,110,10,9,4,5,0.5,0.6
2025-07-18T2300,1693A,115.3653,22.775,汕尾市,市环保局,,30,10,16,6,9,94,,120,105,6,7,2,2,0.5,0.5
2025-07-18T2300,1694A,115.3706,22.7898,汕尾市,市政府,,30,14,17,6,8,94,,114,94,4,6,3,3,0.5,0.5
2025-07-18T2300,1695A,115.3622,22.7925,汕尾市,新城中学,,30,7,22,7,9,94,,115,95,6,8,4,4,0.4,0.5
2025-07-18T2300,2645A,109.9154,33.8715,商洛市,监测站,,42,42,33,25,18,96,,133,116,14,12,5,5,0.7,0.6
2025-07-18T2300,3045A,109.9643,33.8471,商洛市,商州区中学,细颗粒物(PM2.5),58,53,40,41,17,71,,126,108,23,15,4,4,0.5,0.5
2025-07-18T2300,2408A,115.6702,34.4285,商丘市,环境监测站,,48,48,39,23,21,132,,188,166,19,14,4,3,0.6,0.5
2025-07-18T2300,2409A,115.6458,34.4045,商丘市,粮食局,,45,39,34,22,16,143,,184,169,13,9,6,5,0.7,0.7
2025-07-18T2300,2410A,115.6293,34.3948,商丘市,睢阳区环保局,,48,48,37,21,18,145,,186,173,16,12,4,4,0.3,0.3
2025-07-18T2300,3171A,115.6071,34.4465,商丘市,梁园区档案局,,44,34,35,20,19,139,,177,167,12,11,3,3,0.4,0.4
2025-07-18T2300,1141A,121.4,31.238,上海市,普陀,,20,14,22,14,19,46,,122,88,17,16,5,5,0.4,0.5
2025-07-18T2300,1142A,121.478,31.2036,上海市,十五厂,,16,13,21,11,16,37,,120,81,23,20,7,7,0.7,0.7
2025-07-18T2300,1143A,121.467,31.3008,上海市,虹口,,23,,22,16,20,39,,105,79,17,18,9,9,0.7,0.8
2025-07-18T2300,1147A,121.425,31.2261,上海市,静安监测站,,26,,22,18,19,38,,116,78,20,18,4,4,0.7,0.7
2025-07-18T2300,1148A,121.703,31.1907,上海市,浦东川沙,,15,,22,10,13,18,,116,77,17,26,10,9,0.7,0.8
2025-07-18T2300,1149A,121.533,31.2284,上海市,浦东新区监测站,,14,14,19,6,12,40,,118,88,19,21,7,7,0.3,0.4
2025-07-18T2300,1150A,121.577,31.2071,上海市,浦东张江,,50,50,27,7,13,34,,125,92,35,20,5,5,0.8,0.8
2025-07-18T2300,3265A,121.4316,31.3322,上海市,宝山庙行,,23,18,24,16,18,43,,109,82,27,20,6,6,0.5,0.5
2025-07-18T2300,3266A,121.8791,31.4662,上海市,崇明上实东滩,,8,,16,3,11,14,,120,88,14,7,3,3,0.5,0.6
2025-07-18T2300,3268A,121.3162,31.2838,上海市,嘉定南翔,,17,17,34,10,21,40,,113,83,17,13,6,6,0.4,0.6
2025-07-18T2300,3269A,121.3359,30.7456,上海市,金山新城,,15,15,60,6,20,21,,134,81,11,17,4,3,0.5,0.7
2025-07-18T2300,3270A,121.4996,31.0739,上海市,闵行浦江,,,,21,,15,32,,119,84,19,14,,3,1.1,1.3
2025-07-18T2300,3271A,121.2886,31.1663,上海市,青浦徐泾,,,16,23,3,16,33,,138,90,,19,7,6,,0.6
2025-07-18T2300,3272A,121.2186,31.0378,上海市,松江图书馆,,13,,21,9,17,34,,149,91,20,12,7,7,0.5,0.6
2025-07-18T2300,3273A,121.3902,31.2059,上海市,长宁仙霞,,16,16,22,7,18,31,,107,68,19,18,5,6,0.5,0.6
2025-07-18T2300,3274A,121.7965,31.0507,上海市,浦东惠南,,11,11,24,6,16,12,,116,50,15,17,9,9,0.5,0.6
2025-07-18T2300,3544A,121.4891,30.925,上海市,奉贤南桥新城,,13,13,25,8,18,16,,131,85,7,11,6,6,0.7,0.9
2025-07-18T2300,4183A,121.4174,31.16637,上海市,冠生园路458号,,18,,18,12,19,27,,95,64,23,16,4,4,0.8,0.8
2025-07-18T2300,4205A,121.5419,31.2683,上海市,宁武路151号,,21,21,22,12,14,36,,108,76,30,26,7,7,0.7,0.7
2025-07-18T2300,2382A,117.9756,28.4436,上饶市,市监测站,,31,31,34,18,18,99,,143,116,8,8,4,4,0.5,0.5
2025-07-18T2300,2383A,117.9519,28.4628,上饶市,凤凰光学,,32,32,34,19,18,82,,136,115,14,11,16,8,0.7,0.7
2025-07-18T2300,3685A,117.897,28.4315,上饶市,双创科技城,,29,29,34,16,17,88,,133,115,15,14,9,6,0.4,0.5
2025-07-18T2300,4211A,118.1904,28.4448,上饶市,裕丰大道,,32,,25,22,16,83,,121,97,9,6,7,5,0.9,0.8
2025-07-18T2300,1669A,113.5824,24.7733,韶关市,市八中,,22,6,25,3,14,68,,79,76,15,11,11,9,0.8,0.6
2025-07-18T2300,1671A,113.5917,24.7972,韶关市,园林处,,22,16,22,9,17,68,,77,73,11,9,11,8,0.6,0.5
2025-07-18T2300,1673A,113.5971,24.6863,韶关市,曲江监测站,,21,11,28,3,16,66,,99,90,15,15,2,6,0.7,0.8
2025-07-18T2300,2809A,113.6668,24.7756,韶关市,大学路288号,,16,14,34,9,22,51,,87,78,7,9,5,10,0.5,0.5
2025-07-18T2300,3622A,113.5556,24.8082,韶关市,碧湖山庄,,24,9,28,3,19,74,,84,78,14,10,10,7,0.7,0.7
2025-07-18T2300,2464A,111.5283,27.2442,邵阳市,市化工厂,,29,26,34,20,21,75,,101,88,9,11,6,7,0.7,0.7
2025-07-18T2300,2466A,111.4328,27.2272,邵阳市,市环保局,,29,28,31,20,20,63,,88,77,10,12,5,6,0.7,0.7
2025-07-18T2300,4218A,111.4460,27.2472,邵阳市,北塔二期4-26地块,,36,26,33,25,22,64,,89,70,11,12,4,5,0.5,0.5
2025-07-18T2300,4219A,111.4739,27.2282,邵阳市,邵水西路287号,,33,33,34,16,21,69,,98,86,11,11,4,5,0.8,0.7
2025-07-18T2300,1247A,120.6053,29.9928,绍兴市,城东开发委,,13,13,25,3,14,40,,116,65,8,9,3,4,0.3,0.4
2025-07-18T2300,2921A,120.5483,30.0003,绍兴市,树下王站,,16,8,21,7,14,51,,126,84,4,10,4,4,0.4,0.6
2025-07-18T2300,3408A,120.5683,29.9361,绍兴市,绍兴中专,,13,,17,9,14,38,,119,59,5,10,5,5,0.4,0.5
2025-07-18T2300,3409A,120.4906,30.0861,绍兴市,柯桥区政府,,26,26,30,14,17,51,,112,83,14,14,3,3,0.4,0.5
2025-07-18T2300,3410A,120.8752,30.0249,绍兴市,重华小学,,13,11,17,6,13,40,,104,60,8,11,5,5,0.5,0.7
2025-07-18T2300,3411A,120.8369,30.0137,绍兴市,上虞中学,,14,9,25,6,18,43,,121,63,9,15,7,8,0.4,0.4
2025-07-18T2300,3560A,120.4722,30.0415,绍兴市,柯桥妇保,,17,11,28,7,19,54,,117,85,6,9,5,6,0.4,0.5
2025-07-18T2300,3658A,120.6153,30.0764,绍兴市,袍江中学,,15,13,24,3,13,46,,124,79,12,13,5,4,0.4,0.5
2025-07-18T2300,1356A,114.1063,22.5545,深圳市,通心岭子站,,32,32,29,18,16,12,,61,35,35,23,6,6,0.7,0.6
