timepoint,stationcode,longitude,latitude,area,positionname,primarypollutant,aqi,pm10,pm10_24h,pm2_5,pm2_5_24h,o3,o3_24h,o3_8h,o3_8h_24h,no2,no2_24h,so2,so2_24h,co,co_24h
2023-10-13T00:00:00,1001A,116.3621,39.8784,北京市,万寿西宫,细颗粒物(PM2.5),150,137,137,115,93,56,4,32,8,59,80,3,2,0.9,1
2023-10-13T00:00:00,1002A,116.2202,40.2915,北京市,定陵,,,72,70,62,55,49,,28,2,12,18,3,3,0.6,0.6
2023-10-13T00:00:00,1003A,116.4174,39.9289,北京市,东四,细颗粒物(PM2.5),129,133,138,98,86,55,2,23,9,69,76,2,3,1.0,0.9
2023-10-13T00:00:00,1004A,116.4072,39.8863,北京市,天坛,细颗粒物(PM2.5),125,120,120,95,80,52,0,27,7,38,69,3,2,0.9,0.9
2023-10-13T00:00:00,1005A,116.462,39.9365,北京市,农展馆,细颗粒物(PM2.5),119,120,134,90,84,33,0,20,8,73,88,3,3,0.9,0.9
2023-10-13T00:00:00,1006A,116.3392,39.9295,北京市,官园,细颗粒物(PM2.5),133,131,132,101,85,65,3,40,9,59,68,1,2,0.8,0.8
2023-10-13T00:00:00,1007A,116.2878,39.9611,北京市,海淀万柳,细颗粒物(PM2.5),97,107,109,72,66,56,12,44,18,53,66,3,2,0.9,0.9
2023-10-13T00:00:00,1008A,116.6636,40.135,北京市,顺义新城,细颗粒物(PM2.5),90,97,103,67,75,54,15,45,23,30,36,3,2,0.7,0.6
2023-10-13T00:00:00,1009A,116.6275,40.3275,北京市,怀柔镇,细颗粒物(PM2.5),127,116,82,96,63,79,30,62,34,21,28,1,2,0.6,0.6
2023-10-13T00:00:00,1010A,116.2296,40.217,北京市,昌平镇,细颗粒物(PM2.5),90,86,83,67,57,66,0,51,16,8,15,1,1,0.6,0.6
2023-10-13T00:00:00,1011A,116.3966,39.9821,北京市,奥体中心,细颗粒物(PM2.5),128,125,125,97,81,37,0,22,8,70,78,3,3,0.8,0.8
2023-10-13T00:00:00,1012A,116.184,39.9136,北京市,古城,细颗粒物(PM2.5),139,163,145,106,84,71,5,58,22,48,58,3,4,0.9,0.8
2023-10-13T00:00:00,1015A,117.1444,39.1661,天津市,勤俭道,细颗粒物(PM2.5),79,104,76,58,46,133,81,111,62,31,45,12,11,0.7,0.7
2023-10-13T00:00:00,1017A,117.237,39.1082,天津市,大直沽八号路,细颗粒物(PM2.5),85,104,81,63,48,137,79,124,96,38,39,8,8,0.6,0.6
2023-10-13T00:00:00,1018A,117.202,39.0927,天津市,前进道,细颗粒物(PM2.5),67,78,62,48,38,137,70,124,98,44,44,9,10,0.7,0.7
2023-10-13T00:00:00,1019A,117.1837,39.2133,天津市,淮河道,颗粒物(PM10),94,137,90,67,53,146,2,122,38,102,56,8,9,1.0,0.8
2023-10-13T00:00:00,1021A,117.307,39.0877,天津市,跃进路,颗粒物(PM10),73,95,70,47,41,148,42,135,80,68,52,10,10,0.7,0.7
2023-10-13T00:00:00,1023A,117.707,39.0343,天津市,第四大街,,39,39,46,24,31,134,59,120,84,54,38,6,8,0.6,0.6
2023-10-13T00:00:00,1024A,117.457,38.8394,天津市,永明路,颗粒物(PM10),55,60,52,34,33,147,62,125,95,39,35,6,9,0.4,0.5
2023-10-13T00:00:00,1026A,117.764,39.1587,天津市,汉北路,颗粒物(PM10),55,60,50,32,31,147,4,124,73,104,57,10,9,0.5,0.5
2023-10-13T00:00:00,1027A,117.157,38.9194,天津市,团泊洼,颗粒物(PM10),72,94,80,51,43,120,18,97,61,62,50,6,7,0.9,0.9
2023-10-13T00:00:00,1029A,114.4422,38.0444,石家庄市,职工医院,细颗粒物(PM2.5),142,182,122,108,68,130,27,100,54,69,70,6,10,1.2,1.2
2023-10-13T00:00:00,1030A,114.6063,38.0266,石家庄市,高新区,细颗粒物(PM2.5),112,168,125,84,68,146,6,119,67,104,68,2,6,0.8,1
2023-10-13T00:00:00,1031A,114.4898,38.1328,石家庄市,西北水源,细颗粒物(PM2.5),125,189,131,95,62,124,3,88,43,76,67,2,7,1.1,1
2023-10-13T00:00:00,1032A,114.4586,38.0058,石家庄市,西南高教,细颗粒物(PM2.5),142,186,130,108,71,133,25,112,66,66,58,3,8,1.0,1.1
2023-10-13T00:00:00,1033A,114.5331,38.0178,石家庄市,世纪公园,细颗粒物(PM2.5),99,131,108,74,59,133,13,114,73,88,52,4,8,0.9,1.1
2023-10-13T00:00:00,1034A,114.509,38.0457,石家庄市,人民会堂,细颗粒物(PM2.5),138,145,107,105,80,142,10,126,69,102,64,5,10,0.8,1.1
2023-10-13T00:00:00,1035A,114.3524,37.8911,石家庄市,封龙山,细颗粒物(PM2.5),138,178,122,105,69,147,83,137,116,39,27,6,14,0.9,1.2
2023-10-13T00:00:00,1037A,118.131,39.6363,唐山市,雷达站,细颗粒物(PM2.5),82,98,94,60,57,126,19,92,22,62,62,3,4,0.8,0.9
2023-10-13T00:00:00,1038A,118.1725,39.6334,唐山市,物资局,颗粒物(PM10),83,115,95,51,49,128,7,101,45,77,55,6,11,0.9,0.9
2023-10-13T00:00:00,1040A,118.1705,39.6506,唐山市,十二中,颗粒物(PM10),79,108,100,48,49,116,3,83,23,84,70,2,5,0.7,0.9
2023-10-13T00:00:00,1041A,118.1869,39.622,唐山市,小山,颗粒物(PM10),87,124,93,45,46,130,2,89,27,77,57,2,7,0.9,1
2023-10-13T00:00:00,1042A,119.5134,39.8207,秦皇岛市,北戴河环保局,颗粒物(PM10),74,97,77,45,39,157,50,138,91,68,41,12,18,0.9,0.9
2023-10-13T00:00:00,1043A,119.7493,40.0116,秦皇岛市,第一关,颗粒物(PM10),68,85,65,44,39,170,8,152,49,123,83,15,11,1.1,0.9
2023-10-13T00:00:00,1044A,119.5897,39.9499,秦皇岛市,监测站,细颗粒物(PM2.5),72,83,73,52,47,160,61,137,78,57,56,13,20,0.9,1
2023-10-13T00:00:00,1046A,119.5251,39.9041,秦皇岛市,建设大厦,细颗粒物(PM2.5),73,81,74,53,42,156,38,133,58,61,48,5,8,0.5,0.6
2023-10-13T00:00:00,1048A,114.5302,36.6116,邯郸市,东污水处理厂,细颗粒物(PM2.5),147,122,99,112,85,153,32,108,64,70,64,14,17,0.2,1.6
2023-10-13T00:00:00,1049A,114.4918,36.5713,邯郸市,矿院,细颗粒物(PM2.5),150,116,100,115,79,157,2,118,58,108,67,17,11,0.7,1.2
2023-10-13T00:00:00,1050A,114.484,36.6133,邯郸市,丛台公园,细颗粒物(PM2.5),130,134,109,99,81,159,49,126,91,56,58,13,17,0.6,2
2023-10-13T00:00:00,1051A,115.493,38.8632,保定市,游泳馆,细颗粒物(PM2.5),160,160,127,122,95,146,31,115,78,63,63,4,7,1.0,0.8
2023-10-13T00:00:00,1052A,115.5213,38.8959,保定市,华电二区,细颗粒物(PM2.5),128,139,111,97,81,137,24,110,66,62,54,4,7,0.9,0.7
2023-10-13T00:00:00,1053A,115.4713,38.9108,保定市,接待中心,细颗粒物(PM2.5),145,156,131,111,84,134,54,101,72,40,53,6,8,0.8,0.7
2023-10-13T00:00:00,1054A,115.4612,38.8416,保定市,地表水厂,细颗粒物(PM2.5),118,180,155,89,73,131,12,105,61,97,75,6,9,0.9,0.8
2023-10-13T00:00:00,1056A,115.5086,38.8639,保定市,监测站,细颗粒物(PM2.5),155,184,124,118,81,145,24,116,68,70,66,9,10,0.9,0.9
2023-10-13T00:00:00,1057A,114.8883,40.8336,张家口市,人民公园,,38,37,45,26,22,106,38,93,50,14,20,3,2,0.4,0.5
2023-10-13T00:00:00,1059A,114.8687,40.8042,张家口市,五金库,,35,32,48,24,30,101,42,87,44,17,29,2,3,0.4,0.5
2023-10-13T00:00:00,1060A,114.8902,40.762,张家口市,世纪豪园,,36,33,48,25,31,97,37,82,50,21,29,3,3,0.4,0.5
2023-10-13T00:00:00,1061A,114.8916,40.8661,张家口市,北泵房,,49,41,41,34,27,114,28,95,42,18,17,6,7,0.3,0.4
2023-10-13T00:00:00,1062A,117.9531,40.9081,承德市,铁路,颗粒物(PM10),51,51,54,31,31,35,1,23,12,32,44,4,5,0.6,0.6
2023-10-13T00:00:00,1063A,117.9392,40.9763,承德市,中国银行,颗粒物(PM10),56,61,53,36,28,52,0,36,14,24,31,4,5,0.6,0.6
2023-10-13T00:00:00,1064A,117.9503,40.928,承德市,开发区,细颗粒物(PM2.5),58,56,51,41,33,58,1,37,22,37,43,4,4,0.7,0.6
2023-10-13T00:00:00,1065A,117.8051,40.9655,承德市,文化中心,颗粒物(PM10),61,72,65,42,36,77,0,56,26,43,40,1,2,0.6,0.5
2023-10-13T00:00:00,1066A,117.9268,41.0026,承德市,离宫,细颗粒物(PM2.5),65,66,57,47,31,66,0,42,17,7,10,2,2,0.4,0.5
2023-10-13T00:00:00,1067A,116.6708,39.5111,廊坊市,药材公司,细颗粒物(PM2.5),120,139,107,91,61,96,2,71,38,86,54,3,8,0.8,0.7
2023-10-13T00:00:00,1068A,116.7214,39.5589,廊坊市,开发区,,,104,102,66,65,105,,68,32,57,44,1,4,0.6,0.6
2023-10-13T00:00:00,1070A,116.7244,39.5269,廊坊市,北华航天学院,细颗粒物(PM2.5),117,121,101,88,62,109,0,88,29,70,52,6,11,0.7,0.7
2023-10-13T00:00:00,1071A,116.8842,38.2991,沧州市,沧县城建局,细颗粒物(PM2.5),82,108,72,60,46,151,8,134,66,111,46,10,11,0.5,0.5
2023-10-13T00:00:00,1072A,116.8584,38.3254,沧州市,电视转播站,细颗粒物(PM2.5),98,109,70,73,51,151,6,136,78,103,36,6,9,0.6,0.4
2023-10-13T00:00:00,1073A,116.8709,38.3228,沧州市,市环保局,细颗粒物(PM2.5),85,108,73,63,45,146,9,132,89,99,35,7,9,0.5,0.5
2023-10-13T00:00:00,1074A,115.6838,37.7541,衡水市,电机北厂,细颗粒物(PM2.5),94,122,81,70,40,165,54,148,96,60,43,10,10,0.5,0.4
2023-10-13T00:00:00,1075A,115.6303,37.7316,衡水市,市监测站,颗粒物(PM10),89,127,78,56,35,156,37,139,75,80,57,6,6,0.5,0.5
2023-10-13T00:00:00,1077A,114.4704,37.0886,邢台市,达活泉,细颗粒物(PM2.5),124,156,113,94,71,162,45,132,95,57,40,13,10,1.6,1.3
2023-10-13T00:00:00,1078A,114.5062,37.0349,邢台市,邢师高专,细颗粒物(PM2.5),133,155,103,101,68,158,6,129,70,,65,9,10,1.1,1.3
2023-10-13T00:00:00,1079A,114.5237,37.0851,邢台市,路桥公司,细颗粒物(PM2.5),127,139,108,96,71,157,13,127,81,94,58,7,10,0.7,1
2023-10-13T00:00:00,1080A,114.4725,37.0719,邢台市,市环保局,细颗粒物(PM2.5),130,120,108,99,72,156,75,129,101,37,48,10,10,1.2,1.4
2023-10-13T00:00:00,1081A,112.522,37.8873,太原市,尖草坪,细颗粒物(PM2.5),97,123,120,72,76,143,26,123,73,88,64,11,13,1.0,1.1
2023-10-13T00:00:00,1083A,112.434,38.0108,太原市,上兰,,,,,,,,,,,,,,,,
2023-10-13T00:00:00,1084A,112.469,37.7124,太原市,晋源,细颗粒物(PM2.5),119,154,142,90,99,154,10,117,56,98,66,9,12,1.5,1.4
2023-10-13T00:00:00,1085A,112.5583,37.7394,太原市,小店,细颗粒物(PM2.5),180,227,169,136,100,141,4,109,61,117,76,12,11,1.3,1.1
2023-10-13T00:00:00,1086A,112.5369,37.8692,太原市,桃园,颗粒物(PM10),96,141,136,67,76,138,5,118,66,113,70,9,12,1.2,1.2
2023-10-13T00:00:00,1087A,112.57,37.8195,太原市,坞城,细颗粒物(PM2.5),118,131,119,89,82,146,4,122,68,109,71,9,14,1.2,1.2
2023-10-13T00:00:00,1088A,112.549,37.9854,太原市,南寨,颗粒物(PM10),79,107,125,55,71,120,5,87,38,69,56,8,15,0.8,1.1
2023-10-13T00:00:00,1090A,111.6507,40.7517,呼和浩特市,呼市一监,,48,48,33,20,32,109,7,89,56,65,32,7,6,0.7,0.7
2023-10-13T00:00:00,1091A,111.6572,40.8033,呼和浩特市,小召,,34,34,37,7,27,94,17,83,45,54,36,6,6,0.6,0.6
2023-10-13T00:00:00,1094A,111.7516,40.8369,呼和浩特市,如意水处理厂,,33,27,41,7,22,104,3,94,40,66,38,9,9,0.5,0.6
2023-10-13T00:00:00,1095A,111.7276,40.8062,呼和浩特市,二十九中,颗粒物(PM10),55,59,41,15,33,107,4,96,50,69,33,8,7,0.8,0.7
2023-10-13T00:00:00,1096A,111.5512,40.7866,呼和浩特市,工大金川校区,,26,21,40,5,28,104,13,85,48,51,37,5,6,0.4,0.6
2023-10-13T00:00:00,1097A,111.717,40.7612,呼和浩特市,化肥厂生活区,,34,34,41,16,28,104,4,88,46,50,31,7,7,0.6,0.6
2023-10-13T00:00:00,1098A,123.6836,41.9339,沈阳市,森林路,,,,,,,,,,,,,,,,
2023-10-13T00:00:00,1099A,123.505,41.7406,沈阳市,浑南东路,颗粒物(PM10),68,85,71,44,40,121,2,92,16,68,49,17,11,0.9,1
2023-10-13T00:00:00,1100A,123.4231,41.6989,沈阳市,新秀街,细颗粒物(PM2.5),112,135,75,84,41,119,5,86,10,95,65,33,17,1.2,1.1
2023-10-13T00:00:00,1102A,123.5903,41.8411,沈阳市,东陵路,细颗粒物(PM2.5),78,99,66,57,38,123,7,102,32,65,43,12,15,1.0,1.1
2023-10-13T00:00:00,1103A,123.4264,41.8467,沈阳市,陵东街,颗粒物(PM10),85,119,87,61,48,123,5,95,24,76,53,8,9,1.6,1.5
2023-10-13T00:00:00,1104A,123.4114,41.7653,沈阳市,文化路,细颗粒物(PM2.5),89,116,91,66,52,119,6,94,29,105,62,30,16,1.5,1.4
2023-10-13T00:00:00,1105A,123.4678,41.7867,沈阳市,小河沿,细颗粒物(PM2.5),82,109,78,60,44,123,5,103,32,76,53,9,10,1.4,1.4
2023-10-13T00:00:00,1106A,123.4017,41.7972,沈阳市,太原街,细颗粒物(PM2.5),112,134,94,84,55,120,9,96,24,112,71,24,13,1.3,1.5
2023-10-13T00:00:00,1108A,123.3783,41.9228,沈阳市,京沈街,细颗粒物(PM2.5),110,139,94,83,68,125,5,106,40,107,67,14,17,1.4,1.4
2023-10-13T00:00:00,1109A,121.612,38.9741,大连市,甘井子,,,62,71,35,40,162,33,142,95,79,29,,18,1.1,0.9
2023-10-13T00:00:00,1110A,121.565,38.9511,大连市,周水子,,50,50,57,33,32,142,90,132,91,42,42,11,11,0.7,0.8
2023-10-13T00:00:00,1111A,121.5637,38.8845,大连市,星海三站,,43,43,60,25,32,166,87,153,79,28,27,8,9,1.0,1.1
2023-10-13T00:00:00,1112A,121.6302,38.9117,大连市,青泥洼桥,,32,29,66,16,33,149,101,142,90,20,31,7,9,0.8,1.2
2023-10-13T00:00:00,1113A,121.6251,38.8638,大连市,傅家庄,,46,28,53,18,32,172,145,160,143,9,13,8,10,0.6,0.8
2023-10-13T00:00:00,1114A,121.5213,38.8661,大连市,七贤岭,,39,39,53,19,29,171,105,160,116,14,21,5,7,1.0,1.2
2023-10-13T00:00:00,1115A,121.2529,38.8061,大连市,旅顺,,49,49,43,32,28,172,134,159,131,17,19,11,10,1.2,1.2
2023-10-13T00:00:00,1116A,121.7485,39.1311,大连市,金州,颗粒物(PM10),54,58,52,31,33,165,111,158,121,14,17,8,10,0.9,1.1
2023-10-13T00:00:00,1117A,121.7811,39.0496,大连市,开发区,颗粒物(PM10),66,81,72,44,42,169,100,151,112,30,34,10,14,1.0,1
2023-10-13T00:00:00,1118A,121.9762,39.0631,大连市,双D港,,35,26,41,19,26,157,112,146,116,16,17,7,9,0.7,0.9
2023-10-13T00:00:00,1119A,125.3325,43.9166,长春市,食品厂,颗粒物(PM10),108,166,122,70,54,99,7,72,14,93,74,7,8,1.5,1.4
2023-10-13T00:00:00,1120A,125.2863,43.9027,长春市,客车厂,细颗粒物(PM2.5),94,101,93,70,58,107,10,79,16,88,70,8,10,1.6,1.5
2023-10-13T00:00:00,1121A,125.2841,43.8463,长春市,邮电学院,细颗粒物(PM2.5),95,129,77,71,46,114,8,85,20,80,57,6,6,1.4,0.9
2023-10-13T00:00:00,1122A,125.3716,43.8772,长春市,劳动公园,颗粒物(PM10),139,227,123,83,49,105,8,75,22,78,58,8,6,2.3,1.3
2023-10-13T00:00:00,1123A,125.3297,43.8805,长春市,园林处,颗粒物(PM10),83,115,75,54,38,103,8,79,25,71,52,9,8,2.0,1.2
2023-10-13T00:00:00,1124A,125.4605,43.79,长春市,净月潭,,27,27,34,14,20,104,64,96,79,13,16,6,6,0.3,0.4
2023-10-13T00:00:00,1125A,125.7194,43.515,长春市,甩湾子,,,,,,,,,,,,,,,,
2023-10-13T00:00:00,1126A,125.3863,43.8447,长春市,经开区环卫处,颗粒物(PM10),116,181,114,60,45,108,5,80,21,62,47,8,7,1.4,0.9
2023-10-13T00:00:00,1127A,125.245,43.7783,长春市,高新区管委会,细颗粒物(PM2.5),83,88,56,61,38,112,3,94,21,56,37,6,7,0.8,0.7
2023-10-13T00:00:00,1128A,125.1761,43.8325,长春市,岱山公园,颗粒物(PM10),77,103,83,46,43,112,5,100,27,98,65,8,7,1.0,0.8
2023-10-13T00:00:00,1129A,126.5422,45.755,哈尔滨市,岭北,,50,50,45,24,24,118,57,102,66,27,24,11,15,0.5,0.5
2023-10-13T00:00:00,1130A,126.561,45.8167,哈尔滨市,松北商大,,38,38,42,19,20,109,40,87,32,43,38,6,7,0.5,0.5
2023-10-13T00:00:00,1131A,126.979,45.5419,哈尔滨市,阿城会宁,颗粒物(PM10),56,62,57,34,27,106,35,89,30,21,26,6,6,0.6,0.7
2023-10-13T00:00:00,1132A,126.599,45.7222,哈尔滨市,南岗学府路,颗粒物(PM10),58,65,72,35,30,99,7,85,51,80,41,6,7,1.0,0.8
2023-10-13T00:00:00,1133A,126.689,45.7733,哈尔滨市,太平宏伟公园,,45,45,78,29,34,105,21,88,47,82,49,4,5,0.9,0.9
2023-10-13T00:00:00,1134A,126.635,45.7667,哈尔滨市,道外承德广场,颗粒物(PM10),52,54,52,31,26,106,30,85,36,76,65,5,6,0.6,0.7
2023-10-13T00:00:00,1135A,126.685,45.7319,哈尔滨市,香坊红旗大街,颗粒物(PM10),61,71,68,30,37,98,6,87,29,108,68,5,12,0.6,0.7
2023-10-13T00:00:00,1136A,126.6411,45.7258,哈尔滨市,动力和平路,颗粒物(PM10),51,52,60,27,26,99,13,83,52,83,54,11,14,0.7,0.5
2023-10-13T00:00:00,1137A,126.593,45.7478,哈尔滨市,道里建国路,颗粒物(PM10),54,58,66,32,34,100,44,79,26,52,62,6,9,0.5,0.6
2023-10-13T00:00:00,1138A,126.615,45.61,哈尔滨市,平房东轻厂,,42,42,53,23,27,103,16,89,28,82,40,14,9,0.3,0.3
2023-10-13T00:00:00,1139A,126.595,45.9855,哈尔滨市,呼兰师专,,32,29,43,22,21,107,68,94,69,26,24,5,5,0.6,0.5
2023-10-13T00:00:00,1140A,126.6206,45.6842,哈尔滨市,省农科院,,45,45,66,20,28,108,60,95,37,40,52,16,14,0.5,0.6
2023-10-13T00:00:00,1141A,121.4,31.238,上海市,普陀,,24,21,30,16,18,109,76,98,71,23,36,4,4,0.6,0.7
2023-10-13T00:00:00,1142A,121.478,31.2036,上海市,十五厂,,30,19,26,12,16,110,93,98,81,20,28,4,5,0.5,0.5
2023-10-13T00:00:00,1143A,121.467,31.3008,上海市,虹口,,27,19,25,16,16,112,84,99,68,27,32,7,8,0.5,0.5
2023-10-13T00:00:00,1144A,121.412,31.1654,上海市,徐汇上师大,,27,21,30,16,20,112,84,99,80,22,31,8,8,0.7,0.7
2023-10-13T00:00:00,1145A,121.536,31.2659,上海市,杨浦四漂,,27,19,27,13,16,116,86,96,72,29,34,7,8,0.6,0.6
2023-10-13T00:00:00,1147A,121.425,31.2261,上海市,静安监测站,,31,17,30,15,18,117,98,104,81,21,34,4,4,0.5,0.6
2023-10-13T00:00:00,1148A,121.703,31.1907,上海市,浦东川沙,,30,20,26,9,16,117,94,102,87,18,28,6,6,0.4,0.5
2023-10-13T00:00:00,1149A,121.533,31.2284,上海市,浦东新区监测站,,29,19,27,9,14,105,91,92,71,16,30,6,7,0.5,0.6
2023-10-13T00:00:00,1150A,121.577,31.2071,上海市,浦东张江,,30,19,26,11,17,110,93,95,70,15,27,5,5,0.7,0.7
2023-10-13T00:00:00,1151A,118.8086,32.1065,南京市,迈皋桥,,29,29,35,14,20,144,57,130,70,26,40,4,5,0.4,0.4
2023-10-13T00:00:00,1152A,118.7538,32.0551,南京市,草场门,,34,34,37,19,21,145,47,131,80,47,42,4,3,0.7,0.7
2023-10-13T00:00:00,1153A,118.7794,32.0745,南京市,山西路,,34,34,46,12,25,159,48,137,80,41,37,5,6,0.3,0.4
2023-10-13T00:00:00,1154A,118.7752,32.0023,南京市,中华门,,41,41,39,17,20,145,37,133,84,46,34,4,4,0.7,0.7
2023-10-13T00:00:00,1155A,118.8109,32.0309,南京市,瑞金路,,36,36,37,12,18,134,46,123,77,38,31,10,10,0.4,0.4
2023-10-13T00:00:00,1156A,118.7997,32.0754,南京市,玄武湖,,40,40,40,14,20,129,29,116,63,50,37,6,6,0.7,0.7
2023-10-13T00:00:00,1157A,118.6414,32.0931,南京市,浦口,,41,41,42,15,24,144,53,124,81,33,32,10,7,0.8,0.7
2023-10-13T00:00:00,1158A,118.7356,31.9996,南京市,奥体中心,,44,44,43,19,23,148,53,136,99,41,35,8,8,0.3,0.4
2023-10-13T00:00:00,1159A,118.9125,32.1028,南京市,仙林大学城,,34,34,38,17,23,149,46,132,78,37,42,2,2,0.6,0.6
2023-10-13T00:00:00,1160A,120.561,31.2472,苏州市,上方山,,28,10,27,19,21,124,85,115,95,6,16,4,4,0.6,0.6
2023-10-13T00:00:00,1162A,120.591,31.3019,苏州市,彩香,,29,21,31,12,19,135,91,124,101,8,24,6,7,0.8,0.7
2023-10-13T00:00:00,1163A,120.596,31.3264,苏州市,轧钢厂,,29,19,34,12,19,139,91,129,100,7,23,9,9,0.9,0.7
2023-10-13T00:00:00,1164A,120.613,31.2703,苏州市,吴中区,,28,21,30,11,18,133,89,123,96,10,24,7,8,0.7,0.6
2023-10-13T00:00:00,1165A,120.543,31.2994,苏州市,苏州新区,,30,18,32,10,20,144,96,131,102,15,36,7,8,0.8,0.7
2023-10-13T00:00:00,1166A,120.669,31.3097,苏州市,苏州工业园区,,30,20,28,12,18,134,94,126,103,14,25,7,8,0.9,0.7
2023-10-13T00:00:00,1167A,120.641,31.3708,苏州市,相城区,,29,16,27,13,19,136,90,121,97,14,26,10,9,1.0,0.7
2023-10-13T00:00:00,1168A,120.9098,31.9663,南通市,狼山街道,,31,11,20,6,10,126,99,120,105,14,17,6,6,0.3,0.3
2023-10-13T00:00:00,1169A,120.86,32.0005,南通市,虹桥,,26,16,25,13,16,122,82,115,96,27,21,5,6,0.5,0.5
2023-10-13T00:00:00,1170A,120.87,32.02,南通市,城中,,27,20,21,16,15,114,85,109,93,16,19,6,6,0.6,0.6
2023-10-13T00:00:00,1171A,120.94,31.93,南通市,星湖花园,,32,2,19,8,12,122,100,115,101,11,16,6,6,0.3,0.3
2023-10-13T00:00:00,1172A,120.81,32.0417,南通市,紫琅学院,,24,18,25,7,16,114,76,106,90,18,25,6,9,0.4,0.4
2023-10-13T00:00:00,1173A,119.176,34.5885,连云港市,市环境监测站,颗粒物(PM10),53,56,40,27,23,120,6,116,81,79,28,6,6,0.6,0.6
2023-10-13T00:00:00,1177A,117.179,34.2761,徐州市,黄河新村,颗粒物(PM10),76,102,94,55,62,142,29,130,52,74,54,7,7,0.6,0.6
2023-10-13T00:00:00,1178A,117.1918,34.2384,徐州市,淮塔,颗粒物(PM10),74,97,87,49,53,153,30,138,71,59,42,10,8,0.7,0.6
2023-10-13T00:00:00,1180A,117.256,34.2153,徐州市,新城区,细颗粒物(PM2.5),80,98,92,59,56,148,39,128,70,61,50,7,8,0.5,0.5
2023-10-13T00:00:00,1181A,117.244,34.2911,徐州市,桃园路,颗粒物(PM10),87,124,110,61,58,145,10,126,47,88,57,9,9,0.8,0.7
2023-10-13T00:00:00,1182A,117.2933,34.2778,徐州市,农科院,颗粒物(PM10),76,102,90,52,56,142,13,125,53,88,59,9,10,0.6,0.6
2023-10-13T00:00:00,1186A,119.389,32.3761,扬州市,邗江监测站,,34,34,34,16,18,134,80,123,94,19,26,8,9,0.3,0.4
2023-10-13T00:00:00,1188A,120.269,31.4867,无锡市,雪浪,,32,24,30,22,16,138,68,126,95,20,24,5,5,0.7,0.7
2023-10-13T00:00:00,1189A,120.275,31.6219,无锡市,黄巷,,25,24,45,17,19,132,78,119,81,19,41,6,8,0.6,0.7
2023-10-13T00:00:00,1190A,120.294,31.56,无锡市,曹张,,24,21,29,12,20,136,76,123,85,15,32,6,7,0.8,0.8
2023-10-13T00:00:00,1191A,120.242,31.5031,无锡市,漆塘,,28,17,26,14,17,156,88,135,98,19,24,6,7,0.8,0.9
2023-10-13T00:00:00,1192A,120.3489,31.5863,无锡市,东亭,,25,22,34,17,22,137,71,125,87,21,35,4,6,0.8,0.8
2023-10-13T00:00:00,1193A,120.354,31.5475,无锡市,旺庄,,25,19,33,17,21,136,78,123,88,22,35,5,7,0.9,0.9
2023-10-13T00:00:00,1194A,120.245,31.5631,无锡市,荣巷,,24,17,28,14,16,132,75,121,88,17,20,7,9,0.8,0.9
2023-10-13T00:00:00,1195A,120.299,31.6817,无锡市,堰桥,,23,14,33,12,20,141,73,123,82,20,29,8,9,0.6,0.8
2023-10-13T00:00:00,1196A,119.9633,31.762,常州市,市监测站,,34,34,44,22,27,137,72,125,88,28,32,9,9,0.6,0.6
2023-10-13T00:00:00,1200A,119.9468,31.7069,常州市,武进监测站,,40,40,43,15,19,149,73,136,99,25,26,11,10,0.8,0.8
2023-10-13T00:00:00,1201A,119.9255,31.9087,常州市,安家,,35,34,36,24,26,152,78,133,98,23,26,10,10,0.5,0.6
2023-10-13T00:00:00,1203A,119.6707,32.1875,镇江市,新区办事处,,28,28,29,18,20,126,80,116,84,19,29,5,6,0.2,0.4
2023-10-13T00:00:00,1204A,119.4974,32.1968,镇江市,职教中心,,32,32,29,22,26,139,67,128,91,23,28,4,8,0.4,0.5
2023-10-13T00:00:00,1205A,119.4303,32.1328,镇江市,丹徒区监测站,,26,26,33,18,21,138,77,130,96,18,23,3,4,0.4,0.4
2023-10-13T00:00:00,1206A,119.905,32.4878,泰州市,公园路,,26,22,23,17,16,120,83,115,96,16,19,5,6,0.4,0.4
2023-10-13T00:00:00,1207A,119.9189,32.4625,泰州市,莲花,,29,24,26,14,17,118,90,114,100,16,17,5,8,0.4,0.4
2023-10-13T00:00:00,1209A,119.888,32.4639,泰州市,留学生创业园,,29,26,27,15,18,122,90,117,102,10,16,7,9,0.5,0.5
2023-10-13T00:00:00,1210A,119.036,33.5981,淮安市,钵池山,,46,46,36,31,31,112,62,106,82,28,26,8,7,0.7,0.6
2023-10-13T00:00:00,1211A,119.007,33.575,淮安市,北京南路,,36,36,38,24,30,120,82,112,94,27,23,6,5,0.5,0.6
2023-10-13T00:00:00,1212A,118.989,33.6067,淮安市,市监测站,,44,44,44,27,26,121,82,116,95,28,31,9,8,0.6,0.6
2023-10-13T00:00:00,1213A,119.135,33.5039,淮安市,楚州区监测站,,38,34,34,26,24,113,78,109,85,22,22,6,6,0.6,0.6
2023-10-13T00:00:00,1214A,119.0186,33.6297,淮安市,淮阴区监测站,颗粒物(PM10),51,51,50,28,33,118,64,108,81,34,34,8,7,0.6,0.6
2023-10-13T00:00:00,1215A,120.118,33.4022,盐城市,盐城电厂,,36,36,34,19,16,113,61,108,79,25,21,14,8,0.4,0.4
2023-10-13T00:00:00,1216A,120.156,33.3942,盐城市,市监测站,,32,32,28,19,20,121,55,117,84,32,23,13,5,0.4,0.4
2023-10-13T00:00:00,1218A,120.2144,33.38,盐城市,开发区管委会,,39,39,32,14,15,115,53,111,81,36,22,11,11,0.4,0.4
2023-10-13T00:00:00,1220A,118.293,33.9528,宿迁市,宿迁学院,颗粒物(PM10),55,59,59,33,37,141,72,134,84,27,31,8,8,0.5,0.5
2023-10-13T00:00:00,1221A,118.2442,33.9592,宿迁市,宿迁中学,颗粒物(PM10),52,54,51,30,38,133,74,121,84,22,23,7,7,0.6,0.7
2023-10-13T00:00:00,1223A,120.2072,30.2111,杭州市,滨江,,48,48,42,24,22,167,113,155,133,33,35,8,9,0.6,0.6
2023-10-13T00:00:00,1224A,120.0633,30.2747,杭州市,西溪,,44,44,36,30,27,154,18,138,86,56,30,4,5,0.6,0.6
2023-10-13T00:00:00,1226A,120.3461,30.3153,杭州市,下沙,,40,40,37,28,23,155,83,147,116,54,45,8,7,0.5,0.5
2023-10-13T00:00:00,1227A,120.1269,30.2456,杭州市,卧龙桥,,37,37,39,21,25,160,46,142,80,26,24,6,8,0.7,0.6
2023-10-13T00:00:00,1228A,120.1903,30.2692,杭州市,浙江农大,,35,32,35,24,25,139,81,127,106,33,34,7,6,0.6,0.6
2023-10-13T00:00:00,1230A,120.1197,30.3119,杭州市,和睦小学,,42,42,42,29,31,152,45,138,99,64,44,8,8,0.5,0.6
2023-10-13T00:00:00,1231A,120.3019,30.4183,杭州市,临平镇,,48,48,48,21,23,162,104,152,134,21,26,5,6,0.5,0.5
2023-10-13T00:00:00,1232A,120.2697,30.1819,杭州市,城厢镇,,40,33,37,23,25,157,128,147,131,15,24,7,7,0.4,0.5
2023-10-13T00:00:00,1233A,120.0883,30.1808,杭州市,云栖,,30,30,36,16,22,157,49,136,87,25,21,6,6,0.7,0.7
2023-10-13T00:00:00,1234A,121.8358,29.911,宁波市,区环保大楼,,37,17,20,12,13,119,2,102,50,73,41,5,5,0.6,0.6
2023-10-13T00:00:00,1235A,121.56,29.82,宁波市,万里学院,,22,17,29,5,12,133,70,117,81,28,35,7,8,0.6,0.6
2023-10-13T00:00:00,1236A,121.713,29.9572,宁波市,龙赛医院,,36,36,25,11,11,131,50,115,66,27,24,5,6,0.6,0.6
2023-10-13T00:00:00,1239A,121.633,29.7733,宁波市,钱湖水厂,,20,9,25,6,15,135,63,117,75,6,22,6,7,0.3,0.4
2023-10-13T00:00:00,1240A,121.5856,29.8635,宁波市,太古小学,,44,44,34,13,16,125,78,114,73,10,24,6,7,0.6,0.6
2023-10-13T00:00:00,1241A,121.524,29.8674,宁波市,市环境监测中心,,,,20,,12,134,83,123,82,9,20,,7,0.5,0.5
2023-10-13T00:00:00,1242A,120.634,28.0089,温州市,瓯海,颗粒物(PM10),51,52,35,30,23,138,12,129,76,62,23,6,7,0.7,0.6
2023-10-13T00:00:00,1243A,120.6748,27.9939,温州市,南浦,,27,18,31,10,17,146,85,130,110,11,17,5,6,0.4,0.5
2023-10-13T00:00:00,1244A,120.76,27.9747,温州市,龙湾,,25,12,28,7,16,156,78,128,97,19,27,4,5,0.4,0.5
2023-10-13T00:00:00,1245A,120.6709,28.0167,温州市,市站,,39,39,39,20,21,120,55,111,87,33,31,6,7,0.5,0.5
2023-10-13T00:00:00,1247A,120.6053,29.9928,绍兴市,城东开发委,颗粒物(PM10),55,60,45,37,27,154,31,136,75,39,31,7,8,0.7,0.6
2023-10-13T00:00:00,1250A,120.0751,30.8669,湖州市,城西水厂,,32,32,42,21,29,157,70,144,77,34,53,3,4,0.4,0.5
2023-10-13T00:00:00,1252A,120.7436,30.778,嘉兴市,清河小学,,29,29,32,14,15,136,70,130,81,20,30,4,5,0.6,0.6
2023-10-13T00:00:00,1253A,120.726,30.7478,嘉兴市,嘉兴学院,,30,26,34,21,19,138,70,132,86,15,22,4,5,0.5,0.5
2023-10-13T00:00:00,1255A,121.273,28.6459,台州市,黄岩环保大楼,,29,21,26,12,15,123,92,112,103,10,16,6,6,0.4,0.5
2023-10-13T00:00:00,1256A,121.419,28.6542,台州市,台州环保大楼,,26,16,23,8,15,129,83,116,95,6,12,4,4,0.5,0.5
2023-10-13T00:00:00,1257A,121.377,28.5773,台州市,路桥田洋王,,36,21,24,25,18,124,86,114,88,8,14,5,6,0.5,0.6
2023-10-13T00:00:00,1258A,122.122,30.0203,舟山市,定海檀枫,,23,17,15,9,10,108,71,96,71,6,10,6,6,0.5,0.5
2023-10-13T00:00:00,1259A,122.3094,29.9558,舟山市,普陀东港,,23,16,18,9,12,109,71,102,72,4,10,5,5,0.3,0.4
2023-10-13T00:00:00,1260A,122.19,29.9944,舟山市,临城新区,,21,10,16,4,7,107,65,94,70,8,12,4,4,0.4,0.4
2023-10-13T00:00:00,1262A,119.647,29.077,金华市,十五中,,42,36,47,29,32,157,56,143,93,37,35,4,5,0.5,0.5
2023-10-13T00:00:00,1263A,119.686,29.1029,金华市,监测站,颗粒物(PM10),52,54,48,27,26,156,46,145,90,39,33,5,5,0.6,0.6
2023-10-13T00:00:00,1264A,118.8692,28.9398,衢州市,环保大楼,,44,44,54,28,34,136,33,128,80,43,35,4,5,0.5,0.6
2023-10-13T00:00:00,1265A,118.8709,28.9666,衢州市,实验学校,,47,47,55,22,30,126,37,107,82,45,32,2,3,0.5,0.5
2023-10-13T00:00:00,1266A,118.8621,28.9808,衢州市,衢州学院,,39,39,50,23,31,139,29,130,79,53,31,5,4,0.5,0.6
2023-10-13T00:00:00,1267A,119.914,28.4514,丽水市,监测站大楼,,45,45,41,23,22,113,36,108,86,42,22,6,6,0.6,0.6
2023-10-13T00:00:00,1268A,119.93,28.4586,丽水市,莲都小学,,38,38,42,15,21,122,54,114,95,29,21,5,6,0.4,0.5
2023-10-13T00:00:00,1269A,119.879,28.4231,丽水市,余庄前,,34,34,35,16,19,123,18,100,40,20,19,6,6,0.5,0.5
2023-10-13T00:00:00,1270A,117.1959,31.7848,合肥市,明珠广场,,44,44,55,27,29,142,58,124,72,45,43,8,10,0.5,0.7
2023-10-13T00:00:00,1271A,117.3072,31.8764,合肥市,三里街,颗粒物(PM10),51,51,52,27,30,131,50,118,82,48,38,6,6,0.5,0.6
2023-10-13T00:00:00,1272A,117.2588,31.8707,合肥市,琥珀山庄,,41,41,48,22,27,138,43,124,88,53,28,6,6,0.6,0.7
2023-10-13T00:00:00,1273A,117.1604,31.9052,合肥市,董铺水库,颗粒物(PM10),60,70,56,27,25,150,29,131,70,58,33,6,6,0.4,0.5
2023-10-13T00:00:00,1274A,117.25,31.8571,合肥市,长江中路,颗粒物(PM10),51,51,54,31,35,135,51,126,96,44,23,8,9,0.4,0.5
2023-10-13T00:00:00,1275A,117.266,31.9436,合肥市,庐阳区,颗粒物(PM10),56,61,63,36,36,138,56,120,69,28,35,4,5,0.5,0.6
2023-10-13T00:00:00,1276A,117.336,31.8586,合肥市,瑶海区,颗粒物(PM10),58,66,60,32,31,136,35,120,79,57,31,5,6,0.5,0.6
2023-10-13T00:00:00,1277A,117.3027,31.7964,合肥市,包河区,颗粒物(PM10),57,63,59,27,30,127,5,115,28,93,74,4,5,0.5,0.7
2023-10-13T00:00:00,1278A,117.2776,31.7385,合肥市,滨湖新区,颗粒物(PM10),53,56,50,29,26,138,54,125,81,40,30,6,7,0.2,0.4
2023-10-13T00:00:00,1279A,117.1318,31.8403,合肥市,高新区,细颗粒物(PM2.5),55,58,54,39,34,136,33,125,67,65,38,6,8,0.8,0.7
2023-10-13T00:00:00,1280A,119.3903,26.0543,福州市,鼓山,,,,,,,,,,,,,,,,
2023-10-13T00:00:00,1282A,119.2681,26.0504,福州市,师大,,31,20,28,10,10,153,97,129,106,10,11,5,5,0.4,0.4
2023-10-13T00:00:00,1283A,119.2984,26.1028,福州市,五四北路,,35,16,24,10,10,128,112,117,107,9,11,3,4,0.4,0.4
2023-10-13T00:00:00,1284A,119.2648,26.0768,福州市,杨桥西路,,33,22,29,8,12,147,103,124,107,7,10,3,3,0.4,0.5
2023-10-13T00:00:00,1285A,119.317,26.0746,福州市,紫阳,,34,19,25,10,10,123,108,114,104,3,5,4,5,0.4,0.5
2023-10-13T00:00:00,1286A,118.1608,24.8169,厦门市,溪东,,,,,,,,,,,,,,,,
2023-10-13T00:00:00,1287A,118.1514,24.4767,厦门市,洪文,,37,37,31,17,15,126,58,112,83,21,10,4,2,0.4,0.4
2023-10-13T00:00:00,1288A,118.0661,24.4444,厦门市,鼓浪屿,,38,38,26,18,14,109,54,98,76,17,6,6,2,0.4,0.4
2023-10-13T00:00:00,1290A,115.8931,28.6843,南昌市,省外办,细颗粒物(PM2.5),64,76,90,46,56,134,89,128,110,29,23,9,6,0.7,0.9
2023-10-13T00:00:00,1291A,115.8886,28.7003,南昌市,省林业公司,"颗粒物(PM10),细颗粒物(PM2.5)",64,78,80,46,55,152,85,143,118,41,24,8,7,1.5,1.4
2023-10-13T00:00:00,1292A,115.8126,28.7442,南昌市,林科所,细颗粒物(PM2.5),55,58,62,39,42,157,130,145,129,18,15,9,9,0.5,0.6
2023-10-13T00:00:00,1294A,115.8518,28.687,南昌市,建工学校,细颗粒物(PM2.5),69,76,85,50,52,143,104,134,119,32,25,7,7,0.5,0.7
2023-10-13T00:00:00,1295A,115.8921,28.6424,南昌市,象湖,颗粒物(PM10),60,69,75,40,49,152,102,144,128,31,18,9,8,0.7,0.8
2023-10-13T00:00:00,1296A,115.7423,28.7996,南昌市,武术学校,,18,18,25,10,21,146,47,133,73,10,11,2,2,0.4,0.5
2023-10-13T00:00:00,1298A,115.9314,28.6842,南昌市,省站,颗粒物(PM10),60,69,79,40,53,143,106,136,122,19,19,10,9,0.5,0.6
2023-10-13T00:00:00,1299A,116.9862,36.6114,济南市,科干所,"颗粒物(PM10),细颗粒物(PM2.5)",85,119,83,63,42,152,116,122,104,26,37,7,6,0.8,0.8
2023-10-13T00:00:00,1300A,116.9376,36.665,济南市,农科所,细颗粒物(PM2.5),83,103,85,61,39,84,15,63,30,82,68,4,5,0.9,0.9
2023-10-13T00:00:00,1301A,117.1265,36.6734,济南市,开发区,细颗粒物(PM2.5),77,95,82,56,35,98,32,75,42,87,82,7,7,0.8,0.9
2023-10-13T00:00:00,1303A,117.0624,36.6868,济南市,省种子仓库,细颗粒物(PM2.5),92,127,95,68,42,141,17,96,50,89,73,3,4,1.0,0.9
2023-10-13T00:00:00,1304A,116.9489,36.6447,济南市,机床二厂,细颗粒物(PM2.5),95,127,109,71,50,105,29,85,46,64,66,4,4,0.7,0.7
2023-10-13T00:00:00,1305A,117.0495,36.663,济南市,市监测站,细颗粒物(PM2.5),85,100,82,63,41,144,48,112,67,76,75,5,4,0.9,0.9
2023-10-13T00:00:00,1306A,116.7675,36.5484,济南市,长清党校,细颗粒物(PM2.5),102,122,90,76,51,131,32,119,80,76,56,6,8,0.8,0.8
2023-10-13T00:00:00,1307A,120.6659,36.2403,青岛市,仰口,,35,29,36,24,19,125,97,108,97,13,14,3,37,0.6,0.9
2023-10-13T00:00:00,1310A,120.4134,36.0658,青岛市,市南区东部子站,颗粒物(PM10),63,75,43,24,19,137,29,133,66,86,39,6,5,0.7,0.6
2023-10-13T00:00:00,1311A,120.3664,36.1032,青岛市,四方区子站,颗粒物(PM10),89,127,64,41,26,129,8,106,44,98,71,7,6,1.0,0.8
2023-10-13T00:00:00,1312A,120.2994,36.054,青岛市,市南区西部子站,颗粒物(PM10),63,75,53,29,22,138,32,124,76,86,48,8,7,0.6,0.5
2023-10-13T00:00:00,1313A,120.4581,36.0858,青岛市,崂山区子站,颗粒物(PM10),56,61,40,27,19,138,41,132,69,62,33,7,6,0.6,0.5
2023-10-13T00:00:00,1314A,120.1983,35.9608,青岛市,黄岛区子站,颗粒物(PM10),74,97,56,39,28,130,6,123,66,120,60,11,8,0.9,0.6
2023-10-13T00:00:00,1315A,120.3999,36.3083,青岛市,城阳区子站,颗粒物(PM10),64,78,54,24,21,141,36,127,37,64,56,6,6,0.7,0.7
2023-10-13T00:00:00,1316A,113.69031,34.76122,郑州市,烟厂,颗粒物(PM10),97,144,129,60,62,89,24,65,48,71,74,8,8,0.9,0.9
2023-10-13T00:00:00,1317A,113.65724,34.77134,郑州市,郑纺机,颗粒物(PM10),83,115,128,53,54,87,34,63,48,64,81,7,8,1.0,1.1
2023-10-13T00:00:00,1318A,113.67526,34.80246,郑州市,银行学校,颗粒物(PM10),87,124,113,52,57,83,43,68,54,52,77,10,9,0.9,0.9
2023-10-13T00:00:00,1319A,113.56746,34.81334,郑州市,供水公司,细颗粒物(PM2.5),94,127,124,70,70,86,35,65,49,53,69,10,10,1.0,1
2023-10-13T00:00:00,1320A,113.7329,34.7178,郑州市,经开区管委,颗粒物(PM10),108,165,134,64,54,80,5,56,30,78,74,8,8,0.8,0.8
2023-10-13T00:00:00,1321A,113.73961,34.77172,郑州市,四十七中,颗粒物(PM10),91,131,127,55,60,82,25,57,45,70,76,8,9,0.9,0.9
2023-10-13T00:00:00,1322A,113.60532,34.74838,郑州市,市监测站,颗粒物(PM10),83,115,150,60,72,81,30,67,44,60,68,10,11,0.7,0.7
2023-10-13T00:00:00,1323A,113.64164,34.7525,郑州市,河医大,颗粒物(PM10),86,122,134,56,63,80,52,65,53,38,62,12,12,0.9,1
2023-10-13T00:00:00,1324A,113.51488,34.91089,郑州市,岗李水库,,,,,,,,,,,,,,,,
2023-10-13T00:00:00,1325A,114.3677,30.5584,武汉市,东湖梨园,细颗粒物(PM2.5),53,51,47,37,36,117,70,104,92,26,27,10,12,0.7,0.8
2023-10-13T00:00:00,1326A,114.2529,30.558,武汉市,汉阳月湖,细颗粒物(PM2.5),77,66,56,56,40,98,46,90,76,38,38,7,8,0.8,0.8
2023-10-13T00:00:00,1327A,114.282,30.6189,武汉市,汉口花桥,细颗粒物(PM2.5),64,66,56,46,39,109,53,96,77,35,36,7,9,0.8,0.9
2023-10-13T00:00:00,1328A,114.3025,30.5332,武汉市,武昌紫阳,"颗粒物(PM10),细颗粒物(PM2.5)",57,64,51,40,32,114,50,101,87,46,36,11,12,0.9,0.9
2023-10-13T00:00:00,1329A,114.3646,30.6217,武汉市,青山钢花,细颗粒物(PM2.5),62,56,51,44,42,120,52,101,73,36,40,8,9,0.7,0.7
2023-10-13T00:00:00,1330A,114.1566,30.4825,武汉市,沌口新区,细颗粒物(PM2.5),82,80,70,60,44,105,32,91,74,62,51,9,10,0.7,0.8
2023-10-13T00:00:00,1331A,114.3014,30.5944,武汉市,汉口江滩,细颗粒物(PM2.5),58,61,52,41,31,110,51,98,77,36,31,6,8,0.7,0.7
2023-10-13T00:00:00,1333A,114.135,30.6319,武汉市,吴家山,细颗粒物(PM2.5),70,72,53,51,40,121,30,107,74,43,33,7,8,0.6,0.7
2023-10-13T00:00:00,1334A,113.8454,30.2917,武汉市,沉湖七壕,颗粒物(PM10),59,68,53,40,31,126,42,109,86,20,28,4,6,0.9,0.9
2023-10-13T00:00:00,1335A,113.0833,28.2325,长沙市,经开区环保局,细颗粒物(PM2.5),80,93,71,59,47,110,69,102,90,22,20,7,7,0.6,0.5
2023-10-13T00:00:00,1336A,112.8872,28.2189,长沙市,高开区环保局,细颗粒物(PM2.5),87,82,74,64,59,120,85,109,101,14,32,7,8,0.7,0.8
2023-10-13T00:00:00,1337A,113.0792,28.2053,长沙市,马坡岭,细颗粒物(PM2.5),84,89,75,62,50,127,79,110,100,35,39,8,8,0.6,0.6
2023-10-13T00:00:00,1338A,112.9394,28.19,长沙市,湖南师范大学,细颗粒物(PM2.5),64,62,84,46,48,117,89,109,105,12,25,6,7,0.7,0.7
2023-10-13T00:00:00,1339A,113.0178,28.1322,长沙市,雨花区环保局,细颗粒物(PM2.5),67,71,71,48,42,120,82,109,99,18,33,7,7,0.8,0.8
2023-10-13T00:00:00,1340A,112.9792,28.2597,长沙市,伍家岭,细颗粒物(PM2.5),64,55,66,46,52,119,82,105,98,18,35,6,6,0.7,0.7
2023-10-13T00:00:00,1341A,113.0014,28.1944,长沙市,火车新站,细颗粒物(PM2.5),67,68,70,48,48,125,88,114,104,16,29,6,7,0.8,0.8
2023-10-13T00:00:00,1342A,112.9844,28.1178,长沙市,天心区环保局,颗粒物(PM10),60,69,66,34,34,124,82,115,92,23,30,5,6,0.5,0.5
2023-10-13T00:00:00,1343A,112.8908,28.1308,长沙市,湖南中医药大学,细颗粒物(PM2.5),100,101,87,75,63,123,84,112,104,16,25,5,4,0.9,0.8
2023-10-13T00:00:00,1344A,112.9581,28.3611,长沙市,沙坪,颗粒物(PM10),56,62,55,38,35,89,60,82,76,12,14,10,9,0.4,0.4
2023-10-13T00:00:00,1345A,113.2347,23.1423,广州市,广雅中学,,29,29,38,17,23,138,41,113,67,30,33,4,4,0.8,0.8
2023-10-13T00:00:00,1346A,113.2612,23.105,广州市,市五中,,33,29,31,23,23,142,46,115,70,21,23,7,6,0.7,0.6
2023-10-13T00:00:00,1348A,113.3478,23.0916,广州市,广东商学院,,32,32,35,20,20,119,40,92,48,23,22,4,4,0.6,0.6
2023-10-13T00:00:00,1349A,113.4332,23.1047,广州市,市八十六中,,37,37,32,20,18,119,36,90,54,27,23,5,4,0.6,0.6
2023-10-13T00:00:00,1350A,113.3505,22.9483,广州市,番禺中学,,25,25,33,16,18,144,47,107,62,18,29,4,7,0.7,0.8
2023-10-13T00:00:00,1351A,113.2146,23.3916,广州市,花都师范,,33,29,33,23,23,129,68,112,88,14,14,6,6,0.6,0.6
2023-10-13T00:00:00,1352A,113.2597,23.1331,广州市,市监测站,,43,43,36,23,20,140,32,114,60,35,29,4,4,0.6,0.6
2023-10-13T00:00:00,1353A,113.5618,23.312,广州市,九龙镇镇龙,,26,25,25,18,19,91,45,77,41,13,14,5,5,0.6,0.6
2023-10-13T00:00:00,1354A,113.2765,23.1544,广州市,麓湖,,33,29,29,23,21,132,21,101,44,37,27,6,6,0.6,0.6
2023-10-13T00:00:00,1355A,113.443,23.3035,广州市,帽峰山森林公园,,28,19,25,19,18,114,43,90,51,12,11,6,6,0.3,0.3
2023-10-13T00:00:00,1356A,114.1063,22.5545,深圳市,通心岭子站,,21,21,25,12,13,124,43,100,57,15,17,2,2,0.8,0.8
2023-10-13T00:00:00,1357A,114.117,22.5625,深圳市,洪湖,,26,26,25,10,12,114,39,92,52,17,18,7,6,0.5,0.5
2023-10-13T00:00:00,1358A,113.987,22.5417,深圳市,华侨城,,20,20,22,9,12,120,24,100,55,28,18,8,8,1.1,1
2023-10-13T00:00:00,1359A,113.9181,22.5171,深圳市,南海子站,,25,25,31,12,16,132,30,103,54,27,23,5,5,0.7,0.7
2023-10-13T00:00:00,1360A,114.2458,22.5689,深圳市,盐田,,22,22,35,11,14,94,48,76,58,8,16,5,5,0.7,0.7
2023-10-13T00:00:00,1361A,114.2283,22.7244,深圳市,龙岗,,22,22,22,14,13,88,41,79,48,13,13,7,7,0.7,0.6
2023-10-13T00:00:00,1363A,114.494,22.5422,深圳市,南澳,,25,22,20,17,14,119,34,96,57,13,12,5,5,0.8,0.9
2023-10-13T00:00:00,1364A,114.41,22.6342,深圳市,葵涌,,26,26,22,15,12,93,40,73,48,13,12,6,6,0.8,0.7
2023-10-13T00:00:00,1365A,114.297,22.5978,深圳市,梅沙,,31,31,27,16,14,96,34,84,50,15,10,7,7,0.8,0.8
2023-10-13T00:00:00,1366A,114.0678,22.738,深圳市,观澜,,29,29,34,15,15,128,48,109,63,16,16,8,8,1.0,1
2023-10-13T00:00:00,1367A,113.5814,22.2618,珠海市,吉大,,29,29,27,11,18,212,48,182,121,13,16,5,6,0.8,0.8
2023-10-13T00:00:00,1368A,113.4881,22.2335,珠海市,前山,,19,19,27,11,17,158,34,143,104,22,22,6,6,0.5,0.6
2023-10-13T00:00:00,1369A,113.628,22.4251,珠海市,唐家,,28,28,25,14,19,199,40,172,102,20,17,6,6,0.5,0.5
2023-10-13T00:00:00,1370A,113.299,22.2281,珠海市,斗门,,26,26,28,16,18,159,40,148,110,26,22,7,8,0.6,0.6
2023-10-13T00:00:00,1371A,113.1294,23.0067,佛山市,湾梁,,28,14,29,19,21,186,57,148,99,14,24,7,7,0.6,0.7
2023-10-13T00:00:00,1372A,113.1083,23.0478,佛山市,华材职中,,32,24,36,22,22,192,50,144,92,20,26,6,6,0.5,0.5
2023-10-13T00:00:00,1373A,113.144,23.0453,佛山市,南海气象局,,33,24,38,23,22,177,48,128,82,18,28,6,6,0.5,0.5
2023-10-13T00:00:00,1374A,113.2881,22.8094,佛山市,顺德苏岗,,26,26,32,9,16,152,42,120,71,19,25,8,8,0.7,0.7
2023-10-13T00:00:00,1376A,112.8383,22.8678,佛山市,高明孔堂,,37,37,43,22,24,214,75,173,106,16,22,8,9,0.6,0.6
2023-10-13T00:00:00,1377A,112.8836,23.1588,佛山市,三水监测站,,40,34,33,28,24,154,72,129,80,19,21,5,6,0.7,0.8
2023-10-13T00:00:00,1378A,112.867,23.185,佛山市,三水云东海,,33,28,29,23,23,157,64,130,72,19,17,6,6,0.7,0.7
2023-10-13T00:00:00,1379A,113.3769,22.5211,中山市,华柏园,,36,36,34,18,22,190,40,150,88,28,26,4,4,0.5,0.5
2023-10-13T00:00:00,1380A,113.3881,22.5497,中山市,张溪,,42,42,40,20,23,197,40,158,86,25,25,3,4,0.7,0.7
2023-10-13T00:00:00,1381A,113.4075,22.5111,中山市,紫马岭,,35,35,33,18,21,183,39,149,92,27,20,3,4,0.5,0.5
2023-10-13T00:00:00,1382A,113.4411,22.4853,中山市,长江旅游区,,,,,,,,,,,,,,,,
2023-10-13T00:00:00,1383A,113.1064,22.6058,江门市,北街,,33,33,34,23,24,178,47,148,98,25,26,8,7,0.7,0.7
2023-10-13T00:00:00,1384A,113.0731,22.5835,江门市,西区,,37,37,35,24,20,188,52,157,108,23,22,7,6,0.6,0.6
2023-10-13T00:00:00,1385A,113.0219,22.5311,江门市,圭峰西,,35,28,34,24,23,189,53,165,120,27,29,5,5,0.7,0.7
2023-10-13T00:00:00,1386A,113.0828,22.5947,江门市,东湖,,36,36,37,18,16,195,53,164,111,23,21,6,5,0.7,0.7
2023-10-13T00:00:00,1389A,113.7547,23.0494,东莞市,莞城梨川,,24,24,28,15,18,127,53,104,65,16,18,7,7,0.7,0.7
2023-10-13T00:00:00,1390A,113.7944,23.0128,东莞市,东城石井,,28,28,30,15,17,100,52,88,62,9,7,5,6,0.7,0.7
2023-10-13T00:00:00,1391A,113.7383,22.9658,东莞市,南城西平,,,31,28,21,18,114,,101,62,24,28,3,4,0.9,0.8
2023-10-13T00:00:00,1392A,114.4183,23.0528,惠州市,河南岸金山湖子站,,30,30,23,19,16,74,46,64,48,9,7,7,7,0.5,0.5
2023-10-13T00:00:00,1393A,114.4053,23.0822,惠州市,下埔横江三路子站,,31,31,23,21,16,70,44,64,52,13,10,8,7,0.6,0.6
2023-10-13T00:00:00,1394A,114.4103,23.1142,惠州市,江北云山西路子站,,31,31,23,20,15,75,43,67,54,13,8,8,7,0.5,0.5
2023-10-13T00:00:00,1395A,114.4645,22.7833,惠州市,惠阳区承修路船湖子站,,32,32,26,17,16,66,22,59,35,13,11,4,4,0.9,0.8
2023-10-13T00:00:00,1396A,114.5317,22.7422,惠州市,大亚湾管委会子站,,20,20,19,13,13,59,36,54,41,10,11,6,6,0.7,0.7
2023-10-13T00:00:00,1397A,112.4267,23.0706,肇庆市,睦岗子站,,28,28,30,18,19,130,62,114,81,13,19,4,5,0.5,0.5
2023-10-13T00:00:00,1398A,112.4645,23.0475,肇庆市,城中子站,,33,33,30,23,21,140,56,122,87,15,15,8,8,0.6,0.6
2023-10-13T00:00:00,1399A,112.5544,23.1522,肇庆市,坑口子站,,36,32,28,25,20,131,53,112,80,18,16,6,7,0.6,0.6
2023-10-13T00:00:00,1400A,112.4753,23.1,肇庆市,七星岩子站,,,,,,,,,,,,,,,,
2023-10-13T00:00:00,1401A,108.3103,22.7881,南宁市,二十一中,颗粒物(PM10),52,53,32,33,20,72,28,62,47,36,22,10,9,0.9,0.8
2023-10-13T00:00:00,1402A,108.3141,22.8528,南宁市,北湖,颗粒物(PM10),56,62,33,34,21,77,22,63,43,33,19,8,13,0.8,0.7
2023-10-13T00:00:00,1403A,108.3206,22.8225,南宁市,市监测站,颗粒物(PM10),52,53,34,34,20,75,28,58,38,42,28,10,12,1.0,0.9
2023-10-13T00:00:00,1404A,108.3829,22.8037,南宁市,大自然花园,,,,27,,20,75,,62,48,,18,,6,,0.8
2023-10-13T00:00:00,1405A,108.4394,22.7904,南宁市,仙葫,,,,,,,,,,,,,,,,
2023-10-13T00:00:00,1406A,108.2397,22.8467,南宁市,区农职院,,,43,33,19,16,77,31,65,53,24,18,7,8,,0.7
2023-10-13T00:00:00,1407A,108.3275,22.735,南宁市,英华嘉园,,44,44,37,28,22,70,15,59,42,38,23,6,6,0.9,0.8
2023-10-13T00:00:00,1408A,108.2257,22.7757,南宁市,沙井镇街道办,,44,44,38,29,22,74,15,60,41,36,26,5,7,1.0,1
2023-10-13T00:00:00,1409A,110.576,19.9507,海口市,东寨港,,,,,,,,,,,,,,,,
2023-10-13T00:00:00,1410A,110.3232,20.0574,海口市,海南大学,,36,26,28,18,21,133,115,129,126,11,9,6,6,0.5,0.5
2023-10-13T00:00:00,1411A,110.283,20.0053,海口市,秀英海南医院,,36,26,29,16,18,134,114,126,124,7,9,7,7,0.5,0.5
2023-10-13T00:00:00,1412A,110.338,19.9969,海口市,海南师范大学,,35,28,31,15,17,138,111,132,126,7,9,6,5,0.4,0.4
2023-10-13T00:00:00,1413A,110.33,20.0356,海口市,龙华路环保局宿舍,,35,23,29,16,18,131,111,125,122,7,10,8,8,0.4,0.4
2023-10-13T00:00:00,1414A,106.3787,29.8279,重庆市,缙云山,,19,12,14,8,8,69,60,66,64,7,8,6,6,0.4,0.2
2023-10-13T00:00:00,1416A,106.4213,29.8253,重庆市,天生,,28,28,31,16,21,61,32,54,42,25,21,5,5,0.8,0.8
2023-10-13T00:00:00,1417A,106.6263,29.7228,重庆市,两路,,24,24,24,12,15,60,38,42,35,18,25,5,6,0.9,0.9
2023-10-13T00:00:00,1418A,106.2953,29.5983,重庆市,虎溪,,31,31,27,20,18,53,11,48,25,43,27,5,5,0.6,0.6
2023-10-13T00:00:00,1419A,106.5777,29.5102,重庆市,南坪,颗粒物(PM10),51,51,47,27,24,66,20,58,22,47,25,6,12,0.7,0.6
2023-10-13T00:00:00,1420A,106.6556,29.6277,重庆市,唐家沱,,30,30,33,17,19,76,28,66,39,30,22,5,6,0.8,0.8
2023-10-13T00:00:00,1421A,106.6349,29.4906,重庆市,茶园,,33,22,28,23,20,72,30,58,37,33,29,5,5,0.7,0.7
2023-10-13T00:00:00,1422A,106.3754,29.4572,重庆市,白市驿,,49,40,31,34,28,64,26,51,22,25,27,6,6,0.7,0.6
2023-10-13T00:00:00,1425A,106.6205,29.7166,重庆市,空港,,39,39,33,19,16,72,55,59,53,16,22,4,4,0.6,0.9
2023-10-13T00:00:00,1426A,106.4782,29.4875,重庆市,新山村,,45,43,43,31,31,64,28,50,30,43,38,6,6,0.8,0.7
2023-10-13T00:00:00,1427A,106.5616,29.6453,重庆市,礼嘉,,31,31,25,18,18,66,49,59,46,24,22,7,7,0.8,0.8
2023-10-13T00:00:00,1428A,106.4522,29.7091,重庆市,蔡家,,33,26,30,23,23,59,32,45,30,17,25,6,6,0.6,0.6
2023-10-13T00:00:00,1429A,106.5093,29.3917,重庆市,鱼新街,,36,30,30,25,21,69,43,61,35,33,34,5,5,0.8,0.7
2023-10-13T00:00:00,1431A,103.9728,30.7236,成都市,金泉两河,,25,25,22,2,9,64,20,53,29,25,15,2,2,0.4,0.3
2023-10-13T00:00:00,1432A,104.176,30.6872,成都市,十里店,,11,9,16,3,8,70,28,58,47,22,12,3,3,0.5,0.4
2023-10-13T00:00:00,1433A,104.079,30.5706,成都市,三瓦窑,,23,20,19,16,10,66,39,53,43,14,15,1,2,0.4,0.3
2023-10-13T00:00:00,1434A,104.1114,30.63,成都市,沙河铺,,23,23,22,1,11,70,38,52,41,14,13,1,1,0.5,0.5
2023-10-13T00:00:00,1437A,104.0786,30.6531,成都市,君平街,,25,25,16,3,9,69,31,58,45,35,18,3,3,0.5,0.5
2023-10-13T00:00:00,1438A,103.613,31.0283,成都市,灵岩寺,,,,7,3,6,80,76,70,70,2,5,4,5,0.6,0.6
2023-10-13T00:00:00,1439A,106.6899,26.5998,贵阳市,马鞍山,,17,17,18,0,11,57,36,50,31,8,12,5,5,0.6,0.6
2023-10-13T00:00:00,1440A,106.6971,26.5694,贵阳市,市环保站,,13,7,20,5,15,61,40,56,34,16,21,3,3,0.3,0.3
2023-10-13T00:00:00,1441A,106.6243,26.6266,贵阳市,鉴湖路,,14,14,24,2,13,53,36,46,30,9,13,3,3,0.5,0.5
2023-10-13T00:00:00,1442A,106.7487,26.6343,贵阳市,燕子冲,,18,14,22,12,17,47,41,42,35,7,13,5,5,0.4,0.5
2023-10-13T00:00:00,1443A,106.6555,26.4365,贵阳市,碧云窝,,17,17,28,2,13,63,33,57,31,16,13,4,4,0.5,0.5
2023-10-13T00:00:00,1444A,106.694,26.5161,贵阳市,中院村,,13,12,30,9,15,55,35,48,29,11,17,8,8,0.3,0.3
2023-10-13T00:00:00,1445A,106.7109,26.6027,贵阳市,红边门,,14,14,25,7,17,53,36,46,30,10,18,3,3,0.4,0.5
2023-10-13T00:00:00,1446A,106.7164,26.5699,贵阳市,新华路,,18,7,21,12,14,57,40,53,37,11,16,3,6,0.3,0.4
2023-10-13T00:00:00,1447A,106.674,26.5424,贵阳市,太慈桥,,10,7,19,5,13,58,30,50,27,13,16,4,4,0.5,0.4
2023-10-13T00:00:00,1450A,102.8204,24.8886,昆明市,呈贡新区,,28,28,27,19,18,69,17,62,43,46,23,10,8,0.8,0.7
2023-10-13T00:00:00,1451A,102.6251,24.9608,昆明市,西山森林公园,,17,11,16,7,12,67,54,63,61,8,8,7,7,0.5,0.6
2023-10-13T00:00:00,1452A,102.7252,25.0902,昆明市,龙泉镇,,27,27,29,12,19,59,7,50,34,39,22,8,9,0.9,0.9
2023-10-13T00:00:00,1453A,102.7266,25.0375,昆明市,东风东路,,27,27,28,15,19,63,35,54,45,20,18,8,8,0.7,0.8
2023-10-13T00:00:00,1454A,102.6742,25.0669,昆明市,金鼎山,,25,24,30,17,16,63,27,55,46,29,22,13,13,0.6,0.6
2023-10-13T00:00:00,1455A,102.6644,25.0401,昆明市,碧鸡广场,,35,24,25,24,16,62,8,55,38,47,26,8,8,0.8,0.8
2023-10-13T00:00:00,1456A,91.1319,29.6514,拉萨市,八廓街,,28,14,10,6,7,149,87,115,96,12,8,12,8,0.1,0.2
2023-10-13T00:00:00,1457A,91.1221,29.6747,拉萨市,市环保局,,24,13,12,9,7,104,74,100,89,18,13,7,7,0.4,0.4
2023-10-13T00:00:00,1458A,91.0874,29.6475,拉萨市,区监测站,,26,9,7,5,6,108,81,101,92,14,11,8,8,0.3,0.3
2023-10-13T00:00:00,1459A,91.1774,29.6541,拉萨市,西藏大学,,26,10,8,8,6,106,82,103,95,14,11,9,8,0.3,0.3
2023-10-13T00:00:00,1460A,90.9798,29.6588,拉萨市,区辐射站,,27,10,10,7,7,105,84,99,90,13,12,6,6,0.3,0.3
2023-10-13T00:00:00,1461A,91.0834,29.6292,拉萨市,拉萨火车站,,42,42,11,18,8,100,85,97,94,11,6,6,5,0.4,0.4
2023-10-13T00:00:00,1462A,108.882,34.2749,西安市,高压开关厂,颗粒物(PM10),79,107,97,40,43,88,44,70,56,38,35,7,7,1.1,1.1
2023-10-13T00:00:00,1463A,108.993,34.2629,西安市,兴庆小区,颗粒物(PM10),57,63,57,38,38,94,42,74,59,29,26,6,6,1.1,1
2023-10-13T00:00:00,1464A,109.06,34.2572,西安市,纺织城,细颗粒物(PM2.5),72,89,86,52,53,108,6,78,36,56,42,5,5,1.1,1.1
2023-10-13T00:00:00,1465A,108.9356,34.2173,西安市,小寨,颗粒物(PM10),60,69,76,38,38,103,19,78,52,52,29,6,6,1.1,1
2023-10-13T00:00:00,1466A,108.954,34.2713,西安市,市人民体育场,细颗粒物(PM2.5),65,67,69,47,43,88,43,65,47,25,28,6,6,1.0,1
2023-10-13T00:00:00,1467A,108.8922,34.2322,西安市,高新西区,颗粒物(PM10),61,72,71,43,46,100,33,77,56,63,45,6,6,1.2,1.2
2023-10-13T00:00:00,1468A,108.935,34.3474,西安市,经开区,细颗粒物(PM2.5),67,65,64,48,47,72,41,61,50,29,31,3,3,0.9,1
2023-10-13T00:00:00,1469A,108.906,34.1546,西安市,长安区,,47,47,73,24,43,112,6,90,48,36,22,5,6,0.9,1
2023-10-13T00:00:00,1471A,109.2186,34.3731,西安市,临潼区,细颗粒物(PM2.5),62,72,99,44,52,88,79,68,65,11,29,6,6,1.0,1.1
2023-10-13T00:00:00,1472A,108.869,34.378,西安市,草滩,细颗粒物(PM2.5),97,133,117,72,66,185,0,143,21,70,49,5,6,1.0,0.9
2023-10-13T00:00:00,1473A,108.985,34.1978,西安市,曲江文化产业集团,"颗粒物(PM10),细颗粒物(PM2.5)",69,88,87,50,53,101,29,80,51,39,30,2,4,1.0,0.9
2023-10-13T00:00:00,1474A,109.051,34.3213,西安市,广运潭,颗粒物(PM10),64,77,75,43,43,78,12,61,36,52,36,7,7,1.1,1.1
2023-10-13T00:00:00,1476A,103.631,36.1031,兰州市,兰炼宾馆,,42,33,22,29,21,76,52,69,61,30,25,8,5,0.5,0.5
2023-10-13T00:00:00,1477A,104.1373,35.9454,兰州市,榆中兰大校区,,,,,,,,,,,,,,,,
2023-10-13T00:00:00,1478A,103.8412,36.0726,兰州市,生物制品所,,40,27,22,28,30,86,52,76,66,23,24,12,7,0.5,0.6
2023-10-13T00:00:00,1479A,103.831,36.0464,兰州市,铁路设计院,,38,24,24,26,28,88,58,74,67,36,35,12,8,0.6,0.7
2023-10-13T00:00:00,1483A,101.524,36.6867,西宁市,第五水厂,,,,,,,,,,,,,,,,
2023-10-13T00:00:00,1484A,105.9512,38.6016,银川市,贺兰山马莲口,,30,16,24,21,20,120,87,114,98,10,10,6,5,0.4,0.2
2023-10-13T00:00:00,1488A,106.2328,38.4975,银川市,贺兰山东路,,40,37,57,28,41,118,72,103,84,17,29,7,10,0.4,0.6
2023-10-13T00:00:00,1489A,106.1358,38.5036,银川市,学院路,,39,27,42,27,30,106,58,98,64,17,28,6,10,0.4,0.6
2023-10-13T00:00:00,1490A,87.5801,43.8303,乌鲁木齐市,监测站,,48,48,68,14,17,113,42,93,56,66,53,5,6,0.7,0.7
2023-10-13T00:00:00,1491A,87.6046,43.768,乌鲁木齐市,收费所,,41,41,58,13,17,109,100,103,93,20,29,3,3,0.3,0.3
2023-10-13T00:00:00,1492A,87.4754,43.9469,乌鲁木齐市,新疆农科院农场,颗粒物(PM10),85,120,127,42,32,110,7,87,57,96,57,2,3,0.3,0.3
2023-10-13T00:00:00,1493A,87.5525,43.8711,乌鲁木齐市,铁路局,颗粒物(PM10),96,142,85,53,25,119,2,93,52,114,53,6,5,2.2,0.7
2023-10-13T00:00:00,1494A,87.6432,43.831,乌鲁木齐市,三十一中学,颗粒物(PM10),61,71,75,15,20,119,82,100,95,10,27,6,7,0.2,0.6
2023-10-13T00:00:00,1496A,87.7216,44.1747,乌鲁木齐市,米东区环保局,颗粒物(PM10),75,100,97,25,34,128,40,113,95,24,34,5,7,0.4,0.7
2023-10-13T00:00:00,1508A,112.9433,27.8614,湘潭市,板塘,细颗粒物(PM2.5),82,57,69,60,47,115,77,102,88,22,35,10,10,0.4,0.8
2023-10-13T00:00:00,1511A,112.9118,27.8403,湘潭市,市监测站,细颗粒物(PM2.5),80,76,76,59,55,131,90,114,98,18,30,6,6,0.6,0.7
2023-10-13T00:00:00,1512A,112.8937,27.8728,湘潭市,江麓,细颗粒物(PM2.5),83,56,72,61,55,130,92,115,103,16,25,9,11,1.1,1.2
2023-10-13T00:00:00,1513A,112.9227,27.8159,湘潭市,岳塘,细颗粒物(PM2.5),79,57,70,58,52,133,96,117,101,17,32,2,13,0.6,0.6
2023-10-13T00:00:00,1514A,112.9074,27.9119,湘潭市,科大,细颗粒物(PM2.5),80,57,71,59,51,126,87,112,98,17,26,8,9,0.6,0.6
2023-10-13T00:00:00,1515A,113.135,27.8244,株洲市,天台山庄,细颗粒物(PM2.5),122,109,73,92,53,135,91,119,100,21,29,8,9,0.8,0.7
2023-10-13T00:00:00,1518A,113.095,27.8867,株洲市,株冶医院,细颗粒物(PM2.5),78,102,72,57,41,127,68,114,87,29,32,6,8,0.8,0.7
2023-10-13T00:00:00,1519A,113.167,27.8667,株洲市,市四中,细颗粒物(PM2.5),117,113,77,88,52,131,81,118,96,23,25,6,6,0.8,0.8
2023-10-13T00:00:00,1520A,113.143,27.8381,株洲市,火车站,细颗粒物(PM2.5),125,109,77,95,56,132,92,120,101,21,27,6,8,0.8,0.7
2023-10-13T00:00:00,1524A,113.13,27.8528,株洲市,市监测站,细颗粒物(PM2.5),124,111,77,94,57,134,92,119,100,20,31,6,7,1.0,0.9
2023-10-13T00:00:00,1552A,106.805,26.3003,贵阳市,桐木岭,,,,,,,,,,,,,,,,
2023-10-13T00:00:00,1559A,113.251,27.8336,株洲市,大京风景区,细颗粒物(PM2.5),117,104,51,88,39,131,79,117,85,15,9,7,5,0.7,0.5
2023-10-13T00:00:00,1562A,113.0048,27.9153,湘潭市,昭山,细颗粒物(PM2.5),85,85,76,63,47,128,95,115,102,18,36,6,7,1.0,0.9
2023-10-13T00:00:00,1564A,112.4876,27.9164,湘潭市,韶山,颗粒物(PM10),66,82,82,47,44,117,108,112,110,12,15,8,8,0.6,0.6
2023-10-13T00:00:00,1585A,109.8756,40.6532,包头市,市环境监测站,颗粒物(PM10),63,76,43,22,22,97,6,90,30,68,39,9,12,1.1,0.8
2023-10-13T00:00:00,1587A,109.9991,40.5842,包头市,包头八中,,47,47,51,8,29,103,8,91,35,71,41,15,20,0.6,0.9
2023-10-13T00:00:00,1588A,109.8538,40.6821,包头市,青山宾馆,,47,47,35,7,23,100,5,90,30,65,35,9,11,0.5,0.7
2023-10-13T00:00:00,1589A,109.8642,40.6288,包头市,惠龙物流,颗粒物(PM10),63,75,52,24,24,99,4,96,37,76,42,9,14,1.0,0.8
2023-10-13T00:00:00,1590A,110.0377,40.5546,包头市,东河鸿龙湾,,39,39,40,9,23,116,12,101,45,64,31,13,18,0.6,0.7
2023-10-13T00:00:00,1591A,110.0023,39.8129,鄂尔多斯市,综合楼,,36,36,47,9,25,113,63,99,62,37,35,5,8,0.6,0.8
2023-10-13T00:00:00,1592A,109.9486,39.8261,鄂尔多斯市,巴音孟克林场办事处,,34,34,46,14,31,112,32,101,51,64,41,7,12,0.8,0.7
2023-10-13T00:00:00,1593A,109.7736,39.5986,鄂尔多斯市,康泽苑,,32,31,37,22,24,115,36,95,72,24,25,5,7,0.3,0.5
2023-10-13T00:00:00,1594A,109.8119,39.5989,鄂尔多斯市,华泰汽车城,,34,34,42,22,25,115,24,86,37,40,37,4,6,0.6,0.5
2023-10-13T00:00:00,1595A,109.9734,39.7884,鄂尔多斯市,奥林花园,颗粒物(PM10),59,68,46,24,26,112,19,98,40,71,36,7,8,0.9,0.9
2023-10-13T00:00:00,1597A,122.2703,40.7094,营口市,大庆路,细颗粒物(PM2.5),64,63,69,46,46,170,71,148,96,39,34,6,10,1.4,1.3
2023-10-13T00:00:00,1598A,122.2150,40.6511,营口市,镜湖西路,颗粒物(PM10),60,70,78,36,40,169,84,148,107,38,38,9,9,1.4,1.4
2023-10-13T00:00:00,1599A,122.1658,40.6789,营口市,西炮台,细颗粒物(PM2.5),94,94,92,70,60,161,62,148,113,51,38,8,9,1.3,1.1
2023-10-13T00:00:00,1600A,124.3303,40.0625,丹东市,江湾东路,颗粒物(PM10),57,64,45,38,29,124,33,94,53,22,24,14,14,1.3,0.9
2023-10-13T00:00:00,1601A,124.4256,40.1503,丹东市,临江后街,,43,43,37,24,20,125,43,104,56,18,25,5,8,0.8,0.8
2023-10-13T00:00:00,1602A,124.3933,40.1461,丹东市,元宝山,,37,37,32,23,17,106,53,97,68,14,24,10,11,0.6,0.7
2023-10-13T00:00:00,1603A,124.3633,40.1092,丹东市,民主桥,颗粒物(PM10),52,53,37,28,20,112,32,84,45,41,34,5,7,0.9,0.8
2023-10-13T00:00:00,1604A,122.0303,41.1489,盘锦市,开发区,,45,10,53,31,63,161,124,150,141,20,43,9,14,0.8,1.2
2023-10-13T00:00:00,1605A,122.0485,41.0883,盘锦市,兴隆台,细颗粒物(PM2.5),78,24,56,57,61,166,91,149,127,37,47,12,13,1.2,1.4
2023-10-13T00:00:00,1606A,121.8297,41.1028,盘锦市,新生街道,,28,27,38,19,29,170,68,143,101,30,36,10,9,1.0,1
2023-10-13T00:00:00,1607A,120.9092,40.7136,葫芦岛市,龙港区,细颗粒物(PM2.5),52,42,92,36,65,177,106,142,129,18,45,12,118,0.7,2.2
2023-10-13T00:00:00,1608A,120.8392,40.7514,葫芦岛市,化工街,颗粒物(PM10),85,119,96,58,50,165,12,139,79,103,54,19,19,1.5,1.3
2023-10-13T00:00:00,1609A,120.8341,40.7073,葫芦岛市,新区,细颗粒物(PM2.5),54,46,78,38,60,168,84,135,101,32,57,10,19,1.0,1.5
2023-10-13T00:00:00,1610A,120.8695,40.7677,葫芦岛市,东城区,颗粒物(PM10),76,101,74,43,42,170,1,148,70,117,63,18,22,1.8,1.6
2023-10-13T00:00:00,1611A,118.5819,24.9117,泉州市,涂山街,,27,23,29,12,12,136,84,126,103,15,12,4,4,0.6,0.6
2023-10-13T00:00:00,1612A,118.5972,24.8978,泉州市,津头埔,,24,23,27,12,13,136,76,126,95,21,16,3,3,0.6,0.6
2023-10-13T00:00:00,1613A,118.6663,24.9424,泉州市,万安,,32,32,35,15,15,147,73,136,99,24,15,4,3,0.5,0.5
2023-10-13T00:00:00,1614A,118.6117,24.9604,泉州市,清源山,,,,,,,,,,,,,,,,
2023-10-13T00:00:00,1616A,117.6795,36.229,济南市,技术学院,颗粒物(PM10),76,102,87,44,40,142,4,127,56,100,53,10,10,1.0,0.9
2023-10-13T00:00:00,1618A,118.3429,35.0532,临沂市,沂河小区,颗粒物(PM10),52,53,70,31,35,133,99,121,94,30,36,9,7,0.3,0.5
2023-10-13T00:00:00,1619A,118.295,35.0583,临沂市,鲁南制药厂,颗粒物(PM10),54,58,60,23,26,142,102,132,108,26,31,11,7,0.4,0.6
2023-10-13T00:00:00,1620A,118.2794,34.9976,临沂市,新光毛纺厂,颗粒物(PM10),60,70,62,37,32,135,58,124,82,57,40,11,9,0.6,0.8
2023-10-13T00:00:00,1621A,118.3956,35.0888,临沂市,河东保险公司,细颗粒物(PM2.5),68,70,78,49,40,123,54,107,70,38,45,4,5,0.6,0.8
2023-10-13T00:00:00,1622A,116.3032,37.4674,德州市,儿童乐园,细颗粒物(PM2.5),128,175,112,97,55,151,53,136,84,56,61,14,16,1.1,0.9
2023-10-13T00:00:00,1624A,116.2991,37.4451,德州市,监理站,细颗粒物(PM2.5),134,179,114,102,56,145,32,125,72,67,58,16,17,1.0,0.8
2023-10-13T00:00:00,1625A,115.9848,36.4372,聊城市,区政府,细颗粒物(PM2.5),169,197,132,128,79,127,21,102,62,78,66,21,12,1.1,0.9
2023-10-13T00:00:00,1628A,118.0062,37.3803,滨州市,市环保局,细颗粒物(PM2.5),100,119,79,75,50,141,34,126,72,65,39,12,16,1.0,1
2023-10-13T00:00:00,1629A,118.0018,37.3617,滨州市,第二水厂,细颗粒物(PM2.5),94,112,89,70,50,158,15,139,60,103,52,10,14,0.9,0.8
2023-10-13T00:00:00,1630A,117.9776,37.393,滨州市,北中新校,细颗粒物(PM2.5),90,106,73,67,41,153,21,138,70,61,39,7,12,1.1,0.9
2023-10-13T00:00:00,1631A,118.0414,36.8103,淄博市,人民公园,细颗粒物(PM2.5),104,156,101,78,46,128,0,111,41,100,67,8,10,1.2,1.1
2023-10-13T00:00:00,1633A,117.8525,36.4847,淄博市,双山,颗粒物(PM10),72,94,69,49,36,137,30,129,70,60,35,5,6,0.8,0.8
2023-10-13T00:00:00,1634A,117.9592,36.6331,淄博市,气象站,颗粒物(PM10),74,97,82,51,40,138,18,117,37,72,56,13,9,1.0,0.7
2023-10-13T00:00:00,1635A,118.3092,36.8194,淄博市,莆田园,细颗粒物(PM2.5),89,124,112,66,52,131,14,106,42,72,59,16,15,2.9,2.4
2023-10-13T00:00:00,1637A,117.558,34.8438,枣庄市,市中区政府,颗粒物(PM10),90,129,95,56,52,135,41,126,66,57,44,9,12,0.6,0.6
2023-10-13T00:00:00,1638A,117.2852,34.7837,枣庄市,薛城环保局,颗粒物(PM10),75,100,87,42,50,144,11,128,29,82,56,8,9,0.8,0.9
2023-10-13T00:00:00,1639A,117.5852,34.7745,枣庄市,峄城区政府,颗粒物(PM10),80,110,92,56,45,137,27,127,65,62,42,9,9,0.7,0.7
2023-10-13T00:00:00,1640A,117.7276,34.5578,枣庄市,台儿庄区环保局,细颗粒物(PM2.5),175,163,89,132,68,132,23,117,61,61,47,9,11,0.9,0.8
2023-10-13T00:00:00,1641A,117.4518,35.0992,枣庄市,山亭区环保局,细颗粒物(PM2.5),68,73,58,49,36,150,56,141,84,32,26,4,8,0.8,0.8
2023-10-13T00:00:00,1642A,121.2514,37.5639,烟台市,开发区,细颗粒物(PM2.5),92,100,70,68,44,182,53,163,100,59,38,6,17,1.3,1.1
2023-10-13T00:00:00,1643A,121.3719,37.5433,烟台市,轴承厂,细颗粒物(PM2.5),69,68,66,50,48,171,84,158,111,29,26,5,7,0.7,0.7
2023-10-13T00:00:00,1644A,121.3181,37.5436,烟台市,西郊化工站,细颗粒物(PM2.5),78,95,71,57,43,175,75,151,106,38,31,5,7,1.2,1.1
2023-10-13T00:00:00,1645A,121.4478,37.4822,烟台市,莱山环保局,细颗粒物(PM2.5),55,56,53,39,33,166,92,153,120,32,27,7,8,0.9,0.9
2023-10-13T00:00:00,1646A,121.2611,37.4967,烟台市,福山环保局,细颗粒物(PM2.5),77,95,80,56,39,161,8,138,57,67,49,7,8,0.9,0.8
2023-10-13T00:00:00,1650A,119.1437,36.7023,潍坊市,环保局,颗粒物(PM10),80,110,81,55,44,138,12,117,75,94,56,11,8,0.8,0.8
2023-10-13T00:00:00,1653A,116.6251,35.4302,济宁市,火炬城,细颗粒物(PM2.5),58,64,82,41,51,130,45,116,84,35,41,10,14,0.6,0.7
2023-10-13T00:00:00,1655A,116.5491,35.4042,济宁市,电化厂,颗粒物(PM10),68,86,110,44,58,144,74,121,83,35,41,17,10,0.8,0.8
2023-10-13T00:00:00,1656A,117.1437,36.1937,泰安市,监测站,细颗粒物(PM2.5),95,114,81,71,49,141,28,128,82,59,31,9,14,1.0,1
2023-10-13T00:00:00,1657A,117.0885,36.2017,泰安市,人口学校,细颗粒物(PM2.5),77,90,69,56,43,139,66,133,94,33,26,7,9,0.9,0.9
2023-10-13T00:00:00,1658A,117.1089,36.1758,泰安市,电力学校,颗粒物(PM10),97,144,92,62,48,140,6,129,70,88,36,9,12,1.3,1.2
2023-10-13T00:00:00,1659A,119.471,35.4209,日照市,监测站,,46,46,41,29,22,122,4,110,26,80,59,8,8,1.0,0.8
2023-10-13T00:00:00,1660A,119.523,35.4216,日照市,市政府广场,,48,48,34,28,18,136,36,127,77,57,40,4,4,0.6,0.5
2023-10-13T00:00:00,1661A,119.5587,35.4044,日照市,港务局,颗粒物(PM10),75,100,37,29,21,138,20,132,88,78,43,7,7,0.9,0.7
2023-10-13T00:00:00,1662A,122.1214,37.4236,威海市,华夏技校,,31,22,25,12,16,121,97,116,100,10,17,3,3,0.4,0.5
2023-10-13T00:00:00,1663A,122.0508,37.5236,威海市,山大分校,,30,29,37,20,21,145,96,136,106,17,16,5,5,0.4,0.5
2023-10-13T00:00:00,1664A,122.1067,37.5072,威海市,市监测站,,32,27,35,22,19,134,76,124,91,22,20,7,7,0.6,0.7
2023-10-13T00:00:00,1666A,118.6614,37.4309,东营市,市环保局,细颗粒物(PM2.5),67,75,53,48,34,181,95,166,133,23,26,13,13,0.5,0.5
2023-10-13T00:00:00,1669A,113.5824,24.7733,韶关市,市八中,,28,28,29,19,20,111,72,98,62,7,7,11,12,0.5,0.5
2023-10-13T00:00:00,1671A,113.5917,24.7972,韶关市,园林处,,29,26,28,20,22,105,64,94,60,3,3,10,11,0.5,0.5
2023-10-13T00:00:00,1672A,113.6735,24.7791,韶关市,韶关学院,,36,25,29,25,23,105,54,98,57,13,9,21,12,0.7,0.7
2023-10-13T00:00:00,1673A,113.5971,24.6863,韶关市,曲江监测站,,32,32,30,22,24,112,67,102,62,8,8,8,11,0.5,0.5
2023-10-13T00:00:00,1674A,116.6794,23.3667,汕头市,金平子站,,40,40,32,21,18,146,93,138,124,15,15,7,6,0.8,0.7
2023-10-13T00:00:00,1675A,116.7244,23.3633,汕头市,龙湖子站,,33,28,30,20,17,144,104,138,126,12,14,7,7,0.7,0.6
2023-10-13T00:00:00,1676A,116.7258,23.2775,汕头市,濠江子站,,35,30,26,24,14,146,111,137,124,13,9,9,8,0.6,0.6
2023-10-13T00:00:00,1677A,116.7519,23.4714,汕头市,澄海子站,,43,43,38,23,17,142,87,137,121,14,16,10,10,0.6,0.5
2023-10-13T00:00:00,1678A,116.6092,23.2539,汕头市,潮阳子站,,35,35,31,15,13,145,100,139,127,10,9,8,8,0.8,0.8
2023-10-13T00:00:00,1680A,110.3539,21.2706,湛江市,湛江影剧院,,32,30,27,22,17,125,84,118,112,23,12,7,12,0.8,0.7
2023-10-13T00:00:00,1681A,110.3928,21.2228,湛江市,市环境监测站,,43,29,24,30,18,130,107,120,118,17,10,7,10,0.6,0.5
2023-10-13T00:00:00,1682A,110.4019,21.1997,湛江市,环保局宿舍,,38,32,24,24,19,132,121,124,124,15,11,5,7,0.8,0.7
2023-10-13T00:00:00,1683A,110.4111,21.2028,湛江市,霞山游泳场,,35,32,25,20,15,136,109,127,126,22,10,6,8,0.7,0.7
2023-10-13T00:00:00,1684A,110.3316,21.2679,湛江市,麻章区环保局,细颗粒物(PM2.5),60,48,29,43,18,124,75,116,107,30,16,5,10,0.7,0.7
2023-10-13T00:00:00,1685A,110.4558,21.2567,湛江市,坡头区环保局,,35,28,23,23,20,138,112,125,124,10,10,6,7,0.6,0.7
2023-10-13T00:00:00,1686A,111.0286,21.4688,茂名市,电白南海,,45,44,36,31,21,145,110,134,129,15,12,7,8,1.0,0.9
2023-10-13T00:00:00,1687A,110.9294,21.6533,茂名市,茂石化七小,,41,41,30,24,17,121,88,108,108,13,11,12,8,0.7,0.8
2023-10-13T00:00:00,1688A,110.9107,21.6687,茂名市,健康路,,34,34,24,12,12,125,89,111,110,14,14,14,16,0.7,0.7
2023-10-13T00:00:00,1689A,110.8592,21.6828,茂名市,高岭,,48,48,35,29,26,109,73,98,91,27,19,10,14,0.6,0.6
2023-10-13T00:00:00,1690A,116.1231,24.3284,梅州市,梅江月梅,,32,16,20,22,12,57,25,48,27,22,21,4,5,0.6,0.7
2023-10-13T00:00:00,1691A,116.0797,24.2719,梅州市,梅县新城,,28,17,18,19,13,57,37,48,36,12,14,7,7,0.7,0.7
2023-10-13T00:00:00,1692A,116.1248,24.2654,梅州市,环境监控中心,,37,37,27,22,13,57,2,43,17,31,23,7,8,0.8,0.8
2023-10-13T00:00:00,1693A,115.3653,22.775,汕尾市,市环保局,,23,23,22,13,12,117,49,77,60,6,8,9,9,0.6,0.6
2023-10-13T00:00:00,1694A,115.3706,22.7898,汕尾市,市政府,,18,18,22,8,12,73,48,66,46,7,8,6,6,0.6,0.7
2023-10-13T00:00:00,1695A,115.3622,22.7925,汕尾市,新城中学,,22,15,21,15,12,64,42,55,39,6,7,8,8,0.6,0.7
2023-10-13T00:00:00,1696A,114.6778,23.7569,河源市,源西,,26,25,23,18,16,73,65,64,49,8,15,5,5,0.7,0.7
2023-10-13T00:00:00,1697A,114.6944,23.7586,河源市,东埔,,30,26,27,21,18,71,63,62,52,7,11,5,5,0.6,0.7
2023-10-13T00:00:00,1698A,114.6892,23.7233,河源市,老城,,30,23,25,21,19,73,63,63,54,6,8,5,5,0.6,0.7
2023-10-13T00:00:00,1699A,111.9797,21.8593,阳江市,鸳鸯湖,细颗粒物(PM2.5),60,47,41,43,26,152,116,138,128,14,14,14,12,0.8,0.8
2023-10-13T00:00:00,1701A,111.9491,21.8658,阳江市,马南垌,,48,48,36,30,26,138,114,129,125,21,17,11,8,0.6,0.6
2023-10-13T00:00:00,1702A,113.0426,23.691,清远市,环保大楼,,38,27,26,26,22,116,65,92,74,6,5,11,10,0.8,0.8
2023-10-13T00:00:00,1703A,113.0208,23.7106,清远市,凤城街办,,30,30,28,21,21,117,67,95,74,9,9,9,8,0.7,0.7
2023-10-13T00:00:00,1705A,116.6367,23.6719,潮州市,西园路,,26,26,21,16,11,77,36,69,38,9,10,4,3,0.4,0.5
2023-10-13T00:00:00,1706A,116.6447,23.6706,潮州市,档案局,,20,20,20,12,7,117,36,89,48,9,9,6,7,0.7,0.7
2023-10-13T00:00:00,1708A,116.3701,23.5345,揭阳市,新兴,,36,36,37,23,21,85,26,76,26,20,19,8,8,0.8,0.8
2023-10-13T00:00:00,1709A,116.3264,23.5443,揭阳市,西马,,27,27,35,13,18,75,32,62,34,14,16,7,7,0.7,0.7
2023-10-13T00:00:00,1710A,116.3611,23.5626,揭阳市,东兴,,,,52,19,18,80,25,60,26,22,25,4,5,0.9,0.9
2023-10-13T00:00:00,1711A,116.4151,23.5294,揭阳市,渔湖,颗粒物(PM10),51,52,31,12,13,109,13,81,44,34,17,6,10,0.9,0.7
2023-10-13T00:00:00,1712A,112.0392,22.9169,云浮市,新市府,,,28,25,19,15,97,,82,46,15,11,7,8,1.0,0.9
2023-10-13T00:00:00,1714A,112.0539,22.9539,云浮市,牧羊,,27,27,26,17,13,105,35,88,44,22,20,7,6,0.8,0.7
2023-10-13T00:00:00,1715A,102.575,24.3711,玉溪市,东风水库,,19,19,25,12,12,60,16,56,44,16,12,5,5,0.7,0.8
2023-10-13T00:00:00,1718A,115.4208,35.2464,菏泽市,气象局,细颗粒物(PM2.5),147,179,144,112,82,150,60,127,93,65,62,9,13,0.7,0.8
2023-10-13T00:00:00,1719A,115.4747,35.2375,菏泽市,市政协,细颗粒物(PM2.5),134,161,130,102,81,149,63,130,98,46,53,7,16,0.6,0.7
2023-10-13T00:00:00,1721A,113.3819,40.1097,大同市,果树场,,,,,,,,,,,,,,,,
2023-10-13T00:00:00,1723A,113.2994,40.0758,大同市,云冈宾馆,,48,48,48,25,26,87,18,66,37,58,39,9,10,1.0,1
2023-10-13T00:00:00,1724A,113.3444,40.0917,大同市,大同大学,颗粒物(PM10),54,58,40,35,26,86,5,68,38,66,35,9,11,1.2,1.1
2023-10-13T00:00:00,1725A,113.2661,40.1269,大同市,安家小村,颗粒物(PM10),62,73,43,37,23,105,39,79,56,39,30,21,15,1.8,0.7
2023-10-13T00:00:00,1726A,113.2711,40.0844,大同市,教育学院,颗粒物(PM10),54,57,46,28,26,94,21,68,40,61,42,10,10,1.4,0.9
2023-10-13T00:00:00,1727A,113.1147,36.1547,长治市,清华站,细颗粒物(PM2.5),100,117,90,75,61,151,55,128,98,28,37,8,11,0.8,0.8
2023-10-13T00:00:00,1728A,113.1031,36.1989,长治市,监测站,细颗粒物(PM2.5),100,88,76,75,63,152,68,129,100,31,39,9,11,1.1,1
2023-10-13T00:00:00,1730A,113.0886,36.2125,长治市,审计局,细颗粒物(PM2.5),110,89,74,83,65,148,71,124,102,26,32,11,12,1.0,0.8
2023-10-13T00:00:00,1731A,113.0844,36.1856,长治市,长治八中,细颗粒物(PM2.5),89,116,95,66,49,151,74,122,101,35,39,14,14,1.0,0.8
2023-10-13T00:00:00,1733A,111.5531,36.0783,临汾市,临钢医院,细颗粒物(PM2.5),80,108,97,59,50,156,4,130,81,73,47,8,11,1.1,0.7
2023-10-13T00:00:00,1734A,111.5028,36.0714,临汾市,技工学校,"颗粒物(PM10),细颗粒物(PM2.5)",95,140,99,71,56,164,5,141,81,94,53,10,14,1.0,0.9
2023-10-13T00:00:00,1736A,111.5018,36.0855,临汾市,市委,细颗粒物(PM2.5),95,137,104,71,54,159,6,136,78,94,51,10,16,0.9,0.7
2023-10-13T00:00:00,1738A,113.5758,37.8572,阳泉市,市中心,细颗粒物(PM2.5),100,134,113,75,65,128,2,92,54,76,60,11,17,1.3,1.2
2023-10-13T00:00:00,1739A,113.4894,37.8731,阳泉市,赛鱼,细颗粒物(PM2.5),88,117,112,65,66,125,3,101,38,65,60,9,14,1.1,1.1
2023-10-13T00:00:00,1740A,113.5819,37.8486,阳泉市,南庄,细颗粒物(PM2.5),125,190,144,95,62,127,42,93,57,46,50,13,18,1.4,1.2
2023-10-13T00:00:00,1742A,113.5614,37.8703,阳泉市,平坦,细颗粒物(PM2.5),103,145,126,77,77,130,2,90,56,77,63,10,16,1.4,1.2
2023-10-13T00:00:00,1743A,113.5158,37.8392,阳泉市,大阳泉,细颗粒物(PM2.5),123,155,101,93,67,130,101,104,89,29,41,18,15,1.5,1.1
2023-10-13T00:00:00,1744A,118.9233,42.2816,赤峰市,松山一中,细颗粒物(PM2.5),77,76,60,56,38,122,30,94,51,59,50,11,12,1.0,0.9
2023-10-13T00:00:00,1745A,118.9576,42.2728,赤峰市,哈达街,细颗粒物(PM2.5),78,77,58,57,34,117,75,98,66,32,43,16,16,0.7,0.8
2023-10-13T00:00:00,1746A,118.8788,42.2554,赤峰市,天义路,细颗粒物(PM2.5),63,60,57,45,37,135,75,117,57,24,41,13,15,0.7,0.7
2023-10-13T00:00:00,1748A,123.044,41.1196,鞍山市,深沟寺,细颗粒物(PM2.5),97,87,61,72,46,123,88,110,94,18,22,6,7,1.4,1.3
2023-10-13T00:00:00,1749A,123.011,41.0931,鞍山市,太阳城,细颗粒物(PM2.5),105,120,73,79,47,131,106,125,96,16,22,12,12,1.5,1.3
2023-10-13T00:00:00,1750A,123.0485,41.1442,鞍山市,太平,细颗粒物(PM2.5),102,132,87,76,49,119,100,101,79,24,41,15,14,1.4,1.3
2023-10-13T00:00:00,1751A,122.9642,41.0971,鞍山市,铁西三道街,细颗粒物(PM2.5),213,269,122,163,65,122,93,111,66,31,51,14,11,1.9,1.5
2023-10-13T00:00:00,1752A,122.9341,41.0833,鞍山市,铁西工业园区,细颗粒物(PM2.5),137,162,119,104,67,126,76,111,69,38,49,18,13,2.1,1.5
2023-10-13T00:00:00,1753A,123.022,41.0821,鞍山市,明达新区,细颗粒物(PM2.5),99,99,71,74,48,131,131,116,101,14,28,11,7,1.5,1.8
2023-10-13T00:00:00,1754A,123.1289,41.0228,鞍山市,千山,,,,,,,,,,,,,,,,
2023-10-13T00:00:00,1755A,123.7977,41.8491,抚顺市,望花区,细颗粒物(PM2.5),105,140,94,79,50,134,5,97,23,65,49,11,11,0.9,0.8
2023-10-13T00:00:00,1756A,123.9161,41.8822,抚顺市,顺城区,细颗粒物(PM2.5),87,73,69,64,53,137,8,108,22,56,43,6,8,0.7,0.7
2023-10-13T00:00:00,1757A,124.0436,41.8611,抚顺市,东洲区,细颗粒物(PM2.5),55,58,59,39,39,136,15,117,59,33,19,6,8,0.7,0.7
2023-10-13T00:00:00,1758A,123.9247,41.8642,抚顺市,新抚区,细颗粒物(PM2.5),92,79,64,68,50,131,4,103,20,44,35,8,9,0.7,0.7
2023-10-13T00:00:00,1759A,124.0972,41.8961,抚顺市,大伙房水库,细颗粒物(PM2.5),70,65,40,51,29,136,28,113,62,33,17,7,8,0.7,0.6
2023-10-13T00:00:00,1760A,123.7086,41.8391,抚顺市,沈抚新城,细颗粒物(PM2.5),134,122,92,102,66,125,13,91,22,56,54,12,20,1.2,1.3
2023-10-13T00:00:00,1761A,123.8275,41.3064,本溪市,大峪,颗粒物(PM10),51,51,50,20,24,118,35,103,63,45,36,7,8,0.8,1
2023-10-13T00:00:00,1762A,123.7567,41.3325,本溪市,溪湖,颗粒物(PM10),70,89,82,38,39,124,13,103,39,52,38,10,12,0.6,0.9
2023-10-13T00:00:00,1763A,123.7169,41.3094,本溪市,彩屯,颗粒物(PM10),67,83,90,40,49,114,26,87,38,40,45,9,14,0.7,1.5
2023-10-13T00:00:00,1764A,123.7669,41.2864,本溪市,东明,颗粒物(PM10),70,89,70,35,34,120,7,95,33,76,51,8,10,0.8,0.9
2023-10-13T00:00:00,1765A,123.7992,41.2664,本溪市,新立屯,,36,36,49,21,27,112,46,78,29,39,48,10,11,1.0,1.1
2023-10-13T00:00:00,1766A,123.8142,41.3472,本溪市,威宁,颗粒物(PM10),69,87,93,43,34,109,12,86,31,47,35,6,6,0.7,0.8
2023-10-13T00:00:00,1767A,121.1115,41.0879,锦州市,南山,细颗粒物(PM2.5),142,90,79,108,82,127,28,107,83,81,43,16,15,1.7,1.3
2023-10-13T00:00:00,1768A,121.0533,40.8434,锦州市,开发区,细颗粒物(PM2.5),104,97,104,78,87,157,30,113,96,79,55,19,35,1.3,1.5
2023-10-13T00:00:00,1769A,121.1836,41.1119,锦州市,百股街道,细颗粒物(PM2.5),100,110,67,75,55,140,5,120,73,87,41,9,19,1.7,1.1
2023-10-13T00:00:00,1770A,121.1178,41.1222,锦州市,天安街道,细颗粒物(PM2.5),180,151,95,136,81,114,12,103,68,81,52,14,18,2.3,1.4
2023-10-13T00:00:00,1771A,121.1303,41.1386,锦州市,北湖公园,细颗粒物(PM2.5),178,125,86,134,83,121,43,107,82,53,35,18,19,2.2,1.2
2023-10-13T00:00:00,1772A,126.54,43.8622,吉林市,哈达湾,细颗粒物(PM2.5),60,67,48,43,27,119,24,109,60,57,32,6,7,0.9,0.7
2023-10-13T00:00:00,1773A,126.5844,43.8358,吉林市,东局子,,36,36,51,20,26,115,53,97,38,28,44,5,6,0.6,0.7
2023-10-13T00:00:00,1774A,126.5052,43.8245,吉林市,电力学院,颗粒物(PM10),59,67,70,41,40,116,5,98,17,54,41,8,9,0.9,0.9
2023-10-13T00:00:00,1775A,126.6133,43.8972,吉林市,江北,,40,40,60,19,28,122,40,97,40,23,33,7,9,0.8,0.9
2023-10-13T00:00:00,1776A,126.555,43.8306,吉林市,江南公园,颗粒物(PM10),51,52,59,25,32,110,32,95,37,42,46,8,8,0.7,0.8
2023-10-13T00:00:00,1778A,126.7061,43.7133,吉林市,丰满,,,,,,,,,,,,,,,,
2023-10-13T00:00:00,1779A,123.9305,47.3636,齐齐哈尔市,安居小区,,42,42,41,12,19,90,58,76,57,16,22,5,5,0.4,0.4
2023-10-13T00:00:00,1780A,123.9488,47.3386,齐齐哈尔市,中心广场,,31,31,31,14,23,86,44,70,61,30,23,3,3,0.5,0.5
2023-10-13T00:00:00,1781A,123.9483,47.3227,齐齐哈尔市,农牧车辆厂,颗粒物(PM10),56,61,53,7,18,86,39,72,60,25,23,7,7,0.6,0.5
2023-10-13T00:00:00,1783A,123.945,47.2988,齐齐哈尔市,市环境监测站,,39,39,43,19,20,92,54,75,63,17,21,5,5,0.4,0.3
2023-10-13T00:00:00,1784A,129.61,44.561,牡丹江市,环保大楼,,50,50,34,19,15,100,21,83,35,37,28,5,6,0.5,0.5
2023-10-13T00:00:00,1785A,129.6115,44.5782,牡丹江市,文化广场,颗粒物(PM10),56,62,42,31,26,98,23,81,35,38,31,5,5,0.5,0.4
2023-10-13T00:00:00,1786A,129.5904,44.5963,牡丹江市,第一医院,,48,48,51,31,25,96,12,76,17,40,34,7,7,0.6,0.6
2023-10-13T00:00:00,1787A,129.6364,44.6075,牡丹江市,机车工厂,颗粒物(PM10),53,56,67,30,20,96,11,81,36,39,25,8,7,0.8,0.6
2023-10-13T00:00:00,1788A,129.6386,44.5462,牡丹江市,第一中学,,35,35,38,22,19,100,11,87,45,45,20,6,6,0.4,0.3
2023-10-13T00:00:00,1789A,124.81117,46.03138,大庆市,大同区,,42,42,45,16,21,112,69,101,75,16,21,8,7,0.5,0.5
2023-10-13T00:00:00,1790A,125.129,46.533,大庆市,龙凤区,颗粒物(PM10),51,52,50,28,20,103,56,86,48,25,35,6,7,0.6,0.6
2023-10-13T00:00:00,1791A,124.902,46.408,大庆市,红岗区,,29,29,32,13,16,106,76,92,78,14,22,5,5,0.3,0.3
2023-10-13T00:00:00,1792A,125.153,46.586,大庆市,萨尔图区,,37,37,58,16,24,97,78,77,52,18,41,4,4,0.3,0.5
2023-10-13T00:00:00,1793A,124.9042,46.6215,大庆市,让胡路区,,39,39,43,19,19,96,57,80,42,25,35,5,5,0.4,0.5
2023-10-13T00:00:00,1794A,118.3606,31.3519,芜湖市,监测站,颗粒物(PM10),63,75,42,31,26,133,38,126,80,72,31,9,8,0.7,0.7
2023-10-13T00:00:00,1795A,118.3714,31.4134,芜湖市,科创中心,颗粒物(PM10),60,70,48,36,29,136,44,130,72,73,45,9,8,0.7,0.7
2023-10-13T00:00:00,1796A,118.3673,31.3131,芜湖市,四水厂,颗粒物(PM10),61,71,42,33,26,140,48,131,88,73,35,8,7,0.8,0.6
2023-10-13T00:00:00,1798A,118.5092,31.6837,马鞍山市,湖东路四小,,34,34,32,20,22,140,57,132,98,36,23,9,8,0.5,0.5
2023-10-13T00:00:00,1799A,118.5024,31.6449,马鞍山市,开发区,,37,37,39,20,25,141,67,135,100,26,21,9,9,0.8,0.8
2023-10-13T00:00:00,1800A,118.5228,31.7231,马鞍山市,慈湖,颗粒物(PM10),61,71,38,25,26,142,25,135,94,72,30,9,7,0.6,0.7
2023-10-13T00:00:00,1802A,118.6245,31.7241,马鞍山市,濮塘,,33,28,30,23,21,139,45,123,82,24,12,5,5,0.7,0.7
2023-10-13T00:00:00,1803A,115.9872,29.6815,九江市,十里,细颗粒物(PM2.5),55,44,57,39,39,158,102,150,126,21,20,6,9,0.7,0.9
2023-10-13T00:00:00,1804A,115.9584,29.7046,九江市,茅山头,细颗粒物(PM2.5),65,50,56,47,40,156,89,145,117,21,20,10,10,0.8,0.9
2023-10-13T00:00:00,1805A,115.9877,29.7295,九江市,西园,颗粒物(PM10),53,55,60,34,38,153,78,136,95,38,29,8,9,0.7,0.9
2023-10-13T00:00:00,1806A,116.0172,29.6547,九江市,五七二七厂,,46,45,55,32,46,148,78,129,100,15,14,10,12,0.6,0.8
2023-10-13T00:00:00,1808A,115.9114,29.6038,九江市,综合工业园,细颗粒物(PM2.5),52,50,66,36,50,151,58,142,119,59,32,13,15,0.8,1
2023-10-13T00:00:00,1809A,116.0721,29.7535,九江市,石化总厂,"颗粒物(PM10),细颗粒物(PM2.5)",55,59,56,39,36,146,87,139,98,22,28,8,14,0.6,0.8
2023-10-13T00:00:00,1810A,115.9773,29.5698,九江市,庐山气象台,,49,35,45,34,40,151,121,142,138,7,9,6,8,0.7,0.8
2023-10-13T00:00:00,1812A,112.3931,34.6516,洛阳市,市委党校,细颗粒物(PM2.5),130,130,112,99,83,130,4,108,71,70,43,5,7,0.8,0.7
2023-10-13T00:00:00,1814A,112.4657,34.6871,洛阳市,豫西宾馆,细颗粒物(PM2.5),104,139,121,78,71,131,0,99,63,67,46,2,5,0.8,0.8
2023-10-13T00:00:00,1815A,112.494,34.6886,洛阳市,河南林校,细颗粒物(PM2.5),94,99,98,70,68,124,27,92,60,42,42,4,4,0.7,0.7
2023-10-13T00:00:00,1816A,112.3844,34.623,洛阳市,开发区管委会,细颗粒物(PM2.5),115,112,102,87,69,131,16,96,62,37,38,3,3,0.7,0.7
2023-10-13T00:00:00,1817A,112.4267,34.6258,洛阳市,市委新办公区,细颗粒物(PM2.5),105,108,111,79,79,128,36,97,70,36,38,4,5,0.5,0.5
2023-10-13T00:00:00,1818A,114.4839,36.0621,安阳市,棉研所,,,,,,,,,,,,,,,,
2023-10-13T00:00:00,1819A,114.3551,36.1017,安阳市,红庙街,细颗粒物(PM2.5),142,167,135,108,78,158,30,127,78,76,59,25,17,0.9,1.7
2023-10-13T00:00:00,1820A,114.361,36.0681,安阳市,银杏小区,颗粒物(PM10),102,154,111,67,59,140,11,118,67,77,44,21,12,0.9,1.1
2023-10-13T00:00:00,1824A,114.3389,34.7781,开封市,肿瘤医院,,,,161,,99,80,,58,37,77,73,11,16,0.9,0.9
2023-10-13T00:00:00,1826A,114.2885,34.7965,开封市,世纪星幼儿园,颗粒物(PM10),138,225,134,87,73,86,0,60,36,100,74,8,11,1.1,1
2023-10-13T00:00:00,1828A,113.227,35.2125,焦作市,市环保局,细颗粒物(PM2.5),117,137,106,88,61,152,37,115,62,50,43,8,12,0.9,0.7
2023-10-13T00:00:00,1830A,113.1992,35.2590,焦作市,影视城,,,,,,,,,,,,,,,,
2023-10-13T00:00:00,1832A,113.3257,33.742,平顶山市,新华旅馆,细颗粒物(PM2.5),105,133,144,79,75,76,45,58,30,41,57,12,12,0.7,0.8
2023-10-13T00:00:00,1833A,113.2919,33.737,平顶山市,规划设计院,细颗粒物(PM2.5),117,132,128,88,84,77,28,54,24,53,57,9,12,0.8,0.8
2023-10-13T00:00:00,1834A,113.182,33.774,平顶山市,平顶山工学院,细颗粒物(PM2.5),107,126,137,80,80,82,15,65,50,57,44,6,17,0.8,0.8
2023-10-13T00:00:00,1835A,111.1922,34.7752,三门峡市,市政府,,50,50,59,20,29,154,2,137,62,81,36,6,9,0.5,0.6
2023-10-13T00:00:00,1836A,111.1587,34.7942,三门峡市,开发区,颗粒物(PM10),76,102,84,40,40,150,3,128,64,74,37,8,9,0.7,0.6
2023-10-13T00:00:00,1838A,111.143,34.7955,三门峡市,风景区,,,,,,,,,,,,,,,,
2023-10-13T00:00:00,1840A,111.2992,30.6981,宜昌市,白龙岗,,49,39,40,34,30,101,30,77,44,23,26,6,6,0.6,0.6
2023-10-13T00:00:00,1841A,111.3549,30.6465,宜昌市,伍家岗,,42,40,35,29,29,103,20,73,40,32,27,4,4,0.7,0.6
2023-10-13T00:00:00,1842A,111.2628,30.6961,宜昌市,点军区,颗粒物(PM10),52,54,45,27,27,109,16,77,36,18,17,2,2,0.5,0.5
2023-10-13T00:00:00,1843A,111.3275,30.7819,宜昌市,夷陵区,,49,46,43,34,30,97,12,78,36,23,21,6,6,0.5,0.5
2023-10-13T00:00:00,1844A,112.2494,30.3197,荆州市,市图书馆,颗粒物(PM10),52,54,59,34,37,123,76,109,86,19,21,6,8,0.7,0.7
2023-10-13T00:00:00,1845A,112.2008,30.3544,荆州市,市委党校,颗粒物(PM10),55,59,62,31,37,132,69,114,87,19,20,8,9,0.7,0.7
2023-10-13T00:00:00,1847A,113.1094,29.3578,岳阳市,南湖风景区,细颗粒物(PM2.5),67,63,62,48,46,129,78,116,93,18,25,10,12,0.7,0.8
2023-10-13T00:00:00,1848A,113.1493,29.4251,岳阳市,城陵矶,细颗粒物(PM2.5),72,73,72,52,47,115,59,105,74,21,28,9,12,0.8,0.9
2023-10-13T00:00:00,1849A,113.1497,29.3575,岳阳市,开发区,细颗粒物(PM2.5),92,83,69,68,58,129,64,115,83,25,24,12,13,0.8,0.9
2023-10-13T00:00:00,1850A,113.2621,29.4758,岳阳市,云溪区,细颗粒物(PM2.5),73,69,63,53,44,122,46,109,74,29,24,7,9,0.7,0.7
2023-10-13T00:00:00,1851A,112.9943,29.4402,岳阳市,君山区,细颗粒物(PM2.5),74,74,68,54,54,128,58,111,79,22,24,6,7,0.6,0.7
2023-10-13T00:00:00,1852A,113.2117,29.355,岳阳市,金凤水库,细颗粒物(PM2.5),74,80,59,54,41,145,53,131,90,22,14,5,6,0.8,0.8
2023-10-13T00:00:00,1854A,111.6975,28.9703,常德市,市二中,细颗粒物(PM2.5),69,54,87,50,50,128,80,122,109,18,18,8,10,0.6,0.6
2023-10-13T00:00:00,1857A,111.7158,29.1456,常德市,白鹤山,,33,33,34,0,4,142,81,123,106,7,8,4,6,0.5,0.5
2023-10-13T00:00:00,1858A,110.5319,29.1217,张家界市,永定新区,细颗粒物(PM2.5),57,47,64,40,49,108,49,84,56,10,22,6,7,0.5,0.6
2023-10-13T00:00:00,1859A,110.4697,29.1242,张家界市,电业局,细颗粒物(PM2.5),58,48,62,41,45,109,36,78,53,11,20,8,9,0.6,0.6
2023-10-13T00:00:00,1860A,110.5594,29.3547,张家界市,未央路,,45,42,54,31,36,93,20,72,34,7,12,3,3,0.5,0.6
2023-10-13T00:00:00,1861A,110.4417,29.315,张家界市,袁家界,,28,24,35,19,26,113,45,104,52,4,10,8,8,0.6,0.6
2023-10-13T00:00:00,1862A,110.4144,25.3167,桂林市,电子科大尧山校区,颗粒物(PM10),53,56,44,35,29,112,101,106,104,8,8,3,3,0.7,0.7
2023-10-13T00:00:00,1863A,110.2819,25.2697,桂林市,监测站,颗粒物(PM10),52,53,47,32,32,123,102,118,104,11,12,7,7,0.6,0.6
2023-10-13T00:00:00,1864A,110.3089,25.2708,桂林市,龙隐路小学,颗粒物(PM10),51,51,42,32,28,119,102,115,105,7,8,7,7,0.6,0.6
2023-10-13T00:00:00,1865A,110.2869,25.2178,桂林市,八中,颗粒物(PM10),51,52,43,32,29,125,104,119,105,11,15,6,5,0.7,0.8
2023-10-13T00:00:00,1866A,109.2262,21.588,北海市,牛尾岭水库,,,,,,,,,,,,,,,,
2023-10-13T00:00:00,1867A,109.1436,21.4086,北海市,海滩公园,,34,34,24,20,11,142,66,118,96,8,8,6,6,0.9,0.7
2023-10-13T00:00:00,1868A,109.0981,21.4661,北海市,新市环保局,,39,33,22,27,15,148,67,110,96,9,8,7,7,0.8,0.8
2023-10-13T00:00:00,1869A,109.1778,21.5233,北海市,北海工业园,,36,36,27,24,15,106,62,93,81,9,8,9,8,0.7,0.6
2023-10-13T00:00:00,1870A,109.4856,24.3895,柳州市,柳东小学,,43,39,35,30,28,93,70,86,83,8,7,7,7,0.6,0.6
2023-10-13T00:00:00,1871A,109.4157,24.3277,柳州市,环保监测站,细颗粒物(PM2.5),55,52,40,39,32,94,64,88,80,18,13,16,9,0.8,0.8
2023-10-13T00:00:00,1872A,109.389,24.341,柳州市,河西水厂,颗粒物(PM10),61,72,45,37,28,93,48,86,72,21,15,18,11,1.0,1.1
2023-10-13T00:00:00,1873A,109.4311,24.2921,柳州市,市四中,,50,50,40,35,26,99,74,92,85,19,15,6,6,0.9,0.8
2023-10-13T00:00:00,1874A,109.4006,24.3631,柳州市,市九中,颗粒物(PM10),55,60,49,37,28,96,40,88,64,26,17,14,11,0.8,0.9
2023-10-13T00:00:00,1875A,109.4958,24.3134,柳州市,古亭山,,48,39,40,33,28,106,82,100,85,14,12,7,7,0.8,0.7
2023-10-13T00:00:00,1876A,109.5078,18.2489,三亚市,河东子站,,26,24,19,11,8,85,82,80,78,5,5,4,4,0.5,0.5
2023-10-13T00:00:00,1877A,109.4964,18.2681,三亚市,河西子站,,23,23,17,11,8,81,70,71,67,5,6,3,3,0.4,0.4
2023-10-13T00:00:00,1878A,104.7778,31.4741,绵阳市,富乐山,,18,18,12,12,9,74,13,69,43,21,9,4,4,0.6,0.5
2023-10-13T00:00:00,1879A,104.7563,31.4535,绵阳市,市人大,,26,26,15,9,10,68,6,61,35,45,19,7,5,0.6,0.6
2023-10-13T00:00:00,1880A,104.6697,31.4668,绵阳市,高新区自来水公司,,23,18,14,13,8,73,3,67,38,45,21,6,6,0.6,0.6
2023-10-13T00:00:00,1881A,104.7287,31.5075,绵阳市,三水厂,,33,33,18,21,14,75,0,69,34,39,21,8,7,0.8,0.6
2023-10-13T00:00:00,1882A,104.563,28.793,宜宾市,石马中学,,,,,,,,,,,,,,,,
2023-10-13T00:00:00,1883A,104.6201,28.7728,宜宾市,市委,,32,31,29,22,22,72,46,62,34,16,21,6,6,0.5,0.5
2023-10-13T00:00:00,1884A,104.6055,28.793,宜宾市,宜宾四中,,35,34,33,24,23,68,42,58,35,17,22,4,3,0.5,0.5
2023-10-13T00:00:00,1885A,104.639,28.7562,宜宾市,市政府,,36,31,29,25,24,73,52,64,40,17,20,6,6,0.5,0.6
2023-10-13T00:00:00,1886A,104.5742,28.7199,宜宾市,黄金嘴,,29,27,23,20,17,72,48,64,47,16,13,8,8,0.5,0.4
2023-10-13T00:00:00,1888A,101.6891,26.571,攀枝花市,弄弄坪,颗粒物(PM10),51,51,65,31,46,77,6,45,9,32,27,13,13,1.3,1.6
2023-10-13T00:00:00,1889A,101.5769,26.5928,攀枝花市,河门口,,38,38,47,26,36,81,1,46,10,40,28,15,18,1.8,1.9
2023-10-13T00:00:00,1890A,101.7169,26.585,攀枝花市,炳草岗,,34,34,50,22,39,90,7,47,11,33,27,19,20,1.2,1.3
2023-10-13T00:00:00,1891A,101.7369,26.5008,攀枝花市,仁和,,32,31,43,22,31,67,2,49,11,28,24,5,8,0.9,1.1
2023-10-13T00:00:00,1893A,105.4324,28.9634,泸州市,九狮山,,31,31,20,11,12,36,24,32,24,16,15,5,5,0.4,0.4
2023-10-13T00:00:00,1894A,105.4427,28.9063,泸州市,小市上码头,,43,39,25,15,12,136,136,47,47,15,15,5,4,0.6,0.6
2023-10-13T00:00:00,1895A,105.4241,28.8573,泸州市,兰田宪桥,,38,38,29,17,15,52,31,45,34,10,9,4,6,0.6,0.5
2023-10-13T00:00:00,1896A,105.4379,28.8833,泸州市,市环监站,,32,32,20,14,7,45,32,42,30,13,14,2,2,0.5,0.4
2023-10-13T00:00:00,1901A,104.4239,31.1208,德阳市,东山公园,,25,25,22,13,9,70,3,62,42,38,8,1,3,0.5,0.4
2023-10-13T00:00:00,1902A,104.3826,31.1317,德阳市,西小区,,33,33,26,15,9,69,18,61,42,25,11,4,3,0.5,0.5
2023-10-13T00:00:00,1904A,104.3553,31.1091,德阳市,耐火材料厂,,40,40,23,12,9,67,26,61,44,18,10,10,3,0.6,0.5
2023-10-13T00:00:00,1905A,106.056,30.8064,南充市,西山风景区,,23,11,15,16,14,59,39,52,36,6,6,3,2,0.5,0.4
2023-10-13T00:00:00,1906A,106.0789,30.8023,南充市,南充市委,,36,27,24,25,24,61,20,54,31,20,16,2,2,0.4,0.4
2023-10-13T00:00:00,1907A,106.1031,30.8217,南充市,南充炼油厂,颗粒物(PM10),57,64,30,21,12,66,36,59,43,10,10,2,2,0.3,0.3
2023-10-13T00:00:00,1908A,106.1064,30.7856,南充市,高坪区监测站,,34,34,25,21,17,60,39,52,42,14,14,4,3,0.3,0.3
2023-10-13T00:00:00,1909A,106.0642,30.7636,南充市,嘉陵区环保局,,39,28,22,27,18,56,22,48,27,19,19,2,2,0.2,0.2
2023-10-13T00:00:00,1910A,106.1087,30.8388,南充市,市环境监测站,,35,29,23,24,20,65,31,57,39,8,11,4,4,0.3,0.3
2023-10-13T00:00:00,1911A,106.9222,27.6869,遵义市,丁字口,,25,8,21,16,20,78,78,74,64,14,20,4,5,0.5,0.5
2023-10-13T00:00:00,1912A,106.9242,27.7019,遵义市,凤凰山,,28,16,25,19,22,83,70,81,64,7,8,6,7,0.5,0.5
2023-10-13T00:00:00,1913A,106.8906,27.6486,遵义市,忠庄,,33,33,35,23,24,74,61,66,58,8,9,1,1,0.4,0.4
2023-10-13T00:00:00,1914A,106.9231,27.6506,遵义市,舟水桥,,35,13,26,24,20,79,75,73,65,4,7,2,1,0.3,0.3
2023-10-13T00:00:00,1915A,106.9178,27.72,遵义市,干田坝,,26,26,25,12,18,84,61,80,53,15,13,6,5,0.7,0.5
2023-10-13T00:00:00,1916A,103.7897,25.5035,曲靖市,环境监测站,,39,39,38,18,22,61,36,57,49,16,16,4,5,0.6,0.3
2023-10-13T00:00:00,1917A,103.8,25.5364,曲靖市,烟厂办公区,,39,39,35,27,21,61,36,58,51,18,14,12,6,0.7,0.7
2023-10-13T00:00:00,1918A,108.7197,34.3956,咸阳市,气象站,,,,,,,,,,,,,,,,
2023-10-13T00:00:00,1919A,108.673,34.3155,咸阳市,实验中学,颗粒物(PM10),75,100,107,49,54,61,12,52,31,43,35,2,2,1.2,1.2
2023-10-13T00:00:00,1920A,108.7233,34.3617,咸阳市,师范学院,"颗粒物(PM10),细颗粒物(PM2.5)",80,109,93,59,57,61,29,56,39,36,33,5,18,1.0,1.1
2023-10-13T00:00:00,1922A,109.0656,35.0994,铜川市,党校,颗粒物(PM10),76,102,64,42,39,111,3,80,21,40,42,8,8,0.9,0.9
2023-10-13T00:00:00,1923A,109.0697,35.0697,铜川市,王益区政府,"颗粒物(PM10),细颗粒物(PM2.5)",58,65,60,41,38,89,6,75,38,35,36,3,3,0.8,0.8
2023-10-13T00:00:00,1924A,108.9344,34.9058,铜川市,新区管委会,颗粒物(PM10),84,117,82,42,39,100,2,74,32,60,37,5,6,0.9,0.9
2023-10-13T00:00:00,1926A,109.4131,36.6275,延安市,枣园,,22,22,38,8,22,121,21,103,56,36,25,7,7,0.4,0.4
2023-10-13T00:00:00,1927A,109.4761,36.6028,延安市,延大医附院,,31,31,49,10,25,116,4,99,55,54,27,6,6,0.5,0.6
2023-10-13T00:00:00,1929A,109.5056,36.6106,延安市,百米大道,,24,24,51,10,28,114,35,100,68,39,31,2,3,0.4,0.7
2023-10-13T00:00:00,1930A,107.185,34.3063,宝鸡市,庙沟村,,25,22,28,17,21,85,26,73,47,14,10,8,8,0.5,0.7
2023-10-13T00:00:00,1931A,107.0708,34.3017,宝鸡市,竹园沟,,20,18,29,14,21,115,20,86,48,14,16,3,4,0.6,0.8
2023-10-13T00:00:00,1932A,107.1906,34.3672,宝鸡市,三陆医院,,36,36,50,18,31,96,8,68,29,38,36,11,8,0.8,1
2023-10-13T00:00:00,1933A,107.1431,34.3547,宝鸡市,监测站,,24,24,46,13,29,105,21,78,40,21,24,6,6,0.6,0.9
2023-10-13T00:00:00,1934A,107.1186,34.3739,宝鸡市,技工学校,,32,25,43,22,38,97,22,77,44,22,28,7,7,0.6,0.8
2023-10-13T00:00:00,1935A,107.3906,34.3528,宝鸡市,陈仓区环保局家属楼,细颗粒物(PM2.5),57,49,61,40,97,94,15,79,35,45,39,8,8,0.9,1
2023-10-13T00:00:00,1936A,107.2058,34.3497,宝鸡市,文理学院,,20,20,43,14,28,99,20,77,44,26,30,4,6,0.7,0.9
2023-10-13T00:00:00,1937A,107.2386,34.3622,宝鸡市,三迪小学,,23,22,52,16,46,104,19,80,41,26,30,7,6,0.5,0.8
2023-10-13T00:00:00,1938A,109.5293,34.5101,渭南市,农科所,细颗粒物(PM2.5),98,95,103,73,82,125,38,95,58,22,39,5,5,0.9,1.1
2023-10-13T00:00:00,1939A,109.4974,34.4877,渭南市,日报社,细颗粒物(PM2.5),70,70,105,51,85,124,39,86,42,31,47,4,7,0.7,0.9
2023-10-13T00:00:00,1940A,109.4636,34.493,渭南市,体育馆,细颗粒物(PM2.5),85,83,108,63,87,128,31,89,44,36,48,2,5,0.9,1.1
2023-10-13T00:00:00,1941A,109.4259,34.5023,渭南市,高新一小,细颗粒物(PM2.5),134,89,102,102,99,124,19,93,49,48,42,7,8,1.0,1
2023-10-13T00:00:00,1944A,102.1692,38.5167,金昌市,天庆家园,,28,21,18,19,10,109,50,104,89,36,16,6,6,0.7,0.5
2023-10-13T00:00:00,1945A,98.2908,39.7711,嘉峪关市,气象局,,24,24,46,7,18,125,75,110,81,24,23,4,18,0.3,0.3
2023-10-13T00:00:00,1947A,106.3394,38.817,石嘴山市,沙湖旅游区,,47,47,50,30,33,126,52,110,78,20,20,10,19,0.2,0.4
2023-10-13T00:00:00,1948A,106.3668,39.0145,石嘴山市,大武口朝阳西街,颗粒物(PM10),53,55,49,25,24,106,39,96,70,38,28,11,20,0.4,0.6
2023-10-13T00:00:00,1949A,106.7704,39.2282,石嘴山市,惠农南大街,颗粒物(PM10),82,114,83,41,35,91,18,70,45,56,49,14,32,0.7,1.3
2023-10-13T00:00:00,1950A,106.7099,39.1325,石嘴山市,红果子镇惠新街,细颗粒物(PM2.5),79,101,72,58,32,104,35,90,65,33,32,13,26,0.5,0.6
2023-10-13T00:00:00,1951A,84.895,45.6094,克拉玛依市,长征新村,颗粒物(PM10),62,73,43,2,7,108,72,97,69,20,20,10,10,0.2,0.3
2023-10-13T00:00:00,1952A,84.8988,45.5893,克拉玛依市,南林小区,颗粒物(PM10),59,68,48,35,21,115,38,101,54,47,30,5,6,0.6,0.6
2023-10-13T00:00:00,1954A,84.905,44.3396,克拉玛依市,独山子区,颗粒物(PM10),60,70,52,38,21,160,70,128,100,34,32,6,7,0.7,0.6
2023-10-13T00:00:00,1955A,85.6979,46.098,克拉玛依市,乌尔禾区商贸楼,颗粒物(PM10),52,54,39,3,10,117,43,98,64,36,22,7,7,0.5,0.4
2023-10-13T00:00:00,1956A,86.1472,41.7538,巴音郭楞州,孔雀公园,颗粒物(PM10),101,151,126,57,45,94,1,86,48,75,49,2,2,0.8,0.5
2023-10-13T00:00:00,1957A,86.1972,41.7166,巴音郭楞州,棉纺厂,颗粒物(PM10),109,167,160,34,34,94,12,84,46,60,34,1,2,0.2,0.3
2023-10-13T00:00:00,1958A,86.2357,41.7173,巴音郭楞州,经济开发区,颗粒物(PM10),89,127,171,36,30,99,50,92,67,24,25,3,2,0.2,0.3
2023-10-13T00:00:00,1961A,117.532,36.6868,济南市,东山小学,颗粒物(PM10),63,76,68,39,31,138,54,119,52,46,47,5,6,0.8,0.8
2023-10-13T00:00:00,1966A,120.0405,35.8735,青岛市,黄岛区4号,颗粒物(PM10),53,56,50,17,24,158,82,142,79,43,34,6,8,0.6,0.6
2023-10-13T00:00:00,1982A,122.0693,37.2174,威海市,文登开发区,颗粒物(PM10),54,58,52,22,23,122,17,111,47,36,30,7,8,0.8,0.8
2023-10-13T00:00:00,2031A,113.1817,27.9958,株洲市,云田中学,细颗粒物(PM2.5),114,101,71,86,52,118,85,110,96,24,24,9,9,0.9,0.8
2023-10-13T00:00:00,2054A,114.1099,32.1059,信阳市,平桥分局,细颗粒物(PM2.5),73,72,77,53,49,96,20,74,34,27,27,3,4,1.0,0.9
2023-10-13T00:00:00,2064A,113.9956,32.1271,信阳市,南湾水厂,颗粒物(PM10),61,71,77,35,45,99,73,82,79,15,19,4,4,0.8,0.7
2023-10-13T00:00:00,2065A,114.0775,32.1195,信阳市,市酿酒公司,颗粒物(PM10),64,78,71,44,44,88,56,76,60,24,28,4,4,1.1,1.1
2023-10-13T00:00:00,2066A,114.0609,32.1399,信阳市,审计局,颗粒物(PM10),69,87,80,47,48,87,54,77,58,26,32,5,5,0.8,0.8
2023-10-13T00:00:00,2067A,114.6613,33.6128,周口市,市环境监测站,细颗粒物(PM2.5),123,139,105,93,70,134,40,116,75,51,44,21,14,1.0,0.6
2023-10-13T00:00:00,2068A,114.6758,33.6347,周口市,周口师范,细颗粒物(PM2.5),107,127,99,80,66,125,50,113,65,49,52,10,9,0.7,0.7
2023-10-13T00:00:00,2069A,114.6546,33.5979,周口市,市运管处,颗粒物(PM10),106,161,120,74,71,135,44,122,89,45,37,17,14,1.0,0.5
2023-10-13T00:00:00,2070A,114.6369,33.6406,周口市,川汇区环保局,细颗粒物(PM2.5),128,129,105,97,74,133,47,115,58,48,60,15,11,0.7,0.5
2023-10-13T00:00:00,2075A,117.6336,24.4674,漳州市,九湖,,,,,,,,,,,,,,,,
2023-10-13T00:00:00,2160A,112.85,35.5051,晋城市,自来水公司,细颗粒物(PM2.5),98,114,104,73,62,163,30,145,89,47,41,6,8,1.1,1
2023-10-13T00:00:00,2161A,112.8318,35.4936,晋城市,白云商贸,颗粒物(PM10),84,118,119,56,57,162,38,146,89,44,35,4,7,1.0,1.1
2023-10-13T00:00:00,2162A,112.8508,35.4887,晋城市,市环保局,细颗粒物(PM2.5),94,131,117,70,58,159,37,138,87,54,47,7,9,1.1,0.9
2023-10-13T00:00:00,2163A,112.8676,35.4897,晋城市,技术学院,细颗粒物(PM2.5),98,115,109,73,60,159,14,141,84,84,52,6,9,1.0,0.9
2023-10-13T00:00:00,2165A,112.8453,35.546,晋城市,白马寺,,,,,,,,,,,,,,,,
2023-10-13T00:00:00,2166A,112.4397,39.3522,朔州市,平朔,颗粒物(PM10),61,72,70,27,33,124,23,115,80,45,34,6,14,0.7,0.7
2023-10-13T00:00:00,2167A,112.4575,39.3617,朔州市,朔唯,颗粒物(PM10),71,92,88,22,35,118,38,110,76,41,42,10,21,0.6,0.7
2023-10-13T00:00:00,2168A,112.4258,39.3197,朔州市,区政府,颗粒物(PM10),71,92,75,30,37,118,21,107,73,59,38,11,16,0.7,0.7
2023-10-13T00:00:00,2169A,112.4072,39.3278,朔州市,市环保局,颗粒物(PM10),76,102,78,28,33,117,30,105,74,52,37,15,18,0.7,0.7
2023-10-13T00:00:00,2170A,112.4272,39.3681,朔州市,市二中,颗粒物(PM10),75,100,79,32,33,123,19,116,79,47,35,9,14,0.8,0.7
2023-10-13T00:00:00,2171A,112.7532,37.6945,晋中市,锦纶小区,颗粒物(PM10),85,119,126,59,68,168,38,137,71,59,44,9,12,0.7,0.8
2023-10-13T00:00:00,2173A,112.7249,37.7067,晋中市,南都小区,细颗粒物(PM2.5),90,124,137,67,79,165,48,140,80,49,41,10,13,0.8,0.9
2023-10-13T00:00:00,2174A,112.6991,37.6982,晋中市,榆次区政府,颗粒物(PM10),79,107,121,56,74,163,45,137,81,55,44,10,13,0.9,1
2023-10-13T00:00:00,2175A,110.9956,35.0147,运城市,运城中学,,,,95,,56,149,,114,,,12,,11,,0.9
2023-10-13T00:00:00,2178A,110.9686,35.0303,运城市,地区技校,细颗粒物(PM2.5),117,155,113,88,55,149,54,132,88,31,26,5,9,1.0,0.9
2023-10-13T00:00:00,2179A,111.0414,35.1147,运城市,空港新区,细颗粒物(PM2.5),122,153,121,92,68,156,26,135,64,58,40,9,12,0.8,0.9
2023-10-13T00:00:00,2181A,112.7383,38.4519,忻州市,开发区,细颗粒物(PM2.5),73,90,96,53,61,145,45,128,95,50,43,9,19,0.9,1.1
2023-10-13T00:00:00,2182A,112.7003,38.4928,忻州市,会展中心,细颗粒物(PM2.5),64,54,92,46,60,143,67,113,76,29,46,8,18,0.6,1
2023-10-13T00:00:00,2183A,111.1406,37.5211,吕梁市,环保局,颗粒物(PM10),126,201,111,38,43,115,0,92,30,75,56,6,6,0.7,0.7
2023-10-13T00:00:00,2185A,111.1297,37.5136,吕梁市,自来水公司,颗粒物(PM10),90,130,104,36,45,120,6,100,52,61,43,5,6,0.6,0.7
2023-10-13T00:00:00,2187A,106.8174,39.6973,乌海市,市林业局,颗粒物(PM10),51,52,41,19,21,101,20,89,45,53,24,9,10,0.8,0.7
2023-10-13T00:00:00,2188A,106.7907,39.6667,乌海市,中海勃湾学校,,33,30,33,23,17,105,52,94,59,38,25,8,10,0.4,0.4
2023-10-13T00:00:00,2191A,122.2532,43.6801,通辽市,艺术职业学校,颗粒物(PM10),59,68,56,35,29,126,89,119,110,25,37,10,8,0.6,0.4
2023-10-13T00:00:00,2192A,119.7594,49.2261,呼伦贝尔市,区环保局,,40,32,30,28,18,79,28,72,56,39,21,4,4,0.3,0.3
2023-10-13T00:00:00,2195A,107.4212,40.761,巴彦淖尔市,附二中,,48,48,57,27,19,104,65,89,60,27,30,4,7,0.4,0.5
2023-10-13T00:00:00,2196A,107.37,40.7372,巴彦淖尔市,市环保大楼,颗粒物(PM10),67,83,73,31,24,98,38,82,54,42,26,4,4,0.4,0.4
2023-10-13T00:00:00,2197A,113.1306,40.9923,乌兰察布市,集宁新区,,22,15,23,13,17,111,69,106,80,10,15,5,6,0.3,0.4
2023-10-13T00:00:00,2200A,122.0392,46.0656,兴安盟,胜华新制药厂,,46,46,40,24,19,98,14,81,37,43,27,4,3,0.7,0.4
2023-10-13T00:00:00,2201A,121.9504,46.0741,兴安盟,科右前旗环保局,颗粒物(PM10),52,53,55,34,32,103,5,82,15,48,33,4,4,0.9,0.8
2023-10-13T00:00:00,2202A,116.1042,43.9317,锡林郭勒盟,市环保监测站,,26,10,20,7,10,90,83,83,73,2,13,11,11,0.2,0.3
2023-10-13T00:00:00,2203A,116.0781,43.9311,锡林郭勒盟,市政府,,28,15,17,5,10,96,88,90,78,6,19,12,12,0.2,0.2
2023-10-13T00:00:00,2204A,105.6467,38.8363,阿拉善盟,西城区西花园,,32,32,31,17,16,109,86,101,98,16,11,10,9,0.5,0.5
2023-10-13T00:00:00,2205A,105.6985,38.8411,阿拉善盟,蒙二幼,,29,22,28,8,11,105,92,100,98,10,12,9,9,0.4,0.4
2023-10-13T00:00:00,2206A,105.724,38.8516,阿拉善盟,环保局新楼,,29,20,28,8,11,110,92,100,98,8,10,7,7,0.5,0.5
2023-10-13T00:00:00,2207A,121.6094,41.998,阜新市,工业园区,颗粒物(PM10),81,111,86,52,38,146,45,126,86,50,35,21,20,1.1,0.9
2023-10-13T00:00:00,2208A,121.6697,42.0279,阜新市,长青街,细颗粒物(PM2.5),97,117,93,72,50,132,31,118,83,44,35,11,12,1.0,3.7
2023-10-13T00:00:00,2209A,121.6673,42.0705,阜新市,农业园区,细颗粒物(PM2.5),95,115,68,71,46,135,89,123,105,28,24,16,25,1.0,1.3
2023-10-13T00:00:00,2210A,121.6717,42.0224,阜新市,东苑,细颗粒物(PM2.5),104,117,97,78,52,128,17,113,80,70,41,15,24,1.1,3.8
2023-10-13T00:00:00,2211A,121.6506,42.0498,阜新市,玉龙新城,颗粒物(PM10),80,109,83,52,35,143,13,128,68,62,37,8,13,1.0,1.1
2023-10-13T00:00:00,2212A,123.2,41.1953,辽阳市,宏伟区,细颗粒物(PM2.5),74,89,57,54,37,128,100,119,81,28,35,14,12,1.5,1.2
2023-10-13T00:00:00,2213A,123.1683,41.2495,辽阳市,新华园,颗粒物(PM10),82,114,74,49,41,120,17,107,35,61,44,13,12,1.2,1.3
2023-10-13T00:00:00,2214A,123.2354,41.2639,辽阳市,滨河路,细颗粒物(PM2.5),79,93,66,58,50,118,65,105,40,33,39,12,11,1.2,1.1
2023-10-13T00:00:00,2215A,123.149,41.2991,辽阳市,铁西工业园,颗粒物(PM10),119,187,96,88,60,125,66,107,49,32,38,12,11,1.7,1.3
2023-10-13T00:00:00,2216A,123.8139,42.3022,铁岭市,汇工街西,细颗粒物(PM2.5),73,62,63,53,38,123,37,109,49,29,35,10,26,0.6,0.8
2023-10-13T00:00:00,2217A,123.8649,42.2923,铁岭市,水上乐园,细颗粒物(PM2.5),140,84,50,107,38,124,44,116,68,25,22,10,8,1.0,0.7
2023-10-13T00:00:00,2218A,123.8486,42.2867,铁岭市,银州路东段,细颗粒物(PM2.5),75,90,54,55,30,106,48,89,63,26,28,4,4,0.7,0.6
2023-10-13T00:00:00,2219A,123.7153,42.2217,铁岭市,金沙江路北,细颗粒物(PM2.5),65,58,44,47,30,120,28,98,31,46,41,3,3,0.6,0.6
2023-10-13T00:00:00,2220A,120.4318,41.5881,朝阳市,西梁,细颗粒物(PM2.5),82,69,76,60,44,134,83,114,93,18,29,11,12,0.9,1.1
2023-10-13T00:00:00,2221A,120.4521,41.5646,朝阳市,河畔小区,细颗粒物(PM2.5),80,64,63,59,41,131,89,117,101,19,28,8,9,0.8,1
2023-10-13T00:00:00,2222A,120.4176,41.5648,朝阳市,八里堡,细颗粒物(PM2.5),80,82,73,59,44,131,62,113,84,36,34,9,10,1.0,1.1
2023-10-13T00:00:00,2223A,120.3806,41.5969,朝阳市,农业园区,细颗粒物(PM2.5),93,57,64,69,49,138,69,114,84,25,32,7,11,1.0,1.1
2023-10-13T00:00:00,2225A,124.4002,43.1713,四平市,一商场,颗粒物(PM10),79,107,88,46,36,112,2,102,24,61,51,5,7,0.9,0.9
2023-10-13T00:00:00,2226A,124.388,43.193,四平市,境园,,49,45,57,34,33,116,17,105,30,39,30,4,4,0.5,0.5
2023-10-13T00:00:00,2227A,125.1358,42.8845,辽源市,环保局,细颗粒物(PM2.5),77,84,56,56,37,127,7,101,24,38,33,9,13,1.0,0.9
2023-10-13T00:00:00,2229A,125.9358,41.7173,通化市,光明,,43,43,42,29,22,108,14,75,21,40,41,6,8,0.3,0.5
2023-10-13T00:00:00,2230A,125.9446,41.7325,通化市,铁路,,31,31,41,14,23,117,26,81,43,26,33,6,9,0.6,0.8
2023-10-13T00:00:00,2231A,126.4219,41.9171,白山市,喜丰,颗粒物(PM10),69,88,53,34,19,119,10,105,36,48,31,9,10,0.8,0.7
2023-10-13T00:00:00,2232A,126.4077,41.9419,白山市,环保局,颗粒物(PM10),53,56,54,27,22,115,29,91,29,27,32,8,11,0.6,0.7
2023-10-13T00:00:00,2233A,124.8006,45.1214,松原市,江南,,39,39,54,25,28,115,71,100,41,23,36,8,8,0.4,0.5
2023-10-13T00:00:00,2234A,124.7965,45.1722,松原市,江北,,34,34,35,22,21,115,65,105,65,22,23,3,4,0.5,0.5
2023-10-13T00:00:00,2235A,122.7911,45.6077,白城市,洮北区环保局,,49,49,52,28,28,122,87,110,85,15,49,5,6,0.4,0.7
2023-10-13T00:00:00,2236A,122.8738,45.5725,白城市,市环保局,颗粒物(PM10),58,65,53,29,22,118,19,96,36,68,44,8,8,0.7,0.7
2023-10-13T00:00:00,2237A,129.47,42.8883,延边朝鲜族自治州,妇幼医院,,26,26,30,10,11,86,30,75,41,18,17,7,7,0.4,0.5
2023-10-13T00:00:00,2238A,129.5055,42.9108,延边朝鲜族自治州,延边医院,,39,39,43,17,19,88,19,80,28,35,29,8,7,0.6,0.8
2023-10-13T00:00:00,2239A,129.3964,42.8881,延边朝鲜族自治州,朝阳川镇医院,,27,27,24,9,8,96,10,85,38,20,13,4,4,0.5,0.5
2023-10-13T00:00:00,2240A,130.9762,45.3001,鸡西市,环保局,,34,34,32,16,12,76,76,62,55,10,15,4,5,0.1,0.1
2023-10-13T00:00:00,2243A,130.9429,45.3039,鸡西市,第一中学,,28,28,29,12,11,92,79,82,74,8,10,6,6,0.3,0.3
2023-10-13T00:00:00,2244A,130.2537,47.3416,鹤岗市,哈啤分公司,,29,26,17,20,13,90,60,88,79,12,7,11,11,0.3,0.2
2023-10-13T00:00:00,2245A,130.2684,47.3086,鹤岗市,斯达机电,,47,47,26,18,16,109,109,86,85,10,10,9,9,0.3,0.2
2023-10-13T00:00:00,2246A,130.3114,47.3388,鹤岗市,东山纸板厂,颗粒物(PM10),64,78,51,39,21,94,15,92,59,42,20,10,11,0.5,0.5
2023-10-13T00:00:00,2247A,130.1097,47.3382,鹤岗市,五号水库,,45,43,19,31,15,92,21,89,55,24,8,10,10,0.1,0.1
2023-10-13T00:00:00,2248A,131.1511,46.6937,双鸭山市,双合村,,31,23,30,10,10,105,98,101,101,3,7,8,9,0.3,0.3
2023-10-13T00:00:00,2249A,131.1652,46.6191,双鸭山市,南小市,,48,48,47,15,14,97,82,88,80,5,11,6,7,0.3,0.3
2023-10-13T00:00:00,2250A,131.1524,46.6554,双鸭山市,环保局,颗粒物(PM10),51,51,31,25,13,94,62,89,77,24,14,14,9,1.7,0.4
2023-10-13T00:00:00,2251A,131.12,46.5656,双鸭山市,苗圃,,35,20,19,16,10,140,109,134,121,9,7,3,4,0.3,0.3
2023-10-13T00:00:00,2252A,128.5159,47.4311,伊春市,环保局,,34,34,29,17,10,90,41,84,41,19,19,2,5,0.5,0.5
2023-10-13T00:00:00,2253A,128.9102,47.7412,伊春市,电力嘉园,,41,41,26,23,10,78,48,78,63,16,19,2,6,1.2,0.8
2023-10-13T00:00:00,2254A,129.5029,48.471,伊春市,汤旺河国家公园,,27,27,26,13,11,77,40,71,48,3,4,5,7,0.2,0.2
2023-10-13T00:00:00,2255A,130.2751,46.8028,佳木斯市,佳纺,,38,38,45,21,17,88,61,82,65,17,18,2,3,0.4,0.4
2023-10-13T00:00:00,2256A,130.3995,46.8307,佳木斯市,发电厂,,33,33,42,17,15,90,70,87,77,16,16,4,5,0.6,0.5
2023-10-13T00:00:00,2257A,130.3258,46.7975,佳木斯市,环保局,,36,36,31,12,14,94,70,87,66,17,18,3,4,0.5,0.5
2023-10-13T00:00:00,2258A,130.3648,46.8032,佳木斯市,十一中,,50,50,41,19,14,88,30,83,53,59,26,2,2,0.6,0.5
2023-10-13T00:00:00,2259A,130.3794,46.7588,佳木斯市,四丰,,31,22,22,8,10,116,98,106,105,6,7,1,1,0.2,0.2
2023-10-13T00:00:00,2262A,131.0518,45.8751,七台河市,新一中,,30,24,23,16,10,112,93,105,95,8,8,7,7,0.7,0.6
2023-10-13T00:00:00,2263A,127.4833,50.2524,黑河市,交通局,,20,11,20,8,9,75,64,69,60,9,19,6,4,0.5,0.4
2023-10-13T00:00:00,2264A,127.5144,50.2341,黑河市,环保局,,21,18,18,10,11,79,66,74,59,9,11,6,5,0.3,0.4
2023-10-13T00:00:00,2265A,127.5291,50.2472,黑河市,大黑河岛,,,35,20,23,16,,,,,2,2,3,2,,
2023-10-13T00:00:00,2266A,126.9785,46.6365,绥化市,人和东街,,42,42,45,22,22,106,80,92,69,16,26,5,4,0.5,0.6
2023-10-13T00:00:00,2267A,126.964,46.6528,绥化市,党政办公中心,,38,38,41,18,22,108,86,95,73,14,22,4,5,0.5,0.5
2023-10-13T00:00:00,2269A,124.1069,50.4097,大兴安岭地区,科技局,,23,13,14,15,12,84,71,81,76,6,4,6,6,0.1,0.1
2023-10-13T00:00:00,2270A,117.396,32.939,蚌埠市,工人疗养院,"颗粒物(PM10),细颗粒物(PM2.5)",67,83,81,48,47,128,65,114,73,26,36,5,6,0.5,0.5
2023-10-13T00:00:00,2271A,117.3605,32.9427,蚌埠市,百货大楼,颗粒物(PM10),59,67,78,34,42,131,73,119,82,27,34,6,7,0.4,0.5
2023-10-13T00:00:00,2273A,117.4185,32.8911,蚌埠市,蚌埠学院,颗粒物(PM10),59,68,64,40,40,125,65,115,58,32,50,5,12,0.4,0.5
2023-10-13T00:00:00,2274A,117.3533,32.9673,蚌埠市,淮上区政府,细颗粒物(PM2.5),69,78,75,50,52,126,53,117,75,40,30,5,6,0.3,0.4
2023-10-13T00:00:00,2275A,117.3145,32.8977,蚌埠市,高新区,颗粒物(PM10),80,110,55,52,38,131,28,121,87,70,41,7,7,0.5,0.5
2023-10-13T00:00:00,2277A,116.8305,32.7727,淮南市,潘集区政府,细颗粒物(PM2.5),83,100,76,61,49,131,56,117,77,32,30,10,10,0.5,0.5
2023-10-13T00:00:00,2278A,117.0067,32.6524,淮南市,师范学院,细颗粒物(PM2.5),80,79,71,59,41,129,42,121,68,34,27,8,9,0.3,0.4
2023-10-13T00:00:00,2279A,116.8569,32.5951,淮南市,谢家集区政府,颗粒物(PM10),68,86,58,33,36,132,54,121,78,39,26,9,11,0.3,0.4
2023-10-13T00:00:00,2280A,116.8281,32.633,淮南市,八公山区政府,细颗粒物(PM2.5),63,73,66,45,40,134,64,122,80,26,22,14,17,0.4,0.5
2023-10-13T00:00:00,2281A,116.6325,32.6201,淮南市,焦岗湖风景区管理处,颗粒物(PM10),54,57,53,35,32,133,25,120,54,54,29,2,2,0.4,0.4
2023-10-13T00:00:00,2282A,116.8004,33.975,淮北市,监测站,细颗粒物(PM2.5),73,93,63,53,40,130,35,121,77,55,32,11,8,0.8,0.7
2023-10-13T00:00:00,2283A,116.8091,33.9007,淮北市,烈山区政府,细颗粒物(PM2.5),99,126,80,74,51,144,27,136,80,58,38,6,6,0.6,0.5
2023-10-13T00:00:00,2285A,117.8177,30.9412,铜陵市,市第四中学,细颗粒物(PM2.5),73,69,57,53,40,119,15,113,75,59,24,8,7,0.8,0.6
2023-10-13T00:00:00,2286A,117.8059,30.9273,铜陵市,市公路局,细颗粒物(PM2.5),59,43,51,42,34,130,32,122,85,34,22,5,5,0.8,0.7
2023-10-13T00:00:00,2287A,117.7807,30.9413,铜陵市,市新民污水厂,颗粒物(PM10),66,82,62,35,30,132,32,123,78,46,36,4,5,0.5,0.5
2023-10-13T00:00:00,2288A,117.7439,30.8792,铜陵市,市第九中学,颗粒物(PM10),66,82,69,47,32,133,39,125,96,43,33,2,7,0.6,0.8
2023-10-13T00:00:00,2289A,117.846,30.9413,铜陵市,车站新区,细颗粒物(PM2.5),64,58,54,46,38,131,32,124,81,36,27,3,4,0.5,0.4
2023-10-13T00:00:00,2290A,117.8483,30.97,铜陵市,市职教基地,"颗粒物(PM10),细颗粒物(PM2.5)",63,76,53,45,32,132,22,119,77,47,22,4,4,0.7,0.6
2023-10-13T00:00:00,2291A,117.0809,30.5177,安庆市,环科院,,39,25,44,21,29,143,122,133,122,17,23,7,9,0.6,0.7
2023-10-13T00:00:00,2292A,117.0331,30.5119,安庆市,马山宾馆,,49,36,42,34,26,154,97,140,124,25,21,6,7,0.8,0.7
2023-10-13T00:00:00,2294A,116.9896,30.6145,安庆市,安庆大学,细颗粒物(PM2.5),59,47,45,42,33,145,84,137,115,23,19,6,7,0.7,0.7
2023-10-13T00:00:00,2295A,118.2903,29.6963,黄山市,延安路89号,,39,39,46,20,18,128,36,122,73,10,8,4,5,0.5,0.5
2023-10-13T00:00:00,2296A,118.327,29.7178,黄山市,黄山东路89号,,38,38,39,19,20,120,69,115,84,12,9,6,6,0.5,0.6
2023-10-13T00:00:00,2297A,118.1371,30.2756,黄山市,黄山区政府5号楼,,40,40,47,25,27,134,40,123,72,9,13,6,6,0.6,0.7
2023-10-13T00:00:00,2298A,118.3093,32.3153,滁州市,老年大学,,33,33,36,23,24,133,46,124,80,33,23,8,6,0.3,0.3
2023-10-13T00:00:00,2299A,118.3244,32.2786,滁州市,人大宾馆,,39,38,39,27,31,136,69,126,90,24,22,9,8,0.3,0.4
2023-10-13T00:00:00,2301A,115.8277,32.8929,阜阳市,市监测站,颗粒物(PM10),81,111,72,57,48,150,42,133,64,56,37,8,9,0.6,0.6
2023-10-13T00:00:00,2303A,115.8554,32.8605,阜阳市,开发区,"颗粒物(PM10),细颗粒物(PM2.5)",83,116,89,61,54,140,24,125,56,78,45,9,11,0.7,0.7
2023-10-13T00:00:00,2307A,116.5079,31.737,六安市,监测大楼,,38,37,48,26,30,134,86,126,104,15,26,4,4,0.4,0.5
2023-10-13T00:00:00,2308A,116.4738,31.7643,六安市,皖西学院,颗粒物(PM10),51,51,52,25,28,138,75,127,98,19,26,6,6,0.5,0.6
2023-10-13T00:00:00,2309A,116.4996,31.7905,六安市,朝阳厂,,39,39,47,23,33,134,74,122,96,16,28,6,6,0.5,0.5
2023-10-13T00:00:00,2310A,116.5567,31.7886,六安市,开发区,颗粒物(PM10),56,61,67,36,35,132,52,116,70,29,32,6,7,0.5,0.5
2023-10-13T00:00:00,2311A,115.8072,33.8399,亳州市,污水处理厂,细颗粒物(PM2.5),196,177,138,147,112,161,40,144,89,49,36,17,15,0.9,0.8
2023-10-13T00:00:00,2312A,115.7789,33.8518,亳州市,三国揽胜宫,细颗粒物(PM2.5),142,108,120,108,94,162,66,154,114,30,31,24,14,0.7,0.7
2023-10-13T00:00:00,2314A,117.47,30.6618,池州市,池州学院,细颗粒物(PM2.5),64,71,57,46,36,143,55,127,82,37,31,6,8,0.8,0.9
2023-10-13T00:00:00,2316A,118.7581,30.9454,宣城市,鳌峰子站,颗粒物(PM10),58,65,50,37,32,129,47,119,92,38,27,6,5,0.8,0.7
2023-10-13T00:00:00,2317A,118.7385,30.9743,宣城市,敬亭山子站,,33,32,38,23,26,135,85,121,99,16,27,5,8,0.5,0.6
2023-10-13T00:00:00,2318A,118.7173,30.9427,宣城市,开发区子站,颗粒物(PM10),53,55,47,33,29,130,47,120,92,46,29,5,7,0.7,0.7
2023-10-13T00:00:00,2319A,119.0141,25.4325,莆田市,荔城区仓后路,,29,20,23,8,11,120,91,111,98,6,8,7,7,0.5,1
2023-10-13T00:00:00,2320A,119.0015,25.4553,莆田市,莆田市监测站,,30,16,23,5,9,125,96,116,105,3,5,8,8,0.5,0.5
2023-10-13T00:00:00,2321A,119.1119,25.4561,莆田市,涵江区六中,,28,21,22,9,10,132,88,121,103,8,6,7,7,0.6,0.7
2023-10-13T00:00:00,2322A,119.1013,25.3215,莆田市,秀屿区政府,,32,17,29,6,12,137,100,123,105,9,10,7,7,0.6,0.6
2023-10-13T00:00:00,2323A,118.981,25.4792,莆田市,东圳水库,,,,,,,,,,,,,,,,
2023-10-13T00:00:00,2324A,117.6211,26.2625,三明市,三钢,,23,19,20,16,15,81,19,70,43,23,12,7,7,0.4,0.4
2023-10-13T00:00:00,2325A,117.635,26.2714,三明市,三明二中,,23,16,18,16,14,79,19,70,45,22,14,4,4,0.6,0.6
2023-10-13T00:00:00,2326A,117.6028,26.2378,三明市,三元区政府,,27,27,20,15,15,77,11,71,44,26,14,8,8,0.6,0.6
2023-10-13T00:00:00,2327A,117.7275,26.3108,三明市,洋溪,,,,,,,,,,,,,,,,
2023-10-13T00:00:00,2331A,118.0966,26.6761,南平市,茫荡山,,,,,,,,,,,,,,,,
2023-10-13T00:00:00,2332A,118.1681,26.6369,南平市,南平市监测站,,18,17,17,12,13,80,10,72,36,26,10,4,4,0.5,0.5
2023-10-13T00:00:00,2333A,118.1825,26.6489,南平市,南平铝业有限公司,,22,22,20,15,13,77,3,72,34,29,12,12,4,0.7,0.6
2023-10-13T00:00:00,2334A,118.1756,26.6272,南平市,南平七中,,18,17,17,12,14,87,14,78,42,20,9,4,6,0.6,0.7
2023-10-13T00:00:00,2335A,117.0189,25.1181,龙岩市,龙岩师专,,,,,,,,,,,,,,,,
2023-10-13T00:00:00,2336A,117.0217,25.1033,龙岩市,龙岩市监测站,,23,22,19,16,12,89,32,78,47,18,14,8,8,0.5,0.5
2023-10-13T00:00:00,2337A,117.0258,25.0661,龙岩市,闽西职业技术学院,,23,21,21,16,12,89,40,79,51,15,11,13,8,0.5,0.5
2023-10-13T00:00:00,2338A,117.0196,25.0306,龙岩市,龙岩学院,,23,23,23,16,12,85,19,75,41,15,10,6,6,0.5,0.4
2023-10-13T00:00:00,2339A,119.5001,26.6946,宁德市,金涵水库,,,,,,,,,,,,,,,,
2023-10-13T00:00:00,2341A,119.5388,26.6612,宁德市,宁德市监测站,,25,25,22,16,14,127,66,114,95,25,16,6,6,0.6,0.6
2023-10-13T00:00:00,2342A,117.3102,29.3867,景德镇市,王港中学,,33,33,38,22,24,134,20,120,48,6,7,2,2,0.7,0.7
2023-10-13T00:00:00,2343A,117.2117,29.2933,景德镇市,老干部活动中心,细颗粒物(PM2.5),58,42,44,41,36,128,60,118,78,16,12,5,12,0.4,0.4
2023-10-13T00:00:00,2344A,117.1894,29.2789,景德镇市,兽医站,颗粒物(PM10),52,54,50,34,45,121,44,114,67,12,10,9,15,0.6,0.6
2023-10-13T00:00:00,2345A,117.1547,29.2617,景德镇市,台达陶瓷,颗粒物(PM10),57,63,39,36,31,126,32,116,70,36,16,40,13,0.7,0.7
2023-10-13T00:00:00,2346A,117.2461,29.2956,景德镇市,陶研所,颗粒物(PM10),55,59,48,28,23,124,28,109,56,35,13,7,5,0.5,0.5
2023-10-13T00:00:00,2347A,114.0997,27.5002,萍乡市,武功山,,39,26,21,27,18,125,39,105,73,5,6,5,5,0.5,0.5
2023-10-13T00:00:00,2348A,113.8385,27.6434,萍乡市,中医院,,49,44,56,34,38,117,52,110,77,20,18,8,18,0.8,0.8
2023-10-13T00:00:00,2349A,113.8493,27.6253,萍乡市,市政府车库,细颗粒物(PM2.5),58,62,55,41,39,116,43,108,72,14,15,10,14,0.7,0.8
2023-10-13T00:00:00,2350A,113.8676,27.6435,萍乡市,市环保局,细颗粒物(PM2.5),64,52,56,46,40,121,42,112,79,26,25,7,16,0.7,0.7
2023-10-13T00:00:00,2351A,113.866,27.6198,萍乡市,安源区政府,细颗粒物(PM2.5),67,62,52,48,37,122,48,111,77,16,16,9,11,0.6,0.6
2023-10-13T00:00:00,2352A,115.0861,27.9317,新余市,北岗,细颗粒物(PM2.5),60,53,49,43,40,135,37,122,75,15,14,24,24,0.5,0.5
2023-10-13T00:00:00,2353A,114.9886,27.8431,新余市,飞宇,颗粒物(PM10),65,80,68,44,40,118,41,112,76,48,30,14,15,0.7,0.4
2023-10-13T00:00:00,2354A,114.9231,27.8246,新余市,第二水厂,颗粒物(PM10),63,75,70,42,41,140,95,134,114,19,17,16,13,0.6,0.6
2023-10-13T00:00:00,2355A,114.9308,27.8036,新余市,市气象局,细颗粒物(PM2.5),63,63,61,45,45,129,85,124,105,24,21,18,16,0.7,0.8
2023-10-13T00:00:00,2357A,116.9822,28.1136,鹰潭市,龙虎山,,28,28,31,8,8,134,23,104,50,5,6,4,7,0.1,0.2
2023-10-13T00:00:00,2358A,117.0564,28.2642,鹰潭市,新监测站,,44,44,48,19,28,151,91,130,107,9,15,3,15,0.4,0.5
2023-10-13T00:00:00,2359A,117.0311,28.2475,鹰潭市,财苑宾馆,颗粒物(PM10),60,69,51,38,31,163,36,137,99,38,15,4,19,0.3,0.4
2023-10-13T00:00:00,2360A,117.0222,28.2264,鹰潭市,体育馆,细颗粒物(PM2.5),58,56,50,41,35,158,13,129,83,54,19,4,17,0.6,0.7
2023-10-13T00:00:00,2361A,117.0017,28.2131,鹰潭市,三川水表,颗粒物(PM10),55,59,55,33,36,149,8,127,65,53,27,4,17,0.6,0.6
2023-10-13T00:00:00,2362A,114.9017,25.9149,赣州市,通天岩,,,,,,,,,,,,,,,,
2023-10-13T00:00:00,2363A,114.9367,25.8664,赣州市,地委,,46,42,38,32,27,87,56,85,69,16,10,36,23,1.1,1.1
2023-10-13T00:00:00,2364A,114.9461,25.8481,赣州市,气象台,细颗粒物(PM2.5),65,62,39,47,29,93,44,86,68,24,11,17,13,1.0,1
2023-10-13T00:00:00,2365A,114.9322,25.8333,赣州市,市图书馆,颗粒物(PM10),53,55,50,30,28,86,57,82,70,15,10,8,6,0.9,0.9
2023-10-13T00:00:00,2366A,114.8905,25.8471,赣州市,华坚鞋城,颗粒物(PM10),52,54,42,32,26,97,77,90,78,7,10,7,9,0.8,0.8
2023-10-13T00:00:00,2367A,114.9754,27.0803,吉安市,红声器材厂,细颗粒物(PM2.5),65,72,51,47,33,120,84,117,111,25,14,16,12,0.8,0.8
2023-10-13T00:00:00,2368A,114.9658,27.0999,吉安市,市森林工业局,,,,51,,33,127,92,118,114,25,18,20,14,0.8,0.5
2023-10-13T00:00:00,2369A,114.99,27.1312,吉安市,市环境监测站,颗粒物(PM10),59,68,50,40,30,126,56,122,111,46,21,10,12,0.8,0.8
2023-10-13T00:00:00,2370A,115.0093,27.0968,吉安市,青原区法院,细颗粒物(PM2.5),59,60,47,42,31,121,99,115,110,20,19,14,14,0.8,0.7
2023-10-13T00:00:00,2371A,114.3408,27.8064,宜春市,槟榔水业,细颗粒物(PM2.5),70,83,55,51,34,126,24,115,65,43,25,1,3,0.5,0.5
2023-10-13T00:00:00,2373A,114.3956,27.7844,宜春市,市石油公司,颗粒物(PM10),53,55,55,36,34,127,45,116,76,19,20,2,5,0.8,0.8
2023-10-13T00:00:00,2374A,114.3703,27.7914,宜春市,市气象局,细颗粒物(PM2.5),53,54,69,37,36,122,36,112,77,26,19,4,6,1.0,1
2023-10-13T00:00:00,2375A,114.4013,27.8074,宜春市,市广电局,细颗粒物(PM2.5),59,66,60,42,38,134,57,123,85,22,25,5,7,0.8,0.8
2023-10-13T00:00:00,2376A,116.2127,28.0814,抚州市,桐源党溪,,44,44,41,30,26,123,53,114,63,7,6,2,4,0.9,0.9
2023-10-13T00:00:00,2377A,116.3544,27.9831,抚州市,市站,细颗粒物(PM2.5),60,60,52,43,34,131,95,118,100,19,19,3,10,0.7,0.7
2023-10-13T00:00:00,2378A,116.3565,27.963,抚州市,血防站,"颗粒物(PM10),细颗粒物(PM2.5)",60,69,57,43,34,128,101,114,100,16,17,3,7,0.9,1.1
2023-10-13T00:00:00,2379A,116.3564,28.0007,抚州市,采茶剧团,细颗粒物(PM2.5),63,69,52,45,37,125,94,111,93,14,16,5,10,1.0,0.9
2023-10-13T00:00:00,2380A,116.385,27.9647,抚州市,医学分院,细颗粒物(PM2.5),57,62,51,40,32,138,103,122,105,16,15,6,13,0.9,0.8
2023-10-13T00:00:00,2381A,118.005,28.4572,上饶市,百草园,,,55,45,28,26,122,50,118,85,14,11,11,9,,
2023-10-13T00:00:00,2382A,117.9756,28.4436,上饶市,市监测站,,,51,48,,28,148,69,140,110,,15,14,9,0.7,0.7
2023-10-13T00:00:00,2383A,117.9519,28.4628,上饶市,凤凰光学,颗粒物(PM10),51,52,52,28,29,140,57,132,96,34,24,9,8,0.6,0.7
2023-10-13T00:00:00,2385A,114.17,35.9019,鹤壁市,市监测站,细颗粒物(PM2.5),112,107,102,84,72,146,48,130,66,41,42,6,10,0.7,0.8
2023-10-13T00:00:00,2386A,114.2956,35.7511,鹤壁市,市交警支队,细颗粒物(PM2.5),137,167,117,104,71,152,61,124,77,49,52,12,13,0.8,0.9
2023-10-13T00:00:00,2387A,114.2878,35.7306,鹤壁市,迎宾馆,细颗粒物(PM2.5),140,146,103,107,71,153,61,124,78,52,48,12,11,0.8,0.9
2023-10-13T00:00:00,2389A,113.836,35.311,新乡市,环保西院,细颗粒物(PM2.5),160,171,139,122,79,141,6,112,54,76,62,11,12,0.8,1.1
2023-10-13T00:00:00,2390A,113.884,35.272,新乡市,开发区,细颗粒物(PM2.5),149,156,117,114,78,143,7,114,59,80,60,7,12,1.0,0.9
2023-10-13T00:00:00,2391A,113.883,35.303,新乡市,环保东院,细颗粒物(PM2.5),152,187,137,116,81,141,6,106,52,86,63,9,14,0.9,0.9
2023-10-13T00:00:00,2392A,115.0312,35.7636,濮阳市,环保局,细颗粒物(PM2.5),142,121,85,108,77,141,43,121,84,44,42,7,11,0.7,0.8
2023-10-13T00:00:00,2394A,115.0574,35.7609,濮阳市,油田运输公司,细颗粒物(PM2.5),138,169,126,105,78,147,48,127,91,39,41,6,10,0.8,0.8
2023-10-13T00:00:00,2395A,115.0866,35.7754,濮阳市,油田物探公司,细颗粒物(PM2.5),163,192,142,124,92,153,31,125,78,60,52,6,12,0.6,0.7
2023-10-13T00:00:00,2396A,113.8276,34.0159,许昌市,监测站,细颗粒物(PM2.5),155,144,142,118,98,68,25,45,41,60,68,8,9,0.9,0.9
2023-10-13T00:00:00,2398A,113.7906,33.9953,许昌市,开发区,,,,132,,109,60,,43,30,49,57,7,9,0.9,0.5
2023-10-13T00:00:00,2399A,114.051,33.5699,漯河市,三五一五工厂,细颗粒物(PM2.5),169,159,126,128,86,114,22,95,50,54,50,10,11,0.9,0.7
2023-10-13T00:00:00,2400A,114.0055,33.5698,漯河市,漯河大学,细颗粒物(PM2.5),122,143,117,92,74,98,29,96,48,59,54,14,12,0.7,0.6
2023-10-13T00:00:00,2401A,114.0138,33.5828,漯河市,市水利局,细颗粒物(PM2.5),139,173,132,106,80,111,40,85,50,46,53,14,11,0.8,0.8
2023-10-13T00:00:00,2402A,114.0261,33.5698,漯河市,市广电局,细颗粒物(PM2.5),132,159,131,100,80,111,38,87,50,45,48,12,11,0.9,0.8
2023-10-13T00:00:00,2404A,112.5224,33.0122,南阳市,瓦房庄,细颗粒物(PM2.5),97,125,80,72,47,119,19,106,79,60,33,6,6,0.8,0.6
2023-10-13T00:00:00,2405A,112.5003,32.9735,南阳市,汉画馆,颗粒物(PM10),80,109,68,54,39,134,7,117,78,73,24,5,5,0.7,0.6
2023-10-13T00:00:00,2406A,112.5573,33.027,南阳市,气象站,细颗粒物(PM2.5),110,134,77,83,44,135,47,118,88,39,24,4,4,0.8,0.6
2023-10-13T00:00:00,2407A,112.5481,32.9689,南阳市,理工学院,细颗粒物(PM2.5),105,140,93,79,51,134,57,112,88,33,26,10,7,0.8,0.6
2023-10-13T00:00:00,2408A,115.6702,34.4285,商丘市,环境监测站,细颗粒物(PM2.5),158,165,122,120,86,148,50,130,90,43,48,6,8,0.8,0.7
2023-10-13T00:00:00,2409A,115.6458,34.4045,商丘市,粮食局,细颗粒物(PM2.5),182,151,121,137,105,138,70,120,96,39,47,7,11,0.8,0.7
2023-10-13T00:00:00,2410A,115.6293,34.3948,商丘市,睢阳区环保局,细颗粒物(PM2.5),193,154,116,145,90,134,30,112,72,58,52,6,10,0.9,0.7
2023-10-13T00:00:00,2420A,114.0189,32.9656,驻马店市,市一纸厂,细颗粒物(PM2.5),119,177,85,90,46,130,37,120,90,34,27,11,9,0.6,0.5
