timepoint,stationcode,longitude,latitude,area,positionname,primarypollutant,aqi,pm10,pm10_24h,pm2_5,pm2_5_24h,o3,o3_24h,o3_8h,o3_8h_24h,no2,no2_24h,so2,so2_24h,co,co_24h
2024-07-31T2200,2566A,102.1879,31.914,阿坝藏族羌族自治州,州农科所,,30,30,20,9,8,47,,90,74,21,11,6,10,0,0
2024-07-31T2200,2568A,102.2502,31.8896,阿坝藏族羌族自治州,马师校,,40,31,17,28,12,55,,117,102,23,15,4,4,0.3,0.3
2024-07-31T2200,3994A,102.2165,31.9024,阿坝藏族羌族自治州,马尔康中学西区,,24,24,13,16,11,64,,117,106,9,6,4,4,0.3,0.3
2024-07-31T2200,2695A,80.292,41.1694,阿克苏地区,电视台,,41,41,75,22,29,73,,112,103,35,24,3,5,0.6,0.6
2024-07-31T2200,2696A,80.2613,41.1551,阿克苏地区,艺术中心,,33,33,60,15,22,69,,108,99,35,26,3,4,0.8,0.7
2024-07-31T2200,2204A,105.6467,38.8363,阿拉善盟,西城区西花园,,37,33,33,10,8,117,,158,148,15,10,8,8,0.6,0.6
2024-07-31T2200,2205A,105.6985,38.8411,阿拉善盟,蒙二幼,,40,40,46,6,6,110,,144,137,9,8,8,8,0.4,0.5
2024-07-31T2200,2206A,105.724,38.8516,阿拉善盟,环保局新楼,,39,9,14,3,5,123,,150,145,6,6,8,8,0.5,0.5
2024-07-31T2200,2708A,88.1264,47.8517,阿勒泰地区,市站,颗粒物(PM10),52,53,28,18,10,94,,92,91,6,12,7,7,0.5,0.6
2024-07-31T2200,2630A,80.1161,32.5,阿里地区,阿里监测站,颗粒物(PM10),69,88,22,12,6,123,,132,131,6,7,6,6,0.3,0.3
2024-07-31T2200,3192A,80.0903,32.5028,阿里地区,阿里藏医院,,38,10,18,3,3,120,,124,124,4,5,6,6,0.3,0.3
2024-07-31T2200,2642A,109.0318,32.6537,安康市,香溪洞,,21,21,16,12,5,57,,60,60,2,2,5,5,0.3,0.3
2024-07-31T2200,2643A,109.0281,32.6939,安康市,安康市监测站,,37,37,20,11,7,28,,71,61,13,8,5,5,0.7,0.6
2024-07-31T2200,2644A,109.0072,32.6975,安康市,汉滨区检察院,,35,35,18,13,7,21,,79,66,8,5,6,7,0.6,0.6
2024-07-31T2200,2291A,117.0809,30.5177,安庆市,环科院,,18,,20,12,14,42,,85,63,27,17,5,6,0.5,0.5
2024-07-31T2200,2292A,117.0331,30.5119,安庆市,马山宾馆,,20,,21,14,14,34,,89,59,29,20,8,9,0.5,0.5
2024-07-31T2200,2294A,116.9896,30.6145,安庆市,安庆大学,,21,21,26,9,16,45,,94,71,17,17,8,9,0.3,0.4
2024-07-31T2200,3173A,117.0598,30.5351,安庆市,市人大,,21,21,23,12,14,52,,87,68,12,9,5,7,0.3,0.3
2024-07-31T2200,3122A,105.9606,26.2611,安顺市,伍家关,,,,,,,,,,,,,,,,
2024-07-31T2200,3123A,105.9408,26.2431,安顺市,凤凰山,,14,13,14,8,9,44,,66,56,5,5,14,12,0.5,0.5
2024-07-31T2200,3124A,105.9439,26.2564,安顺市,金钟山,,15,10,13,6,10,45,,67,59,4,5,10,9,0.5,0.5
2024-07-31T2200,3125A,105.8983,26.2481,安顺市,娄家坡,,22,22,20,11,10,45,,66,55,4,6,13,9,0.5,0.5
2024-07-31T2200,1818A,114.4839,36.0621,安阳市,棉研所,,,,,,,,,,,,,,,,
2024-07-31T2200,1819A,114.3551,36.1017,安阳市,红庙街,,29,26,29,10,12,90,,124,118,3,3,4,6,0.4,0.6
2024-07-31T2200,1820A,114.361,36.0681,安阳市,银杏小区,,,16,27,,10,88,,123,117,2,3,3,3,0.4,0.6
2024-07-31T2200,3141A,114.3922,36.0878,安阳市,信访局,,30,24,27,8,12,93,,135,126,1,2,1,3,0.8,1
2024-07-31T2200,3669A,114.4705,36.0637,安阳市,左辅环卫站,,29,,6,8,13,92,,119,114,2,4,8,5,0.5,0.6
2024-07-31T2200,3703A,114.2917,36.0949,安阳市,安钢职工学校,,29,19,33,10,17,92,,118,115,7,6,7,8,0.5,0.6
2024-07-31T2200,1748A,123.044,41.1196,鞍山市,深沟寺,,31,11,17,3,6,98,,93,78,5,4,3,3,0.4,0.4
2024-07-31T2200,1749A,123.011,41.0931,鞍山市,太阳城,,28,16,13,6,7,89,,83,71,4,3,3,3,0.6,0.5
2024-07-31T2200,1750A,123.0485,41.1442,鞍山市,太平,,27,11,14,3,7,84,,85,72,11,7,4,3,0.7,0.5
2024-07-31T2200,1751A,122.9642,41.0971,鞍山市,铁西三道街,,32,11,17,3,9,101,,94,79,4,7,2,2,0.6,0.6
2024-07-31T2200,1752A,122.9341,41.0833,鞍山市,铁西工业园区,,34,16,16,3,6,106,,92,83,3,5,4,5,0.6,0.8
2024-07-31T2200,1753A,123.022,41.0821,鞍山市,明达新区,,,10,14,,,88,,92,74,4,3,3,3,0.5,0.5
2024-07-31T2200,1754A,123.1289,41.0228,鞍山市,千山,,,,,,,,,,,,,,,,
2024-07-31T2200,2195A,107.4212,40.761,巴彦淖尔市,附二中,,36,35,40,25,24,115,,136,131,10,11,6,7,0.5,0.6
2024-07-31T2200,2196A,107.37,40.7372,巴彦淖尔市,市环保大楼,,43,43,48,15,14,128,,145,136,8,9,6,5,0.5,0.5
2024-07-31T2200,1956A,86.1472,41.7538,巴音郭楞蒙古自治州,孔雀公园,,33,33,58,12,16,78,,119,91,32,23,4,5,0.6,0.5
2024-07-31T2200,1957A,86.1972,41.7166,巴音郭楞蒙古自治州,棉纺厂,,42,42,75,19,19,98,,115,94,17,21,4,4,0.3,0.3
2024-07-31T2200,1958A,86.2357,41.7173,巴音郭楞蒙古自治州,经济开发区,,33,18,102,13,27,104,,111,90,7,12,4,4,0.2,0.2
2024-07-31T2200,2914A,106.7677,31.8794,巴中市,苏山坪,,24,20,16,12,9,74,,100,91,6,6,4,4,0.6,0.5
2024-07-31T2200,3182A,106.7656,31.8545,巴中市,丽阳花园,,30,30,18,19,13,43,,102,88,20,10,3,3,0.7,0.6
2024-07-31T2200,3183A,106.7418,31.8654,巴中市,圣泉水务公司,,25,25,16,17,13,37,,102,86,27,11,4,5,0.7,0.6
2024-07-31T2200,3616A,106.7616,31.8344,巴中市,市中心医院,,29,23,14,20,13,46,,99,87,21,8,3,3,0.7,0.5
2024-07-31T2200,2235A,122.7911,45.6077,白城市,洮北区环保局,,,,14,,6,,,79,68,10,8,8,10,,0.4
2024-07-31T2200,2236A,122.8738,45.5725,白城市,市环保局,,22,22,21,3,5,61,,80,69,10,6,5,5,0.4,0.4
2024-07-31T2200,2231A,126.4219,41.9171,白山市,喜丰,,16,14,30,9,10,51,,60,59,5,7,3,10,0.8,0.9
2024-07-31T2200,2232A,126.4077,41.9419,白山市,环保局,,,,28,,11,,,40,,,5,,9,,0.8
2024-07-31T2200,2647A,104.1724,36.5446,白银市,第三小学,颗粒物(PM10),56,62,31,31,13,52,,155,132,61,15,8,29,1.1,0.7
2024-07-31T2200,2648A,104.1465,36.5482,白银市,动力公司,,38,38,24,18,10,63,,150,136,47,14,6,22,0.5,0.8
2024-07-31T2200,2512A,106.6103,23.9011,百色市,市监测站,,11,8,14,6,7,35,,56,49,8,7,4,6,0.6,0.7
2024-07-31T2200,2513A,106.6538,23.8859,百色市,市中心血站,,13,,16,9,10,38,,59,50,10,12,4,6,0.7,0.7
2024-07-31T2200,3406A,106.6085,23.8798,百色市,祈福高中,,16,13,17,11,9,42,,56,47,6,7,3,4,0.7,0.7
2024-07-31T2200,2270A,117.396,32.939,蚌埠市,工人疗养院,,28,27,28,10,8,87,,98,91,1,4,8,10,0.4,0.4
2024-07-31T2200,2271A,117.3605,32.9427,蚌埠市,百货大楼,,33,33,29,10,11,86,,101,91,3,5,6,9,0.4,0.4
2024-07-31T2200,2273A,117.4185,32.8911,蚌埠市,蚌埠学院,,27,27,19,16,9,78,,101,87,7,5,6,8,0.4,0.4
2024-07-31T2200,2274A,117.3533,32.9673,蚌埠市,淮上区政府,,34,34,23,17,12,94,,107,98,4,4,6,7,0.5,0.4
2024-07-31T2200,2275A,117.3145,32.8977,蚌埠市,高新区,,39,39,30,20,12,76,,103,88,10,9,12,9,0.7,0.5
2024-07-31T2200,3715A,117.3092,32.9314,蚌埠市,蚌埠田家炳中学,,40,40,33,18,13,80,,102,89,5,5,14,12,0.8,0.5
2024-07-31T2200,1585A,109.8756,40.6532,包头市,市环境监测站,,32,,13,14,12,101,,125,121,15,19,6,5,0.6,0.6
2024-07-31T2200,1587A,109.9991,40.5842,包头市,包头八中,颗粒物(PM10),78,106,35,3,17,66,,121,112,35,22,8,7,0.7,0.7
2024-07-31T2200,1588A,109.8538,40.6821,包头市,青山宾馆,,24,9,12,3,7,74,,122,113,33,20,6,5,0.6,0.6
2024-07-31T2200,1589A,109.8642,40.6288,包头市,惠龙物流,,30,12,21,10,16,95,,125,120,18,18,13,12,0.5,0.8
2024-07-31T2200,1590A,110.0377,40.5546,包头市,东河鸿龙湾,,24,24,21,12,14,71,,127,118,22,16,22,7,0.8,0.8
2024-07-31T2200,3283A,109.9154,40.5685,包头市,滨河大厦,,29,16,25,3,17,90,,124,117,21,21,8,8,0.5,0.8
2024-07-31T2200,3419A,109.9447,40.6261,包头市,包头市委党校,,24,,17,6,9,76,,124,118,37,20,4,4,0.4,0.6
2024-07-31T2200,3683A,109.8331,40.6576,包头市,昆区政府,,27,12,18,3,10,86,,122,116,24,16,8,5,0.5,0.6
2024-07-31T2200,1930A,107.185,34.3063,宝鸡市,庙沟村,,35,35,38,17,13,106,,142,132,14,9,5,5,0.4,0.4
2024-07-31T2200,1931A,107.0708,34.3017,宝鸡市,竹园沟,,46,46,35,18,15,83,,142,129,18,12,4,4,0.5,0.5
2024-07-31T2200,1932A,107.1906,34.3672,宝鸡市,三陆医院,,40,40,43,17,19,104,,156,151,24,25,8,10,0.6,0.5
2024-07-31T2200,1933A,107.1431,34.3547,宝鸡市,监测站,,,,,,,,,,,,,,,,
2024-07-31T2200,1934A,107.1186,34.3739,宝鸡市,技工学校,,49,49,45,28,21,104,,151,149,23,15,9,9,0.6,0.6
2024-07-31T2200,1935A,107.3906,34.3528,宝鸡市,陈仓区环保局家属楼,颗粒物(PM10),53,55,38,19,16,81,,162,144,25,20,8,8,0.6,0.6
2024-07-31T2200,1936A,107.2058,34.3497,宝鸡市,文理学院,颗粒物(PM10),53,56,44,16,14,104,,158,153,24,18,9,6,0.6,0.4
2024-07-31T2200,1937A,107.2386,34.3622,宝鸡市,三迪小学,,44,44,45,18,23,104,,157,147,18,20,9,9,0.5,0.5
2024-07-31T2200,1051A,115.493,38.8632,保定市,游泳馆,,35,35,33,15,16,94,,165,151,3,3,3,8,0.3,0.4
2024-07-31T2200,1052A,115.5213,38.8959,保定市,华电二区,,50,50,36,27,17,86,,156,145,4,5,4,5,0.5,0.7
2024-07-31T2200,1053A,115.4713,38.9108,保定市,接待中心,,37,37,37,12,15,98,,160,148,6,5,3,3,0.3,0.5
2024-07-31T2200,1054A,115.4612,38.8416,保定市,地表水厂,,,68,33,15,16,,,147,143,13,6,1,1,0.5,1
2024-07-31T2200,3581A,115.31981,38.95208,保定市,满城区生态环境分局,,29,29,32,9,18,81,,135,124,12,11,2,2,0.2,0.3
2024-07-31T2200,3582A,115.47694,38.76408,保定市,清苑区第二中学,,42,38,36,29,25,98,,154,147,7,4,3,3,0.6,0.6
2024-07-31T2200,3583A,115.62909,39.02311,保定市,徐水物探局,,27,17,26,3,14,84,,150,137,5,7,3,3,0.3,0.4
2024-07-31T2200,4004A,115.4202,38.8656,保定市,双鹰农机,,47,47,27,21,17,96,,167,153,10,8,6,7,0.4,0.5
2024-07-31T2200,4034A,115.5150,38.8590,保定市,植保所站,,42,30,26,29,16,117,,182,172,5,5,4,3,0.2,0.4
2024-07-31T2200,2594A,99.1678,25.1081,保山市,市环境监测站,,27,27,28,11,14,60,,93,90,10,10,6,7,0.5,0.5
2024-07-31T2200,2595A,99.1711,25.1328,保山市,市环保局,颗粒物(PM10),56,62,32,14,12,74,,102,99,5,7,6,6,0.3,0.3
2024-07-31T2200,1866A,109.2262,21.588,北海市,牛尾岭水库,,,,,,,,,,,,,,,,
2024-07-31T2200,1867A,109.1436,21.4086,北海市,海滩公园,,36,36,37,3,6,51,,49,49,3,4,3,3,0.5,0.4
2024-07-31T2200,1868A,109.0981,21.4661,北海市,新市环保局,,26,26,16,12,6,53,,50,50,2,3,2,2,0.6,0.6
2024-07-31T2200,1869A,109.1778,21.5233,北海市,北海工业园,,29,29,17,10,7,50,,46,46,4,5,4,4,0.5,0.4
2024-07-31T2200,3400A,109.1911,21.4415,北海市,龙潭自来水厂,,23,23,14,11,7,51,,49,49,2,3,8,6,0.5,0.5
2024-07-31T2200,1001A,116.3621,39.8784,北京市,万寿西宫,,27,19,20,15,18,84,,131,119,20,10,3,3,0.9,0.7
2024-07-31T2200,1002A,116.2202,40.2915,北京市,定陵,,29,29,23,14,10,36,,118,92,5,6,3,3,0.5,0.5
2024-07-31T2200,1003A,116.4174,39.9289,北京市,东四,,27,22,22,17,20,85,,138,120,19,12,1,1,1.0,0.9
2024-07-31T2200,1004A,116.4072,39.8863,北京市,天坛,,23,16,22,16,18,32,,129,105,14,10,3,3,0.7,0.6
2024-07-31T2200,1005A,116.462,39.9365,北京市,农展馆,,22,22,22,15,16,52,,139,113,30,11,3,3,0.8,0.6
2024-07-31T2200,1006A,116.3392,39.9295,北京市,官园,,28,14,17,12,14,88,,144,126,14,12,2,3,0.6,0.6
2024-07-31T2200,1007A,116.2878,39.9611,北京市,海淀万柳,,23,15,16,11,12,71,,125,108,21,10,1,2,0.7,0.6
2024-07-31T2200,1008A,116.6636,40.135,北京市,顺义新城,,25,11,19,11,12,77,,138,119,18,11,3,3,0.5,0.5
2024-07-31T2200,1009A,116.6275,40.3275,北京市,怀柔镇,,30,,12,10,11,93,,127,122,13,3,3,3,0.4,0.4
2024-07-31T2200,1010A,116.2296,40.217,北京市,昌平镇,颗粒物(PM10),70,89,19,15,13,44,,104,84,23,12,5,4,0.5,0.5
2024-07-31T2200,1011A,116.3966,39.9821,北京市,奥体中心,,20,16,19,10,13,61,,130,112,27,20,3,2,0.8,0.5
2024-07-31T2200,1012A,116.184,39.9136,北京市,古城,,28,7,18,7,12,88,,122,106,8,13,3,3,0.2,0.3
2024-07-31T2200,3281A,115.9718,40.4529,北京市,延庆夏都,,30,14,9,10,6,93,,114,110,6,7,3,3,0.4,0.4
2024-07-31T2200,3417A,117.0709,40.1465,北京市,平谷新城,,,25,21,18,18,100,,119,114,7,6,,5,0.6,0.5
2024-07-31T2200,3418A,116.8336,40.4095,北京市,密云新城,,35,6,27,3,11,111,,138,135,2,6,3,3,0.4,0.4
2024-07-31T2200,3671A,116.088,39.9726,北京市,门头沟三家店,,,,,,,,,,,,,,,,
2024-07-31T2200,3672A,116.1541,39.8204,北京市,丰台云岗,,12,7,22,3,15,36,,100,71,15,7,2,2,0.4,0.5
2024-07-31T2200,3673A,116.6804,39.9081,北京市,通州东关,,30,27,31,21,18,88,,132,127,15,5,3,3,0.6,0.6
2024-07-31T2200,3674A,115.9577,39.7603,北京市,房山燕山,,16,15,17,11,14,45,,105,85,4,2,3,5,0.3,0.3
2024-07-31T2200,3675A,116.4672,39.7733,北京市,大兴旧宫,,25,18,25,14,18,78,,128,122,7,6,3,3,0.6,0.6
2024-07-31T2200,3694A,115.986,40.4563,北京市,延庆石河营,,26,13,10,10,6,83,,110,108,7,8,3,3,0.4,0.4
2024-07-31T2200,3695A,116.6151,40.3053,北京市,怀柔新城,,30,8,14,7,11,94,,124,120,10,6,3,3,0.5,0.5
2024-07-31T2200,3696A,116.2545,39.8768,北京市,丰台小屯,,24,17,23,15,17,75,,125,97,11,7,5,5,0.5,0.5
2024-07-31T2200,3697A,116.84,40.3844,北京市,密云镇,,33,8,19,3,14,103,,129,126,4,5,3,3,0.5,0.6
2024-07-31T2200,1761A,123.8275,41.3064,本溪市,大峪,,30,8,11,3,8,95,,101,83,5,7,5,5,0.5,0.5
2024-07-31T2200,1762A,123.7567,41.3325,本溪市,溪湖,,25,13,16,3,6,78,,92,66,8,10,6,7,0.6,0.8
2024-07-31T2200,1763A,123.7169,41.3094,本溪市,彩屯,,30,30,26,12,13,47,,68,47,34,25,7,7,2.5,2.6
2024-07-31T2200,1764A,123.7669,41.2864,本溪市,东明,,27,13,18,3,8,84,,96,72,7,7,4,4,0.5,0.4
2024-07-31T2200,1765A,123.7992,41.2664,本溪市,新立屯,,27,6,15,3,4,84,,87,73,6,5,2,3,0.5,0.5
2024-07-31T2200,1766A,123.8142,41.3472,本溪市,威宁,,23,15,14,7,7,72,,84,74,12,9,8,8,0.4,0.5
2024-07-31T2200,2587A,105.2864,27.3125,毕节市,八中,,30,30,27,20,20,58,,106,88,20,16,10,6,0.5,0.5
2024-07-31T2200,2588A,105.31,27.2944,毕节市,师专,,32,27,27,22,21,56,,97,81,19,14,17,9,0.5,0.6
2024-07-31T2200,3537A,105.3631,27.3533,毕节市,长征村,,45,42,39,31,28,61,,115,98,18,11,15,6,0.6,0.6
2024-07-31T2200,1629A,118.0018,37.3617,滨州市,第二水厂,,29,29,24,7,10,66,,105,91,11,6,1,2,0.6,0.6
2024-07-31T2200,1630A,117.9776,37.393,滨州市,北中新校,,25,24,26,7,10,79,,108,98,8,6,3,4,0.3,0.3
2024-07-31T2200,3514A,117.9378,37.3956,滨州市,中海酒店,,27,27,27,9,12,84,,109,,13,11,8,5,0.6,0.6
2024-07-31T2200,3515A,117.9378,37.3553,滨州市,开发区一中,,27,27,26,12,11,75,,112,97,17,14,4,5,0.5,0.5
2024-07-31T2200,3516A,118.0917,37.694,滨州市,金海六路,,34,34,26,17,7,66,,99,81,18,12,2,3,0.3,0.3
2024-07-31T2200,4028A,117.9956,37.3753,滨州市,滨州市西街道办事处,,27,24,23,12,11,85,,118,107,8,6,2,3,0.4,0.4
2024-07-31T2200,2311A,115.8072,33.8399,亳州市,污水处理厂,,20,16,17,13,11,64,,99,81,11,9,1,3,0.7,0.5
2024-07-31T2200,2312A,115.7789,33.8518,亳州市,三国揽胜宫,,24,17,20,6,4,74,,103,88,7,6,3,3,0.6,0.5
2024-07-31T2200,3332A,115.7633,33.8034,亳州市,亳州学院,,21,,11,14,13,65,,102,81,8,8,2,4,0.5,0.4
2024-07-31T2200,2693A,82.0485,44.8556,博尔塔拉蒙古自治州,市党校,,,30,25,11,10,,,117,117,14,8,8,8,0.4,0.3
2024-07-31T2200,2694A,82.0806,44.8969,博尔塔拉蒙古自治州,市环保局,,35,26,27,12,13,110,,127,125,14,10,8,7,0.3,0.3
2024-07-31T2200,1071A,116.8842,38.2991,沧州市,沧县城建局,,25,25,22,16,10,69,,115,106,16,6,2,2,0.1,0
2024-07-31T2200,1072A,116.8584,38.3254,沧州市,电视转播站,,28,27,23,14,11,87,,117,112,9,6,3,3,0.2,0.2
2024-07-31T2200,1073A,116.8709,38.3228,沧州市,市环保局,,27,25,24,16,13,84,,120,112,10,6,3,3,0.3,0.3
2024-07-31T2200,3324A,116.8136,38.3004,沧州市,河北水利电力学院,,29,29,20,10,9,62,,108,97,20,8,6,6,0.3,0.2
2024-07-31T2200,2622A,97.1806,31.1273,昌都市,昌都监测站,,25,25,17,14,9,63,,116,105,26,12,9,9,0.7,0.5
2024-07-31T2200,3719A,97.1714,31.1406,昌都市,昌都会议中心,,26,22,17,12,9,83,,136,127,14,5,7,7,0.4,0.4
2024-07-31T2200,2690A,88.1236,43.8886,昌吉回族自治州,天山天池,,21,18,40,9,12,66,,108,100,5,7,11,13,0.5,0.6
2024-07-31T2200,2692A,87.2717,44.0297,昌吉回族自治州,新区政务中心,,28,20,65,13,18,89,,101,98,16,13,7,8,0.5,0.5
2024-07-31T2200,3613A,87.3095,44.0142,昌吉回族自治州,亚心广场,,28,27,61,3,15,89,,110,107,29,20,8,9,0.3,0.3
2024-07-31T2200,1119A,125.3325,43.9166,长春市,食品厂,,18,,20,8,12,55,,66,65,9,14,1,2,0.4,0.5
2024-07-31T2200,1120A,125.2863,43.9027,长春市,客车厂,,18,8,19,8,12,57,,73,70,8,10,1,1,0.2,0.3
2024-07-31T2200,1121A,125.2841,43.8463,长春市,邮电学院,,16,13,20,8,10,50,,64,62,8,10,6,6,0.3,0.4
2024-07-31T2200,1122A,125.3716,43.8772,长春市,劳动公园,,18,,20,6,10,57,,68,66,7,11,7,5,0.5,0.6
2024-07-31T2200,1123A,125.3297,43.8805,长春市,园林处,,17,8,18,7,9,52,,72,68,7,11,3,2,0.4,0.5
2024-07-31T2200,1124A,125.4605,43.79,长春市,净月潭,,16,,16,6,8,50,,56,54,2,2,5,4,0.3,0.4
2024-07-31T2200,1125A,125.7194,43.515,长春市,甩湾子,,,,,,,,,,,,,,,,
2024-07-31T2200,1126A,125.3863,43.8447,长春市,经开区环卫处,,17,6,20,6,8,52,,64,62,8,14,1,1,0.4,0.5
2024-07-31T2200,1127A,125.245,43.7783,长春市,高新区管委会,,17,14,17,3,9,53,,72,68,6,8,2,2,0.4,0.5
2024-07-31T2200,1128A,125.1761,43.8325,长春市,岱山公园,,16,9,18,9,11,49,,68,64,9,8,2,2,0.3,0.4
2024-07-31T2200,1335A,113.0833,28.2325,长沙市,经开区环保局,,23,23,19,7,8,50,,80,72,11,10,6,8,0.3,0.3
2024-07-31T2200,1336A,112.8872,28.2189,长沙市,高开区环保局,,22,21,23,7,10,68,,110,96,12,14,7,8,0.6,0.6
2024-07-31T2200,1337A,113.0792,28.2053,长沙市,马坡岭,,,19,19,13,9,,,86,83,11,9,3,3,0.5,0.5
2024-07-31T2200,1338A,112.9394,28.19,长沙市,湖南师范大学,,39,39,25,11,11,57,,95,88,11,10,6,6,0.5,0.7
2024-07-31T2200,1339A,113.0178,28.1322,长沙市,雨花区环保局,,18,18,19,3,9,57,,85,79,8,8,4,3,0.2,0.2
2024-07-31T2200,1340A,112.9792,28.2597,长沙市,伍家岭,,20,19,21,3,12,61,,95,85,9,11,3,3,0.6,0.5
2024-07-31T2200,1341A,113.0014,28.1944,长沙市,火车新站,,20,20,21,9,9,61,,84,79,8,10,4,5,0.3,0.3
2024-07-31T2200,1342A,112.9844,28.1178,长沙市,天心区环保局,,16,16,18,9,9,49,,77,70,10,9,3,4,1.0,0.9
2024-07-31T2200,1343A,112.8908,28.1308,长沙市,湖南中医药大学,,,20,24,10,12,,,112,96,13,15,6,7,0.6,0.7
2024-07-31T2200,1344A,112.9581,28.3611,长沙市,沙坪,,20,15,16,13,8,63,,98,89,12,11,7,8,0.5,0.5
2024-07-31T2200,1727A,113.1147,36.1547,长治市,清华站,,39,39,20,14,9,105,,136,130,9,7,6,4,0.6,0.5
2024-07-31T2200,1728A,113.1031,36.1989,长治市,监测站,,34,34,22,17,9,94,,134,124,14,12,6,6,1.0,0.9
2024-07-31T2200,1730A,113.0886,36.2125,长治市,审计局,,39,39,22,19,11,92,,126,118,12,9,3,3,0.7,0.6
2024-07-31T2200,1731A,113.0844,36.1856,长治市,长治八中,,42,42,24,23,13,97,,128,120,13,11,5,5,0.7,0.6
2024-07-31T2200,2845A,113.1569,36.1911,长治市,德盛苑,,33,30,20,14,10,103,,133,125,7,6,8,8,0.9,0.8
2024-07-31T2200,3568A,113.06,36.0464,长治市,向阳小学,颗粒物(PM10),51,52,43,27,25,100,,128,122,11,11,12,12,1.1,0.9
2024-07-31T2200,3569A,112.8792,36.3144,长治市,屯留一中,,41,41,37,19,17,108,,144,136,12,10,8,8,0.4,0.5
2024-07-31T2200,3570A,113.235,36.3489,长治市,潞城四中,,39,32,25,21,15,124,,150,142,7,7,4,4,0.6,0.6
2024-07-31T2200,1854A,111.6975,28.9703,常德市,市二中,,15,10,15,3,8,47,,77,56,2,6,5,7,0.6,0.7
2024-07-31T2200,1857A,111.7158,29.1456,常德市,白鹤山,,,,,,,,,,,,,,,,
2024-07-31T2200,3138A,111.7153,29.0289,常德市,武陵区永安,,11,10,16,3,8,34,,86,56,7,8,7,8,0.4,0.5
2024-07-31T2200,3139A,111.6892,28.9881,常德市,鼎城区玉霞,,14,10,18,9,14,43,,75,55,3,8,5,5,0.4,0.4
2024-07-31T2200,3140A,111.6625,29.0531,常德市,武陵区长庚,,15,6,16,6,10,46,,78,57,5,7,5,6,0.4,0.4
2024-07-31T2200,1196A,119.9633,31.762,常州市,市监测站,,39,,37,18,13,124,,137,128,16,12,5,6,0.4,0.4
2024-07-31T2200,1200A,119.9468,31.7069,常州市,武进监测站,,39,28,25,18,14,124,,141,128,9,8,1,8,0.6,0.6
2024-07-31T2200,1201A,119.9255,31.9087,常州市,安家,,38,38,33,19,13,14,,108,71,63,18,7,7,0.4,0.4
2024-07-31T2200,3002A,119.9805,31.8174,常州市,行政中心,,,,23,23,15,107,,112,109,16,11,11,2,,0.5
2024-07-31T2200,3003A,120.0522,31.7748,常州市,经开区,,36,31,30,20,14,113,,127,117,13,9,10,10,1.1,0.9
2024-07-31T2200,3010A,119.9025,31.7964,常州市,钟楼,,,,29,,8,,,82,,,12,,6,,0.3
2024-07-31T2200,3429A,119.8598,31.7066,常州市,武进经发区,,49,49,32,27,19,83,,114,107,33,12,17,8,0.5,0.4
2024-07-31T2200,3430A,119.5826,31.7245,常州市,金坛城区,,38,24,25,16,15,120,,111,111,12,10,6,6,0.5,0.5
2024-07-31T2200,2220A,120.4318,41.5881,朝阳市,西梁,,29,24,24,15,14,90,,92,92,6,6,7,7,0.7,0.7
2024-07-31T2200,2221A,120.4521,41.5646,朝阳市,河畔小区,,33,,20,13,13,103,,105,105,4,4,6,6,0.7,0.7
2024-07-31T2200,2222A,120.4176,41.5648,朝阳市,八里堡,,,35,45,,25,70,,82,80,10,7,1,1,0.8,0.7
2024-07-31T2200,2223A,120.3806,41.5969,朝阳市,农业园区,,29,23,22,20,15,65,,83,81,11,6,6,6,0.9,0.9
2024-07-31T2200,1705A,116.6367,23.6719,潮州市,西园路,,25,25,19,6,9,28,,58,49,14,13,2,4,0.5,0.5
2024-07-31T2200,3026A,116.6183,23.6608,潮州市,市政府,,28,28,15,10,8,30,,62,49,11,9,4,6,0.7,0.6
2024-07-31T2200,4036A,116.6461,23.6761,潮州市,金山,,20,20,16,8,11,30,,65,53,11,10,4,5,0.7,0.6
2024-07-31T2200,2472A,113.0073,25.9061,郴州市,马头岭,,20,13,18,7,7,62,,64,63,3,4,7,8,0.3,0.3
2024-07-31T2200,2473A,113.0116,25.8226,郴州市,市职中,,19,10,7,6,4,59,,64,62,5,4,7,9,0.5,0.5
2024-07-31T2200,2474A,113.0161,25.8001,郴州市,兴隆步行街,,19,19,13,11,6,60,,63,62,6,6,10,14,0.4,0.5
2024-07-31T2200,2475A,113.0383,25.8071,郴州市,市审计局,,19,16,7,12,5,60,,62,60,5,5,9,12,0.4,0.3
2024-07-31T2200,2476A,113.0348,25.7759,郴州市,市环保局,,20,15,9,11,6,61,,63,62,8,7,11,14,0.4,0.4
2024-07-31T2200,1431A,103.9728,30.7236,成都市,金泉两河,,35,33,37,24,20,78,,171,149,24,17,2,3,0.6,0.5
2024-07-31T2200,1432A,104.176,30.6872,成都市,十里店,,42,37,30,29,16,96,,142,127,16,18,3,3,0.6,0.6
2024-07-31T2200,1433A,104.079,30.5706,成都市,三瓦窑,,41,41,30,20,21,54,,143,120,50,26,2,2,0.7,0.6
2024-07-31T2200,1434A,104.1114,30.63,成都市,沙河铺,,42,42,32,25,16,74,,148,130,18,18,4,4,0.6,0.7
2024-07-31T2200,1437A,104.0786,30.6531,成都市,君平街,,36,36,33,11,16,113,,165,150,20,18,4,5,0.6,0.6
2024-07-31T2200,1438A,103.613,31.0283,成都市,灵岩寺,,,,,,,,,,,,,,,,
2024-07-31T2200,2880A,104.0239,30.65639,成都市,大石西路,,38,33,31,26,17,97,,152,136,24,20,4,4,0.6,0.5
2024-07-31T2200,3136A,104.2725,30.5589,成都市,龙泉驿区区政府,,30,29,18,19,11,95,,135,124,10,6,4,4,0.7,0.5
2024-07-31T2200,3357A,104.0106,30.6931,成都市,金博路,,32,30,27,22,17,97,,152,134,15,17,3,3,0.4,0.4
2024-07-31T2200,3359A,104.0578,30.5225,成都市,华阳,,39,31,27,27,22,79,,140,125,17,10,3,3,0.6,0.6
2024-07-31T2200,3487A,104.2394,30.5319,成都市,车城东七路,,45,45,34,30,24,103,,141,136,23,10,3,3,0.7,0.6
2024-07-31T2200,3488A,104.3853,30.7453,成都市,青白江技师分院,,43,19,19,7,11,136,,153,147,16,15,2,3,0.5,0.5
2024-07-31T2200,3489A,104.0789,30.4072,成都市,科学城,,38,38,30,26,21,73,,138,124,20,11,4,4,0.5,0.6
2024-07-31T2200,4011A,103.8506,30.6947,成都市,光华大道三段,,39,39,45,27,22,116,,165,159,18,12,4,5,0.6,0.6
2024-07-31T2200,1062A,117.9531,40.9081,承德市,铁路,,28,,11,3,8,88,,97,90,22,16,8,8,0.3,0.5
2024-07-31T2200,1063A,117.9392,40.9763,承德市,中国银行,,27,18,14,3,7,85,,106,96,13,12,3,4,0.2,0.4
2024-07-31T2200,1064A,117.9503,40.928,承德市,开发区,,31,11,16,11,8,97,,104,98,8,11,7,9,0.3,0.5
2024-07-31T2200,1065A,117.8051,40.9655,承德市,文化中心,,29,11,15,3,6,91,,107,98,8,10,4,10,0.2,0.3
2024-07-31T2200,1066A,117.9268,41.0026,承德市,离宫,,30,,16,21,12,64,,93,70,3,2,2,7,0,0.2
2024-07-31T2200,2314A,117.47,30.6618,池州市,池州学院,,23,22,20,16,14,46,,85,72,8,6,3,4,0.3,0.6
2024-07-31T2200,3237A,117.4918,30.6617,池州市,展览馆,,25,25,23,12,11,45,,85,69,9,6,3,4,0.4,0.7
2024-07-31T2200,3333A,117.5627,30.695,池州市,第八中学,,25,25,23,17,14,44,,87,72,12,10,3,4,0.2,0.5
2024-07-31T2200,3334A,117.5038,30.6243,池州市,第十二中学,,26,26,24,13,12,33,,84,64,16,11,3,4,0.3,0.9
2024-07-31T2200,1744A,118.9233,42.2816,赤峰市,松山一中,,,21,8,,2,68,,75,70,14,13,8,8,0.5,0.6
2024-07-31T2200,1745A,118.9576,42.2728,赤峰市,哈达街,,22,22,14,12,4,64,,82,74,11,9,13,12,0.5,0.6
2024-07-31T2200,1746A,118.8788,42.2554,赤峰市,天义路,,23,16,13,6,5,73,,86,80,13,12,6,6,0.4,0.5
2024-07-31T2200,3058A,119.2658,42.0353,赤峰市,银河街,,21,12,10,3,8,65,,99,90,20,12,12,12,0.4,0.5
2024-07-31T2200,3286A,118.9359,42.3147,赤峰市,桥北物流园区,,31,31,10,11,6,61,,76,66,14,13,6,7,0.6,0.7
2024-07-31T2200,2521A,107.3476,22.4136,崇左市,市环保局江州分局,,16,16,16,7,6,19,,46,40,13,7,5,6,0.5,0.5
2024-07-31T2200,2522A,107.3702,22.3707,崇左市,城南新区,,10,6,12,3,5,29,,44,39,6,5,3,4,0.4,0.4
2024-07-31T2200,2298A,118.3093,32.3153,滁州市,老年大学,,28,21,23,15,15,88,,107,100,3,4,8,8,0.3,0.3
2024-07-31T2200,2299A,118.3244,32.2786,滁州市,人大宾馆,,35,35,29,20,18,75,,106,99,11,8,7,6,0.5,0.5
2024-07-31T2200,3207A,118.3118,32.3038,滁州市,市政府原办公楼,,25,20,19,16,16,79,,102,95,7,6,7,7,0.7,0.6
2024-07-31T2200,3331A,118.3267,32.2634,滁州市,图书馆,,30,30,28,18,18,79,,100,96,6,6,5,5,0.6,0.7
2024-07-31T2200,2605A,101.5482,25.0441,楚雄彝族自治州,州环境监测站,,24,19,16,14,11,75,,99,95,6,10,4,4,0.7,0.8
2024-07-31T2200,2606A,101.538,25.0492,楚雄彝族自治州,市经济开发区,,34,34,18,19,12,70,,99,93,7,11,6,5,0.7,0.7
2024-07-31T2200,2548A,107.5277,31.2827,达州市,达州职业技术学院,,30,30,19,9,7,17,,68,59,36,16,4,4,0.6,0.6
2024-07-31T2200,2549A,107.5086,31.2186,达州市,市环境监测站,,22,22,20,3,1,39,,86,78,27,19,6,6,0.5,0.5
2024-07-31T2200,2550A,107.4988,31.2132,达州市,凤凰小区,,24,24,13,7,4,55,,103,94,18,13,6,6,0.5,0.5
2024-07-31T2200,2551A,107.5082,31.1986,达州市,达县机关宾馆,,19,19,13,3,4,35,,96,85,32,18,4,4,0.4,0.4
2024-07-31T2200,2552A,107.4644,31.2124,达州市,市政中心,,25,25,24,3,3,51,,109,100,25,14,7,8,0.5,0.6
2024-07-31T2200,2614A,100.1542,25.7054,大理白族自治州,大理市环境监测站,,32,21,26,19,20,102,,113,113,13,18,6,4,0.4,0.6
2024-07-31T2200,2615A,100.2171,25.5811,大理白族自治州,大理古城,,24,24,18,16,9,75,,118,108,38,13,6,7,0.5,0.5
2024-07-31T2200,1109A,121.612,38.9741,大连市,甘井子,,42,35,25,21,16,132,,140,136,10,12,7,7,0.4,0.4
2024-07-31T2200,1110A,121.565,38.9511,大连市,周水子,,38,31,29,23,19,119,,123,121,12,16,6,8,0.5,0.5
2024-07-31T2200,1111A,121.5637,38.8845,大连市,星海三站,,42,34,27,22,17,133,,146,144,6,7,7,7,0.5,0.5
2024-07-31T2200,1112A,121.6302,38.9117,大连市,青泥洼桥,,39,35,27,26,19,122,,139,132,3,4,7,7,0.7,0.7
2024-07-31T2200,1113A,121.6251,38.8638,大连市,傅家庄,,44,35,28,22,18,138,,152,150,6,8,5,5,0.5,0.5
2024-07-31T2200,1114A,121.5213,38.8661,大连市,七贤岭,,43,39,26,20,16,137,,149,146,8,10,6,7,0.4,0.4
2024-07-31T2200,1115A,121.2529,38.8061,大连市,旅顺,,45,33,22,22,22,144,,160,152,11,11,8,8,0.4,0.4
2024-07-31T2200,1116A,121.7485,39.1311,大连市,金州,,36,27,22,24,17,114,,109,109,14,12,7,7,0.5,0.5
2024-07-31T2200,1117A,121.7811,39.0496,大连市,开发区,,45,32,28,21,15,141,,142,142,7,9,3,5,0.4,0.3
2024-07-31T2200,1118A,121.9762,39.0631,大连市,双D港,,42,42,33,19,12,125,,117,116,10,11,5,5,0.6,0.5
2024-07-31T2200,1789A,124.81117,46.03138,大庆市,大同区,,16,6,14,6,15,50,,65,56,4,6,8,8,0.4,0.5
2024-07-31T2200,1790A,125.129,46.533,大庆市,龙凤区,,20,12,22,9,12,61,,73,67,4,8,4,5,0.4,0.5
2024-07-31T2200,1791A,124.902,46.408,大庆市,红岗区,,20,13,21,10,16,61,,77,70,7,7,7,6,0.4,0.5
2024-07-31T2200,1792A,125.153,46.586,大庆市,萨尔图区,,,10,20,3,12,,,71,69,4,7,5,5,0.3,0.4
2024-07-31T2200,1793A,124.9042,46.6215,大庆市,让胡路区,,32,32,33,8,11,64,,75,72,5,9,7,6,0.2,0.3
2024-07-31T2200,3481A,125.141,46.634,大庆市,萨区政府监测点,,20,20,28,3,6,59,,73,69,4,7,6,7,0.1,0.2
2024-07-31T2200,1721A,113.3819,40.1097,大同市,果树场,,,,,,,,,,,,,,,,
2024-07-31T2200,1723A,113.2994,40.0758,大同市,云冈宾馆,,34,34,31,17,19,56,,110,96,33,19,8,9,0.7,0.7
2024-07-31T2200,1724A,113.3444,40.0917,大同市,大同大学,,27,27,21,17,14,53,,100,86,30,17,5,7,0.6,0.7
2024-07-31T2200,1725A,113.2661,40.1269,大同市,安家小村,,23,13,23,3,6,71,,106,94,18,14,9,9,0.4,0.7
2024-07-31T2200,1726A,113.2711,40.0844,大同市,教育学院,,46,46,34,16,17,46,,105,88,43,25,10,11,0.8,0.7
2024-07-31T2200,3282A,113.3397,40.0597,大同市,大同市卫生学校,,38,38,32,22,18,67,,111,96,35,20,7,8,1.1,1
2024-07-31T2200,3565A,113.1367,40.1122,大同市,云冈站,,19,19,22,11,13,37,,104,83,22,15,9,9,0.6,0.6
2024-07-31T2200,3566A,113.1186,40.2556,大同市,图书馆,,20,,22,14,10,40,,108,93,19,13,8,8,0.6,0.5
2024-07-31T2200,3567A,113.5931,40.0461,大同市,区一中,,33,33,26,10,15,56,,121,98,32,18,9,10,0.6,0.7
2024-07-31T2200,3676A,113.2802,40.0995,大同市,第二人民医院,,35,35,33,12,14,68,,113,99,23,18,10,11,0.6,0.7
2024-07-31T2200,2269A,124.1069,50.4097,大兴安岭地区,科技局,,23,22,22,10,10,73,,80,69,3,7,3,3,0.1,0.1
2024-07-31T2200,3663A,124.1164,50.4278,大兴安岭地区,红旗社区,,21,,9,12,10,67,,76,63,2,7,4,6,0.3,0.3
2024-07-31T2200,1600A,124.3303,40.0625,丹东市,江湾东路,,24,16,11,9,7,74,,103,63,2,3,2,2,0.5,0.5
2024-07-31T2200,1601A,124.4256,40.1503,丹东市,临江后街,,24,12,10,3,5,75,,109,67,1,2,1,1,0.4,0.5
2024-07-31T2200,1602A,124.3933,40.1461,丹东市,元宝山,,24,16,12,6,6,74,,104,59,2,2,2,2,0.2,0.3
2024-07-31T2200,1603A,124.3633,40.1092,丹东市,民主桥,,23,18,15,7,6,71,,106,61,2,3,1,2,0.3,0.3
2024-07-31T2200,3541A,109.5726,19.5167,儋州市,第一中学子站,,16,16,14,8,7,39,,40,39,2,2,6,7,0.4,0.5
2024-07-31T2200,3542A,109.5567,19.5187,儋州市,东坡学校子站,,13,13,14,7,7,41,,42,40,1,2,5,6,0.5,0.5
2024-07-31T2200,2616A,98.5842,24.428,德宏傣族景颇族自治州,德宏州监测站,,20,20,22,11,14,43,,73,71,7,12,7,26,0.8,0.8
2024-07-31T2200,3677A,98.5881,24.4368,德宏傣族景颇族自治州,芒市人民政府综合楼,,35,33,24,24,16,37,,65,64,9,11,10,27,0.8,0.7
2024-07-31T2200,1901A,104.4239,31.1208,德阳市,东山公园,,37,29,28,14,11,118,,169,163,6,7,2,3,0.6,0.6
2024-07-31T2200,1902A,104.3826,31.1317,德阳市,西小区,,35,25,27,17,15,112,,183,173,15,16,2,3,0.5,0.6
2024-07-31T2200,1904A,104.3553,31.1091,德阳市,耐火材料厂,,34,26,30,20,16,107,,198,180,18,15,3,4,0.6,0.6
2024-07-31T2200,3639A,104.4019,31.1244,德阳市,市教育局,,34,32,28,17,13,107,,173,163,18,20,2,3,0.6,0.6
2024-07-31T2200,1622A,116.3032,37.4674,德州市,儿童乐园,,28,22,19,3,8,87,,103,101,9,7,7,8,0.6,0.6
2024-07-31T2200,1624A,116.2991,37.4451,德州市,监理站,,27,12,14,3,6,86,,105,102,13,11,11,12,0.5,0.5
2024-07-31T2200,3066A,116.2721,37.4379,德州市,九衢泉纯净水厂,,27,19,20,7,8,86,,103,100,8,7,8,8,0.6,0.6
2024-07-31T2200,3371A,116.3728,37.4403,德州市,开发区人民医院,,27,19,21,3,6,86,,108,105,10,7,7,8,0.6,0.6
2024-07-31T2200,3372A,116.3572,37.4094,德州市,太阳城中学,,26,17,20,3,8,83,,104,101,14,8,7,8,0.6,0.6
2024-07-31T2200,3511A,116.5652,37.3319,德州市,陵城艺术中心,,25,17,20,3,6,79,,100,92,16,11,4,5,0.5,0.5
2024-07-31T2200,2621A,99.7056,27.8317,迪庆藏族自治州,迪庆州站,,30,25,27,11,12,95,,125,114,13,12,8,13,0.5,0.4
2024-07-31T2200,3180A,99.7136,27.8094,迪庆藏族自治州,质量技术监督局,,28,26,22,14,9,88,,121,109,15,13,8,8,0.5,0.5
2024-07-31T2200,2663A,104.6241,35.5734,定西市,东关小学,颗粒物(PM10),55,59,36,20,15,99,,161,148,23,12,8,9,0.4,0.3
2024-07-31T2200,2664A,104.6194,35.5934,定西市,供电公司,,37,37,30,22,20,115,,157,145,12,23,5,6,0.2,0.2
2024-07-31T2200,1389A,113.7547,23.0494,东莞市,莞城梨川,,27,27,17,12,9,31,,49,47,18,23,9,9,0.6,0.6
2024-07-31T2200,1390A,113.7944,23.0128,东莞市,东城石井,,32,32,19,13,8,19,,50,48,21,21,5,5,0.7,0.7
2024-07-31T2200,1391A,113.7383,22.9658,东莞市,南城西平,,30,30,20,13,10,47,,50,50,6,21,5,3,0.6,0.7
2024-07-31T2200,3319A,113.7338,23.0381,东莞市,万江金泰,,36,36,19,18,9,40,,50,49,10,18,4,4,0.8,0.8
2024-07-31T2200,3626A,113.7533,23.0202,东莞市,南城元岭,,27,27,19,12,10,38,,44,42,7,18,5,5,0.6,0.7
2024-07-31T2200,3627A,113.7875,23.0457,东莞市,东城主山,,28,28,17,14,10,16,,45,40,24,19,6,6,0.8,0.8
2024-07-31T2200,1666A,118.6614,37.4309,东营市,市环保局,,26,22,29,14,14,82,,112,102,10,12,4,4,0.1,0.2
2024-07-31T2200,3036A,118.6904,37.4338,东营市,开发区管委会,,32,26,34,7,14,101,,128,120,14,14,10,9,0.2,0.2
2024-07-31T2200,3365A,118.5719,37.565,东营市,垦利区民丰路,,36,36,29,9,11,75,,120,110,20,9,6,6,0.3,0.3
2024-07-31T2200,3498A,118.5055,37.8612,东营市,河口城区,,29,29,27,12,10,87,,123,103,13,13,4,5,0.4,0.4
2024-07-31T2200,3646A,118.4978,37.4623,东营市,胜利站,,24,23,28,12,11,75,,111,99,15,12,2,2,0.7,0.7
2024-07-31T2200,3734A,118.35,37.26,东营市,理想之城,,,34,31,19,15,,,110,103,14,10,2,7,0.5,0.6
2024-07-31T2200,1591A,110.0023,39.8129,鄂尔多斯市,综合楼,,41,41,28,12,10,111,,136,131,24,13,11,9,0.6,0.6
2024-07-31T2200,1592A,109.9486,39.8261,鄂尔多斯市,巴音孟克林场办事处,,44,44,26,12,13,69,,123,113,44,12,8,6,0.8,0.8
2024-07-31T2200,1593A,109.7736,39.5986,鄂尔多斯市,康泽苑,,27,27,17,7,9,72,,136,126,29,8,5,5,0.5,0.4
2024-07-31T2200,1594A,109.8119,39.5989,鄂尔多斯市,华泰汽车城,,,27,19,12,12,,,124,121,53,14,9,9,0.6,0.4
2024-07-31T2200,1595A,109.9734,39.7884,鄂尔多斯市,奥林花园,,34,34,23,14,13,59,,127,116,31,14,6,6,0.6,0.6
2024-07-31T2200,2436A,114.8938,30.3994,鄂州市,市政府,,23,16,42,3,12,72,,114,91,5,14,6,9,0.7,0.9
2024-07-31T2200,2437A,114.8989,30.3714,鄂州市,赵家坝,,25,25,32,3,9,67,,107,84,2,10,7,9,0.4,0.6
2024-07-31T2200,3654A,114.8094,30.4089,鄂州市,精准医疗中心,,17,11,25,3,9,52,,89,75,4,10,4,6,0.6,0.6
2024-07-31T2200,2454A,109.4978,30.2981,恩施土家族苗族自治州,湖北民院,,,20,15,10,6,,,58,55,21,10,7,7,0.7,0.4
2024-07-31T2200,2455A,109.4707,30.2798,恩施土家族苗族自治州,州电力总公司,,25,25,13,14,8,12,,54,47,17,13,5,5,0.7,0.6
2024-07-31T2200,3549A,109.5061,30.3772,恩施土家族苗族自治州,龙凤新区,,18,18,12,9,14,8,,41,34,16,15,6,6,0.6,0.6
2024-07-31T2200,2499A,108.3411,21.6158,防城港市,沙万,,14,8,9,3,3,43,,33,32,6,13,8,9,0.5,0.5
2024-07-31T2200,2500A,108.3514,21.7731,防城港市,防城档案局,,12,9,8,3,4,36,,34,34,2,8,5,6,0.5,0.7
2024-07-31T2200,2501A,108.3506,21.6414,防城港市,大海花园,,,,10,7,5,48,,37,37,3,9,5,6,0.5,0.5
2024-07-31T2200,1371A,113.1294,23.0067,佛山市,湾梁,,22,22,8,12,11,40,,61,56,14,18,7,7,0.6,0.6
2024-07-31T2200,1372A,113.1083,23.0478,佛山市,华材职中,,19,19,11,9,7,37,,60,53,14,16,6,6,0.4,0.4
2024-07-31T2200,1373A,113.144,23.0453,佛山市,南海气象局,,24,24,15,9,8,33,,57,52,14,14,7,7,0.6,0.5
2024-07-31T2200,1374A,113.2881,22.8094,佛山市,顺德苏岗,,27,27,11,12,5,35,,52,51,12,13,6,6,0.6,0.6
2024-07-31T2200,1376A,112.8383,22.8678,佛山市,高明孔堂,,24,24,15,10,7,49,,49,49,3,6,6,6,0.7,0.7
2024-07-31T2200,1377A,112.8836,23.1588,佛山市,三水监测站,,19,19,11,13,9,30,,58,42,20,21,6,6,0.6,0.6
2024-07-31T2200,1378A,112.867,23.185,佛山市,三水云东海,,,,14,,9,,,31,,,23,,4,,0.6
2024-07-31T2200,3625A,113.2544,22.7642,佛山市,容桂街道办,,29,29,11,12,6,26,,47,46,22,17,6,5,0.8,0.7
2024-07-31T2200,1280A,119.3903,26.0543,福州市,鼓山,,,,,,,,,,,,,,,,
2024-07-31T2200,1282A,119.2681,26.0504,福州市,师大,,22,22,23,10,12,52,,80,72,11,10,4,4,0.4,0.4
2024-07-31T2200,1283A,119.2984,26.1028,福州市,五四北路,,22,22,24,8,10,44,,94,80,15,11,4,3,0.3,0.6
2024-07-31T2200,1284A,119.2648,26.0768,福州市,杨桥西路,,24,24,26,6,9,58,,91,81,13,10,3,3,0.3,0.5
2024-07-31T2200,1285A,119.317,26.0746,福州市,紫阳,,18,18,20,9,8,38,,75,66,13,12,4,4,0.3,0.3
2024-07-31T2200,3048A,119.5799,26.0936,福州市,九龙,,20,20,31,3,5,42,,63,60,4,5,6,5,0.3,0.3
2024-07-31T2200,3526A,119.5189,25.9664,福州市,吴航,,12,10,14,3,6,37,,70,65,5,4,6,4,0.4,0.4
2024-07-31T2200,1755A,123.7977,41.8491,抚顺市,望花区,,22,12,24,7,10,70,,82,71,9,12,7,7,0.3,0.4
2024-07-31T2200,1756A,123.9161,41.8822,抚顺市,顺城区,,17,,17,9,7,54,,87,65,13,11,5,3,0.6,0.4
2024-07-31T2200,1757A,124.0436,41.8611,抚顺市,东洲区,,20,6,14,3,6,63,,84,63,6,6,3,3,0.2,0.5
2024-07-31T2200,1758A,123.9247,41.8642,抚顺市,新抚区,,16,16,18,9,8,48,,79,61,16,11,3,3,0.8,0.4
2024-07-31T2200,1759A,124.0972,41.8961,抚顺市,大伙房水库,,21,6,16,3,8,67,,88,66,2,3,3,3,0.4,0.6
2024-07-31T2200,1760A,123.7086,41.8391,抚顺市,沈抚新城,,21,19,23,7,10,67,,80,67,7,7,1,1,0.3,0.3
2024-07-31T2200,2376A,116.2127,28.0814,抚州市,桐源党溪,,29,28,24,20,10,42,,54,50,2,5,5,5,0.5,0.5
2024-07-31T2200,2377A,116.3544,27.9831,抚州市,市站,,21,21,20,8,9,41,,53,48,5,4,5,6,0.7,0.8
2024-07-31T2200,2378A,116.3565,27.963,抚州市,血防站,,21,21,22,3,8,35,,49,44,8,7,1,3,1.1,1.1
2024-07-31T2200,2379A,116.3564,28.0007,抚州市,采茶剧团,,18,18,17,11,8,40,,50,46,4,4,5,6,0.7,0.7
2024-07-31T2200,2380A,116.385,27.9647,抚州市,医学分院,,14,14,20,6,7,40,,53,48,5,6,3,4,0.8,0.8
2024-07-31T2200,2207A,121.6094,41.998,阜新市,工业园区,,42,42,32,24,16,129,,127,127,9,9,5,4,0.8,0.7
2024-07-31T2200,2208A,121.6697,42.0279,阜新市,长青街,,40,35,35,19,19,128,,125,125,10,10,3,2,0.6,0.6
2024-07-31T2200,2209A,121.6673,42.0705,阜新市,农业园区,,40,33,35,19,23,128,,121,121,9,9,3,3,0.7,0.7
2024-07-31T2200,2210A,121.6717,42.0224,阜新市,东苑,,38,34,33,20,21,121,,120,120,11,10,4,3,0.8,0.8
2024-07-31T2200,2211A,121.6506,42.0498,阜新市,玉龙新城,,39,39,36,18,17,123,,121,121,9,9,3,2,0.7,0.7
2024-07-31T2200,2301A,115.8277,32.8929,阜阳市,市监测站,,21,17,23,13,9,66,,91,73,10,10,5,5,0.3,0.3
2024-07-31T2200,2303A,115.8554,32.8605,阜阳市,开发区,,19,19,16,9,8,57,,90,74,8,8,5,5,0.3,0.3
2024-07-31T2200,2875A,115.784,32.8892,阜阳市,阜阳职业技术学院,,18,18,20,9,7,57,,98,78,9,8,5,5,0.3,0.3
2024-07-31T2200,3468A,115.7901,32.8613,阜阳市,市规划展馆,,23,22,22,16,13,55,,95,76,12,9,5,5,0.4,0.4
2024-07-31T2200,3469A,115.836,32.9183,阜阳市,枣园社区,,22,20,21,14,12,68,,91,74,9,10,3,3,0.4,0.4
2024-07-31T2200,2669A,102.9099,34.9841,甘南藏族自治州,州政府,,33,30,32,19,16,104,,139,131,3,16,5,5,0.2,0.2
2024-07-31T2200,3380A,102.8914,34.9617,甘南藏族自治州,甘肃民族师范学院,,,94,36,3,8,45,,146,128,,25,4,3,0.4,0.3
2024-07-31T2200,2570A,101.9603,30.0475,甘孜藏族自治州,水桥子,,30,30,18,14,8,5,,104,79,53,16,5,4,0.5,0.3
2024-07-31T2200,3065A,101.9533,29.9972,甘孜藏族自治州,州环保局,,19,17,18,9,6,60,,107,90,16,17,2,2,0.4,0.2
2024-07-31T2200,3414A,115.8347,28.932,赣江新区,桑海产业园,,16,14,20,3,9,50,,69,64,11,20,12,12,0.5,0.4
2024-07-31T2200,2362A,114.9017,25.9149,赣州市,通天岩,,,,,,,,,,,,,,,,
2024-07-31T2200,2363A,114.9367,25.8664,赣州市,地委,,24,24,12,8,7,37,,54,47,6,6,10,11,0.6,0.6
2024-07-31T2200,2364A,114.9461,25.8481,赣州市,气象台,,,,13,,8,,,54,52,,6,,10,0.6,0.7
2024-07-31T2200,2365A,114.9322,25.8333,赣州市,市图书馆,,13,8,10,3,4,40,,56,49,3,4,3,3,0.9,0.8
2024-07-31T2200,2366A,114.8905,25.8471,赣州市,华坚鞋城,,14,14,15,3,6,36,,57,49,6,6,22,26,0.6,0.6
2024-07-31T2200,3109A,115.0093,25.8613,赣州市,赣县区卫计委,,14,12,14,8,6,43,,51,47,11,12,8,8,0.6,0.6
2024-07-31T2200,2683A,106.2319,36.1417,固原市,马园,,35,35,31,12,12,95,,137,120,23,25,6,6,0.5,0.5
2024-07-31T2200,2684A,106.2792,36.0022,固原市,监测站,,46,46,32,9,10,110,,138,121,13,17,5,6,0.4,0.4
2024-07-31T2200,2685A,106.2375,36.0211,固原市,新区,,32,25,31,11,12,100,,132,118,17,23,6,6,0.4,0.4
2024-07-31T2200,3522A,106.2177,35.9959,固原市,原州区十五小,,31,29,29,10,10,97,,134,121,19,10,6,6,0.7,0.6
2024-07-31T2200,2543A,106.6308,30.5278,广安市,小平旧居,,,,,,,,,,,,,,,,
2024-07-31T2200,2544A,106.6303,30.4576,广安市,市委,颗粒物(PM10),52,54,38,31,21,74,,138,131,32,13,4,3,0.7,0.5
2024-07-31T2200,2545A,106.6271,30.4663,广安市,友谊中学,,40,40,27,26,20,89,,127,122,28,16,5,5,0.6,0.5
2024-07-31T2200,2547A,106.6388,30.4551,广安市,广电花园,,45,40,33,31,20,96,,131,127,19,12,5,4,0.6,0.5
2024-07-31T2200,2902A,106.6351,30.4865,广安市,北辰小学,,42,36,32,29,22,101,,137,135,16,11,6,5,0.6,0.4
2024-07-31T2200,2523A,105.8945,32.4535,广元市,黑石坡,,28,28,17,7,7,89,,120,110,6,7,6,8,0.3,0.4
2024-07-31T2200,2524A,105.821,32.4444,广元市,老城,,39,39,26,15,16,79,,131,122,21,15,3,9,0.5,0.5
2024-07-31T2200,2526A,105.8628,32.4287,广元市,监测站,,26,26,25,14,13,79,,129,118,13,12,2,5,0.5,0.6
2024-07-31T2200,3617A,105.8047,32.4166,广元市,经开区,,33,32,39,23,26,98,,130,124,9,16,2,7,0.5,0.6
2024-07-31T2200,1345A,113.2347,23.1423,广州市,广雅中学,,32,32,18,19,9,32,,61,56,22,20,5,4,0.8,0.8
2024-07-31T2200,1346A,113.2612,23.105,广州市,市五中,,28,28,15,19,9,35,,63,60,19,17,4,4,0.7,0.6
2024-07-31T2200,1348A,113.3478,23.0916,广州市,广东商学院,,30,30,16,16,9,23,,53,52,30,24,4,4,0.6,0.6
2024-07-31T2200,1349A,113.4332,23.1047,广州市,市八十六中,,33,33,20,13,7,8,,45,40,47,29,3,4,0.5,0.5
2024-07-31T2200,1350A,113.3505,22.9483,广州市,番禺中学,,30,30,17,18,9,32,,60,58,23,19,3,2,0.6,0.5
2024-07-31T2200,1351A,113.2146,23.3916,广州市,花都师范,,30,30,20,17,11,26,,59,54,24,20,5,5,0.8,0.7
2024-07-31T2200,1352A,113.2597,23.1331,广州市,市监测站,,30,30,17,14,10,28,,58,54,24,20,4,4,0.7,0.6
2024-07-31T2200,1353A,113.5618,23.312,广州市,九龙镇镇龙,,36,36,21,18,13,17,,46,42,35,25,8,7,0.7,0.6
2024-07-31T2200,1354A,113.2765,23.1544,广州市,麓湖,,,33,19,14,10,24,,60,58,,19,4,4,0.6,0.5
2024-07-31T2200,1355A,113.443,23.3035,广州市,帽峰山森林公园,,28,28,14,7,6,20,,51,50,28,19,5,5,0.7,0.7
2024-07-31T2200,2846A,113.3221,23.1322,广州市,体育西,,31,31,18,17,10,22,,51,50,27,20,4,4,0.7,0.6
2024-07-31T2200,3298A,113.5717,23.5491,广州市,从化街口,,25,25,14,13,8,34,,63,57,19,14,6,6,0.6,0.5
2024-07-31T2200,3299A,113.3472,23.3692,广州市,白云竹料,,31,31,23,13,10,24,,56,53,32,25,5,4,0.7,0.6
2024-07-31T2200,3300A,113.2981,23.237,广州市,白云嘉禾,,,,18,,9,22,,55,53,37,27,,6,,0.7
2024-07-31T2200,3301A,113.4256,23.1716,广州市,黄埔科学城,,33,33,19,15,8,14,,49,46,43,29,7,7,0.6,0.5
2024-07-31T2200,3302A,113.3942,23.0483,广州市,番禺大学城,,19,18,11,13,7,24,,50,49,24,18,5,5,0.8,0.8
2024-07-31T2200,3303A,113.4922,22.8168,广州市,南沙黄阁,,29,29,14,20,10,35,,48,47,18,19,6,6,0.8,0.8
2024-07-31T2200,3304A,113.5342,22.7896,广州市,南沙街,,30,30,14,17,7,21,,44,41,21,16,6,6,0.6,0.6
2024-07-31T2200,3443A,113.2902,23.5544,广州市,花都梯面,,27,27,20,11,10,32,,65,58,23,19,4,4,0.7,0.6
2024-07-31T2200,3445A,113.7858,23.7478,广州市,从化良口,,17,17,15,6,5,22,,46,44,18,10,5,6,0.6,0.6
2024-07-31T2200,3446A,113.8051,23.2614,广州市,增城荔城,,34,34,22,17,10,12,,55,46,35,18,7,6,0.5,0.5
2024-07-31T2200,2505A,109.568,23.1478,贵港市,德智高中,,,,,,,,,,,,,,,,
2024-07-31T2200,2506A,109.6047,23.0666,贵港市,江南子站,,9,9,13,3,7,26,,35,31,8,8,7,8,0.5,0.5
2024-07-31T2200,2507A,109.6014,23.0948,贵港市,贵城子站,,9,6,17,6,10,28,,34,32,8,10,6,8,0.5,0.5
2024-07-31T2200,2508A,109.5669,23.1065,贵港市,荷城子站,,8,7,13,3,2,23,,36,32,11,7,8,9,0.3,0.3
2024-07-31T2200,3405A,109.5886,23.1172,贵港市,新世纪学校,,9,9,16,6,5,17,,35,31,14,9,8,8,0.6,0.5
2024-07-31T2200,1439A,106.6899,26.5998,贵阳市,马鞍山,,9,7,8,3,0,24,,63,49,17,9,5,6,0.5,0.5
2024-07-31T2200,1440A,106.6971,26.5694,贵阳市,市环保站,,18,12,8,12,10,19,,67,48,31,19,3,3,0.4,0.3
2024-07-31T2200,1441A,106.6243,26.6266,贵阳市,鉴湖路,,10,9,11,3,2,30,,61,50,15,11,3,3,0.3,0.4
2024-07-31T2200,1442A,106.7487,26.6343,贵阳市,燕子冲,,15,,3,7,6,14,,63,41,30,9,5,5,0.8,0.6
2024-07-31T2200,1443A,106.6555,26.4365,贵阳市,碧云窝,,9,9,15,3,2,26,,64,50,13,13,3,4,0.4,0.3
2024-07-31T2200,1444A,106.694,26.5161,贵阳市,中院村,,10,9,13,3,1,25,,68,50,20,19,3,3,0.3,0.4
2024-07-31T2200,1445A,106.7109,26.6027,贵阳市,红边门,,20,,12,14,11,13,,66,46,38,16,4,4,0.5,0.4
2024-07-31T2200,1446A,106.7164,26.5699,贵阳市,新华路,,,7,7,7,7,,,73,56,29,16,4,4,,0.2
2024-07-31T2200,1447A,106.674,26.5424,贵阳市,太慈桥,,9,6,3,3,2,10,,70,50,18,12,6,6,0.4,0.4
2024-07-31T2200,1552A,106.805,26.3003,贵阳市,桐木岭,,,,,,,,,,,,,,,,
2024-07-31T2200,1862A,110.4144,25.3167,桂林市,电子科大尧山校区,,18,18,18,6,8,33,,57,51,5,4,4,9,0.5,0.5
2024-07-31T2200,1863A,110.2819,25.2697,桂林市,监测站,,15,,14,10,10,30,,54,47,9,7,5,8,0.7,0.6
2024-07-31T2200,1864A,110.3089,25.2708,桂林市,龙隐路小学,,,18,15,12,12,,,55,50,11,7,5,7,0.6,0.6
2024-07-31T2200,1865A,110.2869,25.2178,桂林市,八中,,12,12,14,3,7,23,,52,44,14,8,6,7,0.4,0.3
2024-07-31T2200,3403A,110.1764,25.2381,桂林市,创业大厦,,10,6,8,3,5,31,,46,42,5,4,6,6,0.3,0.3
2024-07-31T2200,3531A,110.296,25.1253,桂林市,旅游学院,,8,6,4,3,2,23,,54,47,10,5,5,5,0.4,0.4
2024-07-31T2200,2674A,100.2561,34.4714,果洛藏族自治州,玛沁县大武镇,颗粒物(PM10),63,76,31,21,11,65,,134,123,16,5,7,7,0.4,0.4
2024-07-31T2200,1129A,126.5422,45.755,哈尔滨市,岭北,,23,12,19,3,13,73,,64,62,8,14,10,10,0.5,0.5
2024-07-31T2200,1130A,126.561,45.8167,哈尔滨市,松北商大,,26,26,24,10,9,51,,49,44,9,18,7,7,0.5,0.6
2024-07-31T2200,1131A,126.979,45.5419,哈尔滨市,阿城会宁,,19,17,20,13,12,42,,50,43,7,11,8,7,0.5,0.6
2024-07-31T2200,1132A,126.599,45.7222,哈尔滨市,南岗学府路,,38,38,33,8,8,68,,55,51,5,14,6,6,0.4,0.5
2024-07-31T2200,1133A,126.689,45.7733,哈尔滨市,太平宏伟公园,,32,32,29,10,10,68,,49,49,16,25,8,8,0.5,0.5
2024-07-31T2200,1134A,126.635,45.7667,哈尔滨市,道外承德广场,,33,33,29,3,5,56,,46,43,14,24,6,6,0.6,0.7
2024-07-31T2200,1135A,126.685,45.7319,哈尔滨市,香坊红旗大街,,31,31,27,10,14,61,,53,49,14,24,5,8,0.6,0.7
2024-07-31T2200,1136A,126.6411,45.7258,哈尔滨市,动力和平路,,42,42,37,3,7,61,,48,47,10,21,6,7,0.5,0.6
2024-07-31T2200,1137A,126.593,45.7478,哈尔滨市,道里建国路,,33,33,31,11,12,62,,50,44,7,22,9,9,0.7,1.7
2024-07-31T2200,1138A,126.615,45.61,哈尔滨市,平房东轻厂,,31,31,25,8,6,61,,59,52,8,13,7,7,0.4,0.4
2024-07-31T2200,1139A,126.595,45.9855,哈尔滨市,呼兰师专,,19,19,21,6,7,57,,64,50,10,19,10,10,0.6,0.7
2024-07-31T2200,1140A,126.6206,45.6842,哈尔滨市,省农科院,,29,29,30,9,12,65,,52,48,12,26,6,7,0.5,0.6
2024-07-31T2200,2688A,93.5128,42.8172,哈密市,地区监测站,,35,30,47,15,17,110,,125,124,8,9,3,3,0.2,0.2
2024-07-31T2200,2689A,93.4961,42.8328,哈密市,哈密师范学校,,47,47,39,12,15,112,,120,117,7,11,4,4,0.3,0.3
2024-07-31T2200,2671A,100.9048,36.9639,海北藏族自治州,海晏县西海镇,,22,13,7,8,9,70,,140,124,26,8,12,12,0.3,0.3
2024-07-31T2200,3867A,102.0738,36.5056,海东市,平安区公安北苑,,38,38,30,20,13,115,,167,158,17,12,11,10,0.5,0.5
2024-07-31T2200,1409A,110.576,19.9507,海口市,东寨港,,,,,,,,,,,,,,,,
2024-07-31T2200,1410A,110.3232,20.0574,海口市,海南大学,,35,35,17,18,9,20,,52,35,22,10,5,5,0.4,0.4
2024-07-31T2200,1411A,110.283,20.0053,海口市,秀英海南医院,,35,35,19,16,10,20,,48,28,21,15,7,6,0.2,0.2
2024-07-31T2200,1412A,110.338,19.9969,海口市,海南师范大学,,29,29,19,14,9,22,,51,33,18,10,7,6,0.4,0.4
2024-07-31T2200,1413A,110.33,20.0356,海口市,龙华路环保局宿舍,,,37,17,26,10,,,50,33,18,9,7,7,,0.3
2024-07-31T2200,3539A,110.5111,19.9736,海口市,桂林洋子站,,36,36,20,24,12,25,,50,36,14,9,6,6,0.4,0.3
2024-07-31T2200,2673A,100.6188,36.2866,海南藏族自治州,共和县恰卜恰镇,颗粒物(PM10),57,64,27,11,14,67,,152,138,49,24,14,10,0.5,0.5
2024-07-31T2200,2676A,97.3731,37.3753,海西蒙古族藏族自治州,德令哈市,,32,,18,14,11,100,,151,141,12,8,10,9,0.5,0.5
2024-07-31T2200,1048A,114.5302,36.6116,邯郸市,东污水处理厂,,32,17,20,3,2,102,,128,124,7,9,1,2,0.5,0.6
2024-07-31T2200,1049A,114.4918,36.5713,邯郸市,矿院,,30,22,22,7,9,93,,119,115,6,8,3,2,0.3,0.5
2024-07-31T2200,1050A,114.484,36.6133,邯郸市,丛台公园,,29,21,18,3,8,90,,118,112,6,8,1,2,0.4,0.6
2024-07-31T2200,3458A,114.7895,36.5593,邯郸市,香泉濮院小区,,26,15,20,9,8,81,,107,104,4,3,2,2,0.3,0.3
2024-07-31T2200,3579A,114.50634,36.77178,邯郸市,永年区实验高中,,33,29,30,9,13,103,,132,125,2,6,2,4,0.5,0.8
2024-07-31T2200,3580A,114.20016,36.44293,邯郸市,峰峰矿区临水派出所,,38,38,25,10,6,96,,131,126,7,4,2,3,0.4,0.5
2024-07-31T2200,2634A,106.9893,33.1842,汉中市,汉川机床厂子校,,38,34,26,26,16,83,,136,124,13,10,4,4,0.6,0.6
2024-07-31T2200,2635A,107.0154,33.0706,汉中市,市监测站,,33,21,26,18,15,103,,135,129,5,6,6,6,0.6,0.8
2024-07-31T2200,2636A,107.0089,33.1138,汉中市,鑫源开发区,,36,19,27,18,16,114,,148,142,5,9,9,9,0.5,0.7
2024-07-31T2200,2637A,107.007,33.0323,汉中市,南郑大河坎水厂,,32,23,26,17,15,101,,125,119,6,8,7,8,0.4,0.6
2024-07-31T2200,1223A,120.2072,30.2111,杭州市,滨江,,48,48,24,21,12,106,,123,123,25,9,4,4,0.8,0.6
2024-07-31T2200,1224A,120.0633,30.2747,杭州市,西溪,,32,22,17,18,11,102,,104,104,20,9,5,6,0.7,0.6
2024-07-31T2200,1226A,120.3461,30.3153,杭州市,下沙,,33,33,24,18,11,105,,141,136,29,13,5,6,0.7,0.5
2024-07-31T2200,1227A,120.1269,30.2456,杭州市,卧龙桥,,26,26,19,18,13,49,,114,90,26,13,5,5,0.8,0.6
2024-07-31T2200,1228A,120.1903,30.2692,杭州市,浙江农大,,33,28,16,22,12,105,,116,115,28,13,9,7,0.6,0.5
2024-07-31T2200,1230A,120.1197,30.3119,杭州市,和睦小学,,41,30,16,13,7,129,,127,127,20,10,7,5,0.8,0.7
2024-07-31T2200,1231A,120.3019,30.4183,杭州市,临平镇,颗粒物(PM10),51,51,30,19,13,142,,158,158,16,10,4,5,0.7,0.5
2024-07-31T2200,1232A,120.2697,30.1819,杭州市,城厢镇,,48,45,21,33,15,124,,136,136,22,11,6,5,0.6,0.4
2024-07-31T2200,1233A,120.0883,30.1808,杭州市,云栖,,24,24,21,9,9,38,,115,91,34,16,7,7,0.6,0.6
2024-07-31T2200,3557A,119.9464,30.0494,杭州市,镇二中,,46,46,20,25,13,58,,102,91,25,13,7,7,0.6,0.5
2024-07-31T2200,3558A,119.7183,30.2367,杭州市,市府大楼,,29,25,16,20,13,47,,92,81,16,12,5,5,0.5,0.5
2024-07-31T2200,3656A,120.1556,30.2864,杭州市,消防大队,,40,40,21,20,12,120,,128,128,21,8,8,7,0.7,0.6
2024-07-31T2200,1270A,117.1959,31.7848,合肥市,明珠广场,,23,22,28,12,14,73,,96,87,9,10,4,8,0.3,0.4
2024-07-31T2200,1271A,117.3072,31.8764,合肥市,三里街,,22,9,20,7,11,68,,96,82,15,15,6,6,0.4,0.4
2024-07-31T2200,1272A,117.2588,31.8707,合肥市,琥珀山庄,,24,14,27,3,6,76,,106,93,8,8,4,4,0.3,0.3
2024-07-31T2200,1273A,117.1604,31.9052,合肥市,董铺水库,,24,24,21,12,11,66,,77,75,6,6,2,2,0.3,0.3
2024-07-31T2200,1274A,117.25,31.8571,合肥市,长江中路,,36,36,30,10,16,71,,98,85,6,7,7,7,0.4,0.5
2024-07-31T2200,1275A,117.266,31.9436,合肥市,庐阳区,,23,14,22,12,14,71,,102,90,9,8,11,10,0.6,0.6
2024-07-31T2200,1276A,117.336,31.8586,合肥市,瑶海区,,22,14,25,7,12,68,,95,80,7,12,7,8,0.2,0.3
2024-07-31T2200,1277A,117.3027,31.7964,合肥市,包河区,,24,19,25,9,16,75,,97,85,4,7,8,8,0.4,0.4
2024-07-31T2200,1278A,117.2776,31.7385,合肥市,滨湖新区,,23,9,18,7,13,73,,93,84,5,5,8,8,0.3,0.3
2024-07-31T2200,1279A,117.1318,31.8403,合肥市,高新区,,21,19,21,10,12,66,,82,77,8,8,8,10,0.4,0.4
2024-07-31T2200,3464A,117.3803,31.9147,合肥市,高教基地,,23,18,23,10,14,72,,105,87,4,8,7,7,0.3,0.3
2024-07-31T2200,3614A,79.924,37.0877,和田地区,地区环保局,颗粒物(PM10),222,365,301,104,93,87,,103,97,7,8,7,8,0.5,0.4
2024-07-31T2200,3615A,79.9131,37.113,和田地区,市环保局,颗粒物(PM10),187,323,277,104,100,76,,94,86,38,47,7,7,0.5,0.5
2024-07-31T2200,2516A,108.2011,24.715,河池市,东仁乐园,,16,16,24,3,2,23,,62,56,9,8,4,6,0.5,0.5
2024-07-31T2200,2517A,108.0497,24.6947,河池市,市环保站,,15,15,15,6,7,31,,44,37,10,11,6,7,0.5,0.5
2024-07-31T2200,2518A,108.0983,24.6989,河池市,市疾控中心,,19,19,17,9,8,16,,41,32,24,15,7,7,0.5,0.5
2024-07-31T2200,1696A,114.6778,23.7569,河源市,源西,,,,12,,6,,,33,,,6,,4,,0.5
2024-07-31T2200,1697A,114.6944,23.7586,河源市,东埔,,12,12,12,3,5,26,,51,47,12,12,7,7,0.6,0.6
2024-07-31T2200,1698A,114.6892,23.7233,河源市,老城,,10,10,16,3,5,27,,54,49,10,9,4,4,0.4,0.4
2024-07-31T2200,1718A,115.4208,35.2464,菏泽市,气象局,,24,24,22,8,8,64,,93,84,8,5,4,4,0.3,0.2
2024-07-31T2200,1719A,115.4747,35.2375,菏泽市,市政协,,20,19,18,11,12,62,,87,79,5,3,5,4,0.2,0.1
2024-07-31T2200,3374A,115.5564,35.0891,菏泽市,定陶老年大学,,22,22,17,3,1,58,,82,74,13,10,5,4,0.2,0.1
2024-07-31T2200,3647A,115.4702,35.2706,菏泽市,菏泽医专,,27,27,20,6,5,69,,98,84,6,4,1,4,0.3,0.3
2024-07-31T2200,2514A,111.5264,24.4172,贺州市,环保小区,,25,25,17,6,7,26,,54,44,17,10,9,7,0.6,0.6
2024-07-31T2200,2515A,111.5608,24.4078,贺州市,政协大楼,,24,24,17,15,11,22,,54,41,15,8,18,10,0.5,0.4
2024-07-31T2200,3534A,111.4744,24.4553,贺州市,西湾,,16,11,13,11,12,11,,53,34,23,13,6,5,0.5,0.6
2024-07-31T2200,2385A,114.17,35.9019,鹤壁市,市监测站,,42,42,29,20,17,124,,132,132,10,10,3,3,0.9,0.8
2024-07-31T2200,2386A,114.2956,35.7511,鹤壁市,市交警支队,,36,25,26,25,17,89,,123,119,12,12,1,2,0.5,0.6
2024-07-31T2200,2387A,114.2878,35.7306,鹤壁市,迎宾馆,,30,18,20,8,13,96,,128,125,14,12,5,6,0.8,0.9
2024-07-31T2200,3474A,114.2617,35.6822,鹤壁市,大新区,,,25,24,,,76,,121,115,21,14,3,2,0.4,1.1
2024-07-31T2200,3596A,114.1572,35.9603,鹤壁市,南山宾馆,,36,27,21,25,27,101,,116,115,10,9,3,4,0.7,0.6
2024-07-31T2200,2244A,130.2537,47.3416,鹤岗市,哈啤分公司,,25,17,27,17,14,58,,72,62,8,13,15,15,0.4,0.4
2024-07-31T2200,2245A,130.2684,47.3086,鹤岗市,斯达机电,,21,21,19,11,9,51,,72,59,8,12,12,13,0.3,0.2
2024-07-31T2200,2246A,130.3114,47.3388,鹤岗市,东山纸板厂,,28,,13,19,14,39,,61,46,12,13,15,16,0.3,0.6
2024-07-31T2200,2247A,130.1097,47.3382,鹤岗市,五号水库,,10,6,9,3,5,31,,80,56,5,9,11,11,0.5,0.5
2024-07-31T2200,2263A,127.4833,50.2524,黑河市,交通局,,,16,23,7,8,59,,69,66,4,12,,7,0.3,0.4
2024-07-31T2200,2264A,127.5144,50.2341,黑河市,环保局,,19,19,19,11,8,56,,74,70,7,10,5,5,0.4,0.4
2024-07-31T2200,2265A,127.5291,50.2472,黑河市,大黑河岛,,,,8,16,15,,,,,8,12,1,1,,
2024-07-31T2200,1074A,115.6838,37.7541,衡水市,电机北厂,,33,27,24,3,8,105,,129,124,4,3,3,9,0.3,0.3
2024-07-31T2200,1075A,115.6303,37.7316,衡水市,市监测站,,30,18,21,9,7,94,,129,122,10,5,2,4,0.4,0.4
2024-07-31T2200,3188A,115.6683,37.7217,衡水市,市城管局,,30,19,19,9,9,94,,128,120,7,4,3,3,0.4,0.4
2024-07-31T2200,3459A,115.5989,37.5491,衡水市,地表水厂,,35,35,23,3,3,78,,119,109,12,3,5,5,0.3,0.4
2024-07-31T2200,2456A,112.5003,26.9167,衡阳市,原169医院,,,22,15,,9,33,,73,60,25,12,15,15,0.4,0.4
2024-07-31T2200,2457A,112.6194,26.9258,衡阳市,衡阳化工总厂,,,13,16,,,45,,71,63,8,7,7,8,0.4,0.4
2024-07-31T2200,2458A,112.6211,26.8956,衡阳市,珠晖区环保局,,,19,16,,,49,,72,64,6,6,8,8,0.6,0.6
2024-07-31T2200,2459A,112.6197,26.8733,衡阳市,市委党校,,16,12,17,3,5,50,,74,66,8,7,9,8,0.6,0.6
2024-07-31T2200,2460A,112.6006,26.8919,衡阳市,市监测站,,22,18,14,15,8,50,,76,68,7,7,8,9,0.5,0.5
2024-07-31T2200,2461A,112.5664,26.9056,衡阳市,真空机电公司,,20,20,21,10,8,33,,72,59,19,10,12,14,1.1,0.9
2024-07-31T2200,3399A,112.6703,26.882,衡阳市,师范学院,,20,16,16,14,7,44,,73,64,10,7,10,9,0.5,0.5
2024-07-31T2200,2608A,103.3772,23.3993,红河哈尼族彝族自治州,污水处理厂,,28,20,12,19,15,40,,54,49,8,6,5,10,0.5,0.5
2024-07-31T2200,2609A,103.3861,23.35,红河哈尼族彝族自治州,监测站,,16,14,14,11,12,32,,53,43,9,8,6,22,0.4,0.4
2024-07-31T2200,3038A,103.3758,23.368,红河哈尼族彝族自治州,州图书馆,,12,6,14,3,8,38,,51,46,7,7,4,13,0.5,0.5
2024-07-31T2200,1090A,111.6507,40.7517,呼和浩特市,呼市一监,,19,17,19,13,16,24,,101,81,34,12,7,7,0.7,0.5
2024-07-31T2200,1091A,111.6572,40.8033,呼和浩特市,小召,,20,17,20,14,18,37,,92,79,5,14,7,8,0.9,0.7
2024-07-31T2200,1094A,111.7516,40.8369,呼和浩特市,如意水处理厂,,21,7,23,3,14,53,,99,89,41,30,5,6,0.5,0.5
2024-07-31T2200,1095A,111.7276,40.8062,呼和浩特市,二十九中,,18,16,23,9,21,57,,92,82,29,17,3,5,0.8,0.7
2024-07-31T2200,1096A,111.5512,40.7866,呼和浩特市,工大金川校区,,19,11,23,3,15,42,,95,72,37,26,5,5,0.5,0.5
2024-07-31T2200,1097A,111.717,40.7612,呼和浩特市,化肥厂生活区,,32,,30,22,27,42,,106,89,38,15,6,6,0.9,0.6
2024-07-31T2200,3698A,111.5968,40.8178,呼和浩特市,红旗小学,,18,7,20,3,16,55,,96,78,25,29,4,5,0.4,0.5
2024-07-31T2200,3699A,111.6518,40.8389,呼和浩特市,海东办,,34,14,21,12,18,17,,97,77,67,22,6,6,0.6,0.5
2024-07-31T2200,2192A,119.7594,49.2261,呼伦贝尔市,区环保局,,46,46,25,26,15,45,,87,63,11,17,6,6,0.6,0.6
2024-07-31T2200,3061A,119.7512,49.1577,呼伦贝尔市,国华电力东,,25,24,16,17,11,53,,94,77,5,7,4,4,0.5,0.4
2024-07-31T2200,1250A,120.0751,30.8669,湖州市,城西水厂,,39,36,26,20,13,122,,142,142,13,14,4,4,0.5,0.4
2024-07-31T2200,2873A,120.0875,30.8955,湖州市,仁皇山新区,,41,36,24,20,14,129,,155,151,14,14,7,7,0.5,0.5
2024-07-31T2200,2907A,120.1844,30.8596,湖州市,吴兴区站,,35,35,22,17,14,108,,143,135,16,10,7,7,0.4,0.3
2024-07-31T2200,3562A,120.4148,30.8538,湖州市,南浔区站,,36,36,24,23,15,99,,132,130,19,10,6,4,0.5,0.4
2024-07-31T2200,1607A,120.9092,40.7136,葫芦岛市,龙港区,,47,47,39,14,18,136,,142,142,6,7,2,2,0.6,0.6
2024-07-31T2200,1608A,120.8392,40.7514,葫芦岛市,化工街,,35,31,34,22,19,112,,131,131,18,12,9,7,0.8,0.7
2024-07-31T2200,1609A,120.8341,40.7073,葫芦岛市,新区,,39,33,39,18,16,122,,133,132,9,7,3,3,0.5,0.5
2024-07-31T2200,1610A,120.8695,40.7677,葫芦岛市,东城区,,45,34,37,20,14,143,,163,160,20,11,4,5,0.6,0.6
2024-07-31T2200,2482A,109.5981,27.5721,怀化市,林科所,,20,12,11,7,6,61,,78,70,2,5,4,4,0.5,0.6
2024-07-31T2200,2483A,109.9453,27.5444,怀化市,河西地税局,,13,6,12,3,6,40,,62,57,8,6,7,8,0.4,0.4
2024-07-31T2200,2484A,109.9781,27.5342,怀化市,市四医院,,13,6,16,3,10,40,,64,54,6,9,3,4,0.7,0.7
2024-07-31T2200,2485A,109.9972,27.5578,怀化市,监测楼,,14,6,16,3,9,43,,65,54,8,10,4,6,0.4,0.5
2024-07-31T2200,2486A,110.0394,27.583,怀化市,市委党校,,,6,14,,12,37,,60,50,5,8,6,7,0.6,0.6
2024-07-31T2200,1210A,119.036,33.5981,淮安市,钵池山,,,,24,27,20,,,111,111,13,10,8,7,0.5,0.7
2024-07-31T2200,1211A,119.007,33.575,淮安市,北京南路,,28,24,28,19,19,66,,99,92,17,12,8,11,0.5,0.6
2024-07-31T2200,1212A,118.989,33.6067,淮安市,市监测站,,29,29,32,19,20,61,,104,95,27,17,14,11,1.7,0.8
2024-07-31T2200,1213A,119.135,33.5039,淮安市,楚州区监测站,,27,27,35,14,16,67,,101,84,20,15,5,6,0.5,0.5
2024-07-31T2200,1214A,119.0186,33.6297,淮安市,淮阴区监测站,,29,29,32,15,19,74,,105,100,20,16,9,9,0.9,0.7
2024-07-31T2200,3426A,118.8755,33.2894,淮安市,新华书店,,26,18,24,18,19,68,,104,91,13,12,8,6,0.5,0.5
2024-07-31T2200,2282A,116.8004,33.975,淮北市,监测站,,40,40,28,17,12,59,,113,92,12,9,4,4,0.6,0.5
2024-07-31T2200,2283A,116.8091,33.9007,淮北市,烈山区政府,,33,33,29,14,14,60,,121,96,15,14,6,7,0.6,0.5
2024-07-31T2200,3330A,116.8873,33.9836,淮北市,杜集区检察院,,32,32,34,16,15,64,,123,97,10,10,6,6,0.5,0.5
2024-07-31T2200,4017A,116.7923,33.9535,淮北市,市博物馆,,35,35,28,18,14,62,,122,99,16,13,4,4,0.6,0.5
2024-07-31T2200,2277A,116.8305,32.7727,淮南市,潘集区政府,,34,34,24,12,14,69,,85,81,11,11,5,6,0.4,0.4
2024-07-31T2200,2278A,117.0067,32.6524,淮南市,师范学院,,37,37,24,16,13,72,,100,96,5,3,9,8,0.3,0.3
2024-07-31T2200,2279A,116.8569,32.5951,淮南市,谢家集区政府,,33,33,19,8,4,61,,92,82,12,10,5,5,0.1,0.1
2024-07-31T2200,2280A,116.8281,32.633,淮南市,八公山区政府,,36,36,27,14,13,68,,90,86,8,8,6,6,0.2,0.1
2024-07-31T2200,2281A,116.6325,32.6201,淮南市,焦岗湖风景区管理处,,18,18,11,3,3,36,,48,46,10,11,6,6,0.2,0.1
2024-07-31T2200,2894A,117.0566,32.6531,淮南市,经济技术开发区消防队,,22,,14,14,5,70,,98,93,12,7,4,4,0.3,0.3
2024-07-31T2200,3329A,117.0108,32.5893,淮南市,山南新区,,30,30,25,8,5,69,,100,93,7,5,7,6,0.4,0.4
2024-07-31T2200,2446A,114.9028,30.4742,黄冈市,职工中心,,18,10,30,8,16,57,,110,91,9,15,7,10,0.4,0.4
2024-07-31T2200,2929A,114.8858,30.4519,黄冈市,红卫路,,19,13,30,7,16,58,,104,91,10,15,7,10,0.5,0.5
2024-07-31T2200,3398A,114.9136,30.4445,黄冈市,市林业局,,19,13,25,12,18,59,,112,93,6,14,7,9,0.3,0.4
2024-07-31T2200,2672A,102.0199,35.5102,黄南藏族自治州,同仁县隆务镇,,43,43,22,3,8,109,,144,136,2,3,14,9,0.3,0.2
2024-07-31T2200,2295A,118.2903,29.6963,黄山市,延安路89号,,41,41,29,3,6,48,,56,54,8,6,5,4,0.5,0.5
2024-07-31T2200,2296A,118.327,29.7178,黄山市,黄山东路89号,,23,23,18,6,7,54,,54,53,7,6,6,6,0.4,0.4
2024-07-31T2200,2297A,118.1371,30.2756,黄山市,黄山区政府5号楼,,23,23,18,9,14,63,,60,57,4,5,6,6,0.4,0.4
2024-07-31T2200,2423A,115.0601,30.2313,黄石市,沈家营,,38,38,45,3,11,63,,100,83,5,21,4,15,0.4,0.5
2024-07-31T2200,2424A,115.0817,30.2006,黄石市,陈家湾,,48,48,30,8,9,58,,98,84,3,7,5,8,0.5,0.5
2024-07-31T2200,2426A,114.8988,30.2019,黄石市,铁山,,23,22,26,3,9,73,,101,84,5,10,19,14,0.3,0.5
2024-07-31T2200,2427A,115.0307,30.2092,黄石市,团城山,,,42,29,6,8,,,99,91,4,7,7,10,0.3,0.3
2024-07-31T2200,3149A,115.0235,30.1578,黄石市,笔架山北路,,44,44,33,3,4,48,,91,74,10,12,4,6,0.3,0.4
2024-07-31T2200,1392A,114.4183,23.0528,惠州市,河南岸金山湖子站,,16,16,12,9,6,20,,49,39,12,7,4,4,0.5,0.5
2024-07-31T2200,1393A,114.4053,23.0822,惠州市,下埔横江三路子站,,19,19,15,10,7,28,,61,51,13,9,3,6,0.6,0.5
2024-07-31T2200,1394A,114.4103,23.1142,惠州市,江北云山西路子站,,18,18,13,9,6,18,,58,48,17,7,4,4,0.6,0.5
2024-07-31T2200,1395A,114.4645,22.7833,惠州市,惠阳区承修路船湖子站,,22,22,10,13,6,31,,44,36,16,13,3,3,0.5,0.4
2024-07-31T2200,1396A,114.5317,22.7422,惠州市,大亚湾管委会子站,,20,20,10,12,6,50,,46,36,7,13,5,5,0.6,0.6
2024-07-31T2200,3314A,114.4338,22.8134,惠州市,惠阳秋长,,36,36,8,23,6,2,,44,27,30,11,5,4,1.1,0.6
2024-07-31T2200,3452A,114.6517,22.775,惠州市,大亚湾霞涌,,20,16,9,14,4,35,,43,36,8,7,4,4,0.7,0.7
2024-07-31T2200,2240A,130.9762,45.3001,鸡西市,环保局,,11,11,25,3,12,8,,32,20,14,13,8,8,0.4,0.3
2024-07-31T2200,2243A,130.9429,45.3039,鸡西市,第一中学,,9,9,29,3,11,22,,38,23,3,15,4,4,0.3,0.3
2024-07-31T2200,3707A,131.0207,45.3073,鸡西市,欧美日汽修厂,,5,6,25,3,10,10,,30,21,4,11,3,4,0.4,0.4
2024-07-31T2200,3709A,130.9967,45.3106,鸡西市,市政设施管理处,,8,8,23,3,8,10,,30,20,9,18,6,7,0.3,0.3
2024-07-31T2200,2367A,114.9754,27.0803,吉安市,红声器材厂,,24,24,18,10,7,43,,63,59,9,8,15,14,0.6,0.6
2024-07-31T2200,2368A,114.9658,27.0999,吉安市,市森林工业局,,18,18,18,11,9,45,,67,62,7,7,14,11,0.4,0.4
2024-07-31T2200,2369A,114.99,27.1312,吉安市,市环境监测站,,17,16,16,7,6,53,,68,64,7,6,13,13,0.7,0.5
2024-07-31T2200,2370A,115.0093,27.0968,吉安市,青原区法院,,20,20,18,11,9,51,,64,62,9,9,16,16,0.4,0.4
2024-07-31T2200,1772A,126.54,43.8622,吉林市,哈达湾,,21,12,16,8,11,65,,63,62,5,10,5,4,0.4,0.5
2024-07-31T2200,1773A,126.5844,43.8358,吉林市,东局子,,19,14,19,10,11,59,,54,54,2,6,4,4,0.5,0.6
2024-07-31T2200,1774A,126.5052,43.8245,吉林市,电力学院,,18,18,16,12,9,48,,54,51,2,10,3,3,0.6,0.7
2024-07-31T2200,1775A,126.6133,43.8972,吉林市,江北,,20,17,19,10,10,62,,57,57,4,6,8,8,0.5,0.6
2024-07-31T2200,1776A,126.555,43.8306,吉林市,江南公园,,21,13,15,3,14,66,,60,60,3,9,2,3,0.5,0.7
2024-07-31T2200,1778A,126.7061,43.7133,吉林市,丰满,,,,,,,,,,,,,,,,
2024-07-31T2200,2868A,126.4739,43.953,吉林市,九站,,21,14,23,9,11,65,,65,64,2,8,3,4,0.5,0.7
2024-07-31T2200,1299A,116.9862,36.6114,济南市,科干所,,30,17,19,12,8,95,,105,103,9,8,7,8,0.5,0.5
2024-07-31T2200,1300A,116.9376,36.665,济南市,农科所,,27,22,25,7,9,85,,101,98,15,12,8,8,0.3,0.2
2024-07-31T2200,1301A,117.1265,36.6734,济南市,开发区,,31,17,16,3,2,99,,104,104,6,6,10,10,0.5,0.5
2024-07-31T2200,1303A,117.0624,36.6868,济南市,省种子仓库,,31,19,24,7,4,98,,106,105,6,6,7,8,0.5,0.5
2024-07-31T2200,1304A,116.9489,36.6447,济南市,机床二厂,,30,22,23,3,0,94,,112,107,10,7,9,10,0.3,0.3
2024-07-31T2200,1305A,117.0495,36.663,济南市,市监测站,,29,22,16,7,10,90,,,,6,4,10,11,0.3,0.3
2024-07-31T2200,1306A,116.7675,36.5484,济南市,长清党校,,25,20,19,7,11,79,,99,96,11,8,10,10,0.5,0.5
2024-07-31T2200,1616A,117.6795,36.229,济南市,技术学院,,32,17,14,9,10,102,,112,111,7,4,10,10,0.5,0.7
2024-07-31T2200,1961A,117.532,36.6868,济南市,东山小学,,30,22,19,3,5,95,,108,107,12,11,6,6,0.5,0.5
2024-07-31T2200,3059A,117.7161,36.2049,济南市,泰兴公司,,29,19,20,9,8,92,,104,103,16,11,10,12,0.4,0.4
2024-07-31T2200,3064A,117.6867,36.2171,济南市,莱芜战役纪念馆,,29,19,23,7,5,90,,95,94,5,5,9,10,0.5,0.5
2024-07-31T2200,3494A,117.1673,36.9782,济南市,济阳区政府,,29,29,28,7,6,79,,104,96,13,9,8,8,0.3,0.3
2024-07-31T2200,3495A,117.1171,36.63,济南市,锦屏中学,,31,20,14,7,5,98,,104,103,9,9,10,10,0.4,0.4
2024-07-31T2200,3682A,116.9814,36.6819,济南市,济南四建,,27,22,20,3,5,86,,100,97,9,7,8,9,0.6,0.6
2024-07-31T2200,1653A,116.6251,35.4302,济宁市,火炬城,,27,14,23,12,10,86,,102,94,9,9,8,9,0.7,0.7
2024-07-31T2200,1655A,116.5491,35.4042,济宁市,电化厂,,24,24,26,14,13,64,,86,79,11,9,1,6,0.6,0.6
2024-07-31T2200,3500A,116.5814,35.3707,济宁市,北湖一中,,25,25,24,17,8,76,,95,88,8,8,8,8,0.8,0.7
2024-07-31T2200,3501A,116.8249,35.5593,济宁市,服务中心,,,23,27,12,6,73,,79,79,,9,4,5,0.5,0.5
2024-07-31T2200,3678A,116.5907,35.4054,济宁市,市第七中学,,41,41,32,9,8,71,,95,85,11,10,4,4,0.5,0.5
2024-07-31T2200,2255A,130.2751,46.8028,佳木斯市,佳纺,,20,20,25,9,10,51,,73,64,11,18,11,11,0.6,0.5
2024-07-31T2200,2256A,130.3995,46.8307,佳木斯市,发电厂,,20,20,27,10,11,53,,66,58,12,20,6,7,0.5,0.6
2024-07-31T2200,2257A,130.3258,46.7975,佳木斯市,环保局,,23,18,23,16,12,40,,68,57,21,20,8,8,0.6,0.5
2024-07-31T2200,2258A,130.3648,46.8032,佳木斯市,十一中,,22,20,22,15,14,56,,65,59,10,23,8,8,0.4,0.4
2024-07-31T2200,2259A,130.3794,46.7588,佳木斯市,四丰,,15,15,16,8,10,40,,51,44,14,17,1,1,0.6,0.6
2024-07-31T2200,1252A,120.7436,30.778,嘉兴市,清河小学,,37,37,27,16,11,90,,152,136,27,13,7,7,0.6,0.3
2024-07-31T2200,1253A,120.726,30.7478,嘉兴市,嘉兴学院,,32,32,26,19,14,80,,148,134,19,13,2,1,0.5,0.4
2024-07-31T2200,2872A,120.7846,30.7525,嘉兴市,南湖区残联,,43,40,25,30,15,89,,163,154,25,11,4,5,0.6,0.3
2024-07-31T2200,3407A,120.6916,30.7739,嘉兴市,秀洲住建,,36,36,27,18,13,96,,180,161,19,13,4,4,0.6,0.5
2024-07-31T2200,1945A,98.2908,39.7711,嘉峪关市,气象局,,48,48,38,7,9,119,,135,130,14,8,6,8,0.4,0.5
2024-07-31T2200,2884A,98.2672,39.7978,嘉峪关市,酒钢宾馆,颗粒物(PM10),60,70,35,17,10,85,,140,128,58,12,93,25,2.7,0.6
2024-07-31T2200,3248A,98.2643,39.7724,嘉峪关市,雄关区,,,57,33,16,14,,,136,135,25,11,40,11,1.1,0.3
2024-07-31T2200,1383A,113.1064,22.6058,江门市,北街,,19,18,15,13,9,43,,43,43,5,10,3,3,0.4,0.4
2024-07-31T2200,1384A,113.0731,22.5835,江门市,西区,,33,33,14,13,6,49,,50,50,7,11,5,5,0.4,0.5
2024-07-31T2200,1385A,113.0219,22.5311,江门市,圭峰西,,26,26,17,16,10,47,,49,49,9,10,3,3,0.5,0.5
2024-07-31T2200,1386A,113.0828,22.5947,江门市,东湖,,31,31,17,11,5,47,,50,50,6,9,6,6,0.4,0.4
2024-07-31T2200,3311A,113.1075,22.5647,江门市,江海富民,,38,38,25,9,14,50,,54,54,6,11,5,6,0.4,0.5
2024-07-31T2200,3449A,113.05,22.4667,江门市,新会银湖,,18,16,19,10,9,56,,56,56,6,10,4,4,0.5,0.5
2024-07-31T2200,1828A,113.227,35.2125,焦作市,市环保局,,31,31,28,15,17,68,,138,132,19,13,3,3,0.4,0.5
2024-07-31T2200,1830A,113.1992,35.2590,焦作市,影视城,,,,,,,,,,,,,,,,
2024-07-31T2200,3169A,113.2725,35.2067,焦作市,太极体育中心,,49,49,29,12,15,63,,128,120,10,7,3,3,0.4,0.5
2024-07-31T2200,3335A,113.3137,35.2641,焦作市,马村街道办,,35,35,32,3,18,77,,133,127,13,14,3,5,0.4,0.6
2024-07-31T2200,3336A,113.2465,35.2373,焦作市,焦作技师学院,,45,45,32,17,19,72,,129,123,17,13,3,3,0.5,0.6
2024-07-31T2200,3477A,113.1656,35.2539,焦作市,中站许衡医院,,26,16,30,12,18,82,,128,119,12,11,5,9,0.5,0.7
2024-07-31T2200,3981A,113.2449,35.1803,焦作市,原李万街道办,,37,37,28,14,11,66,,137,128,19,12,2,3,0.1,0.1
2024-07-31T2200,1708A,116.3701,23.5345,揭阳市,新兴,,18,18,19,8,7,30,,52,43,12,13,3,4,0.7,0.6
2024-07-31T2200,1709A,116.3264,23.5443,揭阳市,西马,,27,27,19,14,7,17,,45,39,22,11,4,4,0.8,0.8
2024-07-31T2200,1710A,116.3611,23.5626,揭阳市,东兴,,20,20,19,7,7,33,,54,42,8,10,4,5,0.9,0.8
2024-07-31T2200,1711A,116.4151,23.5294,揭阳市,渔湖,,26,26,22,8,6,35,,53,46,8,12,3,3,0.7,0.7
2024-07-31T2200,3320A,116.403,23.5699,揭阳市,曲溪,,20,20,13,12,8,33,,56,45,8,12,2,4,0.7,0.7
2024-07-31T2200,1944A,102.1692,38.5167,金昌市,天庆家园,颗粒物(PM10),55,59,34,27,14,63,,133,118,34,15,14,13,0.7,0.5
2024-07-31T2200,3170A,102.1864,38.5253,金昌市,市委党校,颗粒物(PM10),65,80,42,26,13,62,,137,121,37,14,9,13,0.9,0.5
2024-07-31T2200,4022A,102.1647,38.5371,金昌市,金川区人防中心,颗粒物(PM10),68,85,38,22,17,77,,138,122,14,12,10,13,0.4,0.5
2024-07-31T2200,1262A,119.647,29.077,金华市,十五中,,32,32,24,11,12,53,,120,109,16,10,2,2,0.5,0.4
2024-07-31T2200,1263A,119.686,29.1029,金华市,监测站,,19,19,18,10,11,46,,115,105,16,10,2,3,0.4,0.4
2024-07-31T2200,3659A,119.656,29.1131,金华市,气象局,,27,27,23,7,12,54,,129,114,18,9,4,4,0.4,0.3
2024-07-31T2200,1767A,121.1115,41.0879,锦州市,南山,,43,23,34,22,19,137,,153,152,10,7,1,2,0.7,0.8
2024-07-31T2200,1768A,121.0533,40.8434,锦州市,开发区,,40,40,45,19,16,128,,157,150,25,6,3,2,0.7,0.6
2024-07-31T2200,1769A,121.1836,41.1119,锦州市,百股街道,,42,25,31,9,17,132,,150,148,10,8,1,1,0.7,0.8
2024-07-31T2200,1770A,121.1178,41.1222,锦州市,天安街道,,40,40,37,20,18,107,,126,124,10,7,5,5,0.8,0.8
2024-07-31T2200,1771A,121.1303,41.1386,锦州市,北湖公园,,49,,38,34,25,112,,129,128,9,7,3,3,0.7,0.8
2024-07-31T2200,2160A,112.85,35.5051,晋城市,自来水公司,,,37,21,,11,123,,143,136,14,15,8,5,0.8,0.7
2024-07-31T2200,2161A,112.8318,35.4936,晋城市,白云商贸,,43,43,36,9,10,119,,141,131,16,16,7,7,0.7,0.8
2024-07-31T2200,2162A,112.8508,35.4887,晋城市,市环保局,,37,37,29,22,15,116,,137,127,20,17,7,7,0.8,0.7
2024-07-31T2200,2163A,112.8676,35.4897,晋城市,技术学院,,37,37,26,17,13,113,,138,128,20,20,8,8,0.8,0.9
2024-07-31T2200,2165A,112.8453,35.546,晋城市,白马寺,,,,,,,,,,,,,,,,
2024-07-31T2200,3620A,112.8271,35.4828,晋城市,泽州一中,,35,28,25,14,10,111,,138,126,16,15,9,9,0.7,0.8
2024-07-31T2200,2171A,112.7532,37.6945,晋中市,锦纶小区,颗粒物(PM10),53,56,38,22,18,75,,168,142,40,14,6,9,0.5,0.7
2024-07-31T2200,2173A,112.7249,37.7067,晋中市,南都小区,,41,41,40,14,22,81,,172,143,40,14,8,10,0.5,0.7
2024-07-31T2200,2174A,112.6991,37.6982,晋中市,榆次区政府,颗粒物(PM10),54,58,36,20,23,86,,168,144,30,13,6,8,0.5,0.6
2024-07-31T2200,2865A,112.7195,37.6828,晋中市,榆次三中,颗粒物(PM10),53,56,39,22,17,91,,171,148,29,11,8,9,0.9,0.8
2024-07-31T2200,2439A,112.2014,31.0481,荆门市,竹园小学,,19,19,22,12,10,43,,102,76,15,13,11,10,0.4,0.5
2024-07-31T2200,2440A,112.1969,30.9891,荆门市,掇刀,,18,,22,12,13,52,,104,81,15,16,5,6,0.4,0.5
2024-07-31T2200,2441A,112.2213,31.0386,荆门市,石化一小,,17,13,24,3,11,53,,109,84,13,13,14,17,0.5,0.5
2024-07-31T2200,3012A,112.1849,31.0362,荆门市,西山林语,,25,18,21,17,12,38,,102,75,12,9,6,7,0.4,0.5
2024-07-31T2200,3547A,112.1632,31.0138,荆门市,龙泉中学南校,,14,13,19,6,10,42,,98,74,18,12,12,9,0.5,0.5
2024-07-31T2200,1844A,112.2494,30.3197,荆州市,市图书馆,,14,,14,3,11,42,,86,60,15,14,5,6,0.5,0.6
2024-07-31T2200,1845A,112.2008,30.3544,荆州市,市委党校,,,11,16,6,11,48,,88,64,9,9,6,5,,0.6
2024-07-31T2200,3194A,112.2747,30.3122,荆州市,管委会,,,6,13,3,11,,,91,72,10,11,4,6,0.5,0.5
2024-07-31T2200,3548A,112.1655,30.3364,荆州市,学苑路,,13,,22,8,14,40,,82,58,15,11,7,7,0.5,0.5
2024-07-31T2200,2342A,117.3102,29.3867,景德镇市,王港中学,,,,,,,,,,,,,,,,
2024-07-31T2200,2343A,117.2117,29.2933,景德镇市,老干部活动中心,,25,25,27,14,17,40,,71,62,12,13,9,12,0.4,0.3
2024-07-31T2200,2344A,117.1894,29.2789,景德镇市,兽医站,,30,25,30,21,17,42,,78,66,16,13,12,12,0.3,0.3
2024-07-31T2200,2345A,117.1547,29.2617,景德镇市,台达陶瓷,,28,28,32,16,18,41,,68,58,13,19,16,20,0.3,0.3
2024-07-31T2200,2346A,117.2461,29.2956,景德镇市,陶研所,,20,20,32,10,14,43,,76,64,9,13,5,5,0.2,0.3
2024-07-31T2200,1803A,115.9872,29.6815,九江市,十里,,16,16,18,7,9,51,,74,69,13,16,9,8,0.6,0.6
2024-07-31T2200,1804A,115.9584,29.7046,九江市,茅山头,,17,12,17,10,11,53,,70,67,8,16,9,8,0.4,0.5
2024-07-31T2200,1805A,115.9877,29.7295,九江市,西园,,19,14,17,6,13,58,,84,75,9,20,10,15,0.7,0.7
2024-07-31T2200,1806A,116.0172,29.6547,九江市,五七二七厂,,18,18,13,3,8,50,,83,78,10,13,9,10,0.7,0.7
2024-07-31T2200,1808A,115.9114,29.6038,九江市,综合工业园,,21,21,14,6,9,63,,89,82,10,12,12,12,0.4,0.5
2024-07-31T2200,1809A,116.0721,29.7535,九江市,石化总厂,,21,21,19,8,8,60,,90,82,9,10,11,11,0.7,0.7
2024-07-31T2200,1810A,115.9773,29.5698,九江市,庐山气象台,,21,11,17,3,10,65,,82,80,1,1,8,8,1.1,0.8
2024-07-31T2200,3190A,116.0254,29.6994,九江市,外国语学校,,19,15,15,9,8,59,,93,88,16,15,12,11,0.4,0.4
2024-07-31T2200,2658A,98.5061,39.7443,酒泉市,仓门街子站,颗粒物(PM10),52,53,45,13,10,114,,136,128,7,10,8,10,0.3,0.4
2024-07-31T2200,2659A,98.4989,39.7256,酒泉市,油田生活基地,,48,48,43,6,16,123,,145,141,10,12,8,11,0.3,0.3
2024-07-31T2200,2698A,76.0072,39.4467,喀什地区,巡警大队,颗粒物(PM10),117,184,165,24,37,102,,110,110,15,25,4,4,0.3,0.4
2024-07-31T2200,2699A,75.9755,39.4694,喀什地区,吾办,颗粒物(PM10),104,157,153,38,49,98,,106,106,,22,4,4,0.5,0.6
2024-07-31T2200,4027A,75.9483,39.4689,喀什地区,老干局,颗粒物(PM10),132,214,181,30,41,101,,107,107,13,24,4,4,0.5,0.4
2024-07-31T2200,1824A,114.3389,34.7781,开封市,肿瘤医院,,22,16,19,9,5,68,,82,77,10,5,3,4,0.4,0.4
2024-07-31T2200,1826A,114.2885,34.7965,开封市,世纪星幼儿园,,23,18,17,3,0,72,,92,83,7,6,2,2,0.6,0.6
2024-07-31T2200,3147A,114.3438,34.8106,开封市,龙亭公园,,,14,18,,5,72,,88,82,10,8,2,1,0.4,0.4
2024-07-31T2200,3210A,114.3644,34.7964,开封市,汴京公园,,23,16,15,6,7,72,,90,82,10,8,3,3,0.4,0.4
2024-07-31T2200,3473A,114.2485,34.8306,开封市,技师学院,,23,15,18,7,6,72,,94,88,8,6,4,4,0.7,0.6
2024-07-31T2200,3592A,114.4644,34.7556,开封市,祥符区生态环境局,,21,20,16,7,6,65,,87,77,13,11,3,3,0.3,0.3
2024-07-31T2200,1951A,84.895,45.6094,克拉玛依市,长征新村,,29,28,19,11,5,91,,103,102,9,4,7,8,0.2,0.2
2024-07-31T2200,1952A,84.8988,45.5893,克拉玛依市,南林小区,,31,31,20,11,12,90,,100,96,16,7,8,7,0.2,0.1
2024-07-31T2200,1954A,84.905,44.3396,克拉玛依市,独山子区,,27,20,26,6,11,84,,103,101,12,9,6,7,0.6,0.6
2024-07-31T2200,1955A,85.6979,46.098,克拉玛依市,乌尔禾区商贸楼,颗粒物(PM10),52,53,26,7,7,98,,111,108,12,9,4,4,0.4,0.4
2024-07-31T2200,3612A,85.1045,45.6899,克拉玛依市,白碱滩区新站,颗粒物(PM10),85,119,33,31,14,92,,108,107,7,4,8,7,0.1,0.3
2024-07-31T2200,2697A,76.1454,39.7142,克孜勒苏柯尔克孜自治州,市人民政府,颗粒物(PM10),70,89,158,44,81,111,,115,115,7,16,9,10,0.4,0.4
2024-07-31T2200,3665A,76.1658,39.7157,克孜勒苏柯尔克孜自治州,克州文化中心,颗粒物(PM10),58,65,140,26,56,121,,122,122,2,11,10,12,0.3,0.4
2024-07-31T2200,1450A,102.8204,24.8886,昆明市,呈贡新区,,29,29,25,20,15,81,,109,103,9,10,7,6,0.8,0.8
2024-07-31T2200,1451A,102.6251,24.9608,昆明市,西山森林公园,,,,,,,,,,,,,,,,
2024-07-31T2200,1452A,102.7252,25.0902,昆明市,龙泉镇,,43,43,20,16,10,80,,110,101,20,10,11,7,0.8,0.7
2024-07-31T2200,1453A,102.7266,25.0375,昆明市,东风东路,,32,32,19,17,12,78,,110,99,22,14,8,5,0.6,0.5
2024-07-31T2200,1454A,102.6742,25.0669,昆明市,金鼎山,,,,31,12,10,85,,111,104,18,11,8,3,0.6,0.4
2024-07-31T2200,1455A,102.6644,25.0401,昆明市,碧鸡广场,,45,45,20,26,13,84,,115,104,20,12,8,4,0.6,0.5
2024-07-31T2200,3179A,102.7494,25.0119,昆明市,官渡区博物馆,,28,28,18,12,12,82,,111,100,19,17,10,6,0.5,0.5
2024-07-31T2200,3375A,102.8017,24.8336,昆明市,青年创业园,,29,29,17,18,11,66,,114,105,18,9,9,10,0.4,0.4
2024-07-31T2200,3550A,102.7997,24.9786,昆明市,昆明学院,,36,36,24,24,16,86,,116,105,14,17,14,6,0.5,0.4
2024-07-31T2200,3551A,102.5967,24.6736,昆明市,晋宁区生态环境分局,,49,49,20,19,12,80,,119,113,11,13,5,5,0.5,0.4
2024-07-31T2200,3552A,102.6678,24.9856,昆明市,云天化总部,,31,31,19,20,14,83,,115,105,17,12,6,5,0.6,0.6
2024-07-31T2200,1456A,91.1319,29.6514,拉萨市,八廓街,,40,25,17,15,10,125,,164,160,25,14,7,6,0.2,0.1
2024-07-31T2200,1457A,91.1221,29.6747,拉萨市,市环保局,,42,22,20,16,10,134,,162,159,17,17,7,6,0.2,0.2
2024-07-31T2200,1458A,91.0874,29.6475,拉萨市,区监测站,,40,15,17,11,10,128,,164,160,24,20,7,7,0.2,0.2
2024-07-31T2200,1459A,91.1774,29.6541,拉萨市,西藏大学,,41,25,13,7,7,131,,168,164,23,8,9,11,0.4,0.4
2024-07-31T2200,1460A,90.9798,29.6588,拉萨市,区辐射站,,45,23,22,8,11,142,,167,164,10,17,7,8,0.2,0.2
2024-07-31T2200,1461A,91.0834,29.6292,拉萨市,拉萨火车站,,44,10,15,6,8,139,,163,161,10,13,10,9,0.2,0.2
2024-07-31T2200,2520A,109.2203,23.7256,来宾市,来宾技工学校,,25,,15,17,18,22,,36,31,8,8,7,7,0.6,0.6
2024-07-31T2200,3535A,109.1781,23.7297,来宾市,兴宾区政府,,8,,10,3,7,25,,38,34,8,6,6,5,0.8,0.8
2024-07-31T2200,4002A,109.2416,23.7461,来宾市,中南小学,,15,15,16,9,6,27,,44,40,9,8,6,8,0.5,0.7
2024-07-31T2200,1476A,103.631,36.1031,兰州市,兰炼宾馆,,42,42,34,28,19,67,,155,134,67,22,10,18,0.6,0.5
2024-07-31T2200,1477A,104.1373,35.9454,兰州市,榆中兰大校区,,,,,,,,,,,,,,,,
2024-07-31T2200,1478A,103.8412,36.0726,兰州市,生物制品所,颗粒物(PM10),58,65,41,25,20,50,,158,132,50,37,7,9,0.5,0.7
2024-07-31T2200,1479A,103.831,36.0464,兰州市,铁路设计院,二氧化氮,74,78,43,33,19,1,,146,107,148,53,11,13,1.3,0.7
2024-07-31T2200,3186A,103.7158,36.1058,兰州市,教育港,颗粒物(PM10),67,83,56,36,26,75,,162,138,50,21,8,12,0.5,0.5
2024-07-31T2200,3241A,103.7439,36.0842,兰州市,百合公园,颗粒物(PM10),63,75,42,22,17,62,,169,137,63,35,8,8,0.7,0.6
2024-07-31T2200,3242A,103.9611,35.998,兰州市,和平,,49,48,37,34,17,129,,166,154,10,22,8,11,0.2,0.4
2024-07-31T2200,3245A,103.6633,36.533,兰州新区,新区管委会,颗粒物(PM10),59,67,28,27,15,104,,170,161,27,15,9,15,0.4,0.4
2024-07-31T2200,3246A,103.6975,36.4789,兰州新区,舟曲中学,,41,40,22,10,8,130,,162,155,20,10,9,15,0.3,0.4
2024-07-31T2200,1067A,116.6708,39.5111,廊坊市,药材公司,,40,40,32,15,18,115,,135,132,10,8,3,2,0.5,0.5
2024-07-31T2200,1068A,116.7214,39.5589,廊坊市,开发区,,33,32,35,21,22,103,,146,141,7,4,3,3,0.1,0.2
2024-07-31T2200,1070A,116.7244,39.5269,廊坊市,北华航天学院,,44,44,42,20,20,105,,143,138,11,6,3,2,0.6,0.5
2024-07-31T2200,2919A,116.7022,39.5453,廊坊市,河北工业大学,,35,33,37,24,18,106,,134,132,10,5,1,2,0.6,0.5
2024-07-31T2200,2535A,103.7723,29.5462,乐山市,花湖湾,,30,27,32,21,26,95,,112,110,12,14,4,4,0.4,0.6
2024-07-31T2200,2536A,103.7627,29.5844,乐山市,牛耳桥,,30,30,30,18,20,63,,118,104,29,19,3,3,0.6,0.5
2024-07-31T2200,2537A,103.7508,29.6006,乐山市,市第三水厂,,36,36,33,20,17,64,,125,112,38,20,2,3,0.5,0.5
2024-07-31T2200,2538A,103.7571,29.5664,乐山市,市监测站,,30,27,34,20,23,96,,128,118,16,18,5,4,0.5,0.6
2024-07-31T2200,3361A,103.7311,29.5628,乐山市,理工大学,,29,27,32,20,21,87,,132,120,13,16,3,4,0.3,0.4
2024-07-31T2200,2598A,100.2143,26.8576,丽江市,西南郊,,,,,,,,,,,,,,,,
2024-07-31T2200,2599A,100.2497,26.8802,丽江市,丽江古城,,28,27,17,17,10,87,,111,105,14,11,5,5,0.7,0.6
2024-07-31T2200,2600A,100.2203,26.8906,丽江市,市中心,,35,12,13,12,7,110,,127,122,14,9,8,7,0.6,0.5
2024-07-31T2200,1267A,119.914,28.4514,丽水市,监测站大楼,,22,,16,15,9,68,,81,62,10,7,3,3,0.5,0.4
2024-07-31T2200,1268A,119.93,28.4586,丽水市,莲都小学,,23,19,16,3,7,71,,77,62,9,7,3,4,0.5,0.4
2024-07-31T2200,1269A,119.879,28.4231,丽水市,余庄前,,22,16,15,15,9,37,,74,48,10,8,3,2,0.4,0.4
2024-07-31T2200,1173A,119.176,34.5885,连云港市,市环境监测站,,30,27,34,12,19,93,,126,114,10,12,4,4,0.4,0.5
2024-07-31T2200,3000A,119.3581,34.6972,连云港市,德源药业,,28,24,29,14,17,89,,121,114,18,16,1,2,0.4,0.5
2024-07-31T2200,3007A,119.178,34.844,连云港市,新城一中,,34,20,33,14,18,106,,134,124,10,11,2,2,0.7,0.7
2024-07-31T2200,3008A,119.3608,34.7519,连云港市,胡沟管理处,,31,24,25,9,14,97,,116,109,14,11,7,8,0.6,0.7
2024-07-31T2200,3009A,119.1478,34.5911,连云港市,矿山设计院,,30,24,32,12,18,95,,114,109,7,10,4,4,0.6,0.7
2024-07-31T2200,3434A,119.2413,34.6539,连云港市,工贸学校,,34,20,30,14,18,108,,123,123,8,10,5,6,0.6,0.4
2024-07-31T2200,3664A,119.4172,34.7341,连云港市,连云街道,,36,22,28,12,15,113,,125,121,10,12,2,3,0.4,0.4
2024-07-31T2200,2571A,102.3431,27.8099,凉山彝族自治州,青龙寺,,25,18,12,9,5,80,,128,120,5,4,2,3,0.4,0.5
2024-07-31T2200,2572A,102.2721,27.8415,凉山彝族自治州,邛海宾馆,,25,19,18,7,7,80,,135,124,16,11,8,8,0.6,0.6
2024-07-31T2200,2573A,102.2625,27.898,凉山彝族自治州,西昌市政府,,24,14,11,3,5,75,,142,130,3,6,7,8,0.6,0.7
2024-07-31T2200,2574A,102.2685,27.8851,凉山彝族自治州,凉山州政府,,25,19,16,17,9,77,,142,132,6,8,5,6,0.5,0.5
2024-07-31T2200,2575A,102.237,27.8914,凉山彝族自治州,长安,,26,25,18,10,8,83,,147,138,5,9,8,9,0.3,0.3
2024-07-31T2200,2212A,123.2,41.1953,辽阳市,宏伟区,,25,21,13,3,4,80,,92,69,4,2,5,5,0.5,0.5
2024-07-31T2200,2213A,123.1683,41.2495,辽阳市,新华园,,29,29,15,10,10,78,,92,67,8,2,3,3,0.9,0.5
2024-07-31T2200,2214A,123.2354,41.2639,辽阳市,滨河路,,25,12,17,3,8,80,,73,63,6,5,7,7,0.5,0.3
2024-07-31T2200,2215A,123.149,41.2991,辽阳市,铁西工业园,,34,34,22,9,8,76,,85,62,5,4,6,7,0.8,0.7
2024-07-31T2200,2227A,125.1358,42.8845,辽源市,环保局,,21,6,20,3,10,67,,79,70,2,4,5,6,0.4,0.6
2024-07-31T2200,3239A,125.0764,42.9078,辽源市,银鹰制药,,21,10,17,3,11,65,,79,69,2,8,5,5,0.6,0.8
2024-07-31T2200,1625A,115.9848,36.4372,聊城市,区政府,,22,22,17,3,5,70,,97,91,10,8,7,7,0.5,0.5
2024-07-31T2200,2878A,116.0072,36.4343,聊城市,聊大东校,,23,9,14,3,11,73,,101,94,12,10,5,7,0.5,0.5
2024-07-31T2200,3200A,115.9819,36.4978,聊城市,监控中心,,23,22,16,3,4,71,,97,93,6,6,6,6,0.6,0.5
2024-07-31T2200,3513A,116.0445,36.4361,聊城市,九州社区,,,25,21,3,5,,,91,89,10,9,3,3,0.4,0.5
2024-07-31T2200,4018A,116.0567,36.4608,聊城市,星美广场,,25,25,22,3,6,66,,96,89,9,7,7,5,0.5,0.5
2024-07-31T2200,2632A,94.3681,29.6376,林芝市,林芝监测站,,32,,15,9,8,100,,110,110,1,5,8,8,0.3,0.3
2024-07-31T2200,2633A,94.3616,29.6616,林芝市,林芝人民医院,,31,16,16,8,8,99,,113,113,6,7,10,10,0.1,0.2
2024-07-31T2200,2603A,100.0781,23.8982,临沧市,市环保局,,42,39,14,29,18,26,,76,63,20,10,4,5,0.6,0.4
2024-07-31T2200,2604A,100.0894,23.8822,临沧市,市气象局,,30,26,13,21,9,27,,73,60,16,9,4,4,0.6,0.3
2024-07-31T2200,1733A,111.5531,36.0783,临汾市,临钢医院,颗粒物(PM10),58,66,43,23,20,106,,164,147,13,12,6,7,0.9,1
2024-07-31T2200,1734A,111.5028,36.0714,临汾市,技工学校,颗粒物(PM10),52,53,44,22,23,104,,169,150,22,18,8,9,0.7,1.1
2024-07-31T2200,1736A,111.5018,36.0855,临汾市,市委,,46,46,47,24,25,114,,176,156,19,17,4,7,1.1,1.3
2024-07-31T2200,3018A,111.505,36.1014,临汾市,唐尧大酒店,,40,40,39,20,20,99,,157,137,15,15,3,6,1.0,1.2
2024-07-31T2200,3668A,111.5036,36.0414,临汾市,城南,颗粒物(PM10),53,55,47,25,21,95,,173,148,23,18,3,6,0.6,1.1
2024-07-31T2200,2667A,103.2069,35.5993,临夏回族自治州,环保局,颗粒物(PM10),63,75,41,22,19,70,,148,131,25,10,10,8,0.7,0.4
2024-07-31T2200,2668A,103.2417,35.6057,临夏回族自治州,建设大厦,细颗粒物(PM2.5),82,110,32,60,18,65,,148,131,28,8,15,14,0.9,0.4
2024-07-31T2200,1618A,118.3429,35.0532,临沂市,沂河小区,,28,24,29,17,18,89,,126,115,7,10,7,10,0.3,0.4
2024-07-31T2200,1619A,118.295,35.0583,临沂市,鲁南制药厂,,29,19,25,12,19,91,,130,117,11,14,5,9,0.3,0.4
2024-07-31T2200,1620A,118.2794,34.9976,临沂市,新光毛纺厂,,27,27,27,16,16,83,,125,113,10,11,6,10,0.6,0.7
2024-07-31T2200,1621A,118.3956,35.0888,临沂市,河东保险公司,,28,22,24,7,12,88,,132,123,17,14,10,10,0.5,0.5
2024-07-31T2200,3370A,118.3564,35.0215,临沂市,十里堡居委,,25,14,21,12,15,80,,128,116,16,14,9,10,0.6,0.7
2024-07-31T2200,3496A,118.3604,35.1084,临沂市,南坊新区,,30,22,29,7,11,94,,131,121,10,14,8,11,0.6,0.7
2024-07-31T2200,3860A,118.3920,35.0300,临沂市,皇山花园小区,,24,24,30,16,19,76,,121,110,19,14,8,9,0.4,0.5
2024-07-31T2200,1870A,109.4856,24.3895,柳州市,柳东小学,,10,9,11,3,5,29,,45,38,12,10,6,7,0.6,0.6
2024-07-31T2200,1871A,109.4157,24.3277,柳州市,环保监测站,,12,12,10,3,7,24,,45,38,13,8,7,7,0.7,0.7
2024-07-31T2200,1872A,109.389,24.341,柳州市,河西水厂,,10,8,12,6,6,29,,47,40,8,7,10,10,0.7,0.7
2024-07-31T2200,1873A,109.4311,24.2921,柳州市,市四中,,16,16,15,6,5,32,,49,45,10,8,6,6,0.5,0.6
2024-07-31T2200,1874A,109.4006,24.3631,柳州市,市九中,,14,14,14,3,7,31,,49,43,12,10,5,5,0.7,0.7
2024-07-31T2200,1875A,109.4958,24.3134,柳州市,古亭山,,10,10,13,3,3,30,,46,41,12,11,6,6,0.8,0.7
2024-07-31T2200,3402A,109.5422,24.3996,柳州市,市二中,,10,7,16,7,7,28,,43,36,8,12,5,6,0.5,0.5
2024-07-31T2200,2307A,116.5079,31.737,六安市,监测大楼,,18,11,14,10,9,57,,80,68,11,7,6,6,0.3,0.4
2024-07-31T2200,2308A,116.4738,31.7643,六安市,皖西学院,,21,20,16,10,8,65,,83,74,3,3,5,4,0.1,0.1
2024-07-31T2200,2309A,116.4996,31.7905,六安市,朝阳厂,,16,,10,10,9,50,,68,57,5,3,10,9,0.2,0.2
2024-07-31T2200,2310A,116.5567,31.7886,六安市,开发区,,41,41,20,17,17,49,,78,63,7,5,7,8,0.3,0.3
2024-07-31T2200,2576A,104.8,26.5892,六盘水市,窑上,,,,,,,,,,,,,,,,
2024-07-31T2200,2577A,104.83,26.5917,六盘水市,黄土坡,,29,29,25,19,16,77,,92,85,14,15,9,10,0.4,0.5
2024-07-31T2200,2578A,104.89,26.5939,六盘水市,水钢,,34,34,27,17,15,65,,99,90,15,13,9,7,0.4,0.5
2024-07-31T2200,2579A,104.8475,26.5894,六盘水市,民中,,35,30,21,24,14,79,,94,89,14,15,10,9,0.6,0.6
2024-07-31T2200,2580A,104.9544,26.5506,六盘水市,双水,,26,24,24,18,14,60,,90,80,9,10,8,8,0.4,0.4
2024-07-31T2200,2335A,117.0189,25.1181,龙岩市,龙岩师专,,,,,,,,,,,,,,,,
2024-07-31T2200,2336A,117.0217,25.1033,龙岩市,龙岩市监测站,,20,19,9,14,8,10,,52,41,25,10,4,4,0.4,0.3
2024-07-31T2200,2337A,117.0258,25.0661,龙岩市,闽西职业技术学院,,27,27,12,7,4,14,,50,36,18,7,4,4,0.4,0.3
2024-07-31T2200,2338A,117.0196,25.0306,龙岩市,龙岩学院,,18,13,11,12,6,21,,48,38,6,5,2,3,0.2,0.2
2024-07-31T2200,2665A,105.0822,33.3261,陇南市,汉王镇固水子,,,,,,,,,,,,,,,,
2024-07-31T2200,2885A,104.9339,33.3826,陇南市,滨江中学,颗粒物(PM10),51,52,34,22,8,92,,117,110,11,15,4,4,0.7,0.7
2024-07-31T2200,3247A,104.955,33.371,陇南市,市总工会,,36,36,29,7,7,100,,122,118,5,6,5,4,0.6,0.6
2024-07-31T2200,2487A,111.9589,27.8901,娄底市,电视发射台,,22,22,21,7,7,18,,66,40,5,7,6,7,0.3,0.4
2024-07-31T2200,2488A,111.9975,27.725,娄底市,市监测站,,15,,18,10,13,47,,73,65,4,7,7,8,0.5,0.4
2024-07-31T2200,2489A,112.0194,27.7314,娄底市,市委党校,,,22,21,15,11,,,64,61,5,11,10,9,0.3,0.3
2024-07-31T2200,2490A,111.9561,27.7569,娄底市,涟钢,,34,34,34,10,14,31,,48,46,16,22,35,36,0.5,0.9
2024-07-31T2200,2491A,111.9892,27.7044,娄底市,市政府,,15,13,13,9,8,47,,72,65,5,7,6,6,0.2,0.2
2024-07-31T2200,1893A,105.4324,28.9634,泸州市,九狮山,,39,38,33,27,23,52,,117,99,20,18,5,5,0.3,0.4
2024-07-31T2200,1894A,105.4427,28.9063,泸州市,小市上码头,颗粒物(PM10),52,54,42,25,23,93,,142,133,18,16,5,9,0.4,0.4
2024-07-31T2200,1895A,105.4241,28.8573,泸州市,兰田宪桥,,46,40,39,32,31,85,,137,127,15,22,4,6,0.5,0.5
2024-07-31T2200,1896A,105.4379,28.8833,泸州市,市环监站,细颗粒物(PM2.5),52,45,39,36,32,79,,135,123,25,19,8,11,0.7,0.6
2024-07-31T2200,3490A,105.3617,28.7703,泸州市,纳溪区环保局,细颗粒物(PM2.5),52,44,43,36,34,83,,134,128,27,25,5,5,0.6,0.6
2024-07-31T2200,2183A,111.1406,37.5211,吕梁市,环保局,颗粒物(PM10),90,130,32,30,16,48,,152,122,52,20,4,4,0.6,0.6
2024-07-31T2200,2185A,111.1297,37.5136,吕梁市,自来水公司,颗粒物(PM10),53,55,26,13,13,71,,148,128,36,19,2,3,0.6,0.5
2024-07-31T2200,2867A,111.1283,37.51,吕梁市,马茂庄小学,颗粒物(PM10),72,94,37,16,12,44,,160,139,67,23,2,3,0.7,0.7
2024-07-31T2200,1812A,112.3931,34.6516,洛阳市,市委党校,,23,23,14,14,11,64,,106,98,11,6,2,3,0.8,0.7
2024-07-31T2200,1814A,112.4657,34.6871,洛阳市,豫西宾馆,,31,31,22,14,9,78,,113,104,8,7,4,3,0.4,0.3
2024-07-31T2200,1815A,112.494,34.6886,洛阳市,河南林校,,24,20,11,14,9,76,,105,98,8,7,3,3,0.8,0.7
2024-07-31T2200,1816A,112.3844,34.623,洛阳市,开发区管委会,,25,25,15,12,8,64,,99,92,11,7,3,3,0.5,0.4
2024-07-31T2200,1817A,112.4267,34.6258,洛阳市,市委新办公区,,27,27,16,13,10,76,,105,100,2,3,6,6,0.7,0.6
2024-07-31T2200,3340A,112.6005,34.6326,洛阳市,伊滨,,,,14,,11,,,84,,,11,,2,,0.2
2024-07-31T2200,3341A,112.4951,34.6332,洛阳市,中移产业园,,24,22,20,14,12,76,,104,98,4,5,4,7,0.7,0.8
2024-07-31T2200,3593A,112.5736,34.8993,洛阳市,吉利监测站,,43,43,26,17,14,64,,114,97,10,6,4,3,1.0,0.9
2024-07-31T2200,3635A,112.3677,34.662,洛阳市,河科大西苑校区,,23,14,9,6,5,71,,107,99,4,3,5,3,0.8,0.6
2024-07-31T2200,3636A,112.4388,34.6781,洛阳市,英才小学,,30,23,11,21,13,71,,108,99,4,4,8,5,0.8,0.8
2024-07-31T2200,2399A,114.051,33.5699,漯河市,三五一五工厂,,22,20,9,8,5,70,,82,81,13,8,7,7,0.4,0.4
2024-07-31T2200,2400A,114.0055,33.5698,漯河市,漯河大学,,22,19,12,3,4,70,,82,79,11,6,7,6,0.3,0.3
2024-07-31T2200,2401A,114.0138,33.5828,漯河市,市水利局,,22,9,7,3,2,70,,81,79,9,6,6,6,0.4,0.3
2024-07-31T2200,2402A,114.0261,33.5698,漯河市,市广电局,,23,7,4,3,7,73,,82,81,10,6,4,4,0.4,0.4
2024-07-31T2200,3478A,113.9749,33.5664,漯河市,市图书馆,,23,13,10,9,7,73,,84,81,10,7,5,7,0.4,0.3
2024-07-31T2200,3479A,114.0967,33.5906,漯河市,召陵区卫健委,,25,20,14,11,7,78,,85,84,6,5,2,2,0.4,0.4
2024-07-31T2200,1798A,118.5092,31.6837,马鞍山市,湖东路四小,,38,31,32,26,21,63,,108,99,24,15,5,7,0.6,0.6
2024-07-31T2200,1799A,118.5024,31.6449,马鞍山市,开发区,,36,36,35,22,18,56,,106,91,30,25,3,3,0.7,0.7
2024-07-31T2200,1800A,118.5228,31.7231,马鞍山市,慈湖,,31,31,31,20,19,72,,106,100,21,19,6,6,0.6,0.7
2024-07-31T2200,1802A,118.6245,31.7241,马鞍山市,濮塘,,29,26,27,20,18,60,,103,88,16,15,4,5,0.6,0.7
2024-07-31T2200,3633A,118.4918,31.6809,马鞍山市,雨山,,30,30,28,19,18,59,,104,96,23,16,6,7,0.8,0.8
2024-07-31T2200,1686A,111.0286,21.4688,茂名市,电白南海,,27,27,24,7,13,47,,64,60,6,6,6,6,0.5,0.4
2024-07-31T2200,1687A,110.9294,21.6533,茂名市,茂石化七小,,28,22,18,19,16,29,,52,46,15,7,8,7,0.6,0.4
2024-07-31T2200,1688A,110.9107,21.6687,茂名市,健康路,,18,17,25,12,5,27,,58,53,14,6,11,10,0.6,0.5
2024-07-31T2200,1689A,110.8592,21.6828,茂名市,高岭,,19,19,16,9,12,21,,52,42,14,11,9,9,0.8,0.7
2024-07-31T2200,3450A,111.01,21.5165,茂名市,电白水东,,19,19,15,9,9,47,,58,54,6,8,3,4,0.7,0.6
2024-07-31T2200,2539A,104.0308,30.0478,眉山市,黑龙滩水库,细颗粒物(PM2.5),60,54,17,43,24,92,,124,117,2,2,3,3,0.2,0.2
2024-07-31T2200,2540A,103.8416,30.0874,眉山市,气象局,颗粒物(PM10),54,57,37,29,18,40,,140,113,40,25,7,8,0.5,0.5
2024-07-31T2200,3137A,103.8578,30.0744,眉山市,市委党校,,,,26,,11,38,,134,110,56,23,,6,0.6,0.5
2024-07-31T2200,3148A,103.8291,30.0564,眉山市,区人社局,,39,39,26,14,14,81,,135,119,34,27,8,9,0.8,0.8
2024-07-31T2200,1690A,116.1231,24.3284,梅州市,梅江月梅,,12,12,11,8,5,24,,55,46,8,4,7,7,0.5,0.4
2024-07-31T2200,1691A,116.0797,24.2719,梅州市,梅县新城,,10,9,14,6,7,32,,53,45,5,9,4,4,0.5,0.5
2024-07-31T2200,1692A,116.1248,24.2654,梅州市,环境监控中心,,20,20,17,3,7,5,,47,31,24,14,4,7,0.5,0.5
2024-07-31T2200,3315A,116.1233,24.2991,梅州市,梅龙,,14,14,10,7,5,25,,56,44,11,6,8,8,0.6,0.6
2024-07-31T2200,1878A,104.7778,31.4741,绵阳市,富乐山,,35,31,32,24,26,91,,142,123,8,7,7,9,0.6,0.6
2024-07-31T2200,1879A,104.7563,31.4535,绵阳市,市人大,,39,39,39,24,25,91,,142,132,26,14,7,9,0.5,0.5
2024-07-31T2200,1880A,104.6697,31.4668,绵阳市,高新区自来水公司,颗粒物(PM10),58,66,40,27,20,86,,140,129,55,17,7,7,0.5,0.5
2024-07-31T2200,1881A,104.7287,31.5075,绵阳市,三水厂,,43,40,40,30,28,48,,134,113,59,23,5,5,0.8,0.6
2024-07-31T2200,3491A,104.69,31.5322,绵阳市,西科大附属小学,颗粒物(PM10),52,53,44,34,26,106,,142,137,27,19,10,8,0.4,0.4
2024-07-31T2200,3492A,104.5648,31.5343,绵阳市,安州区旅游局,细颗粒物(PM2.5),52,40,32,36,29,109,,169,162,20,18,4,5,0.8,0.7
2024-07-31T2200,1784A,129.61,44.561,牡丹江市,环保大楼,,28,,18,19,14,35,,34,30,6,11,7,7,0.3,0.3
2024-07-31T2200,1785A,129.6115,44.5782,牡丹江市,文化广场,,30,,22,21,26,33,,29,24,6,15,7,7,0.3,0.4
2024-07-31T2200,1786A,129.5904,44.5963,牡丹江市,第一医院,,15,,17,10,16,35,,30,24,4,13,5,5,0.4,0.5
2024-07-31T2200,1787A,129.6364,44.6075,牡丹江市,机车工厂,,23,17,20,16,16,28,,27,21,7,13,5,6,0.4,0.5
2024-07-31T2200,1788A,129.6386,44.5462,牡丹江市,第一中学,,25,,22,17,10,34,,28,26,6,12,5,4,0.4,0.4
2024-07-31T2200,2531A,105.0703,29.61,内江市,市监测站,,42,,24,29,28,92,,138,132,32,23,9,9,0.4,0.4
2024-07-31T2200,2532A,105.0717,29.5947,内江市,东兴区政府,,29,26,32,20,18,88,,130,124,25,14,10,11,0.6,0.6
2024-07-31T2200,2533A,105.0653,29.5817,内江市,内江二中,,48,41,32,33,20,103,,143,137,14,16,3,4,0.6,0.6
2024-07-31T2200,2534A,105.0406,29.5822,内江市,内江日报社,,40,40,30,25,27,108,,145,140,15,18,7,8,0.5,0.6
2024-07-31T2200,2628A,92.0657,31.4846,那曲市,那曲监测站,颗粒物(PM10),130,209,72,49,24,75,,140,131,26,8,10,7,0.7,0.6
2024-07-31T2200,3128A,92.0506,31.4797,那曲市,那曲会议中心,颗粒物(PM10),90,130,41,36,14,92,,150,141,29,9,4,4,0.6,0.4
2024-07-31T2200,1290A,115.8931,28.6843,南昌市,省外办,,25,25,27,12,12,59,,84,70,10,12,12,11,0.2,0.3
2024-07-31T2200,1291A,115.8886,28.7003,南昌市,省林业公司,,16,14,18,7,8,49,,75,60,13,16,10,9,0.3,0.3
2024-07-31T2200,1292A,115.8126,28.7442,南昌市,林科所,,14,9,13,3,3,44,,74,65,18,19,9,9,0.3,0.3
2024-07-31T2200,1294A,115.8518,28.687,南昌市,建工学校,,27,27,18,10,8,47,,76,62,11,10,11,10,0.4,0.4
2024-07-31T2200,1295A,115.8921,28.6424,南昌市,象湖,,16,,13,8,7,49,,76,60,10,9,12,8,0.2,0.2
2024-07-31T2200,1296A,115.7423,28.7996,南昌市,武术学校,,18,18,17,10,12,29,,61,48,5,4,1,2,0.5,0.5
2024-07-31T2200,1298A,115.9314,28.6842,南昌市,省站,,40,40,21,11,11,44,,70,56,15,13,12,10,0.4,0.4
2024-07-31T2200,3046A,115.9084,28.6062,南昌市,机电学校,,20,20,22,7,8,44,,68,55,9,8,12,11,0.5,0.6
2024-07-31T2200,3690A,115.9721,28.7031,南昌市,外国语学校,,25,25,21,9,9,45,,69,56,9,9,6,6,0.3,0.3
2024-07-31T2200,1905A,106.056,30.8064,南充市,西山风景区,,38,33,25,26,24,115,,115,113,6,7,1,2,0.2,0.1
2024-07-31T2200,1906A,106.0789,30.8023,南充市,南充市委,,43,42,38,30,24,131,,138,134,11,11,8,7,0.4,0.4
2024-07-31T2200,1907A,106.1031,30.8217,南充市,南充炼油厂,,44,44,40,26,27,126,,151,143,14,12,5,5,0.3,0.3
2024-07-31T2200,1908A,106.1064,30.7856,南充市,高坪区监测站,,40,40,36,22,22,118,,136,130,13,14,6,5,0.3,0.2
2024-07-31T2200,1909A,106.0642,30.7636,南充市,嘉陵区环保局,,42,39,37,29,25,118,,132,130,18,14,4,4,0.4,0.4
2024-07-31T2200,1910A,106.1087,30.8388,南充市,市环境监测站,,40,39,40,24,26,128,,136,134,15,16,5,5,0.6,0.6
2024-07-31T2200,1151A,118.8086,32.1065,南京市,迈皋桥,,28,13,19,7,11,87,,113,105,1,12,6,6,0.3,0.3
2024-07-31T2200,1152A,118.7538,32.0551,南京市,草场门,,26,24,25,3,12,81,,104,95,9,10,10,8,0.5,0.5
2024-07-31T2200,1153A,118.7794,32.0745,南京市,山西路,,29,22,26,9,12,91,,116,108,2,4,4,4,0.3,0.4
2024-07-31T2200,1154A,118.7752,32.0023,南京市,中华门,,39,39,25,9,14,61,,109,96,12,12,4,8,0.4,0.6
2024-07-31T2200,1155A,118.8109,32.0309,南京市,瑞金路,,24,24,28,12,12,70,,117,103,7,5,9,10,0.4,0.5
2024-07-31T2200,1156A,118.7997,32.0754,南京市,玄武湖,,23,20,28,9,11,71,,90,85,2,2,4,4,0.5,0.6
2024-07-31T2200,1157A,118.6414,32.0931,南京市,浦口,,22,,26,12,10,69,,100,94,7,8,6,6,0.6,0.7
2024-07-31T2200,1158A,118.7356,31.9996,南京市,奥体中心,,25,18,27,17,17,68,,105,95,20,15,10,11,0.4,0.4
2024-07-31T2200,1159A,118.9125,32.1028,南京市,仙林大学城,,24,19,28,9,12,74,,120,107,16,13,10,9,0.5,0.7
2024-07-31T2200,3422A,118.8436,31.9198,南京市,江宁彩虹桥,,27,27,26,12,12,68,,102,90,15,9,5,4,0.5,0.5
2024-07-31T2200,3423A,119.0138,31.6494,南京市,溧水永阳,,23,17,21,13,15,73,,122,108,6,10,3,4,0.6,0.7
2024-07-31T2200,3424A,118.879,31.3302,南京市,高淳老职中,,26,18,24,16,18,82,,107,105,20,21,6,4,0.6,0.5
2024-07-31T2200,3427A,118.8554,32.3578,南京市,六合雄州,,,33,21,,16,87,,102,98,2,8,8,8,0.6,0.6
2024-07-31T2200,1401A,108.3103,22.7881,南宁市,二十一中,,,4,10,,6,30,,35,34,8,8,3,3,0.6,0.6
2024-07-31T2200,1402A,108.3141,22.8528,南宁市,北湖,,9,,11,6,4,25,,33,32,12,11,2,3,0.7,0.7
2024-07-31T2200,1403A,108.3206,22.8225,南宁市,市监测站,,20,,12,14,13,27,,36,34,11,10,5,4,0.5,0.6
2024-07-31T2200,1404A,108.3829,22.8037,南宁市,大自然花园,,10,6,8,3,5,31,,36,35,7,8,4,4,0.6,0.7
2024-07-31T2200,1405A,108.4394,22.7904,南宁市,仙葫,,,,,,,,,,,,,,,,
2024-07-31T2200,1406A,108.2397,22.8467,南宁市,区农职院,,,40,16,9,6,,,33,33,,10,3,2,0.6,0.6
2024-07-31T2200,1407A,108.3275,22.735,南宁市,英华嘉园,,15,10,12,10,7,20,,31,28,18,12,5,5,0.5,0.5
2024-07-31T2200,1408A,108.2257,22.7757,南宁市,沙井镇街道办,,21,21,14,9,5,11,,31,27,24,16,2,2,0.4,0.5
2024-07-31T2200,3401A,108.4834,22.7618,南宁市,红星社区,,13,13,13,9,5,27,,35,33,8,6,4,5,0.6,0.6
2024-07-31T2200,2331A,118.0966,26.6761,南平市,茫荡山,,,,,,,,,,,,,,,,
2024-07-31T2200,2332A,118.1681,26.6369,南平市,南平市监测站,,11,7,16,3,7,35,,64,57,9,8,4,4,0.6,0.6
2024-07-31T2200,2333A,118.1825,26.6489,南平市,南平铝业有限公司,,14,8,18,3,9,43,,64,56,3,7,5,6,0.6,0.6
2024-07-31T2200,2334A,118.1756,26.6272,南平市,南平七中,,12,12,30,3,8,35,,65,57,3,6,4,4,0.6,0.6
2024-07-31T2200,1168A,120.9098,31.9663,南通市,狼山街道,,32,32,22,17,10,63,,186,152,48,20,8,8,0.5,0.5
2024-07-31T2200,1169A,120.86,32.0005,南通市,虹桥,,31,31,24,18,12,78,,185,152,37,20,6,7,0.6,0.6
2024-07-31T2200,1170A,120.87,32.02,南通市,城中,,42,42,30,16,9,86,,184,154,33,16,8,8,0.7,0.6
2024-07-31T2200,1171A,120.94,31.93,南通市,星湖花园,,30,30,21,6,9,56,,194,155,56,22,7,6,0.5,0.5
2024-07-31T2200,1172A,120.81,32.0417,南通市,紫琅学院,,31,26,22,16,11,99,,181,137,34,34,8,8,0.5,0.5
2024-07-31T2200,3291A,121.067,32.062,南通市,通州监测站,,36,36,31,19,11,102,,203,174,18,13,4,5,0.7,0.6
2024-07-31T2200,3432A,120.9348,31.9883,南通市,环境教育馆,,31,31,29,15,10,77,,188,156,39,19,10,10,0.5,0.5
2024-07-31T2200,2404A,112.5224,33.0122,南阳市,瓦房庄,,30,19,9,10,5,93,,87,87,12,9,6,5,0.4,0.4
2024-07-31T2200,2405A,112.5003,32.9735,南阳市,汉画馆,,24,21,13,9,8,74,,79,77,10,11,4,4,0.4,0.4
2024-07-31T2200,2406A,112.5573,33.027,南阳市,气象站,,29,13,6,9,4,91,,87,87,14,7,4,5,0.6,0.5
2024-07-31T2200,2407A,112.5481,32.9689,南阳市,理工学院,,25,16,8,3,6,80,,83,82,11,8,1,1,0.5,0.2
2024-07-31T2200,4008A,112.5234,32.9922,南阳市,卧龙区政府,,22,22,9,11,7,67,,79,77,26,11,4,4,0.6,0.6
2024-07-31T2200,1234A,121.8358,29.911,宁波市,区环保大楼,,31,31,24,16,10,62,,95,84,18,12,7,6,0.5,0.6
2024-07-31T2200,1235A,121.56,29.82,宁波市,万里学院,,26,26,19,16,12,73,,102,96,12,9,7,8,0.6,0.6
2024-07-31T2200,1236A,121.713,29.9572,宁波市,龙赛医院,,28,28,17,8,7,74,,105,101,14,11,6,6,0.6,0.5
2024-07-31T2200,1239A,121.633,29.7733,宁波市,钱湖水厂,,21,20,14,8,8,67,,99,97,7,4,6,6,0.7,0.6
2024-07-31T2200,1240A,121.5856,29.8635,宁波市,太古小学,,29,29,21,15,10,71,,102,95,11,6,6,6,0.9,0.8
2024-07-31T2200,1241A,121.524,29.8674,宁波市,市环境监测中心,,31,31,18,18,9,86,,114,108,11,8,5,4,0.9,0.8
2024-07-31T2200,2871A,121.6147,29.9017,宁波市,万里国际学校,,25,22,14,12,8,77,,111,104,11,7,6,6,0.5,0.4
2024-07-31T2200,3710A,121.5594,29.8975,宁波市,白沙活动中心,,25,19,17,15,9,78,,106,98,12,7,6,6,0.4,0.4
2024-07-31T2200,2339A,119.5001,26.6946,宁德市,金涵水库,,,,,,,,,,,,,,,,
2024-07-31T2200,2341A,119.5388,26.6612,宁德市,宁德市监测站,,18,18,27,12,11,40,,89,66,19,11,6,5,0.9,0.9
2024-07-31T2200,3209A,119.5231,26.6562,宁德市,宁德一中,,23,23,27,8,11,40,,92,72,9,8,6,6,1.0,1
2024-07-31T2200,2618A,98.8601,25.8567,怒江傈僳族自治州,州监测站,,33,33,23,23,13,61,,85,85,22,9,8,8,0.5,0.5
2024-07-31T2200,2619A,98.8546,25.8417,怒江傈僳族自治州,泸水一中,,,,19,19,7,52,,78,76,18,11,5,4,,0.5
2024-07-31T2200,1888A,101.6891,26.571,攀枝花市,弄弄坪,颗粒物(PM10),61,72,51,27,24,71,,147,138,38,21,17,16,1.1,1.1
2024-07-31T2200,1889A,101.5769,26.5928,攀枝花市,河门口,细颗粒物(PM2.5),72,53,28,52,20,82,,150,141,29,16,10,10,0.7,0.5
2024-07-31T2200,1890A,101.7169,26.585,攀枝花市,炳草岗,,45,43,51,31,19,97,,150,147,19,24,7,11,0.6,0.8
2024-07-31T2200,1891A,101.7369,26.5008,攀枝花市,仁和,,42,42,40,20,18,59,,136,121,24,17,9,16,0.6,1.2
2024-07-31T2200,2835A,101.7227,26.567,攀枝花市,四十中小,颗粒物(PM10),56,61,35,32,16,57,,159,147,60,28,12,18,1.5,1.4
2024-07-31T2200,1604A,122.0303,41.1489,盘锦市,开发区,,,,27,10,14,96,,115,105,7,10,8,5,0.3,0.3
2024-07-31T2200,1605A,122.0485,41.0883,盘锦市,兴隆台,,31,,27,3,12,97,,116,106,15,17,4,4,0.2,0.3
2024-07-31T2200,1606A,121.8297,41.1028,盘锦市,新生街道,,29,12,32,10,13,90,,126,113,6,7,4,4,0.1,0.2
2024-07-31T2200,1832A,113.3257,33.742,平顶山市,新华旅馆,,24,6,17,6,14,74,,86,83,8,4,3,2,0.4,0.4
2024-07-31T2200,1833A,113.2919,33.737,平顶山市,规划设计院,,23,18,9,7,2,73,,88,85,11,8,5,5,0.5,0.5
2024-07-31T2200,1834A,113.182,33.774,平顶山市,平顶山工学院,,24,8,7,3,1,74,,88,87,5,3,5,5,0.7,0.7
2024-07-31T2200,3204A,113.3025,33.73,平顶山市,规划局,,,9,5,8,6,,,82,82,6,7,3,3,0.7,0.7
2024-07-31T2200,3594A,112.8867,33.9116,平顶山市,石龙区,,21,19,13,12,10,66,,79,77,6,7,7,8,0.4,0.4
2024-07-31T2200,2656A,106.6692,35.5461,平凉市,聚贤嘉苑,,34,34,37,7,10,57,,130,85,48,29,11,8,0.5,0.3
2024-07-31T2200,2657A,106.7021,35.5307,平凉市,博物馆,,48,48,48,14,12,52,,139,116,51,16,21,12,1.0,0.4
2024-07-31T2200,2347A,114.0997,27.5002,萍乡市,武功山,,7,6,4,3,3,21,,50,36,4,3,14,14,0.2,0.2
2024-07-31T2200,2348A,113.8385,27.6434,萍乡市,中医院,,19,16,20,13,9,40,,58,50,7,9,6,5,0.6,0.6
2024-07-31T2200,2349A,113.8493,27.6253,萍乡市,市政府车库,,15,,17,10,11,40,,58,49,3,6,11,10,0.4,0.4
2024-07-31T2200,2350A,113.8676,27.6435,萍乡市,市环保局,,29,27,19,20,14,26,,61,49,20,5,22,10,1.4,0.5
2024-07-31T2200,2351A,113.866,27.6198,萍乡市,安源区政府,,18,18,19,3,3,36,,57,48,9,8,13,10,0.9,0.4
2024-07-31T2200,2319A,119.0141,25.4325,莆田市,荔城区仓后路,,15,15,16,3,4,38,,84,66,12,8,6,6,0.6,0.6
2024-07-31T2200,2320A,119.0015,25.4553,莆田市,莆田市监测站,,26,26,36,10,7,30,,85,71,8,7,6,5,0.4,0.5
2024-07-31T2200,2321A,119.1119,25.4561,莆田市,涵江区六中,,23,23,15,7,5,23,,73,58,22,11,8,7,0.5,0.4
2024-07-31T2200,2322A,119.1013,25.3215,莆田市,秀屿区政府,,12,7,15,3,2,36,,68,53,11,9,7,6,0.5,0.6
2024-07-31T2200,2323A,118.981,25.4792,莆田市,东圳水库,,,,,,,,,,,,,,,,
2024-07-31T2200,2392A,115.0312,35.7636,濮阳市,环保局,,22,6,13,3,7,70,,90,84,8,7,4,4,0.5,0.5
2024-07-31T2200,2394A,115.0574,35.7609,濮阳市,油田运输公司,,23,10,11,3,8,71,,94,86,4,3,1,1,0.4,0.4
2024-07-31T2200,2395A,115.0866,35.7754,濮阳市,油田物探公司,,21,11,12,3,9,67,,90,82,3,2,6,6,0.5,0.5
2024-07-31T2200,3021A,115,35.7668,濮阳市,濮水河管理处,,21,,15,12,12,66,,83,78,6,6,1,1,0.5,0.5
2024-07-31T2200,2601A,100.98,22.7633,普洱市,市环保局,,12,11,8,8,10,36,,40,36,7,8,5,5,0.4,0.4
2024-07-31T2200,2602A,100.9817,22.8322,普洱市,普洱第二中学,,12,,5,8,10,35,,38,34,9,8,2,2,0.6,0.5
2024-07-31T2200,2262A,131.0518,45.8751,七台河市,新一中,,18,,18,12,14,32,,78,60,8,17,9,10,0.9,1
2024-07-31T2200,3345A,131.0577,45.7879,七台河市,中波台,,,,6,,6,,,57,46,,20,,11,,0.6
2024-07-31T2200,3637A,131.0176,45.7761,七台河市,人民广场,,8,7,18,3,8,23,,60,41,9,17,10,9,0.3,0.4
2024-07-31T2200,3684A,130.8781,45.8222,七台河市,新建矿广场,颗粒物(PM10),91,132,39,18,16,25,,54,40,16,28,15,18,0.6,0.7
2024-07-31T2200,1779A,123.9305,47.3636,齐齐哈尔市,安居小区,,24,23,28,13,15,76,,86,85,13,14,8,7,0.4,0.5
2024-07-31T2200,1780A,123.9488,47.3386,齐齐哈尔市,中心广场,,24,23,28,10,10,74,,95,92,15,11,3,3,0.3,0.3
2024-07-31T2200,1781A,123.9483,47.3227,齐齐哈尔市,农牧车辆厂,,27,22,28,3,7,84,,95,94,7,8,8,8,0.3,0.3
2024-07-31T2200,1783A,123.945,47.2988,齐齐哈尔市,市环境监测站,,26,17,18,9,13,82,,93,91,7,8,6,6,0.3,0.4
2024-07-31T2200,3662A,123.6333,47.2075,齐齐哈尔市,富区青少年活动中心,,23,11,19,6,7,71,,100,97,15,8,4,4,0.2,0.3
2024-07-31T2200,2591A,107.9783,26.5747,黔东南苗族侗族自治州,市环境监测站,,10,8,10,6,6,30,,54,39,15,12,3,3,0.4,0.5
2024-07-31T2200,2881A,107.8908,26.5311,黔东南苗族侗族自治州,凯里学院,,,,4,4,5,27,,49,32,8,8,4,4,0.3,0.3
2024-07-31T2200,2593A,107.5228,26.2403,黔南布依族苗族自治州,小围寨,,9,6,3,3,0,28,,41,34,4,5,3,4,0.3,0.3
2024-07-31T2200,3538A,107.5175,26.2978,黔南布依族苗族自治州,沙坝,,9,9,3,3,0,24,,49,39,4,5,3,3,0.3,0.3
2024-07-31T2200,2589A,104.9022,25.0925,黔西南布依族苗族自治州,场坝街,,16,15,14,11,8,28,,55,47,17,11,6,9,0.3,0.2
2024-07-31T2200,2590A,104.8811,25.0992,黔西南布依族苗族自治州,坪东大道,,20,20,15,8,7,14,,54,40,16,11,4,5,0.4,0.4
2024-07-31T2200,2502A,108.6236,21.9667,钦州市,市环保站,,14,7,7,7,2,8,,30,17,28,16,6,6,1.0,0.8
2024-07-31T2200,2503A,108.6549,21.9481,钦州市,沙埠小学,,20,20,10,8,4,16,,30,19,25,17,5,5,0.8,0.7
2024-07-31T2200,2504A,108.5989,21.7431,钦州市,港区一小,,,,12,8,4,43,,37,37,7,12,7,8,0.6,0.6
2024-07-31T2200,3404A,108.5959,21.9633,钦州市,北职校,,21,21,9,14,6,11,,29,18,24,15,6,6,1.0,0.8
2024-07-31T2200,1042A,119.5134,39.8207,秦皇岛市,北戴河环保局,,45,45,56,12,25,76,,131,112,9,4,3,3,0.8,0.6
2024-07-31T2200,1043A,119.7493,40.0116,秦皇岛市,第一关,,49,49,54,31,36,64,,147,122,35,6,2,2,0.4,0.4
2024-07-31T2200,1044A,119.5897,39.9499,秦皇岛市,监测站,颗粒物(PM10),54,58,75,24,35,102,,155,135,10,8,3,4,0.5,0.5
2024-07-31T2200,1046A,119.5251,39.9041,秦皇岛市,建设大厦,颗粒物(PM10),52,54,48,18,15,100,,151,131,13,4,4,3,0.5,0.5
2024-07-31T2200,3132A,119.610547,39.943889,秦皇岛市,文明里,,42,42,46,16,20,71,,149,123,27,8,3,3,0.4,0.4
2024-07-31T2200,1307A,120.6659,36.2403,青岛市,仰口,,45,27,26,22,23,144,,160,160,6,9,5,5,0.5,0.1
2024-07-31T2200,1310A,120.4134,36.0658,青岛市,市南区东部子站,臭氧1小时,52,31,30,14,10,161,,94,,8,8,7,7,0.8,0.5
2024-07-31T2200,1311A,120.3664,36.1032,青岛市,四方区子站,臭氧1小时,69,36,36,22,21,175,,193,190,8,12,9,11,0.8,0.7
2024-07-31T2200,1312A,120.2994,36.054,青岛市,市南区西部子站,臭氧1小时,72,48,35,15,12,177,,188,188,11,14,7,7,0.8,0.6
2024-07-31T2200,1313A,120.4581,36.0858,青岛市,崂山区子站,臭氧1小时,52,31,32,24,13,161,,181,178,11,11,8,8,0.6,0.5
2024-07-31T2200,1314A,120.1983,35.9608,青岛市,黄岛区子站,臭氧1小时,54,44,34,27,20,163,,193,190,14,13,7,8,0.8,0.7
2024-07-31T2200,1315A,120.3999,36.3083,青岛市,城阳区子站,,48,39,34,22,18,153,,173,173,22,19,8,8,0.7,0.6
2024-07-31T2200,1966A,120.0405,35.8735,青岛市,黄岛区4号,,45,29,31,17,18,143,,178,176,16,14,6,7,0.7,0.6
2024-07-31T2200,3362A,120.5014,36.4034,青岛市,即墨2号,臭氧1小时,68,44,35,23,20,174,,172,172,11,12,6,7,0.6,0.6
2024-07-31T2200,3642A,120.3503,36.0736,青岛市,市北区南部,,49,36,29,22,20,155,,169,167,7,9,6,5,0.8,0.7
2024-07-31T2200,3643A,120.3948,36.1805,青岛市,李沧区北部,臭氧1小时,57,34,35,24,21,165,,183,182,15,16,8,8,0.5,0.4
2024-07-31T2200,1702A,113.0426,23.691,清远市,环保大楼,,25,25,20,11,8,39,,61,55,18,18,7,8,0.7,0.6
2024-07-31T2200,1703A,113.0208,23.7106,清远市,凤城街办,,28,28,20,15,12,31,,60,50,18,17,5,5,0.6,0.5
2024-07-31T2200,3025A,113.0477,23.6344,清远市,技师学院,,26,26,22,15,11,44,,66,54,21,24,4,5,0.5,0.4
2024-07-31T2200,3318A,112.9903,23.7403,清远市,清新太和,,17,17,15,11,11,33,,61,52,13,10,8,7,0.5,0.5
2024-07-31T2200,3455A,113.076,23.7198,清远市,清城东城,,24,24,19,12,9,36,,62,55,10,11,6,6,0.7,0.7
2024-07-31T2200,2661A,107.6325,35.7357,庆阳市,庆阳五中,,42,34,36,14,14,134,,138,133,5,11,4,6,0.3,0.4
2024-07-31T2200,2662A,107.6364,35.7067,庆阳市,市环保局,颗粒物(PM10),67,83,34,12,10,138,,134,129,5,10,5,6,0.0,0.2
2024-07-31T2200,1916A,103.7897,25.5035,曲靖市,环境监测站,,29,29,23,10,11,87,,101,95,8,10,2,5,0.7,0.8
2024-07-31T2200,1917A,103.8,25.5364,曲靖市,烟厂办公区,,30,27,24,21,14,83,,101,94,9,12,3,4,0.5,0.7
2024-07-31T2200,3376A,103.7947,25.462,曲靖市,南苑二区,,26,25,20,12,12,83,,105,95,10,11,6,7,0.6,0.7
2024-07-31T2200,3377A,103.7444,25.5261,曲靖市,曲靖师范学院,,,30,24,15,16,,,115,107,8,13,6,8,0.6,0.8
2024-07-31T2200,1264A,118.8692,28.9398,衢州市,环保大楼,,22,22,18,11,10,35,,83,64,16,11,4,5,0.4,0.5
2024-07-31T2200,1265A,118.8709,28.9666,衢州市,实验学校,,18,18,18,9,10,42,,95,72,16,11,5,4,0.5,0.5
2024-07-31T2200,1266A,118.8621,28.9808,衢州市,衢州学院,,16,16,17,6,7,37,,95,70,20,13,3,3,0.2,0.3
2024-07-31T2200,1611A,118.5819,24.9117,泉州市,涂山街,,,,14,9,4,37,,74,56,,9,4,4,,0.5
2024-07-31T2200,1612A,118.5972,24.8978,泉州市,津头埔,,19,19,15,3,5,40,,28,,13,12,2,2,0.4,0.4
2024-07-31T2200,1613A,118.6663,24.9424,泉州市,万安,,17,17,13,3,4,36,,70,53,9,6,2,2,0.4,0.3
2024-07-31T2200,1614A,118.6117,24.9604,泉州市,清源山,,,,,,,,,,,,,,,,
2024-07-31T2200,3529A,118.6333,24.9264,泉州市,城华南路,,12,11,10,6,5,36,,70,51,12,11,2,2,0.3,0.3
2024-07-31T2200,2626A,88.8876,29.2718,日喀则市,日喀则监测站,,44,14,18,3,7,139,,168,164,12,9,4,6,0.4,0.3
2024-07-31T2200,3726A,88.8781,29.2426,日喀则市,林业技术推广中心,,40,13,14,8,6,125,,166,158,9,10,6,6,0.2,0.2
2024-07-31T2200,1659A,119.471,35.4209,日照市,监测站,,,,37,,22,,,152,123,21,16,10,9,,0.7
2024-07-31T2200,1660A,119.523,35.4216,日照市,市政府广场,,36,36,43,18,22,89,,103,,17,22,10,11,0.8,0.8
2024-07-31T2200,1661A,119.5587,35.4044,日照市,港务局,,39,39,50,17,18,85,,171,131,26,22,12,12,0.3,0.4
2024-07-31T2200,3507A,119.5328,35.4625,日照市,职业技术学院,,48,48,47,14,22,90,,167,128,28,23,11,11,0.9,0.8
2024-07-31T2200,3604A,119.3266,35.1044,日照市,岚山环保分局,,29,24,32,10,17,90,,136,120,16,11,7,8,0.6,0.7
2024-07-31T2200,1835A,111.1922,34.7752,三门峡市,市政府,,49,49,28,18,13,49,,131,116,25,15,7,9,0.6,0.6
2024-07-31T2200,1836A,111.1587,34.7942,三门峡市,开发区,颗粒物(PM10),53,55,33,18,14,54,,121,116,28,15,9,9,0.7,0.5
2024-07-31T2200,1838A,111.143,34.7955,三门峡市,风景区,,,,,,,,,,,,,,,,
2024-07-31T2200,3039A,111.1911,34.7829,三门峡市,三门峡市第一小学,,47,47,33,22,16,67,,134,125,18,12,9,11,0.6,0.6
2024-07-31T2200,3598A,111.1,34.7167,三门峡市,富达温泉假日酒店,,35,35,27,12,11,76,,132,122,16,15,13,14,0.4,0.4
2024-07-31T2200,2324A,117.6211,26.2625,三明市,三钢,,17,17,19,3,10,14,,63,40,16,11,6,8,0.6,0.8
2024-07-31T2200,2325A,117.635,26.2714,三明市,三明二中,,8,6,16,3,9,18,,67,46,15,8,2,3,0.6,0.4
2024-07-31T2200,2326A,117.6028,26.2378,三明市,三元区政府,,16,16,22,7,7,15,,63,42,14,12,3,4,0.3,0.6
2024-07-31T2200,2327A,117.7275,26.3108,三明市,洋溪,,,,,,,,,,,,,,,,
2024-07-31T2200,1876A,109.5078,18.2489,三亚市,河东子站,,18,18,19,9,9,36,,47,44,20,8,3,3,0.4,0.5
2024-07-31T2200,1877A,109.4964,18.2681,三亚市,河西子站,,18,18,19,8,7,43,,46,46,5,8,3,2,0.3,0.3
2024-07-31T2200,3540A,109.7348,18.3443,三亚市,君悦子站,,,19,22,3,4,44,,46,46,12,9,2,2,,0.3
2024-07-31T2200,2624A,91.7608,29.2313,山南市,山南监测站,,,7,14,3,8,121,,143,140,,8,,6,0.3,0.1
2024-07-31T2200,2625A,91.7706,29.2436,山南市,山南人民医院,,38,31,27,3,19,120,,136,134,14,12,6,6,0.3,0.1
2024-07-31T2200,1674A,116.6794,23.3667,汕头市,金平子站,,25,,11,17,9,42,,55,52,6,9,6,7,0.6,0.8
2024-07-31T2200,1675A,116.7244,23.3633,汕头市,龙湖子站,,13,,13,9,6,34,,48,45,9,9,5,5,0.6,0.6
2024-07-31T2200,1676A,116.7258,23.2775,汕头市,濠江子站,,,11,13,,5,29,,56,48,24,14,5,5,0.6,0.6
2024-07-31T2200,1677A,116.7519,23.4714,汕头市,澄海子站,,22,22,26,9,18,34,,45,41,10,9,3,3,0.4,0.5
2024-07-31T2200,1678A,116.6092,23.2539,汕头市,潮阳子站,,23,18,15,16,27,39,,52,47,4,8,4,4,0.4,0.4
2024-07-31T2200,3444A,116.454,23.2684,汕头市,潮南峡山,,19,19,13,9,5,35,,44,41,3,6,4,4,0.5,0.5
2024-07-31T2200,3624A,116.4069,23.2533,汕头市,潮南子站,,22,22,15,7,5,40,,50,46,6,6,4,4,0.5,0.5
2024-07-31T2200,1693A,115.3653,22.775,汕尾市,市环保局,,17,14,15,8,5,53,,55,55,6,9,5,6,0.4,0.4
2024-07-31T2200,1694A,115.3706,22.7898,汕尾市,市政府,,24,24,12,10,7,47,,50,50,5,8,5,6,0.5,0.5
2024-07-31T2200,1695A,115.3622,22.7925,汕尾市,新城中学,,,,14,,6,49,,55,54,5,6,5,5,0.6,0.5
2024-07-31T2200,2645A,109.9154,33.8715,商洛市,监测站,,,,26,9,9,41,,96,73,9,11,6,9,0.7,0.8
2024-07-31T2200,3045A,109.9643,33.8471,商洛市,商州区中学,,,,32,52,29,35,,90,67,16,16,4,7,0.8,0.8
2024-07-31T2200,2408A,115.6702,34.4285,商丘市,环境监测站,,30,30,24,14,10,79,,98,92,4,4,3,4,0.3,0.3
2024-07-31T2200,2409A,115.6458,34.4045,商丘市,粮食局,,33,33,22,13,9,77,,102,94,4,3,4,4,0.5,0.2
2024-07-31T2200,2410A,115.6293,34.3948,商丘市,睢阳区环保局,,28,28,26,13,11,74,,99,89,5,6,4,5,0.5,0.4
2024-07-31T2200,3171A,115.6071,34.4465,商丘市,梁园区档案局,,34,34,24,17,11,78,,102,93,4,4,5,5,0.4,0.4
2024-07-31T2200,1141A,121.4,31.238,上海市,普陀,,31,31,28,12,12,84,,154,140,19,14,7,7,0.4,0.4
2024-07-31T2200,1142A,121.478,31.2036,上海市,十五厂,,36,36,29,17,16,85,,160,139,21,17,9,9,0.4,0.3
2024-07-31T2200,1143A,121.467,31.3008,上海市,虹口,,28,28,27,13,15,78,,152,139,17,13,7,8,0.5,0.5
2024-07-31T2200,1144A,121.412,31.1654,上海市,徐汇上师大,,35,35,29,17,14,91,,158,140,22,19,5,5,0.6,0.5
2024-07-31T2200,1145A,121.536,31.2659,上海市,杨浦四漂,,29,29,31,16,14,69,,173,142,30,16,7,7,0.3,0.3
2024-07-31T2200,1147A,121.425,31.2261,上海市,静安监测站,,36,36,29,21,16,85,,158,142,19,15,7,7,0.5,0.4
2024-07-31T2200,1148A,121.703,31.1907,上海市,浦东川沙,,32,32,28,18,13,72,,151,128,25,14,6,6,0.7,0.6
2024-07-31T2200,1149A,121.533,31.2284,上海市,浦东新区监测站,,36,36,27,16,14,64,,155,133,29,15,5,5,0.6,0.6
2024-07-31T2200,1150A,121.577,31.2071,上海市,浦东张江,,39,38,28,27,16,68,,142,121,29,15,5,6,0.6,0.5
2024-07-31T2200,3265A,121.4316,31.3322,上海市,宝山庙行,,28,28,29,14,13,89,,161,150,19,14,13,11,0.6,0.6
2024-07-31T2200,3266A,121.8791,31.4662,上海市,崇明上实东滩,,26,26,20,13,11,76,,154,128,16,12,8,8,0.5,0.5
2024-07-31T2200,3268A,121.3162,31.2838,上海市,嘉定南翔,,30,30,27,14,12,67,,136,122,31,19,9,7,0.5,0.4
2024-07-31T2200,3269A,121.3359,30.7456,上海市,金山新城,,34,34,24,15,13,76,,163,142,18,10,7,8,0.6,0.5
2024-07-31T2200,3270A,121.4996,31.0739,上海市,闵行浦江,,40,40,24,15,13,84,,151,136,15,11,5,5,0.6,0.6
2024-07-31T2200,3271A,121.2886,31.1663,上海市,青浦徐泾,,32,32,27,16,14,101,,152,146,15,14,7,6,0.6,0.6
2024-07-31T2200,3272A,121.2186,31.0378,上海市,松江图书馆,,38,38,27,21,18,98,,161,152,19,13,5,6,0.5,0.6
2024-07-31T2200,3273A,121.3902,31.2059,上海市,长宁仙霞,颗粒物(PM10),58,66,30,21,14,70,,152,135,41,18,9,10,0.6,0.5
2024-07-31T2200,3274A,121.7965,31.0507,上海市,浦东惠南,,35,35,25,16,13,64,,138,118,31,16,7,8,0.7,0.6
2024-07-31T2200,3544A,121.4891,30.925,上海市,奉贤南桥新城,,32,32,22,19,13,76,,159,138,19,15,7,7,0.6,0.5
2024-07-31T2200,2381A,118.005,28.4572,上饶市,百草园,,24,24,16,15,8,40,,78,65,9,6,6,3,0.7,0.7
2024-07-31T2200,2382A,117.9756,28.4436,上饶市,市监测站,,22,16,17,15,6,39,,51,,14,9,12,5,0.6,0.5
2024-07-31T2200,2383A,117.9519,28.4628,上饶市,凤凰光学,,22,22,17,10,8,44,,80,68,5,6,6,6,0.9,0.8
2024-07-31T2200,3413A,118.1953,28.4401,上饶市,广丰区教体局,,17,17,14,9,6,46,,62,53,5,4,5,8,0.6,0.7
2024-07-31T2200,3685A,117.897,28.4315,上饶市,双创科技城,,26,26,22,13,12,41,,75,56,5,7,4,7,0.6,0.6
2024-07-31T2200,1669A,113.5824,24.7733,韶关市,市八中,,,23,18,8,6,33,,66,56,13,7,16,10,,0.4
2024-07-31T2200,1671A,113.5917,24.7972,韶关市,园林处,,18,18,16,10,8,30,,62,53,14,7,8,11,0.7,0.6
2024-07-31T2200,1672A,113.6735,24.7791,韶关市,韶关学院,,28,28,16,17,7,26,,61,55,15,11,10,13,0.6,0.5
2024-07-31T2200,1673A,113.5971,24.6863,韶关市,曲江监测站,,18,18,17,9,6,33,,62,55,18,12,8,8,0.7,0.6
2024-07-31T2200,3622A,113.5556,24.8082,韶关市,碧湖山庄,,15,15,20,6,8,36,,71,64,11,5,15,10,0.5,0.4
2024-07-31T2200,2462A,111.5239,27.3033,邵阳市,市水土所,,11,11,15,6,8,25,,71,54,7,6,8,8,0.4,0.4
2024-07-31T2200,2463A,111.4733,27.2317,邵阳市,市一中,,19,19,16,12,13,45,,77,64,8,6,5,6,0.4,0.4
2024-07-31T2200,2464A,111.5283,27.2442,邵阳市,市化工厂,,23,20,13,16,9,46,,75,65,9,6,7,9,0.4,0.6
2024-07-31T2200,2465A,111.4503,27.2537,邵阳市,市罐头厂,,15,10,17,6,11,46,,80,66,7,6,3,4,0.3,0.3
2024-07-31T2200,2466A,111.4328,27.2272,邵阳市,市环保局,,14,11,13,9,8,42,,76,61,9,5,6,6,0.1,0.1
