timepoint,stationcode,longitude,latitude,area,positionname,primarypollutant,aqi,pm10,pm10_24h,pm2_5,pm2_5_24h,o3,o3_24h,o3_8h,o3_8h_24h,no2,no2_24h,so2,so2_24h,co,co_24h
2024-07-31T0000,2566A,102.1879,31.914,阿坝藏族羌族自治州,州农科所,,23,23,19,10,8,52,,95,81,11,10,6,6,0,0
2024-07-31T0000,2568A,102.2502,31.8896,阿坝藏族羌族自治州,马师校,,34,34,17,18,13,50,,115,94,16,14,4,4,0.3,0.3
2024-07-31T0000,3994A,102.2165,31.9024,阿坝藏族羌族自治州,马尔康中学西区,,25,20,18,17,11,66,,118,105,7,6,4,4,0.3,0.3
2024-07-31T0000,2695A,80.292,41.1694,阿克苏地区,电视台,颗粒物(PM10),109,167,59,64,27,18,,132,102,87,24,4,5,1.3,0.6
2024-07-31T0000,2696A,80.2613,41.1551,阿克苏地区,艺术中心,颗粒物(PM10),74,97,48,30,19,0,,134,93,97,22,5,4,1.8,0.7
2024-07-31T0000,2204A,105.6467,38.8363,阿拉善盟,西城区西花园,,34,22,24,8,12,107,,159,128,7,7,8,8,0.7,0.7
2024-07-31T0000,2205A,105.6985,38.8411,阿拉善盟,蒙二幼,,30,11,49,3,11,96,,144,119,5,8,8,8,0.6,0.7
2024-07-31T0000,2206A,105.724,38.8516,阿拉善盟,环保局新楼,,34,6,19,3,9,108,,146,130,4,6,8,8,0.4,0.5
2024-07-31T0000,2708A,88.1264,47.8517,阿勒泰地区,市站,,36,36,24,22,8,67,,105,93,21,15,7,7,0.7,0.6
2024-07-31T0000,2630A,80.1161,32.5,阿里地区,阿里监测站,,40,28,14,10,6,128,,149,144,8,9,6,6,0.3,0.3
2024-07-31T0000,3192A,80.0903,32.5028,阿里地区,阿里藏医院,,37,26,17,3,4,118,,144,139,4,7,6,6,0.3,0.3
2024-07-31T0000,2642A,109.0318,32.6537,安康市,香溪洞,,21,6,7,3,2,67,,80,72,3,2,5,5,0.3,0.4
2024-07-31T0000,2643A,109.0281,32.6939,安康市,安康市监测站,,13,13,15,6,9,33,,80,66,10,6,5,5,0.6,0.6
2024-07-31T0000,2644A,109.0072,32.6975,安康市,汉滨区检察院,,12,12,15,3,6,29,,82,64,9,6,7,6,0.7,0.7
2024-07-31T0000,2291A,117.0809,30.5177,安庆市,环科院,,25,16,22,12,13,10,,95,54,50,24,5,6,0.5,0.5
2024-07-31T0000,2292A,117.0331,30.5119,安庆市,马山宾馆,,22,17,25,15,12,44,,101,67,17,23,8,9,0.5,0.5
2024-07-31T0000,2294A,116.9896,30.6145,安庆市,安庆大学,,30,30,23,19,14,14,,89,58,31,15,8,9,0.4,0.4
2024-07-31T0000,3173A,117.0598,30.5351,安庆市,市人大,,22,18,24,15,14,52,,96,70,10,16,6,7,0.3,0.4
2024-07-31T0000,3122A,105.9606,26.2611,安顺市,伍家关,,,,,,,,,,,,,,,,
2024-07-31T0000,3123A,105.9408,26.2431,安顺市,凤凰山,,22,13,11,8,7,70,,74,70,4,3,15,8,0.4,0.5
2024-07-31T0000,3124A,105.9439,26.2564,安顺市,金钟山,,18,14,9,8,6,56,,75,66,7,4,7,6,0.5,0.5
2024-07-31T0000,3125A,105.8983,26.2481,安顺市,娄家坡,,22,,9,9,8,68,,76,71,5,5,10,7,0.6,0.5
2024-07-31T0000,1818A,114.4839,36.0621,安阳市,棉研所,,,,,,,,,,,,,,,,
2024-07-31T0000,1819A,114.3551,36.1017,安阳市,红庙街,,21,21,24,10,9,62,,111,92,6,2,6,3,0.7,0.4
2024-07-31T0000,1820A,114.361,36.0681,安阳市,银杏小区,,,22,22,,,63,,111,91,6,2,2,2,0.8,0.5
2024-07-31T0000,3141A,114.3922,36.0878,安阳市,信访局,,24,24,21,8,9,68,,124,105,3,2,4,1,1.1,0.8
2024-07-31T0000,3669A,114.4705,36.0637,安阳市,左辅环卫站,,23,,6,12,10,73,,108,95,8,4,6,5,0.6,0.5
2024-07-31T0000,3703A,114.2917,36.0949,安阳市,安钢职工学校,,23,23,24,11,11,60,,108,89,10,3,8,5,0.7,0.4
2024-07-31T0000,1748A,123.044,41.1196,鞍山市,深沟寺,,22,22,41,8,24,55,,77,48,5,16,3,4,0.4,1.3
2024-07-31T0000,1749A,123.011,41.0931,鞍山市,太阳城,,20,14,33,7,21,63,,73,54,2,10,3,3,0.6,1.4
2024-07-31T0000,1750A,123.0485,41.1442,鞍山市,太平,,20,16,41,8,26,63,,83,61,6,21,2,5,0.5,1.4
2024-07-31T0000,1751A,122.9642,41.0971,鞍山市,铁西三道街,,23,16,43,12,28,72,,93,67,4,23,2,3,0.7,1.6
2024-07-31T0000,1752A,122.9341,41.0833,鞍山市,铁西工业园区,,21,14,40,8,28,67,,85,59,9,16,4,4,0.7,1.7
2024-07-31T0000,1753A,123.022,41.0821,鞍山市,明达新区,,,16,32,,,71,,86,64,3,13,3,4,0.5,1.3
2024-07-31T0000,1754A,123.1289,41.0228,鞍山市,千山,,,,,,,,,,,,,,,,
2024-07-31T0000,2195A,107.4212,40.761,巴彦淖尔市,附二中,,48,48,37,29,28,92,,133,117,14,11,5,5,0.6,0.6
2024-07-31T0000,2196A,107.37,40.7372,巴彦淖尔市,市环保大楼,颗粒物(PM10),51,51,53,19,19,93,,131,117,11,7,4,4,0.5,0.5
2024-07-31T0000,1956A,86.1472,41.7538,巴音郭楞蒙古自治州,孔雀公园,颗粒物(PM10),100,150,65,55,21,0,,134,90,92,22,5,8,3.4,0.5
2024-07-31T0000,1957A,86.1972,41.7166,巴音郭楞蒙古自治州,棉纺厂,颗粒物(PM10),149,248,74,85,24,6,,134,100,90,20,5,6,0.9,0.3
2024-07-31T0000,1958A,86.2357,41.7173,巴音郭楞蒙古自治州,经济开发区,颗粒物(PM10),345,456,74,87,26,38,,124,94,45,9,4,5,0.3,0.2
2024-07-31T0000,2914A,106.7677,31.8794,巴中市,苏山坪,,16,6,12,3,8,51,,76,62,6,5,4,4,0.5,0.5
2024-07-31T0000,3182A,106.7656,31.8545,巴中市,丽阳花园,,12,10,15,3,7,37,,78,59,12,9,3,3,0.5,0.5
2024-07-31T0000,3183A,106.7418,31.8654,巴中市,圣泉水务公司,,13,8,13,3,9,41,,78,56,12,11,5,4,0.6,0.6
2024-07-31T0000,3616A,106.7616,31.8344,巴中市,市中心医院,,16,,14,11,10,22,,75,55,18,8,3,3,0.5,0.5
2024-07-31T0000,2235A,122.7911,45.6077,白城市,洮北区环保局,,21,16,17,6,8,65,,77,58,6,8,7,8,0.4,0.3
2024-07-31T0000,2236A,122.8738,45.5725,白城市,市环保局,,26,26,24,3,7,67,,86,64,8,8,8,6,0.4,0.4
2024-07-31T0000,2231A,126.4219,41.9171,白山市,喜丰,,42,42,28,19,13,8,,96,34,14,9,13,10,0.9,1
2024-07-31T0000,2232A,126.4077,41.9419,白山市,环保局,,32,32,31,3,15,8,,91,32,8,7,8,9,0.8,0.8
2024-07-31T0000,2647A,104.1724,36.5446,白银市,第三小学,,31,25,35,9,13,98,,141,121,15,12,11,18,0.9,0.7
2024-07-31T0000,2648A,104.1465,36.5482,白银市,动力公司,,31,13,29,10,12,97,,134,118,17,12,9,15,0.8,0.8
2024-07-31T0000,2512A,106.6103,23.9011,百色市,市监测站,,23,23,20,8,10,24,,71,53,8,9,4,7,0.6,0.7
2024-07-31T0000,2513A,106.6538,23.8859,百色市,市中心血站,,20,20,21,8,12,24,,70,53,15,11,2,7,0.6,0.7
2024-07-31T0000,3406A,106.6085,23.8798,百色市,祈福高中,,18,13,21,12,10,23,,76,58,13,11,3,5,0.7,0.7
2024-07-31T0000,2270A,117.396,32.939,蚌埠市,工人疗养院,,26,26,20,10,4,71,,92,84,2,3,15,8,0.7,0.3
2024-07-31T0000,2271A,117.3605,32.9427,蚌埠市,百货大楼,,30,30,24,16,8,64,,92,84,7,4,11,9,0.7,0.4
2024-07-31T0000,2273A,117.4185,32.8911,蚌埠市,蚌埠学院,,22,14,17,10,6,68,,96,80,4,6,6,7,0.4,0.3
2024-07-31T0000,2274A,117.3533,32.9673,蚌埠市,淮上区政府,,29,24,19,20,9,70,,94,86,7,5,11,6,0.6,0.4
2024-07-31T0000,2275A,117.3145,32.8977,蚌埠市,高新区,,29,29,28,14,9,56,,98,74,14,9,15,10,0.8,0.5
2024-07-31T0000,3715A,117.3092,32.9314,蚌埠市,蚌埠田家炳中学,,33,33,29,17,11,59,,98,78,6,5,26,14,0.9,0.5
2024-07-31T0000,1585A,109.8756,40.6532,包头市,市环境监测站,,23,16,18,10,16,34,,100,67,45,23,5,7,0.8,0.8
2024-07-31T0000,1587A,109.9991,40.5842,包头市,包头八中,,39,39,21,21,16,21,,90,69,62,18,9,10,0.7,0.7
2024-07-31T0000,1588A,109.8538,40.6821,包头市,青山宾馆,,28,21,17,13,19,17,,96,59,55,24,6,7,0.7,0.8
2024-07-31T0000,1589A,109.8642,40.6288,包头市,惠龙物流,,18,15,21,12,14,52,,99,81,29,17,10,12,0.7,0.7
2024-07-31T0000,1590A,110.0377,40.5546,包头市,东河鸿龙湾,,25,25,14,14,10,46,,94,73,26,13,7,7,0.9,0.7
2024-07-31T0000,3283A,109.9154,40.5685,包头市,滨河大厦,,26,21,17,18,11,27,,104,70,44,19,7,7,1.0,0.8
2024-07-31T0000,3419A,109.9447,40.6261,包头市,包头市委党校,,18,18,15,7,11,43,,99,75,33,22,3,5,0.6,0.7
2024-07-31T0000,3683A,109.8331,40.6576,包头市,昆区政府,,18,18,23,11,22,56,,95,79,31,20,4,6,0.7,0.9
2024-07-31T0000,1930A,107.185,34.3063,宝鸡市,庙沟村,,38,38,25,12,12,82,,129,112,14,7,5,5,0.4,0.4
2024-07-31T0000,1931A,107.0708,34.3017,宝鸡市,竹园沟,,27,27,30,16,14,41,,133,96,15,10,3,4,0.6,0.6
2024-07-31T0000,1932A,107.1906,34.3672,宝鸡市,三陆医院,,26,26,33,17,15,46,,134,112,41,18,10,8,0.6,0.5
2024-07-31T0000,1933A,107.1431,34.3547,宝鸡市,监测站,,,,,,,,,,,,,,,,
2024-07-31T0000,1934A,107.1186,34.3739,宝鸡市,技工学校,,30,22,43,21,18,68,,135,115,15,13,8,8,0.6,0.6
2024-07-31T0000,1935A,107.3906,34.3528,宝鸡市,陈仓区环保局家属楼,,34,34,25,13,13,53,,140,107,23,16,8,8,0.6,0.5
2024-07-31T0000,1936A,107.2058,34.3497,宝鸡市,文理学院,颗粒物(PM10),55,60,32,17,14,52,,139,113,26,15,4,4,0.3,0.2
2024-07-31T0000,1937A,107.2386,34.3622,宝鸡市,三迪小学,,36,36,31,12,14,53,,134,109,29,15,8,8,0.5,0.4
2024-07-31T0000,1051A,115.493,38.8632,保定市,游泳馆,,29,29,25,12,8,49,,88,74,7,3,9,7,0.3,0.1
2024-07-31T0000,1052A,115.5213,38.8959,保定市,华电二区,,31,31,22,19,12,59,,99,87,7,6,4,5,0.5,0.3
2024-07-31T0000,1053A,115.4713,38.9108,保定市,接待中心,,35,35,25,11,8,49,,93,71,6,5,3,3,0.5,0.3
2024-07-31T0000,1054A,115.4612,38.8416,保定市,地表水厂,,25,25,27,14,10,42,,82,64,9,5,1,1,0.9,0.6
2024-07-31T0000,3581A,115.31981,38.95208,保定市,满城区生态环境分局,,27,27,21,12,13,34,,84,60,10,9,1,1,0.2,0.1
2024-07-31T0000,3582A,115.47694,38.76408,保定市,清苑区第二中学,,19,,19,13,16,55,,89,69,5,4,2,2,0.5,0.4
2024-07-31T0000,3583A,115.62909,39.02311,保定市,徐水物探局,,15,12,16,9,6,47,,86,70,12,6,3,3,0.4,0.2
2024-07-31T0000,4004A,115.4202,38.8656,保定市,双鹰农机,,23,,15,16,12,49,,107,80,13,7,7,7,0.4,0.3
2024-07-31T0000,4034A,115.5150,38.8590,保定市,植保所站,,23,,18,14,13,71,,112,98,8,5,4,3,0.5,0.2
2024-07-31T0000,2594A,99.1678,25.1081,保山市,市环境监测站,,21,21,19,7,9,27,,58,51,6,11,6,6,0.5,0.4
2024-07-31T0000,2595A,99.1711,25.1328,保山市,市环保局,,29,29,20,12,8,33,,60,56,5,7,6,6,0.3,0.3
2024-07-31T0000,1866A,109.2262,21.588,北海市,牛尾岭水库,,,,,,,,,,,,,,,,
2024-07-31T0000,1867A,109.1436,21.4086,北海市,海滩公园,,25,25,17,3,2,44,,55,46,3,3,3,3,0.5,0.5
2024-07-31T0000,1868A,109.0981,21.4661,北海市,新市环保局,,13,6,7,3,3,40,,54,41,5,5,2,2,0.6,0.6
2024-07-31T0000,1869A,109.1778,21.5233,北海市,北海工业园,,20,20,13,3,6,33,,55,40,6,5,4,4,0.5,0.4
2024-07-31T0000,3400A,109.1911,21.4415,北海市,龙潭自来水厂,,14,6,6,3,3,43,,54,43,2,4,6,6,0.5,0.5
2024-07-31T0000,1001A,116.3621,39.8784,北京市,万寿西宫,,16,15,13,11,9,51,,68,56,9,14,3,3,0.6,0.6
2024-07-31T0000,1002A,116.2202,40.2915,北京市,定陵,,34,34,13,10,7,20,,53,31,8,4,3,3,0.6,0.5
2024-07-31T0000,1003A,116.4174,39.9289,北京市,东四,,23,18,10,16,8,62,,68,60,10,16,1,2,0.7,0.7
2024-07-31T0000,1004A,116.4072,39.8863,北京市,天坛,,20,20,13,13,6,44,,64,54,8,15,3,3,0.5,0.6
2024-07-31T0000,1005A,116.462,39.9365,北京市,农展馆,,25,25,13,17,8,52,,65,55,12,16,3,3,0.5,0.5
2024-07-31T0000,1006A,116.3392,39.9295,北京市,官园,,24,24,13,16,9,25,,76,56,22,13,2,2,0.7,0.5
2024-07-31T0000,1007A,116.2878,39.9611,北京市,海淀万柳,,15,15,11,9,7,38,,58,42,9,11,2,2,0.5,0.5
2024-07-31T0000,1008A,116.6636,40.135,北京市,顺义新城,,18,12,10,6,5,56,,73,,7,9,3,3,0.4,0.4
2024-07-31T0000,1009A,116.6275,40.3275,北京市,怀柔镇,,18,6,14,3,5,55,,82,55,1,4,3,3,0.4,0.4
2024-07-31T0000,1010A,116.2296,40.217,北京市,昌平镇,,22,16,14,15,4,34,,51,38,8,8,3,3,0.5,0.4
2024-07-31T0000,1011A,116.3966,39.9821,北京市,奥体中心,,19,16,7,12,6,59,,71,49,7,15,1,3,0.4,0.5
2024-07-31T0000,1012A,116.184,39.9136,北京市,古城,,23,23,13,12,7,30,,74,51,19,13,3,3,0.3,0.2
2024-07-31T0000,3281A,115.9718,40.4529,北京市,延庆夏都,,12,12,22,8,14,32,,75,52,10,6,3,3,0.4,0.4
2024-07-31T0000,3417A,117.0709,40.1465,北京市,平谷新城,,,,14,3,9,64,,74,68,4,6,3,3,0.4,0.6
2024-07-31T0000,3418A,116.8336,40.4095,北京市,密云新城,,18,6,13,3,7,56,,87,64,1,4,3,3,0.4,0.4
2024-07-31T0000,3671A,116.088,39.9726,北京市,门头沟三家店,,,,,,,,,,,,,,,,
2024-07-31T0000,3672A,116.1541,39.8204,北京市,丰台云岗,,24,24,7,15,4,21,,56,35,9,7,2,3,0.5,0.4
2024-07-31T0000,3673A,116.6804,39.9081,北京市,通州东关,,40,40,11,13,8,58,,64,60,4,8,3,3,0.5,0.6
2024-07-31T0000,3674A,115.9577,39.7603,北京市,房山燕山,,36,,11,25,8,48,,66,62,4,4,3,3,0.4,0.3
2024-07-31T0000,3675A,116.4672,39.7733,北京市,大兴旧宫,,28,28,12,18,8,49,,63,58,9,9,3,3,0.5,0.5
2024-07-31T0000,3694A,115.986,40.4563,北京市,延庆石河营,,11,11,19,6,13,27,,71,42,8,7,3,3,0.4,0.4
2024-07-31T0000,3695A,116.6151,40.3053,北京市,怀柔新城,,16,,3,6,4,49,,81,55,5,7,3,3,0.5,0.5
2024-07-31T0000,3696A,116.2545,39.8768,北京市,丰台小屯,,35,35,8,20,7,18,,64,41,6,6,5,6,0.5,0.5
2024-07-31T0000,3697A,116.84,40.3844,北京市,密云镇,,13,,8,3,5,41,,81,50,6,8,3,3,0.7,0.6
2024-07-31T0000,1761A,123.8275,41.3064,本溪市,大峪,,21,21,42,11,24,46,,93,34,15,18,5,6,0.6,1.2
2024-07-31T0000,1762A,123.7567,41.3325,本溪市,溪湖,,21,19,39,9,24,65,,89,56,11,14,6,6,0.7,1.2
2024-07-31T0000,1763A,123.7169,41.3094,本溪市,彩屯,,26,21,40,14,31,48,,74,43,23,25,6,6,2.6,1.7
2024-07-31T0000,1764A,123.7669,41.2864,本溪市,东明,,25,23,49,12,26,79,,84,60,7,18,4,4,0.3,1
2024-07-31T0000,1765A,123.7992,41.2664,本溪市,新立屯,,22,22,33,7,13,58,,71,43,3,10,2,3,0.5,0.9
2024-07-31T0000,1766A,123.8142,41.3472,本溪市,威宁,,16,16,32,11,20,14,,78,26,16,20,8,8,0.6,1
2024-07-31T0000,2587A,105.2864,27.3125,毕节市,八中,,32,26,15,22,12,19,,83,59,18,10,5,4,0.5,0.4
2024-07-31T0000,2588A,105.31,27.2944,毕节市,师专,,32,30,14,22,12,31,,84,66,21,9,5,5,0.6,0.5
2024-07-31T0000,3537A,105.3631,27.3533,毕节市,长征村,,42,41,24,29,18,43,,94,76,12,8,6,6,0.6,0.6
2024-07-31T0000,1629A,118.0018,37.3617,滨州市,第二水厂,,23,19,24,12,15,73,,114,85,10,9,3,2,0.6,0.6
2024-07-31T0000,1630A,117.9776,37.393,滨州市,北中新校,,24,24,29,9,12,75,,119,91,9,8,5,5,0.3,0.4
2024-07-31T0000,3514A,117.9378,37.3956,滨州市,中海酒店,,22,22,25,9,14,70,,146,,15,12,4,5,0.6,0.7
2024-07-31T0000,3515A,117.9378,37.3553,滨州市,开发区一中,,25,22,26,9,16,79,,128,92,20,17,5,5,0.5,0.6
2024-07-31T0000,3516A,118.0917,37.694,滨州市,金海六路,,27,27,28,7,11,56,,120,85,17,11,4,3,0.3,0.6
2024-07-31T0000,4028A,117.9956,37.3753,滨州市,滨州市西街道办事处,,26,19,24,14,16,81,,130,95,10,8,5,3,0.4,0.5
2024-07-31T0000,2311A,115.8072,33.8399,亳州市,污水处理厂,,18,10,12,7,7,57,,84,68,10,11,3,2,0.5,0.5
2024-07-31T0000,2312A,115.7789,33.8518,亳州市,三国揽胜宫,,19,14,17,3,4,60,,89,74,6,7,1,2,0.5,0.5
2024-07-31T0000,3332A,115.7633,33.8034,亳州市,亳州学院,,15,11,7,9,10,48,,88,67,11,9,3,3,0.4,0.4
2024-07-31T0000,2693A,82.0485,44.8556,博尔塔拉蒙古自治州,市党校,,36,36,30,15,14,103,,130,114,6,9,7,7,0.3,0.3
2024-07-31T0000,2694A,82.0806,44.8969,博尔塔拉蒙古自治州,市环保局,,43,43,32,18,14,115,,132,123,11,11,6,7,0.2,0.5
2024-07-31T0000,1071A,116.8842,38.2991,沧州市,沧县城建局,,27,27,16,9,9,72,,100,89,6,7,1,2,0.0,0
2024-07-31T0000,1072A,116.8584,38.3254,沧州市,电视转播站,,26,26,20,9,10,77,,102,92,6,5,3,3,0.2,0.2
2024-07-31T0000,1073A,116.8709,38.3228,沧州市,市环保局,,30,30,20,19,12,77,,105,94,5,5,3,3,0.3,0.2
2024-07-31T0000,3324A,116.8136,38.3004,沧州市,河北水利电力学院,,22,22,17,12,6,65,,93,80,9,8,6,6,0.0,0.1
2024-07-31T0000,2622A,97.1806,31.1273,昌都市,昌都监测站,,23,23,17,14,9,56,,130,103,33,10,9,9,0.6,0.5
2024-07-31T0000,3719A,97.1714,31.1406,昌都市,昌都会议中心,,30,28,17,16,9,93,,148,128,8,4,7,7,0.4,0.3
2024-07-31T0000,2690A,88.1236,43.8886,昌吉回族自治州,天山天池,,30,30,28,20,11,76,,153,110,7,7,14,10,0.6,0.6
2024-07-31T0000,2692A,87.2717,44.0297,昌吉回族自治州,新区政务中心,,,66,57,16,18,,,147,136,24,20,8,11,0.5,0.5
2024-07-31T0000,3613A,87.3095,44.0142,昌吉回族自治州,亚心广场,颗粒物(PM10),57,63,70,14,18,97,,155,130,33,26,9,11,0.4,0.4
2024-07-31T0000,1119A,125.3325,43.9166,长春市,食品厂,,35,35,28,20,12,45,,102,76,25,25,2,2,0.6,0.6
2024-07-31T0000,1120A,125.2863,43.9027,长春市,客车厂,,36,36,26,20,12,49,,107,84,20,17,1,2,0.4,0.3
2024-07-31T0000,1121A,125.2841,43.8463,长春市,邮电学院,,40,40,27,16,10,25,,102,74,23,17,6,6,0.5,0.5
2024-07-31T0000,1122A,125.3716,43.8772,长春市,劳动公园,,38,38,28,15,10,45,,108,88,21,20,1,2,0.6,0.6
2024-07-31T0000,1123A,125.3297,43.8805,长春市,园林处,,34,34,24,14,8,39,,109,87,25,16,3,3,0.6,0.5
2024-07-31T0000,1124A,125.4605,43.79,长春市,净月潭,,18,18,19,9,7,28,,77,41,3,6,4,4,0.5,0.4
2024-07-31T0000,1125A,125.7194,43.515,长春市,甩湾子,,,,,,,,,,,,,,,,
2024-07-31T0000,1126A,125.3863,43.8447,长春市,经开区环卫处,,50,50,27,13,8,40,,99,81,24,24,1,2,0.6,0.5
2024-07-31T0000,1127A,125.245,43.7783,长春市,高新区管委会,,38,38,21,18,11,35,,104,73,20,17,2,3,0.6,0.5
2024-07-31T0000,1128A,125.1761,43.8325,长春市,岱山公园,,32,32,24,15,9,31,,95,58,26,19,2,2,0.5,0.4
2024-07-31T0000,1335A,113.0833,28.2325,长沙市,经开区环保局,,21,21,16,3,4,23,,71,55,28,10,9,8,0.4,0.3
2024-07-31T0000,1336A,112.8872,28.2189,长沙市,高开区环保局,,,20,14,,7,39,,83,64,16,7,7,7,0.4,0.5
2024-07-31T0000,1337A,113.0792,28.2053,长沙市,马坡岭,,29,29,16,3,5,29,,77,59,22,9,3,3,0.5,0.4
2024-07-31T0000,1338A,112.9394,28.19,长沙市,湖南师范大学,,33,33,17,18,8,18,,74,47,26,8,5,6,0.7,0.7
2024-07-31T0000,1339A,113.0178,28.1322,长沙市,雨花区环保局,,23,23,12,6,5,25,,74,58,26,5,4,4,0.2,0.2
2024-07-31T0000,1340A,112.9792,28.2597,长沙市,伍家岭,,,23,15,9,6,,,75,,11,6,5,2,0.5,0.7
2024-07-31T0000,1341A,113.0014,28.1944,长沙市,火车新站,,24,24,17,14,5,26,,69,55,26,7,5,4,0.3,0.3
2024-07-31T0000,1342A,112.9844,28.1178,长沙市,天心区环保局,,23,23,15,9,7,39,,62,47,10,7,4,3,0.8,0.6
2024-07-31T0000,1343A,112.8908,28.1308,长沙市,湖南中医药大学,,26,26,16,7,7,10,,86,54,36,9,5,6,0.6,0.6
2024-07-31T0000,1344A,112.9581,28.3611,长沙市,沙坪,,23,23,11,14,5,25,,81,55,14,8,7,7,0.5,0.4
2024-07-31T0000,1727A,113.1147,36.1547,长治市,清华站,,25,21,12,9,4,80,,86,84,10,6,4,3,0.8,0.3
2024-07-31T0000,1728A,113.1031,36.1989,长治市,监测站,,25,25,14,9,2,69,,82,78,16,9,6,6,1.1,0.8
2024-07-31T0000,1730A,113.0886,36.2125,长治市,审计局,,28,24,11,19,4,59,,74,70,17,7,3,3,0.9,0.5
2024-07-31T0000,1731A,113.0844,36.1856,长治市,长治八中,,23,23,12,15,6,58,,79,73,20,9,5,4,0.8,0.4
2024-07-31T0000,2845A,113.1569,36.1911,长治市,德盛苑,,25,25,13,17,6,75,,80,76,8,5,9,8,1.1,0.7
2024-07-31T0000,3568A,113.06,36.0464,长治市,向阳小学,颗粒物(PM10),51,51,36,22,19,54,,78,70,21,9,12,12,1.2,0.8
2024-07-31T0000,3569A,112.8792,36.3144,长治市,屯留一中,,31,27,27,11,9,97,,109,102,7,6,6,7,0.5,0.4
2024-07-31T0000,3570A,113.235,36.3489,长治市,潞城四中,,33,,14,23,8,83,,97,94,7,6,4,4,0.7,0.5
2024-07-31T0000,1854A,111.6975,28.9703,常德市,市二中,,19,11,12,6,6,60,,91,76,7,6,7,7,0.7,0.5
2024-07-31T0000,1857A,111.7158,29.1456,常德市,白鹤山,,,,,,,,,,,,,,,,
2024-07-31T0000,3138A,111.7153,29.0289,常德市,武陵区永安,,16,16,15,8,8,50,,89,67,12,9,9,14,0.6,0.6
2024-07-31T0000,3139A,111.6892,28.9881,常德市,鼎城区玉霞,,20,17,13,14,10,49,,90,72,12,7,6,6,0.4,0.4
2024-07-31T0000,3140A,111.6625,29.0531,常德市,武陵区长庚,,19,14,15,10,10,60,,90,75,8,7,7,17,0.4,0.4
2024-07-31T0000,1196A,119.9633,31.762,常州市,市监测站,,23,18,28,11,14,72,,150,128,14,13,5,6,0.4,0.3
2024-07-31T0000,1200A,119.9468,31.7069,常州市,武进监测站,,22,22,22,11,11,70,,146,128,9,8,7,6,0.5,0.5
2024-07-31T0000,1201A,119.9255,31.9087,常州市,安家,,30,30,30,11,12,72,,127,110,14,15,7,7,0.3,0.4
2024-07-31T0000,3002A,119.9805,31.8174,常州市,行政中心,,23,21,24,14,14,71,,130,118,12,12,1,3,0.5,0.6
2024-07-31T0000,3003A,120.0522,31.7748,常州市,经开区,,25,23,26,17,13,67,,131,118,12,10,9,9,0.7,0.7
2024-07-31T0000,3010A,119.9025,31.7964,常州市,钟楼,,36,36,32,6,10,71,,138,122,13,12,4,4,0.0,0.2
2024-07-31T0000,3429A,119.8598,31.7066,常州市,武进经发区,,23,23,28,12,14,66,,146,122,15,11,7,7,0.4,0.3
2024-07-31T0000,3430A,119.5826,31.7245,常州市,金坛城区,,27,27,28,9,8,77,,170,135,11,11,7,7,0.6,0.5
2024-07-31T0000,2220A,120.4318,41.5881,朝阳市,西梁,,43,43,49,22,17,90,,81,68,5,16,6,9,0.7,0.7
2024-07-31T0000,2221A,120.4521,41.5646,朝阳市,河畔小区,,,31,41,,,108,,90,88,4,11,5,6,0.7,0.7
2024-07-31T0000,2222A,120.4176,41.5648,朝阳市,八里堡,颗粒物(PM10),72,94,55,25,17,82,,72,62,7,17,1,2,0.7,0.7
2024-07-31T0000,2223A,120.3806,41.5969,朝阳市,农业园区,,42,35,46,29,23,79,,72,62,6,14,6,6,0.8,0.7
2024-07-31T0000,1705A,116.6367,23.6719,潮州市,西园路,,13,13,16,6,8,27,,51,40,16,9,3,3,0.4,0.4
2024-07-31T0000,3026A,116.6183,23.6608,潮州市,市政府,,17,17,19,8,8,24,,49,38,12,7,4,5,0.5,0.5
2024-07-31T0000,4036A,116.6461,23.6761,潮州市,金山,,11,11,19,3,7,28,,50,40,11,6,6,5,0.6,0.5
2024-07-31T0000,2472A,113.0073,25.9061,郴州市,马头岭,,15,7,17,6,5,46,,60,50,3,4,8,9,0.3,0.3
2024-07-31T0000,2473A,113.0116,25.8226,郴州市,市职中,,14,6,9,3,5,42,,55,47,4,5,6,7,0.4,0.5
2024-07-31T0000,2474A,113.0161,25.8001,郴州市,兴隆步行街,,13,,13,6,6,41,,54,46,5,6,7,8,0.5,0.5
2024-07-31T0000,2475A,113.0383,25.8071,郴州市,市审计局,,13,6,8,3,5,40,,54,45,4,6,9,7,0.3,0.3
2024-07-31T0000,2476A,113.0348,25.7759,郴州市,市环保局,,13,10,10,3,6,39,,54,46,7,8,9,10,0.4,0.4
2024-07-31T0000,1431A,103.9728,30.7236,成都市,金泉两河,,38,38,26,21,12,30,,140,99,34,18,2,2,0.7,0.5
2024-07-31T0000,1432A,104.176,30.6872,成都市,十里店,,31,31,25,3,10,59,,131,102,26,21,2,2,0.6,0.5
2024-07-31T0000,1433A,104.079,30.5706,成都市,三瓦窑,,27,27,26,3,15,24,,116,95,47,28,1,2,0.6,0.4
2024-07-31T0000,1434A,104.1114,30.63,成都市,沙河铺,,34,34,29,8,10,28,,118,85,38,22,3,5,1.4,0.7
2024-07-31T0000,1437A,104.0786,30.6531,成都市,君平街,,28,25,28,19,10,70,,161,122,24,23,3,3,0.6,0.6
2024-07-31T0000,1438A,103.613,31.0283,成都市,灵岩寺,,,,,,,,,,,,,,,,
2024-07-31T0000,2880A,104.0239,30.65639,成都市,大石西路,,27,27,28,18,12,52,,146,112,28,21,4,4,0.6,0.5
2024-07-31T0000,3136A,104.2725,30.5589,成都市,龙泉驿区区政府,,23,9,13,7,6,73,,107,89,6,9,4,4,0.5,0.5
2024-07-31T0000,3357A,104.0106,30.6931,成都市,金博路,,28,24,22,19,10,54,,134,101,19,19,2,3,0.4,0.4
2024-07-31T0000,3359A,104.0578,30.5225,成都市,华阳,,28,22,24,19,20,66,,119,102,8,10,2,2,0.6,0.6
2024-07-31T0000,3487A,104.2394,30.5319,成都市,车城东七路,,34,34,31,16,13,65,,116,102,16,10,2,2,0.6,0.6
2024-07-31T0000,3488A,104.3853,30.7453,成都市,青白江技师分院,,26,9,14,3,8,83,,139,106,12,19,2,3,0.4,0.5
2024-07-31T0000,3489A,104.0789,30.4072,成都市,科学城,,32,32,25,22,17,38,,115,90,24,12,2,3,0.8,0.6
2024-07-31T0000,4011A,103.8506,30.6947,成都市,光华大道三段,,38,38,32,17,12,79,,140,118,13,13,5,4,0.6,0.5
2024-07-31T0000,1062A,117.9531,40.9081,承德市,铁路,,25,6,19,3,10,78,,55,55,7,19,7,7,0.4,0.5
2024-07-31T0000,1063A,117.9392,40.9763,承德市,中国银行,,15,,18,3,7,46,,62,51,14,20,2,2,0.6,0.5
2024-07-31T0000,1064A,117.9503,40.928,承德市,开发区,,26,9,20,6,9,81,,62,62,7,15,7,7,0.4,0.5
2024-07-31T0000,1065A,117.8051,40.9655,承德市,文化中心,,24,9,21,3,8,75,,78,74,8,14,4,4,0.3,0.4
2024-07-31T0000,1066A,117.9268,41.0026,承德市,离宫,,,,19,,20,,,,,,16,,1,,0.3
2024-07-31T0000,2314A,117.47,30.6618,池州市,池州学院,,15,15,17,10,10,38,,95,51,6,6,3,6,0.8,0.7
2024-07-31T0000,3237A,117.4918,30.6617,池州市,展览馆,,16,16,18,8,8,35,,89,42,7,7,3,4,1.0,0.7
2024-07-31T0000,3333A,117.5627,30.695,池州市,第八中学,,18,18,21,8,10,28,,99,45,12,10,3,4,0.6,0.4
2024-07-31T0000,3334A,117.5038,30.6243,池州市,第十二中学,,16,16,19,9,11,26,,88,40,12,12,5,5,1.6,0.9
2024-07-31T0000,1744A,118.9233,42.2816,赤峰市,松山一中,,11,11,29,3,4,22,,32,26,19,27,8,8,0.8,0.7
2024-07-31T0000,1745A,118.9576,42.2728,赤峰市,哈达街,,31,31,27,13,10,36,,70,51,11,14,13,13,0.8,0.6
2024-07-31T0000,1746A,118.8788,42.2554,赤峰市,天义路,,23,23,20,3,13,51,,68,58,16,20,6,6,0.6,0.6
2024-07-31T0000,3058A,119.2658,42.0353,赤峰市,银河街,,22,16,32,11,18,68,,72,66,11,18,10,15,0.6,0.6
2024-07-31T0000,3286A,118.9359,42.3147,赤峰市,桥北物流园区,,13,,16,9,11,34,,53,50,13,24,7,9,0.8,0.8
2024-07-31T0000,2521A,107.3476,22.4136,崇左市,市环保局江州分局,,16,16,17,3,8,16,,49,24,10,7,6,6,0.6,0.5
2024-07-31T0000,2522A,107.3702,22.3707,崇左市,城南新区,,8,8,14,3,9,21,,48,25,7,6,4,4,0.4,0.5
2024-07-31T0000,2298A,118.3093,32.3153,滁州市,老年大学,,22,22,24,13,14,70,,128,93,6,7,7,8,0.3,0.4
2024-07-31T0000,2299A,118.3244,32.2786,滁州市,人大宾馆,,29,29,28,18,18,68,,127,83,11,11,6,7,0.5,0.5
2024-07-31T0000,3207A,118.3118,32.3038,滁州市,市政府原办公楼,,24,18,22,13,16,75,,126,87,7,9,7,7,0.6,0.7
2024-07-31T0000,3331A,118.3267,32.2634,滁州市,图书馆,,35,30,28,24,17,64,,132,79,13,9,4,5,0.9,0.9
2024-07-31T0000,2605A,101.5482,25.0441,楚雄彝族自治州,州环境监测站,,23,,11,16,11,50,,69,61,12,11,3,4,1.0,0.8
2024-07-31T0000,2606A,101.538,25.0492,楚雄彝族自治州,市经济开发区,,33,26,12,23,9,42,,67,58,16,12,4,5,0.9,0.7
2024-07-31T0000,2548A,107.5277,31.2827,达州市,达州职业技术学院,,21,21,9,7,6,9,,44,34,25,11,4,4,0.6,0.5
2024-07-31T0000,2549A,107.5086,31.2186,达州市,市环境监测站,,12,12,9,3,1,33,,57,52,18,16,6,6,0.5,0.4
2024-07-31T0000,2550A,107.4988,31.2132,达州市,凤凰小区,,15,6,4,3,1,46,,66,62,15,11,6,6,0.5,0.4
2024-07-31T0000,2551A,107.5082,31.1986,达州市,达县机关宾馆,,13,12,6,3,6,41,,59,55,26,18,4,4,0.5,0.3
2024-07-31T0000,2552A,107.4644,31.2124,达州市,市政中心,,18,18,15,3,1,57,,66,62,13,12,7,7,0.5,0.5
2024-07-31T0000,2614A,100.1542,25.7054,大理白族自治州,大理市环境监测站,,50,46,18,35,17,60,,92,78,12,13,4,3,0.7,0.6
2024-07-31T0000,2615A,100.2171,25.5811,大理白族自治州,大理古城,,32,32,20,22,19,55,,74,54,13,14,7,6,0.6,0.6
2024-07-31T0000,1109A,121.612,38.9741,大连市,甘井子,,44,22,31,15,20,140,,145,130,11,23,6,8,0.4,0.4
2024-07-31T0000,1110A,121.565,38.9511,大连市,周水子,,34,28,25,20,25,108,,121,113,14,24,8,8,0.5,0.6
2024-07-31T0000,1111A,121.5637,38.8845,大连市,星海三站,,38,26,25,16,21,119,,156,138,7,11,6,7,0.5,0.6
2024-07-31T0000,1112A,121.6302,38.9117,大连市,青泥洼桥,,40,29,29,22,23,128,,143,128,4,8,7,7,0.7,0.7
2024-07-31T0000,1113A,121.6251,38.8638,大连市,傅家庄,,36,24,24,16,23,114,,139,127,8,10,5,6,0.6,0.6
2024-07-31T0000,1114A,121.5213,38.8661,大连市,七贤岭,,41,24,24,15,21,131,,158,142,10,11,6,6,0.5,0.4
2024-07-31T0000,1115A,121.2529,38.8061,大连市,旅顺,臭氧1小时,52,,25,28,22,161,,168,159,8,13,8,8,0.5,0.4
2024-07-31T0000,1116A,121.7485,39.1311,大连市,金州,,28,23,25,19,26,88,,109,100,13,16,6,6,0.6,0.7
2024-07-31T0000,1117A,121.7811,39.0496,大连市,开发区,,37,27,36,14,25,116,,148,124,11,18,6,6,0.3,0.4
2024-07-31T0000,1118A,121.9762,39.0631,大连市,双D港,,32,32,33,8,21,74,,128,82,11,11,5,5,0.6,0.6
2024-07-31T0000,1789A,124.81117,46.03138,大庆市,大同区,,29,22,25,20,17,44,,83,62,7,10,9,8,0.4,0.4
2024-07-31T0000,1790A,125.129,46.533,大庆市,龙凤区,,23,23,37,12,9,44,,86,59,9,19,6,6,0.5,0.5
2024-07-31T0000,1791A,124.902,46.408,大庆市,红岗区,,24,24,22,11,11,42,,105,70,13,13,7,7,0.5,0.5
2024-07-31T0000,1792A,125.153,46.586,大庆市,萨尔图区,,23,23,23,9,10,52,,94,63,8,13,5,5,0.4,0.4
2024-07-31T0000,1793A,124.9042,46.6215,大庆市,让胡路区,,43,43,29,6,10,42,,113,71,11,11,7,7,0.3,0.3
2024-07-31T0000,3481A,125.141,46.634,大庆市,萨区政府监测点,,35,35,29,14,7,44,,116,72,10,16,7,7,0.2,0.3
2024-07-31T0000,1721A,113.3819,40.1097,大同市,果树场,,,,,,,,,,,,,,,,
2024-07-31T0000,1723A,113.2994,40.0758,大同市,云冈宾馆,,21,21,21,8,12,50,,94,87,26,13,8,7,0.6,0.5
2024-07-31T0000,1724A,113.3444,40.0917,大同市,大同大学,,18,18,18,3,10,38,,86,76,33,13,6,5,0.6,0.5
2024-07-31T0000,1725A,113.2661,40.1269,大同市,安家小村,,16,15,19,7,4,49,,96,80,15,12,10,8,0.8,0.8
2024-07-31T0000,1726A,113.2711,40.0844,大同市,教育学院,,27,27,20,8,11,47,,89,75,26,21,9,10,0.5,0.6
2024-07-31T0000,3282A,113.3397,40.0597,大同市,大同市卫生学校,,21,17,19,11,12,67,,94,88,17,12,6,6,0.7,0.7
2024-07-31T0000,3565A,113.1367,40.1122,大同市,云冈站,,16,16,14,8,13,30,,94,65,10,13,8,8,0.5,0.5
2024-07-31T0000,3566A,113.1186,40.2556,大同市,图书馆,颗粒物(PM10),53,55,16,15,10,40,,105,76,19,11,10,8,0.6,0.5
2024-07-31T0000,3567A,113.5931,40.0461,大同市,区一中,,24,24,15,10,7,43,,91,76,30,13,7,5,1.0,0.6
2024-07-31T0000,3676A,113.2802,40.0995,大同市,第二人民医院,,23,23,25,10,10,42,,95,80,27,14,9,9,0.6,0.6
2024-07-31T0000,2269A,124.1069,50.4097,大兴安岭地区,科技局,,25,25,22,10,9,44,,55,48,15,6,2,2,0.1,0.1
2024-07-31T0000,3663A,124.1164,50.4278,大兴安岭地区,红旗社区,,17,17,14,10,13,16,,55,40,10,7,9,8,0.4,0.4
2024-07-31T0000,1600A,124.3303,40.0625,丹东市,江湾东路,,22,10,11,3,12,69,,75,72,4,5,3,6,0.4,0.6
2024-07-31T0000,1601A,124.4256,40.1503,丹东市,临江后街,,25,6,12,3,10,77,,90,86,2,3,1,2,0.4,0.6
2024-07-31T0000,1602A,124.3933,40.1461,丹东市,元宝山,,23,,19,6,11,72,,76,75,2,6,2,2,0.3,0.3
2024-07-31T0000,1603A,124.3633,40.1092,丹东市,民主桥,,23,12,12,3,7,72,,80,75,2,6,2,2,0.3,0.4
2024-07-31T0000,3541A,109.5726,19.5167,儋州市,第一中学子站,,14,14,13,3,5,24,,33,23,2,5,8,7,0.5,0.5
2024-07-31T0000,3542A,109.5567,19.5187,儋州市,东坡学校子站,,14,14,16,6,6,24,,34,25,1,4,4,5,0.5,0.6
2024-07-31T0000,2616A,98.5842,24.428,德宏傣族景颇族自治州,德宏州监测站,,15,13,15,10,7,21,,34,28,12,11,10,14,0.8,0.8
2024-07-31T0000,3677A,98.5881,24.4368,德宏傣族景颇族自治州,芒市人民政府综合楼,,22,22,14,11,7,16,,30,24,8,10,7,16,0.7,0.7
2024-07-31T0000,1901A,104.4239,31.1208,德阳市,东山公园,,33,26,29,10,13,104,,160,140,8,11,2,3,0.6,0.6
2024-07-31T0000,1902A,104.3826,31.1317,德阳市,西小区,,29,29,28,17,15,83,,163,136,18,21,2,3,0.6,0.6
2024-07-31T0000,1904A,104.3553,31.1091,德阳市,耐火材料厂,,26,25,32,16,16,82,,166,130,18,22,4,4,0.6,0.6
2024-07-31T0000,3639A,104.4019,31.1244,德阳市,市教育局,,40,40,30,15,13,60,,162,128,26,20,2,3,0.6,0.7
2024-07-31T0000,1622A,116.3032,37.4674,德州市,儿童乐园,,22,19,21,9,10,68,,96,85,9,9,7,7,0.6,0.6
2024-07-31T0000,1624A,116.2991,37.4451,德州市,监理站,,22,14,19,3,8,70,,101,87,12,13,11,11,0.4,0.5
2024-07-31T0000,3066A,116.2721,37.4379,德州市,九衢泉纯净水厂,,22,17,23,7,11,68,,99,83,10,10,8,9,0.5,0.6
2024-07-31T0000,3371A,116.3728,37.4403,德州市,开发区人民医院,,22,19,25,7,8,68,,107,88,9,12,8,7,0.6,0.7
2024-07-31T0000,3372A,116.3572,37.4094,德州市,太阳城中学,,22,17,25,9,12,69,,106,87,8,10,8,8,0.6,0.6
2024-07-31T0000,3511A,116.5652,37.3319,德州市,陵城艺术中心,,22,19,25,7,7,69,,103,85,13,10,4,5,0.5,0.5
2024-07-31T0000,2621A,99.7056,27.8317,迪庆藏族自治州,迪庆州站,,44,44,22,19,11,52,,106,89,15,11,16,9,0.6,0.4
2024-07-31T0000,3180A,99.7136,27.8094,迪庆藏族自治州,质量技术监督局,,23,22,17,10,9,71,,95,86,14,13,7,7,0.6,0.6
2024-07-31T0000,2663A,104.6241,35.5734,定西市,东关小学,,44,44,34,21,15,95,,168,139,14,13,8,8,0.3,0.3
2024-07-31T0000,2664A,104.6194,35.5934,定西市,供电公司,,48,43,30,33,21,29,,152,119,75,17,5,6,0.3,0.3
2024-07-31T0000,1389A,113.7547,23.0494,东莞市,莞城梨川,,18,15,12,7,5,9,,47,35,35,17,9,9,0.6,0.6
2024-07-31T0000,1390A,113.7944,23.0128,东莞市,东城石井,,19,18,13,8,6,5,,43,29,38,18,5,5,0.7,0.6
2024-07-31T0000,1391A,113.7383,22.9658,东莞市,南城西平,,26,26,15,14,7,6,,37,19,40,22,2,4,0.7,0.6
2024-07-31T0000,3319A,113.7338,23.0381,东莞市,万江金泰,,19,19,13,7,6,10,,44,32,28,13,4,4,0.8,0.7
2024-07-31T0000,3626A,113.7533,23.0202,东莞市,南城元岭,,20,20,13,10,5,6,,34,24,29,15,5,5,0.7,0.6
2024-07-31T0000,3627A,113.7875,23.0457,东莞市,东城主山,,18,18,15,9,7,6,,44,29,30,17,6,6,0.8,0.7
2024-07-31T0000,1666A,118.6614,37.4309,东营市,市环保局,,31,31,27,12,13,77,,113,86,16,12,4,5,0.2,0.2
2024-07-31T0000,3036A,118.6904,37.4338,东营市,开发区管委会,,40,40,33,17,14,97,,143,107,20,14,16,9,0.3,0.2
2024-07-31T0000,3365A,118.5719,37.565,东营市,垦利区民丰路,,31,31,29,14,11,89,,136,101,14,11,5,6,0.3,0.5
2024-07-31T0000,3498A,118.5055,37.8612,东营市,河口城区,,29,29,29,10,13,78,,146,106,18,14,5,5,0.4,0.5
2024-07-31T0000,3646A,118.4978,37.4623,东营市,胜利站,,32,31,29,22,14,82,,131,96,12,14,2,2,0.7,0.8
2024-07-31T0000,3734A,118.35,37.26,东营市,理想之城,,34,34,26,19,17,64,,104,77,13,9,7,8,0.6,0.6
2024-07-31T0000,1591A,110.0023,39.8129,鄂尔多斯市,综合楼,颗粒物(PM10),53,56,34,34,18,82,,134,118,30,17,10,10,0.9,0.8
2024-07-31T0000,1592A,109.9486,39.8261,鄂尔多斯市,巴音孟克林场办事处,颗粒物(PM10),52,53,30,31,19,86,,120,109,23,15,6,6,1.1,1
2024-07-31T0000,1593A,109.7736,39.5986,鄂尔多斯市,康泽苑,,31,31,27,19,16,76,,125,81,17,13,5,6,0.6,0.6
2024-07-31T0000,1594A,109.8119,39.5989,鄂尔多斯市,华泰汽车城,,36,36,27,19,19,46,,114,60,24,17,9,9,0.5,0.5
2024-07-31T0000,1595A,109.9734,39.7884,鄂尔多斯市,奥林花园,颗粒物(PM10),53,56,29,27,17,26,,123,90,40,18,4,4,1.0,0.7
2024-07-31T0000,2436A,114.8938,30.3994,鄂州市,市政府,,46,46,30,16,9,57,,129,84,19,13,11,11,0.7,0.8
2024-07-31T0000,2437A,114.8989,30.3714,鄂州市,赵家坝,,34,34,28,15,10,46,,122,81,18,12,10,11,0.8,0.7
2024-07-31T0000,3654A,114.8094,30.4089,鄂州市,精准医疗中心,,30,30,26,14,10,44,,119,78,22,13,7,14,0.5,0.9
2024-07-31T0000,2454A,109.4978,30.2981,恩施土家族苗族自治州,湖北民院,,14,14,14,6,5,31,,65,52,11,8,7,7,0.4,0.4
2024-07-31T0000,2455A,109.4707,30.2798,恩施土家族苗族自治州,州电力总公司,,12,8,11,8,5,33,,60,48,12,12,5,5,0.6,0.6
2024-07-31T0000,3549A,109.5061,30.3772,恩施土家族苗族自治州,龙凤新区,,20,,10,14,4,12,,58,40,13,12,6,6,0.5,0.5
2024-07-31T0000,2499A,108.3411,21.6158,防城港市,沙万,,12,12,14,3,5,20,,44,17,24,20,9,9,0.6,0.6
2024-07-31T0000,2500A,108.3514,21.7731,防城港市,防城档案局,,13,11,11,3,5,8,,43,18,26,16,7,6,1.0,0.8
2024-07-31T0000,2501A,108.3506,21.6414,防城港市,大海花园,,15,15,11,7,4,27,,44,20,12,14,6,6,0.5,0.6
2024-07-31T0000,1371A,113.1294,23.0067,佛山市,湾梁,,15,,7,10,11,26,,67,45,17,20,7,7,0.6,0.7
2024-07-31T0000,1372A,113.1083,23.0478,佛山市,华材职中,,12,,10,8,8,27,,68,45,15,21,6,7,0.4,0.4
2024-07-31T0000,1373A,113.144,23.0453,佛山市,南海气象局,,13,,17,9,8,22,,64,38,14,18,8,8,0.5,0.5
2024-07-31T0000,1374A,113.2881,22.8094,佛山市,顺德苏岗,,10,6,8,3,4,29,,56,39,9,16,6,6,0.6,0.5
2024-07-31T0000,1376A,112.8383,22.8678,佛山市,高明孔堂,,10,7,15,3,7,29,,61,36,7,16,5,6,0.7,0.7
2024-07-31T0000,1377A,112.8836,23.1588,佛山市,三水监测站,,32,,9,22,10,20,,69,40,21,24,3,4,0.5,0.6
2024-07-31T0000,1378A,112.867,23.185,佛山市,三水云东海,,11,6,17,3,8,19,,68,39,22,21,4,4,0.6,0.6
2024-07-31T0000,3625A,113.2544,22.7642,佛山市,容桂街道办,,10,6,6,3,6,19,,53,35,20,19,5,5,0.7,0.6
2024-07-31T0000,1280A,119.3903,26.0543,福州市,鼓山,,,,,,,,,,,,,,,,
2024-07-31T0000,1282A,119.2681,26.0504,福州市,师大,,20,20,20,14,7,41,,79,58,12,8,4,4,0.4,0.4
2024-07-31T0000,1283A,119.2984,26.1028,福州市,五四北路,,,,20,13,6,59,,95,73,11,8,4,3,0.6,0.6
2024-07-31T0000,1284A,119.2648,26.0768,福州市,杨桥西路,,22,22,21,11,6,52,,90,70,11,8,4,3,0.6,0.5
2024-07-31T0000,1285A,119.317,26.0746,福州市,紫阳,,21,21,18,12,6,45,,78,57,11,10,4,3,0.4,0.3
2024-07-31T0000,3048A,119.5799,26.0936,福州市,九龙,,39,39,21,3,3,16,,67,42,6,3,5,5,0.3,0.4
2024-07-31T0000,3526A,119.5189,25.9664,福州市,吴航,,22,22,15,10,8,26,,64,45,8,6,5,4,0.5,0.4
2024-07-31T0000,1755A,123.7977,41.8491,抚顺市,望花区,,36,36,52,23,35,34,,112,68,21,14,6,4,0.4,0.9
2024-07-31T0000,1756A,123.9161,41.8822,抚顺市,顺城区,,20,19,51,14,37,34,,117,69,12,15,1,2,0.7,1.3
2024-07-31T0000,1757A,124.0436,41.8611,抚顺市,东洲区,,17,17,50,9,38,42,,111,57,5,10,4,5,0.5,1.2
2024-07-31T0000,1758A,123.9247,41.8642,抚顺市,新抚区,,32,32,53,19,35,18,,108,48,13,14,3,3,0.7,1.3
2024-07-31T0000,1759A,124.0972,41.8961,抚顺市,大伙房水库,,30,28,50,21,53,31,,118,59,8,9,2,3,0.9,1.4
2024-07-31T0000,1760A,123.7086,41.8391,抚顺市,沈抚新城,,21,21,46,14,36,29,,104,66,13,12,2,2,0.4,0.8
2024-07-31T0000,2376A,116.2127,28.0814,抚州市,桐源党溪,,29,29,22,15,10,0,,60,31,19,7,5,6,0.6,0.6
2024-07-31T0000,2377A,116.3544,27.9831,抚州市,市站,,19,19,22,12,9,34,,62,48,8,6,8,6,0.8,1
2024-07-31T0000,2378A,116.3565,27.963,抚州市,血防站,,20,20,22,9,7,25,,55,42,12,8,1,3,1.1,1
2024-07-31T0000,2379A,116.3564,28.0007,抚州市,采茶剧团,,19,19,20,12,8,23,,57,42,8,8,6,6,0.7,0.7
2024-07-31T0000,2380A,116.385,27.9647,抚州市,医学分院,,17,17,20,11,8,26,,57,44,10,7,4,4,0.8,0.9
2024-07-31T0000,2207A,121.6094,41.998,阜新市,工业园区,,29,29,53,17,22,28,,95,65,23,17,5,9,0.8,0.8
2024-07-31T0000,2208A,121.6697,42.0279,阜新市,长青街,,28,28,46,19,22,39,,90,56,10,16,2,6,0.6,0.8
2024-07-31T0000,2209A,121.6673,42.0705,阜新市,农业园区,,34,34,38,17,23,62,,89,65,12,15,5,6,0.7,0.8
2024-07-31T0000,2210A,121.6717,42.0224,阜新市,东苑,,32,22,44,22,21,67,,90,70,12,19,5,10,0.9,1
2024-07-31T0000,2211A,121.6506,42.0498,阜新市,玉龙新城,,26,22,35,18,20,29,,85,50,16,15,2,4,0.7,0.9
2024-07-31T0000,2301A,115.8277,32.8929,阜阳市,市监测站,,19,19,21,3,6,60,,72,63,8,10,5,5,0.3,0.3
2024-07-31T0000,2303A,115.8554,32.8605,阜阳市,开发区,,24,24,13,6,8,48,,74,66,11,8,5,5,0.3,0.3
2024-07-31T0000,2875A,115.784,32.8892,阜阳市,阜阳职业技术学院,,16,15,12,9,6,50,,76,65,11,8,4,5,0.3,0.3
2024-07-31T0000,3468A,115.7901,32.8613,阜阳市,市规划展馆,,24,24,21,11,10,48,,76,56,11,11,5,5,0.4,0.4
2024-07-31T0000,3469A,115.836,32.9183,阜阳市,枣园社区,,18,18,21,10,10,40,,73,59,22,10,3,3,0.4,0.4
2024-07-31T0000,2669A,102.9099,34.9841,甘南藏族自治州,州政府,,,46,30,26,13,,,148,125,40,14,5,7,0.2,0.3
2024-07-31T0000,3380A,102.8914,34.9617,甘南藏族自治州,甘肃民族师范学院,,44,44,27,15,10,27,,154,112,53,22,4,3,0.4,0.3
2024-07-31T0000,2570A,101.9603,30.0475,甘孜藏族自治州,水桥子,,25,25,12,10,7,6,,86,53,28,16,4,4,0.4,0.3
2024-07-31T0000,3065A,101.9533,29.9972,甘孜藏族自治州,州环保局,,28,28,19,3,6,15,,92,70,28,18,3,2,0.2,0.2
2024-07-31T0000,3414A,115.8347,28.932,赣江新区,桑海产业园,,39,39,23,12,8,19,,83,59,38,16,10,11,0.4,0.4
2024-07-31T0000,2362A,114.9017,25.9149,赣州市,通天岩,,,,,,,,,,,,,,,,
2024-07-31T0000,2363A,114.9367,25.8664,赣州市,地委,,19,19,18,12,9,30,,60,42,9,10,5,14,0.6,0.6
2024-07-31T0000,2364A,114.9461,25.8481,赣州市,气象台,,17,17,20,11,9,30,,59,44,11,11,13,12,0.7,0.7
2024-07-31T0000,2365A,114.9322,25.8333,赣州市,市图书馆,,18,18,15,7,5,33,,64,47,6,7,4,3,0.9,0.8
2024-07-31T0000,2366A,114.8905,25.8471,赣州市,华坚鞋城,,20,20,20,10,9,34,,65,47,7,8,30,26,0.6,0.6
2024-07-31T0000,3109A,115.0093,25.8613,赣州市,赣县区卫计委,,20,20,16,10,7,30,,61,43,16,13,8,8,0.6,0.6
2024-07-31T0000,2683A,106.2319,36.1417,固原市,马园,,43,43,30,19,11,31,,137,94,60,21,6,6,0.7,0.5
2024-07-31T0000,2684A,106.2792,36.0022,固原市,监测站,颗粒物(PM10),52,54,33,16,12,77,,142,118,25,18,5,6,0.5,0.4
2024-07-31T0000,2685A,106.2375,36.0211,固原市,新区,,44,44,31,12,10,39,,135,105,56,18,6,6,0.5,0.4
2024-07-31T0000,3522A,106.2177,35.9959,固原市,原州区十五小,,39,39,26,13,12,106,,137,126,13,10,6,6,0.6,0.5
2024-07-31T0000,2543A,106.6308,30.5278,广安市,小平旧居,,,,,,,,,,,,,,,,
2024-07-31T0000,2544A,106.6303,30.4576,广安市,市委,颗粒物(PM10),51,51,35,24,19,66,,119,107,22,11,3,4,0.5,0.4
2024-07-31T0000,2545A,106.6271,30.4663,广安市,友谊中学,,34,34,26,23,18,66,,124,108,20,13,5,5,0.6,0.5
2024-07-31T0000,2547A,106.6388,30.4551,广安市,广电花园,,44,44,30,23,17,56,,110,99,20,12,4,5,0.5,0.4
2024-07-31T0000,2902A,106.6351,30.4865,广安市,北辰小学,,38,35,32,26,20,59,,122,104,17,11,5,6,0.5,0.4
2024-07-31T0000,2523A,105.8945,32.4535,广元市,黑石坡,,30,,12,21,8,67,,113,95,5,8,8,7,0.4,0.4
2024-07-31T0000,2524A,105.821,32.4444,广元市,老城,,22,20,19,15,9,66,,119,100,10,17,4,9,0.5,0.4
2024-07-31T0000,2526A,105.8628,32.4287,广元市,监测站,,35,,16,24,12,58,,121,105,11,12,5,5,0.5,0.5
2024-07-31T0000,3617A,105.8047,32.4166,广元市,经开区,,33,33,30,21,14,70,,122,102,13,16,2,10,0.6,0.6
2024-07-31T0000,1345A,113.2347,23.1423,广州市,广雅中学,,10,10,14,3,8,26,,68,36,18,25,4,4,0.7,0.8
2024-07-31T0000,1346A,113.2612,23.105,广州市,市五中,,9,7,15,3,11,28,,68,38,16,22,4,4,0.6,0.6
2024-07-31T0000,1348A,113.3478,23.0916,广州市,广东商学院,,12,8,14,3,9,18,,53,30,23,27,3,5,0.5,0.6
2024-07-31T0000,1349A,113.4332,23.1047,广州市,市八十六中,,13,8,22,3,6,20,,46,27,25,27,3,4,0.4,0.5
2024-07-31T0000,1350A,113.3505,22.9483,广州市,番禺中学,,9,8,12,3,8,26,,69,42,18,17,2,2,0.5,0.5
2024-07-31T0000,1351A,113.2146,23.3916,广州市,花都师范,,12,12,16,7,8,22,,62,32,17,19,5,6,0.6,0.7
2024-07-31T0000,1352A,113.2597,23.1331,广州市,市监测站,,9,9,16,6,9,23,,65,38,18,24,4,5,0.5,0.5
2024-07-31T0000,1353A,113.5618,23.312,广州市,九龙镇镇龙,,19,19,13,11,7,14,,48,31,28,15,7,7,0.6,0.6
2024-07-31T0000,1354A,113.2765,23.1544,广州市,麓湖,,18,17,14,12,8,24,,65,37,18,23,4,4,0.5,0.6
2024-07-31T0000,1355A,113.443,23.3035,广州市,帽峰山森林公园,,12,8,7,3,4,18,,56,33,24,12,5,5,0.7,0.6
2024-07-31T0000,2846A,113.3221,23.1322,广州市,体育西,,10,9,17,3,9,18,,50,30,20,24,4,5,0.6,0.6
2024-07-31T0000,3298A,113.5717,23.5491,广州市,从化街口,,10,10,15,3,6,31,,54,44,12,11,6,6,0.5,0.5
2024-07-31T0000,3299A,113.3472,23.3692,广州市,白云竹料,,19,19,15,9,7,10,,54,29,34,20,5,4,0.6,0.6
2024-07-31T0000,3300A,113.2981,23.237,广州市,白云嘉禾,,14,9,11,3,5,20,,66,33,28,23,6,6,0.7,0.7
2024-07-31T0000,3301A,113.4256,23.1716,广州市,黄埔科学城,,17,12,12,3,6,12,,57,28,34,21,8,7,0.5,0.5
2024-07-31T0000,3302A,113.3942,23.0483,广州市,番禺大学城,,9,9,12,3,6,25,,58,35,13,21,5,7,0.7,0.8
2024-07-31T0000,3303A,113.4922,22.8168,广州市,南沙黄阁,,10,8,12,3,5,32,,56,40,14,17,6,6,0.7,0.4
2024-07-31T0000,3304A,113.5342,22.7896,广州市,南沙街,,7,6,10,3,4,22,,52,36,14,11,5,5,0.6,0.6
2024-07-31T0000,3443A,113.2902,23.5544,广州市,花都梯面,,16,16,13,8,5,19,,62,46,24,11,5,4,0.6,0.5
2024-07-31T0000,3445A,113.7858,23.7478,广州市,从化良口,,15,15,10,3,5,7,,41,26,22,7,6,6,0.6,0.5
2024-07-31T0000,3446A,113.8051,23.2614,广州市,增城荔城,,21,21,14,6,5,16,,50,32,23,10,6,6,0.5,0.5
2024-07-31T0000,2505A,109.568,23.1478,贵港市,德智高中,,,,,,,,,,,,,,,,
2024-07-31T0000,2506A,109.6047,23.0666,贵港市,江南子站,,34,34,16,17,10,11,,56,33,22,9,15,9,0.7,0.6
2024-07-31T0000,2507A,109.6014,23.0948,贵港市,贵城子站,,16,14,21,11,13,14,,50,33,18,12,15,9,0.9,0.6
2024-07-31T0000,2508A,109.5669,23.1065,贵港市,荷城子站,,14,14,17,3,2,18,,50,33,15,8,12,10,0.7,0.4
2024-07-31T0000,3405A,109.5886,23.1172,贵港市,新世纪学校,,12,12,18,6,6,20,,50,32,10,10,9,9,0.6,0.5
2024-07-31T0000,1439A,106.6899,26.5998,贵阳市,马鞍山,,14,14,8,3,0,19,,54,35,8,8,4,5,0.5,0.5
2024-07-31T0000,1440A,106.6971,26.5694,贵阳市,市环保站,,15,,10,10,14,31,,61,47,24,20,3,3,0.5,0.4
2024-07-31T0000,1441A,106.6243,26.6266,贵阳市,鉴湖路,,12,12,13,3,4,29,,58,37,10,10,5,4,0.3,0.3
2024-07-31T0000,1442A,106.7487,26.6343,贵阳市,燕子冲,,18,,4,12,8,26,,57,40,6,11,5,5,0.6,0.6
2024-07-31T0000,1443A,106.6555,26.4365,贵阳市,碧云窝,,22,22,14,3,3,14,,45,35,12,10,7,5,0.3,0.3
2024-07-31T0000,1444A,106.694,26.5161,贵阳市,中院村,,14,14,13,3,3,30,,64,45,23,17,3,3,0.4,0.5
2024-07-31T0000,1445A,106.7109,26.6027,贵阳市,红边门,,18,,12,12,14,32,,68,53,20,16,4,4,0.4,0.4
2024-07-31T0000,1446A,106.7164,26.5699,贵阳市,新华路,,15,9,6,3,10,22,,50,44,29,15,3,5,0.3,0.5
2024-07-31T0000,1447A,106.674,26.5424,贵阳市,太慈桥,,11,,2,3,3,6,,55,25,21,12,5,5,0.4,0.3
2024-07-31T0000,1552A,106.805,26.3003,贵阳市,桐木岭,,,,,,,,,,,,,,,,
2024-07-31T0000,1862A,110.4144,25.3167,桂林市,电子科大尧山校区,,12,12,17,6,6,37,,57,50,5,4,5,4,0.5,0.4
2024-07-31T0000,1863A,110.2819,25.2697,桂林市,监测站,,15,,23,10,13,47,,74,65,6,9,6,9,0.6,0.7
2024-07-31T0000,1864A,110.3089,25.2708,桂林市,龙隐路小学,,16,12,23,11,12,36,,70,58,6,9,8,11,0.6,0.6
2024-07-31T0000,1865A,110.2869,25.2178,桂林市,八中,,15,14,21,7,9,46,,71,66,9,9,6,8,0.3,0.7
2024-07-31T0000,3403A,110.1764,25.2381,桂林市,创业大厦,,14,,21,9,14,43,,60,56,4,10,7,15,0.3,0.4
2024-07-31T0000,3531A,110.296,25.1253,桂林市,旅游学院,,13,,6,3,3,40,,72,63,4,5,5,6,0.3,0.4
2024-07-31T0000,2674A,100.2561,34.4714,果洛藏族自治州,玛沁县大武镇,,33,33,27,15,12,70,,152,129,10,4,7,8,0.5,0.4
2024-07-31T0000,1129A,126.5422,45.755,哈尔滨市,岭北,,21,21,22,12,14,62,,104,84,18,15,9,8,0.7,0.8
2024-07-31T0000,1130A,126.561,45.8167,哈尔滨市,松北商大,,25,25,19,7,7,40,,92,62,21,14,7,7,0.6,0.5
2024-07-31T0000,1131A,126.979,45.5419,哈尔滨市,阿城会宁,,30,30,23,11,11,30,,88,62,15,12,8,8,0.6,0.6
2024-07-31T0000,1132A,126.599,45.7222,哈尔滨市,南岗学府路,,42,42,31,8,9,49,,107,72,21,16,6,6,0.5,0.5
2024-07-31T0000,1133A,126.689,45.7733,哈尔滨市,太平宏伟公园,,49,49,34,10,11,39,,109,66,32,25,8,8,0.5,0.5
2024-07-31T0000,1134A,126.635,45.7667,哈尔滨市,道外承德广场,,42,42,27,3,7,34,,101,66,41,28,6,7,0.7,0.6
2024-07-31T0000,1135A,126.685,45.7319,哈尔滨市,香坊红旗大街,,46,46,33,17,13,28,,107,63,40,27,11,10,0.7,0.6
2024-07-31T0000,1136A,126.6411,45.7258,哈尔滨市,动力和平路,,,55,30,,16,40,,105,69,33,24,7,7,0.6,0.5
2024-07-31T0000,1137A,126.593,45.7478,哈尔滨市,道里建国路,,39,39,29,12,10,50,,98,71,24,23,9,9,1.3,1
2024-07-31T0000,1138A,126.615,45.61,哈尔滨市,平房东轻厂,,37,37,30,3,9,50,,99,80,16,20,7,9,0.3,0.2
2024-07-31T0000,1139A,126.595,45.9855,哈尔滨市,呼兰师专,,16,16,22,8,11,46,,96,69,22,17,11,11,0.8,0.6
2024-07-31T0000,1140A,126.6206,45.6842,哈尔滨市,省农科院,颗粒物(PM10),51,52,33,17,17,20,,107,54,50,30,7,7,0.6,0.5
2024-07-31T0000,2688A,93.5128,42.8172,哈密市,地区监测站,颗粒物(PM10),58,66,44,19,14,93,,148,130,33,12,3,5,0.3,0.2
2024-07-31T0000,2689A,93.4961,42.8328,哈密市,哈密师范学校,,38,38,40,16,13,91,,148,128,25,18,4,5,0.4,0.4
2024-07-31T0000,2671A,100.9048,36.9639,海北藏族自治州,海晏县西海镇,,20,,15,13,12,63,,146,115,13,9,12,12,0.3,0.4
2024-07-31T0000,3867A,102.0738,36.5056,海东市,平安区公安北苑,,28,24,30,8,10,88,,158,130,7,9,7,11,0.3,0.4
2024-07-31T0000,1409A,110.576,19.9507,海口市,东寨港,,,,,,,,,,,,,,,,
2024-07-31T0000,1410A,110.3232,20.0574,海口市,海南大学,,16,16,16,8,8,23,,50,23,12,13,4,4,0.5,0.5
2024-07-31T0000,1411A,110.283,20.0053,海口市,秀英海南医院,,21,21,19,9,9,10,,40,10,20,18,6,6,0.3,0.3
2024-07-31T0000,1412A,110.338,19.9969,海口市,海南师范大学,,16,16,17,8,8,18,,42,21,10,11,6,6,0.4,0.4
2024-07-31T0000,1413A,110.33,20.0356,海口市,龙华路环保局宿舍,,17,17,18,9,9,18,,46,20,13,13,7,7,0.3,0.3
2024-07-31T0000,3539A,110.5111,19.9736,海口市,桂林洋子站,,23,23,16,8,5,15,,37,23,12,9,6,6,0.3,0.3
2024-07-31T0000,2673A,100.6188,36.2866,海南藏族自治州,共和县恰卜恰镇,颗粒物(PM10),56,62,30,29,13,28,,159,120,70,21,12,10,0.4,0.5
2024-07-31T0000,2676A,97.3731,37.3753,海西蒙古族藏族自治州,德令哈市,,48,23,22,12,12,152,,159,147,6,8,9,9,0.5,0.5
2024-07-31T0000,1048A,114.5302,36.6116,邯郸市,东污水处理厂,,17,14,17,3,3,52,,109,80,17,7,2,1,0.6,0.4
2024-07-31T0000,1049A,114.4918,36.5713,邯郸市,矿院,,24,24,14,3,6,38,,105,72,19,5,2,2,0.5,0.3
2024-07-31T0000,1050A,114.484,36.6133,邯郸市,丛台公园,,23,23,16,3,6,52,,99,70,12,5,1,2,0.5,0.4
2024-07-31T0000,3458A,114.7895,36.5593,邯郸市,香泉濮院小区,,24,23,22,9,7,74,,97,89,4,3,2,1,0.2,0.2
2024-07-31T0000,3579A,114.50634,36.77178,邯郸市,永年区实验高中,,22,21,20,3,9,70,,104,80,7,4,3,2,0.8,0.5
2024-07-31T0000,3580A,114.20016,36.44293,邯郸市,峰峰矿区临水派出所,,24,10,19,3,3,74,,102,77,2,5,1,2,0.3,0.3
2024-07-31T0000,2634A,106.9893,33.1842,汉中市,汉川机床厂子校,,35,35,31,13,19,42,,112,90,12,8,4,4,0.5,0.6
2024-07-31T0000,2635A,107.0154,33.0706,汉中市,市监测站,,19,16,29,13,15,59,,111,86,6,6,6,6,0.8,0.8
2024-07-31T0000,2636A,107.0089,33.1138,汉中市,鑫源开发区,,19,19,29,13,15,52,,119,92,12,9,9,9,0.6,0.6
2024-07-31T0000,2637A,107.007,33.0323,汉中市,南郑大河坎水厂,,19,19,27,12,16,60,,120,89,5,6,7,8,0.5,0.6
2024-07-31T0000,1223A,120.2072,30.2111,杭州市,滨江,,18,17,17,12,8,38,,108,73,10,8,3,3,0.6,0.6
2024-07-31T0000,1224A,120.0633,30.2747,杭州市,西溪,,12,11,13,6,9,36,,104,73,8,6,5,6,0.6,0.6
2024-07-31T0000,1226A,120.3461,30.3153,杭州市,下沙,,17,17,19,6,7,39,,91,63,19,14,6,6,0.5,0.5
2024-07-31T0000,1227A,120.1269,30.2456,杭州市,卧龙桥,,13,13,15,8,8,38,,118,78,12,10,5,5,0.6,0.5
2024-07-31T0000,1228A,120.1903,30.2692,杭州市,浙江农大,,15,14,13,10,8,37,,106,71,13,12,6,6,0.4,0.5
2024-07-31T0000,1230A,120.1197,30.3119,杭州市,和睦小学,,14,12,12,3,6,42,,118,82,10,8,5,5,0.6,0.6
2024-07-31T0000,1231A,120.3019,30.4183,杭州市,临平镇,,21,21,20,14,8,40,,104,66,12,11,5,5,0.4,0.4
2024-07-31T0000,1232A,120.2697,30.1819,杭州市,城厢镇,,16,14,15,9,8,49,,101,74,8,8,5,5,0.4,0.4
2024-07-31T0000,1233A,120.0883,30.1808,杭州市,云栖,,18,18,20,3,6,34,,117,71,12,12,7,7,0.5,0.5
2024-07-31T0000,3557A,119.9464,30.0494,杭州市,镇二中,,15,15,12,10,7,38,,101,74,13,12,7,7,0.5,0.5
2024-07-31T0000,3558A,119.7183,30.2367,杭州市,市府大楼,,20,15,15,14,10,59,,106,99,18,14,5,5,0.5,0.5
2024-07-31T0000,3656A,120.1556,30.2864,杭州市,消防大队,,14,14,17,9,8,38,,116,80,9,8,7,7,0.5,0.5
2024-07-31T0000,1270A,117.1959,31.7848,合肥市,明珠广场,,24,24,23,14,12,59,,98,73,11,13,9,9,0.4,0.4
2024-07-31T0000,1271A,117.3072,31.8764,合肥市,三里街,,19,19,22,12,8,58,,89,72,15,21,6,6,0.4,0.4
2024-07-31T0000,1272A,117.2588,31.8707,合肥市,琥珀山庄,,24,24,21,3,3,63,,106,81,10,11,4,4,0.3,0.3
2024-07-31T0000,1273A,117.1604,31.9052,合肥市,董铺水库,,17,17,18,7,10,51,,85,66,9,9,2,2,0.3,0.3
2024-07-31T0000,1274A,117.25,31.8571,合肥市,长江中路,,22,22,27,12,12,56,,98,72,8,10,6,6,0.4,0.4
2024-07-31T0000,1275A,117.266,31.9436,合肥市,庐阳区,,27,27,19,17,12,52,,97,80,15,13,9,9,0.5,0.5
2024-07-31T0000,1276A,117.336,31.8586,合肥市,瑶海区,,19,19,23,9,10,54,,85,72,14,16,8,7,0.3,0.3
2024-07-31T0000,1277A,117.3027,31.7964,合肥市,包河区,,31,31,20,17,10,56,,92,75,13,8,8,8,0.4,0.4
2024-07-31T0000,1278A,117.2776,31.7385,合肥市,滨湖新区,,20,,13,9,7,61,,93,73,6,5,8,8,0.3,0.3
2024-07-31T0000,1279A,117.1318,31.8403,合肥市,高新区,,27,27,17,12,8,49,,80,70,13,11,10,5,0.4,0.4
2024-07-31T0000,3464A,117.3803,31.9147,合肥市,高教基地,,26,26,16,16,9,50,,94,77,15,9,7,7,0.3,0.3
2024-07-31T0000,3614A,79.924,37.0877,和田地区,地区环保局,颗粒物(PM10),192,333,261,72,72,78,,141,115,18,11,8,9,0.6,0.4
2024-07-31T0000,3615A,79.9131,37.113,和田地区,市环保局,细颗粒物(PM2.5),155,254,249,118,64,39,,134,102,111,62,7,9,0.7,0.5
2024-07-31T0000,2516A,108.2011,24.715,河池市,东仁乐园,,34,34,17,3,1,17,,56,41,14,8,46,6,2.0,0.6
2024-07-31T0000,2517A,108.0497,24.6947,河池市,市环保站,,19,19,16,6,9,21,,56,41,20,12,7,8,0.6,0.6
2024-07-31T0000,2518A,108.0983,24.6989,河池市,市疾控中心,,26,26,15,3,6,16,,55,34,19,15,7,7,0.5,0.5
2024-07-31T0000,1696A,114.6778,23.7569,河源市,源西,,,,18,,7,,,38,,,13,,4,,0.6
2024-07-31T0000,1697A,114.6944,23.7586,河源市,东埔,,,,14,,8,7,,48,23,26,16,7,12,,0.7
2024-07-31T0000,1698A,114.6892,23.7233,河源市,老城,,21,21,14,3,5,3,,48,23,24,10,4,4,0.4,0.4
2024-07-31T0000,1718A,115.4208,35.2464,菏泽市,气象局,,21,21,27,12,9,63,,93,80,8,6,4,4,0.2,0.2
2024-07-31T0000,1719A,115.4747,35.2375,菏泽市,市政协,,23,16,20,16,12,60,,86,74,4,4,4,3,0.2,0.2
2024-07-31T0000,3374A,115.5564,35.0891,菏泽市,定陶老年大学,,20,19,18,3,1,63,,82,70,11,13,5,3,0.2,0.1
2024-07-31T0000,3647A,115.4702,35.2706,菏泽市,菏泽医专,,22,22,21,3,3,70,,93,83,5,4,3,3,0.3,0.3
2024-07-31T0000,2514A,111.5264,24.4172,贺州市,环保小区,,20,20,16,8,6,53,,54,42,10,10,6,7,0.6,0.5
2024-07-31T0000,2515A,111.5608,24.4078,贺州市,政协大楼,,16,12,19,9,9,50,,51,37,8,8,8,9,0.4,0.4
2024-07-31T0000,3534A,111.4744,24.4553,贺州市,西湾,,16,16,11,8,10,42,,49,33,12,11,4,4,0.6,0.6
2024-07-31T0000,2385A,114.17,35.9019,鹤壁市,市监测站,,30,30,25,10,10,72,,115,97,10,7,3,3,0.7,0.7
2024-07-31T0000,2386A,114.2956,35.7511,鹤壁市,市交警支队,,26,26,27,11,13,70,,109,92,16,11,2,3,0.6,0.5
2024-07-31T0000,2387A,114.2878,35.7306,鹤壁市,迎宾馆,,25,,17,17,10,73,,114,96,17,11,7,6,0.9,0.8
2024-07-31T0000,3474A,114.2617,35.6822,鹤壁市,大新区,,,8,16,,,63,,105,86,23,16,1,3,1.2,0.9
2024-07-31T0000,3596A,114.1572,35.9603,鹤壁市,南山宾馆,,38,,10,26,22,62,,100,88,14,7,3,2,0.6,0.5
2024-07-31T0000,2244A,130.2537,47.3416,鹤岗市,哈啤分公司,,41,41,22,20,12,0,,57,29,17,7,14,19,0.4,0.3
2024-07-31T0000,2245A,130.2684,47.3086,鹤岗市,斯达机电,,26,26,16,12,7,26,,62,43,17,8,12,12,0.2,0.2
2024-07-31T0000,2246A,130.3114,47.3388,鹤岗市,东山纸板厂,,18,18,20,10,12,6,,57,28,13,7,15,15,0.4,0.3
2024-07-31T0000,2247A,130.1097,47.3382,鹤岗市,五号水库,,9,9,8,6,4,8,,68,32,7,6,10,10,0.5,0.4
2024-07-31T0000,2263A,127.4833,50.2524,黑河市,交通局,,23,23,25,7,8,23,,71,44,7,9,7,7,0.3,0.4
2024-07-31T0000,2264A,127.5144,50.2341,黑河市,环保局,,16,16,19,6,7,17,,62,38,6,9,5,4,0.4,0.4
2024-07-31T0000,2265A,127.5291,50.2472,黑河市,大黑河岛,,,,10,14,13,,,,,10,11,2,1,,
2024-07-31T0000,1074A,115.6838,37.7541,衡水市,电机北厂,,30,30,19,12,7,76,,99,85,5,10,6,3,0.3,0.3
2024-07-31T0000,1075A,115.6303,37.7316,衡水市,市监测站,,25,17,16,3,4,77,,102,84,5,5,3,2,0.5,0.3
2024-07-31T0000,3188A,115.6683,37.7217,衡水市,市城管局,,24,7,10,3,9,75,,99,82,5,5,1,2,0.3,0.3
2024-07-31T0000,3459A,115.5989,37.5491,衡水市,地表水厂,,22,16,19,3,2,68,,94,78,4,5,5,4,0.3,0.3
2024-07-31T0000,2456A,112.5003,26.9167,衡阳市,原169医院,,13,11,14,9,9,29,,68,43,20,14,14,12,0.4,0.5
2024-07-31T0000,2457A,112.6194,26.9258,衡阳市,衡阳化工总厂,,,16,16,,,36,,68,52,12,8,7,6,0.4,0.4
2024-07-31T0000,2458A,112.6211,26.8956,衡阳市,珠晖区环保局,,,15,14,,,45,,69,60,8,7,7,7,0.6,0.6
2024-07-31T0000,2459A,112.6197,26.8733,衡阳市,市委党校,,23,23,14,7,6,41,,72,62,13,7,6,6,0.6,0.5
2024-07-31T0000,2460A,112.6006,26.8919,衡阳市,市监测站,,24,24,14,12,5,42,,71,62,9,7,7,7,0.5,0.5
2024-07-31T0000,2461A,112.5664,26.9056,衡阳市,真空机电公司,,29,29,16,8,6,29,,67,55,16,9,17,10,1.0,0.7
2024-07-31T0000,3399A,112.6703,26.882,衡阳市,师范学院,,18,18,14,3,6,32,,71,58,8,7,8,8,0.5,0.5
2024-07-31T0000,2608A,103.3772,23.3993,红河哈尼族彝族自治州,污水处理厂,,13,,9,6,9,40,,56,46,5,5,6,5,0.5,0.5
2024-07-31T0000,2609A,103.3861,23.35,红河哈尼族彝族自治州,监测站,,18,14,14,12,12,44,,59,44,4,8,9,22,0.4,0.5
2024-07-31T0000,3038A,103.3758,23.368,红河哈尼族彝族自治州,州图书馆,,14,,11,8,8,42,,54,42,6,6,11,21,0.5,0.5
2024-07-31T0000,1090A,111.6507,40.7517,呼和浩特市,呼市一监,,30,27,19,21,17,48,,97,77,17,13,8,7,0.4,0.5
2024-07-31T0000,1091A,111.6572,40.8033,呼和浩特市,小召,,26,24,16,18,14,79,,95,84,21,17,9,7,0.6,0.7
2024-07-31T0000,1094A,111.7516,40.8369,呼和浩特市,如意水处理厂,,29,29,26,16,13,90,,96,84,26,31,6,6,0.5,0.6
2024-07-31T0000,1095A,111.7276,40.8062,呼和浩特市,二十九中,,32,24,26,22,19,83,,100,91,14,17,4,4,0.6,0.8
2024-07-31T0000,1096A,111.5512,40.7866,呼和浩特市,工大金川校区,,32,32,21,17,12,49,,91,76,35,22,6,5,0.6,0.6
2024-07-31T0000,1097A,111.717,40.7612,呼和浩特市,化肥厂生活区,,39,36,34,27,28,80,,95,85,17,18,6,6,0.6,0.7
2024-07-31T0000,3698A,111.5968,40.8178,呼和浩特市,红旗小学,,39,39,15,22,13,44,,96,71,40,23,4,4,0.5,0.5
2024-07-31T0000,3699A,111.6518,40.8389,呼和浩特市,海东办,,34,34,16,23,13,75,,101,90,24,19,13,5,0.6,0.6
2024-07-31T0000,2192A,119.7594,49.2261,呼伦贝尔市,区环保局,,26,20,19,18,13,44,,101,72,19,15,4,5,0.8,0.6
2024-07-31T0000,3061A,119.7512,49.1577,呼伦贝尔市,国华电力东,,18,12,13,7,8,56,,100,74,6,6,4,4,0.4,0.3
2024-07-31T0000,1250A,120.0751,30.8669,湖州市,城西水厂,,29,29,27,13,12,38,,129,90,17,15,4,4,0.5,0.5
2024-07-31T0000,2873A,120.0875,30.8955,湖州市,仁皇山新区,,26,26,24,13,12,37,,138,96,19,15,7,7,0.5,0.4
2024-07-31T0000,2907A,120.1844,30.8596,湖州市,吴兴区站,,21,21,23,11,13,34,,124,83,10,12,7,7,0.2,0.3
2024-07-31T0000,3562A,120.4148,30.8538,湖州市,南浔区站,,21,21,21,12,11,32,,114,73,10,9,3,4,0.4,0.3
2024-07-31T0000,1607A,120.9092,40.7136,葫芦岛市,龙港区,颗粒物(PM10),58,66,41,34,18,106,,105,105,8,9,2,2,0.6,0.7
2024-07-31T0000,1608A,120.8392,40.7514,葫芦岛市,化工街,,49,39,27,34,18,75,,68,68,10,17,3,3,0.8,0.9
2024-07-31T0000,1609A,120.8341,40.7073,葫芦岛市,新区,,40,40,33,28,19,92,,85,85,7,12,3,4,0.5,0.6
2024-07-31T0000,1610A,120.8695,40.7677,葫芦岛市,东城区,,40,38,31,20,18,128,,117,117,9,19,6,7,0.6,0.7
2024-07-31T0000,2482A,109.5981,27.5721,怀化市,林科所,,10,7,10,6,6,32,,81,49,9,6,4,4,0.6,0.6
2024-07-31T0000,2483A,109.9453,27.5444,怀化市,河西地税局,,14,14,15,3,9,14,,64,36,11,8,7,7,0.4,0.5
2024-07-31T0000,2484A,109.9781,27.5342,怀化市,市四医院,,25,25,22,6,10,10,,67,35,14,11,3,3,0.7,0.8
2024-07-31T0000,2485A,109.9972,27.5578,怀化市,监测楼,,16,16,17,6,9,13,,70,40,16,10,3,7,0.4,0.6
2024-07-31T0000,2486A,110.0394,27.583,怀化市,市委党校,,18,18,14,11,7,13,,65,38,12,8,9,9,0.5,0.5
2024-07-31T0000,1210A,119.036,33.5981,淮安市,钵池山,,43,24,30,19,20,137,,164,150,13,13,6,6,0.8,0.8
2024-07-31T0000,1211A,119.007,33.575,淮安市,北京南路,,38,34,35,20,21,121,,168,142,16,14,8,8,0.5,0.6
2024-07-31T0000,1212A,118.989,33.6067,淮安市,市监测站,,41,34,36,24,24,130,,154,142,19,18,8,8,0.6,0.7
2024-07-31T0000,1213A,119.135,33.5039,淮安市,楚州区监测站,,44,44,49,17,21,86,,168,122,29,22,8,7,0.5,0.6
2024-07-31T0000,1214A,119.0186,33.6297,淮安市,淮阴区监测站,,44,31,40,20,21,138,,161,148,16,16,7,7,0.6,0.6
2024-07-31T0000,3426A,118.8755,33.2894,淮安市,新华书店,,40,32,33,20,21,128,,161,145,14,14,5,6,0.6,0.6
2024-07-31T0000,2282A,116.8004,33.975,淮北市,监测站,,21,19,20,7,9,66,,103,87,6,8,5,5,0.4,0.4
2024-07-31T0000,2283A,116.8091,33.9007,淮北市,烈山区政府,,24,24,24,11,11,50,,107,82,16,10,6,7,0.3,0.3
2024-07-31T0000,3330A,116.8873,33.9836,淮北市,杜集区检察院,,29,29,31,16,12,57,,106,85,12,9,6,7,0.6,0.5
2024-07-31T0000,4017A,116.7923,33.9535,淮北市,市博物馆,,22,13,24,10,11,68,,110,92,9,10,4,5,0.5,0.5
2024-07-31T0000,2277A,116.8305,32.7727,淮南市,潘集区政府,,27,27,21,12,10,54,,78,70,16,13,6,7,0.4,0.4
2024-07-31T0000,2278A,117.0067,32.6524,淮南市,师范学院,,23,19,18,3,7,71,,87,80,3,6,8,8,0.3,0.2
2024-07-31T0000,2279A,116.8569,32.5951,淮南市,谢家集区政府,,24,24,16,3,6,55,,86,71,14,14,5,6,0.1,0.1
2024-07-31T0000,2280A,116.8281,32.633,淮南市,八公山区政府,,26,26,24,10,9,65,,80,75,9,11,5,7,0.1,0.1
2024-07-31T0000,2281A,116.6325,32.6201,淮南市,焦岗湖风景区管理处,,12,10,8,3,3,38,,30,30,12,12,6,6,0.1,0.1
2024-07-31T0000,2894A,117.0566,32.6531,淮南市,经济技术开发区消防队,,21,13,14,8,5,66,,85,77,11,10,4,4,0.3,0.3
2024-07-31T0000,3329A,117.0108,32.5893,淮南市,山南新区,,27,27,21,8,6,68,,87,78,7,9,6,5,0.4,0.3
2024-07-31T0000,2446A,114.9028,30.4742,黄冈市,职工中心,,32,32,30,19,15,58,,125,85,20,14,10,11,0.3,0.3
2024-07-31T0000,2929A,114.8858,30.4519,黄冈市,红卫路,,35,35,33,16,15,58,,124,88,20,15,9,10,0.5,0.4
2024-07-31T0000,3398A,114.9136,30.4445,黄冈市,市林业局,,28,28,27,15,17,57,,136,92,21,13,9,10,0.2,0.3
2024-07-31T0000,2672A,102.0199,35.5102,黄南藏族自治州,同仁县隆务镇,,37,21,25,12,7,116,,152,136,1,2,11,7,0.3,0.2
2024-07-31T0000,2295A,118.2903,29.6963,黄山市,延安路89号,,24,24,26,3,8,18,,86,44,10,6,4,4,0.4,0.4
2024-07-31T0000,2296A,118.327,29.7178,黄山市,黄山东路89号,,15,15,19,3,8,25,,88,50,9,7,6,6,0.4,0.4
2024-07-31T0000,2297A,118.1371,30.2756,黄山市,黄山区政府5号楼,,25,25,17,17,10,24,,75,40,7,7,6,6,0.5,0.3
2024-07-31T0000,2423A,115.0601,30.2313,黄石市,沈家营,,40,40,39,11,10,66,,107,91,15,22,11,29,0.4,0.5
2024-07-31T0000,2424A,115.0817,30.2006,黄石市,陈家湾,,25,22,31,9,9,79,,96,95,1,11,6,10,0.4,0.5
2024-07-31T0000,2426A,114.8988,30.2019,黄石市,铁山,,39,39,23,10,8,42,,104,70,21,12,13,14,0.4,0.5
2024-07-31T0000,2427A,115.0307,30.2092,黄石市,团城山,,33,33,27,9,9,74,,96,92,6,12,10,13,0.4,0.5
2024-07-31T0000,3149A,115.0235,30.1578,黄石市,笔架山北路,,38,38,29,3,5,64,,96,89,11,12,4,8,0.2,0.4
2024-07-31T0000,1392A,114.4183,23.0528,惠州市,河南岸金山湖子站,,19,19,10,10,5,28,,50,38,8,6,4,4,0.5,0.5
2024-07-31T0000,1393A,114.4053,23.0822,惠州市,下埔横江三路子站,,19,19,12,8,5,32,,57,42,10,7,7,7,0.5,0.5
2024-07-31T0000,1394A,114.4103,23.1142,惠州市,江北云山西路子站,,19,19,14,3,5,32,,53,42,5,4,5,4,0.5,0.5
2024-07-31T0000,1395A,114.4645,22.7833,惠州市,惠阳区承修路船湖子站,,11,7,7,3,4,35,,52,43,10,10,3,2,0.3,0.4
2024-07-31T0000,1396A,114.5317,22.7422,惠州市,大亚湾管委会子站,,12,7,9,3,4,38,,54,45,7,10,5,6,0.5,0.5
2024-07-31T0000,3314A,114.4338,22.8134,惠州市,惠阳秋长,,12,9,6,3,5,36,,60,49,7,5,4,4,0.5,0.5
2024-07-31T0000,3452A,114.6517,22.775,惠州市,大亚湾霞涌,,11,6,8,3,5,33,,46,40,10,6,4,4,0.6,0.6
2024-07-31T0000,2240A,130.9762,45.3001,鸡西市,环保局,,30,30,19,7,7,30,,60,45,10,10,7,8,0.2,0.2
2024-07-31T0000,2243A,130.9429,45.3039,鸡西市,第一中学,,19,19,20,9,7,30,,80,54,15,12,5,5,0.2,0.2
2024-07-31T0000,3707A,131.0207,45.3073,鸡西市,欧美日汽修厂,,21,21,22,7,7,17,,67,46,14,13,4,4,0.4,0.5
2024-07-31T0000,3709A,130.9967,45.3106,鸡西市,市政设施管理处,,16,16,21,8,9,22,,74,46,20,18,7,7,0.3,0.3
2024-07-31T0000,2367A,114.9754,27.0803,吉安市,红声器材厂,,18,18,20,8,9,42,,67,56,11,8,15,14,0.6,0.5
2024-07-31T0000,2368A,114.9658,27.0999,吉安市,市森林工业局,,21,21,20,14,10,46,,69,57,10,9,14,12,0.5,0.3
2024-07-31T0000,2369A,114.99,27.1312,吉安市,市环境监测站,,20,20,15,6,8,48,,69,61,8,6,14,13,0.4,0.5
2024-07-31T0000,2370A,115.0093,27.0968,吉安市,青原区法院,,20,20,18,12,9,46,,68,58,10,9,20,16,0.4,0.4
2024-07-31T0000,1772A,126.54,43.8622,吉林市,哈达湾,,25,25,20,16,11,30,,76,57,18,12,5,5,0.6,0.5
2024-07-31T0000,1773A,126.5844,43.8358,吉林市,东局子,,28,28,40,11,11,26,,75,51,13,14,4,4,0.6,0.6
2024-07-31T0000,1774A,126.5052,43.8245,吉林市,电力学院,,23,23,22,6,11,17,,76,48,23,11,4,6,0.8,0.6
2024-07-31T0000,1775A,126.6133,43.8972,吉林市,江北,,27,27,23,9,9,29,,82,52,10,10,8,8,0.6,0.6
2024-07-31T0000,1776A,126.555,43.8306,吉林市,江南公园,,29,,15,20,9,32,,81,57,11,10,4,3,0.8,0.7
2024-07-31T0000,1778A,126.7061,43.7133,吉林市,丰满,,,,,,,,,,,,,,,,
2024-07-31T0000,2868A,126.4739,43.953,吉林市,九站,,27,27,14,6,7,35,,82,51,12,11,5,3,0.7,0.6
2024-07-31T0000,1299A,116.9862,36.6114,济南市,科干所,,31,19,20,7,8,98,,109,106,7,9,8,8,0.5,0.5
2024-07-31T0000,1300A,116.9376,36.665,济南市,农科所,,30,22,24,3,9,94,,106,101,12,14,8,8,0.3,0.3
2024-07-31T0000,1301A,117.1265,36.6734,济南市,开发区,,34,17,17,3,4,106,,108,106,7,8,10,10,0.5,0.5
2024-07-31T0000,1303A,117.0624,36.6868,济南市,省种子仓库,,,24,22,,5,102,,111,109,6,7,8,8,0.5,0.5
2024-07-31T0000,1304A,116.9489,36.6447,济南市,机床二厂,,32,22,22,3,1,102,,121,115,7,7,10,10,0.3,0.3
2024-07-31T0000,1305A,117.0495,36.663,济南市,市监测站,,,,15,,8,,,110,,,9,,9,,0.4
2024-07-31T0000,1306A,116.7675,36.5484,济南市,长清党校,,28,20,19,12,9,88,,115,107,11,7,10,10,0.6,0.6
2024-07-31T0000,1616A,117.6795,36.229,济南市,技术学院,,,12,18,,10,108,,109,106,5,10,10,11,0.7,0.8
2024-07-31T0000,1961A,117.532,36.6868,济南市,东山小学,,32,27,21,3,6,102,,109,108,15,14,6,5,0.5,0.6
2024-07-31T0000,3059A,117.7161,36.2049,济南市,泰兴公司,,30,24,23,3,9,96,,103,100,10,13,17,12,0.4,0.5
2024-07-31T0000,3064A,117.6867,36.2171,济南市,莱芜战役纪念馆,,31,24,24,3,7,97,,93,93,5,9,11,11,0.5,0.6
2024-07-31T0000,3494A,117.1673,36.9782,济南市,济阳区政府,,28,20,34,3,8,87,,106,93,9,17,8,8,0.3,0.4
2024-07-31T0000,3495A,117.1171,36.63,济南市,锦屏中学,,35,20,15,3,6,109,,109,108,9,9,11,10,0.4,0.4
2024-07-31T0000,3682A,116.9814,36.6819,济南市,济南四建,,29,19,16,3,7,92,,107,102,7,8,9,9,0.6,0.6
2024-07-31T0000,1653A,116.6251,35.4302,济宁市,火炬城,,26,21,26,9,10,82,,114,96,10,10,10,9,0.7,0.7
2024-07-31T0000,1655A,116.5491,35.4042,济宁市,电化厂,,25,25,25,12,14,63,,92,81,12,9,2,6,0.7,0.7
2024-07-31T0000,3500A,116.5814,35.3707,济宁市,北湖一中,,25,25,27,3,8,74,,105,94,10,9,9,10,0.7,0.7
2024-07-31T0000,3501A,116.8249,35.5593,济宁市,服务中心,,29,29,27,10,9,70,,107,85,9,9,6,5,0.6,0.6
2024-07-31T0000,3678A,116.5907,35.4054,济宁市,市第七中学,颗粒物(PM10),65,80,31,7,8,72,,102,89,11,11,4,5,0.5,0.5
2024-07-31T0000,2255A,130.2751,46.8028,佳木斯市,佳纺,,36,36,14,16,8,7,,54,29,28,12,10,10,0.5,0.5
2024-07-31T0000,2256A,130.3995,46.8307,佳木斯市,发电厂,,34,34,16,10,7,2,,52,30,36,10,7,6,0.6,0.6
2024-07-31T0000,2257A,130.3258,46.7975,佳木斯市,环保局,,20,20,16,12,7,39,,48,43,18,11,7,7,0.4,0.4
2024-07-31T0000,2258A,130.3648,46.8032,佳木斯市,十一中,,22,22,13,15,8,14,,52,35,37,12,8,8,0.4,0.3
2024-07-31T0000,2259A,130.3794,46.7588,佳木斯市,四丰,,20,20,13,7,5,5,,20,12,27,15,1,1,0.5,0.5
2024-07-31T0000,1252A,120.7436,30.778,嘉兴市,清河小学,,16,16,18,6,6,38,,100,68,10,11,6,7,0.2,0.3
2024-07-31T0000,1253A,120.726,30.7478,嘉兴市,嘉兴学院,,16,16,18,8,8,31,,94,63,11,11,1,1,0.3,0.3
2024-07-31T0000,2872A,120.7846,30.7525,嘉兴市,南湖区残联,,20,20,21,12,10,39,,109,72,8,9,5,5,0.3,0.3
2024-07-31T0000,3407A,120.6916,30.7739,嘉兴市,秀洲住建,,12,12,15,8,8,38,,115,76,10,10,3,4,0.4,0.4
2024-07-31T0000,1945A,98.2908,39.7711,嘉峪关市,气象局,,36,17,39,7,9,114,,131,118,11,18,7,8,0.4,0.4
2024-07-31T0000,2884A,98.2672,39.7978,嘉峪关市,酒钢宾馆,,39,19,38,9,10,122,,148,135,5,11,14,19,0.3,0.4
2024-07-31T0000,3248A,98.2643,39.7724,嘉峪关市,雄关区,,37,24,27,15,18,118,,151,132,10,15,8,10,0.2,0.4
2024-07-31T0000,1383A,113.1064,22.6058,江门市,北街,,9,9,13,3,7,26,,49,36,7,15,3,3,0.4,0.4
2024-07-31T0000,1384A,113.0731,22.5835,江门市,西区,,10,6,12,3,7,29,,52,39,10,16,5,5,0.4,0.4
2024-07-31T0000,1385A,113.0219,22.5311,江门市,圭峰西,,10,,11,3,7,29,,46,37,10,16,3,3,0.4,0.5
2024-07-31T0000,1386A,113.0828,22.5947,江门市,东湖,,10,9,12,3,3,31,,53,40,8,13,6,6,0.4,0.4
2024-07-31T0000,3311A,113.1075,22.5647,江门市,江海富民,,25,18,22,17,14,32,,55,41,8,16,6,6,0.5,0.5
2024-07-31T0000,3449A,113.05,22.4667,江门市,新会银湖,,10,6,10,3,3,30,,45,36,9,12,5,4,0.5,0.5
2024-07-31T0000,1828A,113.227,35.2125,焦作市,市环保局,,23,23,17,12,11,71,,104,84,13,12,2,3,0.4,0.4
2024-07-31T0000,1830A,113.1992,35.2590,焦作市,影视城,,,,,,,,,,,,,,,,
2024-07-31T0000,3169A,113.2725,35.2067,焦作市,太极体育中心,,22,20,28,13,11,69,,98,81,8,6,3,3,0.5,0.4
2024-07-31T0000,3335A,113.3137,35.2641,焦作市,马村街道办,,42,33,20,29,15,62,,102,83,17,12,6,4,0.6,0.5
2024-07-31T0000,3336A,113.2465,35.2373,焦作市,焦作技师学院,,34,34,24,17,11,48,,85,65,17,10,3,3,0.5,0.5
2024-07-31T0000,3477A,113.1656,35.2539,焦作市,中站许衡医院,,36,36,21,17,13,38,,96,70,20,6,9,8,0.7,0.6
2024-07-31T0000,3981A,113.2449,35.1803,焦作市,原李万街道办,,29,29,25,9,9,68,,107,86,16,11,2,4,0.1,0.1
2024-07-31T0000,1708A,116.3701,23.5345,揭阳市,新兴,,13,,23,9,12,31,,58,42,14,16,5,6,0.6,0.6
2024-07-31T0000,1709A,116.3264,23.5443,揭阳市,西马,,11,6,23,3,10,33,,61,47,6,7,4,4,0.7,0.7
2024-07-31T0000,1710A,116.3611,23.5626,揭阳市,东兴,,12,,30,6,9,36,,60,45,8,12,5,8,0.7,0.8
2024-07-31T0000,1711A,116.4151,23.5294,揭阳市,渔湖,,11,11,27,6,9,32,,56,42,10,15,3,5,0.6,0.7
2024-07-31T0000,3320A,116.403,23.5699,揭阳市,曲溪,,13,13,25,8,11,34,,57,41,10,16,4,8,0.7,0.7
2024-07-31T0000,1944A,102.1692,38.5167,金昌市,天庆家园,,46,46,159,24,34,95,,128,104,12,10,13,11,0.4,0.5
2024-07-31T0000,3170A,102.1864,38.5253,金昌市,市委党校,颗粒物(PM10),57,63,183,20,34,102,,131,114,12,8,15,11,0.5,0.5
2024-07-31T0000,4022A,102.1647,38.5371,金昌市,金川区人防中心,颗粒物(PM10),52,53,184,23,36,100,,131,108,13,10,15,13,0.7,0.5
2024-07-31T0000,1262A,119.647,29.077,金华市,十五中,,26,26,16,14,8,62,,72,63,9,10,2,2,0.3,0.3
2024-07-31T0000,1263A,119.686,29.1029,金华市,监测站,,20,20,10,11,7,56,,71,61,14,11,4,2,0.4,0.4
2024-07-31T0000,3659A,119.656,29.1131,金华市,气象局,,23,23,15,16,5,57,,71,62,9,10,4,4,0.2,0.1
2024-07-31T0000,1767A,121.1115,41.0879,锦州市,南山,,42,34,32,25,23,132,,110,110,5,11,2,2,0.7,0.9
2024-07-31T0000,1768A,121.0533,40.8434,锦州市,开发区,,49,38,33,34,19,127,,122,122,2,12,2,2,0.7,0.7
2024-07-31T0000,1769A,121.1836,41.1119,锦州市,百股街道,,37,22,28,19,15,116,,98,96,9,15,1,2,0.8,0.9
2024-07-31T0000,1770A,121.1178,41.1222,锦州市,天安街道,,40,40,39,21,23,107,,91,91,7,13,5,3,0.8,1
2024-07-31T0000,1771A,121.1303,41.1386,锦州市,北湖公园,,,33,36,,25,97,,85,85,6,12,3,2,0.7,0.9
2024-07-31T0000,2160A,112.85,35.5051,晋城市,自来水公司,,25,24,18,7,6,80,,101,94,13,12,4,4,0.7,0.6
2024-07-31T0000,2161A,112.8318,35.4936,晋城市,白云商贸,,33,33,23,9,6,64,,100,89,18,13,7,6,0.9,0.7
2024-07-31T0000,2162A,112.8508,35.4887,晋城市,市环保局,,25,20,19,12,9,77,,98,90,16,13,7,6,0.7,0.6
2024-07-31T0000,2163A,112.8676,35.4897,晋城市,技术学院,,26,26,20,12,9,69,,98,90,21,15,8,7,1.0,0.8
2024-07-31T0000,2165A,112.8453,35.546,晋城市,白马寺,,,,,,,,,,,,,,,,
2024-07-31T0000,3620A,112.8271,35.4828,晋城市,泽州一中,,19,17,15,9,4,60,,97,86,15,11,9,8,0.9,0.7
2024-07-31T0000,2171A,112.7532,37.6945,晋中市,锦纶小区,,41,41,16,22,6,94,,128,120,15,12,11,8,0.7,0.6
2024-07-31T0000,2173A,112.7249,37.7067,晋中市,南都小区,颗粒物(PM10),56,62,24,29,15,95,,133,124,16,13,11,7,0.9,0.5
2024-07-31T0000,2174A,112.6991,37.6982,晋中市,榆次区政府,,44,44,16,29,16,86,,131,120,15,17,8,6,0.7,0.5
2024-07-31T0000,2865A,112.7195,37.6828,晋中市,榆次三中,,39,39,16,19,6,94,,134,121,15,12,9,7,0.8,0.8
2024-07-31T0000,2439A,112.2014,31.0481,荆门市,竹园小学,,21,21,18,8,9,65,,93,86,13,10,10,10,0.5,0.5
2024-07-31T0000,2440A,112.1969,30.9891,荆门市,掇刀,,20,19,20,13,13,63,,100,88,22,13,6,5,0.4,0.5
2024-07-31T0000,2441A,112.2213,31.0386,荆门市,石化一小,,21,19,18,8,8,66,,98,86,14,10,23,19,0.5,0.5
2024-07-31T0000,3012A,112.1849,31.0362,荆门市,西山林语,,21,21,16,12,8,64,,95,87,10,6,6,6,0.4,0.4
2024-07-31T0000,3547A,112.1632,31.0138,荆门市,龙泉中学南校,,20,18,16,14,10,51,,95,85,15,9,10,9,0.5,0.5
2024-07-31T0000,1844A,112.2494,30.3197,荆州市,市图书馆,,17,11,13,11,11,52,,91,75,17,14,6,6,0.5,0.6
2024-07-31T0000,1845A,112.2008,30.3544,荆州市,市委党校,,25,,10,17,13,55,,92,78,12,8,5,5,0.6,0.6
2024-07-31T0000,3194A,112.2747,30.3122,荆州市,管委会,,18,13,12,12,12,51,,97,79,20,11,6,6,0.4,0.5
2024-07-31T0000,3548A,112.1655,30.3364,荆州市,学苑路,,23,23,21,13,12,46,,92,,15,11,6,7,0.5,0.3
2024-07-31T0000,2342A,117.3102,29.3867,景德镇市,王港中学,,,,,,,,,,,,,,,,
2024-07-31T0000,2343A,117.2117,29.2933,景德镇市,老干部活动中心,,33,33,27,21,16,32,,85,62,23,12,9,12,0.3,0.3
2024-07-31T0000,2344A,117.1894,29.2789,景德镇市,兽医站,,33,33,29,16,17,43,,91,67,13,10,7,12,0.2,0.2
2024-07-31T0000,2345A,117.1547,29.2617,景德镇市,台达陶瓷,,33,33,33,20,20,38,,82,62,22,17,34,26,0.3,0.3
2024-07-31T0000,2346A,117.2461,29.2956,景德镇市,陶研所,,27,27,39,15,15,37,,91,62,15,12,5,7,0.3,0.2
2024-07-31T0000,1803A,115.9872,29.6815,九江市,十里,,28,24,17,19,10,19,,89,66,29,14,8,9,0.6,0.6
2024-07-31T0000,1804A,115.9584,29.7046,九江市,茅山头,,19,19,20,13,13,44,,103,74,15,20,7,10,0.4,0.5
2024-07-31T0000,1805A,115.9877,29.7295,九江市,西园,,32,24,19,22,11,23,,103,74,48,26,26,13,0.7,0.7
2024-07-31T0000,1806A,116.0172,29.6547,九江市,五七二七厂,,15,15,14,9,9,43,,95,78,11,11,9,11,0.7,0.7
2024-07-31T0000,1808A,115.9114,29.6038,九江市,综合工业园,,23,19,14,16,10,42,,90,75,22,17,10,12,0.7,0.4
2024-07-31T0000,1809A,116.0721,29.7535,九江市,石化总厂,,23,23,21,15,11,52,,91,78,20,22,11,11,0.7,0.7
2024-07-31T0000,1810A,115.9773,29.5698,九江市,庐山气象台,,21,15,8,10,8,67,,78,78,1,2,8,10,0.8,0.9
2024-07-31T0000,3190A,116.0254,29.6994,九江市,外国语学校,,18,17,18,8,8,56,,108,92,12,16,10,14,0.3,0.4
2024-07-31T0000,2658A,98.5061,39.7443,酒泉市,仓门街子站,,41,41,47,11,8,90,,148,120,17,12,8,12,0.3,0.3
2024-07-31T0000,2659A,98.4989,39.7256,酒泉市,油田生活基地,颗粒物(PM10),54,58,41,12,17,98,,156,130,18,15,8,12,0.2,0.3
2024-07-31T0000,2698A,76.0072,39.4467,喀什地区,巡警大队,颗粒物(PM10),123,196,212,50,51,70,,137,123,60,40,5,6,0.8,0.5
2024-07-31T0000,2699A,75.9755,39.4694,喀什地区,吾办,颗粒物(PM10),131,212,195,65,62,72,,134,118,47,37,4,4,0.8,0.8
2024-07-31T0000,4027A,75.9483,39.4689,喀什地区,老干局,颗粒物(PM10),176,302,244,58,52,40,,134,103,65,45,4,4,0.7,0.6
2024-07-31T0000,1824A,114.3389,34.7781,开封市,肿瘤医院,,16,9,23,6,5,50,,84,67,3,3,4,4,0.4,0.5
2024-07-31T0000,1826A,114.2885,34.7965,开封市,世纪星幼儿园,,16,16,20,3,1,39,,92,73,10,6,2,2,0.5,0.4
2024-07-31T0000,3147A,114.3438,34.8106,开封市,龙亭公园,,16,9,23,6,4,49,,88,73,8,8,1,1,0.4,0.4
2024-07-31T0000,3210A,114.3644,34.7964,开封市,汴京公园,,15,13,21,6,9,47,,85,71,8,5,3,3,0.4,0.4
2024-07-31T0000,3473A,114.2485,34.8306,开封市,技师学院,,15,8,23,7,7,45,,91,76,7,5,4,4,0.6,0.6
2024-07-31T0000,3592A,114.4644,34.7556,开封市,祥符区生态环境局,,13,13,15,8,10,35,,91,64,21,11,2,3,0.3,0.3
2024-07-31T0000,1951A,84.895,45.6094,克拉玛依市,长征新村,,33,19,24,3,7,105,,120,110,1,7,9,9,0.2,0.2
2024-07-31T0000,1952A,84.8988,45.5893,克拉玛依市,南林小区,,35,25,24,17,13,112,,112,85,2,13,8,8,0.1,0.2
2024-07-31T0000,1954A,84.905,44.3396,克拉玛依市,独山子区,颗粒物(PM10),58,65,87,21,24,93,,128,116,10,10,10,8,0.6,0.6
2024-07-31T0000,1955A,85.6979,46.098,克拉玛依市,乌尔禾区商贸楼,,44,44,37,24,9,94,,103,57,4,20,4,4,0.4,0.5
2024-07-31T0000,3612A,85.1045,45.6899,克拉玛依市,白碱滩区新站,,37,27,25,19,14,117,,124,120,2,6,7,8,0.3,0.3
2024-07-31T0000,2697A,76.1454,39.7142,克孜勒苏柯尔克孜自治州,市人民政府,颗粒物(PM10),132,213,158,69,56,88,,140,120,36,14,9,10,0.5,0.4
2024-07-31T0000,3665A,76.1658,39.7157,克孜勒苏柯尔克孜自治州,克州文化中心,颗粒物(PM10),113,175,146,60,56,122,,144,138,18,11,12,12,0.4,0.3
2024-07-31T0000,1450A,102.8204,24.8886,昆明市,呈贡新区,,24,19,19,8,8,74,,72,72,6,8,3,6,0.7,0.8
2024-07-31T0000,1451A,102.6251,24.9608,昆明市,西山森林公园,,,,,,,,,,,,,,,,
2024-07-31T0000,1452A,102.7252,25.0902,昆明市,龙泉镇,,16,16,16,8,7,48,,72,57,9,8,6,6,0.6,0.6
2024-07-31T0000,1453A,102.7266,25.0375,昆明市,东风东路,,18,17,14,11,9,57,,71,61,19,13,4,3,0.5,0.5
2024-07-31T0000,1454A,102.6742,25.0669,昆明市,金鼎山,,20,16,19,11,10,62,,75,60,11,10,2,2,0.4,0.4
2024-07-31T0000,1455A,102.6644,25.0401,昆明市,碧鸡广场,,22,18,15,15,10,63,,76,64,14,11,3,3,0.5,0.5
2024-07-31T0000,3179A,102.7494,25.0119,昆明市,官渡区博物馆,,18,18,15,12,10,31,,73,53,31,19,5,5,0.5,0.5
2024-07-31T0000,3375A,102.8017,24.8336,昆明市,青年创业园,,26,9,10,3,6,81,,74,74,7,10,8,8,0.3,0.4
2024-07-31T0000,3550A,102.7997,24.9786,昆明市,昆明学院,,23,13,17,8,9,73,,78,66,12,17,4,4,0.4,0.5
2024-07-31T0000,3551A,102.5967,24.6736,昆明市,晋宁区生态环境分局,,29,26,22,7,6,90,,80,80,12,16,3,4,0.3,0.4
2024-07-31T0000,3552A,102.6678,24.9856,昆明市,云天化总部,,22,19,14,15,10,46,,76,56,18,13,5,5,0.6,0.6
2024-07-31T0000,1456A,91.1319,29.6514,拉萨市,八廓街,,30,28,15,13,8,93,,178,149,40,15,6,6,0.2,0.2
2024-07-31T0000,1457A,91.1221,29.6747,拉萨市,市环保局,,36,36,18,18,8,82,,174,140,38,18,7,9,0.4,0.4
2024-07-31T0000,1458A,91.0874,29.6475,拉萨市,区监测站,,30,30,15,16,8,76,,179,138,58,21,7,6,0.4,0.2
2024-07-31T0000,1459A,91.1774,29.6541,拉萨市,西藏大学,,41,17,11,8,6,129,,176,159,9,7,11,10,0.5,0.4
2024-07-31T0000,1460A,90.9798,29.6588,拉萨市,区辐射站,,38,29,17,13,8,120,,180,160,26,15,8,8,0.2,0.1
2024-07-31T0000,1461A,91.0834,29.6292,拉萨市,拉萨火车站,,34,21,12,10,7,107,,181,156,28,14,9,9,0.3,0.2
2024-07-31T0000,2520A,109.2203,23.7256,来宾市,来宾技工学校,,25,,12,17,17,28,,45,34,8,9,7,6,0.7,0.6
2024-07-31T0000,3535A,109.1781,23.7297,来宾市,兴宾区政府,,11,11,10,3,6,34,,46,33,6,7,5,5,0.7,0.7
2024-07-31T0000,4002A,109.2416,23.7461,来宾市,中南小学,,10,6,11,3,7,31,,52,39,10,8,8,9,0.7,0.7
2024-07-31T0000,1476A,103.631,36.1031,兰州市,兰炼宾馆,,39,39,36,18,22,96,,158,134,31,17,11,12,0.4,0.3
2024-07-31T0000,1477A,104.1373,35.9454,兰州市,榆中兰大校区,,,,,,,,,,,,,,,,
2024-07-31T0000,1478A,103.8412,36.0726,兰州市,生物制品所,,38,38,41,22,20,73,,138,104,35,37,6,9,0.5,0.7
2024-07-31T0000,1479A,103.831,36.0464,兰州市,铁路设计院,,30,29,41,19,19,94,,133,96,31,42,12,13,0.3,0.7
2024-07-31T0000,3186A,103.7158,36.1058,兰州市,教育港,,46,46,53,28,25,95,,142,127,21,15,10,10,0.4,0.4
2024-07-31T0000,3241A,103.7439,36.0842,兰州市,百合公园,,46,46,42,23,19,55,,158,116,46,26,9,8,0.6,0.6
2024-07-31T0000,3242A,103.9611,35.998,兰州市,和平,,40,19,42,9,17,125,,152,129,10,22,6,9,0.2,0.5
2024-07-31T0000,3245A,103.6633,36.533,兰州新区,新区管委会,,38,38,31,15,14,79,,156,133,41,17,8,9,0.4,0.4
2024-07-31T0000,3246A,103.6975,36.4789,兰州新区,舟曲中学,,40,18,20,3,10,128,,153,147,8,9,19,13,0.4,0.5
2024-07-31T0000,1067A,116.6708,39.5111,廊坊市,药材公司,,23,23,16,15,8,59,,86,66,8,10,2,2,0.4,0.3
2024-07-31T0000,1068A,116.7214,39.5589,廊坊市,开发区,,,,16,,10,,,93,,,9,,3,,0.3
2024-07-31T0000,1070A,116.7244,39.5269,廊坊市,北华航天学院,,32,32,28,14,10,65,,90,69,6,8,3,3,0.5,0.5
2024-07-31T0000,2919A,116.7022,39.5453,廊坊市,河北工业大学,,33,33,25,14,8,61,,88,65,5,8,3,3,0.4,0.3
2024-07-31T0000,2535A,103.7723,29.5462,乐山市,花湖湾,,48,48,25,29,21,44,,86,67,13,10,4,4,0.6,0.5
2024-07-31T0000,2536A,103.7627,29.5844,乐山市,牛耳桥,,28,28,29,18,19,30,,98,64,20,19,3,4,0.4,0.5
2024-07-31T0000,2537A,103.7508,29.6006,乐山市,市第三水厂,,29,29,28,14,17,32,,104,73,27,20,2,3,0.5,0.5
2024-07-31T0000,2538A,103.7571,29.5664,乐山市,市监测站,,32,32,29,20,16,22,,99,69,30,16,5,4,0.7,0.6
2024-07-31T0000,3361A,103.7311,29.5628,乐山市,理工大学,,26,26,26,16,16,39,,114,79,16,14,3,5,0.3,0.4
2024-07-31T0000,2598A,100.2143,26.8576,丽江市,西南郊,,,,,,,,,,,,,,,,
2024-07-31T0000,2599A,100.2497,26.8802,丽江市,丽江古城,,42,38,15,29,10,34,,68,57,20,10,5,5,0.9,0.7
2024-07-31T0000,2600A,100.2203,26.8906,丽江市,市中心,,23,16,10,16,9,46,,67,,13,13,7,8,0.6,0.6
2024-07-31T0000,1267A,119.914,28.4514,丽水市,监测站大楼,,19,13,14,7,6,59,,70,70,5,7,2,2,0.4,0.4
2024-07-31T0000,1268A,119.93,28.4586,丽水市,莲都小学,,18,14,12,10,9,56,,71,71,4,7,3,3,0.4,0.4
2024-07-31T0000,1269A,119.879,28.4231,丽水市,余庄前,,12,12,12,7,6,37,,59,57,8,7,2,2,0.3,0.3
2024-07-31T0000,1173A,119.176,34.5885,连云港市,市环境监测站,,39,39,38,24,21,77,,152,116,18,14,4,4,0.5,0.6
2024-07-31T0000,3000A,119.3581,34.6972,连云港市,德源药业,,36,36,32,22,18,71,,166,121,28,16,3,2,0.5,0.5
2024-07-31T0000,3007A,119.178,34.844,连云港市,新城一中,,34,21,31,15,19,108,,166,128,11,15,2,3,0.8,0.8
2024-07-31T0000,3008A,119.3608,34.7519,连云港市,胡沟管理处,,39,29,30,14,17,122,,154,133,14,12,7,8,0.7,0.7
2024-07-31T0000,3009A,119.1478,34.5911,连云港市,矿山设计院,,36,34,34,19,20,113,,157,124,12,14,5,6,0.8,0.9
2024-07-31T0000,3434A,119.2413,34.6539,连云港市,工贸学校,,41,34,34,22,22,129,,164,149,10,11,6,7,0.3,0.6
2024-07-31T0000,3664A,119.4172,34.7341,连云港市,连云街道,,40,34,30,18,15,126,,170,133,15,10,2,3,0.5,0.4
2024-07-31T0000,2571A,102.3431,27.8099,凉山彝族自治州,青龙寺,,17,17,10,8,4,50,,64,51,4,3,2,2,0.4,0.5
2024-07-31T0000,2572A,102.2721,27.8415,凉山彝族自治州,邛海宾馆,,13,11,9,3,4,40,,86,65,18,7,8,7,0.7,0.6
2024-07-31T0000,2573A,102.2625,27.898,凉山彝族自治州,西昌市政府,,17,11,10,6,4,53,,83,65,4,6,7,8,0.7,0.7
2024-07-31T0000,2574A,102.2685,27.8851,凉山彝族自治州,凉山州政府,,16,13,11,7,6,50,,86,65,7,7,5,6,0.7,0.7
2024-07-31T0000,2575A,102.237,27.8914,凉山彝族自治州,长安,,18,15,11,7,7,57,,90,74,7,8,9,9,0.5,0.4
2024-07-31T0000,2212A,123.2,41.1953,辽阳市,宏伟区,,24,15,63,7,20,75,,80,66,2,11,4,5,0.6,1.2
2024-07-31T0000,2213A,123.1683,41.2495,辽阳市,新华园,,23,,59,11,26,72,,87,70,1,14,3,7,0.5,1.3
2024-07-31T0000,2214A,123.2354,41.2639,辽阳市,滨河路,,16,14,39,9,22,50,,75,52,4,13,7,7,0.4,1.1
2024-07-31T0000,2215A,123.149,41.2991,辽阳市,铁西工业园,,20,13,96,10,22,63,,77,64,3,15,6,7,0.8,1.8
2024-07-31T0000,2227A,125.1358,42.8845,辽源市,环保局,,26,26,25,14,12,18,,84,36,4,10,6,6,0.7,0.6
2024-07-31T0000,3239A,125.0764,42.9078,辽源市,银鹰制药,,26,26,18,18,10,19,,77,34,11,12,5,5,1.0,0.9
2024-07-31T0000,1625A,115.9848,36.4372,聊城市,区政府,,21,17,19,3,6,65,,94,80,9,9,8,7,0.5,0.5
2024-07-31T0000,2878A,116.0072,36.4343,聊城市,聊大东校,,22,9,20,8,12,69,,97,83,11,11,6,7,0.5,0.5
2024-07-31T0000,3200A,115.9819,36.4978,聊城市,监控中心,,20,17,21,3,5,64,,93,80,6,6,5,6,0.5,0.4
2024-07-31T0000,3513A,116.0445,36.4361,聊城市,九州社区,,22,22,23,3,5,59,,90,73,7,9,3,5,0.5,0.5
2024-07-31T0000,4018A,116.0567,36.4608,聊城市,星美广场,,20,18,25,6,8,64,,93,78,5,9,6,4,0.5,0.5
2024-07-31T0000,2632A,94.3681,29.6376,林芝市,林芝监测站,,26,26,15,10,8,68,,132,115,7,4,8,8,0.3,0.3
2024-07-31T0000,2633A,94.3616,29.6616,林芝市,林芝人民医院,,25,19,14,14,7,80,,136,118,9,7,10,10,0.3,0.2
2024-07-31T0000,2603A,100.0781,23.8982,临沧市,市环保局,,38,,12,26,16,22,,34,24,8,9,4,4,0.3,0.3
2024-07-31T0000,2604A,100.0894,23.8822,临沧市,市气象局,,12,11,12,8,7,23,,34,26,10,9,3,4,0.3,0.3
2024-07-31T0000,1733A,111.5531,36.0783,临汾市,临钢医院,,29,29,20,18,12,50,,113,96,22,9,4,4,0.8,0.8
2024-07-31T0000,1734A,111.5028,36.0714,临汾市,技工学校,,43,43,21,28,13,61,,117,99,28,13,12,6,1.5,0.9
2024-07-31T0000,1736A,111.5018,36.0855,临汾市,市委,,47,47,25,23,12,72,,125,105,22,12,8,7,1.9,1
2024-07-31T0000,3018A,111.505,36.1014,临汾市,唐尧大酒店,,40,40,17,18,14,65,,109,94,22,10,8,4,2.0,1.1
2024-07-31T0000,3668A,111.5036,36.0414,临汾市,城南,颗粒物(PM10),52,53,22,23,12,38,,121,95,36,11,4,3,1.2,0.8
2024-07-31T0000,2667A,103.2069,35.5993,临夏回族自治州,环保局,,48,48,39,22,20,79,,142,120,12,8,8,8,0.4,0.4
2024-07-31T0000,2668A,103.2417,35.6057,临夏回族自治州,建设大厦,,49,45,39,34,18,70,,144,114,12,8,13,13,0.5,0.3
2024-07-31T0000,1618A,118.3429,35.0532,临沂市,沂河小区,,34,34,30,21,19,90,,132,113,12,10,9,9,0.4,0.4
2024-07-31T0000,1619A,118.295,35.0583,临沂市,鲁南制药厂,,39,36,24,27,16,86,,139,116,17,13,18,7,0.5,0.3
2024-07-31T0000,1620A,118.2794,34.9976,临沂市,新光毛纺厂,,44,44,25,22,13,78,,134,112,19,10,20,9,0.8,0.6
2024-07-31T0000,1621A,118.3956,35.0888,临沂市,河东保险公司,,34,34,23,14,10,95,,133,117,14,12,10,9,0.5,0.5
2024-07-31T0000,3370A,118.3564,35.0215,临沂市,十里堡居委,,32,22,22,22,14,89,,133,108,13,13,8,10,0.7,0.7
2024-07-31T0000,3496A,118.3604,35.1084,临沂市,南坊新区,,34,34,29,12,12,96,,137,115,16,14,11,10,0.7,0.7
2024-07-31T0000,3860A,118.3920,35.0300,临沂市,皇山花园小区,,39,39,28,24,16,79,,124,99,20,14,10,10,0.6,0.5
2024-07-31T0000,1870A,109.4856,24.3895,柳州市,柳东小学,,10,,11,7,6,23,,49,40,16,10,7,7,0.6,0.6
2024-07-31T0000,1871A,109.4157,24.3277,柳州市,环保监测站,,10,,12,3,7,30,,48,41,11,8,8,7,0.7,0.7
2024-07-31T0000,1872A,109.389,24.341,柳州市,河西水厂,,10,8,12,3,8,31,,50,43,11,10,11,11,0.7,0.6
2024-07-31T0000,1873A,109.4311,24.2921,柳州市,市四中,,10,8,13,3,5,30,,54,46,13,8,8,6,0.6,0.6
2024-07-31T0000,1874A,109.4006,24.3631,柳州市,市九中,,12,12,15,8,7,34,,52,45,14,12,6,5,0.7,0.7
2024-07-31T0000,1875A,109.4958,24.3134,柳州市,古亭山,,14,14,14,3,5,11,,51,35,18,12,6,7,0.7,0.7
2024-07-31T0000,3402A,109.5422,24.3996,柳州市,市二中,,10,6,13,3,6,32,,47,40,10,10,5,8,0.5,0.5
2024-07-31T0000,2307A,116.5079,31.737,六安市,监测大楼,,18,13,7,10,7,56,,70,66,5,8,8,6,0.4,0.3
2024-07-31T0000,2308A,116.4738,31.7643,六安市,皖西学院,,18,16,12,12,7,53,,72,68,5,5,4,4,0.1,0.1
2024-07-31T0000,2309A,116.4996,31.7905,六安市,朝阳厂,,15,,8,9,7,46,,59,56,1,5,9,9,0.2,0.2
2024-07-31T0000,2310A,116.5567,31.7886,六安市,开发区,,25,23,12,17,13,38,,60,54,9,7,7,8,0.3,0.3
2024-07-31T0000,2576A,104.8,26.5892,六盘水市,窑上,,,,,,,,,,,,,,,,
2024-07-31T0000,2577A,104.83,26.5917,六盘水市,黄土坡,,33,33,13,18,7,65,,84,79,16,11,12,8,0.4,0.5
2024-07-31T0000,2578A,104.89,26.5939,六盘水市,水钢,,28,24,18,19,7,47,,82,80,18,9,6,7,0.4,0.6
2024-07-31T0000,2579A,104.8475,26.5894,六盘水市,民中,,22,22,12,14,5,70,,84,81,13,10,10,8,0.5,0.6
2024-07-31T0000,2580A,104.9544,26.5506,六盘水市,双水,,26,,12,18,7,39,,76,64,15,6,6,6,0.4,0.3
2024-07-31T0000,2335A,117.0189,25.1181,龙岩市,龙岩师专,,,,,,,,,,,,,,,,
2024-07-31T0000,2336A,117.0217,25.1033,龙岩市,龙岩市监测站,,13,12,20,9,12,41,,72,59,13,12,7,6,0.2,0.3
2024-07-31T0000,2337A,117.0258,25.0661,龙岩市,闽西职业技术学院,,14,14,22,6,10,32,,74,57,10,11,6,8,0.3,0.4
2024-07-31T0000,2338A,117.0196,25.0306,龙岩市,龙岩学院,,18,18,20,8,9,26,,77,52,7,7,4,3,0.2,0.3
2024-07-31T0000,2665A,105.0822,33.3261,陇南市,汉王镇固水子,,,,,,,,,,,,,,,,
2024-07-31T0000,2885A,104.9339,33.3826,陇南市,滨江中学,,46,46,33,12,8,72,,115,94,19,15,4,4,0.7,0.7
2024-07-31T0000,3247A,104.955,33.371,陇南市,市总工会,,38,38,34,11,8,70,,118,103,14,10,4,4,0.6,0.6
2024-07-31T0000,2487A,111.9589,27.8901,娄底市,电视发射台,,17,17,21,3,8,19,,66,35,8,8,7,8,0.3,0.5
2024-07-31T0000,2488A,111.9975,27.725,娄底市,市监测站,,16,14,16,11,11,26,,63,51,30,5,7,8,0.5,0.4
2024-07-31T0000,2489A,112.0194,27.7314,娄底市,市委党校,,32,32,14,13,8,22,,55,44,23,10,8,8,0.4,0.3
2024-07-31T0000,2490A,111.9561,27.7569,娄底市,涟钢,颗粒物(PM10),51,51,44,18,19,11,,40,30,19,22,18,19,0.8,1
2024-07-31T0000,2491A,111.9892,27.7044,娄底市,市政府,,22,20,12,15,9,19,,62,43,12,7,6,6,0.2,0.1
2024-07-31T0000,1893A,105.4324,28.9634,泸州市,九狮山,颗粒物(PM10),58,66,26,28,16,38,,117,71,21,17,5,4,0.4,0.5
2024-07-31T0000,1894A,105.4427,28.9063,泸州市,小市上码头,颗粒物(PM10),51,52,29,34,13,74,,124,100,20,14,10,6,0.5,0.3
2024-07-31T0000,1895A,105.4241,28.8573,泸州市,兰田宪桥,,46,38,25,32,23,27,,126,86,37,16,4,5,0.6,0.4
2024-07-31T0000,1896A,105.4379,28.8833,泸州市,市环监站,,50,48,27,35,19,72,,122,97,27,15,18,8,0.6,0.5
2024-07-31T0000,3490A,105.3617,28.7703,泸州市,纳溪区环保局,细颗粒物(PM2.5),54,46,30,38,23,41,,127,81,29,20,4,4,0.6,0.4
2024-07-31T0000,2183A,111.1406,37.5211,吕梁市,环保局,,38,18,20,18,15,119,,131,127,11,13,3,3,0.5,0.6
2024-07-31T0000,2185A,111.1297,37.5136,吕梁市,自来水公司,,39,15,18,8,13,122,,137,134,11,13,1,1,0.5,0.5
2024-07-31T0000,2867A,111.1283,37.51,吕梁市,马茂庄小学,,39,11,21,9,12,124,,144,138,14,16,1,2,0.6,0.6
2024-07-31T0000,1812A,112.3931,34.6516,洛阳市,市委党校,,23,6,10,6,9,73,,97,84,6,5,2,3,0.6,0.6
2024-07-31T0000,1814A,112.4657,34.6871,洛阳市,豫西宾馆,,24,7,16,3,8,76,,108,90,5,9,1,2,0.2,0.3
2024-07-31T0000,1815A,112.494,34.6886,洛阳市,河南林校,,21,,11,7,9,65,,106,84,7,9,3,3,0.6,0.7
2024-07-31T0000,1816A,112.3844,34.623,洛阳市,开发区管委会,,19,6,11,3,6,60,,88,73,8,5,3,3,0.4,0.4
2024-07-31T0000,1817A,112.4267,34.6258,洛阳市,市委新办公区,,20,11,10,6,7,62,,100,82,4,3,5,6,0.5,0.5
2024-07-31T0000,3340A,112.6005,34.6326,洛阳市,伊滨,,17,17,13,9,8,42,,102,80,10,6,2,2,0.1,0.1
2024-07-31T0000,3341A,112.4951,34.6332,洛阳市,中移产业园,,23,15,10,10,9,72,,101,86,3,3,14,4,1.0,0.8
2024-07-31T0000,3593A,112.5736,34.8993,洛阳市,吉利监测站,,18,18,21,11,8,46,,75,64,8,5,3,3,0.8,0.9
2024-07-31T0000,3635A,112.3677,34.662,洛阳市,河科大西苑校区,,22,7,7,3,5,68,,94,80,2,4,2,4,0.6,0.6
2024-07-31T0000,3636A,112.4388,34.6781,洛阳市,英才小学,,24,,5,11,12,75,,101,87,1,4,2,3,0.7,0.7
2024-07-31T0000,2399A,114.051,33.5699,漯河市,三五一五工厂,,18,15,18,9,8,55,,86,,10,8,7,7,0.4,0.5
2024-07-31T0000,2400A,114.0055,33.5698,漯河市,漯河大学,,20,19,20,7,9,62,,88,76,8,6,6,6,0.2,0.3
2024-07-31T0000,2401A,114.0138,33.5828,漯河市,市水利局,,20,12,17,3,6,61,,86,72,7,6,6,7,0.3,0.4
2024-07-31T0000,2402A,114.0261,33.5698,漯河市,市广电局,,20,12,14,8,5,63,,88,74,7,6,5,5,0.4,0.4
2024-07-31T0000,3478A,113.9749,33.5664,漯河市,市图书馆,,20,14,20,14,11,64,,87,75,6,7,9,10,0.3,0.4
2024-07-31T0000,3479A,114.0967,33.5906,漯河市,召陵区卫健委,,26,26,22,15,12,54,,94,71,10,5,2,2,0.4,0.4
2024-07-31T0000,1798A,118.5092,31.6837,马鞍山市,湖东路四小,,48,40,41,33,22,81,,180,124,28,17,6,6,0.7,0.7
2024-07-31T0000,1799A,118.5024,31.6449,马鞍山市,开发区,,49,49,45,23,20,54,,158,95,44,37,3,3,0.7,0.7
2024-07-31T0000,1800A,118.5228,31.7231,马鞍山市,慈湖,,35,35,39,18,20,95,,163,108,28,26,4,5,0.6,0.7
2024-07-31T0000,1802A,118.6245,31.7241,马鞍山市,濮塘,,30,22,25,19,19,95,,138,98,10,9,4,4,0.6,0.6
2024-07-31T0000,3633A,118.4918,31.6809,马鞍山市,雨山,,32,32,35,22,19,64,,178,126,30,12,6,8,0.8,0.8
2024-07-31T0000,1686A,111.0286,21.4688,茂名市,电白南海,,,,13,7,8,25,,42,35,13,10,6,6,,0.4
2024-07-31T0000,1687A,110.9294,21.6533,茂名市,茂石化七小,,18,,10,12,12,26,,42,34,9,7,6,7,0.4,0.4
2024-07-31T0000,1688A,110.9107,21.6687,茂名市,健康路,,11,9,9,3,5,34,,48,42,8,7,9,10,0.5,0.5
2024-07-31T0000,1689A,110.8592,21.6828,茂名市,高岭,,13,12,8,9,11,22,,46,28,18,12,9,11,0.8,0.7
2024-07-31T0000,3450A,111.01,21.5165,茂名市,电白水东,,12,12,7,7,7,31,,38,33,8,11,5,4,0.5,0.5
2024-07-31T0000,2539A,104.0308,30.0478,眉山市,黑龙滩水库,,22,,20,15,21,45,,89,67,3,6,3,3,0.2,0.2
2024-07-31T0000,2540A,103.8416,30.0874,眉山市,气象局,颗粒物(PM10),51,52,32,24,17,14,,118,82,44,24,8,10,0.6,0.5
2024-07-31T0000,3137A,103.8578,30.0744,眉山市,市委党校,,34,34,30,12,12,30,,115,81,35,23,6,8,0.6,0.5
2024-07-31T0000,3148A,103.8291,30.0564,眉山市,区人社局,,26,26,30,17,13,36,,114,86,42,27,8,11,0.8,0.8
2024-07-31T0000,1690A,116.1231,24.3284,梅州市,梅江月梅,,11,8,25,7,7,35,,44,40,1,4,7,6,0.4,0.4
2024-07-31T0000,1691A,116.0797,24.2719,梅州市,梅县新城,,16,16,18,7,8,14,,51,26,16,10,4,4,0.5,0.5
2024-07-31T0000,1692A,116.1248,24.2654,梅州市,环境监控中心,,19,19,22,7,8,17,,44,30,21,14,4,7,0.5,0.5
2024-07-31T0000,3315A,116.1233,24.2991,梅州市,梅龙,,11,9,14,3,8,35,,49,39,5,6,9,8,0.6,0.6
2024-07-31T0000,1878A,104.7778,31.4741,绵阳市,富乐山,,29,29,29,15,18,71,,126,98,7,10,9,8,0.6,0.6
2024-07-31T0000,1879A,104.7563,31.4535,绵阳市,市人大,,31,31,33,21,19,66,,132,104,18,19,9,10,0.5,0.5
2024-07-31T0000,1880A,104.6697,31.4668,绵阳市,高新区自来水公司,,34,34,35,19,16,71,,134,102,14,18,7,8,0.4,0.4
2024-07-31T0000,1881A,104.7287,31.5075,绵阳市,三水厂,,38,38,32,24,23,76,,132,104,17,22,5,6,0.6,0.6
2024-07-31T0000,3491A,104.69,31.5322,绵阳市,西科大附属小学,,39,39,34,21,19,69,,138,106,22,19,7,9,0.4,0.4
2024-07-31T0000,3492A,104.5648,31.5343,绵阳市,安州区旅游局,,46,46,33,31,28,57,,159,130,35,18,5,10,0.7,0.6
2024-07-31T0000,1784A,129.61,44.561,牡丹江市,环保大楼,,23,,17,16,13,12,,72,41,13,10,7,7,0.3,0.3
2024-07-31T0000,1785A,129.6115,44.5782,牡丹江市,文化广场,,46,40,23,32,23,9,,68,41,18,13,7,7,0.5,0.4
2024-07-31T0000,1786A,129.5904,44.5963,牡丹江市,第一医院,,29,,17,20,16,12,,67,32,10,10,5,5,0.4,0.4
2024-07-31T0000,1787A,129.6364,44.6075,牡丹江市,机车工厂,,28,23,19,19,16,14,,64,36,10,9,9,5,0.4,0.4
2024-07-31T0000,1788A,129.6386,44.5462,牡丹江市,第一中学,,25,25,20,9,10,7,,72,29,13,11,4,4,0.4,0.4
2024-07-31T0000,2531A,105.0703,29.61,内江市,市监测站,细颗粒物(PM2.5),53,,23,37,20,55,,124,99,30,16,10,10,0.5,0.4
2024-07-31T0000,2532A,105.0717,29.5947,内江市,东兴区政府,,38,38,20,20,11,60,,113,90,19,14,12,11,0.6,0.6
2024-07-31T0000,2533A,105.0653,29.5817,内江市,内江二中,,38,38,25,26,15,57,,120,92,23,15,4,5,0.6,0.5
2024-07-31T0000,2534A,105.0406,29.5822,内江市,内江日报社,,43,34,21,30,18,45,,122,100,36,11,8,9,0.6,0.5
2024-07-31T0000,2628A,92.0657,31.4846,那曲市,那曲监测站,颗粒物(PM10),88,126,70,36,26,85,,159,129,8,8,6,7,1.0,0.6
2024-07-31T0000,3128A,92.0506,31.4797,那曲市,那曲会议中心,,36,24,44,9,14,114,,171,148,4,9,4,4,0.4,0.4
2024-07-31T0000,1290A,115.8931,28.6843,南昌市,省外办,,20,20,33,12,15,56,,89,71,12,18,7,10,0.3,0.3
2024-07-31T0000,1291A,115.8886,28.7003,南昌市,省林业公司,,17,17,22,9,8,48,,78,61,15,18,5,8,0.3,0.3
2024-07-31T0000,1292A,115.8126,28.7442,南昌市,林科所,,18,12,12,7,6,13,,80,51,35,15,7,7,0.4,0.4
2024-07-31T0000,1294A,115.8518,28.687,南昌市,建工学校,,19,16,19,13,9,46,,78,64,12,14,7,9,0.4,0.4
2024-07-31T0000,1295A,115.8921,28.6424,南昌市,象湖,,15,15,19,7,8,41,,90,67,15,13,5,6,0.2,0.2
2024-07-31T0000,1296A,115.7423,28.7996,南昌市,武术学校,,20,20,19,9,12,16,,69,,7,4,3,10,0.6,0.5
2024-07-31T0000,1298A,115.9314,28.6842,南昌市,省站,,22,22,23,11,13,47,,81,62,15,16,8,9,0.4,0.5
2024-07-31T0000,3046A,115.9084,28.6062,南昌市,机电学校,,34,34,25,7,9,42,,79,60,8,13,7,9,0.6,0.5
2024-07-31T0000,3690A,115.9721,28.7031,南昌市,外国语学校,,28,28,22,10,7,46,,87,64,14,12,6,4,0.3,0.3
2024-07-31T0000,1905A,106.056,30.8064,南充市,西山风景区,,39,,30,27,18,72,,85,82,9,7,3,3,0.1,0.1
2024-07-31T0000,1906A,106.0789,30.8023,南充市,南充市委,,34,34,32,22,19,93,,111,106,12,12,6,6,0.4,0.4
2024-07-31T0000,1907A,106.1031,30.8217,南充市,南充炼油厂,,42,42,30,26,18,87,,115,108,12,10,4,5,0.3,0.2
2024-07-31T0000,1908A,106.1064,30.7856,南充市,高坪区监测站,,32,29,28,22,14,90,,102,98,12,12,5,5,0.2,0.2
2024-07-31T0000,1909A,106.0642,30.7636,南充市,嘉陵区环保局,,42,40,33,29,21,82,,108,100,15,16,4,4,0.4,0.4
2024-07-31T0000,1910A,106.1087,30.8388,南充市,市环境监测站,,44,44,31,25,17,87,,104,99,16,14,4,4,0.7,0.7
2024-07-31T0000,1151A,118.8086,32.1065,南京市,迈皋桥,,37,17,24,14,13,118,,149,136,12,15,5,6,0.2,0.3
2024-07-31T0000,1152A,118.7538,32.0551,南京市,草场门,,37,31,32,12,16,116,,175,141,10,12,5,6,0.4,0.5
2024-07-31T0000,1153A,118.7794,32.0745,南京市,山西路,,38,27,32,14,15,119,,180,147,3,6,5,4,0.3,0.4
2024-07-31T0000,1154A,118.7752,32.0023,南京市,中华门,,34,24,24,14,14,108,,147,132,9,6,8,8,0.4,0.5
2024-07-31T0000,1155A,118.8109,32.0309,南京市,瑞金路,,34,29,33,14,16,108,,166,139,3,4,9,8,0.3,0.4
2024-07-31T0000,1156A,118.7997,32.0754,南京市,玄武湖,,30,29,33,12,13,93,,134,115,2,6,4,4,0.4,0.5
2024-07-31T0000,1157A,118.6414,32.0931,南京市,浦口,,29,17,31,10,13,92,,160,114,13,13,5,6,0.7,0.9
2024-07-31T0000,1158A,118.7356,31.9996,南京市,奥体中心,,36,31,31,19,21,113,,176,137,14,16,7,8,0.2,0.3
2024-07-31T0000,1159A,118.9125,32.1028,南京市,仙林大学城,,34,31,29,17,15,106,,146,121,10,12,8,8,0.3,0.4
2024-07-31T0000,3422A,118.8436,31.9198,南京市,江宁彩虹桥,,31,28,30,14,14,98,,147,128,8,6,4,4,0.5,0.5
2024-07-31T0000,3423A,119.0138,31.6494,南京市,溧水永阳,,28,27,23,14,14,87,,142,131,18,11,4,4,0.6,0.6
2024-07-31T0000,3424A,118.879,31.3302,南京市,高淳老职中,,31,,31,13,16,97,,127,102,19,12,4,5,0.4,0.5
2024-07-31T0000,3427A,118.8554,32.3578,南京市,六合雄州,,38,,30,26,21,90,,162,110,14,8,6,7,0.6,0.7
2024-07-31T0000,1401A,108.3103,22.7881,南宁市,二十一中,,11,9,10,6,6,35,,53,41,7,7,3,3,0.6,0.6
2024-07-31T0000,1402A,108.3141,22.8528,南宁市,北湖,,11,10,14,6,7,35,,51,39,8,9,3,2,0.7,0.7
2024-07-31T0000,1403A,108.3206,22.8225,南宁市,市监测站,,13,,11,9,7,37,,52,41,8,9,5,4,0.5,0.5
2024-07-31T0000,1404A,108.3829,22.8037,南宁市,大自然花园,,12,10,9,3,5,36,,51,41,8,7,4,4,0.6,0.6
2024-07-31T0000,1405A,108.4394,22.7904,南宁市,仙葫,,,,,,,,,,,,,,,,
2024-07-31T0000,1406A,108.2397,22.8467,南宁市,区农职院,,13,13,12,8,6,32,,50,37,9,9,3,2,0.7,0.6
2024-07-31T0000,1407A,108.3275,22.735,南宁市,英华嘉园,,10,10,11,3,7,32,,48,34,11,11,6,5,0.5,0.5
2024-07-31T0000,1408A,108.2257,22.7757,南宁市,沙井镇街道办,,23,23,16,3,8,22,,48,31,20,14,2,2,0.6,0.4
2024-07-31T0000,3401A,108.4834,22.7618,南宁市,红星社区,,11,11,12,3,5,28,,51,39,6,5,5,4,0.5,0.5
2024-07-31T0000,2331A,118.0966,26.6761,南平市,茫荡山,,,,,,,,,,,,,,,,
2024-07-31T0000,2332A,118.1681,26.6369,南平市,南平市监测站,,13,13,13,3,6,28,,50,33,10,9,4,4,0.6,0.6
2024-07-31T0000,2333A,118.1825,26.6489,南平市,南平铝业有限公司,,19,19,17,8,6,7,,50,27,21,7,10,5,0.7,0.6
2024-07-31T0000,2334A,118.1756,26.6272,南平市,南平七中,颗粒物(PM10),53,55,22,3,4,37,,51,38,6,5,4,4,0.6,0.6
2024-07-31T0000,1168A,120.9098,31.9663,南通市,狼山街道,,20,16,12,6,3,19,,118,88,40,27,8,7,0.4,0.4
2024-07-31T0000,1169A,120.86,32.0005,南通市,虹桥,,15,15,15,3,5,31,,108,75,23,21,7,7,0.6,0.6
2024-07-31T0000,1170A,120.87,32.02,南通市,城中,,27,27,21,3,4,35,,124,91,22,15,9,8,0.6,0.5
2024-07-31T0000,1171A,120.94,31.93,南通市,星湖花园,,14,14,10,3,3,28,,128,87,28,22,6,6,0.4,0.5
2024-07-31T0000,1172A,120.81,32.0417,南通市,紫琅学院,,28,14,14,7,5,14,,118,72,55,32,7,8,0.4,0.4
2024-07-31T0000,3291A,121.067,32.062,南通市,通州监测站,,24,24,20,3,4,36,,137,96,20,11,4,4,0.5,0.5
2024-07-31T0000,3432A,120.9348,31.9883,南通市,环境教育馆,,19,19,22,3,4,40,,137,98,23,19,9,9,0.4,0.4
2024-07-31T0000,2404A,112.5224,33.0122,南阳市,瓦房庄,,21,6,13,3,9,66,,90,71,6,9,4,5,0.3,0.4
2024-07-31T0000,2405A,112.5003,32.9735,南阳市,汉画馆,,19,,18,6,12,60,,90,69,13,10,3,4,0.3,0.3
2024-07-31T0000,2406A,112.5573,33.027,南阳市,气象站,,21,6,11,3,5,66,,89,71,5,8,6,5,0.4,0.4
2024-07-31T0000,2407A,112.5481,32.9689,南阳市,理工学院,,20,6,12,6,5,62,,86,66,7,9,1,2,0.1,0.1
2024-07-31T0000,4008A,112.5234,32.9922,南阳市,卧龙区政府,,20,6,15,3,11,61,,84,64,9,14,4,5,0.5,0.4
2024-07-31T0000,1234A,121.8358,29.911,宁波市,区环保大楼,,20,20,16,12,6,62,,51,51,7,9,6,6,0.6,0.6
2024-07-31T0000,1235A,121.56,29.82,宁波市,万里学院,,19,18,16,13,8,57,,58,48,8,8,7,8,0.5,0.6
2024-07-31T0000,1236A,121.713,29.9572,宁波市,龙赛医院,,20,11,12,6,5,63,,55,52,8,10,7,6,0.4,0.4
2024-07-31T0000,1239A,121.633,29.7733,宁波市,钱湖水厂,,17,15,11,7,5,52,,54,54,5,4,6,6,0.6,0.6
2024-07-31T0000,1240A,121.5856,29.8635,宁波市,太古小学,,20,20,15,3,4,56,,59,50,7,6,6,6,0.8,0.7
2024-07-31T0000,1241A,121.524,29.8674,宁波市,市环境监测中心,,21,17,14,9,6,65,,64,55,6,7,4,4,0.8,0.8
2024-07-31T0000,2871A,121.6147,29.9017,宁波市,万里国际学校,,20,12,9,3,6,63,,61,56,6,6,6,6,0.4,0.4
2024-07-31T0000,3710A,121.5594,29.8975,宁波市,白沙活动中心,,19,14,14,10,4,59,,61,52,7,6,6,6,0.3,0.3
2024-07-31T0000,2339A,119.5001,26.6946,宁德市,金涵水库,,,,,,,,,,,,,,,,
2024-07-31T0000,2341A,119.5388,26.6612,宁德市,宁德市监测站,,,,14,,7,50,,76,68,10,7,5,5,0.4,0.6
2024-07-31T0000,3209A,119.5231,26.6562,宁德市,宁德一中,,15,15,22,7,2,40,,74,62,6,5,6,5,0.8,0.7
2024-07-31T0000,2618A,98.8601,25.8567,怒江傈僳族自治州,州监测站,,29,29,20,17,11,14,,46,38,14,9,8,8,0.7,0.5
2024-07-31T0000,2619A,98.8546,25.8417,怒江傈僳族自治州,泸水一中,,20,15,14,14,8,15,,45,34,16,12,4,4,0.6,0.6
2024-07-31T0000,1888A,101.6891,26.571,攀枝花市,弄弄坪,,48,48,26,12,6,34,,78,66,26,13,16,10,1.3,0.6
2024-07-31T0000,1889A,101.5769,26.5928,攀枝花市,河门口,,12,12,8,7,5,23,,81,55,20,11,4,4,0.3,0.4
2024-07-31T0000,1890A,101.7169,26.585,攀枝花市,炳草岗,,43,43,21,9,7,16,,74,53,38,17,10,11,0.7,0.7
2024-07-31T0000,1891A,101.7369,26.5008,攀枝花市,仁和,,31,31,22,12,11,20,,76,48,22,23,12,21,1.9,2
2024-07-31T0000,2835A,101.7227,26.567,攀枝花市,四十中小,,24,20,12,6,7,18,,87,64,43,14,20,11,2.4,1
2024-07-31T0000,1604A,122.0303,41.1489,盘锦市,开发区,,21,,31,14,15,66,,82,71,11,14,5,4,0.3,0.4
2024-07-31T0000,1605A,122.0485,41.0883,盘锦市,兴隆台,,26,,29,18,15,61,,70,63,18,19,4,6,0.3,0.4
2024-07-31T0000,1606A,121.8297,41.1028,盘锦市,新生街道,,26,26,22,13,12,51,,80,62,10,8,4,4,0.3,0.3
2024-07-31T0000,1832A,113.3257,33.742,平顶山市,新华旅馆,,28,20,18,19,16,61,,79,65,4,8,2,2,0.4,0.4
2024-07-31T0000,1833A,113.2919,33.737,平顶山市,规划设计院,,20,11,14,3,6,62,,83,68,8,9,5,5,0.5,0.5
2024-07-31T0000,1834A,113.182,33.774,平顶山市,平顶山工学院,,20,10,11,3,2,63,,82,70,3,4,5,5,0.6,0.6
2024-07-31T0000,3204A,113.3025,33.73,平顶山市,规划局,,18,,16,7,9,57,,78,64,7,9,1,2,0.6,0.6
2024-07-31T0000,3594A,112.8867,33.9116,平顶山市,石龙区,,20,20,24,7,11,58,,85,60,7,2,7,8,0.4,0.3
2024-07-31T0000,2656A,106.6692,35.5461,平凉市,聚贤嘉苑,,40,40,39,16,17,41,,120,79,52,30,8,8,0.3,0.3
2024-07-31T0000,2657A,106.7021,35.5307,平凉市,博物馆,,45,45,43,14,13,51,,119,84,20,15,6,7,0.4,0.5
2024-07-31T0000,2347A,114.0997,27.5002,萍乡市,武功山,,15,10,4,3,3,45,,55,47,3,3,14,14,0.2,0.2
2024-07-31T0000,2348A,113.8385,27.6434,萍乡市,中医院,,16,16,18,10,9,19,,78,43,18,11,5,7,0.6,0.8
2024-07-31T0000,2349A,113.8493,27.6253,萍乡市,市政府车库,,48,48,15,6,8,21,,74,42,19,8,10,12,0.5,0.8
2024-07-31T0000,2350A,113.8676,27.6435,萍乡市,市环保局,,32,26,16,22,12,23,,69,46,12,5,13,11,0.5,0.7
2024-07-31T0000,2351A,113.866,27.6198,萍乡市,安源区政府,,23,23,17,6,3,33,,71,48,10,8,8,9,0.3,0.8
2024-07-31T0000,2319A,119.0141,25.4325,莆田市,荔城区仓后路,,24,24,21,6,6,49,,96,72,10,8,6,6,0.6,0.6
2024-07-31T0000,2320A,119.0015,25.4553,莆田市,莆田市监测站,,48,48,30,11,8,45,,92,67,9,6,6,5,0.5,0.4
2024-07-31T0000,2321A,119.1119,25.4561,莆田市,涵江区六中,,16,16,16,3,5,35,,84,65,13,8,6,6,0.4,0.5
2024-07-31T0000,2322A,119.1013,25.3215,莆田市,秀屿区政府,,27,27,18,3,4,40,,87,67,9,8,6,6,0.6,0.7
2024-07-31T0000,2323A,118.981,25.4792,莆田市,东圳水库,,,,,,,,,,,,,,,,
2024-07-31T0000,2392A,115.0312,35.7636,濮阳市,环保局,,21,,17,6,8,66,,86,77,5,6,4,4,0.4,0.5
2024-07-31T0000,2394A,115.0574,35.7609,濮阳市,油田运输公司,,22,6,18,3,9,69,,90,81,1,3,3,2,0.3,0.4
2024-07-31T0000,2395A,115.0866,35.7754,濮阳市,油田物探公司,,19,8,19,7,12,59,,85,75,1,4,6,6,0.5,0.5
2024-07-31T0000,3021A,115,35.7668,濮阳市,濮水河管理处,,23,,18,16,12,57,,79,68,4,4,1,1,0.5,0.4
2024-07-31T0000,2601A,100.98,22.7633,普洱市,市环保局,,22,,7,15,13,22,,29,26,9,6,4,4,0.5,0.4
2024-07-31T0000,2602A,100.9817,22.8322,普洱市,普洱第二中学,,12,,6,8,9,26,,29,26,6,8,1,2,0.5,0.5
2024-07-31T0000,2262A,131.0518,45.8751,七台河市,新一中,,19,16,14,13,8,7,,71,41,38,14,10,10,0.9,0.9
2024-07-31T0000,3345A,131.0577,45.7879,七台河市,中波台,,15,6,7,3,7,12,,56,40,29,12,11,11,0.6,0.5
2024-07-31T0000,3637A,131.0176,45.7761,七台河市,人民广场,,25,25,15,9,7,22,,66,44,20,11,8,9,0.4,0.4
2024-07-31T0000,3684A,130.8781,45.8222,七台河市,新建矿广场,,39,39,22,18,14,8,,73,42,32,19,13,11,0.4,0.5
2024-07-31T0000,1779A,123.9305,47.3636,齐齐哈尔市,安居小区,,22,21,22,15,14,64,,94,68,9,14,6,6,0.5,0.5
2024-07-31T0000,1780A,123.9488,47.3386,齐齐哈尔市,中心广场,,27,27,25,12,8,57,,99,71,11,12,3,3,0.3,0.3
2024-07-31T0000,1781A,123.9483,47.3227,齐齐哈尔市,农牧车辆厂,,24,24,31,3,10,60,,98,76,8,13,7,8,0.3,0.4
2024-07-31T0000,1783A,123.945,47.2988,齐齐哈尔市,市环境监测站,,19,14,24,13,15,54,,103,75,8,12,6,6,0.3,0.3
2024-07-31T0000,3662A,123.6333,47.2075,齐齐哈尔市,富区青少年活动中心,,19,19,29,9,13,40,,89,66,10,18,4,5,0.3,0.5
2024-07-31T0000,2591A,107.9783,26.5747,黔东南苗族侗族自治州,市环境监测站,,12,9,7,7,6,36,,52,32,6,13,3,3,0.5,0.6
2024-07-31T0000,2881A,107.8908,26.5311,黔东南苗族侗族自治州,凯里学院,,12,,4,3,5,38,,55,34,6,7,4,4,0.2,0.3
2024-07-31T0000,2593A,107.5228,26.2403,黔南布依族苗族自治州,小围寨,,,0,4,,0,19,,50,28,6,4,3,4,0.3,0.3
2024-07-31T0000,3538A,107.5175,26.2978,黔南布依族苗族自治州,沙坝,,9,7,6,3,1,28,,53,34,4,4,2,3,0.4,0.3
2024-07-31T0000,2589A,104.9022,25.0925,黔西南布依族苗族自治州,场坝街,,16,16,15,8,9,33,,56,44,18,8,18,5,0.3,0.2
2024-07-31T0000,2590A,104.8811,25.0992,黔西南布依族苗族自治州,坪东大道,,17,17,14,3,6,22,,55,36,13,7,6,4,0.4,0.4
2024-07-31T0000,2502A,108.6236,21.9667,钦州市,市环保站,,9,7,6,3,1,26,,46,26,9,10,6,6,0.5,0.5
2024-07-31T0000,2503A,108.6549,21.9481,钦州市,沙埠小学,,19,19,14,3,4,25,,47,25,10,12,4,6,0.5,0.5
2024-07-31T0000,2504A,108.5989,21.7431,钦州市,港区一小,,19,19,13,3,3,16,,44,25,22,15,8,8,0.7,0.6
2024-07-31T0000,3404A,108.5959,21.9633,钦州市,北职校,,14,14,12,6,5,29,,46,28,7,10,7,6,0.6,0.6
2024-07-31T0000,1042A,119.5134,39.8207,秦皇岛市,北戴河环保局,颗粒物(PM10),53,56,42,21,18,113,,112,112,5,7,3,3,0.7,0.6
2024-07-31T0000,1043A,119.7493,40.0116,秦皇岛市,第一关,细颗粒物(PM2.5),58,51,46,41,37,131,,100,100,2,26,2,2,0.3,0.4
2024-07-31T0000,1044A,119.5897,39.9499,秦皇岛市,监测站,颗粒物(PM10),62,73,70,36,28,142,,108,108,3,15,4,4,0.5,0.5
2024-07-31T0000,1046A,119.5251,39.9041,秦皇岛市,建设大厦,,48,48,44,17,13,139,,114,114,2,14,3,2,0.6,0.4
2024-07-31T0000,3132A,119.610547,39.943889,秦皇岛市,文明里,,42,37,33,20,16,134,,113,113,2,8,3,3,0.3,0.4
2024-07-31T0000,1307A,120.6659,36.2403,青岛市,仰口,,33,17,27,17,22,103,,170,151,9,12,5,5,0.0,0.1
2024-07-31T0000,1310A,120.4134,36.0658,青岛市,市南区东部子站,,34,14,25,3,6,106,,159,142,4,9,6,7,0.4,0.5
2024-07-31T0000,1311A,120.3664,36.1032,青岛市,四方区子站,,40,19,32,14,19,127,,191,163,6,13,10,12,0.6,0.7
2024-07-31T0000,1312A,120.2994,36.054,青岛市,市南区西部子站,,37,24,29,3,9,117,,169,155,4,14,6,7,0.6,0.6
2024-07-31T0000,1313A,120.4581,36.0858,青岛市,崂山区子站,,35,17,26,3,10,112,,167,149,8,12,7,8,0.5,0.5
2024-07-31T0000,1314A,120.1983,35.9608,青岛市,黄岛区子站,,36,19,32,10,18,114,,182,157,10,12,7,8,0.6,0.6
2024-07-31T0000,1315A,120.3999,36.3083,青岛市,城阳区子站,,44,17,31,12,17,139,,183,164,12,19,7,8,0.5,0.6
2024-07-31T0000,1966A,120.0405,35.8735,青岛市,黄岛区4号,,35,17,27,7,14,111,,162,148,9,14,6,6,0.5,0.6
2024-07-31T0000,3362A,120.5014,36.4034,青岛市,即墨2号,,40,17,34,11,15,125,,173,161,8,12,5,7,0.5,0.6
2024-07-31T0000,3642A,120.3503,36.0736,青岛市,市北区南部,,37,21,23,12,17,116,,173,153,5,10,5,5,0.6,0.7
2024-07-31T0000,3643A,120.3948,36.1805,青岛市,李沧区北部,,42,24,36,12,20,133,,182,157,13,18,7,9,0.4,0.4
2024-07-31T0000,1702A,113.0426,23.691,清远市,环保大楼,,,,8,,5,,,54,,,8,,6,,0.5
2024-07-31T0000,1703A,113.0208,23.7106,清远市,凤城街办,,12,12,11,3,7,24,,51,38,11,8,4,5,0.4,0.4
2024-07-31T0000,3025A,113.0477,23.6344,清远市,技师学院,,18,18,15,8,8,22,,63,43,22,15,6,6,0.3,0.4
2024-07-31T0000,3318A,112.9903,23.7403,清远市,清新太和,,13,13,10,3,5,31,,56,45,8,4,7,8,0.5,0.5
2024-07-31T0000,3455A,113.076,23.7198,清远市,清城东城,,12,12,14,3,5,29,,54,43,7,5,6,6,0.6,0.6
2024-07-31T0000,2661A,107.6325,35.7357,庆阳市,庆阳五中,,31,31,28,14,14,99,,130,112,12,8,9,6,0.4,0.4
2024-07-31T0000,2662A,107.6364,35.7067,庆阳市,市环保局,,31,31,20,10,12,94,,125,,13,7,13,6,0.3,0.4
2024-07-31T0000,1916A,103.7897,25.5035,曲靖市,环境监测站,,21,13,13,3,7,66,,70,69,9,10,2,3,0.7,0.6
2024-07-31T0000,1917A,103.8,25.5364,曲靖市,烟厂办公区,,18,18,13,12,7,41,,70,58,18,13,4,4,0.6,0.5
2024-07-31T0000,3376A,103.7947,25.462,曲靖市,南苑二区,,21,15,13,10,8,67,,77,73,13,10,4,5,0.6,0.7
2024-07-31T0000,3377A,103.7444,25.5261,曲靖市,曲靖师范学院,,20,19,16,14,11,47,,75,67,23,14,7,7,0.6,0.6
2024-07-31T0000,1264A,118.8692,28.9398,衢州市,环保大楼,,11,7,17,3,8,34,,100,50,6,12,4,4,0.4,0.4
2024-07-31T0000,1265A,118.8709,28.9666,衢州市,实验学校,,12,12,17,3,7,38,,102,60,4,9,5,5,0.4,0.4
2024-07-31T0000,1266A,118.8621,28.9808,衢州市,衢州学院,,13,6,15,3,6,39,,104,67,6,10,2,4,0.2,0.3
2024-07-31T0000,1611A,118.5819,24.9117,泉州市,涂山街,,12,7,28,3,11,37,,89,55,7,10,3,4,0.6,0.6
2024-07-31T0000,1612A,118.5972,24.8978,泉州市,津头埔,,13,10,26,9,12,37,,59,50,9,13,2,3,0.6,0.6
2024-07-31T0000,1613A,118.6663,24.9424,泉州市,万安,,13,6,27,3,10,40,,107,65,3,10,2,2,0.3,0.4
2024-07-31T0000,1614A,118.6117,24.9604,泉州市,清源山,,,,,,,,,,,,,,,,
2024-07-31T0000,3529A,118.6333,24.9264,泉州市,城华南路,,11,10,19,3,11,34,,77,46,12,10,2,2,0.3,0.4
2024-07-31T0000,2626A,88.8876,29.2718,日喀则市,日喀则监测站,,40,31,22,10,9,125,,175,151,10,9,6,6,0.3,0.3
2024-07-31T0000,3726A,88.8781,29.2426,日喀则市,林业技术推广中心,,36,30,16,8,9,114,,173,138,10,11,6,6,0.3,0.4
2024-07-31T0000,1659A,119.471,35.4209,日照市,监测站,,38,31,42,21,25,120,,185,144,14,21,9,9,0.5,0.8
2024-07-31T0000,1660A,119.523,35.4216,日照市,市政府广场,,29,29,32,16,23,86,,166,142,13,21,10,10,0.7,0.9
2024-07-31T0000,1661A,119.5587,35.4044,日照市,港务局,,39,39,54,16,24,121,,204,174,16,25,7,12,0.4,0.6
2024-07-31T0000,3507A,119.5328,35.4625,日照市,职业技术学院,,37,29,48,14,24,118,,198,168,13,23,9,11,0.7,0.8
2024-07-31T0000,3604A,119.3266,35.1044,日照市,岚山环保分局,,39,39,42,17,20,108,,194,158,12,12,7,8,0.9,0.7
2024-07-31T0000,1835A,111.1922,34.7752,三门峡市,市政府,,26,26,16,12,9,42,,107,87,16,14,6,9,0.6,0.6
2024-07-31T0000,1836A,111.1587,34.7942,三门峡市,开发区,,33,33,18,15,13,33,,90,70,20,15,8,8,0.6,0.5
2024-07-31T0000,1838A,111.143,34.7955,三门峡市,风景区,,,,,,,,,,,,,,,,
2024-07-31T0000,3039A,111.1911,34.7829,三门峡市,三门峡市第一小学,,22,22,18,11,9,50,,110,86,8,13,7,9,0.5,0.6
2024-07-31T0000,3598A,111.1,34.7167,三门峡市,富达温泉假日酒店,,23,21,19,16,23,34,,110,74,20,17,10,11,0.4,0.6
2024-07-31T0000,2324A,117.6211,26.2625,三明市,三钢,,16,16,26,7,16,10,,69,43,14,12,4,10,0.3,0.8
2024-07-31T0000,2325A,117.635,26.2714,三明市,三明二中,,12,,23,8,14,19,,69,46,9,11,2,6,0.3,0.5
2024-07-31T0000,2326A,117.6028,26.2378,三明市,三元区政府,,13,12,33,9,20,18,,76,42,11,14,2,9,0.6,0.7
2024-07-31T0000,2327A,117.7275,26.3108,三明市,洋溪,,,,,,,,,,,,,,,,
2024-07-31T0000,1876A,109.5078,18.2489,三亚市,河东子站,,30,30,17,13,8,10,,38,25,14,10,3,3,0.6,0.4
2024-07-31T0000,1877A,109.4964,18.2681,三亚市,河西子站,,20,20,16,8,6,7,,38,28,17,11,2,3,0.4,0.3
2024-07-31T0000,3540A,109.7348,18.3443,三亚市,君悦子站,,20,20,17,6,5,10,,36,24,14,10,2,2,0.4,0.3
2024-07-31T0000,2624A,91.7608,29.2313,山南市,山南监测站,,40,21,17,8,9,126,,173,161,8,9,6,6,0.1,0.1
2024-07-31T0000,2625A,91.7706,29.2436,山南市,山南人民医院,,37,25,26,15,15,117,,155,149,11,17,6,6,0.1,0.1
2024-07-31T0000,1674A,116.6794,23.3667,汕头市,金平子站,,14,14,14,3,6,40,,65,53,8,8,6,6,0.8,0.8
2024-07-31T0000,1675A,116.7244,23.3633,汕头市,龙湖子站,,11,6,14,3,7,33,,60,48,10,6,5,5,0.7,0.6
2024-07-31T0000,1676A,116.7258,23.2775,汕头市,濠江子站,,12,,15,8,32,34,,64,51,16,10,6,4,0.6,0.5
2024-07-31T0000,1677A,116.7519,23.4714,汕头市,澄海子站,,,,39,16,13,33,,46,,,8,2,3,0.7,0.6
2024-07-31T0000,1678A,116.6092,23.2539,汕头市,潮阳子站,细颗粒物(PM2.5),67,,14,48,11,30,,51,46,11,6,5,4,0.4,0.6
2024-07-31T0000,3444A,116.454,23.2684,汕头市,潮南峡山,,14,14,16,7,7,27,,55,45,7,5,5,4,0.4,0.6
2024-07-31T0000,3624A,116.4069,23.2533,汕头市,潮南子站,,,14,20,6,8,,,52,47,7,8,3,6,0.5,0.7
2024-07-31T0000,1693A,115.3653,22.775,汕尾市,市环保局,,11,11,12,3,4,31,,46,34,11,11,6,5,0.4,0.4
2024-07-31T0000,1694A,115.3706,22.7898,汕尾市,市政府,,10,6,12,3,6,30,,42,33,12,9,7,7,0.4,0.4
2024-07-31T0000,1695A,115.3622,22.7925,汕尾市,新城中学,,10,,12,7,4,31,,47,37,7,7,5,5,0.5,0.5
2024-07-31T0000,2645A,109.9154,33.8715,商洛市,监测站,,27,27,8,10,7,25,,98,63,13,10,7,7,0.8,0.8
2024-07-31T0000,3045A,109.9643,33.8471,商洛市,商州区中学,,,,5,,4,,,74,,,12,,4,,0.8
2024-07-31T0000,2408A,115.6702,34.4285,商丘市,环境监测站,,23,23,22,10,10,70,,86,76,6,5,4,4,0.3,0.3
2024-07-31T0000,2409A,115.6458,34.4045,商丘市,粮食局,,24,23,21,9,8,74,,89,80,4,5,4,4,0,0
2024-07-31T0000,2410A,115.6293,34.3948,商丘市,睢阳区环保局,,25,25,24,11,10,60,,84,71,7,6,4,5,0.4,0.4
2024-07-31T0000,3171A,115.6071,34.4465,商丘市,梁园区档案局,,26,26,21,10,10,65,,84,75,4,5,5,5,0.4,0.3
2024-07-31T0000,1141A,121.4,31.238,上海市,普陀,,21,21,22,3,6,25,,99,64,18,13,12,9,0.3,0.3
2024-07-31T0000,1142A,121.478,31.2036,上海市,十五厂,,19,19,20,6,9,28,,94,62,18,14,7,8,0.3,0.3
2024-07-31T0000,1143A,121.467,31.3008,上海市,虹口,,20,20,20,14,12,28,,94,63,14,11,7,7,0.4,0.4
2024-07-31T0000,1144A,121.412,31.1654,上海市,徐汇上师大,,23,23,23,8,10,26,,99,61,23,18,6,5,0.5,0.5
2024-07-31T0000,1145A,121.536,31.2659,上海市,杨浦四漂,,17,17,21,7,7,32,,100,65,14,12,7,7,0.2,0.2
2024-07-31T0000,1147A,121.425,31.2261,上海市,静安监测站,,20,19,20,14,10,29,,99,64,16,14,6,10,0.4,0.4
2024-07-31T0000,1148A,121.703,31.1907,上海市,浦东川沙,,20,20,19,8,8,41,,96,62,12,12,6,6,0.6,0.6
2024-07-31T0000,1149A,121.533,31.2284,上海市,浦东新区监测站,,20,20,17,3,7,31,,88,60,15,12,5,5,0.5,0.5
2024-07-31T0000,1150A,121.577,31.2071,上海市,浦东张江,,19,19,18,9,9,33,,85,57,15,13,5,5,0.5,0.5
2024-07-31T0000,3265A,121.4316,31.3322,上海市,宝山庙行,,15,15,19,3,7,32,,104,72,14,11,10,13,0.5,0.5
2024-07-31T0000,3266A,121.8791,31.4662,上海市,崇明上实东滩,,13,13,14,3,5,31,,82,52,12,10,8,7,0.5,0.5
2024-07-31T0000,3268A,121.3162,31.2838,上海市,嘉定南翔,,19,19,20,3,8,23,,92,58,20,19,6,7,0.4,0.4
2024-07-31T0000,3269A,121.3359,30.7456,上海市,金山新城,,25,25,17,9,8,55,,94,55,8,10,7,7,0.5,0.4
2024-07-31T0000,3270A,121.4996,31.0739,上海市,闵行浦江,,16,16,16,3,7,32,,92,58,14,13,5,6,0.5,0.3
2024-07-31T0000,3271A,121.2886,31.1663,上海市,青浦徐泾,,19,19,18,3,7,28,,103,67,19,13,6,6,0.6,0.5
2024-07-31T0000,3272A,121.2186,31.0378,上海市,松江图书馆,,23,23,18,3,8,27,,109,65,16,12,6,6,0.7,0.6
2024-07-31T0000,3273A,121.3902,31.2059,上海市,长宁仙霞,,23,23,20,8,8,28,,99,65,20,14,15,10,0.5,0.5
2024-07-31T0000,3274A,121.7965,31.0507,上海市,浦东惠南,,19,19,20,3,8,32,,84,49,13,13,8,8,0.6,0.6
2024-07-31T0000,3544A,121.4891,30.925,上海市,奉贤南桥新城,,20,20,16,7,7,36,,92,55,18,15,7,7,0.5,0.4
2024-07-31T0000,2381A,118.005,28.4572,上饶市,百草园,,15,15,18,3,9,36,,76,49,4,7,1,3,0.6,0.5
2024-07-31T0000,2382A,117.9756,28.4436,上饶市,市监测站,,10,9,22,3,10,31,,89,65,8,9,4,6,0.5,0.5
2024-07-31T0000,2383A,117.9519,28.4628,上饶市,凤凰光学,,10,10,21,3,9,31,,86,62,3,10,4,5,0.8,0.8
2024-07-31T0000,3413A,118.1953,28.4401,上饶市,广丰区教体局,,15,,17,10,8,39,,70,51,3,7,7,10,0.7,0.6
2024-07-31T0000,3685A,117.897,28.4315,上饶市,双创科技城,,18,17,22,12,9,23,,90,59,4,7,7,7,0.5,0.6
2024-07-31T0000,1669A,113.5824,24.7733,韶关市,市八中,,13,13,21,3,7,18,,49,36,8,4,8,9,0.4,0.4
2024-07-31T0000,1671A,113.5917,24.7972,韶关市,园林处,,19,19,16,8,7,16,,49,37,12,4,9,9,0.5,0.5
2024-07-31T0000,1672A,113.6735,24.7791,韶关市,韶关学院,,13,13,15,3,5,17,,48,34,9,8,10,11,0.4,0.4
2024-07-31T0000,1673A,113.5971,24.6863,韶关市,曲江监测站,,18,18,20,6,7,21,,49,35,11,8,8,11,0.5,0.7
2024-07-31T0000,3622A,113.5556,24.8082,韶关市,碧湖山庄,,20,20,25,6,9,18,,52,38,6,3,8,9,0.4,0.5
2024-07-31T0000,2462A,111.5239,27.3033,邵阳市,市水土所,,15,15,16,7,9,7,,62,37,7,5,9,7,0.5,0.4
2024-07-31T0000,2463A,111.4733,27.2317,邵阳市,市一中,细颗粒物(PM2.5),58,,15,41,15,42,,69,56,7,4,5,9,0.4,0.4
2024-07-31T0000,2464A,111.5283,27.2442,邵阳市,市化工厂,,16,15,12,11,7,43,,66,53,6,6,8,10,0.6,0.6
2024-07-31T0000,2465A,111.4503,27.2537,邵阳市,市罐头厂,,13,12,16,8,8,41,,69,59,8,6,3,4,0.3,0.3
2024-07-31T0000,2466A,111.4328,27.2272,邵阳市,市环保局,,19,19,13,8,8,44,,67,57,6,4,5,7,0.1,0.1
2024-07-31T0000,1247A,120.6053,29.9928,绍兴市,城东开发委,,19,16,11,9,6,58,,64,59,6,7,5,5,0.5,0.4
2024-07-31T0000,2921A,120.5483,30.0003,绍兴市,树下王站,,19,14,10,7,6,58,,64,61,7,6,4,4,0.4,0.4
2024-07-31T0000,3408A,120.5683,29.9361,绍兴市,绍兴中专,,21,14,10,9,6,66,,70,68,6,6,3,3,0.4,0.4
2024-07-31T0000,3409A,120.4906,30.0861,绍兴市,柯桥区政府,,19,19,14,8,7,55,,68,62,2,2,5,6,0.5,0.5
2024-07-31T0000,3410A,120.8752,30.0249,绍兴市,重华小学,,20,15,11,9,6,62,,77,65,2,4,8,9,0.6,0.6
2024-07-31T0000,3411A,120.8369,30.0137,绍兴市,上虞中学,,23,23,15,12,7,50,,73,59,9,9,7,8,0.5,0.4
2024-07-31T0000,3560A,120.4722,30.0415,绍兴市,柯桥妇保,,20,20,14,10,6,44,,68,60,11,7,6,6,0.6,0.5
2024-07-31T0000,3658A,120.6153,30.0764,绍兴市,袍江中学,,18,18,14,12,6,53,,67,58,6,6,4,4,0.4,0.4
