timepoint,stationcode,longitude,latitude,area,positionname,primarypollutant,aqi,pm10,pm10_24h,pm2_5,pm2_5_24h,o3,o3_24h,o3_8h,o3_8h_24h,no2,no2_24h,so2,so2_24h,co,co_24h
2026-02-06T0200,2568A,102.2503,31.8896,阿坝藏族羌族自治州,马师校,,33,33,29,8,12,40,,,,14,14,4,4,0.4,0.5
2026-02-06T0200,3994A,102.2174,31.9016,阿坝藏族羌族自治州,马尔康中学西区,颗粒物(PM10),59,68,47,10,11,47,,,,10,8,5,6,0.5,0.5
2026-02-06T0200,2695A,80.2899,41.1684,阿克苏地区,电视台,颗粒物(PM10),158,265,225,111,88,5,,,,82,46,12,12,2.7,1.8
2026-02-06T0200,2696A,80.2592,41.1541,阿克苏地区,艺术中心,颗粒物(PM10),161,272,207,113,93,10,,,,102,51,8,6,2.0,1.1
2026-02-06T0200,2205A,105.699,38.8409,阿拉善盟,蒙二幼,颗粒物(PM10),66,82,62,22,19,71,,,,11,13,12,11,0.6,0.6
2026-02-06T0200,2206A,105.7198,38.8508,阿拉善盟,环保局新楼,颗粒物(PM10),62,73,51,18,16,69,,,,10,10,10,10,0.6,0.5
2026-02-06T0200,2708A,88.1266,47.8515,阿勒泰地区,市站,,26,12,35,6,28,82,,,,7,24,2,3,0.0,0.4
2026-02-06T0200,4166A,88.1198,47.7931,阿勒泰地区,阿勒泰路33号,,26,,41,3,31,83,,,,10,15,7,5,0.2,0.6
2026-02-06T0200,2630A,80.1171,32.4999,阿里地区,阿里监测站,,22,6,3,3,7,68,,,,6,7,12,9,0.3,0.3
2026-02-06T0200,3192A,80.0906,32.5029,阿里地区,阿里藏医院,,27,6,9,3,3,84,,,,2,4,7,10,0.2,0.4
2026-02-06T0200,2644A,109.0088,32.6974,安康市,汉滨区检察院,颗粒物(PM10),56,62,72,39,47,23,,,,19,27,6,7,0.7,0.8
2026-02-06T0200,4054A,109.0324,32.6913,安康市,市邮政管理局,细颗粒物(PM2.5),68,78,87,49,53,4,,,,40,36,10,7,0.9,1.1
2026-02-06T0200,2291A,117.0806,30.5181,安庆市,环科院,细颗粒物(PM2.5),114,108,76,86,65,34,,,,23,43,7,8,0.9,0.9
2026-02-06T0200,2292A,117.0331,30.5118,安庆市,马山宾馆,细颗粒物(PM2.5),115,102,70,87,65,42,,,,18,39,6,6,1.0,1
2026-02-06T0200,2294A,116.9897,30.6146,安庆市,安庆大学,细颗粒物(PM2.5),98,115,83,73,56,46,,,,26,36,5,4,0.8,0.8
2026-02-06T0200,3173A,117.0598,30.5351,安庆市,市人大,细颗粒物(PM2.5),89,117,79,66,50,40,,,,21,41,6,7,0.7,0.7
2026-02-06T0200,3123A,105.9408,26.2431,安顺市,凤凰山,,33,24,34,23,26,54,,,,14,14,11,13,0.8,0.9
2026-02-06T0200,3124A,105.9443,26.2567,安顺市,金钟山,,28,24,28,19,26,51,,,,11,11,11,12,0.8,0.9
2026-02-06T0200,3125A,105.8983,26.248,安顺市,娄家坡,,35,,30,24,28,48,,,,14,14,31,19,0.9,0.9
2026-02-06T0200,1819A,114.3552,36.1017,安阳市,红庙街,颗粒物(PM10),74,98,120,41,67,63,,,,17,31,3,6,0.5,0.9
2026-02-06T0200,1820A,114.361,36.0681,安阳市,银杏小区,颗粒物(PM10),71,92,123,49,69,62,,,,14,26,5,7,0.5,0.8
2026-02-06T0200,3141A,114.3921,36.0879,安阳市,信访局,颗粒物(PM10),68,86,117,47,58,66,,,,8,21,6,10,0.6,0.9
2026-02-06T0200,3669A,114.4706,36.0634,安阳市,左辅环卫站,颗粒物(PM10),90,130,156,48,71,63,,,,17,37,6,8,0.5,0.8
2026-02-06T0200,4117A,114.2918,36.0769,安阳市,钢三路198号,颗粒物(PM10),68,85,123,37,63,58,,,,10,21,4,6,0.6,0.8
2026-02-06T0200,1748A,123.0441,41.1201,鞍山市,深沟寺,颗粒物(PM10),68,85,153,6,32,72,,,,8,20,8,8,0.5,0.7
2026-02-06T0200,1749A,123.011,41.0931,鞍山市,太阳城,颗粒物(PM10),70,90,164,6,36,67,,,,10,23,10,16,0.5,0.9
2026-02-06T0200,1750A,123.0483,41.1445,鞍山市,太平,,50,50,181,8,36,61,,,,9,19,10,11,0.4,0.6
2026-02-06T0200,1751A,122.964,41.0968,鞍山市,铁西三道街,颗粒物(PM10),70,90,174,20,40,69,,,,10,24,10,16,0.8,1.1
2026-02-06T0200,1753A,123.0219,41.0822,鞍山市,明达新区,颗粒物(PM10),55,59,136,6,36,69,,,,9,20,6,9,0.5,0.8
2026-02-06T0200,4201A,122.944647,41.082639,鞍山市,兴盛南路290号,,39,39,181,3,39,74,,,,4,19,7,12,0.8,0.9
2026-02-06T0200,2195A,107.4206,40.7609,巴彦淖尔市,附二中,,36,36,59,9,10,67,,,,3,5,6,8,0.3,0.3
2026-02-06T0200,2196A,107.37,40.7372,巴彦淖尔市,市环保大楼,,26,26,54,7,10,68,,,,6,7,6,6,0.3,0.3
2026-02-06T0200,1956A,86.1476,41.7529,巴音郭楞蒙古自治州,孔雀公园,,,,88,54,58,32,,,,48,47,8,9,0.9,0.9
2026-02-06T0200,1957A,86.1971,41.7166,巴音郭楞蒙古自治州,棉纺厂,颗粒物(PM10),129,207,226,54,58,23,,,,50,35,/,/,/,/
2026-02-06T0200,1958A,86.236,41.7172,巴音郭楞蒙古自治州,经济开发区,颗粒物(PM10),101,151,168,32,32,57,,,,15,26,5,6,0.5,0.6
2026-02-06T0200,3181A,106.776805,31.852614,巴中市,市五中,细颗粒物(PM2.5),117,102,92,88,74,1,,,,20,26,6,6,1.2,1.3
2026-02-06T0200,3183A,106.7419,31.8654,巴中市,圣泉水务公司,细颗粒物(PM2.5),97,90,83,72,63,1,,,,27,28,6,6,1.3,1.3
2026-02-06T0200,3616A,106.7617,31.8343,巴中市,市中心医院,细颗粒物(PM2.5),109,104,87,82,70,1,,,,25,29,5,6,1.6,1.5
2026-02-06T0200,2235A,122.7909,45.608,白城市,洮北区环保局,,31,31,60,12,11,65,,,,6,9,4,6,0.2,0.3
2026-02-06T0200,2236A,122.8741,45.5725,白城市,市环保局,,23,22,70,16,13,61,,,,5,5,5,5,0.3,0.3
2026-02-06T0200,2231A,126.4219,41.9172,白山市,喜丰,颗粒物(PM10),131,211,168,7,34,73,,,,4,11,5,9,0.5,0.7
2026-02-06T0200,2232A,126.4082,41.9416,白山市,环保局,颗粒物(PM10),101,151,136,12,35,68,,,,8,12,9,12,0.4,0.8
2026-02-06T0200,2647A,104.1727,36.5448,白银市,第三小学,颗粒物(PM10),58,66,93,23,42,83,,,,7,29,2,52,0.1,0.8
2026-02-06T0200,2648A,104.1467,36.5482,白银市,动力公司,颗粒物(PM10),63,76,71,21,31,81,,,,9,23,2,27,0.3,0.6
2026-02-06T0200,2512A,106.6102,23.901,百色市,市监测站,细颗粒物(PM2.5),73,60,57,53,50,8,,,,30,19,10,12,0.9,0.9
2026-02-06T0200,2513A,106.6524,23.8842,百色市,市中心血站,细颗粒物(PM2.5),75,74,72,55,59,3,,,,44,25,9,13,1.1,1.1
2026-02-06T0200,4133A,106.6273,23.8798,百色市,龙景西路,细颗粒物(PM2.5),68,80,69,49,53,11,,,,30,22,9,13,0.7,0.7
2026-02-06T0200,2270A,117.396,32.9389,蚌埠市,工人疗养院,细颗粒物(PM2.5),170,167,147,129,104,83,,,,18,42,3,6,0.9,0.9
2026-02-06T0200,2271A,117.3606,32.9428,蚌埠市,百货大楼,细颗粒物(PM2.5),178,169,146,134,100,79,,,,15,47,4,6,0.8,0.9
2026-02-06T0200,2273A,117.4183,32.8909,蚌埠市,蚌埠学院,细颗粒物(PM2.5),182,163,127,137,97,72,,,,33,43,5,7,0.9,0.8
2026-02-06T0200,2274A,117.3534,32.9672,蚌埠市,淮上区政府,细颗粒物(PM2.5),180,153,135,136,106,88,,,,16,46,4,7,0.8,0.8
2026-02-06T0200,2275A,117.3143,32.8977,蚌埠市,高新区,细颗粒物(PM2.5),186,168,129,140,104,81,,,,14,35,6,8,0.9,0.7
2026-02-06T0200,3715A,117.3091,32.9314,蚌埠市,蚌埠田家炳中学,细颗粒物(PM2.5),188,171,147,141,107,85,,,,17,42,3,21,0.9,0.8
2026-02-06T0200,1585A,109.8761,40.6533,包头市,市环境监测站,,20,18,25,3,7,63,,,,10,10,7,5,0.4,0.3
2026-02-06T0200,1587A,109.9992,40.5843,包头市,包头八中,,24,24,26,10,9,44,,,,20,16,6,6,0.5,0.5
2026-02-06T0200,1589A,109.8641,40.6288,包头市,惠龙物流,,21,13,18,3,6,66,,,,9,10,10,8,0.4,0.4
2026-02-06T0200,1590A,110.0376,40.5546,包头市,东河鸿龙湾,,20,20,32,12,9,53,,,,20,26,8,9,0.4,0.4
2026-02-06T0200,3283A,109.9154,40.5684,包头市,滨河大厦,,15,8,17,3,6,46,,,,26,16,8,7,0.5,0.5
2026-02-06T0200,3419A,109.9449,40.6259,包头市,包头市委党校,,29,24,23,20,8,52,,,,17,13,11,9,0.5,0.4
2026-02-06T0200,3683A,109.8332,40.6577,包头市,昆区政府,,22,14,19,3,7,69,,,,8,10,7,7,0.4,0.4
2026-02-06T0200,1931A,107.0802,34.3129,宝鸡市,竹园沟,细颗粒物(PM2.5),130,124,85,99,59,28,,,,33,27,6,8,0.8,0.7
2026-02-06T0200,1933A,107.1429,34.3549,宝鸡市,监测站,细颗粒物(PM2.5),192,158,112,144,86,20,,,,45,39,6,7,0.9,0.7
2026-02-06T0200,1934A,107.1172,34.3759,宝鸡市,技工学校,细颗粒物(PM2.5),188,170,119,141,80,30,,,,31,32,5,10,1.0,0.8
2026-02-06T0200,1936A,107.2025,34.3518,宝鸡市,文理学院,细颗粒物(PM2.5),185,169,114,139,79,24,,,,44,38,5,6,1.2,1
2026-02-06T0200,1937A,107.2396,34.3626,宝鸡市,三迪小学,细颗粒物(PM2.5),198,180,120,148,84,22,,,,51,49,4,6,1.1,0.9
2026-02-06T0200,4155A,107.1721,34.3558,宝鸡市,滨河北路,细颗粒物(PM2.5),173,182,126,131,78,28,,,,30,32,5,7,1.0,0.8
2026-02-06T0200,4308A,107.3898,34.3601,宝鸡市,陈仓区北开路21号,细颗粒物(PM2.5),209,205,150,159,105,20,,,,48,46,9,45,1.2,1
2026-02-06T0200,1051A,115.4803,38.8568,保定市,游泳馆,颗粒物(PM10),77,104,120,26,45,43,,,,24,30,1,6,0.4,0.6
2026-02-06T0200,1052A,115.509,38.8895,保定市,华电二区,颗粒物(PM10),69,87,101,38,43,14,,,,44,37,4,4,0.8,0.8
2026-02-06T0200,1053A,115.4588,38.9037,保定市,接待中心,颗粒物(PM10),71,92,90,34,40,37,,,,30,32,2,3,0.2,0.3
2026-02-06T0200,1054A,115.4484,38.8344,保定市,地表水厂,颗粒物(PM10),81,111,118,24,36,39,,,,30,34,4,5,0.3,0.4
2026-02-06T0200,3581A,115.3136,38.9511,保定市,满城区生态环境分局,颗粒物(PM10),64,78,103,14,27,39,,,,34,30,2,3,0.3,0.4
2026-02-06T0200,3582A,115.4709,38.7628,保定市,清苑区第二中学,颗粒物(PM10),91,132,143,36,44,29,,,,38,36,6,8,0.4,0.5
2026-02-06T0200,3583A,115.6231,39.0223,保定市,徐水物探局,颗粒物(PM10),74,98,136,30,48,20,,,,44,34,6,8,0.5,0.6
2026-02-06T0200,4004A,115.4199,38.8665,保定市,双鹰农机,颗粒物(PM10),70,89,116,21,38,60,,,,8,23,2,5,0.2,0.4
2026-02-06T0200,4034A,115.515,38.8589,保定市,植保所站,颗粒物(PM10),74,97,111,31,40,37,,,,29,34,3,4,0.6,0.8
2026-02-06T0200,2594A,99.1589,25.1137,保山市,市环境监测站,,23,15,27,13,16,72,,,,6,8,6,4,0.2,0.3
2026-02-06T0200,2595A,99.1616,25.1381,保山市,市环保局,,25,24,34,14,15,77,,,,3,5,3,3,0.4,0.5
2026-02-06T0200,1867A,109.1435,21.4085,北海市,海滩公园,颗粒物(PM10),51,52,42,21,20,72,,,,14,15,2,4,0.7,0.8
2026-02-06T0200,1868A,109.0983,21.466,北海市,新市环保局,,42,42,37,21,18,71,,,,13,15,7,6,0.5,0.5
2026-02-06T0200,1869A,109.1775,21.5232,北海市,北海工业园,,46,46,46,24,22,69,,,,10,12,5,5,0.5,0.6
2026-02-06T0200,3400A,109.1844,21.4396,北海市,龙潭自来水厂,,44,44,37,30,22,66,,,,10,10,7,4,0.5,0.4
2026-02-06T0200,1001A,116.3611,39.8786,北京市,万寿西宫,,24,14,26,3,5,76,,,,4,5,2,2,0.4,0.3
2026-02-06T0200,1003A,116.4174,39.9289,北京市,东四,,21,13,26,3,7,65,,,,14,14,4,4,0.2,0.2
2026-02-06T0200,1004A,116.4073,39.8858,北京市,天坛,,21,15,30,3,6,66,,,,10,12,2,2,0.2,0.2
2026-02-06T0200,1005A,116.4622,39.9364,北京市,农展馆,,23,13,27,3,7,71,,,,6,9,5,4,0,0.1
2026-02-06T0200,1006A,116.3399,39.9293,北京市,官园,,20,15,27,3,5,62,,,,9,9,2,3,0.3,0.3
2026-02-06T0200,1007A,116.2879,39.9613,北京市,海淀万柳,,19,12,24,3,5,59,,,,14,13,2,2,0.2,0.2
2026-02-06T0200,1008A,116.6635,40.1349,北京市,顺义新城,,25,12,38,3,22,77,,,,4,12,4,5,0.2,0.4
2026-02-06T0200,1009A,116.6275,40.327,北京市,怀柔镇,,23,7,18,3,8,71,,,,1,8,4,4,0.3,0.4
2026-02-06T0200,1010A,116.2295,40.217,北京市,昌平镇,,23,7,32,3,8,73,,,,2,12,1,2,0.3,0.4
2026-02-06T0200,1011A,116.3968,39.982,北京市,奥体中心,,20,13,26,3,9,63,,,,16,16,4,5,0.2,0.2
2026-02-06T0200,3418A,116.8336,40.4095,北京市,密云新城,,23,6,24,3,13,73,,,,5,10,4,3,0.2,0.3
2026-02-06T0200,3671A,116.0879,39.9725,北京市,门头沟三家店,,20,10,17,3,5,61,,,,6,4,3,3,0.4,0.4
2026-02-06T0200,3672A,116.1507,39.8246,北京市,丰台云岗,,22,8,18,3,4,69,,,,12,10,1,2,0.2,0.3
2026-02-06T0200,3674A,115.9578,39.7602,北京市,房山燕山,,22,22,18,3,5,56,,,,15,8,3,4,0.1,0.2
2026-02-06T0200,3675A,116.4669,39.7734,北京市,大兴旧宫,,22,22,32,3,7,64,,,,14,14,3,3,0.3,0.4
2026-02-06T0200,3694A,115.9859,40.4562,北京市,延庆石河营,,23,8,23,3,6,71,,,,1,3,3,3,0.3,0.3
2026-02-06T0200,3695A,116.6151,40.3052,北京市,怀柔新城,,23,8,15,3,7,73,,,,2,3,2,2,0.3,0.3
2026-02-06T0200,3696A,116.2542,39.8764,北京市,丰台小屯,,15,13,27,3,6,45,,,,18,13,3,3,0.3,0.3
2026-02-06T0200,3697A,116.8399,40.3843,北京市,密云镇,,24,6,26,3,14,74,,,,4,15,2,3,0.3,0.4
2026-02-06T0200,4057A,115.9423,40.4431,北京市,延庆百泉,,22,7,29,3,6,68,,,,2,2,2,2,0.2,0.3
2026-02-06T0200,4058A,116.6598,39.9164,北京市,通州新华,,24,7,42,3,24,74,,,,3,17,2,3,0.4,0.6
2026-02-06T0200,4182A,116.1942,39.9158,北京市,石景山八角,,17,17,25,3,5,52,,,,14,7,3,3,0.1,0.1
2026-02-06T0200,4194A,117.078628,40.151726,北京市,平谷新城,,23,6,30,3,17,71,,,,4,12,3,3,0.1,0.4
2026-02-06T0200,1761A,123.8274146,41.31234549,本溪市,大峪,颗粒物(PM10),56,61,140,3,29,68,,,,4,19,8,9,0.4,0.6
2026-02-06T0200,1763A,123.7169,41.3094,本溪市,彩屯,颗粒物(PM10),70,89,118,3,32,73,,,,11,19,6,8,0.5,0.7
2026-02-06T0200,1764A,123.7672166,41.28649327,本溪市,东明,,43,43,161,3,31,69,,,,8,20,9,10,0.7,0.8
2026-02-06T0200,1765A,123.799345,41.266614,本溪市,新立屯,,49,49,177,3,31,69,,,,3,14,9,10,0.7,0.8
2026-02-06T0200,1766A,123.829144,41.336777,本溪市,威宁,颗粒物(PM10),55,60,192,3,28,64,,,,9,23,6,6,0.3,0.7
2026-02-06T0200,2587A,105.287,27.3133,毕节市,八中,,45,45,32,30,22,70,,,,8,11,8,8,0.8,0.9
2026-02-06T0200,2588A,105.3079,27.2987,毕节市,师专,,39,39,28,24,19,69,,,,14,13,7,8,0.8,0.8
2026-02-06T0200,4263A,105.3688,27.3598,毕节市,工业大道,细颗粒物(PM2.5),58,50,32,41,24,78,,,,9,12,9,9,/,/
2026-02-06T0200,1629A,117.9961,37.3604,滨州市,第二水厂,,48,48,145,3,75,58,,,,10,33,7,12,0.4,0.7
2026-02-06T0200,1630A,117.9789,37.3931,滨州市,北中新校,,44,44,132,3,74,60,,,,13,27,4,8,0.3,0.8
2026-02-06T0200,3514A,117.9379,37.3959,滨州市,中海酒店,,44,44,131,3,75,73,,,,12,29,6,9,0.4,0.7
2026-02-06T0200,3515A,117.9381509,37.35547456,滨州市,开发区一中,,,58,159,3,72,,,,,6,34,10,15,0.5,0.9
2026-02-06T0200,3516A,118.0914,37.6938,滨州市,金海六路,,,46,143,3,87,,,,,7,38,2,11,,1.2
2026-02-06T0200,4028A,117.9955,37.3752,滨州市,滨州市西街道办事处,,44,44,138,7,74,65,,,,12,28,7,10,0.1,0.6
2026-02-06T0200,2311A,115.8071,33.8399,亳州市,污水处理厂,细颗粒物(PM2.5),170,226,159,129,112,51,,,,25,41,7,10,1.0,0.9
2026-02-06T0200,2312A,115.7789,33.8519,亳州市,三国揽胜宫,细颗粒物(PM2.5),169,238,178,128,110,48,,,,38,45,6,7,0.9,0.9
2026-02-06T0200,3332A,115.7631,33.803,亳州市,亳州学院,细颗粒物(PM2.5),183,231,162,138,109,45,,,,28,29,6,6,1.0,0.8
2026-02-06T0200,2693A,82.0482,44.8553,博尔塔拉蒙古自治州,市党校,颗粒物(PM10),67,83,84,37,47,80,,,,14,17,2,2,1.0,1.1
2026-02-06T0200,2694A,82.0805,44.8966,博尔塔拉蒙古自治州,市环保局,细颗粒物(PM2.5),122,123,94,92,58,58,,,,22,20,4,5,0.8,1.1
2026-02-06T0200,1071A,116.8733,38.2922,沧州市,沧县城建局,颗粒物(PM10),54,58,141,20,63,25,,,,50,38,3,8,0.3,0.5
2026-02-06T0200,1072A,116.8462,38.3189,沧州市,电视转播站,颗粒物(PM10),53,56,126,24,73,30,,,,43,37,3,3,0.4,0.7
2026-02-06T0200,1073A,116.8588,38.3161,沧州市,市环保局,,,54,140,16,59,28,,,,39,37,,7,0.4,0.7
2026-02-06T0200,3324A,116.8011,38.294,沧州市,河北水利电力学院,,48,48,144,12,68,55,,,,14,30,3,7,0.2,0.6
2026-02-06T0200,2622A,97.1813,31.1289,昌都市,昌都监测站,细颗粒物(PM2.5),63,,21,45,11,73,,,,3,7,2,3,0.2,0.3
2026-02-06T0200,3719A,97.1707,31.1428,昌都市,昌都会议中心,,24,24,22,7,10,65,,,,1,2,4,4,0.2,0.2
2026-02-06T0200,2692A,87.2722,44.0298,昌吉回族自治州,新区政务中心,细颗粒物(PM2.5),176,223,118,133,80,49,,,,27,39,7,9,1.6,1.4
2026-02-06T0200,3613A,87.3069,44.0093,昌吉回族自治州,亚心广场,细颗粒物(PM2.5),216,237,137,166,106,54,,,,23,29,8,8,1.5,1.3
2026-02-06T0200,4164A,87.2057,43.9289,昌吉回族自治州,财政所,细颗粒物(PM2.5),179,190,92,135,69,60,,,,23,25,6,6,1.3,1
2026-02-06T0200,1120A,125.2874,43.9024,长春市,客车厂,,48,48,120,9,24,56,,,,6,19,6,7,0.3,0.4
2026-02-06T0200,1121A,125.2943,43.8508,长春市,邮电学院,,48,48,108,10,25,50,,,,13,18,8,9,0.3,0.4
2026-02-06T0200,1122A,125.3648,43.8745,长春市,劳动公园,颗粒物(PM10),54,57,105,9,25,58,,,,6,16,3,4,0.7,0.6
2026-02-06T0200,1123A,125.3233,43.8781,长春市,园林处,,50,50,97,13,28,53,,,,9,15,8,8,0.4,0.4
2026-02-06T0200,1124A,125.4604,43.7904,长春市,净月潭,颗粒物(PM10),54,57,104,9,23,55,,,,11,16,5,6,0.3,0.4
2026-02-06T0200,1126A,125.38,43.8422,长春市,经开区环卫处,颗粒物(PM10),54,57,102,10,24,50,,,,16,20,10,7,0.3,0.4
2026-02-06T0200,1127A,125.234,43.7761,长春市,高新区管委会,颗粒物(PM10),52,54,118,10,23,62,,,,5,16,6,7,0.3,0.4
2026-02-06T0200,1128A,125.1695,43.83,长春市,岱山公园,颗粒物(PM10),55,59,128,12,28,58,,,,9,20,4,5,0.3,0.3
2026-02-06T0200,4281A,125.334645,43.916281,长春市,北亚泰大街1068号,,49,49,106,11,29,47,,,,16,23,10,9,0.4,0.5
2026-02-06T0200,1335A,113.082,28.2421,长沙市,经开区环保局,细颗粒物(PM2.5),79,79,89,58,63,27,,,,24,37,4,4,0.7,0.8
2026-02-06T0200,1336A,112.8873,28.2202,长沙市,高开区环保局,,,,98,75,88,,,,,13,26,4,6,0.9,1
2026-02-06T0200,1337A,113.0785,28.2012,长沙市,马坡岭,细颗粒物(PM2.5),88,82,103,65,74,34,,,,18,35,5,6,0.9,0.9
2026-02-06T0200,1338A,112.9448,28.1894,长沙市,湖南师范大学,细颗粒物(PM2.5),92,77,111,68,76,48,,,,10,26,3,4,1.0,1
2026-02-06T0200,1339A,113.0177,28.1322,长沙市,雨花区环保局,细颗粒物(PM2.5),83,78,93,61,66,39,,,,18,39,8,8,0.9,1
2026-02-06T0200,1340A,112.9795,28.2593,长沙市,伍家岭,细颗粒物(PM2.5),108,88,98,81,74,40,,,,16,31,4,6,0.8,0.8
2026-02-06T0200,1341A,113.002,28.1944,长沙市,火车新站,细颗粒物(PM2.5),97,80,95,72,71,48,,,,14,33,2,2,1.0,1.1
2026-02-06T0200,1342A,112.9846,28.1177,长沙市,天心区环保局,细颗粒物(PM2.5),87,77,101,64,73,44,,,,16,33,5,6,0.6,0.7
2026-02-06T0200,1343A,112.8906,28.1307,长沙市,湖南中医药大学,细颗粒物(PM2.5),80,68,107,59,74,50,,,,14,32,5,7,1.0,1
2026-02-06T0200,1727A,113.1146,36.1547,长治市,清华站,颗粒物(PM10),72,93,82,34,41,52,,,,21,33,8,15,0.8,1
2026-02-06T0200,1730A,113.0887,36.2126,长治市,审计局,颗粒物(PM10),75,99,85,33,43,51,,,,18,34,9,16,0.8,0.8
2026-02-06T0200,1731A,113.0845,36.1856,长治市,长治八中,颗粒物(PM10),81,112,104,27,46,52,,,,15,31,9,17,0.6,0.9
2026-02-06T0200,2845A,113.1561,36.1912,长治市,德盛苑,颗粒物(PM10),66,82,71,23,42,52,,,,15,21,7,15,0.5,0.9
2026-02-06T0200,3568A,113.0603,36.0464,长治市,向阳小学,颗粒物(PM10),86,122,108,29,47,49,,,,21,31,15,23,1.1,1
2026-02-06T0200,3569A,112.8788,36.315,长治市,屯留一中,颗粒物(PM10),78,106,88,35,39,39,,,,36,39,14,19,1.5,1.2
2026-02-06T0200,4189A,113.113092,36.199482,长治市,英华南巷50号,颗粒物(PM10),77,103,89,27,43,53,,,,12,29,7,16,0.7,0.9
2026-02-06T0200,4190A,113.23666,36.33435,长治市,学府街1号,颗粒物(PM10),79,107,92,44,42,47,,,,26,40,15,19,1.0,1.4
2026-02-06T0200,1854A,111.696,28.9725,常德市,市二中,细颗粒物(PM2.5),107,109,138,80,97,9,,,,40,29,5,5,1.3,1.4
2026-02-06T0200,3138A,111.7152,29.0288,常德市,武陵区永安,细颗粒物(PM2.5),132,137,147,100,108,23,,,,32,30,4,4,1.3,1.3
2026-02-06T0200,3139A,111.6891,28.9881,常德市,鼎城区玉霞,细颗粒物(PM2.5),102,108,134,76,99,4,,,,54,34,4,6,1.2,1.3
2026-02-06T0200,3140A,111.6651,29.0526,常德市,武陵区长庚,细颗粒物(PM2.5),150,127,139,115,116,13,,,,33,28,4,4,1.1,1.1
2026-02-06T0200,1196A,119.9524,31.7586,常州市,市监测站,细颗粒物(PM2.5),172,193,126,130,87,97,,,,17,60,8,10,0.8,0.9
2026-02-06T0200,1200A,119.9351,31.703,常州市,武进监测站,细颗粒物(PM2.5),185,194,124,139,87,82,,,,19,61,8,11,1.0,1
2026-02-06T0200,3002A,119.9701,31.813,常州市,行政中心,细颗粒物(PM2.5),169,154,123,128,92,98,,,,15,55,5,8,0.9,0.9
2026-02-06T0200,3003A,120.0434,31.7726,常州市,经开区,细颗粒物(PM2.5),169,208,142,128,89,89,,,,13,56,5,8,0.9,1
2026-02-06T0200,3010A,119.8919,31.7892,常州市,钟楼,细颗粒物(PM2.5),175,175,123,132,88,91,,,,17,56,6,10,0.8,0.8
2026-02-06T0200,3429A,119.8595,31.706,常州市,武进经发区,细颗粒物(PM2.5),182,173,122,137,95,68,,,,16,61,6,9,1.1,1.2
2026-02-06T0200,3430A,119.5812,31.7256,常州市,金坛城区,细颗粒物(PM2.5),206,174,118,156,92,91,,,,14,44,6,9,0.9,0.8
2026-02-06T0200,4089A,119.9551,31.863,常州市,崇义南街5-H号,细颗粒物(PM2.5),185,159,125,139,96,95,,,,11,56,4,8,0.9,1
2026-02-06T0200,2220A,120.4318,41.588,朝阳市,西梁,,25,22,75,3,13,79,,,,5,13,4,7,0.3,0.4
2026-02-06T0200,2221A,120.452,41.565,朝阳市,河畔小区,,25,23,76,3,12,78,,,,4,9,8,9,0.3,0.4
2026-02-06T0200,2222A,120.4176,41.5648,朝阳市,八里堡,,24,22,83,3,14,75,,,,6,13,9,10,0.4,0.5
2026-02-06T0200,3026A,116.6179,23.6608,潮州市,市政府,细颗粒物(PM2.5),58,49,67,41,41,56,,,,23,22,11,6,0.6,0.6
2026-02-06T0200,4036A,116.646,23.676,潮州市,金山,,47,47,55,31,37,51,,,,16,19,2,4,0.6,0.6
2026-02-06T0200,2473A,113.0116,25.8228,郴州市,市职中,细颗粒物(PM2.5),137,104,81,104,68,22,,,,28,24,7,10,1.1,0.8
2026-02-06T0200,2475A,113.0381,25.8074,郴州市,市审计局,细颗粒物(PM2.5),119,114,80,90,61,31,,,,26,27,2,6,/,/
2026-02-06T0200,2476A,113.0348,25.7757,郴州市,市环保局,细颗粒物(PM2.5),180,,91,136,87,41,,,,28,31,7,15,0.8,0.7
2026-02-06T0200,4252A,113.0138,25.8011,郴州市,好美居路49号,细颗粒物(PM2.5),135,116,74,103,61,34,,,,32,27,5,8,/,/
2026-02-06T0200,1431A,103.9727,30.7242,成都市,金泉两河,细颗粒物(PM2.5),130,132,132,99,91,,,,,66,49,2,3,1.3,1.3
2026-02-06T0200,1432A,104.1423,30.6765,成都市,十里店,细颗粒物(PM2.5),89,120,134,66,80,27,,,,55,47,4,4,0.8,0.9
2026-02-06T0200,1433A,104.0594,30.5765,成都市,三瓦窑,细颗粒物(PM2.5),82,70,110,60,80,28,,,,65,50,2,3,0.8,1.1
2026-02-06T0200,1434A,104.1122,30.6306,成都市,沙河铺,细颗粒物(PM2.5),78,95,118,57,77,39,,,,41,49,3,3,0.9,1
2026-02-06T0200,2880A,104.0219,30.6561,成都市,大石西路,细颗粒物(PM2.5),132,138,132,100,98,7,,,,82,46,5,5,1.2,1.1
2026-02-06T0200,3136A,104.2724,30.559,成都市,龙泉驿区区政府,,,61,85,49,64,,,,,14,18,6,6,0.8,0.9
2026-02-06T0200,3357A,104.0028,30.6891,成都市,金博路,细颗粒物(PM2.5),130,146,128,99,94,,,,,68,49,4,5,1.2,1.2
2026-02-06T0200,3359A,104.056,30.5228,成都市,华阳,细颗粒物(PM2.5),77,80,102,56,77,43,,,,45,49,3,3,0.6,1.1
2026-02-06T0200,3488A,104.387954,30.746684,成都市,青石路225号,,,89,114,58,76,,,,,42,38,2,2,1.1,1.2
2026-02-06T0200,3489A,104.0788,30.4054,成都市,科学城,细颗粒物(PM2.5),79,78,91,58,70,34,,,,30,21,7,7,0.8,1
2026-02-06T0200,4011A,103.8505,30.6946,成都市,光华大道三段,细颗粒物(PM2.5),134,155,140,102,85,35,,,,49,44,3,3,1.0,1
2026-02-06T0200,4144A,104.3257,30.6406,成都市,八角井街185号,"颗粒物(PM10),细颗粒物(PM2.5)",68,85,105,49,71,58,,,,20,29,3,3,0.6,0.8
2026-02-06T0200,4224A,104.2433276,30.53529463,成都市,鲸龙路1057号,细颗粒物(PM2.5),70,73,93,51,64,53,,,,26,32,5,5,0.8,0.9
2026-02-06T0200,1062A,117.9531,40.908,承德市,铁路,,26,20,50,9,15,81,,,,1,9,3,3,0.2,0.4
2026-02-06T0200,1063A,117.9397,40.9763,承德市,中国银行,,32,32,49,3,14,80,,,,2,11,2,1,0.2,0.3
2026-02-06T0200,4073A,117.9462,40.95,承德市,杏林街1号,,25,18,43,3,16,80,,,,2,8,3,3,0.2,0.3
2026-02-06T0200,4274A,117.7994,40.9605,承德市,滨河大街98号,,24,22,46,3,11,74,,,,5,8,2,3,0.2,0.2
2026-02-06T0200,2314A,117.4698,30.6617,池州市,池州学院,细颗粒物(PM2.5),77,73,62,56,46,8,,,,69,47,14,5,1.4,1.4
2026-02-06T0200,3237A,117.4918,30.6617,池州市,展览馆,细颗粒物(PM2.5),88,84,68,65,52,2,,,,68,46,5,4,1.2,1.1
2026-02-06T0200,3333A,117.5626,30.695,池州市,第八中学,细颗粒物(PM2.5),68,68,63,49,43,20,,,,48,42,5,4,1.0,1.1
2026-02-06T0200,3334A,117.5037,30.6242,池州市,第十二中学,细颗粒物(PM2.5),62,61,58,44,43,30,,,,41,43,5,5,1.3,1.4
2026-02-06T0200,1744A,118.9229,42.2816,赤峰市,松山一中,,20,9,92,7,8,63,,,,5,9,2,2,0.6,0.6
2026-02-06T0200,1745A,118.9588,42.2733,赤峰市,哈达街,,22,18,48,3,8,68,,,,1,8,6,8,0.5,0.5
2026-02-06T0200,1746A,118.8792,42.2551,赤峰市,天义路,,23,12,35,8,8,71,,,,2,5,5,5,0.5,0.5
2026-02-06T0200,3058A,119.2656,42.0356,赤峰市,银河街,,30,30,75,9,13,53,,,,12,6,14,9,0.6,0.6
2026-02-06T0200,3286A,118.9359,42.3146,赤峰市,桥北物流园区,,25,10,30,3,7,79,,,,3,7,4,4,0.4,0.4
2026-02-06T0200,2521A,107.3473,22.4137,崇左市,市环保局江州分局,细颗粒物(PM2.5),99,92,88,74,65,24,,,,20,27,4,5,0.9,1
2026-02-06T0200,4256A,107.375,22.3736,崇左市,石景林东路7号,细颗粒物(PM2.5),97,93,68,72,55,3,,,,36,30,4,2,0.9,0.8
2026-02-06T0200,3207A,118.31131,32.3033,滁州市,市政府原办公楼,细颗粒物(PM2.5),201,160,100,151,84,99,,,,14,33,4,6,0.7,0.6
2026-02-06T0200,3331A,118.3268,32.2633,滁州市,图书馆,细颗粒物(PM2.5),152,163,86,116,60,88,,,,15,35,6,8,0.4,0.6
2026-02-06T0200,4101A,118.3196,32.3335,滁州市,银山路666号,细颗粒物(PM2.5),190,,94,143,83,94,,,,11,31,2,10,0.8,0.7
2026-02-06T0200,4102A,118.3426,32.2979,滁州市,黄山路555号,细颗粒物(PM2.5),178,178,113,134,76,93,,,,14,42,4,6,0.7,0.6
2026-02-06T0200,2606A,101.5379,25.0492,楚雄彝族自治州,市经济开发区,,36,36,23,20,14,27,,,,54,29,4,3,0.6,0.5
2026-02-06T0200,4153A,101.5536,25.0343,楚雄彝族自治州,团结路562号,,40,30,20,28,14,42,,,,18,12,4,4,0.6,0.5
2026-02-06T0200,2549A,107.5087,31.2186,达州市,市环境监测站,细颗粒物(PM2.5),97,104,122,72,87,6,,,,30,34,13,11,0.4,0.8
2026-02-06T0200,2550A,107.4988,31.2132,达州市,凤凰小区,细颗粒物(PM2.5),99,100,123,74,88,5,,,,37,36,13,11,0.7,0.8
2026-02-06T0200,2551A,107.5081,31.1987,达州市,达县机关宾馆,细颗粒物(PM2.5),112,114,125,84,89,4,,,,40,40,14,12,0.9,1
2026-02-06T0200,2552A,107.4644,31.2124,达州市,市政中心,细颗粒物(PM2.5),95,111,132,71,87,4,,,,42,41,10,9,0.9,1
2026-02-06T0200,2614A,100.2168,25.5818,大理白族自治州,大理市环境监测站,,24,20,21,13,14,76,,,,8,7,7,7,0.5,0.5
2026-02-06T0200,2615A,100.1542,25.7055,大理白族自治州,大理古城,,21,18,23,11,13,66,,,,8,6,8,8,0.6,0.6
2026-02-06T0200,1109A,121.6119,38.974,大连市,甘井子,颗粒物(PM10),71,92,110,10,41,70,,,,8,22,7,6,0.5,0.6
2026-02-06T0200,1110A,121.565,38.9509,大连市,周水子,颗粒物(PM10),66,82,110,8,46,70,,,,7,21,10,9,0.3,0.6
2026-02-06T0200,1111A,121.5637,38.8849,大连市,星海三站,颗粒物(PM10),61,72,95,3,37,65,,,,12,20,7,6,0.4,0.6
2026-02-06T0200,1112A,121.6301,38.9117,大连市,青泥洼桥,颗粒物(PM10),68,86,106,9,42,68,,,,12,25,8,8,0.3,0.6
2026-02-06T0200,1113A,121.6248,38.8643,大连市,傅家庄,颗粒物(PM10),51,52,77,8,30,65,,,,8,18,6,7,0.7,0.9
2026-02-06T0200,1114A,121.5117,38.8636,大连市,七贤岭,颗粒物(PM10),72,94,119,9,45,68,,,,11,18,9,9,0.5,0.7
2026-02-06T0200,1116A,121.7507,39.1339,大连市,金州,颗粒物(PM10),64,78,87,12,32,62,,,,12,22,7,8,0.4,0.6
2026-02-06T0200,1117A,121.7811,39.0495,大连市,开发区,颗粒物(PM10),70,89,101,9,35,69,,,,6,18,7,7,0.3,0.6
2026-02-06T0200,1118A,121.9762,39.0631,大连市,双D港,颗粒物(PM10),78,106,151,9,28,77,,,,10,18,8,8,0.5,0.8
2026-02-06T0200,4082A,121.2548,38.8188,大连市,旅顺,,49,49,78,8,33,64,,,,7,14,6,7,0.4,0.6
2026-02-06T0200,1789A,124.8085,46.0381,大庆市,大同区,,35,35,49,12,16,62,,,,2,7,5,6,0.3,0.4
2026-02-06T0200,1790A,125.1166,46.5255,大庆市,龙凤区,,23,23,41,12,14,58,,,,12,13,7,8,0.5,0.5
2026-02-06T0200,1791A,124.8894,46.4007,大庆市,红岗区,,28,28,45,10,13,54,,,,7,10,4,5,0.5,0.5
2026-02-06T0200,1792A,125.1391,46.578,大庆市,萨尔图区,,24,24,34,12,12,48,,,,14,15,9,9,0.4,0.4
2026-02-06T0200,1793A,124.9026,46.6217,大庆市,让胡路区,,23,23,31,9,13,62,,,,4,9,7,7,0.4,0.4
2026-02-06T0200,3481A,125.127,46.6277,大庆市,萨区政府监测点,,28,24,37,19,16,42,,,,19,7,8,8,0.6,0.5
2026-02-06T0200,1723A,113.2926,40.0759,大同市,云冈宾馆,,18,13,25,6,7,56,,,,11,8,6,6,0.3,0.3
2026-02-06T0200,1724A,113.3437,40.0921,大同市,大同大学,,20,8,30,3,10,64,,,,7,8,5,6,0.4,0.4
2026-02-06T0200,1725A,113.2637,40.129,大同市,安家小村,,19,7,24,3,6,60,,,,8,9,6,6,0.3,0.3
2026-02-06T0200,3282A,113.3399,40.0586,大同市,大同市卫生学校,,23,10,27,3,8,71,,,,9,9,5,4,0.9,0.5
2026-02-06T0200,3565A,113.1371,40.1122,大同市,云冈站,,20,10,27,3,9,61,,,,7,8,6,6,0.4,0.4
2026-02-06T0200,3566A,113.1186,40.2556,大同市,图书馆,,26,26,31,10,13,56,,,,17,13,7,7,1.5,0.8
2026-02-06T0200,3567A,113.5931,40.0459,大同市,区一中,,41,41,111,3,18,66,,,,5,18,8,9,0.4,0.4
2026-02-06T0200,4199A,113.2798248,40.09972476,大同市,魏都大道141号,,20,9,43,3,7,63,,,,7,7,4,5,0.3,0.4
2026-02-06T0200,2269A,124.1068,50.4091,大兴安岭地区,科技局,,24,24,24,10,12,60,,,,1,2,5,6,0.2,0.2
2026-02-06T0200,3663A,124.117,50.4279,大兴安岭地区,红旗社区,,22,,9,8,10,68,,,,2,2,5,6,0.1,0.1
2026-02-06T0200,1600A,124.33,40.0625,丹东市,江湾东路,颗粒物(PM10),117,183,107,11,30,68,,,,7,16,5,7,0.3,0.6
2026-02-06T0200,1601A,124.4242,40.1513,丹东市,临江后街,颗粒物(PM10),114,177,100,11,35,71,,,,4,14,4,7,0.4,0.7
2026-02-06T0200,1602A,124.3935,40.1461,丹东市,元宝山,颗粒物(PM10),110,170,94,10,27,68,,,,4,13,6,7,0.3,0.5
2026-02-06T0200,1603A,124.3634,40.1093,丹东市,民主桥,颗粒物(PM10),120,190,103,12,31,72,,,,5,16,6,8,0.4,0.6
2026-02-06T0200,3541A,109.5726195,19.51688767,儋州市,第一中学子站,,21,21,30,10,18,66,,,,5,5,6,6,0.6,0.6
2026-02-06T0200,3542A,109.5567,19.5187,儋州市,东坡学校子站,,25,25,28,10,13,70,,,,6,7,6,4,0.5,0.5
2026-02-06T0200,2616A,98.5611,24.4273,德宏傣族景颇族自治州,德宏州监测站,,38,37,58,26,41,28,,,,28,24,6,6,0.9,1
2026-02-06T0200,3677A,98.5887,24.4366,德宏傣族景颇族自治州,芒市人民政府综合楼,,31,31,59,16,33,39,,,,8,15,4,4,0.6,0.8
2026-02-06T0200,1901A,104.424,31.1209,德阳市,东山公园,细颗粒物(PM2.5),80,74,93,59,84,64,,,,10,20,1,2,0.9,1
2026-02-06T0200,1902A,104.3827,31.1318,德阳市,西小区,细颗粒物(PM2.5),92,95,113,68,90,21,,,,58,39,3,4,0.9,1
2026-02-06T0200,1904A,104.3553,31.1091,德阳市,耐火材料厂,细颗粒物(PM2.5),112,97,106,84,96,4,,,,65,43,1,2,0.9,1
2026-02-06T0200,4145A,104.4144,31.1495,德阳市,市林业局,细颗粒物(PM2.5),88,76,102,65,85,28,,,,44,40,4,4,0.9,1
2026-02-06T0200,1622A,116.3034,37.4675,德州市,儿童乐园,颗粒物(PM10),54,58,167,6,67,68,,,,17,35,11,14,0.7,1.1
2026-02-06T0200,1624A,116.2992,37.4449,德州市,监理站,颗粒物(PM10),57,63,170,3,66,75,,,,19,39,8,12,0.5,0.9
2026-02-06T0200,3066A,116.2722,37.438,德州市,九衢泉纯净水厂,颗粒物(PM10),53,56,161,3,71,71,,,,15,37,6,7,0.4,0.8
2026-02-06T0200,3371A,116.3693,37.44,德州市,开发区人民医院,颗粒物(PM10),56,61,170,6,66,74,,,,12,25,10,13,0.3,0.7
2026-02-06T0200,3511A,116.5687,37.3331,德州市,陵城艺术中心,颗粒物(PM10),53,56,175,6,77,50,,,,22,38,11,12,0.6,1
2026-02-06T0200,4292A,116.352738,37.420875,德州市,新河东路,颗粒物(PM10),52,53,158,3,58,69,,,,11,35,10,12,0.4,0.8
2026-02-06T0200,2621A,99.7054,27.8319,迪庆藏族自治州,迪庆州站,,32,32,20,14,11,68,,,,9,8,5,5,0.8,0.6
2026-02-06T0200,3180A,99.7122,27.8129,迪庆藏族自治州,质量技术监督局,,26,,21,16,12,82,,,,6,8,4,4,0.5,0.5
2026-02-06T0200,4257A,104.6092,35.5962,定西市,将台街,颗粒物(PM10),68,86,72,48,45,10,,,,52,29,20,15,0.8,0.9
2026-02-06T0200,4309A,104.6159,35.5701,定西市,正龙路62号,"颗粒物(PM10),细颗粒物(PM2.5)",73,95,77,53,43,30,,,,22,14,12,13,1.1,0.9
2026-02-06T0200,1390A,113.7943,23.0132,东莞市,东城石井,,33,33,51,16,28,27,,,,42,42,6,6,0.6,0.6
2026-02-06T0200,1391A,113.7384,22.9659,东莞市,南城西平,,45,40,45,22,30,0,,,,90,52,6,7,0.6,0.6
2026-02-06T0200,3319A,113.7283,23.041,东莞市,万江金泰,颗粒物(PM10),59,68,60,33,36,11,,,,73,47,6,6,1.0,0.9
2026-02-06T0200,4129A,113.8666,23.1062,东莞市,裕兴路,颗粒物(PM10),76,101,68,53,36,0,,,,75,42,6,7,1.1,0.9
2026-02-06T0200,4130A,114.0076,22.9739,东莞市,教育路1号,颗粒物(PM10),62,74,60,32,28,1,,,,92,53,4,5,0.7,0.7
2026-02-06T0200,4131A,113.7981,22.8124,东莞市,长怡路1号,,,74,63,30,31,,,,,77,60,7,7,0.8,0.8
2026-02-06T0200,1666A,118.6612,37.4313,东营市,市环保局,颗粒物(PM10),51,51,129,3,73,78,,,,15,32,6,12,0.4,0.8
2026-02-06T0200,3036A,118.6903,37.4337,东营市,开发区管委会,,46,46,134,3,72,80,,,,6,30,7,10,0.3,0.7
2026-02-06T0200,3365A,118.5721,37.5654,东营市,垦利区民丰路,,46,46,124,3,73,76,,,,8,33,4,9,0.5,0.9
2026-02-06T0200,3498A,118.5063,37.8606,东营市,河口城区,颗粒物(PM10),51,51,141,3,75,76,,,,12,36,3,15,0.6,1
2026-02-06T0200,3646A,118.4979,37.4623,东营市,胜利站,,37,37,128,3,65,71,,,,13,47,5,10,0.5,1
2026-02-06T0200,3734A,118.5753,37.4405,东营市,理想之城,颗粒物(PM10),51,51,116,3,70,63,,,,1,33,2,7,0.3,0.8
2026-02-06T0200,1591A,110.0024,39.8127,鄂尔多斯市,综合楼,颗粒物(PM10),78,105,72,12,11,16,,,,57,33,10,8,0.3,0.3
2026-02-06T0200,1592A,109.9485,39.8259,鄂尔多斯市,巴音孟克林场办事处,,41,41,58,9,11,42,,,,28,27,8,8,0.3,0.3
2026-02-06T0200,1593A,109.7734,39.5987,鄂尔多斯市,康泽苑,,48,48,50,24,13,18,,,,37,22,5,6,0.4,0.4
2026-02-06T0200,1594A,109.8121,39.5987,鄂尔多斯市,华泰汽车城,颗粒物(PM10),53,56,54,17,13,16,,,,46,27,6,6,0.3,0.3
2026-02-06T0200,1595A,109.9734,39.7884,鄂尔多斯市,奥林花园,颗粒物(PM10),64,78,58,3,9,24,,,,50,26,6,5,0.3,0.4
2026-02-06T0200,2436A,114.894,30.3989,鄂州市,市政府,细颗粒物(PM2.5),82,95,87,60,59,0,,,,54,48,7,6,1.2,1.1
2026-02-06T0200,2437A,114.8986,30.3714,鄂州市,赵家坝,细颗粒物(PM2.5),75,97,89,55,61,2,,,,48,40,9,9,0.9,1.2
2026-02-06T0200,3654A,114.8093,30.4091,鄂州市,精准医疗中心,细颗粒物(PM2.5),74,85,86,54,53,7,,,,59,43,22,10,1.0,1
2026-02-06T0200,2454A,109.4978,30.2979,恩施土家族苗族自治州,湖北民院,细颗粒物(PM2.5),158,139,107,120,94,3,,,,22,26,6,6,1.6,1.3
2026-02-06T0200,3549A,109.5061,30.3771,恩施土家族苗族自治州,龙凤新区,细颗粒物(PM2.5),118,128,98,89,74,0,,,,22,25,7,7,1.1,1
2026-02-06T0200,2499A,108.3411,21.6159,防城港市,沙万,,45,45,57,18,25,38,,,,34,38,6,7,0.5,0.6
2026-02-06T0200,2500A,108.3515,21.7733,防城港市,防城档案局,,35,30,47,24,32,39,,,,10,16,5,5,0.6,0.8
2026-02-06T0200,2501A,108.3506,21.6414,防城港市,大海花园,,33,33,46,21,28,55,,,,23,28,6,7,0.8,0.9
2026-02-06T0200,1371A,113.1293,23.0065,佛山市,湾梁,,36,36,56,16,24,34,,,,37,36,/,/,/,/
2026-02-06T0200,1372A,113.1082,23.0477,佛山市,华材职中,,43,39,52,30,43,41,,,,32,26,6,7,0.7,0.7
2026-02-06T0200,1373A,113.1439,23.045,佛山市,南海气象局,,37,37,51,23,30,17,,,,57,39,/,/,/,/
2026-02-06T0200,1374A,113.2879,22.8094,佛山市,顺德苏岗,,23,23,50,11,22,35,,,,38,41,/,/,0.8,0.7
2026-02-06T0200,1376A,112.8384,22.8678,佛山市,高明孔堂,,23,23,37,10,22,42,,,,16,17,/,/,/,/
2026-02-06T0200,1377A,112.8835,23.1584,佛山市,三水监测站,颗粒物(PM10),59,68,62,30,34,12,,,,70,58,2,3,0.6,0.6
2026-02-06T0200,1378A,112.8668,23.185,佛山市,三水云东海,,43,43,58,21,30,16,,,,52,44,/,/,/,/
2026-02-06T0200,3625A,113.2568,22.7629,佛山市,容桂街道办,,31,31,52,20,25,32,,,,42,38,/,/,/,/
2026-02-06T0200,1282A,119.2681,26.0506,福州市,师大,细颗粒物(PM2.5),64,,53,46,29,56,,,,25,33,3,4,0.4,0.5
2026-02-06T0200,1283A,119.2983,26.1028,福州市,五四北路,细颗粒物(PM2.5),54,,47,38,29,70,,,,22,30,4,5,0.4,0.6
2026-02-06T0200,1284A,119.2648,26.0769,福州市,杨桥西路,细颗粒物(PM2.5),90,,35,67,39,51,,,,33,33,4,5,/,/
2026-02-06T0200,3048A,119.5799,26.0937,福州市,九龙,,32,24,37,22,21,58,,,,18,27,4,5,0.5,0.6
2026-02-06T0200,3526A,119.5188,25.9666,福州市,吴航,细颗粒物(PM2.5),53,54,46,37,26,39,,,,27,31,4,6,0.5,0.6
2026-02-06T0200,4104A,119.3106,26.0648,福州市,路通桥巷6号,细颗粒物(PM2.5),67,64,52,48,29,54,,,,24,29,/,/,/,/
2026-02-06T0200,1755A,123.7974,41.8494,抚顺市,望花区,,39,39,192,6,34,66,,,,7,20,1,7,0.4,0.7
2026-02-06T0200,1756A,123.9161,41.8827,抚顺市,顺城区,,35,35,139,3,31,72,,,,11,19,7,9,0.4,0.6
2026-02-06T0200,1757A,124.0437,41.8615,抚顺市,东洲区,,48,48,199,3,20,68,,,,5,19,16,15,0.4,0.6
2026-02-06T0200,1758A,123.9246,41.8638,抚顺市,新抚区,颗粒物(PM10),53,55,221,3,32,79,,,,10,21,5,6,0.6,0.8
2026-02-06T0200,1759A,124.0972,41.8961,抚顺市,大伙房水库,,46,46,176,3,30,70,,,,10,19,10,10,0.4,0.6
2026-02-06T0200,1760A,123.708,41.8386,抚顺市,沈抚新城,,40,40,200,3,32,73,,,,11,25,4,7,0.3,0.4
2026-02-06T0200,2377A,116.3544,27.9833,抚州市,市站,细颗粒物(PM2.5),65,,66,47,50,48,,,,12,18,6,7,1.4,1.2
2026-02-06T0200,2378A,116.3562,27.9631,抚州市,血防站,细颗粒物(PM2.5),69,50,67,50,50,42,,,,10,18,5,7,1.3,1.1
2026-02-06T0200,2379A,116.3561,28.0007,抚州市,采茶剧团,细颗粒物(PM2.5),63,53,65,45,48,36,,,,11,15,4,6,1.5,1.3
2026-02-06T0200,2380A,116.3854,27.9648,抚州市,医学分院,细颗粒物(PM2.5),62,58,71,44,47,38,,,,14,18,5,7,1.3,1.2
2026-02-06T0200,2207A,121.6095,41.9978,阜新市,工业园区,,22,22,144,3,10,68,,,,5,8,9,7,0.3,0.4
2026-02-06T0200,2208A,121.6567,42.0188,阜新市,长青街,,24,6,97,3,9,74,,,,2,8,7,6,0.3,0.3
2026-02-06T0200,2209A,121.6672,42.07,阜新市,农业园区,,22,14,124,3,8,69,,,,5,7,7,5,0.1,0.1
2026-02-06T0200,2211A,121.6343,42.0455,阜新市,玉龙新城,,22,13,110,3,8,70,,,,4,10,5,6,0.3,0.4
2026-02-06T0200,2301A,115.8276,32.8929,阜阳市,市监测站,细颗粒物(PM2.5),199,209,142,149,94,81,,,,24,33,5,5,1.0,0.8
2026-02-06T0200,2303A,115.8551,32.8606,阜阳市,开发区,细颗粒物(PM2.5),190,204,138,143,93,78,,,,22,38,6,6,0.8,0.7
2026-02-06T0200,2875A,115.783962,32.889217,阜阳市,阜阳职业技术学院,细颗粒物(PM2.5),183,190,119,138,85,91,,,,21,26,8,7,0.9,0.8
2026-02-06T0200,3468A,115.79,32.8614,阜阳市,市规划展馆,细颗粒物(PM2.5),183,169,137,138,91,91,,,,21,24,9,7,0.9,0.8
2026-02-06T0200,3469A,115.835101,32.918568,阜阳市,枣园社区,细颗粒物(PM2.5),208,179,138,158,94,85,,,,23,33,9,7,1.1,0.9
2026-02-06T0200,2669A,102.9097,34.9841,甘南藏族自治州,州政府,颗粒物(PM10),58,66,57,40,38,83,,,,8,16,7,9,0.5,0.7
2026-02-06T0200,3380A,102.8915,34.9618,甘南藏族自治州,甘肃民族师范学院,颗粒物(PM10),68,86,67,31,33,84,,,,14,21,9,9,0.5,0.5
2026-02-06T0200,2570A,101.96,30.048,甘孜藏族自治州,水桥子,,26,26,18,16,10,63,,,,6,9,6,6,0.8,0.9
2026-02-06T0200,3065A,101.9534,29.9976,甘孜藏族自治州,州环保局,,22,21,17,14,12,70,,,,9,10,6,6,0.5,0.7
2026-02-06T0200,2363A,114.9368,25.8663,赣州市,地委,,,,51,,25,,,120,,,34,,8,,1.2
2026-02-06T0200,2364A,114.946,25.8483,赣州市,气象台,,48,48,50,30,28,20,,,,49,37,5,7,0.5,0.4
2026-02-06T0200,2365A,114.932,25.8332,赣州市,市图书馆,颗粒物(PM10),54,57,48,26,26,21,,,,51,37,4,4,1.1,0.9
2026-02-06T0200,2366A,114.8905,25.8472,赣州市,华坚鞋城,"颗粒物(PM10),细颗粒物(PM2.5)",57,63,49,40,29,31,,,,45,35,8,9,0.6,0.5
2026-02-06T0200,3109A,115.0094,25.8614,赣州市,赣县区卫计委,颗粒物(PM10),69,88,53,31,24,6,,,,57,35,8,8,1.1,0.8
2026-02-06T0200,2684A,106.2753,36.0057,固原市,监测站,颗粒物(PM10),85,119,62,54,31,35,,,,30,30,12,12,0.8,1
2026-02-06T0200,2685A,106.2384,36.0189,固原市,新区,颗粒物(PM10),90,130,69,59,32,34,,,,35,43,11,9,0.7,1
2026-02-06T0200,2544A,106.6307,30.4577,广安市,市委,细颗粒物(PM2.5),139,125,111,106,88,7,,,,42,28,6,7,1.2,1.1
2026-02-06T0200,2545A,106.6266,30.4662,广安市,友谊中学,细颗粒物(PM2.5),113,109,107,85,72,13,,,,32,24,6,6,1.1,1.1
2026-02-06T0200,2547A,106.6386,30.4551,广安市,广电花园,细颗粒物(PM2.5),160,,101,122,93,9,,,,28,23,6,7,1.0,0.9
2026-02-06T0200,2902A,106.6347,30.4868,广安市,北辰小学,细颗粒物(PM2.5),137,,107,104,92,18,,,,15,18,7,8,0.9,1
2026-02-06T0200,2524A,105.8211,32.4444,广元市,老城,细颗粒物(PM2.5),78,86,104,57,69,4,,,,56,53,10,16,1.1,1.5
2026-02-06T0200,2526A,105.8629,32.429,广元市,监测站,细颗粒物(PM2.5),89,74,85,66,67,13,,,,30,35,7,9,1.1,2
2026-02-06T0200,3617A,105.8047,32.4167,广元市,经开区,细颗粒物(PM2.5),127,136,125,96,88,1,,,,55,50,7,24,1.8,2
2026-02-06T0200,1345A,113.2346,23.1423,广州市,广雅中学,,45,45,53,25,29,18,,,,61,49,4,3,1.0,1.1
2026-02-06T0200,1346A,113.2611,23.105,广州市,市五中,颗粒物(PM10),51,52,54,29,28,4,,,,76,51,7,7,/,/
2026-02-06T0200,1348A,113.3477,23.0916,广州市,广东商学院,颗粒物(PM10),54,57,51,35,33,0,,,,90,59,6,6,0.7,0.7
2026-02-06T0200,1349A,113.4332,23.105,广州市,市八十六中,二氧化氮(NO2),52,30,47,15,25,0,,,,103,75,10,10,/,/
2026-02-06T0200,1350A,113.3506,22.9488,广州市,番禺中学,颗粒物(PM10),67,83,83,24,24,8,,,,69,42,2,3,0.9,0.8
2026-02-06T0200,1351A,113.2147,23.3918,广州市,花都师范,颗粒物(PM10),62,74,66,41,36,14,,,,94,79,6,6,0.9,0.8
2026-02-06T0200,1352A,113.2599,23.1329,广州市,市监测站,颗粒物(PM10),51,52,55,30,31,11,,,,75,50,3,3,/,/
2026-02-06T0200,1353A,113.5618,23.3119,广州市,九龙镇镇龙,颗粒物(PM10),61,71,74,42,44,15,,,,74,50,5,5,0.8,0.7
2026-02-06T0200,1354A,113.2764,23.1544,广州市,麓湖,颗粒物(PM10),53,56,54,26,29,2,,,,87,63,3,4,0.7,0.7
2026-02-06T0200,2846A,113.3209,23.1323,广州市,体育西,颗粒物(PM10),55,59,56,28,28,1,,,,95,59,6,7,1.0,0.9
2026-02-06T0200,3298A,113.5718,23.5493,广州市,从化街口,"颗粒物(PM10),细颗粒物(PM2.5)",65,79,70,47,46,10,,,,64,48,6,7,0.9,0.8
2026-02-06T0200,3299A,113.3463,23.369,广州市,白云竹料,颗粒物(PM10),64,78,83,39,47,2,,,,91,63,4,4,0.8,0.8
2026-02-06T0200,3300A,113.2981,23.2365,广州市,白云嘉禾,颗粒物(PM10),54,58,67,25,35,0,,,,91,66,6,6,/,/
2026-02-06T0200,3301A,113.4256,23.1716,广州市,黄埔科学城,,39,38,62,19,38,1,,,,77,66,2,4,0.6,0.7
2026-02-06T0200,3302A,113.3942,23.0485,广州市,番禺大学城,颗粒物(PM10),64,77,83,30,38,10,,,,77,53,8,9,0.6,0.6
2026-02-06T0200,3303A,113.4923,22.8169,广州市,南沙黄阁,,33,33,45,10,26,11,,,,65,43,4,4,/,/
2026-02-06T0200,3304A,113.534,22.7893,广州市,南沙街,,28,28,42,13,21,38,,,,43,37,5,4,0.5,0.6
2026-02-06T0200,3443A,113.2905,23.5541,广州市,花都梯面,颗粒物(PM10),51,51,55,26,33,24,,,,52,38,5,5,/,/
2026-02-06T0200,3445A,113.786,23.7479,广州市,从化良口,,22,22,31,15,26,50,,,,14,20,7,7,/,/
2026-02-06T0200,3446A,113.805,23.2614,广州市,增城荔城,颗粒物(PM10),51,52,55,30,34,16,,,,43,31,5,6,0.6,0.6
2026-02-06T0200,2506A,109.604387,23.066791,贵港市,江南子站,细颗粒物(PM2.5),100,97,85,75,51,16,,,,46,35,7,8,1.0,1
2026-02-06T0200,2508A,109.5669,23.1065,贵港市,荷城子站,细颗粒物(PM2.5),97,105,71,72,45,6,,,,53,34,7,7,1.6,1.2
2026-02-06T0200,3405A,109.5886,23.1172,贵港市,新世纪学校,细颗粒物(PM2.5),159,136,86,121,62,8,,,,56,41,/,/,1.0,0.8
2026-02-06T0200,4260A,109.5933,23.095,贵港市,中山路155-3号,细颗粒物(PM2.5),124,119,83,94,59,8,,,,44,30,/,/,1.3,1
2026-02-06T0200,1439A,106.6863,26.6035,贵阳市,马鞍山,,39,31,26,27,19,27,,,,13,16,3,5,/,/
2026-02-06T0200,1441A,106.6241,26.6266,贵阳市,鉴湖路,,24,24,32,13,21,40,,,,14,20,2,2,0.6,0.7
2026-02-06T0200,1442A,106.7468,26.6344,贵阳市,燕子冲,,45,39,32,31,24,32,,,,14,16,6,8,0.7,0.7
2026-02-06T0200,1443A,106.6556,26.4362,贵阳市,碧云窝,,34,34,41,21,22,31,,,,15,22,15,18,/,/
2026-02-06T0200,1445A,106.6963,26.6063,贵阳市,红边门,,35,24,28,24,20,41,,,,15,20,8,11,/,/
2026-02-06T0200,1446A,106.7162383,26.56964667,贵阳市,新华路,,40,36,35,28,20,39,,,,18,24,6,8,0.6,0.8
2026-02-06T0200,1447A,106.6742,26.542,贵阳市,太慈桥,,35,24,29,24,20,33,,,,18,22,2,4,/,/
2026-02-06T0200,4230A,106.688212,26.56952,贵阳市,花果园大街66号,,32,29,24,22,20,33,,,,15,20,2,4,/,/
2026-02-06T0200,4231A,106.687268,26.516892,贵阳市,漓江路57号,,40,31,33,28,21,32,,,,18,24,5,8,0.9,0.9
2026-02-06T0200,1864A,110.3091,25.2705,桂林市,龙隐路小学,细颗粒物(PM2.5),80,75,89,59,76,0,,,,40,39,3,4,1.0,1.1
2026-02-06T0200,1865A,110.2849361,25.22909545,桂林市,八中,颗粒物(PM10),68,85,94,46,61,1,,,,42,43,4,6,1.3,1.3
2026-02-06T0200,3531A,110.296,25.1254,桂林市,旅游学院,细颗粒物(PM2.5),113,96,110,85,105,2,,,,40,37,7,7,1.3,0.9
2026-02-06T0200,4222A,110.1835,25.2444,桂林市,环湖路276号,细颗粒物(PM2.5),110,102,108,83,93,3,,,,41,43,9,9,1.7,1.5
2026-02-06T0200,4301A,110.2803,25.2773,桂林市,信义路13号,细颗粒物(PM2.5),108,94,90,81,81,6,,,,38,42,6,8,1.9,1.6
2026-02-06T0200,2674A,100.2262,34.4854,果洛藏族自治州,玛沁县大武镇,颗粒物(PM10),87,123,70,31,15,116,,,,2,4,18,14,0.1,0.3
2026-02-06T0200,1130A,126.5557,45.8109,哈尔滨市,松北商大,,23,19,50,16,37,61,,,,7,18,7,8,0.6,0.7
2026-02-06T0200,1132A,126.6162,45.719,哈尔滨市,南岗学府路,,25,25,49,9,24,46,,,,32,18,45,14,0.6,0.7
2026-02-06T0200,1133A,126.6894,45.7733,哈尔滨市,太平宏伟公园,,19,18,55,13,39,56,,,,4,10,22,13,0.6,0.6
2026-02-06T0200,1134A,126.6361,45.7672,哈尔滨市,道外承德广场,,43,43,89,13,30,60,,,,13,20,13,11,0.8,0.5
2026-02-06T0200,1136A,126.644,45.7261,哈尔滨市,动力和平路,,21,21,45,14,26,52,,,,14,15,14,8,0.8,0.8
2026-02-06T0200,1137A,126.5933,45.7479,哈尔滨市,道里建国路,,25,17,43,17,31,46,,,,24,23,15,10,0.5,0.3
2026-02-06T0200,1138A,126.6127,45.6119,哈尔滨市,平房东轻厂,,25,25,38,9,23,58,,,,8,19,1,4,2.0,0.7
2026-02-06T0200,1139A,126.5875,45.9827,哈尔滨市,呼兰师专,,18,13,61,8,30,55,,,,5,11,8,10,0.7,0.9
2026-02-06T0200,1140A,126.6299,45.6799,哈尔滨市,省农科院,,21,21,41,14,27,61,,,,6,12,9,11,0.6,0.7
2026-02-06T0200,4282A,126.6769,45.7379,哈尔滨市,华山路1号,,19,14,46,13,31,53,,,,10,19,3,6,0.6,0.7
2026-02-06T0200,4283A,126.9717,45.5356,哈尔滨市,解放大街52号,,22,22,41,8,25,47,,,,11,16,10,13,0.5,0.7
2026-02-06T0200,2688A,93.5124,42.8176,哈密市,地区监测站,,41,41,69,28,31,76,,,,5,11,4,7,0.2,0.2
2026-02-06T0200,2689A,93.5014,42.8312,哈密市,哈密师范学校,,30,30,78,21,26,79,,,,7,18,4,4,0.3,0.5
2026-02-06T0200,2671A,100.9016,36.9464,海北藏族自治州,海晏县西海镇,颗粒物(PM10),60,70,48,13,31,95,,,,1,7,6,10,0.3,0.6
2026-02-06T0200,3867A,102.074,36.5056,海东市,平安区公安局北苑,细颗粒物(PM2.5),67,62,67,48,53,72,,,,13,17,24,18,0.7,0.9
2026-02-06T0200,4163A,102.0984,36.5119,海东市,滨河路,颗粒物(PM10),54,58,69,34,43,78,,,,23,36,20,19,0.7,0.9
2026-02-06T0200,1410A,110.3189,20.0596,海口市,海南大学,,24,24,29,11,13,64,,,,7,8,5,5,0.4,0.4
2026-02-06T0200,1411A,110.2827,20.0051,海口市,秀英海南医院,,28,28,34,14,16,43,,,,22,10,7,7,0.4,0.4
2026-02-06T0200,1412A,110.3391,19.9979,海口市,海南师范大学,,26,26,34,14,16,60,,,,6,8,5,5,0.5,0.4
2026-02-06T0200,1413A,110.3303,20.0359,海口市,龙华路环保局宿舍,,22,21,32,12,16,69,,,,8,10,/,/,0.7,0.7
2026-02-06T0200,3539A,110.5111,19.9737,海口市,桂林洋子站,,24,24,27,13,15,56,,,,6,7,/,/,/,/
2026-02-06T0200,4134A,110.1952,20.0451,海口市,长滨二路9号,,19,19,25,10,14,58,,,,6,9,/,/,/,/
2026-02-06T0200,2673A,100.6158,36.2985,海南藏族自治州,共和县恰卜恰镇,,45,45,38,7,14,102,,,,1,8,10,12,0.3,0.3
2026-02-06T0200,2676A,97.373,37.376,海西蒙古族藏族自治州,德令哈市,,38,38,33,15,10,87,,,,9,7,7,11,0.5,0.4
2026-02-06T0200,1049A,114.492,36.5712,邯郸市,矿院,颗粒物(PM10),60,70,116,29,72,59,,,,10,24,3,8,0.4,0.9
2026-02-06T0200,1050A,114.4839,36.6136,邯郸市,丛台公园,颗粒物(PM10),75,100,124,33,61,58,,,,16,30,4,12,0.4,1.1
2026-02-06T0200,3458A,114.7893,36.5592,邯郸市,香泉濮院小区,颗粒物(PM10),74,97,150,29,63,58,,,,14,28,3,8,0.4,0.8
2026-02-06T0200,3580A,114.1998,36.4439,邯郸市,峰峰矿区临水派出所,颗粒物(PM10),57,63,78,31,31,65,,,,5,8,6,12,0.5,0.7
2026-02-06T0200,4068A,114.5209,36.7697,邯郸市,建安街268号,颗粒物(PM10),68,85,112,44,59,36,,,,18,33,3,7,0.4,0.8
2026-02-06T0200,4069A,114.5488,36.6177,邯郸市,丛台东路558号,颗粒物(PM10),62,74,121,41,65,57,,,,8,33,2,9,0.4,1
2026-02-06T0200,2635A,107.0155,33.0707,汉中市,市监测站,细颗粒物(PM2.5),132,133,101,100,75,14,,,,58,41,15,7,1.8,1.4
2026-02-06T0200,2636A,107.0083,33.114,汉中市,鑫源开发区,细颗粒物(PM2.5),118,114,96,89,74,13,,,,58,41,17,10,1.7,1.3
2026-02-06T0200,2637A,107.0072,33.0323,汉中市,南郑大河坎水厂,细颗粒物(PM2.5),130,115,102,99,68,7,,,,42,33,7,7,1.5,1.2
2026-02-06T0200,1223A,120.2073,30.2111,杭州市,滨江,细颗粒物(PM2.5),115,106,108,87,80,44,,,,36,71,7,7,1.1,1
2026-02-06T0200,1224A,120.0625,30.2737,杭州市,西溪,细颗粒物(PM2.5),92,113,97,68,66,9,,,,61,48,9,8,1.2,1
2026-02-06T0200,1226A,120.3417,30.315,杭州市,下沙,细颗粒物(PM2.5),119,136,123,90,87,1,,,,79,83,8,8,0.7,0.7
2026-02-06T0200,1227A,120.1252,30.2465,杭州市,卧龙桥,细颗粒物(PM2.5),87,106,94,64,64,20,,,,45,48,8,9,0.6,0.5
2026-02-06T0200,1228A,120.1902,30.2691,杭州市,浙江农大,细颗粒物(PM2.5),102,102,104,76,73,12,,,,75,79,5,6,0.9,0.9
2026-02-06T0200,1230A,120.1195,30.3121,杭州市,和睦小学,细颗粒物(PM2.5),115,133,118,87,80,13,,,,53,62,5,6,1.0,1
2026-02-06T0200,1231A,120.3076,30.4146,杭州市,临平镇,细颗粒物(PM2.5),114,111,115,86,86,0,,,,56,66,7,7,1.0,0.9
2026-02-06T0200,1232A,120.2753,30.1839,杭州市,城厢镇,细颗粒物(PM2.5),104,120,115,78,81,53,,,,38,74,10,9,1.1,1
2026-02-06T0200,1233A,120.0883,30.1808,杭州市,云栖,细颗粒物(PM2.5),80,95,76,59,51,39,,,,49,51,6,5,0.9,0.7
2026-02-06T0200,3557A,119.9463,30.0496,杭州市,镇二中,细颗粒物(PM2.5),93,71,86,69,78,84,,,,23,54,5,5,1.0,1.1
2026-02-06T0200,3558A,119.7184,30.2367,杭州市,市府大楼,细颗粒物(PM2.5),77,,74,56,71,52,,,,14,38,10,10,1.0,1
2026-02-06T0200,3656A,120.1554,30.2863,杭州市,消防大队,细颗粒物(PM2.5),129,133,120,98,85,8,,,,67,68,7,7,1.0,1
2026-02-06T0200,1270A,117.1957,31.7845,合肥市,明珠广场,细颗粒物(PM2.5),122,127,105,92,62,78,,,,22,79,7,7,0.7,0.9
2026-02-06T0200,1271A,117.307,31.8765,合肥市,三里街,细颗粒物(PM2.5),156,151,110,119,72,66,,,,28,60,6,7,0.9,1
2026-02-06T0200,1272A,117.2587,31.8703,合肥市,琥珀山庄,细颗粒物(PM2.5),143,151,107,109,66,70,,,,26,50,7,8,1.0,1.2
2026-02-06T0200,1275A,117.2593,31.9376,合肥市,庐阳区,细颗粒物(PM2.5),145,156,116,111,71,71,,,,27,55,6,7,1.0,1
2026-02-06T0200,1276A,117.345251,31.861615,合肥市,瑶海区,细颗粒物(PM2.5),142,153,106,108,62,74,,,,32,69,6,6,0.8,0.9
2026-02-06T0200,1277A,117.3033,31.7967,合肥市,包河区,细颗粒物(PM2.5),133,136,105,101,61,60,,,,43,86,8,10,1.0,1
2026-02-06T0200,1278A,117.278,31.7392,合肥市,滨湖新区,细颗粒物(PM2.5),114,127,99,86,59,68,,,,28,59,4,4,0.9,0.9
2026-02-06T0200,1279A,117.1324,31.8395,合肥市,高新区,细颗粒物(PM2.5),140,136,100,107,61,68,,,,26,49,5,5,0.9,0.8
2026-02-06T0200,3464A,117.3802,31.9148,合肥市,高教基地,细颗粒物(PM2.5),152,173,101,116,61,75,,,,30,44,9,10,0.9,0.7
2026-02-06T0200,4098A,117.2518,31.8404,合肥市,中国科学技术大学,细颗粒物(PM2.5),135,141,103,103,62,75,,,,20,54,7,10,1.0,1.1
2026-02-06T0200,3614A,79.9241,37.0878,和田地区,地区环保局,颗粒物(PM10),269,398,506,137,62,34,,,,54,17,11,3,2.9,0.8
2026-02-06T0200,3615A,79.9132,37.1137,和田地区,市环保局,颗粒物(PM10),233,373,431,82,43,35,,,,44,25,6,3,1.3,0.7
2026-02-06T0200,2517A,108.0496,24.6957,河池市,市环保站,细颗粒物(PM2.5),190,158,134,143,124,2,,,,29,32,3,4,1.6,1.4
2026-02-06T0200,4302A,108.0901,24.6945,河池市,上任中路54号,细颗粒物(PM2.5),212,194,135,162,121,2,,,,34,33,6,6,2.4,1.7
2026-02-06T0200,1697A,114.6962,23.7538,河源市,东埔,,47,47,50,32,35,10,,,,46,42,6,6,0.8,1
2026-02-06T0200,1698A,114.6895,23.7232,河源市,老城,,28,28,37,18,26,2,,,,51,27,6,6,0.6,0.7
2026-02-06T0200,3374A,115.5562,35.089,菏泽市,定陶老年大学,颗粒物(PM10),75,100,184,28,115,52,,,,21,37,7,7,0.4,0.9
2026-02-06T0200,4114A,115.4239,35.2593,菏泽市,黄河路600号,颗粒物(PM10),78,105,188,33,104,57,,,,20,50,3,5,0.5,1
2026-02-06T0200,4115A,115.5025,35.2727,菏泽市,菏泽市人社局,颗粒物(PM10),71,92,182,27,113,50,,,,24,50,9,12,0.5,1.1
2026-02-06T0200,4184A,115.479691,35.244011,菏泽市,永昌路1号,颗粒物(PM10),79,107,188,28,110,58,,,,16,40,5,6,0.5,0.9
2026-02-06T0200,4193A,115.471542,35.280012,菏泽市,长城路999号,颗粒物(PM10),79,107,188,30,102,50,,,,23,49,6,6,0.7,1.2
2026-02-06T0200,2514A,111.5264,24.4178,贺州市,环保小区,细颗粒物(PM2.5),92,80,87,68,58,5,,,,35,41,4,4,1.0,0.9
2026-02-06T0200,2515A,111.561,24.4074,贺州市,政协大楼,细颗粒物(PM2.5),79,83,70,58,48,2,,,,42,35,5,8,1.1,1
2026-02-06T0200,3534A,111.4744,24.455,贺州市,西湾,颗粒物(PM10),84,117,83,54,50,12,,,,29,39,5,5,0.9,0.9
2026-02-06T0200,2385A,114.17,35.9019,鹤壁市,市监测站,细颗粒物(PM2.5),68,83,96,49,53,62,,,,18,25,6,8,0.5,0.7
2026-02-06T0200,2386A,114.2953,35.7512,鹤壁市,市交警支队,颗粒物(PM10),77,104,130,52,73,50,,,,24,36,7,9,0.6,0.8
2026-02-06T0200,2387A,114.2877,35.7302,鹤壁市,迎宾馆,颗粒物(PM10),81,112,142,54,68,54,,,,18,33,4,6,0.7,0.9
2026-02-06T0200,3474A,114.2616,35.6824,鹤壁市,大新区,颗粒物(PM10),83,115,126,54,73,58,,,,21,33,9,9,0.7,1
2026-02-06T0200,3596A,114.1573,35.9607,鹤壁市,南山宾馆,颗粒物(PM10),76,102,113,51,54,60,,,,14,16,8,9,0.6,0.6
2026-02-06T0200,2244A,130.2537,47.3416,鹤岗市,哈啤分公司,,24,24,20,14,10,76,,,,2,4,6,7,0.3,0.3
2026-02-06T0200,2245A,130.2683,47.3087,鹤岗市,斯达机电,,29,29,29,3,9,70,,,,2,9,5,6,0.5,0.6
2026-02-06T0200,2246A,130.3114,47.3388,鹤岗市,东山纸板厂,,38,38,48,16,12,69,,,,1,10,7,11,0.4,0.5
2026-02-06T0200,2263A,127.4832,50.2524,黑河市,交通局,,22,,18,13,15,68,,,,2,5,5,5,0.2,0.3
2026-02-06T0200,2264A,127.5146,50.2339,黑河市,环保局,,20,13,20,9,12,63,,,,7,9,5,5,0.5,0.5
2026-02-06T0200,1074A,115.6839,37.754,衡水市,电机北厂,颗粒物(PM10),67,84,152,24,66,35,,,,35,37,5,9,0.2,0.4
2026-02-06T0200,1075A,115.6303,37.7318,衡水市,市监测站,颗粒物(PM10),70,90,138,24,59,42,,,,32,40,8,9,0.1,0.6
2026-02-06T0200,3188A,115.6684,37.7216,衡水市,市城管局,颗粒物(PM10),73,96,166,32,60,43,,,,24,39,7,11,0.3,0.7
2026-02-06T0200,3459A,115.599,37.5491,衡水市,地表水厂,颗粒物(PM10),69,88,138,20,69,42,,,,19,31,4,8,0.4,0.6
2026-02-06T0200,2457A,112.6209,26.9268,衡阳市,衡阳化工总厂,,,,97,53,84,43,,,,10,27,,15,1.0,1.2
2026-02-06T0200,2458A,112.621,26.8957,衡阳市,珠晖区环保局,细颗粒物(PM2.5),58,48,92,41,71,45,,,,14,33,3,10,1.1,1.4
2026-02-06T0200,2459A,112.628,26.8654,衡阳市,市委党校,细颗粒物(PM2.5),62,44,90,44,79,48,,,,9,27,7,15,1.1,1.4
2026-02-06T0200,2460A,112.6007,26.8977,衡阳市,市监测站,细颗粒物(PM2.5),57,56,117,40,73,42,,,,13,33,5,12,1.1,1.3
2026-02-06T0200,2461A,112.5658,26.9013,衡阳市,真空机电公司,细颗粒物(PM2.5),75,69,104,55,88,44,,,,15,35,9,18,1.2,1.4
2026-02-06T0200,3399A,112.6703,26.8817,衡阳市,师范学院,细颗粒物(PM2.5),59,58,98,42,68,43,,,,20,39,2,9,1.0,1.2
2026-02-06T0200,3038A,103.3757,23.3679,红河哈尼族彝族自治州,州图书馆,,33,33,37,23,27,71,,,,7,10,12,9,0.6,0.6
2026-02-06T0200,4154A,103.401,23.3561,红河哈尼族彝族自治州,蒙自市朝阳路,,26,22,24,18,23,74,,,,3,7,6,7,0.3,0.4
2026-02-06T0200,1090A,111.6506,40.7517,呼和浩特市,呼市一监,,23,,15,15,12,72,,,,8,8,8,7,0.3,0.3
2026-02-06T0200,1094A,111.7516,40.8369,呼和浩特市,如意水处理厂,,23,9,15,3,6,72,,,,5,7,8,9,0.2,0.1
2026-02-06T0200,1095A,111.727798,40.806187,呼和浩特市,二十九中,,23,6,15,3,6,71,,,,3,5,9,11,0.3,0.3
2026-02-06T0200,1097A,111.717,40.7617,呼和浩特市,化肥厂生活区,,22,10,16,3,5,70,,,,6,8,4,5,0.2,0.2
2026-02-06T0200,3699A,111.6519,40.8389,呼和浩特市,海东办,,22,6,9,3,5,69,,,,8,7,5,4,0.3,0.3
2026-02-06T0200,4275A,111.591512,40.827312,呼和浩特市,成吉思汗西街8号,,20,12,16,3,6,64,,,,5,5,10,6,0.3,0.2
2026-02-06T0200,4276A,111.6597,40.8077,呼和浩特市,公园东路75号,,20,9,11,3,6,64,,,,10,11,7,6,0.3,0.3
2026-02-06T0200,4277A,111.5427,40.7846,呼和浩特市,金海路35号,,22,11,24,3,6,70,,,,6,8,9,6,0.3,0.3
2026-02-06T0200,3061A,119.7511,49.1576,呼伦贝尔市,国华电力东,,22,22,25,12,12,67,,,,8,11,6,6,0.2,0.3
2026-02-06T0200,4279A,119.7569,49.2222,呼伦贝尔市,伊敏大街东7号,,35,35,28,15,14,69,,,,7,6,6,6,0.7,0.5
2026-02-06T0200,1250A,120.075,30.867,湖州市,城西水厂,,,,94,,74,,,26,,,68,,6,,0.7
2026-02-06T0200,2873A,120.083,30.8929,湖州市,仁皇山新区,细颗粒物(PM2.5),113,120,97,85,68,11,,,,84,75,6,6,1.3,1.2
2026-02-06T0200,2907A,120.1846,30.8592,湖州市,吴兴区站,细颗粒物(PM2.5),130,136,114,99,84,7,,,,72,68,6,6,1.0,0.9
2026-02-06T0200,3562A,120.4146,30.8538,湖州市,南浔区站,细颗粒物(PM2.5),129,134,125,98,87,16,,,,83,71,9,8,1.0,0.9
2026-02-06T0200,1607A,120.904878,40.721091,葫芦岛市,龙港区,,21,20,156,7,29,67,,,,5,17,6,9,0.5,0.6
2026-02-06T0200,1608A,120.8382,40.7521,葫芦岛市,化工街,,21,17,130,3,28,66,,,,8,19,14,17,0.3,0.4
2026-02-06T0200,1609A,120.8339,40.7078,葫芦岛市,新区,,23,23,100,8,28,72,,,,6,22,12,11,0.4,0.6
2026-02-06T0200,1610A,120.8697,40.7679,葫芦岛市,东城区,,22,,98,3,28,68,,,,6,15,13,17,0.4,0.5
2026-02-06T0200,2483A,109.9297,27.5383,怀化市,河西地税局,细颗粒物(PM2.5),79,84,105,58,60,40,,,,14,22,3,2,/,/
2026-02-06T0200,2484A,109.9783,27.5342,怀化市,市四医院,颗粒物(PM10),63,76,110,41,56,19,,,,12,15,7,8,0.8,0.9
2026-02-06T0200,2485A,109.9971,27.5579,怀化市,监测楼,细颗粒物(PM2.5),77,85,101,56,64,18,,,,15,19,3,5,0.3,0.4
2026-02-06T0200,1210A,119.0566,33.5991,淮安市,钵池山,颗粒物(PM10),62,73,129,13,102,75,,,,8,31,7,10,0.3,1
2026-02-06T0200,1211A,119.0083,33.578,淮安市,北京南路,颗粒物(PM10),64,78,129,13,99,73,,,,5,36,6,9,0.3,0.9
2026-02-06T0200,1212A,118.9938,33.6083,淮安市,市监测站,颗粒物(PM10),62,73,126,12,102,70,,,,9,36,8,11,0.3,0.8
2026-02-06T0200,1213A,119.135,33.5038,淮安市,楚州区监测站,颗粒物(PM10),63,76,143,12,108,70,,,,6,38,6,9,0.4,0.9
2026-02-06T0200,3426A,118.8757,33.2897,淮安市,新华书店,颗粒物(PM10),65,80,144,37,108,74,,,,8,35,7,10,0.5,0.9
2026-02-06T0200,4092A,119.119691,33.550006,淮安市,枚皋中路89号,颗粒物(PM10),66,82,137,13,106,73,,,,5,27,8,10,0.2,0.7
2026-02-06T0200,4206A,119.028838,33.631911,淮安市,承德北路606号,颗粒物(PM10),69,88,148,12,97,76,,,,3,37,6,9,0.4,0.9
2026-02-06T0200,2282A,116.8005,33.9749,淮北市,监测站,颗粒物(PM10),121,191,178,48,110,55,,,,20,37,6,6,0.7,1.1
2026-02-06T0200,2283A,116.8094,33.9008,淮北市,烈山区政府,颗粒物(PM10),112,173,173,49,113,45,,,,18,36,4,6,0.6,0.7
2026-02-06T0200,4017A,116.7926,33.9534,淮北市,市博物馆,颗粒物(PM10),114,177,193,52,116,53,,,,19,35,5,5,0.6,0.9
2026-02-06T0200,4100A,116.8322,33.9884,淮北市,杜集区第一实验学校,颗粒物(PM10),103,156,179,45,119,58,,,,15,30,5,6,0.5,0.9
2026-02-06T0200,2277A,116.8304,32.7726,淮南市,潘集区政府,细颗粒物(PM2.5),196,206,148,147,100,81,,,,17,41,6,8,0.9,0.8
2026-02-06T0200,2279A,116.8569,32.5949,淮南市,谢家集区政府,细颗粒物(PM2.5),186,183,114,140,71,88,,,,21,29,9,10,1.0,0.9
2026-02-06T0200,2280A,116.8279,32.6333,淮南市,八公山区政府,细颗粒物(PM2.5),198,187,120,148,83,86,,,,22,23,5,6,1.0,0.8
2026-02-06T0200,2894A,117.0561,32.6536,淮南市,经济技术开发区消防队,细颗粒物(PM2.5),190,179,128,143,84,81,,,,26,52,4,7,0.8,0.6
2026-02-06T0200,3329A,117.011,32.5891,淮南市,山南新区,细颗粒物(PM2.5),173,187,112,131,70,93,,,,19,30,8,9,0.9,0.7
2026-02-06T0200,4209A,117.003137,32.644456,淮南市,国庆中路369号,细颗粒物(PM2.5),190,180,115,143,81,82,,,,20,40,7,8,0.8,0.8
2026-02-06T0200,2446A,114.9021,30.474,黄冈市,职工中心,细颗粒物(PM2.5),83,92,80,61,63,0,,,,56,36,8,6,1.1,0.9
2026-02-06T0200,2929A,114.8858,30.4519,黄冈市,红卫路,细颗粒物(PM2.5),75,86,82,55,58,6,,,,57,35,8,7,0.9,1
2026-02-06T0200,3398A,114.9134,30.4446,黄冈市,市林业局,细颗粒物(PM2.5),93,84,86,69,66,9,,,,54,33,3,4,0.9,0.9
2026-02-06T0200,2672A,102.02,35.5101,黄南藏族自治州,同仁县隆务镇,,38,38,64,18,35,91,,,,2,7,8,9,0.3,0.6
2026-02-06T0200,2295A,118.2905,29.6965,黄山市,延安路89号,,17,17,49,9,41,49,,,,8,23,4,4,0.6,0.7
2026-02-06T0200,2297A,118.1369,30.2755,黄山市,黄山区政府5号楼,,38,36,28,26,26,60,,,,8,12,2,2,0.7,0.7
2026-02-06T0200,4210A,118.335445,29.720283,黄山市,滨江东路7-2号,,24,24,56,12,43,50,,,,9,22,/,/,/,/
2026-02-06T0200,2423A,115.0547,30.2332,黄石市,沈家营,颗粒物(PM10),80,110,95,58,53,44,,,,10,31,7,7,1.6,1.4
2026-02-06T0200,2426A,114.899,30.211,黄石市,铁山,细颗粒物(PM2.5),89,77,91,66,78,8,,,,40,42,7,10,1.4,1.5
2026-02-06T0200,2427A,115.0259,30.2108,黄石市,团城山,细颗粒物(PM2.5),84,105,93,62,66,13,,,,26,29,7,7,1.5,1.2
2026-02-06T0200,3149A,115.0174,30.1591,黄石市,笔架山北路,细颗粒物(PM2.5),99,140,118,74,67,11,,,,47,35,8,7,1.7,1.4
2026-02-06T0200,4185A,115.078022,30.21118,黄石市,磁湖东路29号,颗粒物(PM10),80,110,103,56,52,31,,,,29,31,6,7,1.3,1.3
2026-02-06T0200,1392A,114.4181,23.0528,惠州市,河南岸金山湖子站,,41,41,45,18,25,42,,,,24,23,5,5,0.7,0.7
2026-02-06T0200,1393A,114.4055,23.0824,惠州市,下埔横江三路子站,颗粒物(PM10),51,51,51,25,28,39,,,,31,29,8,8,0.5,0.6
2026-02-06T0200,1395A,114.4645,22.7832,惠州市,惠阳区承修路船湖子站,颗粒物(PM10),51,51,44,27,24,51,,,,39,36,6,7,0.7,0.7
2026-02-06T0200,1396A,114.5316,22.7423,惠州市,大亚湾管委会子站,颗粒物(PM10),54,57,47,22,24,12,,,,63,43,6,7,0.5,0.6
2026-02-06T0200,3314A,114.4334,22.8134,惠州市,惠阳秋长,颗粒物(PM10),58,66,52,36,25,3,,,,68,40,/,/,/,/
2026-02-06T0200,3452A,114.6521,22.7755,惠州市,大亚湾霞涌,,30,30,34,13,19,48,,,,31,26,/,/,/,/
2026-02-06T0200,4300A,114.4089,23.1147,惠州市,文华一路1号,,50,50,43,24,23,25,,,,48,31,/,/,/,/
2026-02-06T0200,2240A,130.9618,45.2926,鸡西市,环保局,,25,25,47,13,18,75,,,,5,11,6,8,0.2,0.2
2026-02-06T0200,2243A,130.9294,45.2959,鸡西市,第一中学,,32,32,31,14,15,73,,,,6,13,3,5,0.3,0.3
2026-02-06T0200,3707A,131.0069,45.2988,鸡西市,欧美日汽修厂,,35,35,52,12,17,71,,,,1,5,6,8,0.4,0.5
2026-02-06T0200,2367A,114.9753,27.0803,吉安市,红声器材厂,细颗粒物(PM2.5),69,72,87,50,65,42,,,,19,25,9,13,0.8,0.9
2026-02-06T0200,2369A,114.9903,27.1313,吉安市,市环境监测站,细颗粒物(PM2.5),68,63,77,49,65,42,,,,21,28,7,11,/,/
2026-02-06T0200,2370A,115.009527,27.096792,吉安市,青原区法院,细颗粒物(PM2.5),72,66,79,52,65,38,,,,26,28,14,14,0.9,0.8
2026-02-06T0200,1772A,126.54,43.8622,吉林市,哈达湾,颗粒物(PM10),80,110,102,11,42,71,,,,8,20,5,11,0.5,0.8
2026-02-06T0200,1773A,126.5843,43.8358,吉林市,东局子,颗粒物(PM10),78,105,82,12,39,58,,,,8,22,4,6,0.8,1.1
2026-02-06T0200,1774A,126.5051,43.8243,吉林市,电力学院,颗粒物(PM10),68,86,84,12,40,65,,,,7,19,5,8,0.5,0.7
2026-02-06T0200,1775A,126.6133,43.8971,吉林市,江北,颗粒物(PM10),69,88,79,14,37,65,,,,13,23,8,8,0.3,0.7
2026-02-06T0200,1776A,126.5549,43.8304,吉林市,江南公园,颗粒物(PM10),63,75,74,14,38,59,,,,8,21,6,12,0.4,0.7
2026-02-06T0200,2868A,126.4737,43.953,吉林市,九站,颗粒物(PM10),69,88,76,13,39,54,,,,14,26,4,7,0.6,0.7
2026-02-06T0200,1299A,116.9866,36.6118,济南市,科干所,颗粒物(PM10),51,51,134,10,65,71,,,,8,29,7,11,0.3,0.8
2026-02-06T0200,1300A,116.9379,36.6652,济南市,农科所,,49,49,155,3,75,68,,,,15,37,6,9,0.4,0.9
2026-02-06T0200,1301A,117.1265,36.6736,济南市,开发区,颗粒物(PM10),51,51,139,3,62,72,,,,22,37,6,6,0.4,0.7
2026-02-06T0200,1303A,117.0616,36.6865,济南市,省种子仓库,颗粒物(PM10),53,56,153,3,67,70,,,,14,41,5,8,0.3,0.8
2026-02-06T0200,1304A,116.9495185,36.644937,济南市,机床二厂,颗粒物(PM10),53,56,151,3,75,68,,,,11,33,5,10,0.1,0.5
2026-02-06T0200,1305A,117.0496,36.6629,济南市,市监测站,颗粒物(PM10),52,54,144,3,67,67,,,,13,34,6,6,0.4,0.9
2026-02-06T0200,1306A,116.7674,36.5458,济南市,长清党校,颗粒物(PM10),53,56,154,3,65,67,,,,23,45,4,6,0.6,0.9
2026-02-06T0200,1961A,117.5323,36.6865,济南市,东山小学,颗粒物(PM10),57,63,128,3,43,73,,,,21,36,3,5,0.3,0.6
2026-02-06T0200,3059A,117.7181,36.205,济南市,泰兴公司,,48,48,159,3,83,70,,,,17,37,4,9,0.9,1.2
2026-02-06T0200,3064A,117.6861,36.2172,济南市,莱芜战役纪念馆,,48,48,153,3,83,75,,,,14,41,10,13,0.5,1
2026-02-06T0200,3494A,117.1673,36.9782,济南市,济阳区政府,颗粒物(PM10),52,54,142,6,71,57,,,,10,33,7,7,0.4,0.9
2026-02-06T0200,3495A,117.1168,36.6299,济南市,锦屏中学,,46,46,126,3,59,69,,,,16,25,6,6,0.2,0.5
2026-02-06T0200,4108A,117.7107,36.2385,济南市,山财大街5号,,44,44,143,3,72,73,,,,17,50,8,11,0.7,1.1
2026-02-06T0200,4109A,116.9744,36.6889,济南市,无影山路12号,颗粒物(PM10),52,53,152,3,71,64,,,,10,29,6,10,0.5,1
2026-02-06T0200,1653A,116.6229,35.4288,济宁市,火炬城,颗粒物(PM10),68,85,152,16,103,64,,,,16,35,4,5,0.5,0.9
2026-02-06T0200,3500A,116.5808,35.3703,济宁市,北湖一中,颗粒物(PM10),63,75,149,16,106,66,,,,16,40,6,10,0.4,0.8
2026-02-06T0200,3501A,116.8251,35.5592,济宁市,服务中心,颗粒物(PM10),70,89,183,22,104,61,,,,10,37,4,7,0.6,1
2026-02-06T0200,3678A,116.5907,35.4054,济宁市,市第七中学,颗粒物(PM10),68,86,159,17,109,68,,,,16,39,11,15,0.5,1
2026-02-06T0200,4111A,116.6075,35.4566,济宁市,任和路,颗粒物(PM10),73,95,176,19,100,58,,,,18,44,8,8,0.6,0.9
2026-02-06T0200,4112A,116.5648,35.3921,济宁市,文体南路1号,颗粒物(PM10),69,88,181,17,114,68,,,,14,40,5,8,0.4,0.9
2026-02-06T0200,2255A,130.2749,46.8028,佳木斯市,佳纺,,23,23,37,13,22,64,,,,3,18,4,6,0.3,0.5
2026-02-06T0200,2257A,130.3258,46.7975,佳木斯市,环保局,,20,20,40,8,25,62,,,,6,22,8,8,0.2,0.4
2026-02-06T0200,4285A,130.363,46.806,佳木斯市,顺和街,,25,,30,17,21,61,,,,8,19,7,5,0.4,0.5
2026-02-06T0200,4286A,130.3952,46.8268,佳木斯市,长安路196号,,22,22,32,9,22,64,,,,7,17,8,5,0.5,0.6
2026-02-06T0200,1252A,120.7439,30.778,嘉兴市,清河小学,细颗粒物(PM2.5),137,109,104,104,83,21,,,,88,87,7,7,0.5,0.4
2026-02-06T0200,1253A,120.7261,30.7477,嘉兴市,嘉兴学院,细颗粒物(PM2.5),122,119,114,92,82,2,,,,97,87,6,6,0.9,0.9
2026-02-06T0200,2872A,120.7845,30.7524,嘉兴市,南湖区残联,细颗粒物(PM2.5),122,,85,92,83,5,,,,98,83,5,5,0.8,0.8
2026-02-06T0200,3407A,120.6915,30.7741,嘉兴市,秀洲住建,细颗粒物(PM2.5),119,107,99,90,76,10,,,,80,70,7,7,0.8,0.8
2026-02-06T0200,1945A,98.291,39.7705,嘉峪关市,气象局,颗粒物(PM10),101,151,145,43,51,60,,,,12,12,8,4,0.4,0.4
2026-02-06T0200,2884A,98.2672,39.7978,嘉峪关市,酒钢宾馆,颗粒物(PM10),102,153,161,39,44,67,,,,8,12,11,17,0.5,0.6
2026-02-06T0200,3248A,98.2644,39.7723,嘉峪关市,雄关区,颗粒物(PM10),91,132,115,40,52,60,,,,13,19,8,11,0.4,0.5
2026-02-06T0200,1383A,113.1063,22.6058,江门市,北街,,28,28,41,14,24,43,,,,24,20,/,/,/,/
2026-02-06T0200,1384A,113.073,22.5835,江门市,西区,,41,41,42,19,23,25,,,,48,27,/,/,/,/
2026-02-06T0200,1385A,113.0218,22.531,江门市,圭峰西,颗粒物(PM10),51,51,38,19,21,58,,,,17,19,/,/,/,/
2026-02-06T0200,1386A,113.0826,22.5947,江门市,东湖,,32,32,40,19,22,36,,,,31,21,7,8,0.5,0.5
2026-02-06T0200,3311A,113.1077,22.5647,江门市,江海富民,,44,44,59,19,24,40,,,,38,27,/,/,0.5,0.5
2026-02-06T0200,3449A,113.0496,22.4669,江门市,新会银湖,,38,38,39,16,22,15,,,,35,29,6,6,0.4,0.5
2026-02-06T0200,3335A,113.3137,35.2643,焦作市,马村街道办,细颗粒物(PM2.5),110,150,121,83,56,60,,,,17,24,7,10,0.8,0.9
2026-02-06T0200,3336A,113.2464,35.2374,焦作市,焦作技师学院,颗粒物(PM10),115,179,119,84,54,59,,,,19,32,7,11,0.8,0.9
2026-02-06T0200,3477A,113.1656,35.2536,焦作市,中站许衡医院,细颗粒物(PM2.5),120,146,90,91,40,58,,,,19,21,7,9,1.1,0.7
2026-02-06T0200,3981A,113.2456,35.18,焦作市,原李万街道办,细颗粒物(PM2.5),108,155,118,81,58,62,,,,17,27,7,12,0.9,0.9
2026-02-06T0200,4264A,113.234,35.219,焦作市,新安路1731号,颗粒物(PM10),110,170,122,80,54,65,,,,,30,13,11,0.8,0.7
2026-02-06T0200,4295A,113.2722,35.2121,焦作市,人民路3066号,细颗粒物(PM2.5),112,161,127,84,60,61,,,,18,33,8,10,0.9,1
2026-02-06T0200,1708A,116.3701,23.5345,揭阳市,新兴,颗粒物(PM10),65,79,75,46,45,18,,,,56,39,8,10,0.8,0.9
2026-02-06T0200,1709A,116.3261,23.5442,揭阳市,西马,颗粒物(PM10),69,88,78,45,45,26,,,,45,35,6,9,0.8,0.9
2026-02-06T0200,1710A,116.361,23.5627,揭阳市,东兴,细颗粒物(PM2.5),57,62,77,40,44,36,,,,43,40,19,13,/,/
2026-02-06T0200,1711A,116.4151,23.5295,揭阳市,渔湖,细颗粒物(PM2.5),63,62,74,45,47,16,,,,64,38,7,7,/,/
2026-02-06T0200,3320A,116.4028,23.5699,揭阳市,曲溪,细颗粒物(PM2.5),98,93,72,73,46,12,,,,78,38,9,9,1.1,1
2026-02-06T0200,1944A,102.1691,38.5166,金昌市,天庆家园,颗粒物(PM10),130,210,129,56,36,68,,,,5,12,5,7,0.1,0.4
2026-02-06T0200,4022A,102.1648,38.5369,金昌市,金川区人防中心,颗粒物(PM10),142,233,124,64,39,71,,,,4,8,8,11,0.4,0.4
2026-02-06T0200,4239A,102.193042,38.531887,金昌市,长春路96号,颗粒物(PM10),146,242,115,62,33,69,,,,4,12,6,9,0.5,0.7
2026-02-06T0200,1262A,119.6478,29.0773,金华市,十五中,细颗粒物(PM2.5),132,137,108,100,69,16,,,,56,54,3,4,0.9,1
2026-02-06T0200,1263A,119.6859,29.1032,金华市,监测站,细颗粒物(PM2.5),127,125,115,96,72,9,,,,63,65,2,3,0.9,0.8
2026-02-06T0200,3659A,119.656,29.1132,金华市,气象局,细颗粒物(PM2.5),129,126,117,98,79,4,,,,70,73,4,6,1.0,1.1
2026-02-06T0200,1767A,121.1114,41.0879,锦州市,南山,,28,23,95,6,25,87,,,,2,9,8,8,0.4,0.6
2026-02-06T0200,1768A,121.060361,40.842794,锦州市,开发区,,26,26,150,7,34,75,,,,4,15,6,9,0.3,0.6
2026-02-06T0200,1769A,121.1836,41.1118,锦州市,百股街道,,25,17,127,3,24,79,,,,3,12,6,7,0.4,0.5
2026-02-06T0200,1770A,121.1176,41.1224,锦州市,天安街道,,29,14,105,3,19,90,,,,4,10,5,5,0.4,0.5
2026-02-06T0200,1771A,121.1303,41.1385,锦州市,北湖公园,,25,18,89,3,20,79,,,,3,8,8,8,0.4,0.5
2026-02-06T0200,2160A,112.8496,35.5051,晋城市,自来水公司,颗粒物(PM10),78,105,102,33,40,43,,,,23,27,6,12,0.5,1.2
2026-02-06T0200,2162A,112.8509,35.4886,晋城市,市环保局,颗粒物(PM10),61,72,92,32,43,49,,,,21,20,4,10,0.5,1.1
2026-02-06T0200,3620A,112.8258,35.4804,晋城市,泽州一中,颗粒物(PM10),81,112,116,47,48,45,,,,18,20,4,10,0.6,1.2
2026-02-06T0200,4078A,112.8246,35.5152,晋城市,前书院路,颗粒物(PM10),83,115,110,28,37,26,,,,31,23,6,11,0.5,1.3
2026-02-06T0200,4079A,112.8864,35.4773,晋城市,祥云街666号,颗粒物(PM10),77,104,102,36,53,46,,,,26,28,7,14,0.5,0.9
2026-02-06T0200,2174A,112.6992,37.6984,晋中市,榆次区政府,,,132,136,15,37,,,,,32,42,10,16,0.3,0.7
2026-02-06T0200,2865A,112.7195,37.683,晋中市,榆次三中,颗粒物(PM10),92,134,144,18,37,46,,,,22,32,9,14,0.3,0.6
2026-02-06T0200,4080A,112.7375,37.7215,晋中市,广安街188号,颗粒物(PM10),80,110,126,11,38,40,,,,28,38,10,18,0.3,0.5
2026-02-06T0200,4200A,112.7478,37.6954,晋中市,迎宾街26号,,,141,147,20,39,,,,,22,32,8,15,0.4,0.6
2026-02-06T0200,2439A,112.2012,31.048,荆门市,竹园小学,细颗粒物(PM2.5),159,162,150,121,109,,,,,35,44,3,2,1.1,1.4
2026-02-06T0200,2440A,112.1968,30.9892,荆门市,掇刀,细颗粒物(PM2.5),170,161,183,129,140,69,,,,23,37,7,6,0.8,1.2
2026-02-06T0200,3012A,112.1849,31.0361,荆门市,西山林语,细颗粒物(PM2.5),142,145,138,108,96,,,,,21,34,2,2,1.2,1.3
2026-02-06T0200,3547A,112.1631,31.0134,荆门市,龙泉中学南校,细颗粒物(PM2.5),127,164,169,96,113,,,,,20,32,7,5,0,0.1
2026-02-06T0200,4124A,112.2213,31.0654,荆门市,新台西路6号,细颗粒物(PM2.5),176,168,174,133,134,20,,,,47,47,8,9,1.0,1.1
2026-02-06T0200,1844A,112.2493,30.3198,荆州市,市图书馆,细颗粒物(PM2.5),168,128,159,127,143,35,,,,29,50,6,7,1.1,1.2
2026-02-06T0200,1845A,112.2009,30.3543,荆州市,市委党校,细颗粒物(PM2.5),198,169,194,148,164,25,,,,28,45,,7,1.3,1.5
2026-02-06T0200,3194A,112.2749,30.3124,荆州市,管委会,细颗粒物(PM2.5),172,,158,130,144,27,,,,33,48,6,7,1.0,1.2
2026-02-06T0200,4268A,112.1722,30.3366,荆州市,学苑路85号,细颗粒物(PM2.5),185,149,186,139,161,37,,,,17,35,6,8,0.9,1
2026-02-06T0200,2343A,117.2114,29.2931,景德镇市,老干部活动中心,,23,,34,16,23,20,,,,12,14,5,4,0.7,0.7
2026-02-06T0200,2344A,117.1893,29.2789,景德镇市,兽医站,,28,28,48,15,22,31,,,,11,15,4,4,0.7,0.6
2026-02-06T0200,2346A,117.246,29.2958,景德镇市,陶研所,,19,18,30,13,23,35,,,,9,16,3,3,0.7,0.8
2026-02-06T0200,4289A,117.154766,29.256967,景德镇市,青少年活动中心,,22,22,39,11,24,26,,,,20,19,13,4,/,/
2026-02-06T0200,1803A,115.9873,29.6816,九江市,十里,细颗粒物(PM2.5),82,68,83,60,61,4,,,,50,50,6,7,1.2,1.2
2026-02-06T0200,1804A,115.9583,29.7047,九江市,茅山头,细颗粒物(PM2.5),90,72,86,67,72,3,,,,47,51,4,4,0.9,0.9
2026-02-06T0200,1805A,115.9877,29.7295,九江市,西园,细颗粒物(PM2.5),95,94,98,71,72,12,,,,54,59,6,7,1.2,1.1
2026-02-06T0200,1808A,115.9112,29.6038,九江市,综合工业园,细颗粒物(PM2.5),72,72,78,52,53,11,,,,49,56,2,3,0.6,0.7
2026-02-06T0200,3190A,116.0254,29.6995,九江市,外国语学校,细颗粒物(PM2.5),94,72,77,70,74,13,,,,47,53,3,5,0.8,0.9
2026-02-06T0200,4253A,116.010205,29.659402,九江市,莲花大道8号,细颗粒物(PM2.5),79,76,70,58,51,36,,,,18,29,3,4,0.7,0.8
2026-02-06T0200,4240A,98.495752,39.733935,酒泉市,玉门东路5号,颗粒物(PM10),315,432,199,91,56,56,,,,9,13,9,13,0.4,0.5
2026-02-06T0200,4241A,98.5099,39.7506,酒泉市,北大街108号,颗粒物(PM10),500,630,220,129,60,54,,,,3,12,9,12,0.2,0.4
2026-02-06T0200,2698A,76.0071,39.466,喀什地区,巡警大队,细颗粒物(PM2.5),210,317,170,160,77,3,,,,91,53,20,9,4.3,2.2
2026-02-06T0200,2699A,75.9756,39.4693,喀什地区,吾办,细颗粒物(PM2.5),179,257,165,135,84,5,,,,83,54,12,10,2.9,2.1
2026-02-06T0200,4027A,75.9485,39.4688,喀什地区,老干局,细颗粒物(PM2.5),238,365,202,188,85,2,,,,99,53,23,11,6.8,3
2026-02-06T0200,1824A,114.3389,34.778,开封市,肿瘤医院,颗粒物(PM10),83,116,162,48,97,60,,,,22,46,10,12,0.7,1.1
2026-02-06T0200,1826A,114.2884,34.7966,开封市,世纪星幼儿园,颗粒物(PM10),78,105,141,55,92,59,,,,24,45,11,13,0.6,1
2026-02-06T0200,3147A,114.3434,34.8101,开封市,龙亭公园,颗粒物(PM10),78,105,156,46,91,56,,,,22,51,10,12,0.6,0.9
2026-02-06T0200,3210A,114.3645,34.7955,开封市,汴京公园,细颗粒物(PM2.5),78,102,166,57,87,58,,,,17,48,6,9,0.7,0.9
2026-02-06T0200,3473A,114.2485,34.8306,开封市,技师学院,颗粒物(PM10),80,110,134,50,86,59,,,,20,46,8,12,0.9,1.1
2026-02-06T0200,3592A,114.4518,34.7503,开封市,祥符区生态环境局,颗粒物(PM10),76,102,176,49,100,53,,,,25,54,16,13,0.8,1.2
2026-02-06T0200,1951A,84.886,45.6029,克拉玛依市,长征新村,,34,34,93,13,66,86,,,,10,18,5,5,0.5,0.9
2026-02-06T0200,1952A,84.8894,45.5827,克拉玛依市,南林小区,,28,27,94,18,70,87,,,,8,8,2,2,0.4,0.8
2026-02-06T0200,1954A,84.896,44.3328,克拉玛依市,独山子区,细颗粒物(PM2.5),100,,82,75,60,70,,,,6,16,3,3,1.1,0.9
2026-02-06T0200,1955A,85.6888,46.0909,克拉玛依市,乌尔禾区商贸楼,,43,37,87,30,69,74,,,,19,24,7,7,0.6,0.9
2026-02-06T0200,3612A,85.1045,45.6895,克拉玛依市,白碱滩区新站,,40,38,84,28,72,86,,,,12,15,8,8,0.5,0.8
2026-02-06T0200,2697A,76.1457,39.7143,克孜勒苏柯尔克孜自治州,市人民政府,颗粒物(PM10),135,220,130,98,65,43,,,,28,16,7,4,1.1,0.4
2026-02-06T0200,3665A,76.1654,39.7157,克孜勒苏柯尔克孜自治州,克州文化中心,颗粒物(PM10),108,165,136,64,51,56,,,,17,19,5,5,0.8,0.7
2026-02-06T0200,1450A,102.8203,24.889,昆明市,呈贡新区,,34,34,38,19,24,51,,,,27,16,6,5,0.3,0.4
2026-02-06T0200,1452A,102.7253,25.0904,昆明市,龙泉镇,,25,18,38,17,26,72,,,,9,18,3,5,0.3,0.5
2026-02-06T0200,1453A,102.7267,25.0378,昆明市,东风东路,,28,28,35,16,23,66,,,,16,18,10,7,0.5,0.4
2026-02-06T0200,1454A,102.6744,25.0671,昆明市,金鼎山,,28,28,42,12,24,76,,,,6,16,3,5,0.4,0.6
2026-02-06T0200,1455A,102.6643,25.0401,昆明市,碧鸡广场,,30,30,37,12,25,68,,,,15,20,7,5,0.4,0.5
2026-02-06T0200,3179A,102.7491,25.012,昆明市,官渡区博物馆,,23,23,36,16,23,69,,,,15,15,7,5,0.5,0.5
2026-02-06T0200,3375A,102.8016,24.8336,昆明市,青年创业园,,32,32,35,16,23,33,,,,35,14,7,8,0.5,0.6
2026-02-06T0200,3550A,102.8,24.9787,昆明市,昆明学院,,26,22,35,11,20,82,,,,7,13,3,4,0.4,0.6
2026-02-06T0200,3551A,102.5969,24.6738,昆明市,晋宁区生态环境分局,,25,,32,16,21,79,,,,3,8,1,2,0.3,0.4
2026-02-06T0200,3552A,102.6673,24.9861,昆明市,云天化总部,,28,28,31,17,18,57,,,,23,11,10,7,0.5,0.4
2026-02-06T0200,1456A,91.132,29.6515,拉萨市,八廓街,,25,12,12,7,6,77,,,,9,8,6,7,0.4,0.3
2026-02-06T0200,1457A,91.1221,29.6748,拉萨市,市环保局,,25,17,13,3,6,80,,,,8,7,6,7,0.3,0.3
2026-02-06T0200,1458A,91.0874,29.6476,拉萨市,区监测站,,25,11,12,9,7,77,,,,11,9,3,4,0.5,0.7
2026-02-06T0200,1459A,91.1774,29.6541,拉萨市,西藏大学,,25,10,12,3,6,80,,,,7,8,4,4,0.2,0.2
2026-02-06T0200,1460A,90.9798,29.6586,拉萨市,区辐射站,,22,,15,10,9,70,,,,11,13,3,4,0.4,0.3
2026-02-06T0200,1461A,91.0831,29.6292,拉萨市,拉萨火车站,,27,8,10,3,6,84,,,,4,5,4,4,0.3,0.3
2026-02-06T0200,2520A,109.2203,23.7252,来宾市,来宾技工学校,颗粒物(PM10),59,68,128,28,121,65,,,,7,28,6,9,0.7,1.2
2026-02-06T0200,3535A,109.1781,23.7293,来宾市,兴宾区政府,颗粒物(PM10),76,101,135,50,107,48,,,,20,32,6,9,1.0,1.2
2026-02-06T0200,4002A,109.2312,23.7428,来宾市,中南小学,细颗粒物(PM2.5),80,96,139,59,133,43,,,,20,33,8,6,0.9,1.4
2026-02-06T0200,1479A,103.8309,36.0467,兰州市,铁路设计院,,,,,,,,,,,,,,,,
2026-02-06T0200,3241A,103.7439,36.0841,兰州市,百合公园,颗粒物(PM10),64,77,87,22,50,66,,,,19,51,6,16,0.5,1.1
2026-02-06T0200,3242A,103.9613,35.9985,兰州市,和平,颗粒物(PM10),93,135,78,26,39,67,,,,18,30,12,19,0.7,1.1
2026-02-06T0200,4236A,103.629272,36.093822,兰州市,庄浪东路808号,颗粒物(PM10),64,78,90,22,47,81,,,,15,51,12,26,0.4,1.1
2026-02-06T0200,4237A,103.7251,36.104344,兰州市,安宁西路88号,颗粒物(PM10),76,102,100,24,49,81,,,,14,47,6,19,0.3,0.9
2026-02-06T0200,4238A,103.846982,36.067567,兰州市,北滨河东路1号,颗粒物(PM10),79,107,95,29,48,68,,,,30,60,8,16,0.5,1.2
2026-02-06T0200,1067A,116.6712,39.5109,廊坊市,药材公司,,21,14,78,3,27,67,,,,3,25,3,3,0.2,0.5
2026-02-06T0200,1068A,116.7215,39.5592,廊坊市,开发区,,23,11,75,3,29,71,,,,10,22,3,3,0.2,0.5
2026-02-06T0200,1070A,116.7246,39.5273,廊坊市,北华航天学院,,23,13,76,3,29,73,,,,13,25,1,2,0.2,0.4
2026-02-06T0200,2919A,116.7022,39.5454,廊坊市,河北工业大学,,22,14,78,3,27,68,,,,8,21,3,3,0.2,0.4
2026-02-06T0200,2536A,103.7629,29.5844,乐山市,牛耳桥,细颗粒物(PM2.5),114,112,113,86,83,24,,,,30,36,4,5,0.9,1
2026-02-06T0200,2537A,103.7501,29.6002,乐山市,市第三水厂,细颗粒物(PM2.5),104,108,111,78,80,12,,,,52,47,3,3,1.1,1.1
2026-02-06T0200,2538A,103.7571,29.5664,乐山市,市监测站,细颗粒物(PM2.5),103,88,102,77,79,16,,,,39,32,6,5,1.1,1.1
2026-02-06T0200,3361A,103.7313,29.563,乐山市,理工大学,细颗粒物(PM2.5),105,,7,79,75,17,,,,43,30,2,3,1.1,1.1
2026-02-06T0200,2599A,100.2497,26.8802,丽江市,丽江古城,,27,21,22,7,7,85,,,,6,8,6,6,0.4,0.4
2026-02-06T0200,2600A,100.2203,26.8906,丽江市,市中心,,27,16,14,14,9,86,,,,6,8,5,5,0.3,0.3
2026-02-06T0200,1267A,119.9141,28.4513,丽水市,监测站大楼,细颗粒物(PM2.5),77,74,53,56,40,20,,,,40,32,5,6,0.8,0.7
2026-02-06T0200,1268A,119.93,28.4589,丽水市,莲都小学,细颗粒物(PM2.5),72,87,65,52,39,40,,,,33,29,/,/,/,/
2026-02-06T0200,1269A,119.8794,28.4232,丽水市,余庄前,细颗粒物(PM2.5),67,70,51,48,34,12,,,,30,24,4,5,0.6,0.6
2026-02-06T0200,1173A,119.1759,34.5885,连云港市,市环境监测站,颗粒物(PM10),74,97,152,14,103,64,,,,19,44,10,15,0.3,0.8
2026-02-06T0200,3000A,119.3577,34.6971,连云港市,德源药业,颗粒物(PM10),75,100,172,14,93,61,,,,11,40,5,9,0.6,1
2026-02-06T0200,3007A,119.178,34.8442,连云港市,新城一中,颗粒物(PM10),64,78,147,9,109,76,,,,18,56,8,14,0.7,1.2
2026-02-06T0200,3008A,119.3607,34.7519,连云港市,胡沟管理处,颗粒物(PM10),69,88,143,7,93,68,,,,12,32,8,16,0.6,0.9
2026-02-06T0200,3009A,119.1478,34.5913,连云港市,矿山设计院,颗粒物(PM10),73,95,167,9,102,66,,,,14,42,8,12,0.6,1.1
2026-02-06T0200,3434A,119.2414,34.6539,连云港市,工贸学校,,44,44,141,11,101,58,,,,19,40,10,14,0.4,0.8
2026-02-06T0200,3664A,119.4171,34.734,连云港市,连云街道,,46,46,138,12,96,61,,,,24,36,6,11,0.5,1
2026-02-06T0200,2573A,102.2629,27.8981,凉山彝族自治州,西昌市政府,,32,25,24,22,13,74,,,,4,8,4,10,0.6,0.6
2026-02-06T0200,2574A,102.2686,27.885,凉山彝族自治州,凉山州政府,,33,,21,23,11,67,,,,6,7,8,11,0.7,0.6
2026-02-06T0200,4229A,102.2342,27.8859,凉山彝族自治州,凯乐南路30号,,38,38,29,18,9,69,,,,13,11,7,14,0.5,0.7
2026-02-06T0200,2212A,123.1978,41.2036,辽阳市,宏伟区,颗粒物(PM10),66,82,208,3,30,69,,,,4,11,5,6,0.4,0.6
2026-02-06T0200,2213A,123.1684,41.2497,辽阳市,新华园,颗粒物(PM10),56,62,214,3,32,70,,,,7,15,2,3,0.3,0.4
2026-02-06T0200,2214A,123.2355,41.2663,辽阳市,滨河路,颗粒物(PM10),54,58,195,3,29,73,,,,2,13,3,5,0.4,0.6
2026-02-06T0200,4083A,123.153,41.2874,辽阳市,铁西路150号,颗粒物(PM10),55,60,210,13,30,63,,,,5,11,5,6,0.4,0.5
2026-02-06T0200,2227A,125.1359,42.8845,辽源市,环保局,,45,45,135,3,37,74,,,,4,18,2,3,0.3,0.7
2026-02-06T0200,4085A,125.0998,42.9134,辽源市,安宁大街333号,颗粒物(PM10),52,54,237,6,36,70,,,,10,14,6,3,0.4,0.6
2026-02-06T0200,1625A,115.9789,36.4372,聊城市,区政府,颗粒物(PM10),62,74,173,8,85,55,,,,22,38,18,18,0.7,1.1
2026-02-06T0200,3200A,115.9772,36.4986,聊城市,监控中心,颗粒物(PM10),56,62,175,17,90,59,,,,18,39,9,10,0.7,1.1
2026-02-06T0200,3513A,116.0443,36.436,聊城市,九州社区,颗粒物(PM10),63,75,171,6,87,71,,,,4,21,2,6,0.5,0.8
2026-02-06T0200,4018A,116.0564,36.4609,聊城市,星美广场,颗粒物(PM10),64,77,187,9,92,51,,,,16,27,6,8,0.6,1
2026-02-06T0200,4113A,116.0091,36.4495,聊城市,利民路,颗粒物(PM10),61,72,179,8,84,54,,,,21,37,13,14,0.7,1.1
2026-02-06T0200,2632A,94.3683,29.6373,林芝市,林芝监测站,,22,,12,15,10,57,,,,6,2,4,5,0.5,0.4
2026-02-06T0200,2633A,94.3616,29.6634,林芝市,林芝人民医院,,20,,15,14,13,62,,,,2,2,5,6,0.4,0.4
2026-02-06T0200,2603A,100.0779,23.8981,临沧市,市环保局,,27,27,31,12,18,44,,,,8,10,5,7,0.6,0.6
2026-02-06T0200,2604A,100.0894,23.882,临沧市,市气象局,,,38,44,16,25,,,,,11,11,10,11,0.5,0.5
2026-02-06T0200,1733A,111.5552,36.0791,临汾市,临钢医院,细颗粒物(PM2.5),113,147,169,85,93,26,,,,33,46,9,15,1.4,1.6
2026-02-06T0200,1734A,111.4984,36.0734,临汾市,技工学校,细颗粒物(PM2.5),139,145,153,106,103,11,,,,54,53,12,20,1.2,1.4
2026-02-06T0200,1736A,111.5017,36.0857,临汾市,市委,细颗粒物(PM2.5),124,161,164,94,94,8,,,,59,54,13,20,1.2,1.4
2026-02-06T0200,3018A,111.5048,36.1015,临汾市,唐尧大酒店,细颗粒物(PM2.5),125,169,164,95,85,4,,,,67,58,13,18,1.4,1.6
2026-02-06T0200,4244A,111.4879,36.053,临汾市,启星学校,细颗粒物(PM2.5),144,190,161,110,100,1,,,,76,60,9,17,1.6,1.6
2026-02-06T0200,4271A,103.2464,35.6123,临夏回族自治州,滨河东路1号,细颗粒物(PM2.5),132,174,159,100,93,19,,,,33,34,8,10,1.7,1.6
2026-02-06T0200,4310A,103.207136,35.599807,临夏回族自治州,新华街21号,颗粒物(PM10),85,119,142,56,89,57,,,,19,30,10,11,0.7,1.4
2026-02-06T0200,1618A,118.3429,35.0532,临沂市,沂河小区,颗粒物(PM10),67,83,169,6,87,60,,,,15,44,8,13,0.3,0.8
2026-02-06T0200,1619A,118.2962,35.0568,临沂市,鲁南制药厂,颗粒物(PM10),60,70,173,3,92,61,,,,15,57,10,18,0.3,0.9
2026-02-06T0200,1620A,118.2793,34.9976,临沂市,新光毛纺厂,颗粒物(PM10),60,70,168,22,98,55,,,,13,51,8,15,0.4,1
2026-02-06T0200,1621A,118.3955,35.0889,临沂市,河东保险公司,颗粒物(PM10),64,78,160,7,92,65,,,,20,52,9,13,0.5,1.1
2026-02-06T0200,3370A,118.3563,35.0215,临沂市,十里堡居委,颗粒物(PM10),71,92,170,6,91,63,,,,17,52,9,15,0.4,1
2026-02-06T0200,3496A,118.359,35.1067,临沂市,南坊新区,颗粒物(PM10),64,78,145,6,80,66,,,,13,40,9,12,0.4,0.8
2026-02-06T0200,3860A,118.3915,35.0297,临沂市,皇山花园小区,颗粒物(PM10),75,100,187,8,103,59,,,,21,54,13,18,0.4,1.1
2026-02-06T0200,1870A,109.4854,24.3898,柳州市,柳东小学,细颗粒物(PM2.5),65,65,78,47,70,31,,,,29,18,9,8,0.8,0.9
2026-02-06T0200,1871A,109.4109,24.3304,柳州市,环保监测站,"颗粒物(PM10),细颗粒物(PM2.5)",70,89,121,51,103,4,,,,64,41,5,6,1.5,1.6
2026-02-06T0200,1872A,109.3886,24.3408,柳州市,河西水厂,细颗粒物(PM2.5),97,100,133,72,121,5,,,,50,39,6,8,1.1,1.1
2026-02-06T0200,1873A,109.4263,24.2951,柳州市,市四中,细颗粒物(PM2.5),152,144,136,116,116,6,,,,66,36,8,8,2.5,1.3
2026-02-06T0200,1874A,109.396,24.3658,柳州市,市九中,颗粒物(PM10),112,173,243,54,108,2,,,,48,42,10,12,1.4,1.5
2026-02-06T0200,1875A,109.4912,24.3164,柳州市,古亭山,细颗粒物(PM2.5),87,65,89,64,85,0,,,,39,35,6,7,0.9,0.8
2026-02-06T0200,3402A,109.5422,24.3994,柳州市,市二中,细颗粒物(PM2.5),65,65,82,47,68,1,,,,58,31,9,10,0.9,0.9
2026-02-06T0200,2307A,116.5078,31.7369,六安市,监测大楼,细颗粒物(PM2.5),134,115,90,102,65,49,,,,28,31,3,4,0.7,0.7
2026-02-06T0200,2308A,116.4738,31.7642,六安市,皖西学院,细颗粒物(PM2.5),140,112,99,107,67,49,,,,31,31,4,5,0.6,0.6
2026-02-06T0200,2309A,116.4997,31.7904,六安市,朝阳厂,细颗粒物(PM2.5),138,118,91,105,68,49,,,,36,32,5,6,0.6,0.7
2026-02-06T0200,2310A,116.5566,31.7885,六安市,开发区,细颗粒物(PM2.5),144,118,97,110,69,58,,,,20,28,5,6,0.7,0.7
2026-02-06T0200,2577A,104.8293,26.592,六盘水市,黄土坡,,29,21,54,20,42,42,,,,10,20,6,12,0.9,1.1
2026-02-06T0200,2579A,104.8481,26.5898,六盘水市,民中,,29,28,51,20,39,42,,,,8,16,4,6,0.9,0.9
2026-02-06T0200,2580A,104.9541,26.5506,六盘水市,双水,,22,19,47,15,33,46,,,,8,13,4,6,0.8,0.7
2026-02-06T0200,4151A,104.8899,26.5685,六盘水市,钟山大道中段564号,,25,20,57,17,35,42,,,,9,12,5,9,1.2,1.2
2026-02-06T0200,2336A,117.022,25.1031,龙岩市,龙岩市监测站,,30,23,29,21,20,32,,,,30,23,24,17,0.6,0.7
2026-02-06T0200,2337A,117.0257,25.0662,龙岩市,闽西职业技术学院,,33,33,32,16,17,38,,,,24,18,9,6,0.5,0.5
2026-02-06T0200,2338A,117.0195,25.0306,龙岩市,龙岩学院,,20,20,27,13,16,53,,,,10,12,4,4,/,/
2026-02-06T0200,2885A,104.9344,33.3827,陇南市,滨江中学,颗粒物(PM10),62,74,72,32,38,34,,,,35,29,8,8,1.3,1.1
2026-02-06T0200,3247A,104.9551,33.3709,陇南市,市总工会,颗粒物(PM10),53,56,62,23,29,50,,,,19,23,3,4,1.0,1
2026-02-06T0200,2488A,111.9984,27.7346,娄底市,市监测站,,48,38,121,33,97,54,,,,12,27,6,9,0.8,1
2026-02-06T0200,2491A,111.9888,27.7035,娄底市,市政府,,46,46,119,26,85,56,,,,14,30,4,5,0.3,0.7
2026-02-06T0200,4127A,111.9812,27.7591,娄底市,涟钢职大,,43,42,118,30,86,45,,,,12,25,4,6,1.0,1.2
2026-02-06T0200,4128A,112.0303,27.7457,娄底市,娄底体校,,,36,116,30,93,,,,,5,22,2,2,0.7,0.7
2026-02-06T0200,1894A,105.4427,28.9063,泸州市,小市上码头,细颗粒物(PM2.5),150,140,108,115,88,28,,,,38,25,5,6,1.2,1.2
2026-02-06T0200,1895A,105.4241,28.8573,泸州市,兰田宪桥,细颗粒物(PM2.5),129,148,107,98,70,28,,,,28,23,8,9,1.1,1
2026-02-06T0200,1896A,105.4378,28.8833,泸州市,市环监站,细颗粒物(PM2.5),182,167,122,137,91,37,,,,31,28,11,10,1.0,0.9
2026-02-06T0200,4272A,105.3689,28.7783,泸州市,纳溪中医医院,细颗粒物(PM2.5),123,122,99,93,82,3,,,,29,23,8,8,1.1,1.1
2026-02-06T0200,2183A,111.1447,37.5212,吕梁市,环保局,颗粒物(PM10),74,97,114,30,42,2,,,,55,52,5,9,0.5,0.7
2026-02-06T0200,2185A,111.1285,37.5338,吕梁市,自来水公司,颗粒物(PM10),82,114,118,34,44,1,,,,47,43,14,13,0.5,0.7
2026-02-06T0200,2867A,111.1225,37.5093,吕梁市,马茂庄小学,颗粒物(PM10),81,112,124,36,45,2,,,,53,54,20,13,0.4,0.6
2026-02-06T0200,1812A,112.3934,34.6517,洛阳市,市委党校,颗粒物(PM10),83,116,120,37,64,46,,,,25,43,8,11,0.6,1
2026-02-06T0200,1815A,112.494,34.6883,洛阳市,河南林校,颗粒物(PM10),94,137,126,43,61,47,,,,32,52,10,14,0.5,0.9
2026-02-06T0200,1816A,112.3843,34.623,洛阳市,开发区管委会,颗粒物(PM10),87,123,135,19,61,49,,,,22,32,10,13,0.5,0.8
2026-02-06T0200,1817A,112.4263,34.6249,洛阳市,市委新办公区,颗粒物(PM10),79,108,123,25,58,48,,,,26,34,9,12,0.4,0.8
2026-02-06T0200,3340A,112.6005,34.6323,洛阳市,伊滨,颗粒物(PM10),98,145,128,46,55,59,,,,21,32,8,10,0.6,0.7
2026-02-06T0200,3341A,112.495,34.6338,洛阳市,中移产业园,颗粒物(PM10),92,133,119,33,61,49,,,,23,33,8,11,0.6,0.8
2026-02-06T0200,3593A,112.5736,34.8993,洛阳市,吉利监测站,颗粒物(PM10),108,166,117,76,57,,,,,33,40,9,12,0.9,0.9
2026-02-06T0200,3635A,112.3678,34.6623,洛阳市,河科大西苑校区,颗粒物(PM10),93,135,127,29,64,50,,,,25,41,9,13,0.6,1
2026-02-06T0200,3636A,112.4387,34.678,洛阳市,英才小学,颗粒物(PM10),93,136,138,36,68,47,,,,31,51,11,15,0.7,1.1
2026-02-06T0200,4214A,112.460027,34.694929,洛阳市,春都路1号院,颗粒物(PM10),107,163,152,34,62,45,,,,23,42,8,13,0.6,0.9
2026-02-06T0200,2399A,114.051,33.5721,漯河市,三五一五工厂,细颗粒物(PM2.5),125,182,184,95,104,48,,,,25,29,7,8,1.1,1
2026-02-06T0200,2400A,114.0055,33.5698,漯河市,漯河大学,细颗粒物(PM2.5),124,177,158,94,98,48,,,,22,26,8,9,1.2,1
2026-02-06T0200,2401A,114.0134,33.5826,漯河市,市水利局,细颗粒物(PM2.5),132,210,174,100,104,45,,,,27,31,7,8,1.0,0.9
2026-02-06T0200,2402A,114.0261,33.5697,漯河市,市广电局,细颗粒物(PM2.5),137,190,173,104,105,,,,,19,23,8,9,1.0,0.8
2026-02-06T0200,3478A,113.9691,33.568,漯河市,市图书馆,细颗粒物(PM2.5),140,179,183,107,102,49,,,,24,27,8,9,1.3,1.1
2026-02-06T0200,4250A,114.089259,33.588274,漯河市,韶山路11号,细颗粒物(PM2.5),132,159,173,100,103,46,,,,29,33,7,9,0.9,0.8
2026-02-06T0200,1798A,118.5084,31.6838,马鞍山市,湖东路四小,细颗粒物(PM2.5),152,148,110,116,79,84,,,,,57,5,9,0.8,1
2026-02-06T0200,1799A,118.5019,31.6449,马鞍山市,开发区,细颗粒物(PM2.5),160,147,112,122,81,84,,,,21,56,5,9,0.8,1
2026-02-06T0200,3633A,118.4914,31.681,马鞍山市,雨山,细颗粒物(PM2.5),143,154,115,109,74,86,,,,20,58,5,10,1.0,1.1
2026-02-06T0200,4191A,118.527362,31.722269,马鞍山市,慈湖高新区,细颗粒物(PM2.5),152,169,125,116,77,94,,,,21,52,6,8,0.9,0.8
2026-02-06T0200,1686A,111.0285,21.469,茂名市,电白南海,,34,34,41,14,17,89,,,,8,12,7,8,0.7,0.9
2026-02-06T0200,1687A,110.9294,21.6533,茂名市,茂石化七小,,36,36,42,23,19,85,,,,8,11,6,6,0.4,0.5
2026-02-06T0200,1688A,110.9108,21.6688,茂名市,健康路,,30,,34,20,18,96,,,,9,13,4,5,0.5,0.6
2026-02-06T0200,1689A,110.8592,21.6826,茂名市,高岭,,45,41,56,31,22,79,,,,10,12,2,4,/,/
2026-02-06T0200,3450A,111.0101,21.5165,茂名市,电白水东,,29,19,36,16,17,91,,,,17,19,7,9,/,/
2026-02-06T0200,2540A,103.8414,30.0871,眉山市,气象局,细颗粒物(PM2.5),88,96,102,65,72,56,,,,22,28,12,12,0.9,1
2026-02-06T0200,3148A,103.829,30.0563,眉山市,区人社局,细颗粒物(PM2.5),98,90,109,73,89,51,,,,28,40,11,11,1.0,1.2
2026-02-06T0200,4148A,103.8836,30.0695,眉山市,眉职院,细颗粒物(PM2.5),83,94,105,61,73,48,,,,18,24,4,5,0.9,1
2026-02-06T0200,1690A,116.1248,24.3307,梅州市,梅江月梅,,45,45,45,28,30,8,,,,46,31,/,/,/,/
2026-02-06T0200,1691A,116.0798,24.2719,梅州市,梅县新城,,48,48,49,29,31,6,,,,44,37,7,7,0.6,0.7
2026-02-06T0200,3315A,116.1234,24.2994,梅州市,梅龙,,44,44,51,30,32,18,,,,29,31,7,9,0.7,0.8
2026-02-06T0200,1878A,104.7775,31.4741,绵阳市,富乐山,细颗粒物(PM2.5),73,75,90,53,65,42,,,,16,18,8,8,0.9,0.9
2026-02-06T0200,1880A,104.6698,31.4668,绵阳市,高新区自来水公司,细颗粒物(PM2.5),87,92,120,64,76,32,,,,32,39,7,8,1.0,1.2
2026-02-06T0200,3491A,104.6899,31.5324,绵阳市,西科大附属小学,细颗粒物(PM2.5),83,96,121,61,76,37,,,,33,41,10,9,0.7,0.8
2026-02-06T0200,3492A,104.5647,31.5343,绵阳市,安州区旅游局,细颗粒物(PM2.5),94,98,106,70,74,16,,,,48,36,11,12,1.0,1.1
2026-02-06T0200,4146A,104.7092,31.4972,绵阳市,科技城新区公安局,细颗粒物(PM2.5),73,85,112,53,68,42,,,,36,41,6,6,1.0,1
2026-02-06T0200,4226A,104.765114,31.453094,绵阳市,绵阳市气象局,细颗粒物(PM2.5),83,92,98,61,71,36,,,,22,25,8,9,1.0,1
2026-02-06T0200,1784A,129.61,44.561,牡丹江市,环保大楼,,40,40,44,7,20,74,,,,4,13,2,4,0.2,0.3
2026-02-06T0200,1787A,129.6364,44.6075,牡丹江市,机车工厂,,32,32,49,10,23,70,,,,5,13,6,9,0.3,0.4
2026-02-06T0200,1788A,129.6386,44.5462,牡丹江市,第一中学,,43,43,40,10,22,70,,,,4,12,4,5,0.2,0.3
2026-02-06T0200,4287A,129.5992,44.5964,牡丹江市,东晓云街98号,,47,47,50,11,23,69,,,,3,11,4,6,0.4,0.3
2026-02-06T0200,2531A,105.0703,29.61,内江市,市监测站,细颗粒物(PM2.5),112,,86,84,79,46,,,,29,26,5,6,0.8,1
2026-02-06T0200,2533A,105.0657,29.5807,内江市,内江二中,细颗粒物(PM2.5),113,111,96,85,75,22,,,,39,30,7,8,0.8,0.8
2026-02-06T0200,2534A,105.0407,29.5828,内江市,内江日报社,细颗粒物(PM2.5),114,116,85,86,72,6,,,,68,41,8,7,0.7,0.7
2026-02-06T0200,4147A,105.0433,29.6105,内江市,玉峰路西段888号,细颗粒物(PM2.5),119,92,86,90,75,32,,,,38,30,4,5,0.7,0.7
2026-02-06T0200,2628A,92.0653,31.4846,那曲市,那曲监测站,,,58,45,46,29,24,,,,,2,10,7,2.4,0.8
2026-02-06T0200,4243A,92.0515,31.4787,那曲市,那曲市委宣传部,,29,28,39,20,18,48,,,,14,5,5,5,1.0,0.5
2026-02-06T0200,1291A,115.8887,28.7006,南昌市,省林业公司,细颗粒物(PM2.5),74,,59,54,53,35,,,,18,34,3,4,0.8,0.7
2026-02-06T0200,1292A,115.813,28.7443,南昌市,林科所,细颗粒物(PM2.5),55,41,62,39,47,42,,,,16,34,7,8,0.5,0.7
2026-02-06T0200,1294A,115.8518,28.687,南昌市,建工学校,细颗粒物(PM2.5),78,58,78,57,52,37,,,,20,36,7,8,1.0,0.9
2026-02-06T0200,1295A,115.8926,28.6425,南昌市,象湖,细颗粒物(PM2.5),72,61,68,52,57,33,,,,18,27,7,8,1.0,0.9
2026-02-06T0200,3046A,115.9084,28.6062,南昌市,机电学校,细颗粒物(PM2.5),89,74,81,66,55,35,,,,20,35,5,5,0.7,0.7
2026-02-06T0200,3690A,115.9718,28.7032,南昌市,外国语学校,细颗粒物(PM2.5),90,,72,67,58,26,,,,32,35,12,13,1.0,0.9
2026-02-06T0200,4106A,115.7923,28.6873,南昌市,工业二路,细颗粒物(PM2.5),63,61,79,45,53,55,,,,15,37,3,4,0.8,0.8
2026-02-06T0200,4192A,115.931587,28.686774,南昌市,南京东路235号,细颗粒物(PM2.5),82,70,75,60,55,34,,,,18,29,8,8,0.6,0.6
2026-02-06T0200,1906A,106.0791,30.8022,南充市,南充市委,细颗粒物(PM2.5),84,84,98,62,73,13,,,,23,32,3,4,0.8,0.9
2026-02-06T0200,1907A,106.1038,30.8215,南充市,南充炼油厂,细颗粒物(PM2.5),87,101,107,64,72,1,,,,42,31,6,6,0.8,0.9
2026-02-06T0200,4227A,106.108336,30.788436,南充市,梨树横街98号,细颗粒物(PM2.5),109,110,111,82,84,2,,,,45,36,5,6,0.9,0.9
2026-02-06T0200,4304A,106.1172,30.843,南充市,清泉寺北路188号,细颗粒物(PM2.5),83,86,92,61,71,15,,,,30,22,3,3,0.7,0.7
2026-02-06T0200,4305A,106.067,30.7616,南充市,同庆路1号,细颗粒物(PM2.5),89,104,94,66,73,0,,,,51,44,6,6,0.9,0.9
2026-02-06T0200,1151A,118.8033,32.1085,南京市,迈皋桥,细颗粒物(PM2.5),147,157,97,112,66,88,,,,24,51,6,9,0.6,0.5
2026-02-06T0200,1152A,118.7487,32.057,南京市,草场门,细颗粒物(PM2.5),144,146,100,110,64,65,,,,22,63,18,6,1.0,1.2
2026-02-06T0200,1154A,118.770105,32.004342,南京市,中华门,细颗粒物(PM2.5),189,178,106,142,71,92,,,,16,48,4,5,0.7,1
2026-02-06T0200,1155A,118.8059,32.0329,南京市,瑞金路,细颗粒物(PM2.5),190,175,104,143,77,99,,,,1,42,3,4,0.8,0.7
2026-02-06T0200,1156A,118.7946,32.0774,南京市,玄武湖,细颗粒物(PM2.5),172,162,97,130,68,97,,,,20,56,1,6,0.8,0.9
2026-02-06T0200,1157A,118.6415,32.0964,南京市,浦口,细颗粒物(PM2.5),200,195,102,150,70,90,,,,20,32,5,5,0.8,0.5
2026-02-06T0200,1158A,118.730129,32.000956,南京市,奥体中心,细颗粒物(PM2.5),189,181,109,142,73,97,,,,15,46,5,8,0.8,0.8
2026-02-06T0200,1159A,118.9072,32.1047,南京市,仙林大学城,细颗粒物(PM2.5),185,175,106,139,72,91,,,,18,54,6,8,1.0,0.9
2026-02-06T0200,3422A,118.8443,31.919,南京市,江宁彩虹桥,细颗粒物(PM2.5),173,183,108,131,63,90,,,,20,55,4,4,1.1,1.1
2026-02-06T0200,3427A,118.8497,32.3599,南京市,六合雄州,细颗粒物(PM2.5),145,162,157,111,85,76,,,,15,49,3,6,0.9,1
2026-02-06T0200,4086A,118.7641,32.0841,南京市,新模范马路66号,细颗粒物(PM2.5),192,178,113,144,81,116,,,,3,55,4,4,1.1,1.2
2026-02-06T0200,4249A,118.8707617,31.34017673,南京市,汶溪路181号,细颗粒物(PM2.5),127,179,90,96,74,78,,,,26,42,5,7,1.0,1.1
2026-02-06T0200,4312A,119.019,31.6512,南京市,中山西路1号,细颗粒物(PM2.5),152,146,95,116,72,86,,,,19,34,4,4,1.2,1.1
2026-02-06T0200,1401A,108.3098,22.788,南宁市,二十一中,颗粒物(PM10),51,51,46,27,34,35,,,,17,20,3,4,0.6,0.6
2026-02-06T0200,1402A,108.3135,22.8529,南宁市,北湖,颗粒物(PM10),58,66,56,38,41,24,,,,36,28,2,8,0.9,0.7
2026-02-06T0200,1403A,108.3205,22.8222,南宁市,市监测站,,34,34,45,23,32,44,,,,17,24,5,6,0.8,0.8
2026-02-06T0200,1404A,108.3828,22.8038,南宁市,大自然花园,,33,33,44,18,27,53,,,,15,14,6,5,0.6,0.6
2026-02-06T0200,1406A,108.2397,22.8462,南宁市,区农职院,,38,38,54,25,31,15,,,,37,28,3,4,1.0,1.1
2026-02-06T0200,1407A,108.3285,22.7356,南宁市,英华嘉园,,44,44,49,25,33,9,,,,46,28,3,5,0.6,0.6
2026-02-06T0200,3401A,108.4829,22.762,南宁市,红星社区,,33,33,43,19,29,43,,,,12,15,4,4,0.7,0.9
2026-02-06T0200,4132A,108.2927,23.1477,南宁市,起凤路9号,,40,40,50,26,38,48,,,,19,20,2,2,0.6,0.6
2026-02-06T0200,4221A,108.2177,22.7774,南宁市,乐贤路16号,,38,34,45,26,31,23,,,,42,27,6,3,1.0,0.9
2026-02-06T0200,2332A,118.1682,26.6371,南平市,南平市监测站,,47,47,44,27,28,8,,,,44,28,3,5,0.6,0.7
2026-02-06T0200,2334A,118.1757,26.6276,南平市,南平七中,,34,34,41,19,23,11,,,,34,25,2,4,0.7,0.7
2026-02-06T0200,1168A,120.9056,31.9669,南通市,狼山街道,细颗粒物(PM2.5),152,149,120,116,86,91,,,,18,58,3,6,0.7,0.7
2026-02-06T0200,1170A,120.8635,32.0231,南通市,城中,细颗粒物(PM2.5),166,159,135,126,101,93,,,,7,57,4,8,0.9,1
2026-02-06T0200,1171A,120.9376,31.9301,南通市,星湖花园,细颗粒物(PM2.5),145,149,115,111,83,99,,,,19,64,4,9,0.8,0.9
2026-02-06T0200,1172A,120.8053,32.046,南通市,紫琅学院,细颗粒物(PM2.5),156,164,140,119,96,85,,,,17,66,3,8,1.1,1.1
2026-02-06T0200,3291A,121.0631,32.0644,南通市,通州监测站,细颗粒物(PM2.5),153,151,125,117,96,92,,,,18,61,4,7,0.9,1
2026-02-06T0200,3432A,120.9348,31.9874,南通市,环境教育馆,细颗粒物(PM2.5),150,146,123,115,96,88,,,,15,65,4,9,0.9,1.1
2026-02-06T0200,4091A,120.8692,31.9885,南通市,洪江路,细颗粒物(PM2.5),159,137,114,121,93,85,,,,30,72,4,7,0.8,0.9
2026-02-06T0200,2404A,112.5338,33.0086,南阳市,瓦房庄,颗粒物(PM10),99,148,157,56,97,60,,,,19,31,7,7,0.8,1.1
2026-02-06T0200,2405A,112.5002,32.9734,南阳市,汉画馆,细颗粒物(PM2.5),112,162,169,84,118,63,,,,21,36,9,9,0.8,1.1
2026-02-06T0200,2406A,112.5778,33.0144,南阳市,气象站,颗粒物(PM10),113,175,182,67,91,,,,,20,32,7,8,0.8,1.1
2026-02-06T0200,2407A,112.548,32.9687,南阳市,理工学院,颗粒物(PM10),109,167,167,64,105,,,,,24,36,8,8,0.7,1
2026-02-06T0200,4008A,112.5233,32.9921,南阳市,卧龙区政府,细颗粒物(PM2.5),98,140,181,73,107,58,,,,20,34,8,8,0.8,1.1
2026-02-06T0200,1234A,121.8352,29.9111,宁波市,区环保大楼,细颗粒物(PM2.5),90,123,94,67,36,0,,,,98,87,8,10,0.6,0.6
2026-02-06T0200,1235A,121.5595,29.8208,宁波市,万里学院,细颗粒物(PM2.5),115,130,75,87,48,35,,,,52,60,7,7,1.0,0.9
2026-02-06T0200,1236A,121.713,29.9564,宁波市,龙赛医院,细颗粒物(PM2.5),89,100,74,66,39,13,,,,76,73,4,5,0.8,0.7
2026-02-06T0200,1240A,121.5855,29.8635,宁波市,太古小学,细颗粒物(PM2.5),108,111,79,81,48,33,,,,46,56,6,7,0.9,0.7
2026-02-06T0200,1241A,121.5239,29.8673,宁波市,市环境监测中心,细颗粒物(PM2.5),108,118,87,81,54,52,,,,33,53,4,6,0.7,0.7
2026-02-06T0200,2871A,121.6156,29.9015,宁波市,万里国际学校,细颗粒物(PM2.5),113,117,85,85,59,34,,,,,70,7,7,0.7,0.7
2026-02-06T0200,3710A,121.5593,29.8976,宁波市,白沙活动中心,细颗粒物(PM2.5),107,95,77,80,59,60,,,,35,58,6,7,0.5,0.5
2026-02-06T0200,4095A,121.8962,29.7529,宁波市,中科路88号,细颗粒物(PM2.5),87,74,54,64,39,22,,,,67,58,8,8,0.7,0.6
2026-02-06T0200,2341A,119.5387,26.6611,宁德市,宁德市监测站,,32,28,50,22,28,81,,,,11,36,4,5,0.5,1.1
2026-02-06T0200,3209A,119.5231,26.6562,宁德市,宁德一中,,33,28,45,23,28,86,,,,10,24,3,4,0.3,0.8
2026-02-06T0200,2618A,98.859,25.8541,怒江傈僳族自治州,州监测站,,32,32,33,21,20,59,,,,8,9,6,6,0.4,0.3
2026-02-06T0200,2619A,98.8607,25.8168,怒江傈僳族自治州,泸水一中,,32,25,30,22,22,32,,,,18,15,4,4,0.8,0.7
2026-02-06T0200,1888A,101.6891,26.571,攀枝花市,弄弄坪,,36,29,60,25,28,43,,,,30,33,15,53,0.8,2.2
2026-02-06T0200,1889A,101.577,26.5914,攀枝花市,河门口,,41,41,44,18,18,29,,,,32,21,18,14,0.5,0.6
2026-02-06T0200,1891A,101.7365,26.4986,攀枝花市,仁和,,16,,25,11,17,47,,,,12,17,8,8,0.5,0.6
2026-02-06T0200,2835A,101.7222,26.567,攀枝花市,四十中小,,32,32,35,16,15,46,,,,29,30,26,20,1.2,1.2
2026-02-06T0200,1604A,122.0303,41.1489,盘锦市,开发区,,22,22,162,3,26,68,,,,8,12,2,4,0.1,0.3
2026-02-06T0200,1605A,122.0486,41.0883,盘锦市,兴隆台,,21,19,160,3,26,66,,,,12,16,7,4,0.4,0.5
2026-02-06T0200,1606A,121.8297,41.1026,盘锦市,新生街道,,20,15,120,3,24,61,,,,12,18,5,6,0.0,0.1
2026-02-06T0200,1832A,113.3257,33.7423,平顶山市,新华旅馆,,,108,144,52,77,,,,,20,32,6,9,0.4,0.6
2026-02-06T0200,1833A,113.2917,33.737,平顶山市,规划设计院,,,97,154,44,80,,,,,11,26,7,10,0.5,0.8
2026-02-06T0200,1834A,113.182,33.7738,平顶山市,平顶山工学院,,,107,130,36,71,,,,,14,22,8,10,0.4,0.7
2026-02-06T0200,3594A,112.8736,33.9068,平顶山市,石龙区,,,115,134,28,55,,,,,11,28,5,8,0.4,0.7
2026-02-06T0200,4116A,113.284,33.7139,平顶山市,姚电大道23号,颗粒物(PM10),81,111,153,49,84,69,,,,16,33,5,10,0.5,0.8
2026-02-06T0200,2656A,106.6633,35.5338,平凉市,聚贤嘉苑,颗粒物(PM10),60,69,55,34,26,50,,,,16,15,6,8,0.6,0.5
2026-02-06T0200,2657A,106.7021,35.5307,平凉市,博物馆,细颗粒物(PM2.5),63,66,63,45,33,35,,,,36,28,8,11,1.0,0.7
2026-02-06T0200,2348A,113.8384,27.6436,萍乡市,中医院,细颗粒物(PM2.5),102,110,106,76,67,1,,,,42,36,13,12,1.7,1.2
2026-02-06T0200,2350A,113.8677,27.6438,萍乡市,市环保局,细颗粒物(PM2.5),107,118,102,80,69,0,,,,43,35,50,23,1.0,0.6
2026-02-06T0200,2351A,113.8663,27.6202,萍乡市,安源区政府,细颗粒物(PM2.5),104,119,113,78,70,1,,,,32,33,,12,0.4,0.9
2026-02-06T0200,4107A,113.8686,27.6668,萍乡市,联洪村委会,细颗粒物(PM2.5),103,115,98,77,64,2,,,,43,30,10,9,0.9,0.6
2026-02-06T0200,2319A,119.0142,25.4324,莆田市,荔城区仓后路,颗粒物(PM10),59,67,70,36,41,38,,,,30,36,/,/,/,/
2026-02-06T0200,2320A,119.0016,25.4553,莆田市,莆田市监测站,,39,34,51,27,34,60,,,,11,21,4,6,0.5,0.5
2026-02-06T0200,2321A,119.112,25.4561,莆田市,涵江区六中,颗粒物(PM10),59,67,55,28,31,4,,,,57,34,/,/,0.6,0.7
2026-02-06T0200,2322A,119.1014,25.3215,莆田市,秀屿区政府,颗粒物(PM10),66,81,55,41,36,38,,,,29,24,4,7,0.6,0.7
2026-02-06T0200,2392A,115.0312,35.7636,濮阳市,环保局,颗粒物(PM10),76,101,137,31,86,56,,,,17,38,8,10,0.6,1
2026-02-06T0200,3021A,115,35.7667,濮阳市,濮水河管理处,颗粒物(PM10),81,112,161,34,87,54,,,,16,30,8,9,0.6,0.9
2026-02-06T0200,4118A,115.0552,35.7816,濮阳市,中原东路68号,颗粒物(PM10),89,127,177,32,89,57,,,,20,37,7,9,0.6,1.1
2026-02-06T0200,4216A,115.0923632,35.76857718,濮阳市,任丘路479号,颗粒物(PM10),76,102,166,31,101,54,,,,17,42,9,10,0.4,1
2026-02-06T0200,2601A,100.9801,22.7634,普洱市,市环保局,,43,43,53,20,22,42,,,,8,11,4,5,0.4,0.5
2026-02-06T0200,2602A,100.9763,22.8237,普洱市,普洱第二中学,,44,44,49,21,26,32,,,,20,21,5,5,0.5,0.5
2026-02-06T0200,3345A,131.0413,45.7795,七台河市,中波台,,39,39,28,11,15,68,,,,6,8,7,6,0.4,0.4
2026-02-06T0200,3637A,131.0136,45.7688,七台河市,人民广场,,44,44,34,8,14,67,,,,10,14,7,8,0.4,0.5
2026-02-06T0200,3684A,130.8639,45.8144,七台河市,新建矿广场,,34,34,36,12,15,67,,,,6,13,4,6,0.0,0.2
2026-02-06T0200,1779A,123.9307,47.3641,齐齐哈尔市,安居小区,,,,36,,7,,,72,,,7,,8,,0.3
2026-02-06T0200,1780A,123.9497,47.3389,齐齐哈尔市,中心广场,,20,13,29,7,8,64,,,,4,7,5,5,0.3,0.4
2026-02-06T0200,1781A,123.9483,47.3229,齐齐哈尔市,农牧车辆厂,,20,9,36,7,8,62,,,,4,6,4,4,0.3,0.3
2026-02-06T0200,1783A,123.9442,47.2994,齐齐哈尔市,市环境监测站,,21,19,51,6,7,65,,,,4,7,4,3,0.4,0.4
2026-02-06T0200,3662A,123.6341,47.2079,齐齐哈尔市,富区青少年活动中心,,21,21,62,3,8,65,,,,4,6,4,4,0.3,0.4
2026-02-06T0200,2591A,107.9765,26.5724,黔东南苗族侗族自治州,市环境监测站,,23,,30,16,26,32,,,,8,15,2,3,0.8,0.9
2026-02-06T0200,2881A,107.8909,26.531,黔东南苗族侗族自治州,凯里学院,,,,28,11,22,38,,,,12,14,2,3,0.8,0.8
2026-02-06T0200,2593A,107.5223,26.2371,黔南布依族苗族自治州,小围寨,,10,,32,7,30,22,,,,7,12,5,6,1.0,1.1
2026-02-06T0200,3538A,107.5175,26.2977,黔南布依族苗族自治州,沙坝,,10,7,39,3,31,31,,,,7,15,4,6,0.9,1
2026-02-06T0200,2589A,104.9022,25.0943,黔西南布依族苗族自治州,场坝街,细颗粒物(PM2.5),74,68,59,54,49,56,,,,7,12,4,4,0.8,0.9
2026-02-06T0200,2590A,104.8812,25.0994,黔西南布依族苗族自治州,坪东大道,细颗粒物(PM2.5),77,61,58,56,50,58,,,,7,15,5,5,0.9,1
2026-02-06T0200,2502A,108.6238,21.9667,钦州市,市环保站,细颗粒物(PM2.5),53,41,55,37,31,37,,,,29,23,3,4,0.5,0.5
2026-02-06T0200,2503A,108.655,21.9481,钦州市,沙埠小学,颗粒物(PM10),65,80,54,21,27,0,,,,58,25,4,4,0.5,0.4
2026-02-06T0200,2504A,108.5989,21.7435,钦州市,港区一小,,36,36,64,20,23,33,,,,40,31,3,2,0.5,0.7
2026-02-06T0200,3404A,108.5959,21.9634,钦州市,北职校,,40,40,42,18,21,31,,,,30,20,2,2,0.6,0.6
2026-02-06T0200,1046A,119.5247,39.9346,秦皇岛市,建设大厦,颗粒物(PM10),57,63,93,9,32,48,,,,24,28,6,8,0.3,0.5
2026-02-06T0200,3132A,119.5979,39.938,秦皇岛市,文明里,颗粒物(PM10),61,72,98,3,31,41,,,,36,35,8,11,0.3,0.6
2026-02-06T0200,4066A,119.7458,39.9952,秦皇岛市,南园路157号,颗粒物(PM10),55,60,91,3,30,48,,,,28,34,6,8,0.3,0.5
2026-02-06T0200,4067A,119.5131,39.8858,秦皇岛市,翠岛大街1号,颗粒物(PM10),54,58,77,16,32,37,,,,32,30,8,10,0.3,0.5
2026-02-06T0200,4198A,119.509013,39.825305,秦皇岛市,北戴河轮滑馆,颗粒物(PM10),60,69,92,7,31,64,,,,11,28,8,7,0.2,0.4
2026-02-06T0200,1310A,120.404,36.0625,青岛市,市南区东部子站,颗粒物(PM10),56,61,161,7,89,71,,,,9,35,8,12,0.4,0.8
2026-02-06T0200,1311A,120.362344,36.10282,青岛市,四方区子站,颗粒物(PM10),57,63,169,7,95,72,,,,8,39,4,7,0.4,0.9
2026-02-06T0200,1312A,120.294373,36.054183,青岛市,市南区西部子站,颗粒物(PM10),60,70,163,10,99,60,,,,15,46,5,6,0.3,1
2026-02-06T0200,1313A,120.4581,36.0858,青岛市,崂山区子站,,48,48,146,6,81,74,,,,13,32,9,13,0.3,0.8
2026-02-06T0200,1315A,120.3945,36.3083,青岛市,城阳区子站,,48,48,159,8,91,74,,,,14,43,5,9,0.5,1.1
2026-02-06T0200,3642A,120.3454,36.0735,青岛市,市北区南部,颗粒物(PM10),70,89,168,8,98,65,,,,12,44,3,8,0.5,1
2026-02-06T0200,3643A,120.3897,36.18,青岛市,李沧区北部,颗粒物(PM10),56,61,171,8,92,66,,,,9,42,8,11,0.3,0.9
2026-02-06T0200,4110A,120.5222,36.4089,青岛市,盟旺路653号,颗粒物(PM10),52,53,159,7,83,69,,,,14,34,1,5,0.5,1.1
2026-02-06T0200,4290A,120.196923,35.954556,青岛市,珠江路669号,颗粒物(PM10),64,78,173,15,88,59,,,,18,60,3,9,0.2,0.8
2026-02-06T0200,4291A,120.0424,35.8656,青岛市,黄岛区人民政府广场,,,92,160,7,85,,,,,18,44,7,11,0.3,0.9
2026-02-06T0200,1703A,113.0218,23.7086,清远市,凤城街办,细颗粒物(PM2.5),70,82,80,51,57,20,,,,70,51,/,/,/,/
2026-02-06T0200,3025A,113.0479,23.6343,清远市,技师学院,颗粒物(PM10),78,106,87,55,47,9,,,,81,58,4,6,0.9,0.7
2026-02-06T0200,3318A,112.9898,23.7403,清远市,清新太和,颗粒物(PM10),51,51,68,27,40,64,,,,39,37,11,11,0.7,0.7
2026-02-06T0200,3455A,113.076,23.72,清远市,清城东城,颗粒物(PM10),52,54,70,30,39,35,,,,32,44,/,/,/,/
2026-02-06T0200,2661A,107.6325,35.7357,庆阳市,庆阳五中,细颗粒物(PM2.5),85,94,79,63,42,78,,,,22,26,6,12,0.7,0.9
2026-02-06T0200,2662A,107.6361,35.7067,庆阳市,市环保局,细颗粒物(PM2.5),87,89,76,64,43,64,,,,32,20,18,9,0.7,0.7
2026-02-06T0200,1916A,103.7897,25.5036,曲靖市,环境监测站,,32,32,34,15,19,59,,,,17,11,3,5,0.3,0.3
2026-02-06T0200,1917A,103.8013,25.5357,曲靖市,烟厂办公区,,31,31,35,16,18,64,,,,11,9,5,4,0.3,0.3
2026-02-06T0200,3376A,103.7926,25.4651,曲靖市,南苑二区,,29,29,31,15,18,62,,,,10,10,4,4,0.2,0.2
2026-02-06T0200,3377A,103.7442,25.5259,曲靖市,曲靖师范学院,,23,23,39,11,21,68,,,,10,11,3,5,0.2,0.3
2026-02-06T0200,1264A,118.8694,28.94,衢州市,环保大楼,细颗粒物(PM2.5),85,86,101,63,68,54,,,,17,44,/,/,/,/
2026-02-06T0200,1266A,118.8622,28.9809,衢州市,衢州学院,细颗粒物(PM2.5),82,79,90,60,62,48,,,,20,46,4,6,0.5,0.6
2026-02-06T0200,4097A,118.9646,28.9832,衢州市,衢州三中,细颗粒物(PM2.5),84,72,96,62,69,42,,,,24,43,5,6,0.7,0.8
2026-02-06T0200,1611A,118.5818,24.9116,泉州市,涂山街,颗粒物(PM10),52,53,57,35,32,21,,,,42,40,3,4,0.8,0.7
2026-02-06T0200,1612A,118.597,24.8976,泉州市,津头埔,颗粒物(PM10),55,59,59,36,34,11,,,,41,36,4,4,0.8,0.7
2026-02-06T0200,1613A,118.6669,24.9422,泉州市,万安,,41,41,56,25,31,13,,,,51,42,3,4,0.6,0.6
2026-02-06T0200,4105A,118.6355,24.9148,泉州市,霞新路6号,,48,48,49,28,30,2,,,,58,43,/,/,0.7,0.6
2026-02-06T0200,2626A,88.8873,29.2723,日喀则市,日喀则监测站,,44,44,21,29,19,33,,,,16,12,10,9,0.7,0.5
2026-02-06T0200,3726A,88.8775,29.2425,日喀则市,林业技术推广中心,,35,35,14,18,6,38,,,,13,5,1,2,0.6,0.3
2026-02-06T0200,1659A,119.4711,35.421,日照市,监测站,颗粒物(PM10),68,85,153,8,89,70,,,,9,43,7,12,0.5,1.2
2026-02-06T0200,1660A,119.523,35.4216,日照市,市政府广场,颗粒物(PM10),63,75,143,9,88,73,,,,17,45,7,11,0.3,0.8
2026-02-06T0200,1661A,119.5511,35.4113,日照市,港务局,颗粒物(PM10),69,88,166,8,100,68,,,,15,50,6,10,0.3,1.1
2026-02-06T0200,3507A,119.5326,35.4627,日照市,职业技术学院,颗粒物(PM10),68,85,146,12,86,72,,,,15,41,6,10,0.5,1.1
2026-02-06T0200,3604A,119.3267,35.1043,日照市,岚山环保分局,颗粒物(PM10),80,110,189,9,102,59,,,,31,56,31,30,2.4,2.3
2026-02-06T0200,1835A,111.1922,34.7752,三门峡市,市政府,颗粒物(PM10),72,94,109,37,64,60,,,,21,47,8,15,0.4,0.9
2026-02-06T0200,1836A,111.1588,34.794,三门峡市,开发区,颗粒物(PM10),77,103,135,50,74,56,,,,23,42,9,11,0.5,0.9
2026-02-06T0200,3039A,111.1911,34.7829,三门峡市,三门峡市第一小学,颗粒物(PM10),78,106,121,43,68,57,,,,22,50,12,18,0.5,1
2026-02-06T0200,3598A,111.1031,34.719,三门峡市,富达温泉假日酒店,颗粒物(PM10),77,104,147,47,86,56,,,,24,49,10,21,0.5,1.1
2026-02-06T0200,2324A,117.621,26.2626,三明市,三钢,,45,,37,31,41,22,,,,28,29,4,7,0.4,0.8
2026-02-06T0200,2325A,117.6352,26.2714,三明市,三明二中,,35,24,37,24,27,24,,,,28,30,2,5,0.8,1
2026-02-06T0200,2326A,117.6028,26.2377,三明市,三元区政府,,32,26,39,22,26,25,,,,23,29,4,6,0.6,0.8
2026-02-06T0200,1877A,109.4962,18.2682,三亚市,河西子站,,23,23,25,8,10,56,,,,7,13,3,3,0.4,0.4
2026-02-06T0200,3540A,109.7348,18.3443,三亚市,君悦子站,,33,33,30,18,12,22,,,,17,8,3,3,0.4,0.4
2026-02-06T0200,4135A,109.1714,18.3739,三亚市,城东小学站,,33,33,31,12,11,34,,,,11,9,/,/,/,/
2026-02-06T0200,2624A,91.7592,29.234,山南市,山南监测站,,19,19,19,3,5,56,,,,5,4,4,4,0.5,0.4
2026-02-06T0200,2625A,91.7701,29.2436,山南市,山南人民医院,,20,17,27,3,8,62,,,,6,7,5,5,0.5,0.5
2026-02-06T0200,1674A,116.6795,23.3666,汕头市,金平子站,细颗粒物(PM2.5),55,52,54,39,34,26,,,,47,35,6,7,0.8,0.8
2026-02-06T0200,1675A,116.7248,23.3632,汕头市,龙湖子站,细颗粒物(PM2.5),63,55,56,45,42,42,,,,34,32,11,12,/,/
2026-02-06T0200,1676A,116.7257,23.2774,汕头市,濠江子站,颗粒物(PM10),57,63,51,35,32,20,,,,63,34,9,10,/,/
2026-02-06T0200,1677A,116.7518,23.4712,汕头市,澄海子站,细颗粒物(PM2.5),57,56,63,40,38,48,,,,33,27,8,8,0.8,0.7
2026-02-06T0200,1678A,116.6088,23.2539,汕头市,潮阳子站,,50,42,47,35,38,31,,,,33,24,6,8,0.8,0.9
2026-02-06T0200,3444A,116.4539,23.2684,汕头市,潮南峡山,,38,38,54,24,34,32,,,,22,23,6,7,0.7,0.8
2026-02-06T0200,3624A,116.4069,23.2533,汕头市,潮南子站,细颗粒物(PM2.5),72,89,74,52,43,22,,,,32,28,6,7,/,/
2026-02-06T0200,1693A,115.3653,22.7751,汕尾市,市环保局,细颗粒物(PM2.5),70,54,40,51,32,85,,,,17,16,5,5,0.9,0.8
2026-02-06T0200,1695A,115.362,22.7926,汕尾市,新城中学,细颗粒物(PM2.5),65,55,48,47,31,96,,,,12,16,5,6,0.7,0.7
2026-02-06T0200,2645A,109.9155,33.8714,商洛市,监测站,颗粒物(PM10),53,56,57,26,29,51,,,,19,21,4,5,0.7,0.8
2026-02-06T0200,3045A,109.9647,33.8486,商洛市,商州区中学,,40,40,58,23,25,26,,,,38,26,5,5,0.6,0.6
2026-02-06T0200,2408A,115.6701,34.4283,商丘市,环境监测站,细颗粒物(PM2.5),127,176,182,96,134,58,,,,19,41,3,3,0.5,0.8
2026-02-06T0200,2409A,115.6458,34.4047,商丘市,粮食局,细颗粒物(PM2.5),125,163,172,95,126,56,,,,20,39,3,3,0.7,0.9
2026-02-06T0200,3171A,115.6069,34.4465,商丘市,梁园区档案局,颗粒物(PM10),107,163,170,76,119,46,,,,22,38,2,3,0.6,0.9
2026-02-06T0200,4119A,115.6701,34.3767,商丘市,北海东路185号,细颗粒物(PM2.5),117,178,193,88,123,,,,,18,44,3,5,0.7,1
2026-02-06T0200,4120A,115.6172,34.3704,商丘市,中山大街3号,细颗粒物(PM2.5),129,196,207,98,132,57,,,,20,45,1,3,0.6,0.8
2026-02-06T0200,1141A,121.401,31.2382,上海市,普陀,细颗粒物(PM2.5),138,139,100,105,75,89,,,,22,84,6,9,0.8,0.9
2026-02-06T0200,1142A,121.4774,31.2043,上海市,十五厂,细颗粒物(PM2.5),140,136,102,107,67,76,,,,30,90,7,9,0.9,1
2026-02-06T0200,1143A,121.4673,31.3011,上海市,虹口,细颗粒物(PM2.5),133,128,105,101,77,77,,,,27,87,6,9,0.4,0.7
2026-02-06T0200,1147A,121.4253,31.226,上海市,静安监测站,细颗粒物(PM2.5),132,127,93,100,67,88,,,,29,79,7,10,0.8,1
2026-02-06T0200,1148A,121.7029,31.1905,上海市,浦东川沙,细颗粒物(PM2.5),148,137,112,113,85,88,,,,24,86,8,11,0.8,0.9
2026-02-06T0200,1149A,121.5339,31.229,上海市,浦东新区监测站,细颗粒物(PM2.5),160,138,98,122,78,75,,,,37,86,7,9,0.9,1.1
2026-02-06T0200,1150A,121.5776,31.2038,上海市,浦东张江,细颗粒物(PM2.5),144,138,106,110,76,83,,,,32,87,7,10,0.4,0.5
2026-02-06T0200,3265A,121.4242,31.3303,上海市,宝山庙行,细颗粒物(PM2.5),144,144,119,110,85,85,,,,22,92,8,11,0.7,0.9
2026-02-06T0200,3266A,121.8789,31.4662,上海市,崇明上实东滩,细颗粒物(PM2.5),132,116,98,100,78,118,,,,12,60,4,6,0.6,0.7
2026-02-06T0200,3268A,121.316,31.2839,上海市,嘉定南翔,细颗粒物(PM2.5),138,133,109,105,78,78,,,,28,92,5,7,1.0,0.8
2026-02-06T0200,3269A,121.3357,30.7455,上海市,金山新城,细颗粒物(PM2.5),140,131,70,107,60,38,,,,44,70,8,8,0.9,0.8
2026-02-06T0200,3270A,121.4996,31.0741,上海市,闵行浦江,细颗粒物(PM2.5),144,134,99,110,77,68,,,,30,83,7,10,0.7,0.9
2026-02-06T0200,3271A,121.2886,31.1663,上海市,青浦徐泾,细颗粒物(PM2.5),144,145,109,110,78,90,,,,29,94,5,7,0.7,0.8
2026-02-06T0200,3272A,121.2193,31.0382,上海市,松江图书馆,细颗粒物(PM2.5),144,148,105,110,76,78,,,,32,84,7,8,0.9,0.9
2026-02-06T0200,3273A,121.3904,31.206,上海市,长宁仙霞,细颗粒物(PM2.5),128,134,98,97,66,89,,,,21,75,7,10,0.8,1
2026-02-06T0200,3274A,121.7964,31.0507,上海市,浦东惠南,细颗粒物(PM2.5),140,127,93,107,74,75,,,,26,80,5,7,0.8,0.9
2026-02-06T0200,3544A,121.4891,30.925,上海市,奉贤南桥新城,细颗粒物(PM2.5),178,151,99,134,74,60,,,,36,85,3,5,0.6,0.6
2026-02-06T0200,4183A,121.417401,31.16637,上海市,冠生园路458号,细颗粒物(PM2.5),138,132,90,105,70,82,,,,33,82,6,6,0.6,0.8
2026-02-06T0200,4205A,121.541914,31.268301,上海市,宁武路151号,细颗粒物(PM2.5),148,138,121,113,85,76,,,,32,86,6,7,0.8,1
2026-02-06T0200,2382A,117.9758,28.4439,上饶市,市监测站,颗粒物(PM10),66,81,97,46,54,28,,,,50,56,22,17,/,/
2026-02-06T0200,2383A,117.9521,28.4637,上饶市,凤凰光学,细颗粒物(PM2.5),73,82,90,53,58,17,,,,46,58,11,16,1.0,1.3
2026-02-06T0200,3685A,117.897,28.4316,上饶市,双创科技城,细颗粒物(PM2.5),90,110,99,67,64,18,,,,65,66,9,14,1.3,1.4
2026-02-06T0200,4211A,118.190438,28.444845,上饶市,裕丰大道,细颗粒物(PM2.5),88,87,106,65,71,46,,,,31,50,14,20,1.1,1.2
2026-02-06T0200,1669A,113.5821,24.7733,韶关市,市八中,细颗粒物(PM2.5),104,127,96,78,56,8,,,,57,54,7,11,1.1,1.1
2026-02-06T0200,1671A,113.5916,24.7973,韶关市,园林处,细颗粒物(PM2.5),100,101,72,75,56,6,,,,55,50,7,10,/,/
2026-02-06T0200,1673A,113.5971,24.6864,韶关市,曲江监测站,颗粒物(PM10),58,66,71,37,44,26,,,,34,47,7,7,0.8,1
2026-02-06T0200,2809A,113.6668,24.7756,韶关市,大学路288号,细颗粒物(PM2.5),74,66,61,54,43,9,,,,22,29,3,7,/,/
2026-02-06T0200,3622A,113.5556,24.8082,韶关市,碧湖山庄,细颗粒物(PM2.5),103,115,90,77,60,33,,,,28,30,6,8,1.0,0.9
2026-02-06T0200,2464A,111.5277,27.2442,邵阳市,市化工厂,细颗粒物(PM2.5),134,128,134,102,101,17,,,,18,24,7,8,1.3,1.4
2026-02-06T0200,2466A,111.4327,27.2276,邵阳市,市环保局,细颗粒物(PM2.5),87,69,103,64,101,37,,,,13,28,10,11,1.2,1.8
2026-02-06T0200,4218A,111.446,27.2472,邵阳市,北塔二期4-26地块,细颗粒物(PM2.5),70,81,106,51,94,34,,,,9,23,9,8,1.2,1.7
2026-02-06T0200,4219A,111.4739,27.2282,邵阳市,邵水西路287号,,,76,106,66,100,35,,,,8,23,,12,1.2,1.7
2026-02-06T0200,1247A,120.6053,29.9927,绍兴市,城东开发委,细颗粒物(PM2.5),113,108,102,85,77,44,,,,38,62,8,9,0.7,0.8
2026-02-06T0200,2921A,120.5482,30.0003,绍兴市,树下王站,细颗粒物(PM2.5),133,119,109,101,88,50,,,,29,62,7,7,0.8,0.8
2026-02-06T0200,3408A,120.5685,29.936,绍兴市,绍兴中专,细颗粒物(PM2.5),103,98,99,77,72,70,,,,27,52,7,8,0.7,0.6
2026-02-06T0200,3409A,120.4905,30.086,绍兴市,柯桥区政府,细颗粒物(PM2.5),119,103,89,90,87,65,,,,34,72,6,7,1.0,0.9
2026-02-06T0200,3410A,120.8751,30.0249,绍兴市,重华小学,细颗粒物(PM2.5),117,110,100,88,81,59,,,,28,63,7,8,0.6,0.6
2026-02-06T0200,3411A,120.837,30.0137,绍兴市,上虞中学,细颗粒物(PM2.5),113,103,113,85,84,79,,,,23,64,7,9,0.9,0.9
2026-02-06T0200,3560A,120.4715,30.0414,绍兴市,柯桥妇保,细颗粒物(PM2.5),123,97,103,93,87,60,,,,36,59,6,7,0.8,0.7
2026-02-06T0200,3658A,120.6156,30.0762,绍兴市,袍江中学,细颗粒物(PM2.5),98,96,110,73,80,46,,,,41,68,7,8,0.8,0.7
2026-02-06T0200,1356A,114.0948,22.5506,深圳市,通心岭子站,,30,30,37,21,25,8,,,,58,43,2,2,0.4,0.4
2026-02-06T0200,1357A,114.1153,22.5713,深圳市,洪湖,,45,45,38,24,21,2,,,,71,48,5,5,0.7,0.5
2026-02-06T0200,1358A,113.9823,22.5398,深圳市,华侨城,,34,33,42,18,25,12,,,,68,66,/,/,/,/
2026-02-06T0200,1359A,113.9181,22.517,深圳市,南海子站,,48,48,59,32,37,0,,,,84,77,7,9,1.0,0.9
2026-02-06T0200,1360A,114.2345,22.565,深圳市,盐田,,18,17,21,8,11,42,,,,35,40,8,8,0.3,0.6
2026-02-06T0200,1363A,114.4911,22.5381,深圳市,南澳,,15,,16,3,10,46,,,,7,11,/,/,/,/
2026-02-06T0200,1364A,114.41,22.6346,深圳市,葵涌,,12,12,22,3,12,27,,,,18,22,7,8,0.5,0.6
2026-02-06T0200,1365A,114.2967,22.5978,深圳市,梅沙,,22,11,20,3,10,69,,,,9,21,/,/,/,/
2026-02-06T0200,1366A,114.0563,22.7353,深圳市,观澜,颗粒物(PM10),73,95,63,38,28,0,,,,87,50,8,8,0.8,0.6
2026-02-06T0200,3305A,114.0614,22.556,深圳市,莲花,,32,32,40,21,28,12,,,,54,52,/,/,/,/
2026-02-06T0200,3306A,114.0144,22.6163,深圳市,民治,颗粒物(PM10),52,54,44,32,26,3,,,,93,69,/,/,/,/
2026-02-06T0200,3307A,114.1756,22.6421,深圳市,横岗,,46,46,43,26,25,0,,,,90,64,/,/,/,/
2026-02-06T0200,3447A,114.344,22.7115,深圳市,坪山,,30,30,35,15,20,13,,,,50,32,8,9,0.6,0.6
2026-02-06T0200,3623A,113.8952,22.586,深圳市,西乡,颗粒物(PM10),51,52,57,25,31,3,,,,88,66,7,7,0.7,0.7
2026-02-06T0200,4220A,114.214113,22.713717,深圳市,黄阁路,,42,42,37,24,21,23,,,,46,36,7,7,1.0,0.9
2026-02-06T0200,1099A,123.5058,41.7084,沈阳市,浑南东路,颗粒物(PM10),78,105,127,3,25,76,,,,9,21,7,10,0.3,0.5
2026-02-06T0200,1100A,123.4238,41.6992,沈阳市,新秀街,,27,27,191,3,28,72,,,,5,17,11,10,0.4,0.6
2026-02-06T0200,1102A,123.5903,41.8412,沈阳市,东陵路,,30,30,171,3,29,69,,,,8,18,8,9,0.5,0.6
2026-02-06T0200,1103A,123.4267,41.8466,沈阳市,陵东街,颗粒物(PM10),84,117,130,3,24,76,,,,7,13,8,9,0.5,0.6
2026-02-06T0200,1104A,123.4116,41.7654,沈阳市,文化路,颗粒物(PM10),53,56,121,3,27,64,,,,11,23,13,15,0.4,0.6
2026-02-06T0200,1105A,123.4673,41.787,沈阳市,小河沿,颗粒物(PM10),76,101,132,7,39,80,,,,8,21,7,9,0.6,0.7
2026-02-06T0200,1106A,123.4019,41.7978,沈阳市,太原街,,44,44,142,3,26,69,,,,11,20,7,8,0.4,0.6
2026-02-06T0200,1108A,123.3778,41.9233,沈阳市,京沈街,,24,23,153,3,21,75,,,,7,14,8,9,0.4,0.5
2026-02-06T0200,2897A,123.2429,41.7341,沈阳市,沈辽西路,颗粒物(PM10),68,85,131,3,22,68,,,,10,20,7,14,0.3,0.4
2026-02-06T0200,2900A,123.5951,41.9085,沈阳市,裕农路,颗粒物(PM10),66,82,119,3,28,70,,,,6,16,6,6,0.4,0.6
2026-02-06T0200,2429A,110.78,32.6494,十堰市,滨河新村,细颗粒物(PM2.5),110,124,72,83,43,,,,,29,39,/,/,1.2,1.1
2026-02-06T0200,2430A,110.7305,32.6408,十堰市,刘家沟,细颗粒物(PM2.5),109,125,74,82,40,,,,,32,25,/,/,/,/
2026-02-06T0200,2431A,110.8843,32.5712,十堰市,铁二处,细颗粒物(PM2.5),135,139,105,103,66,,,,,58,42,8,8,1.5,1.3
