timepoint,stationcode,longitude,latitude,area,positionname,primarypollutant,aqi,pm10,pm10_24h,pm2_5,pm2_5_24h,o3,o3_24h,o3_8h,o3_8h_24h,no2,no2_24h,so2,so2_24h,co,co_24h
2026-02-06T0800,2568A,102.2503,31.8896,阿坝藏族羌族自治州,马师校,,30,30,32,19,13,35,,40,40,14,15,5,4,0.5,0.5
2026-02-06T0800,3994A,102.2174,31.9016,阿坝藏族羌族自治州,马尔康中学西区,颗粒物(PM10),59,68,61,9,11,49,,50,50,8,9,5,5,0.4,0.5
2026-02-06T0800,2695A,80.2899,41.1684,阿克苏地区,电视台,颗粒物(PM10),117,184,214,73,83,52,,33,33,24,40,10,13,1.3,1.6
2026-02-06T0800,2696A,80.2592,41.1541,阿克苏地区,艺术中心,颗粒物(PM10),109,167,200,76,86,58,,37,37,20,43,4,5,0.8,0.9
2026-02-06T0800,2205A,105.699,38.8409,阿拉善盟,蒙二幼,颗粒物(PM10),77,103,78,28,24,47,,62,62,12,14,10,11,0.5,0.6
2026-02-06T0800,2206A,105.7198,38.8508,阿拉善盟,环保局新楼,颗粒物(PM10),84,118,66,29,20,48,,63,63,12,11,10,10,0.6,0.6
2026-02-06T0800,2708A,88.1266,47.8515,阿勒泰地区,市站,,29,6,29,3,22,92,,85,85,4,19,2,3,0,0.2
2026-02-06T0800,4166A,88.1198,47.7931,阿勒泰地区,阿勒泰路33号,,29,,35,3,25,91,,87,87,4,16,4,6,0.2,0.5
2026-02-06T0800,2630A,80.1171,32.4999,阿里地区,阿里监测站,,21,6,3,3,6,65,,64,64,1,6,7,9,0.2,0.3
2026-02-06T0800,3192A,80.0906,32.5029,阿里地区,阿里藏医院,,15,14,9,3,3,47,,64,64,13,5,11,10,0.5,0.4
2026-02-06T0800,2644A,109.0088,32.6974,安康市,汉滨区检察院,,48,46,67,33,44,15,,18,18,19,26,7,7,0.7,0.8
2026-02-06T0800,4054A,109.0324,32.6913,安康市,市邮政管理局,细颗粒物(PM2.5),60,67,83,43,51,4,,5,5,30,37,10,7,0.8,1.1
2026-02-06T0800,2291A,117.0806,30.5181,安庆市,环科院,细颗粒物(PM2.5),133,151,93,101,77,82,,50,50,13,34,6,8,1.0,0.9
2026-02-06T0800,2292A,117.0331,30.5118,安庆市,马山宾馆,细颗粒物(PM2.5),137,135,89,104,78,85,,52,52,9,29,4,6,1.0,1
2026-02-06T0800,2294A,116.9897,30.6146,安庆市,安庆大学,细颗粒物(PM2.5),114,135,100,86,68,89,,57,57,14,31,4,4,1.0,0.8
2026-02-06T0800,3173A,117.0598,30.5351,安庆市,市人大,细颗粒物(PM2.5),103,152,99,77,60,82,,50,50,14,33,5,7,0.8,0.8
2026-02-06T0800,3123A,105.9408,26.2431,安顺市,凤凰山,,28,23,36,19,27,62,,58,58,10,14,10,13,0.8,0.9
2026-02-06T0800,3124A,105.9443,26.2567,安顺市,金钟山,,32,,29,22,27,56,,53,53,8,11,12,13,0.8,0.9
2026-02-06T0800,3125A,105.8983,26.248,安顺市,娄家坡,,33,,32,23,30,56,,52,52,11,14,23,21,0.9,0.9
2026-02-06T0800,1819A,114.3552,36.1017,安阳市,红庙街,颗粒物(PM10),74,97,116,26,52,50,,55,55,17,23,1,5,0.5,0.7
2026-02-06T0800,1820A,114.361,36.0681,安阳市,银杏小区,颗粒物(PM10),72,94,119,30,56,46,,55,55,17,21,4,6,0.4,0.7
2026-02-06T0800,3141A,114.3921,36.0879,安阳市,信访局,颗粒物(PM10),71,92,111,36,49,48,,56,56,12,16,5,8,0.5,0.7
2026-02-06T0800,3669A,114.4706,36.0634,安阳市,左辅环卫站,颗粒物(PM10),78,106,147,27,55,42,,52,52,22,24,4,7,0.4,0.6
2026-02-06T0800,4117A,114.2918,36.0769,安阳市,钢三路198号,颗粒物(PM10),64,78,112,29,52,46,,53,53,12,17,4,6,0.6,0.7
2026-02-06T0800,1748A,123.0441,41.1201,鞍山市,深沟寺,,,,142,10,10,64,,63,63,13,12,10,7,0.6,0.5
2026-02-06T0800,1749A,123.011,41.0931,鞍山市,太阳城,颗粒物(PM10),58,65,151,9,13,63,,64,64,12,13,10,11,0.5,0.6
2026-02-06T0800,1750A,123.0483,41.1445,鞍山市,太平,颗粒物(PM10),54,58,162,22,16,58,,61,61,18,13,10,9,0.5,0.4
2026-02-06T0800,1751A,122.964,41.0968,鞍山市,铁西三道街,颗粒物(PM10),70,90,159,29,19,55,,68,68,24,14,19,13,1.8,0.9
2026-02-06T0800,1753A,123.0219,41.0822,鞍山市,明达新区,,44,44,119,7,13,63,,68,68,14,12,10,7,0.7,0.6
2026-02-06T0800,4201A,122.944647,41.082639,鞍山市,兴盛南路290号,,33,33,158,7,16,64,,68,68,13,13,8,9,1.2,0.8
2026-02-06T0800,2195A,107.4206,40.7609,巴彦淖尔市,附二中,,34,34,40,14,9,59,,66,66,6,5,10,8,0.4,0.3
2026-02-06T0800,2196A,107.37,40.7372,巴彦淖尔市,市环保大楼,,29,29,37,8,8,63,,68,68,7,7,4,6,0.3,0.3
2026-02-06T0800,1956A,86.1476,41.7529,巴音郭楞蒙古自治州,孔雀公园,颗粒物(PM10),149,248,112,47,56,80,,57,57,4,35,9,9,0.5,0.8
2026-02-06T0800,1957A,86.1971,41.7166,巴音郭楞蒙古自治州,棉纺厂,颗粒物(PM10),123,196,217,52,57,68,,51,51,12,33,/,/,/,/
2026-02-06T0800,1958A,86.236,41.7172,巴音郭楞蒙古自治州,经济开发区,颗粒物(PM10),96,142,167,27,33,61,,56,56,10,24,6,6,0.6,0.6
2026-02-06T0800,3181A,106.776805,31.852614,巴中市,市五中,细颗粒物(PM2.5),87,72,89,64,75,1,,1,1,16,26,6,6,1.3,1.3
2026-02-06T0800,3183A,106.7419,31.8654,巴中市,圣泉水务公司,细颗粒物(PM2.5),79,69,84,58,65,1,,1,1,24,29,6,6,1.2,1.3
2026-02-06T0800,3616A,106.7617,31.8343,巴中市,市中心医院,细颗粒物(PM2.5),95,83,87,71,72,1,,1,1,18,30,6,6,1.5,1.5
2026-02-06T0800,2235A,122.7909,45.608,白城市,洮北区环保局,,29,29,48,12,9,53,,62,62,20,8,6,6,0.3,0.2
2026-02-06T0800,2236A,122.8741,45.5725,白城市,市环保局,,18,14,56,3,11,56,,59,59,9,5,5,5,0.3,0.3
2026-02-06T0800,2231A,126.4219,41.9172,白山市,喜丰,颗粒物(PM10),93,136,179,39,16,27,,55,55,45,12,13,8,0.9,0.6
2026-02-06T0800,2232A,126.4082,41.9416,白山市,环保局,颗粒物(PM10),81,112,140,38,15,32,,58,58,32,11,13,11,0.7,0.5
2026-02-06T0800,2647A,104.1727,36.5448,白银市,第三小学,颗粒物(PM10),60,69,97,26,37,62,,75,75,16,22,2,19,0.4,0.5
2026-02-06T0800,2648A,104.1467,36.5482,白银市,动力公司,颗粒物(PM10),56,61,83,22,30,60,,73,73,13,20,2,21,0.5,0.6
2026-02-06T0800,2512A,106.6102,23.901,百色市,市监测站,细颗粒物(PM2.5),55,41,55,39,48,1,,11,11,26,20,8,12,0.8,0.9
2026-02-06T0800,2513A,106.6524,23.8842,百色市,市中心血站,细颗粒物(PM2.5),69,54,68,50,54,2,,2,2,30,25,8,13,1.1,1
2026-02-06T0800,4133A,106.6273,23.8798,百色市,龙景西路,细颗粒物(PM2.5),64,61,66,46,51,12,,9,9,15,22,8,13,0.6,0.7
2026-02-06T0800,2270A,117.396,32.9389,蚌埠市,工人疗养院,颗粒物(PM10),64,78,140,6,91,76,,76,76,12,31,4,6,0.3,0.8
2026-02-06T0800,2271A,117.3606,32.9428,蚌埠市,百货大楼,颗粒物(PM10),71,91,141,10,87,66,,70,70,13,31,4,6,0.3,0.7
2026-02-06T0800,2273A,117.4183,32.8909,蚌埠市,蚌埠学院,颗粒物(PM10),60,70,124,6,87,78,,74,74,16,33,3,7,0.3,0.7
2026-02-06T0800,2274A,117.3534,32.9672,蚌埠市,淮上区政府,颗粒物(PM10),73,95,128,11,90,74,,78,78,11,29,4,6,0.3,0.7
2026-02-06T0800,2275A,117.3143,32.8977,蚌埠市,高新区,颗粒物(PM10),62,73,125,8,91,71,,74,74,7,23,5,7,0.2,0.7
2026-02-06T0800,3715A,117.3091,32.9314,蚌埠市,蚌埠田家炳中学,颗粒物(PM10),73,95,140,12,93,71,,76,76,12,29,3,7,0.3,0.7
2026-02-06T0800,1585A,109.8761,40.6533,包头市,市环境监测站,,23,,17,9,7,71,,70,70,8,9,4,5,0.3,0.3
2026-02-06T0800,1587A,109.9992,40.5843,包头市,包头八中,,18,14,25,12,10,55,,47,47,15,19,5,7,0.4,0.4
2026-02-06T0800,1589A,109.8641,40.6288,包头市,惠龙物流,,23,19,15,8,6,71,,72,72,10,10,7,7,0.4,0.4
2026-02-06T0800,1590A,110.0376,40.5546,包头市,东河鸿龙湾,,16,8,27,6,10,48,,47,47,31,28,8,10,0.4,0.4
2026-02-06T0800,3283A,109.9154,40.5684,包头市,滨河大厦,,20,6,15,3,7,63,,58,58,16,16,7,7,0.5,0.5
2026-02-06T0800,3419A,109.9449,40.6259,包头市,包头市委党校,,29,29,24,12,8,62,,60,60,16,14,9,9,0.4,0.4
2026-02-06T0800,3683A,109.8332,40.6577,包头市,昆区政府,,23,6,16,3,6,72,,72,72,10,10,6,6,0.4,0.4
2026-02-06T0800,1931A,107.0802,34.3129,宝鸡市,竹园沟,细颗粒物(PM2.5),118,90,101,89,85,20,,24,24,25,29,6,8,0.7,0.7
2026-02-06T0800,1933A,107.1429,34.3549,宝鸡市,监测站,细颗粒物(PM2.5),179,148,134,135,111,14,,18,18,41,41,7,7,0.9,0.8
2026-02-06T0800,1934A,107.1172,34.3759,宝鸡市,技工学校,细颗粒物(PM2.5),169,143,139,128,102,23,,28,28,28,33,15,10,1.0,0.9
2026-02-06T0800,1936A,107.2025,34.3518,宝鸡市,文理学院,细颗粒物(PM2.5),155,149,134,118,100,14,,23,23,41,39,5,6,1.2,1.1
2026-02-06T0800,1937A,107.2396,34.3626,宝鸡市,三迪小学,细颗粒物(PM2.5),155,147,139,118,105,16,,20,20,44,49,4,6,1.0,1
2026-02-06T0800,4155A,107.1721,34.3558,宝鸡市,滨河北路,细颗粒物(PM2.5),145,149,147,111,96,13,,22,22,32,34,6,7,0.9,0.8
2026-02-06T0800,4308A,107.3898,34.3601,宝鸡市,陈仓区北开路21号,细颗粒物(PM2.5),190,179,172,143,127,76,,40,40,42,47,105,54,1.7,1.1
2026-02-06T0800,1051A,115.4803,38.8568,保定市,游泳馆,,31,31,95,3,20,68,,57,57,7,16,3,3,0.6,0.5
2026-02-06T0800,1052A,115.509,38.8895,保定市,华电二区,,26,26,75,6,17,63,,42,42,8,22,2,3,0.6,0.7
2026-02-06T0800,1053A,115.4588,38.9037,保定市,接待中心,,25,25,69,6,20,61,,51,51,11,19,3,2,0.0,0.1
2026-02-06T0800,1054A,115.4484,38.8344,保定市,地表水厂,,32,32,92,3,16,68,,58,58,12,21,2,3,0.1,0.2
2026-02-06T0800,3581A,115.3136,38.9511,保定市,满城区生态环境分局,,24,24,77,3,14,55,,53,53,16,21,3,2,0.2,0.3
2026-02-06T0800,3582A,115.4709,38.7628,保定市,清苑区第二中学,,34,34,113,3,22,65,,50,50,10,25,4,6,0.2,0.3
2026-02-06T0800,3583A,115.6231,39.0223,保定市,徐水物探局,,21,21,92,3,20,63,,53,53,13,19,3,5,0.4,0.4
2026-02-06T0800,4004A,115.4199,38.8665,保定市,双鹰农机,,27,27,88,10,19,71,,64,64,2,11,3,3,0.1,0.2
2026-02-06T0800,4034A,115.515,38.8589,保定市,植保所站,,50,50,86,9,15,65,,53,53,9,18,3,3,0.5,0.6
2026-02-06T0800,2594A,99.1589,25.1137,保山市,市环境监测站,,19,18,25,13,14,57,,63,63,8,8,4,4,0.4,0.3
2026-02-06T0800,2595A,99.1616,25.1381,保山市,市环保局,,20,17,31,11,12,63,,71,71,4,5,3,3,0.4,0.5
2026-02-06T0800,1867A,109.1435,21.4085,北海市,海滩公园,,22,22,38,12,20,62,,67,67,11,16,2,3,0.5,0.7
2026-02-06T0800,1868A,109.0983,21.466,北海市,新市环保局,,31,31,34,16,17,51,,67,67,20,15,6,6,0.5,0.5
2026-02-06T0800,1869A,109.1775,21.5232,北海市,北海工业园,,50,50,45,31,22,42,,56,56,16,13,5,5,0.6,0.6
2026-02-06T0800,3400A,109.1844,21.4396,北海市,龙潭自来水厂,,42,38,35,29,22,38,,56,56,9,10,5,4,0.5,0.4
2026-02-06T0800,1001A,116.3611,39.8786,北京市,万寿西宫,,25,10,23,3,4,77,,77,77,3,3,1,2,0.5,0.4
2026-02-06T0800,1003A,116.4174,39.9289,北京市,东四,,21,9,21,3,4,66,,67,67,13,12,4,4,0.2,0.2
2026-02-06T0800,1004A,116.4073,39.8858,北京市,天坛,,22,10,26,3,4,68,,68,68,8,10,2,2,0.3,0.2
2026-02-06T0800,1005A,116.4622,39.9364,北京市,农展馆,,24,9,19,3,3,74,,73,73,3,5,5,4,0,0.1
2026-02-06T0800,1006A,116.3399,39.9293,北京市,官园,,20,9,23,3,4,63,,63,63,7,9,2,2,0.3,0.3
2026-02-06T0800,1007A,116.2879,39.9613,北京市,海淀万柳,,19,9,21,3,4,60,,60,60,13,13,2,2,0.2,0.2
2026-02-06T0800,1008A,116.6635,40.1349,北京市,顺义新城,,24,6,8,3,2,76,,76,76,3,4,5,4,0.3,0.2
2026-02-06T0800,1009A,116.6275,40.327,北京市,怀柔镇,,22,7,10,3,3,70,,71,71,3,4,4,4,0.3,0.3
2026-02-06T0800,1010A,116.2295,40.217,北京市,昌平镇,,17,10,22,3,4,46,,69,69,34,10,1,2,0.3,0.3
2026-02-06T0800,1011A,116.3968,39.982,北京市,奥体中心,,22,8,17,3,3,70,,66,66,8,10,5,4,0.2,0.2
2026-02-06T0800,3418A,116.8336,40.4095,北京市,密云新城,,23,6,8,3,3,73,,73,73,4,4,3,3,0.2,0.2
2026-02-06T0800,3671A,116.0879,39.9725,北京市,门头沟三家店,,18,11,13,3,4,57,,61,61,7,4,2,3,0.4,0.4
2026-02-06T0800,3672A,116.1507,39.8246,北京市,丰台云岗,,23,7,13,3,3,71,,71,71,10,10,1,2,0.3,0.3
2026-02-06T0800,3674A,115.9578,39.7602,北京市,房山燕山,,20,11,16,3,4,62,,58,58,9,9,3,3,0.2,0.1
2026-02-06T0800,3675A,116.4669,39.7734,北京市,大兴旧宫,,22,15,27,3,4,68,,66,66,10,12,3,3,0.3,0.4
2026-02-06T0800,3694A,115.9859,40.4562,北京市,延庆石河营,,22,9,16,3,4,70,,72,72,2,2,3,3,0.4,0.3
2026-02-06T0800,3695A,116.6151,40.3052,北京市,怀柔新城,,23,8,10,3,4,71,,73,73,2,2,2,2,0.3,0.3
2026-02-06T0800,3696A,116.2542,39.8764,北京市,丰台小屯,,17,10,22,3,4,54,,50,50,12,12,3,3,0.3,0.3
2026-02-06T0800,3697A,116.8399,40.3843,北京市,密云镇,,24,6,9,3,3,75,,74,74,4,5,2,3,0.3,0.3
2026-02-06T0800,4057A,115.9423,40.4431,北京市,延庆百泉,,21,9,20,3,5,66,,69,69,3,2,2,2,0.3,0.2
2026-02-06T0800,4058A,116.6598,39.9164,北京市,通州新华,,25,6,13,3,3,78,,76,76,1,6,2,2,0.4,0.4
2026-02-06T0800,4182A,116.1942,39.9158,北京市,石景山八角,,20,12,21,3,4,61,,57,57,5,6,2,3,0.1,0.1
2026-02-06T0800,4194A,117.078628,40.151726,北京市,平谷新城,,23,6,9,3,3,72,,71,71,5,6,3,3,0.1,0.2
2026-02-06T0800,1761A,123.8274146,41.31234549,本溪市,大峪,,38,38,119,3,8,64,,66,66,6,7,7,8,0.5,0.4
2026-02-06T0800,1763A,123.7169,41.3094,本溪市,彩屯,颗粒物(PM10),61,71,104,9,9,68,,72,72,16,13,7,7,0.7,0.6
2026-02-06T0800,1764A,123.7672166,41.28649327,本溪市,东明,,21,18,140,3,7,66,,69,69,11,11,8,9,0.7,0.7
2026-02-06T0800,1765A,123.799345,41.266614,本溪市,新立屯,,22,18,154,3,8,69,,69,69,2,5,9,10,0.7,0.7
2026-02-06T0800,1766A,123.829144,41.336777,本溪市,威宁,,20,16,163,8,9,61,,63,63,11,12,6,6,0.4,0.4
2026-02-06T0800,2587A,105.287,27.3133,毕节市,八中,"颗粒物(PM10),细颗粒物(PM2.5)",54,58,43,38,29,36,,55,55,12,11,9,8,0.9,0.9
2026-02-06T0800,2588A,105.3079,27.2987,毕节市,师专,细颗粒物(PM2.5),52,52,38,36,25,32,,56,56,17,14,8,8,1.0,0.8
2026-02-06T0800,4263A,105.3688,27.3598,毕节市,工业大道,细颗粒物(PM2.5),59,60,43,42,32,28,,59,59,24,13,11,9,/,/
2026-02-06T0800,1629A,117.9961,37.3604,滨州市,第二水厂,颗粒物(PM10),51,51,106,3,35,57,,58,58,8,17,8,9,0.5,0.6
2026-02-06T0800,1630A,117.9789,37.3931,滨州市,北中新校,,48,48,94,3,34,59,,61,61,12,18,4,7,0.4,0.6
2026-02-06T0800,3514A,117.9379,37.3959,滨州市,中海酒店,,41,41,96,3,35,73,,74,74,9,18,6,8,0.5,0.6
2026-02-06T0800,3515A,117.9381509,37.35547456,滨州市,开发区一中,颗粒物(PM10),53,56,122,3,33,60,,63,63,5,14,10,12,0.5,0.7
2026-02-06T0800,3516A,118.0914,37.6938,滨州市,金海六路,,,49,96,3,38,66,,70,70,7,16,2,9,,1.1
2026-02-06T0800,4028A,117.9955,37.3752,滨州市,滨州市西街道办事处,,44,44,102,9,38,64,,66,66,11,17,7,9,0.2,0.3
2026-02-06T0800,2311A,115.8071,33.8399,亳州市,污水处理厂,颗粒物(PM10),56,62,151,8,93,52,,51,51,15,29,6,8,0.3,0.7
2026-02-06T0800,2312A,115.7789,33.8519,亳州市,三国揽胜宫,颗粒物(PM10),61,71,175,7,92,48,,47,47,28,39,6,7,0.3,0.7
2026-02-06T0800,3332A,115.7631,33.803,亳州市,亳州学院,颗粒物(PM10),57,63,153,7,92,46,,44,44,16,27,5,6,0.4,0.7
2026-02-06T0800,2693A,82.0482,44.8553,博尔塔拉蒙古自治州,市党校,颗粒物(PM10),74,98,89,52,51,49,,68,68,20,18,2,2,1.3,1.2
2026-02-06T0800,2694A,82.0805,44.8966,博尔塔拉蒙古自治州,市环保局,细颗粒物(PM2.5),114,150,102,86,64,47,,60,60,17,20,4,4,0.8,1
2026-02-06T0800,1071A,116.8733,38.2922,沧州市,沧县城建局,颗粒物(PM10),57,63,108,9,30,61,,33,33,14,28,3,6,0.3,0.4
2026-02-06T0800,1072A,116.8462,38.3189,沧州市,电视转播站,颗粒物(PM10),51,52,95,10,34,53,,27,27,18,30,3,3,0.4,0.5
2026-02-06T0800,1073A,116.8588,38.3161,沧州市,市环保局,颗粒物(PM10),52,53,104,10,29,46,,27,27,17,27,5,6,0.4,0.5
2026-02-06T0800,3324A,116.8011,38.294,沧州市,河北水利电力学院,,39,39,106,11,30,53,,39,39,12,21,3,4,0.2,0.3
2026-02-06T0800,2622A,97.1813,31.1289,昌都市,昌都监测站,,23,17,23,16,11,71,,72,72,5,6,2,3,0.2,0.3
2026-02-06T0800,3719A,97.1707,31.1428,昌都市,昌都会议中心,,23,23,25,9,9,70,,68,68,2,2,4,4,0.2,0.2
2026-02-06T0800,2692A,87.2722,44.0298,昌吉回族自治州,新区政务中心,颗粒物(PM10),72,94,115,45,88,71,,62,62,14,30,7,8,1.2,1.4
2026-02-06T0800,3613A,87.3069,44.0093,昌吉回族自治州,亚心广场,细颗粒物(PM2.5),124,122,138,94,108,68,,63,63,13,26,7,8,1.3,1.4
2026-02-06T0800,4164A,87.2057,43.9289,昌吉回族自治州,财政所,细颗粒物(PM2.5),137,115,120,104,94,57,,47,47,12,24,5,6,1.2,1.2
2026-02-06T0800,1120A,125.2874,43.9024,长春市,客车厂,,46,46,113,25,15,48,,51,51,15,11,7,6,0.5,0.3
2026-02-06T0800,1121A,125.2943,43.8508,长春市,邮电学院,,35,35,100,18,14,45,,49,49,18,13,9,8,0.4,0.3
2026-02-06T0800,1122A,125.3648,43.8745,长春市,劳动公园,,34,34,95,18,15,50,,55,55,15,10,4,4,1.0,0.7
2026-02-06T0800,1123A,125.3233,43.8781,长春市,园林处,,36,34,92,25,20,48,,51,51,16,11,9,7,0.5,0.4
2026-02-06T0800,1124A,125.4604,43.7904,长春市,净月潭,,17,17,93,10,12,51,,53,53,14,11,7,5,0.3,0.3
2026-02-06T0800,1126A,125.38,43.8422,长春市,经开区环卫处,,25,25,95,14,14,43,,46,46,22,16,10,8,0.4,0.3
2026-02-06T0800,1127A,125.234,43.7761,长春市,高新区管委会,,33,26,111,23,14,54,,60,60,13,8,8,6,0.5,0.3
2026-02-06T0800,1128A,125.1695,43.83,长春市,岱山公园,,,31,121,16,17,,,57,57,,12,,5,,0.3
2026-02-06T0800,4281A,125.334645,43.916281,长春市,北亚泰大街1068号,,36,36,99,16,18,32,,42,42,30,19,13,9,0.7,0.4
2026-02-06T0800,1335A,113.082,28.2421,长沙市,经开区环保局,细颗粒物(PM2.5),87,102,92,64,64,14,,21,21,25,31,3,3,0.8,0.8
2026-02-06T0800,1336A,112.8873,28.2202,长沙市,高开区环保局,细颗粒物(PM2.5),99,102,102,74,88,23,,31,31,20,21,4,6,1.0,1
2026-02-06T0800,1337A,113.0785,28.2012,长沙市,马坡岭,细颗粒物(PM2.5),102,114,105,76,76,20,,29,29,23,28,4,5,1.0,0.9
2026-02-06T0800,1338A,112.9448,28.1894,长沙市,湖南师范大学,细颗粒物(PM2.5),87,110,112,64,78,28,,37,37,15,18,4,4,1.1,1
2026-02-06T0800,1339A,113.0177,28.1322,长沙市,雨花区环保局,细颗粒物(PM2.5),85,100,92,63,66,18,,29,29,22,31,8,8,1.0,0.9
2026-02-06T0800,1340A,112.9795,28.2593,长沙市,伍家岭,细颗粒物(PM2.5),100,119,103,75,79,20,,30,30,22,25,6,5,0.9,0.8
2026-02-06T0800,1341A,113.002,28.1944,长沙市,火车新站,细颗粒物(PM2.5),102,95,96,76,76,24,,37,37,21,25,2,2,1.1,1.1
2026-02-06T0800,1342A,112.9846,28.1177,长沙市,天心区环保局,细颗粒物(PM2.5),102,108,100,76,74,24,,36,36,21,26,5,6,0.8,0.7
2026-02-06T0800,1343A,112.8906,28.1307,长沙市,湖南中医药大学,细颗粒物(PM2.5),88,102,106,65,74,30,,39,39,19,27,6,7,1.1,1
2026-02-06T0800,1727A,113.1146,36.1547,长治市,清华站,细颗粒物(PM2.5),75,78,84,55,42,52,,54,54,21,27,6,13,0.9,0.9
2026-02-06T0800,1730A,113.0887,36.2126,长治市,审计局,细颗粒物(PM2.5),63,71,84,45,44,52,,55,55,17,23,8,14,0.7,0.8
2026-02-06T0800,1731A,113.0845,36.1856,长治市,长治八中,细颗粒物(PM2.5),84,88,101,62,46,51,,54,54,17,22,8,15,0.8,0.8
2026-02-06T0800,2845A,113.1561,36.1912,长治市,德盛苑,细颗粒物(PM2.5),95,85,79,71,44,54,,51,51,19,21,6,13,0.8,0.8
2026-02-06T0800,3568A,113.0603,36.0464,长治市,向阳小学,细颗粒物(PM2.5),92,108,111,68,48,44,,48,48,25,29,10,20,1.4,1.1
2026-02-06T0800,3569A,112.8788,36.315,长治市,屯留一中,细颗粒物(PM2.5),80,90,94,59,43,43,,43,43,36,34,8,18,1.7,1.3
2026-02-06T0800,4189A,113.113092,36.199482,长治市,英华南巷50号,细颗粒物(PM2.5),73,84,89,53,43,53,,55,55,15,22,5,13,0.8,0.8
2026-02-06T0800,4190A,113.23666,36.33435,长治市,学府街1号,细颗粒物(PM2.5),62,72,92,44,43,52,,54,54,24,31,15,19,0.8,1.1
2026-02-06T0800,1854A,111.696,28.9725,常德市,市二中,细颗粒物(PM2.5),172,181,139,130,99,7,,7,7,26,29,5,5,1.6,1.4
2026-02-06T0800,3138A,111.7152,29.0288,常德市,武陵区永安,细颗粒物(PM2.5),216,200,157,166,118,6,,11,11,31,30,5,4,1.6,1.4
2026-02-06T0800,3139A,111.6891,28.9881,常德市,鼎城区玉霞,细颗粒物(PM2.5),189,167,135,142,104,3,,3,3,29,35,4,5,1.5,1.3
2026-02-06T0800,3140A,111.6651,29.0526,常德市,武陵区长庚,细颗粒物(PM2.5),226,195,149,176,126,4,,6,6,30,29,6,5,1.4,1.2
2026-02-06T0800,1196A,119.9524,31.7586,常州市,市监测站,,37,37,125,6,83,71,,86,86,14,49,7,10,0.3,0.8
2026-02-06T0800,1200A,119.9351,31.703,常州市,武进监测站,,42,42,123,7,84,63,,77,77,14,50,8,11,0.5,1
2026-02-06T0800,3002A,119.9701,31.813,常州市,行政中心,颗粒物(PM10),69,87,126,3,87,70,,85,85,12,44,4,8,0.4,0.9
2026-02-06T0800,3003A,120.0434,31.7726,常州市,经开区,,40,40,136,6,83,65,,80,80,11,47,4,7,0.4,1
2026-02-06T0800,3010A,119.8919,31.7892,常州市,钟楼,,43,43,121,7,84,68,,78,78,14,42,6,10,0.4,0.8
2026-02-06T0800,3429A,119.8595,31.706,常州市,武进经发区,,39,39,118,14,91,66,,76,76,14,47,4,8,0.6,1.1
2026-02-06T0800,3430A,119.5812,31.7256,常州市,金坛城区,,41,41,115,13,89,70,,83,83,10,33,6,8,0.3,0.8
2026-02-06T0800,4089A,119.9551,31.863,常州市,崇义南街5-H号,颗粒物(PM10),63,76,124,3,90,67,,82,82,10,39,4,7,0.5,1
2026-02-06T0800,2220A,120.4318,41.588,朝阳市,西梁,,31,31,48,7,7,59,,73,73,26,9,12,6,0.4,0.3
2026-02-06T0800,2221A,120.452,41.565,朝阳市,河畔小区,,36,36,53,3,5,66,,74,74,16,6,13,7,0.4,0.3
2026-02-06T0800,2222A,120.4176,41.5648,朝阳市,八里堡,,29,29,57,6,7,70,,68,68,10,9,9,9,0.5,0.4
2026-02-06T0800,3026A,116.6179,23.6608,潮州市,市政府,,42,37,62,29,38,45,,42,42,21,22,5,6,0.6,0.6
2026-02-06T0800,4036A,116.646,23.676,潮州市,金山,,33,30,52,23,33,42,,47,47,16,19,2,4,0.6,0.6
2026-02-06T0800,2473A,113.0116,25.8228,郴州市,市职中,细颗粒物(PM2.5),108,88,85,81,74,14,,16,16,18,24,5,9,0.9,0.9
2026-02-06T0800,2475A,113.0381,25.8074,郴州市,市审计局,细颗粒物(PM2.5),108,100,85,81,65,10,,16,16,22,26,3,5,/,/
2026-02-06T0800,2476A,113.0348,25.7757,郴州市,市环保局,细颗粒物(PM2.5),178,,95,134,98,14,,24,24,30,30,4,14,0.8,0.7
2026-02-06T0800,4252A,113.0138,25.8011,郴州市,好美居路49号,细颗粒物(PM2.5),112,,79,84,65,23,,26,26,27,29,2,6,/,/
2026-02-06T0800,1431A,103.9727,30.7242,成都市,金泉两河,细颗粒物(PM2.5),122,112,129,92,92,1,,9,9,69,51,2,3,1.4,1.2
2026-02-06T0800,1432A,104.1423,30.6765,成都市,十里店,细颗粒物(PM2.5),92,122,124,68,73,18,,27,27,52,44,4,4,0.8,0.8
2026-02-06T0800,1433A,104.0594,30.5765,成都市,三瓦窑,细颗粒物(PM2.5),99,97,98,74,72,1,,18,18,70,51,3,3,1.0,1
2026-02-06T0800,1434A,104.1122,30.6306,成都市,沙河铺,细颗粒物(PM2.5),93,102,110,69,71,22,,30,30,44,47,3,3,0.9,1
2026-02-06T0800,2880A,104.0219,30.6561,成都市,大石西路,细颗粒物(PM2.5),123,131,127,93,94,11,,14,14,55,48,4,5,1.1,1.1
2026-02-06T0800,3136A,104.2724,30.559,成都市,龙泉驿区区政府,细颗粒物(PM2.5),82,75,81,60,60,49,,60,60,19,18,6,6,0.9,0.9
2026-02-06T0800,3357A,104.0028,30.6891,成都市,金博路,细颗粒物(PM2.5),143,123,125,109,92,13,,21,21,63,49,4,5,1.1,1.1
2026-02-06T0800,3359A,104.056,30.5228,成都市,华阳,细颗粒物(PM2.5),97,88,94,72,71,18,,42,42,56,44,3,3,0.7,0.9
2026-02-06T0800,3488A,104.387954,30.746684,成都市,青石路225号,细颗粒物(PM2.5),83,98,106,61,69,28,,42,42,48,35,2,2,1.2,1.2
2026-02-06T0800,3489A,104.0788,30.4054,成都市,科学城,细颗粒物(PM2.5),83,87,91,61,71,41,,38,38,14,20,6,7,0.9,1
2026-02-06T0800,4011A,103.8505,30.6946,成都市,光华大道三段,细颗粒物(PM2.5),128,153,142,97,88,20,,31,31,54,44,3,4,1.1,1
2026-02-06T0800,4144A,104.3257,30.6406,成都市,八角井街185号,细颗粒物(PM2.5),108,116,99,81,66,48,,56,56,27,26,3,3,0.8,0.8
2026-02-06T0800,4224A,104.2433276,30.53529463,成都市,鲸龙路1057号,细颗粒物(PM2.5),87,89,85,64,59,16,,29,29,50,31,5,5,0.9,0.9
2026-02-06T0800,1062A,117.9531,40.908,承德市,铁路,,26,26,34,3,6,73,,77,77,5,3,3,2,0.2,0.2
2026-02-06T0800,1063A,117.9397,40.9763,承德市,中国银行,,24,7,33,3,5,75,,78,78,3,4,1,1,0.2,0.2
2026-02-06T0800,4073A,117.9462,40.95,承德市,杏林街1号,,24,13,25,3,7,76,,78,78,2,2,3,3,0.2,0.2
2026-02-06T0800,4274A,117.7994,40.9605,承德市,滨河大街98号,,20,18,31,3,7,64,,67,67,9,5,2,2,0.2,0.2
2026-02-06T0800,2314A,117.4698,30.6617,池州市,池州学院,细颗粒物(PM2.5),87,77,76,64,56,73,,36,36,24,48,4,6,1.2,1.5
2026-02-06T0800,3237A,117.4918,30.6617,池州市,展览馆,细颗粒物(PM2.5),97,86,85,72,67,75,,35,35,20,48,2,5,1.0,1.2
2026-02-06T0800,3333A,117.5626,30.695,池州市,第八中学,细颗粒物(PM2.5),75,69,72,55,51,72,,40,40,20,43,3,5,0.9,1.2
2026-02-06T0800,3334A,117.5037,30.6242,池州市,第十二中学,细颗粒物(PM2.5),83,76,68,61,51,75,,48,48,25,40,2,5,1.1,1.4
2026-02-06T0800,1744A,118.9229,42.2816,赤峰市,松山一中,,18,18,77,3,6,44,,58,58,23,8,4,2,0.8,0.6
2026-02-06T0800,1745A,118.9588,42.2733,赤峰市,哈达街,,18,16,31,12,6,50,,62,62,2,4,10,8,0.6,0.5
2026-02-06T0800,1746A,118.8792,42.2551,赤峰市,天义路,,18,11,28,6,7,57,,67,67,16,5,8,5,0.6,0.5
2026-02-06T0800,3058A,119.2656,42.0356,赤峰市,银河街,,38,30,54,26,12,48,,53,53,17,7,21,10,0.7,0.6
2026-02-06T0800,3286A,118.9359,42.3146,赤峰市,桥北物流园区,,16,16,17,8,5,43,,67,67,24,8,3,4,0.6,0.4
2026-02-06T0800,2521A,107.3473,22.4137,崇左市,市环保局江州分局,细颗粒物(PM2.5),108,98,91,81,68,0,,13,13,35,26,4,5,1.0,1
2026-02-06T0800,4256A,107.375,22.3736,崇左市,石景林东路7号,细颗粒物(PM2.5),92,83,73,68,59,3,,5,5,32,32,2,2,0.8,0.8
2026-02-06T0800,3207A,118.31131,32.3033,滁州市,市政府原办公楼,颗粒物(PM10),57,63,107,14,82,75,,84,84,10,25,4,6,0.2,0.5
2026-02-06T0800,3331A,118.3268,32.2633,滁州市,图书馆,颗粒物(PM10),58,66,99,6,59,72,,77,77,4,25,7,8,0,0.5
2026-02-06T0800,4101A,118.3196,32.3335,滁州市,银山路666号,颗粒物(PM10),52,54,99,15,81,72,,81,81,6,20,3,7,0.3,0.7
2026-02-06T0800,4102A,118.3426,32.2979,滁州市,黄山路555号,颗粒物(PM10),61,71,120,15,76,69,,77,77,8,30,4,6,0.2,0.6
2026-02-06T0800,2606A,101.5379,25.0492,楚雄彝族自治州,市经济开发区,,25,25,23,17,13,12,,28,28,48,26,3,3,0.5,0.5
2026-02-06T0800,4153A,101.5536,25.0343,楚雄彝族自治州,团结路562号,,36,,21,25,17,15,,32,32,27,14,4,4,0.6,0.5
2026-02-06T0800,2549A,107.5087,31.2186,达州市,市环境监测站,细颗粒物(PM2.5),84,89,113,62,80,4,,4,4,25,33,11,12,0.6,0.7
2026-02-06T0800,2550A,107.4988,31.2132,达州市,凤凰小区,细颗粒物(PM2.5),88,90,114,65,80,3,,4,4,30,36,10,12,0.8,0.8
2026-02-06T0800,2551A,107.5081,31.1987,达州市,达县机关宾馆,细颗粒物(PM2.5),90,97,119,67,84,3,,3,3,34,40,12,13,1.0,1
2026-02-06T0800,2552A,107.4644,31.2124,达州市,市政中心,细颗粒物(PM2.5),90,93,124,67,79,3,,3,3,31,41,7,10,0.9,1
2026-02-06T0800,2614A,100.2168,25.5818,大理白族自治州,大理市环境监测站,,21,18,21,13,13,66,,74,74,9,7,7,7,0.5,0.5
2026-02-06T0800,2615A,100.1542,25.7055,大理白族自治州,大理古城,,21,21,23,12,13,52,,64,64,15,7,8,8,0.6,0.6
2026-02-06T0800,1109A,121.6119,38.974,大连市,甘井子,,44,44,88,3,16,73,,73,73,8,9,10,7,0.3,0.4
2026-02-06T0800,1110A,121.565,38.9509,大连市,周水子,,47,47,87,3,16,75,,73,73,6,10,4,8,0.3,0.3
2026-02-06T0800,1111A,121.5637,38.8849,大连市,星海三站,,40,40,74,3,12,70,,68,68,11,14,8,6,0.3,0.4
2026-02-06T0800,1112A,121.6301,38.9117,大连市,青泥洼桥,,23,23,78,3,15,70,,70,70,13,14,10,8,0.2,0.3
2026-02-06T0800,1113A,121.6248,38.8643,大连市,傅家庄,,22,17,44,3,14,70,,68,68,6,8,7,7,0.6,0.7
2026-02-06T0800,1114A,121.5117,38.8636,大连市,七贤岭,颗粒物(PM10),53,55,96,3,16,71,,71,71,11,13,8,9,0.5,0.5
2026-02-06T0800,1116A,121.7507,39.1339,大连市,金州,,40,40,64,9,17,63,,65,65,14,13,8,8,0.2,0.3
2026-02-06T0800,1117A,121.7811,39.0495,大连市,开发区,颗粒物(PM10),51,52,83,3,14,70,,70,70,8,8,6,7,0.3,0.3
2026-02-06T0800,1118A,121.9762,39.0631,大连市,双D港,,24,19,136,7,15,76,,77,77,12,12,8,8,0.4,0.5
2026-02-06T0800,4082A,121.2548,38.8188,大连市,旅顺,,26,26,53,3,14,69,,69,69,4,7,6,7,0.5,0.5
2026-02-06T0800,1789A,124.8085,46.0381,大庆市,大同区,,30,30,45,14,14,44,,56,56,16,6,5,5,0.4,0.4
2026-02-06T0800,1790A,125.1166,46.5255,大庆市,龙凤区,,26,26,38,16,13,38,,50,50,30,14,10,8,0.7,0.5
2026-02-06T0800,1791A,124.8894,46.4007,大庆市,红岗区,,28,28,40,6,11,46,,50,50,13,10,3,4,0.5,0.5
2026-02-06T0800,1792A,125.1391,46.578,大庆市,萨尔图区,,22,19,33,15,12,38,,47,47,28,15,7,9,0.6,0.4
2026-02-06T0800,1793A,124.9026,46.6217,大庆市,让胡路区,,27,27,29,17,13,48,,59,59,16,8,8,7,0.5,0.4
2026-02-06T0800,3481A,125.127,46.6277,大庆市,萨区政府监测点,,32,30,34,22,17,33,,43,43,27,10,9,8,0.7,0.5
2026-02-06T0800,1723A,113.2926,40.0759,大同市,云冈宾馆,,21,16,20,10,6,65,,62,62,7,8,6,5,0.5,0.3
2026-02-06T0800,1724A,113.3437,40.0921,大同市,大同大学,,44,44,22,3,8,66,,66,66,9,8,5,6,0.5,0.4
2026-02-06T0800,1725A,113.2637,40.129,大同市,安家小村,,25,25,16,3,5,68,,65,65,5,8,6,6,0.2,0.2
2026-02-06T0800,3282A,113.3399,40.0586,大同市,大同市卫生学校,,31,31,19,10,8,73,,74,74,10,9,3,4,0.8,0.5
2026-02-06T0800,3565A,113.1371,40.1122,大同市,云冈站,,27,27,20,3,5,64,,63,63,7,8,6,6,0.4,0.4
2026-02-06T0800,3566A,113.1186,40.2556,大同市,图书馆,,22,22,24,7,10,62,,60,60,13,13,7,7,0.7,0.8
2026-02-06T0800,3567A,113.5931,40.0459,大同市,区一中,,39,39,81,11,14,67,,65,65,5,14,7,9,0.3,0.4
2026-02-06T0800,4199A,113.2798248,40.09972476,大同市,魏都大道141号,,46,46,34,3,6,69,,66,66,6,7,4,4,0.3,0.4
2026-02-06T0800,2269A,124.1068,50.4091,大兴安岭地区,科技局,,20,20,23,7,11,59,,59,59,2,2,5,6,0.2,0.2
2026-02-06T0800,3663A,124.117,50.4279,大兴安岭地区,红旗社区,,21,,8,10,10,66,,70,70,5,2,6,6,0.2,0.1
2026-02-06T0800,1600A,124.33,40.0625,丹东市,江湾东路,颗粒物(PM10),62,74,106,8,16,62,,67,67,14,13,7,6,0.4,0.5
2026-02-06T0800,1601A,124.4242,40.1513,丹东市,临江后街,颗粒物(PM10),56,62,92,7,14,64,,69,69,9,9,7,6,0.5,0.4
2026-02-06T0800,1602A,124.3935,40.1461,丹东市,元宝山,颗粒物(PM10),59,67,92,7,13,67,,66,66,5,9,6,6,0.3,0.3
2026-02-06T0800,1603A,124.3634,40.1093,丹东市,民主桥,,42,42,96,3,15,60,,69,69,16,13,9,7,0.5,0.5
2026-02-06T0800,3541A,109.5726195,19.51688767,儋州市,第一中学子站,,31,31,28,17,15,36,,48,48,10,6,18,6,0.8,0.7
2026-02-06T0800,3542A,109.5567,19.5187,儋州市,东坡学校子站,,34,34,27,18,12,30,,46,46,11,8,12,5,0.6,0.5
2026-02-06T0800,2616A,98.5611,24.4273,德宏傣族景颇族自治州,德宏州监测站,,43,43,54,29,37,6,,18,18,31,23,6,6,1.0,1
2026-02-06T0800,3677A,98.5887,24.4366,德宏傣族景颇族自治州,芒市人民政府综合楼,颗粒物(PM10),55,60,56,28,29,18,,30,30,18,15,4,4,0.8,0.7
2026-02-06T0800,1901A,104.424,31.1209,德阳市,东山公园,细颗粒物(PM2.5),95,76,88,71,78,41,,54,54,18,18,1,2,0.9,0.9
2026-02-06T0800,1902A,104.3827,31.1318,德阳市,西小区,细颗粒物(PM2.5),97,95,108,72,83,5,,20,20,53,38,3,4,1.0,0.9
2026-02-06T0800,1904A,104.3553,31.1091,德阳市,耐火材料厂,细颗粒物(PM2.5),107,91,102,80,90,3,,13,13,53,41,1,2,1.0,0.9
2026-02-06T0800,4145A,104.4144,31.1495,德阳市,市林业局,细颗粒物(PM2.5),104,88,98,78,81,12,,21,21,32,39,4,4,1.0,1
2026-02-06T0800,1622A,116.3034,37.4675,德州市,儿童乐园,颗粒物(PM10),56,61,130,3,31,59,,64,64,20,25,10,12,0.7,0.9
2026-02-06T0800,1624A,116.2992,37.4449,德州市,监理站,颗粒物(PM10),54,58,130,3,29,66,,71,71,20,26,8,10,0.5,0.6
2026-02-06T0800,3066A,116.2722,37.438,德州市,九衢泉纯净水厂,颗粒物(PM10),51,51,121,3,31,61,,68,68,19,22,6,7,0.4,0.6
2026-02-06T0800,3371A,116.3693,37.44,德州市,开发区人民医院,颗粒物(PM10),53,56,132,3,30,60,,66,66,14,17,10,12,0.3,0.5
2026-02-06T0800,3511A,116.5687,37.3331,德州市,陵城艺术中心,颗粒物(PM10),52,53,133,3,35,52,,52,52,21,28,10,9,0.6,0.8
2026-02-06T0800,4292A,116.352738,37.420875,德州市,新河东路,颗粒物(PM10),52,53,121,3,25,59,,65,65,11,21,10,11,0.4,0.6
2026-02-06T0800,2621A,99.7054,27.8319,迪庆藏族自治州,迪庆州站,,24,24,22,14,12,58,,66,66,6,7,5,5,0.6,0.7
2026-02-06T0800,3180A,99.7122,27.8129,迪庆藏族自治州,质量技术监督局,,19,15,22,13,13,58,,71,71,12,9,4,4,0.5,0.5
2026-02-06T0800,4257A,104.6092,35.5962,定西市,将台街,颗粒物(PM10),69,88,75,44,42,18,,34,34,38,28,13,15,0.7,0.8
2026-02-06T0800,4309A,104.6159,35.5701,定西市,正龙路62号,颗粒物(PM10),78,105,82,42,40,35,,43,43,17,16,14,14,1.0,0.9
2026-02-06T0800,1390A,113.7943,23.0132,东莞市,东城石井,颗粒物(PM10),86,122,47,49,24,1,,13,13,73,43,7,7,0.9,0.6
2026-02-06T0800,1391A,113.7384,22.9659,东莞市,南城西平,细颗粒物(PM2.5),57,62,41,40,26,0,,0,0,88,54,8,7,0.8,0.6
2026-02-06T0800,3319A,113.7283,23.041,东莞市,万江金泰,颗粒物(PM10),78,105,59,55,36,5,,5,5,82,55,8,6,1.2,0.9
2026-02-06T0800,4129A,113.8666,23.1062,东莞市,裕兴路,细颗粒物(PM2.5),72,84,65,52,34,2,,0,0,48,42,7,6,1.0,0.9
2026-02-06T0800,4130A,114.0076,22.9739,东莞市,教育路1号,颗粒物(PM10),67,84,62,44,29,3,,1,1,70,60,5,5,0.8,0.7
2026-02-06T0800,4131A,113.7981,22.8124,东莞市,长怡路1号,颗粒物(PM10),64,78,62,38,30,2,,,,77,63,8,8,1.0,0.8
2026-02-06T0800,1666A,118.6612,37.4313,东营市,市环保局,,34,34,88,3,29,73,,75,75,16,21,7,9,0.4,0.6
2026-02-06T0800,3036A,118.6903,37.4337,东营市,开发区管委会,,35,35,96,3,29,75,,77,77,7,15,8,9,0.4,0.5
2026-02-06T0800,3365A,118.5721,37.5654,东营市,垦利区民丰路,,34,34,88,3,31,74,,76,76,9,17,5,7,0.5,0.6
2026-02-06T0800,3498A,118.5063,37.8606,东营市,河口城区,,34,34,90,3,26,73,,76,76,12,20,2,5,0.8,0.7
2026-02-06T0800,3646A,118.4979,37.4623,东营市,胜利站,,26,26,86,3,27,68,,70,70,12,25,6,7,0.7,0.7
2026-02-06T0800,3734A,118.5753,37.4405,东营市,理想之城,,44,44,76,3,31,56,,60,60,2,14,3,5,0.3,0.5
2026-02-06T0800,1591A,110.0024,39.8127,鄂尔多斯市,综合楼,,39,39,63,3,10,65,,42,42,16,33,7,8,0.2,0.3
2026-02-06T0800,1592A,109.9485,39.8259,鄂尔多斯市,巴音孟克林场办事处,,27,27,48,3,10,69,,56,56,13,25,6,7,0.3,0.3
2026-02-06T0800,1593A,109.7734,39.5987,鄂尔多斯市,康泽苑,,24,24,44,3,11,58,,43,43,15,25,8,6,0.4,0.4
2026-02-06T0800,1594A,109.8121,39.5987,鄂尔多斯市,华泰汽车城,,39,39,47,9,11,48,,35,35,23,29,7,7,0.2,0.3
2026-02-06T0800,1595A,109.9734,39.7884,鄂尔多斯市,奥林花园,,39,39,52,3,8,66,,49,49,16,26,4,5,0.3,0.3
2026-02-06T0800,2436A,114.894,30.3989,鄂州市,市政府,细颗粒物(PM2.5),82,80,91,60,62,0,,0,0,62,50,6,6,1.1,1.1
2026-02-06T0800,2437A,114.8986,30.3714,鄂州市,赵家坝,细颗粒物(PM2.5),88,89,95,65,66,2,,3,3,58,43,9,9,1.1,1.2
2026-02-06T0800,3654A,114.8093,30.4091,鄂州市,精准医疗中心,细颗粒物(PM2.5),70,86,90,51,55,4,,5,5,55,45,5,10,1.2,1.1
2026-02-06T0800,2454A,109.4978,30.2979,恩施土家族苗族自治州,湖北民院,细颗粒物(PM2.5),139,,109,106,100,1,,2,2,16,26,6,6,1.3,1.3
2026-02-06T0800,3549A,109.5061,30.3771,恩施土家族苗族自治州,龙凤新区,细颗粒物(PM2.5),109,113,107,82,82,0,,0,0,16,27,7,7,1.1,1
2026-02-06T0800,2499A,108.3411,21.6159,防城港市,沙万,颗粒物(PM10),79,108,57,27,24,7,,29,29,53,39,7,7,0.6,0.6
2026-02-06T0800,2500A,108.3515,21.7733,防城港市,防城档案局,颗粒物(PM10),51,51,46,33,30,17,,22,22,26,17,7,5,0.8,0.8
2026-02-06T0800,2501A,108.3506,21.6414,防城港市,大海花园,颗粒物(PM10),58,65,44,33,26,3,,47,47,53,26,6,7,0.9,0.9
2026-02-06T0800,1371A,113.1293,23.0065,佛山市,湾梁,,44,44,52,22,21,2,,16,16,59,42,/,/,/,/
2026-02-06T0800,1372A,113.1082,23.0477,佛山市,华材职中,,43,39,49,30,38,10,,29,29,56,32,6,7,0.8,0.7
2026-02-06T0800,1373A,113.1439,23.045,佛山市,南海气象局,,38,32,49,26,27,1,,11,11,63,46,/,/,/,/
2026-02-06T0800,1374A,113.2879,22.8094,佛山市,顺德苏岗,颗粒物(PM10),52,54,45,32,19,1,,12,12,64,44,/,/,1.0,0.8
2026-02-06T0800,1376A,112.8384,22.8678,佛山市,高明孔堂,,19,19,32,8,18,29,,40,40,14,16,/,/,/,/
2026-02-06T0800,1377A,112.8835,23.1584,佛山市,三水监测站,颗粒物(PM10),53,56,60,33,31,5,,7,7,56,59,3,3,0.6,0.5
2026-02-06T0800,1378A,112.8668,23.185,佛山市,三水云东海,颗粒物(PM10),59,67,54,30,26,1,,7,7,52,46,/,/,/,/
2026-02-06T0800,3625A,113.2568,22.7629,佛山市,容桂街道办,,46,46,47,28,23,2,,19,19,63,42,/,/,/,/
2026-02-06T0800,1282A,119.2681,26.0506,福州市,师大,细颗粒物(PM2.5),52,39,51,36,35,47,,53,53,24,29,4,4,0.4,0.5
2026-02-06T0800,1283A,119.2983,26.1028,福州市,五四北路,细颗粒物(PM2.5),60,,45,43,36,44,,56,56,24,29,4,5,0.5,0.6
2026-02-06T0800,1284A,119.2648,26.0769,福州市,杨桥西路,细颗粒物(PM2.5),68,,30,49,50,43,,48,48,26,30,4,5,/,/
2026-02-06T0800,3048A,119.5799,26.0937,福州市,九龙,,33,31,35,23,23,57,,58,58,26,22,4,5,0.6,0.6
2026-02-06T0800,3526A,119.5188,25.9666,福州市,吴航,,34,34,47,23,28,63,,56,56,24,28,4,6,0.6,0.6
2026-02-06T0800,4104A,119.3106,26.0648,福州市,路通桥巷6号,细颗粒物(PM2.5),57,53,57,40,37,40,,48,48,22,28,/,/,/,/
2026-02-06T0800,1755A,123.7974,41.8494,抚顺市,望花区,,25,25,163,7,8,57,,62,62,15,11,2,4,0.6,0.5
2026-02-06T0800,1756A,123.9161,41.8827,抚顺市,顺城区,,21,18,113,3,7,66,,69,69,16,13,7,7,0.5,0.4
2026-02-06T0800,1757A,124.0437,41.8615,抚顺市,东洲区,,19,19,162,6,7,59,,65,65,12,9,16,14,0.5,0.4
2026-02-06T0800,1758A,123.9246,41.8638,抚顺市,新抚区,,23,22,186,3,7,71,,76,76,16,13,5,5,0.6,0.6
2026-02-06T0800,1759A,124.0972,41.8961,抚顺市,大伙房水库,,29,29,147,16,8,50,,61,61,23,13,10,9,0.6,0.4
2026-02-06T0800,1760A,123.708,41.8386,抚顺市,沈抚新城,,19,18,169,12,7,59,,68,68,23,16,8,5,0.4,0.3
2026-02-06T0800,2377A,116.3544,27.9833,抚州市,市站,细颗粒物(PM2.5),78,60,62,57,48,34,,39,39,17,18,6,7,1.5,1.3
2026-02-06T0800,2378A,116.3562,27.9631,抚州市,血防站,细颗粒物(PM2.5),85,70,65,63,49,25,,32,32,18,19,4,6,1.3,1.2
2026-02-06T0800,2379A,116.3561,28.0007,抚州市,采茶剧团,细颗粒物(PM2.5),90,69,64,67,49,27,,29,29,14,16,4,5,1.6,1.4
2026-02-06T0800,2380A,116.3854,27.9648,抚州市,医学分院,细颗粒物(PM2.5),77,75,69,56,46,28,,31,31,17,19,7,7,1.3,1.2
2026-02-06T0800,2207A,121.6095,41.9978,阜新市,工业园区,,20,19,91,3,4,63,,68,68,11,5,8,7,0.3,0.3
2026-02-06T0800,2208A,121.6567,42.0188,阜新市,长青街,,21,11,59,3,3,66,,71,71,6,3,7,6,0.4,0.3
2026-02-06T0800,2209A,121.6672,42.07,阜新市,农业园区,,20,7,75,7,5,64,,67,67,7,6,6,5,0.2,0.1
2026-02-06T0800,2211A,121.6343,42.0455,阜新市,玉龙新城,,19,12,70,3,3,60,,64,64,11,6,4,5,0.3,0.3
2026-02-06T0800,2301A,115.8276,32.8929,阜阳市,市监测站,颗粒物(PM10),71,92,146,25,93,58,,72,72,13,29,4,5,0.4,0.8
2026-02-06T0800,2303A,115.8551,32.8606,阜阳市,开发区,颗粒物(PM10),72,94,143,24,92,58,,69,69,10,32,4,6,0.3,0.7
2026-02-06T0800,2875A,115.783962,32.889217,阜阳市,阜阳职业技术学院,颗粒物(PM10),72,93,124,25,86,63,,79,79,10,22,5,7,0.4,0.8
2026-02-06T0800,3468A,115.79,32.8614,阜阳市,市规划展馆,颗粒物(PM10),70,89,144,26,92,62,,78,78,9,19,5,7,0.3,0.7
2026-02-06T0800,3469A,115.835101,32.918568,阜阳市,枣园社区,颗粒物(PM10),67,84,144,25,93,61,,75,75,12,26,5,7,0.5,0.9
2026-02-06T0800,2669A,102.9097,34.9841,甘南藏族自治州,州政府,颗粒物(PM10),68,86,59,48,38,31,,60,60,25,14,5,8,0.9,0.6
2026-02-06T0800,3380A,102.8915,34.9618,甘南藏族自治州,甘肃民族师范学院,颗粒物(PM10),53,55,68,20,32,36,,60,60,30,20,8,9,0.5,0.5
2026-02-06T0800,2570A,101.96,30.048,甘孜藏族自治州,水桥子,,13,6,18,3,10,41,,52,52,22,10,7,6,0.8,0.9
2026-02-06T0800,3065A,101.9534,29.9976,甘孜藏族自治州,州环保局,,25,16,18,3,11,77,,70,70,6,10,6,6,0.4,0.6
2026-02-06T0800,2363A,114.9368,25.8663,赣州市,地委,,,,51,,24,,,,,,25,,8,,1.1
2026-02-06T0800,2364A,114.946,25.8483,赣州市,气象台,细颗粒物(PM2.5),89,82,56,66,38,52,,58,58,23,29,6,7,0.6,0.5
2026-02-06T0800,2365A,114.932,25.8332,赣州市,市图书馆,细颗粒物(PM2.5),99,81,54,74,35,53,,48,48,17,30,5,5,1.2,1
2026-02-06T0800,2366A,114.8905,25.8472,赣州市,华坚鞋城,细颗粒物(PM2.5),88,84,56,65,37,42,,50,50,23,26,9,8,0.7,0.6
2026-02-06T0800,3109A,115.0094,25.8614,赣州市,赣县区卫计委,细颗粒物(PM2.5),89,68,58,66,32,52,,29,29,21,34,8,8,0.9,0.9
2026-02-06T0800,2684A,106.2753,36.0057,固原市,监测站,颗粒物(PM10),79,108,77,30,35,62,,44,44,11,30,7,12,0.5,0.9
2026-02-06T0800,2685A,106.2384,36.0189,固原市,新区,颗粒物(PM10),82,113,82,35,38,61,,44,44,11,35,6,10,0.4,0.8
2026-02-06T0800,2544A,106.6307,30.4577,广安市,市委,细颗粒物(PM2.5),130,105,113,99,91,8,,9,9,22,28,6,7,1.0,1.1
2026-02-06T0800,2545A,106.6266,30.4662,广安市,友谊中学,细颗粒物(PM2.5),112,101,108,84,73,9,,12,12,23,25,5,6,1.1,1.1
2026-02-06T0800,2547A,106.6386,30.4551,广安市,广电花园,细颗粒物(PM2.5),133,101,102,101,98,6,,8,8,19,23,6,7,0.9,0.9
2026-02-06T0800,2902A,106.6347,30.4868,广安市,北辰小学,细颗粒物(PM2.5),128,99,107,97,93,5,,14,14,19,18,7,8,1.0,1
2026-02-06T0800,2524A,105.8211,32.4444,广元市,老城,细颗粒物(PM2.5),72,80,103,52,70,5,,5,5,41,54,10,17,1.1,1.5
2026-02-06T0800,2526A,105.8629,32.429,广元市,监测站,细颗粒物(PM2.5),82,78,86,60,68,3,,7,7,33,37,9,9,1.5,1.9
2026-02-06T0800,3617A,105.8047,32.4167,广元市,经开区,细颗粒物(PM2.5),107,112,131,80,93,1,,1,1,39,52,5,24,1.7,2
2026-02-06T0800,1345A,113.2346,23.1423,广州市,广雅中学,,45,45,45,24,25,2,,8,8,75,51,3,3,1.1,1.1
2026-02-06T0800,1346A,113.2611,23.105,广州市,市五中,,48,48,49,29,25,1,,2,2,73,54,9,7,/,/
2026-02-06T0800,1348A,113.3477,23.0916,广州市,广东商学院,,46,46,48,27,31,0,,0,0,79,61,7,7,0.8,0.7
2026-02-06T0800,1349A,113.4332,23.105,广州市,市八十六中,颗粒物(PM10),52,53,45,24,24,0,,0,0,72,78,11,11,/,/
2026-02-06T0800,1350A,113.3506,22.9488,广州市,番禺中学,颗粒物(PM10),57,64,74,19,22,4,,5,5,64,47,3,3,0.9,0.8
2026-02-06T0800,1351A,113.2147,23.3918,广州市,花都师范,颗粒物(PM10),58,66,62,33,34,2,,6,6,97,78,8,6,0.9,0.8
2026-02-06T0800,1352A,113.2599,23.1329,广州市,市监测站,,47,47,49,28,28,2,,7,7,75,54,2,3,/,/
2026-02-06T0800,1353A,113.5618,23.3119,广州市,九龙镇镇龙,颗粒物(PM10),52,54,72,32,42,0,,5,5,46,51,5,6,0.7,0.7
2026-02-06T0800,1354A,113.2764,23.1544,广州市,麓湖,,46,46,50,23,25,2,,2,2,64,62,4,4,0.7,0.7
2026-02-06T0800,2846A,113.3209,23.1323,广州市,体育西,,45,45,52,24,26,1,,1,1,84,62,8,7,0.9,0.9
2026-02-06T0800,3298A,113.5718,23.5493,广州市,从化街口,颗粒物(PM10),51,52,70,33,45,4,,5,5,50,49,6,7,0.9,0.8
2026-02-06T0800,3299A,113.3463,23.369,广州市,白云竹料,颗粒物(PM10),64,78,78,40,42,7,,6,6,66,65,4,4,0.8,0.8
2026-02-06T0800,3300A,113.2981,23.2365,广州市,白云嘉禾,,50,50,56,24,28,0,,0,0,67,66,6,6,/,/
2026-02-06T0800,3301A,113.4256,23.1716,广州市,黄埔科学城,,43,43,52,23,31,1,,1,1,67,64,2,4,0.7,0.7
2026-02-06T0800,3302A,113.3942,23.0485,广州市,番禺大学城,颗粒物(PM10),54,57,74,24,30,5,,7,7,76,58,11,10,0.6,0.6
2026-02-06T0800,3303A,113.4923,22.8169,广州市,南沙黄阁,,35,34,44,24,23,3,,8,8,66,47,6,5,/,/
2026-02-06T0800,3304A,113.534,22.7893,广州市,南沙街,,34,34,40,20,19,8,,28,28,60,40,6,5,0.6,0.6
2026-02-06T0800,3443A,113.2905,23.5541,广州市,花都梯面,,42,42,48,25,28,1,,10,10,33,37,5,5,/,/
2026-02-06T0800,3445A,113.786,23.7479,广州市,从化良口,,29,23,30,20,25,18,,31,31,21,18,7,7,/,/
2026-02-06T0800,3446A,113.805,23.2614,广州市,增城荔城,,42,42,54,28,34,24,,24,24,34,33,8,7,0.5,0.6
2026-02-06T0800,2506A,109.604387,23.066791,贵港市,江南子站,细颗粒物(PM2.5),77,78,96,56,57,3,,2,2,44,40,9,8,1.0,1
2026-02-06T0800,2508A,109.5669,23.1065,贵港市,荷城子站,细颗粒物(PM2.5),89,83,84,66,56,9,,11,11,38,38,6,7,1.3,1.3
2026-02-06T0800,3405A,109.5886,23.1172,贵港市,新世纪学校,细颗粒物(PM2.5),115,88,97,87,73,7,,10,10,47,45,/,/,0.8,0.8
2026-02-06T0800,4260A,109.5933,23.095,贵港市,中山路155-3号,细颗粒物(PM2.5),100,107,97,75,70,7,,11,11,37,32,/,/,1.1,1.1
2026-02-06T0800,1439A,106.6863,26.6035,贵阳市,马鞍山,,48,44,29,33,21,39,,35,35,9,16,3,5,/,/
2026-02-06T0800,1441A,106.6241,26.6266,贵阳市,鉴湖路,细颗粒物(PM2.5),54,53,38,38,25,46,,46,46,15,19,2,2,0.7,0.7
2026-02-06T0800,1442A,106.7468,26.6344,贵阳市,燕子冲,细颗粒物(PM2.5),65,68,33,47,25,47,,43,43,11,15,6,8,0.7,0.7
2026-02-06T0800,1443A,106.6556,26.4362,贵阳市,碧云窝,,46,46,43,32,24,52,,44,44,13,21,12,18,/,/
2026-02-06T0800,1445A,106.6963,26.6063,贵阳市,红边门,,,,32,38,22,52,,46,46,22,20,8,10,/,/
2026-02-06T0800,1446A,106.7162383,26.56964667,贵阳市,新华路,"颗粒物(PM10),细颗粒物(PM2.5)",52,53,37,36,22,53,,45,45,21,23,7,8,0.7,0.8
2026-02-06T0800,1447A,106.6742,26.542,贵阳市,太慈桥,,46,46,31,31,22,52,,40,40,14,22,3,4,/,/
2026-02-06T0800,4230A,106.688212,26.56952,贵阳市,花果园大街66号,,49,39,28,34,21,49,,40,40,16,20,3,4,/,/
2026-02-06T0800,4231A,106.687268,26.516892,贵阳市,漓江路57号,,46,46,35,32,23,53,,41,41,17,23,5,8,0.7,0.9
2026-02-06T0800,1864A,110.3091,25.2705,桂林市,龙隐路小学,细颗粒物(PM2.5),94,,80,70,69,42,,20,20,15,36,3,4,0.9,1
2026-02-06T0800,1865A,110.2849361,25.22909545,桂林市,八中,细颗粒物(PM2.5),62,60,88,44,54,25,,14,14,23,41,3,5,1.1,1.3
2026-02-06T0800,3531A,110.296,25.1254,桂林市,旅游学院,细颗粒物(PM2.5),98,91,103,73,97,20,,6,6,22,38,4,6,1.0,1
2026-02-06T0800,4222A,110.1835,25.2444,桂林市,环湖路276号,细颗粒物(PM2.5),84,68,100,62,87,38,,16,16,20,41,7,9,1.3,1.6
2026-02-06T0800,4301A,110.2803,25.2773,桂林市,信义路13号,细颗粒物(PM2.5),90,,85,67,76,46,,27,27,17,39,4,7,1.4,1.6
2026-02-06T0800,2674A,100.2262,34.4854,果洛藏族自治州,玛沁县大武镇,,38,38,69,7,16,109,,111,111,2,3,20,15,0.2,0.3
2026-02-06T0800,1130A,126.5557,45.8109,哈尔滨市,松北商大,,40,33,30,28,20,43,,56,56,21,13,8,8,0.7,0.6
2026-02-06T0800,1132A,126.6162,45.719,哈尔滨市,南岗学府路,,30,30,38,18,14,23,,38,38,29,20,22,19,0.9,0.6
2026-02-06T0800,1133A,126.6894,45.7733,哈尔滨市,太平宏伟公园,,25,25,37,17,21,40,,49,49,13,6,31,19,0.8,0.6
2026-02-06T0800,1134A,126.6361,45.7672,哈尔滨市,道外承德广场,,48,48,71,21,14,40,,54,54,36,19,13,11,1.0,0.7
2026-02-06T0800,1136A,126.644,45.7261,哈尔滨市,动力和平路,,32,32,36,16,17,38,,50,50,25,13,16,9,0.9,0.7
2026-02-06T0800,1137A,126.5933,45.7479,哈尔滨市,道里建国路,,22,20,28,15,16,36,,46,46,30,20,12,10,0.6,0.3
2026-02-06T0800,1138A,126.6127,45.6119,哈尔滨市,平房东轻厂,"颗粒物(PM10),细颗粒物(PM2.5)",59,68,34,42,18,25,,43,43,39,17,5,3,0.9,0.8
2026-02-06T0800,1139A,126.5875,45.9827,哈尔滨市,呼兰师专,,28,20,44,19,13,41,,50,50,15,8,9,9,0.9,0.7
2026-02-06T0800,1140A,126.6299,45.6799,哈尔滨市,省农科院,,36,36,33,21,19,33,,48,48,29,11,16,10,0.8,0.6
2026-02-06T0800,4282A,126.6769,45.7379,哈尔滨市,华山路1号,,29,27,32,20,17,37,,49,49,25,15,8,5,0.8,0.7
2026-02-06T0800,4283A,126.9717,45.5356,哈尔滨市,解放大街52号,颗粒物(PM10),56,61,35,37,19,27,,38,38,28,16,6,11,0.9,0.6
2026-02-06T0800,2688A,93.5124,42.8176,哈密市,地区监测站,,41,41,61,20,29,60,,60,60,11,10,4,6,0.3,0.2
2026-02-06T0800,2689A,93.5014,42.8312,哈密市,哈密师范学校,,38,38,67,22,23,40,,60,60,23,14,2,4,0.5,0.4
2026-02-06T0800,2671A,100.9016,36.9464,海北藏族自治州,海晏县西海镇,,38,38,41,6,22,62,,86,86,6,5,6,8,0.3,0.5
2026-02-06T0800,3867A,102.074,36.5056,海东市,平安区公安局北苑,颗粒物(PM10),58,65,63,40,46,49,,62,62,9,17,12,19,0.8,0.8
2026-02-06T0800,4163A,102.0984,36.5119,海东市,滨河路,颗粒物(PM10),56,61,66,29,41,34,,63,63,32,33,10,18,0.6,0.8
2026-02-06T0800,1410A,110.3189,20.0596,海口市,海南大学,,22,22,25,10,12,53,,59,59,9,7,5,5,0.4,0.4
2026-02-06T0800,1411A,110.2827,20.0051,海口市,秀英海南医院,,16,16,31,10,15,36,,44,44,27,13,7,7,0.3,0.3
2026-02-06T0800,1412A,110.3391,19.9979,海口市,海南师范大学,,15,14,29,10,13,43,,59,59,14,8,5,5,0.4,0.4
2026-02-06T0800,1413A,110.3303,20.0359,海口市,龙华路环保局宿舍,,18,15,28,11,14,56,,65,65,11,9,/,/,0.7,0.7
2026-02-06T0800,3539A,110.5111,19.9737,海口市,桂林洋子站,,15,13,22,8,13,47,,49,49,9,7,/,/,/,/
2026-02-06T0800,4134A,110.1952,20.0451,海口市,长滨二路9号,,16,16,22,11,13,50,,53,53,8,8,/,/,/,/
2026-02-06T0800,2673A,100.6158,36.2985,海南藏族自治州,共和县恰卜恰镇,颗粒物(PM10),89,127,50,43,15,47,,83,83,20,7,12,12,0.5,0.3
2026-02-06T0800,2676A,97.373,37.376,海西蒙古族藏族自治州,德令哈市,颗粒物(PM10),51,52,39,14,11,78,,82,82,5,8,18,13,0.5,0.4
2026-02-06T0800,1049A,114.492,36.5712,邯郸市,矿院,颗粒物(PM10),58,66,98,29,49,57,,57,57,11,8,2,5,0.4,0.5
2026-02-06T0800,1050A,114.4839,36.6136,邯郸市,丛台公园,颗粒物(PM10),63,76,113,24,47,54,,52,52,16,20,3,6,0.3,0.5
2026-02-06T0800,3458A,114.7893,36.5592,邯郸市,香泉濮院小区,,,,127,,40,43,,48,48,15,19,,5,,0.5
2026-02-06T0800,3580A,114.1998,36.4439,邯郸市,峰峰矿区临水派出所,颗粒物(PM10),63,76,81,21,31,51,,62,62,10,8,4,7,0.5,0.6
2026-02-06T0800,4068A,114.5209,36.7697,邯郸市,建安街268号,颗粒物(PM10),64,78,94,26,39,31,,34,34,15,21,1,4,0.3,0.4
2026-02-06T0800,4069A,114.5488,36.6177,邯郸市,丛台东路558号,颗粒物(PM10),58,66,99,25,43,48,,48,48,9,14,1,5,0.3,0.6
2026-02-06T0800,2635A,107.0155,33.0707,汉中市,市监测站,细颗粒物(PM2.5),124,98,104,94,79,7,,10,10,44,42,7,7,1.8,1.4
2026-02-06T0800,2636A,107.0083,33.114,汉中市,鑫源开发区,细颗粒物(PM2.5),110,98,98,83,77,10,,13,13,45,42,8,10,1.6,1.3
2026-02-06T0800,2637A,107.0072,33.0323,汉中市,南郑大河坎水厂,细颗粒物(PM2.5),102,111,111,76,76,4,,7,7,30,35,6,7,1.3,1.3
2026-02-06T0800,1223A,120.2073,30.2111,杭州市,滨江,细颗粒物(PM2.5),99,85,104,74,82,74,,47,47,22,57,6,7,0.9,1
2026-02-06T0800,1224A,120.0625,30.2737,杭州市,西溪,细颗粒物(PM2.5),80,97,105,59,72,80,,35,35,20,48,8,8,1.1,1.1
2026-02-06T0800,1226A,120.3417,30.315,杭州市,下沙,细颗粒物(PM2.5),103,107,126,77,91,69,,26,26,26,75,7,8,0.8,0.7
2026-02-06T0800,1227A,120.1252,30.2465,杭州市,卧龙桥,细颗粒物(PM2.5),85,91,101,63,67,77,,38,38,20,45,8,9,0.6,0.6
2026-02-06T0800,1228A,120.1902,30.2691,杭州市,浙江农大,细颗粒物(PM2.5),84,75,101,62,74,84,,38,38,29,68,5,6,0.9,0.9
2026-02-06T0800,1230A,120.1195,30.3121,杭州市,和睦小学,细颗粒物(PM2.5),99,94,121,74,84,81,,38,38,18,52,4,5,0.9,1
2026-02-06T0800,1231A,120.3076,30.4146,杭州市,临平镇,细颗粒物(PM2.5),109,101,113,82,88,78,,38,38,12,55,6,7,1.0,1
2026-02-06T0800,1232A,120.2753,30.1839,杭州市,城厢镇,细颗粒物(PM2.5),90,105,116,67,82,78,,59,59,30,62,7,8,0.9,1
2026-02-06T0800,1233A,120.0883,30.1808,杭州市,云栖,细颗粒物(PM2.5),80,83,82,59,56,84,,50,50,25,46,5,5,0.8,0.8
2026-02-06T0800,3557A,119.9463,30.0496,杭州市,镇二中,细颗粒物(PM2.5),105,,86,79,81,76,,68,68,28,46,4,5,1.0,1
2026-02-06T0800,3558A,119.7184,30.2367,杭州市,市府大楼,细颗粒物(PM2.5),115,,77,87,78,71,,50,50,16,35,10,10,0.9,1
2026-02-06T0800,3656A,120.1554,30.2863,杭州市,消防大队,细颗粒物(PM2.5),104,100,123,78,90,73,,32,32,22,57,5,6,0.9,1
2026-02-06T0800,1270A,117.1957,31.7845,合肥市,明珠广场,颗粒物(PM10),68,85,116,44,73,67,,82,82,12,57,5,7,0.5,0.8
2026-02-06T0800,1271A,117.307,31.8765,合肥市,三里街,颗粒物(PM10),65,80,113,31,80,64,,76,76,14,41,4,6,0.6,0.9
2026-02-06T0800,1272A,117.2587,31.8703,合肥市,琥珀山庄,颗粒物(PM10),65,80,115,37,75,68,,80,80,12,36,6,7,0.9,1.1
2026-02-06T0800,1275A,117.2593,31.9376,合肥市,庐阳区,颗粒物(PM10),65,80,117,28,77,72,,81,81,15,34,5,6,0.7,1
2026-02-06T0800,1276A,117.345251,31.861615,合肥市,瑶海区,颗粒物(PM10),63,75,112,28,70,68,,80,80,16,47,3,6,0.6,0.8
2026-02-06T0800,1277A,117.3033,31.7967,合肥市,包河区,颗粒物(PM10),64,78,114,32,70,52,,67,67,30,66,7,9,0.7,1
2026-02-06T0800,1278A,117.278,31.7392,合肥市,滨湖新区,颗粒物(PM10),65,80,113,34,69,67,,79,79,9,47,2,4,0.6,0.9
2026-02-06T0800,1279A,117.1324,31.8395,合肥市,高新区,颗粒物(PM10),68,85,112,42,74,70,,82,82,10,31,3,5,0.5,0.8
2026-02-06T0800,3464A,117.3802,31.9148,合肥市,高教基地,颗粒物(PM10),68,85,111,24,69,70,,80,80,14,32,7,10,0.5,0.7
2026-02-06T0800,4098A,117.2518,31.8404,合肥市,中国科学技术大学,颗粒物(PM10),67,83,112,32,73,72,,84,84,6,33,6,9,0.6,1
2026-02-06T0800,3614A,79.9241,37.0878,和田地区,地区环保局,颗粒物(PM10),144,237,498,45,69,62,,52,52,12,21,2,3,1.0,1
2026-02-06T0800,3615A,79.9132,37.1137,和田地区,市环保局,颗粒物(PM10),113,175,416,31,46,73,,63,63,12,21,1,3,0.3,0.8
2026-02-06T0800,2517A,108.0496,24.6957,河池市,市环保站,细颗粒物(PM2.5),183,141,143,138,131,2,,2,2,22,29,3,4,1.5,1.4
2026-02-06T0800,4302A,108.0901,24.6945,河池市,上任中路54号,细颗粒物(PM2.5),178,137,143,134,127,0,,1,1,22,32,5,6,1.9,1.8
2026-02-06T0800,1697A,114.6962,23.7538,河源市,东埔,,31,31,47,21,32,9,,5,5,37,42,5,6,0.7,1
2026-02-06T0800,1698A,114.6895,23.7232,河源市,老城,,30,27,36,21,24,13,,10,10,32,27,6,6,0.7,0.7
2026-02-06T0800,3374A,115.5562,35.089,菏泽市,定陶老年大学,颗粒物(PM10),57,63,162,14,85,40,,44,44,20,30,5,8,0.5,0.8
2026-02-06T0800,4114A,115.4239,35.2593,菏泽市,黄河路600号,颗粒物(PM10),58,66,160,11,73,41,,48,48,22,35,3,5,0.5,0.8
2026-02-06T0800,4115A,115.5025,35.2727,菏泽市,菏泽市人社局,颗粒物(PM10),57,63,151,15,80,39,,43,43,24,38,9,12,0.5,0.8
2026-02-06T0800,4184A,115.479691,35.244011,菏泽市,永昌路1号,颗粒物(PM10),59,67,161,17,78,43,,49,49,17,28,5,6,0.4,0.7
2026-02-06T0800,4193A,115.471542,35.280012,菏泽市,长城路999号,颗粒物(PM10),60,70,162,17,74,35,,42,42,26,37,2,6,0.6,1
2026-02-06T0800,2514A,111.5264,24.4178,贺州市,环保小区,细颗粒物(PM2.5),72,72,90,52,60,4,,6,6,29,41,4,4,1.0,0.9
2026-02-06T0800,2515A,111.561,24.4074,贺州市,政协大楼,细颗粒物(PM2.5),63,58,77,45,51,23,,8,8,35,38,4,6,1.0,1.1
2026-02-06T0800,3534A,111.4744,24.455,贺州市,西湾,细颗粒物(PM2.5),75,82,84,55,51,1,,3,3,29,39,5,5,1.0,0.9
2026-02-06T0800,2385A,114.17,35.9019,鹤壁市,市监测站,颗粒物(PM10),69,87,97,39,51,42,,55,55,18,25,3,7,0.6,0.7
2026-02-06T0800,2386A,114.2953,35.7512,鹤壁市,市交警支队,,,98,124,27,62,,,48,48,20,30,6,8,0.4,0.7
2026-02-06T0800,2387A,114.2877,35.7302,鹤壁市,迎宾馆,颗粒物(PM10),77,104,139,34,60,45,,51,51,14,27,6,6,0.6,0.8
2026-02-06T0800,3474A,114.2616,35.6824,鹤壁市,大新区,颗粒物(PM10),71,91,121,34,63,51,,56,56,17,25,8,9,0.6,0.8
2026-02-06T0800,3596A,114.1573,35.9607,鹤壁市,南山宾馆,颗粒物(PM10),84,118,119,43,53,39,,54,54,16,16,4,8,0.4,0.6
2026-02-06T0800,2244A,130.2537,47.3416,鹤岗市,哈啤分公司,,29,29,21,10,10,73,,75,75,3,3,7,6,0.4,0.3
2026-02-06T0800,2245A,130.2683,47.3087,鹤岗市,斯达机电,,34,34,28,6,8,64,,68,68,6,6,6,6,0.6,0.5
2026-02-06T0800,2246A,130.3114,47.3388,鹤岗市,东山纸板厂,,21,14,30,3,10,65,,68,68,5,4,8,9,0.6,0.4
2026-02-06T0800,2263A,127.4832,50.2524,黑河市,交通局,,35,,18,24,16,64,,68,68,8,4,5,5,0.3,0.3
2026-02-06T0800,2264A,127.5146,50.2339,黑河市,环保局,,20,11,20,8,12,63,,64,64,8,8,5,5,0.5,0.5
2026-02-06T0800,1074A,115.6839,37.754,衡水市,电机北厂,颗粒物(PM10),60,70,121,36,38,25,,36,36,40,28,5,6,0.2,0.2
2026-02-06T0800,1075A,115.6303,37.7318,衡水市,市监测站,颗粒物(PM10),54,58,108,19,31,50,,48,48,28,28,10,8,0.3,0.3
2026-02-06T0800,3188A,115.6684,37.7216,衡水市,市城管局,颗粒物(PM10),58,66,133,27,34,42,,42,42,25,26,16,10,0.4,0.5
2026-02-06T0800,3459A,115.599,37.5491,衡水市,地表水厂,,44,44,103,14,34,40,,47,47,25,18,6,5,0.4,0.4
2026-02-06T0800,2457A,112.6209,26.9268,衡阳市,衡阳化工总厂,细颗粒物(PM2.5),67,,88,48,78,30,,38,38,14,20,9,14,1.0,1.2
2026-02-06T0800,2458A,112.621,26.8957,衡阳市,珠晖区环保局,细颗粒物(PM2.5),54,40,81,38,66,29,,37,37,22,27,4,9,1.2,1.3
2026-02-06T0800,2459A,112.628,26.8654,衡阳市,市委党校,细颗粒物(PM2.5),57,48,80,40,73,34,,40,40,11,21,7,13,1.1,1.3
2026-02-06T0800,2460A,112.6007,26.8977,衡阳市,市监测站,细颗粒物(PM2.5),70,,103,51,68,29,,36,36,15,26,6,10,1.2,1.3
2026-02-06T0800,2461A,112.5658,26.9013,衡阳市,真空机电公司,细颗粒物(PM2.5),60,55,92,43,81,39,,35,35,12,28,6,18,1.1,1.4
2026-02-06T0800,3399A,112.6703,26.8817,衡阳市,师范学院,,48,48,88,29,63,36,,39,39,20,32,2,7,1.1,1.2
2026-02-06T0800,3038A,103.3757,23.3679,红河哈尼族彝族自治州,州图书馆,,46,41,32,32,24,34,,58,58,15,8,12,10,0.7,0.5
2026-02-06T0800,4154A,103.401,23.3561,红河哈尼族彝族自治州,蒙自市朝阳路,,44,44,25,30,21,39,,62,62,19,7,8,7,0.5,0.4
2026-02-06T0800,1090A,111.6506,40.7517,呼和浩特市,呼市一监,,26,,11,18,11,66,,73,73,9,8,6,7,0.3,0.3
2026-02-06T0800,1094A,111.7516,40.8369,呼和浩特市,如意水处理厂,,22,10,13,3,5,69,,72,72,8,7,8,9,0.2,0.2
2026-02-06T0800,1095A,111.727798,40.806187,呼和浩特市,二十九中,,20,15,13,3,5,62,,70,70,9,5,10,10,0.4,0.3
2026-02-06T0800,1097A,111.717,40.7617,呼和浩特市,化肥厂生活区,,21,18,15,3,4,65,,74,74,8,8,4,5,0.3,0.2
2026-02-06T0800,3699A,111.6519,40.8389,呼和浩特市,海东办,,21,9,7,3,4,67,,71,71,11,7,6,4,0.3,0.3
2026-02-06T0800,4275A,111.591512,40.827312,呼和浩特市,成吉思汗西街8号,,20,7,15,3,5,61,,66,66,8,6,10,6,0.3,0.2
2026-02-06T0800,4276A,111.6597,40.8077,呼和浩特市,公园东路75号,,21,7,10,3,5,65,,67,67,14,11,7,6,0.4,0.3
2026-02-06T0800,4277A,111.5427,40.7846,呼和浩特市,金海路35号,,21,9,17,3,6,66,,70,70,10,8,10,7,0.4,0.3
2026-02-06T0800,3061A,119.7511,49.1576,呼伦贝尔市,国华电力东,,33,33,26,13,13,62,,64,64,10,10,6,6,0.2,0.3
2026-02-06T0800,4279A,119.7569,49.2222,呼伦贝尔市,伊敏大街东7号,,38,38,31,12,14,66,,68,68,9,8,6,6,0.9,0.6
2026-02-06T0800,1250A,120.075,30.867,湖州市,城西水厂,,,,98,,78,,,26,,,65,,6,,0.8
2026-02-06T0800,2873A,120.083,30.8929,湖州市,仁皇山新区,细颗粒物(PM2.5),67,69,104,48,73,85,,69,69,17,61,5,6,0.9,1.2
2026-02-06T0800,2907A,120.1846,30.8592,湖州市,吴兴区站,"颗粒物(PM10),细颗粒物(PM2.5)",60,69,121,43,87,82,,61,61,8,53,4,6,0.7,0.9
2026-02-06T0800,3562A,120.4146,30.8538,湖州市,南浔区站,细颗粒物(PM2.5),60,63,130,43,91,75,,60,60,15,55,6,8,0.7,0.9
2026-02-06T0800,1607A,120.904878,40.721091,葫芦岛市,龙港区,,24,24,115,12,12,38,,58,58,33,9,11,6,0.7,0.5
2026-02-06T0800,1608A,120.8382,40.7521,葫芦岛市,化工街,,18,14,88,3,10,57,,65,65,17,11,16,12,0.3,0.3
2026-02-06T0800,1609A,120.8339,40.7078,葫芦岛市,新区,,22,22,69,3,7,54,,68,68,22,11,12,8,0.6,0.4
2026-02-06T0800,1610A,120.8697,40.7679,葫芦岛市,东城区,,23,,64,16,11,56,,65,65,17,9,15,9,0.6,0.4
2026-02-06T0800,2483A,109.9297,27.5383,怀化市,河西地税局,细颗粒物(PM2.5),84,71,97,62,59,36,,42,42,18,19,3,2,/,/
2026-02-06T0800,2484A,109.9783,27.5342,怀化市,市四医院,细颗粒物(PM2.5),79,83,102,58,52,38,,29,29,10,13,6,7,0.9,0.9
2026-02-06T0800,2485A,109.9971,27.5579,怀化市,监测楼,细颗粒物(PM2.5),92,79,94,68,60,42,,30,30,12,16,3,4,0.4,0.3
2026-02-06T0800,1210A,119.0566,33.5991,淮安市,钵池山,,48,48,114,9,77,68,,75,75,11,20,7,10,0.3,0.7
2026-02-06T0800,1211A,119.0083,33.578,淮安市,北京南路,颗粒物(PM10),54,58,119,9,76,66,,73,73,7,20,6,9,0.4,0.7
2026-02-06T0800,1212A,118.9938,33.6083,淮安市,市监测站,,48,48,113,9,80,62,,69,69,12,23,8,10,0.3,0.6
2026-02-06T0800,1213A,119.135,33.5038,淮安市,楚州区监测站,,42,42,126,8,84,65,,70,70,8,23,5,8,0.4,0.8
2026-02-06T0800,3426A,118.8757,33.2897,淮安市,新华书店,,50,50,126,9,81,66,,71,71,8,21,7,9,0.3,0.7
2026-02-06T0800,4092A,119.119691,33.550006,淮安市,枚皋中路89号,,46,46,126,9,85,70,,73,73,4,18,8,10,0.2,0.6
2026-02-06T0800,4206A,119.028838,33.631911,淮安市,承德北路606号,颗粒物(PM10),54,58,136,10,76,65,,74,74,7,20,6,9,0.4,0.7
2026-02-06T0800,2282A,116.8005,33.9749,淮北市,监测站,颗粒物(PM10),60,70,167,12,89,57,,57,57,19,31,7,7,0.5,0.9
2026-02-06T0800,2283A,116.8094,33.9008,淮北市,烈山区政府,颗粒物(PM10),68,85,157,6,87,60,,47,47,10,24,6,6,0.4,0.6
2026-02-06T0800,4017A,116.7926,33.9534,淮北市,市博物馆,颗粒物(PM10),65,79,166,12,92,58,,56,56,17,28,5,5,0.4,0.8
2026-02-06T0800,4100A,116.8322,33.9884,淮北市,杜集区第一实验学校,颗粒物(PM10),67,83,163,7,95,60,,59,59,12,25,7,6,0.1,0.7
2026-02-06T0800,2277A,116.8304,32.7726,淮南市,潘集区政府,颗粒物(PM10),68,86,145,15,96,64,,71,71,8,29,5,7,0.3,0.7
2026-02-06T0800,2279A,116.8569,32.5949,淮南市,谢家集区政府,颗粒物(PM10),75,99,124,12,79,70,,79,79,9,28,6,9,0.4,0.8
2026-02-06T0800,2280A,116.8279,32.6333,淮南市,八公山区政府,颗粒物(PM10),69,88,130,14,89,69,,77,77,11,24,3,5,0.4,0.8
2026-02-06T0800,2894A,117.0561,32.6536,淮南市,经济技术开发区消防队,颗粒物(PM10),67,84,135,8,85,68,,74,74,13,37,4,7,0.2,0.6
2026-02-06T0800,3329A,117.011,32.5891,淮南市,山南新区,颗粒物(PM10),70,90,127,10,76,69,,80,80,4,25,6,9,0.3,0.7
2026-02-06T0800,4209A,117.003137,32.644456,淮南市,国庆中路369号,颗粒物(PM10),64,78,124,9,83,68,,74,74,9,29,4,7,0.3,0.7
2026-02-06T0800,2446A,114.9021,30.474,黄冈市,职工中心,细颗粒物(PM2.5),90,85,86,67,68,0,,1,1,55,44,6,6,0.9,1
2026-02-06T0800,2929A,114.8858,30.4519,黄冈市,红卫路,细颗粒物(PM2.5),84,84,88,62,62,6,,6,6,54,41,9,8,0.9,1
2026-02-06T0800,3398A,114.9134,30.4446,黄冈市,市林业局,细颗粒物(PM2.5),93,86,92,69,71,10,,10,10,50,39,4,4,0.9,0.9
2026-02-06T0800,2672A,102.02,35.5101,黄南藏族自治州,同仁县隆务镇,,44,44,56,11,28,71,,76,76,5,7,10,9,0.3,0.5
2026-02-06T0800,2295A,118.2905,29.6965,黄山市,延安路89号,,20,20,44,14,37,61,,54,54,13,21,4,4,0.9,0.7
2026-02-06T0800,2297A,118.1369,30.2755,黄山市,黄山区政府5号楼,细颗粒物(PM2.5),97,96,39,72,33,36,,50,50,29,15,2,2,1.0,0.7
2026-02-06T0800,4210A,118.335445,29.720283,黄山市,滨江东路7-2号,,36,36,51,15,37,62,,58,58,13,20,/,/,/,/
2026-02-06T0800,2423A,115.0547,30.2332,黄石市,沈家营,颗粒物(PM10),69,88,100,46,55,17,,27,27,22,28,6,7,1.4,1.4
2026-02-06T0800,2426A,114.899,30.211,黄石市,铁山,细颗粒物(PM2.5),110,95,97,83,83,0,,4,4,43,47,7,10,1.9,1.8
2026-02-06T0800,2427A,115.0259,30.2108,黄石市,团城山,细颗粒物(PM2.5),78,96,98,57,68,2,,9,9,24,27,7,7,1.2,1.3
2026-02-06T0800,3149A,115.0174,30.1591,黄石市,笔架山北路,颗粒物(PM10),86,122,127,63,72,10,,7,7,34,39,6,7,1.6,1.5
2026-02-06T0800,4185A,115.078022,30.21118,黄石市,磁湖东路29号,细颗粒物(PM2.5),80,93,110,59,60,6,,17,17,34,30,6,7,1.2,1.3
2026-02-06T0800,1392A,114.4181,23.0528,惠州市,河南岸金山湖子站,,46,46,42,25,23,21,,28,28,27,25,3,4,0.9,0.7
2026-02-06T0800,1393A,114.4055,23.0824,惠州市,下埔横江三路子站,颗粒物(PM10),52,54,50,31,26,23,,33,33,36,31,7,7,0.5,0.6
2026-02-06T0800,1395A,114.4645,22.7832,惠州市,惠阳区承修路船湖子站,颗粒物(PM10),56,62,42,34,23,11,,19,19,49,39,7,7,0.7,0.7
2026-02-06T0800,1396A,114.5316,22.7423,惠州市,大亚湾管委会子站,颗粒物(PM10),53,56,45,25,22,0,,4,4,50,42,7,7,0.7,0.6
2026-02-06T0800,3314A,114.4334,22.8134,惠州市,惠阳秋长,细颗粒物(PM2.5),52,51,47,36,24,20,,8,8,44,42,/,/,/,/
2026-02-06T0800,3452A,114.6521,22.7755,惠州市,大亚湾霞涌,,28,,34,19,19,53,,55,55,22,26,/,/,/,/
2026-02-06T0800,4300A,114.4089,23.1147,惠州市,文华一路1号,颗粒物(PM10),54,58,45,34,23,9,,16,16,50,39,/,/,/,/
2026-02-06T0800,2240A,130.9618,45.2926,鸡西市,环保局,,24,24,43,11,16,53,,68,68,17,10,7,7,0.3,0.2
2026-02-06T0800,2243A,130.9294,45.2959,鸡西市,第一中学,,30,21,32,21,16,63,,68,68,8,11,4,4,0.3,0.3
2026-02-06T0800,3707A,131.0069,45.2988,鸡西市,欧美日汽修厂,,23,,49,16,15,57,,66,66,8,4,8,8,0.5,0.5
2026-02-06T0800,2367A,114.9753,27.0803,吉安市,红声器材厂,细颗粒物(PM2.5),74,73,85,54,63,32,,33,33,18,23,8,11,0.9,0.9
2026-02-06T0800,2369A,114.9903,27.1313,吉安市,市环境监测站,细颗粒物(PM2.5),72,63,73,52,63,31,,36,36,20,25,6,10,/,/
2026-02-06T0800,2370A,115.009527,27.096792,吉安市,青原区法院,细颗粒物(PM2.5),72,62,74,52,62,27,,33,33,23,26,11,14,0.9,0.9
2026-02-06T0800,1772A,126.54,43.8622,吉林市,哈达湾,颗粒物(PM10),61,71,90,13,18,67,,70,70,11,12,7,6,0.6,0.6
2026-02-06T0800,1773A,126.5843,43.8358,吉林市,东局子,颗粒物(PM10),56,62,76,13,18,52,,56,56,12,14,5,5,0.9,0.9
2026-02-06T0800,1774A,126.5051,43.8243,吉林市,电力学院,颗粒物(PM10),64,77,71,30,21,60,,63,63,11,10,7,6,0.6,0.5
2026-02-06T0800,1775A,126.6133,43.8971,吉林市,江北,颗粒物(PM10),54,57,71,15,20,54,,57,57,15,17,8,8,0.4,0.5
2026-02-06T0800,1776A,126.5549,43.8304,吉林市,江南公园,,40,40,58,15,19,55,,59,59,11,12,7,9,0.5,0.5
2026-02-06T0800,2868A,126.4737,43.953,吉林市,九站,颗粒物(PM10),53,56,64,20,20,50,,53,53,19,19,6,5,0.6,0.6
2026-02-06T0800,1299A,116.9866,36.6118,济南市,科干所,颗粒物(PM10),53,56,113,17,45,61,,66,66,11,24,6,10,0.3,0.6
2026-02-06T0800,1300A,116.9379,36.6652,济南市,农科所,颗粒物(PM10),55,59,131,3,44,63,,66,66,15,29,8,9,0.5,0.7
2026-02-06T0800,1301A,117.1265,36.6736,济南市,开发区,颗粒物(PM10),55,59,121,3,39,68,,72,72,20,35,4,6,0.4,0.6
2026-02-06T0800,1303A,117.0616,36.6865,济南市,省种子仓库,颗粒物(PM10),56,61,131,3,41,64,,68,68,15,27,4,7,0.3,0.6
2026-02-06T0800,1304A,116.9495185,36.644937,济南市,机床二厂,颗粒物(PM10),53,56,129,3,46,60,,65,65,14,26,5,8,0.1,0.4
2026-02-06T0800,1305A,117.0496,36.6629,济南市,市监测站,颗粒物(PM10),56,61,125,3,43,62,,67,67,14,27,5,6,0.4,0.7
2026-02-06T0800,1306A,116.7674,36.5458,济南市,长清党校,,49,49,130,3,38,61,,64,64,21,37,4,6,0.6,0.8
2026-02-06T0800,1961A,117.5323,36.6865,济南市,东山小学,颗粒物(PM10),53,56,117,3,28,62,,68,68,22,30,3,5,0.3,0.5
2026-02-06T0800,3059A,117.7181,36.205,济南市,泰兴公司,颗粒物(PM10),56,61,131,8,52,47,,67,67,36,28,3,8,1.0,1.1
2026-02-06T0800,3064A,117.6861,36.2172,济南市,莱芜战役纪念馆,,46,46,122,3,50,61,,73,73,22,27,9,12,0.4,0.8
2026-02-06T0800,3494A,117.1673,36.9782,济南市,济阳区政府,颗粒物(PM10),52,54,116,3,41,52,,55,55,10,20,6,7,0.4,0.7
2026-02-06T0800,3495A,117.1168,36.6299,济南市,锦屏中学,,46,46,110,3,38,63,,66,66,16,24,5,6,0.2,0.4
2026-02-06T0800,4108A,117.7107,36.2385,济南市,山财大街5号,,39,39,115,3,43,61,,72,72,22,34,7,11,0.7,0.9
2026-02-06T0800,4109A,116.9744,36.6889,济南市,无影山路12号,颗粒物(PM10),52,53,128,3,42,58,,60,60,11,23,5,9,0.6,0.8
2026-02-06T0800,1653A,116.6229,35.4288,济宁市,火炬城,,42,42,125,3,71,60,,64,64,14,27,2,5,0.3,0.7
2026-02-06T0800,3500A,116.5808,35.3703,济宁市,北湖一中,颗粒物(PM10),54,58,124,3,74,57,,64,64,20,30,4,9,0.1,0.6
2026-02-06T0800,3501A,116.8251,35.5592,济宁市,服务中心,,47,47,148,9,74,59,,61,61,8,22,1,6,0.3,0.8
2026-02-06T0800,3678A,116.5907,35.4054,济宁市,市第七中学,,49,49,131,3,75,61,,66,66,16,28,8,14,0.3,0.8
2026-02-06T0800,4111A,116.6075,35.4566,济宁市,任和路,颗粒物(PM10),52,53,146,3,71,59,,57,57,13,29,3,9,0.3,0.8
2026-02-06T0800,4112A,116.5648,35.3921,济宁市,文体南路1号,,50,50,148,3,82,61,,66,66,16,27,2,7,0.2,0.7
2026-02-06T0800,2255A,130.2749,46.8028,佳木斯市,佳纺,,22,17,28,15,18,57,,61,61,7,11,5,5,0.5,0.4
2026-02-06T0800,2257A,130.3258,46.7975,佳木斯市,环保局,,19,16,27,11,14,59,,61,61,9,14,8,7,0.2,0.3
2026-02-06T0800,4285A,130.363,46.806,佳木斯市,顺和街,,16,15,21,10,15,51,,59,59,18,14,6,5,0.5,0.4
2026-02-06T0800,4286A,130.3952,46.8268,佳木斯市,长安路196号,,20,14,25,9,16,64,,64,64,4,10,5,6,0.5,0.5
2026-02-06T0800,1252A,120.7439,30.778,嘉兴市,清河小学,细颗粒物(PM2.5),60,66,104,43,86,71,,57,57,23,73,5,6,0.4,0.4
2026-02-06T0800,1253A,120.7261,30.7477,嘉兴市,嘉兴学院,细颗粒物(PM2.5),78,84,115,57,85,71,,54,54,18,70,4,5,0.8,0.9
2026-02-06T0800,2872A,120.7845,30.7524,嘉兴市,南湖区残联,细颗粒物(PM2.5),74,59,86,54,88,77,,59,59,18,66,3,5,0.8,0.8
2026-02-06T0800,3407A,120.6915,30.7741,嘉兴市,秀洲住建,细颗粒物(PM2.5),68,80,102,49,79,71,,58,58,23,57,6,7,0.7,0.8
2026-02-06T0800,1945A,98.291,39.7705,嘉峪关市,气象局,细颗粒物(PM2.5),360,,269,310,102,64,,64,64,5,8,8,5,0.3,0.4
2026-02-06T0800,2884A,98.2672,39.7978,嘉峪关市,酒钢宾馆,细颗粒物(PM2.5),329,,268,279,78,53,,61,61,15,9,12,17,0.9,0.6
2026-02-06T0800,3248A,98.2644,39.7723,嘉峪关市,雄关区,颗粒物(PM10),500,1111,282,282,84,62,,58,58,9,13,10,9,0.5,0.5
2026-02-06T0800,1383A,113.1063,22.6058,江门市,北街,颗粒物(PM10),52,53,41,31,21,6,,21,21,51,26,/,/,/,/
2026-02-06T0800,1384A,113.073,22.5835,江门市,西区,,43,31,41,30,22,5,,17,17,57,33,/,/,/,/
2026-02-06T0800,1385A,113.0218,22.531,江门市,圭峰西,,25,,36,17,20,33,,50,50,23,20,/,/,/,/
2026-02-06T0800,1386A,113.0826,22.5947,江门市,东湖,,39,37,37,27,21,8,,18,18,38,27,8,8,0.6,0.5
2026-02-06T0800,3311A,113.1077,22.5647,江门市,江海富民,"颗粒物(PM10),细颗粒物(PM2.5)",55,59,54,39,24,4,,22,22,59,33,/,/,0.7,0.5
2026-02-06T0800,3449A,113.0496,22.4669,江门市,新会银湖,,49,40,39,34,22,2,,8,8,36,30,7,7,0.7,0.5
2026-02-06T0800,3335A,113.3137,35.2643,焦作市,马村街道办,颗粒物(PM10),67,83,121,30,52,57,,56,56,11,21,6,9,0.4,0.7
2026-02-06T0800,3336A,113.2464,35.2374,焦作市,焦作技师学院,颗粒物(PM10),70,90,120,28,49,54,,56,56,14,25,6,10,0.4,0.8
2026-02-06T0800,3477A,113.1656,35.2536,焦作市,中站许衡医院,颗粒物(PM10),60,69,99,33,46,54,,58,58,17,21,6,9,0.6,0.8
2026-02-06T0800,3981A,113.2456,35.18,焦作市,原李万街道办,颗粒物(PM10),58,65,113,27,53,63,,61,61,14,22,4,10,0.5,0.7
2026-02-06T0800,4264A,113.234,35.219,焦作市,新安路1731号,颗粒物(PM10),68,85,121,32,50,64,,63,63,10,23,6,11,0.3,0.6
2026-02-06T0800,4295A,113.2722,35.2121,焦作市,人民路3066号,颗粒物(PM10),68,86,123,22,50,62,,58,58,12,25,14,10,0.8,0.8
2026-02-06T0800,1708A,116.3701,23.5345,揭阳市,新兴,细颗粒物(PM2.5),74,80,74,54,44,17,,13,13,44,41,8,9,1.1,0.9
2026-02-06T0800,1709A,116.3261,23.5442,揭阳市,西马,细颗粒物(PM2.5),83,83,78,61,44,9,,14,14,48,36,10,9,1.1,0.9
2026-02-06T0800,1710A,116.361,23.5627,揭阳市,东兴,细颗粒物(PM2.5),73,85,74,53,42,20,,21,21,39,40,9,13,/,/
2026-02-06T0800,1711A,116.4151,23.5295,揭阳市,渔湖,细颗粒物(PM2.5),89,95,74,66,47,7,,13,13,56,42,6,7,/,/
2026-02-06T0800,3320A,116.4028,23.5699,揭阳市,曲溪,细颗粒物(PM2.5),67,68,72,48,44,16,,17,17,49,41,7,9,1.2,1
2026-02-06T0800,1944A,102.1691,38.5166,金昌市,天庆家园,颗粒物(PM10),155,259,179,59,46,76,,68,68,5,9,6,8,0.2,0.3
2026-02-06T0800,4022A,102.1648,38.5369,金昌市,金川区人防中心,颗粒物(PM10),154,257,178,56,52,75,,70,70,4,7,8,11,0.3,0.4
2026-02-06T0800,4239A,102.193042,38.531887,金昌市,长春路96号,颗粒物(PM10),141,231,165,52,42,73,,66,66,4,9,6,8,0.5,0.7
2026-02-06T0800,1262A,119.6478,29.0773,金华市,十五中,,42,42,107,29,71,88,,47,47,15,47,2,4,1.0,1
2026-02-06T0800,1263A,119.6859,29.1032,金华市,监测站,,38,38,108,25,71,84,,41,41,23,58,2,3,0.8,0.8
2026-02-06T0800,3659A,119.656,29.1132,金华市,气象局,,35,29,105,24,74,74,,36,36,25,62,3,5,1.0,1
2026-02-06T0800,1767A,121.1114,41.0879,锦州市,南山,,24,14,61,9,8,74,,83,83,7,2,10,8,0.5,0.4
2026-02-06T0800,1768A,121.060361,40.842794,锦州市,开发区,,29,,106,20,16,57,,68,68,18,8,8,6,0.3,0.3
2026-02-06T0800,1769A,121.1836,41.1118,锦州市,百股街道,,26,,83,18,11,66,,73,73,12,7,8,7,0.5,0.4
2026-02-06T0800,1770A,121.1176,41.1224,锦州市,天安街道,,25,14,68,12,7,78,,87,87,12,7,7,5,0.5,0.4
2026-02-06T0800,1771A,121.1303,41.1385,锦州市,北湖公园,,24,,62,15,9,75,,78,78,6,5,11,8,0.5,0.4
2026-02-06T0800,2160A,112.8496,35.5051,晋城市,自来水公司,颗粒物(PM10),84,117,106,55,41,53,,52,52,15,22,6,11,0.9,1
2026-02-06T0800,2162A,112.8509,35.4886,晋城市,市环保局,细颗粒物(PM2.5),73,89,96,53,43,53,,53,53,16,18,4,9,0.8,1
2026-02-06T0800,3620A,112.8258,35.4804,晋城市,泽州一中,细颗粒物(PM2.5),103,143,125,77,55,54,,55,55,15,17,4,8,0.8,1
2026-02-06T0800,4078A,112.8246,35.5152,晋城市,前书院路,颗粒物(PM10),85,119,112,52,38,51,,46,46,16,21,6,10,0.8,1
2026-02-06T0800,4079A,112.8864,35.4773,晋城市,祥云街666号,细颗粒物(PM2.5),89,118,109,66,56,50,,51,51,20,25,6,12,0.7,0.8
2026-02-06T0800,2174A,112.6992,37.6984,晋中市,榆次区政府,颗粒物(PM10),74,97,125,34,25,39,,37,37,30,31,8,11,0.5,0.5
2026-02-06T0800,2865A,112.7195,37.683,晋中市,榆次三中,颗粒物(PM10),76,102,137,38,28,48,,46,46,21,25,9,11,0.4,0.5
2026-02-06T0800,4080A,112.7375,37.7215,晋中市,广安街188号,颗粒物(PM10),73,95,115,43,29,40,,40,40,26,27,8,14,0.4,0.4
2026-02-06T0800,4200A,112.7478,37.6954,晋中市,迎宾街26号,颗粒物(PM10),78,105,141,36,28,48,,47,47,19,24,8,10,0.4,0.5
2026-02-06T0800,2439A,112.2012,31.048,荆门市,竹园小学,细颗粒物(PM2.5),137,190,163,104,116,42,,54,54,28,43,1,2,0.6,1.3
2026-02-06T0800,2440A,112.1968,30.9892,荆门市,掇刀,细颗粒物(PM2.5),158,194,179,120,134,50,,61,61,22,35,6,6,0.8,1.2
2026-02-06T0800,3012A,112.1849,31.0361,荆门市,西山林语,细颗粒物(PM2.5),143,184,148,109,104,47,,62,62,25,35,2,2,0.9,1.3
2026-02-06T0800,3547A,112.1631,31.0134,荆门市,龙泉中学南校,"颗粒物(PM10),细颗粒物(PM2.5)",130,209,171,99,109,57,,70,70,20,32,7,6,0,0.1
2026-02-06T0800,4124A,112.2213,31.0654,荆门市,新台西路6号,细颗粒物(PM2.5),152,169,182,116,137,40,,45,45,26,41,10,9,0.6,1
2026-02-06T0800,1844A,112.2493,30.3198,荆州市,市图书馆,细颗粒物(PM2.5),185,152,161,139,147,57,,44,44,25,45,8,7,1.1,1.2
2026-02-06T0800,1845A,112.2009,30.3543,荆州市,市委党校,细颗粒物(PM2.5),182,181,195,137,165,51,,33,33,26,41,8,7,1.2,1.4
2026-02-06T0800,3194A,112.2749,30.3124,荆州市,管委会,细颗粒物(PM2.5),190,159,162,143,153,57,,41,41,23,44,8,7,1.0,1.1
2026-02-06T0800,4268A,112.1722,30.3366,荆州市,学苑路85号,细颗粒物(PM2.5),207,172,185,157,162,59,,40,40,20,31,10,8,0.9,1
2026-02-06T0800,2343A,117.2114,29.2931,景德镇市,老干部活动中心,,15,15,28,3,18,26,,25,25,8,12,3,4,0.8,0.7
2026-02-06T0800,2344A,117.1893,29.2789,景德镇市,兽医站,,18,18,43,6,18,34,,33,33,10,13,4,4,0.7,0.7
2026-02-06T0800,2346A,117.246,29.2958,景德镇市,陶研所,,10,10,24,3,19,28,,31,31,10,14,3,3,0.7,0.7
2026-02-06T0800,4289A,117.154766,29.256967,景德镇市,青少年活动中心,,10,10,30,3,19,32,,26,26,10,18,3,4,/,/
2026-02-06T0800,1803A,115.9873,29.6816,九江市,十里,细颗粒物(PM2.5),107,108,82,80,61,46,,25,25,26,45,7,7,1.2,1.2
2026-02-06T0800,1804A,115.9583,29.7047,九江市,茅山头,细颗粒物(PM2.5),155,125,86,118,77,43,,20,20,22,47,5,4,0.9,1
2026-02-06T0800,1805A,115.9877,29.7295,九江市,西园,细颗粒物(PM2.5),149,116,93,114,76,49,,28,28,32,55,7,7,1.1,1.1
2026-02-06T0800,1808A,115.9112,29.6038,九江市,综合工业园,细颗粒物(PM2.5),128,124,84,97,58,46,,32,32,29,53,2,3,0.7,0.7
2026-02-06T0800,3190A,116.0254,29.6995,九江市,外国语学校,细颗粒物(PM2.5),145,,76,111,77,37,,29,29,31,48,4,4,1.0,0.9
2026-02-06T0800,4253A,116.010205,29.659402,九江市,莲花大道8号,细颗粒物(PM2.5),128,139,80,97,60,41,,45,45,23,29,6,4,0.8,0.8
2026-02-06T0800,4240A,98.495752,39.733935,酒泉市,玉门东路5号,细颗粒物(PM2.5),378,,258,328,108,58,,58,58,4,8,8,11,0.2,0.4
2026-02-06T0800,4241A,98.5099,39.7506,酒泉市,北大街108号,颗粒物(PM10),500,1396,529,365,123,55,,55,55,2,6,8,10,0.2,0.3
2026-02-06T0800,2698A,76.0071,39.466,喀什地区,巡警大队,"颗粒物(PM10),细颗粒物(PM2.5)",99,147,193,74,89,4,,3,3,44,49,5,9,2.2,2
2026-02-06T0800,2699A,75.9756,39.4693,喀什地区,吾办,细颗粒物(PM2.5),102,130,179,76,90,2,,6,6,56,52,7,10,2.6,1.8
2026-02-06T0800,4027A,75.9485,39.4688,喀什地区,老干局,颗粒物(PM10),83,115,229,47,94,19,,8,8,25,50,5,12,1.8,2.8
2026-02-06T0800,1824A,114.3389,34.778,开封市,肿瘤医院,颗粒物(PM10),68,86,144,26,74,52,,56,56,20,32,9,13,0.5,0.9
2026-02-06T0800,1826A,114.2884,34.7966,开封市,世纪星幼儿园,颗粒物(PM10),65,80,126,27,70,50,,54,54,23,33,9,13,0.5,0.8
2026-02-06T0800,3147A,114.3434,34.8101,开封市,龙亭公园,颗粒物(PM10),67,84,137,33,70,50,,53,53,16,35,9,12,0.6,0.8
2026-02-06T0800,3210A,114.3645,34.7955,开封市,汴京公园,颗粒物(PM10),66,82,144,20,65,50,,54,54,12,32,5,9,0.7,0.8
2026-02-06T0800,3473A,114.2485,34.8306,开封市,技师学院,颗粒物(PM10),62,74,123,26,70,53,,56,56,18,33,7,11,0.7,1
2026-02-06T0800,3592A,114.4518,34.7503,开封市,祥符区生态环境局,,47,47,148,23,78,46,,51,51,20,37,7,13,0.6,1.1
2026-02-06T0800,1951A,84.886,45.6029,克拉玛依市,长征新村,,35,29,64,24,46,70,,82,82,18,16,4,5,0.5,0.7
2026-02-06T0800,1952A,84.8894,45.5827,克拉玛依市,南林小区,,36,35,66,25,46,70,,81,81,21,12,2,2,0.5,0.7
2026-02-06T0800,1954A,84.896,44.3328,克拉玛依市,独山子区,,43,32,87,30,68,76,,70,70,5,16,2,3,0.8,1
2026-02-06T0800,1955A,85.6888,46.0909,克拉玛依市,乌尔禾区商贸楼,,43,43,63,25,48,65,,71,71,17,21,7,7,0.6,0.7
2026-02-06T0800,3612A,85.1045,45.6895,克拉玛依市,白碱滩区新站,,33,33,53,22,45,56,,81,81,27,14,8,8,0.6,0.7
2026-02-06T0800,2697A,76.1457,39.7143,克孜勒苏柯尔克孜自治州,市人民政府,颗粒物(PM10),81,111,157,54,78,54,,53,53,4,17,4,5,0.0,0.4
2026-02-06T0800,3665A,76.1654,39.7157,克孜勒苏柯尔克孜自治州,克州文化中心,颗粒物(PM10),85,119,152,40,56,53,,58,58,8,18,4,5,0.6,0.7
2026-02-06T0800,1450A,102.8203,24.889,昆明市,呈贡新区,,23,22,35,16,19,50,,54,54,28,16,5,5,0.7,0.3
2026-02-06T0800,1452A,102.7253,25.0904,昆明市,龙泉镇,,36,36,33,20,19,31,,46,46,39,21,3,4,0.4,0.4
2026-02-06T0800,1453A,102.7267,25.0378,昆明市,东风东路,,21,21,27,13,17,66,,69,69,20,17,5,7,0.3,0.4
2026-02-06T0800,1454A,102.6744,25.0671,昆明市,金鼎山,,23,23,32,10,15,51,,72,72,33,12,4,4,0.5,0.5
2026-02-06T0800,1455A,102.6643,25.0401,昆明市,碧鸡广场,,26,26,28,14,17,52,,62,62,32,17,3,5,0.4,0.4
2026-02-06T0800,3179A,102.7491,25.012,昆明市,官渡区博物馆,,33,33,30,14,17,56,,59,59,26,16,4,5,0.5,0.4
2026-02-06T0800,3375A,102.8016,24.8336,昆明市,青年创业园,,24,24,29,14,18,67,,47,47,11,14,6,7,0.4,0.5
2026-02-06T0800,3550A,102.8,24.9787,昆明市,昆明学院,,35,35,29,22,16,43,,65,65,37,15,8,4,0.7,0.6
2026-02-06T0800,3551A,102.5969,24.6738,昆明市,晋宁区生态环境分局,,47,47,26,23,17,43,,68,68,23,8,2,2,0.5,0.4
2026-02-06T0800,3552A,102.6673,24.9861,昆明市,云天化总部,,28,28,26,17,14,65,,58,58,23,15,11,8,0.4,0.5
2026-02-06T0800,1456A,91.132,29.6515,拉萨市,八廓街,,24,17,12,8,6,75,,79,79,7,9,6,7,0.3,0.3
2026-02-06T0800,1457A,91.1221,29.6748,拉萨市,市环保局,,20,16,13,6,6,62,,72,72,13,8,6,7,0.3,0.3
2026-02-06T0800,1458A,91.0874,29.6476,拉萨市,区监测站,,20,12,11,3,6,64,,75,75,15,10,3,4,0.5,0.7
2026-02-06T0800,1459A,91.1774,29.6541,拉萨市,西藏大学,,20,16,11,7,6,61,,72,72,13,8,3,4,0.2,0.2
2026-02-06T0800,1460A,90.9798,29.6586,拉萨市,区辐射站,,16,8,14,7,9,51,,64,64,18,15,3,4,0.3,0.3
2026-02-06T0800,1461A,91.0831,29.6292,拉萨市,拉萨火车站,,18,9,9,6,6,56,,70,70,15,8,3,4,0.4,0.4
2026-02-06T0800,2520A,109.2203,23.7252,来宾市,来宾技工学校,细颗粒物(PM2.5),54,42,92,38,76,32,,50,50,21,20,6,8,0.8,1
2026-02-06T0800,3535A,109.1781,23.7293,来宾市,兴宾区政府,,43,42,100,30,71,48,,54,54,20,23,6,8,0.8,1.1
2026-02-06T0800,4002A,109.2312,23.7428,来宾市,中南小学,细颗粒物(PM2.5),67,66,98,48,86,2,,27,27,37,29,5,7,1.0,1.2
2026-02-06T0800,1479A,103.8309,36.0467,兰州市,铁路设计院,,,,,,,,,,,,,,,,
2026-02-06T0800,3241A,103.7439,36.0841,兰州市,百合公园,颗粒物(PM10),72,94,88,36,44,51,,62,62,26,44,3,14,0.5,0.9
2026-02-06T0800,3242A,103.9613,35.9985,兰州市,和平,颗粒物(PM10),74,97,88,29,37,51,,63,63,20,26,10,19,0.8,1.1
2026-02-06T0800,4236A,103.629272,36.093822,兰州市,庄浪东路808号,颗粒物(PM10),76,102,88,32,39,40,,65,65,41,41,12,26,0.6,0.8
2026-02-06T0800,4237A,103.7251,36.104344,兰州市,安宁西路88号,颗粒物(PM10),84,118,100,40,42,66,,80,80,13,35,8,18,0.3,0.7
2026-02-06T0800,4238A,103.846982,36.067567,兰州市,北滨河东路1号,颗粒物(PM10),89,127,92,38,40,40,,63,63,42,49,6,15,0.6,1
2026-02-06T0800,1067A,116.6712,39.5109,廊坊市,药材公司,,22,22,46,3,5,70,,70,70,3,6,3,3,0.3,0.3
2026-02-06T0800,1068A,116.7215,39.5592,廊坊市,开发区,,24,6,36,3,3,74,,73,73,6,9,3,3,0.2,0.3
2026-02-06T0800,1070A,116.7246,39.5273,廊坊市,北华航天学院,,24,8,36,3,4,74,,74,74,11,13,1,2,0.2,0.2
2026-02-06T0800,2919A,116.7022,39.5454,廊坊市,河北工业大学,,23,10,38,3,4,71,,70,70,5,7,3,3,0.2,0.2
2026-02-06T0800,2536A,103.7629,29.5844,乐山市,牛耳桥,细颗粒物(PM2.5),108,118,105,81,78,7,,11,11,34,38,5,5,1.0,1
2026-02-06T0800,2537A,103.7501,29.6002,乐山市,市第三水厂,细颗粒物(PM2.5),98,104,104,73,76,3,,8,8,42,48,3,3,1.2,1.1
2026-02-06T0800,2538A,103.7571,29.5664,乐山市,市监测站,细颗粒物(PM2.5),102,112,96,76,74,7,,6,6,34,35,6,6,1.3,1.2
2026-02-06T0800,3361A,103.7313,29.563,乐山市,理工大学,细颗粒物(PM2.5),95,,9,71,72,7,,9,9,28,30,2,3,1.2,1.1
2026-02-06T0800,2599A,100.2497,26.8802,丽江市,丽江古城,,25,25,23,14,9,58,,79,79,22,9,6,6,0.5,0.4
2026-02-06T0800,2600A,100.2203,26.8906,丽江市,市中心,,23,20,15,16,11,48,,80,80,28,9,6,5,0.4,0.3
2026-02-06T0800,1267A,119.9141,28.4513,丽水市,监测站大楼,细颗粒物(PM2.5),57,59,59,40,45,25,,32,32,28,29,4,6,0.7,0.7
2026-02-06T0800,1268A,119.93,28.4589,丽水市,莲都小学,,44,44,69,30,43,26,,38,38,28,26,/,/,/,/
2026-02-06T0800,1269A,119.8794,28.4232,丽水市,余庄前,细颗粒物(PM2.5),79,80,59,58,39,26,,19,19,27,25,4,5,0.7,0.6
2026-02-06T0800,1173A,119.1759,34.5885,连云港市,市环境监测站,,48,48,134,12,77,62,,62,62,21,31,9,14,0.3,0.6
2026-02-06T0800,3000A,119.3577,34.6971,连云港市,德源药业,颗粒物(PM10),51,51,154,17,71,63,,62,62,7,25,5,7,0.7,0.9
2026-02-06T0800,3007A,119.178,34.8442,连云港市,新城一中,颗粒物(PM10),59,68,131,9,84,59,,69,69,25,40,9,14,0.7,1.1
2026-02-06T0800,3008A,119.3607,34.7519,连云港市,胡沟管理处,,36,36,124,12,72,68,,68,68,7,25,7,13,0.7,0.8
2026-02-06T0800,3009A,119.1478,34.5913,连云港市,矿山设计院,,46,46,143,7,76,64,,65,65,14,29,8,12,0.6,0.9
2026-02-06T0800,3434A,119.2414,34.6539,连云港市,工贸学校,,37,37,118,10,79,65,,61,61,15,37,10,13,0.3,0.7
2026-02-06T0800,3664A,119.4171,34.734,连云港市,连云街道,,40,40,117,11,76,67,,65,65,16,37,6,11,0.4,0.9
2026-02-06T0800,2573A,102.2629,27.8981,凉山彝族自治州,西昌市政府,,30,22,23,21,15,57,,68,68,7,6,4,6,0.6,0.5
2026-02-06T0800,2574A,102.2686,27.885,凉山彝族自治州,凉山州政府,,28,20,20,19,14,48,,59,59,10,6,6,9,0.7,0.6
2026-02-06T0800,4229A,102.2342,27.8859,凉山彝族自治州,凯乐南路30号,,43,43,32,22,12,37,,61,61,26,12,7,11,0.6,0.6
2026-02-06T0800,2212A,123.1978,41.2036,辽阳市,宏伟区,,24,24,189,7,7,63,,67,67,5,5,6,5,0.5,0.4
2026-02-06T0800,2213A,123.1684,41.2497,辽阳市,新华园,,32,32,193,10,9,62,,69,69,15,8,2,2,0.4,0.3
2026-02-06T0800,2214A,123.2355,41.2663,辽阳市,滨河路,,22,22,177,6,7,66,,67,67,6,5,5,3,0.4,0.4
2026-02-06T0800,4083A,123.153,41.2874,辽阳市,铁西路150号,,28,28,192,10,9,53,,62,62,12,6,6,5,0.5,0.4
2026-02-06T0800,2227A,125.1359,42.8845,辽源市,环保局,,37,37,110,15,9,64,,70,70,10,9,2,2,0.5,0.4
2026-02-06T0800,4085A,125.0998,42.9134,辽源市,安宁大街333号,颗粒物(PM10),52,54,214,26,10,57,,70,70,19,8,10,4,0.6,0.4
2026-02-06T0800,1625A,115.9789,36.4372,聊城市,区政府,颗粒物(PM10),54,57,137,3,46,47,,53,53,21,28,12,18,0.6,0.9
2026-02-06T0800,3200A,115.9772,36.4986,聊城市,监控中心,颗粒物(PM10),52,53,136,12,54,47,,55,55,21,28,7,9,0.6,0.9
2026-02-06T0800,3513A,116.0443,36.436,聊城市,九州社区,颗粒物(PM10),59,68,138,7,48,54,,60,60,13,13,8,7,0.7,0.7
2026-02-06T0800,4018A,116.0564,36.4609,聊城市,星美广场,颗粒物(PM10),58,66,150,8,51,38,,46,46,23,23,11,9,0.8,0.9
2026-02-06T0800,4113A,116.0091,36.4495,聊城市,利民路,颗粒物(PM10),52,53,141,6,46,42,,50,50,22,29,9,14,0.7,0.9
2026-02-06T0800,2632A,94.3683,29.6373,林芝市,林芝监测站,,24,6,11,3,10,75,,67,67,2,2,4,5,0.3,0.4
2026-02-06T0800,2633A,94.3616,29.6634,林芝市,林芝人民医院,,23,13,14,3,11,71,,68,68,1,2,5,5,0.3,0.4
2026-02-06T0800,2603A,100.0779,23.8981,临沧市,市环保局,,42,,29,29,19,23,,36,36,16,11,5,6,0.6,0.6
2026-02-06T0800,2604A,100.0894,23.882,临沧市,市气象局,,46,46,44,25,23,27,,37,37,13,11,10,11,0.6,0.5
2026-02-06T0800,1733A,111.5552,36.0791,临汾市,临钢医院,颗粒物(PM10),119,188,168,36,81,17,,17,17,36,46,19,18,1.2,1.5
2026-02-06T0800,1734A,111.4984,36.0734,临汾市,技工学校,颗粒物(PM10),114,178,155,39,91,19,,11,11,37,50,21,23,0.9,1.3
2026-02-06T0800,1736A,111.5017,36.0857,临汾市,市委,颗粒物(PM10),125,200,166,32,84,18,,10,10,35,51,20,23,1.0,1.3
2026-02-06T0800,3018A,111.5048,36.1015,临汾市,唐尧大酒店,颗粒物(PM10),119,187,165,34,76,16,,9,9,40,56,20,22,1.1,1.4
2026-02-06T0800,4244A,111.4879,36.053,临汾市,启星学校,颗粒物(PM10),117,184,164,53,90,20,,8,8,34,58,22,21,1.1,1.4
2026-02-06T0800,4271A,103.2464,35.6123,临夏回族自治州,滨河东路1号,"颗粒物(PM10),细颗粒物(PM2.5)",80,110,145,59,81,15,,22,22,28,33,6,10,1.4,1.4
2026-02-06T0800,4310A,103.207136,35.599807,临夏回族自治州,新华街21号,颗粒物(PM10),80,110,117,54,66,18,,46,46,33,27,8,11,1.3,1.1
2026-02-06T0800,1618A,118.3429,35.0532,临沂市,沂河小区,颗粒物(PM10),52,53,144,3,59,55,,59,59,17,29,8,12,0.2,0.6
2026-02-06T0800,1619A,118.2962,35.0568,临沂市,鲁南制药厂,颗粒物(PM10),53,56,146,3,62,54,,60,60,17,37,11,15,0.2,0.6
2026-02-06T0800,1620A,118.2793,34.9976,临沂市,新光毛纺厂,,46,46,141,19,73,52,,54,54,17,36,8,14,0.3,0.8
2026-02-06T0800,1621A,118.3955,35.0889,临沂市,河东保险公司,,48,48,137,3,64,60,,62,62,19,40,8,13,0.5,0.8
2026-02-06T0800,3370A,118.3563,35.0215,临沂市,十里堡居委,颗粒物(PM10),53,56,148,3,64,60,,62,62,21,35,8,12,0.4,0.8
2026-02-06T0800,3496A,118.359,35.1067,临沂市,南坊新区,颗粒物(PM10),52,53,124,3,53,56,,64,64,15,30,9,12,0.3,0.6
2026-02-06T0800,3860A,118.3915,35.0297,临沂市,皇山花园小区,颗粒物(PM10),57,63,162,6,70,57,,60,60,20,35,11,16,0.4,0.8
2026-02-06T0800,1870A,109.4854,24.3898,柳州市,柳东小学,细颗粒物(PM2.5),89,75,71,66,60,21,,25,25,20,22,15,10,0.8,0.8
2026-02-06T0800,1871A,109.4109,24.3304,柳州市,环保监测站,"颗粒物(PM10),细颗粒物(PM2.5)",70,89,98,51,72,0,,3,3,39,43,6,6,1.4,1.4
2026-02-06T0800,1872A,109.3886,24.3408,柳州市,河西水厂,细颗粒物(PM2.5),108,103,111,81,92,0,,2,2,27,40,8,7,0.8,1
2026-02-06T0800,1873A,109.4263,24.2951,柳州市,市四中,细颗粒物(PM2.5),100,84,112,75,88,1,,2,2,39,38,8,7,1.9,1.4
2026-02-06T0800,1874A,109.396,24.3658,柳州市,市九中,,,,240,58,79,0,,2,2,32,42,11,12,1.2,1.4
2026-02-06T0800,1875A,109.4912,24.3164,柳州市,古亭山,细颗粒物(PM2.5),82,62,78,60,70,0,,0,0,26,35,6,7,0.8,0.8
2026-02-06T0800,3402A,109.5422,24.3994,柳州市,市二中,细颗粒物(PM2.5),94,,75,70,61,8,,7,7,30,34,13,11,0.8,0.8
2026-02-06T0800,2307A,116.5078,31.7369,六安市,监测大楼,细颗粒物(PM2.5),114,96,107,86,82,69,,70,70,16,29,3,4,0.7,0.7
2026-02-06T0800,2308A,116.4738,31.7642,六安市,皖西学院,细颗粒物(PM2.5),118,114,116,89,84,76,,74,74,17,28,4,5,0.7,0.7
2026-02-06T0800,2309A,116.4997,31.7904,六安市,朝阳厂,细颗粒物(PM2.5),113,98,108,85,86,74,,73,73,18,31,3,6,0.6,0.7
2026-02-06T0800,2310A,116.5566,31.7885,六安市,开发区,细颗粒物(PM2.5),115,100,112,87,88,75,,78,78,7,23,4,6,0.6,0.7
2026-02-06T0800,2577A,104.8293,26.592,六盘水市,黄土坡,,44,44,47,30,36,64,,54,54,14,17,8,10,0.8,1
2026-02-06T0800,2579A,104.8481,26.5898,六盘水市,民中,,40,40,44,28,34,66,,55,55,11,13,3,6,0.7,0.8
2026-02-06T0800,2580A,104.9541,26.5506,六盘水市,双水,,46,46,40,29,29,74,,58,58,8,11,3,5,0.6,0.6
2026-02-06T0800,4151A,104.8899,26.5685,六盘水市,钟山大道中段564号,颗粒物(PM10),53,56,51,31,32,65,,51,51,7,11,6,8,1.0,1.1
2026-02-06T0800,2336A,117.022,25.1031,龙岩市,龙岩市监测站,,39,27,29,27,21,11,,23,23,39,23,22,18,0.9,0.7
2026-02-06T0800,2337A,117.0257,25.0662,龙岩市,闽西职业技术学院,,38,38,31,21,15,14,,30,30,32,18,10,7,0.6,0.5
2026-02-06T0800,2338A,117.0195,25.0306,龙岩市,龙岩学院,,26,26,26,17,15,32,,38,38,18,12,5,4,/,/
2026-02-06T0800,2885A,104.9344,33.3827,陇南市,滨江中学,,,74,72,32,37,20,,32,32,40,28,,8,1.1,1
2026-02-06T0800,3247A,104.9551,33.3709,陇南市,市总工会,颗粒物(PM10),52,53,63,22,28,37,,42,42,24,22,2,4,1.0,1
2026-02-06T0800,2488A,111.9984,27.7346,娄底市,市监测站,细颗粒物(PM2.5),59,46,96,42,78,34,,51,51,25,24,12,9,1.2,1
2026-02-06T0800,2491A,111.9888,27.7035,娄底市,市政府,,49,39,96,34,68,38,,50,50,19,26,4,5,0.4,0.6
2026-02-06T0800,4127A,111.9812,27.7591,娄底市,涟钢职大,细颗粒物(PM2.5),52,43,97,36,70,31,,45,45,14,21,3,5,4.6,1.3
2026-02-06T0800,4128A,112.0303,27.7457,娄底市,娄底体校,颗粒物(PM10),63,75,93,39,72,41,,,,4,16,1,2,0.6,0.7
2026-02-06T0800,1894A,105.4427,28.9063,泸州市,小市上码头,细颗粒物(PM2.5),152,141,113,116,93,0,,13,13,43,26,4,6,1.2,1.1
2026-02-06T0800,1895A,105.4241,28.8573,泸州市,兰田宪桥,细颗粒物(PM2.5),113,129,110,85,72,10,,23,23,26,23,8,9,1.1,1
2026-02-06T0800,1896A,105.4378,28.8833,泸州市,市环监站,细颗粒物(PM2.5),125,163,128,95,96,6,,22,22,39,29,10,11,1.0,0.9
2026-02-06T0800,4272A,105.3689,28.7783,泸州市,纳溪中医医院,细颗粒物(PM2.5),130,108,104,99,85,2,,5,5,21,22,8,8,1.1,1.1
2026-02-06T0800,2183A,111.1447,37.5212,吕梁市,环保局,颗粒物(PM10),72,93,109,36,40,3,,2,2,48,49,35,12,0.5,0.7
2026-02-06T0800,2185A,111.1285,37.5338,吕梁市,自来水公司,颗粒物(PM10),76,101,110,36,39,1,,1,1,41,40,33,14,0.5,0.7
2026-02-06T0800,2867A,111.1225,37.5093,吕梁市,马茂庄小学,颗粒物(PM10),75,100,120,37,43,2,,2,2,46,51,45,16,0.4,0.6
2026-02-06T0800,1812A,112.3934,34.6517,洛阳市,市委党校,颗粒物(PM10),65,80,116,43,58,51,,56,56,27,35,9,11,0.7,0.9
2026-02-06T0800,1815A,112.494,34.6883,洛阳市,河南林校,颗粒物(PM10),70,89,121,41,55,47,,53,53,36,41,10,14,0.5,0.7
2026-02-06T0800,1816A,112.3843,34.623,洛阳市,开发区管委会,颗粒物(PM10),68,85,129,35,55,62,,62,62,20,29,12,13,0.5,0.7
2026-02-06T0800,1817A,112.4263,34.6249,洛阳市,市委新办公区,颗粒物(PM10),65,79,114,38,52,59,,61,61,27,31,10,12,0.5,0.7
2026-02-06T0800,3340A,112.6005,34.6323,洛阳市,伊滨,颗粒物(PM10),68,85,121,39,49,63,,65,65,17,28,8,10,0.6,0.6
2026-02-06T0800,3341A,112.495,34.6338,洛阳市,中移产业园,颗粒物(PM10),62,73,115,36,53,59,,61,61,24,29,9,11,0.6,0.8
2026-02-06T0800,3593A,112.5736,34.8993,洛阳市,吉利监测站,颗粒物(PM10),73,95,121,40,57,51,,54,54,28,38,9,12,0.7,0.8
2026-02-06T0800,3635A,112.3678,34.6623,洛阳市,河科大西苑校区,颗粒物(PM10),70,89,125,47,59,56,,60,60,26,35,10,13,0.7,0.9
2026-02-06T0800,3636A,112.4387,34.678,洛阳市,英才小学,颗粒物(PM10),71,91,129,42,60,50,,56,56,32,40,9,14,0.8,1
2026-02-06T0800,4214A,112.460027,34.694929,洛阳市,春都路1号院,颗粒物(PM10),77,103,148,46,58,52,,54,54,20,32,8,12,0.6,0.8
2026-02-06T0800,2399A,114.051,33.5721,漯河市,三五一五工厂,颗粒物(PM10),86,121,179,50,90,35,,44,44,23,28,6,8,0.6,0.9
2026-02-06T0800,2400A,114.0055,33.5698,漯河市,漯河大学,颗粒物(PM10),79,108,155,43,84,36,,45,45,20,25,7,9,0.8,1
2026-02-06T0800,2401A,114.0134,33.5826,漯河市,市水利局,颗粒物(PM10),82,114,168,49,90,33,,41,41,25,30,6,8,0.6,0.8
2026-02-06T0800,2402A,114.0261,33.5697,漯河市,市广电局,颗粒物(PM10),81,112,168,56,91,34,,42,42,16,22,8,9,0.6,0.8
2026-02-06T0800,3478A,113.9691,33.568,漯河市,市图书馆,颗粒物(PM10),85,120,178,42,89,37,,44,44,19,26,8,9,0.9,1.1
2026-02-06T0800,4250A,114.089259,33.588274,漯河市,韶山路11号,颗粒物(PM10),75,100,166,47,91,33,,42,42,23,33,6,9,0.7,0.8
2026-02-06T0800,1798A,118.5084,31.6838,马鞍山市,湖东路四小,,50,50,116,20,81,65,,74,74,11,42,3,8,0.5,0.9
2026-02-06T0800,1799A,118.5019,31.6449,马鞍山市,开发区,颗粒物(PM10),51,52,118,23,85,67,,80,80,10,40,3,8,0.3,0.9
2026-02-06T0800,3633A,118.4914,31.681,马鞍山市,雨山,,49,49,120,21,76,67,,77,77,9,42,2,9,0.5,1.1
2026-02-06T0800,4191A,118.527362,31.722269,马鞍山市,慈湖高新区,,41,41,120,20,79,68,,79,79,8,37,4,7,0.4,0.7
2026-02-06T0800,1686A,111.0285,21.469,茂名市,电白南海,,35,31,36,24,16,37,,68,68,18,12,12,8,0.8,0.8
2026-02-06T0800,1687A,110.9294,21.6533,茂名市,茂石化七小,,29,29,38,14,17,60,,74,74,13,10,5,6,0.4,0.4
2026-02-06T0800,1688A,110.9108,21.6688,茂名市,健康路,,29,29,29,15,16,62,,83,83,17,12,11,5,0.6,0.5
2026-02-06T0800,1689A,110.8592,21.6826,茂名市,高岭,,41,41,53,24,21,44,,71,71,13,11,6,6,/,/
2026-02-06T0800,3450A,111.0101,21.5165,茂名市,电白水东,,29,27,31,20,16,45,,71,71,23,19,9,8,/,/
2026-02-06T0800,2540A,103.8414,30.0871,眉山市,气象局,细颗粒物(PM2.5),119,128,105,90,73,29,,41,41,34,29,12,13,1.1,1
2026-02-06T0800,3148A,103.829,30.0563,眉山市,区人社局,细颗粒物(PM2.5),125,130,107,95,81,21,,40,40,31,37,10,12,1.0,1.1
2026-02-06T0800,4148A,103.8836,30.0695,眉山市,眉职院,细颗粒物(PM2.5),108,116,102,81,69,27,,46,46,23,21,4,5,1.0,1
2026-02-06T0800,1690A,116.1248,24.3307,梅州市,梅江月梅,,46,41,42,32,29,10,,10,10,33,30,/,/,/,/
2026-02-06T0800,1691A,116.0798,24.2719,梅州市,梅县新城,,44,44,47,27,29,3,,13,13,34,35,8,7,0.6,0.7
2026-02-06T0800,3315A,116.1234,24.2994,梅州市,梅龙,,44,44,48,28,29,17,,18,18,29,29,13,9,0.7,0.8
2026-02-06T0800,1878A,104.7775,31.4741,绵阳市,富乐山,细颗粒物(PM2.5),75,75,87,55,62,34,,39,39,11,17,8,8,0.9,0.9
2026-02-06T0800,1880A,104.6698,31.4668,绵阳市,高新区自来水公司,细颗粒物(PM2.5),97,102,105,72,71,2,,13,13,44,39,7,7,1.2,1.1
2026-02-06T0800,3491A,104.6899,31.5324,绵阳市,西科大附属小学,细颗粒物(PM2.5),80,99,114,59,74,0,,12,12,42,42,9,9,0.9,0.8
2026-02-06T0800,3492A,104.5647,31.5343,绵阳市,安州区旅游局,细颗粒物(PM2.5),102,106,104,76,73,6,,13,13,36,38,12,12,1.2,1.1
2026-02-06T0800,4146A,104.7092,31.4972,绵阳市,科技城新区公安局,细颗粒物(PM2.5),79,95,106,58,64,5,,20,20,51,40,5,5,1.0,1
2026-02-06T0800,4226A,104.765114,31.453094,绵阳市,绵阳市气象局,细颗粒物(PM2.5),82,75,94,60,68,33,,33,33,15,22,8,8,0.9,1
2026-02-06T0800,1784A,129.61,44.561,牡丹江市,环保大楼,,28,28,41,12,16,64,,70,70,10,11,4,3,0.3,0.3
2026-02-06T0800,1787A,129.6364,44.6075,牡丹江市,机车工厂,,37,37,45,11,18,57,,64,64,11,10,15,8,0.4,0.3
2026-02-06T0800,1788A,129.6386,44.5462,牡丹江市,第一中学,,20,17,38,12,17,61,,66,66,7,9,4,5,0.3,0.3
2026-02-06T0800,4287A,129.5992,44.5964,牡丹江市,东晓云街98号,,35,35,48,6,18,59,,65,65,8,7,4,4,0.5,0.4
2026-02-06T0800,2531A,105.0703,29.61,内江市,市监测站,细颗粒物(PM2.5),110,,89,83,81,14,,28,28,28,27,6,6,1.0,1
2026-02-06T0800,2533A,105.0657,29.5807,内江市,内江二中,细颗粒物(PM2.5),103,115,99,77,77,1,,9,9,35,30,7,8,0.8,0.8
2026-02-06T0800,2534A,105.0407,29.5828,内江市,内江日报社,细颗粒物(PM2.5),109,101,88,82,76,2,,4,4,32,42,8,8,0.9,0.7
2026-02-06T0800,4147A,105.0433,29.6105,内江市,玉峰路西段888号,细颗粒物(PM2.5),110,96,89,83,78,7,,18,18,34,32,5,5,0.8,0.7
2026-02-06T0800,2628A,92.0653,31.4846,那曲市,那曲监测站,,26,21,46,18,31,44,,37,37,12,6,8,8,0.6,0.9
2026-02-06T0800,4243A,92.0515,31.4787,那曲市,那曲市委宣传部,,35,35,39,23,20,30,,43,43,25,8,10,5,1.2,0.6
2026-02-06T0800,1291A,115.8887,28.7006,南昌市,省林业公司,细颗粒物(PM2.5),102,78,57,76,55,48,,43,43,14,29,5,4,0.9,0.8
2026-02-06T0800,1292A,115.813,28.7443,南昌市,林科所,细颗粒物(PM2.5),93,95,62,69,49,49,,50,50,18,30,9,8,0.4,0.5
2026-02-06T0800,1294A,115.8518,28.687,南昌市,建工学校,细颗粒物(PM2.5),94,98,75,70,55,44,,44,44,23,31,10,8,1.0,0.9
2026-02-06T0800,1295A,115.8926,28.6425,南昌市,象湖,细颗粒物(PM2.5),107,83,67,80,59,46,,42,42,18,24,10,8,1.1,1
2026-02-06T0800,3046A,115.9084,28.6062,南昌市,机电学校,细颗粒物(PM2.5),97,106,80,72,58,50,,43,43,22,28,6,5,0.8,0.7
2026-02-06T0800,3690A,115.9718,28.7032,南昌市,外国语学校,细颗粒物(PM2.5),102,104,72,76,60,45,,38,38,23,33,15,13,1.0,0.9
2026-02-06T0800,4106A,115.7923,28.6873,南昌市,工业二路,细颗粒物(PM2.5),92,95,77,68,54,62,,62,62,18,31,5,4,0.9,0.8
2026-02-06T0800,4192A,115.931587,28.686774,南昌市,南京东路235号,细颗粒物(PM2.5),89,86,72,66,55,46,,42,42,19,25,10,8,0.7,0.6
2026-02-06T0800,1906A,106.0791,30.8022,南充市,南充市委,细颗粒物(PM2.5),87,82,96,64,71,0,,4,4,23,31,4,4,0.9,0.9
2026-02-06T0800,1907A,106.1038,30.8215,南充市,南充炼油厂,细颗粒物(PM2.5),113,109,105,85,71,0,,0,0,22,31,5,6,1.0,0.9
2026-02-06T0800,4227A,106.108336,30.788436,南充市,梨树横街98号,细颗粒物(PM2.5),127,114,112,96,84,2,,2,2,30,37,5,6,0.9,0.9
2026-02-06T0800,4304A,106.1172,30.843,南充市,清泉寺北路188号,细颗粒物(PM2.5),102,94,91,76,70,3,,9,9,21,23,3,3,0.8,0.7
2026-02-06T0800,4305A,106.067,30.7616,南充市,同庆路1号,细颗粒物(PM2.5),89,87,94,66,72,0,,0,0,38,43,6,6,1.0,0.9
2026-02-06T0800,1151A,118.8033,32.1085,南京市,迈皋桥,颗粒物(PM10),55,60,100,14,63,62,,76,76,9,38,6,9,0.1,0.5
2026-02-06T0800,1152A,118.7487,32.057,南京市,草场门,颗粒物(PM10),65,80,104,14,62,51,,58,58,18,42,5,9,0.5,1.1
2026-02-06T0800,1154A,118.770105,32.004342,南京市,中华门,颗粒物(PM10),67,83,110,3,70,68,,79,79,6,32,3,5,0.2,0.8
2026-02-06T0800,1155A,118.8059,32.0329,南京市,瑞金路,颗粒物(PM10),65,80,112,3,75,76,,81,81,2,30,3,4,0.4,0.7
2026-02-06T0800,1156A,118.7946,32.0774,南京市,玄武湖,颗粒物(PM10),55,60,103,10,67,70,,80,80,13,41,3,5,0.3,0.8
2026-02-06T0800,1157A,118.6415,32.0964,南京市,浦口,颗粒物(PM10),64,78,111,3,70,66,,76,76,13,23,4,5,0.3,0.6
2026-02-06T0800,1158A,118.730129,32.000956,南京市,奥体中心,颗粒物(PM10),70,90,112,8,71,75,,84,84,6,30,4,7,0.2,0.7
2026-02-06T0800,1159A,118.9072,32.1047,南京市,仙林大学城,颗粒物(PM10),63,75,113,3,70,72,,76,76,9,39,6,8,0.3,0.8
2026-02-06T0800,3422A,118.8443,31.919,南京市,江宁彩虹桥,颗粒物(PM10),60,70,115,8,64,66,,84,84,10,37,4,4,0.5,1
2026-02-06T0800,3427A,118.8497,32.3599,南京市,六合雄州,,25,25,139,3,75,64,,72,72,10,32,1,4,0.4,0.8
2026-02-06T0800,4086A,118.7641,32.0841,南京市,新模范马路66号,颗粒物(PM10),68,85,118,3,81,88,,101,101,2,33,4,4,0.8,1.1
2026-02-06T0800,4249A,118.8707617,31.34017673,南京市,汶溪路181号,颗粒物(PM10),69,88,106,14,78,60,,72,72,15,37,2,5,0.6,1.1
2026-02-06T0800,4312A,119.019,31.6512,南京市,中山西路1号,颗粒物(PM10),58,66,101,7,74,62,,73,73,14,30,4,4,0.5,1.1
2026-02-06T0800,1401A,108.3098,22.788,南宁市,二十一中,,33,31,44,23,30,21,,33,33,29,21,4,4,0.6,0.6
2026-02-06T0800,1402A,108.3135,22.8529,南宁市,北湖,,40,40,55,27,36,12,,27,27,42,28,2,8,0.6,0.7
2026-02-06T0800,1403A,108.3205,22.8222,南宁市,市监测站,,32,26,42,22,28,16,,41,41,35,23,6,6,0.8,0.8
2026-02-06T0800,1404A,108.3828,22.8038,南宁市,大自然花园,,36,36,40,21,23,32,,54,54,27,15,6,6,0.7,0.6
2026-02-06T0800,1406A,108.2397,22.8462,南宁市,区农职院,,44,44,52,21,28,10,,12,12,41,31,3,4,0.9,1
2026-02-06T0800,1407A,108.3285,22.7356,南宁市,英华嘉园,,43,32,46,30,29,25,,28,28,22,28,3,4,0.5,0.5
2026-02-06T0800,3401A,108.4829,22.762,南宁市,红星社区,,40,40,40,24,26,29,,39,39,19,16,5,4,0.8,0.8
2026-02-06T0800,4132A,108.2927,23.1477,南宁市,起凤路9号,,27,27,46,18,33,50,,47,47,19,19,2,2,0.5,0.6
2026-02-06T0800,4221A,108.2177,22.7774,南宁市,乐贤路16号,,36,36,43,23,27,20,,26,26,38,28,4,3,0.8,0.9
2026-02-06T0800,2332A,118.1682,26.6371,南平市,南平市监测站,,48,48,41,26,25,8,,3,3,31,32,5,4,0.5,0.6
2026-02-06T0800,2334A,118.1757,26.6276,南平市,南平七中,,29,29,36,20,20,7,,5,5,30,27,2,4,0.6,0.6
2026-02-06T0800,1168A,120.9056,31.9669,南通市,狼山街道,颗粒物(PM10),70,89,122,7,80,71,,84,84,14,45,2,6,0.2,0.7
2026-02-06T0800,1170A,120.8635,32.0231,南通市,城中,颗粒物(PM10),73,95,132,6,90,72,,86,86,4,36,2,7,0.3,0.9
2026-02-06T0800,1171A,120.9376,31.9301,南通市,星湖花园,颗粒物(PM10),72,93,114,7,75,76,,90,90,15,44,3,8,0.3,0.8
2026-02-06T0800,1172A,120.8053,32.046,南通市,紫琅学院,颗粒物(PM10),73,95,135,11,85,70,,81,81,4,44,3,7,0.6,1
2026-02-06T0800,3291A,121.0631,32.0644,南通市,通州监测站,颗粒物(PM10),69,88,120,7,83,77,,88,88,13,42,2,6,0.4,0.9
2026-02-06T0800,3432A,120.9348,31.9874,南通市,环境教育馆,颗粒物(PM10),74,97,119,6,86,70,,82,82,11,46,3,8,0.4,0.9
2026-02-06T0800,4091A,120.8692,31.9885,南通市,洪江路,颗粒物(PM10),59,68,112,7,85,66,,78,78,12,52,3,7,0.3,0.8
2026-02-06T0800,2404A,112.5338,33.0086,南阳市,瓦房庄,颗粒物(PM10),91,132,143,65,76,53,,60,60,18,24,5,7,0.9,1
2026-02-06T0800,2405A,112.5002,32.9734,南阳市,汉画馆,细颗粒物(PM2.5),103,152,159,77,98,53,,61,61,19,29,8,9,0.8,1
2026-02-06T0800,2406A,112.5778,33.0144,南阳市,气象站,颗粒物(PM10),108,166,168,59,74,47,,55,55,20,25,6,8,0.8,1
2026-02-06T0800,2407A,112.548,32.9687,南阳市,理工学院,颗粒物(PM10),103,156,158,63,86,48,,55,55,22,31,7,8,0.7,0.9
2026-02-06T0800,4008A,112.5233,32.9921,南阳市,卧龙区政府,颗粒物(PM10),104,157,157,65,85,50,,57,57,18,27,7,8,0.8,1
2026-02-06T0800,1234A,121.8352,29.9111,宁波市,区环保大楼,细颗粒物(PM2.5),77,84,102,56,49,96,,29,29,37,81,5,9,0.7,0.6
2026-02-06T0800,1235A,121.5595,29.8208,宁波市,万里学院,细颗粒物(PM2.5),97,87,86,72,60,116,,63,63,18,48,3,7,0.9,0.9
2026-02-06T0800,1236A,121.713,29.9564,宁波市,龙赛医院,细颗粒物(PM2.5),84,88,81,62,48,103,,57,57,16,62,3,5,0.9,0.7
2026-02-06T0800,1240A,121.5855,29.8635,宁波市,太古小学,细颗粒物(PM2.5),88,92,88,65,58,109,,65,65,17,46,2,7,0.8,0.7
2026-02-06T0800,1241A,121.5239,29.8673,宁波市,市环境监测中心,细颗粒物(PM2.5),99,109,95,74,62,99,,66,66,16,40,2,5,0.8,0.7
2026-02-06T0800,2871A,121.6156,29.9015,宁波市,万里国际学校,细颗粒物(PM2.5),97,99,91,72,64,104,,73,73,18,56,3,7,0.8,0.7
2026-02-06T0800,3710A,121.5593,29.8976,宁波市,白沙活动中心,细颗粒物(PM2.5),112,100,84,84,67,105,,68,68,18,45,4,7,0.6,0.5
2026-02-06T0800,4095A,121.8962,29.7529,宁波市,中科路88号,细颗粒物(PM2.5),89,68,66,66,53,82,,49,49,29,52,5,8,0.6,0.7
2026-02-06T0800,2341A,119.5387,26.6611,宁德市,宁德市监测站,,35,25,47,24,28,52,,72,72,32,33,3,5,0.7,1
2026-02-06T0800,3209A,119.5231,26.6562,宁德市,宁德一中,,39,29,44,27,29,58,,74,74,21,23,3,5,0.3,0.7
2026-02-06T0800,2618A,98.859,25.8541,怒江傈僳族自治州,州监测站,,26,26,32,15,18,47,,51,51,7,8,5,6,0.3,0.3
2026-02-06T0800,2619A,98.8607,25.8168,怒江傈僳族自治州,泸水一中,,20,,29,14,21,32,,33,33,12,15,4,4,0.6,0.7
2026-02-06T0800,1888A,101.6891,26.571,攀枝花市,弄弄坪,,46,46,49,25,24,18,,32,32,40,29,12,34,0.7,1.4
2026-02-06T0800,1889A,101.577,26.5914,攀枝花市,河门口,颗粒物(PM10),53,56,44,21,18,11,,22,22,34,23,16,15,0.6,0.5
2026-02-06T0800,1891A,101.7365,26.4986,攀枝花市,仁和,,33,24,22,23,17,24,,42,42,27,17,10,8,0.8,0.6
2026-02-06T0800,2835A,101.7222,26.567,攀枝花市,四十中小,,34,34,35,18,16,6,,34,34,58,31,16,17,1.1,1.1
2026-02-06T0800,1604A,122.0303,41.1489,盘锦市,开发区,,20,,140,14,10,62,,66,66,11,9,4,3,0.2,0.1
2026-02-06T0800,1605A,122.0486,41.0883,盘锦市,兴隆台,,20,15,141,7,9,63,,64,64,14,12,6,5,0.4,0.4
2026-02-06T0800,1606A,121.8297,41.1026,盘锦市,新生街道,,14,,91,6,6,42,,54,54,25,13,8,6,0.1,0
2026-02-06T0800,1832A,113.3257,33.7423,平顶山市,新华旅馆,颗粒物(PM10),77,104,143,45,71,47,,56,56,22,29,7,9,0.4,0.6
2026-02-06T0800,1833A,113.2917,33.737,平顶山市,规划设计院,颗粒物(PM10),81,111,148,51,72,50,,56,56,12,20,8,10,0.3,0.7
2026-02-06T0800,1834A,113.182,33.7738,平顶山市,平顶山工学院,颗粒物(PM10),80,109,130,50,64,55,,60,60,15,21,9,11,0.5,0.7
2026-02-06T0800,3594A,112.8736,33.9068,平顶山市,石龙区,颗粒物(PM10),86,121,134,57,56,58,,60,60,10,17,6,8,0.7,0.7
2026-02-06T0800,4116A,113.284,33.7139,平顶山市,姚电大道23号,颗粒物(PM10),86,122,150,51,75,52,,60,60,16,27,6,9,0.5,0.7
2026-02-06T0800,2656A,106.6633,35.5338,平凉市,聚贤嘉苑,颗粒物(PM10),69,87,63,36,29,68,,61,61,10,15,16,10,0.5,0.5
2026-02-06T0800,2657A,106.7021,35.5307,平凉市,博物馆,颗粒物(PM10),78,105,71,32,36,67,,53,53,12,27,9,11,0.5,0.7
2026-02-06T0800,2348A,113.8384,27.6436,萍乡市,中医院,细颗粒物(PM2.5),80,97,100,59,65,2,,2,2,31,34,6,12,1.4,1.3
2026-02-06T0800,2350A,113.8677,27.6438,萍乡市,市环保局,细颗粒物(PM2.5),89,69,94,66,66,0,,0,0,31,33,40,31,1.0,0.7
2026-02-06T0800,2351A,113.8663,27.6202,萍乡市,安源区政府,细颗粒物(PM2.5),77,65,103,56,65,2,,3,3,22,29,3,9,0.3,0.7
2026-02-06T0800,4107A,113.8686,27.6668,萍乡市,联洪村委会,细颗粒物(PM2.5),83,89,96,61,63,1,,2,2,33,31,7,9,0.9,0.7
2026-02-06T0800,2319A,119.0142,25.4324,莆田市,荔城区仓后路,细颗粒物(PM2.5),77,,70,56,46,17,,29,29,34,35,/,/,/,/
2026-02-06T0800,2320A,119.0016,25.4553,莆田市,莆田市监测站,细颗粒物(PM2.5),64,,52,46,40,18,,38,38,22,22,4,7,0.7,0.6
2026-02-06T0800,2321A,119.112,25.4561,莆田市,涵江区六中,细颗粒物(PM2.5),64,,55,46,34,5,,12,12,43,33,/,/,0.8,0.7
2026-02-06T0800,2322A,119.1014,25.3215,莆田市,秀屿区政府,细颗粒物(PM2.5),52,,54,36,38,50,,47,47,19,24,4,6,0.8,0.7
2026-02-06T0800,2392A,115.0312,35.7636,濮阳市,环保局,颗粒物(PM10),60,70,119,17,59,49,,53,53,17,29,7,10,0.5,0.8
2026-02-06T0800,3021A,115,35.7667,濮阳市,濮水河管理处,颗粒物(PM10),57,64,142,18,62,46,,50,50,17,24,6,10,0.5,0.8
2026-02-06T0800,4118A,115.0552,35.7816,濮阳市,中原东路68号,颗粒物(PM10),62,73,154,12,61,48,,52,52,21,30,5,9,0.4,0.8
2026-02-06T0800,4216A,115.0923632,35.76857718,濮阳市,任丘路479号,颗粒物(PM10),53,56,136,18,66,47,,51,51,15,30,7,10,0.3,0.8
2026-02-06T0800,2601A,100.9801,22.7634,普洱市,市环保局,,41,41,51,18,20,33,,37,37,7,11,5,5,0.4,0.5
2026-02-06T0800,2602A,100.9763,22.8237,普洱市,普洱第二中学,,40,40,47,20,23,8,,14,14,29,22,5,5,0.5,0.5
2026-02-06T0800,3345A,131.0413,45.7795,七台河市,中波台,,29,29,31,20,16,61,,63,63,7,8,6,7,0.4,0.4
2026-02-06T0800,3637A,131.0136,45.7688,七台河市,人民广场,,32,32,35,15,13,58,,63,63,13,13,6,7,0.5,0.4
2026-02-06T0800,3684A,130.8639,45.8144,七台河市,新建矿广场,,46,46,36,19,14,50,,61,61,14,9,13,5,0.1,0.2
2026-02-06T0800,1779A,123.9307,47.3641,齐齐哈尔市,安居小区,,,,43,,9,,,72,,,8,,8,,0.3
2026-02-06T0800,1780A,123.9497,47.3389,齐齐哈尔市,中心广场,,17,15,28,9,8,54,,58,58,13,8,5,5,0.6,0.4
2026-02-06T0800,1781A,123.9483,47.3229,齐齐哈尔市,农牧车辆厂,,19,19,35,7,9,53,,57,57,9,6,4,4,0.4,0.3
2026-02-06T0800,1783A,123.9442,47.2994,齐齐哈尔市,市环境监测站,,19,13,50,3,7,59,,61,61,8,7,4,3,0.4,0.4
2026-02-06T0800,3662A,123.6341,47.2079,齐齐哈尔市,富区青少年活动中心,,49,49,58,11,9,52,,62,62,16,7,10,5,0.6,0.4
2026-02-06T0800,2591A,107.9765,26.5724,黔东南苗族侗族自治州,市环境监测站,,20,17,29,14,24,58,,45,45,6,14,2,3,0.6,0.9
2026-02-06T0800,2881A,107.8909,26.531,黔东南苗族侗族自治州,凯里学院,,,,31,7,19,54,,45,45,13,15,2,3,0.6,0.8
2026-02-06T0800,2593A,107.5223,26.2371,黔南布依族苗族自治州,小围寨,,15,,27,10,25,21,,23,23,11,11,5,6,0.9,1.1
2026-02-06T0800,3538A,107.5175,26.2977,黔南布依族苗族自治州,沙坝,,17,17,35,10,26,32,,29,29,6,13,4,6,0.9,1
2026-02-06T0800,2589A,104.9022,25.0943,黔西南布依族苗族自治州,场坝街,细颗粒物(PM2.5),92,85,64,68,53,14,,35,35,19,12,90,8,0.9,0.9
2026-02-06T0800,2590A,104.8812,25.0994,黔西南布依族苗族自治州,坪东大道,颗粒物(PM10),56,62,60,21,51,2,,31,31,23,16,5,5,1.2,1
2026-02-06T0800,2502A,108.6238,21.9667,钦州市,市环保站,细颗粒物(PM2.5),58,63,55,41,30,43,,39,39,19,24,2,4,0.5,0.5
2026-02-06T0800,2503A,108.655,21.9481,钦州市,沙埠小学,颗粒物(PM10),61,71,59,32,26,4,,3,3,46,33,3,4,0.4,0.4
2026-02-06T0800,2504A,108.5989,21.7435,钦州市,港区一小,颗粒物(PM10),54,58,56,30,22,16,,25,25,43,36,3,2,0.6,0.6
2026-02-06T0800,3404A,108.5959,21.9634,钦州市,北职校,,45,45,42,21,20,35,,33,33,22,22,2,2,0.6,0.6
2026-02-06T0800,1046A,119.5247,39.9346,秦皇岛市,建设大厦,,27,27,70,3,12,68,,62,62,7,15,6,6,0.3,0.3
2026-02-06T0800,3132A,119.5979,39.938,秦皇岛市,文明里,,35,35,75,3,12,64,,58,58,12,20,9,10,0.3,0.4
2026-02-06T0800,4066A,119.7458,39.9952,秦皇岛市,南园路157号,,35,35,71,10,12,41,,52,52,38,23,10,7,0.5,0.3
2026-02-06T0800,4067A,119.5131,39.8858,秦皇岛市,翠岛大街1号,,29,29,59,3,11,66,,58,58,10,17,8,9,0.3,0.4
2026-02-06T0800,4198A,119.509013,39.825305,秦皇岛市,北戴河轮滑馆,,22,21,71,3,11,69,,66,66,8,13,7,7,0.2,0.2
2026-02-06T0800,1310A,120.404,36.0625,青岛市,市南区东部子站,颗粒物(PM10),60,70,137,7,60,60,,67,67,11,25,8,11,0.5,0.7
2026-02-06T0800,1311A,120.362344,36.10282,青岛市,四方区子站,颗粒物(PM10),65,80,139,7,64,64,,70,70,9,26,4,7,0.5,0.7
2026-02-06T0800,1312A,120.294373,36.054183,青岛市,市南区西部子站,颗粒物(PM10),64,78,144,9,69,51,,59,59,14,31,5,6,0.4,0.8
2026-02-06T0800,1313A,120.4581,36.0858,青岛市,崂山区子站,颗粒物(PM10),57,63,122,6,53,62,,69,69,15,25,10,12,0.3,0.6
2026-02-06T0800,1315A,120.3945,36.3083,青岛市,城阳区子站,颗粒物(PM10),60,70,142,10,63,64,,69,69,16,31,6,9,0.6,0.9
2026-02-06T0800,3642A,120.3454,36.0735,青岛市,市北区南部,颗粒物(PM10),59,67,147,8,69,58,,63,63,12,32,3,7,0.5,0.8
2026-02-06T0800,3643A,120.3897,36.18,青岛市,李沧区北部,颗粒物(PM10),64,78,153,8,62,60,,64,64,8,29,9,10,0.4,0.7
2026-02-06T0800,4110A,120.5222,36.4089,青岛市,盟旺路653号,颗粒物(PM10),60,69,133,9,55,60,,65,65,17,25,2,4,0.6,0.9
2026-02-06T0800,4290A,120.196923,35.954556,青岛市,珠江路669号,,,80,151,15,61,54,,57,57,17,42,,7,0.2,0.6
2026-02-06T0800,4291A,120.0424,35.8656,青岛市,黄岛区人民政府广场,颗粒物(PM10),65,80,136,6,56,61,,64,64,17,30,7,10,0.3,0.6
2026-02-06T0800,1703A,113.0218,23.7086,清远市,凤城街办,细颗粒物(PM2.5),75,76,75,55,53,7,,20,20,57,50,/,/,/,/
2026-02-06T0800,3025A,113.0479,23.6343,清远市,技师学院,颗粒物(PM10),71,92,84,48,45,5,,8,8,65,56,7,6,0.6,0.7
2026-02-06T0800,3318A,112.9898,23.7403,清远市,清新太和,,50,50,61,29,36,13,,38,38,50,36,8,11,0.8,0.7
2026-02-06T0800,3455A,113.076,23.72,清远市,清城东城,颗粒物(PM10),66,81,66,46,36,6,,28,28,56,42,/,/,/,/
2026-02-06T0800,2661A,107.6325,35.7357,庆阳市,庆阳五中,颗粒物(PM10),64,78,82,42,45,58,,73,73,19,26,8,12,0.6,0.8
2026-02-06T0800,2662A,107.6361,35.7067,庆阳市,市环保局,颗粒物(PM10),65,79,81,34,47,63,,74,74,15,19,7,8,0.6,0.6
2026-02-06T0800,1916A,103.7897,25.5036,曲靖市,环境监测站,,36,36,30,17,14,46,,59,59,25,12,6,5,0.5,0.3
2026-02-06T0800,1917A,103.8013,25.5357,曲靖市,烟厂办公区,,36,36,32,18,15,44,,56,56,23,11,5,4,0.4,0.3
2026-02-06T0800,3376A,103.7926,25.4651,曲靖市,南苑二区,,28,28,27,17,13,39,,57,57,24,11,3,4,0.3,0.2
2026-02-06T0800,3377A,103.7442,25.5259,曲靖市,曲靖师范学院,,42,42,34,21,16,52,,62,62,16,10,12,5,0.4,0.3
2026-02-06T0800,1264A,118.8694,28.94,衢州市,环保大楼,,35,30,96,24,66,54,,48,48,18,36,/,/,/,/
2026-02-06T0800,1266A,118.8622,28.9809,衢州市,衢州学院,,28,22,85,19,60,41,,43,43,24,38,4,5,0.6,0.6
2026-02-06T0800,4097A,118.9646,28.9832,衢州市,衢州三中,,36,26,82,25,63,62,,41,41,20,35,4,6,0.8,0.8
2026-02-06T0800,1611A,118.5818,24.9116,泉州市,涂山街,细颗粒物(PM2.5),72,,55,52,34,31,,21,21,29,38,6,4,0.7,0.7
2026-02-06T0800,1612A,118.597,24.8976,泉州市,津头埔,细颗粒物(PM2.5),79,,58,58,36,11,,14,14,37,35,5,4,0.6,0.7
2026-02-06T0800,1613A,118.6669,24.9422,泉州市,万安,细颗粒物(PM2.5),83,,52,61,33,19,,10,10,35,39,6,4,0.6,0.6
2026-02-06T0800,4105A,118.6355,24.9148,泉州市,霞新路6号,细颗粒物(PM2.5),79,62,49,58,32,11,,4,4,42,43,/,/,0.6,0.6
2026-02-06T0800,2626A,88.8873,29.2723,日喀则市,日喀则监测站,,18,15,24,12,22,24,,28,28,9,14,10,10,0.4,0.6
2026-02-06T0800,3726A,88.8775,29.2425,日喀则市,林业技术推广中心,,33,,17,23,11,31,,36,36,9,7,3,2,0.5,0.3
2026-02-06T0800,1659A,119.4711,35.421,日照市,监测站,颗粒物(PM10),56,61,132,7,61,57,,65,65,14,27,7,11,0.6,0.9
2026-02-06T0800,1660A,119.523,35.4216,日照市,市政府广场,颗粒物(PM10),53,56,122,6,61,64,,70,70,18,31,6,10,0.3,0.6
2026-02-06T0800,1661A,119.5511,35.4113,日照市,港务局,颗粒物(PM10),56,61,141,7,69,62,,66,66,14,31,5,9,0.3,0.7
2026-02-06T0800,3507A,119.5326,35.4627,日照市,职业技术学院,颗粒物(PM10),56,61,130,7,62,63,,68,68,15,29,6,10,0.5,0.9
2026-02-06T0800,3604A,119.3267,35.1043,日照市,岚山环保分局,颗粒物(PM10),69,88,161,30,73,43,,56,56,35,46,38,25,3.4,2.1
2026-02-06T0800,1835A,111.1922,34.7752,三门峡市,市政府,颗粒物(PM10),69,87,111,49,62,69,,60,60,18,37,9,15,0.5,0.8
2026-02-06T0800,1836A,111.1588,34.794,三门峡市,开发区,颗粒物(PM10),91,132,131,55,66,62,,55,55,18,37,8,12,0.6,0.8
2026-02-06T0800,3039A,111.1911,34.7829,三门峡市,三门峡市第一小学,颗粒物(PM10),78,106,126,51,64,67,,58,58,16,41,12,19,0.6,0.9
2026-02-06T0800,3598A,111.1031,34.719,三门峡市,富达温泉假日酒店,颗粒物(PM10),80,110,136,54,70,65,,56,56,19,41,9,20,0.6,0.9
2026-02-06T0800,2324A,117.621,26.2626,三明市,三钢,,43,35,34,30,32,8,,16,16,33,28,5,7,1.1,0.8
2026-02-06T0800,2325A,117.6352,26.2714,三明市,三明二中,,38,34,34,26,25,10,,16,16,30,29,5,5,1.3,1.1
2026-02-06T0800,2326A,117.6028,26.2377,三明市,三元区政府,,30,30,36,21,23,10,,18,18,27,27,5,6,0.8,0.8
2026-02-06T0800,1877A,109.4962,18.2682,三亚市,河西子站,,18,18,23,8,9,24,,36,36,17,14,3,3,0.4,0.4
2026-02-06T0800,3540A,109.7348,18.3443,三亚市,君悦子站,,12,,28,8,10,22,,27,27,13,8,3,3,0.4,0.4
2026-02-06T0800,4135A,109.1714,18.3739,三亚市,城东小学站,,14,14,28,8,10,23,,30,30,8,8,/,/,/,/
2026-02-06T0800,2624A,91.7592,29.234,山南市,山南监测站,,15,11,20,3,5,45,,51,51,3,5,5,4,0.4,0.4
2026-02-06T0800,2625A,91.7701,29.2436,山南市,山南人民医院,,16,16,28,3,8,48,,56,56,5,8,6,5,0.5,0.6
2026-02-06T0800,1674A,116.6795,23.3666,汕头市,金平子站,细颗粒物(PM2.5),63,61,54,45,34,6,,14,14,60,39,8,7,1.3,0.8
2026-02-06T0800,1675A,116.7248,23.3632,汕头市,龙湖子站,细颗粒物(PM2.5),68,58,56,49,40,12,,24,24,46,34,13,12,/,/
2026-02-06T0800,1676A,116.7257,23.2774,汕头市,濠江子站,细颗粒物(PM2.5),63,58,52,45,32,10,,26,26,54,38,10,10,/,/
2026-02-06T0800,1677A,116.7518,23.4712,汕头市,澄海子站,,45,45,61,28,36,43,,40,40,24,29,7,8,0.8,0.8
2026-02-06T0800,1678A,116.6088,23.2539,汕头市,潮阳子站,细颗粒物(PM2.5),69,,46,50,38,20,,31,31,32,26,6,8,0.3,0.8
2026-02-06T0800,3444A,116.4539,23.2684,汕头市,潮南峡山,细颗粒物(PM2.5),94,101,57,70,37,17,,28,28,36,24,7,7,1.2,0.8
2026-02-06T0800,3624A,116.4069,23.2533,汕头市,潮南子站,细颗粒物(PM2.5),70,84,77,51,45,14,,18,18,35,30,8,7,/,/
2026-02-06T0800,1693A,115.3653,22.7751,汕尾市,市环保局,,48,38,40,33,35,66,,78,78,20,16,5,5,0.9,0.9
2026-02-06T0800,1695A,115.362,22.7926,汕尾市,新城中学,,42,36,48,29,33,50,,70,70,30,18,5,6,0.8,0.7
2026-02-06T0800,2645A,109.9155,33.8714,商洛市,监测站,颗粒物(PM10),55,60,55,26,27,42,,44,44,17,20,4,5,0.8,0.7
2026-02-06T0800,3045A,109.9647,33.8486,商洛市,商州区中学,颗粒物(PM10),57,64,56,32,24,11,,24,24,42,25,5,5,0.7,0.5
2026-02-06T0800,2408A,115.6701,34.4283,商丘市,环境监测站,颗粒物(PM10),54,58,162,20,107,54,,58,58,15,32,3,3,0.1,0.6
2026-02-06T0800,2409A,115.6458,34.4047,商丘市,粮食局,颗粒物(PM10),53,56,154,17,100,53,,55,55,18,33,3,3,0.3,0.8
2026-02-06T0800,3171A,115.6069,34.4465,商丘市,梁园区档案局,颗粒物(PM10),56,62,154,12,93,58,,58,58,10,29,3,4,0.2,0.8
2026-02-06T0800,4119A,115.6701,34.3767,商丘市,北海东路185号,,40,40,158,18,96,56,,59,59,13,30,4,5,0.4,0.8
2026-02-06T0800,4120A,115.6172,34.3704,商丘市,中山大街3号,,44,44,172,12,105,55,,58,58,15,31,1,3,0.2,0.7
2026-02-06T0800,1141A,121.401,31.2382,上海市,普陀,,29,29,104,15,77,76,,89,89,13,67,5,9,0.5,0.9
2026-02-06T0800,1142A,121.4774,31.2043,上海市,十五厂,,27,27,107,13,72,78,,87,87,13,68,6,9,0.6,1
2026-02-06T0800,1143A,121.4673,31.3011,上海市,虹口,,26,26,107,12,77,69,,78,78,18,72,6,9,0.1,0.6
2026-02-06T0800,1147A,121.4253,31.226,上海市,静安监测站,,26,26,97,12,71,76,,90,90,21,66,6,9,0.5,0.9
2026-02-06T0800,1148A,121.7029,31.1905,上海市,浦东川沙,,28,28,111,12,85,79,,87,87,16,65,7,11,0.5,0.9
2026-02-06T0800,1149A,121.5339,31.229,上海市,浦东新区监测站,,33,28,104,23,85,73,,83,83,22,73,5,9,0.6,1.1
2026-02-06T0800,1150A,121.5776,31.2038,上海市,浦东张江,,28,28,107,14,77,74,,84,84,24,71,6,10,0.1,0.5
2026-02-06T0800,3265A,121.4242,31.3303,上海市,宝山庙行,,31,31,117,10,81,68,,81,81,19,70,7,10,0.4,0.8
2026-02-06T0800,3266A,121.8789,31.4662,上海市,崇明上实东滩,,32,32,99,13,79,83,,96,96,8,39,3,5,0.3,0.6
2026-02-06T0800,3268A,121.316,31.2839,上海市,嘉定南翔,,28,28,109,13,80,73,,84,84,19,68,3,6,0.6,0.9
2026-02-06T0800,3269A,121.3357,30.7455,上海市,金山新城,,39,36,83,27,70,75,,67,67,16,61,7,8,0.8,0.9
2026-02-06T0800,3270A,121.4996,31.0741,上海市,闵行浦江,,25,25,102,14,80,76,,82,82,14,66,6,9,0.5,0.9
2026-02-06T0800,3271A,121.2886,31.1663,上海市,青浦徐泾,,26,26,110,15,80,78,,94,94,21,70,4,7,0.4,0.7
2026-02-06T0800,3272A,121.2193,31.0382,上海市,松江图书馆,,32,32,111,20,80,74,,85,85,14,69,5,8,0.6,0.9
2026-02-06T0800,3273A,121.3904,31.206,上海市,长宁仙霞,,26,26,102,14,70,75,,90,90,19,62,7,10,0.7,1
2026-02-06T0800,3274A,121.7964,31.0507,上海市,浦东惠南,,26,26,98,13,78,80,,86,86,12,66,4,6,0.6,0.9
2026-02-06T0800,3544A,121.4891,30.925,上海市,奉贤南桥新城,,29,29,109,19,82,77,,81,81,14,68,2,5,0.3,0.7
2026-02-06T0800,4183A,121.417401,31.16637,上海市,冠生园路458号,,26,26,97,18,75,72,,85,85,22,70,5,6,0.4,0.8
2026-02-06T0800,4205A,121.541914,31.268301,上海市,宁武路151号,,29,29,120,14,86,70,,82,82,21,71,5,7,0.5,0.9
2026-02-06T0800,2382A,117.9758,28.4439,上饶市,市监测站,细颗粒物(PM2.5),80,72,98,59,57,37,,26,26,27,55,5,12,/,/
2026-02-06T0800,2383A,117.9521,28.4637,上饶市,凤凰光学,细颗粒物(PM2.5),77,66,91,56,61,26,,19,19,30,54,8,13,1.1,1.3
2026-02-06T0800,3685A,117.897,28.4316,上饶市,双创科技城,细颗粒物(PM2.5),84,74,100,62,67,19,,16,16,42,64,6,10,1.2,1.4
2026-02-06T0800,4211A,118.190438,28.444845,上饶市,裕丰大道,细颗粒物(PM2.5),90,82,107,67,74,28,,41,41,31,48,11,20,1.2,1.2
2026-02-06T0800,1669A,113.5821,24.7733,韶关市,市八中,细颗粒物(PM2.5),92,99,103,68,62,1,,4,4,50,52,7,11,1.1,1
2026-02-06T0800,1671A,113.5916,24.7973,韶关市,园林处,细颗粒物(PM2.5),80,68,75,59,59,2,,3,3,42,48,6,9,/,/
2026-02-06T0800,1673A,113.5971,24.6864,韶关市,曲江监测站,颗粒物(PM10),57,64,73,39,44,6,,18,18,40,42,6,7,0.9,1
2026-02-06T0800,2809A,113.6668,24.7756,韶关市,大学路288号,细颗粒物(PM2.5),75,64,62,55,46,6,,8,8,26,26,2,6,/,/
2026-02-06T0800,3622A,113.5556,24.8082,韶关市,碧湖山庄,细颗粒物(PM2.5),97,100,95,72,64,10,,25,25,29,28,6,8,0.9,0.9
2026-02-06T0800,2464A,111.5277,27.2442,邵阳市,市化工厂,,50,,114,35,90,27,,26,26,7,19,5,7,0.8,1.3
2026-02-06T0800,2466A,111.4327,27.2276,邵阳市,市环保局,,42,,86,29,83,40,,40,40,11,22,8,10,1.0,1.6
2026-02-06T0800,4218A,111.446,27.2472,邵阳市,北塔二期4-26地块,,39,28,90,27,77,36,,35,35,8,19,6,8,1.0,1.5
2026-02-06T0800,4219A,111.4739,27.2282,邵阳市,邵水西路287号,,49,,89,34,86,40,,36,36,8,18,8,11,1.1,1.6
2026-02-06T0800,1247A,120.6053,29.9927,绍兴市,城东开发委,细颗粒物(PM2.5),90,82,108,67,84,83,,54,54,24,58,7,9,0.7,0.8
2026-02-06T0800,2921A,120.5482,30.0003,绍兴市,树下王站,细颗粒物(PM2.5),123,99,114,93,95,72,,58,58,22,53,6,7,0.7,0.8
2026-02-06T0800,3408A,120.5685,29.936,绍兴市,绍兴中专,细颗粒物(PM2.5),90,76,106,67,81,76,,62,62,27,48,7,8,0.7,0.6
2026-02-06T0800,3409A,120.4905,30.086,绍兴市,柯桥区政府,细颗粒物(PM2.5),112,120,97,84,90,71,,68,68,29,64,4,7,1.0,1
2026-02-06T0800,3410A,120.8751,30.0249,绍兴市,重华小学,细颗粒物(PM2.5),93,81,103,69,87,84,,59,59,20,53,6,8,0.7,0.6
2026-02-06T0800,3411A,120.837,30.0137,绍兴市,上虞中学,细颗粒物(PM2.5),97,87,114,72,89,91,,69,69,19,52,6,8,1.0,0.9
2026-02-06T0800,3560A,120.4715,30.0414,绍兴市,柯桥妇保,细颗粒物(PM2.5),127,97,105,96,95,63,,67,67,29,53,5,6,0.8,0.8
2026-02-06T0800,3658A,120.6156,30.0762,绍兴市,袍江中学,细颗粒物(PM2.5),70,63,105,51,79,90,,51,51,19,62,7,8,0.8,0.7
2026-02-06T0800,1356A,114.0948,22.5506,深圳市,通心岭子站,,29,29,33,16,22,1,,3,3,42,47,2,2,0.5,0.4
