timepoint,stationcode,longitude,latitude,area,positionname,primarypollutant,aqi,pm10,pm10_24h,pm2_5,pm2_5_24h,o3,o3_24h,o3_8h,o3_8h_24h,no2,no2_24h,so2,so2_24h,co,co_24h
2026-02-06T1000,2568A,102.2503,31.8896,阿坝藏族羌族自治州,马师校,,25,,31,17,12,44,,40,40,10,14,4,4,0.5,0.5
2026-02-06T1000,3994A,102.2174,31.9016,阿坝藏族羌族自治州,马尔康中学西区,颗粒物(PM10),59,68,65,19,11,48,,50,50,11,9,6,5,0.5,0.5
2026-02-06T1000,2695A,80.2899,41.1684,阿克苏地区,电视台,颗粒物(PM10),115,180,215,72,83,33,,42,42,34,40,10,13,1.5,1.6
2026-02-06T1000,2696A,80.2592,41.1541,阿克苏地区,艺术中心,细颗粒物(PM2.5),99,133,199,74,86,42,,47,47,27,43,5,5,0.9,0.9
2026-02-06T1000,2205A,105.699,38.8409,阿拉善盟,蒙二幼,颗粒物(PM10),68,86,82,19,25,61,,62,58,12,13,10,11,0.5,0.6
2026-02-06T1000,2206A,105.7198,38.8508,阿拉善盟,环保局新楼,颗粒物(PM10),55,59,67,19,21,61,,63,59,9,10,10,10,0.5,0.6
2026-02-06T1000,2708A,88.1266,47.8515,阿勒泰地区,市站,,26,6,26,3,20,83,,86,86,14,17,2,3,0,0.2
2026-02-06T1000,4166A,88.1198,47.7931,阿勒泰地区,阿勒泰路33号,,27,,32,3,24,84,,88,88,12,14,4,6,0.3,0.5
2026-02-06T1000,2630A,80.1171,32.4999,阿里地区,阿里监测站,,20,6,3,3,6,61,,64,62,6,5,6,9,0.3,0.3
2026-02-06T1000,3192A,80.0906,32.5029,阿里地区,阿里藏医院,,17,16,9,3,3,52,,64,56,8,5,14,10,0.5,0.4
2026-02-06T1000,2644A,109.0088,32.6974,安康市,汉滨区检察院,细颗粒物(PM2.5),58,58,67,41,43,10,,18,15,26,26,8,7,0.8,0.8
2026-02-06T1000,4054A,109.0324,32.6913,安康市,市邮政管理局,细颗粒物(PM2.5),70,82,83,51,51,5,,5,5,33,37,10,7,1.1,1.1
2026-02-06T1000,2291A,117.0806,30.5181,安庆市,环科院,细颗粒物(PM2.5),88,86,95,65,77,75,,60,60,10,30,5,7,1.0,0.9
2026-02-06T1000,2292A,117.0331,30.5118,安庆市,马山宾馆,细颗粒物(PM2.5),93,78,89,69,78,75,,61,61,9,27,4,6,1.0,1
2026-02-06T1000,2294A,116.9897,30.6146,安庆市,安庆大学,细颗粒物(PM2.5),74,72,101,54,68,83,,68,68,13,30,4,4,1.0,0.8
2026-02-06T1000,3173A,117.0598,30.5351,安庆市,市人大,"颗粒物(PM10),细颗粒物(PM2.5)",69,87,101,50,60,71,,59,59,14,29,4,7,0.8,0.8
2026-02-06T1000,3123A,105.9408,26.2431,安顺市,凤凰山,,40,34,36,28,28,64,,60,60,18,14,18,13,0.9,0.9
2026-02-06T1000,3124A,105.9443,26.2567,安顺市,金钟山,,45,,29,31,28,59,,55,55,15,12,16,13,0.8,0.9
2026-02-06T1000,3125A,105.8983,26.248,安顺市,娄家坡,,46,33,33,32,31,61,,55,55,14,14,18,21,0.8,0.9
2026-02-06T1000,1819A,114.3552,36.1017,安阳市,红庙街,颗粒物(PM10),59,68,114,21,49,60,,55,53,13,21,2,3,0.4,0.6
2026-02-06T1000,1820A,114.361,36.0681,安阳市,银杏小区,,,,118,,53,61,,55,53,,19,4,8,,0.6
2026-02-06T1000,3141A,114.3921,36.0879,安阳市,信访局,颗粒物(PM10),56,61,109,16,46,64,,56,54,8,13,5,6,0.4,0.6
2026-02-06T1000,3669A,114.4706,36.0634,安阳市,左辅环卫站,颗粒物(PM10),60,70,141,13,51,62,,52,50,15,22,4,6,0.3,0.5
2026-02-06T1000,4117A,114.2918,36.0769,安阳市,钢三路198号,颗粒物(PM10),53,55,108,11,49,59,,53,51,6,15,3,5,0.6,0.6
2026-02-06T1000,1748A,123.0441,41.1201,鞍山市,深沟寺,,,,147,10,10,72,,63,62,8,12,6,7,0.5,0.5
2026-02-06T1000,1749A,123.011,41.0931,鞍山市,太阳城,颗粒物(PM10),55,60,144,12,12,67,,64,64,8,12,10,11,0.5,0.5
2026-02-06T1000,1750A,123.0483,41.1445,鞍山市,太平,,43,43,157,14,16,69,,63,63,10,12,7,9,0.3,0.4
2026-02-06T1000,1751A,122.964,41.0968,鞍山市,铁西三道街,颗粒物(PM10),55,59,155,12,19,72,,68,67,10,13,13,14,0.6,0.9
2026-02-06T1000,1753A,123.0219,41.0822,鞍山市,明达新区,,46,46,117,11,13,68,,68,66,12,12,9,7,0.6,0.6
2026-02-06T1000,4201A,122.944647,41.082639,鞍山市,兴盛南路290号,,37,37,152,8,16,70,,68,67,7,12,6,9,1.1,0.9
2026-02-06T1000,2195A,107.4206,40.7609,巴彦淖尔市,附二中,,38,38,39,3,9,66,,66,65,6,5,8,8,0.4,0.3
2026-02-06T1000,2196A,107.37,40.7372,巴彦淖尔市,市环保大楼,,41,41,36,7,8,68,,68,67,9,7,5,6,0.4,0.3
2026-02-06T1000,1956A,86.1476,41.7529,巴音郭楞蒙古自治州,孔雀公园,颗粒物(PM10),90,129,118,31,54,80,,73,73,6,30,9,9,0.5,0.8
2026-02-06T1000,1957A,86.1971,41.7166,巴音郭楞蒙古自治州,棉纺厂,颗粒物(PM10),98,145,214,35,56,71,,63,63,16,31,/,/,/,/
2026-02-06T1000,1958A,86.236,41.7172,巴音郭楞蒙古自治州,经济开发区,颗粒物(PM10),77,104,162,23,32,69,,62,62,8,20,6,6,0.5,0.6
2026-02-06T1000,3181A,106.776805,31.852614,巴中市,市五中,细颗粒物(PM2.5),105,87,87,79,74,4,,2,2,17,26,6,6,1.6,1.3
2026-02-06T1000,3183A,106.7419,31.8654,巴中市,圣泉水务公司,细颗粒物(PM2.5),85,74,86,63,66,4,,2,2,24,29,6,6,1.4,1.3
2026-02-06T1000,3616A,106.7617,31.8343,巴中市,市中心医院,细颗粒物(PM2.5),99,87,87,74,72,3,,1,1,22,30,6,6,1.6,1.5
2026-02-06T1000,2235A,122.7909,45.608,白城市,洮北区环保局,,25,25,46,15,10,64,,62,61,12,9,5,5,0.3,0.2
2026-02-06T1000,2236A,122.8741,45.5725,白城市,市环保局,,24,24,52,13,11,58,,59,58,6,5,6,5,0.3,0.3
2026-02-06T1000,2231A,126.4219,41.9172,白山市,喜丰,颗粒物(PM10),63,75,179,3,13,71,,55,52,5,12,11,8,0.5,0.6
2026-02-06T1000,2232A,126.4082,41.9416,白山市,环保局,颗粒物(PM10),70,89,143,15,14,61,,58,53,15,12,21,12,0.5,0.5
2026-02-06T1000,2647A,104.1727,36.5448,白银市,第三小学,颗粒物(PM10),66,82,97,31,36,43,,75,64,28,19,16,19,0.7,0.4
2026-02-06T1000,2648A,104.1467,36.5482,白银市,动力公司,,,68,84,21,30,,,73,67,,18,4,21,0.6,0.5
2026-02-06T1000,2512A,106.6102,23.901,百色市,市监测站,,42,41,55,29,46,17,,12,12,15,20,9,12,0.8,0.9
2026-02-06T1000,2513A,106.6524,23.8842,百色市,市中心血站,细颗粒物(PM2.5),64,62,67,46,52,12,,3,3,24,26,8,13,0.9,1
2026-02-06T1000,4133A,106.6273,23.8798,百色市,龙景西路,细颗粒物(PM2.5),67,62,65,48,50,8,,9,8,22,22,8,13,0.7,0.7
2026-02-06T1000,2270A,117.396,32.9389,蚌埠市,工人疗养院,颗粒物(PM10),55,60,132,6,83,74,,76,74,13,26,3,5,0.3,0.7
2026-02-06T1000,2271A,117.3606,32.9428,蚌埠市,百货大楼,颗粒物(PM10),57,63,133,6,79,68,,70,68,12,25,4,6,0.2,0.6
2026-02-06T1000,2273A,117.4183,32.8909,蚌埠市,蚌埠学院,颗粒物(PM10),52,53,117,3,78,74,,75,75,17,31,3,6,0.3,0.7
2026-02-06T1000,2274A,117.3534,32.9672,蚌埠市,淮上区政府,颗粒物(PM10),57,63,121,9,83,75,,78,75,11,23,4,6,0.3,0.6
2026-02-06T1000,2275A,117.3143,32.8977,蚌埠市,高新区,颗粒物(PM10),51,51,119,6,84,70,,74,71,8,19,5,7,0.2,0.6
2026-02-06T1000,3715A,117.3091,32.9314,蚌埠市,蚌埠田家炳中学,颗粒物(PM10),60,69,132,7,85,72,,76,72,11,24,3,6,0.2,0.6
2026-02-06T1000,1585A,109.8761,40.6533,包头市,市环境监测站,,,16,17,3,6,,,71,71,11,9,6,5,0.5,0.3
2026-02-06T1000,1587A,109.9992,40.5843,包头市,包头八中,,33,33,26,7,10,59,,51,51,13,18,6,6,0.5,0.4
2026-02-06T1000,1589A,109.8641,40.6288,包头市,惠龙物流,,23,22,16,6,6,72,,73,73,10,9,8,7,0.4,0.4
2026-02-06T1000,1590A,110.0376,40.5546,包头市,东河鸿龙湾,,25,25,25,3,9,45,,48,46,35,28,9,8,0.4,0.4
2026-02-06T1000,3283A,109.9154,40.5684,包头市,滨河大厦,,22,19,15,15,6,63,,62,62,15,16,7,7,0.5,0.5
2026-02-06T1000,3419A,109.9449,40.6259,包头市,包头市委党校,,37,37,25,10,9,65,,64,64,15,14,8,9,0.4,0.4
2026-02-06T1000,3683A,109.8332,40.6577,包头市,昆区政府,,24,8,15,3,5,75,,74,74,9,10,6,6,0.4,0.4
2026-02-06T1000,1931A,107.0802,34.3129,宝鸡市,竹园沟,细颗粒物(PM2.5),112,,104,84,90,49,,28,28,27,29,7,8,0.7,0.7
2026-02-06T1000,1933A,107.1429,34.3549,宝鸡市,监测站,细颗粒物(PM2.5),180,142,140,136,119,22,,18,18,41,41,8,7,0.9,0.8
2026-02-06T1000,1934A,107.1172,34.3759,宝鸡市,技工学校,细颗粒物(PM2.5),172,153,144,130,109,23,,28,26,33,33,17,10,1.0,0.9
2026-02-06T1000,1936A,107.2025,34.3518,宝鸡市,文理学院,细颗粒物(PM2.5),153,147,140,117,107,18,,23,21,42,40,7,6,1.3,1.1
2026-02-06T1000,1937A,107.2396,34.3626,宝鸡市,三迪小学,细颗粒物(PM2.5),160,134,144,122,111,20,,21,20,44,49,5,6,1.1,1
2026-02-06T1000,4155A,107.1721,34.3558,宝鸡市,滨河北路,细颗粒物(PM2.5),144,149,153,110,102,16,,22,19,38,34,8,7,1.0,0.9
2026-02-06T1000,4308A,107.3898,34.3601,宝鸡市,陈仓区北开路21号,细颗粒物(PM2.5),179,160,177,135,133,27,,42,42,46,47,23,42,1.2,1.2
2026-02-06T1000,1051A,115.4803,38.8568,保定市,游泳馆,,27,27,89,3,17,67,,62,62,9,13,3,3,0.7,0.5
2026-02-06T1000,1052A,115.509,38.8895,保定市,华电二区,,23,23,66,3,10,65,,53,53,8,17,3,3,0.7,0.6
2026-02-06T1000,1053A,115.4588,38.9037,保定市,接待中心,,25,25,61,3,15,62,,57,57,12,15,3,2,0.1,0.1
2026-02-06T1000,1054A,115.4484,38.8344,保定市,地表水厂,,34,34,85,3,12,66,,64,64,15,19,2,3,0.1,0.1
2026-02-06T1000,3581A,115.3136,38.9511,保定市,满城区生态环境分局,,20,19,71,3,11,62,,59,59,12,18,3,2,0.2,0.2
2026-02-06T1000,3582A,115.4709,38.7628,保定市,清苑区第二中学,,33,33,101,3,17,66,,59,59,11,21,4,6,0.2,0.3
2026-02-06T1000,3583A,115.6231,39.0223,保定市,徐水物探局,,,24,80,3,13,,,62,62,11,16,2,5,0.4,0.4
2026-02-06T1000,4004A,115.4199,38.8665,保定市,双鹰农机,,22,21,77,3,14,69,,67,67,2,7,3,3,0.1,0.2
2026-02-06T1000,4034A,115.515,38.8589,保定市,植保所站,,,53,80,3,12,,,59,59,8,15,3,3,0.5,0.5
2026-02-06T1000,2594A,99.1589,25.1137,保山市,市环境监测站,,34,34,25,12,14,35,,63,55,26,8,7,4,0.7,0.3
2026-02-06T1000,2595A,99.1616,25.1381,保山市,市环保局,,22,22,30,8,12,53,,71,66,12,5,3,3,0.5,0.4
2026-02-06T1000,1867A,109.1435,21.4085,北海市,海滩公园,,35,34,37,24,20,70,,67,65,10,16,2,3,0.5,0.7
2026-02-06T1000,1868A,109.0983,21.466,北海市,新市环保局,,36,36,34,17,17,57,,67,62,21,16,7,6,0.5,0.5
2026-02-06T1000,1869A,109.1775,21.5232,北海市,北海工业园,细颗粒物(PM2.5),84,94,48,62,25,44,,56,49,25,14,13,6,0.7,0.6
2026-02-06T1000,3400A,109.1844,21.4396,北海市,龙潭自来水厂,,43,43,35,29,22,58,,56,52,8,10,6,4,0.5,0.4
2026-02-06T1000,1001A,116.3611,39.8786,北京市,万寿西宫,,25,12,21,3,4,78,,77,77,2,3,1,1,0.5,0.4
2026-02-06T1000,1003A,116.4174,39.9289,北京市,东四,,21,13,20,3,4,67,,67,67,11,12,3,4,0.2,0.2
2026-02-06T1000,1004A,116.4073,39.8858,北京市,天坛,,21,12,25,3,4,67,,68,68,10,10,2,2,0.3,0.2
2026-02-06T1000,1005A,116.4622,39.9364,北京市,农展馆,,24,11,17,3,2,75,,74,74,3,5,2,4,0,0
2026-02-06T1000,1006A,116.3399,39.9293,北京市,官园,,21,13,20,3,3,65,,64,64,6,8,2,2,0.3,0.3
2026-02-06T1000,1007A,116.2879,39.9613,北京市,海淀万柳,,20,12,18,3,3,61,,60,60,12,13,2,2,0.2,0.2
2026-02-06T1000,1008A,116.6635,40.1349,北京市,顺义新城,,25,8,8,3,2,77,,76,76,2,4,4,4,0.3,0.2
2026-02-06T1000,1009A,116.6275,40.327,北京市,怀柔镇,,22,12,10,3,3,69,,71,71,2,4,4,4,0.3,0.3
2026-02-06T1000,1010A,116.2295,40.217,北京市,昌平镇,,18,18,19,3,4,55,,69,64,16,11,2,2,0.4,0.3
2026-02-06T1000,1011A,116.3968,39.982,北京市,奥体中心,,23,11,16,3,3,72,,69,69,7,10,5,4,0.2,0.2
2026-02-06T1000,3418A,116.8336,40.4095,北京市,密云新城,,23,7,7,3,2,73,,73,73,4,4,3,3,0.2,0.2
2026-02-06T1000,3671A,116.0879,39.9725,北京市,门头沟三家店,,20,11,12,3,4,64,,61,61,3,4,2,3,0.4,0.4
2026-02-06T1000,3672A,116.1507,39.8246,北京市,丰台云岗,,20,10,12,3,3,61,,71,70,12,10,1,2,0.3,0.3
2026-02-06T1000,3674A,115.9578,39.7602,北京市,房山燕山,,20,20,16,3,4,59,,59,59,12,9,3,3,0.2,0.1
2026-02-06T1000,3675A,116.4669,39.7734,北京市,大兴旧宫,,23,15,24,3,4,71,,68,68,8,12,2,3,0.3,0.4
2026-02-06T1000,3694A,115.9859,40.4562,北京市,延庆石河营,,24,12,14,3,4,74,,73,73,1,2,3,3,0.4,0.3
2026-02-06T1000,3695A,116.6151,40.3052,北京市,怀柔新城,,23,12,10,3,4,72,,73,72,2,2,2,2,0.3,0.3
2026-02-06T1000,3696A,116.2542,39.8764,北京市,丰台小屯,,18,11,20,3,4,57,,52,52,10,12,3,3,0.4,0.3
2026-02-06T1000,3697A,116.8399,40.3843,北京市,密云镇,,24,8,8,3,2,75,,75,75,4,5,3,3,0.3,0.3
2026-02-06T1000,4057A,115.9423,40.4431,北京市,延庆百泉,,21,14,18,3,4,67,,69,68,3,2,2,2,0.3,0.2
2026-02-06T1000,4058A,116.6598,39.9164,北京市,通州新华,,25,7,11,3,2,79,,77,77,2,5,2,2,0.4,0.4
2026-02-06T1000,4182A,116.1942,39.9158,北京市,石景山八角,,20,14,19,3,4,61,,59,59,4,5,2,3,0.1,0.1
2026-02-06T1000,4194A,117.078628,40.151726,北京市,平谷新城,,23,6,8,3,2,73,,72,72,4,6,3,3,0.1,0.2
2026-02-06T1000,1761A,123.8274146,41.31234549,本溪市,大峪,,,33,119,3,7,,,66,66,2,6,7,8,0.5,0.4
2026-02-06T1000,1763A,123.7169,41.3094,本溪市,彩屯,颗粒物(PM10),52,54,105,6,8,74,,72,72,11,12,7,7,0.6,0.6
2026-02-06T1000,1764A,123.7672166,41.28649327,本溪市,东明,,30,30,138,6,7,72,,69,69,6,10,8,9,0.7,0.7
2026-02-06T1000,1765A,123.799345,41.266614,本溪市,新立屯,,23,22,151,6,7,71,,69,69,1,4,9,10,0.7,0.7
2026-02-06T1000,1766A,123.829144,41.336777,本溪市,威宁,,28,28,159,6,8,66,,63,63,7,11,6,6,0.4,0.4
2026-02-06T1000,2587A,105.287,27.3133,毕节市,八中,细颗粒物(PM2.5),72,62,47,52,31,41,,55,47,19,12,12,9,1.1,0.9
2026-02-06T1000,2588A,105.3079,27.2987,毕节市,师专,细颗粒物(PM2.5),62,62,42,44,27,31,,56,46,26,15,9,8,1.0,0.9
2026-02-06T1000,4263A,105.3688,27.3598,毕节市,工业大道,细颗粒物(PM2.5),78,74,48,57,36,27,,59,45,36,15,11,10,/,/
2026-02-06T1000,1629A,117.9961,37.3604,滨州市,第二水厂,,41,41,94,3,23,62,,59,59,5,13,8,9,0.5,0.5
2026-02-06T1000,1630A,117.9789,37.3931,滨州市,北中新校,,39,39,81,3,21,63,,62,62,10,15,5,5,0.4,0.5
2026-02-06T1000,3514A,117.9379,37.3959,滨州市,中海酒店,,36,36,82,3,21,77,,75,75,8,14,7,8,0.4,0.5
2026-02-06T1000,3515A,117.9381509,37.35547456,滨州市,开发区一中,颗粒物(PM10),52,53,108,3,21,64,,63,62,4,10,10,10,0.5,0.6
2026-02-06T1000,3516A,118.0914,37.6938,滨州市,金海六路,,,39,79,3,23,76,,70,70,3,10,6,8,,1
2026-02-06T1000,4028A,117.9955,37.3752,滨州市,滨州市西街道办事处,,46,46,90,9,28,69,,66,66,9,13,8,8,0.2,0.3
2026-02-06T1000,2311A,115.8071,33.8399,亳州市,污水处理厂,颗粒物(PM10),63,75,142,9,83,56,,53,53,13,25,6,7,0.3,0.7
2026-02-06T1000,2312A,115.7789,33.8519,亳州市,三国揽胜宫,颗粒物(PM10),60,70,166,9,84,52,,49,49,25,36,6,7,0.3,0.7
2026-02-06T1000,3332A,115.7631,33.803,亳州市,亳州学院,颗粒物(PM10),61,72,145,9,83,48,,46,46,17,25,5,6,0.4,0.7
2026-02-06T1000,2693A,82.0482,44.8553,博尔塔拉蒙古自治州,市党校,细颗粒物(PM2.5),105,117,90,79,52,16,,68,57,48,19,2,2,1.3,1.2
2026-02-06T1000,2694A,82.0805,44.8966,博尔塔拉蒙古自治州,市环保局,细颗粒物(PM2.5),102,130,102,76,64,47,,60,56,30,21,3,4,0.8,1
2026-02-06T1000,1071A,116.8733,38.2922,沧州市,沧县城建局,颗粒物(PM10),63,76,103,11,26,61,,42,42,15,26,4,5,0.3,0.3
2026-02-06T1000,1072A,116.8462,38.3189,沧州市,电视转播站,颗粒物(PM10),51,51,90,18,29,59,,31,31,18,27,3,3,0.4,0.5
2026-02-06T1000,1073A,116.8588,38.3161,沧州市,市环保局,颗粒物(PM10),57,63,97,19,26,51,,32,32,16,24,6,6,0.4,0.5
2026-02-06T1000,3324A,116.8011,38.294,沧州市,河北水利电力学院,,,,103,,27,,,39,37,12,19,1,3,0.2,0.3
2026-02-06T1000,2622A,97.1813,31.1289,昌都市,昌都监测站,,30,30,23,9,11,74,,73,73,10,6,2,3,0.4,0.3
2026-02-06T1000,3719A,97.1707,31.1428,昌都市,昌都会议中心,,27,27,25,11,9,61,,69,68,3,2,4,4,0.4,0.2
2026-02-06T1000,2692A,87.2722,44.0298,昌吉回族自治州,新区政务中心,细颗粒物(PM2.5),87,114,114,64,87,55,,65,65,20,27,7,8,1.2,1.4
2026-02-06T1000,3613A,87.3069,44.0093,昌吉回族自治州,亚心广场,细颗粒物(PM2.5),119,134,135,90,107,58,,65,65,21,24,8,8,1.2,1.4
2026-02-06T1000,4164A,87.2057,43.9289,昌吉回族自治州,财政所,细颗粒物(PM2.5),127,108,123,96,99,56,,47,44,12,24,5,6,1.2,1.2
2026-02-06T1000,1120A,125.2874,43.9024,长春市,客车厂,,43,43,109,28,14,58,,51,51,10,10,7,6,0.4,0.3
2026-02-06T1000,1121A,125.2943,43.8508,长春市,邮电学院,,43,,98,30,13,55,,49,49,12,12,10,8,0.4,0.3
2026-02-06T1000,1122A,125.3648,43.8745,长春市,劳动公园,,32,32,94,22,14,62,,56,56,9,10,5,3,0.8,0.7
2026-02-06T1000,1123A,125.3233,43.8781,长春市,园林处,,47,47,91,31,18,59,,52,52,9,10,8,7,0.5,0.4
2026-02-06T1000,1124A,125.4604,43.7904,长春市,净月潭,,26,24,92,18,11,59,,54,54,12,10,7,5,0.4,0.3
2026-02-06T1000,1126A,125.38,43.8422,长春市,经开区环卫处,,,34,94,27,13,,,46,45,17,16,15,9,0.4,0.3
2026-02-06T1000,1127A,125.234,43.7761,长春市,高新区管委会,,43,43,110,28,13,64,,60,60,7,7,8,6,0.5,0.3
2026-02-06T1000,1128A,125.1695,43.83,长春市,岱山公园,,,,127,,15,58,,57,56,13,12,,4,0.3,0.3
2026-02-06T1000,4281A,125.334645,43.916281,长春市,北亚泰大街1068号,,39,39,98,17,15,55,,42,42,12,18,8,9,0.4,0.4
2026-02-06T1000,1335A,113.082,28.2421,长沙市,经开区环保局,,49,,88,34,61,12,,21,19,28,31,3,3,0.8,0.8
2026-02-06T1000,1336A,112.8873,28.2202,长沙市,高开区环保局,细颗粒物(PM2.5),120,,95,91,85,16,,31,26,25,21,4,6,1.1,1
2026-02-06T1000,1337A,113.0785,28.2012,长沙市,马坡岭,细颗粒物(PM2.5),54,46,100,38,73,15,,29,25,25,27,4,5,1.0,0.9
2026-02-06T1000,1338A,112.9448,28.1894,长沙市,湖南师范大学,细颗粒物(PM2.5),74,,105,54,74,21,,37,30,20,17,4,4,1.1,1
2026-02-06T1000,1339A,113.0177,28.1322,长沙市,雨花区环保局,,48,48,88,28,63,13,,29,23,26,30,7,7,1.0,0.9
2026-02-06T1000,1340A,112.9795,28.2593,长沙市,伍家岭,细颗粒物(PM2.5),105,84,100,79,78,16,,30,24,26,24,5,5,1.0,0.9
2026-02-06T1000,1341A,113.002,28.1944,长沙市,火车新站,细颗粒物(PM2.5),62,51,92,44,73,20,,37,30,24,24,2,2,1.2,1.1
2026-02-06T1000,1342A,112.9846,28.1177,长沙市,天心区环保局,,50,45,96,35,71,18,,36,30,25,25,5,6,0.8,0.7
2026-02-06T1000,1343A,112.8906,28.1307,长沙市,湖南中医药大学,细颗粒物(PM2.5),77,,100,56,72,23,,39,32,24,26,5,7,1.1,1
2026-02-06T1000,1727A,113.1146,36.1547,长治市,清华站,颗粒物(PM10),59,67,81,41,41,57,,55,55,19,24,6,12,0.8,0.8
2026-02-06T1000,1730A,113.0887,36.2126,长治市,审计局,颗粒物(PM10),55,59,81,31,42,59,,56,56,15,20,7,12,0.6,0.8
2026-02-06T1000,1731A,113.0845,36.1856,长治市,长治八中,细颗粒物(PM2.5),80,89,96,59,45,52,,54,53,16,19,9,14,0.8,0.8
2026-02-06T1000,2845A,113.1561,36.1912,长治市,德盛苑,细颗粒物(PM2.5),88,76,81,65,46,58,,52,52,15,20,7,12,0.7,0.7
2026-02-06T1000,3568A,113.0603,36.0464,长治市,向阳小学,细颗粒物(PM2.5),83,104,110,61,48,48,,48,47,21,27,12,19,1.4,1.1
2026-02-06T1000,3569A,112.8788,36.315,长治市,屯留一中,颗粒物(PM10),57,64,91,34,41,55,,46,46,26,31,14,15,1.9,1.4
2026-02-06T1000,4189A,113.113092,36.199482,长治市,英华南巷50号,,,67,86,43,42,,,55,55,13,19,5,12,0.7,0.8
2026-02-06T1000,4190A,113.23666,36.33435,长治市,学府街1号,,47,47,87,14,39,65,,57,57,17,27,8,17,0.5,0.9
2026-02-06T1000,1854A,111.696,28.9725,常德市,市二中,细颗粒物(PM2.5),195,191,144,146,103,18,,7,6,27,29,6,5,1.6,1.4
2026-02-06T1000,3138A,111.7152,29.0288,常德市,武陵区永安,细颗粒物(PM2.5),201,214,163,151,123,24,,11,10,32,29,5,4,1.5,1.4
2026-02-06T1000,3139A,111.6891,28.9881,常德市,鼎城区玉霞,细颗粒物(PM2.5),210,203,140,160,108,8,,4,4,36,35,5,5,1.7,1.3
2026-02-06T1000,3140A,111.6651,29.0526,常德市,武陵区长庚,细颗粒物(PM2.5),206,202,155,156,130,18,,7,7,29,29,5,5,1.3,1.2
2026-02-06T1000,1196A,119.9524,31.7586,常州市,市监测站,,34,34,119,3,77,71,,86,79,15,44,7,10,0.3,0.7
2026-02-06T1000,1200A,119.9351,31.703,常州市,武进监测站,,37,37,118,3,78,58,,77,70,18,46,7,10,0.5,1
2026-02-06T1000,3002A,119.9701,31.813,常州市,行政中心,颗粒物(PM10),62,73,123,3,81,70,,85,78,12,39,3,7,0.4,0.8
2026-02-06T1000,3003A,120.0434,31.7726,常州市,经开区,,38,38,129,3,77,66,,80,74,12,43,3,7,0.4,0.9
2026-02-06T1000,3010A,119.8919,31.7892,常州市,钟楼,,41,41,115,3,78,63,,78,73,17,37,6,9,0.4,0.7
2026-02-06T1000,3429A,119.8595,31.706,常州市,武进经发区,,34,34,112,12,85,62,,76,74,17,43,4,8,0.6,1.1
2026-02-06T1000,3430A,119.5812,31.7256,常州市,金坛城区,,37,37,111,12,83,67,,83,75,12,30,6,8,0.3,0.8
2026-02-06T1000,4089A,119.9551,31.863,常州市,崇义南街5-H号,颗粒物(PM10),60,70,120,3,83,68,,82,75,10,33,4,7,0.5,0.9
2026-02-06T1000,2220A,120.4318,41.588,朝阳市,西梁,,27,27,45,3,6,76,,73,72,8,9,5,6,0.3,0.3
2026-02-06T1000,2221A,120.452,41.565,朝阳市,河畔小区,,30,30,50,3,5,75,,74,73,7,7,9,8,0.4,0.3
2026-02-06T1000,2222A,120.4176,41.5648,朝阳市,八里堡,,,,55,,7,70,,68,67,9,9,8,9,,0.4
2026-02-06T1000,3026A,116.6179,23.6608,潮州市,市政府,颗粒物(PM10),61,72,61,33,36,60,,43,43,25,22,6,6,0.9,0.6
2026-02-06T1000,4036A,116.646,23.676,潮州市,金山,,45,45,50,27,32,67,,48,48,18,19,3,4,0.8,0.6
2026-02-06T1000,2473A,113.0116,25.8228,郴州市,市职中,细颗粒物(PM2.5),89,73,84,66,73,14,,16,12,18,23,5,9,0.8,0.9
2026-02-06T1000,2475A,113.0381,25.8074,郴州市,市审计局,细颗粒物(PM2.5),88,74,85,65,65,17,,16,11,18,24,3,5,/,/
2026-02-06T1000,2476A,113.0348,25.7757,郴州市,市环保局,细颗粒物(PM2.5),152,117,94,116,99,23,,24,18,21,29,2,12,0.6,0.7
2026-02-06T1000,4252A,113.0138,25.8011,郴州市,好美居路49号,细颗粒物(PM2.5),87,64,78,64,65,26,,26,22,25,28,1,6,/,/
2026-02-06T1000,1431A,103.9727,30.7242,成都市,金泉两河,细颗粒物(PM2.5),143,151,127,109,92,10,,9,6,72,53,3,3,1.7,1.2
2026-02-06T1000,1432A,104.1423,30.6765,成都市,十里店,细颗粒物(PM2.5),98,135,121,73,71,14,,27,23,59,44,4,4,0.9,0.8
2026-02-06T1000,1433A,104.0594,30.5765,成都市,三瓦窑,细颗粒物(PM2.5),119,,95,90,71,24,,18,14,58,51,4,3,1.2,0.9
2026-02-06T1000,1434A,104.1122,30.6306,成都市,沙河铺,,,123,108,,69,8,,30,23,,46,4,3,1.3,1
2026-02-06T1000,2880A,104.0219,30.6561,成都市,大石西路,细颗粒物(PM2.5),130,113,125,99,93,26,,15,15,52,49,5,5,1.3,1.1
2026-02-06T1000,3136A,104.2724,30.559,成都市,龙泉驿区区政府,,,,80,,59,,,60,57,33,18,6,6,1.2,0.9
2026-02-06T1000,3357A,104.0028,30.6891,成都市,金博路,细颗粒物(PM2.5),145,160,124,111,92,8,,21,18,73,51,6,5,1.5,1.1
2026-02-06T1000,3359A,104.056,30.5228,成都市,华阳,细颗粒物(PM2.5),104,110,93,78,69,36,,42,38,50,44,4,3,0.8,0.9
2026-02-06T1000,3488A,104.387954,30.746684,成都市,青石路225号,细颗粒物(PM2.5),98,95,104,73,68,39,,42,40,39,35,4,2,1.3,1.2
2026-02-06T1000,3489A,104.0788,30.4054,成都市,科学城,细颗粒物(PM2.5),85,88,92,63,71,23,,38,34,30,21,7,7,1.1,0.9
2026-02-06T1000,4011A,103.8505,30.6946,成都市,光华大道三段,细颗粒物(PM2.5),145,151,145,111,90,12,,31,23,59,45,4,4,1.4,1
2026-02-06T1000,4144A,104.3257,30.6406,成都市,八角井街185号,细颗粒物(PM2.5),99,98,95,74,64,52,,56,54,31,25,4,3,0.9,0.7
2026-02-06T1000,4224A,104.2433276,30.53529463,成都市,鲸龙路1057号,细颗粒物(PM2.5),99,108,85,74,59,7,,29,20,63,32,6,5,1.5,0.9
2026-02-06T1000,1062A,117.9531,40.908,承德市,铁路,,24,20,34,3,6,75,,77,76,4,3,3,2,0.2,0.2
2026-02-06T1000,1063A,117.9397,40.9763,承德市,中国银行,,21,14,32,3,5,67,,78,75,14,4,2,1,0.2,0.2
2026-02-06T1000,4073A,117.9462,40.95,承德市,杏林街1号,,,,24,11,8,,,78,76,3,2,,3,0.2,0.2
2026-02-06T1000,4274A,117.7994,40.9605,承德市,滨河大街98号,,24,7,30,3,7,76,,67,66,4,5,2,2,0.2,0.2
2026-02-06T1000,2314A,117.4698,30.6617,池州市,池州学院,细颗粒物(PM2.5),84,77,78,62,58,60,,50,50,29,47,4,6,1.3,1.4
2026-02-06T1000,3237A,117.4918,30.6617,池州市,展览馆,,,,88,,70,,,46,46,,49,,5,,1.2
2026-02-06T1000,3333A,117.5626,30.695,池州市,第八中学,细颗粒物(PM2.5),75,68,72,55,52,65,,54,54,21,42,2,4,1.0,1.2
2026-02-06T1000,3334A,117.5037,30.6242,池州市,第十二中学,细颗粒物(PM2.5),63,57,70,45,52,70,,61,61,22,39,2,5,1.2,1.3
2026-02-06T1000,1744A,118.9229,42.2816,赤峰市,松山一中,,26,26,76,3,6,55,,58,55,14,9,2,2,0.7,0.6
2026-02-06T1000,1745A,118.9588,42.2733,赤峰市,哈达街,,21,21,30,3,6,59,,62,59,2,3,8,7,0.6,0.5
2026-02-06T1000,1746A,118.8792,42.2551,赤峰市,天义路,,22,12,26,3,7,68,,67,65,8,6,5,5,0.6,0.5
2026-02-06T1000,3058A,119.2656,42.0356,赤峰市,银河街,,26,26,49,8,12,59,,54,54,12,8,19,12,0.6,0.6
2026-02-06T1000,3286A,118.9359,42.3146,赤峰市,桥北物流园区,,26,26,18,8,6,65,,67,63,13,9,3,4,0.5,0.4
2026-02-06T1000,2521A,107.3473,22.4137,崇左市,市环保局江州分局,细颗粒物(PM2.5),118,101,91,89,69,16,,13,9,26,25,5,5,1.0,1
2026-02-06T1000,4256A,107.375,22.3736,崇左市,石景林东路7号,细颗粒物(PM2.5),100,82,74,75,61,9,,5,5,33,31,1,2,0.9,0.8
2026-02-06T1000,3207A,118.31131,32.3033,滁州市,市政府原办公楼,颗粒物(PM10),52,53,105,13,78,77,,84,76,9,21,4,6,0.2,0.5
2026-02-06T1000,3331A,118.3268,32.2633,滁州市,图书馆,,50,50,98,6,56,73,,77,74,4,20,7,8,0,0.4
2026-02-06T1000,4101A,118.3196,32.3335,滁州市,银山路666号,,46,46,97,14,77,71,,81,74,7,17,3,7,0.3,0.6
2026-02-06T1000,4102A,118.3426,32.2979,滁州市,黄山路555号,颗粒物(PM10),55,60,117,14,72,70,,77,69,9,26,4,5,0.3,0.6
2026-02-06T1000,2606A,101.5379,25.0492,楚雄彝族自治州,市经济开发区,,32,32,23,18,14,33,,28,25,28,25,8,3,0.5,0.5
2026-02-06T1000,4153A,101.5536,25.0343,楚雄彝族自治州,团结路562号,细颗粒物(PM2.5),59,,21,42,19,24,,32,22,22,14,14,4,0.8,0.5
2026-02-06T1000,2549A,107.5087,31.2186,达州市,市环境监测站,,,,112,73,79,7,,5,5,25,33,14,12,0.6,0.7
2026-02-06T1000,2550A,107.4988,31.2132,达州市,凤凰小区,细颗粒物(PM2.5),92,95,112,68,79,8,,5,5,30,36,15,13,0.8,0.8
2026-02-06T1000,2551A,107.5081,31.1987,达州市,达县机关宾馆,细颗粒物(PM2.5),102,110,118,76,83,7,,4,4,32,40,13,14,1.0,1
2026-02-06T1000,2552A,107.4644,31.2124,达州市,市政中心,细颗粒物(PM2.5),92,102,121,68,78,7,,4,4,36,41,11,10,1.1,1
2026-02-06T1000,2614A,100.2168,25.5818,大理白族自治州,大理市环境监测站,,24,24,21,12,13,62,,74,70,10,7,7,7,0.5,0.5
2026-02-06T1000,2615A,100.1542,25.7055,大理白族自治州,大理古城,,35,35,23,15,13,56,,64,57,19,8,8,8,0.7,0.6
2026-02-06T1000,1109A,121.6119,38.974,大连市,甘井子,,41,41,82,8,10,75,,74,74,5,8,9,7,0.4,0.4
2026-02-06T1000,1110A,121.565,38.9509,大连市,周水子,,44,44,82,6,10,72,,73,73,8,8,10,8,0.3,0.3
2026-02-06T1000,1111A,121.5637,38.8849,大连市,星海三站,,37,37,68,7,6,68,,69,69,12,12,8,7,0.4,0.4
2026-02-06T1000,1112A,121.6301,38.9117,大连市,青泥洼桥,,27,27,72,6,9,72,,71,71,11,13,9,8,0.2,0.2
2026-02-06T1000,1113A,121.6248,38.8643,大连市,傅家庄,,22,19,40,6,8,70,,69,69,6,7,7,6,0.6,0.6
2026-02-06T1000,1114A,121.5117,38.8636,大连市,七贤岭,,49,49,91,6,10,72,,72,72,10,12,9,8,0.5,0.5
2026-02-06T1000,1116A,121.7507,39.1339,大连市,金州,,38,38,63,10,12,70,,66,66,9,12,8,8,0.3,0.3
2026-02-06T1000,1117A,121.7811,39.0495,大连市,开发区,,46,46,79,6,9,74,,71,71,7,7,7,7,0.3,0.3
2026-02-06T1000,1118A,121.9762,39.0631,大连市,双D港,,25,24,126,7,10,80,,77,77,10,11,9,8,0.5,0.5
2026-02-06T1000,4082A,121.2548,38.8188,大连市,旅顺,,24,24,47,6,8,68,,69,69,5,6,7,7,0.5,0.4
2026-02-06T1000,1789A,124.8085,46.0381,大庆市,大同区,,25,25,43,11,14,61,,56,55,4,6,5,5,0.4,0.4
2026-02-06T1000,1790A,125.1166,46.5255,大庆市,龙凤区,,25,25,36,15,14,52,,50,47,17,15,10,8,0.6,0.6
2026-02-06T1000,1791A,124.8894,46.4007,大庆市,红岗区,,24,24,39,8,11,53,,50,49,8,10,5,4,0.4,0.5
2026-02-06T1000,1792A,125.1391,46.578,大庆市,萨尔图区,,22,22,32,9,12,52,,47,46,15,16,9,9,0.4,0.4
2026-02-06T1000,1793A,124.9026,46.6217,大庆市,让胡路区,,25,25,29,15,13,56,,59,56,10,8,9,8,0.5,0.4
2026-02-06T1000,3481A,125.127,46.6277,大庆市,萨区政府监测点,,22,22,33,12,18,58,,43,43,5,10,8,8,0.5,0.6
2026-02-06T1000,1723A,113.2926,40.0759,大同市,云冈宾馆,,20,18,18,3,6,64,,64,64,8,8,6,6,0.5,0.3
2026-02-06T1000,1724A,113.3437,40.0921,大同市,大同大学,,35,35,23,3,8,63,,66,66,10,8,5,6,0.5,0.4
2026-02-06T1000,1725A,113.2637,40.129,大同市,安家小村,,22,18,16,7,5,70,,67,67,5,7,6,6,0.3,0.2
2026-02-06T1000,3282A,113.3399,40.0586,大同市,大同市卫生学校,,23,23,18,12,8,71,,74,74,12,9,4,4,0.7,0.5
2026-02-06T1000,3565A,113.1371,40.1122,大同市,云冈站,,20,19,18,3,4,62,,63,63,12,9,8,6,0.6,0.4
2026-02-06T1000,3566A,113.1186,40.2556,大同市,图书馆,,21,20,24,6,10,67,,63,63,10,13,7,7,0.7,0.8
2026-02-06T1000,3567A,113.5931,40.0459,大同市,区一中,颗粒物(PM10),74,98,70,8,13,65,,67,67,10,13,8,8,0.3,0.4
2026-02-06T1000,4199A,113.2798248,40.09972476,大同市,魏都大道141号,,27,27,34,3,6,67,,67,67,7,7,5,4,0.4,0.4
2026-02-06T1000,2269A,124.1068,50.4091,大兴安岭地区,科技局,,20,18,22,7,10,62,,59,59,2,2,6,6,0.2,0.2
2026-02-06T1000,3663A,124.117,50.4279,大兴安岭地区,红旗社区,,23,9,9,9,10,72,,70,70,1,2,6,6,0.2,0.1
2026-02-06T1000,1600A,124.33,40.0625,丹东市,江湾东路,,,64,102,6,10,,,67,66,8,10,5,5,0.4,0.4
2026-02-06T1000,1601A,124.4242,40.1513,丹东市,临江后街,颗粒物(PM10),52,53,88,6,8,68,,69,68,6,7,5,5,0.5,0.4
2026-02-06T1000,1602A,124.3935,40.1461,丹东市,元宝山,颗粒物(PM10),54,58,89,6,7,68,,66,66,3,7,6,6,0.3,0.3
2026-02-06T1000,1603A,124.3634,40.1093,丹东市,民主桥,,38,38,89,6,9,68,,69,68,8,11,7,7,0.5,0.5
2026-02-06T1000,3541A,109.5726195,19.51688767,儋州市,第一中学子站,,28,28,27,16,14,61,,48,44,6,6,10,6,0.7,0.6
2026-02-06T1000,3542A,109.5567,19.5187,儋州市,东坡学校子站,,34,34,28,16,12,58,,46,40,6,8,5,5,0.6,0.5
2026-02-06T1000,2616A,98.5611,24.4273,德宏傣族景颇族自治州,德宏州监测站,颗粒物(PM10),58,66,54,39,37,24,,18,12,24,23,6,6,1.0,0.9
2026-02-06T1000,3677A,98.5887,24.4366,德宏傣族景颇族自治州,芒市人民政府综合楼,细颗粒物(PM2.5),62,71,56,44,28,13,,30,24,28,15,4,4,1.0,0.7
2026-02-06T1000,1901A,104.424,31.1209,德阳市,东山公园,细颗粒物(PM2.5),97,76,85,72,75,54,,54,49,12,16,2,2,0.9,0.9
2026-02-06T1000,1902A,104.3827,31.1318,德阳市,西小区,细颗粒物(PM2.5),104,100,106,78,81,13,,20,18,50,38,3,4,1.2,0.9
2026-02-06T1000,1904A,104.3553,31.1091,德阳市,耐火材料厂,细颗粒物(PM2.5),117,120,100,88,88,9,,13,13,58,42,4,2,1.2,0.9
2026-02-06T1000,4145A,104.4144,31.1495,德阳市,市林业局,细颗粒物(PM2.5),104,99,96,78,78,16,,21,20,34,38,4,4,1.1,1
2026-02-06T1000,1622A,116.3034,37.4675,德州市,儿童乐园,,,,120,4,20,66,,64,63,,22,,12,0.7,0.8
2026-02-06T1000,1624A,116.2992,37.4449,德州市,监理站,颗粒物(PM10),57,63,117,3,19,75,,71,70,15,22,9,9,0.5,0.6
2026-02-06T1000,3066A,116.2722,37.438,德州市,九衢泉纯净水厂,颗粒物(PM10),52,53,110,3,20,70,,68,67,14,19,5,6,0.3,0.5
2026-02-06T1000,3371A,116.3693,37.44,德州市,开发区人民医院,,,61,119,3,19,,,66,64,7,13,11,11,0.3,0.4
2026-02-06T1000,3511A,116.5687,37.3331,德州市,陵城艺术中心,颗粒物(PM10),53,56,119,7,22,60,,54,54,18,24,9,9,0.5,0.7
2026-02-06T1000,4292A,116.352738,37.420875,德州市,新河东路,颗粒物(PM10),56,61,109,3,15,66,,65,64,7,17,11,11,0.4,0.5
2026-02-06T1000,2621A,99.7054,27.8319,迪庆藏族自治州,迪庆州站,,39,39,22,22,12,60,,66,62,14,7,5,5,0.9,0.7
2026-02-06T1000,3180A,99.7122,27.8129,迪庆藏族自治州,质量技术监督局,,39,39,22,20,14,47,,71,62,32,9,5,4,0.8,0.5
2026-02-06T1000,4257A,104.6092,35.5962,定西市,将台街,颗粒物(PM10),76,102,75,26,40,29,,38,38,27,27,14,15,0.7,0.8
2026-02-06T1000,4309A,104.6159,35.5701,定西市,正龙路62号,颗粒物(PM10),91,131,85,54,39,30,,43,41,18,16,18,14,1.3,0.9
2026-02-06T1000,1390A,113.7943,23.0132,东莞市,东城石井,颗粒物(PM10),89,128,49,56,24,33,,13,11,107,47,8,7,0.9,0.6
2026-02-06T1000,1391A,113.7384,22.9659,东莞市,南城西平,细颗粒物(PM2.5),63,66,41,45,26,31,,4,4,89,57,8,7,0.8,0.6
2026-02-06T1000,3319A,113.7283,23.041,东莞市,万江金泰,细颗粒物(PM2.5),73,91,59,53,36,59,,12,12,71,57,8,6,1.0,0.9
2026-02-06T1000,4129A,113.8666,23.1062,东莞市,裕兴路,细颗粒物(PM2.5),69,82,66,50,35,45,,8,8,41,43,9,6,1.0,0.9
2026-02-06T1000,4130A,114.0076,22.9739,东莞市,教育路1号,颗粒物(PM10),66,82,63,44,29,28,,6,6,70,62,7,5,0.7,0.7
2026-02-06T1000,4131A,113.7981,22.8124,东莞市,长怡路1号,颗粒物(PM10),68,86,62,44,29,33,,7,7,87,65,9,8,1.0,0.8
2026-02-06T1000,1666A,118.6612,37.4313,东营市,市环保局,,29,29,73,3,15,77,,75,75,15,17,6,7,0.4,0.5
2026-02-06T1000,3036A,118.6903,37.4337,东营市,开发区管委会,,29,29,81,3,15,79,,77,77,6,9,7,8,0.4,0.4
2026-02-06T1000,3365A,118.5721,37.5654,东营市,垦利区民丰路,,27,27,73,3,15,78,,76,76,9,12,4,6,0.5,0.6
2026-02-06T1000,3498A,118.5063,37.8606,东营市,河口城区,,34,34,76,3,12,77,,76,76,12,14,9,4,0.8,0.7
2026-02-06T1000,3646A,118.4979,37.4623,东营市,胜利站,,23,22,69,3,14,71,,70,70,13,18,6,6,0.7,0.6
2026-02-06T1000,3734A,118.5753,37.4405,东营市,理想之城,,31,31,59,3,16,61,,60,59,1,8,3,3,0.3,0.4
2026-02-06T1000,1591A,110.0024,39.8127,鄂尔多斯市,综合楼,,36,36,58,3,9,61,,55,55,18,32,6,8,0.3,0.3
2026-02-06T1000,1592A,109.9485,39.8259,鄂尔多斯市,巴音孟克林场办事处,,23,19,46,7,10,73,,67,67,11,24,6,7,0.3,0.3
2026-02-06T1000,1593A,109.7734,39.5987,鄂尔多斯市,康泽苑,,34,34,42,8,11,62,,53,53,18,25,10,7,0.3,0.4
2026-02-06T1000,1594A,109.8121,39.5987,鄂尔多斯市,华泰汽车城,,36,36,45,14,11,57,,45,45,19,28,8,7,0.2,0.3
2026-02-06T1000,1595A,109.9734,39.7884,鄂尔多斯市,奥林花园,,29,29,48,3,8,67,,61,61,17,25,4,4,0.3,0.3
2026-02-06T1000,2436A,114.894,30.3989,鄂州市,市政府,细颗粒物(PM2.5),85,95,92,63,63,5,,1,1,56,52,6,6,1.1,1.1
2026-02-06T1000,2437A,114.8986,30.3714,鄂州市,赵家坝,细颗粒物(PM2.5),100,101,97,75,67,10,,4,4,49,45,9,9,1.1,1.2
2026-02-06T1000,3654A,114.8093,30.4091,鄂州市,精准医疗中心,细颗粒物(PM2.5),87,90,91,64,56,13,,6,6,45,45,8,10,1.0,1.1
2026-02-06T1000,2454A,109.4978,30.2979,恩施土家族苗族自治州,湖北民院,细颗粒物(PM2.5),144,,111,110,103,2,,2,2,16,26,6,6,1.5,1.4
2026-02-06T1000,3549A,109.5061,30.3771,恩施土家族苗族自治州,龙凤新区,细颗粒物(PM2.5),113,106,111,85,85,0,,0,0,18,27,7,7,1.1,1.1
2026-02-06T1000,2499A,108.3411,21.6159,防城港市,沙万,细颗粒物(PM2.5),57,49,57,40,24,27,,29,27,32,40,8,7,0.7,0.6
2026-02-06T1000,2500A,108.3515,21.7733,防城港市,防城档案局,细颗粒物(PM2.5),64,56,46,46,30,17,,22,16,33,17,6,5,0.8,0.7
2026-02-06T1000,2501A,108.3506,21.6414,防城港市,大海花园,细颗粒物(PM2.5),54,42,44,38,26,41,,47,43,20,26,8,7,0.9,0.9
2026-02-06T1000,1371A,113.1293,23.0065,佛山市,湾梁,,48,48,49,24,20,30,,16,11,53,42,/,/,/,/
2026-02-06T1000,1372A,113.1082,23.0477,佛山市,华材职中,,50,44,48,35,36,38,,29,25,47,33,8,7,0.8,0.7
2026-02-06T1000,1373A,113.1439,23.045,佛山市,南海气象局,,45,43,46,31,26,26,,11,10,59,47,/,/,/,/
2026-02-06T1000,1374A,113.2879,22.8094,佛山市,顺德苏岗,颗粒物(PM10),56,61,45,38,20,39,,12,10,56,45,/,/,1.0,0.8
2026-02-06T1000,1376A,112.8384,22.8678,佛山市,高明孔堂,,29,23,31,20,16,56,,40,40,18,16,/,/,/,/
2026-02-06T1000,1377A,112.8835,23.1584,佛山市,三水监测站,颗粒物(PM10),51,51,60,32,31,27,,10,10,60,60,6,3,0.5,0.5
2026-02-06T1000,1378A,112.8668,23.185,佛山市,三水云东海,,48,48,52,31,25,43,,11,11,51,46,/,/,/,/
2026-02-06T1000,3625A,113.2568,22.7629,佛山市,容桂街道办,颗粒物(PM10),60,70,48,38,23,23,,19,15,66,44,/,/,/,/
2026-02-06T1000,1282A,119.2681,26.0506,福州市,师大,,45,45,50,28,35,54,,53,52,30,29,4,4,0.5,0.5
2026-02-06T1000,1283A,119.2983,26.1028,福州市,五四北路,,,45,44,38,36,37,,56,47,,28,146,11,0.5,0.6
2026-02-06T1000,1284A,119.2648,26.0769,福州市,杨桥西路,细颗粒物(PM2.5),67,,26,48,52,47,,50,49,31,30,5,5,/,/
2026-02-06T1000,3048A,119.5799,26.0937,福州市,九龙,,29,29,32,20,22,72,,60,60,16,21,4,5,0.5,0.6
2026-02-06T1000,3526A,119.5188,25.9666,福州市,吴航,,,25,46,17,28,,,62,62,20,28,5,6,0.6,0.6
2026-02-06T1000,4104A,119.3106,26.0648,福州市,路通桥巷6号,,48,46,56,33,37,45,,48,46,27,27,/,/,/,/
2026-02-06T1000,1755A,123.7974,41.8494,抚顺市,望花区,,22,12,154,8,7,69,,62,62,6,10,3,3,0.5,0.5
2026-02-06T1000,1756A,123.9161,41.8827,抚顺市,顺城区,,23,18,107,7,6,72,,69,68,11,12,8,7,0.5,0.4
2026-02-06T1000,1757A,124.0437,41.8615,抚顺市,东洲区,,21,15,159,6,7,67,,65,64,5,8,16,15,0.4,0.4
2026-02-06T1000,1758A,123.9246,41.8638,抚顺市,新抚区,,27,27,180,8,6,77,,76,76,12,12,6,5,0.6,0.6
2026-02-06T1000,1759A,124.0972,41.8961,抚顺市,大伙房水库,,23,23,145,7,8,71,,61,60,8,12,11,9,0.5,0.4
2026-02-06T1000,1760A,123.708,41.8386,抚顺市,沈抚新城,,24,22,159,6,6,76,,68,68,9,14,5,5,0.4,0.3
2026-02-06T1000,2377A,116.3544,27.9833,抚州市,市站,细颗粒物(PM2.5),94,73,62,70,49,39,,39,35,16,17,2,6,1.5,1.3
2026-02-06T1000,2378A,116.3562,27.9631,抚州市,血防站,细颗粒物(PM2.5),94,78,65,70,50,29,,32,28,19,18,5,6,1.3,1.2
2026-02-06T1000,2379A,116.3561,28.0007,抚州市,采茶剧团,细颗粒物(PM2.5),105,82,65,79,51,30,,29,27,14,15,4,5,1.5,1.4
2026-02-06T1000,2380A,116.3854,27.9648,抚州市,医学分院,细颗粒物(PM2.5),89,85,70,66,48,30,,31,29,18,18,5,6,1.3,1.2
2026-02-06T1000,2207A,121.6095,41.9978,阜新市,工业园区,,34,34,72,3,4,74,,69,69,4,5,7,7,0.3,0.3
2026-02-06T1000,2208A,121.6567,42.0188,阜新市,长青街,,32,32,47,6,3,73,,71,70,3,3,7,6,0.3,0.3
2026-02-06T1000,2209A,121.6672,42.07,阜新市,农业园区,,29,29,56,6,5,69,,67,66,5,6,6,6,0.1,0.1
2026-02-06T1000,2211A,121.6343,42.0455,阜新市,玉龙新城,,,,57,,3,72,,64,64,5,6,6,5,0.4,0.3
2026-02-06T1000,2301A,115.8276,32.8929,阜阳市,市监测站,颗粒物(PM10),75,99,143,13,87,64,,72,65,11,27,4,5,0.3,0.7
2026-02-06T1000,2303A,115.8551,32.8606,阜阳市,开发区,颗粒物(PM10),72,93,138,14,85,61,,69,63,10,28,4,6,0.3,0.6
2026-02-06T1000,2875A,115.783962,32.889217,阜阳市,阜阳职业技术学院,颗粒物(PM10),71,92,121,13,80,66,,79,71,9,20,5,7,0.3,0.7
2026-02-06T1000,3468A,115.79,32.8614,阜阳市,市规划展馆,颗粒物(PM10),68,86,140,14,86,65,,78,68,9,17,5,7,0.3,0.7
2026-02-06T1000,3469A,115.835101,32.918568,阜阳市,枣园社区,颗粒物(PM10),73,95,140,13,87,64,,75,67,11,23,5,7,0.5,0.8
2026-02-06T1000,2669A,102.9097,34.9841,甘南藏族自治州,州政府,细颗粒物(PM2.5),99,107,61,74,38,26,,60,45,41,14,7,8,1.4,0.7
2026-02-06T1000,3380A,102.8915,34.9618,甘南藏族自治州,甘肃民族师范学院,颗粒物(PM10),64,78,67,39,31,45,,60,53,35,20,10,9,0.8,0.5
2026-02-06T1000,2570A,101.96,30.048,甘孜藏族自治州,水桥子,,27,27,19,3,10,30,,52,45,34,11,7,6,1.0,0.9
2026-02-06T1000,3065A,101.9534,29.9976,甘孜藏族自治州,州环保局,,24,12,18,3,11,75,,71,71,8,9,6,6,0.4,0.6
2026-02-06T1000,2363A,114.9368,25.8663,赣州市,地委,细颗粒物(PM2.5),78,80,54,57,28,56,,,,22,21,10,8,0.7,1
2026-02-06T1000,2364A,114.946,25.8483,赣州市,气象台,细颗粒物(PM2.5),84,75,56,62,40,68,,66,66,25,26,9,7,0.6,0.5
2026-02-06T1000,2365A,114.932,25.8332,赣州市,市图书馆,细颗粒物(PM2.5),85,94,56,63,38,60,,57,57,24,27,7,5,1.1,1
2026-02-06T1000,2366A,114.8905,25.8472,赣州市,华坚鞋城,细颗粒物(PM2.5),75,82,58,55,39,50,,52,52,23,24,9,8,0.7,0.6
2026-02-06T1000,3109A,115.0094,25.8614,赣州市,赣县区卫计委,,,78,59,56,34,,,39,39,20,31,9,8,0.9,0.9
2026-02-06T1000,2684A,106.2753,36.0057,固原市,监测站,颗粒物(PM10),70,90,78,33,34,55,,50,50,15,27,7,12,0.5,0.8
2026-02-06T1000,2685A,106.2384,36.0189,固原市,新区,颗粒物(PM10),70,90,82,26,38,53,,49,49,16,31,6,9,0.5,0.7
2026-02-06T1000,2544A,106.6307,30.4577,广安市,市委,细颗粒物(PM2.5),127,123,114,96,92,14,,9,9,30,28,7,7,1.2,1.1
2026-02-06T1000,2545A,106.6266,30.4662,广安市,友谊中学,细颗粒物(PM2.5),107,91,106,80,74,22,,14,14,25,26,6,6,1.2,1.1
2026-02-06T1000,2547A,106.6386,30.4551,广安市,广电花园,细颗粒物(PM2.5),135,,102,103,98,13,,8,8,24,23,6,7,1.1,0.9
2026-02-06T1000,2902A,106.6347,30.4868,广安市,北辰小学,细颗粒物(PM2.5),124,104,107,94,94,21,,14,14,15,17,8,8,1.0,1
2026-02-06T1000,2524A,105.8211,32.4444,广元市,老城,细颗粒物(PM2.5),72,84,103,52,70,10,,6,6,41,54,11,17,1.3,1.5
2026-02-06T1000,2526A,105.8629,32.429,广元市,监测站,细颗粒物(PM2.5),90,84,86,67,68,9,,7,6,33,38,8,10,1.5,1.5
2026-02-06T1000,3617A,105.8047,32.4167,广元市,经开区,细颗粒物(PM2.5),104,111,132,78,94,3,,1,1,44,53,6,24,1.6,2
2026-02-06T1000,1345A,113.2346,23.1423,广州市,广雅中学,,44,44,45,26,25,18,,8,7,68,54,5,3,1.0,1.1
2026-02-06T1000,1346A,113.2611,23.105,广州市,市五中,,47,47,49,26,25,20,,4,4,68,56,11,8,/,/
2026-02-06T1000,1348A,113.3477,23.0916,广州市,广东商学院,,49,49,48,32,30,10,,1,1,78,64,11,7,0.8,0.7
2026-02-06T1000,1349A,113.4332,23.105,广州市,市八十六中,颗粒物(PM10),63,75,46,37,24,13,,2,2,101,79,23,12,/,/
2026-02-06T1000,1350A,113.3506,22.9488,广州市,番禺中学,颗粒物(PM10),62,73,71,22,22,39,,8,8,48,49,6,3,0.9,0.8
2026-02-06T1000,1351A,113.2147,23.3918,广州市,花都师范,颗粒物(PM10),64,78,61,37,33,25,,6,5,83,78,10,7,0.9,0.8
2026-02-06T1000,1352A,113.2599,23.1329,广州市,市监测站,颗粒物(PM10),51,51,49,31,28,18,,7,7,70,58,5,3,/,/
2026-02-06T1000,1353A,113.5618,23.3119,广州市,九龙镇镇龙,颗粒物(PM10),61,72,70,40,41,8,,5,2,62,51,6,6,0.7,0.7
2026-02-06T1000,1354A,113.2764,23.1544,广州市,麓湖,颗粒物(PM10),51,51,50,28,24,18,,4,4,77,62,6,4,0.8,0.7
2026-02-06T1000,2846A,113.3209,23.1323,广州市,体育西,颗粒物(PM10),51,51,52,25,26,15,,3,3,77,66,13,8,0.8,0.9
2026-02-06T1000,3298A,113.5718,23.5493,广州市,从化街口,,49,49,68,31,44,43,,9,9,37,48,8,7,0.8,0.8
2026-02-06T1000,3299A,113.3463,23.369,广州市,白云竹料,颗粒物(PM10),63,76,76,38,40,30,,8,8,61,64,5,4,0.8,0.8
2026-02-06T1000,3300A,113.2981,23.2365,广州市,白云嘉禾,,44,44,54,22,26,35,,6,6,48,65,10,6,/,/
2026-02-06T1000,3301A,113.4256,23.1716,广州市,黄埔科学城,颗粒物(PM10),56,61,49,34,29,26,,4,4,68,64,7,4,0.7,0.7
2026-02-06T1000,3302A,113.3942,23.0485,广州市,番禺大学城,颗粒物(PM10),53,56,70,27,28,39,,10,10,61,59,14,10,0.6,0.6
2026-02-06T1000,3303A,113.4923,22.8169,广州市,南沙黄阁,颗粒物(PM10),61,72,43,23,21,14,,8,8,62,47,7,5,/,/
2026-02-06T1000,3304A,113.534,22.7893,广州市,南沙街,,47,47,36,20,17,34,,28,23,55,39,9,5,0.6,0.6
2026-02-06T1000,3443A,113.2905,23.5541,广州市,花都梯面,,38,38,45,21,26,38,,10,7,32,37,7,5,/,/
2026-02-06T1000,3445A,113.786,23.7479,广州市,从化良口,,28,21,30,19,25,33,,31,27,19,18,7,7,/,/
2026-02-06T1000,3446A,113.805,23.2614,广州市,增城荔城,,46,46,53,30,33,59,,31,31,26,33,8,7,0.5,0.6
2026-02-06T1000,2506A,109.604387,23.066791,贵港市,江南子站,颗粒物(PM10),101,151,101,62,58,15,,4,4,50,41,14,9,1.2,1
2026-02-06T1000,2508A,109.5669,23.1065,贵港市,荷城子站,细颗粒物(PM2.5),82,73,85,60,58,24,,12,12,34,38,10,7,1.4,1.3
2026-02-06T1000,3405A,109.5886,23.1172,贵港市,新世纪学校,细颗粒物(PM2.5),110,,98,83,75,27,,12,12,40,46,/,/,1.0,0.8
2026-02-06T1000,4260A,109.5933,23.095,贵港市,中山路155-3号,细颗粒物(PM2.5),103,87,98,77,72,22,,13,13,32,33,/,/,1.4,1.1
2026-02-06T1000,1439A,106.6863,26.6035,贵阳市,马鞍山,细颗粒物(PM2.5),59,48,30,42,23,41,,37,37,15,16,5,5,/,/
2026-02-06T1000,1441A,106.6241,26.6266,贵阳市,鉴湖路,细颗粒物(PM2.5),55,56,40,39,26,60,,51,51,20,20,4,2,0.7,0.7
2026-02-06T1000,1442A,106.7468,26.6344,贵阳市,燕子冲,细颗粒物(PM2.5),74,68,36,54,27,58,,48,48,17,15,9,8,0.8,0.7
2026-02-06T1000,1443A,106.6556,26.4362,贵阳市,碧云窝,颗粒物(PM10),58,66,45,39,26,45,,48,48,25,22,18,18,/,/
2026-02-06T1000,1445A,106.6963,26.6063,贵阳市,红边门,,,,32,44,24,53,,50,50,24,20,12,11,/,/
2026-02-06T1000,1446A,106.7162383,26.56964667,贵阳市,新华路,细颗粒物(PM2.5),64,68,40,46,24,55,,50,50,25,23,11,8,0.8,0.8
2026-02-06T1000,1447A,106.6742,26.542,贵阳市,太慈桥,细颗粒物(PM2.5),58,51,33,41,24,49,,45,45,25,22,3,4,/,/
2026-02-06T1000,4230A,106.688212,26.56952,贵阳市,花果园大街66号,细颗粒物(PM2.5),65,53,30,47,24,47,,44,44,21,20,5,4,/,/
2026-02-06T1000,4231A,106.687268,26.516892,贵阳市,漓江路57号,细颗粒物(PM2.5),62,53,37,44,25,49,,45,45,26,23,9,8,0.9,0.9
2026-02-06T1000,1864A,110.3091,25.2705,桂林市,龙隐路小学,细颗粒物(PM2.5),85,68,78,63,68,40,,31,31,16,34,2,3,0.9,1
2026-02-06T1000,1865A,110.2849361,25.22909545,桂林市,八中,颗粒物(PM10),58,65,85,39,52,31,,21,21,23,40,2,5,1.1,1.3
2026-02-06T1000,3531A,110.296,25.1254,桂林市,旅游学院,细颗粒物(PM2.5),90,78,99,67,94,27,,12,12,22,38,4,6,1.0,1
2026-02-06T1000,4222A,110.1835,25.2444,桂林市,环湖路276号,细颗粒物(PM2.5),68,61,97,49,84,35,,24,24,22,40,6,9,1.3,1.6
2026-02-06T1000,4301A,110.2803,25.2773,桂林市,信义路13号,细颗粒物(PM2.5),80,59,82,59,74,42,,37,37,18,37,4,7,1.4,1.6
2026-02-06T1000,2674A,100.2262,34.4854,果洛藏族自治州,玛沁县大武镇,,42,42,67,14,15,88,,111,106,7,3,23,15,0.5,0.3
2026-02-06T1000,1130A,126.5557,45.8109,哈尔滨市,松北商大,,46,40,29,32,19,54,,56,53,15,12,19,9,0.7,0.6
2026-02-06T1000,1132A,126.6162,45.719,哈尔滨市,南岗学府路,,30,30,36,17,13,42,,38,36,25,20,42,21,0.8,0.6
2026-02-06T1000,1133A,126.6894,45.7733,哈尔滨市,太平宏伟公园,,27,27,34,8,16,56,,49,48,5,6,25,21,0.8,0.6
2026-02-06T1000,1134A,126.6361,45.7672,哈尔滨市,道外承德广场,,49,49,68,19,13,48,,54,51,23,19,25,11,1.0,0.7
2026-02-06T1000,1136A,126.644,45.7261,哈尔滨市,动力和平路,,32,32,35,19,15,47,,50,48,20,13,22,10,0.9,0.7
2026-02-06T1000,1137A,126.5933,45.7479,哈尔滨市,道里建国路,,26,24,26,18,14,42,,46,44,26,21,24,11,0.5,0.4
2026-02-06T1000,1138A,126.6127,45.6119,哈尔滨市,平房东轻厂,,47,47,35,30,17,52,,43,40,14,16,7,2,0.8,0.8
2026-02-06T1000,1139A,126.5875,45.9827,哈尔滨市,呼兰师专,,50,49,38,35,12,51,,50,48,9,7,12,8,1.0,0.7
2026-02-06T1000,1140A,126.6299,45.6799,哈尔滨市,省农科院,,30,30,31,3,16,52,,48,45,13,11,17,10,0.7,0.6
2026-02-06T1000,4282A,126.6769,45.7379,哈尔滨市,华山路1号,,27,27,31,15,16,45,,49,46,21,15,14,5,0.8,0.6
2026-02-06T1000,4283A,126.9717,45.5356,哈尔滨市,解放大街52号,,,60,35,42,18,36,,38,34,23,16,16,11,,0.6
2026-02-06T1000,2688A,93.5124,42.8176,哈密市,地区监测站,,49,49,58,24,28,46,,60,55,22,10,4,6,0.5,0.2
2026-02-06T1000,2689A,93.5014,42.8312,哈密市,哈密师范学校,,45,39,64,31,23,31,,60,49,40,15,3,4,0.7,0.4
2026-02-06T1000,2671A,100.9016,36.9464,海北藏族自治州,海晏县西海镇,,42,42,40,12,18,65,,86,78,4,4,5,8,0.3,0.4
2026-02-06T1000,3867A,102.074,36.5056,海东市,平安区公安局北苑,细颗粒物(PM2.5),82,77,62,60,46,41,,62,55,17,16,12,19,0.9,0.8
2026-02-06T1000,4163A,102.0984,36.5119,海东市,滨河路,颗粒物(PM10),54,57,64,27,39,27,,63,50,38,32,10,18,0.8,0.8
2026-02-06T1000,1410A,110.3189,20.0596,海口市,海南大学,,18,18,24,10,11,56,,59,56,9,8,5,5,0.4,0.4
2026-02-06T1000,1411A,110.2827,20.0051,海口市,秀英海南医院,,18,18,30,11,14,55,,44,43,12,14,6,7,0.3,0.3
2026-02-06T1000,1412A,110.3391,19.9979,海口市,海南师范大学,,23,22,28,16,13,49,,59,55,15,8,5,5,0.5,0.4
2026-02-06T1000,1413A,110.3303,20.0359,海口市,龙华路环保局宿舍,,19,15,26,12,14,60,,65,62,13,9,/,/,0.7,0.7
2026-02-06T1000,3539A,110.5111,19.9737,海口市,桂林洋子站,,23,23,21,15,12,50,,49,47,12,7,/,/,/,/
2026-02-06T1000,4134A,110.1952,20.0451,海口市,长滨二路9号,,17,13,21,11,12,54,,53,51,10,7,/,/,/,/
2026-02-06T1000,2673A,100.6158,36.2985,海南藏族自治州,共和县恰卜恰镇,颗粒物(PM10),95,139,57,44,16,64,,83,74,15,6,12,12,0.4,0.3
2026-02-06T1000,2676A,97.373,37.376,海西蒙古族藏族自治州,德令哈市,,46,46,42,11,11,86,,82,80,4,7,18,14,0.5,0.4
2026-02-06T1000,1049A,114.492,36.5712,邯郸市,矿院,,47,47,94,8,45,65,,57,57,6,7,2,3,0.3,0.4
2026-02-06T1000,1050A,114.4839,36.6136,邯郸市,丛台公园,颗粒物(PM10),52,53,109,18,42,63,,52,52,14,18,4,4,0.3,0.4
2026-02-06T1000,3458A,114.7893,36.5592,邯郸市,香泉濮院小区,,44,44,119,12,34,56,,48,45,8,16,2,3,0.3,0.4
2026-02-06T1000,3580A,114.1998,36.4439,邯郸市,峰峰矿区临水派出所,颗粒物(PM10),54,58,80,13,30,66,,62,61,6,8,6,6,0.6,0.6
2026-02-06T1000,4068A,114.5209,36.7697,邯郸市,建安街268号,颗粒物(PM10),53,55,89,11,34,54,,35,35,6,17,3,3,0.3,0.3
2026-02-06T1000,4069A,114.5488,36.6177,邯郸市,丛台东路558号,颗粒物(PM10),53,56,91,3,37,62,,48,47,3,10,1,3,0.3,0.5
2026-02-06T1000,2635A,107.0155,33.0707,汉中市,市监测站,细颗粒物(PM2.5),129,114,106,98,81,12,,10,9,37,43,7,7,1.7,1.4
2026-02-06T1000,2636A,107.0083,33.114,汉中市,鑫源开发区,细颗粒物(PM2.5),124,112,98,94,77,15,,13,12,39,43,7,10,1.4,1.3
2026-02-06T1000,2637A,107.0072,33.0323,汉中市,南郑大河坎水厂,细颗粒物(PM2.5),130,117,113,99,79,6,,7,4,37,36,7,7,1.7,1.3
2026-02-06T1000,1223A,120.2073,30.2111,杭州市,滨江,细颗粒物(PM2.5),74,60,100,54,80,66,,55,55,24,52,6,6,0.9,1
2026-02-06T1000,1224A,120.0625,30.2737,杭州市,西溪,颗粒物(PM10),66,82,104,47,70,65,,51,51,23,46,8,8,1.1,1.1
2026-02-06T1000,1226A,120.3417,30.315,杭州市,下沙,细颗粒物(PM2.5),65,72,123,47,88,60,,41,41,26,70,7,8,0.6,0.7
2026-02-06T1000,1227A,120.1252,30.2465,杭州市,卧龙桥,细颗粒物(PM2.5),74,73,98,54,66,65,,51,51,22,43,8,9,0.6,0.6
2026-02-06T1000,1228A,120.1902,30.2691,杭州市,浙江农大,细颗粒物(PM2.5),65,62,97,47,72,70,,55,55,30,64,5,6,0.8,0.9
2026-02-06T1000,1230A,120.1195,30.3121,杭州市,和睦小学,细颗粒物(PM2.5),75,76,118,55,82,67,,53,53,20,49,4,5,0.9,1
2026-02-06T1000,1231A,120.3076,30.4146,杭州市,临平镇,细颗粒物(PM2.5),59,51,108,42,85,66,,54,54,14,49,6,7,0.8,1
2026-02-06T1000,1232A,120.2753,30.1839,杭州市,城厢镇,细颗粒物(PM2.5),75,90,114,55,80,64,,62,62,28,58,7,8,0.9,1
2026-02-06T1000,1233A,120.0883,30.1808,杭州市,云栖,细颗粒物(PM2.5),57,61,80,40,54,73,,60,60,24,43,4,5,0.9,0.8
2026-02-06T1000,3557A,119.9463,30.0496,杭州市,镇二中,,,,83,,80,,,71,70,27,44,4,5,1.0,1
2026-02-06T1000,3558A,119.7184,30.2367,杭州市,市府大楼,细颗粒物(PM2.5),95,,75,71,77,66,,56,56,18,33,10,10,1.0,1
2026-02-06T1000,3656A,120.1554,30.2863,杭州市,消防大队,细颗粒物(PM2.5),83,83,120,61,89,59,,46,46,26,53,5,6,0.9,1
2026-02-06T1000,1270A,117.1957,31.7845,合肥市,明珠广场,颗粒物(PM10),58,66,113,19,70,58,,82,76,15,48,5,6,0.4,0.7
2026-02-06T1000,1271A,117.307,31.8765,合肥市,三里街,颗粒物(PM10),53,56,109,8,75,59,,76,74,17,35,4,6,0.5,0.8
2026-02-06T1000,1272A,117.2587,31.8703,合肥市,琥珀山庄,颗粒物(PM10),54,58,110,14,72,65,,80,78,13,30,6,7,0.7,1.1
2026-02-06T1000,1275A,117.2593,31.9376,合肥市,庐阳区,颗粒物(PM10),56,61,112,7,72,69,,81,80,16,29,4,6,0.6,0.9
2026-02-06T1000,1276A,117.345251,31.861615,合肥市,瑶海区,颗粒物(PM10),53,56,109,9,66,63,,80,77,16,41,4,5,0.5,0.7
2026-02-06T1000,1277A,117.3033,31.7967,合肥市,包河区,颗粒物(PM10),57,63,113,12,67,50,,67,66,28,62,5,8,0.6,0.9
2026-02-06T1000,1278A,117.278,31.7392,合肥市,滨湖新区,颗粒物(PM10),63,75,112,14,66,61,,79,78,11,44,2,4,0.5,0.9
2026-02-06T1000,1279A,117.1324,31.8395,合肥市,高新区,颗粒物(PM10),59,68,109,13,71,62,,82,79,12,25,3,5,0.4,0.8
2026-02-06T1000,3464A,117.3802,31.9148,合肥市,高教基地,颗粒物(PM10),52,53,108,6,66,69,,80,78,13,28,7,9,0.3,0.7
2026-02-06T1000,4098A,117.2518,31.8404,合肥市,中国科学技术大学,颗粒物(PM10),57,63,109,9,70,65,,84,81,9,25,6,9,0.5,0.9
2026-02-06T1000,3614A,79.9241,37.0878,和田地区,地区环保局,颗粒物(PM10),158,266,481,50,71,56,,58,58,16,22,2,3,0.9,1
2026-02-06T1000,3615A,79.9132,37.1137,和田地区,市环保局,颗粒物(PM10),154,258,408,50,48,65,,75,75,16,18,2,3,0.3,0.8
2026-02-06T1000,2517A,108.0496,24.6957,河池市,市环保站,颗粒物(PM10),75,100,143,45,130,11,,3,3,17,28,2,4,1.0,1.4
2026-02-06T1000,4302A,108.0901,24.6945,河池市,上任中路54号,颗粒物(PM10),89,128,145,44,126,9,,2,2,14,31,5,6,1.3,1.8
2026-02-06T1000,1697A,114.6962,23.7538,河源市,东埔,,42,42,46,29,32,39,,10,10,32,41,6,6,1.1,1
2026-02-06T1000,1698A,114.6895,23.7232,河源市,老城,,36,33,35,25,24,42,,16,16,25,26,6,6,0.9,0.7
2026-02-06T1000,3374A,115.5562,35.089,菏泽市,定陶老年大学,颗粒物(PM10),59,68,151,16,74,48,,44,42,19,27,6,8,0.5,0.7
2026-02-06T1000,4114A,115.4239,35.2593,菏泽市,黄河路600号,颗粒物(PM10),61,71,148,17,60,52,,48,45,18,31,4,5,0.5,0.7
2026-02-06T1000,4115A,115.5025,35.2727,菏泽市,菏泽市人社局,颗粒物(PM10),58,66,137,16,66,45,,43,41,23,33,9,11,0.5,0.7
2026-02-06T1000,4184A,115.479691,35.244011,菏泽市,永昌路1号,颗粒物(PM10),62,74,150,16,66,51,,49,46,15,24,5,6,0.5,0.7
2026-02-06T1000,4193A,115.471542,35.280012,菏泽市,长城路999号,颗粒物(PM10),62,73,151,22,63,44,,42,40,20,32,2,5,0.6,0.8
2026-02-06T1000,2514A,111.5264,24.4178,贺州市,环保小区,细颗粒物(PM2.5),93,83,88,69,60,10,,6,6,31,38,4,4,1.0,0.9
2026-02-06T1000,2515A,111.561,24.4074,贺州市,政协大楼,细颗粒物(PM2.5),85,72,78,63,52,37,,15,15,34,38,5,5,1.3,1.1
2026-02-06T1000,3534A,111.4744,24.455,贺州市,西湾,细颗粒物(PM2.5),93,89,85,69,52,9,,3,2,31,38,5,5,1.0,0.9
2026-02-06T1000,2385A,114.17,35.9019,鹤壁市,市监测站,颗粒物(PM10),52,53,95,20,49,61,,55,51,15,24,4,6,0.5,0.7
2026-02-06T1000,2386A,114.2953,35.7512,鹤壁市,市交警支队,,,68,119,6,56,59,,49,49,,27,6,7,0.5,0.6
2026-02-06T1000,2387A,114.2877,35.7302,鹤壁市,迎宾馆,颗粒物(PM10),61,71,135,6,55,60,,52,52,12,22,4,6,0.6,0.8
2026-02-06T1000,3474A,114.2616,35.6824,鹤壁市,大新区,颗粒物(PM10),60,70,116,18,58,65,,57,57,15,21,8,9,0.5,0.8
2026-02-06T1000,3596A,114.1573,35.9607,鹤壁市,南山宾馆,颗粒物(PM10),69,88,119,30,52,58,,54,52,12,16,10,7,0.6,0.5
2026-02-06T1000,2244A,130.2537,47.3416,鹤岗市,哈啤分公司,,23,19,21,9,10,73,,75,74,3,3,7,6,0.4,0.3
2026-02-06T1000,2245A,130.2683,47.3087,鹤岗市,斯达机电,,29,29,25,7,7,64,,68,66,5,5,6,6,0.6,0.5
2026-02-06T1000,2246A,130.3114,47.3388,鹤岗市,东山纸板厂,,28,28,28,8,10,67,,68,67,3,3,8,9,0.5,0.4
2026-02-06T1000,2263A,127.4832,50.2524,黑河市,交通局,,25,22,18,17,16,68,,68,67,7,4,6,5,0.3,0.3
2026-02-06T1000,2264A,127.5146,50.2339,黑河市,环保局,,26,26,20,11,12,63,,64,64,8,8,5,5,0.5,0.5
2026-02-06T1000,1074A,115.6839,37.754,衡水市,电机北厂,颗粒物(PM10),54,58,114,9,34,58,,38,38,19,27,4,5,0.1,0.2
2026-02-06T1000,1075A,115.6303,37.7318,衡水市,市监测站,,48,48,102,12,28,58,,50,50,22,26,7,8,0.2,0.3
2026-02-06T1000,3188A,115.6684,37.7216,衡水市,市城管局,颗粒物(PM10),56,62,127,14,31,55,,44,44,15,23,8,9,0.4,0.5
2026-02-06T1000,3459A,115.599,37.5491,衡水市,地表水厂,,,48,95,8,26,65,,52,52,7,15,,5,0.3,0.4
2026-02-06T1000,2457A,112.6209,26.9268,衡阳市,衡阳化工总厂,细颗粒物(PM2.5),53,43,83,37,74,35,,38,34,17,19,7,13,1.1,1.1
2026-02-06T1000,2458A,112.621,26.8957,衡阳市,珠晖区环保局,,46,44,78,32,63,36,,37,33,18,24,4,8,1.3,1.3
2026-02-06T1000,2459A,112.628,26.8654,衡阳市,市委党校,,46,42,76,32,69,35,,40,36,13,19,7,12,1.2,1.3
2026-02-06T1000,2460A,112.6007,26.8977,衡阳市,市监测站,细颗粒物(PM2.5),53,40,98,37,65,38,,36,34,14,23,6,10,1.2,1.3
2026-02-06T1000,2461A,112.5658,26.9013,衡阳市,真空机电公司,细颗粒物(PM2.5),64,,87,46,78,41,,35,35,15,26,6,17,1.1,1.3
2026-02-06T1000,3399A,112.6703,26.8817,衡阳市,师范学院,细颗粒物(PM2.5),54,45,82,38,60,34,,39,36,22,29,3,6,1.1,1.2
2026-02-06T1000,3038A,103.3757,23.3679,红河哈尼族彝族自治州,州图书馆,细颗粒物(PM2.5),58,63,33,41,25,51,,58,49,25,8,13,11,0.8,0.5
2026-02-06T1000,4154A,103.401,23.3561,红河哈尼族彝族自治州,蒙自市朝阳路,细颗粒物(PM2.5),57,46,26,40,22,57,,62,54,22,7,7,7,0.5,0.4
2026-02-06T1000,1090A,111.6506,40.7517,呼和浩特市,呼市一监,,,19,12,9,11,64,,73,71,,8,8,7,0.4,0.3
2026-02-06T1000,1094A,111.7516,40.8369,呼和浩特市,如意水处理厂,,21,12,13,3,5,66,,72,71,12,7,9,9,0.2,0.2
2026-02-06T1000,1095A,111.727798,40.806187,呼和浩特市,二十九中,,20,13,13,3,4,64,,70,68,8,5,10,10,0.3,0.3
2026-02-06T1000,1097A,111.717,40.7617,呼和浩特市,化肥厂生活区,,23,14,14,3,4,73,,74,73,8,8,5,5,0.3,0.2
2026-02-06T1000,3699A,111.6519,40.8389,呼和浩特市,海东办,,21,12,8,3,4,66,,71,70,11,7,4,4,0.3,0.3
2026-02-06T1000,4275A,111.591512,40.827312,呼和浩特市,成吉思汗西街8号,,20,9,14,3,5,64,,66,66,7,6,8,7,0.3,0.2
2026-02-06T1000,4276A,111.6597,40.8077,呼和浩特市,公园东路75号,,20,12,10,3,4,62,,67,66,14,11,6,6,0.4,0.3
2026-02-06T1000,4277A,111.5427,40.7846,呼和浩特市,金海路35号,,21,9,15,3,5,67,,70,70,10,8,8,7,0.4,0.3
2026-02-06T1000,3061A,119.7511,49.1576,呼伦贝尔市,国华电力东,,24,24,26,8,13,65,,64,64,12,10,6,6,0.3,0.3
2026-02-06T1000,4279A,119.7569,49.2222,呼伦贝尔市,伊敏大街东7号,,28,28,31,7,14,66,,68,67,10,8,6,6,1.0,0.6
2026-02-06T1000,1250A,120.075,30.867,湖州市,城西水厂,,27,22,87,17,69,84,,,,12,58,5,6,0.6,0.7
2026-02-06T1000,2873A,120.083,30.8929,湖州市,仁皇山新区,,25,24,97,15,68,78,,87,87,16,56,5,6,0.7,1.2
2026-02-06T1000,2907A,120.1846,30.8592,湖州市,吴兴区站,,35,35,114,15,81,70,,77,77,11,48,4,6,0.4,0.8
2026-02-06T1000,3562A,120.4146,30.8538,湖州市,南浔区站,,22,22,121,11,85,66,,74,74,18,50,6,8,0.5,0.9
2026-02-06T1000,1607A,120.904878,40.721091,葫芦岛市,龙港区,,27,27,70,3,11,67,,58,57,7,10,9,7,0.6,0.5
2026-02-06T1000,1608A,120.8382,40.7521,葫芦岛市,化工街,,31,31,56,12,9,64,,65,63,11,11,15,13,0.3,0.3
2026-02-06T1000,1609A,120.8339,40.7078,葫芦岛市,新区,,,,52,25,8,,,68,65,14,11,12,9,0.5,0.4
2026-02-06T1000,1610A,120.8697,40.7679,葫芦岛市,东城区,,27,27,43,9,10,68,,65,64,8,9,14,10,0.5,0.4
2026-02-06T1000,2483A,109.9297,27.5383,怀化市,河西地税局,细颗粒物(PM2.5),87,83,95,64,60,46,,42,41,19,18,3,2,/,/
2026-02-06T1000,2484A,109.9783,27.5342,怀化市,市四医院,细颗粒物(PM2.5),83,89,100,61,51,34,,33,33,15,12,6,7,1.0,0.8
2026-02-06T1000,2485A,109.9971,27.5579,怀化市,监测楼,细颗粒物(PM2.5),93,84,92,69,60,36,,35,35,19,15,2,4,0.4,0.3
2026-02-06T1000,1210A,119.0566,33.5991,淮安市,钵池山,颗粒物(PM10),51,51,107,8,69,71,,75,72,10,17,7,9,0.2,0.6
2026-02-06T1000,1211A,119.0083,33.578,淮安市,北京南路,颗粒物(PM10),56,61,111,10,69,68,,73,70,6,14,6,8,0.4,0.6
2026-02-06T1000,1212A,118.9938,33.6083,淮安市,市监测站,,41,41,106,9,72,64,,69,66,11,19,8,10,0.3,0.6
2026-02-06T1000,1213A,119.135,33.5038,淮安市,楚州区监测站,颗粒物(PM10),56,61,115,8,72,64,,70,68,7,17,5,7,0.4,0.7
2026-02-06T1000,3426A,118.8757,33.2897,淮安市,新华书店,颗粒物(PM10),52,53,117,10,72,64,,71,68,9,17,7,9,0.3,0.6
2026-02-06T1000,4092A,119.119691,33.550006,淮安市,枚皋中路89号,颗粒物(PM10),51,51,119,9,77,69,,73,72,5,14,8,10,0.2,0.6
2026-02-06T1000,4206A,119.028838,33.631911,淮安市,承德北路606号,颗粒物(PM10),54,58,125,9,68,68,,74,71,4,14,5,8,0.4,0.6
2026-02-06T1000,2282A,116.8005,33.9749,淮北市,监测站,颗粒物(PM10),61,71,160,12,80,64,,59,59,18,27,6,7,0.5,0.8
2026-02-06T1000,2283A,116.8094,33.9008,淮北市,烈山区政府,颗粒物(PM10),67,83,152,6,78,52,,49,49,9,21,4,6,0.3,0.6
2026-02-06T1000,4017A,116.7926,33.9534,淮北市,市博物馆,颗粒物(PM10),62,74,159,11,83,64,,58,58,17,24,5,5,0.3,0.7
2026-02-06T1000,4100A,116.8322,33.9884,淮北市,杜集区第一实验学校,颗粒物(PM10),66,82,155,8,84,67,,61,61,12,22,5,6,0.1,0.6
2026-02-06T1000,2277A,116.8304,32.7726,淮南市,潘集区政府,颗粒物(PM10),59,67,139,8,89,67,,71,66,9,23,5,7,0.3,0.7
2026-02-06T1000,2279A,116.8569,32.5949,淮南市,谢家集区政府,颗粒物(PM10),54,58,122,6,75,69,,79,74,9,25,6,9,0.3,0.8
2026-02-06T1000,2280A,116.8279,32.6333,淮南市,八公山区政府,颗粒物(PM10),54,58,128,7,85,70,,77,72,12,23,3,5,0.3,0.7
2026-02-06T1000,2894A,117.0561,32.6536,淮南市,经济技术开发区消防队,颗粒物(PM10),53,55,130,3,79,67,,74,70,13,32,4,6,0.2,0.6
2026-02-06T1000,3329A,117.011,32.5891,淮南市,山南新区,颗粒物(PM10),53,55,125,6,72,70,,80,74,4,22,6,9,0.2,0.7
2026-02-06T1000,4209A,117.003137,32.644456,淮南市,国庆中路369号,颗粒物(PM10),54,57,121,6,78,67,,74,70,10,23,3,7,0.3,0.6
2026-02-06T1000,2446A,114.9021,30.474,黄冈市,职工中心,细颗粒物(PM2.5),84,91,87,62,69,0,,1,0,43,46,5,6,0.9,1
2026-02-06T1000,2929A,114.8858,30.4519,黄冈市,红卫路,细颗粒物(PM2.5),90,90,89,67,63,14,,8,8,41,43,7,8,0.8,1
2026-02-06T1000,3398A,114.9134,30.4446,黄冈市,市林业局,细颗粒物(PM2.5),98,87,93,73,72,28,,14,14,37,40,5,4,0.8,0.9
2026-02-06T1000,2672A,102.02,35.5101,黄南藏族自治州,同仁县隆务镇,,50,50,55,23,26,63,,76,72,13,7,13,9,0.5,0.5
2026-02-06T1000,2295A,118.2905,29.6965,黄山市,延安路89号,细颗粒物(PM2.5),60,43,43,43,36,33,,56,54,32,22,4,4,0.9,0.8
2026-02-06T1000,2297A,118.1369,30.2755,黄山市,黄山区政府5号楼,细颗粒物(PM2.5),95,83,44,71,37,48,,50,48,22,16,2,2,1.0,0.8
2026-02-06T1000,4210A,118.335445,29.720283,黄山市,滨江东路7-2号,细颗粒物(PM2.5),58,60,50,41,35,36,,58,55,34,21,/,/,/,/
2026-02-06T1000,2423A,115.0547,30.2332,黄石市,沈家营,细颗粒物(PM2.5),82,92,101,60,56,16,,27,22,43,28,6,7,1.4,1.4
2026-02-06T1000,2426A,114.899,30.211,黄石市,铁山,细颗粒物(PM2.5),114,106,96,86,81,2,,4,2,49,47,7,10,2.2,1.8
2026-02-06T1000,2427A,115.0259,30.2108,黄石市,团城山,细颗粒物(PM2.5),95,100,100,71,69,1,,9,7,34,27,6,7,1.2,1.3
2026-02-06T1000,3149A,115.0174,30.1591,黄石市,笔架山北路,细颗粒物(PM2.5),88,118,129,65,72,10,,9,9,39,39,7,7,1.2,1.5
2026-02-06T1000,4185A,115.078022,30.21118,黄石市,磁湖东路29号,细颗粒物(PM2.5),88,100,112,65,63,2,,17,12,38,31,6,7,1.2,1.3
2026-02-06T1000,1392A,114.4181,23.0528,惠州市,河南岸金山湖子站,,44,44,42,26,22,50,,29,29,23,26,3,4,0.7,0.7
2026-02-06T1000,1393A,114.4055,23.0824,惠州市,下埔横江三路子站,,49,49,49,28,26,57,,35,35,26,31,7,7,0.5,0.6
2026-02-06T1000,1395A,114.4645,22.7832,惠州市,惠阳区承修路船湖子站,颗粒物(PM10),59,67,43,40,23,50,,19,12,43,39,8,7,0.8,0.7
2026-02-06T1000,1396A,114.5316,22.7423,惠州市,大亚湾管委会子站,颗粒物(PM10),73,96,45,40,21,30,,6,6,57,42,6,7,0.7,0.6
2026-02-06T1000,3314A,114.4334,22.8134,惠州市,惠阳秋长,细颗粒物(PM2.5),52,48,47,36,25,68,,20,20,38,43,/,/,/,/
2026-02-06T1000,3452A,114.6521,22.7755,惠州市,大亚湾霞涌,,41,41,34,27,19,46,,55,50,37,26,/,/,/,/
2026-02-06T1000,4300A,114.4089,23.1147,惠州市,文华一路1号,颗粒物(PM10),51,51,45,31,23,58,,17,17,29,39,/,/,/,/
2026-02-06T1000,2240A,130.9618,45.2926,鸡西市,环保局,,24,24,42,14,16,69,,68,66,8,10,7,7,0.2,0.2
2026-02-06T1000,2243A,130.9294,45.2959,鸡西市,第一中学,,21,21,31,3,15,67,,68,66,6,10,4,4,0.3,0.3
2026-02-06T1000,3707A,131.0069,45.2988,鸡西市,欧美日汽修厂,,41,41,45,12,15,65,,66,63,3,4,7,7,0.5,0.5
2026-02-06T1000,2367A,114.9753,27.0803,吉安市,红声器材厂,细颗粒物(PM2.5),77,70,84,56,62,39,,33,31,16,22,7,11,0.9,0.9
2026-02-06T1000,2369A,114.9903,27.1313,吉安市,市环境监测站,细颗粒物(PM2.5),77,64,71,56,61,31,,36,33,24,24,6,10,/,/
2026-02-06T1000,2370A,115.009527,27.096792,吉安市,青原区法院,,,68,73,54,62,,,33,31,21,25,,14,1.0,0.9
2026-02-06T1000,1772A,126.54,43.8622,吉林市,哈达湾,颗粒物(PM10),55,60,88,14,14,74,,70,70,7,10,6,6,0.5,0.5
2026-02-06T1000,1773A,126.5843,43.8358,吉林市,东局子,颗粒物(PM10),60,69,77,13,15,57,,56,56,17,13,6,5,0.9,0.9
2026-02-06T1000,1774A,126.5051,43.8243,吉林市,电力学院,,42,42,69,16,17,67,,63,63,7,9,7,6,0.6,0.5
2026-02-06T1000,1775A,126.6133,43.8971,吉林市,江北,颗粒物(PM10),52,54,70,16,17,63,,58,57,12,15,10,8,0.4,0.4
2026-02-06T1000,1776A,126.5549,43.8304,吉林市,江南公园,,35,35,56,14,15,62,,59,59,7,10,7,7,0.5,0.5
2026-02-06T1000,2868A,126.4737,43.953,吉林市,九站,颗粒物(PM10),56,61,64,24,17,59,,54,54,13,18,5,5,0.7,0.6
2026-02-06T1000,1299A,116.9866,36.6118,济南市,科干所,颗粒物(PM10),54,58,105,15,38,64,,66,65,10,19,6,8,0.3,0.5
2026-02-06T1000,1300A,116.9379,36.6652,济南市,农科所,颗粒物(PM10),57,63,121,6,34,63,,66,65,16,24,8,9,0.5,0.6
2026-02-06T1000,1301A,117.1265,36.6736,济南市,开发区,颗粒物(PM10),57,63,111,7,32,70,,72,71,19,29,4,5,0.4,0.5
2026-02-06T1000,1303A,117.0616,36.6865,济南市,省种子仓库,颗粒物(PM10),57,63,122,6,31,66,,68,67,14,22,4,6,0.3,0.5
2026-02-06T1000,1304A,116.9495185,36.644937,济南市,机床二厂,,,61,120,8,36,,,65,64,14,21,5,7,0.1,0.3
2026-02-06T1000,1305A,117.0496,36.6629,济南市,市监测站,颗粒物(PM10),59,68,117,7,34,62,,67,65,15,22,4,6,0.4,0.6
2026-02-06T1000,1306A,116.7674,36.5458,济南市,长清党校,,,54,122,3,29,,,64,63,19,33,5,6,0.6,0.8
2026-02-06T1000,1961A,117.5323,36.6865,济南市,东山小学,颗粒物(PM10),59,68,112,9,23,66,,68,66,19,26,4,4,0.4,0.4
2026-02-06T1000,3059A,117.7181,36.205,济南市,泰兴公司,,48,48,118,3,41,75,,67,66,12,24,4,7,0.6,1
2026-02-06T1000,3064A,117.6861,36.2172,济南市,莱芜战役纪念馆,,48,48,109,6,39,74,,73,72,11,23,8,12,0.4,0.7
2026-02-06T1000,3494A,117.1673,36.9782,济南市,济阳区政府,颗粒物(PM10),55,59,104,7,29,59,,55,55,7,14,6,6,0.4,0.6
2026-02-06T1000,3495A,117.1168,36.6299,济南市,锦屏中学,颗粒物(PM10),53,56,104,7,32,65,,66,65,15,22,4,6,0.2,0.4
2026-02-06T1000,4108A,117.7107,36.2385,济南市,山财大街5号,,41,41,105,3,33,72,,72,71,12,29,8,11,0.7,0.8
2026-02-06T1000,4109A,116.9744,36.6889,济南市,无影山路12号,,,,121,,33,60,,60,60,10,19,5,8,0.6,0.7
2026-02-06T1000,1653A,116.6229,35.4288,济宁市,火炬城,,49,49,115,3,60,66,,64,64,13,23,2,4,0.2,0.7
2026-02-06T1000,3500A,116.5808,35.3703,济宁市,北湖一中,,42,42,113,3,61,61,,64,62,17,27,2,9,0.2,0.5
2026-02-06T1000,3501A,116.8251,35.5592,济宁市,服务中心,颗粒物(PM10),56,61,136,12,64,65,,61,61,5,18,2,6,0.3,0.7
2026-02-06T1000,3678A,116.5907,35.4054,济宁市,市第七中学,,46,46,120,3,62,67,,66,65,13,24,7,13,0.2,0.7
2026-02-06T1000,4111A,116.6075,35.4566,济宁市,任和路,颗粒物(PM10),51,51,134,3,61,65,,58,58,13,25,4,9,0.3,0.7
2026-02-06T1000,4112A,116.5648,35.3921,济宁市,文体南路1号,,50,50,134,6,68,67,,66,66,10,23,2,6,0.2,0.6
2026-02-06T1000,2255A,130.2749,46.8028,佳木斯市,佳纺,,20,20,27,12,18,60,,61,59,4,10,5,5,0.4,0.4
2026-02-06T1000,2257A,130.3258,46.7975,佳木斯市,环保局,,25,25,25,11,14,63,,61,61,4,13,8,8,0.2,0.3
2026-02-06T1000,4285A,130.363,46.806,佳木斯市,顺和街,,19,17,20,3,15,60,,59,58,9,13,5,5,0.5,0.4
2026-02-06T1000,4286A,130.3952,46.8268,佳木斯市,长安路196号,,,,24,,16,66,,64,64,,10,6,6,0.7,0.5
2026-02-06T1000,1252A,120.7439,30.778,嘉兴市,清河小学,,22,22,98,3,80,63,,70,70,22,68,5,6,0.2,0.4
2026-02-06T1000,1253A,120.7261,30.7477,嘉兴市,嘉兴学院,,27,27,108,13,80,65,,70,70,19,64,4,5,0.4,0.8
2026-02-06T1000,2872A,120.7845,30.7524,嘉兴市,南湖区残联,,22,20,81,10,81,69,,76,76,18,61,3,5,0.4,0.8
2026-02-06T1000,3407A,120.6915,30.7741,嘉兴市,秀洲住建,,31,31,97,15,74,59,,72,72,25,52,6,6,0.5,0.8
2026-02-06T1000,1945A,98.291,39.7705,嘉峪关市,气象局,颗粒物(PM10),500,984,319,254,119,69,,64,64,5,8,7,5,0.3,0.4
2026-02-06T1000,2884A,98.2672,39.7978,嘉峪关市,酒钢宾馆,颗粒物(PM10),500,984,317,247,98,54,,61,56,19,9,12,17,0.8,0.6
2026-02-06T1000,3248A,98.2644,39.7723,嘉峪关市,雄关区,颗粒物(PM10),500,818,368,259,105,67,,58,58,7,12,8,9,0.4,0.5
2026-02-06T1000,1383A,113.1063,22.6058,江门市,北街,细颗粒物(PM2.5),59,54,41,42,21,38,,21,17,48,28,/,/,/,/
2026-02-06T1000,1384A,113.073,22.5835,江门市,西区,细颗粒物(PM2.5),59,56,41,42,22,42,,17,16,48,36,/,/,/,/
2026-02-06T1000,1385A,113.0218,22.531,江门市,圭峰西,,,74,36,39,19,,,50,47,42,20,/,/,/,/
2026-02-06T1000,1386A,113.0826,22.5947,江门市,东湖,细颗粒物(PM2.5),62,64,37,44,21,43,,18,16,46,29,8,8,0.8,0.5
2026-02-06T1000,3311A,113.1077,22.5647,江门市,江海富民,细颗粒物(PM2.5),79,93,54,58,25,32,,22,16,52,35,/,/,0.7,0.5
2026-02-06T1000,3449A,113.0496,22.4669,江门市,新会银湖,细颗粒物(PM2.5),55,50,37,39,22,27,,8,8,47,30,8,7,0.5,0.5
2026-02-06T1000,3335A,113.3137,35.2643,焦作市,马村街道办,颗粒物(PM10),59,67,114,19,46,63,,58,58,11,19,6,9,0.3,0.6
2026-02-06T1000,3336A,113.2464,35.2374,焦作市,焦作技师学院,颗粒物(PM10),56,61,114,17,45,61,,57,57,10,21,5,9,0.3,0.6
2026-02-06T1000,3477A,113.1656,35.2536,焦作市,中站许衡医院,颗粒物(PM10),55,59,99,25,46,62,,59,59,16,20,5,8,0.5,0.8
2026-02-06T1000,3981A,113.2456,35.18,焦作市,原李万街道办,颗粒物(PM10),57,64,109,23,48,62,,62,62,16,20,4,9,0.5,0.7
2026-02-06T1000,4264A,113.234,35.219,焦作市,新安路1731号,,,78,116,22,47,,,65,64,,20,,11,,0.5
2026-02-06T1000,4295A,113.2722,35.2121,焦作市,人民路3066号,颗粒物(PM10),56,62,116,24,44,57,,59,58,14,22,9,10,0.6,0.8
2026-02-06T1000,1708A,116.3701,23.5345,揭阳市,新兴,细颗粒物(PM2.5),94,110,73,70,44,42,,17,17,48,41,12,9,1.3,0.9
2026-02-06T1000,1709A,116.3261,23.5442,揭阳市,西马,细颗粒物(PM2.5),95,119,79,71,44,36,,14,14,50,37,12,9,1.1,0.9
2026-02-06T1000,1710A,116.361,23.5627,揭阳市,东兴,"颗粒物(PM10),细颗粒物(PM2.5)",79,107,72,58,41,51,,23,23,34,39,12,13,/,/
2026-02-06T1000,1711A,116.4151,23.5295,揭阳市,渔湖,细颗粒物(PM2.5),93,114,75,69,47,52,,15,15,46,41,8,7,/,/
2026-02-06T1000,3320A,116.4028,23.5699,揭阳市,曲溪,"颗粒物(PM10),细颗粒物(PM2.5)",72,94,72,52,44,59,,25,25,34,40,8,9,1.2,1
2026-02-06T1000,1944A,102.1691,38.5166,金昌市,天庆家园,颗粒物(PM10),141,232,189,60,48,68,,68,68,6,6,5,7,0.2,0.2
2026-02-06T1000,4022A,102.1648,38.5369,金昌市,金川区人防中心,颗粒物(PM10),142,233,195,61,56,66,,70,69,6,5,8,10,0.4,0.3
2026-02-06T1000,4239A,102.193042,38.531887,金昌市,长春路96号,颗粒物(PM10),158,266,179,56,44,53,,66,63,5,5,6,7,0.5,0.6
2026-02-06T1000,1262A,119.6478,29.0773,金华市,十五中,,36,36,101,25,68,65,,61,61,25,44,2,4,0.8,0.9
2026-02-06T1000,1263A,119.6859,29.1032,金华市,监测站,,42,42,100,28,67,57,,55,55,34,54,2,3,0.7,0.8
2026-02-06T1000,3659A,119.656,29.1132,金华市,气象局,,26,20,96,18,69,53,,50,50,33,57,3,5,0.9,1
2026-02-06T1000,1767A,121.1114,41.0879,锦州市,南山,,25,8,43,8,8,80,,83,81,2,2,8,8,0.5,0.4
2026-02-06T1000,1768A,121.060361,40.842794,锦州市,开发区,,26,26,65,14,15,72,,68,67,6,8,9,6,0.3,0.3
2026-02-06T1000,1769A,121.1836,41.1118,锦州市,百股街道,,25,21,47,9,10,77,,73,71,4,7,5,7,0.4,0.4
2026-02-06T1000,1770A,121.1176,41.1224,锦州市,天安街道,,27,15,46,9,7,86,,87,86,6,7,5,5,0.4,0.4
2026-02-06T1000,1771A,121.1303,41.1385,锦州市,北湖公园,,25,15,41,10,8,79,,78,78,4,5,8,8,0.5,0.4
2026-02-06T1000,2160A,112.8496,35.5051,晋城市,自来水公司,颗粒物(PM10),77,103,104,33,40,56,,54,54,14,19,6,10,0.8,0.9
2026-02-06T1000,2162A,112.8509,35.4886,晋城市,市环保局,颗粒物(PM10),65,79,95,44,43,57,,54,54,15,18,4,8,0.6,0.8
2026-02-06T1000,3620A,112.8258,35.4804,晋城市,泽州一中,颗粒物(PM10),85,120,124,54,56,60,,57,57,12,15,4,7,0.7,0.9
2026-02-06T1000,4078A,112.8246,35.5152,晋城市,前书院路,颗粒物(PM10),74,97,110,40,38,54,,51,51,16,20,7,9,0.7,0.9
2026-02-06T1000,4079A,112.8864,35.4773,晋城市,祥云街666号,颗粒物(PM10),75,100,108,52,54,53,,52,52,16,22,7,10,0.6,0.7
2026-02-06T1000,2174A,112.6992,37.6984,晋中市,榆次区政府,,,,123,26,22,54,,41,41,22,29,10,10,0.4,0.4
2026-02-06T1000,2865A,112.7195,37.683,晋中市,榆次三中,颗粒物(PM10),70,90,135,31,26,55,,47,47,17,22,10,10,0.4,0.4
2026-02-06T1000,4080A,112.7375,37.7215,晋中市,广安街188号,颗粒物(PM10),71,92,112,25,27,60,,44,44,13,24,10,12,0.4,0.3
2026-02-06T1000,4200A,112.7478,37.6954,晋中市,迎宾街26号,颗粒物(PM10),69,88,139,30,26,56,,48,48,15,22,10,9,0.4,0.4
2026-02-06T1000,2439A,112.2012,31.048,荆门市,竹园小学,"颗粒物(PM10),细颗粒物(PM2.5)",97,144,164,72,114,46,,57,55,27,41,1,2,0.6,1.2
2026-02-06T1000,2440A,112.1968,30.9892,荆门市,掇刀,细颗粒物(PM2.5),119,150,174,90,128,49,,64,62,21,32,4,6,0.8,1.1
2026-02-06T1000,3012A,112.1849,31.0361,荆门市,西山林语,细颗粒物(PM2.5),104,146,150,78,104,50,,62,60,24,33,2,2,0.9,1.2
2026-02-06T1000,3547A,112.1631,31.0134,荆门市,龙泉中学南校,颗粒物(PM10),116,181,173,84,107,57,,72,70,21,30,6,6,0,0
2026-02-06T1000,4124A,112.2213,31.0654,荆门市,新台西路6号,颗粒物(PM10),106,162,183,79,135,46,,53,53,25,40,9,9,0.6,1
2026-02-06T1000,1844A,112.2493,30.3198,荆州市,市图书馆,细颗粒物(PM2.5),144,149,161,110,146,42,,46,46,26,43,7,7,0.9,1.2
2026-02-06T1000,1845A,112.2009,30.3543,荆州市,市委党校,细颗粒物(PM2.5),172,162,193,130,164,38,,36,36,28,40,8,7,1.0,1.4
2026-02-06T1000,3194A,112.2749,30.3124,荆州市,管委会,细颗粒物(PM2.5),150,143,162,115,153,43,,44,44,24,43,8,7,0.9,1.1
2026-02-06T1000,4268A,112.1722,30.3366,荆州市,学苑路85号,细颗粒物(PM2.5),150,167,181,115,160,44,,42,42,25,30,8,8,0.7,1
2026-02-06T1000,2343A,117.2114,29.2931,景德镇市,老干部活动中心,,,22,25,13,17,,,27,27,10,11,3,4,0.9,0.7
2026-02-06T1000,2344A,117.1893,29.2789,景德镇市,兽医站,,23,23,41,9,17,43,,36,36,12,13,4,4,0.8,0.7
2026-02-06T1000,2346A,117.246,29.2958,景德镇市,陶研所,,14,13,22,9,18,43,,32,32,10,13,3,3,0.8,0.7
2026-02-06T1000,4289A,117.154766,29.256967,景德镇市,青少年活动中心,,22,19,28,15,17,41,,29,29,13,17,3,4,/,/
2026-02-06T1000,1803A,115.9873,29.6816,九江市,十里,细颗粒物(PM2.5),129,151,88,98,65,67,,40,40,20,44,5,7,1.2,1.3
2026-02-06T1000,1804A,115.9583,29.7047,九江市,茅山头,细颗粒物(PM2.5),185,156,92,139,83,66,,34,34,17,45,5,4,1.0,1
2026-02-06T1000,1805A,115.9877,29.7295,九江市,西园,细颗粒物(PM2.5),183,161,98,138,81,67,,41,41,27,53,6,7,1.2,1.1
2026-02-06T1000,1808A,115.9112,29.6038,九江市,综合工业园,细颗粒物(PM2.5),143,143,91,109,63,68,,44,44,22,51,1,3,0.8,0.7
2026-02-06T1000,3190A,116.0254,29.6995,九江市,外国语学校,细颗粒物(PM2.5),160,128,81,122,82,55,,39,39,27,46,3,4,1.0,0.9
2026-02-06T1000,4253A,116.010205,29.659402,九江市,莲花大道8号,细颗粒物(PM2.5),149,160,89,114,65,61,,51,51,16,27,3,4,0.9,0.8
2026-02-06T1000,4240A,98.495752,39.733935,酒泉市,玉门东路5号,细颗粒物(PM2.5),285,,272,235,125,60,,60,60,5,6,9,11,0.3,0.3
2026-02-06T1000,4241A,98.5099,39.7506,酒泉市,北大街108号,颗粒物(PM10),500,1006,605,243,142,59,,56,56,1,4,8,9,0.2,0.3
2026-02-06T1000,2698A,76.0071,39.466,喀什地区,巡警大队,细颗粒物(PM2.5),98,144,196,73,91,1,,3,3,65,50,10,9,3.3,2
2026-02-06T1000,2699A,75.9756,39.4693,喀什地区,吾办,颗粒物(PM10),88,125,180,64,92,2,,6,5,55,52,9,10,2.6,1.8
2026-02-06T1000,4027A,75.9485,39.4688,喀什地区,老干局,细颗粒物(PM2.5),104,115,229,78,94,1,,9,9,47,50,8,12,2.8,2.7
2026-02-06T1000,1824A,114.3389,34.778,开封市,肿瘤医院,颗粒物(PM10),63,76,138,30,69,50,,56,52,23,30,9,12,0.5,0.9
2026-02-06T1000,1826A,114.2884,34.7966,开封市,世纪星幼儿园,颗粒物(PM10),61,72,122,24,65,48,,54,51,27,31,9,12,0.5,0.8
2026-02-06T1000,3147A,114.3434,34.8101,开封市,龙亭公园,颗粒物(PM10),63,75,130,22,65,48,,53,50,19,32,8,12,0.6,0.8
2026-02-06T1000,3210A,114.3645,34.7955,开封市,汴京公园,颗粒物(PM10),59,67,136,22,61,49,,54,50,14,28,6,9,0.8,0.8
2026-02-06T1000,3473A,114.2485,34.8306,开封市,技师学院,颗粒物(PM10),59,68,117,18,64,51,,56,52,20,29,7,10,0.7,1
2026-02-06T1000,3592A,114.4518,34.7503,开封市,祥符区生态环境局,颗粒物(PM10),52,54,138,30,71,41,,51,48,28,33,38,14,0.6,1
2026-02-06T1000,1951A,84.886,45.6029,克拉玛依市,长征新村,,48,42,56,33,40,47,,82,74,27,16,4,5,0.7,0.7
2026-02-06T1000,1952A,84.8894,45.5827,克拉玛依市,南林小区,,,,58,,40,49,,81,73,24,13,2,2,0.6,0.6
2026-02-06T1000,1954A,84.896,44.3328,克拉玛依市,独山子区,,45,45,88,28,69,54,,70,68,20,14,3,3,1.1,1
2026-02-06T1000,1955A,85.6888,46.0909,克拉玛依市,乌尔禾区商贸楼,细颗粒物(PM2.5),57,49,56,40,42,65,,71,68,23,21,7,7,0.8,0.7
2026-02-06T1000,3612A,85.1045,45.6895,克拉玛依市,白碱滩区新站,细颗粒物(PM2.5),57,43,46,40,39,52,,81,72,23,15,8,8,0.8,0.7
2026-02-06T1000,2697A,76.1457,39.7143,克孜勒苏柯尔克孜自治州,市人民政府,颗粒物(PM10),73,95,161,48,80,42,,54,54,13,17,3,5,0.2,0.4
2026-02-06T1000,3665A,76.1654,39.7157,克孜勒苏柯尔克孜自治州,克州文化中心,颗粒物(PM10),82,114,155,39,57,38,,59,57,22,19,4,5,0.7,0.7
2026-02-06T1000,1450A,102.8203,24.889,昆明市,呈贡新区,,29,29,33,18,18,34,,54,50,35,17,4,4,0.6,0.3
2026-02-06T1000,1452A,102.7253,25.0904,昆明市,龙泉镇,,28,28,31,14,17,66,,46,41,18,22,3,4,0.4,0.4
2026-02-06T1000,1453A,102.7267,25.0378,昆明市,东风东路,,26,26,26,14,15,74,,69,69,18,16,6,7,0.3,0.3
2026-02-06T1000,1454A,102.6744,25.0671,昆明市,金鼎山,,23,23,29,9,13,67,,72,70,18,12,4,4,0.5,0.5
2026-02-06T1000,1455A,102.6643,25.0401,昆明市,碧鸡广场,,25,24,25,10,15,80,,64,64,13,16,4,4,0.4,0.4
2026-02-06T1000,3179A,102.7491,25.012,昆明市,官渡区博物馆,颗粒物(PM10),55,60,30,17,15,36,,59,51,56,18,5,5,0.7,0.4
2026-02-06T1000,3375A,102.8016,24.8336,昆明市,青年创业园,,31,31,26,9,17,68,,51,51,12,13,11,7,0.5,0.5
2026-02-06T1000,3550A,102.8,24.9787,昆明市,昆明学院,颗粒物(PM10),51,52,28,20,15,39,,65,51,42,15,4,4,0.7,0.5
2026-02-06T1000,3551A,102.5969,24.6738,昆明市,晋宁区生态环境分局,,38,38,26,18,16,66,,68,60,26,8,2,2,0.4,0.3
2026-02-06T1000,3552A,102.6673,24.9861,昆明市,云天化总部,,,27,25,16,13,,,58,56,17,16,9,9,0.5,0.4
2026-02-06T1000,1456A,91.132,29.6515,拉萨市,八廓街,,22,16,13,14,7,70,,79,78,12,9,6,7,0.4,0.3
2026-02-06T1000,1457A,91.1221,29.6748,拉萨市,市环保局,,22,22,14,9,6,58,,72,66,18,9,7,7,0.4,0.3
2026-02-06T1000,1458A,91.0874,29.6476,拉萨市,区监测站,,20,15,11,3,6,61,,75,70,18,11,4,4,0.6,0.6
2026-02-06T1000,1459A,91.1774,29.6541,拉萨市,西藏大学,,19,16,12,6,6,59,,72,67,14,9,3,4,0.2,0.2
2026-02-06T1000,1460A,90.9798,29.6586,拉萨市,区辐射站,,22,22,14,11,9,38,,64,55,33,15,4,3,0.5,0.3
2026-02-06T1000,1461A,91.0831,29.6292,拉萨市,拉萨火车站,,18,15,10,12,6,37,,70,58,35,10,4,4,0.6,0.4
2026-02-06T1000,2520A,109.2203,23.7252,来宾市,来宾技工学校,细颗粒物(PM2.5),60,66,82,43,63,45,,50,45,19,19,12,8,0.9,0.9
2026-02-06T1000,3535A,109.1781,23.7293,来宾市,兴宾区政府,,48,48,89,32,60,55,,55,55,14,21,8,9,0.8,1
2026-02-06T1000,4002A,109.2312,23.7428,来宾市,中南小学,细颗粒物(PM2.5),77,78,87,56,72,38,,27,26,26,29,9,7,1.0,1.1
2026-02-06T1000,1479A,103.8309,36.0467,兰州市,铁路设计院,,,,,,,,,,,,,,,,
2026-02-06T1000,3241A,103.7439,36.0841,兰州市,百合公园,颗粒物(PM10),78,105,90,35,42,28,,62,51,42,43,4,13,0.8,0.8
2026-02-06T1000,3242A,103.9613,35.9985,兰州市,和平,颗粒物(PM10),77,103,90,23,35,60,,63,59,14,23,10,18,0.7,1
2026-02-06T1000,4236A,103.629272,36.093822,兰州市,庄浪东路808号,颗粒物(PM10),76,101,87,30,37,48,,65,58,32,38,12,24,0.5,0.8
2026-02-06T1000,4237A,103.7251,36.104344,兰州市,安宁西路88号,颗粒物(PM10),88,125,100,36,41,34,,80,69,44,32,10,18,0.6,0.7
2026-02-06T1000,4238A,103.846982,36.067567,兰州市,北滨河东路1号,颗粒物(PM10),76,102,92,36,38,32,,63,52,48,48,8,15,0.7,0.9
2026-02-06T1000,1067A,116.6712,39.5109,廊坊市,药材公司,,23,19,35,3,4,72,,71,71,3,6,3,3,0.3,0.3
2026-02-06T1000,1068A,116.7215,39.5592,廊坊市,开发区,,24,6,23,3,3,76,,74,74,5,9,1,3,0.2,0.3
2026-02-06T1000,1070A,116.7246,39.5273,廊坊市,北华航天学院,,24,6,28,3,3,75,,75,75,12,14,2,2,0.2,0.2
2026-02-06T1000,2919A,116.7022,39.5454,廊坊市,河北工业大学,,23,10,33,3,4,72,,71,71,5,7,3,3,0.2,0.2
2026-02-06T1000,2536A,103.7629,29.5844,乐山市,牛耳桥,细颗粒物(PM2.5),124,125,104,94,78,12,,11,9,30,38,7,5,1.2,1
2026-02-06T1000,2537A,103.7501,29.6002,乐山市,市第三水厂,细颗粒物(PM2.5),105,115,104,79,75,5,,8,7,49,48,5,3,1.3,1.1
2026-02-06T1000,2538A,103.7571,29.5664,乐山市,市监测站,细颗粒物(PM2.5),114,121,96,86,74,9,,6,6,35,35,7,6,1.5,1.2
2026-02-06T1000,3361A,103.7313,29.563,乐山市,理工大学,细颗粒物(PM2.5),107,,11,80,71,16,,10,9,27,31,5,3,1.4,1.1
2026-02-06T1000,2599A,100.2497,26.8802,丽江市,丽江古城,,35,35,24,16,10,75,,79,74,13,10,5,6,0.4,0.4
2026-02-06T1000,2600A,100.2203,26.8906,丽江市,市中心,,26,26,16,10,11,68,,80,73,18,10,6,5,0.4,0.3
2026-02-06T1000,1267A,119.9141,28.4513,丽水市,监测站大楼,,12,8,56,3,42,38,,33,33,21,29,4,6,0.7,0.7
2026-02-06T1000,1268A,119.93,28.4589,丽水市,莲都小学,,14,8,65,3,40,42,,38,37,16,24,/,/,/,/
2026-02-06T1000,1269A,119.8794,28.4232,丽水市,余庄前,,15,15,56,9,37,19,,21,21,23,25,4,5,0.7,0.6
2026-02-06T1000,1173A,119.1759,34.5885,连云港市,市环境监测站,颗粒物(PM10),56,61,125,17,70,57,,62,61,24,28,10,13,0.4,0.6
2026-02-06T1000,3000A,119.3577,34.6971,连云港市,德源药业,颗粒物(PM10),57,63,142,17,62,59,,62,62,9,19,6,7,0.7,0.8
2026-02-06T1000,3007A,119.178,34.8442,连云港市,新城一中,颗粒物(PM10),61,71,125,15,76,49,,69,64,32,35,17,13,1.1,1.1
2026-02-06T1000,3008A,119.3607,34.7519,连云港市,胡沟管理处,,48,48,114,12,62,63,,68,66,11,21,8,12,0.7,0.8
2026-02-06T1000,3009A,119.1478,34.5913,连云港市,矿山设计院,,,61,133,9,66,58,,65,63,16,25,9,11,,0.9
2026-02-06T1000,3434A,119.2414,34.6539,连云港市,工贸学校,,43,43,107,10,70,55,,61,61,19,32,10,13,0.4,0.7
2026-02-06T1000,3664A,119.4171,34.734,连云港市,连云街道,,42,42,108,10,67,60,,66,65,22,33,6,9,0.5,0.8
2026-02-06T1000,2573A,102.2629,27.8981,凉山彝族自治州,西昌市政府,,42,,23,29,16,52,,68,63,14,6,6,6,0.7,0.5
2026-02-06T1000,2574A,102.2686,27.885,凉山彝族自治州,凉山州政府,,40,29,19,28,15,44,,59,54,17,6,9,8,0.8,0.6
2026-02-06T1000,4229A,102.2342,27.8859,凉山彝族自治州,凯乐南路30号,颗粒物(PM10),51,51,33,26,13,38,,61,52,29,14,8,10,0.7,0.5
2026-02-06T1000,2212A,123.1978,41.2036,辽阳市,宏伟区,,,134,187,7,7,63,,67,65,5,4,,5,0.5,0.4
2026-02-06T1000,2213A,123.1684,41.2497,辽阳市,新华园,,28,28,184,6,8,72,,69,68,7,8,2,2,0.3,0.3
2026-02-06T1000,2214A,123.2355,41.2663,辽阳市,滨河路,,22,6,160,3,7,69,,67,66,5,5,4,3,0.4,0.4
2026-02-06T1000,4083A,123.153,41.2874,辽阳市,铁西路150号,,21,20,181,6,8,66,,62,62,4,5,6,5,0.4,0.4
2026-02-06T1000,2227A,125.1359,42.8845,辽源市,环保局,,32,32,108,8,7,70,,70,69,6,8,3,2,0.6,0.4
2026-02-06T1000,4085A,125.0998,42.9134,辽源市,安宁大街333号,,30,30,213,10,9,74,,70,70,6,8,6,4,0.4,0.4
2026-02-06T1000,1625A,115.9789,36.4372,聊城市,区政府,颗粒物(PM10),59,67,124,7,32,56,,53,51,21,25,18,18,0.7,0.8
2026-02-06T1000,3200A,115.9772,36.4986,聊城市,监控中心,颗粒物(PM10),57,63,119,14,39,56,,55,53,20,23,9,9,0.8,0.8
2026-02-06T1000,3513A,116.0443,36.436,聊城市,九州社区,颗粒物(PM10),60,70,126,6,34,69,,60,59,6,10,5,7,0.5,0.6
2026-02-06T1000,4018A,116.0564,36.4609,聊城市,星美广场,,,77,137,7,36,,,46,44,15,18,5,8,0.6,0.8
2026-02-06T1000,4113A,116.0091,36.4495,聊城市,利民路,,,61,128,8,34,,,50,47,19,25,13,14,0.7,0.9
2026-02-06T1000,2632A,94.3683,29.6373,林芝市,林芝监测站,,22,9,10,8,10,69,,70,70,4,2,4,4,0.4,0.4
2026-02-06T1000,2633A,94.3616,29.6634,林芝市,林芝人民医院,,20,14,14,10,11,62,,68,67,5,2,4,5,0.4,0.4
2026-02-06T1000,2603A,100.0779,23.8981,临沧市,市环保局,,33,32,29,23,18,36,,36,32,15,10,24,7,0.7,0.6
2026-02-06T1000,2604A,100.0894,23.882,临沧市,市气象局,颗粒物(PM10),51,52,44,29,23,30,,37,35,15,10,11,11,0.6,0.5
2026-02-06T1000,1733A,111.5552,36.0791,临汾市,临钢医院,,,,168,,80,33,,17,17,,46,19,18,1.1,1.5
2026-02-06T1000,1734A,111.4984,36.0734,临汾市,技工学校,颗粒物(PM10),97,144,156,38,87,31,,16,16,34,50,18,24,0.8,1.3
2026-02-06T1000,1736A,111.5017,36.0857,临汾市,市委,颗粒物(PM10),103,156,168,33,80,31,,15,15,29,50,18,24,0.9,1.3
2026-02-06T1000,3018A,111.5048,36.1015,临汾市,唐尧大酒店,颗粒物(PM10),103,156,166,35,73,31,,14,14,33,55,19,23,1.0,1.3
2026-02-06T1000,4244A,111.4879,36.053,临汾市,启星学校,颗粒物(PM10),103,156,165,45,86,33,,16,16,28,57,20,22,1.0,1.4
2026-02-06T1000,4271A,103.2464,35.6123,临夏回族自治州,滨河东路1号,颗粒物(PM10),89,127,140,62,76,10,,23,22,39,33,8,10,1.4,1.3
2026-02-06T1000,4310A,103.207136,35.599807,临夏回族自治州,新华街21号,,,140,112,67,62,,,46,40,33,26,9,11,1.4,1.1
2026-02-06T1000,1618A,118.3429,35.0532,临沂市,沂河小区,颗粒物(PM10),57,63,134,6,48,54,,59,57,17,25,8,11,0.3,0.5
2026-02-06T1000,1619A,118.2962,35.0568,临沂市,鲁南制药厂,,,,135,,51,54,,60,57,14,30,,14,,0.5
2026-02-06T1000,1620A,118.2793,34.9976,临沂市,新光毛纺厂,颗粒物(PM10),53,56,128,19,62,51,,54,53,18,29,9,13,0.4,0.6
2026-02-06T1000,1621A,118.3955,35.0889,临沂市,河东保险公司,颗粒物(PM10),54,58,126,6,52,60,,62,60,18,34,9,12,0.5,0.7
2026-02-06T1000,3370A,118.3563,35.0215,临沂市,十里堡居委,颗粒物(PM10),54,58,134,6,51,56,,62,60,25,30,8,11,0.4,0.6
2026-02-06T1000,3496A,118.359,35.1067,临沂市,南坊新区,颗粒物(PM10),54,58,116,3,44,61,,64,62,12,26,9,11,0.2,0.6
2026-02-06T1000,3860A,118.3915,35.0297,临沂市,皇山花园小区,颗粒物(PM10),60,70,151,9,57,54,,60,58,23,29,12,15,0.4,0.7
2026-02-06T1000,1870A,109.4854,24.3898,柳州市,柳东小学,细颗粒物(PM2.5),110,84,70,83,58,12,,25,19,16,21,10,10,1.0,0.8
2026-02-06T1000,1871A,109.4109,24.3304,柳州市,环保监测站,细颗粒物(PM2.5),122,107,92,92,66,5,,3,2,29,42,7,6,1.4,1.4
2026-02-06T1000,1872A,109.3886,24.3408,柳州市,河西水厂,细颗粒物(PM2.5),113,133,106,85,85,4,,2,1,24,38,10,7,1.4,1
2026-02-06T1000,1873A,109.4263,24.2951,柳州市,市四中,细颗粒物(PM2.5),118,95,104,89,80,2,,2,0,35,38,8,7,1.4,1.4
2026-02-06T1000,1874A,109.396,24.3658,柳州市,市九中,,,,216,65,72,7,,2,2,19,41,12,12,1.2,1.4
2026-02-06T1000,1875A,109.4912,24.3164,柳州市,古亭山,细颗粒物(PM2.5),109,,75,82,66,14,,2,2,29,34,9,7,0.7,0.8
2026-02-06T1000,3402A,109.5422,24.3994,柳州市,市二中,细颗粒物(PM2.5),123,,75,93,61,13,,9,9,25,34,12,12,0.9,0.8
2026-02-06T1000,2307A,116.5078,31.7369,六安市,监测大楼,颗粒物(PM10),64,78,106,30,81,58,,73,73,15,26,2,4,0.3,0.7
2026-02-06T1000,2308A,116.4738,31.7642,六安市,皖西学院,颗粒物(PM10),70,89,116,32,83,65,,78,78,15,25,4,5,0.3,0.7
2026-02-06T1000,2309A,116.4997,31.7904,六安市,朝阳厂,颗粒物(PM10),62,74,106,30,84,64,,77,77,16,28,5,6,0.3,0.7
2026-02-06T1000,2310A,116.5566,31.7885,六安市,开发区,颗粒物(PM10),63,76,110,27,86,67,,82,82,3,20,3,6,0.2,0.7
2026-02-06T1000,2577A,104.8293,26.592,六盘水市,黄土坡,,49,36,47,34,37,63,,60,60,18,17,14,10,1.1,1
2026-02-06T1000,2579A,104.8481,26.5898,六盘水市,民中,颗粒物(PM10),52,53,44,34,35,64,,61,61,16,13,5,5,0.7,0.8
2026-02-06T1000,2580A,104.9541,26.5506,六盘水市,双水,,49,46,41,34,30,70,,65,65,11,11,4,5,0.6,0.6
2026-02-06T1000,4151A,104.8899,26.5685,六盘水市,钟山大道中段564号,颗粒物(PM10),63,75,53,41,33,60,,56,56,14,11,9,8,1.1,1.1
2026-02-06T1000,2336A,117.022,25.1031,龙岩市,龙岩市监测站,颗粒物(PM10),51,52,29,33,21,35,,23,23,41,24,21,18,1.0,0.7
2026-02-06T1000,2337A,117.0257,25.0662,龙岩市,闽西职业技术学院,颗粒物(PM10),51,51,31,21,14,32,,30,27,32,18,15,8,0.7,0.5
2026-02-06T1000,2338A,117.0195,25.0306,龙岩市,龙岩学院,,35,35,24,20,14,55,,38,36,16,11,6,4,/,/
2026-02-06T1000,2885A,104.9344,33.3827,陇南市,滨江中学,,,99,72,36,37,19,,32,27,45,29,,8,1.2,1
2026-02-06T1000,3247A,104.9551,33.3709,陇南市,市总工会,颗粒物(PM10),62,74,63,29,28,24,,42,37,36,22,4,4,1.2,1
2026-02-06T1000,2488A,111.9984,27.7346,娄底市,市监测站,细颗粒物(PM2.5),60,51,88,43,72,39,,51,48,27,23,8,8,1.2,1
2026-02-06T1000,2491A,111.9888,27.7035,娄底市,市政府,细颗粒物(PM2.5),55,46,87,39,62,46,,50,48,20,25,4,5,0.4,0.5
2026-02-06T1000,4127A,111.9812,27.7591,娄底市,涟钢职大,一氧化碳(CO),77,55,89,47,65,40,,45,44,19,20,3,5,7.7,1.7
2026-02-06T1000,4128A,112.0303,27.7457,娄底市,娄底体校,细颗粒物(PM2.5),57,48,85,40,65,30,,,,15,15,2,2,0.8,0.7
2026-02-06T1000,1894A,105.4427,28.9063,泸州市,小市上码头,细颗粒物(PM2.5),148,144,115,113,95,18,,13,8,35,27,5,6,1.2,1.1
2026-02-06T1000,1895A,105.4241,28.8573,泸州市,兰田宪桥,细颗粒物(PM2.5),117,133,113,88,74,19,,23,17,30,23,9,9,1.2,1
2026-02-06T1000,1896A,105.4378,28.8833,泸州市,市环监站,细颗粒物(PM2.5),129,156,132,98,98,22,,22,14,35,29,11,11,1.0,0.9
2026-02-06T1000,4272A,105.3689,28.7783,泸州市,纳溪中医医院,细颗粒物(PM2.5),142,118,105,108,86,6,,5,5,24,22,8,8,1.3,1.1
2026-02-06T1000,2183A,111.1447,37.5212,吕梁市,环保局,颗粒物(PM10),65,80,104,29,38,6,,3,3,47,49,13,12,0.6,0.7
2026-02-06T1000,2185A,111.1285,37.5338,吕梁市,自来水公司,颗粒物(PM10),72,93,106,31,37,6,,2,2,39,40,28,14,0.6,0.7
2026-02-06T1000,2867A,111.1225,37.5093,吕梁市,马茂庄小学,颗粒物(PM10),70,90,117,34,42,7,,3,3,44,51,24,16,0.5,0.6
2026-02-06T1000,1812A,112.3934,34.6517,洛阳市,市委党校,颗粒物(PM10),53,55,110,15,53,64,,59,59,20,32,8,11,0.5,0.8
2026-02-06T1000,1815A,112.494,34.6883,洛阳市,河南林校,颗粒物(PM10),56,62,114,9,49,67,,58,58,24,37,10,14,0.3,0.6
2026-02-06T1000,1816A,112.3843,34.623,洛阳市,开发区管委会,颗粒物(PM10),52,53,124,12,51,68,,66,66,19,26,11,13,0.4,0.7
2026-02-06T1000,1817A,112.4263,34.6249,洛阳市,市委新办公区,,45,45,109,9,48,66,,65,65,24,30,9,12,0.4,0.7
2026-02-06T1000,3340A,112.6005,34.6323,洛阳市,伊滨,颗粒物(PM10),52,53,116,18,46,68,,67,67,16,26,8,10,0.5,0.6
2026-02-06T1000,3341A,112.495,34.6338,洛阳市,中移产业园,颗粒物(PM10),52,54,110,14,49,66,,65,65,22,27,8,11,0.4,0.7
2026-02-06T1000,3593A,112.5736,34.8993,洛阳市,吉利监测站,,,,121,,57,,,55,55,27,37,10,12,0.6,0.8
2026-02-06T1000,3635A,112.3678,34.6623,洛阳市,河科大西苑校区,颗粒物(PM10),53,56,118,15,54,71,,63,63,22,33,8,13,0.5,0.8
2026-02-06T1000,3636A,112.4387,34.678,洛阳市,英才小学,颗粒物(PM10),54,58,120,13,55,69,,60,60,25,35,9,13,0.6,0.9
2026-02-06T1000,4214A,112.460027,34.694929,洛阳市,春都路1号院,,,75,141,11,53,,,57,57,,29,7,11,0.4,0.7
2026-02-06T1000,2399A,114.051,33.5721,漯河市,三五一五工厂,颗粒物(PM10),79,107,173,36,84,36,,44,40,21,27,6,8,0.6,0.9
2026-02-06T1000,2400A,114.0055,33.5698,漯河市,漯河大学,颗粒物(PM10),74,98,150,36,78,36,,45,41,19,24,8,9,0.7,1
2026-02-06T1000,2401A,114.0134,33.5826,漯河市,市水利局,颗粒物(PM10),75,100,163,33,84,32,,41,38,25,30,6,8,0.6,0.8
2026-02-06T1000,2402A,114.0261,33.5697,漯河市,市广电局,颗粒物(PM10),78,105,164,45,86,33,,42,38,16,21,8,9,0.6,0.8
2026-02-06T1000,3478A,113.9691,33.568,漯河市,市图书馆,颗粒物(PM10),78,106,171,40,82,37,,44,41,19,25,8,9,0.9,1.1
2026-02-06T1000,4250A,114.089259,33.588274,漯河市,韶山路11号,颗粒物(PM10),73,96,159,45,85,38,,42,38,22,31,7,9,0.6,0.8
2026-02-06T1000,1798A,118.5084,31.6838,马鞍山市,湖东路四小,颗粒物(PM10),67,83,113,12,75,63,,75,72,14,38,3,7,0.4,0.9
2026-02-06T1000,1799A,118.5019,31.6449,马鞍山市,开发区,颗粒物(PM10),69,87,115,13,79,67,,80,78,12,36,3,7,0.3,0.8
2026-02-06T1000,3633A,118.4914,31.681,马鞍山市,雨山,颗粒物(PM10),67,84,116,13,71,65,,77,75,12,38,3,7,0.5,1
2026-02-06T1000,4191A,118.527362,31.722269,马鞍山市,慈湖高新区,,34,34,111,12,72,65,,79,75,14,33,4,7,0.3,0.7
2026-02-06T1000,1686A,111.0285,21.469,茂名市,电白南海,,42,41,35,29,17,45,,68,56,18,12,10,9,0.8,0.8
2026-02-06T1000,1687A,110.9294,21.6533,茂名市,茂石化七小,,,61,37,20,17,,,74,67,29,11,18,7,0.6,0.4
2026-02-06T1000,1688A,110.9108,21.6688,茂名市,健康路,,44,44,28,18,15,45,,83,71,26,13,8,5,0.7,0.5
2026-02-06T1000,1689A,110.8592,21.6826,茂名市,高岭,颗粒物(PM10),69,88,53,27,21,24,,71,58,29,12,10,6,/,/
2026-02-06T1000,3450A,111.0101,21.5165,茂名市,电白水东,,34,34,29,17,16,53,,71,60,24,18,9,8,/,/
2026-02-06T1000,2540A,103.8414,30.0871,眉山市,气象局,细颗粒物(PM2.5),114,111,104,86,73,42,,41,35,33,29,14,13,1.1,1
2026-02-06T1000,3148A,103.829,30.0563,眉山市,区人社局,细颗粒物(PM2.5),119,106,105,90,78,33,,40,34,32,37,11,11,1.1,1.1
2026-02-06T1000,4148A,103.8836,30.0695,眉山市,眉职院,细颗粒物(PM2.5),118,120,102,89,69,30,,46,40,27,22,5,5,1.0,1
2026-02-06T1000,1690A,116.1248,24.3307,梅州市,梅江月梅,,46,46,41,28,28,49,,16,16,23,29,/,/,/,/
2026-02-06T1000,1691A,116.0798,24.2719,梅州市,梅县新城,,50,49,47,35,29,41,,18,18,31,34,9,8,0.7,0.7
2026-02-06T1000,3315A,116.1234,24.2994,梅州市,梅龙,,46,46,46,30,28,46,,23,23,26,28,10,9,0.7,0.8
2026-02-06T1000,1878A,104.7775,31.4741,绵阳市,富乐山,细颗粒物(PM2.5),88,75,85,65,62,26,,39,35,16,16,8,8,1.0,0.9
2026-02-06T1000,1880A,104.6698,31.4668,绵阳市,高新区自来水公司,细颗粒物(PM2.5),95,109,104,71,70,4,,13,5,49,39,8,7,1.4,1.1
2026-02-06T1000,3491A,104.6899,31.5324,绵阳市,西科大附属小学,细颗粒物(PM2.5),89,115,113,66,73,2,,12,3,40,42,10,9,1.1,0.7
2026-02-06T1000,3492A,104.5647,31.5343,绵阳市,安州区旅游局,细颗粒物(PM2.5),103,122,104,77,74,17,,13,10,34,39,10,11,1.3,1.1
2026-02-06T1000,4146A,104.7092,31.4972,绵阳市,科技城新区公安局,细颗粒物(PM2.5),92,101,102,68,63,6,,20,10,47,41,6,5,1.1,1
2026-02-06T1000,4226A,104.765114,31.453094,绵阳市,绵阳市气象局,,,,92,67,67,14,,33,26,27,22,8,8,1.0,1
2026-02-06T1000,1784A,129.61,44.561,牡丹江市,环保大楼,,35,35,40,12,15,68,,70,68,7,10,4,3,0.3,0.3
2026-02-06T1000,1787A,129.6364,44.6075,牡丹江市,机车工厂,,,30,41,21,17,63,,64,62,6,9,,7,,0.3
2026-02-06T1000,1788A,129.6386,44.5462,牡丹江市,第一中学,,21,21,36,3,15,64,,66,64,6,8,5,4,0.3,0.3
2026-02-06T1000,4287A,129.5992,44.5964,牡丹江市,东晓云街98号,,27,27,43,6,14,63,,65,63,5,6,5,4,0.5,0.4
2026-02-06T1000,2531A,105.0703,29.61,内江市,市监测站,细颗粒物(PM2.5),117,94,89,88,82,18,,28,22,26,27,7,6,1.0,0.9
2026-02-06T1000,2533A,105.0657,29.5807,内江市,内江二中,细颗粒物(PM2.5),122,99,100,92,78,25,,9,8,28,30,8,8,0.9,0.8
2026-02-06T1000,2534A,105.0407,29.5828,内江市,内江日报社,细颗粒物(PM2.5),117,,88,88,77,6,,4,3,36,42,8,8,0.9,0.7
2026-02-06T1000,4147A,105.0433,29.6105,内江市,玉峰路西段888号,细颗粒物(PM2.5),122,94,90,92,79,11,,18,12,30,32,5,5,0.9,0.7
2026-02-06T1000,2628A,92.0653,31.4846,那曲市,那曲监测站,细颗粒物(PM2.5),60,52,44,43,29,38,,39,39,23,8,16,8,1.0,0.9
2026-02-06T1000,4243A,92.0515,31.4787,那曲市,那曲市委宣传部,细颗粒物(PM2.5),58,49,39,41,21,30,,43,36,23,9,12,5,1.4,0.7
2026-02-06T1000,1291A,115.8887,28.7006,南昌市,省林业公司,细颗粒物(PM2.5),137,,59,104,59,30,,44,44,25,27,3,4,1.0,0.8
2026-02-06T1000,1292A,115.813,28.7443,南昌市,林科所,细颗粒物(PM2.5),123,105,64,93,53,25,,50,46,28,27,7,8,0.5,0.5
2026-02-06T1000,1294A,115.8518,28.687,南昌市,建工学校,细颗粒物(PM2.5),133,128,78,101,58,22,,44,42,34,30,7,8,1.2,0.9
2026-02-06T1000,1295A,115.8926,28.6425,南昌市,象湖,细颗粒物(PM2.5),138,,69,105,63,24,,42,41,26,23,7,8,1.2,1
2026-02-06T1000,3046A,115.9084,28.6062,南昌市,机电学校,细颗粒物(PM2.5),122,128,83,92,61,26,,44,42,33,27,5,5,0.9,0.7
2026-02-06T1000,3690A,115.9718,28.7032,南昌市,外国语学校,细颗粒物(PM2.5),133,122,74,101,64,,,40,40,34,31,12,13,1.1,0.9
2026-02-06T1000,4106A,115.7923,28.6873,南昌市,工业二路,细颗粒物(PM2.5),123,113,79,93,57,36,,62,58,28,28,4,4,1.1,0.8
2026-02-06T1000,4192A,115.931587,28.686774,南昌市,南京东路235号,细颗粒物(PM2.5),118,107,74,89,57,25,,42,41,26,24,8,8,0.8,0.6
2026-02-06T1000,1906A,106.0791,30.8022,南充市,南充市委,细颗粒物(PM2.5),97,91,95,72,71,8,,4,3,26,31,4,4,1.0,0.9
2026-02-06T1000,1907A,106.1038,30.8215,南充市,南充炼油厂,细颗粒物(PM2.5),100,116,105,75,71,4,,1,1,28,31,6,6,1.1,0.9
2026-02-06T1000,4227A,106.108336,30.788436,南充市,梨树横街98号,细颗粒物(PM2.5),118,103,112,89,84,8,,3,3,31,37,6,6,1.0,0.9
2026-02-06T1000,4304A,106.1172,30.843,南充市,清泉寺北路188号,,,85,90,71,70,11,,9,9,18,23,3,3,,0.7
2026-02-06T1000,4305A,106.067,30.7616,南充市,同庆路1号,细颗粒物(PM2.5),97,98,94,72,71,3,,0,0,38,44,6,6,1.4,0.9
2026-02-06T1000,1151A,118.8033,32.1085,南京市,迈皋桥,,45,45,97,12,60,64,,76,70,22,34,5,8,0.1,0.4
2026-02-06T1000,1152A,118.7487,32.057,南京市,草场门,颗粒物(PM10),53,56,102,7,59,51,,58,55,19,36,4,9,0.5,1
2026-02-06T1000,1154A,118.770105,32.004342,南京市,中华门,颗粒物(PM10),53,56,107,3,65,69,,79,74,9,28,3,4,0.2,0.7
2026-02-06T1000,1155A,118.8059,32.0329,南京市,瑞金路,颗粒物(PM10),54,58,110,3,70,73,,81,77,2,23,4,4,0.4,0.7
2026-02-06T1000,1156A,118.7946,32.0774,南京市,玄武湖,颗粒物(PM10),51,51,100,7,63,68,,80,75,16,36,3,5,0.3,0.7
2026-02-06T1000,1157A,118.6415,32.0964,南京市,浦口,颗粒物(PM10),53,55,111,3,66,68,,76,71,14,22,4,5,0.2,0.5
2026-02-06T1000,1158A,118.730129,32.000956,南京市,奥体中心,颗粒物(PM10),51,52,110,3,66,74,,84,79,8,24,4,7,0.2,0.6
2026-02-06T1000,1159A,118.9072,32.1047,南京市,仙林大学城,颗粒物(PM10),52,53,110,3,65,71,,76,72,10,34,5,7,0.3,0.7
2026-02-06T1000,3422A,118.8443,31.919,南京市,江宁彩虹桥,颗粒物(PM10),59,68,113,3,60,68,,84,77,14,32,4,4,0.5,0.9
2026-02-06T1000,3427A,118.8497,32.3599,南京市,六合雄州,,25,25,129,3,69,62,,72,67,11,26,1,3,0.4,0.8
2026-02-06T1000,4086A,118.7641,32.0841,南京市,新模范马路66号,颗粒物(PM10),57,63,114,3,75,88,,101,93,2,24,3,4,0.8,1
2026-02-06T1000,4249A,118.8707617,31.34017673,南京市,汶溪路181号,颗粒物(PM10),63,75,105,6,73,59,,73,70,16,34,2,5,0.5,1.1
2026-02-06T1000,4312A,119.019,31.6512,南京市,中山西路1号,颗粒物(PM10),58,66,99,3,69,60,,73,69,14,28,4,4,0.5,1
2026-02-06T1000,1401A,108.3098,22.788,南宁市,二十一中,,39,38,43,27,28,23,,33,28,29,21,4,4,0.7,0.6
2026-02-06T1000,1402A,108.3135,22.8529,南宁市,北湖,,42,38,53,29,34,38,,27,26,25,27,4,8,0.7,0.7
2026-02-06T1000,1403A,108.3205,22.8222,南宁市,市监测站,,39,28,41,27,26,26,,41,34,33,23,7,6,0.9,0.8
2026-02-06T1000,1404A,108.3828,22.8038,南宁市,大自然花园,,40,40,39,24,22,38,,54,48,27,16,6,6,0.7,0.6
2026-02-06T1000,1406A,108.2397,22.8462,南宁市,区农职院,,42,42,51,21,27,38,,12,12,26,31,5,4,1.0,1
2026-02-06T1000,1407A,108.3285,22.7356,南宁市,英华嘉园,,46,46,45,30,28,29,,30,30,28,27,5,5,0.6,0.5
2026-02-06T1000,3401A,108.4829,22.762,南宁市,红星社区,细颗粒物(PM2.5),53,50,40,37,26,28,,39,32,26,15,5,4,0.8,0.8
2026-02-06T1000,4132A,108.2927,23.1477,南宁市,起凤路9号,,35,35,44,22,31,49,,47,46,18,18,3,2,0.6,0.6
2026-02-06T1000,4221A,108.2177,22.7774,南宁市,乐贤路16号,,,,41,,26,,,26,22,29,27,5,3,0.9,0.9
2026-02-06T1000,2332A,118.1682,26.6371,南平市,南平市监测站,颗粒物(PM10),59,67,41,37,24,40,,9,9,24,31,10,4,0.5,0.6
2026-02-06T1000,2334A,118.1757,26.6276,南平市,南平七中,,,45,35,31,19,,,5,3,,27,,3,,0.6
2026-02-06T1000,1168A,120.9056,31.9669,南通市,狼山街道,颗粒物(PM10),69,87,120,3,74,71,,84,77,14,39,2,6,0.2,0.6
2026-02-06T1000,1170A,120.8635,32.0231,南通市,城中,颗粒物(PM10),75,100,130,7,83,74,,86,80,4,28,3,6,0.3,0.8
2026-02-06T1000,1171A,120.9376,31.9301,南通市,星湖花园,颗粒物(PM10),73,95,112,6,69,75,,90,82,14,37,3,7,0.3,0.8
2026-02-06T1000,1172A,120.8053,32.046,南通市,紫琅学院,颗粒物(PM10),79,108,133,9,79,70,,81,76,5,35,2,6,0.6,1
2026-02-06T1000,3291A,121.0631,32.0644,南通市,通州监测站,颗粒物(PM10),70,90,117,3,76,78,,88,83,12,34,2,6,0.3,0.8
2026-02-06T1000,3432A,120.9348,31.9874,南通市,环境教育馆,颗粒物(PM10),73,95,117,3,80,69,,82,76,11,38,3,7,0.4,0.9
2026-02-06T1000,4091A,120.8692,31.9885,南通市,洪江路,颗粒物(PM10),64,78,110,6,79,65,,78,72,14,46,3,6,0.3,0.8
2026-02-06T1000,2404A,112.5338,33.0086,南阳市,瓦房庄,颗粒物(PM10),93,135,138,53,70,52,,60,56,16,22,5,7,0.8,0.9
2026-02-06T1000,2405A,112.5002,32.9734,南阳市,汉画馆,颗粒物(PM10),99,148,155,69,93,52,,61,56,18,27,8,9,0.7,0.9
2026-02-06T1000,2406A,112.5778,33.0144,南阳市,气象站,颗粒物(PM10),109,167,164,46,69,49,,55,51,17,22,6,8,0.8,0.9
2026-02-06T1000,2407A,112.548,32.9687,南阳市,理工学院,颗粒物(PM10),104,157,155,59,80,48,,55,51,20,28,7,8,0.7,0.9
2026-02-06T1000,4008A,112.5233,32.9921,南阳市,卧龙区政府,颗粒物(PM10),96,141,152,59,78,48,,57,53,17,24,6,8,0.8,0.9
2026-02-06T1000,1234A,121.8352,29.9111,宁波市,区环保大楼,颗粒物(PM10),57,64,99,33,49,74,,49,49,34,77,5,9,0.6,0.6
2026-02-06T1000,1235A,121.5595,29.8208,宁波市,万里学院,,47,47,86,25,60,86,,79,79,18,44,3,7,0.7,0.9
2026-02-06T1000,1236A,121.713,29.9564,宁波市,龙赛医院,,28,28,77,13,47,77,,75,75,19,58,2,4,0.6,0.7
2026-02-06T1000,1240A,121.5855,29.8635,宁波市,太古小学,,39,39,87,20,58,81,,81,81,16,42,2,6,0.6,0.7
2026-02-06T1000,1241A,121.5239,29.8673,宁波市,市环境监测中心,颗粒物(PM10),53,55,94,19,60,78,,76,76,13,36,2,5,0.5,0.6
2026-02-06T1000,2871A,121.6156,29.9015,宁波市,万里国际学校,,48,48,89,20,63,79,,81,81,19,51,3,7,0.5,0.7
2026-02-06T1000,3710A,121.5593,29.8976,宁波市,白沙活动中心,颗粒物(PM10),54,58,83,19,66,79,,78,78,20,41,5,7,0.3,0.5
2026-02-06T1000,4095A,121.8962,29.7529,宁波市,中科路88号,细颗粒物(PM2.5),67,52,65,48,54,90,,70,70,18,49,4,7,0.6,0.7
2026-02-06T1000,2341A,119.5387,26.6611,宁德市,宁德市监测站,,38,38,47,26,28,56,,72,66,27,34,3,5,0.7,0.9
2026-02-06T1000,3209A,119.5231,26.6562,宁德市,宁德一中,颗粒物(PM10),51,51,45,30,29,60,,74,67,27,23,3,4,0.4,0.7
2026-02-06T1000,2618A,98.859,25.8541,怒江傈僳族自治州,州监测站,,34,34,32,13,18,45,,51,47,10,8,6,6,0.4,0.3
2026-02-06T1000,2619A,98.8607,25.8168,怒江傈僳族自治州,泸水一中,,,27,29,22,21,,,33,33,26,16,,4,0.7,0.7
2026-02-06T1000,1888A,101.6891,26.571,攀枝花市,弄弄坪,颗粒物(PM10),75,100,46,47,22,20,,32,24,60,29,41,26,1.3,1.2
2026-02-06T1000,1889A,101.577,26.5914,攀枝花市,河门口,颗粒物(PM10),61,71,43,28,18,20,,22,18,30,23,18,15,0.7,0.5
2026-02-06T1000,1891A,101.7365,26.4986,攀枝花市,仁和,,38,34,21,26,18,32,,42,37,28,17,9,8,0.8,0.6
2026-02-06T1000,2835A,101.7222,26.567,攀枝花市,四十中小,,46,46,35,30,16,8,,34,22,60,31,19,16,1.4,1
2026-02-06T1000,1604A,122.0303,41.1489,盘锦市,开发区,,27,27,107,13,10,69,,66,66,10,9,4,3,0.2,0.1
2026-02-06T1000,1605A,122.0486,41.0883,盘锦市,兴隆台,,21,18,110,13,10,66,,64,64,12,12,6,5,0.4,0.4
2026-02-06T1000,1606A,121.8297,41.1026,盘锦市,新生街道,,21,14,61,13,6,66,,54,54,8,13,6,6,0.1,0
2026-02-06T1000,1832A,113.3257,33.7423,平顶山市,新华旅馆,颗粒物(PM10),79,107,141,30,69,43,,56,52,24,28,6,9,0.4,0.6
2026-02-06T1000,1833A,113.2917,33.737,平顶山市,规划设计院,颗粒物(PM10),70,89,144,37,70,46,,56,53,14,18,8,10,0.3,0.6
2026-02-06T1000,1834A,113.182,33.7738,平顶山市,平顶山工学院,颗粒物(PM10),71,92,131,34,63,48,,60,58,18,20,9,11,0.5,0.6
2026-02-06T1000,3594A,112.8736,33.9068,平顶山市,石龙区,颗粒物(PM10),80,109,132,43,56,58,,60,60,10,15,7,8,0.7,0.7
2026-02-06T1000,4116A,113.284,33.7139,平顶山市,姚电大道23号,颗粒物(PM10),75,99,149,42,74,47,,60,56,19,25,6,9,0.5,0.6
2026-02-06T1000,2656A,106.6633,35.5338,平凉市,聚贤嘉苑,颗粒物(PM10),73,96,68,36,31,74,,65,65,10,14,15,10,0.5,0.5
2026-02-06T1000,2657A,106.7021,35.5307,平凉市,博物馆,,,86,75,38,37,,,59,59,,26,,11,,0.7
2026-02-06T1000,2348A,113.8384,27.6436,萍乡市,中医院,细颗粒物(PM2.5),63,47,95,45,63,5,,2,2,29,33,6,10,1.9,1.3
2026-02-06T1000,2350A,113.8677,27.6438,萍乡市,市环保局,细颗粒物(PM2.5),55,54,90,39,64,1,,1,1,27,32,35,33,1.1,0.7
2026-02-06T1000,2351A,113.8663,27.6202,萍乡市,安源区政府,细颗粒物(PM2.5),57,61,98,40,63,4,,3,3,20,27,3,8,0.4,0.6
2026-02-06T1000,4107A,113.8686,27.6668,萍乡市,联洪村委会,细颗粒物(PM2.5),63,57,91,45,61,3,,2,2,29,31,4,8,0.7,0.7
2026-02-06T1000,2319A,119.0142,25.4324,莆田市,荔城区仓后路,细颗粒物(PM2.5),65,77,68,47,46,39,,29,28,27,34,/,/,/,/
2026-02-06T1000,2320A,119.0016,25.4553,莆田市,莆田市监测站,"颗粒物(PM10),细颗粒物(PM2.5)",65,79,52,47,40,29,,38,28,32,23,4,7,0.7,0.6
2026-02-06T1000,2321A,119.112,25.4561,莆田市,涵江区六中,细颗粒物(PM2.5),62,66,55,44,36,38,,16,16,29,33,/,/,0.7,0.7
2026-02-06T1000,2322A,119.1014,25.3215,莆田市,秀屿区政府,颗粒物(PM10),51,51,50,27,35,74,,56,56,17,23,5,6,0.8,0.7
2026-02-06T1000,2392A,115.0312,35.7636,濮阳市,环保局,,50,50,111,8,51,54,,53,51,15,26,8,10,0.5,0.8
2026-02-06T1000,3021A,115,35.7667,濮阳市,濮水河管理处,颗粒物(PM10),55,60,132,11,52,53,,50,49,15,21,7,9,0.5,0.7
2026-02-06T1000,4118A,115.0552,35.7816,濮阳市,中原东路68号,颗粒物(PM10),62,74,143,16,52,54,,52,50,18,27,6,9,0.5,0.7
2026-02-06T1000,4216A,115.0923632,35.76857718,濮阳市,任丘路479号,颗粒物(PM10),56,62,123,15,55,47,,51,50,19,26,8,10,0.3,0.7
2026-02-06T1000,2601A,100.9801,22.7634,普洱市,市环保局,颗粒物(PM10),52,54,50,30,20,30,,37,34,19,10,4,4,0.6,0.5
2026-02-06T1000,2602A,100.9763,22.8237,普洱市,普洱第二中学,颗粒物(PM10),57,63,47,21,23,25,,14,11,28,22,5,5,0.7,0.5
2026-02-06T1000,3345A,131.0413,45.7795,七台河市,中波台,,37,37,32,12,17,64,,63,62,6,9,7,7,0.4,0.4
2026-02-06T1000,3637A,131.0136,45.7688,七台河市,人民广场,颗粒物(PM10),51,51,37,13,14,65,,63,61,9,14,7,7,0.4,0.4
2026-02-06T1000,3684A,130.8639,45.8144,七台河市,新建矿广场,,,39,35,21,15,63,,61,59,5,9,5,5,,0.2
2026-02-06T1000,1779A,123.9307,47.3641,齐齐哈尔市,安居小区,,,,41,,9,,,72,,,8,,8,,0.3
2026-02-06T1000,1780A,123.9497,47.3389,齐齐哈尔市,中心广场,,20,18,28,9,8,61,,58,57,8,8,6,5,0.4,0.4
2026-02-06T1000,1781A,123.9483,47.3229,齐齐哈尔市,农牧车辆厂,,29,29,31,3,9,60,,57,56,5,6,4,4,0.3,0.3
2026-02-06T1000,1783A,123.9442,47.2994,齐齐哈尔市,市环境监测站,,20,20,45,3,7,64,,61,60,6,7,4,4,0.4,0.4
2026-02-06T1000,3662A,123.6341,47.2079,齐齐哈尔市,富区青少年活动中心,,33,33,55,10,9,65,,62,60,8,7,5,5,0.4,0.4
2026-02-06T1000,2591A,107.9765,26.5724,黔东南苗族侗族自治州,市环境监测站,,32,,29,22,24,57,,50,50,10,13,2,3,0.7,0.8
2026-02-06T1000,2881A,107.8909,26.531,黔东南苗族侗族自治州,凯里学院,,27,27,32,15,18,57,,48,48,12,15,3,3,0.6,0.7
2026-02-06T1000,2593A,107.5223,26.2371,黔南布依族苗族自治州,小围寨,,15,14,25,10,23,32,,25,25,7,11,5,6,0.9,1
2026-02-06T1000,3538A,107.5175,26.2977,黔南布依族苗族自治州,沙坝,,19,19,33,7,24,31,,31,31,12,13,4,6,0.9,1
2026-02-06T1000,2589A,104.9022,25.0943,黔西南布依族苗族自治州,场坝街,细颗粒物(PM2.5),74,68,66,54,54,18,,35,26,21,13,35,12,0.9,0.9
2026-02-06T1000,2590A,104.8812,25.0994,黔西南布依族苗族自治州,坪东大道,细颗粒物(PM2.5),72,62,61,52,51,23,,31,21,17,16,14,5,1.0,1.1
2026-02-06T1000,2502A,108.6238,21.9667,钦州市,市环保站,颗粒物(PM10),58,66,56,35,30,43,,39,38,19,24,2,4,0.5,0.5
2026-02-06T1000,2503A,108.655,21.9481,钦州市,沙埠小学,颗粒物(PM10),66,82,59,36,26,37,,12,12,20,33,3,4,0.4,0.4
2026-02-06T1000,2504A,108.5989,21.7435,钦州市,港区一小,颗粒物(PM10),56,61,54,28,22,29,,25,22,29,36,1,2,0.5,0.6
2026-02-06T1000,3404A,108.5959,21.9634,钦州市,北职校,颗粒物(PM10),53,55,43,29,21,39,,34,34,20,22,2,2,0.6,0.6
2026-02-06T1000,1046A,119.5247,39.9346,秦皇岛市,建设大厦,,22,21,61,3,8,69,,68,68,7,13,8,6,0.4,0.3
2026-02-06T1000,3132A,119.5979,39.938,秦皇岛市,文明里,,36,36,67,3,8,70,,66,66,7,18,10,10,0.3,0.3
2026-02-06T1000,4066A,119.7458,39.9952,秦皇岛市,南园路157号,,,22,62,3,10,,,52,51,19,24,,7,0.4,0.3
2026-02-06T1000,4067A,119.5131,39.8858,秦皇岛市,翠岛大街1号,,28,28,52,3,6,67,,65,65,9,15,9,8,0.4,0.3
2026-02-06T1000,4198A,119.509013,39.825305,秦皇岛市,北戴河轮滑馆,,23,13,60,3,7,71,,68,68,8,11,8,7,0.3,0.2
2026-02-06T1000,1310A,120.404,36.0625,青岛市,市南区东部子站,颗粒物(PM10),58,66,128,9,48,66,,67,65,7,20,9,11,0.5,0.6
2026-02-06T1000,1311A,120.362344,36.10282,青岛市,四方区子站,颗粒物(PM10),59,68,133,11,53,66,,70,68,9,20,4,6,0.4,0.6
2026-02-06T1000,1312A,120.294373,36.054183,青岛市,市南区西部子站,颗粒物(PM10),56,61,135,11,57,59,,59,58,10,26,5,6,0.3,0.7
2026-02-06T1000,1313A,120.4581,36.0858,青岛市,崂山区子站,颗粒物(PM10),52,53,114,7,43,68,,69,66,11,22,10,11,0.2,0.6
2026-02-06T1000,1315A,120.3945,36.3083,青岛市,城阳区子站,,41,41,127,9,48,72,,69,69,13,24,6,8,0.5,0.7
2026-02-06T1000,3642A,120.3454,36.0735,青岛市,市北区南部,颗粒物(PM10),59,68,137,11,56,60,,63,61,13,26,3,5,0.5,0.8
2026-02-06T1000,3643A,120.3897,36.18,青岛市,李沧区北部,颗粒物(PM10),54,58,141,11,49,65,,64,63,8,23,10,10,0.3,0.6
2026-02-06T1000,4110A,120.5222,36.4089,青岛市,盟旺路653号,,45,45,119,6,40,72,,65,65,12,19,2,4,0.5,0.7
2026-02-06T1000,4290A,120.196923,35.954556,青岛市,珠江路669号,颗粒物(PM10),58,66,141,17,51,63,,57,57,12,34,8,6,0.2,0.5
2026-02-06T1000,4291A,120.0424,35.8656,青岛市,黄岛区人民政府广场,颗粒物(PM10),60,70,127,8,45,64,,64,64,14,24,7,10,0.3,0.5
2026-02-06T1000,1703A,113.0218,23.7086,清远市,凤城街办,细颗粒物(PM2.5),75,77,74,55,52,37,,20,20,56,50,/,/,/,/
2026-02-06T1000,3025A,113.0479,23.6343,清远市,技师学院,颗粒物(PM10),67,83,82,46,44,38,,12,12,54,56,11,6,0.6,0.6
2026-02-06T1000,3318A,112.9898,23.7403,清远市,清新太和,,,67,57,41,34,47,,38,28,54,36,,10,0.9,0.7
2026-02-06T1000,3455A,113.076,23.72,清远市,清城东城,颗粒物(PM10),60,70,64,42,35,44,,28,27,49,42,/,/,/,/
2026-02-06T1000,2661A,107.6325,35.7357,庆阳市,庆阳五中,,,,78,,43,,,73,69,18,23,,11,,0.7
2026-02-06T1000,2662A,107.6361,35.7067,庆阳市,市环保局,颗粒物(PM10),70,90,78,27,44,65,,74,71,16,18,7,8,0.5,0.5
2026-02-06T1000,1916A,103.7897,25.5036,曲靖市,环境监测站,,40,40,30,22,14,45,,59,55,61,14,22,5,0.6,0.3
2026-02-06T1000,1917A,103.8013,25.5357,曲靖市,烟厂办公区,颗粒物(PM10),55,59,32,17,15,34,,56,49,39,13,14,5,0.6,0.3
2026-02-06T1000,3376A,103.7926,25.4651,曲靖市,南苑二区,,39,39,26,22,13,60,,57,55,20,12,5,4,0.4,0.2
2026-02-06T1000,3377A,103.7442,25.5259,曲靖市,曲靖师范学院,颗粒物(PM10),55,59,33,22,15,28,,62,52,80,14,14,6,0.7,0.3
2026-02-06T1000,1264A,118.8694,28.94,衢州市,环保大楼,,40,33,89,28,62,87,,56,56,16,32,/,/,/,/
2026-02-06T1000,1266A,118.8622,28.9809,衢州市,衢州学院,,45,34,80,31,58,83,,50,50,13,35,3,5,0.6,0.6
2026-02-06T1000,4097A,118.9646,28.9832,衢州市,衢州三中,,33,23,75,23,59,81,,50,50,20,32,5,6,0.8,0.8
2026-02-06T1000,1611A,118.5818,24.9116,泉州市,涂山街,细颗粒物(PM2.5),67,,51,48,34,53,,29,29,25,37,6,4,0.8,0.7
2026-02-06T1000,1612A,118.597,24.8976,泉州市,津头埔,细颗粒物(PM2.5),72,,54,52,37,52,,22,22,21,34,5,5,0.7,0.7
2026-02-06T1000,1613A,118.6669,24.9422,泉州市,万安,细颗粒物(PM2.5),75,,50,55,34,51,,18,18,20,37,6,4,0.6,0.6
2026-02-06T1000,4105A,118.6355,24.9148,泉州市,霞新路6号,细颗粒物(PM2.5),67,51,48,48,32,54,,14,14,19,41,/,/,0.7,0.6
2026-02-06T1000,2626A,88.8873,29.2723,日喀则市,日喀则监测站,,25,24,25,17,22,15,,28,25,18,15,12,11,0.7,0.6
2026-02-06T1000,3726A,88.8775,29.2425,日喀则市,林业技术推广中心,,26,26,18,18,12,28,,36,32,9,8,1,2,0.5,0.4
2026-02-06T1000,1659A,119.4711,35.421,日照市,监测站,颗粒物(PM10),59,68,121,7,49,67,,65,64,7,20,7,9,0.5,0.7
2026-02-06T1000,1660A,119.523,35.4216,日照市,市政府广场,颗粒物(PM10),54,58,114,6,51,71,,70,68,15,25,7,10,0.3,0.5
2026-02-06T1000,1661A,119.5511,35.4113,日照市,港务局,颗粒物(PM10),62,73,131,8,58,67,,66,65,11,24,5,8,0.3,0.6
2026-02-06T1000,3507A,119.5326,35.4627,日照市,职业技术学院,颗粒物(PM10),59,68,121,6,51,71,,68,67,11,23,7,9,0.5,0.8
2026-02-06T1000,3604A,119.3267,35.1043,日照市,岚山环保分局,颗粒物(PM10),70,90,148,22,64,51,,56,53,27,41,30,25,2.5,2.2
2026-02-06T1000,1835A,111.1922,34.7752,三门峡市,市政府,颗粒物(PM10),72,94,110,41,61,66,,62,62,20,33,10,15,0.6,0.8
2026-02-06T1000,1836A,111.1588,34.794,三门峡市,开发区,颗粒物(PM10),80,109,130,46,64,60,,55,55,19,34,9,12,0.6,0.8
2026-02-06T1000,3039A,111.1911,34.7829,三门峡市,三门峡市第一小学,颗粒物(PM10),73,95,124,38,62,63,,59,59,18,37,12,18,0.6,0.8
2026-02-06T1000,3598A,111.1031,34.719,三门峡市,富达温泉假日酒店,,,,131,,66,,,59,58,,39,,19,,0.8
2026-02-06T1000,2324A,117.621,26.2626,三明市,三钢,,43,38,32,30,30,41,,18,18,24,28,15,7,0.8,0.7
2026-02-06T1000,2325A,117.6352,26.2714,三明市,三明二中,,42,33,33,29,25,37,,18,18,31,29,10,5,1.3,1
2026-02-06T1000,2326A,117.6028,26.2377,三明市,三元区政府,,38,31,35,26,22,34,,19,19,26,27,10,6,0.9,0.7
2026-02-06T1000,1877A,109.4962,18.2682,三亚市,河西子站,,23,23,23,7,8,65,,36,34,7,14,3,3,0.4,0.4
2026-02-06T1000,3540A,109.7348,18.3443,三亚市,君悦子站,,24,24,26,10,10,41,,27,27,13,8,3,3,0.4,0.4
2026-02-06T1000,4135A,109.1714,18.3739,三亚市,城东小学站,,17,16,27,10,9,52,,32,32,6,8,/,/,/,/
2026-02-06T1000,2624A,91.7592,29.234,山南市,山南监测站,,17,17,20,8,5,36,,51,47,14,5,4,4,0.6,0.4
2026-02-06T1000,2625A,91.7701,29.2436,山南市,山南人民医院,,28,28,27,8,7,34,,56,51,18,8,6,5,0.7,0.6
2026-02-06T1000,1674A,116.6795,23.3666,汕头市,金平子站,细颗粒物(PM2.5),65,76,53,47,34,50,,15,15,58,40,15,7,1.2,0.8
2026-02-06T1000,1675A,116.7248,23.3632,汕头市,龙湖子站,细颗粒物(PM2.5),69,71,56,50,40,51,,24,24,49,35,15,12,/,/
2026-02-06T1000,1676A,116.7257,23.2774,汕头市,濠江子站,颗粒物(PM10),61,72,51,29,32,67,,32,32,35,37,15,10,/,/
2026-02-06T1000,1677A,116.7518,23.4712,汕头市,澄海子站,,46,46,59,27,34,59,,43,43,28,28,8,8,1.0,0.8
2026-02-06T1000,1678A,116.6088,23.2539,汕头市,潮阳子站,细颗粒物(PM2.5),82,69,46,60,39,69,,37,37,32,26,11,8,0.8,0.7
2026-02-06T1000,3444A,116.4539,23.2684,汕头市,潮南峡山,细颗粒物(PM2.5),94,103,59,70,39,56,,29,29,32,25,10,7,1.0,0.8
2026-02-06T1000,3624A,116.4069,23.2533,汕头市,潮南子站,细颗粒物(PM2.5),75,90,76,55,44,60,,22,22,27,29,10,7,/,/
2026-02-06T1000,1693A,115.3653,22.7751,汕尾市,市环保局,,42,42,41,24,35,68,,78,72,32,16,5,5,1.0,0.9
2026-02-06T1000,1695A,115.362,22.7926,汕尾市,新城中学,,42,42,48,22,33,66,,70,57,34,20,7,6,0.9,0.7
2026-02-06T1000,2645A,109.9155,33.8714,商洛市,监测站,颗粒物(PM10),58,66,54,29,27,43,,44,42,17,20,5,5,0.9,0.7
2026-02-06T1000,3045A,109.9647,33.8486,商洛市,商州区中学,,,,55,,23,,,24,21,,25,6,5,,0.5
2026-02-06T1000,2408A,115.6701,34.4283,商丘市,环境监测站,颗粒物(PM10),53,56,150,13,94,61,,60,60,13,28,3,3,0.1,0.5
2026-02-06T1000,2409A,115.6458,34.4047,商丘市,粮食局,颗粒物(PM10),53,56,145,15,90,57,,56,56,17,29,3,3,0.3,0.7
2026-02-06T1000,3171A,115.6069,34.4465,商丘市,梁园区档案局,颗粒物(PM10),51,52,144,9,82,60,,62,62,12,25,3,4,0.2,0.7
2026-02-06T1000,4119A,115.6701,34.3767,商丘市,北海东路185号,,39,39,145,13,85,62,,61,61,12,26,4,5,0.4,0.8
2026-02-06T1000,4120A,115.6172,34.3704,商丘市,中山大街3号,,40,40,159,12,94,62,,60,60,14,28,3,3,0.2,0.6
2026-02-06T1000,1141A,121.401,31.2382,上海市,普陀,,39,39,100,15,73,71,,89,86,16,60,5,9,0.5,0.8
2026-02-06T1000,1142A,121.4774,31.2043,上海市,十五厂,,40,40,104,13,69,73,,88,88,16,61,6,9,0.6,1
2026-02-06T1000,1143A,121.4673,31.3011,上海市,虹口,,33,33,102,12,73,66,,78,77,20,66,6,9,0.1,0.5
2026-02-06T1000,1147A,121.4253,31.226,上海市,静安监测站,,36,36,94,12,68,74,,90,88,22,60,6,9,0.5,0.9
2026-02-06T1000,1148A,121.7029,31.1905,上海市,浦东川沙,,35,35,107,13,81,77,,90,88,15,58,7,10,0.5,0.8
2026-02-06T1000,1149A,121.5339,31.229,上海市,浦东新区监测站,,37,37,101,21,82,72,,85,84,22,67,5,8,0.7,1
2026-02-06T1000,1150A,121.5776,31.2038,上海市,浦东张江,,37,37,103,14,74,72,,85,84,22,66,6,10,0.1,0.4
2026-02-06T1000,3265A,121.4242,31.3303,上海市,宝山庙行,,40,40,112,10,76,65,,81,78,20,62,7,10,0.4,0.7
2026-02-06T1000,3266A,121.8789,31.4662,上海市,崇明上实东滩,,35,35,94,13,74,80,,96,90,8,33,3,5,0.2,0.6
2026-02-06T1000,3268A,121.316,31.2839,上海市,嘉定南翔,,37,37,103,14,75,69,,84,83,20,61,3,6,0.5,0.8
2026-02-06T1000,3269A,121.3357,30.7455,上海市,金山新城,,23,22,81,12,68,71,,76,76,17,57,7,8,0.7,0.9
2026-02-06T1000,3270A,121.4996,31.0741,上海市,闵行浦江,,32,32,99,13,76,72,,86,86,16,61,6,9,0.4,0.9
2026-02-06T1000,3271A,121.2886,31.1663,上海市,青浦徐泾,,36,36,106,14,75,74,,94,91,23,63,4,6,0.4,0.7
2026-02-06T1000,3272A,121.2193,31.0382,上海市,松江图书馆,,32,32,106,14,76,71,,86,85,15,62,5,7,0.5,0.9
2026-02-06T1000,3273A,121.3904,31.206,上海市,长宁仙霞,,37,37,99,14,67,72,,90,87,20,57,6,9,0.7,1
2026-02-06T1000,3274A,121.7964,31.0507,上海市,浦东惠南,,31,31,96,13,76,78,,90,90,12,61,4,6,0.5,0.9
2026-02-06T1000,3544A,121.4891,30.925,上海市,奉贤南桥新城,,31,31,106,14,79,76,,86,86,15,61,2,4,0.3,0.6
2026-02-06T1000,4183A,121.417401,31.16637,上海市,冠生园路458号,,33,33,94,17,71,71,,85,82,22,65,5,6,0.4,0.7
2026-02-06T1000,4205A,121.541914,31.268301,上海市,宁武路151号,,38,38,114,14,82,66,,83,82,23,64,5,7,0.5,0.9
2026-02-06T1000,2382A,117.9758,28.4439,上饶市,市监测站,,46,46,95,26,56,50,,32,32,19,52,4,11,/,/
2026-02-06T1000,2383A,117.9521,28.4637,上饶市,凤凰光学,,45,45,90,20,60,40,,25,25,21,52,7,12,1.1,1.3
2026-02-06T1000,3685A,117.897,28.4316,上饶市,双创科技城,颗粒物(PM10),54,57,98,29,66,46,,24,24,22,61,4,8,1.1,1.4
2026-02-06T1000,4211A,118.190438,28.444845,上饶市,裕丰大道,,48,48,104,18,71,50,,41,40,26,46,10,20,1.1,1.2
2026-02-06T1000,1669A,113.5821,24.7733,韶关市,市八中,细颗粒物(PM2.5),99,104,104,74,63,28,,7,7,44,51,12,11,1.1,1
2026-02-06T1000,1671A,113.5916,24.7973,韶关市,园林处,细颗粒物(PM2.5),99,79,76,74,60,39,,7,7,36,48,9,10,/,/
2026-02-06T1000,1673A,113.5971,24.6864,韶关市,曲江监测站,细颗粒物(PM2.5),85,105,74,63,45,60,,20,20,48,42,15,7,1.3,1
2026-02-06T1000,2809A,113.6668,24.7756,韶关市,大学路288号,细颗粒物(PM2.5),117,91,64,88,49,49,,13,13,30,25,,6,/,/
2026-02-06T1000,3622A,113.5556,24.8082,韶关市,碧湖山庄,细颗粒物(PM2.5),100,106,97,75,66,43,,25,23,27,28,7,8,1.0,0.9
2026-02-06T1000,2464A,111.5277,27.2442,邵阳市,市化工厂,,,35,105,,87,28,,27,27,11,18,6,7,0.9,1.2
2026-02-06T1000,2466A,111.4327,27.2276,邵阳市,市环保局,,40,,79,28,77,45,,42,42,17,21,8,10,1.0,1.5
2026-02-06T1000,4218A,111.446,27.2472,邵阳市,北塔二期4-26地块,,40,,83,28,71,40,,37,37,11,18,6,8,1.0,1.5
2026-02-06T1000,4219A,111.4739,27.2282,邵阳市,邵水西路287号,,39,28,82,27,80,46,,39,39,11,16,8,11,1.1,1.5
2026-02-06T1000,1247A,120.6053,29.9927,绍兴市,城东开发委,,42,41,105,29,82,76,,63,63,19,55,7,9,0.5,0.7
2026-02-06T1000,2921A,120.5482,30.0003,绍兴市,树下王站,细颗粒物(PM2.5),65,,111,47,94,75,,64,64,14,50,6,7,0.5,0.7
2026-02-06T1000,3408A,120.5685,29.936,绍兴市,绍兴中专,细颗粒物(PM2.5),54,51,104,38,80,80,,67,67,18,46,7,8,0.5,0.6
2026-02-06T1000,3409A,120.4905,30.086,绍兴市,柯桥区政府,细颗粒物(PM2.5),69,70,97,50,89,75,,70,70,27,60,5,6,0.7,1
2026-02-06T1000,3410A,120.8751,30.0249,绍兴市,重华小学,,40,39,100,28,84,72,,63,63,16,49,6,8,0.4,0.6
2026-02-06T1000,3411A,120.837,30.0137,绍兴市,上虞中学,,48,47,110,33,86,75,,70,70,18,49,6,8,0.7,0.9
2026-02-06T1000,3560A,120.4715,30.0414,绍兴市,柯桥妇保,细颗粒物(PM2.5),69,55,103,50,94,77,,73,73,20,51,5,6,0.6,0.8
2026-02-06T1000,3658A,120.6156,30.0762,绍兴市,袍江中学,,28,25,100,19,75,72,,59,59,17,57,7,8,0.5,0.7
2026-02-06T1000,1356A,114.0948,22.5506,深圳市,通心岭子站,,45,45,32,27,21,30,,6,6,52,47,2,2,0.5,0.4
2026-02-06T1000,1357A,114.1153,22.5713,深圳市,洪湖,颗粒物(PM10),57,63,35,34,18,17,,4,4,75,49,5,5,0.7,0.6
2026-02-06T1000,1358A,113.9823,22.5398,深圳市,华侨城,,34,34,38,22,22,20,,7,7,57,76,/,/,/,/
2026-02-06T1000,1359A,113.9181,22.517,深圳市,南海子站,,42,42,56,22,34,26,,6,6,48,88,7,9,1.0,0.9
2026-02-06T1000,1360A,114.2345,22.565,深圳市,盐田,,47,47,18,29,9,7,,45,40,89,46,10,9,0.5,0.4
2026-02-06T1000,1363A,114.4911,22.5381,深圳市,南澳,,30,26,12,21,9,73,,47,47,10,11,/,/,/,/
2026-02-06T1000,1364A,114.41,22.6346,深圳市,葵涌,,27,27,16,10,7,24,,25,23,37,21,7,8,0.7,0.6
