timepoint,stationcode,longitude,latitude,area,positionname,primarypollutant,aqi,pm10,pm10_24h,pm2_5,pm2_5_24h,o3,o3_24h,o3_8h,o3_8h_24h,no2,no2_24h,so2,so2_24h,co,co_24h
2025-06-12T0800,2566A,102.1879,31.914,阿坝藏族羌族自治州,州农科所,,33,23,18,23,8,24,,34,34,33,9,15,12,0.9,0.5
2025-06-12T0800,2568A,102.2502,31.8896,阿坝藏族羌族自治州,马师校,,32,,20,22,19,13,,23,23,8,9,6,6,0.5,0.5
2025-06-12T0800,3994A,102.2165,31.9024,阿坝藏族羌族自治州,马尔康中学西区,,23,21,19,16,17,14,,26,26,8,6,5,5,0.5,0.5
2025-06-12T0800,2695A,80.292,41.1694,阿克苏地区,电视台,颗粒物(PM10),78,105,112,39,42,77,,86,86,15,15,2,6,0.3,0.3
2025-06-12T0800,2696A,80.2613,41.1551,阿克苏地区,艺术中心,,,,93,,35,,,62,,,15,,4,,0.5
2025-06-12T0800,2204A,105.6467,38.8363,阿拉善盟,西城区西花园,颗粒物(PM10),61,72,47,29,24,76,,111,111,30,12,6,7,0.7,0.5
2025-06-12T0800,2205A,105.6985,38.8411,阿拉善盟,蒙二幼,颗粒物(PM10),58,65,55,32,19,73,,99,99,20,8,10,11,0.4,0.3
2025-06-12T0800,2206A,105.724,38.8516,阿拉善盟,环保局新楼,颗粒物(PM10),64,78,48,28,18,103,,118,118,9,5,9,10,0.3,0.2
2025-06-12T0800,2708A,88.1264,47.8517,阿勒泰地区,市站,,20,18,24,14,5,45,,57,57,7,7,2,2,0.4,0.3
2025-06-12T0800,2630A,80.1161,32.5,阿里地区,阿里监测站,,20,13,13,10,9,63,,87,87,26,14,2,2,0.4,0.3
2025-06-12T0800,3192A,80.0903,32.5028,阿里地区,阿里藏医院,,33,17,19,7,8,105,,118,118,3,4,6,6,0.3,0.4
2025-06-12T0800,2642A,109.0318,32.6537,安康市,香溪洞,,29,29,39,19,18,46,,78,78,11,7,5,5,0.5,0.4
2025-06-12T0800,2644A,109.0072,32.6975,安康市,汉滨区检察院,,34,34,38,19,17,34,,46,46,11,9,6,8,0.5,0.5
2025-06-12T0800,4054A,109.0325,32.6913,安康市,市邮政管理局,,44,44,42,17,20,42,,48,48,14,12,10,7,0.8,0.7
2025-06-12T0800,2291A,117.0809,30.5177,安庆市,环科院,,28,21,24,19,16,53,,70,70,15,10,4,4,0.6,0.5
2025-06-12T0800,2292A,117.0331,30.5119,安庆市,马山宾馆,,,,20,,14,,,,,,10,,5,,0.5
2025-06-12T0800,2294A,116.9896,30.6145,安庆市,安庆大学,,36,,23,25,16,43,,65,65,14,8,4,4,0.6,0.5
2025-06-12T0800,3173A,117.0598,30.5351,安庆市,市人大,,,,24,,16,,,91,,,13,,4,,0.5
2025-06-12T0800,3122A,105.9606,26.2611,安顺市,伍家关,,41,41,43,26,22,68,,54,54,10,13,5,5,0.4,0.4
2025-06-12T0800,3123A,105.9408,26.2431,安顺市,凤凰山,细颗粒物(PM2.5),59,,46,42,36,79,,50,50,14,18,12,11,0.6,0.5
2025-06-12T0800,3124A,105.9439,26.2564,安顺市,金钟山,细颗粒物(PM2.5),54,46,37,38,29,83,,99,99,8,7,9,11,0.3,0.3
2025-06-12T0800,3125A,105.8983,26.2481,安顺市,娄家坡,细颗粒物(PM2.5),52,39,42,36,33,85,,71,71,10,10,10,9,0.5,0.5
2025-06-12T0800,1818A,114.4839,36.0621,安阳市,棉研所,,,,,,,,,,,,,,,,
2025-06-12T0800,1819A,114.3551,36.1017,安阳市,红庙街,,47,47,68,31,27,123,,127,127,2,3,2,3,0.5,0.4
2025-06-12T0800,1820A,114.361,36.0681,安阳市,银杏小区,细颗粒物(PM2.5),74,,55,54,41,123,,126,126,5,4,4,4,0.6,0.5
2025-06-12T0800,3141A,114.3922,36.0878,安阳市,信访局,,50,43,72,35,36,126,,128,128,18,6,2,3,0.6,0.5
2025-06-12T0800,3669A,114.4705,36.0637,安阳市,左辅环卫站,细颗粒物(PM2.5),67,76,77,48,30,119,,113,113,13,10,6,5,0.8,0.6
2025-06-12T0800,3703A,114.2917,36.0949,安阳市,安钢职工学校,细颗粒物(PM2.5),67,51,67,48,38,124,,122,122,8,4,8,5,0.7,0.6
2025-06-12T0800,1748A,123.044,41.1196,鞍山市,深沟寺,,37,18,26,9,14,116,,114,114,12,15,7,9,0.5,0.7
2025-06-12T0800,1749A,123.011,41.0931,鞍山市,太阳城,,37,18,20,8,9,116,,119,119,11,13,7,10,0.5,0.8
2025-06-12T0800,1750A,123.0485,41.1442,鞍山市,太平,,37,32,33,8,14,116,,112,112,13,17,9,11,0.5,0.8
2025-06-12T0800,1751A,122.9642,41.0971,鞍山市,铁西三道街,,,38,41,14,19,,,104,104,24,27,10,15,,1.2
2025-06-12T0800,1753A,123.022,41.0821,鞍山市,明达新区,,35,19,23,8,12,112,,116,116,11,13,8,12,0.4,0.7
2025-06-12T0800,1754A,123.1289,41.0228,鞍山市,千山,,,,20,,10,,,90,,,10,,4,,0.4
2025-06-12T0800,4201A,122.9446,41.0826,鞍山市,兴盛南路290号,,37,31,38,12,18,116,,110,110,22,29,12,16,0.8,1.2
2025-06-12T0800,2195A,107.4212,40.761,巴彦淖尔市,附二中,,35,35,51,10,19,65,,66,66,12,11,6,9,0.3,0.5
2025-06-12T0800,2196A,107.37,40.7372,巴彦淖尔市,市环保大楼,,29,29,50,12,18,79,,81,81,11,16,9,9,0.4,0.5
2025-06-12T0800,1956A,86.1472,41.7538,巴音郭楞蒙古自治州,孔雀公园,颗粒物(PM10),51,51,84,22,25,81,,104,104,19,8,12,9,0.3,0.2
2025-06-12T0800,1957A,86.1972,41.7166,巴音郭楞蒙古自治州,棉纺厂,颗粒物(PM10),55,59,111,7,22,91,,101,101,14,10,3,5,0.2,0.2
2025-06-12T0800,1958A,86.2357,41.7173,巴音郭楞蒙古自治州,经济开发区,,32,32,85,3,20,102,,105,105,4,5,8,9,0.2,0.2
2025-06-12T0800,2914A,106.7677,31.8794,巴中市,苏山坪,,32,29,27,20,17,100,,122,122,8,7,5,5,0.4,0.3
2025-06-12T0800,3181A,106.7768,31.8526,巴中市,市五中,,,,34,,18,,,106,,,12,,7,,0.5
2025-06-12T0800,3183A,106.7418,31.8654,巴中市,圣泉水务公司,,33,33,32,21,18,61,,54,54,20,24,5,5,0.5,0.5
2025-06-12T0800,3616A,106.7616,31.8344,巴中市,市中心医院,,37,37,34,23,21,31,,33,33,34,18,6,6,0.7,0.5
2025-06-12T0800,2235A,122.7911,45.6077,白城市,洮北区环保局,,34,34,21,20,10,84,,86,86,17,8,4,4,0.3,0.3
2025-06-12T0800,2236A,122.8738,45.5725,白城市,市环保局,,29,29,19,12,10,80,,87,87,15,8,4,4,0.4,0.3
2025-06-12T0800,2231A,126.4219,41.9171,白山市,喜丰,,48,48,29,20,10,29,,13,13,31,23,12,7,0.6,0.5
2025-06-12T0800,2232A,126.4077,41.9419,白山市,环保局,,27,27,19,6,5,26,,20,20,25,12,7,6,0.3,0.2
2025-06-12T0800,2647A,104.1724,36.5446,白银市,第三小学,颗粒物(PM10),60,69,54,27,24,41,,39,39,29,30,42,36,0.9,0.6
2025-06-12T0800,2648A,104.1465,36.5482,白银市,动力公司,,41,41,44,23,19,46,,37,37,19,26,18,19,0.7,0.4
2025-06-12T0800,2512A,106.6103,23.9011,百色市,市监测站,,32,32,34,16,18,23,,27,27,10,10,4,5,0.6,0.7
2025-06-12T0800,2513A,106.6538,23.8859,百色市,市中心血站,,36,36,44,18,24,19,,20,20,19,19,2,6,0.8,0.8
2025-06-12T0800,3406A,106.6085,23.8798,百色市,祈福高中,,31,31,37,15,20,22,,30,30,8,11,4,6,0.6,0.6
2025-06-12T0800,2270A,117.396,32.939,蚌埠市,工人疗养院,颗粒物(PM10),53,56,45,26,19,42,,51,51,28,17,7,6,0.5,0.4
2025-06-12T0800,2271A,117.3605,32.9427,蚌埠市,百货大楼,,50,50,38,19,17,37,,54,54,33,17,8,6,0.5,0.4
2025-06-12T0800,2273A,117.4185,32.8911,蚌埠市,蚌埠学院,,50,,30,35,23,59,,64,64,14,10,6,4,0.5,0.3
2025-06-12T0800,2274A,117.3533,32.9673,蚌埠市,淮上区政府,,46,46,34,29,22,49,,62,62,23,16,8,6,0.5,0.4
2025-06-12T0800,2275A,117.3145,32.8977,蚌埠市,高新区,,39,39,35,26,19,59,,69,69,17,13,7,5,0.5,0.4
2025-06-12T0800,3715A,117.3092,32.9314,蚌埠市,蚌埠田家炳中学,,46,46,39,26,23,64,,70,70,16,11,8,6,0.4,0.3
2025-06-12T0800,1585A,109.8756,40.6532,包头市,市环境监测站,颗粒物(PM10),61,71,64,42,23,98,,109,109,25,24,16,18,0.7,0.8
2025-06-12T0800,1587A,109.9991,40.5842,包头市,包头八中,颗粒物(PM10),62,74,70,31,27,110,,118,118,28,24,22,24,0.7,0.8
2025-06-12T0800,1588A,109.8538,40.6821,包头市,青山宾馆,颗粒物(PM10),57,64,54,31,23,110,,112,112,23,28,13,16,0.6,0.6
2025-06-12T0800,1589A,109.8642,40.6288,包头市,惠龙物流,颗粒物(PM10),59,68,61,19,20,104,,112,112,19,19,9,13,0.4,0.5
2025-06-12T0800,1590A,110.0377,40.5546,包头市,东河鸿龙湾,颗粒物(PM10),57,64,75,21,15,104,,101,101,25,26,13,22,0.8,0.8
2025-06-12T0800,3283A,109.9154,40.5685,包头市,滨河大厦,颗粒物(PM10),51,52,60,24,18,109,,110,110,27,22,11,14,0.7,0.5
2025-06-12T0800,3419A,109.9447,40.6261,包头市,包头市委党校,颗粒物(PM10),56,62,62,20,17,111,,116,116,23,22,14,20,0.8,0.9
2025-06-12T0800,3683A,109.8331,40.6576,包头市,昆区政府,颗粒物(PM10),59,68,61,28,23,100,,109,109,29,26,10,14,0.6,0.6
2025-06-12T0800,1930A,107.185,34.3063,宝鸡市,庙沟村,,31,28,37,21,20,99,,126,126,15,12,10,9,0.5,0.4
2025-06-12T0800,1931A,107.0708,34.3017,宝鸡市,竹园沟,,35,,43,24,22,66,,66,66,21,15,6,6,0.4,0.3
2025-06-12T0800,1932A,107.1906,34.3672,宝鸡市,三陆医院,,46,46,53,28,25,36,,41,41,52,32,12,9,0.7,0.5
2025-06-12T0800,1933A,107.1431,34.3547,宝鸡市,监测站,,40,40,56,26,25,61,,66,66,24,22,10,8,0.4,0.3
2025-06-12T0800,1934A,107.1186,34.3739,宝鸡市,技工学校,,45,38,50,31,24,66,,78,78,16,13,13,9,0.7,0.6
2025-06-12T0800,1935A,107.3906,34.3528,宝鸡市,陈仓区环保局家属楼,颗粒物(PM10),51,52,56,26,25,71,,63,63,28,21,8,8,0.6,0.5
2025-06-12T0800,1936A,107.2058,34.3497,宝鸡市,文理学院,,40,40,49,26,25,57,,72,72,31,19,8,7,0.7,0.5
2025-06-12T0800,1937A,107.2386,34.3622,宝鸡市,三迪小学,,49,49,58,34,29,43,,57,57,48,26,12,10,0.7,0.5
2025-06-12T0800,1051A,115.493,38.8632,保定市,游泳馆,颗粒物(PM10),59,68,75,34,34,117,,124,124,16,15,4,3,0.1,0.1
2025-06-12T0800,1052A,115.5213,38.8959,保定市,华电二区,颗粒物(PM10),54,58,68,24,24,122,,118,118,8,9,4,4,0.2,0.2
2025-06-12T0800,1053A,115.4713,38.9108,保定市,接待中心,颗粒物(PM10),53,56,67,33,36,120,,129,129,11,11,2,2,0.4,0.3
2025-06-12T0800,1054A,115.4612,38.8416,保定市,地表水厂,颗粒物(PM10),58,65,92,22,29,120,,122,122,17,18,4,4,0.4,0.3
2025-06-12T0800,3581A,115.31981,38.95208,保定市,满城区生态环境分局,颗粒物(PM10),73,95,107,34,33,116,,117,117,13,12,5,5,0.4,0.4
2025-06-12T0800,3582A,115.47694,38.76408,保定市,清苑区第二中学,颗粒物(PM10),79,107,105,42,42,123,,119,119,9,12,3,3,0.4,0.4
2025-06-12T0800,3583A,115.62909,39.02311,保定市,徐水物探局,颗粒物(PM10),72,93,114,29,29,103,,114,114,20,12,1,2,0.4,0.3
2025-06-12T0800,4004A,115.4202,38.8656,保定市,双鹰农机,颗粒物(PM10),52,54,66,31,26,120,,126,126,17,22,4,5,0.3,0.4
2025-06-12T0800,4034A,115.5150,38.8590,保定市,植保所站,颗粒物(PM10),61,71,84,28,32,120,,107,107,10,12,10,7,0.4,0.4
2025-06-12T0800,2594A,99.1678,25.1081,保山市,市环境监测站,,33,30,31,23,20,58,,68,68,11,7,7,7,0.5,0.4
2025-06-12T0800,2595A,99.1711,25.1328,保山市,市环保局,,38,28,32,26,21,66,,83,83,7,5,5,6,0.5,0.4
2025-06-12T0800,1866A,109.2262,21.588,北海市,牛尾岭水库,,17,17,15,3,6,31,,26,26,7,7,2,2,0.5,0.5
2025-06-12T0800,1867A,109.1436,21.4086,北海市,海滩公园,,19,19,19,3,6,28,,38,38,10,7,2,2,0.7,0.6
2025-06-12T0800,1868A,109.0981,21.4661,北海市,新市环保局,,15,15,17,9,12,41,,44,44,8,9,2,3,0.5,0.5
2025-06-12T0800,1869A,109.1778,21.5233,北海市,北海工业园,,21,21,23,10,10,28,,34,34,13,10,3,3,0.5,0.5
2025-06-12T0800,3400A,109.1911,21.4415,北海市,龙潭自来水厂,,19,19,17,11,11,30,,34,34,8,7,3,3,0.5,0.5
2025-06-12T0800,1001A,116.3621,39.8784,北京市,万寿西宫,颗粒物(PM10),72,93,72,38,30,133,,114,114,21,24,5,6,0.6,0.5
2025-06-12T0800,1002A,116.2202,40.2915,北京市,定陵,,,,,,,,,,,,,,,,
2025-06-12T0800,1003A,116.4174,39.9289,北京市,东四,颗粒物(PM10),79,107,77,44,30,130,,109,109,24,27,5,6,0.6,0.5
2025-06-12T0800,1004A,116.4072,39.8863,北京市,天坛,颗粒物(PM10),76,101,69,39,28,126,,98,98,20,25,4,4,0.5,0.4
2025-06-12T0800,1005A,116.462,39.9365,北京市,农展馆,颗粒物(PM10),79,108,72,43,28,123,,88,88,20,28,6,6,0.7,0.4
2025-06-12T0800,1006A,116.3392,39.9295,北京市,官园,颗粒物(PM10),77,103,76,37,30,129,,114,114,21,23,5,5,0.6,0.5
2025-06-12T0800,1007A,116.2878,39.9611,北京市,海淀万柳,颗粒物(PM10),82,113,72,47,26,103,,90,90,31,27,5,5,0.5,0.5
2025-06-12T0800,1008A,116.6636,40.135,北京市,顺义新城,颗粒物(PM10),78,106,65,39,24,83,,85,85,31,23,7,5,0.6,0.5
2025-06-12T0800,1009A,116.6275,40.3275,北京市,怀柔镇,颗粒物(PM10),66,82,54,37,24,84,,101,101,27,17,6,5,0.7,0.6
2025-06-12T0800,1010A,116.2296,40.217,北京市,昌平镇,颗粒物(PM10),62,73,60,26,22,92,,109,109,32,21,7,6,0.6,0.5
2025-06-12T0800,1011A,116.3966,39.9821,北京市,奥体中心,颗粒物(PM10),74,97,69,37,27,119,,88,88,21,27,5,6,0.7,0.6
2025-06-12T0800,3281A,115.9718,40.4529,北京市,延庆夏都,颗粒物(PM10),68,85,66,35,26,110,,123,123,22,14,7,6,0.6,0.5
2025-06-12T0800,3418A,116.8336,40.4095,北京市,密云新城,颗粒物(PM10),60,69,51,29,21,88,,95,95,22,14,7,5,0.5,0.4
2025-06-12T0800,3671A,116.088,39.9726,北京市,门头沟三家店,颗粒物(PM10),64,78,81,32,28,83,,59,59,33,30,6,4,0.3,0.2
2025-06-12T0800,3672A,116.1541,39.8204,北京市,丰台云岗,颗粒物(PM10),89,128,84,38,29,102,,92,92,25,20,9,9,0.7,0.5
2025-06-12T0800,3673A,116.6804,39.9081,北京市,通州东关,颗粒物(PM10),88,126,75,52,27,88,,86,86,35,24,7,5,0.8,0.6
2025-06-12T0800,3674A,115.9577,39.7603,北京市,房山燕山,颗粒物(PM10),81,111,81,54,35,117,,104,104,19,17,4,4,0.6,0.5
2025-06-12T0800,3675A,116.4672,39.7733,北京市,大兴旧宫,颗粒物(PM10),77,103,70,39,27,118,,97,97,21,20,2,4,0.6,0.5
2025-06-12T0800,3694A,115.986,40.4563,北京市,延庆石河营,颗粒物(PM10),69,87,63,38,25,106,,119,119,21,14,4,4,0.5,0.4
2025-06-12T0800,3695A,116.6151,40.3053,北京市,怀柔新城,颗粒物(PM10),57,63,53,36,27,80,,101,101,17,16,4,4,0.6,0.4
2025-06-12T0800,3696A,116.2545,39.8768,北京市,丰台小屯,颗粒物(PM10),81,112,74,47,29,107,,90,90,23,25,4,4,0.6,0.5
2025-06-12T0800,3697A,116.84,40.3844,北京市,密云镇,颗粒物(PM10),63,76,54,30,24,76,,87,87,26,19,9,8,0.6,0.4
2025-06-12T0800,4182A,116.1942,39.9158,北京市,八角北路9号,颗粒物(PM10),100,149,97,53,32,99,,63,63,23,32,3,4,0.6,0.4
2025-06-12T0800,4194A,117.0790,40.1518,北京市,洳河巡河路,颗粒物(PM10),81,112,55,49,23,112,,124,124,19,12,9,6,0.7,0.5
2025-06-12T0800,1761A,123.8275,41.3064,本溪市,大峪,,37,37,23,14,9,56,,40,40,24,16,10,9,0.7,0.5
2025-06-12T0800,1762A,123.7567,41.3325,本溪市,溪湖,,36,36,38,14,15,93,,42,42,25,23,6,9,0.7,0.9
2025-06-12T0800,1763A,123.7169,41.3094,本溪市,彩屯,,42,42,31,21,18,99,,28,28,41,32,31,13,3.4,1.3
2025-06-12T0800,1764A,123.7669,41.2864,本溪市,东明,,44,44,34,15,16,63,,43,43,34,22,9,10,1.0,0.9
2025-06-12T0800,1765A,123.7992,41.2664,本溪市,新立屯,,44,14,22,10,9,139,,49,49,10,27,7,8,0.5,0.7
2025-06-12T0800,1766A,123.8142,41.3472,本溪市,威宁,颗粒物(PM10),52,53,39,24,17,46,,30,30,28,24,7,7,1.0,0.7
2025-06-12T0800,2587A,105.2864,27.3125,毕节市,八中,,43,39,32,30,21,34,,40,40,12,10,5,6,0.5,0.4
2025-06-12T0800,2588A,105.31,27.2944,毕节市,师专,颗粒物(PM10),52,54,43,26,21,33,,43,43,17,14,5,5,0.5,0.5
2025-06-12T0800,4263A,105.3688,27.3598,毕节市,工业大道,颗粒物(PM10),51,52,39,33,25,32,,34,34,24,19,7,7,0.7,0.6
2025-06-12T0800,1629A,118.0018,37.3617,滨州市,第二水厂,颗粒物(PM10),70,90,58,34,27,71,,57,57,47,21,11,8,0.8,0.5
2025-06-12T0800,1630A,117.9776,37.393,滨州市,北中新校,颗粒物(PM10),57,63,46,24,17,86,,71,71,29,19,16,14,0.6,0.4
2025-06-12T0800,3514A,117.9378,37.3956,滨州市,中海酒店,颗粒物(PM10),57,63,44,27,21,93,,89,89,26,17,13,11,0.8,0.7
2025-06-12T0800,3515A,117.9378,37.3553,滨州市,开发区一中,颗粒物(PM10),65,80,53,27,15,83,,73,73,35,23,12,10,0.6,0.5
2025-06-12T0800,3516A,118.0917,37.694,滨州市,金海六路,颗粒物(PM10),61,71,51,19,11,80,,64,64,32,21,17,14,0.5,0.3
2025-06-12T0800,4028A,117.9956,37.3753,滨州市,滨州市西街道办事处,颗粒物(PM10),69,88,51,31,20,85,,66,66,34,20,13,10,0.8,0.5
2025-06-12T0800,2311A,115.8072,33.8399,亳州市,污水处理厂,,43,39,38,30,19,87,,84,84,4,7,9,5,0.6,0.5
2025-06-12T0800,2312A,115.7789,33.8518,亳州市,三国揽胜宫,,48,43,40,33,24,84,,88,88,19,12,5,3,0.4,0.3
2025-06-12T0800,3332A,115.7633,33.8034,亳州市,亳州学院,,,39,36,28,24,90,,91,91,,10,4,3,0.6,0.4
2025-06-12T0800,2693A,82.0485,44.8556,博尔塔拉蒙古自治州,市党校,,25,25,27,12,14,38,,52,52,14,11,2,3,0.1,0.2
2025-06-12T0800,2694A,82.0806,44.8969,博尔塔拉蒙古自治州,市环保局,,35,35,35,11,13,35,,48,48,13,9,3,2,0.5,0.5
2025-06-12T0800,1071A,116.8842,38.2991,沧州市,沧县城建局,颗粒物(PM10),52,54,67,10,28,114,,97,97,17,23,4,4,0.4,0.4
2025-06-12T0800,1072A,116.8584,38.3254,沧州市,电视转播站,颗粒物(PM10),60,69,77,24,33,106,,95,95,15,18,2,3,0.4,0.4
2025-06-12T0800,1073A,116.8709,38.3228,沧州市,市环保局,颗粒物(PM10),55,60,81,25,32,101,,95,95,15,17,3,4,0.3,0.3
2025-06-12T0800,3324A,116.8136,38.3004,沧州市,河北水利电力学院,颗粒物(PM10),75,100,94,28,31,127,,116,116,15,20,3,4,0.3,0.4
2025-06-12T0800,2622A,97.1806,31.1273,昌都市,昌都监测站,,22,22,19,14,11,62,,75,75,10,7,4,4,0.5,0.4
2025-06-12T0800,3719A,97.1714,31.1406,昌都市,昌都会议中心,,,23,21,14,14,60,,76,76,,8,4,4,0.1,0.2
2025-06-12T0800,2690A,88.1236,43.8886,昌吉回族自治州,天山天池,,20,6,13,3,6,64,,61,61,5,6,3,3,0.5,0.5
2025-06-12T0800,2692A,87.2717,44.0297,昌吉回族自治州,新区政务中心,,25,25,32,14,15,72,,55,55,7,17,5,7,0.4,0.5
2025-06-12T0800,3613A,87.3095,44.0142,昌吉回族自治州,亚心广场,,34,34,40,22,18,69,,54,54,18,18,8,9,0.4,0.4
2025-06-12T0800,1119A,125.3325,43.9166,长春市,食品厂,,,,,,,,,,,,,,,,
2025-06-12T0800,1120A,125.2863,43.9027,长春市,客车厂,,,26,21,6,12,,,74,74,19,24,5,5,0.3,0.3
2025-06-12T0800,1121A,125.2841,43.8463,长春市,邮电学院,,26,12,14,11,8,82,,67,67,19,16,6,5,0.4,0.3
2025-06-12T0800,1122A,125.3716,43.8772,长春市,劳动公园,颗粒物(PM10),73,96,34,7,16,77,,64,64,22,20,6,10,0.6,0.5
2025-06-12T0800,1123A,125.3297,43.8805,长春市,园林处,,,63,24,10,14,,,66,66,,17,,6,,0.3
2025-06-12T0800,1124A,125.4605,43.79,长春市,净月潭,,22,18,17,8,9,70,,48,48,14,11,6,6,0.4,0.3
2025-06-12T0800,1125A,125.7194,43.515,长春市,甩湾子,,,,11,,,,,,,,6,,2,,0.5
2025-06-12T0800,1126A,125.3863,43.8447,长春市,经开区环卫处,,24,20,29,6,11,75,,50,50,23,28,6,6,0.2,0.2
2025-06-12T0800,1127A,125.245,43.7783,长春市,高新区管委会,,24,23,20,10,11,75,,54,54,21,22,4,4,0.4,0.4
2025-06-12T0800,1128A,125.1761,43.8325,长春市,岱山公园,,24,22,20,10,12,75,,67,67,22,24,4,4,0.2,0.2
2025-06-12T0800,1335A,113.0833,28.2325,长沙市,经开区环保局,,13,12,15,6,7,40,,35,35,8,10,3,3,0.5,0.5
2025-06-12T0800,1336A,112.8872,28.2189,长沙市,高开区环保局,,20,20,21,8,10,24,,40,40,18,9,3,3,0.9,0.7
2025-06-12T0800,1337A,113.0792,28.2053,长沙市,马坡岭,,15,14,18,8,10,47,,42,42,9,10,4,4,0.6,0.6
2025-06-12T0800,1338A,112.9394,28.19,长沙市,湖南师范大学,,20,20,18,9,9,40,,45,45,10,9,3,3,0.6,0.5
2025-06-12T0800,1339A,113.0178,28.1322,长沙市,雨花区环保局,,12,12,16,6,8,38,,48,48,10,8,4,4,0.7,0.6
2025-06-12T0800,1340A,112.9792,28.2597,长沙市,伍家岭,,22,20,18,15,8,20,,30,30,15,10,2,2,0.6,0.6
2025-06-12T0800,1341A,113.0014,28.1944,长沙市,火车新站,,15,15,16,7,6,35,,42,42,16,9,6,6,0.6,0.6
2025-06-12T0800,1342A,112.9844,28.1178,长沙市,天心区环保局,,15,10,16,9,9,48,,54,54,12,10,2,2,0.5,0.6
2025-06-12T0800,1343A,112.8908,28.1308,长沙市,湖南中医药大学,,15,15,19,10,13,36,,42,42,12,10,2,2,0.7,0.6
2025-06-12T0800,1344A,112.9581,28.3611,长沙市,沙坪,,23,23,20,6,8,30,,29,29,6,7,3,3,0.7,0.6
2025-06-12T0800,1727A,113.1147,36.1547,长治市,清华站,,44,40,50,29,26,140,,151,151,10,10,6,6,0.8,0.7
2025-06-12T0800,1730A,113.0886,36.2125,长治市,审计局,颗粒物(PM10),52,53,51,31,28,136,,152,152,15,12,10,9,0.9,0.6
2025-06-12T0800,1731A,113.0844,36.1856,长治市,长治八中,细颗粒物(PM2.5),57,56,59,40,33,134,,147,147,12,9,12,11,1.2,0.9
2025-06-12T0800,2845A,113.1569,36.1911,长治市,德盛苑,,42,42,50,27,27,131,,139,139,12,11,7,7,0.7,0.7
2025-06-12T0800,3568A,113.06,36.0464,长治市,向阳小学,颗粒物(PM10),71,91,84,40,35,125,,131,131,14,12,7,6,0.9,0.7
2025-06-12T0800,3569A,112.8792,36.3144,长治市,屯留一中,细颗粒物(PM2.5),68,52,43,49,36,113,,129,129,22,16,7,6,1.0,0.5
2025-06-12T0800,4189A,113.1131,36.19948,长治市,英华南巷50号,,49,49,54,31,29,138,,142,142,5,5,7,8,0.9,0.7
2025-06-12T0800,4190A,113.2367,36.3344,长治市,学府街1号,颗粒物(PM10),62,73,73,37,34,160,,155,155,14,13,6,4,0.8,0.7
2025-06-12T0800,1854A,111.6975,28.9703,常德市,市二中,,25,25,26,14,23,68,,58,58,8,11,5,6,0.8,0.8
2025-06-12T0800,1857A,111.7158,29.1456,常德市,白鹤山,,,,,,,,,,,,,,,,
2025-06-12T0800,3138A,111.7153,29.0289,常德市,武陵区永安,,25,21,27,15,19,78,,74,74,6,6,3,4,0.6,0.6
2025-06-12T0800,3139A,111.6892,28.9881,常德市,鼎城区玉霞,,23,21,28,16,19,69,,64,64,7,7,5,6,0.4,0.4
2025-06-12T0800,3140A,111.6625,29.0531,常德市,武陵区长庚,,27,20,25,13,16,84,,82,82,5,5,2,3,0.5,0.5
2025-06-12T0800,1196A,119.9633,31.762,常州市,市监测站,,32,32,34,12,19,49,,59,59,13,8,7,7,0.6,0.5
2025-06-12T0800,1200A,119.9468,31.7069,常州市,武进监测站,,32,32,35,14,23,59,,58,58,26,24,5,5,1.1,1.1
2025-06-12T0800,1201A,119.9255,31.9087,常州市,安家,,38,38,37,12,18,51,,52,52,24,17,10,10,0.7,0.5
2025-06-12T0800,3002A,119.9805,31.8174,常州市,行政中心,,41,41,38,11,18,53,,63,63,27,21,6,6,0.4,0.4
2025-06-12T0800,3003A,120.0522,31.7748,常州市,经开区,,,20,30,,17,,,67,67,21,20,6,6,0.3,0.3
2025-06-12T0800,3010A,119.9025,31.7964,常州市,钟楼,,20,20,27,9,17,56,,60,60,25,20,7,6,0.5,0.5
2025-06-12T0800,3429A,119.8598,31.7066,常州市,武进经发区,,25,25,38,11,18,58,,54,54,21,20,6,6,0.9,1.1
2025-06-12T0800,3430A,119.5826,31.7245,常州市,金坛城区,,22,,37,15,20,54,,49,49,23,22,7,7,0.8,0.6
2025-06-12T0800,2220A,120.4318,41.5881,朝阳市,西梁,,31,22,36,11,21,98,,113,113,16,15,7,13,0.5,0.5
2025-06-12T0800,2221A,120.4521,41.5646,朝阳市,河畔小区,,39,39,35,11,18,103,,124,124,16,13,6,10,0.4,0.5
2025-06-12T0800,2222A,120.4176,41.5648,朝阳市,八里堡,,41,41,45,14,18,100,,108,108,20,18,8,12,0.5,0.6
2025-06-12T0800,2223A,120.3806,41.5969,朝阳市,农业园区,,37,37,41,19,24,77,,67,67,28,19,8,10,0.6,0.6
2025-06-12T0800,1705A,116.6367,23.6719,潮州市,西园路,,20,20,33,12,15,48,,60,60,8,7,2,4,0.6,0.4
2025-06-12T0800,3026A,116.6183,23.6608,潮州市,市政府,,,,30,,8,,,51,,,5,,4,,0.5
2025-06-12T0800,4036A,116.6461,23.6761,潮州市,金山,,,,27,,12,,,48,,,6,,9,,0.5
2025-06-12T0800,2472A,113.0073,25.9061,郴州市,马头岭,,31,31,23,8,13,23,,20,20,11,9,11,7,0.4,0.4
2025-06-12T0800,2473A,113.0116,25.8226,郴州市,市职中,,32,28,25,22,19,16,,20,20,13,9,8,3,0.9,0.7
2025-06-12T0800,2475A,113.0383,25.8071,郴州市,市审计局,,43,39,26,30,20,19,,21,21,10,6,19,6,1.3,1.1
2025-06-12T0800,2476A,113.0348,25.7759,郴州市,市环保局,,39,34,29,27,20,24,,28,28,13,11,21,9,0.4,0.3
2025-06-12T0800,4252A,113.0138,25.8011,郴州市,好美居路49号,,,,34,20,18,26,,55,55,13,8,17,7,0.9,0.7
2025-06-12T0800,1431A,103.9728,30.7236,成都市,金泉两河,颗粒物(PM10),51,51,50,3,23,40,,45,45,34,25,7,5,0.9,0.7
2025-06-12T0800,1432A,104.176,30.6872,成都市,十里店,颗粒物(PM10),65,79,55,32,29,57,,72,72,38,24,26,8,1.0,0.7
2025-06-12T0800,1433A,104.079,30.5706,成都市,三瓦窑,细颗粒物(PM2.5),63,67,53,45,30,16,,27,27,88,49,8,6,1.0,0.7
2025-06-12T0800,1434A,104.1114,30.63,成都市,沙河铺,细颗粒物(PM2.5),60,52,50,43,28,36,,48,48,48,23,5,5,0.8,0.6
2025-06-12T0800,1437A,104.0786,30.6531,成都市,君平街,颗粒物(PM10),51,51,53,33,31,47,,50,50,42,28,11,7,1.0,0.7
2025-06-12T0800,1438A,103.613,31.0283,成都市,灵岩寺,,,,,,,,,,,,,,,,
2025-06-12T0800,2880A,104.0239,30.65639,成都市,大石西路,,37,37,53,12,31,51,,57,57,36,24,8,6,0.9,0.7
2025-06-12T0800,3136A,104.2725,30.5589,成都市,龙泉驿区区政府,,36,36,33,19,20,88,,116,116,20,11,6,7,0.8,0.7
2025-06-12T0800,3357A,104.0106,30.6931,成都市,金博路,,38,38,48,3,24,14,,41,41,67,37,13,11,1.0,0.7
2025-06-12T0800,3359A,104.0578,30.5225,成都市,华阳,细颗粒物(PM2.5),67,68,46,48,31,33,,37,37,44,28,8,8,0.8,0.6
2025-06-12T0800,3488A,104.3853,30.7453,成都市,青白江技师分院,,44,44,47,21,27,87,,127,127,37,24,9,7,0.7,0.6
2025-06-12T0800,3489A,104.0789,30.4072,成都市,科学城,细颗粒物(PM2.5),69,75,47,50,30,35,,46,46,43,22,4,4,0.7,0.5
2025-06-12T0800,4011A,103.8506,30.6947,成都市,光华大道三段,,24,18,54,3,28,74,,83,83,18,18,7,7,0.8,0.7
2025-06-12T0800,4224A,104.2433,30.5353,成都市,鲸龙路1057号,,,47,43,32,27,,,56,56,36,34,8,9,0.9,0.7
2025-06-12T0800,1062A,117.9531,40.9081,承德市,铁路,颗粒物(PM10),52,53,44,20,16,94,,98,98,28,16,4,4,0.5,0.3
2025-06-12T0800,1063A,117.9392,40.9763,承德市,中国银行,,47,47,42,22,18,82,,85,85,28,15,2,2,0.4,0.3
2025-06-12T0800,1064A,117.9503,40.928,承德市,开发区,,,52,44,,20,,,105,105,,14,4,4,0.5,0.4
2025-06-12T0800,1065A,117.8051,40.9655,承德市,文化中心,颗粒物(PM10),57,64,56,18,17,78,,92,92,52,21,5,4,0.5,0.3
2025-06-12T0800,1066A,117.9268,41.0026,承德市,离宫,,45,38,34,31,24,93,,105,105,21,10,2,2,0.4,0.3
2025-06-12T0800,2314A,117.47,30.6618,池州市,池州学院,,25,25,23,15,14,38,,59,59,13,6,4,5,0.8,0.4
2025-06-12T0800,3237A,117.4918,30.6617,池州市,展览馆,,27,27,21,14,14,38,,58,58,11,6,4,4,1.1,0.6
2025-06-12T0800,3333A,117.5627,30.695,池州市,第八中学,,28,28,21,17,13,46,,57,57,5,4,4,4,0.8,0.6
2025-06-12T0800,3334A,117.5038,30.6243,池州市,第十二中学,,26,26,19,18,13,36,,52,52,9,5,2,2,1.1,0.7
2025-06-12T0800,1744A,118.9233,42.2816,赤峰市,松山一中,臭氧1小时,68,60,31,23,14,174,,190,190,20,14,8,7,0.6,0.5
2025-06-12T0800,1745A,118.9576,42.2728,赤峰市,哈达街,颗粒物(PM10),57,63,33,28,19,150,,165,165,24,18,12,11,0.7,0.5
2025-06-12T0800,1746A,118.8788,42.2554,赤峰市,天义路,臭氧1小时,63,54,25,32,22,170,,179,179,16,13,9,9,0.5,0.4
2025-06-12T0800,3058A,119.2658,42.0353,赤峰市,银河街,颗粒物(PM10),58,65,51,30,24,95,,124,124,24,10,29,16,1.1,0.7
2025-06-12T0800,3286A,118.9359,42.3147,赤峰市,桥北物流园区,臭氧1小时,53,47,29,25,25,162,,170,170,13,18,9,10,0.7,0.6
2025-06-12T0800,2521A,107.3476,22.4136,崇左市,市环保局江州分局,,29,29,28,12,14,30,,11,11,10,12,6,6,0.5,0.6
2025-06-12T0800,4256A,107.3750,22.3736,崇左市,石景林东路7号,,24,24,22,9,15,48,,27,27,8,11,2,2,0.5,0.5
2025-06-12T0800,2298A,118.3093,32.3153,滁州市,老年大学,颗粒物(PM10),53,56,50,32,30,40,,40,40,29,23,10,8,0.5,0.4
2025-06-12T0800,2299A,118.3244,32.2786,滁州市,人大宾馆,细颗粒物(PM2.5),57,48,44,40,35,39,,37,37,27,22,10,6,0.5,0.5
2025-06-12T0800,3207A,118.3118,32.3038,滁州市,市政府原办公楼,,50,45,42,35,37,37,,36,36,28,18,8,6,0.5,0.5
2025-06-12T0800,3331A,118.3267,32.2634,滁州市,图书馆,,43,35,44,30,33,40,,37,37,22,17,11,9,0.6,0.6
2025-06-12T0800,2605A,101.5482,25.0441,楚雄彝族自治州,州环境监测站,,32,,29,22,21,25,,23,23,25,23,9,10,0.5,0.4
2025-06-12T0800,2606A,101.538,25.0492,楚雄彝族自治州,市经济开发区,,29,25,31,20,20,22,,26,26,18,17,7,8,0.6,0.5
2025-06-12T0800,2548A,107.5277,31.2827,达州市,达州职业技术学院,,47,47,42,13,15,41,,30,30,19,20,13,8,0.5,0.6
2025-06-12T0800,2549A,107.5086,31.2186,达州市,市环境监测站,,44,44,39,14,15,30,,48,48,36,31,9,8,0.4,0.4
2025-06-12T0800,2550A,107.4988,31.2132,达州市,凤凰小区,,31,31,35,14,16,41,,58,58,28,20,11,9,0.5,0.5
2025-06-12T0800,2551A,107.5082,31.1986,达州市,达县机关宾馆,,36,36,33,8,9,39,,55,55,27,24,9,7,0.5,0.5
2025-06-12T0800,2552A,107.4644,31.2124,达州市,市政中心,,47,47,43,12,13,27,,39,39,29,22,7,4,0.6,0.5
2025-06-12T0800,2614A,100.1542,25.7054,大理白族自治州,大理市环境监测站,,30,30,24,21,21,38,,60,60,29,13,7,7,0.6,0.5
2025-06-12T0800,2615A,100.2171,25.5811,大理白族自治州,大理古城,,19,19,22,11,15,50,,60,60,21,11,10,9,0.8,0.7
2025-06-12T0800,1109A,121.612,38.9741,大连市,甘井子,,23,23,33,8,15,72,,74,74,28,25,8,6,0.3,0.3
2025-06-12T0800,1110A,121.565,38.9511,大连市,周水子,,23,23,28,9,18,64,,72,72,31,20,8,10,0.4,0.4
2025-06-12T0800,1111A,121.5637,38.8845,大连市,星海三站,,20,20,27,10,19,56,,70,70,19,14,7,6,0.4,0.4
2025-06-12T0800,1112A,121.6302,38.9117,大连市,青泥洼桥,,26,19,24,9,14,83,,78,78,19,19,8,8,0.4,0.4
2025-06-12T0800,1113A,121.6251,38.8638,大连市,傅家庄,,20,20,27,9,17,59,,66,66,23,20,7,9,0.1,0.2
2025-06-12T0800,1114A,121.5213,38.8661,大连市,七贤岭,,24,22,32,8,22,75,,73,73,23,17,9,9,0.4,0.3
2025-06-12T0800,1115A,121.2529,38.8061,大连市,旅顺,,19,19,24,12,15,57,,56,56,23,21,5,4,0.2,0.3
2025-06-12T0800,1116A,121.7485,39.1311,大连市,金州,,28,14,35,6,16,87,,93,93,22,22,11,10,0.3,0.3
2025-06-12T0800,1117A,121.7811,39.0496,大连市,开发区,,25,25,32,10,19,72,,64,64,26,29,4,5,0.3,0.4
2025-06-12T0800,1118A,121.9762,39.0631,大连市,双D港,,25,16,22,11,16,33,,52,52,50,30,11,10,0.3,0.4
2025-06-12T0800,1789A,124.81117,46.03138,大庆市,大同区,,47,47,26,14,14,63,,58,58,23,12,4,5,0.4,0.4
2025-06-12T0800,1790A,125.129,46.533,大庆市,龙凤区,,32,32,28,13,12,65,,60,60,20,12,6,8,0.6,0.6
2025-06-12T0800,1791A,124.902,46.408,大庆市,红岗区,,36,25,21,25,15,68,,61,61,15,8,9,10,0.5,0.5
2025-06-12T0800,1792A,125.153,46.586,大庆市,萨尔图区,,41,41,27,14,11,58,,56,56,22,12,8,8,0.3,0.3
2025-06-12T0800,1793A,124.9042,46.6215,大庆市,让胡路区,,39,,21,27,15,63,,64,64,17,9,4,4,0.4,0.4
2025-06-12T0800,3481A,125.141,46.634,大庆市,萨区政府监测点,,35,35,27,9,8,75,,74,74,18,9,6,6,0.4,0.3
2025-06-12T0800,1721A,113.3819,40.1097,大同市,果树场,,,,,,,,,,,,,,,,
2025-06-12T0800,1723A,113.2994,40.0758,大同市,云冈宾馆,颗粒物(PM10),79,107,54,46,19,136,,142,142,34,16,8,7,1.0,0.6
2025-06-12T0800,1724A,113.3444,40.0917,大同市,大同大学,颗粒物(PM10),65,80,51,40,21,152,,153,153,22,12,16,13,0.7,0.5
2025-06-12T0800,1725A,113.2661,40.1269,大同市,安家小村,颗粒物(PM10),61,72,60,31,14,146,,147,147,24,13,8,7,0.8,0.4
2025-06-12T0800,1726A,113.2711,40.0844,大同市,教育学院,颗粒物(PM10),70,90,57,40,23,135,,130,130,33,16,10,9,0.8,0.5
2025-06-12T0800,3282A,113.3397,40.0597,大同市,大同市卫生学校,颗粒物(PM10),62,73,54,38,22,118,,134,134,32,14,10,10,0.9,0.6
2025-06-12T0800,3565A,113.1367,40.1122,大同市,云冈站,颗粒物(PM10),79,107,67,49,37,166,,142,142,24,18,12,9,0.5,0.2
2025-06-12T0800,3566A,113.1186,40.2556,大同市,图书馆,颗粒物(PM10),59,68,57,40,24,127,,120,120,23,15,13,8,0.9,0.6
2025-06-12T0800,3567A,113.5931,40.0461,大同市,区一中,,,,45,,16,,,146,,,10,,16,,0.4
2025-06-12T0800,4199A,113.2798,40.0997,大同市,魏都大道141号,颗粒物(PM10),71,91,60,42,22,146,,135,135,29,16,9,8,0.8,0.5
2025-06-12T0800,2269A,124.1069,50.4097,大兴安岭地区,科技局,,27,27,27,15,13,44,,40,40,10,8,6,6,0.2,0.2
2025-06-12T0800,3663A,124.1164,50.4278,大兴安岭地区,红旗社区,,19,19,14,7,7,46,,36,36,15,10,5,5,0.4,0.3
2025-06-12T0800,1600A,124.3303,40.0625,丹东市,江湾东路,,39,39,38,21,20,68,,44,44,21,23,11,10,0.7,0.6
2025-06-12T0800,1601A,124.4256,40.1503,丹东市,临江后街,,36,36,53,10,9,59,,43,43,18,17,11,9,0.7,0.7
2025-06-12T0800,1602A,124.3933,40.1461,丹东市,元宝山,,33,33,32,15,13,61,,51,51,24,18,11,9,0.3,0.4
2025-06-12T0800,1603A,124.3633,40.1092,丹东市,民主桥,,35,35,34,15,14,54,,46,46,32,21,11,10,0.9,0.9
2025-06-12T0800,3541A,109.5726,19.5167,儋州市,第一中学子站,,13,13,15,3,4,36,,35,35,2,3,5,6,0.4,0.5
2025-06-12T0800,3542A,109.5567,19.5187,儋州市,东坡学校子站,,,,14,3,4,36,,34,34,,3,,6,0.5,0.5
2025-06-12T0800,2616A,98.5842,24.428,德宏傣族景颇族自治州,德宏州监测站,,39,36,39,27,22,36,,49,49,13,12,8,8,0.7,0.6
2025-06-12T0800,3677A,98.5881,24.4368,德宏傣族景颇族自治州,芒市人民政府综合楼,,,,44,,22,,,91,,,11,,8,,0.5
2025-06-12T0800,1901A,104.4239,31.1208,德阳市,东山公园,细颗粒物(PM2.5),62,72,51,44,31,54,,102,102,24,15,6,8,1.1,0.9
2025-06-12T0800,1902A,104.3826,31.1317,德阳市,西小区,颗粒物(PM10),62,73,57,41,35,50,,86,86,41,22,7,7,1.0,0.8
2025-06-12T0800,1904A,104.3553,31.1091,德阳市,耐火材料厂,颗粒物(PM10),65,79,69,46,44,64,,80,80,33,28,12,13,0.8,0.8
2025-06-12T0800,3639A,104.4019,31.1244,德阳市,市教育局,颗粒物(PM10),58,66,49,40,31,62,,91,91,34,23,8,10,1.1,0.8
2025-06-12T0800,1622A,116.3032,37.4674,德州市,儿童乐园,颗粒物(PM10),78,105,125,19,33,125,,138,138,10,12,10,10,0.5,0.6
2025-06-12T0800,1624A,116.2991,37.4451,德州市,监理站,颗粒物(PM10),75,100,114,17,31,122,,133,133,11,13,10,10,0.4,0.5
2025-06-12T0800,3066A,116.2721,37.4379,德州市,九衢泉纯净水厂,颗粒物(PM10),80,110,113,24,33,99,,119,119,27,19,10,8,0.5,0.6
2025-06-12T0800,3371A,116.3728,37.4403,德州市,开发区人民医院,颗粒物(PM10),81,112,127,19,30,113,,123,123,18,19,13,9,0.8,0.7
2025-06-12T0800,3372A,116.3572,37.4094,德州市,太阳城中学,颗粒物(PM10),87,124,141,29,34,115,,130,130,19,17,10,6,0.6,0.6
2025-06-12T0800,3511A,116.5652,37.3319,德州市,陵城艺术中心,颗粒物(PM10),98,146,120,19,29,104,,121,121,17,14,11,9,0.5,0.5
2025-06-12T0800,2621A,99.7056,27.8317,迪庆藏族自治州,迪庆州站,,29,29,23,16,14,34,,47,47,7,8,6,7,0.4,0.4
2025-06-12T0800,3180A,99.7136,27.8094,迪庆藏族自治州,质量技术监督局,,,,21,,10,,,94,,,11,,6,,0.4
2025-06-12T0800,4257A,104.6092,35.5962,定西市,将台街,颗粒物(PM10),55,59,40,19,16,84,,88,88,21,10,6,5,0.3,0.2
2025-06-12T0800,4309A,104.6159,35.5701,定西市,正龙路62号,,40,40,35,22,18,88,,89,89,13,8,8,8,0.2,0.2
2025-06-12T0800,1389A,113.7547,23.0494,东莞市,莞城梨川,,24,24,19,15,9,35,,35,35,13,10,6,6,0.4,0.3
2025-06-12T0800,1390A,113.7944,23.0128,东莞市,东城石井,,21,21,17,8,5,23,,20,20,18,13,3,2,0.7,0.6
2025-06-12T0800,1391A,113.7383,22.9658,东莞市,南城西平,,23,23,18,9,6,21,,23,23,25,17,3,3,0.6,0.5
2025-06-12T0800,3319A,113.7338,23.0381,东莞市,万江金泰,,20,20,17,3,5,25,,26,26,12,9,2,3,0.7,0.5
2025-06-12T0800,3626A,113.7533,23.0202,东莞市,南城元岭,,20,20,15,6,5,33,,31,31,13,13,5,5,0.6,0.5
2025-06-12T0800,3627A,113.7875,23.0457,东莞市,东城主山,,22,22,20,10,7,30,,28,28,14,12,6,6,0.7,0.6
2025-06-12T0800,1666A,118.6614,37.4309,东营市,市环保局,颗粒物(PM10),57,63,37,14,10,86,,74,74,24,21,8,9,0.5,0.4
2025-06-12T0800,3036A,118.6904,37.4338,东营市,开发区管委会,,,74,46,,10,99,,86,86,25,20,11,8,0.5,0.4
2025-06-12T0800,3365A,118.5719,37.565,东营市,垦利区民丰路,颗粒物(PM10),52,53,38,12,9,73,,76,76,36,23,10,10,0.6,0.5
2025-06-12T0800,3498A,118.5055,37.8612,东营市,河口城区,颗粒物(PM10),52,53,38,7,8,84,,75,75,27,20,10,9,1.0,0.7
2025-06-12T0800,3646A,118.4978,37.4623,东营市,胜利站,颗粒物(PM10),55,59,43,17,9,68,,73,73,38,24,10,9,0.8,0.6
2025-06-12T0800,3734A,118.35,37.26,东营市,理想之城,颗粒物(PM10),58,66,39,19,13,76,,69,69,31,24,7,7,0.7,0.5
2025-06-12T0800,1591A,110.0023,39.8129,鄂尔多斯市,综合楼,,,,52,,21,,,128,128,22,17,9,8,0.6,0.6
2025-06-12T0800,1592A,109.9486,39.8261,鄂尔多斯市,巴音孟克林场办事处,颗粒物(PM10),64,78,73,19,19,132,,142,142,18,15,11,9,0.5,0.4
2025-06-12T0800,1593A,109.7736,39.5986,鄂尔多斯市,康泽苑,颗粒物(PM10),60,70,66,19,18,138,,146,146,15,12,14,7,0.4,0.3
2025-06-12T0800,1594A,109.8119,39.5989,鄂尔多斯市,华泰汽车城,颗粒物(PM10),62,73,63,22,17,122,,130,130,14,13,9,7,0.4,0.4
2025-06-12T0800,1595A,109.9734,39.7884,鄂尔多斯市,奥林花园,颗粒物(PM10),57,63,67,19,20,121,,132,132,17,15,10,9,0.5,0.5
2025-06-12T0800,2436A,114.8938,30.3994,鄂州市,市政府,,47,47,42,24,22,74,,80,80,14,10,8,8,0.8,0.9
2025-06-12T0800,2437A,114.8989,30.3714,鄂州市,赵家坝,,39,39,36,17,15,61,,73,73,20,13,8,8,1.0,1
2025-06-12T0800,3654A,114.8094,30.4089,鄂州市,精准医疗中心,,38,38,33,19,18,59,,63,63,15,11,11,8,1.7,1.1
2025-06-12T0800,2454A,109.4978,30.2981,恩施土家族苗族自治州,湖北民院,,,38,41,26,26,37,,46,46,13,10,5,5,,0.4
2025-06-12T0800,2455A,109.4707,30.2798,恩施土家族苗族自治州,州电力总公司,,35,32,41,24,25,21,,26,26,23,13,6,7,0.6,0.5
2025-06-12T0800,3549A,109.5061,30.3772,恩施土家族苗族自治州,龙凤新区,,,28,32,,25,44,,52,52,9,6,6,8,0.6,0.5
2025-06-12T0800,2499A,108.3411,21.6158,防城港市,沙万,,19,14,26,13,14,44,,47,47,6,8,1,1,0.5,0.6
2025-06-12T0800,2500A,108.3514,21.7731,防城港市,防城档案局,,39,39,34,3,15,39,,38,38,11,13,2,2,0.8,0.6
2025-06-12T0800,2501A,108.3506,21.6414,防城港市,大海花园,,16,12,25,11,13,48,,53,53,8,7,3,3,0.7,0.7
2025-06-12T0800,1371A,113.1294,23.0067,佛山市,湾梁,,13,12,18,3,8,20,,16,16,25,25,8,8,0.7,0.7
2025-06-12T0800,1372A,113.1083,23.0478,佛山市,华材职中,,10,9,15,7,10,29,,19,19,13,16,6,6,0.4,0.4
2025-06-12T0800,1373A,113.144,23.0453,佛山市,南海气象局,,19,19,22,6,10,19,,,,16,20,2,2,0.4,0.5
2025-06-12T0800,1374A,113.2881,22.8094,佛山市,顺德苏岗,,28,28,20,3,4,22,,18,18,19,15,6,6,0.8,0.7
2025-06-12T0800,1376A,112.8383,22.8678,佛山市,高明孔堂,,33,,18,23,15,23,,16,16,20,19,6,6,0.6,0.6
2025-06-12T0800,1377A,112.8836,23.1588,佛山市,三水监测站,,13,12,23,9,10,13,,8,8,22,29,4,3,0.6,0.6
2025-06-12T0800,1378A,112.867,23.185,佛山市,三水云东海,,,37,37,,7,7,,6,6,19,24,3,3,0.6,0.6
2025-06-12T0800,3625A,113.2544,22.7642,佛山市,容桂街道办,,13,,10,9,7,23,,21,21,23,17,6,5,0.6,0.6
2025-06-12T0800,1280A,119.3903,26.0543,福州市,鼓山,,,,9,,6,,,59,,,3,,2,,0.1
2025-06-12T0800,1282A,119.2681,26.0504,福州市,师大,,7,6,20,3,6,21,,28,28,10,7,3,4,0.2,0.3
2025-06-12T0800,1283A,119.2984,26.1028,福州市,五四北路,,,,16,,6,,,37,37,7,8,,4,,0.5
2025-06-12T0800,1284A,119.2648,26.0768,福州市,杨桥西路,,11,11,20,3,6,35,,32,32,8,9,3,3,0.3,0.4
2025-06-12T0800,1285A,119.317,26.0746,福州市,紫阳,,21,21,23,3,7,28,,34,34,12,10,6,6,0.3,0.4
2025-06-12T0800,3048A,119.5799,26.0936,福州市,九龙,,21,21,12,3,2,37,,41,41,7,6,4,4,0.2,0.2
2025-06-12T0800,3526A,119.5189,25.9664,福州市,吴航,,23,23,12,8,6,42,,42,42,4,4,4,4,0.4,0.4
2025-06-12T0800,1755A,123.7977,41.8491,抚顺市,望花区,颗粒物(PM10),53,56,44,29,16,67,,43,43,39,27,12,8,0.9,0.5
2025-06-12T0800,1756A,123.9161,41.8822,抚顺市,顺城区,,,31,29,12,11,,,34,34,48,31,8,9,0.7,0.6
2025-06-12T0800,1757A,124.0436,41.8611,抚顺市,东洲区,,29,29,22,8,10,86,,58,58,13,17,6,7,0.4,0.4
2025-06-12T0800,1758A,123.9247,41.8642,抚顺市,新抚区,,20,18,30,9,10,61,,33,33,18,26,7,8,0.6,0.6
2025-06-12T0800,1759A,124.0972,41.8961,抚顺市,大伙房水库,,25,14,19,11,14,78,,61,61,11,16,8,10,0.4,0.4
2025-06-12T0800,1760A,123.7086,41.8391,抚顺市,沈抚新城,颗粒物(PM10),52,54,43,18,20,86,,26,26,31,35,17,21,0.9,1.6
2025-06-12T0800,2376A,116.2127,28.0814,抚州市,桐源党溪,,36,36,25,16,11,37,,37,37,3,3,22,5,1.0,1
2025-06-12T0800,2377A,116.3544,27.9831,抚州市,市站,,29,29,23,18,12,50,,43,43,10,5,3,2,1.2,1.1
2025-06-12T0800,2378A,116.3565,27.963,抚州市,血防站,,34,34,30,16,14,58,,48,48,7,4,9,5,0.7,0.7
2025-06-12T0800,2379A,116.3564,28.0007,抚州市,采茶剧团,,28,28,21,15,10,52,,43,43,3,3,8,4,0.3,0.4
2025-06-12T0800,2380A,116.385,27.9647,抚州市,医学分院,,33,33,22,15,9,56,,45,45,3,2,11,5,0.9,0.8
2025-06-12T0800,2207A,121.6094,41.998,阜新市,工业园区,,30,18,41,12,26,94,,105,105,19,23,20,18,0.5,0.6
2025-06-12T0800,2208A,121.6697,42.0279,阜新市,长青街,,45,45,37,12,22,92,,111,111,19,18,21,17,0.5,0.6
2025-06-12T0800,2209A,121.6673,42.0705,阜新市,农业园区,,30,14,41,14,22,96,,121,121,19,18,14,10,0.6,0.7
2025-06-12T0800,2210A,121.6717,42.0224,阜新市,东苑,,41,41,39,9,27,92,,113,113,23,17,21,18,0.6,0.6
2025-06-12T0800,2211A,121.6506,42.0498,阜新市,玉龙新城,,,,40,5,20,85,,102,102,18,18,16,13,0.6,0.7
2025-06-12T0800,2301A,115.8277,32.8929,阜阳市,市监测站,"颗粒物(PM10),细颗粒物(PM2.5)",53,55,53,37,31,94,,93,93,11,12,4,3,0.6,0.5
2025-06-12T0800,2303A,115.8554,32.8605,阜阳市,开发区,颗粒物(PM10),65,79,58,25,23,93,,95,95,13,13,6,5,0.4,0.3
2025-06-12T0800,2875A,115.784,32.8892,阜阳市,阜阳职业技术学院,,39,,38,27,24,96,,109,109,11,10,5,5,0.7,0.6
2025-06-12T0800,3468A,115.7901,32.8613,阜阳市,市规划展馆,细颗粒物(PM2.5),60,,49,43,33,87,,98,98,14,12,5,4,0.6,0.4
2025-06-12T0800,3469A,115.836,32.9183,阜阳市,枣园社区,细颗粒物(PM2.5),63,63,57,45,35,85,,92,92,12,11,5,4,0.8,0.6
2025-06-12T0800,2669A,102.9099,34.9841,甘南藏族自治州,州政府,,50,50,45,28,22,21,,8,8,23,24,4,4,0.5,0.3
2025-06-12T0800,3380A,102.8914,34.9617,甘南藏族自治州,甘肃民族师范学院,,,,59,,17,,,81,,,21,,8,,0.4
2025-06-12T0800,2570A,101.9603,30.0475,甘孜藏族自治州,水桥子,,23,23,22,3,8,17,,14,14,25,32,5,5,0.5,0.4
2025-06-12T0800,3065A,101.9533,29.9972,甘孜藏族自治州,州环保局,,27,27,20,7,6,43,,59,59,16,14,2,2,0.5,0.5
2025-06-12T0800,3414A,115.8347,28.932,赣江新区,桑海产业园,,30,29,16,21,13,45,,55,55,14,12,6,5,1.0,0.8
2025-06-12T0800,2362A,114.9017,25.9149,赣州市,通天岩,,23,23,27,3,5,29,,33,33,5,7,3,2,0.3,0.6
2025-06-12T0800,2363A,114.9367,25.8664,赣州市,地委,,16,16,19,9,11,40,,47,47,7,7,1,1,0.4,0.5
2025-06-12T0800,2364A,114.9461,25.8481,赣州市,气象台,,24,24,20,6,9,36,,43,43,7,5,8,7,0.5,0.5
2025-06-12T0800,2365A,114.9322,25.8333,赣州市,市图书馆,,17,17,16,7,9,42,,49,49,4,3,4,4,0.3,0.3
2025-06-12T0800,2366A,114.8905,25.8471,赣州市,华坚鞋城,,19,19,23,6,11,36,,41,41,8,7,3,3,0.2,0.2
2025-06-12T0800,3109A,115.0093,25.8613,赣州市,赣县区卫计委,,,,19,,11,,,50,,,6,,2,,0.3
2025-06-12T0800,2683A,106.2319,36.1417,固原市,马园,,43,43,46,10,15,48,,56,56,51,27,6,6,0.4,0.2
2025-06-12T0800,2684A,106.2792,36.0022,固原市,监测站,,,,36,,20,,,122,,,10,,5,,0.2
2025-06-12T0800,2685A,106.2375,36.0211,固原市,新区,,,,37,,14,,,124,,,9,,5,,0.3
2025-06-12T0800,3522A,106.2177,35.9959,固原市,原州区十五小,,44,42,38,21,19,138,,140,140,5,5,10,9,0.2,0.2
2025-06-12T0800,2543A,106.6308,30.5278,广安市,小平旧居,,,,,,,,,,,,,,,,
2025-06-12T0800,2544A,106.6303,30.4576,广安市,市委,,39,39,38,11,24,47,,40,40,25,21,4,5,0.6,0.6
2025-06-12T0800,2545A,106.6271,30.4663,广安市,友谊中学,,25,25,36,14,19,40,,42,42,30,18,6,7,1.0,0.8
2025-06-12T0800,2547A,106.6388,30.4551,广安市,广电花园,颗粒物(PM10),52,54,37,18,21,34,,31,31,29,22,8,8,0.7,0.6
2025-06-12T0800,2902A,106.6351,30.4865,广安市,北辰小学,,,,41,,21,,,125,,,17,,9,,0.7
2025-06-12T0800,2523A,105.8945,32.4535,广元市,黑石坡,,34,34,37,17,12,65,,93,93,20,11,9,9,0.5,0.4
2025-06-12T0800,2524A,105.821,32.4444,广元市,老城,,34,34,31,14,14,35,,45,45,53,35,3,11,1.0,0.9
2025-06-12T0800,2526A,105.8628,32.4287,广元市,监测站,,21,21,23,13,13,57,,73,73,30,17,7,8,0.6,0.5
2025-06-12T0800,3617A,105.8047,32.4166,广元市,经开区,颗粒物(PM10),60,69,52,37,29,43,,38,38,37,32,12,16,0.7,0.6
2025-06-12T0800,1345A,113.2347,23.1423,广州市,广雅中学,,22,22,23,10,10,23,,10,10,19,20,2,2,0.6,0.7
2025-06-12T0800,1346A,113.2612,23.105,广州市,市五中,,14,14,18,6,7,24,,16,16,17,18,4,4,0.5,0.5
2025-06-12T0800,1348A,113.3478,23.0916,广州市,广东商学院,,17,17,20,7,9,25,,18,18,20,24,3,3,0.7,0.7
2025-06-12T0800,1349A,113.4332,23.1047,广州市,市八十六中,,25,25,20,12,9,14,,10,10,22,22,2,3,0.4,0.4
2025-06-12T0800,1350A,113.3505,22.9483,广州市,番禺中学,,,,21,,8,,,51,,,15,,7,,0.4
2025-06-12T0800,1351A,113.2146,23.3916,广州市,花都师范,,18,18,21,9,9,33,,26,26,13,18,5,4,0.7,0.7
2025-06-12T0800,1352A,113.2597,23.1331,广州市,市监测站,,18,18,22,9,9,15,,10,10,25,26,5,5,0.6,0.6
2025-06-12T0800,1353A,113.5618,23.312,广州市,九龙镇镇龙,,18,18,15,11,7,27,,19,19,11,10,6,6,0.4,0.4
2025-06-12T0800,1354A,113.2765,23.1544,广州市,麓湖,,17,17,22,8,8,16,,4,4,19,21,2,2,0.5,0.6
2025-06-12T0800,1355A,113.443,23.3035,广州市,帽峰山森林公园,,14,7,11,3,5,44,,38,38,15,15,8,8,0.5,0.5
2025-06-12T0800,2846A,113.3221,23.1322,广州市,体育西,,15,15,23,7,13,19,,10,10,23,42,4,4,0.4,0.4
2025-06-12T0800,3298A,113.5717,23.5491,广州市,从化街口,,24,24,12,6,5,17,,15,15,18,11,10,8,0.5,0.4
2025-06-12T0800,3299A,113.3472,23.3692,广州市,白云竹料,,12,12,15,3,7,33,,19,19,12,14,4,3,0.5,0.5
2025-06-12T0800,3300A,113.2981,23.237,广州市,白云嘉禾,,18,18,23,8,8,19,,7,7,21,21,6,6,0.8,0.8
2025-06-12T0800,3301A,113.4256,23.1716,广州市,黄埔科学城,,,,16,,7,,,,,,8,,4,,0.4
2025-06-12T0800,3302A,113.3942,23.0483,广州市,番禺大学城,,21,21,24,11,8,15,,16,16,30,22,5,5,0.5,0.5
2025-06-12T0800,3303A,113.4922,22.8168,广州市,南沙黄阁,,12,12,17,8,7,32,,28,28,15,10,6,6,0.6,0.5
2025-06-12T0800,3304A,113.5342,22.7896,广州市,南沙街,,12,10,16,7,6,38,,31,31,12,12,2,3,0.5,0.3
2025-06-12T0800,3443A,113.2902,23.5544,广州市,花都梯面,,18,18,14,7,6,21,,18,18,14,11,10,6,0.5,0.4
2025-06-12T0800,3445A,113.7858,23.7478,广州市,从化良口,,16,16,15,7,7,32,,15,15,7,8,7,6,0.7,0.7
2025-06-12T0800,3446A,113.8051,23.2614,广州市,增城荔城,,19,19,15,7,6,26,,20,20,9,9,6,6,0.2,0.2
2025-06-12T0800,2505A,109.568,23.1478,贵港市,德智高中,,,,,,,,,,,,,,,,
2025-06-12T0800,2506A,109.6047,23.0666,贵港市,江南子站,,27,27,20,12,12,20,,25,25,20,13,10,7,0.5,0.6
2025-06-12T0800,2508A,109.5669,23.1065,贵港市,荷城子站,,36,36,23,14,9,30,,27,27,15,14,6,5,0.4,0.4
2025-06-12T0800,3405A,109.5886,23.1172,贵港市,新世纪学校,,27,27,21,16,14,24,,22,22,18,13,1,2,0.6,0.6
2025-06-12T0800,4260A,109.5933,23.0951,贵港市,中山路155-3号,,26,26,27,14,12,20,,22,22,18,14,6,4,0.7,0.6
2025-06-12T0800,1439A,106.6899,26.5998,贵阳市,马鞍山,,24,24,31,9,13,14,,17,17,11,11,4,4,0.4,0.4
2025-06-12T0800,1441A,106.6243,26.6266,贵阳市,鉴湖路,,27,27,38,14,16,69,,75,75,8,10,6,5,0.4,0.4
2025-06-12T0800,1442A,106.7487,26.6343,贵阳市,燕子冲,,36,36,35,24,27,53,,52,52,19,12,4,5,0.4,0.4
2025-06-12T0800,1443A,106.6555,26.4365,贵阳市,碧云窝,,34,34,43,17,17,60,,45,45,8,11,5,5,0.4,0.4
2025-06-12T0800,1445A,106.7109,26.6027,贵阳市,红边门,,31,31,34,17,19,77,,70,70,8,9,4,5,0.3,0.2
2025-06-12T0800,1446A,106.7164,26.5699,贵阳市,新华路,,32,29,34,22,18,80,,80,80,10,12,7,12,0.5,0.4
2025-06-12T0800,1447A,106.674,26.5424,贵阳市,太慈桥,,27,27,29,12,17,82,,56,56,11,18,5,4,0.5,0.4
2025-06-12T0800,1552A,106.805,26.3003,贵阳市,桐木岭,,31,31,42,17,26,80,,78,78,3,3,1,1,0.8,0.8
2025-06-12T0800,4230A,106.6882,26.5695,贵阳市,花果园大街66号,,35,,32,24,26,79,,84,84,8,10,3,4,0.3,0.3
2025-06-12T0800,4231A,106.6873,26.5169,贵阳市,漓江路57号,,32,27,32,22,19,78,,81,81,7,9,1,2,0.4,0.3
2025-06-12T0800,1862A,110.4144,25.3167,桂林市,电子科大尧山校区,,,,,,,,,,,,,,,,
2025-06-12T0800,1864A,110.3089,25.2708,桂林市,龙隐路小学,,20,16,24,12,16,62,,64,64,6,6,8,8,0.7,0.7
2025-06-12T0800,1865A,110.2869,25.2178,桂林市,八中,,,,28,,16,,,,,10,10,6,5,0.7,0.7
2025-06-12T0800,3531A,110.296,25.1253,桂林市,旅游学院,,,,22,,19,,,,,,8,,2,,0.4
2025-06-12T0800,4222A,110.1835,25.2444,桂林市,环湖路276号,,25,22,23,17,18,64,,73,73,6,7,8,11,0.5,0.5
2025-06-12T0800,4301A,110.2803,25.2773,桂林市,信义路13号,,21,21,27,14,20,65,,69,69,7,7,1,1,0.7,0.7
2025-06-12T0800,2674A,100.2561,34.4714,果洛藏族自治州,玛沁县大武镇,,26,24,22,18,17,55,,59,59,9,5,18,17,0.4,0.4
2025-06-12T0800,1129A,126.5422,45.755,哈尔滨市,岭北,,23,16,17,14,12,71,,61,61,25,20,16,13,0.8,0.7
2025-06-12T0800,1130A,126.561,45.8167,哈尔滨市,松北商大,,27,27,22,9,11,57,,35,35,26,22,8,7,0.6,0.5
2025-06-12T0800,1131A,126.979,45.5419,哈尔滨市,阿城会宁,,23,23,21,13,13,72,,52,52,14,20,7,7,0.4,0.5
2025-06-12T0800,1132A,126.599,45.7222,哈尔滨市,南岗学府路,,30,30,34,12,13,59,,25,25,28,35,8,6,0.7,0.7
2025-06-12T0800,1133A,126.689,45.7733,哈尔滨市,太平宏伟公园,,,25,28,13,15,,,31,31,24,30,8,5,0.5,0.5
2025-06-12T0800,1134A,126.635,45.7667,哈尔滨市,道外承德广场,,,,37,17,14,58,,44,44,26,27,9,7,0.5,0.4
2025-06-12T0800,1135A,126.685,45.7319,哈尔滨市,香坊红旗大街,,34,34,36,10,18,59,,23,23,32,43,14,9,0.7,0.7
2025-06-12T0800,1136A,126.6411,45.7258,哈尔滨市,动力和平路,,31,31,30,14,15,61,,30,30,26,33,15,9,0.7,0.5
2025-06-12T0800,1137A,126.593,45.7478,哈尔滨市,道里建国路,,21,18,29,9,16,67,,51,51,28,30,10,10,0.6,0.5
2025-06-12T0800,1138A,126.615,45.61,哈尔滨市,平房东轻厂,,21,15,24,6,9,65,,36,36,17,28,10,8,0.4,0.3
2025-06-12T0800,1139A,126.595,45.9855,哈尔滨市,呼兰师专,,28,25,23,19,13,49,,43,43,33,24,12,9,0.4,0.3
2025-06-12T0800,1140A,126.6206,45.6842,哈尔滨市,省农科院,,41,41,38,13,17,59,,22,22,25,36,8,5,0.6,0.5
2025-06-12T0800,2688A,93.5128,42.8172,哈密市,地区监测站,,36,36,66,17,20,91,,97,97,8,8,3,3,0.1,0.1
2025-06-12T0800,2689A,93.4961,42.8328,哈密市,哈密师范学校,,36,36,55,11,15,90,,98,98,12,13,4,5,0.3,0.2
2025-06-12T0800,2671A,100.9048,36.9639,海北藏族自治州,海晏县西海镇,,21,21,16,7,16,46,,62,62,21,6,6,5,0.4,0.3
2025-06-12T0800,3867A,102.0738,36.5056,海东市,平安区公安北苑,,45,40,58,31,20,51,,80,80,28,8,18,10,1.0,0.6
2025-06-12T0800,1409A,110.576,19.9507,海口市,东寨港,,15,12,18,6,7,46,,43,43,2,2,10,7,0.4,0.4
2025-06-12T0800,1410A,110.3232,20.0574,海口市,海南大学,,26,26,23,6,8,50,,46,46,2,2,2,2,0.3,0.3
2025-06-12T0800,1411A,110.283,20.0053,海口市,秀英海南医院,,16,16,21,3,7,49,,45,45,2,3,4,4,0.2,0.2
2025-06-12T0800,1412A,110.338,19.9969,海口市,海南师范大学,,16,16,21,6,8,50,,46,46,2,2,3,3,0.4,0.4
2025-06-12T0800,1413A,110.33,20.0356,海口市,龙华路环保局宿舍,,16,16,23,7,8,50,,46,46,3,3,4,4,0.2,0.2
2025-06-12T0800,3539A,110.5111,19.9736,海口市,桂林洋子站,,16,16,16,8,8,49,,44,44,2,2,4,4,0.2,0.2
2025-06-12T0800,2673A,100.6188,36.2866,海南藏族自治州,共和县恰卜恰镇,,36,34,26,15,10,114,,101,101,5,7,15,15,0.2,0.3
2025-06-12T0800,2676A,97.3731,37.3753,海西蒙古族藏族自治州,德令哈市,,39,27,29,10,12,122,,134,134,1,5,10,11,0.7,0.7
2025-06-12T0800,1048A,114.5302,36.6116,邯郸市,东污水处理厂,颗粒物(PM10),56,61,73,12,15,127,,130,130,13,15,4,5,0.5,0.5
2025-06-12T0800,1049A,114.4918,36.5713,邯郸市,矿院,,44,44,55,27,23,129,,132,132,12,12,6,8,0.5,0.5
2025-06-12T0800,1050A,114.484,36.6133,邯郸市,丛台公园,,42,40,61,23,26,132,,138,138,12,11,12,12,0.5,0.5
2025-06-12T0800,3458A,114.7895,36.5593,邯郸市,香泉濮院小区,颗粒物(PM10),62,74,90,15,16,124,,128,128,13,15,4,3,0.4,0.5
2025-06-12T0800,3579A,114.50634,36.77178,邯郸市,永年区实验高中,颗粒物(PM10),53,55,78,29,40,134,,143,143,10,12,3,4,0.5,0.5
2025-06-12T0800,3580A,114.20016,36.44293,邯郸市,峰峰矿区临水派出所,,47,47,53,24,17,127,,129,129,9,7,9,8,0.5,0.4
2025-06-12T0800,2634A,106.9893,33.1842,汉中市,汉川机床厂子校,,26,26,37,15,17,72,,62,62,30,16,4,3,0.5,0.5
2025-06-12T0800,2635A,107.0154,33.0706,汉中市,市监测站,,38,38,38,20,17,50,,48,48,24,13,9,6,0.9,0.6
2025-06-12T0800,2636A,107.0089,33.1138,汉中市,鑫源开发区,,30,30,35,20,19,61,,47,47,18,16,7,6,0.5,0.4
2025-06-12T0800,2637A,107.007,33.0323,汉中市,南郑大河坎水厂,,45,45,36,23,18,38,,36,36,27,16,7,5,0.6,0.5
2025-06-12T0800,1223A,120.2072,30.2111,杭州市,滨江,,37,37,21,24,14,54,,67,67,26,26,6,6,0.7,0.6
2025-06-12T0800,1224A,120.0633,30.2747,杭州市,西溪,,33,26,17,23,14,41,,44,44,8,10,3,3,0.4,0.4
2025-06-12T0800,1226A,120.3417,30.3150,杭州市,下沙,,18,16,15,10,9,56,,70,70,26,24,6,5,0.3,0.3
2025-06-12T0800,1227A,120.1269,30.2456,杭州市,卧龙桥,,,,18,,11,,,73,,,15,,6,,0.4
2025-06-12T0800,1228A,120.1903,30.2692,杭州市,浙江农大,,35,25,20,24,16,44,,56,56,28,27,9,8,0.6,0.5
2025-06-12T0800,1230A,120.1197,30.3119,杭州市,和睦小学,,,,18,,13,62,,67,67,16,15,8,7,0.4,0.3
2025-06-12T0800,1231A,120.3019,30.4183,杭州市,临平镇,,23,13,21,10,11,72,,74,74,10,14,5,5,0.4,0.4
2025-06-12T0800,1232A,120.2753,30.1839,杭州市,城厢镇,,40,28,22,28,24,56,,64,64,19,21,6,7,0.5,0.5
2025-06-12T0800,1233A,120.0883,30.1808,杭州市,云栖,,36,28,14,25,12,29,,40,40,38,15,6,6,0.5,0.5
2025-06-12T0800,3557A,119.9464,30.0494,杭州市,镇二中,,38,34,22,26,17,41,,62,62,23,18,3,2,0.7,0.5
2025-06-12T0800,3558A,119.7183,30.2367,杭州市,市府大楼,,38,27,22,26,15,55,,63,63,11,14,6,6,0.3,0.3
2025-06-12T0800,3656A,120.1556,30.2864,杭州市,消防大队,,25,24,21,17,16,53,,62,62,24,24,5,4,0.5,0.5
2025-06-12T0800,1270A,117.1959,31.7848,合肥市,明珠广场,,46,46,52,29,36,47,,70,70,24,19,6,6,0.7,0.7
2025-06-12T0800,1271A,117.3072,31.8764,合肥市,三里街,,36,36,44,24,33,42,,66,66,16,14,5,6,0.7,0.8
2025-06-12T0800,1272A,117.2588,31.8707,合肥市,琥珀山庄,,46,36,43,32,35,52,,74,74,18,17,6,6,0.7,0.8
2025-06-12T0800,1273A,117.1604,31.9052,合肥市,董铺水库,,44,44,51,29,41,55,,76,76,14,13,2,2,0.5,0.6
2025-06-12T0800,1274A,117.25,31.8571,合肥市,长江中路,,46,46,56,31,36,56,,75,75,15,16,4,4,0.6,0.7
2025-06-12T0800,1275A,117.266,31.9436,合肥市,庐阳区,,46,46,49,27,35,47,,71,71,17,16,7,6,0.8,0.9
2025-06-12T0800,1276A,117.3453,31.8616,合肥市,瑶海区,,48,48,49,29,34,44,,68,68,21,18,6,6,0.8,0.9
2025-06-12T0800,1277A,117.3027,31.7964,合肥市,包河区,,39,39,48,27,36,25,,44,44,46,31,5,4,0.7,0.7
2025-06-12T0800,1278A,117.2776,31.7385,合肥市,滨湖新区,细颗粒物(PM2.5),52,46,48,36,40,48,,76,76,19,12,8,8,0.7,0.8
2025-06-12T0800,1279A,117.1318,31.8403,合肥市,高新区,细颗粒物(PM2.5),52,41,47,36,37,58,,78,78,17,16,7,7,0.6,0.7
2025-06-12T0800,3464A,117.3803,31.9147,合肥市,高教基地,,46,46,47,30,30,46,,69,69,16,14,6,6,0.7,0.8
2025-06-12T0800,3614A,79.924,37.0877,和田地区,地区环保局,颗粒物(PM10),185,320,918,88,258,109,,117,117,6,8,1,2,0.7,0.7
2025-06-12T0800,3615A,79.9131,37.113,和田地区,市环保局,颗粒物(PM10),200,349,1065,89,249,104,,118,118,7,9,3,2,0.0,0.1
2025-06-12T0800,2516A,108.2011,24.715,河池市,东仁乐园,,,,,,,,,,,,,,,,
2025-06-12T0800,2517A,108.0497,24.6947,河池市,市环保站,,36,36,31,12,14,17,,10,10,6,8,2,2,0.6,0.6
2025-06-12T0800,2518A,108.0983,24.6989,河池市,市疾控中心,颗粒物(PM10),54,58,32,18,15,8,,4,4,15,15,7,7,0.7,0.7
2025-06-12T0800,1696A,114.6778,23.7569,河源市,源西,,15,11,13,10,12,33,,34,34,12,17,5,4,0.6,0.4
2025-06-12T0800,1697A,114.6944,23.7586,河源市,东埔,,26,26,12,7,6,20,,24,24,18,11,6,4,0.6,0.6
2025-06-12T0800,1698A,114.6892,23.7233,河源市,老城,,21,21,18,8,9,27,,22,22,10,10,5,4,0.4,0.4
2025-06-12T0800,1718A,115.4208,35.2464,菏泽市,气象局,颗粒物(PM10),56,62,65,27,34,104,,105,105,15,13,5,4,0.5,0.4
2025-06-12T0800,3374A,115.5564,35.0891,菏泽市,定陶老年大学,颗粒物(PM10),53,56,60,19,23,104,,107,107,14,11,2,3,0.4,0.3
2025-06-12T0800,4184A,115.4797,35.24401,菏泽市,永昌路1号,颗粒物(PM10),56,61,66,17,24,100,,110,110,19,13,3,3,0.3,0.3
2025-06-12T0800,4193A,115.4715,35.2800,菏泽市,长城路999号,颗粒物(PM10),53,55,70,27,28,105,,119,119,23,14,6,4,0.4,0.4
2025-06-12T0800,2514A,111.5264,24.4172,贺州市,环保小区,,9,6,13,3,10,27,,39,39,15,8,9,9,0.9,0.8
2025-06-12T0800,2515A,111.5608,24.4078,贺州市,政协大楼,,25,25,14,13,10,21,,38,38,17,10,20,11,0.4,0.4
2025-06-12T0800,3534A,111.4744,24.4553,贺州市,西湾,,11,11,23,3,8,22,,31,31,9,7,7,7,0.6,0.6
2025-06-12T0800,2385A,114.17,35.9019,鹤壁市,市监测站,"颗粒物(PM10),细颗粒物(PM2.5)",55,60,70,39,40,117,,124,124,15,15,8,9,1.1,1.1
2025-06-12T0800,2386A,114.2956,35.7511,鹤壁市,市交警支队,颗粒物(PM10),57,63,60,27,32,105,,115,115,20,14,10,6,0.7,0.7
2025-06-12T0800,2387A,114.2878,35.7306,鹤壁市,迎宾馆,颗粒物(PM10),66,81,75,44,39,103,,113,113,20,14,3,4,0.8,0.7
2025-06-12T0800,3474A,114.2617,35.6822,鹤壁市,大新区,细颗粒物(PM2.5),87,65,68,64,41,106,,97,97,17,16,7,6,0.9,0.7
2025-06-12T0800,3596A,114.1572,35.9603,鹤壁市,南山宾馆,细颗粒物(PM2.5),63,62,78,45,43,115,,120,120,15,12,9,6,0.8,0.6
2025-06-12T0800,2244A,130.2537,47.3416,鹤岗市,哈啤分公司,,,11,15,,27,43,,37,37,8,6,14,15,0.4,0.3
2025-06-12T0800,2245A,130.2684,47.3086,鹤岗市,斯达机电,,23,23,22,13,14,50,,42,42,15,6,16,13,0.4,0.3
2025-06-12T0800,2246A,130.3114,47.3388,鹤岗市,东山纸板厂,,32,32,30,9,12,37,,13,13,16,13,13,13,0.5,0.5
2025-06-12T0800,2247A,130.1097,47.3382,鹤岗市,五号水库,,16,12,11,6,6,49,,26,26,11,8,9,9,0.4,0.4
2025-06-12T0800,2263A,127.4833,50.2524,黑河市,交通局,,28,28,37,6,14,47,,27,27,16,15,7,8,0.3,0.3
2025-06-12T0800,2264A,127.5144,50.2341,黑河市,环保局,,24,24,40,13,14,47,,26,26,15,15,5,6,0.2,0.3
2025-06-12T0800,2265A,127.5291,50.2472,黑河市,大黑河岛,,12,11,20,8,11,29,,21,21,11,11,20,20,0.4,0.3
2025-06-12T0800,1074A,115.6838,37.7541,衡水市,电机北厂,颗粒物(PM10),57,64,100,12,32,120,,136,136,11,13,5,6,0.3,0.4
2025-06-12T0800,1075A,115.6303,37.7316,衡水市,市监测站,颗粒物(PM10),67,84,97,3,27,121,,136,136,10,11,30,14,0.3,0.4
2025-06-12T0800,3188A,115.6683,37.7217,衡水市,市城管局,颗粒物(PM10),68,85,110,11,32,121,,139,139,10,12,2,3,0.3,0.4
2025-06-12T0800,3459A,115.5989,37.5491,衡水市,地表水厂,颗粒物(PM10),74,98,119,20,27,118,,126,126,12,14,6,6,0.3,0.4
2025-06-12T0800,2456A,112.5003,26.9167,衡阳市,原169医院,,32,32,27,16,18,43,,48,48,8,9,4,3,0.7,0.7
2025-06-12T0800,2457A,112.6194,26.9258,衡阳市,衡阳化工总厂,,29,21,34,20,22,36,,35,35,8,10,4,5,0.6,0.7
2025-06-12T0800,2458A,112.6211,26.8956,衡阳市,珠晖区环保局,,19,19,30,12,13,33,,31,31,9,13,5,5,0.7,0.7
2025-06-12T0800,2459A,112.6197,26.8733,衡阳市,市委党校,,27,27,26,12,16,37,,45,45,9,9,5,5,0.6,0.7
2025-06-12T0800,2460A,112.6006,26.8919,衡阳市,市监测站,,20,15,27,14,20,39,,39,39,8,11,6,7,0.6,0.7
2025-06-12T0800,2461A,112.5664,26.9056,衡阳市,真空机电公司,,26,22,27,18,23,35,,34,34,10,9,5,5,1.1,0.9
2025-06-12T0800,3399A,112.6703,26.882,衡阳市,师范学院,,26,25,28,18,17,37,,45,45,8,9,6,6,0.9,1
2025-06-12T0800,2608A,103.3772,23.3993,红河哈尼族彝族自治州,污水处理厂,,38,38,42,18,32,55,,57,57,15,10,7,15,0.4,0.5
2025-06-12T0800,2609A,103.3861,23.35,红河哈尼族彝族自治州,监测站,,35,35,49,20,31,64,,60,60,12,10,4,12,0.4,0.4
2025-06-12T0800,3038A,103.3758,23.368,红河哈尼族彝族自治州,州图书馆,,31,31,41,20,30,66,,77,77,14,9,3,12,0.3,0.3
2025-06-12T0800,1090A,111.6507,40.7517,呼和浩特市,呼市一监,颗粒物(PM10),63,75,44,30,19,136,,112,112,14,14,7,7,0.5,0.4
2025-06-12T0800,1091A,111.6572,40.8033,呼和浩特市,小召,颗粒物(PM10),56,61,38,31,16,112,,114,114,28,22,6,5,0.8,0.6
2025-06-12T0800,1094A,111.7516,40.8369,呼和浩特市,如意水处理厂,,,76,47,35,19,,,97,97,41,22,6,7,0.6,0.3
2025-06-12T0800,1095A,111.7276,40.8062,呼和浩特市,二十九中,颗粒物(PM10),59,67,47,38,20,127,,112,112,20,16,6,5,0.7,0.5
2025-06-12T0800,1096A,111.5512,40.7866,呼和浩特市,工大金川校区,"颗粒物(PM10),细颗粒物(PM2.5)",63,76,45,45,21,122,,118,118,27,19,12,7,0.8,0.5
2025-06-12T0800,1097A,111.717,40.7612,呼和浩特市,化肥厂生活区,颗粒物(PM10),61,72,64,30,16,141,,124,124,19,16,8,7,0.7,0.5
2025-06-12T0800,3698A,111.5968,40.8178,呼和浩特市,红旗小学,颗粒物(PM10),63,75,43,34,18,110,,101,101,33,23,6,5,0.5,0.3
2025-06-12T0800,3699A,111.6518,40.8389,呼和浩特市,海东办,颗粒物(PM10),68,85,41,34,18,94,,100,100,50,20,6,6,0.8,0.5
2025-06-12T0800,2192A,119.7594,49.2261,呼伦贝尔市,区环保局,,26,22,23,18,21,53,,44,44,21,14,6,5,0,0.1
2025-06-12T0800,3061A,119.7512,49.1577,呼伦贝尔市,国华电力东,,25,25,26,10,13,72,,54,54,8,9,5,7,0.3,0.3
2025-06-12T0800,1250A,120.0751,30.8669,湖州市,城西水厂,,40,40,42,23,27,58,,59,59,15,18,5,5,0.6,0.6
2025-06-12T0800,2873A,120.0830,30.8929,湖州市,仁皇山新区,,33,30,35,23,25,53,,54,54,19,22,4,4,0.5,0.5
2025-06-12T0800,2907A,120.1844,30.8596,湖州市,吴兴区站,,29,20,22,20,21,52,,57,57,15,15,6,6,0.3,0.3
2025-06-12T0800,3562A,120.4148,30.8538,湖州市,南浔区站,,29,20,25,20,26,56,,59,59,21,19,4,4,0.6,0.5
2025-06-12T0800,1607A,120.9049,40.7211,葫芦岛市,龙港区,,28,26,43,11,25,88,,111,111,11,17,8,27,0.5,0.7
2025-06-12T0800,1608A,120.8392,40.7514,葫芦岛市,化工街,,31,31,44,9,24,73,,87,87,26,26,7,16,0.5,0.6
2025-06-12T0800,1609A,120.8341,40.7073,葫芦岛市,新区,,25,19,36,8,27,79,,106,106,18,16,6,9,0.6,0.7
2025-06-12T0800,1610A,120.8695,40.7677,葫芦岛市,东城区,,36,36,42,3,23,76,,88,88,22,23,6,18,0.6,0.8
2025-06-12T0800,2482A,109.5981,27.5721,怀化市,林科所,,35,35,33,9,13,26,,31,31,10,8,4,5,0.4,0.5
2025-06-12T0800,2483A,109.9453,27.5444,怀化市,河西地税局,,30,30,35,19,20,24,,14,14,16,13,2,4,0.4,0.3
2025-06-12T0800,2484A,109.9781,27.5342,怀化市,市四医院,,27,27,49,18,23,45,,25,25,8,10,1,3,1.4,0.8
2025-06-12T0800,2485A,109.9972,27.5578,怀化市,监测楼,,29,24,34,20,22,41,,35,35,7,13,4,8,0.3,0.2
2025-06-12T0800,2486A,110.0394,27.583,怀化市,市委党校,,23,17,26,16,21,46,,38,38,5,4,4,6,0.3,0.3
2025-06-12T0800,1210A,119.036,33.5981,淮安市,钵池山,,28,24,30,19,23,86,,77,77,18,18,9,7,0.6,0.4
2025-06-12T0800,1211A,119.007,33.575,淮安市,北京南路,,31,31,32,15,16,81,,79,79,9,6,10,7,0.9,0.6
2025-06-12T0800,1212A,118.989,33.6067,淮安市,市监测站,,32,27,27,22,16,82,,85,85,14,10,12,9,0.4,0.2
2025-06-12T0800,1213A,119.135,33.5039,淮安市,楚州区监测站,,34,34,39,21,18,76,,67,67,12,12,8,8,0.5,0.4
2025-06-12T0800,3426A,118.8755,33.2894,淮安市,新华书店,,24,24,24,14,11,76,,70,70,12,11,10,8,0.6,0.4
2025-06-12T0800,4206A,119.0288,33.6319,淮安市,承德北路606号,,34,34,35,22,22,80,,76,76,16,12,8,6,0.5,0.4
2025-06-12T0800,2282A,116.8004,33.975,淮北市,监测站,,36,36,39,21,18,83,,90,90,9,8,7,7,0.6,0.6
2025-06-12T0800,2283A,116.8091,33.9007,淮北市,烈山区政府,颗粒物(PM10),54,58,52,23,19,74,,82,82,13,10,9,8,0.7,0.7
2025-06-12T0800,3330A,116.8873,33.9836,淮北市,杜集区检察院,,38,38,44,21,17,81,,89,89,6,5,10,8,0.7,0.7
2025-06-12T0800,4017A,116.7923,33.9535,淮北市,市博物馆,,29,26,36,20,16,83,,90,90,11,10,9,8,0.7,0.7
2025-06-12T0800,2277A,116.8305,32.7727,淮南市,潘集区政府,,,,50,,30,,,74,74,16,13,4,3,0.7,0.6
2025-06-12T0800,2279A,116.8569,32.5951,淮南市,谢家集区政府,细颗粒物(PM2.5),53,46,48,37,26,63,,79,79,16,14,9,7,0.4,0.4
2025-06-12T0800,2280A,116.8281,32.633,淮南市,八公山区政府,细颗粒物(PM2.5),55,57,47,39,28,66,,82,82,15,12,5,4,0.4,0.3
2025-06-12T0800,2281A,116.6325,32.6201,淮南市,焦岗湖风景区管理处,,,,,,,,,,,,,,,,
2025-06-12T0800,2894A,117.0566,32.6531,淮南市,经济技术开发区消防队,细颗粒物(PM2.5),68,,41,49,37,57,,69,69,19,16,7,7,0.5,0.4
2025-06-12T0800,3329A,117.0108,32.5893,淮南市,山南新区,,50,50,46,30,30,59,,80,80,15,10,9,8,0.6,0.5
2025-06-12T0800,4209A,117.0031,32.6445,淮南市,国庆中路369号,细颗粒物(PM2.5),62,57,51,44,36,60,,75,75,17,12,7,6,0.5,0.4
2025-06-12T0800,2446A,114.9028,30.4742,黄冈市,职工中心,,46,39,39,32,29,68,,67,67,6,7,10,9,0.6,0.7
2025-06-12T0800,2929A,114.8858,30.4519,黄冈市,红卫路,,48,48,38,28,23,62,,68,68,9,8,6,6,0.5,0.7
2025-06-12T0800,3398A,114.9136,30.4445,黄冈市,市林业局,,48,45,40,33,26,55,,58,58,12,13,9,9,0.7,0.7
2025-06-12T0800,2672A,102.0199,35.5102,黄南藏族自治州,同仁县隆务镇,,24,16,23,9,8,75,,88,88,1,2,5,5,0.3,0.2
2025-06-12T0800,2295A,118.2903,29.6963,黄山市,延安路89号,,19,19,13,13,6,37,,31,31,8,6,6,5,0.5,0.5
2025-06-12T0800,2297A,118.1371,30.2756,黄山市,黄山区政府5号楼,,38,,12,26,10,40,,23,23,3,3,3,3,0.5,0.4
2025-06-12T0800,4210A,118.3354,29.7203,黄山市,滨江东路7-2号,,,21,15,3,4,,,35,35,7,5,,4,0.5,0.3
2025-06-12T0800,2423A,115.0601,30.2313,黄石市,沈家营,,49,49,40,19,17,60,,77,77,30,10,11,8,1.4,0.8
2025-06-12T0800,2426A,114.8988,30.2019,黄石市,铁山,,27,25,29,16,17,85,,84,84,7,16,3,4,0.6,0.7
2025-06-12T0800,2427A,115.0307,30.2092,黄石市,团城山,,32,32,37,10,13,90,,99,99,3,4,8,9,0.5,0.5
2025-06-12T0800,3149A,115.0235,30.1578,黄石市,笔架山北路,,38,38,31,12,12,73,,86,86,11,9,5,5,0.6,0.6
2025-06-12T0800,4185A,115.0780,30.21118,黄石市,磁湖东路29号,,37,37,39,11,20,81,,93,93,6,6,8,8,0.6,0.5
2025-06-12T0800,1392A,114.4183,23.0528,惠州市,河南岸金山湖子站,,22,22,16,9,6,21,,26,26,14,9,7,6,0.6,0.5
2025-06-12T0800,1393A,114.4053,23.0822,惠州市,下埔横江三路子站,,25,25,18,11,7,31,,33,33,12,7,5,4,0.4,0.3
2025-06-12T0800,1394A,114.4103,23.1142,惠州市,江北云山西路子站,,22,22,18,14,7,31,,30,30,11,7,9,8,0.4,0.3
2025-06-12T0800,1395A,114.4645,22.7833,惠州市,惠阳区承修路船湖子站,,21,21,18,7,6,31,,33,33,13,8,8,7,0.5,0.4
2025-06-12T0800,1396A,114.5317,22.7422,惠州市,大亚湾管委会子站,,16,16,18,6,4,50,,36,36,17,11,10,9,0.5,0.4
2025-06-12T0800,3314A,114.4338,22.8134,惠州市,惠阳秋长,,17,17,13,3,6,45,,40,40,8,4,2,3,0.6,0.5
2025-06-12T0800,3452A,114.6517,22.775,惠州市,大亚湾霞涌,,15,11,14,3,3,48,,38,38,9,7,6,6,0.7,0.5
2025-06-12T0800,2240A,130.9762,45.3001,鸡西市,环保局,,18,17,17,12,8,51,,36,36,14,12,2,3,0.4,0.4
2025-06-12T0800,2243A,130.9429,45.3039,鸡西市,第一中学,,18,14,16,12,8,49,,33,33,8,7,5,7,0.4,0.4
2025-06-12T0800,3707A,131.0207,45.3073,鸡西市,欧美日汽修厂,,25,25,22,8,10,45,,23,23,16,14,7,6,0.6,0.6
2025-06-12T0800,3709A,130.9967,45.3106,鸡西市,市政设施管理处,,22,22,21,10,11,52,,26,26,17,17,7,7,0.5,0.5
2025-06-12T0800,2367A,114.9754,27.0803,吉安市,红声器材厂,,26,26,20,7,9,41,,43,43,10,8,6,8,0.5,0.6
2025-06-12T0800,2368A,114.9658,27.0999,吉安市,市森林工业局,,23,23,18,14,9,45,,53,53,10,5,7,7,0.4,0.5
2025-06-12T0800,2369A,114.99,27.1312,吉安市,市环境监测站,,20,20,15,9,7,44,,45,45,9,8,9,8,0.9,0.6
2025-06-12T0800,2370A,115.0093,27.0968,吉安市,青原区法院,,22,22,21,13,11,42,,41,41,10,10,6,8,0.4,0.4
2025-06-12T0800,1772A,126.54,43.8622,吉林市,哈达湾,,23,12,14,10,11,71,,55,55,8,11,6,6,0.3,0.3
2025-06-12T0800,1773A,126.5844,43.8358,吉林市,东局子,,24,16,22,7,10,76,,58,58,7,12,5,6,0.5,0.5
2025-06-12T0800,1774A,126.5052,43.8245,吉林市,电力学院,,21,12,20,8,14,65,,26,26,10,17,5,4,0.4,0.4
2025-06-12T0800,1775A,126.6133,43.8972,吉林市,江北,,25,14,20,7,12,77,,38,38,7,11,7,9,0.6,0.6
2025-06-12T0800,1776A,126.555,43.8306,吉林市,江南公园,,22,11,15,10,10,68,,50,50,8,9,5,5,0.3,0.3
2025-06-12T0800,1778A,126.7061,43.7133,吉林市,丰满,,,,,,,,,,,,,,,,
2025-06-12T0800,2868A,126.4739,43.953,吉林市,九站,,24,24,17,10,10,66,,53,53,17,14,6,6,0.4,0.3
2025-06-12T0800,1299A,116.9862,36.6114,济南市,科干所,,38,36,52,15,23,121,,128,128,9,10,7,6,0.3,0.4
2025-06-12T0800,1300A,116.9376,36.665,济南市,农科所,,49,49,58,7,22,108,,116,116,16,14,8,8,0.2,0.3
2025-06-12T0800,1301A,117.1265,36.6734,济南市,开发区,,46,46,56,17,24,120,,130,130,18,16,10,8,0.7,0.7
2025-06-12T0800,1303A,117.0624,36.6868,济南市,省种子仓库,,,51,59,14,20,,,140,140,13,10,7,7,0.3,0.4
2025-06-12T0800,1304A,116.9489,36.6447,济南市,机床二厂,颗粒物(PM10),51,51,65,7,20,107,,113,113,13,14,7,6,0.4,0.5
2025-06-12T0800,1305A,117.0495,36.663,济南市,市监测站,,46,46,58,12,22,115,,130,130,18,14,10,10,0.5,0.6
2025-06-12T0800,1306A,116.7675,36.5484,济南市,长清党校,,39,39,67,20,29,113,,122,122,15,17,7,7,0.6,0.7
2025-06-12T0800,1616A,117.6795,36.229,济南市,技术学院,颗粒物(PM10),65,80,53,31,20,72,,77,77,32,18,14,12,0.9,0.7
2025-06-12T0800,1961A,117.532,36.6868,济南市,东山小学,颗粒物(PM10),59,68,54,29,19,105,,107,107,14,9,13,9,0.6,0.4
2025-06-12T0800,3059A,117.7161,36.2049,济南市,泰兴公司,颗粒物(PM10),62,73,52,36,22,85,,80,80,25,20,10,9,0.6,0.6
2025-06-12T0800,3064A,117.6867,36.2171,济南市,莱芜战役纪念馆,颗粒物(PM10),65,80,51,36,23,79,,85,85,27,14,9,8,1.1,0.8
2025-06-12T0800,3494A,117.1673,36.9782,济南市,济阳区政府,颗粒物(PM10),69,88,81,24,22,87,,98,98,34,21,9,7,0.4,0.3
2025-06-12T0800,3495A,117.1171,36.63,济南市,锦屏中学,,39,39,54,15,20,111,,127,127,13,10,11,10,0.7,0.7
2025-06-12T0800,3682A,116.9814,36.6819,济南市,济南四建,,,,60,,25,114,,134,134,,16,,6,0.3,0.4
2025-06-12T0800,1653A,116.6251,35.4302,济宁市,火炬城,,37,37,60,19,25,74,,87,87,13,10,5,5,0.6,0.6
2025-06-12T0800,1655A,116.5491,35.4042,济宁市,电化厂,,41,41,57,17,28,83,,99,99,8,4,3,3,0.6,0.6
2025-06-12T0800,3500A,116.5814,35.3707,济宁市,北湖一中,,39,39,58,19,30,79,,100,100,13,9,7,8,0.4,0.4
2025-06-12T0800,3501A,116.8249,35.5593,济宁市,服务中心,,41,41,67,12,22,80,,90,90,15,13,3,2,0.4,0.5
2025-06-12T0800,3678A,116.5907,35.4054,济宁市,市第七中学,,49,49,70,12,20,83,,96,96,9,6,6,9,0.3,0.4
2025-06-12T0800,2255A,130.2751,46.8028,佳木斯市,佳纺,,28,28,19,6,8,63,,31,31,6,13,7,7,0.3,0.3
2025-06-12T0800,2256A,130.3995,46.8307,佳木斯市,发电厂,,,,9,,6,,,,,,8,,4,,0.3
2025-06-12T0800,2257A,130.3258,46.7975,佳木斯市,环保局,,23,23,19,12,9,65,,45,45,8,11,6,6,0.3,0.3
2025-06-12T0800,2258A,130.3648,46.8032,佳木斯市,十一中,,22,22,20,12,13,58,,39,39,11,13,4,4,0.4,0.4
2025-06-12T0800,2259A,130.3794,46.7588,佳木斯市,四丰,,,27,14,,10,,,,,5,6,1,10,0.5,0.5
2025-06-12T0800,1252A,120.7436,30.778,嘉兴市,清河小学,,17,14,24,7,13,52,,57,57,20,18,6,7,0.7,0.7
2025-06-12T0800,1253A,120.726,30.7478,嘉兴市,嘉兴学院,,20,18,26,14,20,55,,55,55,20,19,4,5,0.7,0.6
2025-06-12T0800,2872A,120.7846,30.7525,嘉兴市,南湖区残联,,18,13,20,12,18,57,,58,58,18,18,5,5,0.5,0.5
2025-06-12T0800,3407A,120.6916,30.7739,嘉兴市,秀洲住建,,18,14,22,10,16,56,,58,58,19,19,5,5,0.7,0.7
2025-06-12T0800,1945A,98.2908,39.7711,嘉峪关市,气象局,,46,46,42,9,12,100,,99,99,22,12,22,10,1.2,0.4
2025-06-12T0800,2884A,98.2672,39.7978,嘉峪关市,酒钢宾馆,,41,41,48,17,15,107,,95,95,10,11,50,28,0.4,0.6
2025-06-12T0800,3248A,98.2643,39.7724,嘉峪关市,雄关区,,40,40,41,22,15,84,,78,78,24,18,30,13,0.9,0.4
2025-06-12T0800,1383A,113.1064,22.6058,江门市,北街,,6,6,15,3,4,16,,25,25,11,7,3,3,0.3,0.3
2025-06-12T0800,1384A,113.0731,22.5835,江门市,西区,,8,,16,3,9,18,,28,28,15,11,7,8,0.5,0.4
2025-06-12T0800,1385A,113.0219,22.5311,江门市,圭峰西,,9,,15,6,6,18,,29,29,13,9,4,4,0.5,0.3
2025-06-12T0800,1386A,113.0828,22.5947,江门市,东湖,,13,13,14,3,6,16,,26,26,18,13,9,9,0.4,0.3
2025-06-12T0800,3311A,113.1075,22.5647,江门市,江海富民,,18,13,21,12,10,16,,28,28,17,15,9,9,0.5,0.4
2025-06-12T0800,3449A,113.05,22.4667,江门市,新会银湖,,13,13,15,3,8,12,,19,19,14,13,2,3,0.3,0.2
2025-06-12T0800,1830A,113.1992,35.2590,焦作市,影视城,,,,45,,13,,,,,,9,,12,,0.7
2025-06-12T0800,3169A,113.2725,35.2067,焦作市,太极体育中心,细颗粒物(PM2.5),54,55,69,38,37,127,,125,125,13,13,5,6,0.3,0.2
2025-06-12T0800,3335A,113.3137,35.2641,焦作市,马村街道办,颗粒物(PM10),59,68,72,41,43,113,,117,117,20,18,10,11,0.5,0.5
2025-06-12T0800,3336A,113.2465,35.2373,焦作市,焦作技师学院,颗粒物(PM10),53,56,67,24,25,111,,118,118,17,12,10,8,1.0,0.8
2025-06-12T0800,3477A,113.1656,35.2539,焦作市,中站许衡医院,颗粒物(PM10),60,69,64,28,31,120,,116,116,16,14,8,7,0.7,0.6
2025-06-12T0800,3981A,113.2449,35.1803,焦作市,原李万街道办,颗粒物(PM10),55,59,62,22,24,131,,128,128,15,14,13,14,0.3,0.3
2025-06-12T0800,4264A,113.2340,35.2190,焦作市,新安路1731号,颗粒物(PM10),64,77,74,30,31,127,,,,12,10,11,7,0.5,0.3
2025-06-12T0800,1708A,116.3701,23.5345,揭阳市,新兴,,,,27,13,13,51,,61,61,8,8,6,7,0.7,0.7
2025-06-12T0800,1709A,116.3264,23.5443,揭阳市,西马,,22,16,28,15,13,50,,59,59,7,7,4,4,0.7,0.6
2025-06-12T0800,1710A,116.3611,23.5626,揭阳市,东兴,,18,16,48,12,9,49,,,,10,8,6,6,0.6,0.4
2025-06-12T0800,1711A,116.4151,23.5294,揭阳市,渔湖,,15,10,28,9,12,47,,58,58,9,8,3,3,0.7,0.7
2025-06-12T0800,3320A,116.403,23.5699,揭阳市,曲溪,,22,22,24,10,12,50,,60,60,8,6,8,7,0.5,0.4
2025-06-12T0800,1944A,102.1692,38.5167,金昌市,天庆家园,颗粒物(PM10),62,73,43,26,16,96,,103,103,12,8,14,26,0.9,0.7
2025-06-12T0800,4022A,102.1647,38.5371,金昌市,金川区人防中心,颗粒物(PM10),61,72,44,26,19,90,,95,95,10,6,31,22,0.5,0.4
2025-06-12T0800,4239A,102.1930,38.5319,金昌市,长春路96号,颗粒物(PM10),62,74,47,25,15,87,,103,103,13,5,36,26,1.2,0.6
2025-06-12T0800,1262A,119.647,29.077,金华市,十五中,,26,26,28,14,13,62,,64,64,21,18,1,16,0.6,0.6
2025-06-12T0800,1263A,119.686,29.1029,金华市,监测站,,29,29,26,17,17,57,,60,60,22,18,3,3,0.4,0.4
2025-06-12T0800,3659A,119.656,29.1131,金华市,气象局,,22,22,21,9,10,57,,57,57,22,19,2,2,0.6,0.6
2025-06-12T0800,1767A,121.1115,41.0879,锦州市,南山,,31,31,32,14,38,77,,102,102,18,15,14,13,0.6,0.7
2025-06-12T0800,1768A,121.0604,40.8428,锦州市,开发区,,,,44,,46,,,118,,,24,,12,,0.9
2025-06-12T0800,1769A,121.1836,41.1119,锦州市,百股街道,,33,33,34,3,21,82,,108,108,18,15,14,14,0.6,0.7
2025-06-12T0800,1770A,121.1178,41.1222,锦州市,天安街道,,35,28,36,24,34,83,,108,108,24,20,14,12,0.9,1
2025-06-12T0800,1771A,121.1303,41.1386,锦州市,北湖公园,,32,32,36,15,34,82,,102,102,20,16,14,13,0.6,0.7
2025-06-12T0800,2160A,112.85,35.5051,晋城市,自来水公司,,,,66,,29,,,144,144,15,12,,2,0.3,0.2
2025-06-12T0800,2161A,112.8318,35.4936,晋城市,白云商贸,颗粒物(PM10),61,71,71,22,20,132,,135,135,17,17,9,9,0.5,0.5
2025-06-12T0800,2162A,112.8508,35.4887,晋城市,市环保局,颗粒物(PM10),56,62,78,34,30,121,,129,129,13,13,9,9,0.2,0.2
2025-06-12T0800,2163A,112.8676,35.4897,晋城市,技术学院,颗粒物(PM10),59,68,69,24,26,124,,141,141,15,13,7,8,0.8,0.7
2025-06-12T0800,2165A,112.8453,35.546,晋城市,白马寺,细颗粒物(PM2.5),58,45,46,41,33,124,,145,145,10,8,5,5,0.6,0.6
2025-06-12T0800,3620A,112.8271,35.4828,晋城市,泽州一中,颗粒物(PM10),52,53,66,27,26,132,,132,132,16,15,3,4,0.7,0.5
2025-06-12T0800,2173A,112.7249,37.7067,晋中市,南都小区,"颗粒物(PM10),细颗粒物(PM2.5)",54,58,63,38,31,149,,157,157,8,9,6,6,0.6,0.5
2025-06-12T0800,2174A,112.6991,37.6982,晋中市,榆次区政府,颗粒物(PM10),59,68,65,30,22,144,,156,156,14,12,7,7,0.7,0.6
2025-06-12T0800,2865A,112.7195,37.6828,晋中市,榆次三中,颗粒物(PM10),60,70,70,29,27,151,,160,160,11,11,7,7,0.6,0.5
2025-06-12T0800,4200A,112.7478,37.6954,晋中市,迎宾街26号,,,,73,,25,,,,,,11,,8,,0.5
2025-06-12T0800,2439A,112.2014,31.0481,荆门市,竹园小学,细颗粒物(PM2.5),57,47,40,40,27,73,,84,84,2,8,8,7,0.6,0.3
2025-06-12T0800,2440A,112.1969,30.9891,荆门市,掇刀,,36,33,36,25,24,83,,80,80,11,11,8,9,0.6,0.6
2025-06-12T0800,2441A,112.2213,31.0386,荆门市,石化一小,颗粒物(PM10),51,51,44,26,22,64,,70,70,26,18,19,14,0.9,0.3
2025-06-12T0800,3012A,112.1849,31.0362,荆门市,西山林语,,39,34,29,27,22,72,,79,79,16,7,14,11,0.7,0.4
2025-06-12T0800,3547A,112.1632,31.0138,荆门市,龙泉中学南校,,27,21,33,18,20,84,,61,61,23,18,7,5,0.6,0.5
2025-06-12T0800,1844A,112.2494,30.3197,荆州市,市图书馆,,26,21,23,16,16,81,,79,79,13,12,4,5,0.7,0.6
2025-06-12T0800,1845A,112.2008,30.3544,荆州市,市委党校,,29,29,23,17,15,68,,68,68,16,16,6,8,0.7,0.5
2025-06-12T0800,3194A,112.2747,30.3122,荆州市,管委会,,29,26,23,20,19,67,,58,58,18,16,7,7,0.8,0.7
2025-06-12T0800,4268A,112.1722,30.3366,荆州市,学苑路85号,,43,41,23,30,20,63,,60,60,38,28,5,5,0.2,0.2
2025-06-12T0800,2342A,117.3102,29.3867,景德镇市,王港中学,,,,,,,,,,,,,,,,
2025-06-12T0800,2343A,117.2117,29.2933,景德镇市,老干部活动中心,,11,11,7,3,2,25,,33,33,9,7,4,4,0.5,0.4
2025-06-12T0800,2344A,117.1894,29.2789,景德镇市,兽医站,,25,25,17,10,5,32,,37,37,8,7,5,4,0.6,0.4
2025-06-12T0800,2345A,117.1547,29.2617,景德镇市,台达陶瓷,,16,16,14,7,7,34,,40,40,9,11,6,15,0.4,0.5
2025-06-12T0800,2346A,117.2461,29.2956,景德镇市,陶研所,,15,15,9,3,2,30,,26,26,8,5,1,1,0.3,0.3
2025-06-12T0800,1803A,115.9872,29.6815,九江市,十里,,35,26,23,24,20,48,,56,56,16,12,4,3,0.8,0.7
2025-06-12T0800,1804A,115.9584,29.7046,九江市,茅山头,,,,27,,21,52,,57,57,18,15,3,4,0.5,0.3
2025-06-12T0800,1805A,115.9877,29.7295,九江市,西园,,25,25,25,17,17,61,,65,65,27,22,5,5,1.0,1
2025-06-12T0800,1808A,115.9114,29.6038,九江市,综合工业园,,44,44,25,26,18,42,,32,32,32,23,10,9,0.9,0.8
2025-06-12T0800,1809A,116.0721,29.7535,九江市,石化总厂,细颗粒物(PM2.5),54,,28,38,29,57,,52,52,11,12,4,4,0.8,0.8
2025-06-12T0800,1810A,115.9773,29.5698,九江市,庐山气象台,,22,6,5,6,5,69,,75,75,3,3,48,23,0.6,0.7
2025-06-12T0800,3190A,116.0254,29.6994,九江市,外国语学校,,29,,17,20,15,48,,57,57,17,11,8,7,0.7,0.8
2025-06-12T0800,4253A,116.0102,29.6594,九江市,莲花大道8号,,25,20,19,17,16,45,,47,47,9,5,4,4,0.6,0.7
2025-06-12T0800,4240A,98.4958,39.7339,酒泉市,玉门东路5号,颗粒物(PM10),51,51,47,27,22,86,,74,74,8,9,11,10,0.3,0.3
2025-06-12T0800,4241A,98.5099,39.7506,酒泉市,北大街108号,,36,36,41,15,18,96,,86,86,9,8,10,10,0.2,0.3
2025-06-12T0800,2698A,76.0072,39.4467,喀什地区,巡警大队,,36,25,196,11,22,115,,117,117,7,11,6,7,0.3,0.3
2025-06-12T0800,2699A,75.9755,39.4694,喀什地区,吾办,,37,24,72,9,23,117,,115,115,8,13,3,2,0.0,0.2
2025-06-12T0800,4027A,75.9483,39.4689,喀什地区,老干局,,,,266,,41,,,102,,,22,,8,,0.2
2025-06-12T0800,1824A,114.3389,34.7781,开封市,肿瘤医院,颗粒物(PM10),62,74,53,36,24,109,,105,105,12,8,2,2,0.7,0.5
2025-06-12T0800,1826A,114.2885,34.7965,开封市,世纪星幼儿园,细颗粒物(PM2.5),90,,68,67,32,118,,120,120,21,14,3,2,0.8,0.7
2025-06-12T0800,3147A,114.3438,34.8106,开封市,龙亭公园,细颗粒物(PM2.5),53,54,47,37,31,122,,116,116,13,10,5,4,0.5,0.4
2025-06-12T0800,3210A,114.3644,34.7964,开封市,汴京公园,细颗粒物(PM2.5),94,73,62,70,32,115,,112,112,20,12,9,8,0.9,0.7
2025-06-12T0800,3473A,114.2485,34.8306,开封市,技师学院,,,,54,,30,,,160,,,8,,3,,0.9
2025-06-12T0800,3592A,114.4644,34.7556,开封市,祥符区生态环境局,颗粒物(PM10),58,66,57,39,29,105,,105,105,19,19,6,5,0.9,0.6
2025-06-12T0800,1951A,84.895,45.6094,克拉玛依市,长征新村,,25,15,24,3,7,79,,96,96,10,7,4,4,0.5,0.3
2025-06-12T0800,1952A,84.8988,45.5893,克拉玛依市,南林小区,,24,17,27,3,10,76,,100,100,7,9,11,11,0.1,0.1
2025-06-12T0800,1954A,84.905,44.3396,克拉玛依市,独山子区,,31,31,29,14,13,64,,79,79,13,11,6,6,0.2,0.2
2025-06-12T0800,1955A,85.6979,46.098,克拉玛依市,乌尔禾区商贸楼,,27,27,26,3,8,45,,77,77,12,6,3,3,0.5,0.3
2025-06-12T0800,3612A,85.1045,45.6899,克拉玛依市,白碱滩区新站,颗粒物(PM10),59,68,40,25,21,62,,105,105,20,5,14,14,0.2,0.2
2025-06-12T0800,2697A,76.1454,39.7142,克孜勒苏柯尔克孜自治州,市人民政府,,41,24,82,12,26,129,,132,132,3,4,3,9,0.5,0.5
2025-06-12T0800,3665A,76.1658,39.7157,克孜勒苏柯尔克孜自治州,克州文化中心,,41,27,76,16,33,129,,131,131,1,4,30,8,0.2,0.2
2025-06-12T0800,1450A,102.8204,24.8886,昆明市,呈贡新区,,48,48,29,32,23,27,,56,56,47,18,7,6,0.9,0.4
2025-06-12T0800,1451A,102.6251,24.9608,昆明市,西山森林公园,,,,,,,,,,,,,,,,
2025-06-12T0800,1452A,102.7252,25.0902,昆明市,龙泉镇,,36,36,30,22,14,30,,31,31,26,24,1,2,0.5,0.3
2025-06-12T0800,1453A,102.7266,25.0375,昆明市,东风东路,,50,48,50,35,26,50,,78,78,26,21,8,7,0.5,0.3
2025-06-12T0800,1454A,102.6742,25.0669,昆明市,金鼎山,,36,34,31,25,13,55,,74,74,28,15,2,2,0.5,0.3
2025-06-12T0800,1455A,102.6644,25.0401,昆明市,碧鸡广场,,45,45,34,16,20,67,,79,79,25,16,6,7,0.5,0.4
2025-06-12T0800,3179A,102.7494,25.0119,昆明市,官渡区博物馆,,48,48,34,27,18,29,,52,52,53,24,9,7,0.7,0.3
2025-06-12T0800,3375A,102.8017,24.8336,昆明市,青年创业园,颗粒物(PM10),53,55,36,31,22,23,,64,64,32,14,11,8,0.5,0.3
2025-06-12T0800,3550A,102.7997,24.9786,昆明市,昆明学院,颗粒物(PM10),71,91,47,43,23,41,,66,66,40,20,10,7,0.5,0.3
2025-06-12T0800,3551A,102.5967,24.6736,昆明市,晋宁区生态环境分局,,46,46,28,24,20,54,,72,72,26,13,2,3,0.5,0.4
2025-06-12T0800,3552A,102.6678,24.9856,昆明市,云天化总部,,45,45,33,30,21,44,,68,68,36,17,4,4,0.4,0.3
2025-06-12T0800,1456A,91.1319,29.6514,拉萨市,八廓街,,20,15,25,9,13,62,,78,78,15,14,16,12,0.3,0.3
2025-06-12T0800,1457A,91.1221,29.6747,拉萨市,市环保局,,40,40,30,16,16,50,,62,62,19,15,15,10,0.4,0.4
2025-06-12T0800,1458A,91.0874,29.6475,拉萨市,区监测站,,29,29,26,11,16,47,,66,66,34,22,12,10,0.4,0.4
2025-06-12T0800,1459A,91.1774,29.6541,拉萨市,西藏大学,,22,18,21,7,10,69,,81,81,11,11,17,8,0.2,0.2
2025-06-12T0800,1460A,90.9798,29.6588,拉萨市,区辐射站,,50,50,29,24,20,28,,60,60,49,19,10,8,0.5,0.3
2025-06-12T0800,1461A,91.0834,29.6292,拉萨市,拉萨火车站,,23,23,21,11,12,45,,62,62,29,15,6,7,0.3,0.2
2025-06-12T0800,2520A,109.2203,23.7256,来宾市,来宾技工学校,,21,21,23,10,12,46,,47,47,11,9,8,7,0.8,0.7
2025-06-12T0800,3535A,109.1781,23.7297,来宾市,兴宾区政府,,19,19,19,7,10,49,,45,45,8,7,4,4,0.9,0.8
2025-06-12T0800,4002A,109.2416,23.7461,来宾市,中南小学,,23,23,24,11,13,42,,42,42,12,9,8,7,0.9,0.8
2025-06-12T0800,1477A,104.1373,35.9454,兰州市,榆中兰大校区,,,,,,,,,,,,,,,,
2025-06-12T0800,1479A,103.831,36.0464,兰州市,铁路设计院,颗粒物(PM10),60,70,53,30,28,15,,15,15,73,58,12,15,0.7,0.7
2025-06-12T0800,3241A,103.7439,36.0842,兰州市,百合公园,颗粒物(PM10),56,62,52,24,19,11,,5,5,53,47,4,5,0.7,0.5
2025-06-12T0800,3242A,103.9611,35.998,兰州市,和平,,45,45,55,18,18,69,,75,75,24,16,8,11,0.5,0.5
2025-06-12T0800,4236A,103.6293,36.0938,兰州市,庄浪东路808号,颗粒物(PM10),57,63,47,27,26,24,,33,33,69,42,14,11,0.6,0.4
2025-06-12T0800,4237A,103.7251,36.1043,兰州市,安宁西路88号,颗粒物(PM10),65,79,58,30,30,35,,22,22,41,33,10,7,0.5,0.4
2025-06-12T0800,4238A,103.8470,36.0676,兰州市,北滨河东路1号,颗粒物(PM10),61,72,53,26,20,12,,12,12,54,57,12,13,1.1,0.8
2025-06-12T0800,3245A,103.6633,36.533,兰州新区,新区管委会,,47,47,39,26,22,59,,60,60,17,14,15,12,0.4,0.4
2025-06-12T0800,3246A,103.6975,36.4789,兰州新区,舟曲中学,,,,42,26,17,57,,70,70,34,18,29,14,0.7,0.5
2025-06-12T0800,1067A,116.6708,39.5111,廊坊市,药材公司,颗粒物(PM10),77,104,73,43,36,112,,87,87,23,21,8,7,0.5,0.5
2025-06-12T0800,1068A,116.7214,39.5589,廊坊市,开发区,颗粒物(PM10),79,108,81,38,31,121,,99,99,20,20,6,5,0.5,0.4
2025-06-12T0800,1070A,116.7244,39.5269,廊坊市,北华航天学院,,,,83,,32,,,150,,,18,,6,,0.4
2025-06-12T0800,2919A,116.7022,39.5453,廊坊市,河北工业大学,,,118,90,49,45,,,102,102,22,19,8,7,0.5,0.4
2025-06-12T0800,2535A,103.7723,29.5462,乐山市,花湖湾,颗粒物(PM10),57,64,49,35,27,58,,68,68,40,24,15,9,1.5,0.9
2025-06-12T0800,2536A,103.7627,29.5844,乐山市,牛耳桥,颗粒物(PM10),58,66,52,34,28,24,,32,32,42,28,10,9,1.2,0.5
2025-06-12T0800,2537A,103.7508,29.6006,乐山市,市第三水厂,,,,43,,26,,,123,,,18,,7,,0.5
2025-06-12T0800,2538A,103.7571,29.5664,乐山市,市监测站,颗粒物(PM10),57,64,52,32,27,57,,58,58,35,23,19,12,1.7,1
2025-06-12T0800,3361A,103.7311,29.5628,乐山市,理工大学,颗粒物(PM10),56,61,48,36,27,19,,24,24,42,25,11,9,1.6,1
2025-06-12T0800,2598A,100.2143,26.8576,丽江市,西南郊,,24,18,21,13,12,74,,86,86,10,8,6,6,0.7,0.6
2025-06-12T0800,2599A,100.2497,26.8802,丽江市,丽江古城,,20,20,24,12,12,43,,64,64,16,11,9,9,0.5,0.4
2025-06-12T0800,2600A,100.2203,26.8906,丽江市,市中心,,17,12,15,10,12,54,,69,69,16,11,11,11,0.4,0.3
2025-06-12T0800,1267A,119.914,28.4514,丽水市,监测站大楼,,,18,16,,5,,,,,10,10,4,3,0.5,0.5
2025-06-12T0800,1268A,119.93,28.4586,丽水市,莲都小学,,22,22,15,3,11,30,,25,25,14,15,4,3,0.5,0.4
2025-06-12T0800,1269A,119.879,28.4231,丽水市,余庄前,,18,18,16,9,10,24,,6,6,9,11,3,3,0.5,0.5
2025-06-12T0800,1173A,119.176,34.5885,连云港市,市环境监测站,,35,22,49,9,13,111,,90,90,12,13,6,9,0.5,0.5
2025-06-12T0800,3000A,119.3581,34.6972,连云港市,德源药业,,36,36,40,9,9,91,,78,78,23,16,11,13,0.9,0.7
2025-06-12T0800,3007A,119.178,34.844,连云港市,新城一中,,27,27,34,7,12,82,,56,56,27,22,7,7,0.8,0.8
2025-06-12T0800,3008A,119.3608,34.7519,连云港市,胡沟管理处,,31,9,19,3,10,97,,114,114,22,19,11,11,0.6,0.6
2025-06-12T0800,3009A,119.1478,34.5911,连云港市,矿山设计院,,33,27,46,9,10,104,,84,84,12,15,4,7,0.4,0.4
2025-06-12T0800,3434A,119.2413,34.6539,连云港市,工贸学校,,37,15,32,6,12,116,,104,104,4,10,8,10,0.4,0.5
2025-06-12T0800,3664A,119.4172,34.7341,连云港市,连云街道,,36,11,29,3,10,115,,115,115,4,12,7,10,0.4,0.5
2025-06-12T0800,2571A,102.3431,27.8099,凉山彝族自治州,青龙寺,,30,30,24,8,7,51,,63,63,6,6,6,6,0.7,0.7
2025-06-12T0800,2572A,102.2721,27.8415,凉山彝族自治州,邛海宾馆,,27,27,30,16,17,58,,62,62,17,14,7,9,0.4,0.4
2025-06-12T0800,2573A,102.2625,27.898,凉山彝族自治州,西昌市政府,细颗粒物(PM2.5),65,57,32,47,22,75,,82,82,16,10,5,6,1.0,0.5
2025-06-12T0800,2574A,102.2685,27.8851,凉山彝族自治州,凉山州政府,,28,28,27,17,15,63,,75,75,20,14,8,7,0.6,0.5
2025-06-12T0800,4229A,102.2342,27.8859,凉山彝族自治州,凯乐南路30号,,42,42,41,17,15,53,,62,62,37,18,9,9,0.5,0.3
2025-06-12T0800,2212A,123.2,41.1953,辽阳市,宏伟区,,41,26,22,10,8,129,,121,121,12,12,8,12,0.5,0.6
2025-06-12T0800,2213A,123.1683,41.2495,辽阳市,新华园,,41,30,26,12,13,130,,109,109,10,13,5,9,0.4,0.6
2025-06-12T0800,2214A,123.2354,41.2639,辽阳市,滨河路,,,,26,,14,,,,,,19,,11,,0.4
2025-06-12T0800,2215A,123.149,41.2991,辽阳市,铁西工业园,,34,27,34,12,16,107,,88,88,13,18,5,9,0.5,0.7
2025-06-12T0800,2227A,125.1358,42.8845,辽源市,环保局,,25,21,23,6,8,78,,31,31,23,33,5,5,0.5,0.4
2025-06-12T0800,3239A,125.0764,42.9078,辽源市,银鹰制药,,23,18,18,14,10,72,,36,36,33,34,5,6,0.5,0.4
2025-06-12T0800,1625A,115.9848,36.4372,聊城市,区政府,颗粒物(PM10),56,61,94,19,28,112,,127,127,12,12,8,8,0.6,0.7
2025-06-12T0800,2878A,116.0072,36.4343,聊城市,聊大东校,颗粒物(PM10),59,68,94,27,32,110,,126,126,14,12,8,8,0.4,0.5
2025-06-12T0800,3200A,115.9819,36.4978,聊城市,监控中心,颗粒物(PM10),55,59,93,19,26,110,,127,127,13,12,9,9,0.4,0.5
2025-06-12T0800,3513A,116.0445,36.4361,聊城市,九州社区,颗粒物(PM10),58,66,91,16,27,111,,122,122,10,10,5,5,0.4,0.5
2025-06-12T0800,4018A,116.0567,36.4608,聊城市,星美广场,颗粒物(PM10),57,63,94,8,25,110,,124,124,12,13,8,9,0.4,0.6
2025-06-12T0800,2632A,94.3681,29.6376,林芝市,林芝监测站,,19,16,18,13,12,57,,70,70,6,6,3,3,0.3,0.3
2025-06-12T0800,2633A,94.3616,29.6616,林芝市,林芝人民医院,,20,20,23,13,13,62,,70,70,4,3,4,4,0.2,0.2
2025-06-12T0800,2603A,100.0781,23.8982,临沧市,市环保局,,,,,,,,,,,,,,,,
2025-06-12T0800,2604A,100.0894,23.8822,临沧市,市气象局,,38,35,34,26,25,32,,36,36,14,12,8,9,0.6,0.5
2025-06-12T0800,1733A,111.5531,36.0783,临汾市,临钢医院,颗粒物(PM10),59,67,83,28,23,98,,104,104,20,21,9,8,0.7,0.6
2025-06-12T0800,1734A,111.5028,36.0714,临汾市,技工学校,颗粒物(PM10),57,63,72,33,33,110,,127,127,16,12,7,8,0.7,0.7
2025-06-12T0800,1736A,111.5018,36.0855,临汾市,市委,颗粒物(PM10),67,84,80,26,22,117,,132,132,20,16,7,8,0.8,0.8
2025-06-12T0800,3018A,111.505,36.1014,临汾市,唐尧大酒店,颗粒物(PM10),69,87,84,27,29,106,,123,123,17,13,7,8,0.8,0.7
2025-06-12T0800,4244A,111.4879,36.0530,临汾市,启星学校,细颗粒物(PM2.5),58,61,67,41,36,110,,122,122,15,12,5,6,0.8,0.7
2025-06-12T0800,4271A,103.2464,35.6123,临夏回族自治州,滨河东路1号,细颗粒物(PM2.5),64,,47,46,30,47,,48,48,17,16,9,9,0.4,0.3
2025-06-12T0800,4310A,103.2093,35.5995,临夏回族自治州,新华街21号,颗粒物(PM10),59,68,50,34,21,35,,41,41,28,21,8,5,0.7,0.4
2025-06-12T0800,1618A,118.3429,35.0532,临沂市,沂河小区,细颗粒物(PM2.5),68,70,62,49,25,85,,73,73,15,17,9,10,0.4,0.3
2025-06-12T0800,1619A,118.295,35.0583,临沂市,鲁南制药厂,颗粒物(PM10),59,68,61,36,22,88,,80,80,23,24,10,13,0.5,0.5
2025-06-12T0800,1620A,118.2794,34.9976,临沂市,新光毛纺厂,颗粒物(PM10),56,61,62,37,23,86,,69,69,19,23,13,14,0.4,0.4
2025-06-12T0800,1621A,118.3956,35.0888,临沂市,河东保险公司,颗粒物(PM10),53,56,49,29,20,73,,61,61,27,21,8,7,0.4,0.4
2025-06-12T0800,3370A,118.3564,35.0215,临沂市,十里堡居委,细颗粒物(PM2.5),92,95,58,68,24,84,,73,73,25,23,11,12,0.6,0.5
2025-06-12T0800,3496A,118.3604,35.1084,临沂市,南坊新区,颗粒物(PM10),53,56,54,27,17,74,,63,63,27,22,10,10,0.5,0.4
2025-06-12T0800,3860A,118.3920,35.0300,临沂市,皇山花园小区,颗粒物(PM10),54,58,58,35,19,92,,71,71,22,22,12,11,0.6,0.6
2025-06-12T0800,1870A,109.4856,24.3895,柳州市,柳东小学,,21,21,16,10,10,41,,38,38,6,5,12,11,0.5,0.5
2025-06-12T0800,1871A,109.4157,24.3277,柳州市,环保监测站,,18,17,23,12,12,39,,38,38,8,8,8,8,0.8,0.8
2025-06-12T0800,1872A,109.389,24.341,柳州市,河西水厂,,32,32,29,13,16,32,,34,34,15,12,20,16,1.3,0.9
2025-06-12T0800,1873A,109.4311,24.2921,柳州市,市四中,,21,21,20,10,10,40,,41,41,11,10,11,9,0.7,0.6
2025-06-12T0800,1874A,109.4006,24.3631,柳州市,市九中,,29,29,22,9,8,34,,34,34,12,11,16,12,0.7,0.7
2025-06-12T0800,1875A,109.4958,24.3134,柳州市,古亭山,,21,21,18,8,8,46,,41,41,4,3,6,6,0.5,0.5
2025-06-12T0800,3402A,109.5422,24.3996,柳州市,市二中,,23,23,17,12,10,40,,29,29,10,8,11,10,0.3,0.2
2025-06-12T0800,2307A,116.5079,31.737,六安市,监测大楼,,45,32,39,31,29,63,,76,76,7,5,4,4,0.5,0.5
2025-06-12T0800,2308A,116.4738,31.7643,六安市,皖西学院,颗粒物(PM10),53,55,47,26,27,74,,85,85,9,7,7,7,0.4,0.4
2025-06-12T0800,2309A,116.4996,31.7905,六安市,朝阳厂,,,,44,,27,65,,72,72,17,15,6,5,0.4,0.5
2025-06-12T0800,2310A,116.5567,31.7886,六安市,开发区,,40,,42,28,28,73,,65,65,3,6,6,6,0.4,0.5
2025-06-12T0800,2576A,104.8,26.5892,六盘水市,窑上,,36,36,39,9,11,46,,45,45,5,6,3,2,0.3,0.3
2025-06-12T0800,2577A,104.83,26.5917,六盘水市,黄土坡,,43,43,33,14,15,63,,58,58,15,13,9,9,0.5,0.3
2025-06-12T0800,2578A,104.89,26.5939,六盘水市,水钢,颗粒物(PM10),51,51,54,30,27,69,,50,50,26,22,22,14,1.1,0.9
2025-06-12T0800,2579A,104.8475,26.5894,六盘水市,民中,,43,43,38,17,18,48,,49,49,30,23,12,11,0.4,0.5
2025-06-12T0800,2580A,104.9544,26.5506,六盘水市,双水,颗粒物(PM10),53,56,36,27,17,20,,26,26,39,22,13,11,1.6,0.5
2025-06-12T0800,2335A,117.0189,25.1181,龙岩市,龙岩师专,,,,,,,,,,,,,,,,
2025-06-12T0800,2336A,117.0217,25.1033,龙岩市,龙岩市监测站,,20,20,19,12,11,32,,28,28,13,12,10,8,0.7,0.5
2025-06-12T0800,2337A,117.0258,25.0661,龙岩市,闽西职业技术学院,,30,30,26,16,15,22,,21,21,12,14,20,24,0.6,0.5
2025-06-12T0800,2338A,117.0196,25.0306,龙岩市,龙岩学院,,26,26,22,13,13,20,,15,15,14,10,6,4,0.9,0.7
2025-06-12T0800,2665A,105.0822,33.3261,陇南市,汉王镇固水子,,,,,,,,,,,,,,,,
2025-06-12T0800,2885A,104.9339,33.3826,陇南市,滨江中学,,45,45,44,27,19,77,,90,90,12,6,12,10,0.7,0.6
2025-06-12T0800,3247A,104.955,33.371,陇南市,市总工会,,37,37,34,20,17,82,,111,111,13,5,6,5,0.7,0.6
2025-06-12T0800,2487A,111.9589,27.8901,娄底市,电视发射台,,47,47,38,7,11,27,,20,20,3,4,6,6,0.3,0.3
2025-06-12T0800,2488A,111.9975,27.725,娄底市,市监测站,,40,,29,28,18,46,,30,30,12,17,5,7,0.7,0.7
2025-06-12T0800,2489A,112.0194,27.7314,娄底市,市委党校,,32,23,25,22,19,39,,36,36,8,5,20,14,0.4,0.4
2025-06-12T0800,2490A,111.9561,27.7569,娄底市,涟钢,,26,26,26,12,18,16,,18,18,9,11,4,6,0.6,0.8
2025-06-12T0800,2491A,111.9892,27.7044,娄底市,市政府,,20,20,26,14,17,31,,26,26,9,6,5,5,1.2,1
2025-06-12T0800,1893A,105.4324,28.9634,泸州市,九狮山,,49,44,42,34,29,55,,52,52,24,21,7,5,0.5,0.5
2025-06-12T0800,1894A,105.4427,28.9063,泸州市,小市上码头,,38,38,36,17,19,42,,47,47,21,13,12,12,0.5,0.6
2025-06-12T0800,1895A,105.4241,28.8573,泸州市,兰田宪桥,,36,35,39,25,23,32,,22,22,24,20,9,10,0.5,0.4
2025-06-12T0800,1896A,105.4379,28.8833,泸州市,市环监站,,34,34,34,20,22,35,,43,43,35,22,26,14,0.9,0.7
2025-06-12T0800,4272A,105.3689,28.7783,泸州市,纳溪中医医院,"颗粒物(PM10),细颗粒物(PM2.5)",53,55,47,37,28,18,,26,26,20,20,6,7,0.9,0.8
2025-06-12T0800,2183A,111.1406,37.5211,吕梁市,环保局,,,,58,,17,,,117,,,13,,6,,0.4
2025-06-12T0800,2185A,111.1297,37.5136,吕梁市,自来水公司,颗粒物(PM10),103,155,80,33,23,60,,80,80,46,22,5,5,0.7,0.5
2025-06-12T0800,2867A,111.1283,37.51,吕梁市,马茂庄小学,颗粒物(PM10),84,118,80,33,24,84,,72,72,40,31,5,6,0.9,0.8
2025-06-12T0800,1812A,112.3931,34.6516,洛阳市,市委党校,,47,47,58,32,34,111,,115,115,10,12,9,9,0.7,0.6
2025-06-12T0800,1815A,112.494,34.6886,洛阳市,河南林校,颗粒物(PM10),62,73,65,37,32,101,,122,122,26,15,11,9,0.7,0.7
2025-06-12T0800,1816A,112.3844,34.623,洛阳市,开发区管委会,,,,54,,29,90,,123,123,12,12,,10,0.6,0.6
2025-06-12T0800,1817A,112.4267,34.6258,洛阳市,市委新办公区,,,39,59,28,30,,,119,119,,13,,9,,0.6
2025-06-12T0800,3340A,112.6005,34.6326,洛阳市,伊滨,颗粒物(PM10),65,80,72,37,30,102,,129,129,23,13,11,9,0.8,0.7
2025-06-12T0800,3341A,112.4951,34.6332,洛阳市,中移产业园,颗粒物(PM10),59,67,66,38,32,86,,117,117,25,12,12,8,0.9,0.8
2025-06-12T0800,3593A,112.5736,34.8993,洛阳市,吉利监测站,颗粒物(PM10),54,57,78,26,40,118,,104,104,13,17,8,8,0.6,0.6
2025-06-12T0800,3635A,112.3677,34.662,洛阳市,河科大西苑校区,颗粒物(PM10),53,55,63,21,25,125,,130,130,10,14,11,10,0.5,0.5
2025-06-12T0800,3636A,112.4388,34.6781,洛阳市,英才小学,颗粒物(PM10),70,89,76,32,30,100,,126,126,21,10,12,9,0.8,0.7
2025-06-12T0800,4214A,112.4600,34.6949,洛阳市,春都路1号院,颗粒物(PM10),64,78,70,38,27,110,,134,134,27,14,12,9,0.7,0.6
2025-06-12T0800,2399A,114.051,33.5699,漯河市,三五一五工厂,细颗粒物(PM2.5),68,66,43,49,33,96,,97,97,19,16,5,5,0.8,0.7
2025-06-12T0800,2400A,114.0055,33.5698,漯河市,漯河大学,颗粒物(PM10),52,53,49,34,23,104,,117,117,18,14,3,4,0.6,0.6
2025-06-12T0800,2401A,114.0138,33.5828,漯河市,市水利局,颗粒物(PM10),56,61,51,36,29,102,,115,115,14,11,4,4,0.8,0.7
2025-06-12T0800,2402A,114.0261,33.5698,漯河市,市广电局,细颗粒物(PM2.5),68,51,45,49,34,98,,107,107,14,13,2,2,0.6,0.5
2025-06-12T0800,3478A,113.9749,33.5664,漯河市,市图书馆,颗粒物(PM10),59,67,50,34,29,98,,106,106,16,16,3,5,0.7,0.7
2025-06-12T0800,4250A,114.0892,33.5882,漯河市,韶山路11号,细颗粒物(PM2.5),107,,53,80,33,94,,92,92,16,15,5,5,0.7,0.6
2025-06-12T0800,1798A,118.5092,31.6837,马鞍山市,湖东路四小,,33,,43,23,31,49,,53,53,11,12,6,7,0.6,0.6
2025-06-12T0800,1799A,118.5024,31.6449,马鞍山市,开发区,,31,31,48,19,23,38,,47,47,19,16,6,6,0.7,0.8
2025-06-12T0800,1802A,118.6245,31.7241,马鞍山市,濮塘,,37,37,44,14,30,45,,50,50,9,7,8,7,0.8,0.8
2025-06-12T0800,3633A,118.4918,31.6809,马鞍山市,雨山,,29,29,39,18,25,48,,52,52,13,13,6,6,0.6,0.7
2025-06-12T0800,4191A,118.5274,31.72227,马鞍山市,慈湖高新区,,43,43,54,24,33,46,,51,51,15,15,7,6,0.6,0.6
2025-06-12T0800,1686A,111.0286,21.4688,茂名市,电白南海,,20,17,23,14,13,27,,29,29,9,9,3,4,0.8,0.7
2025-06-12T0800,1687A,110.9294,21.6533,茂名市,茂石化七小,,24,24,24,9,9,16,,23,23,13,10,3,6,0.3,0.3
2025-06-12T0800,1688A,110.9107,21.6687,茂名市,健康路,,,,23,,14,,,48,,,10,,13,,0.5
2025-06-12T0800,1689A,110.8592,21.6828,茂名市,高岭,,22,22,30,7,7,21,,21,21,11,12,14,12,0.4,0.5
2025-06-12T0800,3450A,111.01,21.5165,茂名市,电白水东,,10,9,23,7,8,26,,26,26,11,12,3,5,0.4,0.4
2025-06-12T0800,2539A,104.0308,30.0478,眉山市,黑龙滩水库,,32,28,27,22,20,54,,69,69,24,16,1,2,0.7,0.6
2025-06-12T0800,2540A,103.8416,30.0874,眉山市,气象局,,,,56,,26,,,166,,,21,,3,,0.5
2025-06-12T0800,3137A,103.8578,30.0744,眉山市,市委党校,细颗粒物(PM2.5),58,63,52,41,26,10,,11,11,96,58,5,5,0.8,0.6
2025-06-12T0800,3148A,103.8291,30.0564,眉山市,区人社局,颗粒物(PM10),69,87,59,34,24,20,,12,12,97,57,16,12,0.9,0.6
2025-06-12T0800,1690A,116.1231,24.3284,梅州市,梅江月梅,,20,19,25,14,14,14,,7,7,12,11,9,7,0.6,0.6
2025-06-12T0800,1691A,116.0797,24.2719,梅州市,梅县新城,,22,22,21,10,7,10,,9,9,13,12,6,6,0.9,0.7
2025-06-12T0800,1692A,116.1248,24.2654,梅州市,环境监控中心,,16,16,16,9,9,24,,20,20,13,12,4,4,0.5,0.4
2025-06-12T0800,3315A,116.1233,24.2991,梅州市,梅龙,,27,27,18,10,8,17,,14,14,11,9,8,7,0.6,0.4
2025-06-12T0800,1878A,104.7778,31.4741,绵阳市,富乐山,细颗粒物(PM2.5),55,57,45,39,29,96,,87,87,18,16,8,8,0.6,0.6
2025-06-12T0800,1880A,104.6697,31.4668,绵阳市,高新区自来水公司,颗粒物(PM10),58,65,52,31,21,75,,66,66,36,29,2,2,0.8,0.7
2025-06-12T0800,1881A,104.7287,31.5075,绵阳市,三水厂,细颗粒物(PM2.5),67,69,46,48,33,54,,48,48,47,33,9,9,0.8,0.7
2025-06-12T0800,3491A,104.69,31.5322,绵阳市,西科大附属小学,颗粒物(PM10),64,77,59,40,31,64,,74,74,41,27,8,9,0.6,0.5
2025-06-12T0800,3492A,104.5648,31.5343,绵阳市,安州区旅游局,颗粒物(PM10),52,53,39,24,22,81,,92,92,16,15,7,10,0.2,0.2
2025-06-12T0800,4226A,104.7651,31.4531,绵阳市,绵阳市气象局,细颗粒物(PM2.5),54,48,49,38,29,82,,65,65,25,23,9,9,0.7,0.6
2025-06-12T0800,1784A,129.61,44.561,牡丹江市,环保大楼,,12,11,22,8,14,31,,19,19,16,15,8,10,0.3,0.3
2025-06-12T0800,1785A,129.6115,44.5782,牡丹江市,文化广场,,12,12,16,7,16,35,,21,21,17,17,4,5,0.3,0.3
2025-06-12T0800,1786A,129.5904,44.5963,牡丹江市,第一医院,,13,13,16,7,9,34,,16,16,16,16,5,5,0.3,0.3
2025-06-12T0800,1787A,129.6364,44.6075,牡丹江市,机车工厂,,13,13,24,6,10,38,,10,10,17,14,6,7,0.3,0.4
2025-06-12T0800,1788A,129.6386,44.5462,牡丹江市,第一中学,,15,15,17,8,8,32,,16,16,16,11,8,8,0.4,0.3
2025-06-12T0800,2531A,105.0703,29.61,内江市,市监测站,,49,43,36,34,28,51,,70,70,28,16,6,8,0.6,0.7
2025-06-12T0800,2532A,105.0717,29.5947,内江市,东兴区政府,,43,30,27,30,22,61,,83,83,25,16,8,7,0.5,0.4
2025-06-12T0800,2533A,105.0653,29.5817,内江市,内江二中,细颗粒物(PM2.5),59,42,35,42,32,60,,62,62,29,21,9,8,0.6,0.5
2025-06-12T0800,2534A,105.0406,29.5822,内江市,内江日报社,,36,33,38,25,32,65,,55,55,34,25,7,16,0.4,0.3
2025-06-12T0800,2628A,92.0657,31.4846,那曲市,那曲监测站,,44,44,32,28,15,48,,80,80,34,13,7,6,0.5,0.3
2025-06-12T0800,4243A,92.0515,31.4787,那曲市,那曲市委宣传部,,31,31,23,17,11,52,,78,78,23,9,7,6,0.3,0.2
2025-06-12T0800,1290A,115.8931,28.6843,南昌市,省外办,,16,13,14,7,11,49,,55,55,16,13,3,3,0.8,0.5
2025-06-12T0800,1291A,115.8886,28.7003,南昌市,省林业公司,,14,14,10,9,9,37,,48,48,16,11,8,8,0.6,0.6
2025-06-12T0800,1292A,115.8126,28.7442,南昌市,林科所,,25,,6,17,7,38,,47,47,17,11,5,4,0.6,0.5
2025-06-12T0800,1294A,115.8518,28.687,南昌市,建工学校,,36,27,16,25,13,35,,51,51,18,7,7,6,0.5,0.5
2025-06-12T0800,1295A,115.8921,28.6424,南昌市,象湖,,14,7,7,3,6,43,,45,45,11,11,6,6,0.6,0.7
2025-06-12T0800,1296A,115.7423,28.7996,南昌市,武术学校,,42,42,24,14,11,32,,39,39,3,4,6,6,0.4,0.5
2025-06-12T0800,3046A,115.9084,28.6062,南昌市,机电学校,,25,25,16,7,8,37,,41,41,10,9,4,4,0.3,0.4
2025-06-12T0800,3690A,115.9721,28.7031,南昌市,外国语学校,,13,13,13,8,7,40,,43,43,8,9,9,8,0.5,0.5
2025-06-12T0800,4192A,115.9316,28.68677,南昌市,南京东路235号,,29,29,22,7,8,42,,48,48,10,10,8,8,0.4,0.5
2025-06-12T0800,1905A,106.056,30.8064,南充市,西山风景区,,,,,,,,,,,,,,,,
2025-06-12T0800,1906A,106.0789,30.8023,南充市,南充市委,,44,44,45,18,24,48,,68,68,36,20,7,6,0.6,0.4
2025-06-12T0800,1907A,106.1031,30.8217,南充市,南充炼油厂,颗粒物(PM10),54,57,43,32,26,57,,70,70,20,16,8,6,0.6,0.5
2025-06-12T0800,4227A,106.1083,30.7884,南充市,梨树横街98号,,48,44,41,33,22,51,,67,67,29,16,6,5,0.6,0.4
2025-06-12T0800,4304A,106.1172,30.843,南充市,清泉寺北路188号,,48,48,41,12,23,71,,74,74,13,14,4,4,0.3,0.3
2025-06-12T0800,4305A,106.067,30.7616,南充市,同庆路1号,细颗粒物(PM2.5),58,53,42,41,27,52,,70,70,30,16,3,4,0.5,0.3
2025-06-12T0800,1151A,118.8086,32.1065,南京市,迈皋桥,,30,30,35,17,25,56,,45,45,21,19,4,4,0.3,0.4
2025-06-12T0800,1152A,118.7538,32.0551,南京市,草场门,,28,27,36,19,24,61,,50,50,19,17,2,2,0.5,0.5
2025-06-12T0800,1153A,118.7794,32.0745,南京市,山西路,,24,22,39,12,23,74,,57,57,20,24,4,4,0.2,0.3
2025-06-12T0800,1154A,118.7752,32.0023,南京市,中华门,,24,24,32,12,22,58,,47,47,24,21,8,7,0.5,0.6
2025-06-12T0800,1155A,118.8109,32.0309,南京市,瑞金路,,22,22,36,14,25,59,,46,46,6,9,7,6,0.2,0.2
2025-06-12T0800,1156A,118.7997,32.0754,南京市,玄武湖,,19,14,38,11,20,60,,47,47,11,12,4,3,0.4,0.4
2025-06-12T0800,1157A,118.6414,32.0931,南京市,浦口,,21,21,37,13,21,65,,51,51,15,20,3,3,0.6,0.7
2025-06-12T0800,1158A,118.7356,31.9996,南京市,奥体中心,,28,28,37,9,25,61,,50,50,17,14,4,3,0.3,0.4
2025-06-12T0800,1159A,118.9125,32.1028,南京市,仙林大学城,,36,36,41,12,19,58,,51,51,18,14,10,8,0.7,0.7
2025-06-12T0800,3422A,118.8436,31.9198,南京市,江宁彩虹桥,,25,19,31,17,24,59,,48,48,21,17,4,3,0.6,0.6
2025-06-12T0800,3427A,118.8554,32.3578,南京市,六合雄州,,,,32,,24,,,48,48,39,26,11,8,0.9,0.6
2025-06-12T0800,4249A,118.8708,31.3402,南京市,汶溪路181号,,26,26,28,14,23,43,,43,43,18,16,5,3,0.7,0.6
2025-06-12T0800,4312A,119.019,31.6512,南京市,中山西路1号,,27,27,28,16,20,54,,47,47,12,12,4,4,0.4,0.5
2025-06-12T0800,1401A,108.3103,22.7881,南宁市,二十一中,,27,27,28,15,16,29,,32,32,20,15,7,6,0.7,0.6
2025-06-12T0800,1402A,108.3141,22.8528,南宁市,北湖,,36,36,30,22,18,33,,27,27,18,17,23,12,0.6,0.5
2025-06-12T0800,1403A,108.3206,22.8225,南宁市,市监测站,,45,32,30,31,21,24,,25,25,23,18,12,5,0.8,0.6
2025-06-12T0800,1404A,108.3829,22.8037,南宁市,大自然花园,,34,34,24,14,14,32,,41,41,16,10,6,5,0.6,0.5
2025-06-12T0800,1405A,108.4394,22.7904,南宁市,仙葫,,30,30,19,18,12,44,,56,56,16,8,9,8,0.4,0.5
2025-06-12T0800,1406A,108.2397,22.8467,南宁市,区农职院,,28,28,26,14,13,29,,24,24,15,12,7,5,1.1,0.8
2025-06-12T0800,1407A,108.3275,22.735,南宁市,英华嘉园,,36,36,32,20,17,25,,37,37,22,13,12,8,0.6,0.5
2025-06-12T0800,3401A,108.4834,22.7618,南宁市,红星社区,,20,19,17,14,10,54,,56,56,4,3,2,3,0.5,0.5
2025-06-12T0800,4221A,108.2177,22.7774,南宁市,乐贤路16号,,37,37,33,24,19,19,,14,14,18,16,34,17,0.6,0.6
2025-06-12T0800,2331A,118.0966,26.6761,南平市,茫荡山,,,,3,,2,,,,,,,,2,,0.3
2025-06-12T0800,2332A,118.1681,26.6369,南平市,南平市监测站,,9,9,13,3,7,26,,28,28,7,5,4,4,0.5,0.5
2025-06-12T0800,2333A,118.1825,26.6489,南平市,南平铝业有限公司,,9,9,16,3,7,22,,25,25,8,7,3,4,0.6,0.6
2025-06-12T0800,2334A,118.1756,26.6272,南平市,南平七中,,23,23,16,3,7,26,,26,26,6,3,6,5,0.5,0.5
2025-06-12T0800,1168A,120.9098,31.9663,南通市,狼山街道,,27,19,15,8,9,86,,84,84,6,6,4,4,0.6,0.6
2025-06-12T0800,1169A,120.86,32.0005,南通市,虹桥,,29,18,16,15,12,91,,87,87,14,12,2,2,0.4,0.4
2025-06-12T0800,1170A,120.87,32.02,南通市,城中,,28,17,17,12,9,88,,86,86,10,9,4,4,0.6,0.6
2025-06-12T0800,1171A,120.94,31.93,南通市,星湖花园,,24,16,13,8,12,76,,72,72,15,11,3,3,0.5,0.3
2025-06-12T0800,1172A,120.81,32.0417,南通市,紫琅学院,,26,13,16,3,5,81,,82,82,12,12,5,5,0.4,0.5
2025-06-12T0800,3291A,121.067,32.062,南通市,通州监测站,,32,9,10,9,7,102,,95,95,6,4,5,5,0.4,0.5
2025-06-12T0800,3432A,120.9348,31.9883,南通市,环境教育馆,,28,19,19,11,8,88,,78,78,12,10,3,2,0.2,0.2
2025-06-12T0800,2404A,112.5224,33.0122,南阳市,瓦房庄,颗粒物(PM10),53,55,46,24,16,99,,104,104,15,10,7,6,0.7,0.6
2025-06-12T0800,2405A,112.5003,32.9735,南阳市,汉画馆,颗粒物(PM10),53,56,46,23,20,94,,94,94,20,14,6,6,0.7,0.5
2025-06-12T0800,2406A,112.5573,33.027,南阳市,气象站,颗粒物(PM10),52,53,43,31,22,96,,100,100,14,8,6,5,0.5,0.3
2025-06-12T0800,2407A,112.5481,32.9689,南阳市,理工学院,颗粒物(PM10),51,52,43,31,24,88,,92,92,22,13,5,5,0.6,0.4
2025-06-12T0800,4008A,112.5234,32.9922,南阳市,卧龙区政府,,40,35,36,28,25,98,,101,101,19,12,5,5,0.7,0.6
2025-06-12T0800,1234A,121.8358,29.911,宁波市,区环保大楼,,28,13,18,7,9,32,,35,35,56,46,9,8,0.5,0.4
2025-06-12T0800,1235A,121.56,29.82,宁波市,万里学院,,19,,16,13,15,44,,53,53,25,24,9,9,0.7,0.7
2025-06-12T0800,1236A,121.713,29.9572,宁波市,龙赛医院,,24,7,16,6,8,76,,67,67,14,22,7,8,0.5,0.5
2025-06-12T0800,1239A,121.633,29.7733,宁波市,钱湖水厂,,23,18,15,16,12,44,,53,53,24,22,3,3,0.5,0.6
2025-06-12T0800,1240A,121.5856,29.8635,宁波市,太古小学,,,,15,,9,,,88,,,23,,6,,0.5
2025-06-12T0800,1241A,121.524,29.8674,宁波市,市环境监测中心,,18,10,18,10,11,56,,50,50,20,22,3,8,0.6,0.6
2025-06-12T0800,2871A,121.6147,29.9017,宁波市,万里国际学校,,18,9,14,9,11,57,,59,59,22,22,2,2,0.5,0.5
2025-06-12T0800,3710A,121.5594,29.8975,宁波市,白沙活动中心,,22,8,14,3,11,68,,55,55,12,20,8,8,0.5,0.5
2025-06-12T0800,2339A,119.5001,26.6946,宁德市,金涵水库,,,,1,,1,,,,,,2,,2,,0.5
2025-06-12T0800,2341A,119.5388,26.6612,宁德市,宁德市监测站,,8,6,13,3,7,22,,36,36,11,9,4,4,0.4,0.4
2025-06-12T0800,3209A,119.5231,26.6562,宁德市,宁德一中,,7,7,14,3,8,22,,34,34,7,6,3,3,0.3,0.3
2025-06-12T0800,2618A,98.8601,25.8567,怒江傈僳族自治州,州监测站,,27,20,26,13,16,84,,104,104,6,7,7,7,0.4,0.3
2025-06-12T0800,2619A,98.8546,25.8417,怒江傈僳族自治州,泸水一中,,25,12,23,9,14,77,,95,95,6,10,6,6,0.3,0.3
2025-06-12T0800,1888A,101.6891,26.571,攀枝花市,弄弄坪,颗粒物(PM10),52,53,44,14,19,46,,71,71,30,18,6,11,0.9,0.9
2025-06-12T0800,1889A,101.5769,26.5928,攀枝花市,河门口,颗粒物(PM10),73,95,46,29,19,34,,44,44,28,17,11,10,0.7,0.6
2025-06-12T0800,1890A,101.7169,26.585,攀枝花市,炳草岗,颗粒物(PM10),63,75,44,30,18,24,,49,49,47,24,9,11,0.9,0.9
2025-06-12T0800,1891A,101.7369,26.5008,攀枝花市,仁和,,43,43,34,23,19,47,,54,54,23,13,8,10,0.7,0.6
2025-06-12T0800,2835A,101.7227,26.567,攀枝花市,四十中小,,50,50,45,24,25,39,,36,36,39,35,11,14,1.0,0.9
2025-06-12T0800,1604A,122.0303,41.1489,盘锦市,开发区,,29,8,33,8,30,91,,124,124,20,21,12,13,0.3,0.5
2025-06-12T0800,1605A,122.0485,41.0883,盘锦市,兴隆台,,31,31,36,13,31,94,,123,123,26,25,7,11,0.4,0.6
2025-06-12T0800,1606A,121.8297,41.1028,盘锦市,新生街道,,29,14,28,3,25,92,,127,127,13,26,9,10,0.5,0.8
2025-06-12T0800,1832A,113.3257,33.742,平顶山市,新华旅馆,颗粒物(PM10),53,55,43,31,22,95,,111,111,10,11,6,8,0.8,0.6
2025-06-12T0800,1833A,113.2919,33.737,平顶山市,规划设计院,细颗粒物(PM2.5),82,89,51,60,32,91,,110,110,22,13,18,6,1.0,0.8
2025-06-12T0800,1834A,113.182,33.774,平顶山市,平顶山工学院,"颗粒物(PM10),细颗粒物(PM2.5)",58,66,43,41,25,106,,122,122,16,9,7,4,0.6,0.4
2025-06-12T0800,3204A,113.3025,33.73,平顶山市,规划局,颗粒物(PM10),59,68,49,27,19,95,,112,112,19,11,18,6,0.8,0.6
2025-06-12T0800,3594A,112.8867,33.9116,平顶山市,石龙区,颗粒物(PM10),78,105,80,39,27,103,,84,84,30,21,11,7,0.8,0.6
2025-06-12T0800,2656A,106.6692,35.5461,平凉市,聚贤嘉苑,颗粒物(PM10),63,75,60,28,24,69,,90,90,33,19,9,8,0.6,0.5
2025-06-12T0800,2657A,106.7021,35.5307,平凉市,博物馆,颗粒物(PM10),65,79,66,27,20,71,,93,93,37,19,16,13,0.8,0.8
2025-06-12T0800,2347A,114.0997,27.5002,萍乡市,武功山,,11,6,4,3,3,34,,34,34,4,4,11,11,0.4,0.4
2025-06-12T0800,2348A,113.8385,27.6434,萍乡市,中医院,,28,24,19,19,15,54,,59,59,7,4,13,14,0.9,0.8
2025-06-12T0800,2349A,113.8493,27.6253,萍乡市,市政府车库,,15,12,13,10,13,47,,46,46,8,8,7,8,0.5,1.2
2025-06-12T0800,2350A,113.8676,27.6435,萍乡市,市环保局,,17,17,19,8,12,50,,53,53,5,3,10,7,0.8,0.7
2025-06-12T0800,2351A,113.866,27.6198,萍乡市,安源区政府,,20,18,17,14,9,37,,39,39,11,10,6,6,2.0,1.2
2025-06-12T0800,2319A,119.0141,25.4325,莆田市,荔城区仓后路,,12,6,22,3,7,36,,38,38,6,8,3,3,0.4,0.4
2025-06-12T0800,2320A,119.0015,25.4553,莆田市,莆田市监测站,,12,8,18,3,8,38,,41,41,5,7,2,3,0.4,0.4
2025-06-12T0800,2321A,119.1119,25.4561,莆田市,涵江区六中,,13,11,20,3,6,39,,40,40,4,5,3,3,0.3,0.3
2025-06-12T0800,2322A,119.1013,25.3215,莆田市,秀屿区政府,,12,6,21,3,5,37,,41,41,7,8,2,3,0.4,0.5
2025-06-12T0800,2323A,118.981,25.4792,莆田市,东圳水库,,,,3,,6,,,,,,1,,2,,0.5
2025-06-12T0800,2392A,115.0312,35.7636,濮阳市,环保局,,48,45,53,33,29,113,,124,124,18,16,8,6,0.8,0.8
2025-06-12T0800,2394A,115.0574,35.7609,濮阳市,油田运输公司,颗粒物(PM10),52,54,61,24,30,105,,116,116,20,16,10,8,0.8,0.8
2025-06-12T0800,3021A,115,35.7668,濮阳市,濮水河管理处,颗粒物(PM10),54,57,54,35,29,110,,124,124,20,16,7,6,0.7,0.7
2025-06-12T0800,4216A,115.0924,35.7686,濮阳市,任丘路479号,颗粒物(PM10),60,70,73,42,36,99,,106,106,16,13,9,8,1.0,0.9
2025-06-12T0800,2601A,100.98,22.7633,普洱市,市环保局,,47,47,48,11,21,29,,32,32,13,11,4,4,0.7,0.6
2025-06-12T0800,2602A,100.9817,22.8322,普洱市,普洱第二中学,颗粒物(PM10),53,56,48,15,17,15,,21,21,26,16,6,6,0.9,0.7
2025-06-12T0800,2262A,131.0518,45.8751,七台河市,新一中,,40,,15,28,11,79,,37,37,12,9,10,10,0.9,0.8
2025-06-12T0800,3345A,131.0577,45.7879,七台河市,中波台,,23,,8,9,8,72,,37,37,14,13,7,6,0.3,0.3
2025-06-12T0800,3637A,131.0176,45.7761,七台河市,人民广场,,29,25,22,20,14,59,,23,23,17,13,10,9,0.6,0.5
2025-06-12T0800,3684A,130.8781,45.8222,七台河市,新建矿广场,,,,11,,8,,,,,,9,,8,,0.2
2025-06-12T0800,1779A,123.9305,47.3636,齐齐哈尔市,安居小区,,47,47,23,6,8,68,,77,77,25,13,5,4,0.6,0.4
2025-06-12T0800,1780A,123.9488,47.3386,齐齐哈尔市,中心广场,,30,30,25,7,5,78,,80,80,18,13,6,6,0.5,0.4
2025-06-12T0800,1781A,123.9483,47.3227,齐齐哈尔市,农牧车辆厂,,31,31,25,8,6,77,,75,75,12,8,5,5,0.1,0.1
2025-06-12T0800,1783A,123.945,47.2988,齐齐哈尔市,市环境监测站,,27,23,15,11,6,84,,78,78,11,8,4,4,0.3,0.2
2025-06-12T0800,3662A,123.6333,47.2075,齐齐哈尔市,富区青少年活动中心,,49,49,18,12,11,90,,81,81,10,7,2,3,0.3,0.3
2025-06-12T0800,2591A,107.9783,26.5747,黔东南苗族侗族自治州,市环境监测站,,26,23,25,18,18,70,,71,71,5,5,3,2,0.5,0.5
2025-06-12T0800,2881A,107.8908,26.5311,黔东南苗族侗族自治州,凯里学院,,22,19,19,15,15,70,,73,73,6,6,3,2,0.4,0.4
2025-06-12T0800,2593A,107.5228,26.2403,黔南布依族苗族自治州,小围寨,,19,17,17,12,11,58,,62,62,6,5,1,3,0.4,0.4
2025-06-12T0800,3538A,107.5175,26.2978,黔南布依族苗族自治州,沙坝,,24,22,27,9,12,74,,72,72,6,7,5,4,0.5,0.5
2025-06-12T0800,2589A,104.9022,25.0925,黔西南布依族苗族自治州,场坝街,,41,41,25,22,12,43,,64,64,22,12,2,3,0.5,0.3
2025-06-12T0800,2590A,104.8811,25.0992,黔西南布依族苗族自治州,坪东大道,,46,33,24,32,15,34,,44,44,28,15,1,1,0.4,0.2
2025-06-12T0800,2502A,108.6236,21.9667,钦州市,市环保站,,29,29,28,9,11,40,,39,39,10,13,2,2,0.9,1
2025-06-12T0800,2503A,108.6549,21.9481,钦州市,沙埠小学,,27,27,30,13,14,44,,48,48,10,11,3,3,0.4,0.4
2025-06-12T0800,2504A,108.5989,21.7431,钦州市,港区一小,,18,15,35,12,15,39,,38,38,13,16,3,3,0.6,0.7
2025-06-12T0800,3404A,108.5959,21.9633,钦州市,北职校,,24,24,25,16,14,38,,42,42,7,9,2,3,0.6,0.5
2025-06-12T0800,1043A,119.7493,40.0116,秦皇岛市,第一关,,44,44,51,9,26,79,,78,78,14,23,4,7,0.3,0.4
2025-06-12T0800,1044A,119.5897,39.9499,秦皇岛市,监测站,,28,28,49,6,15,75,,87,87,21,19,5,7,0.3,0.5
2025-06-12T0800,1046A,119.5251,39.9041,秦皇岛市,建设大厦,,35,35,47,6,13,70,,82,82,20,18,4,7,0.4,0.4
2025-06-12T0800,3132A,119.610547,39.943889,秦皇岛市,文明里,,41,41,53,17,16,72,,87,87,21,19,4,7,0.2,0.4
2025-06-12T0800,4198A,119.5090,39.8253,秦皇岛市,北戴河轮滑馆,,33,33,45,9,19,75,,83,83,13,12,3,5,0.3,0.4
2025-06-12T0800,1307A,120.6659,36.2403,青岛市,仰口,,31,13,11,13,12,98,,93,93,8,9,9,8,0.5,0.5
2025-06-12T0800,1310A,120.4134,36.0658,青岛市,市南区东部子站,,35,9,12,7,10,109,,86,86,5,15,8,8,0.3,0.3
2025-06-12T0800,1311A,120.3664,36.1032,青岛市,四方区子站,,39,12,15,7,11,123,,106,106,18,18,5,6,0.4,0.4
2025-06-12T0800,1312A,120.2994,36.054,青岛市,市南区西部子站,,29,,14,12,10,90,,74,74,18,20,9,8,0.4,0.5
2025-06-12T0800,1313A,120.4581,36.0858,青岛市,崂山区子站,,35,6,9,3,7,110,,76,76,6,10,7,7,0.2,0.3
2025-06-12T0800,1315A,120.3999,36.3083,青岛市,城阳区子站,,35,9,10,3,8,109,,107,107,24,19,5,5,0.2,0.2
2025-06-12T0800,1966A,120.0405,35.8735,青岛市,黄岛区4号,,35,12,14,3,6,112,,103,103,9,14,8,8,0.6,0.6
2025-06-12T0800,3362A,120.5014,36.4034,青岛市,即墨2号,,36,24,16,9,7,113,,95,95,13,11,8,8,0.2,0.2
2025-06-12T0800,3642A,120.3503,36.0736,青岛市,市北区南部,,,,27,,14,,,102,,,16,,9,,0.4
2025-06-12T0800,3643A,120.3948,36.1805,青岛市,李沧区北部,,31,22,14,9,10,97,,89,89,20,14,8,7,0.5,0.5
2025-06-12T0800,4290A,120.1969,35.9546,青岛市,珠江路669号,,,,19,,14,,,105,,,19,,8,,0.4
2025-06-12T0800,1702A,113.0426,23.691,清远市,环保大楼,,23,23,36,3,9,24,,26,26,16,10,6,5,0.5,0.4
2025-06-12T0800,1703A,113.0208,23.7106,清远市,凤城街办,,13,13,11,3,7,34,,33,33,14,12,9,8,0.6,0.5
2025-06-12T0800,3025A,113.0477,23.6344,清远市,技师学院,,10,10,12,3,6,30,,32,32,16,12,11,7,0.6,0.4
2025-06-12T0800,3318A,112.9903,23.7403,清远市,清新太和,,17,17,14,3,5,17,,23,23,22,8,7,6,0.6,0.5
2025-06-12T0800,3455A,113.076,23.7198,清远市,清城东城,,12,9,12,3,5,37,,34,34,8,6,8,7,0.5,0.4
2025-06-12T0800,2661A,107.6325,35.7357,庆阳市,庆阳五中,,46,46,49,16,20,114,,132,132,11,10,5,5,0.5,0.4
2025-06-12T0800,2662A,107.6364,35.7067,庆阳市,市环保局,颗粒物(PM10),53,56,51,19,17,114,,135,135,8,7,7,7,0.5,0.4
2025-06-12T0800,1916A,103.7897,25.5035,曲靖市,环境监测站,,44,44,37,30,20,45,,70,70,24,14,9,6,0.8,0.5
2025-06-12T0800,1917A,103.8,25.5364,曲靖市,烟厂办公区,颗粒物(PM10),51,51,37,30,19,63,,68,68,17,11,6,6,0.9,0.6
2025-06-12T0800,3376A,103.7947,25.462,曲靖市,南苑二区,,46,46,34,22,15,41,,64,64,12,10,4,5,0.6,0.4
2025-06-12T0800,3377A,103.7444,25.5261,曲靖市,曲靖师范学院,细颗粒物(PM2.5),58,58,36,41,23,35,,34,34,24,20,13,11,0.7,0.5
2025-06-12T0800,1264A,118.8692,28.9398,衢州市,环保大楼,,26,26,28,14,10,55,,65,65,11,6,4,4,0.4,0.3
2025-06-12T0800,1265A,118.8709,28.9666,衢州市,实验学校,,20,20,16,10,8,52,,69,69,15,9,2,2,0.4,0.3
2025-06-12T0800,1266A,118.8621,28.9808,衢州市,衢州学院,,,18,17,10,9,45,,63,63,,9,5,5,0.4,0.3
2025-06-12T0800,1611A,118.5819,24.9117,泉州市,涂山街,,17,17,27,9,14,36,,41,41,7,7,1,2,0.6,0.7
2025-06-12T0800,1612A,118.5972,24.8978,泉州市,津头埔,,15,15,26,3,13,37,,40,40,8,9,2,3,0.5,0.5
2025-06-12T0800,1613A,118.6663,24.9424,泉州市,万安,,19,19,29,3,11,35,,37,37,8,7,3,3,0.5,0.5
2025-06-12T0800,1614A,118.6117,24.9604,泉州市,清源山,,,,16,,6,,,,,,7,,2,,0.4
2025-06-12T0800,3529A,118.6333,24.9264,泉州市,城华南路,,14,14,23,6,13,37,,36,36,8,10,3,4,0.4,0.5
2025-06-12T0800,2626A,88.8876,29.2718,日喀则市,日喀则监测站,,42,42,28,15,12,62,,83,83,21,11,9,9,0.4,0.3
2025-06-12T0800,3726A,88.8781,29.2426,日喀则市,林业技术推广中心,,26,22,24,13,11,81,,89,89,3,4,4,4,0.3,0.2
2025-06-12T0800,1659A,119.471,35.4209,日照市,监测站,,44,44,29,21,14,60,,48,48,50,34,12,8,0.7,0.6
2025-06-12T0800,1660A,119.523,35.4216,日照市,市政府广场,,32,22,33,9,10,102,,74,74,16,21,11,8,0.7,0.6
2025-06-12T0800,1661A,119.5587,35.4044,日照市,港务局,,31,24,27,20,18,97,,82,82,17,17,12,7,0.7,0.5
2025-06-12T0800,3507A,119.5328,35.4625,日照市,职业技术学院,,33,19,25,12,10,105,,78,78,16,17,12,6,0.8,0.6
2025-06-12T0800,3604A,119.3266,35.1044,日照市,岚山环保分局,,36,36,36,13,13,103,,96,96,23,22,19,8,0.6,0.6
2025-06-12T0800,1835A,111.1922,34.7752,三门峡市,市政府,颗粒物(PM10),54,58,62,28,28,109,,96,96,15,15,9,8,0.7,0.6
2025-06-12T0800,1836A,111.1587,34.7942,三门峡市,开发区,细颗粒物(PM2.5),62,71,68,44,36,119,,117,117,21,20,12,9,0.7,0.6
2025-06-12T0800,1838A,111.143,34.7955,三门峡市,风景区,细颗粒物(PM2.5),55,54,60,39,28,124,,119,119,12,10,14,11,0.6,0.5
2025-06-12T0800,3039A,111.1911,34.7829,三门峡市,三门峡市第一小学,颗粒物(PM10),51,51,67,34,34,110,,106,106,11,12,13,9,0.7,0.7
2025-06-12T0800,3598A,111.1,34.7167,三门峡市,富达温泉假日酒店,细颗粒物(PM2.5),57,60,66,40,30,107,,104,104,16,13,8,9,0.7,0.7
2025-06-12T0800,2324A,117.6211,26.2625,三明市,三钢,,16,16,20,3,8,37,,38,38,9,6,3,3,0.4,0.5
2025-06-12T0800,2325A,117.635,26.2714,三明市,三明二中,,12,8,13,3,6,38,,41,41,7,4,1,2,0.4,0.4
2025-06-12T0800,2326A,117.6028,26.2378,三明市,三元区政府,,14,8,15,3,9,44,,35,35,7,8,4,3,0.4,0.4
2025-06-12T0800,2327A,117.7275,26.3108,三明市,洋溪,,,,,,,,,,,,,,,,
2025-06-12T0800,1876A,109.5078,18.2489,三亚市,河东子站,,15,7,11,3,6,45,,46,46,1,3,3,3,0.6,0.5
2025-06-12T0800,1877A,109.4964,18.2681,三亚市,河西子站,,13,6,11,3,4,41,,44,44,3,4,2,2,0.4,0.4
2025-06-12T0800,3540A,109.7348,18.3443,三亚市,君悦子站,,15,7,11,3,3,46,,48,48,3,6,1,1,0.4,0.3
2025-06-12T0800,2624A,91.7608,29.2313,山南市,山南监测站,,25,17,27,9,18,77,,90,90,7,6,7,7,0.2,0.2
2025-06-12T0800,2625A,91.7706,29.2436,山南市,山南人民医院,,28,28,28,18,16,78,,91,91,5,4,6,6,0.2,0.2
2025-06-12T0800,1674A,116.6794,23.3667,汕头市,金平子站,,17,15,16,9,10,54,,65,65,6,4,3,3,0.5,0.4
2025-06-12T0800,1675A,116.7244,23.3633,汕头市,龙湖子站,,16,6,18,6,9,50,,62,62,6,5,5,5,0.4,0.4
2025-06-12T0800,1676A,116.7258,23.2775,汕头市,濠江子站,,15,,18,8,8,48,,59,59,2,4,4,4,0.5,0.5
2025-06-12T0800,1677A,116.7519,23.4714,汕头市,澄海子站,,16,,24,8,12,51,,66,66,8,6,4,3,0.5,0.5
2025-06-12T0800,1678A,116.6092,23.2539,汕头市,潮阳子站,,16,8,21,3,10,51,,66,66,2,2,4,4,0.4,0.3
2025-06-12T0800,3444A,116.454,23.2684,汕头市,潮南峡山,,16,9,20,3,12,49,,62,62,2,2,4,4,0.5,0.5
2025-06-12T0800,3624A,116.4069,23.2533,汕头市,潮南子站,,14,11,20,6,9,44,,58,58,4,5,4,4,0.5,0.5
2025-06-12T0800,1693A,115.3653,22.775,汕尾市,市环保局,,17,15,14,3,3,53,,48,48,8,6,2,2,0.5,0.4
2025-06-12T0800,1694A,115.3706,22.7898,汕尾市,市政府,,20,16,14,14,6,44,,45,45,10,6,4,4,0.5,0.4
2025-06-12T0800,1695A,115.3622,22.7925,汕尾市,新城中学,,13,13,14,9,5,41,,45,45,11,6,2,2,0.4,0.4
2025-06-12T0800,2645A,109.9154,33.8715,商洛市,监测站,颗粒物(PM10),52,54,47,28,25,56,,60,60,24,17,11,8,0.5,0.4
2025-06-12T0800,3045A,109.9643,33.8471,商洛市,商州区中学,颗粒物(PM10),55,60,55,28,25,42,,57,57,42,25,4,6,0.5,0.4
2025-06-12T0800,2408A,115.6702,34.4285,商丘市,环境监测站,颗粒物(PM10),55,59,48,37,22,108,,101,101,16,9,5,3,0.6,0.4
2025-06-12T0800,2409A,115.6458,34.4045,商丘市,粮食局,细颗粒物(PM2.5),60,49,43,43,30,102,,96,96,17,10,5,2,0.6,0.5
2025-06-12T0800,2410A,115.6293,34.3948,商丘市,睢阳区环保局,细颗粒物(PM2.5),63,59,52,45,27,103,,98,98,18,10,4,2,0.4,0.3
2025-06-12T0800,3171A,115.6071,34.4465,商丘市,梁园区档案局,,,47,43,45,25,,,99,99,15,12,6,3,0.5,0.4
2025-06-12T0800,1141A,121.4,31.238,上海市,普陀,,23,,16,7,15,73,,67,67,27,23,4,5,0.4,0.4
2025-06-12T0800,1142A,121.478,31.2036,上海市,十五厂,,28,6,15,3,15,89,,69,69,24,24,6,7,0.6,0.6
2025-06-12T0800,1143A,121.467,31.3008,上海市,虹口,,21,,17,8,15,67,,62,62,28,21,8,8,0.5,0.5
2025-06-12T0800,1147A,121.425,31.2261,上海市,静安监测站,,28,,16,11,16,88,,70,70,25,25,7,8,0.4,0.3
2025-06-12T0800,1148A,121.703,31.1907,上海市,浦东川沙,,33,,11,6,9,105,,75,75,11,18,6,6,0.5,0.5
