timepoint,stationcode,longitude,latitude,area,positionname,primarypollutant,aqi,pm10,pm10_24h,pm2_5,pm2_5_24h,o3,o3_24h,o3_8h,o3_8h_24h,no2,no2_24h,so2,so2_24h,co,co_24h
2025-06-12T2100,2566A,102.1879,31.914,阿坝藏族羌族自治州,州农科所,,32,19,15,8,8,101,,102,102,3,9,12,12,0.4,0.5
2025-06-12T2100,2568A,102.2502,31.8896,阿坝藏族羌族自治州,马师校,,39,28,18,27,18,78,,108,105,22,9,5,5,0.5,0.5
2025-06-12T2100,3994A,102.2165,31.9024,阿坝藏族羌族自治州,马尔康中学西区,,,,17,,17,,,116,116,4,6,6,5,0.4,0.5
2025-06-12T2100,2695A,80.292,41.1694,阿克苏地区,电视台,颗粒物(PM10),186,322,688,96,163,102,,101,101,11,16,3,4,0.3,0.3
2025-06-12T2100,2696A,80.2613,41.1551,阿克苏地区,艺术中心,颗粒物(PM10),193,335,765,89,196,101,,101,101,7,12,4,3,0.4,0.4
2025-06-12T2100,2204A,105.6467,38.8363,阿拉善盟,西城区西花园,,38,38,65,21,32,114,,126,124,11,11,5,6,0.5,0.5
2025-06-12T2100,2205A,105.6985,38.8411,阿拉善盟,蒙二幼,颗粒物(PM10),65,80,88,20,28,95,,106,104,3,6,8,9,0.4,0.3
2025-06-12T2100,2206A,105.724,38.8516,阿拉善盟,环保局新楼,颗粒物(PM10),54,58,70,20,28,116,,119,119,4,4,9,9,0.3,0.3
2025-06-12T2100,2708A,88.1264,47.8517,阿勒泰地区,市站,,28,25,25,9,7,88,,96,96,10,6,2,2,0.5,0.4
2025-06-12T2100,2630A,80.1161,32.5,阿里地区,阿里监测站,,44,14,16,8,10,138,,138,138,4,13,4,2,0.3,0.3
2025-06-12T2100,3192A,80.0903,32.5028,阿里地区,阿里藏医院,,46,35,23,8,9,146,,147,146,1,6,6,6,0.4,0.4
2025-06-12T2100,2642A,109.0318,32.6537,安康市,香溪洞,,43,31,41,11,20,135,,146,146,5,7,6,6,0.3,0.4
2025-06-12T2100,2644A,109.0072,32.6975,安康市,汉滨区检察院,,50,50,39,19,19,92,,150,145,21,10,12,9,0.6,0.5
2025-06-12T2100,4054A,109.0325,32.6913,安康市,市邮政管理局,颗粒物(PM10),55,60,41,31,18,83,,150,139,24,12,8,7,1.0,0.7
2025-06-12T2100,2291A,117.0809,30.5177,安庆市,环科院,,29,27,22,20,17,92,,106,103,7,9,3,4,0.6,0.6
2025-06-12T2100,2292A,117.0331,30.5119,安庆市,马山宾馆,,29,26,21,20,16,85,,102,96,8,9,4,5,0.6,0.6
2025-06-12T2100,2294A,116.9896,30.6145,安庆市,安庆大学,,29,25,23,20,19,67,,91,85,14,9,3,4,0.6,0.5
2025-06-12T2100,3173A,117.0598,30.5351,安庆市,市人大,,28,22,24,17,16,88,,110,103,10,10,2,4,0.5,0.5
2025-06-12T2100,3122A,105.9606,26.2611,安顺市,伍家关,,,,46,61,31,64,,103,94,7,12,2,4,0.4,0.4
2025-06-12T2100,3123A,105.9408,26.2431,安顺市,凤凰山,,45,45,41,20,31,106,,145,139,12,18,10,9,0.5,0.5
2025-06-12T2100,3124A,105.9439,26.2564,安顺市,金钟山,,34,25,35,20,28,108,,154,146,8,7,7,11,0.3,0.3
2025-06-12T2100,3125A,105.8983,26.2481,安顺市,娄家坡,,,30,41,20,32,,,138,138,8,11,10,11,0.4,0.4
2025-06-12T2100,1818A,114.4839,36.0621,安阳市,棉研所,,,,,,,,,,,,,,,,
2025-06-12T2100,1819A,114.3551,36.1017,安阳市,红庙街,臭氧1小时,85,52,58,21,25,188,,216,214,2,2,2,2,0.3,0.4
2025-06-12T2100,1820A,114.361,36.0681,安阳市,银杏小区,臭氧1小时,79,61,57,21,35,183,,213,210,4,3,3,4,0.3,0.5
2025-06-12T2100,3141A,114.3922,36.0878,安阳市,信访局,臭氧1小时,84,60,63,31,31,187,,219,216,2,4,2,3,0.4,0.5
2025-06-12T2100,3669A,114.4705,36.0637,安阳市,左辅环卫站,臭氧1小时,68,64,70,21,31,174,,214,210,9,9,4,5,0.4,0.6
2025-06-12T2100,3703A,114.2917,36.0949,安阳市,安钢职工学校,臭氧1小时,65,48,57,21,33,172,,205,203,5,4,3,5,0.4,0.5
2025-06-12T2100,1748A,123.044,41.1196,鞍山市,深沟寺,,37,30,23,12,11,117,,144,130,19,15,10,8,0.8,0.6
2025-06-12T2100,1749A,123.011,41.0931,鞍山市,太阳城,,35,32,23,15,10,112,,137,124,17,15,10,9,0.7,0.6
2025-06-12T2100,1750A,123.0485,41.1442,鞍山市,太平,,40,40,32,14,11,114,,137,126,20,15,13,10,0.8,0.6
2025-06-12T2100,1751A,122.9642,41.0971,鞍山市,铁西三道街,,40,40,37,15,15,105,,130,117,34,25,14,10,1.3,0.9
2025-06-12T2100,1753A,123.022,41.0821,鞍山市,明达新区,,38,29,25,14,11,121,,135,123,13,13,12,11,0.6,0.6
2025-06-12T2100,1754A,123.1289,41.0228,鞍山市,千山,,,,16,,9,,,103,,,8,,4,,0.4
2025-06-12T2100,4201A,122.9446,41.0826,鞍山市,兴盛南路290号,颗粒物(PM10),56,62,36,17,13,88,,128,113,41,26,13,11,1.1,0.8
2025-06-12T2100,2195A,107.4212,40.761,巴彦淖尔市,附二中,,38,38,46,16,16,70,,93,84,12,8,7,8,0.4,0.3
2025-06-12T2100,2196A,107.37,40.7372,巴彦淖尔市,市环保大楼,,37,37,38,14,17,84,,96,91,12,11,8,7,0.4,0.4
2025-06-12T2100,1956A,86.1472,41.7538,巴音郭楞蒙古自治州,孔雀公园,,37,37,69,15,20,116,,119,119,8,10,8,10,0.1,0.2
2025-06-12T2100,1957A,86.1972,41.7166,巴音郭楞蒙古自治州,棉纺厂,,49,49,88,3,15,103,,113,113,19,10,4,4,0.3,0.2
2025-06-12T2100,1958A,86.2357,41.7173,巴音郭楞蒙古自治州,经济开发区,,36,29,67,8,15,114,,117,117,6,5,9,9,0.2,0.2
2025-06-12T2100,2914A,106.7677,31.8794,巴中市,苏山坪,,48,38,30,24,19,151,,146,146,7,6,4,4,0.4,0.4
2025-06-12T2100,3181A,106.7768,31.8526,巴中市,市五中,,46,41,36,24,21,146,,148,148,8,12,13,8,0.5,0.6
2025-06-12T2100,3183A,106.7418,31.8654,巴中市,圣泉水务公司,,41,40,35,23,21,129,,147,145,17,22,6,5,0.6,0.5
2025-06-12T2100,3616A,106.7616,31.8344,巴中市,市中心医院,,45,36,36,24,23,143,,143,143,6,18,6,6,0.4,0.5
2025-06-12T2100,2235A,122.7911,45.6077,白城市,洮北区环保局,,42,30,29,21,16,134,,132,132,7,12,3,4,0.3,0.3
2025-06-12T2100,2236A,122.8738,45.5725,白城市,市环保局,,47,22,27,8,15,148,,135,135,4,10,4,5,0.4,0.4
2025-06-12T2100,2231A,126.4219,41.9171,白山市,喜丰,,38,38,36,16,12,45,,130,114,40,24,7,9,0.7,0.6
2025-06-12T2100,2232A,126.4077,41.9419,白山市,环保局,颗粒物(PM10),52,54,27,22,9,63,,131,116,22,16,9,7,0.7,0.4
2025-06-12T2100,2647A,104.1724,36.5446,白银市,第三小学,,43,43,81,14,32,126,,131,128,4,30,9,42,0.3,0.7
2025-06-12T2100,2648A,104.1465,36.5482,白银市,动力公司,,39,35,65,20,25,124,,125,123,6,26,10,22,0.2,0.4
2025-06-12T2100,2512A,106.6103,23.9011,百色市,市监测站,,27,27,26,16,15,40,,68,64,8,7,3,3,0.6,0.6
2025-06-12T2100,2513A,106.6538,23.8859,百色市,市中心血站,,34,34,33,23,19,53,,73,71,16,15,2,2,0.7,0.7
2025-06-12T2100,3406A,106.6085,23.8798,百色市,祈福高中,,40,40,29,17,15,51,,67,65,6,7,4,4,0.6,0.6
2025-06-12T2100,2270A,117.396,32.939,蚌埠市,工人疗养院,,48,48,48,29,24,78,,129,119,23,18,6,6,0.6,0.5
2025-06-12T2100,2271A,117.3605,32.9427,蚌埠市,百货大楼,,45,45,43,28,23,88,,125,118,14,18,3,5,0.7,0.5
2025-06-12T2100,2273A,117.4185,32.8911,蚌埠市,蚌埠学院,细颗粒物(PM2.5),54,39,35,38,31,88,,124,117,12,12,3,4,0.6,0.5
2025-06-12T2100,2274A,117.3533,32.9673,蚌埠市,淮上区政府,,46,46,45,32,28,88,,131,122,18,18,5,6,0.6,0.5
2025-06-12T2100,2275A,117.3145,32.8977,蚌埠市,高新区,,45,44,41,31,25,90,,118,113,16,15,5,5,0.7,0.5
2025-06-12T2100,3715A,117.3092,32.9314,蚌埠市,蚌埠田家炳中学,细颗粒物(PM2.5),53,54,44,37,29,90,,121,114,11,11,5,6,0.5,0.4
2025-06-12T2100,1585A,109.8756,40.6532,包头市,市环境监测站,颗粒物(PM10),51,52,65,34,26,87,,138,120,13,19,8,16,0.6,0.8
2025-06-12T2100,1587A,109.9991,40.5842,包头市,包头八中,颗粒物(PM10),69,88,76,18,29,91,,152,128,10,18,8,19,0.4,0.7
2025-06-12T2100,1588A,109.8538,40.6821,包头市,青山宾馆,,45,45,57,14,25,86,,129,114,12,21,8,14,0.4,0.6
2025-06-12T2100,1589A,109.8642,40.6288,包头市,惠龙物流,,49,49,64,17,19,89,,144,126,10,15,5,12,0.3,0.5
2025-06-12T2100,1590A,110.0377,40.5546,包头市,东河鸿龙湾,,,65,83,8,16,,,146,133,10,21,7,20,0.5,0.7
2025-06-12T2100,3283A,109.9154,40.5685,包头市,滨河大厦,,37,37,58,10,20,93,,149,132,9,17,7,14,0.4,0.5
2025-06-12T2100,3419A,109.9447,40.6261,包头市,包头市委党校,,28,25,62,6,20,89,,149,126,10,16,8,15,0.6,0.8
2025-06-12T2100,3683A,109.8331,40.6576,包头市,昆区政府,,39,39,62,14,22,86,,126,114,13,21,6,13,0.4,0.7
2025-06-12T2100,1930A,107.185,34.3063,宝鸡市,庙沟村,臭氧1小时,53,41,36,18,22,162,,188,176,5,12,5,10,0.5,0.5
2025-06-12T2100,1931A,107.0708,34.3017,宝鸡市,竹园沟,,45,34,40,24,24,144,,177,162,6,14,5,8,0.3,0.3
2025-06-12T2100,1932A,107.1906,34.3672,宝鸡市,三陆医院,,40,29,48,25,27,126,,182,168,16,32,5,9,0.5,0.5
2025-06-12T2100,1933A,107.1431,34.3547,宝鸡市,监测站,,38,37,56,26,26,119,,179,159,19,22,6,10,0.3,0.4
2025-06-12T2100,1934A,107.1186,34.3739,宝鸡市,技工学校,,41,26,47,22,24,131,,182,168,9,12,6,10,0.6,0.6
2025-06-12T2100,1935A,107.3906,34.3528,宝鸡市,陈仓区环保局家属楼,,43,43,48,24,25,137,,188,182,10,21,5,7,0.4,0.5
2025-06-12T2100,1936A,107.2058,34.3497,宝鸡市,文理学院,,43,34,45,25,26,137,,190,175,9,18,5,9,0.5,0.6
2025-06-12T2100,1937A,107.2386,34.3622,宝鸡市,三迪小学,,41,,51,24,29,130,,186,173,13,25,5,10,0.5,0.5
2025-06-12T2100,1051A,115.493,38.8632,保定市,游泳馆,,,,94,,38,,,222,222,19,14,2,3,0.2,0.1
2025-06-12T2100,1052A,115.5213,38.8959,保定市,华电二区,颗粒物(PM10),81,111,76,53,32,181,,217,213,16,9,5,3,0.3,0.3
2025-06-12T2100,1053A,115.4713,38.9108,保定市,接待中心,臭氧1小时,90,97,74,34,33,192,,218,217,13,9,2,2,0.3,0.4
2025-06-12T2100,1054A,115.4612,38.8416,保定市,地表水厂,颗粒物(PM10),83,115,98,38,30,174,,224,218,36,18,4,3,0.3,0.4
2025-06-12T2100,3581A,115.31981,38.95208,保定市,满城区生态环境分局,颗粒物(PM10),96,141,123,34,35,191,,227,225,14,10,6,5,0.3,0.4
2025-06-12T2100,3582A,115.47694,38.76408,保定市,清苑区第二中学,颗粒物(PM10),102,154,126,49,42,170,,226,219,26,11,3,2,0.4,0.4
2025-06-12T2100,3583A,115.62909,39.02311,保定市,徐水物探局,颗粒物(PM10),102,153,131,31,32,186,,223,219,12,11,1,2,0.3,0.4
2025-06-12T2100,4004A,115.4202,38.8656,保定市,双鹰农机,"颗粒物(PM10),臭氧1小时",85,120,78,46,29,188,,226,223,23,17,3,3,0.3,0.3
2025-06-12T2100,4034A,115.5150,38.8590,保定市,植保所站,颗粒物(PM10),94,137,99,47,35,158,,213,207,24,12,6,7,0.4,0.4
2025-06-12T2100,2594A,99.1678,25.1081,保山市,市环境监测站,,42,41,34,29,23,98,,137,131,9,9,9,8,0.4,0.5
2025-06-12T2100,2595A,99.1711,25.1328,保山市,市环保局,,36,36,35,17,19,113,,140,135,4,7,6,5,0.4,0.4
2025-06-12T2100,1866A,109.2262,21.588,北海市,牛尾岭水库,,17,7,14,7,5,53,,66,62,3,5,2,2,0.5,0.5
2025-06-12T2100,1867A,109.1436,21.4086,北海市,海滩公园,,,35,19,3,5,,,54,54,6,7,2,2,0.5,0.7
2025-06-12T2100,1868A,109.0981,21.4661,北海市,新市环保局,,17,13,16,9,11,54,,66,65,7,8,2,3,0.5,0.5
2025-06-12T2100,1869A,109.1778,21.5233,北海市,北海工业园,,15,10,21,3,9,48,,58,58,6,10,3,3,0.5,0.5
2025-06-12T2100,3400A,109.1911,21.4415,北海市,龙潭自来水厂,,16,16,17,10,11,42,,54,54,5,7,3,3,0.5,0.5
2025-06-12T2100,1001A,116.3621,39.8784,北京市,万寿西宫,臭氧1小时,112,95,90,31,34,223,,231,231,19,21,5,6,0.4,0.6
2025-06-12T2100,1002A,116.2202,40.2915,北京市,定陵,,,,,,,,,,,,,,,,
2025-06-12T2100,1003A,116.4174,39.9289,北京市,东四,臭氧1小时,114,110,97,28,35,227,,239,239,24,24,7,6,0.2,0.4
2025-06-12T2100,1004A,116.4072,39.8863,北京市,天坛,臭氧1小时,110,97,86,35,33,220,,234,233,17,22,4,4,0.5,0.5
2025-06-12T2100,1005A,116.462,39.9365,北京市,农展馆,臭氧1小时,106,117,97,35,36,212,,218,218,17,22,7,6,0.8,0.7
2025-06-12T2100,1006A,116.3392,39.9295,北京市,官园,臭氧1小时,106,111,95,34,34,211,,223,223,17,20,4,5,0.5,0.6
2025-06-12T2100,1007A,116.2878,39.9611,北京市,海淀万柳,臭氧1小时,98,102,92,29,33,198,,206,206,16,24,4,5,0.4,0.5
2025-06-12T2100,1008A,116.6636,40.135,北京市,顺义新城,臭氧1小时,92,120,85,40,29,193,,209,208,20,19,6,5,0.6,0.5
2025-06-12T2100,1009A,116.6275,40.3275,北京市,怀柔镇,臭氧1小时,108,96,77,30,29,216,,227,226,16,16,6,5,0.6,0.6
2025-06-12T2100,1010A,116.2296,40.217,北京市,昌平镇,臭氧1小时,104,108,84,31,31,208,,228,227,19,21,5,6,0.1,0.5
2025-06-12T2100,1011A,116.3966,39.9821,北京市,奥体中心,臭氧1小时,97,100,87,31,33,197,,208,208,16,24,5,6,0.6,0.7
2025-06-12T2100,3281A,115.9718,40.4529,北京市,延庆夏都,臭氧1小时,103,88,88,27,34,205,,226,225,11,16,5,7,0.5,0.6
2025-06-12T2100,3418A,116.8336,40.4095,北京市,密云新城,臭氧1小时,114,93,73,31,29,227,,234,234,15,15,7,6,0.4,0.5
2025-06-12T2100,3671A,116.088,39.9726,北京市,门头沟三家店,颗粒物(PM10),88,125,100,36,35,181,,214,212,22,30,4,4,0.2,0.3
2025-06-12T2100,3672A,116.1541,39.8204,北京市,丰台云岗,臭氧1小时,102,113,103,32,35,203,,234,231,18,18,8,9,0.5,0.6
2025-06-12T2100,3673A,116.6804,39.9081,北京市,通州东关,臭氧1小时,110,118,92,33,32,219,,233,233,15,19,7,5,0.8,0.7
2025-06-12T2100,3674A,115.9577,39.7603,北京市,房山燕山,颗粒物(PM10),78,105,98,32,41,169,,220,214,17,16,4,4,0.5,0.6
2025-06-12T2100,3675A,116.4672,39.7733,北京市,大兴旧宫,臭氧1小时,108,106,90,33,32,216,,226,226,16,19,4,3,0.6,0.6
2025-06-12T2100,3694A,115.986,40.4563,北京市,延庆石河营,臭氧1小时,105,88,84,25,34,210,,228,227,9,15,3,4,0.4,0.5
2025-06-12T2100,3695A,116.6151,40.3053,北京市,怀柔新城,臭氧1小时,108,91,72,31,32,215,,229,228,19,15,5,4,0.4,0.5
2025-06-12T2100,3696A,116.2545,39.8768,北京市,丰台小屯,颗粒物(PM10),79,108,92,32,35,176,,208,205,24,22,4,4,0.5,0.6
2025-06-12T2100,3697A,116.84,40.3844,北京市,密云镇,臭氧1小时,114,107,74,32,31,228,,234,234,13,18,10,8,0.5,0.5
2025-06-12T2100,4182A,116.1942,39.9158,北京市,八角北路9号,颗粒物(PM10),84,118,117,36,38,172,,200,197,16,29,3,4,0.5,0.6
2025-06-12T2100,4194A,117.0790,40.1518,北京市,洳河巡河路,臭氧1小时,101,73,77,23,28,201,,232,231,10,10,6,6,0.6,0.6
2025-06-12T2100,1761A,123.8275,41.3064,本溪市,大峪,,42,30,26,10,10,134,,151,149,9,13,7,7,0.2,0.4
2025-06-12T2100,1762A,123.7567,41.3325,本溪市,溪湖,,40,32,41,14,16,125,,154,150,21,21,14,9,1.5,1.1
2025-06-12T2100,1763A,123.7169,41.3094,本溪市,彩屯,,39,34,37,18,19,122,,157,151,34,33,24,15,2.5,1.7
2025-06-12T2100,1764A,123.7669,41.2864,本溪市,东明,,47,23,34,13,16,150,,166,164,10,19,7,7,0.5,0.8
2025-06-12T2100,1765A,123.7992,41.2664,本溪市,新立屯,,42,20,23,10,9,134,,155,151,14,22,6,6,0.4,0.5
2025-06-12T2100,1766A,123.8142,41.3472,本溪市,威宁,,,25,38,11,15,,,157,157,13,21,6,6,0.4,0.6
2025-06-12T2100,2587A,105.2864,27.3125,毕节市,八中,,43,43,35,24,24,96,,130,123,17,11,6,6,0.6,0.4
2025-06-12T2100,2588A,105.31,27.2944,毕节市,师专,颗粒物(PM10),51,51,46,26,24,115,,139,135,14,14,5,6,0.5,0.5
2025-06-12T2100,4263A,105.3688,27.3598,毕节市,工业大道,,48,48,41,27,26,101,,143,135,26,19,11,8,0.7,0.6
2025-06-12T2100,1629A,118.0018,37.3617,滨州市,第二水厂,颗粒物(PM10),65,80,70,24,29,106,,198,178,21,22,5,8,0.4,0.5
2025-06-12T2100,1630A,117.9776,37.393,滨州市,北中新校,颗粒物(PM10),57,63,54,19,18,108,,204,184,21,19,14,15,0.4,0.4
2025-06-12T2100,3514A,117.9378,37.3956,滨州市,中海酒店,颗粒物(PM10),62,73,53,17,21,129,,232,212,23,18,10,11,0.7,0.7
2025-06-12T2100,3515A,117.9378,37.3553,滨州市,开发区一中,颗粒物(PM10),81,112,69,12,17,116,,211,192,27,24,11,10,0.5,0.6
2025-06-12T2100,3516A,118.0917,37.694,滨州市,金海六路,颗粒物(PM10),79,107,67,9,14,114,,222,184,19,20,9,12,0.2,0.3
2025-06-12T2100,4028A,117.9956,37.3753,滨州市,滨州市西街道办事处,颗粒物(PM10),67,83,64,14,22,112,,212,189,20,20,7,10,0.4,0.5
2025-06-12T2100,2311A,115.8072,33.8399,亳州市,污水处理厂,,39,30,31,10,16,123,,174,166,12,6,4,5,0.5,0.4
2025-06-12T2100,2312A,115.7789,33.8518,亳州市,三国揽胜宫,,40,32,37,23,21,127,,175,169,12,12,2,3,0.4,0.3
2025-06-12T2100,3332A,115.7633,33.8034,亳州市,亳州学院,,39,23,30,20,22,122,,178,168,10,10,2,3,0.5,0.4
2025-06-12T2100,2693A,82.0485,44.8556,博尔塔拉蒙古自治州,市党校,,37,23,29,12,14,116,,120,120,11,11,2,2,0.2,0.2
2025-06-12T2100,2694A,82.0806,44.8969,博尔塔拉蒙古自治州,市环保局,,,,33,,12,117,,121,121,8,10,3,1,,0.4
2025-06-12T2100,1071A,116.8842,38.2991,沧州市,沧县城建局,颗粒物(PM10),86,122,80,39,30,168,,219,214,28,22,2,4,0.4,0.5
2025-06-12T2100,1072A,116.8584,38.3254,沧州市,电视转播站,颗粒物(PM10),76,102,84,36,34,174,,212,209,20,18,5,4,0.4,0.4
2025-06-12T2100,1073A,116.8709,38.3228,沧州市,市环保局,颗粒物(PM10),83,115,95,41,33,169,,203,200,20,17,2,4,0.3,0.4
2025-06-12T2100,3324A,116.8136,38.3004,沧州市,河北水利电力学院,臭氧1小时,102,119,107,38,34,204,,235,232,23,20,3,4,0.3,0.3
2025-06-12T2100,2622A,97.1806,31.1273,昌都市,昌都监测站,,38,17,23,15,12,121,,136,134,5,6,4,4,0.2,0.4
2025-06-12T2100,3719A,97.1714,31.1406,昌都市,昌都会议中心,,39,16,20,11,12,124,,132,132,3,8,3,4,0.2,0.2
2025-06-12T2100,2690A,88.1236,43.8886,昌吉回族自治州,天山天池,,25,20,12,3,7,79,,116,112,6,5,4,3,0.5,0.5
2025-06-12T2100,2692A,87.2717,44.0297,昌吉回族自治州,新区政务中心,,42,28,28,3,13,134,,133,133,8,15,11,9,0.4,0.5
2025-06-12T2100,3613A,87.3095,44.0142,昌吉回族自治州,亚心广场,,39,34,38,24,23,122,,122,122,13,17,11,9,0.3,0.3
2025-06-12T2100,1119A,125.3325,43.9166,长春市,食品厂,,,,,,,,,,,,,,,,
2025-06-12T2100,1120A,125.2863,43.9027,长春市,客车厂,,38,35,31,17,15,119,,150,139,21,24,6,6,0.3,0.3
2025-06-12T2100,1121A,125.2841,43.8463,长春市,邮电学院,,40,38,26,11,11,125,,157,150,20,20,6,6,0.3,0.4
2025-06-12T2100,1122A,125.3716,43.8772,长春市,劳动公园,,40,34,29,3,12,127,,154,149,17,21,7,7,0.5,0.5
2025-06-12T2100,1123A,125.3297,43.8805,长春市,园林处,,39,22,30,10,13,123,,156,150,18,21,7,7,0.4,0.3
2025-06-12T2100,1124A,125.4605,43.79,长春市,净月潭,,40,34,25,9,10,128,,152,144,15,14,7,6,0.3,0.3
2025-06-12T2100,1125A,125.7194,43.515,长春市,甩湾子,,,,,,,,,,,,,,,,
2025-06-12T2100,1126A,125.3863,43.8447,长春市,经开区环卫处,,38,37,38,10,9,119,,143,137,20,30,7,6,0.2,0.2
2025-06-12T2100,1127A,125.245,43.7783,长春市,高新区管委会,,39,39,28,10,13,115,,152,144,25,24,5,5,0.3,0.4
2025-06-12T2100,1128A,125.1761,43.8325,长春市,岱山公园,,36,27,30,11,14,114,,148,133,20,27,5,5,0.3,0.2
2025-06-12T2100,1335A,113.0833,28.2325,长沙市,经开区环保局,,20,20,16,14,12,53,,72,69,12,11,3,3,0.5,0.5
2025-06-12T2100,1336A,112.8872,28.2189,长沙市,高开区环保局,,34,34,23,10,10,63,,86,84,16,11,3,3,0.9,0.8
2025-06-12T2100,1337A,113.0792,28.2053,长沙市,马坡岭,,24,24,18,13,11,55,,77,74,14,10,8,4,0.6,0.6
2025-06-12T2100,1338A,112.9394,28.19,长沙市,湖南师范大学,,,48,19,13,10,49,,82,79,16,9,,3,,0.5
2025-06-12T2100,1339A,113.0178,28.1322,长沙市,雨花区环保局,,26,26,18,11,8,61,,83,81,13,8,4,4,0.6,0.6
2025-06-12T2100,1340A,112.9792,28.2597,长沙市,伍家岭,,33,33,21,15,12,46,,78,75,16,10,2,2,0.5,0.5
2025-06-12T2100,1341A,113.0014,28.1944,长沙市,火车新站,,27,27,18,14,7,52,,79,78,20,10,6,6,0.6,0.6
2025-06-12T2100,1342A,112.9844,28.1178,长沙市,天心区环保局,,32,32,18,12,10,61,,84,82,18,11,2,1,0.6,0.5
2025-06-12T2100,1343A,112.8908,28.1308,长沙市,湖南中医药大学,,33,33,21,13,11,34,,85,80,28,11,2,2,0.7,0.6
2025-06-12T2100,1344A,112.9581,28.3611,长沙市,沙坪,,29,29,20,6,10,16,,70,60,8,7,3,3,0.7,0.6
2025-06-12T2100,1727A,113.1147,36.1547,长治市,清华站,臭氧1小时,104,41,41,22,21,208,,191,191,11,9,5,5,0.6,0.7
2025-06-12T2100,1730A,113.0886,36.2125,长治市,审计局,臭氧1小时,107,47,42,19,24,214,,194,194,11,10,9,9,0.6,0.6
2025-06-12T2100,1731A,113.0844,36.1856,长治市,长治八中,,,54,50,25,32,,,189,189,10,8,10,10,0.7,0.8
2025-06-12T2100,2845A,113.1569,36.1911,长治市,德盛苑,臭氧1小时,102,46,41,19,22,203,,187,187,11,9,7,7,,0.7
2025-06-12T2100,3568A,113.06,36.0464,长治市,向阳小学,臭氧1小时,103,78,73,42,30,205,,194,194,12,11,5,5,0.6,0.7
2025-06-12T2100,3569A,112.8792,36.3144,长治市,屯留一中,臭氧1小时,100,,37,36,33,200,,186,186,14,14,6,6,0.3,0.5
2025-06-12T2100,4189A,113.1131,36.19948,长治市,英华南巷50号,臭氧1小时,101,48,45,19,25,201,,188,188,,4,7,7,0.3,0.6
2025-06-12T2100,4190A,113.2367,36.3344,长治市,学府街1号,臭氧1小时,111,43,57,20,28,222,,212,212,10,12,3,4,0.9,0.7
2025-06-12T2100,1854A,111.6975,28.9703,常德市,市二中,,38,28,25,26,21,68,,105,97,7,10,12,6,0.8,0.8
2025-06-12T2100,1857A,111.7158,29.1456,常德市,白鹤山,,,,,,,,,,,,,,,,
2025-06-12T2100,3138A,111.7153,29.0289,常德市,武陵区永安,,32,28,27,22,20,74,,111,104,6,5,4,4,0.7,0.6
2025-06-12T2100,3139A,111.6892,28.9881,常德市,鼎城区玉霞,,,30,27,20,20,,,115,111,15,7,7,5,0.6,0.4
2025-06-12T2100,3140A,111.6625,29.0531,常德市,武陵区长庚,,30,30,25,17,17,76,,113,108,6,5,5,3,0.6,0.6
2025-06-12T2100,1196A,119.9633,31.762,常州市,市监测站,,,56,40,28,19,41,,92,81,,9,7,7,0.7,0.5
2025-06-12T2100,1200A,119.9468,31.7069,常州市,武进监测站,,,41,35,29,22,44,,90,79,44,27,4,3,,1
2025-06-12T2100,1201A,119.9255,31.9087,常州市,安家,,40,40,36,24,17,52,,100,91,29,18,5,8,0.5,0.5
2025-06-12T2100,3002A,119.9805,31.8174,常州市,行政中心,颗粒物(PM10),51,51,37,25,16,55,,102,92,33,22,7,6,0.4,0.4
2025-06-12T2100,3003A,120.0522,31.7748,常州市,经开区,,33,30,25,23,16,46,,101,88,38,23,4,5,0.3,0.2
2025-06-12T2100,3010A,119.9025,31.7964,常州市,钟楼,颗粒物(PM10),51,51,32,24,17,48,,93,85,39,23,6,6,0.7,0.5
2025-06-12T2100,3429A,119.8598,31.7066,常州市,武进经发区,颗粒物(PM10),56,62,37,22,16,44,,88,78,41,24,5,5,1.0,1
2025-06-12T2100,3430A,119.5826,31.7245,常州市,金坛城区,,32,26,18,22,16,53,,98,90,36,25,8,7,0.6,0.6
2025-06-12T2100,2220A,120.4318,41.5881,朝阳市,西梁,,34,29,49,11,25,107,,167,157,8,15,7,11,0.3,0.6
2025-06-12T2100,2221A,120.4521,41.5646,朝阳市,河畔小区,,36,28,48,14,26,113,,180,170,7,14,5,9,0.2,0.6
2025-06-12T2100,2222A,120.4176,41.5648,朝阳市,八里堡,,45,45,64,13,23,109,,184,172,11,19,4,11,0.3,0.7
2025-06-12T2100,2223A,120.3806,41.5969,朝阳市,农业园区,,34,23,46,8,31,107,,162,155,13,20,4,8,0.2,0.6
2025-06-12T2100,1705A,116.6367,23.6719,潮州市,西园路,颗粒物(PM10),56,61,20,9,9,88,,78,78,14,7,6,3,0.7,0.6
2025-06-12T2100,3026A,116.6183,23.6608,潮州市,市政府,,48,48,27,15,11,98,,73,73,10,7,4,3,0.6,0.4
2025-06-12T2100,4036A,116.6461,23.6761,潮州市,金山,,34,34,24,9,9,81,,74,74,6,4,11,8,0.6,0.5
2025-06-12T2100,2472A,113.0073,25.9061,郴州市,马头岭,,14,14,21,9,11,27,,55,50,12,10,7,11,0.3,0.4
2025-06-12T2100,2473A,113.0116,25.8226,郴州市,市职中,,,,24,16,21,,,63,59,6,8,4,8,,0.8
2025-06-12T2100,2475A,113.0383,25.8071,郴州市,市审计局,,22,,25,15,19,48,,61,59,3,6,4,10,0.6,1.1
2025-06-12T2100,2476A,113.0348,25.7759,郴州市,市环保局,,26,26,30,3,19,49,,71,68,10,10,8,13,0.2,0.3
2025-06-12T2100,4252A,113.0138,25.8011,郴州市,好美居路49号,,24,24,39,13,20,59,,77,70,6,7,6,11,0.7,0.8
2025-06-12T2100,1431A,103.9728,30.7236,成都市,金泉两河,细颗粒物(PM2.5),70,,47,51,25,160,,222,210,23,24,3,7,0.7,0.7
2025-06-12T2100,1432A,104.176,30.6872,成都市,十里店,,50,48,59,24,33,160,,216,200,24,25,5,10,0.6,0.7
2025-06-12T2100,1433A,104.079,30.5706,成都市,三瓦窑,,50,50,55,33,33,137,,196,185,49,57,4,6,0.6,0.8
2025-06-12T2100,1434A,104.1114,30.63,成都市,沙河铺,,,47,54,29,36,144,,183,172,13,24,,5,0.6,0.7
2025-06-12T2100,1437A,104.0786,30.6531,成都市,君平街,"颗粒物(PM10),细颗粒物(PM2.5)",55,60,52,39,30,133,,161,154,22,29,5,8,0.5,0.7
2025-06-12T2100,1438A,103.613,31.0283,成都市,灵岩寺,,,,,,,,,,,,,,,,
2025-06-12T2100,2880A,104.0239,30.65639,成都市,大石西路,细颗粒物(PM2.5),63,58,51,45,31,148,,204,191,20,26,5,7,0.6,0.7
2025-06-12T2100,3136A,104.2725,30.5589,成都市,龙泉驿区区政府,,,,33,,19,135,,195,186,,12,,6,0.7,0.7
2025-06-12T2100,3357A,104.0106,30.6931,成都市,金博路,颗粒物(PM10),51,52,46,32,23,151,,202,192,28,36,10,13,0.6,0.7
2025-06-12T2100,3359A,104.0578,30.5225,成都市,华阳,,43,36,48,24,33,136,,182,174,18,32,8,8,0.7,0.6
2025-06-12T2100,3488A,104.3853,30.7453,成都市,青白江技师分院,颗粒物(PM10),57,63,49,30,29,146,,224,208,40,26,6,7,0.5,0.6
2025-06-12T2100,3489A,104.0789,30.4072,成都市,科学城,,49,39,47,30,32,156,,199,192,13,23,4,4,0.5,0.6
2025-06-12T2100,4011A,103.8506,30.6947,成都市,光华大道三段,细颗粒物(PM2.5),65,65,48,47,25,168,,228,222,26,17,5,7,0.7,0.7
2025-06-12T2100,4224A,104.2433,30.5353,成都市,鲸龙路1057号,颗粒物(PM10),78,105,50,28,28,143,,196,189,21,34,8,8,0.6,0.7
2025-06-12T2100,1062A,117.9531,40.9081,承德市,铁路,臭氧1小时,116,95,63,41,26,231,,227,227,15,17,6,4,0.5,0.4
2025-06-12T2100,1063A,117.9392,40.9763,承德市,中国银行,臭氧1小时,116,107,60,46,24,231,,222,222,11,16,4,2,0.5,0.4
2025-06-12T2100,1064A,117.9503,40.928,承德市,开发区,臭氧1小时,122,102,67,38,27,244,,237,237,11,15,6,5,0.5,0.5
2025-06-12T2100,1065A,117.8051,40.9655,承德市,文化中心,臭氧1小时,123,105,71,29,25,246,,233,233,13,22,5,5,0.4,0.4
2025-06-12T2100,1066A,117.9268,41.0026,承德市,离宫,臭氧1小时,122,78,48,51,32,243,,234,234,9,11,3,2,0.5,0.4
2025-06-12T2100,2314A,117.47,30.6618,池州市,池州学院,,40,39,25,28,16,82,,112,110,20,9,9,5,0.6,0.5
2025-06-12T2100,3237A,117.4918,30.6617,池州市,展览馆,,42,42,25,22,14,72,,113,109,26,9,12,6,0.8,0.6
2025-06-12T2100,3333A,117.5627,30.695,池州市,第八中学,,36,36,24,24,14,72,,112,108,20,7,10,5,0.8,0.6
2025-06-12T2100,3334A,117.5038,30.6243,池州市,第十二中学,,42,37,23,29,16,79,,117,115,19,8,8,4,0.9,0.8
2025-06-12T2100,1744A,118.9233,42.2816,赤峰市,松山一中,,,30,47,,21,182,,190,148,14,23,5,7,0.9,0.7
2025-06-12T2100,1745A,118.9576,42.2728,赤峰市,哈达街,,,43,47,31,27,,,165,106,23,26,10,12,1.0,0.8
2025-06-12T2100,1746A,118.8788,42.2554,赤峰市,天义路,,47,,39,26,31,148,,179,117,12,20,8,9,0.4,0.5
2025-06-12T2100,3058A,119.2658,42.0353,赤峰市,银河街,细颗粒物(PM2.5),53,47,58,37,30,141,,128,128,10,16,6,18,0.9,0.9
2025-06-12T2100,3286A,118.9359,42.3147,赤峰市,桥北物流园区,,43,35,45,20,25,135,,170,128,11,21,5,9,1.4,0.8
2025-06-12T2100,2521A,107.3476,22.4136,崇左市,市环保局江州分局,,15,15,26,9,12,39,,70,62,11,11,6,6,0.5,0.5
2025-06-12T2100,4256A,107.3750,22.3736,崇左市,石景林东路7号,,18,18,19,8,12,32,,74,64,20,11,2,2,0.5,0.5
2025-06-12T2100,2298A,118.3093,32.3153,滁州市,老年大学,,48,44,47,33,29,74,,92,86,25,25,7,8,0.6,0.5
2025-06-12T2100,2299A,118.3244,32.2786,滁州市,人大宾馆,细颗粒物(PM2.5),73,,38,53,36,66,,88,83,24,22,4,6,0.5,0.4
2025-06-12T2100,3207A,118.3118,32.3038,滁州市,市政府原办公楼,细颗粒物(PM2.5),59,,37,42,35,79,,94,90,16,18,4,6,0.6,0.5
2025-06-12T2100,3331A,118.3267,32.2634,滁州市,图书馆,,43,,39,30,30,61,,86,80,24,18,7,9,0.7,0.5
2025-06-12T2100,2605A,101.5482,25.0441,楚雄彝族自治州,州环境监测站,,41,33,33,23,25,131,,137,135,12,23,9,10,0.5,0.5
2025-06-12T2100,2606A,101.538,25.0492,楚雄彝族自治州,市经济开发区,颗粒物(PM10),56,61,35,29,24,129,,137,136,15,17,7,8,0.6,0.5
2025-06-12T2100,2548A,107.5277,31.2827,达州市,达州职业技术学院,颗粒物(PM10),55,60,42,14,14,36,,149,130,63,24,7,8,1.0,0.7
2025-06-12T2100,2549A,107.5086,31.2186,达州市,市环境监测站,,,,39,,14,,,142,137,63,29,6,8,0.7,0.4
2025-06-12T2100,2550A,107.4988,31.2132,达州市,凤凰小区,颗粒物(PM10),56,61,36,31,15,42,,151,133,75,23,8,9,1.1,0.5
2025-06-12T2100,2551A,107.5082,31.1986,达州市,达县机关宾馆,颗粒物(PM10),56,61,38,16,10,2,,143,116,99,28,7,7,0.7,0.4
2025-06-12T2100,2552A,107.4644,31.2124,达州市,市政中心,颗粒物(PM10),55,60,41,27,14,29,,127,113,74,23,2,4,0.9,0.5
2025-06-12T2100,2614A,100.1542,25.7054,大理白族自治州,大理市环境监测站,,39,37,28,27,21,118,,142,140,11,15,6,7,0.4,0.5
2025-06-12T2100,2615A,100.2171,25.5811,大理白族自治州,大理古城,,42,41,25,29,17,113,,131,130,16,12,10,10,0.8,0.7
2025-06-12T2100,1109A,121.612,38.9741,大连市,甘井子,,,26,27,13,12,,,114,114,53,26,5,6,0.3,0.3
2025-06-12T2100,1110A,121.565,38.9511,大连市,周水子,,40,26,26,10,11,125,,130,130,13,20,8,9,0.3,0.3
2025-06-12T2100,1111A,121.5637,38.8845,大连市,星海三站,,38,24,22,9,12,119,,107,107,8,15,5,6,0.3,0.3
2025-06-12T2100,1112A,121.6302,38.9117,大连市,青泥洼桥,,39,16,16,8,8,122,,126,126,15,18,8,7,0.3,0.3
2025-06-12T2100,1113A,121.6251,38.8638,大连市,傅家庄,,33,24,23,11,11,105,,95,95,20,24,7,8,0.1,0.1
2025-06-12T2100,1114A,121.5213,38.8661,大连市,七贤岭,,44,25,28,10,13,138,,116,116,10,21,10,10,0.3,0.3
2025-06-12T2100,1115A,121.2529,38.8061,大连市,旅顺,,39,22,20,9,11,122,,106,106,9,21,4,4,0.2,0.2
2025-06-12T2100,1116A,121.7485,39.1311,大连市,金州,,40,27,22,9,10,126,,141,138,16,19,8,10,0.2,0.3
2025-06-12T2100,1117A,121.7811,39.0496,大连市,开发区,,37,24,28,8,11,118,,118,118,18,26,2,4,0.3,0.3
2025-06-12T2100,1118A,121.9762,39.0631,大连市,双D港,,29,21,15,10,11,92,,92,92,20,28,8,9,0.3,0.3
2025-06-12T2100,1789A,124.81117,46.03138,大庆市,大同区,颗粒物(PM10),58,66,42,39,19,110,,109,109,18,19,8,6,0.7,0.5
2025-06-12T2100,1790A,125.129,46.533,大庆市,龙凤区,颗粒物(PM10),53,55,32,19,15,107,,101,101,18,16,7,8,0.9,0.7
2025-06-12T2100,1791A,124.902,46.408,大庆市,红岗区,细颗粒物(PM2.5),58,43,28,41,20,117,,110,110,13,13,11,10,0.7,0.6
2025-06-12T2100,1792A,125.153,46.586,大庆市,萨尔图区,,49,49,35,33,16,102,,89,89,18,17,9,8,0.6,0.4
2025-06-12T2100,1793A,124.9042,46.6215,大庆市,让胡路区,,49,44,26,34,20,108,,95,95,17,16,5,4,0.6,0.5
2025-06-12T2100,3481A,125.141,46.634,大庆市,萨区政府监测点,,,54,37,24,12,,,112,112,13,14,8,7,0.6,0.4
2025-06-12T2100,1721A,113.3819,40.1097,大同市,果树场,,,,,,,,,,,,,,,,
2025-06-12T2100,1723A,113.2994,40.0758,大同市,云冈宾馆,,47,47,70,19,28,135,,198,180,13,15,6,7,1.2,0.7
2025-06-12T2100,1724A,113.3444,40.0917,大同市,大同大学,,40,38,64,16,29,125,,204,179,14,12,14,15,0.6,0.6
2025-06-12T2100,1725A,113.2661,40.1269,大同市,安家小村,,42,35,74,9,21,133,,199,179,11,14,5,7,0.6,0.6
2025-06-12T2100,1726A,113.2711,40.0844,大同市,教育学院,,42,41,74,22,29,132,,198,179,12,16,6,8,0.5,0.6
2025-06-12T2100,3282A,113.3397,40.0597,大同市,大同市卫生学校,颗粒物(PM10),51,52,68,17,29,124,,188,171,13,14,8,10,0.8,0.7
2025-06-12T2100,3565A,113.1367,40.1122,大同市,云冈站,,43,43,92,23,42,121,,200,177,18,18,6,9,0.1,0.3
2025-06-12T2100,3566A,113.1186,40.2556,大同市,图书馆,,50,50,70,29,29,125,,191,169,12,15,7,8,0.7,0.7
2025-06-12T2100,3567A,113.5931,40.0461,大同市,区一中,,48,17,63,16,30,153,,195,187,8,10,11,14,0.4,0.5
2025-06-12T2100,4199A,113.2798,40.0997,大同市,魏都大道141号,,42,28,75,26,33,133,,200,181,13,15,6,8,0.6,0.6
2025-06-12T2100,2269A,124.1069,50.4097,大兴安岭地区,科技局,,39,39,29,18,15,64,,76,60,8,10,6,6,0.3,0.2
2025-06-12T2100,3663A,124.1164,50.4278,大兴安岭地区,红旗社区,,35,,13,24,11,63,,79,57,11,13,5,5,0.5,0.4
2025-06-12T2100,1600A,124.3303,40.0625,丹东市,江湾东路,,37,37,38,21,20,85,,132,118,23,20,12,13,0.6,0.7
2025-06-12T2100,1601A,124.4256,40.1503,丹东市,临江后街,颗粒物(PM10),100,149,61,17,11,78,,133,114,26,17,10,9,0.9,0.7
2025-06-12T2100,1602A,124.3933,40.1461,丹东市,元宝山,颗粒物(PM10),56,61,52,14,14,104,,126,115,16,17,8,9,0.7,0.5
2025-06-12T2100,1603A,124.3633,40.1092,丹东市,民主桥,,35,32,35,14,15,110,,134,123,6,19,9,10,1.0,0.9
2025-06-12T2100,3541A,109.5726,19.5167,儋州市,第一中学子站,,13,8,11,3,3,40,,42,41,2,2,5,5,0.5,0.5
2025-06-12T2100,3542A,109.5567,19.5187,儋州市,东坡学校子站,,14,,11,3,3,42,,44,43,1,2,7,6,0.5,0.5
2025-06-12T2100,2616A,98.5842,24.428,德宏傣族景颇族自治州,德宏州监测站,,50,50,41,30,26,92,,128,125,12,12,8,8,0.7,0.6
2025-06-12T2100,3677A,98.5881,24.4368,德宏傣族景颇族自治州,芒市人民政府综合楼,颗粒物(PM10),56,62,50,24,24,92,,130,126,12,10,7,8,0.6,0.5
2025-06-12T2100,1901A,104.4239,31.1208,德阳市,东山公园,臭氧1小时,113,46,60,33,36,225,,226,226,15,16,6,8,0.8,0.9
2025-06-12T2100,1902A,104.3826,31.1317,德阳市,西小区,臭氧1小时,117,60,68,41,42,233,,238,238,24,25,5,8,0.8,0.8
2025-06-12T2100,1904A,104.3553,31.1091,德阳市,耐火材料厂,臭氧1小时,104,60,74,40,45,208,,273,269,35,27,7,12,0.7,0.8
2025-06-12T2100,3639A,104.4019,31.1244,德阳市,市教育局,臭氧1小时,117,51,61,37,40,234,,226,,,25,,11,0.7,0.9
2025-06-12T2100,1622A,116.3032,37.4674,德州市,儿童乐园,颗粒物(PM10),112,173,130,39,26,178,,223,216,17,9,8,9,0.5,0.5
2025-06-12T2100,1624A,116.2991,37.4451,德州市,监理站,颗粒物(PM10),103,156,118,27,24,174,,221,214,20,11,9,9,0.4,0.4
2025-06-12T2100,3066A,116.2721,37.4379,德州市,九衢泉纯净水厂,颗粒物(PM10),96,141,115,27,28,104,,197,173,87,28,8,8,0.5,0.5
2025-06-12T2100,3371A,116.3728,37.4403,德州市,开发区人民医院,颗粒物(PM10),100,149,128,27,25,173,,210,204,17,17,8,9,0.6,0.7
2025-06-12T2100,3372A,116.3572,37.4094,德州市,太阳城中学,颗粒物(PM10),104,158,144,29,31,178,,220,213,18,15,7,6,0.5,0.5
2025-06-12T2100,3511A,116.5652,37.3319,德州市,陵城艺术中心,颗粒物(PM10),118,185,121,27,27,153,,209,200,25,14,5,8,0.4,0.4
2025-06-12T2100,2621A,99.7056,27.8317,迪庆藏族自治州,迪庆州站,,38,26,26,12,15,119,,123,122,8,8,6,7,0.3,0.4
2025-06-12T2100,3180A,99.7136,27.8094,迪庆藏族自治州,质量技术监督局,,37,18,20,7,9,117,,124,123,12,11,6,6,0.4,0.4
2025-06-12T2100,4257A,104.6092,35.5962,定西市,将台街,颗粒物(PM10),57,63,43,25,18,149,,152,152,5,9,4,5,0.2,0.2
2025-06-12T2100,4309A,104.6159,35.5701,定西市,正龙路62号,,46,46,39,26,18,147,,148,148,7,8,7,8,0.2,0.2
2025-06-12T2100,1389A,113.7547,23.0494,东莞市,莞城梨川,,14,14,18,9,11,34,,78,60,15,10,7,6,0.3,0.3
2025-06-12T2100,1390A,113.7944,23.0128,东莞市,东城石井,,22,22,17,10,7,17,,69,46,23,13,2,2,0.7,0.6
2025-06-12T2100,1391A,113.7383,22.9658,东莞市,南城西平,,18,18,18,10,9,17,,73,49,30,19,3,3,0.5,0.5
2025-06-12T2100,3319A,113.7338,23.0381,东莞市,万江金泰,,12,12,18,3,7,22,,64,45,12,11,2,2,0.7,0.6
2025-06-12T2100,3626A,113.7533,23.0202,东莞市,南城元岭,,15,15,15,9,6,29,,74,54,17,13,5,5,0.6,0.5
2025-06-12T2100,3627A,113.7875,23.0457,东莞市,东城主山,,19,19,17,8,8,28,,72,54,16,11,6,6,0.6,0.6
2025-06-12T2100,1666A,118.6614,37.4309,东营市,市环保局,颗粒物(PM10),53,56,45,7,8,106,,158,149,18,20,6,9,0.4,0.4
2025-06-12T2100,3036A,118.6904,37.4338,东营市,开发区管委会,颗粒物(PM10),55,60,57,7,6,105,,154,130,18,21,5,8,0.4,0.4
2025-06-12T2100,3365A,118.5719,37.565,东营市,垦利区民丰路,颗粒物(PM10),58,66,46,7,7,113,,166,156,19,22,9,9,0.4,0.5
2025-06-12T2100,3498A,118.5055,37.8612,东营市,河口城区,颗粒物(PM10),59,68,48,3,7,115,,177,164,17,19,11,10,0.8,0.7
2025-06-12T2100,3646A,118.4978,37.4623,东营市,胜利站,颗粒物(PM10),63,76,52,9,9,108,,157,149,19,23,7,9,0.5,0.5
2025-06-12T2100,3734A,118.35,37.26,东营市,理想之城,,,61,45,12,11,,,179,174,22,22,5,7,0.4,0.5
2025-06-12T2100,1591A,110.0023,39.8129,鄂尔多斯市,综合楼,颗粒物(PM10),70,90,65,29,25,91,,155,129,15,16,2,6,0.4,0.5
2025-06-12T2100,1592A,109.9486,39.8261,鄂尔多斯市,巴音孟克林场办事处,颗粒物(PM10),91,132,86,34,24,98,,166,140,16,14,7,9,0.3,0.4
2025-06-12T2100,1593A,109.7736,39.5986,鄂尔多斯市,康泽苑,颗粒物(PM10),51,51,72,14,20,114,,174,152,8,10,4,7,0.2,0.3
2025-06-12T2100,1594A,109.8119,39.5989,鄂尔多斯市,华泰汽车城,颗粒物(PM10),58,66,69,14,20,100,,154,136,10,11,4,6,0.3,0.4
2025-06-12T2100,1595A,109.9734,39.7884,鄂尔多斯市,奥林花园,颗粒物(PM10),81,112,76,22,21,94,,159,136,13,13,6,9,0.4,0.5
2025-06-12T2100,2436A,114.8938,30.3994,鄂州市,市政府,颗粒物(PM10),70,89,45,44,24,75,,116,105,23,10,9,7,1.1,0.9
2025-06-12T2100,2437A,114.8989,30.3714,鄂州市,赵家坝,颗粒物(PM10),54,57,37,35,18,68,,107,96,20,12,9,8,1.2,1
2025-06-12T2100,3654A,114.8094,30.4089,鄂州市,精准医疗中心,,49,43,32,34,18,59,,96,89,15,9,6,7,1.5,1.2
2025-06-12T2100,2454A,109.4978,30.2981,恩施土家族苗族自治州,湖北民院,,46,46,40,26,23,110,,165,158,14,10,5,5,0.3,0.3
2025-06-12T2100,2455A,109.4707,30.2798,恩施土家族苗族自治州,州电力总公司,,45,45,34,29,24,86,,153,142,21,14,7,7,0.1,0.4
2025-06-12T2100,3549A,109.5061,30.3772,恩施土家族苗族自治州,龙凤新区,,42,42,32,12,27,75,,162,144,12,7,7,8,0.6,0.5
2025-06-12T2100,2499A,108.3411,21.6158,防城港市,沙万,,18,,19,11,13,57,,73,72,7,7,1,1,0.4,0.5
2025-06-12T2100,2500A,108.3514,21.7731,防城港市,防城档案局,,29,29,31,10,10,48,,67,66,12,12,2,2,0.7,0.7
2025-06-12T2100,2501A,108.3506,21.6414,防城港市,大海花园,,19,,21,10,12,60,,77,76,9,8,2,3,0.5,0.6
2025-06-12T2100,1371A,113.1294,23.0067,佛山市,湾梁,,17,12,16,3,7,15,,80,55,34,23,7,8,0.8,0.7
2025-06-12T2100,1372A,113.1083,23.0478,佛山市,华材职中,,16,14,14,10,10,14,,92,65,31,16,6,6,0.5,0.4
2025-06-12T2100,1373A,113.144,23.0453,佛山市,南海气象局,,22,22,23,7,10,8,,71,49,28,19,2,2,0.4,0.4
2025-06-12T2100,1374A,113.2881,22.8094,佛山市,顺德苏岗,,16,16,20,7,6,24,,76,57,12,17,6,6,0.7,0.8
2025-06-12T2100,1376A,112.8383,22.8678,佛山市,高明孔堂,,31,31,20,17,20,20,,96,79,28,21,6,6,0.6,0.6
2025-06-12T2100,1377A,112.8836,23.1588,佛山市,三水监测站,,13,9,19,9,11,22,,76,64,24,25,2,4,0.5,0.6
2025-06-12T2100,1378A,112.867,23.185,佛山市,三水云东海,,33,33,36,15,13,27,,58,56,18,22,3,3,0.4,0.6
2025-06-12T2100,3625A,113.2544,22.7642,佛山市,容桂街道办,,11,7,11,7,9,34,,93,74,10,18,5,5,0.6,0.6
2025-06-12T2100,1280A,119.3903,26.0543,福州市,鼓山,,,,6,,3,,,48,,,3,,2,,0.1
2025-06-12T2100,1282A,119.2681,26.0504,福州市,师大,,17,17,13,3,3,30,,42,36,5,4,4,4,0.1,0.2
2025-06-12T2100,1283A,119.2984,26.1028,福州市,五四北路,,22,22,12,3,2,32,,43,37,6,5,4,3,0.4,0.4
2025-06-12T2100,1284A,119.2648,26.0768,福州市,杨桥西路,,17,17,13,3,2,33,,45,38,7,6,3,3,0.2,0.3
2025-06-12T2100,1285A,119.317,26.0746,福州市,紫阳,,17,17,15,3,3,32,,38,34,6,6,5,6,0.2,0.3
2025-06-12T2100,3048A,119.5799,26.0936,福州市,九龙,,21,21,16,6,3,44,,57,51,4,5,3,4,0.2,0.2
2025-06-12T2100,3526A,119.5189,25.9664,福州市,吴航,,12,11,12,3,6,36,,47,41,2,3,4,4,0.3,0.4
2025-06-12T2100,1755A,123.7977,41.8491,抚顺市,望花区,颗粒物(PM10),58,66,59,25,19,74,,164,136,57,33,25,10,1.0,0.6
2025-06-12T2100,1756A,123.9161,41.8822,抚顺市,顺城区,颗粒物(PM10),55,59,41,21,13,75,,167,142,60,40,19,11,0.8,0.6
2025-06-12T2100,1757A,124.0436,41.8611,抚顺市,东洲区,颗粒物(PM10),71,92,29,28,12,76,,179,160,55,21,15,8,0.7,0.4
2025-06-12T2100,1758A,123.9247,41.8642,抚顺市,新抚区,,46,46,39,25,13,68,,173,147,57,28,24,10,0.9,0.6
2025-06-12T2100,1759A,124.0972,41.8961,抚顺市,大伙房水库,颗粒物(PM10),54,58,28,22,12,97,,176,162,38,18,18,10,0.6,0.4
2025-06-12T2100,1760A,123.7086,41.8391,抚顺市,沈抚新城,,47,47,53,16,20,83,,157,137,43,38,23,25,1.2,1.6
2025-06-12T2100,2376A,116.2127,28.0814,抚州市,桐源党溪,,22,22,29,11,11,49,,73,68,3,2,5,6,0.9,0.9
2025-06-12T2100,2377A,116.3544,27.9831,抚州市,市站,,26,26,25,12,15,71,,94,87,2,5,1,2,0.9,1
2025-06-12T2100,2378A,116.3565,27.963,抚州市,血防站,,,,32,,17,,,92,87,2,3,2,5,,0.7
2025-06-12T2100,2379A,116.3564,28.0007,抚州市,采茶剧团,细颗粒物(PM2.5),55,,26,39,16,68,,90,83,2,2,3,6,0.3,0.3
2025-06-12T2100,2380A,116.385,27.9647,抚州市,医学分院,,23,16,28,16,12,70,,95,88,2,2,4,6,0.7,0.8
2025-06-12T2100,2207A,121.6094,41.998,阜新市,工业园区,,37,34,61,6,24,118,,153,137,11,22,10,20,0.3,0.6
2025-06-12T2100,2208A,121.6697,42.0279,阜新市,长青街,,36,36,53,7,22,114,,144,132,13,20,12,19,0.3,0.6
2025-06-12T2100,2209A,121.6673,42.0705,阜新市,农业园区,,40,40,44,3,24,116,,144,133,11,18,6,11,0.4,0.7
2025-06-12T2100,2210A,121.6717,42.0224,阜新市,东苑,,42,42,57,3,24,120,,151,137,10,20,7,19,0.3,0.6
2025-06-12T2100,2211A,121.6506,42.0498,阜新市,玉龙新城,,36,28,51,3,17,115,,144,133,9,19,10,14,0.4,0.7
2025-06-12T2100,2301A,115.8277,32.8929,阜阳市,市监测站,,38,38,47,22,30,92,,126,114,12,11,2,3,0.4,0.4
2025-06-12T2100,2303A,115.8554,32.8605,阜阳市,开发区,,,,56,,22,93,,124,114,,12,6,5,0.3,0.3
2025-06-12T2100,2875A,115.784,32.8892,阜阳市,阜阳职业技术学院,,35,32,34,24,24,98,,129,119,13,10,4,4,0.5,0.6
2025-06-12T2100,3468A,115.7901,32.8613,阜阳市,市规划展馆,颗粒物(PM10),56,61,51,38,37,91,,125,112,13,12,3,3,0.4,0.4
2025-06-12T2100,3469A,115.836,32.9183,阜阳市,枣园社区,颗粒物(PM10),57,63,56,38,37,91,,121,110,11,11,4,4,0.6,0.6
2025-06-12T2100,2669A,102.9099,34.9841,甘南藏族自治州,州政府,颗粒物(PM10),51,51,44,23,22,126,,135,134,9,24,3,4,0.4,0.4
2025-06-12T2100,3380A,102.8914,34.9617,甘南藏族自治州,甘肃民族师范学院,,,55,64,22,20,,,133,133,2,23,8,9,0.4,0.4
2025-06-12T2100,2570A,101.9603,30.0475,甘孜藏族自治州,水桥子,,42,26,21,14,7,134,,127,127,11,27,5,5,0.2,0.4
2025-06-12T2100,3065A,101.9533,29.9972,甘孜藏族自治州,州环保局,,42,28,19,11,6,134,,126,126,13,9,3,2,0.7,0.5
2025-06-12T2100,3414A,115.8347,28.932,赣江新区,桑海产业园,,29,29,15,19,10,80,,93,92,13,11,5,6,0.6,0.7
2025-06-12T2100,2362A,114.9017,25.9149,赣州市,通天岩,,29,29,23,9,5,4,,58,47,5,5,3,2,0.7,0.5
2025-06-12T2100,2363A,114.9367,25.8664,赣州市,地委,,21,18,17,11,9,65,,60,60,6,7,1,1,0.5,0.5
2025-06-12T2100,2364A,114.9461,25.8481,赣州市,气象台,,32,32,20,11,7,63,,57,57,4,5,6,7,0.4,0.4
2025-06-12T2100,2365A,114.9322,25.8333,赣州市,市图书馆,,23,19,14,16,8,64,,61,61,4,4,4,4,0.4,0.3
2025-06-12T2100,2366A,114.8905,25.8471,赣州市,华坚鞋城,,,23,20,6,9,60,,54,54,,7,4,3,,0.2
2025-06-12T2100,3109A,115.0093,25.8613,赣州市,赣县区卫计委,,,,11,,8,60,,,,4,6,5,3,0.2,0.2
2025-06-12T2100,2683A,106.2319,36.1417,固原市,马园,,38,34,58,12,14,121,,151,125,23,29,5,6,0.3,0.3
2025-06-12T2100,2684A,106.2792,36.0022,固原市,监测站,,40,25,45,14,20,125,,146,134,15,12,5,6,0.2,0.2
2025-06-12T2100,2685A,106.2375,36.0211,固原市,新区,,,26,38,22,17,,,146,132,15,10,2,5,0.3,0.3
2025-06-12T2100,3522A,106.2177,35.9959,固原市,原州区十五小,,36,33,38,16,19,114,,147,135,12,6,10,9,0.2,0.2
2025-06-12T2100,2543A,106.6308,30.5278,广安市,小平旧居,,,,,,,,,,,,,,,,
2025-06-12T2100,2544A,106.6303,30.4576,广安市,市委,,44,44,39,22,25,116,,158,154,17,20,6,5,0.5,0.5
2025-06-12T2100,2545A,106.6271,30.4663,广安市,友谊中学,,,44,35,26,21,123,,172,166,22,19,,7,0.7,0.8
2025-06-12T2100,2547A,106.6388,30.4551,广安市,广电花园,,43,43,39,24,25,96,,161,151,20,21,8,8,0.6,0.6
2025-06-12T2100,2902A,106.6351,30.4865,广安市,北辰小学,,44,44,41,30,25,117,,179,170,19,16,6,8,0.7,0.7
2025-06-12T2100,2523A,105.8945,32.4535,广元市,黑石坡,,48,48,43,25,16,148,,160,157,9,11,4,8,0.3,0.5
2025-06-12T2100,2524A,105.821,32.4444,广元市,老城,,50,49,32,25,15,158,,181,176,16,35,9,8,0.8,0.9
2025-06-12T2100,2526A,105.8628,32.4287,广元市,监测站,,47,31,29,23,16,149,,178,173,14,17,4,7,0.4,0.5
2025-06-12T2100,3617A,105.8047,32.4166,广元市,经开区,,48,44,57,26,34,152,,181,177,16,31,4,13,0.5,0.6
2025-06-12T2100,1345A,113.2347,23.1423,广州市,广雅中学,,18,18,23,9,11,22,,68,49,19,19,2,2,0.6,0.7
2025-06-12T2100,1346A,113.2612,23.105,广州市,市五中,,14,14,18,9,9,23,,81,58,25,18,3,4,0.6,0.5
2025-06-12T2100,1348A,113.3478,23.0916,广州市,广东商学院,,13,13,22,9,12,17,,79,56,23,23,2,3,0.8,0.7
2025-06-12T2100,1349A,113.4332,23.1047,广州市,市八十六中,,11,10,23,3,10,22,,74,48,22,21,3,3,0.4,0.4
2025-06-12T2100,1350A,113.3505,22.9483,广州市,番禺中学,,24,24,24,14,12,12,,85,49,39,19,7,7,0.7,0.5
2025-06-12T2100,1351A,113.2146,23.3916,广州市,花都师范,,16,16,22,10,12,39,,86,71,15,16,3,4,0.7,0.7
2025-06-12T2100,1352A,113.2597,23.1331,广州市,市监测站,,,19,21,10,10,,,73,57,26,24,5,5,0.4,0.6
2025-06-12T2100,1353A,113.5618,23.312,广州市,九龙镇镇龙,,14,14,17,9,10,32,,69,56,9,9,5,6,0.4,0.4
2025-06-12T2100,1354A,113.2765,23.1544,广州市,麓湖,,17,17,21,7,9,16,,59,42,22,20,2,2,0.6,0.6
2025-06-12T2100,1355A,113.443,23.3035,广州市,帽峰山森林公园,,18,7,10,3,5,57,,88,75,11,14,7,8,0.5,0.5
2025-06-12T2100,2846A,113.3221,23.1322,广州市,体育西,,15,15,20,10,10,20,,75,54,29,26,4,4,0.5,0.4
2025-06-12T2100,3298A,113.5717,23.5491,广州市,从化街口,,15,15,20,9,11,35,,71,58,14,12,7,7,0.6,0.5
2025-06-12T2100,3299A,113.3472,23.3692,广州市,白云竹料,,,23,20,13,9,,,82,74,22,14,2,3,0.6,0.5
2025-06-12T2100,3300A,113.2981,23.237,广州市,白云嘉禾,,17,17,24,8,10,21,,68,49,23,20,5,6,0.9,0.8
2025-06-12T2100,3301A,113.4256,23.1716,广州市,黄埔科学城,,16,16,23,7,10,16,,64,44,21,10,2,3,0.5,0.5
2025-06-12T2100,3302A,113.3942,23.0483,广州市,番禺大学城,,16,16,20,8,10,20,,85,54,30,24,5,5,0.6,0.5
2025-06-12T2100,3303A,113.4922,22.8168,广州市,南沙黄阁,,16,16,18,6,9,25,,76,54,13,14,5,6,0.5,0.5
2025-06-12T2100,3304A,113.5342,22.7896,广州市,南沙街,,11,11,15,3,7,27,,79,61,12,12,3,3,0.5,0.5
2025-06-12T2100,3443A,113.2902,23.5544,广州市,花都梯面,,14,14,18,3,8,34,,70,57,8,10,4,6,0.4,0.5
2025-06-12T2100,3445A,113.7858,23.7478,广州市,从化良口,,12,11,18,7,10,36,,63,57,9,8,6,6,0.7,0.7
2025-06-12T2100,3446A,113.8051,23.2614,广州市,增城荔城,,11,11,18,3,8,23,,58,43,9,9,5,6,0.2,0.2
2025-06-12T2100,2505A,109.568,23.1478,贵港市,德智高中,,,,,,,,,,,,,,,,
2025-06-12T2100,2506A,109.6047,23.0666,贵港市,江南子站,,17,,23,10,11,52,,60,57,6,16,5,8,0.5,0.6
2025-06-12T2100,2508A,109.5669,23.1065,贵港市,荷城子站,,17,11,20,3,7,53,,52,51,9,14,5,6,0.3,0.3
2025-06-12T2100,3405A,109.5886,23.1172,贵港市,新世纪学校,,18,,19,8,12,55,,55,53,7,13,1,2,0.5,0.5
2025-06-12T2100,4260A,109.5933,23.0951,贵港市,中山路155-3号,,21,21,27,11,12,56,,62,59,8,14,3,5,0.6,0.6
2025-06-12T2100,1439A,106.6899,26.5998,贵阳市,马鞍山,,20,14,22,3,9,61,,97,91,8,11,3,4,0.4,0.4
2025-06-12T2100,1441A,106.6243,26.6266,贵阳市,鉴湖路,,24,24,32,9,14,66,,99,98,13,11,5,5,0.3,0.4
2025-06-12T2100,1442A,106.7487,26.6343,贵阳市,燕子冲,,32,22,28,22,23,76,,99,95,12,12,2,4,0.4,0.4
2025-06-12T2100,1443A,106.6555,26.4365,贵阳市,碧云窝,,29,29,33,12,14,71,,116,109,11,10,4,4,0.4,0.4
2025-06-12T2100,1445A,106.7109,26.6027,贵阳市,红边门,,29,29,27,9,15,65,,102,94,13,8,7,5,0.3,0.3
2025-06-12T2100,1446A,106.7164,26.5699,贵阳市,新华路,,,19,26,17,15,,,104,101,17,11,3,12,0.4,0.4
2025-06-12T2100,1447A,106.674,26.5424,贵阳市,太慈桥,,27,27,26,12,13,84,,110,106,14,16,5,5,0.4,0.4
2025-06-12T2100,1552A,106.805,26.3003,贵阳市,桐木岭,,44,44,38,29,24,65,,90,82,5,3,5,2,1.0,0.8
2025-06-12T2100,4230A,106.6882,26.5695,贵阳市,花果园大街66号,,32,24,24,22,22,76,,104,99,13,10,4,3,0.3,0.3
2025-06-12T2100,4231A,106.6873,26.5169,贵阳市,漓江路57号,,29,29,26,19,15,74,,108,102,12,9,1,1,0.3,0.3
2025-06-12T2100,1862A,110.4144,25.3167,桂林市,电子科大尧山校区,,,,,,,,,,,,,,,,
2025-06-12T2100,1864A,110.3089,25.2708,桂林市,龙隐路小学,,21,16,18,12,13,66,,81,76,4,5,8,8,0.7,0.7
2025-06-12T2100,1865A,110.2869,25.2178,桂林市,八中,,,16,22,16,16,,,78,74,9,9,6,6,0.7,0.7
2025-06-12T2100,3531A,110.296,25.1253,桂林市,旅游学院,,,14,16,9,13,,,75,68,4,6,2,2,0.5,0.4
2025-06-12T2100,4222A,110.1835,25.2444,桂林市,环湖路276号,,20,17,17,9,12,64,,87,82,5,4,6,7,0.5,0.5
2025-06-12T2100,4301A,110.2803,25.2773,桂林市,信义路13号,,25,25,22,9,14,54,,84,76,13,7,1,1,0.6,0.6
2025-06-12T2100,2674A,100.2561,34.4714,果洛藏族自治州,玛沁县大武镇,,36,33,27,22,17,115,,136,132,1,5,15,16,0.4,0.4
2025-06-12T2100,1129A,126.5422,45.755,哈尔滨市,岭北,,38,38,23,15,14,121,,144,144,26,24,13,14,0.8,0.7
2025-06-12T2100,1130A,126.561,45.8167,哈尔滨市,松北商大,,37,37,28,15,13,99,,130,128,29,25,6,6,0.6,0.5
2025-06-12T2100,1131A,126.979,45.5419,哈尔滨市,阿城会宁,,31,31,23,17,13,87,,118,116,24,20,6,6,0.4,0.4
2025-06-12T2100,1132A,126.599,45.7222,哈尔滨市,南岗学府路,颗粒物(PM10),52,53,42,19,15,104,,132,131,31,37,8,7,0.6,0.7
2025-06-12T2100,1133A,126.689,45.7733,哈尔滨市,太平宏伟公园,,47,47,41,11,16,105,,130,130,33,35,6,6,0.5,0.5
2025-06-12T2100,1134A,126.635,45.7667,哈尔滨市,道外承德广场,颗粒物(PM10),60,70,49,18,17,108,,130,130,30,29,9,7,0.4,0.4
2025-06-12T2100,1135A,126.685,45.7319,哈尔滨市,香坊红旗大街,颗粒物(PM10),58,66,43,24,14,102,,133,132,41,42,9,10,0.7,0.7
2025-06-12T2100,1136A,126.6411,45.7258,哈尔滨市,动力和平路,颗粒物(PM10),51,51,37,15,12,111,,135,134,33,37,10,10,0.5,0.5
2025-06-12T2100,1137A,126.593,45.7478,哈尔滨市,道里建国路,,43,43,33,16,12,117,,140,140,27,31,11,10,0.5,0.5
2025-06-12T2100,1138A,126.615,45.61,哈尔滨市,平房东轻厂,,,53,32,18,9,,,138,138,28,26,9,9,0.4,0.4
2025-06-12T2100,1139A,126.595,45.9855,哈尔滨市,呼兰师专,,46,46,35,21,16,115,,131,131,29,28,11,10,0.4,0.4
2025-06-12T2100,1140A,126.6206,45.6842,哈尔滨市,省农科院,颗粒物(PM10),63,76,54,18,18,99,,122,121,33,40,8,6,0.6,0.5
2025-06-12T2100,2688A,93.5128,42.8172,哈密市,地区监测站,,,27,63,,21,,,112,112,20,7,9,5,0.4,0.1
2025-06-12T2100,2689A,93.4961,42.8328,哈密市,哈密师范学校,颗粒物(PM10),53,55,49,10,16,91,,114,111,21,11,4,4,0.3,0.2
2025-06-12T2100,2671A,100.9048,36.9639,海北藏族自治州,海晏县西海镇,,44,20,19,16,12,140,,141,138,3,6,6,5,0.4,0.4
2025-06-12T2100,3867A,102.0738,36.5056,海东市,平安区公安北苑,,38,35,40,19,20,121,,145,142,18,10,8,13,0.5,0.7
2025-06-12T2100,1409A,110.576,19.9507,海口市,东寨港,,16,8,17,3,6,49,,50,49,2,2,12,12,0.4,0.4
2025-06-12T2100,1410A,110.3232,20.0574,海口市,海南大学,,16,11,21,3,6,50,,53,52,2,2,2,2,0.3,0.3
2025-06-12T2100,1411A,110.283,20.0053,海口市,秀英海南医院,,16,9,17,3,5,49,,54,52,4,2,4,4,0.3,0.2
2025-06-12T2100,1412A,110.338,19.9969,海口市,海南师范大学,,16,9,18,3,6,50,,55,53,3,2,3,3,0.4,0.4
2025-06-12T2100,1413A,110.33,20.0356,海口市,龙华路环保局宿舍,,16,11,18,3,7,50,,54,52,3,3,4,4,0.3,0.2
2025-06-12T2100,3539A,110.5111,19.9736,海口市,桂林洋子站,,17,13,15,3,7,52,,52,52,2,2,4,4,0.2,0.2
2025-06-12T2100,2673A,100.6188,36.2866,海南藏族自治州,共和县恰卜恰镇,颗粒物(PM10),52,53,32,9,12,126,,143,140,14,8,18,14,0.4,0.3
2025-06-12T2100,2676A,97.3731,37.3753,海西蒙古族藏族自治州,德令哈市,,47,39,39,18,13,149,,153,153,2,2,13,12,0.6,0.7
2025-06-12T2100,1048A,114.5302,36.6116,邯郸市,东污水处理厂,臭氧1小时,78,70,64,3,13,182,,220,217,19,12,3,3,0.4,0.5
2025-06-12T2100,1049A,114.4918,36.5713,邯郸市,矿院,臭氧1小时,90,47,47,24,18,192,,221,218,15,11,10,6,0.5,0.5
2025-06-12T2100,1050A,114.484,36.6133,邯郸市,丛台公园,臭氧1小时,100,57,52,26,23,200,,225,223,15,11,18,12,0.5,0.5
2025-06-12T2100,3458A,114.7895,36.5593,邯郸市,香泉濮院小区,臭氧1小时,90,88,79,15,15,192,,216,214,19,14,3,3,0.2,0.3
2025-06-12T2100,3579A,114.50634,36.77178,邯郸市,永年区实验高中,臭氧1小时,102,69,68,35,34,204,,230,228,11,9,3,3,0.4,0.4
2025-06-12T2100,3580A,114.20016,36.44293,邯郸市,峰峰矿区临水派出所,臭氧1小时,101,47,47,20,16,201,,214,214,8,7,7,8,,0.4
2025-06-12T2100,2634A,106.9893,33.1842,汉中市,汉川机床厂子校,,38,26,32,26,19,119,,168,163,23,23,4,4,0.5,0.5
2025-06-12T2100,2635A,107.0154,33.0706,汉中市,市监测站,,,,41,,20,,,160,160,11,13,5,6,0.5,0.6
2025-06-12T2100,2636A,107.0089,33.1138,汉中市,鑫源开发区,,42,35,36,19,21,134,,160,158,11,16,5,6,0.4,0.4
2025-06-12T2100,2637A,107.007,33.0323,汉中市,南郑大河坎水厂,,45,38,37,27,21,143,,158,157,7,15,5,6,0.3,0.5
2025-06-12T2100,1223A,120.2072,30.2111,杭州市,滨江,细颗粒物(PM2.5),52,49,36,36,23,99,,113,113,29,25,6,6,0.2,0.6
2025-06-12T2100,1224A,120.0633,30.2747,杭州市,西溪,,35,35,30,20,23,91,,110,110,8,10,3,3,0.4,0.4
2025-06-12T2100,1226A,120.3417,30.3150,杭州市,下沙,,29,25,20,15,13,91,,118,116,27,20,6,6,0.3,0.3
2025-06-12T2100,1227A,120.1269,30.2456,杭州市,卧龙桥,,38,33,33,26,26,84,,121,119,17,17,6,7,0.5,0.4
2025-06-12T2100,1228A,120.1903,30.2692,杭州市,浙江农大,,35,31,26,24,23,67,,93,91,43,24,8,8,0.6,0.5
2025-06-12T2100,1230A,120.1197,30.3119,杭州市,和睦小学,,35,35,28,20,17,97,,117,116,18,14,7,7,0.4,0.4
2025-06-12T2100,1231A,120.3019,30.4183,杭州市,临平镇,,,41,26,18,14,,,121,121,13,11,5,5,0.5,0.4
2025-06-12T2100,1232A,120.2753,30.1839,杭州市,城厢镇,,46,40,34,32,30,92,,120,118,23,20,7,7,0.5,0.5
2025-06-12T2100,1233A,120.0883,30.1808,杭州市,云栖,,16,12,21,11,20,32,,121,110,21,19,6,6,0.5,0.5
2025-06-12T2100,3557A,119.9464,30.0494,杭州市,镇二中,,50,50,39,33,27,92,,138,135,26,18,3,3,0.4,0.5
2025-06-12T2100,3558A,119.7183,30.2367,杭州市,市府大楼,,29,28,33,20,27,87,,104,104,16,14,6,6,0.3,0.3
2025-06-12T2100,3656A,120.1556,30.2864,杭州市,消防大队,,35,35,28,20,21,96,,108,108,22,20,4,4,0.6,0.5
2025-06-12T2100,1270A,117.1959,31.7848,合肥市,明珠广场,细颗粒物(PM2.5),52,44,44,36,31,63,,82,79,24,20,4,5,0.6,0.6
2025-06-12T2100,1271A,117.3072,31.8764,合肥市,三里街,,42,41,40,29,29,62,,66,60,20,16,6,5,0.6,0.7
2025-06-12T2100,1272A,117.2588,31.8707,合肥市,琥珀山庄,细颗粒物(PM2.5),52,41,39,36,32,67,,74,68,22,19,6,6,0.7,0.7
2025-06-12T2100,1273A,117.1604,31.9052,合肥市,董铺水库,,46,46,48,31,32,67,,76,69,18,15,2,2,0.5,0.5
2025-06-12T2100,1274A,117.25,31.8571,合肥市,长江中路,细颗粒物(PM2.5),52,46,50,36,33,69,,75,73,20,16,4,4,0.6,0.6
2025-06-12T2100,1275A,117.266,31.9436,合肥市,庐阳区,,42,41,45,29,33,67,,71,68,22,18,6,6,0.7,0.8
2025-06-12T2100,1276A,117.3453,31.8616,合肥市,瑶海区,,46,46,45,32,30,64,,68,66,23,19,6,6,0.7,0.7
2025-06-12T2100,1277A,117.3027,31.7964,合肥市,包河区,,,46,43,39,33,,,70,66,37,33,4,4,0.6,0.6
2025-06-12T2100,1278A,117.2776,31.7385,合肥市,滨湖新区,,,44,42,39,34,,,78,78,19,13,8,8,0.6,0.6
2025-06-12T2100,1279A,117.1318,31.8403,合肥市,高新区,细颗粒物(PM2.5),54,51,44,38,34,67,,78,77,23,18,6,6,0.6,0.6
2025-06-12T2100,3464A,117.3803,31.9147,合肥市,高教基地,,40,34,44,28,27,68,,71,71,16,15,6,6,0.6,0.6
2025-06-12T2100,3614A,79.924,37.0877,和田地区,地区环保局,颗粒物(PM10),135,219,958,53,295,118,,127,126,,9,,2,0.2,0.7
2025-06-12T2100,3615A,79.9131,37.113,和田地区,市环保局,颗粒物(PM10),104,157,1042,46,220,107,,131,129,21,10,3,2,0.1,0.1
2025-06-12T2100,2516A,108.2011,24.715,河池市,东仁乐园,,,,,,,,,,,,,,,,
2025-06-12T2100,2517A,108.0497,24.6947,河池市,市环保站,,12,,30,8,12,26,,58,49,6,7,2,2,0.5,0.5
2025-06-12T2100,2518A,108.0983,24.6989,河池市,市疾控中心,,18,18,28,10,13,15,,57,47,21,13,7,7,0.7,0.7
2025-06-12T2100,1696A,114.6778,23.7569,河源市,源西,,16,16,12,3,10,51,,124,104,13,16,3,4,0.6,0.5
2025-06-12T2100,1697A,114.6944,23.7586,河源市,东埔,,15,15,19,9,7,33,,69,56,18,13,3,4,0.7,0.6
2025-06-12T2100,1698A,114.6892,23.7233,河源市,老城,,14,8,18,7,12,43,,64,53,6,10,3,4,0.4,0.4
2025-06-12T2100,1718A,115.4208,35.2464,菏泽市,气象局,臭氧1小时,65,73,60,30,28,172,,201,200,14,13,4,4,0.5,0.5
2025-06-12T2100,3374A,115.5564,35.0891,菏泽市,定陶老年大学,,,,54,,20,162,,198,196,14,12,3,3,,0.3
2025-06-12T2100,4184A,115.4797,35.24401,菏泽市,永昌路1号,颗粒物(PM10),70,90,63,23,22,169,,198,197,11,13,4,4,0.2,0.2
2025-06-12T2100,4193A,115.4715,35.2800,菏泽市,长城路999号,臭氧1小时,78,91,66,22,23,182,,208,208,16,15,4,5,0.4,0.4
2025-06-12T2100,2514A,111.5264,24.4172,贺州市,环保小区,,,29,15,14,10,,,77,77,10,8,9,9,0.9,0.9
2025-06-12T2100,2515A,111.5608,24.4078,贺州市,政协大楼,,21,21,14,12,9,47,,74,72,12,10,10,12,0.7,0.5
2025-06-12T2100,3534A,111.4744,24.4553,贺州市,西湾,,25,18,17,17,6,46,,64,64,8,7,8,8,0.7,0.6
2025-06-12T2100,2385A,114.17,35.9019,鹤壁市,市监测站,臭氧1小时,89,52,56,31,32,191,,217,217,12,11,10,8,1.1,1
2025-06-12T2100,2386A,114.2956,35.7511,鹤壁市,市交警支队,臭氧1小时,68,47,56,24,31,174,,210,207,15,13,7,6,0.5,0.6
2025-06-12T2100,2387A,114.2878,35.7306,鹤壁市,迎宾馆,,,48,69,41,36,,,212,212,14,14,2,3,0.6,0.7
2025-06-12T2100,3474A,114.2617,35.6822,鹤壁市,大新区,,49,40,62,19,36,154,,204,198,18,15,6,6,0.5,0.7
2025-06-12T2100,3596A,114.1572,35.9603,鹤壁市,南山宾馆,臭氧1小时,89,59,76,31,41,191,,214,214,12,11,5,5,0.5,0.6
2025-06-12T2100,2244A,130.2537,47.3416,鹤岗市,哈啤分公司,,25,18,18,7,10,80,,91,90,10,9,14,15,0.3,0.3
2025-06-12T2100,2245A,130.2684,47.3086,鹤岗市,斯达机电,,25,25,29,14,15,76,,90,87,8,9,13,14,0.4,0.4
2025-06-12T2100,2246A,130.3114,47.3388,鹤岗市,东山纸板厂,,35,35,31,16,14,70,,76,74,11,17,13,14,0.3,0.5
2025-06-12T2100,2247A,130.1097,47.3382,鹤岗市,五号水库,,16,16,12,6,5,40,,94,71,21,11,10,9,0.4,0.4
2025-06-12T2100,2263A,127.4833,50.2524,黑河市,交通局,,25,14,33,11,13,80,,78,76,6,14,6,6,0.3,0.3
2025-06-12T2100,2264A,127.5144,50.2341,黑河市,环保局,,,,37,,14,,,66,,,16,,5,,0.2
2025-06-12T2100,2265A,127.5291,50.2472,黑河市,大黑河岛,,20,,14,8,10,63,,58,57,4,11,20,20,0.3,0.3
2025-06-12T2100,1074A,115.6838,37.7541,衡水市,电机北厂,颗粒物(PM10),73,95,100,35,33,173,,216,210,13,11,2,4,0.3,0.3
2025-06-12T2100,1075A,115.6303,37.7316,衡水市,市监测站,,,88,98,25,25,168,,218,211,11,9,,15,0.2,0.3
2025-06-12T2100,3188A,115.6683,37.7217,衡水市,市城管局,颗粒物(PM10),80,110,114,35,29,179,,223,216,10,9,1,2,0.3,0.3
2025-06-12T2100,3459A,115.5989,37.5491,衡水市,地表水厂,颗粒物(PM10),116,182,128,24,25,152,,214,203,26,14,6,6,0.3,0.3
2025-06-12T2100,2456A,112.5003,26.9167,衡阳市,原169医院,,20,16,22,11,13,63,,84,82,19,7,4,4,0.7,0.7
2025-06-12T2100,2457A,112.6194,26.9258,衡阳市,衡阳化工总厂,,24,23,26,9,15,76,,78,78,8,9,4,4,0.6,0.6
2025-06-12T2100,2458A,112.6211,26.8956,衡阳市,珠晖区环保局,,,24,25,,13,72,,82,80,12,10,4,5,0.6,0.7
2025-06-12T2100,2459A,112.6197,26.8733,衡阳市,市委党校,,24,20,22,12,12,76,,83,82,8,8,4,5,0.6,0.7
2025-06-12T2100,2460A,112.6006,26.8919,衡阳市,市监测站,,25,14,20,11,13,78,,79,78,9,9,6,6,0.6,0.6
2025-06-12T2100,2461A,112.5664,26.9056,衡阳市,真空机电公司,,22,20,22,13,16,69,,73,70,9,8,5,5,0.9,0.9
2025-06-12T2100,3399A,112.6703,26.882,衡阳市,师范学院,,24,23,22,16,16,75,,85,83,8,8,6,6,0.9,0.9
2025-06-12T2100,2608A,103.3772,23.3993,红河哈尼族彝族自治州,污水处理厂,,45,40,36,31,24,90,,120,114,7,9,6,7,0.4,0.4
2025-06-12T2100,2609A,103.3861,23.35,红河哈尼族彝族自治州,监测站,,47,47,36,28,22,85,,115,108,6,8,3,4,0.3,0.3
2025-06-12T2100,3038A,103.3758,23.368,红河哈尼族彝族自治州,州图书馆,,34,34,30,20,20,97,,129,122,6,8,2,4,0.3,0.3
2025-06-12T2100,1090A,111.6507,40.7517,呼和浩特市,呼市一监,,38,24,52,19,23,120,,176,149,12,13,7,7,0.4,0.4
2025-06-12T2100,1091A,111.6572,40.8033,呼和浩特市,小召,,30,19,48,13,21,93,,173,143,18,19,4,5,0.5,0.6
2025-06-12T2100,1094A,111.7516,40.8369,呼和浩特市,如意水处理厂,,38,38,55,19,26,112,,186,146,14,21,6,7,0.4,0.4
2025-06-12T2100,1095A,111.7276,40.8062,呼和浩特市,二十九中,,43,43,61,21,28,108,,168,146,15,14,4,5,0.5,0.5
2025-06-12T2100,1096A,111.5512,40.7866,呼和浩特市,工大金川校区,,35,35,57,15,26,77,,183,134,9,17,5,7,0.4,0.5
2025-06-12T2100,1097A,111.717,40.7612,呼和浩特市,化肥厂生活区,颗粒物(PM10),52,53,65,23,24,121,,183,155,19,17,6,7,0.5,0.5
2025-06-12T2100,3698A,111.5968,40.8178,呼和浩特市,红旗小学,,31,19,40,13,22,98,,176,138,11,22,4,5,0.2,0.3
2025-06-12T2100,3699A,111.6518,40.8389,呼和浩特市,海东办,,29,24,52,14,24,90,,169,135,14,19,4,5,0.4,0.5
2025-06-12T2100,2192A,119.7594,49.2261,呼伦贝尔市,区环保局,,,34,24,30,22,,,76,72,39,13,5,6,0.4,0.1
2025-06-12T2100,3061A,119.7512,49.1577,呼伦贝尔市,国华电力东,,36,27,24,25,15,66,,89,84,14,8,4,7,0.4,0.3
2025-06-12T2100,1250A,120.0751,30.8669,湖州市,城西水厂,,25,25,35,14,22,75,,99,96,18,17,5,5,0.6,0.6
2025-06-12T2100,2873A,120.0830,30.8929,湖州市,仁皇山新区,,25,22,28,12,21,79,,102,100,17,18,4,4,0.4,0.4
2025-06-12T2100,2907A,120.1844,30.8596,湖州市,吴兴区站,,26,20,20,11,17,82,,104,102,13,14,7,6,0.4,0.3
2025-06-12T2100,3562A,120.4148,30.8538,湖州市,南浔区站,,25,12,18,9,18,80,,113,109,16,15,4,4,0.5,0.5
2025-06-12T2100,1607A,120.9049,40.7211,葫芦岛市,龙港区,,50,12,29,3,15,160,,151,151,9,10,8,8,0.4,0.5
2025-06-12T2100,1608A,120.8392,40.7514,葫芦岛市,化工街,,46,27,38,12,18,145,,140,140,18,22,6,7,0.5,0.5
2025-06-12T2100,1609A,120.8341,40.7073,葫芦岛市,新区,,49,21,28,7,14,154,,144,144,13,13,6,6,0.5,0.6
2025-06-12T2100,1610A,120.8695,40.7677,葫芦岛市,东城区,,45,18,34,10,13,143,,136,136,20,20,5,6,0.5,0.6
2025-06-12T2100,2482A,109.5981,27.5721,怀化市,林科所,,19,18,29,13,11,46,,72,66,6,7,4,5,0.5,0.4
2025-06-12T2100,2483A,109.9453,27.5444,怀化市,河西地税局,,,33,31,25,17,,,73,72,15,12,4,4,0.3,0.3
2025-06-12T2100,2484A,109.9781,27.5342,怀化市,市四医院,,26,26,44,6,20,41,,68,63,5,9,1,2,1.1,1.2
2025-06-12T2100,2485A,109.9972,27.5578,怀化市,监测楼,,16,13,27,11,17,42,,61,57,4,8,4,7,0.2,0.2
2025-06-12T2100,2486A,110.0394,27.583,怀化市,市委党校,,20,20,23,11,19,48,,67,63,2,4,5,11,0.2,0.3
2025-06-12T2100,1210A,119.036,33.5981,淮安市,钵池山,,32,27,28,17,18,100,,116,114,16,19,7,8,0.6,0.5
2025-06-12T2100,1211A,119.007,33.575,淮安市,北京南路,,31,31,29,14,13,94,,113,111,6,6,6,8,0.6,0.6
2025-06-12T2100,1212A,118.989,33.6067,淮安市,市监测站,,32,24,24,19,15,101,,116,115,10,11,8,9,0.3,0.2
2025-06-12T2100,1213A,119.135,33.5039,淮安市,楚州区监测站,,28,22,33,16,17,89,,108,106,8,11,7,8,0.5,0.5
2025-06-12T2100,3426A,118.8755,33.2894,淮安市,新华书店,,27,22,24,18,13,86,,115,111,15,13,8,9,0.5,0.5
2025-06-12T2100,4206A,119.0288,33.6319,淮安市,承德北路606号,,32,24,28,14,17,101,,114,113,8,11,6,6,0.5,0.4
2025-06-12T2100,2282A,116.8004,33.975,淮北市,监测站,颗粒物(PM10),52,53,40,11,18,124,,154,145,10,8,7,7,0.7,0.6
2025-06-12T2100,2283A,116.8091,33.9007,淮北市,烈山区政府,,,,52,17,20,126,,155,148,,10,8,8,0.9,0.8
2025-06-12T2100,3330A,116.8873,33.9836,淮北市,杜集区检察院,,,,40,,17,126,,150,143,,5,9,9,,0.7
2025-06-12T2100,4017A,116.7923,33.9535,淮北市,市博物馆,,40,34,32,11,17,128,,158,149,10,10,8,8,0.8,0.7
2025-06-12T2100,2277A,116.8305,32.7727,淮南市,潘集区政府,,46,36,49,32,36,84,,97,92,13,13,3,3,0.5,0.6
2025-06-12T2100,2279A,116.8569,32.5951,淮南市,谢家集区政府,,37,37,52,23,29,80,,87,86,17,15,5,7,0.4,0.3
2025-06-12T2100,2280A,116.8281,32.633,淮南市,八公山区政府,,49,46,49,34,32,85,,94,92,14,13,6,4,0.4,0.4
2025-06-12T2100,2281A,116.6325,32.6201,淮南市,焦岗湖风景区管理处,,,,,,,,,,,,,,,,
2025-06-12T2100,2894A,117.0566,32.6531,淮南市,经济技术开发区消防队,,,,37,,41,,,91,91,16,17,5,6,0.5,0.4
2025-06-12T2100,3329A,117.0108,32.5893,淮南市,山南新区,,33,32,45,23,31,90,,96,96,9,10,6,7,0.6,0.5
2025-06-12T2100,4209A,117.0031,32.6445,淮南市,国庆中路369号,,42,41,54,29,40,87,,91,91,11,12,4,5,0.4,0.4
2025-06-12T2100,2446A,114.9028,30.4742,黄冈市,职工中心,细颗粒物(PM2.5),64,54,40,46,31,83,,117,108,11,6,10,11,0.8,0.7
2025-06-12T2100,2929A,114.8858,30.4519,黄冈市,红卫路,颗粒物(PM10),54,58,38,37,25,75,,112,102,17,9,8,8,0.8,0.6
2025-06-12T2100,3398A,114.9136,30.4445,黄冈市,市林业局,颗粒物(PM10),52,54,40,35,27,72,,107,97,19,13,10,10,0.9,0.8
2025-06-12T2100,2672A,102.0199,35.5102,黄南藏族自治州,同仁县隆务镇,,37,28,31,12,10,118,,125,125,1,4,5,6,0.2,0.2
2025-06-12T2100,2295A,118.2903,29.6963,黄山市,延安路89号,,,,15,,8,,,59,,,5,,5,,0.5
2025-06-12T2100,2297A,118.1371,30.2756,黄山市,黄山区政府5号楼,,28,,14,19,11,56,,68,57,4,3,4,3,0.5,0.5
2025-06-12T2100,4210A,118.3354,29.7203,黄山市,滨江东路7-2号,,12,12,15,7,5,23,,68,47,8,5,3,4,0.5,0.5
2025-06-12T2100,2423A,115.0601,30.2313,黄石市,沈家营,颗粒物(PM10),60,70,42,42,17,56,,93,86,28,11,10,8,0.9,0.7
2025-06-12T2100,2426A,114.8988,30.2019,黄石市,铁山,,33,24,29,23,19,67,,99,90,20,15,5,4,0.4,0.6
2025-06-12T2100,2427A,115.0307,30.2092,黄石市,团城山,颗粒物(PM10),51,52,35,28,13,85,,104,99,8,3,8,8,0.7,0.5
2025-06-12T2100,3149A,115.0235,30.1578,黄石市,笔架山北路,颗粒物(PM10),54,58,36,31,14,62,,94,87,23,10,4,5,0.8,0.6
2025-06-12T2100,4185A,115.0780,30.21118,黄石市,磁湖东路29号,颗粒物(PM10),62,74,39,27,19,74,,100,95,10,3,7,8,0.9,0.6
2025-06-12T2100,1392A,114.4183,23.0528,惠州市,河南岸金山湖子站,,12,12,16,6,8,27,,51,42,10,9,7,7,0.5,0.5
2025-06-12T2100,1393A,114.4053,23.0822,惠州市,下埔横江三路子站,,13,13,18,6,8,29,,59,46,7,7,5,4,0.3,0.3
2025-06-12T2100,1394A,114.4103,23.1142,惠州市,江北云山西路子站,,10,10,16,3,9,24,,60,44,10,7,6,8,0.3,0.3
2025-06-12T2100,1395A,114.4645,22.7833,惠州市,惠阳区承修路船湖子站,,14,10,17,3,6,43,,50,45,8,8,7,7,0.4,0.4
2025-06-12T2100,1396A,114.5317,22.7422,惠州市,大亚湾管委会子站,,16,16,14,6,5,38,,52,46,13,12,8,9,0.4,0.4
2025-06-12T2100,3314A,114.4338,22.8134,惠州市,惠阳秋长,,16,,10,6,7,50,,56,52,4,5,7,6,0.6,0.6
2025-06-12T2100,3452A,114.6517,22.775,惠州市,大亚湾霞涌,,15,8,12,3,6,48,,56,53,5,7,6,6,0.6,0.6
2025-06-12T2100,2240A,130.9762,45.3001,鸡西市,环保局,,26,20,19,9,9,82,,100,88,10,12,1,2,0.4,0.4
2025-06-12T2100,2243A,130.9429,45.3039,鸡西市,第一中学,,25,21,16,8,8,80,,96,88,6,7,5,5,0.4,0.4
2025-06-12T2100,3707A,131.0207,45.3073,鸡西市,欧美日汽修厂,,25,23,24,12,11,79,,97,84,7,13,3,5,0.4,0.5
2025-06-12T2100,3709A,130.9967,45.3106,鸡西市,市政设施管理处,,27,27,22,15,11,78,,100,88,12,16,7,7,0.4,0.4
2025-06-12T2100,2367A,114.9754,27.0803,吉安市,红声器材厂,,,28,21,13,10,77,,84,84,,8,,7,0.4,0.5
2025-06-12T2100,2368A,114.9658,27.0999,吉安市,市森林工业局,,30,24,21,17,12,95,,97,97,4,5,10,7,0.5,0.5
2025-06-12T2100,2369A,114.99,27.1312,吉安市,市环境监测站,,48,48,19,20,9,90,,92,92,10,6,10,9,0.6,0.8
2025-06-12T2100,2370A,115.0093,27.0968,吉安市,青原区法院,,30,30,24,16,13,75,,87,87,12,9,9,8,0.3,0.4
2025-06-12T2100,1772A,126.54,43.8622,吉林市,哈达湾,,43,43,20,22,13,121,,146,145,25,13,7,6,0.4,0.3
2025-06-12T2100,1773A,126.5844,43.8358,吉林市,东局子,,42,,18,29,12,88,,129,127,42,12,6,5,0.7,0.5
2025-06-12T2100,1774A,126.5052,43.8245,吉林市,电力学院,,34,34,24,21,14,93,,137,131,41,20,6,5,0.5,0.4
2025-06-12T2100,1775A,126.6133,43.8972,吉林市,江北,,,36,21,15,11,100,,131,130,21,10,9,7,,0.6
2025-06-12T2100,1776A,126.555,43.8306,吉林市,江南公园,,36,31,18,19,13,115,,135,134,22,11,6,5,0.5,0.4
2025-06-12T2100,1778A,126.7061,43.7133,吉林市,丰满,,,,,,,,,,,,,,,,
2025-06-12T2100,2868A,126.4739,43.953,吉林市,九站,,47,31,24,15,11,150,,148,148,18,17,6,6,0.4,0.3
2025-06-12T2100,1299A,116.9862,36.6114,济南市,科干所,臭氧1小时,54,24,37,17,15,163,,180,177,9,9,7,7,0.4,0.4
2025-06-12T2100,1300A,116.9376,36.665,济南市,农科所,,45,32,44,10,14,142,,174,169,16,14,8,9,0.2,0.2
2025-06-12T2100,1301A,117.1265,36.6734,济南市,开发区,臭氧1小时,75,51,44,12,18,180,,184,183,14,15,10,9,0.6,0.6
2025-06-12T2100,1303A,117.0624,36.6868,济南市,省种子仓库,臭氧1小时,74,46,48,17,14,179,,189,188,13,11,8,7,0.2,0.3
2025-06-12T2100,1304A,116.9489,36.6447,济南市,机床二厂,,48,34,48,12,12,152,,176,174,14,14,6,7,0.4,0.4
2025-06-12T2100,1305A,117.0495,36.663,济南市,市监测站,臭氧1小时,65,46,45,17,16,172,,182,181,16,13,11,10,0.5,0.5
2025-06-12T2100,1306A,116.7675,36.5484,济南市,长清党校,臭氧1小时,63,51,50,22,20,170,,181,180,16,16,7,7,0.6,0.6
2025-06-12T2100,1616A,117.6795,36.229,济南市,技术学院,颗粒物(PM10),51,51,45,17,16,159,,170,170,16,17,11,12,0.6,0.7
2025-06-12T2100,1961A,117.532,36.6868,济南市,东山小学,臭氧1小时,69,42,54,15,16,175,,200,198,10,10,8,10,0.2,0.4
2025-06-12T2100,3059A,117.7161,36.2049,济南市,泰兴公司,臭氧1小时,55,56,48,17,19,164,,181,181,22,20,8,9,0.5,0.6
2025-06-12T2100,3064A,117.6867,36.2171,济南市,莱芜战役纪念馆,臭氧1小时,59,58,50,15,19,167,,175,175,13,14,6,8,0.6,0.8
2025-06-12T2100,3494A,117.1673,36.9782,济南市,济阳区政府,颗粒物(PM10),86,122,78,22,19,171,,206,196,22,22,9,8,0.2,0.3
2025-06-12T2100,3495A,117.1171,36.63,济南市,锦屏中学,臭氧1小时,78,44,40,12,14,182,,187,187,11,10,11,10,0.6,0.7
2025-06-12T2100,3682A,116.9814,36.6819,济南市,济南四建,,48,29,43,15,17,151,,181,176,20,16,6,7,0.4,0.3
2025-06-12T2100,1653A,116.6251,35.4302,济宁市,火炬城,,,,49,,18,,,154,154,10,10,5,5,0.5,0.5
2025-06-12T2100,1655A,116.5491,35.4042,济宁市,电化厂,颗粒物(PM10),56,61,50,17,20,154,,161,161,6,4,4,3,0.5,0.5
2025-06-12T2100,3500A,116.5814,35.3707,济宁市,北湖一中,颗粒物(PM10),56,62,50,21,25,157,,169,169,10,8,8,8,0.4,0.4
2025-06-12T2100,3501A,116.8249,35.5593,济宁市,服务中心,,49,49,52,6,13,136,,164,162,14,13,1,2,0.3,0.4
2025-06-12T2100,3678A,116.5907,35.4054,济宁市,市第七中学,颗粒物(PM10),61,71,58,14,13,150,,162,162,6,6,6,6,0.4,0.3
2025-06-12T2100,2255A,130.2751,46.8028,佳木斯市,佳纺,,,27,23,13,9,74,,96,88,15,13,7,7,,0.3
2025-06-12T2100,2256A,130.3995,46.8307,佳木斯市,发电厂,,37,37,29,16,9,61,,93,83,22,13,5,5,0.4,0.3
2025-06-12T2100,2257A,130.3258,46.7975,佳木斯市,环保局,,28,28,23,10,11,84,,98,93,16,10,6,6,0.3,0.3
2025-06-12T2100,2258A,130.3648,46.8032,佳木斯市,十一中,,31,31,26,16,15,68,,88,80,18,14,4,4,0.5,0.4
2025-06-12T2100,2259A,130.3794,46.7588,佳木斯市,四丰,,,23,13,,,,,,,11,6,1,7,0.5,0.5
2025-06-12T2100,1252A,120.7436,30.778,嘉兴市,清河小学,,25,12,16,7,8,77,,103,96,15,14,7,7,0.7,0.7
2025-06-12T2100,1253A,120.726,30.7478,嘉兴市,嘉兴学院,,,,20,,14,,,101,99,9,15,5,5,0.5,0.6
2025-06-12T2100,2872A,120.7846,30.7525,嘉兴市,南湖区残联,,23,16,14,8,12,73,,106,98,20,14,6,5,0.5,0.5
2025-06-12T2100,3407A,120.6916,30.7739,嘉兴市,秀洲住建,,25,16,15,8,10,78,,105,100,15,14,5,5,0.7,0.7
2025-06-12T2100,1945A,98.2908,39.7711,嘉峪关市,气象局,,41,41,34,12,11,124,,138,137,12,10,5,7,0.4,0.4
2025-06-12T2100,2884A,98.2672,39.7978,嘉峪关市,酒钢宾馆,,41,41,43,14,15,125,,129,129,9,12,11,27,0.3,0.6
2025-06-12T2100,3248A,98.2643,39.7724,嘉峪关市,雄关区,,41,41,35,16,14,126,,132,132,12,17,8,11,0.2,0.4
2025-06-12T2100,1383A,113.1064,22.6058,江门市,北街,,9,,13,6,5,24,,85,71,10,8,2,3,0.3,0.3
2025-06-12T2100,1384A,113.0731,22.5835,江门市,西区,,21,21,16,11,10,29,,82,69,11,12,7,7,0.3,0.4
2025-06-12T2100,1385A,113.0219,22.5311,江门市,圭峰西,,10,10,14,6,7,27,,75,62,11,10,3,4,0.4,0.4
2025-06-12T2100,1386A,113.0828,22.5947,江门市,东湖,,10,10,15,6,7,27,,78,66,14,14,9,9,0.4,0.3
2025-06-12T2100,3311A,113.1075,22.5647,江门市,江海富民,,19,19,22,7,11,28,,79,64,18,16,8,9,0.5,0.5
2025-06-12T2100,3449A,113.05,22.4667,江门市,新会银湖,,9,9,12,6,6,15,,64,53,14,12,2,3,0.4,0.3
2025-06-12T2100,1830A,113.1992,35.2590,焦作市,影视城,,,,45,,13,,,,,,9,,12,,0.7
2025-06-12T2100,3169A,113.2725,35.2067,焦作市,太极体育中心,臭氧1小时,68,58,60,29,33,174,,224,218,20,12,9,5,0.2,0.2
2025-06-12T2100,3335A,113.3137,35.2641,焦作市,马村街道办,臭氧1小时,80,77,64,48,43,184,,222,219,20,18,9,11,0.5,0.5
2025-06-12T2100,3336A,113.2465,35.2373,焦作市,焦作技师学院,臭氧1小时,73,58,53,17,24,178,,216,212,14,12,12,9,0.8,0.8
2025-06-12T2100,3477A,113.1656,35.2539,焦作市,中站许衡医院,颗粒物(PM10),67,83,63,38,32,167,,209,206,31,15,8,7,0.6,0.6
2025-06-12T2100,3981A,113.2449,35.1803,焦作市,原李万街道办,颗粒物(PM10),71,92,55,14,21,176,,224,219,20,14,10,12,0.3,0.3
2025-06-12T2100,4264A,113.2340,35.2190,焦作市,新安路1731号,臭氧1小时,80,70,67,39,30,184,,222,219,15,10,11,7,0.3,0.3
2025-06-12T2100,1708A,116.3701,23.5345,揭阳市,新兴,,,35,29,21,14,,,76,72,12,7,5,5,0.6,0.6
2025-06-12T2100,1709A,116.3264,23.5443,揭阳市,西马,,31,31,22,19,12,83,,76,73,7,5,2,2,0.7,0.6
2025-06-12T2100,1710A,116.3611,23.5626,揭阳市,东兴,,30,,30,21,11,94,,80,80,8,6,4,4,0.6,0.4
2025-06-12T2100,1711A,116.4151,23.5294,揭阳市,渔湖,颗粒物(PM10),51,51,24,16,11,103,,80,80,9,7,1,2,0.8,0.7
2025-06-12T2100,3320A,116.403,23.5699,揭阳市,曲溪,,40,40,23,12,12,106,,89,89,7,5,5,6,0.6,0.4
2025-06-12T2100,1944A,102.1692,38.5167,金昌市,天庆家园,颗粒物(PM10),59,68,63,28,22,111,,118,113,5,5,10,19,0.7,0.7
2025-06-12T2100,4022A,102.1647,38.5371,金昌市,金川区人防中心,颗粒物(PM10),76,101,73,30,24,102,,111,105,5,4,9,13,0.6,0.4
2025-06-12T2100,4239A,102.1930,38.5319,金昌市,长春路96号,颗粒物(PM10),65,80,68,25,20,107,,114,111,3,3,16,20,0.6,0.7
2025-06-12T2100,1262A,119.647,29.077,金华市,十五中,,14,10,25,9,14,11,,123,83,27,16,1,1,0.5,0.6
2025-06-12T2100,1263A,119.686,29.1029,金华市,监测站,,17,14,27,7,15,6,,134,87,34,18,1,2,0.4,0.4
2025-06-12T2100,3659A,119.656,29.1131,金华市,气象局,,19,19,24,8,11,8,,115,80,34,20,2,2,0.6,0.6
2025-06-12T2100,1767A,121.1115,41.0879,锦州市,南山,,46,23,39,14,32,146,,136,136,16,16,9,13,0.5,0.6
2025-06-12T2100,1768A,121.0604,40.8428,锦州市,开发区,,46,33,58,11,18,146,,140,140,25,21,6,6,0.6,0.6
2025-06-12T2100,1769A,121.1836,41.1119,锦州市,百股街道,,47,20,36,12,18,149,,138,138,18,15,20,11,0.5,0.6
2025-06-12T2100,1770A,121.1178,41.1222,锦州市,天安街道,颗粒物(PM10),51,52,45,17,32,145,,142,141,21,20,7,12,0.8,0.9
2025-06-12T2100,1771A,121.1303,41.1386,锦州市,北湖公园,,46,24,41,15,30,146,,141,140,17,17,8,12,0.5,0.6
2025-06-12T2100,2160A,112.85,35.5051,晋城市,自来水公司,臭氧1小时,111,65,58,22,26,221,,228,228,12,11,3,2,0.1,0.2
2025-06-12T2100,2161A,112.8318,35.4936,晋城市,白云商贸,臭氧1小时,108,79,63,17,18,216,,224,224,16,15,8,8,0.4,0.5
2025-06-12T2100,2162A,112.8508,35.4887,晋城市,市环保局,臭氧1小时,104,89,75,24,27,207,,214,214,13,11,8,8,0.1,0.2
2025-06-12T2100,2163A,112.8676,35.4897,晋城市,技术学院,臭氧1小时,107,76,56,19,22,214,,223,223,16,12,7,7,0.6,0.7
2025-06-12T2100,2165A,112.8453,35.546,晋城市,白马寺,,,,42,,30,,,182,,,7,,5,,0.6
2025-06-12T2100,3620A,112.8271,35.4828,晋城市,泽州一中,臭氧1小时,109,39,52,24,24,217,,228,228,14,14,3,4,0.6,0.6
2025-06-12T2100,2173A,112.7249,37.7067,晋中市,南都小区,臭氧1小时,73,51,60,29,33,178,,190,182,7,6,4,5,0.5,0.5
2025-06-12T2100,2174A,112.6991,37.6982,晋中市,榆次区政府,臭氧1小时,68,56,63,28,28,174,,195,182,15,13,8,6,0.7,0.7
2025-06-12T2100,2865A,112.7195,37.6828,晋中市,榆次三中,,,,67,,28,,,197,,,9,,7,,0.5
2025-06-12T2100,4200A,112.7478,37.6954,晋中市,迎宾街26号,臭氧1小时,78,63,65,19,27,182,,202,189,11,8,6,6,0.5,0.5
2025-06-12T2100,2439A,112.2014,31.0481,荆门市,竹园小学,,,17,39,17,28,,,133,133,9,6,5,7,0.6,0.4
2025-06-12T2100,2440A,112.1969,30.9891,荆门市,掇刀,,32,22,33,22,25,90,,130,124,11,9,5,7,0.6,0.6
2025-06-12T2100,2441A,112.2213,31.0386,荆门市,石化一小,,,,41,,24,,,133,133,12,17,9,13,0.6,0.4
2025-06-12T2100,3012A,112.1849,31.0362,荆门市,西山林语,,30,26,27,20,23,96,,132,128,4,6,9,10,0.4,0.4
2025-06-12T2100,3547A,112.1632,31.0138,荆门市,龙泉中学南校,,29,,27,14,19,91,,130,122,4,17,3,4,0.5,0.5
2025-06-12T2100,1844A,112.2494,30.3197,荆州市,市图书馆,,29,15,23,14,18,92,,130,124,14,12,2,4,0.6,0.6
2025-06-12T2100,1845A,112.2008,30.3544,荆州市,市委党校,,28,26,26,19,19,89,,116,112,12,16,6,7,0.6,0.6
2025-06-12T2100,3194A,112.2747,30.3122,荆州市,管委会,,28,21,23,16,20,87,,117,113,9,16,5,7,0.7,0.7
2025-06-12T2100,4268A,112.1722,30.3366,荆州市,学苑路85号,,40,31,24,28,23,90,,125,118,34,28,3,5,0.3,0.2
2025-06-12T2100,2342A,117.3102,29.3867,景德镇市,王港中学,,,,,,,,,,,,,,,,
2025-06-12T2100,2343A,117.2117,29.2933,景德镇市,老干部活动中心,细颗粒物(PM2.5),90,,12,67,8,36,,75,62,13,7,5,4,0.5,0.5
2025-06-12T2100,2344A,117.1894,29.2789,景德镇市,兽医站,,22,22,22,10,5,28,,76,62,20,7,7,5,0.6,0.5
2025-06-12T2100,2345A,117.1547,29.2617,景德镇市,台达陶瓷,,22,22,18,12,9,33,,81,68,15,10,16,28,0.5,0.5
2025-06-12T2100,2346A,117.2461,29.2956,景德镇市,陶研所,,29,29,17,16,5,17,,68,55,12,5,2,1,0.5,0.3
2025-06-12T2100,1803A,115.9872,29.6815,九江市,十里,,39,32,26,27,23,74,,109,106,16,12,3,4,0.8,0.8
2025-06-12T2100,1804A,115.9584,29.7046,九江市,茅山头,,40,40,32,25,25,75,,104,101,21,19,7,4,0.7,0.6
2025-06-12T2100,1805A,115.9877,29.7295,九江市,西园,,32,32,29,22,20,60,,113,103,45,28,6,6,1.1,1.1
2025-06-12T2100,1808A,115.9114,29.6038,九江市,综合工业园,,44,44,32,22,24,78,,115,112,24,28,9,10,0.9,0.9
2025-06-12T2100,1809A,116.0721,29.7535,九江市,石化总厂,,29,29,30,15,27,61,,102,94,25,13,4,5,0.7,0.8
2025-06-12T2100,1810A,115.9773,29.5698,九江市,庐山气象台,,22,9,9,3,6,69,,77,61,2,4,7,20,1.0,0.7
2025-06-12T2100,3190A,116.0254,29.6994,九江市,外国语学校,,36,,19,25,20,60,,106,102,24,14,7,9,0.8,0.7
2025-06-12T2100,4253A,116.0102,29.6594,九江市,莲花大道8号,,22,22,20,14,17,65,,96,93,8,7,3,4,0.7,0.7
2025-06-12T2100,4240A,98.4958,39.7339,酒泉市,玉门东路5号,,46,46,41,26,26,114,,124,123,7,8,10,9,0.3,0.3
2025-06-12T2100,4241A,98.5099,39.7506,酒泉市,北大街108号,,41,41,34,16,16,117,,138,136,14,8,85,13,0.3,0.2
2025-06-12T2100,2698A,76.0072,39.4467,喀什地区,巡警大队,,,,59,,12,149,,140,140,,10,1,5,0.3,0.3
2025-06-12T2100,2699A,75.9755,39.4694,喀什地区,吾办,颗粒物(PM10),95,139,49,46,20,140,,138,138,19,12,3,3,0.1,0.1
2025-06-12T2100,4027A,75.9483,39.4689,喀什地区,老干局,,,,64,23,9,,,,,15,47,80,22,0.8,0.8
2025-06-12T2100,1824A,114.3389,34.7781,开封市,肿瘤医院,,49,44,52,23,25,156,,190,186,11,8,2,2,0.4,0.5
2025-06-12T2100,1826A,114.2885,34.7965,开封市,世纪星幼儿园,臭氧1小时,57,62,56,13,33,165,,202,198,20,14,2,2,0.6,0.7
2025-06-12T2100,3147A,114.3438,34.8106,开封市,龙亭公园,臭氧1小时,58,40,47,16,29,166,,200,196,17,11,6,5,0.3,0.4
2025-06-12T2100,3210A,114.3644,34.7964,开封市,汴京公园,颗粒物(PM10),57,64,61,21,33,159,,197,192,16,13,9,8,0.6,0.7
2025-06-12T2100,3473A,114.2485,34.8306,开封市,技师学院,臭氧1小时,65,64,100,29,23,172,,,,12,9,4,6,0.4,0.5
2025-06-12T2100,3592A,114.4644,34.7556,开封市,祥符区生态环境局,颗粒物(PM10),54,58,54,19,26,146,,197,189,28,19,4,5,0.5,0.6
2025-06-12T2100,1951A,84.895,45.6094,克拉玛依市,长征新村,,34,14,18,3,6,108,,110,110,6,6,4,4,0.6,0.5
2025-06-12T2100,1952A,84.8988,45.5893,克拉玛依市,南林小区,,,12,22,10,10,,,114,114,9,8,11,11,0.1,0.1
2025-06-12T2100,1954A,84.905,44.3396,克拉玛依市,独山子区,,30,21,33,9,16,96,,107,107,11,14,6,6,0.2,0.2
2025-06-12T2100,1955A,85.6979,46.098,克拉玛依市,乌尔禾区商贸楼,,31,26,22,3,8,97,,102,102,11,6,3,4,0.4,0.3
2025-06-12T2100,3612A,85.1045,45.6899,克拉玛依市,白碱滩区新站,,41,38,35,19,16,130,,128,128,2,5,14,14,0.2,0.2
2025-06-12T2100,2697A,76.1454,39.7142,克孜勒苏柯尔克孜自治州,市人民政府,颗粒物(PM10),500,930,83,428,36,102,,149,145,6,3,2,6,0.5,0.5
2025-06-12T2100,3665A,76.1658,39.7157,克孜勒苏柯尔克孜自治州,克州文化中心,颗粒物(PM10),500,2332,160,,26,,,143,143,6,3,3,8,0.2,0.2
2025-06-12T2100,1450A,102.8204,24.8886,昆明市,呈贡新区,,40,29,34,28,28,125,,152,150,13,17,4,7,0.4,0.5
2025-06-12T2100,1451A,102.6251,24.9608,昆明市,西山森林公园,,,,,,,,,,,,,,,,
2025-06-12T2100,1452A,102.7252,25.0902,昆明市,龙泉镇,,44,44,34,24,20,114,,143,140,19,25,2,2,0.4,0.4
2025-06-12T2100,1453A,102.7266,25.0375,昆明市,东风东路,颗粒物(PM10),53,56,49,35,28,124,,156,152,18,16,6,7,0.4,0.4
2025-06-12T2100,1454A,102.6742,25.0669,昆明市,金鼎山,,42,42,36,21,17,127,,151,149,14,15,2,2,0.3,0.3
2025-06-12T2100,1455A,102.6644,25.0401,昆明市,碧鸡广场,细颗粒物(PM2.5),53,50,39,37,20,114,,154,150,30,17,6,7,0.5,0.5
2025-06-12T2100,3179A,102.7494,25.0119,昆明市,官渡区博物馆,,48,46,39,33,22,111,,158,152,30,26,7,8,0.3,0.4
2025-06-12T2100,3375A,102.8017,24.8336,昆明市,青年创业园,,36,35,39,25,24,114,,160,155,26,15,10,9,0.3,0.3
2025-06-12T2100,3550A,102.7997,24.9786,昆明市,昆明学院,,48,48,56,28,29,122,,167,161,21,21,6,7,0.3,0.3
2025-06-12T2100,3551A,102.5967,24.6736,昆明市,晋宁区生态环境分局,颗粒物(PM10),51,52,32,24,24,128,,160,155,12,13,2,2,0.4,0.4
2025-06-12T2100,3552A,102.6678,24.9856,昆明市,云天化总部,,39,37,38,21,25,122,,160,156,18,18,3,4,0.2,0.3
2025-06-12T2100,1456A,91.1319,29.6514,拉萨市,八廓街,,37,28,25,13,12,116,,125,125,12,14,7,10,0.3,0.3
2025-06-12T2100,1457A,91.1221,29.6747,拉萨市,市环保局,,50,50,32,17,14,123,,129,128,10,15,7,9,0.3,0.3
2025-06-12T2100,1458A,91.0874,29.6475,拉萨市,区监测站,,37,30,25,13,13,117,,124,124,15,22,6,9,0.3,0.4
2025-06-12T2100,1459A,91.1774,29.6541,拉萨市,西藏大学,,36,34,23,12,10,114,,122,122,10,11,4,7,0.2,0.2
2025-06-12T2100,1460A,90.9798,29.6588,拉萨市,区辐射站,,37,34,30,16,17,118,,118,118,8,18,6,7,0.3,0.3
2025-06-12T2100,1461A,91.0834,29.6292,拉萨市,拉萨火车站,,37,33,24,11,12,117,,125,125,13,16,4,5,0.1,0.2
2025-06-12T2100,2520A,109.2203,23.7256,来宾市,来宾技工学校,,39,39,22,15,12,68,,101,92,11,9,6,7,0.6,0.7
2025-06-12T2100,3535A,109.1781,23.7297,来宾市,兴宾区政府,,,25,20,23,13,,,90,86,6,7,5,4,0.6,0.9
2025-06-12T2100,4002A,109.2416,23.7461,来宾市,中南小学,,30,30,26,17,12,62,,98,89,13,10,5,7,0.6,0.7
2025-06-12T2100,1477A,104.1373,35.9454,兰州市,榆中兰大校区,,,,,,,,,,,,,,,,
2025-06-12T2100,1479A,103.831,36.0464,兰州市,铁路设计院,颗粒物(PM10),54,57,60,30,28,83,,150,136,57,55,10,12,0.5,0.6
2025-06-12T2100,3241A,103.7439,36.0842,兰州市,百合公园,颗粒物(PM10),55,60,60,26,22,98,,166,149,27,48,7,6,0.3,0.5
2025-06-12T2100,3242A,103.9611,35.998,兰州市,和平,,39,39,59,16,23,121,,162,152,10,15,7,9,0.5,0.5
2025-06-12T2100,4236A,103.6293,36.0938,兰州市,庄浪东路808号,细颗粒物(PM2.5),54,48,60,38,32,88,,167,140,38,41,12,15,0.3,0.4
2025-06-12T2100,4237A,103.7251,36.1043,兰州市,安宁西路88号,颗粒物(PM10),60,70,68,40,34,114,,188,167,21,34,6,11,0.3,0.4
2025-06-12T2100,4238A,103.8470,36.0676,兰州市,北滨河东路1号,,,47,61,32,25,,,165,155,45,60,9,12,0.6,0.7
2025-06-12T2100,3245A,103.6633,36.533,兰州新区,新区管委会,,43,33,51,23,28,137,,152,147,9,14,15,16,0.3,0.4
2025-06-12T2100,3246A,103.6975,36.4789,兰州新区,舟曲中学,颗粒物(PM10),83,116,163,16,20,135,,141,140,13,20,10,14,0.5,0.5
2025-06-12T2100,1067A,116.6708,39.5111,廊坊市,药材公司,臭氧1小时,95,81,92,22,39,196,,224,223,16,19,5,7,0.5,0.5
2025-06-12T2100,1068A,116.7214,39.5589,廊坊市,开发区,臭氧1小时,99,93,107,26,34,199,,227,225,18,19,6,5,0.4,0.4
2025-06-12T2100,1070A,116.7244,39.5269,廊坊市,北华航天学院,臭氧1小时,85,102,108,22,37,188,,218,216,15,16,6,6,0.4,0.4
2025-06-12T2100,2919A,116.7022,39.5453,廊坊市,河北工业大学,臭氧1小时,100,96,114,26,40,200,,230,229,16,19,6,7,0.4,0.4
2025-06-12T2100,2535A,103.7723,29.5462,乐山市,花湖湾,臭氧1小时,59,40,51,30,26,167,,202,190,6,24,3,9,0.5,1
2025-06-12T2100,2536A,103.7627,29.5844,乐山市,牛耳桥,,43,40,51,22,30,137,,185,173,16,28,8,9,0.5,0.7
2025-06-12T2100,2537A,103.7508,29.6006,乐山市,市第三水厂,,46,46,43,26,29,131,,198,184,37,24,5,7,0.4,0.4
2025-06-12T2100,2538A,103.7571,29.5664,乐山市,市监测站,臭氧1小时,60,35,53,24,30,168,,210,197,12,23,7,11,0.5,1
2025-06-12T2100,3361A,103.7311,29.5628,乐山市,理工大学,,41,35,51,22,30,131,,178,164,14,25,7,9,0.5,1
2025-06-12T2100,2598A,100.2143,26.8576,丽江市,西南郊,,37,35,20,24,12,117,,133,130,13,9,7,6,0.5,0.6
2025-06-12T2100,2599A,100.2497,26.8802,丽江市,丽江古城,细颗粒物(PM2.5),55,43,21,39,16,101,,118,115,22,11,9,9,0.5,0.4
2025-06-12T2100,2600A,100.2203,26.8906,丽江市,市中心,,30,24,16,18,12,93,,119,115,23,11,12,11,0.5,0.4
2025-06-12T2100,1267A,119.914,28.4514,丽水市,监测站大楼,,10,10,18,3,7,7,,51,25,14,11,3,3,0.5,0.5
2025-06-12T2100,1268A,119.93,28.4586,丽水市,莲都小学,,10,8,16,3,4,6,,51,26,19,14,3,3,0.3,0.4
2025-06-12T2100,1269A,119.879,28.4231,丽水市,余庄前,,13,13,15,3,7,0,,52,24,12,9,3,3,0.5,0.5
2025-06-12T2100,1173A,119.176,34.5885,连云港市,市环境监测站,颗粒物(PM10),59,68,51,9,11,93,,125,116,15,13,6,6,0.5,0.5
2025-06-12T2100,3000A,119.3581,34.6972,连云港市,德源药业,,34,34,36,3,7,80,,114,98,23,19,16,13,0.9,0.6
2025-06-12T2100,3007A,119.178,34.844,连云港市,新城一中,,,,27,8,8,,,121,113,16,22,7,7,0.6,0.7
2025-06-12T2100,3008A,119.3608,34.7519,连云港市,胡沟管理处,,31,31,17,9,6,92,,114,97,24,20,15,12,0.8,0.6
2025-06-12T2100,3009A,119.1478,34.5911,连云港市,矿山设计院,,48,48,45,9,8,87,,116,108,15,14,4,4,0.4,0.4
2025-06-12T2100,3434A,119.2413,34.6539,连云港市,工贸学校,颗粒物(PM10),55,60,38,15,10,96,,127,117,10,9,8,9,0.5,0.5
2025-06-12T2100,3664A,119.4172,34.7341,连云港市,连云街道,,38,38,27,16,9,103,,122,114,10,6,13,10,0.7,0.5
2025-06-12T2100,2571A,102.3431,27.8099,凉山彝族自治州,青龙寺,,,39,26,9,8,,,137,134,4,7,3,5,0.3,0.6
2025-06-12T2100,2572A,102.2721,27.8415,凉山彝族自治州,邛海宾馆,,35,28,31,15,17,111,,132,129,7,12,7,8,0.4,0.4
2025-06-12T2100,2573A,102.2625,27.898,凉山彝族自治州,西昌市政府,,,,52,49,38,112,,82,,12,12,,10,0.3,0.6
2025-06-12T2100,2574A,102.2685,27.8851,凉山彝族自治州,凉山州政府,,35,30,28,18,15,112,,134,127,14,14,7,7,0.5,0.5
2025-06-12T2100,4229A,102.2342,27.8859,凉山彝族自治州,凯乐南路30号,,36,31,36,16,15,115,,134,131,8,19,9,9,0.4,0.4
2025-06-12T2100,2212A,123.2,41.1953,辽阳市,宏伟区,,47,34,35,9,9,150,,172,161,10,13,8,10,0.5,0.6
2025-06-12T2100,2213A,123.1683,41.2495,辽阳市,新华园,,47,47,37,14,12,134,,158,145,14,15,6,8,0.5,0.5
2025-06-12T2100,2214A,123.2354,41.2639,辽阳市,滨河路,颗粒物(PM10),54,58,45,21,16,121,,159,146,20,18,10,11,0.5,0.5
2025-06-12T2100,2215A,123.149,41.2991,辽阳市,铁西工业园,颗粒物(PM10),54,57,42,23,16,91,,134,123,23,18,7,8,0.6,0.6
2025-06-12T2100,2227A,125.1358,42.8845,辽源市,环保局,,43,43,29,21,10,94,,167,155,28,35,4,4,0.7,0.5
2025-06-12T2100,3239A,125.0764,42.9078,辽源市,银鹰制药,,39,39,29,20,14,84,,173,159,50,34,6,5,0.6,0.4
2025-06-12T2100,1625A,115.9848,36.4372,聊城市,区政府,臭氧1小时,78,92,80,18,19,182,,192,191,14,11,8,8,0.6,0.6
2025-06-12T2100,2878A,116.0072,36.4343,聊城市,聊大东校,臭氧1小时,78,90,83,22,25,182,,189,188,13,11,8,8,0.5,0.4
2025-06-12T2100,3200A,115.9819,36.4978,聊城市,监控中心,"颗粒物(PM10),臭氧1小时",80,110,85,22,18,184,,187,187,12,11,9,9,0.4,0.3
2025-06-12T2100,3513A,116.0445,36.4361,聊城市,九州社区,臭氧1小时,68,81,75,19,18,174,,184,183,11,9,3,5,0.5,0.5
2025-06-12T2100,4018A,116.0567,36.4608,聊城市,星美广场,颗粒物(PM10),70,90,81,19,15,169,,183,182,16,11,8,9,0.5,0.4
2025-06-12T2100,2632A,94.3681,29.6376,林芝市,林芝监测站,,37,37,22,17,13,81,,97,95,11,6,3,3,0.4,0.3
2025-06-12T2100,2633A,94.3616,29.6616,林芝市,林芝人民医院,,26,19,22,11,12,82,,103,101,9,4,5,4,0.2,0.2
2025-06-12T2100,2603A,100.0781,23.8982,临沧市,市环保局,,,,,,,,,,,,,,,,
2025-06-12T2100,2604A,100.0894,23.8822,临沧市,市气象局,,42,33,33,29,26,88,,112,109,11,12,6,8,0.6,0.5
2025-06-12T2100,1733A,111.5531,36.0783,临汾市,临钢医院,臭氧1小时,68,80,75,25,22,174,,190,184,20,19,7,7,0.5,0.6
2025-06-12T2100,1734A,111.5028,36.0714,临汾市,技工学校,臭氧1小时,78,92,68,40,34,182,,198,194,12,11,8,8,0.6,0.7
2025-06-12T2100,1736A,111.5018,36.0855,临汾市,市委,颗粒物(PM10),83,115,85,25,23,185,,202,195,17,15,8,8,0.7,0.8
2025-06-12T2100,3018A,111.505,36.1014,临汾市,唐尧大酒店,颗粒物(PM10),74,98,81,17,25,173,,198,189,13,13,7,8,0.7,0.7
2025-06-12T2100,4244A,111.4879,36.0530,临汾市,启星学校,颗粒物(PM10),78,106,66,46,36,180,,198,193,13,11,6,6,0.6,0.7
2025-06-12T2100,4271A,103.2464,35.6123,临夏回族自治州,滨河东路1号,,,100,63,26,35,,,131,131,18,15,8,9,0.4,0.3
2025-06-12T2100,4310A,103.2093,35.5995,临夏回族自治州,新华街21号,颗粒物(PM10),64,78,67,33,28,102,,145,138,19,20,5,6,0.4,0.4
2025-06-12T2100,1618A,118.3429,35.0532,临沂市,沂河小区,颗粒物(PM10),57,63,67,12,24,94,,144,134,14,16,6,10,0.3,0.3
2025-06-12T2100,1619A,118.295,35.0583,临沂市,鲁南制药厂,颗粒物(PM10),57,63,67,18,21,97,,150,139,18,20,7,12,0.5,0.5
2025-06-12T2100,1620A,118.2794,34.9976,临沂市,新光毛纺厂,颗粒物(PM10),63,75,68,14,21,93,,148,137,22,23,8,14,0.3,0.3
2025-06-12T2100,1621A,118.3956,35.0888,临沂市,河东保险公司,,48,48,52,7,16,96,,144,135,17,20,5,6,0.3,0.4
2025-06-12T2100,3370A,118.3564,35.0215,临沂市,十里堡居委,颗粒物(PM10),56,61,67,12,22,97,,151,140,22,23,8,11,0.4,0.4
2025-06-12T2100,3496A,118.3604,35.1084,临沂市,南坊新区,颗粒物(PM10),53,56,60,3,17,88,,139,127,19,21,7,10,0.3,0.3
2025-06-12T2100,3860A,118.3920,35.0300,临沂市,皇山花园小区,,,,66,,19,,,149,144,20,21,9,11,0.6,0.5
2025-06-12T2100,1870A,109.4856,24.3895,柳州市,柳东小学,,20,20,16,9,10,60,,66,64,7,5,10,11,0.5,0.5
2025-06-12T2100,1871A,109.4157,24.3277,柳州市,环保监测站,,26,26,21,13,14,49,,70,63,10,7,7,8,0.7,0.7
2025-06-12T2100,1872A,109.389,24.341,柳州市,河西水厂,颗粒物(PM10),52,54,30,28,16,30,,72,64,20,12,23,15,0.8,0.8
2025-06-12T2100,1873A,109.4311,24.2921,柳州市,市四中,,23,22,27,16,11,54,,70,64,11,9,8,10,0.7,0.7
2025-06-12T2100,1874A,109.4006,24.3631,柳州市,市九中,,35,35,27,21,10,25,,68,59,16,11,10,12,0.7,0.6
2025-06-12T2100,1875A,109.4958,24.3134,柳州市,古亭山,,22,,21,12,11,68,,74,71,6,3,7,6,0.4,0.5
2025-06-12T2100,3402A,109.5422,24.3996,柳州市,市二中,,18,,18,12,10,56,,73,69,12,8,12,11,0.2,0.2
2025-06-12T2100,2307A,116.5079,31.737,六安市,监测大楼,,36,33,29,25,21,77,,102,96,5,4,3,3,0.4,0.4
2025-06-12T2100,2308A,116.4738,31.7643,六安市,皖西学院,,40,40,34,22,19,89,,110,106,7,6,6,6,0.3,0.3
2025-06-12T2100,2309A,116.4996,31.7905,六安市,朝阳厂,,36,36,33,19,22,76,,90,88,12,13,5,5,0.4,0.4
2025-06-12T2100,2310A,116.5567,31.7886,六安市,开发区,,29,,31,20,24,80,,90,90,5,4,5,5,0.4,0.4
2025-06-12T2100,2576A,104.8,26.5892,六盘水市,窑上,颗粒物(PM10),52,54,42,25,13,90,,139,132,5,7,2,4,0.3,0.3
2025-06-12T2100,2577A,104.83,26.5917,六盘水市,黄土坡,,44,44,37,19,19,123,,147,145,19,15,11,11,0.5,0.4
2025-06-12T2100,2578A,104.89,26.5939,六盘水市,水钢,细颗粒物(PM2.5),73,73,59,53,31,138,,151,151,12,23,10,16,0.5,0.9
2025-06-12T2100,2579A,104.8475,26.5894,六盘水市,民中,,43,43,40,22,21,129,,145,145,17,22,10,11,0.5,0.5
2025-06-12T2100,2580A,104.9544,26.5506,六盘水市,双水,,40,39,41,9,18,126,,149,148,13,24,10,12,0.4,0.6
2025-06-12T2100,2335A,117.0189,25.1181,龙岩市,龙岩师专,,,,,,,,,,,,,,,,
2025-06-12T2100,2336A,117.0217,25.1033,龙岩市,龙岩市监测站,,11,11,16,3,8,30,,68,58,18,12,13,9,0.5,0.5
2025-06-12T2100,2337A,117.0258,25.0661,龙岩市,闽西职业技术学院,,22,22,22,7,10,18,,62,51,18,11,33,22,0.4,0.4
2025-06-12T2100,2338A,117.0196,25.0306,龙岩市,龙岩学院,,8,,21,3,9,25,,67,54,10,9,4,4,0.6,0.7
2025-06-12T2100,2665A,105.0822,33.3261,陇南市,汉王镇固水子,,,,,,,,,,,,,,,,
2025-06-12T2100,2885A,104.9339,33.3826,陇南市,滨江中学,,,63,46,35,24,131,,163,157,5,7,,10,0.6,0.6
2025-06-12T2100,3247A,104.955,33.371,陇南市,市总工会,,48,48,41,23,19,142,,161,158,6,6,5,6,0.7,0.6
2025-06-12T2100,2487A,111.9589,27.8901,娄底市,电视发射台,颗粒物(PM10),51,51,37,6,8,8,,54,40,3,4,6,6,0.2,0.3
2025-06-12T2100,2488A,111.9975,27.725,娄底市,市监测站,,23,18,23,16,15,46,,68,64,13,16,8,7,0.7,0.7
2025-06-12T2100,2489A,112.0194,27.7314,娄底市,市委党校,,19,18,18,13,14,41,,69,65,6,5,3,17,0.4,0.3
2025-06-12T2100,2490A,111.9561,27.7569,娄底市,涟钢,,,,23,,16,34,,54,50,10,10,,8,0.6,0.7
2025-06-12T2100,2491A,111.9892,27.7044,娄底市,市政府,,36,,23,25,13,33,,72,68,8,7,4,5,1.0,1.1
2025-06-12T2100,1893A,105.4324,28.9634,泸州市,九狮山,,,,42,,29,,,169,169,,20,,6,,0.5
2025-06-12T2100,1894A,105.4427,28.9063,泸州市,小市上码头,,,42,37,22,18,113,,142,140,11,11,,12,,0.5
2025-06-12T2100,1895A,105.4241,28.8573,泸州市,兰田宪桥,,,52,40,24,22,111,,148,142,,16,9,10,0.5,0.5
2025-06-12T2100,1896A,105.4379,28.8833,泸州市,市环监站,,37,26,33,11,19,116,,143,137,33,32,10,13,1.1,0.7
2025-06-12T2100,4272A,105.3689,28.7783,泸州市,纳溪中医医院,,49,49,42,28,27,111,,148,141,17,18,6,6,0.9,0.8
2025-06-12T2100,2183A,111.1406,37.5211,吕梁市,环保局,臭氧1小时,67,62,53,30,27,173,,180,179,13,9,4,3,0.6,0.5
2025-06-12T2100,2185A,111.1297,37.5136,吕梁市,自来水公司,臭氧1小时,63,58,76,28,26,170,,172,172,9,20,4,5,0.5,0.5
2025-06-12T2100,2867A,111.1283,37.51,吕梁市,马茂庄小学,颗粒物(PM10),60,69,78,26,27,167,,168,168,20,30,4,5,0.6,0.8
2025-06-12T2100,1812A,112.3931,34.6516,洛阳市,市委党校,臭氧1小时,54,45,48,30,31,163,,179,177,10,9,7,7,0.6,0.6
2025-06-12T2100,1815A,112.494,34.6886,洛阳市,河南林校,,,58,57,34,32,178,,209,203,,14,10,9,0.8,0.7
2025-06-12T2100,1816A,112.3844,34.623,洛阳市,开发区管委会,臭氧1小时,79,47,46,23,27,183,,196,193,10,10,7,8,0.5,0.5
2025-06-12T2100,1817A,112.4267,34.6258,洛阳市,市委新办公区,臭氧1小时,67,51,47,23,27,173,,188,186,11,11,7,8,0.6,0.6
2025-06-12T2100,3340A,112.6005,34.6326,洛阳市,伊滨,臭氧1小时,84,70,64,24,29,187,,205,201,10,11,6,8,0.6,0.7
2025-06-12T2100,3341A,112.4951,34.6332,洛阳市,中移产业园,臭氧1小时,73,47,56,32,30,178,,200,197,21,11,5,7,0.8,0.8
2025-06-12T2100,3593A,112.5736,34.8993,洛阳市,吉利监测站,"颗粒物(PM10),臭氧1小时",64,78,67,32,33,171,,214,208,17,16,7,7,0.6,0.6
2025-06-12T2100,3635A,112.3677,34.662,洛阳市,河科大西苑校区,臭氧1小时,82,48,53,25,22,185,,201,198,17,11,8,9,0.5,0.5
2025-06-12T2100,3636A,112.4388,34.6781,洛阳市,英才小学,臭氧1小时,74,46,60,23,28,179,,202,199,11,9,6,8,0.7,0.7
2025-06-12T2100,4214A,112.4600,34.6949,洛阳市,春都路1号院,臭氧1小时,70,50,65,22,26,176,,206,202,13,13,5,7,0.6,0.6
2025-06-12T2100,2399A,114.051,33.5699,漯河市,三五一五工厂,,43,43,42,28,32,136,,184,179,21,16,5,5,0.6,0.6
2025-06-12T2100,2400A,114.0055,33.5698,漯河市,漯河大学,,48,48,48,19,24,150,,196,192,16,15,3,3,0.5,0.6
2025-06-12T2100,2401A,114.0138,33.5828,漯河市,市水利局,,48,48,49,24,30,146,,190,186,14,12,4,5,0.6,0.7
2025-06-12T2100,2402A,114.0261,33.5698,漯河市,市广电局,,46,42,45,19,32,145,,190,185,13,13,2,2,0.5,0.5
2025-06-12T2100,3478A,113.9749,33.5664,漯河市,市图书馆,,46,46,47,20,26,141,,186,182,16,16,2,5,0.6,0.6
2025-06-12T2100,4250A,114.0892,33.5882,漯河市,韶山路11号,,,51,60,24,37,,,189,189,16,16,4,5,0.6,0.6
2025-06-12T2100,1798A,118.5092,31.6837,马鞍山市,湖东路四小,,44,44,34,30,26,87,,93,93,15,11,6,6,0.5,0.5
2025-06-12T2100,1799A,118.5024,31.6449,马鞍山市,开发区,,45,45,39,22,20,92,,93,93,16,16,5,6,0.5,0.6
2025-06-12T2100,1802A,118.6245,31.7241,马鞍山市,濮塘,细颗粒物(PM2.5),58,,35,41,27,96,,96,96,6,7,7,7,0.7,0.7
2025-06-12T2100,3633A,118.4918,31.6809,马鞍山市,雨山,,30,30,32,20,19,86,,91,91,15,13,6,7,0.6,0.6
2025-06-12T2100,4191A,118.5274,31.72227,马鞍山市,慈湖高新区,颗粒物(PM10),52,54,44,33,27,77,,91,91,25,14,6,7,0.5,0.5
2025-06-12T2100,1686A,111.0286,21.4688,茂名市,电白南海,,,19,19,12,13,,,50,50,6,8,3,4,0.2,0.6
2025-06-12T2100,1687A,110.9294,21.6533,茂名市,茂石化七小,,24,24,20,7,7,32,,42,40,11,9,4,4,0.3,0.2
2025-06-12T2100,1688A,110.9107,21.6687,茂名市,健康路,,25,17,18,17,14,38,,50,47,9,9,7,14,0.5,0.5
2025-06-12T2100,1689A,110.8592,21.6828,茂名市,高岭,,24,24,25,3,6,34,,43,41,12,11,8,12,0.5,0.5
2025-06-12T2100,3450A,111.01,21.5165,茂名市,电白水东,,17,17,16,7,6,47,,46,46,8,10,3,5,0.3,0.3
2025-06-12T2100,2539A,104.0308,30.0478,眉山市,黑龙滩水库,臭氧1小时,75,25,23,23,20,180,,214,208,3,15,2,2,0.7,0.7
2025-06-12T2100,2540A,103.8416,30.0874,眉山市,气象局,臭氧1小时,63,55,51,24,22,170,,222,215,18,15,3,3,0.5,0.5
2025-06-12T2100,3137A,103.8578,30.0744,眉山市,市委党校,,50,41,47,22,25,159,,205,200,24,57,5,6,0.6,0.6
2025-06-12T2100,3148A,103.8291,30.0564,眉山市,区人社局,臭氧1小时,63,61,62,14,23,170,,216,210,24,58,11,12,0.7,0.7
2025-06-12T2100,1690A,116.1231,24.3284,梅州市,梅江月梅,,20,20,26,13,16,10,,69,43,31,13,6,7,0.6,0.6
2025-06-12T2100,1691A,116.0797,24.2719,梅州市,梅县新城,,,50,28,3,10,,,70,52,,10,,6,0.4,0.8
2025-06-12T2100,1692A,116.1248,24.2654,梅州市,环境监控中心,,18,,16,12,11,30,,72,49,18,13,2,4,0.5,0.5
2025-06-12T2100,3315A,116.1233,24.2991,梅州市,梅龙,,17,17,20,9,13,26,,73,53,18,10,6,7,0.5,0.5
2025-06-12T2100,1878A,104.7778,31.4741,绵阳市,富乐山,臭氧1小时,74,54,56,34,34,179,,191,184,18,17,10,9,0.6,0.6
2025-06-12T2100,1880A,104.6697,31.4668,绵阳市,高新区自来水公司,颗粒物(PM10),55,60,59,29,27,153,,186,182,37,30,8,3,0.7,0.8
2025-06-12T2100,1881A,104.7287,31.5075,绵阳市,三水厂,细颗粒物(PM2.5),53,39,58,37,40,122,,194,183,58,34,10,10,0.8,0.7
2025-06-12T2100,3491A,104.69,31.5322,绵阳市,西科大附属小学,颗粒物(PM10),59,68,63,40,34,143,,205,196,43,27,9,9,0.6,0.5
2025-06-12T2100,3492A,104.5648,31.5343,绵阳市,安州区旅游局,颗粒物(PM10),53,56,52,31,28,140,,212,204,24,16,9,10,0.7,0.2
2025-06-12T2100,4226A,104.7651,31.4531,绵阳市,绵阳市气象局,臭氧1小时,82,56,57,37,35,185,,177,177,24,25,9,8,0.5,0.6
2025-06-12T2100,1784A,129.61,44.561,牡丹江市,环保大楼,,32,32,21,22,14,90,,99,93,12,14,8,8,0.2,0.2
2025-06-12T2100,1785A,129.6115,44.5782,牡丹江市,文化广场,,32,25,19,22,14,81,,96,88,20,17,5,4,0.3,0.3
2025-06-12T2100,1786A,129.5904,44.5963,牡丹江市,第一医院,,26,23,17,16,10,83,,99,91,18,17,5,5,0.2,0.3
2025-06-12T2100,1787A,129.6364,44.6075,牡丹江市,机车工厂,,31,31,26,15,10,74,,95,88,18,16,5,6,0.3,0.4
2025-06-12T2100,1788A,129.6386,44.5462,牡丹江市,第一中学,,29,29,19,14,10,65,,97,83,25,13,8,8,0.3,0.3
2025-06-12T2100,2531A,105.0703,29.61,内江市,市监测站,,42,42,37,22,26,134,,160,158,14,15,6,6,0.5,0.5
2025-06-12T2100,2532A,105.0717,29.5947,内江市,东兴区政府,,,51,28,20,21,145,,168,166,16,16,8,7,,0.3
2025-06-12T2100,2533A,105.0653,29.5817,内江市,内江二中,,46,46,34,24,31,146,,161,160,9,20,7,7,0.4,0.5
2025-06-12T2100,2534A,105.0406,29.5822,内江市,内江日报社,,45,35,36,22,28,142,,164,162,13,23,7,11,0.2,0.3
2025-06-12T2100,2628A,92.0657,31.4846,那曲市,那曲监测站,,35,34,30,16,13,111,,118,116,13,12,6,6,0.2,0.3
2025-06-12T2100,4243A,92.0515,31.4787,那曲市,那曲市委宣传部,,44,44,23,13,10,120,,127,126,8,8,6,6,0.2,0.2
2025-06-12T2100,1290A,115.8931,28.6843,南昌市,省外办,,,,16,,11,,,94,,,12,,3,,0.7
2025-06-12T2100,1291A,115.8886,28.7003,南昌市,省林业公司,,27,27,14,14,8,61,,80,79,22,12,8,8,0.6,0.6
2025-06-12T2100,1292A,115.8126,28.7442,南昌市,林科所,,16,9,7,7,6,51,,81,74,17,9,4,4,0.3,0.4
2025-06-12T2100,1294A,115.8518,28.687,南昌市,建工学校,,25,18,14,3,11,79,,82,82,6,6,6,6,0.4,0.4
2025-06-12T2100,1295A,115.8921,28.6424,南昌市,象湖,,23,17,9,7,4,73,,80,79,14,10,6,6,0.7,0.6
2025-06-12T2100,1296A,115.7423,28.7996,南昌市,武术学校,,26,26,23,9,10,15,,63,47,3,3,6,7,0.4,0.4
2025-06-12T2100,3046A,115.9084,28.6062,南昌市,机电学校,,23,23,20,12,8,73,,80,78,14,9,4,4,0.3,0.3
2025-06-12T2100,3690A,115.9721,28.7031,南昌市,外国语学校,,25,25,15,6,6,68,,70,70,17,9,7,8,0.5,0.5
2025-06-12T2100,4192A,115.9316,28.68677,南昌市,南京东路235号,,23,22,19,16,7,71,,77,77,15,10,8,8,0.6,0.5
2025-06-12T2100,1905A,106.056,30.8064,南充市,西山风景区,,,,,,,,,,,,,,,,
2025-06-12T2100,1906A,106.0789,30.8023,南充市,南充市委,,46,44,44,29,26,147,,174,170,18,19,5,6,0.4,0.5
2025-06-12T2100,1907A,106.1031,30.8217,南充市,南充炼油厂,,46,42,46,30,28,146,,164,162,13,16,5,7,0.5,0.5
2025-06-12T2100,4227A,106.1083,30.7884,南充市,梨树横街98号,颗粒物(PM10),51,52,45,28,25,145,,166,164,16,17,5,6,0.3,0.4
2025-06-12T2100,4304A,106.1172,30.843,南充市,清泉寺北路188号,,48,40,46,14,15,152,,165,164,14,15,5,5,0.3,0.3
2025-06-12T2100,4305A,106.067,30.7616,南充市,同庆路1号,,46,46,46,24,29,139,,160,156,12,15,4,4,0.3,0.4
2025-06-12T2100,1151A,118.8086,32.1065,南京市,迈皋桥,,42,38,30,29,21,70,,80,76,25,20,4,4,0.6,0.5
2025-06-12T2100,1152A,118.7538,32.0551,南京市,草场门,,42,34,29,29,19,71,,83,81,25,20,1,2,0.6,0.5
2025-06-12T2100,1153A,118.7794,32.0745,南京市,山西路,,41,41,32,22,18,84,,94,92,26,23,3,4,0.3,0.3
2025-06-12T2100,1154A,118.7752,32.0023,南京市,中华门,,32,31,24,22,19,78,,83,83,23,22,7,7,0.5,0.5
2025-06-12T2100,1155A,118.8109,32.0309,南京市,瑞金路,,39,31,28,27,20,71,,80,78,13,10,6,6,0.2,0.2
2025-06-12T2100,1156A,118.7997,32.0754,南京市,玄武湖,,43,43,31,16,14,66,,79,77,13,12,4,4,0.4,0.4
2025-06-12T2100,1157A,118.6414,32.0931,南京市,浦口,,28,28,28,18,16,67,,78,76,26,20,3,3,0.7,0.7
2025-06-12T2100,1158A,118.7356,31.9996,南京市,奥体中心,,49,,29,34,21,83,,85,85,18,16,3,3,0.4,0.4
2025-06-12T2100,1159A,118.9125,32.1028,南京市,仙林大学城,,44,44,34,24,14,84,,87,86,16,15,8,8,0.7,0.6
2025-06-12T2100,3422A,118.8436,31.9198,南京市,江宁彩虹桥,,35,24,25,24,19,84,,96,96,19,18,3,3,0.5,0.5
2025-06-12T2100,3427A,118.8554,32.3578,南京市,六合雄州,颗粒物(PM10),60,70,39,42,25,51,,90,79,38,34,4,7,0.9,0.8
2025-06-12T2100,4249A,118.8708,31.3402,南京市,汶溪路181号,,32,32,24,13,18,76,,97,97,16,14,3,4,0.6,0.6
2025-06-12T2100,4312A,119.019,31.6512,南京市,中山西路1号,,32,27,23,15,16,101,,98,98,11,12,4,4,0.3,0.4
2025-06-12T2100,1401A,108.3103,22.7881,南宁市,二十一中,,19,,26,13,13,52,,69,67,18,14,1,3,0.6,0.6
2025-06-12T2100,1402A,108.3141,22.8528,南宁市,北湖,,37,37,27,14,17,32,,65,60,32,17,4,13,0.6,0.5
2025-06-12T2100,1403A,108.3206,22.8225,南宁市,市监测站,,22,22,23,12,20,43,,62,59,21,16,2,4,0.7,0.7
2025-06-12T2100,1404A,108.3829,22.8037,南宁市,大自然花园,,23,16,24,14,13,71,,79,78,9,8,5,5,0.6,0.5
2025-06-12T2100,1405A,108.4394,22.7904,南宁市,仙葫,,28,,20,19,13,77,,79,79,9,7,9,8,0.5,0.4
2025-06-12T2100,1406A,108.2397,22.8467,南宁市,区农职院,,20,,26,14,12,41,,66,61,17,12,4,5,0.6,0.8
2025-06-12T2100,1407A,108.3275,22.735,南宁市,英华嘉园,,25,20,31,14,15,77,,81,80,9,10,7,8,0.5,0.5
2025-06-12T2100,3401A,108.4834,22.7618,南宁市,红星社区,,28,28,19,16,13,79,,81,80,7,4,4,3,0.6,0.5
2025-06-12T2100,4221A,108.2177,22.7774,南宁市,乐贤路16号,,,,34,,20,,,61,,,17,,20,,0.6
2025-06-12T2100,2331A,118.0966,26.6761,南平市,茫荡山,,,,3,,2,,,,,,,,2,,0.3
2025-06-12T2100,2332A,118.1681,26.6369,南平市,南平市监测站,,9,6,9,3,5,26,,61,46,7,6,4,4,0.5,0.5
2025-06-12T2100,2333A,118.1825,26.6489,南平市,南平铝业有限公司,,14,14,15,3,3,17,,56,42,12,7,4,4,0.6,0.5
2025-06-12T2100,2334A,118.1756,26.6272,南平市,南平七中,,12,10,14,8,6,29,,62,51,3,4,4,5,0.4,0.5
2025-06-12T2100,1168A,120.9098,31.9663,南通市,狼山街道,,27,13,13,6,7,85,,95,88,9,7,4,4,0.7,0.6
2025-06-12T2100,1169A,120.86,32.0005,南通市,虹桥,,25,18,14,13,11,77,,93,84,17,14,2,2,0.5,0.4
2025-06-12T2100,1170A,120.87,32.02,南通市,城中,,25,18,16,7,8,78,,92,84,12,10,4,4,0.7,0.7
2025-06-12T2100,1171A,120.94,31.93,南通市,星湖花园,,23,14,10,9,10,71,,85,80,15,13,2,2,0.5,0.5
2025-06-12T2100,1172A,120.81,32.0417,南通市,紫琅学院,,,36,16,12,5,53,,84,70,,14,,5,0.6,0.5
2025-06-12T2100,3291A,121.067,32.062,南通市,通州监测站,,31,,9,7,6,98,,102,97,5,5,3,4,0.5,0.5
2025-06-12T2100,3432A,120.9348,31.9883,南通市,环境教育馆,,,27,19,7,7,82,,93,86,22,13,2,2,,0.2
2025-06-12T2100,2404A,112.5224,33.0122,南阳市,瓦房庄,,48,47,44,17,17,152,,192,184,11,10,6,6,0.6,0.6
2025-06-12T2100,2405A,112.5003,32.9735,南阳市,汉画馆,,44,44,42,15,18,131,,189,180,17,14,6,6,0.5,0.5
2025-06-12T2100,2406A,112.5573,33.027,南阳市,气象站,,50,50,41,22,22,133,,191,182,16,9,6,5,0.3,0.3
2025-06-12T2100,2407A,112.5481,32.9689,南阳市,理工学院,,45,45,42,21,24,126,,184,174,19,14,5,5,0.4,0.4
2025-06-12T2100,4008A,112.5234,32.9922,南阳市,卧龙区政府,,43,42,33,24,25,135,,191,182,16,13,4,4,0.5,0.6
2025-06-12T2100,1234A,121.8358,29.911,宁波市,区环保大楼,,36,36,25,12,9,3,,66,52,64,47,8,9,0.5,0.5
2025-06-12T2100,1235A,121.56,29.82,宁波市,万里学院,,19,15,18,3,20,58,,92,83,16,22,2,6,0.4,0.6
2025-06-12T2100,1236A,121.713,29.9572,宁波市,龙赛医院,,26,26,20,10,9,33,,78,64,26,24,7,10,0.6,0.7
2025-06-12T2100,1239A,121.633,29.7733,宁波市,钱湖水厂,,20,11,18,8,14,61,,86,78,15,18,3,3,0.4,0.5
2025-06-12T2100,1240A,121.5856,29.8635,宁波市,太古小学,,15,15,37,10,18,45,,89,69,23,26,3,4,0.5,0.7
2025-06-12T2100,1241A,121.524,29.8674,宁波市,市环境监测中心,,20,,20,14,13,50,,88,75,21,23,3,3,0.5,0.6
2025-06-12T2100,2871A,121.6147,29.9017,宁波市,万里国际学校,,20,17,17,14,14,25,,77,61,40,25,2,2,0.6,0.5
2025-06-12T2100,3710A,121.5594,29.8975,宁波市,白沙活动中心,,18,18,18,10,14,45,,93,75,23,21,8,8,0.5,0.6
2025-06-12T2100,2339A,119.5001,26.6946,宁德市,金涵水库,,,,1,,1,,,,,,2,,2,,0.5
2025-06-12T2100,2341A,119.5388,26.6612,宁德市,宁德市监测站,,22,22,14,7,6,31,,42,36,6,9,4,4,0,0.3
2025-06-12T2100,3209A,119.5231,26.6562,宁德市,宁德一中,,20,20,16,6,7,31,,44,37,7,6,3,3,0.2,0.3
2025-06-12T2100,2618A,98.8601,25.8567,怒江傈僳族自治州,州监测站,,34,34,25,19,15,96,,122,121,11,8,7,7,0.4,0.4
2025-06-12T2100,2619A,98.8546,25.8417,怒江傈僳族自治州,泸水一中,,24,24,24,3,15,74,,105,103,14,9,6,6,0.4,0.3
2025-06-12T2100,1888A,101.6891,26.571,攀枝花市,弄弄坪,颗粒物(PM10),54,58,46,33,23,101,,166,158,32,17,16,10,2.1,0.9
2025-06-12T2100,1889A,101.5769,26.5928,攀枝花市,河门口,,49,49,57,25,22,121,,167,160,19,18,10,12,0.4,0.7
2025-06-12T2100,1890A,101.7169,26.585,攀枝花市,炳草岗,,46,46,48,20,20,124,,163,158,18,25,8,11,0.7,0.9
2025-06-12T2100,1891A,101.7369,26.5008,攀枝花市,仁和,,33,33,41,19,24,92,,156,142,14,15,8,15,0.6,0.7
2025-06-12T2100,2835A,101.7227,26.567,攀枝花市,四十中小,细颗粒物(PM2.5),52,51,47,36,27,80,,176,162,62,37,11,15,1.7,1
2025-06-12T2100,1604A,122.0303,41.1489,盘锦市,开发区,,46,28,29,9,22,147,,129,129,22,19,11,12,0.2,0.3
2025-06-12T2100,1605A,122.0485,41.0883,盘锦市,兴隆台,,46,24,29,17,22,146,,129,129,24,22,6,7,0.3,0.4
2025-06-12T2100,1606A,121.8297,41.1028,盘锦市,新生街道,臭氧1小时,54,14,20,9,17,163,,139,139,14,12,8,8,0.5,0.5
2025-06-12T2100,1832A,113.3257,33.742,平顶山市,新华旅馆,臭氧1小时,58,44,46,28,24,166,,194,192,13,10,5,8,0.6,0.7
2025-06-12T2100,1833A,113.2919,33.737,平顶山市,规划设计院,颗粒物(PM10),53,55,57,29,37,154,,182,179,14,14,10,9,0.6,0.8
2025-06-12T2100,1834A,113.182,33.774,平顶山市,平顶山工学院,臭氧1小时,62,47,44,24,28,169,,198,195,14,10,8,5,0.4,0.4
2025-06-12T2100,3204A,113.3025,33.73,平顶山市,规划局,臭氧1小时,53,51,51,17,23,162,,190,188,11,12,6,8,0.5,0.6
2025-06-12T2100,3594A,112.8867,33.9116,平顶山市,石龙区,颗粒物(PM10),67,84,76,30,29,167,,192,190,20,21,8,7,0.6,0.7
2025-06-12T2100,2656A,106.6692,35.5461,平凉市,聚贤嘉苑,,40,40,56,26,24,113,,153,143,20,19,7,9,0.4,0.5
2025-06-12T2100,2657A,106.7021,35.5307,平凉市,博物馆,,39,37,66,16,23,122,,147,142,15,20,10,13,0.4,0.7
2025-06-12T2100,2347A,114.0997,27.5002,萍乡市,武功山,,17,16,6,3,4,54,,62,62,5,4,12,11,0.4,0.4
2025-06-12T2100,2348A,113.8385,27.6434,萍乡市,中医院,,50,50,24,35,19,64,,79,75,12,6,10,12,1.1,0.8
2025-06-12T2100,2349A,113.8493,27.6253,萍乡市,市政府车库,,39,32,18,27,15,52,,71,67,16,7,8,8,1.4,1
2025-06-12T2100,2350A,113.8676,27.6435,萍乡市,市环保局,,34,34,21,23,14,54,,77,72,15,3,8,7,0.8,0.7
2025-06-12T2100,2351A,113.866,27.6198,萍乡市,安源区政府,,39,35,18,27,13,46,,63,60,14,10,6,6,0.6,1.1
2025-06-12T2100,2319A,119.0141,25.4325,莆田市,荔城区仓后路,,14,14,14,3,2,40,,56,44,6,6,3,3,0.3,0.3
2025-06-12T2100,2320A,119.0015,25.4553,莆田市,莆田市监测站,,14,12,13,3,3,42,,58,45,6,5,3,3,0.3,0.4
2025-06-12T2100,2321A,119.1119,25.4561,莆田市,涵江区六中,,13,10,15,3,1,40,,58,44,2,3,3,3,0.2,0.3
2025-06-12T2100,2322A,119.1013,25.3215,莆田市,秀屿区政府,,12,6,18,3,4,38,,61,45,5,6,2,2,0.2,0.3
2025-06-12T2100,2323A,118.981,25.4792,莆田市,东圳水库,,,,11,,6,,,,,,2,,2,,0.5
2025-06-12T2100,2392A,115.0312,35.7636,濮阳市,环保局,臭氧1小时,72,45,47,18,26,177,,202,200,17,16,6,7,0.6,0.7
2025-06-12T2100,2394A,115.0574,35.7609,濮阳市,油田运输公司,,,,54,,25,175,,200,198,,17,7,8,,0.8
2025-06-12T2100,3021A,115,35.7668,濮阳市,濮水河管理处,臭氧1小时,69,49,51,19,28,175,,198,196,19,17,6,6,0.6,0.7
2025-06-12T2100,4216A,115.0924,35.7686,濮阳市,任丘路479号,颗粒物(PM10),60,70,65,23,31,159,,192,189,18,13,8,8,0.9,0.9
2025-06-12T2100,2601A,100.98,22.7633,普洱市,市环保局,颗粒物(PM10),57,64,47,36,21,83,,109,106,11,10,4,4,0.6,0.6
2025-06-12T2100,2602A,100.9817,22.8322,普洱市,普洱第二中学,,,53,46,27,19,,,110,110,14,15,6,6,0.6,0.6
2025-06-12T2100,2262A,131.0518,45.8751,七台河市,新一中,,24,24,21,13,13,74,,121,101,15,11,14,10,0.8,0.8
2025-06-12T2100,3345A,131.0577,45.7879,七台河市,中波台,,19,14,18,6,7,59,,84,62,11,18,7,6,0.3,0.3
2025-06-12T2100,3637A,131.0176,45.7761,七台河市,人民广场,,27,27,26,10,16,63,,89,77,10,13,10,10,0.4,0.5
2025-06-12T2100,3684A,130.8781,45.8222,七台河市,新建矿广场,,26,,28,18,10,41,,94,73,24,17,11,10,0.3,0.2
2025-06-12T2100,1779A,123.9305,47.3636,齐齐哈尔市,安居小区,细颗粒物(PM2.5),52,52,36,36,16,70,,99,97,36,19,6,6,0.9,0.6
2025-06-12T2100,1780A,123.9488,47.3386,齐齐哈尔市,中心广场,颗粒物(PM10),60,70,41,31,14,88,,106,105,34,19,10,7,0.9,0.5
2025-06-12T2100,1781A,123.9483,47.3227,齐齐哈尔市,农牧车辆厂,颗粒物(PM10),57,63,42,28,11,57,,104,99,33,13,9,6,0.4,0.2
2025-06-12T2100,1783A,123.945,47.2988,齐齐哈尔市,市环境监测站,细颗粒物(PM2.5),53,39,26,37,15,66,,109,105,27,13,5,5,0.6,0.4
2025-06-12T2100,3662A,123.6333,47.2075,齐齐哈尔市,富区青少年活动中心,,42,42,27,27,16,89,,112,111,26,10,11,3,1.2,0.4
2025-06-12T2100,2591A,107.9783,26.5747,黔东南苗族侗族自治州,市环境监测站,,28,23,26,19,20,46,,71,59,12,6,2,3,0.6,0.5
2025-06-12T2100,2881A,107.8908,26.5311,黔东南苗族侗族自治州,凯里学院,,26,,21,18,18,47,,77,68,12,7,3,2,0.5,0.4
2025-06-12T2100,2593A,107.5228,26.2403,黔南布依族苗族自治州,小围寨,,12,12,16,3,11,0,,66,,7,6,3,2,1.1,0.4
2025-06-12T2100,3538A,107.5175,26.2978,黔南布依族苗族自治州,沙坝,,24,24,25,7,12,58,,73,67,6,6,3,4,0.5,0.5
2025-06-12T2100,2589A,104.9022,25.0925,黔西南布依族苗族自治州,场坝街,,46,46,32,22,15,127,,156,149,8,13,3,3,0.4,0.4
2025-06-12T2100,2590A,104.8811,25.0992,黔西南布依族苗族自治州,坪东大道,,36,33,26,25,18,106,,135,128,10,16,1,1,0.2,0.2
2025-06-12T2100,2502A,108.6236,21.9667,钦州市,市环保站,,24,24,29,3,9,35,,80,73,22,13,2,2,0.5,0.9
2025-06-12T2100,2503A,108.6549,21.9481,钦州市,沙埠小学,,18,18,27,11,14,47,,83,78,13,10,1,2,0.4,0.4
2025-06-12T2100,2504A,108.5989,21.7431,钦州市,港区一小,,19,19,33,12,14,49,,74,71,15,16,3,3,0.5,0.6
2025-06-12T2100,3404A,108.5959,21.9633,钦州市,北职校,,27,27,25,12,14,35,,75,69,16,8,1,1,0.5,0.6
2025-06-12T2100,1043A,119.7493,40.0116,秦皇岛市,第一关,,,22,38,,22,135,,168,164,17,19,5,5,0.2,0.3
2025-06-12T2100,1044A,119.5897,39.9499,秦皇岛市,监测站,,47,39,43,12,10,148,,175,172,17,18,4,5,0.3,0.3
2025-06-12T2100,1046A,119.5251,39.9041,秦皇岛市,建设大厦,,47,42,41,24,11,148,,170,166,19,17,4,4,0.3,0.3
2025-06-12T2100,3132A,119.610547,39.943889,秦皇岛市,文明里,,46,26,43,22,14,146,,167,166,13,16,4,5,0.1,0.2
2025-06-12T2100,4198A,119.5090,39.8253,秦皇岛市,北戴河轮滑馆,,39,37,37,19,14,124,,168,165,19,10,3,3,0.3,0.3
2025-06-12T2100,1307A,120.6659,36.2403,青岛市,仰口,,37,,12,13,11,116,,121,120,5,7,8,8,0.5,0.5
2025-06-12T2100,1310A,120.4134,36.0658,青岛市,市南区东部子站,,27,7,8,3,6,85,,117,109,15,11,8,8,0.3,0.3
2025-06-12T2100,1311A,120.3664,36.1032,青岛市,四方区子站,,33,7,9,7,8,105,,135,128,18,14,6,5,0.5,0.4
2025-06-12T2100,1312A,120.2994,36.054,青岛市,市南区西部子站,,30,7,10,7,8,96,,110,104,17,19,8,8,0.4,0.4
2025-06-12T2100,1313A,120.4581,36.0858,青岛市,崂山区子站,,30,7,5,3,4,96,,119,117,10,8,7,7,0.2,0.2
2025-06-12T2100,1315A,120.3999,36.3083,青岛市,城阳区子站,,48,48,20,7,6,106,,137,122,20,16,5,5,0.2,0.2
2025-06-12T2100,1966A,120.0405,35.8735,青岛市,黄岛区4号,,,,9,,2,,,116,,,9,,8,,0.5
2025-06-12T2100,3362A,120.5014,36.4034,青岛市,即墨2号,,33,14,17,6,7,104,,125,122,11,10,8,8,0.2,0.2
2025-06-12T2100,3642A,120.3503,36.0736,青岛市,市北区南部,,30,13,11,7,6,95,,113,106,15,10,8,8,0.3,0.3
2025-06-12T2100,3643A,120.3948,36.1805,青岛市,李沧区北部,,28,9,11,9,10,87,,115,108,18,12,8,7,0.4,0.4
2025-06-12T2100,4290A,120.1969,35.9546,青岛市,珠江路669号,,36,7,8,3,4,113,,124,121,5,4,6,7,0.2,0.2
2025-06-12T2100,1702A,113.0426,23.691,清远市,环保大楼,,41,41,33,6,7,44,,85,79,5,9,4,5,0.3,0.4
2025-06-12T2100,1703A,113.0208,23.7106,清远市,凤城街办,,15,6,16,3,8,45,,79,73,9,10,8,8,0.5,0.5
2025-06-12T2100,3025A,113.0477,23.6344,清远市,技师学院,,14,8,15,3,7,44,,84,78,9,12,6,8,0.4,0.5
2025-06-12T2100,3318A,112.9903,23.7403,清远市,清新太和,,15,10,18,3,7,47,,74,70,5,8,5,6,0.5,0.5
2025-06-12T2100,3455A,113.076,23.7198,清远市,清城东城,,16,9,13,3,5,49,,86,81,3,6,8,8,0.5,0.5
2025-06-12T2100,2661A,107.6325,35.7357,庆阳市,庆阳五中,颗粒物(PM10),65,80,44,19,20,133,,157,155,9,10,4,5,0.4,0.4
2025-06-12T2100,2662A,107.6364,35.7067,庆阳市,市环保局,颗粒物(PM10),64,78,49,16,17,147,,164,163,7,8,5,7,0.4,0.5
2025-06-12T2100,1916A,103.7897,25.5035,曲靖市,环境监测站,,49,49,40,18,21,131,,141,139,11,14,4,7,0.4,0.5
2025-06-12T2100,1917A,103.8,25.5364,曲靖市,烟厂办公区,,,42,42,,21,,,141,141,9,12,3,6,0.4,0.6
2025-06-12T2100,3376A,103.7947,25.462,曲靖市,南苑二区,,43,37,36,17,18,137,,147,145,10,11,4,6,0.4,0.4
2025-06-12T2100,3377A,103.7444,25.5261,曲靖市,曲靖师范学院,,45,45,38,20,25,137,,140,140,8,20,6,11,0.4,0.5
2025-06-12T2100,1264A,118.8692,28.9398,衢州市,环保大楼,,7,7,27,3,14,22,,121,97,13,9,4,4,0.3,0.3
2025-06-12T2100,1265A,118.8709,28.9666,衢州市,实验学校,,10,6,22,3,12,29,,126,102,15,10,2,2,0.2,0.3
2025-06-12T2100,1266A,118.8621,28.9808,衢州市,衢州学院,,9,7,19,3,12,25,,119,95,17,11,3,4,0.2,0.3
2025-06-12T2100,1611A,118.5819,24.9117,泉州市,涂山街,,14,11,19,6,10,42,,74,57,2,5,3,2,0.6,0.6
2025-06-12T2100,1612A,118.5972,24.8978,泉州市,津头埔,,,16,19,6,9,,,76,60,7,8,2,2,0.4,0.5
2025-06-12T2100,1613A,118.6663,24.9424,泉州市,万安,,22,22,24,3,8,40,,73,54,2,5,2,2,0.3,0.4
2025-06-12T2100,1614A,118.6117,24.9604,泉州市,清源山,,,,11,,6,,,,,,9,,1,,0.3
2025-06-12T2100,3529A,118.6333,24.9264,泉州市,城华南路,,15,15,20,3,8,40,,72,54,5,8,3,3,0.3,0.4
2025-06-12T2100,2626A,88.8876,29.2718,日喀则市,日喀则监测站,颗粒物(PM10),71,92,45,22,15,109,,116,114,6,10,10,9,0.3,0.3
2025-06-12T2100,3726A,88.8781,29.2426,日喀则市,林业技术推广中心,,,71,41,3,14,,,108,108,2,4,8,4,0.1,0.3
2025-06-12T2100,1659A,119.471,35.4209,日照市,监测站,,34,22,20,17,11,107,,122,120,15,24,6,7,0.4,0.5
2025-06-12T2100,1660A,119.523,35.4216,日照市,市政府广场,,31,17,22,3,6,98,,114,111,11,15,6,7,0.5,0.5
2025-06-12T2100,1661A,119.5587,35.4044,日照市,港务局,,33,,21,13,13,104,,118,116,11,15,6,7,0.4,0.5
2025-06-12T2100,3507A,119.5328,35.4625,日照市,职业技术学院,,35,14,19,3,7,109,,123,121,13,14,4,6,0.4,0.5
2025-06-12T2100,3604A,119.3266,35.1044,日照市,岚山环保分局,,35,22,28,8,8,109,,121,111,16,17,5,8,0.4,0.5
2025-06-12T2100,1835A,111.1922,34.7752,三门峡市,市政府,臭氧1小时,69,61,56,29,27,175,,174,174,11,14,6,7,0.6,0.6
2025-06-12T2100,1836A,111.1587,34.7942,三门峡市,开发区,臭氧1小时,84,63,60,29,34,187,,188,188,21,20,6,8,0.5,0.6
2025-06-12T2100,1838A,111.143,34.7955,三门峡市,风景区,臭氧1小时,92,48,53,25,26,193,,192,192,10,10,9,10,0.5,0.5
2025-06-12T2100,3039A,111.1911,34.7829,三门峡市,三门峡市第一小学,臭氧1小时,77,65,60,26,30,181,,181,181,9,10,4,8,0.6,0.6
2025-06-12T2100,3598A,111.1,34.7167,三门峡市,富达温泉假日酒店,,,,60,,30,,,173,173,9,12,8,8,0.3,0.6
2025-06-12T2100,2324A,117.6211,26.2625,三明市,三钢,,13,13,14,3,5,31,,67,54,10,8,2,3,0.4,0.4
2025-06-12T2100,2325A,117.635,26.2714,三明市,三明二中,,18,,12,12,5,34,,65,53,6,6,2,2,0.4,0.4
2025-06-12T2100,2326A,117.6028,26.2378,三明市,三元区政府,,15,13,14,10,5,32,,70,55,10,9,2,4,0.4,0.5
2025-06-12T2100,2327A,117.7275,26.3108,三明市,洋溪,,,,,,,,,,,,,,,,
2025-06-12T2100,1876A,109.5078,18.2489,三亚市,河东子站,,,13,9,6,5,52,,54,54,1,2,,3,0.7,0.6
2025-06-12T2100,1877A,109.4964,18.2681,三亚市,河西子站,,19,6,7,3,4,58,,56,56,2,2,2,2,0.4,0.4
2025-06-12T2100,3540A,109.7348,18.3443,三亚市,君悦子站,,19,17,14,3,3,59,,58,58,3,3,1,1,0.4,0.4
2025-06-12T2100,2624A,91.7608,29.2313,山南市,山南监测站,,33,19,19,9,14,105,,118,117,12,6,10,8,0.3,0.2
2025-06-12T2100,2625A,91.7706,29.2436,山南市,山南人民医院,,35,23,29,12,14,109,,120,119,10,5,8,6,0.2,0.2
2025-06-12T2100,1674A,116.6794,23.3667,汕头市,金平子站,,39,,19,17,12,123,,118,118,5,4,3,3,0.5,0.4
2025-06-12T2100,1675A,116.7244,23.3633,汕头市,龙湖子站,,38,21,20,15,11,121,,117,117,6,5,5,5,0.4,0.4
2025-06-12T2100,1676A,116.7258,23.2775,汕头市,濠江子站,,34,6,23,3,11,108,,116,116,4,4,4,4,0.6,0.5
2025-06-12T2100,1677A,116.7519,23.4714,汕头市,澄海子站,,40,35,26,22,11,127,,114,114,9,6,2,2,0.6,0.5
2025-06-12T2100,1678A,116.6092,23.2539,汕头市,潮阳子站,,,33,22,16,9,115,,109,109,3,3,,4,0.4,0.4
2025-06-12T2100,3444A,116.454,23.2684,汕头市,潮南峡山,,30,29,20,16,12,94,,99,99,6,3,4,4,0.6,0.5
2025-06-12T2100,3624A,116.4069,23.2533,汕头市,潮南子站,,29,29,20,20,10,86,,85,85,6,4,4,4,0.5,0.5
2025-06-12T2100,1693A,115.3653,22.775,汕尾市,市环保局,,15,6,11,3,3,46,,56,56,4,6,2,2,0.4,0.4
2025-06-12T2100,1694A,115.3706,22.7898,汕尾市,市政府,,15,,14,3,7,47,,56,55,5,6,4,4,0.4,0.4
2025-06-12T2100,1695A,115.3622,22.7925,汕尾市,新城中学,,15,6,14,3,5,47,,56,56,4,6,3,2,0.4,0.4
2025-06-12T2100,2645A,109.9154,33.8715,商洛市,监测站,,44,44,46,27,25,130,,152,144,14,16,9,9,0.5,0.5
2025-06-12T2100,3045A,109.9643,33.8471,商洛市,商州区中学,,43,43,52,25,27,125,,147,139,20,24,9,6,0.5,0.4
2025-06-12T2100,2408A,115.6702,34.4285,商丘市,环境监测站,,,67,47,25,20,,,187,187,9,10,3,3,0.4,0.4
