timepoint,stationcode,longitude,latitude,area,positionname,primarypollutant,aqi,pm10,pm10_24h,pm2_5,pm2_5_24h,o3,o3_24h,o3_8h,o3_8h_24h,no2,no2_24h,so2,so2_24h,co,co_24h
2025-06-12T2300,2566A,102.1879,31.914,阿坝藏族羌族自治州,州农科所,,20,20,15,7,8,62,,102,92,10,9,12,12,0.5,0.5
2025-06-12T2300,2568A,102.2502,31.8896,阿坝藏族羌族自治州,马师校,,39,,17,27,18,52,,108,91,20,9,6,5,0.5,0.5
2025-06-12T2300,3994A,102.2165,31.9024,阿坝藏族羌族自治州,马尔康中学西区,,30,30,17,15,17,73,,116,104,11,6,5,5,0.5,0.5
2025-06-12T2300,2695A,80.292,41.1694,阿克苏地区,电视台,颗粒物(PM10),151,251,696,88,167,90,,102,102,19,14,4,4,0.3,0.3
2025-06-12T2300,2696A,80.2613,41.1551,阿克苏地区,艺术中心,颗粒物(PM10),150,249,740,78,191,85,,102,101,16,12,,3,0.5,0.4
2025-06-12T2300,2204A,105.6467,38.8363,阿拉善盟,西城区西花园,,39,39,64,16,31,113,,126,121,9,11,5,6,0.5,0.5
2025-06-12T2300,2205A,105.6985,38.8411,阿拉善盟,蒙二幼,,48,48,89,18,28,94,,106,101,2,6,8,9,0.3,0.3
2025-06-12T2300,2206A,105.724,38.8516,阿拉善盟,环保局新楼,,50,50,71,16,28,114,,119,118,3,4,9,9,0.3,0.3
2025-06-12T2300,2708A,88.1264,47.8517,阿勒泰地区,市站,,35,35,26,8,6,68,,96,92,14,6,2,2,0.5,0.4
2025-06-12T2300,2630A,80.1161,32.5,阿里地区,阿里监测站,,39,21,17,9,11,123,,138,135,7,13,4,2,0.3,0.3
2025-06-12T2300,3192A,80.0903,32.5028,阿里地区,阿里藏医院,,43,29,25,8,9,137,,147,142,1,6,6,6,0.4,0.4
2025-06-12T2300,2642A,109.0318,32.6537,安康市,香溪洞,,,,41,10,20,127,,146,143,6,7,6,6,0.3,0.4
2025-06-12T2300,2644A,109.0072,32.6975,安康市,汉滨区检察院,,46,46,39,13,19,74,,150,127,15,10,7,8,0.6,0.5
2025-06-12T2300,4054A,109.0325,32.6913,安康市,市邮政管理局,,40,40,40,18,18,76,,150,123,15,12,8,7,0.7,0.7
2025-06-12T2300,2291A,117.0809,30.5177,安庆市,环科院,,35,27,22,24,18,86,,106,95,9,9,4,4,0.7,0.6
2025-06-12T2300,2292A,117.0331,30.5119,安庆市,马山宾馆,,38,,22,26,18,74,,102,86,12,9,5,5,0.7,0.6
2025-06-12T2300,2294A,116.9896,30.6145,安庆市,安庆大学,,39,30,23,27,20,77,,91,82,7,8,4,4,0.6,0.5
2025-06-12T2300,3173A,117.0598,30.5351,安庆市,市人大,,32,28,25,22,17,84,,110,92,13,10,2,3,0.6,0.5
2025-06-12T2300,3122A,105.9606,26.2611,安顺市,伍家关,,,,45,37,32,36,,103,77,4,11,2,4,0.4,0.4
2025-06-12T2300,3123A,105.9408,26.2431,安顺市,凤凰山,,38,38,39,22,30,64,,145,119,7,17,5,8,0.4,0.5
2025-06-12T2300,3124A,105.9439,26.2564,安顺市,金钟山,,32,26,34,22,27,69,,154,125,5,7,7,10,0.3,0.3
2025-06-12T2300,3125A,105.8983,26.2481,安顺市,娄家坡,,,22,39,20,31,,,138,,5,10,7,10,0.4,0.4
2025-06-12T2300,1818A,114.4839,36.0621,安阳市,棉研所,,,,,,,,,,,,,,,,
2025-06-12T2300,1819A,114.3551,36.1017,安阳市,红庙街,颗粒物(PM10),51,52,57,18,25,153,,216,200,5,2,3,2,0.3,0.4
2025-06-12T2300,1820A,114.361,36.0681,安阳市,银杏小区,,50,50,54,21,34,148,,213,196,8,3,4,4,0.4,0.5
2025-06-12T2300,3141A,114.3922,36.0878,安阳市,信访局,颗粒物(PM10),55,60,62,28,31,155,,219,202,4,5,3,3,0.4,0.5
2025-06-12T2300,3669A,114.4705,36.0637,安阳市,左辅环卫站,颗粒物(PM10),54,58,68,25,30,141,,214,193,12,9,5,5,0.4,0.6
2025-06-12T2300,3703A,114.2917,36.0949,安阳市,安钢职工学校,颗粒物(PM10),52,54,56,22,32,145,,205,189,7,4,4,5,0.4,0.5
2025-06-12T2300,1748A,123.044,41.1196,鞍山市,深沟寺,,43,24,23,10,11,135,,144,122,10,15,7,8,0.5,0.6
2025-06-12T2300,1749A,123.011,41.0931,鞍山市,太阳城,,41,21,24,11,11,131,,137,117,8,14,6,9,0.5,0.6
2025-06-12T2300,1750A,123.0485,41.1442,鞍山市,太平,,39,31,33,13,11,122,,137,116,12,15,8,10,0.6,0.6
2025-06-12T2300,1751A,122.9642,41.0971,鞍山市,铁西三道街,,40,33,37,11,15,127,,130,113,18,23,7,10,0.5,0.8
2025-06-12T2300,1753A,123.022,41.0821,鞍山市,明达新区,,43,20,25,11,11,137,,135,119,7,13,8,10,0.4,0.6
2025-06-12T2300,1754A,123.1289,41.0228,鞍山市,千山,,,,17,,10,,,111,,,9,,4,,0.4
2025-06-12T2300,4201A,122.9446,41.0826,鞍山市,兴盛南路290号,,50,50,36,12,13,122,,128,109,23,25,9,10,1.0,0.7
2025-06-12T2300,2195A,107.4212,40.761,巴彦淖尔市,附二中,颗粒物(PM10),120,190,51,29,16,88,,93,79,5,8,7,7,0.3,0.3
2025-06-12T2300,2196A,107.37,40.7372,巴彦淖尔市,市环保大楼,颗粒物(PM10),131,212,45,28,16,99,,96,88,8,10,6,7,0.4,0.4
2025-06-12T2300,1956A,86.1472,41.7538,巴音郭楞蒙古自治州,孔雀公园,,42,,58,19,18,133,,122,122,5,10,7,10,0.1,0.2
2025-06-12T2300,1957A,86.1972,41.7166,巴音郭楞蒙古自治州,棉纺厂,颗粒物(PM10),51,52,81,3,13,116,,113,112,11,10,4,4,0.2,0.2
2025-06-12T2300,1958A,86.2357,41.7173,巴音郭楞蒙古自治州,经济开发区,,37,25,56,3,13,118,,117,117,7,5,9,8,0.1,0.2
2025-06-12T2300,2914A,106.7677,31.8794,巴中市,苏山坪,,47,34,31,20,19,150,,147,147,6,6,5,4,0.4,0.4
2025-06-12T2300,3181A,106.7768,31.8526,巴中市,市五中,,44,44,36,28,20,96,,148,139,13,12,7,7,0.6,0.6
2025-06-12T2300,3183A,106.7418,31.8654,巴中市,圣泉水务公司,,45,45,34,26,21,55,,147,124,48,20,6,5,0.6,0.5
2025-06-12T2300,3616A,106.7616,31.8344,巴中市,市中心医院,,44,44,36,18,23,85,,143,131,20,17,6,6,0.6,0.5
2025-06-12T2300,2235A,122.7911,45.6077,白城市,洮北区环保局,,40,23,29,13,17,128,,134,134,7,12,3,4,0.3,0.3
2025-06-12T2300,2236A,122.8738,45.5725,白城市,市环保局,,41,17,27,10,15,130,,139,139,5,10,5,5,0.4,0.4
2025-06-12T2300,2231A,126.4219,41.9171,白山市,喜丰,颗粒物(PM10),56,62,36,17,12,32,,130,86,42,25,7,9,0.7,0.6
2025-06-12T2300,2232A,126.4077,41.9419,白山市,环保局,,45,45,29,20,10,35,,131,92,31,16,2,7,0.6,0.4
2025-06-12T2300,2647A,104.1724,36.5446,白银市,第三小学,,34,33,77,16,30,107,,131,123,12,22,16,42,0.4,0.6
2025-06-12T2300,2648A,104.1465,36.5482,白银市,动力公司,,33,27,64,23,25,96,,125,119,21,22,13,22,0.3,0.4
2025-06-12T2300,2512A,106.6103,23.9011,百色市,市监测站,,28,28,26,15,14,34,,68,55,8,7,3,3,0.6,0.6
2025-06-12T2300,2513A,106.6538,23.8859,百色市,市中心血站,,38,38,31,22,18,29,,73,60,22,15,2,2,0.7,0.7
2025-06-12T2300,3406A,106.6085,23.8798,百色市,祈福高中,,42,42,28,19,15,22,,67,53,10,7,4,4,0.7,0.6
2025-06-12T2300,2270A,117.396,32.939,蚌埠市,工人疗养院,,47,47,49,26,25,81,,129,105,9,18,4,5,0.6,0.5
2025-06-12T2300,2271A,117.3605,32.9427,蚌埠市,百货大楼,,39,39,44,22,24,76,,125,104,12,18,3,5,0.6,0.5
2025-06-12T2300,2273A,117.4185,32.8911,蚌埠市,蚌埠学院,,46,36,36,32,32,74,,124,103,12,12,4,4,0.6,0.5
2025-06-12T2300,2274A,117.3533,32.9673,蚌埠市,淮上区政府,,40,36,46,28,29,83,,131,108,11,17,5,6,0.6,0.5
2025-06-12T2300,2275A,117.3145,32.8977,蚌埠市,高新区,,40,39,42,28,26,72,,118,100,16,15,5,5,0.7,0.5
2025-06-12T2300,3715A,117.3092,32.9314,蚌埠市,蚌埠田家炳中学,,43,43,45,27,30,74,,121,101,11,11,5,6,0.5,0.4
2025-06-12T2300,1585A,109.8756,40.6532,包头市,市环境监测站,,37,23,61,13,25,116,,138,108,12,15,11,16,0.7,0.7
2025-06-12T2300,1587A,109.9991,40.5842,包头市,包头八中,,39,38,74,27,28,121,,152,117,14,15,16,17,0.7,0.7
2025-06-12T2300,1588A,109.8538,40.6821,包头市,青山宾馆,,35,21,53,20,24,109,,129,105,12,16,10,14,0.5,0.6
2025-06-12T2300,1589A,109.8642,40.6288,包头市,惠龙物流,,39,33,60,13,18,122,,144,111,13,13,14,11,0.6,0.4
2025-06-12T2300,1590A,110.0377,40.5546,包头市,东河鸿龙湾,,,48,80,3,15,,,146,,16,18,16,20,0.6,0.7
2025-06-12T2300,3283A,109.9154,40.5685,包头市,滨河大厦,,41,29,55,18,20,129,,149,121,11,15,12,13,0.5,0.5
2025-06-12T2300,3419A,109.9447,40.6261,包头市,包头市委党校,,40,24,56,9,19,125,,149,113,10,11,11,14,0.6,0.8
2025-06-12T2300,3683A,109.8331,40.6576,包头市,昆区政府,,35,25,58,20,22,112,,126,105,15,18,11,12,0.6,0.6
2025-06-12T2300,1930A,107.185,34.3063,宝鸡市,庙沟村,,46,28,36,16,22,146,,188,163,10,11,5,10,0.5,0.5
2025-06-12T2300,1931A,107.0708,34.3017,宝鸡市,竹园沟,,44,34,40,24,24,138,,177,151,8,13,5,8,0.3,0.3
2025-06-12T2300,1932A,107.1906,34.3672,宝鸡市,三陆医院,,35,33,47,24,26,101,,182,148,30,31,5,9,0.5,0.5
2025-06-12T2300,1933A,107.1431,34.3547,宝鸡市,监测站,,44,44,53,28,25,84,,179,136,31,21,6,10,0.4,0.4
2025-06-12T2300,1934A,107.1186,34.3739,宝鸡市,技工学校,,38,30,46,26,24,118,,182,153,13,11,8,10,0.6,0.6
2025-06-12T2300,1935A,107.3906,34.3528,宝鸡市,陈仓区环保局家属楼,,40,38,47,28,26,95,,188,164,27,20,5,7,0.4,0.5
2025-06-12T2300,1936A,107.2058,34.3497,宝鸡市,文理学院,,40,40,44,26,26,109,,190,154,24,17,5,9,0.6,0.5
2025-06-12T2300,1937A,107.2386,34.3622,宝鸡市,三迪小学,,36,,49,25,29,100,,186,153,26,24,5,10,0.5,0.5
2025-06-12T2300,1051A,115.493,38.8632,保定市,游泳馆,颗粒物(PM10),84,117,97,34,37,165,,222,212,16,13,3,3,0.2,0.1
2025-06-12T2300,1052A,115.5213,38.8959,保定市,华电二区,颗粒物(PM10),71,91,76,49,35,156,,217,198,14,9,4,3,0.3,0.3
2025-06-12T2300,1053A,115.4713,38.9108,保定市,接待中心,"颗粒物(PM10),臭氧1小时",62,74,72,25,32,169,,218,205,10,9,2,2,0.3,0.4
2025-06-12T2300,1054A,115.4612,38.8416,保定市,地表水厂,颗粒物(PM10),82,114,96,34,30,160,,224,201,24,19,4,3,0.3,0.4
2025-06-12T2300,3581A,115.31981,38.95208,保定市,满城区生态环境分局,颗粒物(PM10),87,124,124,36,34,166,,227,210,12,10,6,5,0.3,0.4
2025-06-12T2300,3582A,115.47694,38.76408,保定市,清苑区第二中学,颗粒物(PM10),103,156,127,64,41,140,,226,197,24,11,4,3,0.5,0.4
2025-06-12T2300,3583A,115.62909,39.02311,保定市,徐水物探局,颗粒物(PM10),104,157,132,39,32,149,,223,203,18,10,2,2,0.4,0.4
2025-06-12T2300,4004A,115.4202,38.8656,保定市,双鹰农机,颗粒物(PM10),65,80,80,42,28,171,,226,208,16,16,4,3,0.3,0.3
2025-06-12T2300,4034A,115.5150,38.8590,保定市,植保所站,颗粒物(PM10),94,138,100,47,35,127,,213,187,28,12,6,7,0.5,0.4
2025-06-12T2300,2594A,99.1678,25.1081,保山市,市环境监测站,,46,38,34,32,23,96,,137,120,7,9,8,8,0.5,0.5
2025-06-12T2300,2595A,99.1711,25.1328,保山市,市环保局,,35,34,35,18,19,111,,140,127,4,7,6,5,0.4,0.4
2025-06-12T2300,1866A,109.2262,21.588,北海市,牛尾岭水库,,,4,13,,5,42,,66,54,5,5,2,2,0.5,0.5
2025-06-12T2300,1867A,109.1436,21.4086,北海市,海滩公园,,11,6,19,3,5,34,,54,48,6,7,2,2,0.4,0.7
2025-06-12T2300,1868A,109.0981,21.4661,北海市,新市环保局,,15,9,16,9,10,46,,66,60,8,8,2,3,0.5,0.5
2025-06-12T2300,1869A,109.1778,21.5233,北海市,北海工业园,,13,10,20,7,9,40,,58,54,8,10,3,3,0.5,0.5
2025-06-12T2300,3400A,109.1911,21.4415,北海市,龙潭自来水厂,,13,13,16,8,10,33,,54,48,6,7,3,3,0.5,0.5
2025-06-12T2300,1001A,116.3621,39.8784,北京市,万寿西宫,颗粒物(PM10),70,89,91,27,34,173,,231,221,24,21,6,6,0.5,0.6
2025-06-12T2300,1002A,116.2202,40.2915,北京市,定陵,,,,,,,,,,,,,,,,
2025-06-12T2300,1003A,116.4174,39.9289,北京市,东四,颗粒物(PM10),69,87,99,17,35,170,,239,228,26,24,8,6,0.3,0.4
2025-06-12T2300,1004A,116.4072,39.8863,北京市,天坛,颗粒物(PM10),63,76,88,22,33,166,,234,222,22,21,5,4,0.6,0.5
2025-06-12T2300,1005A,116.462,39.9365,北京市,农展馆,颗粒物(PM10),66,81,98,20,36,153,,218,206,18,21,8,6,0.9,0.7
2025-06-12T2300,1006A,116.3392,39.9295,北京市,官园,颗粒物(PM10),73,96,98,28,34,165,,223,214,22,20,5,5,0.6,0.6
2025-06-12T2300,1007A,116.2878,39.9611,北京市,海淀万柳,颗粒物(PM10),69,87,94,25,34,163,,206,200,22,24,6,5,0.5,0.5
2025-06-12T2300,1008A,116.6636,40.135,北京市,顺义新城,颗粒物(PM10),56,62,85,19,28,151,,209,197,15,18,6,5,0.5,0.5
2025-06-12T2300,1009A,116.6275,40.3275,北京市,怀柔镇,臭氧1小时,74,56,78,18,29,179,,227,216,10,15,5,5,0.6,0.6
2025-06-12T2300,1010A,116.2296,40.217,北京市,昌平镇,臭氧1小时,84,99,87,27,31,187,,228,218,18,20,7,6,0.1,0.4
2025-06-12T2300,1011A,116.3966,39.9821,北京市,奥体中心,颗粒物(PM10),64,77,88,21,33,151,,208,199,20,23,7,6,0.8,0.7
2025-06-12T2300,3281A,115.9718,40.4529,北京市,延庆夏都,,48,35,83,14,33,151,,226,207,6,15,4,6,0.4,0.5
2025-06-12T2300,3418A,116.8336,40.4095,北京市,密云新城,臭氧1小时,90,54,73,18,29,192,,234,228,8,14,5,6,0.3,0.5
2025-06-12T2300,3671A,116.088,39.9726,北京市,门头沟三家店,颗粒物(PM10),78,106,101,32,34,160,,214,198,20,28,5,4,0.2,0.3
2025-06-12T2300,3672A,116.1541,39.8204,北京市,丰台云岗,臭氧1小时,70,80,103,24,35,176,,234,217,13,18,10,9,0.6,0.6
2025-06-12T2300,3673A,116.6804,39.9081,北京市,通州东关,颗粒物(PM10),64,77,93,22,33,151,,233,215,18,19,4,5,0.6,0.7
2025-06-12T2300,3674A,115.9577,39.7603,北京市,房山燕山,颗粒物(PM10),76,102,100,36,42,147,,220,196,16,16,3,4,0.5,0.6
2025-06-12T2300,3675A,116.4672,39.7733,北京市,大兴旧宫,颗粒物(PM10),66,81,92,21,32,149,,226,211,22,18,4,3,0.7,0.6
2025-06-12T2300,3694A,115.986,40.4563,北京市,延庆石河营,,50,39,81,16,33,158,,228,210,5,14,2,4,0.3,0.5
2025-06-12T2300,3695A,116.6151,40.3053,北京市,怀柔新城,臭氧1小时,68,54,73,20,32,174,,229,216,12,15,4,4,0.4,0.5
2025-06-12T2300,3696A,116.2545,39.8768,北京市,丰台小屯,颗粒物(PM10),61,72,94,21,35,163,,208,196,18,22,6,4,0.5,0.6
2025-06-12T2300,3697A,116.84,40.3844,北京市,密云镇,臭氧1小时,82,59,75,19,31,185,,234,226,8,18,8,8,0.4,0.5
2025-06-12T2300,4182A,116.1942,39.9158,北京市,八角北路9号,颗粒物(PM10),68,85,117,23,38,168,,200,189,18,28,4,4,0.5,0.6
2025-06-12T2300,4194A,117.0790,40.1518,北京市,洳河巡河路,臭氧1小时,55,49,77,14,27,164,,232,219,6,10,7,6,0.6,0.6
2025-06-12T2300,1761A,123.8275,41.3064,本溪市,大峪,,44,24,26,9,10,138,,151,144,6,12,7,7,0.2,0.4
2025-06-12T2300,1762A,123.7567,41.3325,本溪市,溪湖,,40,27,39,12,16,128,,154,140,20,20,16,10,1.4,1.1
2025-06-12T2300,1763A,123.7169,41.3094,本溪市,彩屯,,34,34,37,19,20,106,,157,136,44,33,21,17,2.0,1.8
2025-06-12T2300,1764A,123.7669,41.2864,本溪市,东明,,48,29,34,10,15,151,,166,158,9,17,7,7,0.5,0.7
2025-06-12T2300,1765A,123.7992,41.2664,本溪市,新立屯,,42,23,24,9,10,134,,155,143,13,19,6,6,0.4,0.5
2025-06-12T2300,1766A,123.8142,41.3472,本溪市,威宁,,,22,37,10,15,,,157,,12,20,5,6,0.4,0.6
2025-06-12T2300,2587A,105.2864,27.3125,毕节市,八中,颗粒物(PM10),51,51,36,30,24,72,,130,108,14,11,5,6,0.5,0.4
2025-06-12T2300,2588A,105.31,27.2944,毕节市,师专,颗粒物(PM10),57,64,47,35,24,75,,139,120,21,14,5,6,0.6,0.5
2025-06-12T2300,4263A,105.3688,27.3598,毕节市,工业大道,颗粒物(PM10),51,52,41,32,26,74,,143,119,31,20,11,8,0.7,0.6
2025-06-12T2300,1629A,118.0018,37.3617,滨州市,第二水厂,细颗粒物(PM2.5),92,112,73,68,31,76,,198,143,27,22,8,8,0.5,0.5
2025-06-12T2300,1630A,117.9776,37.393,滨州市,北中新校,细颗粒物(PM2.5),79,100,56,58,20,76,,204,147,25,19,17,16,0.5,0.4
2025-06-12T2300,3514A,117.9378,37.3956,滨州市,中海酒店,颗粒物(PM10),58,66,54,39,22,91,,232,172,27,18,11,11,0.8,0.7
2025-06-12T2300,3515A,117.9378,37.3553,滨州市,开发区一中,颗粒物(PM10),58,66,70,14,17,76,,211,153,37,24,10,10,0.6,0.6
2025-06-12T2300,3516A,118.0917,37.694,滨州市,金海六路,颗粒物(PM10),63,76,67,22,15,88,,222,152,26,20,10,12,0.2,0.3
2025-06-12T2300,4028A,117.9956,37.3753,滨州市,滨州市西街道办事处,细颗粒物(PM2.5),92,95,66,68,24,85,,212,154,24,20,11,10,0.6,0.6
2025-06-12T2300,2311A,115.8072,33.8399,亳州市,污水处理厂,,31,31,31,21,17,86,,174,146,10,7,4,5,0.6,0.4
2025-06-12T2300,2312A,115.7789,33.8518,亳州市,三国揽胜宫,,46,46,39,32,22,90,,175,150,11,12,2,3,0.4,0.3
2025-06-12T2300,3332A,115.7633,33.8034,亳州市,亳州学院,,48,,30,33,23,85,,178,146,9,10,2,3,0.5,0.4
2025-06-12T2300,2693A,82.0485,44.8556,博尔塔拉蒙古自治州,市党校,,35,35,30,12,14,109,,120,119,9,11,2,2,0.2,0.2
2025-06-12T2300,2694A,82.0806,44.8969,博尔塔拉蒙古自治州,市环保局,颗粒物(PM10),62,74,35,24,13,77,,121,115,22,10,1,1,0.5,0.4
2025-06-12T2300,1071A,116.8842,38.2991,沧州市,沧县城建局,颗粒物(PM10),90,130,82,66,30,113,,219,190,49,23,5,4,0.4,0.5
2025-06-12T2300,1072A,116.8584,38.3254,沧州市,电视转播站,细颗粒物(PM2.5),110,133,87,83,38,118,,212,190,31,18,6,4,0.5,0.4
2025-06-12T2300,1073A,116.8709,38.3228,沧州市,市环保局,颗粒物(PM10),91,131,96,48,34,105,,203,180,39,17,3,4,0.4,0.4
2025-06-12T2300,3324A,116.8136,38.3004,沧州市,河北水利电力学院,颗粒物(PM10),98,146,108,48,34,141,,235,213,38,20,4,4,0.5,0.3
2025-06-12T2300,2622A,97.1806,31.1273,昌都市,昌都监测站,,35,14,22,14,12,111,,136,126,4,6,4,4,0.2,0.3
2025-06-12T2300,3719A,97.1714,31.1406,昌都市,昌都会议中心,,34,17,19,12,12,107,,132,124,7,8,3,4,0.2,0.2
2025-06-12T2300,2690A,88.1236,43.8886,昌吉回族自治州,天山天池,,23,22,13,3,6,71,,116,101,5,5,4,4,0.5,0.5
2025-06-12T2300,2692A,87.2717,44.0297,昌吉回族自治州,新区政务中心,,33,33,29,7,12,92,,133,127,20,14,8,9,0.4,0.5
2025-06-12T2300,3613A,87.3095,44.0142,昌吉回族自治州,亚心广场,,41,41,38,19,22,75,,122,115,44,19,10,9,0.4,0.3
2025-06-12T2300,1119A,125.3325,43.9166,长春市,食品厂,,,,,,,,,,,,,,,,
2025-06-12T2300,1120A,125.2863,43.9027,长春市,客车厂,,30,26,30,14,14,93,,150,121,27,23,7,6,0.3,0.3
2025-06-12T2300,1121A,125.2841,43.8463,长春市,邮电学院,,31,28,26,17,12,99,,157,132,24,19,7,6,0.3,0.3
2025-06-12T2300,1122A,125.3716,43.8772,长春市,劳动公园,,32,23,28,3,10,100,,154,132,21,20,7,7,0.5,0.5
2025-06-12T2300,1123A,125.3297,43.8805,长春市,园林处,,31,23,28,8,12,97,,156,131,23,19,7,7,0.4,0.3
2025-06-12T2300,1124A,125.4605,43.79,长春市,净月潭,,35,30,26,9,10,111,,152,133,17,15,6,6,0.2,0.3
2025-06-12T2300,1125A,125.7194,43.515,长春市,甩湾子,,,,,,,,,,,,,,,,
2025-06-12T2300,1126A,125.3863,43.8447,长春市,经开区环卫处,,34,34,37,10,9,96,,143,123,22,27,6,6,0.1,0.2
2025-06-12T2300,1127A,125.245,43.7783,长春市,高新区管委会,,30,30,28,13,13,92,,152,124,27,23,4,5,0.3,0.4
2025-06-12T2300,1128A,125.1761,43.8325,长春市,岱山公园,,25,21,29,12,14,80,,148,114,38,25,6,5,0.2,0.2
2025-06-12T2300,1335A,113.0833,28.2325,长沙市,经开区环保局,,23,23,16,13,12,41,,72,62,19,11,3,3,0.5,0.5
2025-06-12T2300,1336A,112.8872,28.2189,长沙市,高开区环保局,,37,37,23,14,9,37,,86,75,23,11,3,3,1.0,0.8
2025-06-12T2300,1337A,113.0792,28.2053,长沙市,马坡岭,,31,31,18,16,11,37,,77,65,22,10,4,4,0.7,0.6
2025-06-12T2300,1338A,112.9394,28.19,长沙市,湖南师范大学,,49,49,21,18,10,30,,82,70,23,10,1,3,0.6,0.5
2025-06-12T2300,1339A,113.0178,28.1322,长沙市,雨花区环保局,,26,26,18,11,9,40,,83,69,21,9,5,4,0.7,0.6
2025-06-12T2300,1340A,112.9792,28.2597,长沙市,伍家岭,,36,36,22,18,13,22,,78,62,24,11,2,2,0.6,0.5
2025-06-12T2300,1341A,113.0014,28.1944,长沙市,火车新站,,27,27,19,17,8,41,,79,68,21,11,6,6,0.6,0.6
2025-06-12T2300,1342A,112.9844,28.1178,长沙市,天心区环保局,,26,26,18,13,10,43,,84,72,21,12,2,1,0.6,0.5
2025-06-12T2300,1343A,112.8908,28.1308,长沙市,湖南中医药大学,,37,37,21,24,11,18,,85,66,28,11,2,2,0.7,0.6
2025-06-12T2300,1344A,112.9581,28.3611,长沙市,沙坪,,29,29,20,10,10,18,,70,46,8,7,3,3,0.7,0.6
2025-06-12T2300,1727A,113.1147,36.1547,长治市,清华站,臭氧1小时,84,43,41,24,22,187,,195,195,12,9,5,5,0.7,0.7
2025-06-12T2300,1730A,113.0886,36.2125,长治市,审计局,臭氧1小时,75,53,42,19,23,180,,197,197,11,10,10,9,0.7,0.6
2025-06-12T2300,1731A,113.0844,36.1856,长治市,长治八中,臭氧1小时,97,53,50,31,31,197,,196,196,10,8,11,10,0.9,0.8
2025-06-12T2300,2845A,113.1569,36.1911,长治市,德盛苑,,,57,41,41,22,182,,190,190,,9,7,7,0.7,0.7
2025-06-12T2300,3568A,113.06,36.0464,长治市,向阳小学,臭氧1小时,70,68,74,40,31,176,,196,196,16,11,5,5,0.7,0.7
2025-06-12T2300,3569A,112.8792,36.3144,长治市,屯留一中,臭氧1小时,84,46,37,28,33,187,,188,188,14,14,5,6,0.4,0.5
2025-06-12T2300,4189A,113.1131,36.19948,长治市,英华南巷50号,,,46,45,22,24,188,,194,194,,4,8,7,0.3,0.6
2025-06-12T2300,4190A,113.2367,36.3344,长治市,学府街1号,臭氧1小时,107,62,56,27,27,213,,214,214,11,12,2,3,0.7,0.7
2025-06-12T2300,1854A,111.6975,28.9703,常德市,市二中,,38,,25,26,21,55,,105,84,10,9,7,6,0.8,0.8
2025-06-12T2300,1857A,111.7158,29.1456,常德市,白鹤山,,,,,,,,,,,,,,,,
2025-06-12T2300,3138A,111.7153,29.0289,常德市,武陵区永安,,28,27,27,19,20,55,,111,92,7,5,7,4,0.7,0.6
2025-06-12T2300,3139A,111.6892,28.9881,常德市,鼎城区玉霞,,30,30,27,20,20,45,,115,90,18,8,8,6,0.6,0.4
2025-06-12T2300,3140A,111.6625,29.0531,常德市,武陵区长庚,,26,26,25,17,17,53,,113,95,18,6,12,4,0.6,0.6
2025-06-12T2300,1196A,119.9633,31.762,常州市,市监测站,,35,35,41,23,20,22,,92,62,49,13,8,7,0.7,0.5
2025-06-12T2300,1200A,119.9468,31.7069,常州市,武进监测站,,,36,36,21,22,22,,90,66,55,29,,4,0.9,1
2025-06-12T2300,1201A,119.9255,31.9087,常州市,安家,,36,36,36,21,17,31,,100,75,32,19,5,7,0.6,0.5
2025-06-12T2300,3002A,119.9805,31.8174,常州市,行政中心,,32,32,38,18,16,28,,102,74,42,24,8,6,0.5,0.4
2025-06-12T2300,3003A,120.0522,31.7748,常州市,经开区,,30,30,25,18,17,22,,101,68,46,25,5,5,0.3,0.3
2025-06-12T2300,3010A,119.9025,31.7964,常州市,钟楼,,37,37,34,22,18,28,,93,69,42,25,7,6,0.7,0.5
2025-06-12T2300,3429A,119.8598,31.7066,常州市,武进经发区,,38,38,39,14,16,27,,88,63,42,25,4,5,1.0,1
2025-06-12T2300,3430A,119.5826,31.7245,常州市,金坛城区,,20,20,16,12,16,45,,98,74,27,25,8,7,0.5,0.6
2025-06-12T2300,2220A,120.4318,41.5881,朝阳市,西梁,,35,20,46,6,23,112,,167,149,10,15,7,10,0.3,0.6
2025-06-12T2300,2221A,120.4521,41.5646,朝阳市,河畔小区,,40,17,46,12,23,128,,180,161,9,13,6,8,0.3,0.6
2025-06-12T2300,2222A,120.4176,41.5648,朝阳市,八里堡,,35,24,61,13,22,112,,184,158,12,18,5,9,0.3,0.6
2025-06-12T2300,2223A,120.3806,41.5969,朝阳市,农业园区,,30,14,44,8,29,96,,162,148,15,20,6,6,0.4,0.6
2025-06-12T2300,1705A,116.6367,23.6719,潮州市,西园路,,34,34,20,13,9,81,,81,81,14,8,9,3,0.7,0.6
2025-06-12T2300,3026A,116.6183,23.6608,潮州市,市政府,,33,33,28,14,11,71,,77,77,14,8,8,4,0.6,0.5
2025-06-12T2300,4036A,116.6461,23.6761,潮州市,金山,,27,27,24,18,10,83,,79,79,6,4,13,9,0.6,0.5
2025-06-12T2300,2472A,113.0073,25.9061,郴州市,马头岭,,25,25,21,12,11,28,,55,40,20,10,7,12,0.4,0.4
2025-06-12T2300,2473A,113.0116,25.8226,郴州市,市职中,,19,14,23,13,21,38,,63,49,9,8,3,8,0.3,0.7
2025-06-12T2300,2475A,113.0383,25.8071,郴州市,市审计局,,22,22,26,14,19,42,,61,53,6,6,3,10,0.6,1
2025-06-12T2300,2476A,113.0348,25.7759,郴州市,市环保局,,19,19,31,8,19,45,,71,58,10,10,5,13,0.2,0.3
2025-06-12T2300,4252A,113.0138,25.8011,郴州市,好美居路49号,,19,16,39,13,20,56,,77,65,8,7,5,11,0.7,0.8
2025-06-12T2300,1431A,103.9728,30.7236,成都市,金泉两河,细颗粒物(PM2.5),73,71,48,53,27,86,,222,175,45,24,3,7,0.9,0.7
2025-06-12T2300,1432A,104.176,30.6872,成都市,十里店,,50,50,57,20,32,134,,216,181,26,25,5,10,0.6,0.7
2025-06-12T2300,1433A,104.079,30.5706,成都市,三瓦窑,颗粒物(PM10),61,71,55,35,32,74,,196,160,58,56,4,6,0.7,0.8
2025-06-12T2300,1434A,104.1114,30.63,成都市,沙河铺,,,42,52,30,36,,,183,161,29,24,232,16,1.1,0.7
2025-06-12T2300,1437A,104.0786,30.6531,成都市,君平街,细颗粒物(PM2.5),65,51,52,47,31,114,,161,143,31,28,5,8,0.7,0.7
2025-06-12T2300,1438A,103.613,31.0283,成都市,灵岩寺,,,,,,,,,,,,,,,,
2025-06-12T2300,2880A,104.0239,30.65639,成都市,大石西路,细颗粒物(PM2.5),67,68,51,48,31,132,,204,171,26,26,5,7,0.6,0.7
2025-06-12T2300,3136A,104.2725,30.5589,成都市,龙泉驿区区政府,,45,24,33,14,18,142,,195,177,10,12,5,6,0.6,0.7
2025-06-12T2300,3357A,104.0106,30.6931,成都市,金博路,颗粒物(PM10),59,68,46,38,23,108,,202,163,49,35,9,12,0.8,0.7
2025-06-12T2300,3359A,104.0578,30.5225,成都市,华阳,,36,27,47,22,32,114,,182,156,21,31,7,8,0.8,0.6
2025-06-12T2300,3488A,104.3853,30.7453,成都市,青白江技师分院,颗粒物(PM10),52,53,48,35,29,142,,224,191,24,24,6,7,0.5,0.6
2025-06-12T2300,3489A,104.0789,30.4072,成都市,科学城,,46,32,46,22,32,145,,199,179,13,21,4,4,0.5,0.6
2025-06-12T2300,4011A,103.8506,30.6947,成都市,光华大道三段,细颗粒物(PM2.5),64,68,47,46,25,121,,228,194,29,17,5,7,0.8,0.7
2025-06-12T2300,4224A,104.2433,30.5353,成都市,鲸龙路1057号,颗粒物(PM10),72,94,57,24,27,151,,196,177,14,29,8,8,0.6,0.7
2025-06-12T2300,1062A,117.9531,40.9081,承德市,铁路,臭氧1小时,98,72,63,30,26,198,,229,228,15,17,8,5,0.6,0.5
2025-06-12T2300,1063A,117.9392,40.9763,承德市,中国银行,臭氧1小时,83,76,62,32,25,186,,226,225,10,16,2,2,0.4,0.4
2025-06-12T2300,1064A,117.9503,40.928,承德市,开发区,臭氧1小时,108,67,69,35,28,216,,241,241,11,15,7,5,0.6,0.5
2025-06-12T2300,1065A,117.8051,40.9655,承德市,文化中心,,50,37,71,11,25,159,,235,229,12,22,1,5,0.2,0.4
2025-06-12T2300,1066A,117.9268,41.0026,承德市,离宫,臭氧1小时,74,62,49,37,32,179,,237,233,8,11,1,2,0.3,0.4
2025-06-12T2300,2314A,117.47,30.6618,池州市,池州学院,,42,38,26,29,17,59,,112,98,24,10,10,6,0.6,0.5
2025-06-12T2300,3237A,117.4918,30.6617,池州市,展览馆,,43,43,27,22,15,57,,113,97,22,10,7,6,0.8,0.7
2025-06-12T2300,3333A,117.5627,30.695,池州市,第八中学,,38,38,26,24,15,54,,112,96,20,8,7,6,0.6,0.6
2025-06-12T2300,3334A,117.5038,30.6243,池州市,第十二中学,,43,38,25,30,18,54,,117,98,22,9,9,4,0.9,0.8
2025-06-12T2300,1744A,118.9233,42.2816,赤峰市,松山一中,臭氧1小时,65,9,45,3,20,172,,190,149,11,23,5,7,0.5,0.7
2025-06-12T2300,1745A,118.9576,42.2728,赤峰市,哈达街,,44,25,45,18,27,140,,165,107,12,26,10,12,0.4,0.7
2025-06-12T2300,1746A,118.8788,42.2554,赤峰市,天义路,,46,16,38,9,30,146,,179,119,8,19,7,9,0.3,0.5
2025-06-12T2300,3058A,119.2658,42.0353,赤峰市,银河街,,44,28,54,28,29,138,,134,134,8,16,5,16,0.7,0.9
2025-06-12T2300,3286A,118.9359,42.3147,赤峰市,桥北物流园区,,43,28,44,3,23,137,,170,126,1,19,7,9,0.8,0.8
2025-06-12T2300,2521A,107.3476,22.4136,崇左市,市环保局江州分局,,22,22,26,10,12,29,,70,51,15,12,5,6,0.5,0.5
2025-06-12T2300,4256A,107.3750,22.3736,崇左市,石景林东路7号,,23,23,19,8,12,17,,74,50,26,13,2,2,0.5,0.5
2025-06-12T2300,2298A,118.3093,32.3153,滁州市,老年大学,细颗粒物(PM2.5),62,57,46,44,29,42,,92,73,38,25,8,8,0.7,0.5
2025-06-12T2300,2299A,118.3244,32.2786,滁州市,人大宾馆,细颗粒物(PM2.5),88,,36,65,36,53,,88,73,22,22,7,6,0.5,0.4
2025-06-12T2300,3207A,118.3118,32.3038,滁州市,市政府原办公楼,细颗粒物(PM2.5),77,,36,56,35,49,,94,79,28,19,5,6,0.7,0.5
2025-06-12T2300,3331A,118.3267,32.2634,滁州市,图书馆,细颗粒物(PM2.5),65,,38,47,29,48,,86,70,22,18,9,9,0.7,0.5
2025-06-12T2300,2605A,101.5482,25.0441,楚雄彝族自治州,州环境监测站,细颗粒物(PM2.5),57,50,33,40,25,45,,137,118,53,23,12,10,0.6,0.5
2025-06-12T2300,2606A,101.538,25.0492,楚雄彝族自治州,市经济开发区,颗粒物(PM10),67,84,36,45,25,62,,137,118,36,18,10,8,0.6,0.5
2025-06-12T2300,2548A,107.5277,31.2827,达州市,达州职业技术学院,颗粒物(PM10),52,53,43,22,15,40,,149,98,40,25,6,8,1.0,0.7
2025-06-12T2300,2549A,107.5086,31.2186,达州市,市环境监测站,,48,48,39,19,14,38,,142,106,49,30,6,8,0.6,0.4
2025-06-12T2300,2550A,107.4988,31.2132,达州市,凤凰小区,,46,46,37,22,16,48,,151,104,46,25,7,9,0.7,0.5
2025-06-12T2300,2551A,107.5082,31.1986,达州市,达县机关宾馆,颗粒物(PM10),53,56,40,24,10,8,,143,78,80,31,6,7,0.6,0.5
2025-06-12T2300,2552A,107.4644,31.2124,达州市,市政中心,颗粒物(PM10),56,62,42,24,15,23,,127,83,60,26,3,4,0.8,0.5
2025-06-12T2300,2614A,100.1542,25.7054,大理白族自治州,大理市环境监测站,,46,43,28,32,22,92,,142,129,22,14,6,7,0.5,0.5
2025-06-12T2300,2615A,100.2171,25.5811,大理白族自治州,大理古城,细颗粒物(PM2.5),54,,25,38,18,92,,131,122,17,12,9,10,0.7,0.7
2025-06-12T2300,1109A,121.612,38.9741,大连市,甘井子,,31,26,25,10,10,99,,114,108,17,25,5,6,0.3,0.2
2025-06-12T2300,1110A,121.565,38.9511,大连市,周水子,,34,23,24,7,9,106,,130,124,11,19,7,8,0.3,0.3
2025-06-12T2300,1111A,121.5637,38.8845,大连市,星海三站,,33,24,20,7,10,105,,109,108,8,14,5,6,0.3,0.3
2025-06-12T2300,1112A,121.6302,38.9117,大连市,青泥洼桥,,35,13,14,9,7,111,,126,121,11,17,7,7,0.2,0.3
2025-06-12T2300,1113A,121.6251,38.8638,大连市,傅家庄,,33,22,22,7,10,105,,100,100,11,24,7,8,0.1,0.1
2025-06-12T2300,1114A,121.5213,38.8661,大连市,七贤岭,,37,23,25,7,10,117,,119,119,8,19,9,10,0.4,0.3
2025-06-12T2300,1115A,121.2529,38.8061,大连市,旅顺,,35,18,18,7,10,109,,108,107,8,20,4,4,0.2,0.2
2025-06-12T2300,1116A,121.7485,39.1311,大连市,金州,,33,24,20,8,8,105,,141,129,17,19,10,10,0.2,0.2
2025-06-12T2300,1117A,121.7811,39.0496,大连市,开发区,,28,22,26,8,9,88,,118,108,27,26,4,3,0.3,0.3
2025-06-12T2300,1118A,121.9762,39.0631,大连市,双D港,,26,14,15,8,10,82,,92,92,19,27,8,9,0.3,0.3
2025-06-12T2300,1789A,124.81117,46.03138,大庆市,大同区,颗粒物(PM10),55,60,45,37,21,99,,112,112,14,19,8,6,0.6,0.5
2025-06-12T2300,1790A,125.129,46.533,大庆市,龙凤区,,43,43,33,21,16,104,,108,108,13,16,6,8,0.8,0.7
2025-06-12T2300,1791A,124.902,46.408,大庆市,红岗区,细颗粒物(PM2.5),55,41,29,39,23,101,,116,116,12,13,11,10,0.7,0.6
2025-06-12T2300,1792A,125.153,46.586,大庆市,萨尔图区,,43,39,37,30,18,98,,97,97,14,17,10,9,0.5,0.4
2025-06-12T2300,1793A,124.9042,46.6215,大庆市,让胡路区,,42,38,27,29,21,110,,103,103,10,16,4,4,0.6,0.5
2025-06-12T2300,3481A,125.141,46.634,大庆市,萨区政府监测点,颗粒物(PM10),51,51,39,17,13,109,,120,120,10,14,7,7,0.5,0.4
2025-06-12T2300,1721A,113.3819,40.1097,大同市,果树场,,,,,,,,,,,,,,,,
2025-06-12T2300,1723A,113.2994,40.0758,大同市,云冈宾馆,,38,38,65,19,27,114,,198,159,16,15,5,7,0.5,0.7
2025-06-12T2300,1724A,113.3444,40.0917,大同市,大同大学,,38,27,58,15,27,119,,204,158,13,12,15,14,0.4,0.6
2025-06-12T2300,1725A,113.2661,40.1269,大同市,安家小村,,32,28,68,3,19,101,,199,155,20,14,5,6,0.9,0.6
2025-06-12T2300,1726A,113.2711,40.0844,大同市,教育学院,,35,28,67,16,28,111,,198,157,15,16,6,8,0.5,0.6
2025-06-12T2300,3282A,113.3397,40.0597,大同市,大同市卫生学校,,34,29,62,13,27,107,,188,151,15,14,8,9,0.6,0.7
2025-06-12T2300,3565A,113.1367,40.1122,大同市,云冈站,,37,28,85,18,40,117,,200,154,12,18,6,8,0.1,0.2
2025-06-12T2300,3566A,113.1186,40.2556,大同市,图书馆,,39,32,67,13,28,123,,191,150,7,15,6,8,0.6,0.7
2025-06-12T2300,3567A,113.5931,40.0461,大同市,区一中,,39,30,56,27,29,120,,195,172,15,10,9,13,0.4,0.5
2025-06-12T2300,4199A,113.2798,40.0997,大同市,魏都大道141号,,35,32,69,15,31,112,,200,159,14,15,6,8,0.5,0.6
2025-06-12T2300,2269A,124.1069,50.4097,大兴安岭地区,科技局,,36,36,28,16,14,31,,76,53,7,9,6,6,0.2,0.2
2025-06-12T2300,3663A,124.1164,50.4278,大兴安岭地区,红旗社区,,29,,12,20,12,24,,79,47,10,13,5,5,0.5,0.4
2025-06-12T2300,1600A,124.3303,40.0625,丹东市,江湾东路,,36,36,37,20,20,61,,132,101,25,19,7,13,0.7,0.6
2025-06-12T2300,1601A,124.4256,40.1503,丹东市,临江后街,颗粒物(PM10),66,81,63,16,11,74,,133,100,20,17,10,9,0.8,0.7
2025-06-12T2300,1602A,124.3933,40.1461,丹东市,元宝山,颗粒物(PM10),61,72,53,18,14,85,,126,106,20,17,9,9,0.9,0.5
2025-06-12T2300,1603A,124.3633,40.1092,丹东市,民主桥,,33,33,35,17,15,21,,134,99,55,18,8,10,0.9,0.9
2025-06-12T2300,3541A,109.5726,19.5167,儋州市,第一中学子站,,15,8,10,3,2,45,,42,41,1,2,5,5,0.5,0.5
2025-06-12T2300,3542A,109.5567,19.5187,儋州市,东坡学校子站,,15,6,9,3,3,47,,44,43,1,1,6,6,0.5,0.5
2025-06-12T2300,2616A,98.5842,24.428,德宏傣族景颇族自治州,德宏州监测站,,48,45,41,33,26,79,,128,112,13,11,7,8,0.7,0.6
2025-06-12T2300,3677A,98.5881,24.4368,德宏傣族景颇族自治州,芒市人民政府综合楼,颗粒物(PM10),61,72,50,30,24,73,,130,113,14,10,8,8,0.6,0.5
2025-06-12T2300,1901A,104.4239,31.1208,德阳市,东山公园,,50,50,59,29,35,154,,226,211,10,15,5,8,0.8,0.9
2025-06-12T2300,1902A,104.3826,31.1317,德阳市,西小区,细颗粒物(PM2.5),65,76,69,47,43,146,,238,219,47,25,5,8,0.9,0.8
2025-06-12T2300,1904A,104.3553,31.1091,德阳市,耐火材料厂,细颗粒物(PM2.5),75,97,74,55,45,140,,273,231,53,27,8,12,0.8,0.8
2025-06-12T2300,3639A,104.4019,31.1244,德阳市,市教育局,,,50,61,39,40,112,,226,,56,25,10,11,,0.9
2025-06-12T2300,1622A,116.3032,37.4674,德州市,儿童乐园,颗粒物(PM10),89,127,128,22,25,144,,223,196,24,10,12,9,0.6,0.5
2025-06-12T2300,1624A,116.2991,37.4451,德州市,监理站,颗粒物(PM10),81,112,115,24,23,138,,221,193,28,12,12,10,0.5,0.4
2025-06-12T2300,3066A,116.2721,37.4379,德州市,九衢泉纯净水厂,颗粒物(PM10),91,132,114,24,26,112,,197,150,40,29,8,8,0.6,0.5
2025-06-12T2300,3371A,116.3728,37.4403,德州市,开发区人民医院,颗粒物(PM10),97,144,124,27,24,136,,210,186,24,16,9,9,0.7,0.7
2025-06-12T2300,3372A,116.3572,37.4094,德州市,太阳城中学,颗粒物(PM10),104,158,137,29,30,140,,220,193,27,14,6,7,0.4,0.5
2025-06-12T2300,3511A,116.5652,37.3319,德州市,陵城艺术中心,颗粒物(PM10),96,141,121,24,25,149,,209,184,20,14,6,8,0.4,0.4
2025-06-12T2300,2621A,99.7056,27.8317,迪庆藏族自治州,迪庆州站,,28,25,26,16,14,89,,123,117,10,8,6,7,0.4,0.4
2025-06-12T2300,3180A,99.7136,27.8094,迪庆藏族自治州,质量技术监督局,,35,14,20,11,9,112,,124,120,9,11,6,6,0.4,0.4
2025-06-12T2300,4257A,104.6092,35.5962,定西市,将台街,,40,40,41,26,18,120,,152,145,16,10,4,5,0.2,0.2
2025-06-12T2300,4309A,104.6159,35.5701,定西市,正龙路62号,,43,43,39,30,19,127,,148,143,9,9,7,8,0.2,0.2
2025-06-12T2300,1389A,113.7547,23.0494,东莞市,莞城梨川,,12,12,17,8,11,33,,78,47,16,10,6,6,0.3,0.3
2025-06-12T2300,1390A,113.7944,23.0128,东莞市,东城石井,,9,9,17,3,7,21,,69,33,17,14,2,2,0.6,0.6
2025-06-12T2300,1391A,113.7383,22.9658,东莞市,南城西平,,11,8,18,3,10,35,,73,38,12,19,3,3,0.4,0.5
2025-06-12T2300,3319A,113.7338,23.0381,东莞市,万江金泰,,10,10,18,3,7,21,,64,33,13,11,2,2,0.7,0.6
2025-06-12T2300,3626A,113.7533,23.0202,东莞市,南城元岭,,10,6,15,3,6,29,,74,42,15,13,5,5,0.6,0.5
2025-06-12T2300,3627A,113.7875,23.0457,东莞市,东城主山,,11,11,17,6,8,24,,72,41,19,12,6,6,0.6,0.6
2025-06-12T2300,1666A,118.6614,37.4309,东营市,市环保局,,34,34,46,7,8,99,,158,133,18,20,5,8,0.4,0.4
2025-06-12T2300,3036A,118.6904,37.4338,东营市,开发区管委会,,43,43,58,3,6,105,,154,114,15,21,5,8,0.4,0.4
2025-06-12T2300,3365A,118.5719,37.565,东营市,垦利区民丰路,,34,34,47,3,7,102,,166,140,18,21,10,9,0.4,0.5
2025-06-12T2300,3498A,118.5055,37.8612,东营市,河口城区,,44,44,49,3,7,100,,177,145,16,19,15,10,0.8,0.8
2025-06-12T2300,3646A,118.4978,37.4623,东营市,胜利站,,44,44,52,17,10,94,,157,133,20,23,9,9,0.6,0.5
2025-06-12T2300,3734A,118.35,37.26,东营市,理想之城,,39,39,46,7,11,95,,179,148,22,21,4,6,0.5,0.5
2025-06-12T2300,1591A,110.0023,39.8129,鄂尔多斯市,综合楼,,36,31,62,14,25,114,,155,116,10,16,2,6,0.4,0.5
2025-06-12T2300,1592A,109.9486,39.8261,鄂尔多斯市,巴音孟克林场办事处,,36,34,82,17,24,115,,166,125,14,14,7,9,0.3,0.4
2025-06-12T2300,1593A,109.7736,39.5986,鄂尔多斯市,康泽苑,颗粒物(PM10),52,53,71,17,20,90,,174,130,19,10,4,7,0.3,0.3
2025-06-12T2300,1594A,109.8119,39.5989,鄂尔多斯市,华泰汽车城,颗粒物(PM10),54,58,68,22,20,66,,154,117,29,12,4,6,0.4,0.4
2025-06-12T2300,1595A,109.9734,39.7884,鄂尔多斯市,奥林花园,,39,39,74,14,21,111,,159,122,12,13,6,9,0.5,0.5
2025-06-12T2300,2436A,114.8938,30.3994,鄂州市,市政府,,49,49,46,27,25,70,,116,93,14,10,9,7,1.1,1
2025-06-12T2300,2437A,114.8989,30.3714,鄂州市,赵家坝,颗粒物(PM10),58,65,39,29,19,50,,107,81,21,12,9,8,1.2,1
2025-06-12T2300,3654A,114.8094,30.4089,鄂州市,精准医疗中心,细颗粒物(PM2.5),55,56,32,39,20,47,,96,75,23,10,15,8,1.8,1.3
2025-06-12T2300,2454A,109.4978,30.2981,恩施土家族苗族自治州,湖北民院,,50,50,40,35,23,55,,165,135,32,11,5,5,0.4,0.3
2025-06-12T2300,2455A,109.4707,30.2798,恩施土家族苗族自治州,州电力总公司,颗粒物(PM10),58,66,36,30,24,56,,153,118,23,15,7,7,0.2,0.3
2025-06-12T2300,3549A,109.5061,30.3772,恩施土家族苗族自治州,龙凤新区,,44,44,33,3,24,40,,162,112,13,7,10,10,0.6,0.5
2025-06-12T2300,2499A,108.3411,21.6158,防城港市,沙万,,25,25,20,13,13,46,,73,65,12,7,1,1,0.7,0.5
2025-06-12T2300,2500A,108.3514,21.7731,防城港市,防城档案局,,25,25,31,8,10,48,,67,60,9,12,1,2,0.7,0.7
2025-06-12T2300,2501A,108.3506,21.6414,防城港市,大海花园,,20,20,22,10,12,50,,77,69,12,8,3,3,0.7,0.6
2025-06-12T2300,1371A,113.1294,23.0067,佛山市,湾梁,,,,16,,6,11,,80,35,,22,8,8,,0.7
2025-06-12T2300,1372A,113.1083,23.0478,佛山市,华材职中,,14,,14,9,10,10,,92,38,27,16,6,6,0.5,0.4
2025-06-12T2300,1373A,113.144,23.0453,佛山市,南海气象局,,14,6,23,3,9,7,,71,27,28,18,2,2,0.4,0.4
2025-06-12T2300,1374A,113.2881,22.8094,佛山市,顺德苏岗,,9,9,20,3,6,21,,76,35,17,17,6,6,0.7,0.8
2025-06-12T2300,1376A,112.8383,22.8678,佛山市,高明孔堂,,23,,20,16,20,18,,96,51,19,21,6,6,0.5,0.6
2025-06-12T2300,1377A,112.8836,23.1588,佛山市,三水监测站,,,7,17,6,11,12,,76,49,,22,3,3,0.5,0.6
2025-06-12T2300,1378A,112.867,23.185,佛山市,三水云东海,细颗粒物(PM2.5),63,,34,45,17,8,,58,42,32,20,3,3,0.5,0.5
2025-06-12T2300,3625A,113.2544,22.7642,佛山市,容桂街道办,,13,,11,9,9,21,,93,49,22,18,5,5,0.6,0.6
2025-06-12T2300,1280A,119.3903,26.0543,福州市,鼓山,,,,6,,3,,,43,,,3,,2,,0.2
2025-06-12T2300,1282A,119.2681,26.0504,福州市,师大,,23,23,13,3,2,28,,42,33,5,4,3,4,0.1,0.2
2025-06-12T2300,1283A,119.2984,26.1028,福州市,五四北路,,19,19,12,3,2,29,,43,34,7,5,3,3,0.4,0.4
2025-06-12T2300,1284A,119.2648,26.0768,福州市,杨桥西路,,12,12,13,3,2,29,,45,35,6,6,3,3,0.2,0.3
2025-06-12T2300,1285A,119.317,26.0746,福州市,紫阳,,14,14,16,3,3,31,,38,33,4,6,5,6,0.2,0.3
2025-06-12T2300,3048A,119.5799,26.0936,福州市,九龙,,21,21,16,3,3,37,,57,45,3,4,4,4,0.2,0.2
2025-06-12T2300,3526A,119.5189,25.9664,福州市,吴航,,20,20,13,7,6,33,,47,40,3,3,4,4,0.3,0.3
2025-06-12T2300,1755A,123.7977,41.8491,抚顺市,望花区,,37,25,58,15,18,116,,164,118,28,33,10,10,0.9,0.6
2025-06-12T2300,1756A,123.9161,41.8822,抚顺市,顺城区,,47,47,43,14,13,126,,167,123,19,38,10,11,0.6,0.6
2025-06-12T2300,1757A,124.0436,41.8611,抚顺市,东洲区,,36,30,31,16,13,113,,179,140,26,22,8,8,0.9,0.5
2025-06-12T2300,1758A,123.9247,41.8642,抚顺市,新抚区,,37,35,39,15,13,118,,173,126,20,27,8,10,0.5,0.6
2025-06-12T2300,1759A,124.0972,41.8961,抚顺市,大伙房水库,,40,24,29,16,13,125,,176,147,13,17,11,10,0.3,0.4
2025-06-12T2300,1760A,123.7086,41.8391,抚顺市,沈抚新城,,37,37,55,13,21,106,,157,115,31,40,12,25,0.9,1.6
2025-06-12T2300,2376A,116.2127,28.0814,抚州市,桐源党溪,,16,13,28,11,11,28,,73,59,2,2,5,6,0.9,0.9
2025-06-12T2300,2377A,116.3544,27.9831,抚州市,市站,,20,18,25,10,15,64,,94,78,2,4,2,2,0.9,1
2025-06-12T2300,2378A,116.3565,27.963,抚州市,血防站,,38,38,31,14,17,56,,92,77,2,3,2,4,0.4,0.7
2025-06-12T2300,2379A,116.3564,28.0007,抚州市,采茶剧团,,20,19,26,11,15,62,,90,75,2,2,3,5,0.3,0.3
2025-06-12T2300,2380A,116.385,27.9647,抚州市,医学分院,,25,25,29,9,13,63,,95,79,2,2,7,6,0.7,0.8
2025-06-12T2300,2207A,121.6094,41.998,阜新市,工业园区,,44,39,61,9,22,138,,153,131,14,21,14,19,0.6,0.6
2025-06-12T2300,2208A,121.6697,42.0279,阜新市,长青街,,44,29,53,8,21,138,,144,127,13,20,12,19,0.3,0.5
2025-06-12T2300,2209A,121.6673,42.0705,阜新市,农业园区,,44,34,45,7,22,140,,144,131,12,18,7,11,0.5,0.7
2025-06-12T2300,2210A,121.6717,42.0224,阜新市,东苑,,49,49,57,7,22,144,,151,132,13,20,10,18,0.4,0.6
2025-06-12T2300,2211A,121.6506,42.0498,阜新市,玉龙新城,,42,31,50,6,15,134,,144,128,12,18,11,14,0.5,0.7
2025-06-12T2300,2301A,115.8277,32.8929,阜阳市,市监测站,颗粒物(PM10),54,57,47,25,29,75,,126,100,15,11,2,3,0.4,0.4
2025-06-12T2300,2303A,115.8554,32.8605,阜阳市,开发区,颗粒物(PM10),57,63,56,10,21,67,,124,102,18,12,4,5,0.3,0.3
2025-06-12T2300,2875A,115.784,32.8892,阜阳市,阜阳职业技术学院,,42,36,33,29,24,85,,129,106,12,10,4,4,0.5,0.5
2025-06-12T2300,3468A,115.7901,32.8613,阜阳市,市规划展馆,细颗粒物(PM2.5),62,56,50,44,37,76,,125,98,12,11,3,3,0.4,0.4
2025-06-12T2300,3469A,115.836,32.9183,阜阳市,枣园社区,颗粒物(PM10),59,67,57,40,37,76,,121,98,12,11,4,4,0.6,0.6
2025-06-12T2300,2669A,102.9099,34.9841,甘南藏族自治州,州政府,,39,39,41,21,21,113,,135,130,8,22,3,4,0.3,0.4
2025-06-12T2300,3380A,102.8914,34.9617,甘南藏族自治州,甘肃民族师范学院,,46,46,48,16,16,58,,133,114,22,13,8,8,0.4,0.4
2025-06-12T2300,2570A,101.9603,30.0475,甘孜藏族自治州,水桥子,,,25,19,15,7,,,131,131,13,22,5,5,0.2,0.4
2025-06-12T2300,3065A,101.9533,29.9972,甘孜藏族自治州,州环保局,,35,35,20,13,6,104,,128,126,20,9,2,2,0.6,0.5
2025-06-12T2300,3414A,115.8347,28.932,赣江新区,桑海产业园,,46,34,17,32,12,93,,94,94,18,12,5,6,0.7,0.7
2025-06-12T2300,2362A,114.9017,25.9149,赣州市,通天岩,,30,30,23,7,5,11,,58,36,5,5,3,2,0.7,0.5
2025-06-12T2300,2363A,114.9367,25.8664,赣州市,地委,,22,21,16,15,9,64,,63,63,7,7,2,1,0.5,0.5
2025-06-12T2300,2364A,114.9461,25.8481,赣州市,气象台,,31,31,20,12,7,60,,60,60,4,5,5,7,0.4,0.4
2025-06-12T2300,2365A,114.9322,25.8333,赣州市,市图书馆,,26,23,14,18,8,64,,64,64,3,4,4,4,0.4,0.4
2025-06-12T2300,2366A,114.8905,25.8471,赣州市,华坚鞋城,,,22,19,8,8,,,56,56,5,7,,3,0.3,0.2
2025-06-12T2300,3109A,115.0093,25.8613,赣州市,赣县区卫计委,,,6,9,,7,64,,,,4,6,5,3,0.2,0.2
2025-06-12T2300,2683A,106.2319,36.1417,固原市,马园,,44,44,55,22,15,49,,151,103,63,28,5,6,0.3,0.3
2025-06-12T2300,2684A,106.2792,36.0022,固原市,监测站,,38,38,44,13,18,93,,146,121,18,12,5,6,0.2,0.2
2025-06-12T2300,2685A,106.2375,36.0211,固原市,新区,,32,29,37,22,17,78,,146,114,24,11,2,5,0.3,0.3
2025-06-12T2300,3522A,106.2177,35.9959,固原市,原州区十五小,,45,45,37,25,19,86,,147,120,17,7,9,9,0.2,0.2
2025-06-12T2300,2543A,106.6308,30.5278,广安市,小平旧居,,,,,,,,,,,,,,,,
2025-06-12T2300,2544A,106.6303,30.4576,广安市,市委,,43,43,38,27,25,61,,158,132,37,20,5,6,0.7,0.5
2025-06-12T2300,2545A,106.6271,30.4663,广安市,友谊中学,,,,35,,21,66,,172,142,,19,6,7,0.8,0.8
2025-06-12T2300,2547A,106.6388,30.4551,广安市,广电花园,颗粒物(PM10),51,52,40,27,25,64,,161,128,38,21,8,8,0.6,0.6
2025-06-12T2300,2902A,106.6351,30.4865,广安市,北辰小学,,44,44,41,30,25,71,,179,147,26,15,6,8,0.7,0.7
2025-06-12T2300,2523A,105.8945,32.4535,广元市,黑石坡,,48,48,43,30,16,128,,160,150,13,11,7,8,0.4,0.5
2025-06-12T2300,2524A,105.821,32.4444,广元市,老城,,50,50,32,27,15,92,,181,154,44,34,4,8,0.8,0.9
2025-06-12T2300,2526A,105.8628,32.4287,广元市,监测站,,36,36,29,21,17,115,,178,158,18,17,4,7,0.5,0.5
2025-06-12T2300,3617A,105.8047,32.4166,广元市,经开区,,50,50,57,30,34,43,,181,149,76,31,4,13,0.6,0.6
2025-06-12T2300,1345A,113.2347,23.1423,广州市,广雅中学,,16,16,22,9,11,14,,68,34,21,18,2,2,0.6,0.6
2025-06-12T2300,1346A,113.2612,23.105,广州市,市五中,,14,10,17,6,9,13,,81,39,27,19,3,3,0.6,0.5
2025-06-12T2300,1348A,113.3478,23.0916,广州市,广东商学院,,19,15,21,12,12,21,,79,37,37,23,3,3,0.7,0.7
2025-06-12T2300,1349A,113.4332,23.1047,广州市,市八十六中,,12,11,22,6,9,16,,74,31,23,20,2,3,0.4,0.4
2025-06-12T2300,1350A,113.3505,22.9483,广州市,番禺中学,,9,9,22,3,11,28,,85,31,15,20,7,7,0.5,0.5
2025-06-12T2300,1351A,113.2146,23.3916,广州市,花都师范,,18,18,21,10,12,22,,86,53,23,14,3,4,0.7,0.7
2025-06-12T2300,1352A,113.2597,23.1331,广州市,市监测站,,14,14,20,7,10,18,,73,49,26,23,4,5,0.3,0.6
2025-06-12T2300,1353A,113.5618,23.312,广州市,九龙镇镇龙,,13,13,17,8,10,26,,69,44,11,9,6,6,0.4,0.4
2025-06-12T2300,1354A,113.2765,23.1544,广州市,麓湖,,16,16,20,6,8,4,,59,27,30,20,2,2,0.6,0.5
2025-06-12T2300,1355A,113.443,23.3035,广州市,帽峰山森林公园,,17,6,10,3,5,53,,88,65,12,13,7,8,0.5,0.5
2025-06-12T2300,2846A,113.3221,23.1322,广州市,体育西,,17,12,19,6,9,10,,75,36,33,24,4,4,0.5,0.4
2025-06-12T2300,3298A,113.5717,23.5491,广州市,从化街口,,11,11,20,6,12,19,,71,45,20,13,7,7,0.6,0.5
2025-06-12T2300,3299A,113.3472,23.3692,广州市,白云竹料,,,15,20,8,9,26,,82,61,,14,,3,0.6,0.5
2025-06-12T2300,3300A,113.2981,23.237,广州市,白云嘉禾,,12,12,22,3,9,11,,68,34,24,20,5,6,0.8,0.8
2025-06-12T2300,3301A,113.4256,23.1716,广州市,黄埔科学城,,16,16,22,7,10,7,,64,30,20,11,2,3,0.5,0.5
2025-06-12T2300,3302A,113.3942,23.0483,广州市,番禺大学城,,20,20,19,8,11,18,,85,32,28,24,4,5,0.6,0.5
2025-06-12T2300,3303A,113.4922,22.8168,广州市,南沙黄阁,,10,10,18,3,9,31,,76,39,12,14,5,6,0.5,0.5
2025-06-12T2300,3304A,113.5342,22.7896,广州市,南沙街,,11,10,15,3,7,35,,79,48,13,12,2,3,0.4,0.5
2025-06-12T2300,3443A,113.2902,23.5544,广州市,花都梯面,,14,14,18,3,8,24,,70,45,12,10,4,6,0.4,0.5
2025-06-12T2300,3445A,113.7858,23.7478,广州市,从化良口,,11,11,18,6,10,24,,63,46,10,8,6,6,0.7,0.7
2025-06-12T2300,3446A,113.8051,23.2614,广州市,增城荔城,,14,14,17,6,9,21,,58,33,8,9,5,6,0.2,0.2
2025-06-12T2300,2505A,109.568,23.1478,贵港市,德智高中,,,,,,,,,,,,,,,,
2025-06-12T2300,2506A,109.6047,23.0666,贵港市,江南子站,,29,29,23,12,11,31,,60,51,19,15,5,8,0.6,0.6
2025-06-12T2300,2508A,109.5669,23.1065,贵港市,荷城子站,,30,30,20,14,7,35,,52,47,20,15,6,6,0.4,0.3
2025-06-12T2300,3405A,109.5886,23.1172,贵港市,新世纪学校,,20,19,19,14,12,40,,55,48,14,14,2,2,0.6,0.5
2025-06-12T2300,4260A,109.5933,23.0951,贵港市,中山路155-3号,,24,24,27,14,12,40,,62,54,19,15,3,5,0.7,0.6
2025-06-12T2300,1439A,106.6899,26.5998,贵阳市,马鞍山,,22,22,21,9,8,49,,97,81,11,10,3,4,0.4,0.4
2025-06-12T2300,1441A,106.6243,26.6266,贵阳市,鉴湖路,,31,31,30,14,14,55,,99,87,15,10,6,5,0.4,0.4
2025-06-12T2300,1442A,106.7487,26.6343,贵阳市,燕子冲,,35,31,28,24,22,58,,99,86,12,12,3,4,0.4,0.4
2025-06-12T2300,1443A,106.6555,26.4365,贵阳市,碧云窝,,24,24,32,14,13,58,,116,95,8,10,5,5,0.3,0.4
2025-06-12T2300,1445A,106.7109,26.6027,贵阳市,红边门,,34,34,26,17,14,62,,102,84,9,8,6,6,0.3,0.3
2025-06-12T2300,1446A,106.7164,26.5699,贵阳市,新华路,,27,27,25,12,14,65,,104,90,15,11,3,12,0.3,0.4
2025-06-12T2300,1447A,106.674,26.5424,贵阳市,太慈桥,,31,31,26,17,13,53,,110,94,26,15,5,5,0.5,0.4
2025-06-12T2300,1552A,106.805,26.3003,贵阳市,桐木岭,,48,48,40,22,25,54,,90,73,5,3,5,3,0.9,0.8
2025-06-12T2300,4230A,106.6882,26.5695,贵阳市,花果园大街66号,,30,27,22,21,21,58,,104,88,15,9,3,3,0.3,0.3
2025-06-12T2300,4231A,106.6873,26.5169,贵阳市,漓江路57号,,29,29,26,17,14,56,,108,90,13,9,1,1,0.3,0.3
2025-06-12T2300,1862A,110.4144,25.3167,桂林市,电子科大尧山校区,,,,,,,,,,,,,,,,
2025-06-12T2300,1864A,110.3089,25.2708,桂林市,龙隐路小学,,22,22,17,12,12,65,,81,71,6,5,8,8,0.7,0.7
2025-06-12T2300,1865A,110.2869,25.2178,桂林市,八中,,20,14,20,13,16,62,,78,67,10,9,6,6,0.8,0.7
2025-06-12T2300,3531A,110.296,25.1253,桂林市,旅游学院,,,,15,,12,,,75,,,6,,2,,0.4
2025-06-12T2300,4222A,110.1835,25.2444,桂林市,环湖路276号,,22,22,17,14,11,67,,87,75,4,4,7,7,0.5,0.5
2025-06-12T2300,4301A,110.2803,25.2773,桂林市,信义路13号,,22,16,21,9,13,68,,84,69,7,7,1,1,0.6,0.6
2025-06-12T2300,2674A,100.2561,34.4714,果洛藏族自治州,玛沁县大武镇,,38,38,26,26,18,80,,136,119,5,5,16,16,0.5,0.4
2025-06-12T2300,1129A,126.5422,45.755,哈尔滨市,岭北,,43,43,25,21,14,116,,144,138,22,24,12,14,0.8,0.7
2025-06-12T2300,1130A,126.561,45.8167,哈尔滨市,松北商大,,43,43,29,19,12,92,,130,121,22,23,5,6,0.6,0.5
2025-06-12T2300,1131A,126.979,45.5419,哈尔滨市,阿城会宁,,39,38,24,23,13,122,,118,115,21,18,7,6,0.5,0.4
2025-06-12T2300,1132A,126.599,45.7222,哈尔滨市,南岗学府路,颗粒物(PM10),52,54,38,16,12,97,,132,123,28,33,7,7,0.6,0.6
2025-06-12T2300,1133A,126.689,45.7733,哈尔滨市,太平宏伟公园,颗粒物(PM10),52,53,40,15,14,97,,130,123,26,30,6,6,0.5,0.4
2025-06-12T2300,1134A,126.635,45.7667,哈尔滨市,道外承德广场,颗粒物(PM10),58,65,49,19,17,97,,130,124,27,27,8,7,0.5,0.4
2025-06-12T2300,1135A,126.685,45.7319,哈尔滨市,香坊红旗大街,,49,44,40,34,16,90,,133,121,38,38,9,10,0.7,0.6
2025-06-12T2300,1136A,126.6411,45.7258,哈尔滨市,动力和平路,颗粒物(PM10),54,57,37,22,12,102,,135,127,29,33,9,10,0.5,0.5
2025-06-12T2300,1137A,126.593,45.7478,哈尔滨市,道里建国路,,46,46,34,20,12,98,,140,131,30,28,10,10,0.5,0.5
2025-06-12T2300,1138A,126.615,45.61,哈尔滨市,平房东轻厂,颗粒物(PM10),52,54,34,16,10,98,,138,129,26,24,9,9,0.4,0.4
2025-06-12T2300,1139A,126.595,45.9855,哈尔滨市,呼兰师专,细颗粒物(PM2.5),69,54,36,50,17,105,,131,128,23,28,12,10,0.6,0.4
2025-06-12T2300,1140A,126.6206,45.6842,哈尔滨市,省农科院,颗粒物(PM10),51,52,53,21,17,91,,122,113,30,35,7,6,0.6,0.5
2025-06-12T2300,2688A,93.5128,42.8172,哈密市,地区监测站,颗粒物(PM10),53,56,58,23,22,76,,112,103,23,8,6,5,0.3,0.1
2025-06-12T2300,2689A,93.4961,42.8328,哈密市,哈密师范学校,,48,48,45,12,15,72,,114,100,28,13,4,4,0.4,0.2
2025-06-12T2300,2671A,100.9048,36.9639,海北藏族自治州,海晏县西海镇,,42,22,19,18,12,133,,141,137,4,5,3,5,0.4,0.4
2025-06-12T2300,3867A,102.0738,36.5056,海东市,平安区公安北苑,,37,37,40,23,20,86,,145,126,4,10,9,13,0.5,0.7
2025-06-12T2300,1409A,110.576,19.9507,海口市,东寨港,,16,9,16,3,6,50,,50,49,2,2,15,13,0.4,0.4
2025-06-12T2300,1410A,110.3232,20.0574,海口市,海南大学,,18,18,20,3,6,54,,53,52,2,2,2,2,0.3,0.3
2025-06-12T2300,1411A,110.283,20.0053,海口市,秀英海南医院,,17,9,16,6,5,54,,54,52,3,2,4,4,0.2,0.2
2025-06-12T2300,1412A,110.338,19.9969,海口市,海南师范大学,,17,10,17,6,6,54,,55,52,3,2,3,3,0.4,0.4
2025-06-12T2300,1413A,110.33,20.0356,海口市,龙华路环保局宿舍,,17,12,17,6,6,53,,54,52,3,3,4,4,0.3,0.2
2025-06-12T2300,3539A,110.5111,19.9736,海口市,桂林洋子站,,18,18,16,7,7,54,,52,52,2,2,4,4,0.2,0.2
2025-06-12T2300,2673A,100.6188,36.2866,海南藏族自治州,共和县恰卜恰镇,颗粒物(PM10),56,61,32,10,12,127,,143,132,11,8,20,15,0.4,0.3
2025-06-12T2300,2676A,97.3731,37.3753,海西蒙古族藏族自治州,德令哈市,,46,43,40,23,13,146,,153,151,1,2,13,12,0.6,0.7
2025-06-12T2300,1048A,114.5302,36.6116,邯郸市,东污水处理厂,颗粒物(PM10),54,57,63,7,13,160,,220,202,20,12,4,4,0.4,0.4
2025-06-12T2300,1049A,114.4918,36.5713,邯郸市,矿院,颗粒物(PM10),53,56,47,24,19,158,,221,204,17,11,6,6,0.4,0.5
2025-06-12T2300,1050A,114.484,36.6133,邯郸市,丛台公园,臭氧1小时,69,54,51,19,22,175,,225,212,13,11,17,12,0.4,0.5
2025-06-12T2300,3458A,114.7895,36.5593,邯郸市,香泉濮院小区,颗粒物(PM10),66,81,78,13,15,156,,216,201,19,15,4,3,0.2,0.3
2025-06-12T2300,3579A,114.50634,36.77178,邯郸市,永年区实验高中,臭氧1小时,78,60,67,25,33,182,,230,218,10,9,3,3,0.4,0.4
2025-06-12T2300,3580A,114.20016,36.44293,邯郸市,峰峰矿区临水派出所,,,35,47,14,16,,,216,216,13,8,7,8,0.2,0.4
2025-06-12T2300,2634A,106.9893,33.1842,汉中市,汉川机床厂子校,,40,35,33,28,20,117,,168,148,35,25,3,4,0.5,0.5
2025-06-12T2300,2635A,107.0154,33.0706,汉中市,市监测站,细颗粒物(PM2.5),52,47,41,36,21,114,,160,150,16,13,6,6,0.6,0.6
2025-06-12T2300,2636A,107.0089,33.1138,汉中市,鑫源开发区,,36,36,36,24,21,108,,160,147,12,15,6,6,0.4,0.4
2025-06-12T2300,2637A,107.007,33.0323,汉中市,南郑大河坎水厂,细颗粒物(PM2.5),55,,37,39,22,92,,158,147,23,15,5,6,0.3,0.4
2025-06-12T2300,1223A,120.2072,30.2111,杭州市,滨江,细颗粒物(PM2.5),53,54,38,37,25,72,,113,104,32,26,6,6,0.2,0.6
2025-06-12T2300,1224A,120.0633,30.2747,杭州市,西溪,,36,36,30,22,22,49,,110,97,10,10,3,3,0.4,0.4
2025-06-12T2300,1226A,120.3417,30.3150,杭州市,下沙,,30,29,21,17,14,20,,118,95,59,23,6,6,0.4,0.3
2025-06-12T2300,1227A,120.1269,30.2456,杭州市,卧龙桥,,30,29,33,21,27,22,,121,96,18,17,6,7,0.5,0.4
2025-06-12T2300,1228A,120.1903,30.2692,杭州市,浙江农大,,38,37,27,26,23,42,,93,79,43,26,8,8,0.6,0.6
2025-06-12T2300,1230A,120.1197,30.3119,杭州市,和睦小学,,37,37,29,21,17,64,,117,106,24,14,7,7,0.5,0.4
2025-06-12T2300,1231A,120.3019,30.4183,杭州市,临平镇,,44,44,28,20,14,52,,121,105,25,11,5,5,0.5,0.4
2025-06-12T2300,1232A,120.2753,30.1839,杭州市,城厢镇,细颗粒物(PM2.5),54,46,35,38,30,62,,120,106,27,20,6,7,0.5,0.5
2025-06-12T2300,1233A,120.0883,30.1808,杭州市,云栖,,20,,21,14,20,10,,121,81,18,19,6,6,0.6,0.5
2025-06-12T2300,3557A,119.9464,30.0494,杭州市,镇二中,,47,47,40,31,28,65,,138,118,21,19,3,3,0.3,0.5
2025-06-12T2300,3558A,119.7183,30.2367,杭州市,市府大楼,,30,30,33,21,27,78,,104,98,16,14,6,6,0.3,0.3
2025-06-12T2300,3656A,120.1556,30.2864,杭州市,消防大队,,39,39,29,24,21,62,,108,99,30,20,4,4,0.6,0.5
2025-06-12T2300,1270A,117.1959,31.7848,合肥市,明珠广场,,45,39,43,31,30,72,,82,76,16,19,4,5,0.6,0.6
2025-06-12T2300,1271A,117.3072,31.8764,合肥市,三里街,,39,36,40,27,29,60,,66,60,17,16,6,5,0.7,0.7
2025-06-12T2300,1272A,117.2588,31.8707,合肥市,琥珀山庄,细颗粒物(PM2.5),57,44,40,40,32,58,,74,65,24,19,5,6,0.7,0.7
2025-06-12T2300,1273A,117.1604,31.9052,合肥市,董铺水库,,45,44,47,31,31,62,,76,66,16,15,2,2,0.4,0.5
2025-06-12T2300,1274A,117.25,31.8571,合肥市,长江中路,颗粒物(PM10),52,53,50,35,33,65,,75,71,18,16,4,4,0.6,0.6
2025-06-12T2300,1275A,117.266,31.9436,合肥市,庐阳区,,49,44,46,34,33,57,,71,66,25,19,7,6,0.8,0.8
2025-06-12T2300,1276A,117.3453,31.8616,合肥市,瑶海区,,46,44,45,32,30,60,,68,66,22,19,7,6,0.7,0.7
2025-06-12T2300,1277A,117.3027,31.7964,合肥市,包河区,"颗粒物(PM10),细颗粒物(PM2.5)",52,53,43,36,33,36,,70,59,44,32,4,4,0.6,0.6
2025-06-12T2300,1278A,117.2776,31.7385,合肥市,滨湖新区,细颗粒物(PM2.5),52,41,41,36,34,68,,78,74,13,13,8,8,0.6,0.6
2025-06-12T2300,1279A,117.1318,31.8403,合肥市,高新区,细颗粒物(PM2.5),58,44,44,41,34,61,,78,71,23,18,6,6,0.6,0.6
2025-06-12T2300,3464A,117.3803,31.9147,合肥市,高教基地,,41,41,44,28,27,60,,71,70,17,15,6,6,0.6,0.6
2025-06-12T2300,3614A,79.924,37.0877,和田地区,地区环保局,颗粒物(PM10),181,312,964,79,295,68,,127,118,30,10,1,2,0.6,0.6
2025-06-12T2300,3615A,79.9131,37.113,和田地区,市环保局,颗粒物(PM10),129,207,1038,54,217,57,,131,115,53,11,1,2,0.5,0.1
2025-06-12T2300,2516A,108.2011,24.715,河池市,东仁乐园,,,,,,,,,,,,,,,,
2025-06-12T2300,2517A,108.0497,24.6947,河池市,市环保站,,19,19,29,10,12,9,,58,36,14,7,2,2,0.6,0.5
2025-06-12T2300,2518A,108.0983,24.6989,河池市,市疾控中心,,16,13,28,11,13,1,,57,32,22,14,7,7,0.7,0.7
2025-06-12T2300,1696A,114.6778,23.7569,河源市,源西,,32,,14,22,11,51,,124,76,5,13,4,4,0.6,0.6
2025-06-12T2300,1697A,114.6944,23.7586,河源市,东埔,,16,16,20,8,7,24,,69,42,20,13,4,4,0.6,0.6
2025-06-12T2300,1698A,114.6892,23.7233,河源市,老城,,12,,17,8,12,28,,64,41,13,10,3,4,0.4,0.4
2025-06-12T2300,1718A,115.4208,35.2464,菏泽市,气象局,颗粒物(PM10),70,90,63,13,28,136,,201,186,12,12,4,4,0.5,0.5
2025-06-12T2300,3374A,115.5564,35.0891,菏泽市,定陶老年大学,,,58,53,14,19,,,198,195,,12,,3,,0.3
2025-06-12T2300,4184A,115.4797,35.24401,菏泽市,永昌路1号,颗粒物(PM10),76,102,65,12,21,135,,198,183,10,12,5,4,0.2,0.2
2025-06-12T2300,4193A,115.4715,35.2800,菏泽市,长城路999号,颗粒物(PM10),67,83,66,9,21,142,,208,194,15,14,6,5,0.4,0.4
2025-06-12T2300,2514A,111.5264,24.4172,贺州市,环保小区,,,,15,9,10,35,,77,66,12,9,9,9,0.8,0.9
2025-06-12T2300,2515A,111.5608,24.4078,贺州市,政协大楼,,19,18,15,13,10,22,,74,61,17,10,9,12,0.7,0.5
2025-06-12T2300,3534A,111.4744,24.4553,贺州市,西湾,,29,,17,20,7,41,,64,56,7,7,8,8,0.7,0.6
2025-06-12T2300,2385A,114.17,35.9019,鹤壁市,市监测站,颗粒物(PM10),51,52,56,25,33,140,,217,203,22,12,7,8,1.1,1.1
2025-06-12T2300,2386A,114.2956,35.7511,鹤壁市,市交警支队,颗粒物(PM10),56,62,55,20,30,137,,210,190,22,13,10,7,0.6,0.5
2025-06-12T2300,2387A,114.2878,35.7306,鹤壁市,迎宾馆,颗粒物(PM10),59,67,69,24,35,125,,213,197,20,14,4,3,0.6,0.7
2025-06-12T2300,3474A,114.2617,35.6822,鹤壁市,大新区,颗粒物(PM10),55,59,61,21,34,121,,204,179,19,15,6,6,0.6,0.7
2025-06-12T2300,3596A,114.1572,35.9603,鹤壁市,南山宾馆,颗粒物(PM10),61,71,76,34,41,136,,214,201,27,12,6,6,0.6,0.6
2025-06-12T2300,2244A,130.2537,47.3416,鹤岗市,哈啤分公司,,20,16,19,12,10,64,,91,82,14,10,15,15,0.3,0.3
2025-06-12T2300,2245A,130.2684,47.3086,鹤岗市,斯达机电,,26,20,28,12,15,82,,90,82,9,9,13,14,0.3,0.4
2025-06-12T2300,2246A,130.3114,47.3388,鹤岗市,东山纸板厂,,17,17,27,10,13,46,,76,65,15,16,14,14,0.4,0.5
2025-06-12T2300,2247A,130.1097,47.3382,鹤岗市,五号水库,,20,20,12,8,5,36,,94,54,12,11,10,9,0.4,0.4
2025-06-12T2300,2263A,127.4833,50.2524,黑河市,交通局,,23,,28,15,12,72,,78,77,6,13,6,6,0.3,0.3
2025-06-12T2300,2264A,127.5144,50.2341,黑河市,环保局,,24,16,33,12,13,74,,83,82,5,14,5,5,0.2,0.2
2025-06-12T2300,2265A,127.5291,50.2472,黑河市,大黑河岛,,18,,13,3,10,56,,58,57,4,10,20,20,0.3,0.3
2025-06-12T2300,1074A,115.6838,37.7541,衡水市,电机北厂,颗粒物(PM10),83,116,97,35,33,163,,216,197,17,11,3,4,0.4,0.3
2025-06-12T2300,1075A,115.6303,37.7316,衡水市,市监测站,颗粒物(PM10),82,114,97,24,23,162,,218,196,16,9,4,15,0.3,0.3
2025-06-12T2300,3188A,115.6683,37.7217,衡水市,市城管局,颗粒物(PM10),98,145,113,38,28,149,,223,202,24,10,1,2,0.4,0.3
2025-06-12T2300,3459A,115.5989,37.5491,衡水市,地表水厂,颗粒物(PM10),110,170,129,28,25,140,,214,185,26,14,6,6,0.3,0.3
2025-06-12T2300,2456A,112.5003,26.9167,衡阳市,原169医院,,20,19,22,11,13,61,,84,79,10,7,3,4,0.7,0.7
2025-06-12T2300,2457A,112.6194,26.9258,衡阳市,衡阳化工总厂,,20,18,25,11,15,64,,78,75,11,9,4,4,0.6,0.6
2025-06-12T2300,2458A,112.6211,26.8956,衡阳市,珠晖区环保局,,,17,25,,13,61,,82,76,17,10,5,5,0.6,0.7
2025-06-12T2300,2459A,112.6197,26.8733,衡阳市,市委党校,,24,10,22,10,12,75,,83,80,8,8,5,5,0.6,0.7
2025-06-12T2300,2460A,112.6006,26.8919,衡阳市,市监测站,,23,20,20,9,13,71,,79,78,10,9,6,6,0.6,0.6
2025-06-12T2300,2461A,112.5664,26.9056,衡阳市,真空机电公司,,21,16,23,12,15,66,,73,72,10,8,6,5,0.9,0.9
2025-06-12T2300,3399A,112.6703,26.882,衡阳市,师范学院,,23,19,22,11,15,72,,85,80,9,8,6,6,0.9,0.9
2025-06-12T2300,2608A,103.3772,23.3993,红河哈尼族彝族自治州,污水处理厂,,38,34,35,26,24,90,,120,105,5,8,6,7,0.4,0.4
2025-06-12T2300,2609A,103.3861,23.35,红河哈尼族彝族自治州,监测站,,46,42,36,32,23,80,,115,99,6,7,3,4,0.3,0.3
2025-06-12T2300,3038A,103.3758,23.368,红河哈尼族彝族自治州,州图书馆,,37,37,30,19,20,93,,129,112,7,8,3,4,0.3,0.3
2025-06-12T2300,1090A,111.6507,40.7517,呼和浩特市,呼市一监,,32,24,52,22,23,89,,176,121,16,13,7,7,0.4,0.4
2025-06-12T2300,1091A,111.6572,40.8033,呼和浩特市,小召,,27,22,48,18,22,86,,173,116,21,19,6,5,0.6,0.6
2025-06-12T2300,1094A,111.7516,40.8369,呼和浩特市,如意水处理厂,,33,33,55,16,26,73,,186,117,17,20,5,7,0.4,0.4
2025-06-12T2300,1095A,111.7276,40.8062,呼和浩特市,二十九中,,29,29,60,20,28,81,,168,117,14,14,5,5,0.5,0.5
2025-06-12T2300,1096A,111.5512,40.7866,呼和浩特市,工大金川校区,,27,27,56,17,26,70,,183,102,17,16,6,7,0.4,0.5
2025-06-12T2300,1097A,111.717,40.7612,呼和浩特市,化肥厂生活区,,46,46,65,26,26,93,,183,126,21,17,7,7,0.6,0.5
2025-06-12T2300,3698A,111.5968,40.8178,呼和浩特市,红旗小学,,28,17,39,16,22,87,,176,112,17,22,5,6,0.3,0.3
2025-06-12T2300,3699A,111.6518,40.8389,呼和浩特市,海东办,,25,19,51,16,25,80,,169,109,14,18,5,5,0.4,0.5
2025-06-12T2300,2192A,119.7594,49.2261,呼伦贝尔市,区环保局,,,44,26,33,22,,,76,,47,16,5,6,0.4,0.1
2025-06-12T2300,3061A,119.7512,49.1577,呼伦贝尔市,国华电力东,,28,28,25,19,15,40,,89,75,18,9,4,6,0.4,0.3
2025-06-12T2300,1250A,120.0751,30.8669,湖州市,城西水厂,,38,38,35,21,21,66,,99,89,17,16,6,5,0.6,0.6
2025-06-12T2300,2873A,120.0830,30.8929,湖州市,仁皇山新区,,32,32,27,15,20,70,,102,94,14,18,4,4,0.4,0.4
2025-06-12T2300,2907A,120.1844,30.8596,湖州市,吴兴区站,,23,23,20,12,16,62,,104,92,15,13,6,6,0.4,0.3
2025-06-12T2300,3562A,120.4148,30.8538,湖州市,南浔区站,,20,16,17,11,16,63,,113,93,15,15,6,5,0.5,0.5
2025-06-12T2300,1607A,120.9049,40.7211,葫芦岛市,龙港区,,40,26,28,6,12,125,,151,149,14,10,8,8,0.4,0.5
2025-06-12T2300,1608A,120.8392,40.7514,葫芦岛市,化工街,,34,24,37,9,16,106,,140,131,31,23,5,7,0.4,0.5
2025-06-12T2300,1609A,120.8341,40.7073,葫芦岛市,新区,,38,21,27,8,11,120,,144,140,19,13,8,6,0.5,0.6
2025-06-12T2300,1610A,120.8695,40.7677,葫芦岛市,东城区,,36,22,34,8,11,113,,136,130,27,20,6,6,0.6,0.6
2025-06-12T2300,2482A,109.5981,27.5721,怀化市,林科所,,17,17,28,7,11,30,,72,56,5,7,5,5,0.5,0.4
2025-06-12T2300,2483A,109.9453,27.5444,怀化市,河西地税局,,36,36,31,21,18,5,,73,52,29,12,3,4,0.4,0.3
2025-06-12T2300,2484A,109.9781,27.5342,怀化市,市四医院,,31,31,37,13,20,14,,68,51,16,9,1,2,1.3,1.2
2025-06-12T2300,2485A,109.9972,27.5578,怀化市,监测楼,,16,16,26,8,16,30,,61,50,9,7,4,7,0.2,0.2
2025-06-12T2300,2486A,110.0394,27.583,怀化市,市委党校,,30,30,24,13,18,14,,67,51,18,5,4,12,0.3,0.3
2025-06-12T2300,1210A,119.036,33.5981,淮安市,钵池山,,32,24,27,22,18,87,,116,107,18,18,6,7,0.6,0.5
2025-06-12T2300,1211A,119.007,33.575,淮安市,北京南路,,35,,28,24,13,85,,113,103,7,6,7,8,0.7,0.6
2025-06-12T2300,1212A,118.989,33.6067,淮安市,市监测站,,32,24,24,22,15,90,,116,108,12,11,9,9,0.5,0.2
2025-06-12T2300,1213A,119.135,33.5039,淮安市,楚州区监测站,,32,32,32,20,18,78,,108,98,9,11,7,8,0.5,0.5
2025-06-12T2300,3426A,118.8755,33.2894,淮安市,新华书店,,,,23,21,14,,,115,108,12,12,8,9,0.5,0.5
2025-06-12T2300,4206A,119.0288,33.6319,淮安市,承德北路606号,,27,24,28,18,17,85,,114,106,13,11,6,6,0.6,0.4
2025-06-12T2300,2282A,116.8004,33.975,淮北市,监测站,,41,41,42,17,19,108,,154,131,9,8,7,7,0.7,0.6
2025-06-12T2300,2283A,116.8091,33.9007,淮北市,烈山区政府,,,50,53,25,21,103,,155,136,15,11,,8,0.9,0.8
2025-06-12T2300,3330A,116.8873,33.9836,淮北市,杜集区检察院,,,51,41,22,18,116,,150,134,,5,9,9,0.8,0.7
2025-06-12T2300,4017A,116.7923,33.9535,淮北市,市博物馆,,40,40,33,20,18,106,,158,135,12,10,8,8,0.8,0.7
2025-06-12T2300,2277A,116.8305,32.7727,淮南市,潘集区政府,,39,27,48,27,37,79,,97,88,9,13,3,3,0.5,0.6
2025-06-12T2300,2279A,116.8569,32.5951,淮南市,谢家集区政府,,42,42,51,24,29,70,,87,84,18,15,6,7,0.4,0.4
2025-06-12T2300,2280A,116.8281,32.633,淮南市,八公山区政府,,43,40,48,30,32,79,,94,90,11,13,3,4,0.4,0.4
2025-06-12T2300,2281A,116.6325,32.6201,淮南市,焦岗湖风景区管理处,,,,,,,,,,,,,,,,
2025-06-12T2300,2894A,117.0566,32.6531,淮南市,经济技术开发区消防队,细颗粒物(PM2.5),54,38,37,38,42,74,,91,86,15,16,5,6,0.4,0.5
2025-06-12T2300,3329A,117.0108,32.5893,淮南市,山南新区,,33,33,44,22,31,76,,96,92,9,10,6,7,0.6,0.5
2025-06-12T2300,4209A,117.0031,32.6445,淮南市,国庆中路369号,,46,36,53,32,41,77,,91,88,10,12,4,5,0.4,0.4
2025-06-12T2300,2446A,114.9028,30.4742,黄冈市,职工中心,,38,31,39,26,31,78,,117,98,4,6,8,11,0.6,0.7
2025-06-12T2300,2929A,114.8858,30.4519,黄冈市,红卫路,,32,31,38,22,25,76,,112,92,8,8,5,8,0.6,0.6
2025-06-12T2300,3398A,114.9136,30.4445,黄冈市,市林业局,,35,32,39,24,27,74,,107,87,10,12,7,10,0.7,0.8
2025-06-12T2300,2672A,102.0199,35.5102,黄南藏族自治州,同仁县隆务镇,,29,29,31,9,10,92,,125,116,1,4,5,6,0.2,0.2
2025-06-12T2300,2295A,118.2903,29.6963,黄山市,延安路89号,,,,15,,8,,,59,,,5,,5,,0.5
2025-06-12T2300,2297A,118.1371,30.2756,黄山市,黄山区政府5号楼,,23,18,15,16,12,52,,68,54,4,3,4,3,0.5,0.5
2025-06-12T2300,4210A,118.3354,29.7203,黄山市,滨江东路7-2号,,28,28,16,3,4,12,,68,34,9,6,4,4,0.5,0.5
2025-06-12T2300,2423A,115.0601,30.2313,黄石市,沈家营,颗粒物(PM10),61,72,44,19,18,16,,93,67,53,15,8,8,0.7,0.7
2025-06-12T2300,2426A,114.8988,30.2019,黄石市,铁山,,35,32,28,24,19,66,,99,81,15,14,3,4,0.6,0.6
2025-06-12T2300,2427A,115.0307,30.2092,黄石市,团城山,,49,49,36,23,14,80,,104,94,10,3,22,9,0.7,0.5
2025-06-12T2300,3149A,115.0235,30.1578,黄石市,笔架山北路,颗粒物(PM10),60,70,38,18,14,54,,94,77,18,11,7,5,0.7,0.6
2025-06-12T2300,4185A,115.0780,30.21118,黄石市,磁湖东路29号,颗粒物(PM10),53,56,41,25,19,68,,100,84,9,4,11,8,0.8,0.6
2025-06-12T2300,1392A,114.4183,23.0528,惠州市,河南岸金山湖子站,,10,6,16,3,8,32,,51,36,7,9,6,7,0.5,0.5
2025-06-12T2300,1393A,114.4053,23.0822,惠州市,下埔横江三路子站,,12,6,16,3,8,38,,59,38,4,7,4,4,0.3,0.3
2025-06-12T2300,1394A,114.4103,23.1142,惠州市,江北云山西路子站,,13,7,15,3,8,39,,60,36,3,6,6,8,0.2,0.3
2025-06-12T2300,1395A,114.4645,22.7833,惠州市,惠阳区承修路船湖子站,,11,8,16,3,6,33,,50,41,10,8,7,7,0.4,0.4
2025-06-12T2300,1396A,114.5317,22.7422,惠州市,大亚湾管委会子站,,10,10,14,3,5,30,,52,43,17,12,9,9,0.4,0.4
2025-06-12T2300,3314A,114.4338,22.8134,惠州市,惠阳秋长,,12,7,10,3,6,36,,56,48,8,5,7,6,0.6,0.6
2025-06-12T2300,3452A,114.6517,22.775,惠州市,大亚湾霞涌,,,,12,1,5,35,,56,51,8,7,6,6,0.6,0.6
2025-06-12T2300,2240A,130.9762,45.3001,鸡西市,环保局,,22,22,18,10,9,54,,100,80,18,12,2,2,0.5,0.4
2025-06-12T2300,2243A,130.9429,45.3039,鸡西市,第一中学,,26,26,17,12,9,58,,96,82,11,7,6,5,0.4,0.4
2025-06-12T2300,3707A,131.0207,45.3073,鸡西市,欧美日汽修厂,,22,22,23,3,11,48,,97,75,14,12,5,5,0.5,0.5
2025-06-12T2300,3709A,130.9967,45.3106,鸡西市,市政设施管理处,,24,24,21,15,11,48,,100,79,18,16,7,7,0.4,0.4
2025-06-12T2300,2367A,114.9754,27.0803,吉安市,红声器材厂,,33,33,22,15,11,72,,84,81,15,8,14,8,0.7,0.5
2025-06-12T2300,2368A,114.9658,27.0999,吉安市,市森林工业局,,30,30,22,19,12,89,,97,96,9,5,14,7,0.5,0.5
2025-06-12T2300,2369A,114.99,27.1312,吉安市,市环境监测站,,32,32,20,12,9,81,,92,90,12,6,15,9,0.6,0.7
2025-06-12T2300,2370A,115.0093,27.0968,吉安市,青原区法院,,34,34,26,18,13,74,,87,84,13,9,10,8,0.4,0.3
2025-06-12T2300,1772A,126.54,43.8622,吉林市,哈达湾,,45,29,21,17,13,141,,146,142,17,13,7,6,0.4,0.3
2025-06-12T2300,1773A,126.5844,43.8358,吉林市,东局子,,45,33,19,31,13,76,,129,119,36,13,7,5,0.8,0.5
2025-06-12T2300,1774A,126.5052,43.8245,吉林市,电力学院,细颗粒物(PM2.5),59,62,24,42,13,65,,137,116,34,21,6,5,0.6,0.4
2025-06-12T2300,1775A,126.6133,43.8972,吉林市,江北,颗粒物(PM10),77,104,24,22,11,103,,131,128,24,11,9,7,0.8,0.6
2025-06-12T2300,1776A,126.555,43.8306,吉林市,江南公园,,44,44,20,27,14,74,,135,124,33,12,6,5,0.6,0.4
2025-06-12T2300,1778A,126.7061,43.7133,吉林市,丰满,,,,,,,,,,,,,,,,
2025-06-12T2300,2868A,126.4739,43.953,吉林市,九站,,42,29,24,15,11,132,,148,146,22,17,6,6,0.4,0.3
2025-06-12T2300,1299A,116.9862,36.6114,济南市,科干所,,50,41,36,20,15,158,,180,171,14,9,7,7,0.4,0.3
2025-06-12T2300,1300A,116.9376,36.665,济南市,农科所,,46,46,43,20,14,141,,174,158,18,14,9,9,0.2,0.2
2025-06-12T2300,1301A,117.1265,36.6734,济南市,开发区,,50,49,44,20,18,158,,184,177,16,15,9,9,0.6,0.6
2025-06-12T2300,1303A,117.0624,36.6868,济南市,省种子仓库,臭氧1小时,55,51,48,22,15,164,,189,181,12,11,7,7,0.2,0.3
2025-06-12T2300,1304A,116.9489,36.6447,济南市,机床二厂,颗粒物(PM10),52,54,48,20,13,150,,176,166,14,14,8,7,0.5,0.4
2025-06-12T2300,1305A,117.0495,36.663,济南市,市监测站,,50,49,45,17,16,160,,182,174,15,13,10,10,0.5,0.5
2025-06-12T2300,1306A,116.7675,36.5484,济南市,长清党校,颗粒物(PM10),57,63,49,22,20,150,,181,171,21,16,7,7,0.7,0.6
2025-06-12T2300,1616A,117.6795,36.229,济南市,技术学院,颗粒物(PM10),53,56,47,12,17,115,,170,164,16,16,12,12,0.7,0.6
2025-06-12T2300,1961A,117.532,36.6868,济南市,东山小学,颗粒物(PM10),51,51,55,12,17,152,,200,187,11,10,9,10,0.2,0.4
2025-06-12T2300,3059A,117.7161,36.2049,济南市,泰兴公司,颗粒物(PM10),54,58,51,14,19,117,,181,170,23,20,9,9,0.8,0.6
2025-06-12T2300,3064A,117.6867,36.2171,济南市,莱芜战役纪念馆,颗粒物(PM10),56,61,52,21,19,121,,175,165,13,14,6,8,0.8,0.8
2025-06-12T2300,3494A,117.1673,36.9782,济南市,济阳区政府,颗粒物(PM10),59,68,76,20,19,148,,206,178,24,22,9,8,0.2,0.3
2025-06-12T2300,3495A,117.1171,36.63,济南市,锦屏中学,,50,42,40,12,14,158,,187,182,13,10,10,10,0.6,0.7
2025-06-12T2300,3682A,116.9814,36.6819,济南市,济南四建,臭氧1小时,53,51,43,20,17,162,,181,169,16,16,8,7,0.4,0.3
2025-06-12T2300,1653A,116.6251,35.4302,济宁市,火炬城,颗粒物(PM10),54,57,49,12,18,117,,157,152,10,10,4,5,0.4,0.5
2025-06-12T2300,1655A,116.5491,35.4042,济宁市,电化厂,颗粒物(PM10),57,64,50,14,18,114,,161,156,6,4,4,3,0.4,0.5
2025-06-12T2300,3500A,116.5814,35.3707,济宁市,北湖一中,颗粒物(PM10),56,62,50,12,23,116,,169,163,8,8,7,8,0.4,0.4
2025-06-12T2300,3501A,116.8249,35.5593,济宁市,服务中心,颗粒物(PM10),51,51,51,9,12,113,,164,150,14,13,2,2,0.3,0.3
2025-06-12T2300,3678A,116.5907,35.4054,济宁市,市第七中学,颗粒物(PM10),58,66,58,9,12,121,,162,157,7,6,6,6,0.3,0.3
2025-06-12T2300,2255A,130.2751,46.8028,佳木斯市,佳纺,,32,32,24,13,9,74,,96,79,14,14,7,7,0.4,0.3
2025-06-12T2300,2256A,130.3995,46.8307,佳木斯市,发电厂,,31,31,30,18,10,51,,93,72,27,15,6,5,0.4,0.4
2025-06-12T2300,2257A,130.3258,46.7975,佳木斯市,环保局,,26,23,22,12,11,82,,98,89,12,10,6,6,0.3,0.3
2025-06-12T2300,2258A,130.3648,46.8032,佳木斯市,十一中,,29,28,25,20,15,63,,88,72,16,13,5,4,0.4,0.4
2025-06-12T2300,2259A,130.3794,46.7588,佳木斯市,四丰,,,17,14,,,,,,,10,6,1,7,0.5,0.5
2025-06-12T2300,1252A,120.7436,30.778,嘉兴市,清河小学,,19,17,15,9,8,60,,103,83,13,14,6,7,0.7,0.7
2025-06-12T2300,1253A,120.726,30.7478,嘉兴市,嘉兴学院,,29,29,20,9,12,60,,101,85,10,14,6,5,0.5,0.6
2025-06-12T2300,2872A,120.7846,30.7525,嘉兴市,南湖区残联,,22,22,14,10,12,68,,106,86,10,13,6,5,0.5,0.5
2025-06-12T2300,3407A,120.6916,30.7739,嘉兴市,秀洲住建,,19,18,15,8,9,60,,105,86,11,14,5,5,0.6,0.7
2025-06-12T2300,1945A,98.2908,39.7711,嘉峪关市,气象局,,39,39,33,12,11,121,,138,131,15,9,7,7,0.4,0.4
2025-06-12T2300,2884A,98.2672,39.7978,嘉峪关市,酒钢宾馆,,44,44,42,22,15,121,,129,126,10,12,13,26,0.4,0.6
2025-06-12T2300,3248A,98.2643,39.7724,嘉峪关市,雄关区,,39,39,35,14,14,121,,132,128,15,16,9,11,0.3,0.4
2025-06-12T2300,1383A,113.1064,22.6058,江门市,北街,,11,11,13,6,5,32,,85,49,8,8,3,3,0.3,0.3
2025-06-12T2300,1384A,113.0731,22.5835,江门市,西区,,13,,15,9,9,38,,82,51,9,12,7,7,0.3,0.4
2025-06-12T2300,1385A,113.0219,22.5311,江门市,圭峰西,,11,8,14,3,7,35,,75,47,7,9,4,4,0.3,0.4
2025-06-12T2300,1386A,113.0828,22.5947,江门市,东湖,,12,12,15,7,7,33,,78,48,12,14,9,9,0.3,0.4
2025-06-12T2300,3311A,113.1075,22.5647,江门市,江海富民,,23,23,23,6,11,38,,79,47,14,16,8,9,0.4,0.5
2025-06-12T2300,3449A,113.05,22.4667,江门市,新会银湖,,10,10,12,3,6,26,,64,40,10,11,2,3,0.3,0.3
2025-06-12T2300,1830A,113.1992,35.2590,焦作市,影视城,,,,45,,13,,,,,,9,,12,,0.7
2025-06-12T2300,3169A,113.2725,35.2067,焦作市,太极体育中心,颗粒物(PM10),54,58,60,27,33,147,,224,201,19,12,11,5,0.3,0.2
2025-06-12T2300,3335A,113.3137,35.2641,焦作市,马村街道办,颗粒物(PM10),60,69,65,39,44,157,,222,202,23,19,10,11,0.5,0.5
2025-06-12T2300,3336A,113.2465,35.2373,焦作市,焦作技师学院,颗粒物(PM10),53,55,53,19,23,155,,216,199,14,12,10,9,0.9,0.9
2025-06-12T2300,3477A,113.1656,35.2539,焦作市,中站许衡医院,颗粒物(PM10),65,80,63,35,32,154,,209,194,25,16,8,7,0.6,0.6
2025-06-12T2300,3981A,113.2449,35.1803,焦作市,原李万街道办,颗粒物(PM10),54,57,56,14,21,151,,224,201,21,14,18,13,0.3,0.3
2025-06-12T2300,4264A,113.2340,35.2190,焦作市,新安路1731号,颗粒物(PM10),53,55,66,28,30,157,,222,204,15,11,9,7,0.4,0.4
2025-06-12T2300,1708A,116.3701,23.5345,揭阳市,新兴,,30,23,30,16,14,94,,76,72,9,7,4,5,0.5,0.6
2025-06-12T2300,1709A,116.3264,23.5443,揭阳市,西马,,33,33,23,12,13,102,,77,77,5,5,2,2,0.7,0.6
2025-06-12T2300,1710A,116.3611,23.5626,揭阳市,东兴,,33,20,29,16,12,105,,85,85,7,6,5,4,0.6,0.4
2025-06-12T2300,1711A,116.4151,23.5294,揭阳市,渔湖,,30,23,25,17,11,95,,85,85,7,7,3,2,0.8,0.7
2025-06-12T2300,3320A,116.403,23.5699,揭阳市,曲溪,,35,27,24,13,12,109,,93,93,4,5,5,5,0.6,0.4
2025-06-12T2300,1944A,102.1692,38.5167,金昌市,天庆家园,颗粒物(PM10),64,78,67,32,24,86,,118,108,11,6,10,19,0.7,0.7
2025-06-12T2300,4022A,102.1647,38.5371,金昌市,金川区人防中心,颗粒物(PM10),68,85,76,33,25,82,,111,100,8,5,9,13,0.4,0.4
2025-06-12T2300,4239A,102.1930,38.5319,金昌市,长春路96号,颗粒物(PM10),70,90,72,30,22,91,,114,106,5,3,13,20,0.7,0.7
2025-06-12T2300,1262A,119.647,29.077,金华市,十五中,,19,15,24,13,14,5,,123,48,34,17,1,1,0.6,0.6
2025-06-12T2300,1263A,119.686,29.1029,金华市,监测站,,16,16,26,8,14,2,,134,48,30,19,2,2,0.4,0.4
2025-06-12T2300,3659A,119.656,29.1131,金华市,气象局,,20,20,24,8,11,3,,115,44,35,21,2,2,0.6,0.6
2025-06-12T2300,1767A,121.1115,41.0879,锦州市,南山,,36,26,39,15,28,114,,136,128,24,17,7,13,0.6,0.6
2025-06-12T2300,1768A,121.0604,40.8428,锦州市,开发区,,37,37,56,14,11,108,,140,136,33,21,18,7,0.6,0.6
2025-06-12T2300,1769A,121.1836,41.1119,锦州市,百股街道,,39,30,36,14,17,123,,138,130,20,15,10,11,0.5,0.5
2025-06-12T2300,1770A,121.1178,41.1222,锦州市,天安街道,,38,32,44,18,29,120,,142,130,27,20,7,12,0.8,0.9
2025-06-12T2300,1771A,121.1303,41.1386,锦州市,北湖公园,,39,30,40,15,26,122,,141,130,23,17,9,12,0.6,0.6
2025-06-12T2300,2160A,112.85,35.5051,晋城市,自来水公司,臭氧1小时,92,55,58,19,26,193,,229,226,14,11,3,3,0.2,0.2
2025-06-12T2300,2161A,112.8318,35.4936,晋城市,白云商贸,臭氧1小时,83,56,62,12,18,186,,224,220,19,15,8,8,0.4,0.5
2025-06-12T2300,2162A,112.8508,35.4887,晋城市,市环保局,臭氧1小时,75,74,75,27,27,180,,214,212,14,11,9,8,0.1,0.2
2025-06-12T2300,2163A,112.8676,35.4897,晋城市,技术学院,臭氧1小时,63,62,56,27,23,170,,223,217,25,13,7,7,0.7,0.7
2025-06-12T2300,2165A,112.8453,35.546,晋城市,白马寺,臭氧1小时,95,46,43,30,30,196,,228,226,11,7,5,5,0.5,0.6
2025-06-12T2300,3620A,112.8271,35.4828,晋城市,泽州一中,臭氧1小时,78,37,51,22,24,182,,229,225,18,14,4,4,0.6,0.6
2025-06-12T2300,2173A,112.7249,37.7067,晋中市,南都小区,臭氧1小时,68,54,58,31,33,174,,190,177,8,6,5,5,0.5,0.5
2025-06-12T2300,2174A,112.6991,37.6982,晋中市,榆次区政府,臭氧1小时,68,66,62,19,27,174,,195,176,13,12,7,7,1.0,0.7
2025-06-12T2300,2865A,112.7195,37.6828,晋中市,榆次三中,臭氧1小时,72,75,65,19,27,177,,197,,12,8,8,6,0.4,0.5
2025-06-12T2300,4200A,112.7478,37.6954,晋中市,迎宾街26号,臭氧1小时,78,78,62,27,26,182,,202,184,11,8,7,6,0.5,0.5
2025-06-12T2300,2439A,112.2014,31.0481,荆门市,竹园小学,,,,38,,27,,,133,,8,6,5,7,0.6,0.4
2025-06-12T2300,2440A,112.1969,30.9891,荆门市,掇刀,,35,24,31,24,25,84,,130,113,9,9,8,7,0.7,0.6
2025-06-12T2300,2441A,112.2213,31.0386,荆门市,石化一小,,31,31,40,19,24,66,,133,113,29,17,12,13,0.7,0.4
2025-06-12T2300,3012A,112.1849,31.0362,荆门市,西山林语,,32,26,27,22,23,81,,132,114,7,6,10,10,0.5,0.4
2025-06-12T2300,3547A,112.1632,31.0138,荆门市,龙泉中学南校,,32,,24,22,19,87,,130,111,16,17,3,4,0.5,0.5
2025-06-12T2300,1844A,112.2494,30.3197,荆州市,市图书馆,,24,19,23,14,18,75,,130,111,18,12,3,4,0.6,0.6
2025-06-12T2300,1845A,112.2008,30.3544,荆州市,市委党校,,33,24,26,23,20,74,,116,99,15,16,6,7,0.6,0.6
2025-06-12T2300,3194A,112.2747,30.3122,荆州市,管委会,,28,24,24,19,20,75,,117,101,12,16,6,6,0.7,0.7
2025-06-12T2300,4268A,112.1722,30.3366,荆州市,学苑路85号,,32,31,24,22,23,58,,125,102,47,28,2,4,0.2,0.2
2025-06-12T2300,2342A,117.3102,29.3867,景德镇市,王港中学,,,,,,,,,,,,,,,,
2025-06-12T2300,2343A,117.2117,29.2933,景德镇市,老干部活动中心,,,33,14,,8,16,,75,46,34,10,19,5,0.6,0.5
2025-06-12T2300,2344A,117.1894,29.2789,景德镇市,兽医站,,35,35,24,19,6,21,,76,46,21,8,13,6,0.7,0.5
2025-06-12T2300,2345A,117.1547,29.2617,景德镇市,台达陶瓷,,31,31,18,13,9,25,,81,52,27,11,37,29,0.6,0.5
2025-06-12T2300,2346A,117.2461,29.2956,景德镇市,陶研所,,29,29,19,15,6,6,,68,39,13,6,3,1,0.5,0.4
2025-06-12T2300,1803A,115.9872,29.6815,九江市,十里,,40,28,26,28,23,61,,109,94,16,13,4,4,0.7,0.8
2025-06-12T2300,1804A,115.9584,29.7046,九江市,茅山头,,32,32,32,21,24,70,,104,89,18,19,5,4,0.6,0.6
2025-06-12T2300,1805A,115.9877,29.7295,九江市,西园,,29,23,29,20,20,78,,113,93,28,28,5,6,1.0,1.1
2025-06-12T2300,1808A,115.9114,29.6038,九江市,综合工业园,,32,,30,22,23,65,,115,97,33,29,10,9,0.8,0.9
2025-06-12T2300,1809A,116.0721,29.7535,九江市,石化总厂,,38,,30,26,27,46,,102,81,35,14,4,5,0.7,0.8
2025-06-12T2300,1810A,115.9773,29.5698,九江市,庐山气象台,,18,10,9,6,6,55,,77,60,2,4,7,18,1.2,0.7
2025-06-12T2300,3190A,116.0254,29.6994,九江市,外国语学校,,32,,19,22,20,75,,106,90,12,14,7,8,0.8,0.7
2025-06-12T2300,4253A,116.0102,29.6594,九江市,莲花大道8号,,25,21,20,17,17,71,,96,85,5,7,4,4,0.6,0.7
2025-06-12T2300,4240A,98.4958,39.7339,酒泉市,玉门东路5号,颗粒物(PM10),57,63,41,33,26,85,,124,114,22,8,10,9,0.5,0.3
2025-06-12T2300,4241A,98.5099,39.7506,酒泉市,北大街108号,二氧化硫,55,48,34,24,16,98,,138,126,24,9,180,20,0.3,0.2
2025-06-12T2300,2698A,76.0072,39.4467,喀什地区,巡警大队,颗粒物(PM10),500,971,103,362,33,63,,142,132,10,10,1,5,0.3,0.3
2025-06-12T2300,2699A,75.9755,39.4694,喀什地区,吾办,颗粒物(PM10),500,887,88,352,35,80,,138,130,18,12,3,3,0.2,0.1
2025-06-12T2300,4027A,75.9483,39.4689,喀什地区,老干局,颗粒物(PM10),500,787,189,469,80,,,,,14,43,4,19,0.4,0.5
2025-06-12T2300,1824A,114.3389,34.7781,开封市,肿瘤医院,颗粒物(PM10),51,51,51,24,25,132,,190,172,15,8,2,2,0.4,0.5
2025-06-12T2300,1826A,114.2885,34.7965,开封市,世纪星幼儿园,颗粒物(PM10),53,55,55,15,31,158,,202,187,15,14,1,2,0.6,0.7
2025-06-12T2300,3147A,114.3438,34.8106,开封市,龙亭公园,,45,44,46,21,28,142,,200,183,17,12,6,5,0.3,0.4
2025-06-12T2300,3210A,114.3644,34.7964,开封市,汴京公园,颗粒物(PM10),55,60,60,29,33,137,,197,176,19,13,9,8,0.6,0.7
2025-06-12T2300,3473A,114.2485,34.8306,开封市,技师学院,颗粒物(PM10),54,57,88,35,27,159,,180,177,11,10,4,5,0.4,0.5
2025-06-12T2300,3592A,114.4644,34.7556,开封市,祥符区生态环境局,颗粒物(PM10),51,52,53,20,26,131,,197,172,23,19,4,5,0.5,0.6
2025-06-12T2300,1951A,84.895,45.6094,克拉玛依市,长征新村,,32,23,18,3,6,102,,110,108,4,6,4,4,0.5,0.5
2025-06-12T2300,1952A,84.8988,45.5893,克拉玛依市,南林小区,,34,24,21,16,10,107,,114,113,7,8,11,11,0.1,0.1
2025-06-12T2300,1954A,84.905,44.3396,克拉玛依市,独山子区,,32,32,31,13,15,79,,107,101,25,12,6,6,0.3,0.2
2025-06-12T2300,1955A,85.6979,46.098,克拉玛依市,乌尔禾区商贸楼,,32,29,21,9,7,100,,105,105,7,6,3,4,0.3,0.3
2025-06-12T2300,3612A,85.1045,45.6899,克拉玛依市,白碱滩区新站,,,121,38,30,17,,,129,129,2,6,,14,0.4,0.2
2025-06-12T2300,2697A,76.1454,39.7142,克孜勒苏柯尔克孜自治州,市人民政府,"颗粒物(PM10),细颗粒物(PM2.5)",500,2390,263,934,108,,,149,136,18,4,2,6,0.6,0.5
2025-06-12T2300,3665A,76.1658,39.7157,克孜勒苏柯尔克孜自治州,克州文化中心,"颗粒物(PM10),细颗粒物(PM2.5)",500,3020,421,973,107,85,,144,134,9,9,3,8,0.2,0.2
2025-06-12T2300,1450A,102.8204,24.8886,昆明市,呈贡新区,,46,,34,32,28,116,,152,141,11,17,6,7,0.4,0.5
2025-06-12T2300,1451A,102.6251,24.9608,昆明市,西山森林公园,,,,,,,,,,,,,,,,
2025-06-12T2300,1452A,102.7252,25.0902,昆明市,龙泉镇,颗粒物(PM10),54,57,35,30,21,86,,143,127,26,26,3,2,0.5,0.4
2025-06-12T2300,1453A,102.7266,25.0375,昆明市,东风东路,颗粒物(PM10),54,57,48,32,28,98,,156,138,30,17,5,7,0.4,0.4
2025-06-12T2300,1454A,102.6742,25.0669,昆明市,金鼎山,,44,44,36,17,18,110,,151,139,16,15,1,2,0.3,0.3
2025-06-12T2300,1455A,102.6644,25.0401,昆明市,碧鸡广场,细颗粒物(PM2.5),58,61,40,41,21,92,,154,136,29,18,6,7,0.5,0.5
2025-06-12T2300,3179A,102.7494,25.0119,昆明市,官渡区博物馆,,50,50,39,28,22,79,,158,134,46,27,6,7,0.3,0.4
2025-06-12T2300,3375A,102.8017,24.8336,昆明市,青年创业园,,45,45,39,25,25,118,,160,143,16,16,9,9,0.3,0.3
2025-06-12T2300,3550A,102.7997,24.9786,昆明市,昆明学院,颗粒物(PM10),54,57,56,32,29,103,,167,144,24,22,5,7,0.3,0.3
2025-06-12T2300,3551A,102.5967,24.6736,昆明市,晋宁区生态环境分局,颗粒物(PM10),53,56,32,29,24,109,,160,142,12,12,2,2,0.5,0.4
2025-06-12T2300,3552A,102.6678,24.9856,昆明市,云天化总部,,45,45,39,31,25,115,,160,142,12,18,3,4,0.3,0.3
2025-06-12T2300,1456A,91.1319,29.6514,拉萨市,八廓街,,36,28,25,12,12,114,,125,121,10,13,7,10,0.3,0.3
2025-06-12T2300,1457A,91.1221,29.6747,拉萨市,市环保局,,37,30,31,15,14,116,,129,123,11,14,3,9,0.3,0.3
2025-06-12T2300,1458A,91.0874,29.6475,拉萨市,区监测站,,36,26,25,13,13,114,,124,121,14,19,6,9,0.3,0.3
2025-06-12T2300,1459A,91.1774,29.6541,拉萨市,西藏大学,,36,23,23,11,10,113,,122,118,9,10,3,7,0.2,0.2
2025-06-12T2300,1460A,90.9798,29.6588,拉萨市,区辐射站,,33,26,30,13,17,104,,118,116,11,18,6,7,0.3,0.3
2025-06-12T2300,1461A,91.0834,29.6292,拉萨市,拉萨火车站,,35,26,25,11,12,112,,125,122,12,16,3,5,0.2,0.2
2025-06-12T2300,2520A,109.2203,23.7256,来宾市,来宾技工学校,,16,10,22,10,11,25,,101,76,32,10,7,7,0.5,0.7
2025-06-12T2300,3535A,109.1781,23.7297,来宾市,兴宾区政府,,23,23,20,15,13,46,,90,73,2,6,5,4,0.4,0.8
2025-06-12T2300,4002A,109.2416,23.7461,来宾市,中南小学,,22,19,25,15,12,40,,98,76,14,9,5,6,0.6,0.7
2025-06-12T2300,1477A,104.1373,35.9454,兰州市,榆中兰大校区,,,,,,,,,,,,,,,,
2025-06-12T2300,1479A,103.831,36.0464,兰州市,铁路设计院,,45,45,59,29,28,79,,150,113,47,53,9,12,0.5,0.6
2025-06-12T2300,3241A,103.7439,36.0842,兰州市,百合公园,,41,41,60,25,22,61,,166,120,46,43,6,6,0.2,0.5
2025-06-12T2300,3242A,103.9611,35.998,兰州市,和平,颗粒物(PM10),55,60,57,23,22,90,,162,133,13,14,8,9,0.5,0.5
2025-06-12T2300,4236A,103.6293,36.0938,兰州市,庄浪东路808号,细颗粒物(PM2.5),60,50,62,43,33,98,,167,118,27,38,11,15,0.3,0.4
2025-06-12T2300,4237A,103.7251,36.1043,兰州市,安宁西路88号,颗粒物(PM10),57,64,67,33,34,80,,188,137,34,31,6,11,0.4,0.4
2025-06-12T2300,4238A,103.8470,36.0676,兰州市,北滨河东路1号,颗粒物(PM10),52,53,60,33,26,28,,165,112,99,57,9,12,0.6,0.7
2025-06-12T2300,3245A,103.6633,36.533,兰州新区,新区管委会,,38,38,50,25,28,108,,152,136,13,12,19,17,0.3,0.4
2025-06-12T2300,3246A,103.6975,36.4789,兰州新区,舟曲中学,颗粒物(PM10),80,109,172,17,20,107,,141,132,24,21,20,14,0.5,0.5
2025-06-12T2300,1067A,116.6708,39.5111,廊坊市,药材公司,颗粒物(PM10),63,76,94,23,39,142,,224,206,25,19,5,7,0.5,0.5
2025-06-12T2300,1068A,116.7214,39.5589,廊坊市,开发区,颗粒物(PM10),66,81,108,23,34,131,,227,208,27,19,5,5,0.6,0.4
2025-06-12T2300,1070A,116.7244,39.5269,廊坊市,北华航天学院,颗粒物(PM10),67,83,106,25,34,134,,218,200,22,15,5,5,0.5,0.4
2025-06-12T2300,2919A,116.7022,39.5453,廊坊市,河北工业大学,颗粒物(PM10),71,92,114,23,38,144,,230,212,24,19,6,7,0.5,0.4
2025-06-12T2300,2535A,103.7723,29.5462,乐山市,花湖湾,细颗粒物(PM2.5),53,51,51,37,27,107,,202,168,32,23,6,9,0.9,1
2025-06-12T2300,2536A,103.7627,29.5844,乐山市,牛耳桥,颗粒物(PM10),52,54,51,28,30,91,,185,147,34,28,9,9,0.7,0.7
2025-06-12T2300,2537A,103.7508,29.6006,乐山市,市第三水厂,,46,46,43,23,28,64,,198,152,57,27,5,7,0.6,0.4
2025-06-12T2300,2538A,103.7571,29.5664,乐山市,市监测站,颗粒物(PM10),52,53,53,32,30,108,,210,172,32,23,11,11,0.9,1
2025-06-12T2300,3361A,103.7311,29.5628,乐山市,理工大学,颗粒物(PM10),52,54,51,33,30,58,,178,135,30,25,9,9,0.8,1
2025-06-12T2300,2598A,100.2143,26.8576,丽江市,西南郊,颗粒物(PM10),51,52,22,34,13,68,,133,115,24,10,6,6,0.6,0.5
2025-06-12T2300,2599A,100.2497,26.8802,丽江市,丽江古城,,44,44,23,28,18,73,,118,105,23,12,8,9,0.5,0.4
2025-06-12T2300,2600A,100.2203,26.8906,丽江市,市中心,,49,49,19,26,13,65,,119,102,22,12,12,11,0.5,0.4
2025-06-12T2300,1267A,119.914,28.4514,丽水市,监测站大楼,,8,6,17,3,7,5,,51,13,15,12,2,3,0.6,0.5
2025-06-12T2300,1268A,119.93,28.4586,丽水市,莲都小学,,9,6,16,3,3,6,,51,15,17,14,3,3,0.3,0.4
2025-06-12T2300,1269A,119.879,28.4231,丽水市,余庄前,,9,8,15,3,5,0,,52,10,18,10,3,3,0.5,0.5
2025-06-12T2300,1173A,119.176,34.5885,连云港市,市环境监测站,,44,44,48,14,11,96,,125,107,13,13,6,6,0.5,0.5
2025-06-12T2300,3000A,119.3581,34.6972,连云港市,德源药业,,29,29,33,9,8,91,,114,93,13,18,12,12,0.7,0.7
2025-06-12T2300,3007A,119.178,34.844,连云港市,新城一中,,34,34,28,18,8,79,,121,106,26,22,11,7,0.9,0.7
2025-06-12T2300,3008A,119.3608,34.7519,连云港市,胡沟管理处,,29,27,18,12,7,91,,114,92,17,21,14,12,0.7,0.6
2025-06-12T2300,3009A,119.1478,34.5911,连云港市,矿山设计院,,39,39,43,12,8,87,,116,98,12,13,4,4,0.4,0.4
2025-06-12T2300,3434A,119.2413,34.6539,连云港市,工贸学校,颗粒物(PM10),52,53,39,18,11,95,,127,108,7,8,8,9,0.5,0.5
2025-06-12T2300,3664A,119.4172,34.7341,连云港市,连云街道,,35,35,27,15,10,94,,122,109,9,6,11,10,0.8,0.6
2025-06-12T2300,2571A,102.3431,27.8099,凉山彝族自治州,青龙寺,,,59,28,9,9,,,137,,30,8,2,5,0.4,0.6
2025-06-12T2300,2572A,102.2721,27.8415,凉山彝族自治州,邛海宾馆,,30,26,30,15,17,94,,132,115,18,13,8,8,0.4,0.4
2025-06-12T2300,2573A,102.2625,27.898,凉山彝族自治州,西昌市政府,细颗粒物(PM2.5),58,,52,41,40,98,,82,,7,12,3,10,0.2,0.7
2025-06-12T2300,2574A,102.2685,27.8851,凉山彝族自治州,凉山州政府,,32,32,28,19,16,89,,134,113,15,15,6,7,0.5,0.5
2025-06-12T2300,4229A,102.2342,27.8859,凉山彝族自治州,凯乐南路30号,,31,31,35,16,15,96,,134,119,5,18,8,9,0.5,0.4
2025-06-12T2300,2212A,123.2,41.1953,辽阳市,宏伟区,,45,12,35,6,10,142,,172,148,7,13,8,10,0.5,0.6
2025-06-12T2300,2213A,123.1683,41.2495,辽阳市,新华园,,44,24,36,12,12,138,,158,134,6,13,4,7,0.4,0.5
2025-06-12T2300,2214A,123.2354,41.2639,辽阳市,滨河路,,39,17,43,11,16,122,,159,131,12,16,8,11,0.4,0.5
2025-06-12T2300,2215A,123.149,41.2991,辽阳市,铁西工业园,,39,20,40,17,15,124,,134,115,8,16,4,8,0.4,0.6
2025-06-12T2300,2227A,125.1358,42.8845,辽源市,环保局,,48,48,30,30,11,54,,167,127,47,33,4,4,0.8,0.5
2025-06-12T2300,3239A,125.0764,42.9078,辽源市,银鹰制药,,47,47,30,26,15,40,,173,124,71,36,9,6,0.7,0.5
2025-06-12T2300,1625A,115.9848,36.4372,聊城市,区政府,颗粒物(PM10),69,88,80,20,18,164,,192,185,13,11,8,8,0.6,0.6
2025-06-12T2300,2878A,116.0072,36.4343,聊城市,聊大东校,颗粒物(PM10),67,83,82,25,25,166,,189,183,14,11,8,8,0.4,0.4
2025-06-12T2300,3200A,115.9819,36.4978,聊城市,监控中心,颗粒物(PM10),72,94,85,14,17,162,,187,181,14,11,9,9,0.4,0.4
2025-06-12T2300,3513A,116.0445,36.4361,聊城市,九州社区,颗粒物(PM10),65,79,73,19,17,163,,184,178,10,9,6,5,0.5,0.5
2025-06-12T2300,4018A,116.0567,36.4608,聊城市,星美广场,颗粒物(PM10),70,89,80,13,15,165,,183,175,10,11,9,9,0.5,0.4
2025-06-12T2300,2632A,94.3681,29.6376,林芝市,林芝监测站,,,,22,16,13,74,,97,92,9,6,4,3,0.4,0.3
2025-06-12T2300,2633A,94.3616,29.6616,林芝市,林芝人民医院,,21,21,22,12,12,60,,103,90,10,4,4,4,0.2,0.2
2025-06-12T2300,2603A,100.0781,23.8982,临沧市,市环保局,,,,,,,,,,,,,,,,
2025-06-12T2300,2604A,100.0894,23.8822,临沧市,市气象局,,45,38,33,31,27,64,,112,98,12,12,7,8,0.6,0.5
2025-06-12T2300,1733A,111.5531,36.0783,临汾市,临钢医院,臭氧1小时,68,66,72,23,22,174,,190,179,16,19,7,7,0.6,0.6
2025-06-12T2300,1734A,111.5028,36.0714,临汾市,技工学校,臭氧1小时,85,80,67,44,34,188,,198,188,12,11,8,8,0.6,0.7
2025-06-12T2300,1736A,111.5018,36.0855,临汾市,市委,臭氧1小时,93,91,86,22,23,194,,202,189,16,15,8,8,0.7,0.8
2025-06-12T2300,3018A,111.505,36.1014,临汾市,唐尧大酒店,臭氧1小时,70,86,81,27,24,176,,198,180,13,12,8,8,0.7,0.7
2025-06-12T2300,4244A,111.4879,36.0530,临汾市,启星学校,臭氧1小时,92,93,66,42,36,193,,198,188,11,11,6,6,0.6,0.7
2025-06-12T2300,4271A,103.2464,35.6123,临夏回族自治州,滨河东路1号,颗粒物(PM10),62,73,63,32,35,55,,131,112,38,13,8,9,0.3,0.3
2025-06-12T2300,4310A,103.2093,35.5995,临夏回族自治州,新华街21号,颗粒物(PM10),59,68,64,32,28,70,,145,118,34,19,4,5,0.4,0.4
2025-06-12T2300,1618A,118.3429,35.0532,临沂市,沂河小区,颗粒物(PM10),63,75,67,17,24,77,,144,117,20,15,8,10,0.3,0.3
2025-06-12T2300,1619A,118.295,35.0583,临沂市,鲁南制药厂,颗粒物(PM10),62,73,66,24,22,82,,150,122,21,19,8,12,0.5,0.5
2025-06-12T2300,1620A,118.2794,34.9976,临沂市,新光毛纺厂,颗粒物(PM10),62,73,68,24,22,78,,148,119,21,23,9,14,0.4,0.3
2025-06-12T2300,1621A,118.3956,35.0888,临沂市,河东保险公司,,41,41,51,12,16,82,,144,119,19,20,6,6,0.4,0.4
2025-06-12T2300,3370A,118.3564,35.0215,临沂市,十里堡居委,颗粒物(PM10),62,73,67,22,23,83,,151,123,25,23,8,11,0.5,0.4
2025-06-12T2300,3496A,118.3604,35.1084,临沂市,南坊新区,,46,46,59,12,17,76,,139,111,21,20,8,10,0.3,0.3
2025-06-12T2300,3860A,118.3920,35.0300,临沂市,皇山花园小区,,,,66,16,19,81,,149,124,25,21,10,11,,0.5
2025-06-12T2300,1870A,109.4856,24.3895,柳州市,柳东小学,,21,21,16,12,10,59,,66,63,6,5,11,11,0.5,0.5
2025-06-12T2300,1871A,109.4157,24.3277,柳州市,环保监测站,,46,46,23,19,15,27,,70,52,13,8,17,8,0.9,0.7
2025-06-12T2300,1872A,109.389,24.341,柳州市,河西水厂,,29,29,31,16,16,29,,72,52,10,11,6,14,0.5,0.8
2025-06-12T2300,1873A,109.4311,24.2921,柳州市,市四中,,22,22,28,15,12,53,,70,60,12,9,8,9,0.7,0.7
2025-06-12T2300,1874A,109.4006,24.3631,柳州市,市九中,,,,28,28,13,19,,68,46,13,11,10,12,0.5,0.6
2025-06-12T2300,1875A,109.4958,24.3134,柳州市,古亭山,,22,,22,12,12,69,,74,71,6,3,8,6,0.5,0.5
2025-06-12T2300,3402A,109.5422,24.3996,柳州市,市二中,,20,20,19,12,10,64,,73,67,10,8,13,11,0.2,0.2
2025-06-12T2300,2307A,116.5079,31.737,六安市,监测大楼,,36,36,30,25,22,69,,102,88,4,4,3,3,0.5,0.4
2025-06-12T2300,2308A,116.4738,31.7643,六安市,皖西学院,,38,38,34,23,20,78,,110,98,8,6,6,6,0.4,0.3
2025-06-12T2300,2309A,116.4996,31.7905,六安市,朝阳厂,,40,40,33,27,23,66,,90,83,12,13,5,5,0.4,0.4
2025-06-12T2300,2310A,116.5567,31.7886,六安市,开发区,,41,41,31,21,24,67,,90,86,7,5,5,5,0.5,0.4
2025-06-12T2300,2576A,104.8,26.5892,六盘水市,窑上,,33,33,42,20,13,77,,139,119,5,7,2,4,0.3,0.3
2025-06-12T2300,2577A,104.83,26.5917,六盘水市,黄土坡,,37,37,37,25,20,93,,147,135,18,15,9,11,0.4,0.4
2025-06-12T2300,2578A,104.89,26.5939,六盘水市,水钢,细颗粒物(PM2.5),63,74,60,45,32,120,,151,145,13,23,11,16,0.4,0.9
2025-06-12T2300,2579A,104.8475,26.5894,六盘水市,民中,,37,37,39,24,21,117,,145,141,16,20,10,11,0.4,0.5
2025-06-12T2300,2580A,104.9544,26.5506,六盘水市,双水,,36,34,40,19,19,115,,149,140,12,23,10,12,0.4,0.6
2025-06-12T2300,2335A,117.0189,25.1181,龙岩市,龙岩师专,,,,,,,,,,,,,,,,
2025-06-12T2300,2336A,117.0217,25.1033,龙岩市,龙岩市监测站,,14,14,16,8,8,36,,68,49,16,12,7,8,0.4,0.5
2025-06-12T2300,2337A,117.0258,25.0661,龙岩市,闽西职业技术学院,,19,19,21,8,9,16,,62,40,14,10,17,19,0.4,0.4
2025-06-12T2300,2338A,117.0196,25.0306,龙岩市,龙岩学院,,7,6,21,3,9,14,,67,39,11,9,3,4,0.7,0.7
2025-06-12T2300,2665A,105.0822,33.3261,陇南市,汉王镇固水子,,,,,,,,,,,,,,,,
2025-06-12T2300,2885A,104.9339,33.3826,陇南市,滨江中学,,,,45,,24,,,163,152,4,7,4,9,0.5,0.6
2025-06-12T2300,3247A,104.955,33.371,陇南市,市总工会,,44,42,41,19,20,140,,161,151,4,5,5,6,0.5,0.6
2025-06-12T2300,2487A,111.9589,27.8901,娄底市,电视发射台,,35,35,36,3,8,12,,54,28,3,4,6,6,0.2,0.3
2025-06-12T2300,2488A,111.9975,27.725,娄底市,市监测站,,20,20,23,8,15,34,,68,57,16,15,6,6,0.8,0.7
2025-06-12T2300,2489A,112.0194,27.7314,娄底市,市委党校,,28,28,19,17,14,39,,69,57,6,5,4,15,0.3,0.3
2025-06-12T2300,2490A,111.9561,27.7569,娄底市,涟钢,,,52,23,13,15,,,54,46,12,9,7,8,0.7,0.7
2025-06-12T2300,2491A,111.9892,27.7044,娄底市,市政府,,30,28,23,21,15,12,,72,53,9,7,5,5,1.0,1.1
2025-06-12T2300,1893A,105.4324,28.9634,泸州市,九狮山,,45,45,40,24,28,69,,169,132,30,20,6,6,0.4,0.5
2025-06-12T2300,1894A,105.4427,28.9063,泸州市,小市上码头,,,53,38,24,18,111,,142,132,9,11,,12,0.6,0.5
2025-06-12T2300,1895A,105.4241,28.8573,泸州市,兰田宪桥,,,52,40,30,22,88,,148,128,,15,9,9,0.6,0.5
2025-06-12T2300,1896A,105.4379,28.8833,泸州市,市环监站,,41,41,33,13,18,97,,143,126,28,31,14,13,1.1,0.7
2025-06-12T2300,4272A,105.3689,28.7783,泸州市,纳溪中医医院,细颗粒物(PM2.5),59,62,43,42,28,59,,148,122,28,18,6,6,1.0,0.8
2025-06-12T2300,2183A,111.1406,37.5211,吕梁市,环保局,颗粒物(PM10),74,97,59,25,28,147,,180,173,12,11,4,4,0.5,0.5
2025-06-12T2300,2185A,111.1297,37.5136,吕梁市,自来水公司,颗粒物(PM10),68,86,76,24,25,143,,172,166,10,20,4,4,0.4,0.5
2025-06-12T2300,2867A,111.1283,37.51,吕梁市,马茂庄小学,颗粒物(PM10),80,110,80,26,27,142,,168,164,13,28,4,5,0.5,0.7
2025-06-12T2300,1812A,112.3931,34.6516,洛阳市,市委党校,,50,50,48,30,31,158,,179,170,9,9,7,7,0.6,0.6
2025-06-12T2300,1815A,112.494,34.6886,洛阳市,河南林校,臭氧1小时,59,56,58,23,32,167,,209,191,17,15,2,9,0.6,0.7
2025-06-12T2300,1816A,112.3844,34.623,洛阳市,开发区管委会,臭氧1小时,68,48,45,26,27,174,,196,186,10,10,7,8,0.5,0.5
2025-06-12T2300,1817A,112.4267,34.6258,洛阳市,市委新办公区,臭氧1小时,60,50,47,23,26,168,,188,179,10,11,8,8,0.6,0.6
2025-06-12T2300,3340A,112.6005,34.6326,洛阳市,伊滨,臭氧1小时,80,58,62,26,28,184,,205,194,9,11,6,8,0.6,0.7
2025-06-12T2300,3341A,112.4951,34.6332,洛阳市,中移产业园,臭氧1小时,73,56,55,28,30,178,,200,188,9,11,4,7,0.7,0.8
2025-06-12T2300,3593A,112.5736,34.8993,洛阳市,吉利监测站,颗粒物(PM10),57,63,67,29,33,133,,214,189,24,16,13,8,0.6,0.6
2025-06-12T2300,3635A,112.3677,34.662,洛阳市,河科大西苑校区,臭氧1小时,74,47,53,26,22,179,,201,189,11,11,8,9,0.4,0.5
2025-06-12T2300,3636A,112.4388,34.6781,洛阳市,英才小学,臭氧1小时,72,44,59,23,27,177,,202,190,8,9,7,8,0.6,0.7
2025-06-12T2300,4214A,112.4600,34.6949,洛阳市,春都路1号院,臭氧1小时,67,56,64,25,26,173,,206,191,11,13,6,7,0.6,0.6
2025-06-12T2300,2399A,114.051,33.5699,漯河市,三五一五工厂,,47,47,43,29,32,99,,184,159,21,17,5,5,0.7,0.6
2025-06-12T2300,2400A,114.0055,33.5698,漯河市,漯河大学,,43,43,48,17,24,111,,196,173,18,15,3,3,0.6,0.6
2025-06-12T2300,2401A,114.0138,33.5828,漯河市,市水利局,,44,44,50,22,30,109,,190,168,15,12,4,4,0.7,0.7
2025-06-12T2300,2402A,114.0261,33.5698,漯河市,市广电局,,39,39,46,26,32,107,,190,167,15,13,2,2,0.5,0.5
2025-06-12T2300,3478A,113.9749,33.5664,漯河市,市图书馆,,40,39,47,28,26,106,,186,163,17,16,3,4,0.6,0.6
2025-06-12T2300,4250A,114.0892,33.5882,漯河市,韶山路11号,,39,33,59,27,38,97,,189,166,19,16,4,5,0.7,0.6
2025-06-12T2300,1798A,118.5092,31.6837,马鞍山市,湖东路四小,,33,30,34,23,26,81,,93,92,12,11,6,6,0.5,0.5
2025-06-12T2300,1799A,118.5024,31.6449,马鞍山市,开发区,,40,40,38,21,20,80,,94,92,18,16,5,5,0.5,0.6
2025-06-12T2300,1802A,118.6245,31.7241,马鞍山市,濮塘,,38,33,35,26,27,93,,99,99,6,7,7,7,0.7,0.7
2025-06-12T2300,3633A,118.4918,31.6809,马鞍山市,雨山,,26,23,30,18,19,80,,92,91,15,13,7,7,0.6,0.6
2025-06-12T2300,4191A,118.5274,31.72227,马鞍山市,慈湖高新区,,50,50,44,30,27,84,,91,90,11,14,7,7,0.4,0.5
2025-06-12T2300,1686A,111.0286,21.4688,茂名市,电白南海,,18,17,18,9,12,56,,50,50,3,7,2,3,0.3,0.6
2025-06-12T2300,1687A,110.9294,21.6533,茂名市,茂石化七小,,22,22,20,3,7,34,,42,38,7,9,2,4,0.2,0.2
2025-06-12T2300,1688A,110.9107,21.6687,茂名市,健康路,,19,19,18,9,13,37,,50,44,8,8,8,13,0.4,0.4
2025-06-12T2300,1689A,110.8592,21.6828,茂名市,高岭,,29,29,25,9,5,33,,43,38,12,11,21,10,0.5,0.5
2025-06-12T2300,3450A,111.01,21.5165,茂名市,电白水东,,15,12,16,7,6,46,,46,45,8,10,4,4,0.3,0.3
2025-06-12T2300,2539A,104.0308,30.0478,眉山市,黑龙滩水库,,35,28,21,23,19,111,,214,188,20,14,1,2,0.7,0.7
2025-06-12T2300,2540A,103.8416,30.0874,眉山市,气象局,颗粒物(PM10),53,55,48,19,21,132,,222,192,24,13,3,3,0.6,0.5
2025-06-12T2300,3137A,103.8578,30.0744,眉山市,市委党校,,42,31,44,22,24,133,,205,184,31,54,5,6,0.6,0.6
2025-06-12T2300,3148A,103.8291,30.0564,眉山市,区人社局,颗粒物(PM10),52,53,61,19,22,146,,216,188,25,56,10,12,0.7,0.7
2025-06-12T2300,1690A,116.1231,24.3284,梅州市,梅江月梅,,21,21,25,11,16,7,,69,28,21,13,6,7,0.6,0.6
2025-06-12T2300,1691A,116.0797,24.2719,梅州市,梅县新城,,22,22,29,11,11,27,,70,39,6,10,6,6,0.4,0.7
2025-06-12T2300,1692A,116.1248,24.2654,梅州市,环境监控中心,,20,18,17,14,12,12,,72,33,24,14,2,3,0.5,0.5
2025-06-12T2300,3315A,116.1233,24.2991,梅州市,梅龙,,17,17,20,8,13,21,,73,38,14,10,6,7,0.5,0.5
2025-06-12T2300,1878A,104.7778,31.4741,绵阳市,富乐山,臭氧1小时,57,50,56,36,34,165,,191,179,11,16,9,9,0.6,0.6
2025-06-12T2300,1880A,104.6697,31.4668,绵阳市,高新区自来水公司,颗粒物(PM10),59,67,59,27,28,114,,186,159,37,29,9,4,0.8,0.8
2025-06-12T2300,1881A,104.7287,31.5075,绵阳市,三水厂,细颗粒物(PM2.5),64,68,58,46,41,88,,194,155,54,33,9,10,0.7,0.7
2025-06-12T2300,3491A,104.69,31.5322,绵阳市,西科大附属小学,颗粒物(PM10),62,73,63,39,35,101,,205,168,46,28,9,9,0.6,0.5
2025-06-12T2300,3492A,104.5648,31.5343,绵阳市,安州区旅游局,细颗粒物(PM2.5),62,68,53,44,28,120,,212,182,24,16,8,9,0.7,0.2
2025-06-12T2300,4226A,104.7651,31.4531,绵阳市,绵阳市气象局,细颗粒物(PM2.5),65,69,58,47,36,117,,177,161,34,25,10,8,0.5,0.6
2025-06-12T2300,1784A,129.61,44.561,牡丹江市,环保大楼,,30,28,21,21,14,78,,99,87,13,14,8,8,0.2,0.2
2025-06-12T2300,1785A,129.6115,44.5782,牡丹江市,文化广场,,28,28,20,13,13,76,,96,82,16,17,5,4,0.3,0.3
2025-06-12T2300,1786A,129.5904,44.5963,牡丹江市,第一医院,,25,20,16,7,10,80,,99,84,14,16,5,5,0.2,0.2
2025-06-12T2300,1787A,129.6364,44.6075,牡丹江市,机车工厂,,34,34,26,9,10,68,,95,79,21,17,6,6,0.3,0.3
2025-06-12T2300,1788A,129.6386,44.5462,牡丹江市,第一中学,,25,21,20,17,11,77,,97,78,14,13,8,8,0.3,0.3
2025-06-12T2300,2531A,105.0703,29.61,内江市,市监测站,,49,49,39,27,26,89,,160,146,29,15,8,6,0.6,0.5
2025-06-12T2300,2532A,105.0717,29.5947,内江市,东兴区政府,,48,43,28,24,21,152,,168,164,10,15,8,8,0.4,0.3
2025-06-12T2300,2533A,105.0653,29.5817,内江市,内江二中,,41,28,35,28,31,131,,161,156,13,18,7,7,0.5,0.5
2025-06-12T2300,2534A,105.0406,29.5822,内江市,内江日报社,颗粒物(PM10),59,67,36,22,27,134,,164,157,16,22,5,10,0.2,0.3
2025-06-12T2300,2628A,92.0657,31.4846,那曲市,那曲监测站,,40,40,30,15,13,75,,118,107,23,12,7,6,0.3,0.3
2025-06-12T2300,4243A,92.0515,31.4787,那曲市,那曲市委宣传部,,33,33,23,16,10,81,,127,118,20,8,7,6,0.4,0.2
2025-06-12T2300,1290A,115.8931,28.6843,南昌市,省外办,,42,31,18,29,13,75,,94,,22,14,4,3,0.8,0.7
2025-06-12T2300,1291A,115.8886,28.7003,南昌市,省林业公司,,36,36,17,22,10,70,,80,75,22,13,9,9,0.7,0.6
2025-06-12T2300,1292A,115.8126,28.7442,南昌市,林科所,,28,19,8,19,7,74,,81,70,10,9,4,4,0.6,0.4
2025-06-12T2300,1294A,115.8518,28.687,南昌市,建工学校,,31,31,16,16,10,75,,82,80,12,7,6,6,0.5,0.4
2025-06-12T2300,1295A,115.8921,28.6424,南昌市,象湖,,32,24,10,22,6,71,,80,77,17,11,6,6,0.8,0.7
2025-06-12T2300,1296A,115.7423,28.7996,南昌市,武术学校,,40,40,24,10,10,11,,63,33,4,3,7,7,0.5,0.4
2025-06-12T2300,3046A,115.9084,28.6062,南昌市,机电学校,,36,36,22,17,9,80,,80,78,11,9,4,4,0.3,0.3
2025-06-12T2300,3690A,115.9721,28.7031,南昌市,外国语学校,,29,29,16,12,6,74,,71,71,17,10,8,8,0.6,0.5
2025-06-12T2300,4192A,115.9316,28.68677,南昌市,南京东路235号,,39,28,20,27,8,78,,77,77,14,10,9,8,0.7,0.5
2025-06-12T2300,1905A,106.056,30.8064,南充市,西山风景区,,,,,,,,,,,,,,,,
2025-06-12T2300,1906A,106.0789,30.8023,南充市,南充市委,,40,39,43,22,26,127,,174,160,26,19,6,6,0.5,0.5
2025-06-12T2300,1907A,106.1031,30.8217,南充市,南充炼油厂,细颗粒物(PM2.5),52,52,47,36,28,128,,164,155,19,16,6,7,0.5,0.5
2025-06-12T2300,4227A,106.1083,30.7884,南充市,梨树横街98号,,48,48,45,27,25,138,,166,157,15,17,5,6,0.4,0.4
2025-06-12T2300,4304A,106.1172,30.843,南充市,清泉寺北路188号,颗粒物(PM10),54,58,47,22,14,133,,165,158,13,15,5,5,0.4,0.3
2025-06-12T2300,4305A,106.067,30.7616,南充市,同庆路1号,,49,49,47,34,29,117,,160,148,17,15,3,4,0.4,0.4
2025-06-12T2300,1151A,118.8086,32.1065,南京市,迈皋桥,,49,46,30,34,21,54,,80,70,26,21,4,4,0.7,0.5
2025-06-12T2300,1152A,118.7538,32.0551,南京市,草场门,,39,36,29,27,20,63,,83,77,22,21,1,2,0.6,0.5
2025-06-12T2300,1153A,118.7794,32.0745,南京市,山西路,,48,48,32,22,17,79,,94,90,23,23,3,4,0.3,0.3
2025-06-12T2300,1154A,118.7752,32.0023,南京市,中华门,,39,34,24,27,19,58,,83,78,23,22,7,7,0.5,0.5
2025-06-12T2300,1155A,118.8109,32.0309,南京市,瑞金路,,49,41,28,34,21,52,,80,71,16,10,6,6,0.2,0.2
2025-06-12T2300,1156A,118.7997,32.0754,南京市,玄武湖,,26,26,31,18,14,62,,79,71,12,12,3,4,0.4,0.4
2025-06-12T2300,1157A,118.6414,32.0931,南京市,浦口,,29,27,26,20,16,40,,78,68,26,20,3,3,0.7,0.7
2025-06-12T2300,1158A,118.7356,31.9996,南京市,奥体中心,,49,,29,34,21,66,,85,82,17,16,3,3,0.3,0.3
2025-06-12T2300,1159A,118.9125,32.1028,南京市,仙林大学城,颗粒物(PM10),54,58,35,34,16,59,,87,81,17,15,8,8,0.7,0.6
2025-06-12T2300,3422A,118.8436,31.9198,南京市,江宁彩虹桥,,45,,25,31,19,58,,96,89,25,18,3,3,0.6,0.5
2025-06-12T2300,3427A,118.8554,32.3578,南京市,六合雄州,细颗粒物(PM2.5),64,67,43,46,27,43,,90,64,34,34,4,6,0.9,0.8
2025-06-12T2300,4249A,118.8708,31.3402,南京市,汶溪路181号,,26,26,24,16,18,77,,97,92,17,14,3,4,0.5,0.6
2025-06-12T2300,4312A,119.019,31.6512,南京市,中山西路1号,,22,17,23,12,15,70,,98,95,11,12,4,4,0.3,0.4
2025-06-12T2300,1401A,108.3103,22.7881,南宁市,二十一中,,24,24,26,9,13,51,,69,63,16,14,3,3,0.6,0.6
2025-06-12T2300,1402A,108.3141,22.8528,南宁市,北湖,,44,44,29,12,17,57,,65,57,12,17,4,13,0.5,0.5
2025-06-12T2300,1403A,108.3206,22.8225,南宁市,市监测站,,40,40,23,12,19,54,,62,56,12,15,1,4,0.6,0.7
2025-06-12T2300,1404A,108.3829,22.8037,南宁市,大自然花园,,22,22,24,13,13,64,,79,75,8,9,4,5,0.5,0.5
2025-06-12T2300,1405A,108.4394,22.7904,南宁市,仙葫,,35,35,22,15,13,66,,79,77,8,7,8,8,0.5,0.4
2025-06-12T2300,1406A,108.2397,22.8467,南宁市,区农职院,,24,24,27,16,13,44,,66,55,17,12,4,5,0.7,0.8
2025-06-12T2300,1407A,108.3275,22.735,南宁市,英华嘉园,,28,28,29,9,15,68,,81,78,7,10,7,8,0.5,0.5
2025-06-12T2300,3401A,108.4834,22.7618,南宁市,红星社区,,22,22,20,14,14,66,,81,77,5,4,1,2,0.5,0.5
2025-06-12T2300,4221A,108.2177,22.7774,南宁市,乐贤路16号,,30,30,35,16,19,42,,64,,18,17,6,19,0.5,0.6
2025-06-12T2300,2331A,118.0966,26.6761,南平市,茫荡山,,,,3,,2,,,,,,,,2,,0.3
2025-06-12T2300,2332A,118.1681,26.6369,南平市,南平市监测站,,8,8,9,3,5,11,,61,31,13,7,4,4,0.6,0.5
2025-06-12T2300,2333A,118.1825,26.6489,南平市,南平铝业有限公司,,22,22,15,3,3,2,,56,26,20,8,3,3,0.6,0.5
2025-06-12T2300,2334A,118.1756,26.6272,南平市,南平七中,,10,,13,7,6,13,,62,36,9,4,4,5,0.4,0.5
2025-06-12T2300,1168A,120.9098,31.9663,南通市,狼山街道,,26,10,12,6,7,81,,95,84,7,7,3,3,0.6,0.6
2025-06-12T2300,1169A,120.86,32.0005,南通市,虹桥,,26,14,14,11,11,83,,93,81,12,14,2,2,0.4,0.4
2025-06-12T2300,1170A,120.87,32.02,南通市,城中,,26,15,16,8,8,83,,92,81,8,10,4,4,0.7,0.7
2025-06-12T2300,1171A,120.94,31.93,南通市,星湖花园,,24,,10,12,10,76,,85,77,10,12,2,2,0.4,0.5
2025-06-12T2300,1172A,120.81,32.0417,南通市,紫琅学院,,,16,15,6,5,,,84,65,10,13,4,5,0.5,0.5
2025-06-12T2300,3291A,121.067,32.062,南通市,通州监测站,,31,9,8,3,6,97,,102,95,2,5,4,4,0.5,0.5
2025-06-12T2300,3432A,120.9348,31.9883,南通市,环境教育馆,,,12,18,3,7,,,93,83,14,13,2,2,0.1,0.2
2025-06-12T2300,2404A,112.5224,33.0122,南阳市,瓦房庄,,46,46,44,11,16,138,,192,169,11,10,6,6,0.5,0.6
2025-06-12T2300,2405A,112.5003,32.9735,南阳市,汉画馆,,44,44,42,16,18,119,,189,161,14,14,6,6,0.5,0.5
2025-06-12T2300,2406A,112.5573,33.027,南阳市,气象站,,47,47,41,22,22,110,,191,162,11,9,6,5,0.3,0.3
2025-06-12T2300,2407A,112.5481,32.9689,南阳市,理工学院,,43,43,42,21,24,108,,184,155,14,14,5,5,0.4,0.4
2025-06-12T2300,4008A,112.5234,32.9922,南阳市,卧龙区政府,,40,40,33,22,25,117,,191,162,12,13,5,4,0.6,0.6
2025-06-12T2300,1234A,121.8358,29.911,宁波市,区环保大楼,,39,39,26,13,9,7,,66,31,44,47,8,9,0.5,0.5
2025-06-12T2300,1235A,121.56,29.82,宁波市,万里学院,,16,16,18,8,17,46,,92,68,15,20,2,5,0.4,0.6
2025-06-12T2300,1236A,121.713,29.9572,宁波市,龙赛医院,,23,23,20,9,9,19,,78,48,25,24,8,10,0.5,0.7
2025-06-12T2300,1239A,121.633,29.7733,宁波市,钱湖水厂,,13,11,17,7,13,41,,86,70,17,17,3,3,0.4,0.5
2025-06-12T2300,1240A,121.5856,29.8635,宁波市,太古小学,,15,15,33,9,16,38,,89,55,17,25,3,4,0.5,0.6
2025-06-12T2300,1241A,121.524,29.8674,宁波市,市环境监测中心,,18,14,18,12,13,41,,88,59,17,23,2,3,0.5,0.6
2025-06-12T2300,2871A,121.6147,29.9017,宁波市,万里国际学校,,13,11,15,9,13,36,,77,50,17,25,2,2,0.5,0.5
2025-06-12T2300,3710A,121.5594,29.8975,宁波市,白沙活动中心,,15,15,18,8,14,38,,93,60,17,21,8,8,0.5,0.6
2025-06-12T2300,2339A,119.5001,26.6946,宁德市,金涵水库,,,,1,,1,,,,,,2,,2,,0.5
2025-06-12T2300,2341A,119.5388,26.6612,宁德市,宁德市监测站,,13,13,14,8,6,29,,42,29,7,9,4,4,0,0.3
2025-06-12T2300,3209A,119.5231,26.6562,宁德市,宁德一中,,11,11,16,6,7,29,,44,32,7,6,3,3,0.2,0.2
2025-06-12T2300,2618A,98.8601,25.8567,怒江傈僳族自治州,州监测站,,37,37,25,25,15,74,,122,110,16,8,7,7,0.5,0.4
2025-06-12T2300,2619A,98.8546,25.8417,怒江傈僳族自治州,泸水一中,,25,25,24,16,16,56,,105,91,16,9,6,6,0.4,0.3
2025-06-12T2300,1888A,101.6891,26.571,攀枝花市,弄弄坪,,39,39,46,19,23,93,,166,140,19,16,8,10,1.4,0.9
2025-06-12T2300,1889A,101.5769,26.5928,攀枝花市,河门口,,46,46,57,24,23,84,,167,143,20,18,8,12,0.4,0.7
2025-06-12T2300,1890A,101.7169,26.585,攀枝花市,炳草岗,,41,41,48,25,21,79,,163,138,25,24,6,11,0.8,0.9
2025-06-12T2300,1891A,101.7369,26.5008,攀枝花市,仁和,,37,37,40,19,24,67,,156,118,20,15,10,15,0.7,0.7
2025-06-12T2300,2835A,101.7227,26.567,攀枝花市,四十中小,,45,45,47,28,26,68,,176,139,48,35,8,15,1.0,1
2025-06-12T2300,1604A,122.0303,41.1489,盘锦市,开发区,,37,8,28,7,18,118,,129,126,22,19,11,12,0.2,0.3
2025-06-12T2300,1605A,122.0485,41.0883,盘锦市,兴隆台,,39,27,28,8,20,123,,129,126,26,22,7,7,0.3,0.4
2025-06-12T2300,1606A,121.8297,41.1028,盘锦市,新生街道,,35,19,20,12,14,112,,141,138,17,12,8,8,0.5,0.5
2025-06-12T2300,1832A,113.3257,33.742,平顶山市,新华旅馆,,44,44,46,25,24,117,,194,176,12,10,7,7,0.6,0.7
2025-06-12T2300,1833A,113.2919,33.737,平顶山市,规划设计院,,47,47,57,21,37,112,,182,164,15,14,5,9,0.6,0.7
2025-06-12T2300,1834A,113.182,33.774,平顶山市,平顶山工学院,,45,45,44,19,28,124,,198,181,13,10,4,5,0.4,0.4
2025-06-12T2300,3204A,113.3025,33.73,平顶山市,规划局,,44,44,50,16,22,116,,190,172,13,12,4,9,0.4,0.6
2025-06-12T2300,3594A,112.8867,33.9116,平顶山市,石龙区,颗粒物(PM10),60,69,77,26,29,137,,192,178,22,21,7,7,0.6,0.7
2025-06-12T2300,2656A,106.6692,35.5461,平凉市,聚贤嘉苑,,41,41,54,24,24,84,,153,126,25,20,7,9,0.4,0.5
2025-06-12T2300,2657A,106.7021,35.5307,平凉市,博物馆,,49,49,63,15,22,94,,147,128,19,20,10,13,0.4,0.7
2025-06-12T2300,2347A,114.0997,27.5002,萍乡市,武功山,,13,,6,9,5,23,,62,57,4,4,11,12,0.4,0.4
2025-06-12T2300,2348A,113.8385,27.6434,萍乡市,中医院,,49,48,26,34,21,55,,79,69,12,6,12,11,0.8,0.8
2025-06-12T2300,2349A,113.8493,27.6253,萍乡市,市政府车库,,38,31,19,26,16,48,,71,61,11,7,10,8,0.8,1
2025-06-12T2300,2350A,113.8676,27.6435,萍乡市,市环保局,,33,29,23,23,15,57,,77,67,8,4,12,7,0.7,0.7
2025-06-12T2300,2351A,113.866,27.6198,萍乡市,安源区政府,,49,49,21,29,14,34,,63,52,19,11,9,6,1.8,1.1
2025-06-12T2300,2319A,119.0141,25.4325,莆田市,荔城区仓后路,,13,13,14,3,1,38,,56,41,5,6,2,3,0.3,0.3
2025-06-12T2300,2320A,119.0015,25.4553,莆田市,莆田市监测站,,13,10,13,3,2,40,,58,42,4,5,3,3,0.3,0.3
2025-06-12T2300,2321A,119.1119,25.4561,莆田市,涵江区六中,,14,14,14,3,1,35,,58,41,2,3,3,3,0.3,0.3
2025-06-12T2300,2322A,119.1013,25.3215,莆田市,秀屿区政府,,13,13,17,3,3,32,,61,41,7,6,2,2,0.2,0.3
2025-06-12T2300,2323A,118.981,25.4792,莆田市,东圳水库,,,,11,,6,,,,,,2,,2,,0.5
2025-06-12T2300,2392A,115.0312,35.7636,濮阳市,环保局,颗粒物(PM10),51,51,47,26,25,158,,202,193,18,16,7,7,0.6,0.7
2025-06-12T2300,2394A,115.0574,35.7609,濮阳市,油田运输公司,颗粒物(PM10),56,62,54,27,24,158,,200,191,17,17,7,8,0.8,0.7
2025-06-12T2300,3021A,115,35.7668,濮阳市,濮水河管理处,颗粒物(PM10),54,58,50,29,27,155,,198,189,21,17,7,6,0.7,0.7
2025-06-12T2300,4216A,115.0924,35.7686,濮阳市,任丘路479号,颗粒物(PM10),61,72,64,27,30,153,,192,182,12,12,7,8,0.9,0.9
2025-06-12T2300,2601A,100.98,22.7633,普洱市,市环保局,颗粒物(PM10),55,59,48,37,20,60,,109,95,13,10,4,4,0.6,0.6
2025-06-12T2300,2602A,100.9817,22.8322,普洱市,普洱第二中学,细颗粒物(PM2.5),59,63,47,42,20,48,,110,95,22,15,6,6,0.6,0.6
2025-06-12T2300,2262A,131.0518,45.8751,七台河市,新一中,,26,,20,18,13,76,,121,90,14,11,10,10,0.9,0.8
2025-06-12T2300,3345A,131.0577,45.7879,七台河市,中波台,,19,,17,7,7,59,,84,61,12,17,6,6,0.2,0.3
2025-06-12T2300,3637A,131.0176,45.7761,七台河市,人民广场,,24,24,25,14,15,54,,89,70,9,12,10,10,0.5,0.5
2025-06-12T2300,3684A,130.8781,45.8222,七台河市,新建矿广场,,23,,25,16,11,48,,94,61,15,17,11,10,0.4,0.3
2025-06-12T2300,1779A,123.9305,47.3636,齐齐哈尔市,安居小区,,28,,37,19,18,71,,99,89,22,20,5,6,0.7,0.6
2025-06-12T2300,1780A,123.9488,47.3386,齐齐哈尔市,中心广场,颗粒物(PM10),56,61,46,29,17,73,,106,100,30,21,9,7,0.8,0.6
2025-06-12T2300,1781A,123.9483,47.3227,齐齐哈尔市,农牧车辆厂,细颗粒物(PM2.5),54,41,44,38,14,26,,104,84,57,17,8,7,0.5,0.2
2025-06-12T2300,1783A,123.945,47.2988,齐齐哈尔市,市环境监测站,,49,,29,34,17,66,,109,94,21,14,4,5,0.5,0.4
2025-06-12T2300,3662A,123.6333,47.2075,齐齐哈尔市,富区青少年活动中心,,32,,29,22,17,53,,112,101,31,12,4,4,0.6,0.5
2025-06-12T2300,2591A,107.9783,26.5747,黔东南苗族侗族自治州,市环境监测站,,29,26,26,20,20,18,,71,45,23,8,2,3,0.6,0.5
2025-06-12T2300,2881A,107.8908,26.5311,黔东南苗族侗族自治州,凯里学院,,25,17,21,17,18,26,,77,56,18,7,2,2,0.5,0.4
2025-06-12T2300,2593A,107.5228,26.2403,黔南布依族苗族自治州,小围寨,,13,12,15,9,11,34,,66,,8,7,3,2,0.5,0.5
2025-06-12T2300,3538A,107.5175,26.2978,黔南布依族苗族自治州,沙坝,,17,17,25,9,12,27,,73,59,14,7,4,4,0.6,0.5
2025-06-12T2300,2589A,104.9022,25.0925,黔西南布依族苗族自治州,场坝街,,37,37,33,21,16,59,,156,133,8,13,2,3,0.3,0.4
2025-06-12T2300,2590A,104.8811,25.0992,黔西南布依族苗族自治州,坪东大道,,29,17,26,12,18,90,,135,117,8,16,1,1,0.2,0.2
2025-06-12T2300,2502A,108.6236,21.9667,钦州市,市环保站,,28,19,28,19,9,37,,80,61,17,13,2,2,0.5,0.8
2025-06-12T2300,2503A,108.6549,21.9481,钦州市,沙埠小学,,27,27,27,12,14,27,,83,64,23,10,3,2,0.4,0.4
2025-06-12T2300,2504A,108.5989,21.7431,钦州市,港区一小,,13,13,32,9,14,38,,74,59,20,16,2,3,0.5,0.6
2025-06-12T2300,3404A,108.5959,21.9633,钦州市,北职校,,30,30,25,16,14,32,,75,58,16,8,1,1,0.5,0.6
2025-06-12T2300,1043A,119.7493,40.0116,秦皇岛市,第一关,,37,27,37,16,21,62,,168,142,74,22,4,5,0.2,0.3
2025-06-12T2300,1044A,119.5897,39.9499,秦皇岛市,监测站,,44,44,43,13,10,94,,175,157,32,19,4,5,0.3,0.3
2025-06-12T2300,1046A,119.5251,39.9041,秦皇岛市,建设大厦,,50,50,41,20,11,75,,170,146,58,18,4,4,0.3,0.3
2025-06-12T2300,3132A,119.610547,39.943889,秦皇岛市,文明里,,42,42,43,12,14,115,,167,156,19,16,4,5,0.2,0.2
2025-06-12T2300,4198A,119.5090,39.8253,秦皇岛市,北戴河轮滑馆,,36,30,37,14,13,113,,168,153,12,11,3,3,0.3,0.3
2025-06-12T2300,1307A,120.6659,36.2403,青岛市,仰口,,38,11,12,7,11,120,,121,120,4,7,9,8,0.5,0.5
2025-06-12T2300,1310A,120.4134,36.0658,青岛市,市南区东部子站,,31,,8,7,6,97,,117,102,7,10,8,8,0.3,0.3
2025-06-12T2300,1311A,120.3664,36.1032,青岛市,四方区子站,,35,,9,12,9,109,,135,120,14,13,5,5,0.5,0.4
2025-06-12T2300,1312A,120.2994,36.054,青岛市,市南区西部子站,,30,14,10,7,8,96,,110,100,15,18,7,8,0.4,0.4
2025-06-12T2300,1313A,120.4581,36.0858,青岛市,崂山区子站,,33,14,5,3,3,105,,119,112,4,8,7,7,0.2,0.2
2025-06-12T2300,1315A,120.3999,36.3083,青岛市,城阳区子站,,36,36,22,3,6,112,,137,118,16,16,5,5,0.2,0.2
2025-06-12T2300,1966A,120.0405,35.8735,青岛市,黄岛区4号,,,,9,,3,,,131,,,9,,8,,0.5
2025-06-12T2300,3362A,120.5014,36.4034,青岛市,即墨2号,,36,12,16,3,7,113,,125,118,5,10,8,8,0.2,0.2
2025-06-12T2300,3642A,120.3503,36.0736,青岛市,市北区南部,,32,13,12,7,6,100,,113,103,10,10,7,8,0.3,0.3
2025-06-12T2300,3643A,120.3948,36.1805,青岛市,李沧区北部,,30,,11,9,10,93,,115,102,10,12,8,8,0.4,0.4
2025-06-12T2300,4290A,120.1969,35.9546,青岛市,珠江路669号,,35,9,8,3,4,109,,124,116,5,4,6,7,0.2,0.2
2025-06-12T2300,1702A,113.0426,23.691,清远市,环保大楼,,45,45,32,3,7,37,,85,66,7,8,5,5,0.4,0.4
2025-06-12T2300,1703A,113.0208,23.7106,清远市,凤城街办,,14,14,16,8,8,40,,79,63,10,10,8,8,0.5,0.5
2025-06-12T2300,3025A,113.0477,23.6344,清远市,技师学院,,20,20,16,9,7,27,,84,64,19,12,7,8,0.5,0.5
2025-06-12T2300,3318A,112.9903,23.7403,清远市,清新太和,,16,16,18,6,7,28,,74,58,14,8,6,6,0.5,0.5
2025-06-12T2300,3455A,113.076,23.7198,清远市,清城东城,,17,17,14,6,6,38,,86,68,6,6,7,8,0.6,0.5
2025-06-12T2300,2661A,107.6325,35.7357,庆阳市,庆阳五中,,46,46,44,13,19,120,,157,147,9,10,4,5,0.4,0.4
2025-06-12T2300,2662A,107.6364,35.7067,庆阳市,市环保局,,48,48,49,13,17,138,,164,157,6,7,6,7,0.4,0.5
2025-06-12T2300,1916A,103.7897,25.5035,曲靖市,环境监测站,颗粒物(PM10),54,57,41,23,21,123,,141,134,15,15,4,7,0.4,0.5
2025-06-12T2300,1917A,103.8,25.5364,曲靖市,烟厂办公区,,46,46,44,27,22,126,,141,136,12,12,4,6,0.5,0.6
2025-06-12T2300,3376A,103.7947,25.462,曲靖市,南苑二区,,45,45,37,22,19,130,,147,141,12,11,4,6,0.4,0.4
2025-06-12T2300,3377A,103.7444,25.5261,曲靖市,曲靖师范学院,,48,48,39,25,26,133,,140,139,9,20,7,12,0.4,0.5
2025-06-12T2300,1264A,118.8692,28.9398,衢州市,环保大楼,,11,10,26,3,13,7,,121,67,21,10,4,4,0.3,0.3
2025-06-12T2300,1265A,118.8709,28.9666,衢州市,实验学校,,8,7,21,3,11,22,,126,75,16,11,2,2,0.2,0.3
2025-06-12T2300,1266A,118.8621,28.9808,衢州市,衢州学院,,9,9,19,3,12,20,,119,71,18,11,3,4,0.3,0.3
2025-06-12T2300,1611A,118.5819,24.9117,泉州市,涂山街,,12,10,18,3,9,38,,74,47,1,4,3,2,0.6,0.6
2025-06-12T2300,1612A,118.5972,24.8978,泉州市,津头埔,,12,10,18,3,8,38,,76,47,6,7,2,2,0.4,0.5
2025-06-12T2300,1613A,118.6663,24.9424,泉州市,万安,,13,13,23,3,7,37,,73,44,1,5,2,2,0.4,0.4
2025-06-12T2300,1614A,118.6117,24.9604,泉州市,清源山,,,,11,,6,,,,,,9,,1,,0.3
2025-06-12T2300,3529A,118.6333,24.9264,泉州市,城华南路,,12,10,19,3,7,36,,72,44,5,7,3,3,0.3,0.4
2025-06-12T2300,2626A,88.8876,29.2718,日喀则市,日喀则监测站,,32,16,45,7,15,102,,116,111,8,8,8,9,0.3,0.3
2025-06-12T2300,3726A,88.8781,29.2426,日喀则市,林业技术推广中心,,35,15,40,6,13,109,,109,109,2,3,8,5,0.2,0.3
2025-06-12T2300,1659A,119.471,35.4209,日照市,监测站,,33,,20,13,11,104,,122,114,17,24,6,7,0.4,0.5
2025-06-12T2300,1660A,119.523,35.4216,日照市,市政府广场,,32,19,22,7,7,102,,114,106,6,15,5,7,0.5,0.5
2025-06-12T2300,1661A,119.5587,35.4044,日照市,港务局,,36,14,21,14,13,114,,118,113,5,15,6,7,0.4,0.5
2025-06-12T2300,3507A,119.5328,35.4625,日照市,职业技术学院,,36,19,19,7,7,113,,123,117,8,14,4,6,0.4,0.5
2025-06-12T2300,3604A,119.3266,35.1044,日照市,岚山环保分局,,35,19,28,9,8,111,,121,108,14,16,6,8,0.5,0.5
2025-06-12T2300,1835A,111.1922,34.7752,三门峡市,市政府,臭氧1小时,55,46,56,26,28,164,,174,174,9,14,6,7,0.6,0.6
2025-06-12T2300,1836A,111.1587,34.7942,三门峡市,开发区,臭氧1小时,67,58,59,28,34,173,,188,187,20,19,7,8,0.5,0.6
2025-06-12T2300,1838A,111.143,34.7955,三门峡市,风景区,臭氧1小时,73,34,52,27,26,178,,192,190,11,10,9,10,0.5,0.5
2025-06-12T2300,3039A,111.1911,34.7829,三门峡市,三门峡市第一小学,臭氧1小时,59,46,59,24,30,167,,181,181,9,10,5,8,0.6,0.6
2025-06-12T2300,3598A,111.1,34.7167,三门峡市,富达温泉假日酒店,,,,61,,31,,,174,,,12,,8,,0.6
2025-06-12T2300,2324A,117.6211,26.2625,三明市,三钢,,12,12,14,3,5,20,,67,40,12,8,4,3,0.4,0.4
2025-06-12T2300,2325A,117.635,26.2714,三明市,三明二中,,8,7,12,3,5,23,,65,40,9,6,3,2,0.4,0.4
2025-06-12T2300,2326A,117.6028,26.2378,三明市,三元区政府,,12,12,14,6,5,15,,70,41,15,10,5,4,0.6,0.5
2025-06-12T2300,2327A,117.7275,26.3108,三明市,洋溪,,,,,,,,,,,,,,,,
2025-06-12T2300,1876A,109.5078,18.2489,三亚市,河东子站,,,15,9,9,5,,,54,54,1,2,3,3,,0.6
2025-06-12T2300,1877A,109.4964,18.2681,三亚市,河西子站,,20,9,7,3,4,61,,58,58,1,2,2,2,0.4,0.4
2025-06-12T2300,3540A,109.7348,18.3443,三亚市,君悦子站,,20,15,15,3,3,64,,60,60,3,3,1,1,0.4,0.4
2025-06-12T2300,2624A,91.7608,29.2313,山南市,山南监测站,,35,13,19,10,14,110,,118,114,1,5,7,8,0.2,0.2
2025-06-12T2300,2625A,91.7706,29.2436,山南市,山南人民医院,,33,17,29,11,13,104,,120,115,4,5,6,6,0.1,0.2
2025-06-12T2300,1674A,116.6794,23.3667,汕头市,金平子站,,22,21,19,13,12,70,,119,113,3,4,3,3,0.4,0.4
2025-06-12T2300,1675A,116.7244,23.3633,汕头市,龙湖子站,,22,20,21,6,11,70,,119,114,6,5,5,5,0.4,0.4
2025-06-12T2300,1676A,116.7258,23.2775,汕头市,濠江子站,,,,24,2,11,43,,116,104,4,4,4,4,0.5,0.5
2025-06-12T2300,1677A,116.7519,23.4714,汕头市,澄海子站,,33,28,27,17,11,105,,122,122,5,6,2,2,0.6,0.5
2025-06-12T2300,1678A,116.6092,23.2539,汕头市,潮阳子站,,,15,23,12,9,,,120,120,4,3,4,4,0.4,0.4
2025-06-12T2300,3444A,116.454,23.2684,汕头市,潮南峡山,,16,13,21,3,12,49,,101,97,5,3,4,4,0.5,0.5
2025-06-12T2300,3624A,116.4069,23.2533,汕头市,潮南子站,,15,9,20,3,10,45,,87,84,4,4,4,4,0.4,0.5
2025-06-12T2300,1693A,115.3653,22.775,汕尾市,市环保局,,14,11,10,3,3,42,,56,53,9,6,2,2,0.4,0.4
2025-06-12T2300,1694A,115.3706,22.7898,汕尾市,市政府,,15,8,14,3,7,45,,56,54,6,6,4,4,0.4,0.4
2025-06-12T2300,1695A,115.3622,22.7925,汕尾市,新城中学,,19,19,13,3,5,46,,56,54,6,5,3,2,0.4,0.4
