timepoint,stationcode,longitude,latitude,area,positionname,primarypollutant,aqi,pm10,pm10_24h,pm2_5,pm2_5_24h,o3,o3_24h,o3_8h,o3_8h_24h,no2,no2_24h,so2,so2_24h,co,co_24h
2024-09-08T1600,2566A,102.1879,31.914,阿坝藏族羌族自治州,州农科所,,30,7,19,3,7,93,,70,70,4,11,7,8,0,0
2024-09-08T1600,2568A,102.2502,31.8896,阿坝藏族羌族自治州,马师校,,31,10,14,3,7,98,,76,76,5,8,4,4,0.4,0.4
2024-09-08T1600,3994A,102.2165,31.9024,阿坝藏族羌族自治州,马尔康中学西区,,30,,13,8,12,96,,76,76,7,9,5,5,0.4,0.4
2024-09-08T1600,2695A,80.292,41.1694,阿克苏地区,电视台,,44,29,85,13,27,138,,80,80,7,18,5,4,0.4,0.5
2024-09-08T1600,2696A,80.2613,41.1551,阿克苏地区,艺术中心,,39,20,103,6,24,124,,75,75,4,18,4,4,0.5,0.7
2024-09-08T1600,2204A,105.6467,38.8363,阿拉善盟,西城区西花园,,41,33,28,23,20,130,,91,79,10,14,10,9,1.2,1.1
2024-09-08T1600,2205A,105.6985,38.8411,阿拉善盟,蒙二幼,,42,36,29,29,16,106,,78,78,8,12,10,10,0.9,0.8
2024-09-08T1600,2206A,105.724,38.8516,阿拉善盟,环保局新楼,,43,39,18,30,13,110,,85,84,8,8,10,10,0.6,0.5
2024-09-08T1600,2708A,88.1264,47.8517,阿勒泰地区,市站,,20,6,9,3,4,61,,52,48,10,8,7,7,0.3,0.2
2024-09-08T1600,2630A,80.1161,32.5,阿里地区,阿里监测站,,28,,3,3,3,87,,75,75,2,8,7,7,0.3,0.3
2024-09-08T1600,3192A,80.0903,32.5028,阿里地区,阿里藏医院,,,1,8,,1,88,,86,80,3,4,,6,0.3,0.3
2024-09-08T1600,2642A,109.0318,32.6537,安康市,香溪洞,颗粒物(PM10),63,75,87,24,27,107,,109,107,9,7,6,6,0.4,0.4
2024-09-08T1600,2643A,109.0281,32.6939,安康市,安康市监测站,,34,29,42,19,20,107,,106,106,3,7,7,8,0.6,0.7
2024-09-08T1600,2644A,109.0072,32.6975,安康市,汉滨区检察院,,34,25,43,22,24,108,,105,105,4,7,7,8,0.6,0.8
2024-09-08T1600,2291A,117.0809,30.5177,安庆市,环科院,臭氧1小时,70,56,50,37,38,176,,153,153,9,14,8,9,0.5,0.7
2024-09-08T1600,2292A,117.0331,30.5119,安庆市,马山宾馆,臭氧1小时,60,39,46,29,37,168,,151,151,7,12,9,11,0.3,0.4
2024-09-08T1600,2294A,116.9896,30.6145,安庆市,安庆大学,臭氧1小时,62,44,51,35,34,169,,144,144,8,10,9,9,0.4,0.5
2024-09-08T1600,3173A,117.0598,30.5351,安庆市,市人大,臭氧1小时,64,47,48,31,38,171,,149,149,6,11,9,10,0.7,0.7
2024-09-08T1600,3122A,105.9606,26.2611,安顺市,伍家关,,,,,,,,,,,,,,,,
2024-09-08T1600,3123A,105.9408,26.2431,安顺市,凤凰山,,24,12,15,7,10,74,,65,65,3,6,7,7,0.5,0.5
2024-09-08T1600,3124A,105.9439,26.2564,安顺市,金钟山,,24,14,20,6,11,76,,67,67,3,5,6,7,0.4,0.4
2024-09-08T1600,3125A,105.8983,26.2481,安顺市,娄家坡,,24,11,11,8,10,74,,65,65,3,5,5,6,0.6,0.7
2024-09-08T1600,1818A,114.4839,36.0621,安阳市,棉研所,,,,,,,,,,,,,,,,
2024-09-08T1600,1819A,114.3551,36.1017,安阳市,红庙街,细颗粒物(PM2.5),65,77,59,47,34,170,,108,108,18,20,5,5,0.8,0.6
2024-09-08T1600,1820A,114.361,36.0681,安阳市,银杏小区,,,63,56,,,166,,105,105,15,17,4,4,0.9,0.8
2024-09-08T1600,3141A,114.3922,36.0878,安阳市,信访局,臭氧1小时,65,67,58,34,32,172,,109,109,22,24,4,4,0.7,0.6
2024-09-08T1600,3669A,114.4705,36.0637,安阳市,左辅环卫站,颗粒物(PM10),67,84,78,35,37,136,,98,98,13,17,3,2,0.7,0.6
2024-09-08T1600,3703A,114.2917,36.0949,安阳市,安钢职工学校,颗粒物(PM10),66,82,58,35,43,150,,97,97,23,24,10,8,1.4,1
2024-09-08T1600,1748A,123.044,41.1196,鞍山市,深沟寺,,37,37,29,22,14,118,,111,111,11,14,8,6,1.0,1.1
2024-09-08T1600,1749A,123.011,41.0931,鞍山市,太阳城,,41,34,40,20,21,131,,114,114,13,22,8,7,0.8,1.3
2024-09-08T1600,1750A,123.0485,41.1442,鞍山市,太平,,44,44,41,22,19,127,,108,108,22,29,11,10,0.9,1.1
2024-09-08T1600,1751A,122.9642,41.0971,鞍山市,铁西三道街,,45,45,68,23,30,144,,115,115,16,35,9,7,1.0,1.6
2024-09-08T1600,1752A,122.9341,41.0833,鞍山市,铁西工业园区,,44,43,69,21,29,140,,111,111,13,31,10,8,1.0,1.7
2024-09-08T1600,1753A,123.022,41.0821,鞍山市,明达新区,,42,36,40,22,21,133,,109,109,12,21,8,6,0.8,1.1
2024-09-08T1600,1754A,123.1289,41.0228,鞍山市,千山,,,,,,,,,,,,,,,,
2024-09-08T1600,2195A,107.4212,40.761,巴彦淖尔市,附二中,,47,47,45,27,25,101,,56,56,9,11,6,8,0.7,0.7
2024-09-08T1600,2196A,107.37,40.7372,巴彦淖尔市,市环保大楼,颗粒物(PM10),56,62,53,27,21,105,,62,62,9,10,4,5,0.8,0.7
2024-09-08T1600,1956A,86.1472,41.7538,巴音郭楞蒙古自治州,孔雀公园,,39,39,69,3,15,114,,101,98,9,7,6,5,0.3,0.2
2024-09-08T1600,1957A,86.1972,41.7166,巴音郭楞蒙古自治州,棉纺厂,,37,36,87,10,18,117,,98,95,4,8,5,5,0.2,0.2
2024-09-08T1600,1958A,86.2357,41.7173,巴音郭楞蒙古自治州,经济开发区,,36,29,84,12,20,113,,101,97,2,5,7,6,0.2,0.2
2024-09-08T1600,2914A,106.7677,31.8794,巴中市,苏山坪,,29,12,30,10,23,90,,86,86,5,8,3,4,0.4,0.5
2024-09-08T1600,3182A,106.7656,31.8545,巴中市,丽阳花园,,28,16,31,11,23,89,,92,92,6,15,4,4,0.4,0.6
2024-09-08T1600,3183A,106.7418,31.8654,巴中市,圣泉水务公司,,29,26,29,11,21,92,,78,78,6,16,3,3,0.5,0.6
2024-09-08T1600,3616A,106.7616,31.8344,巴中市,市中心医院,,28,14,34,8,24,89,,79,79,4,19,4,4,0.4,0.7
2024-09-08T1600,2235A,122.7911,45.6077,白城市,洮北区环保局,,34,12,13,6,6,108,,98,98,4,4,4,4,0.1,0.1
2024-09-08T1600,2236A,122.8738,45.5725,白城市,市环保局,,30,25,29,3,4,94,,89,89,9,10,4,5,0.2,0.2
2024-09-08T1600,2231A,126.4219,41.9171,白山市,喜丰,,34,21,40,11,11,106,,75,75,6,17,8,7,0.4,0.5
2024-09-08T1600,2232A,126.4077,41.9419,白山市,环保局,,29,,32,7,10,92,,67,67,7,19,9,9,0.6,0.6
2024-09-08T1600,2647A,104.1724,36.5446,白银市,第三小学,,43,43,34,20,18,115,,78,78,7,20,7,19,0.5,0.8
2024-09-08T1600,2648A,104.1465,36.5482,白银市,动力公司,,35,32,26,13,10,112,,74,74,5,17,5,11,0.4,0.8
2024-09-08T1600,2512A,106.6103,23.9011,百色市,市监测站,,,12,22,,55,44,,33,33,6,9,4,5,0.7,0.4
2024-09-08T1600,2513A,106.6538,23.8859,百色市,市中心血站,,14,10,15,8,9,42,,34,34,12,12,2,4,0.6,0.6
2024-09-08T1600,3406A,106.6085,23.8798,百色市,祈福高中,,,,16,7,8,46,,34,34,7,14,3,3,0.7,0.7
2024-09-08T1600,2270A,117.396,32.939,蚌埠市,工人疗养院,,40,40,46,15,19,113,,96,96,3,7,4,4,0.4,0.4
2024-09-08T1600,2271A,117.3605,32.9427,蚌埠市,百货大楼,,40,40,46,22,22,114,,94,94,2,6,7,7,0.5,0.5
2024-09-08T1600,2273A,117.4185,32.8911,蚌埠市,蚌埠学院,,34,34,36,20,22,104,,96,96,11,13,7,8,0.4,0.5
2024-09-08T1600,2274A,117.3533,32.9673,蚌埠市,淮上区政府,,35,34,40,24,22,106,,95,95,2,6,7,7,0.5,0.5
2024-09-08T1600,2275A,117.3145,32.8977,蚌埠市,高新区,,37,36,38,24,25,117,,101,101,4,8,6,6,0.5,0.5
2024-09-08T1600,3715A,117.3092,32.9314,蚌埠市,蚌埠田家炳中学,,39,39,42,20,24,118,,101,101,1,6,6,6,0.5,0.5
2024-09-08T1600,1585A,109.8756,40.6532,包头市,市环境监测站,细颗粒物(PM2.5),52,42,30,36,23,47,,60,37,33,32,20,10,1.4,0.9
2024-09-08T1600,1587A,109.9991,40.5842,包头市,包头八中,,42,36,31,29,23,54,,58,44,26,23,8,14,1.0,0.9
2024-09-08T1600,1588A,109.8538,40.6821,包头市,青山宾馆,细颗粒物(PM2.5),57,56,29,40,23,42,,52,27,39,33,19,9,1.5,1
2024-09-08T1600,1589A,109.8642,40.6288,包头市,惠龙物流,,45,39,28,31,18,57,,54,42,24,24,9,11,1.0,0.8
2024-09-08T1600,1590A,110.0377,40.5546,包头市,东河鸿龙湾,,39,37,24,27,14,47,,59,38,29,21,26,16,1.0,0.7
2024-09-08T1600,3283A,109.9154,40.5685,包头市,滨河大厦,,38,28,20,26,13,44,,58,37,27,21,10,10,0.9,0.7
2024-09-08T1600,3419A,109.9447,40.6261,包头市,包头市委党校,细颗粒物(PM2.5),68,49,31,49,22,56,,61,44,27,27,11,11,1.6,1.1
2024-09-08T1600,3683A,109.8331,40.6576,包头市,昆区政府,,46,36,28,32,21,42,,60,34,30,25,4,7,1.6,1.1
2024-09-08T1600,1930A,107.185,34.3063,宝鸡市,庙沟村,"颗粒物(PM10),臭氧1小时",54,57,36,24,13,163,,110,110,15,18,10,9,0.5,0.4
2024-09-08T1600,1931A,107.0708,34.3017,宝鸡市,竹园沟,臭氧1小时,54,44,29,29,20,163,,124,124,16,15,11,10,0.6,0.5
2024-09-08T1600,1932A,107.1906,34.3672,宝鸡市,三陆医院,颗粒物(PM10),53,55,44,33,25,157,,106,106,21,27,10,13,0.7,0.7
2024-09-08T1600,1933A,107.1431,34.3547,宝鸡市,监测站,颗粒物(PM10),65,79,41,38,25,160,,107,107,24,20,8,7,0.9,0.8
2024-09-08T1600,1934A,107.1186,34.3739,宝鸡市,技工学校,颗粒物(PM10),62,73,37,28,22,159,,109,109,18,17,10,9,0.7,0.7
2024-09-08T1600,1935A,107.3906,34.3528,宝鸡市,陈仓区环保局家属楼,,48,43,41,20,19,152,,120,120,11,27,10,9,0.7,0.7
2024-09-08T1600,1936A,107.2058,34.3497,宝鸡市,文理学院,臭氧1小时,63,48,37,28,21,170,,114,114,15,18,12,11,0.7,0.7
2024-09-08T1600,1937A,107.2386,34.3622,宝鸡市,三迪小学,细颗粒物(PM2.5),62,62,41,44,36,144,,110,110,20,25,9,10,0.7,0.7
2024-09-08T1600,1051A,115.493,38.8632,保定市,游泳馆,,48,48,41,25,23,81,,59,59,22,17,3,3,0.3,0.2
2024-09-08T1600,1052A,115.5213,38.8959,保定市,华电二区,,50,50,41,32,28,69,,47,47,20,13,2,2,0.3,0.2
2024-09-08T1600,1053A,115.4713,38.9108,保定市,接待中心,细颗粒物(PM2.5),53,48,43,37,32,67,,43,43,17,13,3,2,0.5,0.4
2024-09-08T1600,1054A,115.4612,38.8416,保定市,地表水厂,,48,48,47,20,21,78,,61,55,16,11,2,1,0.3,0.2
2024-09-08T1600,3581A,115.31981,38.95208,保定市,满城区生态环境分局,颗粒物(PM10),54,58,43,27,21,77,,70,70,17,16,4,3,0.6,0.4
2024-09-08T1600,3582A,115.47694,38.76408,保定市,清苑区第二中学,颗粒物(PM10),56,61,45,33,33,90,,59,59,15,16,2,2,0.5,0.4
2024-09-08T1600,3583A,115.62909,39.02311,保定市,徐水物探局,,44,44,36,29,29,74,,52,52,20,17,4,3,0.6,0.5
2024-09-08T1600,4004A,115.4202,38.8656,保定市,双鹰农机,,44,44,39,22,20,81,,59,54,17,14,1,3,0.6,0.5
2024-09-08T1600,4034A,115.5150,38.8590,保定市,植保所站,颗粒物(PM10),51,51,39,26,27,88,,55,55,17,15,6,3,0.5,0.4
2024-09-08T1600,2594A,99.1678,25.1081,保山市,市环境监测站,,38,32,44,26,25,118,,62,62,9,12,8,8,0.4,0.5
2024-09-08T1600,2595A,99.1711,25.1328,保山市,市环保局,,40,40,47,7,16,122,,65,65,7,9,5,6,0.6,0.5
2024-09-08T1600,1866A,109.2262,21.588,北海市,牛尾岭水库,,,,,,,,,,,,,,,,
2024-09-08T1600,1867A,109.1436,21.4086,北海市,海滩公园,,28,28,31,7,8,68,,66,66,4,3,4,4,0.4,0.4
2024-09-08T1600,1868A,109.0981,21.4661,北海市,新市环保局,,31,31,23,17,10,62,,62,62,5,3,3,3,0.7,0.7
2024-09-08T1600,1869A,109.1778,21.5233,北海市,北海工业园,,39,39,28,12,10,58,,57,57,6,4,4,4,0.4,0.4
2024-09-08T1600,3400A,109.1911,21.4415,北海市,龙潭自来水厂,,24,24,26,14,12,65,,63,63,2,2,3,4,0.5,0.5
2024-09-08T1600,1001A,116.3621,39.8784,北京市,万寿西宫,,38,38,27,24,18,61,,43,43,22,22,3,3,0.7,0.6
2024-09-08T1600,1002A,116.2202,40.2915,北京市,定陵,,26,25,17,18,11,41,,27,27,6,4,4,4,0.5,0.4
2024-09-08T1600,1003A,116.4174,39.9289,北京市,东四,,44,44,28,28,21,67,,48,48,26,23,4,3,0.7,0.6
2024-09-08T1600,1004A,116.4072,39.8863,北京市,天坛,,35,35,24,23,18,52,,36,36,30,21,1,3,0.6,0.5
2024-09-08T1600,1005A,116.462,39.9365,北京市,农展馆,,35,35,25,21,17,55,,38,38,25,23,1,2,0.6,0.5
2024-09-08T1600,1006A,116.3392,39.9295,北京市,官园,,35,35,24,22,17,67,,52,52,19,23,4,3,0.6,0.5
2024-09-08T1600,1007A,116.2878,39.9611,北京市,海淀万柳,,24,24,21,15,14,60,,48,48,16,18,3,2,0.4,0.3
2024-09-08T1600,1008A,116.6636,40.135,北京市,顺义新城,,22,18,21,15,14,64,,47,47,8,13,3,3,0.5,0.4
2024-09-08T1600,1009A,116.6275,40.3275,北京市,怀柔镇,,19,16,15,11,9,60,,41,41,10,10,3,3,0.3,0.3
2024-09-08T1600,1010A,116.2296,40.217,北京市,昌平镇,,15,15,18,9,12,44,,27,27,11,13,4,3,0.3,0.4
2024-09-08T1600,1011A,116.3966,39.9821,北京市,奥体中心,,33,33,23,22,16,58,,47,47,26,25,2,1,0.7,0.5
2024-09-08T1600,1012A,116.184,39.9136,北京市,古城,,35,35,33,19,21,50,,45,45,31,26,2,2,0.6,0.5
2024-09-08T1600,3281A,115.9718,40.4529,北京市,延庆夏都,,39,37,18,27,12,77,,56,56,7,7,3,3,0.5,0.4
2024-09-08T1600,3417A,117.0709,40.1465,北京市,平谷新城,,29,29,28,18,19,66,,38,38,7,7,3,3,0.5,0.3
2024-09-08T1600,3418A,116.8336,40.4095,北京市,密云新城,,20,11,15,8,9,64,,48,48,3,3,3,3,0.4,0.3
2024-09-08T1600,3671A,116.088,39.9726,北京市,门头沟三家店,,26,26,28,16,17,31,,34,34,19,17,3,3,0.5,0.4
2024-09-08T1600,3672A,116.1541,39.8204,北京市,丰台云岗,,24,24,28,15,21,34,,26,26,18,19,2,2,0.5,0.5
2024-09-08T1600,3673A,116.6804,39.9081,北京市,通州东关,,42,42,30,24,21,69,,43,43,18,25,2,2,0.5,0.5
2024-09-08T1600,3674A,115.9577,39.7603,北京市,房山燕山,,26,26,29,16,22,59,,45,45,17,14,3,3,0.5,0.4
2024-09-08T1600,3675A,116.4672,39.7733,北京市,大兴旧宫,,35,35,27,21,19,59,,41,41,21,22,3,3,0.6,0.5
2024-09-08T1600,3694A,115.986,40.4563,北京市,延庆石河营,,40,38,17,28,11,69,,47,47,6,6,3,3,0.4,0.3
2024-09-08T1600,3695A,116.6151,40.3053,北京市,怀柔新城,,18,18,14,11,10,57,,42,42,7,5,3,3,0.4,0.4
2024-09-08T1600,3696A,116.2545,39.8768,北京市,丰台小屯,,31,31,31,20,18,51,,42,42,16,17,3,3,0.6,0.5
2024-09-08T1600,3697A,116.84,40.3844,北京市,密云镇,,17,14,19,9,12,54,,40,40,3,13,3,3,0.5,0.4
2024-09-08T1600,1761A,123.8275,41.3064,本溪市,大峪,,43,23,37,10,19,135,,92,92,18,26,14,11,1.2,1.4
2024-09-08T1600,1762A,123.7567,41.3325,本溪市,溪湖,,42,25,41,7,17,132,,94,94,9,22,8,7,0.8,1.3
2024-09-08T1600,1763A,123.7169,41.3094,本溪市,彩屯,,39,14,41,9,22,123,,88,88,13,28,9,11,0.7,1.5
2024-09-08T1600,1764A,123.7669,41.2864,本溪市,东明,,50,50,46,14,18,126,,91,91,22,34,15,10,1.3,1.3
2024-09-08T1600,1765A,123.7992,41.2664,本溪市,新立屯,,46,30,27,8,9,147,,100,100,13,28,8,6,1.0,1.1
2024-09-08T1600,1766A,123.8142,41.3472,本溪市,威宁,,39,36,37,11,18,124,,82,82,21,24,9,8,1.3,1.1
2024-09-08T1600,2587A,105.2864,27.3125,毕节市,八中,,28,14,16,11,12,89,,66,66,8,9,11,7,0.4,0.5
2024-09-08T1600,2588A,105.31,27.2944,毕节市,师专,,30,15,16,10,12,93,,68,68,9,10,12,10,0.5,0.5
2024-09-08T1600,3537A,105.3631,27.3533,毕节市,长征村,,25,19,22,14,18,78,,68,68,6,8,6,6,0.5,0.5
2024-09-08T1600,1629A,118.0018,37.3617,滨州市,第二水厂,臭氧1小时,113,53,33,31,18,225,,179,179,7,18,5,18,0.9,0.7
2024-09-08T1600,1630A,117.9776,37.393,滨州市,北中新校,臭氧1小时,110,48,36,27,14,220,,184,184,5,16,7,19,1.0,0.9
2024-09-08T1600,3514A,117.9378,37.3956,滨州市,中海酒店,臭氧1小时,107,48,28,29,16,214,,177,177,9,17,7,18,0.8,0.7
2024-09-08T1600,3515A,117.9378,37.3553,滨州市,开发区一中,臭氧1小时,117,53,37,31,19,233,,194,194,12,20,9,23,0.7,0.6
2024-09-08T1600,3516A,118.0917,37.694,滨州市,金海六路,臭氧1小时,104,54,34,29,13,207,,167,167,7,10,5,7,0.7,0.6
2024-09-08T1600,4028A,117.9956,37.3753,滨州市,滨州市西街道办事处,臭氧1小时,116,48,31,36,20,231,,189,189,5,14,6,29,0.9,0.8
2024-09-08T1600,2311A,115.8072,33.8399,亳州市,污水处理厂,,39,34,38,24,26,124,,108,108,4,9,3,11,0.6,0.6
2024-09-08T1600,2312A,115.7789,33.8518,亳州市,三国揽胜宫,颗粒物(PM10),53,56,43,26,30,125,,106,106,3,6,2,9,0.5,0.5
2024-09-08T1600,3332A,115.7633,33.8034,亳州市,亳州学院,,41,34,38,27,26,131,,115,115,5,7,2,6,0.5,0.6
2024-09-08T1600,2693A,82.0485,44.8556,博尔塔拉蒙古自治州,市党校,,27,11,16,8,10,85,,61,61,6,7,6,5,0.4,0.4
2024-09-08T1600,2694A,82.0806,44.8969,博尔塔拉蒙古自治州,市环保局,,25,,23,11,10,77,,55,55,6,9,4,4,0.4,0.3
2024-09-08T1600,1071A,116.8842,38.2991,沧州市,沧县城建局,,48,48,43,19,20,120,,94,94,23,28,7,6,0.6,0.7
2024-09-08T1600,1072A,116.8584,38.3254,沧州市,电视转播站,,39,35,40,22,22,124,,94,94,16,29,6,6,0.4,0.8
2024-09-08T1600,1073A,116.8709,38.3228,沧州市,市环保局,,40,40,46,19,20,117,,90,90,15,26,7,7,0.4,0.6
2024-09-08T1600,3324A,116.8136,38.3004,沧州市,河北水利电力学院,颗粒物(PM10),51,51,44,22,23,130,,103,103,23,28,8,8,0.4,0.6
2024-09-08T1600,2622A,97.1806,31.1273,昌都市,昌都监测站,,24,6,7,3,5,74,,46,46,4,12,7,7,0.6,0.6
2024-09-08T1600,3719A,97.1714,31.1406,昌都市,昌都会议中心,,25,7,11,3,5,78,,49,49,3,7,8,8,0.6,0.6
2024-09-08T1600,2690A,88.1236,43.8886,昌吉回族自治州,天山天池,,26,10,4,3,2,82,,60,60,7,4,2,3,0.6,0.4
2024-09-08T1600,2692A,87.2717,44.0297,昌吉回族自治州,新区政务中心,,27,15,12,9,10,86,,57,57,6,9,7,5,0.6,0.5
2024-09-08T1600,3613A,87.3095,44.0142,昌吉回族自治州,亚心广场,,29,9,12,3,3,90,,59,59,9,16,5,3,0.4,0.4
2024-09-08T1600,1119A,125.3325,43.9166,长春市,食品厂,,35,26,33,9,15,112,,99,99,12,28,4,6,0.3,0.5
2024-09-08T1600,1120A,125.2863,43.9027,长春市,客车厂,,34,16,31,3,16,106,,98,98,9,24,7,8,0.4,0.5
2024-09-08T1600,1121A,125.2841,43.8463,长春市,邮电学院,,32,14,28,8,13,101,,99,99,12,20,6,7,0.3,0.4
2024-09-08T1600,1122A,125.3716,43.8772,长春市,劳动公园,,37,20,33,8,14,116,,102,102,10,22,7,9,0.3,0.4
2024-09-08T1600,1123A,125.3297,43.8805,长春市,园林处,,34,17,32,8,13,108,,99,99,10,20,4,5,0.4,0.5
2024-09-08T1600,1124A,125.4605,43.79,长春市,净月潭,,32,10,21,8,12,100,,95,95,3,8,6,6,0.3,0.4
2024-09-08T1600,1125A,125.7194,43.515,长春市,甩湾子,,,,,,,,,,,,,,,,
2024-09-08T1600,1126A,125.3863,43.8447,长春市,经开区环卫处,,34,34,33,7,12,103,,90,90,9,27,7,8,0.4,0.5
2024-09-08T1600,1127A,125.245,43.7783,长春市,高新区管委会,,33,7,26,3,12,105,,97,97,4,21,4,5,0.5,0.5
2024-09-08T1600,1128A,125.1761,43.8325,长春市,岱山公园,,34,20,39,11,16,106,,98,98,7,37,4,6,0.3,0.5
2024-09-08T1600,1335A,113.0833,28.2325,长沙市,经开区环保局,,34,31,30,17,14,107,,112,112,10,14,3,3,0.4,0.4
2024-09-08T1600,1336A,112.8872,28.2189,长沙市,高开区环保局,,38,29,34,19,21,120,,121,121,5,17,3,3,0.6,0.7
2024-09-08T1600,1337A,113.0792,28.2053,长沙市,马坡岭,,36,35,32,12,18,113,,118,118,9,11,3,3,0.5,0.6
2024-09-08T1600,1338A,112.9394,28.19,长沙市,湖南师范大学,,37,25,39,13,20,116,,128,128,4,12,5,6,0.6,0.7
2024-09-08T1600,1339A,113.0178,28.1322,长沙市,雨花区环保局,,35,23,32,18,19,109,,110,110,6,16,4,5,0.3,0.4
2024-09-08T1600,1340A,112.9792,28.2597,长沙市,伍家岭,,36,23,36,16,18,115,,116,116,2,15,1,1,0.5,0.6
2024-09-08T1600,1341A,113.0014,28.1944,长沙市,火车新站,,38,31,32,14,20,120,,108,108,6,14,3,4,0.4,0.5
2024-09-08T1600,1342A,112.9844,28.1178,长沙市,天心区环保局,,34,20,37,8,18,107,,103,103,3,12,3,3,0.6,0.6
2024-09-08T1600,1343A,112.8908,28.1308,长沙市,湖南中医药大学,,47,35,38,20,17,149,,125,125,4,18,5,4,0.8,1
2024-09-08T1600,1344A,112.9581,28.3611,长沙市,沙坪,,33,24,37,22,18,105,,96,96,6,9,7,7,0.4,0.5
2024-09-08T1600,1727A,113.1147,36.1547,长治市,清华站,,36,19,34,14,26,114,,109,109,4,7,6,6,0.5,0.7
2024-09-08T1600,1728A,113.1031,36.1989,长治市,监测站,,34,28,42,12,26,108,,100,100,8,15,8,8,0.6,0.9
2024-09-08T1600,1730A,113.0886,36.2125,长治市,审计局,,33,29,39,14,26,104,,100,100,12,14,5,6,0.4,0.6
2024-09-08T1600,1731A,113.0844,36.1856,长治市,长治八中,,35,25,40,12,25,110,,104,104,7,10,6,6,0.6,0.9
2024-09-08T1600,2845A,113.1569,36.1911,长治市,德盛苑,,36,20,35,19,25,114,,106,106,3,8,3,4,0.5,0.8
2024-09-08T1600,3568A,113.06,36.0464,长治市,向阳小学,,40,40,51,28,32,118,,114,114,3,8,6,7,0.4,0.5
2024-09-08T1600,3569A,112.8792,36.3144,长治市,屯留一中,,45,42,53,31,38,131,,123,123,4,8,6,7,0.5,0.6
2024-09-08T1600,3570A,113.235,36.3489,长治市,潞城四中,,38,38,50,14,46,117,,109,109,6,7,6,6,0.6,0.9
2024-09-08T1600,1854A,111.6975,28.9703,常德市,市二中,,36,36,55,14,25,114,,120,120,1,13,7,8,0.5,0.8
2024-09-08T1600,1857A,111.7158,29.1456,常德市,白鹤山,,,,,,,,,,,,,,,,
2024-09-08T1600,3138A,111.7153,29.0289,常德市,武陵区永安,,33,26,59,16,40,104,,121,121,2,11,7,9,0.5,0.8
2024-09-08T1600,3139A,111.6892,28.9881,常德市,鼎城区玉霞,,35,23,57,13,37,112,,117,117,5,13,6,6,0.5,0.8
2024-09-08T1600,3140A,111.6625,29.0531,常德市,武陵区长庚,,34,28,59,15,39,108,,127,127,2,12,8,12,0.4,0.6
2024-09-08T1600,1196A,119.9633,31.762,常州市,市监测站,,49,49,49,28,35,133,,115,115,4,16,7,9,0.3,0.6
2024-09-08T1600,1200A,119.9468,31.7069,常州市,武进监测站,,46,42,48,28,33,145,,112,112,7,15,8,8,0.8,0.9
2024-09-08T1600,1201A,119.9255,31.9087,常州市,安家,,49,44,50,30,39,154,,117,117,11,20,10,9,0.8,0.9
2024-09-08T1600,3002A,119.9805,31.8174,常州市,行政中心,,41,41,46,22,31,127,,108,108,8,18,9,9,0.3,0.5
2024-09-08T1600,3003A,120.0522,31.7748,常州市,经开区,,42,42,47,18,31,126,,105,105,3,16,10,12,0.4,0.7
2024-09-08T1600,3010A,119.9025,31.7964,常州市,钟楼,,40,36,49,28,34,120,,104,104,10,18,7,10,0.4,0.7
2024-09-08T1600,3429A,119.8598,31.7066,常州市,武进经发区,臭氧1小时,57,40,49,33,41,165,,118,118,8,19,11,12,0.2,0.5
2024-09-08T1600,3430A,119.5826,31.7245,常州市,金坛城区,臭氧1小时,53,42,49,33,39,162,,124,124,9,17,8,9,0.6,0.7
2024-09-08T1600,2220A,120.4318,41.5881,朝阳市,西梁,,27,18,31,7,17,84,,73,73,8,19,5,7,0.5,0.7
2024-09-08T1600,2221A,120.4521,41.5646,朝阳市,河畔小区,,28,17,21,13,12,87,,77,77,5,10,6,7,0.6,0.6
2024-09-08T1600,2222A,120.4176,41.5648,朝阳市,八里堡,,28,26,27,11,13,88,,78,78,10,20,8,9,0.7,0.8
2024-09-08T1600,2223A,120.3806,41.5969,朝阳市,农业园区,,27,21,25,12,13,86,,73,73,4,15,9,9,0.7,0.8
2024-09-08T1600,1705A,116.6367,23.6719,潮州市,西园路,,18,12,19,3,7,56,,59,59,7,10,5,8,0.3,0.3
2024-09-08T1600,3026A,116.6183,23.6608,潮州市,市政府,,19,8,19,7,6,59,,64,64,5,7,4,8,0.5,0.6
2024-09-08T1600,4036A,116.6461,23.6761,潮州市,金山,,20,,17,11,12,63,,66,66,5,8,7,9,0.5,0.5
2024-09-08T1600,2472A,113.0073,25.9061,郴州市,马头岭,,24,11,16,8,8,76,,67,67,2,6,8,8,0.2,0.3
2024-09-08T1600,2473A,113.0116,25.8226,郴州市,市职中,,31,,15,15,10,99,,75,75,7,12,8,6,0.4,0.4
2024-09-08T1600,2474A,113.0161,25.8001,郴州市,兴隆步行街,,31,26,23,14,10,99,,74,74,7,11,12,9,0.4,0.5
2024-09-08T1600,2475A,113.0383,25.8071,郴州市,市审计局,,29,15,14,14,10,92,,70,70,6,12,7,7,0.4,0.4
2024-09-08T1600,2476A,113.0348,25.7759,郴州市,市环保局,,29,18,19,8,9,91,,69,69,6,14,8,11,0.5,0.5
2024-09-08T1600,1431A,103.9728,30.7236,成都市,金泉两河,臭氧1小时,70,48,33,7,14,176,,132,132,8,11,1,1,0.5,0.5
2024-09-08T1600,1432A,104.176,30.6872,成都市,十里店,,44,37,40,10,24,139,,123,123,9,10,5,4,0.5,0.5
2024-09-08T1600,1433A,104.079,30.5706,成都市,三瓦窑,,42,39,37,28,27,132,,120,120,27,22,2,2,0.7,0.6
2024-09-08T1600,1434A,104.1114,30.63,成都市,沙河铺,,42,40,38,9,21,134,,112,112,16,15,8,7,0.8,0.5
2024-09-08T1600,1437A,104.0786,30.6531,成都市,君平街,,47,24,35,12,24,148,,134,134,12,16,3,2,0.6,0.6
2024-09-08T1600,1438A,103.613,31.0283,成都市,灵岩寺,,,,,,,,,,,,,,,,
2024-09-08T1600,2880A,104.0239,30.65639,成都市,大石西路,,40,24,35,19,19,128,,117,117,11,16,4,4,0.8,0.8
2024-09-08T1600,3136A,104.2725,30.5589,成都市,龙泉驿区区政府,,43,12,27,9,19,136,,112,112,4,11,4,5,0.4,0.5
2024-09-08T1600,3357A,104.0106,30.6931,成都市,金博路,,49,40,30,34,18,108,,108,108,12,16,2,2,0.4,0.5
2024-09-08T1600,3359A,104.0578,30.5225,成都市,华阳,,42,39,40,17,20,134,,126,126,18,16,3,3,0.8,0.7
2024-09-08T1600,3487A,104.2394,30.5319,成都市,车城东七路,,45,17,39,11,29,143,,124,124,4,12,3,3,0.4,0.6
2024-09-08T1600,3488A,104.3853,30.7453,成都市,青白江技师分院,,46,,25,6,16,145,,111,111,8,21,3,3,0.4,0.5
2024-09-08T1600,3489A,104.0789,30.4072,成都市,科学城,,42,18,41,14,31,134,,116,116,1,12,4,4,0.5,0.6
2024-09-08T1600,4011A,103.8506,30.6947,成都市,光华大道三段,,40,40,33,27,17,115,,138,138,39,14,1,2,0.6,0.7
2024-09-08T1600,1062A,117.9531,40.9081,承德市,铁路,,28,28,26,11,12,20,,24,24,37,26,11,8,0.8,0.4
2024-09-08T1600,1063A,117.9392,40.9763,承德市,中国银行,,36,30,30,25,13,31,,36,36,30,21,29,7,0.9,0.5
2024-09-08T1600,1064A,117.9503,40.928,承德市,开发区,,27,27,25,9,17,19,,32,30,37,21,22,6,0.9,0.5
2024-09-08T1600,1065A,117.8051,40.9655,承德市,文化中心,,40,40,43,18,18,27,,29,29,23,20,34,16,1.3,0.7
2024-09-08T1600,1066A,117.9268,41.0026,承德市,离宫,,26,26,30,15,16,16,,23,23,18,12,3,2,0.7,0.5
2024-09-08T1600,2314A,117.47,30.6618,池州市,池州学院,臭氧1小时,57,47,52,30,37,165,,141,141,9,12,7,7,0.5,0.6
2024-09-08T1600,3237A,117.4918,30.6617,池州市,展览馆,臭氧1小时,57,44,53,28,36,165,,140,140,6,8,6,6,0.6,0.7
2024-09-08T1600,3333A,117.5627,30.695,池州市,第八中学,臭氧1小时,52,44,50,31,35,161,,131,131,10,11,6,5,0.5,0.6
2024-09-08T1600,3334A,117.5038,30.6243,池州市,第十二中学,臭氧1小时,52,47,55,26,36,161,,137,137,12,13,5,5,0.5,0.7
2024-09-08T1600,1744A,118.9233,42.2816,赤峰市,松山一中,,26,26,22,3,8,75,,62,62,31,30,12,10,0.8,0.6
2024-09-08T1600,1745A,118.9576,42.2728,赤峰市,哈达街,,28,28,20,3,9,72,,64,64,20,18,18,9,0.4,0.3
2024-09-08T1600,1746A,118.8788,42.2554,赤峰市,天义路,,30,,19,7,7,94,,70,70,14,19,8,8,0.2,0.2
2024-09-08T1600,3058A,119.2658,42.0353,赤峰市,银河街,,26,25,34,6,20,81,,66,66,13,18,21,15,0.4,0.5
2024-09-08T1600,3286A,118.9359,42.3147,赤峰市,桥北物流园区,,28,28,20,17,10,81,,61,61,26,31,24,12,0.8,0.6
2024-09-08T1600,2521A,107.3476,22.4136,崇左市,市环保局江州分局,,17,7,6,3,4,53,,58,52,3,2,6,6,0.6,0.6
2024-09-08T1600,2522A,107.3702,22.3707,崇左市,城南新区,,18,,7,7,4,56,,60,54,3,2,2,2,0.6,0.5
2024-09-08T1600,2298A,118.3093,32.3153,滁州市,老年大学,臭氧1小时,85,44,40,29,29,188,,143,143,7,10,7,6,0.4,0.4
2024-09-08T1600,2299A,118.3244,32.2786,滁州市,人大宾馆,,,48,48,28,37,189,,140,140,11,12,9,7,,0.5
2024-09-08T1600,3207A,118.3118,32.3038,滁州市,市政府原办公楼,臭氧1小时,73,38,39,32,34,178,,135,135,11,11,9,8,0.6,0.6
2024-09-08T1600,3331A,118.3267,32.2634,滁州市,图书馆,臭氧1小时,84,47,44,20,34,187,,138,138,8,10,8,7,0.6,0.2
2024-09-08T1600,2605A,101.5482,25.0441,楚雄彝族自治州,州环境监测站,,24,24,21,7,14,76,,71,71,7,13,16,10,0.4,0.5
2024-09-08T1600,2606A,101.538,25.0492,楚雄彝族自治州,市经济开发区,,23,20,27,6,16,73,,69,69,6,15,5,9,0.6,0.7
2024-09-08T1600,2548A,107.5277,31.2827,达州市,达州职业技术学院,,28,10,34,3,17,89,,77,77,4,13,5,5,0.4,0.6
2024-09-08T1600,2549A,107.5086,31.2186,达州市,市环境监测站,,30,12,29,3,11,96,,79,79,13,20,6,6,0.3,0.5
2024-09-08T1600,2550A,107.4988,31.2132,达州市,凤凰小区,,33,14,23,7,13,104,,89,89,9,14,6,6,0.4,0.4
2024-09-08T1600,2551A,107.5082,31.1986,达州市,达县机关宾馆,,31,17,27,3,11,99,,85,85,14,21,4,4,0.2,0.3
2024-09-08T1600,2552A,107.4644,31.2124,达州市,市政中心,,32,24,35,3,13,100,,90,90,9,13,5,8,0.2,0.4
2024-09-08T1600,2614A,100.1542,25.7054,大理白族自治州,大理市环境监测站,,34,24,31,12,19,106,,92,92,6,22,5,5,0.6,0.7
2024-09-08T1600,2615A,100.2171,25.5811,大理白族自治州,大理古城,,30,21,26,3,15,96,,83,83,6,13,7,8,0.6,0.7
2024-09-08T1600,1109A,121.612,38.9741,大连市,甘井子,,48,47,49,20,25,152,,129,129,18,33,11,12,0.7,0.7
2024-09-08T1600,1110A,121.565,38.9511,大连市,周水子,,43,34,35,14,21,136,,122,122,20,30,8,8,0.9,0.8
2024-09-08T1600,1111A,121.5637,38.8845,大连市,星海三站,臭氧1小时,64,36,37,22,21,171,,136,136,6,16,9,8,0.6,0.5
2024-09-08T1600,1112A,121.6302,38.9117,大连市,青泥洼桥,,48,22,44,13,24,152,,131,131,6,25,11,11,0.8,0.8
2024-09-08T1600,1113A,121.6251,38.8638,大连市,傅家庄,臭氧1小时,65,28,37,16,25,172,,135,135,8,20,12,12,0.8,0.8
2024-09-08T1600,1114A,121.5213,38.8661,大连市,七贤岭,臭氧1小时,73,29,32,20,20,178,,145,145,8,10,10,8,0.6,0.5
2024-09-08T1600,1115A,121.2529,38.8061,大连市,旅顺,,50,30,25,16,18,159,,139,139,13,15,10,9,0.6,0.6
2024-09-08T1600,1116A,121.7485,39.1311,大连市,金州,,48,31,30,21,22,153,,133,133,16,15,10,10,0.8,0.7
2024-09-08T1600,1117A,121.7811,39.0496,大连市,开发区,,49,30,33,17,20,156,,132,132,9,18,10,11,0.6,0.6
2024-09-08T1600,1118A,121.9762,39.0631,大连市,双D港,臭氧1小时,62,27,23,15,18,169,,132,132,13,15,8,8,0.7,0.8
2024-09-08T1600,1789A,124.81117,46.03138,大庆市,大同区,颗粒物(PM10),100,150,89,25,16,91,,86,86,6,6,4,4,0.3,0.3
2024-09-08T1600,1790A,125.129,46.533,大庆市,龙凤区,颗粒物(PM10),52,53,43,11,13,95,,86,86,8,16,4,7,0.3,0.4
2024-09-08T1600,1791A,124.902,46.408,大庆市,红岗区,,31,24,23,12,12,97,,91,91,6,10,6,7,0.3,0.3
2024-09-08T1600,1792A,125.153,46.586,大庆市,萨尔图区,,38,38,23,6,7,96,,88,88,10,11,5,6,0.3,0.3
2024-09-08T1600,1793A,124.9042,46.6215,大庆市,让胡路区,,29,23,24,8,10,92,,81,81,8,9,4,4,0.3,0.3
2024-09-08T1600,3481A,125.141,46.634,大庆市,萨区政府监测点,,34,31,23,3,4,106,,91,91,7,10,6,6,0.3,0.3
2024-09-08T1600,1721A,113.3819,40.1097,大同市,果树场,,,,,,,,,,,,,,,,
2024-09-08T1600,1723A,113.2994,40.0758,大同市,云冈宾馆,细颗粒物(PM2.5),57,48,24,40,17,108,,94,94,18,15,10,7,0.7,0.6
2024-09-08T1600,1724A,113.3444,40.0917,大同市,大同大学,,32,27,19,18,13,102,,91,91,9,10,9,8,0.5,0.5
2024-09-08T1600,1725A,113.2661,40.1269,大同市,安家小村,,44,44,23,28,14,115,,97,97,12,11,12,10,1.0,0.9
2024-09-08T1600,1726A,113.2711,40.0844,大同市,教育学院,,47,47,26,31,18,103,,90,90,21,13,7,6,0.9,0.8
2024-09-08T1600,3282A,113.3397,40.0597,大同市,大同市卫生学校,,36,36,24,18,15,99,,88,88,9,11,8,7,0.8,0.8
2024-09-08T1600,3565A,113.1367,40.1122,大同市,云冈站,颗粒物(PM10),53,56,40,26,19,92,,89,89,24,16,9,9,0.7,0.4
2024-09-08T1600,3566A,113.1186,40.2556,大同市,图书馆,,43,42,25,30,17,98,,90,90,17,16,10,10,0.8,0.7
2024-09-08T1600,3567A,113.5931,40.0461,大同市,区一中,,35,25,20,12,12,111,,96,96,11,9,9,9,0.7,0.7
2024-09-08T1600,3676A,113.2802,40.0995,大同市,第二人民医院,,48,48,26,29,16,113,,95,95,15,13,12,10,0.7,0.7
2024-09-08T1600,2269A,124.1069,50.4097,大兴安岭地区,科技局,,27,27,16,15,13,75,,56,56,4,4,5,5,0.2,0.2
2024-09-08T1600,3663A,124.1164,50.4278,大兴安岭地区,红旗社区,,23,19,17,13,8,72,,52,52,7,12,4,4,0.3,0.3
2024-09-08T1600,1600A,124.3303,40.0625,丹东市,江湾东路,,35,25,20,10,10,110,,81,81,14,14,9,5,0.6,0.7
2024-09-08T1600,1601A,124.4256,40.1503,丹东市,临江后街,,44,24,22,9,10,138,,98,98,6,11,7,6,0.7,0.7
2024-09-08T1600,1602A,124.3933,40.1461,丹东市,元宝山,,36,21,18,11,10,114,,81,81,10,13,4,3,0.9,0.9
2024-09-08T1600,1603A,124.3633,40.1092,丹东市,民主桥,,40,23,19,10,8,127,,89,89,6,9,8,5,0.6,0.7
2024-09-08T1600,3541A,109.5726,19.5167,儋州市,第一中学子站,,16,10,15,6,8,50,,54,47,2,2,4,4,0.5,0.5
2024-09-08T1600,3542A,109.5567,19.5187,儋州市,东坡学校子站,,,,,6,9,52,,,,2,3,3,3,0.7,0.7
2024-09-08T1600,2616A,98.5842,24.428,德宏傣族景颇族自治州,德宏州监测站,,25,21,35,15,22,77,,55,55,7,11,8,8,0.7,0.8
2024-09-08T1600,3677A,98.5881,24.4368,德宏傣族景颇族自治州,芒市人民政府综合楼,,25,23,37,16,25,80,,56,56,7,11,8,10,0.7,0.8
2024-09-08T1600,1901A,104.4239,31.1208,德阳市,东山公园,,39,20,25,17,16,124,,93,93,15,13,2,5,0.6,0.7
2024-09-08T1600,1902A,104.3826,31.1317,德阳市,西小区,,41,28,32,14,22,129,,97,97,9,15,3,4,0.5,0.6
2024-09-08T1600,1904A,104.3553,31.1091,德阳市,耐火材料厂,,40,31,34,12,21,128,,99,99,20,19,3,4,0.5,0.6
2024-09-08T1600,3639A,104.4019,31.1244,德阳市,市教育局,,44,31,35,16,20,140,,96,96,7,14,1,4,0.7,0.7
2024-09-08T1600,1622A,116.3032,37.4674,德州市,儿童乐园,臭氧1小时,73,53,56,31,27,178,,147,147,8,19,10,14,0.7,0.7
2024-09-08T1600,1624A,116.2991,37.4451,德州市,监理站,臭氧1小时,79,53,51,31,28,183,,153,153,4,14,10,17,0.8,0.8
2024-09-08T1600,3066A,116.2721,37.4379,德州市,九衢泉纯净水厂,颗粒物(PM10),53,56,54,31,28,159,,140,140,8,19,12,16,0.9,0.9
2024-09-08T1600,3371A,116.3728,37.4403,德州市,开发区人民医院,臭氧1小时,83,48,52,31,24,186,,152,152,8,20,11,14,0.9,0.7
2024-09-08T1600,3372A,116.3572,37.4094,德州市,太阳城中学,臭氧1小时,82,48,50,27,26,185,,150,150,7,17,13,16,0.8,0.7
2024-09-08T1600,3511A,116.5652,37.3319,德州市,陵城艺术中心,臭氧1小时,94,61,53,22,24,195,,159,159,12,20,14,16,0.7,0.7
2024-09-08T1600,2621A,99.7056,27.8317,迪庆藏族自治州,迪庆州站,,30,17,31,8,14,94,,84,84,9,12,7,8,0.4,0.5
2024-09-08T1600,3180A,99.7136,27.8094,迪庆藏族自治州,质量技术监督局,,27,21,23,3,11,86,,78,78,11,12,8,8,0.5,0.5
2024-09-08T1600,2663A,104.6241,35.5734,定西市,东关小学,,,25,25,17,16,97,,97,97,,5,,4,0.2,0.3
2024-09-08T1600,2664A,104.6194,35.5934,定西市,供电公司,,31,25,27,19,24,99,,101,101,5,4,7,7,0.2,0.2
2024-09-08T1600,1389A,113.7547,23.0494,东莞市,莞城梨川,,29,19,19,10,10,91,,43,43,13,15,5,5,0.7,0.7
2024-09-08T1600,1390A,113.7944,23.0128,东莞市,东城石井,,27,14,21,10,10,85,,40,40,11,17,4,4,0.4,0.5
2024-09-08T1600,1391A,113.7383,22.9658,东莞市,南城西平,,27,13,19,8,10,85,,44,44,12,19,3,2,0.6,0.7
2024-09-08T1600,3319A,113.7338,23.0381,东莞市,万江金泰,,30,16,17,9,10,96,,49,49,11,15,9,8,0.6,0.6
2024-09-08T1600,3626A,113.7533,23.0202,东莞市,南城元岭,,29,23,19,14,12,91,,49,49,11,14,7,7,0.6,0.6
2024-09-08T1600,3627A,113.7875,23.0457,东莞市,东城主山,,,23,20,14,11,107,,48,48,13,16,,8,0.6,0.6
2024-09-08T1600,1666A,118.6614,37.4309,东营市,市环保局,臭氧1小时,118,58,28,24,9,236,,203,203,14,13,9,7,0.4,0.3
2024-09-08T1600,3036A,118.6904,37.4338,东营市,开发区管委会,臭氧1小时,115,71,34,29,12,230,,199,199,17,13,12,8,0.4,0.3
2024-09-08T1600,3365A,118.5719,37.565,东营市,垦利区民丰路,臭氧1小时,113,66,24,29,10,226,,,,12,8,8,5,0.6,0.4
2024-09-08T1600,3498A,118.5055,37.8612,东营市,河口城区,臭氧1小时,70,51,30,27,12,176,,147,147,10,10,8,6,0.6,0.7
2024-09-08T1600,3646A,118.4978,37.4623,东营市,胜利站,臭氧1小时,98,46,24,19,10,198,,170,170,18,16,7,6,0.6,0.5
2024-09-08T1600,3734A,118.35,37.26,东营市,理想之城,臭氧1小时,110,48,27,24,14,220,,180,180,13,17,9,6,0.5,0.3
2024-09-08T1600,1591A,110.0023,39.8129,鄂尔多斯市,综合楼,,,46,46,34,24,67,,75,75,23,18,,10,0.9,0.9
2024-09-08T1600,1592A,109.9486,39.8261,鄂尔多斯市,巴音孟克林场办事处,,44,44,46,29,27,70,,77,77,20,18,6,7,0.9,0.8
2024-09-08T1600,1593A,109.7736,39.5986,鄂尔多斯市,康泽苑,颗粒物(PM10),54,58,45,27,22,86,,85,85,15,14,7,8,0.7,0.7
2024-09-08T1600,1594A,109.8119,39.5989,鄂尔多斯市,华泰汽车城,,49,48,42,34,26,70,,71,71,12,13,6,7,0.6,0.6
2024-09-08T1600,1595A,109.9734,39.7884,鄂尔多斯市,奥林花园,,46,46,44,31,25,55,,67,67,25,20,4,5,0.9,0.9
2024-09-08T1600,2436A,114.8938,30.3994,鄂州市,市政府,,49,41,52,12,26,154,,151,151,8,17,10,12,0.7,0.8
2024-09-08T1600,2437A,114.8989,30.3714,鄂州市,赵家坝,,46,43,53,13,25,146,,150,150,9,19,10,11,0.9,1
2024-09-08T1600,3654A,114.8094,30.4089,鄂州市,精准医疗中心,,45,33,46,10,25,142,,148,148,7,16,5,8,0.5,0.8
2024-09-08T1600,2454A,109.4978,30.2981,恩施土家族苗族自治州,湖北民院,,36,16,27,11,19,114,,83,83,8,20,8,8,0.8,0.9
2024-09-08T1600,2455A,109.4707,30.2798,恩施土家族苗族自治州,州电力总公司,,34,14,24,13,19,108,,74,74,10,22,8,8,0.5,0.6
2024-09-08T1600,3549A,109.5061,30.3772,恩施土家族苗族自治州,龙凤新区,,29,12,21,3,15,92,,66,66,8,13,6,6,0.7,0.8
2024-09-08T1600,2499A,108.3411,21.6158,防城港市,沙万,,38,38,26,14,8,59,,50,50,12,9,22,34,0.5,0.6
2024-09-08T1600,2500A,108.3514,21.7731,防城港市,防城档案局,,30,30,19,15,6,63,,55,55,8,6,7,7,0.5,0.5
2024-09-08T1600,2501A,108.3506,21.6414,防城港市,大海花园,,22,22,28,13,8,68,,60,60,8,7,5,23,0.4,0.3
2024-09-08T1600,1371A,113.1294,23.0067,佛山市,湾梁,,30,14,19,14,17,95,,63,63,17,26,6,7,0.7,0.7
2024-09-08T1600,1372A,113.1083,23.0478,佛山市,华材职中,,30,12,17,12,10,94,,64,64,14,21,6,6,0.3,0.3
2024-09-08T1600,1373A,113.144,23.0453,佛山市,南海气象局,,27,27,22,15,12,83,,59,59,11,17,6,7,0.7,0.6
2024-09-08T1600,1374A,113.2881,22.8094,佛山市,顺德苏岗,,25,16,15,7,7,80,,53,53,11,20,7,7,0.6,0.6
2024-09-08T1600,1376A,112.8383,22.8678,佛山市,高明孔堂,,24,22,25,12,10,75,,76,76,10,21,4,4,0.7,0.6
2024-09-08T1600,1377A,112.8836,23.1588,佛山市,三水监测站,,23,12,19,8,13,73,,61,61,24,27,6,7,0.6,0.4
2024-09-08T1600,1378A,112.867,23.185,佛山市,三水云东海,,16,11,22,10,13,49,,53,53,16,23,6,7,0.6,0.6
2024-09-08T1600,3625A,113.2544,22.7642,佛山市,容桂街道办,,25,12,15,9,10,77,,53,53,14,23,6,6,0.6,0.7
2024-09-08T1600,1280A,119.3903,26.0543,福州市,鼓山,,,,,,,,,,,,,,,,
2024-09-08T1600,1282A,119.2681,26.0504,福州市,师大,,20,16,16,3,5,61,,55,55,9,8,4,4,0.3,0.3
2024-09-08T1600,1283A,119.2984,26.1028,福州市,五四北路,,,,,2,3,71,,58,58,5,5,3,4,0.4,0.4
2024-09-08T1600,1284A,119.2648,26.0768,福州市,杨桥西路,,22,21,17,3,4,70,,60,60,10,8,3,3,0.3,0.3
2024-09-08T1600,1285A,119.317,26.0746,福州市,紫阳,,,,,,,,,,,,,,,,
2024-09-08T1600,3048A,119.5799,26.0936,福州市,九龙,,18,10,10,3,1,56,,54,54,2,5,5,6,0.3,0.3
2024-09-08T1600,3526A,119.5189,25.9664,福州市,吴航,,18,6,9,3,5,56,,50,50,2,3,5,5,0.1,0.2
2024-09-08T1600,1755A,123.7977,41.8491,抚顺市,望花区,臭氧1小时,53,37,46,14,21,162,,101,101,16,28,15,11,1.2,0.9
2024-09-08T1600,1756A,123.9161,41.8822,抚顺市,顺城区,臭氧1小时,73,29,30,20,17,178,,108,108,16,26,11,6,1.3,0.7
2024-09-08T1600,1757A,124.0436,41.8611,抚顺市,东洲区,,43,34,23,20,13,135,,91,91,13,12,12,8,1.1,0.6
2024-09-08T1600,1758A,123.9247,41.8642,抚顺市,新抚区,臭氧1小时,65,35,29,22,14,172,,103,103,17,21,12,9,1.4,0.5
2024-09-08T1600,1759A,124.0972,41.8961,抚顺市,大伙房水库,,42,34,16,11,9,132,,96,96,8,10,7,5,1.0,0.6
2024-09-08T1600,1760A,123.7086,41.8391,抚顺市,沈抚新城,臭氧1小时,68,39,42,21,24,174,,108,108,21,33,18,11,0.9,1
2024-09-08T1600,2376A,116.2127,28.0814,抚州市,桐源党溪,,32,32,31,6,16,101,,88,88,3,7,5,8,0.3,0.5
2024-09-08T1600,2377A,116.3544,27.9831,抚州市,市站,,26,19,30,12,15,82,,78,78,3,10,3,6,0.5,0.6
2024-09-08T1600,2378A,116.3565,27.963,抚州市,血防站,,26,22,29,8,13,83,,75,75,5,12,2,5,0.8,0.7
2024-09-08T1600,2379A,116.3564,28.0007,抚州市,采茶剧团,,26,21,30,6,11,83,,78,78,3,9,5,5,0.5,0.6
2024-09-08T1600,2380A,116.385,27.9647,抚州市,医学分院,,28,22,28,9,11,87,,71,71,5,10,4,6,0.4,0.5
2024-09-08T1600,2207A,121.6094,41.998,阜新市,工业园区,,35,25,36,6,11,109,,93,93,11,22,8,10,0.5,0.6
2024-09-08T1600,2208A,121.6697,42.0279,阜新市,长青街,,33,23,31,13,13,105,,88,88,9,19,10,14,0.5,0.6
2024-09-08T1600,2209A,121.6673,42.0705,阜新市,农业园区,,30,20,27,9,14,96,,88,88,10,19,6,11,0.4,0.4
2024-09-08T1600,2210A,121.6717,42.0224,阜新市,东苑,,32,18,37,7,16,102,,86,86,10,20,13,23,0.5,0.6
2024-09-08T1600,2211A,121.6506,42.0498,阜新市,玉龙新城,,32,22,29,10,10,102,,93,93,10,21,10,11,0.3,0.3
2024-09-08T1600,2301A,115.8277,32.8929,阜阳市,市监测站,臭氧1小时,54,34,40,34,29,163,,130,130,4,7,7,8,0.5,0.6
2024-09-08T1600,2303A,115.8554,32.8605,阜阳市,开发区,,,,47,,38,,,105,,,12,,7,,0.5
2024-09-08T1600,2875A,115.784,32.8892,阜阳市,阜阳职业技术学院,"颗粒物(PM10),臭氧1小时",52,54,47,30,30,161,,127,127,6,8,6,7,0.4,0.4
2024-09-08T1600,3468A,115.7901,32.8613,阜阳市,市规划展馆,臭氧1小时,55,53,52,33,36,164,,132,132,8,11,5,7,0.7,0.7
2024-09-08T1600,3469A,115.836,32.9183,阜阳市,枣园社区,细颗粒物(PM2.5),58,52,48,41,35,157,,123,123,8,10,5,6,0.6,0.7
2024-09-08T1600,2669A,102.9099,34.9841,甘南藏族自治州,州政府,,,10,27,,18,95,,77,77,1,14,10,10,0.4,0.5
2024-09-08T1600,3380A,102.8914,34.9617,甘南藏族自治州,甘肃民族师范学院,,31,,30,3,12,98,,76,76,3,15,5,5,0.5,0.6
2024-09-08T1600,2570A,101.9603,30.0475,甘孜藏族自治州,水桥子,,32,12,9,3,4,101,,75,75,1,14,5,5,0.2,0.3
2024-09-08T1600,3065A,101.9533,29.9972,甘孜藏族自治州,州环保局,,31,13,16,3,6,98,,76,76,7,20,3,3,0.2,0.2
2024-09-08T1600,3414A,115.8347,28.932,赣江新区,桑海产业园,,40,29,36,21,26,127,,125,125,5,16,10,12,0.2,0.3
2024-09-08T1600,2362A,114.9017,25.9149,赣州市,通天岩,,,,,,,,,,,,,,,,
2024-09-08T1600,2363A,114.9367,25.8664,赣州市,地委,,31,11,19,9,11,98,,75,75,5,12,15,12,0.9,0.8
2024-09-08T1600,2364A,114.9461,25.8481,赣州市,气象台,,30,15,20,3,11,93,,74,74,6,9,4,4,0.6,0.7
2024-09-08T1600,2365A,114.9322,25.8333,赣州市,市图书馆,,33,8,17,7,9,105,,84,84,2,8,4,4,0.7,0.8
2024-09-08T1600,2366A,114.8905,25.8471,赣州市,华坚鞋城,,30,13,23,3,10,94,,75,75,5,4,1,1,0.4,0.4
2024-09-08T1600,3109A,115.0093,25.8613,赣州市,赣县区卫计委,,26,,17,8,9,83,,70,70,6,11,6,6,0.5,0.6
2024-09-08T1600,2683A,106.2319,36.1417,固原市,马园,,27,10,58,8,12,85,,93,86,16,15,5,5,0.9,0.9
2024-09-08T1600,2684A,106.2792,36.0022,固原市,监测站,,29,20,25,11,20,92,,102,91,7,7,4,4,0.4,0.5
2024-09-08T1600,2685A,106.2375,36.0211,固原市,新区,,28,28,26,10,11,87,,93,85,6,7,7,7,0.5,0.5
2024-09-08T1600,3522A,106.2177,35.9959,固原市,原州区十五小,,29,20,23,16,17,92,,98,94,9,8,8,8,0.5,0.5
2024-09-08T1600,2543A,106.6308,30.5278,广安市,小平旧居,,,,,,,,,,,,,,,,
2024-09-08T1600,2544A,106.6303,30.4576,广安市,市委,,40,,26,12,21,125,,106,106,8,14,1,2,0.3,0.4
2024-09-08T1600,2545A,106.6271,30.4663,广安市,友谊中学,,39,15,25,15,18,122,,104,104,10,16,3,4,0.4,0.5
2024-09-08T1600,2547A,106.6388,30.4551,广安市,广电花园,,39,,29,12,21,122,,104,104,7,15,3,2,0.3,0.5
2024-09-08T1600,2902A,106.6351,30.4865,广安市,北辰小学,,40,17,32,12,19,128,,111,111,4,13,5,6,0.3,0.4
2024-09-08T1600,2523A,105.8945,32.4535,广元市,黑石坡,细颗粒物(PM2.5),57,,33,40,30,80,,52,52,6,14,7,8,0.5,0.6
2024-09-08T1600,2524A,105.821,32.4444,广元市,老城,,38,38,36,23,20,78,,48,48,18,25,12,6,1.0,0.9
2024-09-08T1600,2526A,105.8628,32.4287,广元市,监测站,,32,30,33,22,24,90,,50,50,15,18,24,9,1.1,1
2024-09-08T1600,3617A,105.8047,32.4166,广元市,经开区,,29,28,42,20,28,80,,46,46,12,22,6,8,0.8,1
2024-09-08T1600,1345A,113.2347,23.1423,广州市,广雅中学,,30,21,19,12,12,96,,59,59,20,23,6,6,0.9,0.9
2024-09-08T1600,1346A,113.2612,23.105,广州市,市五中,,34,19,20,14,14,106,,65,65,14,20,4,5,0.7,0.7
2024-09-08T1600,1348A,113.3478,23.0916,广州市,广东商学院,,30,27,21,16,14,96,,55,55,20,24,6,6,0.6,0.6
2024-09-08T1600,1349A,113.4332,23.1047,广州市,市八十六中,,30,30,26,12,12,82,,50,50,19,23,6,5,0.6,0.6
2024-09-08T1600,1350A,113.3505,22.9483,广州市,番禺中学,,28,21,18,13,13,88,,65,65,14,20,4,4,0.7,0.7
2024-09-08T1600,1351A,113.2146,23.3916,广州市,花都师范,,25,14,17,7,8,80,,53,53,11,18,3,3,0.7,0.6
2024-09-08T1600,1352A,113.2597,23.1331,广州市,市监测站,,29,19,19,13,11,92,,55,55,16,21,6,6,0.7,0.7
2024-09-08T1600,1353A,113.5618,23.312,广州市,九龙镇镇龙,,22,18,15,14,10,70,,36,36,9,14,6,6,0.6,0.6
2024-09-08T1600,1354A,113.2765,23.1544,广州市,麓湖,,28,25,19,13,10,87,,57,57,18,22,7,5,0.6,0.6
2024-09-08T1600,1355A,113.443,23.3035,广州市,帽峰山森林公园,,25,7,7,7,5,77,,50,50,6,7,4,4,0.5,0.4
2024-09-08T1600,2846A,113.3221,23.1322,广州市,体育西,,28,21,21,15,12,88,,54,54,15,19,8,7,0.6,0.6
2024-09-08T1600,3298A,113.5717,23.5491,广州市,从化街口,,15,12,16,7,7,46,,29,29,11,12,6,6,0.6,0.5
2024-09-08T1600,3299A,113.3472,23.3692,广州市,白云竹料,,23,22,18,10,9,72,,47,47,8,13,5,4,0.5,0.5
2024-09-08T1600,3300A,113.2981,23.237,广州市,白云嘉禾,,28,26,16,14,9,88,,56,56,21,21,5,4,0.8,0.8
2024-09-08T1600,3301A,113.4256,23.1716,广州市,黄埔科学城,,,18,16,8,7,96,,58,58,10,9,,10,0.6,0.6
2024-09-08T1600,3302A,113.3942,23.0483,广州市,番禺大学城,,29,18,21,11,14,92,,52,52,17,21,6,7,0.5,0.5
2024-09-08T1600,3303A,113.4922,22.8168,广州市,南沙黄阁,,26,20,20,11,13,81,,51,51,20,24,4,5,0.7,0.7
2024-09-08T1600,3304A,113.5342,22.7896,广州市,南沙街,,21,21,18,9,10,66,,51,51,18,17,4,5,0.7,0.7
2024-09-08T1600,3443A,113.2902,23.5544,广州市,花都梯面,,17,10,16,6,6,53,,38,38,4,10,4,4,0.5,0.5
2024-09-08T1600,3445A,113.7858,23.7478,广州市,从化良口,,11,11,13,7,8,34,,36,36,6,7,6,6,0.6,0.6
2024-09-08T1600,3446A,113.8051,23.2614,广州市,增城荔城,,22,20,16,13,9,70,,44,44,8,9,4,4,0.6,0.5
2024-09-08T1600,2505A,109.568,23.1478,贵港市,德智高中,,,,,,,,,,,,,,,,
2024-09-08T1600,2506A,109.6047,23.0666,贵港市,江南子站,,23,19,16,12,10,71,,55,55,8,11,8,9,0.5,0.6
2024-09-08T1600,2507A,109.6014,23.0948,贵港市,贵城子站,,26,23,21,18,12,75,,54,54,5,8,6,6,0.5,0.6
2024-09-08T1600,2508A,109.5669,23.1065,贵港市,荷城子站,,24,17,17,7,5,76,,57,57,5,9,10,10,0.4,0.4
2024-09-08T1600,3405A,109.5886,23.1172,贵港市,新世纪学校,,24,19,21,9,9,75,,55,55,2,7,9,9,0.5,0.6
2024-09-08T1600,1439A,106.6899,26.5998,贵阳市,马鞍山,,,5,8,,1,71,,57,57,5,8,2,2,0.4,0.5
2024-09-08T1600,1440A,106.6971,26.5694,贵阳市,市环保站,,23,14,12,3,10,71,,68,68,8,8,2,2,0.3,0.3
2024-09-08T1600,1441A,106.6243,26.6266,贵阳市,鉴湖路,,20,9,12,3,4,62,,55,55,4,5,3,4,0.4,0.4
2024-09-08T1600,1442A,106.7487,26.6343,贵阳市,燕子冲,,,,3,2,9,66,,61,61,4,5,5,5,0.4,0.5
2024-09-08T1600,1443A,106.6555,26.4365,贵阳市,碧云窝,,23,14,17,3,5,72,,62,62,4,10,3,4,0.3,0.3
2024-09-08T1600,1444A,106.694,26.5161,贵阳市,中院村,,23,12,14,3,7,72,,64,64,5,9,6,6,0.4,0.5
2024-09-08T1600,1445A,106.7109,26.6027,贵阳市,红边门,,25,,14,17,17,66,,62,62,8,10,4,4,0.3,0.4
2024-09-08T1600,1446A,106.7164,26.5699,贵阳市,新华路,,23,,4,3,8,71,,67,67,6,7,4,2,0.4,0.4
2024-09-08T1600,1447A,106.674,26.5424,贵阳市,太慈桥,,23,6,5,3,4,72,,65,65,6,7,4,4,0.4,0.4
2024-09-08T1600,1552A,106.805,26.3003,贵阳市,桐木岭,,,,,,,,,,,,,,,,
2024-09-08T1600,1862A,110.4144,25.3167,桂林市,电子科大尧山校区,,36,36,26,14,12,72,,58,58,4,6,4,7,0.6,0.6
2024-09-08T1600,1863A,110.2819,25.2697,桂林市,监测站,,33,33,21,17,13,79,,58,58,6,9,9,10,0.4,0.4
2024-09-08T1600,1864A,110.3089,25.2708,桂林市,龙隐路小学,,28,27,20,14,13,88,,60,60,3,6,8,8,0.4,0.4
2024-09-08T1600,1865A,110.2869,25.2178,桂林市,八中,,35,35,21,14,9,83,,56,56,5,7,7,9,0.4,0.4
2024-09-08T1600,3403A,110.1764,25.2381,桂林市,创业大厦,,28,19,19,19,17,80,,49,49,5,8,14,9,0.4,0.4
2024-09-08T1600,3531A,110.296,25.1253,桂林市,旅游学院,,25,7,7,7,7,79,,51,51,2,7,5,7,0.4,0.4
2024-09-08T1600,2674A,100.2561,34.4714,果洛藏族自治州,玛沁县大武镇,,24,12,19,11,12,76,,62,62,1,7,10,11,0.4,0.4
2024-09-08T1600,1129A,126.5422,45.755,哈尔滨市,岭北,,,14,16,3,6,105,,103,103,,8,4,7,,0.4
2024-09-08T1600,1130A,126.561,45.8167,哈尔滨市,松北商大,,30,26,18,6,5,94,,85,85,8,13,7,7,0.4,0.4
2024-09-08T1600,1131A,126.979,45.5419,哈尔滨市,阿城会宁,,32,32,24,6,12,102,,89,89,10,12,13,11,0.4,0.5
2024-09-08T1600,1132A,126.599,45.7222,哈尔滨市,南岗学府路,,31,22,25,3,6,97,,88,88,7,10,6,7,0.4,0.4
2024-09-08T1600,1133A,126.689,45.7733,哈尔滨市,太平宏伟公园,,41,41,21,3,6,90,,84,84,14,16,4,4,0.4,0.4
2024-09-08T1600,1134A,126.635,45.7667,哈尔滨市,道外承德广场,,27,24,25,14,12,86,,80,80,16,20,6,7,0.2,0.3
2024-09-08T1600,1135A,126.685,45.7319,哈尔滨市,香坊红旗大街,,30,29,32,6,10,93,,88,88,10,18,6,6,0.5,0.5
2024-09-08T1600,1136A,126.6411,45.7258,哈尔滨市,动力和平路,,30,22,21,3,6,94,,88,88,9,14,4,7,0.3,0.4
2024-09-08T1600,1137A,126.593,45.7478,哈尔滨市,道里建国路,,36,36,23,3,8,93,,86,86,7,9,8,9,0.1,0.2
2024-09-08T1600,1138A,126.615,45.61,哈尔滨市,平房东轻厂,,30,27,29,7,7,95,,84,84,8,16,5,5,0.1,0.3
2024-09-08T1600,1139A,126.595,45.9855,哈尔滨市,呼兰师专,,28,19,19,11,6,89,,84,84,8,11,11,10,0.4,0.4
2024-09-08T1600,1140A,126.6206,45.6842,哈尔滨市,省农科院,,,34,53,10,12,79,,,,41,50,,4,0.4,0.3
2024-09-08T1600,2688A,93.5128,42.8172,哈密市,地区监测站,,50,50,451,20,103,102,,97,93,5,11,4,3,0.2,0.2
2024-09-08T1600,2689A,93.4961,42.8328,哈密市,哈密师范学校,,32,25,343,10,93,101,,99,91,3,8,4,4,0.2,0.3
2024-09-08T1600,2671A,100.9048,36.9639,海北藏族自治州,海晏县西海镇,,36,,31,18,27,115,,99,99,5,11,16,18,0.5,0.6
2024-09-08T1600,3867A,102.0738,36.5056,海东市,平安区公安北苑,,46,46,39,17,24,136,,92,92,9,13,18,14,0.5,0.7
2024-09-08T1600,1409A,110.576,19.9507,海口市,东寨港,,,,,,,,,,,,,,,,
2024-09-08T1600,1410A,110.3232,20.0574,海口市,海南大学,,,,,,,,,,,,,,,,
2024-09-08T1600,1411A,110.283,20.0053,海口市,秀英海南医院,,24,24,26,14,12,55,,47,47,13,19,4,4,0.3,0.5
2024-09-08T1600,1412A,110.338,19.9969,海口市,海南师范大学,,24,24,26,12,9,64,,58,58,5,8,5,5,0.4,0.7
2024-09-08T1600,1413A,110.33,20.0356,海口市,龙华路环保局宿舍,,26,26,29,11,9,50,,50,50,17,20,3,2,0.4,1.1
2024-09-08T1600,3539A,110.5111,19.9736,海口市,桂林洋子站,,,,,,,,,,,,,,,,
2024-09-08T1600,2673A,100.6188,36.2866,海南藏族自治州,共和县恰卜恰镇,,26,8,29,6,15,83,,82,82,3,15,13,16,0.2,0.3
2024-09-08T1600,2676A,97.3731,37.3753,海西蒙古族藏族自治州,德令哈市,,40,,20,20,11,126,,109,106,6,7,9,9,0.3,0.4
2024-09-08T1600,1048A,114.5302,36.6116,邯郸市,东污水处理厂,"颗粒物(PM10),细颗粒物(PM2.5)",70,89,58,51,37,141,,85,85,13,17,5,4,0.5,0.5
2024-09-08T1600,1049A,114.4918,36.5713,邯郸市,矿院,细颗粒物(PM2.5),73,69,58,53,35,150,,98,98,14,14,4,3,0.7,0.6
2024-09-08T1600,1050A,114.484,36.6133,邯郸市,丛台公园,细颗粒物(PM2.5),64,70,54,46,32,146,,95,95,16,14,4,3,0.5,0.5
2024-09-08T1600,3458A,114.7895,36.5593,邯郸市,香泉濮院小区,颗粒物(PM10),60,70,56,36,31,134,,89,89,10,14,2,2,0.4,0.5
2024-09-08T1600,3579A,114.50634,36.77178,邯郸市,永年区实验高中,"颗粒物(PM10),细颗粒物(PM2.5)",75,100,70,55,37,155,,107,107,17,17,4,3,0.8,0.7
2024-09-08T1600,3580A,114.20016,36.44293,邯郸市,峰峰矿区临水派出所,颗粒物(PM10),53,55,44,32,27,160,,119,119,5,8,5,4,0.6,0.6
2024-09-08T1600,2634A,106.9893,33.1842,汉中市,汉川机床厂子校,,30,17,25,15,16,94,,78,78,3,8,4,4,0.7,0.8
2024-09-08T1600,2635A,107.0154,33.0706,汉中市,市监测站,,34,24,35,18,22,106,,94,94,2,9,7,7,0.6,0.8
2024-09-08T1600,2636A,107.0089,33.1138,汉中市,鑫源开发区,,35,29,31,13,19,110,,93,93,3,8,9,9,0.5,0.6
2024-09-08T1600,2637A,107.007,33.0323,汉中市,南郑大河坎水厂,,34,27,32,18,20,108,,94,94,2,9,8,8,0.7,0.8
2024-09-08T1600,1223A,120.2072,30.2111,杭州市,滨江,,44,44,47,27,29,97,,98,98,6,17,5,6,0.6,0.6
2024-09-08T1600,1224A,120.0633,30.2747,杭州市,西溪,,50,37,44,35,30,103,,94,94,9,18,6,6,0.5,0.7
2024-09-08T1600,1226A,120.3461,30.3153,杭州市,下沙,,36,28,38,25,25,76,,89,89,12,20,8,8,0.5,0.6
2024-09-08T1600,1227A,120.1269,30.2456,杭州市,卧龙桥,,48,36,40,33,33,114,,106,106,8,16,6,6,0.5,0.6
2024-09-08T1600,1228A,120.1903,30.2692,杭州市,浙江农大,,36,35,39,25,26,91,,94,94,9,19,9,10,0.4,0.5
2024-09-08T1600,1230A,120.1197,30.3119,杭州市,和睦小学,,38,35,36,26,27,92,,98,98,8,16,7,8,0.4,0.5
2024-09-08T1600,1231A,120.3019,30.4183,杭州市,临平镇,,32,32,36,21,24,76,,76,76,4,9,6,5,0.5,0.6
2024-09-08T1600,1232A,120.2697,30.1819,杭州市,城厢镇,,47,47,47,30,35,106,,109,109,14,23,7,8,0.4,0.5
2024-09-08T1600,1233A,120.0883,30.1808,杭州市,云栖,,50,50,39,34,26,130,,116,116,10,18,8,7,0.4,0.6
2024-09-08T1600,3557A,119.9464,30.0494,杭州市,镇二中,,50,43,43,35,36,160,,119,119,12,22,9,9,0.6,0.7
2024-09-08T1600,3558A,119.7183,30.2367,杭州市,市府大楼,,47,29,38,23,33,150,,122,122,10,16,7,6,0.5,0.5
2024-09-08T1600,3656A,120.1556,30.2864,杭州市,消防大队,,50,50,42,32,28,98,,97,97,5,12,8,9,0.5,0.6
2024-09-08T1600,1270A,117.1959,31.7848,合肥市,明珠广场,,44,39,43,24,32,138,,121,121,8,16,8,9,0.4,0.6
2024-09-08T1600,1271A,117.3072,31.8764,合肥市,三里街,,42,34,41,24,28,132,,104,104,7,12,7,6,0.4,0.5
2024-09-08T1600,1272A,117.2588,31.8707,合肥市,琥珀山庄,,42,31,41,27,33,134,,113,113,4,10,7,7,0.5,0.7
2024-09-08T1600,1273A,117.1604,31.9052,合肥市,董铺水库,,40,36,47,22,29,127,,109,109,6,10,3,3,0.4,0.5
2024-09-08T1600,1274A,117.25,31.8571,合肥市,长江中路,,44,44,50,29,34,122,,108,108,13,12,9,9,0.6,0.8
2024-09-08T1600,1275A,117.266,31.9436,合肥市,庐阳区,臭氧1小时,57,46,45,27,28,165,,130,130,8,13,5,5,0.5,0.6
2024-09-08T1600,1276A,117.336,31.8586,合肥市,瑶海区,,42,41,43,27,29,134,,105,105,10,16,7,7,0.4,0.6
2024-09-08T1600,1277A,117.3027,31.7964,合肥市,包河区,,42,39,49,29,35,123,,112,112,11,27,7,7,0.2,0.5
2024-09-08T1600,1278A,117.2776,31.7385,合肥市,滨湖新区,,39,34,44,24,31,124,,108,108,4,12,7,7,0.4,0.6
2024-09-08T1600,1279A,117.1318,31.8403,合肥市,高新区,,39,39,48,27,30,124,,115,115,6,12,7,8,0.6,0.8
2024-09-08T1600,3464A,117.3803,31.9147,合肥市,高教基地,,48,43,42,29,33,153,,115,115,6,10,4,3,0.4,0.5
2024-09-08T1600,3614A,79.924,37.0877,和田地区,地区环保局,颗粒物(PM10),167,284,418,91,121,110,,99,98,5,7,6,7,0.5,0.5
2024-09-08T1600,3615A,79.9131,37.113,和田地区,市环保局,颗粒物(PM10),250,385,373,90,79,109,,98,98,3,11,5,6,0.2,0.3
2024-09-08T1600,2516A,108.2011,24.715,河池市,东仁乐园,,22,22,20,7,5,68,,53,53,6,7,4,4,0.4,0.4
2024-09-08T1600,2517A,108.0497,24.6947,河池市,市环保站,,18,8,22,7,10,56,,42,42,6,11,8,8,0.5,0.6
2024-09-08T1600,2518A,108.0983,24.6989,河池市,市疾控中心,,17,15,24,8,10,53,,44,44,9,15,9,9,0.6,0.5
2024-09-08T1600,1696A,114.6778,23.7569,河源市,源西,,15,14,18,9,10,47,,48,48,5,16,4,4,0.5,0.6
2024-09-08T1600,1697A,114.6944,23.7586,河源市,东埔,,15,,14,3,8,46,,49,49,8,13,2,2,0.6,0.7
2024-09-08T1600,1698A,114.6892,23.7233,河源市,老城,,16,9,17,3,5,50,,50,50,5,10,2,2,0.6,0.7
2024-09-08T1600,1718A,115.4208,35.2464,菏泽市,气象局,,40,37,47,18,22,126,,112,112,3,9,3,5,0.3,0.4
2024-09-08T1600,1719A,115.4747,35.2375,菏泽市,市政协,,38,36,47,20,28,120,,107,107,2,9,4,6,0.3,0.4
2024-09-08T1600,3374A,115.5564,35.0891,菏泽市,定陶老年大学,,35,31,45,12,19,109,,94,94,2,10,4,6,0.5,0.6
2024-09-08T1600,3647A,115.4702,35.2706,菏泽市,菏泽医专,,44,44,51,16,23,117,,106,106,3,14,3,6,0.6,0.7
2024-09-08T1600,2514A,111.5264,24.4172,贺州市,环保小区,,18,15,22,3,8,56,,44,44,5,12,4,7,0.5,0.5
2024-09-08T1600,2515A,111.5608,24.4078,贺州市,政协大楼,,18,8,21,3,11,55,,44,44,6,12,6,8,0.4,0.5
2024-09-08T1600,3534A,111.4744,24.4553,贺州市,西湾,,19,14,16,3,10,59,,46,46,7,13,7,7,0.4,0.5
2024-09-08T1600,2385A,114.17,35.9019,鹤壁市,市监测站,颗粒物(PM10),64,77,63,40,36,151,,106,106,17,19,8,6,1.1,1.1
2024-09-08T1600,2386A,114.2956,35.7511,鹤壁市,市交警支队,细颗粒物(PM2.5),79,92,67,58,38,156,,98,98,13,17,10,9,0.9,0.8
2024-09-08T1600,2387A,114.2878,35.7306,鹤壁市,迎宾馆,颗粒物(PM10),73,95,77,46,38,161,,102,102,14,17,8,7,1.0,0.9
2024-09-08T1600,3474A,114.2617,35.6822,鹤壁市,大新区,,,106,59,,33,150,,95,95,14,19,7,7,1.0,0.9
2024-09-08T1600,3596A,114.1572,35.9603,鹤壁市,南山宾馆,,49,49,52,28,33,145,,106,106,8,11,4,5,1.3,1.1
2024-09-08T1600,2244A,130.2537,47.3416,鹤岗市,哈啤分公司,,26,21,22,18,14,77,,73,73,2,6,14,14,0.3,0.4
2024-09-08T1600,2245A,130.2684,47.3086,鹤岗市,斯达机电,,24,23,29,12,17,76,,70,70,7,12,13,13,0.2,0.3
2024-09-08T1600,2246A,130.3114,47.3388,鹤岗市,东山纸板厂,,35,24,32,24,14,68,,60,60,5,13,16,16,0.2,0.3
2024-09-08T1600,2247A,130.1097,47.3382,鹤岗市,五号水库,,26,,12,9,7,81,,76,76,4,5,6,6,0.5,0.5
2024-09-08T1600,2263A,127.4833,50.2524,黑河市,交通局,,22,22,26,8,13,66,,59,59,4,7,4,4,0.3,0.4
2024-09-08T1600,2264A,127.5144,50.2341,黑河市,环保局,,38,38,18,9,12,71,,64,64,4,7,3,4,0.2,0.2
2024-09-08T1600,2265A,127.5291,50.2472,黑河市,大黑河岛,,22,,17,15,12,43,,47,47,1,4,3,2,0,0
2024-09-08T1600,1074A,115.6838,37.7541,衡水市,电机北厂,颗粒物(PM10),53,56,55,33,28,122,,75,75,18,22,8,7,0.5,0.5
2024-09-08T1600,1075A,115.6303,37.7316,衡水市,市监测站,颗粒物(PM10),58,66,61,32,25,113,,76,76,21,25,8,7,0.6,0.7
2024-09-08T1600,3188A,115.6683,37.7217,衡水市,市城管局,颗粒物(PM10),56,61,54,39,30,146,,90,90,16,21,10,7,0.7,0.7
2024-09-08T1600,3459A,115.5989,37.5491,衡水市,地表水厂,颗粒物(PM10),63,76,55,39,25,162,,93,93,16,20,5,5,0.7,0.6
2024-09-08T1600,2456A,112.5003,26.9167,衡阳市,原169医院,,34,18,29,17,19,106,,100,100,3,9,13,11,0.4,0.5
2024-09-08T1600,2457A,112.6194,26.9258,衡阳市,衡阳化工总厂,,,14,34,,,98,,94,94,2,7,7,16,0.5,0.6
2024-09-08T1600,2458A,112.6211,26.8956,衡阳市,珠晖区环保局,,,10,32,,,90,,94,94,2,12,6,13,0.5,0.7
2024-09-08T1600,2459A,112.6197,26.8733,衡阳市,市委党校,,29,10,34,10,17,91,,93,93,2,10,7,14,0.5,0.7
2024-09-08T1600,2460A,112.6006,26.8919,衡阳市,市监测站,,31,14,29,6,19,99,,102,102,2,8,6,13,0.5,0.7
2024-09-08T1600,2461A,112.5664,26.9056,衡阳市,真空机电公司,,32,,33,14,19,102,,96,96,2,7,7,10,0.6,0.9
2024-09-08T1600,3399A,112.6703,26.882,衡阳市,师范学院,,26,17,31,9,17,83,,90,90,5,11,7,18,0.4,0.6
2024-09-08T1600,2608A,103.3772,23.3993,红河哈尼族彝族自治州,污水处理厂,,16,,13,11,9,49,,44,44,9,8,9,9,0.5,0.4
2024-09-08T1600,2609A,103.3861,23.35,红河哈尼族彝族自治州,监测站,,14,14,14,6,12,42,,50,44,11,10,16,15,0.6,0.6
2024-09-08T1600,3038A,103.3758,23.368,红河哈尼族彝族自治州,州图书馆,,18,8,11,3,8,56,,58,53,9,9,12,13,0.4,0.3
2024-09-08T1600,1090A,111.6507,40.7517,呼和浩特市,呼市一监,,48,,24,33,18,43,,34,21,25,24,5,5,0.9,0.8
2024-09-08T1600,1091A,111.6572,40.8033,呼和浩特市,小召,细颗粒物(PM2.5),52,,20,36,17,29,,40,26,39,30,6,6,1.1,0.8
2024-09-08T1600,1094A,111.7516,40.8369,呼和浩特市,如意水处理厂,,44,44,26,28,14,33,,30,27,40,33,6,6,0.9,0.7
2024-09-08T1600,1095A,111.7276,40.8062,呼和浩特市,二十九中,,45,33,28,31,17,56,,40,32,31,31,4,4,0.9,0.8
2024-09-08T1600,1096A,111.5512,40.7866,呼和浩特市,工大金川校区,,45,,26,31,15,11,,46,30,54,29,2,3,1.0,0.7
2024-09-08T1600,1097A,111.717,40.7612,呼和浩特市,化肥厂生活区,,45,44,31,31,16,52,,49,38,35,26,8,8,0.9,0.8
2024-09-08T1600,3698A,111.5968,40.8178,呼和浩特市,红旗小学,,45,,21,31,14,28,,38,26,42,34,3,4,0.9,0.6
2024-09-08T1600,3699A,111.6518,40.8389,呼和浩特市,海东办,,49,,21,34,19,28,,48,26,46,33,6,6,0.9,0.8
2024-09-08T1600,2192A,119.7594,49.2261,呼伦贝尔市,区环保局,,35,35,46,17,22,95,,76,76,8,24,5,6,0.3,0.4
2024-09-08T1600,3061A,119.7512,49.1577,呼伦贝尔市,国华电力东,,33,33,35,13,18,99,,86,86,5,12,3,3,0.3,0.3
2024-09-08T1600,1250A,120.0751,30.8669,湖州市,城西水厂,,46,38,41,32,32,136,,109,109,8,11,5,6,0.2,0.2
2024-09-08T1600,2873A,120.0875,30.8955,湖州市,仁皇山新区,,48,42,44,33,35,133,,105,105,5,15,8,7,0.6,0.6
2024-09-08T1600,2907A,120.1844,30.8596,湖州市,吴兴区站,,48,42,41,33,35,119,,95,95,7,10,6,5,0.4,0.4
2024-09-08T1600,3562A,120.4148,30.8538,湖州市,南浔区站,,45,45,38,31,33,106,,88,88,7,11,6,6,0.4,0.5
2024-09-08T1600,1607A,120.9092,40.7136,葫芦岛市,龙港区,,50,42,40,19,21,158,,104,104,9,26,12,35,1.0,0.8
2024-09-08T1600,1608A,120.8392,40.7514,葫芦岛市,化工街,,49,31,40,9,17,155,,105,105,15,30,12,48,1.0,0.7
2024-09-08T1600,1609A,120.8341,40.7073,葫芦岛市,新区,臭氧1小时,57,37,34,13,19,165,,116,116,12,33,13,22,1.0,0.7
2024-09-08T1600,1610A,120.8695,40.7677,葫芦岛市,东城区,,50,33,46,20,22,158,,105,105,12,30,10,59,0.8,0.5
2024-09-08T1600,2482A,109.5981,27.5721,怀化市,林科所,,20,14,33,8,21,62,,72,72,5,8,6,19,0.5,0.6
2024-09-08T1600,2483A,109.9453,27.5444,怀化市,河西地税局,,23,12,39,12,31,73,,89,89,5,11,4,14,0.5,0.7
2024-09-08T1600,2484A,109.9781,27.5342,怀化市,市四医院,,,,42,8,32,65,,78,78,3,10,5,16,0.4,0.7
2024-09-08T1600,2485A,109.9972,27.5578,怀化市,监测楼,,40,,44,28,26,62,,75,75,3,11,2,6,0.7,1
2024-09-08T1600,2486A,110.0394,27.583,怀化市,市委党校,,28,25,41,19,28,60,,72,72,3,11,6,28,0.6,0.8
2024-09-08T1600,1210A,119.036,33.5981,淮安市,钵池山,,30,,18,13,12,95,,95,95,11,14,6,7,0.7,0.7
2024-09-08T1600,1211A,119.007,33.575,淮安市,北京南路,,31,19,23,14,15,98,,94,94,6,9,5,5,0.6,0.6
2024-09-08T1600,1212A,118.989,33.6067,淮安市,市监测站,,33,17,22,12,14,103,,99,99,7,10,6,6,0.7,0.7
2024-09-08T1600,1213A,119.135,33.5039,淮安市,楚州区监测站,,31,22,30,13,13,98,,96,96,6,11,5,6,0.7,0.7
2024-09-08T1600,1214A,119.0186,33.6297,淮安市,淮阴区监测站,,30,27,28,14,14,96,,98,98,16,21,4,4,0.5,0.5
2024-09-08T1600,3426A,118.8755,33.2894,淮安市,新华书店,,33,23,23,17,14,104,,92,92,8,12,6,7,0.5,0.5
2024-09-08T1600,2282A,116.8004,33.975,淮北市,监测站,,30,22,31,17,20,96,,93,93,2,4,5,5,0.5,0.6
2024-09-08T1600,2283A,116.8091,33.9007,淮北市,烈山区政府,,34,31,36,21,21,108,,100,100,1,5,5,6,0.4,0.4
2024-09-08T1600,3330A,116.8873,33.9836,淮北市,杜集区检察院,,32,26,29,14,21,101,,90,90,2,4,1,2,0.5,0.5
2024-09-08T1600,4017A,116.7923,33.9535,淮北市,市博物馆,,31,24,28,20,21,98,,94,94,3,5,4,4,0.6,0.6
2024-09-08T1600,2277A,116.8305,32.7727,淮南市,潘集区政府,颗粒物(PM10),52,53,43,31,27,137,,105,105,8,10,6,6,0.7,0.6
2024-09-08T1600,2278A,117.0067,32.6524,淮南市,师范学院,细颗粒物(PM2.5),59,45,50,42,32,139,,125,125,3,6,5,6,0.6,0.6
2024-09-08T1600,2279A,116.8569,32.5951,淮南市,谢家集区政府,,42,36,39,29,32,132,,119,119,7,10,6,7,0.4,0.4
2024-09-08T1600,2280A,116.8281,32.633,淮南市,八公山区政府,,39,37,55,26,35,123,,114,114,5,10,5,6,0.3,0.4
2024-09-08T1600,2281A,116.6325,32.6201,淮南市,焦岗湖风景区管理处,,44,43,50,30,26,140,,100,100,6,10,13,12,0.0,0.1
2024-09-08T1600,2894A,117.0566,32.6531,淮南市,经济技术开发区消防队,,43,42,38,18,19,137,,122,122,4,9,5,5,0.4,0.5
2024-09-08T1600,3329A,117.0108,32.5893,淮南市,山南新区,,46,35,55,32,34,133,,119,119,8,11,4,4,0.5,0.6
2024-09-08T1600,2446A,114.9028,30.4742,黄冈市,职工中心,,42,31,43,16,26,133,,142,142,7,11,8,9,0.4,0.5
2024-09-08T1600,2929A,114.8858,30.4519,黄冈市,红卫路,,45,38,42,22,29,144,,146,146,14,12,8,9,0.2,0.3
2024-09-08T1600,3398A,114.9136,30.4445,黄冈市,市林业局,,43,38,55,18,26,135,,152,152,16,12,8,9,0.4,0.5
2024-09-08T1600,2672A,102.0199,35.5102,黄南藏族自治州,同仁县隆务镇,,,58,21,9,9,80,,61,61,,4,15,16,0.4,0.5
2024-09-08T1600,2295A,118.2903,29.6963,黄山市,延安路89号,,38,38,49,17,19,99,,98,98,2,8,6,6,0.3,0.3
2024-09-08T1600,2296A,118.327,29.7178,黄山市,黄山东路89号,,30,23,38,3,19,95,,95,95,2,7,4,5,0.2,0.3
2024-09-08T1600,2297A,118.1371,30.2756,黄山市,黄山区政府5号楼,,33,24,44,17,29,103,,104,104,6,9,6,6,0.3,0.4
2024-09-08T1600,2423A,115.0601,30.2313,黄石市,沈家营,,48,43,57,22,26,151,,154,154,10,15,7,12,0.4,0.6
2024-09-08T1600,2424A,115.0817,30.2006,黄石市,陈家湾,,46,31,53,17,26,146,,150,150,13,15,9,12,0.5,0.6
2024-09-08T1600,2426A,114.8988,30.2019,黄石市,铁山,臭氧1小时,79,38,44,20,25,183,,162,162,2,7,9,9,0.7,0.6
2024-09-08T1600,2427A,115.0307,30.2092,黄石市,团城山,,50,42,47,15,24,159,,157,157,12,11,17,12,0.6,0.5
2024-09-08T1600,3149A,115.0235,30.1578,黄石市,笔架山北路,臭氧1小时,52,25,42,12,19,161,,146,146,7,7,9,9,0.5,0.5
2024-09-08T1600,1392A,114.4183,23.0528,惠州市,河南岸金山湖子站,,17,7,14,3,8,52,,47,47,1,5,4,4,0.2,0.3
2024-09-08T1600,1393A,114.4053,23.0822,惠州市,下埔横江三路子站,,19,6,14,3,8,58,,56,56,5,8,4,4,0.5,0.6
2024-09-08T1600,1394A,114.4103,23.1142,惠州市,江北云山西路子站,,17,6,16,3,7,54,,54,54,2,5,4,4,0.3,0.5
2024-09-08T1600,1395A,114.4645,22.7833,惠州市,惠阳区承修路船湖子站,,,6,11,3,7,53,,45,45,10,13,5,4,,0.5
2024-09-08T1600,1396A,114.5317,22.7422,惠州市,大亚湾管委会子站,,18,7,11,3,6,56,,49,49,7,12,6,7,0.5,0.5
2024-09-08T1600,3314A,114.4338,22.8134,惠州市,惠阳秋长,,20,6,10,3,7,64,,50,50,8,12,5,5,0.5,0.6
2024-09-08T1600,3452A,114.6517,22.775,惠州市,大亚湾霞涌,,17,9,12,8,6,53,,48,48,4,6,7,6,0.4,0.4
2024-09-08T1600,2240A,130.9762,45.3001,鸡西市,环保局,,27,24,26,8,9,86,,80,80,1,5,5,6,0.1,0.2
2024-09-08T1600,2243A,130.9429,45.3039,鸡西市,第一中学,,30,30,26,9,7,87,,82,82,4,6,4,5,0.1,0.2
2024-09-08T1600,3707A,131.0207,45.3073,鸡西市,欧美日汽修厂,,27,25,30,15,10,85,,84,84,16,15,4,5,0.0,0.1
2024-09-08T1600,3709A,130.9967,45.3106,鸡西市,市政设施管理处,,29,29,34,3,11,88,,86,86,11,14,6,7,0.1,0.2
2024-09-08T1600,2367A,114.9754,27.0803,吉安市,红声器材厂,,29,18,31,8,15,92,,82,82,7,13,10,13,0.5,0.4
2024-09-08T1600,2368A,114.9658,27.0999,吉安市,市森林工业局,,42,42,28,12,14,95,,86,86,14,17,11,13,0.3,0.4
2024-09-08T1600,2369A,114.99,27.1312,吉安市,市环境监测站,,32,32,26,9,11,94,,91,91,7,12,11,13,0.3,0.5
2024-09-08T1600,2370A,115.0093,27.0968,吉安市,青原区法院,,32,32,28,10,15,91,,81,81,8,13,8,13,0.5,0.5
2024-09-08T1600,1772A,126.54,43.8622,吉林市,哈达湾,,34,13,21,3,12,107,,96,96,8,18,5,6,0.4,0.6
2024-09-08T1600,1773A,126.5844,43.8358,吉林市,东局子,,35,12,21,8,9,109,,100,100,7,12,5,5,0.3,0.4
2024-09-08T1600,1774A,126.5052,43.8245,吉林市,电力学院,,34,,26,12,14,107,,95,95,4,15,4,4,0.5,0.6
2024-09-08T1600,1775A,126.6133,43.8972,吉林市,江北,,40,19,26,8,11,127,,105,105,9,12,8,8,0.6,0.6
2024-09-08T1600,1776A,126.555,43.8306,吉林市,江南公园,,31,16,23,14,13,98,,96,96,18,18,5,6,2.5,0.8
2024-09-08T1600,1778A,126.7061,43.7133,吉林市,丰满,,,,,,,,,,,,,,,,
2024-09-08T1600,2868A,126.4739,43.953,吉林市,九站,,36,26,28,8,11,113,,100,100,9,16,14,9,0.6,0.6
2024-09-08T1600,1299A,116.9862,36.6114,济南市,科干所,臭氧1小时,95,68,63,32,30,196,,151,151,24,26,8,9,0.9,0.9
2024-09-08T1600,1300A,116.9376,36.665,济南市,农科所,臭氧1小时,89,51,63,32,29,191,,149,149,17,39,8,10,0.6,0.7
2024-09-08T1600,1301A,117.1265,36.6734,济南市,开发区,臭氧1小时,122,83,68,37,31,244,,169,169,25,38,10,11,0.8,0.7
2024-09-08T1600,1303A,117.0624,36.6868,济南市,省种子仓库,臭氧1小时,119,73,79,29,28,237,,164,164,19,44,8,10,0.9,0.9
2024-09-08T1600,1304A,116.9489,36.6447,济南市,机床二厂,臭氧1小时,109,61,67,20,26,218,,164,164,17,39,11,12,0.8,0.9
2024-09-08T1600,1305A,117.0495,36.663,济南市,市监测站,臭氧1小时,117,73,66,32,30,233,,168,168,21,39,12,13,0.8,0.8
2024-09-08T1600,1306A,116.7675,36.5484,济南市,长清党校,臭氧1小时,105,54,55,27,28,210,,166,166,10,22,10,9,0.8,0.9
2024-09-08T1600,1616A,117.6795,36.229,济南市,技术学院,臭氧1小时,82,36,53,17,26,185,,173,173,7,19,14,14,1.0,1.1
2024-09-08T1600,1961A,117.532,36.6868,济南市,东山小学,臭氧1小时,100,49,58,24,24,200,,169,169,12,35,8,10,1.1,1
2024-09-08T1600,3059A,117.7161,36.2049,济南市,泰兴公司,臭氧1小时,75,41,52,19,25,180,,171,171,9,26,13,14,0.7,0.8
2024-09-08T1600,3064A,117.6867,36.2171,济南市,莱芜战役纪念馆,臭氧1小时,68,44,55,17,24,174,,162,162,11,20,16,15,0.8,0.9
2024-09-08T1600,3494A,117.1673,36.9782,济南市,济阳区政府,臭氧1小时,107,63,65,22,26,214,,158,158,13,26,12,17,0.8,0.9
2024-09-08T1600,3495A,117.1171,36.63,济南市,锦屏中学,臭氧1小时,118,81,46,29,23,236,,164,164,25,19,7,8,0.8,0.7
2024-09-08T1600,3682A,116.9814,36.6819,济南市,济南四建,臭氧1小时,107,53,68,27,29,213,,162,162,14,41,9,12,0.8,0.9
2024-09-08T1600,1653A,116.6251,35.4302,济宁市,火炬城,,48,48,47,17,22,146,,134,134,5,16,8,11,0.8,0.8
2024-09-08T1600,1655A,116.5491,35.4042,济宁市,电化厂,,47,34,45,27,26,150,,133,133,6,15,8,10,0.8,0.8
2024-09-08T1600,3500A,116.5814,35.3707,济宁市,北湖一中,,44,31,43,17,19,140,,126,126,5,15,2,5,0.4,0.5
2024-09-08T1600,3501A,116.8249,35.5593,济宁市,服务中心,臭氧1小时,65,41,48,14,21,172,,152,152,5,21,6,8,0.4,0.6
2024-09-08T1600,3678A,116.5907,35.4054,济宁市,市第七中学,,45,38,46,14,20,142,,129,129,6,16,6,9,0.7,0.7
2024-09-08T1600,2255A,130.2751,46.8028,佳木斯市,佳纺,,29,20,23,7,9,90,,83,83,4,12,7,6,0.4,0.5
2024-09-08T1600,2256A,130.3995,46.8307,佳木斯市,发电厂,,27,23,21,8,8,86,,81,81,3,13,6,7,0.5,0.5
2024-09-08T1600,2257A,130.3258,46.7975,佳木斯市,环保局,,28,18,20,7,9,87,,82,82,5,15,7,8,0.5,0.4
2024-09-08T1600,2258A,130.3648,46.8032,佳木斯市,十一中,,27,20,20,9,10,86,,87,87,10,18,7,7,0.4,0.4
2024-09-08T1600,2259A,130.3794,46.7588,佳木斯市,四丰,,26,16,18,3,8,82,,78,78,9,19,1,24,0.3,0.4
2024-09-08T1600,1252A,120.7436,30.778,嘉兴市,清河小学,,31,31,40,20,25,93,,86,86,10,12,6,6,0.5,0.5
2024-09-08T1600,1253A,120.726,30.7478,嘉兴市,嘉兴学院,,38,32,38,26,30,83,,84,84,13,13,2,4,0.5,0.4
2024-09-08T1600,2872A,120.7846,30.7525,嘉兴市,南湖区残联,,33,31,40,23,30,98,,92,92,8,13,5,5,0.4,0.4
2024-09-08T1600,3407A,120.6916,30.7739,嘉兴市,秀洲住建,,32,30,36,22,28,99,,88,88,8,11,4,4,0.6,0.5
2024-09-08T1600,1945A,98.2908,39.7711,嘉峪关市,气象局,颗粒物(PM10),64,78,78,12,16,103,,81,81,10,23,29,33,0.7,0.8
2024-09-08T1600,2884A,98.2672,39.7978,嘉峪关市,酒钢宾馆,颗粒物(PM10),65,80,81,12,19,104,,86,86,9,24,47,39,0.8,0.5
2024-09-08T1600,3248A,98.2643,39.7724,嘉峪关市,雄关区,颗粒物(PM10),63,76,66,12,23,90,,71,71,17,26,33,23,0.9,0.4
2024-09-08T1600,1383A,113.1064,22.6058,江门市,北街,,25,18,20,9,10,78,,59,59,15,19,3,4,0.5,0.5
2024-09-08T1600,1384A,113.0731,22.5835,江门市,西区,,27,,22,10,11,85,,57,57,15,18,5,5,0.6,0.6
2024-09-08T1600,1385A,113.0219,22.5311,江门市,圭峰西,,25,22,21,12,11,78,,58,58,10,14,3,2,0.4,0.4
2024-09-08T1600,1386A,113.0828,22.5947,江门市,东湖,,25,18,20,13,11,78,,52,52,13,16,5,5,0.4,0.4
2024-09-08T1600,3311A,113.1075,22.5647,江门市,江海富民,,44,44,33,21,16,85,,66,66,17,20,6,6,0.5,0.5
2024-09-08T1600,3449A,113.05,22.4667,江门市,新会银湖,,25,25,18,12,11,64,,50,50,3,7,4,4,0.6,0.6
2024-09-08T1600,1828A,113.227,35.2125,焦作市,市环保局,细颗粒物(PM2.5),64,58,68,46,44,116,,85,85,14,18,1,4,0.6,0.6
2024-09-08T1600,1830A,113.1992,35.2590,焦作市,影视城,,,,,,,,,,,,,,,,
2024-09-08T1600,3169A,113.2725,35.2067,焦作市,太极体育中心,细颗粒物(PM2.5),64,58,78,46,40,122,,89,89,9,13,1,4,0.9,0.9
2024-09-08T1600,3335A,113.3137,35.2641,焦作市,马村街道办,细颗粒物(PM2.5),69,66,64,50,52,113,,84,84,11,15,3,4,0.7,0.7
2024-09-08T1600,3336A,113.2465,35.2373,焦作市,焦作技师学院,"颗粒物(PM10),细颗粒物(PM2.5)",58,66,67,41,42,113,,87,87,12,16,3,5,0.9,0.9
2024-09-08T1600,3477A,113.1656,35.2539,焦作市,中站许衡医院,细颗粒物(PM2.5),53,41,48,37,35,125,,88,88,7,13,2,4,0.5,0.6
2024-09-08T1600,3981A,113.2449,35.1803,焦作市,原李万街道办,细颗粒物(PM2.5),67,68,71,48,45,123,,88,88,5,11,3,4,0.7,0.8
2024-09-08T1600,1708A,116.3701,23.5345,揭阳市,新兴,,20,,20,8,8,61,,67,67,6,12,4,5,0.5,0.5
2024-09-08T1600,1709A,116.3264,23.5443,揭阳市,西马,,20,12,19,6,7,64,,79,77,2,4,5,6,0.5,0.5
2024-09-08T1600,1710A,116.3611,23.5626,揭阳市,东兴,,20,15,23,9,15,64,,70,70,2,9,4,7,0.5,0.5
2024-09-08T1600,1711A,116.4151,23.5294,揭阳市,渔湖,,20,6,17,3,6,63,,67,67,7,12,4,4,0.7,0.7
2024-09-08T1600,3320A,116.403,23.5699,揭阳市,曲溪,,20,10,16,7,6,64,,67,67,4,10,2,3,0.5,0.4
2024-09-08T1600,1944A,102.1692,38.5167,金昌市,天庆家园,颗粒物(PM10),62,73,41,11,27,118,,106,106,10,12,8,10,0.5,0.6
2024-09-08T1600,3170A,102.1864,38.5253,金昌市,市委党校,,37,35,46,10,23,116,,99,99,5,11,5,8,0.5,0.7
2024-09-08T1600,4022A,102.1647,38.5371,金昌市,金川区人防中心,颗粒物(PM10),63,75,50,8,25,123,,106,106,4,12,11,14,0.6,0.7
2024-09-08T1600,1262A,119.647,29.077,金华市,十五中,,46,21,34,12,18,146,,110,110,7,14,2,2,0.4,0.5
2024-09-08T1600,1263A,119.686,29.1029,金华市,监测站,,43,23,35,14,21,135,,109,109,6,18,2,3,0.5,0.6
2024-09-08T1600,3659A,119.656,29.1131,金华市,气象局,,44,26,32,14,17,138,,112,112,8,20,5,5,0.7,0.7
2024-09-08T1600,1767A,121.1115,41.0879,锦州市,南山,颗粒物(PM10),51,51,30,21,14,110,,94,94,24,31,12,12,0.6,0.6
2024-09-08T1600,1768A,121.0533,40.8434,锦州市,开发区,颗粒物(PM10),51,51,60,19,24,132,,89,89,32,44,10,25,1.0,0.9
2024-09-08T1600,1769A,121.1836,41.1119,锦州市,百股街道,,36,28,28,17,8,114,,90,90,12,22,10,15,0.9,0.8
2024-09-08T1600,1770A,121.1178,41.1222,锦州市,天安街道,,49,49,31,16,17,114,,97,97,22,29,14,12,0.8,0.7
2024-09-08T1600,1771A,121.1303,41.1386,锦州市,北湖公园,,42,30,29,29,20,121,,103,103,21,22,15,11,0.7,0.7
2024-09-08T1600,2160A,112.85,35.5051,晋城市,自来水公司,颗粒物(PM10),51,52,61,34,32,130,,122,122,8,9,7,7,0.8,0.8
2024-09-08T1600,2161A,112.8318,35.4936,晋城市,白云商贸,,40,39,51,24,27,126,,121,121,12,12,7,8,0.9,0.9
2024-09-08T1600,2162A,112.8508,35.4887,晋城市,市环保局,颗粒物(PM10),59,67,59,36,35,122,,117,117,11,10,8,8,0.7,0.7
2024-09-08T1600,2163A,112.8676,35.4897,晋城市,技术学院,,49,48,46,34,33,116,,110,110,13,12,7,8,0.9,0.9
2024-09-08T1600,2165A,112.8453,35.546,晋城市,白马寺,,,,,,,,,,,,,,,,
2024-09-08T1600,3620A,112.8271,35.4828,晋城市,泽州一中,细颗粒物(PM2.5),55,46,46,39,32,113,,105,105,14,14,9,9,1.0,1
2024-09-08T1600,2171A,112.7532,37.6945,晋中市,锦纶小区,,,,62,,37,,,104,104,,13,,7,,0.6
2024-09-08T1600,2173A,112.7249,37.7067,晋中市,南都小区,,40,38,59,26,40,125,,110,110,8,14,5,6,0.5,0.6
2024-09-08T1600,2174A,112.6991,37.6982,晋中市,榆次区政府,,46,46,64,26,40,121,,108,108,8,17,8,9,0.4,0.5
2024-09-08T1600,2865A,112.7195,37.6828,晋中市,榆次三中,,48,48,62,24,34,125,,108,108,6,12,7,8,0.7,0.8
2024-09-08T1600,2439A,112.2014,31.0481,荆门市,竹园小学,,47,36,60,24,34,149,,134,134,9,17,11,11,0.7,0.9
2024-09-08T1600,2440A,112.1969,30.9891,荆门市,掇刀,,48,34,51,25,31,151,,143,143,9,14,10,11,0.6,0.7
2024-09-08T1600,2441A,112.2213,31.0386,荆门市,石化一小,,49,35,62,33,39,156,,141,141,6,14,13,10,0.6,0.7
2024-09-08T1600,3012A,112.1849,31.0362,荆门市,西山林语,,48,33,52,19,33,153,,139,139,8,14,8,10,0.7,0.9
2024-09-08T1600,3547A,112.1632,31.0138,荆门市,龙泉中学南校,,49,36,47,17,27,154,,144,144,8,10,9,10,0.5,0.7
2024-09-08T1600,1844A,112.2494,30.3197,荆州市,市图书馆,,43,,42,30,32,129,,138,138,10,16,10,9,0.6,0.7
2024-09-08T1600,1845A,112.2008,30.3544,荆州市,市委党校,,46,33,48,31,32,146,,151,151,7,15,10,10,0.7,0.9
2024-09-08T1600,3194A,112.2747,30.3122,荆州市,管委会,,41,,41,28,30,131,,136,136,5,15,7,8,0.6,0.7
2024-09-08T1600,3548A,112.1655,30.3364,荆州市,学苑路,,49,49,57,27,40,147,,153,153,7,18,22,9,0.6,0.8
2024-09-08T1600,2342A,117.3102,29.3867,景德镇市,王港中学,,,,,,,,,,,,,,,,
2024-09-08T1600,2343A,117.2117,29.2933,景德镇市,老干部活动中心,,30,,32,18,20,95,,97,97,5,10,5,6,0.3,0.3
2024-09-08T1600,2344A,117.1894,29.2789,景德镇市,兽医站,,33,31,34,21,20,103,,107,107,3,8,7,8,0.3,0.4
2024-09-08T1600,2345A,117.1547,29.2617,景德镇市,台达陶瓷,,40,,33,28,21,102,,114,114,5,11,6,10,0.3,0.3
2024-09-08T1600,2346A,117.2461,29.2956,景德镇市,陶研所,,34,28,33,17,20,108,,108,108,10,13,4,4,0.3,0.3
2024-09-08T1600,1803A,115.9872,29.6815,九江市,十里,,42,39,47,25,30,134,,146,146,12,14,9,11,0.5,0.7
2024-09-08T1600,1804A,115.9584,29.7046,九江市,茅山头,,38,,45,14,31,121,,140,140,9,14,12,12,0.5,0.6
2024-09-08T1600,1805A,115.9877,29.7295,九江市,西园,,41,33,40,18,29,130,,137,137,8,13,7,8,0.6,0.6
2024-09-08T1600,1806A,116.0172,29.6547,九江市,五七二七厂,,39,34,35,27,31,122,,130,130,9,13,6,7,0.4,0.7
2024-09-08T1600,1808A,115.9114,29.6038,九江市,综合工业园,,48,34,43,23,30,152,,167,167,17,14,9,12,0.6,1
2024-09-08T1600,1809A,116.0721,29.7535,九江市,石化总厂,,38,34,51,19,35,120,,127,127,9,18,9,10,0.7,0.8
2024-09-08T1600,1810A,115.9773,29.5698,九江市,庐山气象台,,43,38,29,20,23,136,,132,132,4,5,8,15,0.8,1.1
2024-09-08T1600,3190A,116.0254,29.6994,九江市,外国语学校,,,30,51,18,26,129,,156,156,,14,8,10,0.5,0.4
2024-09-08T1600,2658A,98.5061,39.7443,酒泉市,仓门街子站,颗粒物(PM10),56,61,66,12,16,102,,93,93,4,12,8,18,0.2,0.3
2024-09-08T1600,2659A,98.4989,39.7256,酒泉市,油田生活基地,颗粒物(PM10),56,61,79,9,15,105,,96,96,4,14,8,22,0.2,0.3
2024-09-08T1600,2698A,76.0072,39.4467,喀什地区,巡警大队,,40,24,115,6,14,125,,82,82,6,28,3,4,0.3,0.5
2024-09-08T1600,2699A,75.9755,39.4694,喀什地区,吾办,,44,44,114,3,25,111,,58,58,10,28,3,2,0.2,0.4
2024-09-08T1600,4027A,75.9483,39.4689,喀什地区,老干局,,35,23,117,8,10,110,,61,61,6,25,3,3,0.3,0.5
2024-09-08T1600,1824A,114.3389,34.7781,开封市,肿瘤医院,颗粒物(PM10),53,55,75,23,36,150,,108,108,7,20,3,4,0.4,0.6
2024-09-08T1600,1826A,114.2885,34.7965,开封市,世纪星幼儿园,,,48,66,,,173,,118,118,8,20,3,2,0.6,0.7
2024-09-08T1600,3147A,114.3438,34.8106,开封市,龙亭公园,颗粒物(PM10),53,55,65,27,34,139,,98,98,9,21,4,5,0.6,0.7
2024-09-08T1600,3210A,114.3644,34.7964,开封市,汴京公园,,44,40,76,24,46,140,,101,101,13,22,4,6,0.7,0.8
2024-09-08T1600,3473A,114.2485,34.8306,开封市,技师学院,颗粒物(PM10),63,76,73,29,35,147,,99,99,9,20,4,5,1.0,1
2024-09-08T1600,3592A,114.4644,34.7556,开封市,祥符区生态环境局,颗粒物(PM10),57,63,60,33,33,135,,114,114,11,28,4,5,0.6,0.7
2024-09-08T1600,1951A,84.895,45.6094,克拉玛依市,长征新村,,24,,11,8,5,76,,62,62,1,5,6,6,0.2,0.2
2024-09-08T1600,1952A,84.8988,45.5893,克拉玛依市,南林小区,,25,7,9,6,8,77,,59,59,1,7,9,9,0.3,0.3
2024-09-08T1600,1954A,84.905,44.3396,克拉玛依市,独山子区,,27,11,9,3,4,86,,64,64,5,7,7,7,0.3,0.3
2024-09-08T1600,1955A,85.6979,46.098,克拉玛依市,乌尔禾区商贸楼,,25,17,16,3,5,79,,52,52,3,6,7,6,0.2,0.2
2024-09-08T1600,3612A,85.1045,45.6899,克拉玛依市,白碱滩区新站,,26,14,17,3,6,83,,68,68,3,5,6,6,0.2,0.3
2024-09-08T1600,2697A,76.1454,39.7142,克孜勒苏柯尔克孜自治州,市人民政府,,39,26,68,3,17,122,,101,100,2,6,2,8,0.7,0.6
2024-09-08T1600,3665A,76.1658,39.7157,克孜勒苏柯尔克孜自治州,克州文化中心,,39,15,47,7,14,123,,108,103,2,3,5,12,0.5,0.6
2024-09-08T1600,1450A,102.8204,24.8886,昆明市,呈贡新区,,23,23,25,6,8,68,,54,54,6,13,5,5,0.6,0.6
2024-09-08T1600,1451A,102.6251,24.9608,昆明市,西山森林公园,,,,,,,,,,,,,,,,
2024-09-08T1600,1452A,102.7252,25.0902,昆明市,龙泉镇,,,,15,5,6,70,,66,66,5,8,5,5,0.5,0.5
2024-09-08T1600,1453A,102.7266,25.0375,昆明市,东风东路,,20,,9,3,8,63,,59,59,9,11,4,5,0.5,0.5
2024-09-08T1600,1454A,102.6742,25.0669,昆明市,金鼎山,,,,14,2,6,72,,68,68,6,7,5,5,0.4,0.4
2024-09-08T1600,1455A,102.6644,25.0401,昆明市,碧鸡广场,,22,6,12,3,7,69,,63,63,7,8,3,4,0.5,0.5
2024-09-08T1600,3179A,102.7494,25.0119,昆明市,官渡区博物馆,,21,17,14,3,8,65,,60,60,10,12,6,6,0.3,0.4
2024-09-08T1600,3375A,102.8017,24.8336,昆明市,青年创业园,,21,6,8,3,6,67,,58,57,5,9,3,4,0.6,0.6
2024-09-08T1600,3550A,102.7997,24.9786,昆明市,昆明学院,,22,11,18,3,7,68,,60,60,11,16,5,5,0.5,0.5
2024-09-08T1600,3551A,102.5967,24.6736,昆明市,晋宁区生态环境分局,,24,11,16,3,4,76,,68,66,5,8,2,3,0.6,0.6
2024-09-08T1600,3552A,102.6678,24.9856,昆明市,云天化总部,,22,7,11,3,7,70,,66,66,8,8,5,5,0.4,0.4
2024-09-08T1600,1456A,91.1319,29.6514,拉萨市,八廓街,,30,12,12,8,7,95,,83,83,6,18,7,11,0.2,0.2
2024-09-08T1600,1457A,91.1221,29.6747,拉萨市,市环保局,,31,9,15,6,8,99,,83,83,7,19,7,10,0.3,0.4
2024-09-08T1600,1458A,91.0874,29.6475,拉萨市,区监测站,,29,6,11,3,6,90,,77,77,5,19,8,10,0.2,0.2
2024-09-08T1600,1459A,91.1774,29.6541,拉萨市,西藏大学,,32,7,11,6,6,100,,85,85,4,11,6,11,0.4,0.4
2024-09-08T1600,1460A,90.9798,29.6588,拉萨市,区辐射站,,31,11,13,7,7,97,,78,78,6,16,8,9,0.1,0.2
2024-09-08T1600,1461A,91.0834,29.6292,拉萨市,拉萨火车站,,27,7,10,6,6,85,,74,74,5,15,6,6,0.1,0.2
2024-09-08T1600,2520A,109.2203,23.7256,来宾市,来宾技工学校,,23,23,16,11,8,65,,54,54,6,9,4,4,0.7,0.7
2024-09-08T1600,3535A,109.1781,23.7297,来宾市,兴宾区政府,,20,13,13,8,6,64,,53,53,3,6,6,5,0.6,0.6
2024-09-08T1600,4002A,109.2416,23.7461,来宾市,中南小学,,24,24,17,16,7,76,,63,63,5,8,3,3,0.7,0.7
2024-09-08T1600,1476A,103.631,36.1031,兰州市,兰炼宾馆,,38,33,55,23,35,119,,85,85,7,36,5,14,0.5,0.7
2024-09-08T1600,1477A,104.1373,35.9454,兰州市,榆中兰大校区,,,,,,,,,,,,,,,,
2024-09-08T1600,1478A,103.8412,36.0726,兰州市,生物制品所,,35,27,42,24,28,91,,71,71,15,42,9,11,0.4,0.6
2024-09-08T1600,1479A,103.831,36.0464,兰州市,铁路设计院,,42,34,50,29,34,102,,73,73,18,55,7,11,0.5,0.7
2024-09-08T1600,3186A,103.7158,36.1058,兰州市,教育港,,38,38,60,26,35,117,,82,82,5,42,8,10,0.4,0.7
2024-09-08T1600,3241A,103.7439,36.0842,兰州市,百合公园,,35,34,49,19,22,110,,77,77,8,47,10,11,0.6,0.8
2024-09-08T1600,3242A,103.9611,35.998,兰州市,和平,,38,38,40,19,22,103,,81,81,13,23,15,10,0.9,0.7
2024-09-08T1600,3245A,103.6633,36.533,兰州新区,新区管委会,,39,35,40,19,20,123,,104,104,5,19,9,7,0.4,0.5
2024-09-08T1600,3246A,103.6975,36.4789,兰州新区,舟曲中学,,39,32,31,15,16,123,,101,101,7,21,8,10,0.4,0.6
2024-09-08T1600,1067A,116.6708,39.5111,廊坊市,药材公司,颗粒物(PM10),53,56,36,34,19,75,,53,53,26,22,2,2,0.6,0.5
2024-09-08T1600,1068A,116.7214,39.5589,廊坊市,开发区,颗粒物(PM10),58,65,37,33,22,90,,52,52,17,23,2,2,0.6,0.4
2024-09-08T1600,1070A,116.7244,39.5269,廊坊市,北华航天学院,颗粒物(PM10),58,66,52,32,24,96,,54,54,16,23,3,2,0.6,0.4
2024-09-08T1600,2919A,116.7022,39.5453,廊坊市,河北工业大学,颗粒物(PM10),64,77,37,32,23,84,,52,52,19,22,3,2,0.5,0.4
2024-09-08T1600,2535A,103.7723,29.5462,乐山市,花湖湾,,42,,30,22,35,134,,101,101,6,14,5,6,0.4,0.5
2024-09-08T1600,2536A,103.7627,29.5844,乐山市,牛耳桥,,43,26,39,22,33,136,,110,110,8,14,3,3,0.5,0.6
2024-09-08T1600,2537A,103.7508,29.6006,乐山市,市第三水厂,,45,30,42,22,31,144,,120,120,5,14,2,3,0.5,0.5
2024-09-08T1600,2538A,103.7571,29.5664,乐山市,市监测站,,42,30,43,27,34,133,,109,109,5,12,4,4,0.5,0.6
2024-09-08T1600,3361A,103.7311,29.5628,乐山市,理工大学,,46,37,48,26,37,146,,118,118,4,13,1,2,0.6,0.7
2024-09-08T1600,2598A,100.2143,26.8576,丽江市,西南郊,,,,,,,,,,,,,,,,
2024-09-08T1600,2599A,100.2497,26.8802,丽江市,丽江古城,,28,22,28,12,17,88,,68,68,7,16,8,9,0.5,0.7
2024-09-08T1600,2600A,100.2203,26.8906,丽江市,市中心,,30,,22,12,17,93,,71,71,7,14,9,8,0.5,0.6
2024-09-08T1600,1267A,119.914,28.4514,丽水市,监测站大楼,,29,,13,13,9,91,,75,75,3,7,3,4,0.3,0.4
2024-09-08T1600,1268A,119.93,28.4586,丽水市,莲都小学,,29,14,11,3,6,92,,72,72,4,5,3,4,0.3,0.4
2024-09-08T1600,1269A,119.879,28.4231,丽水市,余庄前,,30,12,12,6,7,93,,78,78,4,10,4,4,0.3,0.4
2024-09-08T1600,1173A,119.176,34.5885,连云港市,市环境监测站,,44,24,19,7,7,140,,142,142,7,10,8,8,0.4,0.4
2024-09-08T1600,3000A,119.3581,34.6972,连云港市,德源药业,,40,9,15,3,4,126,,127,127,2,8,6,5,0.3,0.3
2024-09-08T1600,3007A,119.178,34.844,连云港市,新城一中,,40,24,27,9,8,125,,128,128,12,29,4,4,0.5,0.5
2024-09-08T1600,3008A,119.3608,34.7519,连云港市,胡沟管理处,,34,17,24,3,6,108,,114,114,11,25,6,7,0.5,0.5
2024-09-08T1600,3009A,119.1478,34.5911,连云港市,矿山设计院,,43,22,21,14,10,136,,139,139,6,9,8,8,0.6,0.6
2024-09-08T1600,3434A,119.2413,34.6539,连云港市,工贸学校,,44,16,18,10,9,138,,134,134,6,9,8,8,0.6,0.6
2024-09-08T1600,3664A,119.4172,34.7341,连云港市,连云街道,,38,21,19,11,9,120,,121,121,8,8,5,5,0.5,0.5
2024-09-08T1600,2571A,102.3431,27.8099,凉山彝族自治州,青龙寺,,35,6,18,6,7,109,,96,96,1,4,5,5,0.7,0.6
2024-09-08T1600,2572A,102.2721,27.8415,凉山彝族自治州,邛海宾馆,,31,27,20,14,14,99,,100,100,5,11,4,6,0.5,0.5
2024-09-08T1600,2573A,102.2625,27.898,凉山彝族自治州,西昌市政府,,38,16,18,15,13,121,,99,99,4,7,7,7,0.2,0.3
2024-09-08T1600,2574A,102.2685,27.8851,凉山彝族自治州,凉山州政府,,37,23,21,14,14,117,,99,99,5,10,6,6,0.3,0.6
2024-09-08T1600,2575A,102.237,27.8914,凉山彝族自治州,长安,,40,18,20,12,13,125,,99,99,4,11,7,7,0.4,0.7
2024-09-08T1600,2212A,123.2,41.1953,辽阳市,宏伟区,,37,26,28,17,16,116,,104,104,18,20,10,10,1.0,1
2024-09-08T1600,2213A,123.1683,41.2495,辽阳市,新华园,,50,50,46,22,21,103,,93,93,14,32,9,13,1.1,1.5
2024-09-08T1600,2214A,123.2354,41.2639,辽阳市,滨河路,,42,38,39,10,17,132,,112,112,12,26,10,13,0.9,1.2
2024-09-08T1600,2215A,123.149,41.2991,辽阳市,铁西工业园,颗粒物(PM10),53,56,54,19,23,105,,93,93,18,27,16,13,1.4,1.4
2024-09-08T1600,2227A,125.1358,42.8845,辽源市,环保局,,37,19,25,3,9,116,,88,88,5,17,9,8,0.5,0.6
2024-09-08T1600,3239A,125.0764,42.9078,辽源市,银鹰制药,,39,10,20,3,10,124,,93,93,5,20,6,7,0.7,0.8
2024-09-08T1600,1625A,115.9848,36.4372,聊城市,区政府,臭氧1小时,97,42,59,18,27,197,,144,144,11,23,13,14,0.6,0.7
2024-09-08T1600,2878A,116.0072,36.4343,聊城市,聊大东校,臭氧1小时,104,44,60,24,35,208,,155,155,12,24,10,10,0.6,0.7
2024-09-08T1600,3200A,115.9819,36.4978,聊城市,监控中心,臭氧1小时,99,36,66,17,32,199,,142,142,8,33,9,9,0.4,0.5
2024-09-08T1600,3513A,116.0445,36.4361,聊城市,九州社区,臭氧1小时,101,46,67,22,32,201,,148,148,6,23,4,4,0.6,0.6
2024-09-08T1600,4018A,116.0567,36.4608,聊城市,星美广场,臭氧1小时,102,49,63,27,30,204,,149,149,9,22,5,7,0.6,0.6
2024-09-08T1600,2632A,94.3681,29.6376,林芝市,林芝监测站,,28,28,13,3,4,78,,63,63,1,2,9,9,0.2,0.2
2024-09-08T1600,2633A,94.3616,29.6616,林芝市,林芝人民医院,,25,6,9,3,5,79,,64,64,4,5,8,8,0.2,0.2
2024-09-08T1600,2603A,100.0781,23.8982,临沧市,市环保局,,27,27,32,11,19,84,,66,66,8,12,5,5,0.3,0.4
2024-09-08T1600,2604A,100.0894,23.8822,临沧市,市气象局,,27,15,24,13,20,84,,66,66,8,11,5,5,0.4,0.5
2024-09-08T1600,1733A,111.5531,36.0783,临汾市,临钢医院,,49,49,61,18,27,115,,114,114,8,16,4,4,0.7,0.9
2024-09-08T1600,1734A,111.5028,36.0714,临汾市,技工学校,,47,47,58,12,25,116,,124,124,7,14,5,6,0.6,0.8
2024-09-08T1600,1736A,111.5018,36.0855,临汾市,市委,,47,47,52,19,23,125,,133,133,5,12,5,6,0.7,0.8
2024-09-08T1600,3018A,111.505,36.1014,临汾市,唐尧大酒店,,42,42,46,14,24,116,,121,121,6,13,4,4,0.7,0.8
2024-09-08T1600,3668A,111.5036,36.0414,临汾市,城南,,44,44,60,15,26,120,,126,126,3,14,4,6,0.5,0.7
2024-09-08T1600,2667A,103.2069,35.5993,临夏回族自治州,环保局,,41,41,53,26,26,87,,66,66,7,20,8,8,0.4,0.6
2024-09-08T1600,2668A,103.2417,35.6057,临夏回族自治州,建设大厦,,30,30,46,17,16,96,,66,66,5,16,8,8,0.4,0.5
2024-09-08T1600,1618A,118.3429,35.0532,临沂市,沂河小区,,46,22,36,13,18,145,,141,141,8,16,6,8,0.3,0.4
2024-09-08T1600,1619A,118.295,35.0583,临沂市,鲁南制药厂,臭氧1小时,57,22,31,8,16,165,,158,158,9,16,4,9,0.2,0.4
2024-09-08T1600,1620A,118.2794,34.9976,临沂市,新光毛纺厂,,50,12,25,6,15,160,,152,152,8,20,6,8,0.4,0.5
2024-09-08T1600,1621A,118.3956,35.0888,临沂市,河东保险公司,,48,17,32,9,18,151,,143,143,8,19,6,8,0.4,0.6
2024-09-08T1600,3370A,118.3564,35.0215,临沂市,十里堡居委,,48,12,26,3,15,152,,145,145,11,17,8,18,0.5,0.7
2024-09-08T1600,3496A,118.3604,35.1084,临沂市,南坊新区,,48,19,38,3,11,151,,146,146,8,18,8,10,0.4,0.6
2024-09-08T1600,3860A,118.3920,35.0300,临沂市,皇山花园小区,,44,27,35,10,18,138,,134,134,9,21,7,9,0.4,0.6
2024-09-08T1600,1870A,109.4856,24.3895,柳州市,柳东小学,,19,,13,3,8,58,,50,50,7,9,7,6,0.6,0.6
2024-09-08T1600,1871A,109.4157,24.3277,柳州市,环保监测站,,21,11,18,3,10,66,,55,55,3,6,7,7,0.6,0.7
2024-09-08T1600,1872A,109.389,24.341,柳州市,河西水厂,,20,15,17,8,10,64,,54,54,2,4,6,5,0.7,0.7
2024-09-08T1600,1873A,109.4311,24.2921,柳州市,市四中,,29,29,18,9,6,67,,56,56,3,10,5,6,0.6,0.6
2024-09-08T1600,1874A,109.4006,24.3631,柳州市,市九中,,,,20,7,10,68,,60,60,3,6,6,5,0.4,0.5
2024-09-08T1600,1875A,109.4958,24.3134,柳州市,古亭山,,20,15,17,11,10,64,,57,57,4,8,6,7,0.6,0.6
2024-09-08T1600,3402A,109.5422,24.3996,柳州市,市二中,,21,21,16,8,9,56,,52,52,8,11,6,7,0.6,0.6
2024-09-08T1600,2307A,116.5079,31.737,六安市,监测大楼,,42,25,39,23,29,133,,122,122,4,9,7,6,0.3,0.5
2024-09-08T1600,2308A,116.4738,31.7643,六安市,皖西学院,,43,42,52,21,27,137,,128,128,4,10,5,5,0.1,0.3
2024-09-08T1600,2309A,116.4996,31.7905,六安市,朝阳厂,,42,21,42,19,25,134,,125,125,3,8,2,2,0.2,0.4
2024-09-08T1600,2310A,116.5567,31.7886,六安市,开发区,,43,36,47,24,29,137,,125,125,4,9,4,4,0.3,0.4
2024-09-08T1600,2576A,104.8,26.5892,六盘水市,窑上,,,,,,,,,,,,,,,,
2024-09-08T1600,2577A,104.83,26.5917,六盘水市,黄土坡,,21,9,11,8,9,65,,58,58,13,10,8,7,0.5,0.5
2024-09-08T1600,2578A,104.89,26.5939,六盘水市,水钢,,20,14,14,6,6,64,,62,62,11,8,7,7,0.5,0.5
2024-09-08T1600,2579A,104.8475,26.5894,六盘水市,民中,,21,,10,3,5,67,,60,60,11,11,7,7,0.5,0.5
2024-09-08T1600,2580A,104.9544,26.5506,六盘水市,双水,,21,7,10,3,6,66,,62,62,7,6,6,6,0.4,0.4
2024-09-08T1600,2335A,117.0189,25.1181,龙岩市,龙岩师专,,,,,,,,,,,,,,,,
2024-09-08T1600,2336A,117.0217,25.1033,龙岩市,龙岩市监测站,,22,19,20,3,11,70,,64,64,11,11,6,7,0.4,0.5
2024-09-08T1600,2337A,117.0258,25.0661,龙岩市,闽西职业技术学院,,27,27,24,3,13,57,,60,60,16,12,5,6,0.4,0.6
2024-09-08T1600,2338A,117.0196,25.0306,龙岩市,龙岩学院,,23,16,23,3,10,73,,60,60,4,12,2,3,0.4,0.5
2024-09-08T1600,2665A,105.0822,33.3261,陇南市,汉王镇固水子,,,,,,,,,,,,,,,,
2024-09-08T1600,2885A,104.9339,33.3826,陇南市,滨江中学,,39,38,37,11,18,122,,130,129,5,6,6,6,0.5,0.6
2024-09-08T1600,3247A,104.955,33.371,陇南市,市总工会,,39,31,31,6,10,123,,131,130,3,3,7,7,0.5,0.6
2024-09-08T1600,2487A,111.9589,27.8901,娄底市,电视发射台,,40,40,54,6,23,78,,65,65,5,7,7,7,0.4,0.6
2024-09-08T1600,2488A,111.9975,27.725,娄底市,市监测站,,41,41,47,21,25,106,,98,98,3,19,6,10,0.5,1.3
2024-09-08T1600,2489A,112.0194,27.7314,娄底市,市委党校,,30,26,36,15,21,93,,87,87,6,15,7,6,0.4,1
2024-09-08T1600,2490A,111.9561,27.7569,娄底市,涟钢,,26,20,39,12,20,83,,72,72,16,16,10,5,0.7,0.5
2024-09-08T1600,2491A,111.9892,27.7044,娄底市,市政府,,32,,30,18,22,101,,89,89,5,13,4,3,0.2,0.7
2024-09-08T1600,1893A,105.4324,28.9634,泸州市,九狮山,,29,,27,3,16,92,,67,67,2,8,5,5,0.3,0.4
2024-09-08T1600,1894A,105.4427,28.9063,泸州市,小市上码头,,34,18,26,3,14,106,,77,77,6,16,5,6,0.4,0.5
2024-09-08T1600,1895A,105.4241,28.8573,泸州市,兰田宪桥,,29,14,22,3,14,92,,71,71,6,14,6,6,0.3,0.5
2024-09-08T1600,1896A,105.4379,28.8833,泸州市,市环监站,,31,14,25,8,16,98,,71,71,4,13,4,5,0.4,0.4
2024-09-08T1600,3490A,105.3617,28.7703,泸州市,纳溪区环保局,,30,16,26,11,19,95,,69,69,6,13,4,7,0.2,0.4
2024-09-08T1600,2183A,111.1406,37.5211,吕梁市,环保局,,46,46,65,27,34,103,,100,100,5,25,3,3,0.7,0.9
2024-09-08T1600,2185A,111.1297,37.5136,吕梁市,自来水公司,,40,40,65,28,34,108,,101,101,7,27,2,3,0.7,1
2024-09-08T1600,2867A,111.1283,37.51,吕梁市,马茂庄小学,,46,46,72,31,35,99,,101,101,18,34,4,6,0.3,0.7
2024-09-08T1600,1812A,112.3931,34.6516,洛阳市,市委党校,细颗粒物(PM2.5),69,73,63,50,42,158,,122,122,11,12,5,6,0.9,0.8
2024-09-08T1600,1814A,112.4657,34.6871,洛阳市,豫西宾馆,细颗粒物(PM2.5),72,86,72,52,40,162,,123,123,7,10,6,7,0.7,0.7
2024-09-08T1600,1815A,112.494,34.6886,洛阳市,河南林校,细颗粒物(PM2.5),62,70,59,44,38,161,,119,119,12,16,6,7,0.6,0.6
2024-09-08T1600,1816A,112.3844,34.623,洛阳市,开发区管委会,细颗粒物(PM2.5),67,64,53,48,39,163,,122,122,10,11,5,4,0.7,0.7
2024-09-08T1600,1817A,112.4267,34.6258,洛阳市,市委新办公区,细颗粒物(PM2.5),79,62,55,58,50,162,,122,122,5,7,4,4,0.8,0.8
2024-09-08T1600,3340A,112.6005,34.6326,洛阳市,伊滨,颗粒物(PM10),67,83,64,46,44,159,,122,122,8,12,6,6,0.8,0.8
2024-09-08T1600,3341A,112.4951,34.6332,洛阳市,中移产业园,细颗粒物(PM2.5),70,72,66,51,44,163,,122,122,8,12,4,4,1.2,1.1
2024-09-08T1600,3593A,112.5736,34.8993,洛阳市,吉利监测站,细颗粒物(PM2.5),69,82,72,50,48,151,,110,110,8,10,4,3,0.8,0.8
2024-09-08T1600,3635A,112.3677,34.662,洛阳市,河科大西苑校区,臭氧1小时,64,68,55,36,29,171,,128,128,8,10,6,5,0.9,0.8
2024-09-08T1600,3636A,112.4388,34.6781,洛阳市,英才小学,细颗粒物(PM2.5),65,75,68,47,43,155,,117,117,11,14,3,4,0.8,0.7
2024-09-08T1600,2399A,114.051,33.5699,漯河市,三五一五工厂,,45,44,63,26,39,142,,127,127,6,10,6,5,0.7,0.9
2024-09-08T1600,2400A,114.0055,33.5698,漯河市,漯河大学,,49,41,58,34,40,153,,131,131,4,7,3,5,0.6,0.7
2024-09-08T1600,2401A,114.0138,33.5828,漯河市,市水利局,,47,44,65,24,39,148,,128,128,2,6,3,4,0.6,0.8
2024-09-08T1600,2402A,114.0261,33.5698,漯河市,市广电局,,48,37,58,30,51,153,,131,131,2,5,6,8,0.6,0.8
2024-09-08T1600,3478A,113.9749,33.5664,漯河市,市图书馆,颗粒物(PM10),59,67,58,36,40,157,,133,133,4,7,6,8,0.5,0.7
2024-09-08T1600,3479A,114.0967,33.5906,漯河市,召陵区卫健委,颗粒物(PM10),52,54,67,32,45,150,,136,136,3,13,4,7,0.5,0.7
2024-09-08T1600,1798A,118.5092,31.6837,马鞍山市,湖东路四小,,45,45,51,19,39,118,,107,107,9,16,6,7,0.6,0.7
2024-09-08T1600,1799A,118.5024,31.6449,马鞍山市,开发区,,41,41,56,23,37,119,,108,108,7,17,6,6,0.6,0.8
2024-09-08T1600,1800A,118.5228,31.7231,马鞍山市,慈湖,,38,36,54,26,36,119,,109,109,4,11,7,8,0.7,0.8
2024-09-08T1600,1802A,118.6245,31.7241,马鞍山市,濮塘,,38,32,43,26,35,114,,100,100,9,17,6,6,0.6,0.8
2024-09-08T1600,3633A,118.4918,31.6809,马鞍山市,雨山,,37,37,47,25,34,116,,106,106,5,11,8,8,0.6,0.8
2024-09-08T1600,1686A,111.0286,21.4688,茂名市,电白南海,,39,39,38,17,14,69,,66,66,4,5,8,8,0.6,0.6
2024-09-08T1600,1687A,110.9294,21.6533,茂名市,茂石化七小,,27,27,31,12,10,59,,56,56,4,4,6,5,0.5,0.5
2024-09-08T1600,1688A,110.9107,21.6687,茂名市,健康路,,22,22,25,3,8,66,,62,62,4,5,10,10,0.5,0.5
2024-09-08T1600,1689A,110.8592,21.6828,茂名市,高岭,,20,19,27,9,13,64,,63,63,7,7,5,13,0.6,0.6
2024-09-08T1600,3450A,111.01,21.5165,茂名市,电白水东,,31,31,27,17,13,60,,58,58,8,5,6,5,0.4,0.4
2024-09-08T1600,2539A,104.0308,30.0478,眉山市,黑龙滩水库,,45,36,39,11,27,143,,124,124,1,3,3,3,0.5,0.5
2024-09-08T1600,2540A,103.8416,30.0874,眉山市,气象局,,48,37,48,22,35,153,,123,123,9,27,6,6,0.6,0.6
2024-09-08T1600,3137A,103.8578,30.0744,眉山市,市委党校,,49,34,42,24,28,155,,123,123,4,21,7,8,0.7,0.6
2024-09-08T1600,3148A,103.8291,30.0564,眉山市,区人社局,,49,29,38,17,27,155,,129,129,12,27,8,8,0.6,0.7
2024-09-08T1600,1690A,116.1231,24.3284,梅州市,梅江月梅,,20,20,16,3,19,60,,57,57,1,7,6,6,0.3,0.3
2024-09-08T1600,1691A,116.0797,24.2719,梅州市,梅县新城,,22,22,17,7,8,59,,60,60,6,12,4,4,0.3,0.3
2024-09-08T1600,1692A,116.1248,24.2654,梅州市,环境监控中心,,17,6,17,6,7,52,,49,49,6,13,4,9,0.4,0.4
2024-09-08T1600,3315A,116.1233,24.2991,梅州市,梅龙,,20,,12,10,10,63,,43,,2,6,8,9,0.4,0.5
2024-09-08T1600,1878A,104.7778,31.4741,绵阳市,富乐山,,39,27,37,21,30,124,,83,83,10,15,2,3,0.6,0.7
2024-09-08T1600,1879A,104.7563,31.4535,绵阳市,市人大,,40,32,43,20,29,126,,99,88,17,21,8,9,0.5,0.6
2024-09-08T1600,1880A,104.6697,31.4668,绵阳市,高新区自来水公司,,44,27,39,19,23,138,,85,85,7,19,3,3,0.7,0.8
2024-09-08T1600,1881A,104.7287,31.5075,绵阳市,三水厂,,43,28,37,22,30,137,,89,83,12,24,4,5,0.7,0.8
2024-09-08T1600,3491A,104.69,31.5322,绵阳市,西科大附属小学,,43,28,37,19,25,135,,85,85,15,26,4,5,0.6,0.7
2024-09-08T1600,3492A,104.5648,31.5343,绵阳市,安州区旅游局,,45,26,35,24,28,143,,106,106,9,14,8,9,0.6,0.7
2024-09-08T1600,1784A,129.61,44.561,牡丹江市,环保大楼,,28,28,23,17,14,85,,77,77,6,10,7,7,0.3,0.3
2024-09-08T1600,1785A,129.6115,44.5782,牡丹江市,文化广场,,25,24,27,14,18,79,,70,70,8,14,7,9,0.3,0.3
2024-09-08T1600,1786A,129.5904,44.5963,牡丹江市,第一医院,,27,19,30,16,16,86,,76,76,8,16,6,6,0.3,0.4
2024-09-08T1600,1787A,129.6364,44.6075,牡丹江市,机车工厂,,28,24,26,13,19,87,,73,73,5,16,5,6,0.2,0.3
2024-09-08T1600,1788A,129.6386,44.5462,牡丹江市,第一中学,,29,22,25,10,14,92,,85,85,5,13,6,6,0.3,0.3
2024-09-08T1600,2531A,105.0703,29.61,内江市,市监测站,,43,11,21,10,20,137,,103,103,8,16,4,4,0.2,0.3
2024-09-08T1600,2532A,105.0717,29.5947,内江市,东兴区政府,,40,6,18,6,15,126,,92,92,11,17,3,3,0.5,0.6
2024-09-08T1600,2533A,105.0653,29.5817,内江市,内江二中,,41,,28,9,21,129,,96,96,7,15,6,6,0.4,0.6
2024-09-08T1600,2534A,105.0406,29.5822,内江市,内江日报社,,41,13,24,9,20,129,,96,96,15,20,7,5,0.4,0.5
2024-09-08T1600,2628A,92.0657,31.4846,那曲市,那曲监测站,,26,18,31,7,18,82,,58,58,5,9,5,6,0.3,0.5
2024-09-08T1600,3128A,92.0506,31.4797,那曲市,那曲会议中心,,28,8,22,3,10,88,,64,64,11,10,4,5,0.4,0.5
2024-09-08T1600,1290A,115.8931,28.6843,南昌市,省外办,,42,37,43,29,29,128,,127,127,8,20,9,11,0.4,0.5
2024-09-08T1600,1291A,115.8886,28.7003,南昌市,省林业公司,,43,36,45,19,24,137,,133,133,7,17,6,8,0.5,0.6
2024-09-08T1600,1292A,115.8126,28.7442,南昌市,林科所,,41,24,33,19,20,129,,140,140,11,17,9,11,0.7,0.7
2024-09-08T1600,1294A,115.8518,28.687,南昌市,建工学校,,43,33,40,18,19,135,,135,135,5,13,9,10,0.6,0.7
2024-09-08T1600,1295A,115.8921,28.6424,南昌市,象湖,,43,25,33,22,22,136,,142,142,5,10,4,6,0.3,0.5
2024-09-08T1600,1296A,115.7423,28.7996,南昌市,武术学校,,41,41,27,23,14,117,,122,122,4,6,3,3,0.7,0.8
2024-09-08T1600,1298A,115.9314,28.6842,南昌市,省站,,40,36,37,27,27,126,,123,123,14,10,6,9,0.7,0.7
2024-09-08T1600,3046A,115.9084,28.6062,南昌市,机电学校,,41,35,48,22,23,130,,135,135,4,11,7,10,0.4,0.5
2024-09-08T1600,3690A,115.9721,28.7031,南昌市,外国语学校,,44,39,42,13,19,139,,131,131,6,11,6,7,0.5,0.6
2024-09-08T1600,1905A,106.056,30.8064,南充市,西山风景区,,37,,23,15,24,117,,100,100,4,6,1,3,0.6,0.7
2024-09-08T1600,1906A,106.0789,30.8023,南充市,南充市委,,40,22,36,14,24,125,,108,108,6,12,6,8,0.4,0.5
2024-09-08T1600,1907A,106.1031,30.8217,南充市,南充炼油厂,,41,25,39,18,27,131,,112,112,5,11,3,3,0.4,0.6
2024-09-08T1600,1908A,106.1064,30.7856,南充市,高坪区监测站,,39,16,34,3,22,123,,105,105,10,15,3,4,0.3,0.5
2024-09-08T1600,1909A,106.0642,30.7636,南充市,嘉陵区环保局,,39,10,36,9,23,124,,105,105,8,14,6,7,0.4,0.5
2024-09-08T1600,1910A,106.1087,30.8388,南充市,市环境监测站,,41,24,38,20,24,129,,108,108,8,16,3,4,0.4,0.5
2024-09-08T1600,1151A,118.8086,32.1065,南京市,迈皋桥,,49,34,38,27,30,154,,108,108,6,18,4,4,0.4,0.4
2024-09-08T1600,1152A,118.7538,32.0551,南京市,草场门,,39,31,43,19,29,123,,98,98,11,17,5,7,0.3,0.5
2024-09-08T1600,1153A,118.7794,32.0745,南京市,山西路,,44,34,44,24,31,139,,105,105,2,9,3,4,0.4,0.5
2024-09-08T1600,1154A,118.7752,32.0023,南京市,中华门,,42,31,39,24,29,134,,102,102,13,20,6,6,0.4,0.5
2024-09-08T1600,1155A,118.8109,32.0309,南京市,瑞金路,,44,34,42,24,31,138,,104,104,2,8,6,6,0.5,0.6
2024-09-08T1600,1156A,118.7997,32.0754,南京市,玄武湖,,43,40,47,21,26,137,,100,100,4,15,6,7,1.0,0.9
2024-09-08T1600,1157A,118.6414,32.0931,南京市,浦口,,40,25,45,22,31,128,,99,99,8,14,4,5,0.5,0.6
2024-09-08T1600,1158A,118.7356,31.9996,南京市,奥体中心,,45,37,44,29,35,144,,109,109,8,15,4,6,0.4,0.5
2024-09-08T1600,1159A,118.9125,32.1028,南京市,仙林大学城,臭氧1小时,68,39,46,31,37,174,,117,117,5,13,8,8,0.6,0.6
2024-09-08T1600,3422A,118.8436,31.9198,南京市,江宁彩虹桥,,50,50,49,31,33,152,,109,109,1,10,5,4,0.5,0.6
2024-09-08T1600,3423A,119.0138,31.6494,南京市,溧水永阳,,35,24,44,20,34,109,,100,100,6,14,4,4,0.3,0.5
2024-09-08T1600,3424A,118.879,31.3302,南京市,高淳老职中,,45,45,42,27,36,120,,105,105,6,12,4,7,0.3,0.4
2024-09-08T1600,3427A,118.8554,32.3578,南京市,六合雄州,,47,32,40,26,28,149,,111,111,9,11,5,4,0.6,0.6
2024-09-08T1600,1401A,108.3103,22.7881,南宁市,二十一中,,20,14,14,8,5,61,,54,54,6,7,3,3,0.7,0.7
2024-09-08T1600,1402A,108.3141,22.8528,南宁市,北湖,,20,20,14,11,8,64,,55,55,8,6,3,3,0.6,0.5
2024-09-08T1600,1403A,108.3206,22.8225,南宁市,市监测站,,19,12,14,8,8,58,,51,51,14,9,5,4,0.8,0.7
2024-09-08T1600,1404A,108.3829,22.8037,南宁市,大自然花园,,21,18,12,9,7,65,,55,55,8,8,4,4,0.6,0.6
2024-09-08T1600,1405A,108.4394,22.7904,南宁市,仙葫,,21,16,12,13,7,66,,56,56,4,5,7,7,0.7,0.7
2024-09-08T1600,1406A,108.2397,22.8467,南宁市,区农职院,,20,19,14,6,4,61,,54,54,7,5,2,2,0.6,0.6
2024-09-08T1600,1407A,108.3275,22.735,南宁市,英华嘉园,,18,13,15,9,7,56,,51,51,8,8,4,4,0.6,0.5
2024-09-08T1600,1408A,108.2257,22.7757,南宁市,沙井镇街道办,,18,18,14,11,7,56,,50,50,10,11,2,2,0.6,0.5
2024-09-08T1600,3401A,108.4834,22.7618,南宁市,红星社区,,24,24,13,10,8,61,,53,53,4,4,5,5,0.7,0.7
2024-09-08T1600,2331A,118.0966,26.6761,南平市,茫荡山,,,,,,,,,,,,,,,,
2024-09-08T1600,2332A,118.1681,26.6369,南平市,南平市监测站,,27,14,16,8,8,85,,77,77,5,7,4,4,0.5,0.6
2024-09-08T1600,2333A,118.1825,26.6489,南平市,南平铝业有限公司,,26,9,15,3,6,81,,66,66,4,6,4,5,0.4,0.5
2024-09-08T1600,2334A,118.1756,26.6272,南平市,南平七中,,26,18,19,8,7,82,,66,66,3,5,3,2,0.5,0.5
2024-09-08T1600,1168A,120.9098,31.9663,南通市,狼山街道,,33,33,29,11,22,95,,84,84,5,9,7,7,0.5,0.4
2024-09-08T1600,1169A,120.86,32.0005,南通市,虹桥,,29,21,31,10,21,92,,85,85,4,6,6,6,0.6,0.5
2024-09-08T1600,1170A,120.87,32.02,南通市,城中,,29,25,35,8,20,91,,84,84,6,10,6,6,0.6,0.5
2024-09-08T1600,1171A,120.94,31.93,南通市,星湖花园,,27,20,25,14,21,86,,79,79,8,10,5,6,0.6,0.5
2024-09-08T1600,1172A,120.81,32.0417,南通市,紫琅学院,,28,13,24,3,17,89,,83,83,5,11,7,8,0.5,0.5
2024-09-08T1600,3291A,121.067,32.062,南通市,通州监测站,,29,17,29,14,20,90,,84,84,4,7,4,3,0.7,0.7
2024-09-08T1600,3432A,120.9348,31.9883,南通市,环境教育馆,,30,22,34,11,22,96,,88,88,3,9,5,4,0.6,0.5
2024-09-08T1600,2404A,112.5224,33.0122,南阳市,瓦房庄,,47,34,60,26,37,148,,135,135,8,11,2,3,0.5,0.6
2024-09-08T1600,2405A,112.5003,32.9735,南阳市,汉画馆,,44,44,61,27,42,139,,125,125,8,13,6,6,0.6,0.7
2024-09-08T1600,2406A,112.5573,33.027,南阳市,气象站,,46,35,61,24,37,145,,131,131,6,12,6,6,0.6,0.7
2024-09-08T1600,2407A,112.5481,32.9689,南阳市,理工学院,,45,32,50,22,33,141,,128,128,7,12,4,5,0.5,0.7
2024-09-08T1600,4008A,112.5234,32.9922,南阳市,卧龙区政府,,45,38,57,25,35,142,,129,129,10,14,5,5,0.6,0.8
2024-09-08T1600,1234A,121.8358,29.911,宁波市,区环保大楼,,25,13,34,9,21,77,,69,69,13,20,3,6,0.7,0.6
2024-09-08T1600,1235A,121.56,29.82,宁波市,万里学院,,31,25,36,10,24,99,,92,92,13,14,10,11,0.5,0.6
2024-09-08T1600,1236A,121.713,29.9572,宁波市,龙赛医院,,,33,42,14,21,82,,74,74,13,16,,10,0.5,0.6
2024-09-08T1600,1239A,121.633,29.7733,宁波市,钱湖水厂,,30,16,31,10,22,94,,95,95,14,11,8,9,0.7,0.7
2024-09-08T1600,1240A,121.5856,29.8635,宁波市,太古小学,,29,,32,14,22,91,,86,86,16,15,7,8,0.8,0.8
2024-09-08T1600,1241A,121.524,29.8674,宁波市,市环境监测中心,,30,26,32,12,18,95,,89,89,17,15,4,6,0.7,0.7
2024-09-08T1600,2871A,121.6147,29.9017,宁波市,万里国际学校,,30,19,29,18,22,96,,85,85,16,15,7,9,0.4,0.4
2024-09-08T1600,3710A,121.5594,29.8975,宁波市,白沙活动中心,,31,31,34,10,20,98,,87,87,16,15,8,9,0.4,0.4
2024-09-08T1600,2339A,119.5001,26.6946,宁德市,金涵水库,,,,,,,,,,,,,,,,
2024-09-08T1600,2341A,119.5388,26.6612,宁德市,宁德市监测站,,19,15,16,6,8,59,,51,51,3,15,5,7,0.4,0.5
2024-09-08T1600,3209A,119.5231,26.6562,宁德市,宁德一中,,23,23,19,3,8,57,,55,55,4,11,17,17,0.1,0.3
2024-09-08T1600,2618A,98.8601,25.8567,怒江傈僳族自治州,州监测站,,28,27,31,16,21,87,,59,59,5,7,9,7,0.5,0.5
2024-09-08T1600,2619A,98.8546,25.8417,怒江傈僳族自治州,泸水一中,,25,20,27,17,18,79,,50,50,11,12,8,6,0.4,0.4
2024-09-08T1600,1888A,101.6891,26.571,攀枝花市,弄弄坪,,44,39,45,24,20,139,,82,82,14,19,12,15,0.7,1
2024-09-08T1600,1889A,101.5769,26.5928,攀枝花市,河门口,,40,25,31,15,19,127,,75,75,11,17,7,7,0.7,0.7
2024-09-08T1600,1890A,101.7169,26.585,攀枝花市,炳草岗,,48,24,43,17,21,151,,82,82,11,30,8,12,0.7,1.1
2024-09-08T1600,1891A,101.7369,26.5008,攀枝花市,仁和,,49,26,40,18,25,156,,93,93,10,20,16,15,1.1,1.4
2024-09-08T1600,2835A,101.7227,26.567,攀枝花市,四十中小,,42,29,35,19,21,134,,91,91,7,31,8,16,0.7,1.3
2024-09-08T1600,1604A,122.0303,41.1489,盘锦市,开发区,,49,46,45,22,35,154,,118,118,13,29,14,11,0.8,0.8
2024-09-08T1600,1605A,122.0485,41.0883,盘锦市,兴隆台,,46,36,52,14,30,147,,116,116,13,37,10,12,0.9,1.3
2024-09-08T1600,1606A,121.8297,41.1028,盘锦市,新生街道,臭氧1小时,60,38,32,14,15,168,,118,118,6,26,11,8,1.1,0.8
2024-09-08T1600,1832A,113.3257,33.742,平顶山市,新华旅馆,细颗粒物(PM2.5),53,54,82,37,43,157,,115,115,6,15,4,6,0.8,1
2024-09-08T1600,1833A,113.2919,33.737,平顶山市,规划设计院,颗粒物(PM10),51,51,59,32,44,157,,116,116,15,20,8,8,0.7,0.9
2024-09-08T1600,1834A,113.182,33.774,平顶山市,平顶山工学院,臭氧1小时,59,44,61,36,42,167,,124,124,10,16,7,7,0.9,1
2024-09-08T1600,3204A,113.3025,33.73,平顶山市,规划局,颗粒物(PM10),53,56,68,33,44,156,,114,114,9,16,3,4,0.6,0.7
2024-09-08T1600,3594A,112.8867,33.9116,平顶山市,石龙区,颗粒物(PM10),57,63,84,37,44,158,,115,115,8,20,10,11,0.5,0.7
2024-09-08T1600,2656A,106.6692,35.5461,平凉市,聚贤嘉苑,,36,36,47,14,19,97,,99,86,14,18,9,10,0.7,0.7
2024-09-08T1600,2657A,106.7021,35.5307,平凉市,博物馆,,36,36,47,14,20,102,,103,89,14,20,8,9,0.5,0.6
2024-09-08T1600,2347A,114.0997,27.5002,萍乡市,武功山,,28,6,5,3,3,87,,63,63,4,4,9,8,0.3,0.2
2024-09-08T1600,2348A,113.8385,27.6434,萍乡市,中医院,,33,31,36,19,18,104,,92,92,4,12,7,14,0.9,0.8
2024-09-08T1600,2349A,113.8493,27.6253,萍乡市,市政府车库,,32,21,27,3,19,102,,85,85,3,11,8,12,0.6,0.9
2024-09-08T1600,2350A,113.8676,27.6435,萍乡市,市环保局,,28,25,29,12,18,89,,83,83,7,10,8,11,0.8,0.5
2024-09-08T1600,2351A,113.866,27.6198,萍乡市,安源区政府,,32,24,31,12,9,100,,85,85,10,15,10,12,0.4,0.5
2024-09-08T1600,2319A,119.0141,25.4325,莆田市,荔城区仓后路,,20,10,20,3,8,61,,55,55,7,8,6,7,0.6,0.6
2024-09-08T1600,2320A,119.0015,25.4553,莆田市,莆田市监测站,,20,6,21,3,6,63,,57,57,4,4,6,6,0.5,0.5
2024-09-08T1600,2321A,119.1119,25.4561,莆田市,涵江区六中,,20,14,24,3,12,61,,51,51,7,13,7,7,0.5,0.6
2024-09-08T1600,2322A,119.1013,25.3215,莆田市,秀屿区政府,,26,26,22,3,10,57,,53,53,7,9,7,7,0.6,0.6
2024-09-08T1600,2323A,118.981,25.4792,莆田市,东圳水库,,,,,,,,,,,,,,,,
2024-09-08T1600,2392A,115.0312,35.7636,濮阳市,环保局,,43,42,54,30,39,132,,113,113,8,18,6,10,0.6,0.6
2024-09-08T1600,2394A,115.0574,35.7609,濮阳市,油田运输公司,,46,39,59,32,38,136,,117,117,6,18,2,7,0.5,0.6
2024-09-08T1600,2395A,115.0866,35.7754,濮阳市,油田物探公司,,44,40,65,29,42,138,,120,120,6,18,1,6,0.6,0.7
2024-09-08T1600,3021A,115,35.7668,濮阳市,濮水河管理处,细颗粒物(PM2.5),67,80,53,48,41,149,,110,110,14,18,4,5,0.6,0.6
2024-09-08T1600,2601A,100.98,22.7633,普洱市,市环保局,,29,29,37,14,18,51,,51,51,7,9,9,10,0.5,0.5
2024-09-08T1600,2602A,100.9817,22.8322,普洱市,普洱第二中学,,18,18,33,6,14,52,,55,55,5,8,8,8,0.6,0.6
2024-09-08T1600,2262A,131.0518,45.8751,七台河市,新一中,,38,21,24,6,10,119,,107,107,6,12,10,10,0.9,1
2024-09-08T1600,3345A,131.0577,45.7879,七台河市,中波台,,28,8,20,6,7,87,,83,83,9,23,7,7,0.5,0.5
2024-09-08T1600,3637A,131.0176,45.7761,七台河市,人民广场,,33,33,28,3,10,92,,84,84,9,18,8,8,0.3,0.4
2024-09-08T1600,3684A,130.8781,45.8222,七台河市,新建矿广场,颗粒物(PM10),51,51,53,11,17,87,,80,80,13,26,4,8,0.4,0.5
2024-09-08T1600,1779A,123.9305,47.3636,齐齐哈尔市,安居小区,,37,37,35,8,13,82,,82,82,15,18,10,10,0.4,0.4
2024-09-08T1600,1780A,123.9488,47.3386,齐齐哈尔市,中心广场,,42,42,35,3,8,86,,79,79,13,20,4,4,0.2,0.3
2024-09-08T1600,1781A,123.9483,47.3227,齐齐哈尔市,农牧车辆厂,,29,24,39,3,9,91,,85,85,7,15,8,9,0.1,0.2
2024-09-08T1600,1783A,123.945,47.2988,齐齐哈尔市,市环境监测站,,29,14,30,12,12,90,,80,80,6,14,8,8,0.3,0.3
2024-09-08T1600,3662A,123.6333,47.2075,齐齐哈尔市,富区青少年活动中心,,29,19,44,3,13,90,,77,77,5,15,5,13,0.3,0.7
2024-09-08T1600,2591A,107.9783,26.5747,黔东南苗族侗族自治州,市环境监测站,,21,14,18,11,16,65,,54,54,8,12,3,3,0.5,0.6
2024-09-08T1600,2881A,107.8908,26.5311,黔东南苗族侗族自治州,凯里学院,,16,,15,10,14,51,,57,57,8,11,2,2,0.5,0.6
2024-09-08T1600,2593A,107.5228,26.2403,黔南布依族苗族自治州,小围寨,,19,6,10,3,4,59,,42,40,3,6,4,4,0.3,0.4
2024-09-08T1600,3538A,107.5175,26.2978,黔南布依族苗族自治州,沙坝,,,,23,2,6,68,,41,41,3,6,4,3,0.3,0.2
2024-09-08T1600,2589A,104.9022,25.0925,黔西南布依族苗族自治州,场坝街,,17,11,16,8,9,52,,48,44,8,8,3,8,0.1,0.1
2024-09-08T1600,2590A,104.8811,25.0992,黔西南布依族苗族自治州,坪东大道,,18,18,17,3,7,55,,50,50,4,5,6,7,0.1,0.1
2024-09-08T1600,2502A,108.6236,21.9667,钦州市,市环保站,,31,31,11,9,4,55,,52,52,9,6,6,5,0.7,0.6
2024-09-08T1600,2503A,108.6549,21.9481,钦州市,沙埠小学,,37,37,20,17,8,62,,54,54,8,7,6,5,0.6,0.5
2024-09-08T1600,2504A,108.5989,21.7431,钦州市,港区一小,,32,32,22,14,7,60,,55,55,10,6,5,5,0.4,0.5
2024-09-08T1600,3404A,108.5959,21.9633,钦州市,北职校,,30,30,16,17,8,58,,55,55,9,5,6,5,0.6,0.6
2024-09-08T1600,1042A,119.5134,39.8207,秦皇岛市,北戴河环保局,颗粒物(PM10),53,55,41,21,14,88,,75,75,22,18,11,7,2.1,1.3
2024-09-08T1600,1043A,119.7493,40.0116,秦皇岛市,第一关,,40,40,39,14,19,93,,75,75,23,39,2,4,0.5,0.5
2024-09-08T1600,1044A,119.5897,39.9499,秦皇岛市,监测站,,36,36,43,24,26,102,,76,76,19,36,2,5,0.8,0.8
2024-09-08T1600,1046A,119.5251,39.9041,秦皇岛市,建设大厦,,41,41,42,7,13,113,,87,87,7,24,4,9,0.6,0.9
2024-09-08T1600,3132A,119.610547,39.943889,秦皇岛市,文明里,,38,38,43,11,16,103,,78,78,20,31,6,8,1.0,1
2024-09-08T1600,1307A,120.6659,36.2403,青岛市,仰口,一氧化碳,115,,28,19,18,146,,142,140,4,6,6,6,17.4,15.6
2024-09-08T1600,1310A,120.4134,36.0658,青岛市,市南区东部子站,,41,12,28,9,12,129,,134,134,7,16,6,7,0.4,0.4
2024-09-08T1600,1311A,120.3664,36.1032,青岛市,四方区子站,,43,12,35,12,16,136,,142,142,16,26,11,11,0.5,0.7
2024-09-08T1600,1312A,120.2994,36.054,青岛市,市南区西部子站,,32,14,27,7,9,101,,127,125,18,14,8,8,0.6,0.6
2024-09-08T1600,1313A,120.4581,36.0858,青岛市,崂山区子站,,42,14,25,3,8,134,,143,143,10,19,8,8,0.5,0.5
2024-09-08T1600,1314A,120.1983,35.9608,青岛市,黄岛区子站,,39,12,24,3,12,124,,130,130,6,17,8,9,0.3,0.4
2024-09-08T1600,1315A,120.3999,36.3083,青岛市,城阳区子站,,50,34,41,10,16,160,,164,164,18,28,9,8,0.5,0.6
2024-09-08T1600,1966A,120.0405,35.8735,青岛市,黄岛区4号,,37,12,27,3,12,118,,128,128,2,15,9,11,0.5,0.6
2024-09-08T1600,3362A,120.5014,36.4034,青岛市,即墨2号,,47,19,40,10,15,150,,150,150,9,16,7,7,0.4,0.5
2024-09-08T1600,3642A,120.3503,36.0736,青岛市,市北区南部,,36,15,27,3,10,115,,122,122,12,18,9,10,0.5,0.5
2024-09-08T1600,3643A,120.3948,36.1805,青岛市,李沧区北部,,45,19,36,7,18,144,,149,149,12,29,10,10,0.5,0.7
2024-09-08T1600,1702A,113.0426,23.691,清远市,环保大楼,,21,,12,8,7,65,,43,43,2,7,6,7,0.6,0.5
2024-09-08T1600,1703A,113.0208,23.7106,清远市,凤城街办,,19,,14,9,10,58,,36,36,2,7,7,6,0.4,0.5
2024-09-08T1600,3025A,113.0477,23.6344,清远市,技师学院,,21,12,20,6,8,66,,41,41,3,12,4,5,0.5,0.7
2024-09-08T1600,3318A,112.9903,23.7403,清远市,清新太和,,21,6,15,3,7,65,,40,40,3,7,6,6,0.7,0.7
2024-09-08T1600,3455A,113.076,23.7198,清远市,清城东城,,19,10,17,3,9,60,,40,40,2,6,6,7,0.5,0.6
2024-09-08T1600,2661A,107.6325,35.7357,庆阳市,庆阳五中,,,,40,9,14,,,,,,8,,6,,0.5
2024-09-08T1600,2662A,107.6364,35.7067,庆阳市,市环保局,,32,28,33,9,15,100,,98,98,8,8,5,5,0.6,0.7
2024-09-08T1600,1916A,103.7897,25.5035,曲靖市,环境监测站,,20,6,13,3,7,64,,54,54,5,10,3,5,0.4,0.6
2024-09-08T1600,1917A,103.8,25.5364,曲靖市,烟厂办公区,,19,6,12,3,8,60,,52,52,6,11,4,4,0.5,0.7
2024-09-08T1600,3376A,103.7947,25.462,曲靖市,南苑二区,,21,6,9,3,7,67,,58,58,5,10,4,9,0.5,0.6
2024-09-08T1600,3377A,103.7444,25.5261,曲靖市,曲靖师范学院,,,,8,,7,,,56,,,9,,8,,0.3
2024-09-08T1600,1264A,118.8692,28.9398,衢州市,环保大楼,,40,20,36,12,24,128,,108,108,8,16,2,2,0.5,0.5
2024-09-08T1600,1265A,118.8709,28.9666,衢州市,实验学校,,43,19,36,12,25,136,,108,108,5,13,4,4,0.5,0.6
2024-09-08T1600,1266A,118.8621,28.9808,衢州市,衢州学院,,41,18,34,14,23,130,,100,100,6,17,4,4,0.3,0.4
2024-09-08T1600,1611A,118.5819,24.9117,泉州市,涂山街,,25,17,22,8,16,79,,86,86,10,16,1,2,0.5,0.5
2024-09-08T1600,1612A,118.5972,24.8978,泉州市,津头埔,,22,18,24,3,8,70,,81,81,11,16,3,4,0.5,0.6
2024-09-08T1600,1613A,118.6663,24.9424,泉州市,万安,,24,21,24,8,14,75,,82,82,6,14,2,3,0.2,0.3
2024-09-08T1600,1614A,118.6117,24.9604,泉州市,清源山,,,,,,,,,,,,,,,,
2024-09-08T1600,3529A,118.6333,24.9264,泉州市,城华南路,,21,15,24,7,19,66,,80,80,7,11,3,3,0.4,0.5
2024-09-08T1600,2626A,88.8876,29.2718,日喀则市,日喀则监测站,,31,12,30,11,8,97,,79,79,4,6,5,6,0.4,0.4
2024-09-08T1600,3726A,88.8781,29.2426,日喀则市,林业技术推广中心,,29,6,19,3,7,90,,73,73,5,7,8,8,0.5,0.5
2024-09-08T1600,1659A,119.471,35.4209,日照市,监测站,,45,12,24,9,16,143,,132,132,10,38,12,11,0.3,0.4
2024-09-08T1600,1660A,119.523,35.4216,日照市,市政府广场,,46,12,20,3,10,146,,138,138,5,17,10,10,0.5,0.6
2024-09-08T1600,1661A,119.5587,35.4044,日照市,港务局,,46,17,17,14,13,147,,140,140,4,6,13,9,0.7,0.7
2024-09-08T1600,3507A,119.5328,35.4625,日照市,职业技术学院,,45,12,18,3,9,144,,138,138,9,14,10,9,0.5,0.6
2024-09-08T1600,3604A,119.3266,35.1044,日照市,岚山环保分局,,42,14,23,3,5,134,,133,133,8,15,11,10,0.5,0.5
2024-09-08T1600,1835A,111.1922,34.7752,三门峡市,市政府,,45,45,54,25,33,131,,119,119,8,10,10,9,0.7,0.8
2024-09-08T1600,1836A,111.1587,34.7942,三门峡市,开发区,,46,46,72,30,43,134,,118,118,8,9,10,10,0.8,0.8
2024-09-08T1600,1838A,111.143,34.7955,三门峡市,风景区,,,,,,,,,,,,,,,,
2024-09-08T1600,3039A,111.1911,34.7829,三门峡市,三门峡市第一小学,颗粒物(PM10),56,62,55,31,42,128,,114,114,7,9,8,8,0.7,0.7
2024-09-08T1600,3598A,111.1,34.7167,三门峡市,富达温泉假日酒店,,42,42,55,20,50,107,,110,110,10,10,12,12,0.5,0.6
2024-09-08T1600,2324A,117.6211,26.2625,三明市,三钢,,,15,15,11,7,89,,68,68,,9,,8,0.4,0.6
2024-09-08T1600,2325A,117.635,26.2714,三明市,三明二中,,29,16,14,8,7,90,,68,68,5,8,3,4,0.3,0.4
2024-09-08T1600,2326A,117.6028,26.2378,三明市,三元区政府,,26,14,15,3,9,81,,66,66,8,8,2,3,0.3,0.4
2024-09-08T1600,2327A,117.7275,26.3108,三明市,洋溪,,,,,,,,,,,,,,,,
2024-09-08T1600,1876A,109.5078,18.2489,三亚市,河东子站,,20,20,26,10,13,61,,54,54,2,5,3,3,0.3,0.5
2024-09-08T1600,1877A,109.4964,18.2681,三亚市,河西子站,,20,16,24,13,11,61,,53,53,2,5,3,3,0.3,0.4
2024-09-08T1600,3540A,109.7348,18.3443,三亚市,君悦子站,,29,29,31,10,11,52,,54,54,4,5,5,6,0.5,0.6
2024-09-08T1600,2624A,91.7608,29.2313,山南市,山南监测站,,30,7,11,3,4,93,,75,75,3,3,7,7,0.3,0.2
2024-09-08T1600,2625A,91.7706,29.2436,山南市,山南人民医院,,29,20,15,3,5,92,,74,73,8,7,8,8,0.3,0.3
2024-09-08T1600,1674A,116.6794,23.3667,汕头市,金平子站,,20,7,10,3,4,64,,61,61,4,9,4,5,0.5,0.5
2024-09-08T1600,1675A,116.7244,23.3633,汕头市,龙湖子站,,19,18,12,8,6,60,,56,56,3,6,6,6,0.5,0.6
2024-09-08T1600,1676A,116.7258,23.2775,汕头市,濠江子站,,19,9,9,6,6,59,,54,54,8,11,5,6,0.6,0.7
2024-09-08T1600,1677A,116.7519,23.4714,汕头市,澄海子站,,23,9,13,6,5,73,,68,68,4,8,4,4,0.7,0.7
2024-09-08T1600,1678A,116.6092,23.2539,汕头市,潮阳子站,,20,,15,9,4,63,,58,58,2,4,4,4,0.4,0.4
2024-09-08T1600,3444A,116.454,23.2684,汕头市,潮南峡山,,19,7,12,3,5,58,,55,55,1,4,5,5,0.5,0.5
2024-09-08T1600,3624A,116.4069,23.2533,汕头市,潮南子站,,18,6,18,3,5,55,,54,54,8,10,5,5,0.5,0.5
2024-09-08T1600,1693A,115.3653,22.775,汕尾市,市环保局,,,,12,2,5,49,,45,45,3,7,7,6,0.4,0.5
2024-09-08T1600,1694A,115.3706,22.7898,汕尾市,市政府,,15,8,11,3,4,48,,43,43,4,9,6,6,0.4,0.4
2024-09-08T1600,1695A,115.3622,22.7925,汕尾市,新城中学,,16,15,14,3,5,49,,44,44,3,6,6,6,0.5,0.6
2024-09-08T1600,2645A,109.9154,33.8715,商洛市,监测站,,34,34,43,22,23,96,,98,98,7,12,4,5,0.6,0.7
2024-09-08T1600,3045A,109.9643,33.8471,商洛市,商州区中学,,50,50,42,23,23,94,,95,95,7,13,5,6,0.7,0.7
2024-09-08T1600,2408A,115.6702,34.4285,商丘市,环境监测站,,40,31,52,24,28,125,,105,105,4,11,3,4,0.5,0.6
2024-09-08T1600,2409A,115.6458,34.4045,商丘市,粮食局,,43,38,45,21,26,135,,114,114,2,10,6,7,0.3,0.4
2024-09-08T1600,2410A,115.6293,34.3948,商丘市,睢阳区环保局,,40,38,48,21,30,125,,107,107,2,8,6,6,0.4,0.5
2024-09-08T1600,3171A,115.6071,34.4465,商丘市,梁园区档案局,,42,34,45,17,29,132,,115,115,3,8,7,7,0.4,0.5
2024-09-08T1600,1141A,121.4,31.238,上海市,普陀,,27,27,36,18,22,67,,63,63,18,21,6,7,0.4,0.4
2024-09-08T1600,1142A,121.478,31.2036,上海市,十五厂,,28,28,36,18,25,68,,66,66,14,16,9,10,0.4,0.4
2024-09-08T1600,1143A,121.467,31.3008,上海市,虹口,,30,30,35,17,22,63,,62,62,19,21,11,10,0.6,0.6
2024-09-08T1600,1144A,121.412,31.1654,上海市,徐汇上师大,,32,32,38,17,24,74,,66,66,17,19,7,7,0.6,0.6
2024-09-08T1600,1145A,121.536,31.2659,上海市,杨浦四漂,,49,49,41,18,23,56,,61,61,16,17,8,9,0.5,0.5
2024-09-08T1600,1147A,121.425,31.2261,上海市,静安监测站,,35,24,35,24,25,69,,64,64,13,16,7,7,0.5,0.5
2024-09-08T1600,1148A,121.703,31.1907,上海市,浦东川沙,,21,18,33,14,20,67,,64,64,12,19,6,7,0.4,0.4
2024-09-08T1600,1149A,121.533,31.2284,上海市,浦东新区监测站,,30,26,33,21,25,59,,63,63,14,17,7,7,0.3,0.5
2024-09-08T1600,1150A,121.577,31.2071,上海市,浦东张江,,35,,34,24,30,56,,56,56,12,17,6,6,0.7,0.7
2024-09-08T1600,3265A,121.4316,31.3322,上海市,宝山庙行,,27,27,36,17,23,62,,61,61,21,23,10,10,0.5,0.5
2024-09-08T1600,3266A,121.8791,31.4662,上海市,崇明上实东滩,,23,20,29,16,23,59,,63,63,2,4,10,10,0.7,0.7
2024-09-08T1600,3268A,121.3162,31.2838,上海市,嘉定南翔,,26,26,35,16,24,76,,67,67,21,23,11,9,0.5,0.4
2024-09-08T1600,3269A,121.3359,30.7456,上海市,金山新城,,22,,33,12,25,69,,62,62,12,14,4,6,0.5,0.6
2024-09-08T1600,3270A,121.4996,31.0739,上海市,闵行浦江,,26,23,35,18,27,76,,66,66,14,19,7,8,0.7,0.7
2024-09-08T1600,3271A,121.2886,31.1663,上海市,青浦徐泾,,30,25,35,20,28,93,,75,75,13,17,8,8,0.5,0.5
2024-09-08T1600,3272A,121.2186,31.0378,上海市,松江图书馆,,31,31,35,17,25,96,,78,78,12,16,8,8,0.4,0.4
2024-09-08T1600,3273A,121.3902,31.2059,上海市,长宁仙霞,,29,29,34,17,23,80,,70,70,13,16,10,10,0.5,0.6
2024-09-08T1600,3274A,121.7965,31.0507,上海市,浦东惠南,,24,13,36,11,26,76,,60,60,7,14,9,10,0.5,0.5
2024-09-08T1600,3544A,121.4891,30.925,上海市,奉贤南桥新城,,24,16,37,13,28,74,,64,64,10,12,8,9,0.6,0.6
