timepoint,stationcode,longitude,latitude,area,positionname,primarypollutant,aqi,pm10,pm10_24h,pm2_5,pm2_5_24h,o3,o3_24h,o3_8h,o3_8h_24h,no2,no2_24h,so2,so2_24h,co,co_24h
2024-10-21T0200,2566A,102.1879,31.914,阿坝藏族羌族自治州,州农科所,,20,20,30,6,14,27,,,,4,12,7,10,0,0
2024-10-21T0200,2568A,102.2502,31.8896,阿坝藏族羌族自治州,马师校,,19,15,22,13,15,21,,,,5,10,4,4,0.2,0.3
2024-10-21T0200,3994A,102.2165,31.9024,阿坝藏族羌族自治州,马尔康中学西区,,25,25,26,16,14,29,,,,5,9,5,5,0.4,0.4
2024-10-21T0200,2695A,80.292,41.1694,阿克苏地区,电视台,颗粒物(PM10),91,131,117,49,38,26,,,,56,31,5,3,0.9,0.7
2024-10-21T0200,2696A,80.2613,41.1551,阿克苏地区,艺术中心,颗粒物(PM10),93,136,111,51,36,3,,,,68,34,4,4,0.8,0.6
2024-10-21T0200,2204A,105.6467,38.8363,阿拉善盟,西城区西花园,,36,36,76,22,31,89,,,,6,10,8,8,0.6,0.7
2024-10-21T0200,2205A,105.6985,38.8411,阿拉善盟,蒙二幼,,27,16,72,6,21,84,,,,5,10,8,9,0.5,0.6
2024-10-21T0200,2206A,105.724,38.8516,阿拉善盟,环保局新楼,,29,15,60,3,21,92,,,,4,9,9,9,0.5,0.5
2024-10-21T0200,2708A,88.1264,47.8517,阿勒泰地区,市站,,19,16,11,13,7,48,,,,12,13,7,8,0.1,0.1
2024-10-21T0200,2630A,80.1161,32.5,阿里地区,阿里监测站,,17,14,14,3,7,54,,,,20,12,15,7,0.4,0.4
2024-10-21T0200,3192A,80.0903,32.5028,阿里地区,阿里藏医院,,29,29,22,8,6,30,,,,50,17,6,8,0.7,0.5
2024-10-21T0200,2642A,109.0318,32.6537,安康市,香溪洞,,15,6,13,3,5,45,,,,6,6,8,8,0.3,0.2
2024-10-21T0200,2643A,109.0281,32.6939,安康市,安康市监测站,,,,,,,,,,,,,,,,
2024-10-21T0200,2644A,109.0072,32.6975,安康市,汉滨区检察院,,18,,13,3,9,55,,,,7,10,8,9,0.4,0.4
2024-10-21T0200,2291A,117.0809,30.5177,安庆市,环科院,,38,38,38,15,17,74,,,,14,18,8,8,0.4,0.4
2024-10-21T0200,2292A,117.0331,30.5119,安庆市,马山宾馆,,33,33,38,14,18,75,,,,16,20,7,7,0.4,0.4
2024-10-21T0200,2294A,116.9896,30.6145,安庆市,安庆大学,,42,42,38,18,17,71,,,,13,13,9,9,0.5,0.5
2024-10-21T0200,3173A,117.0598,30.5351,安庆市,市人大,,41,41,39,15,18,69,,,,20,24,10,10,0.4,0.4
2024-10-21T0200,3122A,105.9606,26.2611,安顺市,伍家关,,17,8,12,3,6,54,,,,2,4,2,3,0.4,0.4
2024-10-21T0200,3123A,105.9408,26.2431,安顺市,凤凰山,,19,9,15,6,11,59,,,,3,5,5,5,0.2,0.3
2024-10-21T0200,3124A,105.9439,26.2564,安顺市,金钟山,,20,15,18,7,13,62,,,,2,4,6,7,0.4,0.5
2024-10-21T0200,3125A,105.8983,26.2481,安顺市,娄家坡,,,,12,,12,,,67,,,4,,5,,0.4
2024-10-21T0200,1818A,114.4839,36.0621,安阳市,棉研所,,,,25,,13,,,49,,,28,,7,,0.5
2024-10-21T0200,1819A,114.3551,36.1017,安阳市,红庙街,,39,,27,27,14,29,,,,20,18,5,6,0.7,0.7
2024-10-21T0200,1820A,114.361,36.0681,安阳市,银杏小区,,28,28,25,19,9,22,,,,24,21,6,4,0.4,0.4
2024-10-21T0200,3141A,114.3922,36.0878,安阳市,信访局,,33,30,27,23,12,28,,,,16,17,7,5,0.4,0.4
2024-10-21T0200,3669A,114.4705,36.0637,安阳市,左辅环卫站,,34,34,32,18,12,5,,,,56,26,2,3,0.7,0.6
2024-10-21T0200,3703A,114.2917,36.0949,安阳市,安钢职工学校,,38,29,29,26,14,23,,,,26,19,3,4,0.4,0.4
2024-10-21T0200,1748A,123.044,41.1196,鞍山市,深沟寺,,30,30,51,10,19,70,,,,4,24,4,11,0.5,1
2024-10-21T0200,1749A,123.011,41.0931,鞍山市,太阳城,,28,28,40,14,20,63,,,,8,23,8,11,0.4,0.6
2024-10-21T0200,1750A,123.0485,41.1442,鞍山市,太平,,23,23,65,10,26,71,,,,5,29,8,20,0.6,1.2
2024-10-21T0200,1751A,122.9642,41.0971,鞍山市,铁西三道街,细颗粒物(PM2.5),89,100,62,66,26,22,,,,39,30,8,13,2.8,1
2024-10-21T0200,1752A,122.9341,41.0833,鞍山市,铁西工业园区,"颗粒物(PM10),细颗粒物(PM2.5)",62,73,63,44,32,24,,,,42,33,9,19,2.0,1.2
2024-10-21T0200,1753A,123.022,41.0821,鞍山市,明达新区,,26,26,41,11,19,69,,,,4,19,6,10,0.4,0.8
2024-10-21T0200,1754A,123.1289,41.0228,鞍山市,千山,,,,34,,13,,,44,,,17,,2,,0.5
2024-10-21T0200,2195A,107.4212,40.761,巴彦淖尔市,附二中,颗粒物(PM10),89,127,108,40,36,75,,,,10,13,4,4,0.4,0.5
2024-10-21T0200,2196A,107.37,40.7372,巴彦淖尔市,市环保大楼,颗粒物(PM10),81,112,94,37,30,70,,,,8,8,3,3,0.2,0.3
2024-10-21T0200,1956A,86.1472,41.7538,巴音郭楞蒙古自治州,孔雀公园,,36,36,52,21,16,70,,,,21,32,3,5,0.3,0.4
2024-10-21T0200,1957A,86.1972,41.7166,巴音郭楞蒙古自治州,棉纺厂,颗粒物(PM10),55,59,64,15,16,64,,,,17,26,4,2,0.3,0.3
2024-10-21T0200,1958A,86.2357,41.7173,巴音郭楞蒙古自治州,经济开发区,,44,44,48,22,16,71,,,,11,12,2,2,0.3,0.4
2024-10-21T0200,2914A,106.7677,31.8794,巴中市,苏山坪,,8,7,5,3,1,25,,,,6,5,3,3,0.3,0.3
2024-10-21T0200,3182A,106.7656,31.8545,巴中市,丽阳花园,,12,12,8,7,5,7,,,,18,12,5,5,0.5,0.5
2024-10-21T0200,3183A,106.7418,31.8654,巴中市,圣泉水务公司,,9,9,6,3,5,10,,,,15,13,4,4,0.5,0.5
2024-10-21T0200,3616A,106.7616,31.8344,巴中市,市中心医院,,13,13,7,8,4,5,,,,19,11,5,5,0.6,0.5
2024-10-21T0200,2235A,122.7911,45.6077,白城市,洮北区环保局,,29,29,28,10,9,64,,,,9,14,5,7,0.2,0.3
2024-10-21T0200,2236A,122.8738,45.5725,白城市,市环保局,,19,14,39,12,13,60,,,,7,13,4,6,0.5,0.5
2024-10-21T0200,2231A,126.4219,41.9171,白山市,喜丰,颗粒物(PM10),70,89,60,11,15,7,,,,34,27,16,13,0.7,0.5
2024-10-21T0200,2232A,126.4077,41.9419,白山市,环保局,颗粒物(PM10),62,74,56,20,14,4,,,,34,26,15,10,0.7,0.6
2024-10-21T0200,2647A,104.1724,36.5446,白银市,第三小学,颗粒物(PM10),57,64,51,26,18,8,,,,49,26,30,20,1.2,0.8
2024-10-21T0200,2648A,104.1465,36.5482,白银市,动力公司,,44,44,47,16,14,17,,,,26,23,5,6,1.2,0.8
2024-10-21T0200,2512A,106.6103,23.9011,百色市,市监测站,,36,36,30,18,17,12,,,,17,16,8,10,0.9,0.8
2024-10-21T0200,2513A,106.6538,23.8859,百色市,市中心血站,颗粒物(PM10),53,56,33,25,20,8,,,,32,21,11,8,0.9,0.7
2024-10-21T0200,3406A,106.6085,23.8798,百色市,祈福高中,,37,37,44,14,21,6,,,,18,18,10,9,1.0,0.9
2024-10-21T0200,2270A,117.396,32.939,蚌埠市,工人疗养院,细颗粒物(PM2.5),95,101,64,71,37,35,,,,19,13,4,4,0.5,0.4
2024-10-21T0200,2271A,117.3605,32.9427,蚌埠市,百货大楼,细颗粒物(PM2.5),93,101,66,69,39,27,,,,26,18,4,4,0.4,0.3
2024-10-21T0200,2273A,117.4185,32.8911,蚌埠市,蚌埠学院,细颗粒物(PM2.5),112,97,52,84,32,35,,,,20,16,6,6,0.5,0.3
2024-10-21T0200,2274A,117.3533,32.9673,蚌埠市,淮上区政府,细颗粒物(PM2.5),109,105,66,82,42,25,,,,25,19,6,5,0.5,0.3
2024-10-21T0200,2275A,117.3145,32.8977,蚌埠市,高新区,细颗粒物(PM2.5),99,88,59,74,38,27,,,,32,24,7,8,0.5,0.3
2024-10-21T0200,3715A,117.3092,32.9314,蚌埠市,蚌埠田家炳中学,细颗粒物(PM2.5),110,104,67,83,39,20,,,,29,24,5,5,0.4,0.3
2024-10-21T0200,1585A,109.8756,40.6532,包头市,市环境监测站,,41,41,28,25,17,33,,,,22,28,10,13,0.8,0.9
2024-10-21T0200,1587A,109.9991,40.5842,包头市,包头八中,细颗粒物(PM2.5),55,53,41,39,26,30,,,,23,28,16,23,0.7,0.9
2024-10-21T0200,1588A,109.8538,40.6821,包头市,青山宾馆,,49,44,28,34,22,36,,,,21,29,10,12,0.9,1
2024-10-21T0200,1589A,109.8642,40.6288,包头市,惠龙物流,,48,48,28,24,16,31,,,,24,27,7,9,0.8,0.9
2024-10-21T0200,1590A,110.0377,40.5546,包头市,东河鸿龙湾,,40,40,23,23,14,28,,,,17,21,12,12,0.8,0.8
2024-10-21T0200,3283A,109.9154,40.5685,包头市,滨河大厦,,49,35,22,34,15,24,,,,28,25,9,11,0.7,0.7
2024-10-21T0200,3419A,109.9447,40.6261,包头市,包头市委党校,颗粒物(PM10),55,60,37,23,20,38,,,,20,26,10,20,0.9,1.1
2024-10-21T0200,3683A,109.8331,40.6576,包头市,昆区政府,,48,43,31,33,23,33,,,,22,27,7,12,0.7,0.8
2024-10-21T0200,1930A,107.185,34.3063,宝鸡市,庙沟村,,20,18,24,14,12,30,,,,14,15,7,7,0.5,0.5
2024-10-21T0200,1931A,107.0708,34.3017,宝鸡市,竹园沟,,29,,30,20,19,37,,,,18,20,6,6,0.5,0.5
2024-10-21T0200,1932A,107.1906,34.3672,宝鸡市,三陆医院,,45,,29,31,24,39,,,,17,23,5,5,0.5,0.5
2024-10-21T0200,1933A,107.1431,34.3547,宝鸡市,监测站,,42,,31,29,21,41,,,,18,22,6,7,0.6,0.6
2024-10-21T0200,1934A,107.1186,34.3739,宝鸡市,技工学校,,38,27,31,26,25,36,,,,25,27,6,6,0.5,0.5
2024-10-21T0200,1935A,107.3906,34.3528,宝鸡市,陈仓区环保局家属楼,,48,,28,33,24,39,,,,21,25,8,8,0.4,0.4
2024-10-21T0200,1936A,107.2058,34.3497,宝鸡市,文理学院,,28,22,31,19,14,39,,,,16,20,8,8,0.5,0.4
2024-10-21T0200,1937A,107.2386,34.3622,宝鸡市,三迪小学,,40,,28,28,20,42,,,,19,28,7,7,0.6,0.5
2024-10-21T0200,1051A,115.493,38.8632,保定市,游泳馆,,40,40,41,23,16,8,,,,36,26,2,2,0.5,0.5
2024-10-21T0200,1052A,115.5213,38.8959,保定市,华电二区,,48,40,37,33,24,23,,,,28,29,4,6,0.6,0.6
2024-10-21T0200,1053A,115.4713,38.9108,保定市,接待中心,,34,34,41,22,16,10,,,,41,32,3,4,0.3,0.3
2024-10-21T0200,1054A,115.4612,38.8416,保定市,地表水厂,,43,43,40,25,23,0,,,,42,36,3,4,0.2,0.2
2024-10-21T0200,3581A,115.31981,38.95208,保定市,满城区生态环境分局,,36,36,38,19,14,3,,,,41,31,2,3,0.7,0.4
2024-10-21T0200,3582A,115.47694,38.76408,保定市,清苑区第二中学,,45,45,41,25,18,6,,,,43,40,5,6,0.5,0.5
2024-10-21T0200,3583A,115.62909,39.02311,保定市,徐水物探局,,29,29,30,17,12,1,,,,46,37,2,2,0.5,0.5
2024-10-21T0200,4004A,115.4202,38.8656,保定市,双鹰农机,颗粒物(PM10),52,53,46,31,26,0,,,,44,37,3,2,0.5,0.5
2024-10-21T0200,4034A,115.5150,38.8590,保定市,植保所站,细颗粒物(PM2.5),54,47,46,38,25,12,,,,32,26,7,8,1.0,0.7
2024-10-21T0200,2594A,99.1678,25.1081,保山市,市环境监测站,,27,27,37,15,22,22,,,,14,10,5,5,0.5,0.6
2024-10-21T0200,2595A,99.1711,25.1328,保山市,市环保局,,28,28,39,18,21,30,,,,6,9,4,5,0.5,0.5
2024-10-21T0200,1866A,109.2262,21.588,北海市,牛尾岭水库,,,29,27,15,17,23,,,,,7,5,6,0.7,0.7
2024-10-21T0200,1867A,109.1436,21.4086,北海市,海滩公园,,36,36,35,10,13,55,,,,14,9,13,10,0.8,0.7
2024-10-21T0200,1868A,109.0981,21.4661,北海市,新市环保局,,41,41,34,14,19,58,,,,14,13,14,8,0.7,0.7
2024-10-21T0200,1869A,109.1778,21.5233,北海市,北海工业园,,38,38,43,20,26,50,,,,13,15,20,13,0.7,0.7
2024-10-21T0200,3400A,109.1911,21.4415,北海市,龙潭自来水厂,,38,36,34,26,21,41,,,,14,11,17,10,0.6,0.6
2024-10-21T0200,1001A,116.3621,39.8784,北京市,万寿西宫,,39,39,41,23,18,12,,,,33,36,2,4,0.4,0.4
2024-10-21T0200,1002A,116.2202,40.2915,北京市,定陵,,42,42,30,22,14,0,,,,13,22,1,3,0.3,0.3
2024-10-21T0200,1003A,116.4174,39.9289,北京市,东四,,39,39,40,22,17,19,,,,21,27,1,4,0.5,0.5
2024-10-21T0200,1004A,116.4072,39.8863,北京市,天坛,,32,31,30,22,17,1,,,,17,26,3,3,0.4,0.4
2024-10-21T0200,1005A,116.462,39.9365,北京市,农展馆,,41,41,41,23,18,19,,,,25,30,3,7,0.4,0.5
2024-10-21T0200,1006A,116.3392,39.9295,北京市,官园,,38,38,41,10,24,11,,,,32,35,4,6,0.5,0.4
2024-10-21T0200,1007A,116.2878,39.9611,北京市,海淀万柳,,43,43,38,22,15,10,,,,40,34,3,4,0.6,0.5
2024-10-21T0200,1008A,116.6636,40.135,北京市,顺义新城,,48,48,35,24,14,4,,,,41,25,1,3,0.4,0.3
2024-10-21T0200,1009A,116.6275,40.3275,北京市,怀柔镇,,38,38,25,21,12,18,,,,31,22,1,2,0.6,0.5
2024-10-21T0200,1010A,116.2296,40.217,北京市,昌平镇,,48,48,37,25,15,5,,,,32,25,4,5,0.5,0.4
2024-10-21T0200,1011A,116.3966,39.9821,北京市,奥体中心,,39,39,38,23,17,20,,,,29,34,3,4,0.5,0.5
2024-10-21T0200,1012A,116.184,39.9136,北京市,古城,颗粒物(PM10),51,51,48,26,19,0,,,,44,34,4,4,0.4,0.3
2024-10-21T0200,3281A,115.9718,40.4529,北京市,延庆夏都,,46,46,30,26,15,19,,,,19,18,3,2,0.4,0.3
2024-10-21T0200,3417A,117.0709,40.1465,北京市,平谷新城,,34,34,25,19,12,15,,,,18,16,3,2,0.5,0.4
2024-10-21T0200,3418A,116.8336,40.4095,北京市,密云新城,,37,37,33,20,13,15,,,,18,21,1,2,0.4,0.3
2024-10-21T0200,3671A,116.088,39.9726,北京市,门头沟三家店,,32,32,30,19,14,1,,,,26,30,4,4,0.3,0.3
2024-10-21T0200,3672A,116.1541,39.8204,北京市,丰台云岗,,45,45,40,26,18,1,,,,39,33,2,2,0.4,0.4
2024-10-21T0200,3673A,116.6804,39.9081,北京市,通州东关,,42,42,42,24,18,5,,,,45,33,2,4,0.4,0.4
2024-10-21T0200,3674A,115.9577,39.7603,北京市,房山燕山,,33,27,33,23,17,15,,,,8,21,1,2,0.3,0.3
2024-10-21T0200,3675A,116.4672,39.7733,北京市,大兴旧宫,,32,32,31,21,16,2,,,,34,28,3,2,0.4,0.5
2024-10-21T0200,3694A,115.986,40.4563,北京市,延庆石河营,,41,41,27,27,14,12,,,,16,16,3,2,0.3,0.3
2024-10-21T0200,3695A,116.6151,40.3053,北京市,怀柔新城,,43,43,29,22,14,12,,,,26,19,1,2,0.4,0.3
2024-10-21T0200,3696A,116.2545,39.8768,北京市,丰台小屯,,41,41,42,22,16,1,,,,38,38,1,2,0.6,0.7
2024-10-21T0200,3697A,116.84,40.3844,北京市,密云镇,,37,37,29,19,12,3,,,,39,22,3,5,0.4,0.4
2024-10-21T0200,1761A,123.8275,41.3064,本溪市,大峪,,23,22,26,11,12,71,,,,6,14,11,11,0.9,0.9
2024-10-21T0200,1762A,123.7567,41.3325,本溪市,溪湖,,34,34,32,13,15,58,,,,13,19,13,12,0.7,0.7
2024-10-21T0200,1763A,123.7169,41.3094,本溪市,彩屯,,44,44,41,21,22,40,,,,29,32,17,17,2.0,1.5
2024-10-21T0200,1764A,123.7669,41.2864,本溪市,东明,,35,35,35,14,14,64,,,,12,21,6,7,0.4,0.5
2024-10-21T0200,1765A,123.7992,41.2664,本溪市,新立屯,,27,27,28,9,10,68,,,,10,19,6,6,0.3,0.4
2024-10-21T0200,1766A,123.8142,41.3472,本溪市,威宁,,34,34,43,11,12,63,,,,10,18,8,9,0.5,0.5
2024-10-21T0200,2587A,105.2864,27.3125,毕节市,八中,,14,14,21,8,16,38,,,,8,11,5,7,0.6,0.5
2024-10-21T0200,2588A,105.31,27.2944,毕节市,师专,,22,18,24,15,17,38,,,,6,9,5,7,0.5,0.5
2024-10-21T0200,3537A,105.3631,27.3533,毕节市,长征村,,20,19,28,14,23,41,,,,6,8,6,8,0.6,0.5
2024-10-21T0200,1629A,118.0018,37.3617,滨州市,第二水厂,,22,22,26,9,8,17,,,,37,27,6,7,0.3,0.3
2024-10-21T0200,1630A,117.9776,37.393,滨州市,北中新校,,24,24,29,3,8,14,,,,28,28,3,4,0.7,0.6
2024-10-21T0200,3514A,117.9378,37.3956,滨州市,中海酒店,,19,19,27,12,14,23,,,,32,31,4,5,0.6,0.5
2024-10-21T0200,3515A,117.9378,37.3553,滨州市,开发区一中,,22,22,31,12,10,36,,,,27,26,4,4,0.7,0.7
2024-10-21T0200,3516A,118.0917,37.694,滨州市,金海六路,,21,19,19,9,5,4,,,,42,22,11,6,0.6,0.3
2024-10-21T0200,4028A,117.9956,37.3753,滨州市,滨州市西街道办事处,,25,17,24,17,12,10,,,,36,29,7,8,0.4,0.3
2024-10-21T0200,2311A,115.8072,33.8399,亳州市,污水处理厂,颗粒物(PM10),51,51,42,27,20,24,,,,19,14,5,5,0.3,0.3
2024-10-21T0200,2312A,115.7789,33.8518,亳州市,三国揽胜宫,颗粒物(PM10),52,54,45,28,17,24,,,,25,20,4,4,0.3,0.2
2024-10-21T0200,3332A,115.7633,33.8034,亳州市,亳州学院,颗粒物(PM10),56,62,50,32,18,27,,,,25,18,3,4,0.4,0.3
2024-10-21T0200,2693A,82.0485,44.8556,博尔塔拉蒙古自治州,市党校,,35,35,32,20,16,10,,,,21,10,4,5,0.3,0.3
2024-10-21T0200,2694A,82.0806,44.8969,博尔塔拉蒙古自治州,市环保局,颗粒物(PM10),58,65,39,21,14,15,,,,20,16,4,3,0.7,0.3
2024-10-21T0200,1071A,116.8842,38.2991,沧州市,沧县城建局,,45,45,41,30,17,13,,,,35,33,5,5,0.7,0.5
2024-10-21T0200,1072A,116.8584,38.3254,沧州市,电视转播站,,39,38,39,27,15,13,,,,36,33,3,4,0.7,0.5
2024-10-21T0200,1073A,116.8709,38.3228,沧州市,市环保局,,40,40,46,25,25,12,,,,32,30,8,3,0.7,0.6
2024-10-21T0200,3324A,116.8136,38.3004,沧州市,河北水利电力学院,,48,34,32,33,22,13,,,,40,36,7,6,0.6,0.5
2024-10-21T0200,2622A,97.1806,31.1273,昌都市,昌都监测站,,20,20,27,13,15,40,,,,7,9,8,8,0.4,0.5
2024-10-21T0200,3719A,97.1714,31.1406,昌都市,昌都会议中心,,24,24,28,9,10,48,,,,3,7,8,8,0.5,0.5
2024-10-21T0200,2690A,88.1236,43.8886,昌吉回族自治州,天山天池,,23,,4,3,4,71,,,,2,3,3,2,0.5,0.5
2024-10-21T0200,2692A,87.2717,44.0297,昌吉回族自治州,新区政务中心,,39,28,25,27,19,4,,,,47,28,5,6,3.2,1
2024-10-21T0200,3613A,87.3095,44.0142,昌吉回族自治州,亚心广场,,44,44,22,29,12,10,,,,56,31,8,3,3.6,1
2024-10-21T0200,1119A,125.3325,43.9166,长春市,食品厂,,45,42,40,31,21,51,,,,16,28,7,11,0.3,0.3
2024-10-21T0200,1120A,125.2863,43.9027,长春市,客车厂,细颗粒物(PM2.5),53,52,37,37,21,46,,,,18,26,10,13,0.4,0.4
2024-10-21T0200,1121A,125.2841,43.8463,长春市,邮电学院,颗粒物(PM10),54,57,40,31,20,50,,,,19,25,9,8,0.3,0.3
2024-10-21T0200,1122A,125.3716,43.8772,长春市,劳动公园,,39,39,43,21,21,62,,,,15,29,8,9,0.4,0.5
2024-10-21T0200,1123A,125.3297,43.8805,长春市,园林处,,46,46,42,24,18,49,,,,17,23,13,9,0.4,0.5
2024-10-21T0200,1124A,125.4605,43.79,长春市,净月潭,,43,43,28,24,13,53,,,,14,14,7,7,0.5,0.4
2024-10-21T0200,1125A,125.7194,43.515,长春市,甩湾子,,,,,,,,,,,,,,,,
2024-10-21T0200,1126A,125.3863,43.8447,长春市,经开区环卫处,,43,43,39,18,16,56,,,,14,26,10,9,0.4,0.4
2024-10-21T0200,1127A,125.245,43.7783,长春市,高新区管委会,,40,40,38,26,22,47,,,,16,21,9,8,0.6,0.5
2024-10-21T0200,1128A,125.1761,43.8325,长春市,岱山公园,,49,49,44,27,22,42,,,,20,29,7,7,0.5,0.5
2024-10-21T0200,1335A,113.0833,28.2325,长沙市,经开区环保局,,45,32,51,31,21,21,,,,18,22,3,3,0.3,0.3
2024-10-21T0200,1336A,112.8872,28.2189,长沙市,高开区环保局,,48,,48,33,25,23,,,,11,12,3,4,0.5,0.5
2024-10-21T0200,1337A,113.0792,28.2053,长沙市,马坡岭,细颗粒物(PM2.5),52,,48,36,26,25,,,,14,16,4,4,0.5,0.5
2024-10-21T0200,1338A,112.9394,28.19,长沙市,湖南师范大学,,43,35,56,30,26,24,,,,19,16,3,3,0.2,0.3
2024-10-21T0200,1339A,113.0178,28.1322,长沙市,雨花区环保局,,49,49,52,30,28,22,,,,18,18,4,4,0.3,0.4
2024-10-21T0200,1340A,112.9792,28.2597,长沙市,伍家岭,,40,,52,28,18,21,,,,14,14,3,3,0.4,0.4
2024-10-21T0200,1341A,113.0014,28.1944,长沙市,火车新站,,39,36,52,27,26,23,,,,12,14,4,4,0.6,0.6
2024-10-21T0200,1342A,112.9844,28.1178,长沙市,天心区环保局,,44,44,57,25,27,16,,,,20,18,2,2,0.2,0.3
2024-10-21T0200,1343A,112.8908,28.1308,长沙市,湖南中医药大学,,49,,56,34,31,24,,,,12,12,5,5,0.8,0.8
2024-10-21T0200,1344A,112.9581,28.3611,长沙市,沙坪,,44,44,38,29,17,21,,,,17,16,7,7,0.4,0.4
2024-10-21T0200,1727A,113.1147,36.1547,长治市,清华站,,42,32,21,29,13,35,,,,20,23,6,7,0.8,0.5
2024-10-21T0200,1728A,113.1031,36.1989,长治市,监测站,,42,39,24,29,15,16,,,,29,19,10,10,1.0,0.7
2024-10-21T0200,1730A,113.0886,36.2125,长治市,审计局,,45,,21,31,17,16,,,,26,15,5,6,0.8,0.5
2024-10-21T0200,1731A,113.0844,36.1856,长治市,长治八中,,37,37,23,24,11,22,,,,32,25,5,6,1.4,0.9
2024-10-21T0200,2845A,113.1569,36.1911,长治市,德盛苑,细颗粒物(PM2.5),52,39,20,36,14,13,,,,37,21,5,4,1.1,0.6
2024-10-21T0200,3568A,113.06,36.0464,长治市,向阳小学,细颗粒物(PM2.5),67,64,45,48,25,38,,,,21,24,6,8,0.9,0.7
2024-10-21T0200,3569A,112.8792,36.3144,长治市,屯留一中,,28,22,27,19,14,44,,,,10,23,10,14,1.0,1.1
2024-10-21T0200,3570A,113.235,36.3489,长治市,潞城四中,细颗粒物(PM2.5),67,60,30,48,19,22,,,,31,21,14,8,1.4,0.9
2024-10-21T0200,1854A,111.6975,28.9703,常德市,市二中,,10,10,54,6,22,24,,,,18,15,3,3,0.4,0.4
2024-10-21T0200,1857A,111.7158,29.1456,常德市,白鹤山,,,,,,,,,,,,,,,,
2024-10-21T0200,3138A,111.7153,29.0289,常德市,武陵区永安,,11,11,40,3,19,23,,,,19,17,4,4,0.3,0.3
2024-10-21T0200,3139A,111.6892,28.9881,常德市,鼎城区玉霞,,9,7,50,3,20,26,,,,17,15,5,5,0.6,0.5
2024-10-21T0200,3140A,111.6625,29.0531,常德市,武陵区长庚,,11,6,45,6,19,23,,,,21,18,2,3,0.5,0.5
2024-10-21T0200,1196A,119.9633,31.762,常州市,市监测站,,15,15,43,8,15,41,,,,6,9,7,8,0.4,0.4
2024-10-21T0200,1200A,119.9468,31.7069,常州市,武进监测站,,28,28,36,3,12,42,,,,7,10,12,11,0.4,0.3
2024-10-21T0200,1201A,119.9255,31.9087,常州市,安家,,19,19,40,3,15,44,,,,14,18,6,8,0.4,0.4
2024-10-21T0200,3002A,119.9805,31.8174,常州市,行政中心,,19,19,38,7,13,42,,,,12,14,4,4,0.2,0.3
2024-10-21T0200,3003A,120.0522,31.7748,常州市,经开区,,16,16,39,3,13,42,,,,16,20,6,7,0.1,0.1
2024-10-21T0200,3010A,119.9025,31.7964,常州市,钟楼,,26,26,40,7,16,35,,,,20,20,5,7,0.4,0.4
2024-10-21T0200,3429A,119.8598,31.7066,常州市,武进经发区,,19,19,42,10,16,45,,,,11,19,5,6,0.6,0.5
2024-10-21T0200,3430A,119.5826,31.7245,常州市,金坛城区,,18,18,38,11,15,51,,,,9,14,6,7,0.6,0.6
2024-10-21T0200,2220A,120.4318,41.5881,朝阳市,西梁,,28,28,33,11,16,52,,,,16,18,7,4,1.0,0.7
2024-10-21T0200,2221A,120.4521,41.5646,朝阳市,河畔小区,,20,14,24,10,11,63,,,,10,16,9,11,1.1,1
2024-10-21T0200,2222A,120.4176,41.5648,朝阳市,八里堡,,20,19,41,12,25,42,,,,29,18,25,14,2.0,0.9
2024-10-21T0200,2223A,120.3806,41.5969,朝阳市,农业园区,,20,20,33,14,19,50,,,,12,21,5,7,1.1,0.8
2024-10-21T0200,1705A,116.6367,23.6719,潮州市,西园路,,32,32,29,11,13,60,,,,10,9,5,6,0.6,0.6
2024-10-21T0200,3026A,116.6183,23.6608,潮州市,市政府,,28,28,28,13,12,66,,,,12,11,7,8,0.5,0.5
2024-10-21T0200,4036A,116.6461,23.6761,潮州市,金山,,23,23,31,9,7,60,,,,11,10,9,10,0.5,0.5
2024-10-21T0200,2472A,113.0073,25.9061,郴州市,马头岭,,22,22,36,12,14,22,,,,13,11,7,7,0.5,0.4
2024-10-21T0200,2473A,113.0116,25.8226,郴州市,市职中,,30,25,28,21,22,20,,,,13,13,5,5,0.6,0.6
2024-10-21T0200,2474A,113.0161,25.8001,郴州市,兴隆步行街,,25,23,33,17,20,25,,,,16,15,4,4,0.6,0.6
2024-10-21T0200,2475A,113.0383,25.8071,郴州市,市审计局,,25,25,30,17,22,15,,,,12,12,3,3,0.7,0.7
2024-10-21T0200,2476A,113.0348,25.7759,郴州市,市环保局,,25,19,31,17,23,18,,,,10,10,5,5,0.7,0.7
2024-10-21T0200,1431A,103.9728,30.7236,成都市,金泉两河,,13,13,13,3,5,12,,,,21,17,2,2,0.6,0.6
2024-10-21T0200,1432A,104.176,30.6872,成都市,十里店,,14,,4,9,4,21,,,,28,17,1,1,0.6,0.6
2024-10-21T0200,1433A,104.079,30.5706,成都市,三瓦窑,,15,9,10,3,7,22,,,,29,14,3,2,0.4,0.4
2024-10-21T0200,1434A,104.1114,30.63,成都市,沙河铺,,16,16,13,3,6,16,,,,19,15,4,3,0.6,0.5
2024-10-21T0200,1437A,104.0786,30.6531,成都市,君平街,,16,,8,11,5,28,,,,22,17,4,4,0.5,0.5
2024-10-21T0200,1438A,103.613,31.0283,成都市,灵岩寺,,,,,,,,,,,,,,,,
2024-10-21T0200,2880A,104.0239,30.65639,成都市,大石西路,,23,23,14,13,7,19,,,,17,12,2,2,0.6,0.6
2024-10-21T0200,3136A,104.2725,30.5589,成都市,龙泉驿区区政府,,9,7,4,3,2,28,,,,7,7,2,2,0.7,0.7
2024-10-21T0200,3357A,104.0106,30.6931,成都市,金博路,,12,7,6,3,3,12,,,,24,18,1,1,0.5,0.5
2024-10-21T0200,3359A,104.0578,30.5225,成都市,华阳,,9,9,8,3,5,28,,,,15,14,1,1,0.5,0.5
2024-10-21T0200,3487A,104.2394,30.5319,成都市,车城东七路,,15,14,11,10,7,35,,,,14,14,1,1,0.8,0.7
2024-10-21T0200,3488A,104.3853,30.7453,成都市,青白江技师分院,,11,6,6,3,3,10,,,,22,16,2,2,0.6,0.7
2024-10-21T0200,3489A,104.0789,30.4072,成都市,科学城,,18,17,11,12,8,26,,,,17,12,2,2,0.6,0.6
2024-10-21T0200,4011A,103.8506,30.6947,成都市,光华大道三段,,10,10,8,3,4,21,,,,18,15,4,4,0.5,0.5
2024-10-21T0200,1062A,117.9531,40.9081,承德市,铁路,,18,18,21,3,7,28,,,,27,26,4,5,0.3,0.4
2024-10-21T0200,1063A,117.9392,40.9763,承德市,中国银行,,31,31,27,16,8,43,,,,21,23,10,15,0.4,0.5
2024-10-21T0200,1064A,117.9503,40.928,承德市,开发区,,30,30,35,16,14,41,,,,22,21,7,7,0.4,0.3
2024-10-21T0200,1065A,117.8051,40.9655,承德市,文化中心,,37,37,37,15,8,34,,,,18,19,23,20,0.6,0.5
2024-10-21T0200,1066A,117.9268,41.0026,承德市,离宫,,45,,23,31,22,36,,,,12,14,6,9,0.5,0.4
2024-10-21T0200,2314A,117.47,30.6618,池州市,池州学院,,48,48,39,20,16,28,,,,36,20,8,8,0.4,0.3
2024-10-21T0200,3237A,117.4918,30.6617,池州市,展览馆,,47,47,39,22,17,38,,,,29,20,6,8,0.4,0.4
2024-10-21T0200,3333A,117.5627,30.695,池州市,第八中学,颗粒物(PM10),53,55,40,25,17,26,,,,37,21,5,5,0.5,0.4
2024-10-21T0200,3334A,117.5038,30.6243,池州市,第十二中学,,36,36,37,18,15,3,,,,37,22,4,4,0.5,0.4
2024-10-21T0200,1744A,118.9233,42.2816,赤峰市,松山一中,,35,35,37,10,16,54,,,,14,27,9,17,0.5,0.6
2024-10-21T0200,1745A,118.9576,42.2728,赤峰市,哈达街,,43,,33,30,18,59,,,,12,19,4,11,0.6,0.7
2024-10-21T0200,1746A,118.8788,42.2554,赤峰市,天义路,,26,26,27,16,14,58,,,,14,20,6,9,0.3,0.3
2024-10-21T0200,3058A,119.2658,42.0353,赤峰市,银河街,,30,,47,21,22,58,,,,14,20,22,22,0.4,0.6
2024-10-21T0200,3286A,118.9359,42.3147,赤峰市,桥北物流园区,,33,,27,23,23,60,,,,13,29,7,18,0.4,1
2024-10-21T0200,2521A,107.3476,22.4136,崇左市,市环保局江州分局,,41,41,35,23,18,89,,,,7,10,5,4,0.8,0.7
2024-10-21T0200,2522A,107.3702,22.3707,崇左市,城南新区,,38,38,27,22,16,91,,,,6,6,7,5,0.8,0.7
2024-10-21T0200,2298A,118.3093,32.3153,滁州市,老年大学,,40,40,37,17,14,41,,,,20,12,3,3,0.3,0.3
2024-10-21T0200,2299A,118.3244,32.2786,滁州市,人大宾馆,颗粒物(PM10),51,51,39,20,13,58,,,,18,14,7,7,0.3,0.3
2024-10-21T0200,3207A,118.3118,32.3038,滁州市,市政府原办公楼,,49,49,38,23,17,43,,,,22,14,6,7,0.3,0.3
2024-10-21T0200,3331A,118.3267,32.2634,滁州市,图书馆,,46,46,37,19,11,58,,,,19,12,4,5,0.3,0.3
2024-10-21T0200,2605A,101.5482,25.0441,楚雄彝族自治州,州环境监测站,,22,16,19,15,18,36,,,,16,10,11,11,0.6,0.6
2024-10-21T0200,2606A,101.538,25.0492,楚雄彝族自治州,市经济开发区,,22,22,19,14,15,28,,,,27,12,11,8,0.6,0.6
2024-10-21T0200,2548A,107.5277,31.2827,达州市,达州职业技术学院,,18,18,11,7,5,15,,,,16,22,8,4,0.7,0.7
2024-10-21T0200,2549A,107.5086,31.2186,达州市,市环境监测站,,18,18,11,3,1,23,,,,15,19,11,4,0.3,0.4
2024-10-21T0200,2550A,107.4988,31.2132,达州市,凤凰小区,,9,7,5,3,1,26,,,,17,18,13,6,0.4,0.4
2024-10-21T0200,2551A,107.5082,31.1986,达州市,达县机关宾馆,,13,12,10,3,6,9,,,,25,27,9,4,0.4,0.5
2024-10-21T0200,2552A,107.4644,31.2124,达州市,市政中心,,15,15,13,3,0,24,,,,15,19,10,4,0.4,0.4
2024-10-21T0200,2614A,100.1542,25.7054,大理白族自治州,大理市环境监测站,,18,16,23,12,15,51,,,,4,7,7,7,0.4,0.4
2024-10-21T0200,2615A,100.2171,25.5811,大理白族自治州,大理古城,,15,15,24,7,17,38,,,,11,13,7,7,0.4,0.5
2024-10-21T0200,1109A,121.612,38.9741,大连市,甘井子,,33,33,39,16,17,48,,,,15,29,6,7,0.5,0.5
2024-10-21T0200,1110A,121.565,38.9511,大连市,周水子,,39,39,42,17,21,42,,,,16,36,7,10,0.9,1.1
2024-10-21T0200,1111A,121.5637,38.8845,大连市,星海三站,,35,35,38,14,15,51,,,,8,21,6,8,0.4,0.5
2024-10-21T0200,1112A,121.6302,38.9117,大连市,青泥洼桥,,38,38,37,16,15,45,,,,12,25,7,9,0.4,0.4
2024-10-21T0200,1113A,121.6251,38.8638,大连市,傅家庄,,38,38,36,17,14,40,,,,15,18,7,9,0.5,0.6
2024-10-21T0200,1114A,121.5213,38.8661,大连市,七贤岭,颗粒物(PM10),59,68,58,17,15,54,,,,10,20,6,8,0.4,0.5
2024-10-21T0200,1115A,121.2529,38.8061,大连市,旅顺,,21,19,39,13,20,66,,,,12,24,6,8,0.5,0.6
2024-10-21T0200,1116A,121.7485,39.1311,大连市,金州,,37,37,38,19,18,33,,,,26,22,4,5,0.7,0.7
2024-10-21T0200,1117A,121.7811,39.0496,大连市,开发区,,31,31,33,17,14,43,,,,17,16,15,17,0.4,0.4
2024-10-21T0200,1118A,121.9762,39.0631,大连市,双D港,,28,24,22,19,10,50,,,,15,11,8,9,0.7,0.6
2024-10-21T0200,1789A,124.81117,46.03138,大庆市,大同区,颗粒物(PM10),61,72,38,30,20,44,,,,15,13,6,3,0.6,0.4
2024-10-21T0200,1790A,125.129,46.533,大庆市,龙凤区,,39,39,43,25,17,39,,,,18,19,5,4,0.5,0.3
2024-10-21T0200,1791A,124.902,46.408,大庆市,红岗区,,44,44,30,20,12,46,,,,15,12,7,6,0.5,0.3
2024-10-21T0200,1792A,125.153,46.586,大庆市,萨尔图区,颗粒物(PM10),52,54,36,21,12,41,,,,16,15,8,7,0.3,0.2
2024-10-21T0200,1793A,124.9042,46.6215,大庆市,让胡路区,,46,46,29,28,18,46,,,,13,12,6,5,0.4,0.2
2024-10-21T0200,3481A,125.141,46.634,大庆市,萨区政府监测点,,34,34,23,22,10,42,,,,16,14,6,7,0.5,0.4
2024-10-21T0200,1721A,113.3819,40.1097,大同市,果树场,,20,20,18,7,10,29,,,,17,22,7,7,0.7,0.6
2024-10-21T0200,1723A,113.2994,40.0758,大同市,云冈宾馆,,40,40,29,22,14,25,,,,32,29,10,9,0.6,0.5
2024-10-21T0200,1724A,113.3444,40.0917,大同市,大同大学,,35,26,20,24,15,24,,,,32,21,16,13,0.6,0.5
2024-10-21T0200,1725A,113.2661,40.1269,大同市,安家小村,,41,41,28,23,14,22,,,,25,23,12,12,0.5,0.4
2024-10-21T0200,1726A,113.2711,40.0844,大同市,教育学院,,46,46,32,14,13,19,,,,32,28,10,8,0.6,0.5
2024-10-21T0200,3282A,113.3397,40.0597,大同市,大同市卫生学校,,33,33,24,18,13,30,,,,24,23,12,9,0.4,0.5
2024-10-21T0200,3565A,113.1367,40.1122,大同市,云冈站,,50,50,48,32,20,24,,,,27,29,9,9,0.6,0.5
2024-10-21T0200,3566A,113.1186,40.2556,大同市,图书馆,,46,46,36,28,20,15,,,,32,31,13,13,0.7,0.6
2024-10-21T0200,3567A,113.5931,40.0461,大同市,区一中,,21,21,19,8,5,29,,,,20,19,18,18,0.5,0.5
2024-10-21T0200,3676A,113.2802,40.0995,大同市,第二人民医院,,45,45,28,24,15,19,,,,33,23,12,11,0.8,0.6
2024-10-21T0200,2269A,124.1069,50.4097,大兴安岭地区,科技局,颗粒物(PM10),56,62,46,24,33,45,,,,9,12,8,9,0.5,0.5
2024-10-21T0200,3663A,124.1164,50.4278,大兴安岭地区,红旗社区,颗粒物(PM10),60,70,44,17,21,42,,,,9,15,1,3,0.5,0.6
2024-10-21T0200,1600A,124.3303,40.0625,丹东市,江湾东路,,28,28,30,6,16,55,,,,3,11,9,10,0.3,0.4
2024-10-21T0200,1601A,124.4256,40.1503,丹东市,临江后街,,20,17,41,8,20,63,,,,2,15,8,8,0.5,0.6
2024-10-21T0200,1602A,124.3933,40.1461,丹东市,元宝山,,27,27,30,13,12,57,,,,5,13,6,6,0.8,1
2024-10-21T0200,1603A,124.3633,40.1092,丹东市,民主桥,,37,37,34,8,12,56,,,,4,15,9,8,0.5,0.7
2024-10-21T0200,3541A,109.5726,19.5167,儋州市,第一中学子站,,24,24,25,10,13,66,,,,1,2,4,4,0.4,0.4
2024-10-21T0200,3542A,109.5567,19.5187,儋州市,东坡学校子站,,25,25,21,8,12,72,,,,2,3,6,4,0.4,0.4
2024-10-21T0200,2616A,98.5842,24.428,德宏傣族景颇族自治州,德宏州监测站,,43,43,45,26,30,12,,,,22,20,9,14,0.7,0.7
2024-10-21T0200,3677A,98.5881,24.4368,德宏傣族景颇族自治州,芒市人民政府综合楼,,32,32,44,20,28,18,,,,10,13,4,9,0.5,0.5
2024-10-21T0200,1901A,104.4239,31.1208,德阳市,东山公园,,13,13,13,3,5,41,,,,6,7,2,2,0.5,0.5
2024-10-21T0200,1902A,104.3826,31.1317,德阳市,西小区,,17,17,15,6,6,47,,,,8,9,1,2,0.5,0.6
2024-10-21T0200,1904A,104.3553,31.1091,德阳市,耐火材料厂,,13,6,8,3,6,41,,,,7,10,2,2,0.4,0.5
2024-10-21T0200,3639A,104.4019,31.1244,德阳市,市教育局,,13,8,8,3,5,39,,,,12,10,1,1,0.6,0.6
2024-10-21T0200,1622A,116.3032,37.4674,德州市,儿童乐园,,31,31,34,17,13,18,,,,33,32,8,11,0.5,0.5
2024-10-21T0200,1624A,116.2991,37.4451,德州市,监理站,,28,27,30,19,13,27,,,,26,26,8,11,0.4,0.5
2024-10-21T0200,3066A,116.2721,37.4379,德州市,九衢泉纯净水厂,,29,29,30,17,14,21,,,,31,32,8,11,0.5,0.6
2024-10-21T0200,3371A,116.3728,37.4403,德州市,开发区人民医院,,27,27,33,17,13,21,,,,30,33,6,9,0.5,0.5
2024-10-21T0200,3372A,116.3572,37.4094,德州市,太阳城中学,,29,29,33,19,13,23,,,,35,35,10,12,0.6,0.7
2024-10-21T0200,3511A,116.5652,37.3319,德州市,陵城艺术中心,,31,31,32,17,13,27,,,,28,27,8,10,0.4,0.5
2024-10-21T0200,2621A,99.7056,27.8317,迪庆藏族自治州,迪庆州站,,36,36,28,19,17,36,,,,16,13,18,11,0.3,0.3
2024-10-21T0200,3180A,99.7136,27.8094,迪庆藏族自治州,质量技术监督局,,28,20,21,19,14,38,,,,17,13,6,6,0.6,0.5
2024-10-21T0200,2663A,104.6241,35.5734,定西市,东关小学,,39,39,42,24,20,45,,,,17,14,10,9,0.4,0.4
2024-10-21T0200,2664A,104.6194,35.5934,定西市,供电公司,,30,30,39,13,19,55,,,,4,12,8,7,0.4,0.4
2024-10-21T0200,1389A,113.7547,23.0494,东莞市,莞城梨川,,32,32,37,18,22,52,,,,11,12,8,8,0.7,0.7
2024-10-21T0200,1390A,113.7944,23.0128,东莞市,东城石井,,30,30,35,18,22,46,,,,18,14,8,7,0.7,0.7
2024-10-21T0200,1391A,113.7383,22.9658,东莞市,南城西平,,29,29,34,16,20,34,,,,31,18,7,6,0.7,0.7
2024-10-21T0200,3319A,113.7338,23.0381,东莞市,万江金泰,,30,30,39,17,21,47,,,,11,11,9,9,0.6,0.6
2024-10-21T0200,3626A,113.7533,23.0202,东莞市,南城元岭,,31,31,35,19,21,47,,,,8,8,8,8,0.7,0.8
2024-10-21T0200,3627A,113.7875,23.0457,东莞市,东城主山,,28,27,35,19,23,48,,,,15,14,9,8,0.6,0.6
2024-10-21T0200,1666A,118.6614,37.4309,东营市,市环保局,,18,9,23,7,7,55,,,,15,20,2,4,0.3,0.3
2024-10-21T0200,3036A,118.6904,37.4338,东营市,开发区管委会,,26,26,28,9,8,62,,,,12,12,3,3,0.2,0.2
2024-10-21T0200,3365A,118.5719,37.565,东营市,垦利区民丰路,,15,14,19,7,5,46,,,,13,13,5,4,0.4,0.4
2024-10-21T0200,3498A,118.5055,37.8612,东营市,河口城区,,,,25,,6,,,66,,,11,,4,,0.4
2024-10-21T0200,3646A,118.4978,37.4623,东营市,胜利站,,27,27,27,14,8,39,,,,20,20,9,8,0.6,0.5
2024-10-21T0200,3734A,118.35,37.26,东营市,理想之城,,24,24,24,12,11,48,,,,21,22,2,2,0.3,0.3
2024-10-21T0200,1591A,110.0023,39.8129,鄂尔多斯市,综合楼,,13,9,20,3,12,40,,,,16,16,7,7,0.6,0.6
2024-10-21T0200,1592A,109.9486,39.8261,鄂尔多斯市,巴音孟克林场办事处,,12,12,26,7,18,34,,,,18,19,7,7,0.6,0.6
2024-10-21T0200,1593A,109.7736,39.5986,鄂尔多斯市,康泽苑,,28,22,31,19,21,44,,,,12,13,6,6,0.5,0.5
2024-10-21T0200,1594A,109.8119,39.5989,鄂尔多斯市,华泰汽车城,,25,24,30,17,23,46,,,,8,11,6,6,0.6,0.6
2024-10-21T0200,1595A,109.9734,39.7884,鄂尔多斯市,奥林花园,,17,17,25,7,16,35,,,,16,16,5,5,0.7,0.7
2024-10-21T0200,2436A,114.8938,30.3994,鄂州市,市政府,,18,16,27,12,13,26,,,,24,21,10,10,0.7,0.7
2024-10-21T0200,2437A,114.8989,30.3714,鄂州市,赵家坝,,28,28,29,6,12,31,,,,18,17,9,9,0.4,0.4
2024-10-21T0200,3654A,114.8094,30.4089,鄂州市,精准医疗中心,,13,13,28,7,12,33,,,,15,15,6,7,0.7,0.6
2024-10-21T0200,2454A,109.4978,30.2981,恩施土家族苗族自治州,湖北民院,,14,14,17,7,6,22,,,,18,15,8,8,0.6,0.6
2024-10-21T0200,2455A,109.4707,30.2798,恩施土家族苗族自治州,州电力总公司,,9,9,10,3,6,26,,,,14,14,6,6,0.7,0.8
2024-10-21T0200,3549A,109.5061,30.3772,恩施土家族苗族自治州,龙凤新区,,15,,7,10,4,18,,,,12,12,6,6,0.8,0.8
2024-10-21T0200,2499A,108.3411,21.6158,防城港市,沙万,,22,17,29,15,17,68,,,,13,13,10,10,0.8,0.9
2024-10-21T0200,2500A,108.3514,21.7731,防城港市,防城档案局,颗粒物(PM10),51,51,53,20,21,46,,,,25,17,8,8,0.8,0.8
2024-10-21T0200,2501A,108.3506,21.6414,防城港市,大海花园,,26,20,30,18,15,80,,,,13,13,8,8,0.8,0.7
2024-10-21T0200,1371A,113.1294,23.0067,佛山市,湾梁,,27,27,36,16,20,37,,,,30,26,7,7,0.7,0.7
2024-10-21T0200,1372A,113.1083,23.0478,佛山市,华材职中,颗粒物(PM10),58,66,43,21,23,17,,,,44,35,8,8,0.6,0.6
2024-10-21T0200,1373A,113.144,23.0453,佛山市,南海气象局,,28,26,31,19,23,32,,,,22,19,8,8,0.7,0.7
2024-10-21T0200,1374A,113.2881,22.8094,佛山市,顺德苏岗,,21,21,39,12,21,35,,,,20,19,9,8,0.6,0.7
2024-10-21T0200,1376A,112.8383,22.8678,佛山市,高明孔堂,,43,43,39,24,23,20,,,,33,24,7,8,0.9,0.8
2024-10-21T0200,1377A,112.8836,23.1588,佛山市,三水监测站,,34,34,32,19,17,44,,,,24,28,8,9,0.6,0.6
2024-10-21T0200,1378A,112.867,23.185,佛山市,三水云东海,,26,24,29,18,20,27,,,,26,29,10,10,0.7,0.7
2024-10-21T0200,3625A,113.2544,22.7642,佛山市,容桂街道办,,28,24,34,19,25,35,,,,23,19,8,8,0.6,0.6
2024-10-21T0200,1280A,119.3903,26.0543,福州市,鼓山,,,,10,,6,,,73,,,3,,2,,0.4
2024-10-21T0200,1282A,119.2681,26.0504,福州市,师大,,45,45,23,20,9,102,,,,4,5,2,2,0.4,0.3
2024-10-21T0200,1283A,119.2984,26.1028,福州市,五四北路,,42,42,21,17,7,97,,,,13,14,3,3,0.5,0.4
2024-10-21T0200,1284A,119.2648,26.0768,福州市,杨桥西路,颗粒物(PM10),51,52,23,16,7,102,,,,6,7,3,3,0.5,0.5
2024-10-21T0200,1285A,119.317,26.0746,福州市,紫阳,,44,44,29,19,9,94,,,,6,17,3,3,0.5,0.4
2024-10-21T0200,3048A,119.5799,26.0936,福州市,九龙,,28,25,19,8,3,88,,,,5,3,3,3,0.1,0.1
2024-10-21T0200,3526A,119.5189,25.9664,福州市,吴航,,30,28,18,13,9,94,,,,7,7,2,1,0.2,0.2
2024-10-21T0200,1755A,123.7977,41.8491,抚顺市,望花区,,33,33,43,9,18,56,,,,15,21,8,9,0.5,0.7
2024-10-21T0200,1756A,123.9161,41.8822,抚顺市,顺城区,,26,26,40,8,15,70,,,,5,20,6,7,0.4,0.5
2024-10-21T0200,1757A,124.0436,41.8611,抚顺市,东洲区,,25,25,27,9,12,62,,,,6,10,10,10,0.6,0.4
2024-10-21T0200,1758A,123.9247,41.8642,抚顺市,新抚区,,25,25,39,7,16,70,,,,5,19,5,6,0.2,0.4
2024-10-21T0200,1759A,124.0972,41.8961,抚顺市,大伙房水库,,23,15,23,8,12,71,,,,4,8,8,7,0.4,0.4
2024-10-21T0200,1760A,123.7086,41.8391,抚顺市,沈抚新城,,34,34,42,10,20,65,,,,10,23,8,11,0.4,0.6
2024-10-21T0200,2376A,116.2127,28.0814,抚州市,桐源党溪,,41,41,38,19,14,27,,,,4,4,5,5,0.7,0.6
2024-10-21T0200,2377A,116.3544,27.9831,抚州市,市站,,46,46,31,18,11,46,,,,12,11,9,6,0.8,0.7
2024-10-21T0200,2378A,116.3565,27.963,抚州市,血防站,,47,47,32,15,11,48,,,,3,3,12,9,0.7,0.6
2024-10-21T0200,2379A,116.3564,28.0007,抚州市,采茶剧团,,45,45,30,20,13,44,,,,6,6,6,4,0.7,0.5
2024-10-21T0200,2380A,116.385,27.9647,抚州市,医学分院,,50,50,30,19,13,42,,,,8,7,4,4,0.7,0.6
2024-10-21T0200,2207A,121.6094,41.998,阜新市,工业园区,,27,27,47,12,13,51,,,,17,20,9,11,0.6,0.6
2024-10-21T0200,2208A,121.6697,42.0279,阜新市,长青街,,25,25,48,17,17,48,,,,21,23,10,21,0.5,0.7
2024-10-21T0200,2209A,121.6673,42.0705,阜新市,农业园区,,32,32,37,14,14,52,,,,17,16,10,32,0.7,0.7
2024-10-21T0200,2210A,121.6717,42.0224,阜新市,东苑,,28,,58,19,22,50,,,,19,26,15,28,0.7,0.9
2024-10-21T0200,2211A,121.6506,42.0498,阜新市,玉龙新城,,30,30,55,20,20,53,,,,17,23,9,16,0.6,1
2024-10-21T0200,2301A,115.8277,32.8929,阜阳市,市监测站,颗粒物(PM10),62,73,43,43,25,21,,,,28,22,5,6,0.4,0.4
2024-10-21T0200,2303A,115.8554,32.8605,阜阳市,开发区,颗粒物(PM10),63,75,54,39,22,22,,,,32,26,6,6,0.4,0.4
2024-10-21T0200,2875A,115.784,32.8892,阜阳市,阜阳职业技术学院,细颗粒物(PM2.5),62,59,43,44,22,19,,,,31,25,7,6,0.3,0.3
2024-10-21T0200,3468A,115.7901,32.8613,阜阳市,市规划展馆,颗粒物(PM10),52,53,40,32,21,20,,,,24,15,6,6,0.3,0.2
2024-10-21T0200,3469A,115.836,32.9183,阜阳市,枣园社区,颗粒物(PM10),52,54,40,35,22,22,,,,29,24,7,6,0.3,0.2
2024-10-21T0200,2669A,102.9099,34.9841,甘南藏族自治州,州政府,颗粒物(PM10),51,52,30,23,15,8,,,,45,27,11,10,1.0,0.7
2024-10-21T0200,3380A,102.8914,34.9617,甘南藏族自治州,甘肃民族师范学院,,25,25,23,6,14,4,,,,40,30,4,5,0.7,0.7
2024-10-21T0200,2570A,101.9603,30.0475,甘孜藏族自治州,水桥子,,12,9,13,8,6,27,,,,15,14,6,6,0.3,0.3
2024-10-21T0200,3065A,101.9533,29.9972,甘孜藏族自治州,州环保局,,11,9,13,6,5,34,,,,14,13,3,3,0.2,0.3
2024-10-21T0200,3414A,115.8347,28.932,赣江新区,桑海产业园,,48,48,37,26,18,41,,,,22,15,10,8,0.2,0.2
2024-10-21T0200,2362A,114.9017,25.9149,赣州市,通天岩,,24,24,22,8,14,39,,,,5,6,1,2,0.6,0.7
2024-10-21T0200,2363A,114.9367,25.8664,赣州市,地委,,26,,12,18,14,34,,,,10,7,5,4,1.0,1
2024-10-21T0200,2364A,114.9461,25.8481,赣州市,气象台,,35,,15,24,15,31,,,,5,6,3,5,0.7,0.7
2024-10-21T0200,2365A,114.9322,25.8333,赣州市,市图书馆,,13,,19,9,8,34,,,,8,7,4,4,0.7,0.7
2024-10-21T0200,2366A,114.8905,25.8471,赣州市,华坚鞋城,,22,22,19,10,10,34,,,,9,8,2,2,0.6,0.6
2024-10-21T0200,3109A,115.0093,25.8613,赣州市,赣县区卫计委,,18,,17,12,10,34,,,,6,8,4,6,0.5,0.5
2024-10-21T0200,2683A,106.2319,36.1417,固原市,马园,,33,33,30,15,10,48,,,,13,18,5,6,0.4,0.4
2024-10-21T0200,2684A,106.2792,36.0022,固原市,监测站,,32,23,27,22,13,47,,,,10,10,5,6,0.5,0.4
2024-10-21T0200,2685A,106.2375,36.0211,固原市,新区,,28,28,28,18,11,51,,,,7,9,4,5,0.4,0.4
2024-10-21T0200,3522A,106.2177,35.9959,固原市,原州区十五小,,,,25,,12,,,71,,,13,,7,,0.5
2024-10-21T0200,2543A,106.6308,30.5278,广安市,小平旧居,,,,,,,,,,,,,,,,
2024-10-21T0200,2544A,106.6303,30.4576,广安市,市委,,14,14,16,7,7,40,,,,9,9,4,4,0.4,0.4
2024-10-21T0200,2545A,106.6271,30.4663,广安市,友谊中学,,12,9,9,3,7,37,,,,10,11,2,2,0.7,0.6
2024-10-21T0200,2547A,106.6388,30.4551,广安市,广电花园,,12,9,8,3,6,38,,,,9,10,1,1,0.3,0.3
2024-10-21T0200,2902A,106.6351,30.4865,广安市,北辰小学,,13,10,9,3,7,39,,,,8,8,3,3,0.3,0.4
2024-10-21T0200,2523A,105.8945,32.4535,广元市,黑石坡,,16,16,13,9,7,9,,,,11,7,8,8,0.4,0.4
2024-10-21T0200,2524A,105.821,32.4444,广元市,老城,,18,18,13,12,8,38,,,,7,12,3,3,0.6,0.6
2024-10-21T0200,2526A,105.8628,32.4287,广元市,监测站,,12,12,13,6,8,37,,,,15,14,2,2,0.5,0.5
2024-10-21T0200,3617A,105.8047,32.4166,广元市,经开区,,13,12,5,3,2,40,,,,10,14,4,4,0.4,0.4
2024-10-21T0200,1345A,113.2347,23.1423,广州市,广雅中学,,28,28,38,18,21,33,,,,27,28,6,6,0.7,0.8
2024-10-21T0200,1346A,113.2612,23.105,广州市,市五中,,26,25,30,18,21,36,,,,19,14,4,4,0.7,0.7
2024-10-21T0200,1348A,113.3478,23.0916,广州市,广东商学院,,29,29,31,18,19,22,,,,33,24,6,5,0.7,0.7
2024-10-21T0200,1349A,113.4332,23.1047,广州市,市八十六中,,31,31,36,15,19,34,,,,22,24,5,4,0.8,0.8
2024-10-21T0200,1350A,113.3505,22.9483,广州市,番禺中学,,33,33,35,16,21,29,,,,32,23,6,6,0.6,0.6
2024-10-21T0200,1351A,113.2146,23.3916,广州市,花都师范,,21,21,25,14,15,54,,,,13,13,6,6,0.7,0.8
2024-10-21T0200,1352A,113.2597,23.1331,广州市,市监测站,,23,23,30,14,17,38,,,,17,16,5,5,0.6,0.6
2024-10-21T0200,1353A,113.5618,23.312,广州市,九龙镇镇龙,,25,25,27,17,19,38,,,,10,11,8,7,0.7,0.7
2024-10-21T0200,1354A,113.2765,23.1544,广州市,麓湖,,23,23,30,16,19,27,,,,24,21,3,3,0.7,0.7
2024-10-21T0200,1355A,113.443,23.3035,广州市,帽峰山森林公园,,21,21,21,12,14,33,,,,18,12,6,6,0.6,0.7
2024-10-21T0200,2846A,113.3221,23.1322,广州市,体育西,,24,24,31,14,20,32,,,,18,16,4,4,0.6,0.6
2024-10-21T0200,3298A,113.5717,23.5491,广州市,从化街口,,19,19,22,12,14,54,,,,9,9,7,7,0.7,0.7
2024-10-21T0200,3299A,113.3472,23.3692,广州市,白云竹料,,23,23,25,16,17,37,,,,18,11,6,6,0.6,0.6
2024-10-21T0200,3300A,113.2981,23.237,广州市,白云嘉禾,,31,31,37,19,21,25,,,,36,28,6,6,0.9,1
2024-10-21T0200,3301A,113.4256,23.1716,广州市,黄埔科学城,,33,33,33,20,20,27,,,,22,19,6,6,0.7,0.6
2024-10-21T0200,3302A,113.3942,23.0483,广州市,番禺大学城,,28,28,36,19,21,26,,,,21,19,6,6,0.8,0.8
2024-10-21T0200,3303A,113.4922,22.8168,广州市,南沙黄阁,,34,34,44,23,28,44,,,,24,25,6,6,0.8,0.9
2024-10-21T0200,3304A,113.5342,22.7896,广州市,南沙街,,34,34,43,23,26,45,,,,21,21,8,7,0.8,0.8
2024-10-21T0200,3443A,113.2902,23.5544,广州市,花都梯面,,20,20,21,14,16,47,,,,10,8,8,8,0.7,0.7
2024-10-21T0200,3445A,113.7858,23.7478,广州市,从化良口,,19,17,18,13,13,28,,,,10,7,6,6,0.8,0.8
2024-10-21T0200,3446A,113.8051,23.2614,广州市,增城荔城,,24,24,26,16,19,48,,,,9,8,7,7,0.6,0.6
2024-10-21T0200,2505A,109.568,23.1478,贵港市,德智高中,,,,,,,,,,,,,,,,
2024-10-21T0200,2506A,109.6047,23.0666,贵港市,江南子站,颗粒物(PM10),56,61,36,29,18,15,,,,38,16,17,10,1.2,0.9
2024-10-21T0200,2507A,109.6014,23.0948,贵港市,贵城子站,,44,44,34,26,21,32,,,,20,13,12,9,0.8,0.8
2024-10-21T0200,2508A,109.5669,23.1065,贵港市,荷城子站,,39,39,31,22,13,46,,,,15,13,15,11,0.6,0.5
2024-10-21T0200,3405A,109.5886,23.1172,贵港市,新世纪学校,,44,44,32,24,16,38,,,,15,11,14,10,0.7,0.7
2024-10-21T0200,1439A,106.6899,26.5998,贵阳市,马鞍山,,12,12,10,3,1,38,,,,8,9,3,4,0.5,0.5
2024-10-21T0200,1440A,106.6971,26.5694,贵阳市,市环保站,,16,,12,9,9,49,,,,7,11,4,3,0.5,0.6
2024-10-21T0200,1441A,106.6243,26.6266,贵阳市,鉴湖路,,14,12,14,3,5,43,,,,4,7,5,4,0.3,0.4
2024-10-21T0200,1442A,106.7487,26.6343,贵阳市,燕子冲,,15,,6,7,8,47,,,,7,9,5,5,0.3,0.4
2024-10-21T0200,1443A,106.6555,26.4365,贵阳市,碧云窝,,16,9,14,3,4,50,,,,5,7,4,4,0.4,0.4
2024-10-21T0200,1444A,106.694,26.5161,贵阳市,中院村,,12,12,14,3,6,34,,,,20,13,8,8,0.5,0.5
2024-10-21T0200,1445A,106.7109,26.6027,贵阳市,红边门,,18,,15,12,8,42,,,,12,14,3,4,0.5,0.6
2024-10-21T0200,1446A,106.7164,26.5699,贵阳市,新华路,,15,7,4,7,6,47,,,,11,10,4,5,0.4,0.4
2024-10-21T0200,1447A,106.674,26.5424,贵阳市,太慈桥,,13,7,9,3,5,39,,,,6,8,5,6,0.2,0.3
2024-10-21T0200,1552A,106.805,26.3003,贵阳市,桐木岭,,21,21,20,9,10,56,,,,2,1,3,4,0.3,0.4
2024-10-21T0200,1862A,110.4144,25.3167,桂林市,电子科大尧山校区,,16,12,12,9,8,50,,,,6,6,3,3,0.6,0.6
2024-10-21T0200,1863A,110.2819,25.2697,桂林市,监测站,,20,14,15,14,13,48,,,,7,10,10,11,0.7,0.7
2024-10-21T0200,1864A,110.3089,25.2708,桂林市,龙隐路小学,,20,,14,14,13,51,,,,8,8,6,10,0.5,0.5
2024-10-21T0200,1865A,110.2869,25.2178,桂林市,八中,,20,19,16,14,9,45,,,,8,9,6,9,0.6,0.6
2024-10-21T0200,3403A,110.1764,25.2381,桂林市,创业大厦,,25,17,16,17,13,51,,,,6,6,6,6,0.4,0.4
2024-10-21T0200,3531A,110.296,25.1253,桂林市,旅游学院,,20,14,10,14,7,48,,,,6,6,8,8,0.5,0.5
2024-10-21T0200,2674A,100.2561,34.4714,果洛藏族自治州,玛沁县大武镇,,44,44,38,24,18,47,,,,9,5,7,11,0.5,0.5
2024-10-21T0200,1129A,126.5422,45.755,哈尔滨市,岭北,,22,21,33,15,19,59,,,,12,17,11,12,0.1,0.5
2024-10-21T0200,1130A,126.561,45.8167,哈尔滨市,松北商大,,36,36,31,18,13,57,,,,12,20,9,9,0.5,0.5
2024-10-21T0200,1131A,126.979,45.5419,哈尔滨市,阿城会宁,,36,36,50,14,36,56,,,,9,18,10,9,0.5,0.7
2024-10-21T0200,1132A,126.599,45.7222,哈尔滨市,南岗学府路,,50,50,52,13,24,54,,,,12,24,6,7,0.6,0.7
2024-10-21T0200,1133A,126.689,45.7733,哈尔滨市,太平宏伟公园,,45,45,49,22,25,49,,,,12,22,6,7,0.4,0.6
2024-10-21T0200,1134A,126.635,45.7667,哈尔滨市,道外承德广场,,45,45,48,14,25,52,,,,17,28,10,15,0.4,0.6
2024-10-21T0200,1135A,126.685,45.7319,哈尔滨市,香坊红旗大街,,36,36,57,15,30,50,,,,18,32,8,10,0.4,0.5
2024-10-21T0200,1136A,126.6411,45.7258,哈尔滨市,动力和平路,,46,46,52,14,34,48,,,,14,23,8,9,0.4,0.6
2024-10-21T0200,1137A,126.593,45.7478,哈尔滨市,道里建国路,,46,46,43,15,27,52,,,,19,30,9,8,0.6,0.6
2024-10-21T0200,1138A,126.615,45.61,哈尔滨市,平房东轻厂,,36,36,49,20,27,49,,,,11,23,6,8,0.3,0.5
2024-10-21T0200,1139A,126.595,45.9855,哈尔滨市,呼兰师专,颗粒物(PM10),52,53,40,19,23,36,,,,30,28,8,9,0.5,0.5
2024-10-21T0200,1140A,126.6206,45.6842,哈尔滨市,省农科院,,48,48,55,19,40,39,,,,22,31,5,8,0.5,0.6
2024-10-21T0200,2688A,93.5128,42.8172,哈密市,地区监测站,,23,23,52,16,20,63,,,,10,18,7,6,0.2,0.4
2024-10-21T0200,2689A,93.4961,42.8328,哈密市,哈密师范学校,,40,40,47,16,24,66,,,,12,18,4,5,0.2,0.5
2024-10-21T0200,2671A,100.9048,36.9639,海北藏族自治州,海晏县西海镇,,24,24,32,11,13,49,,,,4,4,10,8,0.3,0.3
2024-10-21T0200,3867A,102.0738,36.5056,海东市,平安区公安北苑,,46,46,46,8,18,21,,,,23,17,7,7,0.4,0.6
2024-10-21T0200,1409A,110.576,19.9507,海口市,东寨港,,,,,,,,,,,,,,,,
2024-10-21T0200,1410A,110.3232,20.0574,海口市,海南大学,,27,25,29,9,13,84,,,,3,5,4,4,0.4,0.4
2024-10-21T0200,1411A,110.283,20.0053,海口市,秀英海南医院,,27,24,28,8,14,85,,,,4,5,6,5,0.3,0.3
2024-10-21T0200,1412A,110.338,19.9969,海口市,海南师范大学,,26,20,27,9,13,83,,,,4,6,6,6,0.4,0.4
2024-10-21T0200,1413A,110.33,20.0356,海口市,龙华路环保局宿舍,,27,25,28,8,13,85,,,,2,4,4,4,0.3,0.3
2024-10-21T0200,3539A,110.5111,19.9736,海口市,桂林洋子站,,26,23,27,7,12,83,,,,3,4,7,7,0.3,0.3
2024-10-21T0200,2673A,100.6188,36.2866,海南藏族自治州,共和县恰卜恰镇,颗粒物(PM10),52,53,42,12,13,67,,,,8,11,8,10,0.5,0.5
2024-10-21T0200,2676A,97.3731,37.3753,海西蒙古族藏族自治州,德令哈市,颗粒物(PM10),54,57,59,6,14,78,,,,1,3,7,8,0.4,0.4
2024-10-21T0200,1048A,114.5302,36.6116,邯郸市,东污水处理厂,,28,22,20,19,11,10,,,,36,20,1,3,0.4,0.5
2024-10-21T0200,1049A,114.4918,36.5713,邯郸市,矿院,,21,19,23,12,8,4,,,,42,24,2,4,0.3,0.3
2024-10-21T0200,1050A,114.484,36.6133,邯郸市,丛台公园,,28,,17,19,10,20,,,,27,20,2,3,0.4,0.4
2024-10-21T0200,3458A,114.7895,36.5593,邯郸市,香泉濮院小区,,31,31,23,21,13,15,,,,30,24,4,4,0.5,0.4
2024-10-21T0200,3579A,114.50634,36.77178,邯郸市,永年区实验高中,,44,44,35,23,14,14,,,,40,27,4,5,0.7,0.6
2024-10-21T0200,3580A,114.20016,36.44293,邯郸市,峰峰矿区临水派出所,,22,20,16,15,7,12,,,,24,14,6,7,1.0,0.8
2024-10-21T0200,2634A,106.9893,33.1842,汉中市,汉川机床厂子校,,15,8,6,3,3,46,,,,10,7,6,5,0.5,0.5
2024-10-21T0200,2635A,107.0154,33.0706,汉中市,市监测站,,16,10,10,3,7,51,,,,5,7,8,9,0.7,0.7
2024-10-21T0200,2636A,107.0089,33.1138,汉中市,鑫源开发区,,16,,8,11,8,44,,,,15,10,11,11,0.4,0.4
2024-10-21T0200,2637A,107.007,33.0323,汉中市,南郑大河坎水厂,,15,12,10,8,8,46,,,,8,10,8,9,0.4,0.4
2024-10-21T0200,1223A,120.2072,30.2111,杭州市,滨江,颗粒物(PM10),53,55,49,15,15,44,,,,32,22,6,6,0.6,0.6
2024-10-21T0200,1224A,120.0633,30.2747,杭州市,西溪,,37,37,34,15,13,38,,,,27,24,6,6,0.7,0.7
2024-10-21T0200,1226A,120.3461,30.3153,杭州市,下沙,颗粒物(PM10),52,54,54,25,13,48,,,,37,29,7,8,0.6,0.6
2024-10-21T0200,1227A,120.1269,30.2456,杭州市,卧龙桥,,34,34,36,17,15,22,,,,24,23,6,6,0.5,0.5
2024-10-21T0200,1228A,120.1903,30.2692,杭州市,浙江农大,,44,44,41,16,16,48,,,,26,22,4,4,0.6,0.6
2024-10-21T0200,1230A,120.1197,30.3119,杭州市,和睦小学,,41,41,40,18,13,57,,,,26,26,3,4,0.5,0.5
2024-10-21T0200,1231A,120.3019,30.4183,杭州市,临平镇,颗粒物(PM10),60,69,49,34,16,52,,,,25,16,6,6,0.6,0.5
2024-10-21T0200,1232A,120.2697,30.1819,杭州市,城厢镇,颗粒物(PM10),51,52,38,25,21,60,,,,24,20,7,7,0.6,0.6
2024-10-21T0200,1233A,120.0883,30.1808,杭州市,云栖,,30,30,34,14,10,12,,,,34,27,7,7,0.5,0.5
2024-10-21T0200,3557A,119.9464,30.0494,杭州市,镇二中,,35,35,38,15,9,19,,,,28,22,6,6,0.7,0.6
2024-10-21T0200,3558A,119.7183,30.2367,杭州市,市府大楼,,49,49,39,21,16,40,,,,26,18,6,6,0.6,0.5
2024-10-21T0200,3656A,120.1556,30.2864,杭州市,消防大队,,48,48,38,19,15,37,,,,47,26,7,7,0.5,0.4
2024-10-21T0200,1270A,117.1959,31.7848,合肥市,明珠广场,,36,36,36,12,11,56,,,,21,19,6,6,0.3,0.3
2024-10-21T0200,1271A,117.3072,31.8764,合肥市,三里街,,39,39,33,12,10,49,,,,18,15,4,3,0.6,0.5
2024-10-21T0200,1272A,117.2588,31.8707,合肥市,琥珀山庄,,36,36,34,17,13,53,,,,24,17,8,8,0.6,0.5
2024-10-21T0200,1273A,117.1604,31.9052,合肥市,董铺水库,,39,39,36,14,10,39,,,,24,14,3,3,0.3,0.3
2024-10-21T0200,1274A,117.25,31.8571,合肥市,长江中路,,44,44,38,24,18,51,,,,20,17,8,8,0.6,0.7
2024-10-21T0200,1275A,117.266,31.9436,合肥市,庐阳区,颗粒物(PM10),51,51,39,12,10,59,,,,19,16,2,2,0.6,0.5
2024-10-21T0200,1276A,117.336,31.8586,合肥市,瑶海区,,44,44,36,13,10,51,,,,20,16,4,3,0.4,0.3
2024-10-21T0200,1277A,117.3027,31.7964,合肥市,包河区,,41,41,37,9,11,39,,,,31,28,5,4,0.3,0.3
2024-10-21T0200,1278A,117.2776,31.7385,合肥市,滨湖新区,,36,36,38,14,11,47,,,,19,14,4,5,0.5,0.4
2024-10-21T0200,1279A,117.1318,31.8403,合肥市,高新区,,46,46,38,13,13,43,,,,26,19,3,3,0.7,0.7
2024-10-21T0200,3464A,117.3803,31.9147,合肥市,高教基地,,41,41,34,16,11,46,,,,15,9,4,4,0.4,0.4
2024-10-21T0200,3614A,79.924,37.0877,和田地区,地区环保局,颗粒物(PM10),108,166,151,26,32,72,,,,18,14,8,11,0.7,0.6
2024-10-21T0200,3615A,79.9131,37.113,和田地区,市环保局,颗粒物(PM10),96,142,136,47,38,40,,,,39,29,7,13,0.8,0.7
2024-10-21T0200,2516A,108.2011,24.715,河池市,东仁乐园,,30,30,20,14,14,7,,,,13,9,4,4,0.6,0.5
2024-10-21T0200,2517A,108.0497,24.6947,河池市,市环保站,,30,30,21,18,10,22,,,,16,11,11,12,0.6,0.6
2024-10-21T0200,2518A,108.0983,24.6989,河池市,市疾控中心,,35,35,25,23,13,11,,,,26,16,10,9,0.6,0.6
2024-10-21T0200,1696A,114.6778,23.7569,河源市,源西,,36,,25,25,23,41,,,,9,10,6,6,0.8,0.8
2024-10-21T0200,1697A,114.6944,23.7586,河源市,东埔,,43,,24,30,28,37,,,,16,12,4,4,0.7,0.7
2024-10-21T0200,1698A,114.6892,23.7233,河源市,老城,,24,24,29,13,16,39,,,,10,9,4,4,0.6,0.7
2024-10-21T0200,1718A,115.4208,35.2464,菏泽市,气象局,颗粒物(PM10),51,52,42,24,18,29,,,,25,21,4,6,0.4,0.4
2024-10-21T0200,1719A,115.4747,35.2375,菏泽市,市政协,,44,44,40,25,19,27,,,,37,30,7,11,0.5,0.4
2024-10-21T0200,3374A,115.5564,35.0891,菏泽市,定陶老年大学,,48,48,37,29,15,20,,,,34,29,6,7,0.4,0.3
2024-10-21T0200,3647A,115.4702,35.2706,菏泽市,菏泽医专,,40,39,33,28,17,25,,,,29,24,8,10,0.6,0.5
2024-10-21T0200,2514A,111.5264,24.4172,贺州市,环保小区,,25,25,24,15,9,42,,,,10,10,6,6,0.6,0.5
2024-10-21T0200,2515A,111.5608,24.4078,贺州市,政协大楼,,35,35,24,17,9,44,,,,10,10,6,6,0.6,0.6
2024-10-21T0200,3534A,111.4744,24.4553,贺州市,西湾,,25,25,20,16,10,40,,,,10,9,6,6,0.6,0.6
2024-10-21T0200,2385A,114.17,35.9019,鹤壁市,市监测站,,20,20,25,8,10,26,,,,34,29,1,3,0.8,0.7
2024-10-21T0200,2386A,114.2956,35.7511,鹤壁市,市交警支队,,42,42,27,27,10,11,,,,50,32,2,5,0.5,0.5
2024-10-21T0200,2387A,114.2878,35.7306,鹤壁市,迎宾馆,,32,32,23,15,12,9,,,,49,30,4,5,0.6,0.6
2024-10-21T0200,3474A,114.2617,35.6822,鹤壁市,大新区,,29,26,21,20,8,5,,,,18,11,1,3,0.7,0.6
2024-10-21T0200,3596A,114.1572,35.9603,鹤壁市,南山宾馆,,38,,17,26,18,11,,,,11,9,3,3,0.6,0.5
2024-10-21T0200,2244A,130.2537,47.3416,鹤岗市,哈啤分公司,,42,42,52,23,28,21,,,,32,20,16,14,0.5,0.5
2024-10-21T0200,2245A,130.2684,47.3086,鹤岗市,斯达机电,,34,34,51,21,30,32,,,,24,22,18,16,0.2,0.2
2024-10-21T0200,2246A,130.3114,47.3388,鹤岗市,东山纸板厂,,34,34,56,18,29,25,,,,24,23,22,19,0.1,0.2
2024-10-21T0200,2247A,130.1097,47.3382,鹤岗市,五号水库,颗粒物(PM10),93,136,36,8,14,29,,,,14,10,9,8,0.5,0.5
2024-10-21T0200,2263A,127.4833,50.2524,黑河市,交通局,,40,40,27,26,19,34,,,,18,9,7,10,0.6,0.4
2024-10-21T0200,2264A,127.5144,50.2341,黑河市,环保局,,35,24,24,24,15,36,,,,16,8,5,5,0.4,0.2
2024-10-21T0200,2265A,127.5291,50.2472,黑河市,大黑河岛,,48,48,23,21,13,20,,,,14,10,2,2,0.9,0.8
2024-10-21T0200,1074A,115.6838,37.7541,衡水市,电机北厂,,35,,30,24,17,10,,,,30,29,6,7,0.4,0.5
2024-10-21T0200,1075A,115.6303,37.7316,衡水市,市监测站,,29,28,33,20,12,11,,,,31,33,7,8,0.5,0.5
2024-10-21T0200,3188A,115.6683,37.7217,衡水市,市城管局,细颗粒物(PM2.5),57,42,30,40,19,4,,,,36,28,8,9,0.5,0.5
2024-10-21T0200,3459A,115.5989,37.5491,衡水市,地表水厂,颗粒物(PM10),76,102,23,39,13,2,,,,34,19,4,2,0.5,0.5
2024-10-21T0200,2456A,112.5003,26.9167,衡阳市,原169医院,,29,29,22,14,13,30,,,,2,5,3,3,0.4,0.4
2024-10-21T0200,2457A,112.6194,26.9258,衡阳市,衡阳化工总厂,,40,31,26,28,23,27,,,,13,11,5,5,0.6,0.6
2024-10-21T0200,2458A,112.6211,26.8956,衡阳市,珠晖区环保局,,28,28,24,16,13,28,,,,15,13,7,6,0.7,0.7
2024-10-21T0200,2459A,112.6197,26.8733,衡阳市,市委党校,,31,31,25,18,16,29,,,,18,15,8,7,0.6,0.6
2024-10-21T0200,2460A,112.6006,26.8919,衡阳市,市监测站,,32,24,25,22,18,28,,,,15,13,8,7,0.6,0.6
2024-10-21T0200,2461A,112.5664,26.9056,衡阳市,真空机电公司,,36,36,26,19,17,25,,,,15,13,6,5,0.7,0.7
2024-10-21T0200,3399A,112.6703,26.882,衡阳市,师范学院,,43,39,27,30,22,27,,,,20,15,8,8,0.6,0.6
2024-10-21T0200,2608A,103.3772,23.3993,红河哈尼族彝族自治州,污水处理厂,,28,23,26,19,19,71,,,,3,5,4,5,0.3,0.4
2024-10-21T0200,2609A,103.3861,23.35,红河哈尼族彝族自治州,监测站,,30,,24,21,21,81,,,,2,7,4,5,0.3,0.4
2024-10-21T0200,3038A,103.3758,23.368,红河哈尼族彝族自治州,州图书馆,,24,23,19,12,13,74,,,,3,6,6,6,0.3,0.3
2024-10-21T0200,1090A,111.6507,40.7517,呼和浩特市,呼市一监,,41,41,22,19,18,40,,,,16,16,7,7,0.6,0.6
2024-10-21T0200,1091A,111.6572,40.8033,呼和浩特市,小召,,46,39,22,32,20,41,,,,16,19,7,7,0.5,0.5
2024-10-21T0200,1094A,111.7516,40.8369,呼和浩特市,如意水处理厂,,50,50,31,30,20,39,,,,21,21,2,2,0.6,0.5
2024-10-21T0200,1095A,111.7276,40.8062,呼和浩特市,二十九中,颗粒物(PM10),51,52,28,34,20,43,,,,19,20,5,6,0.7,0.6
2024-10-21T0200,1096A,111.5512,40.7866,呼和浩特市,工大金川校区,,43,43,26,25,18,49,,,,13,24,4,4,0.6,0.6
2024-10-21T0200,1097A,111.717,40.7612,呼和浩特市,化肥厂生活区,细颗粒物(PM2.5),54,53,32,38,22,35,,,,20,20,8,8,0.6,0.4
2024-10-21T0200,3698A,111.5968,40.8178,呼和浩特市,红旗小学,,39,39,24,26,19,49,,,,15,27,3,6,0.6,0.6
2024-10-21T0200,3699A,111.6518,40.8389,呼和浩特市,海东办,,45,41,23,31,20,46,,,,17,22,6,4,0.6,0.6
2024-10-21T0200,2192A,119.7594,49.2261,呼伦贝尔市,区环保局,,28,22,23,19,11,54,,,,5,10,5,7,0.5,0.5
2024-10-21T0200,3061A,119.7512,49.1577,呼伦贝尔市,国华电力东,,17,14,18,11,8,53,,,,4,5,3,4,0.4,0.3
2024-10-21T0200,1250A,120.0751,30.8669,湖州市,城西水厂,颗粒物(PM10),66,81,47,28,13,54,,,,21,21,5,5,0.5,0.3
2024-10-21T0200,2873A,120.0875,30.8955,湖州市,仁皇山新区,颗粒物(PM10),59,68,45,38,18,47,,,,14,14,6,7,0.7,0.5
2024-10-21T0200,2907A,120.1844,30.8596,湖州市,吴兴区站,颗粒物(PM10),51,51,44,30,18,44,,,,19,15,6,6,0.6,0.4
2024-10-21T0200,3562A,120.4148,30.8538,湖州市,南浔区站,,43,43,44,25,19,40,,,,18,19,2,4,0.7,0.5
2024-10-21T0200,1607A,120.9092,40.7136,葫芦岛市,龙港区,,17,17,35,9,15,46,,,,24,22,11,26,0.5,0.6
2024-10-21T0200,1608A,120.8392,40.7514,葫芦岛市,化工街,,39,39,30,17,13,17,,,,49,27,15,20,0.3,0.3
2024-10-21T0200,1609A,120.8341,40.7073,葫芦岛市,新区,,30,30,26,13,13,25,,,,46,21,10,16,0.6,0.5
2024-10-21T0200,1610A,120.8695,40.7677,葫芦岛市,东城区,,31,31,34,15,16,22,,,,41,24,8,20,0.6,0.6
2024-10-21T0200,2482A,109.5981,27.5721,怀化市,林科所,,13,11,10,9,7,26,,,,6,5,7,7,0.7,0.7
2024-10-21T0200,2483A,109.9453,27.5444,怀化市,河西地税局,,12,12,15,7,10,30,,,,7,8,10,11,0.4,0.4
2024-10-21T0200,2484A,109.9781,27.5342,怀化市,市四医院,,15,15,14,3,10,26,,,,6,7,6,7,0.6,0.6
2024-10-21T0200,2485A,109.9972,27.5578,怀化市,监测楼,,18,16,14,12,9,28,,,,8,8,6,7,0.4,0.4
2024-10-21T0200,2486A,110.0394,27.583,怀化市,市委党校,,15,,13,10,8,28,,,,7,8,6,7,0.3,0.4
2024-10-21T0200,1210A,119.036,33.5981,淮安市,钵池山,,30,29,38,21,14,46,,,,16,18,4,5,0.6,0.5
2024-10-21T0200,1211A,119.007,33.575,淮安市,北京南路,,36,36,47,18,13,52,,,,17,20,6,7,0.2,0.2
2024-10-21T0200,1212A,118.989,33.6067,淮安市,市监测站,,32,27,38,22,18,48,,,,17,22,7,8,0.6,0.6
2024-10-21T0200,1213A,119.135,33.5039,淮安市,楚州区监测站,,45,,41,31,16,42,,,,22,23,6,6,0.7,0.6
2024-10-21T0200,1214A,119.0186,33.6297,淮安市,淮阴区监测站,,32,29,42,22,14,47,,,,22,24,7,7,0.7,0.7
2024-10-21T0200,3426A,118.8755,33.2894,淮安市,新华书店,,44,44,46,25,18,39,,,,27,23,6,6,0.9,0.8
2024-10-21T0200,2282A,116.8004,33.975,淮北市,监测站,颗粒物(PM10),51,52,43,33,18,20,,,,26,19,3,2,0.5,0.4
2024-10-21T0200,2283A,116.8091,33.9007,淮北市,烈山区政府,,,,24,,11,,,52,,,14,,6,,0.1
2024-10-21T0200,3330A,116.8873,33.9836,淮北市,杜集区检察院,颗粒物(PM10),55,59,48,36,18,22,,,,24,17,4,3,0.5,0.3
2024-10-21T0200,4017A,116.7923,33.9535,淮北市,市博物馆,细颗粒物(PM2.5),53,50,43,37,21,27,,,,29,22,5,4,0.6,0.5
2024-10-21T0200,2277A,116.8305,32.7727,淮南市,潘集区政府,颗粒物(PM10),53,56,50,36,30,14,,,,38,20,10,8,0.6,0.5
2024-10-21T0200,2278A,117.0067,32.6524,淮南市,师范学院,细颗粒物(PM2.5),78,72,53,57,33,27,,,,23,17,6,7,0.5,0.5
2024-10-21T0200,2279A,116.8569,32.5951,淮南市,谢家集区政府,细颗粒物(PM2.5),59,50,39,42,25,18,,,,33,20,11,9,0.4,0.3
2024-10-21T0200,2280A,116.8281,32.633,淮南市,八公山区政府,颗粒物(PM10),56,62,48,37,22,20,,,,28,18,8,8,0.3,0.2
2024-10-21T0200,2281A,116.6325,32.6201,淮南市,焦岗湖风景区管理处,,,,,,,,,,,,,,,,
2024-10-21T0200,2894A,117.0566,32.6531,淮南市,经济技术开发区消防队,细颗粒物(PM2.5),70,76,52,51,24,24,,,,21,18,4,4,0.4,0.3
2024-10-21T0200,3329A,117.0108,32.5893,淮南市,山南新区,细颗粒物(PM2.5),78,96,54,57,24,23,,,,21,11,2,2,0.5,0.4
2024-10-21T0200,2446A,114.9028,30.4742,黄冈市,职工中心,,19,13,32,13,18,28,,,,7,7,6,7,0.3,0.3
2024-10-21T0200,2929A,114.8858,30.4519,黄冈市,红卫路,,16,13,29,11,17,26,,,,20,15,6,6,0.5,0.5
2024-10-21T0200,3398A,114.9136,30.4445,黄冈市,市林业局,,26,26,40,13,15,37,,,,13,11,7,7,0.5,0.5
2024-10-21T0200,2672A,102.0199,35.5102,黄南藏族自治州,同仁县隆务镇,,38,38,41,20,15,58,,,,3,6,10,10,0.4,0.4
2024-10-21T0200,2295A,118.2903,29.6963,黄山市,延安路89号,,22,22,24,3,8,15,,,,11,7,6,6,0.3,0.2
2024-10-21T0200,2296A,118.327,29.7178,黄山市,黄山东路89号,,27,27,29,13,8,47,,,,8,7,6,5,0.3,0.3
2024-10-21T0200,2297A,118.1371,30.2756,黄山市,黄山区政府5号楼,,23,18,33,16,13,8,,,,10,9,7,7,0.4,0.3
2024-10-21T0200,2423A,115.0601,30.2313,黄石市,沈家营,,43,43,32,18,15,26,,,,24,20,11,10,0.8,0.7
2024-10-21T0200,2424A,115.0817,30.2006,黄石市,陈家湾,,39,39,32,19,16,32,,,,20,16,9,9,0.8,0.6
2024-10-21T0200,2426A,114.8988,30.2019,黄石市,铁山,,50,45,33,35,19,34,,,,22,17,10,10,1.2,0.9
2024-10-21T0200,2427A,115.0307,30.2092,黄石市,团城山,,38,38,31,18,12,24,,,,26,18,7,7,1.0,0.5
2024-10-21T0200,3149A,115.0235,30.1578,黄石市,笔架山北路,,37,37,14,23,10,23,,,,25,15,7,7,1.0,0.6
2024-10-21T0200,1392A,114.4183,23.0528,惠州市,河南岸金山湖子站,,34,34,36,21,24,40,,,,10,9,6,6,0.7,0.7
2024-10-21T0200,1393A,114.4053,23.0822,惠州市,下埔横江三路子站,,35,33,34,24,23,40,,,,13,10,7,5,0.8,0.8
2024-10-21T0200,1394A,114.4103,23.1142,惠州市,江北云山西路子站,,33,33,35,20,20,42,,,,12,9,7,7,0.6,0.6
2024-10-21T0200,1395A,114.4645,22.7833,惠州市,惠阳区承修路船湖子站,,42,42,33,22,17,38,,,,17,16,7,7,0.5,0.5
2024-10-21T0200,1396A,114.5317,22.7422,惠州市,大亚湾管委会子站,,40,40,26,23,13,42,,,,16,15,8,9,0.7,0.6
2024-10-21T0200,3314A,114.4338,22.8134,惠州市,惠阳秋长,,28,24,26,19,19,41,,,,15,12,6,6,0.8,0.7
2024-10-21T0200,3452A,114.6517,22.775,惠州市,大亚湾霞涌,,36,27,30,25,18,41,,,,9,9,6,6,0.8,0.7
2024-10-21T0200,2240A,130.9762,45.3001,鸡西市,环保局,颗粒物(PM10),78,106,53,54,23,9,,,,38,21,8,8,0.8,0.4
2024-10-21T0200,2243A,130.9429,45.3039,鸡西市,第一中学,,38,38,54,18,18,40,,,,13,19,8,7,0.2,0.3
2024-10-21T0200,3707A,131.0207,45.3073,鸡西市,欧美日汽修厂,颗粒物(PM10),81,111,53,51,24,18,,,,36,23,27,12,0.9,0.3
2024-10-21T0200,3709A,130.9967,45.3106,鸡西市,市政设施管理处,颗粒物(PM10),80,109,63,39,27,2,,,,40,25,11,7,0.7,0.3
2024-10-21T0200,2367A,114.9754,27.0803,吉安市,红声器材厂,,37,37,39,21,17,33,,,,17,18,13,10,0.5,0.5
2024-10-21T0200,2368A,114.9658,27.0999,吉安市,市森林工业局,,39,39,33,24,18,23,,,,25,18,14,10,0.7,0.7
2024-10-21T0200,2369A,114.99,27.1312,吉安市,市环境监测站,,35,35,33,14,17,21,,,,25,16,19,14,0.5,0.4
2024-10-21T0200,2370A,115.0093,27.0968,吉安市,青原区法院,,34,34,34,19,18,34,,,,14,18,22,15,0.6,0.6
2024-10-21T0200,1772A,126.54,43.8622,吉林市,哈达湾,,20,19,21,9,11,64,,,,12,18,8,8,0.5,0.5
2024-10-21T0200,1773A,126.5844,43.8358,吉林市,东局子,,23,18,14,8,9,71,,,,8,14,6,5,0.4,0.5
2024-10-21T0200,1774A,126.5052,43.8245,吉林市,电力学院,,20,14,45,14,26,57,,,,9,26,6,7,0.6,0.8
2024-10-21T0200,1775A,126.6133,43.8972,吉林市,江北,,22,11,32,6,16,70,,,,6,18,9,9,0.5,0.6
2024-10-21T0200,1776A,126.555,43.8306,吉林市,江南公园,,22,16,19,11,12,68,,,,9,18,8,8,0.4,0.5
2024-10-21T0200,1778A,126.7061,43.7133,吉林市,丰满,,20,13,10,7,6,62,,,,4,3,7,7,0.1,0.3
2024-10-21T0200,2868A,126.4739,43.953,吉林市,九站,,23,23,33,11,15,60,,,,10,26,6,7,0.6,0.6
2024-10-21T0200,1299A,116.9862,36.6114,济南市,科干所,,41,41,37,20,13,23,,,,38,35,6,8,0.6,0.6
2024-10-21T0200,1300A,116.9376,36.665,济南市,农科所,,49,49,39,20,8,7,,,,49,44,5,7,0.6,0.6
2024-10-21T0200,1301A,117.1265,36.6734,济南市,开发区,,39,37,37,27,18,14,,,,54,35,3,6,0.5,0.5
2024-10-21T0200,1303A,117.0624,36.6868,济南市,省种子仓库,,39,36,41,27,14,14,,,,41,28,2,5,0.3,0.3
2024-10-21T0200,1304A,116.9489,36.6447,济南市,机床二厂,,39,39,41,27,13,14,,,,50,42,3,5,0.7,0.7
2024-10-21T0200,1305A,117.0495,36.663,济南市,市监测站,,42,42,38,27,14,21,,,,44,38,3,6,0.6,0.6
2024-10-21T0200,1306A,116.7675,36.5484,济南市,长清党校,,49,49,39,22,16,12,,,,43,36,4,6,0.5,0.5
2024-10-21T0200,1616A,117.6795,36.229,济南市,技术学院,细颗粒物(PM2.5),58,48,35,41,20,19,,,,39,24,7,10,0.5,0.7
2024-10-21T0200,1961A,117.532,36.6868,济南市,东山小学,,44,44,44,22,18,6,,,,63,32,3,4,0.5,0.5
2024-10-21T0200,3059A,117.7161,36.2049,济南市,泰兴公司,细颗粒物(PM2.5),58,61,37,41,20,26,,,,35,26,2,4,0.4,0.4
2024-10-21T0200,3064A,117.6867,36.2171,济南市,莱芜战役纪念馆,细颗粒物(PM2.5),55,56,43,39,19,22,,,,36,25,5,7,0.4,0.6
2024-10-21T0200,3494A,117.1673,36.9782,济南市,济阳区政府,,29,29,36,20,12,16,,,,36,34,2,3,0.3,0.3
2024-10-21T0200,3495A,117.1171,36.63,济南市,锦屏中学,,29,29,31,20,12,17,,,,48,36,4,6,0.4,0.4
2024-10-21T0200,3682A,116.9814,36.6819,济南市,济南四建,,29,27,35,20,14,8,,,,53,46,2,4,0.5,0.5
2024-10-21T0200,1653A,116.6251,35.4302,济宁市,火炬城,,48,48,32,31,16,21,,,,30,12,10,9,0.6,0.5
2024-10-21T0200,1655A,116.5491,35.4042,济宁市,电化厂,颗粒物(PM10),51,52,43,31,22,21,,,,32,27,6,8,0.9,0.9
2024-10-21T0200,3500A,116.5814,35.3707,济宁市,北湖一中,细颗粒物(PM2.5),52,47,32,36,15,27,,,,33,27,5,5,0.3,0.3
2024-10-21T0200,3501A,116.8249,35.5593,济宁市,服务中心,颗粒物(PM10),54,57,38,36,16,26,,,,28,23,12,9,1.0,0.7
2024-10-21T0200,3678A,116.5907,35.4054,济宁市,市第七中学,,48,48,35,29,16,27,,,,31,22,9,8,0.6,0.5
2024-10-21T0200,2255A,130.2751,46.8028,佳木斯市,佳纺,,26,26,30,9,17,50,,,,8,11,4,4,0.3,0.3
2024-10-21T0200,2256A,130.3995,46.8307,佳木斯市,发电厂,,25,19,29,17,20,45,,,,11,15,6,5,0.3,0.3
2024-10-21T0200,2257A,130.3258,46.7975,佳木斯市,环保局,,22,22,32,13,17,51,,,,6,12,8,8,0.2,0.3
2024-10-21T0200,2258A,130.3648,46.8032,佳木斯市,十一中,,18,18,30,12,17,53,,,,7,15,5,5,0.3,0.3
2024-10-21T0200,2259A,130.3794,46.7588,佳木斯市,四丰,,,25,23,17,13,47,,,,,,1,1,0.1,0.1
2024-10-21T0200,1252A,120.7436,30.778,嘉兴市,清河小学,,47,47,41,22,13,24,,,,20,20,5,5,0.9,0.9
2024-10-21T0200,1253A,120.726,30.7478,嘉兴市,嘉兴学院,,,,,,,,,,,,,,,,
2024-10-21T0200,2872A,120.7846,30.7525,嘉兴市,南湖区残联,,47,47,41,30,18,33,,,,18,18,5,6,0.8,0.7
2024-10-21T0200,3407A,120.6916,30.7739,嘉兴市,秀洲住建,,48,48,45,26,18,32,,,,12,16,6,7,0.6,0.6
2024-10-21T0200,1945A,98.2908,39.7711,嘉峪关市,气象局,,29,24,103,12,32,91,,,,9,18,4,10,0.3,0.5
2024-10-21T0200,2884A,98.2672,39.7978,嘉峪关市,酒钢宾馆,颗粒物(PM10),57,63,102,24,31,62,,,,42,17,121,42,1.7,0.7
2024-10-21T0200,3248A,98.2643,39.7724,嘉峪关市,雄关区,,44,44,89,19,26,78,,,,20,17,16,13,0.3,0.5
2024-10-21T0200,1383A,113.1064,22.6058,江门市,北街,,37,37,40,22,27,28,,,,33,27,10,6,0.6,0.6
2024-10-21T0200,1384A,113.0731,22.5835,江门市,西区,,41,41,41,20,22,32,,,,29,32,7,7,0.6,0.7
2024-10-21T0200,1385A,113.0219,22.5311,江门市,圭峰西,,42,42,35,24,28,28,,,,32,21,5,4,0.6,0.6
2024-10-21T0200,1386A,113.0828,22.5947,江门市,东湖,,33,33,38,18,23,25,,,,26,26,6,6,0.5,0.6
2024-10-21T0200,3311A,113.1075,22.5647,江门市,江海富民,颗粒物(PM10),52,53,59,19,34,26,,,,32,27,8,7,0.6,0.7
2024-10-21T0200,3449A,113.05,22.4667,江门市,新会银湖,颗粒物(PM10),54,57,44,32,37,5,,,,52,32,5,6,0.8,0.7
2024-10-21T0200,1828A,113.227,35.2125,焦作市,市环保局,,45,45,37,24,17,12,,,,36,24,4,5,0.1,0.1
2024-10-21T0200,1830A,113.1992,35.2590,焦作市,影视城,细颗粒物(PM2.5),62,,39,44,34,17,,,,18,17,8,7,0.8,0.7
2024-10-21T0200,3169A,113.2725,35.2067,焦作市,太极体育中心,,42,42,38,21,15,32,,,,14,12,2,4,0.5,0.5
2024-10-21T0200,3335A,113.3137,35.2641,焦作市,马村街道办,,46,46,40,24,17,31,,,,20,20,6,5,0.4,0.3
2024-10-21T0200,3336A,113.2465,35.2373,焦作市,焦作技师学院,,45,37,29,31,16,22,,,,21,17,6,4,0.7,0.6
2024-10-21T0200,3477A,113.1656,35.2539,焦作市,中站许衡医院,,50,50,42,32,22,3,,,,45,22,11,6,0.6,0.4
2024-10-21T0200,3981A,113.2449,35.1803,焦作市,原李万街道办,颗粒物(PM10),54,57,41,21,9,11,,,,36,19,4,4,0.4,0.4
2024-10-21T0200,1708A,116.3701,23.5345,揭阳市,新兴,,26,24,32,18,16,59,,,,17,13,6,7,0.5,0.5
2024-10-21T0200,1709A,116.3264,23.5443,揭阳市,西马,,34,34,30,17,12,66,,,,10,6,7,8,0.6,0.7
2024-10-21T0200,1710A,116.3611,23.5626,揭阳市,东兴,,24,24,30,16,13,64,,,,13,9,9,7,0.7,0.7
2024-10-21T0200,1711A,116.4151,23.5294,揭阳市,渔湖,,20,20,29,14,10,58,,,,14,11,7,8,0.5,0.5
2024-10-21T0200,3320A,116.403,23.5699,揭阳市,曲溪,,30,30,32,15,13,62,,,,18,14,3,3,0.6,0.4
2024-10-21T0200,1944A,102.1692,38.5167,金昌市,天庆家园,颗粒物(PM10),57,63,74,33,36,95,,,,2,14,12,17,0.5,0.6
2024-10-21T0200,3170A,102.1864,38.5253,金昌市,市委党校,颗粒物(PM10),61,72,97,25,35,94,,,,4,13,7,14,0.4,0.7
2024-10-21T0200,4022A,102.1647,38.5371,金昌市,金川区人防中心,颗粒物(PM10),62,73,95,23,33,92,,,,3,14,10,14,0.5,0.6
2024-10-21T0200,1262A,119.647,29.077,金华市,十五中,颗粒物(PM10),53,56,41,22,14,32,,,,32,27,3,3,0.7,0.6
2024-10-21T0200,1263A,119.686,29.1029,金华市,监测站,颗粒物(PM10),53,55,40,23,19,24,,,,32,23,3,3,0.5,0.5
2024-10-21T0200,3659A,119.656,29.1131,金华市,气象局,颗粒物(PM10),54,58,39,19,8,22,,,,40,27,4,4,0.6,0.5
2024-10-21T0200,1767A,121.1115,41.0879,锦州市,南山,,28,28,36,13,14,27,,,,39,33,10,19,0.4,0.6
2024-10-21T0200,1768A,121.0533,40.8434,锦州市,开发区,,48,48,46,15,15,37,,,,32,31,10,20,0.5,0.5
2024-10-21T0200,1769A,121.1836,41.1119,锦州市,百股街道,,20,20,34,9,17,30,,,,34,29,8,24,0.9,1.1
2024-10-21T0200,1770A,121.1178,41.1222,锦州市,天安街道,,30,30,40,14,17,36,,,,32,36,12,18,0.6,0.7
2024-10-21T0200,1771A,121.1303,41.1386,锦州市,北湖公园,,26,26,37,16,19,38,,,,28,31,15,20,0.7,0.7
2024-10-21T0200,2160A,112.85,35.5051,晋城市,自来水公司,,20,19,30,14,12,38,,,,27,23,5,6,0.5,0.7
2024-10-21T0200,2161A,112.8318,35.4936,晋城市,白云商贸,,31,31,33,17,10,34,,,,29,28,3,4,0.7,0.6
2024-10-21T0200,2162A,112.8508,35.4887,晋城市,市环保局,,23,23,24,7,11,39,,,,19,21,3,4,0.8,0.8
2024-10-21T0200,2163A,112.8676,35.4897,晋城市,技术学院,,31,31,34,9,12,40,,,,26,26,2,4,0.6,0.6
2024-10-21T0200,2165A,112.8453,35.546,晋城市,白马寺,,25,23,28,17,16,31,,,,22,22,7,9,0.8,0.6
2024-10-21T0200,3620A,112.8271,35.4828,晋城市,泽州一中,,32,22,24,22,12,31,,,,34,31,4,5,0.9,0.6
2024-10-21T0200,2171A,112.7532,37.6945,晋中市,锦纶小区,"颗粒物(PM10),细颗粒物(PM2.5)",52,53,32,36,16,27,,,,31,25,16,9,0.8,0.5
2024-10-21T0200,2173A,112.7249,37.7067,晋中市,南都小区,细颗粒物(PM2.5),62,53,37,44,24,23,,,,35,27,11,8,0.8,0.4
2024-10-21T0200,2174A,112.6991,37.6982,晋中市,榆次区政府,颗粒物(PM10),51,51,31,33,19,20,,,,35,29,7,7,0.6,0.4
2024-10-21T0200,2865A,112.7195,37.6828,晋中市,榆次三中,细颗粒物(PM2.5),52,51,32,36,14,24,,,,34,27,16,12,0.7,0.5
2024-10-21T0200,2439A,112.2014,31.0481,荆门市,竹园小学,细颗粒物(PM2.5),52,46,35,36,22,30,,,,22,22,7,10,0.5,0.5
2024-10-21T0200,2440A,112.1969,30.9891,荆门市,掇刀,,49,40,35,34,23,36,,,,24,23,4,4,0.4,0.4
2024-10-21T0200,2441A,112.2213,31.0386,荆门市,石化一小,颗粒物(PM10),51,52,35,35,23,31,,,,18,18,17,17,0.3,0.3
2024-10-21T0200,3012A,112.1849,31.0362,荆门市,西山林语,,43,42,35,30,22,37,,,,19,19,5,5,0.4,0.4
2024-10-21T0200,3547A,112.1632,31.0138,荆门市,龙泉中学南校,,30,29,31,21,20,41,,,,24,25,4,6,0.5,0.5
2024-10-21T0200,1844A,112.2494,30.3197,荆州市,市图书馆,,30,24,29,21,20,24,,,,22,23,4,5,0.5,0.7
2024-10-21T0200,1845A,112.2008,30.3544,荆州市,市委党校,,32,26,29,22,20,23,,,,28,26,5,7,0.4,0.4
2024-10-21T0200,3194A,112.2747,30.3122,荆州市,管委会,,29,27,27,20,19,27,,,,20,22,7,8,0.5,0.4
2024-10-21T0200,3548A,112.1655,30.3364,荆州市,学苑路,,46,32,35,32,19,17,,,,32,26,45,17,0.6,0.6
2024-10-21T0200,2342A,117.3102,29.3867,景德镇市,王港中学,,,,,,,,,,,,,,,,
2024-10-21T0200,2343A,117.2117,29.2933,景德镇市,老干部活动中心,,17,17,12,10,6,39,,,,7,7,6,6,0.2,0.2
2024-10-21T0200,2344A,117.1894,29.2789,景德镇市,兽医站,,20,20,22,9,6,41,,,,7,5,6,6,0.2,0.2
2024-10-21T0200,2345A,117.1547,29.2617,景德镇市,台达陶瓷,,18,15,12,12,17,39,,,,5,5,5,6,0.4,0.4
2024-10-21T0200,2346A,117.2461,29.2956,景德镇市,陶研所,,17,17,12,6,5,35,,,,9,7,5,4,0.3,0.3
2024-10-21T0200,1803A,115.9872,29.6815,九江市,十里,,42,42,40,10,12,63,,,,14,8,10,9,0.4,0.5
2024-10-21T0200,1804A,115.9584,29.7046,九江市,茅山头,,26,24,34,18,18,62,,,,15,16,8,8,0.6,0.6
2024-10-21T0200,1805A,115.9877,29.7295,九江市,西园,,45,45,36,14,18,72,,,,10,13,7,6,0.4,0.4
2024-10-21T0200,1806A,116.0172,29.6547,九江市,五七二七厂,,35,35,38,20,18,58,,,,15,14,11,9,0.5,0.5
2024-10-21T0200,1808A,115.9114,29.6038,九江市,综合工业园,,41,41,38,22,23,53,,,,24,20,13,8,0.4,0.3
2024-10-21T0200,1809A,116.0721,29.7535,九江市,石化总厂,,38,38,42,23,20,59,,,,17,15,9,8,0.6,0.6
2024-10-21T0200,1810A,115.9773,29.5698,九江市,庐山气象台,,21,,12,8,9,65,,,,2,3,6,6,0.9,0.7
2024-10-21T0200,3190A,116.0254,29.6994,九江市,外国语学校,,39,39,36,14,17,61,,,,17,18,4,4,0.7,0.7
2024-10-21T0200,2658A,98.5061,39.7443,酒泉市,仓门街子站,,25,22,134,17,45,79,,,,2,15,2,8,0.2,0.4
2024-10-21T0200,2659A,98.4989,39.7256,酒泉市,油田生活基地,,36,36,147,25,44,90,,,,3,13,2,12,0.1,0.3
2024-10-21T0200,2698A,76.0072,39.4467,喀什地区,巡警大队,颗粒物(PM10),87,123,149,20,30,66,,,,34,48,3,5,0.4,0.6
2024-10-21T0200,2699A,75.9755,39.4694,喀什地区,吾办,颗粒物(PM10),90,129,148,50,55,48,,,,37,50,3,3,0.6,0.8
2024-10-21T0200,4027A,75.9483,39.4689,喀什地区,老干局,颗粒物(PM10),91,132,142,27,27,61,,,,39,42,2,2,0.6,0.7
2024-10-21T0200,1824A,114.3389,34.7781,开封市,肿瘤医院,,42,37,26,29,17,28,,,,22,18,8,7,0.5,0.4
2024-10-21T0200,1826A,114.2885,34.7965,开封市,世纪星幼儿园,,39,39,27,21,12,25,,,,25,23,2,2,0.4,0.2
2024-10-21T0200,3147A,114.3438,34.8106,开封市,龙亭公园,,39,39,26,27,13,25,,,,21,17,4,4,0.6,0.5
2024-10-21T0200,3210A,114.3644,34.7964,开封市,汴京公园,,40,38,27,28,15,28,,,,21,19,4,4,0.5,0.4
2024-10-21T0200,3473A,114.2485,34.8306,开封市,技师学院,,42,42,28,29,15,21,,,,29,22,5,4,0.5,0.3
2024-10-21T0200,3592A,114.4644,34.7556,开封市,祥符区生态环境局,,49,49,36,23,15,27,,,,27,28,4,5,0.3,0.3
2024-10-21T0200,1951A,84.895,45.6094,克拉玛依市,长征新村,,21,10,13,3,5,66,,,,2,10,6,6,0.2,0.2
2024-10-21T0200,1952A,84.8988,45.5893,克拉玛依市,南林小区,,22,11,12,9,9,69,,,,3,11,5,4,0.4,0.4
2024-10-21T0200,1954A,84.905,44.3396,克拉玛依市,独山子区,,23,6,17,3,10,72,,,,7,14,7,8,0.2,0.2
2024-10-21T0200,1955A,85.6979,46.098,克拉玛依市,乌尔禾区商贸楼,,18,,10,7,6,57,,,,10,8,3,3,0.2,0.2
2024-10-21T0200,3612A,85.1045,45.6899,克拉玛依市,白碱滩区新站,,22,10,13,6,7,70,,,,6,11,8,8,0.1,0.1
2024-10-21T0200,2697A,76.1454,39.7142,克孜勒苏柯尔克孜自治州,市人民政府,颗粒物(PM10),78,106,83,35,27,85,,,,28,19,4,13,0.6,0.6
2024-10-21T0200,3665A,76.1658,39.7157,克孜勒苏柯尔克孜自治州,克州文化中心,颗粒物(PM10),78,106,74,40,25,72,,,,40,23,7,11,0.5,0.5
2024-10-21T0200,1450A,102.8204,24.8886,昆明市,呈贡新区,,32,29,32,22,16,20,,,,21,22,5,4,0.8,0.7
2024-10-21T0200,1451A,102.6251,24.9608,昆明市,西山森林公园,,,,,,,,,,,,,,,,
2024-10-21T0200,1452A,102.7252,25.0902,昆明市,龙泉镇,,33,33,23,18,15,2,,,,29,20,6,6,0.9,0.7
2024-10-21T0200,1453A,102.7266,25.0375,昆明市,东风东路,,41,41,26,20,16,0,,,,45,20,11,7,0.8,0.6
2024-10-21T0200,1454A,102.6742,25.0669,昆明市,金鼎山,,29,29,29,15,13,7,,,,42,21,8,8,0.6,0.5
2024-10-21T0200,1455A,102.6644,25.0401,昆明市,碧鸡广场,,28,28,26,15,15,7,,,,40,20,6,7,0.3,0.2
2024-10-21T0200,3179A,102.7494,25.0119,昆明市,官渡区博物馆,颗粒物(PM10),51,51,29,22,14,2,,,,42,19,7,7,0.7,0.5
2024-10-21T0200,3375A,102.8017,24.8336,昆明市,青年创业园,,26,26,18,17,13,2,,,,28,17,5,4,0.6,0.5
2024-10-21T0200,3550A,102.7997,24.9786,昆明市,昆明学院,,34,34,28,19,17,8,,,,39,26,9,7,0.6,0.5
2024-10-21T0200,3551A,102.5967,24.6736,昆明市,晋宁区生态环境分局,,35,,27,24,22,22,,,,20,16,2,2,0.5,0.6
2024-10-21T0200,3552A,102.6678,24.9856,昆明市,云天化总部,,32,31,21,22,16,17,,,,29,15,9,6,0.5,0.4
2024-10-21T0200,1456A,91.1319,29.6514,拉萨市,八廓街,,32,11,12,7,8,101,,,,8,9,7,10,0.3,0.2
2024-10-21T0200,1457A,91.1221,29.6747,拉萨市,市环保局,,31,14,14,3,7,98,,,,8,10,6,8,0.3,0.3
2024-10-21T0200,1458A,91.0874,29.6475,拉萨市,区监测站,,31,7,11,6,7,97,,,,6,10,5,8,0.3,0.5
2024-10-21T0200,1459A,91.1774,29.6541,拉萨市,西藏大学,,31,7,11,6,6,97,,,,5,5,6,9,0.3,0.3
2024-10-21T0200,1460A,90.9798,29.6588,拉萨市,区辐射站,,32,7,15,6,7,102,,,,4,13,8,9,0.2,0.2
2024-10-21T0200,1461A,91.0834,29.6292,拉萨市,拉萨火车站,,,,8,,6,,,83,,,6,,8,,0.1
2024-10-21T0200,2520A,109.2203,23.7256,来宾市,来宾技工学校,,37,37,26,22,14,48,,,,18,12,13,9,0.9,0.8
2024-10-21T0200,3535A,109.1781,23.7297,来宾市,兴宾区政府,,40,40,21,24,13,49,,,,16,9,11,9,1.0,0.9
2024-10-21T0200,4002A,109.2416,23.7461,来宾市,中南小学,,48,37,29,33,15,44,,,,16,10,12,8,0.9,0.8
2024-10-21T0200,1476A,103.631,36.1031,兰州市,兰炼宾馆,颗粒物(PM10),52,53,56,28,31,18,,,,49,46,8,8,0.5,0.6
2024-10-21T0200,1477A,104.1373,35.9454,兰州市,榆中兰大校区,,,,,,,,,,,,,,,,
2024-10-21T0200,1478A,103.8412,36.0726,兰州市,生物制品所,,43,35,44,30,29,42,,,,26,32,8,10,0.3,0.3
2024-10-21T0200,1479A,103.831,36.0464,兰州市,铁路设计院,,50,50,54,35,33,6,,,,58,52,6,8,0.6,0.7
2024-10-21T0200,3186A,103.7158,36.1058,兰州市,教育港,颗粒物(PM10),59,68,63,36,35,1,,,,52,43,8,9,0.8,0.7
2024-10-21T0200,3241A,103.7439,36.0842,兰州市,百合公园,颗粒物(PM10),53,55,48,23,23,9,,,,57,41,9,8,0.7,0.7
2024-10-21T0200,3242A,103.9611,35.998,兰州市,和平,,36,36,38,18,18,45,,,,18,18,8,10,0.2,0.3
2024-10-21T0200,3245A,103.6633,36.533,兰州新区,新区管委会,,33,33,42,19,22,49,,,,19,17,10,6,0.5,0.5
2024-10-21T0200,3246A,103.6975,36.4789,兰州新区,舟曲中学,,36,36,27,13,13,62,,,,20,15,7,8,0.3,0.3
2024-10-21T0200,1067A,116.6708,39.5111,廊坊市,药材公司,,43,43,40,27,23,8,,,,41,33,3,4,0.5,0.6
2024-10-21T0200,1068A,116.7214,39.5589,廊坊市,开发区,,39,31,33,27,19,10,,,,41,41,1,3,0.4,0.6
2024-10-21T0200,1070A,116.7244,39.5269,廊坊市,北华航天学院,,32,32,36,20,16,9,,,,43,32,3,6,0.6,0.6
2024-10-21T0200,2919A,116.7022,39.5453,廊坊市,河北工业大学,,43,40,39,30,21,31,,,,27,36,4,7,0.4,0.6
2024-10-21T0200,2535A,103.7723,29.5462,乐山市,花湖湾,,14,14,16,7,10,42,,,,5,12,3,3,0.7,0.7
2024-10-21T0200,2536A,103.7627,29.5844,乐山市,牛耳桥,,18,12,13,12,13,43,,,,9,18,4,4,0.4,0.5
2024-10-21T0200,2537A,103.7508,29.6006,乐山市,市第三水厂,,15,14,16,9,11,48,,,,7,15,3,4,0.6,0.6
2024-10-21T0200,2538A,103.7571,29.5664,乐山市,市监测站,,16,14,16,11,10,46,,,,6,13,3,4,0.6,0.6
2024-10-21T0200,3361A,103.7311,29.5628,乐山市,理工大学,,16,13,16,11,14,33,,,,10,15,3,3,0.6,0.6
2024-10-21T0200,2598A,100.2143,26.8576,丽江市,西南郊,,35,25,21,24,13,41,,,,16,11,8,6,0.7,0.7
2024-10-21T0200,2599A,100.2497,26.8802,丽江市,丽江古城,,27,27,22,16,13,44,,,,14,13,11,10,0.6,0.5
2024-10-21T0200,2600A,100.2203,26.8906,丽江市,市中心,,17,16,16,8,7,54,,,,7,10,6,5,0.5,0.5
2024-10-21T0200,1267A,119.914,28.4514,丽水市,监测站大楼,,44,44,24,18,8,28,,,,25,14,4,3,0.5,0.4
2024-10-21T0200,1268A,119.93,28.4586,丽水市,莲都小学,颗粒物(PM10),53,56,27,23,10,25,,,,28,14,4,4,0.4,0.3
2024-10-21T0200,1269A,119.879,28.4231,丽水市,余庄前,,35,35,20,18,10,10,,,,11,11,4,4,0.4,0.3
2024-10-21T0200,1173A,119.176,34.5885,连云港市,市环境监测站,,46,46,39,22,13,51,,,,24,23,9,9,0.3,0.4
2024-10-21T0200,3000A,119.3581,34.6972,连云港市,德源药业,,36,36,38,22,14,39,,,,44,29,5,6,0.4,0.3
2024-10-21T0200,3007A,119.178,34.844,连云港市,新城一中,颗粒物(PM10),54,57,42,36,17,47,,,,32,26,6,6,1.0,0.7
2024-10-21T0200,3008A,119.3608,34.7519,连云港市,胡沟管理处,,36,36,35,19,11,67,,,,14,14,7,8,0.4,0.2
2024-10-21T0200,3009A,119.1478,34.5911,连云港市,矿山设计院,颗粒物(PM10),51,51,40,27,14,51,,,,22,23,7,8,0.5,0.5
2024-10-21T0200,3434A,119.2413,34.6539,连云港市,工贸学校,,50,50,42,26,17,54,,,,20,18,9,9,0.7,0.6
2024-10-21T0200,3664A,119.4172,34.7341,连云港市,连云街道,,40,40,42,17,14,46,,,,21,22,6,7,0.6,0.4
2024-10-21T0200,2571A,102.3431,27.8099,凉山彝族自治州,青龙寺,,25,25,22,7,8,50,,,,2,3,8,9,0.6,0.6
2024-10-21T0200,2572A,102.2721,27.8415,凉山彝族自治州,邛海宾馆,,26,24,30,18,18,48,,,,13,14,12,14,0.7,0.8
2024-10-21T0200,2573A,102.2625,27.898,凉山彝族自治州,西昌市政府,,25,24,26,17,18,62,,,,7,10,12,13,0.5,0.7
2024-10-21T0200,2574A,102.2685,27.8851,凉山彝族自治州,凉山州政府,,27,27,31,17,18,52,,,,10,13,7,10,0.7,0.7
2024-10-21T0200,2575A,102.237,27.8914,凉山彝族自治州,长安,,23,16,28,14,17,71,,,,8,16,20,14,1.0,0.9
2024-10-21T0200,2212A,123.2,41.1953,辽阳市,宏伟区,,22,22,46,11,20,64,,,,5,19,8,12,0.4,0.7
2024-10-21T0200,2213A,123.1683,41.2495,辽阳市,新华园,,24,24,45,13,21,57,,,,7,23,9,19,0.4,0.7
2024-10-21T0200,2214A,123.2354,41.2639,辽阳市,滨河路,,21,21,40,6,22,65,,,,4,22,10,17,0.7,0.9
2024-10-21T0200,2215A,123.149,41.2991,辽阳市,铁西工业园,颗粒物(PM10),54,57,47,37,24,21,,,,29,22,16,22,1.2,1.1
2024-10-21T0200,2227A,125.1358,42.8845,辽源市,环保局,,23,20,45,9,23,73,,,,5,25,7,10,0.4,0.8
2024-10-21T0200,3239A,125.0764,42.9078,辽源市,银鹰制药,,22,18,40,8,27,70,,,,8,31,8,18,0.4,0.6
2024-10-21T0200,1625A,115.9848,36.4372,聊城市,区政府,,40,40,33,23,12,11,,,,43,37,8,10,0.5,0.4
2024-10-21T0200,2878A,116.0072,36.4343,聊城市,聊大东校,,46,46,37,24,17,13,,,,39,32,6,10,0.3,0.3
2024-10-21T0200,3200A,115.9819,36.4978,聊城市,监控中心,,42,38,33,29,17,10,,,,46,42,7,9,0.6,0.5
2024-10-21T0200,3513A,116.0445,36.4361,聊城市,九州社区,,41,41,33,19,13,11,,,,36,26,4,7,0.3,0.3
2024-10-21T0200,4018A,116.0567,36.4608,聊城市,星美广场,颗粒物(PM10),52,53,42,25,13,17,,,,32,24,3,10,0.4,0.4
2024-10-21T0200,2632A,94.3681,29.6376,林芝市,林芝监测站,,,,6,9,6,50,,,,1,3,5,6,0.2,0.3
2024-10-21T0200,2633A,94.3616,29.6616,林芝市,林芝人民医院,,14,10,7,9,7,44,,,,5,6,6,6,0.5,0.4
2024-10-21T0200,2603A,100.0781,23.8982,临沧市,市环保局,,18,17,27,12,16,41,,,,8,10,3,6,0.5,0.5
2024-10-21T0200,2604A,100.0894,23.8822,临沧市,市气象局,,28,21,29,19,21,42,,,,8,10,6,10,0.6,0.6
2024-10-21T0200,1733A,111.5531,36.0783,临汾市,临钢医院,,45,35,23,31,18,12,,,,32,24,2,3,0.7,0.7
2024-10-21T0200,1734A,111.5028,36.0714,临汾市,技工学校,,42,34,22,29,20,11,,,,40,24,3,4,0.6,0.6
2024-10-21T0200,1736A,111.5018,36.0855,临汾市,市委,,44,44,26,23,13,16,,,,32,21,4,5,0.8,0.8
2024-10-21T0200,3018A,111.505,36.1014,临汾市,唐尧大酒店,,42,37,25,29,17,17,,,,34,23,3,5,0.7,0.7
2024-10-21T0200,3668A,111.5036,36.0414,临汾市,城南,,43,40,24,30,21,3,,,,40,23,4,5,0.8,0.8
2024-10-21T0200,2667A,103.2069,35.5993,临夏回族自治州,环保局,颗粒物(PM10),54,58,46,10,16,3,,,,34,22,4,4,0.9,0.7
2024-10-21T0200,2668A,103.2417,35.6057,临夏回族自治州,建设大厦,,43,43,33,29,20,20,,,,20,15,3,3,0.6,0.6
2024-10-21T0200,1618A,118.3429,35.0532,临沂市,沂河小区,颗粒物(PM10),56,61,42,31,16,23,,,,46,20,10,7,0.4,0.3
2024-10-21T0200,1619A,118.295,35.0583,临沂市,鲁南制药厂,颗粒物(PM10),53,56,39,28,14,7,,,,57,22,8,6,0.5,0.3
2024-10-21T0200,1620A,118.2794,34.9976,临沂市,新光毛纺厂,颗粒物(PM10),51,51,38,27,13,17,,,,57,30,10,6,0.6,0.5
2024-10-21T0200,1621A,118.3956,35.0888,临沂市,河东保险公司,颗粒物(PM10),68,85,54,25,14,29,,,,40,28,8,4,0.6,0.5
2024-10-21T0200,3370A,118.3564,35.0215,临沂市,十里堡居委,颗粒物(PM10),51,51,33,31,13,12,,,,56,22,8,5,0.5,0.3
2024-10-21T0200,3496A,118.3604,35.1084,临沂市,南坊新区,颗粒物(PM10),52,53,43,29,16,27,,,,40,29,8,5,0.5,0.4
2024-10-21T0200,3860A,118.3920,35.0300,临沂市,皇山花园小区,颗粒物(PM10),51,51,39,28,17,26,,,,44,26,7,3,0.4,0.3
2024-10-21T0200,1870A,109.4856,24.3895,柳州市,柳东小学,,19,19,15,12,11,51,,,,9,7,9,8,0.6,0.6
2024-10-21T0200,1871A,109.4157,24.3277,柳州市,环保监测站,,21,21,17,9,9,57,,,,9,8,9,9,0.8,0.8
2024-10-21T0200,1872A,109.389,24.341,柳州市,河西水厂,,22,22,21,11,11,54,,,,7,6,8,8,0.9,0.8
2024-10-21T0200,1873A,109.4311,24.2921,柳州市,市四中,,17,14,17,10,7,54,,,,10,8,7,7,0.7,0.7
2024-10-21T0200,1874A,109.4006,24.3631,柳州市,市九中,,22,22,22,15,11,55,,,,8,8,6,6,0.6,0.6
2024-10-21T0200,1875A,109.4958,24.3134,柳州市,古亭山,,15,13,14,10,8,48,,,,19,10,11,8,0.8,0.7
2024-10-21T0200,3402A,109.5422,24.3996,柳州市,市二中,,19,14,15,13,9,49,,,,15,12,8,8,0.8,0.7
2024-10-21T0200,2307A,116.5079,31.737,六安市,监测大楼,细颗粒物(PM2.5),59,50,43,42,21,31,,,,19,14,4,4,0.2,0.2
2024-10-21T0200,2308A,116.4738,31.7643,六安市,皖西学院,细颗粒物(PM2.5),67,60,48,48,20,25,,,,21,16,4,5,0.4,0.4
2024-10-21T0200,2309A,116.4996,31.7905,六安市,朝阳厂,细颗粒物(PM2.5),54,53,38,38,19,26,,,,20,15,1,1,0.5,0.4
2024-10-21T0200,2310A,116.5567,31.7886,六安市,开发区,颗粒物(PM10),56,61,50,33,19,32,,,,18,13,4,4,0.4,0.3
2024-10-21T0200,2576A,104.8,26.5892,六盘水市,窑上,,,,31,26,25,55,,,,8,5,5,5,0.4,0.5
2024-10-21T0200,2577A,104.83,26.5917,六盘水市,黄土坡,,22,14,20,3,16,68,,,,4,6,5,5,0.2,0.3
2024-10-21T0200,2578A,104.89,26.5939,六盘水市,水钢,,23,12,26,6,15,72,,,,4,5,4,5,0.2,0.2
2024-10-21T0200,2579A,104.8475,26.5894,六盘水市,民中,,22,10,20,3,15,70,,,,4,7,6,7,0.3,0.3
2024-10-21T0200,2580A,104.9544,26.5506,六盘水市,双水,,23,12,20,3,12,71,,,,3,4,6,6,0.3,0.3
2024-10-21T0200,2335A,117.0189,25.1181,龙岩市,龙岩师专,,,,18,,14,,,,,,11,,8,,0.6
2024-10-21T0200,2336A,117.0217,25.1033,龙岩市,龙岩市监测站,,19,19,16,11,12,54,,,,8,10,4,6,0.3,0.3
2024-10-21T0200,2337A,117.0258,25.0661,龙岩市,闽西职业技术学院,,18,15,17,12,15,56,,,,3,6,2,3,0.3,0.4
2024-10-21T0200,2338A,117.0196,25.0306,龙岩市,龙岩学院,,14,14,21,9,12,43,,,,12,14,4,7,0.2,0.2
2024-10-21T0200,2665A,105.0822,33.3261,陇南市,汉王镇固水子,,,,,,,,,,,,,,,,
2024-10-21T0200,2885A,104.9339,33.3826,陇南市,滨江中学,,39,39,35,21,14,21,,,,16,15,9,5,0.7,0.8
2024-10-21T0200,3247A,104.955,33.371,陇南市,市总工会,,24,24,23,8,6,28,,,,10,7,6,4,0.5,0.6
2024-10-21T0200,2487A,111.9589,27.8901,娄底市,电视发射台,,12,,11,8,9,25,,,,7,8,5,5,0.6,0.5
2024-10-21T0200,2488A,111.9975,27.725,娄底市,市监测站,,18,18,20,12,12,30,,,,10,10,5,6,0.4,0.4
2024-10-21T0200,2489A,112.0194,27.7314,娄底市,市委党校,,25,18,21,17,16,27,,,,10,10,7,6,0.4,0.4
2024-10-21T0200,2490A,111.9561,27.7569,娄底市,涟钢,,30,,26,21,16,28,,,,11,16,3,6,0.3,0.4
2024-10-21T0200,2491A,111.9892,27.7044,娄底市,市政府,,28,,20,19,15,30,,,,13,14,4,4,0.5,0.5
2024-10-21T0200,1893A,105.4324,28.9634,泸州市,九狮山,,25,25,21,8,11,11,,,,25,24,5,5,0.4,0.4
2024-10-21T0200,1894A,105.4427,28.9063,泸州市,小市上码头,,36,36,23,13,11,20,,,,23,19,4,4,0.6,0.6
2024-10-21T0200,1895A,105.4241,28.8573,泸州市,兰田宪桥,,34,34,21,19,14,20,,,,22,17,4,5,0.7,0.6
2024-10-21T0200,1896A,105.4379,28.8833,泸州市,市环监站,,32,32,24,3,15,17,,,,18,18,4,5,0.5,0.6
2024-10-21T0200,3490A,105.3617,28.7703,泸州市,纳溪区环保局,,35,35,21,21,14,7,,,,29,22,6,6,0.6,0.6
2024-10-21T0200,2183A,111.1406,37.5211,吕梁市,环保局,,32,32,26,22,15,6,,,,42,28,5,3,1.2,0.6
2024-10-21T0200,2185A,111.1297,37.5136,吕梁市,自来水公司,颗粒物(PM10),51,52,29,17,14,3,,,,49,30,9,3,1.9,0.8
2024-10-21T0200,2867A,111.1283,37.51,吕梁市,马茂庄小学,颗粒物(PM10),56,62,34,22,15,2,,,,49,37,10,3,1.9,0.6
2024-10-21T0200,1812A,112.3931,34.6516,洛阳市,市委党校,,45,37,29,31,23,15,,,,45,31,3,2,0.3,0.4
2024-10-21T0200,1814A,112.4657,34.6871,洛阳市,豫西宾馆,,36,36,25,24,14,26,,,,32,23,3,2,0.1,0.1
2024-10-21T0200,1815A,112.494,34.6886,洛阳市,河南林校,,45,,21,31,17,24,,,,22,18,3,2,0.2,0.2
2024-10-21T0200,1816A,112.3844,34.623,洛阳市,开发区管委会,,36,36,27,23,15,6,,,,42,17,3,2,0.6,0.4
2024-10-21T0200,1817A,112.4267,34.6258,洛阳市,市委新办公区,,45,41,29,31,20,20,,,,30,21,3,2,0.2,0.2
2024-10-21T0200,3340A,112.6005,34.6326,洛阳市,伊滨,,36,36,29,25,17,16,,,,34,24,2,3,0.1,0.1
2024-10-21T0200,3341A,112.4951,34.6332,洛阳市,中移产业园,,38,29,24,26,15,26,,,,29,20,2,2,0.3,0.3
2024-10-21T0200,3593A,112.5736,34.8993,洛阳市,吉利监测站,,30,23,22,21,12,32,,,,15,16,1,2,0.2,0.2
2024-10-21T0200,3635A,112.3677,34.662,洛阳市,河科大西苑校区,,38,30,26,26,16,12,,,,46,24,2,3,0.3,0.3
2024-10-21T0200,3636A,112.4388,34.6781,洛阳市,英才小学,,36,36,26,25,16,15,,,,38,25,1,2,0.1,0.1
2024-10-21T0200,2399A,114.051,33.5699,漯河市,三五一五工厂,细颗粒物(PM2.5),58,42,41,41,29,26,,,,26,23,6,6,0.5,0.4
2024-10-21T0200,2400A,114.0055,33.5698,漯河市,漯河大学,"颗粒物(PM10),细颗粒物(PM2.5)",52,53,50,36,29,26,,,,25,22,5,5,0.3,0.3
2024-10-21T0200,2401A,114.0138,33.5828,漯河市,市水利局,,49,48,42,34,26,26,,,,18,16,6,6,0.8,0.7
2024-10-21T0200,2402A,114.0261,33.5698,漯河市,市广电局,细颗粒物(PM2.5),53,42,39,37,30,30,,,,21,21,5,6,0.4,0.3
2024-10-21T0200,3478A,113.9749,33.5664,漯河市,市图书馆,,43,43,41,27,23,28,,,,22,21,3,4,0.4,0.4
2024-10-21T0200,3479A,114.0967,33.5906,漯河市,召陵区卫健委,颗粒物(PM10),51,52,46,33,27,24,,,,23,21,8,8,0.2,0.1
2024-10-21T0200,1798A,118.5092,31.6837,马鞍山市,湖东路四小,,37,37,41,15,11,33,,,,27,13,5,4,0.6,0.5
2024-10-21T0200,1799A,118.5024,31.6449,马鞍山市,开发区,,38,38,38,21,14,38,,,,32,24,6,7,0.6,0.5
2024-10-21T0200,1800A,118.5228,31.7231,马鞍山市,慈湖,,32,32,30,18,15,28,,,,36,25,9,8,0.9,0.8
2024-10-21T0200,1802A,118.6245,31.7241,马鞍山市,濮塘,,24,24,22,9,10,39,,,,21,17,6,5,0.5,0.5
2024-10-21T0200,3633A,118.4918,31.6809,马鞍山市,雨山,,40,40,39,19,13,28,,,,35,18,4,4,0.9,0.8
2024-10-21T0200,1686A,111.0286,21.4688,茂名市,电白南海,,48,48,43,22,12,73,,,,13,15,15,13,0.7,0.6
2024-10-21T0200,1687A,110.9294,21.6533,茂名市,茂石化七小,,34,34,40,22,22,72,,,,8,11,12,14,0.8,0.8
2024-10-21T0200,1688A,110.9107,21.6687,茂名市,健康路,,32,27,33,22,18,84,,,,5,9,11,15,0.7,0.7
2024-10-21T0200,1689A,110.8592,21.6828,茂名市,高岭,,44,44,45,29,26,56,,,,11,15,15,21,0.7,0.7
2024-10-21T0200,3450A,111.01,21.5165,茂名市,电白水东,,41,41,32,24,19,79,,,,10,9,12,10,0.8,0.7
2024-10-21T0200,2539A,104.0308,30.0478,眉山市,黑龙滩水库,,24,24,20,15,13,56,,,,2,4,5,5,0.0,0.1
2024-10-21T0200,2540A,103.8416,30.0874,眉山市,气象局,,12,12,15,3,9,32,,,,14,16,6,6,0.5,0.5
2024-10-21T0200,3137A,103.8578,30.0744,眉山市,市委党校,,11,7,10,3,4,33,,,,15,14,7,6,0.5,0.5
2024-10-21T0200,3148A,103.8291,30.0564,眉山市,区人社局,,13,13,17,3,4,37,,,,16,21,4,4,0.6,0.6
2024-10-21T0200,1690A,116.1231,24.3284,梅州市,梅江月梅,,30,30,30,16,21,10,,,,27,15,7,8,0.7,0.7
2024-10-21T0200,1691A,116.0797,24.2719,梅州市,梅县新城,,23,23,27,10,19,32,,,,9,8,5,5,0.6,0.6
2024-10-21T0200,1692A,116.1248,24.2654,梅州市,环境监控中心,,22,22,32,15,21,14,,,,23,15,5,6,0.6,0.6
2024-10-21T0200,3315A,116.1233,24.2991,梅州市,梅龙,,30,,25,21,21,26,,,,12,11,10,10,0.8,0.8
2024-10-21T0200,1878A,104.7778,31.4741,绵阳市,富乐山,,19,19,7,7,5,6,,,,11,7,2,2,0.6,0.5
2024-10-21T0200,1879A,104.7563,31.4535,绵阳市,市人大,,21,21,10,9,7,26,,,,14,17,10,9,0.6,0.6
2024-10-21T0200,1880A,104.6697,31.4668,绵阳市,高新区自来水公司,,34,34,12,14,12,14,,,,16,12,3,3,0.7,0.6
2024-10-21T0200,1881A,104.7287,31.5075,绵阳市,三水厂,,19,19,9,11,6,15,,,,27,16,6,6,0.7,0.7
2024-10-21T0200,3491A,104.69,31.5322,绵阳市,西科大附属小学,,24,24,9,10,7,18,,,,23,14,4,4,0.7,0.6
2024-10-21T0200,3492A,104.5648,31.5343,绵阳市,安州区旅游局,,20,,7,14,6,5,,,,29,14,8,7,0.6,0.6
2024-10-21T0200,1784A,129.61,44.561,牡丹江市,环保大楼,,42,38,41,29,21,5,,,,36,33,6,20,0.5,0.5
2024-10-21T0200,1785A,129.6115,44.5782,牡丹江市,文化广场,颗粒物(PM10),58,66,50,20,26,3,,,,40,29,9,10,0.8,0.6
2024-10-21T0200,1786A,129.5904,44.5963,牡丹江市,第一医院,细颗粒物(PM2.5),63,71,44,45,32,8,,,,37,26,10,9,0.9,0.5
2024-10-21T0200,1787A,129.6364,44.6075,牡丹江市,机车工厂,颗粒物(PM10),57,64,41,32,21,4,,,,32,23,23,49,0.6,0.4
2024-10-21T0200,1788A,129.6386,44.5462,牡丹江市,第一中学,,33,33,32,10,16,10,,,,16,21,6,7,0.2,0.3
2024-10-21T0200,2531A,105.0703,29.61,内江市,市监测站,,17,17,22,3,11,37,,,,6,12,4,4,0.4,0.5
2024-10-21T0200,2532A,105.0717,29.5947,内江市,东兴区政府,,14,6,17,3,10,42,,,,8,12,6,6,0.6,0.7
2024-10-21T0200,2533A,105.0653,29.5817,内江市,内江二中,,15,10,22,10,15,40,,,,11,15,5,5,0.5,0.6
2024-10-21T0200,2534A,105.0406,29.5822,内江市,内江日报社,,15,15,22,10,14,30,,,,16,18,5,6,0.5,0.5
2024-10-21T0200,2628A,92.0657,31.4846,那曲市,那曲监测站,,30,30,58,15,26,52,,,,12,13,5,7,0.9,0.6
2024-10-21T0200,3128A,92.0506,31.4797,那曲市,那曲会议中心,,38,38,88,15,23,32,,,,30,14,3,3,0.8,0.6
2024-10-21T0200,1290A,115.8931,28.6843,南昌市,省外办,,49,49,38,29,26,40,,,,29,20,12,10,0.8,0.6
2024-10-21T0200,1291A,115.8886,28.7003,南昌市,省林业公司,,46,46,35,24,20,40,,,,23,16,8,6,0.7,0.5
2024-10-21T0200,1292A,115.8126,28.7442,南昌市,林科所,,39,39,29,22,15,49,,,,18,16,9,8,0.9,0.8
2024-10-21T0200,1294A,115.8518,28.687,南昌市,建工学校,颗粒物(PM10),51,51,40,15,20,44,,,,22,18,10,8,0.5,0.4
2024-10-21T0200,1295A,115.8921,28.6424,南昌市,象湖,,40,40,35,25,20,48,,,,27,21,10,9,0.6,0.4
2024-10-21T0200,1296A,115.7423,28.7996,南昌市,武术学校,,42,,20,29,24,31,,,,12,10,3,3,0.5,0.4
2024-10-21T0200,1298A,115.9314,28.6842,南昌市,省站,颗粒物(PM10),54,57,37,31,24,42,,,,25,21,12,10,0.7,0.6
2024-10-21T0200,3046A,115.9084,28.6062,南昌市,机电学校,颗粒物(PM10),54,58,47,24,22,37,,,,30,21,9,7,0.6,0.4
2024-10-21T0200,3690A,115.9721,28.7031,南昌市,外国语学校,颗粒物(PM10),51,51,43,26,20,41,,,,23,18,8,7,0.8,0.6
2024-10-21T0200,1905A,106.056,30.8064,南充市,西山风景区,,10,,6,7,7,22,,,,6,7,1,1,0.7,0.7
2024-10-21T0200,1906A,106.0789,30.8023,南充市,南充市委,,9,9,8,3,5,24,,,,10,13,2,2,0.3,0.4
2024-10-21T0200,1907A,106.1031,30.8217,南充市,南充炼油厂,,16,16,20,9,9,33,,,,4,6,2,2,0.3,0.4
2024-10-21T0200,1908A,106.1064,30.7856,南充市,高坪区监测站,,12,10,10,3,10,36,,,,8,10,4,5,0.4,0.4
2024-10-21T0200,1909A,106.0642,30.7636,南充市,嘉陵区环保局,,18,18,14,7,6,21,,,,14,13,1,1,0.4,0.5
2024-10-21T0200,1910A,106.1087,30.8388,南充市,市环境监测站,,16,16,16,11,11,28,,,,9,10,2,2,0.3,0.3
2024-10-21T0200,1151A,118.8086,32.1065,南京市,迈皋桥,,35,35,28,12,9,46,,,,21,16,4,4,0.3,0.3
2024-10-21T0200,1152A,118.7538,32.0551,南京市,草场门,,46,46,32,9,9,42,,,,26,22,4,4,0.4,0.3
2024-10-21T0200,1153A,118.7794,32.0745,南京市,山西路,,44,44,36,14,12,56,,,,13,12,4,4,0.4,0.4
2024-10-21T0200,1154A,118.7752,32.0023,南京市,中华门,,44,44,35,17,10,46,,,,20,16,5,6,0.4,0.4
2024-10-21T0200,1155A,118.8109,32.0309,南京市,瑞金路,,39,39,36,19,11,47,,,,14,12,5,5,0.2,0.2
2024-10-21T0200,1156A,118.7997,32.0754,南京市,玄武湖,,40,40,35,12,9,38,,,,31,25,5,5,0.6,0.5
2024-10-21T0200,1157A,118.6414,32.0931,南京市,浦口,,41,41,38,21,16,34,,,,21,17,6,6,0.7,0.7
2024-10-21T0200,1158A,118.7356,31.9996,南京市,奥体中心,,44,44,36,17,14,52,,,,23,19,6,6,0.3,0.3
2024-10-21T0200,1159A,118.9125,32.1028,南京市,仙林大学城,,36,36,36,12,11,50,,,,14,16,4,4,0.5,0.4
2024-10-21T0200,3422A,118.8436,31.9198,南京市,江宁彩虹桥,,48,48,43,17,10,48,,,,15,13,5,4,0.5,0.4
2024-10-21T0200,3423A,119.0138,31.6494,南京市,溧水永阳,,39,39,33,22,13,42,,,,10,13,4,4,0.4,0.3
2024-10-21T0200,3424A,118.879,31.3302,南京市,高淳老职中,,32,32,25,15,14,48,,,,19,16,5,5,0.4,0.3
2024-10-21T0200,3427A,118.8554,32.3578,南京市,六合雄州,,41,41,37,7,11,39,,,,15,17,3,3,0.4,0.3
2024-10-21T0200,1401A,108.3103,22.7881,南宁市,二十一中,,33,33,26,19,17,80,,,,15,12,3,4,0.6,0.6
2024-10-21T0200,1402A,108.3141,22.8528,南宁市,北湖,,30,30,30,20,19,85,,,,10,10,9,9,0.9,0.9
2024-10-21T0200,1403A,108.3206,22.8225,南宁市,市监测站,,35,26,27,24,17,88,,,,10,13,7,8,0.8,0.8
2024-10-21T0200,1404A,108.3829,22.8037,南宁市,大自然花园,,24,24,24,16,16,73,,,,18,13,6,7,0.7,0.7
2024-10-21T0200,1405A,108.4394,22.7904,南宁市,仙葫,,34,34,24,18,14,70,,,,15,10,6,7,0.9,0.8
2024-10-21T0200,1406A,108.2397,22.8467,南宁市,区农职院,,31,31,31,17,17,86,,,,14,11,6,8,0.8,0.8
2024-10-21T0200,1407A,108.3275,22.735,南宁市,英华嘉园,,38,38,25,20,17,73,,,,15,14,5,6,0.7,0.7
2024-10-21T0200,1408A,108.2257,22.7757,南宁市,沙井镇街道办,,38,38,32,20,17,65,,,,28,22,4,5,0.9,0.9
2024-10-21T0200,3401A,108.4834,22.7618,南宁市,红星社区,,29,29,23,20,14,62,,,,21,10,5,5,0.8,0.8
2024-10-21T0200,2331A,118.0966,26.6761,南平市,茫荡山,,,,4,,,,,,,,,,2,,0.3
2024-10-21T0200,2332A,118.1681,26.6369,南平市,南平市监测站,,15,15,10,3,4,20,,,,17,8,4,4,0.4,0.4
2024-10-21T0200,2333A,118.1825,26.6489,南平市,南平铝业有限公司,,21,21,12,10,8,13,,,,21,9,3,3,0.5,0.5
2024-10-21T0200,2334A,118.1756,26.6272,南平市,南平七中,,19,19,15,10,8,16,,,,16,8,3,4,0.5,0.5
2024-10-21T0200,1168A,120.9098,31.9663,南通市,狼山街道,,10,8,23,6,8,30,,,,10,8,6,6,0.5,0.4
2024-10-21T0200,1169A,120.86,32.0005,南通市,虹桥,,10,,24,7,10,32,,,,12,12,6,6,0.4,0.3
2024-10-21T0200,1170A,120.87,32.02,南通市,城中,,10,6,26,3,8,32,,,,14,10,5,6,0.6,0.6
2024-10-21T0200,1171A,120.94,31.93,南通市,星湖花园,,13,9,21,9,9,30,,,,16,15,4,5,0.6,0.4
2024-10-21T0200,1172A,120.81,32.0417,南通市,紫琅学院,,12,6,21,3,7,36,,,,10,11,2,3,0.5,0.5
2024-10-21T0200,3291A,121.067,32.062,南通市,通州监测站,,27,27,25,7,7,27,,,,11,9,2,2,0.5,0.3
2024-10-21T0200,3432A,120.9348,31.9883,南通市,环境教育馆,,12,12,25,8,6,28,,,,14,11,3,3,0.6,0.5
2024-10-21T0200,2404A,112.5224,33.0122,南阳市,瓦房庄,细颗粒物(PM2.5),58,,37,41,32,24,,,,26,19,3,3,0.6,0.6
2024-10-21T0200,2405A,112.5003,32.9735,南阳市,汉画馆,细颗粒物(PM2.5),62,,37,44,34,25,,,,28,22,6,6,0.4,0.4
2024-10-21T0200,2406A,112.5573,33.027,南阳市,气象站,,49,43,41,34,26,27,,,,28,22,4,5,0.7,0.6
2024-10-21T0200,2407A,112.5481,32.9689,南阳市,理工学院,细颗粒物(PM2.5),54,45,41,38,29,23,,,,27,22,3,4,0.6,0.5
2024-10-21T0200,4008A,112.5234,32.9922,南阳市,卧龙区政府,细颗粒物(PM2.5),54,41,41,38,31,24,,,,26,19,3,4,0.5,0.4
2024-10-21T0200,1234A,121.8358,29.911,宁波市,区环保大楼,颗粒物(PM10),54,58,45,25,18,47,,,,17,21,6,9,0.7,0.7
2024-10-21T0200,1235A,121.56,29.82,宁波市,万里学院,,48,48,41,29,16,51,,,,20,18,6,6,0.7,0.6
2024-10-21T0200,1236A,121.713,29.9572,宁波市,龙赛医院,,37,37,34,14,10,46,,,,16,20,8,9,0.7,0.7
2024-10-21T0200,1239A,121.633,29.7733,宁波市,钱湖水厂,颗粒物(PM10),53,56,46,24,16,42,,,,18,18,9,9,0.7,0.6
2024-10-21T0200,1240A,121.5856,29.8635,宁波市,太古小学,颗粒物(PM10),54,58,45,23,12,51,,,,18,20,8,8,0.9,0.8
2024-10-21T0200,1241A,121.524,29.8674,宁波市,市环境监测中心,颗粒物(PM10),54,58,39,15,11,46,,,,22,20,8,8,0.7,0.6
2024-10-21T0200,2871A,121.6147,29.9017,宁波市,万里国际学校,,44,44,39,22,12,46,,,,26,30,8,8,0.5,0.4
2024-10-21T0200,3710A,121.5594,29.8975,宁波市,白沙活动中心,颗粒物(PM10),56,62,40,15,10,48,,,,18,18,8,8,0.6,0.6
2024-10-21T0200,2339A,119.5001,26.6946,宁德市,金涵水库,,,,23,,,,,,,,10,,3,,0.5
2024-10-21T0200,2341A,119.5388,26.6612,宁德市,宁德市监测站,,30,28,20,18,13,95,,,,10,12,2,2,0.5,0.5
2024-10-21T0200,3209A,119.5231,26.6562,宁德市,宁德一中,,30,29,21,15,7,94,,,,8,10,2,3,0.3,0.4
2024-10-21T0200,2618A,98.8601,25.8567,怒江傈僳族自治州,州监测站,,29,29,30,14,19,10,,,,9,11,5,5,0.2,0.3
2024-10-21T0200,2619A,98.8546,25.8417,怒江傈僳族自治州,泸水一中,,24,24,25,13,18,0,,,,15,14,7,7,0.5,0.5
2024-10-21T0200,1888A,101.6891,26.571,攀枝花市,弄弄坪,颗粒物(PM10),57,64,56,27,32,7,,,,45,33,14,17,1.0,1.3
2024-10-21T0200,1889A,101.5769,26.5928,攀枝花市,河门口,,24,24,37,14,26,26,,,,19,21,7,12,0.8,1.2
2024-10-21T0200,1890A,101.7169,26.585,攀枝花市,炳草岗,颗粒物(PM10),54,57,51,29,31,5,,,,45,33,16,16,0.8,0.9
2024-10-21T0200,1891A,101.7369,26.5008,攀枝花市,仁和,,32,30,37,22,27,28,,,,10,17,4,11,0.2,1
2024-10-21T0200,2835A,101.7227,26.567,攀枝花市,四十中小,,43,43,46,19,27,8,,,,18,13,20,17,1.1,1.1
2024-10-21T0200,1604A,122.0303,41.1489,盘锦市,开发区,,32,,30,22,16,48,,,,13,21,1,2,0.4,0.4
2024-10-21T0200,1605A,122.0485,41.0883,盘锦市,兴隆台,细颗粒物(PM2.5),64,,31,46,24,45,,,,18,30,5,8,0.5,0.4
2024-10-21T0200,1606A,121.8297,41.1028,盘锦市,新生街道,,27,27,26,15,14,56,,,,18,23,8,10,0.4,0.4
2024-10-21T0200,1832A,113.3257,33.742,平顶山市,新华旅馆,细颗粒物(PM2.5),55,47,49,39,31,38,,,,23,20,7,6,0.1,0.1
2024-10-21T0200,1833A,113.2919,33.737,平顶山市,规划设计院,,30,30,37,17,21,50,,,,20,18,6,7,0.5,0.6
2024-10-21T0200,1834A,113.182,33.774,平顶山市,平顶山工学院,,40,40,33,12,16,29,,,,23,17,6,6,0.5,0.4
2024-10-21T0200,3204A,113.3025,33.73,平顶山市,规划局,,46,46,43,22,24,39,,,,24,20,6,6,0.4,0.3
2024-10-21T0200,3594A,112.8867,33.9116,平顶山市,石龙区,颗粒物(PM10),56,62,46,30,25,20,,,,28,20,9,8,0.6,0.5
2024-10-21T0200,2656A,106.6692,35.5461,平凉市,聚贤嘉苑,,25,25,32,17,21,37,,,,18,20,6,7,0.4,0.4
2024-10-21T0200,2657A,106.7021,35.5307,平凉市,博物馆,,31,31,35,17,20,63,,,,9,13,14,7,0.3,0.3
2024-10-21T0200,2347A,114.0997,27.5002,萍乡市,武功山,,22,17,6,15,12,30,,,,6,6,11,9,0.3,0.4
2024-10-21T0200,2348A,113.8385,27.6434,萍乡市,中医院,颗粒物(PM10),65,79,29,39,16,2,,,,26,12,12,14,0.8,0.7
2024-10-21T0200,2349A,113.8493,27.6253,萍乡市,市政府车库,颗粒物(PM10),54,58,25,32,15,5,,,,29,11,22,15,1.0,0.8
2024-10-21T0200,2350A,113.8676,27.6435,萍乡市,市环保局,颗粒物(PM10),54,57,25,30,15,6,,,,25,8,15,11,0.7,0.4
2024-10-21T0200,2351A,113.866,27.6198,萍乡市,安源区政府,颗粒物(PM10),52,54,25,19,11,3,,,,31,15,17,12,0.7,0.7
2024-10-21T0200,2319A,119.0141,25.4325,莆田市,荔城区仓后路,,30,30,15,15,5,90,,,,6,5,1,2,0.5,0.4
2024-10-21T0200,2320A,119.0015,25.4553,莆田市,莆田市监测站,,30,26,14,14,5,94,,,,5,4,1,1,0.9,0.8
2024-10-21T0200,2321A,119.1119,25.4561,莆田市,涵江区六中,,31,24,16,8,4,98,,,,5,5,1,1,0.4,0.4
2024-10-21T0200,2322A,119.1013,25.3215,莆田市,秀屿区政府,,30,25,20,10,5,93,,,,5,6,1,1,0.4,0.4
2024-10-21T0200,2323A,118.981,25.4792,莆田市,东圳水库,,,,12,,5,,,,,,4,,3,,0.2
2024-10-21T0200,2392A,115.0312,35.7636,濮阳市,环保局,,39,29,25,27,17,19,,,,29,28,3,5,0.5,0.4
2024-10-21T0200,2394A,115.0574,35.7609,濮阳市,油田运输公司,,42,38,26,29,15,20,,,,29,26,5,4,0.4,0.4
2024-10-21T0200,2395A,115.0866,35.7754,濮阳市,油田物探公司,,48,38,30,33,18,14,,,,33,27,4,4,0.2,0.2
2024-10-21T0200,3021A,115,35.7668,濮阳市,濮水河管理处,,42,38,33,29,17,4,,,,26,26,1,3,0.5,0.5
2024-10-21T0200,2601A,100.98,22.7633,普洱市,市环保局,,24,24,25,14,17,6,,,,14,8,5,4,0.5,0.4
2024-10-21T0200,2602A,100.9817,22.8322,普洱市,普洱第二中学,,30,30,28,15,14,5,,,,14,9,5,5,0.4,0.4
2024-10-21T0200,2262A,131.0518,45.8751,七台河市,新一中,,17,17,20,9,9,41,,,,15,16,12,11,0.8,0.8
2024-10-21T0200,3345A,131.0577,45.7879,七台河市,中波台,,20,20,30,8,10,50,,,,12,20,8,8,0.6,0.6
2024-10-21T0200,3637A,131.0176,45.7761,七台河市,人民广场,,19,16,30,13,18,56,,,,8,20,8,8,0.5,0.6
2024-10-21T0200,3684A,130.8781,45.8222,七台河市,新建矿广场,颗粒物(PM10),161,271,68,23,18,44,,,,19,24,8,8,0.5,0.5
2024-10-21T0200,1779A,123.9305,47.3636,齐齐哈尔市,安居小区,,32,32,48,18,14,49,,,,9,17,11,13,0.3,0.3
2024-10-21T0200,1780A,123.9488,47.3386,齐齐哈尔市,中心广场,,25,22,41,17,21,47,,,,9,16,4,5,0.2,0.3
2024-10-21T0200,1781A,123.9483,47.3227,齐齐哈尔市,农牧车辆厂,,31,31,48,3,9,47,,,,8,14,4,5,0.3,0.4
2024-10-21T0200,1783A,123.945,47.2988,齐齐哈尔市,市环境监测站,,30,30,42,10,9,50,,,,9,12,8,8,0.3,0.3
2024-10-21T0200,3662A,123.6333,47.2075,齐齐哈尔市,富区青少年活动中心,,22,22,49,8,10,47,,,,6,11,6,12,0.4,0.5
2024-10-21T0200,2591A,107.9783,26.5747,黔东南苗族侗族自治州,市环境监测站,,28,28,18,17,13,23,,,,6,13,4,4,0.6,0.5
2024-10-21T0200,2881A,107.8908,26.5311,黔东南苗族侗族自治州,凯里学院,,,14,12,,7,22,,,,6,11,5,5,0.6,0.6
2024-10-21T0200,2593A,107.5228,26.2403,黔南布依族苗族自治州,小围寨,,17,17,7,9,2,17,,,,6,5,3,3,0.5,0.5
2024-10-21T0200,3538A,107.5175,26.2978,黔南布依族苗族自治州,沙坝,,18,18,10,3,4,30,,,,5,9,3,3,0.5,0.5
2024-10-21T0200,2589A,104.9022,25.0925,黔西南布依族苗族自治州,场坝街,,17,15,18,6,11,54,,,,4,5,4,3,0.2,0.3
2024-10-21T0200,2590A,104.8811,25.0992,黔西南布依族苗族自治州,坪东大道,,16,13,21,9,12,49,,,,2,4,1,1,0.2,0.2
2024-10-21T0200,2502A,108.6236,21.9667,钦州市,市环保站,,31,31,42,19,18,56,,,,18,16,7,8,0.8,0.8
2024-10-21T0200,2503A,108.6549,21.9481,钦州市,沙埠小学,,34,34,46,19,19,56,,,,18,16,9,6,0.8,0.9
2024-10-21T0200,2504A,108.5989,21.7431,钦州市,港区一小,颗粒物(PM10),54,57,45,22,21,65,,,,20,25,6,7,0.7,0.8
2024-10-21T0200,3404A,108.5959,21.9633,钦州市,北职校,,43,43,37,29,24,56,,,,12,13,6,7,0.8,0.8
2024-10-21T0200,1042A,119.5134,39.8207,秦皇岛市,北戴河环保局,,23,23,21,13,9,41,,,,17,14,5,4,0.6,0.6
2024-10-21T0200,1043A,119.7493,40.0116,秦皇岛市,第一关,,32,27,26,22,18,9,,,,58,36,4,3,0.6,0.5
2024-10-21T0200,1044A,119.5897,39.9499,秦皇岛市,监测站,,41,41,28,21,16,43,,,,20,21,5,4,0.6,0.5
2024-10-21T0200,1046A,119.5251,39.9041,秦皇岛市,建设大厦,,43,40,27,30,16,36,,,,23,24,3,2,0.6,0.4
2024-10-21T0200,3132A,119.610547,39.943889,秦皇岛市,文明里,,33,33,31,17,12,39,,,,22,23,4,3,0.5,0.5
2024-10-21T0200,1307A,120.6659,36.2403,青岛市,仰口,,26,,27,18,15,67,,,,3,7,5,6,0.7,0.6
2024-10-21T0200,1310A,120.4134,36.0658,青岛市,市南区东部子站,,27,27,41,17,12,56,,,,15,26,5,7,0.5,0.5
2024-10-21T0200,1311A,120.3664,36.1032,青岛市,四方区子站,,35,24,37,24,16,57,,,,21,27,8,9,0.4,0.4
2024-10-21T0200,1312A,120.2994,36.054,青岛市,市南区西部子站,,20,19,37,10,9,62,,,,14,18,8,9,0.6,0.5
2024-10-21T0200,1313A,120.4581,36.0858,青岛市,崂山区子站,,22,17,34,14,10,68,,,,16,24,8,8,0.6,0.6
2024-10-21T0200,1314A,120.1983,35.9608,青岛市,黄岛区子站,,25,19,41,17,14,56,,,,24,38,7,9,0.5,0.5
2024-10-21T0200,1315A,120.3999,36.3083,青岛市,城阳区子站,,25,19,35,17,14,56,,,,13,20,7,8,0.6,0.6
2024-10-21T0200,1966A,120.0405,35.8735,青岛市,黄岛区4号,,22,19,35,9,10,68,,,,15,22,5,7,0.5,0.4
2024-10-21T0200,3362A,120.5014,36.4034,青岛市,即墨2号,,28,,37,19,18,40,,,,22,22,6,7,0.5,0.5
2024-10-21T0200,3642A,120.3503,36.0736,青岛市,市北区南部,,30,30,42,14,12,47,,,,29,29,6,9,0.5,0.4
2024-10-21T0200,3643A,120.3948,36.1805,青岛市,李沧区北部,,32,27,39,22,17,54,,,,21,27,8,9,0.7,0.7
2024-10-21T0200,1702A,113.0426,23.691,清远市,环保大楼,,22,22,19,10,9,55,,,,8,6,13,6,0.8,0.7
2024-10-21T0200,1703A,113.0208,23.7106,清远市,凤城街办,,21,20,20,12,10,65,,,,7,7,10,8,0.7,0.7
2024-10-21T0200,3025A,113.0477,23.6344,清远市,技师学院,,24,24,23,13,13,53,,,,13,11,16,9,0.8,0.8
2024-10-21T0200,3318A,112.9903,23.7403,清远市,清新太和,,21,21,16,13,11,66,,,,7,4,6,4,0.7,0.7
2024-10-21T0200,3455A,113.076,23.7198,清远市,清城东城,,27,27,18,12,10,60,,,,7,5,11,8,0.9,0.8
2024-10-21T0200,2661A,107.6325,35.7357,庆阳市,庆阳五中,,19,19,23,13,16,43,,,,10,10,6,6,0.3,0.4
2024-10-21T0200,2662A,107.6364,35.7067,庆阳市,市环保局,,20,20,24,9,14,44,,,,12,13,5,5,0.4,0.4
2024-10-21T0200,1916A,103.7897,25.5035,曲靖市,环境监测站,,23,23,23,15,14,31,,,,18,14,5,4,0.5,0.5
2024-10-21T0200,1917A,103.8,25.5364,曲靖市,烟厂办公区,,30,30,24,19,14,38,,,,18,15,5,4,0.6,0.5
2024-10-21T0200,3376A,103.7947,25.462,曲靖市,南苑二区,,16,16,20,11,13,51,,,,5,5,11,9,0.6,0.6
2024-10-21T0200,3377A,103.7444,25.5261,曲靖市,曲靖师范学院,,26,26,21,15,15,14,,,,30,14,7,6,0.7,0.6
2024-10-21T0200,1264A,118.8692,28.9398,衢州市,环保大楼,,38,38,28,14,14,43,,,,18,16,4,4,0.5,0.5
2024-10-21T0200,1265A,118.8709,28.9666,衢州市,实验学校,,35,35,25,14,13,52,,,,18,14,7,6,0.4,0.3
2024-10-21T0200,1266A,118.8621,28.9808,衢州市,衢州学院,,36,36,24,15,12,52,,,,24,20,6,5,0.4,0.3
2024-10-21T0200,1611A,118.5819,24.9117,泉州市,涂山街,,23,23,16,14,8,73,,,,13,9,1,2,0.5,0.5
2024-10-21T0200,1612A,118.5972,24.8978,泉州市,津头埔,,25,25,20,14,9,72,,,,14,10,1,3,0.5,0.5
2024-10-21T0200,1613A,118.6663,24.9424,泉州市,万安,,24,24,18,12,8,74,,,,12,7,1,2,0.5,0.4
2024-10-21T0200,1614A,118.6117,24.9604,泉州市,清源山,,,,13,,4,,,,,,6,,2,,0.4
2024-10-21T0200,3529A,118.6333,24.9264,泉州市,城华南路,,26,26,19,11,9,68,,,,9,6,1,2,0.3,0.3
2024-10-21T0200,2626A,88.8876,29.2718,日喀则市,日喀则监测站,,32,10,19,3,5,100,,,,5,6,5,5,0.5,0.5
2024-10-21T0200,3726A,88.8781,29.2426,日喀则市,林业技术推广中心,,30,8,24,3,5,95,,,,4,6,7,7,0.5,0.5
2024-10-21T0200,1659A,119.471,35.4209,日照市,监测站,,36,36,32,20,13,56,,,,22,20,5,6,0.5,0.5
2024-10-21T0200,1660A,119.523,35.4216,日照市,市政府广场,,29,29,33,15,11,54,,,,20,17,5,5,0.4,0.4
2024-10-21T0200,1661A,119.5587,35.4044,日照市,港务局,,42,36,36,29,16,57,,,,20,22,5,4,0.5,0.5
2024-10-21T0200,3507A,119.5328,35.4625,日照市,职业技术学院,,31,31,33,19,11,58,,,,21,16,4,4,0.4,0.3
2024-10-21T0200,3604A,119.3266,35.1044,日照市,岚山环保分局,颗粒物(PM10),53,56,47,25,18,39,,,,34,26,13,17,1.8,1.3
2024-10-21T0200,1835A,111.1922,34.7752,三门峡市,市政府,,25,,17,17,10,33,,,,16,18,2,4,0.5,0.5
2024-10-21T0200,1836A,111.1587,34.7942,三门峡市,开发区,细颗粒物(PM2.5),52,48,29,36,16,29,,,,19,18,2,3,0.3,0.3
2024-10-21T0200,1838A,111.143,34.7955,三门峡市,风景区,,46,,21,32,18,28,,,,16,13,9,10,0.4,0.4
2024-10-21T0200,3039A,111.1911,34.7829,三门峡市,三门峡市第一小学,,33,,17,23,6,31,,,,14,15,1,4,0.4,0.4
2024-10-21T0200,3598A,111.1,34.7167,三门峡市,富达温泉假日酒店,,45,,33,31,17,21,,,,18,16,1,2,0.6,0.5
2024-10-21T0200,2324A,117.6211,26.2625,三明市,三钢,,19,19,17,12,16,32,,,,15,8,9,3,0.4,0.4
2024-10-21T0200,2325A,117.635,26.2714,三明市,三明二中,,13,12,13,9,9,39,,,,11,8,10,3,0.5,0.5
2024-10-21T0200,2326A,117.6028,26.2378,三明市,三元区政府,,18,18,16,8,6,49,,,,8,7,10,4,0.5,0.5
2024-10-21T0200,2327A,117.7275,26.3108,三明市,洋溪,,,,31,,11,,,,,,9,,6,,0.3
2024-10-21T0200,1876A,109.5078,18.2489,三亚市,河东子站,,22,13,18,7,8,70,,,,1,3,4,4,0.5,0.4
2024-10-21T0200,1877A,109.4964,18.2681,三亚市,河西子站,,21,9,16,3,7,66,,,,3,10,4,4,0.4,0.3
2024-10-21T0200,3540A,109.7348,18.3443,三亚市,君悦子站,,25,25,22,7,8,64,,,,4,6,2,3,0.4,0.3
2024-10-21T0200,2624A,91.7608,29.2313,山南市,山南监测站,,26,6,10,3,7,82,,,,4,4,4,4,0.4,0.4
2024-10-21T0200,2625A,91.7706,29.2436,山南市,山南人民医院,,26,8,19,3,7,81,,,,6,7,5,4,0.5,0.5
2024-10-21T0200,1674A,116.6794,23.3667,汕头市,金平子站,,21,20,22,6,6,65,,,,11,10,6,6,0.6,0.7
2024-10-21T0200,1675A,116.7244,23.3633,汕头市,龙湖子站,,20,16,22,8,7,63,,,,4,5,8,8,0.6,0.7
2024-10-21T0200,1676A,116.7258,23.2775,汕头市,濠江子站,,21,12,18,6,10,67,,,,6,7,6,6,0.5,0.5
2024-10-21T0200,1677A,116.7519,23.4714,汕头市,澄海子站,,20,,23,8,7,64,,,,11,10,7,7,0.6,0.7
2024-10-21T0200,1678A,116.6092,23.2539,汕头市,潮阳子站,,22,20,23,3,3,69,,,,4,3,6,6,0.5,0.6
2024-10-21T0200,3444A,116.454,23.2684,汕头市,潮南峡山,,21,18,17,3,5,65,,,,11,9,7,7,0.7,0.7
2024-10-21T0200,3624A,116.4069,23.2533,汕头市,潮南子站,,25,25,20,11,8,62,,,,12,12,8,7,0.7,0.7
2024-10-21T0200,1693A,115.3653,22.775,汕尾市,市环保局,,24,23,19,14,10,74,,,,10,8,9,9,0.6,0.6
2024-10-21T0200,1694A,115.3706,22.7898,汕尾市,市政府,,36,36,21,10,8,71,,,,10,8,6,7,0.6,0.6
2024-10-21T0200,1695A,115.3622,22.7925,汕尾市,新城中学,,22,17,23,12,9,69,,,,9,9,9,10,0.6,0.5
2024-10-21T0200,2645A,109.9154,33.8715,商洛市,监测站,,15,6,10,3,8,48,,,,16,18,2,3,0.5,0.5
2024-10-21T0200,3045A,109.9643,33.8471,商洛市,商州区中学,,14,11,12,6,9,44,,,,16,18,4,5,0.7,0.7
2024-10-21T0200,2408A,115.6702,34.4285,商丘市,环境监测站,,43,39,36,30,20,16,,,,32,24,5,4,0.4,0.3
2024-10-21T0200,2409A,115.6458,34.4045,商丘市,粮食局,细颗粒物(PM2.5),55,,37,39,27,29,,,,26,25,3,3,0.5,0.4
2024-10-21T0200,2410A,115.6293,34.3948,商丘市,睢阳区环保局,,40,33,39,28,22,24,,,,26,22,6,5,0.3,0.2
2024-10-21T0200,3171A,115.6071,34.4465,商丘市,梁园区档案局,,43,38,36,30,22,19,,,,34,28,6,4,0.3,0.3
2024-10-21T0200,1141A,121.4,31.238,上海市,普陀,,43,43,39,11,7,2,,,,39,27,4,4,0.5,0.5
2024-10-21T0200,1142A,121.478,31.2036,上海市,十五厂,,36,36,39,22,15,2,,,,48,30,9,9,0.6,0.6
2024-10-21T0200,1143A,121.467,31.3008,上海市,虹口,,38,38,38,21,15,2,,,,45,26,8,8,0.6,0.7
2024-10-21T0200,1144A,121.412,31.1654,上海市,徐汇上师大,颗粒物(PM10),52,53,40,21,13,1,,,,55,32,8,8,0.6,0.6
2024-10-21T0200,1145A,121.536,31.2659,上海市,杨浦四漂,,34,34,39,21,15,3,,,,49,29,4,5,0.8,0.7
2024-10-21T0200,1147A,121.425,31.2261,上海市,静安监测站,,43,43,38,22,13,4,,,,43,31,6,6,0.5,0.5
2024-10-21T0200,1148A,121.703,31.1907,上海市,浦东川沙,颗粒物(PM10),56,62,41,19,11,4,,,,48,32,6,6,0.8,0.5
2024-10-21T0200,1149A,121.533,31.2284,上海市,浦东新区监测站,,35,34,38,24,17,3,,,,54,33,7,7,0.8,0.8
2024-10-21T0200,1150A,121.577,31.2071,上海市,浦东张江,,29,29,33,20,19,4,,,,53,33,5,5,0.9,0.7
2024-10-21T0200,3265A,121.4316,31.3322,上海市,宝山庙行,,46,46,38,20,12,2,,,,40,26,8,9,0.7,0.7
2024-10-21T0200,3266A,121.8791,31.4662,上海市,崇明上实东滩,,26,26,26,8,8,73,,,,4,5,8,7,0.6,0.6
2024-10-21T0200,3268A,121.3162,31.2838,上海市,嘉定南翔,,37,37,38,16,8,5,,,,37,26,7,8,0.5,0.4
2024-10-21T0200,3269A,121.3359,30.7456,上海市,金山新城,,33,33,39,21,15,18,,,,23,20,4,5,1.0,0.5
2024-10-21T0200,3270A,121.4996,31.0739,上海市,闵行浦江,,39,39,38,18,12,1,,,,46,32,6,6,0.7,0.7
2024-10-21T0200,3271A,121.2886,31.1663,上海市,青浦徐泾,,31,31,37,14,14,10,,,,34,30,6,6,0.6,0.4
2024-10-21T0200,3272A,121.2186,31.0378,上海市,松江图书馆,,26,26,37,11,12,20,,,,26,26,5,5,1.0,0.5
2024-10-21T0200,3273A,121.3902,31.2059,上海市,长宁仙霞,,38,38,39,23,13,8,,,,39,29,6,7,0.7,0.7
2024-10-21T0200,3274A,121.7965,31.0507,上海市,浦东惠南,,35,35,33,15,10,3,,,,43,28,9,9,1.1,0.8
2024-10-21T0200,3544A,121.4891,30.925,上海市,奉贤南桥新城,,30,30,38,18,13,7,,,,39,31,18,10,0.7,0.5
2024-10-21T0200,2381A,118.005,28.4572,上饶市,百草园,,41,41,27,9,12,44,,,,14,9,9,6,0.1,0.1
2024-10-21T0200,2382A,117.9756,28.4436,上饶市,市监测站,,35,35,26,14,10,47,,,,19,13,6,4,0.5,0.5
2024-10-21T0200,2383A,117.9519,28.4628,上饶市,凤凰光学,,36,36,24,16,12,42,,,,12,8,17,7,0.7,0.7
2024-10-21T0200,3413A,118.1953,28.4401,上饶市,广丰区教体局,,50,50,33,16,15,41,,,,12,10,2,2,0.6,0.5
2024-10-21T0200,3685A,117.897,28.4315,上饶市,双创科技城,,38,38,22,18,12,48,,,,18,14,5,4,0.5,0.4
2024-10-21T0200,1669A,113.5824,24.7733,韶关市,市八中,,28,27,16,19,10,61,,,,6,4,11,10,0.6,0.6
2024-10-21T0200,1671A,113.5917,24.7972,韶关市,园林处,,27,27,17,18,11,61,,,,5,4,8,8,0.6,0.5
2024-10-21T0200,1672A,113.6735,24.7791,韶关市,韶关学院,,32,28,18,22,11,48,,,,14,11,8,8,0.4,0.4
2024-10-21T0200,1673A,113.5971,24.6863,韶关市,曲江监测站,,32,32,15,21,9,58,,,,9,6,12,10,0.6,0.6
2024-10-21T0200,3622A,113.5556,24.8082,韶关市,碧湖山庄,,30,26,15,21,10,57,,,,6,5,8,8,0.6,0.5
2024-10-21T0200,2462A,111.5239,27.3033,邵阳市,市水土所,,,,,,,,,,,,,,,,
2024-10-21T0200,2463A,111.4733,27.2317,邵阳市,市一中,,32,,23,22,15,37,,,,14,13,7,7,0.5,0.6
2024-10-21T0200,2464A,111.5283,27.2442,邵阳市,市化工厂,,26,23,22,18,14,35,,,,12,12,6,6,0.5,0.7
2024-10-21T0200,2465A,111.4503,27.2537,邵阳市,市罐头厂,,18,17,21,12,14,33,,,,8,9,6,6,0.4,0.5
2024-10-21T0200,2466A,111.4328,27.2272,邵阳市,市环保局,,20,20,21,11,16,33,,,,8,10,7,6,0.6,0.6
2024-10-21T0200,1247A,120.6053,29.9928,绍兴市,城东开发委,颗粒物(PM10),58,66,49,27,18,59,,,,26,23,9,9,0.5,0.5
2024-10-21T0200,2921A,120.5483,30.0003,绍兴市,树下王站,颗粒物(PM10),56,61,32,29,16,53,,,,31,20,6,6,0.6,0.5
2024-10-21T0200,3408A,120.5683,29.9361,绍兴市,绍兴中专,颗粒物(PM10),51,51,45,25,17,6,,,,49,25,6,6,0.6,0.5
2024-10-21T0200,3409A,120.4906,30.0861,绍兴市,柯桥区政府,颗粒物(PM10),56,61,49,28,18,51,,,,31,23,9,9,0.6,0.6
2024-10-21T0200,3410A,120.8752,30.0249,绍兴市,重华小学,,50,50,45,26,17,39,,,,27,22,8,8,0.6,0.5
2024-10-21T0200,3411A,120.8369,30.0137,绍兴市,上虞中学,颗粒物(PM10),60,69,44,36,17,46,,,,26,22,6,5,0.7,0.7
2024-10-21T0200,3560A,120.4722,30.0415,绍兴市,柯桥妇保,颗粒物(PM10),53,56,45,23,16,32,,,,24,18,4,5,0.7,0.7
2024-10-21T0200,3658A,120.6153,30.0764,绍兴市,袍江中学,颗粒物(PM10),55,60,46,23,16,61,,,,25,25,4,5,0.6,0.5
2024-10-21T0200,1356A,114.1063,22.5545,深圳市,通心岭子站,,42,42,23,23,11,42,,,,17,10,3,9,0.7,0.6
2024-10-21T0200,1357A,114.117,22.5625,深圳市,洪湖,颗粒物(PM10),52,53,27,26,14,40,,,,18,17,5,5,0.6,0.5
2024-10-21T0200,1358A,113.987,22.5417,深圳市,华侨城,,42,42,23,14,9,37,,,,18,9,8,8,0.7,0.6
2024-10-21T0200,1359A,113.9181,22.5171,深圳市,南海子站,颗粒物(PM10),52,53,26,27,11,39,,,,28,12,6,6,0.7,0.6
2024-10-21T0200,1360A,114.2458,22.5689,深圳市,盐田,,46,46,27,27,10,42,,,,15,24,6,6,0.7,0.6
2024-10-21T0200,1361A,114.2283,22.7244,深圳市,龙岗,,50,50,32,28,17,40,,,,18,14,6,6,0.7,0.6
2024-10-21T0200,1363A,114.494,22.5422,深圳市,南澳,,26,25,17,13,8,81,,,,6,6,6,6,0.3,0.3
2024-10-21T0200,1364A,114.41,22.6342,深圳市,葵涌,,39,39,20,25,9,32,,,,20,11,8,8,0.7,0.6
2024-10-21T0200,1365A,114.297,22.5978,深圳市,梅沙,,42,42,27,19,9,44,,,,12,10,6,6,0.5,0.4
2024-10-21T0200,1366A,114.0678,22.738,深圳市,观澜,,38,38,39,18,17,47,,,,13,14,4,4,0.5,0.5
2024-10-21T0200,3305A,114.0731,22.559,深圳市,莲花,,42,42,23,25,12,31,,,,22,14,6,6,0.7,0.6
2024-10-21T0200,3306A,114.0261,22.6198,深圳市,民治,,40,40,25,23,14,43,,,,14,14,5,5,0.8,0.7
2024-10-21T0200,3307A,114.1871,22.6451,深圳市,横岗,,44,44,28,27,16,41,,,,16,13,8,8,0.6,0.5
2024-10-21T0200,3447A,114.3551,22.7151,深圳市,坪山,,45,45,30,25,16,34,,,,16,12,5,5,0.6,0.5
2024-10-21T0200,3623A,113.8953,22.5861,深圳市,西乡,,50,50,29,29,10,36,,,,26,19,8,8,0.7,0.6
2024-10-21T0200,1098A,123.6836,41.9339,沈阳市,森林路,,,,,,,,,,,,,,,,
2024-10-21T0200,1099A,123.505,41.7406,沈阳市,浑南东路,,39,39,36,16,18,61,,,,19,32,9,13,0.5,0.6
2024-10-21T0200,1100A,123.4231,41.6989,沈阳市,新秀街,,41,41,43,15,18,46,,,,23,28,15,18,0.5,0.7
2024-10-21T0200,1102A,123.5903,41.8411,沈阳市,东陵路,颗粒物(PM10),60,69,39,12,17,60,,,,18,26,9,12,0.4,0.5
2024-10-21T0200,1103A,123.4264,41.8467,沈阳市,陵东街,,33,33,38,14,20,49,,,,20,34,10,11,0.4,0.5
2024-10-21T0200,1104A,123.4114,41.7653,沈阳市,文化路,,45,45,45,20,27,50,,,,24,29,16,16,0.5,0.5
2024-10-21T0200,1105A,123.4678,41.7867,沈阳市,小河沿,,31,31,38,12,18,60,,,,16,28,10,12,0.3,0.5
2024-10-21T0200,1106A,123.4017,41.7972,沈阳市,太原街,,41,41,40,20,24,48,,,,28,33,13,15,0.4,0.5
2024-10-21T0200,1108A,123.3783,41.9228,沈阳市,京沈街,,46,46,45,26,23,29,,,,32,28,14,14,0.8,0.7
