timepoint,stationcode,longitude,latitude,area,positionname,primarypollutant,aqi,pm10,pm10_24h,pm2_5,pm2_5_24h,o3,o3_24h,o3_8h,o3_8h_24h,no2,no2_24h,so2,so2_24h,co,co_24h
2024-07-13T2100,2566A,102.1879,31.914,阿坝藏族羌族自治州,州农科所,,16,16,16,6,7,18,,42,38,32,10,7,5,0.1,0.2
2024-07-13T2100,3994A,102.2165,31.9024,阿坝藏族羌族自治州,马尔康中学西区,,30,30,20,14,10,17,,46,40,8,8,5,5,0.4,0.4
2024-07-13T2100,2695A,80.292,41.1694,阿克苏地区,电视台,,41,32,29,15,14,130,,153,151,8,11,12,10,0.4,0.4
2024-07-13T2100,2696A,80.2613,41.1551,阿克苏地区,艺术中心,,,35,25,12,13,122,,150,148,,12,,4,,0.4
2024-07-13T2100,2204A,105.6467,38.8363,阿拉善盟,西城区西花园,颗粒物(PM10),56,62,44,26,16,151,,181,169,12,12,8,8,0.2,0.3
2024-07-13T2100,2205A,105.6985,38.8411,阿拉善盟,蒙二幼,颗粒物(PM10),51,52,44,26,17,142,,162,155,12,9,10,10,0.6,0.5
2024-07-13T2100,2206A,105.724,38.8516,阿拉善盟,环保局新楼,颗粒物(PM10),51,52,40,24,16,151,,168,160,10,7,11,12,0.5,0.4
2024-07-13T2100,2708A,88.1264,47.8517,阿勒泰地区,市站,,30,13,20,9,7,95,,107,106,21,12,6,6,0.3,0.4
2024-07-13T2100,2630A,80.1161,32.5,阿里地区,阿里监测站,,,6,5,3,4,,,132,130,2,4,8,8,0.4,0.4
2024-07-13T2100,3192A,80.0903,32.5028,阿里地区,阿里藏医院,,42,11,11,3,4,132,,139,138,2,3,8,8,0.4,0.3
2024-07-13T2100,2642A,109.0318,32.6537,安康市,香溪洞,,29,25,27,20,19,74,,64,64,4,6,5,6,0.6,0.7
2024-07-13T2100,2643A,109.0281,32.6939,安康市,安康市监测站,,50,50,38,17,14,33,,59,56,17,9,6,6,0.7,0.6
2024-07-13T2100,2644A,109.0072,32.6975,安康市,汉滨区检察院,,37,37,32,24,18,45,,67,65,14,7,6,6,0.8,0.7
2024-07-13T2100,2291A,117.0809,30.5177,安庆市,环科院,,,,9,3,4,67,,41,,,32,,4,0.7,0.6
2024-07-13T2100,2292A,117.0331,30.5119,安庆市,马山宾馆,,17,7,10,3,4,54,,62,62,23,28,6,6,0.5,0.6
2024-07-13T2100,2294A,116.9896,30.6145,安庆市,安庆大学,,15,11,12,3,4,48,,70,70,20,12,6,7,0.4,0.4
2024-07-13T2100,3173A,117.0598,30.5351,安庆市,市人大,,20,6,10,3,4,62,,69,69,12,22,5,5,0.4,0.5
2024-07-13T2100,3123A,105.9408,26.2431,安顺市,凤凰山,,22,13,12,10,9,70,,67,67,4,3,4,4,0.4,0.5
2024-07-13T2100,3124A,105.9439,26.2564,安顺市,金钟山,,23,,11,14,10,72,,68,68,6,4,5,4,0.7,0.7
2024-07-13T2100,3125A,105.8983,26.2481,安顺市,娄家坡,,23,18,13,16,9,72,,67,67,3,2,5,5,0.4,0.4
2024-07-13T2100,1819A,114.3551,36.1017,安阳市,红庙街,细颗粒物(PM2.5),58,58,59,41,33,137,,162,161,9,7,3,5,0.5,0.6
2024-07-13T2100,1820A,114.361,36.0681,安阳市,银杏小区,,,50,48,,30,135,,160,160,8,9,3,3,0.7,0.7
2024-07-13T2100,3141A,114.3922,36.0878,安阳市,信访局,,49,44,57,34,29,137,,168,161,2,5,3,4,0.9,0.8
2024-07-13T2100,3669A,114.4705,36.0637,安阳市,左辅环卫站,细颗粒物(PM2.5),64,60,56,46,40,132,,167,159,13,15,10,11,0.9,0.8
2024-07-13T2100,3703A,114.2917,36.0949,安阳市,安钢职工学校,细颗粒物(PM2.5),69,61,58,50,35,129,,150,150,11,11,2,3,0.6,0.7
2024-07-13T2100,1748A,123.044,41.1196,鞍山市,深沟寺,颗粒物(PM10),51,52,44,34,27,108,,123,120,19,16,6,5,0.7,0.8
2024-07-13T2100,1749A,123.011,41.0931,鞍山市,太阳城,细颗粒物(PM2.5),52,52,41,36,28,106,,124,122,17,13,7,7,1.2,0.8
2024-07-13T2100,1750A,123.0485,41.1442,鞍山市,太平,颗粒物(PM10),62,74,58,41,33,111,,131,129,24,24,6,5,1.4,1.2
2024-07-13T2100,1751A,122.9642,41.0971,鞍山市,铁西三道街,细颗粒物(PM2.5),79,89,59,58,38,100,,135,130,30,23,5,6,1.1,1.2
2024-07-13T2100,1752A,122.9341,41.0833,鞍山市,铁西工业园区,细颗粒物(PM2.5),59,64,53,42,33,88,,138,133,32,23,4,3,0.9,1
2024-07-13T2100,1753A,123.022,41.0821,鞍山市,明达新区,,44,44,41,30,26,97,,128,124,18,13,7,6,1.0,0.8
2024-07-13T2100,2195A,107.4212,40.761,巴彦淖尔市,附二中,颗粒物(PM10),106,161,87,43,32,149,,200,194,28,18,47,14,0.8,0.6
2024-07-13T2100,2196A,107.37,40.7372,巴彦淖尔市,市环保大楼,,,90,84,29,18,,,168,,31,19,6,5,0.7,0.6
2024-07-13T2100,1956A,86.1472,41.7538,巴音郭楞蒙古自治州,孔雀公园,,,,40,,13,,,118,118,14,11,4,4,0.2,0.2
2024-07-13T2100,1957A,86.1972,41.7166,巴音郭楞蒙古自治州,棉纺厂,,44,44,40,11,14,117,,117,117,11,16,4,5,0.2,0.3
2024-07-13T2100,1958A,86.2357,41.7173,巴音郭楞蒙古自治州,经济开发区,颗粒物(PM10),54,57,31,23,15,125,,123,123,6,8,3,3,0.2,0.2
2024-07-13T2100,2914A,106.7677,31.8794,巴中市,苏山坪,,20,11,14,7,8,63,,61,58,6,6,4,5,0.4,0.5
2024-07-13T2100,3182A,106.7656,31.8545,巴中市,丽阳花园,,24,24,24,13,13,37,,56,53,14,13,6,6,0.5,0.6
2024-07-13T2100,3183A,106.7418,31.8654,巴中市,圣泉水务公司,,15,15,18,9,12,47,,61,60,11,14,5,4,0.6,0.7
2024-07-13T2100,3616A,106.7616,31.8344,巴中市,市中心医院,,18,12,21,8,12,57,,61,58,9,14,6,6,0.5,0.6
2024-07-13T2100,2235A,122.7911,45.6077,白城市,洮北区环保局,细颗粒物(PM2.5),62,61,59,44,59,92,,124,119,20,15,1,4,0.5,0.4
2024-07-13T2100,2236A,122.8738,45.5725,白城市,市环保局,"颗粒物(PM10),细颗粒物(PM2.5)",60,69,66,43,50,67,,118,105,23,15,2,2,0.5,0.5
2024-07-13T2100,2231A,126.4219,41.9171,白山市,喜丰,细颗粒物(PM2.5),74,96,85,54,45,50,,116,99,29,19,9,12,1.1,1.2
2024-07-13T2100,2232A,126.4077,41.9419,白山市,环保局,细颗粒物(PM2.5),85,76,65,63,50,69,,114,104,11,15,8,10,1.0,1
2024-07-13T2100,2647A,104.1724,36.5446,白银市,第三小学,,31,31,50,16,30,93,,116,107,18,21,6,14,0.6,0.7
2024-07-13T2100,2648A,104.1465,36.5482,白银市,动力公司,,30,16,43,16,28,95,,115,107,9,16,6,8,0.4,0.6
2024-07-13T2100,2512A,106.6103,23.9011,百色市,市监测站,,28,28,34,18,17,68,,83,80,14,13,14,18,0.8,0.7
2024-07-13T2100,2513A,106.6538,23.8859,百色市,市中心血站,,46,46,39,19,19,76,,82,82,12,11,12,15,0.7,0.7
2024-07-13T2100,3406A,106.6085,23.8798,百色市,祈福高中,颗粒物(PM10),51,51,41,23,19,62,,86,82,14,13,11,15,0.7,0.8
2024-07-13T2100,2270A,117.396,32.939,蚌埠市,工人疗养院,,35,35,23,13,9,78,,97,94,6,3,5,5,0.5,0.6
2024-07-13T2100,2271A,117.3605,32.9427,蚌埠市,百货大楼,,34,34,25,8,7,80,,102,99,12,5,5,5,0.6,0.6
2024-07-13T2100,2273A,117.4185,32.8911,蚌埠市,蚌埠学院,,31,31,14,16,12,77,,104,101,13,6,6,6,0.6,0.7
2024-07-13T2100,2274A,117.3533,32.9673,蚌埠市,淮上区政府,,27,27,17,14,12,78,,109,105,18,3,6,6,0.6,0.6
2024-07-13T2100,2275A,117.3145,32.8977,蚌埠市,高新区,,39,39,18,12,11,79,,108,105,10,5,5,5,0.6,0.7
2024-07-13T2100,3715A,117.3092,32.9314,蚌埠市,蚌埠田家炳中学,,33,33,22,17,11,82,,102,99,5,4,6,6,0.5,0.6
2024-07-13T2100,1587A,109.9991,40.5842,包头市,包头八中,,44,44,38,20,19,133,,163,157,26,20,44,29,0.7,0.7
2024-07-13T2100,1588A,109.8538,40.6821,包头市,青山宾馆,,33,32,34,17,20,105,,170,157,38,29,39,16,1.0,0.9
2024-07-13T2100,1589A,109.8642,40.6288,包头市,惠龙物流,,44,38,36,16,16,139,,174,167,25,22,36,24,0.4,0.6
2024-07-13T2100,1590A,110.0377,40.5546,包头市,东河鸿龙湾,,41,41,34,18,16,110,,164,155,31,22,12,17,0.6,0.6
2024-07-13T2100,3283A,109.9154,40.5685,包头市,滨河大厦,,42,19,26,16,14,133,,172,166,21,19,9,13,0.5,0.5
2024-07-13T2100,3419A,109.9447,40.6261,包头市,包头市委党校,,50,50,34,22,15,132,,171,163,35,28,31,12,0.8,0.8
2024-07-13T2100,3683A,109.8331,40.6576,包头市,昆区政府,,,,32,,17,,,169,166,,22,,16,,0.8
2024-07-13T2100,1930A,107.185,34.3063,宝鸡市,庙沟村,,24,15,23,10,15,74,,86,50,3,7,9,8,0.2,0.3
2024-07-13T2100,1931A,107.0708,34.3017,宝鸡市,竹园沟,,22,22,23,13,14,39,,72,46,15,12,9,8,0.4,0.5
2024-07-13T2100,1932A,107.1906,34.3672,宝鸡市,三陆医院,,32,32,30,18,18,39,,68,58,17,18,7,7,0.6,0.6
2024-07-13T2100,1933A,107.1431,34.3547,宝鸡市,监测站,,27,27,29,17,18,33,,65,50,20,16,8,8,0.5,0.5
2024-07-13T2100,1934A,107.1186,34.3739,宝鸡市,技工学校,,30,30,27,21,19,44,,76,68,13,12,7,8,0.6,0.6
2024-07-13T2100,1935A,107.3906,34.3528,宝鸡市,陈仓区环保局家属楼,,29,29,32,13,16,35,,87,68,28,19,6,6,0.5,0.5
2024-07-13T2100,1936A,107.2058,34.3497,宝鸡市,文理学院,,37,37,32,17,17,40,,70,57,22,18,8,8,0.4,0.4
2024-07-13T2100,1937A,107.2386,34.3622,宝鸡市,三迪小学,,32,32,33,14,22,33,,70,55,28,18,8,8,0.6,0.6
2024-07-13T2100,1051A,115.493,38.8632,保定市,游泳馆,细颗粒物(PM2.5),69,53,36,50,25,143,,139,139,1,2,2,2,0.5,0.3
2024-07-13T2100,1052A,115.5213,38.8959,保定市,华电二区,细颗粒物(PM2.5),64,62,36,46,24,144,,152,152,6,5,3,3,0.8,0.6
2024-07-13T2100,1053A,115.4713,38.9108,保定市,接待中心,细颗粒物(PM2.5),68,70,40,49,24,142,,140,140,5,3,3,3,0.5,0.3
2024-07-13T2100,1054A,115.4612,38.8416,保定市,地表水厂,颗粒物(PM10),68,85,44,37,23,151,,148,148,2,3,3,2,0.7,0.6
2024-07-13T2100,3581A,115.31981,38.95208,保定市,满城区生态环境分局,细颗粒物(PM2.5),67,63,50,48,25,129,,124,124,2,2,2,2,0.6,0.5
2024-07-13T2100,3582A,115.47694,38.76408,保定市,清苑区第二中学,"颗粒物(PM10),细颗粒物(PM2.5)",75,100,67,55,30,147,,151,151,9,5,3,3,0.7,0.5
2024-07-13T2100,3583A,115.62909,39.02311,保定市,徐水物探局,细颗粒物(PM2.5),64,52,31,46,28,153,,151,151,9,7,3,3,0.7,0.5
2024-07-13T2100,4004A,115.4202,38.8656,保定市,双鹰农机,细颗粒物(PM2.5),69,56,31,50,23,156,,146,146,6,5,2,3,0.6,0.4
2024-07-13T2100,4034A,115.5150,38.8590,保定市,植保所站,细颗粒物(PM2.5),77,,32,56,30,166,,164,164,4,3,3,3,0.7,0.5
2024-07-13T2100,2594A,99.1678,25.1081,保山市,市环境监测站,,22,22,23,10,10,40,,46,45,6,10,6,6,0.5,0.5
2024-07-13T2100,2595A,99.1711,25.1328,保山市,市环保局,,27,27,23,13,7,45,,50,50,3,7,5,5,0.5,0.5
2024-07-13T2100,1867A,109.1436,21.4086,北海市,海滩公园,,47,47,25,3,4,69,,74,74,4,4,3,3,0.6,0.6
2024-07-13T2100,1868A,109.0981,21.4661,北海市,新市环保局,,25,9,14,3,5,79,,74,74,4,5,7,6,0.6,0.6
2024-07-13T2100,1869A,109.1778,21.5233,北海市,北海工业园,,30,30,18,10,9,69,,74,74,5,5,4,4,0.5,0.5
2024-07-13T2100,3400A,109.1911,21.4415,北海市,龙潭自来水厂,,20,10,13,3,9,62,,73,72,3,4,4,5,0.5,0.5
2024-07-13T2100,1001A,116.3621,39.8784,北京市,万寿西宫,细颗粒物(PM2.5),65,50,56,47,46,127,,166,163,16,13,3,3,0.9,0.8
2024-07-13T2100,1002A,116.2202,40.2915,北京市,定陵,,48,45,37,33,24,30,,130,112,4,6,3,2,0.7,0.6
2024-07-13T2100,1003A,116.4174,39.9289,北京市,东四,细颗粒物(PM2.5),65,54,40,47,35,127,,,,18,15,3,3,0.8,0.6
2024-07-13T2100,1004A,116.4072,39.8863,北京市,天坛,细颗粒物(PM2.5),63,48,42,45,36,75,,155,140,16,15,3,3,0.8,0.7
2024-07-13T2100,1005A,116.462,39.9365,北京市,农展馆,细颗粒物(PM2.5),60,47,44,43,38,130,,150,149,14,12,3,3,0.7,0.7
2024-07-13T2100,1006A,116.3392,39.9295,北京市,官园,细颗粒物(PM2.5),64,54,43,46,35,133,,164,160,14,14,4,4,0.7,0.7
2024-07-13T2100,1007A,116.2878,39.9611,北京市,海淀万柳,细颗粒物(PM2.5),69,52,46,50,44,120,,131,129,9,14,5,5,0.6,0.6
2024-07-13T2100,1008A,116.6636,40.135,北京市,顺义新城,细颗粒物(PM2.5),58,48,41,41,34,116,,156,148,10,7,3,3,0.6,0.5
2024-07-13T2100,1009A,116.6275,40.3275,北京市,怀柔镇,细颗粒物(PM2.5),60,48,37,43,31,127,,156,152,9,6,1,1,0.7,0.6
2024-07-13T2100,1010A,116.2296,40.217,北京市,昌平镇,细颗粒物(PM2.5),70,63,43,51,34,72,,109,104,18,13,2,2,0.8,0.6
2024-07-13T2100,1011A,116.3966,39.9821,北京市,奥体中心,细颗粒物(PM2.5),67,53,45,48,41,116,,160,155,20,17,3,2,0.8,0.7
2024-07-13T2100,1012A,116.184,39.9136,北京市,古城,细颗粒物(PM2.5),65,64,52,47,36,103,,147,139,22,14,1,1,0.8,0.6
2024-07-13T2100,3281A,115.9718,40.4529,北京市,延庆夏都,细颗粒物(PM2.5),64,51,31,46,24,136,,144,144,6,7,1,3,0.6,0.6
2024-07-13T2100,3417A,117.0709,40.1465,北京市,平谷新城,细颗粒物(PM2.5),63,54,46,45,37,69,,125,112,10,5,3,3,0.7,0.6
2024-07-13T2100,3418A,116.8336,40.4095,北京市,密云新城,,49,45,36,34,26,62,,130,125,6,8,3,3,0.6,0.5
2024-07-13T2100,3672A,116.1541,39.8204,北京市,丰台云岗,细颗粒物(PM2.5),63,54,44,45,32,98,,120,119,9,9,3,3,0.7,0.7
2024-07-13T2100,3673A,116.6804,39.9081,北京市,通州东关,细颗粒物(PM2.5),75,59,48,55,43,120,,150,146,9,5,3,3,0.8,0.7
2024-07-13T2100,3674A,115.9577,39.7603,北京市,房山燕山,细颗粒物(PM2.5),60,53,39,43,32,124,,138,137,6,7,1,4,0.8,0.7
2024-07-13T2100,3675A,116.4672,39.7733,北京市,大兴旧宫,细颗粒物(PM2.5),57,44,41,40,36,121,,148,145,16,14,3,3,0.8,0.8
2024-07-13T2100,3694A,115.986,40.4563,北京市,延庆石河营,细颗粒物(PM2.5),65,49,30,47,25,113,,137,136,4,6,3,3,0.6,0.5
2024-07-13T2100,3695A,116.6151,40.3053,北京市,怀柔新城,细颗粒物(PM2.5),55,47,39,39,31,86,,138,132,5,7,3,3,0.8,0.7
2024-07-13T2100,3696A,116.2545,39.8768,北京市,丰台小屯,细颗粒物(PM2.5),55,48,43,39,34,115,,132,131,5,6,3,3,0.5,0.5
2024-07-13T2100,3697A,116.84,40.3844,北京市,密云镇,细颗粒物(PM2.5),62,56,39,44,32,84,,130,128,21,12,3,3,0.5,0.3
2024-07-13T2100,1761A,123.8275,41.3064,本溪市,大峪,,32,16,38,12,23,102,,130,129,7,14,7,8,0.5,0.9
2024-07-13T2100,1762A,123.7567,41.3325,本溪市,溪湖,,37,37,58,14,30,89,,144,138,9,25,9,10,0.7,2.4
2024-07-13T2100,1763A,123.7169,41.3094,本溪市,彩屯,,27,27,42,17,30,78,,127,122,18,25,7,9,0.8,2
2024-07-13T2100,1764A,123.7669,41.2864,本溪市,东明,,29,25,51,20,26,84,,130,126,29,25,7,8,0.7,1
2024-07-13T2100,1765A,123.7992,41.2664,本溪市,新立屯,,28,28,38,13,20,51,,119,108,29,14,4,4,0.6,1
2024-07-13T2100,1766A,123.8142,41.3472,本溪市,威宁,,30,27,51,21,30,95,,131,116,18,24,8,9,0.9,1.2
2024-07-13T2100,2587A,105.2864,27.3125,毕节市,八中,,18,17,18,12,14,48,,62,58,13,13,5,5,0.4,0.4
2024-07-13T2100,2588A,105.31,27.2944,毕节市,师专,,16,16,18,10,10,44,,59,58,13,14,4,5,0.5,0.5
2024-07-13T2100,3537A,105.3631,27.3533,毕节市,长征村,,22,21,22,15,15,52,,68,66,8,11,6,7,0.4,0.4
2024-07-13T2100,1629A,118.0018,37.3617,滨州市,第二水厂,细颗粒物(PM2.5),67,61,95,48,71,149,,193,172,16,22,1,4,0.7,1
2024-07-13T2100,1630A,117.9776,37.393,滨州市,北中新校,颗粒物(PM10),63,75,98,39,60,159,,193,177,10,19,3,6,0.5,0.8
2024-07-13T2100,3514A,117.9378,37.3956,滨州市,中海酒店,臭氧1小时,68,68,86,46,57,174,,198,187,12,17,4,7,0.5,0.7
2024-07-13T2100,3515A,117.9378,37.3553,滨州市,开发区一中,细颗粒物(PM2.5),70,73,99,51,64,150,,185,167,8,21,5,9,0.8,0.9
2024-07-13T2100,3516A,118.0917,37.694,滨州市,金海六路,细颗粒物(PM2.5),62,71,97,44,60,162,,196,179,3,9,2,8,0.6,0.7
2024-07-13T2100,4028A,117.9956,37.3753,滨州市,滨州市西街道办事处,细颗粒物(PM2.5),67,66,95,48,69,166,,209,191,8,18,1,3,0.7,1
2024-07-13T2100,2311A,115.8072,33.8399,亳州市,污水处理厂,颗粒物(PM10),52,54,22,35,13,109,,151,148,15,6,2,1,0.7,0.7
2024-07-13T2100,2312A,115.7789,33.8518,亳州市,三国揽胜宫,细颗粒物(PM2.5),59,46,28,42,19,125,,150,150,14,7,2,1,0.6,0.5
2024-07-13T2100,3332A,115.7633,33.8034,亳州市,亳州学院,,50,50,20,27,15,149,,164,164,10,5,3,3,0.7,0.6
2024-07-13T2100,2693A,82.0485,44.8556,博尔塔拉蒙古自治州,市党校,,36,35,26,10,9,114,,130,128,21,9,10,10,0.5,0.3
2024-07-13T2100,2694A,82.0806,44.8969,博尔塔拉蒙古自治州,市环保局,,,42,32,14,12,116,,120,120,20,17,6,8,,0.3
2024-07-13T2100,1071A,116.8842,38.2991,沧州市,沧县城建局,细颗粒物(PM2.5),129,105,94,98,66,139,,116,116,7,21,2,3,0.4,0.6
2024-07-13T2100,1072A,116.8584,38.3254,沧州市,电视转播站,细颗粒物(PM2.5),119,96,83,90,73,125,,96,96,9,19,3,3,0.5,0.7
2024-07-13T2100,1073A,116.8709,38.3228,沧州市,市环保局,细颗粒物(PM2.5),118,107,92,89,64,120,,99,99,12,21,3,2,0.5,0.6
2024-07-13T2100,3324A,116.8136,38.3004,沧州市,河北水利电力学院,细颗粒物(PM2.5),102,88,80,76,62,148,,116,116,10,22,2,4,0.6,0.8
2024-07-13T2100,2622A,97.1806,31.1273,昌都市,昌都监测站,,,,10,,6,,,48,47,19,6,8,8,0.6,0.6
2024-07-13T2100,3719A,97.1714,31.1406,昌都市,昌都会议中心,,18,,8,12,5,35,,50,46,11,5,6,6,0.4,0.4
2024-07-13T2100,2690A,88.1236,43.8886,昌吉回族自治州,天山天池,,30,19,12,3,5,94,,139,135,7,6,7,7,0.5,0.5
2024-07-13T2100,2692A,87.2717,44.0297,昌吉回族自治州,新区政务中心,,,,34,10,10,153,,160,160,9,22,10,8,0.4,0.5
2024-07-13T2100,3613A,87.3095,44.0142,昌吉回族自治州,亚心广场,,50,31,49,3,10,160,,175,175,13,31,7,7,0.3,0.4
2024-07-13T2100,1119A,125.3325,43.9166,长春市,食品厂,细颗粒物(PM2.5),108,119,99,81,63,64,,152,130,64,42,4,5,1.3,0.9
2024-07-13T2100,1120A,125.2863,43.9027,长春市,客车厂,细颗粒物(PM2.5),102,93,86,76,63,34,,162,127,96,41,2,2,1.2,0.8
2024-07-13T2100,1121A,125.2841,43.8463,长春市,邮电学院,细颗粒物(PM2.5),80,93,77,59,52,29,,134,92,24,21,6,6,1.1,0.8
2024-07-13T2100,1122A,125.3716,43.8772,长春市,劳动公园,细颗粒物(PM2.5),104,108,90,78,55,42,,147,106,54,36,1,2,1.5,1
2024-07-13T2100,1123A,125.3297,43.8805,长春市,园林处,细颗粒物(PM2.5),104,94,83,78,65,94,,157,135,41,30,5,4,1.2,0.9
2024-07-13T2100,1124A,125.4605,43.79,长春市,净月潭,颗粒物(PM10),58,65,70,35,44,43,,132,102,6,9,4,4,0.7,0.7
2024-07-13T2100,1126A,125.3863,43.8447,长春市,经开区环卫处,细颗粒物(PM2.5),78,100,83,57,53,40,,150,110,82,42,3,3,1.2,0.9
2024-07-13T2100,1127A,125.245,43.7783,长春市,高新区管委会,细颗粒物(PM2.5),77,77,68,56,48,68,,156,137,44,24,4,4,1.0,0.8
2024-07-13T2100,1128A,125.1761,43.8325,长春市,岱山公园,细颗粒物(PM2.5),92,94,72,68,52,64,,140,122,65,33,3,3,1.0,0.8
2024-07-13T2100,1335A,113.0833,28.2325,长沙市,经开区环保局,,32,32,36,15,17,57,,104,84,12,13,5,7,0.4,0.4
2024-07-13T2100,1336A,112.8872,28.2189,长沙市,高开区环保局,,34,34,34,15,17,72,,114,101,11,10,5,7,0.5,0.5
2024-07-13T2100,1337A,113.0792,28.2053,长沙市,马坡岭,,39,39,36,22,19,58,,116,96,15,15,8,10,0.6,0.6
2024-07-13T2100,1338A,112.9394,28.19,长沙市,湖南师范大学,,34,34,40,18,20,64,,110,93,18,17,4,7,0.2,0.3
2024-07-13T2100,1339A,113.0178,28.1322,长沙市,雨花区环保局,,36,36,33,14,15,54,,110,90,12,8,4,4,0.3,0.4
2024-07-13T2100,1340A,112.9792,28.2597,长沙市,伍家岭,,36,36,36,16,16,60,,117,98,12,10,2,4,0.4,0.5
2024-07-13T2100,1341A,113.0014,28.1944,长沙市,火车新站,,42,42,36,17,17,62,,114,96,13,10,4,6,0.5,0.5
2024-07-13T2100,1342A,112.9844,28.1178,长沙市,天心区环保局,,35,33,34,24,18,53,,104,86,18,13,3,5,0.1,0.1
2024-07-13T2100,1343A,112.8908,28.1308,长沙市,湖南中医药大学,,39,39,42,16,20,65,,116,98,13,14,5,6,0.7,0.7
2024-07-13T2100,1344A,112.9581,28.3611,长沙市,沙坪,,30,30,27,18,17,52,,112,94,19,13,6,7,0.4,0.4
2024-07-13T2100,1727A,113.1147,36.1547,长治市,清华站,细颗粒物(PM2.5),62,,49,44,37,114,,170,149,15,14,3,3,0.7,0.7
2024-07-13T2100,1728A,113.1031,36.1989,长治市,监测站,细颗粒物(PM2.5),55,56,55,39,37,104,,169,146,20,16,4,4,0.9,0.7
2024-07-13T2100,1730A,113.0886,36.2125,长治市,审计局,细颗粒物(PM2.5),52,45,48,36,37,104,,168,142,26,20,2,2,1.1,1
2024-07-13T2100,1731A,113.0844,36.1856,长治市,长治八中,,50,50,55,29,36,113,,171,148,11,12,3,3,0.8,0.8
2024-07-13T2100,2845A,113.1569,36.1911,长治市,德盛苑,细颗粒物(PM2.5),64,,49,46,37,107,,165,141,14,10,8,8,1.4,1.2
2024-07-13T2100,3568A,113.06,36.0464,长治市,向阳小学,细颗粒物(PM2.5),80,62,67,59,57,111,,171,147,16,14,6,7,1.0,1
2024-07-13T2100,3569A,112.8792,36.3144,长治市,屯留一中,细颗粒物(PM2.5),65,62,68,47,57,123,,175,160,16,13,7,9,0.6,0.8
2024-07-13T2100,3570A,113.235,36.3489,长治市,潞城四中,细颗粒物(PM2.5),114,,50,86,57,129,,156,148,5,9,1,5,1.1,0.9
2024-07-13T2100,1854A,111.6975,28.9703,常德市,市二中,,21,7,23,6,14,66,,98,88,6,6,5,7,0.4,0.4
2024-07-13T2100,3138A,111.7153,29.0289,常德市,武陵区永安,,24,14,25,6,12,75,,92,87,2,6,6,8,0.3,0.3
2024-07-13T2100,3139A,111.6892,28.9881,常德市,鼎城区玉霞,,23,17,25,6,13,71,,94,88,2,6,3,4,0.5,0.6
2024-07-13T2100,3140A,111.6625,29.0531,常德市,武陵区长庚,,,16,23,6,12,,,86,85,,4,7,9,0.5,0.5
2024-07-13T2100,1196A,119.9633,31.762,常州市,市监测站,,19,6,8,3,7,59,,94,81,8,9,6,6,0.4,0.4
2024-07-13T2100,1200A,119.9468,31.7069,常州市,武进监测站,,20,8,11,3,9,61,,90,80,1,4,4,4,0.6,0.7
2024-07-13T2100,1201A,119.9255,31.9087,常州市,安家,,13,6,9,3,7,39,,80,70,18,15,5,4,0.5,0.5
2024-07-13T2100,3002A,119.9805,31.8174,常州市,行政中心,,18,8,12,6,10,57,,86,76,8,11,8,9,0.3,0.4
2024-07-13T2100,3003A,120.0522,31.7748,常州市,经开区,,18,6,11,3,9,57,,85,76,5,10,2,4,0.2,0.4
2024-07-13T2100,3010A,119.9025,31.7964,常州市,钟楼,,16,9,10,6,7,50,,82,72,10,10,3,4,0.7,0.8
2024-07-13T2100,3429A,119.8598,31.7066,常州市,武进经发区,,18,6,10,3,6,55,,85,73,8,10,6,6,0.4,0.4
2024-07-13T2100,3430A,119.5826,31.7245,常州市,金坛城区,,19,6,10,3,6,58,,86,76,6,7,5,6,0.4,0.5
2024-07-13T2100,2220A,120.4318,41.5881,朝阳市,西梁,颗粒物(PM10),66,81,64,31,34,63,,136,112,35,16,13,12,0.9,0.9
2024-07-13T2100,2221A,120.4521,41.5646,朝阳市,河畔小区,颗粒物(PM10),59,67,93,34,34,82,,136,114,26,13,8,8,0.9,0.8
2024-07-13T2100,2222A,120.4176,41.5648,朝阳市,八里堡,,34,34,59,23,35,71,,129,107,33,16,6,6,1.1,1.2
2024-07-13T2100,2223A,120.3806,41.5969,朝阳市,农业园区,颗粒物(PM10),61,72,64,40,37,55,,132,102,22,14,5,7,0.7,0.9
2024-07-13T2100,1705A,116.6367,23.6719,潮州市,西园路,,18,18,28,7,12,34,,72,62,14,13,2,4,0.4,0.4
2024-07-13T2100,3026A,116.6183,23.6608,潮州市,市政府,,32,32,30,13,11,39,,71,64,8,9,4,7,0.8,0.7
2024-07-13T2100,4036A,116.6461,23.6761,潮州市,金山,,26,26,26,7,11,33,,78,63,10,10,5,7,0.7,0.7
2024-07-13T2100,2472A,113.0073,25.9061,郴州市,马头岭,,25,25,20,7,8,57,,68,66,8,5,7,8,0.2,0.4
2024-07-13T2100,2473A,113.0116,25.8226,郴州市,市职中,,22,20,13,12,9,69,,76,71,5,5,4,9,0.3,0.3
2024-07-13T2100,2474A,113.0161,25.8001,郴州市,兴隆步行街,,20,20,16,13,9,62,,73,68,4,4,6,12,0.4,0.4
2024-07-13T2100,2475A,113.0383,25.8071,郴州市,市审计局,,22,22,14,12,10,56,,73,66,11,7,18,17,0.3,0.3
2024-07-13T2100,2476A,113.0348,25.7759,郴州市,市环保局,,23,23,17,9,10,61,,78,71,10,8,19,22,0.4,0.4
2024-07-13T2100,1431A,103.9728,30.7236,成都市,金泉两河,,20,19,19,14,11,44,,88,66,9,9,1,1,0.5,0.5
2024-07-13T2100,1432A,104.176,30.6872,成都市,十里店,,19,12,17,3,9,58,,100,75,11,11,3,4,0.5,0.5
2024-07-13T2100,1433A,104.079,30.5706,成都市,三瓦窑,,19,16,22,13,16,54,,100,80,11,12,1,2,0.4,0.4
2024-07-13T2100,1434A,104.1114,30.63,成都市,沙河铺,,16,10,22,3,10,49,,100,77,16,14,4,3,0.5,0.5
2024-07-13T2100,1437A,104.0786,30.6531,成都市,君平街,,20,8,19,3,11,62,,109,80,11,15,2,2,0.5,0.5
2024-07-13T2100,2880A,104.0239,30.65639,成都市,大石西路,,18,17,20,3,11,55,,96,73,9,10,5,5,0.5,0.5
2024-07-13T2100,3136A,104.2725,30.5589,成都市,龙泉驿区区政府,,21,,12,3,8,65,,116,85,6,10,2,3,0.4,0.5
2024-07-13T2100,3357A,104.0106,30.6931,成都市,金博路,,14,,13,6,8,43,,82,63,9,10,1,1,0.6,0.6
2024-07-13T2100,3359A,104.0578,30.5225,成都市,华阳,,18,17,18,12,18,50,,90,68,7,8,1,2,0.7,0.7
2024-07-13T2100,3487A,104.2394,30.5319,成都市,车城东七路,,20,10,23,8,15,62,,112,84,9,12,2,2,0.5,0.6
2024-07-13T2100,3488A,104.3853,30.7453,成都市,青白江技师分院,,18,8,15,3,8,57,,117,78,4,7,4,4,0.6,0.6
2024-07-13T2100,3489A,104.0789,30.4072,成都市,科学城,,20,12,19,9,14,64,,106,92,7,7,1,2,0.5,0.6
2024-07-13T2100,4011A,103.8506,30.6947,成都市,光华大道三段,,25,24,21,17,9,56,,85,75,10,6,3,3,0.5,0.4
2024-07-13T2100,1062A,117.9531,40.9081,承德市,铁路,颗粒物(PM10),58,66,43,38,28,72,,130,125,22,17,4,5,0.6,0.6
2024-07-13T2100,1063A,117.9392,40.9763,承德市,中国银行,细颗粒物(PM2.5),58,64,47,41,27,54,,114,109,15,16,4,4,0.6,0.6
2024-07-13T2100,1064A,117.9503,40.928,承德市,开发区,,47,47,41,32,25,80,,127,123,12,15,5,6,0.5,0.6
2024-07-13T2100,1065A,117.8051,40.9655,承德市,文化中心,"颗粒物(PM10),细颗粒物(PM2.5)",62,74,48,44,28,59,,140,128,22,15,4,6,0.5,0.5
2024-07-13T2100,1066A,117.9268,41.0026,承德市,离宫,颗粒物(PM10),55,60,49,29,21,30,,101,90,9,8,2,2,0.1,0.4
2024-07-13T2100,2314A,117.47,30.6618,池州市,池州学院,,23,6,10,3,4,72,,56,56,4,11,5,5,0.3,0.6
2024-07-13T2100,3237A,117.4918,30.6617,池州市,展览馆,,23,6,7,3,3,72,,54,54,3,11,3,3,0.4,0.6
2024-07-13T2100,3333A,117.5627,30.695,池州市,第八中学,,23,6,7,3,3,71,,55,55,4,12,2,3,0.6,0.6
2024-07-13T2100,3334A,117.5038,30.6243,池州市,第十二中学,,22,6,10,3,4,69,,52,52,8,17,4,4,0.8,1
2024-07-13T2100,1744A,118.9233,42.2816,赤峰市,松山一中,,50,50,34,24,14,78,,119,110,42,24,13,10,1.1,0.8
2024-07-13T2100,1745A,118.9576,42.2728,赤峰市,哈达街,,49,46,35,34,21,81,,131,121,26,16,35,13,0.8,0.8
2024-07-13T2100,1746A,118.8788,42.2554,赤峰市,天义路,,46,41,27,32,19,112,,129,123,27,20,6,8,0.5,0.3
2024-07-13T2100,3058A,119.2658,42.0353,赤峰市,银河街,,45,45,33,30,30,118,,148,140,13,15,13,14,0.5,0.6
2024-07-13T2100,3286A,118.9359,42.3147,赤峰市,桥北物流园区,,50,50,27,26,17,65,,120,91,38,27,15,8,1.1,0.9
2024-07-13T2100,2521A,107.3476,22.4136,崇左市,市环保局江州分局,,22,22,21,9,10,44,,70,61,7,7,7,6,0.7,0.8
2024-07-13T2100,2522A,107.3702,22.3707,崇左市,城南新区,,16,14,15,11,11,46,,65,58,4,6,5,4,0.7,0.7
2024-07-13T2100,2298A,118.3093,32.3153,滁州市,老年大学,,21,15,15,12,13,67,,86,82,4,6,6,6,0.6,0.7
2024-07-13T2100,2299A,118.3244,32.2786,滁州市,人大宾馆,,19,18,19,10,15,60,,89,81,9,10,5,6,0.6,0.7
2024-07-13T2100,3207A,118.3118,32.3038,滁州市,市政府原办公楼,,23,,15,16,16,58,,85,80,7,8,6,6,0.7,0.8
2024-07-13T2100,3331A,118.3267,32.2634,滁州市,图书馆,,21,18,22,3,16,66,,87,80,5,9,8,8,0.8,1
2024-07-13T2100,2605A,101.5482,25.0441,楚雄彝族自治州,州环境监测站,,12,,7,7,6,36,,39,39,4,3,2,3,0.6,0.5
2024-07-13T2100,2606A,101.538,25.0492,楚雄彝族自治州,市经济开发区,,26,26,10,10,6,27,,35,34,12,6,4,5,0.6,0.6
2024-07-13T2100,2548A,107.5277,31.2827,达州市,达州职业技术学院,,14,14,18,3,4,31,,43,37,12,11,3,3,0.3,0.4
2024-07-13T2100,2549A,107.5086,31.2186,达州市,市环境监测站,,17,17,19,3,2,42,,63,56,17,20,6,7,0.3,0.5
2024-07-13T2100,2550A,107.4988,31.2132,达州市,凤凰小区,,17,,11,3,5,53,,67,60,9,18,6,8,0.4,0.6
2024-07-13T2100,2551A,107.5082,31.1986,达州市,达县机关宾馆,,13,6,16,3,5,40,,66,57,19,21,4,6,0.3,0.4
2024-07-13T2100,2552A,107.4644,31.2124,达州市,市政中心,,15,11,22,3,5,48,,66,59,14,21,7,8,0.4,0.7
2024-07-13T2100,2614A,100.1542,25.7054,大理白族自治州,大理市环境监测站,,19,19,15,9,10,41,,46,46,9,6,4,4,0.4,0.4
2024-07-13T2100,2615A,100.2171,25.5811,大理白族自治州,大理古城,,30,30,14,20,8,34,,60,54,12,7,6,6,0.6,0.7
2024-07-13T2100,1109A,121.612,38.9741,大连市,甘井子,,40,33,52,28,46,76,,127,102,16,15,7,8,0.6,0.7
2024-07-13T2100,1110A,121.565,38.9511,大连市,周水子,细颗粒物(PM2.5),54,,51,38,47,73,,116,96,15,15,6,7,0.8,0.8
2024-07-13T2100,1111A,121.5637,38.8845,大连市,星海三站,,46,44,63,32,45,96,,151,129,7,6,8,8,0.6,0.6
2024-07-13T2100,1112A,121.6302,38.9117,大连市,青泥洼桥,,49,44,64,34,46,87,,142,118,7,8,8,8,0.6,0.6
2024-07-13T2100,1113A,121.6251,38.8638,大连市,傅家庄,,40,29,48,28,48,95,,148,119,6,8,7,8,0.5,0.6
2024-07-13T2100,1114A,121.5213,38.8661,大连市,七贤岭,,46,37,52,32,45,91,,144,121,11,11,7,6,0.6,0.6
2024-07-13T2100,1115A,121.2529,38.8061,大连市,旅顺,,36,,48,25,38,93,,156,136,8,10,8,8,0.5,0.5
2024-07-13T2100,1116A,121.7485,39.1311,大连市,金州,,48,33,39,33,38,86,,146,120,8,7,7,8,0.7,0.7
2024-07-13T2100,1117A,121.7811,39.0496,大连市,开发区,,48,48,60,29,43,91,,137,114,13,11,3,7,0.7,0.7
2024-07-13T2100,1118A,121.9762,39.0631,大连市,双D港,,46,38,44,32,40,48,,126,90,12,8,6,6,0.8,0.9
2024-07-13T2100,1789A,124.81117,46.03138,大庆市,大同区,细颗粒物(PM2.5),88,82,64,65,48,85,,126,115,21,14,8,7,0.7,0.6
2024-07-13T2100,1790A,125.129,46.533,大庆市,龙凤区,细颗粒物(PM2.5),67,,73,48,44,98,,132,123,24,24,6,7,0.7,0.6
2024-07-13T2100,1791A,124.902,46.408,大庆市,红岗区,细颗粒物(PM2.5),92,69,51,68,43,105,,158,144,16,14,6,7,0.9,0.7
2024-07-13T2100,1792A,125.153,46.586,大庆市,萨尔图区,细颗粒物(PM2.5),87,72,63,64,48,120,,146,135,11,17,6,6,0.6,0.5
2024-07-13T2100,1793A,124.9042,46.6215,大庆市,让胡路区,细颗粒物(PM2.5),74,88,73,54,42,122,,144,134,13,19,6,7,0.6,0.6
2024-07-13T2100,3481A,125.141,46.634,大庆市,萨区政府监测点,细颗粒物(PM2.5),82,88,72,60,51,127,,167,150,13,24,8,8,0.5,0.5
2024-07-13T2100,1723A,113.2994,40.0758,大同市,云冈宾馆,,41,28,31,24,21,130,,148,147,18,14,8,7,0.4,0.6
2024-07-13T2100,1724A,113.3444,40.0917,大同市,大同大学,,42,25,25,14,18,134,,144,144,13,17,11,11,0.4,0.5
2024-07-13T2100,1725A,113.2661,40.1269,大同市,安家小村,,43,29,30,9,11,137,,150,148,13,14,12,12,0.5,0.8
2024-07-13T2100,1726A,113.2711,40.0844,大同市,教育学院,,41,37,30,23,19,130,,147,144,24,21,10,9,0.6,0.7
2024-07-13T2100,3282A,113.3397,40.0597,大同市,大同市卫生学校,,43,29,33,18,20,136,,148,148,14,16,10,10,0.6,0.8
2024-07-13T2100,3565A,113.1367,40.1122,大同市,云冈站,细颗粒物(PM2.5),58,,27,41,16,131,,151,147,10,16,7,8,0.5,0.6
2024-07-13T2100,3566A,113.1186,40.2556,大同市,图书馆,,44,21,25,10,16,140,,162,159,16,14,8,8,0.5,0.8
2024-07-13T2100,3567A,113.5931,40.0461,大同市,区一中,,45,26,23,6,10,142,,152,152,12,11,6,6,0.5,0.5
2024-07-13T2100,3676A,113.2802,40.0995,大同市,第二人民医院,,42,,30,17,17,134,,150,148,16,15,8,9,0.5,0.7
2024-07-13T2100,2269A,124.1069,50.4097,大兴安岭地区,科技局,细颗粒物(PM2.5),99,116,78,74,52,75,,107,101,15,8,6,7,0.7,0.6
2024-07-13T2100,3663A,124.1164,50.4278,大兴安岭地区,红旗社区,细颗粒物(PM2.5),117,97,71,88,65,87,,109,104,14,13,8,8,0.9,0.7
2024-07-13T2100,1600A,124.3303,40.0625,丹东市,江湾东路,,39,39,42,23,28,47,,124,105,28,14,4,7,0.7,0.8
2024-07-13T2100,1601A,124.4256,40.1503,丹东市,临江后街,,35,35,39,22,25,48,,122,104,27,13,8,8,0.8,0.7
2024-07-13T2100,1602A,124.3933,40.1461,丹东市,元宝山,,29,28,38,20,26,74,,104,93,18,20,6,8,0.4,0.6
2024-07-13T2100,1603A,124.3633,40.1092,丹东市,民主桥,,37,37,44,19,26,56,,116,99,19,16,3,5,0.7,0.7
2024-07-13T2100,3541A,109.5726,19.5167,儋州市,第一中学子站,,12,10,14,3,6,38,,51,46,4,5,5,6,0.4,0.5
2024-07-13T2100,3542A,109.5567,19.5187,儋州市,东坡学校子站,,11,10,14,3,7,35,,52,47,6,3,5,6,0.5,0.5
2024-07-13T2100,2616A,98.5842,24.428,德宏傣族景颇族自治州,德宏州监测站,,19,19,27,10,12,38,,50,50,12,11,21,11,0.7,0.7
2024-07-13T2100,3677A,98.5881,24.4368,德宏傣族景颇族自治州,芒市人民政府综合楼,,26,26,26,12,16,30,,46,46,11,11,6,17,0.7,0.6
2024-07-13T2100,1901A,104.4239,31.1208,德阳市,东山公园,,19,10,19,7,11,58,,86,72,6,10,2,2,0.5,0.6
2024-07-13T2100,1902A,104.3826,31.1317,德阳市,西小区,,20,8,16,6,13,63,,93,73,10,14,1,2,0.6,0.6
2024-07-13T2100,1904A,104.3553,31.1091,德阳市,耐火材料厂,,17,10,16,6,13,52,,90,70,16,11,3,3,0.5,0.6
2024-07-13T2100,3639A,104.4019,31.1244,德阳市,市教育局,,19,13,20,7,12,60,,99,73,11,11,3,4,0.6,0.6
2024-07-13T2100,1622A,116.3032,37.4674,德州市,儿童乐园,细颗粒物(PM2.5),89,83,81,66,62,133,,160,160,21,21,9,8,1.2,1
2024-07-13T2100,1624A,116.2991,37.4451,德州市,监理站,细颗粒物(PM2.5),89,83,82,66,64,150,,171,171,17,21,8,10,0.9,0.8
2024-07-13T2100,3066A,116.2721,37.4379,德州市,九衢泉纯净水厂,细颗粒物(PM2.5),89,90,91,66,64,140,,158,158,21,30,4,6,1.2,1.1
2024-07-13T2100,3371A,116.3728,37.4403,德州市,开发区人民医院,细颗粒物(PM2.5),83,90,92,61,57,149,,174,174,20,27,12,10,0.9,0.8
2024-07-13T2100,3372A,116.3572,37.4094,德州市,太阳城中学,细颗粒物(PM2.5),83,78,82,61,60,150,,170,170,14,27,8,9,1.0,1
2024-07-13T2100,3511A,116.5652,37.3319,德州市,陵城艺术中心,,,90,91,63,62,,,180,180,19,24,7,9,1.0,0.9
2024-07-13T2100,2621A,99.7056,27.8317,迪庆藏族自治州,迪庆州站,,19,19,16,9,7,29,,40,37,8,8,7,7,0.3,0.4
2024-07-13T2100,3180A,99.7136,27.8094,迪庆藏族自治州,质量技术监督局,,19,15,15,13,8,32,,41,38,7,7,7,7,0.4,0.4
2024-07-13T2100,2663A,104.6241,35.5734,定西市,东关小学,,40,40,39,26,22,95,,116,115,9,13,6,6,0.3,0.2
2024-07-13T2100,2664A,104.6194,35.5934,定西市,供电公司,,38,30,36,26,26,98,,118,118,11,19,4,5,0.4,0.3
2024-07-13T2100,1389A,113.7547,23.0494,东莞市,莞城梨川,,22,22,16,9,7,29,,60,52,21,16,8,8,0.7,0.7
2024-07-13T2100,1390A,113.7944,23.0128,东莞市,东城石井,,18,18,14,7,6,27,,64,55,22,15,2,2,0.5,0.5
2024-07-13T2100,1391A,113.7383,22.9658,东莞市,南城西平,,17,17,14,3,5,32,,57,52,17,14,3,3,0.6,0.6
2024-07-13T2100,3319A,113.7338,23.0381,东莞市,万江金泰,,,17,14,3,6,28,,61,52,18,14,,6,,0.7
2024-07-13T2100,3626A,113.7533,23.0202,东莞市,南城元岭,,17,17,16,3,5,27,,59,50,18,14,6,5,0.6,0.6
2024-07-13T2100,3627A,113.7875,23.0457,东莞市,东城主山,,12,12,12,8,5,28,,60,53,19,12,6,6,0.6,0.6
2024-07-13T2100,1666A,118.6614,37.4309,东营市,市环保局,细颗粒物(PM2.5),70,58,71,51,57,169,,202,192,6,11,8,11,0.6,0.8
2024-07-13T2100,3036A,118.6904,37.4338,东营市,开发区管委会,臭氧1小时,65,63,78,46,61,172,,202,192,9,14,7,10,0.4,0.5
2024-07-13T2100,3365A,118.5719,37.565,东营市,垦利区民丰路,,,,76,,58,,,204,200,12,14,9,10,0.7,0.8
2024-07-13T2100,3498A,118.5055,37.8612,东营市,河口城区,臭氧1小时,90,83,78,63,61,192,,209,203,9,8,7,8,0.6,0.7
2024-07-13T2100,3646A,118.4978,37.4623,东营市,胜利站,臭氧1小时,84,64,71,51,56,187,,201,196,7,15,5,6,0.9,1
2024-07-13T2100,3734A,118.35,37.26,东营市,理想之城,细颗粒物(PM2.5),73,61,78,53,59,173,,198,191,8,14,8,11,0.6,0.9
2024-07-13T2100,1591A,110.0023,39.8129,鄂尔多斯市,综合楼,颗粒物(PM10),63,75,57,7,13,73,,172,150,77,26,7,9,0.5,0.5
2024-07-13T2100,1592A,109.9486,39.8261,鄂尔多斯市,巴音孟克林场办事处,颗粒物(PM10),64,78,59,17,17,101,,152,142,40,29,8,9,0.6,0.6
2024-07-13T2100,1593A,109.7736,39.5986,鄂尔多斯市,康泽苑,,38,27,55,14,17,119,,170,160,22,25,9,10,0.4,0.5
2024-07-13T2100,1594A,109.8119,39.5989,鄂尔多斯市,华泰汽车城,,30,29,55,12,19,95,,161,149,34,42,8,10,0.4,0.5
2024-07-13T2100,1595A,109.9734,39.7884,鄂尔多斯市,奥林花园,颗粒物(PM10),51,51,48,14,14,79,,159,143,53,23,5,6,0.6,0.6
2024-07-13T2100,2436A,114.8938,30.3994,鄂州市,市政府,颗粒物(PM10),53,56,38,20,12,65,,44,44,10,17,5,22,0.8,0.8
2024-07-13T2100,2437A,114.8989,30.3714,鄂州市,赵家坝,颗粒物(PM10),58,66,36,17,11,43,,43,36,12,17,4,7,0.7,0.7
2024-07-13T2100,3654A,114.8094,30.4089,鄂州市,精准医疗中心,,47,47,28,29,13,44,,48,45,18,18,9,10,0.9,0.8
2024-07-13T2100,2454A,109.4978,30.2981,恩施土家族苗族自治州,湖北民院,,26,26,14,10,8,66,,54,54,9,12,6,6,0.6,0.7
2024-07-13T2100,2455A,109.4707,30.2798,恩施土家族苗族自治州,州电力总公司,,18,18,11,9,8,51,,45,45,22,19,7,7,0.7,0.8
2024-07-13T2100,3549A,109.5061,30.3772,恩施土家族苗族自治州,龙凤新区,,20,14,10,14,7,54,,44,44,7,11,7,7,0.4,0.5
2024-07-13T2100,2499A,108.3411,21.6158,防城港市,沙万,,28,28,22,8,6,44,,51,50,24,20,10,11,0.5,0.6
2024-07-13T2100,2500A,108.3514,21.7731,防城港市,防城档案局,,23,23,18,8,8,41,,58,56,15,11,7,6,0.6,0.7
2024-07-13T2100,2501A,108.3506,21.6414,防城港市,大海花园,,46,46,20,11,6,41,,51,49,20,13,7,6,0.7,0.7
2024-07-13T2100,1371A,113.1294,23.0067,佛山市,湾梁,,15,,13,10,10,37,,84,72,15,14,6,6,0.5,0.5
2024-07-13T2100,1372A,113.1083,23.0478,佛山市,华材职中,,13,12,10,3,6,40,,84,73,14,15,6,6,0.4,0.4
2024-07-13T2100,1373A,113.144,23.0453,佛山市,南海气象局,,21,21,19,9,8,35,,86,74,12,13,8,7,0.4,0.4
2024-07-13T2100,1374A,113.2881,22.8094,佛山市,顺德苏岗,,18,18,12,7,6,31,,68,54,9,14,6,6,0.4,0.5
2024-07-13T2100,1376A,112.8383,22.8678,佛山市,高明孔堂,,20,20,14,3,5,39,,61,54,7,7,7,6,0.5,0.4
2024-07-13T2100,1377A,112.8836,23.1588,佛山市,三水监测站,,12,12,14,3,9,33,,79,65,21,21,5,5,0.4,0.4
2024-07-13T2100,1378A,112.867,23.185,佛山市,三水云东海,,15,15,16,6,9,33,,78,66,20,21,4,5,0.4,0.4
2024-07-13T2100,3625A,113.2544,22.7642,佛山市,容桂街道办,,10,9,7,7,13,25,,60,49,16,13,6,6,0.5,0.5
2024-07-13T2100,1282A,119.2681,26.0504,福州市,师大,,40,40,32,14,14,47,,94,79,17,12,4,4,0.2,0.2
2024-07-13T2100,1283A,119.2984,26.1028,福州市,五四北路,,41,41,32,14,13,58,,104,91,14,11,4,4,0.3,0.3
2024-07-13T2100,1284A,119.2648,26.0768,福州市,杨桥西路,,41,41,35,15,14,53,,101,85,14,11,4,4,0.2,0.2
2024-07-13T2100,1285A,119.317,26.0746,福州市,紫阳,,35,35,34,13,13,50,,93,84,12,13,3,3,0.2,0.2
2024-07-13T2100,3048A,119.5799,26.0936,福州市,九龙,,25,25,28,9,11,65,,109,95,6,9,5,6,0.3,0.3
2024-07-13T2100,3526A,119.5189,25.9664,福州市,吴航,,27,27,27,11,12,51,,105,89,5,6,6,6,0.5,0.5
2024-07-13T2100,1755A,123.7977,41.8491,抚顺市,望花区,细颗粒物(PM2.5),60,48,58,43,35,144,,171,157,16,18,4,5,0.7,0.7
2024-07-13T2100,1756A,123.9161,41.8822,抚顺市,顺城区,颗粒物(PM10),61,71,50,38,33,78,,180,150,48,22,4,6,1.0,0.8
2024-07-13T2100,1757A,124.0436,41.8611,抚顺市,东洲区,颗粒物(PM10),59,68,47,41,34,95,,153,142,26,12,9,6,0.7,0.6
2024-07-13T2100,1758A,123.9247,41.8642,抚顺市,新抚区,细颗粒物(PM2.5),55,58,46,39,31,58,,155,128,46,17,3,5,0.9,0.7
2024-07-13T2100,1759A,124.0972,41.8961,抚顺市,大伙房水库,,42,41,42,29,32,80,,150,140,10,10,4,4,0.6,0.7
2024-07-13T2100,1760A,123.7086,41.8391,抚顺市,沈抚新城,细颗粒物(PM2.5),55,46,57,39,42,132,,172,154,15,19,4,8,0.4,0.6
2024-07-13T2100,2376A,116.2127,28.0814,抚州市,桐源党溪,,,34,26,20,12,39,,90,77,8,4,5,6,,0.3
2024-07-13T2100,2377A,116.3544,27.9831,抚州市,市站,,32,32,22,16,10,46,,80,71,11,4,5,4,0.6,0.6
2024-07-13T2100,2378A,116.3565,27.963,抚州市,血防站,,28,28,22,16,11,42,,78,68,16,6,2,4,0.6,0.7
2024-07-13T2100,2379A,116.3564,28.0007,抚州市,采茶剧团,,29,29,20,15,10,43,,81,71,8,3,6,5,0.8,0.8
2024-07-13T2100,2380A,116.385,27.9647,抚州市,医学分院,,33,33,24,13,10,49,,83,74,10,6,10,5,0.8,0.8
2024-07-13T2100,2207A,121.6094,41.998,阜新市,工业园区,颗粒物(PM10),56,62,52,34,33,108,,143,126,29,23,40,18,1.1,0.9
2024-07-13T2100,2208A,121.6697,42.0279,阜新市,长青街,,48,48,51,28,31,118,,138,128,22,18,33,17,1.0,0.8
2024-07-13T2100,2209A,121.6673,42.0705,阜新市,农业园区,,49,34,59,34,31,102,,136,114,18,15,11,9,1.0,0.7
2024-07-13T2100,2210A,121.6717,42.0224,阜新市,东苑,,48,48,48,31,33,109,,131,118,30,22,35,21,0.9,0.8
2024-07-13T2100,2211A,121.6506,42.0498,阜新市,玉龙新城,颗粒物(PM10),56,61,53,34,32,103,,140,121,24,20,10,9,1.0,0.6
2024-07-13T2100,2301A,115.8277,32.8929,阜阳市,市监测站,,25,25,17,12,7,69,,114,109,18,10,4,4,0.7,0.7
2024-07-13T2100,2303A,115.8554,32.8605,阜阳市,开发区,,36,36,17,14,9,84,,116,113,16,10,6,4,0.5,0.5
2024-07-13T2100,2875A,115.784,32.8892,阜阳市,阜阳职业技术学院,,29,20,12,13,6,90,,117,115,10,11,5,5,0.6,0.6
2024-07-13T2100,3468A,115.7901,32.8613,阜阳市,市规划展馆,,32,32,20,17,13,81,,110,108,15,10,2,2,0.6,0.6
2024-07-13T2100,3469A,115.836,32.9183,阜阳市,枣园社区,,25,23,20,13,13,79,,114,110,16,14,1,1,0.7,0.6
2024-07-13T2100,2669A,102.9099,34.9841,甘南藏族自治州,州政府,,30,30,27,18,18,61,,109,83,16,10,8,8,0.5,0.4
2024-07-13T2100,3380A,102.8914,34.9617,甘南藏族自治州,甘肃民族师范学院,,32,27,20,22,13,26,,116,82,39,8,4,3,0.4,0.3
2024-07-13T2100,2570A,101.9603,30.0475,甘孜藏族自治州,水桥子,,15,,21,3,10,48,,68,66,17,19,4,4,0.4,0.4
2024-07-13T2100,3065A,101.9533,29.9972,甘孜藏族自治州,州环保局,,16,16,22,8,5,45,,70,64,22,23,2,2,0.4,0.3
2024-07-13T2100,3414A,115.8347,28.932,赣江新区,桑海产业园,颗粒物(PM10),51,51,26,22,15,48,,104,95,53,22,11,12,0.4,0.5
2024-07-13T2100,2363A,114.9367,25.8664,赣州市,地委,,18,13,15,9,8,55,,80,73,7,4,9,9,0.8,0.8
2024-07-13T2100,2364A,114.9461,25.8481,赣州市,气象台,,19,16,14,13,8,56,,73,68,6,8,6,7,0.6,0.6
2024-07-13T2100,2365A,114.9322,25.8333,赣州市,市图书馆,,,14,15,10,7,54,,80,73,,5,73,21,0.7,0.9
2024-07-13T2100,2366A,114.8905,25.8471,赣州市,华坚鞋城,,30,30,21,11,9,53,,81,71,10,6,14,22,0.4,0.5
2024-07-13T2100,3109A,115.0093,25.8613,赣州市,赣县区卫计委,,14,9,16,6,6,42,,61,56,21,11,7,7,0.6,0.7
2024-07-13T2100,2683A,106.2319,36.1417,固原市,马园,,45,45,32,14,13,109,,130,127,7,28,5,5,0.8,0.8
2024-07-13T2100,2684A,106.2792,36.0022,固原市,监测站,,37,37,24,17,15,104,,131,124,12,18,6,6,0.4,0.3
2024-07-13T2100,2685A,106.2375,36.0211,固原市,新区,,32,25,26,10,11,100,,128,121,9,17,6,6,0.5,0.4
2024-07-13T2100,3522A,106.2177,35.9959,固原市,原州区十五小,,33,24,28,15,16,104,,125,119,7,14,7,6,0.5,0.5
2024-07-13T2100,2544A,106.6303,30.4576,广安市,市委,,23,20,26,16,14,65,,95,81,8,13,8,8,0.4,0.5
2024-07-13T2100,2545A,106.6271,30.4663,广安市,友谊中学,,25,23,22,15,14,77,,101,92,9,16,7,8,0.5,0.6
2024-07-13T2100,2547A,106.6388,30.4551,广安市,广电花园,,28,26,27,19,13,64,,94,82,7,12,6,7,0.5,0.6
2024-07-13T2100,2902A,106.6351,30.4865,广安市,北辰小学,,25,20,24,17,14,70,,100,89,6,11,8,8,0.3,0.4
2024-07-13T2100,2523A,105.8945,32.4535,广元市,黑石坡,,10,10,20,3,6,23,,38,33,5,8,14,14,0.3,0.4
2024-07-13T2100,2524A,105.821,32.4444,广元市,老城,,16,16,24,7,8,37,,53,45,27,23,5,7,0.9,0.7
2024-07-13T2100,2526A,105.8628,32.4287,广元市,监测站,,26,24,18,18,9,64,,61,56,8,13,4,6,0.5,0.5
2024-07-13T2100,3617A,105.8047,32.4166,广元市,经开区,,24,24,26,15,13,28,,56,47,19,21,3,4,0.7,0.7
2024-07-13T2100,1345A,113.2347,23.1423,广州市,广雅中学,,37,37,18,16,8,33,,84,70,19,16,4,4,0.5,0.6
2024-07-13T2100,1346A,113.2612,23.105,广州市,市五中,,25,25,16,14,9,37,,90,75,16,12,4,3,0.5,0.5
2024-07-13T2100,1348A,113.3478,23.0916,广州市,广东商学院,,20,20,16,12,7,41,,83,68,13,14,3,3,0.5,0.5
2024-07-13T2100,1349A,113.4332,23.1047,广州市,市八十六中,,15,15,20,3,6,29,,60,45,26,26,3,3,0.5,0.5
2024-07-13T2100,1350A,113.3505,22.9483,广州市,番禺中学,,15,15,14,6,6,42,,84,66,14,14,7,7,0.7,0.7
2024-07-13T2100,1351A,113.2146,23.3916,广州市,花都师范,,16,16,19,9,11,47,,109,95,19,22,6,6,0.5,0.6
2024-07-13T2100,1352A,113.2597,23.1331,广州市,市监测站,,21,21,18,9,7,31,,86,71,19,14,4,4,0.7,0.7
2024-07-13T2100,1353A,113.5618,23.312,广州市,九龙镇镇龙,,19,19,28,8,11,14,,58,48,26,24,8,7,0.5,0.5
2024-07-13T2100,1354A,113.2765,23.1544,广州市,麓湖,,22,22,18,11,8,31,,88,73,21,15,3,3,0.5,0.5
2024-07-13T2100,1355A,113.443,23.3035,广州市,帽峰山森林公园,,14,14,11,6,6,16,,74,61,28,19,5,4,0.5,0.5
2024-07-13T2100,2846A,113.3221,23.1322,广州市,体育西,,23,23,17,13,9,34,,81,66,18,15,4,4,0.5,0.5
2024-07-13T2100,3298A,113.5717,23.5491,广州市,从化街口,,17,16,19,8,10,53,,90,85,16,15,6,5,0.5,0.5
2024-07-13T2100,3299A,113.3472,23.3692,广州市,白云竹料,,23,23,23,9,10,19,,87,71,30,25,5,4,0.5,0.5
2024-07-13T2100,3300A,113.2981,23.237,广州市,白云嘉禾,,18,18,20,8,11,31,,78,66,23,21,5,5,0.6,0.6
2024-07-13T2100,3301A,113.4256,23.1716,广州市,黄埔科学城,,18,18,16,6,6,18,,60,44,30,20,7,7,0.5,0.6
2024-07-13T2100,3302A,113.3942,23.0483,广州市,番禺大学城,,14,14,13,7,7,36,,70,56,13,12,5,5,0.6,0.6
2024-07-13T2100,3303A,113.4922,22.8168,广州市,南沙黄阁,,12,10,17,3,3,38,,60,53,13,13,6,6,0.6,0.6
2024-07-13T2100,3304A,113.5342,22.7896,广州市,南沙街,,16,16,12,3,4,35,,53,49,9,12,5,5,0.7,0.7
2024-07-13T2100,3443A,113.2902,23.5544,广州市,花都梯面,,25,25,19,13,9,36,,110,98,32,19,5,4,0.6,0.5
2024-07-13T2100,3445A,113.7858,23.7478,广州市,从化良口,,25,13,15,7,9,80,,85,85,7,9,5,5,0.6,0.5
2024-07-13T2100,3446A,113.8051,23.2614,广州市,增城荔城,,31,31,21,14,9,56,,89,86,19,17,6,7,0.6,0.6
2024-07-13T2100,2506A,109.6047,23.0666,贵港市,江南子站,细颗粒物(PM2.5),54,46,36,38,19,55,,75,71,14,12,7,9,0.6,0.6
2024-07-13T2100,2507A,109.6014,23.0948,贵港市,贵城子站,细颗粒物(PM2.5),83,64,34,61,21,44,,73,68,23,12,10,9,0.9,0.6
2024-07-13T2100,2508A,109.5669,23.1065,贵港市,荷城子站,颗粒物(PM10),51,51,28,29,10,56,,74,70,11,8,9,10,0.7,0.6
2024-07-13T2100,3405A,109.5886,23.1172,贵港市,新世纪学校,细颗粒物(PM2.5),72,92,33,52,18,41,,75,68,16,8,8,8,0.9,0.7
2024-07-13T2100,1439A,106.6899,26.5998,贵阳市,马鞍山,,20,14,13,3,4,63,,70,70,8,7,5,6,0.4,0.4
2024-07-13T2100,1440A,106.6971,26.5694,贵阳市,市环保站,,23,17,17,16,14,52,,64,62,13,10,6,5,0.3,0.2
2024-07-13T2100,1441A,106.6243,26.6266,贵阳市,鉴湖路,,18,12,14,7,7,55,,62,62,6,5,3,3,0.3,0.4
2024-07-13T2100,1442A,106.7487,26.6343,贵阳市,燕子冲,,18,,6,9,8,56,,68,66,7,7,5,6,0.5,0.5
2024-07-13T2100,1443A,106.6555,26.4365,贵阳市,碧云窝,,17,17,19,3,4,54,,66,65,8,6,3,5,0.3,0.2
2024-07-13T2100,1444A,106.694,26.5161,贵阳市,中院村,,24,24,19,7,6,48,,62,60,12,10,6,5,0.3,0.4
2024-07-13T2100,1445A,106.7109,26.6027,贵阳市,红边门,,27,27,21,17,17,49,,65,62,16,12,7,6,0.6,0.5
2024-07-13T2100,1447A,106.674,26.5424,贵阳市,太慈桥,,17,9,15,9,9,54,,67,65,9,7,7,7,0.4,0.4
2024-07-13T2100,1862A,110.4144,25.3167,桂林市,电子科大尧山校区,,27,27,26,15,15,37,,73,61,6,7,4,5,0.4,0.4
2024-07-13T2100,1863A,110.2819,25.2697,桂林市,监测站,,26,26,29,17,16,54,,76,69,9,9,7,6,0.6,0.7
2024-07-13T2100,1864A,110.3089,25.2708,桂林市,龙隐路小学,,27,27,26,17,16,48,,72,65,12,9,5,5,0.6,0.6
2024-07-13T2100,1865A,110.2869,25.2178,桂林市,八中,,23,18,26,16,14,55,,71,67,12,10,8,6,0.5,0.6
2024-07-13T2100,3403A,110.1764,25.2381,桂林市,创业大厦,,,,23,14,16,58,,75,71,6,18,5,6,,1.1
2024-07-13T2100,3531A,110.296,25.1253,桂林市,旅游学院,,35,27,17,24,16,35,,76,60,13,10,20,7,0.4,0.4
2024-07-13T2100,2674A,100.2561,34.4714,果洛藏族自治州,玛沁县大武镇,,26,26,15,9,8,77,,85,84,1,1,9,9,0.5,0.4
2024-07-13T2100,1129A,126.5422,45.755,哈尔滨市,岭北,,48,48,69,31,46,100,,138,130,23,33,11,9,0,0.4
2024-07-13T2100,1130A,126.561,45.8167,哈尔滨市,松北商大,颗粒物(PM10),54,58,67,28,36,66,,111,105,37,31,6,7,0.7,0.7
2024-07-13T2100,1131A,126.979,45.5419,哈尔滨市,阿城会宁,,,82,65,37,37,,,114,109,30,25,13,19,0.6,0.7
2024-07-13T2100,1132A,126.599,45.7222,哈尔滨市,南岗学府路,颗粒物(PM10),58,65,76,32,36,96,,128,123,23,29,6,6,0.6,0.7
2024-07-13T2100,1133A,126.689,45.7733,哈尔滨市,太平宏伟公园,颗粒物(PM10),66,82,86,38,38,74,,116,109,36,39,6,7,0.6,0.6
2024-07-13T2100,1134A,126.635,45.7667,哈尔滨市,道外承德广场,颗粒物(PM10),58,65,72,23,35,81,,118,112,39,42,8,9,0.6,0.7
2024-07-13T2100,1135A,126.685,45.7319,哈尔滨市,香坊红旗大街,颗粒物(PM10),60,70,64,40,42,92,,120,115,32,28,8,6,0.7,0.7
2024-07-13T2100,1136A,126.6411,45.7258,哈尔滨市,动力和平路,颗粒物(PM10),56,61,69,33,35,103,,124,121,22,29,7,8,0.6,0.6
2024-07-13T2100,1137A,126.593,45.7478,哈尔滨市,道里建国路,颗粒物(PM10),54,58,66,30,39,98,,127,124,26,32,9,11,0.4,0.8
2024-07-13T2100,1138A,126.615,45.61,哈尔滨市,平房东轻厂,颗粒物(PM10),67,83,70,32,34,47,,126,112,72,42,19,12,0.5,0.4
2024-07-13T2100,1139A,126.595,45.9855,哈尔滨市,呼兰师专,颗粒物(PM10),71,92,76,48,48,71,,117,110,43,38,11,11,0.7,0.6
2024-07-13T2100,1140A,126.6206,45.6842,哈尔滨市,省农科院,颗粒物(PM10),67,84,80,47,47,64,,129,116,51,40,10,10,0.8,0.7
2024-07-13T2100,2688A,93.5128,42.8172,哈密市,地区监测站,,34,23,28,17,15,108,,132,128,16,14,3,8,0.1,0.5
2024-07-13T2100,2689A,93.4961,42.8328,哈密市,哈密师范学校,,35,33,34,11,14,112,,133,129,10,14,4,8,0.4,0.6
2024-07-13T2100,2671A,100.9048,36.9639,海北藏族自治州,海晏县西海镇,,42,32,24,28,19,132,,136,135,12,9,14,12,0.7,0.5
2024-07-13T2100,3867A,102.0738,36.5056,海东市,平安区公安北苑,,38,34,51,25,34,119,,142,139,17,24,15,19,0.8,1
2024-07-13T2100,1410A,110.3232,20.0574,海口市,海南大学,,15,15,14,3,6,46,,66,58,6,5,6,6,0.4,0.4
2024-07-13T2100,1411A,110.283,20.0053,海口市,秀英海南医院,,18,18,16,7,6,41,,65,57,11,10,6,6,0.2,0.2
2024-07-13T2100,1412A,110.338,19.9969,海口市,海南师范大学,,15,15,13,8,7,44,,65,58,7,5,7,6,0.4,0.4
2024-07-13T2100,1413A,110.33,20.0356,海口市,龙华路环保局宿舍,,18,18,17,7,7,44,,62,56,6,6,7,7,0.2,0.3
2024-07-13T2100,3539A,110.5111,19.9736,海口市,桂林洋子站,,14,14,14,8,7,44,,55,52,6,8,6,6,0.2,0.3
2024-07-13T2100,2673A,100.6188,36.2866,海南藏族自治州,共和县恰卜恰镇,,33,27,18,10,12,105,,111,107,13,10,13,11,0.5,0.5
2024-07-13T2100,2676A,97.3731,37.3753,海西蒙古族藏族自治州,德令哈市,,29,15,17,13,12,92,,99,97,9,8,9,9,0.7,0.6
2024-07-13T2100,1048A,114.5302,36.6116,邯郸市,东污水处理厂,细颗粒物(PM2.5),55,55,58,39,31,112,,144,136,8,12,1,1,0.6,0.5
2024-07-13T2100,1049A,114.4918,36.5713,邯郸市,矿院,颗粒物(PM10),59,68,49,36,31,117,,153,145,10,15,1,2,0.5,0.5
2024-07-13T2100,1050A,114.484,36.6133,邯郸市,丛台公园,颗粒物(PM10),54,57,52,37,32,110,,151,144,10,11,3,3,0.6,0.6
2024-07-13T2100,3458A,114.7895,36.5593,邯郸市,香泉濮院小区,细颗粒物(PM2.5),54,53,70,38,44,121,,171,154,9,12,2,2,0.6,0.5
2024-07-13T2100,3579A,114.50634,36.77178,邯郸市,永年区实验高中,"颗粒物(PM10),细颗粒物(PM2.5)",63,75,68,45,41,99,,140,133,13,14,3,2,0.6,0.6
2024-07-13T2100,3580A,114.20016,36.44293,邯郸市,峰峰矿区临水派出所,颗粒物(PM10),58,65,61,38,30,121,,150,144,5,6,2,3,0.6,0.6
2024-07-13T2100,2634A,106.9893,33.1842,汉中市,汉川机床厂子校,二氧化氮,102,,27,12,15,41,,44,40,219,46,3,3,0.5,0.6
2024-07-13T2100,2635A,107.0154,33.0706,汉中市,市监测站,,28,27,45,19,18,52,,52,52,7,21,7,9,0.7,0.8
2024-07-13T2100,2636A,107.0089,33.1138,汉中市,鑫源开发区,,22,22,41,15,18,45,,40,39,6,25,8,9,0.6,0.7
2024-07-13T2100,2637A,107.007,33.0323,汉中市,南郑大河坎水厂,,35,35,41,17,18,46,,60,60,9,15,8,9,0.6,0.7
2024-07-13T2100,1223A,120.2072,30.2111,杭州市,滨江,,50,50,30,24,15,21,,44,42,48,37,3,3,0.9,0.7
2024-07-13T2100,1224A,120.0633,30.2747,杭州市,西溪,,25,23,21,17,13,4,,18,16,20,24,6,6,0.8,0.7
2024-07-13T2100,1226A,120.3461,30.3153,杭州市,下沙,细颗粒物(PM2.5),60,66,41,43,19,36,,53,53,72,41,7,6,0.9,0.8
2024-07-13T2100,1227A,120.1269,30.2456,杭州市,卧龙桥,,27,27,23,17,13,4,,20,17,20,23,5,5,0.8,0.7
2024-07-13T2100,1228A,120.1903,30.2692,杭州市,浙江农大,,43,35,26,30,16,28,,38,38,38,35,6,6,0.8,0.8
2024-07-13T2100,1230A,120.1197,30.3119,杭州市,和睦小学,,41,41,24,22,15,29,,37,37,42,39,5,5,0.9,0.7
2024-07-13T2100,1231A,120.3019,30.4183,杭州市,临平镇,颗粒物(PM10),62,73,44,28,27,10,,44,39,73,40,4,4,1.0,0.8
2024-07-13T2100,1232A,120.2697,30.1819,杭州市,城厢镇,细颗粒物(PM2.5),57,56,30,40,17,42,,45,45,37,42,5,4,0.9,0.8
2024-07-13T2100,1233A,120.0883,30.1808,杭州市,云栖,,32,32,22,16,10,6,,26,22,12,17,6,6,0.9,0.8
2024-07-13T2100,3557A,119.9464,30.0494,杭州市,镇二中,,24,24,25,14,15,29,,32,32,24,33,6,6,0.7,0.8
2024-07-13T2100,3558A,119.7183,30.2367,杭州市,市府大楼,,20,19,16,14,11,26,,29,29,17,21,6,6,0.6,0.7
2024-07-13T2100,3656A,120.1556,30.2864,杭州市,消防大队,,35,35,28,24,17,30,,38,38,30,36,6,6,1.1,1
2024-07-13T2100,1270A,117.1959,31.7848,合肥市,明珠广场,,24,24,16,7,10,26,,65,56,35,18,7,7,0.4,0.4
2024-07-13T2100,1271A,117.3072,31.8764,合肥市,三里街,,24,24,12,9,6,32,,71,59,37,20,5,5,0.6,0.5
2024-07-13T2100,1272A,117.2588,31.8707,合肥市,琥珀山庄,,19,19,17,3,6,49,,76,69,20,14,8,8,0.5,0.6
2024-07-13T2100,1273A,117.1604,31.9052,合肥市,董铺水库,,19,6,8,3,5,58,,73,70,5,8,2,2,0.2,0.4
2024-07-13T2100,1274A,117.25,31.8571,合肥市,长江中路,,17,14,17,9,11,54,,73,67,15,12,5,5,0.6,0.7
2024-07-13T2100,1275A,117.266,31.9436,合肥市,庐阳区,,20,12,14,7,12,62,,82,76,11,14,5,5,0.3,0.5
2024-07-13T2100,1276A,117.336,31.8586,合肥市,瑶海区,,22,22,13,7,8,30,,68,59,40,16,8,8,0.7,0.7
2024-07-13T2100,1277A,117.3027,31.7964,合肥市,包河区,,27,27,14,3,4,25,,75,64,44,17,7,6,0.5,0.5
2024-07-13T2100,1278A,117.2776,31.7385,合肥市,滨湖新区,,15,9,7,3,5,48,,72,63,25,17,5,6,0.5,0.6
2024-07-13T2100,1279A,117.1318,31.8403,合肥市,高新区,,14,9,10,3,7,44,,67,64,18,10,7,7,0.5,0.6
2024-07-13T2100,3464A,117.3803,31.9147,合肥市,高教基地,,19,19,13,6,8,24,,65,54,12,9,6,7,0.4,0.4
2024-07-13T2100,3614A,79.924,37.0877,和田地区,地区环保局,颗粒物(PM10),130,210,212,61,52,120,,134,134,8,7,7,7,0.4,0.4
2024-07-13T2100,3615A,79.9131,37.113,和田地区,市环保局,颗粒物(PM10),101,151,162,55,53,115,,128,128,7,8,6,6,0.4,0.5
2024-07-13T2100,2516A,108.2011,24.715,河池市,东仁乐园,,26,26,30,11,14,42,,64,62,9,9,4,6,0.7,0.7
2024-07-13T2100,2517A,108.0497,24.6947,河池市,市环保站,,22,14,17,14,11,70,,75,75,6,9,7,8,0.5,0.5
2024-07-13T2100,2518A,108.0983,24.6989,河池市,市疾控中心,,28,23,25,19,14,59,,73,72,14,13,12,11,0.5,0.5
2024-07-13T2100,1697A,114.6944,23.7586,河源市,东埔,,39,,13,27,10,45,,72,68,14,10,7,7,0.5,0.5
2024-07-13T2100,1698A,114.6892,23.7233,河源市,老城,,28,28,17,10,8,40,,72,66,15,7,4,4,0.6,0.6
2024-07-13T2100,1718A,115.4208,35.2464,菏泽市,气象局,颗粒物(PM10),56,61,72,35,44,160,,202,198,15,11,4,3,0.5,0.5
2024-07-13T2100,1719A,115.4747,35.2375,菏泽市,市政协,细颗粒物(PM2.5),58,56,68,41,55,163,,200,198,9,9,4,4,0.4,0.4
2024-07-13T2100,3374A,115.5564,35.0891,菏泽市,定陶老年大学,颗粒物(PM10),56,61,68,34,43,151,,185,180,14,12,3,3,0.5,0.7
2024-07-13T2100,3647A,115.4702,35.2706,菏泽市,菏泽医专,颗粒物(PM10),71,92,78,40,51,121,,208,199,55,18,1,2,0.6,0.6
2024-07-13T2100,2514A,111.5264,24.4172,贺州市,环保小区,,25,25,21,8,13,32,,69,60,19,11,6,8,0.5,0.5
2024-07-13T2100,2515A,111.5608,24.4078,贺州市,政协大楼,,38,38,24,11,14,23,,69,57,27,12,7,9,0.6,0.5
2024-07-13T2100,3534A,111.4744,24.4553,贺州市,西湾,,12,10,27,6,14,12,,72,59,24,13,6,6,0.6,0.5
2024-07-13T2100,2385A,114.17,35.9019,鹤壁市,市监测站,细颗粒物(PM2.5),82,76,53,60,38,121,,153,150,18,10,8,5,0.9,0.8
2024-07-13T2100,2386A,114.2956,35.7511,鹤壁市,市交警支队,细颗粒物(PM2.5),94,93,61,70,44,139,,175,169,17,19,4,5,0.7,0.6
2024-07-13T2100,2387A,114.2878,35.7306,鹤壁市,迎宾馆,细颗粒物(PM2.5),78,92,51,57,43,144,,175,172,20,22,3,3,0.6,0.6
2024-07-13T2100,3474A,114.2617,35.6822,鹤壁市,大新区,,,80,49,,39,134,,164,159,20,21,2,1,0.5,0.4
2024-07-13T2100,3596A,114.1572,35.9603,鹤壁市,南山宾馆,细颗粒物(PM2.5),79,78,51,58,45,138,,158,156,11,10,8,8,1.0,0.9
2024-07-13T2100,2244A,130.2537,47.3416,鹤岗市,哈啤分公司,细颗粒物(PM2.5),59,58,40,42,27,41,,71,68,12,10,12,13,0.7,0.6
2024-07-13T2100,2245A,130.2684,47.3086,鹤岗市,斯达机电,细颗粒物(PM2.5),57,52,32,40,22,61,,74,74,16,10,12,12,0.4,0.3
2024-07-13T2100,2246A,130.3114,47.3388,鹤岗市,东山纸板厂,,,,37,75,34,26,,73,65,20,11,16,16,0.7,0.6
2024-07-13T2100,2247A,130.1097,47.3382,鹤岗市,五号水库,,47,47,29,21,13,34,,80,72,9,10,10,10,0.6,0.6
2024-07-13T2100,2263A,127.4833,50.2524,黑河市,交通局,细颗粒物(PM2.5),135,151,119,103,84,43,,111,102,32,15,6,6,1.1,0.8
2024-07-13T2100,2264A,127.5144,50.2341,黑河市,环保局,细颗粒物(PM2.5),128,165,121,97,84,48,,112,104,41,16,4,4,0.9,0.7
2024-07-13T2100,2265A,127.5291,50.2472,黑河市,大黑河岛,细颗粒物(PM2.5),159,135,120,121,106,,,,,21,14,2,2,,
2024-07-13T2100,1074A,115.6838,37.7541,衡水市,电机北厂,细颗粒物(PM2.5),92,77,70,68,45,138,,151,151,11,15,3,3,0.8,0.5
2024-07-13T2100,1075A,115.6303,37.7316,衡水市,市监测站,细颗粒物(PM2.5),82,75,57,60,40,137,,149,149,13,13,5,6,0.9,0.6
2024-07-13T2100,3188A,115.6683,37.7217,衡水市,市城管局,细颗粒物(PM2.5),73,75,64,53,43,145,,157,157,11,14,4,4,0.9,0.6
2024-07-13T2100,3459A,115.5989,37.5491,衡水市,地表水厂,细颗粒物(PM2.5),82,89,70,60,38,141,,155,155,10,16,7,7,0.9,0.5
2024-07-13T2100,2456A,112.5003,26.9167,衡阳市,原169医院,,24,24,25,13,13,40,,75,65,18,11,10,13,0.7,0.7
2024-07-13T2100,2457A,112.6194,26.9258,衡阳市,衡阳化工总厂,,,23,27,,,49,,83,71,8,7,8,11,0.4,0.4
2024-07-13T2100,2458A,112.6211,26.8956,衡阳市,珠晖区环保局,,,20,25,,,53,,85,74,7,5,6,10,0.6,0.6
2024-07-13T2100,2459A,112.6197,26.8733,衡阳市,市委党校,,18,15,23,11,12,55,,83,72,7,9,5,8,0.5,0.5
2024-07-13T2100,2460A,112.6006,26.8919,衡阳市,市监测站,,21,21,28,9,14,53,,86,74,8,9,9,13,0.5,0.5
2024-07-13T2100,2461A,112.5664,26.9056,衡阳市,真空机电公司,,,42,32,,16,38,,81,66,19,13,16,18,1.3,1
2024-07-13T2100,3399A,112.6703,26.882,衡阳市,师范学院,,17,17,24,9,11,49,,81,69,7,7,9,10,0.6,0.6
2024-07-13T2100,2608A,103.3772,23.3993,红河哈尼族彝族自治州,污水处理厂,,24,24,13,12,12,33,,38,35,5,5,4,4,0.4,0.4
2024-07-13T2100,2609A,103.3861,23.35,红河哈尼族彝族自治州,监测站,,15,15,12,10,8,33,,40,37,5,3,4,4,0.4,0.3
2024-07-13T2100,3038A,103.3758,23.368,红河哈尼族彝族自治州,州图书馆,,15,15,10,3,5,34,,36,34,4,3,4,4,0.4,0.4
2024-07-13T2100,1090A,111.6507,40.7517,呼和浩特市,呼市一监,,37,27,20,3,7,118,,163,155,12,15,3,3,0.4,0.4
2024-07-13T2100,1091A,111.6572,40.8033,呼和浩特市,小召,,39,24,19,10,8,124,,152,148,12,17,6,7,0.5,0.5
2024-07-13T2100,1094A,111.7516,40.8369,呼和浩特市,如意水处理厂,,32,26,18,12,8,102,,150,143,28,20,4,3,0.5,0.4
2024-07-13T2100,1095A,111.7276,40.8062,呼和浩特市,二十九中,,39,27,21,12,9,124,,154,150,15,18,3,3,0.5,0.5
2024-07-13T2100,1096A,111.5512,40.7866,呼和浩特市,工大金川校区,,44,44,30,14,9,105,,157,150,38,30,4,5,0.5,0.4
2024-07-13T2100,1097A,111.717,40.7612,呼和浩特市,化肥厂生活区,,38,30,17,12,12,119,,149,143,14,16,8,8,0.6,0.6
2024-07-13T2100,3698A,111.5968,40.8178,呼和浩特市,红旗小学,,37,31,23,11,9,118,,164,155,27,26,3,4,0.4,0.3
2024-07-13T2100,3699A,111.6518,40.8389,呼和浩特市,海东办,,37,31,22,12,10,117,,158,152,19,27,5,5,0.7,0.5
2024-07-13T2100,2192A,119.7594,49.2261,呼伦贝尔市,区环保局,细颗粒物(PM2.5),88,73,73,65,66,90,,123,118,13,13,5,5,0.8,0.7
2024-07-13T2100,3061A,119.7512,49.1577,呼伦贝尔市,国华电力东,细颗粒物(PM2.5),78,72,65,57,59,96,,130,123,5,7,4,4,0.6,0.6
2024-07-13T2100,1250A,120.0751,30.8669,湖州市,城西水厂,,33,33,23,19,12,19,,47,38,39,33,3,3,0.7,0.6
2024-07-13T2100,2873A,120.0875,30.8955,湖州市,仁皇山新区,,29,27,19,20,14,15,,50,39,32,29,5,5,0.9,0.8
2024-07-13T2100,2907A,120.1844,30.8596,湖州市,吴兴区站,,42,36,23,29,16,15,,43,35,38,26,7,6,0.7,0.6
2024-07-13T2100,3562A,120.4148,30.8538,湖州市,南浔区站,,50,40,22,35,17,29,,53,42,34,26,3,3,0.7,0.6
2024-07-13T2100,1607A,120.9092,40.7136,葫芦岛市,龙港区,,39,26,45,19,39,124,,144,127,10,9,4,4,0.5,0.6
2024-07-13T2100,1608A,120.8392,40.7514,葫芦岛市,化工街,颗粒物(PM10),71,92,55,48,36,64,,126,120,50,20,14,13,1.4,1.1
2024-07-13T2100,1609A,120.8341,40.7073,葫芦岛市,新区,细颗粒物(PM2.5),54,53,51,38,53,115,,140,136,22,12,3,3,0.7,0.7
2024-07-13T2100,1610A,120.8695,40.7677,葫芦岛市,东城区,细颗粒物(PM2.5),65,75,47,47,56,65,,143,134,51,21,8,8,1.1,0.8
2024-07-13T2100,2482A,109.5981,27.5721,怀化市,林科所,,25,20,16,9,10,77,,94,86,10,5,4,6,0.7,0.7
2024-07-13T2100,2483A,109.9453,27.5444,怀化市,河西地税局,,33,33,22,17,13,39,,74,62,13,6,4,4,0.5,0.4
2024-07-13T2100,2484A,109.9781,27.5342,怀化市,市四医院,,22,22,22,9,14,52,,74,67,13,8,3,3,0.6,0.6
2024-07-13T2100,2485A,109.9972,27.5578,怀化市,监测楼,,18,16,21,12,13,56,,69,62,5,6,4,5,0.6,0.6
2024-07-13T2100,2486A,110.0394,27.583,怀化市,市委党校,,20,20,19,9,11,61,,70,63,3,7,5,6,0.4,0.5
2024-07-13T2100,1210A,119.036,33.5981,淮安市,钵池山,,24,19,12,14,14,76,,98,92,11,10,4,4,0.7,0.8
2024-07-13T2100,1211A,119.007,33.575,淮安市,北京南路,,24,19,14,14,11,74,,95,87,8,8,6,6,0.6,0.8
2024-07-13T2100,1212A,118.989,33.6067,淮安市,市监测站,颗粒物(PM10),62,73,19,19,15,77,,98,92,8,8,5,5,0.6,0.7
2024-07-13T2100,1213A,119.135,33.5039,淮安市,楚州区监测站,,25,17,17,9,9,79,,96,92,9,10,4,4,0.5,0.6
2024-07-13T2100,1214A,119.0186,33.6297,淮安市,淮阴区监测站,,25,22,16,13,15,79,,98,93,12,11,6,6,0.5,0.6
2024-07-13T2100,3426A,118.8755,33.2894,淮安市,新华书店,,28,10,11,6,6,89,,120,112,11,12,5,5,0.6,0.8
2024-07-13T2100,2282A,116.8004,33.975,淮北市,监测站,,48,48,28,12,19,95,,154,136,5,3,5,5,0.6,0.7
2024-07-13T2100,2283A,116.8091,33.9007,淮北市,烈山区政府,,31,23,30,17,23,98,,153,134,2,3,4,4,0.7,0.7
2024-07-13T2100,3330A,116.8873,33.9836,淮北市,杜集区检察院,,32,25,34,17,25,100,,150,137,7,4,5,5,0.7,0.8
2024-07-13T2100,4017A,116.7923,33.9535,淮北市,市博物馆,,34,34,29,12,21,106,,161,145,2,3,3,4,0.7,0.8
2024-07-13T2100,2277A,116.8305,32.7727,淮南市,潘集区政府,,31,31,21,15,11,97,,108,107,6,8,2,2,0.3,0.4
2024-07-13T2100,2278A,117.0067,32.6524,淮南市,师范学院,,46,46,24,27,14,97,,123,120,15,8,10,9,0.4,0.4
2024-07-13T2100,2279A,116.8569,32.5951,淮南市,谢家集区政府,,31,29,15,11,6,98,,117,115,19,11,7,6,0.4,0.4
2024-07-13T2100,2280A,116.8281,32.633,淮南市,八公山区政府,,46,45,29,32,21,89,,114,112,15,8,4,5,0.5,0.5
2024-07-13T2100,2281A,116.6325,32.6201,淮南市,焦岗湖风景区管理处,,18,18,14,8,6,34,,53,51,24,13,4,3,0.5,0.5
2024-07-13T2100,2894A,117.0566,32.6531,淮南市,经济技术开发区消防队,,30,23,16,18,8,93,,119,117,18,10,4,4,0.6,0.6
2024-07-13T2100,3329A,117.0108,32.5893,淮南市,山南新区,,37,37,30,9,9,109,,128,127,13,8,6,6,0.6,0.7
2024-07-13T2100,2446A,114.9028,30.4742,黄冈市,职工中心,,42,42,24,26,15,40,,55,39,26,15,11,9,0.6,0.5
2024-07-13T2100,2929A,114.8858,30.4519,黄冈市,红卫路,,43,42,25,30,18,38,,53,41,32,19,11,9,0.5,0.4
2024-07-13T2100,3398A,114.9136,30.4445,黄冈市,市林业局,,43,41,24,30,16,31,,44,34,31,17,7,6,0.6,0.5
2024-07-13T2100,2672A,102.0199,35.5102,黄南藏族自治州,同仁县隆务镇,,38,38,29,24,15,87,,106,104,2,4,6,7,0.4,0.4
2024-07-13T2100,2295A,118.2903,29.6963,黄山市,延安路89号,,26,26,38,3,10,57,,49,39,6,10,6,7,0.5,0.5
2024-07-13T2100,2296A,118.327,29.7178,黄山市,黄山东路89号,,18,9,23,3,10,57,,48,39,4,8,5,6,0.4,0.4
2024-07-13T2100,2297A,118.1371,30.2756,黄山市,黄山区政府5号楼,,15,6,24,3,12,46,,18,,8,7,5,6,0.6,0.6
2024-07-13T2100,2423A,115.0601,30.2313,黄石市,沈家营,颗粒物(PM10),68,86,53,25,15,12,,37,34,59,33,23,17,0.7,0.6
2024-07-13T2100,2424A,115.0817,30.2006,黄石市,陈家湾,颗粒物(PM10),64,78,57,27,15,34,,46,44,36,24,16,18,0.8,0.8
2024-07-13T2100,2426A,114.8988,30.2019,黄石市,铁山,,48,48,31,23,13,51,,53,53,18,16,8,8,0.4,0.4
2024-07-13T2100,2427A,115.0307,30.2092,黄石市,团城山,颗粒物(PM10),57,63,42,24,20,52,,53,53,18,21,15,13,0.6,0.6
2024-07-13T2100,3149A,115.0235,30.1578,黄石市,笔架山北路,颗粒物(PM10),63,75,45,21,10,39,,51,51,18,14,8,8,0.6,0.5
2024-07-13T2100,1392A,114.4183,23.0528,惠州市,河南岸金山湖子站,,14,14,17,6,9,33,,63,55,9,9,4,4,0.3,0.4
2024-07-13T2100,1393A,114.4053,23.0822,惠州市,下埔横江三路子站,,17,17,16,8,7,37,,70,61,9,8,6,7,0.4,0.4
2024-07-13T2100,1394A,114.4103,23.1142,惠州市,江北云山西路子站,,,16,15,6,8,,,72,67,8,6,3,4,0.4,0.4
2024-07-13T2100,1395A,114.4645,22.7833,惠州市,惠阳区承修路船湖子站,,13,13,9,8,5,39,,43,43,8,8,1,1,0.6,0.5
2024-07-13T2100,1396A,114.5317,22.7422,惠州市,大亚湾管委会子站,,18,18,11,3,4,38,,53,49,15,8,6,5,0.4,0.4
2024-07-13T2100,3314A,114.4338,22.8134,惠州市,惠阳秋长,,14,,9,8,6,42,,54,51,3,5,4,4,0.4,0.5
2024-07-13T2100,3452A,114.6517,22.775,惠州市,大亚湾霞涌,,15,15,8,3,6,43,,50,48,6,5,4,4,0.4,0.4
2024-07-13T2100,2240A,130.9762,45.3001,鸡西市,环保局,,31,31,30,11,12,37,,54,49,8,11,6,9,0.4,0.4
2024-07-13T2100,2243A,130.9429,45.3039,鸡西市,第一中学,,30,30,32,13,11,30,,69,55,12,10,10,10,0.4,0.3
2024-07-13T2100,3707A,131.0207,45.3073,鸡西市,欧美日汽修厂,,23,23,30,11,12,38,,62,55,7,8,4,4,0.3,0.3
2024-07-13T2100,3709A,130.9967,45.3106,鸡西市,市政设施管理处,,28,28,31,8,8,31,,63,53,11,14,6,6,0.3,0.3
2024-07-13T2100,2367A,114.9754,27.0803,吉安市,红声器材厂,颗粒物(PM10),53,55,29,27,14,41,,98,82,27,10,16,13,0.5,0.5
2024-07-13T2100,2368A,114.9658,27.0999,吉安市,市森林工业局,,40,40,29,22,15,58,,103,87,18,12,17,13,0.7,0.4
2024-07-13T2100,2369A,114.99,27.1312,吉安市,市环境监测站,,37,37,25,21,13,65,,108,96,19,9,16,12,0.6,0.5
2024-07-13T2100,2370A,115.0093,27.0968,吉安市,青原区法院,,,42,26,21,14,,,100,92,27,11,14,16,0.6,0.4
2024-07-13T2100,1772A,126.54,43.8622,吉林市,哈达湾,细颗粒物(PM2.5),78,74,100,57,77,110,,146,132,14,23,4,5,1.0,1.1
2024-07-13T2100,1773A,126.5844,43.8358,吉林市,东局子,细颗粒物(PM2.5),70,54,77,51,68,95,,126,112,12,20,4,4,1.0,1
2024-07-13T2100,1774A,126.5052,43.8245,吉林市,电力学院,细颗粒物(PM2.5),77,72,96,56,77,83,,128,116,18,26,11,12,0.9,1
2024-07-13T2100,1775A,126.6133,43.8972,吉林市,江北,细颗粒物(PM2.5),72,70,84,52,62,45,,120,103,20,16,8,8,1.2,1.1
2024-07-13T2100,1776A,126.555,43.8306,吉林市,江南公园,细颗粒物(PM2.5),63,52,77,45,68,95,,124,108,16,27,2,2,1.0,1.2
2024-07-13T2100,2868A,126.4739,43.953,吉林市,九站,颗粒物(PM10),82,114,131,57,67,68,,143,128,37,26,5,6,1.1,1
2024-07-13T2100,1299A,116.9862,36.6114,济南市,科干所,细颗粒物(PM2.5),89,97,88,66,61,132,,200,181,30,24,8,8,0.9,0.8
2024-07-13T2100,1300A,116.9376,36.665,济南市,农科所,细颗粒物(PM2.5),80,103,96,59,55,145,,207,196,34,38,8,8,0.7,0.7
2024-07-13T2100,1301A,117.1265,36.6734,济南市,开发区,颗粒物(PM10),79,107,87,49,53,120,,216,189,43,25,10,10,0.9,0.8
2024-07-13T2100,1303A,117.0624,36.6868,济南市,省种子仓库,细颗粒物(PM2.5),89,105,94,66,58,127,,212,187,46,42,6,6,0.8,0.7
2024-07-13T2100,1304A,116.9489,36.6447,济南市,机床二厂,细颗粒物(PM2.5),77,100,105,56,53,164,,224,209,20,34,9,9,0.6,0.6
2024-07-13T2100,1305A,117.0495,36.663,济南市,市监测站,细颗粒物(PM2.5),83,98,85,61,59,150,,223,201,31,25,11,10,0.8,0.7
2024-07-13T2100,1306A,116.7675,36.5484,济南市,长清党校,细颗粒物(PM2.5),85,83,84,63,61,170,,220,215,17,19,7,9,0.9,0.8
2024-07-13T2100,1616A,117.6795,36.229,济南市,技术学院,,42,41,71,27,49,134,,178,160,14,18,9,8,0.8,0.9
2024-07-13T2100,1961A,117.532,36.6868,济南市,东山小学,颗粒物(PM10),61,71,77,32,44,131,,217,197,31,24,7,6,0.9,0.9
2024-07-13T2100,3059A,117.7161,36.2049,济南市,泰兴公司,,40,39,66,24,46,125,,172,155,16,23,8,8,0.5,0.7
2024-07-13T2100,3064A,117.6867,36.2171,济南市,莱芜战役纪念馆,,41,41,76,24,44,126,,165,150,14,21,8,8,0.7,0.8
2024-07-13T2100,3494A,117.1673,36.9782,济南市,济阳区政府,颗粒物(PM10),80,110,102,56,58,107,,189,148,37,35,6,8,0.7,0.6
2024-07-13T2100,3495A,117.1171,36.63,济南市,锦屏中学,细颗粒物(PM2.5),83,100,79,61,59,155,,234,213,28,18,11,10,0.9,0.8
2024-07-13T2100,3682A,116.9814,36.6819,济南市,济南四建,细颗粒物(PM2.5),83,92,87,61,58,141,,207,187,26,27,8,8,0.9,0.9
2024-07-13T2100,1653A,116.6251,35.4302,济宁市,火炬城,颗粒物(PM10),51,52,63,27,44,128,,161,152,20,11,11,10,0.7,0.9
2024-07-13T2100,1655A,116.5491,35.4042,济宁市,电化厂,颗粒物(PM10),53,55,63,36,45,140,,165,158,15,10,6,6,0.7,0.8
2024-07-13T2100,3500A,116.5814,35.3707,济宁市,北湖一中,颗粒物(PM10),53,56,64,22,44,133,,167,158,17,11,7,7,0.9,0.8
2024-07-13T2100,3501A,116.8249,35.5593,济宁市,服务中心,,43,43,63,23,51,119,,171,158,17,16,2,2,0.4,0.6
2024-07-13T2100,3678A,116.5907,35.4054,济宁市,市第七中学,颗粒物(PM10),53,56,71,29,44,143,,168,160,19,14,5,5,0.7,0.8
2024-07-13T2100,2255A,130.2751,46.8028,佳木斯市,佳纺,颗粒物(PM10),51,51,28,28,14,30,,70,66,24,13,4,5,0.6,0.5
2024-07-13T2100,2256A,130.3995,46.8307,佳木斯市,发电厂,,40,40,30,21,13,35,,80,76,15,9,6,11,0.5,0.4
2024-07-13T2100,2257A,130.3258,46.7975,佳木斯市,环保局,,47,47,31,27,15,37,,63,60,30,17,7,7,0.7,0.6
2024-07-13T2100,2258A,130.3648,46.8032,佳木斯市,十一中,,45,40,24,31,18,56,,78,77,15,13,8,9,0.5,0.4
2024-07-13T2100,2259A,130.3794,46.7588,佳木斯市,四丰,,41,41,25,21,15,34,,57,55,24,21,1,1,0.8,0.7
2024-07-13T2100,1252A,120.7436,30.778,嘉兴市,清河小学,颗粒物(PM10),53,55,26,34,17,64,,71,71,29,27,6,6,1.0,0.9
2024-07-13T2100,1253A,120.726,30.7478,嘉兴市,嘉兴学院,细颗粒物(PM2.5),52,43,27,36,20,34,,50,49,38,27,2,2,0.7,0.6
2024-07-13T2100,2872A,120.7846,30.7525,嘉兴市,南湖区残联,细颗粒物(PM2.5),53,42,27,37,21,64,,71,71,32,31,4,5,0.6,0.6
2024-07-13T2100,3407A,120.6916,30.7739,嘉兴市,秀洲住建,细颗粒物(PM2.5),53,47,26,37,17,20,,56,45,56,31,2,3,0.9,0.8
2024-07-13T2100,1945A,98.2908,39.7711,嘉峪关市,气象局,,36,36,43,14,15,105,,134,129,32,17,29,5,0.9,0.5
2024-07-13T2100,2884A,98.2672,39.7978,嘉峪关市,酒钢宾馆,,39,39,44,19,19,118,,138,135,17,16,35,22,0.7,0.5
2024-07-13T2100,3248A,98.2643,39.7724,嘉峪关市,雄关区,,38,38,38,16,14,112,,126,123,19,17,11,8,0.8,0.5
2024-07-13T2100,1383A,113.1064,22.6058,江门市,北街,,12,,13,6,6,37,,57,52,10,8,4,3,0.4,0.3
2024-07-13T2100,1384A,113.0731,22.5835,江门市,西区,,18,18,15,10,5,36,,57,52,10,7,6,6,0.4,0.3
2024-07-13T2100,1385A,113.0219,22.5311,江门市,圭峰西,,11,,12,7,6,33,,52,46,11,8,4,4,0.2,0.2
2024-07-13T2100,1386A,113.0828,22.5947,江门市,东湖,,13,13,12,3,4,38,,58,54,10,8,6,4,0.4,0.3
2024-07-13T2100,3311A,113.1075,22.5647,江门市,江海富民,,20,20,22,12,12,37,,61,54,10,9,6,6,0.5,0.5
2024-07-13T2100,3449A,113.05,22.4667,江门市,新会银湖,,10,10,11,3,5,26,,51,44,15,10,6,5,0.3,0.3
2024-07-13T2100,1828A,113.227,35.2125,焦作市,市环保局,细颗粒物(PM2.5),64,66,52,46,33,138,,165,163,9,8,3,3,0.5,0.5
2024-07-13T2100,3169A,113.2725,35.2067,焦作市,太极体育中心,细颗粒物(PM2.5),59,59,61,42,33,138,,160,158,10,14,3,3,0.6,0.6
2024-07-13T2100,3335A,113.3137,35.2641,焦作市,马村街道办,细颗粒物(PM2.5),79,81,51,58,37,104,,157,152,18,9,3,2,0.6,0.7
2024-07-13T2100,3336A,113.2465,35.2373,焦作市,焦作技师学院,颗粒物(PM10),65,80,51,44,31,134,,171,166,15,14,1,2,0.7,0.6
2024-07-13T2100,3477A,113.1656,35.2539,焦作市,中站许衡医院,细颗粒物(PM2.5),73,79,40,53,34,134,,163,161,15,12,4,5,0.7,0.6
2024-07-13T2100,3981A,113.2449,35.1803,焦作市,原李万街道办,细颗粒物(PM2.5),64,69,50,46,33,136,,154,153,11,11,2,4,0.4,0.3
2024-07-13T2100,1708A,116.3701,23.5345,揭阳市,新兴,颗粒物(PM10),56,62,24,25,13,30,,60,49,20,12,5,4,0.8,0.6
2024-07-13T2100,1709A,116.3264,23.5443,揭阳市,西马,颗粒物(PM10),54,57,27,28,13,24,,60,46,28,9,5,4,1.1,0.7
2024-07-13T2100,1710A,116.3611,23.5626,揭阳市,东兴,,47,47,27,17,10,33,,62,48,19,9,3,2,0.9,0.7
2024-07-13T2100,1711A,116.4151,23.5294,揭阳市,渔湖,,44,44,28,25,11,36,,59,47,9,17,4,5,0.6,0.7
2024-07-13T2100,3320A,116.403,23.5699,揭阳市,曲溪,,43,43,25,18,12,9,,66,44,28,13,22,5,1.1,0.6
2024-07-13T2100,1944A,102.1692,38.5167,金昌市,天庆家园,,36,20,43,18,20,114,,126,125,16,18,7,15,0.7,0.6
2024-07-13T2100,3170A,102.1864,38.5253,金昌市,市委党校,,40,40,44,17,12,116,,133,132,15,19,48,19,0.6,0.5
2024-07-13T2100,4022A,102.1647,38.5371,金昌市,金川区人防中心,,39,24,47,18,14,124,,133,133,8,13,10,12,0.6,0.5
2024-07-13T2100,1262A,119.647,29.077,金华市,十五中,,36,36,38,13,17,56,,121,110,18,20,2,3,0.4,0.5
2024-07-13T2100,1263A,119.686,29.1029,金华市,监测站,,33,33,40,20,20,59,,112,105,15,22,3,3,0.3,0.5
2024-07-13T2100,3659A,119.656,29.1131,金华市,气象局,,33,33,37,8,15,55,,112,103,15,22,4,5,0.2,0.3
2024-07-13T2100,1767A,121.1115,41.0879,锦州市,南山,细颗粒物(PM2.5),64,65,44,46,35,39,,136,77,30,15,4,5,1.0,0.8
2024-07-13T2100,1768A,121.0533,40.8434,锦州市,开发区,细颗粒物(PM2.5),74,86,61,54,42,72,,137,112,50,28,8,11,1.2,1
2024-07-13T2100,1769A,121.1836,41.1119,锦州市,百股街道,,50,50,42,34,30,52,,127,104,23,15,7,10,0.9,0.9
2024-07-13T2100,1770A,121.1178,41.1222,锦州市,天安街道,细颗粒物(PM2.5),110,92,50,83,46,48,,131,94,50,15,6,7,1.3,1
2024-07-13T2100,1771A,121.1303,41.1386,锦州市,北湖公园,细颗粒物(PM2.5),75,73,50,55,38,63,,140,93,33,16,6,7,1.0,0.9
2024-07-13T2100,2160A,112.85,35.5051,晋城市,自来水公司,颗粒物(PM10),62,74,56,41,34,167,,170,170,12,13,6,5,0.8,0.7
2024-07-13T2100,2161A,112.8318,35.4936,晋城市,白云商贸,颗粒物(PM10),78,105,60,41,29,167,,172,172,12,12,5,5,0.8,0.7
2024-07-13T2100,2162A,112.8508,35.4887,晋城市,市环保局,颗粒物(PM10),71,91,59,46,33,162,,169,169,16,14,5,5,0.7,0.7
2024-07-13T2100,2163A,112.8676,35.4897,晋城市,技术学院,细颗粒物(PM2.5),64,74,50,46,34,166,,168,168,17,18,7,6,0.9,0.9
2024-07-13T2100,3620A,112.8271,35.4828,晋城市,泽州一中,细颗粒物(PM2.5),64,68,52,46,39,164,,167,167,13,13,8,8,0.8,0.8
2024-07-13T2100,2171A,112.7532,37.6945,晋中市,锦纶小区,,36,31,47,19,27,113,,181,152,11,15,5,7,0.5,0.6
2024-07-13T2100,2173A,112.7249,37.7067,晋中市,南都小区,细颗粒物(PM2.5),54,51,50,38,33,114,,186,155,12,16,6,7,0.5,0.6
2024-07-13T2100,2174A,112.6991,37.6982,晋中市,榆次区政府,,46,39,48,32,28,112,,180,152,14,17,7,8,0.5,0.6
2024-07-13T2100,2865A,112.7195,37.6828,晋中市,榆次三中,,36,34,52,19,25,115,,170,134,11,16,6,8,0.6,0.7
2024-07-13T2100,2439A,112.2014,31.0481,荆门市,竹园小学,,17,17,32,9,17,42,,72,66,17,15,8,8,0.5,0.7
2024-07-13T2100,2440A,112.1969,30.9891,荆门市,掇刀,,27,27,26,13,21,55,,81,74,16,13,8,8,0.7,0.8
2024-07-13T2100,2441A,112.2213,31.0386,荆门市,石化一小,,30,30,37,11,18,40,,78,68,25,20,16,12,0.5,0.7
2024-07-13T2100,3012A,112.1849,31.0362,荆门市,西山林语,,15,14,26,9,20,48,,74,68,9,8,7,7,0.7,0.8
2024-07-13T2100,3547A,112.1632,31.0138,荆门市,龙泉中学南校,,15,12,24,6,16,47,,70,65,11,13,9,8,0.6,0.8
2024-07-13T2100,1844A,112.2494,30.3197,荆州市,市图书馆,,17,17,22,8,17,48,,53,53,15,14,6,6,0.9,0.9
2024-07-13T2100,1845A,112.2008,30.3544,荆州市,市委党校,,16,12,25,11,20,48,,53,52,13,15,5,6,0.7,0.8
2024-07-13T2100,3194A,112.2747,30.3122,荆州市,管委会,,14,12,21,3,18,44,,53,51,15,13,4,4,0.6,0.6
2024-07-13T2100,3548A,112.1655,30.3364,荆州市,学苑路,,17,16,27,9,24,52,,55,55,10,14,6,6,0.7,0.7
2024-07-13T2100,2343A,117.2117,29.2933,景德镇市,老干部活动中心,,32,32,23,10,14,50,,80,74,9,12,8,10,0.3,0.3
2024-07-13T2100,2344A,117.1894,29.2789,景德镇市,兽医站,,28,26,26,19,20,58,,87,80,11,14,7,13,0.4,0.5
2024-07-13T2100,2345A,117.1547,29.2617,景德镇市,台达陶瓷,,48,48,31,18,18,43,,64,60,24,21,26,26,0.3,0.3
2024-07-13T2100,2346A,117.2461,29.2956,景德镇市,陶研所,,24,24,23,14,12,61,,77,71,6,7,8,7,0.3,0.4
2024-07-13T2100,1803A,115.9872,29.6815,九江市,十里,,49,49,27,27,15,62,,84,84,17,21,22,13,0.6,0.7
2024-07-13T2100,1804A,115.9584,29.7046,九江市,茅山头,细颗粒物(PM2.5),52,44,26,36,16,62,,90,89,20,26,8,9,0.6,0.6
2024-07-13T2100,1805A,115.9877,29.7295,九江市,西园,,47,47,24,28,16,46,,68,68,24,36,10,11,0.8,0.8
2024-07-13T2100,1806A,116.0172,29.6547,九江市,五七二七厂,,40,40,20,23,16,66,,54,54,13,15,9,10,0.1,0.3
2024-07-13T2100,1808A,115.9114,29.6038,九江市,综合工业园,,43,39,24,30,17,62,,87,83,50,29,12,10,1.0,0.7
2024-07-13T2100,1809A,116.0721,29.7535,九江市,石化总厂,,42,42,32,29,19,54,,67,66,8,31,8,10,0.6,0.7
2024-07-13T2100,1810A,115.9773,29.5698,九江市,庐山气象台,,26,,16,18,14,82,,84,68,2,2,7,12,1.3,0.8
2024-07-13T2100,3190A,116.0254,29.6994,九江市,外国语学校,细颗粒物(PM2.5),53,38,26,37,23,51,,90,88,17,27,11,17,0.6,0.6
2024-07-13T2100,2658A,98.5061,39.7443,酒泉市,仓门街子站,,36,36,42,25,20,107,,131,128,14,12,20,9,0.6,0.3
2024-07-13T2100,2659A,98.4989,39.7256,酒泉市,油田生活基地,颗粒物(PM10),52,53,43,23,20,109,,134,130,21,15,24,9,0.9,0.3
2024-07-13T2100,2698A,76.0072,39.4467,喀什地区,巡警大队,颗粒物(PM10),124,197,130,39,26,118,,135,132,18,15,4,3,0.3,0.2
2024-07-13T2100,2699A,75.9755,39.4694,喀什地区,吾办,颗粒物(PM10),123,196,121,76,45,,,134,134,26,16,3,2,0.3,0.3
2024-07-13T2100,4027A,75.9483,39.4689,喀什地区,老干局,颗粒物(PM10),127,203,136,44,27,109,,138,133,21,14,3,2,0.2,0.2
2024-07-13T2100,1824A,114.3389,34.7781,开封市,肿瘤医院,细颗粒物(PM2.5),73,82,64,53,33,133,,164,160,8,14,4,3,0.8,0.7
2024-07-13T2100,1826A,114.2885,34.7965,开封市,世纪星幼儿园,细颗粒物(PM2.5),78,71,59,57,44,153,,172,171,6,11,3,2,0.6,0.6
2024-07-13T2100,3147A,114.3438,34.8106,开封市,龙亭公园,细颗粒物(PM2.5),64,69,61,46,31,144,,171,168,12,16,3,2,0.8,0.6
2024-07-13T2100,3210A,114.3644,34.7964,开封市,汴京公园,细颗粒物(PM2.5),84,85,65,62,31,146,,176,174,10,13,3,2,0.9,0.8
2024-07-13T2100,3473A,114.2485,34.8306,开封市,技师学院,颗粒物(PM10),62,74,57,43,30,156,,172,172,8,18,3,3,1.0,1
2024-07-13T2100,3592A,114.4644,34.7556,开封市,祥符区生态环境局,颗粒物(PM10),61,72,64,43,35,103,,161,149,34,35,2,2,0.8,0.8
2024-07-13T2100,1951A,84.895,45.6094,克拉玛依市,长征新村,,33,18,22,3,7,104,,121,120,16,13,9,10,0.3,0.2
2024-07-13T2100,1952A,84.8988,45.5893,克拉玛依市,南林小区,,37,37,30,17,15,21,,110,95,68,27,11,7,1.0,0.4
2024-07-13T2100,1954A,84.905,44.3396,克拉玛依市,独山子区,,45,24,26,10,8,141,,147,147,8,9,6,7,0.4,0.4
2024-07-13T2100,1955A,85.6979,46.098,克拉玛依市,乌尔禾区商贸楼,,32,32,28,3,10,74,,111,108,17,17,5,5,0.3,0.3
2024-07-13T2100,3612A,85.1045,45.6899,克拉玛依市,白碱滩区新站,,43,20,21,16,16,135,,131,131,7,6,7,6,0.1,0.1
2024-07-13T2100,2697A,76.1454,39.7142,克孜勒苏柯尔克孜自治州,市人民政府,颗粒物(PM10),113,175,106,65,46,,,142,142,8,11,8,10,0.4,0.4
2024-07-13T2100,3665A,76.1658,39.7157,克孜勒苏柯尔克孜自治州,克州文化中心,颗粒物(PM10),116,181,109,63,40,129,,143,141,4,8,11,12,0.4,0.4
2024-07-13T2100,1450A,102.8204,24.8886,昆明市,呈贡新区,,22,22,16,13,8,37,,50,48,11,12,5,4,0.6,0.6
2024-07-13T2100,1452A,102.7252,25.0902,昆明市,龙泉镇,,37,37,18,9,8,38,,47,46,12,13,6,6,0.6,0.6
2024-07-13T2100,1453A,102.7266,25.0375,昆明市,东风东路,,19,17,14,13,10,32,,43,42,14,14,1,2,0.4,0.4
2024-07-13T2100,1454A,102.6742,25.0669,昆明市,金鼎山,,23,23,23,7,7,39,,45,44,12,15,11,11,0.5,0.5
2024-07-13T2100,1455A,102.6644,25.0401,昆明市,碧鸡广场,,,17,17,7,8,,,44,44,15,15,2,3,0.4,0.5
2024-07-13T2100,3179A,102.7494,25.0119,昆明市,官渡区博物馆,,14,14,12,8,5,38,,51,50,10,8,6,6,0.4,0.4
2024-07-13T2100,3375A,102.8017,24.8336,昆明市,青年创业园,,12,12,12,8,6,25,,45,42,14,11,7,8,0.4,0.4
2024-07-13T2100,3550A,102.7997,24.9786,昆明市,昆明学院,,15,15,13,6,6,33,,50,48,14,10,4,4,0.4,0.4
2024-07-13T2100,3551A,102.5967,24.6736,昆明市,晋宁区生态环境分局,,,15,12,3,9,38,,47,47,,14,7,7,0.5,0.5
2024-07-13T2100,3552A,102.6678,24.9856,昆明市,云天化总部,,12,12,14,7,8,36,,42,41,7,11,1,1,0.6,0.6
2024-07-13T2100,1456A,91.1319,29.6514,拉萨市,八廓街,,23,18,10,6,6,72,,97,96,18,11,7,6,0.3,0.2
2024-07-13T2100,1457A,91.1221,29.6747,拉萨市,市环保局,,22,,8,8,5,69,,93,92,15,12,10,9,0.4,0.3
2024-07-13T2100,1458A,91.0874,29.6475,拉萨市,区监测站,,25,8,8,3,6,77,,88,88,12,9,7,7,0.2,0.2
2024-07-13T2100,1459A,91.1774,29.6541,拉萨市,西藏大学,,26,11,8,7,6,82,,103,103,8,7,8,9,0.2,0.2
2024-07-13T2100,1460A,90.9798,29.6588,拉萨市,区辐射站,,24,12,8,6,6,76,,87,87,13,9,7,7,0.3,0.2
2024-07-13T2100,1461A,91.0834,29.6292,拉萨市,拉萨火车站,,25,7,7,6,5,80,,88,88,8,6,9,9,0.2,0.2
2024-07-13T2100,2520A,109.2203,23.7256,来宾市,来宾技工学校,,34,34,29,19,17,68,,80,80,7,7,7,7,0.7,0.7
2024-07-13T2100,3535A,109.1781,23.7297,来宾市,兴宾区政府,,35,35,27,21,16,68,,78,78,12,8,8,7,0.7,0.7
2024-07-13T2100,4002A,109.2416,23.7461,来宾市,中南小学,,29,28,29,20,16,68,,80,80,8,8,7,8,0.6,0.7
2024-07-13T2100,1476A,103.631,36.1031,兰州市,兰炼宾馆,,39,31,56,27,39,97,,134,121,18,25,8,11,0.4,0.5
2024-07-13T2100,1478A,103.8412,36.0726,兰州市,生物制品所,,44,44,40,30,28,67,,135,101,45,28,10,10,0.7,0.4
2024-07-13T2100,1479A,103.831,36.0464,兰州市,铁路设计院,,46,46,51,27,31,66,,116,97,56,36,6,7,0.9,0.6
2024-07-13T2100,3186A,103.7158,36.1058,兰州市,教育港,,44,44,49,26,28,63,,130,114,36,22,10,9,0.6,0.5
2024-07-13T2100,3241A,103.7439,36.0842,兰州市,百合公园,,37,37,41,25,28,68,,122,108,43,30,4,5,0.7,0.6
2024-07-13T2100,3242A,103.9611,35.998,兰州市,和平,,,27,39,20,24,76,,86,85,17,22,6,6,,0.6
2024-07-13T2100,3245A,103.6633,36.533,兰州新区,新区管委会,,37,29,45,19,26,116,,148,141,15,13,11,12,0.5,0.5
2024-07-13T2100,3246A,103.6975,36.4789,兰州新区,舟曲中学,,40,40,55,25,33,108,,133,126,20,17,6,7,0.5,0.6
2024-07-13T2100,1067A,116.6708,39.5111,廊坊市,药材公司,细颗粒物(PM2.5),62,64,51,44,36,128,,144,144,15,11,3,3,0.7,0.8
2024-07-13T2100,1068A,116.7214,39.5589,廊坊市,开发区,细颗粒物(PM2.5),68,64,58,49,41,109,,137,133,15,11,3,3,0.6,0.7
2024-07-13T2100,1070A,116.7244,39.5269,廊坊市,北华航天学院,细颗粒物(PM2.5),59,64,56,42,41,112,,135,133,15,11,3,3,0.7,0.7
2024-07-13T2100,2919A,116.7022,39.5453,廊坊市,河北工业大学,细颗粒物(PM2.5),63,64,57,45,37,115,,140,137,17,11,3,3,0.6,0.7
2024-07-13T2100,2535A,103.7723,29.5462,乐山市,花湖湾,,32,32,24,19,18,56,,78,69,13,21,3,4,0.4,0.5
2024-07-13T2100,2536A,103.7627,29.5844,乐山市,牛耳桥,,36,31,29,25,19,64,,89,82,19,22,2,3,0.5,0.6
2024-07-13T2100,2537A,103.7508,29.6006,乐山市,市第三水厂,,31,31,27,21,21,63,,87,80,21,24,1,2,0.5,0.5
2024-07-13T2100,2538A,103.7571,29.5664,乐山市,市监测站,,26,26,29,16,17,71,,87,83,12,21,2,4,0.4,0.5
2024-07-13T2100,3361A,103.7311,29.5628,乐山市,理工大学,,26,21,25,18,17,77,,77,74,11,20,4,6,0.5,0.6
2024-07-13T2100,2600A,100.2203,26.8906,丽江市,市中心,,22,16,17,15,14,30,,56,52,16,8,7,9,0.5,0.5
2024-07-13T2100,1267A,119.914,28.4514,丽水市,监测站大楼,,19,13,24,7,7,60,,125,91,9,15,3,4,0.5,0.5
2024-07-13T2100,1268A,119.93,28.4586,丽水市,莲都小学,,20,12,24,3,10,61,,113,91,8,14,4,4,0.5,0.6
2024-07-13T2100,1269A,119.879,28.4231,丽水市,余庄前,,18,9,22,6,10,56,,90,63,14,13,2,2,0.4,0.5
2024-07-13T2100,1173A,119.176,34.5885,连云港市,市环境监测站,,29,12,21,3,16,91,,107,95,9,9,6,5,0.4,0.5
2024-07-13T2100,3000A,119.3581,34.6972,连云港市,德源药业,,27,7,24,3,15,86,,109,96,8,8,3,3,0.4,0.5
2024-07-13T2100,3007A,119.178,34.844,连云港市,新城一中,,35,22,32,9,15,109,,116,111,4,10,3,4,0.6,0.7
2024-07-13T2100,3008A,119.3608,34.7519,连云港市,胡沟管理处,,29,6,23,3,16,92,,99,97,2,11,4,6,0.5,0.6
2024-07-13T2100,3009A,119.1478,34.5911,连云港市,矿山设计院,,25,17,21,9,15,80,,102,88,9,5,3,3,0.4,0.5
2024-07-13T2100,3434A,119.2413,34.6539,连云港市,工贸学校,,29,6,17,3,12,90,,107,98,7,5,6,6,0.6,0.6
2024-07-13T2100,3664A,119.4172,34.7341,连云港市,连云街道,,27,6,20,3,14,86,,119,94,16,10,6,6,0.4,0.5
2024-07-13T2100,2571A,102.3431,27.8099,凉山彝族自治州,青龙寺,,16,15,24,11,12,33,,60,58,5,7,5,6,0.5,0.6
2024-07-13T2100,2572A,102.2721,27.8415,凉山彝族自治州,邛海宾馆,,22,20,31,15,22,35,,67,63,10,13,9,12,0.6,0.9
2024-07-13T2100,2573A,102.2625,27.898,凉山彝族自治州,西昌市政府,,22,18,20,15,12,38,,57,56,10,13,9,12,0.7,0.8
2024-07-13T2100,2574A,102.2685,27.8851,凉山彝族自治州,凉山州政府,,16,14,22,8,14,51,,63,63,6,13,8,11,0.6,0.8
2024-07-13T2100,2575A,102.237,27.8914,凉山彝族自治州,长安,,41,41,21,16,13,37,,54,53,14,17,11,7,0.9,0.9
2024-07-13T2100,2212A,123.2,41.1953,辽阳市,宏伟区,颗粒物(PM10),51,52,54,30,25,76,,137,128,33,16,8,9,1.0,0.9
2024-07-13T2100,2213A,123.1683,41.2495,辽阳市,新华园,颗粒物(PM10),60,69,66,32,33,101,,146,140,26,24,7,14,1.0,1.2
2024-07-13T2100,2214A,123.2354,41.2639,辽阳市,滨河路,颗粒物(PM10),60,70,55,32,30,28,,133,106,42,26,8,8,1.0,1
2024-07-13T2100,2215A,123.149,41.2991,辽阳市,铁西工业园,颗粒物(PM10),62,74,72,30,31,75,,128,120,24,24,9,11,1.0,1.4
2024-07-13T2100,2227A,125.1358,42.8845,辽源市,环保局,细颗粒物(PM2.5),58,54,55,41,41,84,,182,158,23,17,7,10,1.1,1
2024-07-13T2100,3239A,125.0764,42.9078,辽源市,银鹰制药,细颗粒物(PM2.5),57,50,50,40,41,84,,174,149,21,20,6,6,1.2,1.2
2024-07-13T2100,1625A,115.9848,36.4372,聊城市,区政府,细颗粒物(PM2.5),80,96,84,59,54,169,,208,200,18,20,9,10,0.8,0.7
2024-07-13T2100,2878A,116.0072,36.4343,聊城市,聊大东校,细颗粒物(PM2.5),75,77,65,55,53,179,,,,19,25,2,10,0.6,0.7
2024-07-13T2100,3200A,115.9819,36.4978,聊城市,监控中心,细颗粒物(PM2.5),92,102,83,68,52,143,,200,186,21,34,8,9,0.7,0.8
2024-07-13T2100,3513A,116.0445,36.4361,聊城市,九州社区,颗粒物(PM10),75,100,93,53,56,158,,195,186,17,27,10,12,0.7,0.7
2024-07-13T2100,4018A,116.0567,36.4608,聊城市,星美广场,细颗粒物(PM2.5),79,105,105,58,59,165,,202,191,25,31,5,11,0.5,0.8
2024-07-13T2100,2632A,94.3681,29.6376,林芝市,林芝监测站,,,6,7,3,4,,,55,55,5,2,8,8,0.4,0.3
2024-07-13T2100,2633A,94.3616,29.6616,林芝市,林芝人民医院,,12,8,6,8,4,36,,53,51,9,5,9,9,0.3,0.3
2024-07-13T2100,2603A,100.0781,23.8982,临沧市,市环保局,,30,23,17,21,11,32,,42,40,10,9,3,4,0.2,0.2
2024-07-13T2100,2604A,100.0894,23.8822,临沧市,市气象局,,14,14,16,8,7,35,,45,43,9,8,5,5,0.3,0.2
2024-07-13T2100,1733A,111.5531,36.0783,临汾市,临钢医院,颗粒物(PM10),66,81,65,27,31,143,,200,184,7,9,2,5,0.6,0.8
2024-07-13T2100,1734A,111.5028,36.0714,临汾市,技工学校,颗粒物(PM10),60,69,63,28,31,149,,205,188,11,14,4,6,0.7,0.9
2024-07-13T2100,1736A,111.5018,36.0855,临汾市,市委,"颗粒物(PM10),臭氧1小时",54,58,69,25,35,163,,217,201,6,9,4,6,0.9,1.2
2024-07-13T2100,3018A,111.505,36.1014,临汾市,唐尧大酒店,,49,45,52,29,29,155,,202,188,4,7,4,5,0.6,0.9
2024-07-13T2100,3668A,111.5036,36.0414,临汾市,城南,颗粒物(PM10),73,95,67,42,32,151,,211,190,4,7,5,6,0.9,1
2024-07-13T2100,2667A,103.2069,35.5993,临夏回族自治州,环保局,,,,56,,28,76,,94,92,9,7,6,8,0.5,0.4
2024-07-13T2100,2668A,103.2417,35.6057,临夏回族自治州,建设大厦,,44,44,55,26,34,75,,94,94,13,12,10,10,0.5,0.4
2024-07-13T2100,1618A,118.3429,35.0532,临沂市,沂河小区,颗粒物(PM10),52,53,56,32,35,97,,165,143,15,12,12,11,1.2,0.8
2024-07-13T2100,1619A,118.295,35.0583,临沂市,鲁南制药厂,,39,39,52,22,30,102,,174,151,9,7,12,10,1.4,1
2024-07-13T2100,1620A,118.2794,34.9976,临沂市,新光毛纺厂,,35,31,47,24,31,99,,158,139,9,9,6,7,1.2,1.1
2024-07-13T2100,1621A,118.3956,35.0888,临沂市,河东保险公司,,36,36,55,22,40,96,,162,139,10,11,7,7,0.8,0.9
2024-07-13T2100,3370A,118.3564,35.0215,临沂市,十里堡居委,,45,41,48,31,40,90,,161,140,12,10,7,7,1.3,1
2024-07-13T2100,3496A,118.3604,35.1084,临沂市,南坊新区,,39,39,56,22,36,102,,172,149,18,16,8,9,1.1,1.1
2024-07-13T2100,3860A,118.3920,35.0300,临沂市,皇山花园小区,,,44,57,29,41,,,156,141,21,15,9,9,1.1,1.2
2024-07-13T2100,1870A,109.4856,24.3895,柳州市,柳东小学,,27,27,20,14,13,77,,84,83,7,11,7,7,0.5,0.5
2024-07-13T2100,1871A,109.4157,24.3277,柳州市,环保监测站,,27,27,25,10,14,63,,84,82,14,8,7,7,0.6,0.6
2024-07-13T2100,1872A,109.389,24.341,柳州市,河西水厂,,24,22,26,13,16,74,,85,85,10,8,7,7,0.4,0.4
2024-07-13T2100,1873A,109.4311,24.2921,柳州市,市四中,,26,23,28,18,16,68,,89,87,14,10,6,6,0.4,0.4
2024-07-13T2100,1874A,109.4006,24.3631,柳州市,市九中,,40,40,35,12,14,74,,86,86,12,11,4,5,0.5,0.5
2024-07-13T2100,1875A,109.4958,24.3134,柳州市,古亭山,,22,16,29,14,17,68,,85,83,13,11,6,5,0.5,0.5
2024-07-13T2100,3402A,109.5422,24.3996,柳州市,市二中,,24,24,25,11,11,67,,84,83,9,9,7,7,0.4,0.5
2024-07-13T2100,2307A,116.5079,31.737,六安市,监测大楼,,12,7,6,7,8,36,,59,55,8,8,5,5,0.5,0.5
2024-07-13T2100,2308A,116.4738,31.7643,六安市,皖西学院,,13,6,6,6,6,41,,66,59,9,9,4,4,0.3,0.4
2024-07-13T2100,2309A,116.4996,31.7905,六安市,朝阳厂,,13,,5,7,7,40,,63,54,5,6,8,8,0.4,0.4
2024-07-13T2100,2310A,116.5567,31.7886,六安市,开发区,,13,,6,9,10,38,,63,56,6,8,5,5,0.4,0.5
2024-07-13T2100,2577A,104.83,26.5917,六盘水市,黄土坡,,16,,12,8,6,50,,61,61,7,8,4,5,0.1,0.1
2024-07-13T2100,2578A,104.89,26.5939,六盘水市,水钢,,14,,16,8,7,43,,64,62,12,7,9,9,0.4,0.3
2024-07-13T2100,2579A,104.8475,26.5894,六盘水市,民中,,16,12,13,3,6,50,,62,62,8,8,6,6,0.3,0.3
2024-07-13T2100,2580A,104.9544,26.5506,六盘水市,双水,,18,7,11,7,10,56,,64,64,5,4,6,6,0.2,0.2
2024-07-13T2100,2336A,117.0217,25.1033,龙岩市,龙岩市监测站,,13,11,14,6,8,39,,54,51,14,10,5,7,0.4,0.3
2024-07-13T2100,2337A,117.0258,25.0661,龙岩市,闽西职业技术学院,,29,20,18,20,11,23,,56,50,20,8,25,12,0.3,0.3
2024-07-13T2100,2338A,117.0196,25.0306,龙岩市,龙岩学院,,14,,10,3,5,44,,56,54,4,4,3,2,0.2,0.3
2024-07-13T2100,2885A,104.9339,33.3826,陇南市,滨江中学,,31,31,33,9,11,84,,91,91,13,12,3,3,0.5,0.5
2024-07-13T2100,3247A,104.955,33.371,陇南市,市总工会,,25,25,25,11,10,75,,88,87,20,10,3,3,0.6,0.5
2024-07-13T2100,2487A,111.9589,27.8901,娄底市,电视发射台,,34,34,29,23,16,38,,88,68,8,5,6,7,1.0,0.8
2024-07-13T2100,2488A,111.9975,27.725,娄底市,市监测站,,33,,30,23,19,68,,90,83,6,7,9,9,0.6,0.5
2024-07-13T2100,2489A,112.0194,27.7314,娄底市,市委党校,,35,35,30,23,20,60,,81,74,12,11,7,9,0.6,0.6
2024-07-13T2100,2490A,111.9561,27.7569,娄底市,涟钢,,42,42,41,25,23,45,,59,55,21,19,17,17,0.6,0.7
2024-07-13T2100,2491A,111.9892,27.7044,娄底市,市政府,,28,24,26,19,20,72,,91,85,6,8,5,6,0.3,0.3
2024-07-13T2100,1893A,105.4324,28.9634,泸州市,九狮山,,19,16,28,8,19,58,,103,93,10,15,5,6,0.3,0.5
2024-07-13T2100,1894A,105.4427,28.9063,泸州市,小市上码头,,18,9,31,3,14,56,,114,97,10,16,3,6,0.2,0.4
2024-07-13T2100,1895A,105.4241,28.8573,泸州市,兰田宪桥,,18,6,24,6,21,55,,116,96,11,20,6,6,0.3,0.4
2024-07-13T2100,1896A,105.4379,28.8833,泸州市,市环监站,,18,9,29,3,18,56,,105,91,9,19,6,8,0.4,0.6
2024-07-13T2100,3490A,105.3617,28.7703,泸州市,纳溪区环保局,,17,6,28,3,10,54,,116,98,12,18,2,5,0.3,0.5
2024-07-13T2100,2183A,111.1406,37.5211,吕梁市,环保局,颗粒物(PM10),64,77,64,35,21,158,,183,178,11,27,3,3,0.8,0.5
2024-07-13T2100,2185A,111.1297,37.5136,吕梁市,自来水公司,颗粒物(PM10),66,81,79,34,23,164,,178,174,14,27,2,4,0.6,0.5
2024-07-13T2100,2867A,111.1283,37.51,吕梁市,马茂庄小学,颗粒物(PM10),68,86,71,43,25,167,,190,186,14,31,3,4,0.6,0.5
2024-07-13T2100,1812A,112.3931,34.6516,洛阳市,市委党校,,48,46,45,33,32,144,,169,168,8,10,2,3,0.7,0.7
2024-07-13T2100,1814A,112.4657,34.6871,洛阳市,豫西宾馆,颗粒物(PM10),54,58,53,33,29,137,,170,167,13,14,3,3,0.6,0.6
2024-07-13T2100,1815A,112.494,34.6886,洛阳市,河南林校,,43,43,36,29,25,136,,166,164,15,14,3,3,0.6,0.6
2024-07-13T2100,1816A,112.3844,34.623,洛阳市,开发区管委会,,46,46,43,31,30,139,,170,168,7,8,8,9,0.5,0.5
2024-07-13T2100,1817A,112.4267,34.6258,洛阳市,市委新办公区,,49,38,38,34,33,146,,167,165,6,8,5,7,0.6,0.6
2024-07-13T2100,3340A,112.6005,34.6326,洛阳市,伊滨,颗粒物(PM10),51,51,51,34,34,114,,166,158,20,15,4,4,0.6,0.6
2024-07-13T2100,3341A,112.4951,34.6332,洛阳市,中移产业园,,49,47,48,34,34,147,,166,164,5,9,4,5,0.7,0.8
2024-07-13T2100,3593A,112.5736,34.8993,洛阳市,吉利监测站,颗粒物(PM10),60,70,49,42,30,134,,157,156,12,7,4,2,0.9,0.8
2024-07-13T2100,3635A,112.3677,34.662,洛阳市,河科大西苑校区,颗粒物(PM10),53,55,46,26,24,142,,169,167,1,4,4,5,0.7,0.7
2024-07-13T2100,3636A,112.4388,34.6781,洛阳市,英才小学,,42,41,35,29,30,122,,156,154,11,8,2,2,0.7,0.7
2024-07-13T2100,2399A,114.051,33.5699,漯河市,三五一五工厂,,37,37,33,21,25,93,,142,132,17,16,6,6,0.7,0.7
2024-07-13T2100,2400A,114.0055,33.5698,漯河市,漯河大学,,35,29,34,24,22,111,,148,140,9,13,8,8,0.8,0.8
2024-07-13T2100,2401A,114.0138,33.5828,漯河市,市水利局,,39,39,39,19,24,95,,141,132,12,12,7,7,0.6,0.6
2024-07-13T2100,2402A,114.0261,33.5698,漯河市,市广电局,,35,32,31,19,21,109,,144,137,6,10,4,3,0.6,0.6
2024-07-13T2100,3478A,113.9749,33.5664,漯河市,市图书馆,,34,34,37,23,23,107,,148,141,10,13,5,6,0.5,0.5
2024-07-13T2100,3479A,114.0967,33.5906,漯河市,召陵区卫健委,,48,48,46,20,29,63,,143,127,33,20,5,5,0.8,0.8
2024-07-13T2100,1798A,118.5092,31.6837,马鞍山市,湖东路四小,,18,8,14,3,7,57,,77,61,10,12,8,7,0.5,0.6
2024-07-13T2100,1799A,118.5024,31.6449,马鞍山市,开发区,,15,10,12,7,7,47,,70,53,17,18,9,9,0.1,0.3
2024-07-13T2100,1800A,118.5228,31.7231,马鞍山市,慈湖,,16,16,17,9,7,45,,75,58,26,19,9,4,1.0,0.8
2024-07-13T2100,1802A,118.6245,31.7241,马鞍山市,濮塘,,14,6,7,3,9,44,,68,56,11,10,3,3,0.6,0.7
2024-07-13T2100,3633A,118.4918,31.6809,马鞍山市,雨山,,18,9,14,3,6,56,,73,58,8,12,7,6,0.9,1
2024-07-13T2100,1686A,111.0286,21.4688,茂名市,电白南海,,19,19,14,9,8,47,,56,52,4,3,5,5,0.5,0.5
2024-07-13T2100,1687A,110.9294,21.6533,茂名市,茂石化七小,,25,17,12,17,13,45,,55,51,3,4,8,8,0.6,0.6
2024-07-13T2100,1688A,110.9107,21.6687,茂名市,健康路,,17,17,11,3,3,49,,62,57,3,3,8,8,0.5,0.4
2024-07-13T2100,1689A,110.8592,21.6828,茂名市,高岭,,31,31,16,9,10,41,,52,48,9,8,8,9,0.5,0.5
2024-07-13T2100,3450A,111.01,21.5165,茂名市,电白水东,,14,7,8,3,6,42,,52,48,9,6,3,3,0.4,0.4
2024-07-13T2100,2539A,104.0308,30.0478,眉山市,黑龙滩水库,,36,30,31,25,26,55,,88,78,10,10,7,7,0.6,0.6
2024-07-13T2100,2540A,103.8416,30.0874,眉山市,气象局,,28,,18,19,15,49,,86,77,22,19,6,6,0.5,0.4
2024-07-13T2100,3137A,103.8578,30.0744,眉山市,市委党校,,20,19,23,14,10,53,,96,87,17,14,6,5,0.7,0.6
2024-07-13T2100,3148A,103.8291,30.0564,眉山市,区人社局,,28,28,26,14,12,49,,92,80,27,20,10,8,0.5,1.3
2024-07-13T2100,1690A,116.1231,24.3284,梅州市,梅江月梅,,25,25,25,3,6,15,,59,47,18,9,8,8,0.4,0.4
2024-07-13T2100,1691A,116.0797,24.2719,梅州市,梅县新城,,30,30,18,7,6,18,,57,50,30,11,5,4,0.6,0.4
2024-07-13T2100,1692A,116.1248,24.2654,梅州市,环境监控中心,,47,47,26,11,7,4,,49,36,36,18,7,6,0.5,0.4
2024-07-13T2100,3315A,116.1233,24.2991,梅州市,梅龙,,17,17,16,8,7,33,,56,49,13,12,8,11,0.6,0.5
2024-07-13T2100,1878A,104.7778,31.4741,绵阳市,富乐山,,15,10,22,10,14,36,,77,56,10,9,8,8,0.5,0.5
2024-07-13T2100,1879A,104.7563,31.4535,绵阳市,市人大,,16,,24,11,13,33,,90,58,21,17,2,3,0.6,0.6
2024-07-13T2100,1880A,104.6697,31.4668,绵阳市,高新区自来水公司,,19,19,24,3,11,44,,86,61,18,15,6,6,0.5,0.6
2024-07-13T2100,1881A,104.7287,31.5075,绵阳市,三水厂,,16,16,26,11,19,24,,80,46,28,23,6,6,0.6,0.7
2024-07-13T2100,3491A,104.69,31.5322,绵阳市,西科大附属小学,,17,17,27,8,14,21,,53,44,30,23,4,5,0.5,0.5
2024-07-13T2100,3492A,104.5648,31.5343,绵阳市,安州区旅游局,,18,16,26,12,18,41,,87,63,11,11,5,5,0.4,0.4
2024-07-13T2100,1784A,129.61,44.561,牡丹江市,环保大楼,细颗粒物(PM2.5),55,51,40,39,31,40,,103,88,16,15,7,7,0.6,0.5
2024-07-13T2100,1785A,129.6115,44.5782,牡丹江市,文化广场,细颗粒物(PM2.5),78,74,52,57,45,34,,100,80,25,18,6,7,0.8,0.6
2024-07-13T2100,1786A,129.5904,44.5963,牡丹江市,第一医院,细颗粒物(PM2.5),68,69,48,49,39,26,,106,89,25,14,5,5,0.7,0.5
2024-07-13T2100,1788A,129.6386,44.5462,牡丹江市,第一中学,颗粒物(PM10),55,60,61,37,22,29,,97,71,16,19,5,5,0.6,0.5
2024-07-13T2100,2531A,105.0703,29.61,内江市,市监测站,,20,13,22,7,21,62,,106,92,10,16,6,6,0.3,0.4
2024-07-13T2100,2532A,105.0717,29.5947,内江市,东兴区政府,,,19,27,,12,66,,108,92,7,12,9,10,0.4,0.5
2024-07-13T2100,2533A,105.0653,29.5817,内江市,内江二中,,22,14,25,3,11,69,,110,96,8,14,8,9,0.5,0.7
2024-07-13T2100,2534A,105.0406,29.5822,内江市,内江日报社,,20,16,24,3,19,61,,107,94,16,23,9,10,0.6,0.7
2024-07-13T2100,2628A,92.0657,31.4846,那曲市,那曲监测站,,25,17,22,9,7,80,,90,90,7,6,7,4,0.4,0.3
2024-07-13T2100,3128A,92.0506,31.4797,那曲市,那曲会议中心,,30,30,13,15,7,82,,99,98,12,6,4,4,0.6,0.4
2024-07-13T2100,1290A,115.8931,28.6843,南昌市,省外办,,41,41,39,27,21,97,,114,113,14,13,7,10,0.3,0.3
2024-07-13T2100,1291A,115.8886,28.7003,南昌市,省林业公司,,32,31,30,22,18,100,,119,118,22,21,6,11,0.3,0.4
2024-07-13T2100,1292A,115.8126,28.7442,南昌市,林科所,,24,24,27,14,14,36,,116,102,41,27,5,9,0.4,0.4
2024-07-13T2100,1294A,115.8518,28.687,南昌市,建工学校,,33,33,35,22,14,94,,121,118,15,11,8,14,0.4,0.4
2024-07-13T2100,1295A,115.8921,28.6424,南昌市,象湖,,30,30,26,17,16,91,,123,119,14,10,4,8,0.7,0.6
2024-07-13T2100,1296A,115.7423,28.7996,南昌市,武术学校,,25,25,20,14,15,44,,84,68,7,6,7,9,0.6,0.5
2024-07-13T2100,1298A,115.9314,28.6842,南昌市,省站,,38,38,33,18,19,91,,113,111,15,18,5,8,0.5,0.5
2024-07-13T2100,3046A,115.9084,28.6062,南昌市,机电学校,,40,40,36,17,16,96,,110,107,8,11,8,11,0.7,0.7
2024-07-13T2100,3690A,115.9721,28.7031,南昌市,外国语学校,,36,36,34,18,15,91,,113,111,15,13,4,6,0.5,0.4
2024-07-13T2100,1905A,106.056,30.8064,南充市,西山风景区,,33,33,33,16,16,51,,65,64,4,9,4,4,0.6,0.6
2024-07-13T2100,1906A,106.0789,30.8023,南充市,南充市委,,29,29,30,16,18,62,,83,80,9,16,6,6,0.3,0.4
2024-07-13T2100,1907A,106.1031,30.8217,南充市,南充炼油厂,,27,27,26,11,15,61,,84,82,8,12,4,4,0.2,0.3
2024-07-13T2100,1908A,106.1064,30.7856,南充市,高坪区监测站,,28,28,26,9,11,58,,83,80,14,17,6,6,0.2,0.3
2024-07-13T2100,1909A,106.0642,30.7636,南充市,嘉陵区环保局,,24,24,27,9,15,59,,85,81,13,20,4,3,0.3,0.4
2024-07-13T2100,1910A,106.1087,30.8388,南充市,市环境监测站,,20,20,26,6,14,54,,77,75,9,13,2,3,0.4,0.4
2024-07-13T2100,1151A,118.8086,32.1065,南京市,迈皋桥,,14,,11,9,8,42,,85,65,20,11,4,5,0.5,0.5
2024-07-13T2100,1152A,118.7538,32.0551,南京市,草场门,,16,,11,7,9,49,,78,59,15,14,4,4,0.5,0.6
2024-07-13T2100,1153A,118.7794,32.0745,南京市,山西路,,16,9,12,3,7,51,,88,67,11,11,4,4,0.6,0.5
2024-07-13T2100,1154A,118.7752,32.0023,南京市,中华门,,14,,9,7,8,44,,66,54,12,13,6,6,0.5,0.7
2024-07-13T2100,1155A,118.8109,32.0309,南京市,瑞金路,,14,12,13,9,8,44,,73,60,15,10,5,5,0.5,0.6
2024-07-13T2100,1156A,118.7997,32.0754,南京市,玄武湖,,17,17,18,3,5,39,,70,55,10,8,2,5,0.6,0.6
2024-07-13T2100,1157A,118.6414,32.0931,南京市,浦口,,15,14,19,3,6,45,,73,61,10,12,5,5,0.6,0.8
2024-07-13T2100,1158A,118.7356,31.9996,南京市,奥体中心,,15,13,12,9,10,47,,70,56,17,19,7,7,0.4,0.5
2024-07-13T2100,1159A,118.9125,32.1028,南京市,仙林大学城,,14,14,14,7,8,40,,84,70,20,14,7,7,0.7,0.7
2024-07-13T2100,3422A,118.8436,31.9198,南京市,江宁彩虹桥,,16,16,15,7,8,43,,74,61,15,11,5,4,0.9,0.7
2024-07-13T2100,3423A,119.0138,31.6494,南京市,溧水永阳,,14,,4,7,6,43,,74,60,16,9,4,4,0.7,0.6
2024-07-13T2100,3424A,118.879,31.3302,南京市,高淳老职中,,19,19,9,3,8,53,,75,58,6,7,2,3,0.4,0.4
2024-07-13T2100,3427A,118.8554,32.3578,南京市,六合雄州,,22,22,18,13,11,55,,84,78,2,3,2,4,0.6,0.7
2024-07-13T2100,1401A,108.3103,22.7881,南宁市,二十一中,,23,23,20,11,11,64,,76,72,10,9,3,2,0.7,0.7
2024-07-13T2100,1402A,108.3141,22.8528,南宁市,北湖,,18,18,20,12,14,55,,73,68,13,9,2,3,0.7,0.8
2024-07-13T2100,1403A,108.3206,22.8225,南宁市,市监测站,,23,23,21,11,11,63,,73,69,11,11,3,4,0.5,0.5
2024-07-13T2100,1404A,108.3829,22.8037,南宁市,大自然花园,,40,,21,28,14,60,,70,69,10,8,4,5,0.7,0.7
2024-07-13T2100,1405A,108.4394,22.7904,南宁市,仙葫,,24,24,22,15,10,64,,71,71,15,14,8,15,0.3,0.3
2024-07-13T2100,1406A,108.2397,22.8467,南宁市,区农职院,,20,20,22,13,11,56,,76,71,12,10,6,7,0.6,0.7
2024-07-13T2100,1407A,108.3275,22.735,南宁市,英华嘉园,,31,31,24,12,13,38,,62,58,31,16,5,5,0.7,0.6
2024-07-13T2100,1408A,108.2257,22.7757,南宁市,沙井镇街道办,,31,31,32,13,13,36,,70,63,25,16,2,2,0.4,0.5
2024-07-13T2100,3401A,108.4834,22.7618,南宁市,红星社区,,,27,22,27,17,,,59,58,12,9,5,6,0.8,0.7
2024-07-13T2100,2332A,118.1681,26.6369,南平市,南平市监测站,,21,21,14,6,8,28,,76,59,17,12,4,5,0.6,0.4
2024-07-13T2100,2333A,118.1825,26.6489,南平市,南平铝业有限公司,,24,24,20,7,10,17,,70,53,21,10,6,6,0.8,0.7
2024-07-13T2100,2334A,118.1756,26.6272,南平市,南平七中,,13,10,16,9,9,38,,80,65,13,9,5,5,0.6,0.5
2024-07-13T2100,1168A,120.9098,31.9663,南通市,狼山街道,,13,7,11,3,7,39,,87,78,12,21,5,6,0.7,0.7
2024-07-13T2100,1169A,120.86,32.0005,南通市,虹桥,,18,18,16,3,9,46,,93,85,23,31,6,6,0.6,0.7
2024-07-13T2100,1170A,120.87,32.02,南通市,城中,,17,15,18,3,7,54,,97,90,20,31,6,7,0.6,0.7
2024-07-13T2100,1171A,120.94,31.93,南通市,星湖花园,,16,7,9,6,6,50,,81,75,28,40,5,4,0.6,0.7
2024-07-13T2100,1172A,120.81,32.0417,南通市,紫琅学院,,,8,7,3,3,48,,101,91,28,32,6,6,,0.5
2024-07-13T2100,3291A,121.067,32.062,南通市,通州监测站,,21,19,18,7,8,67,,118,111,21,15,3,3,0.9,0.8
2024-07-13T2100,3432A,120.9348,31.9883,南通市,环境教育馆,,17,17,21,6,10,46,,101,93,27,35,7,7,0.6,0.6
2024-07-13T2100,2404A,112.5224,33.0122,南阳市,瓦房庄,,41,41,28,26,19,69,,93,90,22,16,2,4,0.6,0.6
2024-07-13T2100,2405A,112.5003,32.9735,南阳市,汉画馆,,45,45,31,22,16,54,,82,76,18,16,3,3,0.8,0.7
2024-07-13T2100,2406A,112.5573,33.027,南阳市,气象站,颗粒物(PM10),51,52,26,22,15,63,,93,89,25,16,3,2,0.6,0.6
2024-07-13T2100,2407A,112.5481,32.9689,南阳市,理工学院,,44,44,29,18,12,66,,89,85,22,16,2,2,0.6,0.5
2024-07-13T2100,4008A,112.5234,32.9922,南阳市,卧龙区政府,颗粒物(PM10),53,55,25,32,17,60,,80,76,24,16,4,3,0.8,0.7
2024-07-13T2100,1234A,121.8358,29.911,宁波市,区环保大楼,颗粒物(PM10),60,69,45,26,22,0,,93,61,98,43,8,8,0.7,0.7
2024-07-13T2100,1235A,121.56,29.82,宁波市,万里学院,,43,43,39,25,23,69,,119,114,25,23,6,6,0.7,0.7
2024-07-13T2100,1236A,121.713,29.9572,宁波市,龙赛医院,颗粒物(PM10),52,54,42,25,22,10,,112,95,97,41,11,8,0.6,0.5
2024-07-13T2100,1239A,121.633,29.7733,宁波市,钱湖水厂,,42,42,28,23,19,80,,95,92,17,11,6,6,0.7,0.7
2024-07-13T2100,1240A,121.5856,29.8635,宁波市,太古小学,颗粒物(PM10),61,72,42,35,22,52,,121,114,62,25,8,7,0.9,0.8
2024-07-13T2100,1241A,121.524,29.8674,宁波市,市环境监测中心,颗粒物(PM10),62,74,40,36,20,75,,134,129,69,28,4,4,1.0,0.7
2024-07-13T2100,2871A,121.6147,29.9017,宁波市,万里国际学校,颗粒物(PM10),62,74,34,40,24,33,,120,111,96,34,5,6,0.6,0.5
2024-07-13T2100,3710A,121.5594,29.8975,宁波市,白沙活动中心,细颗粒物(PM2.5),64,67,37,46,21,52,,118,112,77,27,8,9,0.5,0.4
2024-07-13T2100,2341A,119.5388,26.6612,宁德市,宁德市监测站,,34,34,44,14,21,77,,117,110,14,18,6,7,0.7,0.9
2024-07-13T2100,3209A,119.5231,26.6562,宁德市,宁德一中,,42,42,39,15,17,76,,118,113,16,13,10,7,1.4,0.9
2024-07-13T2100,2618A,98.8601,25.8567,怒江傈僳族自治州,州监测站,,24,24,26,12,13,50,,60,60,8,14,10,10,0.5,0.6
2024-07-13T2100,2619A,98.8546,25.8417,怒江傈僳族自治州,泸水一中,,26,26,21,16,10,34,,50,49,17,14,5,5,0.5,0.5
2024-07-13T2100,1888A,101.6891,26.571,攀枝花市,弄弄坪,,26,26,37,6,12,50,,72,70,14,17,9,14,0.5,0.6
2024-07-13T2100,1889A,101.5769,26.5928,攀枝花市,河门口,,19,9,31,3,17,60,,77,76,8,18,6,4,0.4,1.1
2024-07-13T2100,1890A,101.7169,26.585,攀枝花市,炳草岗,,16,15,32,7,13,50,,78,76,16,19,7,13,0.5,0.7
2024-07-13T2100,1891A,101.7369,26.5008,攀枝花市,仁和,,17,13,18,3,9,53,,65,64,10,11,7,8,0.3,0.4
2024-07-13T2100,2835A,101.7227,26.567,攀枝花市,四十中小,,24,24,27,13,17,60,,80,79,8,18,5,13,0.5,0.8
2024-07-13T2100,1604A,122.0303,41.1489,盘锦市,开发区,,42,35,48,29,31,113,,144,138,17,13,4,5,0.5,0.5
2024-07-13T2100,1605A,122.0485,41.0883,盘锦市,兴隆台,,45,45,46,26,33,100,,141,130,25,15,4,4,0.5,0.5
2024-07-13T2100,1606A,121.8297,41.1028,盘锦市,新生街道,,43,36,57,30,31,99,,141,126,12,12,2,3,0.4,0.5
2024-07-13T2100,1832A,113.3257,33.742,平顶山市,新华旅馆,颗粒物(PM10),62,74,51,36,27,125,,145,143,14,21,2,4,0.8,0.8
2024-07-13T2100,1833A,113.2919,33.737,平顶山市,规划设计院,,,44,35,37,27,,,144,144,,20,5,6,0.7,0.7
2024-07-13T2100,1834A,113.182,33.774,平顶山市,平顶山工学院,细颗粒物(PM2.5),52,51,40,36,23,120,,144,142,18,18,5,6,0.9,0.9
2024-07-13T2100,3204A,113.3025,33.73,平顶山市,规划局,颗粒物(PM10),52,53,44,35,28,132,,138,138,13,20,2,3,0.7,0.8
2024-07-13T2100,3594A,112.8867,33.9116,平顶山市,石龙区,颗粒物(PM10),69,88,68,38,32,120,,141,140,15,25,5,7,0.6,0.5
2024-07-13T2100,2656A,106.6692,35.5461,平凉市,聚贤嘉苑,,50,50,37,27,20,67,,137,128,53,27,11,10,0.6,0.6
2024-07-13T2100,2657A,106.7021,35.5307,平凉市,博物馆,颗粒物(PM10),54,57,42,20,15,85,,141,135,49,27,22,12,0.7,0.6
2024-07-13T2100,2347A,114.0997,27.5002,萍乡市,武功山,,16,6,5,3,3,50,,75,68,5,4,11,12,0.4,0.4
2024-07-13T2100,2348A,113.8385,27.6434,萍乡市,中医院,,40,40,26,18,13,30,,71,64,19,12,5,5,0.8,0.7
2024-07-13T2100,2349A,113.8493,27.6253,萍乡市,市政府车库,,30,30,22,13,14,40,,68,63,12,7,11,12,0.5,0.5
2024-07-13T2100,2350A,113.8676,27.6435,萍乡市,市环保局,,28,24,25,19,14,60,,70,67,5,8,7,8,0.4,0.4
2024-07-13T2100,2351A,113.866,27.6198,萍乡市,安源区政府,,29,29,21,13,9,41,,59,56,11,9,12,12,0.4,0.3
2024-07-13T2100,2319A,119.0141,25.4325,莆田市,荔城区仓后路,,31,31,32,8,15,35,,86,73,14,12,6,6,0.4,0.5
2024-07-13T2100,2320A,119.0015,25.4553,莆田市,莆田市监测站,,37,37,31,21,14,37,,86,75,11,8,6,6,0.8,0.7
2024-07-13T2100,2321A,119.1119,25.4561,莆田市,涵江区六中,,,32,28,11,12,26,,97,68,21,13,,11,0.7,0.7
2024-07-13T2100,2322A,119.1013,25.3215,莆田市,秀屿区政府,,19,19,24,7,9,41,,90,62,7,9,12,13,0.6,0.7
2024-07-13T2100,2392A,115.0312,35.7636,濮阳市,环保局,细颗粒物(PM2.5),73,58,62,53,51,177,,192,192,13,13,6,7,0.7,0.7
2024-07-13T2100,2394A,115.0574,35.7609,濮阳市,油田运输公司,细颗粒物(PM2.5),72,77,77,52,53,171,,195,194,14,13,4,5,0.9,0.8
2024-07-13T2100,2395A,115.0866,35.7754,濮阳市,油田物探公司,细颗粒物(PM2.5),83,90,76,61,62,147,,194,189,19,11,4,4,0.7,0.7
2024-07-13T2100,3021A,115,35.7668,濮阳市,濮水河管理处,,,60,61,60,49,,,173,173,20,9,5,5,0.8,0.8
2024-07-13T2100,2601A,100.98,22.7633,普洱市,市环保局,,28,,12,19,12,23,,35,33,6,5,4,4,0.5,0.4
2024-07-13T2100,2602A,100.9817,22.8322,普洱市,普洱第二中学,,35,,12,24,12,22,,37,34,6,8,4,4,0.5,0.5
2024-07-13T2100,2262A,131.0518,45.8751,七台河市,新一中,,32,,23,22,16,57,,88,82,12,9,12,10,0.6,0.6
2024-07-13T2100,3345A,131.0577,45.7879,七台河市,中波台,,23,23,12,6,8,46,,70,63,19,13,9,8,0.3,0.2
2024-07-13T2100,3637A,131.0176,45.7761,七台河市,人民广场,,29,29,28,19,15,58,,72,69,10,10,10,10,0.3,0.3
2024-07-13T2100,3684A,130.8781,45.8222,七台河市,新建矿广场,,27,27,31,14,15,48,,81,74,17,17,12,12,0.1,0.1
2024-07-13T2100,1779A,123.9305,47.3636,齐齐哈尔市,安居小区,细颗粒物(PM2.5),90,75,81,67,77,105,,158,149,25,17,7,8,0.8,0.8
2024-07-13T2100,1780A,123.9488,47.3386,齐齐哈尔市,中心广场,细颗粒物(PM2.5),92,112,103,68,71,118,,153,148,22,21,10,10,0.7,0.7
2024-07-13T2100,1781A,123.9483,47.3227,齐齐哈尔市,农牧车辆厂,细颗粒物(PM2.5),88,105,93,65,64,108,,155,151,22,18,8,8,0.5,0.6
2024-07-13T2100,1783A,123.945,47.2988,齐齐哈尔市,市环境监测站,细颗粒物(PM2.5),89,76,90,66,80,106,,153,148,18,17,6,6,0.6,0.7
2024-07-13T2100,3662A,123.6333,47.2075,齐齐哈尔市,富区青少年活动中心,颗粒物(PM10),68,85,81,48,61,115,,145,139,16,20,9,8,1.5,0.9
2024-07-13T2100,2591A,107.9783,26.5747,黔东南苗族侗族自治州,市环境监测站,,,,19,11,15,,,72,63,10,7,,3,,0.5
2024-07-13T2100,2881A,107.8908,26.5311,黔东南苗族侗族自治州,凯里学院,,19,,9,9,9,59,,71,61,4,4,4,4,0.4,0.4
2024-07-13T2100,2593A,107.5228,26.2403,黔南布依族苗族自治州,小围寨,,17,7,10,3,4,52,,63,58,2,2,4,5,0.4,0.4
2024-07-13T2100,3538A,107.5175,26.2978,黔南布依族苗族自治州,沙坝,,16,14,11,7,5,49,,57,55,4,4,3,4,0.4,0.4
2024-07-13T2100,2589A,104.9022,25.0925,黔西南布依族苗族自治州,场坝街,,17,12,12,9,6,52,,57,57,6,4,2,3,0.3,0.3
2024-07-13T2100,2590A,104.8811,25.0992,黔西南布依族苗族自治州,坪东大道,,,,12,,6,,,52,52,14,3,4,4,,0.3
2024-07-13T2100,2502A,108.6236,21.9667,钦州市,市环保站,,19,19,15,3,5,40,,70,63,18,12,5,6,0.7,0.8
2024-07-13T2100,2503A,108.6549,21.9481,钦州市,沙埠小学,,20,20,21,11,11,48,,76,72,10,13,4,4,0.6,0.7
2024-07-13T2100,2504A,108.5989,21.7431,钦州市,港区一小,,40,40,26,13,10,45,,58,56,17,14,9,9,0.6,0.6
2024-07-13T2100,3404A,108.5959,21.9633,钦州市,北职校,,22,22,17,9,8,39,,66,59,17,12,7,7,0.6,0.6
2024-07-13T2100,1042A,119.5134,39.8207,秦皇岛市,北戴河环保局,细颗粒物(PM2.5),69,86,66,50,33,121,,136,136,29,18,4,5,0.5,0.6
2024-07-13T2100,1043A,119.7493,40.0116,秦皇岛市,第一关,细颗粒物(PM2.5),89,93,70,66,52,0,,113,92,114,40,1,2,0.6,0.6
2024-07-13T2100,1044A,119.5897,39.9499,秦皇岛市,监测站,颗粒物(PM10),80,109,73,54,37,101,,134,133,38,27,6,6,0.8,0.7
2024-07-13T2100,1046A,119.5251,39.9041,秦皇岛市,建设大厦,颗粒物(PM10),69,87,65,41,26,118,,136,136,13,16,3,4,0.5,0.4
2024-07-13T2100,3132A,119.610547,39.943889,秦皇岛市,文明里,细颗粒物(PM2.5),98,87,71,73,47,100,,138,136,39,19,4,4,0.5,0.5
2024-07-13T2100,1307A,120.6659,36.2403,青岛市,仰口,,42,29,46,29,42,101,,103,103,1,3,3,3,0.4,0.4
2024-07-13T2100,1310A,120.4134,36.0658,青岛市,市南区东部子站,细颗粒物(PM2.5),64,61,35,46,21,103,,116,115,5,5,8,7,0.8,0.8
2024-07-13T2100,1311A,120.3664,36.1032,青岛市,四方区子站,,32,29,34,22,27,102,,129,118,7,9,9,9,0.7,0.7
2024-07-13T2100,1312A,120.2994,36.054,青岛市,市南区西部子站,,33,31,36,15,20,103,,105,105,7,13,7,7,0.6,0.7
2024-07-13T2100,1313A,120.4581,36.0858,青岛市,崂山区子站,,44,44,37,27,25,100,,111,110,9,12,6,7,0.5,0.6
2024-07-13T2100,1314A,120.1983,35.9608,青岛市,黄岛区子站,,42,29,33,29,27,108,,123,117,16,14,7,7,0.7,0.7
2024-07-13T2100,1315A,120.3999,36.3083,青岛市,城阳区子站,,32,27,46,22,31,100,,151,128,14,14,5,6,0.7,0.8
2024-07-13T2100,1966A,120.0405,35.8735,青岛市,黄岛区4号,,39,36,32,27,24,104,,117,114,11,10,9,9,0.6,0.6
2024-07-13T2100,3362A,120.5014,36.4034,青岛市,即墨2号,,37,37,58,22,34,115,,144,131,7,10,4,4,0.6,0.7
2024-07-13T2100,3642A,120.3503,36.0736,青岛市,市北区南部,,35,33,34,24,25,109,,122,118,7,8,6,6,0.7,0.6
2024-07-13T2100,3643A,120.3948,36.1805,青岛市,李沧区北部,,42,31,42,29,36,90,,138,114,19,16,10,10,0.5,0.5
2024-07-13T2100,1702A,113.0426,23.691,清远市,环保大楼,,20,8,13,3,9,63,,118,111,12,17,6,6,0.6,0.6
2024-07-13T2100,1703A,113.0208,23.7106,清远市,凤城街办,,,14,20,9,10,,,115,115,12,16,5,4,0.3,0.4
2024-07-13T2100,3025A,113.0477,23.6344,清远市,技师学院,,20,11,22,3,9,62,,127,118,10,18,4,5,0.4,0.5
2024-07-13T2100,3318A,112.9903,23.7403,清远市,清新太和,,19,18,22,6,10,59,,114,106,11,11,7,8,0.3,0.3
2024-07-13T2100,3455A,113.076,23.7198,清远市,清城东城,,22,13,20,8,14,68,,119,114,9,12,4,4,0.4,0.5
2024-07-13T2100,2661A,107.6325,35.7357,庆阳市,庆阳五中,,42,37,40,16,18,133,,146,145,12,12,3,4,0.5,0.5
2024-07-13T2100,2662A,107.6364,35.7067,庆阳市,市环保局,,39,25,37,17,15,122,,145,143,14,11,4,5,0.5,0.4
2024-07-13T2100,1916A,103.7897,25.5035,曲靖市,环境监测站,,37,37,16,16,9,31,,48,45,17,8,9,4,0.4,0.4
2024-07-13T2100,1917A,103.8,25.5364,曲靖市,烟厂办公区,,,,16,16,7,,,29,,18,10,4,4,0.2,0.4
2024-07-13T2100,3376A,103.7947,25.462,曲靖市,南苑二区,,26,26,13,12,8,42,,56,54,12,4,16,5,0.6,0.5
2024-07-13T2100,3377A,103.7444,25.5261,曲靖市,曲靖师范学院,,26,26,14,8,8,43,,55,54,11,10,6,5,0.4,0.4
2024-07-13T2100,1264A,118.8692,28.9398,衢州市,环保大楼,,29,29,35,15,19,34,,78,55,19,21,5,5,0.5,0.5
2024-07-13T2100,1265A,118.8709,28.9666,衢州市,实验学校,,30,30,36,13,19,24,,72,56,33,21,4,3,0.5,0.5
2024-07-13T2100,1266A,118.8621,28.9808,衢州市,衢州学院,,20,18,33,11,20,13,,73,59,40,23,3,3,0.4,0.5
2024-07-13T2100,1611A,118.5819,24.9117,泉州市,涂山街,,27,27,30,10,12,40,,93,75,10,14,4,6,0.5,0.5
2024-07-13T2100,1612A,118.5972,24.8978,泉州市,津头埔,,28,28,27,11,12,37,,98,73,12,15,2,4,0.4,0.4
2024-07-13T2100,1613A,118.6663,24.9424,泉州市,万安,,26,26,26,8,12,36,,93,74,5,9,2,4,0.4,0.5
2024-07-13T2100,3529A,118.6333,24.9264,泉州市,城华南路,,22,22,25,9,11,32,,90,70,13,14,3,4,0.5,0.5
2024-07-13T2100,2626A,88.8876,29.2718,日喀则市,日喀则监测站,,27,10,12,3,5,86,,102,102,6,11,5,6,0.3,0.4
2024-07-13T2100,3726A,88.8781,29.2426,日喀则市,林业技术推广中心,,26,6,8,3,5,82,,100,99,7,9,7,6,0.7,0.7
2024-07-13T2100,1659A,119.471,35.4209,日照市,监测站,,35,27,22,24,22,102,,112,107,9,11,8,9,0.6,0.5
2024-07-13T2100,1660A,119.523,35.4216,日照市,市政府广场,,35,31,26,24,18,96,,104,102,5,5,7,8,0.6,0.6
2024-07-13T2100,1661A,119.5587,35.4044,日照市,港务局,,35,34,27,19,16,112,,119,116,1,4,9,9,0.7,0.6
2024-07-13T2100,3507A,119.5328,35.4625,日照市,职业技术学院,,39,34,25,27,20,96,,109,106,10,8,8,8,0.7,0.7
2024-07-13T2100,3604A,119.3266,35.1044,日照市,岚山环保分局,,36,36,33,17,17,99,,114,105,9,10,6,7,0.6,0.6
2024-07-13T2100,1835A,111.1922,34.7752,三门峡市,市政府,颗粒物(PM10),55,60,60,32,35,157,,165,165,14,9,6,7,0.8,0.8
2024-07-13T2100,1836A,111.1587,34.7942,三门峡市,开发区,颗粒物(PM10),63,75,73,41,42,165,,172,172,20,15,10,10,0.8,0.8
2024-07-13T2100,3039A,111.1911,34.7829,三门峡市,三门峡市第一小学,臭氧1小时,58,62,58,39,36,166,,173,173,13,11,10,9,0.7,0.7
2024-07-13T2100,3598A,111.1,34.7167,三门峡市,富达温泉假日酒店,细颗粒物(PM2.5),63,63,64,45,46,166,,163,163,9,12,8,11,0.7,0.8
2024-07-13T2100,2324A,117.6211,26.2625,三明市,三钢,,15,14,20,10,9,28,,66,55,22,16,8,15,0.4,1.1
2024-07-13T2100,2325A,117.635,26.2714,三明市,三明二中,,19,19,15,8,9,26,,70,59,25,14,4,6,0.7,0.8
2024-07-13T2100,2326A,117.6028,26.2378,三明市,三元区政府,,23,23,18,7,8,24,,68,57,20,13,5,6,0.3,0.3
2024-07-13T2100,1876A,109.5078,18.2489,三亚市,河东子站,,22,22,26,9,9,46,,58,56,5,7,2,2,0.4,0.4
2024-07-13T2100,1877A,109.4964,18.2681,三亚市,河西子站,,14,12,12,7,6,43,,57,54,5,6,2,3,0.3,0.4
2024-07-13T2100,3540A,109.7348,18.3443,三亚市,君悦子站,,17,9,12,3,5,52,,64,61,4,5,1,2,0.4,0.3
2024-07-13T2100,2624A,91.7608,29.2313,山南市,山南监测站,,23,6,10,3,3,71,,77,77,5,7,5,5,0.3,0.3
2024-07-13T2100,2625A,91.7706,29.2436,山南市,山南人民医院,,21,15,16,3,5,67,,74,74,11,12,5,6,0.3,0.3
2024-07-13T2100,1674A,116.6794,23.3667,汕头市,金平子站,,,,19,4,7,44,,58,50,7,7,6,6,0.7,0.7
2024-07-13T2100,1675A,116.7244,23.3633,汕头市,龙湖子站,,,,14,11,7,38,,50,43,11,8,6,6,0.6,0.7
2024-07-13T2100,1676A,116.7258,23.2775,汕头市,濠江子站,,16,9,14,3,7,50,,57,57,10,9,5,5,0.6,0.6
2024-07-13T2100,1677A,116.7519,23.4714,汕头市,澄海子站,,19,19,18,3,9,28,,48,38,19,12,5,5,0.8,0.8
2024-07-13T2100,1678A,116.6092,23.2539,汕头市,潮阳子站,,18,18,15,8,6,42,,54,50,6,4,5,5,0.6,0.6
2024-07-13T2100,3444A,116.454,23.2684,汕头市,潮南峡山,,22,22,14,6,7,37,,49,43,2,2,4,4,0.7,0.6
2024-07-13T2100,3624A,116.4069,23.2533,汕头市,潮南子站,,28,28,17,19,7,40,,55,50,3,3,7,7,0.6,0.5
2024-07-13T2100,1693A,115.3653,22.775,汕尾市,市环保局,,13,6,9,3,3,41,,42,42,6,5,6,6,0.5,0.5
2024-07-13T2100,1694A,115.3706,22.7898,汕尾市,市政府,,14,9,7,3,5,44,,43,43,2,2,8,7,0.5,0.5
2024-07-13T2100,1695A,115.3622,22.7925,汕尾市,新城中学,,15,6,8,3,4,45,,44,44,2,2,6,6,0.4,0.4
2024-07-13T2100,2645A,109.9154,33.8715,商洛市,监测站,,42,36,34,29,19,76,,93,91,21,16,10,8,0.8,0.7
2024-07-13T2100,3045A,109.9643,33.8471,商洛市,商州区中学,,26,20,32,18,18,70,,90,87,18,14,6,6,0.7,0.7
2024-07-13T2100,2408A,115.6702,34.4285,商丘市,环境监测站,颗粒物(PM10),70,89,61,47,39,147,,169,169,19,12,9,9,0.5,0.5
2024-07-13T2100,2409A,115.6458,34.4045,商丘市,粮食局,臭氧1小时,73,69,58,50,30,178,,179,179,17,11,5,5,0.5,0.5
2024-07-13T2100,2410A,115.6293,34.3948,商丘市,睢阳区环保局,臭氧1小时,95,69,56,58,40,196,,187,187,10,8,6,5,0.5,0.5
2024-07-13T2100,3171A,115.6071,34.4465,商丘市,梁园区档案局,颗粒物(PM10),70,89,51,45,36,165,,181,181,23,13,7,7,0.6,0.6
2024-07-13T2100,1141A,121.4,31.238,上海市,普陀,,,53,29,29,23,,,84,84,32,27,5,6,0.7,0.5
2024-07-13T2100,1142A,121.478,31.2036,上海市,十五厂,,,75,34,48,31,,,75,75,46,34,12,8,0.7,0.6
2024-07-13T2100,1143A,121.467,31.3008,上海市,虹口,,46,40,26,32,26,63,,79,79,33,28,6,6,0.7,0.6
2024-07-13T2100,1144A,121.412,31.1654,上海市,徐汇上师大,细颗粒物(PM2.5),78,66,33,57,35,69,,74,74,44,29,6,7,0.9,0.7
2024-07-13T2100,1145A,121.536,31.2659,上海市,杨浦四漂,颗粒物(PM10),68,85,56,43,32,107,,102,102,37,44,9,7,0.9,0.8
2024-07-13T2100,1147A,121.425,31.2261,上海市,静安监测站,细颗粒物(PM2.5),59,62,30,42,28,65,,85,85,38,28,7,6,0.8,0.6
2024-07-13T2100,1148A,121.703,31.1907,上海市,浦东川沙,,,,40,63,39,,,81,81,30,35,6,6,0.7,0.9
2024-07-13T2100,1149A,121.533,31.2284,上海市,浦东新区监测站,细颗粒物(PM2.5),67,62,31,48,31,82,,76,76,38,37,5,5,0.6,0.5
2024-07-13T2100,1150A,121.577,31.2071,上海市,浦东张江,细颗粒物(PM2.5),88,70,36,65,36,69,,73,73,42,35,5,5,1.0,0.8
2024-07-13T2100,3265A,121.4316,31.3322,上海市,宝山庙行,,45,44,26,31,24,74,,90,90,30,30,9,9,0.8,0.7
2024-07-13T2100,3266A,121.8791,31.4662,上海市,崇明上实东滩,细颗粒物(PM2.5),72,65,33,52,26,55,,91,90,40,22,8,8,0.7,0.7
2024-07-13T2100,3268A,121.3162,31.2838,上海市,嘉定南翔,细颗粒物(PM2.5),70,54,29,51,30,51,,78,78,48,34,4,6,0.7,0.6
2024-07-13T2100,3269A,121.3359,30.7456,上海市,金山新城,细颗粒物(PM2.5),75,66,36,55,30,138,,112,112,15,22,7,8,0.7,0.6
2024-07-13T2100,3270A,121.4996,31.0739,上海市,闵行浦江,细颗粒物(PM2.5),84,67,35,62,36,87,,79,79,29,34,6,6,0.7,0.6
2024-07-13T2100,3271A,121.2886,31.1663,上海市,青浦徐泾,细颗粒物(PM2.5),80,70,31,59,31,45,,77,77,60,31,6,6,0.7,0.5
2024-07-13T2100,3272A,121.2186,31.0378,上海市,松江图书馆,细颗粒物(PM2.5),84,67,28,62,31,65,,81,81,36,29,5,6,0.9,0.7
2024-07-13T2100,3273A,121.3902,31.2059,上海市,长宁仙霞,细颗粒物(PM2.5),57,55,28,40,28,62,,74,74,41,35,6,8,1.1,1
2024-07-13T2100,3274A,121.7965,31.0507,上海市,浦东惠南,细颗粒物(PM2.5),102,,33,76,44,29,,79,76,70,32,7,7,0.9,0.7
2024-07-13T2100,3544A,121.4891,30.925,上海市,奉贤南桥新城,细颗粒物(PM2.5),105,,23,79,38,89,,89,89,41,30,5,5,0.8,0.7
2024-07-13T2100,2381A,118.005,28.4572,上饶市,百草园,二氧化硫,51,18,19,3,8,40,,74,57,2,3,152,49,0.8,0.8
2024-07-13T2100,2382A,117.9756,28.4436,上饶市,市监测站,,17,17,28,11,14,47,,74,60,7,12,4,5,0.4,0.5
2024-07-13T2100,2383A,117.9519,28.4628,上饶市,凤凰光学,,22,22,28,13,12,50,,82,69,7,11,8,10,0.8,0.8
2024-07-13T2100,3413A,118.1953,28.4401,上饶市,广丰区教体局,,40,38,20,28,11,33,,69,54,9,5,19,19,0.5,0.5
2024-07-13T2100,3685A,117.897,28.4315,上饶市,双创科技城,,25,25,34,10,16,47,,74,62,6,14,3,8,0.6,0.7
