timepoint,stationcode,longitude,latitude,area,positionname,primarypollutant,aqi,pm10,pm10_24h,pm2_5,pm2_5_24h,o3,o3_24h,o3_8h,o3_8h_24h,no2,no2_24h,so2,so2_24h,co,co_24h
2023-02-27T08:00:00,1001A,116.3621,39.8784,北京市,万寿西宫,细颗粒物(PM2.5),163,161,157,124,112,107,24,41,20,67,56,3,3,0.8,0.7
2023-02-27T08:00:00,1002A,116.2202,40.2915,北京市,定陵,细颗粒物(PM2.5),207,196,140,157,101,98,33,66,47,24,21,1,2,0.8,0.7
2023-02-27T08:00:00,1003A,116.4174,39.9289,北京市,东四,细颗粒物(PM2.5),166,190,159,126,105,102,4,39,8,100,52,5,4,1.3,0.8
2023-02-27T08:00:00,1004A,116.4072,39.8863,北京市,天坛,细颗粒物(PM2.5),169,173,147,128,109,107,3,25,6,70,50,1,3,0.9,0.8
2023-02-27T08:00:00,1005A,116.462,39.9365,北京市,农展馆,细颗粒物(PM2.5),160,183,155,122,102,105,2,16,3,98,60,3,5,1.0,0.7
2023-02-27T08:00:00,1006A,116.3392,39.9295,北京市,官园,细颗粒物(PM2.5),172,189,163,130,113,119,4,52,18,96,53,7,7,1.2,0.7
2023-02-27T08:00:00,1007A,116.2878,39.9611,北京市,海淀万柳,细颗粒物(PM2.5),168,179,171,127,111,82,3,6,3,88,57,3,3,1.1,0.8
2023-02-27T08:00:00,1008A,116.6636,40.135,北京市,顺义新城,细颗粒物(PM2.5),158,164,139,120,93,113,15,19,13,67,54,1,4,0.8,0.7
2023-02-27T08:00:00,1009A,116.6275,40.3275,北京市,怀柔镇,细颗粒物(PM2.5),160,187,142,122,82,53,21,35,31,33,41,3,3,0.8,0.7
2023-02-27T08:00:00,1010A,116.2296,40.217,北京市,昌平镇,细颗粒物(PM2.5),199,193,146,149,100,105,23,58,27,17,21,2,4,0.9,0.7
2023-02-27T08:00:00,1011A,116.3966,39.9821,北京市,奥体中心,细颗粒物(PM2.5),162,176,150,123,106,97,5,57,14,88,50,2,4,1.3,0.9
2023-02-27T08:00:00,1012A,116.184,39.9136,北京市,古城,细颗粒物(PM2.5),190,204,171,143,113,108,7,22,9,80,53,2,3,1.4,1
2023-02-27T08:00:00,1015A,117.1444,39.1661,天津市,勤俭道,细颗粒物(PM2.5),99,108,128,74,88,127,44,45,44,51,43,13,11,0.7,0.7
2023-02-27T08:00:00,1017A,117.237,39.1082,天津市,大直沽八号路,细颗粒物(PM2.5),89,105,126,66,79,119,41,34,34,52,50,13,12,0.8,0.8
2023-02-27T08:00:00,1018A,117.202,39.0927,天津市,前进道,细颗粒物(PM2.5),93,97,117,69,80,122,43,38,38,53,53,12,10,0.9,0.8
2023-02-27T08:00:00,1019A,117.1837,39.2133,天津市,淮河道,细颗粒物(PM2.5),92,125,144,68,80,128,45,55,52,54,47,13,11,0.7,0.7
2023-02-27T08:00:00,1021A,117.307,39.0877,天津市,跃进路,细颗粒物(PM2.5),92,104,122,68,81,122,40,17,17,52,62,15,12,0.7,0.7
2023-02-27T08:00:00,1023A,117.707,39.0343,天津市,第四大街,细颗粒物(PM2.5),105,118,122,79,79,101,29,31,31,64,52,14,11,,0.8
2023-02-27T08:00:00,1024A,117.457,38.8394,天津市,永明路,细颗粒物(PM2.5),99,102,111,74,78,121,27,27,27,62,54,40,18,0.7,0.7
2023-02-27T08:00:00,1026A,117.764,39.1587,天津市,汉北路,细颗粒物(PM2.5),94,101,115,70,76,106,53,35,35,46,53,20,13,0.8,0.9
2023-02-27T08:00:00,1027A,117.157,38.9194,天津市,团泊洼,细颗粒物(PM2.5),94,104,119,70,80,110,34,26,26,47,51,12,10,0.9,0.9
2023-02-27T08:00:00,1029A,114.4422,38.0444,石家庄市,职工医院,细颗粒物(PM2.5),182,211,188,137,127,90,4,22,6,85,68,12,14,1.6,1.3
2023-02-27T08:00:00,1030A,114.6063,38.0266,石家庄市,高新区,细颗粒物(PM2.5),112,136,150,84,97,108,7,29,16,62,49,5,9,1.1,1
2023-02-27T08:00:00,1031A,114.4898,38.1328,石家庄市,西北水源,细颗粒物(PM2.5),201,226,199,151,133,87,5,4,3,77,72,5,9,1.7,1.4
2023-02-27T08:00:00,1032A,114.4586,38.0058,石家庄市,西南高教,,,268,199,131,129,88,2,34,8,82,68,12,10,1.5,1.3
2023-02-27T08:00:00,1033A,114.5331,38.0178,石家庄市,世纪公园,细颗粒物(PM2.5),130,127,146,99,110,97,2,31,12,61,48,5,10,1.1,1.3
2023-02-27T08:00:00,1034A,114.509,38.0457,石家庄市,人民会堂,细颗粒物(PM2.5),206,225,179,156,130,101,6,34,16,73,53,8,12,1.8,1.4
2023-02-27T08:00:00,1035A,114.3524,37.8911,石家庄市,封龙山,细颗粒物(PM2.5),178,167,158,134,110,102,70,84,75,40,48,14,12,1.4,1.4
2023-02-27T08:00:00,1037A,118.131,39.6363,唐山市,雷达站,细颗粒物(PM2.5),100,120,107,75,75,109,32,62,48,66,43,15,12,0.9,0.7
2023-02-27T08:00:00,1038A,118.1725,39.6334,唐山市,物资局,细颗粒物(PM2.5),105,120,104,79,77,102,13,59,33,85,58,11,9,1.0,0.8
2023-02-27T08:00:00,1040A,118.1705,39.6506,唐山市,十二中,细颗粒物(PM2.5),110,119,106,83,78,102,17,60,36,96,61,14,11,0.9,0.7
2023-02-27T08:00:00,1041A,118.1869,39.622,唐山市,小山,细颗粒物(PM2.5),119,128,116,90,81,108,17,54,30,76,56,12,11,0.8,0.7
2023-02-27T08:00:00,1042A,119.5134,39.8207,秦皇岛市,北戴河环保局,细颗粒物(PM2.5),70,79,87,51,58,104,33,64,41,33,32,13,15,0.9,1
2023-02-27T08:00:00,1043A,119.7493,40.0116,秦皇岛市,第一关,细颗粒物(PM2.5),105,115,105,79,67,91,16,40,26,64,52,16,10,1.4,1
2023-02-27T08:00:00,1044A,119.5897,39.9499,秦皇岛市,监测站,细颗粒物(PM2.5),82,94,94,60,64,88,26,61,50,64,45,20,13,1.5,1
2023-02-27T08:00:00,1046A,119.5251,39.9041,秦皇岛市,建设大厦,颗粒物(PM10),68,86,94,45,49,98,34,73,54,58,44,25,15,1.4,1.1
2023-02-27T08:00:00,1048A,114.5302,36.6116,邯郸市,东污水处理厂,细颗粒物(PM2.5),77,86,116,56,76,109,51,68,54,24,27,23,23,0.5,0.8
2023-02-27T08:00:00,1049A,114.4918,36.5713,邯郸市,矿院,细颗粒物(PM2.5),79,87,105,58,79,109,42,64,48,28,27,12,15,0.6,0.7
2023-02-27T08:00:00,1050A,114.484,36.6133,邯郸市,丛台公园,颗粒物(PM10),65,80,96,46,72,108,43,66,52,28,24,12,12,0.7,0.9
2023-02-27T08:00:00,1051A,115.493,38.8632,保定市,游泳馆,细颗粒物(PM2.5),107,105,156,80,123,113,22,30,29,49,53,16,19,0.6,0.9
2023-02-27T08:00:00,1052A,115.5213,38.8959,保定市,华电二区,细颗粒物(PM2.5),102,103,149,76,123,108,26,20,20,34,51,9,13,0.8,1
2023-02-27T08:00:00,1053A,115.4713,38.9108,保定市,接待中心,细颗粒物(PM2.5),124,103,152,94,118,107,30,28,28,35,51,9,12,0.5,0.8
2023-02-27T08:00:00,1054A,115.4612,38.8416,保定市,地表水厂,细颗粒物(PM2.5),95,127,178,71,101,105,26,31,28,50,66,10,13,0.3,0.6
2023-02-27T08:00:00,1056A,115.5086,38.8639,保定市,监测站,细颗粒物(PM2.5),123,123,165,93,130,116,18,16,16,57,70,8,11,1.0,1
2023-02-27T08:00:00,1057A,114.8883,40.8336,张家口市,人民公园,细颗粒物(PM2.5),105,100,63,79,39,88,41,60,53,35,27,11,8,0.9,0.6
2023-02-27T08:00:00,1059A,114.8687,40.8042,张家口市,五金库,,,73,58,66,45,80,34,45,44,,21,5,6,1.0,0.5
2023-02-27T08:00:00,1060A,114.8902,40.762,张家口市,世纪豪园,细颗粒物(PM2.5),97,96,72,72,52,89,41,72,55,35,26,5,6,1.1,0.8
2023-02-27T08:00:00,1061A,114.8916,40.8661,张家口市,北泵房,细颗粒物(PM2.5),120,107,64,91,46,94,39,57,51,37,26,19,15,1.2,1.1
2023-02-27T08:00:00,1062A,117.9531,40.9081,承德市,铁路,细颗粒物(PM2.5),98,133,82,73,47,75,11,22,14,56,48,8,10,1.2,0.9
2023-02-27T08:00:00,1063A,117.9392,40.9763,承德市,中国银行,细颗粒物(PM2.5),104,124,69,78,44,78,9,12,10,55,43,6,7,1.1,0.8
2023-02-27T08:00:00,1064A,117.9503,40.928,承德市,开发区,细颗粒物(PM2.5),90,111,65,67,48,79,9,19,14,52,39,8,8,1.1,0.8
2023-02-27T08:00:00,1065A,117.8051,40.9655,承德市,文化中心,细颗粒物(PM2.5),145,161,101,111,61,86,18,28,26,51,44,7,18,1.3,1.1
2023-02-27T08:00:00,1066A,117.9268,41.0026,承德市,离宫,细颗粒物(PM2.5),95,96,62,71,41,80,21,41,27,27,19,9,11,0.8,0.6
2023-02-27T08:00:00,1067A,116.6708,39.5111,廊坊市,药材公司,细颗粒物(PM2.5),108,137,151,81,93,129,34,33,33,50,46,10,8,0.9,0.8
2023-02-27T08:00:00,1068A,116.7214,39.5589,廊坊市,开发区,细颗粒物(PM2.5),102,117,137,76,93,128,46,51,47,58,59,15,14,0.8,0.8
2023-02-27T08:00:00,1070A,116.7244,39.5269,廊坊市,北华航天学院,细颗粒物(PM2.5),118,136,153,89,101,122,39,40,39,58,53,13,10,0.8,0.7
2023-02-27T08:00:00,1071A,116.8842,38.2991,沧州市,沧县城建局,细颗粒物(PM2.5),93,112,118,69,74,128,51,70,62,41,35,16,18,0.9,0.8
2023-02-27T08:00:00,1072A,116.8584,38.3254,沧州市,电视转播站,细颗粒物(PM2.5),87,97,107,64,69,124,48,66,60,46,38,16,18,1.0,0.9
2023-02-27T08:00:00,1073A,116.8709,38.3228,沧州市,市环保局,细颗粒物(PM2.5),100,110,106,75,66,119,43,53,50,53,45,13,13,0.5,0.5
2023-02-27T08:00:00,1074A,115.6838,37.7541,衡水市,电机北厂,"颗粒物(PM10),细颗粒物(PM2.5)",70,90,110,51,70,128,64,63,63,20,24,7,8,0.5,0.6
2023-02-27T08:00:00,1075A,115.6303,37.7316,衡水市,市监测站,细颗粒物(PM2.5),72,83,116,52,74,125,57,58,56,26,26,8,9,0.5,0.6
2023-02-27T08:00:00,1077A,114.4704,37.0886,邢台市,达活泉,细颗粒物(PM2.5),110,127,133,83,96,105,18,48,35,46,34,10,8,1.3,1.2
2023-02-27T08:00:00,1078A,114.5062,37.0349,邢台市,邢师高专,细颗粒物(PM2.5),87,106,116,64,92,107,18,45,28,45,33,11,10,1.2,1
2023-02-27T08:00:00,1079A,114.5237,37.0851,邢台市,路桥公司,细颗粒物(PM2.5),84,98,119,62,79,103,24,20,18,38,45,11,7,1.3,0.9
2023-02-27T08:00:00,1080A,114.4725,37.0719,邢台市,市环保局,细颗粒物(PM2.5),113,122,139,85,94,109,15,47,32,52,39,10,11,1.0,1
2023-02-27T08:00:00,1081A,112.522,37.8873,太原市,尖草坪,细颗粒物(PM2.5),170,194,178,129,123,100,5,4,4,80,86,7,9,1.4,1.2
2023-02-27T08:00:00,1083A,112.434,38.0108,太原市,上兰,,,,,,,,,,,,,,,,
2023-02-27T08:00:00,1084A,112.469,37.7124,太原市,晋源,细颗粒物(PM2.5),208,198,169,158,135,102,7,10,7,66,59,14,13,1.5,1.2
2023-02-27T08:00:00,1085A,112.5583,37.7394,太原市,小店,,,172,178,121,123,100,2,8,6,87,75,9,10,1.4,1.2
2023-02-27T08:00:00,1086A,112.5369,37.8692,太原市,桃园,细颗粒物(PM2.5),165,186,173,125,121,99,3,26,19,68,60,8,9,1.3,1.1
2023-02-27T08:00:00,1087A,112.57,37.8195,太原市,坞城,细颗粒物(PM2.5),140,143,148,107,108,108,30,35,34,51,56,9,11,1.1,1
2023-02-27T08:00:00,1088A,112.549,37.9854,太原市,南寨,细颗粒物(PM2.5),150,168,168,115,116,97,4,4,3,46,55,3,9,1.1,1.1
2023-02-27T08:00:00,1090A,111.6507,40.7517,呼和浩特市,呼市一监,细颗粒物(PM2.5),112,95,124,84,92,93,30,20,20,40,53,11,14,0.8,1.1
2023-02-27T08:00:00,1091A,111.6572,40.8033,呼和浩特市,小召,细颗粒物(PM2.5),109,107,124,82,80,86,15,12,12,62,67,19,18,1.0,1
2023-02-27T08:00:00,1094A,111.7516,40.8369,呼和浩特市,如意水处理厂,细颗粒物(PM2.5),110,123,138,83,82,95,8,5,5,65,66,13,14,1.0,0.9
2023-02-27T08:00:00,1095A,111.7276,40.8062,呼和浩特市,二十九中,细颗粒物(PM2.5),107,112,132,80,87,87,26,12,12,46,63,12,14,0.9,1
2023-02-27T08:00:00,1096A,111.5512,40.7866,呼和浩特市,工大金川校区,细颗粒物(PM2.5),120,130,128,91,85,98,5,3,3,65,62,10,13,1.2,1
2023-02-27T08:00:00,1097A,111.717,40.7612,呼和浩特市,化肥厂生活区,细颗粒物(PM2.5),104,120,142,78,86,88,19,11,11,57,57,14,15,0.8,1
2023-02-27T08:00:00,1098A,123.6836,41.9339,沈阳市,森林路,,,,,,,,,,,,,,,,
2023-02-27T08:00:00,1099A,123.505,41.7406,沈阳市,浑南东路,细颗粒物(PM2.5),84,92,78,62,54,81,63,52,44,36,42,16,25,0.9,1.5
2023-02-27T08:00:00,1100A,123.4231,41.6989,沈阳市,新秀街,细颗粒物(PM2.5),80,98,86,59,53,86,65,54,54,28,36,43,30,0.9,1.3
2023-02-27T08:00:00,1102A,123.5903,41.8411,沈阳市,东陵路,细颗粒物(PM2.5),90,85,79,67,53,86,33,53,28,50,42,25,25,1.6,1.4
2023-02-27T08:00:00,1103A,123.4264,41.8467,沈阳市,陵东街,细颗粒物(PM2.5),73,80,75,53,49,93,72,79,77,39,40,18,24,0.8,1.2
2023-02-27T08:00:00,1104A,123.4114,41.7653,沈阳市,文化路,细颗粒物(PM2.5),90,96,89,67,60,93,70,83,72,30,32,19,23,0.8,1.2
2023-02-27T08:00:00,1105A,123.4678,41.7867,沈阳市,小河沿,细颗粒物(PM2.5),84,96,79,62,49,92,64,86,70,43,37,33,26,1.1,1.3
2023-02-27T08:00:00,1106A,123.4017,41.7972,沈阳市,太原街,细颗粒物(PM2.5),90,87,81,67,65,87,61,72,66,45,43,18,28,1.0,1.4
2023-02-27T08:00:00,1108A,123.3783,41.9228,沈阳市,京沈街,细颗粒物(PM2.5),82,66,77,60,57,92,75,86,84,37,34,20,23,1.1,1.3
2023-02-27T08:00:00,1109A,121.612,38.9741,大连市,甘井子,细颗粒物(PM2.5),57,62,83,40,52,95,23,63,47,68,45,7,19,0.7,0.7
2023-02-27T08:00:00,1110A,121.565,38.9511,大连市,周水子,颗粒物(PM10),64,77,93,44,48,103,20,46,26,64,50,74,30,0.7,0.8
2023-02-27T08:00:00,1111A,121.5637,38.8845,大连市,星海三站,细颗粒物(PM2.5),57,49,87,40,64,86,28,51,42,50,40,5,12,0.6,0.8
2023-02-27T08:00:00,1112A,121.6302,38.9117,大连市,青泥洼桥,,36,35,35,25,53,105,62,58,49,25,38,10,19,0.5,0.7
2023-02-27T08:00:00,1113A,121.6251,38.8638,大连市,傅家庄,,50,50,98,23,68,98,62,57,52,21,30,8,13,0.5,0.7
2023-02-27T08:00:00,1114A,121.5213,38.8661,大连市,七贤岭,细颗粒物(PM2.5),74,62,62,54,49,106,15,57,41,53,35,7,10,1.0,0.9
2023-02-27T08:00:00,1115A,121.2529,38.8061,大连市,旅顺,,46,41,59,32,46,102,51,57,54,25,8,10,15,0.6,0.8
2023-02-27T08:00:00,1116A,121.7485,39.1311,大连市,金州,细颗粒物(PM2.5),58,52,73,41,53,107,48,63,52,49,44,19,18,0.9,1
2023-02-27T08:00:00,1117A,121.7811,39.0496,大连市,开发区,颗粒物(PM10),54,57,66,32,58,110,38,47,39,56,53,8,8,0.8,0.9
2023-02-27T08:00:00,1118A,121.9762,39.0631,大连市,双D港,,43,43,48,27,42,104,37,62,41,58,41,7,9,0.8,0.9
2023-02-27T08:00:00,1119A,125.3325,43.9166,长春市,食品厂,颗粒物(PM10),75,100,80,42,39,79,60,76,72,39,31,20,12,1.0,0.7
2023-02-27T08:00:00,1120A,125.2863,43.9027,长春市,客车厂,颗粒物(PM10),77,103,81,48,44,79,58,74,69,46,34,23,15,1.1,0.7
2023-02-27T08:00:00,1121A,125.2841,43.8463,长春市,邮电学院,细颗粒物(PM2.5),87,106,79,64,39,82,51,80,66,51,34,21,17,1.0,0.7
2023-02-27T08:00:00,1122A,125.3716,43.8772,长春市,劳动公园,细颗粒物(PM2.5),73,75,70,53,37,80,51,72,64,42,33,16,17,1.1,0.7
2023-02-27T08:00:00,1123A,125.3297,43.8805,长春市,园林处,细颗粒物(PM2.5),74,93,77,54,36,79,66,77,72,36,32,17,16,1.1,0.8
2023-02-27T08:00:00,1124A,125.4605,43.79,长春市,净月潭,颗粒物(PM10),71,91,68,50,29,84,61,69,64,19,15,11,8,1.2,0.8
2023-02-27T08:00:00,1125A,125.7194,43.515,长春市,甩湾子,,,,,,,,,,,,,,,,
2023-02-27T08:00:00,1126A,125.3863,43.8447,长春市,经开区环卫处,细颗粒物(PM2.5),63,64,66,45,35,80,43,58,55,41,30,15,11,1.1,0.7
2023-02-27T08:00:00,1127A,125.245,43.7783,长春市,高新区管委会,细颗粒物(PM2.5),89,101,70,66,43,83,61,66,65,34,31,16,11,1.1,0.7
2023-02-27T08:00:00,1128A,125.1761,43.8325,长春市,岱山公园,细颗粒物(PM2.5),80,84,78,59,42,82,60,70,68,39,33,16,11,1.1,0.8
2023-02-27T08:00:00,1129A,126.5422,45.755,哈尔滨市,岭北,细颗粒物(PM2.5),118,140,92,89,49,92,76,73,65,25,20,25,24,0.7,0.5
2023-02-27T08:00:00,1130A,126.561,45.8167,哈尔滨市,松北商大,细颗粒物(PM2.5),95,110,72,71,43,94,79,62,62,30,28,10,11,0.9,0.6
2023-02-27T08:00:00,1131A,126.979,45.5419,哈尔滨市,阿城会宁,细颗粒物(PM2.5),75,64,69,55,42,99,60,52,52,22,23,16,16,0.9,0.6
2023-02-27T08:00:00,1132A,126.599,45.7222,哈尔滨市,南岗学府路,细颗粒物(PM2.5),88,107,83,65,45,93,70,67,57,36,28,13,14,0.6,0.6
2023-02-27T08:00:00,1133A,126.689,45.7733,哈尔滨市,太平宏伟公园,细颗粒物(PM2.5),104,111,84,78,47,96,68,73,61,36,29,13,13,0.8,0.7
2023-02-27T08:00:00,1134A,126.635,45.7667,哈尔滨市,道外承德广场,细颗粒物(PM2.5),88,123,87,65,44,90,63,62,56,38,34,16,17,1.1,0.8
2023-02-27T08:00:00,1135A,126.685,45.7319,哈尔滨市,香坊红旗大街,细颗粒物(PM2.5),118,110,86,89,63,83,56,51,43,45,44,23,25,1.0,0.7
2023-02-27T08:00:00,1136A,126.6411,45.7258,哈尔滨市,动力和平路,细颗粒物(PM2.5),100,110,78,75,51,90,62,53,48,38,33,10,9,1.0,0.7
2023-02-27T08:00:00,1137A,126.593,45.7478,哈尔滨市,道里建国路,细颗粒物(PM2.5),100,114,84,75,50,88,62,57,48,39,35,14,16,0.9,0.7
2023-02-27T08:00:00,1138A,126.615,45.61,哈尔滨市,平房东轻厂,细颗粒物(PM2.5),75,85,78,55,45,101,70,54,54,23,22,12,13,1.0,0.9
2023-02-27T08:00:00,1139A,126.595,45.9855,哈尔滨市,呼兰师专,细颗粒物(PM2.5),109,111,77,82,47,82,70,65,58,30,24,12,15,0.8,0.6
2023-02-27T08:00:00,1140A,126.6206,45.6842,哈尔滨市,省农科院,细颗粒物(PM2.5),82,112,83,60,43,97,69,50,50,34,35,19,19,0.6,0.5
2023-02-27T08:00:00,1141A,121.4,31.238,上海市,普陀,,36,36,41,25,28,99,64,90,81,37,28,5,6,0.6,0.6
2023-02-27T08:00:00,1142A,121.478,31.2036,上海市,十五厂,,43,33,31,30,28,89,39,82,59,53,33,6,7,0.7,0.6
2023-02-27T08:00:00,1143A,121.467,31.3008,上海市,虹口,,42,41,42,29,30,97,47,73,62,39,21,6,6,0.7,0.7
2023-02-27T08:00:00,1144A,121.412,31.1654,上海市,徐汇上师大,,42,38,36,29,26,89,36,83,59,62,35,8,9,0.6,0.5
2023-02-27T08:00:00,1145A,121.536,31.2659,上海市,杨浦四漂,颗粒物(PM10),53,56,46,30,28,97,33,44,37,61,40,7,8,0.7,0.5
2023-02-27T08:00:00,1147A,121.425,31.2261,上海市,静安监测站,颗粒物(PM10),52,54,56,28,27,97,58,91,79,43,31,8,9,0.7,0.6
2023-02-27T08:00:00,1148A,121.703,31.1907,上海市,浦东川沙,细颗粒物(PM2.5),52,48,40,36,28,94,36,78,42,53,30,5,5,0.8,0.7
2023-02-27T08:00:00,1149A,121.533,31.2284,上海市,浦东新区监测站,,46,46,47,27,30,84,37,74,59,50,29,6,10,1.0,0.7
2023-02-27T08:00:00,1150A,121.577,31.2071,上海市,浦东张江,,38,36,34,26,24,85,27,59,42,61,29,5,4,0.7,0.7
2023-02-27T08:00:00,1151A,118.8086,32.1065,南京市,迈皋桥,颗粒物(PM10),71,91,68,44,36,101,37,33,28,37,36,5,7,0.4,0.4
2023-02-27T08:00:00,1152A,118.7538,32.0551,南京市,草场门,颗粒物(PM10),62,73,63,34,30,95,37,48,34,42,34,4,6,0.4,0.4
2023-02-27T08:00:00,1153A,118.7794,32.0745,南京市,山西路,颗粒物(PM10),59,68,62,39,35,113,49,65,48,22,20,3,5,0.4,0.5
2023-02-27T08:00:00,1154A,118.7752,32.0023,南京市,中华门,颗粒物(PM10),59,68,63,39,31,105,38,41,24,37,43,7,9,0.7,0.7
2023-02-27T08:00:00,1155A,118.8109,32.0309,南京市,瑞金路,颗粒物(PM10),65,79,64,39,33,101,41,32,28,38,38,6,7,0.5,0.5
2023-02-27T08:00:00,1156A,118.7997,32.0754,南京市,玄武湖,细颗粒物(PM2.5),65,75,61,47,37,103,54,51,37,20,27,3,4,0.4,0.5
2023-02-27T08:00:00,1157A,118.6414,32.0931,南京市,浦口,细颗粒物(PM2.5),85,106,67,63,35,92,34,49,31,48,47,3,5,0.7,0.6
2023-02-27T08:00:00,1158A,118.7356,31.9996,南京市,奥体中心,颗粒物(PM10),71,91,70,44,36,103,35,41,28,51,50,4,6,0.5,0.5
2023-02-27T08:00:00,1159A,118.9125,32.1028,南京市,仙林大学城,细颗粒物(PM2.5),62,68,63,44,38,110,45,41,36,27,32,6,7,0.5,0.5
2023-02-27T08:00:00,1160A,120.561,31.2472,苏州市,上方山,细颗粒物(PM2.5),57,59,46,40,28,84,48,41,33,42,34,6,7,0.6,0.5
2023-02-27T08:00:00,1162A,120.591,31.3019,苏州市,彩香,颗粒物(PM10),51,52,53,34,32,100,72,61,54,34,29,8,6,0.8,0.7
2023-02-27T08:00:00,1163A,120.596,31.3264,苏州市,轧钢厂,,50,50,55,32,31,92,67,45,44,27,27,6,6,0.7,0.6
2023-02-27T08:00:00,1164A,120.613,31.2703,苏州市,吴中区,颗粒物(PM10),51,51,51,32,29,91,58,50,37,42,36,8,6,0.6,0.5
2023-02-27T08:00:00,1165A,120.543,31.2994,苏州市,苏州新区,,48,47,48,33,31,96,67,65,52,38,34,6,6,0.6,0.6
2023-02-27T08:00:00,1166A,120.669,31.3097,苏州市,苏州工业园区,细颗粒物(PM2.5),55,57,53,39,34,93,49,45,45,42,28,7,7,0.5,0.5
2023-02-27T08:00:00,1167A,120.641,31.3708,苏州市,相城区,细颗粒物(PM2.5),57,61,57,40,34,100,44,40,32,50,35,7,6,0.6,0.5
2023-02-27T08:00:00,1168A,120.9098,31.9663,南通市,狼山街道,颗粒物(PM10),53,55,58,23,35,121,68,45,43,30,25,5,6,0.6,0.5
2023-02-27T08:00:00,1169A,120.86,32.0005,南通市,虹桥,,49,49,56,34,34,118,80,91,85,30,22,6,6,0.4,0.4
2023-02-27T08:00:00,1170A,120.87,32.02,南通市,城中,细颗粒物(PM2.5),53,51,55,37,37,110,67,85,74,35,21,6,7,0.5,0.4
2023-02-27T08:00:00,1171A,120.94,31.93,南通市,星湖花园,,49,49,52,29,32,113,58,72,63,38,22,5,5,0.7,0.5
2023-02-27T08:00:00,1172A,120.81,32.0417,南通市,紫琅学院,颗粒物(PM10),53,55,62,36,34,114,72,82,76,31,23,6,7,0.5,0.5
2023-02-27T08:00:00,1173A,119.176,34.5885,连云港市,市环境监测站,细颗粒物(PM2.5),85,90,77,63,52,100,55,76,65,37,29,18,15,0.5,0.5
2023-02-27T08:00:00,1177A,117.179,34.2761,徐州市,黄河新村,细颗粒物(PM2.5),82,90,77,60,51,124,44,70,62,50,32,13,12,1.1,0.8
2023-02-27T08:00:00,1178A,117.1918,34.2384,徐州市,淮塔,细颗粒物(PM2.5),79,103,86,58,52,129,40,62,49,46,36,11,10,1.0,0.8
2023-02-27T08:00:00,1180A,117.256,34.2153,徐州市,新城区,细颗粒物(PM2.5),92,105,83,68,55,124,42,77,58,49,31,12,12,0.9,0.8
2023-02-27T08:00:00,1181A,117.244,34.2911,徐州市,桃园路,细颗粒物(PM2.5),77,92,81,56,48,116,48,66,59,40,29,11,10,0.8,0.7
2023-02-27T08:00:00,1182A,117.2933,34.2778,徐州市,农科院,细颗粒物(PM2.5),77,90,81,56,46,126,52,71,62,36,28,13,12,0.7,0.6
2023-02-27T08:00:00,1186A,119.389,32.3761,扬州市,邗江监测站,细颗粒物(PM2.5),105,97,79,79,55,109,28,50,35,49,42,4,5,0.8,0.6
2023-02-27T08:00:00,1188A,120.269,31.4867,无锡市,雪浪,,48,48,46,24,25,97,62,34,34,28,28,9,9,0.5,0.5
2023-02-27T08:00:00,1189A,120.275,31.6219,无锡市,黄巷,颗粒物(PM10),59,68,63,31,32,103,46,45,37,62,50,9,10,0.9,0.9
2023-02-27T08:00:00,1190A,120.294,31.56,无锡市,曹张,颗粒物(PM10),61,71,56,29,28,94,33,46,34,52,39,7,8,0.9,0.9
2023-02-27T08:00:00,1191A,120.242,31.5031,无锡市,漆塘,,48,48,40,24,24,100,69,37,33,31,31,10,10,0.6,0.7
2023-02-27T08:00:00,1192A,120.3489,31.5863,无锡市,东亭,颗粒物(PM10),59,68,57,36,32,93,29,44,30,63,45,9,11,1.0,0.9
2023-02-27T08:00:00,1193A,120.354,31.5475,无锡市,旺庄,颗粒物(PM10),58,66,56,39,32,97,31,45,33,54,42,6,6,0.7,0.7
2023-02-27T08:00:00,1194A,120.245,31.5631,无锡市,荣巷,细颗粒物(PM2.5),55,56,50,39,29,97,43,43,35,41,30,11,11,0.7,0.7
2023-02-27T08:00:00,1195A,120.299,31.6817,无锡市,堰桥,颗粒物(PM10),60,70,63,39,33,103,38,58,49,53,43,8,11,0.9,0.9
2023-02-27T08:00:00,1196A,119.9633,31.762,常州市,市监测站,细颗粒物(PM2.5),78,97,78,57,44,101,29,40,29,50,42,7,8,0.5,0.5
2023-02-27T08:00:00,1200A,119.9468,31.7069,常州市,武进监测站,细颗粒物(PM2.5),68,81,69,49,39,96,44,42,34,34,36,8,8,0.6,0.7
2023-02-27T08:00:00,1201A,119.9255,31.9087,常州市,安家,细颗粒物(PM2.5),97,109,78,72,48,104,21,42,36,53,49,6,9,0.7,0.7
2023-02-27T08:00:00,1203A,119.6707,32.1875,镇江市,新区办事处,细颗粒物(PM2.5),97,111,86,72,49,114,29,39,33,47,40,3,5,0.9,0.8
2023-02-27T08:00:00,1204A,119.4974,32.1968,镇江市,职教中心,细颗粒物(PM2.5),103,87,73,77,55,112,30,36,35,41,38,5,9,0.6,0.8
2023-02-27T08:00:00,1205A,119.4303,32.1328,镇江市,丹徒区监测站,细颗粒物(PM2.5),108,113,83,81,55,106,24,31,29,44,37,6,7,0.9,0.6
2023-02-27T08:00:00,1206A,119.905,32.4878,泰州市,公园路,细颗粒物(PM2.5),92,92,68,68,49,114,41,76,56,31,20,8,9,1.0,0.8
2023-02-27T08:00:00,1207A,119.9189,32.4625,泰州市,莲花,,,103,73,73,52,113,33,73,52,40,25,,10,1.3,1
2023-02-27T08:00:00,1209A,119.888,32.4639,泰州市,留学生创业园,细颗粒物(PM2.5),80,100,84,59,45,109,44,76,52,38,26,10,10,1.0,0.7
2023-02-27T08:00:00,1210A,119.036,33.5981,淮安市,钵池山,细颗粒物(PM2.5),127,78,66,96,57,98,44,66,59,38,32,9,10,1.4,0.8
2023-02-27T08:00:00,1211A,119.007,33.575,淮安市,北京南路,细颗粒物(PM2.5),90,95,73,67,46,91,40,59,53,39,38,15,13,1.2,0.8
2023-02-27T08:00:00,1212A,118.989,33.6067,淮安市,市监测站,细颗粒物(PM2.5),98,105,77,73,51,104,43,68,61,44,37,14,12,1.5,0.8
2023-02-27T08:00:00,1213A,119.135,33.5039,淮安市,楚州区监测站,细颗粒物(PM2.5),112,115,79,84,52,93,28,43,34,42,40,9,10,0.8,0.6
2023-02-27T08:00:00,1214A,119.0186,33.6297,淮安市,淮阴区监测站,细颗粒物(PM2.5),130,98,79,99,57,98,44,64,59,38,34,16,14,1.5,0.7
2023-02-27T08:00:00,1215A,120.118,33.4022,盐城市,盐城电厂,细颗粒物(PM2.5),63,58,62,45,42,114,100,112,98,17,19,9,10,0.6,0.6
2023-02-27T08:00:00,1216A,120.156,33.3942,盐城市,市监测站,细颗粒物(PM2.5),68,64,61,49,43,112,77,80,68,34,27,6,9,0.5,0.6
2023-02-27T08:00:00,1218A,120.2144,33.38,盐城市,开发区管委会,细颗粒物(PM2.5),89,92,75,66,49,113,60,84,71,38,26,6,7,0.8,0.7
2023-02-27T08:00:00,1220A,118.293,33.9528,宿迁市,宿迁学院,细颗粒物(PM2.5),112,124,93,84,63,110,31,56,35,48,44,9,12,0.8,0.6
2023-02-27T08:00:00,1221A,118.2442,33.9592,宿迁市,宿迁中学,,,,83,,56,84,,75,,,28,,8,,0.5
2023-02-27T08:00:00,1223A,120.2072,30.2111,杭州市,滨江,颗粒物(PM10),56,61,53,37,30,99,43,68,58,47,33,9,8,0.5,0.4
2023-02-27T08:00:00,1224A,120.0633,30.2747,杭州市,西溪,颗粒物(PM10),56,61,48,36,25,93,8,39,20,38,31,4,5,0.7,0.6
2023-02-27T08:00:00,1226A,120.3461,30.3153,杭州市,下沙,颗粒物(PM10),59,68,56,36,31,106,54,73,58,36,31,10,8,0.6,0.5
2023-02-27T08:00:00,1227A,120.1269,30.2456,杭州市,卧龙桥,,43,40,40,30,24,94,25,18,18,28,28,6,7,0.8,0.7
2023-02-27T08:00:00,1228A,120.1903,30.2692,杭州市,浙江农大,颗粒物(PM10),54,58,47,36,30,105,58,68,62,33,31,7,7,0.7,0.6
2023-02-27T08:00:00,1230A,120.1197,30.3119,杭州市,和睦小学,"颗粒物(PM10),细颗粒物(PM2.5)",63,75,52,45,29,92,11,66,46,39,24,6,6,0.8,0.6
2023-02-27T08:00:00,1231A,120.3019,30.4183,杭州市,临平镇,颗粒物(PM10),62,73,54,43,26,101,45,68,59,42,27,10,8,0.6,0.5
2023-02-27T08:00:00,1232A,120.2697,30.1819,杭州市,城厢镇,细颗粒物(PM2.5),78,76,55,57,35,97,16,74,41,61,38,7,6,0.7,0.5
2023-02-27T08:00:00,1233A,120.0883,30.1808,杭州市,云栖,,47,47,43,25,24,96,18,24,23,26,24,5,6,0.5,0.5
2023-02-27T08:00:00,1234A,121.8358,29.911,宁波市,区环保大楼,细颗粒物(PM2.5),64,60,33,46,22,92,12,45,27,62,36,6,5,1.0,0.5
2023-02-27T08:00:00,1235A,121.56,29.82,宁波市,万里学院,颗粒物(PM10),53,55,43,32,21,109,9,15,14,55,38,6,6,0.7,0.6
2023-02-27T08:00:00,1236A,121.713,29.9572,宁波市,龙赛医院,颗粒物(PM10),64,77,46,39,20,97,5,18,10,58,34,6,6,1.0,0.7
2023-02-27T08:00:00,1239A,121.633,29.7733,宁波市,钱湖水厂,细颗粒物(PM2.5),59,53,38,42,27,104,28,52,38,33,19,7,6,0.6,0.5
2023-02-27T08:00:00,1240A,121.5856,29.8635,宁波市,太古小学,颗粒物(PM10),52,53,42,31,22,104,18,6,6,55,37,12,6,0.8,0.6
2023-02-27T08:00:00,1241A,121.524,29.8674,宁波市,市环境监测中心,,45,45,36,20,14,99,17,24,16,53,33,14,8,0.6,0.4
2023-02-27T08:00:00,1242A,120.634,28.0089,温州市,瓯海,颗粒物(PM10),65,79,38,45,20,107,24,63,38,46,28,8,7,0.5,0.4
2023-02-27T08:00:00,1243A,120.6748,27.9939,温州市,南浦,,44,44,33,29,18,113,43,65,52,29,22,6,6,0.5,0.4
2023-02-27T08:00:00,1244A,120.76,27.9747,温州市,龙湾,,47,47,32,22,14,104,36,63,43,42,28,8,8,0.5,0.3
2023-02-27T08:00:00,1245A,120.6709,28.0167,温州市,市站,,44,44,45,23,20,106,50,61,42,25,31,6,6,0.5,0.4
2023-02-27T08:00:00,1247A,120.6053,29.9928,绍兴市,城东开发委,,46,46,48,31,27,104,24,40,35,36,26,5,5,0.8,0.6
2023-02-27T08:00:00,1250A,120.0751,30.8669,湖州市,城西水厂,细颗粒物(PM2.5),73,55,40,53,32,92,22,46,33,50,36,7,7,0.6,0.5
2023-02-27T08:00:00,1252A,120.7436,30.778,嘉兴市,清河小学,颗粒物(PM10),59,67,53,38,27,79,35,62,51,50,30,7,7,0.7,0.5
2023-02-27T08:00:00,1253A,120.726,30.7478,嘉兴市,嘉兴学院,细颗粒物(PM2.5),57,58,43,40,29,86,28,75,53,60,30,6,5,0.5,0.4
2023-02-27T08:00:00,1255A,121.273,28.6459,台州市,黄岩环保大楼,,38,38,30,21,15,105,53,60,54,19,15,9,8,0.3,0.2
2023-02-27T08:00:00,1256A,121.419,28.6542,台州市,台州环保大楼,,39,39,33,24,20,96,48,65,54,32,20,5,6,0.4,0.2
2023-02-27T08:00:00,1257A,121.377,28.5773,台州市,路桥田洋王,,49,49,36,25,18,101,43,66,46,34,19,9,9,0.5,0.3
2023-02-27T08:00:00,1258A,122.122,30.0203,舟山市,定海檀枫,,25,25,26,8,11,93,52,65,62,32,15,4,5,0.4,0.3
2023-02-27T08:00:00,1259A,122.3094,29.9558,舟山市,普陀东港,,25,23,23,11,10,93,78,90,85,14,9,5,5,0.5,0.5
2023-02-27T08:00:00,1260A,122.19,29.9944,舟山市,临城新区,,26,26,28,10,11,95,60,74,69,31,16,5,5,0.4,0.4
2023-02-27T08:00:00,1262A,119.647,29.077,金华市,十五中,细颗粒物(PM2.5),62,64,49,44,28,101,19,56,31,54,33,6,5,0.4,0.3
2023-02-27T08:00:00,1263A,119.686,29.1029,金华市,监测站,细颗粒物(PM2.5),70,53,45,51,27,106,14,48,27,57,35,6,5,0.6,0.4
2023-02-27T08:00:00,1264A,118.8692,28.9398,衢州市,环保大楼,细颗粒物(PM2.5),68,66,46,49,28,86,16,50,38,44,25,15,7,0.7,0.5
2023-02-27T08:00:00,1265A,118.8709,28.9666,衢州市,实验学校,"颗粒物(PM10),细颗粒物(PM2.5)",58,66,43,41,24,99,35,57,46,33,23,15,12,0.6,0.4
2023-02-27T08:00:00,1266A,118.8621,28.9808,衢州市,衢州学院,细颗粒物(PM2.5),59,63,40,42,25,90,34,48,41,34,24,6,6,0.8,0.5
2023-02-27T08:00:00,1267A,119.914,28.4514,丽水市,监测站大楼,,38,32,35,26,19,101,21,60,41,32,21,10,8,0.4,0.2
2023-02-27T08:00:00,1268A,119.93,28.4586,丽水市,莲都小学,,39,39,33,17,15,103,42,65,51,26,22,7,8,0.3,0.2
2023-02-27T08:00:00,1269A,119.879,28.4231,丽水市,余庄前,,46,46,28,19,16,102,15,27,15,22,20,8,8,0.4,0.4
2023-02-27T08:00:00,1270A,117.1959,31.7848,合肥市,明珠广场,细颗粒物(PM2.5),62,70,63,44,32,94,25,54,40,55,43,9,10,0.8,0.8
2023-02-27T08:00:00,1271A,117.3072,31.8764,合肥市,三里街,细颗粒物(PM2.5),62,68,69,44,32,77,16,34,22,60,53,7,9,1.0,0.8
2023-02-27T08:00:00,1272A,117.2588,31.8707,合肥市,琥珀山庄,颗粒物(PM10),57,63,64,34,31,89,26,33,30,60,51,6,7,0.8,0.6
2023-02-27T08:00:00,1273A,117.1604,31.9052,合肥市,董铺水库,细颗粒物(PM2.5),67,78,71,48,33,77,21,42,24,54,39,5,6,0.6,0.5
2023-02-27T08:00:00,1274A,117.25,31.8571,合肥市,长江中路,细颗粒物(PM2.5),58,63,69,41,43,83,20,31,28,56,44,12,13,1.0,0.9
2023-02-27T08:00:00,1275A,117.266,31.9436,合肥市,庐阳区,颗粒物(PM10),69,88,70,46,33,81,13,40,23,58,48,7,8,1.0,0.7
2023-02-27T08:00:00,1276A,117.336,31.8586,合肥市,瑶海区,细颗粒物(PM2.5),59,66,70,42,37,82,24,23,23,52,47,7,8,0.8,0.6
2023-02-27T08:00:00,1277A,117.3027,31.7964,合肥市,包河区,,,73,79,46,40,90,5,21,6,66,52,16,13,1.2,1
2023-02-27T08:00:00,1278A,117.2776,31.7385,合肥市,滨湖新区,颗粒物(PM10),60,70,60,39,30,89,32,58,45,49,32,8,10,0.9,0.8
2023-02-27T08:00:00,1279A,117.1318,31.8403,合肥市,高新区,细颗粒物(PM2.5),62,66,61,44,33,88,34,54,46,50,39,7,9,0.9,0.8
2023-02-27T08:00:00,1280A,119.3903,26.0543,福州市,鼓山,,,,,,,,,,,,,,,,
2023-02-27T08:00:00,1282A,119.2681,26.0504,福州市,师大,,36,36,34,10,13,114,73,93,86,20,15,5,5,0.4,0.4
2023-02-27T08:00:00,1283A,119.2984,26.1028,福州市,五四北路,,29,29,31,10,15,118,74,94,87,17,13,4,3,0.4,0.4
2023-02-27T08:00:00,1284A,119.2648,26.0768,福州市,杨桥西路,,33,33,34,8,13,118,74,94,86,13,9,4,4,0.4,0.4
2023-02-27T08:00:00,1285A,119.317,26.0746,福州市,紫阳,,34,34,34,8,12,111,76,89,84,14,13,4,3,0.4,0.3
2023-02-27T08:00:00,1286A,118.1608,24.8169,厦门市,溪东,,,,,,,,,,,,,,,,
2023-02-27T08:00:00,1287A,118.1514,24.4767,厦门市,洪文,,30,30,35,10,15,107,59,85,78,37,26,2,3,0.3,0.3
2023-02-27T08:00:00,1288A,118.0661,24.4444,厦门市,鼓浪屿,,28,28,35,9,15,127,74,105,93,35,22,4,4,0.1,0.1
2023-02-27T08:00:00,1290A,115.8931,28.6843,南昌市,省外办,细颗粒物(PM2.5),64,62,60,46,37,111,41,52,48,43,29,14,11,0.8,0.7
2023-02-27T08:00:00,1291A,115.8886,28.7003,南昌市,省林业公司,细颗粒物(PM2.5),67,68,52,48,39,108,30,41,38,59,38,15,8,0.8,0.7
2023-02-27T08:00:00,1292A,115.8126,28.7442,南昌市,林科所,,36,36,48,22,30,110,47,72,61,23,19,9,8,0.7,0.6
2023-02-27T08:00:00,1294A,115.8518,28.687,南昌市,建工学校,颗粒物(PM10),61,71,55,40,35,109,30,69,56,46,19,8,6,0.8,0.5
2023-02-27T08:00:00,1295A,115.8921,28.6424,南昌市,象湖,细颗粒物(PM2.5),69,50,42,50,38,105,30,55,45,44,24,12,8,0.9,0.6
2023-02-27T08:00:00,1296A,115.7423,28.7996,南昌市,武术学校,,33,16,25,23,29,111,8,34,21,14,11,3,4,0.4,0.3
2023-02-27T08:00:00,1298A,115.9314,28.6842,南昌市,省站,细颗粒物(PM2.5),65,78,64,47,38,122,34,60,49,37,20,22,9,0.8,0.6
2023-02-27T08:00:00,1299A,116.9862,36.6114,济南市,科干所,颗粒物(PM10),64,78,82,37,45,115,96,91,91,23,24,11,10,0.7,0.7
2023-02-27T08:00:00,1300A,116.9376,36.665,济南市,农科所,颗粒物(PM10),69,88,90,49,47,111,74,81,80,37,34,10,10,0.7,0.7
2023-02-27T08:00:00,1301A,117.1265,36.6734,济南市,开发区,"颗粒物(PM10),细颗粒物(PM2.5)",74,98,75,54,46,120,37,100,89,73,22,13,12,0.6,0.5
2023-02-27T08:00:00,1303A,117.0624,36.6868,济南市,省种子仓库,"颗粒物(PM10),细颗粒物(PM2.5)",64,78,79,46,48,126,87,97,95,24,24,12,11,0.4,0.5
2023-02-27T08:00:00,1304A,116.9489,36.6447,济南市,机床二厂,颗粒物(PM10),77,103,91,54,53,115,66,86,83,43,30,15,16,0.9,0.8
2023-02-27T08:00:00,1305A,117.0495,36.663,济南市,市监测站,细颗粒物(PM2.5),70,78,77,51,51,119,93,112,104,39,34,11,10,0.6,0.6
2023-02-27T08:00:00,1306A,116.7675,36.5484,济南市,长清党校,细颗粒物(PM2.5),74,88,87,54,50,121,88,99,86,32,27,14,12,0.8,0.8
2023-02-27T08:00:00,1307A,120.6659,36.2403,青岛市,仰口,细颗粒物(PM2.5),55,39,28,39,24,86,62,72,69,21,18,4,5,0.6,0.6
2023-02-27T08:00:00,1310A,120.4134,36.0658,青岛市,市南区东部子站,,44,44,37,29,26,100,90,98,94,28,30,8,11,0.6,0.5
2023-02-27T08:00:00,1311A,120.3664,36.1032,青岛市,四方区子站,,49,48,41,34,26,87,58,82,72,52,37,9,9,0.7,0.6
2023-02-27T08:00:00,1312A,120.2994,36.054,青岛市,市南区西部子站,,39,39,40,22,26,102,92,99,94,23,29,9,11,0.4,0.4
2023-02-27T08:00:00,1313A,120.4581,36.0858,青岛市,崂山区子站,颗粒物(PM10),52,53,31,31,18,99,79,95,80,35,25,8,10,0.3,0.3
2023-02-27T08:00:00,1314A,120.1983,35.9608,青岛市,黄岛区子站,细颗粒物(PM2.5),53,48,40,37,28,110,69,99,90,34,31,5,8,0.4,0.4
2023-02-27T08:00:00,1315A,120.3999,36.3083,青岛市,城阳区子站,,44,44,54,20,27,78,16,63,51,76,42,6,8,0.8,0.6
2023-02-27T08:00:00,1316A,113.69031,34.76122,郑州市,烟厂,细颗粒物(PM2.5),57,54,72,40,51,109,38,81,64,48,26,7,6,0.6,0.6
2023-02-27T08:00:00,1317A,113.65724,34.77134,郑州市,郑纺机,颗粒物(PM10),56,61,67,35,50,107,47,82,67,46,28,6,5,0.5,0.5
2023-02-27T08:00:00,1318A,113.67526,34.80246,郑州市,银行学校,,,49,67,36,52,109,48,83,70,44,26,6,6,,0.4
2023-02-27T08:00:00,1319A,113.56746,34.81334,郑州市,供水公司,颗粒物(PM10),54,58,71,32,55,108,45,85,68,45,25,6,6,0.4,0.4
2023-02-27T08:00:00,1320A,113.7329,34.7178,郑州市,经开区管委,细颗粒物(PM2.5),65,58,72,47,53,110,25,65,47,52,30,12,9,0.4,0.4
2023-02-27T08:00:00,1321A,113.73961,34.77172,郑州市,四十七中,细颗粒物(PM2.5),60,58,73,43,53,103,33,71,55,46,26,7,5,0.5,0.5
2023-02-27T08:00:00,1322A,113.60532,34.74838,郑州市,市监测站,细颗粒物(PM2.5),52,48,76,36,54,110,51,81,67,36,22,10,9,0.6,0.5
2023-02-27T08:00:00,1323A,113.64164,34.7525,郑州市,河医大,颗粒物(PM10),52,53,69,35,52,107,44,80,64,42,21,7,6,0.5,0.5
2023-02-27T08:00:00,1324A,113.51488,34.91089,郑州市,岗李水库,,,,,,,,,,,,,,,,
2023-02-27T08:00:00,1325A,114.3677,30.5584,武汉市,东湖梨园,细颗粒物(PM2.5),59,53,57,42,43,129,15,42,30,66,43,17,10,1.1,0.7
2023-02-27T08:00:00,1326A,114.2529,30.558,武汉市,汉阳月湖,细颗粒物(PM2.5),52,45,59,36,45,113,34,54,44,66,54,11,10,1.0,0.8
2023-02-27T08:00:00,1327A,114.282,30.6189,武汉市,汉口花桥,,49,45,60,34,37,113,34,51,47,56,43,19,10,1.7,0.8
2023-02-27T08:00:00,1328A,114.3025,30.5332,武汉市,武昌紫阳,,45,40,52,31,36,110,26,57,39,71,52,14,13,1.2,1
2023-02-27T08:00:00,1329A,114.3646,30.6217,武汉市,青山钢花,细颗粒物(PM2.5),73,61,70,53,52,118,18,60,40,78,54,24,15,1.3,0.7
2023-02-27T08:00:00,1330A,114.1566,30.4825,武汉市,沌口新区,细颗粒物(PM2.5),78,55,59,57,45,110,29,48,43,71,54,16,18,0.9,0.8
2023-02-27T08:00:00,1331A,114.3014,30.5944,武汉市,汉口江滩,,46,46,59,32,36,116,33,49,47,59,46,16,11,1.3,0.7
2023-02-27T08:00:00,1333A,114.135,30.6319,武汉市,吴家山,细颗粒物(PM2.5),53,49,72,37,48,106,18,32,29,82,63,9,8,1.1,0.8
2023-02-27T08:00:00,1334A,113.8454,30.2917,武汉市,沉湖七壕,颗粒物(PM10),52,53,50,18,22,116,36,49,36,41,30,13,11,1.0,0.8
2023-02-27T08:00:00,1335A,113.0833,28.2325,长沙市,经开区环保局,细颗粒物(PM2.5),67,69,99,48,80,138,22,49,26,44,39,2,2,0.6,0.6
2023-02-27T08:00:00,1336A,112.8872,28.2189,长沙市,高开区环保局,,,130,115,75,71,138,7,8,7,76,48,7,6,1.1,0.7
2023-02-27T08:00:00,1337A,113.0792,28.2053,长沙市,马坡岭,细颗粒物(PM2.5),79,92,106,58,81,146,13,10,5,42,44,8,7,0.4,0.5
2023-02-27T08:00:00,1338A,112.9394,28.19,长沙市,湖南师范大学,细颗粒物(PM2.5),67,63,80,48,82,126,24,61,39,49,31,4,4,0.4,0.4
2023-02-27T08:00:00,1339A,113.0178,28.1322,长沙市,雨花区环保局,细颗粒物(PM2.5),79,73,95,58,75,139,13,39,32,62,42,6,5,0.6,0.6
2023-02-27T08:00:00,1340A,112.9792,28.2597,长沙市,伍家岭,细颗粒物(PM2.5),77,96,114,56,73,144,6,4,4,48,47,5,5,0.9,0.9
2023-02-27T08:00:00,1341A,113.0014,28.1944,长沙市,火车新站,细颗粒物(PM2.5),78,71,99,57,84,126,21,12,12,59,50,10,7,0.6,0.6
2023-02-27T08:00:00,1342A,112.9844,28.1178,长沙市,天心区环保局,细颗粒物(PM2.5),59,55,97,42,74,139,40,43,42,46,37,5,4,0.5,0.5
2023-02-27T08:00:00,1343A,112.8908,28.1308,长沙市,湖南中医药大学,颗粒物(PM10),69,87,97,46,72,137,2,24,6,59,46,3,4,0.8,0.8
2023-02-27T08:00:00,1344A,112.9581,28.3611,长沙市,沙坪,细颗粒物(PM2.5),69,72,79,50,55,135,37,69,57,23,20,5,5,0.7,0.7
2023-02-27T08:00:00,1345A,113.2347,23.1423,广州市,广雅中学,细颗粒物(PM2.5),80,90,76,59,48,124,27,46,22,77,57,6,6,0.7,0.6
2023-02-27T08:00:00,1346A,113.2612,23.105,广州市,市五中,细颗粒物(PM2.5),84,78,67,62,52,133,32,51,36,62,36,8,8,0.9,0.8
2023-02-27T08:00:00,1348A,113.3478,23.0916,广州市,广东商学院,颗粒物(PM10),70,90,68,49,43,131,22,19,17,76,48,6,6,0.7,0.6
2023-02-27T08:00:00,1349A,113.4332,23.1047,广州市,市八十六中,颗粒物(PM10),81,111,76,56,48,126,15,20,9,73,47,10,6,0.9,0.6
2023-02-27T08:00:00,1350A,113.3505,22.9483,广州市,番禺中学,细颗粒物(PM2.5),74,86,62,54,44,145,12,78,51,85,40,14,6,0.9,0.7
2023-02-27T08:00:00,1351A,113.2146,23.3916,广州市,花都师范,细颗粒物(PM2.5),78,78,63,57,45,122,87,98,96,30,23,9,8,0.8,0.7
2023-02-27T08:00:00,1352A,113.2597,23.1331,广州市,市监测站,细颗粒物(PM2.5),74,81,67,54,43,126,30,60,38,72,46,8,8,0.6,0.6
2023-02-27T08:00:00,1353A,113.5618,23.312,广州市,九龙镇镇龙,细颗粒物(PM2.5),68,79,67,49,44,112,13,25,8,41,32,5,5,0.7,0.7
2023-02-27T08:00:00,1354A,113.2765,23.1544,广州市,麓湖,细颗粒物(PM2.5),68,73,62,49,42,132,12,52,14,70,44,4,5,0.8,0.7
2023-02-27T08:00:00,1355A,113.443,23.3035,广州市,帽峰山森林公园,颗粒物(PM10),56,61,53,39,34,126,92,97,94,14,15,7,7,0.7,0.6
2023-02-27T08:00:00,1356A,114.1063,22.5545,深圳市,通心岭子站,,37,37,42,14,24,123,50,87,73,36,15,5,5,0.5,0.5
2023-02-27T08:00:00,1357A,114.117,22.5625,深圳市,洪湖,颗粒物(PM10),51,52,57,16,31,141,33,101,75,54,20,8,9,0.6,0.6
2023-02-27T08:00:00,1358A,113.987,22.5417,深圳市,华侨城,,38,38,45,16,26,144,59,102,85,29,19,8,7,0.5,0.5
2023-02-27T08:00:00,1359A,113.9181,22.5171,深圳市,南海子站,,37,37,47,14,25,145,82,103,92,20,16,5,5,0.7,0.8
2023-02-27T08:00:00,1360A,114.2458,22.5689,深圳市,盐田,,36,36,42,15,24,149,49,89,72,48,23,8,7,0.6,0.6
2023-02-27T08:00:00,1361A,114.2283,22.7244,深圳市,龙岗,颗粒物(PM10),55,59,48,25,24,131,53,95,76,28,10,5,5,0.6,0.5
2023-02-27T08:00:00,1363A,114.494,22.5422,深圳市,南澳,,35,35,36,14,21,142,85,94,91,16,14,7,8,0.5,0.6
2023-02-27T08:00:00,1364A,114.41,22.6342,深圳市,葵涌,,36,36,42,17,25,136,52,92,72,19,15,5,6,0.6,0.6
2023-02-27T08:00:00,1365A,114.297,22.5978,深圳市,梅沙,,37,37,44,13,22,144,83,104,89,11,11,5,5,0.7,0.7
2023-02-27T08:00:00,1366A,114.0678,22.738,深圳市,观澜,颗粒物(PM10),56,62,58,23,31,139,37,83,63,42,24,8,8,0.6,0.6
2023-02-27T08:00:00,1367A,113.5814,22.2618,珠海市,吉大,,46,46,60,10,25,170,96,116,103,18,22,4,5,0.5,0.5
2023-02-27T08:00:00,1368A,113.4881,22.2335,珠海市,前山,,27,25,46,14,24,162,84,114,96,26,25,5,5,0.5,0.5
2023-02-27T08:00:00,1369A,113.628,22.4251,珠海市,唐家,,39,39,46,13,29,166,88,103,91,18,20,5,5,0.4,0.4
2023-02-27T08:00:00,1370A,113.299,22.2281,珠海市,斗门,,29,29,55,12,36,163,72,91,86,29,29,6,7,0.3,0.5
2023-02-27T08:00:00,1371A,113.1294,23.0067,佛山市,湾梁,"颗粒物(PM10),细颗粒物(PM2.5)",62,73,65,44,35,139,30,45,34,67,43,9,9,0.7,0.7
2023-02-27T08:00:00,1372A,113.1083,23.0478,佛山市,华材职中,细颗粒物(PM2.5),83,78,64,61,45,138,20,50,25,89,54,7,7,0.6,0.5
2023-02-27T08:00:00,1373A,113.144,23.0453,佛山市,南海气象局,细颗粒物(PM2.5),69,62,56,50,41,130,22,34,18,73,50,11,9,0.8,0.7
2023-02-27T08:00:00,1374A,113.2881,22.8094,佛山市,顺德苏岗,颗粒物(PM10),61,72,52,36,35,136,6,83,48,81,38,8,8,0.7,0.6
2023-02-27T08:00:00,1376A,112.8383,22.8678,佛山市,高明孔堂,细颗粒物(PM2.5),79,87,63,58,42,131,16,44,28,54,29,12,9,0.9,0.7
2023-02-27T08:00:00,1377A,112.8836,23.1588,佛山市,三水监测站,细颗粒物(PM2.5),73,83,70,53,45,133,54,54,52,46,35,13,10,0.8,0.7
2023-02-27T08:00:00,1378A,112.867,23.185,佛山市,三水云东海,细颗粒物(PM2.5),85,69,58,63,47,129,37,48,43,31,22,7,8,0.7,0.7
2023-02-27T08:00:00,1379A,113.3769,22.5211,中山市,华柏园,,41,41,55,23,37,158,65,100,84,29,25,7,8,0.6,0.6
2023-02-27T08:00:00,1380A,113.3881,22.5497,中山市,张溪,,47,47,60,21,40,148,56,102,80,39,31,6,7,0.5,0.6
2023-02-27T08:00:00,1381A,113.4075,22.5111,中山市,紫马岭,,43,43,56,16,34,154,54,90,79,29,28,6,8,0.5,0.6
2023-02-27T08:00:00,1382A,113.4411,22.4853,中山市,长江旅游区,,18,16,47,12,35,156,38,54,48,13,22,10,12,0.4,0.6
2023-02-27T08:00:00,1383A,113.1064,22.6058,江门市,北街,,,,59,,40,88,,85,,,34,,9,,0.9
2023-02-27T08:00:00,1384A,113.0731,22.5835,江门市,西区,,40,40,80,21,47,138,71,77,51,32,44,7,7,0.5,0.6
2023-02-27T08:00:00,1385A,113.0219,22.5311,江门市,圭峰西,,41,41,56,22,45,146,47,64,60,43,36,5,6,1.0,0.9
2023-02-27T08:00:00,1386A,113.0828,22.5947,江门市,东湖,,36,36,68,23,43,143,63,79,58,31,35,5,6,0.5,0.7
2023-02-27T08:00:00,1389A,113.7547,23.0494,东莞市,莞城梨川,颗粒物(PM10),58,65,58,33,35,128,66,92,77,34,29,11,10,0.7,0.7
2023-02-27T08:00:00,1390A,113.7944,23.0128,东莞市,东城石井,颗粒物(PM10),57,63,50,36,32,139,41,66,54,41,26,10,10,0.6,0.7
2023-02-27T08:00:00,1391A,113.7383,22.9658,东莞市,南城西平,颗粒物(PM10),65,80,60,37,37,130,17,59,44,70,38,8,9,0.9,0.9
2023-02-27T08:00:00,1392A,114.4183,23.0528,惠州市,河南岸金山湖子站,颗粒物(PM10),60,70,60,33,33,110,44,89,69,34,20,10,7,0.7,0.6
2023-02-27T08:00:00,1393A,114.4053,23.0822,惠州市,下埔横江三路子站,颗粒物(PM10),60,70,57,33,32,132,61,110,88,32,20,7,7,0.5,0.4
2023-02-27T08:00:00,1394A,114.4103,23.1142,惠州市,江北云山西路子站,细颗粒物(PM2.5),75,63,58,55,36,133,40,107,79,39,20,18,7,0.5,0.4
2023-02-27T08:00:00,1395A,114.4645,22.7833,惠州市,惠阳区承修路船湖子站,颗粒物(PM10),62,73,57,28,31,137,21,94,66,45,18,6,6,0.8,0.7
2023-02-27T08:00:00,1396A,114.5317,22.7422,惠州市,大亚湾管委会子站,颗粒物(PM10),57,63,59,27,28,111,20,66,55,66,24,6,5,0.7,0.6
2023-02-27T08:00:00,1397A,112.4267,23.0706,肇庆市,睦岗子站,颗粒物(PM10),56,62,46,39,29,128,9,14,7,65,49,11,9,0.7,0.6
2023-02-27T08:00:00,1398A,112.4645,23.0475,肇庆市,城中子站,,,73,49,50,33,124,40,29,29,,46,12,8,0.6,0.6
2023-02-27T08:00:00,1399A,112.5544,23.1522,肇庆市,坑口子站,细颗粒物(PM2.5),70,65,44,51,33,126,41,83,67,35,20,11,8,0.6,0.5
2023-02-27T08:00:00,1400A,112.4753,23.1,肇庆市,七星岩子站,,,,,,,,,,,,,,,,
2023-02-27T08:00:00,1401A,108.3103,22.7881,南宁市,二十一中,细颗粒物(PM2.5),78,80,51,57,36,122,5,96,64,63,22,10,9,1.0,0.7
2023-02-27T08:00:00,1402A,108.3141,22.8528,南宁市,北湖,细颗粒物(PM2.5),79,75,58,58,40,118,23,11,10,40,30,25,14,0.8,0.7
2023-02-27T08:00:00,1403A,108.3206,22.8225,南宁市,市监测站,细颗粒物(PM2.5),77,73,49,56,37,118,12,93,70,89,34,17,13,0.9,0.7
2023-02-27T08:00:00,1404A,108.3829,22.8037,南宁市,大自然花园,细颗粒物(PM2.5),69,61,47,50,33,115,24,88,62,50,25,7,9,0.7,0.6
2023-02-27T08:00:00,1405A,108.4394,22.7904,南宁市,仙葫,细颗粒物(PM2.5),72,87,56,52,33,122,4,45,12,54,34,10,11,0.6,0.4
2023-02-27T08:00:00,1406A,108.2397,22.8467,南宁市,区农职院,细颗粒物(PM2.5),59,48,49,42,36,129,49,42,42,25,26,21,16,0.7,0.6
2023-02-27T08:00:00,1407A,108.3275,22.735,南宁市,英华嘉园,细颗粒物(PM2.5),73,83,54,53,35,113,13,68,40,67,30,8,8,0.9,0.7
2023-02-27T08:00:00,1408A,108.2257,22.7757,南宁市,沙井镇街道办,细颗粒物(PM2.5),63,74,60,45,34,114,7,15,11,41,40,7,8,0.7,0.7
2023-02-27T08:00:00,1409A,110.576,19.9507,海口市,东寨港,,,56,35,35,23,86,,70,53,,,,5,0.3,0.8
2023-02-27T08:00:00,1410A,110.3232,20.0574,海口市,海南大学,细颗粒物(PM2.5),70,68,43,51,32,137,137,131,131,14,12,6,6,0.7,0.6
2023-02-27T08:00:00,1411A,110.283,20.0053,海口市,秀英海南医院,细颗粒物(PM2.5),57,54,41,40,26,132,132,122,122,15,12,5,4,0.5,0.5
2023-02-27T08:00:00,1412A,110.338,19.9969,海口市,海南师范大学,,50,50,42,31,25,134,134,120,120,14,11,4,4,0.8,0.7
2023-02-27T08:00:00,1413A,110.33,20.0356,海口市,龙华路环保局宿舍,颗粒物(PM10),52,53,40,35,25,132,131,123,123,15,11,6,6,0.8,0.8
2023-02-27T08:00:00,1414A,106.3787,29.8279,重庆市,缙云山,,46,46,44,32,27,132,83,94,86,16,18,6,6,0.8,0.7
2023-02-27T08:00:00,1416A,106.4213,29.8253,重庆市,天生,细颗粒物(PM2.5),68,52,61,49,41,140,82,82,82,24,31,8,9,0.5,0.6
2023-02-27T08:00:00,1417A,106.6263,29.7228,重庆市,两路,颗粒物(PM10),52,54,54,35,36,114,34,56,50,54,41,8,9,0.9,0.8
2023-02-27T08:00:00,1418A,106.2953,29.5983,重庆市,虎溪,细颗粒物(PM2.5),62,51,53,44,42,132,53,42,42,40,45,11,6,0.8,0.6
2023-02-27T08:00:00,1419A,106.5777,29.5102,重庆市,南坪,细颗粒物(PM2.5),62,61,53,44,34,126,52,65,61,34,24,19,9,0.9,0.6
2023-02-27T08:00:00,1420A,106.6556,29.6277,重庆市,唐家沱,细颗粒物(PM2.5),60,55,57,43,39,128,65,42,42,31,44,15,9,1.0,0.8
2023-02-27T08:00:00,1421A,106.6349,29.4906,重庆市,茶园,细颗粒物(PM2.5),64,69,80,46,39,134,20,48,34,67,53,16,8,1.3,1
2023-02-27T08:00:00,1422A,106.3754,29.4572,重庆市,白市驿,细颗粒物(PM2.5),54,53,61,38,29,129,75,77,76,28,29,12,9,0.4,0.4
2023-02-27T08:00:00,1425A,106.6205,29.7166,重庆市,空港,细颗粒物(PM2.5),65,52,52,47,38,141,35,75,62,70,43,8,8,0.8,0.7
2023-02-27T08:00:00,1426A,106.4782,29.4875,重庆市,新山村,颗粒物(PM10),63,75,62,41,33,124,50,62,60,54,51,12,8,0.7,0.6
2023-02-27T08:00:00,1427A,106.5616,29.6453,重庆市,礼嘉,颗粒物(PM10),61,71,70,42,33,128,35,53,47,66,47,15,10,0.9,0.7
2023-02-27T08:00:00,1428A,106.4522,29.7091,重庆市,蔡家,颗粒物(PM10),68,86,64,43,36,142,26,47,41,62,42,6,7,0.7,0.7
2023-02-27T08:00:00,1429A,106.5093,29.3917,重庆市,鱼新街,细颗粒物(PM2.5),64,61,60,46,40,122,42,27,27,50,54,12,9,0.9,0.9
2023-02-27T08:00:00,1431A,103.9728,30.7236,成都市,金泉两河,细颗粒物(PM2.5),87,101,96,64,68,107,8,26,20,49,40,27,8,0.8,0.7
2023-02-27T08:00:00,1432A,104.176,30.6872,成都市,十里店,细颗粒物(PM2.5),110,120,83,83,58,111,3,30,19,54,40,6,5,0.9,0.8
2023-02-27T08:00:00,1433A,104.079,30.5706,成都市,三瓦窑,细颗粒物(PM2.5),94,98,76,70,48,114,8,30,19,60,43,5,5,0.8,0.6
2023-02-27T08:00:00,1434A,104.1114,30.63,成都市,沙河铺,细颗粒物(PM2.5),115,99,81,87,58,114,7,35,26,53,40,6,6,1.0,0.8
2023-02-27T08:00:00,1437A,104.0786,30.6531,成都市,君平街,细颗粒物(PM2.5),108,108,84,81,65,114,7,36,24,60,47,15,7,0.8,0.7
2023-02-27T08:00:00,1438A,103.613,31.0283,成都市,灵岩寺,细颗粒物(PM2.5),70,82,70,51,51,104,83,84,83,17,20,9,12,0.7,0.7
2023-02-27T08:00:00,1439A,106.6899,26.5998,贵阳市,马鞍山,细颗粒物(PM2.5),73,63,51,53,38,119,20,55,37,19,20,5,7,0.6,0.6
2023-02-27T08:00:00,1440A,106.6971,26.5694,贵阳市,市环保站,细颗粒物(PM2.5),60,56,59,43,44,115,30,74,46,54,33,15,11,0.5,0.5
2023-02-27T08:00:00,1441A,106.6243,26.6266,贵阳市,鉴湖路,颗粒物(PM10),52,53,59,29,34,116,72,80,68,20,24,9,9,0.4,0.4
2023-02-27T08:00:00,1442A,106.7487,26.6343,贵阳市,燕子冲,细颗粒物(PM2.5),64,46,56,46,48,123,11,56,45,42,18,11,8,0.6,0.4
2023-02-27T08:00:00,1443A,106.6555,26.4365,贵阳市,碧云窝,颗粒物(PM10),58,66,76,31,48,124,73,50,39,14,21,18,12,0.6,0.6
2023-02-27T08:00:00,1444A,106.694,26.5161,贵阳市,中院村,"颗粒物(PM10),细颗粒物(PM2.5)",67,83,67,48,41,110,13,60,35,58,35,26,16,0.8,0.6
2023-02-27T08:00:00,1445A,106.7109,26.6027,贵阳市,红边门,细颗粒物(PM2.5),58,58,59,41,48,119,28,73,55,63,28,17,18,0.7,0.6
2023-02-27T08:00:00,1446A,106.7164,26.5699,贵阳市,新华路,,49,48,61,34,42,110,42,48,44,41,28,10,10,0.5,0.5
2023-02-27T08:00:00,1447A,106.674,26.5424,贵阳市,太慈桥,颗粒物(PM10),56,61,68,39,35,114,11,19,18,37,31,3,6,0.6,0.5
2023-02-27T08:00:00,1450A,102.8204,24.8886,昆明市,呈贡新区,细颗粒物(PM2.5),68,49,56,49,45,105,60,66,65,29,25,5,6,1.0,0.8
2023-02-27T08:00:00,1451A,102.6251,24.9608,昆明市,西山森林公园,,49,49,52,27,40,85,83,76,76,9,16,6,7,1.0,1.1
2023-02-27T08:00:00,1452A,102.7252,25.0902,昆明市,龙泉镇,细颗粒物(PM2.5),63,51,68,45,50,86,28,47,45,46,32,6,7,1.0,0.9
2023-02-27T08:00:00,1453A,102.7266,25.0375,昆明市,东风东路,细颗粒物(PM2.5),70,61,70,51,51,86,50,62,61,33,30,8,8,1.1,1
2023-02-27T08:00:00,1454A,102.6742,25.0669,昆明市,金鼎山,细颗粒物(PM2.5),65,57,70,47,50,87,43,59,57,35,30,7,8,0.8,0.8
2023-02-27T08:00:00,1455A,102.6644,25.0401,昆明市,碧鸡广场,细颗粒物(PM2.5),67,62,71,48,48,86,44,49,49,38,37,6,7,0.7,0.7
2023-02-27T08:00:00,1456A,91.1319,29.6514,拉萨市,八廓街,,26,12,19,0,9,102,82,86,84,12,14,4,4,0.5,0.5
2023-02-27T08:00:00,1457A,91.1221,29.6747,拉萨市,市环保局,,26,7,14,7,12,107,82,90,87,10,12,5,6,0.2,0.3
2023-02-27T08:00:00,1458A,91.0874,29.6475,拉萨市,区监测站,,28,6,15,5,8,116,87,96,95,12,13,6,6,0.6,0.6
2023-02-27T08:00:00,1459A,91.1774,29.6541,拉萨市,西藏大学,,26,12,13,6,7,111,83,88,86,11,12,3,4,0.5,0.4
2023-02-27T08:00:00,1460A,90.9798,29.6588,拉萨市,区辐射站,,24,18,15,8,7,114,74,97,90,16,14,6,6,0.5,0.5
2023-02-27T08:00:00,1461A,91.0834,29.6292,拉萨市,拉萨火车站,,25,11,18,4,5,108,78,91,89,11,15,7,8,0.5,0.4
2023-02-27T08:00:00,1462A,108.882,34.2749,西安市,高压开关厂,细颗粒物(PM2.5),166,161,150,126,112,100,38,29,29,32,45,11,10,0.9,0.8
2023-02-27T08:00:00,1463A,108.993,34.2629,西安市,兴庆小区,细颗粒物(PM2.5),175,115,112,132,115,102,35,27,27,32,40,6,8,0.8,1.1
2023-02-27T08:00:00,1464A,109.06,34.2572,西安市,纺织城,细颗粒物(PM2.5),150,129,120,115,104,98,4,5,4,46,48,5,7,1.1,0.8
2023-02-27T08:00:00,1465A,108.9356,34.2173,西安市,小寨,细颗粒物(PM2.5),160,157,155,122,115,92,28,22,22,39,52,8,9,0.8,0.9
2023-02-27T08:00:00,1466A,108.954,34.2713,西安市,市人民体育场,细颗粒物(PM2.5),165,117,118,125,110,100,23,21,21,42,46,8,10,0.7,0.7
2023-02-27T08:00:00,1467A,108.8922,34.2322,西安市,高新西区,细颗粒物(PM2.5),172,126,138,130,124,99,32,27,27,40,49,10,10,0.5,0.6
2023-02-27T08:00:00,1468A,108.935,34.3474,西安市,经开区,细颗粒物(PM2.5),178,134,115,134,116,108,39,37,37,29,36,9,9,0.9,0.8
2023-02-27T08:00:00,1469A,108.906,34.1546,西安市,长安区,细颗粒物(PM2.5),173,194,186,131,132,80,4,4,4,50,58,8,8,1.2,1
2023-02-27T08:00:00,1471A,109.2186,34.3731,西安市,临潼区,细颗粒物(PM2.5),165,142,122,125,104,99,28,32,32,31,33,8,9,0.8,0.7
2023-02-27T08:00:00,1472A,108.869,34.378,西安市,草滩,细颗粒物(PM2.5),98,122,112,73,62,94,27,36,33,37,30,18,14,0.7,0.7
2023-02-27T08:00:00,1473A,108.985,34.1978,西安市,曲江文化产业集团,细颗粒物(PM2.5),160,147,157,122,113,93,16,14,14,46,55,5,6,1.0,1
2023-02-27T08:00:00,1474A,109.051,34.3213,西安市,广运潭,细颗粒物(PM2.5),166,128,120,126,109,98,19,22,19,39,37,7,9,1.0,0.9
2023-02-27T08:00:00,1476A,103.631,36.1031,兰州市,兰炼宾馆,细颗粒物(PM2.5),68,72,86,49,52,107,23,59,33,46,42,7,10,0.9,0.8
2023-02-27T08:00:00,1477A,104.1373,35.9454,兰州市,榆中兰大校区,,,,,,,,,,,,,,,,
2023-02-27T08:00:00,1478A,103.8412,36.0726,兰州市,生物制品所,细颗粒物(PM2.5),65,49,66,47,46,100,48,57,53,22,28,19,6,0.8,0.9
2023-02-27T08:00:00,1479A,103.831,36.0464,兰州市,铁路设计院,细颗粒物(PM2.5),74,57,66,54,50,98,39,61,51,37,35,11,6,0.9,0.9
2023-02-27T08:00:00,1483A,101.524,36.6867,西宁市,第五水厂,,,,,,,,,,,,,,,,
2023-02-27T08:00:00,1484A,105.9512,38.6016,银川市,贺兰山马莲口,颗粒物(PM10),61,71,59,42,40,121,81,91,86,16,21,11,21,0.3,0.4
2023-02-27T08:00:00,1488A,106.2328,38.4975,银川市,贺兰山东路,细颗粒物(PM2.5),78,68,126,57,76,129,43,61,55,28,38,11,10,0.9,1
2023-02-27T08:00:00,1489A,106.1358,38.5036,银川市,学院路,细颗粒物(PM2.5),89,83,117,66,62,108,22,46,34,47,44,10,11,1.0,1
2023-02-27T08:00:00,1490A,87.5801,43.8303,乌鲁木齐市,监测站,,38,23,72,19,36,96,1,1,1,76,56,3,4,1.0,1
2023-02-27T08:00:00,1491A,87.6046,43.768,乌鲁木齐市,收费所,细颗粒物(PM2.5),53,52,84,37,36,80,5,5,5,54,52,3,2,0.8,0.7
2023-02-27T08:00:00,1492A,87.4754,43.9469,乌鲁木齐市,新疆农科院农场,细颗粒物(PM2.5),70,13,21,51,48,104,5,6,5,67,47,8,11,1.2,1
2023-02-27T08:00:00,1493A,87.5525,43.8711,乌鲁木齐市,铁路局,,45,38,75,31,43,104,3,3,3,64,44,4,5,0.9,0.9
2023-02-27T08:00:00,1494A,87.6432,43.831,乌鲁木齐市,三十一中学,,44,44,73,29,34,97,17,72,34,54,25,5,6,0.6,0.6
2023-02-27T08:00:00,1496A,87.7216,44.1747,乌鲁木齐市,米东区环保局,,,,55,,34,89,,95,,,17,,8,,0.5
2023-02-27T08:00:00,1508A,112.9433,27.8614,湘潭市,板塘,细颗粒物(PM2.5),78,78,85,57,76,128,0,13,7,63,44,5,4,0.5,0.5
2023-02-27T08:00:00,1511A,112.9118,27.8403,湘潭市,市监测站,细颗粒物(PM2.5),102,98,80,76,79,136,4,34,13,62,43,8,7,1.0,0.6
2023-02-27T08:00:00,1512A,112.8937,27.8728,湘潭市,江麓,细颗粒物(PM2.5),100,95,98,75,80,154,6,69,24,52,31,9,12,0.8,0.6
2023-02-27T08:00:00,1513A,112.9227,27.8159,湘潭市,岳塘,细颗粒物(PM2.5),119,113,100,90,107,135,8,23,12,49,44,8,6,1.0,0.7
2023-02-27T08:00:00,1514A,112.9074,27.9119,湘潭市,科大,细颗粒物(PM2.5),65,70,100,47,79,145,12,56,25,58,37,7,5,0.7,0.7
2023-02-27T08:00:00,1515A,113.135,27.8244,株洲市,天台山庄,颗粒物(PM10),58,66,88,32,62,142,26,59,48,50,41,8,7,0.8,0.6
2023-02-27T08:00:00,1518A,113.095,27.8867,株洲市,株冶医院,颗粒物(PM10),58,66,87,31,61,138,13,60,31,64,48,13,6,0.7,0.6
2023-02-27T08:00:00,1519A,113.167,27.8667,株洲市,市四中,颗粒物(PM10),54,57,80,29,62,131,28,57,38,39,32,13,11,0.7,0.6
2023-02-27T08:00:00,1520A,113.143,27.8381,株洲市,火车站,颗粒物(PM10),60,70,91,39,96,133,24,50,37,47,41,9,7,1.0,0.9
2023-02-27T08:00:00,1524A,113.13,27.8528,株洲市,市监测站,颗粒物(PM10),56,61,88,37,73,134,35,52,47,41,38,12,10,0.6,0.6
2023-02-27T08:00:00,1552A,106.805,26.3003,贵阳市,桐木岭,,,,,,,,,,,,,,,,
2023-02-27T08:00:00,1559A,113.251,27.8336,株洲市,大京风景区,,31,31,60,19,44,129,27,38,34,9,12,5,6,0.4,0.4
2023-02-27T08:00:00,1562A,113.0048,27.9153,湘潭市,昭山,细颗粒物(PM2.5),59,61,97,42,71,135,9,4,4,55,50,5,3,0.3,0.3
2023-02-27T08:00:00,1564A,112.4876,27.9164,湘潭市,韶山,颗粒物(PM10),51,51,70,29,53,137,37,63,54,16,22,5,5,0.7,0.5
2023-02-27T08:00:00,1585A,109.8756,40.6532,包头市,市环境监测站,细颗粒物(PM2.5),99,101,124,74,85,99,11,25,16,67,59,22,33,1.5,1.3
2023-02-27T08:00:00,1587A,109.9991,40.5842,包头市,包头八中,细颗粒物(PM2.5),129,118,138,98,107,108,17,31,18,64,59,22,29,1.1,1
2023-02-27T08:00:00,1588A,109.8538,40.6821,包头市,青山宾馆,细颗粒物(PM2.5),119,83,129,90,105,100,6,6,6,76,66,13,26,1.4,1.3
2023-02-27T08:00:00,1589A,109.8642,40.6288,包头市,惠龙物流,细颗粒物(PM2.5),107,118,120,80,77,102,19,24,20,61,55,19,19,1.3,0.8
2023-02-27T08:00:00,1590A,110.0377,40.5546,包头市,东河鸿龙湾,细颗粒物(PM2.5),128,139,135,97,87,104,10,10,8,64,54,30,20,1.2,1
2023-02-27T08:00:00,1591A,110.0023,39.8129,鄂尔多斯市,综合楼,细颗粒物(PM2.5),92,92,110,68,75,111,49,61,54,39,36,8,10,0.9,0.8
2023-02-27T08:00:00,1592A,109.9486,39.8261,鄂尔多斯市,巴音孟克林场办事处,细颗粒物(PM2.5),92,92,88,68,62,112,50,67,58,37,30,9,11,1.2,1
2023-02-27T08:00:00,1593A,109.7736,39.5986,鄂尔多斯市,康泽苑,细颗粒物(PM2.5),92,83,90,68,60,110,44,61,52,33,30,4,10,1.2,1
2023-02-27T08:00:00,1594A,109.8119,39.5989,鄂尔多斯市,华泰汽车城,细颗粒物(PM2.5),83,78,90,61,64,113,23,61,52,44,33,8,11,0.9,0.8
2023-02-27T08:00:00,1595A,109.9734,39.7884,鄂尔多斯市,奥林花园,细颗粒物(PM2.5),89,110,110,66,73,113,42,63,52,38,31,7,8,1.2,1.1
2023-02-27T08:00:00,1597A,122.2703,40.7094,营口市,大庆路,颗粒物(PM10),55,59,64,35,50,124,62,91,82,47,32,15,13,0.9,1
2023-02-27T08:00:00,1598A,122.2150,40.6511,营口市,镜湖西路,颗粒物(PM10),53,55,85,32,46,131,73,96,87,34,29,16,14,1.1,1.3
2023-02-27T08:00:00,1599A,122.1658,40.6789,营口市,西炮台,颗粒物(PM10),55,60,72,34,49,142,74,101,91,44,39,13,13,0.9,1
2023-02-27T08:00:00,1600A,124.3303,40.0625,丹东市,江湾东路,细颗粒物(PM2.5),149,150,98,114,69,105,12,33,18,44,29,42,26,4.5,1.6
2023-02-27T08:00:00,1601A,124.4256,40.1503,丹东市,临江后街,细颗粒物(PM2.5),70,75,77,51,50,109,19,36,29,38,22,16,15,1.2,1.2
2023-02-27T08:00:00,1602A,124.3933,40.1461,丹东市,元宝山,细颗粒物(PM2.5),178,204,83,134,53,99,23,39,31,33,28,16,18,1.7,1.4
2023-02-27T08:00:00,1603A,124.3633,40.1092,丹东市,民主桥,细颗粒物(PM2.5),112,113,92,84,59,102,8,26,19,62,34,16,16,2.0,1.3
2023-02-27T08:00:00,1604A,122.0303,41.1489,盘锦市,开发区,细颗粒物(PM2.5),54,44,60,38,48,100,59,94,77,34,29,10,9,0.7,0.8
2023-02-27T08:00:00,1605A,122.0485,41.0883,盘锦市,兴隆台,颗粒物(PM10),54,58,62,36,48,99,56,91,75,34,30,12,11,0.6,0.7
2023-02-27T08:00:00,1606A,121.8297,41.1028,盘锦市,新生街道,细颗粒物(PM2.5),60,39,54,43,51,90,59,83,68,30,33,9,9,0.7,0.9
2023-02-27T08:00:00,1607A,120.9092,40.7136,葫芦岛市,龙港区,,,84,100,62,68,98,,84,70,23,33,10,29,1.1,1.3
2023-02-27T08:00:00,1608A,120.8392,40.7514,葫芦岛市,化工街,细颗粒物(PM2.5),83,88,120,61,77,79,40,51,48,46,56,19,50,1.0,1.4
2023-02-27T08:00:00,1609A,120.8341,40.7073,葫芦岛市,新区,细颗粒物(PM2.5),70,72,90,51,67,91,49,68,62,34,43,21,32,1.3,1.2
2023-02-27T08:00:00,1610A,120.8695,40.7677,葫芦岛市,东城区,细颗粒物(PM2.5),68,74,108,49,71,78,33,49,46,47,51,21,37,1.1,1.4
2023-02-27T08:00:00,1611A,118.5819,24.9117,泉州市,涂山街,,38,38,40,14,14,120,78,99,90,15,13,8,9,0.4,0.4
2023-02-27T08:00:00,1612A,118.5972,24.8978,泉州市,津头埔,,31,31,37,12,14,119,76,99,89,18,17,8,8,0.4,0.3
2023-02-27T08:00:00,1613A,118.6663,24.9424,泉州市,万安,,30,30,36,11,13,123,76,98,90,19,13,7,8,0.4,0.3
2023-02-27T08:00:00,1614A,118.6117,24.9604,泉州市,清源山,,,,,,,,,,,,,,,,
2023-02-27T08:00:00,1616A,117.6795,36.229,济南市,技术学院,细颗粒物(PM2.5),110,149,122,83,69,125,32,24,24,76,66,21,17,1.8,1.1
2023-02-27T08:00:00,1618A,118.3429,35.0532,临沂市,沂河小区,细颗粒物(PM2.5),179,139,92,135,74,100,24,50,34,47,37,28,16,1.2,0.8
2023-02-27T08:00:00,1619A,118.295,35.0583,临沂市,鲁南制药厂,细颗粒物(PM2.5),142,144,92,108,60,106,20,56,33,69,48,36,24,1.0,0.5
2023-02-27T08:00:00,1620A,118.2794,34.9976,临沂市,新光毛纺厂,细颗粒物(PM2.5),159,156,98,121,63,105,28,46,30,109,50,37,21,0.7,0.6
2023-02-27T08:00:00,1621A,118.3956,35.0888,临沂市,河东保险公司,细颗粒物(PM2.5),144,139,92,110,66,109,21,61,40,49,42,24,18,1.3,1.1
2023-02-27T08:00:00,1622A,116.3032,37.4674,德州市,儿童乐园,细颗粒物(PM2.5),89,95,101,66,64,130,58,79,66,39,29,16,12,0.7,0.6
2023-02-27T08:00:00,1624A,116.2991,37.4451,德州市,监理站,细颗粒物(PM2.5),89,110,112,66,70,122,53,71,60,42,33,18,13,0.7,0.6
2023-02-27T08:00:00,1625A,115.9848,36.4372,聊城市,区政府,细颗粒物(PM2.5),87,106,105,64,60,126,60,64,61,34,28,15,17,0.7,0.6
2023-02-27T08:00:00,1628A,118.0062,37.3803,滨州市,市环保局,细颗粒物(PM2.5),114,141,112,86,74,123,34,18,18,68,54,27,22,1.2,0.9
2023-02-27T08:00:00,1629A,118.0018,37.3617,滨州市,第二水厂,细颗粒物(PM2.5),120,153,114,91,71,126,23,10,10,79,60,26,18,1.4,1.1
2023-02-27T08:00:00,1630A,117.9776,37.393,滨州市,北中新校,细颗粒物(PM2.5),104,130,111,78,66,126,28,15,15,68,56,21,23,1.0,0.8
2023-02-27T08:00:00,1631A,118.0414,36.8103,淄博市,人民公园,细颗粒物(PM2.5),102,110,105,76,69,110,65,50,50,46,49,19,20,0.8,0.8
2023-02-27T08:00:00,1633A,117.8525,36.4847,淄博市,双山,细颗粒物(PM2.5),98,112,89,73,62,114,52,64,61,56,38,23,18,1.3,0.9
2023-02-27T08:00:00,1634A,117.9592,36.6331,淄博市,气象站,细颗粒物(PM2.5),79,99,96,58,54,116,87,83,83,31,36,20,21,0.8,0.7
2023-02-27T08:00:00,1635A,118.3092,36.8194,淄博市,莆田园,细颗粒物(PM2.5),94,117,101,70,58,120,53,42,42,49,48,18,21,1.8,1.6
2023-02-27T08:00:00,1637A,117.558,34.8438,枣庄市,市中区政府,,,,124,,68,120,,70,25,,52,,22,,0.9
2023-02-27T08:00:00,1638A,117.2852,34.7837,枣庄市,薛城环保局,细颗粒物(PM2.5),89,103,92,66,58,116,56,62,61,58,52,17,17,0.7,0.7
2023-02-27T08:00:00,1639A,117.5852,34.7745,枣庄市,峄城区政府,细颗粒物(PM2.5),125,156,119,95,69,118,23,60,38,68,57,28,19,0.9,0.7
2023-02-27T08:00:00,1640A,117.7276,34.5578,枣庄市,台儿庄区环保局,细颗粒物(PM2.5),122,151,115,92,70,116,15,48,27,72,63,12,13,1.3,1
2023-02-27T08:00:00,1641A,117.4518,35.0992,枣庄市,山亭区环保局,细颗粒物(PM2.5),70,85,84,51,55,114,74,82,80,45,37,16,17,0.8,0.7
2023-02-27T08:00:00,1642A,121.2514,37.5639,烟台市,开发区,,46,46,55,27,35,75,26,49,44,56,49,11,13,0.5,0.5
2023-02-27T08:00:00,1643A,121.3719,37.5433,烟台市,轴承厂,,46,46,43,27,25,89,52,78,71,34,25,5,9,0.6,0.6
2023-02-27T08:00:00,1644A,121.3181,37.5436,烟台市,西郊化工站,颗粒物(PM10),54,58,53,26,24,94,50,77,68,42,30,11,14,1.3,1.2
2023-02-27T08:00:00,1645A,121.4478,37.4822,烟台市,莱山环保局,,34,34,45,23,27,82,64,77,74,19,31,10,13,0.8,0.9
2023-02-27T08:00:00,1646A,121.2611,37.4967,烟台市,福山环保局,颗粒物(PM10),71,92,72,34,40,93,24,31,30,54,46,10,12,1.0,1.1
2023-02-27T08:00:00,1650A,119.1437,36.7023,潍坊市,环保局,细颗粒物(PM2.5),99,119,74,74,44,93,16,38,26,72,42,16,11,1.4,0.9
2023-02-27T08:00:00,1653A,116.6251,35.4302,济宁市,火炬城,细颗粒物(PM2.5),92,75,73,68,59,128,49,65,57,46,31,12,11,0.8,0.6
2023-02-27T08:00:00,1655A,116.5491,35.4042,济宁市,电化厂,细颗粒物(PM2.5),85,84,73,63,56,122,63,83,76,39,26,9,9,0.7,0.6
2023-02-27T08:00:00,1656A,117.1437,36.1937,泰安市,监测站,细颗粒物(PM2.5),144,153,94,110,66,117,19,75,58,68,33,19,11,1.3,0.9
2023-02-27T08:00:00,1657A,117.0885,36.2017,泰安市,人口学校,细颗粒物(PM2.5),72,85,85,52,50,135,92,100,94,27,26,15,16,0.9,1
2023-02-27T08:00:00,1658A,117.1089,36.1758,泰安市,电力学校,细颗粒物(PM2.5),124,144,93,94,62,124,23,70,60,72,40,20,20,1.6,1.1
2023-02-27T08:00:00,1659A,119.471,35.4209,日照市,监测站,细颗粒物(PM2.5),90,114,78,67,43,84,2,2,1,54,59,15,15,1.7,1.1
2023-02-27T08:00:00,1660A,119.523,35.4216,日照市,市政府广场,细颗粒物(PM2.5),75,92,65,55,36,89,6,34,13,54,43,8,8,1.5,0.9
2023-02-27T08:00:00,1661A,119.5587,35.4044,日照市,港务局,颗粒物(PM10),78,105,72,52,39,97,4,52,23,68,50,14,12,1.6,1
2023-02-27T08:00:00,1662A,122.1214,37.4236,威海市,华夏技校,,26,24,28,17,17,102,82,100,91,16,17,2,4,0.3,0.4
2023-02-27T08:00:00,1663A,122.0508,37.5236,威海市,山大分校,,29,24,30,20,14,101,79,101,95,19,16,2,5,0.2,0.3
2023-02-27T08:00:00,1664A,122.1067,37.5072,威海市,市监测站,,27,24,31,10,15,101,39,99,85,53,24,6,10,0.6,0.4
2023-02-27T08:00:00,1666A,118.6614,37.4309,东营市,市环保局,细颗粒物(PM2.5),107,117,80,80,55,125,29,26,22,62,45,28,20,1.3,1
2023-02-27T08:00:00,1669A,113.5824,24.7733,韶关市,市八中,细颗粒物(PM2.5),68,72,58,49,47,119,22,74,48,34,20,36,15,0.7,0.6
2023-02-27T08:00:00,1671A,113.5917,24.7972,韶关市,园林处,细颗粒物(PM2.5),77,65,61,56,54,118,20,88,50,43,19,18,14,0.7,0.6
2023-02-27T08:00:00,1672A,113.6735,24.7791,韶关市,韶关学院,细颗粒物(PM2.5),77,61,68,56,60,130,14,60,36,25,24,8,18,0.7,0.7
2023-02-27T08:00:00,1673A,113.5971,24.6863,韶关市,曲江监测站,细颗粒物(PM2.5),68,57,62,49,49,131,22,33,30,35,26,11,13,1.0,0.8
2023-02-27T08:00:00,1674A,116.6794,23.3667,汕头市,金平子站,,25,14,42,15,22,136,35,92,69,50,20,26,14,0.8,0.6
2023-02-27T08:00:00,1675A,116.7244,23.3633,汕头市,龙湖子站,,24,24,50,9,19,136,67,94,76,28,20,23,7,0.7,0.6
2023-02-27T08:00:00,1676A,116.7258,23.2775,汕头市,濠江子站,,26,18,38,7,16,129,82,94,82,12,13,10,10,0.5,0.5
2023-02-27T08:00:00,1677A,116.7519,23.4714,汕头市,澄海子站,,25,17,47,17,23,137,61,86,76,32,22,39,13,0.6,0.5
2023-02-27T08:00:00,1678A,116.6092,23.2539,汕头市,潮阳子站,,26,26,47,4,14,118,63,84,72,22,15,10,7,0.7,0.6
2023-02-27T08:00:00,1680A,110.3539,21.2706,湛江市,湛江影剧院,,,69,49,58,38,132,64,117,92,,16,56,16,0.7,0.6
2023-02-27T08:00:00,1681A,110.3928,21.2228,湛江市,市环境监测站,细颗粒物(PM2.5),83,59,47,61,40,129,70,110,95,23,16,26,12,0.8,0.7
2023-02-27T08:00:00,1682A,110.4019,21.1997,湛江市,环保局宿舍,细颗粒物(PM2.5),74,66,44,54,39,125,73,116,95,25,16,20,10,0.8,0.7
2023-02-27T08:00:00,1683A,110.4111,21.2028,湛江市,霞山游泳场,细颗粒物(PM2.5),74,67,53,54,39,130,83,121,97,21,15,24,12,0.9,0.8
2023-02-27T08:00:00,1684A,110.3316,21.2679,湛江市,麻章区环保局,细颗粒物(PM2.5),93,69,52,69,44,138,30,122,78,53,22,26,14,0.7,0.6
2023-02-27T08:00:00,1685A,110.4558,21.2567,湛江市,坡头区环保局,细颗粒物(PM2.5),80,68,48,59,42,109,71,101,84,19,14,19,11,0.8,0.7
2023-02-27T08:00:00,1686A,111.0286,21.4688,茂名市,电白南海,颗粒物(PM10),65,80,61,41,36,132,46,94,68,26,19,9,9,0.7,0.6
2023-02-27T08:00:00,1687A,110.9294,21.6533,茂名市,茂石化七小,细颗粒物(PM2.5),58,53,55,41,40,121,71,98,83,24,16,12,14,0.7,0.6
2023-02-27T08:00:00,1688A,110.9107,21.6687,茂名市,健康路,细颗粒物(PM2.5),69,68,53,50,35,121,72,105,85,28,17,40,20,0.8,0.7
2023-02-27T08:00:00,1689A,110.8592,21.6828,茂名市,高岭,细颗粒物(PM2.5),83,80,67,61,44,125,32,100,54,34,23,20,18,0.8,0.8
2023-02-27T08:00:00,1690A,116.1231,24.3284,梅州市,梅江月梅,,46,46,47,24,27,117,40,70,56,36,24,8,9,0.5,0.5
2023-02-27T08:00:00,1691A,116.0797,24.2719,梅州市,梅县新城,颗粒物(PM10),52,54,51,24,30,114,54,31,31,34,36,11,9,0.7,0.7
2023-02-27T08:00:00,1692A,116.1248,24.2654,梅州市,环境监控中心,,49,49,54,22,31,114,65,47,47,23,34,13,12,0.6,0.7
2023-02-27T08:00:00,1693A,115.3653,22.775,汕尾市,市环保局,,45,45,42,18,20,148,68,97,81,18,11,12,10,0.6,0.6
2023-02-27T08:00:00,1694A,115.3706,22.7898,汕尾市,市政府,,37,37,39,10,24,154,52,100,76,26,12,11,10,0.6,0.5
2023-02-27T08:00:00,1695A,115.3622,22.7925,汕尾市,新城中学,颗粒物(PM10),52,53,49,27,23,149,57,99,75,19,11,9,8,0.6,0.5
2023-02-27T08:00:00,1696A,114.6778,23.7569,河源市,源西,细颗粒物(PM2.5),75,59,55,55,41,132,47,71,64,39,26,16,8,0.8,0.7
2023-02-27T08:00:00,1697A,114.6944,23.7586,河源市,东埔,细颗粒物(PM2.5),78,70,62,57,47,118,67,96,82,24,20,5,5,0.6,0.6
2023-02-27T08:00:00,1698A,114.6892,23.7233,河源市,老城,细颗粒物(PM2.5),67,68,68,48,44,122,37,80,65,31,19,6,6,0.9,0.7
2023-02-27T08:00:00,1699A,111.9797,21.8593,阳江市,鸳鸯湖,细颗粒物(PM2.5),69,54,56,50,51,121,68,76,69,25,22,14,13,0.8,0.8
2023-02-27T08:00:00,1701A,111.9491,21.8658,阳江市,马南垌,颗粒物(PM10),64,77,68,33,45,121,69,55,49,40,34,11,10,0.7,0.7
2023-02-27T08:00:00,1702A,113.0426,23.691,清远市,环保大楼,细颗粒物(PM2.5),77,66,51,56,44,125,73,94,83,32,18,12,8,0.7,0.7
2023-02-27T08:00:00,1703A,113.0208,23.7106,清远市,凤城街办,细颗粒物(PM2.5),69,70,57,50,40,110,65,84,67,27,17,8,7,0.6,0.5
2023-02-27T08:00:00,1705A,116.6367,23.6719,潮州市,西园路,,34,34,50,23,27,133,48,86,62,17,13,4,4,0.7,0.6
2023-02-27T08:00:00,1706A,116.6447,23.6706,潮州市,档案局,,34,34,51,16,23,140,48,79,57,20,17,7,8,0.3,0.3
2023-02-27T08:00:00,1708A,116.3701,23.5345,揭阳市,新兴,细颗粒物(PM2.5),59,58,52,42,28,141,20,76,48,36,17,10,13,0.8,0.6
2023-02-27T08:00:00,1709A,116.3264,23.5443,揭阳市,西马,颗粒物(PM10),52,54,57,26,25,149,30,79,46,33,18,12,13,0.5,0.5
2023-02-27T08:00:00,1710A,116.3611,23.5626,揭阳市,东兴,颗粒物(PM10),53,56,55,31,24,159,14,77,44,52,24,33,13,0.8,0.6
2023-02-27T08:00:00,1711A,116.4151,23.5294,揭阳市,渔湖,,49,47,51,34,30,140,23,80,43,45,22,19,15,0.6,0.5
2023-02-27T08:00:00,1712A,112.0392,22.9169,云浮市,新市府,,42,35,31,29,26,117,23,63,44,15,12,2,3,0.8,0.7
2023-02-27T08:00:00,1714A,112.0539,22.9539,云浮市,牧羊,颗粒物(PM10),57,63,48,30,26,107,12,48,22,40,28,22,11,0.6,0.6
2023-02-27T08:00:00,1715A,102.575,24.3711,玉溪市,东风水库,细颗粒物(PM2.5),59,47,48,42,34,91,64,50,50,15,16,7,6,0.8,0.7
2023-02-27T08:00:00,1718A,115.4208,35.2464,菏泽市,气象局,细颗粒物(PM2.5),80,99,87,59,52,117,55,75,67,39,28,11,17,0.6,0.5
2023-02-27T08:00:00,1719A,115.4747,35.2375,菏泽市,市政协,,,,80,62,47,125,53,94,78,44,28,10,15,0.7,0.5
2023-02-27T08:00:00,1721A,113.3819,40.1097,大同市,果树场,,,,,,,,,,,,,,,,
2023-02-27T08:00:00,1723A,113.2994,40.0758,大同市,云冈宾馆,细颗粒物(PM2.5),172,225,154,130,97,118,5,17,6,70,66,33,20,1.8,1.2
2023-02-27T08:00:00,1724A,113.3444,40.0917,大同市,大同大学,细颗粒物(PM2.5),160,176,125,122,84,124,13,56,41,78,48,17,17,1.5,0.9
2023-02-27T08:00:00,1725A,113.2661,40.1269,大同市,安家小村,细颗粒物(PM2.5),168,253,184,127,96,117,30,42,27,50,43,23,22,1.1,1.1
2023-02-27T08:00:00,1726A,113.2711,40.0844,大同市,教育学院,细颗粒物(PM2.5),144,222,149,110,83,114,10,11,9,73,60,55,22,1.6,1.2
2023-02-27T08:00:00,1727A,113.1147,36.1547,长治市,清华站,细颗粒物(PM2.5),113,78,74,85,73,104,60,78,72,32,20,6,8,0.8,0.7
2023-02-27T08:00:00,1728A,113.1031,36.1989,长治市,监测站,细颗粒物(PM2.5),117,94,76,88,76,96,27,72,63,47,22,4,5,1.3,0.9
2023-02-27T08:00:00,1730A,113.0886,36.2125,长治市,审计局,细颗粒物(PM2.5),119,86,75,90,83,96,18,70,62,66,29,8,7,1.0,0.6
2023-02-27T08:00:00,1731A,113.0844,36.1856,长治市,长治八中,细颗粒物(PM2.5),90,106,88,67,64,97,32,75,66,37,19,5,5,1.4,0.8
2023-02-27T08:00:00,1733A,111.5531,36.0783,临汾市,临钢医院,细颗粒物(PM2.5),129,144,132,98,101,115,10,36,27,39,29,2,3,1.0,0.8
2023-02-27T08:00:00,1734A,111.5028,36.0714,临汾市,技工学校,细颗粒物(PM2.5),149,136,131,114,106,111,38,48,46,31,29,4,6,1.1,1.1
2023-02-27T08:00:00,1736A,111.5018,36.0855,临汾市,市委,细颗粒物(PM2.5),142,142,135,108,105,115,44,53,50,32,30,3,4,1.0,1
2023-02-27T08:00:00,1738A,113.5758,37.8572,阳泉市,市中心,细颗粒物(PM2.5),215,251,195,165,131,85,3,2,2,62,58,19,15,2.5,1.4
2023-02-27T08:00:00,1739A,113.4894,37.8731,阳泉市,赛鱼,细颗粒物(PM2.5),175,174,174,132,132,79,5,5,5,69,61,11,11,1.2,1.3
2023-02-27T08:00:00,1740A,113.5819,37.8486,阳泉市,南庄,细颗粒物(PM2.5),170,199,194,129,126,87,7,16,7,55,53,13,15,1.8,1.5
2023-02-27T08:00:00,1742A,113.5614,37.8703,阳泉市,平坦,细颗粒物(PM2.5),214,239,202,164,136,88,6,6,5,62,66,16,17,2.4,1.6
2023-02-27T08:00:00,1743A,113.5158,37.8392,阳泉市,大阳泉,细颗粒物(PM2.5),117,117,147,88,118,83,47,65,44,36,45,9,14,0.9,1.2
2023-02-27T08:00:00,1744A,118.9233,42.2816,赤峰市,松山一中,细颗粒物(PM2.5),150,147,66,115,42,105,84,101,98,34,26,14,14,1.1,0.8
2023-02-27T08:00:00,1745A,118.9576,42.2728,赤峰市,哈达街,细颗粒物(PM2.5),115,117,55,87,35,105,69,94,91,48,26,12,12,1.1,0.7
2023-02-27T08:00:00,1746A,118.8788,42.2554,赤峰市,天义路,细颗粒物(PM2.5),102,118,50,76,26,103,94,99,98,25,19,14,14,1.0,0.7
2023-02-27T08:00:00,1748A,123.044,41.1196,鞍山市,深沟寺,细颗粒物(PM2.5),82,90,70,60,43,107,107,98,98,20,25,12,17,0.8,1.1
2023-02-27T08:00:00,1749A,123.011,41.0931,鞍山市,太阳城,细颗粒物(PM2.5),82,94,80,60,46,106,106,94,94,22,33,13,20,0.7,1.2
2023-02-27T08:00:00,1750A,123.0485,41.1442,鞍山市,太平,细颗粒物(PM2.5),82,96,78,60,45,99,95,89,89,28,34,14,21,0.7,1.1
2023-02-27T08:00:00,1751A,122.9642,41.0971,鞍山市,铁西三道街,细颗粒物(PM2.5),88,116,88,65,48,87,76,76,74,50,37,28,19,1.7,1.3
2023-02-27T08:00:00,1752A,122.9341,41.0833,鞍山市,铁西工业园区,细颗粒物(PM2.5),87,97,78,64,46,99,99,89,89,23,30,14,20,0.7,1.1
2023-02-27T08:00:00,1753A,123.022,41.0821,鞍山市,明达新区,细颗粒物(PM2.5),83,90,77,61,46,109,109,101,101,26,31,12,16,0.7,1
2023-02-27T08:00:00,1754A,123.1289,41.0228,鞍山市,千山,,,,,,,,,,,,,,,,
2023-02-27T08:00:00,1755A,123.7977,41.8491,抚顺市,望花区,细颗粒物(PM2.5),92,100,94,68,59,84,20,46,18,52,46,14,17,1.4,1.3
2023-02-27T08:00:00,1756A,123.9161,41.8822,抚顺市,顺城区,细颗粒物(PM2.5),84,99,80,62,45,97,9,11,6,53,46,8,14,1.4,1.2
2023-02-27T08:00:00,1757A,124.0436,41.8611,抚顺市,东洲区,细颗粒物(PM2.5),94,84,79,70,49,96,25,34,26,34,29,11,14,1.5,1.5
2023-02-27T08:00:00,1758A,123.9247,41.8642,抚顺市,新抚区,细颗粒物(PM2.5),103,82,86,77,55,83,12,12,9,45,38,7,14,1.5,1.5
2023-02-27T08:00:00,1759A,124.0972,41.8961,抚顺市,大伙房水库,细颗粒物(PM2.5),62,62,68,44,46,107,52,41,30,22,27,6,11,0.8,1.1
2023-02-27T08:00:00,1760A,123.7086,41.8391,抚顺市,沈抚新城,,,,90,,54,95,,38,32,50,45,30,29,,1.8
2023-02-27T08:00:00,1761A,123.8275,41.3064,本溪市,大峪,颗粒物(PM10),69,87,66,37,29,66,33,14,14,50,45,8,15,1.1,1.3
2023-02-27T08:00:00,1762A,123.7567,41.3325,本溪市,溪湖,颗粒物(PM10),66,81,76,38,39,87,66,22,22,45,50,26,39,1.0,2.1
2023-02-27T08:00:00,1763A,123.7169,41.3094,本溪市,彩屯,细颗粒物(PM2.5),90,109,96,67,55,83,38,40,37,59,47,82,40,3.8,2.5
2023-02-27T08:00:00,1764A,123.7669,41.2864,本溪市,东明,颗粒物(PM10),59,68,83,36,42,70,66,33,33,36,56,23,26,0.8,1.7
2023-02-27T08:00:00,1765A,123.7992,41.2664,本溪市,新立屯,,50,50,51,34,28,90,82,67,67,25,43,11,14,0.6,0.8
2023-02-27T08:00:00,1766A,123.8142,41.3472,本溪市,威宁,细颗粒物(PM2.5),89,109,74,66,37,78,14,8,8,52,47,7,13,1.5,1.2
2023-02-27T08:00:00,1767A,121.1115,41.0879,锦州市,南山,细颗粒物(PM2.5),89,85,105,66,83,75,38,46,45,45,48,52,31,0.9,0.9
2023-02-27T08:00:00,1768A,121.0533,40.8434,锦州市,开发区,细颗粒物(PM2.5),75,66,121,55,80,87,40,58,53,38,48,16,38,0.8,1.1
2023-02-27T08:00:00,1769A,121.1836,41.1119,锦州市,百股街道,颗粒物(PM10),84,117,116,61,77,77,49,61,57,40,51,26,39,0.8,0.9
2023-02-27T08:00:00,1770A,121.1178,41.1222,锦州市,天安街道,细颗粒物(PM2.5),80,89,108,59,78,74,37,48,46,53,56,52,31,1.3,1.3
2023-02-27T08:00:00,1771A,121.1303,41.1386,锦州市,北湖公园,细颗粒物(PM2.5),82,82,101,60,75,71,39,51,49,54,55,51,31,1.0,1.1
2023-02-27T08:00:00,1772A,126.54,43.8622,吉林市,哈达湾,,43,43,40,25,24,96,69,76,73,28,20,12,11,0.8,0.8
2023-02-27T08:00:00,1773A,126.5844,43.8358,吉林市,东局子,颗粒物(PM10),51,52,43,30,26,92,43,73,65,49,21,13,12,0.9,0.7
2023-02-27T08:00:00,1774A,126.5052,43.8245,吉林市,电力学院,颗粒物(PM10),51,52,43,31,27,98,60,65,64,38,24,12,11,1.1,0.9
2023-02-27T08:00:00,1775A,126.6133,43.8972,吉林市,江北,,38,38,43,22,25,93,76,78,74,26,20,15,19,0.8,0.7
2023-02-27T08:00:00,1776A,126.555,43.8306,吉林市,江南公园,,47,47,41,29,24,96,49,75,68,49,22,24,13,0.9,0.6
2023-02-27T08:00:00,1778A,126.7061,43.7133,吉林市,丰满,,,,,,,,,,,,,,,,
2023-02-27T08:00:00,1779A,123.9305,47.3636,齐齐哈尔市,安居小区,,49,49,64,26,36,92,42,70,61,23,13,9,7,0.7,0.5
2023-02-27T08:00:00,1780A,123.9488,47.3386,齐齐哈尔市,中心广场,,40,40,50,20,26,84,38,63,57,22,15,9,7,0.6,0.5
2023-02-27T08:00:00,1781A,123.9483,47.3227,齐齐哈尔市,农牧车辆厂,颗粒物(PM10),54,58,64,19,30,79,38,58,51,24,20,10,9,0.4,0.5
2023-02-27T08:00:00,1783A,123.945,47.2988,齐齐哈尔市,市环境监测站,颗粒物(PM10),54,58,60,32,32,89,46,67,61,20,16,12,11,0.4,0.4
2023-02-27T08:00:00,1784A,129.61,44.561,牡丹江市,环保大楼,颗粒物(PM10),73,96,41,41,25,88,24,61,33,46,25,12,9,1.2,0.6
2023-02-27T08:00:00,1785A,129.6115,44.5782,牡丹江市,文化广场,细颗粒物(PM2.5),54,53,50,38,32,80,14,58,18,67,37,10,7,1.2,0.6
2023-02-27T08:00:00,1786A,129.5904,44.5963,牡丹江市,第一医院,颗粒物(PM10),73,95,60,51,38,88,13,38,31,60,32,6,5,1.5,0.8
2023-02-27T08:00:00,1787A,129.6364,44.6075,牡丹江市,机车工厂,颗粒物(PM10),79,108,63,51,38,84,12,20,16,58,36,3,3,1.3,0.6
2023-02-27T08:00:00,1788A,129.6386,44.5462,牡丹江市,第一中学,,46,46,36,29,22,89,26,73,40,44,23,7,5,0.8,0.4
2023-02-27T08:00:00,1789A,124.81117,46.03138,大庆市,大同区,细颗粒物(PM2.5),113,135,72,85,32,76,52,63,54,27,13,9,7,1.1,0.6
2023-02-27T08:00:00,1790A,125.129,46.533,大庆市,龙凤区,颗粒物(PM10),72,93,51,46,22,74,40,55,47,22,15,8,9,0.8,0.6
2023-02-27T08:00:00,1791A,124.902,46.408,大庆市,红岗区,颗粒物(PM10),76,102,43,44,20,83,42,61,51,27,14,9,9,0.7,0.3
2023-02-27T08:00:00,1792A,125.153,46.586,大庆市,萨尔图区,细颗粒物(PM2.5),68,62,58,49,33,71,36,53,45,29,22,9,13,0.9,0.5
2023-02-27T08:00:00,1793A,124.9042,46.6215,大庆市,让胡路区,颗粒物(PM10),53,56,42,20,21,83,44,68,58,27,17,7,6,0.8,0.5
2023-02-27T08:00:00,1794A,118.3606,31.3519,芜湖市,监测站,细颗粒物(PM2.5),97,90,59,72,38,100,30,56,40,50,46,9,9,0.8,0.7
2023-02-27T08:00:00,1795A,118.3714,31.4134,芜湖市,科创中心,细颗粒物(PM2.5),85,80,60,63,40,102,27,44,32,46,40,8,8,0.7,0.6
2023-02-27T08:00:00,1796A,118.3673,31.3131,芜湖市,四水厂,细颗粒物(PM2.5),97,96,65,72,38,102,33,62,43,44,36,10,10,0.8,0.6
2023-02-27T08:00:00,1798A,118.5092,31.6837,马鞍山市,湖东路四小,细颗粒物(PM2.5),84,55,44,62,36,102,29,56,42,52,39,10,10,0.7,0.7
2023-02-27T08:00:00,1799A,118.5024,31.6449,马鞍山市,开发区,细颗粒物(PM2.5),82,52,52,60,40,103,30,44,30,52,44,10,10,0.8,0.8
2023-02-27T08:00:00,1800A,118.5228,31.7231,马鞍山市,慈湖,细颗粒物(PM2.5),152,121,62,116,48,104,22,64,36,55,36,19,14,1.2,0.9
2023-02-27T08:00:00,1802A,118.6245,31.7241,马鞍山市,濮塘,细颗粒物(PM2.5),68,81,51,49,28,108,26,66,41,41,24,4,5,0.8,0.8
2023-02-27T08:00:00,1803A,115.9872,29.6815,九江市,十里,颗粒物(PM10),56,62,44,31,24,103,30,57,48,48,32,11,9,0.8,0.6
2023-02-27T08:00:00,1804A,115.9584,29.7046,九江市,茅山头,细颗粒物(PM2.5),58,60,43,41,27,102,12,57,46,48,28,12,12,0.8,0.7
2023-02-27T08:00:00,1805A,115.9877,29.7295,九江市,西园,细颗粒物(PM2.5),57,50,38,40,30,101,39,56,48,39,30,11,8,0.9,0.6
2023-02-27T08:00:00,1806A,116.0172,29.6547,九江市,五七二七厂,细颗粒物(PM2.5),73,60,37,53,26,98,28,73,52,44,23,10,9,1.5,0.7
2023-02-27T08:00:00,1808A,115.9114,29.6038,九江市,综合工业园,细颗粒物(PM2.5),67,45,37,48,33,97,24,47,36,46,30,9,10,1.2,0.7
2023-02-27T08:00:00,1809A,116.0721,29.7535,九江市,石化总厂,颗粒物(PM10),54,57,41,33,22,103,27,48,40,51,36,11,9,0.7,0.5
2023-02-27T08:00:00,1810A,115.9773,29.5698,九江市,庐山气象台,,28,3,15,4,16,90,89,90,89,8,19,6,7,0.1,0.3
2023-02-27T08:00:00,1812A,112.3931,34.6516,洛阳市,市委党校,细颗粒物(PM2.5),162,175,180,123,127,101,11,13,12,57,56,8,9,1.2,1
2023-02-27T08:00:00,1814A,112.4657,34.6871,洛阳市,豫西宾馆,细颗粒物(PM2.5),166,164,166,126,127,93,6,22,7,53,47,2,4,1.1,0.9
2023-02-27T08:00:00,1815A,112.494,34.6886,洛阳市,河南林校,细颗粒物(PM2.5),156,160,152,119,121,102,4,23,6,54,49,3,6,1.0,0.9
2023-02-27T08:00:00,1816A,112.3844,34.623,洛阳市,开发区管委会,细颗粒物(PM2.5),84,93,148,62,113,106,14,22,21,59,49,6,6,0.8,0.7
2023-02-27T08:00:00,1817A,112.4267,34.6258,洛阳市,市委新办公区,细颗粒物(PM2.5),119,110,159,90,144,103,8,11,6,62,60,5,6,0.7,0.9
2023-02-27T08:00:00,1818A,114.4839,36.0621,安阳市,棉研所,,,,,,,,,,,,,,,,
2023-02-27T08:00:00,1819A,114.3551,36.1017,安阳市,红庙街,细颗粒物(PM2.5),82,71,100,60,79,112,50,64,57,46,38,11,10,0.8,0.8
2023-02-27T08:00:00,1820A,114.361,36.0681,安阳市,银杏小区,细颗粒物(PM2.5),80,69,93,59,83,113,47,59,54,39,31,11,10,0.6,0.7
2023-02-27T08:00:00,1824A,114.3389,34.7781,开封市,肿瘤医院,细颗粒物(PM2.5),85,79,86,63,61,112,37,44,38,44,30,18,11,0.9,0.8
2023-02-27T08:00:00,1826A,114.2885,34.7965,开封市,世纪星幼儿园,细颗粒物(PM2.5),80,86,74,59,54,114,43,67,56,36,22,24,13,0.9,0.7
2023-02-27T08:00:00,1828A,113.227,35.2125,焦作市,市环保局,细颗粒物(PM2.5),89,106,123,66,84,109,34,60,49,46,30,19,11,0.8,0.7
2023-02-27T08:00:00,1830A,113.1992,35.2590,焦作市,影视城,,,,,,,,,,,,,,,,
2023-02-27T08:00:00,1832A,113.3257,33.742,平顶山市,新华旅馆,颗粒物(PM10),90,130,100,61,65,116,16,46,34,79,40,11,9,0.8,0.7
2023-02-27T08:00:00,1833A,113.2919,33.737,平顶山市,规划设计院,细颗粒物(PM2.5),79,95,92,58,66,119,24,64,47,51,33,7,5,0.7,0.7
2023-02-27T08:00:00,1834A,113.182,33.774,平顶山市,平顶山工学院,,,88,98,51,62,119,,,,40,26,7,5,0.6,0.5
2023-02-27T08:00:00,1835A,111.1922,34.7752,三门峡市,市政府,细颗粒物(PM2.5),147,105,125,112,135,87,12,78,45,66,32,11,10,1.2,0.9
2023-02-27T08:00:00,1836A,111.1587,34.7942,三门峡市,开发区,细颗粒物(PM2.5),172,166,186,130,139,86,39,76,59,37,31,20,14,0.9,0.9
2023-02-27T08:00:00,1838A,111.143,34.7955,三门峡市,风景区,,,,,,,,,,,,,,,,
2023-02-27T08:00:00,1840A,111.2992,30.6981,宜昌市,白龙岗,细颗粒物(PM2.5),134,114,124,102,105,138,20,58,50,43,32,3,5,0.8,0.7
2023-02-27T08:00:00,1841A,111.3549,30.6465,宜昌市,伍家岗,细颗粒物(PM2.5),138,141,145,105,110,139,6,7,7,33,34,8,8,0.8,0.7
2023-02-27T08:00:00,1842A,111.2628,30.6961,宜昌市,点军区,细颗粒物(PM2.5),119,104,129,90,105,127,8,36,24,26,26,4,6,0.6,0.7
2023-02-27T08:00:00,1843A,111.3275,30.7819,宜昌市,夷陵区,细颗粒物(PM2.5),128,115,129,97,101,132,9,41,30,41,32,6,7,0.9,0.6
2023-02-27T08:00:00,1844A,112.2494,30.3197,荆州市,市图书馆,细颗粒物(PM2.5),125,75,85,95,87,126,20,10,10,63,52,11,7,1.0,0.7
2023-02-27T08:00:00,1845A,112.2008,30.3544,荆州市,市委党校,细颗粒物(PM2.5),123,88,96,93,90,128,5,4,4,59,52,7,7,1.1,1
2023-02-27T08:00:00,1847A,113.1094,29.3578,岳阳市,南湖风景区,细颗粒物(PM2.5),65,60,67,47,51,133,17,41,35,51,36,8,7,0.8,0.5
2023-02-27T08:00:00,1848A,113.1493,29.4251,岳阳市,城陵矶,细颗粒物(PM2.5),60,62,70,43,48,116,6,19,15,67,54,6,6,0.6,0.5
2023-02-27T08:00:00,1849A,113.1497,29.3575,岳阳市,开发区,细颗粒物(PM2.5),57,46,65,40,60,130,20,34,32,42,39,9,8,0.5,0.5
2023-02-27T08:00:00,1850A,113.2621,29.4758,岳阳市,云溪区,颗粒物(PM10),51,51,58,30,35,127,15,36,24,50,29,8,8,0.5,0.4
2023-02-27T08:00:00,1851A,112.9943,29.4402,岳阳市,君山区,细颗粒物(PM2.5),79,68,63,58,57,138,25,63,31,42,34,7,8,0.5,0.5
2023-02-27T08:00:00,1852A,113.2117,29.355,岳阳市,金凤水库,细颗粒物(PM2.5),52,48,64,36,47,124,46,32,32,16,26,6,6,0.6,0.7
2023-02-27T08:00:00,1854A,111.6975,28.9703,常德市,市二中,细颗粒物(PM2.5),107,105,116,80,98,117,5,29,13,25,27,5,6,0.8,0.7
2023-02-27T08:00:00,1857A,111.7158,29.1456,常德市,白鹤山,颗粒物(PM10),53,55,91,33,57,123,73,99,88,9,11,4,5,0.6,0.7
2023-02-27T08:00:00,1858A,110.5319,29.1217,张家界市,永定新区,细颗粒物(PM2.5),99,80,86,74,68,113,13,58,36,32,22,4,4,0.9,0.7
2023-02-27T08:00:00,1859A,110.4697,29.1242,张家界市,电业局,细颗粒物(PM2.5),95,86,84,71,65,116,12,66,34,30,19,4,5,0.7,0.6
2023-02-27T08:00:00,1860A,110.5594,29.3547,张家界市,未央路,细颗粒物(PM2.5),89,80,84,66,67,118,17,30,26,19,20,5,5,0.9,0.9
2023-02-27T08:00:00,1861A,110.4417,29.315,张家界市,袁家界,细颗粒物(PM2.5),72,75,66,52,52,113,72,79,71,12,17,7,7,0.6,0.5
2023-02-27T08:00:00,1862A,110.4144,25.3167,桂林市,电子科大尧山校区,细颗粒物(PM2.5),62,54,48,44,39,125,73,108,98,14,13,4,6,0.7,0.7
2023-02-27T08:00:00,1863A,110.2819,25.2697,桂林市,监测站,细颗粒物(PM2.5),112,81,67,84,61,117,67,105,93,26,14,20,7,0.7,0.6
2023-02-27T08:00:00,1864A,110.3089,25.2708,桂林市,龙隐路小学,细颗粒物(PM2.5),104,73,60,78,59,120,75,99,90,24,16,34,12,0.6,0.5
2023-02-27T08:00:00,1865A,110.2869,25.2178,桂林市,八中,细颗粒物(PM2.5),108,69,56,81,61,114,39,96,80,53,21,13,8,0.7,0.5
2023-02-27T08:00:00,1866A,109.2262,21.588,北海市,牛尾岭水库,细颗粒物(PM2.5),69,49,40,50,33,104,15,42,31,27,15,8,9,0.9,0.6
2023-02-27T08:00:00,1867A,109.1436,21.4086,北海市,海滩公园,细颗粒物(PM2.5),68,62,49,49,32,140,80,122,100,21,13,18,9,0.8,0.7
2023-02-27T08:00:00,1868A,109.0981,21.4661,北海市,新市环保局,细颗粒物(PM2.5),79,60,42,58,37,133,67,99,91,24,17,12,7,0.8,0.7
2023-02-27T08:00:00,1869A,109.1778,21.5233,北海市,北海工业园,细颗粒物(PM2.5),74,54,51,54,42,116,54,69,62,23,16,11,9,0.8,0.7
2023-02-27T08:00:00,1870A,109.4856,24.3895,柳州市,柳东小学,细颗粒物(PM2.5),87,76,64,64,52,117,97,92,92,10,11,10,10,0.8,0.7
2023-02-27T08:00:00,1871A,109.4157,24.3277,柳州市,环保监测站,细颗粒物(PM2.5),88,83,61,65,46,113,48,93,81,35,15,34,8,0.6,0.4
2023-02-27T08:00:00,1872A,109.389,24.341,柳州市,河西水厂,细颗粒物(PM2.5),117,121,64,88,47,110,19,74,60,46,18,13,8,1.0,0.5
2023-02-27T08:00:00,1873A,109.4311,24.2921,柳州市,市四中,细颗粒物(PM2.5),94,58,57,70,46,115,75,92,87,26,17,14,11,0.8,0.7
2023-02-27T08:00:00,1874A,109.4006,24.3631,柳州市,市九中,细颗粒物(PM2.5),92,100,59,68,48,109,24,76,64,48,19,19,10,1.0,0.7
2023-02-27T08:00:00,1875A,109.4958,24.3134,柳州市,古亭山,细颗粒物(PM2.5),68,44,51,49,41,113,77,99,88,15,12,5,6,0.7,0.5
2023-02-27T08:00:00,1876A,109.5078,18.2489,三亚市,河东子站,,34,34,41,19,24,113,108,109,109,8,8,3,3,0.5,0.5
2023-02-27T08:00:00,1877A,109.4964,18.2681,三亚市,河西子站,,34,33,40,21,26,118,107,107,107,9,8,3,3,0.5,0.5
2023-02-27T08:00:00,1878A,104.7778,31.4741,绵阳市,富乐山,细颗粒物(PM2.5),69,64,65,50,52,120,30,16,16,25,32,4,5,0.5,0.5
2023-02-27T08:00:00,1879A,104.7563,31.4535,绵阳市,市人大,细颗粒物(PM2.5),79,83,78,58,56,107,1,8,3,56,47,7,9,0.9,0.7
2023-02-27T08:00:00,1880A,104.6697,31.4668,绵阳市,高新区自来水公司,细颗粒物(PM2.5),74,83,74,54,56,119,4,37,24,57,37,6,8,0.8,0.7
2023-02-27T08:00:00,1881A,104.7287,31.5075,绵阳市,三水厂,细颗粒物(PM2.5),84,99,90,62,57,114,0,7,3,46,45,5,6,1.0,0.7
2023-02-27T08:00:00,1882A,104.563,28.793,宜宾市,石马中学,细颗粒物(PM2.5),88,92,77,65,52,121,2,12,11,46,43,10,12,0.7,0.6
2023-02-27T08:00:00,1883A,104.6201,28.7728,宜宾市,市委,细颗粒物(PM2.5),95,104,83,71,55,126,2,14,7,56,48,11,15,0.9,0.7
2023-02-27T08:00:00,1884A,104.6055,28.793,宜宾市,宜宾四中,细颗粒物(PM2.5),117,114,95,88,62,125,13,22,20,50,50,15,16,0.9,0.8
2023-02-27T08:00:00,1885A,104.639,28.7562,宜宾市,市政府,细颗粒物(PM2.5),94,110,90,70,55,133,0,0,0,60,56,9,15,0.8,0.8
2023-02-27T08:00:00,1886A,104.5742,28.7199,宜宾市,黄金嘴,细颗粒物(PM2.5),82,90,85,60,54,124,2,2,2,60,56,8,12,0.6,0.6
2023-02-27T08:00:00,1888A,101.6891,26.571,攀枝花市,弄弄坪,细颗粒物(PM2.5),65,63,73,47,52,101,12,53,38,32,22,6,12,1.1,1.1
2023-02-27T08:00:00,1889A,101.5769,26.5928,攀枝花市,河门口,细颗粒物(PM2.5),64,56,71,46,53,110,44,56,48,16,19,8,21,1.1,1.3
2023-02-27T08:00:00,1890A,101.7169,26.585,攀枝花市,炳草岗,细颗粒物(PM2.5),97,104,66,72,50,104,2,58,27,53,29,40,21,2.0,1.1
2023-02-27T08:00:00,1891A,101.7369,26.5008,攀枝花市,仁和,细颗粒物(PM2.5),68,60,63,49,49,103,19,56,36,25,15,7,8,0.9,0.8
2023-02-27T08:00:00,1893A,105.4324,28.9634,泸州市,九狮山,颗粒物(PM10),59,67,52,35,33,108,52,60,59,32,20,22,12,0.3,0.4
2023-02-27T08:00:00,1894A,105.4427,28.9063,泸州市,小市上码头,颗粒物(PM10),56,61,68,39,42,118,53,71,58,40,27,10,10,0.8,0.7
2023-02-27T08:00:00,1895A,105.4241,28.8573,泸州市,兰田宪桥,细颗粒物(PM2.5),98,96,76,73,48,121,5,22,18,40,42,7,9,0.8,0.7
2023-02-27T08:00:00,1896A,105.4379,28.8833,泸州市,市环监站,细颗粒物(PM2.5),58,62,64,41,36,111,56,64,63,26,22,5,7,0.6,0.6
2023-02-27T08:00:00,1901A,104.4239,31.1208,德阳市,东山公园,细颗粒物(PM2.5),90,90,90,67,66,118,26,48,33,44,38,5,5,0.9,0.8
2023-02-27T08:00:00,1902A,104.3826,31.1317,德阳市,西小区,细颗粒物(PM2.5),97,95,90,72,71,110,6,32,15,56,42,5,6,0.9,0.8
2023-02-27T08:00:00,1904A,104.3553,31.1091,德阳市,耐火材料厂,细颗粒物(PM2.5),98,92,97,73,75,115,6,26,14,51,42,6,6,1.2,0.8
2023-02-27T08:00:00,1905A,106.056,30.8064,南充市,西山风景区,,,,,,,,,,,,,,,,
2023-02-27T08:00:00,1906A,106.0789,30.8023,南充市,南充市委,细颗粒物(PM2.5),73,88,82,53,44,130,8,16,15,51,43,13,13,0.9,0.7
2023-02-27T08:00:00,1907A,106.1031,30.8217,南充市,南充炼油厂,细颗粒物(PM2.5),68,82,70,49,46,122,9,23,19,43,29,13,13,0.8,0.7
2023-02-27T08:00:00,1908A,106.1064,30.7856,南充市,高坪区监测站,细颗粒物(PM2.5),72,81,74,52,50,120,20,29,28,42,40,11,12,0.7,0.7
2023-02-27T08:00:00,1909A,106.0642,30.7636,南充市,嘉陵区环保局,细颗粒物(PM2.5),73,78,73,53,47,127,26,27,27,41,46,21,15,0.7,0.8
2023-02-27T08:00:00,1910A,106.1087,30.8388,南充市,市环境监测站,细颗粒物(PM2.5),74,87,74,54,48,119,27,54,44,37,32,18,14,0.6,0.6
2023-02-27T08:00:00,1911A,106.9222,27.6869,遵义市,丁字口,细颗粒物(PM2.5),54,46,50,38,36,118,74,94,91,27,22,19,18,0.8,0.7
2023-02-27T08:00:00,1912A,106.9242,27.7019,遵义市,凤凰山,,46,38,46,32,34,121,93,101,99,15,16,6,7,0.5,0.6
2023-02-27T08:00:00,1913A,106.8906,27.6486,遵义市,忠庄,,50,50,61,33,40,115,78,87,82,16,18,4,6,0.7,0.7
2023-02-27T08:00:00,1914A,106.9231,27.6506,遵义市,舟水桥,颗粒物(PM10),63,75,59,30,38,120,41,77,72,43,16,11,13,0.6,0.6
2023-02-27T08:00:00,1915A,106.9178,27.72,遵义市,干田坝,,49,48,44,34,32,119,75,99,94,29,18,15,14,0.6,0.6
2023-02-27T08:00:00,1916A,103.7897,25.5035,曲靖市,环境监测站,,50,46,49,35,33,110,67,74,66,15,14,6,8,0.8,0.6
2023-02-27T08:00:00,1917A,103.8,25.5364,曲靖市,烟厂办公区,细颗粒物(PM2.5),55,43,37,39,32,77,70,62,62,15,22,4,7,1.0,1
2023-02-27T08:00:00,1918A,108.7197,34.3956,咸阳市,气象站,细颗粒物(PM2.5),170,118,105,129,115,101,14,41,37,51,31,10,11,0.3,0.2
2023-02-27T08:00:00,1919A,108.673,34.3155,咸阳市,实验中学,细颗粒物(PM2.5),172,150,137,130,116,110,28,41,39,38,31,7,7,1.1,1
2023-02-27T08:00:00,1920A,108.7233,34.3617,咸阳市,师范学院,细颗粒物(PM2.5),178,149,123,134,113,100,17,43,35,49,33,6,8,1.0,0.8
2023-02-27T08:00:00,1922A,109.0656,35.0994,铜川市,党校,颗粒物(PM10),72,93,92,46,46,119,26,75,45,46,30,13,14,0.9,0.9
2023-02-27T08:00:00,1923A,109.0697,35.0697,铜川市,王益区政府,细颗粒物(PM2.5),128,129,98,97,83,113,6,26,15,43,37,10,8,1.0,0.8
2023-02-27T08:00:00,1924A,108.9344,34.9058,铜川市,新区管委会,细颗粒物(PM2.5),132,113,104,100,92,125,22,54,45,40,27,7,10,0.9,0.7
2023-02-27T08:00:00,1926A,109.4131,36.6275,延安市,枣园,细颗粒物(PM2.5),138,100,83,105,87,109,4,58,19,43,33,6,6,1.0,0.9
2023-02-27T08:00:00,1927A,109.4761,36.6028,延安市,延大医附院,细颗粒物(PM2.5),129,92,81,98,78,97,4,59,16,47,37,6,7,1.4,1.1
2023-02-27T08:00:00,1929A,109.5056,36.6106,延安市,百米大道,细颗粒物(PM2.5),135,104,92,103,82,87,5,9,8,52,45,4,6,1.6,1.1
2023-02-27T08:00:00,1930A,107.185,34.3063,宝鸡市,庙沟村,细颗粒物(PM2.5),175,124,127,132,116,89,28,50,45,37,32,4,5,1.1,0.9
2023-02-27T08:00:00,1931A,107.0708,34.3017,宝鸡市,竹园沟,细颗粒物(PM2.5),166,117,122,126,115,84,11,26,19,26,29,5,6,0.8,0.7
2023-02-27T08:00:00,1932A,107.1906,34.3672,宝鸡市,三陆医院,细颗粒物(PM2.5),190,164,141,143,127,91,6,19,10,58,42,11,10,1.5,1
2023-02-27T08:00:00,1933A,107.1431,34.3547,宝鸡市,监测站,细颗粒物(PM2.5),162,124,123,123,113,89,7,23,14,48,41,4,5,1.3,1
2023-02-27T08:00:00,1934A,107.1186,34.3739,宝鸡市,技工学校,细颗粒物(PM2.5),173,150,119,131,117,87,6,41,22,47,33,16,7,1.2,0.9
2023-02-27T08:00:00,1935A,107.3906,34.3528,宝鸡市,陈仓区环保局家属楼,细颗粒物(PM2.5),206,167,148,156,137,90,11,12,10,47,45,9,7,1.7,1.1
2023-02-27T08:00:00,1936A,107.2058,34.3497,宝鸡市,文理学院,细颗粒物(PM2.5),165,146,134,125,115,88,7,24,16,43,37,8,9,1.0,0.9
2023-02-27T08:00:00,1937A,107.2386,34.3622,宝鸡市,三迪小学,细颗粒物(PM2.5),170,160,138,129,119,89,7,23,16,50,42,11,10,1.2,0.9
2023-02-27T08:00:00,1938A,109.5293,34.5101,渭南市,农科所,细颗粒物(PM2.5),156,149,124,119,93,106,11,26,20,46,35,6,7,0.9,0.8
2023-02-27T08:00:00,1939A,109.4974,34.4877,渭南市,日报社,细颗粒物(PM2.5),135,127,126,103,104,104,8,39,22,38,40,12,12,0.8,0.8
2023-02-27T08:00:00,1940A,109.4636,34.493,渭南市,体育馆,细颗粒物(PM2.5),163,136,123,124,106,118,10,54,37,59,36,6,7,0.9,0.8
2023-02-27T08:00:00,1941A,109.4259,34.5023,渭南市,高新一小,细颗粒物(PM2.5),175,140,121,132,108,106,26,31,30,41,32,9,10,1.0,0.7
2023-02-27T08:00:00,1943A,102.1725,38.5339,金昌市,新川苑,颗粒物(PM10),76,101,94,26,26,111,107,96,96,13,18,7,19,0.7,0.7
2023-02-27T08:00:00,1944A,102.1692,38.5167,金昌市,天庆家园,颗粒物(PM10),67,83,75,29,37,112,104,92,92,14,23,7,26,0.6,0.7
2023-02-27T08:00:00,1945A,98.2908,39.7711,嘉峪关市,气象局,颗粒物(PM10),82,114,114,44,34,112,37,96,75,56,30,45,36,1.0,0.7
2023-02-27T08:00:00,1947A,106.3394,38.817,石嘴山市,沙湖旅游区,细颗粒物(PM2.5),99,124,165,74,82,135,9,23,16,32,34,14,20,0.7,1
2023-02-27T08:00:00,1948A,106.3668,39.0145,石嘴山市,大武口朝阳西街,细颗粒物(PM2.5),122,104,99,92,76,122,10,41,20,50,39,14,29,1.0,0.9
2023-02-27T08:00:00,1949A,106.7704,39.2282,石嘴山市,惠农南大街,细颗粒物(PM2.5),97,85,84,72,73,118,6,33,27,54,35,15,16,1.0,0.8
2023-02-27T08:00:00,1950A,106.7099,39.1325,石嘴山市,红果子镇惠新街,细颗粒物(PM2.5),92,77,90,68,74,115,5,48,28,48,32,9,18,0.9,0.9
2023-02-27T08:00:00,1951A,84.895,45.6094,克拉玛依市,长征新村,,22,22,24,6,8,92,39,89,62,30,9,5,5,0.3,0.3
2023-02-27T08:00:00,1952A,84.8988,45.5893,克拉玛依市,南林小区,,20,18,23,14,13,92,32,88,57,36,15,2,2,0.3,0.2
2023-02-27T08:00:00,1954A,84.905,44.3396,克拉玛依市,独山子区,,23,18,33,7,10,90,72,74,74,8,10,5,5,0.4,0.4
2023-02-27T08:00:00,1955A,85.6979,46.098,克拉玛依市,乌尔禾区商贸楼,,22,19,44,10,14,111,70,84,80,6,6,1,2,0.3,0.3
2023-02-27T08:00:00,1956A,86.1472,41.7538,巴音郭楞州,孔雀公园,,,0,136,0,39,92,66,88,84,,20,4,4,0.6,0.5
2023-02-27T08:00:00,1957A,86.1972,41.7166,巴音郭楞州,棉纺厂,,25,24,145,12,39,96,77,72,72,10,27,1,3,0.1,0.2
2023-02-27T08:00:00,1958A,86.2357,41.7173,巴音郭楞州,经济开发区,,27,21,133,6,31,99,84,84,84,6,12,4,5,0.3,0.4
2023-02-27T08:00:00,1961A,117.532,36.6868,济南市,东山小学,细颗粒物(PM2.5),80,105,73,59,52,125,77,84,75,37,29,14,11,1.0,0.7
2023-02-27T08:00:00,1966A,120.0405,35.8735,青岛市,黄岛区4号,,49,44,41,34,29,95,70,84,78,34,32,10,12,0.7,0.7
2023-02-27T08:00:00,1982A,122.0693,37.2174,威海市,文登开发区,,35,31,35,24,20,96,45,85,72,45,19,5,5,0.7,0.4
2023-02-27T08:00:00,2031A,113.1817,27.9958,株洲市,云田中学,,46,46,79,29,61,142,52,76,66,28,26,8,7,0.5,0.5
2023-02-27T08:00:00,2054A,114.1099,32.1059,信阳市,平桥分局,"颗粒物(PM10),细颗粒物(PM2.5)",67,84,79,48,54,121,9,41,17,44,34,8,9,0.6,0.5
2023-02-27T08:00:00,2064A,113.9956,32.1271,信阳市,南湾水厂,细颗粒物(PM2.5),58,49,66,41,45,132,37,64,57,16,19,6,7,0.7,0.7
2023-02-27T08:00:00,2065A,114.0775,32.1195,信阳市,市酿酒公司,细颗粒物(PM2.5),83,63,68,61,56,133,9,36,10,52,37,8,9,0.7,0.6
2023-02-27T08:00:00,2066A,114.0609,32.1399,信阳市,审计局,细颗粒物(PM2.5),78,60,75,57,58,123,7,11,6,46,40,7,8,0.8,0.7
2023-02-27T08:00:00,2067A,114.6613,33.6128,周口市,市环境监测站,细颗粒物(PM2.5),68,73,71,49,36,106,48,64,61,41,25,16,12,0.8,0.5
2023-02-27T08:00:00,2068A,114.6758,33.6347,周口市,周口师范,细颗粒物(PM2.5),68,68,57,49,34,116,51,71,64,39,25,19,12,0.9,0.5
2023-02-27T08:00:00,2069A,114.6546,33.5979,周口市,市运管处,细颗粒物(PM2.5),67,66,61,48,41,118,51,59,58,43,29,13,12,0.7,0.4
2023-02-27T08:00:00,2070A,114.6369,33.6406,周口市,川汇区环保局,细颗粒物(PM2.5),67,58,52,48,40,112,57,69,66,33,21,11,8,0.7,0.4
2023-02-27T08:00:00,2075A,117.6336,24.4674,漳州市,九湖,,,,,,,,,,,,,,,,
2023-02-27T08:00:00,2160A,112.85,35.5051,晋城市,自来水公司,细颗粒物(PM2.5),100,112,107,75,77,116,19,94,46,49,29,8,8,1.1,0.7
2023-02-27T08:00:00,2161A,112.8318,35.4936,晋城市,白云商贸,细颗粒物(PM2.5),98,122,117,73,73,108,19,67,45,45,28,5,5,1.2,0.9
2023-02-27T08:00:00,2162A,112.8508,35.4887,晋城市,市环保局,细颗粒物(PM2.5),110,127,119,83,82,115,6,64,23,62,40,10,8,1.3,0.9
2023-02-27T08:00:00,2163A,112.8676,35.4897,晋城市,技术学院,细颗粒物(PM2.5),113,133,109,85,84,114,9,72,30,70,38,7,5,1.3,0.9
2023-02-27T08:00:00,2165A,112.8453,35.546,晋城市,白马寺,,,,,,,,,,,,,,,,
2023-02-27T08:00:00,2166A,112.4397,39.3522,朔州市,平朔,细颗粒物(PM2.5),169,178,141,128,118,116,8,63,40,66,37,16,22,1.3,1
2023-02-27T08:00:00,2167A,112.4575,39.3617,朔州市,朔唯,细颗粒物(PM2.5),152,156,160,116,119,121,12,58,44,56,32,11,21,1.3,1.1
2023-02-27T08:00:00,2168A,112.4258,39.3197,朔州市,区政府,细颗粒物(PM2.5),178,170,152,134,115,126,14,63,46,58,36,15,22,1.7,1.1
2023-02-27T08:00:00,2169A,112.4072,39.3278,朔州市,市环保局,细颗粒物(PM2.5),163,159,154,124,109,110,7,62,33,57,40,18,25,1.4,1
2023-02-27T08:00:00,2170A,112.4272,39.3681,朔州市,市二中,细颗粒物(PM2.5),158,197,170,120,111,116,14,62,37,54,36,22,19,1.2,1.1
2023-02-27T08:00:00,2171A,112.7532,37.6945,晋中市,锦纶小区,细颗粒物(PM2.5),155,136,161,118,117,115,13,21,16,40,44,8,12,0.9,0.9
2023-02-27T08:00:00,2173A,112.7249,37.7067,晋中市,南都小区,细颗粒物(PM2.5),133,153,153,101,104,112,7,48,35,53,42,8,12,1.1,0.9
2023-02-27T08:00:00,2174A,112.6991,37.6982,晋中市,榆次区政府,细颗粒物(PM2.5),143,160,159,109,95,113,6,43,31,50,43,7,11,1.3,0.9
2023-02-27T08:00:00,2175A,110.9956,35.0147,运城市,运城中学,细颗粒物(PM2.5),100,106,124,75,90,94,81,89,85,15,16,6,7,0.7,0.6
2023-02-27T08:00:00,2178A,110.9686,35.0303,运城市,地区技校,细颗粒物(PM2.5),119,122,128,90,88,109,64,99,82,34,20,5,5,1.0,0.8
2023-02-27T08:00:00,2179A,111.0414,35.1147,运城市,空港新区,细颗粒物(PM2.5),142,126,128,108,100,112,53,101,81,37,18,14,9,1.0,0.7
2023-02-27T08:00:00,2181A,112.7383,38.4519,忻州市,开发区,细颗粒物(PM2.5),166,154,140,126,113,80,13,10,10,36,43,6,10,1.2,1.1
2023-02-27T08:00:00,2182A,112.7003,38.4928,忻州市,会展中心,细颗粒物(PM2.5),155,152,133,118,105,74,8,8,8,40,55,4,9,0.9,0.8
2023-02-27T08:00:00,2183A,111.1406,37.5211,吕梁市,环保局,颗粒物(PM10),117,184,127,80,59,94,3,4,3,63,59,10,12,0.9,0.7
2023-02-27T08:00:00,2185A,111.1297,37.5136,吕梁市,自来水公司,颗粒物(PM10),101,151,126,58,57,95,4,28,8,55,50,16,15,0.9,0.8
2023-02-27T08:00:00,2187A,106.8174,39.6973,乌海市,市林业局,细颗粒物(PM2.5),114,154,116,86,67,113,9,46,30,53,40,34,35,1.9,1.3
2023-02-27T08:00:00,2188A,106.7907,39.6667,乌海市,中海勃湾学校,细颗粒物(PM2.5),103,135,105,77,66,124,18,49,37,46,37,34,29,1.6,1
2023-02-27T08:00:00,2191A,122.2532,43.6801,通辽市,艺术职业学校,细颗粒物(PM2.5),128,145,88,97,43,87,53,47,47,42,31,35,27,1.0,0.6
2023-02-27T08:00:00,2192A,119.7594,49.2261,呼伦贝尔市,区环保局,,36,36,32,24,15,87,61,82,76,20,6,5,5,0.8,0.6
2023-02-27T08:00:00,2195A,107.4212,40.761,巴彦淖尔市,附二中,细颗粒物(PM2.5),112,128,158,84,78,116,9,60,42,55,34,4,12,1.0,0.9
2023-02-27T08:00:00,2196A,107.37,40.7372,巴彦淖尔市,市环保大楼,细颗粒物(PM2.5),109,112,134,82,81,126,5,81,48,47,32,7,10,1.0,0.9
2023-02-27T08:00:00,2197A,113.1306,40.9923,乌兰察布市,集宁新区,细颗粒物(PM2.5),124,120,107,94,68,113,38,63,52,45,35,17,19,1.0,0.9
2023-02-27T08:00:00,2200A,122.0392,46.0656,兴安盟,胜华新制药厂,颗粒物(PM10),77,104,34,41,21,88,14,67,39,39,17,7,6,1.3,0.7
2023-02-27T08:00:00,2201A,121.9504,46.0741,兴安盟,科右前旗环保局,颗粒物(PM10),54,57,33,31,20,88,11,67,32,48,21,11,4,1.4,0.6
2023-02-27T08:00:00,2202A,116.1042,43.9317,锡林郭勒盟,市环保监测站,细颗粒物(PM2.5),75,76,43,55,22,97,76,91,83,10,7,9,9,0.6,0.4
2023-02-27T08:00:00,2203A,116.0781,43.9311,锡林郭勒盟,市政府,细颗粒物(PM2.5),69,70,40,50,25,94,73,90,80,15,12,10,10,0.5,0.4
2023-02-27T08:00:00,2204A,105.6467,38.8363,阿拉善盟,西城区西花园,细颗粒物(PM2.5),98,102,68,73,35,106,55,85,76,31,24,11,11,0.9,0.7
2023-02-27T08:00:00,2205A,105.6985,38.8411,阿拉善盟,蒙二幼,细颗粒物(PM2.5),68,62,57,49,40,114,58,92,80,33,18,12,11,0.9,0.6
2023-02-27T08:00:00,2206A,105.724,38.8516,阿拉善盟,环保局新楼,细颗粒物(PM2.5),58,53,46,41,34,110,66,100,90,17,11,9,9,0.7,0.6
2023-02-27T08:00:00,2207A,121.6094,41.998,阜新市,工业园区,细颗粒物(PM2.5),117,149,138,88,80,87,49,36,36,41,40,29,26,1.5,1.1
2023-02-27T08:00:00,2208A,121.6697,42.0279,阜新市,长青街,细颗粒物(PM2.5),178,131,120,134,100,100,59,53,52,41,38,28,33,1.2,1.2
2023-02-27T08:00:00,2209A,121.6673,42.0705,阜新市,农业园区,细颗粒物(PM2.5),124,120,94,94,82,93,62,57,52,40,34,27,25,1.2,1
2023-02-27T08:00:00,2210A,121.6717,42.0224,阜新市,东苑,细颗粒物(PM2.5),109,138,134,82,81,54,47,48,48,48,43,27,30,1.2,1.1
2023-02-27T08:00:00,2211A,121.6506,42.0498,阜新市,玉龙新城,细颗粒物(PM2.5),90,104,103,67,65,101,61,53,51,31,38,25,23,1.2,1.2
2023-02-27T08:00:00,2212A,123.2,41.1953,辽阳市,宏伟区,细颗粒物(PM2.5),65,64,54,47,31,84,75,71,71,25,30,13,17,0.8,0.9
2023-02-27T08:00:00,2213A,123.1683,41.2495,辽阳市,新华园,细颗粒物(PM2.5),84,72,71,62,47,95,73,74,74,39,45,14,26,1.1,1.4
2023-02-27T08:00:00,2214A,123.2354,41.2639,辽阳市,滨河路,细颗粒物(PM2.5),95,51,57,71,49,78,69,60,60,25,32,6,16,0.8,1
2023-02-27T08:00:00,2215A,123.149,41.2991,辽阳市,铁西工业园,细颗粒物(PM2.5),103,86,86,77,57,88,71,73,72,39,41,18,25,1.0,1.6
2023-02-27T08:00:00,2216A,123.8139,42.3022,铁岭市,汇工街西,细颗粒物(PM2.5),89,105,79,66,73,89,89,82,82,28,37,17,21,0.8,0.9
2023-02-27T08:00:00,2217A,123.8649,42.2923,铁岭市,水上乐园,细颗粒物(PM2.5),77,78,68,56,48,85,76,83,76,44,43,24,21,1.3,1.2
2023-02-27T08:00:00,2218A,123.8486,42.2867,铁岭市,银州路东段,颗粒物(PM10),79,108,81,55,44,89,83,85,84,36,39,19,18,1.0,0.9
2023-02-27T08:00:00,2219A,123.7153,42.2217,铁岭市,金沙江路北,细颗粒物(PM2.5),83,111,85,61,55,84,65,64,59,41,50,21,22,1.2,1.1
2023-02-27T08:00:00,2220A,120.4318,41.5881,朝阳市,西梁,细颗粒物(PM2.5),139,133,92,106,59,88,82,84,84,27,26,17,17,1.6,1.3
2023-02-27T08:00:00,2221A,120.4521,41.5646,朝阳市,河畔小区,细颗粒物(PM2.5),128,122,75,97,49,101,90,94,94,31,23,13,14,1.2,0.9
2023-02-27T08:00:00,2222A,120.4176,41.5648,朝阳市,八里堡,细颗粒物(PM2.5),138,159,97,105,55,96,63,86,66,59,39,45,29,2.4,1.5
2023-02-27T08:00:00,2223A,120.3806,41.5969,朝阳市,农业园区,细颗粒物(PM2.5),138,126,83,105,53,92,79,79,79,24,21,20,17,1.5,1.1
2023-02-27T08:00:00,2225A,124.4002,43.1713,四平市,一商场,颗粒物(PM10),83,116,97,50,50,94,84,89,86,30,29,16,15,0.8,0.7
2023-02-27T08:00:00,2226A,124.388,43.193,四平市,境园,颗粒物(PM10),76,101,88,44,45,97,85,89,87,28,28,15,13,0.8,0.7
2023-02-27T08:00:00,2227A,125.1358,42.8845,辽源市,环保局,细颗粒物(PM2.5),62,54,50,44,38,98,37,56,29,52,39,17,14,1.1,0.9
2023-02-27T08:00:00,2229A,125.9358,41.7173,通化市,光明,颗粒物(PM10),54,58,53,37,31,96,13,27,14,55,43,34,22,1.2,0.7
2023-02-27T08:00:00,2230A,125.9446,41.7325,通化市,铁路,细颗粒物(PM2.5),64,72,64,46,40,95,11,35,14,64,43,30,36,1.7,1.1
2023-02-27T08:00:00,2231A,126.4219,41.9171,白山市,喜丰,颗粒物(PM10),60,70,63,35,29,87,27,21,21,38,37,21,19,1.2,1
2023-02-27T08:00:00,2232A,126.4077,41.9419,白山市,环保局,颗粒物(PM10),71,92,79,33,36,78,18,17,14,46,44,32,28,1.5,1.3
2023-02-27T08:00:00,2233A,124.8006,45.1214,松原市,江南,细颗粒物(PM2.5),103,110,55,77,32,69,65,60,57,21,13,7,7,0.8,0.4
2023-02-27T08:00:00,2234A,124.7965,45.1722,松原市,江北,细颗粒物(PM2.5),104,116,63,78,29,76,70,61,61,21,14,8,6,1.0,0.6
2023-02-27T08:00:00,2235A,122.7911,45.6077,白城市,洮北区环保局,细颗粒物(PM2.5),60,67,49,43,23,88,45,63,54,24,14,8,11,0.4,0.2
2023-02-27T08:00:00,2236A,122.8738,45.5725,白城市,市环保局,颗粒物(PM10),68,86,51,36,18,88,32,58,42,33,18,9,5,0.8,0.4
2023-02-27T08:00:00,2237A,129.47,42.8883,延边朝鲜族自治州,妇幼医院,细颗粒物(PM2.5),64,46,38,46,20,99,21,51,38,37,20,23,12,0.9,0.6
2023-02-27T08:00:00,2238A,129.5055,42.9108,延边朝鲜族自治州,延边医院,,49,49,36,32,22,99,22,52,34,40,24,11,11,1.0,0.7
2023-02-27T08:00:00,2239A,129.3964,42.8881,延边朝鲜族自治州,朝阳川镇医院,,28,28,38,14,15,102,35,49,34,17,12,8,7,0.7,0.6
2023-02-27T08:00:00,2240A,130.9762,45.3001,鸡西市,环保局,,45,45,53,25,33,86,61,76,73,30,29,10,9,0.3,0.4
2023-02-27T08:00:00,2243A,130.9429,45.3039,鸡西市,第一中学,,47,47,36,25,20,93,79,80,79,9,7,8,6,0.5,0.4
2023-02-27T08:00:00,2244A,130.2537,47.3416,鹤岗市,哈啤分公司,颗粒物(PM10),65,80,53,30,26,82,66,79,73,28,27,14,16,0.6,0.5
2023-02-27T08:00:00,2245A,130.2684,47.3086,鹤岗市,斯达机电,颗粒物(PM10),54,58,62,29,27,89,67,84,61,22,27,10,10,0.4,0.4
2023-02-27T08:00:00,2246A,130.3114,47.3388,鹤岗市,东山纸板厂,颗粒物(PM10),71,91,71,30,29,86,55,65,54,23,22,15,14,0.3,0.4
2023-02-27T08:00:00,2247A,130.1097,47.3382,鹤岗市,五号水库,,31,31,34,13,20,96,70,65,61,10,9,10,7,0.6,0.5
2023-02-27T08:00:00,2248A,131.1511,46.6937,双鸭山市,双合村,颗粒物(PM10),54,58,56,34,34,96,82,86,82,16,17,15,16,0.5,0.5
2023-02-27T08:00:00,2249A,131.1652,46.6191,双鸭山市,南小市,颗粒物(PM10),70,90,61,36,30,108,86,88,83,12,12,7,9,0.5,0.4
2023-02-27T08:00:00,2250A,131.1524,46.6554,双鸭山市,环保局,颗粒物(PM10),65,79,51,35,31,100,81,84,81,19,17,15,16,0.6,0.5
2023-02-27T08:00:00,2251A,131.12,46.5656,双鸭山市,苗圃,细颗粒物(PM2.5),58,48,37,41,34,122,93,98,96,14,10,10,6,0.3,0.2
2023-02-27T08:00:00,2252A,128.5159,47.4311,伊春市,环保局,细颗粒物(PM2.5),62,60,34,44,26,85,58,68,65,25,17,8,9,0.7,0.6
2023-02-27T08:00:00,2253A,128.9102,47.7412,伊春市,电力嘉园,颗粒物(PM10),62,74,39,43,21,98,68,71,71,16,13,12,10,0.7,0.7
2023-02-27T08:00:00,2254A,129.5029,48.471,伊春市,汤旺河国家公园,颗粒物(PM10),51,52,38,27,22,94,66,79,68,7,6,8,7,0.2,0.2
2023-02-27T08:00:00,2255A,130.2751,46.8028,佳木斯市,佳纺,颗粒物(PM10),56,62,52,35,37,106,74,80,73,17,15,9,6,0.6,0.5
2023-02-27T08:00:00,2256A,130.3995,46.8307,佳木斯市,发电厂,细颗粒物(PM2.5),54,44,46,38,35,101,70,82,75,22,19,9,5,0.7,0.6
2023-02-27T08:00:00,2257A,130.3258,46.7975,佳木斯市,环保局,"颗粒物(PM10),细颗粒物(PM2.5)",54,57,47,38,35,103,68,78,72,19,19,9,7,0.6,0.5
2023-02-27T08:00:00,2258A,130.3648,46.8032,佳木斯市,十一中,颗粒物(PM10),58,65,50,35,34,93,60,80,72,32,24,10,7,0.7,0.6
2023-02-27T08:00:00,2259A,130.3794,46.7588,佳木斯市,四丰,,42,42,35,29,25,186,128,137,128,12,9,1,1,0.5,0.4
2023-02-27T08:00:00,2262A,131.0518,45.8751,七台河市,新一中,颗粒物(PM10),54,58,49,34,32,115,58,84,73,35,21,14,9,0.3,0.4
2023-02-27T08:00:00,2263A,127.4833,50.2524,黑河市,交通局,,29,29,24,13,14,93,61,86,76,22,12,6,8,0.6,0.6
2023-02-27T08:00:00,2264A,127.5144,50.2341,黑河市,环保局,,29,25,34,20,19,98,70,93,84,20,12,6,9,0.4,0.4
2023-02-27T08:00:00,2265A,127.5291,50.2472,黑河市,大黑河岛,,29,25,20,20,20,100,51,93,80,17,4,6,8,0.5,0.4
2023-02-27T08:00:00,2266A,126.9785,46.6365,绥化市,人和东街,细颗粒物(PM2.5),105,134,90,79,58,124,62,70,63,23,24,4,6,0.8,0.6
2023-02-27T08:00:00,2267A,126.964,46.6528,绥化市,党政办公中心,细颗粒物(PM2.5),128,116,78,97,63,121,65,70,65,20,20,5,6,0.6,0.4
2023-02-27T08:00:00,2269A,124.1069,50.4097,大兴安岭地区,科技局,,33,30,18,23,13,94,54,71,64,14,6,8,6,0.4,0.2
2023-02-27T08:00:00,2270A,117.396,32.939,蚌埠市,工人疗养院,细颗粒物(PM2.5),90,83,64,67,47,108,36,65,53,48,34,14,12,0.5,0.3
2023-02-27T08:00:00,2271A,117.3605,32.9427,蚌埠市,百货大楼,细颗粒物(PM2.5),84,73,71,62,46,108,38,70,56,44,32,6,7,0.7,0.7
2023-02-27T08:00:00,2273A,117.4185,32.8911,蚌埠市,蚌埠学院,细颗粒物(PM2.5),83,105,73,61,40,108,30,62,45,48,33,9,8,0.7,0.5
2023-02-27T08:00:00,2274A,117.3533,32.9673,蚌埠市,淮上区政府,细颗粒物(PM2.5),83,110,81,61,43,104,22,49,42,62,35,12,9,0.7,0.6
2023-02-27T08:00:00,2275A,117.3145,32.8977,蚌埠市,高新区,细颗粒物(PM2.5),73,83,68,53,41,106,37,66,51,46,31,6,7,0.7,0.5
2023-02-27T08:00:00,2277A,116.8305,32.7727,淮南市,潘集区政府,,,93,79,64,55,102,22,31,29,,31,6,7,0.8,0.6
2023-02-27T08:00:00,2278A,117.0067,32.6524,淮南市,师范学院,细颗粒物(PM2.5),70,84,70,51,44,105,43,57,49,34,28,15,13,0.6,0.5
2023-02-27T08:00:00,2279A,116.8569,32.5951,淮南市,谢家集区政府,细颗粒物(PM2.5),67,72,71,48,48,108,47,53,47,37,30,14,14,0.6,0.5
2023-02-27T08:00:00,2280A,116.8281,32.633,淮南市,八公山区政府,细颗粒物(PM2.5),82,88,69,60,45,103,42,56,50,36,26,20,14,0.7,0.5
2023-02-27T08:00:00,2281A,116.6325,32.6201,淮南市,焦岗湖风景区管理处,细颗粒物(PM2.5),90,95,63,67,41,99,18,14,14,44,36,5,5,0.9,0.7
2023-02-27T08:00:00,2282A,116.8004,33.975,淮北市,监测站,细颗粒物(PM2.5),80,101,79,59,48,112,55,77,66,43,26,12,9,0.9,0.6
2023-02-27T08:00:00,2283A,116.8091,33.9007,淮北市,烈山区政府,细颗粒物(PM2.5),94,116,90,70,52,114,48,59,54,54,39,16,11,0.7,0.5
2023-02-27T08:00:00,2284A,116.7856,33.9477,淮北市,职业技术学院,细颗粒物(PM2.5),97,112,85,72,53,112,47,72,62,51,32,15,11,0.8,0.5
2023-02-27T08:00:00,2285A,117.8177,30.9412,铜陵市,市第四中学,颗粒物(PM10),55,59,48,36,28,97,15,43,30,46,28,8,9,0.5,0.3
2023-02-27T08:00:00,2286A,117.8059,30.9273,铜陵市,市公路局,细颗粒物(PM2.5),62,71,48,44,29,94,10,38,24,44,26,2,3,0.9,0.7
2023-02-27T08:00:00,2287A,117.7807,30.9413,铜陵市,市新民污水厂,颗粒物(PM10),53,56,47,30,28,108,17,36,20,58,35,5,5,0.6,0.5
2023-02-27T08:00:00,2288A,117.7439,30.8792,铜陵市,市第九中学,颗粒物(PM10),74,98,71,42,35,96,8,20,9,49,36,8,11,1.3,0.9
2023-02-27T08:00:00,2289A,117.846,30.9413,铜陵市,车站新区,,49,49,42,29,22,105,12,42,29,42,27,7,8,0.8,0.7
2023-02-27T08:00:00,2290A,117.8483,30.97,铜陵市,市职教基地,,46,46,49,30,24,102,18,56,43,30,20,2,3,0.1,0.1
2023-02-27T08:00:00,2291A,117.0809,30.5177,安庆市,环科院,细颗粒物(PM2.5),68,70,54,49,31,100,22,65,45,50,26,12,10,0.8,0.6
2023-02-27T08:00:00,2292A,117.0331,30.5119,安庆市,马山宾馆,细颗粒物(PM2.5),75,86,57,55,29,100,20,67,43,50,25,12,10,0.9,0.6
2023-02-27T08:00:00,2294A,116.9896,30.6145,安庆市,安庆大学,细颗粒物(PM2.5),65,72,51,47,26,102,20,62,41,39,25,7,9,0.9,0.7
2023-02-27T08:00:00,2295A,118.2903,29.6963,黄山市,延安路89号,细颗粒物(PM2.5),82,53,22,60,19,104,18,29,24,17,13,5,5,0.3,0.2
2023-02-27T08:00:00,2296A,118.327,29.7178,黄山市,黄山东路89号,,25,22,25,17,16,101,29,37,33,17,16,5,5,0.3,0.3
2023-02-27T08:00:00,2297A,118.1371,30.2756,黄山市,黄山区政府5号楼,,42,42,32,26,22,109,18,37,26,16,14,6,6,0.4,0.4
2023-02-27T08:00:00,2298A,118.3093,32.3153,滁州市,老年大学,细颗粒物(PM2.5),102,111,74,76,50,125,12,46,19,76,50,10,9,1.2,0.7
2023-02-27T08:00:00,2299A,118.3244,32.2786,滁州市,人大宾馆,细颗粒物(PM2.5),100,114,75,75,49,127,12,51,28,67,44,9,9,0.9,0.5
2023-02-27T08:00:00,2301A,115.8277,32.8929,阜阳市,市监测站,细颗粒物(PM2.5),110,105,66,83,45,102,23,65,40,49,30,7,7,0.7,0.5
2023-02-27T08:00:00,2303A,115.8554,32.8605,阜阳市,开发区,细颗粒物(PM2.5),95,136,83,71,39,111,26,71,41,50,27,8,9,0.9,0.6
2023-02-27T08:00:00,2307A,116.5079,31.737,六安市,监测大楼,颗粒物(PM10),56,61,55,30,37,100,51,70,59,30,21,8,7,0.5,0.4
2023-02-27T08:00:00,2308A,116.4738,31.7643,六安市,皖西学院,颗粒物(PM10),60,69,58,36,34,101,54,73,62,28,19,7,6,0.5,0.4
2023-02-27T08:00:00,2309A,116.4996,31.7905,六安市,朝阳厂,细颗粒物(PM2.5),64,64,49,46,33,106,42,78,61,46,25,7,7,0.7,0.5
2023-02-27T08:00:00,2310A,116.5567,31.7886,六安市,开发区,颗粒物(PM10),82,114,73,55,36,103,19,42,34,50,27,12,13,0.6,0.4
2023-02-27T08:00:00,2311A,115.8072,33.8399,亳州市,污水处理厂,细颗粒物(PM2.5),92,97,71,68,45,100,36,55,45,26,20,13,9,0.6,0.4
2023-02-27T08:00:00,2312A,115.7789,33.8518,亳州市,三国揽胜宫,细颗粒物(PM2.5),77,100,72,56,43,113,41,66,52,31,16,15,9,0.8,0.4
2023-02-27T08:00:00,2314A,117.47,30.6618,池州市,池州学院,细颗粒物(PM2.5),64,59,48,46,33,104,40,62,46,27,22,8,9,0.9,0.7
2023-02-27T08:00:00,2316A,118.7581,30.9454,宣城市,鳌峰子站,细颗粒物(PM2.5),72,66,52,52,30,99,44,45,45,31,24,9,9,0.6,0.6
2023-02-27T08:00:00,2317A,118.7385,30.9743,宣城市,敬亭山子站,细颗粒物(PM2.5),74,69,56,54,33,103,34,48,42,46,31,5,10,0.4,0.4
2023-02-27T08:00:00,2318A,118.7173,30.9427,宣城市,开发区子站,细颗粒物(PM2.5),67,63,52,48,33,98,42,60,51,33,24,5,8,0.7,0.7
2023-02-27T08:00:00,2319A,119.0141,25.4325,莆田市,荔城区仓后路,,29,29,33,7,11,109,82,95,90,8,7,8,8,0.7,0.5
2023-02-27T08:00:00,2320A,119.0015,25.4553,莆田市,莆田市监测站,,30,30,31,12,15,110,90,96,93,3,7,6,6,0.5,0.4
2023-02-27T08:00:00,2321A,119.1119,25.4561,莆田市,涵江区六中,,26,22,34,9,13,107,82,99,90,6,6,6,6,0.4,0.3
2023-02-27T08:00:00,2322A,119.1013,25.3215,莆田市,秀屿区政府,,27,27,35,14,15,108,81,97,87,10,9,5,5,0.4,0.3
2023-02-27T08:00:00,2323A,118.981,25.4792,莆田市,东圳水库,,,,,,,,,,,,,,,,
2023-02-27T08:00:00,2324A,117.6211,26.2625,三明市,三钢,,40,40,49,27,40,128,66,62,62,22,24,12,8,0.5,0.5
2023-02-27T08:00:00,2325A,117.635,26.2714,三明市,三明二中,,36,25,44,25,37,120,62,64,63,26,27,8,5,0.6,0.5
2023-02-27T08:00:00,2326A,117.6028,26.2378,三明市,三元区政府,,39,35,61,27,42,123,63,39,39,25,33,11,12,0.4,0.6
2023-02-27T08:00:00,2327A,117.7275,26.3108,三明市,洋溪,,,,,,,,,,,,,,,,
2023-02-27T08:00:00,2331A,118.0966,26.6761,南平市,茫荡山,,,,,,,,,,,,,,,,
2023-02-27T08:00:00,2332A,118.1681,26.6369,南平市,南平市监测站,,26,26,39,11,28,116,68,94,84,16,17,4,4,0.6,0.5
2023-02-27T08:00:00,2333A,118.1825,26.6489,南平市,南平铝业有限公司,,27,27,47,16,28,108,44,88,73,33,17,8,6,0.5,0.4
2023-02-27T08:00:00,2334A,118.1756,26.6272,南平市,南平七中,,23,16,42,10,26,118,73,100,88,12,16,4,5,0.4,0.4
2023-02-27T08:00:00,2335A,117.0189,25.1181,龙岩市,龙岩师专,,,,,,,,,,,,,,,,
2023-02-27T08:00:00,2336A,117.0217,25.1033,龙岩市,龙岩市监测站,,42,34,46,29,29,124,70,63,63,22,25,22,11,0.6,0.5
2023-02-27T08:00:00,2337A,117.0258,25.0661,龙岩市,闽西职业技术学院,颗粒物(PM10),57,64,53,26,28,118,24,52,40,40,25,22,14,0.6,0.5
2023-02-27T08:00:00,2338A,117.0196,25.0306,龙岩市,龙岩学院,,42,42,44,28,28,122,40,60,49,20,15,8,6,0.5,0.4
2023-02-27T08:00:00,2339A,119.5001,26.6946,宁德市,金涵水库,,,,,,,,,,,,,,,,
2023-02-27T08:00:00,2341A,119.5388,26.6612,宁德市,宁德市监测站,,26,26,37,15,25,116,71,70,70,14,17,2,5,0.6,0.6
2023-02-27T08:00:00,2342A,117.3102,29.3867,景德镇市,王港中学,,42,22,35,29,25,74,9,9,8,10,10,4,5,0.7,0.6
2023-02-27T08:00:00,2343A,117.2117,29.2933,景德镇市,老干部活动中心,颗粒物(PM10),61,71,66,30,35,98,12,13,13,30,27,6,6,0.7,0.6
2023-02-27T08:00:00,2344A,117.1894,29.2789,景德镇市,兽医站,,33,26,36,23,25,105,25,52,34,29,21,5,6,0.6,0.5
2023-02-27T08:00:00,2345A,117.1547,29.2617,景德镇市,台达陶瓷,,20,14,33,14,26,99,49,48,47,17,25,10,15,0.8,0.9
2023-02-27T08:00:00,2346A,117.2461,29.2956,景德镇市,陶研所,,46,46,52,18,20,99,7,6,4,28,24,5,5,0.8,0.7
2023-02-27T08:00:00,2347A,114.0997,27.5002,萍乡市,武功山,,38,30,41,26,35,115,39,50,46,13,16,10,6,0.4,0.5
2023-02-27T08:00:00,2348A,113.8385,27.6434,萍乡市,中医院,颗粒物(PM10),62,74,71,38,47,113,36,70,56,38,20,41,24,0.7,0.6
2023-02-27T08:00:00,2349A,113.8493,27.6253,萍乡市,市政府车库,细颗粒物(PM2.5),84,89,75,62,56,118,20,69,40,46,21,48,19,4.6,1.8
2023-02-27T08:00:00,2350A,113.8676,27.6435,萍乡市,市环保局,细颗粒物(PM2.5),67,68,74,48,55,116,34,72,49,36,23,44,24,0.6,0.6
2023-02-27T08:00:00,2351A,113.866,27.6198,萍乡市,安源区政府,颗粒物(PM10),76,102,82,51,54,105,10,60,24,50,30,32,19,1.9,1.3
2023-02-27T08:00:00,2352A,115.0861,27.9317,新余市,北岗,细颗粒物(PM2.5),57,50,43,40,34,89,28,36,32,37,25,96,25,0.7,0.6
2023-02-27T08:00:00,2353A,114.9886,27.8431,新余市,飞宇,颗粒物(PM10),60,70,65,32,35,83,20,47,25,43,27,24,16,0.6,0.5
2023-02-27T08:00:00,2354A,114.9231,27.8246,新余市,第二水厂,颗粒物(PM10),54,58,58,32,34,78,31,45,35,38,26,29,16,0.4,0.3
2023-02-27T08:00:00,2355A,114.9308,27.8036,新余市,市气象局,颗粒物(PM10),63,75,75,37,37,80,11,48,26,43,29,14,37,1.0,0.4
2023-02-27T08:00:00,2357A,116.9822,28.1136,鹰潭市,龙虎山,,39,28,32,27,26,115,36,79,59,6,3,6,13,0.2,0.4
2023-02-27T08:00:00,2358A,117.0564,28.2642,鹰潭市,新监测站,颗粒物(PM10),53,55,36,35,27,158,95,95,94,32,19,19,15,0.6,0.5
2023-02-27T08:00:00,2359A,117.0311,28.2475,鹰潭市,财苑宾馆,细颗粒物(PM2.5),55,49,36,39,25,122,56,105,77,28,19,10,17,0.2,0.4
2023-02-27T08:00:00,2360A,117.0222,28.2264,鹰潭市,体育馆,,49,41,40,34,27,117,45,64,56,28,22,20,26,0.3,0.2
2023-02-27T08:00:00,2361A,117.0017,28.2131,鹰潭市,三川水表,细颗粒物(PM2.5),55,56,45,39,32,111,47,58,54,27,30,12,14,0.8,0.5
2023-02-27T08:00:00,2362A,114.9017,25.9149,赣州市,通天岩,,46,46,67,31,47,124,42,89,61,9,7,6,9,0.7,0.8
2023-02-27T08:00:00,2363A,114.9367,25.8664,赣州市,地委,细颗粒物(PM2.5),67,56,80,48,54,126,24,58,50,31,20,17,11,0.8,0.9
2023-02-27T08:00:00,2364A,114.9461,25.8481,赣州市,气象台,细颗粒物(PM2.5),65,71,71,47,53,119,14,64,29,44,30,15,14,0.6,0.6
2023-02-27T08:00:00,2365A,114.9322,25.8333,赣州市,市图书馆,颗粒物(PM10),59,68,76,40,51,122,8,90,41,40,21,11,17,1.1,1.1
2023-02-27T08:00:00,2366A,114.8905,25.8471,赣州市,华坚鞋城,细颗粒物(PM2.5),60,60,75,43,53,120,30,104,69,32,17,6,6,1.0,0.9
2023-02-27T08:00:00,2367A,114.9754,27.0803,吉安市,红声器材厂,颗粒物(PM10),52,54,66,28,41,119,39,75,58,30,22,10,9,0.6,0.6
2023-02-27T08:00:00,2368A,114.9658,27.0999,吉安市,市森林工业局,,41,41,58,27,43,119,32,77,60,38,21,6,6,0.4,0.3
2023-02-27T08:00:00,2369A,114.99,27.1312,吉安市,市环境监测站,,38,36,59,26,41,124,26,78,60,40,22,10,8,1.0,0.6
2023-02-27T08:00:00,2370A,115.0093,27.0968,吉安市,青原区法院,,50,50,61,34,44,122,29,83,42,37,27,12,10,0.5,0.5
2023-02-27T08:00:00,2371A,114.3408,27.8064,宜春市,槟榔水业,,48,48,55,29,36,96,11,28,25,28,20,4,7,0.7,0.6
2023-02-27T08:00:00,2373A,114.3956,27.7844,宜春市,市石油公司,,42,42,62,26,40,123,23,38,33,30,26,3,4,0.7,0.6
2023-02-27T08:00:00,2374A,114.3703,27.7914,宜春市,市气象局,,43,39,61,30,40,120,22,58,46,40,27,6,7,1.1,0.9
2023-02-27T08:00:00,2375A,114.4013,27.8074,宜春市,市广电局,"颗粒物(PM10),细颗粒物(PM2.5)",52,53,61,36,45,130,14,56,39,41,29,12,7,1.2,0.9
