timepoint,stationcode,longitude,latitude,area,positionname,primarypollutant,aqi,pm10,pm10_24h,pm2_5,pm2_5_24h,o3,o3_24h,o3_8h,o3_8h_24h,no2,no2_24h,so2,so2_24h,co,co_24h
2022-09-14T15:00:00,1001A,116.3621,39.8784,北京市,万寿西宫,,43,22,74,8,50,169,135,110,110,5,22,3,3,0.6,0.9
2022-09-14T15:00:00,1002A,116.2202,40.2915,北京市,定陵(对照点),,41,13,62,8,43,188,131,109,109,2,6,3,3,0.4,0.7
2022-09-14T15:00:00,1003A,116.4174,39.9289,北京市,东四,,45,25,68,12,40,184,143,113,113,9,25,1,2,0.5,0.8
2022-09-14T15:00:00,1004A,116.4072,39.8863,北京市,天坛,,39,23,67,13,45,151,122,94,94,9,22,1,2,0.4,0.8
2022-09-14T15:00:00,1005A,116.462,39.9365,北京市,农展馆,,37,19,63,10,40,152,116,91,91,8,22,1,2,0.4,0.8
2022-09-14T15:00:00,1006A,116.3392,39.9295,北京市,官园,,42,21,72,11,44,150,132,100,100,5,17,1,2,0.4,0.8
2022-09-14T15:00:00,1007A,116.2878,39.9611,北京市,海淀万柳,,41,19,76,12,52,174,131,102,102,9,30,1,2,0.5,0.8
2022-09-14T15:00:00,1008A,116.6636,40.135,北京市,顺义新城,,40,17,68,9,42,171,127,104,104,5,14,2,3,0.3,0.7
2022-09-14T15:00:00,1009A,116.6275,40.3275,北京市,怀柔镇,,40,19,67,11,48,169,128,99,99,10,15,1,2,0.4,0.7
2022-09-14T15:00:00,1010A,116.2296,40.217,北京市,昌平镇,,39,18,69,10,48,168,122,97,97,8,18,1,2,0.4,0.8
2022-09-14T15:00:00,1011A,116.3966,39.9821,北京市,奥体中心,,36,21,74,11,43,154,113,114,97,10,25,1,1,0.4,0.8
2022-09-14T15:00:00,1012A,116.184,39.9136,北京市,古城,,47,18,79,13,50,191,148,109,109,8,23,3,4,0.6,0.8
2022-09-14T15:00:00,1015A,117.1444,39.1661,天津市,勤俭道,,46,27,63,11,34,183,145,114,114,15,26,6,10,0.4,0.8
2022-09-14T15:00:00,1017A,117.237,39.1082,天津市,大直沽八号路,,41,38,58,15,36,184,131,108,108,9,23,10,10,0.5,0.7
2022-09-14T15:00:00,1018A,117.202,39.0927,天津市,前进道,,44,30,54,12,30,188,138,108,108,12,20,11,11,0.8,1
2022-09-14T15:00:00,1019A,117.1837,39.2133,天津市,淮河道,,47,38,67,15,36,194,150,108,108,15,39,10,10,0.9,0.9
2022-09-14T15:00:00,1021A,117.307,39.0877,天津市,跃进路,,44,25,61,12,32,151,140,99,99,17,36,12,11,0.7,0.7
2022-09-14T15:00:00,1023A,117.707,39.0343,天津市,第四大街,,35,23,50,9,29,129,111,79,79,12,33,7,7,0.7,1
2022-09-14T15:00:00,1024A,117.457,38.8394,天津市,永明路,,37,25,50,10,34,151,117,84,84,7,18,16,10,0.4,0.6
2022-09-14T15:00:00,1026A,117.764,39.1587,天津市,汉北路,,40,30,57,9,30,152,128,91,91,7,24,10,11,0.7,1.1
2022-09-14T15:00:00,1027A,117.157,38.9194,天津市,团泊洼(对照点),,42,25,46,16,27,178,132,104,104,12,21,12,11,1.0,1.1
2022-09-14T15:00:00,1029A,114.4422,38.0444,石家庄市,职工医院,细颗粒物(PM2.5),60,50,61,43,48,182,145,124,124,7,17,3,3,0.7,0.7
2022-09-14T15:00:00,1030A,114.6063,38.0266,石家庄市,高新区,,50,42,78,35,41,189,140,121,121,6,16,5,5,0.5,0.7
2022-09-14T15:00:00,1031A,114.4898,38.1328,石家庄市,西北水源,细颗粒物(PM2.5),57,51,84,40,54,206,152,124,124,7,19,2,2,0.6,0.8
2022-09-14T15:00:00,1032A,114.4586,38.0058,石家庄市,西南高教,颗粒物(PM10),54,58,73,36,40,181,142,120,120,10,21,3,2,0.8,0.9
2022-09-14T15:00:00,1033A,114.5331,38.0178,石家庄市,世纪公园,颗粒物(PM10),59,68,82,27,45,187,147,125,125,14,17,8,8,0.5,0.6
2022-09-14T15:00:00,1034A,114.509,38.0457,石家庄市,人民会堂,细颗粒物(PM2.5),52,44,68,36,47,198,152,130,130,8,15,6,6,0.8,0.9
2022-09-14T15:00:00,1035A,114.3524,37.8911,石家庄市,封龙山(对照点),,45,38,58,29,40,189,143,140,130,13,13,2,4,0.9,0.9
2022-09-14T15:00:00,1037A,118.131,39.6363,唐山市,雷达站,颗粒物(PM10),60,70,79,24,33,153,126,101,101,10,24,9,5,0.7,0.7
2022-09-14T15:00:00,1038A,118.1725,39.6334,唐山市,物资局,颗粒物(PM10),64,77,84,18,25,151,124,100,100,21,34,11,9,0.6,0.7
2022-09-14T15:00:00,1040A,118.1705,39.6506,唐山市,十二中,颗粒物(PM10),61,72,74,8,29,147,118,92,92,12,27,10,6,0.7,0.7
2022-09-14T15:00:00,1041A,118.1869,39.622,唐山市,小山,颗粒物(PM10),53,55,77,14,27,148,120,93,93,12,30,9,5,0.7,0.7
2022-09-14T15:00:00,1042A,119.5134,39.8207,秦皇岛市,北戴河环保局,,31,17,38,6,12,145,97,86,86,12,13,12,10,0.1,0.2
2022-09-14T15:00:00,1043A,119.7493,40.0116,秦皇岛市,第一关,,31,31,38,7,18,137,83,76,76,18,26,7,6,0.2,0.3
2022-09-14T15:00:00,1044A,119.5897,39.9499,秦皇岛市,监测站,,30,30,45,12,23,128,78,69,69,20,24,7,5,0.1,0.1
2022-09-14T15:00:00,1046A,119.5251,39.9041,秦皇岛市,建设大厦,,30,26,42,8,16,147,96,83,83,10,16,5,6,0.2,0.3
2022-09-14T15:00:00,1047A,114.5129,36.61763,邯郸市,环保局,,,,,,,,,,,,,,,,
2022-09-14T15:00:00,1048A,114.5302,36.6116,邯郸市,东污水处理厂,,45,42,61,30,35,188,143,122,122,6,15,4,4,0.8,0.9
2022-09-14T15:00:00,1049A,114.4918,36.5713,邯郸市,矿院,,48,48,57,25,35,177,136,117,117,13,16,6,7,0.7,0.7
2022-09-14T15:00:00,1050A,114.484,36.6133,邯郸市,丛台公园,,,41,59,35,36,180,140,118,118,12,17,,6,0.4,0.5
2022-09-14T15:00:00,1051A,115.493,38.8632,保定市,游泳馆,臭氧1小时,55,53,59,26,34,210,164,138,138,17,23,4,5,0.5,0.6
2022-09-14T15:00:00,1052A,115.5213,38.8959,保定市,华电二区,,47,44,80,20,40,188,150,115,115,8,27,6,4,0.7,0.8
2022-09-14T15:00:00,1053A,115.4713,38.9108,保定市,接待中心,臭氧1小时,55,47,68,17,28,207,164,129,129,16,26,7,8,0.7,0.7
2022-09-14T15:00:00,1054A,115.4612,38.8416,保定市,地表水厂,颗粒物(PM10),62,73,78,22,34,203,157,131,131,13,24,7,8,0.6,0.7
2022-09-14T15:00:00,1055A,115.4323,38.8697,保定市,胶片厂,,50,47,56,24,38,208,160,130,130,12,22,8,8,0.5,0.8
2022-09-14T15:00:00,1056A,115.5086,38.8639,保定市,监测站,颗粒物(PM10),78,105,77,26,42,215,169,134,134,10,18,5,5,0.4,0.5
2022-09-14T15:00:00,1057A,114.8883,40.8336,张家口市,人民公园,颗粒物(PM10),56,61,54,29,28,184,163,126,126,7,10,7,5,0.6,0.6
2022-09-14T15:00:00,1059A,114.8687,40.8042,张家口市,五金库,颗粒物(PM10),53,56,54,29,34,166,149,119,119,15,18,8,8,0.6,0.6
2022-09-14T15:00:00,1060A,114.8902,40.762,张家口市,世纪豪园,,49,46,64,28,37,173,155,131,131,9,18,3,3,0.4,0.5
2022-09-14T15:00:00,1061A,114.8916,40.8661,张家口市,北泵房(对照点),臭氧1小时,62,55,60,36,39,189,169,130,130,9,12,8,7,0.6,0.6
2022-09-14T15:00:00,1062A,117.9531,40.9081,承德市,铁路,,34,10,36,8,23,113,108,87,87,9,24,6,6,0.3,0.4
2022-09-14T15:00:00,1063A,117.9392,40.9763,承德市,中国银行,,36,9,36,3,18,113,113,80,80,4,14,9,9,0.3,0.3
2022-09-14T15:00:00,1064A,117.9503,40.928,承德市,开发区,,38,20,37,13,21,121,119,84,84,4,17,5,5,0.3,0.4
2022-09-14T15:00:00,1065A,117.8051,40.9655,承德市,文化中心,,38,11,33,17,23,128,119,86,86,4,17,8,8,0.4,0.4
2022-09-14T15:00:00,1066A,117.9268,41.0026,承德市,离宫(对照点),,35,17,34,9,17,111,110,76,76,2,11,5,4,0.3,0.3
2022-09-14T15:00:00,1067A,116.6708,39.5111,廊坊市,药材公司,,43,43,82,19,50,196,130,121,121,15,26,8,10,0.6,0.8
2022-09-14T15:00:00,1068A,116.7214,39.5589,廊坊市,开发区,,40,36,74,21,45,184,127,120,120,13,34,6,5,0.3,0.7
2022-09-14T15:00:00,1070A,116.7244,39.5269,廊坊市,北华航天学院,,43,43,88,27,57,190,131,118,118,12,31,8,9,0.4,0.7
2022-09-14T15:00:00,1071A,116.8842,38.2991,沧州市,沧县城建局,颗粒物(PM10),53,55,67,12,28,151,112,94,94,14,26,9,9,0.4,0.5
2022-09-14T15:00:00,1072A,116.8584,38.3254,沧州市,电视转播站,颗粒物(PM10),52,53,61,22,34,173,128,107,107,11,23,5,7,0.5,0.5
2022-09-14T15:00:00,1073A,116.8709,38.3228,沧州市,市环保局,颗粒物(PM10),51,51,70,13,33,164,120,102,102,6,20,9,8,0.5,0.5
2022-09-14T15:00:00,1074A,115.6838,37.7541,衡水市,电机北厂,臭氧1小时,69,80,74,46,48,190,175,122,122,10,21,8,10,0.7,0.6
2022-09-14T15:00:00,1075A,115.6303,37.7316,衡水市,市监测站,颗粒物(PM10),68,86,87,48,45,180,161,114,114,12,17,10,11,1.1,0.9
2022-09-14T15:00:00,1077A,114.4704,37.0886,邢台市,达活泉,颗粒物(PM10),51,51,75,29,42,197,142,120,120,8,15,3,4,0.5,0.7
2022-09-14T15:00:00,1078A,114.5062,37.0349,邢台市,邢师高专,颗粒物(PM10),51,51,71,29,37,187,137,122,122,10,15,4,5,0.5,0.6
2022-09-14T15:00:00,1079A,114.5237,37.0851,邢台市,路桥公司,颗粒物(PM10),52,53,73,29,38,188,143,119,119,7,16,5,6,0.5,0.6
2022-09-14T15:00:00,1080A,114.4725,37.0719,邢台市,市环保局,,45,27,63,31,42,185,141,121,121,8,15,6,7,0.4,0.6
2022-09-14T15:00:00,1081A,112.5139,37.8873,太原市,尖草坪,,44,31,88,20,49,175,140,112,112,10,27,5,6,0.5,0.7
2022-09-14T15:00:00,1083A,112.434,38.0108,太原市,上兰(对照点),,,,,,,,,,,,,,,,
2022-09-14T15:00:00,1084A,112.469,37.7124,太原市,晋源,,44,43,78,24,50,169,139,134,116,9,25,7,8,0.5,0.7
2022-09-14T15:00:00,1085A,112.5583,37.7394,太原市,小店,,44,31,84,18,54,169,138,135,112,12,29,4,7,0.4,0.7
2022-09-14T15:00:00,1086A,112.5369,37.8692,太原市,桃园,,44,31,82,19,51,173,140,114,114,12,32,5,7,0.5,0.8
2022-09-14T15:00:00,1087A,112.57,37.8195,太原市,坞城,,49,49,79,20,49,174,136,135,117,10,25,6,7,0.4,0.6
2022-09-14T15:00:00,1088A,112.549,37.9854,太原市,南寨,,42,42,72,18,45,166,132,104,104,10,29,6,7,0.5,0.6
2022-09-14T15:00:00,1089A,112.4701,37.782,太原市,金胜,,,,,,,,,,,,,,,,
2022-09-14T15:00:00,1090A,111.6507,40.7517,呼和浩特市,呼市一监,,50,34,47,18,26,161,157,119,119,8,25,5,10,0.5,0.5
2022-09-14T15:00:00,1091A,111.6572,40.8033,呼和浩特市,小召,臭氧1小时,62,44,43,20,25,174,169,130,130,15,25,4,6,0.5,0.5
2022-09-14T15:00:00,1094A,111.7516,40.8369,呼和浩特市,如意水处理厂,,,,42,,10,113,,126,,,15,,8,,0.5
2022-09-14T15:00:00,1095A,111.7276,40.8062,呼和浩特市,二十九中,臭氧1小时,55,42,45,19,26,169,164,119,119,11,30,5,6,0.6,0.6
2022-09-14T15:00:00,1096A,111.5512,40.7866,呼和浩特市,工大金川校区,,50,50,61,24,28,162,158,118,118,9,38,4,5,0.6,0.6
2022-09-14T15:00:00,1097A,111.717,40.7612,呼和浩特市,化肥厂生活区,,48,38,57,20,26,158,152,119,119,12,24,7,9,0.4,0.5
2022-09-14T15:00:00,1098A,123.6836,41.9339,沈阳市,森林路(对照点),,,,,,,,,,,,,,,,
2022-09-14T15:00:00,1099A,123.505,41.7406,沈阳市,浑南东路,颗粒物(PM10),57,64,46,23,18,129,54,35,35,50,37,13,13,1.1,0.7
2022-09-14T15:00:00,1100A,123.4231,41.6989,沈阳市,新秀街,颗粒物(PM10),59,68,43,25,17,130,36,46,35,69,37,11,10,1.3,0.9
2022-09-14T15:00:00,1102A,123.5903,41.8411,沈阳市,东陵路,颗粒物(PM10),78,105,54,32,20,110,27,21,20,37,22,14,12,0.7,0.5
2022-09-14T15:00:00,1103A,123.4264,41.8467,沈阳市,陵东街,,47,47,34,16,12,110,36,28,28,43,28,10,7,0.8,0.6
2022-09-14T15:00:00,1104A,123.4114,41.7653,沈阳市,文化路,颗粒物(PM10),62,74,48,30,20,113,37,37,25,64,32,12,9,0.9,0.6
2022-09-14T15:00:00,1105A,123.4678,41.7867,沈阳市,小河沿,颗粒物(PM10),63,75,45,27,16,112,25,43,21,75,36,9,8,1.3,0.6
2022-09-14T15:00:00,1106A,123.4017,41.7972,沈阳市,太原街,颗粒物(PM10),53,56,45,26,18,105,29,28,26,68,35,7,5,0.7,0.5
2022-09-14T15:00:00,1108A,123.3783,41.9228,沈阳市,京沈街,,50,50,33,18,11,107,58,47,40,25,20,12,11,0.5,0.3
2022-09-14T15:00:00,1109A,121.612,38.9741,大连市,甘井子,,26,15,26,14,16,100,81,73,62,16,18,5,6,0.4,0.4
2022-09-14T15:00:00,1110A,121.565,38.9511,大连市,周水子,,26,19,27,9,14,111,82,62,62,5,14,5,6,0.2,0.4
2022-09-14T15:00:00,1111A,121.5637,38.8845,大连市,星海三站,,33,8,23,8,15,135,103,78,78,11,20,5,6,0.3,0.4
2022-09-14T15:00:00,1112A,121.6302,38.9117,大连市,青泥洼桥,,,11,23,6,14,104,93,70,70,,,2,4,0,0
2022-09-14T15:00:00,1113A,121.6251,38.8638,大连市,傅家庄,,30,20,24,10,17,115,94,78,72,13,19,8,11,0.7,0.8
2022-09-14T15:00:00,1114A,121.5213,38.8661,大连市,七贤岭,,36,15,26,8,12,142,113,86,86,4,9,6,7,0.4,0.6
2022-09-14T15:00:00,1115A,121.2529,38.8061,大连市,旅顺,,25,12,29,6,18,155,79,66,61,4,10,4,6,0.8,0.9
2022-09-14T15:00:00,1116A,121.7485,39.1311,大连市,金州,,29,10,33,11,20,102,91,70,69,7,16,4,6,0.3,0.5
2022-09-14T15:00:00,1117A,121.7811,39.0496,大连市,开发区,,28,24,32,12,21,102,87,89,72,20,20,4,10,0.6,0.7
2022-09-14T15:00:00,1118A,121.9762,39.0631,大连市,双D港,,,,24,,16,123,95,85,79,2,4,7,9,,0.2
2022-09-14T15:00:00,1119A,125.3325,43.9166,长春市,食品厂,,45,45,44,20,10,88,88,61,61,20,33,5,5,0.3,0.3
2022-09-14T15:00:00,1120A,125.2863,43.9027,长春市,客车厂,颗粒物(PM10),59,68,51,20,12,77,70,48,48,40,45,8,7,0.5,0.5
2022-09-14T15:00:00,1121A,125.2841,43.8463,长春市,邮电学院,颗粒物(PM10),52,54,36,14,10,79,72,50,50,25,26,6,5,0.5,0.4
2022-09-14T15:00:00,1122A,125.3716,43.8772,长春市,劳动公园,颗粒物(PM10),61,72,63,19,13,77,70,46,46,27,40,10,7,0.4,0.5
2022-09-14T15:00:00,1123A,125.3297,43.8805,长春市,园林处,,50,50,41,10,9,80,75,50,50,29,35,11,6,0.4,0.4
2022-09-14T15:00:00,1124A,125.4605,43.79,长春市,净月潭,,29,29,23,9,6,90,90,56,56,8,12,8,6,0.4,0.3
2022-09-14T15:00:00,1125A,125.7194,43.515,长春市,甩湾子(对照点),,,,,,,,,,,,,,,,
2022-09-14T15:00:00,1126A,125.3863,43.8447,长春市,经开区环卫处,,43,43,53,11,13,84,84,47,47,20,39,7,8,0.4,0.4
2022-09-14T15:00:00,1127A,125.245,43.7783,长春市,高新区管委会,颗粒物(PM10),55,59,56,10,16,74,61,40,40,38,44,6,7,0.4,0.3
2022-09-14T15:00:00,1128A,125.1761,43.8325,长春市,岱山公园,颗粒物(PM10),63,76,67,21,13,78,78,50,50,41,48,7,7,0.5,0.5
2022-09-14T15:00:00,1129A,126.5422,45.755,哈尔滨市,岭北(对照点),颗粒物(PM10),51,52,58,12,14,91,91,59,59,17,31,7,8,0.3,0.4
2022-09-14T15:00:00,1130A,126.561,45.8167,哈尔滨市,松北商大,,38,38,45,11,11,88,82,61,61,19,29,5,5,0.5,0.6
2022-09-14T15:00:00,1131A,126.979,45.5419,哈尔滨市,阿城会宁,,,,54,25,9,80,75,52,52,16,21,13,10,0.6,0.5
2022-09-14T15:00:00,1132A,126.599,45.7222,哈尔滨市,南岗学府路,,41,41,27,17,15,77,77,53,53,36,33,12,11,0.4,0.3
2022-09-14T15:00:00,1133A,126.689,45.7733,哈尔滨市,太平宏伟公园,颗粒物(PM10),70,89,56,21,13,78,78,54,54,35,37,8,15,0.5,0.6
2022-09-14T15:00:00,1134A,126.635,45.7667,哈尔滨市,道外承德广场,颗粒物(PM10),56,61,49,18,11,80,80,51,51,32,35,7,7,0.4,0.5
2022-09-14T15:00:00,1135A,126.685,45.7319,哈尔滨市,香坊红旗大街,,,88,50,12,13,69,66,47,47,,40,9,10,0.7,0.7
2022-09-14T15:00:00,1136A,126.6411,45.7258,哈尔滨市,动力和平路,颗粒物(PM10),58,66,43,22,8,77,76,52,52,39,33,11,10,0.5,0.5
2022-09-14T15:00:00,1137A,126.593,45.7478,哈尔滨市,道里建国路,颗粒物(PM10),53,55,41,18,11,91,91,58,58,34,38,16,15,1.0,0.9
2022-09-14T15:00:00,1138A,126.615,45.61,哈尔滨市,平房东轻厂,,39,39,47,12,16,79,78,56,56,30,39,6,9,0.4,0.5
2022-09-14T15:00:00,1139A,126.595,45.9855,哈尔滨市,呼兰师专,,38,38,41,16,12,82,77,53,53,14,28,8,8,0.5,0.6
2022-09-14T15:00:00,1140A,126.6206,45.6842,哈尔滨市,省农科院,颗粒物(PM10),57,63,47,17,11,84,77,57,57,40,34,10,9,0.7,0.7
2022-09-14T15:00:00,1141A,121.4,31.238,上海市,普陀,,17,14,17,5,9,70,24,55,34,33,18,2,2,0.6,0.5
2022-09-14T15:00:00,1142A,121.478,31.2036,上海市,十五厂,,30,18,18,21,13,74,23,58,26,26,16,4,4,0.7,0.5
2022-09-14T15:00:00,1143A,121.467,31.3008,上海市,虹口,,22,22,19,9,23,61,15,49,20,29,16,3,4,0.6,0.6
2022-09-14T15:00:00,1144A,121.412,31.1654,上海市,徐汇上师大,,,16,21,11,10,73,33,60,37,,14,4,4,,0.9
2022-09-14T15:00:00,1145A,121.536,31.2659,上海市,杨浦四漂,,13,12,13,9,8,77,31,64,42,22,13,3,3,0.7,0.6
2022-09-14T15:00:00,1146A,120.978,31.0935,上海市,青浦淀山湖(对照点),,,,,,,,,,,,,,,,
2022-09-14T15:00:00,1147A,121.425,31.2261,上海市,静安监测站,,20,16,20,14,14,65,24,52,29,26,16,3,3,0.7,0.5
2022-09-14T15:00:00,1148A,121.703,31.1907,上海市,浦东川沙,,16,16,21,5,8,62,30,53,33,11,11,5,5,0.5,0.6
2022-09-14T15:00:00,1149A,121.533,31.2284,上海市,浦东新区监测站,,18,18,24,9,7,74,49,64,42,26,16,5,5,0.7,0.7
2022-09-14T15:00:00,1150A,121.577,31.2071,上海市,浦东张江,,16,13,14,11,10,66,23,52,28,20,16,4,4,0.7,0.7
2022-09-14T15:00:00,1151A,118.8086,32.1065,南京市,迈皋桥,,28,28,23,14,8,66,52,66,58,12,10,2,2,0.4,0.3
2022-09-14T15:00:00,1152A,118.7538,32.0551,南京市,草场门,,18,12,21,0,7,71,55,71,46,12,17,1,2,0.5,0.5
2022-09-14T15:00:00,1153A,118.7794,32.0745,南京市,山西路,,24,24,20,14,11,78,50,78,55,14,11,4,4,0.6,0.3
2022-09-14T15:00:00,1154A,118.7752,32.0023,南京市,中华门,,,12,22,2,3,72,51,70,54,16,13,4,4,,0.5
2022-09-14T15:00:00,1155A,118.8109,32.0309,南京市,瑞金路,,22,18,22,15,10,68,51,66,57,12,10,4,3,0.9,0.4
2022-09-14T15:00:00,1156A,118.7997,32.0754,南京市,玄武湖,,19,19,22,8,6,70,50,69,57,15,8,4,3,1.0,0.4
2022-09-14T15:00:00,1157A,118.6414,32.0931,南京市,浦口,,21,18,15,14,6,69,66,65,63,9,8,2,2,0.5,0.4
2022-09-14T15:00:00,1158A,118.7356,31.9996,南京市,奥体中心,,25,12,22,17,11,79,61,79,54,12,14,3,4,0.4,0.4
2022-09-14T15:00:00,1159A,118.9125,32.1028,南京市,仙林大学城,,15,12,18,5,10,67,47,66,53,12,7,2,2,0.5,0.4
2022-09-14T15:00:00,1160A,120.561,31.2472,苏州市,上方山(对照点),,27,27,29,10,12,65,48,45,41,8,9,6,6,0.5,0.5
2022-09-14T15:00:00,1161A,120.628,31.2864,苏州市,南门,,,,,,,,,,,,,,,,
2022-09-14T15:00:00,1162A,120.591,31.3019,苏州市,彩香,,19,13,19,7,12,70,58,52,49,10,10,4,4,0.7,0.8
2022-09-14T15:00:00,1163A,120.596,31.3264,苏州市,轧钢厂,,17,15,19,8,11,68,54,54,47,12,10,3,4,0.6,0.7
2022-09-14T15:00:00,1164A,120.613,31.2703,苏州市,吴中区,,20,20,17,13,11,72,55,56,53,14,13,5,5,0.8,0.7
2022-09-14T15:00:00,1165A,120.543,31.2994,苏州市,苏州新区,,18,15,19,9,13,69,55,51,46,15,13,5,4,0.8,0.8
2022-09-14T15:00:00,1166A,120.669,31.3097,苏州市,苏州工业园区,,22,21,18,15,12,66,44,51,46,13,12,4,4,0.8,0.7
2022-09-14T15:00:00,1167A,120.641,31.3708,苏州市,相城区,,20,20,14,11,9,70,54,55,53,9,6,4,4,1.0,0.8
2022-09-14T15:00:00,1168A,120.9098,31.9663,南通市,狼山街道,,20,13,12,0,2,87,61,70,60,11,10,5,5,0.3,0.3
2022-09-14T15:00:00,1169A,120.86,32.0005,南通市,虹桥,,19,12,11,5,9,84,60,63,58,2,3,3,3,0.5,0.5
2022-09-14T15:00:00,1170A,120.87,32.02,南通市,城中,,20,11,13,7,16,82,61,64,59,7,8,3,4,0.2,0.3
2022-09-14T15:00:00,1171A,120.94,31.93,南通市,星湖花园,,17,9,11,5,4,83,54,62,54,9,7,5,5,0.6,0.5
2022-09-14T15:00:00,1172A,120.81,32.0417,南通市,紫琅学院,,20,6,14,0,2,86,64,70,62,6,7,4,5,0.4,0.4
2022-09-14T15:00:00,1173A,119.176,34.5885,连云港市,市环境监测站,,22,9,25,5,12,116,69,97,52,11,15,4,5,0.2,0.4
2022-09-14T15:00:00,1177A,117.179,34.2761,徐州市,黄河新村,,28,27,53,17,25,142,88,93,93,21,22,7,9,0.7,0.9
2022-09-14T15:00:00,1178A,117.1918,34.2384,徐州市,淮塔,,38,38,51,14,24,135,90,98,98,17,19,9,10,0.5,0.8
2022-09-14T15:00:00,1180A,117.256,34.2153,徐州市,新城区,,42,42,55,14,24,132,86,97,97,20,21,8,9,0.5,0.6
2022-09-14T15:00:00,1181A,117.244,34.2911,徐州市,桃园路,,36,36,62,9,19,134,78,98,98,18,17,5,8,0.6,0.8
2022-09-14T15:00:00,1182A,117.2933,34.2778,徐州市,农科院,,34,34,54,7,16,125,70,89,89,31,31,7,9,0.8,0.9
2022-09-14T15:00:00,1186A,119.389,32.3761,扬州市,邗江监测站,,18,7,19,5,12,78,55,74,51,7,9,9,9,0.4,0.5
2022-09-14T15:00:00,1188A,120.269,31.4867,无锡市,雪浪,,16,12,15,9,11,64,51,55,44,1,3,5,5,0.8,0.8
2022-09-14T15:00:00,1189A,120.275,31.6219,无锡市,黄巷,,19,19,15,5,10,68,53,62,43,9,10,5,5,0.6,0.6
2022-09-14T15:00:00,1190A,120.294,31.56,无锡市,曹张,,17,16,17,7,10,66,52,58,44,10,12,6,6,0.8,0.7
2022-09-14T15:00:00,1191A,120.242,31.5031,无锡市,漆塘,,18,7,12,5,8,70,55,64,49,10,19,7,7,0.7,0.6
2022-09-14T15:00:00,1192A,120.3489,31.5863,无锡市,东亭,,17,17,15,5,8,63,52,53,43,5,6,7,7,0.5,0.6
2022-09-14T15:00:00,1193A,120.354,31.5475,无锡市,旺庄,,19,19,14,7,9,66,54,56,45,6,5,6,6,0.5,0.6
2022-09-14T15:00:00,1194A,120.245,31.5631,无锡市,荣巷,,19,14,16,7,14,74,58,66,52,9,10,7,7,0.8,0.7
2022-09-14T15:00:00,1195A,120.299,31.6817,无锡市,堰桥,,19,12,15,2,8,74,60,64,52,9,10,7,6,0.7,0.7
2022-09-14T15:00:00,1196A,119.9633,31.762,常州市,市监测站,,17,7,16,2,11,73,52,66,51,9,11,4,4,0.4,0.4
2022-09-14T15:00:00,1200A,119.9468,31.7069,常州市,武进监测站,,19,10,15,4,7,77,58,71,56,4,5,6,6,0.5,0.5
2022-09-14T15:00:00,1201A,119.9255,31.9087,常州市,安家,,20,8,17,7,13,88,64,71,61,6,8,6,6,0.2,0.3
2022-09-14T15:00:00,1203A,119.6707,32.1875,镇江市,新区办事处,,18,7,15,3,11,77,57,72,55,10,16,8,9,0.3,0.4
2022-09-14T15:00:00,1204A,119.4974,32.1968,镇江市,职教中心,,19,8,18,0,6,84,60,76,58,6,8,1,2,0.1,0.1
2022-09-14T15:00:00,1205A,119.4303,32.1328,镇江市,丹徒区监测站,,18,8,18,5,12,87,56,78,52,8,8,3,2,0.2,0.3
2022-09-14T15:00:00,1206A,119.905,32.4878,泰州市,公园路,,16,2,15,2,9,75,50,60,48,5,9,6,7,0.4,0.5
2022-09-14T15:00:00,1207A,119.9189,32.4625,泰州市,莲花,,17,2,13,7,14,79,52,63,51,6,9,5,6,0.4,0.5
2022-09-14T15:00:00,1209A,119.888,32.4639,泰州市,留学生创业园,,17,6,18,3,12,81,53,67,52,6,10,6,7,0.4,0.4
2022-09-14T15:00:00,1210A,119.036,33.5981,淮安市,钵池山,,19,19,23,13,13,83,56,74,52,12,11,5,5,0.8,0.7
2022-09-14T15:00:00,1211A,119.007,33.575,淮安市,北京南路,,25,24,25,17,15,80,53,76,49,13,11,6,6,0.7,0.6
2022-09-14T15:00:00,1212A,118.989,33.6067,淮安市,市监测站,,25,24,24,17,14,86,58,77,52,15,13,6,7,0.8,0.7
2022-09-14T15:00:00,1213A,119.135,33.5039,淮安市,楚州区监测站,,15,15,22,2,8,86,47,86,48,15,9,5,5,0.9,0.7
2022-09-14T15:00:00,1214A,119.0186,33.6297,淮安市,淮阴区监测站,,25,24,28,17,15,83,53,74,49,13,12,7,7,0.6,0.5
2022-09-14T15:00:00,1215A,120.118,33.4022,盐城市,盐城电厂,,19,17,18,7,12,104,59,81,60,2,4,5,4,0.3,0.3
2022-09-14T15:00:00,1216A,120.156,33.3942,盐城市,市监测站,,17,6,14,6,12,98,52,72,56,5,7,7,8,0.2,0.3
2022-09-14T15:00:00,1218A,120.2144,33.38,盐城市,开发区管委会,,17,8,14,1,4,102,54,67,56,1,3,8,7,0.2,0.3
2022-09-14T15:00:00,1220A,118.293,33.9528,宿迁市,宿迁学院,,29,29,36,19,19,104,84,80,72,14,15,5,6,0.2,0.2
2022-09-14T15:00:00,1221A,118.2442,33.9592,宿迁市,宿迁中学,,39,39,38,22,20,121,87,101,86,13,14,6,8,0.7,0.7
2022-09-14T15:00:00,1223A,120.2072,30.2111,杭州市,滨江,,17,14,16,9,11,58,53,56,49,15,17,6,6,0.5,0.6
2022-09-14T15:00:00,1224A,120.0633,30.2747,杭州市,西溪,,13,13,16,8,9,50,41,45,36,9,12,10,9,0.5,0.6
2022-09-14T15:00:00,1225A,119.026,29.635,杭州市,千岛湖(对照点),,,,,,,,,,,,,,,,
2022-09-14T15:00:00,1226A,120.3461,30.3153,杭州市,下沙,,18,13,17,9,10,57,57,57,46,14,17,5,5,0.4,0.5
2022-09-14T15:00:00,1227A,120.1269,30.2456,杭州市,卧龙桥,,15,13,12,9,11,57,48,51,44,12,14,5,5,0.6,0.7
2022-09-14T15:00:00,1228A,120.1903,30.2692,杭州市,浙江农大,,16,11,15,7,10,55,51,50,46,14,18,3,4,0.5,0.6
2022-09-14T15:00:00,1229A,120.157,30.2897,杭州市,朝晖五区,,,,,,,,,,,,,,,,
2022-09-14T15:00:00,1230A,120.1197,30.3119,杭州市,和睦小学,,17,16,18,10,15,52,52,46,46,13,20,1,2,0.6,0.7
2022-09-14T15:00:00,1231A,120.3019,30.4183,杭州市,临平镇,,18,14,19,8,7,61,55,61,45,15,16,5,5,0.4,0.4
2022-09-14T15:00:00,1232A,120.2697,30.1819,杭州市,城厢镇,,16,14,16,9,10,63,51,62,46,14,12,4,4,0.5,0.6
2022-09-14T15:00:00,1233A,120.0883,30.1808,杭州市,云栖,,14,11,11,6,7,60,44,56,44,12,11,5,5,0.4,0.5
2022-09-14T15:00:00,1234A,121.8358,29.911,宁波市,区环保大楼,,15,11,11,6,5,61,47,60,49,1,7,6,6,0.5,0.5
2022-09-14T15:00:00,1235A,121.56,29.82,宁波市,万里学院,,14,8,14,2,5,68,44,58,44,5,10,4,5,0.4,0.5
2022-09-14T15:00:00,1236A,121.713,29.9572,宁波市,龙赛医院,,20,20,13,5,5,69,50,64,49,3,7,6,5,0.4,0.4
2022-09-14T15:00:00,1239A,121.633,29.7733,宁波市,钱湖水厂,,14,6,9,4,5,66,44,58,45,2,5,4,4,0.4,0.5
2022-09-14T15:00:00,1240A,121.5856,29.8635,宁波市,太古小学,,13,6,8,3,5,66,41,58,42,6,11,6,7,0.5,0.6
2022-09-14T15:00:00,1241A,121.524,29.8674,宁波市,市环境监测中心,,12,9,14,4,5,64,38,55,38,5,10,5,5,0.4,0.4
2022-09-14T15:00:00,1242A,120.634,28.0089,温州市,瓯海,,32,32,17,9,5,66,47,44,44,17,16,6,6,0.4,0.5
2022-09-14T15:00:00,1243A,120.6748,27.9939,温州市,南浦,,18,16,12,7,6,71,56,51,51,9,11,4,4,0.3,0.4
2022-09-14T15:00:00,1244A,120.76,27.9747,温州市,龙湾,,18,18,15,6,6,57,47,43,43,16,20,5,5,0.3,0.5
2022-09-14T15:00:00,1245A,120.6709,28.0167,温州市,市站,,18,7,12,3,5,69,56,50,50,10,16,5,5,0.4,0.5
2022-09-14T15:00:00,1246A,120.598,30.0911,绍兴市,袍江站,,,,,,,,,,,,,,,,
2022-09-14T15:00:00,1247A,120.6053,29.9928,绍兴市,城东开发委,,15,14,17,9,12,45,45,40,38,12,12,7,7,0.7,0.7
2022-09-14T15:00:00,1250A,120.0751,30.8669,湖州市,城西水厂,,20,11,16,6,11,68,62,62,52,11,12,4,4,0.3,0.4
2022-09-14T15:00:00,1252A,120.7436,30.778,嘉兴市,清河小学,,18,11,14,6,7,72,57,52,51,13,14,5,5,0.6,0.6
2022-09-14T15:00:00,1253A,120.726,30.7478,嘉兴市,嘉兴学院,,18,14,16,11,10,71,56,50,50,14,13,4,4,0.5,0.4
2022-09-14T15:00:00,1255A,121.273,28.6459,台州市,黄岩环保大楼,,,2,3,2,22,55,53,52,52,,12,4,4,,0.5
2022-09-14T15:00:00,1256A,121.419,28.6542,台州市,台州环保大楼,,18,7,9,2,3,57,56,50,50,8,12,5,5,0.4,0.4
2022-09-14T15:00:00,1257A,121.377,28.5773,台州市,路桥田洋王,,18,4,5,3,5,57,56,51,51,7,10,4,4,0.3,0.3
2022-09-14T15:00:00,1258A,122.122,30.0203,舟山市,定海檀枫,,16,6,10,3,4,58,49,53,40,3,5,1,2,0.4,0.4
2022-09-14T15:00:00,1259A,122.3094,29.9558,舟山市,普陀东港,,21,21,16,5,6,63,56,54,40,10,12,2,3,0.3,0.4
2022-09-14T15:00:00,1260A,122.19,29.9944,舟山市,临城新区,,16,10,11,3,4,59,51,53,41,4,6,2,2,0.3,0.3
2022-09-14T15:00:00,1261A,119.649,29.1131,金华市,四中(停运161031),,,,,,,,,,,,,,,,
2022-09-14T15:00:00,1262A,119.647,29.077,金华市,十五中,,27,27,32,10,25,66,52,32,32,24,25,9,12,0.5,0.6
2022-09-14T15:00:00,1263A,119.686,29.1029,金华市,监测站,,19,14,24,2,15,63,59,40,40,18,23,6,7,0.6,0.7
2022-09-14T15:00:00,1264A,118.8692,28.9398,衢州市,环保大楼,,24,24,39,4,29,94,47,41,41,18,20,3,8,0.5,0.6
2022-09-14T15:00:00,1265A,118.8709,28.9666,衢州市,实验学校,,22,22,47,4,30,94,19,58,18,24,23,4,11,0.4,0.6
2022-09-14T15:00:00,1266A,118.8621,28.9808,衢州市,衢州学院,,18,5,37,3,31,110,55,65,45,15,19,6,14,0.5,0.7
2022-09-14T15:00:00,1267A,119.914,28.4514,丽水市,监测站大楼,,18,13,18,8,15,56,55,48,48,9,16,6,6,0.4,0.5
2022-09-14T15:00:00,1268A,119.93,28.4586,丽水市,莲都小学,,19,11,19,3,9,59,59,51,51,11,16,6,6,0.4,0.4
2022-09-14T15:00:00,1269A,119.879,28.4231,丽水市,余庄前,,17,5,25,5,14,53,53,33,33,9,19,8,8,0.4,0.5
2022-09-14T15:00:00,1270A,117.1959,31.7848,合肥市,明珠广场,,39,39,31,24,14,100,89,76,74,14,15,8,8,0.6,0.5
2022-09-14T15:00:00,1271A,117.3072,31.8764,合肥市,三里街,,38,38,29,24,11,86,86,67,67,18,15,5,5,0.7,0.5
2022-09-14T15:00:00,1272A,117.2588,31.8707,合肥市,琥珀山庄,,46,46,28,24,12,84,81,70,70,19,16,5,5,0.6,0.5
2022-09-14T15:00:00,1273A,117.1604,31.9052,合肥市,董铺水库(对照点),,44,44,31,29,11,84,81,70,70,11,10,8,8,0.6,0.5
2022-09-14T15:00:00,1274A,117.25,31.8571,合肥市,长江中路,颗粒物(PM10),51,51,31,24,16,90,89,76,76,9,7,8,8,0.5,0.6
2022-09-14T15:00:00,1275A,117.266,31.9436,合肥市,庐阳区,,45,41,34,31,18,92,92,73,73,14,13,9,9,0.5,0.4
2022-09-14T15:00:00,1276A,117.336,31.8586,合肥市,瑶海区,,48,48,35,24,12,83,74,65,64,28,17,10,10,0.8,0.6
2022-09-14T15:00:00,1277A,117.3027,31.7964,合肥市,包河区,,45,36,28,31,13,83,83,66,66,22,21,8,9,0.6,0.5
2022-09-14T15:00:00,1278A,117.2776,31.7385,合肥市,滨湖新区,,,46,30,24,10,89,81,67,66,20,16,,8,0.7,0.5
2022-09-14T15:00:00,1279A,117.1318,31.8403,合肥市,高新区,,46,46,32,27,14,100,90,82,82,16,16,2,3,0.6,0.6
2022-09-14T15:00:00,1280A,119.3903,26.0543,福州市,鼓山(对照点),,,,,,,,,,,,,,,,
2022-09-14T15:00:00,1282A,119.2681,26.0504,福州市,师大,,27,18,27,6,12,143,84,106,85,2,7,3,4,0.4,0.4
2022-09-14T15:00:00,1283A,119.2984,26.1028,福州市,五四北路,,25,17,27,9,12,129,80,97,80,4,10,2,3,0.3,0.4
2022-09-14T15:00:00,1284A,119.2648,26.0768,福州市,杨桥西路,,27,14,24,9,14,143,84,102,85,4,8,3,3,0.3,0.4
2022-09-14T15:00:00,1285A,119.317,26.0746,福州市,紫阳,,26,18,29,8,14,140,83,98,84,6,11,4,5,0.3,0.4
2022-09-14T15:00:00,1286A,118.1608,24.8169,厦门市,溪东(对照点),,,,,,,,,,,,,,,,
2022-09-14T15:00:00,1287A,118.1514,24.4767,厦门市,洪文,,48,39,54,17,33,175,153,114,114,10,19,4,5,0.4,0.5
2022-09-14T15:00:00,1288A,118.0661,24.4444,厦门市,鼓浪屿,,50,50,53,33,36,151,117,98,98,46,30,24,7,1.2,0.6
2022-09-14T15:00:00,1290A,115.8931,28.6843,南昌市,省外办,,39,39,41,8,8,148,103,84,84,8,11,7,9,0.5,0.6
2022-09-14T15:00:00,1291A,115.8886,28.7003,南昌市,省林业公司,,32,19,30,5,9,144,102,82,82,7,14,4,5,0.4,0.5
2022-09-14T15:00:00,1292A,115.8126,28.7442,南昌市,林科所,,35,19,24,5,10,149,112,89,89,5,7,5,6,0.4,0.5
2022-09-14T15:00:00,1294A,115.8518,28.687,南昌市,建工学校,,35,10,36,7,16,151,109,87,87,9,16,8,8,0.6,0.6
2022-09-14T15:00:00,1295A,115.8921,28.6424,南昌市,象湖,,,33,31,,6,146,106,87,87,4,10,3,5,0.4,0.5
2022-09-14T15:00:00,1296A,115.7423,28.7996,南昌市,武术学校(对照点),,29,12,23,10,18,117,92,66,66,2,3,8,6,0.3,0.4
2022-09-14T15:00:00,1298A,115.9314,28.6842,南昌市,省站,,34,34,41,15,17,137,98,80,80,9,14,4,5,0.6,0.7
2022-09-14T15:00:00,1299A,116.9862,36.6114,济南市,科干所,,34,34,59,15,33,199,99,112,92,17,24,5,8,0.4,0.6
2022-09-14T15:00:00,1300A,116.9376,36.665,济南市,农科所,,32,29,62,10,22,203,102,84,84,7,23,6,8,0.3,0.5
2022-09-14T15:00:00,1301A,117.1265,36.6734,济南市,开发区,,32,32,67,12,27,190,99,81,81,16,34,4,8,0.5,0.8
2022-09-14T15:00:00,1303A,117.0624,36.6868,济南市,省种子仓库,,30,29,67,14,31,188,95,77,77,5,24,4,7,0.5,0.8
2022-09-14T15:00:00,1304A,116.9489,36.6447,济南市,机床二厂,,41,41,83,12,30,211,103,85,85,13,25,6,8,0.5,0.7
2022-09-14T15:00:00,1305A,117.0495,36.663,济南市,市监测站,,37,37,65,15,33,196,95,81,81,13,28,7,10,0.6,0.9
2022-09-14T15:00:00,1306A,116.7675,36.5484,济南市,长清党校,,42,42,66,22,35,229,120,113,93,15,28,5,6,0.4,0.6
2022-09-14T15:00:00,1307A,120.6659,36.2403,青岛市,仰口(对照点),,,,,,,,,,,,,,,,
2022-09-14T15:00:00,1308A,120.3905,36.1851,青岛市,李沧区子站,,,,,,,,,,,,,,,,
2022-09-14T15:00:00,1309A,120.3471,36.0699,青岛市,市北区子站,,,,,,,,,,,,,,,,
2022-09-14T15:00:00,1310A,120.4134,36.0658,青岛市,市南区东部子站,,23,7,24,2,14,116,71,92,51,7,17,6,6,0.2,0.3
2022-09-14T15:00:00,1311A,120.3664,36.1032,青岛市,四方区子站,,17,0,28,0,14,109,54,75,31,19,22,3,5,0.4,0.5
2022-09-14T15:00:00,1312A,120.2994,36.054,青岛市,市南区西部子站,,23,7,31,2,12,127,73,84,43,10,25,6,8,0.5,0.6
2022-09-14T15:00:00,1313A,120.4581,36.0858,青岛市,崂山区子站,,25,14,28,2,14,130,80,97,70,8,13,5,5,0.2,0.3
2022-09-14T15:00:00,1314A,120.1983,35.9608,青岛市,黄岛区子站,,25,9,35,5,21,130,80,55,55,10,34,4,6,0.3,0.4
2022-09-14T15:00:00,1315A,120.3999,36.3083,青岛市,城阳区子站,,23,2,24,2,13,122,73,83,58,5,12,4,5,0.4,0.5
2022-09-14T15:00:00,1316A,113.69031,34.76122,郑州市,烟厂,颗粒物(PM10),52,53,71,22,42,192,124,134,102,7,14,2,5,0.4,0.5
2022-09-14T15:00:00,1317A,113.65724,34.77134,郑州市,郑纺机,颗粒物(PM10),51,51,71,22,37,193,138,149,116,3,12,7,9,0.4,0.6
2022-09-14T15:00:00,1318A,113.67526,34.80246,郑州市,银行学校,,44,44,67,18,37,192,136,137,114,9,17,5,8,0.9,1
2022-09-14T15:00:00,1319A,113.56746,34.81334,郑州市,供水公司,,45,44,65,19,34,186,142,145,118,7,16,3,5,0.5,0.6
2022-09-14T15:00:00,1320A,113.7329,34.7178,郑州市,经开区管委,,45,42,67,20,39,209,141,160,121,7,13,3,6,0.5,0.6
2022-09-14T15:00:00,1321A,113.73961,34.77172,郑州市,四十七中,颗粒物(PM10),53,56,70,20,36,206,144,156,122,7,16,5,7,0.5,0.7
2022-09-14T15:00:00,1322A,113.60532,34.74838,郑州市,市监测站,,,44,67,,,200,144,162,124,5,12,2,4,0.4,0.5
2022-09-14T15:00:00,1323A,113.64164,34.7525,郑州市,河医大,颗粒物(PM10),56,61,78,26,41,193,130,148,112,15,22,5,8,0.6,0.7
2022-09-14T15:00:00,1324A,113.51488,34.91089,郑州市,岗李水库(对照点),,,,,,,,,,,,,,,,
2022-09-14T15:00:00,1325A,114.3677,30.5584,武汉市,东湖梨园,,35,19,24,10,14,140,112,94,89,8,11,8,8,0.5,0.5
2022-09-14T15:00:00,1326A,114.2529,30.558,武汉市,汉阳月湖,,35,19,27,14,14,140,112,96,89,9,14,6,6,0.6,0.6
2022-09-14T15:00:00,1327A,114.282,30.6189,武汉市,汉口花桥,,37,26,34,12,19,140,116,98,90,8,13,7,8,0.7,0.7
2022-09-14T15:00:00,1328A,114.3025,30.5332,武汉市,武昌紫阳,,35,15,23,17,16,134,109,89,86,8,14,12,12,0.5,0.5
2022-09-14T15:00:00,1329A,114.3646,30.6217,武汉市,青山钢花,,34,28,35,17,21,135,108,85,85,8,17,7,7,0.4,0.5
2022-09-14T15:00:00,1330A,114.1566,30.4825,武汉市,沌口新区,,34,28,34,18,23,133,106,89,86,13,17,7,8,0.6,0.7
2022-09-14T15:00:00,1331A,114.3014,30.5944,武汉市,汉口江滩,,36,27,30,14,18,144,115,101,91,8,13,7,7,0.7,0.7
2022-09-14T15:00:00,1333A,114.135,30.6319,武汉市,吴家山,,37,22,37,15,18,146,117,104,88,10,17,5,5,0.6,0.7
2022-09-14T15:00:00,1334A,113.8454,30.2917,武汉市,沉湖七壕(对照点),,35,16,32,15,18,151,110,97,97,20,31,8,8,0.6,0.6
2022-09-14T15:00:00,1335A,113.0833,28.2325,长沙市,经开区环保局,,49,41,55,22,42,202,156,124,124,6,18,7,8,0.3,0.4
2022-09-14T15:00:00,1336A,112.8872,28.2189,长沙市,高开区环保局,,44,35,60,30,36,188,138,117,117,1,9,7,8,0.3,0.5
2022-09-14T15:00:00,1337A,113.0792,28.2053,长沙市,马坡岭,颗粒物(PM10),51,51,63,22,38,176,135,107,102,7,19,8,9,0.4,0.5
2022-09-14T15:00:00,1338A,112.9394,28.19,长沙市,湖南师范大学,,46,46,60,24,27,178,130,112,109,3,9,4,4,0.2,0.4
2022-09-14T15:00:00,1339A,113.0178,28.1322,长沙市,雨花区环保局,,48,42,52,17,31,196,152,136,126,6,14,7,8,0.2,0.3
2022-09-14T15:00:00,1340A,112.9792,28.2597,长沙市,伍家岭,,42,37,56,22,33,185,132,114,111,5,15,5,7,0.3,0.4
2022-09-14T15:00:00,1341A,113.0014,28.1944,长沙市,火车新站,,43,43,54,22,39,184,137,122,114,5,13,5,7,0.4,0.5
2022-09-14T15:00:00,1342A,112.9844,28.1178,长沙市,天心区环保局,,46,46,59,22,34,184,143,128,114,5,13,5,7,0.4,0.5
2022-09-14T15:00:00,1343A,112.8908,28.1308,长沙市,湖南中医药大学,,43,36,55,18,40,185,137,114,114,1,10,5,5,0.4,0.5
2022-09-14T15:00:00,1344A,112.9581,28.3611,长沙市,沙坪(对照点),,41,37,59,21,38,188,131,118,111,7,13,5,7,0.4,0.6
2022-09-14T15:00:00,1345A,113.2347,23.1423,广州市,广雅中学,臭氧1小时,102,60,69,31,36,204,203,153,153,27,46,8,8,0.8,0.9
2022-09-14T15:00:00,1346A,113.2612,23.105,广州市,市五中,臭氧1小时,123,56,59,34,40,245,245,186,186,14,25,8,8,0.8,0.8
2022-09-14T15:00:00,1348A,113.3478,23.0916,广州市,广东商学院,臭氧1小时,99,62,73,30,37,209,199,164,164,15,43,6,6,0.5,0.6
2022-09-14T15:00:00,1349A,113.4332,23.1047,广州市,市八十六中,臭氧1小时,106,56,67,28,35,212,212,153,153,15,51,6,6,0.7,0.8
2022-09-14T15:00:00,1350A,113.3505,22.9483,广州市,番禺中学,臭氧1小时,128,67,69,31,38,262,256,180,180,17,46,5,5,0.7,0.8
2022-09-14T15:00:00,1351A,113.2146,23.3916,广州市,花都师范,臭氧1小时,101,73,62,65,43,202,202,176,176,,22,6,9,0.6,0.9
2022-09-14T15:00:00,1352A,113.2597,23.1331,广州市,市监测站,臭氧1小时,120,48,66,34,40,240,240,212,212,14,42,8,8,0.8,0.9
2022-09-14T15:00:00,1353A,113.5618,23.312,广州市,九龙镇镇龙,臭氧1小时,53,52,74,28,39,162,162,119,119,8,32,6,5,0.9,1
2022-09-14T15:00:00,1354A,113.2765,23.1544,广州市,麓湖,臭氧1小时,121,55,59,37,38,241,241,163,163,16,46,7,5,0.7,0.8
2022-09-14T15:00:00,1355A,113.443,23.3035,广州市,帽峰山森林公园(对照点),,,,46,,32,176,,129,108,,8,,5,,0.6
2022-09-14T15:00:00,1356A,114.1063,22.5545,深圳市,通心岭子站,臭氧1小时,116,51,56,30,38,231,231,162,162,14,34,4,4,0.7,0.7
2022-09-14T15:00:00,1357A,114.117,22.5625,深圳市,洪湖,臭氧1小时,121,63,79,39,37,241,241,166,166,19,54,6,6,0.4,0.5
2022-09-14T15:00:00,1358A,113.987,22.5417,深圳市,华侨城,臭氧1小时,105,48,62,34,37,236,209,157,153,6,17,4,5,0.5,0.6
2022-09-14T15:00:00,1359A,113.9181,22.5171,深圳市,南海子站,臭氧1小时,126,61,62,28,35,281,252,180,180,17,37,6,6,0.7,0.8
2022-09-14T15:00:00,1360A,114.2458,22.5689,深圳市,盐田,臭氧1小时,110,45,42,38,28,220,220,170,170,19,20,,5,0.6,0.7
2022-09-14T15:00:00,1361A,114.2283,22.7244,深圳市,龙岗,臭氧1小时,106,62,60,30,33,212,212,155,155,9,31,6,6,0.4,0.4
2022-09-14T15:00:00,1362A,113.8953,22.5861,深圳市,西乡,,,,,,,,,,,,,,,,
2022-09-14T15:00:00,1363A,114.494,22.5422,深圳市,南澳,臭氧1小时,88,53,45,30,26,237,190,166,166,14,16,3,5,0.7,0.8
2022-09-14T15:00:00,1364A,114.41,22.6342,深圳市,葵涌,臭氧1小时,63,42,48,25,30,204,170,154,154,9,19,9,9,0.7,0.7
2022-09-14T15:00:00,1365A,114.297,22.5978,深圳市,梅沙,臭氧1小时,88,56,50,29,26,190,190,154,154,12,14,8,9,0.7,0.8
2022-09-14T15:00:00,1366A,114.0678,22.738,深圳市,观澜,臭氧1小时,111,67,89,33,37,226,221,155,155,16,31,7,7,0.3,0.5
2022-09-14T15:00:00,1367A,113.5814,22.2618,珠海市,吉大,臭氧1小时,115,60,63,32,39,279,230,170,170,26,23,6,7,0.7,0.9
2022-09-14T15:00:00,1368A,113.4881,22.2335,珠海市,前山,臭氧1小时,129,66,66,40,40,294,258,189,189,29,39,6,7,,0.6
2022-09-14T15:00:00,1369A,113.628,22.4251,珠海市,唐家,臭氧1小时,122,57,64,30,43,297,244,179,179,11,17,7,7,0.4,0.5
2022-09-14T15:00:00,1370A,113.299,22.2281,珠海市,斗门,臭氧1小时,113,40,61,29,38,292,225,169,169,14,26,9,10,0.6,0.8
2022-09-14T15:00:00,1371A,113.1294,23.0067,佛山市,湾梁,臭氧1小时,106,48,64,28,35,234,211,173,173,8,28,6,9,0.5,0.6
2022-09-14T15:00:00,1372A,113.1083,23.0478,佛山市,华材职中,臭氧1小时,99,56,70,34,40,227,199,162,162,12,44,8,9,0.5,0.6
2022-09-14T15:00:00,1373A,113.144,23.0453,佛山市,南海气象局,臭氧1小时,106,54,64,30,38,228,212,165,165,13,40,7,9,0.6,0.8
2022-09-14T15:00:00,1374A,113.2881,22.8094,佛山市,顺德苏岗,臭氧1小时,124,39,53,29,35,258,248,166,166,15,36,7,9,0.7,0.8
2022-09-14T15:00:00,1375A,113.2544,22.7642,佛山市,容桂街道办,,,,,,,,,,,,,,,,
2022-09-14T15:00:00,1376A,112.8383,22.8678,佛山市,高明孔堂,臭氧1小时,106,59,60,31,39,217,211,178,178,11,23,7,9,,0.7
2022-09-14T15:00:00,1377A,112.8836,23.1588,佛山市,三水监测站,臭氧1小时,80,46,65,34,41,202,184,143,143,10,39,6,7,0.7,0.8
2022-09-14T15:00:00,1378A,112.867,23.185,佛山市,三水云东海,臭氧1小时,67,43,57,35,40,185,173,140,140,13,28,6,7,0.6,0.7
2022-09-14T15:00:00,1379A,113.3769,22.5211,中山市,华柏园,臭氧1小时,124,50,70,32,42,289,248,168,168,18,30,6,9,0.7,0.9
2022-09-14T15:00:00,1380A,113.3881,22.5497,中山市,张溪,臭氧1小时,131,49,78,25,41,288,262,190,190,16,32,4,7,0.6,0.8
2022-09-14T15:00:00,1381A,113.4075,22.5111,中山市,紫马岭,臭氧1小时,125,60,75,33,42,296,250,176,176,18,35,6,8,0.4,0.6
2022-09-14T15:00:00,1382A,113.4411,22.4853,中山市,长江旅游区(对照点),臭氧1小时,113,70,58,46,51,281,226,163,163,16,17,10,11,0.5,0.6
2022-09-14T15:00:00,1383A,113.1064,22.6058,江门市,北街,臭氧1小时,129,61,64,30,34,295,257,173,173,14,27,9,11,0.7,0.8
2022-09-14T15:00:00,1384A,113.0731,22.5835,江门市,西区,臭氧1小时,122,56,72,36,42,266,243,190,190,16,35,7,10,0.6,0.8
2022-09-14T15:00:00,1385A,113.0219,22.5311,江门市,圭峰西,臭氧1小时,110,62,64,28,38,245,219,169,169,16,27,9,11,0.6,0.7
2022-09-14T15:00:00,1386A,113.0828,22.5947,江门市,东湖,臭氧1小时,123,49,68,34,39,271,246,179,179,14,28,8,10,0.6,0.8
2022-09-14T15:00:00,1387A,113.7875,23.0457,东莞市,东城主山,,,,,,,,,,,,,,,,
2022-09-14T15:00:00,1388A,113.7533,23.0202,东莞市,南城元岭,,,,,,,,,,,,,,,,
2022-09-14T15:00:00,1389A,113.7547,23.0494,东莞市,莞城梨川,臭氧1小时,75,34,53,20,32,200,180,160,160,12,22,10,10,0.9,1
2022-09-14T15:00:00,1390A,113.7944,23.0128,东莞市,东城石井,臭氧1小时,85,32,45,20,29,200,188,159,159,16,23,9,11,0.8,0.9
2022-09-14T15:00:00,1391A,113.7383,22.9658,东莞市,南城西平,臭氧1小时,89,46,57,32,34,207,191,155,155,16,37,16,15,0.7,0.9
2022-09-14T15:00:00,1392A,114.4183,23.0528,惠州市,河南岸金山湖子站,,49,49,66,17,29,173,150,128,128,10,25,5,6,0.6,0.7
2022-09-14T15:00:00,1393A,114.4053,23.0822,惠州市,下埔横江三路子站,,48,42,57,16,24,175,152,139,139,14,23,6,8,0.6,0.7
2022-09-14T15:00:00,1394A,114.4103,23.1142,惠州市,江北云山西路子站,,50,29,55,19,32,190,158,140,140,5,20,7,10,0.6,0.7
2022-09-14T15:00:00,1395A,114.4645,22.7833,惠州市,惠阳区承修路船湖子站,臭氧1小时,58,52,60,25,37,186,166,146,146,9,22,7,8,0.7,0.9
2022-09-14T15:00:00,1396A,114.5317,22.7422,惠州市,大亚湾管委会子站,臭氧1小时,78,62,52,26,32,202,182,155,155,13,26,3,3,0.7,0.7
2022-09-14T15:00:00,1397A,112.4267,23.0706,肇庆市,睦岗子站,臭氧1小时,68,43,54,31,34,211,174,153,153,13,29,4,5,0.5,0.6
2022-09-14T15:00:00,1398A,112.4645,23.0475,肇庆市,城中子站,臭氧1小时,77,41,51,28,33,206,181,155,155,13,38,6,7,0.6,0.7
2022-09-14T15:00:00,1399A,112.5544,23.1522,肇庆市,坑口子站,臭氧1小时,101,51,48,31,34,212,202,156,156,13,17,10,8,0.6,0.6
2022-09-14T15:00:00,1400A,112.4753,23.1,肇庆市,七星岩子站(对照点),,,,,,,,,,,,,,,,
2022-09-14T15:00:00,1401A,108.3103,22.7881,南宁市,二十一中,臭氧1小时,70,63,53,30,31,176,176,93,93,11,21,8,8,0.8,0.8
2022-09-14T15:00:00,1402A,108.3141,22.8528,南宁市,北湖,,,59,52,34,30,186,186,103,103,12,17,8,9,,0.8
2022-09-14T15:00:00,1403A,108.3206,22.8225,南宁市,市监测站,臭氧1小时,89,55,54,36,36,191,191,95,95,18,27,9,9,0.8,0.8
2022-09-14T15:00:00,1404A,108.3829,22.8037,南宁市,大自然花园,臭氧1小时,102,60,50,39,34,203,203,106,106,14,18,9,9,0.9,0.9
2022-09-14T15:00:00,1405A,108.4394,22.7904,南宁市,仙葫(对照点),臭氧1小时,84,64,54,35,35,187,187,102,102,12,27,8,9,1.0,1
2022-09-14T15:00:00,1406A,108.2397,22.8467,南宁市,区农职院,,46,46,48,32,27,138,138,89,89,8,15,8,8,0.8,0.8
2022-09-14T15:00:00,1407A,108.3275,22.735,南宁市,英华嘉园,臭氧1小时,82,74,57,40,33,185,185,87,87,16,27,8,7,0.9,0.9
2022-09-14T15:00:00,1408A,108.2257,22.7757,南宁市,沙井镇街道办,颗粒物(PM10),52,54,50,30,30,160,160,90,90,9,19,6,8,0.5,0.6
2022-09-14T15:00:00,1409A,110.576,19.9507,海口市,东寨港(对照点),,,30,28,24,20,110,110,80,80,,,7,6,0.5,0.5
2022-09-14T15:00:00,1410A,110.3232,20.0574,海口市,海南大学,,32,25,33,22,22,120,99,92,87,6,9,5,5,0.7,0.7
2022-09-14T15:00:00,1411A,110.283,20.0053,海口市,秀英海南医院,颗粒物(PM10),56,62,42,22,28,112,110,92,92,6,13,6,6,0.6,0.7
2022-09-14T15:00:00,1412A,110.338,19.9969,海口市,海南师范大学,,39,38,45,27,23,117,116,96,96,7,15,4,4,0.6,0.7
2022-09-14T15:00:00,1413A,110.33,20.0356,海口市,龙华路环保局宿舍,,32,27,36,18,21,119,100,86,86,4,10,4,4,0.5,0.6
2022-09-14T15:00:00,1414A,106.3787,29.8279,重庆市,缙云山(对照点),臭氧1小时,64,35,32,9,12,179,171,132,132,16,15,5,5,0.5,0.5
2022-09-14T15:00:00,1416A,106.4213,29.8253,重庆市,天生,臭氧1小时,67,35,37,20,26,192,173,142,142,13,13,6,7,0.7,0.7
2022-09-14T15:00:00,1417A,106.6263,29.7228,重庆市,两路,,50,41,38,29,28,176,157,117,117,37,28,9,9,0.9,0.8
2022-09-14T15:00:00,1418A,106.2953,29.5983,重庆市,虎溪,臭氧1小时,70,63,43,23,25,180,176,127,127,16,23,6,7,0.6,0.5
2022-09-14T15:00:00,1419A,106.5777,29.5102,重庆市,南坪,,41,38,48,20,27,205,131,117,117,8,20,2,5,0.5,0.7
2022-09-14T15:00:00,1420A,106.6556,29.6277,重庆市,唐家沱,臭氧1小时,101,37,42,21,21,209,201,146,146,17,16,9,8,0.6,0.5
2022-09-14T15:00:00,1421A,106.6349,29.4906,重庆市,茶园,臭氧1小时,57,45,45,23,22,212,165,163,163,17,29,8,10,0.6,0.6
2022-09-14T15:00:00,1422A,106.3754,29.4572,重庆市,白市驿,颗粒物(PM10),53,56,48,16,25,189,136,120,120,15,19,6,9,0.5,0.7
2022-09-14T15:00:00,1425A,106.6205,29.7166,重庆市,空港,臭氧1小时,85,36,35,29,28,195,188,139,139,12,14,7,6,0.9,0.8
2022-09-14T15:00:00,1426A,106.4782,29.4875,重庆市,新山村,,42,40,47,17,24,200,134,110,110,24,32,6,10,0.3,0.5
2022-09-14T15:00:00,1427A,106.5616,29.6453,重庆市,礼嘉,臭氧1小时,106,29,30,,15,219,211,139,139,22,26,13,11,1.0,0.9
2022-09-14T15:00:00,1428A,106.4522,29.7091,重庆市,蔡家,臭氧1小时,77,44,36,24,22,182,181,124,124,19,21,7,6,0.6,0.6
2022-09-14T15:00:00,1429A,106.5093,29.3917,重庆市,鱼新街,颗粒物(PM10),57,64,41,21,27,203,126,102,102,13,23,5,9,0.8,0.9
2022-09-14T15:00:00,1431A,103.9728,30.7236,成都市,金泉两河,,25,15,29,11,26,102,80,77,77,9,10,2,3,0.4,0.4
2022-09-14T15:00:00,1432A,104.1419,30.6764,成都市,十里店,,21,13,31,10,24,108,67,72,66,10,8,4,5,0.5,0.5
2022-09-14T15:00:00,1433A,104.0594,30.5767,成都市,三瓦窑,,23,7,26,6,23,118,73,74,72,11,9,2,2,0.8,0.8
2022-09-14T15:00:00,1434A,104.1122,30.6306,成都市,沙河铺,,22,11,32,10,24,116,68,73,66,12,10,5,5,0.7,0.7
2022-09-14T15:00:00,1437A,104.0431,30.6556,成都市,君平街,,26,12,27,11,25,115,81,79,78,4,3,4,4,0.8,0.8
2022-09-14T15:00:00,1438A,103.6202,31.0201,成都市,灵岩寺(对照点),,18,3,22,2,17,124,57,101,61,8,5,5,6,0.8,0.9
2022-09-14T15:00:00,1439A,106.6899,26.5998,贵阳市,马鞍山,,19,9,7,2,4,65,60,46,46,3,5,3,3,0.4,0.4
2022-09-14T15:00:00,1440A,106.6971,26.5694,贵阳市,市环保站,,,9,7,12,10,0,0,0,0,,,,4,0.6,0.3
2022-09-14T15:00:00,1441A,106.6243,26.6266,贵阳市,鉴湖路,,21,14,10,9,6,67,67,49,49,3,4,3,3,0.2,0.2
2022-09-14T15:00:00,1442A,106.7487,26.6343,贵阳市,燕子冲,,19,12,12,12,13,58,58,41,41,2,4,5,5,0.4,0.4
2022-09-14T15:00:00,1443A,106.6555,26.4365,贵阳市,碧云窝,,24,24,18,5,4,73,73,52,52,4,5,5,4,0.3,0.4
2022-09-14T15:00:00,1444A,106.694,26.5161,贵阳市,中院村,,,14,13,2,5,62,62,47,47,2,5,8,8,,
2022-09-14T15:00:00,1445A,106.7109,26.6027,贵阳市,红边门,,,,,,,,,,,,,,,,
2022-09-14T15:00:00,1446A,106.7164,26.5699,贵阳市,新华路,,19,12,8,5,9,61,60,46,46,2,4,1,2,0.4,0.4
2022-09-14T15:00:00,1447A,106.674,26.5424,贵阳市,太慈桥,,21,12,16,5,3,67,67,46,46,3,5,2,4,0.3,0.3
2022-09-14T15:00:00,1450A,102.8204,24.8886,昆明市,呈贡新区,,20,6,18,4,7,102,62,44,44,5,14,6,8,0.3,0.3
2022-09-14T15:00:00,1451A,102.6251,24.9608,昆明市,西山森林公园(对照点),,20,10,10,8,8,113,63,44,44,5,6,8,7,0.5,0.6
2022-09-14T15:00:00,1452A,102.7252,25.0902,昆明市,龙泉镇,,18,11,19,8,10,107,56,34,34,7,18,7,7,0.3,0.5
2022-09-14T15:00:00,1453A,102.7266,25.0375,昆明市,东风东路,,17,8,17,2,9,100,52,32,32,10,19,5,6,0.4,0.5
2022-09-14T15:00:00,1454A,102.6742,25.0669,昆明市,金鼎山,,18,17,18,5,9,85,56,35,35,5,12,5,7,0.4,0.6
2022-09-14T15:00:00,1455A,102.6644,25.0401,昆明市,碧鸡广场,,17,13,17,7,17,87,53,34,34,6,17,9,11,0.3,0.5
2022-09-14T15:00:00,1456A,91.1319,29.6514,拉萨市,八廓街,,19,1,2,0,0,74,60,56,56,2,3,8,7,0,0
2022-09-14T15:00:00,1457A,91.1221,29.6747,拉萨市,市环保局,,19,3,4,2,1,71,60,54,54,5,6,6,6,0.1,0.1
2022-09-14T15:00:00,1458A,91.0874,29.6475,拉萨市,区监测站,,22,1,2,0,0,88,69,65,65,2,4,9,9,0.2,0.2
2022-09-14T15:00:00,1459A,91.1774,29.6541,拉萨市,西藏大学,,20,1,5,0,1,74,63,59,59,5,6,9,10,0.1,0.2
2022-09-14T15:00:00,1460A,90.9798,29.6588,拉萨市,区辐射站,,33,5,4,23,22,69,60,55,55,4,6,9,9,0.1,0.1
2022-09-14T15:00:00,1461A,91.0834,29.6292,拉萨市,拉萨火车站,,,,,3,1,80,64,58,58,3,5,10,10,0,0
2022-09-14T15:00:00,1462A,108.882,34.2749,西安市,高压开关厂,臭氧1小时,73,77,74,46,39,180,178,136,136,13,21,5,6,0.7,0.6
2022-09-14T15:00:00,1463A,108.993,34.2629,西安市,兴庆小区,颗粒物(PM10),62,74,61,40,35,158,158,132,132,12,17,6,6,0.6,0.6
2022-09-14T15:00:00,1464A,109.06,34.2572,西安市,纺织城,细颗粒物(PM2.5),72,76,66,52,38,171,171,141,141,17,31,8,7,0.6,0.7
2022-09-14T15:00:00,1465A,108.9356,34.2173,西安市,小寨,细颗粒物(PM2.5),69,84,59,50,32,174,157,124,124,27,25,1,3,0.6,0.5
2022-09-14T15:00:00,1466A,108.954,34.2713,西安市,市人民体育场,臭氧1小时,75,84,73,44,37,184,180,140,140,14,25,9,9,0.6,0.6
2022-09-14T15:00:00,1467A,108.8922,34.2322,西安市,高新西区,细颗粒物(PM2.5),72,90,64,52,39,177,159,128,128,22,22,7,6,0.9,0.7
2022-09-14T15:00:00,1468A,108.935,34.3474,西安市,经开区,颗粒物(PM10),61,72,78,36,44,175,168,142,142,13,22,5,7,0.5,0.5
2022-09-14T15:00:00,1469A,108.906,34.1546,西安市,长安区,颗粒物(PM10),87,123,72,59,35,177,143,106,96,25,28,8,8,0.6,0.5
2022-09-14T15:00:00,1470A,109.2,34.6575,西安市,阎良区,,,,,,,,,,,,,,,,
2022-09-14T15:00:00,1471A,109.2186,34.3731,西安市,临潼区,臭氧1小时,67,69,90,41,44,177,173,132,132,15,31,6,8,0.5,0.5
2022-09-14T15:00:00,1472A,108.869,34.378,西安市,草滩(对照点),,,72,69,36,46,163,156,136,136,19,23,7,7,,0.8
2022-09-14T15:00:00,1473A,108.985,34.1978,西安市,曲江文化产业集团,细颗粒物(PM2.5),88,115,68,65,38,176,159,125,121,27,19,6,5,0.9,0.7
2022-09-14T15:00:00,1474A,109.051,34.3213,西安市,广运潭,颗粒物(PM10),67,84,79,40,44,170,170,132,132,11,25,7,7,0.5,0.5
2022-09-14T15:00:00,1476A,103.631,36.1031,兰州市,兰炼宾馆,臭氧1小时,59,27,37,8,18,167,167,110,110,18,12,7,5,0.5,0.4
2022-09-14T15:00:00,1477A,104.1373,35.9454,兰州市,榆中兰大校区(对照点),,,,,,,,,,,,,,,,
2022-09-14T15:00:00,1478A,103.8412,36.0726,兰州市,生物制品所,,44,21,28,15,23,140,140,104,103,13,16,3,3,0.6,0.7
2022-09-14T15:00:00,1479A,103.831,36.0464,兰州市,铁路设计院,,40,27,33,9,18,127,127,93,93,16,15,5,5,0.6,0.7
2022-09-14T15:00:00,1480A,101.748,36.6428,西宁市,市环境监测站,,,,,,,,,,,,,,,,
2022-09-14T15:00:00,1482A,101.834,36.5819,西宁市,四陆医院,,,,,,,,,,,,,,,,
2022-09-14T15:00:00,1483A,101.524,36.6867,西宁市,第五水厂(对照点),,50,47,40,35,29,155,155,78,78,13,11,14,11,1.5,0.7
2022-09-14T15:00:00,1484A,105.9512,38.6016,银川市,贺兰山马莲口(对照点),臭氧1小时,53,31,24,29,16,164,162,133,133,9,11,10,12,0.5,0.5
2022-09-14T15:00:00,1488A,106.2328,38.4975,银川市,贺兰山东路,,49,49,43,31,22,157,148,128,128,14,22,7,14,0.7,0.7
2022-09-14T15:00:00,1489A,106.1358,38.5036,银川市,学院路,颗粒物(PM10),56,61,48,33,22,154,148,110,110,14,27,10,14,0.7,0.6
2022-09-14T15:00:00,1490A,87.5801,43.8303,乌鲁木齐市,监测站,,46,46,27,28,16,85,85,65,45,30,19,8,6,0.9,0.9
2022-09-14T15:00:00,1491A,87.6046,43.768,乌鲁木齐市,收费所,,48,46,29,33,14,85,82,58,43,35,19,8,7,0.5,0.4
2022-09-14T15:00:00,1492A,87.4754,43.9469,乌鲁木齐市,新疆农科院农场(对照点),,,60,47,43,16,91,78,38,38,,29,12,9,1.1,0.9
2022-09-14T15:00:00,1493A,87.5525,43.8711,乌鲁木齐市,铁路局,,49,49,29,27,12,86,86,61,48,27,15,8,6,0.6,0.5
2022-09-14T15:00:00,1494A,87.6432,43.831,乌鲁木齐市,三十一中学,,,55,32,,,93,93,72,60,22,9,9,6,0.4,0.3
2022-09-14T15:00:00,1496A,87.7216,44.1747,乌鲁木齐市,米东区环保局,,33,30,27,14,16,104,104,54,54,5,20,6,5,0.2,0.3
2022-09-14T15:00:00,1508A,112.9433,27.8614,湘潭市,板塘,臭氧1小时,60,42,62,20,39,202,168,133,133,9,14,6,6,0.3,0.4
2022-09-14T15:00:00,1511A,112.9118,27.8403,湘潭市,市监测站,,45,29,53,20,40,165,143,119,114,8,14,8,8,0.5,0.7
2022-09-14T15:00:00,1512A,112.8937,27.8728,湘潭市,江麓,,47,39,64,23,41,186,148,131,120,9,15,11,12,0.5,0.6
2022-09-14T15:00:00,1513A,112.9227,27.8159,湘潭市,岳塘,,50,42,67,20,38,196,159,135,130,9,16,6,6,0.4,0.5
2022-09-14T15:00:00,1514A,112.9074,27.9119,湘潭市,科大,,48,42,67,25,29,197,152,129,124,6,11,5,6,0.6,0.6
2022-09-14T15:00:00,1515A,113.135,27.8244,株洲市,天台山庄,臭氧1小时,85,34,51,26,38,210,188,152,137,9,18,5,5,0.3,0.5
2022-09-14T15:00:00,1518A,113.095,27.8867,株洲市,株冶医院,臭氧1小时,88,33,57,22,37,213,190,160,137,14,26,5,6,0.5,0.5
2022-09-14T15:00:00,1519A,113.167,27.8667,株洲市,市四中,臭氧1小时,92,36,53,26,34,217,193,147,147,10,23,3,4,0.3,0.5
2022-09-14T15:00:00,1520A,113.143,27.8381,株洲市,火车站,臭氧1小时,87,46,62,25,33,207,189,138,138,13,23,8,9,0.4,0.5
2022-09-14T15:00:00,1524A,113.13,27.8528,株洲市,市监测站,臭氧1小时,89,41,62,31,39,212,191,153,140,9,21,4,5,0.5,0.6
2022-09-14T15:00:00,1552A,106.805,26.3003,贵阳市,桐木岭(对照点),,,,,,,,,,,,,,,,
2022-09-14T15:00:00,1559A,113.251,27.8336,株洲市,大京风景区(对照点),,,,55,16,35,186,175,123,123,7,10,4,4,0.3,0.6
2022-09-14T15:00:00,1562A,113.0048,27.9153,湘潭市,昭山,颗粒物(PM10),52,53,68,25,38,182,153,120,120,17,23,4,4,0.5,0.6
2022-09-14T15:00:00,1564A,112.4876,27.9164,湘潭市,韶山(对照点),,43,35,56,13,24,185,135,168,122,8,10,6,7,0.4,0.6
2022-09-14T15:00:00,1585A,109.8756,40.6532,包头市,市环境监测站,颗粒物(PM10),57,63,51,39,27,165,162,128,128,9,29,7,30,0.6,0.8
2022-09-14T15:00:00,1587A,109.9991,40.5842,包头市,包头八中,"颗粒物(PM10),臭氧1小时",53,55,66,24,34,164,162,128,128,14,27,5,29,0.7,0.8
2022-09-14T15:00:00,1588A,109.8538,40.6821,包头市,青山宾馆,臭氧1小时,52,46,51,25,34,164,161,124,124,8,36,9,17,0.7,0.7
2022-09-14T15:00:00,1589A,109.8642,40.6288,包头市,惠龙物流,细颗粒物(PM2.5),63,57,53,45,24,165,164,132,132,8,20,8,21,0.6,0.6
2022-09-14T15:00:00,1590A,110.0377,40.5546,包头市,东河鸿龙湾,,50,42,58,16,23,159,158,122,122,7,23,6,26,0.7,0.7
2022-09-14T15:00:00,1591A,110.0023,39.8129,鄂尔多斯市,综合楼,臭氧1小时,60,67,62,28,24,168,168,136,136,19,23,8,9,0.7,0.7
2022-09-14T15:00:00,1592A,109.9486,39.8261,鄂尔多斯市,巴音孟克林场办事处,臭氧1小时,83,80,79,39,33,186,186,153,153,21,26,8,9,0.7,0.7
2022-09-14T15:00:00,1593A,109.7736,39.5986,鄂尔多斯市,康泽苑,臭氧1小时,85,63,72,31,33,188,188,138,138,10,16,7,10,0.7,0.8
2022-09-14T15:00:00,1594A,109.8119,39.5989,鄂尔多斯市,华泰汽车城,,,75,79,39,37,179,179,131,131,9,20,8,11,,0.6
2022-09-14T15:00:00,1595A,109.9734,39.7884,鄂尔多斯市,奥林花园,臭氧1小时,70,83,81,39,32,176,176,134,134,15,27,8,8,0.8,0.8
2022-09-14T15:00:00,1596A,122.2414,40.6592,营口市,学府南路,,,,,,,,,,,,,,,,
2022-09-14T15:00:00,1597A,122.2703,40.7094,营口市,大庆路,,49,48,46,34,21,184,58,50,45,25,19,9,6,0.8,0.7
2022-09-14T15:00:00,1598A,122.215,40.6511,营口市,镜湖西路,颗粒物(PM10),51,51,48,29,18,175,5,48,29,28,18,5,4,1.0,0.7
2022-09-14T15:00:00,1599A,122.167,40.6655,营口市,西炮台,颗粒物(PM10),60,69,41,35,21,159,51,48,39,20,17,3,4,0.8,0.6
2022-09-14T15:00:00,1600A,124.3303,40.0625,丹东市,江湾东路,,23,23,30,15,17,84,66,51,51,29,23,6,8,0.6,0.7
2022-09-14T15:00:00,1601A,124.4256,40.1503,丹东市,临江后街,,23,23,27,14,16,77,58,46,46,18,22,7,10,0.5,0.6
2022-09-14T15:00:00,1602A,124.3933,40.1461,丹东市,元宝山,,23,23,32,13,15,68,49,36,36,9,19,6,7,0.6,0.6
2022-09-14T15:00:00,1603A,124.3633,40.1092,丹东市,民主桥,,24,24,28,14,15,81,63,53,53,23,27,9,10,0.5,0.6
2022-09-14T15:00:00,1604A,122.0303,41.1489,盘锦市,开发区,,31,31,30,15,9,114,76,62,62,19,18,11,67,0.5,0.5
2022-09-14T15:00:00,1605A,122.0485,41.0883,盘锦市,兴隆台,,44,44,34,13,9,118,70,58,56,26,19,11,38,0.5,0.4
2022-09-14T15:00:00,1606A,121.8297,41.1028,盘锦市,新生街道,,29,29,27,10,9,111,74,61,61,19,16,49,13,0.5,0.4
2022-09-14T15:00:00,1607A,120.9092,40.7136,葫芦岛市,龙港区,颗粒物(PM10),58,65,46,20,16,130,81,64,64,27,26,88,42,0.3,0.6
2022-09-14T15:00:00,1608A,120.8392,40.7514,葫芦岛市,化工街,,47,47,47,9,16,136,84,69,69,28,23,11,16,0.3,0.4
2022-09-14T15:00:00,1609A,120.8341,40.7073,葫芦岛市,新区,,41,41,40,7,12,134,87,71,71,26,19,14,20,0.3,0.5
2022-09-14T15:00:00,1610A,120.8695,40.7677,葫芦岛市,东城区,,37,37,32,7,8,129,83,66,66,25,18,15,28,0.2,0.2
2022-09-14T15:00:00,1611A,118.5819,24.9117,泉州市,涂山街,,34,28,56,14,26,191,107,118,118,8,21,8,13,0.4,0.6
2022-09-14T15:00:00,1612A,118.5972,24.8978,泉州市,津头埔,,32,28,54,8,24,180,101,113,113,14,24,8,13,0.4,0.6
2022-09-14T15:00:00,1613A,118.6663,24.9424,泉州市,万安,,32,26,48,12,30,127,102,112,112,7,18,7,9,0.4,0.5
2022-09-14T15:00:00,1614A,118.6117,24.9604,泉州市,清源山(对照点),,,,,,,,,,,,,,,,
2022-09-14T15:00:00,1616A,117.6795,36.229,济南市,技术学院,颗粒物(PM10),58,66,66,31,30,150,150,127,127,19,24,8,6,0.4,0.5
2022-09-14T15:00:00,1618A,118.3429,35.0532,临沂市,沂河小区,,31,31,44,20,24,111,77,86,84,10,13,6,7,0.5,0.5
2022-09-14T15:00:00,1619A,118.295,35.0583,临沂市,鲁南制药厂,,29,29,42,19,19,114,82,88,88,14,17,5,7,0.7,0.7
2022-09-14T15:00:00,1620A,118.2794,34.9976,临沂市,新光毛纺厂,,34,34,41,21,19,106,80,83,83,14,17,2,4,0.5,0.6
2022-09-14T15:00:00,1621A,118.3956,35.0888,临沂市,河东保险公司,,34,34,41,14,18,104,74,80,80,12,17,4,5,0.6,0.6
2022-09-14T15:00:00,1622A,116.3032,37.4674,德州市,儿童乐园,颗粒物(PM10),51,52,55,17,31,160,125,98,98,14,21,7,9,0.6,0.6
2022-09-14T15:00:00,1624A,116.2991,37.4451,德州市,监理站,,44,44,57,17,25,172,133,102,102,5,12,9,12,0.5,0.6
2022-09-14T15:00:00,1625A,115.9848,36.4372,聊城市,区政府,颗粒物(PM10),53,56,57,14,27,201,107,91,91,9,18,4,7,0.6,0.7
2022-09-14T15:00:00,1628A,118.0062,37.3803,滨州市,市环保局,,34,34,50,22,30,135,107,112,87,7,13,11,13,0.5,0.7
2022-09-14T15:00:00,1629A,118.0018,37.3617,滨州市,第二水厂,颗粒物(PM10),54,58,54,20,28,127,102,116,85,10,17,9,10,0.4,0.6
2022-09-14T15:00:00,1630A,117.9776,37.393,滨州市,北中新校,,36,36,43,19,26,136,102,90,83,6,14,10,10,0.4,0.5
2022-09-14T15:00:00,1631A,118.0414,36.8103,淄博市,人民公园,,38,36,62,26,52,147,100,93,93,14,25,8,13,0,0.3
2022-09-14T15:00:00,1632A,118.0253,36.8406,淄博市,东风化工厂,,,,,,,,,,,,,,,,
2022-09-14T15:00:00,1633A,117.8525,36.4847,淄博市,双山,颗粒物(PM10),54,57,75,29,45,161,124,115,115,22,27,8,11,0.6,0.8
2022-09-14T15:00:00,1634A,117.9592,36.6331,淄博市,气象站,,50,50,85,22,44,154,99,90,90,17,29,13,13,0.4,0.7
2022-09-14T15:00:00,1635A,118.3092,36.8194,淄博市,莆田园,,28,17,55,17,44,129,89,83,83,14,30,7,10,0,0.1
2022-09-14T15:00:00,1636A,117.8661,36.805,淄博市,三金集团,,,,,,,,,,,,,,,,
2022-09-14T15:00:00,1637A,117.558,34.8438,枣庄市,市中区政府,,39,39,50,24,21,138,116,110,110,18,23,12,16,0.6,0.5
2022-09-14T15:00:00,1638A,117.2852,34.7837,枣庄市,薛城环保局,,32,29,62,14,25,138,101,106,106,16,27,14,16,0.5,0.6
2022-09-14T15:00:00,1639A,117.5852,34.7745,枣庄市,峄城区政府,,31,29,56,12,21,143,99,102,102,16,24,11,13,0.5,0.5
2022-09-14T15:00:00,1640A,117.7276,34.5578,枣庄市,台儿庄区环保局,,29,29,52,17,24,117,85,90,90,14,18,11,12,0.7,0.7
2022-09-14T15:00:00,1641A,117.4518,35.0992,枣庄市,山亭区环保局,,41,41,38,24,20,138,124,120,120,15,16,13,11,0.6,0.6
2022-09-14T15:00:00,1642A,121.2514,37.5639,烟台市,开发区,,23,7,22,2,11,124,72,99,66,9,10,6,7,0.5,0.6
2022-09-14T15:00:00,1643A,121.3719,37.5433,烟台市,轴承厂,,25,5,23,3,28,121,79,93,75,4,8,6,7,0.1,0.1
2022-09-14T15:00:00,1644A,121.3181,37.5436,烟台市,西郊化工站,,26,5,20,0,11,122,81,88,75,2,10,6,7,0.3,0.4
2022-09-14T15:00:00,1645A,121.4478,37.4822,烟台市,莱山环保局,,26,5,14,1,9,123,81,99,77,2,3,6,7,0.3,0.4
2022-09-14T15:00:00,1646A,121.2611,37.4967,烟台市,福山环保局,,17,9,26,2,14,106,54,77,52,16,17,6,13,0.2,0.3
2022-09-14T15:00:00,1648A,119.12,36.7019,潍坊市,仲裁委,,,,,,,,,,,,,,,,
2022-09-14T15:00:00,1650A,119.1437,36.7023,潍坊市,环保局,,23,17,47,15,28,151,71,81,63,11,18,4,5,0.3,0.6
2022-09-14T15:00:00,1652A,119.1936,36.7729,潍坊市,寒亭监测站,,,,,,,,,,,,,,,,
2022-09-14T15:00:00,1653A,116.6251,35.4302,济宁市,火炬城,臭氧1小时,52,48,45,27,19,162,161,117,117,2,12,8,9,0.6,0.5
2022-09-14T15:00:00,1655A,116.5491,35.4042,济宁市,电化厂,臭氧1小时,63,60,48,34,27,171,170,130,130,16,18,9,9,0.8,0.6
2022-09-14T15:00:00,1656A,117.1437,36.1937,泰安市,监测站,颗粒物(PM10),51,51,50,27,26,158,114,102,97,6,12,8,8,0.1,0.2
2022-09-14T15:00:00,1657A,117.0885,36.2017,泰安市,人口学校,,31,31,47,17,18,152,95,95,88,6,12,8,8,0.2,0.2
2022-09-14T15:00:00,1658A,117.1089,36.1758,泰安市,电力学校,,46,46,50,24,26,161,108,102,93,10,16,7,7,0.4,0.4
2022-09-14T15:00:00,1659A,119.471,35.4209,日照市,监测站,,17,9,31,9,21,107,54,66,43,14,20,6,7,0.4,0.5
2022-09-14T15:00:00,1660A,119.523,35.4216,日照市,市政府广场,,19,7,29,2,17,109,58,98,46,2,10,3,4,0.4,0.5
2022-09-14T15:00:00,1661A,119.5587,35.4044,日照市,港务局,,25,7,28,1,15,117,78,91,59,1,9,1,3,0.3,0.4
2022-09-14T15:00:00,1662A,122.1214,37.4236,威海市,华夏技校,,23,2,20,9,16,115,71,67,67,10,9,5,5,0.2,0.2
2022-09-14T15:00:00,1663A,122.0508,37.5236,威海市,山大分校,,,2,13,5,10,116,84,81,81,5,8,,3,0.4,0.5
2022-09-14T15:00:00,1664A,122.1067,37.5072,威海市,市监测站,,26,12,19,12,19,114,81,76,76,4,6,5,6,0.2,0.3
2022-09-14T15:00:00,1665A,118.5019,37.4658,东营市,西城阳光环保公司,,,,,,,,,,,,,,,,
2022-09-14T15:00:00,1666A,118.6614,37.4309,东营市,市环保局,,20,17,38,7,25,156,63,140,78,8,6,6,8,0.4,0.6
2022-09-14T15:00:00,1669A,113.5824,24.7733,韶关市,市八中,臭氧1小时,55,49,54,34,30,167,164,140,140,8,15,13,18,0.6,0.7
2022-09-14T15:00:00,1670A,113.5556,24.8082,韶关市,碧湖山庄,,,,,,,,,,,,,,,,
2022-09-14T15:00:00,1671A,113.5917,24.7972,韶关市,园林处,颗粒物(PM10),57,64,56,35,35,162,158,135,135,4,10,15,19,0.5,0.7
2022-09-14T15:00:00,1672A,113.6735,24.7791,韶关市,韶关学院,臭氧1小时,63,63,54,28,36,170,170,136,136,8,17,13,13,0.6,0.7
2022-09-14T15:00:00,1673A,113.5971,24.6863,韶关市,曲江监测站,臭氧1小时,63,43,60,27,38,182,170,136,136,8,29,14,14,0.6,0.8
2022-09-14T15:00:00,1674A,116.6794,23.3667,汕头市,金平子站,颗粒物(PM10),54,58,54,22,24,174,161,154,154,11,19,8,10,0.8,0.8
2022-09-14T15:00:00,1675A,116.7244,23.3633,汕头市,龙湖子站,颗粒物(PM10),51,51,61,21,16,213,147,139,139,13,21,8,8,0.7,0.8
2022-09-14T15:00:00,1676A,116.7258,23.2775,汕头市,濠江子站,臭氧1小时,63,66,54,21,24,259,170,149,149,10,19,9,12,0.7,0.9
2022-09-14T15:00:00,1677A,116.7519,23.4714,汕头市,澄海子站,,44,41,53,20,21,154,139,140,140,10,18,9,16,0.6,0.8
2022-09-14T15:00:00,1678A,116.6092,23.2539,汕头市,潮阳子站,细颗粒物(PM2.5),93,42,50,69,23,210,161,148,148,9,17,8,10,0.7,0.8
2022-09-14T15:00:00,1679A,116.4069,23.2533,汕头市,潮南子站,,,,,,,,,,,,,,,,
2022-09-14T15:00:00,1680A,110.3539,21.2706,湛江市,湛江影剧院,臭氧1小时,69,76,69,40,45,186,175,141,141,6,18,9,17,0.7,0.8
2022-09-14T15:00:00,1681A,110.3928,21.2228,湛江市,市环境监测站,颗粒物(PM10),58,66,70,37,55,205,165,139,139,12,19,8,27,0.7,0.8
2022-09-14T15:00:00,1682A,110.4019,21.1997,湛江市,环保局宿舍,颗粒物(PM10),63,76,67,43,52,196,165,136,136,14,17,6,25,0.8,0.9
2022-09-14T15:00:00,1683A,110.4111,21.2028,湛江市,霞山游泳场,细颗粒物(PM2.5),57,57,70,40,52,223,154,137,137,13,16,9,20,0.8,0.9
2022-09-14T15:00:00,1684A,110.3316,21.2679,湛江市,麻章区环保局,颗粒物(PM10),59,68,73,35,50,184,163,135,135,10,21,7,18,0.8,0.9
2022-09-14T15:00:00,1685A,110.4558,21.2567,湛江市,坡头区环保局,臭氧1小时,65,65,70,44,49,227,172,146,146,10,18,13,19,0.9,1
2022-09-14T15:00:00,1686A,111.0286,21.4688,茂名市,电白南海,臭氧1小时,82,90,80,53,53,189,185,139,139,11,16,9,10,0.7,0.7
2022-09-14T15:00:00,1687A,110.9294,21.6533,茂名市,茂石化七小,细颗粒物(PM2.5),62,58,74,44,51,162,155,124,124,16,22,6,23,0.8,1.1
2022-09-14T15:00:00,1688A,110.9107,21.6687,茂名市,健康路,颗粒物(PM10),53,56,69,35,41,163,159,118,118,5,17,8,29,0.8,1.2
2022-09-14T15:00:00,1689A,110.8592,21.6828,茂名市,高岭,细颗粒物(PM2.5),58,56,80,41,48,158,147,108,108,5,22,7,19,0.7,0.9
2022-09-14T15:00:00,1690A,116.1231,24.3284,梅州市,梅江月梅,,42,23,41,14,25,158,132,121,121,5,26,6,9,0.5,0.6
2022-09-14T15:00:00,1691A,116.0797,24.2719,梅州市,梅县新城,,40,30,45,15,23,144,128,114,114,7,29,7,8,0.5,0.6
2022-09-14T15:00:00,1692A,116.1248,24.2654,梅州市,环境监控中心,,41,23,43,21,28,153,130,128,128,6,24,6,6,0.4,0.5
2022-09-14T15:00:00,1693A,115.3653,22.775,汕尾市,市环保局,,41,35,46,25,32,142,130,128,128,9,12,7,7,0.6,0.7
2022-09-14T15:00:00,1694A,115.3706,22.7898,汕尾市,市政府,,43,23,44,13,28,139,135,129,129,8,13,7,8,0.5,0.5
2022-09-14T15:00:00,1695A,115.3622,22.7925,汕尾市,新城中学,,,63,52,27,29,146,102,111,107,7,10,8,8,,0.8
2022-09-14T15:00:00,1696A,114.6778,23.7569,河源市,源西(对照点),,44,38,54,23,29,145,139,120,120,4,23,4,5,0.6,0.8
2022-09-14T15:00:00,1697A,114.6944,23.7586,河源市,东埔,,46,32,41,18,27,155,146,133,133,6,13,5,7,0.7,0.8
2022-09-14T15:00:00,1698A,114.6892,23.7233,河源市,老城,,45,42,50,19,25,146,144,130,130,4,12,3,4,0.7,0.9
2022-09-14T15:00:00,1699A,111.9797,21.8593,阳江市,鸳鸯湖(对照点),,,,,,,,,,,,,,,,
2022-09-14T15:00:00,1700A,111.9508,21.8536,阳江市,南恩路,,,,,,,,,,,,,,,,
2022-09-14T15:00:00,1701A,111.9491,21.8658,阳江市,马南垌,细颗粒物(PM2.5),65,60,62,47,47,162,135,109,109,11,22,8,12,0.7,1
2022-09-14T15:00:00,1702A,113.0426,23.691,清远市,环保大楼(对照点),臭氧1小时,104,38,50,31,36,234,208,178,178,2,13,5,6,0.7,0.7
2022-09-14T15:00:00,1703A,113.0208,23.7106,清远市,凤城街办,,48,39,49,26,35,169,151,144,144,7,14,6,7,0.8,0.9
2022-09-14T15:00:00,1705A,116.6367,23.6719,潮州市,西园路(对照点),,40,35,38,28,23,132,104,98,98,5,8,7,8,0.5,0.6
2022-09-14T15:00:00,1706A,116.6447,23.6706,潮州市,档案局,,47,30,38,23,22,166,149,138,138,8,13,9,10,0.5,0.6
2022-09-14T15:00:00,1708A,116.3701,23.5345,揭阳市,新兴,颗粒物(PM10),52,53,48,16,23,147,144,140,140,6,11,8,9,0.6,0.7
2022-09-14T15:00:00,1709A,116.3264,23.5443,揭阳市,西马,,43,43,46,26,28,126,126,121,121,5,11,7,9,0.6,0.7
2022-09-14T15:00:00,1710A,116.3611,23.5626,揭阳市,东兴,,40,38,46,20,26,130,126,124,124,3,15,7,9,0.6,0.7
2022-09-14T15:00:00,1711A,116.4151,23.5294,揭阳市,渔湖,颗粒物(PM10),53,55,47,35,28,146,136,135,135,6,12,5,7,0.4,0.6
2022-09-14T15:00:00,1712A,112.0392,22.9169,云浮市,新市府(对照点),,,,,,,,,,,,,,,,
2022-09-14T15:00:00,1713A,112.0369,22.9394,云浮市,市监测站,,,,,,,,,,,,,,,,
2022-09-14T15:00:00,1714A,112.0539,22.9539,云浮市,牧羊,臭氧1小时,89,48,62,32,35,191,191,125,125,12,38,17,23,0.6,0.7
2022-09-14T15:00:00,1715A,102.575,24.3711,玉溪市,东风水库,,13,0,13,4,7,70,40,28,28,6,11,4,5,0.5,0.7
2022-09-14T15:00:00,1718A,115.4208,35.2464,菏泽市,气象局,,,,88,,49,126,,137,,,19,,10,,0.6
2022-09-14T15:00:00,1719A,115.4747,35.2375,菏泽市,市政协,,,83,87,,44,203,138,128,115,9,16,31,9,0.2,0.5
2022-09-14T15:00:00,1720A,115.455,35.27,菏泽市,菏泽学院,,,,,,,,,,,,,,,,
2022-09-14T15:00:00,1721A,113.3819,40.1097,大同市,果树场(对照点),,,,,,,,,,,,,,,,
2022-09-14T15:00:00,1723A,113.2994,40.0758,大同市,云冈宾馆,,46,46,104,22,31,141,136,109,109,10,33,7,15,0.5,0.7
2022-09-14T15:00:00,1724A,113.3444,40.0917,大同市,大同大学,,42,34,59,11,25,138,133,113,113,5,22,6,19,0.5,0.6
2022-09-14T15:00:00,1725A,113.2661,40.1269,大同市,安家小村,,45,39,79,24,25,150,143,121,121,8,24,10,14,0.4,0.7
2022-09-14T15:00:00,1726A,113.2711,40.0844,大同市,教育学院,,41,41,70,25,35,131,125,97,97,11,26,7,12,0.5,1
2022-09-14T15:00:00,1727A,113.1147,36.1547,长治市,清华站,,43,26,50,14,34,169,137,148,121,5,16,4,10,0.5,0.7
2022-09-14T15:00:00,1728A,113.1031,36.1989,长治市,监测站,,43,29,47,17,37,166,135,138,117,3,7,9,9,0.4,0.6
2022-09-14T15:00:00,1730A,113.0886,36.2125,长治市,审计局,,47,24,46,17,40,179,148,152,127,5,12,9,9,0.6,0.8
2022-09-14T15:00:00,1731A,113.0844,36.1856,长治市,长治八中,,44,28,56,18,36,169,139,141,121,6,11,8,9,0.7,0.9
2022-09-14T15:00:00,1733A,111.5531,36.0783,临汾市,临钢医院,臭氧1小时,65,50,73,31,48,172,172,121,121,18,17,2,6,0.7,1.1
2022-09-14T15:00:00,1734A,111.5028,36.0714,临汾市,技工学校,臭氧1小时,75,37,69,30,50,180,180,125,125,5,17,6,6,0.6,0.8
2022-09-14T15:00:00,1735A,111.5169,36.0822,临汾市,工商学校,,,,,,,,,,,,,,,,
2022-09-14T15:00:00,1736A,111.5018,36.0855,临汾市,市委,臭氧1小时,68,34,66,35,53,176,174,118,118,9,19,5,6,0.7,0.8
2022-09-14T15:00:00,1738A,113.5758,37.8572,阳泉市,市中心,,43,42,87,23,44,185,135,100,100,10,28,11,19,0.7,1.1
2022-09-14T15:00:00,1739A,113.4894,37.8731,阳泉市,赛鱼,,41,32,76,25,39,179,131,104,104,11,26,8,10,0.8,1
2022-09-14T15:00:00,1740A,113.5819,37.8486,阳泉市,南庄,,43,34,87,26,44,184,135,102,102,10,22,10,12,0.7,1
2022-09-14T15:00:00,1741A,113.6292,37.8531,阳泉市,白羊墅,,,,,,,,,,,,,,,,
2022-09-14T15:00:00,1742A,113.5614,37.8703,阳泉市,平坦,,46,46,92,19,51,169,121,98,98,18,29,8,17,0.7,1.1
2022-09-14T15:00:00,1743A,113.5158,37.8392,阳泉市,大阳泉,,43,25,55,30,48,180,134,130,114,15,16,10,11,0.6,0.8
2022-09-14T15:00:00,1744A,118.9233,42.2816,赤峰市,松山一中,,,,,13,13,130,130,82,82,15,21,14,17,0.6,0.7
2022-09-14T15:00:00,1745A,118.9576,42.2728,赤峰市,哈达街,,44,23,38,19,17,141,140,87,87,9,25,12,25,0.4,0.6
2022-09-14T15:00:00,1746A,118.8788,42.2554,赤峰市,天义路,,42,17,37,21,20,135,134,87,87,9,24,11,24,0.5,0.7
2022-09-14T15:00:00,1748A,123.044,41.1196,鞍山市,深沟寺,颗粒物(PM10),81,111,68,57,35,174,27,32,23,55,33,21,18,2.5,1
2022-09-14T15:00:00,1749A,123.011,41.0931,鞍山市,太阳城,细颗粒物(PM2.5),89,124,69,66,36,178,14,30,12,64,36,34,24,3.4,1.4
2022-09-14T15:00:00,1750A,123.0485,41.1442,鞍山市,太平,颗粒物(PM10),86,122,80,62,38,166,36,26,26,57,39,25,24,1.8,1.1
2022-09-14T15:00:00,1751A,122.9642,41.0971,鞍山市,铁西三道街,颗粒物(PM10),109,167,93,75,41,160,15,41,15,84,47,82,44,4.9,2.2
2022-09-14T15:00:00,1752A,122.9341,41.0833,鞍山市,铁西工业园区,颗粒物(PM10),101,152,96,66,39,173,12,17,14,88,54,76,45,4.3,2.4
2022-09-14T15:00:00,1753A,123.022,41.0821,鞍山市,明达新区,"颗粒物(PM10),细颗粒物(PM2.5)",94,138,78,70,37,175,24,20,18,82,49,35,27,3.2,1.1
2022-09-14T15:00:00,1754A,123.1289,41.0228,鞍山市,千山(对照点),,,,,,,,,,,,,,,,
2022-09-14T15:00:00,1755A,123.7977,41.8491,抚顺市,望花区,颗粒物(PM10),68,85,45,27,21,135,52,54,41,50,26,17,8,1.4,0.8
2022-09-14T15:00:00,1756A,123.9161,41.8822,抚顺市,顺城区,颗粒物(PM10),76,101,49,39,23,135,71,56,56,61,35,18,9,1.5,0.8
2022-09-14T15:00:00,1757A,124.0436,41.8611,抚顺市,东洲区,颗粒物(PM10),61,72,46,32,20,119,94,67,67,23,17,9,6,1.0,0.8
2022-09-14T15:00:00,1758A,123.9247,41.8642,抚顺市,新抚区,颗粒物(PM10),76,101,49,47,24,134,82,59,59,45,24,6,5,1.5,0.6
2022-09-14T15:00:00,1759A,124.0972,41.8961,抚顺市,大伙房水库,,28,28,29,18,17,115,86,60,60,8,12,8,7,0.6,0.5
2022-09-14T15:00:00,1760A,123.7086,41.8391,抚顺市,沈抚新城,颗粒物(PM10),69,88,44,32,20,136,49,40,39,37,16,12,10,0.7,0.5
2022-09-14T15:00:00,1761A,123.8275,41.3064,本溪市,大峪,,30,30,45,13,21,122,68,34,34,14,27,7,7,0.6,0.8
2022-09-14T15:00:00,1762A,123.7567,41.3325,本溪市,溪湖,颗粒物(PM10),51,52,59,16,27,136,67,30,30,20,32,15,13,0.8,1.1
2022-09-14T15:00:00,1763A,123.7169,41.3094,本溪市,彩屯,颗粒物(PM10),54,57,60,18,34,119,65,33,33,28,40,17,15,1.7,1.4
2022-09-14T15:00:00,1764A,123.7669,41.2864,本溪市,东明,,34,34,56,20,25,128,75,41,41,14,34,8,10,0.5,0.9
2022-09-14T15:00:00,1765A,123.7992,41.2664,本溪市,新立屯,,28,26,41,19,21,131,62,42,42,6,32,6,7,0.8,1
2022-09-14T15:00:00,1766A,123.8142,41.3472,本溪市,威宁,颗粒物(PM10),76,101,56,22,24,114,44,20,20,29,25,11,7,1.1,1
2022-09-14T15:00:00,1767A,121.1115,41.0879,锦州市,南山,,36,36,33,11,13,117,82,62,62,21,21,8,12,0.4,0.5
2022-09-14T15:00:00,1768A,121.0533,40.8434,锦州市,开发区,,37,37,39,5,16,138,93,70,70,12,22,9,20,0.6,0.8
2022-09-14T15:00:00,1769A,121.1836,41.1119,锦州市,百股街道,,36,36,38,10,17,119,92,66,66,15,18,6,16,0.5,0.7
2022-09-14T15:00:00,1770A,121.1178,41.1222,锦州市,天安街道,,43,43,40,13,18,113,86,61,61,21,26,10,14,0.5,0.6
2022-09-14T15:00:00,1771A,121.1303,41.1386,锦州市,北湖公园,,40,40,34,10,12,116,89,65,65,14,16,8,12,0.5,0.6
2022-09-14T15:00:00,1772A,126.54,43.8622,吉林市,哈达湾,,36,29,37,15,15,181,115,84,84,14,31,6,12,0.6,0.8
2022-09-14T15:00:00,1773A,126.5844,43.8358,吉林市,东局子,,27,27,31,11,12,158,85,68,68,12,25,5,5,0.6,0.6
2022-09-14T15:00:00,1774A,126.5052,43.8245,吉林市,电力学院,,28,27,33,15,14,90,89,53,53,6,21,8,11,0.4,0.6
2022-09-14T15:00:00,1775A,126.6133,43.8972,吉林市,江北,,30,28,28,14,12,111,96,65,65,11,21,9,8,0.6,0.6
2022-09-14T15:00:00,1776A,126.555,43.8306,吉林市,江南公园,,30,30,36,16,14,119,87,56,56,11,27,5,5,0.5,0.7
2022-09-14T15:00:00,1778A,126.7061,43.7133,吉林市,丰满(对照点),,,,,,,,,,,,,,,,
2022-09-14T15:00:00,1779A,123.9305,47.3636,齐齐哈尔市,安居小区,,30,30,33,4,7,77,77,61,61,13,18,6,6,0.4,0.4
2022-09-14T15:00:00,1780A,123.9488,47.3386,齐齐哈尔市,中心广场,,34,34,30,4,4,79,79,64,64,12,15,4,4,0.4,0.4
2022-09-14T15:00:00,1781A,123.9483,47.3227,齐齐哈尔市,农牧车辆厂,,44,44,29,2,6,84,84,63,63,5,13,6,6,0.3,0.3
2022-09-14T15:00:00,1783A,123.945,47.2988,齐齐哈尔市,市环境监测站,颗粒物(PM10),68,86,28,5,10,83,82,67,67,8,11,3,4,0.2,0.2
2022-09-14T15:00:00,1784A,129.61,44.561,牡丹江市,环保大楼,,29,18,19,7,9,92,92,58,58,10,12,5,6,0.3,0.3
2022-09-14T15:00:00,1785A,129.6115,44.5782,牡丹江市,文化广场,,28,28,39,11,14,85,85,48,48,14,17,3,4,0.4,0.4
2022-09-14T15:00:00,1786A,129.5904,44.5963,牡丹江市,第一医院,,26,19,24,6,11,83,83,55,55,10,16,5,7,0.5,0.5
2022-09-14T15:00:00,1787A,129.6364,44.6075,牡丹江市,机车工厂,,27,26,45,10,14,86,86,64,64,25,14,14,10,0.3,0.3
2022-09-14T15:00:00,1788A,129.6386,44.5462,牡丹江市,第一中学,,28,23,22,10,13,88,88,64,64,14,15,5,5,0.4,0.4
2022-09-14T15:00:00,1789A,124.81117,46.03138,大庆市,大同区,,,8,21,,,90,90,70,70,4,13,4,4,0.3,0.3
2022-09-14T15:00:00,1790A,125.129,46.533,大庆市,龙凤区,,29,7,13,9,8,92,92,73,73,2,5,3,3,0.4,0.3
2022-09-14T15:00:00,1791A,124.902,46.408,大庆市,红岗区,,31,10,14,5,7,99,99,74,74,4,7,3,3,0.4,0.4
2022-09-14T15:00:00,1792A,125.153,46.586,大庆市,萨尔图区,,29,9,13,4,4,90,90,74,74,5,7,8,8,0,0
2022-09-14T15:00:00,1793A,124.9042,46.6215,大庆市,让胡路区,,,,,,,103,103,75,75,5,12,2,2,1.0,1.1
2022-09-14T15:00:00,1794A,118.3606,31.3519,芜湖市,监测站,,38,38,33,15,14,62,58,51,51,10,21,5,7,0.5,0.4
2022-09-14T15:00:00,1795A,118.3714,31.4134,芜湖市,科创中心,,20,17,25,14,14,65,60,53,53,15,22,5,6,0.5,0.4
2022-09-14T15:00:00,1796A,118.3673,31.3131,芜湖市,四水厂,,22,22,24,11,15,68,68,59,59,13,23,5,7,0.4,0.4
2022-09-14T15:00:00,1797A,118.4022,31.3839,芜湖市,济民医院(对照点),,,,,,,,,,,,,,,,
2022-09-14T15:00:00,1798A,118.5092,31.6837,马鞍山市,湖东路四小,,29,29,26,15,11,66,49,54,52,22,18,7,5,1.1,0.8
2022-09-14T15:00:00,1799A,118.5024,31.6449,马鞍山市,开发区,,43,21,28,30,18,60,53,57,53,25,22,12,9,1.3,1
2022-09-14T15:00:00,1800A,118.5228,31.7231,马鞍山市,慈湖,颗粒物(PM10),58,65,37,34,17,65,51,56,52,26,23,6,5,1.1,0.8
2022-09-14T15:00:00,1801A,118.48,31.6928,马鞍山市,马钢动力厂,,,,,,,,,,,,,,,,
2022-09-14T15:00:00,1802A,118.6245,31.7241,马鞍山市,濮塘(对照点),,18,14,19,5,12,63,56,58,57,7,12,5,5,0.6,0.6
2022-09-14T15:00:00,1803A,115.9872,29.6815,九江市,十里,,35,11,17,5,11,120,109,88,88,10,13,7,6,0.7,0.6
2022-09-14T15:00:00,1804A,115.9584,29.7046,九江市,茅山头,,34,13,19,4,12,113,106,84,84,12,13,6,6,0.5,0.6
2022-09-14T15:00:00,1805A,115.9877,29.7295,九江市,西园,,34,15,25,8,12,120,107,85,85,10,16,9,9,0.6,0.6
2022-09-14T15:00:00,1806A,116.0172,29.6547,九江市,五七二七厂,,34,16,18,15,16,116,106,86,86,6,9,6,5,0.6,0.6
2022-09-14T15:00:00,1808A,115.9114,29.6038,九江市,综合工业园,,35,17,21,7,11,115,110,84,84,9,12,7,7,0.6,0.6
2022-09-14T15:00:00,1809A,116.0721,29.7535,九江市,石化总厂,,32,15,23,8,11,120,100,85,85,12,13,9,8,0.6,0.7
2022-09-14T15:00:00,1810A,115.9773,29.5698,九江市,庐山气象台(对照点),,35,17,12,15,9,119,111,85,85,7,5,15,8,0.5,0.5
2022-09-14T15:00:00,1811A,112.3628,34.6692,洛阳市,中信二小,,,,,,,,,,,,,,,,
2022-09-14T15:00:00,1812A,112.3931,34.6516,洛阳市,市委党校,,47,47,86,20,47,196,150,124,124,9,33,5,8,0.3,0.6
2022-09-14T15:00:00,1814A,112.4657,34.6871,洛阳市,豫西宾馆,,,,83,,50,119,,124,,,26,,12,,0.6
2022-09-14T15:00:00,1815A,112.494,34.6886,洛阳市,河南林校,,44,41,77,17,40,179,140,114,114,1,19,6,7,0.4,0.6
2022-09-14T15:00:00,1816A,112.3844,34.623,洛阳市,开发区管委会,,49,47,74,25,48,207,154,124,124,4,18,3,5,0.3,0.6
2022-09-14T15:00:00,1817A,112.4267,34.6258,洛阳市,市委新办公区,,49,49,81,25,48,191,144,114,114,7,23,5,6,0.5,0.7
2022-09-14T15:00:00,1818A,114.4839,36.0621,安阳市,棉研所(对照点),,,,,,,,,,,,,,,,
2022-09-14T15:00:00,1819A,114.3551,36.1017,安阳市,红庙街,,48,48,59,26,44,191,141,122,122,10,17,8,9,0.4,0.5
2022-09-14T15:00:00,1820A,114.361,36.0681,安阳市,银杏小区,颗粒物(PM10),60,69,64,25,35,184,137,120,120,5,10,5,6,0.6,0.6
2022-09-14T15:00:00,1824A,114.3389,34.7781,开封市,肿瘤医院,颗粒物(PM10),51,52,71,26,43,236,140,148,115,6,13,5,8,0.6,0.8
2022-09-14T15:00:00,1826A,114.2885,34.7965,开封市,世纪星幼儿园,颗粒物(PM10),55,59,81,26,45,219,132,130,109,6,13,7,10,0.4,0.6
2022-09-14T15:00:00,1828A,113.227,35.2125,焦作市,市环保局,,42,31,68,12,32,183,132,119,115,7,13,4,7,0.4,0.6
2022-09-14T15:00:00,1829A,113.2464,35.1764,焦作市,高新区政府（停运20220628）,,,,,,,,,,,,,,,,
2022-09-14T15:00:00,1830A,113.1992,35.2590,焦作市,影视城(对照点),,,,,,,,,,,,,,,,
2022-09-14T15:00:00,1832A,113.3257,33.742,平顶山市,新华旅馆,颗粒物(PM10),53,56,98,28,62,188,151,143,126,12,19,2,7,0.3,0.6
2022-09-14T15:00:00,1833A,113.2919,33.737,平顶山市,规划设计院,颗粒物(PM10),62,73,104,24,48,187,150,141,126,10,18,2,7,0.3,0.6
2022-09-14T15:00:00,1834A,113.182,33.774,平顶山市,平顶山工学院,颗粒物(PM10),62,73,108,29,56,204,164,150,135,13,20,4,10,0.3,0.5
2022-09-14T15:00:00,1835A,111.1922,34.7752,三门峡市,市政府,颗粒物(PM10),58,65,78,37,46,193,158,137,137,10,24,5,8,0.6,0.7
2022-09-14T15:00:00,1836A,111.1587,34.7942,三门峡市,开发区,颗粒物(PM10),55,59,89,38,46,198,163,136,136,11,17,4,7,0.6,0.7
2022-09-14T15:00:00,1838A,111.143,34.7955,三门峡市,风景区(对照点),,,,,,,,,,,,,,,,
2022-09-14T15:00:00,1839A,111.3009,30.7157,宜昌市,四零三,,,,,,,,,,,,,,,,
2022-09-14T15:00:00,1840A,111.2992,30.6981,宜昌市,白龙岗,臭氧1小时,83,70,59,36,39,186,186,120,120,23,28,4,4,0.7,0.7
2022-09-14T15:00:00,1841A,111.3549,30.6465,宜昌市,伍家岗,臭氧1小时,60,65,62,39,40,185,168,119,119,37,40,8,8,0.6,0.6
2022-09-14T15:00:00,1842A,111.2628,30.6961,宜昌市,点军区,臭氧1小时,90,84,65,41,37,192,192,121,121,20,27,9,8,0.6,0.6
2022-09-14T15:00:00,1843A,111.3275,30.7819,宜昌市,夷陵区,臭氧1小时,65,52,62,39,43,172,172,127,127,17,22,7,6,0.5,0.6
2022-09-14T15:00:00,1844A,112.2494,30.3197,荆州市,市图书馆,,47,47,69,23,47,201,142,133,133,10,17,4,7,0.5,0.7
2022-09-14T15:00:00,1845A,112.2008,30.3544,荆州市,市委党校,,44,38,74,19,48,194,140,128,128,8,18,5,8,0.5,0.9
2022-09-14T15:00:00,1847A,113.1094,29.3578,岳阳市,南湖风景区,,42,26,48,22,35,197,133,114,114,6,14,5,10,0.5,0.7
2022-09-14T15:00:00,1848A,113.1493,29.4251,岳阳市,城陵矶,,,31,56,18,30,183,111,99,99,,23,,12,0.5,0.5
2022-09-14T15:00:00,1849A,113.1497,29.3575,岳阳市,开发区,,41,31,74,19,30,203,130,114,114,10,19,9,8,0.5,0.6
2022-09-14T15:00:00,1850A,113.2621,29.4758,岳阳市,云溪区,,37,32,52,19,33,191,117,111,111,6,13,8,13,0.6,0.7
2022-09-14T15:00:00,1851A,112.9943,29.4402,岳阳市,君山区,,37,33,54,18,38,188,117,109,109,9,14,4,6,0.6,0.7
2022-09-14T15:00:00,1852A,113.2117,29.355,岳阳市,金凤水库(对照点),,35,28,47,10,27,180,111,105,105,2,8,3,5,0.5,0.6
2022-09-14T15:00:00,1854A,111.6975,28.9703,常德市,市二中,,42,40,60,18,40,185,134,132,132,6,12,6,9,0.4,0.5
2022-09-14T15:00:00,1857A,111.7158,29.1456,常德市,白鹤山(对照点),,45,32,53,19,33,194,141,171,134,3,6,2,5,0.4,0.5
2022-09-14T15:00:00,1858A,110.5319,29.1217,张家界市,永定新区,颗粒物(PM10),52,54,63,34,38,158,158,121,121,6,22,3,3,0.6,0.5
2022-09-14T15:00:00,1859A,110.4697,29.1242,张家界市,电业局,臭氧1小时,60,46,50,22,27,171,168,125,125,5,16,4,4,0.4,0.4
2022-09-14T15:00:00,1860A,110.5594,29.3547,张家界市,未央路,颗粒物(PM10),53,56,41,34,31,156,154,121,121,5,14,3,3,0.3,0.4
2022-09-14T15:00:00,1861A,110.4417,29.315,张家界市,袁家界(对照点),臭氧1小时,68,45,44,45,35,181,174,180,173,10,10,6,7,0.6,0.6
2022-09-14T15:00:00,1862A,110.4144,25.3167,桂林市,电子科大尧山校区(对照点),臭氧1小时,85,40,57,35,39,188,188,170,170,5,10,6,8,0.7,0.8
2022-09-14T15:00:00,1863A,110.2819,25.2697,桂林市,监测站,臭氧1小时,83,57,70,37,42,187,186,163,163,8,19,7,14,0.6,0.8
2022-09-14T15:00:00,1864A,110.3089,25.2708,桂林市,龙隐路小学,臭氧1小时,80,46,59,34,41,187,184,165,165,5,14,8,19,0.8,0.9
2022-09-14T15:00:00,1865A,110.2869,25.2178,桂林市,八中,臭氧1小时,80,54,67,30,39,187,184,161,161,10,23,8,14,0.4,0.6
2022-09-14T15:00:00,1866A,109.2262,21.588,北海市,牛尾岭水库(对照点),细颗粒物(PM2.5),55,54,53,39,38,144,138,90,90,6,13,7,5,0.6,0.7
2022-09-14T15:00:00,1867A,109.1436,21.4086,北海市,海滩公园,颗粒物(PM10),56,62,59,37,35,223,164,126,126,8,9,6,7,0.9,0.9
2022-09-14T15:00:00,1868A,109.0981,21.4661,北海市,新市环保局,细颗粒物(PM2.5),62,50,54,44,38,190,161,122,122,6,9,5,7,0.7,0.8
2022-09-14T15:00:00,1869A,109.1778,21.5233,北海市,北海工业园,"颗粒物(PM10),细颗粒物(PM2.5)",62,73,61,44,42,181,162,115,115,7,10,7,11,0.6,0.7
2022-09-14T15:00:00,1870A,109.4856,24.3895,柳州市,柳东小学,臭氧1小时,78,59,45,45,34,182,182,128,128,5,7,6,14,0.7,0.7
2022-09-14T15:00:00,1871A,109.4157,24.3277,柳州市,环保监测站,臭氧1小时,59,52,55,29,32,167,167,113,113,11,23,10,20,0.6,1
2022-09-14T15:00:00,1872A,109.389,24.341,柳州市,河西水厂,臭氧1小时,60,52,50,38,33,168,168,106,106,9,16,14,17,1.0,1
2022-09-14T15:00:00,1873A,109.4311,24.2921,柳州市,市四中,臭氧1小时,64,62,48,27,27,171,171,108,108,7,19,10,19,0.8,1.1
2022-09-14T15:00:00,1874A,109.4006,24.3631,柳州市,市九中,臭氧1小时,62,52,57,36,37,169,169,109,109,7,23,9,23,0.7,1.1
2022-09-14T15:00:00,1875A,109.4958,24.3134,柳州市,古亭山,臭氧1小时,74,64,41,38,24,179,179,128,128,9,9,9,11,0.8,0.8
2022-09-14T15:00:00,1876A,109.5078,18.2489,三亚市,河东子站,,27,17,28,18,20,89,84,76,76,2,4,2,3,0.7,0.7
2022-09-14T15:00:00,1877A,109.4964,18.2681,三亚市,河西子站,,27,20,24,12,13,89,84,73,73,2,3,2,2,0.6,0.7
2022-09-14T15:00:00,1878A,104.7778,31.4741,绵阳市,富乐山,,28,14,20,17,23,91,87,83,83,6,7,5,5,0.4,0.4
2022-09-14T15:00:00,1879A,104.7563,31.4535,绵阳市,市人大,,22,22,39,13,25,74,68,65,65,15,11,7,8,0.5,0.5
2022-09-14T15:00:00,1880A,104.6697,31.4668,绵阳市,高新区自来水公司,,24,17,34,15,30,88,75,83,76,15,14,5,5,0.6,0.6
2022-09-14T15:00:00,1881A,104.7287,31.5075,绵阳市,三水厂,,26,16,36,15,32,88,81,83,83,10,15,5,5,0.4,0.5
2022-09-14T15:00:00,1882A,104.563,28.793,宜宾市,石马中学(对照点),,43,43,79,29,57,132,39,105,48,9,10,4,6,0.7,0.7
2022-09-14T15:00:00,1883A,104.6201,28.7728,宜宾市,市委,细颗粒物(PM2.5),60,51,76,43,65,133,44,103,50,14,15,6,8,0.7,0.7
2022-09-14T15:00:00,1884A,104.6055,28.793,宜宾市,宜宾四中,细颗粒物(PM2.5),73,58,82,53,71,149,47,118,55,8,9,6,9,0.7,0.7
2022-09-14T15:00:00,1885A,104.639,28.7562,宜宾市,市政府,细颗粒物(PM2.5),69,54,72,50,67,148,51,118,59,9,9,8,9,0.8,0.8
2022-09-14T15:00:00,1886A,104.5742,28.7199,宜宾市,黄金嘴,细颗粒物(PM2.5),59,46,78,42,68,153,49,123,58,8,9,6,8,0.5,0.5
2022-09-14T15:00:00,1888A,101.6891,26.571,攀枝花市,弄弄坪,,25,15,81,11,33,120,80,48,48,7,32,13,29,0.6,1.2
2022-09-14T15:00:00,1889A,101.5769,26.5928,攀枝花市,河门口,,28,13,24,10,15,137,88,45,45,16,23,34,29,1.5,1.9
2022-09-14T15:00:00,1890A,101.7169,26.585,攀枝花市,炳草岗,,24,16,57,10,36,125,74,47,47,11,30,19,57,0.3,0.8
2022-09-14T15:00:00,1891A,101.7369,26.5008,攀枝花市,仁和,,20,0,12,7,16,105,64,41,41,5,11,8,13,0.5,0.7
2022-09-14T15:00:00,1893A,105.4324,28.9634,泸州市,九狮山(对照点),,32,27,48,12,39,137,102,66,66,2,2,9,9,0.3,0.5
2022-09-14T15:00:00,1894A,105.4427,28.9063,泸州市,小市上码头,,35,30,72,24,60,152,111,78,78,9,14,12,16,0.6,0.8
2022-09-14T15:00:00,1895A,105.4241,28.8573,泸州市,兰田宪桥,,37,32,66,12,54,150,117,89,89,7,12,13,12,0.7,0.8
2022-09-14T15:00:00,1896A,105.4379,28.8833,泸州市,市环监站,,36,30,64,24,54,144,113,82,81,4,8,5,9,0.5,0.6
2022-09-14T15:00:00,1897A,104.7547,29.3628,自贡市,大塘山(对照点),,,,,,,,,,,,,,,,
2022-09-14T15:00:00,1900A,104.7692,29.3411,自贡市,春华路,,,,,,,,,,,,,,,,
2022-09-14T15:00:00,1901A,104.4239,31.1208,德阳市,东山公园,,26,16,27,11,19,110,83,80,78,9,10,3,2,0.6,0.7
2022-09-14T15:00:00,1902A,104.3826,31.1317,德阳市,西小区,,25,23,37,9,18,96,78,76,72,10,10,3,4,0.5,0.6
2022-09-14T15:00:00,1903A,104.4053,31.1167,德阳市,市检察院,,,,,,,,,,,,,,,,
2022-09-14T15:00:00,1904A,104.3553,31.1091,德阳市,耐火材料厂,,24,12,26,7,18,98,75,75,70,11,10,3,5,0.5,0.6
2022-09-14T15:00:00,1905A,106.056,30.8064,南充市,西山风景区(对照点),,,,,,,,,,,,,,,,
2022-09-14T15:00:00,1906A,106.0789,30.8023,南充市,南充市委,,40,40,51,27,30,135,118,100,100,6,9,5,4,0.6,0.6
2022-09-14T15:00:00,1907A,106.1031,30.8217,南充市,南充炼油厂,颗粒物(PM10),51,51,52,32,31,161,137,118,118,9,9,5,6,0.4,0.3
2022-09-14T15:00:00,1908A,106.1064,30.7856,南充市,高坪区监测站,颗粒物(PM10),51,51,45,28,32,140,122,101,101,17,8,1,2,0.5,0.5
2022-09-14T15:00:00,1909A,106.0642,30.7636,南充市,嘉陵区环保局,颗粒物(PM10),51,52,50,35,32,134,112,96,96,4,6,3,4,0.6,0.6
2022-09-14T15:00:00,1910A,106.1087,30.8388,南充市,市环境监测站,,50,50,50,27,37,135,122,102,102,8,7,3,4,0.4,0.4
2022-09-14T15:00:00,1911A,106.9222,27.6869,遵义市,丁字口,,45,35,27,22,18,148,143,116,116,2,3,6,6,0.1,0.3
2022-09-14T15:00:00,1912A,106.9242,27.7019,遵义市,凤凰山,,48,35,26,33,18,141,137,115,115,7,7,4,6,0.6,0.6
2022-09-14T15:00:00,1913A,106.8906,27.6486,遵义市,忠庄,,42,30,31,20,16,138,132,102,102,7,7,1,2,0.5,0.5
2022-09-14T15:00:00,1914A,106.9231,27.6506,遵义市,舟水桥,,44,43,35,26,21,148,140,109,109,7,9,2,2,0.4,0.3
2022-09-14T15:00:00,1915A,106.9178,27.72,遵义市,干田坝,,45,36,25,26,20,145,142,117,117,5,6,5,5,0.6,0.5
2022-09-14T15:00:00,1916A,103.7897,25.5035,曲靖市,环境监测站,,24,14,18,4,16,76,76,47,47,5,10,3,7,0.4,0.6
2022-09-14T15:00:00,1917A,103.8,25.5364,曲靖市,烟厂办公区,,25,15,16,11,9,78,78,48,48,5,7,8,7,0.4,0.5
2022-09-14T15:00:00,1918A,108.7197,34.3956,咸阳市,气象站(对照点),颗粒物(PM10),60,69,80,37,44,151,141,125,125,15,21,8,9,0.9,0.9
2022-09-14T15:00:00,1919A,108.673,34.3155,咸阳市,实验中学,细颗粒物(PM2.5),72,83,77,52,46,189,174,148,148,28,27,6,7,0.7,0.7
2022-09-14T15:00:00,1920A,108.7233,34.3617,咸阳市,师范学院,颗粒物(PM10),66,81,76,41,46,180,170,148,148,11,16,8,9,0.7,0.7
2022-09-14T15:00:00,1922A,109.0656,35.0994,铜川市,党校(对照点),颗粒物(PM10),58,66,81,34,39,132,122,117,114,11,23,6,7,0.7,0.7
2022-09-14T15:00:00,1923A,109.0697,35.0697,铜川市,王益区政府,颗粒物(PM10),51,52,61,30,37,168,156,146,146,10,12,7,8,0.7,0.8
2022-09-14T15:00:00,1924A,108.9344,34.9058,铜川市,新区管委会,臭氧1小时,54,52,68,31,41,168,163,147,147,10,20,8,11,0.5,0.7
2022-09-14T15:00:00,1925A,108.9589,34.8731,铜川市,新区兰芝公司,,,,,,,,,,,,,,,,
2022-09-14T15:00:00,1926A,109.4131,36.6275,延安市,枣园(对照点),,46,41,49,27,30,159,147,92,92,6,25,5,5,0.7,0.7
2022-09-14T15:00:00,1927A,109.4761,36.6028,延安市,延大医附院,,46,44,53,29,40,156,147,86,86,5,28,4,4,0.6,0.5
2022-09-14T15:00:00,1928A,109.4824,36.5767,延安市,市监测站,,,,,,,,,,,,,,,,
2022-09-14T15:00:00,1929A,109.5056,36.6106,延安市,百米大道,,49,49,64,32,36,144,141,85,85,9,34,5,6,0.4,0.6
2022-09-14T15:00:00,1930A,107.185,34.3063,宝鸡市,庙沟村(对照点),细颗粒物(PM2.5),54,45,50,38,32,149,88,87,72,10,12,5,5,0.6,0.5
2022-09-14T15:00:00,1931A,107.0708,34.3017,宝鸡市,竹园沟,细颗粒物(PM2.5),57,60,51,40,42,102,90,66,66,14,15,7,7,0.6,0.6
2022-09-14T15:00:00,1932A,107.1906,34.3672,宝鸡市,三陆医院,细颗粒物(PM2.5),80,71,62,59,44,156,84,68,68,23,21,5,5,0.8,0.7
2022-09-14T15:00:00,1933A,107.1431,34.3547,宝鸡市,监测站,细颗粒物(PM2.5),72,71,63,52,41,151,97,68,68,21,21,6,6,0.7,0.7
2022-09-14T15:00:00,1934A,107.1186,34.3739,宝鸡市,技工学校,细颗粒物(PM2.5),74,58,57,54,35,157,118,89,89,18,17,5,5,0.7,0.7
2022-09-14T15:00:00,1935A,107.3906,34.3528,宝鸡市,陈仓区环保局家属楼,细颗粒物(PM2.5),72,81,70,52,44,174,81,85,69,28,22,6,6,0.8,0.7
2022-09-14T15:00:00,1936A,107.2058,34.3497,宝鸡市,文理学院,细颗粒物(PM2.5),63,73,60,45,37,164,98,80,80,27,22,5,6,0.8,0.7
2022-09-14T15:00:00,1937A,107.2386,34.3622,宝鸡市,三迪小学,细颗粒物(PM2.5),68,75,62,49,47,141,80,72,72,31,24,6,7,0.9,0.7
2022-09-14T15:00:00,1938A,109.5293,34.5101,渭南市,农科所(对照点),,,,,,,,,,,,,,,,
2022-09-14T15:00:00,1939A,109.4974,34.4877,渭南市,日报社,臭氧1小时,68,68,84,41,50,185,174,137,137,13,41,7,8,0.5,0.6
2022-09-14T15:00:00,1940A,109.4636,34.493,渭南市,体育馆,臭氧1小时,72,66,87,36,53,187,177,146,146,10,46,3,3,0.5,0.6
2022-09-14T15:00:00,1941A,109.4259,34.5023,渭南市,高新一小,"颗粒物(PM10),臭氧1小时",60,70,84,30,49,181,168,147,147,11,18,6,8,0.6,0.6
2022-09-14T15:00:00,1943A,102.1725,38.5339,金昌市,新川苑,颗粒物(PM10),82,114,177,34,46,132,132,100,100,9,12,8,8,0.7,0.7
2022-09-14T15:00:00,1944A,102.1692,38.5167,金昌市,天庆家园,颗粒物(PM10),79,108,157,30,40,122,117,91,91,6,9,11,10,0.9,0.8
2022-09-14T15:00:00,1945A,98.2908,39.7711,嘉峪关市,气象局,颗粒物(PM10),111,171,158,53,46,144,118,90,90,5,23,4,12,0.5,0.5
2022-09-14T15:00:00,1947A,106.3394,38.817,石嘴山市,沙湖旅游区(对照点),臭氧1小时,75,73,46,24,17,184,180,150,150,10,9,8,6,0.7,0.5
2022-09-14T15:00:00,1948A,106.3668,39.0145,石嘴山市,大武口朝阳西街,臭氧1小时,67,59,50,29,23,173,173,135,135,16,21,8,14,0.6,0.7
2022-09-14T15:00:00,1949A,106.7704,39.2282,石嘴山市,惠农南大街,,46,46,45,23,23,141,141,117,117,10,14,5,7,0.4,0.4
2022-09-14T15:00:00,1950A,106.7099,39.1325,石嘴山市,红果子镇惠新街,,,,59,22,23,146,145,116,116,2,9,8,9,0.4,0.5
2022-09-14T15:00:00,1951A,84.895,45.6094,克拉玛依市,长征新村,,39,39,37,4,5,109,109,69,69,11,18,6,5,0.2,0.2
2022-09-14T15:00:00,1952A,84.8988,45.5893,克拉玛依市,南林小区,,35,34,37,17,14,111,111,62,62,17,27,5,4,0.2,0.3
2022-09-14T15:00:00,1953A,85.1186,45.6886,克拉玛依市,白碱滩区,,,,,,,,,,,,,,,,
2022-09-14T15:00:00,1954A,84.905,44.3396,克拉玛依市,独山子区,,30,30,27,21,15,92,92,63,63,8,14,8,8,0.3,0.3
2022-09-14T15:00:00,1955A,85.6979,46.098,克拉玛依市,乌尔禾区商贸楼,,43,43,36,21,10,98,98,49,49,6,15,5,4,0.2,0.2
2022-09-14T15:00:00,1956A,86.1472,41.7538,巴音郭楞州,孔雀公园,颗粒物(PM10),83,115,51,32,14,125,108,111,104,1,3,3,3,0.3,0.2
2022-09-14T15:00:00,1957A,86.1972,41.7166,巴音郭楞州,棉纺厂,颗粒物(PM10),100,149,49,37,16,118,108,106,100,1,5,4,4,0.2,0.2
2022-09-14T15:00:00,1958A,86.2357,41.7173,巴音郭楞州,经济开发区,,,,,28,15,122,111,116,108,2,2,5,6,0.3,0.2
2022-09-14T15:00:00,1959A,118.746,36.881,寿光市,监测站,,,,,,,,,,,,,,,,
2022-09-14T15:00:00,1960A,118.780,36.864,寿光市,世纪学校,,,,,,,,,,,,,,,,
2022-09-14T15:00:00,1961A,117.532,36.6868,济南市,东山小学,,44,44,74,15,30,171,110,82,82,12,33,10,7,0.4,0.6
2022-09-14T15:00:00,1962A,117.541,36.710,章丘市,明水开发区,,,,,,,,,,,,,,,,
2022-09-14T15:00:00,1963A,120.610,36.440,即墨市,环保局子站,,,,,,,,,,,,,,,,
2022-09-14T15:00:00,1964A,120.470,36.390,即墨市,开发区子站,,,,,,,,,,,,,,,,
2022-09-14T15:00:00,1965A,120.005,35.878,胶南市,JN子站,,,,,,,,,,,,,,,,
2022-09-14T15:00:00,1966A,120.0405,35.8735,青岛市,黄岛区4号,,28,9,36,0,12,130,88,86,67,7,20,4,5,0.5,0.6
2022-09-14T15:00:00,1967A,120.008,36.283,胶州市,胶州环保局,,,,,,,,,,,,,,,,
2022-09-14T15:00:00,1968A,120.014,36.253,胶州市,胶州一中,,,,,,,,,,,,,,,,
2022-09-14T15:00:00,1969A,120.537,36.865,莱西市,环保局子站,,,,,,,,,,,,,,,,
2022-09-14T15:00:00,1970A,120.515,36.885,莱西市,人民广场子站,,,,,,,,,,,,,,,,
2022-09-14T15:00:00,1971A,119.952,36.792,平度市,1号,,,,,,,,,,,,,,,,
2022-09-14T15:00:00,1972A,119.976,36.799,平度市,2号,,,,,,,,,,,,,,,,
2022-09-14T15:00:00,1973A,120.747,37.825,蓬莱市,蓬莱环保局,,,,,,,,,,,,,,,,
2022-09-14T15:00:00,1974A,120.773,37.809,蓬莱市,蓬莱博物馆,,,,,,,,,,,,,,,,
2022-09-14T15:00:00,1975A,120.399,37.374,招远市,招远环保局,,,,,,,,,,,,,,,,
2022-09-14T15:00:00,1976A,120.394,37.364,招远市,招远教育局,,,,,,,,,,,,,,,,
2022-09-14T15:00:00,1977A,119.941,37.177,莱州市,莱州环保局,,,,,,,,,,,,,,,,
2022-09-14T15:00:00,1978A,119.959,37.180,莱州市,莱州外经委,,,,,,,,,,,,,,,,
2022-09-14T15:00:00,1979A,122.471,37.154,荣成市,荣成市环保局办公楼,,,,,,,,,,,,,,,,
2022-09-14T15:00:00,1980A,122.410,37.161,荣成市,山东成山轮胎公司,,,,,,,,,,,,,,,,
2022-09-14T15:00:00,1981A,122.038,37.197,文登市,文登市环保局,,,,,,,,,,,,,,,,
2022-09-14T15:00:00,1982A,122.0693,37.2174,威海市,文登开发区,,24,5,21,2,11,110,74,67,67,8,12,3,4,0.3,0.3
2022-09-14T15:00:00,1983A,121.531,36.913,乳山市,乳山市环保局,,,,,,,,,,,,,,,,
2022-09-14T15:00:00,1984A,121.544,36.907,乳山市,乳山市气象局,,,,,,,,,,,,,,,,
2022-09-14T15:00:00,1985A,120.636,31.155,吴江市,吴江市环保局,,,,,,,,,,,,,,,,
2022-09-14T15:00:00,1986A,120.635,31.170,吴江市,教师进修学校,,,,,,,,,,,,,,,,
2022-09-14T15:00:00,1987A,120.658,31.172,吴江市,吴江开发区,,,,,,,,,,,,,,,,
2022-09-14T15:00:00,1988A,120.953,31.388,昆山市,昆山实验小学,,,,,,,,,,,,,,,,
2022-09-14T15:00:00,1989A,120.999,31.381,昆山市,震川中学,,,,,,,,,,,,,,,,
2022-09-14T15:00:00,1990A,120.758,31.670,常熟市,海虞子站,,,,,,,,,,,,,,,,
2022-09-14T15:00:00,1991A,120.721,31.671,常熟市,兴福子站,,,,,,,,,,,,,,,,
2022-09-14T15:00:00,1992A,120.734,31.656,常熟市,菱塘子站,,,,,,,,,,,,,,,,
2022-09-14T15:00:00,1993A,120.526,31.874,张家港市,张家港市监测站,,,,,,,,,,,,,,,,
2022-09-14T15:00:00,1994A,120.550,31.882,张家港市,城北小学,,,,,,,,,,,,,,,,
2022-09-14T15:00:00,1995A,121.115,31.453,太仓市,太仓市监测站,,,,,,,,,,,,,,,,
2022-09-14T15:00:00,1996A,121.140,31.422,太仓市,科教新城实小,,,,,,,,,,,,,,,,
2022-09-14T15:00:00,1997A,119.146,31.955,句容市,消防指挥中心,,,,,,,,,,,,,,,,
2022-09-14T15:00:00,1998A,119.180,31.955,句容市,房家坝,,,,,,,,,,,,,,,,
2022-09-14T15:00:00,1999A,120.268,31.920,江阴市,虹桥邮政,,,,,,,,,,,,,,,,
2022-09-14T15:00:00,2000A,120.237,31.909,江阴市,五星公园,,,,,,,,,,,,,,,,
2022-09-14T15:00:00,2001A,120.302,31.920,江阴市,第二实验小学,,,,,,,,,,,,,,,,
2022-09-14T15:00:00,2002A,119.818,31.354,宜兴市,宜兴市环保局,,,,,,,,,,,,,,,,
2022-09-14T15:00:00,2003A,119.794,31.371,宜兴市,宜园,,,,,,,,,,,,,,,,
2022-09-14T15:00:00,2004A,119.579,31.751,金坛市,金坛市环境监测站,,,,,,,,,,,,,,,,
2022-09-14T15:00:00,2005A,119.579,31.737,金坛市,金坛市自来水公司,,,,,,,,,,,,,,,,
2022-09-14T15:00:00,2006A,119.460,31.400,溧阳市,溧阳市东门子站,,,,,,,,,,,,,,,,
2022-09-14T15:00:00,2007A,119.438,31.317,溧阳市,燕山子站,,,,,,,,,,,,,,,,
2022-09-14T15:00:00,2008A,121.173,31.896,海门市,海门市监测站,,,,,,,,,,,,,,,,
2022-09-14T15:00:00,2009A,121.1518,31.89708,海门市,社会福利院,,,,,,,,,,,,,,,,
2022-09-14T15:00:00,2010A,119.7183,30.2366,临安市,市政府,,,,,,,,,,,,,,,,
2022-09-14T15:00:00,2011A,119.6942,30.2311,临安市,四中,,,,,,,,,,,,,,,,
2022-09-14T15:00:00,2012A,119.954,30.054,富阳市,监测站,,,,,,,,,,,,,,,,
2022-09-14T15:00:00,2013A,119.946,30.049,富阳市,富春二小,,,,,,,,,,,,,,,,
2022-09-14T15:00:00,2014A,120.091,29.305,义乌市,江东,,,,,,,,,,,,,,,,
2022-09-14T15:00:00,2015A,120.040,29.334,义乌市,北苑,,,,,,,,,,,,,,,,
2022-09-14T15:00:00,2016A,120.251,29.719,诸暨市,图书馆,,,,,,,,,,,,,,,,
2022-09-14T15:00:00,2017A,120.209,29.732,诸暨市,富林印务,,,,,,,,,,,,,,,,
2022-09-14T15:00:00,2018A,121.989,39.625,瓦房店市,抱龙山庄,,,,,,,,,,,,,,,,
2022-09-14T15:00:00,2019A,122.011,39.617,瓦房店市,东山公园,,,,,,,,,,,,,,,,
2022-09-14T15:00:00,2031A,113.1817,27.9958,株洲市,云田中学,臭氧1小时,84,48,59,26,32,219,187,143,143,11,16,6,8,0.6,0.7
2022-09-14T15:00:00,2054A,114.1099,32.1059,信阳市,平桥分局,,45,39,59,14,26,166,144,123,108,10,15,8,9,0.7,0.8
2022-09-14T15:00:00,2064A,113.9956,32.1271,信阳市,南湾水厂,,43,40,59,19,34,165,137,111,107,9,15,7,8,0.6,0.7
2022-09-14T15:00:00,2065A,114.0775,32.1195,信阳市,市酿酒公司,,43,26,44,15,32,159,136,124,113,7,13,8,9,0.7,0.8
2022-09-14T15:00:00,2066A,114.0609,32.1399,信阳市,审计局,,44,28,55,24,36,166,140,108,106,8,13,6,7,0.7,0.8
2022-09-14T15:00:00,2067A,114.6613,33.6128,周口市,市环境监测站,颗粒物(PM10),57,63,90,17,43,180,151,110,110,8,14,8,17,0.5,0.7
2022-09-14T15:00:00,2068A,114.6758,33.6347,周口市,周口师范,颗粒物(PM10),53,55,89,16,45,183,155,113,113,10,17,6,14,0.6,0.8
2022-09-14T15:00:00,2069A,114.6546,33.5979,周口市,市运管处,颗粒物(PM10),91,131,86,20,45,183,156,116,116,13,16,9,18,0.6,0.8
2022-09-14T15:00:00,2070A,114.6369,33.6406,周口市,川汇区环保局,颗粒物(PM10),54,57,96,29,45,178,154,110,110,8,16,8,16,0.4,0.6
2022-09-14T15:00:00,2075A,117.6336,24.4674,漳州市,九湖(对照点),,,,,,,,,,,,,,,,
2022-09-14T15:00:00,2160A,112.85,35.5051,晋城市,自来水公司,,47,30,66,19,40,189,148,116,116,9,27,6,6,0.8,1.2
2022-09-14T15:00:00,2161A,112.8318,35.4936,晋城市,白云商贸,,45,42,75,9,39,176,141,111,111,13,28,3,4,0.4,0.9
2022-09-14T15:00:00,2162A,112.8508,35.4887,晋城市,市环保局,,,22,74,9,47,189,149,121,121,8,29,,6,,0.9
2022-09-14T15:00:00,2163A,112.8676,35.4897,晋城市,技术学院,,46,24,57,9,43,182,147,110,110,6,26,5,5,0.5,0.7
2022-09-14T15:00:00,2164A,112.8271,35.4828,晋城市,泽州一中,,,,,,,,,,,,,,,,
2022-09-14T15:00:00,2165A,112.8453,35.546,晋城市,白马寺 (对照点),,,,,,,,,,,,,,,,
2022-09-14T15:00:00,2166A,112.4397,39.3522,朔州市,平朔,,,61,79,29,52,166,161,125,125,,22,3,3,0.6,0.8
2022-09-14T15:00:00,2167A,112.4575,39.3617,朔州市,朔唯,,,,87,29,52,168,157,146,146,11,27,3,6,0.6,0.7
2022-09-14T15:00:00,2168A,112.4258,39.3197,朔州市,区政府,颗粒物(PM10),54,57,91,26,52,161,158,123,118,16,22,7,9,0.6,0.7
2022-09-14T15:00:00,2169A,112.4072,39.3278,朔州市,市环保局,,49,45,81,29,41,158,155,117,117,12,21,7,10,0.7,0.8
2022-09-14T15:00:00,2170A,112.4272,39.3681,朔州市,市二中,颗粒物(PM10),51,52,91,32,53,162,160,122,122,9,23,2,6,0.6,0.9
2022-09-14T15:00:00,2171A,112.7532,37.6945,晋中市,锦纶小区,,44,28,75,17,49,181,139,148,119,7,24,7,8,0.3,0.5
2022-09-14T15:00:00,2173A,112.7249,37.7067,晋中市,南都小区,,,,90,,50,173,,127,90,,23,,8,,0.5
2022-09-14T15:00:00,2174A,112.6991,37.6982,晋中市,榆次区政府,,41,26,106,24,49,171,130,123,118,10,24,9,10,0.4,0.6
2022-09-14T15:00:00,2175A,110.9956,35.0147,运城市,运城中学,颗粒物(PM10),64,77,85,40,44,174,144,156,140,8,8,8,8,0.7,0.8
2022-09-14T15:00:00,2176A,111.0233,35.0611,运城市,禹都开发区,,,,,,,,,,,,,,,,
2022-09-14T15:00:00,2178A,110.9686,35.0303,运城市,地区技校,细颗粒物(PM2.5),62,62,76,44,43,196,155,177,152,7,10,7,8,0.7,0.8
2022-09-14T15:00:00,2179A,111.0414,35.1147,运城市,空港新区,颗粒物(PM10),73,96,106,47,57,197,163,144,144,9,19,10,15,0.7,0.8
2022-09-14T15:00:00,2181A,112.7383,38.4519,忻州市,开发区,,44,44,76,20,45,148,136,96,96,6,23,8,10,0.8,0.8
2022-09-14T15:00:00,2182A,112.7003,38.4928,忻州市,会展中心,细颗粒物(PM2.5),52,34,73,36,45,154,142,104,104,7,28,8,9,0.6,0.7
2022-09-14T15:00:00,2183A,111.1406,37.5211,吕梁市,环保局,臭氧1小时,58,54,110,26,33,166,166,108,108,9,59,5,6,0.4,0.5
2022-09-14T15:00:00,2185A,111.1297,37.5136,吕梁市,自来水公司,臭氧1小时,54,55,98,24,32,163,163,104,104,8,32,1,3,0.6,0.6
2022-09-14T15:00:00,2186A,106.8288,39.6778,乌海市,聚英学校,,,,,,,,,,,,,,,,
2022-09-14T15:00:00,2187A,106.8174,39.6973,乌海市,市林业局,颗粒物(PM10),52,53,63,25,23,151,144,151,134,15,12,10,11,0.6,0.6
2022-09-14T15:00:00,2188A,106.7907,39.6667,乌海市,中海勃湾学校,颗粒物(PM10),54,58,64,24,22,156,153,145,136,11,18,12,14,0.5,0.6
2022-09-14T15:00:00,2191A,122.2532,43.6801,通辽市,艺术职业学校,,32,32,43,7,9,88,88,70,70,10,19,5,5,0.2,0.1
2022-09-14T15:00:00,2192A,119.7594,49.2261,呼伦贝尔市,区环保局,,,39,41,17,17,110,110,76,76,,17,5,5,0.5,0.5
2022-09-14T15:00:00,2194A,107.5936,40.916,巴彦淖尔市,秋林养殖基地(对照点),,,,,,,,,,,,,,,,
2022-09-14T15:00:00,2195A,107.4212,40.761,巴彦淖尔市,附二中,颗粒物(PM10),63,75,58,42,33,147,146,133,133,6,8,4,5,0.6,0.6
2022-09-14T15:00:00,2196A,107.37,40.7372,巴彦淖尔市,市环保大楼,颗粒物(PM10),71,92,56,44,30,188,153,137,137,5,6,4,5,0.6,0.6
2022-09-14T15:00:00,2197A,113.1306,40.9923,乌兰察布市,集宁新区,,45,33,43,12,26,148,141,107,107,6,18,7,8,0.2,0.4
2022-09-14T15:00:00,2200A,122.0392,46.0656,兴安盟,胜华新制药厂,,33,24,30,13,12,104,104,71,71,5,13,2,2,0.3,0.2
2022-09-14T15:00:00,2201A,121.9504,46.0741,兴安盟,科右前旗环保局,,33,25,26,17,16,104,104,70,70,3,12,3,3,0,0.2
2022-09-14T15:00:00,2202A,116.1042,43.9317,锡林郭勒盟,市环保监测站,,45,28,36,5,10,147,142,110,110,3,6,10,9,0.2,0.3
2022-09-14T15:00:00,2203A,116.0781,43.9311,锡林郭勒盟,市政府,,,22,26,,,142,142,107,107,4,6,10,9,0.2,0.3
2022-09-14T15:00:00,2204A,105.6467,38.8363,阿拉善盟,西城区西花园(对照点),,45,33,41,20,20,166,144,136,136,8,8,5,6,0.4,0.4
2022-09-14T15:00:00,2205A,105.6985,38.8411,阿拉善盟,蒙二幼,,44,44,46,27,26,183,139,136,136,6,7,9,10,0.3,0.3
2022-09-14T15:00:00,2206A,105.724,38.8516,阿拉善盟,环保局新楼,,45,20,24,15,20,168,142,140,139,8,8,7,8,0.3,0.4
2022-09-14T15:00:00,2207A,121.6094,41.998,阜新市,工业园区,,38,38,45,9,9,90,82,59,59,23,29,15,13,0.4,0.5
2022-09-14T15:00:00,2208A,121.6697,42.0279,阜新市,长青街,颗粒物(PM10),59,68,37,19,17,94,83,65,65,17,24,10,13,0.5,0.5
2022-09-14T15:00:00,2209A,121.6673,42.0705,阜新市,农业园区,,28,19,25,6,3,92,88,74,74,10,13,9,8,0.5,0.6
2022-09-14T15:00:00,2210A,121.6717,42.0224,阜新市,东苑,,40,40,44,10,11,93,83,71,71,19,21,19,17,0.4,0.4
2022-09-14T15:00:00,2211A,121.6506,42.0498,阜新市,玉龙新城,,,26,33,8,6,104,95,90,90,,20,,11,0.3,0.3
2022-09-14T15:00:00,2212A,123.2,41.1953,辽阳市,宏伟区,颗粒物(PM10),72,94,69,42,28,164,22,28,16,60,37,20,39,1.2,0.8
2022-09-14T15:00:00,2213A,123.1683,41.2495,辽阳市,新华园,颗粒物(PM10),79,108,66,48,28,153,29,36,22,64,34,17,24,1.1,0.8
2022-09-14T15:00:00,2214A,123.2354,41.2639,辽阳市,滨河路,颗粒物(PM10),71,92,67,38,35,181,40,29,26,46,35,13,23,1.3,0.9
2022-09-14T15:00:00,2215A,123.149,41.2991,辽阳市,铁西工业园,颗粒物(PM10),66,81,53,36,27,163,38,25,25,45,38,13,9,1.1,0.7
2022-09-14T15:00:00,2216A,123.8139,42.3022,铁岭市,汇工街西,,46,46,41,16,16,103,78,47,47,16,24,8,17,0.4,0.3
2022-09-14T15:00:00,2217A,123.8649,42.2923,铁岭市,水上乐园,,50,50,39,18,16,102,64,36,36,35,42,10,9,0.2,0.1
2022-09-14T15:00:00,2218A,123.8486,42.2867,铁岭市,银州路东段,,,19,12,,,99,64,38,38,18,28,6,6,0.9,0.8
2022-09-14T15:00:00,2219A,123.7153,42.2217,铁岭市,金沙江路北,,43,43,30,15,9,104,60,42,42,18,18,9,5,0.4,0.2
2022-09-14T15:00:00,2220A,120.4318,41.5881,朝阳市,西梁,,33,33,39,10,17,96,96,66,66,4,17,9,12,0.4,0.5
2022-09-14T15:00:00,2221A,120.4521,41.5646,朝阳市,河畔小区,,35,35,38,13,17,98,97,55,55,4,13,8,13,0.5,0.6
2022-09-14T15:00:00,2222A,120.4176,41.5648,朝阳市,八里堡,,,44,47,15,16,97,96,65,65,6,20,,11,0.6,0.7
2022-09-14T15:00:00,2223A,120.3806,41.5969,朝阳市,农业园区,,40,40,43,13,20,99,99,74,74,7,22,10,9,0.6,0.6
2022-09-14T15:00:00,2225A,124.4002,43.1713,四平市,一商场,颗粒物(PM10),57,64,38,13,11,85,85,58,58,18,29,4,3,0.3,0.3
2022-09-14T15:00:00,2226A,124.388,43.193,四平市,境园,,33,33,37,14,10,89,89,54,54,13,28,5,4,0.4,0.4
2022-09-14T15:00:00,2227A,125.1358,42.8845,辽源市,环保局,,27,27,34,18,19,84,80,53,53,19,16,8,8,0.6,0.5
2022-09-14T15:00:00,2229A,125.9358,41.7173,通化市,光明,,36,36,42,20,19,108,70,31,31,11,25,10,13,0.6,0.8
2022-09-14T15:00:00,2230A,125.9446,41.7325,通化市,铁路,,46,46,39,19,21,118,66,33,33,14,19,10,12,0.6,0.8
2022-09-14T15:00:00,2231A,126.4219,41.9171,白山市,喜丰,颗粒物(PM10),52,53,63,21,21,114,49,33,33,20,24,9,12,0.7,0.8
2022-09-14T15:00:00,2232A,126.4077,41.9419,白山市,环保局,颗粒物(PM10),55,60,48,21,20,104,53,36,36,18,18,10,9,0.6,0.6
2022-09-14T15:00:00,2233A,124.8006,45.1214,松原市,江南,,,,16,,12,37,,32,,,22,,3,,0.5
2022-09-14T15:00:00,2234A,124.7965,45.1722,松原市,江北,,31,17,34,2,9,99,99,69,69,11,25,3,3,0.4,0.5
2022-09-14T15:00:00,2235A,122.7911,45.6077,白城市,洮北区环保局,,28,15,24,4,8,89,89,70,70,6,16,3,3,0.2,0.2
2022-09-14T15:00:00,2236A,122.8738,45.5725,白城市,市环保局,,28,17,20,9,6,88,88,66,66,5,25,6,7,0.3,0.3
2022-09-14T15:00:00,2237A,129.47,42.8883,延边朝鲜族自治州,妇幼医院,,29,29,31,13,18,113,60,52,52,12,14,8,12,0.4,0.5
2022-09-14T15:00:00,2238A,129.5055,42.9108,延边朝鲜族自治州,延边医院,,20,19,37,6,18,107,62,52,52,9,21,7,8,0.5,0.6
2022-09-14T15:00:00,2239A,129.3964,42.8881,延边朝鲜族自治州,朝阳川镇医院,,31,31,29,10,11,113,62,54,54,9,13,6,6,0.4,0.5
2022-09-14T15:00:00,2240A,130.9762,45.3001,鸡西市,环保局,,33,33,50,8,16,62,51,33,33,16,24,4,4,0.2,0.5
2022-09-14T15:00:00,2243A,130.9429,45.3039,鸡西市,第一中学,,32,32,51,15,13,77,61,42,42,6,18,4,4,0.1,0.3
2022-09-14T15:00:00,2244A,130.2537,47.3416,鹤岗市,哈啤分公司,,23,17,17,5,9,73,73,46,46,10,9,7,7,0.3,0.3
2022-09-14T15:00:00,2245A,130.2684,47.3086,鹤岗市,斯达机电,,33,33,30,6,9,76,76,49,49,6,10,3,3,0.2,0.3
2022-09-14T15:00:00,2246A,130.3114,47.3388,鹤岗市,东山纸板厂,,36,36,74,12,14,70,70,43,43,12,13,8,7,0.3,0.3
2022-09-14T15:00:00,2247A,130.1097,47.3382,鹤岗市,五号水库(对照点),,25,9,8,3,6,80,80,57,57,3,5,6,3,0.4,0.5
2022-09-14T15:00:00,2248A,131.1511,46.6937,双鸭山市,双合村,,24,19,51,6,21,75,75,53,53,9,16,13,17,0.3,1.3
2022-09-14T15:00:00,2249A,131.1652,46.6191,双鸭山市,南小市,,,,30,,8,26,,32,,,11,,4,,0.1
2022-09-14T15:00:00,2250A,131.1524,46.6554,双鸭山市,环保局,,,12,36,,11,67,67,52,52,11,17,12,8,0.4,0.7
2022-09-14T15:00:00,2251A,131.12,46.5656,双鸭山市,苗圃(对照点),,,,,5,12,75,75,58,58,1,4,3,4,0.3,0.3
2022-09-14T15:00:00,2252A,128.5159,47.4311,伊春市,环保局,,23,6,14,9,8,73,73,47,47,11,12,6,6,0.3,0.4
2022-09-14T15:00:00,2253A,128.9102,47.7412,伊春市,电力嘉园,,,12,12,4,10,78,77,52,52,14,11,,6,0.4,0.5
2022-09-14T15:00:00,2254A,129.5029,48.471,伊春市,汤旺河国家公园(对照点),,19,14,12,1,4,61,58,44,44,1,2,6,5,0.2,0.1
2022-09-14T15:00:00,2255A,130.2751,46.8028,佳木斯市,佳纺,,26,17,30,3,7,84,83,58,58,5,15,1,2,0.2,0.3
2022-09-14T15:00:00,2256A,130.3995,46.8307,佳木斯市,发电厂,,27,14,30,4,7,84,84,53,53,5,10,1,2,0.2,0.3
2022-09-14T15:00:00,2257A,130.3258,46.7975,佳木斯市,环保局,,26,25,31,6,10,82,82,54,54,3,18,4,2,0.3,0.4
2022-09-14T15:00:00,2258A,130.3648,46.8032,佳木斯市,十一中,,23,19,24,3,9,74,73,49,49,8,13,4,5,0.3,0.4
2022-09-14T15:00:00,2259A,130.3794,46.7588,佳木斯市,四丰(对照点),,25,9,20,3,7,85,78,63,63,5,10,1,1,0.2,0.2
2022-09-14T15:00:00,2262A,131.0518,45.8751,七台河市,新一中(对照点),颗粒物(PM10),90,130,32,4,6,86,83,66,66,26,19,6,7,0.4,0.4
2022-09-14T15:00:00,2263A,127.4833,50.2524,黑河市,交通局,,22,17,10,5,6,70,70,52,52,9,8,11,6,0.5,0.4
2022-09-14T15:00:00,2264A,127.5144,50.2341,黑河市,环保局,,24,11,7,8,7,74,74,56,56,8,6,7,6,0.5,0.4
2022-09-14T15:00:00,2265A,127.5291,50.2472,黑河市,大黑河岛(对照点),,34,34,14,4,5,74,74,54,54,2,2,5,6,0.2,0.2
2022-09-14T15:00:00,2266A,126.9785,46.6365,绥化市,人和东街,,31,31,64,7,20,92,90,65,65,13,24,11,11,0.6,0.8
2022-09-14T15:00:00,2267A,126.964,46.6528,绥化市,党政办公中心,,31,26,42,7,16,102,98,72,72,10,25,8,9,0.4,0.6
2022-09-14T15:00:00,2269A,124.1069,50.4097,大兴安岭地区,科技局,,21,10,7,8,9,65,65,44,44,6,7,4,3,0.3,0.3
2022-09-14T15:00:00,2270A,117.396,32.939,蚌埠市,工人疗养院,,41,41,38,23,20,101,94,82,82,7,5,10,10,0.3,0.3
2022-09-14T15:00:00,2271A,117.3605,32.9427,蚌埠市,百货大楼,,40,40,35,15,15,96,89,78,78,10,10,8,8,0.3,0.3
2022-09-14T15:00:00,2273A,117.4185,32.8911,蚌埠市,蚌埠学院,,32,29,36,17,17,100,100,87,87,6,13,7,9,0.2,0.2
2022-09-14T15:00:00,2274A,117.3533,32.9673,蚌埠市,淮上区政府,,39,39,39,19,17,98,90,80,80,4,6,7,8,0.3,0.3
2022-09-14T15:00:00,2275A,117.3145,32.8977,蚌埠市,高新区,,,48,38,,19,101,89,81,81,,16,6,7,0.4,0.2
2022-09-14T15:00:00,2277A,116.8305,32.7727,淮南市,潘集区政府,颗粒物(PM10),52,53,36,25,18,132,121,101,101,8,9,10,10,0.3,0.2
2022-09-14T15:00:00,2278A,117.0067,32.6524,淮南市,师范学院,颗粒物(PM10),55,60,43,27,17,107,95,85,85,8,8,6,7,0.4,0.5
2022-09-14T15:00:00,2279A,116.8569,32.5951,淮南市,谢家集区政府,颗粒物(PM10),54,57,35,20,13,119,114,92,92,15,14,11,12,0.4,0.4
2022-09-14T15:00:00,2280A,116.8281,32.633,淮南市,八公山区政府,,46,46,28,22,12,122,117,93,93,11,11,9,7,0.3,0.3
2022-09-14T15:00:00,2281A,116.6325,32.6201,淮南市,焦岗湖风景区管理处(对照点),颗粒物(PM10),52,53,38,23,15,125,125,90,90,15,16,12,12,0.2,0.2
2022-09-14T15:00:00,2282A,116.8004,33.975,淮北市,监测站,,43,33,42,22,21,137,137,106,106,8,12,7,9,0.4,0.5
2022-09-14T15:00:00,2283A,116.8091,33.9007,淮北市,烈山区政府,,45,42,37,17,18,146,144,123,123,5,9,5,7,0.4,0.5
2022-09-14T15:00:00,2284A,116.7856,33.9477,淮北市,职业技术学院,颗粒物(PM10),51,52,42,21,21,133,131,105,105,11,13,7,8,0.4,0.5
2022-09-14T15:00:00,2285A,117.8177,30.9412,铜陵市,市第四中学,,30,30,24,18,15,89,70,60,60,16,19,7,6,0.4,0.3
2022-09-14T15:00:00,2286A,117.8059,30.9273,铜陵市,市公路局,,44,44,35,17,19,90,79,66,66,6,13,9,9,0.3,0.3
2022-09-14T15:00:00,2287A,117.7807,30.9413,铜陵市,市新民污水厂,,24,24,28,14,12,86,74,63,63,7,12,5,8,0.3,0.3
2022-09-14T15:00:00,2288A,117.7439,30.8792,铜陵市,市第九中学,,29,29,36,11,14,84,69,59,59,12,16,10,11,0.4,0.4
2022-09-14T15:00:00,2289A,117.846,30.9413,铜陵市,车站新区,,28,28,28,16,12,80,66,59,59,11,10,3,4,0.3,0.3
2022-09-14T15:00:00,2290A,117.8483,30.97,铜陵市,市职教基地,,25,18,24,8,10,88,78,68,68,8,10,4,4,0.6,0.5
2022-09-14T15:00:00,2291A,117.0809,30.5177,安庆市,环科院,,27,12,24,8,13,97,86,81,81,7,9,5,6,0.6,0.6
2022-09-14T15:00:00,2292A,117.0331,30.5119,安庆市,马山宾馆,,27,14,23,8,12,115,85,84,84,6,8,4,5,0.5,0.4
2022-09-14T15:00:00,2294A,116.9896,30.6145,安庆市,安庆大学,,28,23,21,12,12,115,89,87,87,8,8,6,6,0.4,0.4
2022-09-14T15:00:00,2295A,118.2903,29.6963,黄山市,延安路89号,,21,8,10,8,5,92,65,49,49,9,8,7,7,0.3,0.2
2022-09-14T15:00:00,2296A,118.327,29.7178,黄山市,黄山东路89号,,19,14,12,2,5,87,60,45,45,10,9,6,6,0.2,0.1
2022-09-14T15:00:00,2297A,118.1371,30.2756,黄山市,黄山区政府5号楼,,20,16,16,4,5,81,62,59,54,9,8,7,7,0.4,0.3
2022-09-14T15:00:00,2298A,118.3093,32.3153,滁州市,老年大学,,28,28,23,17,13,74,70,58,57,12,10,6,6,0.3,0.2
2022-09-14T15:00:00,2299A,118.3244,32.2786,滁州市,人大宾馆,,32,24,19,22,11,73,73,69,60,12,13,3,4,0.3,0.2
2022-09-14T15:00:00,2301A,115.8277,32.8929,阜阳市,市监测站,颗粒物(PM10),52,54,45,22,21,139,134,109,109,12,14,7,10,0.4,0.5
2022-09-14T15:00:00,2303A,115.8554,32.8605,阜阳市,开发区,颗粒物(PM10),59,67,44,22,23,137,131,106,106,11,17,6,7,0.5,0.6
2022-09-14T15:00:00,2306A,116.989,33.6306,宿州市,火车站,,,,,,,,,,,,,,,,
2022-09-14T15:00:00,2307A,116.5079,31.737,六安市,监测大楼,,42,42,27,11,6,101,93,77,77,5,5,5,6,0.4,0.2
2022-09-14T15:00:00,2308A,116.4738,31.7643,六安市,皖西学院,,36,36,27,12,7,113,113,90,90,2,3,6,3,0.4,0.3
2022-09-14T15:00:00,2309A,116.4996,31.7905,六安市,朝阳厂,,40,40,25,21,8,105,105,86,86,4,5,12,12,0.4,0.3
2022-09-14T15:00:00,2310A,116.5567,31.7886,六安市,开发区,,38,38,28,15,10,100,96,76,76,9,8,8,10,0.4,0.3
2022-09-14T15:00:00,2311A,115.8072,33.8399,亳州市,污水处理厂,颗粒物(PM10),53,56,54,28,29,153,153,113,113,5,14,5,7,0.4,0.4
2022-09-14T15:00:00,2312A,115.7789,33.8518,亳州市,三国揽胜宫,颗粒物(PM10),52,54,50,26,28,156,156,112,112,5,11,4,6,0.5,0.6
2022-09-14T15:00:00,2314A,117.47,30.6618,池州市,池州学院,,22,13,22,8,14,117,70,65,65,8,10,3,5,0.3,0.4
2022-09-14T15:00:00,2315A,117.4974,30.6539,池州市,平天湖(对照点),,,,,,,,,,,,,,,,
2022-09-14T15:00:00,2316A,118.7581,30.9454,宣城市,鳌峰子站,,29,26,22,20,13,67,65,58,58,16,14,6,7,0.5,0.3
2022-09-14T15:00:00,2317A,118.7385,30.9743,宣城市,敬亭山子站,,33,33,21,17,13,75,60,59,59,20,14,9,8,0.5,0.3
2022-09-14T15:00:00,2318A,118.7173,30.9427,宣城市,开发区子站,,29,29,22,20,14,83,68,59,58,13,15,6,6,0.4,0.3
2022-09-14T15:00:00,2319A,119.0141,25.4325,莆田市,荔城区仓后路,,28,28,36,11,19,156,83,102,95,9,11,4,5,0.6,0.6
2022-09-14T15:00:00,2320A,119.0015,25.4553,莆田市,莆田市监测站,,29,21,29,4,18,168,92,113,104,2,5,6,7,0.5,0.6
2022-09-14T15:00:00,2321A,119.1119,25.4561,莆田市,涵江区六中,,26,24,28,14,18,144,82,96,90,1,4,5,5,0.6,0.7
2022-09-14T15:00:00,2322A,119.1013,25.3215,莆田市,秀屿区政府,,36,36,32,19,22,166,85,101,100,2,6,6,7,0.6,0.7
2022-09-14T15:00:00,2323A,118.981,25.4792,莆田市,东圳水库(对照点),,,,,,,,,,,,,,,,
2022-09-14T15:00:00,2324A,117.6211,26.2625,三明市,三钢,,35,28,44,24,33,162,78,104,104,16,16,17,11,1.3,0.6
2022-09-14T15:00:00,2325A,117.635,26.2714,三明市,三明二中,,36,22,39,25,28,158,84,110,106,6,12,3,8,0.4,0.7
2022-09-14T15:00:00,2326A,117.6028,26.2378,三明市,三元区政府,,26,18,40,16,32,150,83,102,98,6,15,4,9,0.5,0.6
2022-09-14T15:00:00,2327A,117.7275,26.3108,三明市,洋溪(对照点),,,,,,,,,,,,,,,,
2022-09-14T15:00:00,2331A,118.0966,26.6761,南平市,茫荡山(对照点),,,,,,,,,,,,,,,,
2022-09-14T15:00:00,2332A,118.1681,26.6369,南平市,南平市监测站,,30,15,29,19,22,156,94,115,98,4,9,5,6,0.3,0.4
2022-09-14T15:00:00,2333A,118.1825,26.6489,南平市,南平铝业有限公司,,29,23,29,20,22,154,87,114,92,4,8,4,5,0.6,0.7
2022-09-14T15:00:00,2334A,118.1756,26.6272,南平市,南平七中,,31,21,31,19,24,163,97,119,101,5,11,5,11,0.5,0.6
2022-09-14T15:00:00,2335A,117.0189,25.1181,龙岩市,龙岩师专(对照点),,,,,,,,,,,,,,,,
2022-09-14T15:00:00,2336A,117.0217,25.1033,龙岩市,龙岩市监测站,,29,24,46,18,30,143,91,107,107,7,20,6,8,0.3,0.5
2022-09-14T15:00:00,2337A,117.0258,25.0661,龙岩市,闽西职业技术学院,,32,24,56,17,30,146,101,101,101,5,28,7,25,0.4,0.6
2022-09-14T15:00:00,2338A,117.0196,25.0306,龙岩市,龙岩学院,,34,29,40,12,28,144,107,115,115,7,14,5,5,0.3,0.4
2022-09-14T15:00:00,2339A,119.5001,26.6946,宁德市,金涵水库(对照点),,,,,,,,,,,,,,,,
2022-09-14T15:00:00,2341A,119.5388,26.6612,宁德市,宁德市监测站,,21,16,14,8,8,80,67,67,62,6,6,5,5,0.4,0.4
2022-09-14T15:00:00,2342A,117.3102,29.3867,景德镇市,王港中学(对照点),,25,17,17,4,11,110,78,65,65,4,4,4,4,0.3,0.3
2022-09-14T15:00:00,2343A,117.2117,29.2933,景德镇市,老干部活动中心,,,39,36,16,12,115,84,69,69,5,8,,8,0.5,0.5
2022-09-14T15:00:00,2344A,117.1894,29.2789,景德镇市,兽医站,,28,13,24,9,13,119,88,72,72,10,9,7,5,0.5,0.5
2022-09-14T15:00:00,2345A,117.1547,29.2617,景德镇市,台达陶瓷,,27,18,24,13,10,118,86,67,67,7,10,10,9,0.6,0.5
2022-09-14T15:00:00,2346A,117.2461,29.2956,景德镇市,陶研所,,28,14,25,3,9,118,88,72,72,4,5,4,5,0.5,0.5
2022-09-14T15:00:00,2347A,114.0997,27.5002,萍乡市,武功山(对照点),臭氧1小时,59,34,27,19,18,167,167,122,122,8,9,21,16,0.5,0.4
2022-09-14T15:00:00,2348A,113.8385,27.6434,萍乡市,中医院,,46,29,51,17,28,178,147,137,137,16,21,8,16,0.5,0.7
2022-09-14T15:00:00,2349A,113.8493,27.6253,萍乡市,市政府车库,,44,39,51,16,33,172,140,125,125,9,19,6,13,0.5,0.7
2022-09-14T15:00:00,2350A,113.8676,27.6435,萍乡市,市环保局,,,,49,18,33,180,150,136,136,7,15,7,16,0.4,0.7
2022-09-14T15:00:00,2351A,113.866,27.6198,萍乡市,安源区政府,,49,34,53,13,31,192,155,136,136,11,17,11,22,0.4,0.6
2022-09-14T15:00:00,2352A,115.0861,27.9317,新余市,北岗(对照点),,27,22,45,10,25,148,85,75,75,3,10,13,19,0.4,0.6
2022-09-14T15:00:00,2353A,114.9886,27.8431,新余市,飞宇,,34,28,45,10,21,148,106,93,93,4,12,5,15,0.2,0.4
2022-09-14T15:00:00,2354A,114.9231,27.8246,新余市,第二水厂,,46,46,48,12,22,163,120,104,104,7,19,6,9,0.5,0.6
2022-09-14T15:00:00,2355A,114.9308,27.8036,新余市,市气象局,,36,25,38,10,20,149,115,102,102,7,14,7,11,0.3,0.4
2022-09-14T15:00:00,2357A,116.9822,28.1136,鹰潭市,龙虎山(对照点),,,,,,,,,,,,,,,,
2022-09-14T15:00:00,2358A,117.0564,28.2642,鹰潭市,新监测站,,31,22,34,7,18,171,98,91,76,2,4,1,4,0.3,0.3
2022-09-14T15:00:00,2359A,117.0311,28.2475,鹰潭市,财苑宾馆,,30,22,36,10,20,165,94,88,72,2,4,2,9,0.4,0.3
2022-09-14T15:00:00,2360A,117.0222,28.2264,鹰潭市,体育馆,,32,24,36,13,21,171,100,86,77,2,5,1,10,0.7,0.8
2022-09-14T15:00:00,2361A,117.0017,28.2131,鹰潭市,三川水表,,36,36,42,14,18,169,97,87,74,2,4,2,8,0.8,0.9
2022-09-14T15:00:00,2362A,114.9017,25.9149,赣州市,通天岩(对照点),,45,25,33,12,19,176,144,127,121,4,5,5,7,0.5,0.5
2022-09-14T15:00:00,2363A,114.9367,25.8664,赣州市,地委,,42,31,46,16,27,171,134,116,116,6,10,8,12,0.6,0.6
