timepoint,stationcode,longitude,latitude,area,positionname,primarypollutant,aqi,pm10,pm10_24h,pm2_5,pm2_5_24h,o3,o3_24h,o3_8h,o3_8h_24h,no2,no2_24h,so2,so2_24h,co,co_24h
2025-11-09T2300,2566A,102.1879,31.914,阿坝藏族羌族自治州,州农科所,,,,,,,,,,,,,,,,
2025-11-09T2300,2568A,102.2502,31.8896,阿坝藏族羌族自治州,马师校,,31,31,20,19,15,1,,48,23,39,20,7,7,0.9,0.8
2025-11-09T2300,3994A,102.2165,31.9024,阿坝藏族羌族自治州,马尔康中学西区,,23,22,15,16,12,27,,59,37,21,16,5,5,0.5,0.5
2025-11-09T2300,2695A,80.292,41.1694,阿克苏地区,电视台,颗粒物(PM10),128,205,187,51,62,31,,72,65,55,42,6,7,1.2,1.6
2025-11-09T2300,2696A,80.2613,41.1551,阿克苏地区,艺术中心,颗粒物(PM10),112,174,149,79,74,30,,79,59,56,37,4,4,0.8,0.7
2025-11-09T2300,2204A,105.6467,38.8363,阿拉善盟,西城区西花园,,,,,,,,,,,,,,,,
2025-11-09T2300,2205A,105.6985,38.8411,阿拉善盟,蒙二幼,,22,18,80,8,24,68,,89,78,8,8,8,8,0.6,0.6
2025-11-09T2300,2206A,105.724,38.8516,阿拉善盟,环保局新楼,,24,10,75,3,23,76,,84,82,4,4,8,8,0.5,0.5
2025-11-09T2300,2708A,88.1264,47.8517,阿勒泰地区,市站,,29,29,25,3,7,60,,60,46,10,21,4,7,0.2,0.2
2025-11-09T2300,2630A,80.1161,32.5,阿里地区,阿里监测站,,23,6,3,3,3,44,,80,73,45,12,15,10,0.8,0.4
2025-11-09T2300,3192A,80.0903,32.5028,阿里地区,阿里藏医院,,27,7,12,3,5,84,,89,88,2,5,7,9,0.3,0.4
2025-11-09T2300,2642A,109.0318,32.6537,安康市,香溪洞,,,,,,,,,,,,,,,,
2025-11-09T2300,2644A,109.0072,32.6975,安康市,汉滨区检察院,颗粒物(PM10),51,51,35,22,18,1,,34,17,26,18,4,5,0.6,0.5
2025-11-09T2300,4054A,109.0325,32.6913,安康市,市邮政管理局,颗粒物(PM10),52,54,40,17,20,14,,36,20,22,19,4,4,0.6,0.6
2025-11-09T2300,2291A,117.0809,30.5177,安庆市,环科院,细颗粒物(PM2.5),57,41,31,40,28,46,,64,52,12,9,3,3,0.6,0.5
2025-11-09T2300,2292A,117.0331,30.5119,安庆市,马山宾馆,细颗粒物(PM2.5),54,,28,38,27,50,,67,55,14,11,2,2,0.6,0.5
2025-11-09T2300,2294A,116.9896,30.6145,安庆市,安庆大学,细颗粒物(PM2.5),53,44,32,37,25,56,,73,58,12,10,4,4,0.6,0.5
2025-11-09T2300,3173A,117.0598,30.5351,安庆市,市人大,细颗粒物(PM2.5),54,42,31,38,27,47,,67,53,14,11,4,3,0.6,0.5
2025-11-09T2300,3122A,105.9606,26.2611,安顺市,伍家关,,,,12,7,6,46,,57,54,7,7,7,7,0.7,0.7
2025-11-09T2300,3123A,105.9408,26.2431,安顺市,凤凰山,,14,9,8,6,6,44,,56,51,8,8,7,6,0.6,0.5
2025-11-09T2300,3124A,105.9439,26.2564,安顺市,金钟山,,16,11,9,6,6,49,,61,56,5,6,9,8,0.6,0.6
2025-11-09T2300,3125A,105.8983,26.2481,安顺市,娄家坡,,15,9,10,6,7,45,,53,50,6,10,10,15,0.7,0.7
2025-11-09T2300,1818A,114.4839,36.0621,安阳市,棉研所,,,,,,,,,,,,,,,,
2025-11-09T2300,1819A,114.3551,36.1017,安阳市,红庙街,颗粒物(PM10),73,96,80,46,37,10,,66,43,52,32,1,3,0.9,1.5
2025-11-09T2300,1820A,114.361,36.0681,安阳市,银杏小区,细颗粒物(PM2.5),74,95,73,54,35,4,,67,42,54,29,2,3,0.8,1.3
2025-11-09T2300,3141A,114.3922,36.0878,安阳市,信访局,颗粒物(PM10),73,96,70,41,31,25,,68,45,41,27,1,2,0.6,1.1
2025-11-09T2300,3669A,114.4705,36.0637,安阳市,左辅环卫站,颗粒物(PM10),96,142,84,60,26,8,,62,34,62,33,2,2,0.6,0.8
2025-11-09T2300,3703A,114.2917,36.0949,安阳市,安钢职工学校,颗粒物(PM10),86,122,78,56,32,2,,66,40,55,27,2,3,0.9,1.8
2025-11-09T2300,1748A,123.044,41.1196,鞍山市,深沟寺,,17,17,48,3,30,39,,51,42,16,29,10,12,0.6,1.3
2025-11-09T2300,1749A,123.011,41.0931,鞍山市,太阳城,,22,22,50,8,32,39,,54,42,18,26,14,14,0.6,1.1
2025-11-09T2300,1750A,123.0485,41.1442,鞍山市,太平,,17,17,56,6,34,39,,50,40,16,26,19,13,0.9,1.3
2025-11-09T2300,1751A,122.9642,41.0971,鞍山市,铁西三道街,,25,22,53,12,33,35,,52,38,22,31,74,15,1.2,1.3
2025-11-09T2300,1753A,123.022,41.0821,鞍山市,明达新区,,14,13,46,3,30,42,,53,45,15,23,9,12,0.5,1.1
2025-11-09T2300,1754A,123.1289,41.0228,鞍山市,千山,,,,33,,19,,,48,,,14,,5,,0.5
2025-11-09T2300,4201A,122.9446,41.0826,鞍山市,兴盛南路290号,,16,16,59,6,36,40,,53,38,24,36,22,10,0.7,1.1
2025-11-09T2300,2195A,107.4212,40.761,巴彦淖尔市,附二中,,36,36,44,21,20,57,,71,60,14,11,5,5,0.3,0.3
2025-11-09T2300,2196A,107.37,40.7372,巴彦淖尔市,市环保大楼,,33,33,43,11,17,40,,74,58,23,13,8,8,0.4,0.3
2025-11-09T2300,1956A,86.1472,41.7538,巴音郭楞蒙古自治州,孔雀公园,颗粒物(PM10),125,199,136,50,32,1,,71,54,89,51,9,8,1.5,0.6
2025-11-09T2300,1957A,86.1972,41.7166,巴音郭楞蒙古自治州,棉纺厂,颗粒物(PM10),169,288,158,30,23,2,,69,49,74,40,6,7,0.7,0.5
2025-11-09T2300,1958A,86.2357,41.7173,巴音郭楞蒙古自治州,经济开发区,颗粒物(PM10),111,171,128,35,18,24,,64,46,35,27,5,7,0.8,0.6
2025-11-09T2300,2914A,106.7677,31.8794,巴中市,苏山坪,,,,,,,,,,,,,,,,
2025-11-09T2300,3181A,106.7768,31.8526,巴中市,市五中,,17,17,20,8,11,44,,41,41,6,12,7,8,0.6,0.8
2025-11-09T2300,3183A,106.7418,31.8654,巴中市,圣泉水务公司,,18,13,17,8,11,55,,46,46,4,12,9,9,0.7,0.7
2025-11-09T2300,3616A,106.7616,31.8344,巴中市,市中心医院,,15,15,18,7,13,39,,40,40,11,14,11,11,0.6,0.7
2025-11-09T2300,2235A,122.7911,45.6077,白城市,洮北区环保局,,16,16,16,7,7,46,,55,49,4,4,6,4,0.3,0.2
2025-11-09T2300,2236A,122.8738,45.5725,白城市,市环保局,,16,12,15,11,9,42,,54,47,8,5,2,3,0.2,0.2
2025-11-09T2300,2231A,126.4219,41.9171,白山市,喜丰,,44,44,32,3,13,59,,61,59,3,10,8,9,0.5,0.6
2025-11-09T2300,2232A,126.4077,41.9419,白山市,环保局,,23,23,20,10,16,58,,62,60,3,9,8,7,0.6,0.8
2025-11-09T2300,2647A,104.1724,36.5446,白银市,第三小学,颗粒物(PM10),91,131,148,32,51,62,,51,51,17,32,13,34,0.5,0.8
2025-11-09T2300,2648A,104.1465,36.5482,白银市,动力公司,颗粒物(PM10),76,101,130,36,45,59,,65,59,15,25,10,27,0.5,0.7
2025-11-09T2300,2512A,106.6103,23.9011,百色市,市监测站,,7,7,12,3,4,14,,16,15,13,10,7,7,0.7,0.7
2025-11-09T2300,2513A,106.6538,23.8859,百色市,市中心血站,,8,6,18,3,7,17,,12,12,16,17,5,6,0.8,0.8
2025-11-09T2300,3406A,106.6085,23.8798,百色市,祈福高中,,8,7,16,3,8,12,,11,11,14,14,5,5,0.8,0.8
2025-11-09T2300,2270A,117.396,32.939,蚌埠市,工人疗养院,细颗粒物(PM2.5),93,85,99,69,78,49,,90,81,30,21,4,4,0.6,0.6
2025-11-09T2300,2271A,117.3605,32.9427,蚌埠市,百货大楼,细颗粒物(PM2.5),104,89,90,78,83,32,,86,74,49,24,8,7,0.7,0.7
2025-11-09T2300,2273A,117.4185,32.8911,蚌埠市,蚌埠学院,细颗粒物(PM2.5),87,66,73,64,78,28,,88,74,42,20,4,4,0.6,0.7
2025-11-09T2300,2274A,117.3533,32.9673,蚌埠市,淮上区政府,细颗粒物(PM2.5),109,88,88,82,81,53,,90,77,37,24,7,6,0.5,0.6
2025-11-09T2300,2275A,117.3145,32.8977,蚌埠市,高新区,细颗粒物(PM2.5),108,95,92,81,87,7,,75,44,60,34,6,7,0.8,0.8
2025-11-09T2300,3715A,117.3092,32.9314,蚌埠市,蚌埠田家炳中学,细颗粒物(PM2.5),95,101,101,71,75,29,,77,48,48,31,4,4,0.6,0.6
2025-11-09T2300,1585A,109.8756,40.6532,包头市,市环境监测站,,44,44,83,18,21,2,,58,32,64,36,8,17,0.8,1
2025-11-09T2300,1587A,109.9991,40.5842,包头市,包头八中,,45,45,83,19,29,7,,58,29,58,40,7,13,0.6,0.8
2025-11-09T2300,1588A,109.8538,40.6821,包头市,青山宾馆,细颗粒物(PM2.5),82,75,70,60,27,2,,58,36,66,33,10,16,0.7,0.9
2025-11-09T2300,1589A,109.8642,40.6288,包头市,惠龙物流,,38,38,76,18,25,2,,61,37,64,37,10,24,0.7,1
2025-11-09T2300,1590A,110.0377,40.5546,包头市,东河鸿龙湾,颗粒物(PM10),52,54,66,26,18,4,,70,35,77,44,5,11,1.2,0.7
2025-11-09T2300,3283A,109.9154,40.5685,包头市,滨河大厦,颗粒物(PM10),51,51,55,16,20,14,,67,39,50,35,11,15,0.6,0.6
2025-11-09T2300,3419A,109.9447,40.6261,包头市,包头市委党校,,32,32,75,13,19,12,,64,36,57,36,8,14,0.6,0.8
2025-11-09T2300,3683A,109.8331,40.6576,包头市,昆区政府,,50,43,78,35,28,2,,54,36,74,35,11,21,0.7,1
2025-11-09T2300,1930A,107.185,34.3063,宝鸡市,庙沟村,,,,,,,,,,,,,,,,
2025-11-09T2300,1931A,107.0708,34.3017,宝鸡市,竹园沟,细颗粒物(PM2.5),62,67,63,44,28,28,,85,63,25,20,7,8,0.4,0.3
2025-11-09T2300,1932A,107.1906,34.3672,宝鸡市,三陆医院,细颗粒物(PM2.5),89,110,81,66,39,44,,79,69,44,37,6,7,0.6,0.5
2025-11-09T2300,1933A,107.1431,34.3547,宝鸡市,监测站,细颗粒物(PM2.5),74,89,75,54,42,30,,79,66,30,23,5,5,0.5,0.4
2025-11-09T2300,1934A,107.1186,34.3739,宝鸡市,技工学校,细颗粒物(PM2.5),84,106,77,62,36,31,,81,68,48,24,5,6,0.7,0.4
2025-11-09T2300,1936A,107.2058,34.3497,宝鸡市,文理学院,细颗粒物(PM2.5),103,106,75,77,41,47,,82,74,37,24,6,6,0.6,0.5
2025-11-09T2300,1937A,107.2386,34.3622,宝鸡市,三迪小学,细颗粒物(PM2.5),92,113,81,68,41,48,,78,68,45,36,6,6,0.7,0.6
2025-11-09T2300,4308A,107.3898,34.3601,宝鸡市,陈仓区北开路21号,细颗粒物(PM2.5),85,115,96,63,45,52,,76,67,30,32,7,14,0.6,0.6
2025-11-09T2300,1051A,115.493,38.8632,保定市,游泳馆,颗粒物(PM10),59,68,67,35,26,14,,64,39,50,24,5,3,0.4,0.2
2025-11-09T2300,1052A,115.5213,38.8959,保定市,华电二区,细颗粒物(PM2.5),63,61,56,45,34,21,,66,44,42,23,4,3,0.6,0.5
2025-11-09T2300,1053A,115.4713,38.9108,保定市,接待中心,颗粒物(PM10),57,63,58,30,30,25,,67,48,37,21,4,2,0.3,0.3
2025-11-09T2300,1054A,115.4612,38.8416,保定市,地表水厂,颗粒物(PM10),66,82,72,31,22,11,,65,42,56,30,8,5,0.4,0.3
2025-11-09T2300,3581A,115.31981,38.95208,保定市,满城区生态环境分局,颗粒物(PM10),65,80,73,34,19,14,,68,34,48,26,3,3,0.3,0.3
2025-11-09T2300,3582A,115.47694,38.76408,保定市,清苑区第二中学,颗粒物(PM10),71,92,80,31,22,13,,70,43,47,21,6,3,0.4,0.4
2025-11-09T2300,3583A,115.62909,39.02311,保定市,徐水物探局,颗粒物(PM10),75,100,88,45,41,2,,69,29,69,31,8,5,0.6,0.5
2025-11-09T2300,4004A,115.4202,38.8656,保定市,双鹰农机,颗粒物(PM10),69,88,76,39,30,20,,74,48,47,26,4,2,0.6,0.5
2025-11-09T2300,4034A,115.5150,38.8590,保定市,植保所站,颗粒物(PM10),81,112,83,50,37,5,,62,32,67,30,3,3,1.0,0.8
2025-11-09T2300,2594A,99.1678,25.1081,保山市,市环境监测站,,19,15,20,13,16,33,,51,39,5,9,5,4,0.5,0.6
2025-11-09T2300,2595A,99.1711,25.1328,保山市,市环保局,,26,,21,18,15,41,,55,46,2,6,7,7,0.5,0.5
2025-11-09T2300,1866A,109.2262,21.588,北海市,牛尾岭水库,,,,,,,,,,,,,,,,
2025-11-09T2300,1867A,109.1436,21.4086,北海市,海滩公园,,34,34,34,17,15,51,,79,66,10,12,6,8,1.1,0.9
2025-11-09T2300,1868A,109.0981,21.4661,北海市,新市环保局,,35,35,30,24,18,47,,78,67,11,12,10,10,0.8,0.6
2025-11-09T2300,1869A,109.1778,21.5233,北海市,北海工业园,,36,36,36,22,19,47,,67,59,12,14,5,9,0.6,0.4
2025-11-09T2300,3400A,109.1911,21.4415,北海市,龙潭自来水厂,,39,39,27,22,19,46,,79,64,10,7,5,6,0.8,0.6
2025-11-09T2300,1001A,116.3621,39.8784,北京市,万寿西宫,,47,47,32,14,12,16,,64,35,61,28,2,2,0.5,0.4
2025-11-09T2300,1002A,116.2202,40.2915,北京市,定陵,,,,,,,,,,,,,,,,
2025-11-09T2300,1003A,116.4174,39.9289,北京市,东四,,39,39,27,14,12,28,,66,47,36,17,2,2,1.1,0.8
2025-11-09T2300,1004A,116.4072,39.8863,北京市,天坛,,40,40,26,13,11,12,,65,35,38,20,3,1,0.6,0.4
2025-11-09T2300,1005A,116.462,39.9365,北京市,农展馆,,45,45,25,19,9,5,,66,40,59,24,3,4,0.8,0.5
2025-11-09T2300,1006A,116.3392,39.9295,北京市,官园,,37,37,27,11,10,26,,62,45,38,17,1,3,0.4,0.4
2025-11-09T2300,1007A,116.2878,39.9611,北京市,海淀万柳,,25,25,24,7,8,29,,60,40,36,23,3,3,0.3,0.3
2025-11-09T2300,1008A,116.6636,40.135,北京市,顺义新城,,28,28,30,9,12,7,,59,38,44,29,4,4,0.5,0.4
2025-11-09T2300,1009A,116.6275,40.3275,北京市,怀柔镇,,16,8,15,3,8,51,,66,60,9,9,3,4,0.5,0.6
2025-11-09T2300,1010A,116.2296,40.217,北京市,昌平镇,,19,19,25,6,10,25,,60,40,31,22,4,4,0.3,0.3
2025-11-09T2300,1011A,116.3966,39.9821,北京市,奥体中心,,33,33,22,11,9,8,,60,40,63,26,4,4,0.7,0.4
2025-11-09T2300,3281A,115.9718,40.4529,北京市,延庆夏都,,26,26,23,9,5,49,,71,64,18,9,3,2,0.4,0.3
2025-11-09T2300,3418A,116.8336,40.4095,北京市,密云新城,,13,11,16,3,7,41,,64,55,20,20,1,2,0.4,0.4
2025-11-09T2300,3671A,116.088,39.9726,北京市,门头沟三家店,,47,47,34,10,9,3,,66,26,40,20,3,2,0.5,0.4
2025-11-09T2300,3672A,116.1541,39.8204,北京市,丰台云岗,,37,37,33,8,10,30,,62,44,33,18,2,2,0.3,0.3
2025-11-09T2300,3673A,116.6804,39.9081,北京市,通州东关,颗粒物(PM10),57,64,32,15,14,2,,63,32,62,27,3,3,0.8,0.5
2025-11-09T2300,3674A,115.9577,39.7603,北京市,房山燕山,,45,45,45,11,12,40,,51,39,11,14,3,3,0.3,0.3
2025-11-09T2300,3675A,116.4672,39.7733,北京市,大兴旧宫,颗粒物(PM10),53,56,30,14,10,9,,64,39,53,22,2,2,0.5,0.4
2025-11-09T2300,3694A,115.986,40.4563,北京市,延庆石河营,,20,20,22,7,5,30,,66,56,28,14,2,2,0.3,0.2
2025-11-09T2300,3695A,116.6151,40.3053,北京市,怀柔新城,,16,8,15,3,8,51,,69,62,6,7,3,3,0.3,0.3
2025-11-09T2300,3696A,116.2545,39.8768,北京市,丰台小屯,颗粒物(PM10),64,77,34,18,10,1,,60,23,57,20,4,3,0.6,0.4
2025-11-09T2300,3697A,116.84,40.3844,北京市,密云镇,,25,25,23,8,10,6,,62,35,44,23,1,4,0.5,0.3
2025-11-09T2300,4182A,116.1942,39.9158,北京市,八角北路9号,颗粒物(PM10),62,74,41,19,11,6,,57,26,68,28,1,1,0.5,0.3
2025-11-09T2300,4194A,117.0790,40.1518,北京市,洳河巡河路,,14,14,21,6,10,37,,64,57,21,13,3,3,0.3,0.3
2025-11-09T2300,1761A,123.8275,41.3064,本溪市,大峪,,15,15,42,6,27,37,,54,46,15,18,12,10,0.3,0.7
2025-11-09T2300,1762A,123.7567,41.3325,本溪市,溪湖,,28,28,61,6,32,43,,59,50,19,20,12,9,0.5,0.9
2025-11-09T2300,1763A,123.7169,41.3094,本溪市,彩屯,,20,20,59,6,38,45,,54,50,11,17,10,9,0.5,0.9
2025-11-09T2300,1764A,123.7669,41.2864,本溪市,东明,,26,26,50,3,32,43,,54,48,14,25,12,11,0.2,0.8
2025-11-09T2300,1765A,123.7992,41.2664,本溪市,新立屯,,30,30,38,3,25,46,,58,50,12,21,10,10,0.3,0.8
2025-11-09T2300,1766A,123.8142,41.3472,本溪市,威宁,,49,49,56,7,24,32,,55,45,24,22,9,7,0.5,0.8
2025-11-09T2300,2587A,105.2864,27.3125,毕节市,八中,,20,,9,14,9,37,,52,46,6,6,7,7,0.6,0.6
2025-11-09T2300,2588A,105.31,27.2944,毕节市,师专,,18,14,9,12,6,42,,55,49,6,7,8,7,0.7,0.7
2025-11-09T2300,4263A,105.3688,27.3598,毕节市,工业大道,,16,11,9,10,6,51,,64,56,4,6,8,8,0.7,0.7
2025-11-09T2300,1629A,118.0018,37.3617,滨州市,第二水厂,颗粒物(PM10),63,75,82,38,42,5,,60,36,63,33,10,7,0.2,0.4
2025-11-09T2300,1630A,117.9776,37.393,滨州市,北中新校,颗粒物(PM10),57,63,76,29,41,2,,62,30,59,35,6,6,0.4,0.3
2025-11-09T2300,3514A,117.9378,37.3956,滨州市,中海酒店,颗粒物(PM10),56,61,70,29,40,5,,60,30,29,17,4,5,0.6,0.5
2025-11-09T2300,3515A,117.9378,37.3553,滨州市,开发区一中,颗粒物(PM10),63,75,85,24,41,7,,70,30,55,32,19,8,1.0,0.8
2025-11-09T2300,3516A,118.0917,37.694,滨州市,金海六路,颗粒物(PM10),57,63,56,22,23,6,,64,29,61,39,5,6,0.4,0.4
2025-11-09T2300,4028A,117.9956,37.3753,滨州市,滨州市西街道办事处,颗粒物(PM10),63,75,80,34,48,3,,64,31,56,32,7,7,0.4,0.5
2025-11-09T2300,2311A,115.8072,33.8399,亳州市,污水处理厂,细颗粒物(PM2.5),99,98,74,74,55,19,,94,66,61,23,30,10,1.0,0.9
2025-11-09T2300,2312A,115.7789,33.8518,亳州市,三国揽胜宫,细颗粒物(PM2.5),107,113,90,80,51,30,,89,66,51,24,12,5,0.9,0.7
2025-11-09T2300,3332A,115.7633,33.8034,亳州市,亳州学院,细颗粒物(PM2.5),100,103,74,75,49,53,,95,75,34,25,8,6,1.0,0.8
2025-11-09T2300,2693A,82.0485,44.8556,博尔塔拉蒙古自治州,市党校,,50,50,38,19,10,21,,51,36,31,18,3,5,0.2,0.2
2025-11-09T2300,2694A,82.0806,44.8969,博尔塔拉蒙古自治州,市环保局,颗粒物(PM10),72,94,51,31,19,10,,45,32,56,26,2,5,1.0,0.5
2025-11-09T2300,1071A,116.8842,38.2991,沧州市,沧县城建局,"颗粒物(PM10),细颗粒物(PM2.5)",78,106,79,57,47,5,,64,30,67,36,7,4,1.0,0.8
2025-11-09T2300,1072A,116.8584,38.3254,沧州市,电视转播站,细颗粒物(PM2.5),73,90,75,53,45,0,,61,30,64,29,3,4,0.9,0.7
2025-11-09T2300,1073A,116.8709,38.3228,沧州市,市环保局,细颗粒物(PM2.5),80,107,80,59,52,4,,62,30,70,34,7,7,0.7,0.5
2025-11-09T2300,3324A,116.8136,38.3004,沧州市,河北水利电力学院,颗粒物(PM10),75,100,77,28,35,8,,65,32,77,39,12,9,0.5,0.5
2025-11-09T2300,2622A,97.1806,31.1273,昌都市,昌都监测站,,49,49,24,28,14,14,,87,59,47,17,4,3,0.9,0.4
2025-11-09T2300,3719A,97.1714,31.1406,昌都市,昌都会议中心,,20,20,13,10,7,54,,89,79,10,4,3,3,0.1,0.1
2025-11-09T2300,2690A,88.1236,43.8886,昌吉回族自治州,天山天池,,,,,,,,,,,,,,,,
2025-11-09T2300,2692A,87.2717,44.0297,昌吉回族自治州,新区政务中心,细颗粒物(PM2.5),119,138,98,90,58,3,,22,10,62,45,8,8,1.3,1.1
2025-11-09T2300,3613A,87.3095,44.0142,昌吉回族自治州,亚心广场,细颗粒物(PM2.5),163,183,124,124,84,3,,26,13,57,42,8,8,1.2,1.1
2025-11-09T2300,1120A,125.2863,43.9027,长春市,客车厂,,35,35,49,16,27,45,,54,48,10,15,6,6,0.3,0.4
2025-11-09T2300,1121A,125.2841,43.8463,长春市,邮电学院,,27,27,51,14,30,41,,51,42,14,19,6,8,0.3,0.4
2025-11-09T2300,1122A,125.3716,43.8772,长春市,劳动公园,,32,32,49,8,21,45,,54,46,11,17,9,10,0.5,0.5
2025-11-09T2300,1123A,125.3297,43.8805,长春市,园林处,,33,33,54,11,26,40,,50,41,13,16,5,6,0.3,0.4
2025-11-09T2300,1124A,125.4605,43.79,长春市,净月潭,,24,24,45,3,18,43,,52,46,11,14,6,6,0.3,0.4
2025-11-09T2300,1125A,125.7194,43.515,长春市,甩湾子,,,,46,,39,,,42,,,10,,4,,0.4
2025-11-09T2300,1126A,125.3863,43.8447,长春市,经开区环卫处,,27,27,44,9,22,40,,48,40,13,20,6,7,0.3,0.4
2025-11-09T2300,1127A,125.245,43.7783,长春市,高新区管委会,,31,31,48,10,25,41,,51,45,10,14,5,6,0.2,0.3
2025-11-09T2300,1128A,125.1761,43.8325,长春市,岱山公园,,37,37,53,11,28,36,,48,38,11,14,6,6,0.2,0.3
2025-11-09T2300,4281A,125.3346,43.9164,长春市,北亚泰大街1068号,,36,36,46,16,25,31,,48,37,22,21,10,7,0.2,0.3
2025-11-09T2300,1335A,113.0833,28.2325,长沙市,经开区环保局,,32,24,16,22,16,58,,64,60,17,12,4,4,0.4,0.5
2025-11-09T2300,1336A,112.8872,28.2189,长沙市,高开区环保局,,42,31,18,29,18,69,,78,74,19,18,5,4,0.5,0.5
2025-11-09T2300,1337A,113.0792,28.2053,长沙市,马坡岭,,25,25,17,16,11,63,,68,66,13,11,4,4,0.5,0.6
2025-11-09T2300,1338A,112.9394,28.19,长沙市,湖南师范大学,,29,29,17,20,12,72,,75,74,12,11,5,5,0.5,0.6
2025-11-09T2300,1339A,113.0178,28.1322,长沙市,雨花区环保局,,43,,16,30,16,64,,67,66,12,12,6,6,0.6,0.6
2025-11-09T2300,1340A,112.9792,28.2597,长沙市,伍家岭,,29,29,19,19,15,66,,69,67,15,15,4,4,0.4,0.4
2025-11-09T2300,1341A,113.0014,28.1944,长沙市,火车新站,,42,,17,29,15,70,,71,70,17,16,9,8,0.5,0.6
2025-11-09T2300,1342A,112.9844,28.1178,长沙市,天心区环保局,,28,28,16,18,11,72,,75,74,15,15,4,4,0.4,0.5
2025-11-09T2300,1343A,112.8908,28.1308,长沙市,湖南中医药大学,,32,32,17,16,11,69,,73,72,13,13,4,4,0.6,0.6
2025-11-09T2300,1344A,112.9581,28.3611,长沙市,沙坪,,,,,,,,,,,,,,,,
2025-11-09T2300,1727A,113.1147,36.1547,长治市,清华站,颗粒物(PM10),62,73,75,22,28,4,,71,32,50,35,10,10,0.6,0.6
2025-11-09T2300,1730A,113.0886,36.2125,长治市,审计局,颗粒物(PM10),67,83,69,36,32,4,,67,38,58,35,8,8,1.2,0.6
2025-11-09T2300,1731A,113.0844,36.1856,长治市,长治八中,颗粒物(PM10),90,129,92,48,37,1,,66,32,50,31,8,8,0.8,0.6
2025-11-09T2300,2845A,113.1569,36.1911,长治市,德盛苑,颗粒物(PM10),52,53,67,17,28,52,,78,71,19,16,8,6,0.6,0.6
2025-11-09T2300,3568A,113.06,36.0464,长治市,向阳小学,颗粒物(PM10),65,80,99,35,33,41,,83,54,28,26,18,9,0.5,0.5
2025-11-09T2300,3569A,112.8792,36.3144,长治市,屯留一中,颗粒物(PM10),57,64,76,21,30,19,,72,36,40,28,10,10,0.4,0.6
2025-11-09T2300,4189A,113.1131,36.19948,长治市,英华南巷50号,颗粒物(PM10),63,76,80,24,30,20,,70,39,37,30,11,7,0.7,0.8
2025-11-09T2300,4190A,113.2367,36.3344,长治市,学府街1号,颗粒物(PM10),61,71,82,19,31,6,,75,32,55,32,6,10,0.6,0.8
2025-11-09T2300,1854A,111.6975,28.9703,常德市,市二中,,27,27,23,15,14,54,,76,65,17,11,4,4,0.5,0.6
2025-11-09T2300,1857A,111.7158,29.1456,常德市,白鹤山,,,,,,,,,,,,,,,,
2025-11-09T2300,3138A,111.7153,29.0289,常德市,武陵区永安,,28,25,25,19,16,58,,76,67,15,14,4,4,0.6,0.7
2025-11-09T2300,3139A,111.6892,28.9881,常德市,鼎城区玉霞,,32,32,24,19,15,45,,78,62,16,11,5,5,0.5,0.5
2025-11-09T2300,3140A,111.6625,29.0531,常德市,武陵区长庚,,30,30,25,18,16,52,,77,63,13,12,3,3,0.4,0.5
2025-11-09T2300,1196A,119.9633,31.762,常州市,市监测站,颗粒物(PM10),63,75,44,42,21,58,,67,61,28,16,8,6,0.6,0.4
2025-11-09T2300,1200A,119.9468,31.7069,常州市,武进监测站,颗粒物(PM10),65,80,40,30,16,38,,67,48,39,31,9,8,0.7,0.5
2025-11-09T2300,1201A,119.9255,31.9087,常州市,安家,颗粒物(PM10),67,83,43,42,20,43,,65,50,42,26,10,9,0.6,0.5
2025-11-09T2300,3002A,119.9805,31.8174,常州市,行政中心,,,73,34,48,23,58,,67,,30,18,7,5,,0.4
2025-11-09T2300,3003A,120.0522,31.7748,常州市,经开区,颗粒物(PM10),64,77,37,44,18,37,,70,54,41,19,10,9,0.9,0.7
2025-11-09T2300,3010A,119.9025,31.7964,常州市,钟楼,细颗粒物(PM2.5),74,74,41,54,25,29,,63,40,54,28,9,8,0.9,0.7
2025-11-09T2300,3429A,119.8598,31.7066,常州市,武进经发区,颗粒物(PM10),59,67,32,36,19,15,,55,37,60,30,7,7,0.9,0.7
2025-11-09T2300,3430A,119.5826,31.7245,常州市,金坛城区,颗粒物(PM10),61,71,29,34,18,39,,62,60,27,16,6,5,0.8,0.7
2025-11-09T2300,2220A,120.4318,41.5881,朝阳市,西梁,,44,44,45,18,16,13,,58,38,39,25,6,6,0.9,0.9
2025-11-09T2300,2221A,120.4521,41.5646,朝阳市,河畔小区,,33,33,41,7,13,38,,58,47,21,21,5,6,0.4,0.5
2025-11-09T2300,2222A,120.4176,41.5648,朝阳市,八里堡,,31,31,56,13,20,19,,58,41,39,30,8,9,0.5,0.6
2025-11-09T2300,2223A,120.3806,41.5969,朝阳市,农业园区,,18,18,22,3,8,38,,63,44,17,10,6,8,0.4,0.4
2025-11-09T2300,1705A,116.6367,23.6719,潮州市,西园路,,,,,,,,,,,,,,,,
2025-11-09T2300,3026A,116.6183,23.6608,潮州市,市政府,,16,16,46,11,25,36,,80,46,5,9,4,7,0.7,1
2025-11-09T2300,4036A,116.6461,23.6761,潮州市,金山,,29,,38,20,30,33,,80,38,5,10,2,2,0.7,0.6
2025-11-09T2300,2472A,113.0073,25.9061,郴州市,马头岭,,,,,,,,,,,,,,,,
2025-11-09T2300,2473A,113.0116,25.8226,郴州市,市职中,,15,11,9,6,6,47,,56,54,8,9,2,2,0.6,0.6
2025-11-09T2300,2475A,113.0383,25.8071,郴州市,市审计局,,14,8,9,8,6,43,,54,52,10,10,1,3,0.4,0.4
2025-11-09T2300,2476A,113.0348,25.7759,郴州市,市环保局,,18,,13,12,8,44,,51,50,10,10,1,2,0.5,0.5
2025-11-09T2300,4252A,113.0138,25.8011,郴州市,好美居路49号,,17,,8,9,6,52,,61,59,9,10,3,3,0.7,0.7
2025-11-09T2300,1431A,103.9728,30.7236,成都市,金泉两河,,42,42,54,22,29,43,,57,50,16,28,2,4,0.4,0.7
2025-11-09T2300,1432A,104.176,30.6872,成都市,十里店,,17,17,71,7,41,54,,54,50,10,35,3,4,0.5,0.7
2025-11-09T2300,1433A,104.079,30.5706,成都市,三瓦窑,,40,40,70,16,32,48,,64,53,15,37,3,4,0.5,0.7
2025-11-09T2300,1434A,104.1114,30.63,成都市,沙河铺,,35,35,66,16,49,10,,9,9,18,31,1,2,0.4,0.7
2025-11-09T2300,1437A,104.0786,30.6531,成都市,君平街,,40,40,71,25,38,44,,49,47,14,34,3,5,0.4,0.7
2025-11-09T2300,1438A,103.613,31.0283,成都市,灵岩寺,,,,,,,,,,,,,,,,
2025-11-09T2300,2880A,104.0239,30.65639,成都市,大石西路,,34,34,49,23,37,48,,55,51,18,33,3,3,0.6,0.8
2025-11-09T2300,3136A,104.2725,30.5589,成都市,龙泉驿区区政府,,14,14,35,7,18,41,,41,39,12,24,5,5,0.4,0.6
2025-11-09T2300,3357A,104.0106,30.6931,成都市,金博路,,30,30,55,19,30,48,,56,52,16,30,6,7,0.5,0.7
2025-11-09T2300,3359A,104.0578,30.5225,成都市,华阳,,39,36,59,27,37,36,,55,48,24,37,5,5,0.4,0.6
2025-11-09T2300,3488A,104.3880,30.7467,成都市,青石路225号,,25,25,49,3,24,54,,57,54,11,25,5,6,0.6,0.8
2025-11-09T2300,3489A,104.0789,30.4072,成都市,科学城,,48,48,52,26,30,36,,59,53,13,25,4,4,0.5,0.6
2025-11-09T2300,4011A,103.8506,30.6947,成都市,光华大道三段,,41,41,61,15,32,41,,58,46,20,29,1,1,0.7,0.9
2025-11-09T2300,4224A,104.2433,30.5353,成都市,鲸龙路1057号,,19,15,48,7,29,58,,60,55,8,18,5,5,0.5,0.7
2025-11-09T2300,1062A,117.9531,40.9081,承德市,铁路,,32,32,24,10,7,17,,62,48,41,15,2,3,0.3,0.3
2025-11-09T2300,1063A,117.9392,40.9763,承德市,中国银行,,26,26,26,3,7,36,,59,48,13,17,1,2,0.2,0.3
2025-11-09T2300,1064A,117.9503,40.928,承德市,开发区,,33,33,39,15,16,33,,63,51,24,16,3,4,0.1,0.1
2025-11-09T2300,1066A,117.9268,41.0026,承德市,离宫,,,,,,,,,,,,,,,,
2025-11-09T2300,4274A,117.7994,40.9605,承德市,滨河大街98号,,19,14,21,13,9,33,,59,49,13,10,3,4,0.3,0.3
2025-11-09T2300,2314A,117.47,30.6618,池州市,池州学院,,43,42,23,30,18,39,,46,44,22,17,9,5,0.6,0.6
2025-11-09T2300,3237A,117.4918,30.6617,池州市,展览馆,,43,43,25,27,17,28,,46,40,25,19,6,5,0.7,0.7
2025-11-09T2300,3333A,117.5627,30.695,池州市,第八中学,,37,37,26,25,18,27,,49,41,23,18,6,7,0.9,0.7
2025-11-09T2300,3334A,117.5038,30.6243,池州市,第十二中学,,38,31,20,26,16,23,,47,40,32,21,5,4,1.3,0.8
2025-11-09T2300,1744A,118.9233,42.2816,赤峰市,松山一中,,15,13,14,3,3,45,,61,49,17,13,9,6,0.4,0.3
2025-11-09T2300,1745A,118.9576,42.2728,赤峰市,哈达街,,14,8,15,6,4,42,,53,45,13,12,8,8,0,0
2025-11-09T2300,1746A,118.8788,42.2554,赤峰市,天义路,,13,7,10,3,5,41,,54,45,15,11,5,5,0.5,0.4
2025-11-09T2300,3058A,119.2658,42.0353,赤峰市,银河街,,15,13,22,8,7,45,,59,48,6,6,6,7,0.3,0.3
2025-11-09T2300,3286A,118.9359,42.3147,赤峰市,桥北物流园区,,18,14,12,12,7,42,,55,42,14,13,8,8,0.3,0.3
2025-11-09T2300,2521A,107.3476,22.4136,崇左市,市环保局江州分局,,12,8,30,8,16,18,,26,24,5,9,1,1,0.8,0.9
2025-11-09T2300,4256A,107.3750,22.3736,崇左市,石景林东路7号,,15,11,28,10,21,27,,37,31,10,12,7,7,0.8,0.8
2025-11-09T2300,2298A,118.3093,32.3153,滁州市,老年大学,,48,44,46,33,43,35,,71,58,12,9,10,11,0.4,0.3
2025-11-09T2300,2299A,118.3244,32.2786,滁州市,人大宾馆,细颗粒物(PM2.5),74,63,50,54,42,53,,70,65,15,9,4,4,0.5,0.4
2025-11-09T2300,3207A,118.3118,32.3038,滁州市,市政府原办公楼,细颗粒物(PM2.5),78,69,52,57,46,62,,75,70,15,13,5,5,0.6,0.5
2025-11-09T2300,3331A,118.3267,32.2634,滁州市,图书馆,颗粒物(PM10),57,63,49,38,32,56,,73,67,19,14,6,6,0.5,0.4
2025-11-09T2300,2605A,101.5482,25.0441,楚雄彝族自治州,州环境监测站,,8,6,5,3,4,24,,34,24,2,4,6,6,0.6,0.6
2025-11-09T2300,2606A,101.538,25.0492,楚雄彝族自治州,市经济开发区,,10,10,7,7,5,19,,33,22,10,8,6,6,0.8,0.7
2025-11-09T2300,2548A,107.5277,31.2827,达州市,达州职业技术学院,,,,,,,,,,,,,,,,
2025-11-09T2300,2549A,107.5086,31.2186,达州市,市环境监测站,,17,17,15,3,3,10,,17,9,31,26,5,6,0.6,0.6
2025-11-09T2300,2550A,107.4988,31.2132,达州市,凤凰小区,,15,7,13,3,5,13,,22,12,29,24,4,5,0.5,0.5
2025-11-09T2300,2551A,107.5082,31.1986,达州市,达县机关宾馆,,14,12,14,3,8,16,,16,11,27,25,4,5,0.5,0.6
2025-11-09T2300,2552A,107.4644,31.2124,达州市,市政中心,,15,15,24,3,5,10,,24,14,29,21,5,6,0.5,0.6
2025-11-09T2300,2614A,100.1542,25.7054,大理白族自治州,大理市环境监测站,,22,,12,15,10,30,,35,32,10,8,6,6,0.4,0.4
2025-11-09T2300,2615A,100.2171,25.5811,大理白族自治州,大理古城,,,35,19,14,11,29,,49,,,9,7,7,,0.7
2025-11-09T2300,1109A,121.612,38.9741,大连市,甘井子,,20,18,57,3,29,64,,73,63,13,22,6,7,0.4,0.4
2025-11-09T2300,1110A,121.565,38.9511,大连市,周水子,,23,20,56,3,28,71,,78,63,12,24,3,4,0.2,0.5
2025-11-09T2300,1111A,121.5637,38.8845,大连市,星海三站,,21,21,51,3,28,63,,73,63,6,10,4,5,0.2,0.4
2025-11-09T2300,1112A,121.6302,38.9117,大连市,青泥洼桥,,15,7,58,3,34,48,,63,47,22,24,11,10,0.2,0.7
2025-11-09T2300,1113A,121.6251,38.8638,大连市,傅家庄,,19,19,50,3,27,58,,70,61,14,21,9,11,0.4,0.6
2025-11-09T2300,1114A,121.5213,38.8661,大连市,七贤岭,,23,23,55,3,26,63,,74,66,9,15,5,6,0.3,0.6
2025-11-09T2300,1115A,121.2529,38.8061,大连市,旅顺,,21,11,44,3,26,66,,76,69,11,13,8,8,0.2,0.4
2025-11-09T2300,1116A,121.7485,39.1311,大连市,金州,,18,12,49,3,29,57,,73,62,15,21,9,10,0.2,0.4
2025-11-09T2300,1117A,121.7811,39.0496,大连市,开发区,,26,26,58,3,29,55,,66,55,6,16,3,4,0.2,0.5
2025-11-09T2300,1118A,121.9762,39.0631,大连市,双D港,,25,25,45,6,27,59,,78,64,13,14,10,10,0.2,0.4
2025-11-09T2300,1789A,124.81117,46.03138,大庆市,大同区,,19,14,21,12,9,60,,60,57,4,8,9,10,0.3,0.3
2025-11-09T2300,1790A,125.129,46.533,大庆市,龙凤区,,29,29,46,17,30,49,,49,44,5,14,5,6,0.4,0.6
2025-11-09T2300,1791A,124.902,46.408,大庆市,红岗区,,30,30,30,19,19,53,,52,51,6,11,4,5,0.4,0.3
2025-11-09T2300,1792A,125.153,46.586,大庆市,萨尔图区,,26,26,33,18,23,55,,57,54,10,16,6,7,0.3,0.3
2025-11-09T2300,1793A,124.9042,46.6215,大庆市,让胡路区,,31,31,34,19,27,51,,52,50,3,9,6,6,0.3,0.3
2025-11-09T2300,3481A,125.141,46.634,大庆市,萨区政府监测点,,26,26,38,7,18,48,,53,50,6,9,9,10,0.2,0.3
2025-11-09T2300,1721A,113.3819,40.1097,大同市,果树场,颗粒物(PM10),54,58,58,28,18,15,,66,31,33,32,10,8,1.0,0.6
2025-11-09T2300,1723A,113.2994,40.0758,大同市,云冈宾馆,,44,44,68,14,12,42,,65,54,24,16,7,6,0.4,0.3
2025-11-09T2300,1724A,113.3444,40.0917,大同市,大同大学,颗粒物(PM10),51,51,60,24,16,11,,68,51,61,22,8,7,0.7,0.5
2025-11-09T2300,1725A,113.2661,40.1269,大同市,安家小村,,49,49,58,19,14,18,,64,51,43,18,9,7,0.6,0.3
2025-11-09T2300,1726A,113.2711,40.0844,大同市,教育学院,,38,38,66,15,15,43,,65,53,27,20,7,6,0.4,0.4
2025-11-09T2300,3282A,113.3397,40.0597,大同市,大同市卫生学校,,48,48,62,18,16,38,,63,48,31,21,6,6,0.6,0.5
2025-11-09T2300,3565A,113.1367,40.1122,大同市,云冈站,,47,47,59,16,15,10,,69,39,36,14,5,5,0.4,0.3
2025-11-09T2300,3566A,113.1186,40.2556,大同市,图书馆,,40,40,70,20,18,24,,68,52,23,14,6,4,0.6,0.4
2025-11-09T2300,3567A,113.5931,40.0461,大同市,区一中,,49,49,74,32,21,20,,64,36,27,22,7,9,0.8,0.5
2025-11-09T2300,4199A,113.2798,40.0997,大同市,魏都大道141号,,43,43,66,19,16,33,,67,50,38,20,6,5,0.7,0.5
2025-11-09T2300,2269A,124.1069,50.4097,大兴安岭地区,科技局,,19,12,53,11,39,58,,57,57,2,6,4,4,0.1,0.2
2025-11-09T2300,3663A,124.1164,50.4278,大兴安岭地区,红旗社区,,19,6,36,3,31,60,,58,58,2,11,4,4,0.3,0.4
2025-11-09T2300,1600A,124.3303,40.0625,丹东市,江湾东路,,22,22,50,6,25,47,,53,48,12,23,8,8,0.6,1.1
2025-11-09T2300,1601A,124.4256,40.1503,丹东市,临江后街,,16,14,36,3,21,51,,50,41,8,28,6,7,0.3,0.8
2025-11-09T2300,1602A,124.3933,40.1461,丹东市,元宝山,,15,13,33,6,22,47,,54,50,10,21,9,9,0.5,0.9
2025-11-09T2300,1603A,124.3633,40.1092,丹东市,民主桥,,18,18,39,3,22,50,,50,45,7,27,6,5,0.8,0.9
2025-11-09T2300,3541A,109.5726,19.5167,儋州市,第一中学子站,颗粒物(PM10),53,55,25,28,12,81,,72,72,3,3,7,6,0.4,0.3
2025-11-09T2300,3542A,109.5567,19.5187,儋州市,东坡学校子站,,50,50,18,27,10,86,,77,77,8,6,2,2,0.5,0.4
2025-11-09T2300,2616A,98.5842,24.428,德宏傣族景颇族自治州,德宏州监测站,,38,38,34,26,22,15,,70,52,19,16,7,11,0.8,0.8
2025-11-09T2300,3677A,98.5881,24.4368,德宏傣族景颇族自治州,芒市人民政府综合楼,,37,37,38,19,21,18,,66,51,11,13,6,10,0.8,0.8
2025-11-09T2300,1901A,104.4239,31.1208,德阳市,东山公园,,33,33,43,18,25,53,,66,61,6,18,1,2,0.6,0.7
2025-11-09T2300,1902A,104.3826,31.1317,德阳市,西小区,,45,45,60,21,29,50,,66,60,11,20,1,3,0.5,0.7
2025-11-09T2300,1904A,104.3553,31.1091,德阳市,耐火材料厂,,42,42,56,16,25,51,,68,62,13,22,1,3,0.6,0.7
2025-11-09T2300,3639A,104.4019,31.1244,德阳市,市教育局,,36,36,48,14,21,46,,62,57,10,17,1,2,0.5,0.6
2025-11-09T2300,1622A,116.3032,37.4674,德州市,儿童乐园,颗粒物(PM10),73,95,95,36,43,18,,70,41,72,42,8,10,0.9,0.9
2025-11-09T2300,1624A,116.2991,37.4451,德州市,监理站,颗粒物(PM10),75,100,84,39,39,13,,75,40,76,41,12,13,0.8,0.8
2025-11-09T2300,3066A,116.2721,37.4379,德州市,九衢泉纯净水厂,颗粒物(PM10),86,122,94,46,35,2,,64,25,86,46,10,11,0.8,0.8
2025-11-09T2300,3371A,116.3728,37.4403,德州市,开发区人民医院,颗粒物(PM10),67,83,87,29,36,10,,69,37,83,44,12,13,0.8,0.8
2025-11-09T2300,3511A,116.5652,37.3319,德州市,陵城艺术中心,"颗粒物(PM10),细颗粒物(PM2.5)",89,127,88,66,43,0,,54,25,73,45,14,11,1.0,0.9
2025-11-09T2300,4292A,116.3525,37.4209,德州市,新河东路,颗粒物(PM10),75,100,87,48,38,6,,68,34,90,51,10,9,0.8,0.8
2025-11-09T2300,2621A,99.7056,27.8317,迪庆藏族自治州,迪庆州站,,26,26,23,16,17,50,,79,71,17,11,6,6,0.6,0.4
2025-11-09T2300,3180A,99.7136,27.8094,迪庆藏族自治州,质量技术监督局,,25,,23,14,10,77,,78,75,5,13,7,7,0.4,0.5
2025-11-09T2300,4257A,104.6092,35.5962,定西市,将台街,颗粒物(PM10),70,90,97,32,32,36,,74,59,25,25,16,11,0.5,0.4
2025-11-09T2300,4309A,104.6159,35.5701,定西市,正龙路62号,颗粒物(PM10),75,100,110,44,40,34,,68,54,28,21,8,7,0.7,0.5
2025-11-09T2300,1389A,113.7547,23.0494,东莞市,莞城梨川,,,9,41,3,23,43,,80,55,11,24,,7,0.6,0.6
2025-11-09T2300,1390A,113.7944,23.0128,东莞市,东城石井,,15,8,34,3,21,46,,78,54,11,25,6,6,0.7,0.7
2025-11-09T2300,1391A,113.7383,22.9658,东莞市,南城西平,,12,10,39,3,24,32,,84,54,23,31,6,7,0.8,0.8
2025-11-09T2300,3319A,113.7338,23.0381,东莞市,万江金泰,,14,10,44,6,26,43,,84,52,9,25,5,6,0.7,0.8
2025-11-09T2300,3626A,113.7533,23.0202,东莞市,南城元岭,,15,6,39,3,22,48,,84,59,6,22,5,7,0.8,0.8
2025-11-09T2300,3627A,113.7875,23.0457,东莞市,东城主山,,15,7,30,3,17,48,,83,55,12,28,4,6,0.7,0.8
2025-11-09T2300,1666A,118.6614,37.4309,东营市,市环保局,颗粒物(PM10),54,58,66,12,31,8,,62,40,60,37,8,6,0.8,0.7
2025-11-09T2300,3036A,118.6904,37.4338,东营市,开发区管委会,颗粒物(PM10),54,57,58,17,35,24,,66,48,48,39,8,6,0.6,0.6
2025-11-09T2300,3365A,118.5719,37.565,东营市,垦利区民丰路,颗粒物(PM10),57,63,63,17,30,2,,64,33,59,38,5,4,0.8,0.7
2025-11-09T2300,3498A,118.5055,37.8612,东营市,河口城区,颗粒物(PM10),58,66,46,29,20,25,,72,50,40,31,6,6,0.5,0.5
2025-11-09T2300,3646A,118.4978,37.4623,东营市,胜利站,颗粒物(PM10),58,66,66,27,35,8,,60,32,66,46,11,9,1.0,0.9
2025-11-09T2300,3734A,118.35,37.26,东营市,理想之城,颗粒物(PM10),54,58,65,24,34,0,,59,27,48,43,2,3,0.6,0.6
2025-11-09T2300,1591A,110.0023,39.8129,鄂尔多斯市,综合楼,,24,24,30,3,6,54,,78,63,24,9,9,7,0.5,0.3
2025-11-09T2300,1592A,109.9486,39.8261,鄂尔多斯市,巴音孟克林场办事处,,22,22,36,3,10,52,,81,54,22,11,5,5,0.6,0.4
2025-11-09T2300,1593A,109.7736,39.5986,鄂尔多斯市,康泽苑,,25,22,42,17,14,31,,82,61,28,12,4,5,0.3,0.2
2025-11-09T2300,1594A,109.8119,39.5989,鄂尔多斯市,华泰汽车城,,39,39,44,9,13,20,,86,53,37,15,5,6,0.3,0.2
2025-11-09T2300,1595A,109.9734,39.7884,鄂尔多斯市,奥林花园,颗粒物(PM10),52,53,44,9,7,7,,80,36,62,27,5,7,0.8,0.5
2025-11-09T2300,2436A,114.8938,30.3994,鄂州市,市政府,,49,41,36,34,31,25,,53,42,35,21,9,8,0.7,0.6
2025-11-09T2300,2437A,114.8989,30.3714,鄂州市,赵家坝,细颗粒物(PM2.5),57,47,34,40,33,17,,54,41,27,14,8,7,1.0,0.8
2025-11-09T2300,3654A,114.8094,30.4089,鄂州市,精准医疗中心,细颗粒物(PM2.5),54,54,38,38,33,22,,57,45,24,11,6,6,0.8,0.7
2025-11-09T2300,2454A,109.4978,30.2981,恩施土家族苗族自治州,湖北民院,,30,30,18,17,9,28,,61,54,10,9,6,6,0.5,0.6
2025-11-09T2300,2455A,109.4707,30.2798,恩施土家族苗族自治州,州电力总公司,,31,31,16,20,10,15,,54,47,16,12,6,5,0.4,0.5
2025-11-09T2300,3549A,109.5061,30.3772,恩施土家族苗族自治州,龙凤新区,,26,26,13,17,8,8,,29,19,5,8,6,6,0.5,0.5
2025-11-09T2300,2499A,108.3411,21.6158,防城港市,沙万,,22,22,42,15,22,38,,64,50,7,16,6,7,0.7,0.7
2025-11-09T2300,2500A,108.3514,21.7731,防城港市,防城档案局,,29,29,35,13,20,35,,50,41,8,11,7,7,0.8,0.9
2025-11-09T2300,2501A,108.3506,21.6414,防城港市,大海花园,,29,20,38,20,24,43,,70,56,7,14,4,7,0.6,0.7
2025-11-09T2300,1371A,113.1294,23.0067,佛山市,湾梁,,18,12,31,12,23,2,,89,13,26,26,7,8,1.1,1
2025-11-09T2300,1372A,113.1083,23.0478,佛山市,华材职中,,12,12,30,8,17,34,,92,51,17,21,6,7,0.8,0.8
2025-11-09T2300,1373A,113.144,23.0453,佛山市,南海气象局,,18,,26,12,21,28,,91,51,19,18,7,8,1.0,0.9
2025-11-09T2300,1374A,113.2881,22.8094,佛山市,顺德苏岗,,17,17,43,9,22,37,,91,59,14,22,8,9,0.7,0.7
2025-11-09T2300,1376A,112.8383,22.8678,佛山市,高明孔堂,,19,19,43,8,22,33,,97,56,16,19,4,8,0.7,0.6
2025-11-09T2300,1377A,112.8836,23.1588,佛山市,三水监测站,,12,9,24,3,12,36,,71,45,15,19,5,7,0.9,0.8
2025-11-09T2300,1378A,112.867,23.185,佛山市,三水云东海,,25,25,35,3,15,29,,71,43,21,24,4,6,1.0,0.9
2025-11-09T2300,3625A,113.2544,22.7642,佛山市,容桂街道办,,18,14,41,12,27,33,,90,57,18,30,6,7,0.8,0.8
2025-11-09T2300,1280A,119.3903,26.0543,福州市,鼓山,,,,19,,7,,,81,,,8,,1,,0.4
2025-11-09T2300,1282A,119.2681,26.0504,福州市,师大,,25,12,28,7,13,79,,93,82,8,15,5,6,0.5,0.5
2025-11-09T2300,1283A,119.2984,26.1028,福州市,五四北路,,23,11,26,7,13,73,,85,76,11,16,4,4,0.4,0.5
2025-11-09T2300,1284A,119.2648,26.0768,福州市,杨桥西路,,24,16,27,6,13,75,,93,81,9,16,3,4,0.3,0.3
2025-11-09T2300,1285A,119.317,26.0746,福州市,紫阳,,25,16,30,9,13,78,,88,79,8,16,6,6,0.4,0.4
2025-11-09T2300,3048A,119.5799,26.0936,福州市,九龙,,26,16,23,3,7,82,,93,89,7,9,4,4,0.4,0.5
2025-11-09T2300,3526A,119.5189,25.9664,福州市,吴航,,26,19,22,11,12,83,,94,90,6,8,5,5,0.5,0.5
2025-11-09T2300,1755A,123.7977,41.8491,抚顺市,望花区,,44,44,62,9,33,32,,51,44,22,21,9,10,0.8,0.8
2025-11-09T2300,1756A,123.9161,41.8822,抚顺市,顺城区,,45,45,60,8,35,24,,52,45,31,22,7,8,0.4,0.7
2025-11-09T2300,1757A,124.0436,41.8611,抚顺市,东洲区,,44,44,62,8,32,31,,52,46,19,17,8,8,0.5,0.8
2025-11-09T2300,1758A,123.9247,41.8642,抚顺市,新抚区,,42,42,57,7,27,40,,53,49,15,18,8,8,0.5,0.9
2025-11-09T2300,1759A,124.0972,41.8961,抚顺市,大伙房水库,,48,48,55,8,34,31,,56,46,25,23,10,10,0.7,0.9
2025-11-09T2300,1760A,123.7086,41.8391,抚顺市,沈抚新城,,33,33,54,3,26,39,,54,43,19,23,6,8,0.3,0.6
2025-11-09T2300,2376A,116.2127,28.0814,抚州市,桐源党溪,,,,,,,,,,,,,,,,
2025-11-09T2300,2377A,116.3544,27.9831,抚州市,市站,,14,12,20,6,10,44,,57,50,7,7,4,4,0.9,0.9
2025-11-09T2300,2378A,116.3565,27.963,抚州市,血防站,,15,15,22,3,12,45,,57,50,9,9,3,2,0.8,0.7
2025-11-09T2300,2379A,116.3564,28.0007,抚州市,采茶剧团,,14,12,22,7,12,42,,56,48,5,4,2,2,0.7,0.7
2025-11-09T2300,2380A,116.385,27.9647,抚州市,医学分院,,22,22,24,3,10,40,,56,48,9,8,4,4,1.1,1.1
2025-11-09T2300,2207A,121.6094,41.998,阜新市,工业园区,,27,27,47,12,19,20,,56,42,30,27,9,10,0.5,0.5
2025-11-09T2300,2208A,121.6697,42.0279,阜新市,长青街,,16,16,32,3,15,42,,54,46,11,23,7,8,0.2,0.3
2025-11-09T2300,2209A,121.6673,42.0705,阜新市,农业园区,,22,22,24,3,6,36,,55,48,14,12,4,7,0.4,0.4
2025-11-09T2300,2210A,121.6717,42.0224,阜新市,东苑,,23,23,40,7,18,49,,58,52,10,23,9,13,0.4,0.5
2025-11-09T2300,2211A,121.6506,42.0498,阜新市,玉龙新城,,25,25,51,9,13,18,,56,45,33,23,8,9,0.4,0.4
2025-11-09T2300,2301A,115.8277,32.8929,阜阳市,市监测站,细颗粒物(PM2.5),89,102,86,66,64,2,,82,31,94,40,6,5,0.8,0.6
2025-11-09T2300,2303A,115.8554,32.8605,阜阳市,开发区,细颗粒物(PM2.5),95,102,88,71,63,26,,88,54,49,28,3,3,0.6,0.5
2025-11-09T2300,2875A,115.784,32.8892,阜阳市,阜阳职业技术学院,细颗粒物(PM2.5),93,108,82,69,52,17,,91,62,61,25,6,6,0.9,0.6
2025-11-09T2300,3468A,115.7901,32.8613,阜阳市,市规划展馆,细颗粒物(PM2.5),88,99,84,65,58,60,,99,78,32,19,5,5,0.9,0.7
2025-11-09T2300,3469A,115.836,32.9183,阜阳市,枣园社区,细颗粒物(PM2.5),88,95,74,65,55,17,,88,62,76,30,8,7,0.8,0.7
2025-11-09T2300,2669A,102.9099,34.9841,甘南藏族自治州,州政府,,42,29,56,29,31,39,,51,39,10,13,4,3,0.5,0.4
2025-11-09T2300,3380A,102.8914,34.9617,甘南藏族自治州,甘肃民族师范学院,,13,,54,3,20,40,,50,42,9,17,6,8,0.6,0.5
2025-11-09T2300,2570A,101.9603,30.0475,甘孜藏族自治州,水桥子,,16,13,6,7,4,49,,66,59,15,11,7,8,0.4,0.4
2025-11-09T2300,3065A,101.9533,29.9972,甘孜藏族自治州,州环保局,,15,,8,3,4,46,,63,56,19,9,6,5,0.4,0.3
2025-11-09T2300,3414A,115.8347,28.932,赣江新区,桑海产业园,,25,19,14,17,10,42,,54,50,18,14,7,8,0.8,0.8
2025-11-09T2300,2362A,114.9017,25.9149,赣州市,通天岩,,19,19,15,12,8,60,,62,62,7,7,27,26,1.6,1.7
2025-11-09T2300,2363A,114.9367,25.8664,赣州市,地委,,30,30,20,13,8,56,,58,58,10,12,5,5,0.9,1
2025-11-09T2300,2364A,114.9461,25.8481,赣州市,气象台,,31,31,23,9,5,58,,57,57,9,13,5,4,0.8,0.9
2025-11-09T2300,2365A,114.9322,25.8333,赣州市,市图书馆,,22,,13,15,9,60,,61,61,8,9,3,4,0.7,0.8
2025-11-09T2300,2366A,114.8905,25.8471,赣州市,华坚鞋城,,24,24,16,13,7,49,,51,51,10,12,4,4,0.5,0.6
2025-11-09T2300,3109A,115.0093,25.8613,赣州市,赣县区卫计委,,23,18,11,16,10,65,,62,62,4,6,7,7,0.5,0.6
2025-11-09T2300,2683A,106.2319,36.1417,固原市,马园,,,,,,,,,,,,,,,,
2025-11-09T2300,2684A,106.2792,36.0022,固原市,监测站,颗粒物(PM10),66,82,100,27,26,69,,78,73,12,23,4,6,0.5,0.8
2025-11-09T2300,2685A,106.2375,36.0211,固原市,新区,颗粒物(PM10),68,85,98,22,29,70,,76,72,13,28,8,8,0.3,0.6
2025-11-09T2300,3522A,106.2177,35.9959,固原市,原州区十五小,颗粒物(PM10),69,87,102,29,31,72,,80,75,10,18,4,6,0.4,0.6
2025-11-09T2300,2543A,106.6308,30.5278,广安市,小平旧居,,,,,,,,,,,,,,,,
2025-11-09T2300,2544A,106.6303,30.4576,广安市,市委,,19,,12,13,10,22,,28,20,13,11,3,3,0.7,0.6
2025-11-09T2300,2545A,106.6271,30.4663,广安市,友谊中学,,20,17,14,14,9,27,,32,26,12,10,5,5,0.8,0.7
2025-11-09T2300,2547A,106.6388,30.4551,广安市,广电花园,,18,12,12,12,9,21,,25,18,14,11,1,1,0.7,0.6
2025-11-09T2300,2902A,106.6351,30.4865,广安市,北辰小学,,12,8,12,8,9,26,,31,26,9,7,7,7,0.6,0.5
2025-11-09T2300,2523A,105.8945,32.4535,广元市,黑石坡,,,,,,,,,,,,,,,,
2025-11-09T2300,2524A,105.821,32.4444,广元市,老城,,29,26,25,20,16,18,,60,32,34,21,5,3,0.7,0.6
2025-11-09T2300,2526A,105.8628,32.4287,广元市,监测站,,29,,15,20,11,31,,56,43,18,16,4,3,0.8,0.7
2025-11-09T2300,3617A,105.8047,32.4166,广元市,经开区,,39,39,38,17,15,13,,42,21,21,21,2,2,0.6,0.5
2025-11-09T2300,1345A,113.2347,23.1423,广州市,广雅中学,,25,25,30,12,16,27,,86,48,24,25,6,7,0.5,0.5
2025-11-09T2300,1346A,113.2612,23.105,广州市,市五中,,15,15,26,7,15,43,,110,56,17,23,8,8,0.7,0.7
2025-11-09T2300,1348A,113.3478,23.0916,广州市,广东商学院,,16,16,27,11,16,40,,88,56,11,16,5,6,0.5,0.5
2025-11-09T2300,1349A,113.4332,23.1047,广州市,市八十六中,,16,12,24,11,17,38,,87,56,14,23,6,7,0.6,0.5
2025-11-09T2300,1350A,113.3505,22.9483,广州市,番禺中学,,16,16,35,8,20,40,,92,61,14,18,6,7,0.7,0.7
2025-11-09T2300,1351A,113.2146,23.3916,广州市,花都师范,,12,12,18,3,10,36,,70,44,15,14,5,6,0.9,0.8
2025-11-09T2300,1352A,113.2597,23.1331,广州市,市监测站,,16,16,26,8,14,37,,87,51,15,24,8,8,0.7,0.6
2025-11-09T2300,1353A,113.5618,23.312,广州市,九龙镇镇龙,,12,11,28,7,18,38,,64,45,12,16,6,8,0.7,0.7
2025-11-09T2300,1354A,113.2765,23.1544,广州市,麓湖,,17,17,24,10,16,30,,83,48,19,20,8,9,0.6,0.5
2025-11-09T2300,1355A,113.443,23.3035,广州市,帽峰山森林公园,,,,,,,,,,,,,,,,
2025-11-09T2300,2846A,113.3221,23.1322,广州市,体育西,,16,16,26,11,17,38,,85,51,12,18,8,9,0.7,0.7
2025-11-09T2300,3298A,113.5717,23.5491,广州市,从化街口,,13,8,22,3,15,41,,59,43,10,17,9,11,0.7,0.7
2025-11-09T2300,3299A,113.3472,23.3692,广州市,白云竹料,,15,10,18,6,12,45,,75,50,10,13,7,7,0.7,0.7
2025-11-09T2300,3300A,113.2981,23.237,广州市,白云嘉禾,,13,13,20,9,13,38,,83,47,16,18,7,8,0.8,0.7
2025-11-09T2300,3301A,113.4256,23.1716,广州市,黄埔科学城,,16,16,28,9,18,45,,93,63,10,11,5,6,0.8,0.7
2025-11-09T2300,3302A,113.3942,23.0483,广州市,番禺大学城,,20,20,38,10,19,44,,93,63,9,13,9,11,0.7,0.7
2025-11-09T2300,3303A,113.4922,22.8168,广州市,南沙黄阁,,26,26,38,10,22,30,,91,53,24,28,8,10,0.8,0.8
2025-11-09T2300,3304A,113.5342,22.7896,广州市,南沙街,,22,22,39,12,26,25,,96,53,23,26,12,8,0.7,0.8
2025-11-09T2300,3443A,113.2902,23.5544,广州市,花都梯面,,11,10,15,3,12,35,,57,39,10,11,4,5,0.8,0.7
2025-11-09T2300,3445A,113.7858,23.7478,广州市,从化良口,,14,9,15,3,12,42,,65,52,13,11,8,7,0.9,0.9
2025-11-09T2300,3446A,113.8051,23.2614,广州市,增城荔城,,16,9,28,6,21,49,,66,53,8,12,8,8,0.6,0.6
2025-11-09T2300,2505A,109.568,23.1478,贵港市,德智高中,,,,,,,,,,,,,,,,
2025-11-09T2300,2506A,109.6047,23.0666,贵港市,江南子站,,24,24,26,14,18,32,,60,54,11,14,4,5,0.9,0.9
2025-11-09T2300,2508A,109.5669,23.1065,贵港市,荷城子站,,24,24,21,7,9,32,,57,52,11,11,3,3,0.8,0.7
2025-11-09T2300,3405A,109.5886,23.1172,贵港市,新世纪学校,,25,22,22,17,14,32,,61,54,8,9,4,5,0.7,0.6
2025-11-09T2300,4260A,109.5933,23.0951,贵港市,中山路155-3号,,29,,25,20,18,33,,62,56,10,10,3,3,0.7,0.6
2025-11-09T2300,1439A,106.6899,26.5998,贵阳市,马鞍山,,11,6,3,3,0,34,,33,33,7,7,4,3,0.5,0.5
2025-11-09T2300,1441A,106.6243,26.6266,贵阳市,鉴湖路,,12,12,15,3,0,36,,33,33,9,8,4,4,0.6,0.5
2025-11-09T2300,1442A,106.7487,26.6343,贵阳市,燕子冲,,25,,4,17,7,42,,45,45,8,8,4,4,0.6,0.5
2025-11-09T2300,1443A,106.6555,26.4365,贵阳市,碧云窝,,27,27,16,7,2,38,,38,38,12,12,1,2,0.5,0.4
2025-11-09T2300,1445A,106.7109,26.6027,贵阳市,红边门,,13,12,6,9,2,41,,40,40,10,9,4,4,0.7,0.6
2025-11-09T2300,1446A,106.7164,26.5699,贵阳市,新华路,,25,22,14,17,4,47,,50,50,12,9,10,11,0.5,0.5
2025-11-09T2300,1447A,106.674,26.5424,贵阳市,太慈桥,,14,14,7,9,2,35,,37,37,12,11,3,3,0.4,0.3
2025-11-09T2300,1552A,106.805,26.3003,贵阳市,桐木岭,,20,14,18,9,9,61,,58,56,5,5,8,6,0.8,0.8
2025-11-09T2300,4230A,106.6882,26.5695,贵阳市,花果园大街66号,,15,,4,10,4,44,,39,39,9,9,1,2,0.8,0.7
2025-11-09T2300,4231A,106.6873,26.5169,贵阳市,漓江路57号,,13,7,6,7,4,41,,36,36,9,8,7,7,0.5,0.5
2025-11-09T2300,1862A,110.4144,25.3167,桂林市,电子科大尧山校区,,,,,,,,,,,,,,,,
2025-11-09T2300,1864A,110.3089,25.2708,桂林市,龙隐路小学,,22,6,8,3,2,70,,74,72,7,7,5,5,0.4,0.4
2025-11-09T2300,1865A,110.2869,25.2178,桂林市,八中,,22,6,8,3,2,69,,72,68,6,7,6,6,0.5,0.5
2025-11-09T2300,3531A,110.296,25.1253,桂林市,旅游学院,,25,,4,7,4,78,,80,77,6,6,4,5,0.4,0.3
2025-11-09T2300,4222A,110.1835,25.2444,桂林市,环湖路276号,,20,12,8,9,8,62,,65,63,9,9,6,6,0.5,0.5
2025-11-09T2300,4301A,110.2803,25.2773,桂林市,信义路13号,,22,,8,9,4,69,,72,70,8,8,6,6,0.7,0.6
2025-11-09T2300,2674A,100.2561,34.4714,果洛藏族自治州,玛沁县大武镇,,31,31,70,19,20,80,,88,86,1,3,18,14,0.3,0.3
2025-11-09T2300,1129A,126.5422,45.755,哈尔滨市,岭北,,,,,,,,,,,,,,,,
2025-11-09T2300,1130A,126.561,45.8167,哈尔滨市,松北商大,,36,,28,25,25,34,,48,42,16,12,13,7,0.5,0.5
2025-11-09T2300,1131A,126.979,45.5419,哈尔滨市,阿城会宁,,13,12,34,7,28,40,,49,44,13,13,9,10,0.3,0.4
2025-11-09T2300,1132A,126.599,45.7222,哈尔滨市,南岗学府路,,19,19,34,8,15,41,,49,44,10,10,10,10,0.6,0.6
2025-11-09T2300,1133A,126.689,45.7733,哈尔滨市,太平宏伟公园,,16,16,26,11,22,43,,53,49,11,10,11,7,0.6,0.5
2025-11-09T2300,1134A,126.635,45.7667,哈尔滨市,道外承德广场,,32,32,46,11,19,42,,49,45,11,13,9,8,0.5,0.4
2025-11-09T2300,1135A,126.685,45.7319,哈尔滨市,香坊红旗大街,,27,27,33,9,18,39,,49,45,16,15,14,9,0.4,0.4
2025-11-09T2300,1136A,126.6411,45.7258,哈尔滨市,动力和平路,,19,19,29,8,16,41,,48,44,11,14,3,5,0.4,0.4
2025-11-09T2300,1137A,126.593,45.7478,哈尔滨市,道里建国路,,18,13,25,12,24,39,,49,45,13,12,7,9,0.2,0.2
2025-11-09T2300,1138A,126.615,45.61,哈尔滨市,平房东轻厂,,16,13,25,11,24,38,,45,38,15,18,8,9,0.4,0.5
2025-11-09T2300,1139A,126.595,45.9855,哈尔滨市,呼兰师专,,18,18,29,12,27,33,,45,40,13,12,8,8,0.4,0.4
2025-11-09T2300,1140A,126.6206,45.6842,哈尔滨市,省农科院,,18,18,42,12,30,47,,44,43,11,19,8,10,0.4,0.5
2025-11-09T2300,2688A,93.5128,42.8172,哈密市,地区监测站,颗粒物(PM10),56,62,63,32,24,21,,60,47,46,30,8,9,0.3,0.3
2025-11-09T2300,2689A,93.4961,42.8328,哈密市,哈密师范学校,颗粒物(PM10),68,85,51,43,27,4,,54,35,58,34,4,4,1.2,0.7
2025-11-09T2300,2671A,100.9048,36.9639,海北藏族自治州,海晏县西海镇,颗粒物(PM10),65,79,60,42,32,55,,65,63,14,10,12,12,0.7,0.6
2025-11-09T2300,3867A,102.0738,36.5056,海东市,平安区公安北苑,细颗粒物(PM2.5),62,50,106,44,47,63,,71,68,8,10,7,9,0.7,0.7
2025-11-09T2300,1409A,110.576,19.9507,海口市,东寨港,,,,,,,,,,,,,,,,
2025-11-09T2300,1410A,110.3232,20.0574,海口市,海南大学,细颗粒物(PM2.5),70,60,36,51,20,125,,124,124,10,6,6,6,0.6,0.4
2025-11-09T2300,1411A,110.283,20.0053,海口市,秀英海南医院,细颗粒物(PM2.5),55,46,29,39,19,121,,128,128,10,6,8,7,0.3,0.2
2025-11-09T2300,1412A,110.338,19.9969,海口市,海南师范大学,细颗粒物(PM2.5),53,44,29,37,18,136,,132,132,10,7,8,6,0.5,0.4
2025-11-09T2300,1413A,110.33,20.0356,海口市,龙华路环保局宿舍,细颗粒物(PM2.5),54,48,31,38,17,131,,128,128,11,7,8,7,0.5,0.4
2025-11-09T2300,3539A,110.5111,19.9736,海口市,桂林洋子站,细颗粒物(PM2.5),55,58,38,39,20,101,,109,109,16,6,6,6,0.2,0.1
2025-11-09T2300,2673A,100.6188,36.2866,海南藏族自治州,共和县恰卜恰镇,,45,45,65,30,30,64,,73,69,5,13,10,11,0.7,0.5
2025-11-09T2300,2676A,97.3731,37.3753,海西蒙古族藏族自治州,德令哈市,,42,42,50,14,13,54,,76,68,12,6,25,20,0.5,0.4
2025-11-09T2300,1048A,114.5302,36.6116,邯郸市,东污水处理厂,细颗粒物(PM2.5),98,80,89,73,64,6,,63,37,60,36,4,4,0.8,1.8
2025-11-09T2300,1049A,114.4918,36.5713,邯郸市,矿院,细颗粒物(PM2.5),94,96,71,70,54,3,,65,39,60,37,10,7,0.8,1.7
2025-11-09T2300,1050A,114.484,36.6133,邯郸市,丛台公园,细颗粒物(PM2.5),85,98,88,63,55,10,,68,49,59,33,7,8,0.9,1.8
2025-11-09T2300,3458A,114.7895,36.5593,邯郸市,香泉濮院小区,细颗粒物(PM2.5),89,125,71,66,36,28,,64,48,43,26,7,6,0.7,0.9
2025-11-09T2300,3579A,114.50634,36.77178,邯郸市,永年区实验高中,细颗粒物(PM2.5),83,111,70,61,33,8,,56,38,58,35,4,4,0.7,1.4
2025-11-09T2300,3580A,114.20016,36.44293,邯郸市,峰峰矿区临水派出所,细颗粒物(PM2.5),79,72,73,58,47,60,,79,69,28,25,9,8,1.0,1
2025-11-09T2300,2634A,106.9893,33.1842,汉中市,汉川机床厂子校,,,,,,,,,,,,,,,,
2025-11-09T2300,2635A,107.0154,33.0706,汉中市,市监测站,,38,38,43,20,24,26,,47,37,9,19,4,6,0.6,0.7
2025-11-09T2300,2636A,107.0089,33.1138,汉中市,鑫源开发区,,34,34,45,18,23,31,,53,42,11,23,4,6,0.4,0.3
2025-11-09T2300,2637A,107.007,33.0323,汉中市,南郑大河坎水厂,,38,38,39,19,22,18,,42,31,15,17,4,5,0.6,0.7
2025-11-09T2300,1223A,120.2072,30.2111,杭州市,滨江,,47,47,24,22,12,39,,54,37,27,24,5,5,0.6,0.6
2025-11-09T2300,1224A,120.0633,30.2747,杭州市,西溪,,40,40,16,27,12,24,,35,31,25,21,7,7,0.7,0.6
2025-11-09T2300,1226A,120.3417,30.3150,杭州市,下沙,,29,27,18,20,12,28,,50,36,29,21,5,4,0.4,0.5
2025-11-09T2300,1227A,120.1269,30.2456,杭州市,卧龙桥,,43,36,17,30,14,19,,40,27,29,20,8,8,0.5,0.5
2025-11-09T2300,1228A,120.1903,30.2692,杭州市,浙江农大,,43,35,20,30,16,31,,48,33,24,23,6,6,0.3,0.3
2025-11-09T2300,1230A,120.1197,30.3119,杭州市,和睦小学,,37,37,17,22,12,35,,56,40,26,19,8,8,0.8,0.8
2025-11-09T2300,1231A,120.3019,30.4183,杭州市,临平镇,细颗粒物(PM2.5),55,47,24,39,21,41,,52,45,20,17,6,6,0.6,0.5
2025-11-09T2300,1232A,120.2753,30.1839,杭州市,城厢镇,,46,,21,32,17,41,,60,37,30,26,6,6,0.3,0.3
2025-11-09T2300,1233A,120.0883,30.1808,杭州市,云栖,,38,30,16,26,13,23,,42,40,17,14,6,6,0.8,0.8
2025-11-09T2300,3557A,119.9464,30.0494,杭州市,镇二中,,38,38,15,25,8,40,,39,35,20,17,4,4,0.8,0.8
2025-11-09T2300,3558A,119.7183,30.2367,杭州市,市府大楼,,38,,10,26,9,45,,42,41,14,15,8,8,0.5,0.6
2025-11-09T2300,3656A,120.1556,30.2864,杭州市,消防大队,细颗粒物(PM2.5),52,40,18,36,13,25,,53,34,42,25,8,8,0.6,0.5
2025-11-09T2300,1270A,117.1959,31.7848,合肥市,明珠广场,细颗粒物(PM2.5),104,92,88,78,75,34,,58,52,38,19,6,5,0.8,0.8
2025-11-09T2300,1271A,117.3072,31.8764,合肥市,三里街,细颗粒物(PM2.5),79,97,93,58,55,22,,54,42,46,23,6,5,0.8,0.7
2025-11-09T2300,1272A,117.2588,31.8707,合肥市,琥珀山庄,细颗粒物(PM2.5),75,95,87,55,56,27,,61,51,37,22,5,5,0.9,0.8
2025-11-09T2300,1273A,117.1604,31.9052,合肥市,董铺水库,,,,,,,,,,,,,,,,
2025-11-09T2300,1274A,117.25,31.8571,合肥市,长江中路,细颗粒物(PM2.5),113,112,97,85,77,12,,56,44,51,22,5,5,0.9,0.8
2025-11-09T2300,1275A,117.266,31.9436,合肥市,庐阳区,细颗粒物(PM2.5),85,92,98,63,72,35,,62,50,40,25,8,8,0.8,0.8
2025-11-09T2300,1276A,117.3453,31.8616,合肥市,瑶海区,细颗粒物(PM2.5),89,105,93,66,69,23,,49,36,52,29,7,7,0.9,0.8
2025-11-09T2300,1277A,117.3027,31.7964,合肥市,包河区,细颗粒物(PM2.5),92,112,86,68,66,3,,40,16,79,39,10,7,1.1,0.8
2025-11-09T2300,1278A,117.2776,31.7385,合肥市,滨湖新区,细颗粒物(PM2.5),110,105,87,83,74,2,,53,33,66,27,7,5,0.9,0.7
2025-11-09T2300,1279A,117.1318,31.8403,合肥市,高新区,细颗粒物(PM2.5),95,92,95,71,82,53,,65,63,26,18,5,4,0.8,0.8
2025-11-09T2300,3464A,117.3803,31.9147,合肥市,高教基地,颗粒物(PM10),65,80,93,25,43,30,,46,33,24,19,6,6,0.7,0.7
2025-11-09T2300,3614A,79.924,37.0877,和田地区,地区环保局,颗粒物(PM10),500,669,406,487,188,84,,82,82,71,36,27,15,4.2,1.9
2025-11-09T2300,3615A,79.9131,37.113,和田地区,市环保局,颗粒物(PM10),500,671,434,284,185,46,,84,66,87,53,14,7,3.7,1.8
2025-11-09T2300,2516A,108.2011,24.715,河池市,东仁乐园,,,,,,,,,,,,,,,,
2025-11-09T2300,2517A,108.0497,24.6947,河池市,市环保站,,9,6,7,3,4,28,,33,29,7,7,7,7,0.6,0.6
2025-11-09T2300,2518A,108.0983,24.6989,河池市,市疾控中心,,13,13,9,3,2,24,,30,25,8,12,4,4,0.7,0.8
2025-11-09T2300,1696A,114.6778,23.7569,河源市,源西,,,,,,,,,,,,,,,,
2025-11-09T2300,1697A,114.6944,23.7586,河源市,东埔,,16,,14,11,15,51,,66,59,9,9,4,5,0.7,0.7
2025-11-09T2300,1698A,114.6892,23.7233,河源市,老城,,19,19,17,3,8,50,,66,58,6,8,5,5,0.7,0.7
2025-11-09T2300,1718A,115.4208,35.2464,菏泽市,气象局,细颗粒物(PM2.5),119,167,97,90,56,21,,66,48,66,35,4,3,1.0,0.7
2025-11-09T2300,3374A,115.5564,35.0891,菏泽市,定陶老年大学,细颗粒物(PM2.5),104,132,77,78,47,21,,60,52,37,31,3,3,1.1,0.8
2025-11-09T2300,4184A,115.4797,35.24401,菏泽市,永昌路1号,细颗粒物(PM2.5),105,147,103,79,57,16,,65,45,73,39,2,4,0.9,0.7
2025-11-09T2300,4193A,115.4715,35.2800,菏泽市,长城路999号,颗粒物(PM10),97,144,94,69,49,4,,67,47,57,33,1,3,1.2,0.9
2025-11-09T2300,2514A,111.5264,24.4172,贺州市,环保小区,,19,,11,13,4,52,,58,54,7,8,5,4,0.7,0.7
2025-11-09T2300,2515A,111.5608,24.4078,贺州市,政协大楼,,14,9,13,6,6,44,,52,49,10,8,4,5,0.7,0.8
2025-11-09T2300,3534A,111.4744,24.4553,贺州市,西湾,,17,14,12,9,4,52,,53,51,6,7,4,4,0.8,0.8
2025-11-09T2300,2385A,114.17,35.9019,鹤壁市,市监测站,颗粒物(PM10),74,97,77,53,39,11,,65,,37,22,1,3,0.9,0.9
2025-11-09T2300,2386A,114.2956,35.7511,鹤壁市,市交警支队,颗粒物(PM10),83,116,75,48,32,1,,57,27,69,41,3,6,1.0,1
2025-11-09T2300,2387A,114.2878,35.7306,鹤壁市,迎宾馆,颗粒物(PM10),89,127,84,52,35,1,,63,31,72,36,4,4,1.0,1
2025-11-09T2300,3474A,114.2617,35.6822,鹤壁市,大新区,颗粒物(PM10),74,98,70,44,27,0,,56,20,55,37,4,5,1.0,1.1
2025-11-09T2300,3596A,114.1572,35.9603,鹤壁市,南山宾馆,颗粒物(PM10),90,130,104,57,41,39,,70,53,34,21,4,4,0.5,0.4
2025-11-09T2300,2244A,130.2537,47.3416,鹤岗市,哈啤分公司,,26,26,48,14,49,70,,63,63,4,17,13,14,0.5,0.6
2025-11-09T2300,2245A,130.2684,47.3086,鹤岗市,斯达机电,,23,18,56,13,39,73,,66,66,5,19,12,14,0.5,0.7
2025-11-09T2300,2246A,130.3114,47.3388,鹤岗市,东山纸板厂,,25,,61,17,43,71,,63,63,7,20,13,14,0.7,0.8
2025-11-09T2300,2247A,130.1097,47.3382,鹤岗市,五号水库,,,,,,,,,,,,,,,,
2025-11-09T2300,2263A,127.4833,50.2524,黑河市,交通局,,20,,62,14,48,64,,61,61,6,18,4,7,0.2,0.4
2025-11-09T2300,2264A,127.5144,50.2341,黑河市,环保局,,23,,68,16,54,58,,55,55,7,17,3,7,0.3,0.4
2025-11-09T2300,2265A,127.5291,50.2472,黑河市,大黑河岛,,,,,,,,,,,,,,,,
2025-11-09T2300,1074A,115.6838,37.7541,衡水市,电机北厂,颗粒物(PM10),66,81,80,31,43,32,,69,43,43,29,2,4,0.4,0.5
2025-11-09T2300,1075A,115.6303,37.7316,衡水市,市监测站,颗粒物(PM10),57,64,64,22,31,8,,66,33,68,34,8,8,0.3,0.5
2025-11-09T2300,3188A,115.6683,37.7217,衡水市,市城管局,颗粒物(PM10),63,75,77,31,36,22,,65,35,53,31,9,10,0.5,0.6
2025-11-09T2300,3459A,115.5989,37.5491,衡水市,地表水厂,颗粒物(PM10),74,98,81,36,37,1,,66,25,73,39,7,6,0.4,0.7
2025-11-09T2300,2456A,112.5003,26.9167,衡阳市,原169医院,,,,,,,,,,,,,,,,
2025-11-09T2300,2457A,112.6194,26.9258,衡阳市,衡阳化工总厂,,22,8,9,6,4,68,,67,60,11,14,7,6,0.7,0.8
2025-11-09T2300,2458A,112.6211,26.8956,衡阳市,珠晖区环保局,,,9,9,,9,62,,66,60,14,14,9,9,1.0,1.1
2025-11-09T2300,2459A,112.6197,26.8733,衡阳市,市委党校,,21,11,9,3,4,67,,70,65,9,12,3,3,0.7,0.8
2025-11-09T2300,2460A,112.6006,26.8919,衡阳市,市监测站,,20,11,13,9,8,62,,71,66,13,12,4,4,0.9,0.9
2025-11-09T2300,2461A,112.5664,26.9056,衡阳市,真空机电公司,,21,9,8,3,4,66,,73,69,9,8,6,6,0.9,0.9
2025-11-09T2300,3399A,112.6703,26.882,衡阳市,师范学院,,23,9,10,3,5,72,,67,65,12,13,8,8,0.8,0.9
2025-11-09T2300,2608A,103.3772,23.3993,红河哈尼族彝族自治州,污水处理厂,,22,20,16,15,10,36,,46,41,9,8,5,6,0.3,0.3
2025-11-09T2300,2609A,103.3861,23.35,红河哈尼族彝族自治州,监测站,,19,,12,13,9,34,,48,40,7,5,5,6,0.4,0.4
2025-11-09T2300,3038A,103.3758,23.368,红河哈尼族彝族自治州,州图书馆,,18,18,9,8,5,38,,48,42,7,5,4,3,0.5,0.5
2025-11-09T2300,1090A,111.6507,40.7517,呼和浩特市,呼市一监,颗粒物(PM10),65,80,68,42,22,4,,62,37,53,22,5,5,1.0,0.6
2025-11-09T2300,1091A,111.6572,40.8033,呼和浩特市,小召,颗粒物(PM10),51,51,78,25,25,9,,60,38,64,29,9,10,0.6,0.5
2025-11-09T2300,1094A,111.7516,40.8369,呼和浩特市,如意水处理厂,颗粒物(PM10),51,51,70,20,19,0,,57,34,64,24,10,10,0.7,0.5
2025-11-09T2300,1095A,111.7276,40.8062,呼和浩特市,二十九中,颗粒物(PM10),56,62,76,27,21,4,,61,41,61,24,10,11,0.6,0.7
2025-11-09T2300,1096A,111.5512,40.7866,呼和浩特市,工大金川校区,,34,34,84,15,21,0,,54,29,61,31,6,8,0.5,0.5
2025-11-09T2300,1097A,111.717,40.7612,呼和浩特市,化肥厂生活区,颗粒物(PM10),76,101,71,54,22,3,,63,42,62,27,6,6,1.0,0.5
2025-11-09T2300,3698A,111.5968,40.8178,呼和浩特市,红旗小学,,41,41,73,19,20,4,,54,31,59,30,6,8,0.6,0.5
2025-11-09T2300,3699A,111.6518,40.8389,呼和浩特市,海东办,,48,48,70,19,18,4,,62,36,56,25,5,7,0.6,0.3
2025-11-09T2300,3061A,119.7512,49.1577,呼伦贝尔市,国华电力东,,35,35,27,18,16,51,,59,50,9,8,7,7,0.3,0.3
2025-11-09T2300,4279A,119.7569,49.2222,呼伦贝尔市,伊敏大街东7号,,29,27,22,20,18,51,,58,54,5,3,5,5,0.2,0.3
2025-11-09T2300,1250A,120.0751,30.8669,湖州市,城西水厂,颗粒物(PM10),51,52,28,29,16,62,,62,60,20,24,8,7,0.5,0.5
2025-11-09T2300,2873A,120.0830,30.8929,湖州市,仁皇山新区,细颗粒物(PM2.5),64,53,29,46,24,56,,66,62,24,24,6,6,0.7,0.6
2025-11-09T2300,2907A,120.1844,30.8596,湖州市,吴兴区站,细颗粒物(PM2.5),57,55,27,40,20,52,,52,50,25,22,7,6,0.7,0.6
2025-11-09T2300,3562A,120.4148,30.8538,湖州市,南浔区站,细颗粒物(PM2.5),67,81,29,48,17,44,,62,56,26,21,8,8,0.7,0.6
2025-11-09T2300,1607A,120.9049,40.7211,葫芦岛市,龙港区,,36,36,52,8,24,12,,58,24,42,36,14,10,0.4,0.6
2025-11-09T2300,1608A,120.8392,40.7514,葫芦岛市,化工街,,24,24,48,3,20,24,,54,25,28,36,16,18,0.4,0.5
2025-11-09T2300,1609A,120.8341,40.7073,葫芦岛市,新区,,31,31,28,3,11,35,,60,40,22,25,11,7,0.6,0.6
2025-11-09T2300,1610A,120.8695,40.7677,葫芦岛市,东城区,,26,26,42,3,19,35,,61,34,26,35,14,16,0.5,0.7
2025-11-09T2300,2482A,109.5981,27.5721,怀化市,林科所,,,,,,,,,,,,,,,,
2025-11-09T2300,2483A,109.9453,27.5444,怀化市,河西地税局,,22,6,8,3,3,70,,68,67,5,7,3,3,0.4,0.5
2025-11-09T2300,2484A,109.9781,27.5342,怀化市,市四医院,,20,11,8,3,4,64,,62,59,4,5,7,8,0.5,0.6
2025-11-09T2300,2485A,109.9972,27.5578,怀化市,监测楼,,20,,4,3,3,63,,63,60,6,7,2,2,0.2,0.3
2025-11-09T2300,2486A,110.0394,27.583,怀化市,市委党校,,20,6,4,3,4,62,,64,62,9,7,7,7,0.2,0.3
2025-11-09T2300,1210A,119.036,33.5981,淮安市,钵池山,细颗粒物(PM2.5),112,122,79,84,58,47,,84,66,38,27,9,8,1.0,0.8
2025-11-09T2300,1211A,119.007,33.575,淮安市,北京南路,细颗粒物(PM2.5),113,114,76,85,64,19,,79,43,49,26,8,8,1.0,0.7
2025-11-09T2300,1212A,118.989,33.6067,淮安市,市监测站,细颗粒物(PM2.5),134,117,73,102,68,38,,84,46,50,34,15,7,1.0,0.8
2025-11-09T2300,1213A,119.135,33.5039,淮安市,楚州区监测站,细颗粒物(PM2.5),109,110,75,82,61,22,,89,48,55,30,8,9,1.0,0.8
2025-11-09T2300,3426A,118.8755,33.2894,淮安市,新华书店,颗粒物(PM10),85,119,81,46,40,60,,80,72,22,20,7,8,0.9,0.8
2025-11-09T2300,4206A,119.0288,33.6319,淮安市,承德北路606号,细颗粒物(PM2.5),123,153,93,93,64,31,,77,53,51,28,9,8,0.9,0.6
2025-11-09T2300,2282A,116.8004,33.975,淮北市,监测站,颗粒物(PM10),79,108,79,44,56,58,,78,68,31,24,8,8,0.8,0.9
2025-11-09T2300,2283A,116.8091,33.9007,淮北市,烈山区政府,细颗粒物(PM2.5),85,112,93,63,79,33,,86,60,39,28,7,8,0.9,0.7
2025-11-09T2300,3330A,116.8873,33.9836,淮北市,杜集区检察院,细颗粒物(PM2.5),110,101,87,83,81,45,,90,70,29,21,3,4,0.6,0.6
2025-11-09T2300,4017A,116.7923,33.9535,淮北市,市博物馆,颗粒物(PM10),81,112,80,53,48,40,,80,59,44,27,6,6,0.9,0.7
2025-11-09T2300,2277A,116.8305,32.7727,淮南市,潘集区政府,细颗粒物(PM2.5),97,98,87,72,72,56,,88,69,24,17,6,5,0.8,0.7
2025-11-09T2300,2279A,116.8569,32.5951,淮南市,谢家集区政府,细颗粒物(PM2.5),82,75,75,60,61,53,,84,73,22,19,9,8,0.6,0.7
2025-11-09T2300,2280A,116.8281,32.633,淮南市,八公山区政府,细颗粒物(PM2.5),89,82,79,66,66,70,,89,80,15,15,9,8,0.6,0.6
2025-11-09T2300,2281A,116.6325,32.6201,淮南市,焦岗湖风景区管理处,,,,,,,,,,,,,,,,
2025-11-09T2300,2894A,117.0566,32.6531,淮南市,经济技术开发区消防队,细颗粒物(PM2.5),99,86,83,74,71,50,,82,72,26,20,5,5,0.4,0.4
2025-11-09T2300,3329A,117.0108,32.5893,淮南市,山南新区,细颗粒物(PM2.5),67,63,77,48,56,76,,89,86,22,23,4,4,0.4,0.5
2025-11-09T2300,4209A,117.0031,32.6445,淮南市,国庆中路369号,,,82,89,57,64,,,78,76,23,18,15,13,0.7,0.6
2025-11-09T2300,2446A,114.9028,30.4742,黄冈市,职工中心,,46,40,35,32,28,40,,62,55,24,13,4,4,0.4,0.4
2025-11-09T2300,2929A,114.8858,30.4519,黄冈市,红卫路,,43,36,35,30,27,31,,57,46,27,13,5,5,0.5,0.5
2025-11-09T2300,3398A,114.9136,30.4445,黄冈市,市林业局,,48,40,34,33,30,46,,60,56,19,13,5,4,0.6,0.5
2025-11-09T2300,2672A,102.0199,35.5102,黄南藏族自治州,同仁县隆务镇,颗粒物(PM10),65,79,103,43,42,44,,55,54,5,7,10,10,0.4,0.4
2025-11-09T2300,2295A,118.2903,29.6963,黄山市,延安路89号,,10,,9,7,6,28,,58,34,10,8,3,3,0.7,0.6
2025-11-09T2300,2297A,118.1371,30.2756,黄山市,黄山区政府5号楼,,23,23,12,10,12,50,,48,31,7,7,5,5,0.6,0.7
2025-11-09T2300,4210A,118.3354,29.7203,黄山市,滨江东路7-2号,,20,,17,14,10,24,,56,30,11,9,3,3,0.7,0.6
2025-11-09T2300,2423A,115.0601,30.2313,黄石市,沈家营,颗粒物(PM10),51,51,53,29,21,29,,43,35,8,6,6,7,0.7,0.5
2025-11-09T2300,2426A,114.8988,30.2019,黄石市,铁山,,49,40,36,34,29,8,,41,28,44,19,5,6,0.4,0.5
2025-11-09T2300,2427A,115.0307,30.2092,黄石市,团城山,,49,49,38,33,24,22,,32,27,15,11,6,7,0.8,0.6
2025-11-09T2300,3149A,115.0235,30.1578,黄石市,笔架山北路,颗粒物(PM10),60,70,53,30,25,18,,44,32,21,12,4,4,1.0,0.8
2025-11-09T2300,4185A,115.0780,30.21118,黄石市,磁湖东路29号,细颗粒物(PM2.5),55,50,41,39,29,38,,44,41,11,9,9,8,0.6,0.5
2025-11-09T2300,1392A,114.4183,23.0528,惠州市,河南岸金山湖子站,,16,11,31,3,16,50,,61,54,12,20,10,10,0.6,0.7
2025-11-09T2300,1393A,114.4053,23.0822,惠州市,下埔横江三路子站,,21,10,33,6,17,65,,84,74,6,12,5,6,0.9,0.9
2025-11-09T2300,1394A,114.4103,23.1142,惠州市,江北云山西路子站,,17,9,31,6,17,54,,72,62,9,15,6,6,0.5,0.6
2025-11-09T2300,1395A,114.4645,22.7833,惠州市,惠阳区承修路船湖子站,,17,13,34,6,18,53,,69,61,13,20,9,9,0.8,0.8
2025-11-09T2300,1396A,114.5317,22.7422,惠州市,大亚湾管委会子站,,17,11,33,8,19,53,,70,61,8,18,12,12,0.6,0.5
2025-11-09T2300,3314A,114.4338,22.8134,惠州市,惠阳秋长,,19,12,33,6,18,60,,72,65,7,17,13,13,0.7,0.7
2025-11-09T2300,3452A,114.6517,22.775,惠州市,大亚湾霞涌,,16,15,30,8,20,49,,79,58,7,12,11,10,0.7,0.6
2025-11-09T2300,2240A,130.9762,45.3001,鸡西市,环保局,,25,25,30,10,23,48,,52,50,5,20,6,7,0.6,0.7
2025-11-09T2300,2243A,130.9429,45.3039,鸡西市,第一中学,,29,29,24,7,18,48,,54,51,4,9,6,6,0.4,0.5
2025-11-09T2300,3707A,131.0207,45.3073,鸡西市,欧美日汽修厂,,26,26,40,10,27,42,,50,45,10,20,8,11,0.5,0.7
2025-11-09T2300,3709A,130.9967,45.3106,鸡西市,市政设施管理处,,26,26,41,8,29,54,,62,55,10,24,8,10,0.6,0.9
2025-11-09T2300,2367A,114.9754,27.0803,吉安市,红声器材厂,,19,11,19,8,7,58,,72,65,16,15,7,7,0.6,0.6
2025-11-09T2300,2368A,114.9658,27.0999,吉安市,市森林工业局,,19,16,19,3,10,58,,67,62,14,14,7,7,0.4,0.6
2025-11-09T2300,2369A,114.99,27.1312,吉安市,市环境监测站,,16,11,22,3,12,51,,68,61,16,12,11,13,0.5,0.6
2025-11-09T2300,2370A,115.0093,27.0968,吉安市,青原区法院,,17,11,18,6,10,54,,70,64,14,14,8,9,0.6,0.7
2025-11-09T2300,1772A,126.54,43.8622,吉林市,哈达湾,,26,26,35,10,24,54,,55,51,4,10,6,10,0.4,0.5
2025-11-09T2300,1773A,126.5844,43.8358,吉林市,东局子,,29,29,31,6,20,51,,52,49,6,10,6,7,0.4,0.5
2025-11-09T2300,1774A,126.5052,43.8245,吉林市,电力学院,,21,21,31,10,26,50,,53,50,4,10,6,7,0.4,0.5
2025-11-09T2300,1775A,126.6133,43.8972,吉林市,江北,,25,25,35,8,21,44,,51,44,11,14,8,7,0.4,0.5
2025-11-09T2300,1776A,126.555,43.8306,吉林市,江南公园,,18,18,29,8,24,51,,53,50,4,9,4,5,0.3,0.4
2025-11-09T2300,1778A,126.7061,43.7133,吉林市,丰满,,,,34,,37,,,90,,,9,,8,,0.5
2025-11-09T2300,2868A,126.4739,43.953,吉林市,九站,,19,19,32,10,25,41,,48,42,11,16,4,4,0.3,0.4
2025-11-09T2300,1299A,116.9862,36.6114,济南市,科干所,颗粒物(PM10),56,61,65,24,33,16,,68,44,57,31,8,8,0.6,0.5
2025-11-09T2300,1300A,116.9376,36.665,济南市,农科所,颗粒物(PM10),77,103,74,37,29,2,,55,27,65,39,8,7,1.2,0.9
2025-11-09T2300,1301A,117.1265,36.6734,济南市,开发区,颗粒物(PM10),59,68,76,29,38,11,,64,35,57,30,3,4,0.6,0.7
2025-11-09T2300,1303A,117.0624,36.6868,济南市,省种子仓库,颗粒物(PM10),70,90,84,31,40,7,,66,35,61,36,6,6,0.8,0.7
2025-11-09T2300,1304A,116.9489,36.6447,济南市,机床二厂,颗粒物(PM10),83,115,80,51,41,1,,57,29,71,38,10,9,0.8,0.5
2025-11-09T2300,1305A,117.0495,36.663,济南市,市监测站,颗粒物(PM10),58,66,76,29,39,11,,63,37,53,32,2,3,0.9,0.9
2025-11-09T2300,1306A,116.7675,36.5484,济南市,长清党校,颗粒物(PM10),57,63,70,24,30,21,,62,47,54,35,6,7,0.5,0.6
2025-11-09T2300,1616A,117.6795,36.229,济南市,技术学院,颗粒物(PM10),68,85,70,44,36,1,,73,52,68,34,10,9,0.6,0.8
2025-11-09T2300,1961A,117.532,36.6868,济南市,东山小学,颗粒物(PM10),58,66,84,20,40,9,,65,35,55,35,6,7,0.4,0.5
2025-11-09T2300,3059A,117.7161,36.2049,济南市,泰兴公司,颗粒物(PM10),68,85,78,36,39,7,,73,46,57,34,8,8,0.4,0.8
2025-11-09T2300,3064A,117.6867,36.2171,济南市,莱芜战役纪念馆,颗粒物(PM10),73,95,77,40,42,3,,76,54,63,32,8,10,0.6,1
2025-11-09T2300,3494A,117.1673,36.9782,济南市,济阳区政府,颗粒物(PM10),81,112,87,42,42,9,,64,43,75,38,8,8,0.5,0.7
2025-11-09T2300,3495A,117.1171,36.63,济南市,锦屏中学,,42,42,66,10,26,41,,65,46,20,21,2,3,0.8,0.9
2025-11-09T2300,3682A,116.9814,36.6819,济南市,济南四建,颗粒物(PM10),76,102,73,42,39,2,,58,28,67,26,6,6,1.2,0.9
2025-11-09T2300,1653A,116.6251,35.4302,济宁市,火炬城,颗粒物(PM10),66,81,75,44,64,19,,66,45,42,28,8,7,0.4,0.5
2025-11-09T2300,1655A,116.5491,35.4042,济宁市,电化厂,颗粒物(PM10),90,129,104,53,58,5,,57,37,65,41,6,5,0.5,0.5
2025-11-09T2300,3500A,116.5814,35.3707,济宁市,北湖一中,细颗粒物(PM2.5),72,80,73,52,64,8,,61,41,54,32,7,6,0.5,0.6
2025-11-09T2300,3501A,116.8249,35.5593,济宁市,服务中心,颗粒物(PM10),77,103,70,45,40,11,,66,43,43,27,9,7,0.7,0.6
2025-11-09T2300,3678A,116.5907,35.4054,济宁市,市第七中学,颗粒物(PM10),72,94,78,51,58,15,,64,44,52,34,10,10,0.9,0.7
2025-11-09T2300,2255A,130.2751,46.8028,佳木斯市,佳纺,,30,30,58,16,41,41,,47,32,14,19,9,5,0.4,0.5
2025-11-09T2300,2256A,130.3995,46.8307,佳木斯市,发电厂,,17,15,42,11,41,53,,50,47,7,16,6,6,0.4,0.6
2025-11-09T2300,2257A,130.3258,46.7975,佳木斯市,环保局,,33,29,48,23,47,43,,52,38,15,19,4,5,0.3,0.5
2025-11-09T2300,2258A,130.3648,46.8032,佳木斯市,十一中,,26,26,47,18,45,43,,45,37,12,20,7,7,0.4,0.5
2025-11-09T2300,2259A,130.3794,46.7588,佳木斯市,四丰,,,,,,,,,,,,,,,,
2025-11-09T2300,1252A,120.7436,30.778,嘉兴市,清河小学,,46,46,19,27,13,43,,64,56,30,19,8,7,0.4,0.4
2025-11-09T2300,1253A,120.726,30.7478,嘉兴市,嘉兴学院,,45,41,18,31,14,40,,63,54,30,21,6,5,0.5,0.5
2025-11-09T2300,2872A,120.7846,30.7525,嘉兴市,南湖区残联,,45,42,18,31,14,36,,66,54,30,17,6,5,0.7,0.7
2025-11-09T2300,3407A,120.6916,30.7739,嘉兴市,秀洲住建,,45,45,19,29,13,50,,70,59,23,21,8,8,0.6,0.6
2025-11-09T2300,1945A,98.2908,39.7711,嘉峪关市,气象局,颗粒物(PM10),54,58,83,17,28,39,,76,54,32,27,11,12,0.6,0.9
2025-11-09T2300,2884A,98.2672,39.7978,嘉峪关市,酒钢宾馆,颗粒物(PM10),62,73,110,17,32,38,,63,50,14,25,14,40,0.6,1.1
2025-11-09T2300,3248A,98.2643,39.7724,嘉峪关市,雄关区,,48,48,69,27,28,34,,69,50,34,30,22,22,0.5,0.7
2025-11-09T2300,1383A,113.1064,22.6058,江门市,北街,,20,20,41,10,24,31,,130,73,21,24,6,7,0.8,0.8
2025-11-09T2300,1384A,113.0731,22.5835,江门市,西区,,23,23,40,12,23,32,,126,71,23,28,6,7,0.9,0.8
2025-11-09T2300,1385A,113.0219,22.5311,江门市,圭峰西,,16,,39,11,26,32,,129,78,20,23,5,6,0.7,0.6
2025-11-09T2300,1386A,113.0828,22.5947,江门市,东湖,,19,17,39,13,29,30,,122,70,19,24,7,8,0.6,0.5
2025-11-09T2300,3311A,113.1075,22.5647,江门市,江海富民,,34,34,51,6,21,33,,135,79,23,27,9,10,0.8,0.6
2025-11-09T2300,3449A,113.05,22.4667,江门市,新会银湖,,22,22,39,12,23,28,,127,75,22,24,6,5,0.9,0.7
2025-11-09T2300,1830A,113.1992,35.2590,焦作市,影视城,,,,98,,33,,,72,,,21,,15,,0.8
2025-11-09T2300,3335A,113.3137,35.2641,焦作市,马村街道办,颗粒物(PM10),96,142,112,69,55,53,,82,60,24,27,6,6,0.7,0.7
2025-11-09T2300,3336A,113.2465,35.2373,焦作市,焦作技师学院,颗粒物(PM10),86,121,110,63,44,34,,74,56,38,29,5,6,0.7,0.8
2025-11-09T2300,3477A,113.1656,35.2539,焦作市,中站许衡医院,细颗粒物(PM2.5),100,142,107,75,45,52,,79,67,32,24,9,11,0.7,0.7
2025-11-09T2300,3981A,113.2449,35.1803,焦作市,原李万街道办,颗粒物(PM10),102,154,119,63,41,53,,77,62,25,26,9,9,0.7,0.6
2025-11-09T2300,4264A,113.2340,35.2190,焦作市,新安路1731号,颗粒物(PM10),104,157,121,77,49,42,,80,63,37,26,9,10,1.0,0.9
2025-11-09T2300,4295A,113.2722,35.2121,焦作市,人民路3066号,颗粒物(PM10),96,141,116,55,39,48,,75,57,22,28,6,6,0.9,0.8
2025-11-09T2300,1708A,116.3701,23.5345,揭阳市,新兴,,32,,55,22,36,31,,79,45,15,24,8,8,0.8,0.8
2025-11-09T2300,1709A,116.3264,23.5443,揭阳市,西马,,17,17,53,11,28,30,,70,39,12,22,4,6,0.8,0.8
2025-11-09T2300,1710A,116.3611,23.5626,揭阳市,东兴,,20,16,51,14,33,22,,78,40,20,25,6,7,0.6,0.6
2025-11-09T2300,1711A,116.4151,23.5294,揭阳市,渔湖,,20,20,55,10,29,33,,97,54,12,22,6,8,0.8,0.8
2025-11-09T2300,3320A,116.403,23.5699,揭阳市,曲溪,,16,13,46,11,30,38,,96,56,10,21,2,6,0.6,0.6
2025-11-09T2300,1944A,102.1692,38.5167,金昌市,天庆家园,颗粒物(PM10),120,190,206,58,64,48,,70,55,24,23,3,15,0.7,0.9
2025-11-09T2300,4022A,102.1647,38.5371,金昌市,金川区人防中心,颗粒物(PM10),110,170,190,59,65,57,,75,61,20,17,5,17,0.8,0.9
2025-11-09T2300,4239A,102.1930,38.5319,金昌市,长春路96号,颗粒物(PM10),109,167,204,55,64,60,,76,65,20,18,11,14,2.0,0.9
2025-11-09T2300,1262A,119.647,29.077,金华市,十五中,,28,28,18,14,7,21,,47,26,28,22,2,2,0.5,0.6
2025-11-09T2300,1263A,119.686,29.1029,金华市,监测站,,31,31,16,18,9,22,,49,29,40,27,1,2,0.5,0.6
2025-11-09T2300,3659A,119.656,29.1131,金华市,气象局,,24,21,12,12,10,7,,33,19,48,28,3,3,0.7,0.8
2025-11-09T2300,1767A,121.1115,41.0879,锦州市,南山,,23,23,43,3,23,44,,62,53,18,26,7,8,0.5,0.7
2025-11-09T2300,1768A,121.0604,40.8428,锦州市,开发区,,28,28,56,11,23,30,,56,27,27,44,9,20,0.5,0.7
2025-11-09T2300,1769A,121.1836,41.1119,锦州市,百股街道,,25,25,44,3,24,40,,62,50,17,21,6,8,0.5,0.8
2025-11-09T2300,1770A,121.1178,41.1222,锦州市,天安街道,,24,24,42,12,22,40,,66,55,19,18,12,10,0.5,0.6
2025-11-09T2300,1771A,121.1303,41.1386,锦州市,北湖公园,,16,16,38,3,15,50,,62,55,10,17,7,9,0.5,0.6
2025-11-09T2300,2160A,112.85,35.5051,晋城市,自来水公司,颗粒物(PM10),57,64,90,17,24,34,,69,52,34,28,6,7,0.6,0.7
2025-11-09T2300,2161A,112.8318,35.4936,晋城市,白云商贸,颗粒物(PM10),73,96,103,7,16,13,,73,44,47,29,1,2,0.5,0.6
2025-11-09T2300,2162A,112.8508,35.4887,晋城市,市环保局,颗粒物(PM10),59,67,95,22,25,7,,71,41,33,27,4,5,0.9,0.7
2025-11-09T2300,2163A,112.8676,35.4897,晋城市,技术学院,颗粒物(PM10),66,81,86,17,22,2,,67,38,65,32,5,5,1.0,0.7
2025-11-09T2300,2165A,112.8453,35.546,晋城市,白马寺,颗粒物(PM10),51,51,74,20,33,75,,84,81,11,12,8,8,0.3,0.4
2025-11-09T2300,3620A,112.8271,35.4828,晋城市,泽州一中,颗粒物(PM10),59,68,92,14,26,35,,82,57,36,24,3,3,0.3,0.4
2025-11-09T2300,2173A,112.7249,37.7067,晋中市,南都小区,颗粒物(PM10),61,72,77,17,26,11,,72,46,58,30,9,10,0.5,0.4
2025-11-09T2300,2174A,112.6991,37.6982,晋中市,榆次区政府,颗粒物(PM10),59,68,89,28,30,3,,72,44,64,33,8,12,0.3,0.3
2025-11-09T2300,2865A,112.7195,37.6828,晋中市,榆次三中,颗粒物(PM10),53,56,105,14,28,2,,68,47,59,30,11,16,0.3,0.4
2025-11-09T2300,4200A,112.7478,37.6954,晋中市,迎宾街26号,颗粒物(PM10),51,51,90,17,25,8,,74,50,52,29,8,12,0.6,0.7
2025-11-09T2300,2439A,112.2014,31.0481,荆门市,竹园小学,颗粒物(PM10),62,74,62,28,34,40,,62,41,31,30,1,1,0.3,0.4
2025-11-09T2300,2440A,112.1969,30.9891,荆门市,掇刀,颗粒物(PM10),70,89,60,28,32,67,,84,68,27,19,1,1,0.5,0.6
2025-11-09T2300,2441A,112.2213,31.0386,荆门市,石化一小,颗粒物(PM10),77,103,69,32,36,36,,63,41,39,27,3,4,0.2,0.2
2025-11-09T2300,3012A,112.1849,31.0362,荆门市,西山林语,颗粒物(PM10),60,70,57,26,27,73,,63,50,15,15,6,5,0.6,0.7
2025-11-09T2300,3547A,112.1632,31.0138,荆门市,龙泉中学南校,颗粒物(PM10),64,78,53,28,25,50,,72,54,24,21,6,7,0.2,0.4
2025-11-09T2300,1844A,112.2494,30.3197,荆州市,市图书馆,,38,38,30,25,21,33,,71,38,21,23,5,5,0.7,0.8
2025-11-09T2300,1845A,112.2008,30.3544,荆州市,市委党校,,49,41,36,34,24,24,,63,33,24,24,6,6,0.8,0.8
2025-11-09T2300,3194A,112.2747,30.3122,荆州市,管委会,,46,36,32,32,24,26,,65,33,25,21,6,6,0.7,0.7
2025-11-09T2300,4268A,112.1722,30.3366,荆州市,学苑路85号,,50,,32,35,27,32,,74,42,17,19,4,5,0.5,0.5
2025-11-09T2300,2342A,117.3102,29.3867,景德镇市,王港中学,,,,,,,,,,,,,,,,
2025-11-09T2300,2343A,117.2117,29.2933,景德镇市,老干部活动中心,,9,9,14,3,6,27,,41,33,2,2,3,4,0.6,0.7
2025-11-09T2300,2344A,117.1894,29.2789,景德镇市,兽医站,,25,25,20,3,4,31,,49,39,8,7,6,6,0.8,0.7
2025-11-09T2300,2346A,117.2461,29.2956,景德镇市,陶研所,,10,6,6,3,7,30,,46,37,6,3,6,6,0.5,0.2
2025-11-09T2300,4289A,117.1542,29.2566,景德镇市,青少年活动中心,,16,,8,11,7,31,,50,38,8,7,3,3,0.7,0.6
2025-11-09T2300,1803A,115.9872,29.6815,九江市,十里,,45,,20,31,21,59,,60,60,15,16,4,4,0.9,1
2025-11-09T2300,1804A,115.9584,29.7046,九江市,茅山头,,42,37,25,29,22,51,,49,49,15,17,3,5,0.7,0.7
2025-11-09T2300,1805A,115.9877,29.7295,九江市,西园,,39,39,23,21,16,58,,59,59,26,26,3,3,0.7,0.8
2025-11-09T2300,1808A,115.9114,29.6038,九江市,综合工业园,,38,32,18,26,17,52,,45,43,18,25,2,2,0.5,0.5
2025-11-09T2300,1809A,116.0721,29.7535,九江市,石化总厂,细颗粒物(PM2.5),58,41,24,41,24,55,,58,57,15,18,4,4,0.6,0.7
2025-11-09T2300,1810A,115.9773,29.5698,九江市,庐山气象台,,,,,,,,,,,,,,,,
2025-11-09T2300,3190A,116.0254,29.6994,九江市,外国语学校,,42,29,16,29,19,55,,56,56,23,26,4,4,0.5,0.5
2025-11-09T2300,4253A,116.0102,29.6594,九江市,莲花大道8号,细颗粒物(PM2.5),73,,24,53,29,51,,53,53,7,10,6,6,0.6,0.6
2025-11-09T2300,4240A,98.4958,39.7339,酒泉市,玉门东路5号,颗粒物(PM10),84,117,108,56,33,22,,71,48,35,22,16,17,0.7,0.5
2025-11-09T2300,4241A,98.5099,39.7506,酒泉市,北大街108号,细颗粒物(PM2.5),79,100,102,58,34,22,,68,52,28,21,16,16,0.9,0.6
2025-11-09T2300,2698A,76.0072,39.4467,喀什地区,巡警大队,颗粒物(PM10),325,440,424,169,150,8,,65,54,113,65,24,13,4.5,2.2
2025-11-09T2300,2699A,75.9755,39.4694,喀什地区,吾办,细颗粒物(PM2.5),246,366,336,196,135,7,,61,49,91,55,12,8,3.9,1.9
2025-11-09T2300,4027A,75.9483,39.4689,喀什地区,老干局,颗粒物(PM10),374,479,408,151,120,4,,63,52,106,64,10,7,2.6,2.2
2025-11-09T2300,1824A,114.3389,34.7781,开封市,肿瘤医院,颗粒物(PM10),91,132,92,51,39,43,,79,63,42,35,10,10,0.8,1
2025-11-09T2300,1826A,114.2885,34.7965,开封市,世纪星幼儿园,"颗粒物(PM10),细颗粒物(PM2.5)",84,118,94,62,38,55,,80,67,35,34,9,9,0.8,0.9
2025-11-09T2300,3147A,114.3438,34.8106,开封市,龙亭公园,颗粒物(PM10),90,130,91,60,33,43,,78,57,40,36,11,10,0.7,0.9
2025-11-09T2300,3210A,114.3644,34.7964,开封市,汴京公园,颗粒物(PM10),92,134,96,58,32,37,,73,57,45,36,9,10,0.9,0.9
2025-11-09T2300,3473A,114.2485,34.8306,开封市,技师学院,颗粒物(PM10),93,135,91,63,48,69,,86,78,28,29,10,10,1.0,1.1
2025-11-09T2300,3592A,114.4644,34.7556,开封市,祥符区生态环境局,颗粒物(PM10),112,174,83,66,33,43,,83,65,50,41,7,8,0.8,0.9
2025-11-09T2300,1951A,84.895,45.6094,克拉玛依市,长征新村,,27,27,16,11,8,36,,54,49,20,12,2,2,0.3,0.3
2025-11-09T2300,1952A,84.8988,45.5893,克拉玛依市,南林小区,,26,26,19,11,10,23,,55,47,25,12,4,5,0.5,0.4
2025-11-09T2300,1954A,84.905,44.3396,克拉玛依市,独山子区,"颗粒物(PM10),细颗粒物(PM2.5)",65,79,60,47,35,20,,75,60,53,28,4,6,1.0,0.7
2025-11-09T2300,1955A,85.6979,46.098,克拉玛依市,乌尔禾区商贸楼,,27,27,18,3,8,28,,53,46,29,15,6,6,0.5,0.4
2025-11-09T2300,3612A,85.1045,45.6899,克拉玛依市,白碱滩区新站,颗粒物(PM10),76,101,31,16,10,39,,58,51,20,15,7,6,0.4,0.3
2025-11-09T2300,2697A,76.1454,39.7142,克孜勒苏柯尔克孜自治州,市人民政府,颗粒物(PM10),152,254,270,103,114,49,,86,75,29,21,8,15,0.5,0.4
2025-11-09T2300,3665A,76.1658,39.7157,克孜勒苏柯尔克孜自治州,克州文化中心,颗粒物(PM10),148,245,266,84,94,17,,80,66,60,24,7,18,0.6,0.6
2025-11-09T2300,1450A,102.8204,24.8886,昆明市,呈贡新区,,9,9,15,3,5,22,,33,29,18,17,3,4,0.7,0.7
2025-11-09T2300,1451A,102.6251,24.9608,昆明市,西山森林公园,,,,,,,,,,,,,,,,
2025-11-09T2300,1452A,102.7252,25.0902,昆明市,龙泉镇,,15,15,10,8,6,22,,26,21,12,15,2,2,0.4,0.5
2025-11-09T2300,1453A,102.7266,25.0375,昆明市,东风东路,,10,10,11,6,7,27,,32,26,16,19,2,1,0.4,0.5
2025-11-09T2300,1454A,102.6742,25.0669,昆明市,金鼎山,,10,10,12,3,5,28,,31,28,9,13,1,1,0.3,0.4
2025-11-09T2300,1455A,102.6644,25.0401,昆明市,碧鸡广场,,9,9,8,3,6,24,,31,26,12,15,1,1,0.4,0.5
2025-11-09T2300,3179A,102.7494,25.0119,昆明市,官渡区博物馆,,12,12,9,6,6,26,,33,25,14,14,6,2,0.6,0.5
2025-11-09T2300,3375A,102.8017,24.8336,昆明市,青年创业园,,10,6,9,3,8,31,,34,31,8,11,1,2,0.7,0.7
2025-11-09T2300,3550A,102.7997,24.9786,昆明市,昆明学院,,15,12,11,8,7,8,,31,20,30,19,3,3,0.6,0.6
2025-11-09T2300,3551A,102.5967,24.6736,昆明市,晋宁区生态环境分局,,10,9,13,7,7,29,,40,36,11,10,4,5,0.4,0.4
2025-11-09T2300,3552A,102.6678,24.9856,昆明市,云天化总部,,10,9,9,3,5,32,,36,34,8,10,4,4,0.6,0.6
2025-11-09T2300,1456A,91.1319,29.6514,拉萨市,八廓街,,29,29,17,13,10,25,,89,75,52,21,5,6,0.6,0.4
2025-11-09T2300,1457A,91.1221,29.6747,拉萨市,市环保局,,48,48,25,26,14,5,,84,60,42,20,8,8,1.3,0.7
2025-11-09T2300,1458A,91.0874,29.6475,拉萨市,区监测站,,37,20,17,10,10,20,,88,71,74,33,5,5,0.7,0.5
2025-11-09T2300,1459A,91.1774,29.6541,拉萨市,西藏大学,,32,32,16,9,10,39,,84,68,42,25,5,6,0.3,0.3
2025-11-09T2300,1460A,90.9798,29.6588,拉萨市,区辐射站,,25,25,29,16,14,51,,70,55,32,35,7,9,0.5,0.5
2025-11-09T2300,1461A,91.0834,29.6292,拉萨市,拉萨火车站,,19,14,14,8,9,59,,84,79,24,22,6,6,0.5,0.5
2025-11-09T2300,2520A,109.2203,23.7256,来宾市,来宾技工学校,,13,7,14,3,6,39,,42,38,5,7,10,10,0.7,0.8
2025-11-09T2300,3535A,109.1781,23.7297,来宾市,兴宾区政府,,14,8,12,3,4,44,,48,44,5,7,8,9,0.5,0.6
2025-11-09T2300,4002A,109.2416,23.7461,来宾市,中南小学,,13,6,18,3,5,39,,42,39,5,8,8,9,0.7,0.9
2025-11-09T2300,1477A,104.1373,35.9454,兰州市,榆中兰大校区,,,,,,,,,,,,,,,,
2025-11-09T2300,1479A,103.831,36.0464,兰州市,铁路设计院,,,,,,,,,,,,,,,,
2025-11-09T2300,3241A,103.7439,36.0842,兰州市,百合公园,颗粒物(PM10),79,107,112,48,39,4,,47,31,54,30,5,5,1.1,0.9
2025-11-09T2300,3242A,103.9611,35.998,兰州市,和平,颗粒物(PM10),92,133,126,52,44,22,,54,30,34,30,5,5,0.6,0.5
2025-11-09T2300,4236A,103.6293,36.0938,兰州市,庄浪东路808号,颗粒物(PM10),86,122,129,49,46,12,,50,30,63,45,8,11,0.7,0.6
2025-11-09T2300,4237A,103.7251,36.1043,兰州市,安宁西路88号,颗粒物(PM10),86,122,133,45,47,39,,54,51,38,29,3,4,0.5,0.5
2025-11-09T2300,4238A,103.8470,36.0676,兰州市,北滨河东路1号,颗粒物(PM10),78,105,124,39,38,26,,48,42,52,37,8,10,0.8,0.9
2025-11-09T2300,3245A,103.6633,36.533,兰州新区,新区管委会,颗粒物(PM10),66,81,128,39,47,71,,82,71,8,14,8,16,0.3,0.5
2025-11-09T2300,3246A,103.6975,36.4789,兰州新区,舟曲中学,颗粒物(PM10),81,112,150,41,48,68,,89,74,18,21,21,22,0.5,0.4
2025-11-09T2300,1067A,116.6708,39.5111,廊坊市,药材公司,颗粒物(PM10),63,76,55,31,20,10,,65,35,58,29,2,1,0.5,0.4
2025-11-09T2300,1068A,116.7214,39.5589,廊坊市,开发区,颗粒物(PM10),52,53,53,28,21,3,,68,30,55,28,3,2,0.7,0.4
2025-11-09T2300,1070A,116.7244,39.5269,廊坊市,北华航天学院,颗粒物(PM10),70,89,59,35,21,3,,65,26,62,31,4,4,1.0,0.4
2025-11-09T2300,2919A,116.7022,39.5453,廊坊市,河北工业大学,颗粒物(PM10),62,73,53,28,24,10,,66,35,57,27,3,3,0.6,0.4
2025-11-09T2300,2535A,103.7723,29.5462,乐山市,花湖湾,,,,,,,,,,,,,,,,
2025-11-09T2300,2536A,103.7627,29.5844,乐山市,牛耳桥,"颗粒物(PM10),细颗粒物(PM2.5)",62,74,67,44,36,7,,23,15,34,36,7,9,0.7,0.9
2025-11-09T2300,2537A,103.7508,29.6006,乐山市,市第三水厂,细颗粒物(PM2.5),65,74,63,47,36,21,,26,19,22,36,8,8,0.9,1
2025-11-09T2300,2538A,103.7571,29.5664,乐山市,市监测站,颗粒物(PM10),61,71,64,41,32,21,,26,24,15,28,8,11,0.9,1
2025-11-09T2300,3361A,103.7311,29.5628,乐山市,理工大学,细颗粒物(PM2.5),64,68,62,46,33,20,,27,21,17,27,9,10,0.8,0.9
2025-11-09T2300,2598A,100.2143,26.8576,丽江市,西南郊,,49,49,18,26,8,34,,78,50,15,11,7,38,0.9,0.7
2025-11-09T2300,2599A,100.2497,26.8802,丽江市,丽江古城,,32,32,21,15,9,41,,63,53,15,12,10,10,0.6,0.6
2025-11-09T2300,2600A,100.2203,26.8906,丽江市,市中心,,19,16,14,13,8,38,,69,57,18,12,11,11,0.5,0.5
2025-11-09T2300,1267A,119.914,28.4514,丽水市,监测站大楼,,15,15,11,7,7,29,,60,44,17,14,4,4,0.7,0.7
2025-11-09T2300,1268A,119.93,28.4586,丽水市,莲都小学,,16,16,12,6,6,32,,63,45,20,14,4,4,0.5,0.5
2025-11-09T2300,1269A,119.879,28.4231,丽水市,余庄前,,18,18,14,10,8,15,,47,21,12,16,3,2,0.6,0.6
2025-11-09T2300,1173A,119.176,34.5885,连云港市,市环境监测站,细颗粒物(PM2.5),98,114,89,73,56,59,,72,57,21,30,7,7,0.9,0.9
2025-11-09T2300,3000A,119.3581,34.6972,连云港市,德源药业,细颗粒物(PM2.5),79,95,79,58,52,50,,60,53,25,36,5,5,0.6,0.8
2025-11-09T2300,3007A,119.178,34.844,连云港市,新城一中,细颗粒物(PM2.5),105,112,78,79,54,21,,72,51,59,34,10,8,1.4,1
2025-11-09T2300,3008A,119.3608,34.7519,连云港市,胡沟管理处,颗粒物(PM10),74,97,72,48,50,65,,80,78,23,31,10,10,0.5,0.7
2025-11-09T2300,3009A,119.1478,34.5911,连云港市,矿山设计院,细颗粒物(PM2.5),85,117,85,63,48,61,,73,60,14,20,6,6,0.7,0.7
2025-11-09T2300,3434A,119.2413,34.6539,连云港市,工贸学校,细颗粒物(PM2.5),88,122,76,65,45,61,,78,72,38,37,9,9,0.9,1
2025-11-09T2300,3664A,119.4172,34.7341,连云港市,连云街道,"颗粒物(PM10),细颗粒物(PM2.5)",73,96,77,53,47,49,,63,57,33,31,6,8,0.4,0.8
2025-11-09T2300,2571A,102.3431,27.8099,凉山彝族自治州,青龙寺,,,,,,,,,,,,,,,,
2025-11-09T2300,2572A,102.2721,27.8415,凉山彝族自治州,邛海宾馆,,15,15,18,6,9,41,,42,40,5,13,5,6,0.5,0.6
2025-11-09T2300,2573A,102.2625,27.898,凉山彝族自治州,西昌市政府,,9,9,19,3,13,28,,40,36,9,13,8,9,0.6,0.7
2025-11-09T2300,2574A,102.2685,27.8851,凉山彝族自治州,凉山州政府,,19,,18,13,14,34,,41,38,4,10,7,9,1.0,1
2025-11-09T2300,4229A,102.2342,27.8859,凉山彝族自治州,凯乐南路30号,,13,12,21,3,9,39,,44,41,4,16,7,7,0.7,0.7
2025-11-09T2300,2212A,123.2,41.1953,辽阳市,宏伟区,,18,18,46,8,34,43,,51,46,10,22,5,8,0.3,0.9
2025-11-09T2300,2213A,123.1683,41.2495,辽阳市,新华园,,14,10,50,3,32,42,,47,41,10,27,4,6,0.5,1.1
2025-11-09T2300,2214A,123.2354,41.2639,辽阳市,滨河路,,21,21,50,9,33,41,,49,41,10,24,5,7,0.3,0.9
2025-11-09T2300,2215A,123.149,41.2991,辽阳市,铁西工业园,,23,20,46,16,30,23,,51,31,20,27,6,8,0.2,1.2
2025-11-09T2300,2227A,125.1358,42.8845,辽源市,环保局,颗粒物(PM10),53,56,69,3,15,51,,56,50,8,15,3,3,0.2,0.3
2025-11-09T2300,3239A,125.0764,42.9078,辽源市,银鹰制药,,29,29,38,16,23,48,,58,52,10,16,2,3,0.4,0.5
2025-11-09T2300,1625A,115.9848,36.4372,聊城市,区政府,颗粒物(PM10),70,89,70,41,33,15,,67,40,55,37,7,9,0.8,0.8
2025-11-09T2300,2878A,116.0072,36.4343,聊城市,聊大东校,颗粒物(PM10),74,97,79,35,40,20,,64,39,52,35,5,8,0.7,0.8
2025-11-09T2300,3200A,115.9819,36.4978,聊城市,监控中心,颗粒物(PM10),76,102,68,48,34,8,,65,34,74,38,11,11,0.9,0.9
2025-11-09T2300,3513A,116.0445,36.4361,聊城市,九州社区,颗粒物(PM10),71,92,80,39,34,33,,71,44,40,28,2,4,0.6,0.7
2025-11-09T2300,4018A,116.0567,36.4608,聊城市,星美广场,颗粒物(PM10),71,92,87,31,36,42,,64,40,36,32,7,4,0.5,0.7
2025-11-09T2300,2632A,94.3681,29.6376,林芝市,林芝监测站,,26,8,7,3,4,81,,88,86,1,3,3,4,0.2,0.2
2025-11-09T2300,2633A,94.3616,29.6616,林芝市,林芝人民医院,,24,10,10,6,4,76,,84,81,2,3,6,5,0.3,0.3
2025-11-09T2300,2603A,100.0781,23.8982,临沧市,市环保局,,50,,14,35,24,19,,42,32,8,5,8,9,0.8,0.7
2025-11-09T2300,2604A,100.0894,23.8822,临沧市,市气象局,,,16,14,13,10,,,43,,9,7,10,10,0.6,0.6
2025-11-09T2300,1733A,111.5531,36.0783,临汾市,临钢医院,颗粒物(PM10),97,143,118,33,33,4,,54,32,45,30,6,6,0.6,0.7
2025-11-09T2300,1734A,111.5028,36.0714,临汾市,技工学校,颗粒物(PM10),88,126,114,46,40,3,,61,33,57,35,9,10,0.5,0.7
2025-11-09T2300,1736A,111.5018,36.0855,临汾市,市委,颗粒物(PM10),91,131,121,35,33,6,,64,37,54,34,6,8,0.6,0.7
2025-11-09T2300,3018A,111.505,36.1014,临汾市,唐尧大酒店,颗粒物(PM10),89,128,114,40,31,4,,64,40,50,30,5,7,0.7,1.1
2025-11-09T2300,4244A,111.4879,36.0530,临汾市,启星学校,颗粒物(PM10),90,129,112,52,34,4,,63,36,56,37,6,8,0.8,0.7
2025-11-09T2300,4271A,103.2464,35.6123,临夏回族自治州,滨河东路1号,颗粒物(PM10),90,129,145,51,62,19,,43,33,16,18,3,3,0.5,0.8
2025-11-09T2300,4310A,103.2093,35.5995,临夏回族自治州,新华街21号,颗粒物(PM10),84,117,144,35,62,36,,47,42,13,15,8,12,0.7,0.7
2025-11-09T2300,1618A,118.3429,35.0532,临沂市,沂河小区,细颗粒物(PM2.5),124,112,110,94,63,35,,66,50,42,50,7,11,0.6,0.8
2025-11-09T2300,1619A,118.295,35.0583,临沂市,鲁南制药厂,细颗粒物(PM2.5),103,119,116,77,50,42,,69,48,44,56,8,13,0.7,0.8
2025-11-09T2300,1620A,118.2794,34.9976,临沂市,新光毛纺厂,细颗粒物(PM2.5),89,105,92,66,49,50,,70,47,36,49,7,9,0.7,0.9
2025-11-09T2300,1621A,118.3956,35.0888,临沂市,河东保险公司,细颗粒物(PM2.5),99,114,95,74,59,20,,71,51,62,46,7,8,1.0,0.9
2025-11-09T2300,3370A,118.3564,35.0215,临沂市,十里堡居委,细颗粒物(PM2.5),92,117,103,68,54,34,,74,55,48,53,8,12,0.8,0.9
2025-11-09T2300,3496A,118.3604,35.1084,临沂市,南坊新区,细颗粒物(PM2.5),104,114,98,78,64,33,,73,56,50,47,8,14,1.1,1
2025-11-09T2300,3860A,118.3920,35.0300,临沂市,皇山花园小区,细颗粒物(PM2.5),99,124,104,74,59,26,,75,55,54,47,9,14,0.8,0.9
2025-11-09T2300,1870A,109.4856,24.3895,柳州市,柳东小学,,11,9,10,3,3,35,,33,33,5,6,5,5,0.5,0.5
2025-11-09T2300,1871A,109.4157,24.3277,柳州市,环保监测站,,17,17,12,3,4,34,,33,33,12,9,9,10,0.9,0.9
2025-11-09T2300,1872A,109.389,24.341,柳州市,河西水厂,,13,8,14,6,7,36,,30,27,13,16,10,10,1.3,1.3
2025-11-09T2300,1873A,109.4311,24.2921,柳州市,市四中,,12,8,12,3,6,36,,33,33,10,9,9,10,0.6,0.7
2025-11-09T2300,1874A,109.4006,24.3631,柳州市,市九中,,14,8,12,3,4,42,,36,36,10,12,4,5,0.9,0.8
2025-11-09T2300,1875A,109.4958,24.3134,柳州市,古亭山,,12,6,10,3,4,38,,35,35,3,4,7,7,0.7,0.7
2025-11-09T2300,3402A,109.5422,24.3996,柳州市,市二中,,12,9,9,3,4,37,,40,35,7,8,6,7,0.7,0.7
2025-11-09T2300,2307A,116.5079,31.737,六安市,监测大楼,细颗粒物(PM2.5),78,,65,57,69,10,,71,56,46,16,3,3,0.7,0.6
2025-11-09T2300,2308A,116.4738,31.7643,六安市,皖西学院,细颗粒物(PM2.5),78,60,77,57,71,28,,74,57,19,13,2,2,0.5,0.5
2025-11-09T2300,2309A,116.4996,31.7905,六安市,朝阳厂,细颗粒物(PM2.5),78,57,65,57,67,50,,71,61,23,19,4,4,0.5,0.5
2025-11-09T2300,2310A,116.5567,31.7886,六安市,开发区,颗粒物(PM10),55,59,87,35,65,16,,68,42,21,21,1,2,0.6,0.6
2025-11-09T2300,2576A,104.8,26.5892,六盘水市,窑上,,27,27,22,11,9,44,,60,46,6,6,2,2,0.6,0.6
2025-11-09T2300,2577A,104.83,26.5917,六盘水市,黄土坡,,20,20,11,8,6,40,,54,43,10,11,7,4,0.7,0.6
2025-11-09T2300,2578A,104.89,26.5939,六盘水市,水钢,,18,18,12,3,5,42,,50,48,9,10,6,6,0.5,0.8
2025-11-09T2300,2579A,104.8475,26.5894,六盘水市,民中,,12,12,7,3,2,36,,45,39,13,12,4,3,0.4,0.3
2025-11-09T2300,2580A,104.9544,26.5506,六盘水市,双水,,15,12,8,10,7,36,,53,50,12,8,4,4,0.7,0.5
2025-11-09T2300,2335A,117.0189,25.1181,龙岩市,龙岩师专,,,,,,,,,,,,,,,,
2025-11-09T2300,2336A,117.0217,25.1033,龙岩市,龙岩市监测站,,10,6,28,3,21,29,,43,33,11,18,10,12,0.5,0.6
2025-11-09T2300,2337A,117.0258,25.0661,龙岩市,闽西职业技术学院,,16,,37,11,23,34,,45,35,6,17,8,12,0.6,0.7
2025-11-09T2300,2338A,117.0196,25.0306,龙岩市,龙岩学院,,12,10,32,3,20,37,,46,35,7,16,7,8,0.4,0.6
2025-11-09T2300,2665A,105.0822,33.3261,陇南市,汉王镇固水子,,,,,,,,,,,,,,,,
2025-11-09T2300,2885A,104.9339,33.3826,陇南市,滨江中学,颗粒物(PM10),51,51,79,28,31,71,,67,67,6,13,6,7,0.4,0.6
2025-11-09T2300,3247A,104.955,33.371,陇南市,市总工会,颗粒物(PM10),55,60,73,25,32,70,,66,66,7,12,7,7,0.5,0.5
2025-11-09T2300,2487A,111.9589,27.8901,娄底市,电视发射台,,,,,,,,,,,,,,,,
2025-11-09T2300,2488A,111.9975,27.725,娄底市,市监测站,,23,10,9,6,8,73,,83,81,11,11,10,10,0.4,0.5
2025-11-09T2300,2489A,112.0194,27.7314,娄底市,市委党校,,24,15,8,12,7,76,,83,77,6,7,5,5,0.5,0.5
2025-11-09T2300,2490A,111.9561,27.7569,娄底市,涟钢,,37,37,10,20,7,64,,65,64,5,11,8,8,0.3,0.6
2025-11-09T2300,2491A,111.9892,27.7044,娄底市,市政府,,,,12,1,9,78,,82,82,8,9,8,8,0.8,0.9
2025-11-09T2300,1893A,105.4324,28.9634,泸州市,九狮山,,,,,,,,,,,,,,,,
2025-11-09T2300,1894A,105.4427,28.9063,泸州市,小市上码头,,45,45,42,23,24,18,,28,26,21,23,8,9,0.7,0.8
2025-11-09T2300,1895A,105.4241,28.8573,泸州市,兰田宪桥,,42,42,41,25,23,9,,31,24,20,16,6,6,0.8,0.7
2025-11-09T2300,1896A,105.4379,28.8833,泸州市,市环监站,,44,44,41,24,25,18,,32,28,29,24,7,7,0.7,0.7
2025-11-09T2300,4272A,105.3689,28.7783,泸州市,纳溪中医医院,,47,47,40,30,25,1,,31,19,28,25,6,6,0.8,0.7
2025-11-09T2300,2183A,111.1406,37.5211,吕梁市,环保局,颗粒物(PM10),67,83,141,19,35,4,,61,29,48,30,5,7,0.4,0.4
2025-11-09T2300,2185A,111.1297,37.5136,吕梁市,自来水公司,颗粒物(PM10),82,114,133,26,32,2,,60,32,46,30,3,6,0.2,0.2
2025-11-09T2300,2867A,111.1283,37.51,吕梁市,马茂庄小学,颗粒物(PM10),74,97,144,24,32,1,,59,26,51,35,2,5,0.3,0.4
2025-11-09T2300,1812A,112.3931,34.6516,洛阳市,市委党校,颗粒物(PM10),84,118,94,53,41,14,,62,42,57,35,7,8,0.7,0.6
2025-11-09T2300,1815A,112.494,34.6886,洛阳市,河南林校,颗粒物(PM10),89,127,98,53,39,2,,56,39,72,40,8,8,0.8,0.6
2025-11-09T2300,1816A,112.3844,34.623,洛阳市,开发区管委会,颗粒物(PM10),82,114,89,46,37,45,,76,63,26,25,5,7,0.6,0.5
2025-11-09T2300,1817A,112.4267,34.6258,洛阳市,市委新办公区,颗粒物(PM10),90,130,93,46,35,39,,73,62,34,26,7,8,0.5,0.4
2025-11-09T2300,3340A,112.6005,34.6326,洛阳市,伊滨,颗粒物(PM10),81,112,96,33,32,8,,63,45,46,24,6,8,0.5,0.4
2025-11-09T2300,3341A,112.4951,34.6332,洛阳市,中移产业园,颗粒物(PM10),88,126,93,45,34,13,,72,63,62,30,8,8,0.6,0.5
2025-11-09T2300,3593A,112.5736,34.8993,洛阳市,吉利监测站,颗粒物(PM10),84,118,96,43,35,2,,75,35,62,34,6,7,0.7,0.6
2025-11-09T2300,3635A,112.3677,34.662,洛阳市,河科大西苑校区,颗粒物(PM10),91,132,97,45,34,14,,76,56,52,29,9,10,0.9,0.8
2025-11-09T2300,3636A,112.4388,34.6781,洛阳市,英才小学,颗粒物(PM10),94,137,106,57,48,0,,54,38,83,47,10,9,1.0,0.9
2025-11-09T2300,4214A,112.4600,34.6949,洛阳市,春都路1号院,颗粒物(PM10),96,142,110,41,34,0,,49,33,65,38,10,10,0.9,0.9
2025-11-09T2300,2399A,114.051,33.5699,漯河市,三五一五工厂,颗粒物(PM10),103,155,98,71,46,42,,85,68,43,32,8,8,0.8,0.8
2025-11-09T2300,2400A,114.0055,33.5698,漯河市,漯河大学,细颗粒物(PM2.5),104,143,98,78,48,45,,91,75,46,32,7,7,0.7,0.6
2025-11-09T2300,2401A,114.0138,33.5828,漯河市,市水利局,颗粒物(PM10),93,136,99,68,47,50,,88,76,39,30,8,8,0.8,0.8
2025-11-09T2300,2402A,114.0261,33.5698,漯河市,市广电局,颗粒物(PM10),102,154,104,71,38,59,,90,76,32,29,6,6,0.7,0.7
2025-11-09T2300,3478A,113.9749,33.5664,漯河市,市图书馆,颗粒物(PM10),107,163,103,74,40,56,,82,73,33,28,5,5,0.9,0.9
2025-11-09T2300,4250A,114.0892,33.5882,漯河市,韶山路11号,"颗粒物(PM10),细颗粒物(PM2.5)",93,136,99,69,44,52,,78,65,39,32,8,8,0.8,0.8
2025-11-09T2300,1798A,118.5092,31.6837,马鞍山市,湖东路四小,,45,40,32,31,26,42,,44,41,32,28,6,7,0.7,0.8
2025-11-09T2300,1799A,118.5024,31.6449,马鞍山市,开发区,,38,38,34,26,23,57,,51,51,24,24,4,4,0.6,0.8
2025-11-09T2300,1802A,118.6245,31.7241,马鞍山市,濮塘,,,,,,,,,,,,,,,,
2025-11-09T2300,3633A,118.4918,31.6809,马鞍山市,雨山,,39,36,32,27,23,34,,49,45,36,31,5,8,0.7,1
2025-11-09T2300,4191A,118.5274,31.72227,马鞍山市,慈湖高新区,,49,48,38,34,25,25,,42,29,46,28,4,4,0.7,0.7
2025-11-09T2300,1686A,111.0286,21.4688,茂名市,电白南海,,32,31,58,22,30,54,,121,103,15,17,8,13,0.7,0.7
2025-11-09T2300,1687A,110.9294,21.6533,茂名市,茂石化七小,,36,36,45,22,25,29,,100,68,13,15,8,16,0.8,0.8
2025-11-09T2300,1688A,110.9107,21.6687,茂名市,健康路,,35,31,40,24,22,29,,107,71,15,15,20,18,0.8,0.8
2025-11-09T2300,1689A,110.8592,21.6828,茂名市,高岭,,36,36,54,14,21,27,,88,54,15,19,7,13,0.7,0.6
2025-11-09T2300,3450A,111.01,21.5165,茂名市,电白水东,,,,43,19,25,33,,116,84,14,16,9,12,0.8,0.8
2025-11-09T2300,2539A,104.0308,30.0478,眉山市,黑龙滩水库,,,,,,,,,,,,,,,,
2025-11-09T2300,2540A,103.8416,30.0874,眉山市,气象局,,40,40,61,24,32,42,,70,62,14,25,8,13,0.4,0.5
2025-11-09T2300,3137A,103.8578,30.0744,眉山市,市委党校,,27,27,53,12,25,38,,66,57,14,25,6,11,0.6,0.7
2025-11-09T2300,3148A,103.8291,30.0564,眉山市,区人社局,颗粒物(PM10),51,51,61,17,28,36,,64,56,15,26,10,12,0.8,0.9
2025-11-09T2300,1690A,116.1231,24.3284,梅州市,梅江月梅,,17,17,22,6,18,40,,52,44,10,14,5,5,0.7,0.7
2025-11-09T2300,1691A,116.0797,24.2719,梅州市,梅县新城,,14,7,29,3,18,42,,51,45,9,19,6,7,0.6,0.6
2025-11-09T2300,1692A,116.1248,24.2654,梅州市,环境监控中心,,13,13,28,7,21,41,,50,44,6,19,4,10,0.7,0.6
2025-11-09T2300,3315A,116.1233,24.2991,梅州市,梅龙,,12,9,19,7,15,37,,46,39,6,10,7,9,0.8,0.8
2025-11-09T2300,1878A,104.7778,31.4741,绵阳市,富乐山,,33,33,38,17,21,37,,57,53,7,12,8,9,0.5,0.6
2025-11-09T2300,1880A,104.6697,31.4668,绵阳市,高新区自来水公司,,41,41,57,12,23,50,,51,50,11,24,8,8,0.5,0.6
2025-11-09T2300,1881A,104.7287,31.5075,绵阳市,三水厂,,32,32,49,16,27,41,,58,54,20,24,7,8,0.5,0.6
2025-11-09T2300,3491A,104.69,31.5322,绵阳市,西科大附属小学,,44,44,61,16,24,46,,51,49,22,27,10,10,0.4,0.6
2025-11-09T2300,3492A,104.5648,31.5343,绵阳市,安州区旅游局,,32,32,43,14,22,49,,48,46,10,6,5,7,0.5,0.6
2025-11-09T2300,4226A,104.7651,31.4531,绵阳市,绵阳市气象局,,31,31,42,14,19,51,,54,53,10,19,7,6,0.5,0.7
2025-11-09T2300,1784A,129.61,44.561,牡丹江市,环保大楼,,46,46,48,14,38,50,,50,50,4,18,4,6,0.3,0.5
2025-11-09T2300,1785A,129.6115,44.5782,牡丹江市,文化广场,颗粒物(PM10),54,57,44,27,36,48,,48,45,5,19,7,8,0.3,0.6
2025-11-09T2300,1786A,129.5904,44.5963,牡丹江市,第一医院,,49,49,45,21,44,49,,51,49,5,17,3,4,0.2,0.4
2025-11-09T2300,1787A,129.6364,44.6075,牡丹江市,机车工厂,,38,38,52,15,38,47,,49,47,10,23,4,6,0.2,0.5
2025-11-09T2300,1788A,129.6386,44.5462,牡丹江市,第一中学,,49,49,41,20,32,49,,49,48,2,14,3,4,0.3,0.5
2025-11-09T2300,2531A,105.0703,29.61,内江市,市监测站,,34,34,38,15,19,34,,69,51,10,14,3,4,0.8,0.8
2025-11-09T2300,2532A,105.0717,29.5947,内江市,东兴区政府,,26,26,27,10,14,25,,58,40,15,19,5,5,0.4,0.4
2025-11-09T2300,2533A,105.0653,29.5817,内江市,内江二中,,35,35,33,23,21,27,,57,38,13,21,4,4,0.6,0.7
2025-11-09T2300,2534A,105.0406,29.5822,内江市,内江日报社,,29,28,30,20,22,32,,62,42,12,20,4,4,0.5,0.5
2025-11-09T2300,2628A,92.0657,31.4846,那曲市,那曲监测站,,48,48,42,29,24,43,,97,76,37,23,12,11,1.6,0.9
2025-11-09T2300,4243A,92.0515,31.4787,那曲市,那曲市委宣传部,,28,28,26,15,15,58,,96,86,21,17,7,8,0.8,0.9
2025-11-09T2300,1290A,115.8931,28.6843,南昌市,省外办,,,19,20,19,15,37,,52,47,12,14,,3,0.9,0.9
2025-11-09T2300,1291A,115.8886,28.7003,南昌市,省林业公司,,18,,8,12,11,41,,58,52,14,11,2,2,1.0,1
2025-11-09T2300,1292A,115.8126,28.7442,南昌市,林科所,,14,12,7,3,6,44,,58,54,11,10,2,2,0.8,0.7
2025-11-09T2300,1294A,115.8518,28.687,南昌市,建工学校,,28,,19,19,13,40,,53,50,19,16,7,7,0.7,0.7
2025-11-09T2300,1295A,115.8921,28.6424,南昌市,象湖,,22,22,21,7,11,42,,57,52,15,14,6,7,0.8,0.7
2025-11-09T2300,1296A,115.7423,28.7996,南昌市,武术学校,,,,,,,,,,,,,,,,
2025-11-09T2300,3046A,115.9084,28.6062,南昌市,机电学校,,20,18,19,14,15,47,,61,57,13,12,6,6,0.6,0.5
2025-11-09T2300,3690A,115.9721,28.7031,南昌市,外国语学校,,23,,18,16,19,46,,60,56,15,15,8,8,0.6,0.6
2025-11-09T2300,4192A,115.9316,28.68677,南昌市,南京东路235号,,20,17,21,14,14,48,,62,58,16,16,5,4,0.7,0.6
2025-11-09T2300,1905A,106.056,30.8064,南充市,西山风景区,,,,,,,,,,,,,,,,
2025-11-09T2300,1906A,106.0789,30.8023,南充市,南充市委,,10,10,14,7,9,20,,39,24,17,15,4,4,0.4,0.4
2025-11-09T2300,1907A,106.1031,30.8217,南充市,南充炼油厂,,27,27,22,12,12,26,,40,31,8,9,5,5,0.3,0.3
2025-11-09T2300,4227A,106.1083,30.7884,南充市,梨树横街98号,,10,10,13,3,7,25,,46,28,12,11,4,4,0.4,0.4
2025-11-09T2300,4304A,106.1172,30.843,南充市,清泉寺北路188号,,10,10,14,3,6,27,,45,32,7,7,6,6,0.4,0.5
2025-11-09T2300,4305A,106.067,30.7616,南充市,同庆路1号,,8,,8,3,8,21,,38,25,13,11,6,6,0.6,0.6
2025-11-09T2300,1151A,118.8086,32.1065,南京市,迈皋桥,细颗粒物(PM2.5),62,61,30,44,25,27,,73,50,36,20,4,3,0.7,0.7
2025-11-09T2300,1152A,118.7538,32.0551,南京市,草场门,细颗粒物(PM2.5),70,66,35,51,27,29,,61,50,46,27,10,9,0.7,0.6
2025-11-09T2300,1153A,118.7794,32.0745,南京市,山西路,细颗粒物(PM2.5),83,90,41,61,30,38,,73,62,39,18,4,4,0.5,0.5
2025-11-09T2300,1154A,118.7752,32.0023,南京市,中华门,细颗粒物(PM2.5),77,83,40,56,30,24,,74,57,40,21,3,4,0.7,0.6
2025-11-09T2300,1155A,118.8109,32.0309,南京市,瑞金路,细颗粒物(PM2.5),70,78,38,51,29,51,,68,58,24,18,4,4,0.9,0.7
2025-11-09T2300,1156A,118.7997,32.0754,南京市,玄武湖,,,,32,57,31,,,60,51,35,17,4,4,0.7,0.6
2025-11-09T2300,1157A,118.6414,32.0931,南京市,浦口,细颗粒物(PM2.5),79,62,29,58,30,74,,78,73,17,15,6,6,0.4,0.5
2025-11-09T2300,1158A,118.7356,31.9996,南京市,奥体中心,细颗粒物(PM2.5),64,71,39,46,30,36,,71,57,41,26,5,5,0.8,0.7
2025-11-09T2300,1159A,118.9125,32.1028,南京市,仙林大学城,细颗粒物(PM2.5),79,75,40,58,30,36,,66,58,38,19,5,5,0.8,0.7
2025-11-09T2300,3422A,118.8436,31.9198,南京市,江宁彩虹桥,细颗粒物(PM2.5),62,44,27,44,24,69,,75,71,24,19,4,4,0.7,0.6
2025-11-09T2300,3427A,118.8554,32.3578,南京市,六合雄州,细颗粒物(PM2.5),75,65,38,55,33,57,,81,63,31,7,4,4,0.7,0.6
2025-11-09T2300,4249A,118.8708,31.3402,南京市,汶溪路181号,,35,31,21,24,19,23,,50,42,47,22,4,5,0.7,0.7
2025-11-09T2300,4312A,119.019,31.6512,南京市,中山西路1号,,41,41,26,18,16,52,,51,51,17,13,4,4,0.7,0.7
2025-11-09T2300,1401A,108.3103,22.7881,南宁市,二十一中,,11,11,17,7,12,26,,41,29,14,12,5,4,0.7,0.7
2025-11-09T2300,1402A,108.3141,22.8528,南宁市,北湖,,18,18,18,6,13,34,,39,29,14,13,5,6,0.7,0.7
2025-11-09T2300,1403A,108.3206,22.8225,南宁市,市监测站,,15,14,16,10,15,22,,36,25,20,15,6,6,0.8,0.8
2025-11-09T2300,1404A,108.3829,22.8037,南宁市,大自然花园,,17,17,18,8,12,41,,47,41,10,10,6,6,0.7,0.7
2025-11-09T2300,1405A,108.4394,22.7904,南宁市,仙葫,,,,,,,,,,,,,,,,
2025-11-09T2300,1406A,108.2397,22.8467,南宁市,区农职院,,13,,18,9,14,30,,29,24,10,15,4,4,0.6,0.6
2025-11-09T2300,1407A,108.3275,22.735,南宁市,英华嘉园,,11,9,15,7,12,35,,46,38,12,12,3,2,0.6,0.6
2025-11-09T2300,3401A,108.4834,22.7618,南宁市,红星社区,,16,16,15,6,11,38,,44,40,8,10,5,4,0.6,0.6
2025-11-09T2300,4221A,108.2177,22.7774,南宁市,乐贤路16号,,20,20,22,12,15,30,,41,26,12,19,3,4,0.6,0.6
2025-11-09T2300,2331A,118.0966,26.6761,南平市,茫荡山,,,,9,,,,,49,,,,,1,,0.3
2025-11-09T2300,2332A,118.1681,26.6369,南平市,南平市监测站,,7,6,12,3,10,19,,34,28,12,9,4,4,0.7,0.6
2025-11-09T2300,2333A,118.1825,26.6489,南平市,南平铝业有限公司,,8,6,11,3,8,25,,34,30,10,9,2,2,0.7,0.6
2025-11-09T2300,2334A,118.1756,26.6272,南平市,南平七中,,22,22,13,3,9,20,,30,26,9,8,6,5,0.8,0.6
2025-11-09T2300,1168A,120.9098,31.9663,南通市,狼山街道,颗粒物(PM10),57,63,26,35,13,81,,78,78,16,14,2,2,0.7,0.5
2025-11-09T2300,1169A,120.86,32.0005,南通市,虹桥,细颗粒物(PM2.5),59,58,24,42,17,90,,84,84,14,12,3,3,0.6,0.5
2025-11-09T2300,1170A,120.87,32.02,南通市,城中,颗粒物(PM10),62,74,33,43,17,75,,74,74,20,14,3,3,0.5,0.4
2025-11-09T2300,1171A,120.94,31.93,南通市,星湖花园,颗粒物(PM10),56,61,30,38,17,81,,78,77,17,18,3,3,0.5,0.4
2025-11-09T2300,1172A,120.81,32.0417,南通市,紫琅学院,细颗粒物(PM2.5),78,72,29,57,19,52,,72,63,26,15,8,4,0.8,0.6
2025-11-09T2300,3291A,121.067,32.062,南通市,通州监测站,细颗粒物(PM2.5),55,44,17,39,15,87,,90,89,12,10,3,2,0.6,0.5
2025-11-09T2300,3432A,120.9348,31.9883,南通市,环境教育馆,细颗粒物(PM2.5),67,58,25,48,18,74,,79,78,20,14,3,3,0.6,0.4
2025-11-09T2300,2404A,112.5224,33.0122,南阳市,瓦房庄,颗粒物(PM10),83,116,84,51,36,44,,84,60,39,29,7,6,0.8,0.8
2025-11-09T2300,2405A,112.5003,32.9735,南阳市,汉画馆,颗粒物(PM10),77,104,72,42,31,29,,71,48,35,32,5,5,0.8,0.8
2025-11-09T2300,2406A,112.5573,33.027,南阳市,气象站,颗粒物(PM10),86,122,87,27,26,79,,98,92,28,25,7,6,0.4,0.6
2025-11-09T2300,2407A,112.5481,32.9689,南阳市,理工学院,颗粒物(PM10),82,114,79,37,26,60,,86,76,32,29,6,6,0.6,0.8
2025-11-09T2300,4008A,112.5234,32.9922,南阳市,卧龙区政府,颗粒物(PM10),89,127,75,47,37,59,,78,66,33,31,7,6,0.8,0.8
2025-11-09T2300,1234A,121.8358,29.911,宁波市,区环保大楼,,27,21,20,10,14,84,,69,69,21,26,6,5,0.6,0.6
2025-11-09T2300,1235A,121.56,29.82,宁波市,万里学院,,26,23,20,18,17,80,,84,84,14,17,7,7,0.7,0.8
2025-11-09T2300,1236A,121.713,29.9572,宁波市,龙赛医院,,29,23,20,9,8,91,,90,90,13,18,4,5,0.5,0.6
2025-11-09T2300,1239A,121.633,29.7733,宁波市,钱湖水厂,,26,21,19,13,14,82,,87,87,12,14,7,6,0.5,0.6
2025-11-09T2300,1240A,121.5856,29.8635,宁波市,太古小学,,26,26,20,16,11,75,,84,84,16,17,3,3,0.6,0.7
2025-11-09T2300,1241A,121.524,29.8674,宁波市,市环境监测中心,,29,29,21,9,10,74,,78,78,14,16,9,9,0.5,0.6
2025-11-09T2300,2871A,121.6147,29.9017,宁波市,万里国际学校,,25,25,19,10,10,78,,87,86,18,17,5,4,0.6,0.7
2025-11-09T2300,3710A,121.5594,29.8975,宁波市,白沙活动中心,,25,18,17,17,10,70,,76,76,16,19,5,5,0.4,0.5
2025-11-09T2300,2339A,119.5001,26.6946,宁德市,金涵水库,,,,25,,16,,,42,,,10,,2,,0.5
2025-11-09T2300,2341A,119.5388,26.6612,宁德市,宁德市监测站,,22,,21,9,12,69,,88,75,12,16,6,6,0.3,0.4
2025-11-09T2300,3209A,119.5231,26.6562,宁德市,宁德一中,,23,,25,14,15,71,,89,78,11,11,5,5,0.3,0.3
2025-11-09T2300,2618A,98.8601,25.8567,怒江傈僳族自治州,州监测站,,33,33,21,23,14,18,,53,36,16,9,8,7,0.4,0.4
2025-11-09T2300,2619A,98.8546,25.8417,怒江傈僳族自治州,泸水一中,,22,22,19,12,10,3,,38,18,23,16,6,6,0.7,0.5
2025-11-09T2300,1888A,101.6891,26.571,攀枝花市,弄弄坪,,25,25,52,8,23,11,,33,28,24,30,2,3,1.2,1.3
2025-11-09T2300,1889A,101.5769,26.5928,攀枝花市,河门口,,14,14,33,7,17,20,,37,32,13,18,13,16,0.9,1.1
2025-11-09T2300,1890A,101.7169,26.585,攀枝花市,炳草岗,,32,32,56,10,27,2,,31,21,34,32,6,13,0.9,1
2025-11-09T2300,1891A,101.7369,26.5008,攀枝花市,仁和,,16,16,27,9,17,9,,32,26,13,17,6,12,0.5,1.1
2025-11-09T2300,2835A,101.7227,26.567,攀枝花市,四十中小,,30,30,56,14,32,22,,36,34,14,26,13,18,1.0,1.3
2025-11-09T2300,1604A,122.0303,41.1489,盘锦市,开发区,,21,21,31,8,20,38,,59,48,19,28,3,5,0.0,0.3
2025-11-09T2300,1605A,122.0485,41.0883,盘锦市,兴隆台,,23,23,33,8,20,38,,53,46,17,33,7,7,0.3,0.5
2025-11-09T2300,1606A,121.8297,41.1028,盘锦市,新生街道,,26,22,30,3,16,10,,58,22,52,43,8,10,0.3,0.4
2025-11-09T2300,1832A,113.3257,33.742,平顶山市,新华旅馆,颗粒物(PM10),101,151,91,59,38,27,,92,63,67,25,9,9,0.6,0.6
2025-11-09T2300,1833A,113.2919,33.737,平顶山市,规划设计院,颗粒物(PM10),98,145,95,57,38,45,,89,62,52,30,6,7,0.7,0.6
2025-11-09T2300,1834A,113.182,33.774,平顶山市,平顶山工学院,颗粒物(PM10),91,132,86,48,30,72,,87,77,31,21,8,8,0.4,0.3
2025-11-09T2300,3204A,113.3025,33.73,平顶山市,规划局,颗粒物(PM10),102,153,99,58,34,51,,91,67,44,25,9,9,0.6,0.5
2025-11-09T2300,3594A,112.8867,33.9116,平顶山市,石龙区,颗粒物(PM10),111,172,124,44,31,8,,90,53,76,32,9,7,0.6,0.5
2025-11-09T2300,2656A,106.6692,35.5461,平凉市,聚贤嘉苑,,,109,102,38,31,14,,68,50,49,29,,6,0.7,0.5
2025-11-09T2300,2657A,106.7021,35.5307,平凉市,博物馆,颗粒物(PM10),77,103,98,47,38,16,,70,39,44,31,11,11,1.8,0.8
2025-11-09T2300,2347A,114.0997,27.5002,萍乡市,武功山,,,,,,,,,,,,,,,,
2025-11-09T2300,2348A,113.8385,27.6434,萍乡市,中医院,,18,,12,12,8,32,,30,30,20,21,6,5,0.9,1
2025-11-09T2300,2349A,113.8493,27.6253,萍乡市,市政府车库,,19,,8,13,8,30,,34,34,23,21,10,7,0.8,0.7
2025-11-09T2300,2350A,113.8676,27.6435,萍乡市,市环保局,,,,13,9,8,29,,31,31,16,16,11,8,0.7,0.7
2025-11-09T2300,2351A,113.866,27.6198,萍乡市,安源区政府,,11,9,8,7,9,34,,36,36,15,15,10,10,0.7,0.7
2025-11-09T2300,2319A,119.0141,25.4325,莆田市,荔城区仓后路,,24,14,27,6,13,74,,92,83,7,12,4,5,0.4,0.5
2025-11-09T2300,2320A,119.0015,25.4553,莆田市,莆田市监测站,,25,18,22,3,12,77,,93,85,7,9,4,4,0.5,0.6
2025-11-09T2300,2321A,119.1119,25.4561,莆田市,涵江区六中,,24,16,26,3,12,76,,94,85,7,14,3,3,0.6,0.5
2025-11-09T2300,2322A,119.1013,25.3215,莆田市,秀屿区政府,,25,10,26,8,12,78,,94,85,8,12,4,5,0.4,0.4
2025-11-09T2300,2323A,118.981,25.4792,莆田市,东圳水库,,,,17,,10,,,,,,7,,3,,1.0
2025-11-09T2300,2392A,115.0312,35.7636,濮阳市,环保局,颗粒物(PM10),78,106,67,52,38,8,,47,23,72,40,16,9,1.1,1.1
2025-11-09T2300,2394A,115.0574,35.7609,濮阳市,油田运输公司,颗粒物(PM10),80,109,85,57,40,10,,51,24,61,38,15,10,1.2,1.3
2025-11-09T2300,3021A,115,35.7668,濮阳市,濮水河管理处,细颗粒物(PM2.5),73,87,64,53,31,3,,43,18,41,32,8,8,0.7,0.5
2025-11-09T2300,4216A,115.0924,35.7686,濮阳市,任丘路479号,颗粒物(PM10),85,120,83,56,40,2,,46,20,63,40,11,9,1.1,1
2025-11-09T2300,2601A,100.98,22.7633,普洱市,市环保局,,24,24,23,10,14,40,,39,30,3,6,5,5,0.6,0.6
2025-11-09T2300,2602A,100.9817,22.8322,普洱市,普洱第二中学,,20,20,17,11,9,34,,37,24,6,10,4,4,0.3,0.3
2025-11-09T2300,2262A,131.0518,45.8751,七台河市,新一中,,,,,,,,,,,,,,,,
2025-11-09T2300,3345A,131.0577,45.7879,七台河市,中波台,,18,18,18,12,13,38,,52,40,12,11,6,7,0.6,0.6
2025-11-09T2300,3637A,131.0176,45.7761,七台河市,人民广场,,23,23,22,13,21,43,,56,41,13,14,7,7,0.5,0.5
2025-11-09T2300,3684A,130.8781,45.8222,七台河市,新建矿广场,,40,,28,28,22,42,,48,37,6,11,7,6,0.4,0.5
2025-11-09T2300,1779A,123.9305,47.3636,齐齐哈尔市,安居小区,,17,,23,10,17,52,,57,53,6,8,6,7,0.3,0.4
2025-11-09T2300,1780A,123.9488,47.3386,齐齐哈尔市,中心广场,,19,19,24,3,12,57,,57,56,7,10,5,6,0.3,0.3
2025-11-09T2300,1781A,123.9483,47.3227,齐齐哈尔市,农牧车辆厂,,17,12,24,11,16,54,,54,52,3,9,2,3,0.4,0.4
2025-11-09T2300,1783A,123.945,47.2988,齐齐哈尔市,市环境监测站,,17,14,26,6,19,54,,54,52,4,10,5,6,0.5,0.6
2025-11-09T2300,3662A,123.6333,47.2075,齐齐哈尔市,富区青少年活动中心,,16,12,34,9,24,51,,48,46,10,19,5,8,0.5,0.8
2025-11-09T2300,2591A,107.9783,26.5747,黔东南苗族侗族自治州,市环境监测站,,20,6,5,6,4,63,,58,57,6,8,4,4,0.7,0.7
2025-11-09T2300,2881A,107.8908,26.5311,黔东南苗族侗族自治州,凯里学院,,19,6,4,3,3,58,,64,57,10,10,4,3,0.8,0.7
2025-11-09T2300,2593A,107.5228,26.2403,黔南布依族苗族自治州,小围寨,,16,6,0,3,0,50,,53,49,3,4,4,4,0.7,0.6
2025-11-09T2300,3538A,107.5175,26.2978,黔南布依族苗族自治州,沙坝,,18,7,5,3,1,55,,59,55,4,6,4,4,0.8,0.7
2025-11-09T2300,2589A,104.9022,25.0925,黔西南布依族苗族自治州,场坝街,,22,22,12,3,7,34,,30,28,11,9,5,3,0.6,0.5
2025-11-09T2300,2590A,104.8811,25.0992,黔西南布依族苗族自治州,坪东大道,,14,14,13,3,5,36,,32,32,8,7,2,2,0.5,0.5
2025-11-09T2300,2502A,108.6236,21.9667,钦州市,市环保站,,27,27,26,9,16,33,,65,49,13,12,5,2,1.4,0.6
2025-11-09T2300,2503A,108.6549,21.9481,钦州市,沙埠小学,,30,30,30,12,18,37,,71,56,8,9,3,5,0.5,0.5
2025-11-09T2300,2504A,108.5989,21.7431,钦州市,港区一小,,44,44,41,18,20,24,,60,45,23,21,6,6,1.0,0.8
2025-11-09T2300,3404A,108.5959,21.9633,钦州市,北职校,,24,24,29,9,19,36,,64,50,7,9,5,5,0.7,0.7
2025-11-09T2300,1043A,119.7493,40.0116,秦皇岛市,第一关,,18,14,34,12,29,42,,69,35,28,31,4,5,0.2,0.4
2025-11-09T2300,1044A,119.5897,39.9499,秦皇岛市,监测站,,37,37,62,16,32,11,,67,35,58,38,6,7,0.4,0.6
2025-11-09T2300,1046A,119.5251,39.9041,秦皇岛市,建设大厦,,30,30,51,15,34,11,,63,34,55,34,5,5,0.3,0.5
2025-11-09T2300,3132A,119.610547,39.943889,秦皇岛市,文明里,,30,30,53,15,33,15,,60,37,46,33,8,8,0.2,0.4
2025-11-09T2300,4198A,119.5090,39.8253,秦皇岛市,北戴河轮滑馆,,30,30,51,13,32,7,,64,35,51,23,4,4,1.3,0.7
2025-11-09T2300,1307A,120.6659,36.2403,青岛市,仰口,,,,,,,,,,,,,,,,
2025-11-09T2300,1310A,120.4134,36.0658,青岛市,市南区东部子站,,41,41,104,9,58,52,,82,64,37,22,7,8,0.4,0.6
2025-11-09T2300,1311A,120.3664,36.1032,青岛市,四方区子站,,29,29,68,14,66,67,,79,70,8,17,4,4,0.2,0.6
2025-11-09T2300,1312A,120.2994,36.054,青岛市,市南区西部子站,,44,44,92,7,59,66,,75,72,14,22,7,8,0.4,0.7
2025-11-09T2300,1313A,120.4581,36.0858,青岛市,崂山区子站,,41,41,93,9,53,56,,78,65,23,24,9,8,0.4,0.7
2025-11-09T2300,1315A,120.3999,36.3083,青岛市,城阳区子站,颗粒物(PM10),54,58,87,24,45,37,,78,56,38,26,6,4,0.5,0.7
2025-11-09T2300,3362A,120.5014,36.4034,青岛市,即墨2号,颗粒物(PM10),58,66,82,19,57,27,,71,52,46,32,6,4,0.6,0.6
2025-11-09T2300,3642A,120.3503,36.0736,青岛市,市北区南部,,37,37,93,7,55,50,,71,63,28,27,13,7,0.1,0.5
2025-11-09T2300,3643A,120.3948,36.1805,青岛市,李沧区北部,,48,48,100,27,69,36,,76,54,41,30,7,6,0.5,0.7
2025-11-09T2300,4290A,120.1969,35.9546,青岛市,珠江路669号,,44,44,91,12,63,48,,81,52,24,26,9,9,0.3,0.6
2025-11-09T2300,4291A,120.0424,35.8656,青岛市,黄岛区人民政府广场,颗粒物(PM10),51,51,95,14,58,48,,88,62,27,30,5,6,0.6,1
2025-11-09T2300,1702A,113.0426,23.691,清远市,环保大楼,,,,,,,,,,,,,,,,
2025-11-09T2300,1703A,113.0208,23.7106,清远市,凤城街办,,15,8,8,7,7,45,,46,45,12,9,6,6,0.7,0.6
2025-11-09T2300,3025A,113.0477,23.6344,清远市,技师学院,,11,9,10,6,6,35,,51,41,12,12,4,4,0.6,0.5
2025-11-09T2300,3318A,112.9903,23.7403,清远市,清新太和,,17,6,8,3,4,54,,54,54,7,6,10,10,0.4,0.4
2025-11-09T2300,3455A,113.076,23.7198,清远市,清城东城,,12,9,10,3,5,38,,50,45,10,8,6,5,0.8,0.8
2025-11-09T2300,2661A,107.6325,35.7357,庆阳市,庆阳五中,颗粒物(PM10),84,117,124,45,40,68,,76,70,21,15,4,5,0.4,0.3
2025-11-09T2300,2662A,107.6364,35.7067,庆阳市,市环保局,颗粒物(PM10),83,116,127,44,36,76,,80,72,17,17,4,4,0.7,0.6
2025-11-09T2300,1916A,103.7897,25.5035,曲靖市,环境监测站,,,11,11,10,6,14,,18,13,16,13,5,4,,0.4
2025-11-09T2300,1917A,103.8,25.5364,曲靖市,烟厂办公区,,11,11,9,3,8,14,,22,15,18,14,4,4,0.6,0.6
2025-11-09T2300,3376A,103.7947,25.462,曲靖市,南苑二区,,11,11,6,7,5,20,,23,16,13,12,4,4,0.7,0.7
2025-11-09T2300,3377A,103.7444,25.5261,曲靖市,曲靖师范学院,,12,,6,8,4,16,,22,12,13,12,1,2,0.5,0.5
2025-11-09T2300,1264A,118.8692,28.9398,衢州市,环保大楼,,13,13,11,8,7,33,,47,38,17,15,4,4,0.6,0.6
2025-11-09T2300,1265A,118.8709,28.9666,衢州市,实验学校,,12,11,8,8,6,28,,46,37,20,16,7,6,0.6,0.6
2025-11-09T2300,1266A,118.8621,28.9808,衢州市,衢州学院,,21,12,10,8,6,7,,45,34,42,16,4,3,0.3,0.3
2025-11-09T2300,1611A,118.5819,24.9117,泉州市,涂山街,,23,19,34,12,17,72,,99,84,8,11,3,4,0.5,0.5
2025-11-09T2300,1612A,118.5972,24.8978,泉州市,津头埔,,22,22,31,15,17,65,,100,84,16,13,3,3,0.4,0.4
2025-11-09T2300,1613A,118.6663,24.9424,泉州市,万安,,24,24,34,11,13,69,,98,84,10,12,3,4,0.5,0.5
2025-11-09T2300,1614A,118.6117,24.9604,泉州市,清源山,,,,24,,13,,,86,,,9,,5,,0.5
2025-11-09T2300,3529A,118.6333,24.9264,泉州市,城华南路,,23,23,29,14,15,62,,84,76,18,14,3,4,0.4,0.4
2025-11-09T2300,2626A,88.8876,29.2718,日喀则市,日喀则监测站,,28,28,31,13,16,80,,87,71,9,26,9,11,0.3,0.5
2025-11-09T2300,3726A,88.8781,29.2426,日喀则市,林业技术推广中心,,30,7,13,3,6,93,,89,89,2,6,6,6,0.2,0.3
2025-11-09T2300,1659A,119.471,35.4209,日照市,监测站,细颗粒物(PM2.5),82,95,75,60,47,16,,79,41,51,41,7,7,0.8,0.8
2025-11-09T2300,1660A,119.523,35.4216,日照市,市政府广场,颗粒物(PM10),67,83,79,38,48,57,,80,66,22,28,9,8,0.8,1
2025-11-09T2300,1661A,119.5587,35.4044,日照市,港务局,细颗粒物(PM2.5),82,88,85,60,66,55,,84,68,29,32,8,8,0.5,0.7
2025-11-09T2300,3507A,119.5328,35.4625,日照市,职业技术学院,颗粒物(PM10),60,70,83,36,49,57,,82,63,23,37,6,5,0.8,0.9
2025-11-09T2300,3604A,119.3266,35.1044,日照市,岚山环保分局,细颗粒物(PM2.5),89,112,97,66,56,48,,78,68,41,36,39,15,2.8,1.6
2025-11-09T2300,1835A,111.1922,34.7752,三门峡市,市政府,颗粒物(PM10),82,114,96,45,39,1,,57,31,57,38,8,10,0.5,0.5
2025-11-09T2300,1836A,111.1587,34.7942,三门峡市,开发区,颗粒物(PM10),100,150,95,47,33,10,,67,42,52,31,5,6,0.4,0.3
2025-11-09T2300,1838A,111.143,34.7955,三门峡市,风景区,颗粒物(PM10),92,134,92,49,32,14,,72,52,44,26,7,8,0.6,0.5
2025-11-09T2300,3039A,111.1911,34.7829,三门峡市,三门峡市第一小学,颗粒物(PM10),88,126,109,33,30,16,,66,45,50,38,11,13,0.4,0.5
2025-11-09T2300,3598A,111.1,34.7167,三门峡市,富达温泉假日酒店,颗粒物(PM10),97,143,113,46,41,22,,63,44,22,23,9,11,0.4,0.4
2025-11-09T2300,2324A,117.6211,26.2625,三明市,三钢,,13,9,15,9,11,35,,36,35,8,9,1,2,0.8,0.8
2025-11-09T2300,2325A,117.635,26.2714,三明市,三明二中,,11,7,13,3,10,34,,34,34,5,6,2,2,0.7,0.7
2025-11-09T2300,2326A,117.6028,26.2378,三明市,三元区政府,,13,10,12,7,12,40,,40,38,7,9,1,2,0.8,1.2
2025-11-09T2300,2327A,117.7275,26.3108,三明市,洋溪,,,,10,,10,,,31,,,7,,10,,1.4
2025-11-09T2300,1876A,109.5078,18.2489,三亚市,河东子站,,15,13,14,8,7,48,,56,55,13,8,4,4,0.4,0.4
2025-11-09T2300,1877A,109.4964,18.2681,三亚市,河西子站,,18,16,17,8,6,55,,59,58,8,8,6,6,0.4,0.4
2025-11-09T2300,3540A,109.7348,18.3443,三亚市,君悦子站,,35,35,18,15,6,79,,62,51,8,8,4,4,0.5,0.4
2025-11-09T2300,2624A,91.7608,29.2313,山南市,山南监测站,,25,6,8,3,4,77,,82,82,1,6,5,5,0.3,0.3
2025-11-09T2300,2625A,91.7706,29.2436,山南市,山南人民医院,,25,10,12,3,6,78,,77,77,1,5,5,5,0.2,0.2
2025-11-09T2300,1674A,116.6794,23.3667,汕头市,金平子站,,40,40,43,19,26,78,,128,87,18,20,5,7,0.7,0.7
2025-11-09T2300,1675A,116.7244,23.3633,汕头市,龙湖子站,,33,33,40,19,21,76,,118,83,13,15,9,11,0.7,0.7
2025-11-09T2300,1676A,116.7258,23.2775,汕头市,濠江子站,,30,30,37,20,22,73,,127,98,8,12,6,8,0.7,0.7
2025-11-09T2300,1677A,116.7519,23.4714,汕头市,澄海子站,,40,40,47,23,28,73,,115,72,17,15,7,9,0.7,0.7
2025-11-09T2300,1678A,116.6092,23.2539,汕头市,潮阳子站,,27,27,36,12,22,81,,135,102,12,15,7,7,0.5,0.5
2025-11-09T2300,3444A,116.454,23.2684,汕头市,潮南峡山,,39,39,46,22,29,80,,113,84,9,12,8,10,0.6,0.7
2025-11-09T2300,3624A,116.4069,23.2533,汕头市,潮南子站,,48,48,56,29,34,68,,104,66,20,17,6,7,0.8,0.7
2025-11-09T2300,1693A,115.3653,22.775,汕尾市,市环保局,,15,11,31,9,20,47,,105,56,6,10,5,6,0.6,0.6
2025-11-09T2300,1694A,115.3706,22.7898,汕尾市,市政府,,16,12,32,3,20,50,,103,58,8,12,7,8,0.6,0.5
2025-11-09T2300,1695A,115.3622,22.7925,汕尾市,新城中学,,16,10,31,10,18,50,,107,57,5,10,7,8,0.7,0.6
2025-11-09T2300,2645A,109.9154,33.8715,商洛市,监测站,颗粒物(PM10),64,78,54,34,27,30,,69,45,35,23,4,4,0.5,0.5
2025-11-09T2300,3045A,109.9643,33.8471,商洛市,商州区中学,颗粒物(PM10),62,73,62,27,21,15,,67,41,38,27,4,5,0.4,0.5
2025-11-09T2300,2408A,115.6702,34.4285,商丘市,环境监测站,细颗粒物(PM2.5),117,137,80,88,61,24,,87,55,58,29,2,2,0.7,0.6
2025-11-09T2300,2409A,115.6458,34.4045,商丘市,粮食局,细颗粒物(PM2.5),102,118,71,76,48,38,,78,57,44,31,4,3,0.9,0.8
2025-11-09T2300,2410A,115.6293,34.3948,商丘市,睢阳区环保局,细颗粒物(PM2.5),112,120,67,84,47,39,,80,63,43,32,2,2,0.7,0.6
2025-11-09T2300,3171A,115.6071,34.4465,商丘市,梁园区档案局,细颗粒物(PM2.5),127,119,68,96,59,15,,75,45,67,34,3,2,0.8,0.7
2025-11-09T2300,1141A,121.4,31.238,上海市,普陀,,48,47,21,33,18,68,,79,79,31,22,8,5,1.4,0.7
2025-11-09T2300,1142A,121.478,31.2036,上海市,十五厂,,43,43,22,28,18,89,,82,82,14,15,8,7,0.6,0.6
2025-11-09T2300,1143A,121.467,31.3008,上海市,虹口,,42,41,20,29,19,83,,79,79,13,13,8,8,0.7,0.4
2025-11-09T2300,1147A,121.425,31.2261,上海市,静安监测站,细颗粒物(PM2.5),52,41,20,36,19,85,,85,85,21,18,6,5,0.6,0.5
2025-11-09T2300,1148A,121.703,31.1907,上海市,浦东川沙,,39,37,22,27,19,77,,80,77,21,18,9,9,0.6,0.6
2025-11-09T2300,1149A,121.533,31.2284,上海市,浦东新区监测站,,38,38,20,23,16,88,,77,77,18,21,6,6,0.6,0.5
