timepoint,stationcode,longitude,latitude,area,positionname,primarypollutant,aqi,pm10,pm10_24h,pm2_5,pm2_5_24h,o3,o3_24h,o3_8h,o3_8h_24h,no2,no2_24h,so2,so2_24h,co,co_24h
2025-11-09T2200,2566A,102.1879,31.914,阿坝藏族羌族自治州,州农科所,,,,,,,,,,,,,,,,
2025-11-09T2200,2568A,102.2502,31.8896,阿坝藏族羌族自治州,马师校,,35,35,20,24,15,2,,48,31,42,20,8,7,0.9,0.8
2025-11-09T2200,3994A,102.2165,31.9024,阿坝藏族羌族自治州,马尔康中学西区,,27,27,15,15,12,13,,59,42,38,17,5,5,0.6,0.5
2025-11-09T2200,2695A,80.292,41.1694,阿克苏地区,电视台,颗粒物(PM10),123,195,188,52,64,42,,72,70,45,43,6,7,1.1,1.7
2025-11-09T2200,2696A,80.2613,41.1551,阿克苏地区,艺术中心,颗粒物(PM10),118,185,148,80,75,9,,79,66,79,37,4,4,1.0,0.7
2025-11-09T2200,2204A,105.6467,38.8363,阿拉善盟,西城区西花园,,,,,,,,,,,,,,,,
2025-11-09T2200,2205A,105.6985,38.8411,阿拉善盟,蒙二幼,,24,24,83,7,24,74,,89,81,9,8,8,8,0.6,0.6
2025-11-09T2200,2206A,105.724,38.8516,阿拉善盟,环保局新楼,,26,6,78,3,24,83,,84,83,4,4,8,8,0.5,0.5
2025-11-09T2200,2708A,88.1264,47.8517,阿勒泰地区,市站,,45,45,25,3,7,56,,60,46,15,21,4,7,0.2,0.2
2025-11-09T2200,2630A,80.1161,32.5,阿里地区,阿里监测站,,20,6,3,3,3,63,,80,78,20,11,15,10,0.6,0.4
2025-11-09T2200,3192A,80.0903,32.5028,阿里地区,阿里藏医院,,28,6,12,3,5,88,,89,89,1,5,8,9,0.3,0.4
2025-11-09T2200,2642A,109.0318,32.6537,安康市,香溪洞,,,,,,,,,,,,,,,,
2025-11-09T2200,2644A,109.0072,32.6975,安康市,汉滨区检察院,颗粒物(PM10),54,58,34,27,18,5,,34,23,29,18,5,5,0.6,0.6
2025-11-09T2200,4054A,109.0325,32.6913,安康市,市邮政管理局,颗粒物(PM10),53,55,39,18,19,12,,36,24,23,20,3,4,0.6,0.7
2025-11-09T2200,2291A,117.0809,30.5177,安庆市,环科院,细颗粒物(PM2.5),55,45,30,39,28,46,,64,54,12,9,3,3,0.6,0.5
2025-11-09T2200,2292A,117.0331,30.5119,安庆市,马山宾馆,细颗粒物(PM2.5),55,42,28,39,26,51,,67,56,14,11,2,2,0.5,0.5
2025-11-09T2200,2294A,116.9896,30.6145,安庆市,安庆大学,细颗粒物(PM2.5),54,48,31,38,25,54,,73,60,12,10,4,4,0.6,0.5
2025-11-09T2200,3173A,117.0598,30.5351,安庆市,市人大,细颗粒物(PM2.5),54,42,30,38,26,50,,67,55,13,11,4,3,0.6,0.5
2025-11-09T2200,3122A,105.9606,26.2611,安顺市,伍家关,,,,12,7,6,53,,57,55,6,7,9,7,0.7,0.7
2025-11-09T2200,3123A,105.9408,26.2431,安顺市,凤凰山,,16,10,8,8,6,51,,56,53,7,8,10,7,0.6,0.5
2025-11-09T2200,3124A,105.9439,26.2564,安顺市,金钟山,,18,11,8,7,6,55,,61,58,5,6,10,9,0.7,0.6
2025-11-09T2200,3125A,105.8983,26.2481,安顺市,娄家坡,,15,12,11,9,7,48,,53,51,8,10,12,15,0.7,0.7
2025-11-09T2200,1818A,114.4839,36.0621,安阳市,棉研所,,,,,,,,,,,,,,,,
2025-11-09T2200,1819A,114.3551,36.1017,安阳市,红庙街,颗粒物(PM10),73,95,78,48,36,21,,66,51,51,32,1,3,0.9,1.5
2025-11-09T2200,1820A,114.361,36.0681,安阳市,银杏小区,颗粒物(PM10),76,101,72,54,34,17,,67,52,50,28,3,3,0.7,1.4
2025-11-09T2200,3141A,114.3922,36.0878,安阳市,信访局,颗粒物(PM10),76,102,70,41,31,23,,68,52,47,27,1,2,0.6,1.1
2025-11-09T2200,3669A,114.4705,36.0637,安阳市,左辅环卫站,颗粒物(PM10),94,137,79,52,24,13,,62,42,58,32,1,2,0.6,0.8
2025-11-09T2200,3703A,114.2917,36.0949,安阳市,安钢职工学校,颗粒物(PM10),84,118,74,57,30,8,,66,50,54,26,2,3,1.2,1.8
2025-11-09T2200,1748A,123.044,41.1196,鞍山市,深沟寺,,20,20,51,7,32,40,,51,44,16,29,10,12,0.6,1.3
2025-11-09T2200,1749A,123.011,41.0931,鞍山市,太阳城,,24,24,52,10,35,37,,54,45,22,27,17,14,0.8,1.1
2025-11-09T2200,1750A,123.0485,41.1442,鞍山市,太平,,17,17,60,6,37,40,,50,42,16,26,12,12,0.7,1.3
2025-11-09T2200,1751A,122.9642,41.0971,鞍山市,铁西三道街,,16,16,56,7,35,37,,52,41,21,32,16,13,1.2,1.3
2025-11-09T2200,1753A,123.022,41.0821,鞍山市,明达新区,,14,14,49,6,32,44,,53,47,14,23,10,12,0.5,1.1
2025-11-09T2200,1754A,123.1289,41.0228,鞍山市,千山,,,,35,,21,,,50,,,14,,5,,0.5
2025-11-09T2200,4201A,122.9446,41.0826,鞍山市,兴盛南路290号,,17,17,62,6,38,43,,53,41,22,36,10,10,0.6,1.1
2025-11-09T2200,2195A,107.4212,40.761,巴彦淖尔市,附二中,,35,35,45,19,21,49,,71,63,19,11,5,5,0.3,0.3
2025-11-09T2200,2196A,107.37,40.7372,巴彦淖尔市,市环保大楼,,37,37,44,18,17,48,,74,63,18,13,8,7,0.3,0.3
2025-11-09T2200,1956A,86.1472,41.7538,巴音郭楞蒙古自治州,孔雀公园,颗粒物(PM10),107,164,134,46,31,4,,71,64,83,51,9,8,1.1,0.6
2025-11-09T2200,1957A,86.1972,41.7166,巴音郭楞蒙古自治州,棉纺厂,颗粒物(PM10),152,253,152,53,24,2,,69,58,87,41,8,7,1.2,0.5
2025-11-09T2200,1958A,86.2357,41.7173,巴音郭楞蒙古自治州,经济开发区,颗粒物(PM10),134,217,127,46,17,1,,64,51,59,28,6,7,0.7,0.6
2025-11-09T2200,2914A,106.7677,31.8794,巴中市,苏山坪,,,,,,,,,,,,,,,,
2025-11-09T2200,3181A,106.7768,31.8526,巴中市,市五中,,17,17,20,8,11,48,,39,39,4,12,8,8,0.6,0.8
2025-11-09T2200,3183A,106.7418,31.8654,巴中市,圣泉水务公司,,16,13,17,9,11,51,,42,42,5,13,8,9,0.7,0.7
2025-11-09T2200,3616A,106.7616,31.8344,巴中市,市中心医院,,16,16,18,6,13,37,,40,40,12,14,10,11,0.6,0.7
2025-11-09T2200,2235A,122.7911,45.6077,白城市,洮北区环保局,,16,16,16,7,7,44,,55,50,5,4,7,4,0.3,0.2
2025-11-09T2200,2236A,122.8738,45.5725,白城市,市环保局,,14,12,15,8,9,42,,54,49,8,5,1,3,0.2,0.2
2025-11-09T2200,2231A,126.4219,41.9171,白山市,喜丰,,40,40,32,6,13,54,,61,60,6,10,7,9,0.5,0.6
2025-11-09T2200,2232A,126.4077,41.9419,白山市,环保局,,29,29,20,8,17,55,,62,60,4,9,5,7,0.6,0.8
2025-11-09T2200,2647A,104.1724,36.5446,白银市,第三小学,颗粒物(PM10),91,131,151,31,52,66,,49,49,14,33,17,36,0.6,0.8
2025-11-09T2200,2648A,104.1465,36.5482,白银市,动力公司,颗粒物(PM10),68,85,132,33,45,63,,65,61,15,26,10,27,0.5,0.7
2025-11-09T2200,2512A,106.6103,23.9011,百色市,市监测站,,7,6,13,3,5,16,,16,16,13,10,7,7,0.7,0.7
2025-11-09T2200,2513A,106.6538,23.8859,百色市,市中心血站,,10,10,19,3,8,12,,12,11,18,17,5,6,0.8,0.8
2025-11-09T2200,3406A,106.6085,23.8798,百色市,祈福高中,,12,12,18,3,9,14,,11,11,12,14,5,5,0.8,0.8
2025-11-09T2200,2270A,117.396,32.939,蚌埠市,工人疗养院,细颗粒物(PM2.5),90,86,98,67,77,63,,90,88,26,21,5,4,0.6,0.6
2025-11-09T2200,2271A,117.3605,32.9427,蚌埠市,百货大楼,细颗粒物(PM2.5),97,75,89,72,82,65,,86,83,30,23,8,7,0.6,0.7
2025-11-09T2200,2273A,117.4185,32.8911,蚌埠市,蚌埠学院,细颗粒物(PM2.5),97,73,72,72,76,43,,88,82,39,19,4,4,0.7,0.7
2025-11-09T2200,2274A,117.3533,32.9673,蚌埠市,淮上区政府,细颗粒物(PM2.5),102,78,88,76,81,63,,90,84,31,24,8,6,0.5,0.6
2025-11-09T2200,2275A,117.3145,32.8977,蚌埠市,高新区,细颗粒物(PM2.5),114,107,91,86,87,7,,75,55,66,33,7,7,0.8,0.7
2025-11-09T2200,3715A,117.3092,32.9314,蚌埠市,蚌埠田家炳中学,细颗粒物(PM2.5),94,113,101,70,75,10,,77,57,72,30,4,4,0.6,0.6
2025-11-09T2200,1585A,109.8756,40.6532,包头市,市环境监测站,,45,45,85,20,22,3,,58,40,65,34,9,17,0.8,1
2025-11-09T2200,1587A,109.9991,40.5842,包头市,包头八中,,50,50,85,18,30,9,,58,37,58,40,7,14,0.6,0.8
2025-11-09T2200,1588A,109.8538,40.6821,包头市,青山宾馆,细颗粒物(PM2.5),84,,70,62,25,2,,58,44,73,30,10,16,0.7,0.9
2025-11-09T2200,1589A,109.8642,40.6288,包头市,惠龙物流,,42,42,78,20,25,2,,61,46,67,35,8,24,0.8,1
2025-11-09T2200,1590A,110.0377,40.5546,包头市,东河鸿龙湾,颗粒物(PM10),53,55,67,18,18,3,,70,44,79,42,5,11,1.0,0.7
2025-11-09T2200,3283A,109.9154,40.5685,包头市,滨河大厦,颗粒物(PM10),53,56,56,23,20,5,,67,47,62,34,13,16,0.7,0.6
2025-11-09T2200,3419A,109.9447,40.6261,包头市,包头市委党校,,46,46,78,17,19,10,,64,43,63,34,8,14,0.7,0.8
2025-11-09T2200,3683A,109.8331,40.6576,包头市,昆区政府,细颗粒物(PM2.5),52,,80,36,27,3,,54,44,75,33,10,21,0.6,1
2025-11-09T2200,1930A,107.185,34.3063,宝鸡市,庙沟村,,,,,,,,,,,,,,,,
2025-11-09T2200,1931A,107.0708,34.3017,宝鸡市,竹园沟,颗粒物(PM10),65,79,62,41,27,30,,85,72,28,20,7,8,0.4,0.3
2025-11-09T2200,1932A,107.1906,34.3672,宝鸡市,三陆医院,细颗粒物(PM2.5),93,113,80,69,38,45,,79,75,49,38,6,7,0.6,0.5
2025-11-09T2200,1933A,107.1431,34.3547,宝鸡市,监测站,细颗粒物(PM2.5),83,100,73,61,42,34,,79,72,36,23,5,5,0.5,0.4
2025-11-09T2200,1934A,107.1186,34.3739,宝鸡市,技工学校,细颗粒物(PM2.5),87,102,75,64,34,54,,81,77,37,23,5,5,0.6,0.4
2025-11-09T2200,1936A,107.2058,34.3497,宝鸡市,文理学院,细颗粒物(PM2.5),100,108,73,75,39,51,,82,79,40,24,6,6,0.6,0.5
2025-11-09T2200,1937A,107.2386,34.3622,宝鸡市,三迪小学,细颗粒物(PM2.5),92,118,80,68,40,45,,78,73,55,37,6,6,0.7,0.6
2025-11-09T2200,4308A,107.3898,34.3601,宝鸡市,陈仓区北开路21号,细颗粒物(PM2.5),98,123,96,73,44,52,,76,71,33,33,7,14,0.6,0.6
2025-11-09T2200,1051A,115.493,38.8632,保定市,游泳馆,颗粒物(PM10),62,73,68,30,27,18,,64,46,50,24,6,3,0.5,0.2
2025-11-09T2200,1052A,115.5213,38.8959,保定市,华电二区,颗粒物(PM10),53,55,57,36,34,27,,66,51,39,23,3,2,0.6,0.5
2025-11-09T2200,1053A,115.4713,38.9108,保定市,接待中心,颗粒物(PM10),55,59,60,29,31,39,,67,54,30,21,5,2,0.4,0.3
2025-11-09T2200,1054A,115.4612,38.8416,保定市,地表水厂,颗粒物(PM10),63,76,73,32,22,23,,65,49,49,30,9,5,0.3,0.3
2025-11-09T2200,3581A,115.31981,38.95208,保定市,满城区生态环境分局,颗粒物(PM10),73,95,74,36,20,16,,68,42,52,26,3,3,0.3,0.3
2025-11-09T2200,3582A,115.47694,38.76408,保定市,清苑区第二中学,颗粒物(PM10),70,90,79,30,23,21,,70,51,44,21,7,3,0.4,0.4
2025-11-09T2200,3583A,115.62909,39.02311,保定市,徐水物探局,颗粒物(PM10),69,88,89,43,42,8,,69,38,63,30,5,5,0.6,0.5
2025-11-09T2200,4004A,115.4202,38.8656,保定市,双鹰农机,颗粒物(PM10),66,81,76,36,32,39,,74,55,35,26,4,2,0.6,0.6
2025-11-09T2200,4034A,115.5150,38.8590,保定市,植保所站,颗粒物(PM10),81,111,82,46,38,6,,62,40,72,28,2,3,1.0,0.8
2025-11-09T2200,2594A,99.1678,25.1081,保山市,市环境监测站,,32,,20,22,16,30,,51,44,6,9,5,4,0.5,0.6
2025-11-09T2200,2595A,99.1711,25.1328,保山市,市环保局,,30,,21,21,15,40,,55,50,3,6,7,7,0.5,0.5
2025-11-09T2200,1866A,109.2262,21.588,北海市,牛尾岭水库,,,,,,,,,,,,,,,,
2025-11-09T2200,1867A,109.1436,21.4086,北海市,海滩公园,,38,38,33,22,14,54,,79,71,11,11,6,8,1.1,0.9
2025-11-09T2200,1868A,109.0981,21.4661,北海市,新市环保局,,40,40,30,27,18,54,,78,71,12,11,8,10,0.7,0.6
2025-11-09T2200,1869A,109.1778,21.5233,北海市,北海工业园,,44,44,36,22,19,49,,67,62,13,14,5,9,0.6,0.4
2025-11-09T2200,3400A,109.1911,21.4415,北海市,龙潭自来水厂,,27,27,26,18,18,48,,79,69,9,7,5,6,0.8,0.5
2025-11-09T2200,1001A,116.3621,39.8784,北京市,万寿西宫,颗粒物(PM10),51,51,33,15,13,26,,64,42,53,27,2,2,0.5,0.4
2025-11-09T2200,1002A,116.2202,40.2915,北京市,定陵,,,,,,,,,,,,,,,,
2025-11-09T2200,1003A,116.4174,39.9289,北京市,东四,,41,41,29,14,14,38,,66,52,29,17,2,2,0.8,0.8
2025-11-09T2200,1004A,116.4072,39.8863,北京市,天坛,,42,42,27,13,13,17,,65,42,34,20,3,1,0.5,0.4
2025-11-09T2200,1005A,116.462,39.9365,北京市,农展馆,,42,42,27,18,11,11,,66,48,52,23,3,4,0.8,0.5
2025-11-09T2200,1006A,116.3392,39.9295,北京市,官园,,42,42,28,12,11,30,,62,50,37,17,1,3,0.4,0.4
2025-11-09T2200,1007A,116.2878,39.9611,北京市,海淀万柳,,19,19,26,3,10,40,,60,44,29,24,4,3,0.3,0.4
2025-11-09T2200,1008A,116.6636,40.135,北京市,顺义新城,,23,23,32,7,14,20,,59,44,38,28,4,4,0.4,0.4
2025-11-09T2200,1009A,116.6275,40.3275,北京市,怀柔镇,,18,8,17,3,9,57,,66,62,5,10,4,4,0.5,0.6
2025-11-09T2200,1010A,116.2296,40.217,北京市,昌平镇,,24,24,27,9,11,31,,60,45,26,21,4,4,0.4,0.3
2025-11-09T2200,1011A,116.3966,39.9821,北京市,奥体中心,,31,31,24,10,10,18,,60,47,52,25,4,4,0.6,0.4
2025-11-09T2200,3281A,115.9718,40.4529,北京市,延庆夏都,,20,20,25,6,5,54,,71,66,16,9,3,2,0.4,0.3
2025-11-09T2200,3418A,116.8336,40.4095,北京市,密云新城,,15,10,19,3,9,45,,64,58,18,20,1,2,0.4,0.4
2025-11-09T2200,3671A,116.088,39.9726,北京市,门头沟三家店,颗粒物(PM10),54,57,35,13,10,5,,66,34,42,19,3,2,0.5,0.4
2025-11-09T2200,3672A,116.1541,39.8204,北京市,丰台云岗,,24,24,35,6,11,51,,62,48,14,18,2,2,0.2,0.3
2025-11-09T2200,3673A,116.6804,39.9081,北京市,通州东关,颗粒物(PM10),53,56,33,14,15,2,,63,40,65,26,3,3,0.7,0.5
2025-11-09T2200,3674A,115.9577,39.7603,北京市,房山燕山,,42,42,45,10,12,42,,51,41,12,14,4,3,0.3,0.3
2025-11-09T2200,3675A,116.4672,39.7733,北京市,大兴旧宫,颗粒物(PM10),52,53,31,13,12,9,,64,46,44,21,2,2,0.5,0.4
2025-11-09T2200,3694A,115.986,40.4563,北京市,延庆石河营,,18,18,24,6,6,45,,66,60,20,14,2,2,0.3,0.2
2025-11-09T2200,3695A,116.6151,40.3053,北京市,怀柔新城,,19,7,17,3,9,58,,69,64,6,8,3,3,0.3,0.4
2025-11-09T2200,3696A,116.2545,39.8768,北京市,丰台小屯,颗粒物(PM10),72,93,34,23,11,1,,60,31,65,19,4,3,0.8,0.4
2025-11-09T2200,3697A,116.84,40.3844,北京市,密云镇,,31,31,26,10,12,5,,62,43,48,22,1,4,0.5,0.4
2025-11-09T2200,4182A,116.1942,39.9158,北京市,八角北路9号,颗粒物(PM10),76,101,41,28,12,3,,57,33,76,27,1,1,0.7,0.3
2025-11-09T2200,4194A,117.0790,40.1518,北京市,洳河巡河路,,15,11,23,3,12,48,,64,60,16,13,2,3,0.3,0.3
2025-11-09T2200,1761A,123.8275,41.3064,本溪市,大峪,,17,17,44,6,29,42,,54,49,14,18,13,10,0.3,0.7
2025-11-09T2200,1762A,123.7567,41.3325,本溪市,溪湖,,30,30,63,8,34,41,,59,53,22,20,13,9,0.5,1
2025-11-09T2200,1763A,123.7169,41.3094,本溪市,彩屯,,21,21,61,8,40,48,,54,52,10,17,8,9,0.5,1
2025-11-09T2200,1764A,123.7669,41.2864,本溪市,东明,,33,33,51,3,34,43,,54,50,15,25,12,11,0.2,0.8
2025-11-09T2200,1765A,123.7992,41.2664,本溪市,新立屯,,28,28,39,6,27,45,,58,52,14,22,10,9,0.3,0.8
2025-11-09T2200,1766A,123.8142,41.3472,本溪市,威宁,颗粒物(PM10),56,61,56,6,25,42,,55,48,19,22,8,7,0.5,0.8
2025-11-09T2200,2587A,105.2864,27.3125,毕节市,八中,,23,,9,16,8,43,,52,48,6,6,6,7,0.6,0.6
2025-11-09T2200,2588A,105.31,27.2944,毕节市,师专,,26,21,9,18,6,40,,55,51,9,7,8,7,0.7,0.7
2025-11-09T2200,4263A,105.3688,27.3598,毕节市,工业大道,,16,12,9,10,6,49,,64,58,5,6,8,8,0.7,0.7
2025-11-09T2200,1629A,118.0018,37.3617,滨州市,第二水厂,颗粒物(PM10),75,100,83,52,43,9,,60,44,61,33,12,7,0.2,0.4
2025-11-09T2200,1630A,117.9776,37.393,滨州市,北中新校,颗粒物(PM10),64,78,78,34,43,1,,62,39,58,35,7,6,0.7,0.3
2025-11-09T2200,3514A,117.9378,37.3956,滨州市,中海酒店,颗粒物(PM10),57,63,72,34,42,5,,60,38,28,18,4,5,0.7,0.5
2025-11-09T2200,3515A,117.9378,37.3553,滨州市,开发区一中,颗粒物(PM10),65,80,87,29,43,13,,70,41,50,32,9,7,0.8,0.8
2025-11-09T2200,3516A,118.0917,37.694,滨州市,金海六路,颗粒物(PM10),65,80,58,29,25,4,,64,37,65,40,5,6,0.5,0.4
2025-11-09T2200,4028A,117.9956,37.3753,滨州市,滨州市西街道办事处,颗粒物(PM10),58,66,82,29,51,4,,64,40,56,32,7,7,0.5,0.5
2025-11-09T2200,2311A,115.8072,33.8399,亳州市,污水处理厂,细颗粒物(PM2.5),103,98,73,77,55,16,,94,78,47,21,51,8,1.0,0.8
2025-11-09T2200,2312A,115.7789,33.8518,亳州市,三国揽胜宫,细颗粒物(PM2.5),97,115,88,72,50,45,,89,75,42,23,14,5,0.8,0.7
2025-11-09T2200,3332A,115.7633,33.8034,亳州市,亳州学院,细颗粒物(PM2.5),88,95,73,65,48,60,,95,84,38,25,10,5,0.9,0.8
2025-11-09T2200,2693A,82.0485,44.8556,博尔塔拉蒙古自治州,市党校,颗粒物(PM10),56,62,38,16,10,14,,51,41,43,18,4,5,0.3,0.2
2025-11-09T2200,2694A,82.0806,44.8969,博尔塔拉蒙古自治州,市环保局,颗粒物(PM10),77,104,50,30,19,7,,45,35,58,25,3,5,1.2,0.5
2025-11-09T2200,1071A,116.8842,38.2991,沧州市,沧县城建局,颗粒物(PM10),91,131,78,60,47,6,,64,38,67,36,7,4,1.3,0.8
2025-11-09T2200,1072A,116.8584,38.3254,沧州市,电视转播站,细颗粒物(PM2.5),77,101,74,56,45,0,,61,38,61,28,3,4,1.0,0.7
2025-11-09T2200,1073A,116.8709,38.3228,沧州市,市环保局,颗粒物(PM10),82,113,79,57,52,5,,62,38,69,33,7,6,0.9,0.5
2025-11-09T2200,3324A,116.8136,38.3004,沧州市,河北水利电力学院,颗粒物(PM10),79,107,76,34,36,8,,65,40,76,38,10,9,0.5,0.5
2025-11-09T2200,2622A,97.1806,31.1273,昌都市,昌都监测站,细颗粒物(PM2.5),69,72,24,50,14,10,,87,69,60,17,5,3,1.2,0.4
2025-11-09T2200,3719A,97.1714,31.1406,昌都市,昌都会议中心,,20,19,12,8,7,64,,89,84,5,4,4,3,0.1,0.1
2025-11-09T2200,2690A,88.1236,43.8886,昌吉回族自治州,天山天池,,,,,,,,,,,,,,,,
2025-11-09T2200,2692A,87.2717,44.0297,昌吉回族自治州,新区政务中心,细颗粒物(PM2.5),113,140,95,85,56,2,,22,14,64,44,8,8,1.3,1.1
2025-11-09T2200,3613A,87.3095,44.0142,昌吉回族自治州,亚心广场,细颗粒物(PM2.5),153,178,120,117,81,3,,26,16,58,41,8,9,1.2,1.1
2025-11-09T2200,1120A,125.2863,43.9027,长春市,客车厂,,41,41,52,16,32,46,,54,49,12,16,6,6,0.4,0.4
2025-11-09T2200,1121A,125.2841,43.8463,长春市,邮电学院,,35,35,54,16,35,40,,51,44,16,20,7,8,0.3,0.4
2025-11-09T2200,1122A,125.3716,43.8772,长春市,劳动公园,,41,41,52,11,25,44,,54,47,13,18,9,10,0.5,0.5
2025-11-09T2200,1123A,125.3297,43.8805,长春市,园林处,,40,40,57,14,31,40,,50,42,14,17,5,6,0.3,0.4
2025-11-09T2200,1124A,125.4605,43.79,长春市,净月潭,,34,34,48,3,21,44,,52,48,12,15,6,6,0.3,0.4
2025-11-09T2200,1125A,125.7194,43.515,长春市,甩湾子,,,,47,,39,,,45,,,10,,4,,0.4
2025-11-09T2200,1126A,125.3863,43.8447,长春市,经开区环卫处,,32,32,47,10,26,40,,48,42,14,21,6,7,0.3,0.4
2025-11-09T2200,1127A,125.245,43.7783,长春市,高新区管委会,,41,41,51,9,30,44,,51,46,10,15,5,6,0.2,0.3
2025-11-09T2200,1128A,125.1761,43.8325,长春市,岱山公园,,44,44,55,12,33,36,,48,39,12,14,6,6,0.2,0.3
2025-11-09T2200,4281A,125.3346,43.9164,长春市,北亚泰大街1068号,,36,36,49,14,29,30,,48,40,25,22,9,7,0.3,0.4
2025-11-09T2200,1335A,113.0833,28.2325,长沙市,经开区环保局,,29,26,15,20,16,59,,64,61,16,12,4,4,0.4,0.5
2025-11-09T2200,1336A,112.8872,28.2189,长沙市,高开区环保局,,38,32,17,26,18,72,,78,75,21,18,5,4,0.4,0.5
2025-11-09T2200,1337A,113.0792,28.2053,长沙市,马坡岭,,24,24,16,13,11,63,,68,66,13,11,4,4,0.5,0.6
2025-11-09T2200,1338A,112.9394,28.19,长沙市,湖南师范大学,,25,25,16,15,11,75,,75,75,11,11,4,5,0.5,0.6
2025-11-09T2200,1339A,113.0178,28.1322,长沙市,雨花区环保局,,32,,15,22,15,62,,67,66,14,12,6,6,0.6,0.6
2025-11-09T2200,1340A,112.9792,28.2597,长沙市,伍家岭,,27,27,18,17,15,66,,69,68,17,15,4,4,0.4,0.4
2025-11-09T2200,1341A,113.0014,28.1944,长沙市,火车新站,,32,28,16,22,14,68,,71,70,18,16,9,8,0.5,0.6
2025-11-09T2200,1342A,112.9844,28.1178,长沙市,天心区环保局,,24,24,16,14,10,72,,75,74,16,15,5,4,0.4,0.5
2025-11-09T2200,1343A,112.8908,28.1308,长沙市,湖南中医药大学,,23,23,16,14,11,70,,73,72,15,12,4,4,0.6,0.6
2025-11-09T2200,1344A,112.9581,28.3611,长沙市,沙坪,,,,,,,,,,,,,,,,
2025-11-09T2200,1727A,113.1147,36.1547,长治市,清华站,颗粒物(PM10),66,82,75,27,29,4,,71,42,54,35,10,10,0.6,0.6
2025-11-09T2200,1730A,113.0886,36.2125,长治市,审计局,颗粒物(PM10),68,86,69,31,32,10,,67,48,54,33,8,8,1.4,0.6
2025-11-09T2200,1731A,113.0844,36.1856,长治市,长治八中,颗粒物(PM10),93,136,92,48,37,1,,66,42,52,30,8,8,0.9,0.6
2025-11-09T2200,2845A,113.1569,36.1911,长治市,德盛苑,,46,46,68,14,28,57,,78,74,18,17,6,5,0.9,0.6
2025-11-09T2200,3568A,113.06,36.0464,长治市,向阳小学,颗粒物(PM10),74,98,100,37,33,34,,83,61,37,27,18,8,0.5,0.6
2025-11-09T2200,3569A,112.8792,36.3144,长治市,屯留一中,颗粒物(PM10),57,63,77,25,30,11,,72,44,46,28,11,10,0.4,0.6
2025-11-09T2200,4189A,113.1131,36.19948,长治市,英华南巷50号,颗粒物(PM10),67,84,81,27,31,21,,70,48,40,30,11,7,2.1,0.8
2025-11-09T2200,4190A,113.2367,36.3344,长治市,学府街1号,颗粒物(PM10),69,87,85,20,32,6,,75,42,51,31,5,10,0.6,0.8
2025-11-09T2200,1854A,111.6975,28.9703,常德市,市二中,,28,28,22,16,14,52,,76,68,18,11,4,4,0.5,0.6
2025-11-09T2200,1857A,111.7158,29.1456,常德市,白鹤山,,,,,,,,,,,,,,,,
2025-11-09T2200,3138A,111.7153,29.0289,常德市,武陵区永安,,29,28,24,20,16,58,,76,70,17,14,4,4,0.6,0.7
2025-11-09T2200,3139A,111.6892,28.9881,常德市,鼎城区玉霞,,35,35,24,18,15,48,,78,67,17,11,4,5,0.4,0.6
2025-11-09T2200,3140A,111.6625,29.0531,常德市,武陵区长庚,,31,31,25,19,16,55,,77,68,14,12,3,3,0.4,0.5
2025-11-09T2200,1196A,119.9633,31.762,常州市,市监测站,颗粒物(PM10),60,70,42,35,20,53,,67,62,28,15,7,6,0.6,0.4
2025-11-09T2200,1200A,119.9468,31.7069,常州市,武进监测站,颗粒物(PM10),64,78,38,32,15,22,,67,51,51,30,8,8,0.8,0.5
2025-11-09T2200,1201A,119.9255,31.9087,常州市,安家,颗粒物(PM10),60,70,40,37,18,28,,65,53,56,25,10,9,0.6,0.5
2025-11-09T2200,3002A,119.9805,31.8174,常州市,行政中心,,,57,31,40,21,,,67,,29,17,7,5,,0.4
2025-11-09T2200,3003A,120.0522,31.7748,常州市,经开区,颗粒物(PM10),57,64,34,36,17,45,,70,58,34,18,9,9,0.9,0.7
2025-11-09T2200,3010A,119.9025,31.7964,常州市,钟楼,颗粒物(PM10),60,70,39,42,23,14,,63,44,61,27,8,8,1.0,0.7
2025-11-09T2200,3429A,119.8598,31.7066,常州市,武进经发区,颗粒物(PM10),58,66,30,36,18,28,,55,42,46,28,7,6,1.0,0.7
2025-11-09T2200,3430A,119.5826,31.7245,常州市,金坛城区,颗粒物(PM10),61,72,27,33,17,51,,62,62,24,16,6,5,0.8,0.7
2025-11-09T2200,2220A,120.4318,41.5881,朝阳市,西梁,,42,37,45,29,17,17,,58,44,38,26,8,6,1.1,0.9
2025-11-09T2200,2221A,120.4521,41.5646,朝阳市,河畔小区,,31,31,42,11,14,38,,58,50,23,21,6,6,0.5,0.5
2025-11-09T2200,2222A,120.4176,41.5648,朝阳市,八里堡,,40,40,57,12,21,25,,58,46,34,31,9,9,0.5,0.6
2025-11-09T2200,2223A,120.3806,41.5969,朝阳市,农业园区,,33,33,22,9,8,25,,63,48,28,10,8,8,0.5,0.4
2025-11-09T2200,1705A,116.6367,23.6719,潮州市,西园路,,,,,,,,,,,,,,,,
2025-11-09T2200,3026A,116.6183,23.6608,潮州市,市政府,,27,27,48,11,26,39,,80,50,5,10,4,7,0.7,1
2025-11-09T2200,4036A,116.6461,23.6761,潮州市,金山,,32,,39,22,30,35,,80,42,6,10,2,3,0.7,0.6
2025-11-09T2200,2472A,113.0073,25.9061,郴州市,马头岭,,,,,,,,,,,,,,,,
2025-11-09T2200,2473A,113.0116,25.8226,郴州市,市职中,,16,16,9,8,6,49,,56,55,8,9,2,2,0.6,0.6
2025-11-09T2200,2475A,113.0383,25.8071,郴州市,市审计局,,15,9,9,8,6,46,,54,53,10,10,3,3,0.4,0.4
2025-11-09T2200,2476A,113.0348,25.7759,郴州市,市环保局,,18,17,13,12,8,45,,51,51,10,10,3,2,0.5,0.5
2025-11-09T2200,4252A,113.0138,25.8011,郴州市,好美居路49号,,17,10,8,3,6,54,,61,60,11,11,3,3,0.7,0.7
2025-11-09T2200,1431A,103.9728,30.7236,成都市,金泉两河,颗粒物(PM10),51,51,54,22,29,39,,57,53,20,29,2,4,0.5,0.7
2025-11-09T2200,1432A,104.176,30.6872,成都市,十里店,,45,45,75,24,44,51,,54,51,13,37,3,4,0.5,0.7
2025-11-09T2200,1433A,104.079,30.5706,成都市,三瓦窑,,48,48,72,31,33,37,,64,56,21,40,3,4,0.5,0.7
2025-11-09T2200,1434A,104.1114,30.63,成都市,沙河铺,细颗粒物(PM2.5),54,40,69,38,51,8,,9,9,20,32,1,2,0.4,0.7
2025-11-09T2200,1437A,104.0786,30.6531,成都市,君平街,颗粒物(PM10),53,56,72,20,39,37,,49,48,18,36,4,5,0.5,0.7
2025-11-09T2200,1438A,103.613,31.0283,成都市,灵岩寺,,,,,,,,,,,,,,,,
2025-11-09T2200,2880A,104.0239,30.65639,成都市,大石西路,,39,39,51,23,38,43,,55,53,21,35,3,3,0.6,0.8
2025-11-09T2200,3136A,104.2725,30.5589,成都市,龙泉驿区区政府,,29,29,36,9,19,37,,41,40,13,24,5,5,0.5,0.6
2025-11-09T2200,3357A,104.0106,30.6931,成都市,金博路,,35,34,56,24,31,47,,56,54,18,33,6,7,0.5,0.7
2025-11-09T2200,3359A,104.0578,30.5225,成都市,华阳,,46,46,61,29,38,33,,55,51,27,38,4,5,0.5,0.6
2025-11-09T2200,3488A,104.3880,30.7467,成都市,青石路225号,,19,13,50,13,25,58,,57,56,9,26,4,6,0.6,0.8
2025-11-09T2200,3489A,104.0789,30.4072,成都市,科学城,,47,47,53,25,30,38,,59,56,13,27,5,4,0.5,0.6
2025-11-09T2200,4011A,103.8506,30.6947,成都市,光华大道三段,,48,48,63,24,33,35,,58,50,25,30,1,1,0.7,0.9
2025-11-09T2200,4224A,104.2433,30.5353,成都市,鲸龙路1057号,,32,32,49,18,30,48,,60,56,9,18,5,5,0.6,0.7
2025-11-09T2200,1062A,117.9531,40.9081,承德市,铁路,,17,17,24,11,8,36,,62,54,22,15,2,3,0.4,0.3
2025-11-09T2200,1063A,117.9392,40.9763,承德市,中国银行,,21,21,27,6,8,48,,59,52,8,18,2,2,0.2,0.3
2025-11-09T2200,1064A,117.9503,40.928,承德市,开发区,,38,38,40,20,16,41,,63,55,13,16,4,4,0.0,0.1
2025-11-09T2200,1066A,117.9268,41.0026,承德市,离宫,,,,,,,,,,,,,,,,
2025-11-09T2200,4274A,117.7994,40.9605,承德市,滨河大街98号,,12,6,22,3,9,36,,59,53,11,11,2,4,0.3,0.3
2025-11-09T2200,2314A,117.47,30.6618,池州市,池州学院,,43,41,22,30,18,32,,46,44,25,17,7,5,0.7,0.6
2025-11-09T2200,3237A,117.4918,30.6617,池州市,展览馆,,42,42,24,27,17,23,,46,42,32,18,6,5,0.7,0.7
2025-11-09T2200,3333A,117.5627,30.695,池州市,第八中学,,38,37,25,26,17,24,,49,43,25,18,7,7,0.8,0.7
2025-11-09T2200,3334A,117.5038,30.6243,池州市,第十二中学,,33,30,20,23,15,26,,47,43,31,21,5,4,1.0,0.8
2025-11-09T2200,1744A,118.9233,42.2816,赤峰市,松山一中,,20,20,14,3,3,39,,61,52,22,13,10,6,0.6,0.3
2025-11-09T2200,1745A,118.9576,42.2728,赤峰市,哈达街,,14,14,16,3,4,40,,53,47,15,12,9,8,0.0,0
2025-11-09T2200,1746A,118.8788,42.2554,赤峰市,天义路,,12,9,10,3,5,37,,54,47,16,11,6,5,0.5,0.4
2025-11-09T2200,3058A,119.2658,42.0353,赤峰市,银河街,,21,21,22,10,7,46,,59,49,6,6,6,7,0.3,0.3
2025-11-09T2200,3286A,118.9359,42.3147,赤峰市,桥北物流园区,,13,10,13,9,7,30,,55,44,23,13,8,8,0.3,0.3
2025-11-09T2200,2521A,107.3476,22.4136,崇左市,市环保局江州分局,,13,13,33,9,17,21,,26,25,5,10,3,2,0.8,0.9
2025-11-09T2200,4256A,107.3750,22.3736,崇左市,石景林东路7号,,16,16,29,11,21,26,,37,32,11,13,6,7,0.8,0.8
2025-11-09T2200,2298A,118.3093,32.3153,滁州市,老年大学,,48,47,46,33,44,36,,71,63,14,9,10,11,0.4,0.3
2025-11-09T2200,2299A,118.3244,32.2786,滁州市,人大宾馆,细颗粒物(PM2.5),64,58,49,46,41,59,,70,68,14,8,5,4,0.5,0.3
2025-11-09T2200,3207A,118.3118,32.3038,滁州市,市政府原办公楼,细颗粒物(PM2.5),65,58,50,47,45,65,,75,73,15,13,5,5,0.6,0.5
2025-11-09T2200,3331A,118.3267,32.2634,滁州市,图书馆,颗粒物(PM10),55,60,48,36,31,62,,73,70,17,14,6,6,0.5,0.4
2025-11-09T2200,2605A,101.5482,25.0441,楚雄彝族自治州,州环境监测站,,8,8,5,3,4,22,,34,25,4,4,6,6,0.6,0.6
2025-11-09T2200,2606A,101.538,25.0492,楚雄彝族自治州,市经济开发区,,9,8,7,6,5,19,,33,24,10,8,6,6,0.8,0.7
2025-11-09T2200,2548A,107.5277,31.2827,达州市,达州职业技术学院,,,,,,,,,,,,,,,,
2025-11-09T2200,2549A,107.5086,31.2186,达州市,市环境监测站,,17,17,15,3,3,13,,17,10,29,25,5,6,0.6,0.6
2025-11-09T2200,2550A,107.4988,31.2132,达州市,凤凰小区,,14,9,14,7,6,16,,22,12,27,24,4,6,0.5,0.5
2025-11-09T2200,2551A,107.5082,31.1986,达州市,达县机关宾馆,,15,,15,8,8,14,,16,11,30,25,3,5,0.6,0.6
2025-11-09T2200,2552A,107.4644,31.2124,达州市,市政中心,,18,18,25,3,5,17,,24,16,26,21,5,6,0.5,0.6
2025-11-09T2200,2614A,100.1542,25.7054,大理白族自治州,大理市环境监测站,,29,,12,20,10,26,,35,32,13,8,6,6,0.5,0.4
2025-11-09T2200,2615A,100.2171,25.5811,大理白族自治州,大理古城,,,29,18,17,12,,,49,,,10,7,7,0.7,0.7
2025-11-09T2200,1109A,121.612,38.9741,大连市,甘井子,,21,21,59,3,31,61,,73,64,17,22,7,7,0.4,0.4
2025-11-09T2200,1110A,121.565,38.9511,大连市,周水子,,23,23,58,3,30,64,,78,64,24,25,4,4,0.3,0.5
2025-11-09T2200,1111A,121.5637,38.8845,大连市,星海三站,,24,24,53,3,30,60,,73,65,10,10,5,5,0.2,0.5
2025-11-09T2200,1112A,121.6302,38.9117,大连市,青泥洼桥,,15,12,61,6,36,47,,63,,26,24,11,10,0.4,0.7
2025-11-09T2200,1113A,121.6251,38.8638,大连市,傅家庄,,23,23,52,6,28,54,,70,63,21,21,12,11,0.5,0.6
2025-11-09T2200,1114A,121.5213,38.8661,大连市,七贤岭,,26,26,57,3,27,62,,74,68,13,15,6,6,0.4,0.6
2025-11-09T2200,1115A,121.2529,38.8061,大连市,旅顺,,21,12,46,3,28,66,,76,71,13,13,8,8,0.3,0.4
2025-11-09T2200,1116A,121.7485,39.1311,大连市,金州,,21,8,53,3,32,66,,73,64,11,22,8,11,0.1,0.4
2025-11-09T2200,1117A,121.7811,39.0496,大连市,开发区,,27,27,61,3,32,55,,66,56,7,18,3,4,0.2,0.5
2025-11-09T2200,1118A,121.9762,39.0631,大连市,双D港,,19,19,46,3,28,58,,78,66,14,15,9,10,0.2,0.5
2025-11-09T2200,1789A,124.81117,46.03138,大庆市,大同区,,19,19,23,10,11,59,,60,58,4,8,10,10,0.3,0.3
2025-11-09T2200,1790A,125.129,46.533,大庆市,龙凤区,,40,,51,28,34,50,,49,45,7,15,6,6,0.4,0.6
2025-11-09T2200,1791A,124.902,46.408,大庆市,红岗区,,31,31,33,12,22,53,,52,52,6,12,5,6,0.4,0.3
2025-11-09T2200,1792A,125.153,46.586,大庆市,萨尔图区,,32,32,39,18,29,55,,57,54,11,17,7,7,0.3,0.3
2025-11-09T2200,1793A,124.9042,46.6215,大庆市,让胡路区,,35,35,40,23,32,52,,52,51,4,10,6,6,0.3,0.4
2025-11-09T2200,3481A,125.141,46.634,大庆市,萨区政府监测点,,34,34,45,17,22,48,,53,51,6,10,9,10,0.2,0.3
2025-11-09T2200,1721A,113.3819,40.1097,大同市,果树场,颗粒物(PM10),69,88,60,41,17,19,,66,38,45,32,11,8,1.2,0.6
2025-11-09T2200,1723A,113.2994,40.0758,大同市,云冈宾馆,,43,43,71,13,12,43,,65,58,26,16,7,6,0.3,0.3
2025-11-09T2200,1724A,113.3444,40.0917,大同市,大同大学,,46,46,64,13,16,35,,68,58,39,20,8,7,0.6,0.5
2025-11-09T2200,1725A,113.2661,40.1269,大同市,安家小村,,26,26,62,13,14,45,,64,57,25,16,7,7,0.3,0.2
2025-11-09T2200,1726A,113.2711,40.0844,大同市,教育学院,,49,49,70,20,15,42,,65,56,30,20,7,6,0.4,0.4
2025-11-09T2200,3282A,113.3397,40.0597,大同市,大同市卫生学校,颗粒物(PM10),56,61,66,21,16,26,,63,52,44,20,7,6,0.7,0.5
2025-11-09T2200,3565A,113.1367,40.1122,大同市,云冈站,颗粒物(PM10),51,51,62,17,15,16,,69,47,35,13,5,5,0.4,0.3
2025-11-09T2200,3566A,113.1186,40.2556,大同市,图书馆,,39,39,74,17,18,39,,68,57,12,13,5,4,0.5,0.4
2025-11-09T2200,3567A,113.5931,40.0461,大同市,区一中,颗粒物(PM10),56,62,78,27,21,18,,64,42,29,21,6,8,0.7,0.4
2025-11-09T2200,4199A,113.2798,40.0997,大同市,魏都大道141号,,48,48,71,16,16,40,,67,55,31,19,6,5,0.6,0.5
2025-11-09T2200,2269A,124.1069,50.4097,大兴安岭地区,科技局,,25,,58,17,42,58,,57,57,2,6,5,4,0.1,0.3
2025-11-09T2200,3663A,124.1164,50.4278,大兴安岭地区,红旗社区,,19,6,39,3,35,59,,57,57,2,11,3,4,0.3,0.4
2025-11-09T2200,1600A,124.3303,40.0625,丹东市,江湾东路,,24,24,53,7,28,44,,53,50,16,24,8,9,0.6,1.2
2025-11-09T2200,1601A,124.4256,40.1503,丹东市,临江后街,,20,20,40,8,24,40,,50,43,19,30,7,7,0.4,0.8
2025-11-09T2200,1602A,124.3933,40.1461,丹东市,元宝山,,17,17,36,10,24,38,,54,51,18,23,9,9,0.6,0.9
2025-11-09T2200,1603A,124.3633,40.1092,丹东市,民主桥,,18,18,47,3,25,46,,50,47,12,28,6,5,0.9,0.9
2025-11-09T2200,3541A,109.5726,19.5167,儋州市,第一中学子站,颗粒物(PM10),56,62,23,31,11,82,,68,68,4,3,7,6,0.4,0.3
2025-11-09T2200,3542A,109.5567,19.5187,儋州市,东坡学校子站,颗粒物(PM10),52,53,18,30,9,86,,73,73,9,5,2,2,0.5,0.3
2025-11-09T2200,2616A,98.5842,24.428,德宏傣族景颇族自治州,德宏州监测站,,45,45,34,26,21,23,,70,60,16,15,7,11,0.8,0.8
2025-11-09T2200,3677A,98.5881,24.4368,德宏傣族景颇族自治州,芒市人民政府综合楼,,31,31,39,15,22,24,,66,58,13,13,6,10,0.8,0.8
2025-11-09T2200,1901A,104.4239,31.1208,德阳市,东山公园,,35,35,44,19,26,52,,66,63,6,19,1,2,0.6,0.7
2025-11-09T2200,1902A,104.3826,31.1317,德阳市,西小区,,45,45,62,20,30,50,,66,63,10,22,1,3,0.6,0.7
2025-11-09T2200,1904A,104.3553,31.1091,德阳市,耐火材料厂,,42,42,59,18,26,49,,68,65,15,24,1,3,0.6,0.7
2025-11-09T2200,3639A,104.4019,31.1244,德阳市,市教育局,,36,36,49,17,22,48,,62,60,8,19,1,2,0.5,0.6
2025-11-09T2200,1622A,116.3032,37.4674,德州市,儿童乐园,颗粒物(PM10),84,117,96,44,45,16,,70,49,77,40,9,10,0.9,0.9
2025-11-09T2200,1624A,116.2991,37.4451,德州市,监理站,颗粒物(PM10),82,114,83,46,40,11,,75,48,82,40,13,13,0.9,0.8
2025-11-09T2200,3066A,116.2721,37.4379,德州市,九衢泉纯净水厂,颗粒物(PM10),93,136,93,48,35,3,,64,34,90,46,11,11,0.8,0.8
2025-11-09T2200,3371A,116.3728,37.4403,德州市,开发区人民医院,颗粒物(PM10),71,92,87,36,37,23,,69,46,70,43,12,13,0.9,0.8
2025-11-09T2200,3511A,116.5652,37.3319,德州市,陵城艺术中心,颗粒物(PM10),103,156,86,75,43,0,,54,33,70,44,14,11,1.3,0.9
2025-11-09T2200,4292A,116.3525,37.4209,德州市,新河东路,颗粒物(PM10),76,102,86,41,38,7,,68,44,92,50,9,9,0.7,0.8
2025-11-09T2200,2621A,99.7056,27.8317,迪庆藏族自治州,迪庆州站,,23,22,24,12,18,71,,79,75,8,11,6,6,0.4,0.4
2025-11-09T2200,3180A,99.7136,27.8094,迪庆藏族自治州,质量技术监督局,,23,14,24,9,11,71,,78,75,10,14,7,7,0.5,0.5
2025-11-09T2200,4257A,104.6092,35.5962,定西市,将台街,颗粒物(PM10),62,73,98,35,32,52,,74,64,14,26,13,11,0.5,0.4
2025-11-09T2200,4309A,104.6159,35.5701,定西市,正龙路62号,颗粒物(PM10),76,102,110,44,40,31,,68,59,32,20,10,6,0.7,0.5
2025-11-09T2200,1389A,113.7547,23.0494,东莞市,莞城梨川,,,11,43,6,24,41,,80,62,11,25,,7,0.6,0.6
2025-11-09T2200,1390A,113.7944,23.0128,东莞市,东城石井,,13,10,35,6,22,41,,78,59,13,26,6,6,0.8,0.7
2025-11-09T2200,1391A,113.7383,22.9658,东莞市,南城西平,,12,11,42,6,25,37,,84,62,19,32,6,7,0.8,0.8
2025-11-09T2200,3319A,113.7338,23.0381,东莞市,万江金泰,,13,12,47,7,27,41,,84,59,10,27,5,6,0.8,0.8
2025-11-09T2200,3626A,113.7533,23.0202,东莞市,南城元岭,,15,6,42,3,24,46,,84,65,6,25,6,7,0.7,0.8
2025-11-09T2200,3627A,113.7875,23.0457,东莞市,东城主山,,15,9,31,3,17,45,,83,61,14,29,4,6,0.7,0.8
2025-11-09T2200,1666A,118.6614,37.4309,东营市,市环保局,颗粒物(PM10),52,53,67,14,33,30,,62,48,42,37,8,6,0.7,0.7
2025-11-09T2200,3036A,118.6904,37.4338,东营市,开发区管委会,颗粒物(PM10),51,51,59,19,38,39,,66,55,37,39,9,6,0.5,0.6
2025-11-09T2200,3365A,118.5719,37.565,东营市,垦利区民丰路,颗粒物(PM10),53,56,65,17,31,2,,64,42,64,38,5,4,0.7,0.7
2025-11-09T2200,3498A,118.5055,37.8612,东营市,河口城区,,46,46,46,20,21,40,,72,57,28,30,6,6,0.5,0.5
2025-11-09T2200,3646A,118.4978,37.4623,东营市,胜利站,颗粒物(PM10),61,72,66,31,37,5,,60,39,68,46,10,8,1.2,0.9
2025-11-09T2200,3734A,118.35,37.26,东营市,理想之城,颗粒物(PM10),52,53,66,19,36,4,,59,36,47,44,2,3,0.5,0.6
2025-11-09T2200,1591A,110.0023,39.8129,鄂尔多斯市,综合楼,,29,29,31,7,6,48,,78,67,27,8,9,7,0.5,0.3
2025-11-09T2200,1592A,109.9486,39.8261,鄂尔多斯市,巴音孟克林场办事处,,29,29,37,17,11,33,,81,58,38,11,6,5,0.8,0.4
2025-11-09T2200,1593A,109.7736,39.5986,鄂尔多斯市,康泽苑,,22,22,44,7,14,39,,82,68,28,11,4,5,0.3,0.2
2025-11-09T2200,1594A,109.8119,39.5989,鄂尔多斯市,华泰汽车城,,22,22,44,12,13,34,,86,62,33,14,5,6,0.3,0.2
2025-11-09T2200,1595A,109.9734,39.7884,鄂尔多斯市,奥林花园,颗粒物(PM10),53,56,45,12,7,7,,80,46,64,25,5,7,0.7,0.5
2025-11-09T2200,2436A,114.8938,30.3994,鄂州市,市政府,细颗粒物(PM2.5),54,38,35,38,31,32,,53,45,32,20,8,8,0.7,0.6
2025-11-09T2200,2437A,114.8989,30.3714,鄂州市,赵家坝,细颗粒物(PM2.5),58,46,33,41,32,25,,54,45,23,13,8,7,1.0,0.8
2025-11-09T2200,3654A,114.8094,30.4089,鄂州市,精准医疗中心,细颗粒物(PM2.5),60,52,38,43,33,28,,57,49,22,10,4,6,0.8,0.7
2025-11-09T2200,2454A,109.4978,30.2981,恩施土家族苗族自治州,湖北民院,,29,28,18,20,9,34,,61,57,9,9,6,6,0.5,0.6
2025-11-09T2200,2455A,109.4707,30.2798,恩施土家族苗族自治州,州电力总公司,,29,29,16,19,10,18,,54,51,18,12,6,5,0.4,0.5
2025-11-09T2200,3549A,109.5061,30.3772,恩施土家族苗族自治州,龙凤新区,,26,26,13,16,7,11,,29,22,7,8,6,6,0.5,0.5
2025-11-09T2200,2499A,108.3411,21.6158,防城港市,沙万,,23,21,42,16,22,40,,64,55,7,16,6,7,0.7,0.7
2025-11-09T2200,2500A,108.3514,21.7731,防城港市,防城档案局,,28,28,34,17,20,36,,50,43,8,11,7,7,0.8,0.8
2025-11-09T2200,2501A,108.3506,21.6414,防城港市,大海花园,,32,,38,22,24,45,,70,61,8,14,4,7,0.6,0.7
2025-11-09T2200,1371A,113.1294,23.0067,佛山市,湾梁,,17,17,34,11,26,2,,89,33,22,27,6,8,1.1,1
2025-11-09T2200,1372A,113.1083,23.0478,佛山市,华材职中,,14,14,33,7,19,38,,92,62,14,23,6,7,0.8,0.8
2025-11-09T2200,1373A,113.144,23.0453,佛山市,南海气象局,,18,16,28,12,22,34,,91,62,15,18,7,9,1.0,0.9
2025-11-09T2200,1374A,113.2881,22.8094,佛山市,顺德苏岗,,25,25,46,9,24,39,,91,68,13,22,8,9,0.7,0.7
2025-11-09T2200,1376A,112.8383,22.8678,佛山市,高明孔堂,,19,19,45,8,23,38,,97,68,13,20,4,8,0.7,0.6
2025-11-09T2200,1377A,112.8836,23.1588,佛山市,三水监测站,,12,12,26,3,14,34,,71,52,17,20,6,7,0.9,0.8
2025-11-09T2200,1378A,112.867,23.185,佛山市,三水云东海,,28,28,37,3,17,33,,71,51,20,25,6,6,0.9,0.9
2025-11-09T2200,3625A,113.2544,22.7642,佛山市,容桂街道办,,14,14,44,7,30,33,,90,68,19,31,7,7,0.8,0.8
2025-11-09T2200,1280A,119.3903,26.0543,福州市,鼓山,,,,20,,8,,,81,,,8,,1,,0.4
2025-11-09T2200,1282A,119.2681,26.0504,福州市,师大,,24,14,29,8,13,76,,93,84,9,15,5,6,0.5,0.5
2025-11-09T2200,1283A,119.2984,26.1028,福州市,五四北路,,22,,27,8,13,69,,85,78,13,16,4,4,0.4,0.5
2025-11-09T2200,1284A,119.2648,26.0768,福州市,杨桥西路,,23,17,28,8,13,73,,93,83,11,16,4,4,0.3,0.3
2025-11-09T2200,1285A,119.317,26.0746,福州市,紫阳,,24,17,31,8,13,74,,88,80,9,17,6,6,0.4,0.4
2025-11-09T2200,3048A,119.5799,26.0936,福州市,九龙,,25,19,23,3,8,80,,93,90,8,9,4,4,0.4,0.5
2025-11-09T2200,3526A,119.5189,25.9664,福州市,吴航,,27,22,22,12,12,84,,94,92,7,8,5,5,0.5,0.5
2025-11-09T2200,1755A,123.7977,41.8491,抚顺市,望花区,,48,48,63,6,35,41,,51,47,14,22,6,10,0.5,0.8
2025-11-09T2200,1756A,123.9161,41.8822,抚顺市,顺城区,颗粒物(PM10),52,53,61,6,37,39,,52,49,17,22,6,8,0.4,0.7
2025-11-09T2200,1757A,124.0436,41.8611,抚顺市,东洲区,,38,38,64,7,35,42,,52,50,12,17,8,8,0.5,0.8
2025-11-09T2200,1758A,123.9247,41.8642,抚顺市,新抚区,,,56,57,7,29,,,53,52,13,18,8,8,0.5,0.9
2025-11-09T2200,1759A,124.0972,41.8961,抚顺市,大伙房水库,,46,46,55,8,36,35,,56,50,23,23,10,10,0.7,0.9
2025-11-09T2200,1760A,123.7086,41.8391,抚顺市,沈抚新城,颗粒物(PM10),51,51,55,6,28,33,,54,46,25,24,6,8,0.3,0.6
2025-11-09T2200,2376A,116.2127,28.0814,抚州市,桐源党溪,,,,,,,,,,,,,,,,
2025-11-09T2200,2377A,116.3544,27.9831,抚州市,市站,,15,11,20,6,10,45,,57,52,7,7,5,4,0.9,0.9
2025-11-09T2200,2378A,116.3565,27.963,抚州市,血防站,,15,15,22,6,12,45,,57,52,9,9,3,2,0.8,0.8
2025-11-09T2200,2379A,116.3564,28.0007,抚州市,采茶剧团,,14,11,22,3,12,43,,56,50,4,4,2,2,0.7,0.7
2025-11-09T2200,2380A,116.385,27.9647,抚州市,医学分院,,17,17,24,3,11,43,,56,50,8,8,4,5,1.1,1.1
2025-11-09T2200,2207A,121.6094,41.998,阜新市,工业园区,,36,36,49,8,22,28,,56,47,24,28,10,10,0.4,0.5
2025-11-09T2200,2208A,121.6697,42.0279,阜新市,长青街,,15,15,34,3,16,40,,54,49,13,24,7,8,0.2,0.4
2025-11-09T2200,2209A,121.6673,42.0705,阜新市,农业园区,,18,18,25,3,6,38,,55,51,13,12,4,7,0.4,0.4
2025-11-09T2200,2210A,121.6717,42.0224,阜新市,东苑,,23,23,42,7,19,47,,58,54,12,24,9,13,0.4,0.5
2025-11-09T2200,2211A,121.6506,42.0498,阜新市,玉龙新城,,28,28,54,7,14,34,,56,50,18,24,8,9,0.4,0.5
2025-11-09T2200,2301A,115.8277,32.8929,阜阳市,市监测站,细颗粒物(PM2.5),103,120,85,77,65,3,,82,43,96,37,7,5,0.9,0.6
2025-11-09T2200,2303A,115.8554,32.8605,阜阳市,开发区,细颗粒物(PM2.5),100,119,88,75,63,28,,88,64,48,27,3,3,0.8,0.5
2025-11-09T2200,2875A,115.784,32.8892,阜阳市,阜阳职业技术学院,,,117,82,,51,12,,91,74,71,23,6,6,0.9,0.6
2025-11-09T2200,3468A,115.7901,32.8613,阜阳市,市规划展馆,细颗粒物(PM2.5),82,95,84,60,58,27,,99,86,45,18,5,5,0.9,0.7
2025-11-09T2200,3469A,115.836,32.9183,阜阳市,枣园社区,细颗粒物(PM2.5),84,95,74,62,55,39,,88,74,58,28,8,7,0.8,0.7
2025-11-09T2200,2669A,102.9099,34.9841,甘南藏族自治州,州政府,细颗粒物(PM2.5),52,41,58,36,32,37,,51,42,11,14,3,3,0.5,0.4
2025-11-09T2200,3380A,102.8914,34.9617,甘南藏族自治州,甘肃民族师范学院,,29,29,56,18,21,40,,50,45,9,18,6,8,0.6,0.5
2025-11-09T2200,2570A,101.9603,30.0475,甘孜藏族自治州,水桥子,,16,10,5,3,4,50,,66,61,15,10,8,8,0.4,0.4
2025-11-09T2200,3065A,101.9533,29.9972,甘孜藏族自治州,州环保局,,15,11,8,6,4,46,,63,59,18,9,5,5,0.4,0.3
2025-11-09T2200,3414A,115.8347,28.932,赣江新区,桑海产业园,,19,19,14,8,10,42,,54,52,18,14,7,8,0.7,0.8
2025-11-09T2200,2362A,114.9017,25.9149,赣州市,通天岩,,23,23,15,14,8,68,,62,62,7,7,27,26,1.6,1.7
2025-11-09T2200,2363A,114.9367,25.8664,赣州市,地委,,30,30,20,14,7,60,,58,58,11,12,5,5,0.9,1
2025-11-09T2200,2364A,114.9461,25.8481,赣州市,气象台,,29,29,23,10,5,62,,56,56,10,13,5,4,0.8,0.9
2025-11-09T2200,2365A,114.9322,25.8333,赣州市,市图书馆,,22,22,13,15,9,64,,60,60,9,9,3,4,0.7,0.8
2025-11-09T2200,2366A,114.8905,25.8471,赣州市,华坚鞋城,,20,20,16,11,6,53,,51,51,10,12,5,4,0.5,0.6
2025-11-09T2200,3109A,115.0093,25.8613,赣州市,赣县区卫计委,,23,18,12,16,9,68,,61,61,4,6,7,7,0.5,0.6
2025-11-09T2200,2683A,106.2319,36.1417,固原市,马园,,,,,,,,,,,,,,,,
2025-11-09T2200,2684A,106.2792,36.0022,固原市,监测站,颗粒物(PM10),67,83,103,26,28,70,,78,75,12,25,5,6,0.5,0.8
2025-11-09T2200,2685A,106.2375,36.0211,固原市,新区,颗粒物(PM10),64,78,101,23,31,68,,76,74,14,30,7,8,0.3,0.6
2025-11-09T2200,3522A,106.2177,35.9959,固原市,原州区十五小,颗粒物(PM10),68,85,106,28,32,70,,80,77,10,19,4,6,0.4,0.6
2025-11-09T2200,2543A,106.6308,30.5278,广安市,小平旧居,,,,,,,,,,,,,,,,
2025-11-09T2200,2544A,106.6303,30.4576,广安市,市委,,19,13,12,13,10,23,,28,21,13,11,3,3,0.7,0.6
2025-11-09T2200,2545A,106.6271,30.4663,广安市,友谊中学,,19,18,14,13,9,27,,32,26,14,10,5,5,0.8,0.7
2025-11-09T2200,2547A,106.6388,30.4551,广安市,广电花园,,20,,12,14,9,21,,25,18,12,11,1,1,0.7,0.6
2025-11-09T2200,2902A,106.6351,30.4865,广安市,北辰小学,,13,10,12,9,9,26,,31,26,10,7,7,7,0.6,0.5
2025-11-09T2200,2523A,105.8945,32.4535,广元市,黑石坡,,,,,,,,,,,,,,,,
2025-11-09T2200,2524A,105.821,32.4444,广元市,老城,,26,21,25,18,16,34,,60,37,21,22,6,3,0.7,0.6
2025-11-09T2200,2526A,105.8628,32.4287,广元市,监测站,,15,15,15,7,10,31,,56,45,21,16,6,3,0.9,0.7
2025-11-09T2200,3617A,105.8047,32.4166,广元市,经开区,,43,43,38,18,15,16,,42,25,25,22,3,2,0.7,0.5
2025-11-09T2200,1345A,113.2347,23.1423,广州市,广雅中学,,27,27,32,13,17,29,,86,58,23,25,6,7,0.5,0.5
2025-11-09T2200,1346A,113.2612,23.105,广州市,市五中,,16,16,28,8,17,45,,110,70,15,24,8,8,0.7,0.7
2025-11-09T2200,1348A,113.3478,23.0916,广州市,广东商学院,,18,18,31,11,18,43,,88,64,9,17,5,6,0.5,0.5
2025-11-09T2200,1349A,113.4332,23.1047,广州市,市八十六中,,18,15,25,12,18,36,,87,63,18,24,6,7,0.6,0.5
2025-11-09T2200,1350A,113.3505,22.9483,广州市,番禺中学,,18,18,38,8,22,43,,92,69,11,19,6,7,0.7,0.7
2025-11-09T2200,1351A,113.2146,23.3916,广州市,花都师范,,13,13,20,6,11,35,,70,51,17,15,6,6,0.9,0.8
2025-11-09T2200,1352A,113.2597,23.1331,广州市,市监测站,,18,18,29,9,16,39,,87,60,14,25,8,8,0.7,0.6
2025-11-09T2200,1353A,113.5618,23.312,广州市,九龙镇镇龙,,14,12,30,8,19,42,,64,50,10,16,6,8,0.7,0.7
2025-11-09T2200,1354A,113.2765,23.1544,广州市,麓湖,,18,18,26,11,18,36,,83,58,14,21,9,9,0.6,0.5
2025-11-09T2200,1355A,113.443,23.3035,广州市,帽峰山森林公园,,,,,,,,,,,,,,,,
2025-11-09T2200,2846A,113.3221,23.1322,广州市,体育西,,20,20,28,14,18,39,,85,59,12,19,8,9,0.7,0.7
2025-11-09T2200,3298A,113.5717,23.5491,广州市,从化街口,,13,10,24,6,17,41,,59,47,9,18,9,12,0.7,0.7
2025-11-09T2200,3299A,113.3472,23.3692,广州市,白云竹料,,15,10,19,6,13,46,,75,55,10,14,8,7,0.8,0.7
2025-11-09T2200,3300A,113.2981,23.237,广州市,白云嘉禾,,15,14,23,10,14,42,,83,56,12,19,8,8,0.8,0.7
2025-11-09T2200,3301A,113.4256,23.1716,广州市,黄埔科学城,,17,17,30,10,19,50,,93,71,8,11,5,6,0.8,0.7
2025-11-09T2200,3302A,113.3942,23.0483,广州市,番禺大学城,,24,24,40,11,21,46,,93,70,8,14,10,11,0.7,0.7
2025-11-09T2200,3303A,113.4922,22.8168,广州市,南沙黄阁,,27,27,38,13,22,28,,91,62,26,28,9,10,0.9,0.7
2025-11-09T2200,3304A,113.5342,22.7896,广州市,南沙街,,29,29,40,15,26,23,,96,65,24,26,10,8,0.8,0.8
2025-11-09T2200,3443A,113.2902,23.5544,广州市,花都梯面,,12,10,16,3,13,38,,57,43,10,11,3,5,0.8,0.7
2025-11-09T2200,3445A,113.7858,23.7478,广州市,从化良口,,16,8,16,3,12,50,,65,56,10,11,8,7,0.9,0.9
2025-11-09T2200,3446A,113.8051,23.2614,广州市,增城荔城,,16,8,30,6,22,50,,66,57,7,13,8,8,0.6,0.5
2025-11-09T2200,2505A,109.568,23.1478,贵港市,德智高中,,,,,,,,,,,,,,,,
2025-11-09T2200,2506A,109.6047,23.0666,贵港市,江南子站,,20,19,28,14,19,38,,60,58,11,14,4,5,0.8,0.9
2025-11-09T2200,2508A,109.5669,23.1065,贵港市,荷城子站,,19,19,22,7,10,37,,57,55,11,12,4,3,0.8,0.7
2025-11-09T2200,3405A,109.5886,23.1172,贵港市,新世纪学校,,24,24,23,13,14,35,,61,58,8,9,4,5,0.7,0.6
2025-11-09T2200,4260A,109.5933,23.0951,贵港市,中山路155-3号,,29,24,26,20,18,38,,62,60,10,11,3,4,0.7,0.6
2025-11-09T2200,1439A,106.6899,26.5998,贵阳市,马鞍山,,11,7,3,3,1,35,,33,33,8,7,3,3,0.6,0.5
2025-11-09T2200,1441A,106.6243,26.6266,贵阳市,鉴湖路,,,22,15,3,0,,,33,32,7,8,4,4,0.5,0.5
2025-11-09T2200,1442A,106.7487,26.6343,贵阳市,燕子冲,,20,,3,14,7,45,,45,45,10,8,4,4,0.6,0.5
2025-11-09T2200,1443A,106.6555,26.4365,贵阳市,碧云窝,,24,24,16,9,2,40,,38,37,12,12,2,2,0.5,0.4
2025-11-09T2200,1445A,106.7109,26.6027,贵阳市,红边门,,17,17,6,9,2,42,,40,40,11,9,4,4,0.7,0.6
2025-11-09T2200,1446A,106.7164,26.5699,贵阳市,新华路,,17,17,13,7,3,52,,50,50,11,9,10,11,0.4,0.5
2025-11-09T2200,1447A,106.674,26.5424,贵阳市,太慈桥,,19,19,7,9,2,36,,37,37,14,11,4,3,0.4,0.3
2025-11-09T2200,1552A,106.805,26.3003,贵阳市,桐木岭,,20,14,19,12,9,62,,58,55,4,5,8,6,0.8,0.8
2025-11-09T2200,4230A,106.6882,26.5695,贵阳市,花果园大街66号,,15,12,4,10,4,40,,38,38,11,9,1,2,0.8,0.7
2025-11-09T2200,4231A,106.6873,26.5169,贵阳市,漓江路57号,,12,12,6,7,4,38,,36,36,12,9,8,7,0.6,0.5
2025-11-09T2200,1862A,110.4144,25.3167,桂林市,电子科大尧山校区,,,,,,,,,,,,,,,,
2025-11-09T2200,1864A,110.3089,25.2708,桂林市,龙隐路小学,,23,6,8,3,2,71,,74,72,7,7,5,5,0.4,0.4
2025-11-09T2200,1865A,110.2869,25.2178,桂林市,八中,,22,6,8,3,2,69,,72,69,7,7,6,6,0.5,0.5
2025-11-09T2200,3531A,110.296,25.1253,桂林市,旅游学院,,25,6,5,3,4,77,,80,78,7,6,4,5,0.3,0.3
2025-11-09T2200,4222A,110.1835,25.2444,桂林市,环湖路276号,,21,12,8,7,8,65,,65,64,9,9,6,6,0.5,0.5
2025-11-09T2200,4301A,110.2803,25.2773,桂林市,信义路13号,,22,,8,10,4,69,,72,70,8,8,6,6,0.6,0.6
2025-11-09T2200,2674A,100.2561,34.4714,果洛藏族自治州,玛沁县大武镇,,49,,74,34,21,85,,88,87,1,3,17,14,0.2,0.3
2025-11-09T2200,1129A,126.5422,45.755,哈尔滨市,岭北,,,,,,,,,,,,,,,,
2025-11-09T2200,1130A,126.561,45.8167,哈尔滨市,松北商大,,28,,31,19,29,36,,48,43,16,12,9,7,0.5,0.5
2025-11-09T2200,1131A,126.979,45.5419,哈尔滨市,阿城会宁,,14,11,38,7,32,43,,49,45,12,14,8,10,0.3,0.4
2025-11-09T2200,1132A,126.599,45.7222,哈尔滨市,南岗学府路,,18,18,38,3,17,45,,49,46,8,10,9,10,0.6,0.6
2025-11-09T2200,1133A,126.689,45.7733,哈尔滨市,太平宏伟公园,,20,15,30,14,26,45,,53,50,11,11,10,7,0.6,0.6
2025-11-09T2200,1134A,126.635,45.7667,哈尔滨市,道外承德广场,,26,26,50,10,22,42,,49,46,12,14,8,8,0.5,0.4
2025-11-09T2200,1135A,126.685,45.7319,哈尔滨市,香坊红旗大街,,17,17,36,7,21,43,,49,47,13,15,10,9,0.4,0.4
2025-11-09T2200,1136A,126.6411,45.7258,哈尔滨市,动力和平路,,16,16,33,7,20,42,,48,45,12,14,4,5,0.4,0.5
2025-11-09T2200,1137A,126.593,45.7478,哈尔滨市,道里建国路,,18,13,29,12,28,43,,49,47,9,12,7,9,0.2,0.2
2025-11-09T2200,1138A,126.615,45.61,哈尔滨市,平房东轻厂,,16,12,28,11,27,39,,45,39,16,18,8,9,0.5,0.5
2025-11-09T2200,1139A,126.595,45.9855,哈尔滨市,呼兰师专,,29,,32,20,30,32,,45,42,13,12,7,8,0.4,0.5
2025-11-09T2200,1140A,126.6206,45.6842,哈尔滨市,省农科院,,22,22,45,11,34,47,,44,43,12,19,9,10,0.4,0.5
2025-11-09T2200,2688A,93.5128,42.8172,哈密市,地区监测站,颗粒物(PM10),66,81,63,32,24,25,,60,53,44,29,9,9,0.4,0.3
2025-11-09T2200,2689A,93.4961,42.8328,哈密市,哈密师范学校,颗粒物(PM10),63,76,49,35,26,11,,54,40,50,33,4,4,1.0,0.6
2025-11-09T2200,2671A,100.9048,36.9639,海北藏族自治州,海晏县西海镇,细颗粒物(PM2.5),67,79,58,48,30,59,,65,64,13,10,15,12,0.7,0.6
2025-11-09T2200,3867A,102.0738,36.5056,海东市,平安区公安北苑,"颗粒物(PM10),细颗粒物(PM2.5)",64,78,108,46,48,68,,71,69,4,10,7,9,0.7,0.7
2025-11-09T2200,1409A,110.576,19.9507,海口市,东寨港,,,,,,,,,,,,,,,,
2025-11-09T2200,1410A,110.3232,20.0574,海口市,海南大学,细颗粒物(PM2.5),67,60,35,48,18,125,,122,122,9,5,7,6,0.5,0.3
2025-11-09T2200,1411A,110.283,20.0053,海口市,秀英海南医院,细颗粒物(PM2.5),58,45,28,41,18,126,,126,126,11,6,8,7,0.4,0.2
2025-11-09T2200,1412A,110.338,19.9969,海口市,海南师范大学,细颗粒物(PM2.5),55,45,28,39,16,127,,129,129,12,7,7,6,0.5,0.4
2025-11-09T2200,1413A,110.33,20.0356,海口市,龙华路环保局宿舍,细颗粒物(PM2.5),53,50,29,37,16,132,,125,125,10,7,8,7,0.5,0.4
2025-11-09T2200,3539A,110.5111,19.9736,海口市,桂林洋子站,颗粒物(PM10),52,54,36,34,18,102,,109,109,14,5,6,6,0.1,0.1
2025-11-09T2200,2673A,100.6188,36.2866,海南藏族自治州,共和县恰卜恰镇,颗粒物(PM10),55,60,66,32,29,66,,73,71,4,14,10,11,0.8,0.5
2025-11-09T2200,2676A,97.3731,37.3753,海西蒙古族藏族自治州,德令哈市,,39,39,50,25,13,58,,76,71,14,6,23,20,0.5,0.4
2025-11-09T2200,1048A,114.5302,36.6116,邯郸市,东污水处理厂,细颗粒物(PM2.5),85,83,89,63,65,9,,63,45,60,34,3,4,0.6,1.8
2025-11-09T2200,1049A,114.4918,36.5713,邯郸市,矿院,细颗粒物(PM2.5),83,76,71,61,55,15,,65,48,52,36,9,6,0.7,1.7
2025-11-09T2200,1050A,114.484,36.6133,邯郸市,丛台公园,细颗粒物(PM2.5),89,92,87,66,56,28,,68,58,45,32,6,8,0.8,1.9
2025-11-09T2200,3458A,114.7895,36.5593,邯郸市,香泉濮院小区,颗粒物(PM10),92,133,67,62,34,35,,64,54,39,25,8,6,0.7,0.9
2025-11-09T2200,3579A,114.50634,36.77178,邯郸市,永年区实验高中,颗粒物(PM10),79,108,70,40,34,7,,56,46,66,34,4,4,0.8,1.4
2025-11-09T2200,3580A,114.20016,36.44293,邯郸市,峰峰矿区临水派出所,细颗粒物(PM2.5),70,69,73,51,46,57,,79,72,30,25,5,8,0.8,1
2025-11-09T2200,2634A,106.9893,33.1842,汉中市,汉川机床厂子校,,,,,,,,,,,,,,,,
2025-11-09T2200,2635A,107.0154,33.0706,汉中市,市监测站,,39,39,43,18,25,29,,47,41,8,20,4,6,0.6,0.7
2025-11-09T2200,2636A,107.0089,33.1138,汉中市,鑫源开发区,,43,43,46,19,24,31,,53,46,13,24,5,7,0.5,0.4
2025-11-09T2200,2637A,107.007,33.0323,汉中市,南郑大河坎水厂,,40,40,40,18,23,18,,42,36,15,18,4,5,0.6,0.7
2025-11-09T2200,1223A,120.2072,30.2111,杭州市,滨江,,49,49,23,24,11,38,,54,37,31,23,6,5,0.6,0.6
2025-11-09T2200,1224A,120.0633,30.2747,杭州市,西溪,,40,32,15,28,11,28,,35,33,28,20,7,7,0.6,0.6
2025-11-09T2200,1226A,120.3417,30.3150,杭州市,下沙,,28,26,18,19,12,28,,50,38,32,21,4,4,0.4,0.5
2025-11-09T2200,1227A,120.1269,30.2456,杭州市,卧龙桥,,42,36,16,29,14,22,,40,29,31,19,8,8,0.5,0.5
2025-11-09T2200,1228A,120.1903,30.2692,杭州市,浙江农大,,43,35,19,30,15,33,,48,34,25,22,6,6,0.3,0.3
2025-11-09T2200,1230A,120.1197,30.3119,杭州市,和睦小学,,35,35,16,20,12,35,,56,41,28,18,8,8,0.8,0.8
2025-11-09T2200,1231A,120.3019,30.4183,杭州市,临平镇,,50,45,23,35,20,38,,52,46,22,16,6,6,0.5,0.5
2025-11-09T2200,1232A,120.2753,30.1839,杭州市,城厢镇,,46,,21,32,16,37,,60,38,36,26,7,6,0.4,0.3
2025-11-09T2200,1233A,120.0883,30.1808,杭州市,云栖,,40,32,16,28,12,44,,42,42,19,14,6,6,0.8,0.8
2025-11-09T2200,3557A,119.9464,30.0494,杭州市,镇二中,,39,39,14,25,7,43,,39,33,19,17,4,4,0.7,0.8
2025-11-09T2200,3558A,119.7183,30.2367,杭州市,市府大楼,,33,,9,23,8,43,,42,41,14,15,8,8,0.5,0.6
2025-11-09T2200,3656A,120.1556,30.2864,杭州市,消防大队,,43,36,16,30,12,36,,53,36,32,24,8,8,0.5,0.5
2025-11-09T2200,1270A,117.1959,31.7848,合肥市,明珠广场,细颗粒物(PM2.5),98,92,86,73,73,48,,58,54,27,18,6,5,0.8,0.8
2025-11-09T2200,1271A,117.3072,31.8764,合肥市,三里街,细颗粒物(PM2.5),85,110,91,63,53,24,,54,47,44,22,6,5,0.8,0.7
2025-11-09T2200,1272A,117.2588,31.8707,合肥市,琥珀山庄,细颗粒物(PM2.5),78,85,84,57,54,39,,61,57,34,21,5,5,0.9,0.7
2025-11-09T2200,1273A,117.1604,31.9052,合肥市,董铺水库,,,,,,,,,,,,,,,,
2025-11-09T2200,1274A,117.25,31.8571,合肥市,长江中路,细颗粒物(PM2.5),100,102,94,75,75,37,,56,52,35,20,5,5,0.8,0.8
2025-11-09T2200,1275A,117.266,31.9436,合肥市,庐阳区,细颗粒物(PM2.5),83,90,95,61,70,35,,62,54,38,24,8,8,0.9,0.8
2025-11-09T2200,1276A,117.3453,31.8616,合肥市,瑶海区,细颗粒物(PM2.5),95,107,90,71,67,27,,49,40,50,28,10,7,0.9,0.8
2025-11-09T2200,1277A,117.3027,31.7964,合肥市,包河区,细颗粒物(PM2.5),122,107,82,92,64,3,,40,22,75,37,9,7,1.0,0.8
2025-11-09T2200,1278A,117.2776,31.7385,合肥市,滨湖新区,细颗粒物(PM2.5),110,105,84,83,71,11,,53,41,58,25,6,5,0.8,0.7
2025-11-09T2200,1279A,117.1318,31.8403,合肥市,高新区,细颗粒物(PM2.5),103,92,93,77,81,63,,65,65,22,18,5,4,0.8,0.8
2025-11-09T2200,3464A,117.3803,31.9147,合肥市,高教基地,颗粒物(PM10),68,85,91,30,43,17,,46,35,23,19,6,7,0.7,0.6
2025-11-09T2200,3614A,79.924,37.0877,和田地区,地区环保局,,,788,393,,174,114,,82,82,89,36,48,15,4.6,1.8
2025-11-09T2200,3615A,79.9131,37.113,和田地区,市环保局,颗粒物(PM10),290,413,417,131,177,28,,84,72,95,52,15,6,5.0,1.8
2025-11-09T2200,2516A,108.2011,24.715,河池市,东仁乐园,,,,,,,,,,,,,,,,
2025-11-09T2200,2517A,108.0497,24.6947,河池市,市环保站,,9,6,7,3,4,27,,33,30,8,7,7,7,0.6,0.6
2025-11-09T2200,2518A,108.0983,24.6989,河池市,市疾控中心,,18,18,9,3,2,23,,30,26,11,12,4,4,0.8,0.8
2025-11-09T2200,1696A,114.6778,23.7569,河源市,源西,,,,,,,,,,,,,,,,
2025-11-09T2200,1697A,114.6944,23.7586,河源市,东埔,,16,,15,10,16,50,,66,61,10,9,4,5,0.7,0.7
2025-11-09T2200,1698A,114.6892,23.7233,河源市,老城,,16,8,18,3,8,50,,66,60,6,8,5,5,0.7,0.7
2025-11-09T2200,1718A,115.4208,35.2464,菏泽市,气象局,细颗粒物(PM2.5),114,163,93,86,55,25,,66,57,65,34,4,3,0.9,0.7
2025-11-09T2200,3374A,115.5564,35.0891,菏泽市,定陶老年大学,细颗粒物(PM2.5),100,132,75,75,46,29,,60,57,37,31,3,3,1.0,0.8
2025-11-09T2200,4184A,115.4797,35.24401,菏泽市,永昌路1号,细颗粒物(PM2.5),107,147,100,80,56,16,,65,54,67,37,3,4,0.9,0.7
2025-11-09T2200,4193A,115.4715,35.2800,菏泽市,长城路999号,颗粒物(PM10),104,157,91,75,49,10,,67,57,66,32,2,3,1.2,0.9
2025-11-09T2200,2514A,111.5264,24.4172,贺州市,环保小区,,18,,11,12,4,51,,58,56,8,9,5,4,0.6,0.7
2025-11-09T2200,2515A,111.5608,24.4078,贺州市,政协大楼,,15,14,12,7,6,45,,52,51,7,8,4,5,0.6,0.8
2025-11-09T2200,3534A,111.4744,24.4553,贺州市,西湾,,15,13,12,10,4,47,,53,52,7,7,5,4,0.8,0.8
2025-11-09T2200,2385A,114.17,35.9019,鹤壁市,市监测站,,,108,74,53,38,,,65,,42,22,2,3,1.0,0.9
2025-11-09T2200,2386A,114.2956,35.7511,鹤壁市,市交警支队,颗粒物(PM10),85,120,74,43,31,1,,57,36,76,40,2,6,0.9,1
2025-11-09T2200,2387A,114.2878,35.7306,鹤壁市,迎宾馆,颗粒物(PM10),92,134,83,54,35,2,,63,41,86,35,5,4,0.7,1
2025-11-09T2200,3474A,114.2617,35.6822,鹤壁市,大新区,颗粒物(PM10),75,100,69,49,28,1,,56,30,70,37,4,5,1.0,1.2
2025-11-09T2200,3596A,114.1572,35.9603,鹤壁市,南山宾馆,颗粒物(PM10),89,127,99,55,40,41,,70,59,35,21,4,4,0.5,0.4
2025-11-09T2200,2244A,130.2537,47.3416,鹤岗市,哈啤分公司,,24,24,49,14,50,69,,61,61,4,18,14,14,0.5,0.7
2025-11-09T2200,2245A,130.2684,47.3086,鹤岗市,斯达机电,,24,18,57,15,40,74,,64,64,6,19,12,14,0.5,0.7
2025-11-09T2200,2246A,130.3114,47.3388,鹤岗市,东山纸板厂,,28,,63,19,44,71,,61,61,7,20,13,14,0.6,0.8
2025-11-09T2200,2247A,130.1097,47.3382,鹤岗市,五号水库,,,,,,,,,,,,,,,,
2025-11-09T2200,2263A,127.4833,50.2524,黑河市,交通局,,23,,63,16,48,64,,59,59,6,19,4,7,0.3,0.4
2025-11-09T2200,2264A,127.5144,50.2341,黑河市,环保局,,19,12,68,12,54,58,,53,53,7,17,3,7,0.3,0.4
2025-11-09T2200,2265A,127.5291,50.2472,黑河市,大黑河岛,,,,,,,,,,,,,,,,
2025-11-09T2200,1074A,115.6838,37.7541,衡水市,电机北厂,颗粒物(PM10),65,80,80,42,45,31,,69,48,44,28,2,4,0.4,0.6
2025-11-09T2200,1075A,115.6303,37.7316,衡水市,市监测站,颗粒物(PM10),63,75,63,33,32,15,,66,42,64,32,8,8,0.3,0.5
2025-11-09T2200,3188A,115.6683,37.7217,衡水市,市城管局,颗粒物(PM10),67,83,76,37,36,30,,65,41,46,30,10,10,0.5,0.6
2025-11-09T2200,3459A,115.5989,37.5491,衡水市,地表水厂,颗粒物(PM10),76,102,80,39,38,2,,66,34,78,38,7,6,0.5,0.7
2025-11-09T2200,2456A,112.5003,26.9167,衡阳市,原169医院,,,,,,,,,,,,,,,,
2025-11-09T2200,2457A,112.6194,26.9258,衡阳市,衡阳化工总厂,,18,6,9,3,4,56,,67,60,17,15,6,6,0.8,0.8
2025-11-09T2200,2458A,112.6211,26.8956,衡阳市,珠晖区环保局,,,9,9,,9,54,,66,60,19,14,9,9,1.1,1.1
2025-11-09T2200,2459A,112.6197,26.8733,衡阳市,市委党校,,20,8,8,3,4,61,,70,65,12,12,3,3,0.8,0.8
2025-11-09T2200,2460A,112.6006,26.8919,衡阳市,市监测站,,20,11,13,9,8,64,,71,68,14,13,4,4,0.9,0.9
2025-11-09T2200,2461A,112.5664,26.9056,衡阳市,真空机电公司,,21,8,7,3,4,65,,73,70,10,9,6,6,0.9,0.9
2025-11-09T2200,3399A,112.6703,26.882,衡阳市,师范学院,,22,13,10,7,5,70,,67,64,12,13,7,7,0.9,0.9
2025-11-09T2200,2608A,103.3772,23.3993,红河哈尼族彝族自治州,污水处理厂,,26,26,15,13,10,41,,46,42,8,8,5,6,0.3,0.3
2025-11-09T2200,2609A,103.3861,23.35,红河哈尼族彝族自治州,监测站,,25,,12,17,9,36,,48,42,8,5,9,6,0.4,0.4
2025-11-09T2200,3038A,103.3758,23.368,红河哈尼族彝族自治州,州图书馆,,17,17,9,3,5,39,,48,44,6,5,3,3,0.5,0.5
2025-11-09T2200,1090A,111.6507,40.7517,呼和浩特市,呼市一监,颗粒物(PM10),60,70,69,40,21,11,,62,45,52,20,5,5,0.9,0.6
2025-11-09T2200,1091A,111.6572,40.8033,呼和浩特市,小召,颗粒物(PM10),71,92,81,42,25,6,,60,45,71,26,10,10,1.1,0.5
2025-11-09T2200,1094A,111.7516,40.8369,呼和浩特市,如意水处理厂,,34,34,71,11,18,2,,57,41,59,21,9,10,0.4,0.4
2025-11-09T2200,1095A,111.7276,40.8062,呼和浩特市,二十九中,颗粒物(PM10),60,70,77,28,20,5,,61,49,62,22,10,11,0.6,0.7
2025-11-09T2200,1096A,111.5512,40.7866,呼和浩特市,工大金川校区,,35,35,86,11,20,4,,54,37,58,29,6,8,0.4,0.4
2025-11-09T2200,1097A,111.717,40.7612,呼和浩特市,化肥厂生活区,颗粒物(PM10),61,72,70,33,20,18,,63,50,55,25,6,6,0.8,0.4
2025-11-09T2200,3698A,111.5968,40.8178,呼和浩特市,红旗小学,,27,27,75,11,20,14,,54,38,52,28,5,8,0.5,0.5
2025-11-09T2200,3699A,111.6518,40.8389,呼和浩特市,海东办,,30,29,73,12,18,5,,62,44,59,23,5,7,0.4,0.3
2025-11-09T2200,3061A,119.7512,49.1577,呼伦贝尔市,国华电力东,,38,38,26,23,15,33,,59,52,26,8,8,7,0.3,0.3
2025-11-09T2200,4279A,119.7569,49.2222,呼伦贝尔市,伊敏大街东7号,,26,21,22,18,17,52,,58,55,5,3,5,5,0.3,0.3
2025-11-09T2200,1250A,120.0751,30.8669,湖州市,城西水厂,颗粒物(PM10),52,54,27,30,15,63,,62,61,21,24,8,7,0.5,0.5
2025-11-09T2200,2873A,120.0830,30.8929,湖州市,仁皇山新区,细颗粒物(PM2.5),64,53,28,46,23,61,,66,64,21,24,6,6,0.7,0.6
2025-11-09T2200,2907A,120.1844,30.8596,湖州市,吴兴区站,细颗粒物(PM2.5),60,55,26,43,19,44,,52,50,30,22,7,6,0.7,0.6
2025-11-09T2200,3562A,120.4148,30.8538,湖州市,南浔区站,颗粒物(PM10),58,65,26,39,16,47,,62,58,29,21,10,8,0.8,0.6
2025-11-09T2200,1607A,120.9049,40.7211,葫芦岛市,龙港区,,34,34,53,8,26,15,,58,29,42,36,14,10,0.4,0.6
2025-11-09T2200,1608A,120.8392,40.7514,葫芦岛市,化工街,颗粒物(PM10),51,51,53,7,23,33,,54,29,22,37,16,20,0.5,0.6
2025-11-09T2200,1609A,120.8341,40.7073,葫芦岛市,新区,,33,33,30,7,12,36,,60,44,22,26,12,7,0.6,0.6
2025-11-09T2200,1610A,120.8695,40.7677,葫芦岛市,东城区,,27,27,45,6,22,41,,61,37,21,37,12,16,0.7,0.7
2025-11-09T2200,2482A,109.5981,27.5721,怀化市,林科所,,,,,,,,,,,,,,,,
2025-11-09T2200,2483A,109.9453,27.5444,怀化市,河西地税局,,22,,8,7,4,68,,68,67,6,7,3,3,0.4,0.5
2025-11-09T2200,2484A,109.9781,27.5342,怀化市,市四医院,,20,10,8,9,4,61,,62,59,5,5,7,8,0.5,0.6
2025-11-09T2200,2485A,109.9972,27.5578,怀化市,监测楼,,20,6,5,6,3,63,,63,60,6,7,2,2,0.2,0.3
2025-11-09T2200,2486A,110.0394,27.583,怀化市,市委党校,,20,8,4,3,4,63,,64,62,8,7,7,7,0.2,0.3
2025-11-09T2200,1210A,119.036,33.5981,淮安市,钵池山,细颗粒物(PM2.5),108,112,75,81,56,50,,84,70,34,27,8,8,0.9,0.8
2025-11-09T2200,1211A,119.007,33.575,淮安市,北京南路,细颗粒物(PM2.5),104,114,73,78,62,7,,79,51,58,25,8,8,1.0,0.7
2025-11-09T2200,1212A,118.989,33.6067,淮安市,市监测站,细颗粒物(PM2.5),119,105,70,90,66,10,,84,53,76,34,6,7,0.9,0.8
2025-11-09T2200,1213A,119.135,33.5039,淮安市,楚州区监测站,细颗粒物(PM2.5),104,115,71,78,59,13,,89,57,67,29,8,9,0.9,0.8
2025-11-09T2200,3426A,118.8755,33.2894,淮安市,新华书店,颗粒物(PM10),79,108,78,46,39,56,,80,75,24,20,7,8,0.9,0.8
2025-11-09T2200,4206A,119.0288,33.6319,淮安市,承德北路606号,细颗粒物(PM2.5),115,134,88,87,61,34,,77,59,44,26,10,8,0.9,0.6
2025-11-09T2200,2282A,116.8004,33.975,淮北市,监测站,颗粒物(PM10),75,99,77,48,57,66,,78,73,32,24,8,8,0.9,0.9
2025-11-09T2200,2283A,116.8091,33.9007,淮北市,烈山区政府,"颗粒物(PM10),细颗粒物(PM2.5)",72,94,92,52,80,27,,86,69,38,28,8,8,0.8,0.7
2025-11-09T2200,3330A,116.8873,33.9836,淮北市,杜集区检察院,细颗粒物(PM2.5),109,99,86,82,81,47,,90,77,31,21,4,4,0.7,0.6
2025-11-09T2200,4017A,116.7923,33.9535,淮北市,市博物馆,颗粒物(PM10),80,110,78,54,48,58,,80,66,36,26,6,6,0.8,0.7
2025-11-09T2200,2277A,116.8305,32.7727,淮南市,潘集区政府,细颗粒物(PM2.5),89,82,88,66,73,58,,88,74,26,17,5,4,0.7,0.7
2025-11-09T2200,2279A,116.8569,32.5951,淮南市,谢家集区政府,细颗粒物(PM2.5),78,76,77,57,62,60,,84,78,18,19,8,8,0.6,0.7
2025-11-09T2200,2280A,116.8281,32.633,淮南市,八公山区政府,细颗粒物(PM2.5),84,76,80,62,67,74,,89,84,15,15,8,7,0.6,0.6
2025-11-09T2200,2281A,116.6325,32.6201,淮南市,焦岗湖风景区管理处,,,,,,,,,,,,,,,,
2025-11-09T2200,2894A,117.0566,32.6531,淮南市,经济技术开发区消防队,细颗粒物(PM2.5),87,90,84,64,72,59,,82,77,24,20,6,5,0.4,0.4
2025-11-09T2200,3329A,117.0108,32.5893,淮南市,山南新区,细颗粒物(PM2.5),70,70,78,51,56,80,,89,88,20,23,4,4,0.4,0.5
2025-11-09T2200,4209A,117.0031,32.6445,淮南市,国庆中路369号,,,92,92,60,64,,,78,78,32,19,15,13,0.7,0.7
2025-11-09T2200,2446A,114.9028,30.4742,黄冈市,职工中心,,43,40,35,30,28,50,,62,58,17,12,4,4,0.4,0.4
2025-11-09T2200,2929A,114.8858,30.4519,黄冈市,红卫路,,43,37,35,30,27,34,,57,49,28,12,5,5,0.5,0.5
2025-11-09T2200,3398A,114.9136,30.4445,黄冈市,市林业局,,50,42,34,35,29,51,,60,58,18,12,5,4,0.5,0.5
2025-11-09T2200,2672A,102.0199,35.5102,黄南藏族自治州,同仁县隆务镇,颗粒物(PM10),78,106,103,43,42,56,,55,55,8,7,11,10,0.5,0.4
2025-11-09T2200,2295A,118.2903,29.6963,黄山市,延安路89号,,10,9,9,7,6,29,,58,37,11,8,3,3,0.7,0.6
2025-11-09T2200,2297A,118.1371,30.2756,黄山市,黄山区政府5号楼,,18,,11,12,12,28,,48,30,8,7,5,5,0.8,0.7
2025-11-09T2200,4210A,118.3354,29.7203,黄山市,滨江东路7-2号,,18,18,17,8,10,24,,56,33,13,9,3,3,0.7,0.6
2025-11-09T2200,2423A,115.0601,30.2313,黄石市,沈家营,,48,48,52,27,21,34,,43,37,6,6,9,7,0.6,0.5
2025-11-09T2200,2426A,114.8988,30.2019,黄石市,铁山,细颗粒物(PM2.5),54,,36,38,28,21,,41,33,32,18,6,6,0.4,0.5
2025-11-09T2200,2427A,115.0307,30.2092,黄石市,团城山,,46,46,37,30,23,26,,32,28,13,10,6,7,0.8,0.6
2025-11-09T2200,3149A,115.0235,30.1578,黄石市,笔架山北路,颗粒物(PM10),58,66,52,34,25,20,,44,35,22,12,4,4,1.1,0.8
2025-11-09T2200,4185A,115.0780,30.21118,黄石市,磁湖东路29号,颗粒物(PM10),51,52,40,31,28,41,,44,42,9,8,8,8,0.5,0.5
2025-11-09T2200,1392A,114.4183,23.0528,惠州市,河南岸金山湖子站,,16,10,33,3,17,51,,61,56,12,21,12,10,0.7,0.7
2025-11-09T2200,1393A,114.4053,23.0822,惠州市,下埔横江三路子站,,20,11,35,6,19,64,,84,76,7,12,5,6,0.9,0.9
2025-11-09T2200,1394A,114.4103,23.1142,惠州市,江北云山西路子站,,17,10,33,6,18,52,,72,64,10,16,6,6,0.6,0.6
2025-11-09T2200,1395A,114.4645,22.7833,惠州市,惠阳区承修路船湖子站,,18,10,36,6,19,56,,69,63,12,20,9,9,0.8,0.8
2025-11-09T2200,1396A,114.5317,22.7422,惠州市,大亚湾管委会子站,,18,13,34,8,19,55,,70,63,8,18,12,12,0.6,0.5
2025-11-09T2200,3314A,114.4338,22.8134,惠州市,惠阳秋长,,20,12,34,6,19,61,,72,67,7,17,13,13,0.7,0.7
2025-11-09T2200,3452A,114.6517,22.775,惠州市,大亚湾霞涌,,16,10,31,9,21,51,,79,66,8,13,10,10,0.7,0.6
2025-11-09T2200,2240A,130.9762,45.3001,鸡西市,环保局,,23,23,31,11,24,47,,52,50,6,21,6,7,0.6,0.7
2025-11-09T2200,2243A,130.9429,45.3039,鸡西市,第一中学,,35,35,24,10,19,47,,54,52,5,10,5,6,0.4,0.5
2025-11-09T2200,3707A,131.0207,45.3073,鸡西市,欧美日汽修厂,,24,24,40,10,28,42,,50,46,9,21,7,12,0.5,0.7
2025-11-09T2200,3709A,130.9967,45.3106,鸡西市,市政设施管理处,,28,28,42,7,30,46,,62,56,16,25,8,10,0.6,0.9
2025-11-09T2200,2367A,114.9754,27.0803,吉安市,红声器材厂,,20,14,19,9,7,61,,72,69,18,16,6,7,0.5,0.7
2025-11-09T2200,2368A,114.9658,27.0999,吉安市,市森林工业局,,18,17,19,10,10,57,,67,64,14,15,6,7,0.5,0.6
2025-11-09T2200,2369A,114.99,27.1312,吉安市,市环境监测站,,19,9,22,3,12,60,,68,64,12,12,10,13,0.5,0.6
2025-11-09T2200,2370A,115.0093,27.0968,吉安市,青原区法院,,17,17,18,7,10,50,,70,66,19,14,10,9,0.6,0.7
2025-11-09T2200,1772A,126.54,43.8622,吉林市,哈达湾,,27,27,36,11,25,53,,55,52,5,10,6,10,0.4,0.5
2025-11-09T2200,1773A,126.5844,43.8358,吉林市,东局子,,29,29,32,6,22,50,,52,50,6,10,8,7,0.4,0.6
2025-11-09T2200,1774A,126.5052,43.8245,吉林市,电力学院,,19,19,33,10,27,52,,53,51,4,10,6,7,0.4,0.5
2025-11-09T2200,1775A,126.6133,43.8972,吉林市,江北,,26,26,37,9,23,42,,51,46,14,15,10,6,0.4,0.5
2025-11-09T2200,1776A,126.555,43.8306,吉林市,江南公园,,19,19,31,8,26,52,,53,51,5,9,4,5,0.3,0.4
2025-11-09T2200,1778A,126.7061,43.7133,吉林市,丰满,,,,34,,38,,,92,,,9,,8,,0.5
2025-11-09T2200,2868A,126.4739,43.953,吉林市,九站,,20,20,34,11,27,40,,48,43,13,16,3,4,0.3,0.4
2025-11-09T2200,1299A,116.9862,36.6114,济南市,科干所,颗粒物(PM10),58,66,65,24,34,22,,68,52,55,29,8,8,0.5,0.5
2025-11-09T2200,1300A,116.9376,36.665,济南市,农科所,颗粒物(PM10),69,88,73,34,30,3,,55,35,68,38,8,7,1.2,0.9
2025-11-09T2200,1301A,117.1265,36.6734,济南市,开发区,颗粒物(PM10),63,76,76,37,40,10,,64,43,59,29,3,4,0.7,0.7
2025-11-09T2200,1303A,117.0624,36.6868,济南市,省种子仓库,颗粒物(PM10),78,105,84,34,40,8,,66,44,63,35,6,6,0.8,0.7
2025-11-09T2200,1304A,116.9489,36.6447,济南市,机床二厂,颗粒物(PM10),78,105,79,44,42,3,,57,38,76,36,10,9,0.7,0.4
2025-11-09T2200,1305A,117.0495,36.663,济南市,市监测站,颗粒物(PM10),61,71,77,29,41,20,,63,45,50,31,3,3,0.9,0.9
2025-11-09T2200,1306A,116.7675,36.5484,济南市,长清党校,颗粒物(PM10),61,71,71,27,31,24,,62,53,53,35,6,6,0.6,0.6
2025-11-09T2200,1616A,117.6795,36.229,济南市,技术学院,颗粒物(PM10),68,85,69,39,36,16,,73,62,57,33,9,9,0.6,0.8
2025-11-09T2200,1961A,117.532,36.6868,济南市,东山小学,颗粒物(PM10),61,71,85,32,42,8,,65,43,53,34,6,7,0.4,0.6
2025-11-09T2200,3059A,117.7161,36.2049,济南市,泰兴公司,颗粒物(PM10),74,97,77,41,40,7,,73,56,63,34,8,8,0.5,0.9
2025-11-09T2200,3064A,117.6867,36.2171,济南市,莱芜战役纪念馆,颗粒物(PM10),73,95,77,48,43,16,,76,64,53,32,8,10,0.6,1
2025-11-09T2200,3494A,117.1673,36.9782,济南市,济阳区政府,颗粒物(PM10),74,98,86,27,43,18,,64,51,72,36,8,8,0.5,0.7
2025-11-09T2200,3495A,117.1171,36.63,济南市,锦屏中学,颗粒物(PM10),51,51,67,20,27,42,,65,51,22,21,2,3,0.9,0.9
2025-11-09T2200,3682A,116.9814,36.6819,济南市,济南四建,颗粒物(PM10),70,90,72,37,40,3,,58,36,68,25,5,6,1.0,0.8
2025-11-09T2200,1653A,116.6251,35.4302,济宁市,火炬城,细颗粒物(PM2.5),73,78,75,53,65,28,,66,52,38,28,9,7,0.3,0.5
2025-11-09T2200,1655A,116.5491,35.4042,济宁市,电化厂,颗粒物(PM10),86,121,103,46,59,29,,57,45,50,41,8,5,0.4,0.5
2025-11-09T2200,3500A,116.5814,35.3707,济宁市,北湖一中,细颗粒物(PM2.5),72,83,72,52,65,32,,61,51,37,30,8,6,0.5,0.6
2025-11-09T2200,3501A,116.8249,35.5593,济宁市,服务中心,颗粒物(PM10),76,101,68,43,40,23,,66,52,37,27,9,7,0.7,0.6
2025-11-09T2200,3678A,116.5907,35.4054,济宁市,市第七中学,细颗粒物(PM2.5),73,91,77,53,59,26,,64,52,48,34,12,10,0.8,0.7
2025-11-09T2200,2255A,130.2751,46.8028,佳木斯市,佳纺,,32,32,60,17,43,33,,47,33,20,19,9,5,0.5,0.5
2025-11-09T2200,2256A,130.3995,46.8307,佳木斯市,发电厂,,19,17,43,13,42,48,,50,47,8,16,6,6,0.5,0.6
2025-11-09T2200,2257A,130.3258,46.7975,佳木斯市,环保局,,32,28,50,22,49,35,,52,40,20,20,6,5,0.4,0.5
2025-11-09T2200,2258A,130.3648,46.8032,佳木斯市,十一中,,28,28,48,18,47,39,,45,38,15,21,8,7,0.5,0.6
2025-11-09T2200,2259A,130.3794,46.7588,佳木斯市,四丰,,,,,,,,,,,,,,,,
2025-11-09T2200,1252A,120.7436,30.778,嘉兴市,清河小学,,40,40,17,26,12,46,,64,58,27,18,8,7,0.4,0.4
2025-11-09T2200,1253A,120.726,30.7478,嘉兴市,嘉兴学院,,40,36,18,28,13,46,,63,57,27,20,6,5,0.5,0.5
2025-11-09T2200,2872A,120.7846,30.7525,嘉兴市,南湖区残联,,42,39,17,29,14,44,,66,58,25,17,6,5,0.7,0.7
2025-11-09T2200,3407A,120.6916,30.7739,嘉兴市,秀洲住建,,41,41,18,26,13,48,,70,62,24,21,9,8,0.6,0.6
2025-11-09T2200,1945A,98.2908,39.7711,嘉峪关市,气象局,颗粒物(PM10),71,92,87,34,30,26,,76,58,45,27,12,12,1.0,0.9
2025-11-09T2200,2884A,98.2672,39.7978,嘉峪关市,酒钢宾馆,颗粒物(PM10),78,105,114,34,34,26,,63,53,34,25,20,40,0.9,1.1
2025-11-09T2200,3248A,98.2643,39.7724,嘉峪关市,雄关区,颗粒物(PM10),64,77,74,33,29,19,,69,53,48,30,21,22,0.8,0.7
2025-11-09T2200,1383A,113.1064,22.6058,江门市,北街,,18,18,44,10,26,35,,130,92,20,25,6,7,0.8,0.8
2025-11-09T2200,1384A,113.0731,22.5835,江门市,西区,,21,21,41,12,24,29,,126,88,27,30,6,7,0.9,0.8
2025-11-09T2200,1385A,113.0219,22.5311,江门市,圭峰西,,16,15,41,11,27,32,,129,94,21,23,5,6,0.7,0.6
2025-11-09T2200,1386A,113.0828,22.5947,江门市,东湖,,19,18,42,13,30,28,,122,86,22,25,7,8,0.6,0.5
2025-11-09T2200,3311A,113.1075,22.5647,江门市,江海富民,,30,30,53,7,22,32,,135,97,25,28,9,10,0.8,0.6
2025-11-09T2200,3449A,113.05,22.4667,江门市,新会银湖,,26,26,40,12,23,24,,127,91,27,24,5,5,0.9,0.7
2025-11-09T2200,1830A,113.1992,35.2590,焦作市,影视城,,,,95,,33,,,69,,,21,,15,,0.8
2025-11-09T2200,3335A,113.3137,35.2641,焦作市,马村街道办,细颗粒物(PM2.5),102,139,110,76,52,52,,82,66,30,28,6,6,0.8,0.7
2025-11-09T2200,3336A,113.2465,35.2373,焦作市,焦作技师学院,颗粒物(PM10),95,139,108,68,45,40,,74,62,41,30,6,6,0.8,0.8
2025-11-09T2200,3477A,113.1656,35.2539,焦作市,中站许衡医院,细颗粒物(PM2.5),105,143,105,79,44,55,,79,72,34,24,10,11,0.7,0.7
2025-11-09T2200,3981A,113.2449,35.1803,焦作市,原李万街道办,颗粒物(PM10),109,168,118,61,41,52,,77,66,29,26,10,9,0.7,0.6
2025-11-09T2200,4264A,113.2340,35.2190,焦作市,新安路1731号,颗粒物(PM10),100,150,118,74,48,48,,80,68,34,26,10,10,1.0,0.9
2025-11-09T2200,4295A,113.2722,35.2121,焦作市,人民路3066号,颗粒物(PM10),98,146,114,52,40,47,,75,62,28,29,6,6,1.0,0.8
2025-11-09T2200,1708A,116.3701,23.5345,揭阳市,新兴,,32,,55,22,36,37,,79,48,13,24,8,8,0.7,0.7
2025-11-09T2200,1709A,116.3264,23.5443,揭阳市,西马,,29,29,54,11,29,30,,70,41,15,22,4,6,0.8,0.8
2025-11-09T2200,1710A,116.3611,23.5626,揭阳市,东兴,,20,17,52,14,33,34,,78,43,11,25,5,7,0.5,0.6
2025-11-09T2200,1711A,116.4151,23.5294,揭阳市,渔湖,,16,16,54,10,30,32,,97,62,16,22,6,8,0.8,0.8
2025-11-09T2200,3320A,116.403,23.5699,揭阳市,曲溪,,20,,48,14,31,42,,96,63,8,21,1,6,0.6,0.6
2025-11-09T2200,1944A,102.1692,38.5167,金昌市,天庆家园,颗粒物(PM10),112,173,211,53,66,54,,70,59,22,23,2,15,0.6,0.9
2025-11-09T2200,4022A,102.1647,38.5371,金昌市,金川区人防中心,颗粒物(PM10),108,166,195,57,67,60,,75,65,19,16,4,17,0.8,0.9
2025-11-09T2200,4239A,102.1930,38.5319,金昌市,长春路96号,颗粒物(PM10),108,166,210,56,66,57,,76,69,23,18,15,17,0.9,0.8
2025-11-09T2200,1262A,119.647,29.077,金华市,十五中,,20,20,17,9,7,28,,47,29,25,22,2,2,0.5,0.6
2025-11-09T2200,1263A,119.686,29.1029,金华市,监测站,,19,19,15,12,9,33,,49,32,29,27,2,2,0.5,0.6
2025-11-09T2200,3659A,119.656,29.1131,金华市,气象局,,19,16,12,10,9,17,,33,22,37,28,3,3,0.7,0.8
2025-11-09T2200,1767A,121.1115,41.0879,锦州市,南山,,23,23,47,3,27,47,,62,56,16,27,6,8,0.5,0.8
2025-11-09T2200,1768A,121.0604,40.8428,锦州市,开发区,,28,28,59,13,26,30,,56,31,27,47,10,22,0.5,0.7
2025-11-09T2200,1769A,121.1836,41.1119,锦州市,百股街道,,20,20,47,3,27,50,,62,53,8,23,6,8,0.4,0.8
2025-11-09T2200,1770A,121.1178,41.1222,锦州市,天安街道,,21,21,46,9,25,48,,66,60,13,19,7,10,0.4,0.7
2025-11-09T2200,1771A,121.1303,41.1386,锦州市,北湖公园,,31,31,42,3,20,53,,62,57,8,19,6,9,0.4,0.7
2025-11-09T2200,2160A,112.85,35.5051,晋城市,自来水公司,颗粒物(PM10),68,86,93,19,25,23,,69,57,47,27,6,7,0.8,0.7
2025-11-09T2200,2161A,112.8318,35.4936,晋城市,白云商贸,颗粒物(PM10),59,68,103,12,17,11,,73,53,56,28,2,3,0.8,0.6
2025-11-09T2200,2162A,112.8508,35.4887,晋城市,市环保局,颗粒物(PM10),62,74,97,14,25,6,,71,49,32,27,4,5,1.0,0.7
2025-11-09T2200,2163A,112.8676,35.4897,晋城市,技术学院,颗粒物(PM10),61,72,87,22,23,4,,67,46,70,30,4,5,0.9,0.7
2025-11-09T2200,2165A,112.8453,35.546,晋城市,白马寺,,48,48,76,19,33,77,,84,83,10,12,8,8,0.2,0.4
2025-11-09T2200,3620A,112.8271,35.4828,晋城市,泽州一中,颗粒物(PM10),60,70,94,19,26,26,,82,64,50,23,3,3,0.4,0.4
2025-11-09T2200,2173A,112.7249,37.7067,晋中市,南都小区,颗粒物(PM10),57,64,82,24,27,16,,72,54,61,29,11,11,0.4,0.4
2025-11-09T2200,2174A,112.6991,37.6982,晋中市,榆次区政府,颗粒物(PM10),71,92,94,27,31,8,,72,53,69,32,12,12,0.2,0.3
2025-11-09T2200,2865A,112.7195,37.6828,晋中市,榆次三中,颗粒物(PM10),60,70,111,17,30,15,,68,56,55,30,12,17,0.3,0.5
2025-11-09T2200,4200A,112.7478,37.6954,晋中市,迎宾街26号,颗粒物(PM10),57,63,96,19,27,11,,74,59,63,28,11,12,0.6,0.7
2025-11-09T2200,2439A,112.2014,31.0481,荆门市,竹园小学,颗粒物(PM10),67,83,60,30,34,20,,62,45,47,30,1,1,0.4,0.4
2025-11-09T2200,2440A,112.1969,30.9891,荆门市,掇刀,颗粒物(PM10),69,87,58,28,32,56,,84,71,32,19,1,1,0.5,0.6
2025-11-09T2200,2441A,112.2213,31.0386,荆门市,石化一小,颗粒物(PM10),87,124,67,43,37,15,,63,46,54,26,3,4,0.4,0.2
2025-11-09T2200,3012A,112.1849,31.0362,荆门市,西山林语,颗粒物(PM10),58,65,56,25,27,32,,63,50,19,15,5,5,0.8,0.7
2025-11-09T2200,3547A,112.1632,31.0138,荆门市,龙泉中学南校,颗粒物(PM10),66,81,51,30,25,42,,72,58,23,21,6,7,0.2,0.4
2025-11-09T2200,1844A,112.2494,30.3197,荆州市,市图书馆,,36,29,30,25,21,30,,71,42,28,23,5,5,0.8,0.8
2025-11-09T2200,1845A,112.2008,30.3544,荆州市,市委党校,,50,42,36,35,23,22,,63,37,29,24,6,6,0.8,0.8
2025-11-09T2200,3194A,112.2747,30.3122,荆州市,管委会,,49,40,32,34,23,24,,65,37,31,21,6,6,0.7,0.7
2025-11-09T2200,4268A,112.1722,30.3366,荆州市,学苑路85号,,45,35,32,31,27,28,,74,47,22,19,4,5,0.5,0.5
2025-11-09T2200,2342A,117.3102,29.3867,景德镇市,王港中学,,,,,,,,,,,,,,,,
2025-11-09T2200,2343A,117.2117,29.2933,景德镇市,老干部活动中心,,11,11,14,6,6,28,,41,34,2,2,4,4,0.6,0.7
2025-11-09T2200,2344A,117.1894,29.2789,景德镇市,兽医站,,25,25,19,3,4,33,,49,41,8,7,6,6,0.8,0.7
2025-11-09T2200,2346A,117.2461,29.2956,景德镇市,陶研所,,11,,6,6,7,33,,46,40,4,2,6,6,0.4,0.3
2025-11-09T2200,4289A,117.1542,29.2566,景德镇市,青少年活动中心,,16,,8,11,6,32,,50,41,8,7,3,3,0.7,0.6
2025-11-09T2200,1803A,115.9872,29.6815,九江市,十里,,33,27,20,23,21,60,,59,59,15,16,4,4,0.9,1
2025-11-09T2200,1804A,115.9584,29.7046,九江市,茅山头,,40,40,25,28,21,48,,48,48,17,17,4,5,0.7,0.7
2025-11-09T2200,1805A,115.9877,29.7295,九江市,西园,,34,34,23,20,16,57,,58,58,25,27,3,3,0.7,0.8
2025-11-09T2200,1808A,115.9114,29.6038,九江市,综合工业园,,35,,18,24,17,48,,45,42,25,26,2,2,0.5,0.6
2025-11-09T2200,1809A,116.0721,29.7535,九江市,石化总厂,细颗粒物(PM2.5),52,,23,36,23,52,,58,58,19,18,4,4,0.6,0.7
2025-11-09T2200,1810A,115.9773,29.5698,九江市,庐山气象台,,,,,,,,,,,,,,,,
2025-11-09T2200,3190A,116.0254,29.6994,九江市,外国语学校,,40,,16,28,18,54,,55,55,24,26,3,4,0.5,0.5
2025-11-09T2200,4253A,116.0102,29.6594,九江市,莲花大道8号,细颗粒物(PM2.5),58,,24,41,28,51,,53,52,7,11,6,6,0.6,0.6
2025-11-09T2200,4240A,98.4958,39.7339,酒泉市,玉门东路5号,颗粒物(PM10),101,151,114,63,33,15,,71,54,47,21,18,17,1.0,0.4
2025-11-09T2200,4241A,98.5099,39.7506,酒泉市,北大街108号,颗粒物(PM10),95,139,108,58,34,9,,68,59,57,20,17,16,1.3,0.6
2025-11-09T2200,2698A,76.0072,39.4467,喀什地区,巡警大队,颗粒物(PM10),190,330,420,121,149,7,,65,61,109,64,19,13,3.1,2.1
2025-11-09T2200,2699A,75.9755,39.4694,喀什地区,吾办,颗粒物(PM10),172,293,333,118,132,7,,61,56,81,54,9,8,2.3,1.8
2025-11-09T2200,4027A,75.9483,39.4689,喀什地区,老干局,细颗粒物(PM2.5),200,328,401,150,120,7,,63,58,103,64,11,7,2.5,2.1
2025-11-09T2200,1824A,114.3389,34.7781,开封市,肿瘤医院,颗粒物(PM10),95,139,89,54,38,45,,79,69,41,35,10,10,0.8,1
2025-11-09T2200,1826A,114.2885,34.7965,开封市,世纪星幼儿园,颗粒物(PM10),90,130,92,60,38,54,,80,73,38,34,9,9,0.8,0.9
2025-11-09T2200,3147A,114.3438,34.8106,开封市,龙亭公园,细颗粒物(PM2.5),87,117,88,64,32,48,,78,64,39,35,10,10,0.8,0.9
2025-11-09T2200,3210A,114.3644,34.7964,开封市,汴京公园,颗粒物(PM10),97,144,93,54,32,40,,73,63,46,36,10,10,0.7,0.9
2025-11-09T2200,3473A,114.2485,34.8306,开封市,技师学院,颗粒物(PM10),92,134,88,63,48,67,,86,81,33,29,13,10,1.0,1.1
2025-11-09T2200,3592A,114.4644,34.7556,开封市,祥符区生态环境局,颗粒物(PM10),105,159,78,56,32,51,,83,72,48,41,7,8,0.7,0.9
2025-11-09T2200,1951A,84.895,45.6094,克拉玛依市,长征新村,,23,23,16,10,8,44,,54,51,19,12,3,2,0.3,0.2
2025-11-09T2200,1952A,84.8988,45.5893,克拉玛依市,南林小区,,31,31,19,13,10,39,,55,50,14,12,5,5,0.4,0.4
2025-11-09T2200,1954A,84.905,44.3396,克拉玛依市,独山子区,颗粒物(PM10),67,84,59,46,34,32,,75,66,44,28,4,6,0.7,0.7
2025-11-09T2200,1955A,85.6979,46.098,克拉玛依市,乌尔禾区商贸楼,,26,26,18,3,8,34,,53,50,30,15,7,6,0.6,0.4
2025-11-09T2200,3612A,85.1045,45.6899,克拉玛依市,白碱滩区新站,,45,45,27,17,10,31,,58,54,30,15,7,6,0.3,0.3
2025-11-09T2200,2697A,76.1454,39.7142,克孜勒苏柯尔克孜自治州,市人民政府,颗粒物(PM10),151,252,277,101,118,46,,86,80,44,22,7,15,0.4,0.4
2025-11-09T2200,3665A,76.1658,39.7157,克孜勒苏柯尔克孜自治州,克州文化中心,颗粒物(PM10),157,264,267,86,94,36,,80,75,49,23,9,18,1.0,0.6
2025-11-09T2200,1450A,102.8204,24.8886,昆明市,呈贡新区,,12,11,15,3,5,16,,33,30,24,17,4,4,0.7,0.7
2025-11-09T2200,1451A,102.6251,24.9608,昆明市,西山森林公园,,,,,,,,,,,,,,,,
2025-11-09T2200,1452A,102.7252,25.0902,昆明市,龙泉镇,,16,16,9,10,6,20,,26,22,16,16,2,2,0.5,0.5
2025-11-09T2200,1453A,102.7266,25.0375,昆明市,东风东路,,13,13,12,6,7,25,,32,28,18,19,2,1,0.5,0.5
2025-11-09T2200,1454A,102.6742,25.0669,昆明市,金鼎山,,,,12,3,5,27,,31,28,10,14,1,1,0.3,0.4
2025-11-09T2200,1455A,102.6644,25.0401,昆明市,碧鸡广场,,8,7,8,3,6,25,,31,27,12,16,2,1,0.4,0.5
2025-11-09T2200,3179A,102.7494,25.0119,昆明市,官渡区博物馆,,10,10,9,6,6,24,,33,27,16,15,4,2,0.6,0.5
2025-11-09T2200,3375A,102.8017,24.8336,昆明市,青年创业园,,8,6,10,3,9,23,,34,32,11,11,1,2,0.7,0.7
2025-11-09T2200,3550A,102.7997,24.9786,昆明市,昆明学院,,14,11,11,7,7,13,,31,23,27,19,3,3,0.6,0.6
2025-11-09T2200,3551A,102.5967,24.6736,昆明市,晋宁区生态环境分局,,10,10,13,3,8,32,,40,38,8,10,5,5,0.3,0.4
2025-11-09T2200,3552A,102.6678,24.9856,昆明市,云天化总部,,10,9,9,3,5,31,,36,35,7,11,4,4,0.6,0.6
2025-11-09T2200,1456A,91.1319,29.6514,拉萨市,八廓街,,20,20,17,10,10,56,,89,84,29,20,5,6,0.3,0.4
2025-11-09T2200,1457A,91.1221,29.6747,拉萨市,市环保局,,34,34,26,21,14,24,,84,70,34,19,8,8,1.1,0.7
2025-11-09T2200,1458A,91.0874,29.6475,拉萨市,区监测站,,30,18,17,11,10,37,,88,80,60,33,5,6,0.5,0.5
2025-11-09T2200,1459A,91.1774,29.6541,拉萨市,西藏大学,,31,31,16,19,10,31,,84,74,56,26,5,6,0.4,0.4
2025-11-09T2200,1460A,90.9798,29.6588,拉萨市,区辐射站,,37,37,31,18,15,33,,70,58,55,36,11,9,0.8,0.5
2025-11-09T2200,1461A,91.0834,29.6292,拉萨市,拉萨火车站,,23,14,14,8,9,73,,84,83,19,22,6,6,0.4,0.5
2025-11-09T2200,2520A,109.2203,23.7256,来宾市,来宾技工学校,,12,6,14,3,6,37,,42,40,5,7,9,10,0.7,0.8
2025-11-09T2200,3535A,109.1781,23.7297,来宾市,兴宾区政府,,15,12,12,3,4,45,,48,46,4,7,8,9,0.5,0.6
2025-11-09T2200,4002A,109.2416,23.7461,来宾市,中南小学,,12,11,18,3,5,38,,42,40,6,8,8,9,0.7,0.9
2025-11-09T2200,1477A,104.1373,35.9454,兰州市,榆中兰大校区,,,,,,,,,,,,,,,,
2025-11-09T2200,1479A,103.831,36.0464,兰州市,铁路设计院,,,,,,,,,,,,,,,,
2025-11-09T2200,3241A,103.7439,36.0842,兰州市,百合公园,颗粒物(PM10),79,107,113,47,39,11,,47,36,50,28,5,5,1.0,0.9
2025-11-09T2200,3242A,103.9611,35.998,兰州市,和平,颗粒物(PM10),90,130,126,54,44,11,,54,34,44,30,6,5,0.6,0.5
2025-11-09T2200,4236A,103.6293,36.0938,兰州市,庄浪东路808号,颗粒物(PM10),82,114,130,48,46,13,,50,35,62,44,8,11,0.6,0.6
2025-11-09T2200,4237A,103.7251,36.1043,兰州市,安宁西路88号,颗粒物(PM10),78,106,134,43,47,73,,54,53,8,28,3,4,0.4,0.5
2025-11-09T2200,4238A,103.8470,36.0676,兰州市,北滨河东路1号,颗粒物(PM10),73,96,125,40,38,52,,48,46,30,36,8,10,0.7,0.9
2025-11-09T2200,3245A,103.6633,36.533,兰州新区,新区管委会,颗粒物(PM10),88,126,133,49,48,60,,82,75,14,14,24,16,0.7,0.5
2025-11-09T2200,3246A,103.6975,36.4789,兰州新区,舟曲中学,颗粒物(PM10),88,125,155,47,49,52,,89,78,28,23,21,23,0.5,0.4
2025-11-09T2200,1067A,116.6708,39.5111,廊坊市,药材公司,颗粒物(PM10),58,65,55,28,22,20,,65,42,53,29,2,1,0.5,0.4
2025-11-09T2200,1068A,116.7214,39.5589,廊坊市,开发区,颗粒物(PM10),55,59,54,26,23,5,,68,39,56,27,3,2,0.7,0.4
2025-11-09T2200,1070A,116.7244,39.5269,廊坊市,北华航天学院,颗粒物(PM10),70,90,60,34,22,3,,65,35,66,30,4,4,1.0,0.4
2025-11-09T2200,2919A,116.7022,39.5453,廊坊市,河北工业大学,颗粒物(PM10),62,73,53,30,25,15,,66,43,56,26,3,3,0.7,0.4
2025-11-09T2200,2535A,103.7723,29.5462,乐山市,花湖湾,,,,,,,,,,,,,,,,
2025-11-09T2200,2536A,103.7627,29.5844,乐山市,牛耳桥,颗粒物(PM10),65,79,67,46,36,13,,23,18,30,37,8,9,0.8,0.9
2025-11-09T2200,2537A,103.7508,29.6006,乐山市,市第三水厂,"颗粒物(PM10),细颗粒物(PM2.5)",64,77,63,46,36,15,,26,20,32,37,8,8,0.9,1
2025-11-09T2200,2538A,103.7571,29.5664,乐山市,市监测站,颗粒物(PM10),64,78,64,43,32,18,,26,25,22,29,9,11,0.9,1
2025-11-09T2200,3361A,103.7311,29.5628,乐山市,理工大学,细颗粒物(PM2.5),68,73,62,49,33,16,,27,23,25,28,10,10,0.8,0.9
2025-11-09T2200,2598A,100.2143,26.8576,丽江市,西南郊,,47,47,17,18,8,36,,78,55,19,11,7,38,1.0,0.7
2025-11-09T2200,2599A,100.2497,26.8802,丽江市,丽江古城,,38,38,21,14,9,43,,63,56,16,12,10,10,0.6,0.6
2025-11-09T2200,2600A,100.2203,26.8906,丽江市,市中心,,25,,14,17,8,47,,69,61,16,12,12,11,0.6,0.5
2025-11-09T2200,1267A,119.914,28.4514,丽水市,监测站大楼,,11,10,11,6,7,34,,60,48,16,14,4,4,0.7,0.7
2025-11-09T2200,1268A,119.93,28.4586,丽水市,莲都小学,,11,11,12,3,6,34,,63,49,18,14,4,4,0.5,0.5
2025-11-09T2200,1269A,119.879,28.4231,丽水市,余庄前,,20,20,14,11,8,9,,47,26,11,17,3,2,0.6,0.6
2025-11-09T2200,1173A,119.176,34.5885,连云港市,市环境监测站,细颗粒物(PM2.5),98,114,87,73,54,61,,72,60,23,30,7,8,1.0,0.9
2025-11-09T2200,3000A,119.3581,34.6972,连云港市,德源药业,,,,77,58,52,54,,60,57,21,37,5,5,0.6,0.8
2025-11-09T2200,3007A,119.178,34.844,连云港市,新城一中,细颗粒物(PM2.5),107,113,76,80,52,16,,72,59,69,33,19,8,2.5,1
2025-11-09T2200,3008A,119.3608,34.7519,连云港市,胡沟管理处,细颗粒物(PM2.5),79,102,71,58,50,68,,80,80,21,31,9,10,0.6,0.7
2025-11-09T2200,3009A,119.1478,34.5911,连云港市,矿山设计院,细颗粒物(PM2.5),94,119,82,70,48,62,,73,63,16,20,6,6,0.7,0.7
2025-11-09T2200,3434A,119.2413,34.6539,连云港市,工贸学校,细颗粒物(PM2.5),89,126,74,66,44,66,,78,75,36,38,9,9,0.9,1
2025-11-09T2200,3664A,119.4172,34.7341,连云港市,连云街道,颗粒物(PM10),75,100,75,54,47,50,,63,60,25,32,6,8,0.5,0.8
2025-11-09T2200,2571A,102.3431,27.8099,凉山彝族自治州,青龙寺,,,,,,,,,,,,,,,,
2025-11-09T2200,2572A,102.2721,27.8415,凉山彝族自治州,邛海宾馆,,16,16,18,6,9,40,,42,41,7,13,5,6,0.5,0.6
2025-11-09T2200,2573A,102.2625,27.898,凉山彝族自治州,西昌市政府,,10,9,19,3,14,32,,40,38,7,13,7,9,0.6,0.7
2025-11-09T2200,2574A,102.2685,27.8851,凉山彝族自治州,凉山州政府,,19,,19,13,14,35,,41,40,3,10,8,9,1.0,1
2025-11-09T2200,4229A,102.2342,27.8859,凉山彝族自治州,凯乐南路30号,,14,14,21,3,9,40,,44,43,4,16,5,7,0.7,0.7
2025-11-09T2200,2212A,123.2,41.1953,辽阳市,宏伟区,,20,20,48,8,36,45,,51,47,8,23,5,8,0.3,1
2025-11-09T2200,2213A,123.1683,41.2495,辽阳市,新华园,,17,17,53,6,34,40,,47,42,11,28,5,7,0.5,1.1
2025-11-09T2200,2214A,123.2354,41.2639,辽阳市,滨河路,,24,24,53,10,35,40,,49,42,11,25,10,7,0.4,1
2025-11-09T2200,2215A,123.149,41.2991,辽阳市,铁西工业园,,25,24,49,17,31,25,,51,35,22,28,5,8,0.2,1.3
2025-11-09T2200,2227A,125.1358,42.8845,辽源市,环保局,颗粒物(PM10),54,57,70,9,17,51,,56,51,9,15,4,3,0.3,0.4
2025-11-09T2200,3239A,125.0764,42.9078,辽源市,银鹰制药,,28,28,40,13,25,51,,58,54,8,17,3,3,0.4,0.5
2025-11-09T2200,1625A,115.9848,36.4372,聊城市,区政府,颗粒物(PM10),65,80,70,42,34,17,,67,48,54,36,7,9,0.8,0.8
2025-11-09T2200,2878A,116.0072,36.4343,聊城市,聊大东校,颗粒物(PM10),76,102,79,47,41,18,,64,46,62,34,5,8,0.8,0.8
2025-11-09T2200,3200A,115.9819,36.4978,聊城市,监控中心,颗粒物(PM10),76,101,67,36,35,10,,65,44,76,37,10,11,0.8,0.9
2025-11-09T2200,3513A,116.0445,36.4361,聊城市,九州社区,颗粒物(PM10),76,101,80,45,35,27,,71,50,53,27,2,4,0.6,0.7
2025-11-09T2200,4018A,116.0567,36.4608,聊城市,星美广场,颗粒物(PM10),74,97,87,35,36,35,,64,44,48,32,5,4,0.4,0.7
2025-11-09T2200,2632A,94.3681,29.6376,林芝市,林芝监测站,,27,6,7,3,4,85,,88,87,1,3,4,4,0.2,0.2
2025-11-09T2200,2633A,94.3616,29.6616,林芝市,林芝人民医院,,25,7,10,3,4,79,,84,83,1,3,6,5,0.3,0.3
2025-11-09T2200,2603A,100.0781,23.8982,临沧市,市环保局,,50,,14,35,24,22,,42,34,9,5,8,9,0.8,0.7
2025-11-09T2200,2604A,100.0894,23.8822,临沧市,市气象局,,,14,14,13,10,,,43,41,10,7,11,10,0.6,0.6
2025-11-09T2200,1733A,111.5531,36.0783,临汾市,临钢医院,颗粒物(PM10),96,142,118,44,33,3,,54,40,50,30,6,6,0.7,0.7
2025-11-09T2200,1734A,111.5028,36.0714,临汾市,技工学校,颗粒物(PM10),92,134,116,42,40,6,,61,41,58,35,11,10,0.8,0.7
2025-11-09T2200,1736A,111.5018,36.0855,临汾市,市委,颗粒物(PM10),111,171,122,45,33,4,,64,45,62,34,8,8,0.9,0.7
2025-11-09T2200,3018A,111.505,36.1014,临汾市,唐尧大酒店,颗粒物(PM10),89,128,114,34,31,16,,64,48,43,30,6,7,0.7,1.2
2025-11-09T2200,4244A,111.4879,36.0530,临汾市,启星学校,颗粒物(PM10),92,134,112,42,34,19,,63,45,49,37,9,8,0.8,0.7
2025-11-09T2200,4271A,103.2464,35.6123,临夏回族自治州,滨河东路1号,颗粒物(PM10),91,131,146,64,64,24,,43,38,19,19,4,3,0.6,0.8
2025-11-09T2200,4310A,103.2093,35.5995,临夏回族自治州,新华街21号,颗粒物(PM10),82,114,146,57,63,41,,47,45,11,15,9,12,0.6,0.7
2025-11-09T2200,1618A,118.3429,35.0532,临沂市,沂河小区,细颗粒物(PM2.5),123,117,108,93,60,43,,66,56,39,50,7,11,0.6,0.8
2025-11-09T2200,1619A,118.295,35.0583,临沂市,鲁南制药厂,细颗粒物(PM2.5),98,117,113,73,48,45,,69,54,44,56,8,13,0.7,0.8
2025-11-09T2200,1620A,118.2794,34.9976,临沂市,新光毛纺厂,细颗粒物(PM2.5),89,107,89,66,48,50,,70,52,39,50,7,9,0.7,0.9
2025-11-09T2200,1621A,118.3956,35.0888,临沂市,河东保险公司,细颗粒物(PM2.5),102,119,92,76,57,32,,71,59,54,44,7,8,0.9,0.9
2025-11-09T2200,3370A,118.3564,35.0215,临沂市,十里堡居委,颗粒物(PM10),85,119,100,61,53,43,,74,63,44,52,8,12,0.8,0.9
2025-11-09T2200,3496A,118.3604,35.1084,临沂市,南坊新区,细颗粒物(PM2.5),94,110,95,70,62,38,,73,62,49,47,8,14,1.0,1
2025-11-09T2200,3860A,118.3920,35.0300,临沂市,皇山花园小区,细颗粒物(PM2.5),94,122,101,70,57,36,,75,64,49,46,9,14,0.8,0.9
2025-11-09T2200,1870A,109.4856,24.3895,柳州市,柳东小学,,12,9,10,3,3,36,,32,32,6,6,4,5,0.5,0.5
2025-11-09T2200,1871A,109.4157,24.3277,柳州市,环保监测站,,12,12,12,3,4,33,,32,32,13,9,9,10,0.8,0.9
2025-11-09T2200,1872A,109.389,24.341,柳州市,河西水厂,,19,10,14,7,7,30,,30,27,19,16,11,10,1.9,1.4
2025-11-09T2200,1873A,109.4311,24.2921,柳州市,市四中,,12,11,12,3,6,36,,32,32,10,9,9,10,0.7,0.7
2025-11-09T2200,1874A,109.4006,24.3631,柳州市,市九中,,13,8,13,7,3,41,,35,35,11,12,5,5,0.7,0.8
2025-11-09T2200,1875A,109.4958,24.3134,柳州市,古亭山,,12,6,10,3,4,37,,35,35,4,4,6,7,0.7,0.7
2025-11-09T2200,3402A,109.5422,24.3996,柳州市,市二中,,,10,9,3,4,,,40,36,8,9,6,7,0.7,0.7
2025-11-09T2200,2307A,116.5079,31.737,六安市,监测大楼,细颗粒物(PM2.5),85,,67,63,70,37,,71,65,31,15,3,3,0.6,0.6
2025-11-09T2200,2308A,116.4738,31.7643,六安市,皖西学院,细颗粒物(PM2.5),97,,78,72,72,38,,74,63,20,13,2,2,0.5,0.5
2025-11-09T2200,2309A,116.4996,31.7905,六安市,朝阳厂,细颗粒物(PM2.5),82,60,65,60,68,45,,71,64,27,18,3,4,0.5,0.5
2025-11-09T2200,2310A,116.5567,31.7886,六安市,开发区,细颗粒物(PM2.5),60,59,88,43,66,26,,68,50,33,20,1,2,0.6,0.6
2025-11-09T2200,2576A,104.8,26.5892,六盘水市,窑上,,,,22,25,9,40,,60,48,10,6,2,2,0.6,0.6
2025-11-09T2200,2577A,104.83,26.5917,六盘水市,黄土坡,,14,14,10,7,6,44,,54,46,13,12,6,4,0.6,0.6
2025-11-09T2200,2578A,104.89,26.5939,六盘水市,水钢,,14,7,12,3,5,42,,50,49,11,10,6,6,0.5,0.8
2025-11-09T2200,2579A,104.8475,26.5894,六盘水市,民中,,15,15,7,3,3,36,,45,40,16,12,4,3,0.4,0.3
2025-11-09T2200,2580A,104.9544,26.5506,六盘水市,双水,,20,,8,14,6,42,,53,52,8,8,5,4,0.8,0.5
2025-11-09T2200,2335A,117.0189,25.1181,龙岩市,龙岩师专,,,,,,,,,,,,,,,,
2025-11-09T2200,2336A,117.0217,25.1033,龙岩市,龙岩市监测站,,10,7,30,3,23,31,,43,36,9,19,8,13,0.5,0.6
2025-11-09T2200,2337A,117.0258,25.0661,龙岩市,闽西职业技术学院,,18,,39,12,24,35,,45,37,6,19,7,13,0.6,0.7
2025-11-09T2200,2338A,117.0196,25.0306,龙岩市,龙岩学院,,11,7,33,6,21,34,,46,37,7,17,7,8,0.5,0.6
2025-11-09T2200,2665A,105.0822,33.3261,陇南市,汉王镇固水子,,,,,,,,,,,,,,,,
2025-11-09T2200,2885A,104.9339,33.3826,陇南市,滨江中学,颗粒物(PM10),63,76,82,32,32,76,,67,67,3,13,6,7,0.4,0.6
2025-11-09T2200,3247A,104.955,33.371,陇南市,市总工会,颗粒物(PM10),57,64,75,28,33,75,,66,66,5,13,6,7,0.4,0.5
2025-11-09T2200,2487A,111.9589,27.8901,娄底市,电视发射台,,,,,,,,,,,,,,,,
2025-11-09T2200,2488A,111.9975,27.725,娄底市,市监测站,,26,9,10,6,8,83,,83,83,6,11,8,11,0.4,0.5
2025-11-09T2200,2489A,112.0194,27.7314,娄底市,市委党校,,26,17,7,13,7,81,,83,78,5,7,5,5,0.4,0.6
2025-11-09T2200,2490A,111.9561,27.7569,娄底市,涟钢,,21,11,9,3,6,67,,65,65,6,11,8,8,0.3,0.6
2025-11-09T2200,2491A,111.9892,27.7044,娄底市,市政府,,27,6,11,3,9,84,,82,82,8,10,8,8,0.7,0.9
2025-11-09T2200,1893A,105.4324,28.9634,泸州市,九狮山,,,,,,,,,,,,,,,,
2025-11-09T2200,1894A,105.4427,28.9063,泸州市,小市上码头,,40,40,42,18,24,21,,28,28,18,24,9,9,0.7,0.8
2025-11-09T2200,1895A,105.4241,28.8573,泸州市,兰田宪桥,,43,43,41,22,23,11,,31,26,22,16,6,7,0.8,0.7
2025-11-09T2200,1896A,105.4379,28.8833,泸州市,市环监站,,41,41,41,23,25,18,,32,30,29,25,6,7,0.7,0.8
2025-11-09T2200,4272A,105.3689,28.7783,泸州市,纳溪中医医院,颗粒物(PM10),56,62,41,35,25,2,,31,23,31,25,6,6,0.9,0.7
2025-11-09T2200,2183A,111.1406,37.5211,吕梁市,环保局,颗粒物(PM10),74,98,147,19,36,3,,61,38,51,31,5,7,0.4,0.4
2025-11-09T2200,2185A,111.1297,37.5136,吕梁市,自来水公司,颗粒物(PM10),76,101,138,26,33,10,,60,41,41,30,3,6,0.2,0.2
2025-11-09T2200,2867A,111.1283,37.51,吕梁市,马茂庄小学,颗粒物(PM10),84,118,151,18,33,0,,59,35,57,35,2,5,0.4,0.4
2025-11-09T2200,1812A,112.3931,34.6516,洛阳市,市委党校,颗粒物(PM10),92,133,93,58,40,14,,62,51,64,34,7,8,0.9,0.6
2025-11-09T2200,1815A,112.494,34.6886,洛阳市,河南林校,颗粒物(PM10),88,126,96,57,39,12,,56,47,64,39,7,8,0.8,0.6
2025-11-09T2200,1816A,112.3844,34.623,洛阳市,开发区管委会,颗粒物(PM10),83,115,87,45,37,41,,76,69,31,25,5,7,0.6,0.5
2025-11-09T2200,1817A,112.4267,34.6258,洛阳市,市委新办公区,颗粒物(PM10),89,128,90,48,35,43,,73,68,34,25,8,8,0.5,0.4
2025-11-09T2200,3340A,112.6005,34.6326,洛阳市,伊滨,颗粒物(PM10),85,120,94,39,32,36,,63,53,29,23,7,8,0.5,0.4
2025-11-09T2200,3341A,112.4951,34.6332,洛阳市,中移产业园,颗粒物(PM10),88,125,91,37,33,50,,72,71,34,28,8,8,0.4,0.5
2025-11-09T2200,3593A,112.5736,34.8993,洛阳市,吉利监测站,颗粒物(PM10),90,129,95,43,34,7,,75,46,58,33,6,7,0.6,0.6
2025-11-09T2200,3635A,112.3677,34.662,洛阳市,河科大西苑校区,颗粒物(PM10),88,126,95,39,34,29,,76,66,49,28,10,10,0.9,0.8
2025-11-09T2200,3636A,112.4388,34.6781,洛阳市,英才小学,颗粒物(PM10),98,145,105,59,47,5,,54,46,81,46,10,9,0.9,0.9
2025-11-09T2200,4214A,112.4600,34.6949,洛阳市,春都路1号院,颗粒物(PM10),97,144,108,39,34,0,,49,40,64,37,11,10,1.0,0.9
2025-11-09T2200,2399A,114.051,33.5699,漯河市,三五一五工厂,颗粒物(PM10),103,156,94,71,45,39,,85,74,49,31,8,8,0.8,0.8
2025-11-09T2200,2400A,114.0055,33.5698,漯河市,漯河大学,颗粒物(PM10),95,140,95,66,47,42,,91,81,53,32,7,7,0.7,0.7
2025-11-09T2200,2401A,114.0138,33.5828,漯河市,市水利局,颗粒物(PM10),91,132,96,58,47,60,,88,81,35,30,8,8,0.8,0.8
2025-11-09T2200,2402A,114.0261,33.5698,漯河市,市广电局,颗粒物(PM10),102,154,101,61,36,37,,90,80,54,29,6,6,0.7,0.7
2025-11-09T2200,3478A,113.9749,33.5664,漯河市,市图书馆,颗粒物(PM10),101,152,100,64,39,54,,82,77,38,28,6,5,0.9,0.9
2025-11-09T2200,4250A,114.0892,33.5882,漯河市,韶山路11号,颗粒物(PM10),108,166,96,64,44,52,,78,69,42,31,8,8,0.8,0.8
2025-11-09T2200,1798A,118.5092,31.6837,马鞍山市,湖东路四小,,42,37,31,29,26,35,,44,42,38,27,5,7,0.6,0.8
2025-11-09T2200,1799A,118.5024,31.6449,马鞍山市,开发区,,38,37,34,26,23,47,,50,50,30,24,3,4,0.6,0.8
2025-11-09T2200,1802A,118.6245,31.7241,马鞍山市,濮塘,,,,,,,,,,,,,,,,
2025-11-09T2200,3633A,118.4918,31.6809,马鞍山市,雨山,,38,36,32,26,22,40,,49,47,36,30,5,8,0.7,1
2025-11-09T2200,4191A,118.5274,31.72227,马鞍山市,慈湖高新区,,45,45,37,29,24,32,,42,32,42,27,4,4,0.7,0.7
2025-11-09T2200,1686A,111.0286,21.4688,茂名市,电白南海,,,83,59,56,30,,,121,118,24,17,9,13,0.7,0.7
2025-11-09T2200,1687A,110.9294,21.6533,茂名市,茂石化七小,,31,31,45,17,24,33,,100,77,12,15,7,16,0.8,0.8
2025-11-09T2200,1688A,110.9107,21.6687,茂名市,健康路,,39,39,40,22,22,30,,107,82,15,15,24,17,0.9,0.8
2025-11-09T2200,1689A,110.8592,21.6828,茂名市,高岭,,41,41,54,14,21,25,,88,65,18,19,11,13,0.7,0.6
2025-11-09T2200,3450A,111.01,21.5165,茂名市,电白水东,,,,43,19,25,34,,116,96,15,16,7,12,0.8,0.8
2025-11-09T2200,2539A,104.0308,30.0478,眉山市,黑龙滩水库,,,,,,,,,,,,,,,,
2025-11-09T2200,2540A,103.8416,30.0874,眉山市,气象局,,44,44,63,27,33,47,,70,67,15,26,8,13,0.5,0.5
2025-11-09T2200,3137A,103.8578,30.0744,眉山市,市委党校,,39,39,55,22,26,42,,66,62,15,26,7,11,0.7,0.7
2025-11-09T2200,3148A,103.8291,30.0564,眉山市,区人社局,颗粒物(PM10),52,54,62,27,28,41,,64,61,19,27,10,12,1.0,0.9
2025-11-09T2200,1690A,116.1231,24.3284,梅州市,梅江月梅,,15,15,23,6,19,37,,52,46,13,14,5,5,0.7,0.7
2025-11-09T2200,1691A,116.0797,24.2719,梅州市,梅县新城,,16,16,31,3,20,43,,51,47,9,20,7,7,0.6,0.6
2025-11-09T2200,1692A,116.1248,24.2654,梅州市,环境监控中心,,13,13,29,7,22,38,,50,46,9,20,5,10,0.7,0.6
2025-11-09T2200,3315A,116.1233,24.2991,梅州市,梅龙,,14,14,20,8,16,36,,46,41,7,11,7,9,0.8,0.8
2025-11-09T2200,1878A,104.7778,31.4741,绵阳市,富乐山,,35,35,39,17,21,53,,57,56,7,12,9,9,0.5,0.6
2025-11-09T2200,1880A,104.6697,31.4668,绵阳市,高新区自来水公司,,40,40,59,14,24,53,,51,51,10,26,8,8,0.5,0.6
2025-11-09T2200,1881A,104.7287,31.5075,绵阳市,三水厂,,33,33,51,18,28,50,,58,57,14,25,7,8,0.5,0.7
2025-11-09T2200,3491A,104.69,31.5322,绵阳市,西科大附属小学,,43,43,62,16,25,55,,51,51,13,29,10,10,0.4,0.6
2025-11-09T2200,3492A,104.5648,31.5343,绵阳市,安州区旅游局,,36,36,45,19,23,52,,48,46,10,5,4,7,0.5,0.6
2025-11-09T2200,4226A,104.7651,31.4531,绵阳市,绵阳市气象局,,32,32,43,14,20,52,,54,53,9,20,6,6,0.5,0.7
2025-11-09T2200,1784A,129.61,44.561,牡丹江市,环保大楼,,46,46,48,19,39,50,,50,50,6,19,4,6,0.3,0.5
2025-11-09T2200,1785A,129.6115,44.5782,牡丹江市,文化广场,颗粒物(PM10),53,56,44,24,37,43,,48,46,11,20,6,8,0.3,0.6
2025-11-09T2200,1786A,129.5904,44.5963,牡丹江市,第一医院,,47,47,45,25,45,49,,51,50,6,17,3,4,0.2,0.4
2025-11-09T2200,1787A,129.6364,44.6075,牡丹江市,机车工厂,,41,41,53,17,39,44,,49,48,12,24,5,6,0.2,0.5
2025-11-09T2200,1788A,129.6386,44.5462,牡丹江市,第一中学,颗粒物(PM10),52,53,41,23,33,46,,49,49,6,15,3,4,0.3,0.5
2025-11-09T2200,2531A,105.0703,29.61,内江市,市监测站,,34,34,39,17,20,36,,69,56,12,15,4,4,0.8,0.8
2025-11-09T2200,2532A,105.0717,29.5947,内江市,东兴区政府,,24,24,28,12,15,27,,58,45,16,20,5,5,0.4,0.4
2025-11-09T2200,2533A,105.0653,29.5817,内江市,内江二中,,34,34,33,23,21,26,,57,43,14,22,4,4,0.6,0.7
2025-11-09T2200,2534A,105.0406,29.5822,内江市,内江日报社,,30,25,31,21,22,27,,62,47,17,22,4,4,0.5,0.5
2025-11-09T2200,2628A,92.0657,31.4846,那曲市,那曲监测站,,33,33,42,21,24,48,,97,86,38,22,11,11,0.9,0.8
2025-11-09T2200,4243A,92.0515,31.4787,那曲市,那曲市委宣传部,,24,24,27,13,16,60,,96,91,15,18,7,8,0.6,1
2025-11-09T2200,1290A,115.8931,28.6843,南昌市,省外办,,,16,20,12,14,39,,52,49,14,14,,3,0.8,0.9
2025-11-09T2200,1291A,115.8886,28.7003,南昌市,省林业公司,,14,,8,9,11,42,,58,54,14,11,2,2,1.0,1
2025-11-09T2200,1292A,115.8126,28.7442,南昌市,林科所,,15,6,6,3,6,48,,58,56,8,10,2,2,0.8,0.7
2025-11-09T2200,1294A,115.8518,28.687,南昌市,建工学校,,18,18,19,12,12,43,,53,51,19,16,7,7,0.7,0.7
2025-11-09T2200,1295A,115.8921,28.6424,南昌市,象湖,,29,29,20,7,11,46,,57,54,15,14,7,7,0.7,0.7
2025-11-09T2200,1296A,115.7423,28.7996,南昌市,武术学校,,,,,,,,,,,,,,,,
2025-11-09T2200,3046A,115.9084,28.6062,南昌市,机电学校,,18,12,18,12,15,52,,61,59,13,12,6,6,0.5,0.5
2025-11-09T2200,3690A,115.9721,28.7031,南昌市,外国语学校,,25,,19,17,19,48,,60,57,15,15,7,8,0.6,0.6
2025-11-09T2200,4192A,115.9316,28.68677,南昌市,南京东路235号,,16,,21,9,14,51,,62,60,16,16,4,4,0.6,0.6
2025-11-09T2200,1905A,106.056,30.8064,南充市,西山风景区,,,,,,,,,,,,,,,,
2025-11-09T2200,1906A,106.0789,30.8023,南充市,南充市委,,13,12,14,9,9,20,,39,25,18,15,4,4,0.4,0.5
2025-11-09T2200,1907A,106.1031,30.8217,南充市,南充炼油厂,,25,25,22,12,12,27,,40,31,8,9,5,5,0.3,0.3
2025-11-09T2200,4227A,106.1083,30.7884,南充市,梨树横街98号,,10,10,13,3,7,25,,46,30,14,11,4,4,0.4,0.4
2025-11-09T2200,4304A,106.1172,30.843,南充市,清泉寺北路188号,,17,17,14,3,6,28,,45,33,7,7,6,6,0.4,0.5
2025-11-09T2200,4305A,106.067,30.7616,南充市,同庆路1号,,13,,9,9,8,23,,38,26,13,11,6,6,0.5,0.6
2025-11-09T2200,1151A,118.8086,32.1065,南京市,迈皋桥,细颗粒物(PM2.5),58,48,28,41,24,23,,73,57,37,19,4,3,0.6,0.7
2025-11-09T2200,1152A,118.7538,32.0551,南京市,草场门,细颗粒物(PM2.5),62,61,33,44,26,40,,61,55,39,26,10,9,0.7,0.6
2025-11-09T2200,1153A,118.7794,32.0745,南京市,山西路,细颗粒物(PM2.5),67,75,38,48,28,49,,73,67,33,17,4,4,0.5,0.5
2025-11-09T2200,1154A,118.7752,32.0023,南京市,中华门,细颗粒物(PM2.5),62,68,38,44,28,30,,74,64,36,20,4,4,0.7,0.6
2025-11-09T2200,1155A,118.8109,32.0309,南京市,瑞金路,细颗粒物(PM2.5),58,58,36,41,28,38,,68,61,29,18,4,4,0.9,0.7
2025-11-09T2200,1156A,118.7997,32.0754,南京市,玄武湖,,,,32,56,30,,,60,53,29,16,4,4,0.6,0.6
2025-11-09T2200,1157A,118.6414,32.0931,南京市,浦口,细颗粒物(PM2.5),72,60,28,52,28,63,,78,74,22,15,7,6,0.4,0.5
2025-11-09T2200,1158A,118.7356,31.9996,南京市,奥体中心,细颗粒物(PM2.5),62,62,37,44,28,40,,71,62,40,25,5,5,0.9,0.7
2025-11-09T2200,1159A,118.9125,32.1028,南京市,仙林大学城,细颗粒物(PM2.5),77,75,38,56,28,52,,66,62,28,18,5,5,0.7,0.7
2025-11-09T2200,3422A,118.8436,31.9198,南京市,江宁彩虹桥,细颗粒物(PM2.5),55,,26,39,23,58,,75,73,29,19,5,4,0.7,0.6
2025-11-09T2200,3427A,118.8554,32.3578,南京市,六合雄州,细颗粒物(PM2.5),77,63,36,56,31,52,,81,68,33,5,3,4,0.7,0.6
2025-11-09T2200,4249A,118.8708,31.3402,南京市,汶溪路181号,,38,29,20,26,18,17,,50,46,51,21,5,5,0.8,0.7
2025-11-09T2200,4312A,119.019,31.6512,南京市,中山西路1号,,31,31,24,20,15,56,,51,51,16,13,3,4,0.6,0.7
2025-11-09T2200,1401A,108.3103,22.7881,南宁市,二十一中,,14,14,17,7,13,24,,41,32,14,12,5,3,0.7,0.8
2025-11-09T2200,1402A,108.3141,22.8528,南宁市,北湖,,19,19,20,6,15,23,,39,28,18,13,6,6,0.7,0.7
2025-11-09T2200,1403A,108.3206,22.8225,南宁市,市监测站,,19,19,16,11,16,21,,36,27,19,16,7,6,0.8,0.8
2025-11-09T2200,1404A,108.3829,22.8037,南宁市,大自然花园,,18,18,18,8,13,39,,47,42,13,10,6,6,0.7,0.7
2025-11-09T2200,1405A,108.4394,22.7904,南宁市,仙葫,,,,,,,,,,,,,,,,
2025-11-09T2200,1406A,108.2397,22.8467,南宁市,区农职院,,12,10,20,8,15,24,,29,25,10,16,3,4,0.6,0.6
2025-11-09T2200,1407A,108.3275,22.735,南宁市,英华嘉园,,11,,16,7,13,34,,46,41,11,12,3,2,0.6,0.6
2025-11-09T2200,3401A,108.4834,22.7618,南宁市,红星社区,,13,11,16,6,12,41,,44,41,7,11,5,4,0.6,0.6
2025-11-09T2200,4221A,108.2177,22.7774,南宁市,乐贤路16号,,26,26,24,15,15,19,,41,28,20,21,4,4,0.6,0.6
2025-11-09T2200,2331A,118.0966,26.6761,南平市,茫荡山,,,,9,,,,,51,,,,,1,,0.3
2025-11-09T2200,2332A,118.1681,26.6369,南平市,南平市监测站,,7,6,12,3,10,22,,34,31,10,9,3,4,0.7,0.6
2025-11-09T2200,2333A,118.1825,26.6489,南平市,南平铝业有限公司,,12,12,12,3,9,24,,34,31,11,9,3,2,0.7,0.6
2025-11-09T2200,2334A,118.1756,26.6272,南平市,南平七中,,11,11,12,3,10,21,,30,27,8,8,5,5,0.8,0.6
2025-11-09T2200,1168A,120.9098,31.9663,南通市,狼山街道,颗粒物(PM10),52,53,24,29,12,76,,77,77,19,14,2,2,0.7,0.5
2025-11-09T2200,1169A,120.86,32.0005,南通市,虹桥,细颗粒物(PM2.5),58,48,22,41,15,90,,81,81,15,11,3,3,0.6,0.5
2025-11-09T2200,1170A,120.87,32.02,南通市,城中,颗粒物(PM10),60,70,31,39,15,80,,74,74,19,14,3,3,0.5,0.4
2025-11-09T2200,1171A,120.94,31.93,南通市,星湖花园,颗粒物(PM10),54,57,29,28,16,84,,78,77,16,20,3,3,0.5,0.4
2025-11-09T2200,1172A,120.81,32.0417,南通市,紫琅学院,细颗粒物(PM2.5),74,69,26,54,16,56,,72,66,28,14,9,3,0.8,0.6
2025-11-09T2200,3291A,121.067,32.062,南通市,通州监测站,细颗粒物(PM2.5),55,41,16,39,14,84,,90,89,14,10,4,2,0.6,0.5
2025-11-09T2200,3432A,120.9348,31.9883,南通市,环境教育馆,细颗粒物(PM2.5),62,48,23,44,16,79,,79,79,19,13,4,3,0.6,0.4
2025-11-09T2200,2404A,112.5224,33.0122,南阳市,瓦房庄,颗粒物(PM10),93,135,83,58,36,37,,84,68,49,30,7,6,1.0,0.8
2025-11-09T2200,2405A,112.5003,32.9735,南阳市,汉画馆,颗粒物(PM10),80,110,70,46,31,23,,71,56,43,32,5,5,0.9,0.8
2025-11-09T2200,2406A,112.5573,33.027,南阳市,气象站,颗粒物(PM10),89,128,84,31,26,76,,98,96,29,25,7,6,0.5,0.6
2025-11-09T2200,2407A,112.5481,32.9689,南阳市,理工学院,颗粒物(PM10),84,117,78,42,26,64,,86,81,33,30,6,5,0.6,0.8
2025-11-09T2200,4008A,112.5234,32.9922,南阳市,卧龙区政府,颗粒物(PM10),88,125,73,51,37,61,,78,71,34,32,7,6,0.8,0.8
2025-11-09T2200,1234A,121.8358,29.911,宁波市,区环保大楼,,22,22,21,12,14,68,,68,68,31,26,6,6,0.6,0.7
2025-11-09T2200,1235A,121.56,29.82,宁波市,万里学院,,27,21,19,15,17,84,,82,82,14,17,8,7,0.7,0.8
2025-11-09T2200,1236A,121.713,29.9572,宁波市,龙赛医院,,28,24,20,8,9,88,,90,90,13,19,4,5,0.5,0.6
2025-11-09T2200,1239A,121.633,29.7733,宁波市,钱湖水厂,,26,19,19,11,14,83,,86,86,14,14,7,6,0.5,0.6
2025-11-09T2200,1240A,121.5856,29.8635,宁波市,太古小学,,26,23,20,15,11,81,,84,84,16,17,4,3,0.6,0.7
2025-11-09T2200,1241A,121.524,29.8674,宁波市,市环境监测中心,,25,25,21,9,10,77,,78,78,14,16,9,9,0.5,0.6
2025-11-09T2200,2871A,121.6147,29.9017,宁波市,万里国际学校,,26,22,18,10,10,81,,87,87,15,17,5,4,0.6,0.7
2025-11-09T2200,3710A,121.5594,29.8975,宁波市,白沙活动中心,,23,16,17,14,9,72,,76,76,16,19,5,5,0.4,0.5
2025-11-09T2200,2339A,119.5001,26.6946,宁德市,金涵水库,,,,26,,16,,,41,,,10,,2,,0.5
2025-11-09T2200,2341A,119.5388,26.6612,宁德市,宁德市监测站,,20,9,22,8,12,64,,88,79,12,17,7,6,0.3,0.4
2025-11-09T2200,3209A,119.5231,26.6562,宁德市,宁德一中,,26,,25,18,16,66,,89,81,10,11,6,5,0.3,0.3
2025-11-09T2200,2618A,98.8601,25.8567,怒江傈僳族自治州,州监测站,,37,37,21,24,14,16,,53,41,18,9,9,7,0.6,0.4
2025-11-09T2200,2619A,98.8546,25.8417,怒江傈僳族自治州,泸水一中,,20,20,18,12,10,5,,38,22,25,16,6,6,0.7,0.5
2025-11-09T2200,1888A,101.6891,26.571,攀枝花市,弄弄坪,,20,20,55,6,24,20,,33,32,21,30,3,3,0.7,1.3
2025-11-09T2200,1889A,101.5769,26.5928,攀枝花市,河门口,,14,14,34,8,18,26,,37,35,14,18,15,16,1.0,1.1
2025-11-09T2200,1890A,101.7169,26.585,攀枝花市,炳草岗,,41,41,58,10,28,5,,31,26,39,33,8,13,0.8,1
2025-11-09T2200,1891A,101.7369,26.5008,攀枝花市,仁和,,19,19,28,10,17,14,,32,30,15,17,6,12,0.6,1.1
2025-11-09T2200,2835A,101.7227,26.567,攀枝花市,四十中小,,31,31,57,15,32,31,,36,36,9,27,9,18,0.8,1.3
2025-11-09T2200,1604A,122.0303,41.1489,盘锦市,开发区,,31,31,32,9,22,42,,59,52,15,30,4,5,0.1,0.3
2025-11-09T2200,1605A,122.0485,41.0883,盘锦市,兴隆台,,30,30,35,8,22,42,,53,48,13,34,6,7,0.3,0.5
2025-11-09T2200,1606A,121.8297,41.1028,盘锦市,新生街道,,22,21,31,3,18,19,,58,29,43,43,9,10,0.1,0.4
2025-11-09T2200,1832A,113.3257,33.742,平顶山市,新华旅馆,颗粒物(PM10),99,147,89,61,38,33,,92,73,59,25,8,9,0.6,0.6
2025-11-09T2200,1833A,113.2919,33.737,平顶山市,规划设计院,颗粒物(PM10),97,143,93,57,38,36,,89,70,52,30,6,6,0.7,0.7
2025-11-09T2200,1834A,113.182,33.774,平顶山市,平顶山工学院,颗粒物(PM10),93,135,83,46,30,71,,87,80,30,20,8,8,0.4,0.4
2025-11-09T2200,3204A,113.3025,33.73,平顶山市,规划局,颗粒物(PM10),109,168,96,53,34,29,,91,74,61,26,8,9,0.6,0.6
2025-11-09T2200,3594A,112.8867,33.9116,平顶山市,石龙区,颗粒物(PM10),112,174,119,41,30,9,,90,64,80,31,9,7,0.6,0.5
2025-11-09T2200,2656A,106.6692,35.5461,平凉市,聚贤嘉苑,,,108,102,38,31,22,,68,57,46,28,,6,0.9,0.5
2025-11-09T2200,2657A,106.7021,35.5307,平凉市,博物馆,颗粒物(PM10),81,111,99,51,37,17,,70,47,49,31,13,11,1.8,0.8
2025-11-09T2200,2347A,114.0997,27.5002,萍乡市,武功山,,,,,,,,,,,,,,,,
2025-11-09T2200,2348A,113.8385,27.6434,萍乡市,中医院,,15,11,12,10,8,32,,29,29,21,21,5,5,0.9,1
2025-11-09T2200,2349A,113.8493,27.6253,萍乡市,市政府车库,,12,,8,8,8,33,,34,34,21,21,9,7,0.7,0.7
2025-11-09T2200,2350A,113.8676,27.6435,萍乡市,市环保局,,15,13,14,10,9,33,,31,31,16,16,9,8,0.7,0.7
2025-11-09T2200,2351A,113.866,27.6198,萍乡市,安源区政府,,15,12,8,10,9,38,,35,35,14,15,12,10,0.7,0.7
2025-11-09T2200,2319A,119.0141,25.4325,莆田市,荔城区仓后路,,24,18,28,9,13,76,,92,85,8,13,4,5,0.4,0.5
2025-11-09T2200,2320A,119.0015,25.4553,莆田市,莆田市监测站,,25,13,22,9,12,80,,93,87,8,10,4,5,0.5,0.6
2025-11-09T2200,2321A,119.1119,25.4561,莆田市,涵江区六中,,,,27,4,13,79,,94,88,6,15,2,3,0.5,0.5
2025-11-09T2200,2322A,119.1013,25.3215,莆田市,秀屿区政府,,25,23,26,7,12,80,,94,88,9,12,4,5,0.5,0.4
2025-11-09T2200,2323A,118.981,25.4792,莆田市,东圳水库,,,,17,,10,,,76,,,7,,3,,1.0
2025-11-09T2200,2392A,115.0312,35.7636,濮阳市,环保局,颗粒物(PM10),81,112,64,55,38,9,,47,30,72,39,16,8,1.2,1.1
2025-11-09T2200,2394A,115.0574,35.7609,濮阳市,油田运输公司,颗粒物(PM10),85,120,84,56,40,8,,51,32,63,37,16,10,1.3,1.3
2025-11-09T2200,3021A,115,35.7668,濮阳市,濮水河管理处,细颗粒物(PM2.5),74,93,63,54,31,3,,43,25,43,32,8,8,0.9,0.5
2025-11-09T2200,4216A,115.0924,35.7686,濮阳市,任丘路479号,颗粒物(PM10),90,129,81,65,40,1,,46,27,63,39,10,9,1.3,1
2025-11-09T2200,2601A,100.98,22.7633,普洱市,市环保局,,28,28,23,15,14,29,,39,31,6,6,5,5,0.6,0.6
2025-11-09T2200,2602A,100.9817,22.8322,普洱市,普洱第二中学,,23,23,18,10,10,11,,37,25,15,10,4,4,0.5,0.3
2025-11-09T2200,2262A,131.0518,45.8751,七台河市,新一中,,,,,,,,,,,,,,,,
2025-11-09T2200,3345A,131.0577,45.7879,七台河市,中波台,,18,18,18,11,14,34,,52,41,16,11,7,7,0.6,0.6
2025-11-09T2200,3637A,131.0176,45.7761,七台河市,人民广场,,23,20,22,16,20,40,,56,42,17,14,7,7,0.5,0.5
2025-11-09T2200,3684A,130.8781,45.8222,七台河市,新建矿广场,,43,,28,30,22,38,,48,38,7,12,7,6,0.4,0.5
2025-11-09T2200,1779A,123.9305,47.3636,齐齐哈尔市,安居小区,,25,,26,17,20,52,,57,54,6,9,6,7,0.3,0.4
2025-11-09T2200,1780A,123.9488,47.3386,齐齐哈尔市,中心广场,,20,20,27,9,14,57,,57,56,7,11,5,6,0.3,0.3
2025-11-09T2200,1781A,123.9483,47.3227,齐齐哈尔市,农牧车辆厂,,22,22,27,14,19,53,,54,52,4,10,3,4,0.4,0.4
2025-11-09T2200,1783A,123.945,47.2988,齐齐哈尔市,市环境监测站,,19,16,29,13,22,53,,54,52,5,10,5,6,0.5,0.6
2025-11-09T2200,3662A,123.6333,47.2075,齐齐哈尔市,富区青少年活动中心,,18,,37,12,26,51,,48,46,10,20,5,8,0.6,0.9
2025-11-09T2200,2591A,107.9783,26.5747,黔东南苗族侗族自治州,市环境监测站,,19,6,5,6,4,58,,58,57,6,8,4,4,0.7,0.7
2025-11-09T2200,2881A,107.8908,26.5311,黔东南苗族侗族自治州,凯里学院,,19,,4,3,3,58,,64,58,10,10,4,3,0.8,0.7
2025-11-09T2200,2593A,107.5228,26.2403,黔南布依族苗族自治州,小围寨,,15,6,0,3,0,48,,53,50,3,4,4,4,0.7,0.6
2025-11-09T2200,3538A,107.5175,26.2978,黔南布依族苗族自治州,沙坝,,17,6,5,3,1,53,,59,56,5,6,4,3,0.8,0.7
2025-11-09T2200,2589A,104.9022,25.0925,黔西南布依族苗族自治州,场坝街,,17,17,12,3,7,29,,30,27,14,10,4,3,0.6,0.5
2025-11-09T2200,2590A,104.8811,25.0992,黔西南布依族苗族自治州,坪东大道,,12,12,13,3,5,33,,31,31,9,7,2,2,0.5,0.5
2025-11-09T2200,2502A,108.6236,21.9667,钦州市,市环保站,,36,36,26,9,17,32,,65,54,15,12,5,2,1.6,0.6
2025-11-09T2200,2503A,108.6549,21.9481,钦州市,沙埠小学,,25,25,30,12,19,38,,71,62,9,9,3,5,0.6,0.5
2025-11-09T2200,2504A,108.5989,21.7431,钦州市,港区一小,,40,40,41,19,20,23,,60,50,26,21,6,7,0.9,0.7
2025-11-09T2200,3404A,108.5959,21.9633,钦州市,北职校,,34,34,29,20,20,36,,64,54,8,9,5,5,0.7,0.7
2025-11-09T2200,1043A,119.7493,40.0116,秦皇岛市,第一关,,16,11,37,9,31,40,,69,39,32,32,4,5,0.2,0.4
2025-11-09T2200,1044A,119.5897,39.9499,秦皇岛市,监测站,,45,45,64,24,33,8,,67,43,57,38,8,7,0.5,0.7
2025-11-09T2200,1046A,119.5251,39.9041,秦皇岛市,建设大厦,,32,22,54,22,36,11,,63,41,55,34,5,5,0.3,0.5
2025-11-09T2200,3132A,119.610547,39.943889,秦皇岛市,文明里,,29,29,56,18,35,23,,60,43,38,33,9,9,0.2,0.4
2025-11-09T2200,4198A,119.5090,39.8253,秦皇岛市,北戴河轮滑馆,,32,32,53,17,34,14,,64,43,42,22,4,4,1.6,0.7
2025-11-09T2200,1307A,120.6659,36.2403,青岛市,仰口,,,,,,,,,,,,,,,,
2025-11-09T2200,1310A,120.4134,36.0658,青岛市,市南区东部子站,颗粒物(PM10),51,51,106,12,60,45,,82,68,46,21,8,8,0.4,0.6
2025-11-09T2200,1311A,120.3664,36.1032,青岛市,四方区子站,,36,36,70,14,68,54,,79,72,22,18,4,4,0.3,0.6
2025-11-09T2200,1312A,120.2994,36.054,青岛市,市南区西部子站,,34,34,94,12,61,70,,75,73,13,22,7,8,0.4,0.8
2025-11-09T2200,1313A,120.4581,36.0858,青岛市,崂山区子站,,44,44,95,12,54,55,,78,68,24,25,9,8,0.4,0.7
2025-11-09T2200,1315A,120.3999,36.3083,青岛市,城阳区子站,颗粒物(PM10),59,68,89,32,46,28,,78,63,48,27,6,4,0.6,0.7
2025-11-09T2200,3362A,120.5014,36.4034,青岛市,即墨2号,颗粒物(PM10),54,58,83,16,58,47,,71,59,31,32,5,4,0.4,0.7
2025-11-09T2200,3642A,120.3503,36.0736,青岛市,市北区南部,,41,41,95,7,57,58,,71,66,23,28,8,6,0.1,0.5
2025-11-09T2200,3643A,120.3948,36.1805,青岛市,李沧区北部,颗粒物(PM10),56,61,103,24,70,34,,76,60,44,31,8,6,0.5,0.7
2025-11-09T2200,4290A,120.1969,35.9546,青岛市,珠江路669号,颗粒物(PM10),52,53,92,17,65,42,,81,57,31,26,10,10,0.3,0.6
2025-11-09T2200,4291A,120.0424,35.8656,青岛市,黄岛区人民政府广场,,48,48,96,17,60,57,,88,68,27,31,6,6,0.7,1
2025-11-09T2200,1702A,113.0426,23.691,清远市,环保大楼,,,,,,,,,,,,,,,,
2025-11-09T2200,1703A,113.0208,23.7106,清远市,凤城街办,,15,8,9,7,8,46,,46,45,12,10,6,6,0.7,0.6
2025-11-09T2200,3025A,113.0477,23.6344,清远市,技师学院,,12,8,11,3,6,38,,51,43,11,12,4,4,0.6,0.5
2025-11-09T2200,3318A,112.9903,23.7403,清远市,清新太和,,16,6,9,3,5,51,,54,54,7,6,11,10,0.4,0.3
2025-11-09T2200,3455A,113.076,23.7198,清远市,清城东城,,13,6,11,3,6,41,,50,46,10,8,6,5,0.8,0.8
2025-11-09T2200,2661A,107.6325,35.7357,庆阳市,庆阳五中,颗粒物(PM10),94,137,125,52,39,56,,76,72,34,15,4,5,0.5,0.3
2025-11-09T2200,2662A,107.6364,35.7067,庆阳市,市环保局,颗粒物(PM10),86,121,128,36,36,67,,80,74,26,17,5,4,0.7,0.6
2025-11-09T2200,1916A,103.7897,25.5035,曲靖市,环境监测站,,15,12,11,10,6,9,,18,14,18,13,5,4,0.6,0.4
2025-11-09T2200,1917A,103.8,25.5364,曲靖市,烟厂办公区,,19,14,9,13,8,11,,22,16,20,13,3,4,0.7,0.6
2025-11-09T2200,3376A,103.7947,25.462,曲靖市,南苑二区,,9,7,6,6,4,19,,23,17,14,12,4,4,0.7,0.7
2025-11-09T2200,3377A,103.7444,25.5261,曲靖市,曲靖师范学院,,13,13,6,3,4,6,,22,12,19,12,2,2,0.7,0.5
2025-11-09T2200,1264A,118.8692,28.9398,衢州市,环保大楼,,12,8,12,3,8,37,,47,40,17,15,4,4,0.6,0.6
2025-11-09T2200,1265A,118.8709,28.9666,衢州市,实验学校,,11,7,9,3,7,30,,46,39,21,17,7,6,0.6,0.6
2025-11-09T2200,1266A,118.8621,28.9808,衢州市,衢州学院,,11,8,12,3,7,28,,45,39,22,15,5,3,0.3,0.3
2025-11-09T2200,1611A,118.5819,24.9117,泉州市,涂山街,,24,22,35,13,17,74,,99,87,9,11,3,4,0.5,0.5
2025-11-09T2200,1612A,118.5972,24.8978,泉州市,津头埔,,24,24,31,15,17,72,,100,88,13,13,3,4,0.4,0.4
2025-11-09T2200,1613A,118.6663,24.9424,泉州市,万安,,23,23,34,11,13,73,,98,88,9,12,3,4,0.5,0.5
2025-11-09T2200,1614A,118.6117,24.9604,泉州市,清源山,,,,24,,13,,,85,,,9,,5,,0.5
2025-11-09T2200,3529A,118.6333,24.9264,泉州市,城华南路,,25,25,30,14,15,71,,84,79,14,14,4,4,0.4,0.4
2025-11-09T2200,2626A,88.8876,29.2718,日喀则市,日喀则监测站,颗粒物(PM10),56,61,34,33,18,33,,87,72,50,28,16,11,0.8,0.6
2025-11-09T2200,3726A,88.8781,29.2426,日喀则市,林业技术推广中心,,30,10,14,3,6,96,,89,89,2,6,6,6,0.2,0.3
2025-11-09T2200,1659A,119.471,35.4209,日照市,监测站,细颗粒物(PM2.5),103,119,72,77,46,7,,79,52,66,40,7,7,1.0,0.8
2025-11-09T2200,1660A,119.523,35.4216,日照市,市政府广场,细颗粒物(PM2.5),84,107,78,62,47,55,,80,70,27,29,9,8,0.9,1
2025-11-09T2200,1661A,119.5587,35.4044,日照市,港务局,细颗粒物(PM2.5),108,110,83,81,65,53,,84,74,31,32,8,8,0.7,0.7
2025-11-09T2200,3507A,119.5328,35.4625,日照市,职业技术学院,颗粒物(PM10),76,102,82,48,49,59,,82,69,28,37,5,5,0.9,0.9
2025-11-09T2200,3604A,119.3266,35.1044,日照市,岚山环保分局,细颗粒物(PM2.5),93,124,95,69,54,53,,78,73,39,36,40,14,2.9,1.5
2025-11-09T2200,1835A,111.1922,34.7752,三门峡市,市政府,颗粒物(PM10),89,128,94,49,38,4,,57,41,56,37,8,10,0.5,0.5
2025-11-09T2200,1836A,111.1587,34.7942,三门峡市,开发区,颗粒物(PM10),104,158,91,49,32,5,,67,52,64,31,6,6,0.4,0.3
2025-11-09T2200,1838A,111.143,34.7955,三门峡市,风景区,颗粒物(PM10),99,148,89,55,30,4,,72,62,58,25,7,8,0.6,0.5
2025-11-09T2200,3039A,111.1911,34.7829,三门峡市,三门峡市第一小学,颗粒物(PM10),98,146,108,37,30,19,,66,53,50,38,11,13,0.4,0.5
2025-11-09T2200,3598A,111.1,34.7167,三门峡市,富达温泉假日酒店,颗粒物(PM10),103,155,111,47,40,19,,63,52,29,24,9,11,0.4,0.4
2025-11-09T2200,2324A,117.6211,26.2625,三明市,三钢,,12,8,16,7,11,38,,36,35,7,9,1,2,0.8,0.8
2025-11-09T2200,2325A,117.635,26.2714,三明市,三明二中,,12,9,14,8,11,37,,34,34,4,6,2,3,0.7,0.7
2025-11-09T2200,2326A,117.6028,26.2378,三明市,三元区政府,,14,8,13,8,13,43,,40,38,6,9,3,3,0.8,1.2
2025-11-09T2200,2327A,117.7275,26.3108,三明市,洋溪,,,,11,,10,,,32,,,7,,11,,1.4
2025-11-09T2200,1876A,109.5078,18.2489,三亚市,河东子站,,24,24,14,7,7,54,,56,56,8,7,4,4,0.4,0.4
2025-11-09T2200,1877A,109.4964,18.2681,三亚市,河西子站,,19,18,17,8,6,58,,59,59,7,8,6,6,0.4,0.4
2025-11-09T2200,3540A,109.7348,18.3443,三亚市,君悦子站,,20,20,18,12,5,18,,62,50,26,8,4,4,0.5,0.4
2025-11-09T2200,2624A,91.7608,29.2313,山南市,山南监测站,,25,7,8,3,4,80,,82,82,1,6,5,5,0.3,0.3
2025-11-09T2200,2625A,91.7706,29.2436,山南市,山南人民医院,,25,16,12,6,6,78,,77,77,1,5,5,5,0.2,0.2
2025-11-09T2200,1674A,116.6794,23.3667,汕头市,金平子站,,30,30,42,19,25,81,,128,99,18,20,6,7,0.7,0.7
2025-11-09T2200,1675A,116.7244,23.3633,汕头市,龙湖子站,,29,29,39,19,21,77,,118,92,14,15,10,11,0.7,0.7
2025-11-09T2200,1676A,116.7258,23.2775,汕头市,濠江子站,,33,27,37,23,22,81,,127,109,8,12,6,8,0.7,0.7
2025-11-09T2200,1677A,116.7519,23.4714,汕头市,澄海子站,,34,34,47,20,28,82,,115,80,14,15,5,8,0.7,0.7
2025-11-09T2200,1678A,116.6092,23.2539,汕头市,潮阳子站,,29,25,36,14,22,91,,135,114,11,15,6,7,0.5,0.5
2025-11-09T2200,3444A,116.454,23.2684,汕头市,潮南峡山,,36,36,46,20,29,86,,113,91,8,12,8,10,0.6,0.7
2025-11-09T2200,3624A,116.4069,23.2533,汕头市,潮南子站,,43,43,55,25,33,79,,104,72,18,17,6,7,0.7,0.7
2025-11-09T2200,1693A,115.3653,22.775,汕尾市,市环保局,,15,10,31,10,20,46,,105,68,8,10,5,6,0.7,0.6
2025-11-09T2200,1694A,115.3706,22.7898,汕尾市,市政府,,17,17,33,3,20,50,,103,68,9,12,7,8,0.6,0.5
2025-11-09T2200,1695A,115.3622,22.7925,汕尾市,新城中学,,16,14,32,9,18,49,,107,68,6,10,7,8,0.7,0.6
2025-11-09T2200,2645A,109.9154,33.8715,商洛市,监测站,颗粒物(PM10),61,71,52,33,27,29,,69,53,34,23,3,4,0.5,0.5
2025-11-09T2200,3045A,109.9643,33.8471,商洛市,商州区中学,颗粒物(PM10),65,79,60,28,21,11,,67,51,45,27,5,5,0.5,0.5
2025-11-09T2200,2408A,115.6702,34.4285,商丘市,环境监测站,细颗粒物(PM2.5),114,121,78,86,60,17,,87,65,66,28,2,2,0.7,0.6
2025-11-09T2200,2409A,115.6458,34.4045,商丘市,粮食局,细颗粒物(PM2.5),95,114,70,71,47,34,,78,63,50,30,4,3,1.0,0.8
2025-11-09T2200,2410A,115.6293,34.3948,商丘市,睢阳区环保局,细颗粒物(PM2.5),109,123,65,82,46,37,,80,69,46,32,2,2,0.7,0.6
2025-11-09T2200,3171A,115.6071,34.4465,商丘市,梁园区档案局,细颗粒物(PM2.5),120,114,65,91,58,6,,75,54,85,33,3,2,0.8,0.7
2025-11-09T2200,1141A,121.4,31.238,上海市,普陀,,46,46,20,30,18,73,,79,79,30,22,6,5,0.9,0.6
2025-11-09T2200,1142A,121.478,31.2036,上海市,十五厂,,45,42,22,31,19,86,,80,80,16,15,7,7,0.6,0.6
2025-11-09T2200,1143A,121.467,31.3008,上海市,虹口,,,40,20,34,19,,,78,78,16,14,9,8,,0.4
2025-11-09T2200,1147A,121.425,31.2261,上海市,静安监测站,,48,40,20,33,18,86,,82,82,21,19,5,4,0.6,0.5
2025-11-09T2200,1148A,121.703,31.1907,上海市,浦东川沙,,42,42,23,27,19,76,,80,76,22,19,10,9,0.6,0.6
