timepoint,stationcode,longitude,latitude,area,positionname,primarypollutant,aqi,pm10,pm10_24h,pm2_5,pm2_5_24h,o3,o3_24h,o3_8h,o3_8h_24h,no2,no2_24h,so2,so2_24h,co,co_24h
2026-03-13T1800,2568A,102.2503,31.8896,阿坝藏族羌族自治州,马师校,,29,25,28,9,17,91,91,86,86,5,11,4,5,0.4,0.5
2026-03-13T1800,3994A,102.2174,31.9016,阿坝藏族羌族自治州,马尔康中学西区,,27,16,15,12,13,85,85,85,85,7,8,7,6,0.4,0.4
2026-03-13T1800,2695A,80.2899,41.1684,阿克苏地区,电视台,颗粒物(PM10),500,865,882,187,187,91,91,77,77,2,5,1,1,0.8,0.8
2026-03-13T1800,2696A,80.2592,41.1541,阿克苏地区,艺术中心,颗粒物(PM10),500,738,832,184,193,96,96,83,83,3,5,5,4,0.3,0.2
2026-03-13T1800,2205A,105.699,38.8409,阿拉善盟,蒙二幼,颗粒物(PM10),372,477,781,104,184,67,67,78,75,6,4,8,8,0.5,0.4
2026-03-13T1800,2206A,105.7198,38.8508,阿拉善盟,环保局新楼,颗粒物(PM10),300,420,761,104,193,67,67,75,72,7,4,7,7,0.5,0.4
2026-03-13T1800,2708A,88.1266,47.8515,阿勒泰地区,市站,,26,23,20,3,4,82,82,77,77,23,13,6,5,0.2,0.2
2026-03-13T1800,4166A,88.1198,47.7931,阿勒泰地区,阿勒泰路33号,,29,28,20,7,6,90,90,82,82,12,10,6,6,0.4,0.4
2026-03-13T1800,2630A,80.1171,32.4999,阿里地区,阿里监测站,,30,16,14,12,5,96,96,93,92,1,2,7,8,0.2,0.3
2026-03-13T1800,3192A,80.0906,32.5029,阿里地区,阿里藏医院,,33,20,14,3,3,105,105,100,100,1,2,8,9,0.4,0.3
2026-03-13T1800,2644A,109.0088,32.6974,安康市,汉滨区检察院,细颗粒物(PM2.5),122,110,127,84,100,122,122,135,129,18,16,4,4,0.7,0.7
2026-03-13T1800,4054A,109.0324,32.6913,安康市,市邮政管理局,细颗粒物(PM2.5),126,138,134,88,104,120,120,128,116,22,21,4,4,0.8,0.7
2026-03-13T1800,2291A,117.0806,30.5181,安庆市,环科院,颗粒物(PM10),53,54,71,26,47,137,137,131,131,10,21,8,9,0.6,0.6
2026-03-13T1800,2292A,117.0331,30.5118,安庆市,马山宾馆,颗粒物(PM10),52,52,69,27,44,135,135,134,134,28,30,6,7,0.6,0.8
2026-03-13T1800,2294A,116.9897,30.6146,安庆市,安庆大学,,45,43,57,26,35,144,144,130,130,10,15,5,5,0.4,0.6
2026-03-13T1800,3173A,117.0598,30.5351,安庆市,市人大,NA,NA,NA,70,NA,45,133,133,132,132,14,26,6,8,NA,0.5
2026-03-13T1800,3123A,105.9408,26.2431,安顺市,凤凰山,,33,26,27,20,21,105,105,108,108,7,12,10,14,0.5,0.5
2026-03-13T1800,3124A,105.9443,26.2567,安顺市,金钟山,,35,35,28,17,20,100,100,102,102,6,8,10,14,0.6,0.6
2026-03-13T1800,3125A,105.8983,26.248,安顺市,娄家坡,,31,28,28,21,21,99,99,100,100,6,8,7,9,0.5,0.5
2026-03-13T1800,1819A,114.3552,36.1017,安阳市,红庙街,细颗粒物(PM2.5),115,NA,127,76,132,113,113,117,117,23,25,3,2,0.4,0.5
2026-03-13T1800,1820A,114.361,36.0681,安阳市,银杏小区,细颗粒物(PM2.5),118,NA,142,79,141,116,116,122,122,22,24,3,2,0.4,0.6
2026-03-13T1800,3141A,114.3921,36.0879,安阳市,信访局,细颗粒物(PM2.5),122,90,140,84,136,118,118,125,125,15,22,3,3,0.4,0.5
2026-03-13T1800,3669A,114.4706,36.0634,安阳市,左辅环卫站,细颗粒物(PM2.5),119,139,184,80,139,114,114,118,118,17,27,3,3,0.4,0.6
2026-03-13T1800,4117A,114.2918,36.0769,安阳市,钢三路198号,细颗粒物(PM2.5),129,115,172,91,140,101,101,108,108,27,25,4,4,0.5,0.6
2026-03-13T1800,1748A,123.0441,41.1201,鞍山市,深沟寺,,44,44,74,29,52,102,102,108,108,12,23,7,9,0.6,0.8
2026-03-13T1800,1749A,123.011,41.0931,鞍山市,太阳城,,48,43,77,33,61,99,99,107,107,14,25,11,14,0.6,0.9
2026-03-13T1800,1750A,123.0483,41.1445,鞍山市,太平,颗粒物(PM10),51,51,85,29,55,96,96,102,102,14,28,9,12,0.6,0.9
2026-03-13T1800,1751A,122.964,41.0968,鞍山市,铁西三道街,颗粒物(PM10),69,76,110,42,73,84,84,98,98,29,45,15,21,0.6,1.1
2026-03-13T1800,1753A,123.0219,41.0822,鞍山市,明达新区,,49,47,80,34,58,99,99,107,107,13,23,12,13,0.6,0.9
2026-03-13T1800,4201A,122.944647,41.082639,鞍山市,兴盛南路290号,颗粒物(PM10),57,59,114,32,72,96,96,107,105,18,44,9,13,0.7,1.2
2026-03-13T1800,2195A,107.4206,40.7609,巴彦淖尔市,附二中,NA,NA,82,1089,20,332,NA,NA,69,NA,4,6,8,8,0.4,0.4
2026-03-13T1800,2196A,107.37,40.7372,巴彦淖尔市,市环保大楼,颗粒物(PM10),74,83,1340,16,410,83,83,85,85,6,7,5,5,0.3,0.3
2026-03-13T1800,1956A,86.1476,41.7529,巴音郭楞蒙古自治州,孔雀公园,颗粒物(PM10),124,180,109,NA,24,86,86,80,80,4,11,8,8,NA,0.3
2026-03-13T1800,1957A,86.1971,41.7166,巴音郭楞蒙古自治州,棉纺厂,颗粒物(PM10),136,213,130,49,31,89,89,82,82,2,13,/,/,/,/
2026-03-13T1800,1958A,86.236,41.7172,巴音郭楞蒙古自治州,经济开发区,颗粒物(PM10),124,182,121,38,26,78,78,77,77,6,7,5,5,0.3,0.3
2026-03-13T1800,3181A,106.776805,31.852614,巴中市,市五中,细颗粒物(PM2.5),56,53,51,38,38,42,42,50,50,20,19,8,8,0.8,0.8
2026-03-13T1800,3183A,106.7419,31.8654,巴中市,圣泉水务公司,细颗粒物(PM2.5),62,51,53,41,38,56,56,52,50,10,24,9,9,0.8,0.9
2026-03-13T1800,3616A,106.7617,31.8343,巴中市,市中心医院,细颗粒物(PM2.5),66,57,57,43,39,47,47,48,48,16,32,10,9,0.8,0.9
2026-03-13T1800,2235A,122.7909,45.608,白城市,洮北区环保局,细颗粒物(PM2.5),115,106,77,76,51,67,67,89,87,22,18,5,6,0.6,0.4
2026-03-13T1800,2236A,122.8741,45.5725,白城市,市环保局,细颗粒物(PM2.5),114,95,84,75,51,58,58,86,83,21,19,4,5,0.5,0.4
2026-03-13T1800,2231A,126.4219,41.9172,白山市,喜丰,颗粒物(PM10),55,56,54,20,28,89,89,92,92,9,22,8,10,0.7,0.8
2026-03-13T1800,2232A,126.4082,41.9416,白山市,环保局,,31,31,40,16,27,95,95,95,95,8,14,9,10,0.7,0.7
2026-03-13T1800,2647A,104.1727,36.5448,白银市,第三小学,颗粒物(PM10),169,288,611,40,134,85,85,82,82,NA,4,NA,2,NA,0.2
2026-03-13T1800,2648A,104.1467,36.5482,白银市,动力公司,颗粒物(PM10),162,273,673,40,136,82,82,77,77,5,4,3,4,0.3,0.3
2026-03-13T1800,2512A,106.6102,23.901,百色市,市监测站,颗粒物(PM10),53,54,43,35,27,92,92,96,96,15,23,14,13,0.7,0.6
2026-03-13T1800,2513A,106.6524,23.8842,百色市,市中心血站,细颗粒物(PM2.5),66,64,61,43,39,98,98,99,99,22,37,15,13,0.8,0.7
2026-03-13T1800,4133A,106.6273,23.8798,百色市,龙景西路,细颗粒物(PM2.5),96,73,51,58,35,96,96,102,102,19,21,16,14,0.7,0.6
2026-03-13T1800,2270A,117.396,32.9389,蚌埠市,工人疗养院,NA,NA,NA,103,NA,84,129,129,128,128,NA,32,4,5,NA,0.7
2026-03-13T1800,2271A,117.3606,32.9428,蚌埠市,百货大楼,,44,44,95,24,74,128,128,126,126,15,28,5,5,0.6,0.6
2026-03-13T1800,2273A,117.4183,32.8909,蚌埠市,蚌埠学院,,48,48,88,23,84,126,126,129,129,17,22,5,4,0.5,0.6
2026-03-13T1800,2274A,117.3534,32.9672,蚌埠市,淮上区政府,,44,44,90,30,84,129,129,130,130,17,29,5,5,0.5,0.6
2026-03-13T1800,2275A,117.3143,32.8977,蚌埠市,高新区,,44,44,91,27,85,118,118,120,120,19,22,7,6,0.5,0.6
2026-03-13T1800,3715A,117.3091,32.9314,蚌埠市,蚌埠田家炳中学,颗粒物(PM10),52,52,99,28,82,124,124,128,128,17,24,5,5,0.5,0.6
2026-03-13T1800,1585A,109.8761,40.6533,包头市,市环境监测站,颗粒物(PM10),53,53,328,9,142,89,89,88,88,9,14,5,7,0.3,0.5
2026-03-13T1800,1587A,109.9992,40.5843,包头市,包头八中,颗粒物(PM10),53,54,434,17,145,80,80,80,80,8,12,7,9,0.3,0.4
2026-03-13T1800,1589A,109.8641,40.6288,包头市,惠龙物流,,35,35,342,17,133,89,89,89,89,9,14,5,7,0.2,0.5
2026-03-13T1800,1590A,110.0376,40.5546,包头市,东河鸿龙湾,,42,42,356,20,125,81,81,81,81,10,15,7,8,0.4,0.5
2026-03-13T1800,3283A,109.9154,40.5684,包头市,滨河大厦,,41,41,432,6,119,86,86,84,84,6,14,7,9,0.4,0.5
2026-03-13T1800,3419A,109.9449,40.6259,包头市,包头市委党校,,42,42,435,26,139,81,81,80,80,8,14,8,10,0.4,0.5
2026-03-13T1800,3683A,109.8332,40.6577,包头市,昆区政府,,34,34,362,10,107,88,88,88,88,12,19,7,11,0.4,0.6
2026-03-13T1800,1931A,107.0802,34.3129,宝鸡市,竹园沟,颗粒物(PM10),319,435,270,138,120,57,57,53,53,10,16,7,7,0.4,0.5
2026-03-13T1800,1933A,107.1429,34.3549,宝鸡市,监测站,颗粒物(PM10),415,515,317,92,100,49,49,47,47,14,22,5,5,0.1,0.4
2026-03-13T1800,1934A,107.1172,34.3759,宝鸡市,技工学校,颗粒物(PM10),500,609,349,148,123,56,56,54,52,12,17,3,4,0.6,0.7
2026-03-13T1800,1936A,107.2025,34.3518,宝鸡市,文理学院,颗粒物(PM10),420,520,324,146,122,52,52,53,53,13,18,4,4,0.4,0.6
2026-03-13T1800,1937A,107.2396,34.3626,宝鸡市,三迪小学,颗粒物(PM10),418,518,324,139,121,49,49,50,50,16,21,4,4,0.4,0.6
2026-03-13T1800,4155A,107.1721,34.3558,宝鸡市,滨河北路,颗粒物(PM10),472,572,326,154,124,55,55,51,51,8,16,5,6,0.3,0.5
2026-03-13T1800,4308A,107.3898,34.3601,宝鸡市,陈仓区北开路21号,颗粒物(PM10),312,429,311,130,116,46,46,50,44,17,23,6,7,0.4,0.6
2026-03-13T1800,1051A,115.4803,38.8568,保定市,游泳馆,细颗粒物(PM2.5),183,160,126,138,110,62,62,50,50,48,57,7,6,0.6,0.7
2026-03-13T1800,1052A,115.509,38.8895,保定市,华电二区,细颗粒物(PM2.5),179,141,117,135,101,55,55,43,43,39,42,3,3,1.0,0.9
2026-03-13T1800,1053A,115.4588,38.9037,保定市,接待中心,细颗粒物(PM2.5),172,149,123,130,102,57,57,48,45,47,40,5,4,0.5,0.4
2026-03-13T1800,1054A,115.4484,38.8344,保定市,地表水厂,细颗粒物(PM2.5),168,159,141,127,102,63,63,49,49,44,54,6,7,0.6,0.6
2026-03-13T1800,3581A,115.3136,38.9511,保定市,满城区生态环境分局,细颗粒物(PM2.5),159,161,161,121,112,60,60,52,52,53,55,7,7,0.4,0.6
2026-03-13T1800,3582A,115.4709,38.7628,保定市,清苑区第二中学,细颗粒物(PM2.5),176,181,153,133,103,36,36,37,37,66,58,5,6,0.7,0.6
2026-03-13T1800,3583A,115.6231,39.0223,保定市,徐水物探局,细颗粒物(PM2.5),180,181,154,136,110,63,63,50,50,43,45,5,5,0.7,0.7
2026-03-13T1800,4004A,115.4199,38.8665,保定市,双鹰农机,细颗粒物(PM2.5),178,175,157,134,109,64,64,56,56,48,45,5,5,0.6,0.6
2026-03-13T1800,4034A,115.515,38.8589,保定市,植保所站,细颗粒物(PM2.5),166,159,137,126,104,54,54,46,40,52,64,6,4,0.7,0.7
2026-03-13T1800,2594A,99.1589,25.1137,保山市,市环境监测站,细颗粒物(PM2.5),82,57,57,51,43,95,95,86,86,17,15,4,4,0.3,0.4
2026-03-13T1800,2595A,99.1616,25.1381,保山市,市环保局,细颗粒物(PM2.5),88,70,61,54,46,99,99,87,87,13,11,5,5,0.7,0.6
2026-03-13T1800,1867A,109.1435,21.4085,北海市,海滩公园,颗粒物(PM10),56,58,42,23,24,152,152,147,147,9,13,8,9,0.6,0.8
2026-03-13T1800,1868A,109.0983,21.466,北海市,新市环保局,颗粒物(PM10),53,53,42,29,27,148,148,144,144,12,16,7,9,0.6,0.7
2026-03-13T1800,1869A,109.1775,21.5232,北海市,北海工业园,颗粒物(PM10),65,70,53,27,30,97,97,119,119,8,13,8,9,0.7,0.9
2026-03-13T1800,3400A,109.1844,21.4396,北海市,龙潭自来水厂,,50,50,52,15,29,145,145,140,140,6,10,7,8,0.4,0.6
2026-03-13T1800,1001A,116.3611,39.8786,北京市,万寿西宫,细颗粒物(PM2.5),127,117,92,89,63,39,39,50,50,70,48,4,4,0.9,0.6
2026-03-13T1800,1003A,116.4174,39.9289,北京市,东四,细颗粒物(PM2.5),123,126,92,85,61,33,33,42,42,73,46,7,8,0.9,0.7
2026-03-13T1800,1004A,116.4073,39.8858,北京市,天坛,细颗粒物(PM2.5),115,118,85,76,56,30,30,38,38,69,47,4,4,1.0,0.8
2026-03-13T1800,1005A,116.4622,39.9364,北京市,农展馆,细颗粒物(PM2.5),123,124,87,85,58,30,30,36,36,55,42,6,6,0.9,0.6
2026-03-13T1800,1006A,116.3399,39.9293,北京市,官园,细颗粒物(PM2.5),133,127,95,96,64,47,47,48,48,65,50,3,4,0.8,0.6
2026-03-13T1800,1007A,116.2879,39.9613,北京市,海淀万柳,细颗粒物(PM2.5),124,117,92,86,62,36,36,37,37,65,48,4,4,0.9,0.7
2026-03-13T1800,1008A,116.6635,40.1349,北京市,顺义新城,细颗粒物(PM2.5),123,118,89,85,57,60,60,54,54,39,37,5,6,0.6,0.7
2026-03-13T1800,1009A,116.6275,40.327,北京市,怀柔镇,细颗粒物(PM2.5),114,98,86,75,60,66,66,62,62,35,33,6,6,0.7,0.8
2026-03-13T1800,1010A,116.2295,40.217,北京市,昌平镇,细颗粒物(PM2.5),117,104,98,78,70,41,41,42,42,50,42,3,4,0.8,0.8
2026-03-13T1800,1011A,116.3968,39.982,北京市,奥体中心,细颗粒物(PM2.5),117,112,90,78,59,33,33,41,41,56,44,5,5,0.9,0.8
2026-03-13T1800,3418A,116.8336,40.4095,北京市,密云新城,细颗粒物(PM2.5),126,125,96,88,59,75,75,63,63,27,28,5,5,0.7,0.7
2026-03-13T1800,3671A,116.0879,39.9725,北京市,门头沟三家店,细颗粒物(PM2.5),125,125,117,87,74,50,50,50,50,51,44,4,4,0.7,0.7
2026-03-13T1800,3672A,116.1507,39.8246,北京市,丰台云岗,细颗粒物(PM2.5),129,135,109,91,71,38,38,46,46,65,42,4,4,0.9,0.7
2026-03-13T1800,3674A,115.9578,39.7602,北京市,房山燕山,细颗粒物(PM2.5),137,141,129,100,92,58,58,47,47,49,40,5,5,0.6,0.6
2026-03-13T1800,3675A,116.4669,39.7734,北京市,大兴旧宫,细颗粒物(PM2.5),122,132,93,84,57,33,33,35,35,69,45,5,5,0.9,0.7
2026-03-13T1800,3694A,115.9859,40.4562,北京市,延庆石河营,细颗粒物(PM2.5),150,132,116,114,87,77,77,75,75,26,22,2,2,0.9,0.8
2026-03-13T1800,3695A,116.6151,40.3052,北京市,怀柔新城,细颗粒物(PM2.5),113,96,85,74,62,58,58,60,60,38,28,5,4,0.7,0.7
2026-03-13T1800,3696A,116.2542,39.8764,北京市,丰台小屯,细颗粒物(PM2.5),127,129,101,89,64,46,46,46,46,64,49,5,5,0.7,0.6
2026-03-13T1800,3697A,116.8399,40.3843,北京市,密云镇,细颗粒物(PM2.5),121,112,91,83,61,68,68,65,65,35,33,5,6,0.7,0.7
2026-03-13T1800,4057A,115.9423,40.4431,北京市,延庆百泉,细颗粒物(PM2.5),145,129,117,109,86,85,85,78,78,27,26,3,3,0.8,0.7
2026-03-13T1800,4058A,116.6598,39.9164,北京市,通州新华,细颗粒物(PM2.5),126,140,91,88,56,36,36,29,29,55,46,3,4,0.7,0.6
2026-03-13T1800,4182A,116.1942,39.9158,北京市,石景山八角,细颗粒物(PM2.5),121,115,100,83,64,43,43,46,46,57,45,5,5,0.8,0.6
2026-03-13T1800,4194A,117.078628,40.151726,北京市,平谷新城,细颗粒物(PM2.5),121,120,94,83,61,47,47,50,45,53,37,4,3,0.7,0.7
2026-03-13T1800,1761A,123.8274146,41.31234549,本溪市,大峪,颗粒物(PM10),52,52,63,25,31,108,108,108,108,9,31,11,10,0.5,0.6
2026-03-13T1800,1763A,123.7169,41.3094,本溪市,彩屯,颗粒物(PM10),63,68,88,31,53,92,92,101,101,30,41,21,17,2.2,2.2
2026-03-13T1800,1764A,123.7672166,41.28649327,本溪市,东明,颗粒物(PM10),56,58,77,33,38,104,104,108,108,14,34,11,11,0.5,0.7
2026-03-13T1800,1765A,123.799345,41.266614,本溪市,新立屯,,38,37,52,26,27,104,104,108,108,9,29,8,8,0.6,0.6
2026-03-13T1800,1766A,123.829144,41.336777,本溪市,威宁,,48,48,83,24,39,110,110,113,113,7,31,8,7,0.6,0.9
2026-03-13T1800,2587A,105.287,27.3133,毕节市,八中,细颗粒物(PM2.5),52,45,36,36,27,76,76,77,77,9,11,10,10,0.6,0.6
2026-03-13T1800,2588A,105.3079,27.2987,毕节市,师专,,50,48,33,35,24,67,67,68,68,9,11,8,9,0.5,0.5
2026-03-13T1800,4263A,105.3688,27.3598,毕节市,工业大道,,50,50,37,33,22,74,74,82,82,18,9,11,10,/,/
2026-03-13T1800,1629A,117.9961,37.3604,滨州市,第二水厂,细颗粒物(PM2.5),150,144,85,114,60,126,126,130,130,22,38,11,14,0.6,0.5
2026-03-13T1800,1630A,117.9789,37.3931,滨州市,北中新校,细颗粒物(PM2.5),140,132,85,104,56,131,131,130,130,NA,30,12,15,0.4,0.4
2026-03-13T1800,3514A,117.9379,37.3959,滨州市,中海酒店,细颗粒物(PM2.5),143,141,82,107,54,126,126,132,132,28,36,9,12,0.9,0.8
2026-03-13T1800,3515A,117.9381509,37.35547456,滨州市,开发区一中,细颗粒物(PM2.5),142,149,91,106,58,110,110,122,122,17,25,13,16,0.7,0.7
2026-03-13T1800,3516A,118.0914,37.6938,滨州市,金海六路,细颗粒物(PM2.5),144,127,77,108,57,132,132,130,130,17,22,7,11,0.6,0.6
2026-03-13T1800,4028A,117.9955,37.3752,滨州市,滨州市西街道办事处,细颗粒物(PM2.5),146,139,91,110,61,122,122,129,129,17,29,15,17,0.7,0.6
2026-03-13T1800,2311A,115.8071,33.8399,亳州市,污水处理厂,细颗粒物(PM2.5),104,80,110,64,90,126,126,130,130,14,19,5,7,0.2,0.2
2026-03-13T1800,2312A,115.7789,33.8519,亳州市,三国揽胜宫,细颗粒物(PM2.5),101,86,116,61,90,120,120,120,120,12,17,5,6,0.1,0.3
2026-03-13T1800,3332A,115.7631,33.803,亳州市,亳州学院,细颗粒物(PM2.5),105,82,112,65,93,122,122,122,122,11,16,6,6,0.1,0.2
2026-03-13T1800,2693A,82.0482,44.8553,博尔塔拉蒙古自治州,市党校,颗粒物(PM10),80,92,101,32,18,83,83,87,85,13,6,4,2,0.6,0.5
2026-03-13T1800,2694A,82.0805,44.8966,博尔塔拉蒙古自治州,市环保局,NA,NA,NA,78,NA,15,59,59,80,72,18,14,2,2,0.4,0.5
2026-03-13T1800,1071A,116.8733,38.2922,沧州市,沧县城建局,细颗粒物(PM2.5),165,168,97,125,71,59,59,85,85,49,34,6,7,0.8,0.6
2026-03-13T1800,1072A,116.8462,38.3189,沧州市,电视转播站,细颗粒物(PM2.5),186,163,94,140,78,54,54,81,81,53,36,8,6,0.7,0.6
2026-03-13T1800,1073A,116.8588,38.3161,沧州市,市环保局,细颗粒物(PM2.5),155,179,103,118,69,53,53,82,82,54,34,8,8,0.8,0.6
2026-03-13T1800,3324A,116.8011,38.294,沧州市,河北水利电力学院,细颗粒物(PM2.5),198,178,101,148,78,56,56,71,71,48,34,9,9,0.8,0.5
2026-03-13T1800,2622A,97.1813,31.1289,昌都市,昌都监测站,,33,14,20,3,5,105,105,88,88,2,7,2,3,0.4,0.5
2026-03-13T1800,3719A,97.1707,31.1428,昌都市,昌都会议中心,,32,16,20,7,13,102,102,92,92,4,6,6,6,0.6,0.5
2026-03-13T1800,2692A,87.2722,44.0298,昌吉回族自治州,新区政务中心,,32,31,54,22,41,92,92,83,83,9,20,7,6,0.3,0.6
2026-03-13T1800,3613A,87.3069,44.0093,昌吉回族自治州,亚心广场,,34,34,79,18,51,99,99,88,88,7,13,12,9,0.4,0.6
2026-03-13T1800,4164A,87.2057,43.9289,昌吉回族自治州,财政所,,45,45,63,18,27,88,88,85,85,8,11,8,7,0.3,0.7
2026-03-13T1800,1120A,125.2874,43.9024,长春市,客车厂,颗粒物(PM10),149,247,93,89,54,121,121,118,118,24,32,11,9,0.8,0.7
2026-03-13T1800,1121A,125.2943,43.8508,长春市,邮电学院,颗粒物(PM10),144,232,94,83,56,125,125,117,117,22,23,12,10,0.7,0.5
2026-03-13T1800,1122A,125.3648,43.8745,长春市,劳动公园,颗粒物(PM10),137,215,86,83,54,128,128,121,121,22,24,12,10,0.6,0.3
2026-03-13T1800,1123A,125.3233,43.8781,长春市,园林处,颗粒物(PM10),140,223,88,95,59,126,126,119,119,21,24,12,11,0.8,0.7
2026-03-13T1800,1124A,125.4604,43.7904,长春市,净月潭,颗粒物(PM10),134,206,77,78,55,125,125,116,116,17,13,10,8,0.7,0.6
2026-03-13T1800,1126A,125.38,43.8422,长春市,经开区环卫处,颗粒物(PM10),138,217,89,79,54,126,126,118,118,20,27,9,8,0.8,0.6
2026-03-13T1800,1127A,125.234,43.7761,长春市,高新区管委会,颗粒物(PM10),135,211,121,72,72,124,124,119,119,20,37,12,9,0.9,0.9
2026-03-13T1800,1128A,125.1695,43.83,长春市,岱山公园,颗粒物(PM10),132,201,99,90,59,118,118,116,116,20,32,8,7,0.7,0.6
2026-03-13T1800,4281A,125.334645,43.916281,长春市,北亚泰大街1068号,颗粒物(PM10),149,246,104,92,61,110,110,107,107,28,35,12,10,0.7,0.6
2026-03-13T1800,1335A,113.082,28.2421,长沙市,经开区环保局,,42,39,53,16,25,134,134,123,123,15,28,4,4,0.4,0.4
2026-03-13T1800,1336A,112.8873,28.2202,长沙市,高开区环保局,,45,36,53,18,30,144,144,126,126,24,34,6,6,0.4,0.5
2026-03-13T1800,1337A,113.0785,28.2012,长沙市,马坡岭,,46,31,53,18,26,145,145,140,140,11,25,6,6,0.6,0.7
2026-03-13T1800,1338A,112.9448,28.1894,长沙市,湖南师范大学,,48,46,51,22,25,153,153,141,141,21,24,6,5,0.4,0.6
2026-03-13T1800,1339A,113.0177,28.1322,长沙市,雨花区环保局,,46,23,45,16,23,146,146,131,131,11,17,5,5,0.3,0.4
2026-03-13T1800,1340A,112.9795,28.2593,长沙市,伍家岭,,46,40,64,17,34,146,146,130,130,17,27,5,4,0.4,0.6
2026-03-13T1800,1341A,113.002,28.1944,长沙市,火车新站,,44,34,52,17,26,138,138,128,128,15,26,4,5,0.4,0.5
2026-03-13T1800,1342A,112.9846,28.1177,长沙市,天心区环保局,,49,32,48,17,24,155,155,139,139,18,23,7,7,0.5,0.5
2026-03-13T1800,1343A,112.8906,28.1307,长沙市,湖南中医药大学,,49,39,59,17,28,154,154,139,139,10,23,8,7,0.5,0.6
2026-03-13T1800,1727A,113.1146,36.1547,长治市,清华站,细颗粒物(PM2.5),128,NA,71,90,79,114,114,123,123,22,16,8,8,0.8,0.8
2026-03-13T1800,1730A,113.0887,36.2126,长治市,审计局,细颗粒物(PM2.5),148,NA,72,112,89,109,109,120,120,21,15,8,8,0.7,0.6
2026-03-13T1800,1731A,113.0845,36.1856,长治市,长治八中,细颗粒物(PM2.5),146,NA,92,110,91,114,114,122,122,16,13,10,10,0.8,0.7
2026-03-13T1800,2845A,113.1561,36.1912,长治市,德盛苑,细颗粒物(PM2.5),134,NA,76,97,87,120,120,127,127,15,15,7,8,0.7,0.6
2026-03-13T1800,3568A,113.0603,36.0464,长治市,向阳小学,细颗粒物(PM2.5),130,121,113,93,86,121,121,127,127,25,22,10,9,0.8,0.7
2026-03-13T1800,3569A,112.8788,36.315,长治市,屯留一中,细颗粒物(PM2.5),127,NA,81,89,81,115,115,110,110,25,29,4,5,0.7,0.7
2026-03-13T1800,4189A,113.113092,36.199482,长治市,英华南巷50号,细颗粒物(PM2.5),132,NA,78,95,83,118,118,124,124,22,17,8,8,0.6,0.5
2026-03-13T1800,4190A,113.23666,36.33435,长治市,学府街1号,细颗粒物(PM2.5),135,NA,79,98,81,102,102,117,117,27,29,3,3,1.0,0.8
2026-03-13T1800,1854A,111.696,28.9725,常德市,市二中,,43,43,86,15,56,134,134,119,119,12,12,8,9,0.7,1
2026-03-13T1800,3138A,111.7152,29.0288,常德市,武陵区永安,NA,NA,40,87,15,67,138,138,134,134,NA,16,5,7,0.5,0.8
2026-03-13T1800,3139A,111.6891,28.9881,常德市,鼎城区玉霞,,45,33,83,15,60,141,141,123,123,10,18,8,9,0.5,0.7
2026-03-13T1800,3140A,111.6651,29.0526,常德市,武陵区长庚,,45,42,81,19,67,143,143,127,127,9,15,7,9,0.7,0.9
2026-03-13T1800,1196A,119.9524,31.7586,常州市,市监测站,细颗粒物(PM2.5),76,71,95,48,66,108,108,107,107,30,34,5,7,0.5,0.9
2026-03-13T1800,1200A,119.9351,31.703,常州市,武进监测站,颗粒物(PM10),63,68,95,40,65,113,113,112,112,22,29,7,10,0.3,0.8
2026-03-13T1800,3002A,119.9701,31.813,常州市,行政中心,细颗粒物(PM2.5),82,85,103,51,69,98,98,98,98,30,36,6,7,0.6,0.8
2026-03-13T1800,3003A,120.0434,31.7726,常州市,经开区,细颗粒物(PM2.5),72,78,109,46,61,111,111,112,112,30,46,12,9,1.2,0.9
2026-03-13T1800,3010A,119.8919,31.7892,常州市,钟楼,颗粒物(PM10),66,72,88,39,61,119,119,117,117,32,33,6,8,0.5,0.8
2026-03-13T1800,3429A,119.8595,31.706,常州市,武进经发区,细颗粒物(PM2.5),76,60,89,48,69,122,122,115,115,27,40,13,10,0.4,0.9
2026-03-13T1800,3430A,119.5812,31.7256,常州市,金坛城区,,40,35,90,28,69,113,113,117,117,14,22,7,9,0.3,0.7
2026-03-13T1800,4089A,119.9551,31.863,常州市,崇义南街5-H号,"颗粒物(PM10),细颗粒物(PM2.5)",66,72,81,43,59,98,98,102,102,34,26,6,7,0.8,0.7
2026-03-13T1800,2220A,120.4318,41.588,朝阳市,西梁,细颗粒物(PM2.5),123,NA,76,85,62,71,71,101,98,38,24,12,12,1.1,0.8
2026-03-13T1800,2221A,120.452,41.565,朝阳市,河畔小区,细颗粒物(PM2.5),108,NA,59,68,52,81,81,107,104,28,21,10,12,0.8,0.7
2026-03-13T1800,2222A,120.4176,41.5648,朝阳市,八里堡,细颗粒物(PM2.5),114,NA,65,75,59,78,78,98,95,30,27,9,12,0.8,0.8
2026-03-13T1800,3026A,116.6179,23.6608,潮州市,市政府,颗粒物(PM10),58,61,50,36,28,154,154,148,148,11,10,4,4,0.4,0.3
2026-03-13T1800,4036A,116.646,23.676,潮州市,金山,颗粒物(PM10),63,67,47,38,25,153,153,142,142,12,12,4,4,0.5,0.4
2026-03-13T1800,2473A,113.0116,25.8228,郴州市,市职中,,44,34,40,20,30,139,139,129,129,12,19,8,6,0.5,0.7
2026-03-13T1800,2475A,113.0381,25.8074,郴州市,市审计局,,42,36,39,22,31,133,133,125,125,12,17,10,9,/,/
2026-03-13T1800,2476A,113.0348,25.7757,郴州市,市环保局,,38,38,48,23,33,116,116,119,119,23,27,10,8,0.4,0.5
2026-03-13T1800,4252A,113.0138,25.8011,郴州市,好美居路49号,细颗粒物(PM2.5),66,NA,35,43,27,137,137,132,132,13,16,9,9,/,/
2026-03-13T1800,1431A,103.9727,30.7242,成都市,金泉两河,细颗粒物(PM2.5),60,54,43,40,34,71,71,70,70,16,14,2,3,0.4,0.4
2026-03-13T1800,1432A,104.1423,30.6765,成都市,十里店,颗粒物(PM10),66,72,49,38,34,58,58,68,68,24,17,4,4,0.5,0.5
2026-03-13T1800,1433A,104.0594,30.5765,成都市,三瓦窑,细颗粒物(PM2.5),62,61,45,41,36,70,70,71,71,16,12,2,2,0.6,0.6
2026-03-13T1800,1434A,104.1122,30.6306,成都市,沙河铺,细颗粒物(PM2.5),58,58,50,39,36,59,59,63,63,31,26,5,5,0.4,0.4
2026-03-13T1800,2880A,104.0219,30.6561,成都市,大石西路,细颗粒物(PM2.5),80,58,49,50,40,64,64,66,66,22,18,2,4,0.5,0.5
2026-03-13T1800,3136A,104.2724,30.559,成都市,龙泉驿区区政府,NA,NA,NA,39,NA,35,68,68,65,65,15,16,6,6,NA,0.5
2026-03-13T1800,3357A,104.0028,30.6891,成都市,金博路,细颗粒物(PM2.5),56,46,36,38,33,64,64,68,68,23,19,6,6,0.7,0.7
2026-03-13T1800,3359A,104.056,30.5228,成都市,华阳,颗粒物(PM10),53,53,45,36,34,77,77,71,71,18,19,4,4,0.4,0.5
2026-03-13T1800,3488A,104.387954,30.746684,成都市,青石路225号,细颗粒物(PM2.5),70,55,47,45,36,77,77,81,81,11,14,3,4,0.7,0.7
2026-03-13T1800,3489A,104.0788,30.4054,成都市,科学城,,49,49,48,34,34,75,75,69,69,18,17,7,7,0.6,0.7
2026-03-13T1800,4011A,103.8505,30.6946,成都市,光华大道三段,细颗粒物(PM2.5),62,55,48,41,34,73,73,73,73,22,19,3,4,0.4,0.5
2026-03-13T1800,4144A,104.3257,30.6406,成都市,八角井街185号,细颗粒物(PM2.5),56,55,51,38,37,78,78,70,70,12,18,5,4,0.5,0.5
2026-03-13T1800,4224A,104.2433276,30.53529463,成都市,鲸龙路1057号,颗粒物(PM10),60,63,54,37,33,63,63,65,65,21,19,6,6,0.5,0.6
2026-03-13T1800,1062A,117.9531,40.908,承德市,铁路,细颗粒物(PM2.5),104,119,108,64,70,73,73,70,70,44,39,12,6,0.8,0.9
2026-03-13T1800,1063A,117.9397,40.9763,承德市,中国银行,细颗粒物(PM2.5),116,116,104,77,68,82,82,78,78,39,32,14,7,1.1,1
2026-03-13T1800,4073A,117.9462,40.95,承德市,杏林街1号,细颗粒物(PM2.5),119,112,118,80,81,94,94,83,83,25,28,15,10,1.0,1
2026-03-13T1800,4274A,117.7994,40.9605,承德市,滨河大街98号,细颗粒物(PM2.5),122,85,84,84,74,95,95,94,94,28,28,15,13,1.0,0.9
2026-03-13T1800,2314A,117.4698,30.6617,池州市,池州学院,细颗粒物(PM2.5),56,52,62,38,49,130,130,132,132,34,28,6,5,0.5,0.7
2026-03-13T1800,3237A,117.4918,30.6617,池州市,展览馆,颗粒物(PM10),53,54,63,36,47,126,126,128,128,25,22,5,3,0.6,0.7
2026-03-13T1800,3333A,117.5626,30.695,池州市,第八中学,细颗粒物(PM2.5),58,59,66,39,47,123,123,124,124,30,27,6,4,0.5,0.7
2026-03-13T1800,3334A,117.5037,30.6242,池州市,第十二中学,细颗粒物(PM2.5),58,53,64,39,43,124,124,124,124,31,31,6,4,0.5,0.7
2026-03-13T1800,1744A,118.9229,42.2816,赤峰市,松山一中,颗粒物(PM10),68,74,82,17,72,67,67,105,81,21,25,4,7,0.5,0.7
2026-03-13T1800,1745A,118.9588,42.2733,赤峰市,哈达街,颗粒物(PM10),80,92,83,21,58,59,59,89,74,22,26,11,11,0.5,0.7
2026-03-13T1800,1746A,118.8792,42.2551,赤峰市,天义路,颗粒物(PM10),54,55,67,17,61,65,65,111,85,14,18,5,6,0.1,0.4
2026-03-13T1800,3058A,119.2656,42.0356,赤峰市,银河街,颗粒物(PM10),94,111,127,35,86,69,69,81,77,10,23,7,15,0.5,0.9
2026-03-13T1800,3286A,118.9359,42.3146,赤峰市,桥北物流园区,颗粒物(PM10),65,70,88,20,63,67,67,111,76,10,22,3,4,0.5,0.9
2026-03-13T1800,2521A,107.3473,22.4137,崇左市,市环保局江州分局,,43,41,92,26,71,136,136,140,140,11,27,6,8,0.9,1
2026-03-13T1800,4256A,107.375,22.3736,崇左市,石景林东路7号,,46,46,74,21,57,137,137,134,134,13,27,4,7,0.9,1.2
2026-03-13T1800,3207A,118.31131,32.3033,滁州市,市政府原办公楼,细颗粒物(PM2.5),56,52,74,38,76,116,116,108,108,19,24,5,5,0.3,0.4
2026-03-13T1800,3331A,118.3268,32.2633,滁州市,图书馆,,41,41,76,26,55,109,109,102,102,23,25,8,8,0.4,0.4
2026-03-13T1800,4101A,118.3196,32.3335,滁州市,银山路666号,NA,NA,NA,69,NA,64,118,118,111,111,NA,22,NA,8,0.6,0.6
2026-03-13T1800,4102A,118.3426,32.2979,滁州市,黄山路555号,颗粒物(PM10),52,52,92,31,67,128,128,116,116,21,30,6,6,0.7,0.7
2026-03-13T1800,2606A,101.5379,25.0492,楚雄彝族自治州,市经济开发区,,26,20,24,7,18,83,83,84,84,8,7,3,3,0.8,0.8
2026-03-13T1800,4153A,101.5536,25.0343,楚雄彝族自治州,团结路562号,,27,19,17,16,15,86,86,90,90,5,3,7,7,0.5,0.5
2026-03-13T1800,2549A,107.5087,31.2186,达州市,市环境监测站,颗粒物(PM10),54,55,54,30,28,95,95,108,108,28,23,6,5,0.3,0.2
2026-03-13T1800,2550A,107.4988,31.2132,达州市,凤凰小区,颗粒物(PM10),56,58,54,26,30,90,90,111,111,31,30,5,4,0.4,0.4
2026-03-13T1800,2551A,107.5081,31.1987,达州市,达县机关宾馆,颗粒物(PM10),56,58,51,34,33,73,73,111,109,48,33,5,4,0.7,0.5
2026-03-13T1800,2552A,107.4644,31.2124,达州市,市政中心,颗粒物(PM10),57,59,55,23,29,89,89,109,109,32,26,5,4,0.4,0.3
2026-03-13T1800,2614A,100.2168,25.5818,大理白族自治州,大理市环境监测站,,36,29,36,25,34,84,84,94,84,12,9,7,7,0.6,0.5
2026-03-13T1800,2615A,100.1542,25.7055,大理白族自治州,大理古城,,30,30,39,16,33,78,78,89,89,10,10,8,8,1.0,0.9
2026-03-13T1800,1109A,121.6119,38.974,大连市,甘井子,细颗粒物(PM2.5),70,65,65,45,48,104,104,107,107,31,31,8,9,0.6,0.5
2026-03-13T1800,1110A,121.565,38.9509,大连市,周水子,细颗粒物(PM2.5),72,60,69,46,50,108,108,105,105,22,32,8,9,0.6,0.7
2026-03-13T1800,1111A,121.5637,38.8849,大连市,星海三站,细颗粒物(PM2.5),88,61,66,54,54,77,77,66,66,20,21,3,5,0.6,0.7
2026-03-13T1800,1112A,121.6301,38.9117,大连市,青泥洼桥,细颗粒物(PM2.5),66,60,71,43,49,108,108,99,99,17,31,7,8,0.6,0.6
2026-03-13T1800,1113A,121.6248,38.8643,大连市,傅家庄,颗粒物(PM10),53,54,66,32,44,94,94,80,74,20,27,8,10,0.4,0.5
2026-03-13T1800,1114A,121.5117,38.8636,大连市,七贤岭,细颗粒物(PM2.5),68,62,64,44,51,93,93,99,91,32,24,6,8,0.5,0.5
2026-03-13T1800,1116A,121.7507,39.1339,大连市,金州,细颗粒物(PM2.5),64,58,72,42,49,121,121,118,118,22,23,4,7,0.5,0.6
2026-03-13T1800,1117A,121.7811,39.0495,大连市,开发区,颗粒物(PM10),56,58,74,36,54,112,112,108,108,23,35,9,8,0.3,0.6
2026-03-13T1800,1118A,121.9762,39.0631,大连市,双D港,,40,35,69,28,51,117,117,92,92,13,22,5,7,0.6,0.7
2026-03-13T1800,4082A,121.2548,38.8188,大连市,旅顺,细颗粒物(PM2.5),76,64,59,48,47,78,78,85,85,30,21,6,6,0.3,0.4
2026-03-13T1800,1789A,124.8085,46.0381,大庆市,大同区,颗粒物(PM10),185,319,142,119,66,97,97,112,112,25,22,13,14,1.1,0.8
2026-03-13T1800,1790A,125.1166,46.5255,大庆市,龙凤区,颗粒物(PM10),165,279,93,113,50,105,105,102,102,36,24,8,5,0.9,0.4
2026-03-13T1800,1791A,124.8894,46.4007,大庆市,红岗区,细颗粒物(PM2.5),178,264,96,134,60,87,87,107,107,38,18,11,8,1.1,0.7
2026-03-13T1800,1792A,125.1391,46.578,大庆市,萨尔图区,颗粒物(PM10),178,306,103,110,55,54,54,59,58,18,20,5,6,0.9,0.7
2026-03-13T1800,1793A,124.9026,46.6217,大庆市,让胡路区,细颗粒物(PM2.5),148,242,84,112,52,93,93,101,101,26,18,9,10,1.0,0.6
2026-03-13T1800,3481A,125.127,46.6277,大庆市,萨区政府监测点,颗粒物(PM10),178,305,95,107,49,111,111,107,107,19,9,13,10,1.1,0.8
2026-03-13T1800,1723A,113.2926,40.0759,大同市,云冈宾馆,,22,13,83,7,53,70,70,74,65,11,25,5,7,0.6,0.9
2026-03-13T1800,1724A,113.3437,40.0921,大同市,大同大学,,31,31,89,8,59,72,72,69,69,13,29,3,7,0.4,0.7
2026-03-13T1800,1725A,113.2637,40.129,大同市,安家小村,,23,23,89,10,56,72,72,73,70,13,23,10,12,0.4,0.7
2026-03-13T1800,3282A,113.3399,40.0586,大同市,大同市卫生学校,,26,26,85,8,56,77,77,74,74,8,25,4,6,0.3,0.6
2026-03-13T1800,3565A,113.1371,40.1122,大同市,云冈站,,24,23,88,14,59,75,75,71,71,4,23,5,8,0.4,0.6
2026-03-13T1800,3566A,113.1186,40.2556,大同市,图书馆,NA,NA,32,93,11,54,72,72,70,70,NA,22,6,9,0.5,0.9
2026-03-13T1800,3567A,113.5931,40.0459,大同市,区一中,颗粒物(PM10),65,71,106,12,72,76,76,76,70,8,25,10,13,0.0,0.3
2026-03-13T1800,4199A,113.2798248,40.09972476,大同市,魏都大道141号,,24,20,92,10,58,76,76,76,70,8,24,8,9,0.4,0.8
2026-03-13T1800,2269A,124.1068,50.4091,大兴安岭地区,科技局,颗粒物(PM10),55,56,55,37,33,86,86,82,82,12,9,6,6,0.5,0.4
2026-03-13T1800,3663A,124.117,50.4279,大兴安岭地区,红旗社区,细颗粒物(PM2.5),52,36,42,36,32,93,93,92,92,14,10,10,11,0.5,0.4
2026-03-13T1800,1600A,124.33,40.0625,丹东市,江湾东路,颗粒物(PM10),51,51,78,32,49,94,94,103,103,21,31,9,17,0.6,1.3
2026-03-13T1800,1601A,124.4242,40.1513,丹东市,临江后街,,38,38,57,24,40,101,101,102,102,13,28,11,13,0.5,0.8
2026-03-13T1800,1602A,124.3935,40.1461,丹东市,元宝山,颗粒物(PM10),58,60,55,25,33,100,100,NA,NA,14,22,7,12,0.7,0.9
2026-03-13T1800,1603A,124.3634,40.1093,丹东市,民主桥,,46,46,71,27,43,97,97,99,99,15,36,7,10,0.4,0.8
2026-03-13T1800,3541A,109.5726195,19.51688767,儋州市,第一中学子站,,49,49,33,18,14,107,107,104,104,4,5,6,7,0.4,0.5
2026-03-13T1800,3542A,109.5567,19.5187,儋州市,东坡学校子站,NA,NA,42,37,18,17,111,111,109,109,NA,6,4,4,0.4,0.6
2026-03-13T1800,2616A,98.5611,24.4273,德宏傣族景颇族自治州,德宏州监测站,细颗粒物(PM2.5),88,55,56,54,58,62,62,49,49,21,27,9,9,0.9,0.9
2026-03-13T1800,3677A,98.5887,24.4366,德宏傣族景颇族自治州,芒市人民政府综合楼,细颗粒物(PM2.5),78,77,88,49,53,69,69,45,45,17,22,6,6,0.9,0.9
2026-03-13T1800,1901A,104.424,31.1209,德阳市,东山公园,,49,41,33,34,32,66,66,73,73,12,8,2,2,0.5,0.5
2026-03-13T1800,1902A,104.3827,31.1318,德阳市,西小区,细颗粒物(PM2.5),54,52,48,37,31,67,67,72,72,16,13,3,3,0.6,0.6
2026-03-13T1800,1904A,104.3553,31.1091,德阳市,耐火材料厂,细颗粒物(PM2.5),58,48,43,39,34,60,60,71,70,25,16,1,1,0.5,0.5
2026-03-13T1800,4145A,104.4144,31.1495,德阳市,市林业局,,46,45,37,32,30,68,68,74,74,14,11,5,5,0.5,0.5
2026-03-13T1800,1622A,116.3034,37.4675,德州市,儿童乐园,细颗粒物(PM2.5),139,134,125,102,87,134,134,126,126,24,28,11,15,0.7,0.7
2026-03-13T1800,1624A,116.2992,37.4449,德州市,监理站,细颗粒物(PM2.5),137,139,127,100,88,136,136,129,129,31,34,6,10,0.6,0.7
2026-03-13T1800,3066A,116.2722,37.438,德州市,九衢泉纯净水厂,细颗粒物(PM2.5),137,124,116,100,82,125,125,123,123,35,40,3,9,0.6,0.7
2026-03-13T1800,3371A,116.3693,37.44,德州市,开发区人民医院,细颗粒物(PM2.5),139,139,126,102,85,129,129,121,121,24,34,7,11,0.7,0.7
2026-03-13T1800,3511A,116.5687,37.3331,德州市,陵城艺术中心,细颗粒物(PM2.5),145,134,116,109,89,124,124,118,118,22,31,4,10,0.9,0.9
2026-03-13T1800,4292A,116.352738,37.420875,德州市,新河东路,细颗粒物(PM2.5),135,139,124,98,81,124,124,119,119,24,38,9,12,0.7,0.8
2026-03-13T1800,2621A,99.7054,27.8319,迪庆藏族自治州,迪庆州站,,30,26,29,15,18,96,96,100,100,9,8,6,6,0.7,0.7
2026-03-13T1800,3180A,99.7122,27.8129,迪庆藏族自治州,质量技术监督局,,29,26,25,16,15,92,92,96,93,10,7,6,5,0.7,0.6
2026-03-13T1800,4257A,104.6092,35.5962,定西市,将台街,颗粒物(PM10),147,240,440,56,128,80,80,80,80,7,6,7,7,0.3,0.3
2026-03-13T1800,4309A,104.6159,35.5701,定西市,正龙路62号,颗粒物(PM10),162,274,458,58,113,74,74,80,76,9,6,2,3,0.6,0.4
2026-03-13T1800,4071A,114.9883,38.5232,定州市,交通局,细颗粒物(PM2.5),168,149,145,127,105,56,56,52,52,40,54,10,11,0.8,0.9
2026-03-13T1800,4072A,115.0045,38.5136,定州市,第五中学,细颗粒物(PM2.5),178,170,162,134,110,50,50,50,50,38,64,9,9,0.8,0.8
2026-03-13T1800,1390A,113.7943,23.0132,东莞市,东城石井,臭氧1小时(O3_1h),84,49,43,26,24,187,187,172,172,23,26,8,7,0.5,0.5
2026-03-13T1800,1391A,113.7384,22.9659,东莞市,南城西平,臭氧1小时(O3_1h),52,48,47,23,26,161,161,160,160,32,32,9,9,0.6,0.6
2026-03-13T1800,3319A,113.7283,23.041,东莞市,万江金泰,臭氧1小时(O3_1h),55,47,47,28,26,164,164,151,151,22,22,7,7,0.5,0.6
2026-03-13T1800,4129A,113.8666,23.1062,东莞市,裕兴路,臭氧1小时(O3_1h),53,43,58,20,28,162,162,151,151,19,32,8,9,0.4,0.6
2026-03-13T1800,4130A,114.0076,22.9739,东莞市,教育路1号,臭氧1小时(O3_1h),55,51,56,23,25,164,164,156,156,25,33,6,7,0.4,0.4
2026-03-13T1800,4131A,113.7981,22.8124,东莞市,长怡路1号,颗粒物(PM10),52,52,59,20,26,133,133,153,153,35,31,6,5,0.5,0.6
2026-03-13T1800,1666A,118.6612,37.4313,东营市,市环保局,细颗粒物(PM2.5),140,134,71,103,49,147,147,142,142,27,21,10,18,0.6,0.6
2026-03-13T1800,3036A,118.6903,37.4337,东营市,开发区管委会,细颗粒物(PM2.5),139,140,63,102,43,144,144,141,141,48,31,11,14,0.8,0.8
2026-03-13T1800,3365A,118.5721,37.5654,东营市,垦利区民丰路,细颗粒物(PM2.5),145,122,61,109,47,160,160,148,148,34,26,NA,13,1.0,0.9
2026-03-13T1800,3498A,118.5063,37.8606,东营市,河口城区,细颗粒物(PM2.5),141,144,73,105,46,132,132,131,131,22,21,6,7,0.7,0.7
2026-03-13T1800,3646A,118.4979,37.4623,东营市,胜利站,细颗粒物(PM2.5),136,130,69,99,45,138,138,128,128,38,34,10,14,1.0,0.8
2026-03-13T1800,3734A,118.5753,37.4405,东营市,理想之城,细颗粒物(PM2.5),139,132,74,102,46,168,168,157,157,28,36,7,11,1.0,0.9
2026-03-13T1800,1591A,110.0024,39.8127,鄂尔多斯市,综合楼,颗粒物(PM10),68,75,279,16,143,81,81,81,81,10,14,5,6,0.2,0.4
2026-03-13T1800,1592A,109.9485,39.8259,鄂尔多斯市,巴音孟克林场办事处,颗粒物(PM10),70,78,308,26,138,81,81,83,83,10,11,4,5,0.3,0.3
2026-03-13T1800,1593A,109.7734,39.5987,鄂尔多斯市,康泽苑,颗粒物(PM10),67,73,262,20,150,90,90,89,89,9,10,9,8,0.4,0.4
2026-03-13T1800,1594A,109.8121,39.5987,鄂尔多斯市,华泰汽车城,颗粒物(PM10),62,66,267,19,143,90,90,90,90,9,9,7,7,0.4,0.4
2026-03-13T1800,1595A,109.9734,39.7884,鄂尔多斯市,奥林花园,颗粒物(PM10),68,75,391,21,104,81,81,82,82,11,13,7,7,0.4,0.4
2026-03-13T1800,2436A,114.894,30.3989,鄂州市,市政府,,41,37,48,25,38,129,129,131,131,17,21,8,10,0.4,0.5
2026-03-13T1800,2437A,114.8986,30.3714,鄂州市,赵家坝,,44,43,51,21,36,138,138,144,144,12,15,9,10,0.4,0.5
2026-03-13T1800,3654A,114.8093,30.4091,鄂州市,精准医疗中心,,49,48,54,34,39,135,135,139,139,16,19,6,13,0.8,0.9
2026-03-13T1800,2454A,109.4978,30.2979,恩施土家族苗族自治州,湖北民院,,42,33,53,29,41,127,127,125,125,9,13,7,6,0.4,0.5
2026-03-13T1800,3549A,109.5061,30.3771,恩施土家族苗族自治州,龙凤新区,,45,39,54,31,39,125,125,116,116,7,9,7,7,0.4,0.4
2026-03-13T1800,2499A,108.3411,21.6159,防城港市,沙万,NA,NA,NA,60,25,37,122,122,128,128,18,23,9,8,0.5,0.9
2026-03-13T1800,2500A,108.3515,21.7733,防城港市,防城档案局,颗粒物(PM10),58,60,68,26,41,133,133,137,137,13,19,6,7,0.5,0.8
2026-03-13T1800,2501A,108.3506,21.6414,防城港市,大海花园,颗粒物(PM10),58,60,51,29,42,149,149,152,152,12,19,7,12,0.3,0.6
2026-03-13T1800,1371A,113.1293,23.0065,佛山市,湾梁,臭氧1小时(O3_1h),87,48,53,25,34,189,189,168,168,21,32,/,/,/,/
2026-03-13T1800,1372A,113.1082,23.0477,佛山市,华材职中,臭氧1小时(O3_1h),78,51,59,26,38,182,182,166,166,21,38,7,7,0.3,0.4
2026-03-13T1800,1373A,113.1439,23.045,佛山市,南海气象局,臭氧1小时(O3_1h),82,84,53,36,32,185,185,168,168,21,37,/,/,/,/
2026-03-13T1800,1374A,113.2879,22.8094,佛山市,顺德苏岗,臭氧1小时(O3_1h),99,58,52,31,28,199,199,184,184,20,22,/,/,0.6,0.7
2026-03-13T1800,1376A,112.8384,22.8678,佛山市,高明孔堂,臭氧1小时(O3_1h),102,52,48,25,32,204,204,167,167,16,22,/,/,/,/
2026-03-13T1800,1377A,112.8835,23.1584,佛山市,三水监测站,臭氧1小时(O3_1h),103,75,49,46,31,205,205,152,152,33,32,5,5,0.5,0.5
2026-03-13T1800,1378A,112.8668,23.185,佛山市,三水云东海,臭氧1小时(O3_1h),113,77,51,46,27,226,226,172,172,26,23,/,/,/,/
2026-03-13T1800,3625A,113.2568,22.7629,佛山市,容桂街道办,颗粒物(PM10),63,68,54,31,29,158,158,155,155,31,30,/,/,/,/
2026-03-13T1800,1282A,119.2681,26.0506,福州市,师大,细颗粒物(PM2.5),64,54,41,42,23,136,136,134,134,20,15,4,4,0.3,0.3
2026-03-13T1800,1283A,119.2983,26.1028,福州市,五四北路,细颗粒物(PM2.5),62,50,38,41,24,135,135,132,132,20,16,6,5,0.4,0.4
2026-03-13T1800,1284A,119.2648,26.0769,福州市,杨桥西路,细颗粒物(PM2.5),66,48,38,43,22,142,142,137,137,16,14,5,5,/,/
2026-03-13T1800,3048A,119.5799,26.0937,福州市,九龙,,42,22,38,20,27,132,132,136,136,12,14,4,5,0.3,0.4
2026-03-13T1800,3526A,119.5188,25.9666,福州市,吴航,,40,30,42,21,25,126,126,131,131,13,15,5,10,0.3,0.4
2026-03-13T1800,4104A,119.3106,26.0648,福州市,路通桥巷6号,颗粒物(PM10),67,73,43,41,26,136,136,131,131,16,12,/,/,/,/
2026-03-13T1800,1755A,123.7974,41.8494,抚顺市,望花区,颗粒物(PM10),75,84,107,46,56,98,98,110,110,24,37,10,10,0.8,1
2026-03-13T1800,1756A,123.9161,41.8827,抚顺市,顺城区,颗粒物(PM10),55,57,80,37,60,100,100,107,107,20,45,12,11,0.9,0.9
2026-03-13T1800,1757A,124.0437,41.8615,抚顺市,东洲区,颗粒物(PM10),60,64,67,27,40,98,98,106,106,18,20,14,10,0.6,0.6
2026-03-13T1800,1758A,123.9246,41.8638,抚顺市,新抚区,颗粒物(PM10),65,70,83,34,47,109,109,117,117,19,38,12,9,0.9,0.7
2026-03-13T1800,1759A,124.0972,41.8961,抚顺市,大伙房水库,,49,49,53,26,38,113,113,115,115,6,16,13,11,0.5,0.6
2026-03-13T1800,1760A,123.708,41.8386,抚顺市,沈抚新城,细颗粒物(PM2.5),66,65,119,43,67,101,101,112,110,23,47,8,13,0.5,1.2
2026-03-13T1800,2377A,116.3544,27.9833,抚州市,市站,,47,34,45,31,31,149,149,142,142,10,12,10,14,0.7,0.8
2026-03-13T1800,2378A,116.3562,27.9631,抚州市,血防站,,50,38,45,35,28,150,150,142,142,5,5,6,6,0.9,0.9
2026-03-13T1800,2379A,116.3561,28.0007,抚州市,采茶剧团,,46,38,46,31,32,145,145,141,141,9,11,12,15,1.0,0.9
2026-03-13T1800,2380A,116.3854,27.9648,抚州市,医学分院,,45,41,51,22,26,143,143,135,135,8,10,10,11,0.9,0.9
2026-03-13T1800,2207A,121.6095,41.9978,阜新市,工业园区,颗粒物(PM10),85,99,129,33,60,78,78,90,90,20,39,13,21,0.5,0.8
2026-03-13T1800,2208A,121.6567,42.0188,阜新市,长青街,颗粒物(PM10),66,72,100,30,59,75,75,91,90,25,32,14,17,0.6,0.8
2026-03-13T1800,2209A,121.6672,42.07,阜新市,农业园区,颗粒物(PM10),79,90,105,30,52,74,74,85,85,20,23,13,18,0.5,0.6
2026-03-13T1800,2211A,121.6343,42.0455,阜新市,玉龙新城,颗粒物(PM10),73,81,117,31,57,79,79,89,89,21,42,11,14,0.5,0.8
2026-03-13T1800,2301A,115.8276,32.8929,阜阳市,市监测站,细颗粒物(PM2.5),72,71,102,46,82,133,133,128,128,14,22,5,5,0.4,0.5
2026-03-13T1800,2303A,115.8551,32.8606,阜阳市,开发区,颗粒物(PM10),79,90,119,43,77,125,125,124,124,18,22,6,5,0.5,0.6
2026-03-13T1800,2875A,115.783962,32.889217,阜阳市,阜阳职业技术学院,颗粒物(PM10),54,55,88,29,63,135,135,132,132,17,19,6,7,0.4,0.5
2026-03-13T1800,3468A,115.79,32.8614,阜阳市,市规划展馆,细颗粒物(PM2.5),68,NA,106,44,78,139,139,135,135,13,17,7,8,0.4,0.5
2026-03-13T1800,3469A,115.835101,32.918568,阜阳市,枣园社区,细颗粒物(PM2.5),72,60,105,46,80,131,131,128,128,14,19,8,8,0.5,0.6
2026-03-13T1800,2669A,102.9097,34.9841,甘南藏族自治州,州政府,,22,22,100,12,41,46,46,52,48,7,5,4,4,0.4,0.4
2026-03-13T1800,3380A,102.8915,34.9618,甘南藏族自治州,甘肃民族师范学院,,19,18,103,12,34,60,60,70,66,15,14,3,3,0.3,0.4
2026-03-13T1800,2570A,101.96,30.048,甘孜藏族自治州,水桥子,,23,9,13,3,7,72,72,64,64,5,12,3,3,0.8,0.7
2026-03-13T1800,3065A,101.9534,29.9976,甘孜藏族自治州,州环保局,,23,10,10,3,7,73,73,67,67,10,14,6,6,0.7,0.6
2026-03-13T1800,2363A,114.9368,25.8663,赣州市,地委,,42,34,40,16,24,133,133,136,136,12,17,6,6,0.7,0.7
2026-03-13T1800,2364A,114.946,25.8483,赣州市,气象台,,44,24,44,20,26,140,140,140,140,16,23,6,8,0.3,0.3
2026-03-13T1800,2365A,114.932,25.8332,赣州市,市图书馆,,41,NA,39,19,24,130,130,127,127,8,18,4,4,0.3,0.4
2026-03-13T1800,2366A,114.8905,25.8472,赣州市,华坚鞋城,,40,33,42,21,24,126,126,131,131,15,16,7,8,0.3,0.3
2026-03-13T1800,3109A,115.0094,25.8614,赣州市,赣县区卫计委,,42,25,35,16,20,132,132,127,127,11,21,4,5,0.3,0.7
2026-03-13T1800,2684A,106.2753,36.0057,固原市,监测站,颗粒物(PM10),446,546,863,103,186,64,64,70,64,10,10,8,8,0.3,0.3
2026-03-13T1800,2685A,106.2384,36.0189,固原市,新区,颗粒物(PM10),390,492,885,98,199,62,62,69,62,11,10,8,8,0.3,0.3
2026-03-13T1800,2544A,106.6307,30.4577,广安市,市委,细颗粒物(PM2.5),80,62,54,50,40,82,82,94,93,27,19,7,7,0.7,0.6
2026-03-13T1800,2545A,106.6266,30.4662,广安市,友谊中学,NA,NA,70,50,40,34,84,84,92,90,NA,18,7,7,NA,0.6
2026-03-13T1800,2547A,106.6386,30.4551,广安市,广电花园,细颗粒物(PM2.5),74,70,66,47,41,79,79,92,91,25,23,9,8,0.7,0.7
2026-03-13T1800,2902A,106.6347,30.4868,广安市,北辰小学,细颗粒物(PM2.5),88,69,56,54,39,78,78,89,87,18,15,7,5,0.7,0.6
2026-03-13T1800,2524A,105.8211,32.4444,广元市,老城,,36,36,68,14,48,48,48,56,46,31,34,5,6,0.7,0.7
2026-03-13T1800,2526A,105.8629,32.429,广元市,监测站,,45,45,66,13,53,56,56,61,61,24,34,3,5,1.0,0.9
2026-03-13T1800,3617A,105.8047,32.4167,广元市,经开区,,22,19,58,15,46,54,54,49,49,26,37,3,7,0.8,0.8
2026-03-13T1800,1345A,113.2346,23.1423,广州市,广雅中学,臭氧1小时(O3_1h),69,46,54,30,33,175,175,170,170,19,36,5,4,0.4,0.4
2026-03-13T1800,1346A,113.2611,23.105,广州市,市五中,NA,NA,42,50,26,34,199,199,189,189,24,40,NA,8,/,/
2026-03-13T1800,1348A,113.3477,23.0916,广州市,广东商学院,臭氧1小时(O3_1h),69,41,42,19,24,175,175,161,161,19,46,8,7,0.6,0.7
2026-03-13T1800,1349A,113.4332,23.105,广州市,市八十六中,臭氧1小时(O3_1h),72,34,38,25,24,177,177,170,170,34,62,7,7,/,/
2026-03-13T1800,1350A,113.3506,22.9488,广州市,番禺中学,臭氧1小时(O3_1h),89,55,43,33,29,191,191,173,173,25,30,4,4,0.5,0.5
2026-03-13T1800,1351A,113.2147,23.3918,广州市,花都师范,,48,42,42,24,23,152,152,145,145,14,17,7,8,0.5,0.6
2026-03-13T1800,1352A,113.2599,23.1329,广州市,市监测站,臭氧1小时(O3_1h),65,47,56,27,32,172,172,167,167,24,41,3,2,/,/
2026-03-13T1800,1353A,113.5618,23.3119,广州市,九龙镇镇龙,颗粒物(PM10),52,52,40,31,24,158,158,140,140,16,28,7,6,0.4,0.4
2026-03-13T1800,1354A,113.2764,23.1544,广州市,麓湖,臭氧1小时(O3_1h),65,44,47,27,31,172,172,171,171,16,41,5,4,0.2,0.3
2026-03-13T1800,2846A,113.3209,23.1323,广州市,体育西,臭氧1小时(O3_1h),64,49,58,29,34,171,171,163,163,27,48,8,7,0.6,0.7
2026-03-13T1800,3298A,113.5718,23.5493,广州市,从化街口,,43,34,33,24,21,135,135,136,136,10,15,6,6,0.5,0.5
2026-03-13T1800,3299A,113.3463,23.369,广州市,白云竹料,,48,46,46,26,26,152,152,NA,NA,17,15,5,5,0.5,0.5
2026-03-13T1800,3300A,113.2981,23.2365,广州市,白云嘉禾,臭氧1小时(O3_1h),78,49,46,27,26,182,182,162,162,25,43,7,6,/,/
2026-03-13T1800,3301A,113.4256,23.1716,广州市,黄埔科学城,NA,NA,40,46,30,33,176,176,168,168,16,37,9,8,NA,0.6
2026-03-13T1800,3302A,113.3942,23.0485,广州市,番禺大学城,NA,NA,40,57,19,30,NA,NA,183,183,20,35,6,8,0.4,0.5
2026-03-13T1800,3303A,113.4923,22.8169,广州市,南沙黄阁,颗粒物(PM10),59,62,52,22,26,162,162,178,178,27,30,7,7,/,/
2026-03-13T1800,3304A,113.534,22.7893,广州市,南沙街,颗粒物(PM10),51,51,50,20,24,145,145,169,169,21,21,8,8,0.5,0.5
2026-03-13T1800,3443A,113.2905,23.5541,广州市,花都梯面,,43,34,32,23,22,135,135,122,122,12,13,6,7,/,/
2026-03-13T1800,3445A,113.786,23.7479,广州市,从化良口,,38,28,26,21,18,121,121,129,129,11,10,5,4,/,/
2026-03-13T1800,3446A,113.805,23.2614,广州市,增城荔城,臭氧1小时(O3_1h),57,40,42,27,24,165,165,156,156,16,25,9,9,0.4,0.5
2026-03-13T1800,2506A,109.604387,23.066791,贵港市,江南子站,细颗粒物(PM2.5),60,56,76,40,42,165,165,147,147,12,32,9,10,0.5,0.7
2026-03-13T1800,2508A,109.5669,23.1065,贵港市,荷城子站,臭氧1小时(O3_1h),59,53,61,33,33,167,167,150,150,14,33,10,10,0.6,0.7
2026-03-13T1800,3405A,109.5886,23.1172,贵港市,新世纪学校,臭氧1小时(O3_1h),67,61,55,40,35,173,173,153,153,16,29,/,/,0.5,0.5
2026-03-13T1800,4260A,109.5933,23.095,贵港市,中山路155-3号,臭氧1小时(O3_1h),67,60,63,39,44,173,173,155,155,12,29,/,/,0.5,0.6
2026-03-13T1800,1439A,106.6863,26.6035,贵阳市,马鞍山,,34,34,25,19,15,95,95,100,100,11,11,5,4,/,/
2026-03-13T1800,1441A,106.6241,26.6266,贵阳市,鉴湖路,,48,48,37,21,16,94,94,100,100,11,12,4,6,0.3,0.3
2026-03-13T1800,1442A,106.7468,26.6344,贵阳市,燕子冲,,39,39,32,24,17,97,97,100,100,12,13,4,5,0.4,0.4
2026-03-13T1800,1443A,106.6556,26.4362,贵阳市,碧云窝,,48,48,33,29,18,105,105,112,112,10,10,5,6,/,/
2026-03-13T1800,1445A,106.6963,26.6063,贵阳市,红边门,,44,44,36,24,18,97,97,104,104,17,18,4,6,/,/
2026-03-13T1800,1446A,106.7162383,26.56964667,贵阳市,新华路,颗粒物(PM10),51,51,41,22,16,94,94,102,102,17,18,15,7,0.5,0.3
2026-03-13T1800,1447A,106.6742,26.542,贵阳市,太慈桥,,39,39,30,25,17,100,100,105,105,12,16,2,2,/,/
2026-03-13T1800,4230A,106.688212,26.56952,贵阳市,花果园大街66号,,39,39,27,24,16,98,98,100,100,13,16,3,4,/,/
2026-03-13T1800,4231A,106.687268,26.516892,贵阳市,漓江路57号,,32,22,25,14,15,102,102,106,106,12,20,9,10,0.6,0.5
2026-03-13T1800,1864A,110.3091,25.2705,桂林市,龙隐路小学,,42,36,46,28,35,132,132,131,131,12,11,5,5,0.8,0.8
2026-03-13T1800,1865A,110.2849361,25.22909545,桂林市,八中,,46,46,50,8,22,110,110,114,114,11,14,4,5,0.7,0.8
2026-03-13T1800,3531A,110.296,25.1254,桂林市,旅游学院,,43,43,50,23,36,132,132,130,130,15,12,7,6,0.6,0.6
2026-03-13T1800,4222A,110.1835,25.2444,桂林市,环湖路276号,,46,46,52,29,26,127,127,129,129,7,9,4,5,0.7,0.7
2026-03-13T1800,4301A,110.2803,25.2773,桂林市,信义路13号,,44,44,48,15,36,127,127,128,128,11,13,5,6,0.7,0.7
2026-03-13T1800,2674A,100.2262,34.4854,果洛藏族自治州,玛沁县大武镇,颗粒物(PM10),307,425,324,132,120,83,83,83,83,1,2,14,21,0.5,0.3
2026-03-13T1800,1130A,126.5557,45.8109,哈尔滨市,松北商大,颗粒物(PM10),55,57,56,37,38,87,87,100,100,13,22,9,10,0.4,0.6
2026-03-13T1800,1132A,126.6162,45.719,哈尔滨市,南岗学府路,颗粒物(PM10),52,52,57,26,30,82,82,100,100,16,24,9,11,0.3,0.3
2026-03-13T1800,1133A,126.6894,45.7733,哈尔滨市,太平宏伟公园,颗粒物(PM10),60,63,61,37,33,85,85,95,95,18,28,7,10,0.4,0.5
2026-03-13T1800,1134A,126.6361,45.7672,哈尔滨市,道外承德广场,颗粒物(PM10),66,72,68,32,30,82,82,93,93,22,24,9,10,0.2,0.5
2026-03-13T1800,1136A,126.644,45.7261,哈尔滨市,动力和平路,,47,47,59,32,32,83,83,94,94,14,23,10,11,0.7,0.8
2026-03-13T1800,1137A,126.5933,45.7479,哈尔滨市,道里建国路,颗粒物(PM10),52,52,54,24,30,78,78,95,94,25,32,10,12,0.3,0.5
2026-03-13T1800,1138A,126.6127,45.6119,哈尔滨市,平房东轻厂,颗粒物(PM10),53,53,46,31,34,58,58,62,62,41,43,10,8,0.6,0.6
2026-03-13T1800,1139A,126.5875,45.9827,哈尔滨市,呼兰师专,颗粒物(PM10),61,65,54,28,29,79,79,87,87,23,22,10,10,0.2,0.2
2026-03-13T1800,1140A,126.6299,45.6799,哈尔滨市,省农科院,NA,NA,NA,115,32,42,66,66,78,77,23,37,10,14,0.6,0.8
2026-03-13T1800,4282A,126.6769,45.7379,哈尔滨市,华山路1号,细颗粒物(PM2.5),82,88,63,51,33,91,91,101,101,25,22,4,4,0.7,0.7
2026-03-13T1800,4283A,126.9717,45.5356,哈尔滨市,解放大街52号,NA,NA,38,37,26,19,91,91,98,98,11,14,2,5,NA,0.7
2026-03-13T1800,2688A,93.5124,42.8176,哈密市,地区监测站,,26,22,34,8,10,82,82,72,72,6,7,5,5,0.3,0.4
2026-03-13T1800,2689A,93.5014,42.8312,哈密市,哈密师范学校,,29,19,34,7,9,90,90,81,81,7,9,6,6,0.2,0.3
2026-03-13T1800,2671A,100.9016,36.9464,海北藏族自治州,海晏县西海镇,颗粒物(PM10),57,59,222,34,72,77,77,82,76,2,3,7,9,0.4,0.5
2026-03-13T1800,3867A,102.074,36.5056,海东市,平安区公安局北苑,颗粒物(PM10),374,479,532,134,148,75,75,82,74,6,4,9,9,0.5,0.5
2026-03-13T1800,4163A,102.0984,36.5119,海东市,滨河路,颗粒物(PM10),412,512,568,134,149,50,50,65,54,25,18,9,8,0.6,0.5
2026-03-13T1800,1410A,110.3189,20.0596,海口市,海南大学,,48,48,36,21,18,134,134,133,133,4,6,6,6,0.3,0.4
2026-03-13T1800,1411A,110.2827,20.0051,海口市,秀英海南医院,,42,42,36,20,18,123,123,122,122,5,8,8,8,0.2,0.2
2026-03-13T1800,1412A,110.3391,19.9979,海口市,海南师范大学,,50,50,42,22,20,130,130,132,132,7,9,7,6,0.3,0.3
2026-03-13T1800,1413A,110.3303,20.0359,海口市,龙华路环保局宿舍,,50,50,41,22,20,134,134,136,136,7,9,/,/,0.3,0.3
2026-03-13T1800,3539A,110.5111,19.9737,海口市,桂林洋子站,,49,49,37,21,19,131,131,132,132,8,8,/,/,/,/
2026-03-13T1800,4134A,110.1952,20.0451,海口市,长滨二路9号,NA,NA,46,36,22,20,130,130,131,131,NA,7,/,/,/,/
2026-03-13T1800,2673A,100.6158,36.2985,海南藏族自治州,共和县恰卜恰镇,颗粒物(PM10),68,74,229,38,91,78,78,82,79,4,7,9,12,0.3,0.4
2026-03-13T1800,2676A,97.373,37.376,海西蒙古族藏族自治州,德令哈市,颗粒物(PM10),66,72,618,23,166,103,103,105,105,8,3,14,14,0.6,0.4
2026-03-13T1800,1049A,114.492,36.5712,邯郸市,矿院,细颗粒物(PM2.5),107,94,139,67,105,120,120,122,122,18,39,2,3,0.5,0.7
2026-03-13T1800,1050A,114.4839,36.6136,邯郸市,丛台公园,细颗粒物(PM2.5),128,104,149,90,125,117,117,120,120,18,27,2,3,0.5,0.7
2026-03-13T1800,3458A,114.7893,36.5592,邯郸市,香泉濮院小区,细颗粒物(PM2.5),101,81,146,61,109,129,129,129,129,15,20,1,3,0.4,0.7
2026-03-13T1800,3580A,114.1998,36.4439,邯郸市,峰峰矿区临水派出所,细颗粒物(PM2.5),109,83,91,69,76,116,116,132,132,12,8,4,4,0.5,0.6
2026-03-13T1800,4068A,114.5209,36.7697,邯郸市,建安街268号,细颗粒物(PM2.5),221,179,149,171,138,52,52,109,106,54,40,4,3,1.0,0.7
2026-03-13T1800,4069A,114.5488,36.6177,邯郸市,丛台东路558号,细颗粒物(PM2.5),117,85,137,78,134,118,118,118,118,15,37,1,2,0.5,0.7
2026-03-13T1800,2635A,107.0155,33.0707,汉中市,市监测站,细颗粒物(PM2.5),136,101,92,99,96,83,83,95,88,17,14,7,6,0.9,0.7
2026-03-13T1800,2636A,107.0083,33.114,汉中市,鑫源开发区,细颗粒物(PM2.5),141,NA,89,105,97,85,85,108,93,16,14,4,4,0.6,0.7
2026-03-13T1800,2637A,107.0072,33.0323,汉中市,南郑大河坎水厂,细颗粒物(PM2.5),144,129,110,108,92,76,76,92,88,21,19,5,4,0.9,0.8
2026-03-13T1800,1223A,120.2073,30.2111,杭州市,滨江,,38,38,70,26,48,107,107,106,106,24,30,8,8,0.6,0.7
2026-03-13T1800,1224A,120.0625,30.2737,杭州市,西溪,颗粒物(PM10),60,63,63,34,42,111,111,107,107,21,32,10,9,0.4,0.6
2026-03-13T1800,1226A,120.3417,30.315,杭州市,下沙,,42,39,76,29,51,100,100,113,113,24,39,9,9,0.5,0.6
2026-03-13T1800,1227A,120.1252,30.2465,杭州市,卧龙桥,颗粒物(PM10),56,58,61,36,43,113,113,114,114,26,25,8,7,0.3,0.4
2026-03-13T1800,1228A,120.1902,30.2691,杭州市,浙江农大,,44,44,75,27,47,115,115,123,123,30,37,8,8,0.5,0.6
2026-03-13T1800,1230A,120.1195,30.3121,杭州市,和睦小学,颗粒物(PM10),62,66,74,38,49,97,97,109,109,37,29,7,7,0.6,0.7
2026-03-13T1800,1231A,120.3076,30.4146,杭州市,临平镇,,48,48,71,33,52,110,110,120,120,26,30,8,8,0.5,0.7
2026-03-13T1800,1232A,120.2753,30.1839,杭州市,城厢镇,NA,NA,56,72,19,48,109,109,111,111,17,26,NA,9,0.6,0.8
2026-03-13T1800,1233A,120.0883,30.1808,杭州市,云栖,颗粒物(PM10),55,57,60,34,40,106,106,111,111,29,33,4,4,0.6,0.7
2026-03-13T1800,3557A,119.9463,30.0496,杭州市,镇二中,细颗粒物(PM2.5),74,51,48,47,46,124,124,116,116,19,35,6,5,0.7,0.7
2026-03-13T1800,3558A,119.7184,30.2367,杭州市,市府大楼,,45,45,50,22,42,110,110,104,104,19,20,7,7,0.4,0.5
2026-03-13T1800,3656A,120.1554,30.2863,杭州市,消防大队,,50,50,69,35,53,105,105,109,109,27,26,9,8,0.5,0.7
2026-03-13T1800,1270A,117.1957,31.7845,合肥市,明珠广场,细颗粒物(PM2.5),66,66,84,43,67,131,131,128,128,15,24,7,7,0.7,0.8
2026-03-13T1800,1271A,117.307,31.8765,合肥市,三里街,细颗粒物(PM2.5),70,66,86,45,66,124,124,117,117,25,37,6,6,0.6,0.7
2026-03-13T1800,1272A,117.2587,31.8703,合肥市,琥珀山庄,细颗粒物(PM2.5),64,56,86,42,68,135,135,132,132,26,35,7,7,0.5,0.6
2026-03-13T1800,1275A,117.2593,31.9376,合肥市,庐阳区,颗粒物(PM10),68,75,92,41,65,122,122,118,118,26,31,4,4,0.7,0.7
2026-03-13T1800,1276A,117.345251,31.861615,合肥市,瑶海区,颗粒物(PM10),63,68,92,37,60,129,129,125,125,23,37,5,5,0.6,0.7
2026-03-13T1800,1277A,117.3033,31.7967,合肥市,包河区,颗粒物(PM10),60,63,90,32,62,133,133,128,128,24,62,10,10,0.8,0.9
2026-03-13T1800,1278A,117.278,31.7392,合肥市,滨湖新区,颗粒物(PM10),65,70,87,42,64,135,135,129,129,11,16,3,3,0.6,0.7
2026-03-13T1800,1279A,117.1324,31.8395,合肥市,高新区,颗粒物(PM10),58,61,82,36,57,131,131,124,124,5,13,4,4,0.7,0.7
2026-03-13T1800,3464A,117.3802,31.9148,合肥市,高教基地,颗粒物(PM10),60,63,85,33,58,130,130,130,130,25,31,8,8,0.6,0.6
2026-03-13T1800,4098A,117.2518,31.8404,合肥市,中国科学技术大学,颗粒物(PM10),63,68,86,40,60,143,143,137,137,16,22,6,6,0.6,0.7
2026-03-13T1800,3614A,79.9241,37.0878,和田地区,地区环保局,"颗粒物(PM10),细颗粒物(PM2.5)",500,3768,2610,904,460,60,60,66,57,4,4,2,1,0.8,0.7
2026-03-13T1800,3615A,79.9132,37.1137,和田地区,市环保局,"颗粒物(PM10),细颗粒物(PM2.5)",500,3739,2435,1067,548,64,64,68,62,4,8,1,2,0.7,0.6
2026-03-13T1800,2517A,108.0496,24.6957,河池市,市环保站,,42,42,42,24,24,107,107,106,106,8,18,8,6,0.6,0.6
2026-03-13T1800,4302A,108.0901,24.6945,河池市,上任中路54号,,39,39,52,27,31,102,102,94,94,19,27,11,8,0.5,0.5
2026-03-13T1800,1697A,114.6962,23.7538,河源市,东埔,,44,31,34,24,24,140,140,135,135,8,11,7,8,0.6,0.6
2026-03-13T1800,1698A,114.6895,23.7232,河源市,老城,细颗粒物(PM2.5),86,NA,35,53,27,139,139,139,139,10,10,8,8,0.6,0.6
2026-03-13T1800,3374A,115.5562,35.089,菏泽市,定陶老年大学,细颗粒物(PM2.5),98,78,163,59,133,123,123,130,130,14,22,5,5,0.4,0.7
2026-03-13T1800,4114A,115.4239,35.2593,菏泽市,黄河路600号,细颗粒物(PM2.5),121,112,183,83,142,132,132,127,127,14,29,2,2,0.5,0.7
2026-03-13T1800,4115A,115.5025,35.2727,菏泽市,菏泽市人社局,细颗粒物(PM2.5),114,103,167,75,140,127,127,124,124,18,30,4,4,0.5,0.7
2026-03-13T1800,4184A,115.479691,35.244011,菏泽市,永昌路1号,细颗粒物(PM2.5),117,105,170,78,139,140,140,135,135,18,32,2,2,0.6,0.8
2026-03-13T1800,4193A,115.471542,35.280012,菏泽市,长城路999号,细颗粒物(PM2.5),116,103,162,77,133,144,144,137,137,13,20,6,8,0.4,0.6
2026-03-13T1800,2514A,111.5264,24.4178,贺州市,环保小区,,41,30,44,22,31,131,131,124,124,11,17,7,5,0.3,0.5
2026-03-13T1800,2515A,111.561,24.4074,贺州市,政协大楼,,35,27,42,18,30,109,109,106,106,12,27,6,6,0.3,0.4
2026-03-13T1800,3534A,111.4744,24.455,贺州市,西湾,,39,37,45,24,30,124,124,120,120,11,16,10,8,0.7,0.7
2026-03-13T1800,2385A,114.17,35.9019,鹤壁市,市监测站,细颗粒物(PM2.5),121,110,147,83,113,109,109,123,123,28,20,6,5,0.7,0.8
2026-03-13T1800,2386A,114.2953,35.7512,鹤壁市,市交警支队,细颗粒物(PM2.5),120,107,151,81,127,101,101,104,104,31,35,7,6,0.6,0.7
2026-03-13T1800,2387A,114.2877,35.7302,鹤壁市,迎宾馆,细颗粒物(PM2.5),118,104,159,79,123,107,107,112,112,26,32,8,8,0.7,0.8
2026-03-13T1800,3474A,114.2616,35.6824,鹤壁市,大新区,细颗粒物(PM2.5),128,NA,124,90,128,93,93,107,107,36,44,6,5,0.7,0.8
2026-03-13T1800,3596A,114.1573,35.9607,鹤壁市,南山宾馆,NA,NA,NA,139,NA,114,107,107,121,121,NA,23,7,9,0.7,0.7
2026-03-13T1800,2244A,130.2537,47.3416,鹤岗市,哈啤分公司,,31,31,30,16,17,86,86,87,86,11,11,10,10,0.2,0.3
2026-03-13T1800,2245A,130.2683,47.3087,鹤岗市,斯达机电,,37,37,38,25,18,82,82,90,88,13,12,9,9,0.4,0.4
2026-03-13T1800,2246A,130.3114,47.3388,鹤岗市,东山纸板厂,,42,42,66,11,21,86,86,90,88,12,22,7,8,0.4,0.9
2026-03-13T1800,2263A,127.4832,50.2524,黑河市,交通局,,40,40,23,9,9,83,83,95,95,18,9,7,7,0.5,0.4
2026-03-13T1800,2264A,127.5146,50.2339,黑河市,环保局,,29,13,16,13,9,92,92,94,94,14,11,10,9,0.4,0.3
2026-03-13T1800,1074A,115.6839,37.754,衡水市,电机北厂,细颗粒物(PM2.5),212,202,130,162,106,92,92,95,95,29,31,12,9,0.9,0.7
2026-03-13T1800,1075A,115.6303,37.7318,衡水市,市监测站,细颗粒物(PM2.5),204,178,118,154,94,82,82,88,88,29,33,15,12,1.0,0.6
2026-03-13T1800,3188A,115.6684,37.7216,衡水市,市城管局,细颗粒物(PM2.5),195,206,133,146,95,92,92,91,91,28,37,11,7,1.2,0.7
2026-03-13T1800,3459A,115.599,37.5491,衡水市,地表水厂,细颗粒物(PM2.5),232,187,129,182,107,98,98,102,102,26,52,12,8,1.2,0.6
2026-03-13T1800,2457A,112.6209,26.9268,衡阳市,衡阳化工总厂,,43,40,57,18,43,136,136,132,132,9,11,5,7,0.8,0.9
2026-03-13T1800,2458A,112.621,26.8957,衡阳市,珠晖区环保局,,44,44,53,16,36,134,134,131,131,14,22,5,6,0.7,0.9
2026-03-13T1800,2459A,112.628,26.8654,衡阳市,市委党校,,44,38,50,18,40,140,140,130,130,8,11,8,9,0.7,0.9
2026-03-13T1800,2460A,112.6007,26.8977,衡阳市,市监测站,,49,43,63,34,39,152,152,142,142,39,24,8,10,0.2,0.5
2026-03-13T1800,2461A,112.5658,26.9013,衡阳市,真空机电公司,,44,36,59,17,42,138,138,134,134,18,19,7,9,0.7,0.9
2026-03-13T1800,3399A,112.6703,26.8817,衡阳市,师范学院,,42,27,54,26,37,134,134,129,129,7,9,5,8,0.7,0.9
2026-03-13T1800,3038A,103.3757,23.3679,红河哈尼族彝族自治州,州图书馆,细颗粒物(PM2.5),52,42,35,36,29,82,82,86,86,9,6,4,4,0.6,0.5
2026-03-13T1800,4154A,103.401,23.3561,红河哈尼族彝族自治州,蒙自市朝阳路,细颗粒物(PM2.5),54,43,33,37,27,95,95,96,96,8,6,7,7,0.5,0.5
2026-03-13T1800,1090A,111.6506,40.7517,呼和浩特市,呼市一监,,31,31,125,10,51,82,82,82,79,4,15,6,9,0.3,0.5
2026-03-13T1800,1094A,111.7516,40.8369,呼和浩特市,如意水处理厂,,26,25,92,13,45,82,82,91,81,6,14,7,9,0.2,0.4
2026-03-13T1800,1095A,111.727798,40.806187,呼和浩特市,二十九中,,28,28,128,9,44,77,77,82,74,6,11,9,12,0.3,0.4
2026-03-13T1800,1097A,111.717,40.7617,呼和浩特市,化肥厂生活区,,28,28,105,19,50,78,78,81,77,8,17,5,7,0.3,0.4
2026-03-13T1800,3699A,111.6519,40.8389,呼和浩特市,海东办,,34,34,130,6,45,82,82,84,79,4,12,3,6,0.4,0.5
2026-03-13T1800,4275A,111.591512,40.827312,呼和浩特市,成吉思汗西街8号,,41,41,139,6,39,69,69,77,70,11,16,5,9,0.3,0.4
2026-03-13T1800,4276A,111.6597,40.8077,呼和浩特市,公园东路75号,,36,36,143,6,42,74,74,81,72,8,14,7,10,0.3,0.5
2026-03-13T1800,4277A,111.5427,40.7846,呼和浩特市,金海路35号,,38,38,139,9,50,72,72,76,70,8,14,6,11,0.3,0.4
2026-03-13T1800,3061A,119.7511,49.1576,呼伦贝尔市,国华电力东,,29,29,26,19,15,88,88,88,88,12,12,5,5,0.3,0.2
2026-03-13T1800,4279A,119.7569,49.2222,呼伦贝尔市,伊敏大街东7号,,38,34,29,26,15,87,87,87,87,12,7,6,7,0.3,0.2
2026-03-13T1800,1250A,120.075,30.867,湖州市,城西水厂,细颗粒物(PM2.5),52,48,66,36,50,138,138,128,128,19,29,6,6,0.4,0.5
2026-03-13T1800,2873A,120.083,30.8929,湖州市,仁皇山新区,细颗粒物(PM2.5),60,59,58,40,50,132,132,121,121,24,23,6,6,0.5,0.6
2026-03-13T1800,2907A,120.1846,30.8592,湖州市,吴兴区站,细颗粒物(PM2.5),76,66,76,48,56,113,113,97,97,17,23,6,6,0.4,0.5
2026-03-13T1800,3562A,120.4146,30.8538,湖州市,南浔区站,细颗粒物(PM2.5),88,69,75,54,56,131,131,113,113,23,23,9,9,0.5,0.7
2026-03-13T1800,1607A,120.904878,40.721091,葫芦岛市,龙港区,细颗粒物(PM2.5),56,41,42,38,32,89,89,79,79,19,26,8,11,0.5,0.6
2026-03-13T1800,1608A,120.8382,40.7521,葫芦岛市,化工街,细颗粒物(PM2.5),82,53,67,51,42,65,65,76,75,35,57,15,20,0.5,0.6
2026-03-13T1800,1609A,120.8339,40.7078,葫芦岛市,新区,细颗粒物(PM2.5),74,49,46,47,33,69,69,76,76,30,38,9,13,0.6,0.6
2026-03-13T1800,1610A,120.8697,40.7679,葫芦岛市,东城区,细颗粒物(PM2.5),88,NA,56,54,45,64,64,72,72,37,53,11,19,0.7,0.8
2026-03-13T1800,2483A,109.9297,27.5383,怀化市,河西地税局,,48,48,64,24,45,140,140,134,134,15,14,4,4,/,/
2026-03-13T1800,2484A,109.9783,27.5342,怀化市,市四医院,,46,46,71,16,35,131,131,129,129,14,12,8,9,0.6,0.6
2026-03-13T1800,2485A,109.9971,27.5579,怀化市,监测楼,,43,38,60,25,49,137,137,130,130,7,9,4,4,0.4,0.4
2026-03-13T1800,1210A,119.0566,33.5991,淮安市,钵池山,细颗粒物(PM2.5),70,53,84,45,70,118,118,114,114,22,27,8,8,0.3,0.4
2026-03-13T1800,1211A,119.0083,33.578,淮安市,北京南路,细颗粒物(PM2.5),74,58,79,47,73,109,109,110,110,18,25,7,7,0.5,0.5
2026-03-13T1800,1212A,118.9938,33.6083,淮安市,市监测站,细颗粒物(PM2.5),66,46,72,43,70,108,108,114,113,23,23,6,5,0.6,0.6
2026-03-13T1800,1213A,119.135,33.5038,淮安市,楚州区监测站,细颗粒物(PM2.5),90,73,93,55,75,115,115,109,109,22,39,6,6,0.4,0.5
2026-03-13T1800,3426A,118.8757,33.2897,淮安市,新华书店,细颗粒物(PM2.5),66,58,88,43,75,119,119,115,115,21,28,7,7,0.4,0.5
2026-03-13T1800,4092A,119.119691,33.550006,淮安市,枚皋中路89号,细颗粒物(PM2.5),88,63,92,54,67,108,108,106,106,26,36,11,9,0.4,0.4
2026-03-13T1800,4206A,119.028838,33.631911,淮安市,承德北路606号,细颗粒物(PM2.5),60,61,103,40,71,103,103,107,107,20,30,8,7,0.4,0.5
2026-03-13T1800,2282A,116.8005,33.9749,淮北市,监测站,细颗粒物(PM2.5),68,52,118,44,84,121,121,118,118,22,20,6,6,0.5,0.7
2026-03-13T1800,2283A,116.8094,33.9008,淮北市,烈山区政府,颗粒物(PM10),71,79,113,42,88,117,117,115,115,18,19,5,5,0.3,0.5
2026-03-13T1800,4017A,116.7926,33.9534,淮北市,市博物馆,细颗粒物(PM2.5),64,54,114,42,88,113,113,111,111,19,20,4,4,0.4,0.6
2026-03-13T1800,4100A,116.8322,33.9884,淮北市,杜集区第一实验学校,颗粒物(PM10),58,61,112,36,85,117,117,115,115,16,18,7,6,0.4,0.6
2026-03-13T1800,2277A,116.8304,32.7726,淮南市,潘集区政府,细颗粒物(PM2.5),80,82,107,50,81,121,121,124,124,19,23,7,7,0.4,0.5
2026-03-13T1800,2279A,116.8569,32.5949,淮南市,谢家集区政府,细颗粒物(PM2.5),80,65,91,50,76,125,125,126,126,30,23,8,9,0.6,0.6
2026-03-13T1800,2280A,116.8279,32.6333,淮南市,八公山区政府,细颗粒物(PM2.5),92,72,98,56,84,133,133,126,126,14,17,6,7,0.5,0.6
2026-03-13T1800,2894A,117.0561,32.6536,淮南市,经济技术开发区消防队,颗粒物(PM10),59,62,97,36,73,119,119,122,122,26,27,7,7,0.5,0.6
2026-03-13T1800,3329A,117.011,32.5891,淮南市,山南新区,细颗粒物(PM2.5),74,62,99,47,79,132,132,130,130,21,22,7,7,0.4,0.5
2026-03-13T1800,4209A,117.003137,32.644456,淮南市,国庆中路369号,细颗粒物(PM2.5),70,59,91,45,81,116,116,114,114,13,16,7,6,0.5,0.6
2026-03-13T1800,2446A,114.9021,30.474,黄冈市,职工中心,,42,34,53,29,45,129,129,134,134,9,14,8,8,0.3,0.4
2026-03-13T1800,2929A,114.8858,30.4519,黄冈市,红卫路,,44,38,53,30,47,140,140,145,145,9,14,4,7,0.4,0.5
2026-03-13T1800,3398A,114.9134,30.4446,黄冈市,市林业局,,47,47,67,32,48,129,129,137,137,10,16,5,4,0.4,0.5
2026-03-13T1800,2672A,102.02,35.5101,黄南藏族自治州,同仁县隆务镇,颗粒物(PM10),103,126,233,39,83,68,68,77,69,3,4,8,9,0.3,0.4
2026-03-13T1800,2295A,118.2905,29.6965,黄山市,延安路89号,,36,23,37,9,28,115,115,119,119,11,13,5,5,0.4,0.5
2026-03-13T1800,2297A,118.1369,30.2755,黄山市,黄山区政府5号楼,,46,46,43,16,30,111,111,116,116,13,12,3,3,0.4,0.4
2026-03-13T1800,4210A,118.335445,29.720283,黄山市,滨江东路7-2号,,45,45,52,11,27,111,111,118,118,14,12,/,/,/,/
2026-03-13T1800,2423A,115.0547,30.2332,黄石市,沈家营,颗粒物(PM10),55,57,66,29,42,124,124,130,130,18,18,8,7,1.0,0.9
2026-03-13T1800,2426A,114.899,30.211,黄石市,铁山,细颗粒物(PM2.5),54,41,45,37,40,136,136,135,135,13,13,8,8,0.5,0.7
2026-03-13T1800,2427A,115.0259,30.2108,黄石市,团城山,,42,34,50,29,35,119,119,116,116,24,19,7,9,0.5,0.6
2026-03-13T1800,3149A,115.0174,30.1591,黄石市,笔架山北路,细颗粒物(PM2.5),56,56,69,38,39,141,141,140,140,12,15,10,10,0.8,0.8
2026-03-13T1800,4185A,115.078022,30.21118,黄石市,磁湖东路29号,NA,NA,42,51,33,39,128,128,130,130,16,14,NA,59,0.9,1
2026-03-13T1800,1392A,114.4181,23.0528,惠州市,河南岸金山湖子站,颗粒物(PM10),53,53,48,26,25,156,156,148,148,14,12,8,8,0.6,0.6
2026-03-13T1800,1393A,114.4055,23.0824,惠州市,下埔横江三路子站,颗粒物(PM10),56,58,56,27,25,162,162,153,153,18,14,9,10,0.6,0.6
2026-03-13T1800,1395A,114.4645,22.7832,惠州市,惠阳区承修路船湖子站,颗粒物(PM10),54,55,53,22,23,151,151,149,149,11,14,7,8,0.4,0.5
2026-03-13T1800,1396A,114.5316,22.7423,惠州市,大亚湾管委会子站,,49,49,48,22,22,144,144,140,140,11,13,4,5,0.4,0.5
2026-03-13T1800,3314A,114.4334,22.8134,惠州市,惠阳秋长,臭氧1小时(O3_1h),59,61,53,22,25,167,167,170,170,13,17,/,/,/,/
2026-03-13T1800,3452A,114.6521,22.7755,惠州市,大亚湾霞涌,颗粒物(PM10),53,53,46,25,28,157,157,147,147,10,13,/,/,/,/
2026-03-13T1800,4300A,114.4089,23.1147,惠州市,文华一路1号,臭氧1小时(O3_1h),54,51,48,25,26,163,163,148,148,18,15,/,/,/,/
2026-03-13T1800,2240A,130.9618,45.2926,鸡西市,环保局,细颗粒物(PM2.5),72,50,96,46,59,75,75,87,87,15,30,8,12,0.5,0.8
2026-03-13T1800,2243A,130.9294,45.2959,鸡西市,第一中学,颗粒物(PM10),64,69,69,38,44,73,73,84,84,16,28,6,8,0.4,0.6
2026-03-13T1800,3707A,131.0069,45.2988,鸡西市,欧美日汽修厂,细颗粒物(PM2.5),78,80,116,49,62,78,78,88,88,12,30,9,21,0.4,0.8
2026-03-13T1800,2367A,114.9753,27.0803,吉安市,红声器材厂,,46,46,49,26,27,119,119,114,114,11,17,4,6,0.5,0.5
2026-03-13T1800,2369A,114.9903,27.1313,吉安市,市环境监测站,,40,33,42,26,24,126,126,119,119,11,16,7,8,/,/
2026-03-13T1800,2370A,115.009527,27.096792,吉安市,青原区法院,NA,NA,36,47,22,25,129,129,125,125,NA,18,5,5,0.4,0.5
2026-03-13T1800,1772A,126.54,43.8622,吉林市,哈达湾,细颗粒物(PM2.5),84,54,48,52,32,120,120,98,98,17,15,8,7,0.6,0.4
2026-03-13T1800,1773A,126.5843,43.8358,吉林市,东局子,,49,40,37,34,38,98,98,97,97,15,15,5,4,0.7,0.7
2026-03-13T1800,1774A,126.5051,43.8243,吉林市,电力学院,细颗粒物(PM2.5),111,118,78,72,55,129,129,108,108,23,30,10,9,0.8,1
2026-03-13T1800,1775A,126.6133,43.8971,吉林市,江北,,41,41,59,22,40,97,97,101,101,15,16,6,6,0.5,0.7
2026-03-13T1800,1776A,126.5549,43.8304,吉林市,江南公园,细颗粒物(PM2.5),70,62,45,45,32,114,114,94,94,18,18,9,7,0.7,0.6
2026-03-13T1800,2868A,126.4737,43.953,吉林市,九站,细颗粒物(PM2.5),82,68,57,51,42,113,113,98,98,20,34,10,13,0.6,0.6
2026-03-13T1800,1299A,116.9866,36.6118,济南市,科干所,细颗粒物(PM2.5),74,63,91,47,68,136,136,135,135,17,18,6,7,0.5,0.6
2026-03-13T1800,1300A,116.9379,36.6652,济南市,农科所,细颗粒物(PM2.5),84,73,99,52,75,119,119,126,126,26,32,7,8,0.5,0.7
2026-03-13T1800,1301A,117.1265,36.6736,济南市,开发区,细颗粒物(PM2.5),84,68,87,52,66,143,143,144,144,21,25,4,5,0.6,0.7
2026-03-13T1800,1303A,117.0616,36.6865,济南市,省种子仓库,细颗粒物(PM2.5),88,85,109,54,69,135,135,135,135,24,42,4,5,0.5,0.6
2026-03-13T1800,1304A,116.9495185,36.644937,济南市,机床二厂,细颗粒物(PM2.5),82,78,102,51,74,130,130,129,129,23,28,7,8,0.6,0.7
2026-03-13T1800,1305A,117.0496,36.6629,济南市,市监测站,细颗粒物(PM2.5),94,81,102,57,72,134,134,137,137,21,26,4,5,0.5,0.6
2026-03-13T1800,1306A,116.7674,36.5458,济南市,长清党校,细颗粒物(PM2.5),80,81,115,50,79,140,140,133,133,19,27,4,5,0.6,0.7
2026-03-13T1800,1961A,117.5323,36.6865,济南市,东山小学,NA,NA,0,86,NA,51,144,144,137,137,20,28,3,6,NA,0.7
2026-03-13T1800,3059A,117.7181,36.205,济南市,泰兴公司,细颗粒物(PM2.5),92,97,84,56,50,153,153,146,146,22,46,8,8,0.7,0.7
2026-03-13T1800,3064A,117.6861,36.2172,济南市,莱芜战役纪念馆,细颗粒物(PM2.5),88,90,89,54,52,165,165,157,157,18,36,5,6,0.5,0.6
2026-03-13T1800,3494A,117.1673,36.9782,济南市,济阳区政府,细颗粒物(PM2.5),124,127,104,86,68,123,123,123,123,24,32,7,10,0.7,0.7
2026-03-13T1800,3495A,117.1168,36.6299,济南市,锦屏中学,细颗粒物(PM2.5),88,73,81,54,63,134,134,137,137,16,15,8,9,0.5,0.5
2026-03-13T1800,4108A,117.7107,36.2385,济南市,山财大街5号,细颗粒物(PM2.5),100,88,79,60,51,145,145,145,145,23,46,7,11,0.6,0.6
2026-03-13T1800,4109A,116.9744,36.6889,济南市,无影山路12号,细颗粒物(PM2.5),86,70,94,53,71,121,121,121,121,19,28,5,6,0.8,0.9
2026-03-13T1800,1653A,116.6229,35.4288,济宁市,火炬城,NA,NA,39,98,34,85,121,121,132,132,13,20,NA,4,0.4,0.7
2026-03-13T1800,3500A,116.5808,35.3703,济宁市,北湖一中,,46,32,101,32,92,118,118,130,130,14,23,5,6,0.3,0.6
2026-03-13T1800,3501A,116.8251,35.5592,济宁市,服务中心,颗粒物(PM10),78,89,119,48,79,126,126,134,134,18,26,2,3,0.2,0.4
2026-03-13T1800,3678A,116.5907,35.4054,济宁市,市第七中学,颗粒物(PM10),65,70,104,34,92,126,126,137,137,16,25,2,4,0.5,0.7
2026-03-13T1800,4111A,116.6075,35.4566,济宁市,任和路,颗粒物(PM10),60,64,127,34,85,124,124,135,135,18,25,4,6,0.3,0.6
2026-03-13T1800,4112A,116.5648,35.3921,济宁市,文体南路1号,颗粒物(PM10),52,52,130,28,92,128,128,137,137,15,25,3,4,0.3,0.6
2026-03-13T1800,4122A,112.6071,35.1015,济源市,市委党校,细颗粒物(PM2.5),175,206,219,132,142,109,109,113,113,32,30,14,8,1.3,0.9
2026-03-13T1800,4123A,112.596,35.0702,济源市,沁园中路1号,细颗粒物(PM2.5),163,161,192,124,141,117,117,116,116,27,34,6,5,1.0,1
2026-03-13T1800,2255A,130.2749,46.8028,佳木斯市,佳纺,,28,22,52,19,28,63,63,84,84,16,26,5,6,0.4,0.5
2026-03-13T1800,2257A,130.3258,46.7975,佳木斯市,环保局,,33,NA,46,23,28,52,52,83,83,24,29,3,4,0.5,0.6
2026-03-13T1800,4285A,130.363,46.806,佳木斯市,顺和街,,29,20,37,20,24,60,60,80,80,18,20,5,5,0.3,0.3
2026-03-13T1800,4286A,130.3952,46.8268,佳木斯市,长安路196号,NA,NA,35,38,12,21,59,59,79,79,NA,11,8,5,NA,0.4
2026-03-13T1800,1252A,120.7439,30.778,嘉兴市,清河小学,,35,28,75,7,47,112,112,114,114,19,25,6,7,0.2,0.4
2026-03-13T1800,1253A,120.7261,30.7477,嘉兴市,嘉兴学院,,38,26,66,18,45,120,120,122,122,21,23,5,6,0.4,0.6
2026-03-13T1800,2872A,120.7845,30.7524,嘉兴市,南湖区残联,,37,26,72,17,50,116,116,117,117,17,22,4,5,0.5,0.7
2026-03-13T1800,3407A,120.6915,30.7741,嘉兴市,秀洲住建,,43,43,79,24,52,124,124,122,122,19,28,8,8,0.5,0.7
2026-03-13T1800,1945A,98.291,39.7705,嘉峪关市,气象局,颗粒物(PM10),78,88,248,46,54,74,74,82,74,12,9,6,8,0.4,0.5
2026-03-13T1800,2884A,98.2672,39.7978,嘉峪关市,酒钢宾馆,NA,NA,NA,231,NA,58,NA,NA,86,75,NA,16,NA,40,NA,1.0
2026-03-13T1800,3248A,98.2644,39.7723,嘉峪关市,雄关区,颗粒物(PM10),82,94,204,39,53,70,70,73,71,14,17,7,13,0.3,0.9
2026-03-13T1800,1383A,113.1063,22.6058,江门市,北街,臭氧1小时(O3_1h),72,56,49,26,28,177,177,181,181,24,26,/,/,/,/
2026-03-13T1800,1384A,113.073,22.5835,江门市,西区,颗粒物(PM10),66,72,55,25,27,170,170,182,182,22,23,/,/,/,/
2026-03-13T1800,1385A,113.0218,22.531,江门市,圭峰西,臭氧1小时(O3_1h),59,60,47,26,27,167,167,171,171,18,19,/,/,/,/
2026-03-13T1800,1386A,113.0826,22.5947,江门市,东湖,臭氧1小时(O3_1h),64,53,46,24,25,171,171,178,178,19,20,7,7,0.5,0.5
2026-03-13T1800,3311A,113.1077,22.5647,江门市,江海富民,臭氧1小时(O3_1h),63,60,56,25,28,170,170,183,183,22,24,/,/,0.4,0.4
2026-03-13T1800,3449A,113.0496,22.4669,江门市,新会银湖,颗粒物(PM10),59,62,48,24,27,162,162,165,165,20,27,10,9,0.3,0.4
2026-03-13T1800,3335A,113.3137,35.2643,焦作市,马村街道办,细颗粒物(PM2.5),131,134,145,94,120,106,106,114,114,28,23,10,6,0.7,0.8
2026-03-13T1800,3336A,113.2464,35.2374,焦作市,焦作技师学院,NA,NA,NA,145,NA,117,103,103,114,114,NA,22,11,7,NA,0.8
2026-03-13T1800,3477A,113.1656,35.2536,焦作市,中站许衡医院,细颗粒物(PM2.5),118,111,150,79,118,114,114,117,117,26,23,10,9,0.7,0.8
2026-03-13T1800,3981A,113.2456,35.18,焦作市,原李万街道办,细颗粒物(PM2.5),136,160,149,99,119,102,102,110,110,29,19,15,12,0.7,0.7
2026-03-13T1800,4264A,113.234,35.219,焦作市,新安路1731号,细颗粒物(PM2.5),136,161,145,99,121,112,112,121,121,33,24,11,9,0.6,0.7
2026-03-13T1800,4295A,113.2722,35.2121,焦作市,人民路3066号,细颗粒物(PM2.5),140,135,149,103,123,111,111,117,117,30,24,9,7,0.6,0.7
2026-03-13T1800,1708A,116.3701,23.5345,揭阳市,新兴,颗粒物(PM10),65,70,46,33,24,130,130,131,131,18,18,9,9,0.7,0.5
2026-03-13T1800,1709A,116.3261,23.5442,揭阳市,西马,颗粒物(PM10),66,72,50,33,23,134,134,134,134,15,15,6,7,0.5,0.4
2026-03-13T1800,1710A,116.361,23.5627,揭阳市,东兴,细颗粒物(PM2.5),58,52,48,39,27,132,132,133,133,14,16,6,10,/,/
2026-03-13T1800,1711A,116.4151,23.5295,揭阳市,渔湖,颗粒物(PM10),58,60,43,34,24,150,150,152,152,17,21,5,7,/,/
2026-03-13T1800,3320A,116.4028,23.5699,揭阳市,曲溪,颗粒物(PM10),60,63,52,32,26,151,151,155,155,19,16,10,12,0.7,0.6
2026-03-13T1800,1944A,102.1691,38.5166,金昌市,天庆家园,颗粒物(PM10),86,100,552,25,116,86,86,91,90,4,2,4,3,0.4,0.4
2026-03-13T1800,4022A,102.1648,38.5369,金昌市,金川区人防中心,颗粒物(PM10),100,119,653,29,124,86,86,87,86,4,2,6,6,0.4,0.5
2026-03-13T1800,4239A,102.193042,38.531887,金昌市,长春路96号,颗粒物(PM10),125,185,625,NA,116,77,77,82,81,4,7,5,4,NA,0.4
2026-03-13T1800,1262A,119.6478,29.0773,金华市,十五中,"颗粒物(PM10),臭氧1小时(O3_1h)",58,60,62,37,42,166,166,154,154,14,18,5,4,0.3,0.3
2026-03-13T1800,1263A,119.6859,29.1032,金华市,监测站,细颗粒物(PM2.5),60,62,64,40,43,127,127,122,122,20,27,4,4,0.4,0.4
2026-03-13T1800,3659A,119.656,29.1132,金华市,气象局,颗粒物(PM10),58,60,68,38,44,139,139,134,134,24,37,3,3,0.3,0.5
2026-03-13T1800,1767A,121.1114,41.0879,锦州市,南山,细颗粒物(PM2.5),64,51,66,42,43,64,64,74,74,34,41,14,15,0.6,0.6
2026-03-13T1800,1768A,121.060361,40.842794,锦州市,开发区,细颗粒物(PM2.5),62,57,102,41,39,73,73,69,69,32,51,9,13,0.6,0.6
2026-03-13T1800,1769A,121.1836,41.1118,锦州市,百股街道,细颗粒物(PM2.5),66,49,61,43,43,66,66,78,77,35,38,15,12,0.6,0.7
2026-03-13T1800,1770A,121.1176,41.1224,锦州市,天安街道,细颗粒物(PM2.5),72,51,73,46,49,62,62,74,74,35,45,14,13,0.6,0.8
2026-03-13T1800,1771A,121.1303,41.1385,锦州市,北湖公园,细颗粒物(PM2.5),76,50,66,48,46,67,67,79,78,33,38,15,14,0.6,0.8
2026-03-13T1800,2160A,112.8496,35.5051,晋城市,自来水公司,细颗粒物(PM2.5),110,118,134,70,92,120,120,124,124,15,18,4,4,0.3,0.4
2026-03-13T1800,2162A,112.8509,35.4886,晋城市,市环保局,细颗粒物(PM2.5),113,90,118,74,97,118,118,124,124,14,18,5,4,0.5,0.6
2026-03-13T1800,3620A,112.8258,35.4804,晋城市,泽州一中,细颗粒物(PM2.5),111,101,126,72,104,124,124,128,128,21,23,4,3,0.5,0.5
2026-03-13T1800,4078A,112.8246,35.5152,晋城市,前书院路,细颗粒物(PM2.5),106,108,140,66,83,115,115,118,118,16,19,4,4,0.7,0.7
2026-03-13T1800,4079A,112.8864,35.4773,晋城市,祥云街666号,细颗粒物(PM2.5),111,90,134,72,107,119,119,124,124,19,24,4,4,0.4,0.5
2026-03-13T1800,2174A,112.6992,37.6984,晋中市,榆次区政府,细颗粒物(PM2.5),148,119,114,112,93,60,60,80,73,38,29,9,10,1.1,0.9
2026-03-13T1800,2865A,112.7195,37.683,晋中市,榆次三中,细颗粒物(PM2.5),215,NA,124,165,100,65,65,79,79,39,30,9,11,0.9,0.7
2026-03-13T1800,4080A,112.7375,37.7215,晋中市,广安街188号,细颗粒物(PM2.5),162,155,131,123,94,63,63,79,76,37,31,9,11,0.8,0.6
2026-03-13T1800,4200A,112.7478,37.6954,晋中市,迎宾街26号,细颗粒物(PM2.5),158,129,122,120,98,68,68,80,79,36,29,8,10,0.9,0.8
2026-03-13T1800,2439A,112.2012,31.048,荆门市,竹园小学,细颗粒物(PM2.5),64,56,113,42,82,146,146,145,145,22,31,2,1,0.0,0.8
2026-03-13T1800,2440A,112.1968,30.9892,荆门市,掇刀,细颗粒物(PM2.5),66,53,101,43,80,160,160,148,148,13,22,6,8,0.6,0.7
2026-03-13T1800,3012A,112.1849,31.0361,荆门市,西山林语,细颗粒物(PM2.5),62,58,96,41,73,149,149,138,138,14,19,5,7,0.6,0.8
2026-03-13T1800,3547A,112.1631,31.0134,荆门市,龙泉中学南校,NA,NA,59,108,43,71,154,154,144,144,NA,21,6,6,NA,1
2026-03-13T1800,4124A,112.2213,31.0654,荆门市,新台西路6号,细颗粒物(PM2.5),70,64,108,45,82,138,138,132,132,37,34,7,7,0.4,0.6
2026-03-13T1800,1844A,112.2493,30.3198,荆州市,市图书馆,,45,34,55,31,50,141,141,133,133,17,24,8,11,0.6,0.8
2026-03-13T1800,1845A,112.2009,30.3543,荆州市,市委党校,,46,46,66,31,53,124,124,114,114,19,27,8,9,0.5,0.7
2026-03-13T1800,3194A,112.2749,30.3124,荆州市,管委会,,46,39,63,32,55,136,136,129,129,9,19,10,12,0.7,0.8
2026-03-13T1800,4268A,112.1722,30.3366,荆州市,学苑路85号,,47,35,69,30,54,148,148,141,141,8,15,1,2,0.6,0.7
2026-03-13T1800,2343A,117.2114,29.2931,景德镇市,老干部活动中心,,39,31,38,27,31,115,115,116,116,6,10,5,5,0.5,0.6
2026-03-13T1800,2344A,117.1893,29.2789,景德镇市,兽医站,,40,33,45,20,32,125,125,133,133,10,11,5,4,0.7,0.7
2026-03-13T1800,2346A,117.246,29.2958,景德镇市,陶研所,,45,NA,32,31,27,119,119,120,120,8,15,4,4,0.5,0.6
2026-03-13T1800,4289A,117.154766,29.256967,景德镇市,青少年活动中心,,48,37,39,33,27,112,112,122,122,17,14,5,5,/,/
2026-03-13T1800,1803A,115.9873,29.6816,九江市,十里,,48,42,53,33,45,133,133,129,129,25,29,8,8,0.7,0.8
2026-03-13T1800,1804A,115.9583,29.7047,九江市,茅山头,颗粒物(PM10),54,55,52,30,47,138,138,134,134,20,21,3,4,0.7,0.7
2026-03-13T1800,1805A,115.9877,29.7295,九江市,西园,,45,43,52,30,42,144,144,136,136,26,34,5,5,0.7,0.7
2026-03-13T1800,1808A,115.9112,29.6038,九江市,综合工业园,,47,47,47,31,38,137,137,122,122,26,27,10,9,0.8,0.8
2026-03-13T1800,3190A,116.0254,29.6995,九江市,外国语学校,,45,34,50,31,44,131,131,128,128,20,21,4,5,0.7,0.8
2026-03-13T1800,4253A,116.010205,29.659402,九江市,莲花大道8号,,49,49,54,29,38,128,128,123,123,19,24,7,8,0.5,0.6
2026-03-13T1800,4240A,98.495752,39.733935,酒泉市,玉门东路5号,颗粒物(PM10),78,88,251,32,61,61,61,79,68,13,4,4,5,0.5,0.3
2026-03-13T1800,4241A,98.5099,39.7506,酒泉市,北大街108号,颗粒物(PM10),75,85,218,30,55,63,63,73,67,11,4,6,7,0.3,0.2
2026-03-13T1800,2698A,76.0071,39.466,喀什地区,巡警大队,颗粒物(PM10),500,1954,1919,428,446,65,65,68,62,9,6,3,3,0.2,0.2
2026-03-13T1800,2699A,75.9756,39.4693,喀什地区,吾办,颗粒物(PM10),500,1878,1851,420,425,65,65,64,61,6,5,3,3,0.3,0.2
2026-03-13T1800,4027A,75.9485,39.4688,喀什地区,老干局,颗粒物(PM10),500,2162,2004,473,414,72,72,68,64,2,3,2,2,0.3,0.3
2026-03-13T1800,1824A,114.3389,34.778,开封市,肿瘤医院,细颗粒物(PM2.5),125,NA,140,87,134,128,128,132,132,24,33,7,10,1.0,1.1
2026-03-13T1800,1826A,114.2884,34.7966,开封市,世纪星幼儿园,细颗粒物(PM2.5),112,108,129,73,120,121,121,122,122,23,29,9,10,0.7,0.9
2026-03-13T1800,3147A,114.3434,34.8101,开封市,龙亭公园,细颗粒物(PM2.5),117,99,142,78,125,132,132,135,135,22,37,9,9,0.8,0.9
2026-03-13T1800,3210A,114.3645,34.7955,开封市,汴京公园,细颗粒物(PM2.5),130,NA,142,92,134,131,131,136,136,26,38,6,6,0.7,1.3
2026-03-13T1800,3473A,114.2485,34.8306,开封市,技师学院,细颗粒物(PM2.5),193,NA,124,145,120,129,129,130,130,NA,28,7,10,NA,1
2026-03-13T1800,3592A,114.4518,34.7503,开封市,祥符区生态环境局,细颗粒物(PM2.5),134,122,164,97,133,121,121,130,130,34,54,5,6,0.6,0.7
2026-03-13T1800,1951A,84.886,45.6029,克拉玛依市,长征新村,,42,42,49,15,12,90,90,78,78,2,12,4,4,0.2,0.3
2026-03-13T1800,1952A,84.8894,45.5827,克拉玛依市,南林小区,,38,38,48,3,6,92,92,77,77,1,3,4,5,0.2,0.4
2026-03-13T1800,1954A,84.896,44.3328,克拉玛依市,独山子区,颗粒物(PM10),98,117,72,55,26,107,107,96,96,17,16,4,4,0.9,0.5
2026-03-13T1800,1955A,85.6888,46.0909,克拉玛依市,乌尔禾区商贸楼,,42,42,38,19,16,89,89,79,79,3,9,7,7,0.4,0.4
2026-03-13T1800,3612A,85.1045,45.6895,克拉玛依市,白碱滩区新站,,43,43,45,8,13,89,89,78,78,2,7,9,8,0.4,0.3
2026-03-13T1800,2697A,76.1457,39.7143,克孜勒苏柯尔克孜自治州,市人民政府,颗粒物(PM10),500,1924,1864,425,410,73,73,72,72,5,6,3,3,0.2,0.2
2026-03-13T1800,3665A,76.1654,39.7157,克孜勒苏柯尔克孜自治州,克州文化中心,颗粒物(PM10),500,2028,2100,453,438,69,69,70,70,6,5,4,3,0.2,0.2
2026-03-13T1800,1450A,102.8203,24.889,昆明市,呈贡新区,,30,27,31,21,28,81,81,74,74,15,13,5,2,0.6,0.6
2026-03-13T1800,1452A,102.7253,25.0904,昆明市,龙泉镇,,31,31,39,19,32,64,64,62,62,18,15,3,4,0.7,0.7
2026-03-13T1800,1453A,102.7267,25.0378,昆明市,东风东路,,27,27,42,17,29,70,70,66,66,21,21,2,2,0.7,0.7
2026-03-13T1800,1454A,102.6744,25.0671,昆明市,金鼎山,,30,30,44,19,31,62,62,64,64,24,18,2,2,0.9,0.9
2026-03-13T1800,1455A,102.6643,25.0401,昆明市,碧鸡广场,,36,NA,39,25,31,64,64,70,66,22,16,4,3,0.9,0.8
2026-03-13T1800,3179A,102.7491,25.012,昆明市,官渡区博物馆,,25,25,38,17,27,77,77,70,70,13,20,2,2,0.6,0.7
2026-03-13T1800,3375A,102.8016,24.8336,昆明市,青年创业园,,25,22,38,14,27,79,79,73,72,9,7,5,3,0.7,0.7
2026-03-13T1800,3550A,102.8,24.9787,昆明市,昆明学院,NA,NA,NA,42,NA,27,79,79,70,70,NA,16,NA,3,0.7,0.7
2026-03-13T1800,3551A,102.5969,24.6738,昆明市,晋宁区生态环境分局,,29,24,41,20,31,85,85,77,76,8,10,1,2,0.5,0.6
2026-03-13T1800,3552A,102.6673,24.9861,昆明市,云天化总部,,24,21,37,15,26,74,74,72,70,12,10,7,7,0.7,0.7
2026-03-13T1800,1456A,91.132,29.6515,拉萨市,八廓街,NA,NA,8,23,3,10,102,102,88,88,NA,20,NA,5,0.3,0.5
2026-03-13T1800,1457A,91.1221,29.6748,拉萨市,市环保局,,30,9,21,3,9,96,96,82,82,10,20,4,4,0.3,0.5
2026-03-13T1800,1458A,91.0874,29.6476,拉萨市,区监测站,,31,8,15,3,7,97,97,84,84,11,23,5,5,0.4,0.4
2026-03-13T1800,1459A,91.1774,29.6541,拉萨市,西藏大学,,33,7,20,3,10,103,103,86,86,7,21,6,6,0.5,0.7
2026-03-13T1800,1460A,90.9798,29.6586,拉萨市,区辐射站,,29,9,22,6,10,92,92,85,85,18,21,4,4,0.5,0.6
2026-03-13T1800,1461A,91.0831,29.6292,拉萨市,拉萨火车站,,32,9,14,3,7,101,101,90,90,7,12,4,4,0.4,0.5
2026-03-13T1800,2520A,109.2203,23.7252,来宾市,来宾技工学校,颗粒物(PM10),56,58,63,31,41,149,149,136,136,16,24,10,10,0.6,0.7
2026-03-13T1800,3535A,109.1781,23.7293,来宾市,兴宾区政府,臭氧1小时(O3_1h),57,51,75,31,46,165,165,149,149,11,15,9,9,0.4,0.8
2026-03-13T1800,4002A,109.2312,23.7428,来宾市,中南小学,臭氧1小时(O3_1h),53,48,63,31,43,162,162,146,146,12,26,8,8,0.5,0.6
2026-03-13T1800,1479A,103.8309,36.0467,兰州市,铁路设计院,NA,NA,NA,NA,NA,NA,NA,NA,NA,NA,NA,NA,NA,NA,NA,NA
2026-03-13T1800,3241A,103.7439,36.0841,兰州市,百合公园,颗粒物(PM10),144,234,491,64,133,74,74,73,73,6,6,4,3,0.3,0.4
2026-03-13T1800,3242A,103.9613,35.9985,兰州市,和平,颗粒物(PM10),226,368,589,64,118,77,77,76,76,8,8,16,10,0.4,0.5
2026-03-13T1800,4236A,103.629272,36.093822,兰州市,庄浪东路808号,颗粒物(PM10),151,252,518,61,135,79,79,78,78,3,4,5,5,0.3,0.4
2026-03-13T1800,4237A,103.7251,36.104344,兰州市,安宁西路88号,颗粒物(PM10),167,284,571,61,141,87,87,84,84,2,4,5,6,0.2,0.3
2026-03-13T1800,4238A,103.846982,36.067567,兰州市,北滨河东路1号,颗粒物(PM10),150,250,517,59,127,74,74,72,72,14,12,7,7,0.5,0.6
2026-03-13T1800,1067A,116.6712,39.5109,廊坊市,药材公司,细颗粒物(PM2.5),133,116,85,96,61,39,39,49,47,65,41,5,4,0.8,0.7
2026-03-13T1800,1068A,116.7215,39.5592,廊坊市,开发区,细颗粒物(PM2.5),129,131,84,91,58,43,43,48,48,62,40,5,5,0.6,0.5
2026-03-13T1800,1070A,116.7246,39.5273,廊坊市,北华航天学院,细颗粒物(PM2.5),127,137,96,89,57,42,42,42,42,70,50,7,6,0.6,0.5
2026-03-13T1800,2919A,116.7022,39.5454,廊坊市,河北工业大学,细颗粒物(PM2.5),136,139,89,99,62,42,42,43,43,58,37,5,5,0.6,0.5
2026-03-13T1800,2536A,103.7629,29.5844,乐山市,牛耳桥,细颗粒物(PM2.5),66,54,48,43,40,42,42,44,42,31,24,7,7,0.7,0.7
2026-03-13T1800,2537A,103.7501,29.6002,乐山市,市第三水厂,细颗粒物(PM2.5),60,49,46,40,39,44,44,43,42,27,23,4,5,0.8,0.7
2026-03-13T1800,2538A,103.7571,29.5664,乐山市,市监测站,细颗粒物(PM2.5),56,48,50,38,37,43,43,42,42,23,20,4,5,0.7,0.7
2026-03-13T1800,3361A,103.7313,29.563,乐山市,理工大学,细颗粒物(PM2.5),52,50,43,36,40,38,38,40,40,26,20,7,8,0.7,0.9
2026-03-13T1800,2599A,100.2497,26.8802,丽江市,丽江古城,,50,48,46,35,34,81,81,91,91,18,13,12,12,0.4,0.4
2026-03-13T1800,2600A,100.2203,26.8906,丽江市,市中心,,45,34,36,31,34,76,76,91,91,28,16,8,9,0.6,0.5
2026-03-13T1800,1267A,119.9141,28.4513,丽水市,监测站大楼,,40,35,37,25,30,126,126,127,127,13,18,5,6,0.3,0.3
2026-03-13T1800,1268A,119.93,28.4589,丽水市,莲都小学,,40,38,44,23,29,126,126,126,126,14,21,/,/,/,/
2026-03-13T1800,1269A,119.8794,28.4232,丽水市,余庄前,细颗粒物(PM2.5),101,88,41,61,30,115,115,122,122,15,16,4,4,0.5,0.3
2026-03-13T1800,1173A,119.1759,34.5885,连云港市,市环境监测站,细颗粒物(PM2.5),92,63,85,56,71,115,115,116,116,28,35,9,9,0.6,0.6
2026-03-13T1800,3000A,119.3577,34.6971,连云港市,德源药业,细颗粒物(PM2.5),117,112,109,78,70,124,124,122,122,26,43,7,7,1.1,1.1
2026-03-13T1800,3007A,119.178,34.8442,连云港市,新城一中,细颗粒物(PM2.5),134,111,108,97,91,135,135,108,108,28,56,7,8,0.6,0.6
2026-03-13T1800,3008A,119.3607,34.7519,连云港市,胡沟管理处,细颗粒物(PM2.5),114,124,100,75,73,74,74,86,86,76,59,9,8,0.6,0.6
2026-03-13T1800,3009A,119.1478,34.5913,连云港市,矿山设计院,细颗粒物(PM2.5),82,68,96,51,70,118,118,120,120,39,43,6,8,0.7,0.8
2026-03-13T1800,3434A,119.2414,34.6539,连云港市,工贸学校,细颗粒物(PM2.5),94,69,74,57,60,112,112,126,124,29,18,10,10,0.6,0.6
2026-03-13T1800,3664A,119.4171,34.734,连云港市,连云街道,细颗粒物(PM2.5),115,112,87,76,63,129,129,95,95,30,40,6,7,0.6,0.6
2026-03-13T1800,2573A,102.2629,27.8981,凉山彝族自治州,西昌市政府,NA,NA,98,38,32,28,NA,NA,83,NA,9,7,14,9,0.8,0.8
2026-03-13T1800,2574A,102.2686,27.885,凉山彝族自治州,凉山州政府,,50,NA,30,35,31,78,78,77,76,8,7,11,10,0.7,0.8
2026-03-13T1800,4229A,102.2342,27.8859,凉山彝族自治州,凯乐南路30号,,43,34,34,30,28,87,87,85,85,11,11,14,13,1.0,1
2026-03-13T1800,2212A,123.1978,41.2036,辽阳市,宏伟区,,49,43,88,34,62,106,106,101,101,8,18,7,9,0.5,0.7
2026-03-13T1800,2213A,123.1684,41.2497,辽阳市,新华园,颗粒物(PM10),54,55,112,36,84,105,105,109,109,14,31,9,12,0.4,0.9
2026-03-13T1800,2214A,123.2355,41.2663,辽阳市,滨河路,细颗粒物(PM2.5),54,48,89,37,67,93,93,95,95,16,29,6,9,0.7,0.8
2026-03-13T1800,4083A,123.153,41.2874,辽阳市,铁西路150号,颗粒物(PM10),68,75,115,32,77,100,100,103,103,13,35,10,13,0.6,0.9
2026-03-13T1800,2227A,125.1359,42.8845,辽源市,环保局,颗粒物(PM10),68,74,83,35,58,112,112,108,108,10,31,7,9,0.8,1.1
2026-03-13T1800,4085A,125.0998,42.9134,辽源市,安宁大街333号,颗粒物(PM10),78,88,94,37,62,108,108,107,107,13,23,8,9,0.7,0.9
2026-03-13T1800,1625A,115.9789,36.4372,聊城市,区政府,细颗粒物(PM2.5),94,85,134,57,98,122,122,121,121,17,28,10,13,0.7,1
2026-03-13T1800,3200A,115.9772,36.4986,聊城市,监控中心,细颗粒物(PM2.5),101,94,141,61,98,140,140,136,136,16,32,10,13,0.6,0.9
2026-03-13T1800,3513A,116.0443,36.436,聊城市,九州社区,细颗粒物(PM2.5),84,86,126,52,93,135,135,136,136,21,36,3,5,0.6,0.8
2026-03-13T1800,4018A,116.0564,36.4609,聊城市,星美广场,细颗粒物(PM2.5),84,95,142,52,98,125,125,126,126,13,28,4,7,0.6,0.8
2026-03-13T1800,4113A,116.0091,36.4495,聊城市,利民路,细颗粒物(PM2.5),92,83,134,56,92,141,141,138,138,17,30,8,10,0.6,0.9
2026-03-13T1800,2632A,94.3683,29.6373,林芝市,林芝监测站,,31,13,14,3,10,99,99,96,96,3,2,5,5,0.5,0.5
2026-03-13T1800,2633A,94.3616,29.6634,林芝市,林芝人民医院,,33,9,16,3,13,103,103,101,101,2,3,5,4,0.5,0.5
2026-03-13T1800,2603A,100.0779,23.8981,临沧市,市环保局,,23,18,28,16,27,66,66,83,69,9,8,6,5,0.8,0.7
2026-03-13T1800,2604A,100.0894,23.882,临沧市,市气象局,,26,NA,27,18,28,78,78,83,72,6,8,7,7,0.5,0.5
2026-03-13T1800,1733A,111.5552,36.0791,临汾市,临钢医院,细颗粒物(PM2.5),140,127,132,103,100,121,121,112,112,24,23,7,8,0.9,0.8
2026-03-13T1800,1734A,111.4984,36.0734,临汾市,技工学校,细颗粒物(PM2.5),179,NA,111,135,105,107,107,108,108,28,24,8,7,1.0,0.8
2026-03-13T1800,1736A,111.5017,36.0857,临汾市,市委,细颗粒物(PM2.5),144,155,134,108,91,112,112,114,114,28,24,6,5,1.0,0.8
2026-03-13T1800,3018A,111.5048,36.1015,临汾市,唐尧大酒店,细颗粒物(PM2.5),144,139,128,108,91,110,110,110,110,28,24,8,8,0.9,0.8
2026-03-13T1800,4244A,111.4879,36.053,临汾市,启星学校,细颗粒物(PM2.5),159,128,108,121,96,109,109,110,110,32,27,6,5,1.0,0.8
2026-03-13T1800,4271A,103.2464,35.6123,临夏回族自治州,滨河东路1号,颗粒物(PM10),313,430,391,76,97,63,63,55,55,12,12,6,6,0.3,0.4
2026-03-13T1800,4310A,103.207136,35.599807,临夏回族自治州,新华街21号,颗粒物(PM10),339,451,402,75,88,65,65,60,58,7,6,5,5,0.3,0.3
2026-03-13T1800,1618A,118.3429,35.0532,临沂市,沂河小区,细颗粒物(PM2.5),76,68,113,48,88,115,115,120,120,20,33,12,15,0.5,0.6
2026-03-13T1800,1619A,118.2962,35.0568,临沂市,鲁南制药厂,细颗粒物(PM2.5),82,75,112,51,87,127,127,132,132,27,32,14,16,0.4,0.5
2026-03-13T1800,1620A,118.2793,34.9976,临沂市,新光毛纺厂,细颗粒物(PM2.5),74,68,114,47,93,123,123,124,124,28,41,13,17,0.5,0.6
2026-03-13T1800,1621A,118.3955,35.0889,临沂市,河东保险公司,细颗粒物(PM2.5),68,68,113,44,86,123,123,134,134,33,48,10,11,0.5,0.7
2026-03-13T1800,3370A,118.3563,35.0215,临沂市,十里堡居委,细颗粒物(PM2.5),76,70,109,48,88,122,122,129,129,28,41,11,16,0.4,0.6
2026-03-13T1800,3496A,118.359,35.1067,临沂市,南坊新区,NA,NA,NA,106,NA,85,NA,NA,134,134,NA,38,NA,12,NA,0.5
2026-03-13T1800,3860A,118.3915,35.0297,临沂市,皇山花园小区,细颗粒物(PM2.5),70,68,111,45,92,121,121,130,130,25,42,11,15,0.4,0.6
2026-03-13T1800,1870A,109.4854,24.3898,柳州市,柳东小学,,49,42,43,22,29,154,154,137,137,9,9,6,6,0.4,0.5
2026-03-13T1800,1871A,109.4109,24.3304,柳州市,环保监测站,颗粒物(PM10),58,61,44,23,27,139,139,127,127,13,15,5,6,0.6,0.7
2026-03-13T1800,1872A,109.3886,24.3408,柳州市,河西水厂,颗粒物(PM10),53,53,66,25,36,148,148,140,140,24,24,8,10,0.6,0.7
2026-03-13T1800,1873A,109.4263,24.2951,柳州市,市四中,颗粒物(PM10),58,61,51,28,33,147,147,132,132,13,16,8,8,0.4,0.5
2026-03-13T1800,1874A,109.396,24.3658,柳州市,市九中,NA,NA,NA,55,NA,37,NA,NA,124,NA,NA,16,NA,10,NA,0.7
2026-03-13T1800,1875A,109.4912,24.3164,柳州市,古亭山,,50,50,43,22,31,146,146,132,132,9,12,8,9,0.5,0.6
2026-03-13T1800,3402A,109.5422,24.3994,柳州市,市二中,颗粒物(PM10),54,55,51,22,36,149,149,133,133,11,17,7,8,0.5,0.6
2026-03-13T1800,2307A,116.5078,31.7369,六安市,监测大楼,细颗粒物(PM2.5),72,64,64,46,54,129,129,122,122,18,20,6,6,0.6,0.6
2026-03-13T1800,2308A,116.4738,31.7642,六安市,皖西学院,细颗粒物(PM2.5),82,69,74,51,55,140,140,131,131,14,18,5,5,0.4,0.5
2026-03-13T1800,2309A,116.4997,31.7904,六安市,朝阳厂,细颗粒物(PM2.5),74,66,68,47,54,131,131,123,123,23,28,6,6,0.5,0.5
2026-03-13T1800,2310A,116.5566,31.7885,六安市,开发区,细颗粒物(PM2.5),88,58,71,54,58,144,144,134,134,10,15,5,5,0.4,0.4
2026-03-13T1800,2577A,104.8293,26.592,六盘水市,黄土坡,,34,34,32,23,25,69,69,70,70,15,13,5,5,0.6,0.6
2026-03-13T1800,2579A,104.8481,26.5898,六盘水市,民中,,45,36,34,31,26,69,69,69,69,10,9,4,4,0.6,0.6
2026-03-13T1800,2580A,104.9541,26.5506,六盘水市,双水,细颗粒物(PM2.5),56,48,39,38,26,78,78,73,73,11,9,4,4,0.3,0.3
2026-03-13T1800,4151A,104.8899,26.5685,六盘水市,钟山大道中段564号,颗粒物(PM10),51,51,40,35,25,71,71,73,71,11,7,7,7,0.6,0.7
2026-03-13T1800,2336A,117.022,25.1031,龙岩市,龙岩市监测站,,39,27,31,17,24,122,122,130,130,10,10,5,10,0.4,0.4
2026-03-13T1800,2337A,117.0257,25.0662,龙岩市,闽西职业技术学院,,40,33,33,16,22,127,127,133,133,7,8,6,8,0.4,0.5
2026-03-13T1800,2338A,117.0195,25.0306,龙岩市,龙岩学院,,41,41,33,21,22,123,123,132,132,10,8,5,5,/,/
2026-03-13T1800,2885A,104.9344,33.3827,陇南市,滨江中学,,37,37,35,13,7,62,62,74,61,11,10,6,6,0.7,0.6
2026-03-13T1800,3247A,104.9551,33.3709,陇南市,市总工会,,41,41,28,11,7,55,55,72,58,5,8,5,6,0.7,0.7
2026-03-13T1800,2488A,111.9984,27.7346,娄底市,市监测站,,46,46,67,14,44,144,144,135,135,15,27,8,8,0.3,0.6
2026-03-13T1800,2491A,111.9888,27.7035,娄底市,市政府,,50,50,55,16,37,137,137,125,125,10,11,8,4,0.3,0.3
2026-03-13T1800,4127A,111.9812,27.7591,娄底市,涟钢职大,,47,35,61,30,44,149,149,140,140,8,12,5,3,0.2,0.5
2026-03-13T1800,4128A,112.0303,27.7457,娄底市,娄底体校,,45,45,62,16,40,131,131,119,119,4,9,6,4,0.3,0.5
2026-03-13T1800,1894A,105.4427,28.9063,泸州市,小市上码头,细颗粒物(PM2.5),66,50,58,43,50,83,83,77,77,13,25,7,10,0.6,0.7
2026-03-13T1800,1895A,105.4241,28.8573,泸州市,兰田宪桥,颗粒物(PM10),54,55,70,35,46,80,80,75,75,14,19,4,9,0.6,0.7
2026-03-13T1800,1896A,105.4378,28.8833,泸州市,市环监站,颗粒物(PM10),57,59,70,38,49,86,86,78,78,17,25,5,7,0.6,0.8
2026-03-13T1800,4272A,105.3689,28.7783,泸州市,纳溪中医医院,细颗粒物(PM2.5),92,69,71,56,66,85,85,80,80,14,19,7,7,0.7,0.8
2026-03-13T1800,2183A,111.1447,37.5212,吕梁市,环保局,细颗粒物(PM2.5),114,99,77,75,57,38,38,77,76,61,32,6,7,0.3,0.5
2026-03-13T1800,2185A,111.1285,37.5338,吕梁市,自来水公司,细颗粒物(PM2.5),107,88,76,67,52,72,72,83,83,25,25,6,6,0.7,0.6
2026-03-13T1800,2867A,111.1225,37.5093,吕梁市,马茂庄小学,细颗粒物(PM2.5),104,92,80,64,47,42,42,81,81,57,33,4,5,0.7,0.6
2026-03-13T1800,1812A,112.3934,34.6517,洛阳市,市委党校,细颗粒物(PM2.5),173,142,151,131,141,91,91,99,99,38,36,9,8,0.9,0.9
2026-03-13T1800,1815A,112.494,34.6883,洛阳市,河南林校,颗粒物(PM10),112,149,148,NA,139,100,100,108,108,42,36,11,11,0.7,0.7
2026-03-13T1800,1816A,112.3843,34.623,洛阳市,开发区管委会,细颗粒物(PM2.5),162,166,177,123,134,94,94,100,100,36,30,10,10,0.8,0.8
2026-03-13T1800,1817A,112.4263,34.6249,洛阳市,市委新办公区,细颗粒物(PM2.5),173,166,178,131,147,104,104,105,105,45,37,10,9,0.8,0.7
2026-03-13T1800,3340A,112.6005,34.6323,洛阳市,伊滨,细颗粒物(PM2.5),147,137,171,111,138,118,118,109,109,28,39,8,7,0.5,0.5
2026-03-13T1800,3341A,112.495,34.6338,洛阳市,中移产业园,细颗粒物(PM2.5),183,149,159,138,147,101,101,101,101,35,33,10,9,0.7,0.7
2026-03-13T1800,3593A,112.5736,34.8993,洛阳市,吉利监测站,细颗粒物(PM2.5),190,NA,133,143,142,116,116,118,118,30,33,10,9,0.7,0.7
2026-03-13T1800,3635A,112.3678,34.6623,洛阳市,河科大西苑校区,细颗粒物(PM2.5),165,139,158,125,140,90,90,98,98,35,30,10,9,0.8,0.8
2026-03-13T1800,3636A,112.4387,34.678,洛阳市,英才小学,细颗粒物(PM2.5),176,166,170,133,140,100,100,108,108,44,37,11,10,0.8,0.8
2026-03-13T1800,4214A,112.460027,34.694929,洛阳市,春都路1号院,细颗粒物(PM2.5),179,160,163,135,137,101,101,107,107,35,29,10,9,0.9,0.8
2026-03-13T1800,2399A,114.051,33.5721,漯河市,三五一五工厂,细颗粒物(PM2.5),104,92,150,64,108,129,129,115,115,15,26,6,6,0.6,0.6
2026-03-13T1800,2400A,114.0055,33.5698,漯河市,漯河大学,细颗粒物(PM2.5),115,87,125,76,106,132,132,121,121,17,21,7,6,0.7,0.7
2026-03-13T1800,2401A,114.0134,33.5826,漯河市,市水利局,细颗粒物(PM2.5),109,80,124,69,105,130,130,119,119,17,21,6,6,0.6,0.7
2026-03-13T1800,2402A,114.0261,33.5697,漯河市,市广电局,细颗粒物(PM2.5),110,78,128,70,109,121,121,116,116,15,22,6,7,0.6,0.7
2026-03-13T1800,3478A,113.9691,33.568,漯河市,市图书馆,细颗粒物(PM2.5),108,92,147,68,103,125,125,112,112,15,19,6,7,0.6,0.5
2026-03-13T1800,4250A,114.089259,33.588274,漯河市,韶山路11号,细颗粒物(PM2.5),96,90,142,58,107,125,125,113,113,15,30,8,8,0.6,0.7
2026-03-13T1800,1798A,118.5084,31.6838,马鞍山市,湖东路四小,细颗粒物(PM2.5),52,47,72,36,55,126,126,113,113,20,23,6,7,0.4,0.5
2026-03-13T1800,1799A,118.5019,31.6449,马鞍山市,开发区,细颗粒物(PM2.5),56,56,79,38,58,130,130,119,119,21,24,5,5,0.5,0.5
2026-03-13T1800,3633A,118.4914,31.681,马鞍山市,雨山,细颗粒物(PM2.5),58,57,81,39,59,132,132,117,117,15,19,8,8,0.5,0.5
2026-03-13T1800,4191A,118.527362,31.722269,马鞍山市,慈湖高新区,细颗粒物(PM2.5),58,54,75,39,56,115,115,110,110,31,23,5,5,0.3,0.5
2026-03-13T1800,1686A,111.0285,21.469,茂名市,电白南海,颗粒物(PM10),58,61,60,18,26,134,134,128,128,14,18,6,7,0.6,0.6
2026-03-13T1800,1687A,110.9294,21.6533,茂名市,茂石化七小,颗粒物(PM10),58,61,55,20,29,130,130,127,127,17,19,6,8,0.5,0.6
2026-03-13T1800,1688A,110.9108,21.6688,茂名市,健康路,颗粒物(PM10),58,61,48,18,26,143,143,138,138,16,18,4,7,0.6,0.6
2026-03-13T1800,1689A,110.8592,21.6826,茂名市,高岭,颗粒物(PM10),86,100,71,21,28,125,125,131,131,33,26,4,8,/,/
2026-03-13T1800,3450A,111.0101,21.5165,茂名市,电白水东,颗粒物(PM10),56,58,53,20,25,131,131,126,126,16,17,4,5,/,/
2026-03-13T1800,2540A,103.8414,30.0871,眉山市,气象局,细颗粒物(PM2.5),76,81,53,48,35,49,49,44,44,26,23,7,7,0.6,0.6
2026-03-13T1800,3148A,103.829,30.0563,眉山市,区人社局,颗粒物(PM10),60,63,55,37,32,53,53,45,45,30,27,8,9,0.7,0.7
2026-03-13T1800,4148A,103.8836,30.0695,眉山市,眉职院,颗粒物(PM10),54,55,52,32,31,49,49,48,48,24,24,6,6,0.7,0.7
2026-03-13T1800,1690A,116.1248,24.3307,梅州市,梅江月梅,,39,30,40,19,25,122,122,122,122,11,16,/,/,/,/
2026-03-13T1800,1691A,116.0798,24.2719,梅州市,梅县新城,,38,30,44,15,27,120,120,126,126,15,21,8,9,0.6,0.6
2026-03-13T1800,3315A,116.1234,24.2994,梅州市,梅龙,,38,27,42,14,24,121,121,125,125,9,12,6,7,0.6,0.7
2026-03-13T1800,1878A,104.7775,31.4741,绵阳市,富乐山,,38,38,36,25,25,65,65,69,69,10,10,6,6,0.6,0.6
2026-03-13T1800,1880A,104.6698,31.4668,绵阳市,高新区自来水公司,,33,31,36,23,25,57,57,69,67,19,14,7,7,0.6,0.3
2026-03-13T1800,3491A,104.6899,31.5324,绵阳市,西科大附属小学,,35,28,37,24,28,57,57,64,64,22,18,6,6,0.6,0.6
2026-03-13T1800,3492A,104.5647,31.5343,绵阳市,安州区旅游局,NA,NA,30,35,20,24,62,62,67,67,NA,8,8,7,0.6,0.5
2026-03-13T1800,4146A,104.7092,31.4972,绵阳市,科技城新区公安局,NA,NA,NA,38,22,25,59,59,59,59,11,14,9,8,0.6,0.6
2026-03-13T1800,4226A,104.765114,31.453094,绵阳市,绵阳市气象局,,36,36,37,24,27,61,61,65,64,15,16,8,8,0.7,0.6
2026-03-13T1800,1784A,129.61,44.561,牡丹江市,环保大楼,,42,39,61,29,45,77,77,94,94,26,28,2,7,0.5,0.6
2026-03-13T1800,1787A,129.6364,44.6075,牡丹江市,机车工厂,臭氧1小时(O3_1h),87,42,83,26,46,189,189,131,131,27,29,6,15,0.5,0.6
2026-03-13T1800,1788A,129.6386,44.5462,牡丹江市,第一中学,颗粒物(PM10),51,51,45,31,34,51,51,89,87,45,30,4,5,0.4,0.5
2026-03-13T1800,4287A,129.5992,44.5964,牡丹江市,东晓云街98号,,42,42,69,22,47,68,68,88,88,31,24,2,8,0.5,0.7
2026-03-13T1800,2531A,105.0703,29.61,内江市,市监测站,细颗粒物(PM2.5),74,53,45,47,39,51,51,48,44,14,14,8,7,0.6,0.6
2026-03-13T1800,2533A,105.0657,29.5807,内江市,内江二中,细颗粒物(PM2.5),68,61,61,44,39,52,52,49,44,20,19,8,8,0.5,0.5
2026-03-13T1800,2534A,105.0407,29.5828,内江市,内江日报社,细颗粒物(PM2.5),76,57,46,48,40,57,57,50,46,17,16,13,12,0.6,0.5
2026-03-13T1800,4147A,105.0433,29.6105,内江市,玉峰路西段888号,细颗粒物(PM2.5),84,54,46,52,43,56,56,56,50,20,16,9,8,0.4,0.4
2026-03-13T1800,2628A,92.0653,31.4846,那曲市,那曲监测站,NA,NA,NA,53,NA,33,NA,NA,87,87,NA,24,NA,9,NA,1.0
2026-03-13T1800,4243A,92.0515,31.4787,那曲市,那曲市委宣传部,,33,31,33,10,21,103,103,102,102,2,13,6,8,0.4,0.7
2026-03-13T1800,1291A,115.8887,28.7006,南昌市,省林业公司,,48,48,52,31,33,132,132,123,123,15,17,5,5,0.5,0.6
2026-03-13T1800,1292A,115.813,28.7443,南昌市,林科所,细颗粒物(PM2.5),86,63,45,53,33,153,153,133,133,18,14,10,9,0.5,0.6
2026-03-13T1800,1294A,115.8518,28.687,南昌市,建工学校,,46,46,53,30,32,133,133,123,123,20,20,9,9,0.4,0.5
2026-03-13T1800,1295A,115.8926,28.6425,南昌市,象湖,,40,38,48,21,33,128,128,126,126,16,14,12,10,0.7,0.6
2026-03-13T1800,3046A,115.9084,28.6062,南昌市,机电学校,NA,NA,NA,60,24,34,131,131,126,126,13,16,6,7,0.5,0.6
2026-03-13T1800,3690A,115.9718,28.7032,南昌市,外国语学校,,42,38,53,22,37,133,133,128,128,15,18,7,8,0.4,0.5
2026-03-13T1800,4106A,115.7923,28.6873,南昌市,工业二路,颗粒物(PM10),56,58,56,29,37,146,146,138,138,18,17,5,5,0.5,0.5
2026-03-13T1800,4192A,115.931587,28.686774,南昌市,南京东路235号,,42,42,56,21,33,134,134,127,127,14,17,6,7,0.5,0.5
2026-03-13T1800,1906A,106.0791,30.8022,南充市,南充市委,细颗粒物(PM2.5),52,50,59,36,41,57,57,45,45,17,23,6,6,0.5,0.5
2026-03-13T1800,1907A,106.1038,30.8215,南充市,南充炼油厂,颗粒物(PM10),54,55,56,36,38,60,60,47,47,13,17,5,5,0.4,0.5
2026-03-13T1800,4227A,106.108336,30.788436,南充市,梨树横街98号,颗粒物(PM10),53,53,57,36,40,65,65,54,52,15,18,6,6,0.3,0.3
2026-03-13T1800,4304A,106.1172,30.843,南充市,清泉寺北路188号,,50,47,52,35,39,68,68,57,55,10,12,6,6,0.4,0.4
2026-03-13T1800,4305A,106.067,30.7616,南充市,同庆路1号,细颗粒物(PM2.5),56,47,52,38,40,59,59,50,47,17,22,6,6,0.6,0.6
2026-03-13T1800,1151A,118.8033,32.1085,南京市,迈皋桥,,40,34,70,19,54,127,127,128,128,2,12,3,2,0.2,0.3
2026-03-13T1800,1152A,118.7487,32.057,南京市,草场门,,36,36,66,19,47,109,109,116,116,23,28,7,8,0.7,0.9
2026-03-13T1800,1154A,118.770105,32.004342,南京市,中华门,,35,19,66,3,52,110,110,121,121,8,16,4,5,0.3,0.5
2026-03-13T1800,1155A,118.8059,32.0329,南京市,瑞金路,,34,34,71,16,57,107,107,120,120,9,22,4,4,0.6,0.8
2026-03-13T1800,1156A,118.7946,32.0774,南京市,玄武湖,,39,38,70,17,50,123,123,127,127,3,18,7,8,0.5,0.7
2026-03-13T1800,1157A,118.6415,32.0964,南京市,浦口,,42,42,87,14,58,102,102,108,108,25,30,5,5,0.3,0.5
2026-03-13T1800,1158A,118.730129,32.000956,南京市,奥体中心,,35,22,71,3,47,109,109,120,120,18,26,11,12,0.2,0.4
2026-03-13T1800,1159A,118.9072,32.1047,南京市,仙林大学城,,37,34,71,14,52,116,116,119,119,12,24,6,6,0.4,0.6
2026-03-13T1800,3422A,118.8443,31.919,南京市,江宁彩虹桥,,38,34,80,8,48,120,120,126,126,22,22,3,3,0.4,0.7
2026-03-13T1800,3427A,118.8497,32.3599,南京市,六合雄州,颗粒物(PM10),55,57,80,34,55,112,112,50,NA,32,29,4,4,0.6,0.6
2026-03-13T1800,4086A,118.7641,32.0841,南京市,新模范马路66号,,40,36,73,9,49,128,128,129,129,13,22,3,4,0.4,0.7
2026-03-13T1800,4249A,118.8707617,31.34017673,南京市,汶溪路181号,颗粒物(PM10),53,54,86,26,60,114,114,117,117,13,25,6,8,0.4,0.2
2026-03-13T1800,4312A,119.019,31.6512,南京市,中山西路1号,,36,36,61,15,47,103,103,105,105,14,16,4,4,0.2,0.4
2026-03-13T1800,1401A,108.3098,22.788,南宁市,二十一中,,50,50,61,27,51,119,119,122,122,13,37,4,6,0.4,0.7
2026-03-13T1800,1402A,108.3135,22.8529,南宁市,北湖,,46,45,60,32,50,134,134,133,133,14,42,3,5,0.7,0.8
2026-03-13T1800,1403A,108.3205,22.8222,南宁市,市监测站,,43,43,59,29,46,136,136,135,135,15,42,7,8,0.7,0.9
2026-03-13T1800,1404A,108.3828,22.8038,南宁市,大自然花园,,45,45,54,28,38,138,138,137,137,12,24,6,7,0.5,0.6
2026-03-13T1800,1406A,108.2397,22.8462,南宁市,区农职院,,45,45,52,27,37,122,122,135,133,10,26,6,6,0.5,0.6
2026-03-13T1800,1407A,108.3285,22.7356,南宁市,英华嘉园,颗粒物(PM10),109,143,78,29,52,125,125,132,132,14,46,5,5,NA,0.9
2026-03-13T1800,3401A,108.4829,22.762,南宁市,红星社区,,45,45,56,30,50,139,139,136,136,12,30,4,6,0.5,0.7
2026-03-13T1800,4132A,108.2927,23.1477,南宁市,起凤路9号,细颗粒物(PM2.5),68,57,60,44,46,149,149,134,134,15,26,4,3,0.9,0.9
2026-03-13T1800,4221A,108.2177,22.7774,南宁市,乐贤路16号,,44,44,62,27,42,121,121,123,123,12,37,4,5,0.5,0.6
2026-03-13T1800,2332A,118.1682,26.6371,南平市,南平市监测站,NA,NA,32,35,20,25,106,106,119,119,NA,12,3,5,0.5,0.5
2026-03-13T1800,2334A,118.1757,26.6276,南平市,南平七中,,44,44,38,17,23,113,113,124,124,13,10,2,4,0.4,0.4
2026-03-13T1800,1168A,120.9056,31.9669,南通市,狼山街道,颗粒物(PM10),55,56,61,28,40,109,109,100,100,18,18,4,4,0.5,0.5
2026-03-13T1800,1170A,120.8635,32.0231,南通市,城中,颗粒物(PM10),65,70,70,32,43,116,116,108,108,21,21,1,2,0.5,0.5
2026-03-13T1800,1171A,120.9376,31.9301,南通市,星湖花园,,49,49,63,25,44,110,110,107,107,17,16,4,4,0.4,0.5
2026-03-13T1800,1172A,120.8053,32.046,南通市,紫琅学院,颗粒物(PM10),55,57,64,24,42,66,66,106,102,71,24,6,4,0.6,0.6
2026-03-13T1800,3291A,121.0631,32.0644,南通市,通州监测站,颗粒物(PM10),55,56,56,26,37,110,110,119,119,14,16,3,3,0.4,0.6
2026-03-13T1800,3432A,120.9348,31.9874,南通市,环境教育馆,颗粒物(PM10),60,63,59,33,64,111,111,111,111,21,21,4,3,0.5,0.5
2026-03-13T1800,4091A,120.8692,31.9885,南通市,洪江路,NA,NA,60,59,28,43,110,110,96,96,NA,16,4,4,0.6,0.6
2026-03-13T1800,2404A,112.5338,33.0086,南阳市,瓦房庄,细颗粒物(PM2.5),92,71,105,56,85,138,138,126,126,14,16,5,5,0.6,0.7
2026-03-13T1800,2405A,112.5002,32.9734,南阳市,汉画馆,细颗粒物(PM2.5),110,88,113,71,95,137,137,128,128,21,22,6,5,0.7,0.7
2026-03-13T1800,2406A,112.5778,33.0144,南阳市,气象站,细颗粒物(PM2.5),90,94,131,55,88,137,137,127,127,18,20,6,6,0.6,0.8
2026-03-13T1800,2407A,112.548,32.9687,南阳市,理工学院,细颗粒物(PM2.5),102,81,109,62,93,135,135,125,125,17,18,6,6,0.6,0.7
2026-03-13T1800,4008A,112.5233,32.9921,南阳市,卧龙区政府,细颗粒物(PM2.5),101,84,117,61,87,129,129,121,121,16,17,7,6,0.6,0.6
2026-03-13T1800,1234A,121.8352,29.9111,宁波市,区环保大楼,颗粒物(PM10),61,65,61,36,39,90,90,118,115,62,27,7,6,0.5,0.4
2026-03-13T1800,1235A,121.5595,29.8208,宁波市,万里学院,,46,46,59,25,36,120,120,130,130,28,17,4,5,0.4,0.4
2026-03-13T1800,1236A,121.713,29.9564,宁波市,龙赛医院,颗粒物(PM10),55,56,58,30,34,122,122,118,118,21,16,3,4,0.5,0.5
2026-03-13T1800,1240A,121.5855,29.8635,宁波市,太古小学,颗粒物(PM10),59,62,62,36,36,121,121,132,132,35,21,4,6,0.4,0.5
2026-03-13T1800,1241A,121.5239,29.8673,宁波市,市环境监测中心,颗粒物(PM10),56,58,57,31,36,121,121,123,123,30,18,5,7,0.5,0.4
2026-03-13T1800,2871A,121.6156,29.9015,宁波市,万里国际学校,细颗粒物(PM2.5),52,48,46,36,34,126,126,133,133,28,20,4,7,0.4,0.4
2026-03-13T1800,3710A,121.5593,29.8976,宁波市,白沙活动中心,,50,50,47,35,35,121,121,127,127,31,17,4,8,0.5,0.5
2026-03-13T1800,4095A,121.8962,29.7529,宁波市,中科路88号,,41,34,48,21,36,129,129,126,126,27,21,6,6,0.4,0.5
2026-03-13T1800,2341A,119.5387,26.6611,宁德市,宁德市监测站,,43,43,30,22,21,125,125,128,128,16,14,4,5,0.4,0.4
2026-03-13T1800,3209A,119.5231,26.6562,宁德市,宁德一中,,46,46,31,24,23,126,126,127,127,14,12,5,6,0.4,0.4
2026-03-13T1800,2618A,98.859,25.8541,怒江傈僳族自治州,州监测站,细颗粒物(PM2.5),101,82,45,61,34,70,70,71,71,10,5,9,8,0.3,0.1
2026-03-13T1800,2619A,98.8607,25.8168,怒江傈僳族自治州,泸水一中,细颗粒物(PM2.5),106,77,42,66,36,64,64,64,64,21,16,6,5,0.8,0.6
2026-03-13T1800,1888A,101.6891,26.571,攀枝花市,弄弄坪,,29,29,35,16,17,92,92,90,90,9,12,12,14,0.7,0.8
2026-03-13T1800,1889A,101.577,26.5914,攀枝花市,河门口,,36,33,33,25,22,91,91,88,88,8,12,8,11,0.8,0.7
2026-03-13T1800,1891A,101.7365,26.4986,攀枝花市,仁和,,30,30,27,20,21,88,88,87,87,7,6,9,9,0.7,0.5
2026-03-13T1800,2835A,101.7222,26.567,攀枝花市,四十中小,,28,28,35,18,17,86,86,81,81,8,12,11,16,0.8,0.8
2026-03-13T1800,1604A,122.0303,41.1489,盘锦市,开发区,细颗粒物(PM2.5),72,61,66,46,50,86,86,109,106,22,33,7,8,0.6,0.7
2026-03-13T1800,1605A,122.0486,41.0883,盘锦市,兴隆台,细颗粒物(PM2.5),101,62,58,61,50,82,82,107,107,31,48,8,8,0.5,0.7
2026-03-13T1800,1606A,121.8297,41.1026,盘锦市,新生街道,,46,41,42,32,31,77,77,97,95,32,38,6,7,0.4,0.5
2026-03-13T1800,1832A,113.3257,33.7423,平顶山市,新华旅馆,细颗粒物(PM2.5),111,94,170,72,128,126,126,115,115,18,35,18,11,0.5,0.7
2026-03-13T1800,1833A,113.2917,33.737,平顶山市,规划设计院,细颗粒物(PM2.5),120,122,179,81,126,123,123,117,117,18,29,16,9,NA,0.7
2026-03-13T1800,1834A,113.182,33.7738,平顶山市,平顶山工学院,细颗粒物(PM2.5),111,102,155,72,114,138,138,128,128,13,23,4,4,0.4,0.5
2026-03-13T1800,3594A,112.8736,33.9068,平顶山市,石龙区,NA,NA,104,163,NA,141,139,139,126,126,23,48,6,7,0.5,0.6
2026-03-13T1800,4116A,113.284,33.7139,平顶山市,姚电大道23号,NA,NA,NA,188,NA,138,NA,NA,134,NA,NA,29,NA,8,NA,0.5
2026-03-13T1800,2656A,106.6633,35.5338,平凉市,聚贤嘉苑,颗粒物(PM10),500,644,644,157,179,68,68,74,72,10,15,5,5,0.5,0.6
2026-03-13T1800,2657A,106.7021,35.5307,平凉市,博物馆,颗粒物(PM10),500,614,613,173,189,67,67,73,70,10,14,8,9,0.4,0.6
2026-03-13T1800,2348A,113.8384,27.6436,萍乡市,中医院,,48,41,44,28,21,151,151,140,140,15,14,5,5,0.4,0.2
2026-03-13T1800,2350A,113.8677,27.6438,萍乡市,市环保局,颗粒物(PM10),59,62,40,27,25,148,148,131,131,6,8,6,4,0.7,0.6
2026-03-13T1800,2351A,113.8663,27.6202,萍乡市,安源区政府,,43,37,43,30,25,137,137,119,119,12,15,9,8,0.4,0.6
2026-03-13T1800,4107A,113.8686,27.6668,萍乡市,联洪村委会,,43,43,40,23,22,134,134,118,118,6,8,4,3,0.4,0.2
2026-03-13T1800,2319A,119.0142,25.4324,莆田市,荔城区仓后路,颗粒物(PM10),56,58,40,36,26,125,125,126,126,18,13,/,/,/,/
2026-03-13T1800,2320A,119.0016,25.4553,莆田市,莆田市监测站,,43,43,34,29,21,128,128,131,131,15,10,3,3,0.3,0.3
2026-03-13T1800,2321A,119.112,25.4561,莆田市,涵江区六中,颗粒物(PM10),58,60,40,34,25,130,130,130,130,17,11,/,/,0.5,0.4
2026-03-13T1800,2322A,119.1014,25.3215,莆田市,秀屿区政府,颗粒物(PM10),63,67,42,24,27,123,123,132,132,12,10,4,4,0.3,0.4
2026-03-13T1800,2392A,115.0312,35.7636,濮阳市,环保局,细颗粒物(PM2.5),111,72,116,72,121,127,127,127,127,22,33,7,6,0.6,0.9
2026-03-13T1800,3021A,115,35.7667,濮阳市,濮水河管理处,细颗粒物(PM2.5),108,105,155,68,120,132,132,133,133,18,24,8,7,0.3,0.5
2026-03-13T1800,4118A,115.0552,35.7816,濮阳市,中原东路68号,细颗粒物(PM2.5),117,109,169,78,127,128,128,128,128,16,31,6,6,0.6,0.8
2026-03-13T1800,4216A,115.0923632,35.76857718,濮阳市,任丘路479号,细颗粒物(PM2.5),115,103,164,76,128,128,128,131,131,28,40,7,7,0.8,1
2026-03-13T1800,2601A,100.9801,22.7634,普洱市,市环保局,,45,45,33,22,16,71,71,74,74,8,6,5,6,0.7,0.6
2026-03-13T1800,2602A,100.9763,22.8237,普洱市,普洱第二中学,,44,44,34,25,19,79,79,80,80,7,9,4,4,0.7,0.6
2026-03-13T1800,3345A,131.0413,45.7795,七台河市,中波台,,45,45,34,28,16,87,87,92,92,13,13,13,14,0.4,0.4
2026-03-13T1800,3637A,131.0136,45.7688,七台河市,人民广场,细颗粒物(PM2.5),68,51,42,44,15,82,82,96,96,28,17,12,9,0.6,0.5
2026-03-13T1800,3684A,130.8639,45.8144,七台河市,新建矿广场,颗粒物(PM10),91,107,61,42,29,60,60,87,86,35,25,10,6,0.3,0.3
2026-03-13T1800,1779A,123.9307,47.3641,齐齐哈尔市,安居小区,细颗粒物(PM2.5),142,115,82,106,52,74,74,87,86,18,16,6,6,0.8,0.5
2026-03-13T1800,1780A,123.9497,47.3389,齐齐哈尔市,中心广场,细颗粒物(PM2.5),139,173,83,102,56,77,77,86,86,21,16,9,9,1.0,0.6
2026-03-13T1800,1781A,123.9483,47.3229,齐齐哈尔市,农牧车辆厂,细颗粒物(PM2.5),150,119,88,114,55,71,71,86,85,17,13,7,8,0.4,0.3
2026-03-13T1800,1783A,123.9442,47.2994,齐齐哈尔市,市环境监测站,细颗粒物(PM2.5),176,NA,83,133,54,68,68,86,85,22,15,4,5,0.9,0.6
2026-03-13T1800,3662A,123.6341,47.2079,齐齐哈尔市,富区青少年活动中心,细颗粒物(PM2.5),173,138,99,131,60,52,52,86,82,28,13,3,4,1.1,0.7
2026-03-13T1800,2591A,107.9765,26.5724,黔东南苗族侗族自治州,市环境监测站,,32,NA,45,22,31,98,98,92,92,6,15,2,4,0.4,0.5
2026-03-13T1800,2881A,107.8909,26.531,黔东南苗族侗族自治州,凯里学院,,43,NA,36,30,29,102,102,97,97,17,18,4,4,0.5,0.5
2026-03-13T1800,2593A,107.5223,26.2371,黔南布依族苗族自治州,小围寨,,32,24,27,22,21,91,91,87,87,4,8,7,6,0.6,0.6
2026-03-13T1800,3538A,107.5175,26.2977,黔南布依族苗族自治州,沙坝,,31,31,40,15,25,99,99,94,94,7,10,3,4,0.8,0.8
2026-03-13T1800,2589A,104.9022,25.0943,黔西南布依族苗族自治州,场坝街,,45,43,41,31,32,83,83,85,85,10,12,4,9,0.6,0.7
2026-03-13T1800,2590A,104.8812,25.0994,黔西南布依族苗族自治州,坪东大道,,43,38,44,30,28,82,82,85,85,11,14,5,6,0.6,0.6
2026-03-13T1800,2502A,108.6238,21.9667,钦州市,市环保站,颗粒物(PM10),65,70,79,26,42,138,138,134,134,14,31,4,6,0.6,0.8
2026-03-13T1800,2503A,108.655,21.9481,钦州市,沙埠小学,颗粒物(PM10),67,73,76,35,50,142,142,142,142,14,35,5,7,0.4,0.7
2026-03-13T1800,2504A,108.5989,21.7435,钦州市,港区一小,颗粒物(PM10),70,77,78,27,37,135,135,138,138,12,35,3,6,0.3,0.7
2026-03-13T1800,3404A,108.5959,21.9634,钦州市,北职校,颗粒物(PM10),59,62,65,27,46,139,139,141,141,16,28,6,5,0.5,0.8
2026-03-13T1800,1046A,119.5247,39.9346,秦皇岛市,建设大厦,颗粒物(PM10),54,55,64,32,35,63,63,80,79,30,27,6,12,0.5,0.7
2026-03-13T1800,3132A,119.5979,39.938,秦皇岛市,文明里,"颗粒物(PM10),细颗粒物(PM2.5)",52,52,63,36,36,66,66,70,70,32,35,8,12,0.4,0.7
2026-03-13T1800,4066A,119.7458,39.9952,秦皇岛市,南园路157号,,49,49,78,34,42,56,56,68,67,38,61,7,12,0.4,0.7
2026-03-13T1800,4067A,119.5131,39.8858,秦皇岛市,翠岛大街1号,颗粒物(PM10),53,54,68,35,49,68,68,75,75,24,39,8,11,0.4,0.8
2026-03-13T1800,4198A,119.509013,39.825305,秦皇岛市,北戴河轮滑馆,,46,46,72,24,37,70,70,69,69,23,33,6,9,0.3,0.5
2026-03-13T1800,1310A,120.404,36.0625,青岛市,市南区东部子站,细颗粒物(PM2.5),134,114,79,97,57,116,116,94,94,16,38,10,11,0.9,0.9
2026-03-13T1800,1311A,120.362344,36.10282,青岛市,四方区子站,细颗粒物(PM2.5),162,NA,76,123,65,137,137,117,117,24,36,10,8,1.3,0.9
2026-03-13T1800,1312A,120.294373,36.054183,青岛市,市南区西部子站,细颗粒物(PM2.5),135,105,65,98,50,111,111,88,88,25,38,4,5,1.1,0.9
2026-03-13T1800,1313A,120.4581,36.0858,青岛市,崂山区子站,细颗粒物(PM2.5),114,100,78,75,52,123,123,96,96,17,34,9,9,0.9,0.8
2026-03-13T1800,1315A,120.3945,36.3083,青岛市,城阳区子站,细颗粒物(PM2.5),104,92,86,64,55,127,127,118,118,33,44,9,8,1.1,0.9
2026-03-13T1800,3642A,120.3454,36.0735,青岛市,市北区南部,细颗粒物(PM2.5),120,88,72,82,47,125,125,106,106,21,34,5,5,1.0,0.8
2026-03-13T1800,3643A,120.3897,36.18,青岛市,李沧区北部,细颗粒物(PM2.5),123,112,83,85,52,126,126,111,111,NA,43,NA,10,1.4,0.9
2026-03-13T1800,4110A,120.5222,36.4089,青岛市,盟旺路653号,细颗粒物(PM2.5),94,88,87,57,56,121,121,117,117,20,32,7,5,1.1,1
2026-03-13T1800,4290A,120.196923,35.954556,青岛市,珠江路669号,细颗粒物(PM2.5),143,129,73,107,52,128,128,112,112,25,51,5,7,0.8,0.7
2026-03-13T1800,4291A,120.0424,35.8656,青岛市,黄岛区人民政府广场,细颗粒物(PM2.5),126,107,62,88,41,120,120,100,100,23,26,7,9,0.8,0.7
2026-03-13T1800,1703A,113.0218,23.7086,清远市,凤城街办,,49,36,35,25,21,155,155,144,144,15,16,/,/,/,/
2026-03-13T1800,3025A,113.0479,23.6343,清远市,技师学院,臭氧1小时(O3_1h),64,43,40,25,21,171,171,147,147,16,15,8,7,0.4,0.5
2026-03-13T1800,3318A,112.9898,23.7403,清远市,清新太和,臭氧1小时(O3_1h),58,42,36,27,23,166,166,156,156,13,16,9,8,0.4,0.4
2026-03-13T1800,3455A,113.076,23.72,清远市,清城东城,,48,39,38,25,22,152,152,141,141,14,15,/,/,/,/
2026-03-13T1800,2661A,107.6325,35.7357,庆阳市,庆阳五中,颗粒物(PM10),500,791,500,202,156,51,51,67,59,11,13,4,4,0.4,0.5
2026-03-13T1800,2662A,107.6361,35.7067,庆阳市,市环保局,颗粒物(PM10),500,766,484,200,150,55,55,72,64,10,13,5,7,0.3,0.4
2026-03-13T1800,1916A,103.7897,25.5036,曲靖市,环境监测站,,42,40,35,29,27,34,34,69,52,28,16,7,7,1.0,0.8
2026-03-13T1800,1917A,103.8013,25.5357,曲靖市,烟厂办公区,,37,37,37,24,23,41,41,64,49,17,11,4,4,0.8,0.7
2026-03-13T1800,3376A,103.7926,25.4651,曲靖市,南苑二区,,40,35,32,28,25,36,36,64,50,24,16,3,4,0.9,0.8
2026-03-13T1800,3377A,103.7442,25.5259,曲靖市,曲靖师范学院,,40,38,33,28,27,39,39,74,56,20,11,2,2,0.6,0.5
2026-03-13T1800,1264A,118.8694,28.94,衢州市,环保大楼,细颗粒物(PM2.5),62,58,62,41,45,138,138,135,135,14,18,/,/,/,/
2026-03-13T1800,1266A,118.8622,28.9809,衢州市,衢州学院,细颗粒物(PM2.5),56,54,55,38,41,141,141,133,133,23,32,7,7,0.4,0.5
2026-03-13T1800,4097A,118.9646,28.9832,衢州市,衢州三中,颗粒物(PM10),55,57,62,37,41,139,139,NA,NA,20,37,6,6,0.5,0.6
2026-03-13T1800,1611A,118.5818,24.9116,泉州市,涂山街,颗粒物(PM10),60,63,42,30,25,104,104,111,111,18,11,4,3,0.5,0.4
2026-03-13T1800,1612A,118.597,24.8976,泉州市,津头埔,颗粒物(PM10),55,57,42,30,25,113,113,121,121,16,11,4,3,0.5,0.4
2026-03-13T1800,1613A,118.6669,24.9422,泉州市,万安,颗粒物(PM10),60,64,45,29,25,102,102,109,109,16,11,4,4,0.5,0.4
2026-03-13T1800,4105A,118.6355,24.9148,泉州市,霞新路6号,颗粒物(PM10),54,55,44,29,24,99,99,111,109,18,14,/,/,0.5,0.5
2026-03-13T1800,2626A,88.8873,29.2723,日喀则市,日喀则监测站,,45,36,25,3,9,144,144,122,122,4,5,7,8,0.3,0.4
2026-03-13T1800,3726A,88.8775,29.2425,日喀则市,林业技术推广中心,,46,35,30,13,5,145,145,126,126,4,4,10,11,0.4,0.5
2026-03-13T1800,1659A,119.4711,35.421,日照市,监测站,细颗粒物(PM2.5),109,107,103,69,70,109,109,109,109,52,57,10,12,0.9,1.1
2026-03-13T1800,1660A,119.523,35.4216,日照市,市政府广场,细颗粒物(PM2.5),107,102,106,67,73,131,131,113,113,34,55,7,8,0.8,0.8
2026-03-13T1800,1661A,119.5511,35.4113,日照市,港务局,细颗粒物(PM2.5),109,95,120,69,79,128,128,109,109,31,63,6,7,NA,1
2026-03-13T1800,3507A,119.5326,35.4627,日照市,职业技术学院,细颗粒物(PM2.5),114,97,88,75,65,130,130,116,116,35,46,8,9,1.0,1
