timepoint,stationcode,longitude,latitude,area,positionname,primarypollutant,aqi,pm10,pm10_24h,pm2_5,pm2_5_24h,o3,o3_24h,o3_8h,o3_8h_24h,no2,no2_24h,so2,so2_24h,co,co_24h
2026-03-13T1300,2568A,102.2503,31.8896,阿坝藏族羌族自治州,马师校,,28,8,28,7,19,88,88,56,56,6,11,5,5,0.5,0.5
2026-03-13T1300,3994A,102.2174,31.9016,阿坝藏族羌族自治州,马尔康中学西区,,28,24,15,10,14,88,88,63,63,6,7,6,6,0.4,0.4
2026-03-13T1300,2695A,80.2899,41.1684,阿克苏地区,电视台,颗粒物(PM10),500,729,1140,156,230,66,66,75,70,15,5,2,2,0.9,0.8
2026-03-13T1300,2696A,80.2592,41.1541,阿克苏地区,艺术中心,颗粒物(PM10),500,712,1067,175,236,68,68,82,74,16,5,4,4,0.2,0.1
2026-03-13T1300,2205A,105.699,38.8409,阿拉善盟,蒙二幼,颗粒物(PM10),249,384,830,88,197,75,75,78,76,4,4,8,8,0.4,0.4
2026-03-13T1300,2206A,105.7198,38.8508,阿拉善盟,环保局新楼,颗粒物(PM10),269,398,785,88,206,72,72,75,73,5,5,7,7,0.4,0.4
2026-03-13T1300,2708A,88.1266,47.8515,阿勒泰地区,市站,,24,24,20,3,5,72,72,71,71,20,12,10,4,0.2,0.2
2026-03-13T1300,4166A,88.1198,47.7931,阿勒泰地区,阿勒泰路33号,,27,24,20,3,6,84,84,78,78,8,8,6,5,0.4,0.3
2026-03-13T1300,2630A,80.1171,32.4999,阿里地区,阿里监测站,,29,12,49,3,10,92,92,93,89,1,2,7,8,0.2,0.3
2026-03-13T1300,3192A,80.0906,32.5029,阿里地区,阿里藏医院,,32,14,51,3,8,100,100,100,99,2,2,8,10,0.4,0.3
2026-03-13T1300,2644A,109.0088,32.6974,安康市,汉滨区检察院,细颗粒物(PM2.5),120,100,131,82,103,133,133,135,128,14,15,4,4,0.6,0.7
2026-03-13T1300,4054A,109.0324,32.6913,安康市,市邮政管理局,细颗粒物(PM2.5),123,106,135,85,107,127,127,128,119,17,18,4,4,0.6,0.7
2026-03-13T1300,2291A,117.0806,30.5181,安庆市,环科院,细颗粒物(PM2.5),90,76,74,55,49,128,128,82,82,14,22,10,9,0.7,0.6
2026-03-13T1300,2292A,117.0331,30.5118,安庆市,马山宾馆,细颗粒物(PM2.5),84,71,73,52,46,133,133,91,91,24,29,7,7,0.7,0.8
2026-03-13T1300,2294A,116.9897,30.6146,安庆市,安庆大学,,41,41,66,27,40,124,124,84,84,11,16,6,5,0.4,0.7
2026-03-13T1300,3173A,117.0598,30.5351,安庆市,市人大,NA,NA,64,74,50,46,131,131,89,89,NA,26,8,8,0.5,0.5
2026-03-13T1300,3123A,105.9408,26.2431,安顺市,凤凰山,,35,28,25,23,20,110,110,84,84,7,12,10,14,0.4,0.5
2026-03-13T1300,3124A,105.9443,26.2567,安顺市,金钟山,NA,NA,37,25,19,20,104,104,80,80,NA,8,10,14,NA,0.5
2026-03-13T1300,3125A,105.8983,26.248,安顺市,娄家坡,,32,25,29,22,21,102,102,77,77,6,8,8,9,0.5,0.5
2026-03-13T1300,1819A,114.3552,36.1017,安阳市,红庙街,细颗粒物(PM2.5),121,NA,127,83,134,121,121,94,94,17,23,2,2,0.4,0.5
2026-03-13T1300,1820A,114.361,36.0681,安阳市,银杏小区,细颗粒物(PM2.5),123,NA,144,85,143,125,125,95,95,16,23,3,2,0.4,0.6
2026-03-13T1300,3141A,114.3921,36.0879,安阳市,信访局,细颗粒物(PM2.5),121,88,144,83,140,131,131,100,100,13,21,4,3,0.3,0.5
2026-03-13T1300,3669A,114.4706,36.0634,安阳市,左辅环卫站,细颗粒物(PM2.5),110,120,189,71,145,121,121,78,78,10,27,3,3,0.5,0.6
2026-03-13T1300,4117A,114.2918,36.0769,安阳市,钢三路198号,细颗粒物(PM2.5),130,122,188,92,145,113,113,82,82,18,24,4,4,0.5,0.6
2026-03-13T1300,1748A,123.0441,41.1201,鞍山市,深沟寺,颗粒物(PM10),55,56,73,36,52,111,111,89,89,11,25,8,9,0.6,0.8
2026-03-13T1300,1749A,123.011,41.0931,鞍山市,太阳城,细颗粒物(PM2.5),72,52,75,46,60,110,110,84,84,11,26,10,14,0.6,0.9
2026-03-13T1300,1750A,123.0483,41.1445,鞍山市,太平,颗粒物(PM10),59,62,84,35,56,107,107,74,74,12,30,10,12,0.6,0.9
2026-03-13T1300,1751A,122.964,41.0968,鞍山市,铁西三道街,颗粒物(PM10),80,91,102,49,71,103,103,70,70,20,46,11,22,0.7,1.2
2026-03-13T1300,1753A,123.0219,41.0822,鞍山市,明达新区,细颗粒物(PM2.5),58,59,78,39,57,110,110,82,82,11,24,10,13,0.6,0.8
2026-03-13T1300,4201A,122.944647,41.082639,鞍山市,兴盛南路290号,颗粒物(PM10),82,94,107,48,71,110,110,74,74,15,48,10,14,0.9,1.3
2026-03-13T1300,2195A,107.4206,40.7609,巴彦淖尔市,附二中,NA,NA,83,1146,28,345,NA,NA,69,NA,4,7,9,9,0.4,0.4
2026-03-13T1300,2196A,107.37,40.7372,巴彦淖尔市,市环保大楼,颗粒物(PM10),70,77,1399,11,428,86,86,77,77,6,8,5,6,0.3,0.3
2026-03-13T1300,1956A,86.1476,41.7529,巴音郭楞蒙古自治州,孔雀公园,颗粒物(PM10),184,317,73,82,14,80,80,67,65,11,11,8,8,0.3,0.3
2026-03-13T1300,1957A,86.1971,41.7166,巴音郭楞蒙古自治州,棉纺厂,颗粒物(PM10),179,307,82,80,20,77,77,58,52,10,13,/,/,/,/
2026-03-13T1300,1958A,86.236,41.7172,巴音郭楞蒙古自治州,经济开发区,颗粒物(PM10),194,338,83,78,16,79,79,61,61,14,6,6,5,0.5,0.3
2026-03-13T1300,3181A,106.776805,31.852614,巴中市,市五中,细颗粒物(PM2.5),56,52,48,38,36,61,61,50,35,11,20,8,8,0.7,0.8
2026-03-13T1300,3183A,106.7419,31.8654,巴中市,圣泉水务公司,细颗粒物(PM2.5),56,49,51,38,35,50,50,52,49,12,24,8,9,0.8,0.9
2026-03-13T1300,3616A,106.7617,31.8343,巴中市,市中心医院,细颗粒物(PM2.5),62,56,54,41,37,52,52,34,34,18,32,9,9,0.8,0.9
2026-03-13T1300,2235A,122.7909,45.608,白城市,洮北区环保局,细颗粒物(PM2.5),115,124,64,76,37,101,101,78,78,19,16,9,5,0.5,0.3
2026-03-13T1300,2236A,122.8741,45.5725,白城市,市环保局,颗粒物(PM10),116,161,71,68,38,97,97,71,71,16,16,7,5,0.5,0.4
2026-03-13T1300,2231A,126.4219,41.9172,白山市,喜丰,,29,27,53,13,27,92,92,57,57,4,22,11,10,0.6,0.7
2026-03-13T1300,2232A,126.4082,41.9416,白山市,环保局,,30,23,40,14,29,93,93,61,61,8,14,11,10,0.7,0.7
2026-03-13T1300,2647A,104.1727,36.5448,白银市,第三小学,颗粒物(PM10),304,423,741,82,161,80,80,79,79,3,5,2,3,0.0,0.2
2026-03-13T1300,2648A,104.1467,36.5482,白银市,动力公司,颗粒物(PM10),339,451,805,83,162,77,77,74,74,3,4,2,5,0.3,0.4
2026-03-13T1300,2512A,106.6102,23.901,百色市,市监测站,颗粒物(PM10),57,59,39,27,23,98,98,40,40,20,22,21,12,0.7,0.5
2026-03-13T1300,2513A,106.6524,23.8842,百色市,市中心血站,颗粒物(PM10),65,71,57,36,34,113,113,38,38,17,36,28,12,0.8,0.7
2026-03-13T1300,4133A,106.6273,23.8798,百色市,龙景西路,细颗粒物(PM2.5),72,50,46,46,30,111,111,38,38,18,19,31,13,0.7,0.5
2026-03-13T1300,2270A,117.396,32.9389,蚌埠市,工人疗养院,颗粒物(PM10),55,56,108,37,89,123,123,92,92,12,32,4,5,0.6,0.7
2026-03-13T1300,2271A,117.3606,32.9428,蚌埠市,百货大楼,颗粒物(PM10),54,55,100,35,81,122,122,97,97,15,30,5,5,0.5,0.7
2026-03-13T1300,2273A,117.4183,32.8909,蚌埠市,蚌埠学院,,50,NA,93,35,91,126,126,90,90,11,23,4,5,0.5,0.6
2026-03-13T1300,2274A,117.3534,32.9672,蚌埠市,淮上区政府,细颗粒物(PM2.5),60,53,97,40,92,126,126,90,90,10,30,5,5,0.5,0.6
2026-03-13T1300,2275A,117.3143,32.8977,蚌埠市,高新区,细颗粒物(PM2.5),74,53,96,47,93,120,120,87,87,13,23,6,6,0.5,0.6
2026-03-13T1300,3715A,117.3091,32.9314,蚌埠市,蚌埠田家炳中学,细颗粒物(PM2.5),72,61,106,46,91,127,127,100,100,12,24,4,5,0.5,0.6
2026-03-13T1300,1585A,109.8761,40.6533,包头市,市环境监测站,,49,49,348,13,152,88,88,81,81,7,16,4,8,0.3,0.6
2026-03-13T1300,1587A,109.9992,40.5843,包头市,包头八中,,46,46,452,20,153,78,78,75,75,7,15,8,11,0.3,0.5
2026-03-13T1300,1589A,109.8641,40.6288,包头市,惠龙物流,,46,46,363,14,141,88,88,80,80,6,16,4,8,0.2,0.5
2026-03-13T1300,1590A,110.0376,40.5546,包头市,东河鸿龙湾,,31,31,376,9,133,80,80,76,76,9,17,7,9,0.3,0.5
2026-03-13T1300,3283A,109.9154,40.5684,包头市,滨河大厦,,32,32,450,3,126,83,83,78,78,8,17,8,9,0.4,0.5
2026-03-13T1300,3419A,109.9449,40.6259,包头市,包头市委党校,,49,NA,452,34,143,79,79,77,77,9,17,8,11,0.4,0.5
2026-03-13T1300,3683A,109.8332,40.6577,包头市,昆区政府,,40,40,383,9,118,87,87,81,81,11,22,7,12,0.4,0.6
2026-03-13T1300,1931A,107.0802,34.3129,宝鸡市,竹园沟,颗粒物(PM10),395,496,219,151,117,55,55,48,48,11,20,7,7,0.4,0.6
2026-03-13T1300,1933A,107.1429,34.3549,宝鸡市,监测站,颗粒物(PM10),492,592,252,93,107,48,48,43,42,15,26,5,5,0.1,0.5
2026-03-13T1300,1934A,107.1172,34.3759,宝鸡市,技工学校,颗粒物(PM10),500,620,270,157,115,52,52,54,49,12,19,3,4,0.6,0.7
2026-03-13T1300,1936A,107.2025,34.3518,宝鸡市,文理学院,颗粒物(PM10),500,607,258,147,118,57,57,51,51,10,21,4,4,0.4,0.7
2026-03-13T1300,1937A,107.2396,34.3626,宝鸡市,三迪小学,颗粒物(PM10),500,637,254,150,115,50,50,48,46,15,23,4,5,0.4,0.7
2026-03-13T1300,4155A,107.1721,34.3558,宝鸡市,滨河北路,颗粒物(PM10),458,558,256,154,118,52,52,48,48,11,19,5,6,0.4,0.6
2026-03-13T1300,4308A,107.3898,34.3601,宝鸡市,陈仓区北开路21号,颗粒物(PM10),490,590,248,150,112,44,44,50,44,18,24,7,8,0.4,0.6
2026-03-13T1300,1051A,115.4803,38.8568,保定市,游泳馆,细颗粒物(PM2.5),158,133,117,120,100,38,38,37,32,58,51,8,5,0.8,0.6
2026-03-13T1300,1052A,115.509,38.8895,保定市,华电二区,细颗粒物(PM2.5),159,139,107,121,90,27,27,38,27,46,37,3,3,0.9,0.8
2026-03-13T1300,1053A,115.4588,38.9037,保定市,接待中心,细颗粒物(PM2.5),153,150,111,117,91,33,33,48,30,53,34,5,4,0.4,0.4
2026-03-13T1300,1054A,115.4484,38.8344,保定市,地表水厂,细颗粒物(PM2.5),150,132,129,114,90,40,40,44,25,57,48,8,7,0.6,0.5
2026-03-13T1300,3581A,115.3136,38.9511,保定市,满城区生态环境分局,细颗粒物(PM2.5),155,173,151,118,102,44,44,26,26,58,48,7,7,0.5,0.6
2026-03-13T1300,3582A,115.4709,38.7628,保定市,清苑区第二中学,细颗粒物(PM2.5),139,185,140,102,90,26,26,33,26,69,49,8,5,0.7,0.6
2026-03-13T1300,3583A,115.6231,39.0223,保定市,徐水物探局,细颗粒物(PM2.5),134,151,143,97,101,40,40,50,35,43,40,7,4,0.7,0.6
2026-03-13T1300,4004A,115.4199,38.8665,保定市,双鹰农机,细颗粒物(PM2.5),152,176,144,116,98,45,45,51,37,54,40,5,4,0.6,0.6
2026-03-13T1300,4034A,115.515,38.8589,保定市,植保所站,细颗粒物(PM2.5),149,152,125,113,93,28,28,39,35,59,57,5,4,0.6,0.7
2026-03-13T1300,2594A,99.1589,25.1137,保山市,市环境监测站,细颗粒物(PM2.5),86,80,57,53,42,70,70,73,62,26,13,4,4,0.5,0.4
2026-03-13T1300,2595A,99.1616,25.1381,保山市,市环保局,细颗粒物(PM2.5),94,81,62,57,45,70,70,82,66,17,9,5,5,0.7,0.6
2026-03-13T1300,1867A,109.1435,21.4085,北海市,海滩公园,,47,38,38,25,24,149,149,112,112,11,13,9,9,0.7,0.8
2026-03-13T1300,1868A,109.0983,21.466,北海市,新市环保局,,46,43,38,17,26,146,146,106,106,11,16,8,9,0.6,0.7
2026-03-13T1300,1869A,109.1775,21.5232,北海市,北海工业园,颗粒物(PM10),60,63,48,14,29,129,129,86,86,7,14,9,9,0.8,1
2026-03-13T1300,3400A,109.1844,21.4396,北海市,龙潭自来水厂,,45,44,48,19,29,142,142,86,86,5,10,10,7,0.5,0.7
2026-03-13T1300,1001A,116.3611,39.8786,北京市,万寿西宫,细颗粒物(PM2.5),113,108,91,74,62,52,52,34,26,46,41,4,4,0.7,0.6
2026-03-13T1300,1003A,116.4174,39.9289,北京市,东四,细颗粒物(PM2.5),111,108,91,72,60,43,43,39,21,49,40,8,8,0.8,0.6
2026-03-13T1300,1004A,116.4073,39.8858,北京市,天坛,细颗粒物(PM2.5),104,102,84,64,57,36,36,30,17,58,38,5,4,1.0,0.8
2026-03-13T1300,1005A,116.4622,39.9364,北京市,农展馆,细颗粒物(PM2.5),106,100,87,66,58,37,37,23,15,41,36,7,6,0.7,0.6
2026-03-13T1300,1006A,116.3399,39.9293,北京市,官园,细颗粒物(PM2.5),113,116,94,74,62,47,47,34,24,56,44,4,4,0.7,0.6
2026-03-13T1300,1007A,116.2879,39.9613,北京市,海淀万柳,细颗粒物(PM2.5),113,109,91,74,61,38,38,26,17,48,41,5,5,0.7,0.6
2026-03-13T1300,1008A,116.6635,40.1349,北京市,顺义新城,细颗粒物(PM2.5),90,91,90,55,57,44,44,32,32,43,33,7,6,0.7,0.7
2026-03-13T1300,1009A,116.6275,40.327,北京市,怀柔镇,细颗粒物(PM2.5),82,73,88,51,60,54,54,39,39,33,31,7,6,0.7,0.8
2026-03-13T1300,1010A,116.2295,40.217,北京市,昌平镇,细颗粒物(PM2.5),124,116,99,86,69,38,38,41,24,50,36,3,4,0.9,0.8
2026-03-13T1300,1011A,116.3968,39.982,北京市,奥体中心,细颗粒物(PM2.5),110,108,89,70,58,45,45,34,20,46,40,5,6,0.7,0.8
2026-03-13T1300,3418A,116.8336,40.4095,北京市,密云新城,细颗粒物(PM2.5),84,81,96,52,59,56,56,36,32,30,26,6,5,0.6,0.7
2026-03-13T1300,3671A,116.0879,39.9725,北京市,门头沟三家店,细颗粒物(PM2.5),125,133,118,87,73,57,57,30,30,27,38,5,5,0.6,0.7
2026-03-13T1300,3672A,116.1507,39.8246,北京市,丰台云岗,细颗粒物(PM2.5),113,114,108,74,70,49,49,30,22,42,34,5,4,0.7,0.7
2026-03-13T1300,3674A,115.9578,39.7602,北京市,房山燕山,细颗粒物(PM2.5),134,141,123,97,88,39,39,43,27,56,33,5,4,0.7,0.6
2026-03-13T1300,3675A,116.4669,39.7734,北京市,大兴旧宫,细颗粒物(PM2.5),107,112,90,67,55,30,30,31,18,59,36,6,6,0.9,0.7
2026-03-13T1300,3694A,115.9859,40.4562,北京市,延庆石河营,细颗粒物(PM2.5),152,149,109,116,79,74,74,63,55,20,21,2,2,0.9,0.7
2026-03-13T1300,3695A,116.6151,40.3052,北京市,怀柔新城,细颗粒物(PM2.5),78,69,87,49,61,56,56,42,42,29,26,5,4,0.6,0.7
2026-03-13T1300,3696A,116.2542,39.8764,北京市,丰台小屯,细颗粒物(PM2.5),120,126,100,82,63,51,51,30,26,47,41,5,5,0.7,0.5
2026-03-13T1300,3697A,116.8399,40.3843,北京市,密云镇,细颗粒物(PM2.5),96,88,90,58,60,56,56,33,32,32,30,7,7,0.6,0.7
2026-03-13T1300,4057A,115.9423,40.4431,北京市,延庆百泉,细颗粒物(PM2.5),156,150,112,119,78,73,73,68,55,28,25,3,3,0.8,0.6
2026-03-13T1300,4058A,116.6598,39.9164,北京市,通州新华,细颗粒物(PM2.5),106,109,90,66,54,27,27,29,20,60,37,5,4,0.7,0.6
2026-03-13T1300,4182A,116.1942,39.9158,北京市,石景山八角,细颗粒物(PM2.5),109,116,99,69,63,46,46,19,18,40,40,NA,5,0.6,0.6
2026-03-13T1300,4194A,117.078628,40.151726,北京市,平谷新城,细颗粒物(PM2.5),101,91,96,61,62,50,50,50,36,43,31,4,3,0.7,0.7
2026-03-13T1300,1761A,123.8274146,41.31234549,本溪市,大峪,NA,NA,60,57,30,29,106,106,53,53,NA,31,NA,10,0.5,0.6
2026-03-13T1300,1763A,123.7169,41.3094,本溪市,彩屯,颗粒物(PM10),73,81,82,39,50,107,107,65,65,18,40,17,15,1.5,1.9
2026-03-13T1300,1764A,123.7672166,41.28649327,本溪市,东明,颗粒物(PM10),78,88,70,36,34,110,110,70,70,11,34,12,11,0.5,0.7
2026-03-13T1300,1765A,123.799345,41.266614,本溪市,新立屯,颗粒物(PM10),63,67,47,34,24,110,110,87,87,7,31,9,7,0.6,0.6
2026-03-13T1300,1766A,123.829144,41.336777,本溪市,威宁,颗粒物(PM10),56,58,77,27,37,114,114,62,62,7,31,8,7,0.6,0.9
2026-03-13T1300,2587A,105.287,27.3133,毕节市,八中,,43,38,34,30,26,79,79,60,60,7,11,10,10,0.6,0.6
2026-03-13T1300,2588A,105.3079,27.2987,毕节市,师专,,36,35,31,25,23,69,69,57,57,7,11,8,9,0.5,0.5
2026-03-13T1300,4263A,105.3688,27.3598,毕节市,工业大道,,45,45,37,19,22,85,85,72,72,8,9,9,10,/,/
2026-03-13T1300,1629A,117.9961,37.3604,滨州市,第二水厂,细颗粒物(PM2.5),153,132,67,117,42,138,138,56,56,14,38,10,14,0.5,0.4
2026-03-13T1300,1630A,117.9789,37.3931,滨州市,北中新校,细颗粒物(PM2.5),148,129,67,112,38,138,138,64,64,NA,25,13,14,0.4,0.4
2026-03-13T1300,3514A,117.9379,37.3959,滨州市,中海酒店,细颗粒物(PM2.5),148,139,64,112,36,141,141,69,69,20,36,9,12,0.8,0.8
2026-03-13T1300,3515A,117.9381509,37.35547456,滨州市,开发区一中,细颗粒物(PM2.5),144,136,73,108,41,131,131,57,57,7,25,14,16,0.7,0.6
2026-03-13T1300,3516A,118.0914,37.6938,滨州市,金海六路,细颗粒物(PM2.5),150,129,58,114,36,140,140,73,73,16,21,12,10,0.6,0.5
2026-03-13T1300,4028A,117.9955,37.3752,滨州市,滨州市西街道办事处,细颗粒物(PM2.5),150,132,73,114,42,138,138,57,57,12,28,15,16,0.6,0.6
2026-03-13T1300,2311A,115.8071,33.8399,亳州市,污水处理厂,细颗粒物(PM2.5),115,88,115,76,96,133,133,89,89,16,20,6,7,0.2,0.2
2026-03-13T1300,2312A,115.7789,33.8519,亳州市,三国揽胜宫,细颗粒物(PM2.5),112,110,127,73,96,122,122,89,89,11,17,6,6,0.2,0.3
2026-03-13T1300,3332A,115.7631,33.803,亳州市,亳州学院,细颗粒物(PM2.5),119,94,122,80,98,124,124,87,87,9,17,6,6,0.2,0.3
2026-03-13T1300,2693A,82.0482,44.8553,博尔塔拉蒙古自治州,市党校,颗粒物(PM10),81,93,98,22,16,86,86,87,87,13,5,3,2,0.7,0.5
2026-03-13T1300,2694A,82.0805,44.8966,博尔塔拉蒙古自治州,市环保局,NA,NA,58,77,17,13,69,69,80,78,18,12,NA,1,0.5,0.5
2026-03-13T1300,1071A,116.8733,38.2922,沧州市,沧县城建局,细颗粒物(PM2.5),175,163,81,132,57,100,100,57,57,28,30,7,7,0.9,0.6
2026-03-13T1300,1072A,116.8462,38.3189,沧州市,电视转播站,细颗粒物(PM2.5),188,153,77,141,62,96,96,55,55,32,33,8,5,0.7,0.5
2026-03-13T1300,1073A,116.8588,38.3161,沧州市,市环保局,细颗粒物(PM2.5),158,186,86,120,59,96,96,58,58,31,30,7,7,0.8,0.5
2026-03-13T1300,3324A,116.8011,38.294,沧州市,河北水利电力学院,细颗粒物(PM2.5),195,171,85,146,62,83,83,55,55,27,30,9,8,0.8,0.5
2026-03-13T1300,2622A,97.1813,31.1289,昌都市,昌都监测站,,25,24,20,3,5,78,78,54,54,10,8,3,3,0.5,0.5
2026-03-13T1300,3719A,97.1707,31.1428,昌都市,昌都会议中心,NA,NA,14,18,7,13,76,76,61,55,NA,6,7,6,NA,0.5
2026-03-13T1300,2692A,87.2722,44.0298,昌吉回族自治州,新区政务中心,细颗粒物(PM2.5),208,NA,50,158,38,83,83,50,50,18,20,9,6,0.7,0.6
2026-03-13T1300,3613A,87.3069,44.0093,昌吉回族自治州,亚心广场,细颗粒物(PM2.5),103,117,81,63,48,85,85,71,63,16,13,7,8,0.6,0.6
2026-03-13T1300,4164A,87.2057,43.9289,昌吉回族自治州,财政所,颗粒物(PM10),80,92,52,42,18,83,83,69,69,13,11,12,6,0.7,0.7
2026-03-13T1300,1120A,125.2874,43.9024,长春市,客车厂,颗粒物(PM10),84,97,64,44,47,119,119,87,87,12,33,9,9,0.5,0.6
2026-03-13T1300,1121A,125.2943,43.8508,长春市,邮电学院,颗粒物(PM10),80,92,64,40,49,115,115,84,84,11,22,10,9,0.4,0.5
2026-03-13T1300,1122A,125.3648,43.8745,长春市,劳动公园,颗粒物(PM10),81,93,66,44,48,120,120,89,89,14,25,9,9,0.4,0.3
2026-03-13T1300,1123A,125.3233,43.8781,长春市,园林处,细颗粒物(PM2.5),74,80,65,47,52,117,117,81,81,13,24,9,10,0.6,0.6
2026-03-13T1300,1124A,125.4604,43.7904,长春市,净月潭,细颗粒物(PM2.5),54,51,60,37,50,109,109,87,87,10,13,7,8,0.4,0.5
2026-03-13T1300,1126A,125.38,43.8422,长春市,经开区环卫处,颗粒物(PM10),75,84,69,40,49,117,117,84,84,12,27,7,7,0.5,0.6
2026-03-13T1300,1127A,125.234,43.7761,长春市,高新区管委会,颗粒物(PM10),80,91,96,36,66,116,116,82,82,12,38,8,9,0.6,0.8
2026-03-13T1300,1128A,125.1695,43.83,长春市,岱山公园,颗粒物(PM10),109,141,73,65,51,120,120,83,83,17,35,8,7,0.6,0.6
2026-03-13T1300,4281A,125.334645,43.916281,长春市,北亚泰大街1068号,颗粒物(PM10),83,95,76,46,54,105,105,76,76,17,34,9,9,0.5,0.6
2026-03-13T1300,1335A,113.082,28.2421,长沙市,经开区环保局,,43,43,61,16,34,119,119,79,79,12,28,4,4,0.3,0.5
2026-03-13T1300,1336A,112.8873,28.2202,长沙市,高开区环保局,,45,45,58,25,36,118,118,65,65,22,32,6,6,0.4,0.6
2026-03-13T1300,1337A,113.0785,28.2012,长沙市,马坡岭,NA,NA,NA,69,NA,41,NA,NA,130,NA,NA,25,NA,6,NA,0.7
2026-03-13T1300,1338A,112.9448,28.1894,长沙市,湖南师范大学,,50,50,58,24,32,135,135,76,76,14,24,6,5,0.4,0.6
2026-03-13T1300,1339A,113.0177,28.1322,长沙市,雨花区环保局,,45,45,51,17,31,124,124,82,82,10,18,5,5,0.3,0.5
2026-03-13T1300,1340A,112.9795,28.2593,长沙市,伍家岭,,45,45,70,19,43,127,127,63,63,10,26,4,4,0.4,0.6
2026-03-13T1300,1341A,113.002,28.1944,长沙市,火车新站,,44,44,60,21,34,125,125,77,77,10,26,5,5,0.4,0.6
2026-03-13T1300,1342A,112.9846,28.1177,长沙市,天心区环保局,,41,39,55,19,32,131,131,94,94,15,23,7,7,0.4,0.6
2026-03-13T1300,1343A,112.8906,28.1307,长沙市,湖南中医药大学,,44,44,66,21,35,129,129,67,67,8,23,8,7,0.4,0.6
2026-03-13T1300,1727A,113.1146,36.1547,长治市,清华站,细颗粒物(PM2.5),133,NA,60,96,63,123,123,116,116,18,15,7,8,0.9,0.7
2026-03-13T1300,1730A,113.0887,36.2126,长治市,审计局,细颗粒物(PM2.5),141,NA,61,105,73,121,121,110,110,13,13,8,8,0.9,0.6
2026-03-13T1300,1731A,113.0845,36.1856,长治市,长治八中,细颗粒物(PM2.5),142,NA,79,106,74,122,122,112,112,12,12,10,10,0.9,0.6
2026-03-13T1300,2845A,113.1561,36.1912,长治市,德盛苑,细颗粒物(PM2.5),139,NA,64,102,72,131,131,121,121,16,13,7,8,0.8,0.5
2026-03-13T1300,3568A,113.0603,36.0464,长治市,向阳小学,细颗粒物(PM2.5),142,126,100,106,70,126,126,119,119,26,22,9,10,1.0,0.6
2026-03-13T1300,3569A,112.8788,36.315,长治市,屯留一中,细颗粒物(PM2.5),143,NA,72,107,67,106,106,74,62,27,26,5,6,0.8,0.7
2026-03-13T1300,4189A,113.113092,36.199482,长治市,英华南巷50号,细颗粒物(PM2.5),133,NA,65,96,67,125,125,116,116,18,16,7,8,NA,0.4
2026-03-13T1300,4190A,113.23666,36.33435,长治市,学府街1号,细颗粒物(PM2.5),122,94,68,84,66,124,124,94,94,15,28,3,3,0.7,0.8
2026-03-13T1300,1854A,111.696,28.9725,常德市,市二中,细颗粒物(PM2.5),82,73,98,51,65,114,114,59,59,11,12,14,9,0.9,1.1
2026-03-13T1300,3138A,111.7152,29.0288,常德市,武陵区永安,细颗粒物(PM2.5),100,78,98,60,77,123,123,61,60,12,16,12,7,0.7,0.8
2026-03-13T1300,3139A,111.6891,28.9881,常德市,鼎城区玉霞,细颗粒物(PM2.5),94,75,98,57,68,120,120,52,52,14,20,14,9,0.7,0.8
2026-03-13T1300,3140A,111.6651,29.0526,常德市,武陵区长庚,细颗粒物(PM2.5),101,70,90,61,75,127,127,70,70,12,15,11,8,0.8,0.9
2026-03-13T1300,1196A,119.9524,31.7586,常州市,市监测站,细颗粒物(PM2.5),60,59,98,40,66,105,105,64,64,29,32,6,7,0.7,0.9
2026-03-13T1300,1200A,119.9351,31.703,常州市,武进监测站,细颗粒物(PM2.5),68,72,94,44,65,106,106,66,66,21,27,9,9,0.4,0.8
2026-03-13T1300,3002A,119.9701,31.813,常州市,行政中心,细颗粒物(PM2.5),60,62,101,40,71,97,97,56,56,24,33,5,6,0.6,0.7
2026-03-13T1300,3003A,120.0434,31.7726,常州市,经开区,,49,49,106,33,62,110,110,56,56,24,43,12,9,0.6,0.9
2026-03-13T1300,3010A,119.8919,31.7892,常州市,钟楼,颗粒物(PM10),56,58,88,36,62,116,116,74,74,28,31,8,8,0.7,0.8
2026-03-13T1300,3429A,119.8595,31.706,常州市,武进经发区,细颗粒物(PM2.5),96,77,90,58,68,110,110,64,64,27,40,10,9,0.6,0.9
2026-03-13T1300,3430A,119.5812,31.7256,常州市,金坛城区,细颗粒物(PM2.5),94,74,95,57,72,115,115,73,73,16,22,10,9,0.6,0.6
2026-03-13T1300,4089A,119.9551,31.863,常州市,崇义南街5-H号,细颗粒物(PM2.5),56,54,82,38,61,105,105,62,62,21,23,6,8,0.4,0.6
2026-03-13T1300,2220A,120.4318,41.588,朝阳市,西梁,细颗粒物(PM2.5),96,95,68,58,48,113,113,88,88,21,20,11,11,0.9,0.7
2026-03-13T1300,2221A,120.452,41.565,朝阳市,河畔小区,细颗粒物(PM2.5),90,70,54,55,42,118,118,100,100,18,18,9,12,0.6,0.6
2026-03-13T1300,2222A,120.4176,41.5648,朝阳市,八里堡,细颗粒物(PM2.5),107,76,60,67,47,106,106,82,82,25,24,17,12,1.2,0.7
2026-03-13T1300,3026A,116.6179,23.6608,潮州市,市政府,,45,44,52,24,27,142,142,108,108,6,11,5,5,0.3,0.4
2026-03-13T1300,4036A,116.646,23.676,潮州市,金山,,42,42,48,24,24,134,134,99,99,9,13,5,4,0.4,0.4
2026-03-13T1300,2473A,113.0116,25.8228,郴州市,市职中,,40,29,42,21,29,128,128,65,65,9,19,7,7,0.6,0.7
2026-03-13T1300,2475A,113.0381,25.8074,郴州市,市审计局,,38,38,40,24,30,121,121,58,58,11,16,9,9,/,/
2026-03-13T1300,2476A,113.0348,25.7757,郴州市,市环保局,,39,34,48,23,32,122,122,50,50,11,26,9,8,0.4,0.4
2026-03-13T1300,4252A,113.0138,25.8011,郴州市,好美居路49号,,41,15,36,3,25,131,131,64,64,7,17,8,9,/,/
2026-03-13T1300,1431A,103.9727,30.7242,成都市,金泉两河,细颗粒物(PM2.5),66,48,49,43,38,67,67,60,56,15,17,2,3,0.4,0.4
2026-03-13T1300,1432A,104.1423,30.6765,成都市,十里店,细颗粒物(PM2.5),60,45,51,40,38,67,67,57,57,15,23,4,4,0.5,0.5
2026-03-13T1300,1433A,104.0594,30.5765,成都市,三瓦窑,细颗粒物(PM2.5),68,54,44,44,36,71,71,68,65,11,14,2,2,0.6,0.6
2026-03-13T1300,1434A,104.1122,30.6306,成都市,沙河铺,NA,NA,44,52,44,38,61,61,51,51,NA,31,5,5,NA,0.4
2026-03-13T1300,2880A,104.0219,30.6561,成都市,大石西路,NA,NA,NA,53,50,42,66,66,62,59,19,22,NA,5,0.4,0.5
2026-03-13T1300,3136A,104.2724,30.559,成都市,龙泉驿区区政府,细颗粒物(PM2.5),58,56,41,39,36,65,65,53,50,13,18,6,6,0.6,0.6
2026-03-13T1300,3357A,104.0028,30.6891,成都市,金博路,细颗粒物(PM2.5),66,NA,44,43,38,71,71,63,60,18,24,6,7,0.7,0.8
2026-03-13T1300,3359A,104.056,30.5228,成都市,华阳,细颗粒物(PM2.5),60,53,45,40,33,69,69,65,65,17,21,4,4,0.4,0.6
2026-03-13T1300,3488A,104.387954,30.746684,成都市,青石路225号,细颗粒物(PM2.5),58,NA,46,39,37,83,83,51,51,7,17,3,5,0.7,0.7
2026-03-13T1300,3489A,104.0788,30.4054,成都市,科学城,细颗粒物(PM2.5),58,49,49,39,34,69,69,60,60,14,20,7,8,0.7,0.7
2026-03-13T1300,4011A,103.8505,30.6946,成都市,光华大道三段,细颗粒物(PM2.5),58,45,53,39,36,69,69,60,60,18,22,3,4,0.4,0.5
2026-03-13T1300,4144A,104.3257,30.6406,成都市,八角井街185号,细颗粒物(PM2.5),68,47,52,44,37,68,68,47,46,14,20,5,4,0.5,0.6
2026-03-13T1300,4224A,104.2433276,30.53529463,成都市,鲸龙路1057号,NA,NA,NA,55,NA,34,59,59,54,52,NA,22,NA,6,0.7,0.6
2026-03-13T1300,1062A,117.9531,40.908,承德市,铁路,细颗粒物(PM2.5),103,102,101,63,66,65,65,46,34,42,34,14,4,1.0,0.8
2026-03-13T1300,1063A,117.9397,40.9763,承德市,中国银行,细颗粒物(PM2.5),106,105,95,66,62,74,74,45,44,42,27,14,5,1.4,0.8
2026-03-13T1300,4073A,117.9462,40.95,承德市,杏林街1号,细颗粒物(PM2.5),118,127,110,79,74,78,78,56,44,34,25,21,8,1.3,0.9
2026-03-13T1300,4274A,117.7994,40.9605,承德市,滨河大街98号,细颗粒物(PM2.5),113,87,80,74,69,92,92,62,58,36,25,25,11,1.7,0.8
2026-03-13T1300,2314A,117.4698,30.6617,池州市,池州学院,细颗粒物(PM2.5),76,61,65,48,52,134,134,89,89,19,30,5,6,0.5,0.7
2026-03-13T1300,3237A,117.4918,30.6617,池州市,展览馆,细颗粒物(PM2.5),68,60,68,44,52,132,132,88,88,15,24,3,4,0.6,0.8
2026-03-13T1300,3333A,117.5626,30.695,池州市,第八中学,细颗粒物(PM2.5),68,61,67,44,49,126,126,81,81,21,29,3,5,0.5,0.8
2026-03-13T1300,3334A,117.5037,30.6242,池州市,第十二中学,细颗粒物(PM2.5),70,63,66,45,45,127,127,79,79,21,33,4,4,0.5,0.7
2026-03-13T1300,1744A,118.9229,42.2816,赤峰市,松山一中,细颗粒物(PM2.5),108,90,73,68,69,80,80,105,89,29,24,7,7,0.8,0.7
2026-03-13T1300,1745A,118.9588,42.2733,赤峰市,哈达街,细颗粒物(PM2.5),102,86,71,62,55,79,79,89,81,28,23,12,11,0.7,0.8
2026-03-13T1300,1746A,118.8792,42.2551,赤峰市,天义路,细颗粒物(PM2.5),104,69,61,64,60,91,91,111,96,20,17,5,6,0.4,0.4
2026-03-13T1300,3058A,119.2656,42.0356,赤峰市,银河街,细颗粒物(PM2.5),199,251,112,149,75,69,69,81,58,35,22,16,15,1.2,0.9
2026-03-13T1300,3286A,118.9359,42.3146,赤峰市,桥北物流园区,细颗粒物(PM2.5),112,86,80,73,60,80,80,111,90,22,23,3,4,0.9,0.9
2026-03-13T1300,2521A,107.3473,22.4137,崇左市,市环保局江州分局,NA,NA,89,89,57,69,145,145,59,59,NA,26,19,10,NA,1
2026-03-13T1300,4256A,107.375,22.3736,崇左市,石景林东路7号,细颗粒物(PM2.5),82,92,72,51,56,138,138,63,63,15,26,17,9,1.2,1.2
2026-03-13T1300,3207A,118.31131,32.3033,滁州市,市政府原办公楼,,50,43,76,35,79,108,108,68,68,13,23,5,5,0.3,0.5
2026-03-13T1300,3331A,118.3268,32.2633,滁州市,图书馆,,47,47,78,20,58,102,102,62,62,16,25,8,8,0.3,0.4
2026-03-13T1300,4101A,118.3196,32.3335,滁州市,银山路666号,,39,38,69,27,64,110,110,69,69,12,21,10,8,0.6,0.6
2026-03-13T1300,4102A,118.3426,32.2979,滁州市,黄山路555号,,48,48,94,26,70,112,112,71,71,17,30,8,6,0.7,0.7
2026-03-13T1300,2606A,101.5379,25.0492,楚雄彝族自治州,市经济开发区,,42,NA,23,29,18,82,82,75,75,6,7,4,3,0.8,0.8
2026-03-13T1300,4153A,101.5536,25.0343,楚雄彝族自治州,团结路562号,,28,18,16,11,15,88,88,84,84,4,4,7,7,0.5,0.5
2026-03-13T1300,2549A,107.5087,31.2186,达州市,市环境监测站,,50,50,53,25,28,115,115,88,78,12,23,5,5,0.2,0.2
2026-03-13T1300,2550A,107.4988,31.2132,达州市,凤凰小区,NA,NA,48,53,24,30,116,116,79,79,11,28,NA,4,0.2,0.3
2026-03-13T1300,2551A,107.5081,31.1987,达州市,达县机关宾馆,,46,46,50,24,34,120,120,82,82,15,32,5,4,0.4,0.5
2026-03-13T1300,2552A,107.4644,31.2124,达州市,市政中心,,43,43,54,26,29,117,117,87,87,11,26,6,4,0.3,0.3
2026-03-13T1300,2614A,100.2168,25.5818,大理白族自治州,大理市环境监测站,,49,37,39,34,36,85,85,94,86,10,9,7,7,0.5,0.5
2026-03-13T1300,2615A,100.1542,25.7055,大理白族自治州,大理古城,,46,NA,43,32,36,96,96,84,84,7,10,8,8,0.8,0.9
2026-03-13T1300,1109A,121.6119,38.974,大连市,甘井子,,48,38,63,33,46,120,120,80,80,17,30,8,9,0.6,0.5
2026-03-13T1300,1110A,121.565,38.9509,大连市,周水子,细颗粒物(PM2.5),58,55,69,39,47,108,108,69,69,15,32,9,9,0.6,0.7
2026-03-13T1300,1111A,121.5637,38.8849,大连市,星海三站,NA,NA,54,65,NA,NA,63,63,60,56,20,20,5,5,0.6,0.7
2026-03-13T1300,1112A,121.6301,38.9117,大连市,青泥洼桥,细颗粒物(PM2.5),56,49,70,38,48,104,104,74,74,18,31,7,8,0.5,0.6
2026-03-13T1300,1113A,121.6248,38.8643,大连市,傅家庄,,49,48,64,34,43,64,64,80,67,27,26,9,10,0.3,0.5
2026-03-13T1300,1114A,121.5117,38.8636,大连市,七贤岭,细颗粒物(PM2.5),60,52,61,40,47,96,96,99,83,22,21,8,8,0.4,0.5
2026-03-13T1300,1116A,121.7507,39.1339,大连市,金州,细颗粒物(PM2.5),56,50,76,38,52,119,119,98,98,17,23,5,8,0.5,0.6
2026-03-13T1300,1117A,121.7811,39.0495,大连市,开发区,细颗粒物(PM2.5),62,64,73,41,54,101,101,56,56,20,35,10,8,0.3,0.6
2026-03-13T1300,1118A,121.9762,39.0631,大连市,双D港,NA,NA,52,73,45,52,66,66,82,76,36,24,10,7,NA,0.7
2026-03-13T1300,4082A,121.2548,38.8188,大连市,旅顺,,49,46,58,34,45,84,84,68,68,17,19,8,6,0.2,0.4
2026-03-13T1300,1789A,124.8085,46.0381,大庆市,大同区,颗粒物(PM10),117,162,100,44,54,117,117,80,80,13,20,11,14,0.7,0.8
2026-03-13T1300,1790A,125.1166,46.5255,大庆市,龙凤区,颗粒物(PM10),72,80,64,36,38,94,94,62,62,13,23,4,5,0.3,0.4
2026-03-13T1300,1791A,124.8894,46.4007,大庆市,红岗区,细颗粒物(PM2.5),120,140,69,81,48,112,112,78,78,16,16,10,8,0.7,0.6
2026-03-13T1300,1792A,125.1391,46.578,大庆市,萨尔图区,NA,NA,82,65,55,42,63,63,59,55,NA,19,4,6,NA,0.7
2026-03-13T1300,1793A,124.9026,46.6217,大庆市,让胡路区,细颗粒物(PM2.5),106,119,65,66,44,105,105,70,70,13,17,7,9,0.6,0.5
2026-03-13T1300,3481A,125.127,46.6277,大庆市,萨区政府监测点,颗粒物(PM10),64,69,63,31,37,100,100,70,70,2,8,9,10,0.7,0.7
2026-03-13T1300,1723A,113.2926,40.0759,大同市,云冈宾馆,,40,NA,102,28,66,72,72,74,57,10,27,6,8,0.6,0.9
2026-03-13T1300,1724A,113.3437,40.0921,大同市,大同大学,,49,49,106,14,70,73,73,66,48,10,31,5,8,0.5,0.8
2026-03-13T1300,1725A,113.2637,40.129,大同市,安家小村,,42,42,110,14,66,72,72,73,57,11,24,11,12,0.4,0.8
2026-03-13T1300,3282A,113.3399,40.0586,大同市,大同市卫生学校,,40,40,103,13,68,78,78,72,56,9,26,4,7,0.4,0.6
2026-03-13T1300,3565A,113.1371,40.1122,大同市,云冈站,颗粒物(PM10),52,52,104,25,70,71,71,53,51,6,25,6,8,0.7,0.7
2026-03-13T1300,3566A,113.1186,40.2556,大同市,图书馆,NA,NA,6,102,3,61,70,70,62,54,NA,22,8,9,NA,0.9
2026-03-13T1300,3567A,113.5931,40.0459,大同市,区一中,细颗粒物(PM2.5),130,101,102,93,68,66,66,76,59,32,23,18,13,0.4,0.3
2026-03-13T1300,4199A,113.2798248,40.09972476,大同市,魏都大道141号,颗粒物(PM10),58,60,112,10,70,71,71,76,51,10,26,8,10,0.6,0.8
2026-03-13T1300,2269A,124.1068,50.4091,大兴安岭地区,科技局,细颗粒物(PM2.5),68,73,55,44,32,80,80,72,71,11,8,6,6,0.4,0.4
2026-03-13T1300,3663A,124.117,50.4279,大兴安岭地区,红旗社区,细颗粒物(PM2.5),74,58,42,47,30,92,92,84,83,12,10,10,11,0.5,0.4
2026-03-13T1300,1600A,124.33,40.0625,丹东市,江湾东路,,39,39,76,19,48,104,104,62,62,8,30,9,16,0.4,1.3
2026-03-13T1300,1601A,124.4242,40.1513,丹东市,临江后街,,37,37,55,20,39,103,103,60,60,10,28,11,12,0.4,0.7
2026-03-13T1300,1602A,124.3935,40.1461,丹东市,元宝山,NA,NA,NA,43,NA,30,NA,NA,94,NA,NA,20,NA,11,NA,0.8
2026-03-13T1300,1603A,124.3634,40.1093,丹东市,民主桥,,34,34,68,18,42,100,100,55,55,9,36,6,10,0.3,0.8
2026-03-13T1300,3541A,109.5726195,19.51688767,儋州市,第一中学子站,,42,42,28,13,13,100,100,97,94,5,6,6,6,0.4,0.5
2026-03-13T1300,3542A,109.5567,19.5187,儋州市,东坡学校子站,NA,NA,37,33,16,16,104,104,98,97,NA,6,4,4,0.4,0.7
2026-03-13T1300,2616A,98.5611,24.4273,德宏傣族景颇族自治州,德宏州监测站,细颗粒物(PM2.5),105,68,62,65,61,38,38,34,24,25,24,9,9,1.0,0.9
2026-03-13T1300,3677A,98.5887,24.4366,德宏傣族景颇族自治州,芒市人民政府综合楼,细颗粒物(PM2.5),101,94,92,61,55,36,36,41,26,26,20,6,6,1.0,0.8
2026-03-13T1300,1901A,104.424,31.1209,德阳市,东山公园,细颗粒物(PM2.5),60,NA,34,40,31,73,73,64,64,7,10,2,3,0.5,0.6
2026-03-13T1300,1902A,104.3827,31.1318,德阳市,西小区,细颗粒物(PM2.5),64,55,50,42,31,74,74,66,66,10,14,3,4,0.6,0.6
2026-03-13T1300,1904A,104.3553,31.1091,德阳市,耐火材料厂,细颗粒物(PM2.5),66,49,44,43,34,72,72,65,65,16,17,1,2,0.5,0.5
2026-03-13T1300,4145A,104.4144,31.1495,德阳市,市林业局,细颗粒物(PM2.5),62,42,38,41,29,76,76,66,66,7,11,5,5,0.5,0.5
2026-03-13T1300,1622A,116.3034,37.4675,德州市,儿童乐园,细颗粒物(PM2.5),178,173,114,134,74,122,122,72,72,18,27,12,15,0.8,0.7
2026-03-13T1300,1624A,116.2992,37.4449,德州市,监理站,细颗粒物(PM2.5),169,166,114,128,75,128,128,75,75,23,33,7,10,0.8,0.7
2026-03-13T1300,3066A,116.2722,37.438,德州市,九衢泉纯净水厂,细颗粒物(PM2.5),169,153,105,128,70,124,124,65,65,26,40,5,11,0.8,0.7
2026-03-13T1300,3371A,116.3693,37.44,德州市,开发区人民医院,细颗粒物(PM2.5),178,166,114,134,73,114,114,60,60,18,34,9,12,0.8,0.7
2026-03-13T1300,3511A,116.5687,37.3331,德州市,陵城艺术中心,细颗粒物(PM2.5),186,151,107,140,76,113,113,64,64,22,30,7,9,1.0,0.8
2026-03-13T1300,4292A,116.352738,37.420875,德州市,新河东路,细颗粒物(PM2.5),169,163,113,128,70,114,114,56,56,19,38,11,12,0.7,0.8
2026-03-13T1300,2621A,99.7054,27.8319,迪庆藏族自治州,迪庆州站,,32,28,29,13,18,102,102,98,98,7,8,6,6,0.7,0.7
2026-03-13T1300,3180A,99.7122,27.8129,迪庆藏族自治州,质量技术监督局,,30,29,25,16,16,94,94,96,95,8,7,6,5,0.7,0.6
2026-03-13T1300,4257A,104.6092,35.5962,定西市,将台街,颗粒物(PM10),427,527,404,118,120,83,83,80,78,5,7,7,8,0.3,0.4
2026-03-13T1300,4309A,104.6159,35.5701,定西市,正龙路62号,颗粒物(PM10),458,558,410,108,105,77,77,80,76,8,6,2,3,0.3,0.4
2026-03-13T1300,4071A,114.9883,38.5232,定州市,交通局,细颗粒物(PM2.5),189,197,131,142,89,50,50,48,22,50,51,13,11,1.1,0.8
2026-03-13T1300,4072A,115.0045,38.5136,定州市,第五中学,细颗粒物(PM2.5),178,201,146,134,94,53,53,28,24,45,61,10,9,0.9,0.7
2026-03-13T1300,1390A,113.7943,23.0132,东莞市,东城石井,臭氧1小时(O3_1h),75,52,38,30,22,180,180,110,110,18,25,8,7,0.5,0.5
2026-03-13T1300,1391A,113.7384,22.9659,东莞市,南城西平,臭氧1小时(O3_1h),57,49,42,26,23,165,165,94,94,16,30,10,9,0.6,0.6
2026-03-13T1300,3319A,113.7283,23.041,东莞市,万江金泰,,47,47,42,28,23,148,148,104,104,13,20,8,7,0.5,0.6
2026-03-13T1300,4129A,113.8666,23.1062,东莞市,裕兴路,颗粒物(PM10),54,55,55,28,25,149,149,99,99,16,31,10,9,0.5,0.6
2026-03-13T1300,4130A,114.0076,22.9739,东莞市,教育路1号,,49,49,51,25,23,155,155,91,91,15,32,7,7,0.4,0.4
2026-03-13T1300,4131A,113.7981,22.8124,东莞市,长怡路1号,颗粒物(PM10),59,62,52,30,23,166,166,102,102,19,28,6,5,0.7,0.6
2026-03-13T1300,1666A,118.6612,37.4313,东营市,市环保局,NA,NA,NA,37,NA,18,NA,NA,100,NA,NA,17,NA,17,NA,0.6
2026-03-13T1300,3036A,118.6903,37.4337,东营市,开发区管委会,NA,NA,NA,35,NA,14,NA,NA,107,NA,NA,25,NA,12,NA,0.6
2026-03-13T1300,3365A,118.5721,37.5654,东营市,垦利区民丰路,NA,NA,NA,33,NA,14,NA,NA,110,NA,NA,21,NA,12,NA,0.8
2026-03-13T1300,3498A,118.5063,37.8606,东营市,河口城区,NA,NA,NA,44,NA,19,NA,NA,104,NA,NA,19,NA,7,NA,0.6
2026-03-13T1300,3646A,118.4979,37.4623,东营市,胜利站,细颗粒物(PM2.5),145,148,47,109,25,128,128,66,66,27,31,12,13,1.0,0.7
2026-03-13T1300,3734A,118.5753,37.4405,东营市,理想之城,细颗粒物(PM2.5),150,136,55,115,26,155,155,77,77,26,35,12,10,1.0,0.8
2026-03-13T1300,1591A,110.0024,39.8127,鄂尔多斯市,综合楼,颗粒物(PM10),98,117,319,23,150,85,85,71,66,9,15,7,6,0.3,0.4
2026-03-13T1300,1592A,109.9485,39.8259,鄂尔多斯市,巴音孟克林场办事处,颗粒物(PM10),86,100,337,13,144,88,88,74,68,6,11,4,5,0.2,0.4
2026-03-13T1300,1593A,109.7734,39.5987,鄂尔多斯市,康泽苑,颗粒物(PM10),129,193,281,38,159,91,91,78,77,8,11,8,8,0.3,0.4
2026-03-13T1300,1594A,109.8121,39.5987,鄂尔多斯市,华泰汽车城,颗粒物(PM10),122,175,279,31,148,93,93,79,77,7,10,6,7,0.3,0.4
2026-03-13T1300,1595A,109.9734,39.7884,鄂尔多斯市,奥林花园,颗粒物(PM10),102,124,416,25,110,85,85,68,66,10,14,8,7,0.4,0.5
2026-03-13T1300,2436A,114.894,30.3989,鄂州市,市政府,,49,47,47,34,38,131,131,98,98,18,21,9,9,0.4,0.5
2026-03-13T1300,2437A,114.8986,30.3714,鄂州市,赵家坝,,49,49,50,32,36,145,145,108,108,9,14,8,10,0.4,0.5
2026-03-13T1300,3654A,114.8093,30.4091,鄂州市,精准医疗中心,颗粒物(PM10),54,55,52,32,37,137,137,109,109,12,17,13,12,0.7,0.8
2026-03-13T1300,2454A,109.4978,30.2979,恩施土家族苗族自治州,湖北民院,,50,47,54,35,44,129,129,71,71,9,13,7,6,0.4,0.5
2026-03-13T1300,3549A,109.5061,30.3771,恩施土家族苗族自治州,龙凤新区,,45,45,55,21,41,120,120,64,64,7,9,7,7,0.4,0.4
2026-03-13T1300,2499A,108.3411,21.6159,防城港市,沙万,颗粒物(PM10),58,60,57,27,37,136,136,84,84,12,24,6,9,0.6,1
2026-03-13T1300,2500A,108.3515,21.7733,防城港市,防城档案局,颗粒物(PM10),55,57,65,33,40,142,142,63,63,11,18,8,7,0.6,0.8
2026-03-13T1300,2501A,108.3506,21.6414,防城港市,大海花园,颗粒物(PM10),58,60,49,33,42,154,154,77,77,14,20,8,13,0.4,0.7
2026-03-13T1300,1371A,113.1293,23.0065,佛山市,湾梁,细颗粒物(PM2.5),76,68,47,48,30,154,154,86,86,27,30,/,/,/,/
2026-03-13T1300,1372A,113.1082,23.0477,佛山市,华材职中,细颗粒物(PM2.5),84,75,54,52,34,142,142,68,68,33,36,7,6,0.4,0.4
2026-03-13T1300,1373A,113.1439,23.045,佛山市,南海气象局,细颗粒物(PM2.5),76,76,46,48,28,141,141,70,70,35,35,/,/,/,/
2026-03-13T1300,1374A,113.2879,22.8094,佛山市,顺德苏岗,臭氧1小时(O3_1h),83,52,48,41,25,186,186,114,114,19,21,/,/,0.6,0.7
2026-03-13T1300,1376A,112.8384,22.8678,佛山市,高明孔堂,细颗粒物(PM2.5),80,63,43,50,28,132,132,81,77,28,20,/,/,/,/
2026-03-13T1300,1377A,112.8835,23.1584,佛山市,三水监测站,NA,NA,48,44,30,26,133,133,92,92,16,29,4,5,NA,0.5
2026-03-13T1300,1378A,112.8668,23.185,佛山市,三水云东海,,49,40,46,28,23,154,154,93,93,13,22,/,/,/,/
2026-03-13T1300,3625A,113.2568,22.7629,佛山市,容桂街道办,细颗粒物(PM2.5),58,58,46,39,24,146,146,95,95,27,28,/,/,/,/
2026-03-13T1300,1282A,119.2681,26.0506,福州市,师大,,46,46,41,30,20,133,133,100,100,17,15,6,4,0.4,0.2
2026-03-13T1300,1283A,119.2983,26.1028,福州市,五四北路,,47,47,39,32,21,129,129,100,100,18,16,6,5,0.5,0.3
2026-03-13T1300,1284A,119.2648,26.0769,福州市,杨桥西路,,46,44,38,32,20,134,134,103,103,15,14,6,5,/,/
2026-03-13T1300,3048A,119.5799,26.0937,福州市,九龙,细颗粒物(PM2.5),74,NA,38,47,24,140,140,108,108,14,14,6,5,0.4,0.4
2026-03-13T1300,3526A,119.5188,25.9666,福州市,吴航,,46,44,40,32,23,137,137,107,107,14,15,8,10,0.4,0.4
2026-03-13T1300,4104A,119.3106,26.0648,福州市,路通桥巷6号,颗粒物(PM10),69,76,39,29,23,127,127,101,100,16,11,/,/,/,/
2026-03-13T1300,1755A,123.7974,41.8494,抚顺市,望花区,颗粒物(PM10),88,102,94,35,51,110,110,67,67,20,36,10,9,0.8,0.9
2026-03-13T1300,1756A,123.9161,41.8827,抚顺市,顺城区,NA,NA,64,72,27,55,111,111,69,69,NA,43,NA,10,0.7,0.8
2026-03-13T1300,1757A,124.0437,41.8615,抚顺市,东洲区,颗粒物(PM10),68,75,57,27,37,109,109,76,76,11,19,10,9,0.6,0.6
2026-03-13T1300,1758A,123.9246,41.8638,抚顺市,新抚区,颗粒物(PM10),79,90,73,28,44,120,120,71,71,13,38,10,9,0.6,0.7
2026-03-13T1300,1759A,124.0972,41.8961,抚顺市,大伙房水库,,43,43,46,26,35,116,116,86,86,6,16,12,11,0.5,0.6
2026-03-13T1300,1760A,123.708,41.8386,抚顺市,沈抚新城,颗粒物(PM10),92,108,108,34,64,112,112,60,60,14,46,10,12,0.6,1.2
2026-03-13T1300,2377A,116.3544,27.9833,抚州市,市站,,42,37,47,19,31,133,133,101,101,8,12,7,13,0.6,0.8
2026-03-13T1300,2378A,116.3562,27.9631,抚州市,血防站,,42,38,46,18,28,132,132,103,103,2,5,2,6,0.8,0.9
2026-03-13T1300,2379A,116.3561,28.0007,抚州市,采茶剧团,NA,NA,NA,48,NA,31,134,134,94,94,8,10,8,14,NA,0.9
2026-03-13T1300,2380A,116.3854,27.9648,抚州市,医学分院,,40,40,54,15,26,128,128,100,100,6,10,6,11,0.8,0.9
2026-03-13T1300,2207A,121.6095,41.9978,阜新市,工业园区,颗粒物(PM10),133,204,112,43,56,99,99,65,65,19,37,12,21,0.6,0.7
2026-03-13T1300,2208A,121.6567,42.0188,阜新市,长青街,颗粒物(PM10),109,142,86,49,54,100,100,71,71,21,30,13,16,0.7,0.7
2026-03-13T1300,2209A,121.6672,42.07,阜新市,农业园区,颗粒物(PM10),127,189,90,48,48,93,93,71,71,19,21,10,18,0.6,0.5
2026-03-13T1300,2211A,121.6343,42.0455,阜新市,玉龙新城,颗粒物(PM10),128,191,103,48,53,98,98,58,58,20,40,12,15,0.6,0.8
2026-03-13T1300,2301A,115.8276,32.8929,阜阳市,市监测站,细颗粒物(PM2.5),101,76,106,61,85,129,129,85,85,12,22,6,6,0.4,0.5
2026-03-13T1300,2303A,115.8551,32.8606,阜阳市,开发区,细颗粒物(PM2.5),92,93,123,56,81,126,126,87,87,12,22,6,5,0.5,0.6
2026-03-13T1300,2875A,115.783962,32.889217,阜阳市,阜阳职业技术学院,细颗粒物(PM2.5),86,57,89,53,65,134,134,99,99,12,19,8,7,0.5,0.6
2026-03-13T1300,3468A,115.79,32.8614,阜阳市,市规划展馆,细颗粒物(PM2.5),94,101,109,57,83,138,138,95,95,10,17,7,8,0.4,0.5
2026-03-13T1300,3469A,115.835101,32.918568,阜阳市,枣园社区,细颗粒物(PM2.5),104,81,108,64,83,130,130,86,86,11,19,8,8,0.5,0.6
2026-03-13T1300,2669A,102.9097,34.9841,甘南藏族自治州,州政府,,33,33,102,11,42,47,47,52,48,6,4,4,4,0.4,0.4
2026-03-13T1300,3380A,102.8915,34.9618,甘南藏族自治州,甘肃民族师范学院,,26,25,110,18,34,69,69,70,64,12,13,3,3,0.4,0.4
2026-03-13T1300,2570A,101.96,30.048,甘孜藏族自治州,水桥子,,21,6,15,3,7,67,67,33,31,5,12,3,3,0.7,0.7
2026-03-13T1300,3065A,101.9534,29.9976,甘孜藏族自治州,州环保局,,21,6,11,3,8,67,67,49,46,10,14,6,6,0.6,0.6
2026-03-13T1300,2363A,114.9368,25.8663,赣州市,地委,,42,35,41,18,25,134,134,82,82,11,17,6,6,0.6,0.7
2026-03-13T1300,2364A,114.946,25.8483,赣州市,气象台,,44,32,47,16,27,140,140,85,85,12,23,8,8,0.3,0.3
2026-03-13T1300,2365A,114.932,25.8332,赣州市,市图书馆,,40,32,42,13,26,127,127,78,78,8,18,3,4,0.3,0.4
2026-03-13T1300,2366A,114.8905,25.8472,赣州市,华坚鞋城,,42,33,44,17,24,132,132,88,88,12,16,8,8,0.3,0.3
2026-03-13T1300,3109A,115.0094,25.8614,赣州市,赣县区卫计委,NA,NA,18,37,18,22,118,118,60,60,13,22,NA,5,1.1,0.8
2026-03-13T1300,2684A,106.2753,36.0057,固原市,监测站,颗粒物(PM10),500,874,741,156,174,64,64,70,68,10,11,8,8,0.3,0.4
2026-03-13T1300,2685A,106.2384,36.0189,固原市,新区,颗粒物(PM10),500,774,795,155,193,61,61,69,67,11,10,7,8,0.3,0.4
2026-03-13T1300,2544A,106.6307,30.4577,广安市,市委,细颗粒物(PM2.5),54,50,52,37,37,102,102,82,82,17,18,7,7,0.6,0.6
2026-03-13T1300,2545A,106.6266,30.4662,广安市,友谊中学,,49,49,47,33,31,85,85,78,77,26,18,7,7,0.7,0.6
2026-03-13T1300,2547A,106.6386,30.4551,广安市,广电花园,颗粒物(PM10),76,86,64,36,39,95,95,67,67,17,22,9,8,0.6,0.7
2026-03-13T1300,2902A,106.6347,30.4868,广安市,北辰小学,"颗粒物(PM10),细颗粒物(PM2.5)",66,72,52,43,36,78,78,84,80,27,14,5,5,0.7,0.6
2026-03-13T1300,2524A,105.8211,32.4444,广元市,老城,细颗粒物(PM2.5),86,58,74,53,53,48,48,56,41,31,40,5,8,0.7,0.8
2026-03-13T1300,2526A,105.8629,32.429,广元市,监测站,NA,NA,55,70,54,54,65,65,61,56,22,39,2,5,NA,1
2026-03-13T1300,3617A,105.8047,32.4167,广元市,经开区,细颗粒物(PM2.5),62,47,68,41,52,41,41,49,43,37,42,3,10,0.7,1
2026-03-13T1300,1345A,113.2346,23.1423,广州市,广雅中学,颗粒物(PM10),58,61,49,35,29,156,156,94,94,18,35,5,4,0.5,0.4
2026-03-13T1300,1346A,113.2611,23.105,广州市,市五中,臭氧1小时(O3_1h),72,65,45,44,31,177,177,88,88,30,38,9,8,/,/
2026-03-13T1300,1348A,113.3477,23.0916,广州市,广东商学院,臭氧1小时(O3_1h),69,75,36,39,22,175,175,70,70,26,44,9,7,0.7,0.7
2026-03-13T1300,1349A,113.4332,23.105,广州市,市八十六中,臭氧1小时(O3_1h),88,56,35,44,20,190,190,69,69,30,59,9,7,/,/
2026-03-13T1300,1350A,113.3506,22.9488,广州市,番禺中学,臭氧1小时(O3_1h),68,66,39,42,27,174,174,94,94,21,29,6,4,0.5,0.5
2026-03-13T1300,1351A,113.2147,23.3918,广州市,花都师范,颗粒物(PM10),55,56,38,34,20,146,146,114,114,16,16,8,8,0.5,0.5
2026-03-13T1300,1352A,113.2599,23.1329,广州市,市监测站,"颗粒物(PM10),细颗粒物(PM2.5)",70,77,50,45,29,155,155,84,84,27,39,3,2,/,/
2026-03-13T1300,1353A,113.5618,23.3119,广州市,九龙镇镇龙,,41,38,35,22,21,131,131,68,68,9,27,8,5,0.4,0.4
2026-03-13T1300,1354A,113.2764,23.1544,广州市,麓湖,颗粒物(PM10),55,57,42,35,28,160,160,75,75,14,39,5,4,0.3,0.3
2026-03-13T1300,2846A,113.3209,23.1323,广州市,体育西,细颗粒物(PM2.5),68,70,53,44,31,159,159,78,78,31,47,8,7,0.7,0.7
2026-03-13T1300,3298A,113.5718,23.5493,广州市,从化街口,,43,42,30,29,19,135,135,93,93,8,14,6,6,0.5,0.5
2026-03-13T1300,3299A,113.3463,23.369,广州市,白云竹料,NA,NA,NA,71,NA,42,NA,NA,NA,NA,NA,22,NA,5,NA,0.6
2026-03-13T1300,3300A,113.2981,23.2365,广州市,白云嘉禾,,47,40,42,24,24,149,149,98,98,14,42,7,6,/,/
2026-03-13T1300,3301A,113.4256,23.1716,广州市,黄埔科学城,臭氧1小时(O3_1h),58,48,41,36,29,166,166,89,89,14,35,10,8,0.5,0.5
2026-03-13T1300,3302A,113.3942,23.0485,广州市,番禺大学城,NA,NA,54,54,33,28,196,196,99,99,31,34,NA,8,0.5,0.4
2026-03-13T1300,3303A,113.4923,22.8169,广州市,南沙黄阁,臭氧1小时(O3_1h),87,68,48,49,23,189,189,111,111,30,28,8,7,/,/
2026-03-13T1300,3304A,113.534,22.7893,广州市,南沙街,臭氧1小时(O3_1h),72,61,46,37,20,177,177,117,117,20,20,10,8,0.5,0.5
2026-03-13T1300,3443A,113.2905,23.5541,广州市,花都梯面,NA,NA,36,29,22,20,112,112,113,113,NA,12,7,7,/,/
2026-03-13T1300,3445A,113.786,23.7479,广州市,从化良口,NA,NA,29,25,22,17,124,124,81,81,NA,9,5,4,/,/
2026-03-13T1300,3446A,113.805,23.2614,广州市,增城荔城,颗粒物(PM10),51,51,38,35,22,157,157,89,89,16,24,10,8,0.5,0.5
2026-03-13T1300,2506A,109.604387,23.066791,贵港市,江南子站,颗粒物(PM10),51,51,69,31,37,137,137,57,57,10,31,10,9,0.5,0.7
2026-03-13T1300,2508A,109.5669,23.1065,贵港市,荷城子站,,48,48,56,25,30,142,142,70,70,14,33,11,9,0.6,0.7
2026-03-13T1300,3405A,109.5886,23.1172,贵港市,新世纪学校,颗粒物(PM10),51,51,50,34,30,147,147,71,71,14,28,/,/,0.5,0.5
2026-03-13T1300,4260A,109.5933,23.095,贵港市,中山路155-3号,细颗粒物(PM2.5),64,55,57,42,39,145,145,65,65,10,28,/,/,0.5,0.6
2026-03-13T1300,1439A,106.6863,26.6035,贵阳市,马鞍山,,34,34,22,19,13,104,104,53,53,7,11,5,4,/,/
2026-03-13T1300,1441A,106.6241,26.6266,贵阳市,鉴湖路,,39,39,34,15,12,105,105,79,79,7,12,4,6,0.3,0.3
2026-03-13T1300,1442A,106.7468,26.6344,贵阳市,燕子冲,,39,39,29,9,14,105,105,63,63,9,13,6,5,0.4,0.3
2026-03-13T1300,1443A,106.6556,26.4362,贵阳市,碧云窝,,36,31,30,18,14,115,115,67,67,4,10,4,6,/,/
2026-03-13T1300,1445A,106.6963,26.6063,贵阳市,红边门,,46,46,32,22,15,110,110,69,69,10,17,5,6,/,/
2026-03-13T1300,1446A,106.7162383,26.56964667,贵阳市,新华路,,46,46,37,19,14,108,108,74,74,10,18,16,9,0.4,0.2
2026-03-13T1300,1447A,106.6742,26.542,贵阳市,太慈桥,,35,34,27,3,14,110,110,60,60,8,16,3,3,/,/
2026-03-13T1300,4230A,106.688212,26.56952,贵阳市,花果园大街66号,,34,34,24,14,14,106,106,68,68,8,16,3,4,/,/
2026-03-13T1300,4231A,106.687268,26.516892,贵阳市,漓江路57号,NA,NA,31,22,15,14,110,110,58,58,NA,20,NA,10,0.5,0.5
2026-03-13T1300,1864A,110.3091,25.2705,桂林市,龙隐路小学,细颗粒物(PM2.5),64,52,44,42,32,137,137,112,112,13,10,6,5,0.9,0.8
2026-03-13T1300,1865A,110.2849361,25.22909545,桂林市,八中,颗粒物(PM10),63,68,48,19,23,121,121,94,94,13,15,5,5,0.8,0.8
2026-03-13T1300,3531A,110.296,25.1254,桂林市,旅游学院,细颗粒物(PM2.5),52,44,48,36,35,130,130,104,104,9,11,8,6,0.6,0.6
2026-03-13T1300,4222A,110.1835,25.2444,桂林市,环湖路276号,,48,48,48,30,24,132,132,115,115,9,9,5,6,0.7,0.6
2026-03-13T1300,4301A,110.2803,25.2773,桂林市,信义路13号,颗粒物(PM10),60,63,46,39,36,132,132,107,107,11,13,6,6,0.8,0.7
2026-03-13T1300,2674A,100.2262,34.4854,果洛藏族自治州,玛沁县大武镇,,28,19,306,3,102,87,87,55,55,2,2,22,19,0.4,0.3
2026-03-13T1300,1130A,126.5557,45.8109,哈尔滨市,松北商大,颗粒物(PM10),65,71,50,33,35,103,103,87,87,9,24,9,11,0.5,0.6
2026-03-13T1300,1132A,126.6162,45.719,哈尔滨市,南岗学府路,颗粒物(PM10),65,70,50,35,27,105,105,78,78,12,24,9,11,0.3,0.3
2026-03-13T1300,1133A,126.6894,45.7733,哈尔滨市,太平宏伟公园,颗粒物(PM10),62,66,57,15,33,93,93,74,74,10,29,7,10,0.3,0.5
2026-03-13T1300,1134A,126.6361,45.7672,哈尔滨市,道外承德广场,颗粒物(PM10),69,76,58,19,28,91,91,79,79,14,25,8,11,0.3,0.5
2026-03-13T1300,1136A,126.644,45.7261,哈尔滨市,动力和平路,颗粒物(PM10),59,62,53,23,29,94,94,80,80,11,23,10,11,0.7,0.8
2026-03-13T1300,1137A,126.5933,45.7479,哈尔滨市,道里建国路,颗粒物(PM10),68,75,46,31,26,97,97,79,79,21,32,12,12,0.3,0.5
2026-03-13T1300,1138A,126.6127,45.6119,哈尔滨市,平房东轻厂,细颗粒物(PM2.5),98,72,42,59,30,61,61,57,54,37,50,9,8,0.6,0.6
2026-03-13T1300,1139A,126.5875,45.9827,哈尔滨市,呼兰师专,NA,NA,46,52,13,28,83,83,64,64,NA,23,9,10,0.2,0.2
2026-03-13T1300,1140A,126.6299,45.6799,哈尔滨市,省农科院,颗粒物(PM10),108,139,101,48,39,80,80,56,56,20,36,11,14,0.7,0.8
2026-03-13T1300,4282A,126.6769,45.7379,哈尔滨市,华山路1号,颗粒物(PM10),63,68,57,14,34,101,101,84,84,13,21,1,4,0.5,0.7
2026-03-13T1300,4283A,126.9717,45.5356,哈尔滨市,解放大街52号,NA,NA,25,38,12,21,99,99,87,87,NA,15,NA,7,0.6,0.7
2026-03-13T1300,2688A,93.5124,42.8176,哈密市,地区监测站,,37,37,32,8,9,68,68,64,57,9,7,6,4,0.6,0.4
2026-03-13T1300,2689A,93.5014,42.8312,哈密市,哈密师范学校,,43,43,34,7,9,77,77,70,65,10,9,9,6,0.4,0.3
2026-03-13T1300,2671A,100.9016,36.9464,海北藏族自治州,海晏县西海镇,细颗粒物(PM2.5),76,82,218,48,71,78,78,82,82,2,4,8,10,0.5,0.5
2026-03-13T1300,3867A,102.074,36.5056,海东市,平安区公安局北苑,颗粒物(PM10),182,314,501,105,141,73,73,82,75,5,5,6,11,0.6,0.5
2026-03-13T1300,4163A,102.0984,36.5119,海东市,滨河路,颗粒物(PM10),212,358,534,102,141,51,51,65,57,20,17,5,9,0.6,0.5
2026-03-13T1300,1410A,110.3189,20.0596,海口市,海南大学,,48,48,34,22,19,132,132,122,122,5,7,5,6,0.4,0.4
2026-03-13T1300,1411A,110.2827,20.0051,海口市,秀英海南医院,,46,46,34,22,19,120,120,110,110,6,9,8,8,0.4,0.2
2026-03-13T1300,1412A,110.3391,19.9979,海口市,海南师范大学,颗粒物(PM10),53,53,38,23,21,130,130,117,117,7,10,6,6,0.4,0.3
2026-03-13T1300,1413A,110.3303,20.0359,海口市,龙华路环保局宿舍,颗粒物(PM10),52,52,37,24,21,134,134,122,122,7,10,/,/,0.3,0.4
2026-03-13T1300,3539A,110.5111,19.9737,海口市,桂林洋子站,,49,49,33,22,19,132,132,115,115,6,8,/,/,/,/
2026-03-13T1300,4134A,110.1952,20.0451,海口市,长滨二路9号,,47,47,33,24,21,130,130,118,118,6,8,/,/,/,/
2026-03-13T1300,2673A,100.6158,36.2985,海南藏族自治州,共和县恰卜恰镇,细颗粒物(PM2.5),119,135,224,80,85,80,80,82,77,6,6,12,12,0.3,0.3
2026-03-13T1300,2676A,97.373,37.376,海西蒙古族藏族自治州,德令哈市,颗粒物(PM10),167,284,991,75,265,106,106,92,92,3,3,13,14,0.4,0.4
2026-03-13T1300,1049A,114.492,36.5712,邯郸市,矿院,细颗粒物(PM2.5),115,101,139,76,106,128,128,60,60,17,40,3,3,0.5,0.7
2026-03-13T1300,1050A,114.4839,36.6136,邯郸市,丛台公园,细颗粒物(PM2.5),134,121,149,97,126,126,126,77,77,13,26,4,2,0.6,0.7
2026-03-13T1300,3458A,114.7893,36.5592,邯郸市,香泉濮院小区,细颗粒物(PM2.5),100,95,145,60,110,130,130,80,80,9,20,3,3,0.5,0.8
2026-03-13T1300,3580A,114.1998,36.4439,邯郸市,峰峰矿区临水派出所,细颗粒物(PM2.5),130,NA,89,93,74,131,131,116,116,9,7,6,3,0.7,0.6
2026-03-13T1300,4068A,114.5209,36.7697,邯郸市,建安街268号,细颗粒物(PM2.5),142,123,143,106,131,123,123,75,75,17,37,4,2,0.5,0.6
2026-03-13T1300,4069A,114.5488,36.6177,邯郸市,丛台东路558号,细颗粒物(PM2.5),129,110,138,91,137,119,119,60,60,13,36,2,2,0.5,0.7
2026-03-13T1300,2635A,107.0155,33.0707,汉中市,市监测站,细颗粒物(PM2.5),140,106,86,104,87,92,92,95,92,15,13,6,7,0.8,0.7
2026-03-13T1300,2636A,107.0083,33.114,汉中市,鑫源开发区,细颗粒物(PM2.5),139,NA,83,102,89,96,96,108,101,16,13,4,4,0.6,0.8
2026-03-13T1300,2637A,107.0072,33.0323,汉中市,南郑大河坎水厂,细颗粒物(PM2.5),142,121,101,106,82,90,90,90,90,17,18,4,4,0.9,0.7
2026-03-13T1300,1223A,120.2073,30.2111,杭州市,滨江,细颗粒物(PM2.5),76,66,67,48,45,109,109,60,60,21,30,9,8,0.6,0.7
2026-03-13T1300,1224A,120.0625,30.2737,杭州市,西溪,颗粒物(PM10),65,70,60,41,40,105,105,50,50,17,32,10,9,0.5,0.6
2026-03-13T1300,1226A,120.3417,30.315,杭州市,下沙,细颗粒物(PM2.5),78,61,73,49,48,117,117,62,62,11,38,9,8,0.5,0.6
2026-03-13T1300,1227A,120.1252,30.2465,杭州市,卧龙桥,细颗粒物(PM2.5),60,56,57,40,40,116,116,58,58,18,24,8,7,0.3,0.4
2026-03-13T1300,1228A,120.1902,30.2691,杭州市,浙江农大,细颗粒物(PM2.5),62,56,72,41,44,128,128,71,71,19,36,8,7,0.5,0.6
2026-03-13T1300,1230A,120.1195,30.3121,杭州市,和睦小学,细颗粒物(PM2.5),68,65,70,44,46,112,112,69,69,20,28,7,7,0.6,0.7
2026-03-13T1300,1231A,120.3076,30.4146,杭州市,临平镇,细颗粒物(PM2.5),80,64,66,50,48,125,125,76,76,15,29,8,8,0.5,0.7
2026-03-13T1300,1232A,120.2753,30.1839,杭州市,城厢镇,细颗粒物(PM2.5),84,77,69,52,46,110,110,62,62,21,25,10,9,0.7,0.8
2026-03-13T1300,1233A,120.0883,30.1808,杭州市,云栖,细颗粒物(PM2.5),74,65,56,47,37,110,110,54,54,25,32,5,4,0.7,0.7
2026-03-13T1300,3557A,119.9463,30.0496,杭州市,镇二中,NA,NA,NA,43,37,40,99,99,25,NA,NA,35,5,5,NA,0.7
2026-03-13T1300,3558A,119.7184,30.2367,杭州市,市府大楼,,50,38,46,35,39,98,98,61,61,16,19,7,7,0.4,0.5
2026-03-13T1300,3656A,120.1554,30.2863,杭州市,消防大队,细颗粒物(PM2.5),80,64,64,50,50,111,111,67,67,18,25,8,8,0.6,0.7
2026-03-13T1300,1270A,117.1957,31.7845,合肥市,明珠广场,细颗粒物(PM2.5),94,66,82,57,66,130,130,78,78,8,24,7,7,0.7,0.8
2026-03-13T1300,1271A,117.307,31.8765,合肥市,三里街,NA,NA,70,81,56,62,110,110,65,65,21,36,7,7,NA,0.7
2026-03-13T1300,1272A,117.2587,31.8703,合肥市,琥珀山庄,细颗粒物(PM2.5),105,78,80,65,63,130,130,82,82,26,34,8,8,0.6,0.6
2026-03-13T1300,1275A,117.2593,31.9376,合肥市,庐阳区,细颗粒物(PM2.5),66,53,88,43,62,116,116,67,67,13,30,4,4,0.6,0.7
2026-03-13T1300,1276A,117.345251,31.861615,合肥市,瑶海区,细颗粒物(PM2.5),66,63,88,43,57,120,120,75,75,12,37,5,5,0.6,0.7
2026-03-13T1300,1277A,117.3033,31.7967,合肥市,包河区,细颗粒物(PM2.5),100,80,86,60,58,128,128,71,71,23,63,10,10,0.9,0.9
2026-03-13T1300,1278A,117.278,31.7392,合肥市,滨湖新区,细颗粒物(PM2.5),105,75,84,65,59,131,131,84,84,8,16,3,3,0.6,0.7
2026-03-13T1300,1279A,117.1324,31.8395,合肥市,高新区,细颗粒物(PM2.5),60,53,80,40,56,121,121,80,80,4,14,4,4,0.6,0.7
2026-03-13T1300,3464A,117.3802,31.9148,合肥市,高教基地,细颗粒物(PM2.5),76,66,80,48,55,124,124,72,72,20,30,9,8,0.5,0.6
2026-03-13T1300,4098A,117.2518,31.8404,合肥市,中国科学技术大学,细颗粒物(PM2.5),101,78,81,61,56,135,135,85,85,12,22,7,7,0.7,0.7
2026-03-13T1300,3614A,79.9241,37.0878,和田地区,地区环保局,"颗粒物(PM10),细颗粒物(PM2.5)",500,3328,2043,662,298,53,53,66,58,7,3,3,1,0.8,0.7
2026-03-13T1300,3615A,79.9132,37.1137,和田地区,市环保局,"颗粒物(PM10),细颗粒物(PM2.5)",500,3500,1852,799,373,58,58,68,64,8,9,3,2,0.7,0.6
2026-03-13T1300,2517A,108.0496,24.6957,河池市,市环保站,颗粒物(PM10),58,61,40,25,22,124,124,45,45,7,17,15,5,0.6,0.5
2026-03-13T1300,4302A,108.0901,24.6945,河池市,上任中路54号,颗粒物(PM10),62,66,48,26,28,111,111,32,32,8,26,14,7,0.5,0.5
2026-03-13T1300,1697A,114.6962,23.7538,河源市,东埔,,43,33,32,25,23,136,136,108,108,8,10,7,7,0.6,0.6
2026-03-13T1300,1698A,114.6895,23.7232,河源市,老城,,44,42,34,25,24,140,140,108,108,7,10,7,8,0.6,0.6
2026-03-13T1300,3374A,115.5562,35.089,菏泽市,定陶老年大学,细颗粒物(PM2.5),117,105,184,78,152,135,135,89,89,11,24,5,6,0.5,0.8
2026-03-13T1300,4114A,115.4239,35.2593,菏泽市,黄河路600号,细颗粒物(PM2.5),123,107,201,85,159,130,130,80,80,10,31,2,3,0.5,0.8
2026-03-13T1300,4115A,115.5025,35.2727,菏泽市,菏泽市人社局,细颗粒物(PM2.5),121,100,185,83,156,124,124,82,82,13,32,3,5,0.5,0.8
2026-03-13T1300,4184A,115.479691,35.244011,菏泽市,永昌路1号,细颗粒物(PM2.5),122,107,188,84,155,136,136,91,91,14,33,2,3,0.5,0.8
2026-03-13T1300,4193A,115.471542,35.280012,菏泽市,长城路999号,细颗粒物(PM2.5),120,112,179,82,150,136,136,96,96,10,23,8,7,0.4,0.6
2026-03-13T1300,2514A,111.5264,24.4178,贺州市,环保小区,,41,36,44,24,30,131,131,74,74,10,18,6,6,0.5,0.5
2026-03-13T1300,2515A,111.561,24.4074,贺州市,政协大楼,,44,44,42,26,30,110,110,56,56,13,27,8,6,0.5,0.3
2026-03-13T1300,3534A,111.4744,24.455,贺州市,西湾,,48,48,43,28,29,121,121,70,70,10,16,9,8,0.7,0.7
2026-03-13T1300,2385A,114.17,35.9019,鹤壁市,市监测站,细颗粒物(PM2.5),122,174,148,84,116,129,129,97,97,14,19,6,5,0.6,0.8
2026-03-13T1300,2386A,114.2953,35.7512,鹤壁市,市交警支队,细颗粒物(PM2.5),116,107,152,77,129,105,105,64,64,19,34,12,6,0.5,0.7
2026-03-13T1300,2387A,114.2877,35.7302,鹤壁市,迎宾馆,细颗粒物(PM2.5),120,116,161,81,124,114,114,66,66,17,33,11,8,0.7,0.8
2026-03-13T1300,3474A,114.2616,35.6824,鹤壁市,大新区,细颗粒物(PM2.5),126,NA,129,88,128,109,109,56,56,23,43,6,5,0.8,0.8
2026-03-13T1300,3596A,114.1573,35.9607,鹤壁市,南山宾馆,细颗粒物(PM2.5),105,100,137,65,112,128,128,100,100,18,22,7,9,0.7,0.7
2026-03-13T1300,2244A,130.2537,47.3416,鹤岗市,哈啤分公司,,28,22,30,10,16,88,88,81,81,9,11,10,9,0.2,0.3
2026-03-13T1300,2245A,130.2683,47.3087,鹤岗市,斯达机电,NA,NA,27,37,10,17,91,91,85,85,NA,11,9,9,0.4,0.4
2026-03-13T1300,2246A,130.3114,47.3388,鹤岗市,东山纸板厂,,30,14,66,3,21,93,93,76,76,8,22,6,7,0.4,0.9
2026-03-13T1300,2263A,127.4832,50.2524,黑河市,交通局,NA,NA,23,22,11,10,98,98,84,82,8,10,7,7,NA,0.5
2026-03-13T1300,2264A,127.5146,50.2339,黑河市,环保局,,30,16,16,9,9,95,95,84,83,12,11,10,10,0.3,0.4
2026-03-13T1300,1074A,115.6839,37.754,衡水市,电机北厂,细颗粒物(PM2.5),178,165,104,134,81,108,108,70,70,26,27,9,8,0.7,0.6
2026-03-13T1300,1075A,115.6303,37.7318,衡水市,市监测站,细颗粒物(PM2.5),175,141,97,132,69,101,101,57,57,25,30,14,9,0.7,0.5
2026-03-13T1300,3188A,115.6684,37.7216,衡水市,市城管局,细颗粒物(PM2.5),160,156,109,122,73,104,104,58,58,26,34,6,6,0.7,0.6
2026-03-13T1300,3459A,115.599,37.5491,衡水市,地表水厂,细颗粒物(PM2.5),163,142,106,124,86,122,122,53,53,18,49,7,8,0.5,0.6
2026-03-13T1300,2457A,112.6209,26.9268,衡阳市,衡阳化工总厂,,46,46,59,23,45,131,131,89,89,7,10,8,7,0.8,1
2026-03-13T1300,2458A,112.621,26.8957,衡阳市,珠晖区环保局,,49,49,54,24,37,132,132,83,83,9,23,6,6,0.7,0.9
2026-03-13T1300,2459A,112.628,26.8654,衡阳市,市委党校,,50,50,51,27,41,128,128,91,91,8,10,9,9,0.7,0.9
2026-03-13T1300,2460A,112.6007,26.8977,衡阳市,市监测站,细颗粒物(PM2.5),52,NA,71,36,41,142,142,98,98,18,22,10,10,0.4,0.6
2026-03-13T1300,2461A,112.5658,26.9013,衡阳市,真空机电公司,,42,40,61,24,42,134,134,89,89,14,18,10,9,0.9,0.9
2026-03-13T1300,3399A,112.6703,26.8817,衡阳市,师范学院,,41,41,56,14,38,128,128,91,91,6,8,8,8,0.7,0.9
2026-03-13T1300,3038A,103.3757,23.3679,红河哈尼族彝族自治州,州图书馆,,50,40,33,35,27,85,85,77,77,7,6,4,4,0.5,0.5
2026-03-13T1300,4154A,103.401,23.3561,红河哈尼族彝族自治州,蒙自市朝阳路,,45,39,29,31,26,92,92,86,86,7,6,7,7,0.5,0.5
2026-03-13T1300,1090A,111.6506,40.7517,呼和浩特市,呼市一监,,27,27,123,3,57,76,76,82,73,5,17,7,10,0.3,0.5
2026-03-13T1300,1094A,111.7516,40.8369,呼和浩特市,如意水处理厂,,25,19,109,3,50,80,80,91,76,6,15,7,10,0.2,0.4
2026-03-13T1300,1095A,111.727798,40.806187,呼和浩特市,二十九中,,25,25,142,3,49,73,73,82,70,5,14,9,13,0.3,0.5
2026-03-13T1300,1097A,111.717,40.7617,呼和浩特市,化肥厂生活区,,25,25,122,8,56,75,75,81,71,7,19,4,8,0.3,0.5
2026-03-13T1300,3699A,111.6519,40.8389,呼和浩特市,海东办,,24,24,148,9,54,76,76,84,74,5,15,3,7,0.4,0.6
2026-03-13T1300,4275A,111.591512,40.827312,呼和浩特市,成吉思汗西街8号,NA,NA,31,154,6,48,70,70,77,64,6,18,NA,10,0.3,0.5
2026-03-13T1300,4276A,111.6597,40.8077,呼和浩特市,公园东路75号,,27,27,165,7,52,70,70,81,69,8,15,8,11,0.3,0.5
2026-03-13T1300,4277A,111.5427,40.7846,呼和浩特市,金海路35号,,29,29,158,9,61,68,68,76,67,8,17,6,12,0.3,0.5
2026-03-13T1300,3061A,119.7511,49.1576,呼伦贝尔市,国华电力东,,31,31,28,17,14,89,89,87,85,9,12,6,6,0.2,0.2
2026-03-13T1300,4279A,119.7569,49.2222,呼伦贝尔市,伊敏大街东7号,,28,28,26,17,14,88,88,82,82,11,5,8,7,0.2,0.3
2026-03-13T1300,1250A,120.075,30.867,湖州市,城西水厂,细颗粒物(PM2.5),92,68,62,56,47,129,129,86,86,20,29,7,7,0.5,0.5
2026-03-13T1300,2873A,120.083,30.8929,湖州市,仁皇山新区,NA,NA,NA,47,55,47,118,118,86,86,18,22,6,6,0.6,0.6
2026-03-13T1300,2907A,120.1846,30.8592,湖州市,吴兴区站,细颗粒物(PM2.5),96,75,71,58,51,92,92,70,70,14,24,6,6,0.4,0.5
2026-03-13T1300,3562A,120.4146,30.8538,湖州市,南浔区站,细颗粒物(PM2.5),80,58,72,50,52,110,110,84,84,16,24,8,9,0.6,0.7
2026-03-13T1300,1607A,120.904878,40.721091,葫芦岛市,龙港区,,30,30,49,10,33,87,87,69,69,15,25,7,14,0.4,0.6
2026-03-13T1300,1608A,120.8382,40.7521,葫芦岛市,化工街,,46,46,69,14,43,86,86,53,53,20,57,12,20,0.4,0.5
2026-03-13T1300,1609A,120.8339,40.7078,葫芦岛市,新区,,38,38,49,16,32,83,83,63,63,18,36,8,13,0.4,0.6
2026-03-13T1300,1610A,120.8697,40.7679,葫芦岛市,东城区,,47,47,59,24,46,79,79,50,50,21,51,9,21,0.5,0.8
2026-03-13T1300,2483A,109.9297,27.5383,怀化市,河西地税局,细颗粒物(PM2.5),58,55,65,39,48,133,133,84,84,11,13,4,4,/,/
2026-03-13T1300,2484A,109.9783,27.5342,怀化市,市四医院,颗粒物(PM10),56,58,72,30,36,130,130,88,88,11,12,8,8,0.6,0.5
2026-03-13T1300,2485A,109.9971,27.5579,怀化市,监测楼,细颗粒物(PM2.5),76,57,60,48,54,129,129,70,70,6,9,4,4,0.4,0.4
2026-03-13T1300,1210A,119.0566,33.5991,淮安市,钵池山,细颗粒物(PM2.5),94,73,94,57,79,115,115,93,93,24,28,9,8,0.4,0.4
2026-03-13T1300,1211A,119.0083,33.578,淮安市,北京南路,细颗粒物(PM2.5),80,58,89,50,83,118,118,79,79,13,26,7,7,0.5,0.5
2026-03-13T1300,1212A,118.9938,33.6083,淮安市,市监测站,细颗粒物(PM2.5),84,53,82,52,82,120,120,80,80,16,24,8,5,0.6,0.7
2026-03-13T1300,1213A,119.135,33.5038,淮安市,楚州区监测站,细颗粒物(PM2.5),88,71,102,54,85,115,115,52,52,20,42,7,6,0.5,0.5
2026-03-13T1300,3426A,118.8757,33.2897,淮安市,新华书店,细颗粒物(PM2.5),72,58,97,46,82,123,123,70,70,12,30,7,7,0.4,0.5
2026-03-13T1300,4092A,119.119691,33.550006,淮安市,枚皋中路89号,细颗粒物(PM2.5),88,76,100,54,75,113,113,64,64,22,36,10,9,0.4,0.5
2026-03-13T1300,4206A,119.028838,33.631911,淮安市,承德北路606号,细颗粒物(PM2.5),94,83,116,57,82,105,105,63,63,24,31,8,7,0.5,0.6
2026-03-13T1300,2282A,116.8005,33.9749,淮北市,监测站,颗粒物(PM10),57,59,136,26,99,116,116,104,104,15,20,6,7,0.4,0.7
2026-03-13T1300,2283A,116.8094,33.9008,淮北市,烈山区政府,,46,46,126,27,102,114,114,94,94,12,19,5,5,0.3,0.5
2026-03-13T1300,4017A,116.7926,33.9534,淮北市,市博物馆,,46,46,134,26,108,110,110,95,95,13,20,3,4,0.3,0.6
2026-03-13T1300,4100A,116.8322,33.9884,淮北市,杜集区第一实验学校,,48,48,132,22,101,112,112,97,97,11,19,7,6,0.3,0.6
2026-03-13T1300,2277A,116.8304,32.7726,淮南市,潘集区政府,细颗粒物(PM2.5),88,72,109,54,85,122,122,82,82,12,24,8,7,0.4,0.6
2026-03-13T1300,2279A,116.8569,32.5949,淮南市,谢家集区政府,细颗粒物(PM2.5),76,59,91,48,76,124,124,80,80,16,23,7,9,0.5,0.6
2026-03-13T1300,2280A,116.8279,32.6333,淮南市,八公山区政府,细颗粒物(PM2.5),84,65,98,52,85,124,124,83,83,13,18,6,7,0.4,0.6
2026-03-13T1300,2894A,117.0561,32.6536,淮南市,经济技术开发区消防队,细颗粒物(PM2.5),92,67,99,56,75,122,122,81,81,15,27,7,7,0.5,0.6
2026-03-13T1300,3329A,117.011,32.5891,淮南市,山南新区,细颗粒物(PM2.5),84,66,100,52,77,127,127,87,87,16,21,7,7,0.4,0.5
2026-03-13T1300,4209A,117.003137,32.644456,淮南市,国庆中路369号,细颗粒物(PM2.5),100,NA,92,60,82,114,114,77,77,10,17,6,6,0.6,0.6
2026-03-13T1300,2446A,114.9021,30.474,黄冈市,职工中心,细颗粒物(PM2.5),66,58,51,43,43,137,137,98,98,12,13,8,8,0.4,0.5
2026-03-13T1300,2929A,114.8858,30.4519,黄冈市,红卫路,细颗粒物(PM2.5),68,58,56,44,46,146,146,107,107,10,13,6,7,0.5,0.5
2026-03-13T1300,3398A,114.9134,30.4446,黄冈市,市林业局,颗粒物(PM10),70,77,64,42,47,139,139,100,100,10,15,5,4,0.5,0.5
2026-03-13T1300,2672A,102.02,35.5101,黄南藏族自治州,同仁县隆务镇,颗粒物(PM10),111,148,224,62,80,67,67,77,71,6,4,9,10,0.5,0.4
2026-03-13T1300,2295A,118.2905,29.6965,黄山市,延安路89号,,50,46,34,35,26,119,119,72,72,10,12,5,5,0.5,0.5
2026-03-13T1300,2297A,118.1369,30.2755,黄山市,黄山区政府5号楼,细颗粒物(PM2.5),54,48,42,37,29,114,114,62,62,10,11,3,3,0.4,0.4
2026-03-13T1300,4210A,118.335445,29.720283,黄山市,滨江东路7-2号,颗粒物(PM10),55,56,50,31,25,121,121,79,79,8,11,/,/,/,/
2026-03-13T1300,2423A,115.0547,30.2332,黄石市,沈家营,颗粒物(PM10),63,68,65,40,43,136,136,100,100,10,16,4,6,0.8,0.9
2026-03-13T1300,2426A,114.899,30.211,黄石市,铁山,细颗粒物(PM2.5),54,42,45,37,40,136,136,113,113,11,11,8,8,0.6,0.7
2026-03-13T1300,2427A,115.0259,30.2108,黄石市,团城山,,40,38,51,28,36,118,118,99,99,16,18,6,8,0.5,0.6
2026-03-13T1300,3149A,115.0174,30.1591,黄石市,笔架山北路,颗粒物(PM10),63,67,68,36,39,141,141,111,111,12,15,10,10,0.7,0.8
2026-03-13T1300,4185A,115.078022,30.21118,黄石市,磁湖东路29号,细颗粒物(PM2.5),52,49,51,36,41,134,134,109,109,8,13,7,55,0.8,1
2026-03-13T1300,1392A,114.4181,23.0528,惠州市,河南岸金山湖子站,颗粒物(PM10),53,54,43,30,23,145,145,107,107,9,12,7,8,0.6,0.6
2026-03-13T1300,1393A,114.4055,23.0824,惠州市,下埔横江三路子站,颗粒物(PM10),58,60,50,30,23,153,153,114,114,10,13,9,10,0.6,0.6
2026-03-13T1300,1395A,114.4645,22.7832,惠州市,惠阳区承修路船湖子站,颗粒物(PM10),58,60,49,31,23,156,156,117,117,15,15,9,8,0.5,0.5
2026-03-13T1300,1396A,114.5316,22.7423,惠州市,大亚湾管委会子站,,48,48,47,23,22,139,139,112,112,10,14,5,5,0.5,0.5
2026-03-13T1300,3314A,114.4334,22.8134,惠州市,惠阳秋长,臭氧1小时(O3_1h),73,56,50,28,24,178,178,114,114,16,17,/,/,/,/
2026-03-13T1300,3452A,114.6521,22.7755,惠州市,大亚湾霞涌,,48,48,45,30,27,145,145,111,111,13,13,/,/,/,/
2026-03-13T1300,4300A,114.4089,23.1147,惠州市,文华一路1号,,45,45,43,26,24,144,144,110,110,9,14,/,/,/,/
2026-03-13T1300,2240A,130.9618,45.2926,鸡西市,环保局,颗粒物(PM10),58,61,93,10,58,93,93,47,47,4,31,6,12,0.3,0.7
2026-03-13T1300,2243A,130.9294,45.2959,鸡西市,第一中学,NA,NA,25,66,3,44,88,88,54,54,3,25,NA,8,0.3,0.5
2026-03-13T1300,3707A,131.0069,45.2988,鸡西市,欧美日汽修厂,,29,15,111,13,59,91,91,50,50,4,30,6,21,0.3,0.8
2026-03-13T1300,2367A,114.9753,27.0803,吉安市,红声器材厂,,50,50,52,29,28,110,110,72,72,16,17,6,6,0.6,0.6
2026-03-13T1300,2369A,114.9903,27.1313,吉安市,市环境监测站,,42,42,45,20,27,117,117,76,76,11,16,6,8,/,/
2026-03-13T1300,2370A,115.009527,27.096792,吉安市,青原区法院,,44,44,51,26,26,123,123,84,84,12,18,6,5,0.4,0.6
2026-03-13T1300,1772A,126.54,43.8622,吉林市,哈达湾,,34,34,54,17,36,94,94,88,88,7,16,6,8,0.3,0.5
2026-03-13T1300,1773A,126.5843,43.8358,吉林市,东局子,,30,NA,42,17,44,96,96,90,90,6,17,3,4,0.5,0.7
2026-03-13T1300,1774A,126.5051,43.8243,吉林市,电力学院,,33,NA,79,13,58,103,103,76,76,9,31,5,10,0.5,1.1
2026-03-13T1300,1775A,126.6133,43.8971,吉林市,江北,,32,30,64,14,45,102,102,87,87,7,17,5,6,0.4,0.8
2026-03-13T1300,1776A,126.5549,43.8304,吉林市,江南公园,,30,30,50,15,36,90,90,85,85,9,20,7,8,0.5,0.6
2026-03-13T1300,2868A,126.4737,43.953,吉林市,九站,,34,34,63,17,47,91,91,77,77,10,35,8,16,0.4,0.7
2026-03-13T1300,1299A,116.9866,36.6118,济南市,科干所,细颗粒物(PM2.5),135,117,92,98,65,134,134,112,112,17,19,6,7,0.6,0.6
2026-03-13T1300,1300A,116.9379,36.6652,济南市,农科所,细颗粒物(PM2.5),142,127,100,106,71,124,124,95,95,21,33,8,8,0.7,0.7
2026-03-13T1300,1301A,117.1265,36.6736,济南市,开发区,细颗粒物(PM2.5),130,103,91,92,65,143,143,119,119,15,27,4,5,0.7,0.7
2026-03-13T1300,1303A,117.0616,36.6865,济南市,省种子仓库,细颗粒物(PM2.5),131,124,112,94,66,135,135,110,110,16,43,4,6,0.6,0.7
2026-03-13T1300,1304A,116.9495185,36.644937,济南市,机床二厂,细颗粒物(PM2.5),142,125,103,106,70,128,128,100,100,19,29,6,8,0.7,0.7
2026-03-13T1300,1305A,117.0496,36.6629,济南市,市监测站,细颗粒物(PM2.5),135,122,104,98,70,136,136,115,115,17,28,4,5,0.6,0.6
2026-03-13T1300,1306A,116.7674,36.5458,济南市,长清党校,细颗粒物(PM2.5),136,132,114,99,74,134,134,99,99,14,28,4,5,0.7,0.7
2026-03-13T1300,1961A,117.5323,36.6865,济南市,东山小学,细颗粒物(PM2.5),112,100,89,73,46,135,135,104,104,18,29,5,6,0.7,0.7
2026-03-13T1300,3059A,117.7181,36.205,济南市,泰兴公司,细颗粒物(PM2.5),123,124,77,85,43,144,144,70,70,18,46,9,8,0.7,0.7
2026-03-13T1300,3064A,117.6861,36.2172,济南市,莱芜战役纪念馆,细颗粒物(PM2.5),127,117,84,89,46,158,158,84,84,18,36,8,6,0.6,0.5
2026-03-13T1300,3494A,117.1673,36.9782,济南市,济阳区政府,细颗粒物(PM2.5),152,134,99,116,60,122,122,72,72,18,31,7,11,0.7,0.6
2026-03-13T1300,3495A,117.1168,36.6299,济南市,锦屏中学,细颗粒物(PM2.5),129,100,81,91,58,135,135,112,112,13,15,8,9,0.5,0.5
2026-03-13T1300,4108A,117.7107,36.2385,济南市,山财大街5号,细颗粒物(PM2.5),135,117,73,98,44,138,138,68,68,NA,45,NA,12,0.7,0.6
2026-03-13T1300,4109A,116.9744,36.6889,济南市,无影山路12号,细颗粒物(PM2.5),138,105,95,101,67,118,118,95,95,18,29,5,7,0.7,0.7
2026-03-13T1300,1653A,116.6229,35.4288,济宁市,火炬城,细颗粒物(PM2.5),105,NA,100,65,87,132,132,91,91,13,20,4,4,0.5,0.7
2026-03-13T1300,3500A,116.5808,35.3703,济宁市,北湖一中,细颗粒物(PM2.5),107,NA,105,67,97,132,132,87,87,15,22,6,6,0.4,0.6
2026-03-13T1300,3501A,116.8251,35.5592,济宁市,服务中心,细颗粒物(PM2.5),110,106,116,70,73,130,130,95,95,14,25,4,3,0.3,0.4
2026-03-13T1300,3678A,116.5907,35.4054,济宁市,市第七中学,细颗粒物(PM2.5),104,NA,99,64,95,139,139,91,91,15,24,4,4,0.5,0.7
2026-03-13T1300,4111A,116.6075,35.4566,济宁市,任和路,细颗粒物(PM2.5),101,77,130,61,87,136,136,91,91,17,24,6,6,0.5,0.7
2026-03-13T1300,4112A,116.5648,35.3921,济宁市,文体南路1号,细颗粒物(PM2.5),82,84,138,51,99,138,138,90,90,16,25,4,4,0.4,0.6
2026-03-13T1300,4122A,112.6071,35.1015,济源市,市委党校,细颗粒物(PM2.5),201,237,205,151,130,118,118,79,79,22,28,9,8,0.9,0.8
2026-03-13T1300,4123A,112.596,35.0702,济源市,沁园中路1号,细颗粒物(PM2.5),200,189,183,150,132,116,116,78,78,24,33,6,5,0.8,0.9
2026-03-13T1300,2255A,130.2749,46.8028,佳木斯市,佳纺,颗粒物(PM10),51,51,52,11,28,94,94,48,48,8,27,4,6,0.4,0.5
2026-03-13T1300,2257A,130.3258,46.7975,佳木斯市,环保局,,49,49,49,10,29,95,95,40,40,8,30,2,4,0.2,0.6
2026-03-13T1300,4285A,130.363,46.806,佳木斯市,顺和街,,40,40,38,14,24,88,88,50,50,8,20,3,5,0.3,0.3
2026-03-13T1300,4286A,130.3952,46.8268,佳木斯市,长安路196号,,30,30,36,3,20,90,90,55,55,6,10,4,4,0.3,0.4
2026-03-13T1300,1252A,120.7439,30.778,嘉兴市,清河小学,颗粒物(PM10),58,61,72,32,47,110,110,89,89,20,25,6,7,0.3,0.4
2026-03-13T1300,1253A,120.7261,30.7477,嘉兴市,嘉兴学院,细颗粒物(PM2.5),62,54,66,41,44,116,116,92,92,23,23,6,7,0.6,0.6
2026-03-13T1300,2872A,120.7845,30.7524,嘉兴市,南湖区残联,细颗粒物(PM2.5),80,63,70,50,48,110,110,91,91,22,22,4,5,0.6,0.7
2026-03-13T1300,3407A,120.6915,30.7741,嘉兴市,秀洲住建,NA,NA,59,76,41,48,116,116,77,77,NA,28,8,8,0.5,0.6
2026-03-13T1300,1945A,98.291,39.7705,嘉峪关市,气象局,颗粒物(PM10),104,129,329,38,57,72,72,82,74,11,9,7,10,0.4,0.6
2026-03-13T1300,2884A,98.2672,39.7978,嘉峪关市,酒钢宾馆,颗粒物(PM10),100,119,329,41,66,74,74,80,77,12,15,10,43,0.5,1
2026-03-13T1300,3248A,98.2644,39.7723,嘉峪关市,雄关区,颗粒物(PM10),102,124,268,44,57,70,70,72,71,14,16,7,14,0.4,1
2026-03-13T1300,1383A,113.1063,22.6058,江门市,北街,颗粒物(PM10),60,63,44,31,24,160,160,116,116,22,25,/,/,/,/
2026-03-13T1300,1384A,113.073,22.5835,江门市,西区,臭氧1小时(O3_1h),57,58,48,32,24,165,165,124,124,20,22,/,/,/,/
2026-03-13T1300,1385A,113.0218,22.531,江门市,圭峰西,颗粒物(PM10),61,65,44,32,23,163,163,114,114,18,18,/,/,/,/
2026-03-13T1300,1386A,113.0826,22.5947,江门市,东湖,颗粒物(PM10),57,59,38,30,22,158,158,116,116,19,19,8,8,0.5,0.5
2026-03-13T1300,3311A,113.1077,22.5647,江门市,江海富民,臭氧1小时(O3_1h),63,62,56,36,25,170,170,126,126,21,23,/,/,0.4,0.4
2026-03-13T1300,3449A,113.0496,22.4669,江门市,新会银湖,颗粒物(PM10),56,58,46,28,25,161,161,97,97,17,28,10,9,0.3,0.4
2026-03-13T1300,3335A,113.3137,35.2643,焦作市,马村街道办,细颗粒物(PM2.5),137,122,137,100,113,122,122,94,93,18,22,7,6,0.6,0.8
2026-03-13T1300,3336A,113.2464,35.2374,焦作市,焦作技师学院,细颗粒物(PM2.5),134,123,136,97,110,123,123,90,90,16,20,8,7,0.7,0.7
2026-03-13T1300,3477A,113.1656,35.2536,焦作市,中站许衡医院,细颗粒物(PM2.5),141,137,138,105,110,127,127,116,106,19,21,10,8,0.8,0.7
2026-03-13T1300,3981A,113.2456,35.18,焦作市,原李万街道办,细颗粒物(PM2.5),128,101,142,90,113,119,119,97,88,15,18,12,11,0.6,0.7
2026-03-13T1300,4264A,113.234,35.219,焦作市,新安路1731号,细颗粒物(PM2.5),140,125,137,103,113,131,131,100,100,19,22,10,9,0.6,0.7
2026-03-13T1300,4295A,113.2722,35.2121,焦作市,人民路3066号,细颗粒物(PM2.5),144,133,143,108,120,121,121,92,90,19,23,8,7,0.6,0.7
2026-03-13T1300,1708A,116.3701,23.5345,揭阳市,新兴,,48,48,46,28,24,128,128,99,99,14,18,10,9,0.5,0.5
2026-03-13T1300,1709A,116.3261,23.5442,揭阳市,西马,,49,49,50,27,23,131,131,101,101,13,15,8,8,0.4,0.4
2026-03-13T1300,1710A,116.361,23.5627,揭阳市,东兴,NA,NA,69,49,28,27,133,133,100,100,12,17,NA,10,/,/
2026-03-13T1300,1711A,116.4151,23.5295,揭阳市,渔湖,颗粒物(PM10),55,57,45,25,23,154,154,113,113,16,22,8,7,/,/
2026-03-13T1300,3320A,116.4028,23.5699,揭阳市,曲溪,,50,50,53,26,25,155,155,112,112,11,16,13,13,0.6,0.6
2026-03-13T1300,1944A,102.1691,38.5166,金昌市,天庆家园,颗粒物(PM10),123,178,665,26,131,92,92,91,91,2,2,3,3,0.5,0.4
2026-03-13T1300,4022A,102.1648,38.5369,金昌市,金川区人防中心,颗粒物(PM10),111,148,773,49,138,87,87,87,87,2,3,5,6,0.5,0.5
2026-03-13T1300,4239A,102.193042,38.531887,金昌市,长春路96号,颗粒物(PM10),122,177,703,28,122,84,84,82,82,7,8,4,4,0.4,0.4
2026-03-13T1300,1262A,119.6478,29.0773,金华市,十五中,细颗粒物(PM2.5),54,52,54,37,36,135,135,90,90,9,18,4,4,0.2,0.2
2026-03-13T1300,1263A,119.6859,29.1032,金华市,监测站,细颗粒物(PM2.5),52,49,56,36,36,110,110,66,66,10,26,4,4,0.3,0.4
2026-03-13T1300,3659A,119.656,29.1132,金华市,气象局,颗粒物(PM10),55,57,60,37,38,120,120,74,74,17,36,3,3,0.3,0.5
2026-03-13T1300,1767A,121.1114,41.0879,锦州市,南山,颗粒物(PM10),81,93,63,25,42,90,90,59,59,19,38,13,14,0.5,0.6
2026-03-13T1300,1768A,121.060361,40.842794,锦州市,开发区,颗粒物(PM10),93,110,98,28,39,74,74,61,61,21,49,6,13,0.5,0.6
2026-03-13T1300,1769A,121.1836,41.1118,锦州市,百股街道,颗粒物(PM10),84,97,60,24,43,93,93,65,65,17,35,11,11,0.5,0.7
2026-03-13T1300,1770A,121.1176,41.1224,锦州市,天安街道,颗粒物(PM10),73,81,69,28,48,91,91,60,60,18,42,10,13,0.5,0.8
2026-03-13T1300,1771A,121.1303,41.1385,锦州市,北湖公园,颗粒物(PM10),70,77,62,30,45,96,96,65,65,18,35,11,13,0.6,0.8
2026-03-13T1300,2160A,112.8496,35.5051,晋城市,自来水公司,细颗粒物(PM2.5),120,125,124,82,81,129,129,90,90,12,17,4,4,0.4,0.4
2026-03-13T1300,2162A,112.8509,35.4886,晋城市,市环保局,细颗粒物(PM2.5),129,113,109,91,87,129,129,88,88,10,17,4,4,0.6,0.6
2026-03-13T1300,3620A,112.8258,35.4804,晋城市,泽州一中,细颗粒物(PM2.5),127,120,115,89,91,135,135,92,92,19,21,3,4,0.5,0.5
2026-03-13T1300,4078A,112.8246,35.5152,晋城市,前书院路,细颗粒物(PM2.5),110,113,130,70,78,126,126,79,79,12,18,5,5,0.7,0.7
2026-03-13T1300,4079A,112.8864,35.4773,晋城市,祥云街666号,细颗粒物(PM2.5),129,125,124,91,97,130,130,87,87,15,24,5,5,0.5,0.5
2026-03-13T1300,2174A,112.6992,37.6984,晋中市,榆次区政府,细颗粒物(PM2.5),140,114,100,103,76,70,70,80,75,38,25,13,10,1.1,0.7
2026-03-13T1300,2865A,112.7195,37.683,晋中市,榆次三中,细颗粒物(PM2.5),140,117,108,104,76,84,84,67,67,30,25,17,11,1.0,0.6
2026-03-13T1300,4080A,112.7375,37.7215,晋中市,广安街188号,细颗粒物(PM2.5),134,120,111,97,75,78,78,75,75,33,27,11,11,0.8,0.5
2026-03-13T1300,4200A,112.7478,37.6954,晋中市,迎宾街26号,细颗粒物(PM2.5),137,114,108,100,82,87,87,68,68,28,27,15,9,1.1,0.7
2026-03-13T1300,2439A,112.2012,31.048,荆门市,竹园小学,细颗粒物(PM2.5),80,64,124,50,90,128,128,80,80,67,30,1,1,1.9,0.9
2026-03-13T1300,2440A,112.1968,30.9892,荆门市,掇刀,颗粒物(PM10),69,76,108,40,84,139,139,109,109,12,22,1,7,0.6,0.7
2026-03-13T1300,3012A,112.1849,31.0361,荆门市,西山林语,细颗粒物(PM2.5),66,69,106,43,80,131,131,99,99,14,20,6,7,0.6,0.8
2026-03-13T1300,3547A,112.1631,31.0134,荆门市,龙泉中学南校,颗粒物(PM10),69,76,116,37,77,136,136,104,104,12,21,6,6,0.8,1
2026-03-13T1300,4124A,112.2213,31.0654,荆门市,新台西路6号,细颗粒物(PM2.5),66,65,113,43,89,127,127,92,92,27,32,7,7,0.4,0.6
2026-03-13T1300,1844A,112.2493,30.3198,荆州市,市图书馆,细颗粒物(PM2.5),64,NA,60,42,57,132,132,95,95,14,24,8,10,0.7,0.8
2026-03-13T1300,1845A,112.2009,30.3543,荆州市,市委党校,细颗粒物(PM2.5),58,51,72,39,60,111,111,80,80,19,27,8,9,0.6,0.7
2026-03-13T1300,3194A,112.2749,30.3124,荆州市,管委会,,48,48,68,31,61,129,129,87,87,12,19,10,12,0.7,0.8
2026-03-13T1300,4268A,112.1722,30.3366,荆州市,学苑路85号,,50,50,77,34,59,138,138,96,95,9,15,1,2,0.6,0.7
2026-03-13T1300,2343A,117.2114,29.2931,景德镇市,老干部活动中心,细颗粒物(PM2.5),74,58,36,47,29,113,113,91,91,5,9,4,5,0.6,0.6
2026-03-13T1300,2344A,117.1893,29.2789,景德镇市,兽医站,细颗粒物(PM2.5),78,71,44,49,28,132,132,108,108,10,10,4,4,0.8,0.7
2026-03-13T1300,2346A,117.246,29.2958,景德镇市,陶研所,,40,40,32,28,25,118,118,83,83,5,14,4,4,0.5,0.6
2026-03-13T1300,4289A,117.154766,29.256967,景德镇市,青少年活动中心,颗粒物(PM10),64,69,36,32,24,132,132,102,102,11,12,4,3,/,/
2026-03-13T1300,1803A,115.9873,29.6816,九江市,十里,细颗粒物(PM2.5),80,NA,53,50,42,119,119,85,85,29,27,10,8,1.0,0.8
2026-03-13T1300,1804A,115.9583,29.7047,九江市,茅山头,细颗粒物(PM2.5),96,NA,51,58,44,126,126,94,88,24,20,4,4,0.8,0.6
2026-03-13T1300,1805A,115.9877,29.7295,九江市,西园,细颗粒物(PM2.5),86,NA,53,53,40,130,130,92,92,33,33,7,4,0.9,0.7
2026-03-13T1300,1808A,115.9112,29.6038,九江市,综合工业园,NA,NA,NA,51,48,35,107,107,79,73,NA,25,NA,8,0.9,0.7
2026-03-13T1300,3190A,116.0254,29.6995,九江市,外国语学校,NA,NA,NA,51,46,42,123,123,79,79,16,20,8,4,0.9,0.8
2026-03-13T1300,4253A,116.010205,29.659402,九江市,莲花大道8号,细颗粒物(PM2.5),68,56,55,44,37,121,121,85,82,26,23,11,7,0.7,0.6
2026-03-13T1300,4240A,98.495752,39.733935,酒泉市,玉门东路5号,细颗粒物(PM2.5),107,114,392,67,71,72,72,79,74,6,3,4,5,0.3,0.2
2026-03-13T1300,4241A,98.5099,39.7506,酒泉市,北大街108号,颗粒物(PM10),84,97,353,31,67,71,71,73,69,6,3,7,6,0.2,0.2
2026-03-13T1300,2698A,76.0071,39.466,喀什地区,巡警大队,颗粒物(PM10),500,2098,1559,364,375,56,56,68,64,9,5,2,3,0.2,0.2
2026-03-13T1300,2699A,75.9756,39.4693,喀什地区,吾办,颗粒物(PM10),500,1976,1528,357,356,56,56,64,61,7,4,4,3,0.3,0.2
2026-03-13T1300,4027A,75.9485,39.4688,喀什地区,老干局,颗粒物(PM10),500,2213,1634,336,342,58,58,68,65,7,3,2,2,0.4,0.3
2026-03-13T1300,1824A,114.3389,34.778,开封市,肿瘤医院,细颗粒物(PM2.5),110,NA,153,71,146,138,138,95,95,15,34,8,10,0.9,1.1
2026-03-13T1300,1826A,114.2884,34.7966,开封市,世纪星幼儿园,细颗粒物(PM2.5),88,NA,138,54,129,125,125,90,90,14,29,10,10,0.8,0.9
2026-03-13T1300,3147A,114.3434,34.8101,开封市,龙亭公园,细颗粒物(PM2.5),104,70,158,64,138,140,140,100,100,17,38,10,9,0.8,0.9
2026-03-13T1300,3210A,114.3645,34.7955,开封市,汴京公园,细颗粒物(PM2.5),101,72,162,61,147,140,140,95,95,18,40,7,6,0.7,1.3
2026-03-13T1300,3473A,114.2485,34.8306,开封市,技师学院,细颗粒物(PM2.5),103,63,135,63,131,134,134,104,104,14,28,10,10,0.9,1.1
2026-03-13T1300,3592A,114.4518,34.7503,开封市,祥符区生态环境局,细颗粒物(PM2.5),111,NA,184,72,147,134,134,89,89,22,54,6,6,0.6,0.8
2026-03-13T1300,1951A,84.886,45.6029,克拉玛依市,长征新村,颗粒物(PM10),58,60,51,14,11,71,71,56,46,11,12,5,4,0.3,0.3
2026-03-13T1300,1952A,84.8894,45.5827,克拉玛依市,南林小区,颗粒物(PM10),55,57,50,8,5,70,70,55,52,2,3,5,5,0.3,0.4
2026-03-13T1300,1954A,84.896,44.3328,克拉玛依市,独山子区,颗粒物(PM10),71,79,66,19,19,90,90,82,74,9,14,4,5,0.4,0.5
2026-03-13T1300,1955A,85.6888,46.0909,克拉玛依市,乌尔禾区商贸楼,,39,36,35,27,14,75,75,58,55,5,8,7,8,0.4,0.4
2026-03-13T1300,3612A,85.1045,45.6895,克拉玛依市,白碱滩区新站,,37,37,48,16,14,73,73,61,58,7,7,9,8,0.3,0.3
2026-03-13T1300,2697A,76.1457,39.7143,克孜勒苏柯尔克孜自治州,市人民政府,颗粒物(PM10),500,2120,1537,442,338,73,73,69,69,5,6,3,3,0.2,0.2
2026-03-13T1300,3665A,76.1654,39.7157,克孜勒苏柯尔克孜自治州,克州文化中心,颗粒物(PM10),500,2319,1765,476,364,70,70,68,68,6,5,4,4,0.2,0.2
2026-03-13T1300,1450A,102.8203,24.889,昆明市,呈贡新区,,35,24,32,24,29,71,71,73,66,12,13,3,2,0.6,0.7
2026-03-13T1300,1452A,102.7253,25.0904,昆明市,龙泉镇,,33,32,40,23,35,58,58,56,51,16,15,3,4,0.7,0.7
2026-03-13T1300,1453A,102.7267,25.0378,昆明市,东风东路,,35,35,45,24,31,67,67,57,54,16,21,2,2,0.7,0.7
2026-03-13T1300,1454A,102.6744,25.0671,昆明市,金鼎山,,43,43,46,23,32,64,64,64,60,18,17,2,2,0.9,0.9
2026-03-13T1300,1455A,102.6643,25.0401,昆明市,碧鸡广场,,32,32,41,22,31,68,68,70,62,15,15,3,3,0.9,0.8
2026-03-13T1300,3179A,102.7491,25.012,昆明市,官渡区博物馆,,30,23,40,21,29,67,67,56,56,13,20,3,2,0.7,0.7
2026-03-13T1300,3375A,102.8016,24.8336,昆明市,青年创业园,,39,39,39,23,28,69,69,73,67,8,7,4,3,0.7,0.7
2026-03-13T1300,3550A,102.8,24.9787,昆明市,昆明学院,,38,38,43,19,28,65,65,64,57,19,16,4,3,0.7,0.7
2026-03-13T1300,3551A,102.5969,24.6738,昆明市,晋宁区生态环境分局,,40,36,43,28,33,75,75,77,69,10,10,2,2,0.7,0.6
2026-03-13T1300,3552A,102.6673,24.9861,昆明市,云天化总部,,35,35,39,20,28,74,74,72,66,10,10,7,7,0.7,0.8
2026-03-13T1300,1456A,91.132,29.6515,拉萨市,八廓街,,31,31,24,15,10,82,82,74,73,12,19,5,5,0.5,0.5
2026-03-13T1300,1457A,91.1221,29.6748,拉萨市,市环保局,,23,21,22,6,9,72,72,71,63,17,20,4,4,0.4,0.5
2026-03-13T1300,1458A,91.0874,29.6476,拉萨市,区监测站,,24,17,15,3,7,76,76,77,64,17,23,5,5,0.5,0.4
2026-03-13T1300,1459A,91.1774,29.6541,拉萨市,西藏大学,,25,15,22,13,9,78,78,68,62,16,20,5,6,0.7,0.7
2026-03-13T1300,1460A,90.9798,29.6586,拉萨市,区辐射站,,25,15,24,8,10,77,77,82,71,18,20,4,4,0.6,0.6
2026-03-13T1300,1461A,91.0831,29.6292,拉萨市,拉萨火车站,,26,15,14,8,6,82,82,87,82,11,11,4,4,0.5,0.5
2026-03-13T1300,2520A,109.2203,23.7252,来宾市,来宾技工学校,,43,41,60,27,39,135,135,76,76,8,23,10,10,0.6,0.7
2026-03-13T1300,3535A,109.1781,23.7293,来宾市,兴宾区政府,NA,NA,NA,69,NA,43,144,144,78,78,12,13,NA,8,0.7,0.8
2026-03-13T1300,4002A,109.2312,23.7428,来宾市,中南小学,,50,50,62,32,42,147,147,90,90,9,27,8,8,0.5,0.7
2026-03-13T1300,1479A,103.8309,36.0467,兰州市,铁路设计院,NA,NA,NA,NA,NA,NA,NA,NA,NA,NA,NA,NA,NA,NA,NA,NA
2026-03-13T1300,3241A,103.7439,36.0841,兰州市,百合公园,颗粒物(PM10),377,481,536,119,141,71,71,65,64,6,6,3,3,0.3,0.4
2026-03-13T1300,3242A,103.9613,35.9985,兰州市,和平,颗粒物(PM10),500,726,607,114,124,77,77,71,69,6,8,10,10,0.4,0.5
2026-03-13T1300,4236A,103.629272,36.093822,兰州市,庄浪东路808号,颗粒物(PM10),406,506,568,120,144,76,76,71,69,2,4,5,6,0.4,0.4
2026-03-13T1300,4237A,103.7251,36.104344,兰州市,安宁西路88号,颗粒物(PM10),422,522,634,121,150,84,84,74,74,2,4,6,6,0.2,0.3
2026-03-13T1300,4238A,103.846982,36.067567,兰州市,北滨河东路1号,颗粒物(PM10),422,522,567,114,134,72,72,68,63,11,13,10,7,0.5,0.6
2026-03-13T1300,1067A,116.6712,39.5109,廊坊市,药材公司,细颗粒物(PM2.5),113,86,84,74,61,44,44,36,36,48,33,6,4,0.8,0.7
2026-03-13T1300,1068A,116.7215,39.5592,廊坊市,开发区,细颗粒物(PM2.5),111,104,85,72,57,40,40,34,30,50,34,6,5,0.6,0.5
2026-03-13T1300,1070A,116.7246,39.5273,廊坊市,北华航天学院,细颗粒物(PM2.5),114,138,95,75,55,36,36,36,30,61,41,7,6,0.6,0.5
2026-03-13T1300,2919A,116.7022,39.5454,廊坊市,河北工业大学,细颗粒物(PM2.5),111,104,90,72,59,37,37,40,27,47,30,6,5,0.6,0.5
2026-03-13T1300,2536A,103.7629,29.5844,乐山市,牛耳桥,,49,40,51,34,40,44,44,44,37,22,24,7,8,0.7,0.7
2026-03-13T1300,2537A,103.7501,29.6002,乐山市,市第三水厂,,50,40,48,35,40,43,43,43,35,22,24,5,5,0.7,0.8
2026-03-13T1300,2538A,103.7571,29.5664,乐山市,市监测站,,46,40,54,32,38,42,42,39,35,20,20,6,6,0.7,0.7
2026-03-13T1300,3361A,103.7313,29.563,乐山市,理工大学,,49,35,44,34,40,42,42,38,36,19,20,8,9,0.7,0.9
2026-03-13T1300,2599A,100.2497,26.8802,丽江市,丽江古城,细颗粒物(PM2.5),68,55,49,44,36,97,97,79,79,12,12,12,12,0.4,0.5
2026-03-13T1300,2600A,100.2203,26.8906,丽江市,市中心,细颗粒物(PM2.5),56,52,39,38,36,98,98,80,80,13,15,8,9,0.5,0.5
2026-03-13T1300,1267A,119.9141,28.4513,丽水市,监测站大楼,,50,44,37,35,28,126,126,73,73,10,18,5,6,0.3,0.2
2026-03-13T1300,1268A,119.93,28.4589,丽水市,莲都小学,颗粒物(PM10),51,51,42,34,28,124,124,65,65,9,21,/,/,/,/
2026-03-13T1300,1269A,119.8794,28.4232,丽水市,余庄前,,48,47,38,33,26,125,125,59,59,10,16,4,4,0.3,0.3
2026-03-13T1300,1173A,119.1759,34.5885,连云港市,市环境监测站,细颗粒物(PM2.5),82,63,89,51,74,120,120,74,74,21,33,10,9,0.6,0.6
2026-03-13T1300,3000A,119.3577,34.6971,连云港市,德源药业,细颗粒物(PM2.5),82,61,110,51,70,123,123,64,64,17,42,7,7,1.0,1.1
2026-03-13T1300,3007A,119.178,34.8442,连云港市,新城一中,细颗粒物(PM2.5),101,85,108,61,92,117,117,60,60,23,53,8,7,0.5,0.6
2026-03-13T1300,3008A,119.3607,34.7519,连云港市,胡沟管理处,细颗粒物(PM2.5),110,95,99,70,73,86,86,65,65,40,58,6,8,0.6,0.6
2026-03-13T1300,3009A,119.1478,34.5913,连云港市,矿山设计院,细颗粒物(PM2.5),82,66,99,51,72,124,124,69,69,30,40,8,9,0.7,0.8
2026-03-13T1300,3434A,119.2414,34.6539,连云港市,工贸学校,细颗粒物(PM2.5),88,74,76,54,61,123,123,113,113,21,16,11,10,0.6,0.7
2026-03-13T1300,3664A,119.4171,34.734,连云港市,连云街道,细颗粒物(PM2.5),112,108,82,73,61,88,88,71,63,52,35,8,7,0.6,0.6
2026-03-13T1300,2573A,102.2629,27.8981,凉山彝族自治州,西昌市政府,NA,NA,NA,36,36,31,77,77,83,74,7,7,NA,8,0.7,0.8
2026-03-13T1300,2574A,102.2686,27.885,凉山彝族自治州,凉山州政府,细颗粒物(PM2.5),58,NA,34,39,34,71,71,77,69,7,7,8,10,0.7,0.8
2026-03-13T1300,4229A,102.2342,27.8859,凉山彝族自治州,凯乐南路30号,,42,32,39,29,31,81,81,82,77,11,11,12,12,1.1,1
2026-03-13T1300,2212A,123.1978,41.2036,辽阳市,宏伟区,NA,NA,84,90,46,63,98,98,94,94,8,20,NA,10,NA,0.7
2026-03-13T1300,2213A,123.1684,41.2497,辽阳市,新华园,颗粒物(PM10),73,81,110,40,82,112,112,82,82,13,33,10,12,0.4,0.9
2026-03-13T1300,2214A,123.2355,41.2663,辽阳市,滨河路,颗粒物(PM10),82,94,88,41,68,94,94,81,81,18,30,6,9,0.7,0.8
2026-03-13T1300,4083A,123.153,41.2874,辽阳市,铁西路150号,颗粒物(PM10),95,112,111,42,77,105,105,80,80,13,37,10,13,0.6,0.9
2026-03-13T1300,2227A,125.1359,42.8845,辽源市,环保局,,39,39,82,15,59,106,106,70,70,6,32,4,9,0.7,1.1
2026-03-13T1300,4085A,125.0998,42.9134,辽源市,安宁大街333号,颗粒物(PM10),57,59,86,18,65,108,108,75,75,6,23,6,9,0.5,0.9
2026-03-13T1300,1625A,115.9789,36.4372,聊城市,区政府,细颗粒物(PM2.5),156,139,126,119,93,123,123,74,74,15,28,12,13,0.9,1
2026-03-13T1300,3200A,115.9772,36.4986,聊城市,监控中心,细颗粒物(PM2.5),156,155,136,119,92,136,136,89,89,17,32,11,13,0.8,0.9
2026-03-13T1300,3513A,116.0443,36.436,聊城市,九州社区,细颗粒物(PM2.5),150,132,121,114,88,138,138,87,87,19,36,2,5,0.8,0.8
2026-03-13T1300,4018A,116.0564,36.4609,聊城市,星美广场,细颗粒物(PM2.5),155,152,136,118,93,127,127,87,87,8,28,4,7,0.9,0.8
2026-03-13T1300,4113A,116.0091,36.4495,聊城市,利民路,细颗粒物(PM2.5),148,132,130,112,86,138,138,86,86,16,31,6,11,0.8,0.9
2026-03-13T1300,2632A,94.3683,29.6373,林芝市,林芝监测站,,30,8,16,3,11,96,96,93,84,2,2,5,4,0.5,0.4
2026-03-13T1300,2633A,94.3616,29.6634,林芝市,林芝人民医院,NA,NA,9,17,3,14,96,96,92,85,NA,3,6,3,NA,0.5
2026-03-13T1300,2603A,100.0779,23.8981,临沧市,市环保局,,32,NA,38,22,36,70,70,83,81,10,7,5,6,0.8,0.7
2026-03-13T1300,2604A,100.0894,23.882,临沧市,市气象局,,40,NA,36,28,35,72,72,83,81,11,9,7,7,0.5,0.5
2026-03-13T1300,1733A,111.5552,36.0791,临汾市,临钢医院,细颗粒物(PM2.5),156,160,115,119,85,110,110,92,92,25,21,7,8,0.8,0.7
2026-03-13T1300,1734A,111.4984,36.0734,临汾市,技工学校,细颗粒物(PM2.5),178,NA,97,134,88,108,108,91,91,24,22,8,7,0.9,0.8
2026-03-13T1300,1736A,111.5017,36.0857,临汾市,市委,细颗粒物(PM2.5),144,139,119,108,77,113,113,97,97,21,22,6,5,0.9,0.8
2026-03-13T1300,3018A,111.5048,36.1015,临汾市,唐尧大酒店,细颗粒物(PM2.5),149,141,114,113,77,112,112,94,94,21,22,8,8,0.9,0.7
2026-03-13T1300,4244A,111.4879,36.053,临汾市,启星学校,细颗粒物(PM2.5),152,128,95,116,82,110,110,95,95,24,25,5,5,0.9,0.7
2026-03-13T1300,4271A,103.2464,35.6123,临夏回族自治州,滨河东路1号,颗粒物(PM10),167,283,349,73,93,56,56,51,51,10,13,6,8,0.4,0.4
2026-03-13T1300,4310A,103.207136,35.599807,临夏回族自治州,新华街21号,颗粒物(PM10),164,278,358,71,81,53,53,60,57,8,5,4,6,0.3,0.3
2026-03-13T1300,1618A,118.3429,35.0532,临沂市,沂河小区,细颗粒物(PM2.5),110,90,113,71,88,125,125,69,69,18,32,15,14,0.5,0.6
2026-03-13T1300,1619A,118.2962,35.0568,临沂市,鲁南制药厂,细颗粒物(PM2.5),108,NA,108,68,87,132,132,90,90,24,30,NA,15,0.4,0.5
2026-03-13T1300,1620A,118.2793,34.9976,临沂市,新光毛纺厂,细颗粒物(PM2.5),110,85,113,70,92,127,127,74,74,25,40,14,17,0.5,0.6
2026-03-13T1300,1621A,118.3955,35.0889,临沂市,河东保险公司,细颗粒物(PM2.5),108,73,112,68,85,137,137,70,70,23,48,12,10,0.5,0.7
2026-03-13T1300,3370A,118.3563,35.0215,临沂市,十里堡居委,细颗粒物(PM2.5),108,73,114,68,90,133,133,73,73,22,40,14,15,0.4,0.6
2026-03-13T1300,3496A,118.359,35.1067,临沂市,南坊新区,细颗粒物(PM2.5),108,85,104,68,82,138,138,72,72,21,36,14,11,0.5,0.5
2026-03-13T1300,3860A,118.3915,35.0297,临沂市,皇山花园小区,细颗粒物(PM2.5),104,75,114,64,93,134,134,76,76,17,43,13,15,0.4,0.6
2026-03-13T1300,1870A,109.4854,24.3898,柳州市,柳东小学,颗粒物(PM10),52,52,39,22,28,131,131,114,114,7,9,6,6,0.5,0.5
2026-03-13T1300,1871A,109.4109,24.3304,柳州市,环保监测站,,39,33,40,21,26,123,123,96,96,12,14,5,6,0.6,0.7
2026-03-13T1300,1872A,109.3886,24.3408,柳州市,河西水厂,NA,NA,60,61,24,33,134,134,72,72,NA,22,NA,9,0.4,0.7
2026-03-13T1300,1873A,109.4263,24.2951,柳州市,市四中,,49,49,47,23,31,123,123,102,102,9,15,8,8,0.5,0.5
2026-03-13T1300,1874A,109.396,24.3658,柳州市,市九中,,41,36,50,23,33,130,130,88,88,8,14,9,10,0.6,0.7
2026-03-13T1300,1875A,109.4912,24.3164,柳州市,古亭山,,46,46,41,24,29,125,125,107,107,6,12,8,9,0.6,0.6
2026-03-13T1300,3402A,109.5422,24.3994,柳州市,市二中,,41,36,49,24,34,130,130,99,99,10,17,9,8,0.5,0.6
2026-03-13T1300,2307A,116.5078,31.7369,六安市,监测大楼,细颗粒物(PM2.5),80,56,66,50,56,121,121,86,86,16,21,6,6,0.5,0.6
2026-03-13T1300,2308A,116.4738,31.7642,六安市,皖西学院,细颗粒物(PM2.5),82,65,75,51,57,127,127,96,96,11,19,4,5,0.4,0.5
2026-03-13T1300,2309A,116.4997,31.7904,六安市,朝阳厂,细颗粒物(PM2.5),76,50,68,48,55,119,119,88,88,17,28,6,6,0.4,0.5
2026-03-13T1300,2310A,116.5566,31.7885,六安市,开发区,细颗粒物(PM2.5),80,50,72,50,60,129,129,91,91,7,15,5,5,0.3,0.4
2026-03-13T1300,2577A,104.8293,26.592,六盘水市,黄土坡,,38,37,33,26,25,72,72,68,68,13,12,4,5,0.5,0.6
2026-03-13T1300,2579A,104.8481,26.5898,六盘水市,民中,,36,34,33,25,25,70,70,69,68,8,9,4,4,0.5,0.6
2026-03-13T1300,2580A,104.9541,26.5506,六盘水市,双水,,40,34,38,28,25,70,70,70,65,10,8,4,3,0.3,0.3
2026-03-13T1300,4151A,104.8899,26.5685,六盘水市,钟山大道中段564号,NA,NA,44,38,25,23,70,70,73,70,NA,6,6,6,0.7,0.7
2026-03-13T1300,2336A,117.022,25.1031,龙岩市,龙岩市监测站,,41,33,30,23,22,131,131,114,114,7,9,7,10,0.4,0.4
2026-03-13T1300,2337A,117.0257,25.0662,龙岩市,闽西职业技术学院,,42,33,30,20,21,134,134,115,115,7,7,8,7,0.5,0.4
2026-03-13T1300,2338A,117.0195,25.0306,龙岩市,龙岩学院,,42,32,30,18,20,132,132,113,113,6,7,6,5,/,/
2026-03-13T1300,2885A,104.9344,33.3827,陇南市,滨江中学,,35,35,36,3,6,63,63,74,58,12,10,6,6,0.7,0.6
2026-03-13T1300,3247A,104.9551,33.3709,陇南市,市总工会,NA,NA,27,28,10,7,57,57,72,57,5,9,6,5,NA,0.7
2026-03-13T1300,2488A,111.9984,27.7346,娄底市,市监测站,,42,36,71,18,49,133,133,68,68,11,28,6,7,0.3,0.6
2026-03-13T1300,2491A,111.9888,27.7035,娄底市,市政府,,38,32,61,17,42,121,121,54,54,7,11,7,3,0.2,0.4
2026-03-13T1300,4127A,111.9812,27.7591,娄底市,涟钢职大,,43,17,66,3,49,137,137,79,79,9,12,3,3,0.2,0.5
2026-03-13T1300,4128A,112.0303,27.7457,娄底市,娄底体校,,37,29,70,16,45,117,117,59,59,4,10,4,3,0.3,0.6
2026-03-13T1300,1894A,105.4427,28.9063,泸州市,小市上码头,细颗粒物(PM2.5),68,53,51,44,43,68,68,38,31,20,24,8,10,0.6,0.6
2026-03-13T1300,1895A,105.4241,28.8573,泸州市,兰田宪桥,NA,NA,58,62,38,40,NA,NA,42,27,15,18,9,10,0.5,0.7
2026-03-13T1300,1896A,105.4378,28.8833,泸州市,市环监站,细颗粒物(PM2.5),60,60,61,40,43,72,72,55,37,24,25,7,8,0.7,0.7
2026-03-13T1300,4272A,105.3689,28.7783,泸州市,纳溪中医医院,细颗粒物(PM2.5),80,NA,72,50,63,74,74,32,30,16,20,7,8,0.7,0.8
2026-03-13T1300,2183A,111.1447,37.5212,吕梁市,环保局,细颗粒物(PM2.5),103,82,79,63,51,88,88,59,59,23,28,6,8,0.3,0.5
2026-03-13T1300,2185A,111.1285,37.5338,吕梁市,自来水公司,细颗粒物(PM2.5),106,81,77,66,47,88,88,78,69,27,24,6,8,0.6,0.6
2026-03-13T1300,2867A,111.1225,37.5093,吕梁市,马茂庄小学,细颗粒物(PM2.5),90,83,80,55,43,96,96,64,64,18,30,4,6,0.6,0.6
2026-03-13T1300,1812A,112.3934,34.6517,洛阳市,市委党校,细颗粒物(PM2.5),142,126,144,106,134,102,102,71,71,25,34,13,8,0.8,0.9
2026-03-13T1300,1815A,112.494,34.6883,洛阳市,河南林校,细颗粒物(PM2.5),140,111,141,104,130,115,115,86,86,24,34,11,11,0.6,0.7
2026-03-13T1300,1816A,112.3843,34.623,洛阳市,开发区管委会,细颗粒物(PM2.5),146,159,168,110,126,98,98,76,76,28,28,13,9,0.7,0.7
2026-03-13T1300,1817A,112.4263,34.6249,洛阳市,市委新办公区,细颗粒物(PM2.5),166,156,168,126,138,105,105,81,81,34,34,13,9,0.7,0.7
2026-03-13T1300,3340A,112.6005,34.6323,洛阳市,伊滨,细颗粒物(PM2.5),158,NA,157,120,128,109,109,68,68,30,38,9,7,0.6,0.5
2026-03-13T1300,3341A,112.495,34.6338,洛阳市,中移产业园,细颗粒物(PM2.5),146,130,151,110,138,105,105,72,72,23,31,11,9,0.6,0.7
2026-03-13T1300,3593A,112.5736,34.8993,洛阳市,吉利监测站,细颗粒物(PM2.5),153,NA,124,117,128,127,127,77,77,22,31,10,9,0.7,0.7
2026-03-13T1300,3635A,112.3678,34.6623,洛阳市,河科大西苑校区,细颗粒物(PM2.5),137,120,151,100,133,106,106,69,69,17,28,13,9,0.7,0.8
2026-03-13T1300,3636A,112.4387,34.678,洛阳市,英才小学,细颗粒物(PM2.5),147,142,161,111,129,114,114,87,87,27,35,12,9,0.8,0.8
2026-03-13T1300,4214A,112.460027,34.694929,洛阳市,春都路1号院,细颗粒物(PM2.5),139,135,158,102,129,112,112,88,88,21,27,12,9,0.8,0.8
2026-03-13T1300,2399A,114.051,33.5721,漯河市,三五一五工厂,细颗粒物(PM2.5),104,108,174,64,130,107,107,82,82,16,26,6,5,0.6,0.7
2026-03-13T1300,2400A,114.0055,33.5698,漯河市,漯河大学,细颗粒物(PM2.5),102,84,145,62,126,115,115,88,88,14,22,7,6,0.7,0.8
2026-03-13T1300,2401A,114.0134,33.5826,漯河市,市水利局,细颗粒物(PM2.5),110,73,144,70,126,113,113,88,88,15,22,6,6,0.6,0.7
2026-03-13T1300,2402A,114.0261,33.5697,漯河市,市广电局,NA,NA,NA,148,NA,130,100,100,73,73,NA,23,NA,6,0.6,0.7
2026-03-13T1300,3478A,113.9691,33.568,漯河市,市图书馆,细颗粒物(PM2.5),104,103,170,64,123,108,108,82,82,15,19,7,6,0.6,0.5
2026-03-13T1300,4250A,114.089259,33.588274,漯河市,韶山路11号,细颗粒物(PM2.5),103,104,162,63,124,103,103,70,70,NA,31,9,8,NA,0.8
2026-03-13T1300,1798A,118.5084,31.6838,马鞍山市,湖东路四小,,35,34,74,24,56,106,106,71,71,14,24,7,7,0.3,0.5
2026-03-13T1300,1799A,118.5019,31.6449,马鞍山市,开发区,,40,32,80,28,60,109,109,71,71,15,24,7,5,0.5,0.5
2026-03-13T1300,3633A,118.4914,31.681,马鞍山市,雨山,,42,42,82,26,60,110,110,76,76,11,20,9,8,0.4,0.5
2026-03-13T1300,4191A,118.527362,31.722269,马鞍山市,慈湖高新区,,42,37,78,29,58,108,108,72,72,19,23,6,5,0.3,0.5
2026-03-13T1300,1686A,111.0285,21.469,茂名市,电白南海,颗粒物(PM10),68,75,56,17,26,132,132,102,102,13,17,6,7,0.5,0.7
2026-03-13T1300,1687A,110.9294,21.6533,茂名市,茂石化七小,颗粒物(PM10),55,56,48,20,27,129,129,106,102,14,19,7,8,0.5,0.6
2026-03-13T1300,1688A,110.9108,21.6688,茂名市,健康路,颗粒物(PM10),51,51,41,18,24,136,136,117,113,14,18,5,7,0.6,0.7
2026-03-13T1300,1689A,110.8592,21.6826,茂名市,高岭,颗粒物(PM10),58,61,61,19,26,134,134,112,112,16,23,5,8,/,/
2026-03-13T1300,3450A,111.0101,21.5165,茂名市,电白水东,颗粒物(PM10),60,63,48,21,25,126,126,105,102,13,17,4,6,/,/
2026-03-13T1300,2540A,103.8414,30.0871,眉山市,气象局,,49,49,50,34,33,43,43,38,32,26,22,7,7,0.6,0.6
2026-03-13T1300,3148A,103.829,30.0563,眉山市,区人社局,颗粒物(PM10),53,53,55,31,31,41,41,41,34,30,26,9,9,0.7,0.7
2026-03-13T1300,4148A,103.8836,30.0695,眉山市,眉职院,,46,46,53,28,31,50,50,38,37,19,25,6,6,0.7,0.7
2026-03-13T1300,1690A,116.1248,24.3307,梅州市,梅江月梅,,38,32,39,17,25,120,120,95,95,10,16,/,/,/,/
2026-03-13T1300,1691A,116.0798,24.2719,梅州市,梅县新城,,40,33,48,20,27,127,127,104,104,12,21,9,9,0.5,0.6
2026-03-13T1300,3315A,116.1234,24.2994,梅州市,梅龙,,40,34,42,18,23,128,128,110,110,9,12,7,7,0.7,0.6
2026-03-13T1300,1878A,104.7775,31.4741,绵阳市,富乐山,,46,43,36,32,24,68,68,64,64,10,10,6,6,0.6,0.6
2026-03-13T1300,1880A,104.6698,31.4668,绵阳市,高新区自来水公司,细颗粒物(PM2.5),52,42,37,36,24,71,71,65,65,11,14,7,8,0.2,0.3
2026-03-13T1300,3491A,104.6899,31.5324,绵阳市,西科大附属小学,,49,40,40,34,27,67,67,58,58,14,19,6,6,0.6,0.6
2026-03-13T1300,3492A,104.5647,31.5343,绵阳市,安州区旅游局,,49,41,35,34,24,73,73,67,65,6,9,8,6,0.5,0.6
2026-03-13T1300,4146A,104.7092,31.4972,绵阳市,科技城新区公安局,NA,NA,48,40,33,24,NA,NA,56,56,NA,16,9,8,0.7,0.6
2026-03-13T1300,4226A,104.765114,31.453094,绵阳市,绵阳市气象局,,49,36,36,34,26,65,65,62,62,14,16,8,8,0.6,0.6
2026-03-13T1300,1784A,129.61,44.561,牡丹江市,环保大楼,,34,34,60,18,45,103,103,59,59,7,27,2,7,0.3,0.6
2026-03-13T1300,1787A,129.6364,44.6075,牡丹江市,机车工厂,,47,47,86,29,46,101,101,61,61,11,28,9,15,0.5,0.6
2026-03-13T1300,1788A,129.6386,44.5462,牡丹江市,第一中学,,31,31,44,12,32,96,96,56,56,6,28,2,5,0.2,0.5
2026-03-13T1300,4287A,129.5992,44.5964,牡丹江市,东晓云街98号,,36,36,69,11,47,99,99,60,60,9,23,2,8,0.4,0.6
2026-03-13T1300,2531A,105.0703,29.61,内江市,市监测站,细颗粒物(PM2.5),74,NA,42,47,35,41,41,48,38,12,15,7,7,0.6,0.5
2026-03-13T1300,2533A,105.0657,29.5807,内江市,内江二中,细颗粒物(PM2.5),68,57,56,44,36,39,39,49,40,21,19,8,9,0.5,0.5
2026-03-13T1300,2534A,105.0407,29.5828,内江市,内江日报社,细颗粒物(PM2.5),66,NA,44,43,37,41,41,50,43,19,16,11,12,0.5,0.5
2026-03-13T1300,4147A,105.0433,29.6105,内江市,玉峰路西段888号,细颗粒物(PM2.5),74,48,45,47,39,46,46,56,47,16,16,7,9,0.4,0.4
2026-03-13T1300,2628A,92.0653,31.4846,那曲市,那曲监测站,,38,38,51,17,32,89,89,74,74,12,23,5,8,0.5,1
2026-03-13T1300,4243A,92.0515,31.4787,那曲市,那曲市委宣传部,NA,NA,NA,31,NA,19,102,102,87,87,NA,13,NA,8,0.4,0.7
2026-03-13T1300,1291A,115.8887,28.7006,南昌市,省林业公司,,46,34,52,32,32,121,121,87,87,10,16,4,5,0.4,0.6
2026-03-13T1300,1292A,115.813,28.7443,南昌市,林科所,,45,36,44,31,30,129,129,104,104,14,13,8,9,0.5,0.6
2026-03-13T1300,1294A,115.8518,28.687,南昌市,建工学校,,40,40,54,28,31,120,120,95,95,14,20,8,9,0.4,0.5
2026-03-13T1300,1295A,115.8926,28.6425,南昌市,象湖,,40,37,49,25,34,126,126,96,96,12,13,8,9,0.4,0.6
2026-03-13T1300,3046A,115.9084,28.6062,南昌市,机电学校,颗粒物(PM10),58,61,60,33,34,128,128,97,97,14,15,10,7,0.7,0.5
2026-03-13T1300,3690A,115.9718,28.7032,南昌市,外国语学校,,48,41,55,33,37,128,128,94,94,14,18,7,8,0.4,0.5
2026-03-13T1300,4106A,115.7923,28.6873,南昌市,工业二路,,46,46,56,30,35,134,134,107,107,13,16,4,5,0.4,0.5
2026-03-13T1300,4192A,115.931587,28.686774,南昌市,南京东路235号,,43,42,56,30,33,128,128,95,95,14,17,6,7,0.5,0.5
2026-03-13T1300,1906A,106.0791,30.8022,南充市,南充市委,细颗粒物(PM2.5),70,58,62,45,41,33,33,42,36,24,26,6,6,0.6,0.5
2026-03-13T1300,1907A,106.1038,30.8215,南充市,南充炼油厂,细颗粒物(PM2.5),60,60,59,40,38,41,41,47,39,15,22,5,5,0.5,0.5
2026-03-13T1300,4227A,106.108336,30.788436,南充市,梨树横街98号,细颗粒物(PM2.5),70,62,58,45,40,41,41,54,46,23,20,5,6,0.4,0.4
2026-03-13T1300,4304A,106.1172,30.843,南充市,清泉寺北路188号,细颗粒物(PM2.5),56,54,53,38,39,46,46,57,46,12,13,5,6,0.4,0.4
2026-03-13T1300,4305A,106.067,30.7616,南充市,同庆路1号,细颗粒物(PM2.5),64,51,54,42,40,40,40,50,42,21,25,6,7,0.6,0.6
2026-03-13T1300,1151A,118.8033,32.1085,南京市,迈皋桥,,40,40,73,23,56,124,124,92,92,1,13,1,2,0.3,0.3
2026-03-13T1300,1152A,118.7487,32.057,南京市,草场门,,45,39,67,31,47,114,114,85,85,17,28,8,7,0.8,1
2026-03-13T1300,1154A,118.770105,32.004342,南京市,中华门,,39,39,71,25,56,120,120,82,82,10,17,4,5,0.4,0.5
2026-03-13T1300,1155A,118.8059,32.0329,南京市,瑞金路,,45,41,74,31,61,121,121,89,89,8,23,4,4,0.7,0.8
2026-03-13T1300,1156A,118.7946,32.0774,南京市,玄武湖,,39,31,74,19,52,123,123,89,89,3,19,9,8,0.6,0.7
2026-03-13T1300,1157A,118.6415,32.0964,南京市,浦口,,42,42,92,24,63,105,105,64,64,20,30,5,6,0.4,0.5
2026-03-13T1300,1158A,118.730129,32.000956,南京市,奥体中心,,39,34,76,18,51,122,122,83,83,16,27,12,12,0.4,0.4
2026-03-13T1300,1159A,118.9072,32.1047,南京市,仙林大学城,,41,41,74,22,54,116,116,82,82,11,24,7,6,0.5,0.6
2026-03-13T1300,3422A,118.8443,31.919,南京市,江宁彩虹桥,颗粒物(PM10),53,53,82,26,52,129,129,89,89,22,19,3,3,0.7,0.7
2026-03-13T1300,3427A,118.8497,32.3599,南京市,六合雄州,NA,NA,48,81,28,55,NA,NA,50,50,22,27,4,4,NA,0.6
2026-03-13T1300,4086A,118.7641,32.0841,南京市,新模范马路66号,,39,39,75,13,52,123,123,92,92,11,22,4,4,0.6,0.7
2026-03-13T1300,4249A,118.8707617,31.34017673,南京市,汶溪路181号,细颗粒物(PM2.5),56,56,85,38,62,122,122,71,71,16,25,7,9,0.1,0.2
2026-03-13T1300,4312A,119.019,31.6512,南京市,中山西路1号,颗粒物(PM10),51,51,64,32,51,102,102,68,68,12,16,4,4,0.3,0.4
2026-03-13T1300,1401A,108.3098,22.788,南宁市,二十一中,细颗粒物(PM2.5),72,64,57,46,48,135,135,56,56,11,36,8,6,0.6,0.7
2026-03-13T1300,1402A,108.3135,22.8529,南宁市,北湖,细颗粒物(PM2.5),88,NA,57,54,47,143,143,58,58,13,41,5,5,0.8,0.8
2026-03-13T1300,1403A,108.3205,22.8222,南宁市,市监测站,细颗粒物(PM2.5),84,71,57,52,43,146,146,63,63,17,43,10,8,0.8,0.9
2026-03-13T1300,1404A,108.3828,22.8038,南宁市,大自然花园,细颗粒物(PM2.5),66,69,51,43,35,152,152,74,74,13,24,8,7,0.6,0.6
2026-03-13T1300,1406A,108.2397,22.8462,南宁市,区农职院,细颗粒物(PM2.5),64,44,49,42,35,138,138,16,NA,11,25,8,6,0.7,0.6
2026-03-13T1300,1407A,108.3285,22.7356,南宁市,英华嘉园,NA,NA,89,70,NA,48,142,142,36,36,12,42,NA,4,0.7,0.9
2026-03-13T1300,3401A,108.4829,22.762,南宁市,红星社区,细颗粒物(PM2.5),68,55,53,44,48,145,145,57,57,12,30,7,6,0.7,0.7
2026-03-13T1300,4132A,108.2927,23.1477,南宁市,起凤路9号,,48,42,55,33,43,126,126,53,53,8,26,6,3,0.9,0.9
2026-03-13T1300,4221A,108.2177,22.7774,南宁市,乐贤路16号,NA,NA,49,59,45,40,132,132,52,52,NA,37,6,5,0.5,0.6
2026-03-13T1300,2332A,118.1682,26.6371,南平市,南平市监测站,细颗粒物(PM2.5),60,59,35,40,24,128,128,92,91,10,13,4,5,0.5,0.5
2026-03-13T1300,2334A,118.1757,26.6276,南平市,南平七中,颗粒物(PM10),55,56,38,37,22,132,132,98,96,10,10,3,4,0.5,0.4
2026-03-13T1300,1168A,120.9056,31.9669,南通市,狼山街道,细颗粒物(PM2.5),70,70,60,45,41,93,93,85,85,35,15,6,4,0.8,0.5
2026-03-13T1300,1170A,120.8635,32.0231,南通市,城中,颗粒物(PM10),72,80,68,39,44,105,105,92,92,30,17,2,2,0.7,0.5
2026-03-13T1300,1171A,120.9376,31.9301,南通市,星湖花园,颗粒物(PM10),65,70,61,39,45,103,103,87,87,25,14,6,4,0.7,0.5
2026-03-13T1300,1172A,120.8053,32.046,南通市,紫琅学院,细颗粒物(PM2.5),70,71,62,45,42,110,110,93,93,28,18,5,4,0.7,0.6
2026-03-13T1300,3291A,121.0631,32.0644,南通市,通州监测站,,45,44,53,31,37,124,124,89,89,13,16,5,3,0.8,0.6
2026-03-13T1300,3432A,120.9348,31.9874,南通市,环境教育馆,,48,48,57,25,69,119,119,88,88,15,18,5,3,0.8,0.5
2026-03-13T1300,4091A,120.8692,31.9885,南通市,洪江路,细颗粒物(PM2.5),72,67,60,46,44,90,90,88,88,35,13,5,3,0.8,0.6
2026-03-13T1300,2404A,112.5338,33.0086,南阳市,瓦房庄,细颗粒物(PM2.5),96,87,112,58,93,120,120,106,99,14,16,5,5,0.7,0.7
2026-03-13T1300,2405A,112.5002,32.9734,南阳市,汉画馆,细颗粒物(PM2.5),119,94,122,80,104,124,124,112,104,20,23,6,5,0.7,0.7
2026-03-13T1300,2406A,112.5778,33.0144,南阳市,气象站,细颗粒物(PM2.5),101,100,142,61,97,121,121,101,97,16,20,6,6,0.6,0.8
2026-03-13T1300,2407A,112.548,32.9687,南阳市,理工学院,细颗粒物(PM2.5),98,85,119,59,104,119,119,103,98,15,18,7,6,0.6,0.7
2026-03-13T1300,4008A,112.5233,32.9921,南阳市,卧龙区政府,细颗粒物(PM2.5),105,96,128,65,99,117,117,106,101,15,17,7,6,0.6,0.7
2026-03-13T1300,1234A,121.8352,29.9111,宁波市,区环保大楼,细颗粒物(PM2.5),62,61,60,41,38,114,114,103,103,28,23,8,6,0.4,0.4
2026-03-13T1300,1235A,121.5595,29.8208,宁波市,万里学院,细颗粒物(PM2.5),56,57,61,38,38,123,123,101,101,13,16,4,5,0.4,0.4
2026-03-13T1300,1236A,121.713,29.9564,宁波市,龙赛医院,颗粒物(PM10),55,56,57,35,32,116,116,101,101,12,15,4,4,0.6,0.5
2026-03-13T1300,1240A,121.5855,29.8635,宁波市,太古小学,颗粒物(PM10),54,55,67,35,36,130,130,107,107,17,20,5,5,0.4,0.4
2026-03-13T1300,1241A,121.5239,29.8673,宁波市,市环境监测中心,颗粒物(PM10),54,55,55,34,36,117,117,96,96,13,17,4,7,0.4,0.4
2026-03-13T1300,2871A,121.6156,29.9015,宁波市,万里国际学校,,49,39,44,34,34,130,130,102,102,14,19,9,6,0.4,0.4
2026-03-13T1300,3710A,121.5593,29.8976,宁波市,白沙活动中心,,50,47,45,35,36,122,122,105,105,13,15,4,7,0.5,0.4
2026-03-13T1300,4095A,121.8962,29.7529,宁波市,中科路88号,,50,43,50,35,38,121,121,104,104,18,20,6,6,0.5,0.5
2026-03-13T1300,2341A,119.5387,26.6611,宁德市,宁德市监测站,,39,NA,29,27,19,119,119,87,87,14,13,13,5,0.6,0.4
2026-03-13T1300,3209A,119.5231,26.6562,宁德市,宁德一中,,43,35,32,30,21,116,116,84,84,15,12,15,5,0.7,0.4
2026-03-13T1300,2618A,98.859,25.8541,怒江傈僳族自治州,州监测站,细颗粒物(PM2.5),52,50,44,36,31,70,70,64,53,7,4,8,8,0.1,0.2
2026-03-13T1300,2619A,98.8607,25.8168,怒江傈僳族自治州,泸水一中,细颗粒物(PM2.5),64,50,39,42,33,64,64,52,44,14,14,6,5,0.6,0.6
2026-03-13T1300,1888A,101.6891,26.571,攀枝花市,弄弄坪,,29,28,38,18,19,92,92,70,64,10,13,20,13,0.8,0.8
2026-03-13T1300,1889A,101.577,26.5914,攀枝花市,河门口,,37,37,39,24,25,95,95,68,53,10,12,16,11,0.9,0.7
2026-03-13T1300,1891A,101.7365,26.4986,攀枝花市,仁和,,36,32,28,25,22,85,85,84,78,7,6,8,8,0.7,0.5
2026-03-13T1300,2835A,101.7222,26.567,攀枝花市,四十中小,,32,32,41,18,19,83,83,71,62,10,12,16,16,0.9,0.8
2026-03-13T1300,1604A,122.0303,41.1489,盘锦市,开发区,细颗粒物(PM2.5),111,110,60,72,45,122,122,84,84,18,31,9,7,0.8,0.7
2026-03-13T1300,1605A,122.0486,41.0883,盘锦市,兴隆台,细颗粒物(PM2.5),110,93,50,70,43,120,120,80,80,19,47,10,8,0.7,0.6
2026-03-13T1300,1606A,121.8297,41.1026,盘锦市,新生街道,,43,43,40,14,29,100,100,79,79,14,37,6,7,0.4,0.5
2026-03-13T1300,1832A,113.3257,33.7423,平顶山市,新华旅馆,细颗粒物(PM2.5),127,137,168,89,126,99,99,73,73,22,34,26,9,0.6,0.6
2026-03-13T1300,1833A,113.2917,33.737,平顶山市,规划设计院,细颗粒物(PM2.5),128,138,177,90,125,102,102,83,83,NA,30,16,8,0.7,0.6
2026-03-13T1300,1834A,113.182,33.7738,平顶山市,平顶山工学院,细颗粒物(PM2.5),117,104,158,78,116,114,114,82,82,14,24,5,4,0.4,0.5
2026-03-13T1300,3594A,112.8736,33.9068,平顶山市,石龙区,NA,NA,106,166,NA,128,123,123,69,69,22,51,7,7,0.6,0.6
2026-03-13T1300,4116A,113.284,33.7139,平顶山市,姚电大道23号,NA,NA,NA,172,NA,126,NA,NA,135,87,NA,26,NA,8,NA,0.5
2026-03-13T1300,2656A,106.6633,35.5338,平凉市,聚贤嘉苑,颗粒物(PM10),500,942,519,220,158,71,71,68,68,10,17,5,5,0.5,0.7
2026-03-13T1300,2657A,106.7021,35.5307,平凉市,博物馆,颗粒物(PM10),500,879,497,224,168,69,69,66,66,9,17,8,9,0.4,0.7
2026-03-13T1300,2348A,113.8384,27.6436,萍乡市,中医院,,49,49,44,13,21,137,137,106,106,12,13,5,5,0.3,0.2
2026-03-13T1300,2350A,113.8677,27.6438,萍乡市,市环保局,,40,40,40,19,26,127,127,93,93,4,8,3,7,0.6,0.6
2026-03-13T1300,2351A,113.8663,27.6202,萍乡市,安源区政府,,39,39,44,12,26,114,114,75,75,11,15,8,7,0.5,0.6
2026-03-13T1300,4107A,113.8686,27.6668,萍乡市,联洪村委会,,36,33,40,18,24,115,115,89,89,5,8,3,3,0.2,0.2
2026-03-13T1300,2319A,119.0142,25.4324,莆田市,荔城区仓后路,细颗粒物(PM2.5),54,50,40,37,24,132,132,113,113,17,13,/,/,/,/
2026-03-13T1300,2320A,119.0016,25.4553,莆田市,莆田市监测站,,44,44,34,26,20,135,135,118,116,14,9,4,3,0.3,0.3
2026-03-13T1300,2321A,119.112,25.4561,莆田市,涵江区六中,,45,45,41,31,24,135,135,120,118,13,11,/,/,0.6,0.5
2026-03-13T1300,2322A,119.1014,25.3215,莆田市,秀屿区政府,细颗粒物(PM2.5),60,53,41,40,24,135,135,119,119,13,9,5,4,0.4,0.4
2026-03-13T1300,2392A,115.0312,35.7636,濮阳市,环保局,细颗粒物(PM2.5),111,NA,127,72,133,130,130,87,87,15,34,6,7,0.6,0.9
2026-03-13T1300,3021A,115,35.7667,濮阳市,濮水河管理处,细颗粒物(PM2.5),123,121,168,85,134,137,137,92,92,13,25,7,8,0.4,0.5
2026-03-13T1300,4118A,115.0552,35.7816,濮阳市,中原东路68号,细颗粒物(PM2.5),114,121,176,75,134,132,132,89,89,14,31,6,6,0.5,0.8
2026-03-13T1300,4216A,115.0923632,35.76857718,濮阳市,任丘路479号,细颗粒物(PM2.5),120,117,174,81,139,136,136,78,78,24,41,6,7,0.7,1.1
2026-03-13T1300,2601A,100.9801,22.7634,普洱市,市环保局,,38,38,32,22,17,74,74,67,67,6,6,6,6,0.7,0.6
2026-03-13T1300,2602A,100.9763,22.8237,普洱市,普洱第二中学,,39,39,32,24,18,82,82,62,62,6,9,4,4,0.6,0.6
2026-03-13T1300,3345A,131.0413,45.7795,七台河市,中波台,,30,23,32,14,14,94,94,65,65,11,11,15,13,0.3,0.4
2026-03-13T1300,3637A,131.0136,45.7688,七台河市,人民广场,,31,30,37,7,13,99,99,65,65,7,16,8,9,0.3,0.5
2026-03-13T1300,3684A,130.8639,45.8144,七台河市,新建矿广场,颗粒物(PM10),53,53,53,15,25,93,93,59,59,14,23,5,5,0.3,0.3
2026-03-13T1300,1779A,123.9307,47.3641,齐齐哈尔市,安居小区,颗粒物(PM10),88,103,66,45,39,93,93,74,74,16,15,7,5,0.6,0.4
2026-03-13T1300,1780A,123.9497,47.3389,齐齐哈尔市,中心广场,颗粒物(PM10),85,98,68,44,42,86,86,73,73,18,14,9,9,0.7,0.5
2026-03-13T1300,1781A,123.9483,47.3229,齐齐哈尔市,农牧车辆厂,颗粒物(PM10),86,100,78,50,43,91,91,72,72,12,11,8,8,0.3,0.3
2026-03-13T1300,1783A,123.9442,47.2994,齐齐哈尔市,市环境监测站,颗粒物(PM10),87,101,65,43,40,93,93,72,72,13,14,4,5,0.6,0.6
2026-03-13T1300,3662A,123.6341,47.2079,齐齐哈尔市,富区青少年活动中心,颗粒物(PM10),135,211,81,91,41,98,98,76,76,15,10,6,3,0.9,0.6
2026-03-13T1300,2591A,107.9765,26.5724,黔东南苗族侗族自治州,市环境监测站,细颗粒物(PM2.5),58,55,45,39,30,92,92,65,65,14,15,4,4,0.6,0.5
2026-03-13T1300,2881A,107.8909,26.531,黔东南苗族侗族自治州,凯里学院,,46,46,36,31,27,97,97,73,73,13,18,5,4,0.6,0.5
2026-03-13T1300,2593A,107.5223,26.2371,黔南布依族苗族自治州,小围寨,,32,24,25,22,20,91,91,48,48,4,9,7,5,0.6,0.6
2026-03-13T1300,3538A,107.5175,26.2977,黔南布依族苗族自治州,沙坝,,36,36,39,22,24,101,101,40,40,5,10,5,5,0.8,0.8
2026-03-13T1300,2589A,104.9022,25.0943,黔西南布依族苗族自治州,场坝街,,42,NA,39,29,32,101,101,36,36,4,12,4,9,0.5,0.7
2026-03-13T1300,2590A,104.8812,25.0994,黔西南布依族苗族自治州,坪东大道,,39,39,41,26,28,99,99,39,39,7,14,6,6,0.5,0.6
2026-03-13T1300,2502A,108.6238,21.9667,钦州市,市环保站,,46,46,76,19,40,134,134,66,66,8,31,4,6,0.6,0.8
2026-03-13T1300,2503A,108.655,21.9481,钦州市,沙埠小学,,45,42,74,24,48,141,141,67,67,7,35,5,7,0.5,0.7
2026-03-13T1300,2504A,108.5989,21.7435,钦州市,港区一小,NA,NA,NA,71,NA,36,137,137,58,58,NA,35,NA,5,0.4,0.7
2026-03-13T1300,3404A,108.5959,21.9634,钦州市,北职校,,44,39,61,27,44,140,140,63,63,9,27,4,5,0.5,0.8
2026-03-13T1300,1046A,119.5247,39.9346,秦皇岛市,建设大厦,颗粒物(PM10),52,52,62,24,32,90,90,72,72,17,23,12,11,0.6,0.7
2026-03-13T1300,3132A,119.5979,39.938,秦皇岛市,文明里,,49,49,62,29,34,68,68,56,56,35,33,12,12,0.6,0.7
2026-03-13T1300,4066A,119.7458,39.9952,秦皇岛市,南园路157号,颗粒物(PM10),60,64,77,38,40,65,65,46,46,35,58,12,11,0.6,0.7
2026-03-13T1300,4067A,119.5131,39.8858,秦皇岛市,翠岛大街1号,,41,41,66,27,44,72,72,44,44,24,36,10,11,0.5,0.7
2026-03-13T1300,4198A,119.509013,39.825305,秦皇岛市,北戴河轮滑馆,,42,42,74,26,37,69,69,46,46,30,31,10,9,0.5,0.5
2026-03-13T1300,1310A,120.404,36.0625,青岛市,市南区东部子站,细颗粒物(PM2.5),101,70,86,61,60,82,82,48,48,34,40,11,10,0.7,0.8
2026-03-13T1300,1311A,120.362344,36.10282,青岛市,四方区子站,细颗粒物(PM2.5),123,NA,74,85,57,112,112,57,57,25,35,9,7,0.9,0.8
2026-03-13T1300,1312A,120.294373,36.054183,青岛市,市南区西部子站,细颗粒物(PM2.5),92,56,68,56,50,92,92,53,53,22,37,5,4,0.8,0.9
2026-03-13T1300,1313A,120.4581,36.0858,青岛市,崂山区子站,细颗粒物(PM2.5),103,83,85,63,57,83,83,50,50,50,35,11,8,0.7,0.7
2026-03-13T1300,1315A,120.3945,36.3083,青岛市,城阳区子站,颗粒物(PM10),55,56,84,34,52,108,108,55,55,29,42,7,7,0.6,0.8
2026-03-13T1300,3642A,120.3454,36.0735,青岛市,市北区南部,细颗粒物(PM2.5),88,70,77,54,47,106,106,62,62,21,33,6,4,0.7,0.7
2026-03-13T1300,3643A,120.3897,36.18,青岛市,李沧区北部,细颗粒物(PM2.5),56,53,79,38,48,101,101,52,52,26,40,10,9,0.6,0.8
2026-03-13T1300,4110A,120.5222,36.4089,青岛市,盟旺路653号,细颗粒物(PM2.5),110,72,87,70,55,116,116,57,57,15,29,5,5,0.8,1
2026-03-13T1300,4290A,120.196923,35.954556,青岛市,珠江路669号,细颗粒物(PM2.5),117,97,73,78,49,121,121,52,52,25,52,13,7,1.2,0.6
2026-03-13T1300,4291A,120.0424,35.8656,青岛市,黄岛区人民政府广场,细颗粒物(PM2.5),103,80,61,63,39,80,80,52,52,28,27,12,9,0.9,0.7
2026-03-13T1300,1703A,113.0218,23.7086,清远市,凤城街办,,45,39,32,28,18,143,143,114,114,13,15,/,/,/,/
2026-03-13T1300,3025A,113.0479,23.6343,清远市,技师学院,,45,39,36,21,19,142,142,112,112,10,14,7,7,0.4,0.5
2026-03-13T1300,3318A,112.9898,23.7403,清远市,清新太和,NA,NA,41,33,26,20,150,150,116,111,NA,15,8,8,0.4,0.4
2026-03-13T1300,3455A,113.076,23.72,清远市,清城东城,,45,38,36,24,20,141,141,115,115,11,14,/,/,/,/
2026-03-13T1300,2661A,107.6325,35.7357,庆阳市,庆阳五中,颗粒物(PM10),500,815,347,186,125,64,64,67,60,11,15,4,5,0.4,0.5
2026-03-13T1300,2662A,107.6361,35.7067,庆阳市,市环保局,颗粒物(PM10),500,780,350,170,123,70,70,72,65,10,15,6,7,0.3,0.5
2026-03-13T1300,1916A,103.7897,25.5036,曲靖市,环境监测站,,38,37,36,26,28,62,62,69,67,16,14,6,7,0.8,0.8
2026-03-13T1300,1917A,103.8013,25.5357,曲靖市,烟厂办公区,,46,46,36,30,24,57,57,64,61,12,10,4,4,0.7,0.7
2026-03-13T1300,3376A,103.7926,25.4651,曲靖市,南苑二区,,43,43,34,30,26,61,61,64,63,15,15,3,4,0.7,0.8
2026-03-13T1300,3377A,103.7442,25.5259,曲靖市,曲靖师范学院,,40,40,35,28,28,64,64,74,71,11,11,1,1,0.5,0.5
2026-03-13T1300,1264A,118.8694,28.94,衢州市,环保大楼,细颗粒物(PM2.5),86,71,54,53,39,128,128,84,84,10,19,/,/,/,/
2026-03-13T1300,1266A,118.8622,28.9809,衢州市,衢州学院,细颗粒物(PM2.5),72,60,49,46,36,127,127,84,84,17,31,7,7,0.5,0.5
2026-03-13T1300,4097A,118.9646,28.9832,衢州市,衢州三中,NA,NA,NA,51,NA,32,NA,NA,NA,NA,NA,35,NA,6,NA,0.5
2026-03-13T1300,1611A,118.5818,24.9116,泉州市,涂山街,,45,40,40,31,23,114,114,99,99,13,10,4,3,0.4,0.4
2026-03-13T1300,1612A,118.597,24.8976,泉州市,津头埔,,43,43,40,29,24,124,124,107,107,12,10,4,3,0.4,0.4
2026-03-13T1300,1613A,118.6669,24.9422,泉州市,万安,颗粒物(PM10),53,54,43,35,24,115,115,96,96,14,10,4,4,0.5,0.4
2026-03-13T1300,4105A,118.6355,24.9148,泉州市,霞新路6号,NA,NA,NA,41,NA,22,114,114,95,95,NA,13,/,/,0.5,0.5
2026-03-13T1300,2626A,88.8873,29.2723,日喀则市,日喀则监测站,,35,10,19,3,9,109,109,90,90,4,6,8,8,0.3,0.4
2026-03-13T1300,3726A,88.8775,29.2425,日喀则市,林业技术推广中心,,34,19,21,3,2,108,108,99,99,3,4,13,11,0.4,0.5
2026-03-13T1300,1659A,119.4711,35.421,日照市,监测站,细颗粒物(PM2.5),111,100,101,72,69,120,120,50,50,37,55,19,10,1.0,1
2026-03-13T1300,1660A,119.523,35.4216,日照市,市政府广场,细颗粒物(PM2.5),114,129,102,75,72,114,114,55,55,44,53,19,8,0.8,0.8
2026-03-13T1300,1661A,119.5511,35.4113,日照市,港务局,细颗粒物(PM2.5),114,129,119,75,77,114,114,43,43,36,61,10,6,0.8,0.9
2026-03-13T1300,3507A,119.5326,35.4627,日照市,职业技术学院,细颗粒物(PM2.5),126,129,84,88,63,116,116,67,67,47,43,14,8,1.0,0.9
2026-03-13T1300,3604A,119.3267,35.1043,日照市,岚山环保分局,细颗粒物(PM2.5),113,100,118,74,85,89,89,67,67,47,35,13,16,0.8,1
2026-03-13T1300,1835A,111.1922,34.7752,三门峡市,市政府,细颗粒物(PM2.5),204,NA,106,154,112,85,85,100,94,22,20,8,10,1.0,0.7
2026-03-13T1300,1836A,111.1588,34.794,三门峡市,开发区,细颗粒物(PM2.5),218,195,148,168,122,90,90,106,98,21,22,9,10,1.0,0.7
2026-03-13T1300,3039A,111.1911,34.7829,三门峡市,三门峡市第一小学,细颗粒物(PM2.5),212,171,116,162,113,89,89,106,97,23,20,14,14,0.8,0.6
2026-03-13T1300,3598A,111.1031,34.719,三门峡市,富达温泉假日酒店,细颗粒物(PM2.5),212,169,128,162,109,74,74,100,88,39,24,12,12,0.9,0.6
2026-03-13T1300,2324A,117.621,26.2626,三明市,三钢,,40,28,34,19,25,127,127,106,106,8,14,6,6,0.3,0.4
2026-03-13T1300,2325A,117.6352,26.2714,三明市,三明二中,,39,27,31,18,22,122,122,101,101,8,12,7,7,0.4,0.4
2026-03-13T1300,2326A,117.6028,26.2377,三明市,三元区政府,,41,30,34,20,25,130,130,107,107,10,17,5,5,0.5,0.6
2026-03-13T1300,1877A,109.4962,18.2682,三亚市,河西子站,颗粒物(PM10),53,53,30,20,15,118,118,119,113,4,5,4,4,0.4,0.5
