timepoint,stationcode,longitude,latitude,area,positionname,primarypollutant,aqi,pm10,pm10_24h,pm2_5,pm2_5_24h,o3,o3_24h,o3_8h,o3_8h_24h,no2,no2_24h,so2,so2_24h,co,co_24h
2026-03-13T2000,2568A,102.2503,31.8896,阿坝藏族羌族自治州,马师校,,26,26,28,9,16,66,66,88,87,10,10,4,5,0.5,0.5
2026-03-13T2000,3994A,102.2174,31.9016,阿坝藏族羌族自治州,马尔康中学西区,,24,17,15,12,13,75,75,87,86,7,7,8,7,0.4,0.4
2026-03-13T2000,2695A,80.2899,41.1684,阿克苏地区,电视台,颗粒物(PM10),439,539,755,119,155,90,90,82,82,4,5,1,1,0.8,0.8
2026-03-13T2000,2696A,80.2592,41.1541,阿克苏地区,艺术中心,颗粒物(PM10),424,524,720,136,163,91,91,86,86,7,6,3,4,0.2,0.2
2026-03-13T2000,2205A,105.699,38.8409,阿拉善盟,蒙二幼,颗粒物(PM10),101,121,722,39,169,68,68,78,73,4,4,8,8,0.5,0.4
2026-03-13T2000,2206A,105.7198,38.8508,阿拉善盟,环保局新楼,颗粒物(PM10),80,91,697,34,177,67,67,75,71,6,4,7,7,0.5,0.4
2026-03-13T2000,2708A,88.1266,47.8515,阿勒泰地区,市站,,28,28,20,14,5,83,83,80,80,20,14,5,5,0.3,0.2
2026-03-13T2000,4166A,88.1198,47.7931,阿勒泰地区,阿勒泰路33号,,29,28,21,11,6,91,91,86,86,9,10,5,6,0.4,0.4
2026-03-13T2000,2630A,80.1171,32.4999,阿里地区,阿里监测站,,30,14,12,14,6,95,95,94,94,1,2,7,8,0.3,0.3
2026-03-13T2000,3192A,80.0906,32.5029,阿里地区,阿里藏医院,NA,NA,13,12,3,3,104,104,102,102,2,2,NA,9,NA,0.4
2026-03-13T2000,2644A,109.0088,32.6974,安康市,汉滨区检察院,细颗粒物(PM2.5),137,129,126,100,99,95,95,135,122,21,16,5,4,0.8,0.7
2026-03-13T2000,4054A,109.0324,32.6913,安康市,市邮政管理局,细颗粒物(PM2.5),140,152,134,104,103,93,93,128,112,23,21,4,4,0.8,0.7
2026-03-13T2000,2291A,117.0806,30.5181,安庆市,环科院,颗粒物(PM10),55,57,71,33,47,124,124,135,135,13,22,8,9,0.5,0.6
2026-03-13T2000,2292A,117.0331,30.5118,安庆市,马山宾馆,颗粒物(PM10),60,64,70,34,45,103,103,136,133,40,31,6,7,0.7,0.8
2026-03-13T2000,2294A,116.9897,30.6146,安庆市,安庆大学,,48,48,57,29,35,128,128,134,134,12,15,5,5,0.4,0.6
2026-03-13T2000,3173A,117.0598,30.5351,安庆市,市人大,NA,NA,86,72,28,45,NA,NA,136,136,44,27,5,7,0.5,0.5
2026-03-13T2000,3123A,105.9408,26.2431,安顺市,凤凰山,,34,34,27,22,21,98,98,108,106,9,12,10,14,0.5,0.5
2026-03-13T2000,3124A,105.9443,26.2567,安顺市,金钟山,,40,35,29,28,20,94,94,102,101,8,8,12,14,0.6,0.6
2026-03-13T2000,3125A,105.8983,26.248,安顺市,娄家坡,,35,30,28,24,21,97,97,101,101,7,8,7,9,0.6,0.5
2026-03-13T2000,1819A,114.3552,36.1017,安阳市,红庙街,细颗粒物(PM2.5),126,NA,125,88,129,93,93,117,114,28,25,3,3,0.5,0.5
2026-03-13T2000,1820A,114.361,36.0681,安阳市,银杏小区,细颗粒物(PM2.5),128,NA,136,90,137,NA,NA,124,124,26,25,3,3,0.4,0.5
2026-03-13T2000,3141A,114.3921,36.0879,安阳市,信访局,细颗粒物(PM2.5),120,86,138,82,132,99,99,125,122,13,21,3,3,0.4,0.5
2026-03-13T2000,3669A,114.4706,36.0634,安阳市,左辅环卫站,细颗粒物(PM2.5),132,144,180,95,135,88,88,118,115,25,27,3,3,0.5,0.6
2026-03-13T2000,4117A,114.2918,36.0769,安阳市,钢三路198号,细颗粒物(PM2.5),129,122,168,91,136,94,94,108,106,26,26,5,4,0.5,0.6
2026-03-13T2000,1748A,123.0441,41.1201,鞍山市,深沟寺,,50,50,71,35,50,95,95,108,106,13,21,8,9,0.7,0.8
2026-03-13T2000,1749A,123.011,41.0931,鞍山市,太阳城,,48,42,74,33,59,95,95,107,104,12,24,11,14,0.6,0.9
2026-03-13T2000,1750A,123.0483,41.1445,鞍山市,太平,颗粒物(PM10),59,62,81,37,52,88,88,102,99,16,26,10,12,0.7,0.8
2026-03-13T2000,1751A,122.964,41.0968,鞍山市,铁西三道街,颗粒物(PM10),56,58,107,33,70,82,82,98,93,25,43,12,20,0.7,1.1
2026-03-13T2000,1753A,123.0219,41.0822,鞍山市,明达新区,细颗粒物(PM2.5),52,47,78,36,57,96,96,107,104,11,21,11,13,0.5,0.8
2026-03-13T2000,4201A,122.944647,41.082639,鞍山市,兴盛南路290号,颗粒物(PM10),61,65,110,37,68,90,90,107,102,18,41,10,12,0.7,1.1
2026-03-13T2000,2195A,107.4206,40.7609,巴彦淖尔市,附二中,NA,NA,46,956,17,295,NA,NA,69,NA,8,5,8,8,0.4,0.4
2026-03-13T2000,2196A,107.37,40.7372,巴彦淖尔市,市环保大楼,颗粒物(PM10),53,53,1224,12,376,75,75,85,84,9,7,5,5,0.3,0.3
2026-03-13T2000,1956A,86.1476,41.7529,巴音郭楞蒙古自治州,孔雀公园,NA,NA,NA,113,NA,29,81,81,86,86,4,11,7,8,0.3,0.3
2026-03-13T2000,1957A,86.1971,41.7166,巴音郭楞蒙古自治州,棉纺厂,颗粒物(PM10),143,230,142,46,34,82,82,88,88,4,13,/,/,/,/
2026-03-13T2000,1958A,86.236,41.7172,巴音郭楞蒙古自治州,经济开发区,颗粒物(PM10),131,199,132,34,28,73,73,80,80,7,7,6,5,0.3,0.3
2026-03-13T2000,3181A,106.776805,31.852614,巴中市,市五中,细颗粒物(PM2.5),56,53,51,38,38,35,35,52,51,17,19,8,8,0.8,0.8
2026-03-13T2000,3183A,106.7419,31.8654,巴中市,圣泉水务公司,细颗粒物(PM2.5),58,47,52,39,38,54,54,52,51,10,21,9,9,0.8,0.8
2026-03-13T2000,3616A,106.7617,31.8343,巴中市,市中心医院,细颗粒物(PM2.5),66,58,57,43,40,31,31,51,49,25,29,9,9,0.9,0.9
2026-03-13T2000,2235A,122.7909,45.608,白城市,洮北区环保局,细颗粒物(PM2.5),124,100,81,86,56,49,49,89,77,26,18,5,6,0.7,0.4
2026-03-13T2000,2236A,122.8741,45.5725,白城市,市环保局,细颗粒物(PM2.5),130,119,89,92,56,12,12,86,67,57,19,5,5,0.7,0.4
2026-03-13T2000,2231A,126.4219,41.9172,白山市,喜丰,,30,30,52,21,26,90,90,93,93,9,21,9,10,0.7,0.8
2026-03-13T2000,2232A,126.4082,41.9416,白山市,环保局,,36,36,40,21,25,97,97,97,97,8,14,11,10,0.7,0.7
2026-03-13T2000,2647A,104.1727,36.5448,白银市,第三小学,颗粒物(PM10),112,151,577,NA,129,NA,NA,84,84,3,4,1,2,0.2,0.2
2026-03-13T2000,2648A,104.1467,36.5482,白银市,动力公司,颗粒物(PM10),102,124,584,30,119,80,80,79,79,5,4,3,4,0.4,0.3
2026-03-13T2000,2512A,106.6102,23.901,百色市,市监测站,细颗粒物(PM2.5),72,61,45,46,28,62,62,101,100,21,23,13,13,0.8,0.6
2026-03-13T2000,2513A,106.6524,23.8842,百色市,市中心血站,细颗粒物(PM2.5),110,90,63,71,42,62,62,104,104,39,36,13,13,1.1,0.8
2026-03-13T2000,4133A,106.6273,23.8798,百色市,龙景西路,细颗粒物(PM2.5),106,103,55,66,38,66,66,106,106,25,21,14,14,0.8,0.6
2026-03-13T2000,2270A,117.396,32.9389,蚌埠市,工人疗养院,,45,45,98,19,79,113,113,130,128,18,30,5,5,0.6,0.7
2026-03-13T2000,2271A,117.3606,32.9428,蚌埠市,百货大楼,,42,42,90,18,68,107,107,127,126,20,27,5,5,0.6,0.6
2026-03-13T2000,2273A,117.4183,32.8909,蚌埠市,蚌埠学院,颗粒物(PM10),53,53,86,19,78,96,96,130,126,28,22,5,4,0.5,0.6
2026-03-13T2000,2274A,117.3534,32.9672,蚌埠市,淮上区政府,,48,48,86,21,79,109,109,130,127,21,28,5,5,0.5,0.6
2026-03-13T2000,2275A,117.3143,32.8977,蚌埠市,高新区,颗粒物(PM10),53,53,88,27,81,90,90,120,116,30,22,7,6,0.5,0.6
2026-03-13T2000,3715A,117.3091,32.9314,蚌埠市,蚌埠田家炳中学,,48,48,95,25,78,106,106,128,125,22,23,5,5,0.5,0.5
2026-03-13T2000,1585A,109.8761,40.6533,包头市,市环境监测站,颗粒物(PM10),68,75,321,18,139,90,90,89,89,9,13,5,7,0.4,0.5
2026-03-13T2000,1587A,109.9992,40.5843,包头市,包头八中,颗粒物(PM10),73,81,429,21,142,79,79,80,80,10,11,9,9,0.3,0.4
2026-03-13T2000,1589A,109.8641,40.6288,包头市,惠龙物流,,48,48,334,12,129,93,93,90,90,8,13,4,7,0.2,0.4
2026-03-13T2000,1590A,110.0376,40.5546,包头市,东河鸿龙湾,颗粒物(PM10),54,55,347,20,121,84,84,82,82,10,13,6,8,0.4,0.4
2026-03-13T2000,3283A,109.9154,40.5684,包头市,滨河大厦,,48,48,425,3,116,87,87,85,85,6,12,6,8,0.4,0.5
2026-03-13T2000,3419A,109.9449,40.6259,包头市,包头市委党校,颗粒物(PM10),60,64,428,22,137,84,84,81,81,8,13,7,9,0.4,0.5
2026-03-13T2000,3683A,109.8332,40.6577,包头市,昆区政府,,48,48,354,12,103,90,90,89,89,12,17,7,11,0.4,0.6
2026-03-13T2000,1931A,107.0802,34.3129,宝鸡市,竹园沟,颗粒物(PM10),349,459,299,138,123,56,56,54,54,10,15,6,7,0.4,0.5
2026-03-13T2000,1933A,107.1429,34.3549,宝鸡市,监测站,颗粒物(PM10),430,530,352,152,103,49,49,48,48,14,21,5,5,0.1,0.3
2026-03-13T2000,1934A,107.1172,34.3759,宝鸡市,技工学校,颗粒物(PM10),500,616,390,151,126,50,50,54,52,14,16,3,4,0.6,0.7
2026-03-13T2000,1936A,107.2025,34.3518,宝鸡市,文理学院,颗粒物(PM10),476,576,361,148,126,54,54,54,54,12,17,4,4,0.4,0.6
2026-03-13T2000,1937A,107.2396,34.3626,宝鸡市,三迪小学,颗粒物(PM10),474,574,362,142,124,50,50,52,52,16,19,4,4,0.4,0.6
2026-03-13T2000,4155A,107.1721,34.3558,宝鸡市,滨河北路,颗粒物(PM10),474,574,362,154,128,54,54,53,53,9,15,5,5,0.3,0.5
2026-03-13T2000,4308A,107.3898,34.3601,宝鸡市,陈仓区北开路21号,颗粒物(PM10),421,521,342,151,120,46,46,50,46,16,22,6,7,0.4,0.5
2026-03-13T2000,1051A,115.4803,38.8568,保定市,游泳馆,细颗粒物(PM2.5),196,160,131,147,116,46,46,55,55,56,59,6,6,0.7,0.7
2026-03-13T2000,1052A,115.509,38.8895,保定市,华电二区,细颗粒物(PM2.5),182,151,121,137,106,48,48,50,50,38,43,4,3,1.0,0.9
2026-03-13T2000,1053A,115.4588,38.9037,保定市,接待中心,细颗粒物(PM2.5),179,160,128,135,106,51,51,52,52,46,43,4,4,0.5,0.5
2026-03-13T2000,1054A,115.4484,38.8344,保定市,地表水厂,细颗粒物(PM2.5),173,183,147,131,107,31,31,53,53,62,56,6,7,0.7,0.6
2026-03-13T2000,3581A,115.3136,38.9511,保定市,满城区生态环境分局,细颗粒物(PM2.5),179,183,162,135,114,37,37,58,58,61,57,6,7,0.5,0.6
2026-03-13T2000,3582A,115.4709,38.7628,保定市,清苑区第二中学,细颗粒物(PM2.5),188,196,160,141,107,7,7,37,33,82,61,4,6,0.7,0.6
2026-03-13T2000,3583A,115.6231,39.0223,保定市,徐水物探局,细颗粒物(PM2.5),189,194,159,142,115,36,36,54,54,60,48,5,5,0.8,0.7
2026-03-13T2000,4004A,115.4199,38.8665,保定市,双鹰农机,细颗粒物(PM2.5),183,192,163,138,114,41,41,60,60,61,48,4,5,0.7,0.6
2026-03-13T2000,4034A,115.515,38.8589,保定市,植保所站,细颗粒物(PM2.5),195,175,142,146,109,42,42,46,46,57,66,7,4,0.8,0.7
2026-03-13T2000,2594A,99.1589,25.1137,保山市,市环境监测站,细颗粒物(PM2.5),66,51,56,43,42,81,81,86,86,18,16,4,4,0.3,0.4
2026-03-13T2000,2595A,99.1616,25.1381,保山市,市环保局,细颗粒物(PM2.5),60,61,61,40,45,86,86,89,89,13,11,4,5,0.7,0.6
2026-03-13T2000,1867A,109.1435,21.4085,北海市,海滩公园,,49,49,44,20,25,143,143,150,150,9,12,8,9,0.6,0.7
2026-03-13T2000,1868A,109.0983,21.466,北海市,新市环保局,,49,49,44,16,27,143,143,148,148,12,16,8,9,0.6,0.7
2026-03-13T2000,1869A,109.1775,21.5232,北海市,北海工业园,NA,NA,59,55,30,31,NA,NA,121,121,10,13,8,9,0.8,0.9
2026-03-13T2000,3400A,109.1844,21.4396,北海市,龙潭自来水厂,颗粒物(PM10),53,53,54,17,29,139,139,144,144,5,9,8,8,0.4,0.6
2026-03-13T2000,1001A,116.3611,39.8786,北京市,万寿西宫,细颗粒物(PM2.5),132,129,93,95,65,25,25,52,51,81,52,4,4,0.9,0.7
2026-03-13T2000,1003A,116.4174,39.9289,北京市,东四,细颗粒物(PM2.5),131,138,93,94,62,21,21,44,42,83,51,7,8,1.0,0.7
2026-03-13T2000,1004A,116.4073,39.8858,北京市,天坛,细颗粒物(PM2.5),122,123,86,84,57,13,13,38,36,69,51,3,4,1.0,0.8
2026-03-13T2000,1005A,116.4622,39.9364,北京市,农展馆,细颗粒物(PM2.5),128,132,89,90,59,11,11,36,34,68,46,6,6,0.8,0.7
2026-03-13T2000,1006A,116.3399,39.9293,北京市,官园,细颗粒物(PM2.5),131,132,96,94,65,26,26,50,49,79,54,3,4,0.9,0.7
2026-03-13T2000,1007A,116.2879,39.9613,北京市,海淀万柳,细颗粒物(PM2.5),126,121,93,88,63,23,23,39,38,70,52,4,4,0.9,0.7
2026-03-13T2000,1008A,116.6635,40.1349,北京市,顺义新城,细颗粒物(PM2.5),123,120,89,85,56,40,40,56,56,44,39,5,6,0.7,0.7
2026-03-13T2000,1009A,116.6275,40.327,北京市,怀柔镇,细颗粒物(PM2.5),116,100,85,77,60,49,49,62,62,41,34,6,6,0.7,0.8
2026-03-13T2000,1010A,116.2295,40.217,北京市,昌平镇,细颗粒物(PM2.5),120,106,97,81,69,42,42,47,47,42,44,3,3,0.9,0.8
2026-03-13T2000,1011A,116.3968,39.982,北京市,奥体中心,细颗粒物(PM2.5),123,124,91,85,60,6,6,41,38,85,49,6,5,1.0,0.8
2026-03-13T2000,3418A,116.8336,40.4095,北京市,密云新城,细颗粒物(PM2.5),130,131,96,92,61,49,49,67,66,39,30,4,5,0.7,0.7
2026-03-13T2000,3671A,116.0879,39.9725,北京市,门头沟三家店,细颗粒物(PM2.5),133,135,117,96,75,36,36,50,48,49,47,4,4,0.8,0.7
2026-03-13T2000,3672A,116.1507,39.8246,北京市,丰台云岗,细颗粒物(PM2.5),133,140,110,96,71,30,30,49,48,66,45,4,4,0.9,0.7
2026-03-13T2000,3674A,115.9578,39.7602,北京市,房山燕山,细颗粒物(PM2.5),152,158,132,116,95,38,38,51,51,48,42,4,4,0.7,0.6
2026-03-13T2000,3675A,116.4669,39.7734,北京市,大兴旧宫,细颗粒物(PM2.5),124,132,93,86,57,25,25,38,38,64,48,5,5,0.8,0.7
2026-03-13T2000,3694A,115.9859,40.4562,北京市,延庆石河营,细颗粒物(PM2.5),145,127,118,109,90,64,64,76,76,24,23,2,2,0.9,0.8
2026-03-13T2000,3695A,116.6151,40.3052,北京市,怀柔新城,细颗粒物(PM2.5),115,98,84,76,62,48,48,62,60,30,28,3,4,0.7,0.7
2026-03-13T2000,3696A,116.2542,39.8764,北京市,丰台小屯,细颗粒物(PM2.5),130,138,102,93,65,23,23,47,45,79,53,4,5,0.8,0.6
2026-03-13T2000,3697A,116.8399,40.3843,北京市,密云镇,细颗粒物(PM2.5),130,120,90,93,63,51,51,68,67,39,34,6,6,0.8,0.7
2026-03-13T2000,4057A,115.9423,40.4431,北京市,延庆百泉,细颗粒物(PM2.5),123,102,118,85,89,71,71,80,80,23,27,3,3,0.7,0.7
2026-03-13T2000,4058A,116.6598,39.9164,北京市,通州新华,细颗粒物(PM2.5),131,147,92,94,56,22,22,32,32,65,49,3,4,0.8,0.7
2026-03-13T2000,4182A,116.1942,39.9158,北京市,石景山八角,细颗粒物(PM2.5),130,140,100,93,65,25,25,49,48,67,48,4,5,0.9,0.6
2026-03-13T2000,4194A,117.078628,40.151726,北京市,平谷新城,细颗粒物(PM2.5),127,129,93,89,61,35,35,50,49,56,39,3,3,0.7,0.7
2026-03-13T2000,1761A,123.8274146,41.31234549,本溪市,大峪,颗粒物(PM10),52,52,64,32,32,97,97,108,107,14,31,11,10,0.5,0.6
2026-03-13T2000,1763A,123.7169,41.3094,本溪市,彩屯,颗粒物(PM10),63,68,86,37,51,92,92,101,100,26,39,19,18,1.8,2.3
2026-03-13T2000,1764A,123.7672166,41.28649327,本溪市,东明,,48,48,74,32,36,101,101,108,108,14,31,11,11,0.5,0.7
2026-03-13T2000,1765A,123.799345,41.266614,本溪市,新立屯,,40,40,51,28,27,106,106,108,108,6,24,8,8,0.7,0.6
2026-03-13T2000,1766A,123.829144,41.336777,本溪市,威宁,,45,45,81,27,38,103,103,113,111,10,26,9,7,0.6,0.9
2026-03-13T2000,2587A,105.287,27.3133,毕节市,八中,细颗粒物(PM2.5),56,49,37,38,28,70,70,77,76,11,10,11,10,0.7,0.6
2026-03-13T2000,2588A,105.3079,27.2987,毕节市,师专,细颗粒物(PM2.5),52,49,34,36,25,60,60,68,66,12,11,8,8,0.6,0.5
2026-03-13T2000,4263A,105.3688,27.3598,毕节市,工业大道,,50,50,38,33,23,80,80,82,81,10,9,9,10,/,/
2026-03-13T2000,1629A,117.9961,37.3604,滨州市,第二水厂,细颗粒物(PM2.5),149,146,93,113,69,109,109,134,133,26,38,10,14,0.6,0.5
2026-03-13T2000,1630A,117.9789,37.3931,滨州市,北中新校,细颗粒物(PM2.5),150,153,93,115,64,98,98,134,132,NA,31,12,15,NA,0.4
2026-03-13T2000,3514A,117.9379,37.3959,滨州市,中海酒店,细颗粒物(PM2.5),165,171,92,125,63,94,94,134,130,41,37,9,12,0.9,0.9
2026-03-13T2000,3515A,117.9381509,37.35547456,滨州市,开发区一中,细颗粒物(PM2.5),148,156,99,112,66,102,102,124,122,20,26,13,16,0.7,0.7
2026-03-13T2000,3516A,118.0914,37.6938,滨州市,金海六路,细颗粒物(PM2.5),166,161,85,126,65,91,91,132,129,41,23,8,11,0.8,0.6
2026-03-13T2000,4028A,117.9955,37.3752,滨州市,滨州市西街道办事处,细颗粒物(PM2.5),150,146,99,114,69,102,102,132,130,24,29,13,17,0.7,0.7
2026-03-13T2000,2311A,115.8071,33.8399,亳州市,污水处理厂,细颗粒物(PM2.5),111,114,108,72,88,82,82,130,122,18,19,10,7,0.3,0.2
2026-03-13T2000,2312A,115.7789,33.8519,亳州市,三国揽胜宫,细颗粒物(PM2.5),103,92,114,63,88,91,91,120,117,23,16,6,6,0.2,0.2
2026-03-13T2000,3332A,115.7631,33.803,亳州市,亳州学院,细颗粒物(PM2.5),92,78,109,56,90,97,97,122,119,20,16,6,6,0.1,0.2
2026-03-13T2000,2693A,82.0482,44.8553,博尔塔拉蒙古自治州,市党校,颗粒物(PM10),78,88,98,34,20,79,79,87,83,18,7,6,2,0.6,0.5
2026-03-13T2000,2694A,82.0805,44.8966,博尔塔拉蒙古自治州,市环保局,颗粒物(PM10),81,93,76,26,16,68,68,80,67,17,14,3,2,0.4,0.5
2026-03-13T2000,1071A,116.8733,38.2922,沧州市,沧县城建局,细颗粒物(PM2.5),172,162,105,130,79,40,40,85,76,58,36,6,7,1.0,0.7
2026-03-13T2000,1072A,116.8462,38.3189,沧州市,电视转播站,细颗粒物(PM2.5),192,177,103,144,86,27,27,81,71,66,39,6,6,0.8,0.6
2026-03-13T2000,1073A,116.8588,38.3161,沧州市,市环保局,细颗粒物(PM2.5),170,169,111,129,77,40,40,82,74,60,37,8,8,1.0,0.6
2026-03-13T2000,3324A,116.8011,38.294,沧州市,河北水利电力学院,细颗粒物(PM2.5),211,183,111,161,88,46,46,71,66,48,36,8,9,0.8,0.6
2026-03-13T2000,2622A,97.1813,31.1289,昌都市,昌都监测站,,32,32,21,12,4,92,92,96,96,3,7,2,3,0.4,0.4
2026-03-13T2000,3719A,97.1707,31.1428,昌都市,昌都会议中心,,44,44,20,16,13,96,96,94,94,3,6,6,6,0.5,0.5
2026-03-13T2000,2692A,87.2722,44.0298,昌吉回族自治州,新区政务中心,,28,19,53,19,40,88,88,89,89,10,20,6,6,0.3,0.6
2026-03-13T2000,3613A,87.3069,44.0093,昌吉回族自治州,亚心广场,,29,22,78,20,50,90,90,93,93,7,14,7,9,0.3,0.6
2026-03-13T2000,4164A,87.2057,43.9289,昌吉回族自治州,财政所,颗粒物(PM10),55,56,63,29,27,94,94,90,90,8,11,7,7,0.4,0.7
2026-03-13T2000,1120A,125.2874,43.9024,长春市,客车厂,颗粒物(PM10),129,193,104,70,56,102,102,120,119,18,26,9,10,0.6,0.7
2026-03-13T2000,1121A,125.2943,43.8508,长春市,邮电学院,颗粒物(PM10),127,190,104,63,58,102,102,120,119,17,22,10,10,0.4,0.5
2026-03-13T2000,1122A,125.3648,43.8745,长春市,劳动公园,颗粒物(PM10),117,164,94,67,55,107,107,124,123,16,22,10,10,0.4,0.3
2026-03-13T2000,1123A,125.3233,43.8781,长春市,园林处,颗粒物(PM10),119,169,97,70,59,105,105,121,121,16,23,9,11,0.6,0.7
2026-03-13T2000,1124A,125.4604,43.7904,长春市,净月潭,颗粒物(PM10),110,145,85,65,57,105,105,118,118,15,13,10,8,0.6,0.6
2026-03-13T2000,1126A,125.38,43.8422,长春市,经开区环卫处,颗粒物(PM10),121,174,98,62,55,106,106,121,120,15,23,8,8,0.6,0.6
2026-03-13T2000,1127A,125.234,43.7761,长春市,高新区管委会,颗粒物(PM10),112,151,128,58,70,103,103,122,121,17,33,10,10,0.7,0.9
2026-03-13T2000,1128A,125.1695,43.83,长春市,岱山公园,颗粒物(PM10),125,185,108,73,62,98,98,118,116,15,27,7,8,0.6,0.6
2026-03-13T2000,4281A,125.334645,43.916281,长春市,北亚泰大街1068号,颗粒物(PM10),132,201,112,69,59,95,95,109,109,18,31,9,10,0.4,0.6
2026-03-13T2000,1335A,113.082,28.2421,长沙市,经开区环保局,,40,40,50,22,23,92,92,126,125,37,29,5,5,0.4,0.4
2026-03-13T2000,1336A,112.8873,28.2202,长沙市,高开区环保局,,44,44,51,22,29,107,107,133,133,42,35,6,6,0.5,0.5
2026-03-13T2000,1337A,113.0785,28.2012,长沙市,马坡岭,细颗粒物(PM2.5),64,50,50,42,25,82,82,140,132,47,27,6,6,0.8,0.7
2026-03-13T2000,1338A,112.9448,28.1894,长沙市,湖南师范大学,NA,NA,43,50,17,23,NA,NA,151,151,22,26,5,5,0.5,0.6
2026-03-13T2000,1339A,113.0177,28.1322,长沙市,雨花区环保局,,39,36,42,27,21,112,112,137,136,28,18,5,5,0.5,0.4
2026-03-13T2000,1340A,112.9795,28.2593,长沙市,伍家岭,颗粒物(PM10),64,69,62,33,33,70,70,136,132,58,29,5,5,0.9,0.6
2026-03-13T2000,1341A,113.002,28.1944,长沙市,火车新站,颗粒物(PM10),51,51,49,33,24,95,95,132,130,42,28,4,5,0.6,0.5
2026-03-13T2000,1342A,112.9846,28.1177,长沙市,天心区环保局,细颗粒物(PM2.5),58,48,45,39,23,118,118,144,143,41,24,7,7,0.9,0.5
2026-03-13T2000,1343A,112.8906,28.1307,长沙市,湖南中医药大学,颗粒物(PM10),58,60,57,32,27,60,60,142,135,57,26,7,7,0.7,0.6
2026-03-13T2000,1727A,113.1146,36.1547,长治市,清华站,细颗粒物(PM2.5),146,NA,75,110,84,96,96,123,117,21,17,12,8,1.1,0.8
2026-03-13T2000,1730A,113.0887,36.2126,长治市,审计局,细颗粒物(PM2.5),159,NA,75,121,95,93,93,120,114,25,16,10,8,0.8,0.6
2026-03-13T2000,1731A,113.0845,36.1856,长治市,长治八中,细颗粒物(PM2.5),160,124,96,122,97,88,88,122,115,23,14,11,10,0.9,0.7
2026-03-13T2000,2845A,113.1561,36.1912,长治市,德盛苑,细颗粒物(PM2.5),140,NA,79,104,93,102,102,127,121,17,15,8,8,0.7,0.6
2026-03-13T2000,3568A,113.0603,36.0464,长治市,向阳小学,细颗粒物(PM2.5),141,124,118,105,91,101,101,127,121,29,23,13,9,0.9,0.7
2026-03-13T2000,3569A,112.8788,36.315,长治市,屯留一中,细颗粒物(PM2.5),136,NA,85,99,85,91,91,114,112,38,30,11,5,0.8,0.7
2026-03-13T2000,4189A,113.113092,36.199482,长治市,英华南巷50号,细颗粒物(PM2.5),159,NA,82,121,89,98,98,124,119,28,17,9,8,0.7,0.6
2026-03-13T2000,4190A,113.23666,36.33435,长治市,学府街1号,细颗粒物(PM2.5),135,NA,84,98,85,66,66,117,108,47,31,8,3,0.9,0.9
2026-03-13T2000,1854A,111.696,28.9725,常德市,市二中,颗粒物(PM10),51,51,82,17,52,108,108,124,124,18,14,7,9,0.7,1
2026-03-13T2000,3138A,111.7152,29.0288,常德市,武陵区永安,,42,42,82,21,63,124,124,134,132,17,16,6,7,0.5,0.8
2026-03-13T2000,3139A,111.6891,28.9881,常德市,鼎城区玉霞,,44,44,78,20,56,120,120,132,132,18,19,8,9,0.5,0.7
2026-03-13T2000,3140A,111.6651,29.0526,常德市,武陵区长庚,,41,37,77,18,63,129,129,137,137,14,15,7,8,0.6,0.9
2026-03-13T2000,1196A,119.9524,31.7586,常州市,市监测站,细颗粒物(PM2.5),84,74,94,52,66,106,106,110,110,38,35,8,7,2.4,0.9
2026-03-13T2000,1200A,119.9351,31.703,常州市,武进监测站,细颗粒物(PM2.5),78,80,95,49,64,116,116,114,114,26,29,6,10,0.4,0.7
2026-03-13T2000,3002A,119.9701,31.813,常州市,行政中心,细颗粒物(PM2.5),78,76,102,49,68,99,99,100,100,29,35,11,7,1.6,0.8
2026-03-13T2000,3003A,120.0434,31.7726,常州市,经开区,细颗粒物(PM2.5),72,77,107,46,60,114,114,114,114,28,45,9,10,0.7,1
2026-03-13T2000,3010A,119.8919,31.7892,常州市,钟楼,颗粒物(PM10),65,70,87,42,60,119,119,120,120,33,33,8,8,0.8,0.8
2026-03-13T2000,3429A,119.8595,31.706,常州市,武进经发区,细颗粒物(PM2.5),94,72,88,57,68,84,84,118,116,57,41,6,10,0.6,0.9
2026-03-13T2000,3430A,119.5812,31.7256,常州市,金坛城区,细颗粒物(PM2.5),92,71,88,56,68,109,109,119,119,28,22,9,9,0.5,0.7
2026-03-13T2000,4089A,119.9551,31.863,常州市,崇义南街5-H号,细颗粒物(PM2.5),72,70,80,46,59,81,81,103,100,40,27,10,7,1.1,0.7
2026-03-13T2000,2220A,120.4318,41.588,朝阳市,西梁,细颗粒物(PM2.5),136,NA,80,99,67,48,48,101,81,48,27,12,12,1.1,0.9
2026-03-13T2000,2221A,120.452,41.565,朝阳市,河畔小区,细颗粒物(PM2.5),140,NA,61,104,57,46,46,107,89,42,23,10,12,1.1,0.7
2026-03-13T2000,2222A,120.4176,41.5648,朝阳市,八里堡,细颗粒物(PM2.5),193,NA,68,145,66,47,47,98,82,51,29,11,12,1.1,0.8
2026-03-13T2000,3026A,116.6179,23.6608,潮州市,市政府,,49,43,49,34,29,132,132,151,151,13,10,6,4,0.4,0.4
2026-03-13T2000,4036A,116.646,23.676,潮州市,金山,颗粒物(PM10),55,56,47,30,26,134,134,146,146,15,12,4,4,0.5,0.4
2026-03-13T2000,2473A,113.0116,25.8228,郴州市,市职中,细颗粒物(PM2.5),62,51,41,41,30,65,65,131,126,28,20,7,6,1.0,0.7
2026-03-13T2000,2475A,113.0381,25.8074,郴州市,市审计局,NA,NA,44,40,30,31,92,92,127,125,16,17,NA,9,/,/
2026-03-13T2000,2476A,113.0348,25.7757,郴州市,市环保局,,47,47,48,29,33,84,84,123,120,27,28,7,7,0.5,0.4
2026-03-13T2000,4252A,113.0138,25.8011,郴州市,好美居路49号,细颗粒物(PM2.5),74,NA,35,47,27,81,81,134,130,36,17,8,9,/,/
2026-03-13T2000,1431A,103.9727,30.7242,成都市,金泉两河,细颗粒物(PM2.5),62,50,42,41,34,65,65,71,71,15,14,2,3,0.4,0.4
2026-03-13T2000,1432A,104.1423,30.6765,成都市,十里店,细颗粒物(PM2.5),64,65,48,42,34,63,63,68,68,18,17,4,4,0.5,0.5
2026-03-13T2000,1433A,104.0594,30.5765,成都市,三瓦窑,细颗粒物(PM2.5),64,57,46,42,36,64,64,72,72,15,12,2,2,0.6,0.6
2026-03-13T2000,1434A,104.1122,30.6306,成都市,沙河铺,细颗粒物(PM2.5),58,51,50,39,36,59,59,64,64,27,25,4,5,0.4,0.4
2026-03-13T2000,2880A,104.0219,30.6561,成都市,大石西路,细颗粒物(PM2.5),78,55,48,49,40,58,58,66,66,21,17,2,3,0.5,0.5
2026-03-13T2000,3136A,104.2724,30.559,成都市,龙泉驿区区政府,细颗粒物(PM2.5),56,53,39,38,35,63,63,69,69,13,14,6,6,0.6,0.5
2026-03-13T2000,3357A,104.0028,30.6891,成都市,金博路,细颗粒物(PM2.5),58,44,35,39,33,56,56,69,68,24,18,6,6,0.7,0.7
2026-03-13T2000,3359A,104.056,30.5228,成都市,华阳,细颗粒物(PM2.5),60,58,45,40,34,65,65,72,72,21,18,4,4,0.3,0.5
2026-03-13T2000,3488A,104.387954,30.746684,成都市,青石路225号,细颗粒物(PM2.5),70,53,47,45,37,60,60,82,80,16,13,4,4,0.7,0.7
2026-03-13T2000,3489A,104.0788,30.4054,成都市,科学城,细颗粒物(PM2.5),52,51,47,36,34,71,71,73,73,15,16,7,7,0.6,0.7
2026-03-13T2000,4011A,103.8505,30.6946,成都市,光华大道三段,细颗粒物(PM2.5),60,61,48,40,34,65,65,74,74,21,18,5,4,0.4,0.4
2026-03-13T2000,4144A,104.3257,30.6406,成都市,八角井街185号,细颗粒物(PM2.5),64,63,50,42,36,62,62,74,73,15,16,4,4,0.5,0.5
2026-03-13T2000,4224A,104.2433276,30.53529463,成都市,鲸龙路1057号,颗粒物(PM10),60,64,54,38,33,63,63,67,66,16,18,5,6,0.5,0.5
2026-03-13T2000,1062A,117.9531,40.908,承德市,铁路,细颗粒物(PM2.5),122,128,109,84,72,30,30,75,72,72,42,9,7,1.0,0.9
2026-03-13T2000,1063A,117.9397,40.9763,承德市,中国银行,细颗粒物(PM2.5),125,118,105,87,69,47,47,80,79,48,34,7,7,1.2,1
2026-03-13T2000,4073A,117.9462,40.95,承德市,杏林街1号,细颗粒物(PM2.5),128,123,119,90,83,62,62,90,90,43,30,11,10,1.0,1
2026-03-13T2000,4274A,117.7994,40.9605,承德市,滨河大街98号,细颗粒物(PM2.5),128,105,86,90,75,61,61,96,94,32,29,9,12,1.1,1
2026-03-13T2000,2314A,117.4698,30.6617,池州市,池州学院,细颗粒物(PM2.5),82,67,65,51,51,118,118,133,132,36,28,8,5,0.6,0.7
2026-03-13T2000,3237A,117.4918,30.6617,池州市,展览馆,细颗粒物(PM2.5),68,62,65,44,48,100,100,128,125,32,22,4,3,0.6,0.7
2026-03-13T2000,3333A,117.5626,30.695,池州市,第八中学,细颗粒物(PM2.5),76,71,68,48,48,104,104,124,122,36,27,13,5,0.6,0.7
2026-03-13T2000,3334A,117.5037,30.6242,池州市,第十二中学,细颗粒物(PM2.5),80,73,66,50,45,93,93,126,123,43,32,5,4,0.6,0.7
2026-03-13T2000,1744A,118.9229,42.2816,赤峰市,松山一中,,45,45,82,21,69,74,74,105,77,15,24,5,6,0.4,0.7
2026-03-13T2000,1745A,118.9588,42.2733,赤峰市,哈达街,,50,50,82,14,55,62,62,89,70,15,25,11,11,0.5,0.7
2026-03-13T2000,1746A,118.8792,42.2551,赤峰市,天义路,,32,31,66,22,59,65,65,111,78,12,18,5,6,0.1,0.3
2026-03-13T2000,3058A,119.2656,42.0356,赤峰市,银河街,颗粒物(PM10),71,79,129,21,84,73,73,83,83,7,23,7,14,0.4,0.9
2026-03-13T2000,3286A,118.9359,42.3146,赤峰市,桥北物流园区,,32,32,87,11,60,66,66,111,74,4,21,4,4,0.5,0.9
2026-03-13T2000,2521A,107.3473,22.4137,崇左市,市环保局江州分局,颗粒物(PM10),56,58,92,35,71,122,122,140,138,16,27,6,8,1.0,1.1
2026-03-13T2000,4256A,107.375,22.3736,崇左市,石景林东路7号,颗粒物(PM10),59,62,74,39,58,120,120,138,137,19,27,5,7,1.1,1.2
2026-03-13T2000,3207A,118.31131,32.3033,滁州市,市政府原办公楼,细颗粒物(PM2.5),72,61,73,46,75,75,75,110,107,50,25,6,5,0.4,0.4
2026-03-13T2000,3331A,118.3268,32.2633,滁州市,图书馆,颗粒物(PM10),54,55,75,28,54,58,58,103,99,60,27,8,8,0.5,0.4
2026-03-13T2000,4101A,118.3196,32.3335,滁州市,银山路666号,NA,NA,88,70,42,63,NA,NA,116,116,91,25,14,9,0.7,0.6
2026-03-13T2000,4102A,118.3426,32.2979,滁州市,黄山路555号,颗粒物(PM10),65,70,90,35,65,86,86,119,116,48,30,8,6,0.7,0.7
2026-03-13T2000,2606A,101.5379,25.0492,楚雄彝族自治州,市经济开发区,,23,23,23,13,17,71,71,85,84,10,7,3,3,0.8,0.8
2026-03-13T2000,4153A,101.5536,25.0343,楚雄彝族自治州,团结路562号,,26,16,16,16,14,81,81,90,90,5,3,7,7,0.5,0.5
2026-03-13T2000,2549A,107.5087,31.2186,达州市,市环境监测站,颗粒物(PM10),58,61,55,37,28,60,60,108,101,47,24,5,5,0.3,0.2
2026-03-13T2000,2550A,107.4988,31.2132,达州市,凤凰小区,颗粒物(PM10),65,70,54,40,30,56,56,111,101,50,31,5,5,0.5,0.4
2026-03-13T2000,2551A,107.5081,31.1987,达州市,达县机关宾馆,细颗粒物(PM2.5),82,70,51,51,33,52,52,111,95,56,34,4,4,0.5,0.5
2026-03-13T2000,2552A,107.4644,31.2124,达州市,市政中心,颗粒物(PM10),64,69,55,34,28,82,82,109,103,26,26,5,4,0.4,0.3
2026-03-13T2000,2614A,100.2168,25.5818,大理白族自治州,大理市环境监测站,,36,27,34,25,32,87,87,94,84,11,9,7,7,0.5,0.5
2026-03-13T2000,2615A,100.1542,25.7055,大理白族自治州,大理古城,,46,43,38,32,31,83,83,89,86,11,10,8,8,0.9,0.9
2026-03-13T2000,1109A,121.6119,38.974,大连市,甘井子,细颗粒物(PM2.5),62,59,62,41,47,93,93,108,107,28,30,8,9,0.5,0.5
2026-03-13T2000,1110A,121.565,38.9509,大连市,周水子,细颗粒物(PM2.5),72,60,67,46,48,98,98,109,109,22,31,9,9,0.6,0.7
2026-03-13T2000,1111A,121.5637,38.8849,大连市,星海三站,细颗粒物(PM2.5),66,56,65,43,48,80,80,74,74,16,20,3,4,0.6,0.7
2026-03-13T2000,1112A,121.6301,38.9117,大连市,青泥洼桥,细颗粒物(PM2.5),60,58,68,40,48,90,90,102,102,25,29,6,8,0.6,0.6
2026-03-13T2000,1113A,121.6248,38.8643,大连市,傅家庄,,49,49,64,28,42,83,83,82,82,23,26,7,10,0.4,0.5
2026-03-13T2000,1114A,121.5117,38.8636,大连市,七贤岭,细颗粒物(PM2.5),62,59,64,41,51,92,92,99,98,29,25,6,8,0.5,0.5
2026-03-13T2000,1116A,121.7507,39.1339,大连市,金州,细颗粒物(PM2.5),58,50,66,39,46,127,127,122,122,17,22,4,6,0.5,0.5
2026-03-13T2000,1117A,121.7811,39.0495,大连市,开发区,细颗粒物(PM2.5),56,55,72,38,52,105,105,110,110,24,33,9,8,0.4,0.5
2026-03-13T2000,1118A,121.9762,39.0631,大连市,双D港,,48,42,64,33,48,112,112,97,97,16,21,5,6,0.3,0.7
2026-03-13T2000,4082A,121.2548,38.8188,大连市,旅顺,细颗粒物(PM2.5),68,56,57,44,45,87,87,90,90,22,21,6,6,0.3,0.4
2026-03-13T2000,1789A,124.8085,46.0381,大庆市,大同区,细颗粒物(PM2.5),146,131,141,110,67,83,83,112,108,20,20,10,13,1.0,0.8
2026-03-13T2000,1790A,125.1166,46.5255,大庆市,龙凤区,细颗粒物(PM2.5),185,167,105,139,58,82,82,103,102,27,23,4,5,0.9,0.5
2026-03-13T2000,1791A,124.8894,46.4007,大庆市,红岗区,细颗粒物(PM2.5),186,152,101,140,65,66,66,107,99,30,18,6,8,1.1,0.7
2026-03-13T2000,1792A,125.1391,46.578,大庆市,萨尔图区,细颗粒物(PM2.5),173,183,118,131,63,53,53,59,57,19,19,4,6,1.0,0.8
2026-03-13T2000,1793A,124.9026,46.6217,大庆市,让胡路区,细颗粒物(PM2.5),196,157,95,147,60,68,68,101,97,22,18,5,10,1.0,0.6
2026-03-13T2000,3481A,125.127,46.6277,大庆市,萨区政府监测点,细颗粒物(PM2.5),185,232,113,139,59,72,72,108,105,13,9,9,10,1.2,0.8
2026-03-13T2000,1723A,113.2926,40.0759,大同市,云冈宾馆,,21,16,71,7,46,66,66,74,69,11,23,5,6,0.8,0.9
2026-03-13T2000,1724A,113.3437,40.0921,大同市,大同大学,,41,41,81,11,52,67,67,72,72,13,28,3,6,0.4,0.7
2026-03-13T2000,1725A,113.2637,40.129,大同市,安家小村,,31,31,81,11,51,59,59,73,69,13,23,9,11,0.4,0.7
2026-03-13T2000,3282A,113.3399,40.0586,大同市,大同市卫生学校,,34,34,77,14,50,75,75,78,78,7,23,3,5,0.3,0.6
2026-03-13T2000,3565A,113.1371,40.1122,大同市,云冈站,,32,32,82,18,48,71,71,73,73,4,22,5,7,0.4,0.6
2026-03-13T2000,3566A,113.1186,40.2556,大同市,图书馆,,34,34,87,16,50,69,69,71,70,15,21,6,9,0.5,0.9
2026-03-13T2000,3567A,113.5931,40.0459,大同市,区一中,,25,23,98,8,66,78,78,76,74,5,23,7,12,0,0.3
2026-03-13T2000,4199A,113.2798248,40.09972476,大同市,魏都大道141号,,33,33,83,12,51,71,71,76,73,8,22,7,9,0.4,0.8
2026-03-13T2000,2269A,124.1068,50.4091,大兴安岭地区,科技局,颗粒物(PM10),55,56,55,36,34,88,88,85,85,12,9,6,6,0.4,0.4
2026-03-13T2000,3663A,124.117,50.4279,大兴安岭地区,红旗社区,细颗粒物(PM2.5),56,39,42,38,33,88,88,92,92,18,11,11,11,0.6,0.4
2026-03-13T2000,1600A,124.33,40.0625,丹东市,江湾东路,细颗粒物(PM2.5),98,79,74,59,47,75,75,103,97,28,28,12,16,1.0,1.2
2026-03-13T2000,1601A,124.4242,40.1513,丹东市,临江后街,细颗粒物(PM2.5),78,63,56,49,39,84,84,102,100,22,26,18,13,0.8,0.8
2026-03-13T2000,1602A,124.3935,40.1461,丹东市,元宝山,颗粒物(PM10),57,59,58,26,34,89,89,99,99,17,22,6,12,0.7,1
2026-03-13T2000,1603A,124.3634,40.1093,丹东市,民主桥,,46,46,66,29,41,92,92,100,99,17,32,7,10,0.4,0.8
2026-03-13T2000,3541A,109.5726195,19.51688767,儋州市,第一中学子站,颗粒物(PM10),52,52,35,21,14,104,104,106,106,3,5,6,7,0.4,0.5
2026-03-13T2000,3542A,109.5567,19.5187,儋州市,东坡学校子站,NA,NA,51,38,22,17,108,108,110,110,NA,6,4,4,0.4,0.6
2026-03-13T2000,2616A,98.5611,24.4273,德宏傣族景颇族自治州,德宏州监测站,细颗粒物(PM2.5),98,NA,55,59,58,62,62,56,56,22,26,10,9,1.0,0.9
2026-03-13T2000,3677A,98.5887,24.4366,德宏傣族景颇族自治州,芒市人民政府综合楼,细颗粒物(PM2.5),96,90,87,58,53,49,49,53,53,28,22,7,6,1.0,0.9
2026-03-13T2000,1901A,104.424,31.1209,德阳市,东山公园,,43,39,33,30,31,60,60,73,70,12,8,2,2,0.6,0.5
2026-03-13T2000,1902A,104.3827,31.1318,德阳市,西小区,颗粒物(PM10),52,52,48,35,32,51,51,72,66,24,13,3,3,0.6,0.6
2026-03-13T2000,1904A,104.3553,31.1091,德阳市,耐火材料厂,细颗粒物(PM2.5),52,46,43,36,35,52,52,71,64,24,17,1,1,0.5,0.5
2026-03-13T2000,4145A,104.4144,31.1495,德阳市,市林业局,颗粒物(PM10),51,51,38,30,30,52,52,74,69,22,11,5,5,0.5,0.5
2026-03-13T2000,1622A,116.3034,37.4675,德州市,儿童乐园,细颗粒物(PM2.5),216,241,134,166,94,59,59,126,120,48,29,12,15,1.0,0.7
2026-03-13T2000,1624A,116.2992,37.4449,德州市,监理站,细颗粒物(PM2.5),214,246,134,164,94,71,71,131,126,46,35,6,10,0.9,0.8
2026-03-13T2000,3066A,116.2722,37.438,德州市,九衢泉纯净水厂,细颗粒物(PM2.5),219,237,124,169,89,72,72,123,118,47,42,4,9,0.9,0.7
2026-03-13T2000,3371A,116.3693,37.44,德州市,开发区人民医院,细颗粒物(PM2.5),196,219,131,147,90,66,66,126,120,45,33,10,11,0.9,0.7
2026-03-13T2000,3511A,116.5687,37.3331,德州市,陵城艺术中心,细颗粒物(PM2.5),139,136,117,102,91,103,103,122,122,30,31,6,10,0.9,0.9
2026-03-13T2000,4292A,116.352738,37.420875,德州市,新河东路,细颗粒物(PM2.5),183,205,129,138,86,72,72,122,118,41,38,10,12,0.9,0.8
2026-03-13T2000,2621A,99.7054,27.8319,迪庆藏族自治州,迪庆州站,,31,29,28,16,18,97,97,100,99,10,8,6,6,0.7,0.7
2026-03-13T2000,3180A,99.7122,27.8129,迪庆藏族自治州,质量技术监督局,,29,26,24,18,15,91,91,96,93,10,7,6,5,0.8,0.6
2026-03-13T2000,4257A,104.6092,35.5962,定西市,将台街,颗粒物(PM10),130,196,422,51,120,80,80,81,80,6,6,7,7,0.3,0.3
2026-03-13T2000,4309A,104.6159,35.5701,定西市,正龙路62号,颗粒物(PM10),140,224,440,46,107,78,78,80,76,9,7,2,2,0.4,0.4
2026-03-13T2000,4071A,114.9883,38.5232,定州市,交通局,细颗粒物(PM2.5),195,159,150,146,111,44,44,60,60,43,55,10,11,0.8,0.9
2026-03-13T2000,4072A,115.0045,38.5136,定州市,第五中学,细颗粒物(PM2.5),183,174,166,138,114,46,46,58,58,36,62,8,9,0.7,0.8
2026-03-13T2000,1390A,113.7943,23.0132,东莞市,东城石井,颗粒物(PM10),51,51,45,26,25,117,117,173,167,41,27,8,7,0.5,0.5
2026-03-13T2000,1391A,113.7384,22.9659,东莞市,南城西平,,49,49,49,21,27,105,105,160,154,40,33,9,9,0.5,0.6
2026-03-13T2000,3319A,113.7283,23.041,东莞市,万江金泰,颗粒物(PM10),51,51,49,25,26,113,113,153,150,39,23,7,7,0.6,0.6
2026-03-13T2000,4129A,113.8666,23.1062,东莞市,裕兴路,颗粒物(PM10),62,66,60,30,29,132,132,156,155,34,31,7,9,0.5,0.6
2026-03-13T2000,4130A,114.0076,22.9739,东莞市,教育路1号,颗粒物(PM10),58,60,58,26,26,139,139,159,158,22,31,6,7,0.4,0.4
2026-03-13T2000,4131A,113.7981,22.8124,东莞市,长怡路1号,颗粒物(PM10),61,65,60,26,26,132,132,153,152,27,30,5,5,0.5,0.6
2026-03-13T2000,1666A,118.6612,37.4313,东营市,市环保局,细颗粒物(PM2.5),136,114,78,99,56,135,135,151,151,23,22,9,18,0.6,0.7
2026-03-13T2000,3036A,118.6903,37.4337,东营市,开发区管委会,细颗粒物(PM2.5),132,109,70,95,50,146,146,152,152,29,31,9,14,0.7,0.8
2026-03-13T2000,3365A,118.5721,37.5654,东营市,垦利区民丰路,细颗粒物(PM2.5),149,122,68,113,55,NA,NA,159,159,44,27,13,13,0.9,0.9
2026-03-13T2000,3498A,118.5063,37.8606,东营市,河口城区,细颗粒物(PM2.5),146,161,82,110,54,130,130,136,136,30,22,9,8,0.9,0.7
2026-03-13T2000,3646A,118.4979,37.4623,东营市,胜利站,细颗粒物(PM2.5),147,146,79,111,53,116,116,135,135,44,36,10,14,1.1,0.8
2026-03-13T2000,3734A,118.5753,37.4405,东营市,理想之城,细颗粒物(PM2.5),135,127,84,98,54,140,140,166,166,32,37,5,11,1.0,0.9
2026-03-13T2000,1591A,110.0024,39.8127,鄂尔多斯市,综合楼,颗粒物(PM10),83,95,271,18,141,78,78,83,83,12,13,5,6,0.3,0.3
2026-03-13T2000,1592A,109.9485,39.8259,鄂尔多斯市,巴音孟克林场办事处,颗粒物(PM10),63,68,301,15,135,80,80,84,84,9,10,4,4,0.3,0.3
2026-03-13T2000,1593A,109.7734,39.5987,鄂尔多斯市,康泽苑,颗粒物(PM10),63,68,255,11,153,89,89,92,92,7,9,8,8,0.3,0.3
2026-03-13T2000,1594A,109.8121,39.5987,鄂尔多斯市,华泰汽车城,颗粒物(PM10),60,63,260,17,142,88,88,92,92,9,9,7,7,0.3,0.4
2026-03-13T2000,1595A,109.9734,39.7884,鄂尔多斯市,奥林花园,细颗粒物(PM2.5),130,NA,387,92,106,80,80,84,84,11,12,6,7,0.4,0.4
2026-03-13T2000,2436A,114.894,30.3989,鄂州市,市政府,NA,NA,72,49,39,38,NA,NA,134,134,21,22,8,10,0.4,0.5
2026-03-13T2000,2437A,114.8986,30.3714,鄂州市,赵家坝,细颗粒物(PM2.5),56,49,51,38,36,134,134,145,145,18,15,10,10,0.5,0.5
2026-03-13T2000,3654A,114.8093,30.4091,鄂州市,精准医疗中心,细颗粒物(PM2.5),58,50,53,39,39,123,123,139,138,24,19,29,14,1.3,0.9
2026-03-13T2000,2454A,109.4978,30.2979,恩施土家族苗族自治州,湖北民院,,49,41,52,34,39,110,110,130,129,14,13,7,6,0.5,0.5
2026-03-13T2000,3549A,109.5061,30.3771,恩施土家族苗族自治州,龙凤新区,细颗粒物(PM2.5),62,47,53,41,37,75,75,119,115,21,10,8,7,0.5,0.4
2026-03-13T2000,2499A,108.3411,21.6159,防城港市,沙万,颗粒物(PM10),74,83,60,22,35,130,130,129,129,17,21,6,8,0.5,0.8
2026-03-13T2000,2500A,108.3515,21.7733,防城港市,防城档案局,颗粒物(PM10),66,72,69,29,40,131,131,140,140,12,18,6,7,0.8,0.8
2026-03-13T2000,2501A,108.3506,21.6414,防城港市,大海花园,颗粒物(PM10),53,53,51,31,40,149,149,153,153,13,18,7,12,0.3,0.6
2026-03-13T2000,1371A,113.1293,23.0065,佛山市,湾梁,颗粒物(PM10),62,66,55,32,35,161,161,188,188,30,32,/,/,/,/
2026-03-13T2000,1372A,113.1082,23.0477,佛山市,华材职中,颗粒物(PM10),67,73,61,38,39,168,168,184,184,35,38,6,7,0.4,0.4
2026-03-13T2000,1373A,113.1439,23.045,佛山市,南海气象局,颗粒物(PM10),79,90,57,43,34,146,146,184,184,39,38,/,/,/,/
2026-03-13T2000,1374A,113.2879,22.8094,佛山市,顺德苏岗,,42,42,52,17,28,130,130,189,187,20,22,/,/,0.5,0.6
2026-03-13T2000,1376A,112.8384,22.8678,佛山市,高明孔堂,臭氧1小时(O3_1h),63,65,51,30,33,170,170,188,188,20,22,/,/,/,/
2026-03-13T2000,1377A,112.8835,23.1584,佛山市,三水监测站,颗粒物(PM10),65,70,51,39,33,99,99,160,158,79,34,4,5,0.5,0.5
2026-03-13T2000,1378A,112.8668,23.185,佛山市,三水云东海,颗粒物(PM10),63,68,54,36,29,136,136,180,180,29,24,/,/,/,/
2026-03-13T2000,3625A,113.2568,22.7629,佛山市,容桂街道办,,44,44,53,18,28,105,105,158,156,29,30,/,/,/,/
2026-03-13T2000,1282A,119.2681,26.0506,福州市,师大,,36,24,40,18,23,115,115,135,134,15,15,4,4,0.2,0.3
2026-03-13T2000,1283A,119.2983,26.1028,福州市,五四北路,,36,19,36,19,24,113,113,133,133,17,16,5,5,0.3,0.4
2026-03-13T2000,1284A,119.2648,26.0769,福州市,杨桥西路,,36,25,37,20,22,115,115,138,137,15,14,5,5,/,/
2026-03-13T2000,3048A,119.5799,26.0937,福州市,九龙,,39,32,38,14,27,124,124,137,136,10,14,4,5,0.3,0.4
2026-03-13T2000,3526A,119.5188,25.9666,福州市,吴航,,36,24,41,16,26,114,114,131,130,12,15,5,10,0.3,0.4
2026-03-13T2000,4104A,119.3106,26.0648,福州市,路通桥巷6号,,34,33,43,22,26,108,108,132,131,16,12,/,/,/,/
2026-03-13T2000,1755A,123.7974,41.8494,抚顺市,望花区,细颗粒物(PM2.5),68,65,107,44,55,82,82,110,104,30,38,12,10,1.0,1
2026-03-13T2000,1756A,123.9161,41.8827,抚顺市,顺城区,颗粒物(PM10),51,51,79,34,58,99,99,107,105,14,41,11,11,0.8,0.9
2026-03-13T2000,1757A,124.0437,41.8615,抚顺市,东洲区,,50,50,66,26,39,99,99,106,105,13,19,16,11,0.6,0.6
2026-03-13T2000,1758A,123.9246,41.8638,抚顺市,新抚区,颗粒物(PM10),59,62,84,32,47,106,106,117,116,16,35,10,10,0.7,0.7
2026-03-13T2000,1759A,124.0972,41.8961,抚顺市,大伙房水库,,48,48,53,25,37,109,109,116,115,6,14,12,12,0.5,0.6
2026-03-13T2000,1760A,123.708,41.8386,抚顺市,沈抚新城,细颗粒物(PM2.5),92,74,117,56,64,77,77,112,105,36,46,11,12,0.7,1.2
2026-03-13T2000,2377A,116.3544,27.9833,抚州市,市站,细颗粒物(PM2.5),60,52,45,40,31,122,122,144,143,17,13,6,14,0.8,0.8
2026-03-13T2000,2378A,116.3562,27.9631,抚州市,血防站,细颗粒物(PM2.5),58,51,45,39,29,120,120,144,143,13,6,3,6,0.9,0.9
2026-03-13T2000,2379A,116.3561,28.0007,抚州市,采茶剧团,细颗粒物(PM2.5),64,54,46,42,33,115,115,144,140,19,11,15,15,1.0,0.9
2026-03-13T2000,2380A,116.3854,27.9648,抚州市,医学分院,颗粒物(PM10),55,56,51,33,26,119,119,137,136,13,11,8,11,0.9,0.9
2026-03-13T2000,2207A,121.6095,41.9978,阜新市,工业园区,细颗粒物(PM2.5),60,61,130,40,61,64,64,90,82,25,39,12,21,0.6,0.8
2026-03-13T2000,2208A,121.6567,42.0188,阜新市,长青街,细颗粒物(PM2.5),74,66,100,47,60,64,64,91,83,27,33,13,17,0.7,0.8
2026-03-13T2000,2209A,121.6672,42.07,阜新市,农业园区,颗粒物(PM10),65,70,104,42,52,60,60,85,78,23,23,8,17,0.5,0.6
2026-03-13T2000,2211A,121.6343,42.0455,阜新市,玉龙新城,颗粒物(PM10),61,65,117,36,58,64,64,89,82,25,42,11,14,0.6,0.8
2026-03-13T2000,2301A,115.8276,32.8929,阜阳市,市监测站,细颗粒物(PM2.5),105,101,102,65,81,100,100,130,127,34,23,6,5,0.5,0.5
2026-03-13T2000,2303A,115.8551,32.8606,阜阳市,开发区,细颗粒物(PM2.5),104,112,118,64,76,106,106,125,123,32,22,5,5,0.6,0.6
2026-03-13T2000,2875A,115.783962,32.889217,阜阳市,阜阳职业技术学院,颗粒物(PM10),78,88,87,39,62,119,119,134,132,27,20,6,7,0.5,0.5
2026-03-13T2000,3468A,115.79,32.8614,阜阳市,市规划展馆,细颗粒物(PM2.5),104,65,104,64,77,121,121,137,136,25,17,8,8,0.5,0.5
2026-03-13T2000,3469A,115.835101,32.918568,阜阳市,枣园社区,细颗粒物(PM2.5),110,94,103,70,80,104,104,130,127,29,20,10,8,0.6,0.6
2026-03-13T2000,2669A,102.9097,34.9841,甘南藏族自治州,州政府,,39,35,90,27,38,52,52,52,48,6,5,3,3,0.4,0.4
2026-03-13T2000,3380A,102.8915,34.9618,甘南藏族自治州,甘肃民族师范学院,,23,20,91,16,31,68,68,70,67,10,13,3,3,0.3,0.4
2026-03-13T2000,2570A,101.96,30.048,甘孜藏族自治州,水桥子,,20,7,11,3,5,61,61,70,70,12,12,4,3,0.9,0.8
2026-03-13T2000,3065A,101.9534,29.9976,甘孜藏族自治州,州环保局,,22,9,9,6,7,70,70,73,73,12,13,6,6,0.7,0.6
2026-03-13T2000,2363A,114.9368,25.8663,赣州市,地委,,38,37,40,26,23,106,106,137,134,26,18,5,6,0.8,0.6
2026-03-13T2000,2364A,114.946,25.8483,赣州市,气象台,,49,42,43,34,26,90,90,140,134,41,24,8,8,0.5,0.3
2026-03-13T2000,2365A,114.932,25.8332,赣州市,市图书馆,,49,37,38,34,23,89,89,128,125,38,19,3,4,0.5,0.4
2026-03-13T2000,2366A,114.8905,25.8472,赣州市,华坚鞋城,细颗粒物(PM2.5),60,49,41,40,24,53,53,131,119,68,20,6,8,0.7,0.4
2026-03-13T2000,3109A,115.0094,25.8614,赣州市,赣县区卫计委,,45,36,34,31,19,65,65,127,120,40,22,3,5,0.4,0.7
2026-03-13T2000,2684A,106.2753,36.0057,固原市,监测站,颗粒物(PM10),329,443,890,86,186,63,63,70,64,11,10,8,8,0.3,0.3
2026-03-13T2000,2685A,106.2384,36.0189,固原市,新区,颗粒物(PM10),295,416,848,83,190,64,64,69,62,10,10,7,8,0.3,0.3
2026-03-13T2000,2544A,106.6307,30.4577,广安市,市委,细颗粒物(PM2.5),106,72,56,66,42,72,72,94,88,19,20,7,7,0.7,0.6
2026-03-13T2000,2545A,106.6266,30.4662,广安市,友谊中学,NA,NA,NA,50,NA,33,NA,NA,92,88,NA,18,7,7,0.7,0.6
2026-03-13T2000,2547A,106.6386,30.4551,广安市,广电花园,细颗粒物(PM2.5),111,93,68,72,44,69,69,92,86,17,23,9,8,0.8,0.7
2026-03-13T2000,2902A,106.6347,30.4868,广安市,北辰小学,细颗粒物(PM2.5),107,81,58,67,42,63,63,89,82,18,16,6,5,0.8,0.6
2026-03-13T2000,2524A,105.8211,32.4444,广元市,老城,,37,37,62,12,45,52,52,56,50,31,31,4,5,0.7,0.7
2026-03-13T2000,2526A,105.8629,32.429,广元市,监测站,,32,32,61,12,49,59,59,61,61,26,30,2,3,0.9,0.9
2026-03-13T2000,3617A,105.8047,32.4167,广元市,经开区,,19,16,52,13,41,52,52,52,52,26,33,3,5,0.7,0.8
2026-03-13T2000,1345A,113.2346,23.1423,广州市,广雅中学,颗粒物(PM10),60,63,55,38,34,153,153,179,179,27,35,4,4,0.4,0.4
2026-03-13T2000,1346A,113.2611,23.105,广州市,市五中,NA,NA,NA,52,NA,35,NA,NA,205,205,29,40,7,8,/,/
2026-03-13T2000,1348A,113.3477,23.0916,广州市,广东商学院,,48,48,43,22,25,122,122,171,171,30,46,6,7,0.6,0.7
2026-03-13T2000,1349A,113.4332,23.105,广州市,市八十六中,,41,39,38,27,24,129,129,179,176,39,62,6,7,/,/
2026-03-13T2000,1350A,113.3506,22.9488,广州市,番禺中学,,49,49,44,25,29,123,123,176,174,25,28,4,4,0.5,0.5
2026-03-13T2000,1351A,113.2147,23.3918,广州市,花都师范,颗粒物(PM10),60,63,44,37,24,141,141,150,150,28,18,7,8,0.6,0.6
2026-03-13T2000,1352A,113.2599,23.1329,广州市,市监测站,颗粒物(PM10),60,64,58,36,33,147,147,175,175,29,40,2,2,/,/
2026-03-13T2000,1353A,113.5618,23.3119,广州市,九龙镇镇龙,颗粒物(PM10),60,64,42,36,25,119,119,144,143,44,29,7,6,0.5,0.4
2026-03-13T2000,1354A,113.2764,23.1544,广州市,麓湖,颗粒物(PM10),59,62,49,36,33,156,156,177,177,24,41,4,4,0.3,0.3
2026-03-13T2000,2846A,113.3209,23.1323,广州市,体育西,颗粒物(PM10),56,58,58,33,34,139,139,170,170,36,48,7,7,0.7,0.7
2026-03-13T2000,3298A,113.5718,23.5493,广州市,从化街口,细颗粒物(PM2.5),60,59,35,40,23,138,138,138,138,22,16,6,6,0.6,0.5
2026-03-13T2000,3299A,113.3463,23.369,广州市,白云竹料,颗粒物(PM10),58,61,49,36,28,136,136,145,145,36,20,5,5,0.7,0.6
2026-03-13T2000,3300A,113.2981,23.2365,广州市,白云嘉禾,颗粒物(PM10),60,63,47,33,26,149,149,170,170,47,43,7,7,/,/
2026-03-13T2000,3301A,113.4256,23.1716,广州市,黄埔科学城,NA,NA,57,48,35,34,144,144,175,175,NA,38,8,8,0.5,0.6
2026-03-13T2000,3302A,113.3942,23.0485,广州市,番禺大学城,,44,44,58,17,31,136,136,194,186,33,36,6,8,0.4,0.5
2026-03-13T2000,3303A,113.4923,22.8169,广州市,南沙黄阁,,47,47,53,17,26,121,121,180,175,32,29,7,7,/,/
2026-03-13T2000,3304A,113.534,22.7893,广州市,南沙街,,49,49,51,17,24,108,108,169,164,28,21,7,8,0.4,0.5
2026-03-13T2000,3443A,113.2905,23.5541,广州市,花都梯面,细颗粒物(PM2.5),58,50,33,39,23,102,102,123,121,17,13,6,7,/,/
2026-03-13T2000,3445A,113.786,23.7479,广州市,从化良口,,36,28,26,21,18,114,114,129,126,9,10,5,4,/,/
2026-03-13T2000,3446A,113.805,23.2614,广州市,增城荔城,颗粒物(PM10),55,57,43,34,25,119,119,160,156,32,25,9,9,0.5,0.5
2026-03-13T2000,2506A,109.604387,23.066791,贵港市,江南子站,颗粒物(PM10),75,85,78,38,44,128,128,156,156,21,32,9,10,0.6,0.7
2026-03-13T2000,2508A,109.5669,23.1065,贵港市,荷城子站,颗粒物(PM10),62,66,63,40,35,140,140,159,159,18,33,10,10,0.7,0.7
2026-03-13T2000,3405A,109.5886,23.1172,贵港市,新世纪学校,颗粒物(PM10),75,85,58,44,37,132,132,160,160,23,29,/,/,0.6,0.5
2026-03-13T2000,4260A,109.5933,23.095,贵港市,中山路155-3号,颗粒物(PM10),55,56,64,36,45,138,138,165,165,20,29,/,/,0.5,0.6
2026-03-13T2000,1439A,106.6863,26.6035,贵阳市,马鞍山,,39,39,27,26,16,89,89,100,98,12,11,6,4,/,/
2026-03-13T2000,1441A,106.6241,26.6266,贵阳市,鉴湖路,颗粒物(PM10),55,56,39,23,16,88,88,100,97,14,12,5,6,0.3,0.3
2026-03-13T2000,1442A,106.7468,26.6344,贵阳市,燕子冲,,43,41,34,30,18,92,92,100,99,12,14,4,5,0.4,0.4
2026-03-13T2000,1443A,106.6556,26.4362,贵阳市,碧云窝,,48,48,35,28,19,101,101,112,110,10,9,7,6,/,/
2026-03-13T2000,1445A,106.6963,26.6063,贵阳市,红边门,,46,46,38,31,19,93,93,104,101,16,18,5,6,/,/
2026-03-13T2000,1446A,106.7162383,26.56964667,贵阳市,新华路,颗粒物(PM10),53,53,42,28,17,87,87,102,98,20,19,12,8,0.6,0.3
2026-03-13T2000,1447A,106.6742,26.542,贵阳市,太慈桥,,50,41,30,35,18,97,97,105,103,12,16,3,2,/,/
2026-03-13T2000,4230A,106.688212,26.56952,贵阳市,花果园大街66号,,39,36,29,27,16,90,90,100,98,13,16,4,4,/,/
2026-03-13T2000,4231A,106.687268,26.516892,贵阳市,漓江路57号,,44,44,26,28,16,96,96,106,103,14,20,10,10,0.6,0.5
2026-03-13T2000,1864A,110.3091,25.2705,桂林市,龙隐路小学,,50,44,47,35,35,87,87,131,126,23,12,4,5,0.8,0.8
2026-03-13T2000,1865A,110.2849361,25.22909545,桂林市,八中,颗粒物(PM10),57,59,51,26,22,65,65,115,109,38,15,5,5,1.0,0.8
2026-03-13T2000,3531A,110.296,25.1254,桂林市,旅游学院,细颗粒物(PM2.5),122,109,53,84,40,104,104,130,127,19,13,7,6,0.8,0.6
2026-03-13T2000,4222A,110.1835,25.2444,桂林市,环湖路276号,细颗粒物(PM2.5),62,56,53,41,28,84,84,131,125,16,9,3,5,0.9,0.7
2026-03-13T2000,4301A,110.2803,25.2773,桂林市,信义路13号,,49,49,49,32,36,52,52,129,120,60,15,5,6,0.9,0.7
2026-03-13T2000,2674A,100.2262,34.4854,果洛藏族自治州,玛沁县大武镇,颗粒物(PM10),85,99,333,50,123,76,76,85,85,1,2,24,21,0.5,0.4
2026-03-13T2000,1130A,126.5557,45.8109,哈尔滨市,松北商大,细颗粒物(PM2.5),88,76,55,54,37,90,90,100,98,15,20,10,10,0.6,0.6
2026-03-13T2000,1132A,126.6162,45.719,哈尔滨市,南岗学府路,"颗粒物(PM10),细颗粒物(PM2.5)",64,69,56,42,29,64,64,100,93,22,23,11,11,0.4,0.3
2026-03-13T2000,1133A,126.6894,45.7733,哈尔滨市,太平宏伟公园,细颗粒物(PM2.5),66,53,60,43,32,72,72,95,91,26,27,10,10,0.6,0.5
2026-03-13T2000,1134A,126.6361,45.7672,哈尔滨市,道外承德广场,颗粒物(PM10),98,117,69,51,30,66,66,93,87,31,22,10,10,0.3,0.4
2026-03-13T2000,1136A,126.644,45.7261,哈尔滨市,动力和平路,细颗粒物(PM2.5),80,66,59,50,32,72,72,94,90,21,21,12,11,0.8,0.8
2026-03-13T2000,1137A,126.5933,45.7479,哈尔滨市,道里建国路,细颗粒物(PM2.5),66,50,53,43,29,75,75,95,89,28,31,13,12,0.4,0.5
2026-03-13T2000,1138A,126.6127,45.6119,哈尔滨市,平房东轻厂,颗粒物(PM10),82,94,46,50,32,49,49,62,62,41,40,9,8,0.7,0.6
2026-03-13T2000,1139A,126.5875,45.9827,哈尔滨市,呼兰师专,颗粒物(PM10),127,190,60,75,31,102,102,88,88,23,22,12,10,0.5,0.3
2026-03-13T2000,1140A,126.6299,45.6799,哈尔滨市,省农科院,细颗粒物(PM2.5),72,65,108,46,40,62,62,78,73,26,35,12,13,0.7,0.8
2026-03-13T2000,4282A,126.6769,45.7379,哈尔滨市,华山路1号,细颗粒物(PM2.5),82,80,62,51,32,69,69,101,97,31,21,3,4,0.8,0.7
2026-03-13T2000,4283A,126.9717,45.5356,哈尔滨市,解放大街52号,,36,34,34,25,18,87,87,98,96,9,12,2,4,0.3,0.6
2026-03-13T2000,2688A,93.5124,42.8176,哈密市,地区监测站,,45,45,33,22,10,75,75,78,78,12,7,5,5,0.5,0.4
2026-03-13T2000,2689A,93.5014,42.8312,哈密市,哈密师范学校,,43,43,33,18,10,84,84,86,86,13,9,6,6,0.3,0.3
2026-03-13T2000,2671A,100.9016,36.9464,海北藏族自治州,海晏县西海镇,颗粒物(PM10),87,101,206,49,69,69,69,82,73,4,3,8,9,0.6,0.5
2026-03-13T2000,3867A,102.074,36.5056,海东市,平安区公安局北苑,颗粒物(PM10),283,408,540,115,151,71,71,82,74,8,5,14,9,0.5,0.5
2026-03-13T2000,4163A,102.0984,36.5119,海东市,滨河路,颗粒物(PM10),305,424,575,116,152,45,45,65,52,31,18,10,8,0.6,0.5
2026-03-13T2000,1410A,110.3189,20.0596,海口市,海南大学,,49,49,37,22,18,137,137,134,134,4,6,6,6,0.3,0.4
2026-03-13T2000,1411A,110.2827,20.0051,海口市,秀英海南医院,,44,44,37,22,18,125,125,123,123,6,8,8,8,0.2,0.2
2026-03-13T2000,1412A,110.3391,19.9979,海口市,海南师范大学,颗粒物(PM10),53,53,43,22,20,134,134,132,132,7,9,6,6,0.3,0.3
2026-03-13T2000,1413A,110.3303,20.0359,海口市,龙华路环保局宿舍,,49,49,42,24,20,139,139,137,137,7,8,/,/,0.3,0.3
2026-03-13T2000,3539A,110.5111,19.9737,海口市,桂林洋子站,,48,48,38,22,20,134,134,132,132,7,7,/,/,/,/
2026-03-13T2000,4134A,110.1952,20.0451,海口市,长滨二路9号,,46,46,37,22,20,133,133,132,132,4,7,/,/,/,/
2026-03-13T2000,2673A,100.6158,36.2985,海南藏族自治州,共和县恰卜恰镇,颗粒物(PM10),55,57,189,32,77,71,71,82,78,6,7,9,12,0.5,0.4
2026-03-13T2000,2676A,97.373,37.376,海西蒙古族藏族自治州,德令哈市,颗粒物(PM10),55,56,514,23,140,108,108,106,106,2,3,13,14,0.3,0.4
2026-03-13T2000,1049A,114.492,36.5712,邯郸市,矿院,细颗粒物(PM2.5),117,98,136,78,102,103,103,125,124,20,38,2,3,0.5,0.7
2026-03-13T2000,1050A,114.4839,36.6136,邯郸市,丛台公园,细颗粒物(PM2.5),182,152,149,137,128,78,78,122,119,34,27,3,3,0.7,0.7
2026-03-13T2000,3458A,114.7893,36.5592,邯郸市,香泉濮院小区,细颗粒物(PM2.5),110,107,143,71,106,95,95,132,128,21,19,2,2,0.4,0.6
2026-03-13T2000,3580A,114.1998,36.4439,邯郸市,峰峰矿区临水派出所,细颗粒物(PM2.5),105,82,90,65,75,118,118,132,129,9,8,4,4,0.4,0.6
2026-03-13T2000,4068A,114.5209,36.7697,邯郸市,建安街268号,细颗粒物(PM2.5),217,178,153,167,142,53,53,109,92,42,40,4,3,1.1,0.7
2026-03-13T2000,4069A,114.5488,36.6177,邯郸市,丛台东路558号,细颗粒物(PM2.5),137,NA,135,100,133,71,71,121,116,43,38,1,2,0.7,0.7
2026-03-13T2000,2635A,107.0155,33.0707,汉中市,市监测站,细颗粒物(PM2.5),137,NA,94,100,98,81,81,95,86,17,14,7,7,0.9,0.8
2026-03-13T2000,2636A,107.0083,33.114,汉中市,鑫源开发区,细颗粒物(PM2.5),138,108,91,101,100,73,73,108,88,17,14,4,4,0.6,0.7
2026-03-13T2000,2637A,107.0072,33.0323,汉中市,南郑大河坎水厂,细颗粒物(PM2.5),147,134,114,111,96,63,63,92,82,27,20,5,4,1.0,0.8
2026-03-13T2000,1223A,120.2073,30.2111,杭州市,滨江,细颗粒物(PM2.5),104,89,72,64,50,87,87,108,107,51,31,9,8,0.7,0.7
2026-03-13T2000,1224A,120.0625,30.2737,杭州市,西溪,颗粒物(PM10),60,63,65,37,43,72,72,108,106,34,32,9,9,0.5,0.6
2026-03-13T2000,1226A,120.3417,30.315,杭州市,下沙,细颗粒物(PM2.5),72,67,78,46,53,94,94,113,110,34,39,8,9,0.6,0.6
2026-03-13T2000,1227A,120.1252,30.2465,杭州市,卧龙桥,,50,50,62,30,44,48,48,114,105,44,27,7,7,0.4,0.4
2026-03-13T2000,1228A,120.1902,30.2691,杭州市,浙江农大,细颗粒物(PM2.5),78,81,76,49,49,100,100,125,123,44,38,9,8,0.7,0.6
2026-03-13T2000,1230A,120.1195,30.3121,杭州市,和睦小学,颗粒物(PM10),65,70,76,42,50,75,75,109,105,46,31,8,7,0.6,0.7
2026-03-13T2000,1231A,120.3076,30.4146,杭州市,临平镇,细颗粒物(PM2.5),66,64,72,43,52,111,111,121,121,27,30,7,8,0.6,0.6
2026-03-13T2000,1232A,120.2753,30.1839,杭州市,城厢镇,细颗粒物(PM2.5),107,89,75,67,50,89,89,111,110,32,27,12,10,NA,0.8
2026-03-13T2000,1233A,120.0883,30.1808,杭州市,云栖,颗粒物(PM10),51,51,61,30,41,45,45,111,105,50,33,3,4,0.6,0.7
2026-03-13T2000,3557A,119.9463,30.0496,杭州市,镇二中,细颗粒物(PM2.5),80,55,50,50,48,84,84,116,112,39,35,6,5,0.7,0.7
2026-03-13T2000,3558A,119.7184,30.2367,杭州市,市府大楼,颗粒物(PM10),54,55,50,27,42,77,77,105,102,26,20,7,7,0.5,0.5
2026-03-13T2000,3656A,120.1554,30.2863,杭州市,消防大队,细颗粒物(PM2.5),82,76,72,51,54,89,89,110,109,38,27,9,8,0.6,0.7
2026-03-13T2000,1270A,117.1957,31.7845,合肥市,明珠广场,细颗粒物(PM2.5),66,68,84,43,68,105,105,129,127,25,23,7,7,0.8,0.8
2026-03-13T2000,1271A,117.307,31.8765,合肥市,三里街,颗粒物(PM10),63,68,87,37,67,84,84,117,113,45,38,7,6,0.7,0.7
2026-03-13T2000,1272A,117.2587,31.8703,合肥市,琥珀山庄,颗粒物(PM10),70,78,87,39,69,95,95,133,130,42,36,8,8,0.6,0.6
2026-03-13T2000,1275A,117.2593,31.9376,合肥市,庐阳区,颗粒物(PM10),68,75,93,32,65,72,72,118,113,52,32,5,4,0.7,0.7
2026-03-13T2000,1276A,117.345251,31.861615,合肥市,瑶海区,颗粒物(PM10),80,92,92,37,60,73,73,125,117,58,37,7,5,0.8,0.7
2026-03-13T2000,1277A,117.3033,31.7967,合肥市,包河区,颗粒物(PM10),83,95,91,37,62,67,67,130,123,71,63,11,10,0.9,0.9
2026-03-13T2000,1278A,117.278,31.7392,合肥市,滨湖新区,颗粒物(PM10),68,75,88,38,64,103,103,131,128,24,17,4,3,0.6,0.7
2026-03-13T2000,1279A,117.1324,31.8395,合肥市,高新区,颗粒物(PM10),63,68,83,37,58,110,110,126,124,8,13,4,4,0.7,0.7
2026-03-13T2000,3464A,117.3802,31.9148,合肥市,高教基地,颗粒物(PM10),58,61,85,24,58,73,73,130,122,44,32,8,8,0.5,0.6
2026-03-13T2000,4098A,117.2518,31.8404,合肥市,中国科学技术大学,颗粒物(PM10),70,78,87,38,61,100,100,139,136,36,23,7,6,0.7,0.7
2026-03-13T2000,3614A,79.9241,37.0878,和田地区,地区环保局,"颗粒物(PM10),细颗粒物(PM2.5)",500,3846,2896,961,537,60,60,66,58,4,4,2,2,0.8,0.8
2026-03-13T2000,3615A,79.9132,37.1137,和田地区,市环保局,"颗粒物(PM10),细颗粒物(PM2.5)",500,3798,2708,1145,639,64,64,68,62,6,8,3,2,0.8,0.7
2026-03-13T2000,2517A,108.0496,24.6957,河池市,市环保站,,49,43,44,34,24,87,87,113,111,8,18,6,6,0.7,0.6
2026-03-13T2000,4302A,108.0901,24.6945,河池市,上任中路54号,,48,48,52,31,31,70,70,101,99,32,28,9,8,0.6,0.5
2026-03-13T2000,1697A,114.6962,23.7538,河源市,东埔,细颗粒物(PM2.5),60,60,36,40,26,90,90,135,130,30,12,6,7,0.8,0.6
2026-03-13T2000,1698A,114.6895,23.7232,河源市,老城,颗粒物(PM10),56,58,37,23,29,115,115,139,136,17,11,7,8,0.6,0.6
2026-03-13T2000,3374A,115.5562,35.089,菏泽市,定陶老年大学,细颗粒物(PM2.5),98,90,152,59,123,101,101,130,127,20,21,6,5,0.4,0.7
2026-03-13T2000,4114A,115.4239,35.2593,菏泽市,黄河路600号,细颗粒物(PM2.5),103,89,172,63,133,104,104,129,128,18,27,2,2,0.5,0.7
2026-03-13T2000,4115A,115.5025,35.2727,菏泽市,菏泽市人社局,细颗粒物(PM2.5),106,95,158,66,132,84,84,124,120,32,30,3,4,0.5,0.7
2026-03-13T2000,4184A,115.479691,35.244011,菏泽市,永昌路1号,细颗粒物(PM2.5),105,91,160,65,130,104,104,136,133,25,31,2,2,0.5,0.7
2026-03-13T2000,4193A,115.471542,35.280012,菏泽市,长城路999号,细颗粒物(PM2.5),105,95,153,65,125,112,112,138,136,18,20,5,8,0.3,0.5
2026-03-13T2000,2514A,111.5264,24.4178,贺州市,环保小区,细颗粒物(PM2.5),90,69,45,55,32,104,104,127,125,19,17,6,5,0.6,0.5
2026-03-13T2000,2515A,111.561,24.4074,贺州市,政协大楼,细颗粒物(PM2.5),68,54,42,44,31,84,84,107,105,30,27,7,6,0.5,0.4
2026-03-13T2000,3534A,111.4744,24.455,贺州市,西湾,细颗粒物(PM2.5),101,NA,46,61,31,79,79,121,117,32,17,9,8,0.9,0.7
2026-03-13T2000,2385A,114.17,35.9019,鹤壁市,市监测站,细颗粒物(PM2.5),130,120,146,93,112,98,98,123,116,28,21,7,5,0.7,0.7
2026-03-13T2000,2386A,114.2953,35.7512,鹤壁市,市交警支队,细颗粒物(PM2.5),130,131,150,93,124,87,87,105,104,36,35,7,6,0.6,0.7
2026-03-13T2000,2387A,114.2877,35.7302,鹤壁市,迎宾馆,细颗粒物(PM2.5),128,123,155,90,121,91,91,113,110,31,32,8,8,0.8,0.8
2026-03-13T2000,3474A,114.2616,35.6824,鹤壁市,大新区,细颗粒物(PM2.5),132,102,124,95,126,71,71,107,101,44,45,5,5,0.8,0.8
2026-03-13T2000,3596A,114.1573,35.9607,鹤壁市,南山宾馆,细颗粒物(PM2.5),140,134,140,103,114,NA,NA,121,117,28,23,8,9,0.7,0.7
2026-03-13T2000,2244A,130.2537,47.3416,鹤岗市,哈啤分公司,,33,33,30,17,17,74,74,87,84,13,11,12,10,0.2,0.3
2026-03-13T2000,2245A,130.2683,47.3087,鹤岗市,斯达机电,,31,31,38,17,18,76,76,90,84,10,12,9,9,0.4,0.4
2026-03-13T2000,2246A,130.3114,47.3388,鹤岗市,东山纸板厂,,36,36,65,13,20,80,80,90,86,10,21,8,8,0.4,0.9
2026-03-13T2000,2263A,127.4832,50.2524,黑河市,交通局,,28,23,23,9,9,87,87,95,94,8,9,6,7,0.3,0.4
2026-03-13T2000,2264A,127.5146,50.2339,黑河市,环保局,,30,10,14,9,9,94,94,96,96,10,11,10,9,0.3,0.3
2026-03-13T2000,1074A,115.6839,37.754,衡水市,电机北厂,细颗粒物(PM2.5),209,201,141,159,114,61,61,95,90,39,32,8,9,0.6,0.7
2026-03-13T2000,1075A,115.6303,37.7318,衡水市,市监测站,细颗粒物(PM2.5),208,170,126,158,103,58,58,88,85,34,34,11,12,0.7,0.7
2026-03-13T2000,3188A,115.6684,37.7216,衡水市,市城管局,细颗粒物(PM2.5),195,174,141,146,102,67,67,92,89,32,37,6,7,0.8,0.8
2026-03-13T2000,3459A,115.599,37.5491,衡水市,地表水厂,细颗粒物(PM2.5),217,188,136,167,116,68,68,102,96,34,50,7,8,0.9,0.7
2026-03-13T2000,2457A,112.6209,26.9268,衡阳市,衡阳化工总厂,,46,40,56,32,42,111,111,134,133,17,11,7,7,0.8,0.9
2026-03-13T2000,2458A,112.621,26.8957,衡阳市,珠晖区环保局,,46,46,52,24,35,95,95,132,129,36,23,6,6,0.8,0.8
2026-03-13T2000,2459A,112.628,26.8654,衡阳市,市委党校,,40,32,49,28,39,116,116,134,134,14,11,8,9,0.8,0.8
2026-03-13T2000,2460A,112.6007,26.8977,衡阳市,市监测站,细颗粒物(PM2.5),104,94,63,64,39,103,103,144,141,56,25,9,10,1.0,0.5
2026-03-13T2000,2461A,112.5658,26.9013,衡阳市,真空机电公司,颗粒物(PM10),60,64,59,34,41,85,85,136,131,47,20,7,9,1.0,0.9
2026-03-13T2000,3399A,112.6703,26.8817,衡阳市,师范学院,,43,40,52,30,37,95,95,133,129,19,9,5,8,0.9,0.9
2026-03-13T2000,3038A,103.3757,23.3679,红河哈尼族彝族自治州,州图书馆,,43,35,35,30,30,92,92,87,87,8,6,4,4,0.5,0.5
2026-03-13T2000,4154A,103.401,23.3561,红河哈尼族彝族自治州,蒙自市朝阳路,,40,30,32,28,27,104,104,98,98,8,6,7,7,0.6,0.5
2026-03-13T2000,1090A,111.6506,40.7517,呼和浩特市,呼市一监,,29,29,116,10,47,81,81,82,80,5,13,6,8,0.3,0.5
2026-03-13T2000,1094A,111.7516,40.8369,呼和浩特市,如意水处理厂,,27,27,85,12,42,82,82,91,82,7,12,8,9,0.2,0.3
2026-03-13T2000,1095A,111.727798,40.806187,呼和浩特市,二十九中,,30,30,120,14,41,75,75,82,75,6,10,10,12,0.3,0.4
2026-03-13T2000,1097A,111.717,40.7617,呼和浩特市,化肥厂生活区,,31,31,95,14,44,78,78,81,78,7,14,5,6,0.3,0.4
2026-03-13T2000,3699A,111.6519,40.8389,呼和浩特市,海东办,,29,29,122,7,42,80,80,84,80,6,11,3,6,0.4,0.5
2026-03-13T2000,4275A,111.591512,40.827312,呼和浩特市,成吉思汗西街8号,,27,27,130,6,35,73,73,77,71,7,14,5,8,0.3,0.4
2026-03-13T2000,4276A,111.6597,40.8077,呼和浩特市,公园东路75号,,27,27,134,8,38,75,75,81,73,8,13,7,9,0.3,0.4
2026-03-13T2000,4277A,111.5427,40.7846,呼和浩特市,金海路35号,,35,35,114,8,46,69,69,76,71,10,13,6,9,0.2,0.4
2026-03-13T2000,3061A,119.7511,49.1576,呼伦贝尔市,国华电力东,,34,34,26,18,15,91,91,89,89,9,12,5,5,0.2,0.2
2026-03-13T2000,4279A,119.7569,49.2222,呼伦贝尔市,伊敏大街东7号,,35,35,29,22,15,89,89,88,88,11,7,7,7,0.2,0.2
2026-03-13T2000,1250A,120.075,30.867,湖州市,城西水厂,,42,40,65,29,50,105,105,129,128,24,28,8,6,0.4,0.5
2026-03-13T2000,2873A,120.083,30.8929,湖州市,仁皇山新区,,41,41,58,28,50,108,108,122,122,23,22,6,6,0.4,0.6
2026-03-13T2000,2907A,120.1846,30.8592,湖州市,吴兴区站,,46,46,75,31,55,92,92,102,102,25,20,6,6,0.3,0.5
2026-03-13T2000,3562A,120.4146,30.8538,湖州市,南浔区站,细颗粒物(PM2.5),60,51,75,40,56,106,106,116,115,21,23,8,8,0.5,0.6
2026-03-13T2000,1607A,120.904878,40.721091,葫芦岛市,龙港区,细颗粒物(PM2.5),68,NA,41,44,33,82,82,81,81,19,25,8,10,0.5,0.5
2026-03-13T2000,1608A,120.8382,40.7521,葫芦岛市,化工街,细颗粒物(PM2.5),110,NA,64,70,43,69,69,76,72,29,56,11,20,0.4,0.6
2026-03-13T2000,1609A,120.8339,40.7078,葫芦岛市,新区,细颗粒物(PM2.5),58,43,45,39,33,75,75,76,74,22,36,7,12,0.5,0.6
2026-03-13T2000,1610A,120.8697,40.7679,葫芦岛市,东城区,细颗粒物(PM2.5),84,NA,55,52,45,68,68,72,70,28,51,9,19,0.7,0.8
2026-03-13T2000,2483A,109.9297,27.5383,怀化市,河西地税局,细颗粒物(PM2.5),103,105,65,63,46,62,62,134,126,44,16,4,4,/,/
2026-03-13T2000,2484A,109.9783,27.5342,怀化市,市四医院,颗粒物(PM10),73,81,71,28,34,84,84,130,126,27,14,9,9,0.8,0.6
2026-03-13T2000,2485A,109.9971,27.5579,怀化市,监测楼,细颗粒物(PM2.5),68,71,60,44,48,80,80,131,127,29,10,5,4,0.6,0.4
2026-03-13T2000,1210A,119.0566,33.5991,淮安市,钵池山,细颗粒物(PM2.5),78,78,81,49,66,90,90,116,115,38,27,9,8,0.4,0.4
2026-03-13T2000,1211A,119.0083,33.578,淮安市,北京南路,细颗粒物(PM2.5),90,78,77,55,69,90,90,111,110,34,25,7,7,0.6,0.5
2026-03-13T2000,1212A,118.9938,33.6083,淮安市,市监测站,细颗粒物(PM2.5),92,68,69,56,66,106,106,114,114,26,24,6,5,0.7,0.6
2026-03-13T2000,1213A,119.135,33.5038,淮安市,楚州区监测站,NA,NA,NA,92,NA,74,73,73,112,108,50,40,6,6,0.5,0.5
2026-03-13T2000,3426A,118.8757,33.2897,淮安市,新华书店,细颗粒物(PM2.5),82,72,86,51,72,101,101,117,116,30,28,7,7,0.4,0.5
2026-03-13T2000,4092A,119.119691,33.550006,淮安市,枚皋中路89号,细颗粒物(PM2.5),88,71,89,54,64,89,89,108,107,36,36,10,9,0.4,0.4
2026-03-13T2000,4206A,119.028838,33.631911,淮安市,承德北路606号,细颗粒物(PM2.5),84,90,99,52,68,83,83,107,104,38,30,8,7,0.5,0.5
2026-03-13T2000,2282A,116.8005,33.9749,淮北市,监测站,细颗粒物(PM2.5),56,56,108,38,76,108,108,118,118,22,20,6,6,0.5,0.6
2026-03-13T2000,2283A,116.8094,33.9008,淮北市,烈山区政府,颗粒物(PM10),63,68,104,31,79,100,100,115,114,21,19,6,5,0.3,0.5
2026-03-13T2000,4017A,116.7926,33.9534,淮北市,市博物馆,颗粒物(PM10),61,65,104,36,79,106,106,112,112,19,20,3,4,0.4,0.5
2026-03-13T2000,4100A,116.8322,33.9884,淮北市,杜集区第一实验学校,颗粒物(PM10),60,63,101,34,75,107,107,115,115,16,17,6,6,0.4,0.5
2026-03-13T2000,2277A,116.8304,32.7726,淮南市,潘集区政府,细颗粒物(PM2.5),78,76,104,49,79,92,92,124,119,28,23,8,7,0.6,0.5
2026-03-13T2000,2279A,116.8569,32.5949,淮南市,谢家集区政府,"颗粒物(PM10),细颗粒物(PM2.5)",68,74,89,44,75,105,105,127,125,28,23,8,9,0.5,0.6
2026-03-13T2000,2280A,116.8279,32.6333,淮南市,八公山区政府,细颗粒物(PM2.5),78,76,98,49,83,110,110,129,128,19,17,9,7,0.6,0.6
2026-03-13T2000,2894A,117.0561,32.6536,淮南市,经济技术开发区消防队,颗粒物(PM10),53,53,95,33,71,96,96,122,119,35,27,8,7,0.5,0.6
2026-03-13T2000,3329A,117.011,32.5891,淮南市,山南新区,颗粒物(PM10),58,60,98,33,77,114,114,131,130,21,21,7,7,0.4,0.5
2026-03-13T2000,4209A,117.003137,32.644456,淮南市,国庆中路369号,"颗粒物(PM10),细颗粒物(PM2.5)",62,66,89,41,79,90,90,115,112,23,16,8,6,0.6,0.6
2026-03-13T2000,2446A,114.9021,30.474,黄冈市,职工中心,细颗粒物(PM2.5),70,51,52,45,44,118,118,134,133,18,14,6,8,0.4,0.3
2026-03-13T2000,2929A,114.8858,30.4519,黄冈市,红卫路,细颗粒物(PM2.5),66,44,53,43,47,131,131,145,144,13,14,4,7,0.4,0.5
2026-03-13T2000,3398A,114.9134,30.4446,黄冈市,市林业局,细颗粒物(PM2.5),72,60,66,46,48,125,125,137,136,14,16,5,4,0.4,0.5
2026-03-13T2000,2672A,102.02,35.5101,黄南藏族自治州,同仁县隆务镇,颗粒物(PM10),90,105,221,42,79,60,60,77,67,9,4,10,9,0.5,0.4
2026-03-13T2000,2295A,118.2905,29.6965,黄山市,延安路89号,,42,42,37,26,29,102,102,120,118,20,13,6,5,0.6,0.5
2026-03-13T2000,2297A,118.1369,30.2755,黄山市,黄山区政府5号楼,细颗粒物(PM2.5),82,81,45,51,32,71,71,116,110,17,12,3,3,0.6,0.4
2026-03-13T2000,4210A,118.335445,29.720283,黄山市,滨江东路7-2号,颗粒物(PM10),60,63,52,21,27,93,93,120,117,20,12,/,/,/,/
2026-03-13T2000,2423A,115.0547,30.2332,黄石市,沈家营,细颗粒物(PM2.5),70,59,65,45,42,117,117,130,128,16,19,6,7,0.8,1
2026-03-13T2000,2426A,114.899,30.211,黄石市,铁山,细颗粒物(PM2.5),68,46,44,44,40,135,135,138,138,14,13,9,8,0.8,0.7
2026-03-13T2000,2427A,115.0259,30.2108,黄石市,团城山,细颗粒物(PM2.5),52,49,49,36,35,112,112,117,117,25,19,10,9,0.5,0.6
2026-03-13T2000,3149A,115.0174,30.1591,黄石市,笔架山北路,细颗粒物(PM2.5),74,69,69,47,40,120,120,141,140,19,15,9,10,0.8,0.8
2026-03-13T2000,4185A,115.078022,30.21118,黄石市,磁湖东路29号,NA,NA,58,51,53,39,121,121,132,131,20,15,NA,64,1.0,1
2026-03-13T2000,1392A,114.4181,23.0528,惠州市,河南岸金山湖子站,NA,NA,53,49,25,25,136,136,152,152,14,12,7,8,NA,0.6
2026-03-13T2000,1393A,114.4055,23.0824,惠州市,下埔横江三路子站,颗粒物(PM10),58,61,57,28,26,134,134,156,156,19,14,9,10,0.6,0.6
2026-03-13T2000,1395A,114.4645,22.7832,惠州市,惠阳区承修路船湖子站,颗粒物(PM10),58,60,54,24,24,147,147,152,152,13,14,7,8,0.5,0.5
2026-03-13T2000,1396A,114.5316,22.7423,惠州市,大亚湾管委会子站,颗粒物(PM10),52,52,49,23,22,143,143,144,144,12,14,4,5,0.5,0.5
2026-03-13T2000,3314A,114.4334,22.8134,惠州市,惠阳秋长,臭氧1小时(O3_1h),55,51,53,25,25,164,164,173,173,14,17,/,/,/,/
2026-03-13T2000,3452A,114.6521,22.7755,惠州市,大亚湾霞涌,,50,48,46,27,28,160,160,154,154,9,13,/,/,/,/
2026-03-13T2000,4300A,114.4089,23.1147,惠州市,文华一路1号,颗粒物(PM10),55,56,50,28,27,137,137,153,153,17,15,/,/,/,/
2026-03-13T2000,2240A,130.9618,45.2926,鸡西市,环保局,细颗粒物(PM2.5),84,69,98,52,57,65,65,87,82,17,29,9,12,0.5,0.7
2026-03-13T2000,2243A,130.9294,45.2959,鸡西市,第一中学,细颗粒物(PM2.5),84,71,70,52,44,62,62,84,78,18,28,6,8,0.5,0.6
2026-03-13T2000,3707A,131.0069,45.2988,鸡西市,欧美日汽修厂,细颗粒物(PM2.5),82,76,112,51,56,67,67,88,83,14,28,10,20,0.5,0.7
2026-03-13T2000,2367A,114.9753,27.0803,吉安市,红声器材厂,,48,41,48,33,27,99,99,118,118,18,17,4,6,0.6,0.5
2026-03-13T2000,2369A,114.9903,27.1313,吉安市,市环境监测站,,40,40,42,25,24,103,103,122,122,20,16,6,8,/,/
2026-03-13T2000,2370A,115.009527,27.096792,吉安市,青原区法院,,47,47,47,31,25,94,94,128,126,41,20,5,5,0.5,0.5
2026-03-13T2000,1772A,126.54,43.8622,吉林市,哈达湾,细颗粒物(PM2.5),104,85,49,64,32,117,117,104,104,14,14,9,7,0.7,0.4
2026-03-13T2000,1773A,126.5843,43.8358,吉林市,东局子,细颗粒物(PM2.5),110,126,40,70,37,116,116,100,100,14,14,6,4,0.9,0.7
2026-03-13T2000,1774A,126.5051,43.8243,吉林市,电力学院,细颗粒物(PM2.5),98,110,77,59,54,124,124,114,114,15,28,9,8,0.9,1
2026-03-13T2000,1775A,126.6133,43.8971,吉林市,江北,细颗粒物(PM2.5),101,108,54,61,35,118,118,102,102,19,16,9,6,0.7,0.7
2026-03-13T2000,1776A,126.5549,43.8304,吉林市,江南公园,细颗粒物(PM2.5),96,90,46,58,32,112,112,100,100,15,17,9,7,0.7,0.6
2026-03-13T2000,2868A,126.4737,43.953,吉林市,九站,细颗粒物(PM2.5),116,130,60,77,42,104,104,102,102,20,32,11,13,0.8,0.6
2026-03-13T2000,1299A,116.9866,36.6118,济南市,科干所,细颗粒物(PM2.5),96,83,91,58,69,128,128,137,137,18,17,6,7,0.6,0.6
2026-03-13T2000,1300A,116.9379,36.6652,济南市,农科所,细颗粒物(PM2.5),101,88,97,61,75,106,106,128,127,33,31,7,8,0.6,0.7
2026-03-13T2000,1301A,117.1265,36.6736,济南市,开发区,细颗粒物(PM2.5),90,68,86,55,67,127,127,144,143,26,24,5,5,0.7,0.7
2026-03-13T2000,1303A,117.0616,36.6865,济南市,省种子仓库,细颗粒物(PM2.5),90,95,108,55,69,122,122,137,136,27,40,4,5,0.6,0.6
2026-03-13T2000,1304A,116.9495185,36.644937,济南市,机床二厂,细颗粒物(PM2.5),103,93,101,63,74,115,115,132,131,30,27,11,8,0.7,0.7
2026-03-13T2000,1305A,117.0496,36.6629,济南市,市监测站,细颗粒物(PM2.5),96,90,100,58,73,117,117,137,136,28,26,4,5,0.6,0.6
2026-03-13T2000,1306A,116.7674,36.5458,济南市,长清党校,细颗粒物(PM2.5),103,98,113,63,80,126,126,139,139,28,26,5,5,0.7,0.7
2026-03-13T2000,1961A,117.5323,36.6865,济南市,东山小学,细颗粒物(PM2.5),88,95,87,54,53,122,122,140,139,26,27,5,6,0.7,0.7
2026-03-13T2000,3059A,117.7181,36.205,济南市,泰兴公司,细颗粒物(PM2.5),108,119,87,68,52,104,104,147,144,46,47,8,8,0.7,0.7
2026-03-13T2000,3064A,117.6861,36.2172,济南市,莱芜战役纪念馆,细颗粒物(PM2.5),108,112,91,68,55,139,139,162,162,31,36,8,6,0.6,0.6
2026-03-13T2000,3494A,117.1673,36.9782,济南市,济阳区政府,细颗粒物(PM2.5),130,132,109,93,72,93,93,123,119,39,33,8,10,0.7,0.7
2026-03-13T2000,3495A,117.1168,36.6299,济南市,锦屏中学,细颗粒物(PM2.5),84,81,81,52,64,106,106,137,132,19,14,8,9,0.5,0.5
2026-03-13T2000,4108A,117.7107,36.2385,济南市,山财大街5号,细颗粒物(PM2.5),115,122,82,76,54,110,110,145,139,46,46,9,10,0.8,0.6
2026-03-13T2000,4109A,116.9744,36.6889,济南市,无影山路12号,细颗粒物(PM2.5),100,80,92,60,71,115,115,125,125,24,27,5,6,0.8,0.9
2026-03-13T2000,1653A,116.6229,35.4288,济宁市,火炬城,NA,NA,56,100,38,84,NA,NA,132,131,22,21,4,4,0.4,0.7
2026-03-13T2000,3500A,116.5808,35.3703,济宁市,北湖一中,颗粒物(PM10),53,54,97,36,88,102,102,130,126,19,22,5,6,0.3,0.6
2026-03-13T2000,3501A,116.8251,35.5592,济宁市,服务中心,颗粒物(PM10),75,84,122,46,81,100,100,134,130,24,25,2,3,0.2,0.4
2026-03-13T2000,3678A,116.5907,35.4054,济宁市,市第七中学,颗粒物(PM10),57,59,99,37,87,109,109,137,133,20,24,2,4,0.6,0.7
2026-03-13T2000,4111A,116.6075,35.4566,济宁市,任和路,颗粒物(PM10),63,68,127,35,83,110,110,135,132,21,25,4,6,0.4,0.6
2026-03-13T2000,4112A,116.5648,35.3921,济宁市,文体南路1号,颗粒物(PM10),59,62,124,32,88,110,110,137,134,19,24,2,4,0.3,0.6
2026-03-13T2000,4122A,112.6071,35.1015,济源市,市委党校,细颗粒物(PM2.5),190,231,223,143,145,84,84,113,109,36,30,12,9,1.4,1
2026-03-13T2000,4123A,112.596,35.0702,济源市,沁园中路1号,细颗粒物(PM2.5),193,190,196,145,144,83,83,116,111,38,34,7,5,1.3,1
2026-03-13T2000,2255A,130.2749,46.8028,佳木斯市,佳纺,,41,41,52,25,28,36,36,84,77,31,26,6,5,0.5,0.5
2026-03-13T2000,2257A,130.3258,46.7975,佳木斯市,环保局,,50,50,47,22,28,40,40,83,76,27,30,3,3,0.4,0.6
2026-03-13T2000,4285A,130.363,46.806,佳木斯市,顺和街,,39,39,38,24,24,46,46,80,75,15,20,4,5,0.3,0.3
2026-03-13T2000,4286A,130.3952,46.8268,佳木斯市,长安路196号,NA,NA,28,36,16,20,50,50,81,76,10,10,NA,5,0.4,0.4
2026-03-13T2000,1252A,120.7439,30.778,嘉兴市,清河小学,细颗粒物(PM2.5),113,84,74,74,47,108,108,116,116,34,25,7,6,0.5,0.4
2026-03-13T2000,1253A,120.7261,30.7477,嘉兴市,嘉兴学院,细颗粒物(PM2.5),80,73,65,50,45,115,115,124,124,35,24,6,6,0.6,0.6
2026-03-13T2000,2872A,120.7845,30.7524,嘉兴市,南湖区残联,细颗粒物(PM2.5),94,81,72,57,50,111,111,118,118,33,22,5,5,0.7,0.7
2026-03-13T2000,3407A,120.6915,30.7741,嘉兴市,秀洲住建,细颗粒物(PM2.5),90,92,78,55,51,116,116,123,122,29,28,8,8,0.6,0.6
2026-03-13T2000,1945A,98.291,39.7705,嘉峪关市,气象局,颗粒物(PM10),75,85,192,36,47,65,65,82,72,18,10,5,8,0.4,0.5
2026-03-13T2000,2884A,98.2672,39.7978,嘉峪关市,酒钢宾馆,颗粒物(PM10),103,127,188,46,51,61,61,80,72,25,16,11,37,0.6,0.9
2026-03-13T2000,3248A,98.2644,39.7723,嘉峪关市,雄关区,颗粒物(PM10),87,101,165,41,47,62,62,73,68,22,17,7,13,0.4,0.9
2026-03-13T2000,1383A,113.1063,22.6058,江门市,北街,,44,44,49,21,28,129,129,183,181,23,26,/,/,/,/
2026-03-13T2000,1384A,113.073,22.5835,江门市,西区,,50,50,55,21,27,132,132,184,182,22,22,/,/,/,/
2026-03-13T2000,1385A,113.0218,22.531,江门市,圭峰西,,41,35,48,20,27,131,131,173,171,18,19,/,/,/,/
2026-03-13T2000,1386A,113.0826,22.5947,江门市,东湖,,41,41,47,22,26,130,130,181,178,20,20,7,7,0.4,0.5
2026-03-13T2000,3311A,113.1077,22.5647,江门市,江海富民,,46,46,57,20,28,137,137,185,183,20,22,/,/,0.3,0.4
2026-03-13T2000,3449A,113.0496,22.4669,江门市,新会银湖,,40,38,48,19,26,125,125,166,163,20,27,9,9,0.3,0.4
2026-03-13T2000,3335A,113.3137,35.2643,焦作市,马村街道办,细颗粒物(PM2.5),159,156,145,121,119,76,76,114,110,43,24,11,7,0.9,0.8
2026-03-13T2000,3336A,113.2464,35.2374,焦作市,焦作技师学院,细颗粒物(PM2.5),133,133,144,96,116,82,82,116,111,39,23,11,8,0.9,0.8
2026-03-13T2000,3477A,113.1656,35.2536,焦作市,中站许衡医院,细颗粒物(PM2.5),118,112,147,79,114,80,80,117,110,40,24,9,9,0.8,0.8
2026-03-13T2000,3981A,113.2456,35.18,焦作市,原李万街道办,细颗粒物(PM2.5),155,195,150,118,118,63,63,110,106,48,21,16,12,0.8,0.7
2026-03-13T2000,4264A,113.234,35.219,焦作市,新安路1731号,细颗粒物(PM2.5),148,164,148,112,120,84,84,121,117,46,26,14,10,0.8,0.7
2026-03-13T2000,4295A,113.2722,35.2121,焦作市,人民路3066号,细颗粒物(PM2.5),145,155,148,109,121,72,72,117,111,48,26,9,8,0.7,0.7
2026-03-13T2000,1708A,116.3701,23.5345,揭阳市,新兴,颗粒物(PM10),53,53,45,29,25,122,122,133,133,18,17,8,9,0.6,0.5
2026-03-13T2000,1709A,116.3261,23.5442,揭阳市,西马,颗粒物(PM10),58,61,50,30,24,123,123,137,137,16,15,6,7,0.5,0.4
2026-03-13T2000,1710A,116.361,23.5627,揭阳市,东兴,,43,36,48,30,28,124,124,136,136,11,15,6,10,/,/
2026-03-13T2000,1711A,116.4151,23.5295,揭阳市,渔湖,,44,34,42,28,25,139,139,155,155,13,20,4,7,/,/
2026-03-13T2000,3320A,116.4028,23.5699,揭阳市,曲溪,颗粒物(PM10),60,63,52,26,27,138,138,158,158,14,15,12,12,0.6,0.6
2026-03-13T2000,1944A,102.1691,38.5166,金昌市,天庆家园,颗粒物(PM10),72,80,468,20,105,81,81,91,88,5,2,3,3,0.4,0.4
2026-03-13T2000,4022A,102.1648,38.5369,金昌市,金川区人防中心,颗粒物(PM10),73,81,582,22,112,82,82,87,86,5,3,6,6,0.5,0.5
2026-03-13T2000,4239A,102.193042,38.531887,金昌市,长春路96号,颗粒物(PM10),116,160,556,19,104,NA,NA,82,80,5,7,4,4,0.2,0.4
2026-03-13T2000,1262A,119.6478,29.0773,金华市,十五中,细颗粒物(PM2.5),100,86,65,60,45,131,131,156,156,20,18,5,4,0.4,0.3
2026-03-13T2000,1263A,119.6859,29.1032,金华市,监测站,细颗粒物(PM2.5),78,81,67,49,45,62,62,122,116,67,29,5,4,0.5,0.4
2026-03-13T2000,3659A,119.656,29.1132,金华市,气象局,细颗粒物(PM2.5),84,78,71,52,46,56,56,134,126,71,39,4,3,0.4,0.5
2026-03-13T2000,1767A,121.1114,41.0879,锦州市,南山,细颗粒物(PM2.5),78,NA,65,49,43,49,49,74,68,41,41,8,15,0.6,0.7
2026-03-13T2000,1768A,121.060361,40.842794,锦州市,开发区,细颗粒物(PM2.5),74,NA,96,47,40,71,71,70,70,33,47,8,13,0.6,0.6
2026-03-13T2000,1769A,121.1836,41.1118,锦州市,百股街道,细颗粒物(PM2.5),102,NA,60,62,42,47,47,78,68,43,38,15,12,0.9,0.7
2026-03-13T2000,1770A,121.1176,41.1224,锦州市,天安街道,细颗粒物(PM2.5),90,NA,72,55,49,58,58,74,68,33,45,7,14,0.7,0.8
2026-03-13T2000,1771A,121.1303,41.1385,锦州市,北湖公园,细颗粒物(PM2.5),84,52,65,52,47,59,59,79,72,33,39,9,14,0.6,0.8
2026-03-13T2000,2160A,112.8496,35.5051,晋城市,自来水公司,细颗粒物(PM2.5),119,95,136,80,94,102,102,124,121,23,18,4,4,0.4,0.4
2026-03-13T2000,2162A,112.8509,35.4886,晋城市,市环保局,细颗粒物(PM2.5),113,92,122,74,98,109,109,124,121,15,18,5,4,0.5,0.6
2026-03-13T2000,3620A,112.8258,35.4804,晋城市,泽州一中,细颗粒物(PM2.5),132,NA,128,95,107,119,119,129,127,17,23,4,3,0.5,0.5
2026-03-13T2000,4078A,112.8246,35.5152,晋城市,前书院路,细颗粒物(PM2.5),112,109,143,73,86,97,97,118,115,19,20,4,4,0.8,0.7
2026-03-13T2000,4079A,112.8864,35.4773,晋城市,祥云街666号,细颗粒物(PM2.5),119,99,136,80,108,103,103,124,120,25,25,4,4,0.4,0.5
2026-03-13T2000,2174A,112.6992,37.6984,晋中市,榆次区政府,细颗粒物(PM2.5),159,139,119,121,99,50,50,80,71,42,31,8,10,1.1,0.9
2026-03-13T2000,2865A,112.7195,37.683,晋中市,榆次三中,细颗粒物(PM2.5),158,124,127,120,105,70,70,79,78,31,31,8,10,0.9,0.7
2026-03-13T2000,4080A,112.7375,37.7215,晋中市,广安街188号,细颗粒物(PM2.5),168,149,134,127,98,52,52,79,75,37,33,9,10,0.8,0.7
2026-03-13T2000,4200A,112.7478,37.6954,晋中市,迎宾街26号,细颗粒物(PM2.5),150,117,124,115,102,78,78,80,80,30,30,7,10,1.0,0.8
2026-03-13T2000,2439A,112.2012,31.048,荆门市,竹园小学,细颗粒物(PM2.5),74,59,107,47,78,119,119,145,141,29,31,2,1,0,0.7
2026-03-13T2000,2440A,112.1968,30.9892,荆门市,掇刀,细颗粒物(PM2.5),72,56,99,46,77,130,130,153,153,24,22,13,8,0.5,0.7
2026-03-13T2000,3012A,112.1849,31.0361,荆门市,西山林语,细颗粒物(PM2.5),62,51,93,41,70,122,122,143,143,20,19,8,7,0.6,0.8
2026-03-13T2000,3547A,112.1631,31.0134,荆门市,龙泉中学南校,细颗粒物(PM2.5),60,56,104,40,68,135,135,151,151,18,20,8,6,0.9,1
2026-03-13T2000,4124A,112.2213,31.0654,荆门市,新台西路6号,细颗粒物(PM2.5),82,62,102,51,79,116,116,136,136,43,34,11,8,0.5,0.6
2026-03-13T2000,1844A,112.2493,30.3198,荆州市,市图书馆,NA,NA,47,54,38,49,NA,NA,140,140,21,24,7,10,0.7,0.7
2026-03-13T2000,1845A,112.2009,30.3543,荆州市,市委党校,细颗粒物(PM2.5),54,47,64,37,52,102,102,118,118,27,27,9,9,0.6,0.6
2026-03-13T2000,3194A,112.2749,30.3124,荆州市,管委会,,49,37,60,34,52,96,96,133,130,21,19,10,12,0.7,0.8
2026-03-13T2000,4268A,112.1722,30.3366,荆州市,学苑路85号,,45,45,66,31,52,108,108,144,142,23,15,1,2,0.7,0.7
2026-03-13T2000,2343A,117.2114,29.2931,景德镇市,老干部活动中心,细颗粒物(PM2.5),52,48,39,36,32,61,61,116,107,29,11,6,5,0.7,0.6
2026-03-13T2000,2344A,117.1893,29.2789,景德镇市,兽医站,细颗粒物(PM2.5),58,55,46,39,34,74,74,133,119,24,12,5,4,0.9,0.8
2026-03-13T2000,2346A,117.246,29.2958,景德镇市,陶研所,细颗粒物(PM2.5),54,37,33,37,29,71,71,120,110,19,15,4,4,0.6,0.6
2026-03-13T2000,4289A,117.154766,29.256967,景德镇市,青少年活动中心,细颗粒物(PM2.5),84,60,41,52,30,43,43,122,106,74,18,37,7,/,/
2026-03-13T2000,1803A,115.9873,29.6816,九江市,十里,细颗粒物(PM2.5),64,52,52,42,46,101,101,132,132,46,30,9,9,0.7,0.8
2026-03-13T2000,1804A,115.9583,29.7047,九江市,茅山头,细颗粒物(PM2.5),72,70,52,46,47,106,106,138,138,33,22,3,4,0.6,0.7
2026-03-13T2000,1805A,115.9877,29.7295,九江市,西园,细颗粒物(PM2.5),62,63,53,41,42,99,99,139,136,54,35,5,5,0.7,0.7
2026-03-13T2000,1808A,115.9112,29.6038,九江市,综合工业园,细颗粒物(PM2.5),64,64,48,42,39,69,69,124,120,68,30,9,9,0.8,0.8
2026-03-13T2000,3190A,116.0254,29.6995,九江市,外国语学校,细颗粒物(PM2.5),70,56,49,45,44,90,90,131,130,38,22,3,5,0.7,0.8
2026-03-13T2000,4253A,116.010205,29.659402,九江市,莲花大道8号,细颗粒物(PM2.5),52,50,54,36,39,121,121,129,129,18,24,7,8,0.5,0.6
2026-03-13T2000,4240A,98.495752,39.733935,酒泉市,玉门东路5号,颗粒物(PM10),88,102,212,44,54,57,57,79,65,13,5,5,5,0.5,0.3
2026-03-13T2000,4241A,98.5099,39.7506,酒泉市,北大街108号,颗粒物(PM10),84,97,184,39,49,54,54,73,64,16,5,6,7,0.3,0.2
2026-03-13T2000,2698A,76.0071,39.466,喀什地区,巡警大队,颗粒物(PM10),500,1980,2019,488,475,61,61,68,62,8,6,3,3,0.2,0.2
2026-03-13T2000,2699A,75.9756,39.4693,喀什地区,吾办,颗粒物(PM10),500,1996,1945,457,455,60,60,64,62,5,5,3,3,0.3,0.2
2026-03-13T2000,4027A,75.9485,39.4688,喀什地区,老干局,颗粒物(PM10),500,2174,2118,441,443,65,65,68,65,2,3,2,2,0.3,0.3
2026-03-13T2000,1824A,114.3389,34.778,开封市,肿瘤医院,细颗粒物(PM2.5),146,111,136,110,131,85,85,132,126,44,34,8,10,1.1,1.1
2026-03-13T2000,1826A,114.2884,34.7966,开封市,世纪星幼儿园,细颗粒物(PM2.5),131,105,126,94,114,139,139,124,124,41,29,9,10,0.9,0.9
2026-03-13T2000,3147A,114.3434,34.8101,开封市,龙亭公园,细颗粒物(PM2.5),135,108,137,98,120,96,96,135,131,39,36,9,9,1.0,0.9
2026-03-13T2000,3210A,114.3645,34.7955,开封市,汴京公园,细颗粒物(PM2.5),153,132,140,117,132,84,84,136,128,49,39,5,6,1.0,1.3
2026-03-13T2000,3473A,114.2485,34.8306,开封市,技师学院,细颗粒物(PM2.5),126,102,122,88,116,112,112,132,130,24,26,6,10,0.9,1
2026-03-13T2000,3592A,114.4518,34.7503,开封市,祥符区生态环境局,细颗粒物(PM2.5),141,159,159,105,127,74,74,130,120,63,53,5,5,0.7,0.7
2026-03-13T2000,1951A,84.886,45.6029,克拉玛依市,长征新村,,39,39,47,10,12,90,90,84,84,5,12,6,4,0.3,0.3
2026-03-13T2000,1952A,84.8894,45.5827,克拉玛依市,南林小区,,36,36,46,3,5,91,91,86,86,1,3,5,5,0.2,0.4
2026-03-13T2000,1954A,84.896,44.3328,克拉玛依市,独山子区,颗粒物(PM10),98,116,77,55,29,115,115,102,102,23,17,4,4,0.8,0.6
2026-03-13T2000,1955A,85.6888,46.0909,克拉玛依市,乌尔禾区商贸楼,,49,49,40,17,16,81,81,84,84,7,9,8,7,0.5,0.4
2026-03-13T2000,3612A,85.1045,45.6895,克拉玛依市,白碱滩区新站,,42,42,44,16,13,88,88,85,85,4,7,9,8,0.4,0.3
2026-03-13T2000,2697A,76.1457,39.7143,克孜勒苏柯尔克孜自治州,市人民政府,颗粒物(PM10),500,1796,1944,398,433,70,70,72,72,6,6,3,3,0.2,0.2
2026-03-13T2000,3665A,76.1654,39.7157,克孜勒苏柯尔克孜自治州,克州文化中心,颗粒物(PM10),500,1896,2200,409,462,69,69,70,70,7,5,3,3,0.2,0.2
2026-03-13T2000,1450A,102.8203,24.889,昆明市,呈贡新区,,32,31,30,22,27,77,77,78,78,15,13,5,3,0.6,0.6
2026-03-13T2000,1452A,102.7253,25.0904,昆明市,龙泉镇,,38,34,38,26,31,68,68,66,66,15,15,3,4,0.7,0.7
2026-03-13T2000,1453A,102.7267,25.0378,昆明市,东风东路,,27,27,40,18,28,73,73,71,71,15,20,2,2,0.7,0.7
2026-03-13T2000,1454A,102.6744,25.0671,昆明市,金鼎山,,32,26,42,22,30,71,71,69,69,16,18,2,2,0.8,0.9
2026-03-13T2000,1455A,102.6643,25.0401,昆明市,碧鸡广场,,26,22,37,18,29,65,65,70,70,20,16,3,3,0.8,0.8
2026-03-13T2000,3179A,102.7491,25.012,昆明市,官渡区博物馆,,29,28,36,20,26,78,78,74,74,11,19,2,2,0.6,0.7
2026-03-13T2000,3375A,102.8016,24.8336,昆明市,青年创业园,,26,26,37,18,26,73,73,75,75,10,7,3,3,0.7,0.7
2026-03-13T2000,3550A,102.8,24.9787,昆明市,昆明学院,,28,27,40,19,26,70,70,73,73,17,16,3,3,0.7,0.7
2026-03-13T2000,3551A,102.5969,24.6738,昆明市,晋宁区生态环境分局,,32,29,39,22,30,77,77,79,79,10,9,1,2,0.6,0.6
2026-03-13T2000,3552A,102.6673,24.9861,昆明市,云天化总部,,24,21,36,15,25,75,75,74,74,9,9,7,7,0.6,0.7
2026-03-13T2000,1456A,91.132,29.6515,拉萨市,八廓街,,30,18,23,8,10,93,93,93,93,11,19,5,5,0.2,0.5
2026-03-13T2000,1457A,91.1221,29.6748,拉萨市,市环保局,,27,8,20,3,9,86,86,86,86,14,19,4,4,0.4,0.5
2026-03-13T2000,1458A,91.0874,29.6476,拉萨市,区监测站,,28,7,14,6,7,89,89,88,88,16,23,5,5,0.4,0.4
2026-03-13T2000,1459A,91.1774,29.6541,拉萨市,西藏大学,,31,8,19,3,10,99,99,94,94,9,20,6,6,0.5,0.7
2026-03-13T2000,1460A,90.9798,29.6586,拉萨市,区辐射站,,26,24,22,6,10,81,81,87,86,27,21,4,4,0.6,0.6
2026-03-13T2000,1461A,91.0831,29.6292,拉萨市,拉萨火车站,,33,8,14,6,7,103,103,94,94,6,12,4,4,0.4,0.5
2026-03-13T2000,2520A,109.2203,23.7252,来宾市,来宾技工学校,细颗粒物(PM2.5),92,73,66,56,44,117,117,140,140,28,25,10,10,0.7,0.7
2026-03-13T2000,3535A,109.1781,23.7293,来宾市,兴宾区政府,细颗粒物(PM2.5),80,64,77,50,49,148,148,155,154,22,16,11,9,0.6,0.7
2026-03-13T2000,4002A,109.2312,23.7428,来宾市,中南小学,细颗粒物(PM2.5),109,78,66,69,46,121,121,150,150,30,26,9,8,0.8,0.7
2026-03-13T2000,1479A,103.8309,36.0467,兰州市,铁路设计院,NA,NA,NA,NA,NA,NA,NA,NA,NA,NA,NA,NA,NA,NA,NA,NA
2026-03-13T2000,3241A,103.7439,36.0841,兰州市,百合公园,颗粒物(PM10),152,253,437,38,118,68,68,73,73,11,6,3,3,0.3,0.4
2026-03-13T2000,3242A,103.9613,35.9985,兰州市,和平,颗粒物(PM10),174,297,539,37,104,79,79,77,77,8,8,10,10,0.4,0.4
2026-03-13T2000,4236A,103.629272,36.093822,兰州市,庄浪东路808号,颗粒物(PM10),151,251,461,47,121,75,75,78,77,5,4,8,5,0.5,0.4
2026-03-13T2000,4237A,103.7251,36.104344,兰州市,安宁西路88号,颗粒物(PM10),190,329,508,26,125,85,85,84,84,1,4,5,5,0.2,0.3
2026-03-13T2000,4238A,103.846982,36.067567,兰州市,北滨河东路1号,颗粒物(PM10),154,257,454,40,112,78,78,74,74,11,12,6,7,0.5,0.6
2026-03-13T2000,1067A,116.6712,39.5109,廊坊市,药材公司,细颗粒物(PM2.5),150,152,89,115,66,34,34,49,44,59,44,6,5,0.9,0.7
2026-03-13T2000,1068A,116.7215,39.5592,廊坊市,开发区,细颗粒物(PM2.5),139,129,87,102,62,37,37,48,48,56,43,5,5,0.7,0.6
2026-03-13T2000,1070A,116.7246,39.5273,廊坊市,北华航天学院,细颗粒物(PM2.5),146,139,99,110,61,30,30,42,41,77,54,7,6,0.7,0.5
2026-03-13T2000,2919A,116.7022,39.5454,廊坊市,河北工业大学,细颗粒物(PM2.5),140,139,92,103,65,30,30,43,43,62,41,6,5,0.7,0.5
2026-03-13T2000,2536A,103.7629,29.5844,乐山市,牛耳桥,细颗粒物(PM2.5),70,58,48,45,40,37,37,44,43,31,24,7,7,0.7,0.7
2026-03-13T2000,2537A,103.7501,29.6002,乐山市,市第三水厂,细颗粒物(PM2.5),68,53,46,44,40,34,34,43,42,31,24,4,5,0.8,0.7
2026-03-13T2000,2538A,103.7571,29.5664,乐山市,市监测站,细颗粒物(PM2.5),62,54,49,41,38,34,34,43,42,26,20,5,5,0.7,0.7
2026-03-13T2000,3361A,103.7313,29.563,乐山市,理工大学,细颗粒物(PM2.5),60,50,43,40,40,25,25,40,38,30,20,7,8,0.7,0.9
2026-03-13T2000,2599A,100.2497,26.8802,丽江市,丽江古城,细颗粒物(PM2.5),64,45,46,42,35,71,71,91,86,20,14,12,12,0.4,0.4
2026-03-13T2000,2600A,100.2203,26.8906,丽江市,市中心,,50,35,36,35,34,76,76,92,89,24,16,8,9,0.5,0.5
2026-03-13T2000,1267A,119.9141,28.4513,丽水市,监测站大楼,,43,33,38,30,31,117,117,128,128,17,18,5,6,0.3,0.3
2026-03-13T2000,1268A,119.93,28.4589,丽水市,莲都小学,,43,43,45,27,30,118,118,128,128,17,22,/,/,/,/
2026-03-13T2000,1269A,119.8794,28.4232,丽水市,余庄前,,29,27,42,14,30,92,92,122,118,17,16,4,4,0.4,0.4
2026-03-13T2000,1173A,119.1759,34.5885,连云港市,市环境监测站,细颗粒物(PM2.5),119,100,86,80,72,93,93,116,113,35,35,11,9,0.7,0.6
2026-03-13T2000,3000A,119.3577,34.6971,连云港市,德源药业,细颗粒物(PM2.5),96,88,108,58,70,104,104,122,119,25,43,6,7,1.0,1.1
2026-03-13T2000,3007A,119.178,34.8442,连云港市,新城一中,细颗粒物(PM2.5),117,98,109,78,92,105,105,112,111,36,54,7,8,0.5,0.6
2026-03-13T2000,3008A,119.3607,34.7519,连云港市,胡沟管理处,细颗粒物(PM2.5),108,97,99,68,74,87,87,91,91,48,55,8,7,0.6,0.6
2026-03-13T2000,3009A,119.1478,34.5913,连云港市,矿山设计院,细颗粒物(PM2.5),114,110,96,75,70,99,99,120,117,46,45,9,8,0.8,0.8
2026-03-13T2000,3434A,119.2414,34.6539,连云港市,工贸学校,细颗粒物(PM2.5),110,92,75,70,60,100,100,126,116,30,19,10,10,0.8,0.6
2026-03-13T2000,3664A,119.4171,34.734,连云港市,连云街道,细颗粒物(PM2.5),107,95,91,67,65,109,109,108,108,29,41,6,7,0.6,0.6
2026-03-13T2000,2573A,102.2629,27.8981,凉山彝族自治州,西昌市政府,NA,NA,84,41,31,27,NA,NA,83,NA,10,8,11,9,1.0,0.8
2026-03-13T2000,2574A,102.2686,27.885,凉山彝族自治州,凉山州政府,,49,NA,29,34,30,76,76,78,78,11,8,12,10,0.9,0.8
2026-03-13T2000,4229A,102.2342,27.8859,凉山彝族自治州,凯乐南路30号,,40,32,32,28,27,84,84,86,86,11,11,12,13,1.0,1
2026-03-13T2000,2212A,123.1978,41.2036,辽阳市,宏伟区,细颗粒物(PM2.5),52,38,84,36,58,106,106,102,102,7,16,7,9,0.5,0.7
2026-03-13T2000,2213A,123.1684,41.2497,辽阳市,新华园,细颗粒物(PM2.5),54,46,110,37,83,103,103,109,108,13,29,9,12,0.4,0.9
2026-03-13T2000,2214A,123.2355,41.2663,辽阳市,滨河路,细颗粒物(PM2.5),52,41,86,36,63,90,90,95,94,19,27,6,8,0.7,0.8
2026-03-13T2000,4083A,123.153,41.2874,辽阳市,铁西路150号,,50,49,111,35,73,98,98,103,103,13,30,10,13,0.6,0.9
2026-03-13T2000,2227A,125.1359,42.8845,辽源市,环保局,颗粒物(PM10),68,75,81,40,54,107,107,110,110,10,28,7,9,0.8,1
2026-03-13T2000,4085A,125.0998,42.9134,辽源市,安宁大街333号,颗粒物(PM10),74,83,94,43,60,102,102,108,108,14,22,8,9,0.7,0.9
2026-03-13T2000,1625A,115.9789,36.4372,聊城市,区政府,细颗粒物(PM2.5),90,91,133,55,99,100,100,124,124,26,27,12,13,0.7,1
2026-03-13T2000,3200A,115.9772,36.4986,聊城市,监控中心,细颗粒物(PM2.5),88,91,139,54,98,118,118,141,141,24,31,10,12,0.7,0.9
2026-03-13T2000,3513A,116.0443,36.436,聊城市,九州社区,细颗粒物(PM2.5),84,87,123,52,92,114,114,139,138,29,34,2,4,0.6,0.8
2026-03-13T2000,4018A,116.0564,36.4609,聊城市,星美广场,"颗粒物(PM10),细颗粒物(PM2.5)",84,97,138,52,97,111,111,129,129,22,25,4,7,0.6,0.8
2026-03-13T2000,4113A,116.0091,36.4495,聊城市,利民路,"颗粒物(PM10),细颗粒物(PM2.5)",84,97,132,52,92,113,113,141,141,27,30,8,10,0.7,0.8
2026-03-13T2000,2632A,94.3683,29.6373,林芝市,林芝监测站,,30,10,13,3,9,96,96,98,98,4,2,5,5,0.5,0.5
2026-03-13T2000,2633A,94.3616,29.6634,林芝市,林芝人民医院,,32,14,14,3,11,102,102,102,102,2,3,6,4,0.5,0.5
2026-03-13T2000,2603A,100.0779,23.8981,临沧市,市环保局,,38,NA,25,26,24,65,65,83,67,8,8,5,5,0.8,0.7
2026-03-13T2000,2604A,100.0894,23.882,临沧市,市气象局,,35,NA,24,24,25,70,70,83,72,7,8,6,7,0.5,0.5
2026-03-13T2000,1733A,111.5552,36.0791,临汾市,临钢医院,细颗粒物(PM2.5),160,158,138,122,106,100,100,114,114,28,23,7,8,1.0,0.8
2026-03-13T2000,1734A,111.4984,36.0734,临汾市,技工学校,细颗粒物(PM2.5),185,146,115,139,111,95,95,108,108,31,25,8,7,1.1,0.9
2026-03-13T2000,1736A,111.5017,36.0857,临汾市,市委,细颗粒物(PM2.5),152,160,139,116,96,94,94,114,112,32,24,6,5,1.1,0.8
2026-03-13T2000,3018A,111.5048,36.1015,临汾市,唐尧大酒店,细颗粒物(PM2.5),152,156,132,116,96,98,98,110,110,30,25,8,8,1.0,0.8
2026-03-13T2000,4244A,111.4879,36.053,临汾市,启星学校,细颗粒物(PM2.5),172,133,112,130,101,90,90,110,108,35,28,6,5,1.0,0.8
2026-03-13T2000,4271A,103.2464,35.6123,临夏回族自治州,滨河东路1号,颗粒物(PM10),232,372,384,61,93,70,70,60,60,9,11,6,6,0.3,0.3
2026-03-13T2000,4310A,103.207136,35.599807,临夏回族自治州,新华街21号,颗粒物(PM10),202,351,389,57,86,67,67,61,61,5,6,4,4,0.3,0.3
2026-03-13T2000,1618A,118.3429,35.0532,临沂市,沂河小区,细颗粒物(PM2.5),72,70,112,46,88,103,103,120,119,26,33,12,15,0.5,0.6
2026-03-13T2000,1619A,118.2962,35.0568,临沂市,鲁南制药厂,NA,NA,73,112,45,87,NA,NA,135,135,28,33,16,17,0.4,0.5
2026-03-13T2000,1620A,118.2793,34.9976,临沂市,新光毛纺厂,颗粒物(PM10),65,70,111,39,91,104,104,126,124,33,41,20,18,0.5,0.6
2026-03-13T2000,1621A,118.3955,35.0889,临沂市,河东保险公司,细颗粒物(PM2.5),82,88,112,51,85,85,85,134,128,54,48,13,11,0.6,0.7
2026-03-13T2000,3370A,118.3563,35.0215,临沂市,十里堡居委,细颗粒物(PM2.5),72,75,107,46,87,100,100,129,125,36,41,13,16,0.5,0.6
2026-03-13T2000,3496A,118.359,35.1067,临沂市,南坊新区,NA,NA,NA,109,NA,90,NA,NA,136,NA,NA,39,NA,12,NA,0.5
2026-03-13T2000,3860A,118.3915,35.0297,临沂市,皇山花园小区,细颗粒物(PM2.5),68,70,107,44,89,105,105,130,127,29,42,13,15,0.5,0.6
2026-03-13T2000,1870A,109.4854,24.3898,柳州市,柳东小学,,46,46,44,26,30,145,145,142,142,12,10,5,6,0.5,0.5
2026-03-13T2000,1871A,109.4109,24.3304,柳州市,环保监测站,颗粒物(PM10),68,74,46,32,28,121,121,131,131,21,15,6,6,0.7,0.7
2026-03-13T2000,1872A,109.3886,24.3408,柳州市,河西水厂,颗粒物(PM10),52,52,68,31,37,136,136,144,143,25,24,9,10,0.6,0.7
2026-03-13T2000,1873A,109.4263,24.2951,柳州市,市四中,细颗粒物(PM2.5),72,62,52,46,33,109,109,135,134,38,17,9,8,0.5,0.5
2026-03-13T2000,1874A,109.396,24.3658,柳州市,市九中,颗粒物(PM10),71,79,56,35,37,100,100,132,128,36,18,9,10,0.7,0.7
2026-03-13T2000,1875A,109.4912,24.3164,柳州市,古亭山,细颗粒物(PM2.5),70,58,44,45,32,89,89,134,130,34,14,8,9,0.6,0.6
2026-03-13T2000,3402A,109.5422,24.3994,柳州市,市二中,颗粒物(PM10),53,54,51,29,35,117,117,136,134,20,17,7,8,0.5,0.6
2026-03-13T2000,2307A,116.5078,31.7369,六安市,监测大楼,细颗粒物(PM2.5),86,72,66,53,53,115,115,124,124,24,21,6,6,0.6,0.6
2026-03-13T2000,2308A,116.4738,31.7642,六安市,皖西学院,细颗粒物(PM2.5),92,75,75,56,57,133,133,136,136,19,18,5,5,0.5,0.5
2026-03-13T2000,2309A,116.4997,31.7904,六安市,朝阳厂,细颗粒物(PM2.5),90,78,70,55,56,123,123,126,126,28,28,6,6,0.6,0.5
2026-03-13T2000,2310A,116.5566,31.7885,六安市,开发区,细颗粒物(PM2.5),94,67,72,57,60,128,128,136,136,15,15,5,5,0.4,0.4
2026-03-13T2000,2577A,104.8293,26.592,六盘水市,黄土坡,,48,37,32,33,25,67,67,70,70,16,13,5,5,0.7,0.6
2026-03-13T2000,2579A,104.8481,26.5898,六盘水市,民中,细颗粒物(PM2.5),58,42,34,39,27,65,65,69,68,12,9,4,4,0.6,0.6
2026-03-13T2000,2580A,104.9541,26.5506,六盘水市,双水,颗粒物(PM10),51,51,40,28,27,78,78,76,76,10,9,3,4,0.3,0.3
2026-03-13T2000,4151A,104.8899,26.5685,六盘水市,钟山大道中段564号,,49,49,40,34,25,72,72,73,71,8,7,6,7,0.5,0.7
2026-03-13T2000,2336A,117.022,25.1031,龙岩市,龙岩市监测站,,40,32,32,22,24,127,127,130,129,11,10,6,10,0.4,0.4
2026-03-13T2000,2337A,117.0257,25.0662,龙岩市,闽西职业技术学院,,42,26,33,22,22,132,132,133,133,11,9,6,8,0.4,0.5
2026-03-13T2000,2338A,117.0195,25.0306,龙岩市,龙岩学院,,38,28,33,23,22,120,120,132,132,9,8,5,5,/,/
2026-03-13T2000,2885A,104.9344,33.3827,陇南市,滨江中学,,40,40,35,10,8,57,57,74,61,11,10,6,6,0.7,0.6
2026-03-13T2000,3247A,104.9551,33.3709,陇南市,市总工会,,40,40,29,17,7,59,59,72,58,2,8,5,6,0.6,0.7
2026-03-13T2000,2488A,111.9984,27.7346,娄底市,市监测站,颗粒物(PM10),57,59,65,24,42,120,120,137,137,25,28,8,8,0.5,0.6
2026-03-13T2000,2491A,111.9888,27.7035,娄底市,市政府,颗粒物(PM10),52,52,53,24,36,121,121,130,130,16,11,5,4,0.3,0.3
2026-03-13T2000,4127A,111.9812,27.7591,娄底市,涟钢职大,颗粒物(PM10),70,78,59,38,42,102,102,143,139,28,13,5,3,0.4,0.5
2026-03-13T2000,4128A,112.0303,27.7457,娄底市,娄底体校,颗粒物(PM10),68,74,60,27,38,105,105,122,122,10,9,4,4,0.4,0.5
2026-03-13T2000,1894A,105.4427,28.9063,泸州市,小市上码头,细颗粒物(PM2.5),96,66,62,58,54,58,58,83,83,16,25,7,9,0.6,0.7
2026-03-13T2000,1895A,105.4241,28.8573,泸州市,兰田宪桥,细颗粒物(PM2.5),72,70,73,46,48,60,60,81,81,13,18,6,8,0.7,0.7
2026-03-13T2000,1896A,105.4378,28.8833,泸州市,市环监站,细颗粒物(PM2.5),76,78,74,48,51,56,56,83,83,20,25,5,7,0.7,0.8
2026-03-13T2000,4272A,105.3689,28.7783,泸州市,纳溪中医医院,细颗粒物(PM2.5),106,71,71,66,67,65,65,84,84,17,18,7,7,0.7,0.8
2026-03-13T2000,2183A,111.1447,37.5212,吕梁市,环保局,细颗粒物(PM2.5),117,94,80,78,61,38,38,77,65,53,35,7,7,0.3,0.4
2026-03-13T2000,2185A,111.1285,37.5338,吕梁市,自来水公司,细颗粒物(PM2.5),115,98,79,76,56,52,52,83,73,31,27,7,6,0.8,0.6
2026-03-13T2000,2867A,111.1225,37.5093,吕梁市,马茂庄小学,细颗粒物(PM2.5),107,102,83,67,51,12,12,81,64,79,37,5,5,0.7,0.7
2026-03-13T2000,1812A,112.3934,34.6517,洛阳市,市委党校,细颗粒物(PM2.5),209,166,154,159,144,75,75,100,97,48,36,8,8,1.0,0.9
2026-03-13T2000,1815A,112.494,34.6883,洛阳市,河南林校,细颗粒物(PM2.5),196,155,151,147,142,75,75,108,102,50,37,12,11,0.8,0.7
2026-03-13T2000,1816A,112.3843,34.623,洛阳市,开发区管委会,细颗粒物(PM2.5),201,199,180,151,136,83,83,101,99,39,31,10,10,0.8,0.8
2026-03-13T2000,1817A,112.4263,34.6249,洛阳市,市委新办公区,细颗粒物(PM2.5),207,192,181,157,150,84,84,105,102,53,38,9,9,0.9,0.8
2026-03-13T2000,3340A,112.6005,34.6323,洛阳市,伊滨,细颗粒物(PM2.5),195,173,173,146,140,92,92,112,111,38,40,8,7,0.6,0.5
2026-03-13T2000,3341A,112.495,34.6338,洛阳市,中移产业园,细颗粒物(PM2.5),195,164,161,146,149,81,81,102,99,40,34,10,10,0.8,0.7
2026-03-13T2000,3593A,112.5736,34.8993,洛阳市,吉利监测站,细颗粒物(PM2.5),168,NA,135,127,143,97,97,119,116,34,33,9,9,0.7,0.7
2026-03-13T2000,3635A,112.3678,34.6623,洛阳市,河科大西苑校区,细颗粒物(PM2.5),176,159,160,133,142,83,83,100,99,36,31,10,9,0.8,0.8
2026-03-13T2000,3636A,112.4387,34.678,洛阳市,英才小学,细颗粒物(PM2.5),201,185,173,151,143,84,84,108,103,48,38,10,10,0.9,0.8
2026-03-13T2000,4214A,112.460027,34.694929,洛阳市,春都路1号院,细颗粒物(PM2.5),202,172,165,152,140,76,76,107,100,43,30,10,10,0.9,0.8
2026-03-13T2000,2399A,114.051,33.5721,漯河市,三五一五工厂,细颗粒物(PM2.5),119,118,140,80,99,93,93,118,117,30,25,5,6,0.6,0.6
2026-03-13T2000,2400A,114.0055,33.5698,漯河市,漯河大学,细颗粒物(PM2.5),114,104,116,75,97,106,106,124,124,26,21,7,6,0.7,0.7
2026-03-13T2000,2401A,114.0134,33.5826,漯河市,市水利局,细颗粒物(PM2.5),110,110,114,71,95,106,106,123,123,24,21,6,6,0.7,0.7
2026-03-13T2000,2402A,114.0261,33.5697,漯河市,市广电局,细颗粒物(PM2.5),116,110,118,77,99,98,98,116,114,24,22,6,7,0.6,0.6
2026-03-13T2000,3478A,113.9691,33.568,漯河市,市图书馆,细颗粒物(PM2.5),114,109,137,75,94,103,103,117,117,22,18,7,7,0.8,0.5
2026-03-13T2000,4250A,114.089259,33.588274,漯河市,韶山路11号,细颗粒物(PM2.5),117,130,132,78,96,NA,NA,116,116,55,29,NA,8,NA,0.7
2026-03-13T2000,1798A,118.5084,31.6838,马鞍山市,湖东路四小,颗粒物(PM10),62,66,72,36,54,91,91,114,113,36,24,6,7,0.4,0.5
2026-03-13T2000,1799A,118.5019,31.6449,马鞍山市,开发区,颗粒物(PM10),63,68,78,38,57,114,114,121,121,24,24,6,6,0.4,0.5
2026-03-13T2000,3633A,118.4914,31.681,马鞍山市,雨山,NA,NA,71,80,37,58,NA,NA,121,121,25,19,8,9,0.5,0.5
2026-03-13T2000,4191A,118.527362,31.722269,马鞍山市,慈湖高新区,,49,48,74,34,55,107,107,113,113,21,23,5,5,0.3,0.4
2026-03-13T2000,1686A,111.0285,21.469,茂名市,电白南海,颗粒物(PM10),53,53,61,19,26,133,133,133,133,13,17,6,7,0.6,0.6
2026-03-13T2000,1687A,110.9294,21.6533,茂名市,茂石化七小,颗粒物(PM10),55,56,56,23,29,130,130,132,132,16,18,6,8,0.5,0.6
2026-03-13T2000,1688A,110.9108,21.6688,茂名市,健康路,颗粒物(PM10),53,53,49,21,26,141,141,142,142,16,18,4,7,0.5,0.6
2026-03-13T2000,1689A,110.8592,21.6826,茂名市,高岭,NA,NA,NA,74,22,29,123,123,132,132,32,27,3,8,/,/
2026-03-13T2000,3450A,111.0101,21.5165,茂名市,电白水东,颗粒物(PM10),55,56,55,21,26,132,132,131,131,14,17,4,5,/,/
2026-03-13T2000,2540A,103.8414,30.0871,眉山市,气象局,细颗粒物(PM2.5),76,85,53,48,36,42,42,49,49,24,23,6,7,0.7,0.6
2026-03-13T2000,3148A,103.829,30.0563,眉山市,区人社局,颗粒物(PM10),68,74,56,38,33,53,53,50,50,26,26,8,9,0.7,0.7
2026-03-13T2000,4148A,103.8836,30.0695,眉山市,眉职院,颗粒物(PM10),59,62,51,36,31,44,44,51,51,25,24,6,6,0.7,0.7
2026-03-13T2000,1690A,116.1248,24.3307,梅州市,梅江月梅,颗粒物(PM10),51,51,40,28,26,136,136,124,124,16,16,/,/,/,/
2026-03-13T2000,1691A,116.0798,24.2719,梅州市,梅县新城,,49,49,43,34,27,128,128,126,125,17,21,9,9,0.6,0.6
2026-03-13T2000,3315A,116.1234,24.2994,梅州市,梅龙,颗粒物(PM10),70,78,43,29,24,137,137,127,127,15,12,7,7,0.7,0.6
2026-03-13T2000,1878A,104.7775,31.4741,绵阳市,富乐山,,33,33,36,22,25,59,59,69,66,10,10,6,6,0.7,0.6
2026-03-13T2000,1880A,104.6698,31.4668,绵阳市,高新区自来水公司,,29,28,36,20,25,51,51,69,62,23,13,7,7,0.6,0.3
2026-03-13T2000,3491A,104.6899,31.5324,绵阳市,西科大附属小学,,29,26,36,20,27,51,51,64,60,26,18,6,6,0.6,0.6
2026-03-13T2000,3492A,104.5647,31.5343,绵阳市,安州区旅游局,,34,34,34,15,24,58,58,67,66,11,8,9,7,0.6,0.5
2026-03-13T2000,4146A,104.7092,31.4972,绵阳市,科技城新区公安局,,32,32,38,20,25,52,52,59,56,16,14,9,8,0.6,0.6
2026-03-13T2000,4226A,104.765114,31.453094,绵阳市,绵阳市气象局,,35,32,37,24,27,56,56,65,62,15,15,8,8,0.7,0.6
2026-03-13T2000,1784A,129.61,44.561,牡丹江市,环保大楼,细颗粒物(PM2.5),68,53,62,44,45,49,49,94,84,42,28,6,6,0.6,0.6
2026-03-13T2000,1787A,129.6364,44.6075,牡丹江市,机车工厂,颗粒物(PM10),118,165,84,58,46,NA,NA,156,156,74,31,NA,11,NA,0.6
2026-03-13T2000,1788A,129.6386,44.5462,牡丹江市,第一中学,颗粒物(PM10),60,63,46,37,34,32,32,89,69,40,31,4,5,0.5,0.5
2026-03-13T2000,4287A,129.5992,44.5964,牡丹江市,东晓云街98号,细颗粒物(PM2.5),119,118,70,80,48,39,39,88,75,48,25,11,8,1.1,0.7
2026-03-13T2000,2531A,105.0703,29.61,内江市,市监测站,细颗粒物(PM2.5),78,58,46,49,40,44,44,48,45,14,13,7,7,0.6,0.6
2026-03-13T2000,2533A,105.0657,29.5807,内江市,内江二中,颗粒物(PM10),75,85,60,44,39,46,46,49,47,20,19,8,8,0.5,0.5
2026-03-13T2000,2534A,105.0407,29.5828,内江市,内江日报社,细颗粒物(PM2.5),72,51,47,46,39,50,50,50,49,15,16,12,12,0.5,0.5
2026-03-13T2000,4147A,105.0433,29.6105,内江市,玉峰路西段888号,细颗粒物(PM2.5),86,62,45,53,42,52,52,56,52,17,16,8,8,0.4,0.4
2026-03-13T2000,2628A,92.0653,31.4846,那曲市,那曲监测站,NA,NA,NA,57,NA,34,NA,NA,87,NA,NA,25,NA,9,NA,1.1
2026-03-13T2000,4243A,92.0515,31.4787,那曲市,那曲市委宣传部,,33,30,34,14,21,105,105,104,104,2,13,6,8,0.4,0.7
2026-03-13T2000,1291A,115.8887,28.7006,南昌市,省林业公司,颗粒物(PM10),62,66,52,32,34,90,90,125,122,31,18,5,5,0.6,0.6
2026-03-13T2000,1292A,115.813,28.7443,南昌市,林科所,细颗粒物(PM2.5),66,61,46,43,36,109,109,135,134,28,15,8,9,0.6,0.6
2026-03-13T2000,1294A,115.8518,28.687,南昌市,建工学校,颗粒物(PM10),60,64,53,30,32,112,112,125,125,27,20,10,9,0.4,0.5
2026-03-13T2000,1295A,115.8926,28.6425,南昌市,象湖,,50,50,48,32,34,106,106,129,128,25,14,8,10,0.5,0.6
2026-03-13T2000,3046A,115.9084,28.6062,南昌市,机电学校,颗粒物(PM10),62,66,60,31,34,101,101,127,125,30,17,7,7,0.5,0.6
2026-03-13T2000,3690A,115.9718,28.7032,南昌市,外国语学校,细颗粒物(PM2.5),60,59,53,40,39,104,104,130,129,32,19,8,8,0.5,0.5
2026-03-13T2000,4106A,115.7923,28.6873,南昌市,工业二路,颗粒物(PM10),73,82,58,44,38,107,107,141,138,34,18,5,5,0.6,0.5
2026-03-13T2000,4192A,115.931587,28.686774,南昌市,南京东路235号,颗粒物(PM10),58,61,55,34,34,112,112,130,130,24,18,7,7,0.6,0.5
2026-03-13T2000,1906A,106.0791,30.8022,南充市,南充市委,细颗粒物(PM2.5),56,51,57,38,41,54,54,51,51,19,22,6,6,0.5,0.5
2026-03-13T2000,1907A,106.1038,30.8215,南充市,南充炼油厂,细颗粒物(PM2.5),54,50,56,37,39,55,55,53,53,14,17,5,5,0.4,0.5
2026-03-13T2000,4227A,106.108336,30.788436,南充市,梨树横街98号,细颗粒物(PM2.5),58,53,57,39,40,66,66,58,58,14,18,6,6,0.3,0.3
2026-03-13T2000,4304A,106.1172,30.843,南充市,清泉寺北路188号,细颗粒物(PM2.5),54,51,51,37,39,68,68,61,61,11,12,6,6,0.4,0.4
2026-03-13T2000,4305A,106.067,30.7616,南充市,同庆路1号,细颗粒物(PM2.5),56,51,52,38,40,52,52,52,52,23,21,6,6,0.6,0.6
2026-03-13T2000,1151A,118.8033,32.1085,南京市,迈皋桥,,46,46,68,25,52,107,107,128,126,12,12,3,2,0.3,0.3
2026-03-13T2000,1152A,118.7487,32.057,南京市,草场门,,44,44,64,22,45,104,104,117,116,27,28,8,8,0.8,0.9
2026-03-13T2000,1154A,118.770105,32.004342,南京市,中华门,,39,39,63,16,49,100,100,121,119,15,16,5,5,0.4,0.5
2026-03-13T2000,1155A,118.8059,32.0329,南京市,瑞金路,,48,48,69,24,55,86,86,120,116,1,21,4,4,0.8,0.8
2026-03-13T2000,1156A,118.7946,32.0774,南京市,玄武湖,,46,40,67,32,49,104,104,127,124,17,18,8,8,0.6,0.7
2026-03-13T2000,1157A,118.6415,32.0964,南京市,浦口,,47,47,84,18,55,69,69,108,103,42,32,4,5,0.4,0.5
2026-03-13T2000,1158A,118.730129,32.000956,南京市,奥体中心,,39,39,68,16,45,103,103,120,118,25,26,11,11,0.3,0.4
2026-03-13T2000,1159A,118.9072,32.1047,南京市,仙林大学城,,46,46,69,24,50,102,102,120,119,20,23,6,6,0.4,0.6
2026-03-13T2000,3422A,118.8443,31.919,南京市,江宁彩虹桥,,42,42,77,20,46,97,97,126,121,49,24,3,3,0.5,0.7
2026-03-13T2000,3427A,118.8497,32.3599,南京市,六合雄州,颗粒物(PM10),54,55,78,35,54,74,74,50,NA,44,29,3,4,0.5,0.6
2026-03-13T2000,4086A,118.7641,32.0841,南京市,新模范马路66号,,48,48,70,14,46,107,107,129,128,20,21,4,4,0.5,0.7
2026-03-13T2000,4249A,118.8707617,31.34017673,南京市,汶溪路181号,颗粒物(PM10),54,55,83,29,58,77,77,118,114,33,25,6,8,0.4,0.3
2026-03-13T2000,4312A,119.019,31.6512,南京市,中山西路1号,,29,29,59,13,45,89,89,105,104,15,16,4,4,0.2,0.4
2026-03-13T2000,1401A,108.3098,22.788,南宁市,二十一中,,49,37,62,34,51,106,106,125,124,17,37,5,6,0.5,0.7
2026-03-13T2000,1402A,108.3135,22.8529,南宁市,北湖,细颗粒物(PM2.5),54,47,61,37,50,108,108,136,134,22,42,4,5,0.7,0.8
2026-03-13T2000,1403A,108.3205,22.8222,南宁市,市监测站,,48,45,60,33,46,116,116,139,138,18,42,9,8,0.7,0.9
2026-03-13T2000,1404A,108.3828,22.8038,南宁市,大自然花园,,43,43,55,30,38,121,121,141,140,17,24,7,7,0.6,0.6
2026-03-13T2000,1406A,108.2397,22.8462,南宁市,区农职院,,50,50,53,33,37,104,104,135,129,19,26,6,6,0.6,0.6
2026-03-13T2000,1407A,108.3285,22.7356,南宁市,英华嘉园,颗粒物(PM10),76,86,83,35,52,96,96,132,125,31,45,5,5,0.7,0.9
2026-03-13T2000,3401A,108.4829,22.762,南宁市,红星社区,细颗粒物(PM2.5),84,65,57,52,50,111,111,140,137,19,30,4,6,0.7,0.7
2026-03-13T2000,4132A,108.2927,23.1477,南宁市,起凤路9号,细颗粒物(PM2.5),98,80,62,59,48,92,92,137,134,42,28,4,3,1.0,0.9
2026-03-13T2000,4221A,108.2177,22.7774,南宁市,乐贤路16号,颗粒物(PM10),58,60,62,38,43,83,83,124,119,38,37,4,5,0.6,0.6
2026-03-13T2000,2332A,118.1682,26.6371,南平市,南平市监测站,,43,42,35,30,25,71,71,119,110,27,12,4,5,0.8,0.5
2026-03-13T2000,2334A,118.1757,26.6276,南平市,南平七中,,32,NA,38,22,23,97,97,124,117,17,11,3,4,0.5,0.4
2026-03-13T2000,1168A,120.9056,31.9669,南通市,狼山街道,颗粒物(PM10),53,53,62,24,39,96,96,100,100,17,18,4,4,0.5,0.6
2026-03-13T2000,1170A,120.8635,32.0231,南通市,城中,颗粒物(PM10),61,65,70,30,42,94,94,108,106,23,22,1,2,0.5,0.5
2026-03-13T2000,1171A,120.9376,31.9301,南通市,星湖花园,颗粒物(PM10),60,63,64,26,43,90,90,107,106,18,17,4,4,0.6,0.5
2026-03-13T2000,1172A,120.8053,32.046,南通市,紫琅学院,颗粒物(PM10),60,63,65,27,41,91,91,106,101,26,25,4,4,0.6,0.6
2026-03-13T2000,3291A,121.0631,32.0644,南通市,通州监测站,颗粒物(PM10),55,56,57,21,36,100,100,120,118,15,17,3,3,0.5,0.6
2026-03-13T2000,3432A,120.9348,31.9874,南通市,环境教育馆,颗粒物(PM10),55,56,60,26,61,96,96,112,111,22,21,3,3,0.5,0.5
2026-03-13T2000,4091A,120.8692,31.9885,南通市,洪江路,NA,NA,NA,61,NA,43,94,94,96,95,18,17,4,4,NA,0.6
2026-03-13T2000,2404A,112.5338,33.0086,南阳市,瓦房庄,细颗粒物(PM2.5),115,NA,102,76,80,NA,NA,137,137,19,16,5,5,0.8,0.7
2026-03-13T2000,2405A,112.5002,32.9734,南阳市,汉画馆,细颗粒物(PM2.5),114,97,108,75,91,121,121,135,135,22,22,6,5,0.8,0.7
2026-03-13T2000,2406A,112.5778,33.0144,南阳市,气象站,细颗粒物(PM2.5),123,123,126,85,84,106,106,132,132,24,20,6,6,0.7,0.8
2026-03-13T2000,2407A,112.548,32.9687,南阳市,理工学院,细颗粒物(PM2.5),121,101,106,83,89,105,105,131,131,26,18,7,6,0.7,0.6
2026-03-13T2000,4008A,112.5233,32.9921,南阳市,卧龙区政府,细颗粒物(PM2.5),119,104,112,80,83,109,109,127,127,21,17,7,6,0.7,0.6
2026-03-13T2000,1234A,121.8352,29.9111,宁波市,区环保大楼,颗粒物(PM10),65,70,60,37,38,58,58,118,106,80,29,8,6,0.5,0.4
2026-03-13T2000,1235A,121.5595,29.8208,宁波市,万里学院,细颗粒物(PM2.5),78,83,60,49,37,81,81,130,124,49,18,6,5,0.6,0.4
2026-03-13T2000,1236A,121.713,29.9564,宁波市,龙赛医院,颗粒物(PM10),64,69,57,36,33,81,81,119,115,48,18,5,4,0.6,0.5
2026-03-13T2000,1240A,121.5855,29.8635,宁波市,太古小学,颗粒物(PM10),76,86,62,46,36,88,88,132,126,47,22,5,6,0.6,0.5
2026-03-13T2000,1241A,121.5239,29.8673,宁波市,市环境监测中心,颗粒物(PM10),65,70,58,42,36,100,100,124,122,36,19,6,7,0.6,0.4
2026-03-13T2000,2871A,121.6156,29.9015,宁波市,万里国际学校,细颗粒物(PM2.5),60,57,46,40,34,90,90,133,129,43,21,4,7,0.5,0.4
2026-03-13T2000,3710A,121.5593,29.8976,宁波市,白沙活动中心,细颗粒物(PM2.5),64,60,48,42,35,97,97,128,126,38,18,4,8,0.5,0.5
2026-03-13T2000,4095A,121.8962,29.7529,宁波市,中科路88号,,37,37,46,19,34,103,103,126,124,30,22,5,6,0.4,0.5
2026-03-13T2000,2341A,119.5387,26.6611,宁德市,宁德市监测站,,37,36,30,21,21,117,117,130,130,18,14,4,5,0.4,0.4
2026-03-13T2000,3209A,119.5231,26.6562,宁德市,宁德一中,,42,42,32,28,24,115,115,129,129,14,12,4,6,0.4,0.4
2026-03-13T2000,2618A,98.859,25.8541,怒江傈僳族自治州,州监测站,细颗粒物(PM2.5),124,91,48,86,38,43,43,72,70,14,6,8,8,0.3,0.1
2026-03-13T2000,2619A,98.8607,25.8168,怒江傈僳族自治州,泸水一中,细颗粒物(PM2.5),108,78,43,68,38,31,31,65,62,31,15,6,5,0.9,0.6
2026-03-13T2000,1888A,101.6891,26.571,攀枝花市,弄弄坪,,29,24,34,16,18,91,91,93,93,8,12,12,14,0.7,0.8
2026-03-13T2000,1889A,101.577,26.5914,攀枝花市,河门口,,33,30,33,23,22,88,88,93,93,8,12,7,11,0.7,0.7
2026-03-13T2000,1891A,101.7365,26.4986,攀枝花市,仁和,,33,33,27,22,21,85,85,87,87,8,6,8,9,0.6,0.5
2026-03-13T2000,2835A,101.7222,26.567,攀枝花市,四十中小,,28,28,33,18,18,84,84,85,85,8,12,11,16,0.8,0.8
2026-03-13T2000,1604A,122.0303,41.1489,盘锦市,开发区,细颗粒物(PM2.5),98,60,64,59,49,81,81,109,100,20,32,6,8,0.6,0.7
2026-03-13T2000,1605A,122.0486,41.0883,盘锦市,兴隆台,细颗粒物(PM2.5),68,NA,57,44,50,61,61,107,98,39,46,7,8,0.5,0.7
2026-03-13T2000,1606A,121.8297,41.1026,盘锦市,新生街道,细颗粒物(PM2.5),62,44,42,41,32,60,60,97,88,35,38,6,7,0.5,0.5
2026-03-13T2000,1832A,113.3257,33.7423,平顶山市,新华旅馆,细颗粒物(PM2.5),121,129,167,83,124,98,98,119,119,29,35,7,11,0.6,0.7
2026-03-13T2000,1833A,113.2917,33.737,平顶山市,规划设计院,细颗粒物(PM2.5),126,129,176,88,123,103,103,121,121,26,29,7,9,0.7,0.7
2026-03-13T2000,1834A,113.182,33.7738,平顶山市,平顶山工学院,细颗粒物(PM2.5),110,112,154,71,113,118,118,132,132,20,23,5,5,0.4,0.5
2026-03-13T2000,3594A,112.8736,33.9068,平顶山市,石龙区,细颗粒物(PM2.5),148,126,163,112,137,113,113,133,133,31,47,10,7,0.6,0.6
2026-03-13T2000,4116A,113.284,33.7139,平顶山市,姚电大道23号,细颗粒物(PM2.5),127,119,185,89,136,109,109,88,NA,20,29,6,8,0.9,0.6
2026-03-13T2000,2656A,106.6633,35.5338,平凉市,聚贤嘉苑,颗粒物(PM10),314,431,676,129,184,67,67,74,70,11,13,5,5,0.5,0.6
2026-03-13T2000,2657A,106.7021,35.5307,平凉市,博物馆,颗粒物(PM10),305,424,642,134,194,65,65,73,69,10,12,8,8,0.5,0.5
2026-03-13T2000,2348A,113.8384,27.6436,萍乡市,中医院,NA,NA,49,45,32,21,143,143,147,147,15,14,NA,5,0.4,0.2
2026-03-13T2000,2350A,113.8677,27.6438,萍乡市,市环保局,,43,34,40,24,25,136,136,138,138,8,8,5,4,0.7,0.6
2026-03-13T2000,2351A,113.8663,27.6202,萍乡市,安源区政府,颗粒物(PM10),52,52,44,33,26,118,118,125,125,18,16,14,8,1.3,0.7
2026-03-13T2000,4107A,113.8686,27.6668,萍乡市,联洪村委会,,46,46,40,25,22,129,129,126,126,9,8,4,3,0.3,0.2
2026-03-13T2000,2319A,119.0142,25.4324,莆田市,荔城区仓后路,,35,31,40,20,26,109,109,126,124,16,14,/,/,/,/
2026-03-13T2000,2320A,119.0016,25.4553,莆田市,莆田市监测站,,38,NA,34,26,22,117,117,131,130,11,10,3,3,0.3,0.3
2026-03-13T2000,2321A,119.112,25.4561,莆田市,涵江区六中,,36,28,41,11,25,113,113,130,128,9,11,/,/,0.3,0.4
2026-03-13T2000,2322A,119.1014,25.3215,莆田市,秀屿区政府,,35,NA,41,15,28,112,112,132,128,10,10,3,4,0.3,0.4
2026-03-13T2000,2392A,115.0312,35.7636,濮阳市,环保局,细颗粒物(PM2.5),127,NA,111,89,116,108,108,129,127,28,32,6,6,0.7,0.9
2026-03-13T2000,3021A,115,35.7667,濮阳市,濮水河管理处,细颗粒物(PM2.5),127,123,151,89,115,118,118,135,134,22,23,8,7,0.4,0.5
2026-03-13T2000,4118A,115.0552,35.7816,濮阳市,中原东路68号,细颗粒物(PM2.5),131,129,164,94,122,109,109,130,128,23,30,6,6,0.6,0.8
2026-03-13T2000,4216A,115.0923632,35.76857718,濮阳市,任丘路479号,NA,NA,NA,160,NA,126,NA,NA,132,132,33,40,7,7,NA,1
2026-03-13T2000,2601A,100.9801,22.7634,普洱市,市环保局,颗粒物(PM10),55,56,34,30,17,62,62,74,71,8,6,5,6,0.7,0.6
2026-03-13T2000,2602A,100.9763,22.8237,普洱市,普洱第二中学,,50,50,35,32,19,68,68,80,76,10,9,4,4,0.7,0.6
2026-03-13T2000,3345A,131.0413,45.7795,七台河市,中波台,,42,42,35,26,17,88,88,92,92,13,13,12,14,0.4,0.4
2026-03-13T2000,3637A,131.0136,45.7688,七台河市,人民广场,细颗粒物(PM2.5),60,52,43,40,17,79,79,96,92,20,17,10,9,0.6,0.5
2026-03-13T2000,3684A,130.8639,45.8144,七台河市,新建矿广场,,40,36,60,28,29,73,73,87,83,22,25,8,7,0.1,0.3
2026-03-13T2000,1779A,123.9307,47.3641,齐齐哈尔市,安居小区,细颗粒物(PM2.5),150,122,88,114,60,66,66,87,83,19,17,5,6,0.8,0.5
2026-03-13T2000,1780A,123.9497,47.3389,齐齐哈尔市,中心广场,细颗粒物(PM2.5),137,138,92,100,64,71,71,86,83,22,16,8,9,1.1,0.6
2026-03-13T2000,1781A,123.9483,47.3229,齐齐哈尔市,农牧车辆厂,细颗粒物(PM2.5),159,132,94,121,63,67,67,86,82,18,14,7,8,0.4,0.3
2026-03-13T2000,1783A,123.9442,47.2994,齐齐哈尔市,市环境监测站,细颗粒物(PM2.5),158,129,90,120,63,68,68,86,82,23,16,4,5,0.9,0.7
2026-03-13T2000,3662A,123.6341,47.2079,齐齐哈尔市,富区青少年活动中心,细颗粒物(PM2.5),192,NA,105,144,69,54,54,86,73,23,14,3,4,1.0,0.7
2026-03-13T2000,2591A,107.9765,26.5724,黔东南苗族侗族自治州,市环境监测站,,30,22,44,21,31,96,96,97,97,6,15,2,4,0.4,0.5
2026-03-13T2000,2881A,107.8909,26.531,黔东南苗族侗族自治州,凯里学院,,40,36,36,28,29,101,101,101,101,18,18,4,4,0.6,0.5
2026-03-13T2000,2593A,107.5223,26.2371,黔南布依族苗族自治州,小围寨,,32,29,28,22,22,96,96,93,93,6,9,8,6,0.6,0.6
2026-03-13T2000,3538A,107.5175,26.2977,黔南布依族苗族自治州,沙坝,,32,31,41,22,25,89,89,100,100,6,10,4,4,0.8,0.8
2026-03-13T2000,2589A,104.9022,25.0943,黔西南布依族苗族自治州,场坝街,细颗粒物(PM2.5),60,56,42,40,33,76,76,90,89,9,12,4,9,0.7,0.7
2026-03-13T2000,2590A,104.8812,25.0994,黔西南布依族苗族自治州,坪东大道,细颗粒物(PM2.5),52,47,43,36,29,67,67,87,85,14,15,6,6,0.7,0.6
2026-03-13T2000,2502A,108.6238,21.9667,钦州市,市环保站,颗粒物(PM10),63,68,80,32,42,127,127,138,138,16,30,4,5,0.5,0.8
2026-03-13T2000,2503A,108.655,21.9481,钦州市,沙埠小学,颗粒物(PM10),60,64,76,33,49,130,130,144,144,15,34,4,7,0.4,0.7
2026-03-13T2000,2504A,108.5989,21.7435,钦州市,港区一小,颗粒物(PM10),66,72,77,36,37,132,132,138,137,13,33,3,6,0.3,0.6
2026-03-13T2000,3404A,108.5959,21.9634,钦州市,北职校,"颗粒物(PM10),细颗粒物(PM2.5)",60,64,66,40,46,128,128,144,143,17,27,6,5,0.5,0.8
2026-03-13T2000,1046A,119.5247,39.9346,秦皇岛市,建设大厦,细颗粒物(PM2.5),74,61,64,47,37,42,42,80,70,37,28,5,12,0.5,0.7
2026-03-13T2000,3132A,119.5979,39.938,秦皇岛市,文明里,,47,47,64,31,36,45,45,70,66,41,37,7,12,0.4,0.7
2026-03-13T2000,4066A,119.7458,39.9952,秦皇岛市,南园路157号,细颗粒物(PM2.5),66,56,77,43,43,43,43,68,61,44,62,7,12,0.5,0.7
2026-03-13T2000,4067A,119.5131,39.8858,秦皇岛市,翠岛大街1号,细颗粒物(PM2.5),74,53,68,47,50,39,39,75,70,35,40,8,11,0.5,0.8
2026-03-13T2000,4198A,119.509013,39.825305,秦皇岛市,北戴河轮滑馆,,44,44,70,30,37,54,54,71,70,29,34,5,9,0.4,0.5
2026-03-13T2000,1310A,120.404,36.0625,青岛市,市南区东部子站,细颗粒物(PM2.5),129,105,79,91,57,107,107,104,104,12,36,8,11,0.7,0.8
2026-03-13T2000,1311A,120.362344,36.10282,青岛市,四方区子站,细颗粒物(PM2.5),146,110,79,110,69,118,118,125,125,18,35,6,8,0.8,0.9
2026-03-13T2000,1312A,120.294373,36.054183,青岛市,市南区西部子站,细颗粒物(PM2.5),133,105,70,96,56,106,106,98,98,22,38,3,5,1.0,0.9
2026-03-13T2000,1313A,120.4581,36.0858,青岛市,崂山区子站,细颗粒物(PM2.5),120,100,77,81,51,116,116,108,108,14,33,7,9,0.7,0.8
2026-03-13T2000,1315A,120.3945,36.3083,青岛市,城阳区子站,细颗粒物(PM2.5),114,97,88,75,59,139,139,126,126,28,44,9,8,0.9,0.9
2026-03-13T2000,3642A,120.3454,36.0735,青岛市,市北区南部,细颗粒物(PM2.5),121,107,72,83,50,122,122,116,116,14,32,3,5,0.8,0.8
2026-03-13T2000,3643A,120.3897,36.18,青岛市,李沧区北部,细颗粒物(PM2.5),130,110,86,92,57,NA,NA,119,119,30,44,9,10,0.9,0.9
2026-03-13T2000,4110A,120.5222,36.4089,青岛市,盟旺路653号,细颗粒物(PM2.5),104,91,88,64,59,97,97,121,118,28,32,6,5,1.2,1
2026-03-13T2000,4290A,120.196923,35.954556,青岛市,珠江路669号,细颗粒物(PM2.5),134,110,75,97,54,129,129,123,123,15,49,4,7,0.7,0.7
2026-03-13T2000,4291A,120.0424,35.8656,青岛市,黄岛区人民政府广场,细颗粒物(PM2.5),117,95,66,78,45,125,125,114,114,12,25,7,9,0.8,0.7
2026-03-13T2000,1703A,113.0218,23.7086,清远市,凤城街办,颗粒物(PM10),59,62,36,37,22,114,114,147,144,52,18,/,/,/,/
2026-03-13T2000,3025A,113.0479,23.6343,清远市,技师学院,颗粒物(PM10),55,56,41,35,22,144,144,154,154,32,15,10,8,0.5,0.5
2026-03-13T2000,3318A,112.9898,23.7403,清远市,清新太和,,48,45,38,27,23,151,151,156,156,20,16,8,8,0.4,0.4
2026-03-13T2000,3455A,113.076,23.72,清远市,清城东城,颗粒物(PM10),56,58,40,34,24,104,104,142,139,30,16,/,/,/,/
2026-03-13T2000,2661A,107.6325,35.7357,庆阳市,庆阳五中,颗粒物(PM10),500,723,552,233,168,53,53,67,57,13,13,4,4,0.4,0.5
2026-03-13T2000,2662A,107.6361,35.7067,庆阳市,市环保局,颗粒物(PM10),500,699,524,219,161,59,59,72,62,11,13,6,6,0.3,0.4
2026-03-13T2000,1916A,103.7897,25.5036,曲靖市,环境监测站,,49,48,36,34,27,36,36,69,44,24,16,8,7,1.0,0.8
2026-03-13T2000,1917A,103.8013,25.5357,曲靖市,烟厂办公区,,40,40,36,27,23,43,43,64,45,16,12,4,4,0.8,0.7
2026-03-13T2000,3376A,103.7926,25.4651,曲靖市,南苑二区,,44,44,32,30,24,34,34,64,44,25,17,4,4,1.0,0.8
2026-03-13T2000,3377A,103.7442,25.5259,曲靖市,曲靖师范学院,细颗粒物(PM2.5),68,52,33,44,27,39,39,74,50,21,12,2,2,0.7,0.5
2026-03-13T2000,1264A,118.8694,28.94,衢州市,环保大楼,细颗粒物(PM2.5),74,66,64,47,46,92,92,136,133,42,19,/,/,/,/
2026-03-13T2000,1266A,118.8622,28.9809,衢州市,衢州学院,细颗粒物(PM2.5),68,64,58,44,42,98,98,134,131,39,32,7,7,0.5,0.5
2026-03-13T2000,4097A,118.9646,28.9832,衢州市,衢州三中,细颗粒物(PM2.5),78,75,66,49,44,85,85,143,135,46,38,6,6,0.6,0.6
2026-03-13T2000,1611A,118.5818,24.9116,泉州市,涂山街,,44,44,42,24,25,90,90,111,109,16,11,4,4,0.5,0.5
2026-03-13T2000,1612A,118.597,24.8976,泉州市,津头埔,,37,37,42,24,26,99,99,121,118,14,11,3,3,0.5,0.4
2026-03-13T2000,1613A,118.6669,24.9422,泉州市,万安,,40,40,45,21,26,88,88,109,106,13,11,4,4,0.5,0.4
2026-03-13T2000,4105A,118.6355,24.9148,泉州市,霞新路6号,NA,NA,NA,46,NA,25,84,84,111,104,16,14,/,/,NA,0.5
2026-03-13T2000,2626A,88.8873,29.2723,日喀则市,日喀则监测站,,42,18,26,3,9,133,133,131,131,6,5,7,8,0.3,0.4
2026-03-13T2000,3726A,88.8775,29.2425,日喀则市,林业技术推广中心,,44,22,31,3,5,138,138,133,133,3,4,9,11,0.4,0.5
2026-03-13T2000,1659A,119.4711,35.421,日照市,监测站,细颗粒物(PM2.5),112,97,104,73,71,118,118,114,114,35,58,7,12,0.8,1.1
