timepoint,stationcode,longitude,latitude,area,positionname,primarypollutant,aqi,pm10,pm10_24h,pm2_5,pm2_5_24h,o3,o3_24h,o3_8h,o3_8h_24h,no2,no2_24h,so2,so2_24h,co,co_24h
2026-01-28T0800,2568A,102.2503,31.8896,阿坝藏族羌族自治州,马师校,,25,,21,17,18,37,,42,42,9,11,4,4,0.5,0.5
2026-01-28T0800,3994A,102.2174,31.9016,阿坝藏族羌族自治州,马尔康中学西区,,15,,15,10,16,32,,34,34,6,9,6,6,0.7,0.8
2026-01-28T0800,2695A,80.2899,41.1684,阿克苏地区,电视台,颗粒物(PM10),154,257,296,75,95,18,,12,12,30,38,10,12,1.6,1.9
2026-01-28T0800,2696A,80.2592,41.1541,阿克苏地区,艺术中心,颗粒物(PM10),154,258,260,108,96,5,,16,16,44,39,6,7,2.0,1.2
2026-01-28T0800,2205A,105.699,38.8409,阿拉善盟,蒙二幼,,27,27,116,3,39,75,,75,75,9,12,9,10,0.6,0.6
2026-01-28T0800,2206A,105.7198,38.8508,阿拉善盟,环保局新楼,,25,22,104,3,38,79,,79,79,5,7,8,8,0.3,0.5
2026-01-28T0800,2708A,88.1266,47.8515,阿勒泰地区,市站,,24,22,24,3,17,75,,59,59,7,49,2,6,0.5,0.7
2026-01-28T0800,4166A,88.1198,47.7931,阿勒泰地区,阿勒泰路33号,,23,19,30,9,16,72,,53,53,9,39,6,6,0.4,0.6
2026-01-28T0800,2630A,80.1171,32.4999,阿里地区,阿里监测站,,29,,2,3,3,90,,90,90,1,3,6,7,0.5,0.5
2026-01-28T0800,3192A,80.0906,32.5029,阿里地区,阿里藏医院,,29,7,12,3,5,91,,90,90,2,4,7,10,0.5,0.6
2026-01-28T0800,2644A,109.0088,32.6974,安康市,汉滨区检察院,颗粒物(PM10),55,60,87,37,36,6,,12,12,17,22,7,6,0.9,0.9
2026-01-28T0800,4054A,109.0324,32.6913,安康市,市邮政管理局,颗粒物(PM10),74,97,117,43,43,6,,11,11,26,23,8,7,1.0,0.9
2026-01-28T0800,2291A,117.0806,30.5181,安庆市,环科院,细颗粒物(PM2.5),92,93,63,68,50,30,,43,43,20,16,6,6,0.7,0.7
2026-01-28T0800,2292A,117.0331,30.5118,安庆市,马山宾馆,细颗粒物(PM2.5),95,93,61,71,49,35,,44,44,24,20,6,4,0.8,0.7
2026-01-28T0800,2294A,116.9897,30.6146,安庆市,安庆大学,细颗粒物(PM2.5),74,74,53,54,41,38,,43,43,20,17,3,4,0.6,0.6
2026-01-28T0800,3173A,117.0598,30.5351,安庆市,市人大,细颗粒物(PM2.5),99,96,62,74,51,30,,44,44,23,18,5,5,0.7,0.6
2026-01-28T0800,3123A,105.9408,26.2431,安顺市,凤凰山,,43,40,56,30,50,40,,54,54,11,17,9,18,0.6,0.7
2026-01-28T0800,3124A,105.9443,26.2567,安顺市,金钟山,,45,42,53,31,50,39,,52,52,12,15,13,21,0.8,0.9
2026-01-28T0800,3125A,105.8983,26.248,安顺市,娄家坡,,33,32,55,23,48,42,,54,54,11,17,10,22,0.6,0.7
2026-01-28T0800,1819A,114.3552,36.1017,安阳市,红庙街,细颗粒物(PM2.5),230,248,206,180,156,4,,22,22,61,36,2,4,1.3,1.1
2026-01-28T0800,1820A,114.361,36.0681,安阳市,银杏小区,细颗粒物(PM2.5),233,191,200,183,170,2,,18,18,49,37,3,5,1.5,1.1
2026-01-28T0800,3141A,114.3921,36.0879,安阳市,信访局,细颗粒物(PM2.5),215,172,205,165,165,5,,19,19,46,30,4,6,1.1,1
2026-01-28T0800,3669A,114.4706,36.0634,安阳市,左辅环卫站,细颗粒物(PM2.5),169,144,216,128,169,31,,34,34,23,27,2,4,0.8,1.1
2026-01-28T0800,4117A,114.2918,36.0769,安阳市,钢三路198号,细颗粒物(PM2.5),248,275,255,198,174,0,,18,18,39,29,4,5,1.8,1.2
2026-01-28T0800,1748A,123.0441,41.1201,鞍山市,深沟寺,,34,34,39,19,20,37,,44,44,34,21,10,9,0.9,0.7
2026-01-28T0800,1749A,123.011,41.0931,鞍山市,太阳城,,29,28,34,20,20,53,,48,48,16,16,12,14,0.9,0.7
2026-01-28T0800,1750A,123.0483,41.1445,鞍山市,太平,细颗粒物(PM2.5),110,167,51,83,25,10,,34,34,55,24,13,12,2.6,0.8
2026-01-28T0800,1751A,122.964,41.0968,鞍山市,铁西三道街,,30,30,53,17,29,44,,37,37,35,34,19,21,0.8,1
2026-01-28T0800,1753A,123.0219,41.0822,鞍山市,明达新区,,32,32,35,20,20,40,,48,48,30,20,14,13,1.6,0.7
2026-01-28T0800,4201A,122.944647,41.082639,鞍山市,兴盛南路290号,细颗粒物(PM2.5),110,163,94,83,34,9,,22,22,73,44,16,17,2.1,1.2
2026-01-28T0800,2195A,107.4206,40.7609,巴彦淖尔市,附二中,颗粒物(PM10),95,140,154,46,66,0,,2,2,42,44,8,10,0.8,1
2026-01-28T0800,2196A,107.37,40.7372,巴彦淖尔市,市环保大楼,颗粒物(PM10),91,131,143,53,55,9,,6,6,41,40,4,6,0.7,0.7
2026-01-28T0800,1956A,86.1476,41.7529,巴音郭楞蒙古自治州,孔雀公园,颗粒物(PM10),123,195,212,49,52,52,,42,42,14,25,11,10,0.6,0.7
2026-01-28T0800,1957A,86.1971,41.7166,巴音郭楞蒙古自治州,棉纺厂,颗粒物(PM10),138,226,243,48,46,30,,27,27,43,35,/,/,/,/
2026-01-28T0800,1958A,86.236,41.7172,巴音郭楞蒙古自治州,经济开发区,颗粒物(PM10),113,175,198,23,36,69,,50,50,8,21,6,6,0.6,0.7
2026-01-28T0800,3181A,106.776805,31.852614,巴中市,市五中,颗粒物(PM10),64,77,69,44,37,3,,6,6,24,23,5,5,1.0,1
2026-01-28T0800,3183A,106.7419,31.8654,巴中市,圣泉水务公司,颗粒物(PM10),53,56,71,31,37,4,,13,13,32,32,4,5,0.6,0.6
2026-01-28T0800,3616A,106.7617,31.8343,巴中市,市中心医院,细颗粒物(PM2.5),55,55,69,39,43,1,,1,1,24,30,4,5,0.9,0.9
2026-01-28T0800,2235A,122.7909,45.608,白城市,洮北区环保局,,49,,27,34,23,45,,54,54,20,9,5,6,0.4,0.2
2026-01-28T0800,2236A,122.8741,45.5725,白城市,市环保局,,17,,34,10,16,52,,54,54,15,17,4,6,0.2,0.3
2026-01-28T0800,2231A,126.4219,41.9172,白山市,喜丰,细颗粒物(PM2.5),60,65,62,43,37,26,,35,35,43,30,17,18,0.9,0.9
2026-01-28T0800,2232A,126.4082,41.9416,白山市,环保局,细颗粒物(PM2.5),58,51,46,41,30,21,,38,38,34,21,11,12,0.9,0.8
2026-01-28T0800,2647A,104.1727,36.5448,白银市,第三小学,颗粒物(PM10),124,198,272,69,87,17,,38,38,51,39,59,56,0.9,0.8
2026-01-28T0800,2648A,104.1467,36.5482,白银市,动力公司,颗粒物(PM10),100,150,260,53,87,29,,44,44,25,26,11,55,1.0,1
2026-01-28T0800,2512A,106.6102,23.901,百色市,市监测站,,37,37,49,25,29,12,,7,7,22,26,37,12,1.0,1
2026-01-28T0800,2513A,106.6524,23.8842,百色市,市中心血站,,35,26,47,24,33,14,,10,10,15,21,12,12,1.1,1.1
2026-01-28T0800,4133A,106.6273,23.8798,百色市,龙景西路,,43,,60,30,33,3,,4,4,21,24,24,11,0.9,0.9
2026-01-28T0800,2270A,117.396,32.9389,蚌埠市,工人疗养院,细颗粒物(PM2.5),72,85,109,52,67,35,,57,57,34,35,8,5,0.7,0.6
2026-01-28T0800,2271A,117.3606,32.9428,蚌埠市,百货大楼,细颗粒物(PM2.5),74,87,108,54,64,35,,56,56,29,32,8,6,0.7,0.6
2026-01-28T0800,2273A,117.4183,32.8909,蚌埠市,蚌埠学院,细颗粒物(PM2.5),79,83,100,58,70,31,,54,54,34,30,4,4,0.6,0.6
2026-01-28T0800,2274A,117.3534,32.9672,蚌埠市,淮上区政府,细颗粒物(PM2.5),88,83,105,65,72,35,,50,50,36,35,4,2,0.7,0.6
2026-01-28T0800,2275A,117.3143,32.8977,蚌埠市,高新区,,,78,100,63,71,32,,57,57,,22,5,5,0.6,0.6
2026-01-28T0800,3715A,117.3091,32.9314,蚌埠市,蚌埠田家炳中学,细颗粒物(PM2.5),77,87,109,56,67,36,,61,61,33,23,7,4,0.6,0.6
2026-01-28T0800,1585A,109.8761,40.6533,包头市,市环境监测站,颗粒物(PM10),71,92,129,36,52,27,,25,25,41,57,12,24,1.1,1.8
2026-01-28T0800,1587A,109.9992,40.5843,包头市,包头八中,颗粒物(PM10),78,105,121,45,54,5,,6,6,70,60,8,14,1.4,1.3
2026-01-28T0800,1589A,109.8641,40.6288,包头市,惠龙物流,颗粒物(PM10),67,84,123,32,53,11,,27,27,64,61,13,28,1.4,1.7
2026-01-28T0800,1590A,110.0376,40.5546,包头市,东河鸿龙湾,颗粒物(PM10),86,121,119,43,45,7,,6,6,77,70,10,16,1.6,1.2
2026-01-28T0800,3283A,109.9154,40.5684,包头市,滨河大厦,颗粒物(PM10),98,145,117,60,57,2,,4,4,66,63,27,15,1.4,1.3
2026-01-28T0800,3419A,109.9449,40.6259,包头市,包头市委党校,,,82,103,14,44,3,,,,65,63,12,17,,1.7
2026-01-28T0800,3683A,109.8332,40.6577,包头市,昆区政府,细颗粒物(PM2.5),74,95,117,54,51,20,,46,46,53,51,19,29,1.6,1.8
2026-01-28T0800,1931A,107.0802,34.3129,宝鸡市,竹园沟,细颗粒物(PM2.5),105,155,188,79,80,16,,22,22,21,22,5,6,0.6,0.5
2026-01-28T0800,1933A,107.1429,34.3549,宝鸡市,监测站,颗粒物(PM10),120,190,221,86,91,7,,16,16,38,32,4,6,0.8,0.7
2026-01-28T0800,1934A,107.1172,34.3759,宝鸡市,技工学校,颗粒物(PM10),126,202,224,78,84,15,,27,27,33,26,11,7,1.0,0.8
2026-01-28T0800,1936A,107.2025,34.3518,宝鸡市,文理学院,颗粒物(PM10),131,212,225,86,89,13,,24,24,38,31,4,6,0.8,0.7
2026-01-28T0800,1937A,107.2396,34.3626,宝鸡市,三迪小学,细颗粒物(PM2.5),134,210,231,102,104,10,,19,19,45,39,4,5,1.0,0.9
2026-01-28T0800,4155A,107.1721,34.3558,宝鸡市,滨河北路,颗粒物(PM10),131,212,240,88,90,15,,27,27,28,24,5,6,1.0,0.8
2026-01-28T0800,4308A,107.3898,34.3601,宝鸡市,陈仓区北开路21号,颗粒物(PM10),158,265,274,106,100,38,,28,28,49,43,71,17,1.1,0.7
2026-01-28T0800,1051A,115.4803,38.8568,保定市,游泳馆,颗粒物(PM10),56,62,102,37,80,5,,4,4,71,62,8,7,0.8,0.8
2026-01-28T0800,1052A,115.509,38.8895,保定市,华电二区,颗粒物(PM10),60,70,99,33,73,0,,0,0,58,56,6,4,0.7,0.7
2026-01-28T0800,1053A,115.4588,38.9037,保定市,接待中心,颗粒物(PM10),57,63,99,36,70,3,,1,1,59,55,4,4,0.6,0.7
2026-01-28T0800,1054A,115.4484,38.8344,保定市,地表水厂,颗粒物(PM10),65,79,117,26,68,5,,3,3,69,61,8,7,0.6,0.7
2026-01-28T0800,3581A,115.3136,38.9511,保定市,满城区生态环境分局,颗粒物(PM10),63,75,103,34,53,14,,6,6,48,52,6,4,0.8,0.9
2026-01-28T0800,3582A,115.4709,38.7628,保定市,清苑区第二中学,颗粒物(PM10),62,74,135,28,75,4,,4,4,69,60,10,9,0.7,0.8
2026-01-28T0800,3583A,115.6231,39.0223,保定市,徐水物探局,颗粒物(PM10),69,87,128,40,74,9,,9,9,53,53,8,8,0.8,0.9
2026-01-28T0800,4004A,115.4199,38.8665,保定市,双鹰农机,颗粒物(PM10),62,73,125,32,69,13,,10,10,63,54,9,8,0.8,0.8
2026-01-28T0800,4034A,115.515,38.8589,保定市,植保所站,颗粒物(PM10),62,73,106,39,75,0,,0,0,65,61,2,3,0.8,0.8
2026-01-28T0800,2594A,99.1589,25.1137,保山市,市环境监测站,,26,26,26,11,16,38,,48,48,10,10,2,4,0.4,0.3
2026-01-28T0800,2595A,99.1616,25.1381,保山市,市环保局,,28,28,29,14,17,45,,54,54,6,6,3,3,0.3,0.4
2026-01-28T0800,1867A,109.1435,21.4085,北海市,海滩公园,,35,35,56,21,36,35,,47,47,17,15,8,8,0.9,1
2026-01-28T0800,1868A,109.0983,21.466,北海市,新市环保局,,33,30,45,23,31,32,,42,42,17,16,6,7,1.0,1
2026-01-28T0800,1869A,109.1775,21.5232,北海市,北海工业园,,42,41,53,29,37,21,,38,38,21,16,6,9,0.7,0.8
2026-01-28T0800,3400A,109.1844,21.4396,北海市,龙潭自来水厂,细颗粒物(PM2.5),52,43,50,36,39,24,,41,41,16,13,3,4,0.9,0.9
2026-01-28T0800,1001A,116.3611,39.8786,北京市,万寿西宫,颗粒物(PM10),54,57,48,27,22,3,,9,9,61,45,2,3,0.8,0.7
2026-01-28T0800,1003A,116.4174,39.9289,北京市,东四,颗粒物(PM10),52,53,48,27,22,11,,9,9,43,37,5,6,0.5,0.5
2026-01-28T0800,1004A,116.4073,39.8858,北京市,天坛,颗粒物(PM10),53,55,41,29,22,2,,9,9,61,37,2,2,0.8,0.6
2026-01-28T0800,1005A,116.4622,39.9364,北京市,农展馆,颗粒物(PM10),53,55,52,27,24,2,,4,4,52,39,3,4,0.8,0.8
2026-01-28T0800,1006A,116.3399,39.9293,北京市,官园,颗粒物(PM10),52,54,49,28,24,12,,5,5,48,42,2,4,0.5,0.6
2026-01-28T0800,1007A,116.2879,39.9613,北京市,海淀万柳,颗粒物(PM10),53,56,51,27,24,2,,1,1,65,51,3,3,0.8,0.6
2026-01-28T0800,1008A,116.6635,40.1349,北京市,顺义新城,,50,50,58,22,25,25,,7,7,30,39,4,5,0.5,0.5
2026-01-28T0800,1009A,116.6275,40.327,北京市,怀柔镇,,42,42,40,23,21,20,,22,22,32,26,4,4,0.6,0.5
2026-01-28T0800,1010A,116.2295,40.217,北京市,昌平镇,颗粒物(PM10),54,58,50,32,24,16,,20,20,37,33,2,2,0.6,0.5
2026-01-28T0800,1011A,116.3968,39.982,北京市,奥体中心,颗粒物(PM10),51,51,51,26,24,6,,3,3,67,54,5,5,0.8,0.8
2026-01-28T0800,3418A,116.8336,40.4095,北京市,密云新城,,34,34,43,16,18,37,,30,30,13,21,3,2,0.5,0.4
2026-01-28T0800,3671A,116.0879,39.9725,北京市,门头沟三家店,颗粒物(PM10),51,51,51,23,21,10,,7,7,32,30,2,3,0.5,0.5
2026-01-28T0800,3672A,116.1507,39.8246,北京市,丰台云岗,颗粒物(PM10),54,57,47,28,21,8,,6,6,48,42,3,3,0.7,0.5
2026-01-28T0800,3674A,115.9578,39.7602,北京市,房山燕山,,46,46,39,9,20,11,,18,18,36,27,4,6,0.7,0.5
2026-01-28T0800,3675A,116.4669,39.7734,北京市,大兴旧宫,颗粒物(PM10),61,71,47,28,18,1,,5,5,67,43,5,4,0.9,0.7
2026-01-28T0800,3694A,115.9859,40.4562,北京市,延庆石河营,颗粒物(PM10),68,86,59,34,29,2,,6,6,39,34,3,4,0.8,0.6
2026-01-28T0800,3695A,116.6151,40.3052,北京市,怀柔新城,,46,46,39,30,24,23,,22,22,20,20,4,4,0.5,0.4
2026-01-28T0800,3696A,116.2542,39.8764,北京市,丰台小屯,颗粒物(PM10),56,61,59,29,25,2,,1,1,58,52,4,4,0.7,0.7
2026-01-28T0800,3697A,116.8399,40.3843,北京市,密云镇,,45,45,43,25,21,16,,6,6,36,35,3,3,0.5,0.4
2026-01-28T0800,4057A,115.9423,40.4431,北京市,延庆百泉,颗粒物(PM10),53,56,43,28,20,0,,10,10,42,27,2,2,0.7,0.6
2026-01-28T0800,4058A,116.6598,39.9164,北京市,通州新华,颗粒物(PM10),55,59,58,32,25,1,,1,1,58,48,3,4,0.7,0.7
2026-01-28T0800,4182A,116.1942,39.9158,北京市,石景山八角,颗粒物(PM10),56,62,55,27,22,4,,4,4,64,45,8,3,0.5,0.4
2026-01-28T0800,4194A,117.078628,40.151726,北京市,平谷新城,颗粒物(PM10),55,60,52,38,29,5,,15,15,37,30,3,4,0.8,0.7
2026-01-28T0800,1761A,123.8274146,41.31234549,本溪市,大峪,细颗粒物(PM2.5),75,88,48,55,28,12,,19,19,46,28,7,9,2.1,1
2026-01-28T0800,1763A,123.7169,41.3094,本溪市,彩屯,细颗粒物(PM2.5),122,124,66,92,39,6,,12,12,60,38,7,9,2.5,1.2
2026-01-28T0800,1764A,123.7672166,41.28649327,本溪市,东明,细颗粒物(PM2.5),87,76,55,64,42,9,,7,7,51,42,6,9,2.1,0.9
2026-01-28T0800,1765A,123.799345,41.266614,本溪市,新立屯,细颗粒物(PM2.5),72,70,45,52,20,11,,11,11,56,38,12,12,2.5,1.4
2026-01-28T0800,1766A,123.829144,41.336777,本溪市,威宁,细颗粒物(PM2.5),73,86,68,53,37,7,,6,6,42,37,5,7,1.8,1.2
2026-01-28T0800,2587A,105.287,27.3133,毕节市,八中,细颗粒物(PM2.5),78,82,109,57,55,31,,33,33,13,19,9,11,0.9,1
2026-01-28T0800,2588A,105.3079,27.2987,毕节市,师专,细颗粒物(PM2.5),74,88,100,54,54,33,,38,38,13,20,8,10,0.8,0.8
2026-01-28T0800,4263A,105.3688,27.3598,毕节市,工业大道,细颗粒物(PM2.5),62,63,94,44,59,34,,39,39,14,18,11,12,/,/
2026-01-28T0800,1629A,117.9961,37.3604,滨州市,第二水厂,细颗粒物(PM2.5),97,134,120,72,70,1,,5,5,70,57,13,20,1.6,1.2
2026-01-28T0800,1630A,117.9789,37.3931,滨州市,北中新校,细颗粒物(PM2.5),117,166,114,88,71,0,,7,7,60,45,11,18,1.5,0.9
2026-01-28T0800,3514A,117.9379,37.3959,滨州市,中海酒店,细颗粒物(PM2.5),124,139,116,94,76,7,,14,14,67,50,15,20,1.5,1.1
2026-01-28T0800,3515A,117.9381509,37.35547456,滨州市,开发区一中,细颗粒物(PM2.5),127,161,136,96,77,1,,6,6,62,50,18,21,1.6,1
2026-01-28T0800,3516A,118.0914,37.6938,滨州市,金海六路,"颗粒物(PM10),细颗粒物(PM2.5)",83,115,72,61,43,10,,25,25,67,47,7,7,1.2,0.8
2026-01-28T0800,4028A,117.9955,37.3752,滨州市,滨州市西街道办事处,细颗粒物(PM2.5),132,161,121,100,76,2,,8,8,60,45,12,19,1.1,0.9
2026-01-28T0800,2311A,115.8071,33.8399,亳州市,污水处理厂,细颗粒物(PM2.5),102,113,145,76,92,26,,24,24,32,31,6,5,0.3,0.5
2026-01-28T0800,2312A,115.7789,33.8519,亳州市,三国揽胜宫,细颗粒物(PM2.5),104,139,163,78,93,22,,27,27,40,33,4,4,0.6,0.8
2026-01-28T0800,3332A,115.7631,33.803,亳州市,亳州学院,细颗粒物(PM2.5),102,116,143,76,93,37,,44,44,29,23,3,4,0.6,0.8
2026-01-28T0800,2693A,82.0482,44.8553,博尔塔拉蒙古自治州,市党校,颗粒物(PM10),62,74,94,20,46,48,,48,48,14,27,3,6,0.7,0.9
2026-01-28T0800,2694A,82.0805,44.8966,博尔塔拉蒙古自治州,市环保局,颗粒物(PM10),68,85,125,47,58,36,,40,40,19,35,5,6,0.7,0.8
2026-01-28T0800,1071A,116.8733,38.2922,沧州市,沧县城建局,细颗粒物(PM2.5),155,152,97,118,61,7,,9,9,76,54,15,9,1.1,0.6
2026-01-28T0800,1072A,116.8462,38.3189,沧州市,电视转播站,细颗粒物(PM2.5),160,181,95,122,68,2,,7,7,70,50,16,7,1.3,0.8
2026-01-28T0800,1073A,116.8588,38.3161,沧州市,市环保局,细颗粒物(PM2.5),145,169,98,111,58,1,,3,3,75,50,16,10,1.4,0.8
2026-01-28T0800,3324A,116.8011,38.294,沧州市,河北水利电力学院,细颗粒物(PM2.5),182,193,118,137,79,6,,14,14,70,46,16,10,1.2,0.7
2026-01-28T0800,2622A,97.1813,31.1289,昌都市,昌都监测站,,13,9,38,6,16,39,,31,31,10,24,3,3,0.6,0.8
2026-01-28T0800,3719A,97.1707,31.1428,昌都市,昌都会议中心,,14,9,15,6,8,42,,42,42,1,6,5,5,0.3,0.3
2026-01-28T0800,2692A,87.2722,44.0298,昌吉回族自治州,新区政务中心,细颗粒物(PM2.5),83,92,148,61,102,27,,16,16,45,47,7,8,1.1,1.3
2026-01-28T0800,3613A,87.3069,44.0093,昌吉回族自治州,亚心广场,细颗粒物(PM2.5),160,166,168,122,119,40,,25,25,31,38,7,7,1.4,1.4
2026-01-28T0800,4164A,87.2057,43.9289,昌吉回族自治州,财政所,颗粒物(PM10),59,68,87,41,58,59,,65,65,9,14,4,5,0.7,0.8
2026-01-28T0800,1120A,125.2874,43.9024,长春市,客车厂,细颗粒物(PM2.5),74,66,53,54,40,12,,10,10,61,46,10,11,1.1,0.7
2026-01-28T0800,1121A,125.2943,43.8508,长春市,邮电学院,细颗粒物(PM2.5),94,,49,70,36,11,,8,8,58,49,12,12,0.9,0.5
2026-01-28T0800,1122A,125.3648,43.8745,长春市,劳动公园,,,,56,,36,,,60,18,,40,,7,,0.8
2026-01-28T0800,1123A,125.3233,43.8781,长春市,园林处,细颗粒物(PM2.5),84,66,45,62,36,12,,10,10,55,39,15,10,1.2,0.8
2026-01-28T0800,1124A,125.4604,43.7904,长春市,净月潭,细颗粒物(PM2.5),62,52,43,44,30,33,,42,42,27,18,6,6,0.7,0.5
2026-01-28T0800,1126A,125.38,43.8422,长春市,经开区环卫处,细颗粒物(PM2.5),68,64,51,49,35,6,,5,5,60,46,5,5,1.0,0.7
2026-01-28T0800,1127A,125.234,43.7761,长春市,高新区管委会,细颗粒物(PM2.5),83,99,60,61,46,15,,14,14,56,42,6,6,1.2,0.8
2026-01-28T0800,1128A,125.1695,43.83,长春市,岱山公园,细颗粒物(PM2.5),95,99,55,71,38,6,,4,4,60,40,12,8,1.0,0.7
2026-01-28T0800,4281A,125.334645,43.916281,长春市,北亚泰大街1068号,细颗粒物(PM2.5),79,75,54,58,41,6,,5,5,62,45,12,11,1.3,0.8
2026-01-28T0800,1335A,113.082,28.2421,长沙市,经开区环保局,细颗粒物(PM2.5),118,120,98,89,82,6,,16,16,43,31,3,3,0.8,0.7
2026-01-28T0800,1336A,112.8873,28.2202,长沙市,高开区环保局,细颗粒物(PM2.5),129,134,106,98,85,18,,18,18,46,29,6,4,0.9,0.8
2026-01-28T0800,1337A,113.0785,28.2012,长沙市,马坡岭,细颗粒物(PM2.5),107,118,99,80,82,4,,14,14,40,29,4,4,1.0,0.9
2026-01-28T0800,1338A,112.9448,28.1894,长沙市,湖南师范大学,细颗粒物(PM2.5),114,131,104,86,73,19,,30,30,30,25,4,4,1.0,0.8
2026-01-28T0800,1339A,113.0177,28.1322,长沙市,雨花区环保局,细颗粒物(PM2.5),103,108,92,77,77,5,,13,13,44,32,7,7,0.9,0.8
2026-01-28T0800,1340A,112.9795,28.2593,长沙市,伍家岭,细颗粒物(PM2.5),117,142,102,88,74,10,,16,16,39,30,5,4,1.0,0.8
2026-01-28T0800,1341A,113.002,28.1944,长沙市,火车新站,细颗粒物(PM2.5),128,127,100,97,82,15,,23,23,43,28,1,1,1.1,1
2026-01-28T0800,1342A,112.9846,28.1177,长沙市,天心区环保局,细颗粒物(PM2.5),120,117,97,91,87,15,,20,20,45,33,6,5,0.8,0.8
2026-01-28T0800,1343A,112.8906,28.1307,长沙市,湖南中医药大学,细颗粒物(PM2.5),123,139,108,93,89,5,,24,24,54,32,6,6,1.0,0.9
2026-01-28T0800,1727A,113.1146,36.1547,长治市,清华站,"颗粒物(PM10),细颗粒物(PM2.5)",98,146,136,73,70,23,,48,48,47,29,10,13,1.2,0.9
2026-01-28T0800,1730A,113.0887,36.2126,长治市,审计局,细颗粒物(PM2.5),130,156,135,99,74,13,,55,55,54,34,14,11,1.0,0.8
2026-01-28T0800,1731A,113.0845,36.1856,长治市,长治八中,细颗粒物(PM2.5),119,178,164,90,82,4,,54,54,52,22,10,13,1.3,1
2026-01-28T0800,2845A,113.1561,36.1912,长治市,德盛苑,细颗粒物(PM2.5),109,133,128,82,77,58,,83,83,23,18,7,11,1.1,1.1
2026-01-28T0800,3568A,113.0603,36.0464,长治市,向阳小学,颗粒物(PM10),112,173,175,66,75,53,,68,68,27,30,10,12,1.0,1
2026-01-28T0800,3569A,112.8788,36.315,长治市,屯留一中,细颗粒物(PM2.5),102,143,140,76,78,5,,12,12,48,34,10,16,1.7,1.3
2026-01-28T0800,4189A,113.113092,36.199482,长治市,英华南巷50号,细颗粒物(PM2.5),130,163,143,99,75,7,,60,60,55,25,12,11,1.4,1.1
2026-01-28T0800,4190A,113.23666,36.33435,长治市,学府街1号,颗粒物(PM10),104,157,154,75,79,6,,11,11,67,51,8,12,2.1,1.4
2026-01-28T0800,1854A,111.696,28.9725,常德市,市二中,颗粒物(PM10),55,60,146,20,116,10,,5,5,16,35,4,8,1.3,1.3
2026-01-28T0800,3138A,111.7152,29.0288,常德市,武陵区永安,颗粒物(PM10),73,96,165,38,122,7,,19,19,32,30,4,7,1.4,1.3
2026-01-28T0800,3139A,111.6891,28.9881,常德市,鼎城区玉霞,颗粒物(PM10),52,54,136,28,113,6,,4,4,31,33,6,9,1.1,1.1
2026-01-28T0800,3140A,111.6651,29.0526,常德市,武陵区长庚,"颗粒物(PM10),细颗粒物(PM2.5)",74,98,162,54,128,9,,6,6,26,30,3,9,1.1,1
2026-01-28T0800,1196A,119.9524,31.7586,常州市,市监测站,细颗粒物(PM2.5),67,66,79,48,55,20,,32,32,59,34,6,6,0.7,0.5
2026-01-28T0800,1200A,119.9351,31.703,常州市,武进监测站,细颗粒物(PM2.5),70,70,74,51,55,19,,36,36,60,35,15,11,1.2,0.8
2026-01-28T0800,3002A,119.9701,31.813,常州市,行政中心,细颗粒物(PM2.5),65,68,89,47,53,33,,39,39,50,35,7,5,0.7,0.7
2026-01-28T0800,3003A,120.0434,31.7726,常州市,经开区,细颗粒物(PM2.5),73,93,97,53,50,7,,7,7,78,48,14,10,0.9,0.7
2026-01-28T0800,3010A,119.8919,31.7892,常州市,钟楼,细颗粒物(PM2.5),64,72,81,46,49,30,,36,36,49,32,8,7,0.8,0.8
2026-01-28T0800,3429A,119.8595,31.706,常州市,武进经发区,细颗粒物(PM2.5),68,74,85,49,59,5,,14,14,78,51,9,6,0.9,0.8
2026-01-28T0800,3430A,119.5812,31.7256,常州市,金坛城区,细颗粒物(PM2.5),69,80,85,50,58,10,,25,25,60,34,6,6,1.1,0.9
2026-01-28T0800,4089A,119.9551,31.863,常州市,崇义南街5-H号,颗粒物(PM10),65,80,82,44,47,11,,39,39,57,29,4,5,1.1,0.8
2026-01-28T0800,2220A,120.4318,41.588,朝阳市,西梁,细颗粒物(PM2.5),152,121,45,116,18,6,,19,19,55,26,21,8,2.2,0.6
2026-01-28T0800,2221A,120.452,41.565,朝阳市,河畔小区,细颗粒物(PM2.5),62,45,31,44,15,9,,21,21,44,23,12,9,1.1,0.6
2026-01-28T0800,2222A,120.4176,41.5648,朝阳市,八里堡,细颗粒物(PM2.5),59,53,41,42,20,6,,14,14,49,26,14,9,1.1,0.6
2026-01-28T0800,3026A,116.6179,23.6608,潮州市,市政府,,46,45,40,32,33,23,,35,35,22,17,6,4,0.5,0.5
2026-01-28T0800,4036A,116.646,23.676,潮州市,金山,颗粒物(PM10),52,53,40,27,29,17,,23,23,23,20,6,4,0.6,0.6
2026-01-28T0800,2473A,113.0116,25.8228,郴州市,市职中,细颗粒物(PM2.5),94,78,81,70,76,5,,9,9,19,21,4,4,0.8,0.8
2026-01-28T0800,2475A,113.0381,25.8074,郴州市,市审计局,细颗粒物(PM2.5),92,86,86,68,79,2,,3,3,18,21,3,2,/,/
2026-01-28T0800,2476A,113.0348,25.7757,郴州市,市环保局,细颗粒物(PM2.5),103,,83,77,84,4,,8,8,22,21,2,3,0.8,0.8
2026-01-28T0800,4252A,113.0138,25.8011,郴州市,好美居路49号,细颗粒物(PM2.5),118,94,93,89,91,14,,17,17,25,27,3,3,/,/
2026-01-28T0800,1431A,103.9727,30.7242,成都市,金泉两河,细颗粒物(PM2.5),125,188,199,95,83,14,,31,31,50,43,3,4,0.8,0.8
2026-01-28T0800,1432A,104.1423,30.6765,成都市,十里店,细颗粒物(PM2.5),125,179,166,95,77,5,,6,6,62,52,4,4,0.9,0.8
2026-01-28T0800,1433A,104.0594,30.5765,成都市,三瓦窑,细颗粒物(PM2.5),110,161,140,83,65,2,,6,6,77,52,4,4,1.0,0.9
2026-01-28T0800,1434A,104.1122,30.6306,成都市,沙河铺,细颗粒物(PM2.5),123,161,146,93,76,1,,10,10,84,59,4,4,1.0,0.8
2026-01-28T0800,2880A,104.0219,30.6561,成都市,大石西路,颗粒物(PM10),118,185,170,83,74,16,,16,16,46,45,5,5,0.9,0.9
2026-01-28T0800,3136A,104.2724,30.559,成都市,龙泉驿区区政府,颗粒物(PM10),92,134,130,36,46,34,,53,53,30,25,6,6,0.6,0.6
2026-01-28T0800,3357A,104.0028,30.6891,成都市,金博路,细颗粒物(PM2.5),112,169,167,84,76,16,,20,20,47,46,,5,0.9,0.9
2026-01-28T0800,3359A,104.056,30.5228,成都市,华阳,颗粒物(PM10),97,144,121,68,58,15,,12,12,60,57,3,3,0.8,0.8
2026-01-28T0800,3488A,104.387954,30.746684,成都市,青石路225号,颗粒物(PM10),102,154,136,67,62,1,,3,3,51,49,5,5,0.9,0.8
2026-01-28T0800,3489A,104.0788,30.4054,成都市,科学城,颗粒物(PM10),102,154,127,63,55,12,,10,10,43,29,6,6,0.9,0.8
2026-01-28T0800,4011A,103.8505,30.6946,成都市,光华大道三段,细颗粒物(PM2.5),144,196,194,110,91,9,,28,28,55,44,4,4,0.9,0.8
2026-01-28T0800,4144A,104.3257,30.6406,成都市,八角井街185号,颗粒物(PM10),99,147,141,57,55,1,,28,28,51,30,3,3,1.0,0.8
2026-01-28T0800,4224A,104.2433276,30.53529463,成都市,鲸龙路1057号,颗粒物(PM10),104,158,132,64,59,4,,16,16,55,44,5,5,0.9,0.8
2026-01-28T0800,1062A,117.9531,40.908,承德市,铁路,细颗粒物(PM2.5),67,76,43,48,23,3,,11,11,41,28,6,7,1.3,0.7
2026-01-28T0800,1063A,117.9397,40.9763,承德市,中国银行,细颗粒物(PM2.5),54,52,45,38,21,8,,8,8,33,28,2,3,0.8,0.6
2026-01-28T0800,4073A,117.9462,40.95,承德市,杏林街1号,,42,42,39,29,23,6,,12,12,29,23,3,5,0.7,0.6
2026-01-28T0800,4274A,117.7994,40.9605,承德市,滨河大街98号,,50,50,40,28,21,6,,9,9,36,28,3,8,0.7,0.6
2026-01-28T0800,2314A,117.4698,30.6617,池州市,池州学院,细颗粒物(PM2.5),100,93,56,75,46,22,,19,19,31,29,4,3,1.4,1
2026-01-28T0800,3237A,117.4918,30.6617,池州市,展览馆,细颗粒物(PM2.5),102,99,57,76,44,24,,22,22,27,24,2,2,1.1,0.8
2026-01-28T0800,3333A,117.5626,30.695,池州市,第八中学,细颗粒物(PM2.5),103,102,54,77,44,24,,24,24,27,25,3,3,1.0,0.8
2026-01-28T0800,3334A,117.5037,30.6242,池州市,第十二中学,细颗粒物(PM2.5),112,101,49,84,42,27,,32,32,34,25,4,3,1.3,1.1
2026-01-28T0800,1744A,118.9229,42.2816,赤峰市,松山一中,细颗粒物(PM2.5),60,54,41,43,20,3,,19,19,48,29,16,14,1.6,0.9
2026-01-28T0800,1745A,118.9588,42.2733,赤峰市,哈达街,颗粒物(PM10),53,55,40,27,19,8,,24,24,36,22,13,12,1.1,0.8
2026-01-28T0800,1746A,118.8792,42.2551,赤峰市,天义路,细颗粒物(PM2.5),60,,25,43,15,0,,20,20,40,18,8,8,1.5,0.7
2026-01-28T0800,3058A,119.2656,42.0356,赤峰市,银河街,细颗粒物(PM2.5),70,70,46,51,25,10,,28,28,34,16,16,14,1.8,0.9
2026-01-28T0800,3286A,118.9359,42.3146,赤峰市,桥北物流园区,,39,36,35,27,21,10,,17,17,39,30,9,20,1.1,0.8
2026-01-28T0800,2521A,107.3473,22.4137,崇左市,市环保局江州分局,,35,35,42,23,28,25,,26,26,12,15,4,5,0.9,0.9
2026-01-28T0800,4256A,107.375,22.3736,崇左市,石景林东路7号,,29,29,41,18,26,26,,30,30,15,17,3,3,0.7,0.8
2026-01-28T0800,3207A,118.31131,32.3033,滁州市,市政府原办公楼,细颗粒物(PM2.5),74,79,85,54,57,6,,18,18,51,34,5,4,0.8,0.5
2026-01-28T0800,3331A,118.3268,32.2633,滁州市,图书馆,细颗粒物(PM2.5),64,66,78,46,49,8,,19,19,46,30,8,7,0.6,0.6
2026-01-28T0800,4101A,118.3196,32.3335,滁州市,银山路666号,细颗粒物(PM2.5),83,63,78,61,66,5,,14,14,32,31,4,5,0.6,0.6
2026-01-28T0800,4102A,118.3426,32.2979,滁州市,黄山路555号,细颗粒物(PM2.5),82,76,91,60,60,8,,20,20,48,34,14,14,0.8,0.9
2026-01-28T0800,2606A,101.5379,25.0492,楚雄彝族自治州,市经济开发区,,29,29,32,16,21,2,,10,10,29,21,3,3,0.6,0.7
2026-01-28T0800,4153A,101.5536,25.0343,楚雄彝族自治州,团结路562号,,26,26,27,18,17,2,,12,12,25,16,4,5,0.5,0.5
2026-01-28T0800,2549A,107.5087,31.2186,达州市,市环境监测站,,,,60,,36,,,,,,26,,8,,0.8
2026-01-28T0800,2550A,107.4988,31.2132,达州市,凤凰小区,细颗粒物(PM2.5),58,56,70,41,43,3,,4,4,28,37,5,5,0.6,0.5
2026-01-28T0800,2551A,107.5081,31.1987,达州市,达县机关宾馆,"颗粒物(PM10),细颗粒物(PM2.5)",60,70,79,43,48,4,,3,3,30,40,4,4,1.5,1.2
2026-01-28T0800,2552A,107.4644,31.2124,达州市,市政中心,细颗粒物(PM2.5),58,63,76,41,41,5,,5,5,31,41,5,6,0.8,0.9
2026-01-28T0800,2614A,100.2168,25.5818,大理白族自治州,大理市环境监测站,,29,22,26,20,18,62,,66,66,9,12,6,6,0.5,0.6
2026-01-28T0800,2615A,100.1542,25.7055,大理白族自治州,大理古城,,20,20,24,11,17,44,,59,59,21,14,7,8,1.0,0.9
2026-01-28T0800,1109A,121.6119,38.974,大连市,甘井子,,45,45,42,26,23,57,,51,51,31,30,13,9,0.3,0.4
2026-01-28T0800,1110A,121.565,38.9509,大连市,周水子,细颗粒物(PM2.5),64,60,47,46,29,38,,20,20,38,39,8,7,0.7,0.6
2026-01-28T0800,1111A,121.5637,38.8849,大连市,星海三站,,38,38,37,23,23,51,,29,29,24,27,8,8,0.6,0.7
2026-01-28T0800,1112A,121.6301,38.9117,大连市,青泥洼桥,,40,40,35,25,21,51,,35,35,27,26,13,11,0.5,0.5
2026-01-28T0800,1113A,121.6248,38.8643,大连市,傅家庄,,35,34,34,24,18,54,,49,49,21,22,12,10,0.7,0.7
2026-01-28T0800,1114A,121.5117,38.8636,大连市,七贤岭,,44,44,37,30,21,38,,33,33,33,23,11,9,1.0,0.7
2026-01-28T0800,1116A,121.7507,39.1339,大连市,金州,细颗粒物(PM2.5),52,50,33,36,21,62,,71,71,22,17,12,11,0.5,0.4
2026-01-28T0800,1117A,121.7811,39.0495,大连市,开发区,,37,37,34,21,20,68,,67,67,16,18,4,4,0.2,0.3
2026-01-28T0800,1118A,121.9762,39.0631,大连市,双D港,,48,48,29,22,16,69,,72,72,15,11,14,9,0.6,0.5
2026-01-28T0800,4082A,121.2548,38.8188,大连市,旅顺,细颗粒物(PM2.5),64,58,42,46,30,21,,39,39,47,22,13,10,0.9,0.7
2026-01-28T0800,1789A,124.8085,46.0381,大庆市,大同区,,35,35,39,21,26,51,,57,57,16,17,5,6,1.0,0.9
2026-01-28T0800,1790A,125.1166,46.5255,大庆市,龙凤区,细颗粒物(PM2.5),54,56,37,38,21,15,,27,27,55,37,9,9,0.9,0.6
2026-01-28T0800,1791A,124.8894,46.4007,大庆市,红岗区,,38,38,33,24,18,28,,40,40,24,17,3,4,1.1,0.7
2026-01-28T0800,1792A,125.1391,46.578,大庆市,萨尔图区,,43,43,31,23,15,10,,33,33,59,33,7,8,1.0,0.7
2026-01-28T0800,1793A,124.9026,46.6217,大庆市,让胡路区,,39,36,31,27,22,42,,50,50,35,21,8,7,0.6,0.5
2026-01-28T0800,3481A,125.127,46.6277,大庆市,萨区政府监测点,,,,31,,17,,,64,32,,28,,8,,0.8
2026-01-28T0800,1723A,113.2926,40.0759,大同市,云冈宾馆,颗粒物(PM10),89,127,126,41,52,5,,5,5,55,52,25,26,2.2,1.4
2026-01-28T0800,1724A,113.3437,40.0921,大同市,大同大学,颗粒物(PM10),83,116,121,47,43,11,,18,18,46,43,26,26,1.8,1.1
2026-01-28T0800,1725A,113.2637,40.129,大同市,安家小村,颗粒物(PM10),106,161,145,67,57,3,,2,2,49,49,24,30,2.7,1.7
2026-01-28T0800,3282A,113.3399,40.0586,大同市,大同市卫生学校,颗粒物(PM10),84,118,121,44,44,10,,15,15,55,51,35,24,2.0,1.2
2026-01-28T0800,3565A,113.1371,40.1122,大同市,云冈站,颗粒物(PM10),83,115,125,40,43,1,,1,1,45,47,14,23,1.1,0.9
2026-01-28T0800,3566A,113.1186,40.2556,大同市,图书馆,颗粒物(PM10),91,131,124,44,55,16,,15,15,21,33,4,17,1.2,1.6
2026-01-28T0800,3567A,113.5931,40.0459,大同市,区一中,细颗粒物(PM2.5),89,116,135,66,62,21,,19,19,25,32,13,30,1.1,1.2
2026-01-28T0800,4199A,113.2798248,40.09972476,大同市,魏都大道141号,颗粒物(PM10),106,161,153,69,57,7,,6,6,56,58,22,27,2.9,1.7
2026-01-28T0800,2269A,124.1068,50.4091,大兴安岭地区,科技局,,22,22,20,3,10,58,,56,56,3,4,3,3,0.1,0.2
2026-01-28T0800,3663A,124.117,50.4279,大兴安岭地区,红旗社区,,28,,17,19,18,61,,48,48,13,17,5,6,0.4,0.4
2026-01-28T0800,1600A,124.33,40.0625,丹东市,江湾东路,细颗粒物(PM2.5),82,101,40,60,19,17,,35,35,31,17,27,12,1.9,0.7
2026-01-28T0800,1601A,124.4242,40.1513,丹东市,临江后街,细颗粒物(PM2.5),65,62,41,47,22,15,,25,25,44,22,25,15,1.0,0.6
2026-01-28T0800,1602A,124.3935,40.1461,丹东市,元宝山,细颗粒物(PM2.5),65,63,31,47,17,18,,35,35,39,14,27,14,0.9,0.4
2026-01-28T0800,1603A,124.3634,40.1093,丹东市,民主桥,颗粒物(PM10),59,67,39,33,17,8,,37,37,66,25,17,10,1.1,0.7
2026-01-28T0800,3541A,109.5726195,19.51688767,儋州市,第一中学子站,,32,32,30,16,16,46,,53,53,8,7,4,4,0.6,0.5
2026-01-28T0800,3542A,109.5567,19.5187,儋州市,东坡学校子站,,25,25,30,16,16,53,,59,59,8,7,3,3,0.6,0.5
2026-01-28T0800,2616A,98.5611,24.4273,德宏傣族景颇族自治州,德宏州监测站,,48,37,51,33,32,9,,,,28,24,7,7,0.5,0.7
2026-01-28T0800,3677A,98.5887,24.4366,德宏傣族景颇族自治州,芒市人民政府综合楼,,40,37,44,28,27,16,,25,25,17,14,4,5,0.7,0.7
2026-01-28T0800,1901A,104.424,31.1209,德阳市,东山公园,细颗粒物(PM2.5),112,170,143,84,71,16,,21,21,41,25,2,2,1.0,0.9
2026-01-28T0800,1902A,104.3827,31.1318,德阳市,西小区,细颗粒物(PM2.5),122,184,173,92,84,5,,14,14,48,41,3,3,1.0,0.9
2026-01-28T0800,1904A,104.3553,31.1091,德阳市,耐火材料厂,颗粒物(PM10),108,165,157,80,78,4,,19,19,50,35,2,2,1.0,0.9
2026-01-28T0800,4145A,104.4144,31.1495,德阳市,市林业局,细颗粒物(PM2.5),124,165,141,94,83,2,,3,3,62,49,4,4,1.1,0.9
2026-01-28T0800,1622A,116.3034,37.4675,德州市,儿童乐园,细颗粒物(PM2.5),223,237,196,173,122,49,,50,50,45,45,15,15,1.7,1.3
2026-01-28T0800,1624A,116.2992,37.4449,德州市,监理站,细颗粒物(PM2.5),228,237,195,178,123,51,,54,54,50,50,12,13,1.5,1.1
2026-01-28T0800,3066A,116.2722,37.438,德州市,九衢泉纯净水厂,细颗粒物(PM2.5),247,234,198,197,132,35,,31,31,49,56,9,11,1.9,1.4
2026-01-28T0800,3371A,116.3693,37.44,德州市,开发区人民医院,细颗粒物(PM2.5),223,239,196,173,116,43,,40,40,57,63,12,16,1.4,1.1
2026-01-28T0800,3511A,116.5687,37.3331,德州市,陵城艺术中心,,,,176,,108,,,72,,,47,,24,,0.9
2026-01-28T0800,4292A,116.352738,37.420875,德州市,新河东路,细颗粒物(PM2.5),225,224,179,175,119,14,,13,13,67,67,12,16,1.5,1.2
2026-01-28T0800,2621A,99.7054,27.8319,迪庆藏族自治州,迪庆州站,,20,20,23,13,16,49,,55,55,10,10,4,4,0.3,0.4
2026-01-28T0800,3180A,99.7122,27.8129,迪庆藏族自治州,质量技术监督局,,28,,25,19,16,53,,57,57,14,11,4,4,0.5,0.5
2026-01-28T0800,4257A,104.6092,35.5962,定西市,将台街,颗粒物(PM10),157,263,278,86,88,8,,12,12,35,28,13,15,1.2,0.9
2026-01-28T0800,4309A,104.6159,35.5701,定西市,正龙路62号,颗粒物(PM10),160,269,298,59,81,23,,30,30,16,15,12,12,1.1,0.9
2026-01-28T0800,1390A,113.7943,23.0132,东莞市,东城石井,,45,42,66,31,40,42,,46,46,24,35,6,8,0.9,0.8
2026-01-28T0800,1391A,113.7384,22.9659,东莞市,南城西平,,43,43,63,29,43,31,,30,30,33,54,6,9,1.0,0.9
2026-01-28T0800,3319A,113.7283,23.041,东莞市,万江金泰,,38,38,64,25,44,47,,49,49,19,31,5,8,1.1,1
2026-01-28T0800,4129A,113.8666,23.1062,东莞市,裕兴路,,41,41,65,25,35,45,,59,59,23,29,8,7,1.1,1
2026-01-28T0800,4130A,114.0076,22.9739,东莞市,教育路1号,,44,44,60,24,38,43,,60,60,21,27,5,6,1.0,0.8
2026-01-28T0800,4131A,113.7981,22.8124,东莞市,长怡路1号,,47,47,78,29,42,34,,51,51,31,43,6,8,1.1,0.9
2026-01-28T0800,1666A,118.6612,37.4313,东营市,市环保局,细颗粒物(PM2.5),122,134,69,92,39,16,,40,40,50,34,21,12,1.2,0.8
2026-01-28T0800,3036A,118.6903,37.4337,东营市,开发区管委会,细颗粒物(PM2.5),123,140,74,93,47,17,,37,37,50,31,13,9,1.0,0.6
2026-01-28T0800,3365A,118.5721,37.5654,东营市,垦利区民丰路,细颗粒物(PM2.5),94,107,69,70,39,4,,30,30,61,40,10,10,1.2,0.7
2026-01-28T0800,3498A,118.5063,37.8606,东营市,河口城区,细颗粒物(PM2.5),98,105,62,73,35,24,,49,49,42,28,6,6,1.1,0.8
2026-01-28T0800,3646A,118.4979,37.4623,东营市,胜利站,细颗粒物(PM2.5),94,94,74,70,46,9,,25,25,64,43,16,17,1.3,0.8
2026-01-28T0800,3734A,118.5753,37.4405,东营市,理想之城,细颗粒物(PM2.5),100,112,70,75,43,6,,27,27,59,40,16,13,1.2,0.7
2026-01-28T0800,1591A,110.0024,39.8127,鄂尔多斯市,综合楼,颗粒物(PM10),97,144,134,29,35,57,,74,74,28,26,6,11,0.6,0.6
2026-01-28T0800,1592A,109.9485,39.8259,鄂尔多斯市,巴音孟克林场办事处,颗粒物(PM10),85,119,120,29,35,42,,70,70,39,23,6,8,0.4,0.5
2026-01-28T0800,1593A,109.7734,39.5987,鄂尔多斯市,康泽苑,颗粒物(PM10),82,114,105,33,28,38,,48,48,20,19,8,9,0.5,0.5
2026-01-28T0800,1594A,109.8121,39.5987,鄂尔多斯市,华泰汽车城,颗粒物(PM10),71,92,96,26,26,5,,21,21,42,29,5,7,0.7,0.6
2026-01-28T0800,1595A,109.9734,39.7884,鄂尔多斯市,奥林花园,颗粒物(PM10),102,153,133,34,31,8,,45,45,67,36,10,12,0.6,0.5
2026-01-28T0800,2436A,114.894,30.3989,鄂州市,市政府,细颗粒物(PM2.5),70,68,56,51,48,1,,0,0,47,35,6,5,0.8,0.6
2026-01-28T0800,2437A,114.8986,30.3714,鄂州市,赵家坝,细颗粒物(PM2.5),88,80,64,65,53,4,,3,3,35,31,8,8,1.2,0.9
2026-01-28T0800,3654A,114.8093,30.4091,鄂州市,精准医疗中心,颗粒物(PM10),67,83,70,42,56,1,,1,1,33,33,5,7,0.7,0.5
2026-01-28T0800,2454A,109.4978,30.2979,恩施土家族苗族自治州,湖北民院,细颗粒物(PM2.5),57,59,60,40,46,2,,5,5,17,18,5,6,1.1,1.1
2026-01-28T0800,3549A,109.5061,30.3771,恩施土家族苗族自治州,龙凤新区,颗粒物(PM10),55,60,59,34,45,1,,2,2,6,15,7,7,0.8,0.9
2026-01-28T0800,2499A,108.3411,21.6159,防城港市,沙万,,28,28,43,19,29,32,,40,40,17,15,7,7,0.8,0.8
2026-01-28T0800,2500A,108.3515,21.7733,防城港市,防城档案局,,36,36,51,13,27,30,,36,36,12,13,5,5,0.8,0.8
2026-01-28T0800,2501A,108.3506,21.6414,防城港市,大海花园,,32,26,37,22,28,34,,43,43,14,14,6,6,0.9,0.9
2026-01-28T0800,1371A,113.1293,23.0065,佛山市,湾梁,,29,29,61,19,30,28,,38,38,27,29,/,/,/,/
2026-01-28T0800,1372A,113.1082,23.0477,佛山市,华材职中,,49,41,70,34,51,28,,36,36,26,33,8,8,1.0,0.9
2026-01-28T0800,1373A,113.1439,23.045,佛山市,南海气象局,,42,34,56,29,38,22,,37,37,36,33,/,/,/,/
2026-01-28T0800,1374A,113.2879,22.8094,佛山市,顺德苏岗,,35,24,64,24,41,33,,35,35,33,40,/,/,1.3,1.3
2026-01-28T0800,1376A,112.8384,22.8678,佛山市,高明孔堂,,50,36,61,35,35,31,,47,47,25,27,/,/,/,/
2026-01-28T0800,1377A,112.8835,23.1584,佛山市,三水监测站,,50,46,56,35,32,28,,46,46,25,26,4,4,1.2,1
2026-01-28T0800,1378A,112.8668,23.185,佛山市,三水云东海,细颗粒物(PM2.5),52,42,47,36,30,32,,44,44,27,25,/,/,/,/
2026-01-28T0800,3625A,113.2568,22.7629,佛山市,容桂街道办,,35,31,75,24,45,34,,33,33,31,49,/,/,/,/
2026-01-28T0800,1282A,119.2681,26.0506,福州市,师大,,22,19,16,15,5,29,,43,43,27,24,2,2,0.8,0.6
2026-01-28T0800,1283A,119.2983,26.1028,福州市,五四北路,,14,14,12,9,3,29,,41,41,19,18,4,4,0.7,0.6
2026-01-28T0800,1284A,119.2648,26.0769,福州市,杨桥西路,,19,15,14,13,5,31,,40,40,20,19,4,4,/,/
2026-01-28T0800,3048A,119.5799,26.0937,福州市,九龙,,18,18,15,12,3,44,,48,48,14,14,4,4,0.5,0.4
2026-01-28T0800,3526A,119.5188,25.9666,福州市,吴航,,23,23,12,15,7,44,,50,50,15,14,4,4,0.6,0.5
2026-01-28T0800,4104A,119.3106,26.0648,福州市,路通桥巷6号,,23,18,13,16,9,31,,41,41,17,18,/,/,/,/
2026-01-28T0800,1755A,123.7974,41.8494,抚顺市,望花区,细颗粒物(PM2.5),98,106,86,73,51,8,,6,6,55,44,5,8,1.4,1.1
2026-01-28T0800,1756A,123.9161,41.8827,抚顺市,顺城区,细颗粒物(PM2.5),103,97,81,77,59,8,,6,6,51,47,12,12,1.6,1.2
2026-01-28T0800,1757A,124.0437,41.8615,抚顺市,东洲区,颗粒物(PM10),64,78,76,36,43,22,,28,28,34,27,8,11,0.9,0.9
2026-01-28T0800,1758A,123.9246,41.8638,抚顺市,新抚区,细颗粒物(PM2.5),98,95,90,73,54,9,,7,7,50,46,7,7,1.1,0.8
2026-01-28T0800,1759A,124.0972,41.8961,抚顺市,大伙房水库,颗粒物(PM10),56,62,54,38,34,15,,11,11,38,29,9,11,0.7,0.7
2026-01-28T0800,1760A,123.708,41.8386,抚顺市,沈抚新城,细颗粒物(PM2.5),82,96,69,60,41,11,,9,9,50,48,7,9,1.1,0.9
2026-01-28T0800,2377A,116.3544,27.9833,抚州市,市站,细颗粒物(PM2.5),68,,36,49,30,37,,37,37,18,18,7,7,1.2,1.1
2026-01-28T0800,2378A,116.3562,27.9631,抚州市,血防站,细颗粒物(PM2.5),69,50,42,50,33,33,,33,33,22,23,6,4,1.4,1.3
2026-01-28T0800,2379A,116.3561,28.0007,抚州市,采茶剧团,细颗粒物(PM2.5),53,50,38,37,28,31,,32,32,13,12,4,4,1.0,0.9
2026-01-28T0800,2380A,116.3854,27.9648,抚州市,医学分院,细颗粒物(PM2.5),63,51,44,45,29,36,,38,38,18,15,4,5,1.0,1
2026-01-28T0800,2207A,121.6095,41.9978,阜新市,工业园区,,46,46,58,31,15,18,,17,17,48,25,12,13,0.6,0.4
2026-01-28T0800,2208A,121.6567,42.0188,阜新市,长青街,,26,23,22,18,11,37,,48,48,22,10,15,8,0.5,0.3
2026-01-28T0800,2209A,121.6672,42.07,阜新市,农业园区,,16,13,30,6,8,50,,52,52,11,9,8,7,0.3,0.3
2026-01-28T0800,2211A,121.6343,42.0455,阜新市,玉龙新城,颗粒物(PM10),55,60,55,31,18,4,,4,4,52,31,15,8,0.9,0.6
2026-01-28T0800,2301A,115.8276,32.8929,阜阳市,市监测站,细颗粒物(PM2.5),115,124,103,87,76,36,,28,28,32,31,4,4,0.7,0.7
2026-01-28T0800,2303A,115.8551,32.8606,阜阳市,开发区,细颗粒物(PM2.5),109,134,98,82,73,40,,31,31,37,35,4,5,0.6,0.5
2026-01-28T0800,2875A,115.783962,32.889217,阜阳市,阜阳职业技术学院,细颗粒物(PM2.5),108,114,87,81,69,58,,43,43,20,22,7,7,0.9,0.9
2026-01-28T0800,3468A,115.79,32.8614,阜阳市,市规划展馆,细颗粒物(PM2.5),110,116,94,83,75,54,,42,42,21,23,6,5,0.7,0.7
2026-01-28T0800,3469A,115.835101,32.918568,阜阳市,枣园社区,细颗粒物(PM2.5),115,136,105,87,79,40,,26,26,28,30,5,5,0.9,0.9
2026-01-28T0800,2669A,102.9097,34.9841,甘南藏族自治州,州政府,颗粒物(PM10),73,96,96,38,38,10,,13,13,33,32,8,9,1.1,0.8
2026-01-28T0800,3380A,102.8915,34.9618,甘南藏族自治州,甘肃民族师范学院,颗粒物(PM10),83,115,116,34,32,18,,15,15,34,36,9,10,0.4,0.4
2026-01-28T0800,2570A,101.96,30.048,甘孜藏族自治州,水桥子,,20,,33,14,11,24,,37,37,28,22,6,6,0.6,0.7
2026-01-28T0800,3065A,101.9534,29.9976,甘孜藏族自治州,州环保局,,21,8,22,8,7,65,,68,68,7,10,6,6,0.5,0.5
2026-01-28T0800,2363A,114.9368,25.8663,赣州市,地委,,50,40,70,35,31,26,,28,28,16,17,6,6,0.7,0.9
2026-01-28T0800,2364A,114.946,25.8483,赣州市,气象台,,,56,39,,29,17,,23,23,23,22,6,5,0.7,0.7
2026-01-28T0800,2365A,114.932,25.8332,赣州市,市图书馆,,43,36,34,30,25,22,,25,25,21,21,5,4,1.0,1.1
2026-01-28T0800,2366A,114.8905,25.8472,赣州市,华坚鞋城,,33,32,34,23,24,21,,24,24,17,18,5,6,0.7,0.8
2026-01-28T0800,3109A,115.0094,25.8614,赣州市,赣县区卫计委,细颗粒物(PM2.5),62,48,29,44,31,25,,28,28,12,14,7,7,0.9,1
2026-01-28T0800,2684A,106.2753,36.0057,固原市,监测站,颗粒物(PM10),127,203,203,64,74,23,,31,31,42,32,9,12,1.3,1.3
2026-01-28T0800,2685A,106.2384,36.0189,固原市,新区,颗粒物(PM10),123,196,202,63,60,4,,5,5,51,44,6,9,2.2,1.2
2026-01-28T0800,2544A,106.6307,30.4577,广安市,市委,细颗粒物(PM2.5),85,88,97,63,63,27,,28,28,19,33,5,6,0.9,1.1
2026-01-28T0800,2545A,106.6266,30.4662,广安市,友谊中学,细颗粒物(PM2.5),75,81,74,55,55,24,,29,29,19,25,6,7,1.0,1
2026-01-28T0800,2547A,106.6386,30.4551,广安市,广电花园,细颗粒物(PM2.5),85,76,90,63,65,18,,21,21,17,28,5,6,0.8,1
2026-01-28T0800,2902A,106.6347,30.4868,广安市,北辰小学,细颗粒物(PM2.5),82,79,83,60,58,18,,25,25,23,21,5,4,1.2,1.2
2026-01-28T0800,2524A,105.8211,32.4444,广元市,老城,,,,203,,74,,,63,,,40,,2,,1.0
2026-01-28T0800,2526A,105.8629,32.429,广元市,监测站,颗粒物(PM10),93,136,174,53,65,4,,20,20,30,26,4,5,1.1,1
2026-01-28T0800,3617A,105.8047,32.4167,广元市,经开区,颗粒物(PM10),106,161,215,63,70,0,,0,0,37,42,2,4,1.1,1.1
2026-01-28T0800,1345A,113.2346,23.1423,广州市,广雅中学,,50,50,75,35,45,14,,24,24,43,39,4,5,0.8,0.9
2026-01-28T0800,1346A,113.2611,23.105,广州市,市五中,,43,36,61,30,41,42,,38,38,23,35,9,10,/,/
2026-01-28T0800,1348A,113.3477,23.0916,广州市,广东商学院,,38,38,61,26,39,44,,49,49,22,32,6,8,1.0,1
2026-01-28T0800,1349A,113.4332,23.105,广州市,市八十六中,,38,38,56,16,28,35,,35,35,29,35,8,10,/,/
2026-01-28T0800,1350A,113.3506,22.9488,广州市,番禺中学,,40,40,72,26,40,40,,40,40,25,40,4,6,1.0,1
2026-01-28T0800,1351A,113.2147,23.3918,广州市,花都师范,,36,36,47,25,33,28,,40,40,27,23,8,8,1.1,0.9
2026-01-28T0800,1352A,113.2599,23.1329,广州市,市监测站,,46,46,72,29,42,35,,27,27,23,39,5,6,/,/
2026-01-28T0800,1353A,113.5618,23.3119,广州市,九龙镇镇龙,,35,35,57,24,38,43,,45,45,15,21,5,8,0.9,0.8
2026-01-28T0800,1354A,113.2764,23.1544,广州市,麓湖,,39,37,58,27,41,23,,27,27,38,37,10,11,0.9,0.8
2026-01-28T0800,2846A,113.3209,23.1323,广州市,体育西,,,,66,,44,,,133,,,32,,9,,1.0
2026-01-28T0800,3298A,113.5718,23.5493,广州市,从化街口,,35,35,56,23,38,26,,40,40,33,26,10,14,0.9,0.8
2026-01-28T0800,3299A,113.3463,23.369,广州市,白云竹料,,32,30,51,22,34,42,,48,48,19,23,6,6,1.1,1
2026-01-28T0800,3300A,113.2981,23.2365,广州市,白云嘉禾,,39,39,59,26,42,34,,41,41,33,37,7,8,/,/
2026-01-28T0800,3301A,113.4256,23.1716,广州市,黄埔科学城,,40,35,50,28,38,42,,51,51,27,31,3,6,0.9,0.7
2026-01-28T0800,3302A,113.3942,23.0485,广州市,番禺大学城,,42,42,66,24,35,42,,44,44,25,30,8,10,0.9,0.8
2026-01-28T0800,3303A,113.4923,22.8169,广州市,南沙黄阁,,46,46,51,28,46,21,,22,22,44,58,8,8,/,/
2026-01-28T0800,3304A,113.534,22.7893,广州市,南沙街,颗粒物(PM10),52,54,83,32,45,27,,30,30,42,51,8,10,1.1,1.1
2026-01-28T0800,3443A,113.2905,23.5541,广州市,花都梯面,,36,35,44,25,31,26,,32,32,17,14,6,7,/,/
2026-01-28T0800,3445A,113.786,23.7479,广州市,从化良口,,25,24,41,17,34,39,,49,49,14,13,8,9,/,/
2026-01-28T0800,3446A,113.805,23.2614,广州市,增城荔城,,30,28,46,21,34,51,,62,62,13,18,6,7,0.9,0.8
2026-01-28T0800,2506A,109.604387,23.066791,贵港市,江南子站,,49,46,37,34,27,36,,41,41,18,16,4,4,0.8,0.9
2026-01-28T0800,2508A,109.5669,23.1065,贵港市,荷城子站,颗粒物(PM10),51,51,37,26,22,32,,38,38,17,15,5,6,1.0,1
2026-01-28T0800,3405A,109.5886,23.1172,贵港市,新世纪学校,颗粒物(PM10),52,53,40,28,26,32,,38,38,19,18,/,/,0.8,0.8
2026-01-28T0800,4260A,109.5933,23.095,贵港市,中山路155-3号,,39,39,33,25,26,39,,45,45,18,17,/,/,0.8,0.8
2026-01-28T0800,1439A,106.6863,26.6035,贵阳市,马鞍山,,49,36,50,34,42,8,,16,16,18,19,5,6,/,/
2026-01-28T0800,1441A,106.6241,26.6266,贵阳市,鉴湖路,细颗粒物(PM2.5),55,56,69,39,54,8,,14,14,23,24,3,5,0.9,0.9
2026-01-28T0800,1442A,106.7468,26.6344,贵阳市,燕子冲,,49,,38,34,37,25,,31,31,14,15,7,10,0.7,0.8
2026-01-28T0800,1443A,106.6556,26.4362,贵阳市,碧云窝,,41,41,63,24,43,34,,22,22,9,24,3,5,/,/
2026-01-28T0800,1445A,106.6963,26.6063,贵阳市,红边门,细颗粒物(PM2.5),60,44,52,43,42,6,,18,18,28,21,12,14,/,/
2026-01-28T0800,1446A,106.7162383,26.56964667,贵阳市,新华路,颗粒物(PM10),54,58,58,34,38,8,,18,18,31,25,6,7,0.8,0.8
2026-01-28T0800,1447A,106.6742,26.542,贵阳市,太慈桥,颗粒物(PM10),54,58,54,31,40,13,,21,21,29,26,6,5,/,/
2026-01-28T0800,4230A,106.688212,26.56952,贵阳市,花果园大街66号,,50,48,49,35,40,4,,11,11,30,26,3,4,/,/
2026-01-28T0800,4231A,106.687268,26.516892,贵阳市,漓江路57号,颗粒物(PM10),53,56,57,36,41,0,,5,5,34,31,9,10,0.9,0.9
2026-01-28T0800,1864A,110.3091,25.2705,桂林市,龙隐路小学,细颗粒物(PM2.5),87,66,51,64,48,48,,53,53,14,13,8,7,0.7,0.6
2026-01-28T0800,1865A,110.2849361,25.22909545,桂林市,八中,细颗粒物(PM2.5),84,,50,62,47,44,,48,48,19,18,9,8,0.6,0.5
2026-01-28T0800,3531A,110.296,25.1254,桂林市,旅游学院,细颗粒物(PM2.5),62,72,59,44,34,51,,54,54,14,14,4,4,0.6,0.5
2026-01-28T0800,4222A,110.1835,25.2444,桂林市,环湖路276号,细颗粒物(PM2.5),62,66,55,44,38,39,,44,44,9,8,8,8,0.9,0.9
2026-01-28T0800,4301A,110.2803,25.2773,桂林市,信义路13号,细颗粒物(PM2.5),74,61,50,54,40,47,,54,54,16,15,6,5,0.9,0.9
2026-01-28T0800,2674A,100.2262,34.4854,果洛藏族自治州,玛沁县大武镇,,45,45,55,10,12,33,,31,31,6,8,14,15,0.4,0.5
2026-01-28T0800,1130A,126.5557,45.8109,哈尔滨市,松北商大,细颗粒物(PM2.5),82,69,50,60,48,9,,10,10,50,40,4,8,1.0,0.7
2026-01-28T0800,1132A,126.6162,45.719,哈尔滨市,南岗学府路,细颗粒物(PM2.5),88,79,57,65,42,2,,26,26,56,25,8,8,1.4,0.8
2026-01-28T0800,1133A,126.6894,45.7733,哈尔滨市,太平宏伟公园,细颗粒物(PM2.5),132,115,44,100,38,15,,45,45,73,23,12,19,3.0,0.7
2026-01-28T0800,1134A,126.6361,45.7672,哈尔滨市,道外承德广场,,45,45,59,27,36,19,,37,37,60,28,8,9,1.2,0.7
2026-01-28T0800,1136A,126.644,45.7261,哈尔滨市,动力和平路,细颗粒物(PM2.5),58,46,44,41,37,10,,40,40,59,25,7,11,1.4,0.8
2026-01-28T0800,1137A,126.5933,45.7479,哈尔滨市,道里建国路,细颗粒物(PM2.5),68,60,44,49,40,19,,35,35,53,29,7,7,1.5,0.9
2026-01-28T0800,1138A,126.6127,45.6119,哈尔滨市,平房东轻厂,细颗粒物(PM2.5),109,,70,82,56,8,,7,7,67,56,15,13,1.3,1.1
2026-01-28T0800,1139A,126.5875,45.9827,哈尔滨市,呼兰师专,细颗粒物(PM2.5),124,,89,94,81,14,,14,14,52,43,8,11,1.3,1
2026-01-28T0800,1140A,126.6299,45.6799,哈尔滨市,省农科院,细颗粒物(PM2.5),137,118,79,104,70,8,,6,6,74,46,20,16,1.9,1.1
2026-01-28T0800,4282A,126.6769,45.7379,哈尔滨市,华山路1号,细颗粒物(PM2.5),68,78,39,49,32,17,,47,47,60,26,17,16,1.4,0.5
2026-01-28T0800,4283A,126.9717,45.5356,哈尔滨市,解放大街52号,细颗粒物(PM2.5),99,96,85,74,66,25,,22,22,30,30,3,3,1.2,0.9
2026-01-28T0800,2688A,93.5124,42.8176,哈密市,地区监测站,颗粒物(PM10),84,117,123,46,56,37,,18,18,17,27,7,11,0.0,0.4
2026-01-28T0800,2689A,93.5014,42.8312,哈密市,哈密师范学校,颗粒物(PM10),83,115,132,42,44,30,,11,11,30,41,5,9,0.8,1
2026-01-28T0800,2671A,100.9016,36.9464,海北藏族自治州,海晏县西海镇,颗粒物(PM10),67,83,66,29,20,46,,56,56,9,4,6,8,0.6,0.4
2026-01-28T0800,3867A,102.074,36.5056,海东市,平安区公安局北苑,颗粒物(PM10),120,190,218,75,71,34,,57,57,26,18,12,25,0.9,1.1
2026-01-28T0800,4163A,102.0984,36.5119,海东市,滨河路,颗粒物(PM10),118,186,246,75,113,18,,44,44,49,35,10,26,0.8,0.9
2026-01-28T0800,1410A,110.3189,20.0596,海口市,海南大学,细颗粒物(PM2.5),57,59,37,40,23,141,,118,118,13,11,7,7,0.6,0.5
2026-01-28T0800,1411A,110.2827,20.0051,海口市,秀英海南医院,细颗粒物(PM2.5),53,,33,37,21,138,,101,101,14,13,8,8,0.5,0.4
2026-01-28T0800,1412A,110.3391,19.9979,海口市,海南师范大学,,,40,36,36,21,157,,120,120,,10,7,6,0.1,0.3
2026-01-28T0800,1413A,110.3303,20.0359,海口市,龙华路环保局宿舍,细颗粒物(PM2.5),58,42,34,41,23,148,,118,118,16,12,/,/,0.8,0.7
2026-01-28T0800,3539A,110.5111,19.9737,海口市,桂林洋子站,细颗粒物(PM2.5),83,64,44,61,27,168,,126,126,8,11,/,/,/,/
2026-01-28T0800,4134A,110.1952,20.0451,海口市,长滨二路9号,细颗粒物(PM2.5),75,55,29,55,25,126,,102,102,13,10,/,/,/,/
2026-01-28T0800,2673A,100.6158,36.2985,海南藏族自治州,共和县恰卜恰镇,,46,46,68,20,27,34,,41,41,29,20,13,13,0.8,0.9
2026-01-28T0800,2676A,97.373,37.376,海西蒙古族藏族自治州,德令哈市,,31,31,88,17,18,86,,87,87,1,4,20,15,0.3,0.4
2026-01-28T0800,1049A,114.492,36.5712,邯郸市,矿院,细颗粒物(PM2.5),254,235,195,204,163,4,,22,22,67,31,4,5,1.6,1.3
2026-01-28T0800,1050A,114.4839,36.6136,邯郸市,丛台公园,细颗粒物(PM2.5),274,262,211,224,164,8,,22,22,70,39,6,6,1.7,1.3
2026-01-28T0800,3458A,114.7893,36.5592,邯郸市,香泉濮院小区,细颗粒物(PM2.5),175,197,215,132,139,16,,42,42,46,32,2,5,1.3,1.2
2026-01-28T0800,3580A,114.1998,36.4439,邯郸市,峰峰矿区临水派出所,细颗粒物(PM2.5),221,204,172,171,131,17,,34,34,47,24,11,11,1.8,1.3
2026-01-28T0800,4068A,114.5209,36.7697,邯郸市,建安街268号,细颗粒物(PM2.5),249,237,197,199,160,4,,6,6,72,58,6,7,1.7,1.2
2026-01-28T0800,4069A,114.5488,36.6177,邯郸市,丛台东路558号,细颗粒物(PM2.5),294,263,203,244,173,2,,14,14,78,39,7,5,2.0,1.4
2026-01-28T0800,2635A,107.0155,33.0707,汉中市,市监测站,细颗粒物(PM2.5),104,154,179,78,73,3,,5,5,36,36,5,6,1.6,1.3
2026-01-28T0800,2636A,107.0083,33.114,汉中市,鑫源开发区,细颗粒物(PM2.5),98,142,170,73,70,7,,10,10,36,38,7,7,1.3,1.1
2026-01-28T0800,2637A,107.0072,33.0323,汉中市,南郑大河坎水厂,颗粒物(PM10),98,146,180,71,75,1,,9,9,25,31,6,7,1.2,1.1
2026-01-28T0800,1223A,120.2073,30.2111,杭州市,滨江,颗粒物(PM10),64,77,78,45,55,44,,46,46,36,30,6,6,0.6,0.6
2026-01-28T0800,1224A,120.0625,30.2737,杭州市,西溪,颗粒物(PM10),66,81,75,31,42,34,,35,35,41,35,9,8,0.9,1
2026-01-28T0800,1226A,120.3417,30.315,杭州市,下沙,细颗粒物(PM2.5),65,73,73,47,54,25,,35,35,52,35,8,7,1.0,1
2026-01-28T0800,1227A,120.1252,30.2465,杭州市,卧龙桥,细颗粒物(PM2.5),63,71,73,45,43,24,,35,35,30,25,9,9,0.5,0.5
2026-01-28T0800,1228A,120.1902,30.2691,杭州市,浙江农大,细颗粒物(PM2.5),67,78,93,48,50,44,,44,44,42,37,6,5,0.8,0.8
2026-01-28T0800,1230A,120.1195,30.3121,杭州市,和睦小学,细颗粒物(PM2.5),70,77,83,51,50,38,,37,37,34,31,6,4,0.8,0.8
2026-01-28T0800,1231A,120.3076,30.4146,杭州市,临平镇,颗粒物(PM10),61,72,80,42,50,31,,35,35,35,22,8,7,0.7,0.8
2026-01-28T0800,1232A,120.2753,30.1839,杭州市,城厢镇,细颗粒物(PM2.5),73,86,71,53,47,30,,44,44,42,31,8,7,0.7,0.7
2026-01-28T0800,1233A,120.0883,30.1808,杭州市,云栖,,,77,63,47,42,,,33,33,27,29,4,4,0.6,0.7
2026-01-28T0800,3557A,119.9463,30.0496,杭州市,镇二中,细颗粒物(PM2.5),84,71,53,62,47,26,,29,29,42,32,5,4,0.9,0.9
2026-01-28T0800,3558A,119.7184,30.2367,杭州市,市府大楼,细颗粒物(PM2.5),80,68,59,59,53,38,,36,36,24,20,10,10,1.1,1.1
2026-01-28T0800,3656A,120.1554,30.2863,杭州市,消防大队,细颗粒物(PM2.5),74,80,74,54,58,39,,40,40,34,27,6,6,0.4,0.4
2026-01-28T0800,1270A,117.1957,31.7845,合肥市,明珠广场,细颗粒物(PM2.5),100,117,76,75,53,17,,17,17,48,45,7,5,1.0,0.7
2026-01-28T0800,1271A,117.307,31.8765,合肥市,三里街,细颗粒物(PM2.5),98,119,83,73,58,10,,11,11,59,44,7,5,1.1,0.8
2026-01-28T0800,1272A,117.2587,31.8703,合肥市,琥珀山庄,细颗粒物(PM2.5),93,117,87,69,54,27,,30,30,47,34,9,7,1.1,0.8
2026-01-28T0800,1275A,117.2593,31.9376,合肥市,庐阳区,颗粒物(PM10),85,119,94,62,56,9,,24,24,68,46,3,2,0.8,0.8
2026-01-28T0800,1276A,117.345251,31.861615,合肥市,瑶海区,细颗粒物(PM2.5),84,105,86,62,53,9,,14,14,67,45,5,4,0.9,0.7
2026-01-28T0800,1277A,117.3033,31.7967,合肥市,包河区,细颗粒物(PM2.5),100,117,82,75,58,6,,4,4,74,66,8,7,1.1,0.8
2026-01-28T0800,1278A,117.278,31.7392,合肥市,滨湖新区,细颗粒物(PM2.5),110,114,75,83,60,32,,26,26,32,43,4,3,1.0,0.7
2026-01-28T0800,1279A,117.1324,31.8395,合肥市,高新区,细颗粒物(PM2.5),108,119,80,81,57,18,,28,28,66,47,5,3,1.0,0.8
2026-01-28T0800,3464A,117.3802,31.9148,合肥市,高教基地,细颗粒物(PM2.5),73,90,78,53,52,20,,27,27,42,29,8,7,0.7,0.6
2026-01-28T0800,4098A,117.2518,31.8404,合肥市,中国科学技术大学,细颗粒物(PM2.5),89,117,80,66,49,24,,37,37,45,33,10,8,1.1,0.8
2026-01-28T0800,3614A,79.9241,37.0878,和田地区,地区环保局,颗粒物(PM10),364,471,518,104,125,21,,21,21,33,28,4,6,1.4,1.6
2026-01-28T0800,3615A,79.9132,37.1137,和田地区,市环保局,颗粒物(PM10),383,486,521,92,106,26,,23,23,20,21,2,3,1.3,1.4
2026-01-28T0800,2517A,108.0496,24.6957,河池市,市环保站,,34,34,27,21,14,9,,11,11,14,14,7,3,1.0,0.9
2026-01-28T0800,4302A,108.0901,24.6945,河池市,上任中路54号,,46,35,32,32,20,4,,10,10,16,17,6,4,0.9,0.9
2026-01-28T0800,1697A,114.6962,23.7538,河源市,东埔,,36,29,46,25,39,29,,46,46,26,19,6,6,0.8,0.8
2026-01-28T0800,1698A,114.6895,23.7232,河源市,老城,,32,25,49,22,40,34,,46,46,14,15,6,7,1.5,1.1
2026-01-28T0800,3374A,115.5562,35.089,菏泽市,定陶老年大学,细颗粒物(PM2.5),147,163,207,112,153,44,,55,55,26,30,4,6,1.1,1.3
2026-01-28T0800,4114A,115.4239,35.2593,菏泽市,黄河路600号,细颗粒物(PM2.5),165,179,214,125,160,41,,59,59,37,34,4,5,0.9,1
2026-01-28T0800,4115A,115.5025,35.2727,菏泽市,菏泽市人社局,细颗粒物(PM2.5),173,184,219,131,163,24,,46,46,44,36,7,9,1.0,1.1
2026-01-28T0800,4184A,115.479691,35.244011,菏泽市,永昌路1号,细颗粒物(PM2.5),152,180,215,116,148,32,,56,56,41,34,2,5,0.6,0.7
2026-01-28T0800,4193A,115.471542,35.280012,菏泽市,长城路999号,细颗粒物(PM2.5),148,164,209,113,143,37,,64,64,40,34,16,15,1.0,1.1
2026-01-28T0800,2514A,111.5264,24.4178,贺州市,环保小区,细颗粒物(PM2.5),53,48,39,37,32,33,,38,38,18,16,3,3,0.7,0.7
2026-01-28T0800,2515A,111.561,24.4074,贺州市,政协大楼,细颗粒物(PM2.5),69,,39,50,36,36,,39,39,28,21,10,10,0.8,0.8
2026-01-28T0800,3534A,111.4744,24.455,贺州市,西湾,"颗粒物(PM10),细颗粒物(PM2.5)",54,58,39,38,28,35,,37,37,13,11,8,8,0.9,1
2026-01-28T0800,2385A,114.17,35.9019,鹤壁市,市监测站,细颗粒物(PM2.5),247,260,225,197,173,14,,18,18,30,33,2,5,1.6,1.3
2026-01-28T0800,2386A,114.2953,35.7512,鹤壁市,市交警支队,细颗粒物(PM2.5),158,160,216,120,164,0,,19,19,55,42,4,5,1.1,1.1
2026-01-28T0800,2387A,114.2877,35.7302,鹤壁市,迎宾馆,细颗粒物(PM2.5),158,153,215,120,162,0,,19,19,53,39,1,5,1.1,1.2
2026-01-28T0800,3474A,114.2616,35.6824,鹤壁市,大新区,细颗粒物(PM2.5),137,140,215,104,163,4,,8,8,50,49,5,8,0.9,1.1
2026-01-28T0800,3596A,114.1573,35.9607,鹤壁市,南山宾馆,细颗粒物(PM2.5),247,289,245,197,167,21,,33,33,39,37,7,7,3.0,1.3
2026-01-28T0800,2244A,130.2537,47.3416,鹤岗市,哈啤分公司,,40,39,27,28,16,71,,82,82,19,9,10,6,0.3,0.2
2026-01-28T0800,2245A,130.2683,47.3087,鹤岗市,斯达机电,,33,33,34,3,17,65,,73,73,14,11,4,6,0.6,0.6
2026-01-28T0800,2246A,130.3114,47.3388,鹤岗市,东山纸板厂,,39,39,68,17,26,30,,47,47,56,24,8,9,1.3,1.1
2026-01-28T0800,2263A,127.4832,50.2524,黑河市,交通局,,,20,16,16,15,,,,,24,10,5,4,0.3,0.2
2026-01-28T0800,2264A,127.5146,50.2339,黑河市,环保局,,22,10,14,10,11,70,,72,72,10,11,3,4,0.4,0.5
2026-01-28T0800,1074A,115.6839,37.754,衡水市,电机北厂,细颗粒物(PM2.5),240,250,201,190,132,24,,39,39,48,41,11,12,1.3,1.1
2026-01-28T0800,1075A,115.6303,37.7318,衡水市,市监测站,细颗粒物(PM2.5),245,241,185,195,122,13,,28,28,53,44,8,11,1.3,1.1
2026-01-28T0800,3188A,115.6684,37.7216,衡水市,市城管局,细颗粒物(PM2.5),222,265,196,172,113,19,,32,32,51,47,8,13,1.4,1
2026-01-28T0800,3459A,115.599,37.5491,衡水市,地表水厂,细颗粒物(PM2.5),254,221,171,204,128,4,,10,10,57,52,7,9,1.2,0.9
2026-01-28T0800,2457A,112.6209,26.9268,衡阳市,衡阳化工总厂,细颗粒物(PM2.5),102,,79,76,96,16,,20,20,23,20,8,6,1.1,1.1
2026-01-28T0800,2458A,112.621,26.8957,衡阳市,珠晖区环保局,细颗粒物(PM2.5),102,,92,76,96,20,,22,22,26,26,4,4,1.2,1.2
2026-01-28T0800,2459A,112.628,26.8654,衡阳市,市委党校,细颗粒物(PM2.5),97,72,78,72,90,33,,31,31,11,14,9,10,1.2,1.3
2026-01-28T0800,2460A,112.6007,26.8977,衡阳市,市监测站,细颗粒物(PM2.5),83,94,120,61,77,27,,24,24,20,22,5,6,1.1,1.2
2026-01-28T0800,2461A,112.5658,26.9013,衡阳市,真空机电公司,细颗粒物(PM2.5),112,109,113,84,97,2,,14,14,33,24,6,6,1.2,1.2
2026-01-28T0800,3399A,112.6703,26.8817,衡阳市,师范学院,细颗粒物(PM2.5),102,94,99,76,83,29,,28,28,20,21,3,4,1.0,1
2026-01-28T0800,3038A,103.3757,23.3679,红河哈尼族彝族自治州,州图书馆,,26,24,29,18,20,59,,66,66,8,6,6,7,0.6,0.6
2026-01-28T0800,4154A,103.401,23.3561,红河哈尼族彝族自治州,蒙自市朝阳路,,32,,22,22,21,50,,62,62,8,4,5,6,0.3,0.4
2026-01-28T0800,1090A,111.6506,40.7517,呼和浩特市,呼市一监,颗粒物(PM10),74,97,98,45,40,0,,0,0,52,51,15,13,1.1,0.9
2026-01-28T0800,1094A,111.7516,40.8369,呼和浩特市,如意水处理厂,颗粒物(PM10),67,83,86,36,37,3,,3,3,64,57,15,13,1.0,0.9
2026-01-28T0800,1095A,111.727798,40.806187,呼和浩特市,二十九中,颗粒物(PM10),69,87,93,35,39,5,,7,7,49,49,12,15,1.1,0.8
2026-01-28T0800,1097A,111.717,40.7617,呼和浩特市,化肥厂生活区,颗粒物(PM10),78,105,107,47,43,5,,4,4,51,51,15,10,1.2,0.9
2026-01-28T0800,3699A,111.6519,40.8389,呼和浩特市,海东办,颗粒物(PM10),57,63,97,25,41,2,,2,2,54,54,4,8,0.7,0.9
2026-01-28T0800,4275A,111.591512,40.827312,呼和浩特市,成吉思汗西街8号,颗粒物(PM10),62,73,88,30,33,2,,3,3,59,56,9,11,0.6,0.8
2026-01-28T0800,4276A,111.6597,40.8077,呼和浩特市,公园东路75号,颗粒物(PM10),65,80,94,30,36,10,,8,8,54,56,9,10,1.2,1
2026-01-28T0800,4277A,111.5427,40.7846,呼和浩特市,金海路35号,颗粒物(PM10),61,72,88,28,34,1,,3,3,66,56,9,12,0.8,0.8
2026-01-28T0800,3061A,119.7511,49.1576,呼伦贝尔市,国华电力东,,28,28,32,15,20,50,,51,51,18,18,6,7,0.4,0.5
2026-01-28T0800,4279A,119.7569,49.2222,呼伦贝尔市,伊敏大街东7号,,38,35,32,26,17,22,,50,50,39,18,7,7,0.4,0.2
2026-01-28T0800,1250A,120.075,30.867,湖州市,城西水厂,"颗粒物(PM10),细颗粒物(PM2.5)",58,65,70,41,46,12,,48,48,67,31,7,6,0.5,0.5
2026-01-28T0800,2873A,120.083,30.8929,湖州市,仁皇山新区,颗粒物(PM10),52,54,71,35,51,36,,45,45,40,30,6,5,0.7,0.7
2026-01-28T0800,2907A,120.1846,30.8592,湖州市,吴兴区站,细颗粒物(PM2.5),65,70,73,47,50,39,,45,45,36,36,6,5,0.5,0.7
2026-01-28T0800,3562A,120.4146,30.8538,湖州市,南浔区站,细颗粒物(PM2.5),63,69,75,45,50,31,,40,40,48,33,11,7,0.6,0.7
2026-01-28T0800,1607A,120.904878,40.721091,葫芦岛市,龙港区,颗粒物(PM10),51,51,59,32,35,14,,23,23,57,38,20,26,1.3,1.1
2026-01-28T0800,1608A,120.8382,40.7521,葫芦岛市,化工街,,39,39,58,16,33,35,,50,50,40,38,23,20,0.9,0.8
2026-01-28T0800,1609A,120.8339,40.7078,葫芦岛市,新区,,35,32,44,24,29,28,,40,40,45,35,24,19,1.0,0.9
2026-01-28T0800,1610A,120.8697,40.7679,葫芦岛市,东城区,,49,38,52,34,39,20,,42,42,53,40,38,26,1.3,1.1
2026-01-28T0800,2483A,109.9297,27.5383,怀化市,河西地税局,"颗粒物(PM10),细颗粒物(PM2.5)",59,67,73,42,52,1,,0,0,27,25,1,2,/,/
2026-01-28T0800,2484A,109.9783,27.5342,怀化市,市四医院,细颗粒物(PM2.5),75,95,83,55,54,5,,3,3,30,23,4,6,0.6,0.7
2026-01-28T0800,2485A,109.9971,27.5579,怀化市,监测楼,细颗粒物(PM2.5),82,71,81,60,55,0,,,,25,31,3,3,0.7,0.6
2026-01-28T0800,1210A,119.0566,33.5991,淮安市,钵池山,细颗粒物(PM2.5),69,66,80,50,56,35,,40,40,32,27,6,8,0.4,0.5
2026-01-28T0800,1211A,119.0083,33.578,淮安市,北京南路,细颗粒物(PM2.5),93,100,82,69,48,26,,40,40,47,28,7,9,1.1,0.6
2026-01-28T0800,1212A,118.9938,33.6083,淮安市,市监测站,,50,48,62,35,51,62,,63,63,24,25,9,10,0.8,0.6
2026-01-28T0800,1213A,119.135,33.5038,淮安市,楚州区监测站,细颗粒物(PM2.5),65,73,82,47,47,32,,26,26,39,32,8,9,0.3,0.3
2026-01-28T0800,3426A,118.8757,33.2897,淮安市,新华书店,细颗粒物(PM2.5),67,74,84,48,53,29,,29,29,43,35,9,10,0.9,0.9
2026-01-28T0800,4092A,119.119691,33.550006,淮安市,枚皋中路89号,细颗粒物(PM2.5),69,84,85,50,51,31,,41,41,30,24,8,9,0.8,0.5
2026-01-28T0800,4206A,119.028838,33.631911,淮安市,承德北路606号,细颗粒物(PM2.5),74,95,103,54,57,12,,33,33,66,34,6,8,1.1,0.7
2026-01-28T0800,2282A,116.8005,33.9749,淮北市,监测站,细颗粒物(PM2.5),80,92,130,59,82,49,,63,63,28,21,7,5,0.6,0.7
2026-01-28T0800,2283A,116.8094,33.9008,淮北市,烈山区政府,细颗粒物(PM2.5),88,92,109,65,85,47,,62,62,31,23,5,5,0.5,0.6
2026-01-28T0800,4017A,116.7926,33.9534,淮北市,市博物馆,细颗粒物(PM2.5),80,98,127,59,82,47,,63,63,27,17,7,6,0.6,0.8
2026-01-28T0800,4100A,116.8322,33.9884,淮北市,杜集区第一实验学校,"颗粒物(PM10),细颗粒物(PM2.5)",72,94,122,52,84,52,,62,62,23,19,4,5,0.4,0.7
2026-01-28T0800,2277A,116.8304,32.7726,淮南市,潘集区政府,细颗粒物(PM2.5),103,118,121,77,84,32,,40,40,33,27,6,5,0.6,0.6
2026-01-28T0800,2279A,116.8569,32.5949,淮南市,谢家集区政府,细颗粒物(PM2.5),79,87,95,58,59,32,,59,59,31,21,8,7,0.7,0.7
2026-01-28T0800,2280A,116.8279,32.6333,淮南市,八公山区政府,细颗粒物(PM2.5),83,98,99,61,64,41,,66,66,27,21,7,6,0.7,0.7
2026-01-28T0800,2894A,117.0561,32.6536,淮南市,经济技术开发区消防队,细颗粒物(PM2.5),83,93,101,61,61,28,,50,50,42,33,4,4,0.7,0.8
2026-01-28T0800,3329A,117.011,32.5891,淮南市,山南新区,细颗粒物(PM2.5),74,93,107,54,60,45,,61,61,28,26,7,7,0.4,0.4
2026-01-28T0800,4209A,117.003137,32.644456,淮南市,国庆中路369号,颗粒物(PM10),67,83,98,39,61,36,,54,54,27,26,9,8,0.5,0.6
2026-01-28T0800,2446A,114.9021,30.474,黄冈市,职工中心,细颗粒物(PM2.5),73,66,59,53,47,4,,8,8,42,28,7,7,0.8,0.8
2026-01-28T0800,2929A,114.8858,30.4519,黄冈市,红卫路,细颗粒物(PM2.5),77,,48,56,49,8,,8,8,44,29,10,8,0.4,0.4
2026-01-28T0800,3398A,114.9134,30.4446,黄冈市,市林业局,细颗粒物(PM2.5),69,66,53,50,45,10,,9,9,36,28,4,4,0.9,0.8
2026-01-28T0800,2672A,102.02,35.5101,黄南藏族自治州,同仁县隆务镇,颗粒物(PM10),68,86,83,31,40,54,,61,61,1,5,8,9,0.3,0.4
2026-01-28T0800,2295A,118.2905,29.6965,黄山市,延安路89号,,47,47,26,26,22,38,,50,50,14,13,4,4,0.7,0.7
2026-01-28T0800,2297A,118.1369,30.2755,黄山市,黄山区政府5号楼,细颗粒物(PM2.5),53,42,40,37,33,20,,23,23,12,14,2,2,0.7,0.7
2026-01-28T0800,4210A,118.335445,29.720283,黄山市,滨江东路7-2号,"颗粒物(PM10),细颗粒物(PM2.5)",60,69,40,43,32,46,,53,53,16,13,/,/,/,/
2026-01-28T0800,2423A,115.0547,30.2332,黄石市,沈家营,细颗粒物(PM2.5),69,76,75,50,50,14,,13,13,25,25,7,7,1.4,1.4
2026-01-28T0800,2426A,114.899,30.211,黄石市,铁山,细颗粒物(PM2.5),80,82,74,59,65,3,,1,1,28,28,6,7,0.6,0.7
2026-01-28T0800,2427A,115.0259,30.2108,黄石市,团城山,细颗粒物(PM2.5),92,83,83,68,63,1,,2,2,32,29,7,6,1.0,0.9
2026-01-28T0800,3149A,115.0174,30.1591,黄石市,笔架山北路,细颗粒物(PM2.5),84,115,105,62,72,3,,2,2,28,31,7,7,1.2,1
2026-01-28T0800,4185A,115.078022,30.21118,黄石市,磁湖东路29号,细颗粒物(PM2.5),99,79,74,74,68,2,,1,1,38,37,7,6,1.4,1.3
2026-01-28T0800,1392A,114.4181,23.0528,惠州市,河南岸金山湖子站,,27,27,52,17,33,48,,55,55,16,20,4,5,1.0,0.8
2026-01-28T0800,1393A,114.4055,23.0824,惠州市,下埔横江三路子站,,30,28,57,21,36,48,,58,58,13,17,6,8,0.9,0.8
2026-01-28T0800,1395A,114.4645,22.7832,惠州市,惠阳区承修路船湖子站,,36,36,47,23,26,43,,65,65,20,17,7,7,1.0,0.7
2026-01-28T0800,1396A,114.5316,22.7423,惠州市,大亚湾管委会子站,,49,49,54,30,28,40,,61,61,18,18,6,7,0.8,0.6
2026-01-28T0800,3314A,114.4334,22.8134,惠州市,惠阳秋长,,32,31,47,22,30,55,,76,76,19,19,/,/,/,/
2026-01-28T0800,3452A,114.6521,22.7755,惠州市,大亚湾霞涌,细颗粒物(PM2.5),53,,44,37,24,51,,67,67,16,16,/,/,/,/
2026-01-28T0800,4300A,114.4089,23.1147,惠州市,文华一路1号,,32,28,53,22,35,52,,60,60,15,18,/,/,/,/
2026-01-28T0800,2240A,130.9618,45.2926,鸡西市,环保局,细颗粒物(PM2.5),60,44,35,43,27,49,,62,62,18,10,6,6,0.6,0.4
2026-01-28T0800,2243A,130.9294,45.2959,鸡西市,第一中学,细颗粒物(PM2.5),65,,36,47,28,50,,61,61,16,10,3,3,0.5,0.4
2026-01-28T0800,3707A,131.0069,45.2988,鸡西市,欧美日汽修厂,细颗粒物(PM2.5),59,50,33,42,27,25,,38,38,36,14,8,7,0.5,0.3
2026-01-28T0800,2367A,114.9753,27.0803,吉安市,红声器材厂,,44,44,43,28,30,17,,21,21,31,26,9,8,0.7,0.9
2026-01-28T0800,2369A,114.9903,27.1313,吉安市,市环境监测站,,43,43,39,28,31,17,,19,19,20,22,8,8,/,/
2026-01-28T0800,2370A,115.009527,27.096792,吉安市,青原区法院,,42,41,40,29,30,19,,22,22,21,22,10,10,0.9,1
2026-01-28T0800,1772A,126.54,43.8622,吉林市,哈达湾,细颗粒物(PM2.5),54,40,47,38,37,28,,54,54,46,19,8,11,1.0,0.9
2026-01-28T0800,1773A,126.5843,43.8358,吉林市,东局子,,39,35,42,27,33,16,,45,45,42,21,3,5,1.1,0.9
2026-01-28T0800,1774A,126.5051,43.8243,吉林市,电力学院,细颗粒物(PM2.5),122,113,57,92,48,24,,39,39,50,25,12,7,1.3,0.9
2026-01-28T0800,1775A,126.6133,43.8971,吉林市,江北,细颗粒物(PM2.5),122,109,51,92,41,31,,51,51,22,9,8,8,1.6,1
2026-01-28T0800,1776A,126.5549,43.8304,吉林市,江南公园,,48,40,43,33,36,35,,49,49,32,17,7,7,0.7,0.5
2026-01-28T0800,2868A,126.4737,43.953,吉林市,九站,细颗粒物(PM2.5),99,82,42,74,38,7,,23,23,65,33,10,7,1.1,0.7
2026-01-28T0800,1299A,116.9866,36.6118,济南市,科干所,细颗粒物(PM2.5),113,141,128,85,76,85,,90,90,15,25,6,10,0.7,0.8
2026-01-28T0800,1300A,116.9379,36.6652,济南市,农科所,细颗粒物(PM2.5),152,151,148,116,104,57,,72,72,34,39,9,12,1.0,1
2026-01-28T0800,1301A,117.1265,36.6736,济南市,开发区,细颗粒物(PM2.5),105,149,135,79,86,47,,71,71,51,48,3,6,1.0,1
2026-01-28T0800,1303A,117.0616,36.6865,济南市,省种子仓库,细颗粒物(PM2.5),107,156,158,80,85,8,,38,38,77,60,5,10,1.1,1
2026-01-28T0800,1304A,116.9495185,36.644937,济南市,机床二厂,细颗粒物(PM2.5),150,154,148,115,102,70,,76,76,23,35,10,19,0.8,0.9
2026-01-28T0800,1305A,117.0496,36.6629,济南市,市监测站,细颗粒物(PM2.5),123,149,142,93,84,70,,81,81,29,40,4,7,0.9,1
2026-01-28T0800,1306A,116.7674,36.5458,济南市,长清党校,细颗粒物(PM2.5),132,147,144,100,97,70,,83,83,22,26,8,9,1.0,1
2026-01-28T0800,1961A,117.5323,36.6865,济南市,东山小学,细颗粒物(PM2.5),160,183,131,122,71,58,,82,82,33,28,5,7,0.9,0.6
2026-01-28T0800,3059A,117.7181,36.205,济南市,泰兴公司,细颗粒物(PM2.5),192,197,149,144,91,7,,6,6,66,57,11,11,1.9,1.4
2026-01-28T0800,3064A,117.6861,36.2172,济南市,莱芜战役纪念馆,细颗粒物(PM2.5),183,197,147,138,98,5,,4,4,67,56,11,11,1.7,1.3
2026-01-28T0800,3494A,117.1673,36.9782,济南市,济阳区政府,细颗粒物(PM2.5),134,151,178,102,102,14,,29,29,70,45,10,15,1.1,1
2026-01-28T0800,3495A,117.1168,36.6299,济南市,锦屏中学,细颗粒物(PM2.5),133,137,124,101,83,71,,83,83,29,33,2,5,0.6,0.8
2026-01-28T0800,4108A,117.7107,36.2385,济南市,山财大街5号,细颗粒物(PM2.5),159,163,133,121,75,14,,22,22,83,68,14,14,1.7,1.3
2026-01-28T0800,4109A,116.9744,36.6889,济南市,无影山路12号,细颗粒物(PM2.5),147,151,151,112,108,64,,75,75,34,45,7,13,1.1,1.2
2026-01-28T0800,1653A,116.6229,35.4288,济宁市,火炬城,细颗粒物(PM2.5),128,127,172,97,160,25,,38,38,38,35,4,5,0.8,1.1
2026-01-28T0800,3500A,116.5808,35.3703,济宁市,北湖一中,细颗粒物(PM2.5),117,114,159,88,145,39,,43,43,36,34,6,6,0.6,1
2026-01-28T0800,3501A,116.8251,35.5592,济宁市,服务中心,细颗粒物(PM2.5),139,184,206,106,150,26,,24,24,35,30,6,6,0.9,1
2026-01-28T0800,3678A,116.5907,35.4054,济宁市,市第七中学,细颗粒物(PM2.5),135,140,171,103,184,31,,40,40,44,39,10,10,0.8,1.1
2026-01-28T0800,4111A,116.6075,35.4566,济宁市,任和路,细颗粒物(PM2.5),105,128,198,79,144,40,,47,47,34,35,8,9,0.9,1.2
2026-01-28T0800,4112A,116.5648,35.3921,济宁市,文体南路1号,细颗粒物(PM2.5),107,137,195,80,146,42,,48,48,37,35,6,7,0.8,1
2026-01-28T0800,2255A,130.2749,46.8028,佳木斯市,佳纺,细颗粒物(PM2.5),87,81,59,64,47,14,,24,24,49,27,5,8,1.1,0.8
2026-01-28T0800,2257A,130.3258,46.7975,佳木斯市,环保局,细颗粒物(PM2.5),87,69,51,64,45,4,,18,18,62,31,14,8,1.6,0.7
2026-01-28T0800,4285A,130.363,46.806,佳木斯市,顺和街,细颗粒物(PM2.5),65,69,46,47,39,10,,30,30,62,30,12,10,1.1,0.6
2026-01-28T0800,4286A,130.3952,46.8268,佳木斯市,长安路196号,,48,48,39,27,32,39,,43,43,36,21,6,5,0.7,0.6
2026-01-28T0800,1252A,120.7439,30.778,嘉兴市,清河小学,细颗粒物(PM2.5),64,72,85,46,51,11,,32,32,66,33,6,5,0.6,0.5
2026-01-28T0800,1253A,120.7261,30.7477,嘉兴市,嘉兴学院,细颗粒物(PM2.5),62,70,75,44,48,20,,39,39,52,30,5,5,1.5,1.4
2026-01-28T0800,2872A,120.7845,30.7524,嘉兴市,南湖区残联,细颗粒物(PM2.5),68,68,86,49,52,12,,25,25,63,34,5,4,1.1,1
2026-01-28T0800,3407A,120.6915,30.7741,嘉兴市,秀洲住建,细颗粒物(PM2.5),74,79,86,54,55,7,,20,20,65,38,7,6,0.5,0.6
2026-01-28T0800,1945A,98.291,39.7705,嘉峪关市,气象局,颗粒物(PM10),73,95,204,27,57,4,,26,26,59,33,3,23,0.7,0.9
2026-01-28T0800,2884A,98.2672,39.7978,嘉峪关市,酒钢宾馆,颗粒物(PM10),79,107,225,29,63,25,,38,38,36,28,13,34,0.5,1.4
2026-01-28T0800,3248A,98.2644,39.7723,嘉峪关市,雄关区,颗粒物(PM10),73,95,168,21,48,4,,28,28,59,34,12,24,0.6,0.9
2026-01-28T0800,1383A,113.1063,22.6058,江门市,北街,,50,50,71,33,48,22,,31,31,43,48,/,/,/,/
2026-01-28T0800,1384A,113.073,22.5835,江门市,西区,,46,46,80,20,35,16,,28,28,48,54,/,/,/,/
2026-01-28T0800,1385A,113.0218,22.531,江门市,圭峰西,,48,48,68,32,44,35,,51,51,29,29,/,/,/,/
2026-01-28T0800,1386A,113.0826,22.5947,江门市,东湖,,50,46,73,35,49,21,,29,29,39,45,9,9,0.9,0.9
2026-01-28T0800,3311A,113.1077,22.5647,江门市,江海富民,颗粒物(PM10),58,65,91,39,48,23,,32,32,44,53,/,/,1.1,1
2026-01-28T0800,3449A,113.0496,22.4669,江门市,新会银湖,颗粒物(PM10),52,53,80,34,60,14,,21,21,45,44,8,8,0.9,0.8
2026-01-28T0800,3335A,113.3137,35.2643,焦作市,马村街道办,细颗粒物(PM2.5),220,237,238,170,167,13,,22,22,42,37,6,8,1.3,1.4
2026-01-28T0800,3336A,113.2464,35.2374,焦作市,焦作技师学院,细颗粒物(PM2.5),223,250,235,173,151,16,,28,28,45,42,6,8,1.8,1.5
2026-01-28T0800,3477A,113.1656,35.2536,焦作市,中站许衡医院,细颗粒物(PM2.5),158,197,222,120,147,28,,51,51,39,36,5,7,1.1,1.3
2026-01-28T0800,3981A,113.2456,35.18,焦作市,原李万街道办,细颗粒物(PM2.5),211,249,235,161,167,16,,7,7,39,41,4,8,1.2,1.4
2026-01-28T0800,4264A,113.234,35.219,焦作市,新安路1731号,细颗粒物(PM2.5),239,273,243,189,166,19,,27,27,45,40,5,9,1.4,1.4
2026-01-28T0800,4295A,113.2722,35.2121,焦作市,人民路3066号,细颗粒物(PM2.5),220,260,248,170,158,12,,10,10,46,46,4,7,1.5,1.6
2026-01-28T0800,1708A,116.3701,23.5345,揭阳市,新兴,,43,39,48,30,33,32,,44,44,30,30,9,9,0.7,0.7
2026-01-28T0800,1709A,116.3261,23.5442,揭阳市,西马,,45,32,51,31,31,31,,44,44,18,20,4,6,0.9,0.8
2026-01-28T0800,1710A,116.361,23.5627,揭阳市,东兴,,38,38,50,24,35,34,,44,44,23,26,9,11,/,/
2026-01-28T0800,1711A,116.4151,23.5295,揭阳市,渔湖,,37,37,49,19,25,35,,45,45,20,21,5,7,/,/
2026-01-28T0800,3320A,116.4028,23.5699,揭阳市,曲溪,,46,46,50,26,30,33,,46,46,22,21,7,10,0.7,0.7
2026-01-28T0800,1944A,102.1691,38.5166,金昌市,天庆家园,颗粒物(PM10),97,144,186,67,79,12,,19,19,39,28,19,28,1.5,1.2
2026-01-28T0800,4022A,102.1648,38.5369,金昌市,金川区人防中心,颗粒物(PM10),98,146,181,51,65,28,,29,29,20,19,31,26,0.8,0.8
2026-01-28T0800,4239A,102.193042,38.531887,金昌市,长春路96号,颗粒物(PM10),92,134,193,50,70,16,,16,16,29,34,30,51,1.2,1.1
2026-01-28T0800,1262A,119.6478,29.0773,金华市,十五中,细颗粒物(PM2.5),114,126,73,86,52,29,,39,39,41,34,4,3,0.7,0.5
2026-01-28T0800,1263A,119.6859,29.1032,金华市,监测站,细颗粒物(PM2.5),107,118,62,80,41,13,,22,22,49,42,2,2,0.6,0.5
2026-01-28T0800,3659A,119.656,29.1132,金华市,气象局,细颗粒物(PM2.5),107,124,56,80,59,13,,24,24,50,40,4,3,0.9,0.5
2026-01-28T0800,1767A,121.1114,41.0879,锦州市,南山,,31,31,38,14,23,43,,45,45,29,27,33,16,0.6,0.8
2026-01-28T0800,1768A,121.060361,40.842794,锦州市,开发区,细颗粒物(PM2.5),102,90,50,76,30,8,,32,32,68,40,30,21,1.2,0.8
2026-01-28T0800,1769A,121.1836,41.1118,锦州市,百股街道,细颗粒物(PM2.5),64,,42,46,30,24,,47,47,46,28,30,20,1.0,0.8
2026-01-28T0800,1770A,121.1176,41.1224,锦州市,天安街道,,33,33,37,21,21,34,,62,62,40,23,33,13,0.8,0.7
2026-01-28T0800,1771A,121.1303,41.1385,锦州市,北湖公园,,45,45,37,27,22,39,,57,57,27,18,38,15,0.7,0.6
2026-01-28T0800,2160A,112.8496,35.5051,晋城市,自来水公司,颗粒物(PM10),135,220,203,101,97,30,,32,32,43,33,7,6,2.5,1.2
2026-01-28T0800,2162A,112.8509,35.4886,晋城市,市环保局,细颗粒物(PM2.5),153,216,206,117,114,23,,21,21,40,36,4,6,1.5,1.1
2026-01-28T0800,3620A,112.8258,35.4804,晋城市,泽州一中,颗粒物(PM10),138,226,214,98,102,28,,33,33,39,32,8,4,2.5,1.2
2026-01-28T0800,4078A,112.8246,35.5152,晋城市,前书院路,颗粒物(PM10),144,237,218,94,86,16,,24,24,42,30,6,5,2.2,1.2
2026-01-28T0800,4079A,112.8864,35.4773,晋城市,祥云街666号,细颗粒物(PM2.5),148,226,208,113,107,36,,40,40,36,34,5,6,1.4,1
2026-01-28T0800,2174A,112.6992,37.6984,晋中市,榆次区政府,,,,214,,118,2,,,,,52,,19,1.2,1
2026-01-28T0800,2865A,112.7195,37.683,晋中市,榆次三中,细颗粒物(PM2.5),125,178,205,95,106,1,,2,2,45,50,11,19,1.2,1.2
2026-01-28T0800,4080A,112.7375,37.7215,晋中市,广安街188号,细颗粒物(PM2.5),162,255,232,123,124,2,,2,2,64,64,9,17,1.4,1.2
2026-01-28T0800,4200A,112.7478,37.6954,晋中市,迎宾街26号,细颗粒物(PM2.5),137,188,207,104,118,5,,9,9,42,46,11,19,1.2,1.2
2026-01-28T0800,2439A,112.2012,31.048,荆门市,竹园小学,细颗粒物(PM2.5),122,128,168,92,105,8,,46,46,55,32,2,2,1.3,0.9
2026-01-28T0800,2440A,112.1968,30.9892,荆门市,掇刀,细颗粒物(PM2.5),128,127,165,97,101,40,,52,52,30,23,8,4,0.9,0.8
2026-01-28T0800,3012A,112.1849,31.0361,荆门市,西山林语,细颗粒物(PM2.5),109,110,158,82,99,18,,39,39,39,26,2,25,1.3,1.1
2026-01-28T0800,3547A,112.1631,31.0134,荆门市,龙泉中学南校,细颗粒物(PM2.5),108,124,176,81,106,33,,50,50,24,17,17,4,0.9,0.7
2026-01-28T0800,4124A,112.2213,31.0654,荆门市,新台西路6号,细颗粒物(PM2.5),122,116,169,92,118,16,,32,32,37,35,7,8,1.0,1.1
2026-01-28T0800,1844A,112.2493,30.3198,荆州市,市图书馆,细颗粒物(PM2.5),114,111,116,86,111,14,,44,44,50,23,7,9,1.2,1.1
2026-01-28T0800,1845A,112.2009,30.3543,荆州市,市委党校,细颗粒物(PM2.5),122,122,137,92,107,12,,31,31,53,34,6,7,1.1,1
2026-01-28T0800,3194A,112.2749,30.3124,荆州市,管委会,细颗粒物(PM2.5),113,114,113,85,108,7,,39,39,44,24,6,8,1.3,1.2
2026-01-28T0800,4268A,112.1722,30.3366,荆州市,学苑路85号,,,,127,,104,,,85,54,,20,,14,,1.1
2026-01-28T0800,2343A,117.2114,29.2931,景德镇市,老干部活动中心,,35,24,14,24,12,51,,43,43,10,11,4,4,0.5,0.5
2026-01-28T0800,2344A,117.1893,29.2789,景德镇市,兽医站,,36,36,23,13,7,28,,38,38,10,12,4,3,0.5,0.6
2026-01-28T0800,2346A,117.246,29.2958,景德镇市,陶研所,,32,,12,22,13,28,,34,34,6,9,3,3,0.6,0.7
2026-01-28T0800,4289A,117.154766,29.256967,景德镇市,青少年活动中心,,22,22,14,14,10,27,,36,36,11,13,3,4,/,/
2026-01-28T0800,1803A,115.9873,29.6816,九江市,十里,细颗粒物(PM2.5),64,53,38,46,35,36,,48,48,34,23,5,5,1.0,0.8
2026-01-28T0800,1804A,115.9583,29.7047,九江市,茅山头,细颗粒物(PM2.5),67,52,41,48,33,43,,45,45,21,16,4,4,0.9,0.7
2026-01-28T0800,1805A,115.9877,29.7295,九江市,西园,细颗粒物(PM2.5),79,,60,58,39,43,,46,46,36,27,4,4,0.7,0.6
2026-01-28T0800,1808A,115.9112,29.6038,九江市,综合工业园,细颗粒物(PM2.5),84,,38,62,45,18,,26,26,51,34,3,2,0.7,0.7
2026-01-28T0800,3190A,116.0254,29.6995,九江市,外国语学校,细颗粒物(PM2.5),58,,33,41,32,28,,37,37,35,24,4,4,0.8,0.7
2026-01-28T0800,4253A,116.010205,29.659402,九江市,莲花大道8号,细颗粒物(PM2.5),70,62,42,51,32,33,,30,30,8,11,3,2,0.7,0.6
2026-01-28T0800,4240A,98.495752,39.733935,酒泉市,玉门东路5号,颗粒物(PM10),74,97,237,21,55,18,,30,30,27,22,10,20,0.4,0.8
2026-01-28T0800,4241A,98.5099,39.7506,酒泉市,北大街108号,颗粒物(PM10),75,100,245,21,58,16,,25,25,30,22,11,20,0.5,0.8
2026-01-28T0800,2698A,76.0071,39.466,喀什地区,巡警大队,颗粒物(PM10),292,414,508,135,158,3,,2,2,35,52,3,6,2.1,2.1
2026-01-28T0800,2699A,75.9756,39.4693,喀什地区,吾办,颗粒物(PM10),308,426,486,148,160,2,,4,4,49,50,6,10,2.7,1.9
2026-01-28T0800,4027A,75.9485,39.4688,喀什地区,老干局,颗粒物(PM10),239,377,519,87,143,12,,9,9,23,37,2,4,1.8,1.9
2026-01-28T0800,1824A,114.3389,34.778,开封市,肿瘤医院,细颗粒物(PM2.5),72,67,148,52,115,16,,31,31,30,33,8,9,1.0,1.1
2026-01-28T0800,1826A,114.2884,34.7966,开封市,世纪星幼儿园,细颗粒物(PM2.5),78,70,143,57,138,18,,35,35,36,31,4,5,0.9,1
2026-01-28T0800,3147A,114.3434,34.8101,开封市,龙亭公园,细颗粒物(PM2.5),63,60,147,45,129,19,,37,37,35,35,6,7,1.1,1.1
2026-01-28T0800,3210A,114.3645,34.7955,开封市,汴京公园,细颗粒物(PM2.5),55,,149,39,127,18,,28,28,30,35,3,4,0.9,1
2026-01-28T0800,3473A,114.2485,34.8306,开封市,技师学院,细颗粒物(PM2.5),110,90,136,83,122,26,,51,51,36,29,5,6,0.9,1
2026-01-28T0800,3592A,114.4518,34.7503,开封市,祥符区生态环境局,颗粒物(PM10),74,98,190,36,116,6,,22,22,44,43,3,5,0.8,0.9
2026-01-28T0800,1951A,84.886,45.6029,克拉玛依市,长征新村,颗粒物(PM10),72,94,94,51,57,40,,45,45,23,28,5,6,1.1,0.7
2026-01-28T0800,1952A,84.8894,45.5827,克拉玛依市,南林小区,颗粒物(PM10),83,115,96,53,48,15,,32,32,32,24,2,2,0.8,1
2026-01-28T0800,1954A,84.896,44.3328,克拉玛依市,独山子区,细颗粒物(PM2.5),122,100,201,92,123,70,,55,55,37,72,2,2,0.5,0.9
2026-01-28T0800,1955A,85.6888,46.0909,克拉玛依市,乌尔禾区商贸楼,细颗粒物(PM2.5),73,73,81,53,48,20,,23,23,39,43,6,7,0.6,0.7
2026-01-28T0800,3612A,85.1045,45.6895,克拉玛依市,白碱滩区新站,细颗粒物(PM2.5),99,124,102,74,58,10,,18,18,41,37,8,8,0.9,0.8
2026-01-28T0800,2697A,76.1457,39.7143,克孜勒苏柯尔克孜自治州,市人民政府,颗粒物(PM10),190,330,427,87,124,44,,40,40,5,18,3,4,0.2,0.5
2026-01-28T0800,3665A,76.1654,39.7157,克孜勒苏柯尔克孜自治州,克州文化中心,颗粒物(PM10),188,325,433,82,114,22,,36,36,26,20,4,4,0.6,0.9
2026-01-28T0800,1450A,102.8203,24.889,昆明市,呈贡新区,细颗粒物(PM2.5),52,46,34,36,25,42,,39,39,28,25,6,5,0.9,0.6
2026-01-28T0800,1452A,102.7253,25.0904,昆明市,龙泉镇,颗粒物(PM10),60,70,52,33,31,0,,0,0,45,43,2,3,0.6,0.6
2026-01-28T0800,1453A,102.7267,25.0378,昆明市,东风东路,,45,45,41,28,23,32,,45,45,38,25,7,7,0.4,0.4
2026-01-28T0800,1454A,102.6744,25.0671,昆明市,金鼎山,颗粒物(PM10),71,91,56,41,33,2,,16,16,53,31,4,4,0.7,0.5
2026-01-28T0800,1455A,102.6643,25.0401,昆明市,碧鸡广场,颗粒物(PM10),57,64,50,31,28,26,,37,37,44,31,6,6,0.5,0.5
2026-01-28T0800,3179A,102.7491,25.012,昆明市,官渡区博物馆,颗粒物(PM10),60,70,43,40,24,1,,19,19,49,32,5,5,1.9,1.1
2026-01-28T0800,3375A,102.8016,24.8336,昆明市,青年创业园,颗粒物(PM10),54,57,38,36,23,12,,15,15,37,25,19,10,0.7,0.5
2026-01-28T0800,3550A,102.8,24.9787,昆明市,昆明学院,细颗粒物(PM2.5),72,81,42,52,26,3,,40,40,58,25,4,6,1.1,0.6
2026-01-28T0800,3551A,102.5969,24.6738,昆明市,晋宁区生态环境分局,颗粒物(PM10),59,67,33,39,21,14,,35,35,46,16,3,4,1.0,0.7
2026-01-28T0800,3552A,102.6673,24.9861,昆明市,云天化总部,,49,48,35,34,23,15,,41,41,48,23,6,7,0.5,0.4
2026-01-28T0800,1456A,91.132,29.6515,拉萨市,八廓街,,34,34,25,19,15,57,,47,47,12,22,6,7,0.5,0.7
2026-01-28T0800,1457A,91.1221,29.6748,拉萨市,市环保局,,15,15,38,6,24,35,,26,26,21,33,7,9,0.8,1.3
2026-01-28T0800,1458A,91.0874,29.6476,拉萨市,区监测站,,16,12,17,10,12,37,,37,37,31,33,4,5,0.8,1
2026-01-28T0800,1459A,91.1774,29.6541,拉萨市,西藏大学,,16,9,19,6,11,51,,50,50,13,20,4,5,0.5,0.6
2026-01-28T0800,1460A,90.9798,29.6586,拉萨市,区辐射站,,23,23,39,11,21,17,,28,28,41,36,4,6,0.6,0.9
2026-01-28T0800,1461A,91.0831,29.6292,拉萨市,拉萨火车站,,22,22,18,11,13,19,,23,23,43,27,4,4,0.7,0.6
2026-01-28T0800,2520A,109.2203,23.7252,来宾市,来宾技工学校,,34,34,32,23,17,22,,28,28,18,12,9,10,0.9,0.9
2026-01-28T0800,3535A,109.1781,23.7293,来宾市,兴宾区政府,,36,34,29,25,19,30,,33,33,16,13,5,5,0.8,0.9
2026-01-28T0800,4002A,109.2312,23.7428,来宾市,中南小学,,45,41,31,31,24,18,,27,27,21,14,6,7,1.1,1.1
2026-01-28T0800,1479A,103.8309,36.0467,兰州市,铁路设计院,,,,,,,,,,,,,,,,
2026-01-28T0800,3241A,103.7439,36.0841,兰州市,百合公园,颗粒物(PM10),148,245,292,80,78,1,,11,11,60,58,24,16,1.4,1.1
2026-01-28T0800,3242A,103.9613,35.9985,兰州市,和平,颗粒物(PM10),146,242,336,75,96,38,,46,46,33,29,10,15,1.1,1.1
2026-01-28T0800,4236A,103.629272,36.093822,兰州市,庄浪东路808号,颗粒物(PM10),162,273,316,83,97,10,,41,41,68,48,16,20,1.1,1
2026-01-28T0800,4237A,103.7251,36.104344,兰州市,安宁西路88号,颗粒物(PM10),166,282,339,78,76,2,,9,9,68,55,27,19,1.0,0.9
2026-01-28T0800,4238A,103.846982,36.067567,兰州市,北滨河东路1号,颗粒物(PM10),169,287,330,85,88,2,,2,2,66,64,14,14,1.9,1.3
2026-01-28T0800,1067A,116.6712,39.5109,廊坊市,药材公司,细颗粒物(PM2.5),62,69,52,44,30,3,,2,2,70,49,9,4,1.0,0.7
2026-01-28T0800,1068A,116.7215,39.5592,廊坊市,开发区,,,84,50,42,26,2,,0,0,70,50,9,4,,0.7
2026-01-28T0800,1070A,116.7246,39.5273,廊坊市,北华航天学院,细颗粒物(PM2.5),60,66,55,43,27,3,,2,2,71,49,9,4,1.2,0.8
2026-01-28T0800,2919A,116.7022,39.5454,廊坊市,河北工业大学,颗粒物(PM10),60,70,52,42,27,2,,1,1,64,42,9,4,1.1,0.7
2026-01-28T0800,2536A,103.7629,29.5844,乐山市,牛耳桥,细颗粒物(PM2.5),87,120,120,64,62,11,,23,23,30,34,5,6,0.9,0.9
2026-01-28T0800,2537A,103.7501,29.6002,乐山市,市第三水厂,颗粒物(PM10),93,135,135,65,62,14,,18,18,38,38,6,6,1.0,1
2026-01-28T0800,2538A,103.7571,29.5664,乐山市,市监测站,颗粒物(PM10),91,131,126,62,60,27,,29,29,25,29,5,5,0.9,0.9
2026-01-28T0800,3361A,103.7313,29.563,乐山市,理工大学,"颗粒物(PM10),细颗粒物(PM2.5)",88,125,128,65,67,26,,16,16,20,25,6,6,0.9,0.9
2026-01-28T0800,2599A,100.2497,26.8802,丽江市,丽江古城,,29,29,30,14,15,76,,77,77,11,11,10,10,0.5,0.5
2026-01-28T0800,2600A,100.2203,26.8906,丽江市,市中心,,28,20,24,19,14,76,,77,77,11,13,7,6,0.3,0.4
2026-01-28T0800,1267A,119.9141,28.4513,丽水市,监测站大楼,细颗粒物(PM2.5),72,53,22,52,21,33,,40,40,20,20,4,4,0.7,0.5
2026-01-28T0800,1268A,119.93,28.4589,丽水市,莲都小学,细颗粒物(PM2.5),82,83,38,60,27,35,,42,42,25,22,/,/,/,/
2026-01-28T0800,1269A,119.8794,28.4232,丽水市,余庄前,细颗粒物(PM2.5),64,51,25,46,22,14,,16,16,18,22,4,4,0.6,0.5
2026-01-28T0800,1173A,119.1759,34.5885,连云港市,市环境监测站,细颗粒物(PM2.5),92,100,86,68,56,37,,52,52,46,28,18,18,0.8,0.7
2026-01-28T0800,3000A,119.3577,34.6971,连云港市,德源药业,细颗粒物(PM2.5),77,97,97,56,51,26,,32,32,69,57,8,9,0.6,0.7
2026-01-28T0800,3007A,119.178,34.8442,连云港市,新城一中,细颗粒物(PM2.5),97,89,82,72,52,45,,46,46,46,46,21,17,1.0,0.9
2026-01-28T0800,3008A,119.3607,34.7519,连云港市,胡沟管理处,颗粒物(PM10),63,75,71,41,40,28,,56,56,52,35,11,14,0.9,1
2026-01-28T0800,3009A,119.1478,34.5913,连云港市,矿山设计院,细颗粒物(PM2.5),94,105,87,70,52,42,,46,46,35,29,26,13,0.9,0.9
2026-01-28T0800,3434A,119.2414,34.6539,连云港市,工贸学校,"颗粒物(PM10),细颗粒物(PM2.5)",60,69,66,43,41,72,,80,80,24,22,17,16,0.4,0.5
2026-01-28T0800,3664A,119.4171,34.734,连云港市,连云街道,颗粒物(PM10),61,72,75,41,43,73,,75,75,24,24,9,10,0.6,0.8
2026-01-28T0800,2573A,102.2629,27.8981,凉山彝族自治州,西昌市政府,细颗粒物(PM2.5),138,115,91,105,70,17,,39,39,37,23,11,9,1.4,0.9
2026-01-28T0800,2574A,102.2686,27.885,凉山彝族自治州,凉山州政府,细颗粒物(PM2.5),125,112,107,95,77,5,,17,17,52,29,7,10,1.3,1.1
2026-01-28T0800,4229A,102.2342,27.8859,凉山彝族自治州,凯乐南路30号,细颗粒物(PM2.5),112,130,130,84,80,2,,5,5,38,31,8,11,1.2,1
2026-01-28T0800,2212A,123.1978,41.2036,辽阳市,宏伟区,,39,39,52,18,27,31,,33,33,25,18,11,10,0.6,0.6
2026-01-28T0800,2213A,123.1684,41.2497,辽阳市,新华园,细颗粒物(PM2.5),94,89,57,70,33,10,,28,28,56,31,17,15,2.0,0.8
2026-01-28T0800,2214A,123.2355,41.2663,辽阳市,滨河路,颗粒物(PM10),67,84,50,43,25,7,,20,20,57,31,11,11,1.2,0.6
2026-01-28T0800,4083A,123.153,41.2874,辽阳市,铁西路150号,细颗粒物(PM2.5),113,89,61,85,37,13,,24,24,53,30,26,13,1.8,1.2
2026-01-28T0800,2227A,125.1359,42.8845,辽源市,环保局,细颗粒物(PM2.5),77,75,59,56,39,12,,11,11,41,39,6,5,1.6,1
2026-01-28T0800,4085A,125.0998,42.9134,辽源市,安宁大街333号,细颗粒物(PM2.5),119,92,53,90,39,10,,12,12,26,19,5,6,2.1,1
2026-01-28T0800,1625A,115.9789,36.4372,聊城市,区政府,细颗粒物(PM2.5),193,186,188,145,136,43,,54,54,40,35,13,14,1.2,1.1
2026-01-28T0800,3200A,115.9772,36.4986,聊城市,监控中心,细颗粒物(PM2.5),195,173,182,146,129,51,,66,66,36,36,6,9,1.0,1.1
2026-01-28T0800,3513A,116.0443,36.436,聊城市,九州社区,细颗粒物(PM2.5),201,186,181,151,129,45,,50,50,26,28,2,7,1.2,1
2026-01-28T0800,4018A,116.0564,36.4609,聊城市,星美广场,细颗粒物(PM2.5),186,187,188,140,124,46,,55,55,24,26,4,5,1.3,1.1
2026-01-28T0800,4113A,116.0091,36.4495,聊城市,利民路,细颗粒物(PM2.5),189,189,188,142,136,38,,50,50,40,34,9,11,1.3,1.2
2026-01-28T0800,2632A,94.3683,29.6373,林芝市,林芝监测站,,17,8,13,7,7,53,,60,60,4,7,2,2,0.2,0.3
2026-01-28T0800,2633A,94.3616,29.6634,林芝市,林芝人民医院,,17,14,17,8,9,52,,65,65,3,7,6,5,0.2,0.3
2026-01-28T0800,2603A,100.0779,23.8981,临沧市,市环保局,细颗粒物(PM2.5),53,,40,37,40,23,,30,30,8,12,5,7,0.6,0.6
2026-01-28T0800,2604A,100.0894,23.882,临沧市,市气象局,颗粒物(PM10),51,52,52,29,29,17,,30,30,13,14,8,10,0.6,0.5
2026-01-28T0800,1733A,111.5552,36.0791,临汾市,临钢医院,颗粒物(PM10),134,217,225,84,86,11,,14,14,30,36,4,6,1.6,1.6
2026-01-28T0800,1734A,111.4984,36.0734,临汾市,技工学校,细颗粒物(PM2.5),133,198,216,101,103,0,,3,3,,41,4,6,1.4,1.5
2026-01-28T0800,1736A,111.5017,36.0857,临汾市,市委,颗粒物(PM10),135,219,239,89,96,2,,4,4,48,44,7,8,1.3,1.4
2026-01-28T0800,3018A,111.5048,36.1015,临汾市,唐尧大酒店,颗粒物(PM10),125,199,212,90,88,1,,2,2,45,44,2,4,1.6,1.6
2026-01-28T0800,4244A,111.4879,36.053,临汾市,启星学校,颗粒物(PM10),119,187,205,70,77,0,,0,0,55,56,4,6,1.8,1.8
2026-01-28T0800,4271A,103.2464,35.6123,临夏回族自治州,滨河东路1号,颗粒物(PM10),152,253,357,87,117,15,,13,13,31,36,6,10,1.7,1.7
2026-01-28T0800,4310A,103.207136,35.599807,临夏回族自治州,新华街21号,颗粒物(PM10),161,272,335,98,108,14,,16,16,37,29,11,14,1.9,1.5
2026-01-28T0800,1618A,118.3429,35.0532,临沂市,沂河小区,细颗粒物(PM2.5),114,134,110,86,64,5,,26,26,69,41,13,19,1.3,0.9
2026-01-28T0800,1619A,118.2962,35.0568,临沂市,鲁南制药厂,细颗粒物(PM2.5),145,163,120,111,77,4,,21,21,76,49,26,22,1.7,1
2026-01-28T0800,1620A,118.2793,34.9976,临沂市,新光毛纺厂,细颗粒物(PM2.5),114,117,118,86,79,4,,10,10,67,50,14,22,1.2,0.9
2026-01-28T0800,1621A,118.3955,35.0889,临沂市,河东保险公司,细颗粒物(PM2.5),117,136,111,88,70,5,,9,9,77,57,9,13,1.4,1.1
2026-01-28T0800,3370A,118.3563,35.0215,临沂市,十里堡居委,细颗粒物(PM2.5),100,124,104,75,63,11,,26,26,63,43,16,21,1.4,1
2026-01-28T0800,3496A,118.359,35.1067,临沂市,南坊新区,细颗粒物(PM2.5),117,122,103,88,70,5,,25,25,80,47,12,15,1.3,1.1
2026-01-28T0800,3860A,118.3915,35.0297,临沂市,皇山花园小区,细颗粒物(PM2.5),117,132,110,88,65,10,,22,22,79,54,14,18,1.5,1.1
2026-01-28T0800,1870A,109.4854,24.3898,柳州市,柳东小学,,46,,28,32,25,34,,33,33,11,8,9,8,0.9,0.9
2026-01-28T0800,1871A,109.4109,24.3304,柳州市,环保监测站,,29,29,27,20,20,29,,32,32,16,16,5,4,0.9,0.9
2026-01-28T0800,1872A,109.3886,24.3408,柳州市,河西水厂,,30,29,27,21,20,31,,34,34,15,15,5,8,0.6,0.9
2026-01-28T0800,1873A,109.4263,24.2951,柳州市,市四中,,29,,24,20,17,30,,34,34,11,11,9,9,0.8,0.8
2026-01-28T0800,1874A,109.396,24.3658,柳州市,市九中,,33,33,27,23,19,22,,28,28,18,15,8,9,0.9,1
2026-01-28T0800,1875A,109.4912,24.3164,柳州市,古亭山,,48,39,27,33,25,33,,28,28,15,12,7,6,0.7,0.7
2026-01-28T0800,3402A,109.5422,24.3994,柳州市,市二中,颗粒物(PM10),52,53,34,32,29,40,,38,38,18,15,9,9,0.7,0.8
2026-01-28T0800,2307A,116.5078,31.7369,六安市,监测大楼,细颗粒物(PM2.5),79,71,46,58,40,17,,30,30,34,26,2,2,0.5,0.4
2026-01-28T0800,2308A,116.4738,31.7642,六安市,皖西学院,细颗粒物(PM2.5),75,84,54,55,39,29,,35,35,31,24,4,4,0.5,0.4
2026-01-28T0800,2309A,116.4997,31.7904,六安市,朝阳厂,细颗粒物(PM2.5),84,82,48,62,40,24,,29,29,36,28,4,5,0.7,0.6
2026-01-28T0800,2310A,116.5566,31.7885,六安市,开发区,细颗粒物(PM2.5),92,112,46,68,43,21,,22,22,31,25,3,3,0.6,0.5
2026-01-28T0800,2577A,104.8293,26.592,六盘水市,黄土坡,细颗粒物(PM2.5),54,53,56,38,46,40,,52,52,22,20,9,9,0.9,0.9
2026-01-28T0800,2579A,104.8481,26.5898,六盘水市,民中,细颗粒物(PM2.5),55,50,54,39,47,39,,51,51,20,19,6,5,0.8,0.9
2026-01-28T0800,2580A,104.9541,26.5506,六盘水市,双水,颗粒物(PM10),54,58,58,36,45,50,,61,61,13,15,4,6,0.5,0.6
2026-01-28T0800,4151A,104.8899,26.5685,六盘水市,钟山大道中段564号,细颗粒物(PM2.5),63,67,65,45,42,36,,53,53,18,14,10,7,1.2,1.1
2026-01-28T0800,2336A,117.022,25.1031,龙岩市,龙岩市监测站,,33,,31,23,28,26,,38,38,22,17,20,17,0.9,0.7
2026-01-28T0800,2337A,117.0257,25.0662,龙岩市,闽西职业技术学院,,,28,33,,27,32,,45,45,,14,8,8,,0.9
2026-01-28T0800,2338A,117.0195,25.0306,龙岩市,龙岩学院,,23,20,38,16,32,34,,44,44,13,16,7,8,/,/
2026-01-28T0800,2885A,104.9344,33.3827,陇南市,滨江中学,颗粒物(PM10),122,194,253,53,67,25,,26,26,25,33,5,11,1.2,1.6
2026-01-28T0800,3247A,104.9551,33.3709,陇南市,市总工会,颗粒物(PM10),132,214,227,72,76,24,,30,30,27,21,9,9,1.0,0.9
2026-01-28T0800,2488A,111.9984,27.7346,娄底市,市监测站,细颗粒物(PM2.5),134,141,108,102,94,8,,36,36,34,21,8,8,1.1,0.8
2026-01-28T0800,2491A,111.9888,27.7035,娄底市,市政府,细颗粒物(PM2.5),73,65,91,53,80,5,,11,11,19,23,3,3,1.0,1
2026-01-28T0800,4127A,111.9812,27.7591,娄底市,涟钢职大,细颗粒物(PM2.5),140,141,105,107,85,3,,21,21,30,20,3,4,1.0,0.8
2026-01-28T0800,4128A,112.0303,27.7457,娄底市,娄底体校,,44,44,87,24,75,9,,18,18,10,13,2,2,0.5,0.5
2026-01-28T0800,1894A,105.4427,28.9063,泸州市,小市上码头,细颗粒物(PM2.5),114,152,128,86,83,4,,34,34,46,30,6,7,1.2,1.1
2026-01-28T0800,1895A,105.4241,28.8573,泸州市,兰田宪桥,细颗粒物(PM2.5),117,119,104,88,74,5,,15,15,29,26,8,8,0.9,0.9
2026-01-28T0800,1896A,105.4378,28.8833,泸州市,市环监站,细颗粒物(PM2.5),115,137,114,87,73,9,,29,29,40,29,10,10,1.2,1.1
2026-01-28T0800,4272A,105.3689,28.7783,泸州市,纳溪中医医院,细颗粒物(PM2.5),122,94,111,92,82,2,,5,5,18,26,8,8,1.0,1
2026-01-28T0800,2183A,111.1447,37.5212,吕梁市,环保局,颗粒物(PM10),97,143,132,33,37,1,,1,1,45,45,4,6,0.6,0.5
2026-01-28T0800,2185A,111.1285,37.5338,吕梁市,自来水公司,颗粒物(PM10),97,144,160,43,43,1,,1,1,39,37,6,6,0.6,0.7
2026-01-28T0800,2867A,111.1225,37.5093,吕梁市,马茂庄小学,颗粒物(PM10),88,126,145,41,37,2,,2,2,43,46,8,7,0.9,0.8
2026-01-28T0800,1812A,112.3934,34.6517,洛阳市,市委党校,细颗粒物(PM2.5),189,212,231,142,154,16,,18,18,40,47,7,10,1.3,1.5
2026-01-28T0800,1815A,112.494,34.6883,洛阳市,河南林校,细颗粒物(PM2.5),153,203,226,117,160,5,,7,7,40,51,8,9,1.4,1.5
2026-01-28T0800,1816A,112.3843,34.623,洛阳市,开发区管委会,细颗粒物(PM2.5),186,243,259,140,154,8,,20,20,38,38,8,10,1.4,1.3
2026-01-28T0800,1817A,112.4263,34.6249,洛阳市,市委新办公区,细颗粒物(PM2.5),155,215,254,118,135,6,,13,13,37,45,7,9,1.2,1.2
2026-01-28T0800,3340A,112.6005,34.6323,洛阳市,伊滨,细颗粒物(PM2.5),175,226,261,132,137,13,,8,8,43,48,7,8,1.2,1.2
2026-01-28T0800,3341A,112.495,34.6338,洛阳市,中移产业园,细颗粒物(PM2.5),163,195,223,124,142,1,,8,8,42,51,8,10,1.3,1.4
2026-01-28T0800,3593A,112.5736,34.8993,洛阳市,吉利监测站,细颗粒物(PM2.5),199,182,231,149,167,6,,8,8,40,42,8,10,1.3,1.5
2026-01-28T0800,3635A,112.3678,34.6623,洛阳市,河科大西苑校区,细颗粒物(PM2.5),179,214,249,135,144,5,,12,12,50,51,7,10,1.3,1.4
2026-01-28T0800,3636A,112.4387,34.678,洛阳市,英才小学,细颗粒物(PM2.5),210,233,251,160,165,3,,4,4,53,60,9,11,1.6,1.6
2026-01-28T0800,4214A,112.460027,34.694929,洛阳市,春都路1号院,细颗粒物(PM2.5),189,246,264,142,146,2,,3,3,46,53,7,8,1.5,1.4
2026-01-28T0800,2399A,114.051,33.5721,漯河市,三五一五工厂,细颗粒物(PM2.5),82,73,149,60,111,3,,14,14,43,34,6,7,1.5,1.4
2026-01-28T0800,2400A,114.0055,33.5698,漯河市,漯河大学,细颗粒物(PM2.5),83,77,119,61,104,10,,28,28,42,27,5,5,0.9,0.8
2026-01-28T0800,2401A,114.0134,33.5826,漯河市,市水利局,细颗粒物(PM2.5),85,75,124,63,107,6,,22,22,38,25,4,4,1.1,1.1
2026-01-28T0800,2402A,114.0261,33.5697,漯河市,市广电局,细颗粒物(PM2.5),74,66,123,54,108,4,,19,19,38,27,5,6,1.0,1
2026-01-28T0800,3478A,113.9691,33.568,漯河市,市图书馆,细颗粒物(PM2.5),112,91,145,84,112,26,,33,33,25,28,5,6,1.0,1
2026-01-28T0800,4250A,114.089259,33.588274,漯河市,韶山路11号,细颗粒物(PM2.5),73,57,139,53,110,0,,15,15,42,36,7,7,0.8,0.9
2026-01-28T0800,1798A,118.5084,31.6838,马鞍山市,湖东路四小,细颗粒物(PM2.5),73,72,90,53,57,26,,38,38,41,32,4,8,0.8,0.7
2026-01-28T0800,1799A,118.5019,31.6449,马鞍山市,开发区,细颗粒物(PM2.5),82,86,100,60,68,18,,27,27,44,38,4,3,0.7,0.6
2026-01-28T0800,3633A,118.4914,31.681,马鞍山市,雨山,细颗粒物(PM2.5),67,72,97,48,61,24,,43,43,47,32,4,3,1.0,0.9
2026-01-28T0800,4191A,118.527362,31.722269,马鞍山市,慈湖高新区,细颗粒物(PM2.5),65,69,89,47,68,28,,45,45,45,33,4,4,0.7,0.7
2026-01-28T0800,1686A,111.0285,21.469,茂名市,电白南海,颗粒物(PM10),75,100,85,51,48,24,,52,52,39,27,16,16,1.6,1.3
2026-01-28T0800,1687A,110.9294,21.6533,茂名市,茂石化七小,颗粒物(PM10),57,63,83,39,43,41,,63,63,18,23,17,12,1.1,0.8
2026-01-28T0800,1688A,110.9108,21.6688,茂名市,健康路,颗粒物(PM10),56,61,78,38,45,40,,66,66,26,25,28,24,1.4,1
2026-01-28T0800,1689A,110.8592,21.6826,茂名市,高岭,颗粒物(PM10),60,70,95,31,46,31,,50,50,19,19,16,18,/,/
2026-01-28T0800,3450A,111.0101,21.5165,茂名市,电白水东,细颗粒物(PM2.5),77,78,83,56,47,42,,64,64,33,23,18,16,/,/
2026-01-28T0800,2540A,103.8414,30.0871,眉山市,气象局,颗粒物(PM10),90,129,134,58,63,17,,16,16,39,34,12,13,0.9,0.9
2026-01-28T0800,3148A,103.829,30.0563,眉山市,区人社局,颗粒物(PM10),94,138,133,56,57,1,,20,20,51,42,8,8,1.1,1
2026-01-28T0800,4148A,103.8836,30.0695,眉山市,眉职院,颗粒物(PM10),99,147,134,50,52,3,,22,22,46,25,2,1,0.8,0.8
2026-01-28T0800,1690A,116.1248,24.3307,梅州市,梅江月梅,,21,21,37,13,28,14,,33,33,29,23,/,/,/,/
2026-01-28T0800,1691A,116.0798,24.2719,梅州市,梅县新城,,29,29,37,18,30,9,,36,36,30,18,8,8,0.8,0.7
2026-01-28T0800,3315A,116.1234,24.2994,梅州市,梅龙,,38,36,38,26,27,12,,36,36,28,17,10,8,0.8,0.9
2026-01-28T0800,1878A,104.7775,31.4741,绵阳市,富乐山,颗粒物(PM10),96,141,144,70,62,5,,12,12,37,27,8,8,0.7,0.7
2026-01-28T0800,1880A,104.6698,31.4668,绵阳市,高新区自来水公司,颗粒物(PM10),112,173,188,70,69,0,,8,8,57,48,9,9,1.1,1
2026-01-28T0800,3491A,104.6899,31.5324,绵阳市,西科大附属小学,颗粒物(PM10),114,178,193,70,78,5,,3,3,47,49,10,9,0.8,0.7
2026-01-28T0800,3492A,104.5647,31.5343,绵阳市,安州区旅游局,颗粒物(PM10),107,163,172,74,80,5,,14,14,41,32,14,12,1.2,1
2026-01-28T0800,4146A,104.7092,31.4972,绵阳市,科技城新区公安局,颗粒物(PM10),124,197,189,73,73,6,,3,3,56,51,7,7,0.9,0.9
2026-01-28T0800,4226A,104.765114,31.453094,绵阳市,绵阳市气象局,细颗粒物(PM2.5),108,161,155,81,65,0,,0,0,46,43,9,10,1.0,0.9
2026-01-28T0800,1784A,129.61,44.561,牡丹江市,环保大楼,细颗粒物(PM2.5),85,67,61,63,48,21,,22,22,39,34,5,4,0.7,0.5
2026-01-28T0800,1787A,129.6364,44.6075,牡丹江市,机车工厂,细颗粒物(PM2.5),133,139,82,101,58,9,,8,8,48,32,9,8,1.2,0.7
2026-01-28T0800,1788A,129.6386,44.5462,牡丹江市,第一中学,细颗粒物(PM2.5),82,,43,60,40,20,,30,30,39,28,7,5,0.6,0.4
2026-01-28T0800,4287A,129.5992,44.5964,牡丹江市,东晓云街98号,细颗粒物(PM2.5),124,108,66,94,52,14,,32,32,51,24,11,6,1.2,0.8
2026-01-28T0800,2531A,105.0703,29.61,内江市,市监测站,细颗粒物(PM2.5),80,92,97,59,59,44,,50,50,23,26,4,5,0.7,0.7
2026-01-28T0800,2533A,105.0657,29.5807,内江市,内江二中,颗粒物(PM10),87,123,111,57,54,27,,33,33,42,31,5,5,0.7,0.6
2026-01-28T0800,2534A,105.0407,29.5828,内江市,内江日报社,细颗粒物(PM2.5),77,95,96,56,52,49,,41,41,19,38,6,6,0.8,0.9
2026-01-28T0800,4147A,105.0433,29.6105,内江市,玉峰路西段888号,颗粒物(PM10),84,118,100,57,51,26,,38,38,31,30,4,4,0.7,0.7
2026-01-28T0800,2628A,92.0653,31.4846,那曲市,那曲监测站,,28,,38,19,32,27,,27,27,20,26,7,10,1.0,1.3
2026-01-28T0800,4243A,92.0515,31.4787,那曲市,那曲市委宣传部,,29,27,28,20,19,18,,22,22,21,20,7,7,1.2,1.1
2026-01-28T0800,1291A,115.8887,28.7006,南昌市,省林业公司,细颗粒物(PM2.5),67,51,34,48,36,31,,28,28,26,21,5,4,0.3,0.4
2026-01-28T0800,1292A,115.813,28.7443,南昌市,林科所,,33,29,29,23,23,45,,39,39,23,20,3,3,0.6,0.4
2026-01-28T0800,1294A,115.8518,28.687,南昌市,建工学校,颗粒物(PM10),66,81,50,40,32,31,,34,34,33,24,7,7,1.0,0.8
2026-01-28T0800,1295A,115.8926,28.6425,南昌市,象湖,细颗粒物(PM2.5),64,,35,46,35,38,,33,33,19,20,8,7,0.7,0.7
2026-01-28T0800,3046A,115.9084,28.6062,南昌市,机电学校,细颗粒物(PM2.5),70,56,47,51,37,35,,34,34,30,25,4,4,0.5,0.5
2026-01-28T0800,3690A,115.9718,28.7032,南昌市,外国语学校,细颗粒物(PM2.5),67,62,45,48,39,25,,23,23,35,29,12,11,0.6,0.6
2026-01-28T0800,4106A,115.7923,28.6873,南昌市,工业二路,,49,49,38,34,29,37,,47,47,23,14,4,3,0.7,0.6
2026-01-28T0800,4192A,115.931587,28.686774,南昌市,南京东路235号,细颗粒物(PM2.5),75,56,38,55,39,34,,33,33,24,22,6,5,0.5,0.4
2026-01-28T0800,1906A,106.0791,30.8022,南充市,南充市委,颗粒物(PM10),71,91,86,42,46,4,,7,7,27,33,3,4,0.7,0.8
2026-01-28T0800,1907A,106.1038,30.8215,南充市,南充炼油厂,颗粒物(PM10),88,125,97,64,52,6,,6,6,28,30,5,6,0.7,0.8
2026-01-28T0800,4227A,106.108336,30.788436,南充市,梨树横街98号,颗粒物(PM10),74,98,91,46,44,7,,7,7,30,34,5,6,0.8,0.9
2026-01-28T0800,4304A,106.1172,30.843,南充市,清泉寺北路188号,,,122,84,51,43,18,,25,25,24,17,7,7,,0.5
2026-01-28T0800,4305A,106.067,30.7616,南充市,同庆路1号,颗粒物(PM10),85,120,81,55,43,5,,7,7,46,44,6,7,0.9,0.8
2026-01-28T0800,1151A,118.8033,32.1085,南京市,迈皋桥,,47,47,70,29,42,50,,43,43,32,39,6,5,0.5,0.5
2026-01-28T0800,1152A,118.7487,32.057,南京市,草场门,,48,48,75,22,42,29,,35,35,43,34,3,2,0.8,0.8
2026-01-28T0800,1154A,118.770105,32.004342,南京市,中华门,,48,48,81,19,44,52,,64,64,24,22,3,4,0.5,0.5
2026-01-28T0800,1155A,118.8059,32.0329,南京市,瑞金路,颗粒物(PM10),53,56,81,27,49,30,,44,44,26,18,4,4,1.5,1.3
2026-01-28T0800,1156A,118.7946,32.0774,南京市,玄武湖,,48,48,76,28,48,66,,68,68,23,35,4,4,0.6,0.7
2026-01-28T0800,1157A,118.6415,32.0964,南京市,浦口,颗粒物(PM10),53,55,88,32,53,58,,44,44,26,27,7,7,0.5,0.5
2026-01-28T0800,1158A,118.730129,32.000956,南京市,奥体中心,颗粒物(PM10),54,57,82,29,51,60,,62,62,33,31,10,10,0.6,0.7
2026-01-28T0800,1159A,118.9072,32.1047,南京市,仙林大学城,,48,48,83,22,46,54,,57,57,32,28,6,5,0.5,0.6
2026-01-28T0800,3422A,118.8443,31.919,南京市,江宁彩虹桥,"颗粒物(PM10),细颗粒物(PM2.5)",58,66,93,41,54,38,,49,49,50,43,5,4,0.7,0.8
2026-01-28T0800,3427A,118.8497,32.3599,南京市,六合雄州,细颗粒物(PM2.5),69,68,78,50,39,21,,31,31,40,31,9,9,0.6,0.6
2026-01-28T0800,4086A,118.7641,32.0841,南京市,新模范马路66号,颗粒物(PM10),54,58,82,3,34,84,,86,86,5,13,5,4,0.6,0.5
2026-01-28T0800,4249A,118.8707617,31.34017673,南京市,汶溪路181号,颗粒物(PM10),69,87,85,46,48,31,,34,34,38,30,8,6,0.9,0.9
2026-01-28T0800,4312A,119.019,31.6512,南京市,中山西路1号,细颗粒物(PM2.5),73,70,81,53,64,9,,22,22,46,32,4,4,1.2,1
2026-01-28T0800,1401A,108.3098,22.788,南宁市,二十一中,,30,26,30,21,20,22,,26,26,21,20,4,5,0.7,0.8
2026-01-28T0800,1402A,108.3135,22.8529,南宁市,北湖,,32,32,33,22,23,6,,14,14,27,24,9,9,0.9,0.9
2026-01-28T0800,1403A,108.3205,22.8222,南宁市,市监测站,,35,,31,24,23,9,,20,20,30,24,6,9,1.0,1
2026-01-28T0800,1404A,108.3828,22.8038,南宁市,大自然花园,,22,22,33,15,21,28,,33,33,11,11,5,6,0.8,0.8
2026-01-28T0800,1406A,108.2397,22.8462,南宁市,区农职院,,28,28,33,19,18,17,,18,18,22,18,8,8,0.8,0.8
2026-01-28T0800,1407A,108.3285,22.7356,南宁市,英华嘉园,,26,24,29,18,21,22,,30,30,18,18,4,4,0.6,0.6
2026-01-28T0800,3401A,108.4829,22.762,南宁市,红星社区,,28,21,25,19,19,27,,35,35,17,15,6,6,0.8,0.9
2026-01-28T0800,4132A,108.2927,23.1477,南宁市,起凤路9号,,30,24,23,21,21,22,,26,26,16,12,1,1,0.9,0.9
2026-01-28T0800,4221A,108.2177,22.7774,南宁市,乐贤路16号,,47,47,39,21,22,11,,17,17,26,19,3,4,0.9,0.9
2026-01-28T0800,2332A,118.1682,26.6371,南平市,南平市监测站,,20,17,38,14,33,13,,15,15,13,14,3,4,0.8,0.8
2026-01-28T0800,2334A,118.1757,26.6276,南平市,南平七中,,20,15,36,14,30,15,,15,15,13,14,13,10,0.9,0.9
2026-01-28T0800,1168A,120.9056,31.9669,南通市,狼山街道,颗粒物(PM10),51,51,66,25,40,63,,64,64,25,22,3,3,0.5,0.5
2026-01-28T0800,1170A,120.8635,32.0231,南通市,城中,颗粒物(PM10),57,64,70,32,38,41,,57,57,42,25,6,4,0.8,0.7
2026-01-28T0800,1171A,120.9376,31.9301,南通市,星湖花园,,44,44,66,21,34,52,,69,69,37,23,4,4,0.6,0.5
2026-01-28T0800,1172A,120.8053,32.046,南通市,紫琅学院,颗粒物(PM10),69,87,73,37,40,32,,46,46,47,28,4,3,0.6,0.6
2026-01-28T0800,3291A,121.0631,32.0644,南通市,通州监测站,,46,46,57,24,35,70,,79,79,24,19,3,3,0.4,0.4
2026-01-28T0800,3432A,120.9348,31.9874,南通市,环境教育馆,,50,48,65,35,43,37,,47,47,38,22,3,4,0.7,0.6
2026-01-28T0800,4091A,120.8692,31.9885,南通市,洪江路,,47,47,57,22,35,50,,65,65,33,22,4,4,0.7,0.4
2026-01-28T0800,2404A,112.5338,33.0086,南阳市,瓦房庄,细颗粒物(PM2.5),128,128,152,97,113,19,,45,45,31,23,6,6,1.1,1.1
2026-01-28T0800,2405A,112.5002,32.9734,南阳市,汉画馆,细颗粒物(PM2.5),150,141,166,115,132,16,,31,31,39,36,6,6,1.0,1.1
2026-01-28T0800,2406A,112.5778,33.0144,南阳市,气象站,细颗粒物(PM2.5),110,139,179,83,106,18,,46,46,37,24,6,5,1.0,1.1
2026-01-28T0800,2407A,112.548,32.9687,南阳市,理工学院,细颗粒物(PM2.5),105,126,155,79,94,6,,33,33,43,33,6,5,1.0,1.1
2026-01-28T0800,4008A,112.5233,32.9921,南阳市,卧龙区政府,细颗粒物(PM2.5),133,167,177,101,112,21,,38,38,35,28,5,5,1.1,1.2
2026-01-28T0800,1234A,121.8352,29.9111,宁波市,区环保大楼,颗粒物(PM10),54,57,63,27,29,22,,49,49,55,34,5,5,0.4,0.3
2026-01-28T0800,1235A,121.5595,29.8208,宁波市,万里学院,颗粒物(PM10),61,71,63,43,38,38,,57,57,40,24,3,3,0.7,0.7
2026-01-28T0800,1236A,121.713,29.9564,宁波市,龙赛医院,颗粒物(PM10),58,66,64,30,29,27,,62,62,48,23,3,3,0.5,0.5
2026-01-28T0800,1240A,121.5855,29.8635,宁波市,太古小学,颗粒物(PM10),62,74,71,42,39,44,,64,64,32,22,3,3,0.8,0.7
2026-01-28T0800,1241A,121.5239,29.8673,宁波市,市环境监测中心,颗粒物(PM10),59,68,56,38,33,41,,54,54,32,21,6,6,0.7,0.7
2026-01-28T0800,2871A,121.6156,29.9015,宁波市,万里国际学校,"颗粒物(PM10),细颗粒物(PM2.5)",57,63,66,40,39,40,,53,53,31,25,3,4,0.3,0.4
2026-01-28T0800,3710A,121.5593,29.8976,宁波市,白沙活动中心,细颗粒物(PM2.5),60,60,46,43,35,36,,56,56,33,22,4,4,0.4,0.3
2026-01-28T0800,4095A,121.8962,29.7529,宁波市,中科路88号,,42,42,50,23,30,37,,62,62,39,26,5,5,0.4,0.4
2026-01-28T0800,2341A,119.5387,26.6611,宁德市,宁德市监测站,,29,,14,20,10,18,,25,25,27,22,3,3,0.6,0.6
2026-01-28T0800,3209A,119.5231,26.6562,宁德市,宁德一中,,35,,15,24,11,21,,28,28,19,16,3,2,0.6,0.5
2026-01-28T0800,2618A,98.859,25.8541,怒江傈僳族自治州,州监测站,,31,31,34,16,20,30,,32,32,11,12,5,6,0.4,0.5
2026-01-28T0800,2619A,98.8607,25.8168,怒江傈僳族自治州,泸水一中,,23,17,30,16,22,19,,22,22,16,20,4,4,0.7,0.7
2026-01-28T0800,1888A,101.6891,26.571,攀枝花市,弄弄坪,颗粒物(PM10),64,78,81,45,54,3,,17,17,47,39,38,27,2.4,1.6
2026-01-28T0800,1889A,101.577,26.5914,攀枝花市,河门口,颗粒物(PM10),56,62,75,38,46,21,,21,21,26,31,13,25,1.4,1.7
2026-01-28T0800,1891A,101.7365,26.4986,攀枝花市,仁和,细颗粒物(PM2.5),74,68,61,54,46,6,,20,20,35,24,10,14,1.6,0.9
2026-01-28T0800,2835A,101.7222,26.567,攀枝花市,四十中小,细颗粒物(PM2.5),110,111,94,83,62,4,,17,17,56,48,24,41,2.0,1.6
2026-01-28T0800,1604A,122.0303,41.1489,盘锦市,开发区,,25,20,42,17,27,28,,46,46,26,26,8,6,0.8,0.8
2026-01-28T0800,1605A,122.0486,41.0883,盘锦市,兴隆台,,38,38,41,17,27,36,,44,44,34,33,19,8,0.5,0.5
2026-01-28T0800,1606A,121.8297,41.1026,盘锦市,新生街道,,35,25,37,24,21,12,,31,31,54,32,8,6,0.7,0.4
2026-01-28T0800,1832A,113.3257,33.7423,平顶山市,新华旅馆,细颗粒物(PM2.5),115,147,174,87,126,2,,13,13,56,40,5,6,1.1,1.1
2026-01-28T0800,1833A,113.2917,33.737,平顶山市,规划设计院,细颗粒物(PM2.5),117,128,189,88,124,21,,38,38,30,24,5,6,0.9,1
2026-01-28T0800,1834A,113.182,33.7738,平顶山市,平顶山工学院,细颗粒物(PM2.5),134,122,176,102,131,6,,34,34,37,25,6,7,1.0,0.9
2026-01-28T0800,3594A,112.8736,33.9068,平顶山市,石龙区,细颗粒物(PM2.5),112,124,202,84,130,24,,29,29,21,25,4,6,1.1,1.1
2026-01-28T0800,4116A,113.284,33.7139,平顶山市,姚电大道23号,细颗粒物(PM2.5),137,198,201,104,138,2,,37,37,44,31,5,6,1.1,0.9
2026-01-28T0800,2656A,106.6633,35.5338,平凉市,聚贤嘉苑,颗粒物(PM10),106,161,204,41,56,32,,35,35,33,30,20,22,0.7,0.8
2026-01-28T0800,2657A,106.7021,35.5307,平凉市,博物馆,颗粒物(PM10),104,158,200,51,60,28,,33,33,36,32,11,14,1.1,1.2
2026-01-28T0800,2348A,113.8384,27.6436,萍乡市,中医院,细颗粒物(PM2.5),105,138,159,79,95,2,,6,6,32,30,6,4,1.3,1.3
2026-01-28T0800,2350A,113.8677,27.6438,萍乡市,市环保局,细颗粒物(PM2.5),108,126,117,81,79,3,,7,7,34,30,13,12,1.5,1.4
2026-01-28T0800,2351A,113.8663,27.6202,萍乡市,安源区政府,细颗粒物(PM2.5),139,145,147,106,113,0,,4,4,32,31,9,8,1.4,1.4
2026-01-28T0800,4107A,113.8686,27.6668,萍乡市,联洪村委会,细颗粒物(PM2.5),118,114,145,89,110,5,,6,6,29,31,2,3,1.1,1.1
2026-01-28T0800,2319A,119.0142,25.4324,莆田市,荔城区仓后路,,18,15,19,12,4,35,,48,48,19,16,/,/,/,/
2026-01-28T0800,2320A,119.0016,25.4553,莆田市,莆田市监测站,,22,16,18,15,6,38,,50,50,17,13,2,2,0.5,0.5
2026-01-28T0800,2321A,119.112,25.4561,莆田市,涵江区六中,,22,21,17,15,4,40,,51,51,16,14,/,/,0.5,0.5
2026-01-28T0800,2322A,119.1014,25.3215,莆田市,秀屿区政府,,19,16,18,13,4,47,,57,57,12,12,2,2,0.7,0.6
2026-01-28T0800,2392A,115.0312,35.7636,濮阳市,环保局,细颗粒物(PM2.5),123,118,156,93,122,25,,48,48,36,39,5,7,1.4,1.1
2026-01-28T0800,3021A,115,35.7667,濮阳市,濮水河管理处,细颗粒物(PM2.5),97,120,188,72,129,24,,42,42,31,29,4,6,1.0,1.1
2026-01-28T0800,4118A,115.0552,35.7816,濮阳市,中原东路68号,细颗粒物(PM2.5),114,151,188,86,130,23,,50,50,36,29,4,6,0.9,0.9
2026-01-28T0800,4216A,115.0923632,35.76857718,濮阳市,任丘路479号,细颗粒物(PM2.5),149,166,210,114,154,20,,26,26,38,39,4,7,1.1,1.2
2026-01-28T0800,2601A,100.9801,22.7634,普洱市,市环保局,,40,40,46,26,20,27,,33,33,9,12,4,5,0.4,0.4
2026-01-28T0800,2602A,100.9763,22.8237,普洱市,普洱第二中学,,37,37,44,21,19,10,,7,7,21,22,4,5,0.3,0.3
2026-01-28T0800,3345A,131.0413,45.7795,七台河市,中波台,细颗粒物(PM2.5),118,89,54,89,49,35,,44,44,32,21,5,8,0.7,0.6
2026-01-28T0800,3637A,131.0136,45.7688,七台河市,人民广场,细颗粒物(PM2.5),108,103,68,81,49,31,,40,40,42,29,6,7,0.9,0.7
2026-01-28T0800,3684A,130.8639,45.8144,七台河市,新建矿广场,细颗粒物(PM2.5),118,141,58,89,49,5,,29,29,47,20,6,8,0.6,0.4
2026-01-28T0800,1779A,123.9307,47.3641,齐齐哈尔市,安居小区,,32,32,37,14,18,48,,50,50,20,20,9,10,0.5,0.4
2026-01-28T0800,1780A,123.9497,47.3389,齐齐哈尔市,中心广场,,17,16,21,3,12,54,,59,59,16,17,7,7,0.4,0.5
2026-01-28T0800,1781A,123.9483,47.3229,齐齐哈尔市,农牧车辆厂,,18,17,25,11,11,55,,58,58,14,14,5,6,0.4,0.3
2026-01-28T0800,1783A,123.9442,47.2994,齐齐哈尔市,市环境监测站,,22,22,29,3,13,53,,62,62,18,18,5,4,0.4,0.4
2026-01-28T0800,3662A,123.6341,47.2079,齐齐哈尔市,富区青少年活动中心,颗粒物(PM10),52,53,35,23,12,48,,60,60,20,12,4,5,0.6,0.4
2026-01-28T0800,2591A,107.9765,26.5724,黔东南苗族侗族自治州,市环境监测站,颗粒物(PM10),55,59,40,34,28,41,,47,47,10,8,5,4,0.7,0.7
2026-01-28T0800,2881A,107.8909,26.531,黔东南苗族侗族自治州,凯里学院,颗粒物(PM10),58,66,47,27,22,50,,48,48,12,15,4,3,0.8,0.8
2026-01-28T0800,2593A,107.5223,26.2371,黔南布依族苗族自治州,小围寨,,39,39,24,19,18,24,,34,34,6,8,5,5,1.0,1
2026-01-28T0800,3538A,107.5175,26.2977,黔南布依族苗族自治州,沙坝,,46,46,32,24,22,38,,42,42,6,8,3,4,0.8,0.9
2026-01-28T0800,2589A,104.9022,25.0943,黔西南布依族苗族自治州,场坝街,,42,42,45,27,33,34,,41,41,10,13,2,4,0.9,0.8
2026-01-28T0800,2590A,104.8812,25.0994,黔西南布依族苗族自治州,坪东大道,,49,49,44,30,34,37,,42,42,8,11,5,6,1.0,1
2026-01-28T0800,2502A,108.6238,21.9667,钦州市,市环保站,颗粒物(PM10),53,56,50,19,26,23,,28,28,18,16,3,3,0.8,1
2026-01-28T0800,2503A,108.655,21.9481,钦州市,沙埠小学,,34,34,49,14,24,28,,32,32,18,20,4,4,0.6,0.6
2026-01-28T0800,2504A,108.5989,21.7435,钦州市,港区一小,,29,29,57,20,28,23,,26,26,19,22,4,3,0.8,0.8
2026-01-28T0800,3404A,108.5959,21.9634,钦州市,北职校,,38,38,39,18,24,14,,21,21,23,18,3,3,1.0,0.9
2026-01-28T0800,1046A,119.5247,39.9346,秦皇岛市,建设大厦,,32,32,64,7,32,62,,50,50,6,26,9,9,0.3,0.6
2026-01-28T0800,3132A,119.5979,39.938,秦皇岛市,文明里,,45,45,59,10,28,49,,48,48,18,26,15,13,0.2,0.4
2026-01-28T0800,4066A,119.7458,39.9952,秦皇岛市,南园路157号,,40,40,50,20,25,48,,52,52,24,26,15,11,0.4,0.4
2026-01-28T0800,4067A,119.5131,39.8858,秦皇岛市,翠岛大街1号,,46,46,58,10,28,49,,45,45,25,32,13,11,0.3,0.5
2026-01-28T0800,4198A,119.509013,39.825305,秦皇岛市,北戴河轮滑馆,,30,30,60,7,28,57,,40,40,14,28,12,8,0.2,0.5
2026-01-28T0800,1310A,120.404,36.0625,青岛市,市南区东部子站,颗粒物(PM10),69,88,96,44,53,47,,64,64,38,30,9,13,0.7,0.7
2026-01-28T0800,1311A,120.362344,36.10282,青岛市,四方区子站,细颗粒物(PM2.5),73,70,93,53,63,13,,47,47,66,34,5,8,1.3,1
2026-01-28T0800,1312A,120.294373,36.054183,青岛市,市南区西部子站,细颗粒物(PM2.5),73,68,98,53,60,58,,53,53,28,42,5,9,0.7,0.8
2026-01-28T0800,1313A,120.4581,36.0858,青岛市,崂山区子站,颗粒物(PM10),63,75,91,41,50,44,,66,66,45,32,11,13,0.7,0.7
2026-01-28T0800,1315A,120.3945,36.3083,青岛市,城阳区子站,颗粒物(PM10),82,114,113,59,56,10,,25,25,68,54,8,12,1.5,1.1
2026-01-28T0800,3642A,120.3454,36.0735,青岛市,市北区南部,细颗粒物(PM2.5),74,84,119,54,65,51,,58,58,30,33,3,8,0.7,0.8
2026-01-28T0800,3643A,120.3897,36.18,青岛市,李沧区北部,细颗粒物(PM2.5),98,95,102,73,70,14,,53,53,73,42,11,12,1.4,0.9
2026-01-28T0800,4110A,120.5222,36.4089,青岛市,盟旺路653号,,44,44,96,20,52,66,,76,76,20,27,2,5,0.7,1
2026-01-28T0800,4290A,120.196923,35.954556,青岛市,珠江路669号,,,70,93,59,60,,,50,50,68,46,6,9,1.0,1
2026-01-28T0800,4291A,120.0424,35.8656,青岛市,黄岛区人民政府广场,细颗粒物(PM2.5),139,132,117,106,72,7,,7,7,51,48,13,13,2.1,1.3
2026-01-28T0800,1703A,113.0218,23.7086,清远市,凤城街办,细颗粒物(PM2.5),53,42,39,37,29,36,,52,52,18,16,/,/,/,/
2026-01-28T0800,3025A,113.0479,23.6343,清远市,技师学院,,40,40,44,25,28,24,,41,41,25,20,8,6,1.6,1.3
2026-01-28T0800,3318A,112.9898,23.7403,清远市,清新太和,,37,37,35,25,23,43,,58,58,14,16,8,9,0.8,0.7
2026-01-28T0800,3455A,113.076,23.72,清远市,清城东城,,38,38,38,26,27,29,,50,50,24,18,/,/,/,/
2026-01-28T0800,2661A,107.6325,35.7357,庆阳市,庆阳五中,颗粒物(PM10),136,222,209,98,85,38,,59,59,43,26,8,7,1.5,0.9
2026-01-28T0800,2662A,107.6361,35.7067,庆阳市,市环保局,颗粒物(PM10),121,192,202,80,81,66,,63,63,21,24,8,15,1.0,0.9
2026-01-28T0800,1916A,103.7897,25.5036,曲靖市,环境监测站,,50,50,46,25,24,34,,40,40,19,17,3,6,1.0,0.9
2026-01-28T0800,1917A,103.8013,25.5357,曲靖市,烟厂办公区,,42,42,46,26,24,38,,47,47,17,18,3,4,0.6,0.6
2026-01-28T0800,3376A,103.7926,25.4651,曲靖市,南苑二区,,42,40,44,29,29,33,,42,42,12,11,4,5,0.5,0.5
2026-01-28T0800,3377A,103.7442,25.5259,曲靖市,曲靖师范学院,,46,39,50,32,35,26,,11,11,21,31,3,5,0.4,0.6
2026-01-28T0800,1264A,118.8694,28.94,衢州市,环保大楼,细颗粒物(PM2.5),82,72,43,60,36,35,,36,36,25,22,/,/,/,/
2026-01-28T0800,1266A,118.8622,28.9809,衢州市,衢州学院,细颗粒物(PM2.5),82,74,38,60,31,36,,31,31,20,20,3,3,0.9,0.8
2026-01-28T0800,4097A,118.9646,28.9832,衢州市,衢州三中,细颗粒物(PM2.5),83,79,42,61,35,28,,24,24,24,24,4,4,0.8,0.7
2026-01-28T0800,1611A,118.5818,24.9116,泉州市,涂山街,,18,17,23,12,10,40,,50,50,16,16,3,3,0.5,0.5
2026-01-28T0800,1612A,118.597,24.8976,泉州市,津头埔,,19,16,21,13,10,39,,49,49,18,17,4,4,0.5,0.5
2026-01-28T0800,1613A,118.6669,24.9422,泉州市,万安,,20,16,21,14,10,39,,47,47,16,16,3,3,0.7,0.7
2026-01-28T0800,4105A,118.6355,24.9148,泉州市,霞新路6号,,35,24,16,24,10,35,,47,47,23,19,/,/,0.6,0.6
2026-01-28T0800,2626A,88.8873,29.2723,日喀则市,日喀则监测站,,29,29,37,16,16,11,,16,16,19,22,7,11,0.7,0.8
2026-01-28T0800,3726A,88.8775,29.2425,日喀则市,林业技术推广中心,,17,17,26,8,12,36,,31,31,9,12,9,9,0.5,0.6
2026-01-28T0800,1659A,119.4711,35.421,日照市,监测站,"颗粒物(PM10),细颗粒物(PM2.5)",74,97,80,54,44,3,,2,2,49,46,14,14,1.8,1.2
2026-01-28T0800,1660A,119.523,35.4216,日照市,市政府广场,细颗粒物(PM2.5),77,80,77,56,44,4,,7,7,69,49,14,13,1.3,0.7
2026-01-28T0800,1661A,119.5511,35.4113,日照市,港务局,"颗粒物(PM10),细颗粒物(PM2.5)",87,124,88,64,49,1,,2,2,79,60,17,13,1.4,0.8
2026-01-28T0800,3507A,119.5326,35.4627,日照市,职业技术学院,颗粒物(PM10),74,97,75,51,37,8,,16,16,67,52,12,12,1.3,1
2026-01-28T0800,3604A,119.3267,35.1043,日照市,岚山环保分局,细颗粒物(PM2.5),107,132,81,80,44,25,,23,23,62,41,26,17,1.3,1.1
2026-01-28T0800,1835A,111.1922,34.7752,三门峡市,市政府,细颗粒物(PM2.5),139,179,184,106,86,8,,4,4,35,40,9,10,1.2,1
2026-01-28T0800,1836A,111.1588,34.794,三门峡市,开发区,细颗粒物(PM2.5),143,232,229,109,89,8,,13,13,32,29,5,7,1.0,0.8
2026-01-28T0800,3039A,111.1911,34.7829,三门峡市,三门峡市第一小学,细颗粒物(PM2.5),150,201,208,115,86,13,,15,15,30,31,5,7,1.1,0.8
2026-01-28T0800,3598A,111.1031,34.719,三门峡市,富达温泉假日酒店,颗粒物(PM10),133,216,207,90,83,6,,9,9,40,36,7,8,1.1,1
2026-01-28T0800,2324A,117.621,26.2626,三明市,三钢,,35,,39,24,38,25,,30,30,12,15,4,6,0.8,1.1
2026-01-28T0800,2325A,117.6352,26.2714,三明市,三明二中,,23,,41,16,33,27,,32,32,12,17,1,3,1.0,1.1
2026-01-28T0800,2326A,117.6028,26.2377,三明市,三元区政府,,30,30,42,19,32,27,,32,32,19,17,8,5,0.8,1
2026-01-28T0800,1877A,109.4962,18.2682,三亚市,河西子站,,22,22,29,11,13,53,,56,56,9,11,1,2,0.3,0.4
2026-01-28T0800,3540A,109.7348,18.3443,三亚市,君悦子站,,20,17,25,14,11,17,,49,49,22,10,4,4,0.5,0.4
2026-01-28T0800,4135A,109.1714,18.3739,三亚市,城东小学站,,25,19,23,17,14,18,,27,27,9,9,/,/,/,/
2026-01-28T0800,2624A,91.7592,29.234,山南市,山南监测站,,11,10,18,3,8,35,,39,39,7,11,4,4,0.5,0.6
2026-01-28T0800,2625A,91.7701,29.2436,山南市,山南人民医院,,13,12,19,7,10,40,,40,40,8,12,7,8,0.5,0.6
2026-01-28T0800,1674A,116.6795,23.3666,汕头市,金平子站,,22,20,34,15,26,54,,60,60,14,17,4,5,0.7,0.8
2026-01-28T0800,1675A,116.7248,23.3632,汕头市,龙湖子站,,26,19,33,18,24,51,,58,58,15,18,9,11,/,/
2026-01-28T0800,1676A,116.7257,23.2774,汕头市,濠江子站,,18,14,29,12,18,52,,58,58,15,17,7,8,/,/
2026-01-28T0800,1677A,116.7518,23.4712,汕头市,澄海子站,,25,25,33,14,23,49,,52,52,15,14,7,8,0.7,0.7
2026-01-28T0800,1678A,116.6088,23.2539,汕头市,潮阳子站,,20,16,29,14,20,55,,61,61,13,13,6,6,0.5,0.7
2026-01-28T0800,3444A,116.4539,23.2684,汕头市,潮南峡山,,25,25,39,15,25,49,,58,58,14,13,5,6,0.7,0.8
2026-01-28T0800,3624A,116.4069,23.2533,汕头市,潮南子站,,35,35,49,18,27,40,,50,50,21,19,6,7,/,/
2026-01-28T0800,1693A,115.3653,22.7751,汕尾市,市环保局,,32,29,35,22,21,48,,61,61,12,11,7,7,0.9,0.7
2026-01-28T0800,1695A,115.362,22.7926,汕尾市,新城中学,,39,,32,27,27,45,,60,60,13,12,6,5,0.8,0.6
2026-01-28T0800,2645A,109.9155,33.8714,商洛市,监测站,颗粒物(PM10),90,129,154,44,52,8,,7,7,32,30,5,9,0.7,0.7
2026-01-28T0800,3045A,109.9647,33.8486,商洛市,商州区中学,颗粒物(PM10),84,118,145,48,53,6,,6,6,29,27,5,10,0.9,0.9
2026-01-28T0800,2408A,115.6701,34.4283,商丘市,环境监测站,细颗粒物(PM2.5),135,116,157,103,134,40,,32,32,29,40,2,3,0.9,1.1
2026-01-28T0800,2409A,115.6458,34.4047,商丘市,粮食局,细颗粒物(PM2.5),122,126,158,92,116,42,,46,46,27,32,2,4,0.6,0.9
2026-01-28T0800,3171A,115.6069,34.4465,商丘市,梁园区档案局,细颗粒物(PM2.5),125,114,144,95,116,51,,45,45,20,31,3,3,0.9,1.1
2026-01-28T0800,4119A,115.6701,34.3767,商丘市,北海东路185号,细颗粒物(PM2.5),142,155,171,108,119,22,,19,19,37,45,1,2,0.7,0.9
2026-01-28T0800,4120A,115.6172,34.3704,商丘市,中山大街3号,细颗粒物(PM2.5),129,160,178,98,119,39,,38,38,28,43,4,5,0.6,0.8
2026-01-28T0800,1141A,121.401,31.2382,上海市,普陀,,38,38,67,24,48,29,,22,22,54,39,6,6,0.6,0.6
2026-01-28T0800,1142A,121.4774,31.2043,上海市,十五厂,,29,29,66,18,43,44,,46,46,52,39,7,7,0.7,0.8
2026-01-28T0800,1143A,121.4673,31.3011,上海市,虹口,,40,40,64,24,41,10,,15,15,70,44,7,7,0.5,0.5
2026-01-28T0800,1147A,121.4253,31.226,上海市,静安监测站,,32,32,60,22,45,41,,35,35,51,39,7,7,0.2,0.4
2026-01-28T0800,1148A,121.7029,31.1905,上海市,浦东川沙,,32,32,63,18,42,35,,35,35,47,40,7,7,0.7,0.8
2026-01-28T0800,1149A,121.5339,31.229,上海市,浦东新区监测站,,36,32,61,25,43,18,,25,25,40,24,5,6,1.1,0.7
2026-01-28T0800,1150A,121.5776,31.2038,上海市,浦东张江,,37,37,64,23,38,15,,25,25,65,37,6,7,0.5,0.5
2026-01-28T0800,3265A,121.4242,31.3303,上海市,宝山庙行,,37,37,68,18,45,10,,9,9,61,39,8,8,0.5,0.5
2026-01-28T0800,3266A,121.8789,31.4662,上海市,崇明上实东滩,,22,22,51,15,35,46,,61,61,12,9,4,4,0.1,0.2
2026-01-28T0800,3268A,121.316,31.2839,上海市,嘉定南翔,,39,39,68,23,44,5,,24,24,70,36,4,3,0.6,0.6
2026-01-28T0800,3269A,121.3357,30.7455,上海市,金山新城,细颗粒物(PM2.5),72,64,70,52,56,6,,23,23,70,42,9,8,0.7,0.7
2026-01-28T0800,3270A,121.4996,31.0741,上海市,闵行浦江,,35,34,67,24,45,24,,28,28,47,30,6,6,0.6,0.7
2026-01-28T0800,3271A,121.2886,31.1663,上海市,青浦徐泾,,47,47,73,32,48,1,,21,21,85,42,5,5,0.6,0.6
2026-01-28T0800,3272A,121.2193,31.0382,上海市,松江图书馆,细颗粒物(PM2.5),57,62,81,40,50,8,,20,20,66,48,6,6,0.9,0.8
2026-01-28T0800,3273A,121.3904,31.206,上海市,长宁仙霞,,33,33,66,22,42,29,,29,29,48,29,7,7,0.1,0.1
2026-01-28T0800,3274A,121.7964,31.0507,上海市,浦东惠南,,34,34,62,18,41,49,,39,39,41,44,4,4,0.5,0.6
2026-01-28T0800,3544A,121.4891,30.925,上海市,奉贤南桥新城,,37,37,75,23,49,42,,36,36,42,41,2,2,0.5,0.7
