timepoint,stationcode,longitude,latitude,area,positionname,primarypollutant,aqi,pm10,pm10_24h,pm2_5,pm2_5_24h,o3,o3_24h,o3_8h,o3_8h_24h,no2,no2_24h,so2,so2_24h,co,co_24h
2023-08-20T11:00:00,1001A,116.3621,39.8784,北京市,万寿西宫,颗粒物(PM10),74,97,83,51,42,269,146,99,58,13,28,1,2,0.9,0.7
2023-08-20T11:00:00,1002A,116.2202,40.2915,北京市,定陵,细颗粒物(PM2.5),77,73,51,56,26,181,130,110,80,13,12,3,3,0.7,0.4
2023-08-20T11:00:00,1003A,116.4174,39.9289,北京市,东四,细颗粒物(PM2.5),98,121,80,73,40,273,120,119,50,17,27,1,1,0.9,0.6
2023-08-20T11:00:00,1004A,116.4072,39.8863,北京市,天坛,细颗粒物(PM2.5),78,85,74,57,43,258,142,75,52,12,28,1,2,0.7,0.5
2023-08-20T11:00:00,1005A,116.462,39.9365,北京市,农展馆,细颗粒物(PM2.5),99,114,81,74,41,262,124,111,52,17,29,3,3,0.8,0.5
2023-08-20T11:00:00,1006A,116.3392,39.9295,北京市,官园,细颗粒物(PM2.5),87,110,76,64,35,282,77,114,46,43,30,2,3,0.7,0.5
2023-08-20T11:00:00,1007A,116.2878,39.9611,北京市,海淀万柳,细颗粒物(PM2.5),89,120,71,66,31,225,91,78,63,36,29,1,2,0.5,0.3
2023-08-20T11:00:00,1008A,116.6636,40.135,北京市,顺义新城,细颗粒物(PM2.5),85,83,80,63,42,241,127,85,79,9,17,3,2,0.7,0.5
2023-08-20T11:00:00,1009A,116.6275,40.3275,北京市,怀柔镇,颗粒物(PM10),67,83,61,44,31,231,128,105,82,11,14,3,3,0.6,0.4
2023-08-20T11:00:00,1010A,116.2296,40.217,北京市,昌平镇,细颗粒物(PM2.5),97,96,51,72,27,188,118,129,58,20,27,2,2,0.6,0.4
2023-08-20T11:00:00,1011A,116.3966,39.9821,北京市,奥体中心,细颗粒物(PM2.5),85,94,68,63,37,208,102,118,48,27,34,3,3,0.9,0.6
2023-08-20T11:00:00,1012A,116.184,39.9136,北京市,古城,细颗粒物(PM2.5),112,128,79,84,32,229,104,119,80,35,23,3,3,0.6,0.4
2023-08-20T11:00:00,1015A,117.1444,39.1661,天津市,勤俭道,细颗粒物(PM2.5),78,73,65,57,42,246,154,119,119,23,14,14,7,1.1,0.8
2023-08-20T11:00:00,1017A,117.237,39.1082,天津市,大直沽八号路,细颗粒物(PM2.5),70,65,67,51,46,205,115,104,85,16,19,3,3,0.9,0.9
2023-08-20T11:00:00,1018A,117.202,39.0927,天津市,前进道,细颗粒物(PM2.5),55,56,59,39,40,208,130,100,95,18,20,7,7,1.0,0.9
2023-08-20T11:00:00,1019A,117.1837,39.2133,天津市,淮河道,细颗粒物(PM2.5),78,95,76,57,47,245,138,114,78,22,24,4,3,1.2,1.1
2023-08-20T11:00:00,1021A,117.307,39.0877,天津市,跃进路,颗粒物(PM10),52,54,63,33,41,229,130,93,66,14,26,4,7,0.8,0.9
2023-08-20T11:00:00,1023A,117.707,39.0343,天津市,第四大街,细颗粒物(PM2.5),62,57,61,44,43,178,134,117,91,12,20,6,7,0.8,0.8
2023-08-20T11:00:00,1024A,117.457,38.8394,天津市,永明路,,45,17,48,11,35,200,141,124,89,6,13,4,5,0.5,0.6
2023-08-20T11:00:00,1026A,117.764,39.1587,天津市,汉北路,细颗粒物(PM2.5),82,83,69,60,49,192,161,122,122,6,16,4,4,1.0,0.9
2023-08-20T11:00:00,1027A,117.157,38.9194,天津市,团泊洼,,40,26,50,20,36,175,128,88,80,10,23,3,3,0.8,0.8
2023-08-20T11:00:00,1029A,114.4422,38.0444,石家庄市,职工医院,颗粒物(PM10),69,88,86,37,35,185,78,102,58,30,26,3,4,0.8,0.6
2023-08-20T11:00:00,1030A,114.6063,38.0266,石家庄市,高新区,颗粒物(PM10),71,91,95,49,42,187,59,97,52,43,25,1,1,0.7,0.7
2023-08-20T11:00:00,1031A,114.4898,38.1328,石家庄市,西北水源,颗粒物(PM10),74,97,97,37,42,195,126,70,43,15,37,3,3,0.9,0.8
2023-08-20T11:00:00,1032A,114.4586,38.0058,石家庄市,西南高教,颗粒物(PM10),52,53,78,28,34,176,76,77,63,32,23,1,2,0.8,0.6
2023-08-20T11:00:00,1033A,114.5331,38.0178,石家庄市,世纪公园,颗粒物(PM10),60,69,75,38,38,167,55,93,56,38,22,3,5,0.7,0.6
2023-08-20T11:00:00,1034A,114.509,38.0457,石家庄市,人民会堂,颗粒物(PM10),79,107,97,46,41,198,84,126,61,32,23,4,4,0.8,0.6
2023-08-20T11:00:00,1035A,114.3524,37.8911,石家庄市,封龙山,颗粒物(PM10),65,80,78,40,28,165,144,158,140,8,9,1,2,1.0,0.9
2023-08-20T11:00:00,1037A,118.131,39.6363,唐山市,雷达站,,,,82,,52,224,164,116,95,13,17,6,2,2.1,0.9
2023-08-20T11:00:00,1038A,118.1725,39.6334,唐山市,物资局,细颗粒物(PM2.5),79,100,81,58,53,214,143,102,73,9,18,10,6,2.1,1.1
2023-08-20T11:00:00,1040A,118.1705,39.6506,唐山市,十二中,细颗粒物(PM2.5),89,89,77,66,51,212,144,109,68,19,25,7,3,2.4,1.1
2023-08-20T11:00:00,1041A,118.1869,39.622,唐山市,小山,细颗粒物(PM2.5),88,108,92,65,52,219,139,93,70,4,20,3,3,2.1,1.2
2023-08-20T11:00:00,1042A,119.5134,39.8207,秦皇岛市,北戴河环保局,颗粒物(PM10),59,67,54,26,25,149,120,142,70,21,18,4,4,0.3,0.5
2023-08-20T11:00:00,1043A,119.7493,40.0116,秦皇岛市,第一关,,50,50,56,35,41,153,116,50,50,15,34,2,2,0.3,0.4
2023-08-20T11:00:00,1044A,119.5897,39.9499,秦皇岛市,监测站,颗粒物(PM10),64,78,63,42,39,139,116,62,62,20,24,6,7,0.8,0.7
2023-08-20T11:00:00,1046A,119.5251,39.9041,秦皇岛市,建设大厦,颗粒物(PM10),61,72,63,36,36,149,131,55,55,16,23,2,3,0.7,0.7
2023-08-20T11:00:00,1048A,114.5302,36.6116,邯郸市,东污水处理厂,,45,33,56,31,36,190,89,66,58,24,17,11,5,2.5,1
2023-08-20T11:00:00,1049A,114.4918,36.5713,邯郸市,矿院,,49,44,60,34,40,204,89,56,56,35,23,25,5,3.7,1.1
2023-08-20T11:00:00,1050A,114.484,36.6133,邯郸市,丛台公园,,33,33,65,17,34,190,87,66,66,21,15,18,8,2.9,1.1
2023-08-20T11:00:00,1051A,115.493,38.8632,保定市,游泳馆,细颗粒物(PM2.5),72,80,65,52,42,209,95,103,54,32,26,5,6,0.5,0.4
2023-08-20T11:00:00,1052A,115.5213,38.8959,保定市,华电二区,细颗粒物(PM2.5),88,110,82,65,35,203,97,103,50,12,17,5,6,0.8,0.6
2023-08-20T11:00:00,1053A,115.4713,38.9108,保定市,接待中心,颗粒物(PM10),71,91,82,35,32,211,72,88,40,19,22,7,7,0.9,0.8
2023-08-20T11:00:00,1054A,115.4612,38.8416,保定市,地表水厂,颗粒物(PM10),64,78,95,44,34,200,83,57,45,27,31,7,8,0.7,0.6
2023-08-20T11:00:00,1056A,115.5086,38.8639,保定市,监测站,细颗粒物(PM2.5),64,57,72,46,41,196,115,122,63,13,21,4,7,0.5,0.3
2023-08-20T11:00:00,1057A,114.8883,40.8336,张家口市,人民公园,颗粒物(PM10),56,61,27,10,5,161,161,87,87,12,11,4,2,0.2,0.1
2023-08-20T11:00:00,1059A,114.8687,40.8042,张家口市,五金库,颗粒物(PM10),59,68,33,24,10,162,162,146,146,11,16,4,3,0.3,0.2
2023-08-20T11:00:00,1060A,114.8902,40.762,张家口市,世纪豪园,"细颗粒物(PM2.5),臭氧1小时",55,46,30,39,15,164,164,90,90,11,18,4,3,0.1,0
2023-08-20T11:00:00,1061A,114.8916,40.8661,张家口市,北泵房,臭氧1小时,59,47,22,16,6,167,167,90,90,10,8,8,6,0.4,0.2
2023-08-20T11:00:00,1062A,117.9531,40.9081,承德市,铁路,颗粒物(PM10),51,52,40,11,16,151,140,44,44,28,36,9,13,0.5,0.5
2023-08-20T11:00:00,1063A,117.9392,40.9763,承德市,中国银行,,49,34,34,2,10,169,155,52,52,13,23,9,10,0.5,0.4
2023-08-20T11:00:00,1064A,117.9503,40.928,承德市,开发区,,50,41,40,15,16,172,158,58,58,20,26,7,10,0.5,0.4
2023-08-20T11:00:00,1065A,117.8051,40.9655,承德市,文化中心,,48,48,43,3,12,170,148,57,57,14,34,7,8,0.6,0.4
2023-08-20T11:00:00,1066A,117.9268,41.0026,承德市,离宫,,50,46,28,7,15,168,159,58,58,7,18,8,9,0.5,0.4
2023-08-20T11:00:00,1067A,116.6708,39.5111,廊坊市,药材公司,颗粒物(PM10),59,68,72,41,35,202,161,86,75,14,19,3,3,0.7,0.5
2023-08-20T11:00:00,1068A,116.7214,39.5589,廊坊市,开发区,细颗粒物(PM2.5),58,44,64,41,39,205,137,88,62,10,15,2,2,0.6,0.5
2023-08-20T11:00:00,1070A,116.7244,39.5269,廊坊市,北华航天学院,,,,74,,37,202,121,94,67,16,19,,7,0.8,0.5
2023-08-20T11:00:00,1071A,116.8842,38.2991,沧州市,沧县城建局,颗粒物(PM10),59,68,57,34,32,169,141,101,62,16,23,4,4,0.7,0.6
2023-08-20T11:00:00,1072A,116.8584,38.3254,沧州市,电视转播站,细颗粒物(PM2.5),58,49,50,41,36,165,144,95,64,17,20,4,5,0.5,0.5
2023-08-20T11:00:00,1073A,116.8709,38.3228,沧州市,市环保局,细颗粒物(PM2.5),53,48,58,37,34,162,141,90,60,24,29,6,4,0.5,0.4
2023-08-20T11:00:00,1074A,115.6838,37.7541,衡水市,电机北厂,颗粒物(PM10),58,66,58,29,36,178,118,86,53,2,12,5,3,0.7,0.7
2023-08-20T11:00:00,1075A,115.6303,37.7316,衡水市,市监测站,,48,48,42,24,20,160,106,78,58,7,15,4,4,0.7,0.7
2023-08-20T11:00:00,1077A,114.4704,37.0886,邢台市,达活泉,颗粒物(PM10),62,73,83,37,34,179,107,67,63,5,9,2,3,0.6,0.6
2023-08-20T11:00:00,1078A,114.5062,37.0349,邢台市,邢师高专,颗粒物(PM10),54,57,78,27,37,187,93,43,43,11,23,7,6,0.9,0.7
2023-08-20T11:00:00,1079A,114.5237,37.0851,邢台市,路桥公司,颗粒物(PM10),61,71,74,38,36,170,102,54,54,9,14,10,10,0.8,0.8
2023-08-20T11:00:00,1080A,114.4725,37.0719,邢台市,市环保局,颗粒物(PM10),57,64,86,35,37,188,109,67,65,7,11,4,5,0.6,0.7
2023-08-20T11:00:00,1081A,112.522,37.8873,太原市,尖草坪,颗粒物(PM10),63,76,79,27,27,172,119,74,62,25,28,20,9,1.2,0.7
2023-08-20T11:00:00,1083A,112.434,38.0108,太原市,上兰,,,,,,,,,,,,,,,,
2023-08-20T11:00:00,1084A,112.469,37.7124,太原市,晋源,颗粒物(PM10),66,82,90,34,33,180,124,74,63,18,27,6,9,0.9,0.9
2023-08-20T11:00:00,1085A,112.5583,37.7394,太原市,小店,颗粒物(PM10),58,65,94,24,31,172,134,68,68,10,29,5,10,0.6,0.7
2023-08-20T11:00:00,1086A,112.5369,37.8692,太原市,桃园,颗粒物(PM10),65,79,78,30,26,165,111,78,50,29,33,17,9,1.6,0.8
2023-08-20T11:00:00,1087A,112.57,37.8195,太原市,坞城,颗粒物(PM10),54,58,70,21,26,164,126,92,61,16,26,14,17,0.7,0.8
2023-08-20T11:00:00,1088A,112.549,37.9854,太原市,南寨,颗粒物(PM10),62,74,84,25,30,157,118,38,38,18,42,4,5,0.6,0.6
2023-08-20T11:00:00,1090A,111.6507,40.7517,呼和浩特市,呼市一监,颗粒物(PM10),57,63,41,24,12,141,120,58,58,20,30,15,7,0.7,0.5
2023-08-20T11:00:00,1091A,111.6572,40.8033,呼和浩特市,小召,颗粒物(PM10),58,66,40,20,11,136,129,76,76,26,40,13,7,0.8,0.6
2023-08-20T11:00:00,1094A,111.7516,40.8369,呼和浩特市,如意水处理厂,颗粒物(PM10),60,70,35,22,9,150,142,71,71,18,39,14,7,0.6,0.5
2023-08-20T11:00:00,1095A,111.7276,40.8062,呼和浩特市,二十九中,颗粒物(PM10),54,57,35,26,12,143,127,72,72,22,36,14,7,0.7,0.6
2023-08-20T11:00:00,1096A,111.5512,40.7866,呼和浩特市,工大金川校区,颗粒物(PM10),62,73,38,27,11,136,123,55,52,25,36,14,6,0.6,0.4
2023-08-20T11:00:00,1097A,111.717,40.7612,呼和浩特市,化肥厂生活区,颗粒物(PM10),73,95,57,28,12,133,129,74,74,24,32,17,8,0.7,0.5
2023-08-20T11:00:00,1098A,123.6836,41.9339,沈阳市,森林路,,,,,,,,,,,,,,,,
2023-08-20T11:00:00,1099A,123.505,41.7406,沈阳市,浑南东路,,42,42,52,26,32,202,116,121,71,22,31,15,8,1.3,1.1
2023-08-20T11:00:00,1100A,123.4231,41.6989,沈阳市,新秀街,,41,41,52,20,29,188,105,119,57,28,36,11,6,1.3,1.1
2023-08-20T11:00:00,1102A,123.5903,41.8411,沈阳市,东陵路,颗粒物(PM10),55,59,48,32,28,199,123,98,59,16,15,12,7,1.3,1
2023-08-20T11:00:00,1103A,123.4264,41.8467,沈阳市,陵东街,,49,46,46,34,32,195,101,109,56,42,29,11,6,1.3,0.9
2023-08-20T11:00:00,1104A,123.4114,41.7653,沈阳市,文化路,颗粒物(PM10),55,59,54,38,37,212,115,132,78,31,22,17,7,1.2,1
2023-08-20T11:00:00,1105A,123.4678,41.7867,沈阳市,小河沿,,45,45,49,24,30,197,96,87,56,32,23,10,5,1.3,1.1
2023-08-20T11:00:00,1106A,123.4017,41.7972,沈阳市,太原街,细颗粒物(PM2.5),55,53,51,39,40,210,118,137,80,27,25,12,6,1.0,0.8
2023-08-20T11:00:00,1108A,123.3783,41.9228,沈阳市,京沈街,颗粒物(PM10),59,67,50,39,34,241,122,128,76,36,20,14,7,1.3,0.9
2023-08-20T11:00:00,1109A,121.612,38.9741,大连市,甘井子,,44,11,48,5,39,152,138,121,102,11,19,4,3,0.7,0.9
2023-08-20T11:00:00,1110A,121.565,38.9511,大连市,周水子,,35,17,40,13,38,144,109,114,79,20,20,2,2,1.0,1.1
2023-08-20T11:00:00,1111A,121.5637,38.8845,大连市,星海三站,,40,17,38,8,35,181,127,128,86,10,12,6,8,0.4,0.5
2023-08-20T11:00:00,1112A,121.6302,38.9117,大连市,青泥洼桥,,40,6,40,6,35,159,125,99,91,9,11,4,4,0.8,1
2023-08-20T11:00:00,1113A,121.6251,38.8638,大连市,傅家庄,,47,13,39,8,37,187,148,127,113,6,8,8,8,0.7,0.9
2023-08-20T11:00:00,1114A,121.5213,38.8661,大连市,七贤岭,,48,27,41,6,33,198,151,116,93,9,12,5,5,0.3,0.5
2023-08-20T11:00:00,1115A,121.2529,38.8061,大连市,旅顺,,42,16,33,14,32,199,133,147,91,10,11,4,5,0.6,0.7
2023-08-20T11:00:00,1116A,121.7485,39.1311,大连市,金州,,,17,44,,44,148,113,112,100,,13,6,7,0.7,0.9
2023-08-20T11:00:00,1117A,121.7811,39.0496,大连市,开发区,,42,24,46,6,38,161,132,133,117,22,18,5,7,0.7,0.8
2023-08-20T11:00:00,1118A,121.9762,39.0631,大连市,双D港,,46,22,40,7,33,175,145,120,120,9,12,6,6,0.3,0.5
2023-08-20T11:00:00,1119A,125.3325,43.9166,长春市,食品厂,,38,38,43,13,14,112,112,54,54,19,31,4,4,0.5,0.5
2023-08-20T11:00:00,1120A,125.2863,43.9027,长春市,客车厂,,36,33,30,8,13,113,113,59,59,13,25,4,5,0.5,0.4
2023-08-20T11:00:00,1121A,125.2841,43.8463,长春市,邮电学院,,39,34,27,14,9,124,124,60,60,11,18,5,5,0.5,0.4
2023-08-20T11:00:00,1122A,125.3716,43.8772,长春市,劳动公园,,39,32,32,13,8,124,124,66,66,13,22,6,6,0.5,0.5
2023-08-20T11:00:00,1123A,125.3297,43.8805,长春市,园林处,,44,44,30,14,8,112,112,61,61,16,23,1,2,0.6,0.6
2023-08-20T11:00:00,1124A,125.4605,43.79,长春市,净月潭,,38,38,15,12,6,99,99,58,58,16,8,6,5,0.4,0.3
2023-08-20T11:00:00,1125A,125.7194,43.515,长春市,甩湾子,,,,,,,,,,,,,,,,
2023-08-20T11:00:00,1126A,125.3863,43.8447,长春市,经开区环卫处,,39,39,30,12,9,117,117,57,57,17,23,4,4,0.4,0.3
2023-08-20T11:00:00,1127A,125.245,43.7783,长春市,高新区管委会,,38,38,35,14,10,116,116,62,62,11,21,4,4,0.5,0.4
2023-08-20T11:00:00,1128A,125.1761,43.8325,长春市,岱山公园,,,,37,39,8,110,110,49,38,8,32,3,4,,0.4
2023-08-20T11:00:00,1129A,126.5422,45.755,哈尔滨市,岭北,,29,22,30,12,15,90,90,42,42,34,37,20,15,0.4,0.5
2023-08-20T11:00:00,1130A,126.561,45.8167,哈尔滨市,松北商大,,31,17,41,10,8,97,97,36,36,14,42,7,6,0.6,0.7
2023-08-20T11:00:00,1131A,126.979,45.5419,哈尔滨市,阿城会宁,,27,10,42,11,12,100,86,34,34,7,19,5,5,0.6,0.5
2023-08-20T11:00:00,1132A,126.599,45.7222,哈尔滨市,南岗学府路,,,,,,,,,,,,,,,,
2023-08-20T11:00:00,1133A,126.689,45.7733,哈尔滨市,太平宏伟公园,,38,38,52,14,12,107,107,45,45,24,39,25,10,0.6,0.6
2023-08-20T11:00:00,1134A,126.635,45.7667,哈尔滨市,道外承德广场,,32,30,36,11,7,100,100,50,50,30,37,7,7,0.5,0.5
2023-08-20T11:00:00,1135A,126.685,45.7319,哈尔滨市,香坊红旗大街,,42,42,55,12,20,107,107,40,40,29,42,16,14,0.7,0.8
2023-08-20T11:00:00,1136A,126.6411,45.7258,哈尔滨市,动力和平路,,,23,50,,2,105,105,36,36,27,44,13,11,0.6,0.7
2023-08-20T11:00:00,1137A,126.593,45.7478,哈尔滨市,道里建国路,,32,32,40,13,10,92,92,42,42,31,46,14,11,0.5,1.9
2023-08-20T11:00:00,1138A,126.615,45.61,哈尔滨市,平房东轻厂,,31,19,38,14,11,99,99,43,43,6,27,7,7,0.4,0.5
2023-08-20T11:00:00,1139A,126.595,45.9855,哈尔滨市,呼兰师专,,29,18,22,8,6,92,92,48,48,14,19,9,8,0.6,0.5
2023-08-20T11:00:00,1140A,126.6206,45.6842,哈尔滨市,省农科院,,50,50,60,15,11,104,104,39,39,23,45,14,17,0.5,0.6
2023-08-20T11:00:00,1141A,121.4,31.238,上海市,普陀,,25,25,27,15,16,115,78,49,49,10,13,4,4,0.5,0.5
2023-08-20T11:00:00,1142A,121.478,31.2036,上海市,十五厂,,,25,26,,17,104,64,48,43,13,17,9,10,0.5,0.4
2023-08-20T11:00:00,1143A,121.467,31.3008,上海市,虹口,,25,22,26,15,15,108,80,58,49,14,19,7,8,0.5,0.5
2023-08-20T11:00:00,1144A,121.412,31.1654,上海市,徐汇上师大,,24,23,29,13,16,114,74,49,46,11,15,5,5,0.6,0.6
2023-08-20T11:00:00,1145A,121.536,31.2659,上海市,杨浦四漂,,24,24,33,12,16,101,69,51,44,11,18,5,6,0.5,0.6
2023-08-20T11:00:00,1147A,121.425,31.2261,上海市,静安监测站,,36,22,24,25,20,114,80,56,56,8,11,2,2,0.7,0.7
2023-08-20T11:00:00,1148A,121.703,31.1907,上海市,浦东川沙,,27,27,26,13,14,91,61,42,41,13,21,6,6,0.7,0.7
2023-08-20T11:00:00,1149A,121.533,31.2284,上海市,浦东新区监测站,,,24,25,3,11,103,62,56,40,,11,5,3,,0.4
2023-08-20T11:00:00,1150A,121.577,31.2071,上海市,浦东张江,,23,22,25,16,15,100,64,57,43,8,11,5,5,0.5,0.5
2023-08-20T11:00:00,1151A,118.8086,32.1065,南京市,迈皋桥,,31,23,26,14,13,169,97,64,50,9,16,4,4,0.3,0.5
2023-08-20T11:00:00,1152A,118.7538,32.0551,南京市,草场门,,35,30,29,24,15,153,100,78,49,10,17,2,3,0.5,0.5
2023-08-20T11:00:00,1153A,118.7794,32.0745,南京市,山西路,,34,31,33,14,13,171,107,88,57,7,12,5,4,0.2,0.2
2023-08-20T11:00:00,1154A,118.7752,32.0023,南京市,中华门,,30,24,27,14,14,149,96,81,48,5,13,7,8,0.7,0.7
2023-08-20T11:00:00,1155A,118.8109,32.0309,南京市,瑞金路,,30,29,28,17,15,148,93,74,48,4,11,4,5,0.2,0.3
2023-08-20T11:00:00,1156A,118.7997,32.0754,南京市,玄武湖,,32,28,27,13,13,164,100,78,55,6,14,7,7,0.5,0.6
2023-08-20T11:00:00,1157A,118.6414,32.0931,南京市,浦口,,40,40,33,9,16,164,105,55,55,13,23,5,5,0.5,0.5
2023-08-20T11:00:00,1158A,118.7356,31.9996,南京市,奥体中心,,31,31,29,14,19,153,96,84,52,8,15,8,8,0.4,0.4
2023-08-20T11:00:00,1159A,118.9125,32.1028,南京市,仙林大学城,,34,31,29,14,13,174,108,67,59,5,11,8,8,0.6,0.6
2023-08-20T11:00:00,1160A,120.561,31.2472,苏州市,上方山,,29,29,30,16,18,119,84,53,49,6,7,7,6,0.4,0.4
2023-08-20T11:00:00,1162A,120.591,31.3019,苏州市,彩香,,30,21,24,16,15,124,94,57,55,4,6,7,7,0.6,0.6
2023-08-20T11:00:00,1163A,120.596,31.3264,苏州市,轧钢厂,,30,24,25,13,13,138,95,57,56,6,8,9,9,0.6,0.6
2023-08-20T11:00:00,1164A,120.613,31.2703,苏州市,吴中区,,30,22,24,14,14,123,95,58,53,5,9,10,10,0.5,0.5
2023-08-20T11:00:00,1165A,120.543,31.2994,苏州市,苏州新区,,30,22,24,12,14,122,93,60,55,5,6,8,8,0.7,0.6
2023-08-20T11:00:00,1166A,120.669,31.3097,苏州市,苏州工业园区,,29,19,22,11,13,133,91,52,52,6,7,7,8,0.6,0.6
2023-08-20T11:00:00,1167A,120.641,31.3708,苏州市,相城区,,30,30,26,14,13,142,90,49,49,7,12,7,7,0.5,0.6
2023-08-20T11:00:00,1168A,120.9098,31.9663,南通市,狼山街道,,26,18,16,5,7,103,81,50,50,10,13,9,8,0.4,0.4
2023-08-20T11:00:00,1169A,120.86,32.0005,南通市,虹桥,,22,22,20,14,14,108,65,51,48,19,13,6,5,0.6,0.6
2023-08-20T11:00:00,1170A,120.87,32.02,南通市,城中,,21,20,18,8,9,105,66,57,51,14,10,6,6,0.6,0.6
2023-08-20T11:00:00,1171A,120.94,31.93,南通市,星湖花园,,26,19,14,9,7,94,82,48,47,10,12,8,5,0.7,0.5
2023-08-20T11:00:00,1172A,120.81,32.0417,南通市,紫琅学院,,23,10,17,3,7,107,72,55,50,10,13,5,6,0.5,0.5
2023-08-20T11:00:00,1173A,119.176,34.5885,连云港市,市环境监测站,,26,17,22,7,11,128,81,78,78,4,5,5,5,0.3,0.4
2023-08-20T11:00:00,1177A,117.179,34.2761,徐州市,黄河新村,,48,48,34,26,19,126,111,70,50,11,11,8,8,0.5,0.5
2023-08-20T11:00:00,1178A,117.1918,34.2384,徐州市,淮塔,,48,48,37,30,22,130,108,60,49,8,12,10,10,0.3,0.4
2023-08-20T11:00:00,1180A,117.256,34.2153,徐州市,新城区,,48,48,38,23,18,132,100,65,50,4,7,8,8,0.5,0.5
2023-08-20T11:00:00,1181A,117.244,34.2911,徐州市,桃园路,颗粒物(PM10),51,51,32,21,18,122,115,61,54,9,11,9,8,0.4,0.4
2023-08-20T11:00:00,1182A,117.2933,34.2778,徐州市,农科院,,,,28,,18,119,113,52,52,,14,6,6,0.4,0.4
2023-08-20T11:00:00,1186A,119.389,32.3761,扬州市,邗江监测站,,36,36,37,23,22,181,115,44,44,15,20,5,6,0.5,0.5
2023-08-20T11:00:00,1188A,120.269,31.4867,无锡市,雪浪,,32,22,27,14,12,167,102,55,55,1,9,4,4,0.5,0.5
2023-08-20T11:00:00,1189A,120.275,31.6219,无锡市,黄巷,,29,23,35,9,16,158,90,42,42,14,27,6,6,0.7,0.7
2023-08-20T11:00:00,1190A,120.294,31.56,无锡市,曹张,,29,23,33,9,16,155,91,44,44,7,17,7,8,0.7,0.7
2023-08-20T11:00:00,1191A,120.242,31.5031,无锡市,漆塘,,31,17,20,12,13,161,97,54,54,11,18,4,5,0.4,0.4
2023-08-20T11:00:00,1192A,120.3489,31.5863,无锡市,东亭,,29,24,31,14,19,163,90,42,42,14,25,5,5,0.5,0.5
2023-08-20T11:00:00,1193A,120.354,31.5475,无锡市,旺庄,,31,31,32,17,20,165,89,45,45,7,17,9,9,0.7,0.7
2023-08-20T11:00:00,1194A,120.245,31.5631,无锡市,荣巷,,30,17,25,7,14,157,96,49,49,4,13,8,9,0.5,0.5
2023-08-20T11:00:00,1195A,120.299,31.6817,无锡市,堰桥,,27,24,31,12,13,158,84,43,43,8,18,6,6,0.8,0.8
2023-08-20T11:00:00,1196A,119.9633,31.762,常州市,市监测站,,29,21,31,16,19,152,91,43,43,8,24,6,7,0.3,0.5
2023-08-20T11:00:00,1200A,119.9468,31.7069,常州市,武进监测站,,31,23,31,12,16,160,97,50,50,1,17,6,8,0.4,0.5
2023-08-20T11:00:00,1201A,119.9255,31.9087,常州市,安家,,33,26,27,15,20,161,103,54,54,12,17,6,7,0.6,0.6
2023-08-20T11:00:00,1203A,119.6707,32.1875,镇江市,新区办事处,,36,33,36,18,21,172,115,48,48,18,25,4,4,0.4,0.6
2023-08-20T11:00:00,1204A,119.4974,32.1968,镇江市,职教中心,,34,31,35,18,21,168,108,50,50,8,22,3,3,0.6,0.6
2023-08-20T11:00:00,1205A,119.4303,32.1328,镇江市,丹徒区监测站,,38,36,33,21,23,195,120,59,59,10,14,5,5,0.7,0.7
2023-08-20T11:00:00,1206A,119.905,32.4878,泰州市,公园路,,34,34,23,22,19,148,87,51,51,12,11,7,5,0.9,0.7
2023-08-20T11:00:00,1207A,119.9189,32.4625,泰州市,莲花,,32,32,24,19,16,146,82,47,47,11,10,6,4,0.8,0.6
2023-08-20T11:00:00,1209A,119.888,32.4639,泰州市,留学生创业园,,35,35,28,16,16,145,87,49,49,10,11,7,6,0.8,0.6
2023-08-20T11:00:00,1210A,119.036,33.5981,淮安市,钵池山,,24,9,15,10,12,102,75,62,50,6,11,6,6,0.9,0.9
2023-08-20T11:00:00,1211A,119.007,33.575,淮安市,北京南路,,26,24,18,11,13,115,82,63,56,9,11,8,7,0.9,0.8
2023-08-20T11:00:00,1212A,118.989,33.6067,淮安市,市监测站,,29,29,23,12,7,116,83,68,59,9,11,7,6,0.8,0.7
2023-08-20T11:00:00,1213A,119.135,33.5039,淮安市,楚州区监测站,,25,22,18,10,11,106,77,54,52,6,10,8,7,0.7,0.7
2023-08-20T11:00:00,1214A,119.0186,33.6297,淮安市,淮阴区监测站,,26,24,22,14,16,113,82,65,58,6,10,8,8,0.5,0.5
2023-08-20T11:00:00,1215A,120.118,33.4022,盐城市,盐城电厂,,26,24,20,7,11,105,81,68,66,1,4,4,4,0.5,0.5
2023-08-20T11:00:00,1216A,120.156,33.3942,盐城市,市监测站,,29,14,14,5,12,120,91,74,72,3,6,3,4,0.5,0.5
2023-08-20T11:00:00,1218A,120.2144,33.38,盐城市,开发区管委会,,25,14,17,7,11,112,79,66,66,6,8,3,4,0.3,0.4
2023-08-20T11:00:00,1220A,118.293,33.9528,宿迁市,宿迁学院,,35,25,24,15,12,136,109,59,59,7,9,10,8,0.4,0.4
2023-08-20T11:00:00,1221A,118.2442,33.9592,宿迁市,宿迁中学,,37,37,28,15,16,139,106,59,59,12,11,6,5,0.3,0.3
2023-08-20T11:00:00,1223A,120.2072,30.2111,杭州市,滨江,,25,23,25,12,13,130,77,48,47,6,13,6,6,0.5,0.5
2023-08-20T11:00:00,1224A,120.0633,30.2747,杭州市,西溪,,28,26,25,11,12,139,89,39,38,6,10,3,4,0.7,0.8
2023-08-20T11:00:00,1226A,120.3461,30.3153,杭州市,下沙,,29,29,29,15,17,156,91,47,47,8,23,4,4,0.5,0.5
2023-08-20T11:00:00,1227A,120.1269,30.2456,杭州市,卧龙桥,,28,22,23,13,12,151,89,34,34,10,13,2,3,0.4,0.4
2023-08-20T11:00:00,1228A,120.1903,30.2692,杭州市,浙江农大,,29,21,21,15,15,147,91,53,53,9,15,7,7,0.4,0.4
2023-08-20T11:00:00,1230A,120.1197,30.3119,杭州市,和睦小学,,31,24,26,16,15,162,98,56,56,12,22,7,7,0.6,0.6
2023-08-20T11:00:00,1231A,120.3019,30.4183,杭州市,临平镇,,31,28,34,15,18,158,98,49,49,9,21,5,5,0.6,0.6
2023-08-20T11:00:00,1232A,120.2697,30.1819,杭州市,城厢镇,,32,32,27,19,17,138,84,49,46,10,17,4,6,0.5,0.5
2023-08-20T11:00:00,1233A,120.0883,30.1808,杭州市,云栖,,28,28,20,10,9,138,86,30,30,10,14,6,6,0.6,0.6
2023-08-20T11:00:00,1234A,121.8358,29.911,宁波市,区环保大楼,,20,15,19,10,14,92,61,48,42,6,15,3,3,0.6,0.6
2023-08-20T11:00:00,1235A,121.56,29.82,宁波市,万里学院,,22,22,24,11,14,98,68,35,35,10,16,4,4,0.7,0.7
2023-08-20T11:00:00,1236A,121.713,29.9572,宁波市,龙赛医院,,22,14,21,11,11,92,69,48,41,4,12,6,6,0.5,0.6
2023-08-20T11:00:00,1239A,121.633,29.7733,宁波市,钱湖水厂,,26,26,21,17,12,94,57,32,32,12,7,5,5,0.7,0.6
2023-08-20T11:00:00,1240A,121.5856,29.8635,宁波市,太古小学,,,20,21,12,13,90,53,43,39,8,9,5,5,,0.9
2023-08-20T11:00:00,1241A,121.524,29.8674,宁波市,市环境监测中心,,25,25,24,13,12,95,67,51,40,8,10,5,5,0.4,0.4
2023-08-20T11:00:00,1242A,120.634,28.0089,温州市,瓯海,,28,28,30,16,15,106,59,15,15,15,28,6,6,0.6,0.6
2023-08-20T11:00:00,1243A,120.6748,27.9939,温州市,南浦,,26,26,28,15,13,108,66,18,18,10,32,6,7,0.5,0.6
2023-08-20T11:00:00,1244A,120.76,27.9747,温州市,龙湾,,30,30,30,21,16,106,62,17,17,14,40,6,6,0.5,0.6
2023-08-20T11:00:00,1245A,120.6709,28.0167,温州市,市站,,27,27,27,13,17,99,52,17,17,14,25,5,5,0.5,0.5
2023-08-20T11:00:00,1247A,120.6053,29.9928,绍兴市,城东开发委,,23,23,21,14,13,119,65,44,35,6,12,5,5,0.4,0.4
2023-08-20T11:00:00,1250A,120.0751,30.8669,湖州市,城西水厂,,30,25,31,16,17,147,96,49,49,9,16,2,3,0.5,0.5
2023-08-20T11:00:00,1252A,120.7436,30.778,嘉兴市,清河小学,,25,22,26,12,14,139,78,52,52,8,14,6,6,0.5,0.6
2023-08-20T11:00:00,1253A,120.726,30.7478,嘉兴市,嘉兴学院,,28,28,20,11,15,148,88,57,57,12,13,4,4,0.5,0.5
2023-08-20T11:00:00,1255A,121.273,28.6459,台州市,黄岩环保大楼,,25,18,26,11,17,131,77,42,37,9,14,4,4,0.5,0.6
2023-08-20T11:00:00,1256A,121.419,28.6542,台州市,台州环保大楼,,29,29,28,20,18,100,87,38,38,11,14,5,4,0.4,0.4
2023-08-20T11:00:00,1257A,121.377,28.5773,台州市,路桥田洋王,,34,28,28,17,19,114,107,34,34,13,18,2,3,0.4,0.4
2023-08-20T11:00:00,1258A,122.122,30.0203,舟山市,定海檀枫,,17,12,19,7,12,92,52,37,37,9,9,6,6,0.3,0.4
2023-08-20T11:00:00,1259A,122.3094,29.9558,舟山市,普陀东港,,20,19,18,12,12,101,61,39,39,5,9,4,4,0.4,0.4
2023-08-20T11:00:00,1260A,122.19,29.9944,舟山市,临城新区,,20,14,18,7,10,101,62,37,37,6,11,5,6,0.3,0.4
2023-08-20T11:00:00,1262A,119.647,29.077,金华市,十五中,,35,16,17,12,9,131,109,63,44,10,15,3,3,0.4,0.4
2023-08-20T11:00:00,1263A,119.686,29.1029,金华市,监测站,,33,29,25,12,14,127,103,55,32,11,20,4,4,0.5,0.5
2023-08-20T11:00:00,1264A,118.8692,28.9398,衢州市,环保大楼,,29,29,22,18,12,138,92,43,40,14,18,8,5,0.5,0.5
2023-08-20T11:00:00,1265A,118.8709,28.9666,衢州市,实验学校,,32,32,23,18,12,139,94,51,44,14,16,6,4,0.5,0.5
2023-08-20T11:00:00,1266A,118.8621,28.9808,衢州市,衢州学院,,30,27,19,12,7,134,93,49,47,15,18,5,4,0.5,0.4
2023-08-20T11:00:00,1267A,119.914,28.4514,丽水市,监测站大楼,,28,28,24,8,9,93,83,24,24,7,18,10,6,0.3,0.4
2023-08-20T11:00:00,1268A,119.93,28.4586,丽水市,莲都小学,,28,18,24,7,9,94,88,26,26,6,20,5,5,0.4,0.5
2023-08-20T11:00:00,1269A,119.879,28.4231,丽水市,余庄前,,25,7,25,4,8,88,80,21,21,5,11,5,5,0.3,0.4
2023-08-20T11:00:00,1270A,117.1959,31.7848,合肥市,明珠广场,,39,39,39,19,22,162,124,88,76,11,20,7,7,0.5,0.6
2023-08-20T11:00:00,1271A,117.3072,31.8764,合肥市,三里街,,44,44,36,29,26,145,125,125,125,16,19,6,5,0.3,0.4
2023-08-20T11:00:00,1272A,117.2588,31.8707,合肥市,琥珀山庄,,42,39,37,24,25,161,133,92,80,10,16,5,5,0.6,0.7
2023-08-20T11:00:00,1273A,117.1604,31.9052,合肥市,董铺水库,,46,46,33,22,19,154,132,94,74,11,15,14,15,0.4,0.5
2023-08-20T11:00:00,1274A,117.25,31.8571,合肥市,长江中路,,46,46,45,22,26,158,123,94,80,11,15,8,8,0.4,0.5
2023-08-20T11:00:00,1275A,117.266,31.9436,合肥市,庐阳区,,38,34,39,22,24,150,121,81,69,16,18,5,5,0.6,0.5
2023-08-20T11:00:00,1276A,117.336,31.8586,合肥市,瑶海区,颗粒物(PM10),51,51,43,20,22,146,122,80,72,10,15,5,5,0.6,0.7
2023-08-20T11:00:00,1277A,117.3027,31.7964,合肥市,包河区,,38,36,40,22,24,148,119,61,61,10,31,7,6,0.5,0.5
2023-08-20T11:00:00,1278A,117.2776,31.7385,合肥市,滨湖新区,,,39,40,22,20,156,,92,74,7,15,,6,0.6,0.7
2023-08-20T11:00:00,1279A,117.1318,31.8403,合肥市,高新区,,41,41,37,22,23,156,130,108,89,9,15,10,9,0.5,0.6
2023-08-20T11:00:00,1280A,119.3903,26.0543,福州市,鼓山,,,,,,,,,,,,,,,,
2023-08-20T11:00:00,1282A,119.2681,26.0504,福州市,师大,,21,14,15,5,4,92,65,84,60,13,11,4,4,0.3,0.3
2023-08-20T11:00:00,1283A,119.2984,26.1028,福州市,五四北路,,23,23,14,11,5,93,65,89,53,18,12,2,2,0.4,0.3
2023-08-20T11:00:00,1284A,119.2648,26.0768,福州市,杨桥西路,,22,15,17,15,4,96,59,84,51,18,12,3,3,0.3,0.2
2023-08-20T11:00:00,1285A,119.317,26.0746,福州市,紫阳,,20,20,14,6,5,90,63,89,56,14,10,3,3,0.4,0.4
2023-08-20T11:00:00,1286A,118.1608,24.8169,厦门市,溪东,,,,,,,,,,,,,,,,
2023-08-20T11:00:00,1287A,118.1514,24.4767,厦门市,洪文,,21,5,21,4,9,135,66,74,74,11,14,3,2,0.3,0.3
2023-08-20T11:00:00,1288A,118.0661,24.4444,厦门市,鼓浪屿,,,5,21,3,14,107,52,65,65,16,22,,2,,0.4
2023-08-20T11:00:00,1290A,115.8931,28.6843,南昌市,省外办,,36,36,35,19,20,131,106,79,75,12,12,12,7,1.0,0.7
2023-08-20T11:00:00,1291A,115.8886,28.7003,南昌市,省林业公司,,34,27,33,17,19,136,106,73,69,10,12,14,10,0.8,0.7
2023-08-20T11:00:00,1292A,115.8126,28.7442,南昌市,林科所,,38,31,27,19,16,150,119,74,67,4,12,13,7,0.6,0.5
2023-08-20T11:00:00,1294A,115.8518,28.687,南昌市,建工学校,,40,34,32,14,14,154,127,84,84,7,9,15,10,1.0,0.7
2023-08-20T11:00:00,1295A,115.8921,28.6424,南昌市,象湖,,36,26,33,17,22,144,114,81,81,10,12,9,8,0.6,0.6
2023-08-20T11:00:00,1296A,115.7423,28.7996,南昌市,武术学校,,38,19,18,8,17,124,120,52,52,11,9,8,6,0.4,0.4
2023-08-20T11:00:00,1298A,115.9314,28.6842,南昌市,省站,,35,35,33,13,19,145,110,88,83,8,8,16,11,1.0,0.8
2023-08-20T11:00:00,1299A,116.9862,36.6114,济南市,科干所,颗粒物(PM10),54,58,51,29,34,170,106,96,96,12,25,8,7,0.6,0.8
2023-08-20T11:00:00,1300A,116.9376,36.665,济南市,农科所,,42,42,38,24,21,172,82,46,46,17,32,9,8,0.4,0.4
2023-08-20T11:00:00,1301A,117.1265,36.6734,济南市,开发区,颗粒物(PM10),52,54,51,27,26,171,132,83,83,17,42,7,6,0.7,0.9
2023-08-20T11:00:00,1303A,117.0624,36.6868,济南市,省种子仓库,,46,46,46,22,25,165,119,43,43,11,44,6,5,0.6,0.7
2023-08-20T11:00:00,1304A,116.9489,36.6447,济南市,机床二厂,颗粒物(PM10),52,54,47,24,25,182,102,76,76,17,37,7,6,0.7,0.8
2023-08-20T11:00:00,1305A,117.0495,36.663,济南市,市监测站,,46,46,46,22,29,169,125,89,89,14,43,3,3,0.5,0.7
2023-08-20T11:00:00,1306A,116.7675,36.5484,济南市,长清党校,,39,37,49,27,30,165,106,92,92,9,20,7,7,0.4,0.5
2023-08-20T11:00:00,1307A,120.6659,36.2403,青岛市,仰口,,,,31,,25,97,69,53,53,11,6,5,5,0.6,0.7
2023-08-20T11:00:00,1310A,120.4134,36.0658,青岛市,市南区东部子站,,28,9,21,17,16,111,89,72,72,8,14,6,5,0.5,0.6
2023-08-20T11:00:00,1311A,120.3664,36.1032,青岛市,四方区子站,,31,14,21,7,14,119,98,91,80,7,10,6,5,0.5,0.6
2023-08-20T11:00:00,1312A,120.2994,36.054,青岛市,市南区西部子站,,25,14,25,5,14,109,80,64,62,18,25,8,9,0.6,0.6
2023-08-20T11:00:00,1313A,120.4581,36.0858,青岛市,崂山区子站,,30,9,20,9,19,131,96,77,73,6,11,7,7,0.3,0.4
2023-08-20T11:00:00,1314A,120.1983,35.9608,青岛市,黄岛区子站,,29,17,20,10,17,118,92,82,77,14,12,6,5,0.5,0.6
2023-08-20T11:00:00,1315A,120.3999,36.3083,青岛市,城阳区子站,,31,31,35,12,16,180,96,82,74,17,16,5,5,0.5,0.6
2023-08-20T11:00:00,1316A,113.69031,34.76122,郑州市,烟厂,颗粒物(PM10),53,56,45,23,27,168,94,97,75,19,19,2,1,0.6,0.7
2023-08-20T11:00:00,1317A,113.65724,34.77134,郑州市,郑纺机,,,54,44,,,162,96,105,82,23,21,2,2,0.9,0.9
2023-08-20T11:00:00,1318A,113.67526,34.80246,郑州市,银行学校,,,,41,24,27,162,91,94,76,,18,,2,0.6,0.6
2023-08-20T11:00:00,1319A,113.56746,34.81334,郑州市,供水公司,颗粒物(PM10),59,68,46,30,25,165,59,64,64,34,29,2,1,0.8,0.7
2023-08-20T11:00:00,1320A,113.7329,34.7178,郑州市,经开区管委,,48,48,49,24,29,161,82,70,65,11,13,3,3,0.6,0.7
2023-08-20T11:00:00,1321A,113.73961,34.77172,郑州市,四十七中,,,,,,,,,,,,,,,,
2023-08-20T11:00:00,1322A,113.60532,34.74838,郑州市,市监测站,,39,38,53,27,32,155,91,70,70,19,28,3,3,0.6,0.7
2023-08-20T11:00:00,1323A,113.64164,34.7525,郑州市,河医大,,32,32,44,22,27,153,89,68,68,12,19,3,2,0.7,0.8
2023-08-20T11:00:00,1324A,113.51488,34.91089,郑州市,岗李水库,,,,,,,,,,,,,,,,
2023-08-20T11:00:00,1325A,114.3677,30.5584,武汉市,东湖梨园,,49,38,37,17,23,218,154,137,95,13,16,10,9,0.8,0.9
2023-08-20T11:00:00,1326A,114.2529,30.558,武汉市,汉阳月湖,,46,33,37,24,19,193,147,108,90,14,22,9,9,0.8,0.7
2023-08-20T11:00:00,1327A,114.282,30.6189,武汉市,汉口花桥,,46,46,41,22,23,207,146,129,101,22,17,11,6,1.0,0.7
2023-08-20T11:00:00,1328A,114.3025,30.5332,武汉市,武昌紫阳,,49,32,38,21,22,239,156,128,96,14,18,12,10,0.9,0.8
2023-08-20T11:00:00,1329A,114.3646,30.6217,武汉市,青山钢花,,46,46,44,31,27,209,147,109,101,24,23,21,12,1.2,0.9
2023-08-20T11:00:00,1330A,114.1566,30.4825,武汉市,沌口新区,,50,43,39,26,27,235,160,127,109,17,18,9,8,0.8,0.7
2023-08-20T11:00:00,1331A,114.3014,30.5944,武汉市,汉口江滩,,50,46,39,22,21,241,160,120,108,19,18,13,8,0.9,0.7
2023-08-20T11:00:00,1333A,114.135,30.6319,武汉市,吴家山,,50,34,40,27,23,222,160,119,112,21,18,10,8,1.0,0.7
2023-08-20T11:00:00,1334A,113.8454,30.2917,武汉市,沉湖七壕,,46,34,44,17,23,211,147,78,78,15,21,8,7,0.8,0.9
2023-08-20T11:00:00,1335A,113.0833,28.2325,长沙市,经开区环保局,,43,34,39,23,26,160,135,75,75,8,12,6,5,0.5,0.5
2023-08-20T11:00:00,1336A,112.8872,28.2189,长沙市,高开区环保局,细颗粒物(PM2.5),55,58,49,39,36,201,150,79,64,10,12,6,7,0.8,0.8
2023-08-20T11:00:00,1337A,113.0792,28.2053,长沙市,马坡岭,细颗粒物(PM2.5),52,50,49,36,31,187,142,81,81,2,9,6,6,0.4,0.5
2023-08-20T11:00:00,1338A,112.9394,28.19,长沙市,湖南师范大学,,49,44,47,33,36,187,155,72,72,9,12,3,2,0.6,0.6
2023-08-20T11:00:00,1339A,113.0178,28.1322,长沙市,雨花区环保局,,43,43,45,23,27,200,137,86,86,6,16,6,6,0.6,0.5
2023-08-20T11:00:00,1340A,112.9792,28.2597,长沙市,伍家岭,颗粒物(PM10),51,52,45,31,31,189,156,78,78,12,16,3,3,0.6,0.6
2023-08-20T11:00:00,1341A,113.0014,28.1944,长沙市,火车新站,,42,35,37,29,32,170,133,79,74,9,12,4,5,0.7,0.7
2023-08-20T11:00:00,1342A,112.9844,28.1178,长沙市,天心区环保局,,44,31,39,28,26,177,140,92,92,6,13,4,3,0.6,0.6
2023-08-20T11:00:00,1343A,112.8908,28.1308,长沙市,湖南中医药大学,颗粒物(PM10),52,54,53,26,34,204,160,74,67,8,14,2,2,0.9,1
2023-08-20T11:00:00,1344A,112.9581,28.3611,长沙市,沙坪,,46,46,47,31,29,188,137,87,87,8,8,17,9,0.6,0.6
2023-08-20T11:00:00,1345A,113.2347,23.1423,广州市,广雅中学,,21,21,36,9,24,236,55,73,36,18,28,5,5,0.8,0.9
2023-08-20T11:00:00,1346A,113.2612,23.105,广州市,市五中,,30,30,35,13,25,257,47,71,39,18,21,5,5,0.7,0.8
2023-08-20T11:00:00,1348A,113.3478,23.0916,广州市,广东商学院,,40,40,43,14,23,217,23,55,23,29,26,4,4,0.8,0.8
2023-08-20T11:00:00,1349A,113.4332,23.1047,广州市,市八十六中,,28,28,38,12,21,253,22,38,18,26,28,6,5,0.8,0.8
2023-08-20T11:00:00,1350A,113.3505,22.9483,广州市,番禺中学,,24,24,27,13,18,243,37,49,34,24,20,6,5,0.8,0.8
2023-08-20T11:00:00,1351A,113.2146,23.3916,广州市,花都师范,,26,22,37,18,28,339,74,101,72,33,25,7,6,0.8,0.8
2023-08-20T11:00:00,1352A,113.2597,23.1331,广州市,市监测站,,26,26,39,13,24,254,51,75,40,20,26,6,6,0.6,0.8
2023-08-20T11:00:00,1353A,113.5618,23.312,广州市,九龙镇镇龙,,13,8,26,6,16,239,40,90,47,21,22,6,6,0.4,0.5
2023-08-20T11:00:00,1354A,113.2765,23.1544,广州市,麓湖,,22,22,34,9,23,250,45,62,34,18,25,6,6,0.7,0.7
2023-08-20T11:00:00,1355A,113.443,23.3035,广州市,帽峰山森林公园,,10,8,29,5,19,290,30,95,34,15,17,6,7,0.5,0.6
2023-08-20T11:00:00,1356A,114.1063,22.5545,深圳市,通心岭子站,,16,16,18,7,11,103,31,20,15,12,23,4,4,0.5,0.6
2023-08-20T11:00:00,1357A,114.117,22.5625,深圳市,洪湖,,15,15,22,5,11,98,28,22,15,13,23,5,5,0.7,0.8
2023-08-20T11:00:00,1358A,113.987,22.5417,深圳市,华侨城,,36,36,17,12,7,93,19,29,22,22,22,7,6,0.6,0.7
2023-08-20T11:00:00,1359A,113.9181,22.5171,深圳市,南海子站,颗粒物(PM10),60,70,38,17,16,94,15,27,20,28,25,5,5,1.0,1
2023-08-20T11:00:00,1360A,114.2458,22.5689,深圳市,盐田,,25,25,23,9,10,87,8,6,6,37,40,5,4,0.6,0.6
2023-08-20T11:00:00,1361A,114.2283,22.7244,深圳市,龙岗,,20,20,22,7,11,206,23,35,15,16,26,7,7,0.7,0.9
2023-08-20T11:00:00,1363A,114.494,22.5422,深圳市,南澳,,13,12,15,6,8,116,40,41,24,11,14,6,6,0.7,0.7
2023-08-20T11:00:00,1364A,114.41,22.6342,深圳市,葵涌,,15,11,22,7,12,104,48,26,26,6,22,4,4,0.6,0.7
2023-08-20T11:00:00,1365A,114.297,22.5978,深圳市,梅沙,,18,18,22,6,9,100,36,22,22,7,11,5,5,0.6,0.7
2023-08-20T11:00:00,1366A,114.0678,22.738,深圳市,观澜,,47,47,27,15,14,204,8,21,14,33,29,8,8,0.6,0.6
2023-08-20T11:00:00,1367A,113.5814,22.2618,珠海市,吉大,,22,14,19,15,9,81,32,53,31,13,14,4,4,0.5,0.6
2023-08-20T11:00:00,1368A,113.4881,22.2335,珠海市,前山,,16,14,18,11,11,89,35,45,34,12,15,6,7,0.3,0.4
2023-08-20T11:00:00,1369A,113.628,22.4251,珠海市,唐家,,17,17,19,4,8,111,32,51,36,7,8,4,5,0.3,0.4
2023-08-20T11:00:00,1370A,113.299,22.2281,珠海市,斗门,,17,17,15,9,10,114,38,39,36,16,12,6,7,0.5,0.6
2023-08-20T11:00:00,1371A,113.1294,23.0067,佛山市,湾梁,,22,22,25,14,20,238,62,54,43,15,16,5,5,0.4,0.5
2023-08-20T11:00:00,1372A,113.1083,23.0478,佛山市,华材职中,,25,14,29,12,22,220,80,65,43,10,18,8,8,0.3,0.4
2023-08-20T11:00:00,1373A,113.144,23.0453,佛山市,南海气象局,,24,24,33,13,23,206,53,53,38,16,20,5,5,0.6,0.6
2023-08-20T11:00:00,1374A,113.2881,22.8094,佛山市,顺德苏岗,,20,12,15,14,21,230,34,40,28,20,17,8,7,0.8,0.8
2023-08-20T11:00:00,1376A,112.8383,22.8678,佛山市,高明孔堂,,31,31,32,10,20,146,66,48,40,8,11,5,5,0.3,0.4
2023-08-20T11:00:00,1377A,112.8836,23.1588,佛山市,三水监测站,,,,43,11,32,256,62,56,28,,28,7,4,0.5,0.7
2023-08-20T11:00:00,1378A,112.867,23.185,佛山市,三水云东海,,25,25,36,9,28,268,68,51,30,13,20,9,6,0.5,0.6
2023-08-20T11:00:00,1379A,113.3769,22.5211,中山市,华柏园,,22,22,20,9,15,129,36,42,34,9,12,7,5,0.5,0.5
2023-08-20T11:00:00,1380A,113.3881,22.5497,中山市,张溪,,30,30,26,9,10,146,44,44,38,6,9,7,5,0.5,0.5
2023-08-20T11:00:00,1381A,113.4075,22.5111,中山市,紫马岭,,18,18,20,8,12,122,38,39,28,6,8,4,4,0.2,0.3
2023-08-20T11:00:00,1382A,113.4411,22.4853,中山市,长江旅游区,,,,,,,,,,,,,,,,
2023-08-20T11:00:00,1383A,113.1064,22.6058,江门市,北街,,36,36,24,15,16,131,45,35,28,11,12,6,5,0.4,0.4
2023-08-20T11:00:00,1384A,113.0731,22.5835,江门市,西区,,24,24,23,12,14,143,51,47,35,15,14,6,6,0.5,0.5
2023-08-20T11:00:00,1385A,113.0219,22.5311,江门市,圭峰西,,40,40,25,12,13,135,55,49,31,13,12,3,3,0.4,0.5
2023-08-20T11:00:00,1386A,113.0828,22.5947,江门市,东湖,,22,22,23,12,14,150,56,50,39,10,10,8,7,0.6,0.5
2023-08-20T11:00:00,1389A,113.7547,23.0494,东莞市,莞城梨川,,13,13,25,6,15,270,30,34,33,20,23,8,8,0.7,0.8
2023-08-20T11:00:00,1390A,113.7944,23.0128,东莞市,东城石井,,11,11,24,6,16,247,25,30,30,16,20,6,6,0.7,0.7
2023-08-20T11:00:00,1391A,113.7383,22.9658,东莞市,南城西平,,16,16,22,8,14,249,13,33,31,26,22,6,6,0.7,0.7
2023-08-20T11:00:00,1392A,114.4183,23.0528,惠州市,河南岸金山湖子站,,17,17,29,10,14,176,53,62,40,17,15,4,3,0.4,0.4
2023-08-20T11:00:00,1393A,114.4053,23.0822,惠州市,下埔横江三路子站,,19,19,29,10,17,194,55,67,42,9,14,4,5,0.6,0.7
2023-08-20T11:00:00,1394A,114.4103,23.1142,惠州市,江北云山西路子站,,16,14,29,7,18,202,50,68,43,6,11,4,5,0.4,0.5
2023-08-20T11:00:00,1395A,114.4645,22.7833,惠州市,惠阳区承修路船湖子站,,22,14,22,7,12,194,69,41,41,13,18,4,4,0.5,0.6
2023-08-20T11:00:00,1396A,114.5317,22.7422,惠州市,大亚湾管委会子站,,26,23,28,18,16,177,47,43,37,22,27,4,5,0.7,0.7
2023-08-20T11:00:00,1397A,112.4267,23.0706,肇庆市,睦岗子站,,30,30,38,16,25,167,65,98,28,14,17,21,16,0.5,0.5
2023-08-20T11:00:00,1398A,112.4645,23.0475,肇庆市,城中子站,,30,30,35,19,25,163,64,58,26,12,18,18,18,0.6,0.6
2023-08-20T11:00:00,1399A,112.5544,23.1522,肇庆市,坑口子站,,25,25,42,14,31,170,53,81,28,20,19,9,8,0.4,0.4
2023-08-20T11:00:00,1400A,112.4753,23.1,肇庆市,七星岩子站,,,,,,,,,,,,,,,,
2023-08-20T11:00:00,1401A,108.3103,22.7881,南宁市,二十一中,,20,20,35,14,21,89,58,26,26,7,21,4,5,0.7,0.8
2023-08-20T11:00:00,1402A,108.3141,22.8528,南宁市,北湖,,31,31,35,16,25,96,52,28,28,8,17,5,6,0.8,0.8
2023-08-20T11:00:00,1403A,108.3206,22.8225,南宁市,市监测站,,27,27,32,15,24,91,52,33,33,10,25,6,9,0.6,0.7
2023-08-20T11:00:00,1404A,108.3829,22.8037,南宁市,大自然花园,,21,21,31,10,20,80,54,27,27,6,19,5,5,0.7,0.8
2023-08-20T11:00:00,1405A,108.4394,22.7904,南宁市,仙葫,,24,24,25,8,15,74,52,32,32,9,18,4,4,0.7,0.7
2023-08-20T11:00:00,1406A,108.2397,22.8467,南宁市,区农职院,,48,48,32,27,16,120,31,27,23,26,21,9,11,0.8,0.6
2023-08-20T11:00:00,1407A,108.3275,22.735,南宁市,英华嘉园,,23,23,34,11,18,67,48,22,17,10,23,5,6,0.5,0.6
2023-08-20T11:00:00,1408A,108.2257,22.7757,南宁市,沙井镇街道办,,,40,29,13,16,79,39,30,16,,18,4,7,0.8,0.7
2023-08-20T11:00:00,1409A,110.576,19.9507,海口市,东寨港,,,,,,,,,,,,,,,,
2023-08-20T11:00:00,1410A,110.3232,20.0574,海口市,海南大学,,19,19,19,7,12,85,53,43,43,7,12,6,6,0.4,0.5
2023-08-20T11:00:00,1411A,110.283,20.0053,海口市,秀英海南医院,,,9,22,7,12,88,54,26,18,7,25,6,6,,0.3
2023-08-20T11:00:00,1412A,110.338,19.9969,海口市,海南师范大学,,18,18,26,9,18,97,47,33,33,6,12,7,8,0.4,0.4
2023-08-20T11:00:00,1413A,110.33,20.0356,海口市,龙华路环保局宿舍,,16,16,18,7,11,86,47,39,39,8,11,7,7,0.3,0.3
2023-08-20T11:00:00,1414A,106.3787,29.8279,重庆市,缙云山,颗粒物(PM10),51,52,49,22,20,176,94,133,95,13,9,10,9,0.4,0.3
2023-08-20T11:00:00,1416A,106.4213,29.8253,重庆市,天生,,43,43,57,20,28,152,92,74,57,14,18,7,6,1.0,0.9
2023-08-20T11:00:00,1417A,106.6263,29.7228,重庆市,两路,,40,33,41,18,29,279,125,107,84,16,20,8,7,1.0,1
2023-08-20T11:00:00,1418A,106.2953,29.5983,重庆市,虎溪,颗粒物(PM10),51,52,52,31,35,160,106,87,72,24,22,8,5,0.9,0.7
2023-08-20T11:00:00,1419A,106.5777,29.5102,重庆市,南坪,,46,46,52,29,30,203,105,84,74,18,18,10,8,0.9,0.8
2023-08-20T11:00:00,1420A,106.6556,29.6277,重庆市,唐家沱,,41,29,46,25,28,291,131,110,87,17,18,8,7,0.6,0.6
2023-08-20T11:00:00,1421A,106.6349,29.4906,重庆市,茶园,,45,45,54,31,25,248,104,89,70,33,24,9,6,1.0,0.8
2023-08-20T11:00:00,1422A,106.3754,29.4572,重庆市,白市驿,,,,,,,,,,,,,,,,
2023-08-20T11:00:00,1425A,106.6205,29.7166,重庆市,空港,,42,34,52,13,26,284,132,120,101,11,17,8,8,0.9,0.9
2023-08-20T11:00:00,1426A,106.4782,29.4875,重庆市,新山村,颗粒物(PM10),52,53,56,15,25,177,108,83,72,25,22,12,9,0.7,0.6
2023-08-20T11:00:00,1427A,106.5616,29.6453,重庆市,礼嘉,,44,44,51,20,25,228,99,83,64,21,20,9,9,0.9,0.9
2023-08-20T11:00:00,1428A,106.4522,29.7091,重庆市,蔡家,,49,49,59,25,31,173,101,95,59,18,20,6,6,0.8,0.8
2023-08-20T11:00:00,1429A,106.5093,29.3917,重庆市,鱼新街,,46,42,47,32,28,172,86,76,52,28,30,9,7,1.1,1
2023-08-20T11:00:00,1431A,103.9728,30.7236,成都市,金泉两河,,18,18,39,6,18,119,57,56,56,12,16,4,4,0.4,0.4
2023-08-20T11:00:00,1432A,104.176,30.6872,成都市,十里店,,25,25,36,14,15,95,66,68,60,13,19,3,4,0.4,0.5
2023-08-20T11:00:00,1433A,104.079,30.5706,成都市,三瓦窑,,23,23,40,5,16,105,51,76,56,21,22,2,2,0.5,0.3
2023-08-20T11:00:00,1434A,104.1114,30.63,成都市,沙河铺,,29,29,41,12,16,97,52,72,52,15,21,2,3,0.5,0.4
2023-08-20T11:00:00,1437A,104.0786,30.6531,成都市,君平街,,31,31,48,17,20,135,65,62,60,17,21,3,2,0.6,0.5
2023-08-20T11:00:00,1438A,103.613,31.0283,成都市,灵岩寺,,20,16,24,11,14,97,61,85,83,3,5,8,9,0.8,0.7
2023-08-20T11:00:00,1439A,106.6899,26.5998,贵阳市,马鞍山,,41,41,30,17,14,136,112,47,44,11,11,5,5,0.6,0.6
2023-08-20T11:00:00,1440A,106.6971,26.5694,贵阳市,市环保站,,42,41,36,29,26,155,114,105,75,23,24,5,5,0.3,0.3
2023-08-20T11:00:00,1441A,106.6243,26.6266,贵阳市,鉴湖路,,39,39,34,24,17,136,111,101,82,11,12,5,4,0.6,0.5
2023-08-20T11:00:00,1442A,106.7487,26.6343,贵阳市,燕子冲,,35,34,33,22,22,137,111,62,52,15,11,7,5,0.7,0.6
2023-08-20T11:00:00,1443A,106.6555,26.4365,贵阳市,碧云窝,,39,39,47,19,25,158,104,38,35,5,14,7,5,0.7,0.7
2023-08-20T11:00:00,1444A,106.694,26.5161,贵阳市,中院村,,48,48,49,27,29,144,92,35,35,11,31,5,7,0.4,0.5
2023-08-20T11:00:00,1445A,106.7109,26.6027,贵阳市,红边门,细颗粒物(PM2.5),55,36,39,39,27,145,111,71,70,13,15,6,5,0.6,0.6
2023-08-20T11:00:00,1446A,106.7164,26.5699,贵阳市,新华路,,39,34,41,27,23,150,116,68,68,7,14,7,7,0.5,0.4
2023-08-20T11:00:00,1447A,106.674,26.5424,贵阳市,太慈桥,,34,24,28,19,19,137,107,39,34,8,17,4,4,0.5,0.5
2023-08-20T11:00:00,1450A,102.8204,24.8886,昆明市,呈贡新区,,39,39,37,16,22,145,74,58,58,17,23,7,6,0.7,0.7
2023-08-20T11:00:00,1451A,102.6251,24.9608,昆明市,西山森林公园,,30,13,14,10,11,136,94,71,70,6,9,7,6,0.7,0.5
2023-08-20T11:00:00,1452A,102.7252,25.0902,昆明市,龙泉镇,,22,22,25,11,15,164,65,67,60,12,12,7,8,0.6,0.6
2023-08-20T11:00:00,1453A,102.7266,25.0375,昆明市,东风东路,,31,31,30,15,16,158,76,66,58,18,21,8,7,0.4,0.4
2023-08-20T11:00:00,1454A,102.6742,25.0669,昆明市,金鼎山,,40,40,31,16,14,145,59,68,57,17,12,4,7,0.5,0.5
2023-08-20T11:00:00,1455A,102.6644,25.0401,昆明市,碧鸡广场,,39,38,26,27,14,150,68,82,69,23,14,7,7,0.6,0.6
2023-08-20T11:00:00,1456A,91.1319,29.6514,拉萨市,八廓街,,31,6,13,6,7,125,99,99,99,2,4,6,7,0.2,0.2
2023-08-20T11:00:00,1457A,91.1221,29.6747,拉萨市,市环保局,,28,2,11,7,7,116,88,95,86,14,13,6,6,0.2,0.2
2023-08-20T11:00:00,1458A,91.0874,29.6475,拉萨市,区监测站,,28,4,11,7,6,112,88,93,89,17,11,8,8,0.2,0.2
2023-08-20T11:00:00,1459A,91.1774,29.6541,拉萨市,西藏大学,,31,4,8,5,6,121,98,97,97,5,6,7,7,0.3,0.2
2023-08-20T11:00:00,1460A,90.9798,29.6588,拉萨市,区辐射站,,24,7,12,8,6,115,74,95,86,26,9,9,10,0.2,0.1
2023-08-20T11:00:00,1461A,91.0834,29.6292,拉萨市,拉萨火车站,,29,6,14,5,6,112,92,95,93,7,7,10,11,0.2,0.2
2023-08-20T11:00:00,1462A,108.882,34.2749,西安市,高压开关厂,,22,22,62,10,22,225,67,89,80,19,21,10,11,0.5,0.5
2023-08-20T11:00:00,1463A,108.993,34.2629,西安市,兴庆小区,,26,23,51,14,20,194,56,77,66,11,13,5,8,2.6,0.9
2023-08-20T11:00:00,1464A,109.06,34.2572,西安市,纺织城,,25,25,60,15,27,193,67,68,68,19,26,3,5,0.6,0.6
2023-08-20T11:00:00,1465A,108.9356,34.2173,西安市,小寨,,34,34,58,11,20,223,72,84,77,6,14,6,8,0.4,0.4
2023-08-20T11:00:00,1466A,108.954,34.2713,西安市,市人民体育场,,26,26,61,15,22,203,55,74,59,14,16,5,8,0.6,0.6
2023-08-20T11:00:00,1467A,108.8922,34.2322,西安市,高新西区,,22,22,50,14,21,235,69,88,76,9,15,7,9,0.5,0.5
2023-08-20T11:00:00,1468A,108.935,34.3474,西安市,经开区,,19,15,56,10,23,187,58,73,68,9,15,2,4,0.5,0.4
2023-08-20T11:00:00,1469A,108.906,34.1546,西安市,长安区,,27,18,56,12,21,241,85,90,84,8,15,4,6,0.5,0.5
2023-08-20T11:00:00,1471A,109.2186,34.3731,西安市,临潼区,,25,24,62,17,26,171,66,90,58,12,18,4,7,0.4,0.4
2023-08-20T11:00:00,1472A,108.869,34.378,西安市,草滩,,19,14,51,8,13,225,41,61,59,38,29,12,14,0.5,0.5
2023-08-20T11:00:00,1473A,108.985,34.1978,西安市,曲江文化产业集团,,28,28,55,13,22,219,80,87,79,15,19,4,6,0.5,0.5
2023-08-20T11:00:00,1474A,109.051,34.3213,西安市,广运潭,,23,23,55,16,24,181,59,64,61,14,17,6,9,0.5,0.5
2023-08-20T11:00:00,1476A,103.631,36.1031,兰州市,兰炼宾馆,臭氧1小时,128,53,45,29,28,256,256,88,88,43,37,7,11,0.4,0.4
2023-08-20T11:00:00,1477A,104.1373,35.9454,兰州市,榆中兰大校区,,,,,,,,,,,,,,,,
2023-08-20T11:00:00,1478A,103.8412,36.0726,兰州市,生物制品所,颗粒物(PM10),59,68,62,37,32,100,60,16,16,70,61,15,10,1.6,1.1
2023-08-20T11:00:00,1479A,103.831,36.0464,兰州市,铁路设计院,颗粒物(PM10),58,65,55,39,29,92,63,18,18,74,70,15,15,1.6,1.2
2023-08-20T11:00:00,1483A,101.524,36.6867,西宁市,第五水厂,,,,,,,,,,,,,,,,
2023-08-20T11:00:00,1484A,105.9512,38.6016,银川市,贺兰山马莲口,,36,28,23,9,8,205,114,136,107,20,9,14,11,0.3,0.2
2023-08-20T11:00:00,1488A,106.2328,38.4975,银川市,贺兰山东路,,48,48,46,13,16,266,139,108,108,17,35,8,13,0.5,0.6
2023-08-20T11:00:00,1489A,106.1358,38.5036,银川市,学院路,,44,44,50,10,17,279,136,93,93,10,29,12,15,0.8,0.7
2023-08-20T11:00:00,1490A,87.5801,43.8303,乌鲁木齐市,监测站,颗粒物(PM10),60,70,48,16,13,102,27,20,20,43,40,4,5,0.8,0.8
2023-08-20T11:00:00,1491A,87.6046,43.768,乌鲁木齐市,收费所,,45,45,48,17,16,108,48,21,21,44,43,1,5,0.4,0.3
2023-08-20T11:00:00,1492A,87.4754,43.9469,乌鲁木齐市,新疆农科院农场,颗粒物(PM10),55,59,69,24,25,130,64,17,17,27,45,6,4,0.7,0.7
2023-08-20T11:00:00,1493A,87.5525,43.8711,乌鲁木齐市,铁路局,颗粒物(PM10),57,64,58,20,18,144,47,25,25,54,46,5,5,0.6,0.6
2023-08-20T11:00:00,1494A,87.6432,43.831,乌鲁木齐市,三十一中学,颗粒物(PM10),53,56,43,16,15,156,46,80,43,47,26,5,5,0.7,0.6
2023-08-20T11:00:00,1496A,87.7216,44.1747,乌鲁木齐市,米东区环保局,颗粒物(PM10),61,72,47,22,21,166,90,50,37,11,23,16,9,0.4,0.3
2023-08-20T11:00:00,1508A,112.9433,27.8614,湘潭市,板塘,颗粒物(PM10),56,61,50,34,32,192,149,90,90,15,16,10,5,0.7,0.7
2023-08-20T11:00:00,1511A,112.9118,27.8403,湘潭市,市监测站,颗粒物(PM10),51,51,45,35,31,223,155,93,90,14,12,8,5,0.9,0.8
2023-08-20T11:00:00,1512A,112.8937,27.8728,湘潭市,江麓,细颗粒物(PM2.5),54,47,55,38,33,212,155,82,74,16,15,9,7,0.5,0.4
2023-08-20T11:00:00,1513A,112.9227,27.8159,湘潭市,岳塘,颗粒物(PM10),54,57,51,34,33,188,148,94,74,14,17,8,6,0.6,0.6
2023-08-20T11:00:00,1514A,112.9074,27.9119,湘潭市,科大,,47,46,55,31,33,190,149,73,66,11,14,8,6,0.6,0.6
2023-08-20T11:00:00,1515A,113.135,27.8244,株洲市,天台山庄,细颗粒物(PM2.5),53,46,50,37,31,191,137,101,90,7,13,7,5,0.7,0.6
2023-08-20T11:00:00,1518A,113.095,27.8867,株洲市,株冶医院,,49,45,53,34,30,175,145,92,78,10,16,6,5,0.8,0.7
2023-08-20T11:00:00,1519A,113.167,27.8667,株洲市,市四中,,46,46,49,28,29,192,131,95,78,6,12,9,7,0.6,0.5
2023-08-20T11:00:00,1520A,113.143,27.8381,株洲市,火车站,颗粒物(PM10),51,52,51,30,30,193,128,106,81,3,11,10,9,0.7,0.6
2023-08-20T11:00:00,1524A,113.13,27.8528,株洲市,市监测站,细颗粒物(PM2.5),60,50,54,43,36,192,143,97,89,8,13,9,7,1.0,0.9
2023-08-20T11:00:00,1552A,106.805,26.3003,贵阳市,桐木岭,,,,,,,,,,,,,,,,
2023-08-20T11:00:00,1559A,113.251,27.8336,株洲市,大京风景区,,48,48,41,28,26,145,111,60,49,3,5,8,7,0.6,0.6
2023-08-20T11:00:00,1562A,113.0048,27.9153,湘潭市,昭山,,48,46,47,26,30,182,152,75,75,9,20,5,5,0.8,0.7
2023-08-20T11:00:00,1564A,112.4876,27.9164,湘潭市,韶山,颗粒物(PM10),53,56,46,23,23,147,118,70,57,8,8,9,6,0.4,0.4
2023-08-20T11:00:00,1585A,109.8756,40.6532,包头市,市环境监测站,颗粒物(PM10),54,58,40,19,15,148,116,46,46,25,46,22,15,0.7,0.8
2023-08-20T11:00:00,1587A,109.9991,40.5842,包头市,包头八中,颗粒物(PM10),65,80,66,24,20,145,112,49,49,29,45,26,24,0.7,0.7
2023-08-20T11:00:00,1588A,109.8538,40.6821,包头市,青山宾馆,颗粒物(PM10),53,56,47,20,18,146,108,34,34,29,53,23,11,0.8,0.8
2023-08-20T11:00:00,1589A,109.8642,40.6288,包头市,惠龙物流,颗粒物(PM10),54,57,43,21,16,148,116,48,48,26,43,22,15,0.6,0.6
2023-08-20T11:00:00,1590A,110.0377,40.5546,包头市,东河鸿龙湾,颗粒物(PM10),52,53,43,12,14,144,112,53,53,22,31,20,17,0.8,0.8
2023-08-20T11:00:00,1591A,110.0023,39.8129,鄂尔多斯市,综合楼,,,,89,,20,141,117,86,79,38,35,18,14,0.8,0.7
2023-08-20T11:00:00,1592A,109.9486,39.8261,鄂尔多斯市,巴音孟克林场办事处,颗粒物(PM10),63,75,71,19,19,152,133,106,96,30,29,16,16,0.6,0.6
2023-08-20T11:00:00,1593A,109.7736,39.5986,鄂尔多斯市,康泽苑,颗粒物(PM10),52,53,54,14,15,143,134,109,49,16,30,11,10,0.5,0.5
2023-08-20T11:00:00,1594A,109.8119,39.5989,鄂尔多斯市,华泰汽车城,颗粒物(PM10),62,73,58,24,17,136,122,34,34,20,44,12,8,0.9,0.9
2023-08-20T11:00:00,1595A,109.9734,39.7884,鄂尔多斯市,奥林花园,颗粒物(PM10),57,63,79,22,22,138,116,57,57,26,43,15,12,0.7,0.8
2023-08-20T11:00:00,1597A,122.2703,40.7094,营口市,大庆路,,43,43,44,28,35,227,120,78,61,11,16,11,9,0.9,1.1
2023-08-20T11:00:00,1598A,122.2150,40.6511,营口市,镜湖西路,,43,43,41,30,28,228,117,92,68,10,10,7,7,0.8,0.8
2023-08-20T11:00:00,1599A,122.1658,40.6789,营口市,西炮台,,,45,45,12,25,216,102,102,67,,12,8,6,0.7,0.8
2023-08-20T11:00:00,1600A,124.3303,40.0625,丹东市,江湾东路,,45,40,34,31,25,154,44,29,29,8,11,5,6,1.0,0.8
2023-08-20T11:00:00,1601A,124.4256,40.1503,丹东市,临江后街,,43,43,36,27,22,136,47,28,28,5,9,5,5,0.8,0.8
2023-08-20T11:00:00,1602A,124.3933,40.1461,丹东市,元宝山,,41,41,34,26,22,129,43,23,23,12,11,6,6,1.0,0.8
2023-08-20T11:00:00,1603A,124.3633,40.1092,丹东市,民主桥,,45,45,34,25,20,152,44,33,27,10,11,5,4,1.1,0.7
2023-08-20T11:00:00,1604A,122.0303,41.1489,盘锦市,开发区,颗粒物(PM10),52,54,57,22,36,170,114,69,69,15,22,5,5,0.8,0.8
2023-08-20T11:00:00,1605A,122.0485,41.0883,盘锦市,兴隆台,,45,29,55,31,39,168,120,106,67,11,22,4,4,0.8,0.9
2023-08-20T11:00:00,1606A,121.8297,41.1028,盘锦市,新生街道,,,,,,,,,,,,,,,,
2023-08-20T11:00:00,1607A,120.9092,40.7136,葫芦岛市,龙港区,细颗粒物(PM2.5),119,50,62,90,52,171,142,63,63,8,17,20,34,0.8,1
2023-08-20T11:00:00,1608A,120.8392,40.7514,葫芦岛市,化工街,细颗粒物(PM2.5),57,61,64,40,42,149,132,48,48,2,22,14,13,0.7,0.7
2023-08-20T11:00:00,1609A,120.8341,40.7073,葫芦岛市,新区,细颗粒物(PM2.5),72,52,59,52,49,148,123,59,59,7,20,14,14,1.0,1
2023-08-20T11:00:00,1610A,120.8695,40.7677,葫芦岛市,东城区,颗粒物(PM10),67,83,61,36,34,151,118,59,46,19,33,33,19,1.0,0.9
2023-08-20T11:00:00,1611A,118.5819,24.9117,泉州市,涂山街,,28,7,16,5,8,130,89,84,84,14,9,4,4,1.0,0.8
2023-08-20T11:00:00,1612A,118.5972,24.8978,泉州市,津头埔,,27,12,16,13,10,129,86,84,84,19,15,4,4,0.6,0.6
2023-08-20T11:00:00,1613A,118.6663,24.9424,泉州市,万安,,32,9,17,9,10,138,102,93,93,10,12,2,2,0.6,0.6
2023-08-20T11:00:00,1614A,118.6117,24.9604,泉州市,清源山,,,,,,,,,,,,,,,,
2023-08-20T11:00:00,1616A,117.6795,36.229,济南市,技术学院,,41,41,47,23,25,209,114,94,64,16,20,9,8,1.1,1
2023-08-20T11:00:00,1618A,118.3429,35.0532,临沂市,沂河小区,,34,34,36,16,21,151,106,56,56,9,12,5,5,0.3,0.4
2023-08-20T11:00:00,1619A,118.295,35.0583,临沂市,鲁南制药厂,,35,24,28,14,17,159,109,68,68,4,6,4,3,0.2,0.3
2023-08-20T11:00:00,1620A,118.2794,34.9976,临沂市,新光毛纺厂,,30,22,24,14,18,146,94,60,60,2,9,5,5,0.4,0.5
2023-08-20T11:00:00,1621A,118.3956,35.0888,临沂市,河东保险公司,,27,19,28,14,21,142,85,40,40,3,13,2,3,0.3,0.4
2023-08-20T11:00:00,1622A,116.3032,37.4674,德州市,儿童乐园,,48,48,57,31,38,179,142,97,92,8,20,8,10,1.0,1
2023-08-20T11:00:00,1624A,116.2991,37.4451,德州市,监理站,颗粒物(PM10),56,61,55,34,37,163,133,91,53,12,24,9,7,0.7,0.8
2023-08-20T11:00:00,1625A,115.9848,36.4372,聊城市,区政府,颗粒物(PM10),56,62,48,31,29,168,98,73,73,10,18,7,4,0.6,0.7
2023-08-20T11:00:00,1628A,118.0062,37.3803,滨州市,市环保局,细颗粒物(PM2.5),64,75,60,46,40,201,134,95,82,22,18,14,6,0.9,0.6
2023-08-20T11:00:00,1629A,118.0018,37.3617,滨州市,第二水厂,细颗粒物(PM2.5),63,66,56,45,39,220,132,88,80,25,19,12,8,1.0,0.8
2023-08-20T11:00:00,1630A,117.9776,37.393,滨州市,北中新校,颗粒物(PM10),67,83,65,44,42,214,144,107,77,20,19,14,5,1.0,0.7
2023-08-20T11:00:00,1631A,118.0414,36.8103,淄博市,人民公园,颗粒物(PM10),56,61,54,27,34,232,118,76,76,29,30,15,11,0.6,0.6
2023-08-20T11:00:00,1633A,117.8525,36.4847,淄博市,双山,,45,36,39,24,26,193,141,114,88,10,15,15,12,1.1,0.8
2023-08-20T11:00:00,1634A,117.9592,36.6331,淄博市,气象站,,39,38,44,27,33,207,123,89,89,12,17,9,9,0.4,0.4
2023-08-20T11:00:00,1635A,118.3092,36.8194,淄博市,莆田园,颗粒物(PM10),69,88,60,46,36,230,152,94,94,36,32,17,14,1.4,1.1
2023-08-20T11:00:00,1637A,117.558,34.8438,枣庄市,市中区政府,颗粒物(PM10),53,56,47,27,25,168,105,60,60,19,19,20,14,0.3,0.3
2023-08-20T11:00:00,1638A,117.2852,34.7837,枣庄市,薛城环保局,颗粒物(PM10),52,54,52,28,24,159,100,65,59,22,21,13,12,0.6,0.6
2023-08-20T11:00:00,1639A,117.5852,34.7745,枣庄市,峄城区政府,,39,39,46,19,22,169,110,63,63,9,14,11,13,0.5,0.6
2023-08-20T11:00:00,1640A,117.7276,34.5578,枣庄市,台儿庄区环保局,,41,41,39,19,22,140,96,52,46,10,17,9,9,0.6,0.6
2023-08-20T11:00:00,1641A,117.4518,35.0992,枣庄市,山亭区环保局,,34,24,36,17,23,176,108,79,71,7,10,7,8,0.2,0.3
2023-08-20T11:00:00,1642A,121.2514,37.5639,烟台市,开发区,,41,41,35,24,23,197,86,71,66,14,11,8,6,0.9,0.9
2023-08-20T11:00:00,1643A,121.3719,37.5433,烟台市,轴承厂,,31,31,36,20,27,179,90,70,66,9,10,5,5,0.5,0.6
2023-08-20T11:00:00,1644A,121.3181,37.5436,烟台市,西郊化工站,,29,29,33,15,31,173,84,75,75,9,8,6,5,0.3,0.4
2023-08-20T11:00:00,1645A,121.4478,37.4822,烟台市,莱山环保局,,29,29,27,14,20,186,88,70,70,7,6,6,5,0.7,0.6
2023-08-20T11:00:00,1646A,121.2611,37.4967,烟台市,福山环保局,,31,31,36,9,15,153,72,65,52,10,13,7,7,0.5,0.6
2023-08-20T11:00:00,1650A,119.1437,36.7023,潍坊市,环保局,,31,27,40,17,28,196,98,66,59,10,12,9,9,0.5,0.7
2023-08-20T11:00:00,1653A,116.6251,35.4302,济宁市,火炬城,,40,40,46,19,25,189,91,81,57,10,11,12,9,0.7,0.7
2023-08-20T11:00:00,1655A,116.5491,35.4042,济宁市,电化厂,,29,29,48,19,27,187,89,92,62,4,10,11,11,0.6,0.7
2023-08-20T11:00:00,1656A,117.1437,36.1937,泰安市,监测站,,48,48,55,31,37,182,110,82,70,7,12,10,10,0.5,0.5
2023-08-20T11:00:00,1657A,117.0885,36.2017,泰安市,人口学校,,44,44,42,19,27,195,111,116,74,9,12,10,9,0.5,0.5
2023-08-20T11:00:00,1658A,117.1089,36.1758,泰安市,电力学校,,48,48,52,25,33,199,110,95,71,8,12,9,8,0.4,0.4
2023-08-20T11:00:00,1659A,119.471,35.4209,日照市,监测站,,25,14,23,7,15,118,79,63,40,8,17,5,5,0.6,0.6
2023-08-20T11:00:00,1660A,119.523,35.4216,日照市,市政府广场,,29,5,20,7,12,134,91,83,83,2,5,8,8,0.5,0.6
2023-08-20T11:00:00,1661A,119.5587,35.4044,日照市,港务局,,28,17,23,12,14,125,88,91,91,12,6,7,7,0.7,0.7
2023-08-20T11:00:00,1662A,122.1214,37.4236,威海市,华夏技校,,32,29,28,22,20,169,83,81,74,13,9,4,4,0.4,0.4
2023-08-20T11:00:00,1663A,122.0508,37.5236,威海市,山大分校,,30,24,28,20,21,174,93,85,80,1,4,7,7,0.5,0.5
2023-08-20T11:00:00,1664A,122.1067,37.5072,威海市,市监测站,,29,20,25,20,27,165,80,85,71,11,8,8,8,0.6,0.6
2023-08-20T11:00:00,1666A,118.6614,37.4309,东营市,市环保局,颗粒物(PM10),51,51,47,29,36,183,95,76,53,14,12,12,7,0.8,0.5
2023-08-20T11:00:00,1669A,113.5824,24.7733,韶关市,市八中,颗粒物(PM10),54,58,42,22,22,149,118,55,55,20,15,21,15,0.8,0.7
2023-08-20T11:00:00,1671A,113.5917,24.7972,韶关市,园林处,颗粒物(PM10),51,51,39,25,26,144,101,43,43,17,10,20,17,1.0,0.9
2023-08-20T11:00:00,1672A,113.6735,24.7791,韶关市,韶关学院,颗粒物(PM10),54,58,39,36,25,140,89,39,33,14,10,24,12,1.3,0.7
2023-08-20T11:00:00,1673A,113.5971,24.6863,韶关市,曲江监测站,,50,50,44,21,23,167,108,43,43,15,16,11,11,0.7,0.8
2023-08-20T11:00:00,1674A,116.6794,23.3667,汕头市,金平子站,,25,25,17,10,8,138,42,54,36,11,12,4,5,0.6,0.6
2023-08-20T11:00:00,1675A,116.7244,23.3633,汕头市,龙湖子站,,17,17,18,7,9,146,46,56,44,12,15,5,5,0.7,0.7
2023-08-20T11:00:00,1676A,116.7258,23.2775,汕头市,濠江子站,,21,21,18,10,10,139,35,35,18,16,23,9,9,0.4,0.5
2023-08-20T11:00:00,1677A,116.7519,23.4714,汕头市,澄海子站,,26,26,22,8,11,144,58,60,48,17,15,6,5,0.8,0.8
2023-08-20T11:00:00,1678A,116.6092,23.2539,汕头市,潮阳子站,,18,18,19,12,11,138,44,71,33,10,12,9,9,0.6,0.6
2023-08-20T11:00:00,1680A,110.3539,21.2706,湛江市,湛江影剧院,,29,29,24,12,12,73,58,32,32,11,14,10,12,0.6,0.7
2023-08-20T11:00:00,1681A,110.3928,21.2228,湛江市,市环境监测站,,28,28,22,10,12,66,56,32,32,9,16,9,10,0.7,0.6
2023-08-20T11:00:00,1682A,110.4019,21.1997,湛江市,环保局宿舍,,19,17,21,11,10,67,58,30,30,8,16,5,7,0.6,0.5
2023-08-20T11:00:00,1683A,110.4111,21.2028,湛江市,霞山游泳场,,19,14,30,9,12,69,58,31,26,10,16,6,9,0.6,0.6
2023-08-20T11:00:00,1684A,110.3316,21.2679,湛江市,麻章区环保局,,29,29,31,17,17,67,52,18,18,12,18,7,8,0.7,0.7
2023-08-20T11:00:00,1685A,110.4558,21.2567,湛江市,坡头区环保局,,20,9,20,11,15,77,64,34,33,5,13,6,12,0.5,0.5
2023-08-20T11:00:00,1686A,111.0286,21.4688,茂名市,电白南海,,20,17,23,14,14,91,60,35,30,6,10,7,7,0.5,0.5
2023-08-20T11:00:00,1687A,110.9294,21.6533,茂名市,茂石化七小,,34,34,20,14,12,88,46,41,34,7,9,6,8,0.6,0.5
2023-08-20T11:00:00,1688A,110.9107,21.6687,茂名市,健康路,,22,22,18,7,9,95,53,46,32,6,8,4,6,0.4,0.4
2023-08-20T11:00:00,1689A,110.8592,21.6828,茂名市,高岭,,34,34,35,19,21,114,62,29,29,6,14,5,9,0.7,0.7
2023-08-20T11:00:00,1690A,116.1231,24.3284,梅州市,梅江月梅,,17,17,26,11,14,116,51,48,42,5,11,1,2,0.8,0.8
2023-08-20T11:00:00,1691A,116.0797,24.2719,梅州市,梅县新城,,24,24,25,13,14,118,56,55,50,12,13,4,4,0.8,0.8
2023-08-20T11:00:00,1692A,116.1248,24.2654,梅州市,环境监控中心,,32,32,25,15,15,117,60,74,53,12,11,10,8,0.6,0.6
2023-08-20T11:00:00,1693A,115.3653,22.775,汕尾市,市环保局,,25,25,15,6,8,124,52,70,51,6,8,3,2,0.6,0.6
2023-08-20T11:00:00,1694A,115.3706,22.7898,汕尾市,市政府,,29,29,14,13,10,125,67,70,41,4,7,4,4,0.6,0.6
2023-08-20T11:00:00,1695A,115.3622,22.7925,汕尾市,新城中学,,21,21,22,10,10,116,50,65,46,3,6,6,6,0.6,0.6
2023-08-20T11:00:00,1696A,114.6778,23.7569,河源市,源西,,22,20,31,13,20,145,68,76,42,5,11,4,4,0.8,0.8
2023-08-20T11:00:00,1697A,114.6944,23.7586,河源市,东埔,,23,20,33,11,19,146,72,79,65,6,8,5,5,0.6,0.6
2023-08-20T11:00:00,1698A,114.6892,23.7233,河源市,老城,,24,10,35,13,17,152,75,90,67,6,7,4,4,0.8,0.8
2023-08-20T11:00:00,1699A,111.9797,21.8593,阳江市,鸳鸯湖,,28,28,21,9,7,79,65,21,18,7,14,8,8,0.7,0.8
2023-08-20T11:00:00,1701A,111.9491,21.8658,阳江市,马南垌,,31,31,28,12,11,83,64,25,25,13,12,5,5,0.6,0.6
2023-08-20T11:00:00,1702A,113.0426,23.691,清远市,环保大楼,,35,22,30,24,24,210,84,110,84,12,10,8,7,0.4,0.5
2023-08-20T11:00:00,1703A,113.0208,23.7106,清远市,凤城街办,,31,31,38,21,26,193,84,113,80,11,10,6,6,0.6,0.6
2023-08-20T11:00:00,1705A,116.6367,23.6719,潮州市,西园路,,17,8,26,11,17,152,54,55,38,15,12,4,5,0.4,0.4
2023-08-20T11:00:00,1706A,116.6447,23.6706,潮州市,档案局,,21,21,26,9,15,155,52,55,39,16,12,5,7,0.3,0.4
2023-08-20T11:00:00,1708A,116.3701,23.5345,揭阳市,新兴,,43,43,42,22,23,148,55,33,33,9,15,6,7,0.8,0.9
2023-08-20T11:00:00,1709A,116.3264,23.5443,揭阳市,西马,,47,47,43,21,24,149,55,28,26,14,19,5,6,0.8,0.9
2023-08-20T11:00:00,1710A,116.3611,23.5626,揭阳市,东兴,,41,41,50,18,21,147,60,20,20,14,24,3,4,0.8,1
2023-08-20T11:00:00,1711A,116.4151,23.5294,揭阳市,渔湖,,42,42,46,10,16,154,53,36,36,4,13,4,5,0.5,0.7
2023-08-20T11:00:00,1712A,112.0392,22.9169,云浮市,新市府,,20,14,22,10,15,113,61,35,35,3,7,5,9,0.6,0.6
2023-08-20T11:00:00,1714A,112.0539,22.9539,云浮市,牧羊,,48,48,33,8,12,109,64,21,20,9,19,6,26,0.5,0.5
2023-08-20T11:00:00,1715A,102.575,24.3711,玉溪市,东风水库,颗粒物(PM10),56,62,33,39,21,127,26,41,18,22,14,7,5,2.2,1
2023-08-20T11:00:00,1718A,115.4208,35.2464,菏泽市,气象局,颗粒物(PM10),52,54,52,28,30,164,93,78,66,5,6,4,4,0.5,0.6
2023-08-20T11:00:00,1719A,115.4747,35.2375,菏泽市,市政协,,,,51,24,32,167,89,70,60,6,12,6,6,0.4,0.5
2023-08-20T11:00:00,1721A,113.3819,40.1097,大同市,果树场,,,,,,,,,,,,,,,,
2023-08-20T11:00:00,1723A,113.2994,40.0758,大同市,云冈宾馆,颗粒物(PM10),55,60,59,14,16,161,134,48,48,17,39,14,10,0.6,0.7
2023-08-20T11:00:00,1724A,113.3444,40.0917,大同市,大同大学,颗粒物(PM10),55,59,50,17,15,163,139,81,60,12,30,9,11,0.5,0.6
2023-08-20T11:00:00,1725A,113.2661,40.1269,大同市,安家小村,颗粒物(PM10),59,68,47,26,13,161,127,89,62,21,20,17,12,0.6,0.7
2023-08-20T11:00:00,1726A,113.2711,40.0844,大同市,教育学院,颗粒物(PM10),58,65,58,19,18,166,134,52,52,22,36,15,13,0.7,0.9
2023-08-20T11:00:00,1727A,113.1147,36.1547,长治市,清华站,颗粒物(PM10),62,74,62,34,25,137,83,74,49,26,23,11,10,1.5,1.1
2023-08-20T11:00:00,1728A,113.1031,36.1989,长治市,监测站,颗粒物(PM10),59,68,54,31,23,140,81,83,46,30,26,5,6,1.3,1
2023-08-20T11:00:00,1730A,113.0886,36.2125,长治市,审计局,,,,50,,23,144,76,85,31,,19,,8,1.3,1
2023-08-20T11:00:00,1731A,113.0844,36.1856,长治市,长治八中,颗粒物(PM10),62,73,58,26,24,143,70,40,25,29,29,10,11,1.3,1
2023-08-20T11:00:00,1733A,111.5531,36.0783,临汾市,临钢医院,,43,43,106,16,33,167,70,65,42,19,17,7,8,0.9,0.9
2023-08-20T11:00:00,1734A,111.5028,36.0714,临汾市,技工学校,,39,39,101,20,38,179,107,81,57,10,20,8,11,0.9,1
2023-08-20T11:00:00,1736A,111.5018,36.0855,临汾市,市委,,49,40,108,34,51,165,94,59,56,10,20,6,9,0.7,0.9
2023-08-20T11:00:00,1738A,113.5758,37.8572,阳泉市,市中心,颗粒物(PM10),67,83,82,29,30,138,133,36,36,24,39,26,14,1.0,0.9
2023-08-20T11:00:00,1739A,113.4894,37.8731,阳泉市,赛鱼,颗粒物(PM10),55,60,76,36,30,137,132,37,37,21,38,12,10,0.8,0.8
2023-08-20T11:00:00,1740A,113.5819,37.8486,阳泉市,南庄,颗粒物(PM10),57,64,105,30,31,143,142,44,44,22,31,23,17,0.9,0.9
2023-08-20T11:00:00,1742A,113.5614,37.8703,阳泉市,平坦,颗粒物(PM10),64,77,99,42,43,144,124,37,37,30,42,18,12,0.8,0.8
2023-08-20T11:00:00,1743A,113.5158,37.8392,阳泉市,大阳泉,颗粒物(PM10),52,53,100,34,31,146,146,122,121,15,14,14,13,0.7,0.8
2023-08-20T11:00:00,1744A,118.9233,42.2816,赤峰市,松山一中,颗粒物(PM10),51,52,35,16,11,137,137,48,48,24,29,11,13,0.5,0.4
2023-08-20T11:00:00,1745A,118.9576,42.2728,赤峰市,哈达街,,44,44,45,17,19,140,140,65,65,27,40,18,51,0.4,0.3
2023-08-20T11:00:00,1746A,118.8788,42.2554,赤峰市,天义路,,45,41,34,14,12,143,143,68,68,20,27,12,25,0.4,0.4
2023-08-20T11:00:00,1748A,123.044,41.1196,鞍山市,深沟寺,,47,47,64,30,48,163,71,68,56,35,16,4,4,1.0,1.2
2023-08-20T11:00:00,1749A,123.011,41.0931,鞍山市,太阳城,,32,32,64,21,44,161,93,84,76,18,17,4,5,1.2,1.5
2023-08-20T11:00:00,1750A,123.0485,41.1442,鞍山市,太平,颗粒物(PM10),56,62,116,27,54,180,100,88,70,34,30,5,6,1.5,1.4
2023-08-20T11:00:00,1751A,122.9642,41.0971,鞍山市,铁西三道街,细颗粒物(PM2.5),72,88,78,52,50,199,93,90,74,51,24,25,7,3.1,1.4
2023-08-20T11:00:00,1752A,122.9341,41.0833,鞍山市,铁西工业园区,细颗粒物(PM2.5),79,92,77,58,48,199,102,72,64,52,26,15,6,3.7,1.4
2023-08-20T11:00:00,1753A,123.022,41.0821,鞍山市,明达新区,,48,48,65,30,44,172,110,83,83,13,17,4,4,0.8,1
2023-08-20T11:00:00,1754A,123.1289,41.0228,鞍山市,千山,,,,,,,,,,,,,,,,
2023-08-20T11:00:00,1755A,123.7977,41.8491,抚顺市,望花区,细颗粒物(PM2.5),64,46,53,46,54,235,126,121,74,31,23,8,6,1.2,1
2023-08-20T11:00:00,1756A,123.9161,41.8822,抚顺市,顺城区,,37,29,53,17,34,232,118,120,75,15,21,6,5,0.8,0.8
2023-08-20T11:00:00,1757A,124.0436,41.8611,抚顺市,东洲区,,26,20,47,14,31,212,83,120,68,5,9,5,6,0.6,0.7
2023-08-20T11:00:00,1758A,123.9247,41.8642,抚顺市,新抚区,,35,32,56,20,41,224,109,107,55,16,22,6,6,0.9,0.9
2023-08-20T11:00:00,1759A,124.0972,41.8961,抚顺市,大伙房水库,,29,15,44,15,29,222,90,138,75,4,10,4,5,0.5,0.7
2023-08-20T11:00:00,1760A,123.7086,41.8391,抚顺市,沈抚新城,细颗粒物(PM2.5),58,58,48,41,33,187,123,92,63,29,21,14,8,1.5,1.1
2023-08-20T11:00:00,1761A,123.8275,41.3064,本溪市,大峪,,37,37,53,17,29,171,54,118,38,32,19,5,5,0.7,0.9
2023-08-20T11:00:00,1762A,123.7567,41.3325,本溪市,溪湖,,40,40,53,22,32,181,63,117,44,28,18,12,7,1.5,1.2
2023-08-20T11:00:00,1763A,123.7169,41.3094,本溪市,彩屯,,48,48,58,28,39,190,65,100,39,40,29,6,6,2.3,1.5
2023-08-20T11:00:00,1764A,123.7669,41.2864,本溪市,东明,,45,45,60,24,38,196,73,111,50,28,25,6,5,1.0,1.2
2023-08-20T11:00:00,1765A,123.7992,41.2664,本溪市,新立屯,,49,49,48,18,26,163,60,94,40,20,20,7,7,1.1,1.1
2023-08-20T11:00:00,1766A,123.8142,41.3472,本溪市,威宁,,40,40,57,19,36,152,32,93,40,34,20,6,6,0.7,0.9
2023-08-20T11:00:00,1767A,121.1115,41.0879,锦州市,南山,细颗粒物(PM2.5),62,62,49,44,36,153,122,72,55,10,15,9,6,1.1,0.8
2023-08-20T11:00:00,1768A,121.0533,40.8434,锦州市,开发区,颗粒物(PM10),79,107,71,40,38,152,113,47,35,23,28,9,13,1.3,1.2
2023-08-20T11:00:00,1769A,121.1836,41.1119,锦州市,百股街道,颗粒物(PM10),58,66,47,39,41,160,126,65,53,10,16,11,8,0.7,0.8
2023-08-20T11:00:00,1770A,121.1178,41.1222,锦州市,天安街道,颗粒物(PM10),58,66,55,34,35,152,120,66,63,11,16,5,5,1.2,1
2023-08-20T11:00:00,1771A,121.1303,41.1386,锦州市,北湖公园,颗粒物(PM10),72,93,63,39,44,162,123,70,70,12,16,10,8,0.9,0.8
2023-08-20T11:00:00,1772A,126.54,43.8622,吉林市,哈达湾,,36,25,24,16,10,113,113,55,55,6,18,6,6,0.6,0.5
2023-08-20T11:00:00,1773A,126.5844,43.8358,吉林市,东局子,,38,33,27,16,10,121,121,53,53,10,19,7,7,0.7,0.6
2023-08-20T11:00:00,1774A,126.5052,43.8245,吉林市,电力学院,,36,32,26,13,9,129,115,46,46,6,19,7,8,0.7,0.6
2023-08-20T11:00:00,1775A,126.6133,43.8972,吉林市,江北,,50,50,25,22,8,119,119,56,56,16,10,11,8,0.8,0.7
2023-08-20T11:00:00,1776A,126.555,43.8306,吉林市,江南公园,,39,33,23,27,13,120,115,52,52,10,21,4,4,0.7,0.6
2023-08-20T11:00:00,1778A,126.7061,43.7133,吉林市,丰满,,,,,,,,,,,,,,,,
2023-08-20T11:00:00,1779A,123.9305,47.3636,齐齐哈尔市,安居小区,,27,27,26,8,6,81,81,56,56,12,13,5,5,0.4,0.3
2023-08-20T11:00:00,1780A,123.9488,47.3386,齐齐哈尔市,中心广场,,23,12,14,10,7,72,72,55,55,11,11,4,4,0.4,0.3
2023-08-20T11:00:00,1781A,123.9483,47.3227,齐齐哈尔市,农牧车辆厂,,31,31,27,10,4,71,68,53,53,10,9,8,8,0.3,0.2
2023-08-20T11:00:00,1783A,123.945,47.2988,齐齐哈尔市,市环境监测站,,24,22,13,6,8,75,75,57,57,6,7,8,8,0.2,0.1
2023-08-20T11:00:00,1784A,129.61,44.561,牡丹江市,环保大楼,,22,13,15,6,7,84,70,32,32,5,11,5,5,0.4,0.5
2023-08-20T11:00:00,1785A,129.6115,44.5782,牡丹江市,文化广场,,22,6,19,9,13,81,69,28,28,8,15,5,6,0.5,0.5
2023-08-20T11:00:00,1786A,129.5904,44.5963,牡丹江市,第一医院,,20,13,18,6,9,75,63,27,27,7,9,4,5,0.4,0.3
2023-08-20T11:00:00,1787A,129.6364,44.6075,牡丹江市,机车工厂,,21,19,17,5,7,81,66,26,26,5,8,2,3,0.5,0.5
2023-08-20T11:00:00,1788A,129.6386,44.5462,牡丹江市,第一中学,,22,12,16,5,5,85,68,30,30,6,8,5,5,0.4,0.3
2023-08-20T11:00:00,1789A,124.81117,46.03138,大庆市,大同区,,32,29,19,10,12,102,102,57,57,8,11,6,6,0.2,0.2
2023-08-20T11:00:00,1790A,125.129,46.533,大庆市,龙凤区,,26,11,18,8,7,81,81,48,48,20,14,8,6,0.2,0.2
2023-08-20T11:00:00,1791A,124.902,46.408,大庆市,红岗区,,33,20,16,15,8,103,103,53,53,7,13,4,3,0.3,0.3
2023-08-20T11:00:00,1792A,125.153,46.586,大庆市,萨尔图区,,28,24,21,7,8,89,89,56,56,10,15,6,5,0.3,0.3
2023-08-20T11:00:00,1793A,124.9042,46.6215,大庆市,让胡路区,,32,12,15,4,9,100,100,50,50,8,16,5,5,0.3,0.3
2023-08-20T11:00:00,1794A,118.3606,31.3519,芜湖市,监测站,,36,27,34,16,16,153,113,91,68,10,14,6,5,0.5,0.5
2023-08-20T11:00:00,1795A,118.3714,31.4134,芜湖市,科创中心,,35,33,32,17,19,143,111,92,64,15,19,6,7,0.4,0.5
2023-08-20T11:00:00,1796A,118.3673,31.3131,芜湖市,四水厂,,36,32,31,18,18,158,115,90,68,11,13,4,4,0.6,0.6
2023-08-20T11:00:00,1798A,118.5092,31.6837,马鞍山市,湖东路四小,,35,23,26,14,15,143,109,77,60,8,13,7,7,0.6,0.6
2023-08-20T11:00:00,1799A,118.5024,31.6449,马鞍山市,开发区,,35,24,31,18,16,143,111,77,58,3,10,6,6,0.6,0.5
2023-08-20T11:00:00,1800A,118.5228,31.7231,马鞍山市,慈湖,,35,30,30,17,17,151,109,90,61,12,13,9,14,0.5,0.5
2023-08-20T11:00:00,1802A,118.6245,31.7241,马鞍山市,濮塘,,34,15,16,18,17,148,107,92,58,5,8,4,3,0.6,0.6
2023-08-20T11:00:00,1803A,115.9872,29.6815,九江市,十里,,38,17,30,22,20,180,119,105,79,8,13,8,9,0.6,0.6
2023-08-20T11:00:00,1804A,115.9584,29.7046,九江市,茅山头,,41,26,29,28,22,182,129,92,76,16,18,8,9,0.8,0.8
2023-08-20T11:00:00,1805A,115.9877,29.7295,九江市,西园,,,25,27,12,15,194,129,93,91,,14,,11,0.7,0.7
2023-08-20T11:00:00,1806A,116.0172,29.6547,九江市,五七二七厂,,34,18,25,9,16,174,108,97,89,3,7,10,9,0.5,0.6
2023-08-20T11:00:00,1808A,115.9114,29.6038,九江市,综合工业园,,41,35,38,19,22,199,130,91,78,17,20,12,11,0.7,0.8
2023-08-20T11:00:00,1809A,116.0721,29.7535,九江市,石化总厂,,40,21,28,6,18,174,125,77,76,6,17,12,12,0.6,0.7
2023-08-20T11:00:00,1810A,115.9773,29.5698,九江市,庐山气象台,,34,16,24,12,18,169,108,138,114,5,5,12,9,1.0,0.7
2023-08-20T11:00:00,1812A,112.3931,34.6516,洛阳市,市委党校,细颗粒物(PM2.5),77,44,54,56,47,161,59,94,61,16,11,7,6,0.8,0.7
2023-08-20T11:00:00,1814A,112.4657,34.6871,洛阳市,豫西宾馆,细颗粒物(PM2.5),62,54,67,44,40,162,60,108,61,17,12,2,2,1.2,1
2023-08-20T11:00:00,1815A,112.494,34.6886,洛阳市,河南林校,,46,43,47,32,33,153,58,102,56,24,18,5,5,1.0,0.9
2023-08-20T11:00:00,1816A,112.3844,34.623,洛阳市,开发区管委会,颗粒物(PM10),55,59,62,38,37,167,64,91,64,15,10,7,7,0.7,0.6
2023-08-20T11:00:00,1817A,112.4267,34.6258,洛阳市,市委新办公区,细颗粒物(PM2.5),93,59,59,69,51,162,63,91,60,18,13,7,6,0.8,0.7
2023-08-20T11:00:00,1818A,114.4839,36.0621,安阳市,棉研所,,,,,,,,,,,,,,,,
2023-08-20T11:00:00,1819A,114.3551,36.1017,安阳市,红庙街,,50,50,67,30,40,183,96,72,72,14,16,17,10,1.1,1.2
2023-08-20T11:00:00,1820A,114.361,36.0681,安阳市,银杏小区,,,59,61,,,190,101,63,63,9,14,6,6,1.1,1.2
2023-08-20T11:00:00,1824A,114.3389,34.7781,开封市,肿瘤医院,颗粒物(PM10),53,56,48,30,31,148,91,67,53,6,11,4,4,0.6,0.7
2023-08-20T11:00:00,1826A,114.2885,34.7965,开封市,世纪星幼儿园,,,44,45,,34,140,100,71,57,11,17,5,6,0.8,0.9
2023-08-20T11:00:00,1828A,113.227,35.2125,焦作市,市环保局,细颗粒物(PM2.5),70,68,63,51,43,150,95,97,70,20,18,9,10,0.5,0.5
2023-08-20T11:00:00,1830A,113.1992,35.2590,焦作市,影视城,,,,,,,,,,,,,,,,
2023-08-20T11:00:00,1832A,113.3257,33.742,平顶山市,新华旅馆,细颗粒物(PM2.5),59,55,46,42,31,184,126,107,77,10,16,6,4,0.6,0.7
2023-08-20T11:00:00,1833A,113.2919,33.737,平顶山市,规划设计院,,48,48,46,33,30,183,122,106,65,13,16,9,8,0.8,0.8
2023-08-20T11:00:00,1834A,113.182,33.774,平顶山市,平顶山工学院,颗粒物(PM10),58,65,48,36,29,141,117,111,78,15,11,9,5,0.8,0.7
2023-08-20T11:00:00,1835A,111.1922,34.7752,三门峡市,市政府,,37,14,80,16,47,186,117,112,112,4,10,3,4,0.6,0.8
2023-08-20T11:00:00,1836A,111.1587,34.7942,三门峡市,开发区,,38,22,108,26,47,195,114,106,106,6,10,4,5,0.5,0.8
2023-08-20T11:00:00,1838A,111.143,34.7955,三门峡市,风景区,,,,,,,,,,,,,,,,
2023-08-20T11:00:00,1840A,111.2992,30.6981,宜昌市,白龙岗,颗粒物(PM10),51,51,46,27,25,167,98,38,38,16,16,4,5,0.6,0.6
2023-08-20T11:00:00,1841A,111.3549,30.6465,宜昌市,伍家岗,,44,44,42,27,27,158,93,54,44,19,18,3,3,0.7,0.6
2023-08-20T11:00:00,1842A,111.2628,30.6961,宜昌市,点军区,,46,46,51,24,28,179,69,33,33,24,13,6,5,0.6,0.5
2023-08-20T11:00:00,1843A,111.3275,30.7819,宜昌市,夷陵区,颗粒物(PM10),52,53,41,27,23,160,69,31,31,19,15,3,3,0.7,0.6
2023-08-20T11:00:00,1844A,112.2494,30.3197,荆州市,市图书馆,颗粒物(PM10),53,56,53,18,32,170,142,98,98,8,12,10,9,0.7,0.7
2023-08-20T11:00:00,1845A,112.2008,30.3544,荆州市,市委党校,,47,47,53,17,31,172,141,92,92,10,12,9,9,0.8,0.8
2023-08-20T11:00:00,1847A,113.1094,29.3578,岳阳市,南湖风景区,臭氧1小时,65,43,52,34,37,237,172,136,103,9,18,8,10,1.0,1
2023-08-20T11:00:00,1848A,113.1493,29.4251,岳阳市,城陵矶,,50,39,54,26,36,193,159,98,78,14,30,8,12,0.7,0.9
2023-08-20T11:00:00,1849A,113.1497,29.3575,岳阳市,开发区,,,53,50,30,35,222,148,114,87,7,15,8,9,,0.8
2023-08-20T11:00:00,1850A,113.2621,29.4758,岳阳市,云溪区,,47,28,44,24,32,185,149,128,87,9,13,7,9,0.6,0.7
2023-08-20T11:00:00,1851A,112.9943,29.4402,岳阳市,君山区,臭氧1小时,58,47,56,30,41,175,166,96,96,9,13,9,9,0.6,0.8
2023-08-20T11:00:00,1852A,113.2117,29.355,岳阳市,金凤水库,,45,33,42,27,29,218,142,124,72,5,12,4,6,0.5,0.6
2023-08-20T11:00:00,1854A,111.6975,28.9703,常德市,市二中,颗粒物(PM10),56,61,53,36,38,179,120,56,56,6,11,3,3,0.8,0.8
2023-08-20T11:00:00,1857A,111.7158,29.1456,常德市,白鹤山,,41,41,33,11,8,144,117,88,88,6,6,10,8,0.5,0.5
2023-08-20T11:00:00,1858A,110.5319,29.1217,张家界市,永定新区,颗粒物(PM10),59,67,59,35,35,142,50,34,25,24,13,6,6,0.5,0.5
2023-08-20T11:00:00,1859A,110.4697,29.1242,张家界市,电业局,颗粒物(PM10),53,56,56,32,30,147,52,44,30,22,12,4,3,0.6,0.5
2023-08-20T11:00:00,1860A,110.5594,29.3547,张家界市,未央路,颗粒物(PM10),55,59,49,33,30,135,102,34,34,10,10,3,3,0.4,0.4
2023-08-20T11:00:00,1861A,110.4417,29.315,张家界市,袁家界,颗粒物(PM10),51,51,40,31,30,139,119,79,79,9,6,7,7,0.6,0.6
2023-08-20T11:00:00,1862A,110.4144,25.3167,桂林市,电子科大尧山校区,,38,29,39,26,25,142,78,77,45,6,6,14,10,0.6,0.6
2023-08-20T11:00:00,1863A,110.2819,25.2697,桂林市,监测站,,33,33,33,17,20,175,88,102,80,11,8,6,6,0.7,0.7
2023-08-20T11:00:00,1864A,110.3089,25.2708,桂林市,龙隐路小学,,34,34,30,22,23,166,87,94,82,11,8,7,8,0.7,0.6
2023-08-20T11:00:00,1865A,110.2869,25.2178,桂林市,八中,,28,28,31,16,20,172,88,96,72,11,10,6,6,0.7,0.7
2023-08-20T11:00:00,1866A,109.2262,21.588,北海市,牛尾岭水库,,27,27,13,11,6,47,47,24,24,12,11,9,5,0.8,0.5
2023-08-20T11:00:00,1867A,109.1436,21.4086,北海市,海滩公园,,32,32,22,12,8,75,62,42,39,6,13,4,4,0.5,0.6
2023-08-20T11:00:00,1868A,109.0981,21.4661,北海市,新市环保局,,28,26,20,19,12,70,58,38,37,8,16,3,3,0.7,0.7
2023-08-20T11:00:00,1869A,109.1778,21.5233,北海市,北海工业园,,39,39,24,20,13,64,64,25,25,9,16,8,8,0.6,0.6
2023-08-20T11:00:00,1870A,109.4856,24.3895,柳州市,柳东小学,,47,47,26,16,17,115,74,56,46,9,9,10,9,0.5,0.4
2023-08-20T11:00:00,1871A,109.4157,24.3277,柳州市,环保监测站,,48,48,33,30,24,114,74,47,41,11,11,4,4,0.7,0.7
2023-08-20T11:00:00,1872A,109.389,24.341,柳州市,河西水厂,,40,40,29,23,19,120,69,42,38,15,14,5,6,0.9,0.8
2023-08-20T11:00:00,1873A,109.4311,24.2921,柳州市,市四中,,25,25,30,14,18,130,76,55,46,12,12,7,7,0.6,0.7
2023-08-20T11:00:00,1874A,109.4006,24.3631,柳州市,市九中,,35,34,33,24,17,120,77,53,44,9,10,8,9,0.9,0.9
2023-08-20T11:00:00,1875A,109.4958,24.3134,柳州市,古亭山,,32,32,33,13,16,134,70,35,28,9,14,5,8,0.6,0.6
2023-08-20T11:00:00,1876A,109.5078,18.2489,三亚市,河东子站,,16,14,15,7,8,57,49,43,37,6,5,3,3,0.3,0.3
2023-08-20T11:00:00,1877A,109.4964,18.2681,三亚市,河西子站,,17,11,13,6,7,58,52,35,35,6,9,2,2,0.5,0.5
2023-08-20T11:00:00,1878A,104.7778,31.4741,绵阳市,富乐山,,21,21,28,4,12,85,56,80,53,12,12,4,4,0.6,0.6
2023-08-20T11:00:00,1879A,104.7563,31.4535,绵阳市,市人大,,19,19,28,3,14,86,47,78,56,26,20,9,10,0.6,0.5
2023-08-20T11:00:00,1880A,104.6697,31.4668,绵阳市,高新区自来水公司,,38,38,35,15,13,89,51,89,43,26,19,6,6,0.8,0.6
2023-08-20T11:00:00,1881A,104.7287,31.5075,绵阳市,三水厂,,33,33,34,18,16,88,36,88,38,30,23,6,7,0.4,0.4
2023-08-20T11:00:00,1882A,104.563,28.793,宜宾市,石马中学,,49,49,48,24,24,178,52,93,69,22,10,8,6,0.5,0.5
2023-08-20T11:00:00,1883A,104.6201,28.7728,宜宾市,市委,颗粒物(PM10),53,55,58,31,30,180,58,104,62,17,14,9,9,0.8,0.7
2023-08-20T11:00:00,1884A,104.6055,28.793,宜宾市,宜宾四中,细颗粒物(PM2.5),55,56,55,39,31,179,60,109,69,15,12,10,9,0.7,0.6
2023-08-20T11:00:00,1885A,104.639,28.7562,宜宾市,市政府,细颗粒物(PM2.5),54,55,60,38,32,190,60,109,68,18,17,8,8,0.7,0.7
2023-08-20T11:00:00,1886A,104.5742,28.7199,宜宾市,黄金嘴,颗粒物(PM10),53,56,55,35,31,178,59,86,64,16,12,7,7,0.5,0.5
2023-08-20T11:00:00,1888A,101.6891,26.571,攀枝花市,弄弄坪,颗粒物(PM10),81,111,58,50,29,157,23,46,16,49,24,23,17,2.4,1.1
2023-08-20T11:00:00,1889A,101.5769,26.5928,攀枝花市,河门口,,48,48,41,26,22,179,49,43,32,28,21,20,19,1.4,1.2
2023-08-20T11:00:00,1890A,101.7169,26.585,攀枝花市,炳草岗,颗粒物(PM10),73,96,61,52,31,172,27,40,27,52,30,51,38,1.9,1
2023-08-20T11:00:00,1891A,101.7369,26.5008,攀枝花市,仁和,,37,37,30,22,21,164,46,48,36,27,15,13,13,1.0,0.7
2023-08-20T11:00:00,1893A,105.4324,28.9634,泸州市,九狮山,,31,31,40,14,18,140,60,64,62,14,16,6,7,0.5,0.4
2023-08-20T11:00:00,1894A,105.4427,28.9063,泸州市,小市上码头,颗粒物(PM10),52,54,56,27,29,185,79,102,87,11,9,3,3,0.7,0.7
2023-08-20T11:00:00,1895A,105.4241,28.8573,泸州市,兰田宪桥,,48,48,53,30,31,188,91,98,90,6,8,11,5,0.7,0.7
2023-08-20T11:00:00,1896A,105.4379,28.8833,泸州市,市环监站,,46,46,51,22,25,172,80,98,86,6,8,3,5,0.5,0.5
2023-08-20T11:00:00,1901A,104.4239,31.1208,德阳市,东山公园,,35,35,47,19,18,85,44,68,40,11,15,1,2,0.5,0.5
2023-08-20T11:00:00,1902A,104.3826,31.1317,德阳市,西小区,,37,37,48,24,23,87,47,69,34,19,18,1,2,0.6,0.5
2023-08-20T11:00:00,1904A,104.3553,31.1091,德阳市,耐火材料厂,颗粒物(PM10),51,51,52,21,22,77,37,65,30,21,20,1,2,0.6,0.6
2023-08-20T11:00:00,1905A,106.056,30.8064,南充市,西山风景区,,,17,29,,,135,69,72,72,7,6,2,4,0.4,0.4
2023-08-20T11:00:00,1906A,106.0789,30.8023,南充市,南充市委,,39,39,42,16,16,139,63,66,66,17,12,8,10,0.4,0.3
2023-08-20T11:00:00,1907A,106.1031,30.8217,南充市,南充炼油厂,,38,38,48,17,19,149,66,66,66,14,10,9,10,0.3,0.3
2023-08-20T11:00:00,1908A,106.1064,30.7856,南充市,高坪区监测站,,35,35,42,11,19,140,62,63,63,18,12,8,8,0.3,0.3
2023-08-20T11:00:00,1909A,106.0642,30.7636,南充市,嘉陵区环保局,,25,25,40,12,18,133,65,66,66,15,13,6,7,0.2,0.3
2023-08-20T11:00:00,1910A,106.1087,30.8388,南充市,市环境监测站,,44,44,46,18,25,142,51,58,57,27,15,7,8,0.4,0.4
2023-08-20T11:00:00,1911A,106.9222,27.6869,遵义市,丁字口,,36,26,28,25,17,126,112,55,55,9,16,4,5,0.7,0.7
2023-08-20T11:00:00,1912A,106.9242,27.7019,遵义市,凤凰山,细颗粒物(PM2.5),52,39,35,36,29,145,119,84,66,6,10,7,7,0.7,0.7
2023-08-20T11:00:00,1913A,106.8906,27.6486,遵义市,忠庄,,46,46,42,10,23,154,119,95,56,10,15,1,2,0.6,0.6
2023-08-20T11:00:00,1914A,106.9231,27.6506,遵义市,舟水桥,,38,38,41,11,21,142,117,44,44,5,12,2,1,0.7,0.7
2023-08-20T11:00:00,1915A,106.9178,27.72,遵义市,干田坝,,40,27,32,19,17,142,127,53,53,8,14,7,6,0.7,0.7
2023-08-20T11:00:00,1916A,103.7897,25.5035,曲靖市,环境监测站,,38,38,28,18,17,128,99,78,54,11,14,2,4,0.6,0.6
2023-08-20T11:00:00,1917A,103.8,25.5364,曲靖市,烟厂办公区,,38,38,27,24,17,129,96,79,50,8,13,3,4,0.5,0.6
2023-08-20T11:00:00,1918A,108.7197,34.3956,咸阳市,气象站,,,,,,,,,,,,,,,,
2023-08-20T11:00:00,1919A,108.673,34.3155,咸阳市,实验中学,,,40,64,16,25,205,43,58,55,,40,5,6,0.6,0.6
2023-08-20T11:00:00,1920A,108.7233,34.3617,咸阳市,师范学院,,19,13,54,6,23,197,58,55,54,16,20,2,4,0.6,0.6
2023-08-20T11:00:00,1922A,109.0656,35.0994,铜川市,党校,,28,28,62,15,23,121,80,72,72,12,18,8,8,0.8,0.7
2023-08-20T11:00:00,1923A,109.0697,35.0697,铜川市,王益区政府,,33,29,52,23,33,126,76,76,76,9,17,3,4,0.6,0.4
2023-08-20T11:00:00,1924A,108.9344,34.9058,铜川市,新区管委会,,25,13,68,17,28,192,51,60,48,19,20,4,5,0.7,0.7
2023-08-20T11:00:00,1926A,109.4131,36.6275,延安市,枣园,,50,50,58,23,19,189,57,19,19,24,35,5,6,0.9,0.8
2023-08-20T11:00:00,1927A,109.4761,36.6028,延安市,延大医附院,,48,45,58,33,20,181,90,27,27,15,34,4,5,0.6,0.5
2023-08-20T11:00:00,1929A,109.5056,36.6106,延安市,百米大道,,46,46,62,32,24,184,84,44,41,21,34,7,6,0.7,0.7
2023-08-20T11:00:00,1930A,107.185,34.3063,宝鸡市,庙沟村,,21,21,30,12,13,80,56,53,36,3,12,6,6,0.3,0.3
2023-08-20T11:00:00,1931A,107.0708,34.3017,宝鸡市,竹园沟,,26,26,29,18,16,84,57,38,37,9,14,5,4,0.5,0.5
2023-08-20T11:00:00,1932A,107.1906,34.3672,宝鸡市,三陆医院,,19,19,32,12,20,77,58,47,47,15,20,4,5,0.5,0.5
2023-08-20T11:00:00,1933A,107.1431,34.3547,宝鸡市,监测站,,25,16,32,17,17,73,62,48,48,13,20,5,5,0.4,0.4
2023-08-20T11:00:00,1934A,107.1186,34.3739,宝鸡市,技工学校,,20,15,33,12,15,72,62,53,53,7,13,6,6,0.3,0.4
2023-08-20T11:00:00,1935A,107.3906,34.3528,宝鸡市,陈仓区环保局家属楼,,20,12,38,11,14,87,62,59,59,13,20,6,6,0.6,0.6
2023-08-20T11:00:00,1936A,107.2058,34.3497,宝鸡市,文理学院,,20,20,35,12,16,77,62,56,56,11,18,3,4,0.5,0.5
2023-08-20T11:00:00,1937A,107.2386,34.3622,宝鸡市,三迪小学,,19,14,34,13,16,80,57,52,52,12,16,5,5,0.5,0.5
2023-08-20T11:00:00,1938A,109.5293,34.5101,渭南市,农科所,,25,22,70,17,33,152,48,91,55,16,19,3,6,0.3,0.3
2023-08-20T11:00:00,1939A,109.4974,34.4877,渭南市,日报社,,29,22,67,20,34,162,50,83,52,24,24,3,6,0.4,0.4
2023-08-20T11:00:00,1940A,109.4636,34.493,渭南市,体育馆,,19,19,63,10,26,171,50,75,51,17,17,3,5,0.4,0.4
2023-08-20T11:00:00,1941A,109.4259,34.5023,渭南市,高新一小,,29,29,76,12,25,163,50,76,53,19,17,5,6,0.4,0.4
2023-08-20T11:00:00,1943A,102.1725,38.5339,金昌市,新川苑,颗粒物(PM10),129,207,51,15,8,156,116,102,102,7,17,8,11,0.5,0.6
2023-08-20T11:00:00,1944A,102.1692,38.5167,金昌市,天庆家园,颗粒物(PM10),152,254,48,20,14,159,118,102,102,9,23,16,18,0.5,0.6
2023-08-20T11:00:00,1945A,98.2908,39.7711,嘉峪关市,气象局,颗粒物(PM10),51,51,33,17,12,142,107,98,70,23,23,43,16,0.9,0.5
2023-08-20T11:00:00,1947A,106.3394,38.817,石嘴山市,沙湖旅游区,颗粒物(PM10),51,51,51,20,19,217,137,115,66,14,22,9,8,0.6,0.7
2023-08-20T11:00:00,1948A,106.3668,39.0145,石嘴山市,大武口朝阳西街,颗粒物(PM10),60,70,61,19,24,187,124,96,66,20,37,14,23,0.4,0.6
2023-08-20T11:00:00,1949A,106.7704,39.2282,石嘴山市,惠农南大街,颗粒物(PM10),54,57,50,16,13,168,130,72,68,19,32,18,13,0.5,0.3
2023-08-20T11:00:00,1950A,106.7099,39.1325,石嘴山市,红果子镇惠新街,,50,50,57,15,16,170,134,104,70,15,25,15,19,0.3,0.3
2023-08-20T11:00:00,1951A,84.895,45.6094,克拉玛依市,长征新村,,30,20,20,5,5,125,93,105,88,6,8,9,9,0.2,0.2
2023-08-20T11:00:00,1952A,84.8988,45.5893,克拉玛依市,南林小区,,28,21,23,9,11,125,88,104,85,9,10,8,8,0.1,0.1
2023-08-20T11:00:00,1954A,84.905,44.3396,克拉玛依市,独山子区,,32,18,22,16,14,180,102,78,72,10,12,9,10,0.3,0.4
2023-08-20T11:00:00,1955A,85.6979,46.098,克拉玛依市,乌尔禾区商贸楼,,,,15,,6,120,63,85,49,9,5,,7,0.3,0.4
2023-08-20T11:00:00,1956A,86.1472,41.7538,巴音郭楞州,孔雀公园,颗粒物(PM10),53,55,79,12,26,131,99,88,88,22,30,9,8,0.4,0.5
2023-08-20T11:00:00,1957A,86.1972,41.7166,巴音郭楞州,棉纺厂,,49,49,92,14,28,135,105,88,88,12,23,7,6,0.4,0.5
2023-08-20T11:00:00,1958A,86.2357,41.7173,巴音郭楞州,经济开发区,,37,36,97,23,27,140,118,102,102,5,13,8,7,0.2,0.2
2023-08-20T11:00:00,1961A,117.532,36.6868,济南市,东山小学,,46,46,49,20,26,171,128,91,91,12,22,6,6,0.7,0.7
2023-08-20T11:00:00,1966A,120.0405,35.8735,青岛市,黄岛区4号,,28,19,21,12,16,116,87,79,72,11,9,3,3,0.5,0.5
2023-08-20T11:00:00,1982A,122.0693,37.2174,威海市,文登开发区,,24,22,30,12,17,138,76,76,52,16,11,6,6,0.6,0.6
2023-08-20T11:00:00,2031A,113.1817,27.9958,株洲市,云田中学,,46,40,43,32,26,194,140,106,90,7,9,6,5,0.8,0.7
2023-08-20T11:00:00,2054A,114.1099,32.1059,信阳市,平桥分局,,45,44,30,21,20,168,142,110,92,11,9,2,2,1.0,0.9
2023-08-20T11:00:00,2064A,113.9956,32.1271,信阳市,南湾水厂,,46,46,43,24,20,163,134,88,84,8,10,2,3,0.9,0.8
2023-08-20T11:00:00,2065A,114.0775,32.1195,信阳市,市酿酒公司,,46,46,38,29,24,165,136,122,96,14,11,2,2,0.7,0.7
2023-08-20T11:00:00,2066A,114.0609,32.1399,信阳市,审计局,,47,47,41,30,25,170,147,116,98,8,7,3,3,0.8,0.7
2023-08-20T11:00:00,2067A,114.6613,33.6128,周口市,市环境监测站,,,23,42,18,23,129,129,81,80,9,10,7,8,,
2023-08-20T11:00:00,2068A,114.6758,33.6347,周口市,周口师范,,46,44,40,19,19,170,146,93,89,8,9,4,3,0.7,0.6
2023-08-20T11:00:00,2069A,114.6546,33.5979,周口市,市运管处,,45,45,43,22,21,164,144,99,90,10,12,7,6,0.5,0.5
2023-08-20T11:00:00,2070A,114.6369,33.6406,周口市,川汇区环保局,颗粒物(PM10),57,64,38,17,15,170,146,97,91,6,9,4,4,0.8,0.8
2023-08-20T11:00:00,2075A,117.6336,24.4674,漳州市,九湖,,,,,,,,,,,,,,,,
2023-08-20T11:00:00,2160A,112.85,35.5051,晋城市,自来水公司,颗粒物(PM10),56,61,71,27,34,151,98,128,94,20,14,8,8,1.4,1.2
2023-08-20T11:00:00,2161A,112.8318,35.4936,晋城市,白云商贸,颗粒物(PM10),67,83,98,31,29,149,96,124,101,21,16,9,9,1.1,0.9
2023-08-20T11:00:00,2162A,112.8508,35.4887,晋城市,市环保局,颗粒物(PM10),61,71,77,34,37,149,84,119,96,28,16,9,9,1.4,1.2
2023-08-20T11:00:00,2163A,112.8676,35.4897,晋城市,技术学院,颗粒物(PM10),52,54,59,31,33,147,82,122,92,27,15,8,8,1.5,1.2
2023-08-20T11:00:00,2165A,112.8453,35.546,晋城市,白马寺,,,,,,,,,,,,,,,,
2023-08-20T11:00:00,2166A,112.4397,39.3522,朔州市,平朔,,,60,52,22,18,162,129,105,98,11,14,,8,,0.6
2023-08-20T11:00:00,2167A,112.4575,39.3617,朔州市,朔唯,颗粒物(PM10),57,64,73,26,25,170,139,118,74,10,20,17,10,0.6,0.6
2023-08-20T11:00:00,2168A,112.4258,39.3197,朔州市,区政府,颗粒物(PM10),52,54,52,25,16,163,133,107,91,13,16,27,8,0.7,0.6
2023-08-20T11:00:00,2169A,112.4072,39.3278,朔州市,市环保局,颗粒物(PM10),56,62,56,19,18,175,145,112,98,12,15,17,11,0.6,0.6
2023-08-20T11:00:00,2170A,112.4272,39.3681,朔州市,市二中,颗粒物(PM10),61,71,65,22,23,163,139,105,76,11,21,19,10,0.5,0.5
2023-08-20T11:00:00,2171A,112.7532,37.6945,晋中市,锦纶小区,,46,46,72,13,18,163,133,78,78,10,18,13,12,0.6,0.5
2023-08-20T11:00:00,2173A,112.7249,37.7067,晋中市,南都小区,颗粒物(PM10),51,51,80,21,30,159,129,87,87,10,19,9,9,0.5,0.5
2023-08-20T11:00:00,2174A,112.6991,37.6982,晋中市,榆次区政府,,42,42,84,25,27,157,127,87,87,12,20,12,12,0.6,0.5
2023-08-20T11:00:00,2175A,110.9956,35.0147,运城市,运城中学,,38,37,83,13,36,214,121,133,97,1,7,3,4,0.8,0.8
2023-08-20T11:00:00,2178A,110.9686,35.0303,运城市,地区技校,,39,39,88,15,37,205,118,124,81,6,10,3,4,0.5,0.6
2023-08-20T11:00:00,2179A,111.0414,35.1147,运城市,空港新区,,37,36,92,23,41,204,117,113,96,12,11,2,4,0.5,0.7
2023-08-20T11:00:00,2181A,112.7383,38.4519,忻州市,开发区,颗粒物(PM10),55,60,66,20,29,162,117,76,58,14,25,16,16,0.8,0.7
2023-08-20T11:00:00,2182A,112.7003,38.4928,忻州市,会展中心,,,69,67,28,29,152,112,60,52,11,29,12,11,,0.6
2023-08-20T11:00:00,2183A,111.1406,37.5211,吕梁市,环保局,颗粒物(PM10),70,89,115,37,42,164,132,48,48,15,49,16,11,0.9,0.7
2023-08-20T11:00:00,2185A,111.1297,37.5136,吕梁市,自来水公司,颗粒物(PM10),71,91,115,35,42,164,132,50,50,15,34,14,8,0.9,0.7
2023-08-20T11:00:00,2187A,106.8174,39.6973,乌海市,市林业局,颗粒物(PM10),76,101,75,30,21,166,93,132,80,48,28,95,64,1.1,1
2023-08-20T11:00:00,2188A,106.7907,39.6667,乌海市,中海勃湾学校,颗粒物(PM10),65,79,62,20,19,164,93,88,75,33,38,52,52,0.8,0.7
2023-08-20T11:00:00,2191A,122.2532,43.6801,通辽市,艺术职业学校,,35,21,23,17,10,110,110,67,65,21,18,6,5,0.4,0.3
2023-08-20T11:00:00,2192A,119.7594,49.2261,呼伦贝尔市,区环保局,,,,26,,12,83,59,42,40,10,12,3,4,0.3,0.3
2023-08-20T11:00:00,2195A,107.4212,40.761,巴彦淖尔市,附二中,颗粒物(PM10),67,83,56,22,13,165,136,87,66,16,22,22,13,0.7,0.5
2023-08-20T11:00:00,2196A,107.37,40.7372,巴彦淖尔市,市环保大楼,颗粒物(PM10),70,89,52,23,19,168,126,114,60,17,20,19,8,0.9,0.8
2023-08-20T11:00:00,2197A,113.1306,40.9923,乌兰察布市,集宁新区,颗粒物(PM10),51,51,36,15,15,145,117,73,73,23,31,16,14,0.5,0.3
2023-08-20T11:00:00,2200A,122.0392,46.0656,兴安盟,胜华新制药厂,,27,15,18,4,9,86,86,47,47,9,10,4,3,0.3,0.3
2023-08-20T11:00:00,2201A,121.9504,46.0741,兴安盟,科右前旗环保局,,26,18,18,7,11,82,82,46,46,6,7,2,2,0.5,0.5
2023-08-20T11:00:00,2202A,116.1042,43.9317,锡林郭勒盟,市环保监测站,颗粒物(PM10),61,71,28,6,5,138,138,94,94,5,11,11,10,0.3,0.2
2023-08-20T11:00:00,2203A,116.0781,43.9311,锡林郭勒盟,市政府,,45,36,21,11,6,142,142,90,90,6,14,12,11,0.3,0.2
2023-08-20T11:00:00,2204A,105.6467,38.8363,阿拉善盟,西城区西花园,,47,38,42,7,13,171,149,155,132,10,9,8,9,0.5,0.5
2023-08-20T11:00:00,2205A,105.6985,38.8411,阿拉善盟,蒙二幼,,46,43,39,14,13,186,146,150,136,8,8,7,9,0.5,0.5
2023-08-20T11:00:00,2206A,105.724,38.8516,阿拉善盟,环保局新楼,,47,22,26,13,14,195,148,159,142,7,7,9,10,0.4,0.4
2023-08-20T11:00:00,2207A,121.6094,41.998,阜新市,工业园区,颗粒物(PM10),61,72,60,36,28,142,135,69,49,11,19,14,11,1.2,1
2023-08-20T11:00:00,2208A,121.6697,42.0279,阜新市,长青街,颗粒物(PM10),66,82,60,47,38,132,124,71,57,13,16,12,16,0.9,1
2023-08-20T11:00:00,2209A,121.6673,42.0705,阜新市,农业园区,细颗粒物(PM2.5),75,68,56,55,45,152,131,86,86,10,11,14,22,0.9,1.3
2023-08-20T11:00:00,2210A,121.6717,42.0224,阜新市,东苑,颗粒物(PM10),63,75,62,41,41,140,129,73,58,10,16,16,22,0.8,1
2023-08-20T11:00:00,2211A,121.6506,42.0498,阜新市,玉龙新城,细颗粒物(PM2.5),58,60,62,41,33,134,118,53,46,7,16,11,12,1.0,1.2
2023-08-20T11:00:00,2212A,123.2,41.1953,辽阳市,宏伟区,,45,38,76,31,42,172,116,94,59,15,20,4,5,0.9,1.1
2023-08-20T11:00:00,2213A,123.1683,41.2495,辽阳市,新华园,,43,34,93,30,49,168,125,96,60,16,23,9,9,0.8,1.2
2023-08-20T11:00:00,2214A,123.2354,41.2639,辽阳市,滨河路,细颗粒物(PM2.5),58,57,74,41,53,163,119,98,62,14,20,6,9,1.0,1.2
2023-08-20T11:00:00,2215A,123.149,41.2991,辽阳市,铁西工业园,颗粒物(PM10),76,101,91,39,46,184,102,91,54,16,26,7,10,1.6,1.3
2023-08-20T11:00:00,2216A,123.8139,42.3022,铁岭市,汇工街西,细颗粒物(PM2.5),54,49,47,38,23,176,116,80,80,22,16,11,14,0.8,0.7
2023-08-20T11:00:00,2217A,123.8649,42.2923,铁岭市,水上乐园,,36,36,44,17,24,174,86,104,50,15,22,2,3,0.9,0.8
2023-08-20T11:00:00,2218A,123.8486,42.2867,铁岭市,银州路东段,,40,40,46,14,28,160,81,94,44,21,21,6,6,0.7,0.6
2023-08-20T11:00:00,2219A,123.7153,42.2217,铁岭市,金沙江路北,,34,34,41,22,23,185,106,105,52,15,17,3,4,1.0,0.9
2023-08-20T11:00:00,2220A,120.4318,41.5881,朝阳市,西梁,颗粒物(PM10),52,54,52,22,33,156,110,41,41,16,18,11,10,0.8,0.8
2023-08-20T11:00:00,2221A,120.4521,41.5646,朝阳市,河畔小区,颗粒物(PM10),56,62,71,17,19,160,119,63,41,11,16,8,7,0.9,0.8
2023-08-20T11:00:00,2222A,120.4176,41.5648,朝阳市,八里堡,,40,40,47,24,23,160,113,39,39,15,20,8,7,1.0,0.9
2023-08-20T11:00:00,2223A,120.3806,41.5969,朝阳市,农业园区,颗粒物(PM10),62,74,47,26,24,148,111,38,38,16,18,6,4,1.0,0.9
2023-08-20T11:00:00,2225A,124.4002,43.1713,四平市,一商场,,39,33,34,15,18,123,123,83,83,10,17,7,7,0.4,0.4
2023-08-20T11:00:00,2226A,124.388,43.193,四平市,境园,,40,29,27,10,14,127,127,86,80,9,12,8,8,0.3,0.2
2023-08-20T11:00:00,2227A,125.1358,42.8845,辽源市,环保局,,42,23,27,20,18,138,134,62,62,6,13,7,7,0.6,0.6
2023-08-20T11:00:00,2229A,125.9358,41.7173,通化市,光明,,46,46,34,23,19,132,74,38,38,18,15,12,11,0.6,0.6
2023-08-20T11:00:00,2230A,125.9446,41.7325,通化市,铁路,,33,26,30,23,20,138,70,39,39,25,18,12,10,1.0,0.9
2023-08-20T11:00:00,2231A,126.4219,41.9171,白山市,喜丰,,39,39,40,7,14,134,83,61,61,17,17,7,8,0.6,0.7
2023-08-20T11:00:00,2232A,126.4077,41.9419,白山市,环保局,,30,27,34,13,14,135,93,66,66,23,13,8,7,0.6,0.6
2023-08-20T11:00:00,2233A,124.8006,45.1214,松原市,江南,,32,17,18,12,9,102,102,49,49,7,13,6,6,0.4,0.5
2023-08-20T11:00:00,2234A,124.7965,45.1722,松原市,江北,,32,17,13,8,6,102,102,50,50,4,10,4,4,0.3,0.3
2023-08-20T11:00:00,2235A,122.7911,45.6077,白城市,洮北区环保局,,28,14,19,8,9,89,89,46,46,6,20,6,6,0.0,0.1
2023-08-20T11:00:00,2236A,122.8738,45.5725,白城市,市环保局,,29,9,17,1,4,90,90,51,51,5,20,9,8,0.2,0.3
2023-08-20T11:00:00,2237A,129.47,42.8883,延边朝鲜族自治州,妇幼医院,,23,23,22,10,11,93,66,30,30,12,11,8,8,0.6,0.6
2023-08-20T11:00:00,2238A,129.5055,42.9108,延边朝鲜族自治州,延边医院,颗粒物(PM10),74,98,35,18,13,84,82,31,31,18,16,7,7,0.7,0.6
2023-08-20T11:00:00,2239A,129.3964,42.8881,延边朝鲜族自治州,朝阳川镇医院,,20,17,22,8,8,92,64,29,29,8,9,7,7,0.7,0.7
2023-08-20T11:00:00,2240A,130.9762,45.3001,鸡西市,环保局,,,61,40,20,15,71,52,20,20,29,22,,6,0.4,0.4
2023-08-20T11:00:00,2243A,130.9429,45.3039,鸡西市,第一中学,颗粒物(PM10),52,54,31,18,12,84,69,26,26,24,18,10,7,0.4,0.3
2023-08-20T11:00:00,2244A,130.2537,47.3416,鹤岗市,哈啤分公司,,23,23,22,10,11,74,73,32,32,13,12,14,11,0.2,0.2
2023-08-20T11:00:00,2245A,130.2684,47.3086,鹤岗市,斯达机电,,23,16,18,5,9,75,72,40,40,11,11,10,8,0.2,0.3
2023-08-20T11:00:00,2246A,130.3114,47.3388,鹤岗市,东山纸板厂,,22,15,41,7,10,73,70,26,26,11,15,15,14,0.3,0.6
2023-08-20T11:00:00,2247A,130.1097,47.3382,鹤岗市,五号水库,,26,5,13,7,7,83,83,44,44,5,6,12,11,0.0,0
2023-08-20T11:00:00,2248A,131.1511,46.6937,双鸭山市,双合村,,26,24,42,14,13,83,83,17,17,5,15,8,16,0.4,1.3
2023-08-20T11:00:00,2249A,131.1652,46.6191,双鸭山市,南小市,,41,41,20,15,9,79,79,32,32,13,12,7,6,0.2,0.2
2023-08-20T11:00:00,2250A,131.1524,46.6554,双鸭山市,环保局,,24,15,20,6,14,74,74,31,31,10,14,9,10,0.2,0.5
2023-08-20T11:00:00,2251A,131.12,46.5656,双鸭山市,苗圃,,25,7,12,4,16,80,79,42,42,6,4,3,3,0.3,0.3
2023-08-20T11:00:00,2252A,128.5159,47.4311,伊春市,环保局,,21,12,17,13,8,67,67,22,22,12,10,5,6,0.6,0.4
2023-08-20T11:00:00,2253A,128.9102,47.7412,伊春市,电力嘉园,,26,3,13,5,10,81,81,28,28,7,7,10,7,1.0,0.6
2023-08-20T11:00:00,2254A,129.5029,48.471,伊春市,汤旺河国家公园,,25,19,20,11,11,80,80,34,34,2,2,9,12,0.7,1.2
2023-08-20T11:00:00,2255A,130.2751,46.8028,佳木斯市,佳纺,,37,37,31,16,10,79,79,31,31,7,14,5,3,0.4,0.4
2023-08-20T11:00:00,2256A,130.3995,46.8307,佳木斯市,发电厂,,34,34,22,13,11,76,68,27,27,17,13,4,4,0.5,0.4
2023-08-20T11:00:00,2257A,130.3258,46.7975,佳木斯市,环保局,,,44,20,18,7,74,70,24,18,,15,4,3,0.4,0.4
2023-08-20T11:00:00,2258A,130.3648,46.8032,佳木斯市,十一中,,45,45,28,20,14,72,67,24,24,20,24,6,6,0.5,0.5
2023-08-20T11:00:00,2259A,130.3794,46.7588,佳木斯市,四丰,,,,16,12,8,103,103,47,47,8,7,1,1,0.3,0.3
2023-08-20T11:00:00,2262A,131.0518,45.8751,七台河市,新一中,,30,17,16,5,7,93,93,42,42,5,6,8,7,0.7,0.7
2023-08-20T11:00:00,2263A,127.4833,50.2524,黑河市,交通局,,18,9,7,6,6,77,55,75,52,15,10,5,9,0.4,0.4
2023-08-20T11:00:00,2264A,127.5144,50.2341,黑河市,环保局,,21,14,14,5,7,81,66,78,57,4,6,4,7,0.3,0.3
2023-08-20T11:00:00,2265A,127.5291,50.2472,黑河市,大黑河岛,,26,17,7,15,10,99,81,93,68,2,2,1,5,0.3,0.2
2023-08-20T11:00:00,2266A,126.9785,46.6365,绥化市,人和东街,,29,14,20,4,8,92,92,59,59,8,12,8,4,0.3,0.3
2023-08-20T11:00:00,2267A,126.964,46.6528,绥化市,党政办公中心,,28,14,17,6,7,89,89,60,60,7,12,7,7,0.3,0.3
2023-08-20T11:00:00,2269A,124.1069,50.4097,大兴安岭地区,科技局,,20,5,10,4,11,70,64,62,40,2,4,3,3,0.2,0.2
2023-08-20T11:00:00,2270A,117.396,32.939,蚌埠市,工人疗养院,,36,36,33,17,16,136,105,88,59,10,9,4,5,0.4,0.4
2023-08-20T11:00:00,2271A,117.3605,32.9427,蚌埠市,百货大楼,,46,46,40,18,16,138,104,94,56,12,10,7,6,0.4,0.4
2023-08-20T11:00:00,2273A,117.4185,32.8911,蚌埠市,蚌埠学院,,34,29,35,19,21,132,108,92,61,7,13,5,6,0.4,0.4
2023-08-20T11:00:00,2274A,117.3533,32.9673,蚌埠市,淮上区政府,,41,41,36,24,20,134,104,88,58,10,10,6,7,0.5,0.4
2023-08-20T11:00:00,2275A,117.3145,32.8977,蚌埠市,高新区,,36,36,34,14,16,149,113,104,68,7,11,4,5,0.4,0.4
2023-08-20T11:00:00,2277A,116.8305,32.7727,淮南市,潘集区政府,,41,41,36,25,23,151,118,72,65,9,10,7,6,0.3,0.3
2023-08-20T11:00:00,2278A,117.0067,32.6524,淮南市,师范学院,,46,34,39,32,24,138,118,113,73,8,10,7,7,0.4,0.5
2023-08-20T11:00:00,2279A,116.8569,32.5951,淮南市,谢家集区政府,,38,20,27,10,9,158,120,110,79,10,12,7,8,0.3,0.4
2023-08-20T11:00:00,2280A,116.8281,32.633,淮南市,八公山区政府,,40,40,42,24,28,153,117,100,74,8,12,6,7,0.3,0.4
2023-08-20T11:00:00,2281A,116.6325,32.6201,淮南市,焦岗湖风景区管理处,,32,30,33,17,14,148,100,72,57,5,13,3,3,0.3,0.4
2023-08-20T11:00:00,2282A,116.8004,33.975,淮北市,监测站,,33,32,30,17,18,116,103,82,62,6,8,4,4,0.6,0.6
2023-08-20T11:00:00,2283A,116.8091,33.9007,淮北市,烈山区政府,,36,35,34,23,19,122,113,82,74,5,7,5,4,0.5,0.5
2023-08-20T11:00:00,2285A,117.8177,30.9412,铜陵市,市第四中学,,43,43,36,19,19,131,81,51,41,23,19,17,11,0.7,0.5
2023-08-20T11:00:00,2286A,117.8059,30.9273,铜陵市,市公路局,颗粒物(PM10),52,53,41,32,20,145,78,45,44,35,20,40,11,1.3,0.7
2023-08-20T11:00:00,2287A,117.7807,30.9413,铜陵市,市新民污水厂,颗粒物(PM10),52,53,36,33,16,154,73,38,37,32,24,27,11,1.4,0.6
2023-08-20T11:00:00,2288A,117.7439,30.8792,铜陵市,市第九中学,,32,28,45,9,14,131,101,34,33,19,27,5,6,0.7,0.6
2023-08-20T11:00:00,2289A,117.846,30.9413,铜陵市,车站新区,,33,22,31,22,18,144,103,50,50,16,17,7,5,0.5,0.4
2023-08-20T11:00:00,2290A,117.8483,30.97,铜陵市,市职教基地,,,15,27,4,11,136,103,58,58,11,12,,5,0.7,0.7
2023-08-20T11:00:00,2291A,117.0809,30.5177,安庆市,环科院,,37,19,16,12,10,181,118,92,74,15,14,9,7,0.7,0.7
2023-08-20T11:00:00,2292A,117.0331,30.5119,安庆市,马山宾馆,,38,13,19,10,11,178,119,105,76,15,15,5,6,0.7,0.8
2023-08-20T11:00:00,2294A,116.9896,30.6145,安庆市,安庆大学,细颗粒物(PM2.5),87,65,23,64,15,161,116,59,59,26,14,34,6,1.0,0.6
2023-08-20T11:00:00,2295A,118.2903,29.6963,黄山市,延安路89号,,30,26,25,5,4,116,96,44,44,3,6,7,6,0.4,0.4
2023-08-20T11:00:00,2296A,118.327,29.7178,黄山市,黄山东路89号,,28,14,15,1,4,110,89,50,48,3,6,6,6,0.4,0.4
2023-08-20T11:00:00,2297A,118.1371,30.2756,黄山市,黄山区政府5号楼,,30,9,25,1,9,113,94,48,48,5,6,6,6,0.3,0.4
2023-08-20T11:00:00,2298A,118.3093,32.3153,滁州市,老年大学,,38,30,34,18,19,198,120,64,53,11,17,7,8,0.3,0.4
2023-08-20T11:00:00,2299A,118.3244,32.2786,滁州市,人大宾馆,,39,27,28,13,22,196,122,62,54,13,18,6,8,0.3,0.4
2023-08-20T11:00:00,2301A,115.8277,32.8929,阜阳市,市监测站,,40,26,27,19,15,175,126,84,81,8,10,7,7,0.5,0.5
2023-08-20T11:00:00,2303A,115.8554,32.8605,阜阳市,开发区,,,22,31,,9,175,124,72,70,10,12,8,7,0.5,0.5
2023-08-20T11:00:00,2307A,116.5079,31.737,六安市,监测大楼,,37,22,28,4,11,172,117,78,78,5,10,5,4,0.5,0.5
2023-08-20T11:00:00,2308A,116.4738,31.7643,六安市,皖西学院,,39,33,34,3,13,180,124,89,89,6,11,6,7,0.5,0.5
2023-08-20T11:00:00,2309A,116.4996,31.7905,六安市,朝阳厂,,40,11,24,7,17,187,126,82,75,4,12,8,9,0.5,0.6
2023-08-20T11:00:00,2310A,116.5567,31.7886,六安市,开发区,,38,31,40,15,20,175,121,69,63,5,12,8,6,0.5,0.6
2023-08-20T11:00:00,2311A,115.8072,33.8399,亳州市,污水处理厂,,36,35,39,15,19,147,113,75,66,4,8,11,24,0.6,0.6
2023-08-20T11:00:00,2312A,115.7789,33.8518,亳州市,三国揽胜宫,,35,26,33,14,17,141,109,78,64,6,10,10,20,0.7,0.7
2023-08-20T11:00:00,2314A,117.47,30.6618,池州市,池州学院,,31,8,10,8,12,189,99,90,61,4,8,4,6,0.5,0.5
2023-08-20T11:00:00,2316A,118.7581,30.9454,宣城市,鳌峰子站,,49,49,24,14,13,122,94,80,67,14,15,4,5,0.3,0.3
2023-08-20T11:00:00,2317A,118.7385,30.9743,宣城市,敬亭山子站,,29,26,26,11,12,121,92,67,54,9,17,8,8,0.4,0.4
2023-08-20T11:00:00,2318A,118.7173,30.9427,宣城市,开发区子站,,29,25,23,9,10,121,90,76,66,8,11,5,7,0.3,0.3
2023-08-20T11:00:00,2319A,119.0141,25.4325,莆田市,荔城区仓后路,,21,20,15,8,5,106,67,73,61,16,10,9,7,0.6,0.6
2023-08-20T11:00:00,2320A,119.0015,25.4553,莆田市,莆田市监测站,,22,16,16,8,2,106,69,62,62,10,5,9,6,0.6,0.5
2023-08-20T11:00:00,2321A,119.1119,25.4561,莆田市,涵江区六中,,28,20,15,19,4,98,71,84,62,16,11,14,8,0.6,0.6
2023-08-20T11:00:00,2322A,119.1013,25.3215,莆田市,秀屿区政府,,,,,,,,,,,,,,,,
2023-08-20T11:00:00,2323A,118.981,25.4792,莆田市,东圳水库,,,,,,,,,,,,,,,,
2023-08-20T11:00:00,2324A,117.6211,26.2625,三明市,三钢,,23,19,22,12,16,107,72,80,55,8,9,8,8,0.5,0.4
2023-08-20T11:00:00,2325A,117.635,26.2714,三明市,三明二中,,23,16,19,11,12,110,72,87,56,10,9,5,4,0.6,0.6
2023-08-20T11:00:00,2326A,117.6028,26.2378,三明市,三元区政府,,24,12,20,8,10,110,76,92,64,11,8,11,9,1.0,0.8
2023-08-20T11:00:00,2327A,117.7275,26.3108,三明市,洋溪,,,,,,,,,,,,,,,,
2023-08-20T11:00:00,2331A,118.0966,26.6761,南平市,茫荡山,,,,,,,,,,,,,,,,
2023-08-20T11:00:00,2332A,118.1681,26.6369,南平市,南平市监测站,,23,13,15,0,2,104,73,54,41,4,6,4,4,0.5,0.5
2023-08-20T11:00:00,2333A,118.1825,26.6489,南平市,南平铝业有限公司,,25,6,15,2,7,98,78,48,38,6,9,3,4,0.5,0.5
2023-08-20T11:00:00,2334A,118.1756,26.6272,南平市,南平七中,,22,8,21,7,6,110,70,50,34,4,5,4,4,0.5,0.5
2023-08-20T11:00:00,2335A,117.0189,25.1181,龙岩市,龙岩师专,,,,,,,,,,,,,,,,
2023-08-20T11:00:00,2336A,117.0217,25.1033,龙岩市,龙岩市监测站,,36,36,28,18,18,141,64,44,38,18,16,5,5,0.6,0.5
2023-08-20T11:00:00,2337A,117.0258,25.0661,龙岩市,闽西职业技术学院,,47,47,25,32,15,128,48,42,30,17,13,6,5,0.7,0.5
2023-08-20T11:00:00,2338A,117.0196,25.0306,龙岩市,龙岩学院,,49,49,23,32,10,132,37,58,26,19,10,8,4,0.6,0.4
2023-08-20T11:00:00,2339A,119.5001,26.6946,宁德市,金涵水库,,,,,,,,,,,,,,,,
2023-08-20T11:00:00,2341A,119.5388,26.6612,宁德市,宁德市监测站,,26,22,10,9,6,93,81,71,65,9,10,3,2,0.6,0.6
2023-08-20T11:00:00,2342A,117.3102,29.3867,景德镇市,王港中学,,27,16,17,5,9,116,85,28,28,3,4,2,2,0.5,0.5
2023-08-20T11:00:00,2343A,117.2117,29.2933,景德镇市,老干部活动中心,,28,10,21,15,13,111,87,44,44,4,10,5,5,0.3,0.4
2023-08-20T11:00:00,2344A,117.1894,29.2789,景德镇市,兽医站,,42,16,20,29,19,118,89,49,49,5,10,4,7,0.4,0.5
2023-08-20T11:00:00,2345A,117.1547,29.2617,景德镇市,台达陶瓷,,29,12,20,16,15,125,90,50,50,9,12,14,11,0.5,0.5
2023-08-20T11:00:00,2346A,117.2461,29.2956,景德镇市,陶研所,,28,8,30,2,9,112,87,40,40,4,7,8,7,0.3,0.4
2023-08-20T11:00:00,2347A,114.0997,27.5002,萍乡市,武功山,,29,21,17,19,19,142,92,58,58,4,5,4,4,1.3,1.4
2023-08-20T11:00:00,2348A,113.8385,27.6434,萍乡市,中医院,细颗粒物(PM2.5),57,59,48,40,35,155,109,103,76,9,8,22,19,0.8,0.7
2023-08-20T11:00:00,2349A,113.8493,27.6253,萍乡市,市政府车库,细颗粒物(PM2.5),67,77,56,48,32,175,103,92,67,20,14,22,21,1.1,0.8
2023-08-20T11:00:00,2350A,113.8676,27.6435,萍乡市,市环保局,细颗粒物(PM2.5),64,70,52,46,35,151,112,98,72,11,10,20,21,0.4,0.4
2023-08-20T11:00:00,2351A,113.866,27.6198,萍乡市,安源区政府,"颗粒物(PM10),细颗粒物(PM2.5)",52,54,51,36,32,164,96,84,54,19,17,16,18,1.1,0.8
2023-08-20T11:00:00,2352A,115.0861,27.9317,新余市,北岗,,36,35,37,25,29,150,105,64,48,5,7,12,14,0.8,0.8
2023-08-20T11:00:00,2353A,114.9886,27.8431,新余市,飞宇,,,69,56,35,30,142,104,77,56,6,12,8,15,,0.6
2023-08-20T11:00:00,2354A,114.9231,27.8246,新余市,第二水厂,颗粒物(PM10),56,62,56,27,29,167,120,94,79,14,14,10,10,0.6,0.4
2023-08-20T11:00:00,2355A,114.9308,27.8036,新余市,市气象局,颗粒物(PM10),53,56,52,32,34,154,102,79,66,9,10,11,13,0.8,0.8
2023-08-20T11:00:00,2357A,116.9822,28.1136,鹰潭市,龙虎山,,30,20,24,9,18,125,93,36,36,4,3,4,3,0.0,0.1
2023-08-20T11:00:00,2358A,117.0564,28.2642,鹰潭市,新监测站,颗粒物(PM10),53,56,38,13,20,166,106,62,62,3,9,4,9,0.5,0.6
2023-08-20T11:00:00,2359A,117.0311,28.2475,鹰潭市,财苑宾馆,,,,27,,16,164,106,64,64,2,8,2,6,0.4,0.4
2023-08-20T11:00:00,2360A,117.0222,28.2264,鹰潭市,体育馆,,32,21,32,2,14,168,101,60,60,7,7,1,3,0.5,0.2
2023-08-20T11:00:00,2361A,117.0017,28.2131,鹰潭市,三川水表,,32,12,28,7,15,162,100,70,64,2,2,2,2,0.4,0.5
2023-08-20T11:00:00,2362A,114.9017,25.9149,赣州市,通天岩,,,,,,,,,,,,,,,,
2023-08-20T11:00:00,2363A,114.9367,25.8664,赣州市,地委,,38,38,44,25,28,144,96,65,65,10,9,8,7,1.2,1.1
2023-08-20T11:00:00,2364A,114.9461,25.8481,赣州市,气象台,,42,42,41,19,25,161,106,67,67,11,16,8,7,0.7,0.7
2023-08-20T11:00:00,2365A,114.9322,25.8333,赣州市,市图书馆,,,,,,,,,,,,,,,,
2023-08-20T11:00:00,2366A,114.8905,25.8471,赣州市,华坚鞋城,,43,43,50,26,31,106,58,35,35,11,11,9,15,0.5,0.6
2023-08-20T11:00:00,2367A,114.9754,27.0803,吉安市,红声器材厂,细颗粒物(PM2.5),58,50,50,41,34,161,133,103,81,12,10,26,20,0.9,0.9
2023-08-20T11:00:00,2368A,114.9658,27.0999,吉安市,市森林工业局,颗粒物(PM10),51,52,50,34,34,158,131,98,89,9,7,13,12,0.2,0.3
2023-08-20T11:00:00,2369A,114.99,27.1312,吉安市,市环境监测站,颗粒物(PM10),52,54,51,32,31,153,124,102,79,12,11,15,17,0.9,0.8
2023-08-20T11:00:00,2370A,115.0093,27.0968,吉安市,青原区法院,,49,49,48,33,34,169,130,107,77,12,13,19,22,0.7,0.7
2023-08-20T11:00:00,2371A,114.3408,27.8064,宜春市,槟榔水业,,,48,46,29,32,170,160,72,69,15,17,12,4,,2
2023-08-20T11:00:00,2373A,114.3956,27.7844,宜春市,市石油公司,颗粒物(PM10),56,62,55,37,34,176,120,55,55,14,16,16,10,1.1,1.1
2023-08-20T11:00:00,2374A,114.3703,27.7914,宜春市,市气象局,颗粒物(PM10),57,63,61,36,36,181,119,66,60,19,20,17,10,1.0,1.1
2023-08-20T11:00:00,2375A,114.4013,27.8074,宜春市,市广电局,,,55,52,34,34,188,118,86,69,,13,16,12,0.9,0.9
2023-08-20T11:00:00,2376A,116.2127,28.0814,抚州市,桐源党溪,,35,23,35,13,21,160,109,73,53,2,5,3,3,0.8,0.8
2023-08-20T11:00:00,2377A,116.3544,27.9831,抚州市,市站,,31,28,41,16,26,150,98,87,70,4,7,7,10,1.0,1.1
2023-08-20T11:00:00,2378A,116.3565,27.963,抚州市,血防站,,30,11,45,8,25,153,94,81,67,3,4,5,6,0.7,0.8
2023-08-20T11:00:00,2379A,116.3564,28.0007,抚州市,采茶剧团,,33,24,42,10,25,144,103,85,70,4,7,6,5,0.6,0.7
2023-08-20T11:00:00,2380A,116.385,27.9647,抚州市,医学分院,,31,28,45,11,23,151,98,78,68,6,9,5,6,0.7,0.9
2023-08-20T11:00:00,2381A,118.005,28.4572,上饶市,百草园,,29,29,27,3,13,129,62,40,31,10,13,10,16,0.8,0.8
2023-08-20T11:00:00,2382A,117.9756,28.4436,上饶市,市监测站,,30,30,30,11,13,140,84,59,46,11,14,18,20,0.5,0.6
2023-08-20T11:00:00,2383A,117.9519,28.4628,上饶市,凤凰光学,,,,,,,,,,,,,,,,
2023-08-20T11:00:00,2385A,114.17,35.9019,鹤壁市,市监测站,颗粒物(PM10),60,70,65,38,50,178,84,84,61,32,19,6,5,1.8,1.4
2023-08-20T11:00:00,2386A,114.2956,35.7511,鹤壁市,市交警支队,细颗粒物(PM2.5),75,82,62,55,35,155,69,40,40,21,24,17,11,1.9,1
2023-08-20T11:00:00,2387A,114.2878,35.7306,鹤壁市,迎宾馆,细颗粒物(PM2.5),73,79,54,53,29,164,75,47,36,22,24,14,7,2.0,1.3
2023-08-20T11:00:00,2389A,113.836,35.311,新乡市,环保西院,细颗粒物(PM2.5),62,54,59,44,38,136,82,51,51,20,22,6,6,0.8,0.9
2023-08-20T11:00:00,2390A,113.884,35.272,新乡市,开发区,细颗粒物(PM2.5),58,52,43,41,34,133,85,64,64,17,15,6,4,0.9,0.8
2023-08-20T11:00:00,2391A,113.883,35.303,新乡市,环保东院,颗粒物(PM10),56,62,54,39,32,134,78,81,47,19,20,6,4,0.7,0.7
2023-08-20T11:00:00,2392A,115.0312,35.7636,濮阳市,环保局,,43,43,37,24,31,123,91,66,53,13,16,5,5,0.8,0.8
2023-08-20T11:00:00,2394A,115.0574,35.7609,濮阳市,油田运输公司,,47,47,48,27,33,126,85,64,45,16,17,6,5,0.8,0.8
2023-08-20T11:00:00,2395A,115.0866,35.7754,濮阳市,油田物探公司,颗粒物(PM10),63,75,49,28,33,130,83,46,44,13,17,3,4,0.7,0.7
2023-08-20T11:00:00,2396A,113.8276,34.0159,许昌市,监测站,,47,47,46,18,31,157,109,68,68,10,16,5,3,0.4,0.6
2023-08-20T11:00:00,2398A,113.7906,33.9953,许昌市,开发区,,35,27,44,18,26,140,112,73,73,6,13,1,2,0.5,0.6
2023-08-20T11:00:00,2399A,114.051,33.5699,漯河市,三五一五工厂,,44,44,49,22,28,176,139,68,68,6,10,12,12,0.6,0.6
2023-08-20T11:00:00,2400A,114.0055,33.5698,漯河市,漯河大学,,46,45,50,25,33,186,146,79,76,4,8,12,10,0.5,0.5
2023-08-20T11:00:00,2401A,114.0138,33.5828,漯河市,市水利局,,45,41,49,24,31,179,141,72,65,6,10,10,9,0.8,0.8
2023-08-20T11:00:00,2402A,114.0261,33.5698,漯河市,市广电局,,49,49,48,26,31,182,145,73,73,5,11,9,8,0.6,0.6
2023-08-20T11:00:00,2404A,112.5224,33.0122,南阳市,瓦房庄,,,42,47,27,33,157,117,114,102,,12,7,6,0.7,0.7
2023-08-20T11:00:00,2405A,112.5003,32.9735,南阳市,汉画馆,,45,45,46,27,32,157,124,127,106,16,12,8,7,0.8,0.7
2023-08-20T11:00:00,2406A,112.5573,33.027,南阳市,气象站,细颗粒物(PM2.5),54,45,50,38,40,152,118,103,102,10,9,6,5,0.6,0.6
2023-08-20T11:00:00,2407A,112.5481,32.9689,南阳市,理工学院,,47,47,48,29,31,164,128,121,108,9,8,8,8,0.6,0.6
2023-08-20T11:00:00,2408A,115.6702,34.4285,商丘市,环境监测站,,41,41,46,23,24,152,109,73,57,8,14,7,7,0.7,0.7
2023-08-20T11:00:00,2409A,115.6458,34.4045,商丘市,粮食局,,44,44,36,22,21,149,119,84,69,7,10,4,5,0.5,0.5
2023-08-20T11:00:00,2410A,115.6293,34.3948,商丘市,睢阳区环保局,,40,40,40,22,21,148,115,76,72,8,10,7,7,0.5,0.5
2023-08-20T11:00:00,2420A,114.0189,32.9656,驻马店市,市一纸厂,,43,41,43,18,19,169,135,99,80,7,9,7,8,0.4,0.5
2023-08-20T11:00:00,2421A,114.0114,33.015,驻马店市,市彩印厂,,,,43,19,22,169,136,101,76,7,11,11,11,0.4,0.5
2023-08-20T11:00:00,2422A,113.9976,32.9771,驻马店市,天方二分厂,,41,41,42,25,26,165,130,109,82,6,7,7,7,0.5,0.5
2023-08-20T11:00:00,2423A,115.0601,30.2313,黄石市,沈家营,,45,41,44,17,18,200,141,95,95,13,19,12,11,0.9,0.8
2023-08-20T11:00:00,2424A,115.0817,30.2006,黄石市,陈家湾,,45,37,37,11,19,203,143,128,115,3,19,10,9,0.6,0.7
2023-08-20T11:00:00,2426A,114.8988,30.2019,黄石市,铁山,,48,33,33,13,16,198,153,121,120,9,10,6,6,0.7,0.7
2023-08-20T11:00:00,2427A,115.0307,30.2092,黄石市,团城山,,48,29,36,10,14,226,153,135,128,7,11,7,9,0.9,0.7
2023-08-20T11:00:00,2428A,111.0419,32.395,十堰市,武当山,,42,32,40,29,26,116,108,100,100,5,6,9,9,0.7,0.7
2023-08-20T11:00:00,2429A,110.78,32.6494,十堰市,滨河新村,颗粒物(PM10),56,61,62,36,29,123,74,106,59,10,6,8,6,0.9,0.6
2023-08-20T11:00:00,2430A,110.7258,32.6389,十堰市,刘家沟,,,,,,,,,,,,,,,,
2023-08-20T11:00:00,2431A,110.8839,32.5714,十堰市,铁二处,颗粒物(PM10),54,57,58,31,28,138,70,119,59,13,6,5,5,0.9,0.7
2023-08-20T11:00:00,2432A,112.155,32.0197,襄阳市,襄城运动路,颗粒物(PM10),56,61,64,34,39,140,127,69,59,18,22,6,5,1.0,1
2023-08-20T11:00:00,2433A,112.1392,32.0564,襄阳市,樊城新华路,,,70,66,36,37,146,125,76,76,,16,6,6,0.9,0.8
2023-08-20T11:00:00,2434A,112.1825,32.1142,襄阳市,高新管委会,颗粒物(PM10),53,56,58,34,48,158,121,85,85,9,14,4,4,0.8,0.9
2023-08-20T11:00:00,2435A,112.2106,32.0903,襄阳市,襄州航空路,颗粒物(PM10),55,60,58,27,32,151,110,78,78,14,14,8,7,0.8,0.8
2023-08-20T11:00:00,2436A,114.8938,30.3994,鄂州市,市政府,,47,38,37,14,16,184,150,98,94,9,12,6,4,0.7,0.6
2023-08-20T11:00:00,2437A,114.8989,30.3714,鄂州市,赵家坝,颗粒物(PM10),67,83,57,13,19,191,149,82,82,14,17,9,6,0.7,0.5
2023-08-20T11:00:00,2439A,112.2014,31.0481,荆门市,竹园小学,颗粒物(PM10),52,54,62,23,33,168,153,126,116,7,10,7,10,0.7,0.8
2023-08-20T11:00:00,2440A,112.1969,30.9891,荆门市,掇刀,,48,44,57,26,35,157,152,127,122,10,13,11,13,0.6,0.7
2023-08-20T11:00:00,2441A,112.2213,31.0386,荆门市,石化一小,,48,46,63,29,37,162,153,121,108,9,13,13,10,0.5,0.6
2023-08-20T11:00:00,2443A,113.9153,30.9285,孝感市,文化路,,47,35,35,15,21,167,148,129,120,6,8,7,7,0.7,0.8
2023-08-20T11:00:00,2444A,113.942,30.9075,孝感市,东城区,,50,30,32,14,18,174,157,137,127,6,7,6,8,0.7,0.8
2023-08-20T11:00:00,2446A,114.9028,30.4742,黄冈市,职工中心,,45,34,36,15,21,195,143,102,88,7,4,13,10,0.6,0.6
2023-08-20T11:00:00,2447A,114.3175,29.8142,咸宁市,森林公园,,39,23,36,25,22,185,122,129,93,4,4,6,5,0.7,0.7
2023-08-20T11:00:00,2448A,114.3107,29.8454,咸宁市,市发改委,,44,42,43,23,24,200,139,121,108,6,7,7,7,0.6,0.6
2023-08-20T11:00:00,2449A,114.2936,29.8566,咸宁市,咸安区政府,,42,32,37,25,27,186,133,112,106,9,12,7,7,0.6,0.6
2023-08-20T11:00:00,2451A,113.3583,31.7275,随州市,市委党校,,47,35,35,22,23,178,150,102,102,4,5,7,7,0.8,0.7
2023-08-20T11:00:00,2452A,113.3833,31.6908,随州市,市林业局,,50,34,33,24,24,189,158,113,86,8,10,5,4,0.8,0.7
2023-08-20T11:00:00,2453A,113.3983,31.7308,随州市,市立交桥水厂,,46,28,32,22,23,175,147,94,94,5,12,8,8,0.7,0.7
2023-08-20T11:00:00,2454A,109.4978,30.2981,恩施土家族苗族自治州,湖北民院,,,,,,,,,,,,,,,,
2023-08-20T11:00:00,2455A,109.4707,30.2798,恩施土家族苗族自治州,州电力总公司,,30,30,24,17,21,116,68,64,40,9,10,8,8,0.8,0.8
2023-08-20T11:00:00,2456A,112.5003,26.9167,衡阳市,原169医院,颗粒物(PM10),54,57,54,34,38,149,132,72,72,7,12,8,5,0.6,0.5
2023-08-20T11:00:00,2457A,112.6194,26.9258,衡阳市,衡阳化工总厂,颗粒物(PM10),55,59,70,28,40,191,146,93,81,7,11,10,21,0.8,0.8
2023-08-20T11:00:00,2458A,112.6211,26.8956,衡阳市,珠晖区环保局,,,60,61,,,186,144,92,81,9,15,8,13,0.8,0.8
2023-08-20T11:00:00,2459A,112.6197,26.8733,衡阳市,市委党校,颗粒物(PM10),56,61,57,34,35,189,149,118,92,9,11,12,14,0.9,0.9
2023-08-20T11:00:00,2460A,112.6006,26.8919,衡阳市,市监测站,细颗粒物(PM2.5),70,66,59,51,42,191,146,106,93,11,12,10,15,0.9,1
2023-08-20T11:00:00,2461A,112.5664,26.9056,衡阳市,真空机电公司,,,76,58,,38,173,154,122,90,9,11,12,10,0.9,0.9
2023-08-20T11:00:00,2462A,111.5239,27.3033,邵阳市,市水土所,细颗粒物(PM2.5),94,89,52,70,56,142,86,48,45,7,8,9,6,1.0,0.8
2023-08-20T11:00:00,2463A,111.4733,27.2317,邵阳市,市一中,细颗粒物(PM2.5),77,97,74,56,44,186,130,108,94,12,9,14,12,0.8,0.6
2023-08-20T11:00:00,2464A,111.5283,27.2442,邵阳市,市化工厂,颗粒物(PM10),63,76,55,43,43,172,121,99,84,15,12,24,13,1.0,0.7
