timepoint,stationcode,longitude,latitude,area,positionname,primarypollutant,aqi,pm10,pm10_24h,pm2_5,pm2_5_24h,o3,o3_24h,o3_8h,o3_8h_24h,no2,no2_24h,so2,so2_24h,co,co_24h
2024-10-16T0100,2566A,102.1879,31.914,阿坝藏族羌族自治州,州农科所,,,,22,,9,,,54,,,9,,9,,0.0
2024-10-16T0100,2568A,102.2502,31.8896,阿坝藏族羌族自治州,马师校,,18,,12,12,14,33,,,,11,11,4,4,0.2,0.2
2024-10-16T0100,3994A,102.2165,31.9024,阿坝藏族羌族自治州,马尔康中学西区,,23,23,21,15,15,34,,,,9,10,3,3,0.4,0.4
2024-10-16T0100,2695A,80.292,41.1694,阿克苏地区,电视台,颗粒物(PM10),98,145,132,56,42,3,,,,80,40,6,4,1.5,1
2024-10-16T0100,2696A,80.2613,41.1551,阿克苏地区,艺术中心,颗粒物(PM10),111,171,118,67,39,2,,,,94,41,4,4,1.6,0.4
2024-10-16T0100,2204A,105.6467,38.8363,阿拉善盟,西城区西花园,颗粒物(PM10),55,60,48,28,22,127,,,,7,12,10,10,1.4,1.4
2024-10-16T0100,2205A,105.6985,38.8411,阿拉善盟,蒙二幼,,49,49,51,19,20,97,,,,12,12,8,9,0.8,0.8
2024-10-16T0100,2206A,105.724,38.8516,阿拉善盟,环保局新楼,,35,35,45,15,18,109,,,,9,9,9,10,0.5,0.7
2024-10-16T0100,2708A,88.1264,47.8517,阿勒泰地区,市站,颗粒物(PM10),51,52,24,17,16,15,,,,24,22,7,8,0.6,0.6
2024-10-16T0100,2630A,80.1161,32.5,阿里地区,阿里监测站,,25,25,18,11,6,61,,,,20,18,14,12,0.5,0.4
2024-10-16T0100,3192A,80.0903,32.5028,阿里地区,阿里藏医院,,43,43,21,10,6,70,,,,22,14,9,8,0.5,0.4
2024-10-16T0100,2642A,109.0318,32.6537,安康市,香溪洞,,24,22,30,16,15,74,,,,10,10,12,9,0.3,0.3
2024-10-16T0100,2643A,109.0281,32.6939,安康市,安康市监测站,,30,28,34,21,24,27,,,,20,18,9,10,0.5,0.6
2024-10-16T0100,2644A,109.0072,32.6975,安康市,汉滨区检察院,,30,30,30,16,20,27,,,,19,18,7,8,0.4,0.4
2024-10-16T0100,2291A,117.0809,30.5177,安庆市,环科院,,50,37,36,35,29,68,,,,15,17,8,7,0.8,0.8
2024-10-16T0100,2292A,117.0331,30.5119,安庆市,马山宾馆,,50,36,33,35,29,74,,,,16,17,9,9,1.0,1
2024-10-16T0100,2294A,116.9896,30.6145,安庆市,安庆大学,,43,36,35,30,28,68,,,,12,12,8,8,0.8,0.8
2024-10-16T0100,3173A,117.0598,30.5351,安庆市,市人大,颗粒物(PM10),51,51,37,35,29,68,,,,16,18,9,9,0.8,0.8
2024-10-16T0100,3122A,105.9606,26.2611,安顺市,伍家关,,33,31,28,23,23,70,,,,10,12,23,11,0.7,0.8
2024-10-16T0100,3123A,105.9408,26.2431,安顺市,凤凰山,,39,34,31,27,25,75,,,,11,11,14,13,0.4,0.5
2024-10-16T0100,3124A,105.9439,26.2564,安顺市,金钟山,,38,37,32,26,27,74,,,,8,9,16,15,0.6,0.7
2024-10-16T0100,3125A,105.8983,26.2481,安顺市,娄家坡,,45,38,34,31,29,69,,,,12,13,14,14,0.6,0.6
2024-10-16T0100,1818A,114.4839,36.0621,安阳市,棉研所,细颗粒物(PM2.5),92,88,201,68,153,33,,,,27,36,6,8,0.5,1
2024-10-16T0100,1819A,114.3551,36.1017,安阳市,红庙街,颗粒物(PM10),82,114,157,40,107,24,,,,24,32,3,5,0.5,0.9
2024-10-16T0100,1820A,114.361,36.0681,安阳市,银杏小区,颗粒物(PM10),79,108,145,42,113,24,,,,14,19,2,5,0.5,1
2024-10-16T0100,3141A,114.3922,36.0878,安阳市,信访局,颗粒物(PM10),81,112,165,34,87,21,,,,20,29,2,4,0.4,0.8
2024-10-16T0100,3669A,114.4705,36.0637,安阳市,左辅环卫站,颗粒物(PM10),75,99,211,30,122,35,,,,22,42,2,3,0.4,0.9
2024-10-16T0100,3703A,114.2917,36.0949,安阳市,安钢职工学校,颗粒物(PM10),88,126,161,45,116,25,,,,25,30,2,8,0.4,1.1
2024-10-16T0100,1748A,123.044,41.1196,鞍山市,深沟寺,,34,34,21,14,10,8,,,,53,17,6,6,0.5,0.4
2024-10-16T0100,1749A,123.011,41.0931,鞍山市,太阳城,,29,29,20,12,8,11,,,,53,16,11,10,0.4,0.3
2024-10-16T0100,1750A,123.0485,41.1442,鞍山市,太平,,50,50,34,16,10,7,,,,55,21,15,10,0.6,0.4
2024-10-16T0100,1751A,122.9642,41.0971,鞍山市,铁西三道街,,37,37,34,12,9,14,,,,50,31,8,20,0.4,1.2
2024-10-16T0100,1752A,122.9341,41.0833,鞍山市,铁西工业园区,,34,34,25,12,9,22,,,,50,24,13,16,0.4,0.6
2024-10-16T0100,1753A,123.022,41.0821,鞍山市,明达新区,,37,37,22,9,8,22,,,,36,13,8,6,0.5,0.3
2024-10-16T0100,1754A,123.1289,41.0228,鞍山市,千山,,,,13,,4,,,72,,,15,,6,,0.2
2024-10-16T0100,2195A,107.4212,40.761,巴彦淖尔市,附二中,颗粒物(PM10),53,55,51,30,20,27,,,,34,22,7,8,0.3,0.3
2024-10-16T0100,2196A,107.37,40.7372,巴彦淖尔市,市环保大楼,,49,49,41,16,14,35,,,,30,19,5,7,0.5,0.5
2024-10-16T0100,1956A,86.1472,41.7538,巴音郭楞蒙古自治州,孔雀公园,颗粒物(PM10),106,161,119,37,32,0,,,,87,37,3,5,0.7,0.5
2024-10-16T0100,1957A,86.1972,41.7166,巴音郭楞蒙古自治州,棉纺厂,颗粒物(PM10),137,224,129,48,32,2,,,,66,34,1,2,0.6,0.4
2024-10-16T0100,1958A,86.2357,41.7173,巴音郭楞蒙古自治州,经济开发区,,,,115,,33,,,72,,,20,,2,,0.3
2024-10-16T0100,2914A,106.7677,31.8794,巴中市,苏山坪,,33,28,21,23,16,88,,,,8,9,3,3,0.4,0.4
2024-10-16T0100,3182A,106.7656,31.8545,巴中市,丽阳花园,细颗粒物(PM2.5),57,51,36,40,28,8,,,,30,24,5,5,0.7,0.7
2024-10-16T0100,3183A,106.7418,31.8654,巴中市,圣泉水务公司,,32,30,27,22,19,17,,,,26,19,4,4,0.5,0.6
2024-10-16T0100,3616A,106.7616,31.8344,巴中市,市中心医院,细颗粒物(PM2.5),62,64,41,44,26,3,,,,34,24,5,5,0.8,0.7
2024-10-16T0100,2235A,122.7911,45.6077,白城市,洮北区环保局,,34,34,28,15,11,28,,,,24,16,5,6,0.4,0.4
2024-10-16T0100,2236A,122.8738,45.5725,白城市,市环保局,,34,34,20,19,11,23,,,,34,23,4,6,0.4,0.4
2024-10-16T0100,2231A,126.4219,41.9171,白山市,喜丰,颗粒物(PM10),54,57,28,8,10,9,,,,27,15,15,8,0.5,0.4
2024-10-16T0100,2232A,126.4077,41.9419,白山市,环保局,,38,38,27,6,10,24,,,,12,10,7,8,0.4,0.5
2024-10-16T0100,2647A,104.1724,36.5446,白银市,第三小学,,31,31,60,13,26,53,,,,15,26,25,74,0.9,1.1
2024-10-16T0100,2648A,104.1465,36.5482,白银市,动力公司,,21,21,49,14,24,43,,,,21,21,15,66,0.6,0.9
2024-10-16T0100,2512A,106.6103,23.9011,百色市,市监测站,,13,13,11,8,6,6,,,,18,9,7,7,1.0,1
2024-10-16T0100,2513A,106.6538,23.8859,百色市,市中心血站,,18,15,16,12,10,4,,,,32,14,5,5,0.8,0.8
2024-10-16T0100,3406A,106.6085,23.8798,百色市,祈福高中,,20,20,19,6,7,13,,,,13,14,4,3,1.0,0.9
2024-10-16T0100,2270A,117.396,32.939,蚌埠市,工人疗养院,细颗粒物(PM2.5),103,122,90,77,51,62,,,,34,25,7,7,0.6,0.6
2024-10-16T0100,2271A,117.3605,32.9427,蚌埠市,百货大楼,细颗粒物(PM2.5),94,116,89,70,50,66,,,,40,28,6,8,0.5,0.5
2024-10-16T0100,2273A,117.4185,32.8911,蚌埠市,蚌埠学院,细颗粒物(PM2.5),97,88,68,72,51,69,,,,34,27,9,7,0.6,0.5
2024-10-16T0100,2274A,117.3533,32.9673,蚌埠市,淮上区政府,细颗粒物(PM2.5),103,102,86,77,58,67,,,,33,29,7,8,0.6,0.6
2024-10-16T0100,2275A,117.3145,32.8977,蚌埠市,高新区,细颗粒物(PM2.5),88,80,73,65,49,103,,,,15,28,6,8,0.6,0.6
2024-10-16T0100,3715A,117.3092,32.9314,蚌埠市,蚌埠田家炳中学,细颗粒物(PM2.5),88,106,87,65,49,76,,,,31,28,8,12,0.5,0.5
2024-10-16T0100,1585A,109.8756,40.6532,包头市,市环境监测站,颗粒物(PM10),60,70,30,34,12,6,,,,65,37,9,10,1.2,0.7
2024-10-16T0100,1587A,109.9991,40.5842,包头市,包头八中,颗粒物(PM10),53,55,36,21,9,4,,,,67,42,18,9,1.0,0.8
2024-10-16T0100,1588A,109.8538,40.6821,包头市,青山宾馆,颗粒物(PM10),56,62,26,23,10,4,,,,53,34,9,11,1.1,0.8
2024-10-16T0100,1589A,109.8642,40.6288,包头市,惠龙物流,,44,44,21,14,9,19,,,,58,34,17,10,0.7,0.6
2024-10-16T0100,1590A,110.0377,40.5546,包头市,东河鸿龙湾,,33,33,24,14,8,22,,,,46,33,15,10,0.6,0.6
2024-10-16T0100,3283A,109.9154,40.5685,包头市,滨河大厦,,28,28,21,18,11,25,,,,52,39,13,12,0.5,0.5
2024-10-16T0100,3419A,109.9447,40.6261,包头市,包头市委党校,,39,39,24,14,9,6,,,,69,45,8,13,0.8,0.6
2024-10-16T0100,3683A,109.8331,40.6576,包头市,昆区政府,颗粒物(PM10),59,68,28,25,10,6,,,,67,34,10,10,1.0,0.6
2024-10-16T0100,1930A,107.185,34.3063,宝鸡市,庙沟村,,37,37,20,14,12,83,,,,16,10,7,7,0.5,0.5
2024-10-16T0100,1931A,107.0708,34.3017,宝鸡市,竹园沟,,35,35,23,21,15,45,,,,26,18,6,7,0.4,0.4
2024-10-16T0100,1932A,107.1906,34.3672,宝鸡市,三陆医院,细颗粒物(PM2.5),73,72,47,53,29,30,,,,51,33,22,11,0.7,0.7
2024-10-16T0100,1933A,107.1431,34.3547,宝鸡市,监测站,,42,42,37,23,20,35,,,,26,22,6,7,0.5,0.5
2024-10-16T0100,1934A,107.1186,34.3739,宝鸡市,技工学校,颗粒物(PM10),58,66,38,36,21,56,,,,23,25,7,9,0.7,0.6
2024-10-16T0100,1935A,107.3906,34.3528,宝鸡市,陈仓区环保局家属楼,细颗粒物(PM2.5),64,76,53,46,39,29,,,,53,40,9,12,0.6,0.6
2024-10-16T0100,1936A,107.2058,34.3497,宝鸡市,文理学院,,43,42,38,30,20,46,,,,28,25,8,9,0.6,0.6
2024-10-16T0100,1937A,107.2386,34.3622,宝鸡市,三迪小学,,41,41,41,26,23,39,,,,40,40,8,9,0.6,0.6
2024-10-16T0100,1051A,115.493,38.8632,保定市,游泳馆,颗粒物(PM10),51,52,86,12,58,52,,,,21,25,3,2,0.3,0.5
2024-10-16T0100,1052A,115.5213,38.8959,保定市,华电二区,,38,,73,26,63,49,,,,18,26,6,4,0.5,0.5
2024-10-16T0100,1053A,115.4713,38.9108,保定市,接待中心,,43,43,84,18,57,50,,,,15,24,3,3,0.4,0.5
2024-10-16T0100,1054A,115.4612,38.8416,保定市,地表水厂,颗粒物(PM10),55,60,91,18,59,13,,,,41,24,3,3,0.2,0.4
2024-10-16T0100,3581A,115.31981,38.95208,保定市,满城区生态环境分局,颗粒物(PM10),59,68,89,24,49,26,,,,31,29,5,4,0.6,0.7
2024-10-16T0100,3582A,115.47694,38.76408,保定市,清苑区第二中学,,49,49,103,34,72,37,,,,29,32,3,5,0.3,0.6
2024-10-16T0100,3583A,115.62909,39.02311,保定市,徐水物探局,,44,44,76,14,47,20,,,,34,29,5,6,0.3,0.4
2024-10-16T0100,4004A,115.4202,38.8656,保定市,双鹰农机,颗粒物(PM10),55,60,87,28,56,14,,,,56,32,2,3,0.4,0.5
2024-10-16T0100,4034A,115.5150,38.8590,保定市,植保所站,,50,50,91,24,63,48,,,,24,30,11,9,0.4,0.5
2024-10-16T0100,2594A,99.1678,25.1081,保山市,市环境监测站,,32,32,37,15,21,39,,,,5,8,4,5,0.4,0.5
2024-10-16T0100,2595A,99.1711,25.1328,保山市,市环保局,,33,33,38,8,18,47,,,,3,6,4,5,0.4,0.4
2024-10-16T0100,1866A,109.2262,21.588,北海市,牛尾岭水库,,,15,21,12,15,15,,,,,,3,4,0.7,0.6
2024-10-16T0100,1867A,109.1436,21.4086,北海市,海滩公园,,39,39,35,20,15,42,,,,15,9,6,9,0.8,0.7
2024-10-16T0100,1868A,109.0981,21.4661,北海市,新市环保局,,28,28,30,17,17,48,,,,11,11,6,6,0.6,0.6
2024-10-16T0100,1869A,109.1778,21.5233,北海市,北海工业园,,28,28,34,17,20,42,,,,16,15,6,8,0.7,0.6
2024-10-16T0100,3400A,109.1911,21.4415,北海市,龙潭自来水厂,,36,36,30,20,22,32,,,,14,11,7,9,0.5,0.6
2024-10-16T0100,1001A,116.3621,39.8784,北京市,万寿西宫,,45,45,40,18,24,37,,,,25,19,2,1,0.9,0.7
2024-10-16T0100,1002A,116.2202,40.2915,北京市,定陵,,39,39,22,22,14,37,,,,16,10,3,2,0.4,0.2
2024-10-16T0100,1003A,116.4174,39.9289,北京市,东四,颗粒物(PM10),52,53,41,25,26,44,,,,20,18,4,2,0.5,0.5
2024-10-16T0100,1004A,116.4072,39.8863,北京市,天坛,,47,47,32,24,23,37,,,,24,19,1,3,0.4,0.4
2024-10-16T0100,1005A,116.462,39.9365,北京市,农展馆,,43,43,36,18,23,47,,,,21,22,6,4,0.4,0.4
2024-10-16T0100,1006A,116.3392,39.9295,北京市,官园,,35,35,34,15,21,52,,,,14,20,5,3,0.4,0.4
2024-10-16T0100,1007A,116.2878,39.9611,北京市,海淀万柳,,35,35,36,13,21,57,,,,18,26,3,4,0.3,0.4
2024-10-16T0100,1008A,116.6636,40.135,北京市,顺义新城,,40,40,34,15,21,23,,,,35,21,1,3,0.5,0.4
2024-10-16T0100,1009A,116.6275,40.3275,北京市,怀柔镇,,33,33,26,15,19,30,,,,34,23,3,3,0.6,0.5
2024-10-16T0100,1010A,116.2296,40.217,北京市,昌平镇,颗粒物(PM10),55,60,29,25,15,33,,,,29,20,4,3,0.6,0.5
2024-10-16T0100,1011A,116.3966,39.9821,北京市,奥体中心,,43,43,33,20,20,48,,,,22,25,3,2,0.5,0.5
2024-10-16T0100,1012A,116.184,39.9136,北京市,古城,,46,46,48,18,26,44,,,,17,25,3,3,0.6,0.6
2024-10-16T0100,3281A,115.9718,40.4529,北京市,延庆夏都,颗粒物(PM10),63,75,30,41,19,35,,,,17,12,3,2,0.5,0.3
2024-10-16T0100,3417A,117.0709,40.1465,北京市,平谷新城,,23,23,30,8,16,49,,,,14,12,3,3,0.8,0.4
2024-10-16T0100,3418A,116.8336,40.4095,北京市,密云新城,,38,38,22,15,12,47,,,,21,17,2,3,0.6,0.3
2024-10-16T0100,3671A,116.088,39.9726,北京市,门头沟三家店,,37,37,27,21,18,34,,,,28,26,3,3,0.4,0.3
2024-10-16T0100,3672A,116.1541,39.8204,北京市,丰台云岗,,39,39,37,16,22,39,,,,16,24,3,3,0.3,0.4
2024-10-16T0100,3673A,116.6804,39.9081,北京市,通州东关,颗粒物(PM10),55,59,44,20,27,8,,,,42,24,1,2,0.6,0.4
2024-10-16T0100,3674A,115.9577,39.7603,北京市,房山燕山,,48,48,31,19,21,42,,,,17,15,1,1,0.4,0.3
2024-10-16T0100,3675A,116.4672,39.7733,北京市,大兴旧宫,颗粒物(PM10),62,73,41,36,23,15,,,,30,22,3,3,0.6,0.4
2024-10-16T0100,3694A,115.986,40.4563,北京市,延庆石河营,细颗粒物(PM2.5),62,72,28,44,20,35,,,,20,14,3,3,0.4,0.3
2024-10-16T0100,3695A,116.6151,40.3053,北京市,怀柔新城,,33,33,28,18,21,24,,,,32,14,2,2,0.5,0.3
2024-10-16T0100,3696A,116.2545,39.8768,北京市,丰台小屯,,35,35,36,14,19,35,,,,27,29,1,1,0.5,0.5
2024-10-16T0100,3697A,116.84,40.3844,北京市,密云镇,,36,36,23,14,13,52,,,,14,17,6,4,0.8,0.4
2024-10-16T0100,1761A,123.8275,41.3064,本溪市,大峪,,34,34,18,7,5,16,,,,34,14,10,10,0.8,0.7
2024-10-16T0100,1762A,123.7567,41.3325,本溪市,溪湖,,33,33,16,9,6,6,,,,50,19,10,10,0.7,0.5
2024-10-16T0100,1763A,123.7169,41.3094,本溪市,彩屯,,29,29,22,15,12,16,,,,36,27,7,8,0.5,0.4
2024-10-16T0100,1764A,123.7669,41.2864,本溪市,东明,,36,36,23,12,6,20,,,,37,20,7,7,0.5,0.4
2024-10-16T0100,1765A,123.7992,41.2664,本溪市,新立屯,,14,8,15,6,7,24,,,,28,16,5,6,0.6,0.4
2024-10-16T0100,1766A,123.8142,41.3472,本溪市,威宁,,49,49,29,21,12,7,,,,34,19,8,8,0.7,0.5
2024-10-16T0100,2587A,105.2864,27.3125,毕节市,八中,,42,41,25,29,17,65,,,,16,11,9,7,0.5,0.5
2024-10-16T0100,2588A,105.31,27.2944,毕节市,师专,,47,47,23,31,23,68,,,,12,8,11,8,0.5,0.5
2024-10-16T0100,3537A,105.3631,27.3533,毕节市,长征村,细颗粒物(PM2.5),60,54,34,43,27,67,,,,10,10,9,7,0.6,0.6
2024-10-16T0100,1629A,118.0018,37.3617,滨州市,第二水厂,,24,24,99,3,50,58,,,,16,39,6,7,0.3,0.4
2024-10-16T0100,1630A,117.9776,37.393,滨州市,北中新校,,27,27,95,3,46,62,,,,13,35,7,9,0.4,0.7
2024-10-16T0100,3514A,117.9378,37.3956,滨州市,中海酒店,,21,12,81,7,46,67,,,,17,38,4,7,0.4,0.6
2024-10-16T0100,3515A,117.9378,37.3553,滨州市,开发区一中,,,,107,,56,,,63,,,47,,10,,0.6
2024-10-16T0100,3516A,118.0917,37.694,滨州市,金海六路,,,,86,,48,,,50,,,31,,7,,0.5
2024-10-16T0100,4028A,117.9956,37.3753,滨州市,滨州市西街道办事处,,19,19,87,9,56,51,,,,19,35,7,9,0.4,0.7
2024-10-16T0100,2311A,115.8072,33.8399,亳州市,污水处理厂,细颗粒物(PM2.5),137,141,114,104,83,47,,,,39,32,18,12,0.3,0.3
2024-10-16T0100,2312A,115.7789,33.8518,亳州市,三国揽胜宫,细颗粒物(PM2.5),128,146,113,97,75,58,,,,33,27,10,7,0.6,0.6
2024-10-16T0100,3332A,115.7633,33.8034,亳州市,亳州学院,细颗粒物(PM2.5),110,161,127,83,78,66,,,,31,25,7,5,0.6,0.7
2024-10-16T0100,2693A,82.0485,44.8556,博尔塔拉蒙古自治州,市党校,,36,36,45,15,18,33,,,,11,14,5,7,0.5,0.3
2024-10-16T0100,2694A,82.0806,44.8969,博尔塔拉蒙古自治州,市环保局,,36,36,54,13,17,30,,,,21,18,5,7,0.3,0.4
2024-10-16T0100,1071A,116.8842,38.2991,沧州市,沧县城建局,,33,33,107,11,77,26,,,,39,38,10,4,0.2,0.6
2024-10-16T0100,1072A,116.8584,38.3254,沧州市,电视转播站,,29,29,103,7,59,50,,,,24,31,3,3,0.1,0.5
2024-10-16T0100,1073A,116.8709,38.3228,沧州市,市环保局,,37,37,114,21,80,38,,,,23,29,14,12,0.2,0.6
2024-10-16T0100,3324A,116.8136,38.3004,沧州市,河北水利电力学院,,29,29,103,16,77,47,,,,26,27,7,5,0.1,0.5
2024-10-16T0100,2622A,97.1806,31.1273,昌都市,昌都监测站,,22,6,12,3,7,70,,,,5,12,8,8,0.3,0.5
2024-10-16T0100,3719A,97.1714,31.1406,昌都市,昌都会议中心,,24,6,8,3,6,74,,,,2,6,8,8,0.4,0.4
2024-10-16T0100,2690A,88.1236,43.8886,昌吉回族自治州,天山天池,,32,32,25,12,9,50,,,,10,9,8,8,0.7,0.6
2024-10-16T0100,2692A,87.2717,44.0297,昌吉回族自治州,新区政务中心,"颗粒物(PM10),细颗粒物(PM2.5)",62,73,71,44,33,4,,,,42,30,5,5,0.9,0.9
2024-10-16T0100,3613A,87.3095,44.0142,昌吉回族自治州,亚心广场,颗粒物(PM10),75,100,73,36,22,7,,,,53,36,5,5,0.9,0.8
2024-10-16T0100,1119A,125.3325,43.9166,长春市,食品厂,,47,47,25,26,14,5,,,,48,26,7,6,0.4,0.3
2024-10-16T0100,1120A,125.2863,43.9027,长春市,客车厂,,26,21,20,18,13,7,,,,45,25,7,7,0.5,0.4
2024-10-16T0100,1121A,125.2841,43.8463,长春市,邮电学院,,26,25,17,18,13,6,,,,42,18,6,6,0.4,0.3
2024-10-16T0100,1122A,125.3716,43.8772,长春市,劳动公园,,26,26,19,14,8,16,,,,44,22,8,8,0.5,0.4
2024-10-16T0100,1123A,125.3297,43.8805,长春市,园林处,,24,20,11,13,9,10,,,,48,18,6,5,0.5,0.3
2024-10-16T0100,1124A,125.4605,43.79,长春市,净月潭,,27,27,15,9,6,24,,,,20,16,6,6,0.3,0.3
2024-10-16T0100,1125A,125.7194,43.515,长春市,甩湾子,,,,,,,,,,,,,,,,
2024-10-16T0100,1126A,125.3863,43.8447,长春市,经开区环卫处,颗粒物(PM10),55,60,19,17,9,4,,,,44,21,9,8,0.5,0.4
2024-10-16T0100,1127A,125.245,43.7783,长春市,高新区管委会,,38,,18,26,9,6,,,,41,20,6,5,0.5,0.4
2024-10-16T0100,1128A,125.1761,43.8325,长春市,岱山公园,颗粒物(PM10),78,106,24,45,11,4,,,,58,24,6,5,0.7,0.4
2024-10-16T0100,1335A,113.0833,28.2325,长沙市,经开区环保局,细颗粒物(PM2.5),89,,56,66,71,33,,,,35,29,2,1,0.6,0.7
2024-10-16T0100,1336A,112.8872,28.2189,长沙市,高开区环保局,细颗粒物(PM2.5),55,49,56,39,50,58,,,,16,18,4,4,0.8,0.9
2024-10-16T0100,1337A,113.0792,28.2053,长沙市,马坡岭,细颗粒物(PM2.5),55,,55,39,48,41,,,,20,21,4,3,0.6,0.7
2024-10-16T0100,1338A,112.9394,28.19,长沙市,湖南师范大学,,49,46,62,34,47,62,,,,13,17,3,4,0.6,0.7
2024-10-16T0100,1339A,113.0178,28.1322,长沙市,雨花区环保局,细颗粒物(PM2.5),89,,61,66,69,48,,,,18,19,4,4,0.9,0.9
2024-10-16T0100,1340A,112.9792,28.2597,长沙市,伍家岭,,50,,64,35,67,53,,,,13,17,3,3,0.6,0.8
2024-10-16T0100,1341A,113.0014,28.1944,长沙市,火车新站,,49,34,52,34,44,54,,,,14,18,4,4,0.9,0.9
2024-10-16T0100,1342A,112.9844,28.1178,长沙市,天心区环保局,细颗粒物(PM2.5),64,66,77,46,53,38,,,,24,24,3,3,0.6,0.7
2024-10-16T0100,1343A,112.8908,28.1308,长沙市,湖南中医药大学,细颗粒物(PM2.5),79,,61,58,65,52,,,,16,22,4,4,0.9,0.9
2024-10-16T0100,1344A,112.9581,28.3611,长沙市,沙坪,颗粒物(PM10),56,61,76,23,32,56,,,,8,11,6,6,0.8,0.9
2024-10-16T0100,1727A,113.1147,36.1547,长治市,清华站,细颗粒物(PM2.5),94,89,109,70,89,79,,,,21,30,9,10,1.5,1.4
2024-10-16T0100,1728A,113.1031,36.1989,长治市,监测站,细颗粒物(PM2.5),104,,99,78,83,59,,,,33,32,11,13,1.6,1.5
2024-10-16T0100,1730A,113.0886,36.2125,长治市,审计局,细颗粒物(PM2.5),83,75,96,61,87,80,,,,17,22,7,9,0.8,0.9
2024-10-16T0100,1731A,113.0844,36.1856,长治市,长治八中,细颗粒物(PM2.5),84,115,123,62,73,72,,,,27,30,8,9,1.4,1.3
2024-10-16T0100,2845A,113.1569,36.1911,长治市,德盛苑,细颗粒物(PM2.5),94,79,86,70,75,128,,,,18,21,4,8,0.9,1.2
2024-10-16T0100,3568A,113.06,36.0464,长治市,向阳小学,细颗粒物(PM2.5),250,203,130,200,113,96,,,,33,30,10,11,1.8,1.1
2024-10-16T0100,3569A,112.8792,36.3144,长治市,屯留一中,细颗粒物(PM2.5),89,87,78,66,61,68,,,,25,27,15,14,1.7,1.2
2024-10-16T0100,3570A,113.235,36.3489,长治市,潞城四中,细颗粒物(PM2.5),88,84,111,65,90,78,,,,19,26,6,7,1.0,1.1
2024-10-16T0100,1854A,111.6975,28.9703,常德市,市二中,细颗粒物(PM2.5),59,62,43,42,35,29,,,,32,22,14,4,0.8,0.8
2024-10-16T0100,1857A,111.7158,29.1456,常德市,白鹤山,,,,,,,,,,,,,,,,
2024-10-16T0100,3138A,111.7153,29.0289,常德市,武陵区永安,细颗粒物(PM2.5),64,59,45,46,37,42,,,,22,21,12,3,0.7,0.6
2024-10-16T0100,3139A,111.6892,28.9881,常德市,鼎城区玉霞,细颗粒物(PM2.5),64,53,46,46,34,36,,,,24,21,26,6,0.8,0.8
2024-10-16T0100,3140A,111.6625,29.0531,常德市,武陵区长庚,颗粒物(PM10),67,84,49,46,38,40,,,,17,22,8,4,0.8,0.7
2024-10-16T0100,1196A,119.9633,31.762,常州市,市监测站,细颗粒物(PM2.5),107,153,103,80,56,32,,,,42,38,10,8,1.0,1
2024-10-16T0100,1200A,119.9468,31.7069,常州市,武进监测站,"颗粒物(PM10),细颗粒物(PM2.5)",87,123,91,64,50,45,,,,26,35,15,11,0.9,0.9
2024-10-16T0100,1201A,119.9255,31.9087,常州市,安家,细颗粒物(PM2.5),95,134,103,71,56,80,,,,23,40,7,7,0.8,0.8
2024-10-16T0100,3002A,119.9805,31.8174,常州市,行政中心,"颗粒物(PM10),细颗粒物(PM2.5)",98,145,97,73,52,50,,,,41,38,8,7,0.5,0.4
2024-10-16T0100,3003A,120.0522,31.7748,常州市,经开区,细颗粒物(PM2.5),103,129,98,77,54,4,,,,58,47,9,9,0.6,0.6
2024-10-16T0100,3010A,119.9025,31.7964,常州市,钟楼,细颗粒物(PM2.5),107,106,66,80,53,28,,,,48,34,10,9,0.9,0.8
2024-10-16T0100,3429A,119.8598,31.7066,常州市,武进经发区,颗粒物(PM10),77,103,70,50,41,4,,,,71,47,9,8,1.4,1.1
2024-10-16T0100,3430A,119.5826,31.7245,常州市,金坛城区,细颗粒物(PM2.5),73,56,47,53,40,19,,,,49,26,8,7,1.1,0.9
2024-10-16T0100,2220A,120.4318,41.5881,朝阳市,西梁,,39,39,25,12,6,18,,,,27,13,8,8,0.5,0.4
2024-10-16T0100,2221A,120.4521,41.5646,朝阳市,河畔小区,颗粒物(PM10),57,63,24,21,10,7,,,,44,14,22,10,0.7,0.6
2024-10-16T0100,2222A,120.4176,41.5648,朝阳市,八里堡,,47,47,31,11,10,19,,,,34,17,12,8,0.6,0.6
2024-10-16T0100,2223A,120.3806,41.5969,朝阳市,农业园区,,16,16,20,10,8,24,,,,25,16,4,5,0.5,0.4
2024-10-16T0100,1705A,116.6367,23.6719,潮州市,西园路,,33,,38,23,25,37,,,,15,12,5,6,0.3,0.3
2024-10-16T0100,3026A,116.6183,23.6608,潮州市,市政府,,28,28,34,13,19,53,,,,10,10,6,6,0.5,0.5
2024-10-16T0100,4036A,116.6461,23.6761,潮州市,金山,,26,24,34,18,20,38,,,,11,8,7,9,0.5,0.5
2024-10-16T0100,2472A,113.0073,25.9061,郴州市,马头岭,,23,21,36,16,17,43,,,,10,11,6,7,0.6,0.3
2024-10-16T0100,2473A,113.0116,25.8226,郴州市,市职中,,35,35,43,24,36,39,,,,10,15,4,5,0.9,0.9
2024-10-16T0100,2474A,113.0161,25.8001,郴州市,兴隆步行街,,32,32,47,19,34,40,,,,12,16,4,5,0.8,0.9
2024-10-16T0100,2475A,113.0383,25.8071,郴州市,市审计局,,33,29,43,23,38,37,,,,6,11,1,3,1.0,1
2024-10-16T0100,2476A,113.0348,25.7759,郴州市,市环保局,,31,31,47,21,38,38,,,,10,14,5,6,1.0,1
2024-10-16T0100,1431A,103.9728,30.7236,成都市,金泉两河,细颗粒物(PM2.5),69,68,69,50,49,0,,,,53,30,2,4,1.5,0.9
2024-10-16T0100,1432A,104.176,30.6872,成都市,十里店,细颗粒物(PM2.5),63,70,69,45,53,4,,,,86,45,2,3,1.0,0.9
2024-10-16T0100,1433A,104.079,30.5706,成都市,三瓦窑,细颗粒物(PM2.5),88,,63,65,52,4,,,,80,51,2,3,0.7,0.9
2024-10-16T0100,1434A,104.1114,30.63,成都市,沙河铺,细颗粒物(PM2.5),72,67,62,52,43,4,,,,48,35,3,3,1.5,1.4
2024-10-16T0100,1437A,104.0786,30.6531,成都市,君平街,细颗粒物(PM2.5),70,72,69,51,50,4,,,,90,45,4,5,1.3,0.9
2024-10-16T0100,1438A,103.613,31.0283,成都市,灵岩寺,,,,,,,,,,,,,,,,
2024-10-16T0100,2880A,104.0239,30.65639,成都市,大石西路,细颗粒物(PM2.5),69,67,64,50,41,0,,,,72,37,2,4,1.3,1
2024-10-16T0100,3136A,104.2725,30.5589,成都市,龙泉驿区区政府,,32,,30,22,20,82,,,,8,21,2,2,0.7,0.6
2024-10-16T0100,3357A,104.0106,30.6931,成都市,金博路,细颗粒物(PM2.5),77,72,64,56,39,6,,,,69,41,2,2,0.9,0.9
2024-10-16T0100,3359A,104.0578,30.5225,成都市,华阳,细颗粒物(PM2.5),58,63,46,41,30,5,,,,65,34,1,2,1.1,0.9
2024-10-16T0100,3487A,104.2394,30.5319,成都市,车城东七路,细颗粒物(PM2.5),77,82,49,56,32,33,,,,62,32,2,2,1.0,0.9
2024-10-16T0100,3488A,104.3853,30.7453,成都市,青白江技师分院,,38,30,30,26,22,24,,,,47,32,11,4,0.8,0.7
2024-10-16T0100,3489A,104.0789,30.4072,成都市,科学城,,49,47,43,34,31,6,,,,35,18,4,4,0.8,0.8
2024-10-16T0100,4011A,103.8506,30.6947,成都市,光华大道三段,细颗粒物(PM2.5),78,68,64,57,47,18,,,,40,31,3,3,0.8,0.8
2024-10-16T0100,1062A,117.9531,40.9081,承德市,铁路,,29,29,26,10,12,4,,,,38,24,2,4,0.3,0.2
2024-10-16T0100,1063A,117.9392,40.9763,承德市,中国银行,,43,43,31,12,13,0,,,,36,24,3,2,0.4,0.3
2024-10-16T0100,1064A,117.9503,40.928,承德市,开发区,,46,46,46,19,21,3,,,,40,24,4,5,0.4,0.3
2024-10-16T0100,1065A,117.8051,40.9655,承德市,文化中心,,47,47,36,11,11,0,,,,42,22,1,3,0.5,0.4
2024-10-16T0100,1066A,117.9268,41.0026,承德市,离宫,,39,39,22,22,24,1,,,,32,10,3,3,0.2,0.3
2024-10-16T0100,2314A,117.47,30.6618,池州市,池州学院,,38,37,40,26,30,54,,,,13,17,8,7,0.8,0.7
2024-10-16T0100,3237A,117.4918,30.6617,池州市,展览馆,,38,38,38,25,25,57,,,,11,14,4,4,0.8,0.7
2024-10-16T0100,3333A,117.5627,30.695,池州市,第八中学,,38,37,37,26,26,53,,,,12,13,4,4,0.8,0.7
2024-10-16T0100,3334A,117.5038,30.6243,池州市,第十二中学,,43,36,30,30,27,53,,,,11,11,4,4,1.1,1
2024-10-16T0100,1744A,118.9233,42.2816,赤峰市,松山一中,,46,46,36,22,18,7,,,,46,31,16,19,0.7,0.7
2024-10-16T0100,1745A,118.9576,42.2728,赤峰市,哈达街,颗粒物(PM10),55,60,30,35,12,9,,,,26,22,10,27,0.7,0.7
2024-10-16T0100,1746A,118.8788,42.2554,赤峰市,天义路,,41,41,30,17,17,13,,,,34,27,13,15,0.5,0.5
2024-10-16T0100,3058A,119.2658,42.0353,赤峰市,银河街,颗粒物(PM10),58,66,33,29,17,23,,,,30,20,19,14,0.6,0.4
2024-10-16T0100,3286A,118.9359,42.3147,赤峰市,桥北物流园区,,45,45,30,15,12,5,,,,38,26,15,13,1.1,0.8
2024-10-16T0100,2521A,107.3476,22.4136,崇左市,市环保局江州分局,,29,29,16,10,9,50,,,,10,8,5,4,0.6,0.6
2024-10-16T0100,2522A,107.3702,22.3707,崇左市,城南新区,,22,22,14,9,10,46,,,,12,7,4,4,0.7,0.7
2024-10-16T0100,2298A,118.3093,32.3153,滁州市,老年大学,细颗粒物(PM2.5),104,104,74,78,54,70,,,,22,23,3,3,0.5,0.6
2024-10-16T0100,2299A,118.3244,32.2786,滁州市,人大宾馆,细颗粒物(PM2.5),108,112,87,81,65,57,,,,29,26,8,7,0.5,0.7
2024-10-16T0100,3207A,118.3118,32.3038,滁州市,市政府原办公楼,细颗粒物(PM2.5),109,95,74,82,66,63,,,,27,24,6,6,0.6,0.7
2024-10-16T0100,3331A,118.3267,32.2634,滁州市,图书馆,细颗粒物(PM2.5),83,82,64,61,50,52,,,,34,24,8,6,0.6,0.7
2024-10-16T0100,2605A,101.5482,25.0441,楚雄彝族自治州,州环境监测站,,29,26,22,20,16,10,,,,24,17,44,25,0.5,0.5
2024-10-16T0100,2606A,101.538,25.0492,楚雄彝族自治州,市经济开发区,,29,22,26,20,19,8,,,,24,18,14,15,0.5,0.6
2024-10-16T0100,2548A,107.5277,31.2827,达州市,达州职业技术学院,细颗粒物(PM2.5),80,87,42,59,25,1,,,,47,38,5,7,1.0,0.8
2024-10-16T0100,2549A,107.5086,31.2186,达州市,市环境监测站,细颗粒物(PM2.5),73,74,46,53,22,11,,,,50,40,5,7,0.8,0.8
2024-10-16T0100,2550A,107.4988,31.2132,达州市,凤凰小区,细颗粒物(PM2.5),77,70,43,56,25,12,,,,49,39,7,10,0.8,0.8
2024-10-16T0100,2551A,107.5082,31.1986,达州市,达县机关宾馆,细颗粒物(PM2.5),59,63,53,42,31,6,,,,53,47,5,8,0.9,0.8
2024-10-16T0100,2552A,107.4644,31.2124,达州市,市政中心,细颗粒物(PM2.5),73,65,48,53,25,6,,,,60,48,5,10,0.9,1
2024-10-16T0100,2614A,100.1542,25.7054,大理白族自治州,大理市环境监测站,,29,23,26,20,15,60,,,,5,10,6,7,0.4,0.4
2024-10-16T0100,2615A,100.2171,25.5811,大理白族自治州,大理古城,,25,24,28,17,16,36,,,,11,11,7,7,0.3,0.4
2024-10-16T0100,1109A,121.612,38.9741,大连市,甘井子,,27,27,30,3,8,65,,,,17,21,11,8,0.6,0.7
2024-10-16T0100,1110A,121.565,38.9511,大连市,周水子,,24,24,23,7,9,42,,,,35,29,12,10,0.6,0.6
2024-10-16T0100,1111A,121.5637,38.8845,大连市,星海三站,,22,22,27,6,9,61,,,,14,16,8,6,0.2,0.3
2024-10-16T0100,1112A,121.6302,38.9117,大连市,青泥洼桥,,21,21,22,7,9,53,,,,23,18,9,8,0.3,0.5
2024-10-16T0100,1113A,121.6251,38.8638,大连市,傅家庄,,23,23,24,3,9,61,,,,16,15,9,9,0.4,0.6
2024-10-16T0100,1114A,121.5213,38.8661,大连市,七贤岭,,23,17,20,3,8,72,,,,9,12,9,7,0.7,0.6
2024-10-16T0100,1115A,121.2529,38.8061,大连市,旅顺,,25,8,29,3,8,78,,,,9,12,6,6,0.3,0.4
2024-10-16T0100,1116A,121.7485,39.1311,大连市,金州,,18,18,18,8,8,52,,,,15,15,9,7,0.5,0.6
2024-10-16T0100,1117A,121.7811,39.0496,大连市,开发区,,22,22,25,6,11,55,,,,14,16,18,9,0.2,0.3
2024-10-16T0100,1118A,121.9762,39.0631,大连市,双D港,,23,17,27,6,9,71,,,,11,14,8,7,0.5,0.6
2024-10-16T0100,1789A,124.81117,46.03138,大庆市,大同区,,24,24,16,13,13,35,,,,8,8,2,2,0.4,0.3
2024-10-16T0100,1790A,125.129,46.533,大庆市,龙凤区,,32,28,25,22,15,36,,,,19,19,2,3,0.2,0.2
2024-10-16T0100,1791A,124.902,46.408,大庆市,红岗区,,26,26,19,10,15,39,,,,11,10,5,5,0.3,0.3
2024-10-16T0100,1792A,125.153,46.586,大庆市,萨尔图区,,29,29,18,13,8,37,,,,17,16,6,6,0.2,0.2
2024-10-16T0100,1793A,124.9042,46.6215,大庆市,让胡路区,,22,19,20,15,15,42,,,,9,11,4,5,0.3,0.2
2024-10-16T0100,3481A,125.141,46.634,大庆市,萨区政府监测点,,15,13,13,9,9,48,,,,8,14,10,7,0.3,0.3
2024-10-16T0100,1721A,113.3819,40.1097,大同市,果树场,,38,38,24,23,13,41,,,,12,15,6,7,0.6,0.5
2024-10-16T0100,1723A,113.2994,40.0758,大同市,云冈宾馆,颗粒物(PM10),61,71,22,26,8,49,,,,35,26,9,8,0.5,0.4
2024-10-16T0100,1724A,113.3444,40.0917,大同市,大同大学,,31,31,20,19,9,54,,,,21,20,12,12,0.5,0.4
2024-10-16T0100,1725A,113.2661,40.1269,大同市,安家小村,,50,50,26,26,10,60,,,,25,19,12,12,0.4,0.4
2024-10-16T0100,1726A,113.2711,40.0844,大同市,教育学院,颗粒物(PM10),52,54,31,27,12,57,,,,24,30,9,8,0.6,0.5
2024-10-16T0100,3282A,113.3397,40.0597,大同市,大同市卫生学校,,39,38,21,27,10,53,,,,26,23,9,8,0.6,0.7
2024-10-16T0100,3565A,113.1367,40.1122,大同市,云冈站,颗粒物(PM10),61,71,45,32,12,6,,,,41,24,9,10,0.6,0.5
2024-10-16T0100,3566A,113.1186,40.2556,大同市,图书馆,,45,45,28,11,11,20,,,,20,19,11,12,0.5,0.5
2024-10-16T0100,3567A,113.5931,40.0461,大同市,区一中,,50,50,26,15,6,53,,,,14,13,2,3,0.5,0.5
2024-10-16T0100,3676A,113.2802,40.0995,大同市,第二人民医院,颗粒物(PM10),52,54,26,26,9,49,,,,31,20,11,11,0.5,0.5
2024-10-16T0100,2269A,124.1069,50.4097,大兴安岭地区,科技局,,22,,10,15,14,41,,,,5,4,8,7,0.3,0.3
2024-10-16T0100,3663A,124.1164,50.4278,大兴安岭地区,红旗社区,,14,6,8,3,3,42,,,,9,6,3,3,0.5,0.4
2024-10-16T0100,1600A,124.3303,40.0625,丹东市,江湾东路,,18,14,14,3,8,55,,,,7,10,8,8,0.3,0.5
2024-10-16T0100,1601A,124.4256,40.1503,丹东市,临江后街,,21,12,14,3,6,65,,,,3,8,6,6,0.3,0.4
2024-10-16T0100,1602A,124.3933,40.1461,丹东市,元宝山,,19,13,14,8,9,59,,,,5,9,5,5,0.6,0.5
2024-10-16T0100,1603A,124.3633,40.1092,丹东市,民主桥,,19,19,19,3,6,58,,,,6,14,5,5,0.4,0.5
2024-10-16T0100,3541A,109.5726,19.5167,儋州市,第一中学子站,,17,9,13,3,6,54,,,,4,3,7,8,0.2,0.2
2024-10-16T0100,3542A,109.5567,19.5187,儋州市,东坡学校子站,,19,14,13,3,5,58,,,,2,2,5,5,0.3,0.3
2024-10-16T0100,2616A,98.5842,24.428,德宏傣族景颇族自治州,德宏州监测站,,44,44,52,29,28,19,,,,21,20,6,12,0.6,0.6
2024-10-16T0100,3677A,98.5881,24.4368,德宏傣族景颇族自治州,芒市人民政府综合楼,,44,44,51,27,29,34,,,,11,15,4,9,0.6,0.6
2024-10-16T0100,1901A,104.4239,31.1208,德阳市,东山公园,,46,46,51,21,27,80,,,,18,21,3,3,0.6,1
2024-10-16T0100,1902A,104.3826,31.1317,德阳市,西小区,颗粒物(PM10),56,62,58,38,35,3,,,,72,34,4,3,0.9,0.8
2024-10-16T0100,1904A,104.3553,31.1091,德阳市,耐火材料厂,颗粒物(PM10),60,69,58,42,35,18,,,,48,30,7,5,0.8,0.7
2024-10-16T0100,3639A,104.4019,31.1244,德阳市,市教育局,,41,41,62,24,28,2,,,,61,34,2,2,0.7,0.8
2024-10-16T0100,1622A,116.3032,37.4674,德州市,儿童乐园,,29,29,141,12,96,48,,,,23,30,8,10,0.4,0.8
2024-10-16T0100,1624A,116.2991,37.4451,德州市,监理站,,31,31,142,7,103,47,,,,21,25,7,10,0.4,0.7
2024-10-16T0100,3066A,116.2721,37.4379,德州市,九衢泉纯净水厂,,36,36,147,7,81,49,,,,22,31,8,10,0.4,0.8
2024-10-16T0100,3371A,116.3728,37.4403,德州市,开发区人民医院,,36,36,138,9,82,38,,,,20,27,9,10,0.3,0.7
2024-10-16T0100,3372A,116.3572,37.4094,德州市,太阳城中学,,39,39,143,9,88,37,,,,26,35,10,12,0.4,0.7
2024-10-16T0100,3511A,116.5652,37.3319,德州市,陵城艺术中心,,29,29,131,3,86,43,,,,22,27,9,9,0.4,0.7
2024-10-16T0100,2621A,99.7056,27.8317,迪庆藏族自治州,迪庆州站,,18,14,22,12,14,44,,,,10,12,8,11,0.3,0.4
2024-10-16T0100,3180A,99.7136,27.8094,迪庆藏族自治州,质量技术监督局,,22,,20,15,12,49,,,,10,12,6,7,0.3,0.4
2024-10-16T0100,2663A,104.6241,35.5734,定西市,东关小学,,29,29,46,14,17,56,,,,12,11,9,8,0.4,0.3
2024-10-16T0100,2664A,104.6194,35.5934,定西市,供电公司,,27,27,32,12,18,57,,,,10,11,6,6,0.4,0.4
2024-10-16T0100,1389A,113.7547,23.0494,东莞市,莞城梨川,,33,33,45,12,22,41,,,,27,22,8,8,0.6,0.7
2024-10-16T0100,1390A,113.7944,23.0128,东莞市,东城石井,,23,23,38,11,24,33,,,,26,21,7,7,0.6,0.6
2024-10-16T0100,1391A,113.7383,22.9658,东莞市,南城西平,,33,33,46,13,26,11,,,,59,31,12,12,0.6,0.6
2024-10-16T0100,3319A,113.7338,23.0381,东莞市,万江金泰,,28,28,45,12,24,43,,,,25,23,9,9,0.3,0.4
2024-10-16T0100,3626A,113.7533,23.0202,东莞市,南城元岭,,27,27,46,9,23,39,,,,21,21,8,8,0.6,0.7
2024-10-16T0100,3627A,113.7875,23.0457,东莞市,东城主山,,29,29,42,16,24,37,,,,33,24,8,9,0.6,0.6
2024-10-16T0100,1666A,118.6614,37.4309,东营市,市环保局,,25,19,67,3,36,78,,,,7,24,2,7,0.2,0.4
2024-10-16T0100,3036A,118.6904,37.4338,东营市,开发区管委会,,27,24,70,7,36,84,,,,12,28,1,9,0.3,0.5
2024-10-16T0100,3365A,118.5719,37.565,东营市,垦利区民丰路,,21,14,62,3,34,65,,,,18,28,9,12,0.3,0.6
2024-10-16T0100,3498A,118.5055,37.8612,东营市,河口城区,,24,24,73,3,37,58,,,,8,18,5,8,0.4,0.6
2024-10-16T0100,3646A,118.4978,37.4623,东营市,胜利站,,21,21,63,3,36,67,,,,11,25,8,11,0.4,0.7
2024-10-16T0100,3734A,118.35,37.26,东营市,理想之城,,25,19,68,9,38,78,,,,11,30,2,4,0,0.2
2024-10-16T0100,1591A,110.0023,39.8129,鄂尔多斯市,综合楼,颗粒物(PM10),70,90,48,9,5,35,,,,67,35,10,8,0.6,0.4
2024-10-16T0100,1592A,109.9486,39.8261,鄂尔多斯市,巴音孟克林场办事处,颗粒物(PM10),69,88,46,22,11,32,,,,67,34,15,8,0.7,0.4
2024-10-16T0100,1593A,109.7736,39.5986,鄂尔多斯市,康泽苑,颗粒物(PM10),59,68,44,19,11,15,,,,55,30,11,8,0.7,0.5
2024-10-16T0100,1594A,109.8119,39.5989,鄂尔多斯市,华泰汽车城,颗粒物(PM10),62,73,45,19,14,11,,,,55,35,10,12,0.6,0.5
2024-10-16T0100,1595A,109.9734,39.7884,鄂尔多斯市,奥林花园,颗粒物(PM10),69,88,42,19,10,18,,,,75,35,8,8,0.8,0.6
2024-10-16T0100,2436A,114.8938,30.3994,鄂州市,市政府,颗粒物(PM10),84,118,101,52,57,33,,,,33,26,11,12,1.2,1.2
2024-10-16T0100,2437A,114.8989,30.3714,鄂州市,赵家坝,颗粒物(PM10),78,106,101,55,58,33,,,,27,22,10,11,1.4,1.5
2024-10-16T0100,3654A,114.8094,30.4089,鄂州市,精准医疗中心,细颗粒物(PM2.5),84,95,89,62,64,43,,,,27,24,11,8,1.0,1
2024-10-16T0100,2454A,109.4978,30.2981,恩施土家族苗族自治州,湖北民院,细颗粒物(PM2.5),54,43,33,38,22,4,,,,20,18,8,8,0.7,0.7
2024-10-16T0100,2455A,109.4707,30.2798,恩施土家族苗族自治州,州电力总公司,,40,40,33,28,24,7,,,,26,26,7,8,1.0,0.9
2024-10-16T0100,3549A,109.5061,30.3772,恩施土家族苗族自治州,龙凤新区,,46,46,31,28,18,8,,,,14,16,6,6,0.9,0.9
2024-10-16T0100,2499A,108.3411,21.6158,防城港市,沙万,,26,26,24,13,15,63,,,,11,10,9,9,0.7,0.6
2024-10-16T0100,2500A,108.3514,21.7731,防城港市,防城档案局,颗粒物(PM10),54,57,34,19,16,40,,,,23,14,8,8,0.7,0.6
2024-10-16T0100,2501A,108.3506,21.6414,防城港市,大海花园,,21,16,22,14,13,65,,,,10,10,6,6,0.7,0.6
2024-10-16T0100,1371A,113.1294,23.0067,佛山市,湾梁,,34,34,48,18,22,27,,,,57,38,8,7,0.6,0.6
2024-10-16T0100,1372A,113.1083,23.0478,佛山市,华材职中,,36,34,47,25,26,37,,,,38,36,8,9,0.4,0.5
2024-10-16T0100,1373A,113.144,23.0453,佛山市,南海气象局,,32,30,45,22,24,33,,,,41,32,9,8,0.5,0.6
2024-10-16T0100,1374A,113.2881,22.8094,佛山市,顺德苏岗,,38,38,47,12,24,27,,,,37,28,8,9,0.5,0.6
2024-10-16T0100,1376A,112.8383,22.8678,佛山市,高明孔堂,,49,49,41,24,23,67,,,,18,18,5,6,0.6,0.6
2024-10-16T0100,1377A,112.8836,23.1588,佛山市,三水监测站,细颗粒物(PM2.5),74,95,76,54,41,40,,,,55,62,10,9,0.8,0.7
2024-10-16T0100,1378A,112.867,23.185,佛山市,三水云东海,细颗粒物(PM2.5),70,67,58,51,39,21,,,,69,42,12,12,0.8,0.8
2024-10-16T0100,3625A,113.2544,22.7642,佛山市,容桂街道办,,20,17,35,14,23,33,,,,32,26,8,8,0.5,0.5
2024-10-16T0100,1280A,119.3903,26.0543,福州市,鼓山,,,,19,,11,,,69,,,2,,3,,0.3
2024-10-16T0100,1282A,119.2681,26.0504,福州市,师大,,24,17,31,8,17,75,,,,3,10,3,3,0.3,0.4
2024-10-16T0100,1283A,119.2984,26.1028,福州市,五四北路,,21,16,27,7,13,65,,,,12,15,3,3,0.2,0.3
2024-10-16T0100,1284A,119.2648,26.0768,福州市,杨桥西路,,21,20,34,9,17,65,,,,7,12,4,4,0.1,0.1
2024-10-16T0100,1285A,119.317,26.0746,福州市,紫阳,,22,19,32,7,15,70,,,,5,14,3,2,0.2,0.3
2024-10-16T0100,3048A,119.5799,26.0936,福州市,九龙,,18,18,22,3,9,56,,,,13,5,2,2,0.1,0.2
2024-10-16T0100,3526A,119.5189,25.9664,福州市,吴航,,21,16,27,8,15,66,,,,7,15,2,2,0.2,0.3
2024-10-16T0100,1755A,123.7977,41.8491,抚顺市,望花区,颗粒物(PM10),68,86,25,35,12,6,,,,43,15,6,6,0.8,0.4
2024-10-16T0100,1756A,123.9161,41.8822,抚顺市,顺城区,,44,44,28,21,13,6,,,,34,21,8,6,0.4,0.3
2024-10-16T0100,1757A,124.0436,41.8611,抚顺市,东洲区,,48,,22,33,14,12,,,,26,13,10,7,0.4,0.3
2024-10-16T0100,1758A,123.9247,41.8642,抚顺市,新抚区,细颗粒物(PM2.5),53,49,24,37,13,6,,,,34,18,4,4,0.4,0.2
2024-10-16T0100,1759A,124.0972,41.8961,抚顺市,大伙房水库,,25,22,25,17,10,6,,,,36,12,7,7,0.4,0.4
2024-10-16T0100,1760A,123.7086,41.8391,抚顺市,沈抚新城,,42,42,21,17,9,5,,,,36,18,8,8,0.3,0.2
2024-10-16T0100,2376A,116.2127,28.0814,抚州市,桐源党溪,,40,40,51,26,36,34,,,,3,3,5,5,0.9,0.9
2024-10-16T0100,2377A,116.3544,27.9831,抚州市,市站,,35,34,44,24,34,39,,,,8,9,6,6,1.1,1.1
2024-10-16T0100,2378A,116.3565,27.963,抚州市,血防站,,43,43,47,27,33,41,,,,2,2,11,8,0.9,0.9
2024-10-16T0100,2379A,116.3564,28.0007,抚州市,采茶剧团,,38,32,43,26,36,37,,,,4,5,4,4,1.0,1
2024-10-16T0100,2380A,116.385,27.9647,抚州市,医学分院,,37,37,45,24,30,34,,,,8,8,4,4,1.1,1
2024-10-16T0100,2207A,121.6094,41.998,阜新市,工业园区,颗粒物(PM10),51,51,29,26,7,2,,,,35,19,3,6,0.7,0.6
2024-10-16T0100,2208A,121.6697,42.0279,阜新市,长青街,,46,46,22,9,5,2,,,,32,16,41,14,1.9,0.5
2024-10-16T0100,2209A,121.6673,42.0705,阜新市,农业园区,,34,34,22,19,7,51,,,,18,12,70,15,0.5,0.3
2024-10-16T0100,2210A,121.6717,42.0224,阜新市,东苑,颗粒物(PM10),53,55,29,11,6,9,,,,51,21,76,23,2.5,0.6
2024-10-16T0100,2211A,121.6506,42.0498,阜新市,玉龙新城,,22,17,27,3,5,6,,,,44,21,8,7,1.3,0.9
2024-10-16T0100,2301A,115.8277,32.8929,阜阳市,市监测站,细颗粒物(PM2.5),79,92,88,58,58,71,,,,23,25,9,8,0.5,0.6
2024-10-16T0100,2303A,115.8554,32.8605,阜阳市,开发区,细颗粒物(PM2.5),88,101,103,65,56,59,,,,30,27,7,7,0.5,0.4
2024-10-16T0100,2875A,115.784,32.8892,阜阳市,阜阳职业技术学院,细颗粒物(PM2.5),85,87,74,63,45,74,,,,24,23,8,7,0.6,0.6
2024-10-16T0100,3468A,115.7901,32.8613,阜阳市,市规划展馆,细颗粒物(PM2.5),98,98,75,73,56,82,,,,27,25,8,7,0.7,0.7
2024-10-16T0100,3469A,115.836,32.9183,阜阳市,枣园社区,细颗粒物(PM2.5),98,88,84,73,64,80,,,,23,30,10,8,0.6,0.6
2024-10-16T0100,2669A,102.9099,34.9841,甘南藏族自治州,州政府,,36,36,28,24,17,58,,,,21,20,7,9,0.4,0.4
2024-10-16T0100,3380A,102.8914,34.9617,甘南藏族自治州,甘肃民族师范学院,,27,27,24,14,16,30,,,,36,28,4,5,0.7,0.6
2024-10-16T0100,2570A,101.9603,30.0475,甘孜藏族自治州,水桥子,,14,12,13,7,6,42,,,,22,13,5,6,0.3,0.3
2024-10-16T0100,3065A,101.9533,29.9972,甘孜藏族自治州,州环保局,,20,12,13,3,4,62,,,,13,11,3,3,0.3,0.2
2024-10-16T0100,3414A,115.8347,28.932,赣江新区,桑海产业园,,49,46,42,34,40,5,,,,37,18,8,10,0.7,0.4
2024-10-16T0100,2362A,114.9017,25.9149,赣州市,通天岩,细颗粒物(PM2.5),78,,68,57,73,53,,,,10,11,38,38,0.3,0.5
2024-10-16T0100,2363A,114.9367,25.8664,赣州市,地委,细颗粒物(PM2.5),60,,59,43,57,73,,,,8,10,8,7,1.1,1.2
2024-10-16T0100,2364A,114.9461,25.8481,赣州市,气象台,,49,41,68,34,55,74,,,,6,8,7,8,1.2,1.3
2024-10-16T0100,2365A,114.9322,25.8333,赣州市,市图书馆,,,49,65,36,49,,,,,8,9,4,4,0.9,1
2024-10-16T0100,2366A,114.8905,25.8471,赣州市,华坚鞋城,,35,35,58,20,50,74,,,,8,10,2,2,0.7,0.8
2024-10-16T0100,3109A,115.0093,25.8613,赣州市,赣县区卫计委,,42,32,62,29,55,73,,,,8,12,9,6,0.8,0.8
2024-10-16T0100,2683A,106.2319,36.1417,固原市,马园,颗粒物(PM10),59,67,42,41,18,80,,,,27,24,5,6,0.4,0.4
2024-10-16T0100,2684A,106.2792,36.0022,固原市,监测站,细颗粒物(PM2.5),67,,30,48,20,98,,,,11,18,5,6,0.4,0.5
2024-10-16T0100,2685A,106.2375,36.0211,固原市,新区,细颗粒物(PM2.5),62,,31,44,17,101,,,,10,16,5,5,0.5,0.5
2024-10-16T0100,3522A,106.2177,35.9959,固原市,原州区十五小,,43,43,32,25,16,82,,,,14,15,5,6,0.5,0.5
2024-10-16T0100,2543A,106.6308,30.5278,广安市,小平旧居,,,,,,,,,,,,,,,,
2024-10-16T0100,2544A,106.6303,30.4576,广安市,市委,细颗粒物(PM2.5),87,84,54,64,31,35,,,,36,31,3,3,0.7,0.7
2024-10-16T0100,2545A,106.6271,30.4663,广安市,友谊中学,细颗粒物(PM2.5),57,59,39,40,26,43,,,,25,25,3,3,0.7,0.7
2024-10-16T0100,2547A,106.6388,30.4551,广安市,广电花园,细颗粒物(PM2.5),84,82,50,62,31,29,,,,26,27,2,2,0.6,0.6
2024-10-16T0100,2902A,106.6351,30.4865,广安市,北辰小学,细颗粒物(PM2.5),74,76,45,54,27,54,,,,15,16,4,4,0.7,0.7
2024-10-16T0100,2523A,105.8945,32.4535,广元市,黑石坡,,36,,27,25,20,52,,,,6,10,8,9,0.5,0.6
2024-10-16T0100,2524A,105.821,32.4444,广元市,老城,,39,39,35,22,20,10,,,,37,28,3,3,0.7,1
2024-10-16T0100,2526A,105.8628,32.4287,广元市,监测站,,39,,31,27,22,28,,,,14,19,2,4,0.6,0.9
2024-10-16T0100,3617A,105.8047,32.4166,广元市,经开区,,39,39,45,26,25,20,,,,24,27,5,7,0.7,0.9
2024-10-16T0100,1345A,113.2347,23.1423,广州市,广雅中学,,29,29,39,8,18,35,,,,46,38,6,7,0.9,0.9
2024-10-16T0100,1346A,113.2612,23.105,广州市,市五中,,37,37,45,22,59,33,,,,39,26,4,5,0.7,0.7
2024-10-16T0100,1348A,113.3478,23.0916,广州市,广东商学院,,36,36,50,17,30,30,,,,51,40,6,7,0.6,0.6
2024-10-16T0100,1349A,113.4332,23.1047,广州市,市八十六中,颗粒物(PM10),54,57,61,22,27,18,,,,67,55,5,6,0.7,0.8
2024-10-16T0100,1350A,113.3505,22.9483,广州市,番禺中学,,28,28,46,12,26,33,,,,41,32,7,8,0.5,0.5
2024-10-16T0100,1351A,113.2146,23.3916,广州市,花都师范,,48,48,56,26,28,53,,,,29,42,5,6,0.7,0.8
2024-10-16T0100,1352A,113.2597,23.1331,广州市,市监测站,,36,36,43,16,23,31,,,,45,34,6,6,0.6,0.7
2024-10-16T0100,1353A,113.5618,23.312,广州市,九龙镇镇龙,颗粒物(PM10),56,62,57,34,29,14,,,,42,30,7,7,0.7,0.7
2024-10-16T0100,1354A,113.2765,23.1544,广州市,麓湖,,36,36,46,20,28,13,,,,53,37,5,6,0.6,0.7
2024-10-16T0100,1355A,113.443,23.3035,广州市,帽峰山森林公园,,49,49,33,22,18,21,,,,56,20,7,7,0.7,0.6
2024-10-16T0100,2846A,113.3221,23.1322,广州市,体育西,,38,38,47,18,27,36,,,,37,34,6,6,0.6,0.7
2024-10-16T0100,3298A,113.5717,23.5491,广州市,从化街口,,26,26,42,14,26,24,,,,25,22,6,6,0.6,0.7
2024-10-16T0100,3299A,113.3472,23.3692,广州市,白云竹料,,38,33,53,26,29,37,,,,22,29,5,6,0.7,0.7
2024-10-16T0100,3300A,113.2981,23.237,广州市,白云嘉禾,颗粒物(PM10),61,72,54,39,27,11,,,,77,47,6,7,0.9,0.8
2024-10-16T0100,3301A,113.4256,23.1716,广州市,黄埔科学城,颗粒物(PM10),58,66,50,37,29,2,,,,76,43,7,7,0.9,0.7
2024-10-16T0100,3302A,113.3942,23.0483,广州市,番禺大学城,,49,49,55,19,24,34,,,,38,34,6,7,0.7,0.7
2024-10-16T0100,3303A,113.4922,22.8168,广州市,南沙黄阁,,28,28,46,9,26,32,,,,37,33,6,6,0.8,0.8
2024-10-16T0100,3304A,113.5342,22.7896,广州市,南沙街,,36,36,43,14,24,25,,,,42,29,6,6,0.7,0.7
2024-10-16T0100,3443A,113.2902,23.5544,广州市,花都梯面,,35,33,37,24,23,52,,,,17,22,9,6,0.6,0.6
2024-10-16T0100,3445A,113.7858,23.7478,广州市,从化良口,,26,26,27,18,19,21,,,,12,12,6,7,0.9,0.9
2024-10-16T0100,3446A,113.8051,23.2614,广州市,增城荔城,,40,40,43,22,26,39,,,,22,17,8,7,0.7,0.6
2024-10-16T0100,2505A,109.568,23.1478,贵港市,德智高中,,,,,,,,,,,,,,,,
2024-10-16T0100,2506A,109.6047,23.0666,贵港市,江南子站,,36,,18,25,15,60,,,,11,11,8,7,1.0,1
2024-10-16T0100,2507A,109.6014,23.0948,贵港市,贵城子站,,43,,22,30,16,56,,,,11,10,8,7,1.0,0.9
2024-10-16T0100,2508A,109.5669,23.1065,贵港市,荷城子站,,29,29,20,19,10,62,,,,11,12,10,10,0.8,0.9
2024-10-16T0100,3405A,109.5886,23.1172,贵港市,新世纪学校,,34,34,19,21,13,56,,,,13,12,8,7,0.9,0.8
2024-10-16T0100,1439A,106.6899,26.5998,贵阳市,马鞍山,,27,27,21,7,11,10,,,,17,12,3,3,0.5,0.6
2024-10-16T0100,1440A,106.6971,26.5694,贵阳市,市环保站,,38,31,23,26,20,21,,,,35,21,4,4,0.7,0.6
2024-10-16T0100,1441A,106.6243,26.6266,贵阳市,鉴湖路,,24,24,31,14,19,38,,,,18,15,4,4,0.5,0.5
2024-10-16T0100,1442A,106.7487,26.6343,贵阳市,燕子冲,,32,,16,22,16,10,,,,29,13,5,6,0.5,0.5
2024-10-16T0100,1443A,106.6555,26.4365,贵阳市,碧云窝,,42,41,33,29,16,7,,,,18,18,4,5,0.6,0.7
2024-10-16T0100,1444A,106.694,26.5161,贵阳市,中院村,颗粒物(PM10),53,56,33,29,19,6,,,,51,27,9,8,0.8,0.7
2024-10-16T0100,1445A,106.7109,26.6027,贵阳市,红边门,,39,39,27,22,18,15,,,,38,21,5,5,0.7,0.6
2024-10-16T0100,1446A,106.7164,26.5699,贵阳市,新华路,,39,39,21,27,16,22,,,,32,18,5,6,0.6,0.5
2024-10-16T0100,1447A,106.674,26.5424,贵阳市,太慈桥,,24,24,22,14,12,8,,,,21,18,6,6,0.6,0.5
2024-10-16T0100,1552A,106.805,26.3003,贵阳市,桐木岭,,29,29,35,17,20,23,,,,2,3,6,6,0.5,0.5
2024-10-16T0100,1862A,110.4144,25.3167,桂林市,电子科大尧山校区,,32,23,23,22,22,56,,,,6,6,4,5,0.8,0.8
2024-10-16T0100,1863A,110.2819,25.2697,桂林市,监测站,,33,33,33,23,26,59,,,,9,13,10,10,1.0,1
2024-10-16T0100,1864A,110.3089,25.2708,桂林市,龙隐路小学,,42,,36,29,32,56,,,,10,11,16,12,0.8,0.8
2024-10-16T0100,1865A,110.2869,25.2178,桂林市,八中,,38,27,33,26,24,50,,,,10,13,10,9,0.8,0.9
2024-10-16T0100,3403A,110.1764,25.2381,桂林市,创业大厦,,35,27,31,24,28,55,,,,10,12,7,9,0.5,0.6
2024-10-16T0100,3531A,110.296,25.1253,桂林市,旅游学院,,32,27,25,22,22,42,,,,12,12,10,7,0.6,0.7
2024-10-16T0100,2674A,100.2561,34.4714,果洛藏族自治州,玛沁县大武镇,,27,21,29,13,14,86,,,,1,9,6,9,0.4,0.5
2024-10-16T0100,1129A,126.5422,45.755,哈尔滨市,岭北,,31,14,9,8,5,97,,,,12,9,7,6,0.5,0.4
2024-10-16T0100,1130A,126.561,45.8167,哈尔滨市,松北商大,,17,17,14,8,6,39,,,,19,19,8,7,0.5,0.5
2024-10-16T0100,1131A,126.979,45.5419,哈尔滨市,阿城会宁,,23,19,22,16,12,28,,,,15,22,5,5,0.9,0.6
2024-10-16T0100,1132A,126.599,45.7222,哈尔滨市,南岗学府路,,23,23,19,10,8,38,,,,23,17,7,6,0.5,0.4
2024-10-16T0100,1133A,126.689,45.7733,哈尔滨市,太平宏伟公园,,22,22,19,8,8,33,,,,25,16,6,6,0.4,0.4
2024-10-16T0100,1134A,126.635,45.7667,哈尔滨市,道外承德广场,,25,25,17,9,5,24,,,,45,22,12,5,0.3,0.4
2024-10-16T0100,1135A,126.685,45.7319,哈尔滨市,香坊红旗大街,,31,31,19,14,10,15,,,,51,22,14,7,0.5,0.5
2024-10-16T0100,1136A,126.6411,45.7258,哈尔滨市,动力和平路,,15,,17,9,8,29,,,,29,18,9,5,0.4,0.3
2024-10-16T0100,1137A,126.593,45.7478,哈尔滨市,道里建国路,,18,13,16,10,7,27,,,,36,25,6,8,0.3,0.2
2024-10-16T0100,1138A,126.615,45.61,哈尔滨市,平房东轻厂,,38,38,15,9,7,23,,,,36,30,6,6,0.3,0.2
2024-10-16T0100,1139A,126.595,45.9855,哈尔滨市,呼兰师专,,19,19,11,7,6,34,,,,27,17,3,2,0.6,0.4
2024-10-16T0100,1140A,126.6206,45.6842,哈尔滨市,省农科院,,26,21,23,10,7,9,,,,52,23,22,8,0.5,0.4
2024-10-16T0100,2688A,93.5128,42.8172,哈密市,地区监测站,颗粒物(PM10),85,120,131,44,38,6,,,,82,64,3,10,0.5,0.5
2024-10-16T0100,2689A,93.4961,42.8328,哈密市,哈密师范学校,颗粒物(PM10),73,96,125,49,39,8,,,,76,58,3,7,0.7,1
2024-10-16T0100,2671A,100.9048,36.9639,海北藏族自治州,海晏县西海镇,,29,19,39,14,24,92,,,,4,10,10,14,0.4,0.5
2024-10-16T0100,3867A,102.0738,36.5056,海东市,平安区公安北苑,,40,32,54,28,31,48,,,,23,21,6,9,0.5,0.6
2024-10-16T0100,1409A,110.576,19.9507,海口市,东寨港,,,,,,,,,,,,,,,,
2024-10-16T0100,1410A,110.3232,20.0574,海口市,海南大学,,19,16,18,3,7,58,,,,5,6,4,4,0.3,0.3
2024-10-16T0100,1411A,110.283,20.0053,海口市,秀英海南医院,,20,11,15,6,6,61,,,,5,6,5,5,0.2,0.3
2024-10-16T0100,1412A,110.338,19.9969,海口市,海南师范大学,,18,14,18,6,8,55,,,,4,4,6,6,0.3,0.4
2024-10-16T0100,1413A,110.33,20.0356,海口市,龙华路环保局宿舍,,19,14,17,3,7,58,,,,5,5,4,4,0.2,0.2
2024-10-16T0100,3539A,110.5111,19.9736,海口市,桂林洋子站,,16,10,13,3,6,49,,,,8,5,7,7,0.3,0.3
2024-10-16T0100,2673A,100.6188,36.2866,海南藏族自治州,共和县恰卜恰镇,,28,28,35,8,16,70,,,,6,13,10,12,0.6,0.7
2024-10-16T0100,2676A,97.3731,37.3753,海西蒙古族藏族自治州,德令哈市,,28,15,18,8,12,89,,,,1,4,9,9,0.4,0.4
2024-10-16T0100,1048A,114.5302,36.6116,邯郸市,东污水处理厂,颗粒物(PM10),69,88,154,31,114,23,,,,22,30,2,3,0.3,0.7
2024-10-16T0100,1049A,114.4918,36.5713,邯郸市,矿院,颗粒物(PM10),62,74,159,31,103,26,,,,20,29,4,4,0.1,0.5
2024-10-16T0100,1050A,114.484,36.6133,邯郸市,丛台公园,,,65,146,29,104,25,,,,,27,5,6,0.3,0.7
2024-10-16T0100,3458A,114.7895,36.5593,邯郸市,香泉濮院小区,颗粒物(PM10),63,75,186,13,106,34,,,,20,29,1,2,0.3,0.7
2024-10-16T0100,3579A,114.50634,36.77178,邯郸市,永年区实验高中,颗粒物(PM10),70,89,149,30,94,31,,,,24,28,4,5,0.4,0.9
2024-10-16T0100,3580A,114.20016,36.44293,邯郸市,峰峰矿区临水派出所,颗粒物(PM10),71,92,123,32,94,22,,,,26,21,4,6,0.1,0.4
2024-10-16T0100,2634A,106.9893,33.1842,汉中市,汉川机床厂子校,,32,30,31,22,20,29,,,,12,12,4,7,0.4,0.5
2024-10-16T0100,2635A,107.0154,33.0706,汉中市,市监测站,,50,50,38,29,24,30,,,,12,11,8,10,0.8,0.8
2024-10-16T0100,2636A,107.0089,33.1138,汉中市,鑫源开发区,细颗粒物(PM2.5),62,46,43,44,31,6,,,,45,19,11,15,0.7,0.6
2024-10-16T0100,2637A,107.007,33.0323,汉中市,南郑大河坎水厂,,44,44,35,25,24,30,,,,13,13,8,8,0.5,0.6
2024-10-16T0100,1223A,120.2072,30.2111,杭州市,滨江,,46,46,50,27,30,36,,,,24,31,5,6,1.0,1.1
2024-10-16T0100,1224A,120.0633,30.2747,杭州市,西溪,,40,39,42,28,28,32,,,,24,31,6,6,1.0,1
2024-10-16T0100,1226A,120.3461,30.3153,杭州市,下沙,,49,47,54,34,30,18,,,,49,50,6,7,0.9,1
2024-10-16T0100,1227A,120.1269,30.2456,杭州市,卧龙桥,,43,34,39,30,31,35,,,,24,30,5,6,0.8,0.9
2024-10-16T0100,1228A,120.1903,30.2692,杭州市,浙江农大,,46,37,43,32,29,34,,,,23,35,2,3,0.9,1
2024-10-16T0100,1230A,120.1197,30.3119,杭州市,和睦小学,,43,40,41,30,29,38,,,,26,37,6,7,0.6,0.7
2024-10-16T0100,1231A,120.3019,30.4183,杭州市,临平镇,颗粒物(PM10),63,76,61,43,34,28,,,,25,28,5,5,0.9,1
2024-10-16T0100,1232A,120.2697,30.1819,杭州市,城厢镇,细颗粒物(PM2.5),62,,43,44,40,43,,,,24,34,7,7,1.0,1
2024-10-16T0100,1233A,120.0883,30.1808,杭州市,云栖,,19,19,35,12,20,41,,,,21,31,7,7,0.9,0.9
2024-10-16T0100,3557A,119.9464,30.0494,杭州市,镇二中,,25,21,37,17,25,39,,,,15,22,5,6,0.9,1
2024-10-16T0100,3558A,119.7183,30.2367,杭州市,市府大楼,颗粒物(PM10),62,73,65,37,29,60,,,,17,22,5,6,1.1,0.9
2024-10-16T0100,3656A,120.1556,30.2864,杭州市,消防大队,,49,49,45,34,33,41,,,,25,37,6,8,0.8,0.8
2024-10-16T0100,1270A,117.1959,31.7848,合肥市,明珠广场,细颗粒物(PM2.5),89,95,63,66,47,65,,,,30,26,6,6,0.7,0.9
2024-10-16T0100,1271A,117.3072,31.8764,合肥市,三里街,细颗粒物(PM2.5),73,83,61,53,41,51,,,,32,22,3,4,0.8,1
2024-10-16T0100,1272A,117.2588,31.8707,合肥市,琥珀山庄,细颗粒物(PM2.5),84,78,57,62,44,73,,,,33,24,8,8,1.0,1.1
2024-10-16T0100,1273A,117.1604,31.9052,合肥市,董铺水库,颗粒物(PM10),67,83,61,46,40,61,,,,26,18,3,4,0.7,0.7
2024-10-16T0100,1274A,117.25,31.8571,合肥市,长江中路,细颗粒物(PM2.5),82,102,76,60,47,69,,,,26,22,9,9,0.9,1
2024-10-16T0100,1275A,117.266,31.9436,合肥市,庐阳区,细颗粒物(PM2.5),92,95,63,68,44,65,,,,33,27,4,5,0.9,1
2024-10-16T0100,1276A,117.336,31.8586,合肥市,瑶海区,细颗粒物(PM2.5),80,105,68,59,43,61,,,,31,26,4,3,0.9,1
2024-10-16T0100,1277A,117.3027,31.7964,合肥市,包河区,细颗粒物(PM2.5),92,88,59,68,44,22,,,,70,36,7,7,0.8,0.9
2024-10-16T0100,1278A,117.2776,31.7385,合肥市,滨湖新区,细颗粒物(PM2.5),85,95,60,63,44,69,,,,27,17,5,5,0.7,0.9
2024-10-16T0100,1279A,117.1318,31.8403,合肥市,高新区,细颗粒物(PM2.5),100,83,60,75,52,79,,,,22,21,7,6,1.1,1.1
2024-10-16T0100,3464A,117.3803,31.9147,合肥市,高教基地,细颗粒物(PM2.5),84,98,65,62,36,58,,,,27,21,4,4,0.6,0.8
2024-10-16T0100,3614A,79.924,37.0877,和田地区,地区环保局,颗粒物(PM10),124,198,134,50,38,77,,,,22,14,9,8,0.7,0.5
2024-10-16T0100,3615A,79.9131,37.113,和田地区,市环保局,颗粒物(PM10),112,173,127,59,41,61,,,,34,29,8,8,0.8,0.8
2024-10-16T0100,2516A,108.2011,24.715,河池市,东仁乐园,,31,31,24,15,13,5,,,,11,9,3,5,0.6,0.8
2024-10-16T0100,2517A,108.0497,24.6947,河池市,市环保站,,36,36,20,19,10,6,,,,21,16,8,11,0.7,0.8
2024-10-16T0100,2518A,108.0983,24.6989,河池市,市疾控中心,,35,35,26,20,14,4,,,,24,19,6,7,0.7,0.7
2024-10-16T0100,1696A,114.6778,23.7569,河源市,源西,,45,,44,31,32,48,,,,15,26,5,5,0.4,0.4
2024-10-16T0100,1697A,114.6944,23.7586,河源市,东埔,细颗粒物(PM2.5),53,,40,37,37,67,,,,10,19,4,4,0.6,0.7
2024-10-16T0100,1698A,114.6892,23.7233,河源市,老城,,28,27,41,19,29,62,,,,6,13,7,5,0.6,0.6
2024-10-16T0100,1718A,115.4208,35.2464,菏泽市,气象局,细颗粒物(PM2.5),162,234,175,123,103,40,,,,45,36,7,9,0.6,0.6
2024-10-16T0100,1719A,115.4747,35.2375,菏泽市,市政协,细颗粒物(PM2.5),135,217,159,103,97,44,,,,41,38,8,8,0.5,0.6
2024-10-16T0100,3374A,115.5564,35.0891,菏泽市,定陶老年大学,细颗粒物(PM2.5),185,229,154,139,98,24,,,,93,46,7,7,0.7,0.6
2024-10-16T0100,3647A,115.4702,35.2706,菏泽市,菏泽医专,细颗粒物(PM2.5),163,185,138,124,108,34,,,,56,34,16,10,0.8,0.7
2024-10-16T0100,2514A,111.5264,24.4172,贺州市,环保小区,颗粒物(PM10),54,57,18,8,9,39,,,,18,10,5,6,0.6,0.5
2024-10-16T0100,2515A,111.5608,24.4078,贺州市,政协大楼,,33,33,22,15,12,46,,,,14,12,9,8,0.7,0.5
2024-10-16T0100,3534A,111.4744,24.4553,贺州市,西湾,,29,29,20,19,16,39,,,,10,10,7,6,0.6,0.6
2024-10-16T0100,2385A,114.17,35.9019,鹤壁市,市监测站,颗粒物(PM10),87,123,151,57,106,35,,,,40,36,2,6,0.7,1
2024-10-16T0100,2386A,114.2956,35.7511,鹤壁市,市交警支队,颗粒物(PM10),90,130,160,60,102,28,,,,34,33,6,5,0.8,0.9
2024-10-16T0100,2387A,114.2878,35.7306,鹤壁市,迎宾馆,颗粒物(PM10),96,141,180,65,107,30,,,,33,33,7,6,0.8,1.1
2024-10-16T0100,3474A,114.2617,35.6822,鹤壁市,大新区,颗粒物(PM10),84,118,147,56,104,37,,,,20,23,3,4,0.9,1.2
2024-10-16T0100,3596A,114.1572,35.9603,鹤壁市,南山宾馆,"颗粒物(PM10),细颗粒物(PM2.5)",88,125,153,65,103,30,,,,16,16,3,4,0.4,0.8
2024-10-16T0100,2244A,130.2537,47.3416,鹤岗市,哈啤分公司,,20,20,23,12,18,56,,,,2,3,13,14,0.2,0.4
2024-10-16T0100,2245A,130.2684,47.3086,鹤岗市,斯达机电,,28,25,29,19,21,55,,,,5,8,13,14,0.1,0.2
2024-10-16T0100,2246A,130.3114,47.3388,鹤岗市,东山纸板厂,,30,30,24,20,18,56,,,,5,5,15,16,0.1,0.1
2024-10-16T0100,2247A,130.1097,47.3382,鹤岗市,五号水库,,18,14,15,12,10,54,,,,2,4,8,8,0.2,0.1
2024-10-16T0100,2263A,127.4833,50.2524,黑河市,交通局,,22,20,18,15,14,22,,,,17,10,6,7,0.4,0.4
2024-10-16T0100,2264A,127.5144,50.2341,黑河市,环保局,,16,,11,11,13,38,,,,11,6,7,3,0.2,0.3
2024-10-16T0100,2265A,127.5291,50.2472,黑河市,大黑河岛,,,,,4,8,38,,,,16,9,1,2,,
2024-10-16T0100,1074A,115.6838,37.7541,衡水市,电机北厂,颗粒物(PM10),56,61,117,18,76,5,,,,40,29,5,6,0.2,0.4
2024-10-16T0100,1075A,115.6303,37.7316,衡水市,市监测站,,46,46,110,22,72,3,,,,50,33,6,7,0.3,0.4
2024-10-16T0100,3188A,115.6683,37.7217,衡水市,市城管局,,42,42,114,21,73,35,,,,25,30,11,7,0.3,0.5
2024-10-16T0100,3459A,115.5989,37.5491,衡水市,地表水厂,,50,50,114,14,69,24,,,,30,31,3,3,0.3,0.5
2024-10-16T0100,2456A,112.5003,26.9167,衡阳市,原169医院,,42,42,28,21,19,39,,,,15,16,12,14,0.8,0.8
2024-10-16T0100,2457A,112.6194,26.9258,衡阳市,衡阳化工总厂,细颗粒物(PM2.5),57,42,40,40,36,12,,,,26,14,6,6,1.0,1.1
2024-10-16T0100,2458A,112.6211,26.8956,衡阳市,珠晖区环保局,,39,31,37,27,27,20,,,,26,20,8,8,1.1,1.2
2024-10-16T0100,2459A,112.6197,26.8733,衡阳市,市委党校,,39,39,38,26,26,37,,,,12,14,6,7,1.0,1.1
2024-10-16T0100,2460A,112.6006,26.8919,衡阳市,市监测站,,37,37,35,25,31,20,,,,22,14,8,8,1.1,1.1
2024-10-16T0100,2461A,112.5664,26.9056,衡阳市,真空机电公司,,41,41,35,23,24,17,,,,26,17,5,5,1.1,1.2
2024-10-16T0100,3399A,112.6703,26.882,衡阳市,师范学院,,36,36,37,20,22,32,,,,17,16,8,9,1.1,1.2
2024-10-16T0100,2608A,103.3772,23.3993,红河哈尼族彝族自治州,污水处理厂,,28,28,31,15,20,53,,,,6,8,6,13,0.5,0.5
2024-10-16T0100,2609A,103.3861,23.35,红河哈尼族彝族自治州,监测站,,38,28,34,26,24,39,,,,10,10,4,21,0.5,0.5
2024-10-16T0100,3038A,103.3758,23.368,红河哈尼族彝族自治州,州图书馆,,36,,27,25,19,50,,,,6,10,6,14,0.4,0.4
2024-10-16T0100,1090A,111.6507,40.7517,呼和浩特市,呼市一监,,22,22,20,3,5,24,,,,39,24,6,6,0.6,0.4
2024-10-16T0100,1091A,111.6572,40.8033,呼和浩特市,小召,,29,29,18,9,5,10,,,,57,30,7,7,0.5,0.4
2024-10-16T0100,1094A,111.7516,40.8369,呼和浩特市,如意水处理厂,,32,22,12,3,3,5,,,,64,33,3,3,0.4,0.3
2024-10-16T0100,1095A,111.7276,40.8062,呼和浩特市,二十九中,,28,22,20,10,5,17,,,,55,31,7,6,0.8,0.5
2024-10-16T0100,1096A,111.5512,40.7866,呼和浩特市,工大金川校区,,47,47,26,8,4,4,,,,69,34,4,5,0.5,0.4
2024-10-16T0100,1097A,111.717,40.7612,呼和浩特市,化肥厂生活区,,28,28,15,7,4,31,,,,37,27,10,8,0.9,0.3
2024-10-16T0100,3698A,111.5968,40.8178,呼和浩特市,红旗小学,,41,41,21,12,5,2,,,,74,35,7,5,0.6,0.4
2024-10-16T0100,3699A,111.6518,40.8389,呼和浩特市,海东办,颗粒物(PM10),52,53,24,15,5,4,,,,68,36,7,6,0.7,0.6
2024-10-16T0100,2192A,119.7594,49.2261,呼伦贝尔市,区环保局,,22,21,20,15,17,46,,,,11,9,5,6,0.3,0.3
2024-10-16T0100,3061A,119.7512,49.1577,呼伦贝尔市,国华电力东,,25,19,21,17,15,30,,,,16,5,5,4,0.3,0.3
2024-10-16T0100,1250A,120.0751,30.8669,湖州市,城西水厂,细颗粒物(PM2.5),63,53,40,45,35,48,,,,22,27,4,4,0.7,0.8
2024-10-16T0100,2873A,120.0875,30.8955,湖州市,仁皇山新区,细颗粒物(PM2.5),75,63,49,55,44,52,,,,15,24,6,6,0.8,1.1
2024-10-16T0100,2907A,120.1844,30.8596,湖州市,吴兴区站,细颗粒物(PM2.5),72,55,40,52,37,31,,,,33,26,6,6,0.7,0.9
2024-10-16T0100,3562A,120.4148,30.8538,湖州市,南浔区站,细颗粒物(PM2.5),89,,42,66,48,21,,,,35,31,4,3,0.9,1.1
2024-10-16T0100,1607A,120.9092,40.7136,葫芦岛市,龙港区,,,,22,14,8,13,,,,56,29,14,31,0.4,0.5
2024-10-16T0100,1608A,120.8392,40.7514,葫芦岛市,化工街,,48,48,30,14,7,7,,,,55,20,34,17,0.3,0.4
2024-10-16T0100,1609A,120.8341,40.7073,葫芦岛市,新区,细颗粒物(PM2.5),68,72,28,49,8,8,,,,65,26,38,12,0.6,0.4
2024-10-16T0100,1610A,120.8695,40.7677,葫芦岛市,东城区,,36,36,25,13,5,1,,,,50,21,10,10,0.3,0.2
2024-10-16T0100,2482A,109.5981,27.5721,怀化市,林科所,,18,18,28,6,20,41,,,,6,8,4,6,1.3,1.4
2024-10-16T0100,2483A,109.9453,27.5444,怀化市,河西地税局,,25,22,36,17,28,25,,,,22,21,8,11,0.5,0.5
2024-10-16T0100,2484A,109.9781,27.5342,怀化市,市四医院,,32,30,42,22,33,34,,,,8,12,10,13,0.7,0.9
2024-10-16T0100,2485A,109.9972,27.5578,怀化市,监测楼,,31,31,42,20,32,39,,,,8,14,12,11,0.7,0.8
2024-10-16T0100,2486A,110.0394,27.583,怀化市,市委党校,,30,,34,21,26,34,,,,10,12,8,20,0.8,0.8
2024-10-16T0100,1210A,119.036,33.5981,淮安市,钵池山,细颗粒物(PM2.5),87,,73,64,72,75,,,,26,22,4,5,0.6,0.6
2024-10-16T0100,1211A,119.007,33.575,淮安市,北京南路,细颗粒物(PM2.5),93,78,97,69,73,65,,,,35,28,6,7,0.5,0.5
2024-10-16T0100,1212A,118.989,33.6067,淮安市,市监测站,细颗粒物(PM2.5),64,46,72,46,64,94,,,,25,30,7,8,0.8,0.9
2024-10-16T0100,1213A,119.135,33.5039,淮安市,楚州区监测站,细颗粒物(PM2.5),78,,79,57,75,87,,,,30,33,6,6,0.6,0.7
2024-10-16T0100,1214A,119.0186,33.6297,淮安市,淮阴区监测站,细颗粒物(PM2.5),85,70,86,63,73,66,,,,47,39,6,8,0.7,0.8
2024-10-16T0100,3426A,118.8755,33.2894,淮安市,新华书店,颗粒物(PM10),60,69,79,40,44,95,,,,20,26,4,5,0.5,0.6
2024-10-16T0100,2282A,116.8004,33.975,淮北市,监测站,细颗粒物(PM2.5),84,80,84,62,55,92,,,,17,23,2,3,0.6,0.7
2024-10-16T0100,2283A,116.8091,33.9007,淮北市,烈山区政府,细颗粒物(PM2.5),118,127,106,89,74,88,,,,23,28,3,5,0.9,0.6
2024-10-16T0100,3330A,116.8873,33.9836,淮北市,杜集区检察院,细颗粒物(PM2.5),110,108,94,83,70,103,,,,22,26,4,4,0.3,0.3
2024-10-16T0100,4017A,116.7923,33.9535,淮北市,市博物馆,细颗粒物(PM2.5),83,85,84,61,55,103,,,,18,25,2,4,0.7,0.7
2024-10-16T0100,2277A,116.8305,32.7727,淮南市,潘集区政府,细颗粒物(PM2.5),95,89,76,71,52,86,,,,20,22,9,8,0.7,0.6
2024-10-16T0100,2278A,117.0067,32.6524,淮南市,师范学院,细颗粒物(PM2.5),107,93,77,80,51,107,,,,15,21,8,9,0.8,0.6
2024-10-16T0100,2279A,116.8569,32.5951,淮南市,谢家集区政府,细颗粒物(PM2.5),87,86,63,64,51,110,,,,17,23,8,8,0.6,0.6
2024-10-16T0100,2280A,116.8281,32.633,淮南市,八公山区政府,细颗粒物(PM2.5),99,105,77,74,52,101,,,,15,14,9,9,0.5,0.3
2024-10-16T0100,2281A,116.6325,32.6201,淮南市,焦岗湖风景区管理处,颗粒物(PM10),68,86,70,35,33,59,,,,19,18,8,8,0.3,0.2
2024-10-16T0100,2894A,117.0566,32.6531,淮南市,经济技术开发区消防队,细颗粒物(PM2.5),98,102,67,73,38,103,,,,20,26,5,5,0.6,0.5
2024-10-16T0100,3329A,117.0108,32.5893,淮南市,山南新区,细颗粒物(PM2.5),112,,82,84,56,112,,,,15,14,2,3,0.8,0.7
2024-10-16T0100,2446A,114.9028,30.4742,黄冈市,职工中心,细颗粒物(PM2.5),109,94,98,82,84,37,,,,38,27,11,9,1.1,0.9
2024-10-16T0100,2929A,114.8858,30.4519,黄冈市,红卫路,细颗粒物(PM2.5),100,96,96,75,77,34,,,,34,26,12,10,1.3,1.1
2024-10-16T0100,3398A,114.9136,30.4445,黄冈市,市林业局,细颗粒物(PM2.5),109,102,96,82,79,35,,,,36,20,11,9,1.0,0.7
2024-10-16T0100,2672A,102.0199,35.5102,黄南藏族自治州,同仁县隆务镇,,34,34,42,23,19,78,,,,2,5,10,11,0.3,0.7
2024-10-16T0100,2295A,118.2903,29.6963,黄山市,延安路89号,,19,15,29,8,10,60,,,,3,9,6,6,0.5,0.5
2024-10-16T0100,2296A,118.327,29.7178,黄山市,黄山东路89号,,17,16,21,6,8,54,,,,5,9,4,5,0.4,0.5
2024-10-16T0100,2297A,118.1371,30.2756,黄山市,黄山区政府5号楼,,33,33,22,16,13,19,,,,9,8,7,7,0.6,0.6
2024-10-16T0100,2423A,115.0601,30.2313,黄石市,沈家营,颗粒物(PM10),74,98,128,40,60,43,,,,17,31,6,8,0.7,0.9
2024-10-16T0100,2424A,115.0817,30.2006,黄石市,陈家湾,颗粒物(PM10),62,74,120,29,62,45,,,,15,22,7,13,0.9,1.1
2024-10-16T0100,2426A,114.8988,30.2019,黄石市,铁山,,43,34,87,30,78,86,,,,6,23,10,14,0.4,0.8
2024-10-16T0100,2427A,115.0307,30.2092,黄石市,团城山,颗粒物(PM10),65,80,116,33,66,58,,,,13,25,5,8,0.7,1
2024-10-16T0100,3149A,115.0235,30.1578,黄石市,笔架山北路,颗粒物(PM10),58,66,107,23,68,70,,,,8,17,6,8,0.6,1
2024-10-16T0100,1392A,114.4183,23.0528,惠州市,河南岸金山湖子站,,21,21,35,10,23,58,,,,13,10,6,6,0.6,0.6
2024-10-16T0100,1393A,114.4053,23.0822,惠州市,下埔横江三路子站,,26,26,38,15,23,69,,,,14,11,5,5,0.7,0.7
2024-10-16T0100,1394A,114.4103,23.1142,惠州市,江北云山西路子站,,25,23,38,14,20,80,,,,5,10,6,6,0.5,0.5
2024-10-16T0100,1395A,114.4645,22.7833,惠州市,惠阳区承修路船湖子站,,26,26,35,10,18,62,,,,16,18,6,7,0.4,0.5
2024-10-16T0100,1396A,114.5317,22.7422,惠州市,大亚湾管委会子站,,26,26,30,11,17,71,,,,17,16,8,9,0.6,0.7
2024-10-16T0100,3314A,114.4338,22.8134,惠州市,惠阳秋长,,21,14,25,10,18,67,,,,18,15,6,6,0.6,0.6
2024-10-16T0100,3452A,114.6517,22.775,惠州市,大亚湾霞涌,,17,16,26,8,21,54,,,,13,8,6,6,0.5,0.4
2024-10-16T0100,2240A,130.9762,45.3001,鸡西市,环保局,,19,13,22,3,6,59,,,,2,4,5,6,0.1,0.2
2024-10-16T0100,2243A,130.9429,45.3039,鸡西市,第一中学,,18,,18,6,7,57,,,,2,5,5,5,0,0
2024-10-16T0100,3707A,131.0207,45.3073,鸡西市,欧美日汽修厂,,15,8,18,7,10,46,,,,17,11,7,7,0,0.1
2024-10-16T0100,3709A,130.9967,45.3106,鸡西市,市政设施管理处,,18,18,34,3,9,36,,,,23,13,6,7,0,0.2
2024-10-16T0100,2367A,114.9754,27.0803,吉安市,红声器材厂,细颗粒物(PM2.5),52,46,70,36,56,55,,,,17,20,11,12,0.7,0.7
2024-10-16T0100,2368A,114.9658,27.0999,吉安市,市森林工业局,细颗粒物(PM2.5),59,44,69,42,59,56,,,,13,21,8,10,0.8,0.9
2024-10-16T0100,2369A,114.99,27.1312,吉安市,市环境监测站,,44,44,62,30,48,50,,,,15,20,15,15,0.7,0.8
2024-10-16T0100,2370A,115.0093,27.0968,吉安市,青原区法院,,50,44,70,35,57,52,,,,18,19,17,15,0.7,0.9
2024-10-16T0100,1772A,126.54,43.8622,吉林市,哈达湾,,30,29,18,21,9,14,,,,30,17,7,7,0.6,0.5
2024-10-16T0100,1773A,126.5844,43.8358,吉林市,东局子,,31,31,22,17,11,15,,,,26,19,6,6,0.7,0.5
2024-10-16T0100,1774A,126.5052,43.8245,吉林市,电力学院,,20,20,23,13,11,6,,,,25,14,5,4,0.6,0.6
2024-10-16T0100,1775A,126.6133,43.8972,吉林市,江北,,21,21,30,11,13,31,,,,11,14,7,11,0.5,0.6
2024-10-16T0100,1776A,126.555,43.8306,吉林市,江南公园,,37,37,19,17,9,6,,,,30,16,6,6,0.6,0.5
2024-10-16T0100,1778A,126.7061,43.7133,吉林市,丰满,,13,13,10,6,4,35,,,,7,7,7,7,0.5,0.4
2024-10-16T0100,2868A,126.4739,43.953,吉林市,九站,细颗粒物(PM2.5),52,43,20,36,12,6,,,,32,19,7,6,0.8,0.5
2024-10-16T0100,1299A,116.9862,36.6114,济南市,科干所,颗粒物(PM10),70,90,139,39,58,38,,,,37,35,6,8,0.7,0.8
2024-10-16T0100,1300A,116.9376,36.665,济南市,农科所,颗粒物(PM10),73,95,128,29,49,46,,,,37,42,6,7,0.7,0.7
2024-10-16T0100,1301A,117.1265,36.6734,济南市,开发区,颗粒物(PM10),70,90,115,42,53,40,,,,34,38,4,6,0.6,0.7
2024-10-16T0100,1303A,117.0624,36.6868,济南市,省种子仓库,颗粒物(PM10),70,90,132,48,68,44,,,,26,46,3,5,0.5,0.7
2024-10-16T0100,1304A,116.9489,36.6447,济南市,机床二厂,颗粒物(PM10),62,73,116,27,48,35,,,,42,42,4,5,0.7,0.8
2024-10-16T0100,1305A,117.0495,36.663,济南市,市监测站,颗粒物(PM10),67,83,117,37,69,33,,,,43,48,4,6,0.7,0.8
2024-10-16T0100,1306A,116.7675,36.5484,济南市,长清党校,颗粒物(PM10),69,88,136,34,61,32,,,,46,33,6,7,0.7,0.8
2024-10-16T0100,1616A,117.6795,36.229,济南市,技术学院,细颗粒物(PM2.5),73,85,127,53,78,57,,,,23,39,7,10,0.7,1
2024-10-16T0100,1961A,117.532,36.6868,济南市,东山小学,颗粒物(PM10),61,71,105,20,45,32,,,,37,36,4,5,0.7,0.6
2024-10-16T0100,3059A,117.7161,36.2049,济南市,泰兴公司,细颗粒物(PM2.5),79,83,113,58,69,68,,,,26,45,5,9,0.4,0.8
2024-10-16T0100,3064A,117.6867,36.2171,济南市,莱芜战役纪念馆,"颗粒物(PM10),细颗粒物(PM2.5)",70,90,119,51,66,64,,,,22,45,5,8,0.6,0.9
2024-10-16T0100,3494A,117.1673,36.9782,济南市,济阳区政府,,37,37,97,10,44,54,,,,18,34,5,4,0.3,0.4
2024-10-16T0100,3495A,117.1171,36.63,济南市,锦屏中学,颗粒物(PM10),67,83,101,37,54,35,,,,40,32,4,6,0.5,0.6
2024-10-16T0100,3682A,116.9814,36.6819,济南市,济南四建,颗粒物(PM10),64,78,101,37,51,39,,,,34,44,2,4,0.7,0.7
2024-10-16T0100,1653A,116.6251,35.4302,济宁市,火炬城,细颗粒物(PM2.5),113,120,114,85,81,105,,,,26,33,14,12,1.2,1
2024-10-16T0100,1655A,116.5491,35.4042,济宁市,电化厂,细颗粒物(PM2.5),100,133,154,75,80,118,,,,24,38,14,11,1.5,1.4
2024-10-16T0100,3500A,116.5814,35.3707,济宁市,北湖一中,细颗粒物(PM2.5),132,,111,100,95,118,,,,23,34,16,11,0.8,0.7
2024-10-16T0100,3501A,116.8249,35.5593,济宁市,服务中心,细颗粒物(PM2.5),104,93,101,78,73,92,,,,30,42,8,7,1.0,0.9
2024-10-16T0100,3678A,116.5907,35.4054,济宁市,市第七中学,细颗粒物(PM2.5),117,104,118,88,90,115,,,,22,34,18,11,1.0,1
2024-10-16T0100,2255A,130.2751,46.8028,佳木斯市,佳纺,,18,18,16,8,8,36,,,,20,11,5,5,0.3,0.4
2024-10-16T0100,2256A,130.3995,46.8307,佳木斯市,发电厂,,15,11,13,3,7,46,,,,12,5,6,5,0.3,0.4
2024-10-16T0100,2257A,130.3258,46.7975,佳木斯市,环保局,,17,17,14,3,6,43,,,,10,8,8,8,0.2,0.4
2024-10-16T0100,2258A,130.3648,46.8032,佳木斯市,十一中,,20,20,19,3,7,37,,,,20,11,6,8,0.3,0.4
2024-10-16T0100,2259A,130.3794,46.7588,佳木斯市,四丰,,,7,13,3,6,56,,,,,,1,1,0,0.1
2024-10-16T0100,1252A,120.7436,30.778,嘉兴市,清河小学,,50,50,46,34,31,24,,,,31,37,4,5,0.9,1
2024-10-16T0100,1253A,120.726,30.7478,嘉兴市,嘉兴学院,细颗粒物(PM2.5),87,,44,64,50,25,,,,31,33,4,4,0.8,0.9
2024-10-16T0100,2872A,120.7846,30.7525,嘉兴市,南湖区残联,细颗粒物(PM2.5),69,56,46,50,42,23,,,,27,34,5,6,0.8,0.9
2024-10-16T0100,3407A,120.6916,30.7739,嘉兴市,秀洲住建,,49,47,42,34,30,20,,,,29,35,6,7,0.8,0.9
2024-10-16T0100,1945A,98.2908,39.7711,嘉峪关市,气象局,,39,39,69,14,20,74,,,,26,27,16,4,0.4,0.4
2024-10-16T0100,2884A,98.2672,39.7978,嘉峪关市,酒钢宾馆,颗粒物(PM10),56,61,68,14,20,60,,,,19,24,15,19,0.3,0.5
2024-10-16T0100,3248A,98.2643,39.7724,嘉峪关市,雄关区,,45,45,55,17,20,67,,,,17,28,12,9,0.3,0.4
2024-10-16T0100,1383A,113.1064,22.6058,江门市,北街,,31,31,40,19,25,50,,,,19,20,7,6,0.5,0.5
2024-10-16T0100,1384A,113.0731,22.5835,江门市,西区,,48,48,43,18,22,57,,,,20,25,9,7,0.4,0.4
2024-10-16T0100,1385A,113.0219,22.5311,江门市,圭峰西,,29,,37,20,22,56,,,,20,17,5,4,0.4,0.4
2024-10-16T0100,1386A,113.0828,22.5947,江门市,东湖,,28,28,40,15,22,52,,,,18,19,7,6,0.4,0.4
2024-10-16T0100,3311A,113.1075,22.5647,江门市,江海富民,颗粒物(PM10),55,60,55,25,24,63,,,,16,20,9,8,0.5,0.5
2024-10-16T0100,3449A,113.05,22.4667,江门市,新会银湖,,42,41,39,29,27,12,,,,39,24,6,7,0.5,0.5
2024-10-16T0100,1828A,113.227,35.2125,焦作市,市环保局,细颗粒物(PM2.5),192,197,154,144,111,23,,,,69,33,4,6,0.7,0.6
2024-10-16T0100,1830A,113.1992,35.2590,焦作市,影视城,细颗粒物(PM2.5),169,152,120,128,87,106,,,,20,15,7,9,1.1,0.8
2024-10-16T0100,3169A,113.2725,35.2067,焦作市,太极体育中心,细颗粒物(PM2.5),117,140,154,88,95,64,,,,30,35,7,6,0.9,1
2024-10-16T0100,3335A,113.3137,35.2641,焦作市,马村街道办,细颗粒物(PM2.5),159,152,139,121,102,45,,,,34,27,2,6,0.5,0.5
2024-10-16T0100,3336A,113.2465,35.2373,焦作市,焦作技师学院,细颗粒物(PM2.5),147,162,140,112,95,48,,,,41,20,3,5,1.1,1.1
2024-10-16T0100,3477A,113.1656,35.2539,焦作市,中站许衡医院,细颗粒物(PM2.5),170,189,128,129,93,61,,,,37,24,9,7,1.1,0.5
2024-10-16T0100,3981A,113.2449,35.1803,焦作市,原李万街道办,细颗粒物(PM2.5),129,157,163,98,101,44,,,,36,38,7,11,0.8,1
2024-10-16T0100,1708A,116.3701,23.5345,揭阳市,新兴,,,,38,16,22,62,,,,11,16,6,8,0.4,0.5
2024-10-16T0100,1709A,116.3264,23.5443,揭阳市,西马,,36,36,40,13,19,63,,,,5,9,7,8,0.6,0.7
2024-10-16T0100,1710A,116.3611,23.5626,揭阳市,东兴,,23,,41,16,20,58,,,,9,12,5,7,0.7,0.8
2024-10-16T0100,1711A,116.4151,23.5294,揭阳市,渔湖,,19,,35,13,18,57,,,,14,14,7,9,0.6,0.7
2024-10-16T0100,3320A,116.403,23.5699,揭阳市,曲溪,,34,34,37,16,20,51,,,,17,16,4,7,0.4,0.5
2024-10-16T0100,1944A,102.1692,38.5167,金昌市,天庆家园,颗粒物(PM10),72,94,84,50,33,76,,,,13,17,12,14,0.8,0.7
2024-10-16T0100,3170A,102.1864,38.5253,金昌市,市委党校,颗粒物(PM10),89,128,100,34,31,73,,,,18,16,8,10,0.7,0.6
2024-10-16T0100,4022A,102.1647,38.5371,金昌市,金川区人防中心,颗粒物(PM10),89,127,98,36,31,84,,,,12,13,9,13,0.6,0.6
2024-10-16T0100,1262A,119.647,29.077,金华市,十五中,,30,30,65,16,38,48,,,,23,28,3,3,0.7,0.7
2024-10-16T0100,1263A,119.686,29.1029,金华市,监测站,,28,27,60,19,36,40,,,,29,29,2,3,0.7,0.7
2024-10-16T0100,3659A,119.656,29.1131,金华市,气象局,,22,22,55,11,29,39,,,,30,33,3,4,0.7,0.7
2024-10-16T0100,1767A,121.1115,41.0879,锦州市,南山,,46,46,20,18,8,6,,,,45,17,8,10,0.5,0.3
2024-10-16T0100,1768A,121.0533,40.8434,锦州市,开发区,颗粒物(PM10),60,69,33,18,8,5,,,,60,18,16,9,0.5,0.4
2024-10-16T0100,1769A,121.1836,41.1119,锦州市,百股街道,,50,50,28,17,6,14,,,,32,17,7,9,0.8,0.6
2024-10-16T0100,1770A,121.1178,41.1222,锦州市,天安街道,,48,48,27,16,8,35,,,,33,21,10,11,0.5,0.5
2024-10-16T0100,1771A,121.1303,41.1386,锦州市,北湖公园,,42,42,27,13,9,42,,,,21,19,10,12,0.4,0.5
2024-10-16T0100,2160A,112.85,35.5051,晋城市,自来水公司,细颗粒物(PM2.5),163,155,145,124,109,81,,,,31,35,7,11,1.3,1.7
2024-10-16T0100,2161A,112.8318,35.4936,晋城市,白云商贸,细颗粒物(PM2.5),170,165,149,129,109,70,,,,36,37,4,7,1.1,1.4
2024-10-16T0100,2162A,112.8508,35.4887,晋城市,市环保局,细颗粒物(PM2.5),160,180,151,122,101,93,,,,31,38,6,9,1.3,1.5
2024-10-16T0100,2163A,112.8676,35.4897,晋城市,技术学院,细颗粒物(PM2.5),168,185,154,127,105,80,,,,36,36,4,7,1.2,1.5
2024-10-16T0100,2165A,112.8453,35.546,晋城市,白马寺,,,,,,,,,,,,,,,,
2024-10-16T0100,3620A,112.8271,35.4828,晋城市,泽州一中,细颗粒物(PM2.5),185,161,148,139,113,91,,,,27,32,9,11,1.4,1.6
2024-10-16T0100,2171A,112.7532,37.6945,晋中市,锦纶小区,颗粒物(PM10),63,75,94,41,55,71,,,,27,24,9,8,0.4,0.6
2024-10-16T0100,2173A,112.7249,37.7067,晋中市,南都小区,颗粒物(PM10),62,73,102,36,58,64,,,,30,36,8,6,0.4,0.6
2024-10-16T0100,2174A,112.6991,37.6982,晋中市,榆次区政府,颗粒物(PM10),62,73,102,37,51,66,,,,30,32,8,7,0.3,0.5
2024-10-16T0100,2865A,112.7195,37.6828,晋中市,榆次三中,颗粒物(PM10),63,75,96,34,49,68,,,,25,25,10,9,0.5,0.7
2024-10-16T0100,2439A,112.2014,31.0481,荆门市,竹园小学,细颗粒物(PM2.5),99,,92,74,73,30,,,,32,33,9,11,0.8,0.9
2024-10-16T0100,2440A,112.1969,30.9891,荆门市,掇刀,细颗粒物(PM2.5),87,85,103,64,87,75,,,,29,34,9,9,0.5,0.7
2024-10-16T0100,2441A,112.2213,31.0386,荆门市,石化一小,细颗粒物(PM2.5),105,79,90,79,78,46,,,,40,32,15,16,0.6,0.7
2024-10-16T0100,3012A,112.1849,31.0362,荆门市,西山林语,细颗粒物(PM2.5),72,64,83,52,62,60,,,,14,24,8,8,0.5,0.6
2024-10-16T0100,3547A,112.1632,31.0138,荆门市,龙泉中学南校,细颗粒物(PM2.5),54,46,62,38,39,87,,,,22,39,6,6,0.7,0.9
2024-10-16T0100,1844A,112.2494,30.3197,荆州市,市图书馆,细颗粒物(PM2.5),68,62,63,49,48,50,,,,29,28,9,9,1.0,1
2024-10-16T0100,1845A,112.2008,30.3544,荆州市,市委党校,细颗粒物(PM2.5),78,81,72,57,53,36,,,,34,29,5,6,0.8,0.8
2024-10-16T0100,3194A,112.2747,30.3122,荆州市,管委会,细颗粒物(PM2.5),74,75,74,54,56,26,,,,48,36,8,8,1.2,1
2024-10-16T0100,3548A,112.1655,30.3364,荆州市,学苑路,细颗粒物(PM2.5),110,,53,83,68,32,,,,48,29,6,7,0.9,0.9
2024-10-16T0100,2342A,117.3102,29.3867,景德镇市,王港中学,,,,,,,,,,,,,,,,
2024-10-16T0100,2343A,117.2117,29.2933,景德镇市,老干部活动中心,,15,14,25,3,20,45,,,,6,8,8,8,0.2,0.3
2024-10-16T0100,2344A,117.1894,29.2789,景德镇市,兽医站,,17,12,32,3,21,54,,,,5,9,6,6,0.4,0.5
2024-10-16T0100,2345A,117.1547,29.2617,景德镇市,台达陶瓷,,16,,32,9,25,50,,,,4,11,15,20,0.4,0.5
2024-10-16T0100,2346A,117.2461,29.2956,景德镇市,陶研所,,20,6,32,3,22,61,,,,5,11,7,6,0.3,0.4
2024-10-16T0100,1803A,115.9872,29.6815,九江市,十里,颗粒物(PM10),52,54,58,25,39,53,,,,10,13,9,10,1.0,0.9
2024-10-16T0100,1804A,115.9584,29.7046,九江市,茅山头,,43,42,58,30,45,54,,,,13,21,5,7,0.9,0.9
2024-10-16T0100,1805A,115.9877,29.7295,九江市,西园,颗粒物(PM10),51,51,53,33,44,66,,,,10,18,6,7,0.7,0.7
2024-10-16T0100,1806A,116.0172,29.6547,九江市,五七二七厂,,43,39,48,30,39,48,,,,17,16,8,8,0.9,0.8
2024-10-16T0100,1808A,115.9114,29.6038,九江市,综合工业园,,44,44,53,28,45,32,,,,31,35,7,8,1.1,0.8
2024-10-16T0100,1809A,116.0721,29.7535,九江市,石化总厂,,49,47,53,34,46,56,,,,15,21,8,9,0.9,0.9
2024-10-16T0100,1810A,115.9773,29.5698,九江市,庐山气象台,,33,,18,9,17,103,,,,3,5,7,10,0.7,0.8
2024-10-16T0100,3190A,116.0254,29.6994,九江市,外国语学校,,49,45,57,34,44,46,,,,19,23,4,6,0.8,0.4
2024-10-16T0100,2658A,98.5061,39.7443,酒泉市,仓门街子站,,46,46,68,28,25,63,,,,11,22,6,9,0.4,0.4
2024-10-16T0100,2659A,98.4989,39.7256,酒泉市,油田生活基地,,48,48,81,27,28,61,,,,11,19,6,6,0.3,0.3
2024-10-16T0100,2698A,76.0072,39.4467,喀什地区,巡警大队,颗粒物(PM10),167,284,194,70,45,0,,,,82,47,7,5,1.4,0.8
2024-10-16T0100,2699A,75.9755,39.4694,喀什地区,吾办,细颗粒物(PM2.5),150,232,181,115,63,0,,,,74,44,2,2,1.7,0.9
2024-10-16T0100,4027A,75.9483,39.4689,喀什地区,老干局,颗粒物(PM10),259,391,233,87,46,5,,,,80,42,4,4,1.8,0.8
2024-10-16T0100,1824A,114.3389,34.7781,开封市,肿瘤医院,,,,164,,118,,,,,,50,,4,,0.6
2024-10-16T0100,1826A,114.2885,34.7965,开封市,世纪星幼儿园,颗粒物(PM10),80,109,158,54,81,57,,,,26,36,1,3,0.8,0.8
2024-10-16T0100,3147A,114.3438,34.8106,开封市,龙亭公园,细颗粒物(PM2.5),145,116,161,111,146,52,,,,28,36,3,5,1.0,1
2024-10-16T0100,3210A,114.3644,34.7964,开封市,汴京公园,细颗粒物(PM2.5),158,153,178,120,126,53,,,,24,30,3,4,0.8,0.7
2024-10-16T0100,3473A,114.2485,34.8306,开封市,技师学院,颗粒物(PM10),87,123,165,52,81,49,,,,30,33,6,6,0.9,0.9
2024-10-16T0100,3592A,114.4644,34.7556,开封市,祥符区生态环境局,细颗粒物(PM2.5),104,155,178,78,98,43,,,,36,37,5,4,0.8,0.7
2024-10-16T0100,1951A,84.895,45.6094,克拉玛依市,长征新村,,29,29,18,3,6,22,,,,24,10,6,6,0.3,0.2
2024-10-16T0100,1952A,84.8988,45.5893,克拉玛依市,南林小区,,29,29,17,11,11,14,,,,36,12,5,3,0.5,0.2
2024-10-16T0100,1954A,84.905,44.3396,克拉玛依市,独山子区,颗粒物(PM10),63,76,60,34,22,20,,,,26,32,8,10,0.4,0.5
2024-10-16T0100,1955A,85.6979,46.098,克拉玛依市,乌尔禾区商贸楼,,32,26,22,22,7,12,,,,30,15,2,2,0.4,0.2
2024-10-16T0100,3612A,85.1045,45.6899,克拉玛依市,白碱滩区新站,,12,9,18,7,6,37,,,,11,11,8,8,0.3,0.3
2024-10-16T0100,2697A,76.1454,39.7142,克孜勒苏柯尔克孜自治州,市人民政府,颗粒物(PM10),116,182,133,60,41,37,,,,42,17,12,9,0.6,0.4
2024-10-16T0100,3665A,76.1658,39.7157,克孜勒苏柯尔克孜自治州,克州文化中心,颗粒物(PM10),115,180,123,59,40,56,,,,48,18,26,15,0.5,0.3
2024-10-16T0100,1450A,102.8204,24.8886,昆明市,呈贡新区,,26,26,27,17,16,36,,,,17,16,4,5,0.7,0.7
2024-10-16T0100,1451A,102.6251,24.9608,昆明市,西山森林公园,,,,,,,,,,,,,,,,
2024-10-16T0100,1452A,102.7252,25.0902,昆明市,龙泉镇,,23,,21,16,15,27,,,,26,15,6,6,0.8,0.8
2024-10-16T0100,1453A,102.7266,25.0375,昆明市,东风东路,,30,30,24,18,18,4,,,,52,19,6,7,0.7,0.5
2024-10-16T0100,1454A,102.6742,25.0669,昆明市,金鼎山,,16,,23,11,12,35,,,,23,16,1,2,0.6,0.6
2024-10-16T0100,1455A,102.6644,25.0401,昆明市,碧鸡广场,,21,21,24,12,12,51,,,,13,15,5,6,0.3,0.3
2024-10-16T0100,3179A,102.7494,25.0119,昆明市,官渡区博物馆,,18,18,24,12,17,23,,,,34,22,6,7,0.6,0.6
2024-10-16T0100,3375A,102.8017,24.8336,昆明市,青年创业园,,14,9,17,9,14,44,,,,15,14,4,5,0.6,0.6
2024-10-16T0100,3550A,102.7997,24.9786,昆明市,昆明学院,,26,23,27,18,19,27,,,,34,21,6,7,0.6,0.6
2024-10-16T0100,3551A,102.5967,24.6736,昆明市,晋宁区生态环境分局,,41,41,29,17,19,39,,,,14,15,1,2,0.6,0.6
2024-10-16T0100,3552A,102.6678,24.9856,昆明市,云天化总部,,18,15,24,11,17,55,,,,6,14,4,5,0.4,0.5
2024-10-16T0100,1456A,91.1319,29.6514,拉萨市,八廓街,,32,9,12,3,7,100,,,,8,9,7,9,0.2,0.2
2024-10-16T0100,1457A,91.1221,29.6747,拉萨市,市环保局,,31,12,14,7,7,98,,,,8,13,6,8,0.2,0.3
2024-10-16T0100,1458A,91.0874,29.6475,拉萨市,区监测站,,29,10,13,3,7,92,,,,12,14,5,8,0.3,0.3
2024-10-16T0100,1459A,91.1774,29.6541,拉萨市,西藏大学,,32,8,12,6,6,101,,,,3,5,5,9,0.4,0.4
2024-10-16T0100,1460A,90.9798,29.6588,拉萨市,区辐射站,,21,17,21,10,9,67,,,,25,33,8,9,0.2,0.3
2024-10-16T0100,1461A,91.0834,29.6292,拉萨市,拉萨火车站,,32,7,10,3,7,100,,,,3,8,5,6,0.1,0.2
2024-10-16T0100,2520A,109.2203,23.7256,来宾市,来宾技工学校,,21,21,18,14,11,54,,,,10,10,7,6,0.9,0.9
2024-10-16T0100,3535A,109.1781,23.7297,来宾市,兴宾区政府,,24,24,15,12,9,19,,,,9,7,7,7,0.8,0.8
2024-10-16T0100,4002A,109.2416,23.7461,来宾市,中南小学,,50,50,22,24,11,34,,,,14,8,6,7,0.8,0.8
2024-10-16T0100,1476A,103.631,36.1031,兰州市,兰炼宾馆,,37,37,64,23,33,34,,,,29,43,7,21,0.4,0.7
2024-10-16T0100,1477A,104.1373,35.9454,兰州市,榆中兰大校区,,,,,,,,,,,,,,,,
2024-10-16T0100,1478A,103.8412,36.0726,兰州市,生物制品所,,29,29,47,17,28,43,,,,18,38,8,11,0.3,0.5
2024-10-16T0100,1479A,103.831,36.0464,兰州市,铁路设计院,,38,,48,26,32,23,,,,35,48,6,10,0.4,0.6
2024-10-16T0100,3186A,103.7158,36.1058,兰州市,教育港,,39,37,62,27,35,50,,,,13,37,8,14,0.4,0.7
2024-10-16T0100,3241A,103.7439,36.0842,兰州市,百合公园,,29,29,53,19,23,33,,,,24,35,7,12,0.4,0.7
2024-10-16T0100,3242A,103.9611,35.998,兰州市,和平,,42,42,42,15,20,21,,,,33,23,9,10,0.5,0.5
2024-10-16T0100,3245A,103.6633,36.533,兰州新区,新区管委会,,33,33,50,23,23,63,,,,11,20,14,16,0.5,0.6
2024-10-16T0100,3246A,103.6975,36.4789,兰州新区,舟曲中学,,42,42,61,19,24,66,,,,12,22,19,15,0.5,0.5
2024-10-16T0100,1067A,116.6708,39.5111,廊坊市,药材公司,,46,45,75,32,41,28,,,,36,28,25,7,0.5,0.5
2024-10-16T0100,1068A,116.7214,39.5589,廊坊市,开发区,,42,42,68,19,30,11,,,,39,28,1,2,0.4,0.5
2024-10-16T0100,1070A,116.7244,39.5269,廊坊市,北华航天学院,颗粒物(PM10),57,64,74,24,39,8,,,,46,25,3,3,0.4,0.4
2024-10-16T0100,2919A,116.7022,39.5453,廊坊市,河北工业大学,,48,48,65,25,42,18,,,,49,34,3,3,0.4,0.4
2024-10-16T0100,2535A,103.7723,29.5462,乐山市,花湖湾,细颗粒物(PM2.5),105,96,60,79,41,33,,,,38,20,4,4,1.1,0.9
2024-10-16T0100,2536A,103.7627,29.5844,乐山市,牛耳桥,细颗粒物(PM2.5),104,99,54,78,45,5,,,,45,32,4,5,0.8,0.7
2024-10-16T0100,2537A,103.7508,29.6006,乐山市,市第三水厂,细颗粒物(PM2.5),140,,58,107,49,6,,,,51,32,4,4,1.1,0.9
2024-10-16T0100,2538A,103.7571,29.5664,乐山市,市监测站,细颗粒物(PM2.5),77,73,54,56,33,6,,,,48,22,4,5,1.0,0.8
2024-10-16T0100,3361A,103.7311,29.5628,乐山市,理工大学,细颗粒物(PM2.5),107,94,55,80,47,30,,,,41,22,4,4,0.9,0.7
2024-10-16T0100,2598A,100.2143,26.8576,丽江市,西南郊,,19,13,15,13,10,43,,,,8,9,6,7,0.8,0.8
2024-10-16T0100,2599A,100.2497,26.8802,丽江市,丽江古城,,20,20,24,12,13,34,,,,9,10,10,10,0.5,0.5
2024-10-16T0100,2600A,100.2203,26.8906,丽江市,市中心,,16,13,14,11,10,39,,,,8,10,6,6,0.5,0.5
2024-10-16T0100,1267A,119.914,28.4514,丽水市,监测站大楼,,12,6,36,3,24,36,,,,22,20,3,3,0.8,0.6
2024-10-16T0100,1268A,119.93,28.4586,丽水市,莲都小学,,12,,42,3,27,38,,,,22,20,4,4,0.8,0.6
2024-10-16T0100,1269A,119.879,28.4231,丽水市,余庄前,,19,18,40,13,28,30,,,,17,15,3,4,0.9,0.6
2024-10-16T0100,1173A,119.176,34.5885,连云港市,市环境监测站,细颗粒物(PM2.5),67,58,93,48,82,151,,,,10,22,8,10,0.3,0.5
2024-10-16T0100,3000A,119.3581,34.6972,连云港市,德源药业,细颗粒物(PM2.5),70,73,85,51,64,148,,,,8,33,4,6,0.3,0.5
2024-10-16T0100,3007A,119.178,34.844,连云港市,新城一中,颗粒物(PM10),68,85,116,34,48,127,,,,18,34,6,9,0.7,0.9
2024-10-16T0100,3008A,119.3608,34.7519,连云港市,胡沟管理处,细颗粒物(PM2.5),70,83,91,51,78,108,,,,26,21,8,8,0.4,0.6
2024-10-16T0100,3009A,119.1478,34.5911,连云港市,矿山设计院,细颗粒物(PM2.5),73,66,106,53,83,125,,,,12,23,6,9,0.6,0.8
2024-10-16T0100,3434A,119.2413,34.6539,连云港市,工贸学校,,43,39,70,30,50,133,,,,13,17,8,10,0.7,0.8
2024-10-16T0100,3664A,119.4172,34.7341,连云港市,连云街道,,50,48,59,31,40,160,,,,6,13,5,9,0.7,0.9
2024-10-16T0100,2571A,102.3431,27.8099,凉山彝族自治州,青龙寺,,18,18,16,6,6,33,,,,4,3,7,9,0.7,0.7
2024-10-16T0100,2572A,102.2721,27.8415,凉山彝族自治州,邛海宾馆,,25,25,24,15,14,31,,,,16,13,10,10,1.0,0.8
2024-10-16T0100,2573A,102.2625,27.898,凉山彝族自治州,西昌市政府,,21,21,18,12,12,41,,,,5,10,8,9,0.8,0.8
2024-10-16T0100,2574A,102.2685,27.8851,凉山彝族自治州,凉山州政府,,19,19,25,12,13,36,,,,15,15,7,7,0.9,0.7
2024-10-16T0100,2575A,102.237,27.8914,凉山彝族自治州,长安,,25,22,22,17,12,21,,,,24,15,10,11,1.2,1
2024-10-16T0100,2212A,123.2,41.1953,辽阳市,宏伟区,,32,32,23,7,6,18,,,,29,12,8,8,0.8,0.4
2024-10-16T0100,2213A,123.1683,41.2495,辽阳市,新华园,,44,44,26,9,6,9,,,,47,16,21,15,0.6,0.4
2024-10-16T0100,2214A,123.2354,41.2639,辽阳市,滨河路,,38,38,30,23,17,7,,,,39,17,11,14,0.5,0.4
2024-10-16T0100,2215A,123.149,41.2991,辽阳市,铁西工业园,,44,44,25,20,11,2,,,,43,16,22,14,1.1,0.6
2024-10-16T0100,2227A,125.1358,42.8845,辽源市,环保局,,38,37,23,26,10,6,,,,22,15,6,7,0.7,0.5
2024-10-16T0100,3239A,125.0764,42.9078,辽源市,银鹰制药,,42,40,23,29,13,8,,,,30,20,13,12,0.6,0.5
2024-10-16T0100,1625A,115.9848,36.4372,聊城市,区政府,颗粒物(PM10),62,73,158,22,82,38,,,,32,32,10,12,0.5,0.7
2024-10-16T0100,2878A,116.0072,36.4343,聊城市,聊大东校,颗粒物(PM10),65,80,159,33,81,39,,,,34,33,9,11,0.4,0.6
2024-10-16T0100,3200A,115.9819,36.4978,聊城市,监控中心,,,,171,,119,,,131,,,31,,11,,0.9
2024-10-16T0100,3513A,116.0445,36.4361,聊城市,九州社区,颗粒物(PM10),61,71,146,25,76,33,,,,26,25,6,8,0.5,0.8
2024-10-16T0100,4018A,116.0567,36.4608,聊城市,星美广场,颗粒物(PM10),60,70,121,22,76,39,,,,26,26,8,11,0.7,0.8
2024-10-16T0100,2632A,94.3681,29.6376,林芝市,林芝监测站,,23,6,4,3,4,72,,,,1,4,6,6,0.2,0.3
2024-10-16T0100,2633A,94.3616,29.6616,林芝市,林芝人民医院,,20,6,7,3,5,64,,,,5,7,5,5,0.2,0.2
2024-10-16T0100,2603A,100.0781,23.8982,临沧市,市环保局,,30,30,32,20,20,20,,,,11,11,3,5,0.6,0.5
2024-10-16T0100,2604A,100.0894,23.8822,临沧市,市气象局,,39,33,31,27,24,14,,,,11,10,7,12,0.6,0.5
2024-10-16T0100,1733A,111.5531,36.0783,临汾市,临钢医院,细颗粒物(PM2.5),140,176,113,107,55,99,,,,28,36,4,9,1.0,0.9
2024-10-16T0100,1734A,111.5028,36.0714,临汾市,技工学校,细颗粒物(PM2.5),168,173,91,127,58,116,,,,25,37,6,11,1.1,1.1
2024-10-16T0100,1736A,111.5018,36.0855,临汾市,市委,细颗粒物(PM2.5),159,164,92,121,49,127,,,,20,30,6,10,1.1,1
2024-10-16T0100,3018A,111.505,36.1014,临汾市,唐尧大酒店,细颗粒物(PM2.5),168,160,95,127,53,124,,,,23,33,5,10,1.0,0.9
2024-10-16T0100,3668A,111.5036,36.0414,临汾市,城南,细颗粒物(PM2.5),142,172,109,108,55,115,,,,20,34,6,12,1.1,1
2024-10-16T0100,2667A,103.2069,35.5993,临夏回族自治州,环保局,颗粒物(PM10),63,76,57,29,18,1,,,,50,29,5,6,0.9,0.8
2024-10-16T0100,2668A,103.2417,35.6057,临夏回族自治州,建设大厦,细颗粒物(PM2.5),77,68,53,56,30,8,,,,48,28,3,4,0.8,0.6
2024-10-16T0100,1618A,118.3429,35.0532,临沂市,沂河小区,颗粒物(PM10),62,73,111,26,59,53,,,,19,34,7,11,0.4,0.6
2024-10-16T0100,1619A,118.295,35.0583,临沂市,鲁南制药厂,颗粒物(PM10),64,78,114,28,51,58,,,,19,40,6,14,0.6,0.8
2024-10-16T0100,1620A,118.2794,34.9976,临沂市,新光毛纺厂,颗粒物(PM10),62,73,112,34,58,56,,,,26,46,6,11,0.7,1
2024-10-16T0100,1621A,118.3956,35.0888,临沂市,河东保险公司,颗粒物(PM10),58,66,110,31,73,50,,,,25,45,4,7,0.6,0.8
2024-10-16T0100,3370A,118.3564,35.0215,临沂市,十里堡居委,颗粒物(PM10),63,75,104,39,71,48,,,,32,41,5,8,0.8,1
2024-10-16T0100,3496A,118.3604,35.1084,临沂市,南坊新区,颗粒物(PM10),59,68,104,31,67,50,,,,21,37,8,12,0.7,0.8
2024-10-16T0100,3860A,118.3920,35.0300,临沂市,皇山花园小区,颗粒物(PM10),65,80,117,37,79,43,,,,36,49,8,11,0.8,1
2024-10-16T0100,1870A,109.4856,24.3895,柳州市,柳东小学,,37,37,22,25,18,29,,,,8,8,8,9,0.7,0.8
2024-10-16T0100,1871A,109.4157,24.3277,柳州市,环保监测站,,40,40,28,24,18,25,,,,17,15,12,13,1.0,1.3
2024-10-16T0100,1872A,109.389,24.341,柳州市,河西水厂,,40,32,28,28,19,26,,,,15,12,11,11,1.2,1.1
2024-10-16T0100,1873A,109.4311,24.2921,柳州市,市四中,,32,32,25,17,12,36,,,,13,14,8,13,1.3,1.4
2024-10-16T0100,1874A,109.4006,24.3631,柳州市,市九中,,49,49,33,28,19,20,,,,17,17,13,11,0.8,1
2024-10-16T0100,1875A,109.4958,24.3134,柳州市,古亭山,,30,30,24,17,16,13,,,,20,12,8,10,1.1,1.1
2024-10-16T0100,3402A,109.5422,24.3996,柳州市,市二中,,26,19,24,18,16,26,,,,14,12,8,8,0.9,1
2024-10-16T0100,2307A,116.5079,31.737,六安市,监测大楼,细颗粒物(PM2.5),84,,43,62,47,78,,,,13,14,6,5,0.8,0.7
2024-10-16T0100,2308A,116.4738,31.7643,六安市,皖西学院,细颗粒物(PM2.5),74,55,50,54,42,94,,,,12,13,7,5,0.7,0.6
2024-10-16T0100,2309A,116.4996,31.7905,六安市,朝阳厂,细颗粒物(PM2.5),70,69,45,51,40,81,,,,14,16,3,2,0.9,0.8
2024-10-16T0100,2310A,116.5567,31.7886,六安市,开发区,颗粒物(PM10),59,68,62,32,32,73,,,,17,18,6,6,0.9,0.8
2024-10-16T0100,2576A,104.8,26.5892,六盘水市,窑上,,35,35,29,24,22,12,,,,4,6,5,5,0.4,0.5
2024-10-16T0100,2577A,104.83,26.5917,六盘水市,黄土坡,,33,33,24,21,15,26,,,,25,19,9,8,0.7,0.6
2024-10-16T0100,2578A,104.89,26.5939,六盘水市,水钢,,36,36,29,19,16,52,,,,9,13,5,6,0.4,0.4
2024-10-16T0100,2579A,104.8475,26.5894,六盘水市,民中,,35,34,25,24,16,43,,,,17,19,8,8,0.6,0.6
2024-10-16T0100,2580A,104.9544,26.5506,六盘水市,双水,,29,29,23,15,13,62,,,,6,9,6,7,0.5,0.5
2024-10-16T0100,2335A,117.0189,25.1181,龙岩市,龙岩师专,,,,,,,,,,,,,,,,
2024-10-16T0100,2336A,117.0217,25.1033,龙岩市,龙岩市监测站,,26,,32,18,26,34,,,,21,18,3,3,0.5,0.6
2024-10-16T0100,2337A,117.0258,25.0661,龙岩市,闽西职业技术学院,,25,18,36,17,27,49,,,,12,13,3,6,0.4,0.5
2024-10-16T0100,2338A,117.0196,25.0306,龙岩市,龙岩学院,,25,,33,17,26,23,,,,20,14,5,5,0.5,0.5
2024-10-16T0100,2665A,105.0822,33.3261,陇南市,汉王镇固水子,,,,,,,,,,,,,,,,
2024-10-16T0100,2885A,104.9339,33.3826,陇南市,滨江中学,,41,41,32,19,14,101,,,,4,8,4,5,0.5,0.5
2024-10-16T0100,3247A,104.955,33.371,陇南市,市总工会,,34,33,31,11,4,106,,,,4,7,3,4,0.5,0.5
2024-10-16T0100,2487A,111.9589,27.8901,娄底市,电视发射台,,23,18,17,16,12,54,,,,5,6,5,6,0.6,0.6
2024-10-16T0100,2488A,111.9975,27.725,娄底市,市监测站,,34,34,33,17,28,72,,,,12,15,7,9,0.6,0.7
2024-10-16T0100,2489A,112.0194,27.7314,娄底市,市委党校,,39,,24,27,19,60,,,,13,11,6,6,0.5,0.6
2024-10-16T0100,2490A,111.9561,27.7569,娄底市,涟钢,,15,14,27,9,21,48,,,,10,16,6,8,0.2,0.3
2024-10-16T0100,2491A,111.9892,27.7044,娄底市,市政府,,30,24,28,21,26,61,,,,15,14,4,5,0.5,0.6
2024-10-16T0100,1893A,105.4324,28.9634,泸州市,九狮山,细颗粒物(PM2.5),119,129,66,90,43,8,,,,24,24,5,5,0.1,0.5
2024-10-16T0100,1894A,105.4427,28.9063,泸州市,小市上码头,细颗粒物(PM2.5),77,86,63,56,37,4,,,,63,30,4,5,0.9,0.7
2024-10-16T0100,1895A,105.4241,28.8573,泸州市,兰田宪桥,细颗粒物(PM2.5),129,104,61,98,50,19,,,,40,31,4,5,1.0,0.8
2024-10-16T0100,1896A,105.4379,28.8833,泸州市,市环监站,细颗粒物(PM2.5),104,100,52,78,40,16,,,,64,33,5,5,0.9,0.7
2024-10-16T0100,3490A,105.3617,28.7703,泸州市,纳溪区环保局,细颗粒物(PM2.5),90,110,56,67,44,2,,,,40,30,6,7,0.8,0.7
2024-10-16T0100,2183A,111.1406,37.5211,吕梁市,环保局,细颗粒物(PM2.5),107,145,89,80,44,27,,,,47,34,2,7,0.8,0.6
2024-10-16T0100,2185A,111.1297,37.5136,吕梁市,自来水公司,细颗粒物(PM2.5),103,126,97,77,49,4,,,,76,35,8,6,0.8,0.7
2024-10-16T0100,2867A,111.1283,37.51,吕梁市,马茂庄小学,细颗粒物(PM2.5),115,173,105,87,47,2,,,,82,45,4,8,0.7,0.6
2024-10-16T0100,1812A,112.3931,34.6516,洛阳市,市委党校,细颗粒物(PM2.5),186,182,149,140,109,111,,,,17,29,3,5,0.8,0.9
2024-10-16T0100,1814A,112.4657,34.6871,洛阳市,豫西宾馆,细颗粒物(PM2.5),160,148,149,122,100,108,,,,16,34,5,8,0.9,1.1
2024-10-16T0100,1815A,112.494,34.6886,洛阳市,河南林校,细颗粒物(PM2.5),198,175,140,148,108,93,,,,20,31,6,7,0.8,0.9
2024-10-16T0100,1816A,112.3844,34.623,洛阳市,开发区管委会,细颗粒物(PM2.5),198,207,141,148,103,113,,,,14,26,2,5,0.7,0.8
2024-10-16T0100,1817A,112.4267,34.6258,洛阳市,市委新办公区,细颗粒物(PM2.5),190,214,146,143,105,115,,,,17,23,2,4,0.5,0.6
2024-10-16T0100,3340A,112.6005,34.6326,洛阳市,伊滨,细颗粒物(PM2.5),178,144,116,134,93,88,,,,28,25,4,6,1.0,1
2024-10-16T0100,3341A,112.4951,34.6332,洛阳市,中移产业园,细颗粒物(PM2.5),165,180,129,125,92,111,,,,20,26,3,6,0.9,0.9
2024-10-16T0100,3593A,112.5736,34.8993,洛阳市,吉利监测站,细颗粒物(PM2.5),144,165,193,110,93,73,,,,27,26,1,4,0.7,0.8
2024-10-16T0100,3635A,112.3677,34.662,洛阳市,河科大西苑校区,细颗粒物(PM2.5),159,186,165,121,98,108,,,,22,34,6,11,0.7,0.9
2024-10-16T0100,3636A,112.4388,34.6781,洛阳市,英才小学,颗粒物(PM10),124,197,172,90,88,96,,,,22,41,4,9,0.8,1.1
2024-10-16T0100,2399A,114.051,33.5699,漯河市,三五一五工厂,细颗粒物(PM2.5),192,247,125,144,71,58,,,,46,32,11,9,0.9,0.8
2024-10-16T0100,2400A,114.0055,33.5698,漯河市,漯河大学,细颗粒物(PM2.5),195,200,107,146,75,75,,,,33,25,9,8,0.7,0.6
2024-10-16T0100,2401A,114.0138,33.5828,漯河市,市水利局,细颗粒物(PM2.5),192,234,116,144,73,70,,,,32,21,9,8,0.9,0.7
2024-10-16T0100,2402A,114.0261,33.5698,漯河市,市广电局,细颗粒物(PM2.5),199,217,106,149,70,70,,,,36,23,10,8,1.0,0.8
2024-10-16T0100,3478A,113.9749,33.5664,漯河市,市图书馆,细颗粒物(PM2.5),183,187,104,138,67,70,,,,36,22,7,7,0.9,0.8
2024-10-16T0100,3479A,114.0967,33.5906,漯河市,召陵区卫健委,细颗粒物(PM2.5),267,272,136,217,92,39,,,,50,40,10,11,0.8,0.6
2024-10-16T0100,1798A,118.5092,31.6837,马鞍山市,湖东路四小,细颗粒物(PM2.5),82,82,48,60,37,63,,,,28,24,8,7,1.1,0.9
2024-10-16T0100,1799A,118.5024,31.6449,马鞍山市,开发区,细颗粒物(PM2.5),77,76,50,56,36,50,,,,27,24,8,6,1.0,0.8
2024-10-16T0100,1800A,118.5228,31.7231,马鞍山市,慈湖,细颗粒物(PM2.5),85,109,64,63,38,59,,,,18,21,10,9,1.1,1
2024-10-16T0100,1802A,118.6245,31.7241,马鞍山市,濮塘,细颗粒物(PM2.5),109,90,52,82,49,55,,,,27,23,6,6,0.9,0.8
2024-10-16T0100,3633A,118.4918,31.6809,马鞍山市,雨山,细颗粒物(PM2.5),65,51,42,47,32,62,,,,19,16,5,4,1.0,0.9
2024-10-16T0100,1686A,111.0286,21.4688,茂名市,电白南海,,41,41,39,19,16,63,,,,12,12,16,13,0.5,0.6
2024-10-16T0100,1687A,110.9294,21.6533,茂名市,茂石化七小,,36,36,36,19,18,71,,,,9,10,23,15,0.7,0.6
2024-10-16T0100,1688A,110.9107,21.6687,茂名市,健康路,,39,36,27,27,13,72,,,,9,7,19,14,0.7,0.6
2024-10-16T0100,1689A,110.8592,21.6828,茂名市,高岭,颗粒物(PM10),51,51,41,27,21,58,,,,13,14,22,12,0.6,0.6
2024-10-16T0100,3450A,111.01,21.5165,茂名市,电白水东,,32,29,29,22,17,70,,,,10,9,16,9,0.6,0.6
2024-10-16T0100,2539A,104.0308,30.0478,眉山市,黑龙滩水库,,43,38,36,30,26,62,,,,5,5,5,5,0.6,0.7
2024-10-16T0100,2540A,103.8416,30.0874,眉山市,气象局,细颗粒物(PM2.5),92,,52,68,47,5,,,,51,33,6,6,0.8,0.7
2024-10-16T0100,3137A,103.8578,30.0744,眉山市,市委党校,细颗粒物(PM2.5),77,70,58,56,37,4,,,,56,36,8,8,0.9,0.8
2024-10-16T0100,3148A,103.8291,30.0564,眉山市,区人社局,细颗粒物(PM2.5),83,72,50,61,40,3,,,,68,42,10,10,1.1,0.9
2024-10-16T0100,1690A,116.1231,24.3284,梅州市,梅江月梅,,20,20,38,11,28,41,,,,21,16,8,8,0.5,0.6
2024-10-16T0100,1691A,116.0797,24.2719,梅州市,梅县新城,,20,15,37,11,28,62,,,,13,14,5,5,0.5,0.6
2024-10-16T0100,1692A,116.1248,24.2654,梅州市,环境监控中心,,20,19,39,12,27,61,,,,12,19,6,5,0.5,0.6
2024-10-16T0100,3315A,116.1233,24.2991,梅州市,梅龙,,18,14,34,10,23,57,,,,12,12,9,10,0.6,0.7
2024-10-16T0100,1878A,104.7778,31.4741,绵阳市,富乐山,,38,37,44,26,34,24,,,,22,18,2,3,0.7,0.7
2024-10-16T0100,1879A,104.7563,31.4535,绵阳市,市人大,颗粒物(PM10),54,57,55,36,33,2,,,,50,36,12,12,0.9,0.9
2024-10-16T0100,1880A,104.6697,31.4668,绵阳市,高新区自来水公司,细颗粒物(PM2.5),70,77,59,51,37,2,,,,56,33,5,4,0.9,0.8
2024-10-16T0100,1881A,104.7287,31.5075,绵阳市,三水厂,细颗粒物(PM2.5),62,60,51,44,37,2,,,,43,33,8,7,0.9,0.9
2024-10-16T0100,3491A,104.69,31.5322,绵阳市,西科大附属小学,颗粒物(PM10),69,87,53,36,31,8,,,,45,31,3,3,1.0,0.9
2024-10-16T0100,3492A,104.5648,31.5343,绵阳市,安州区旅游局,细颗粒物(PM2.5),67,59,48,48,34,17,,,,29,22,9,11,0.8,0.7
2024-10-16T0100,1784A,129.61,44.561,牡丹江市,环保大楼,,28,24,21,19,17,42,,,,10,10,7,7,0.3,0.3
2024-10-16T0100,1785A,129.6115,44.5782,牡丹江市,文化广场,,29,24,26,20,20,39,,,,15,11,8,8,0.3,0.3
2024-10-16T0100,1786A,129.5904,44.5963,牡丹江市,第一医院,,28,20,22,19,24,35,,,,11,8,6,7,0.2,0.3
2024-10-16T0100,1787A,129.6364,44.6075,牡丹江市,机车工厂,,32,32,31,21,21,29,,,,15,10,16,9,0.3,0.3
2024-10-16T0100,1788A,129.6386,44.5462,牡丹江市,第一中学,,42,,24,29,16,23,,,,18,9,6,6,0.2,0.2
2024-10-16T0100,2531A,105.0703,29.61,内江市,市监测站,细颗粒物(PM2.5),59,42,39,42,36,7,,,,45,33,7,7,0.5,0.5
2024-10-16T0100,2532A,105.0717,29.5947,内江市,东兴区政府,细颗粒物(PM2.5),59,,38,42,31,11,,,,41,28,7,7,0.9,0.8
2024-10-16T0100,2533A,105.0653,29.5817,内江市,内江二中,细颗粒物(PM2.5),89,,49,66,42,8,,,,41,36,5,6,0.9,0.8
2024-10-16T0100,2534A,105.0406,29.5822,内江市,内江日报社,细颗粒物(PM2.5),83,78,50,61,41,6,,,,62,34,12,12,0.9,0.8
2024-10-16T0100,2628A,92.0657,31.4846,那曲市,那曲监测站,,22,22,35,9,16,63,,,,9,12,5,6,0.8,0.6
2024-10-16T0100,3128A,92.0506,31.4797,那曲市,那曲会议中心,,22,22,45,14,13,68,,,,10,8,3,3,0.3,0.5
2024-10-16T0100,1290A,115.8931,28.6843,南昌市,省外办,细颗粒物(PM2.5),55,41,51,39,42,36,,,,22,19,9,10,1.0,0.8
2024-10-16T0100,1291A,115.8886,28.7003,南昌市,省林业公司,细颗粒物(PM2.5),55,39,42,39,39,30,,,,25,22,8,7,0.5,0.4
2024-10-16T0100,1292A,115.8126,28.7442,南昌市,林科所,,32,,29,22,27,63,,,,14,21,6,7,0.6,0.7
2024-10-16T0100,1294A,115.8518,28.687,南昌市,建工学校,,44,44,45,20,33,40,,,,26,22,8,8,0.7,0.7
2024-10-16T0100,1295A,115.8921,28.6424,南昌市,象湖,,38,,38,26,33,40,,,,25,20,8,8,0.9,0.9
2024-10-16T0100,1296A,115.7423,28.7996,南昌市,武术学校,细颗粒物(PM2.5),52,,28,36,41,14,,,,10,8,2,1,0.8,0.7
2024-10-16T0100,1298A,115.9314,28.6842,南昌市,省站,,46,,48,32,40,35,,,,30,25,8,9,0.9,0.9
2024-10-16T0100,3046A,115.9084,28.6062,南昌市,机电学校,,39,39,47,19,36,44,,,,21,22,6,7,0.6,0.6
2024-10-16T0100,3690A,115.9721,28.7031,南昌市,外国语学校,,36,36,45,18,36,42,,,,14,20,6,8,0.8,0.8
2024-10-16T0100,1905A,106.056,30.8064,南充市,西山风景区,,49,,26,34,23,69,,,,18,13,7,2,0.7,0.7
2024-10-16T0100,1906A,106.0789,30.8023,南充市,南充市委,,46,46,41,31,27,18,,,,34,27,3,3,0.6,0.6
2024-10-16T0100,1907A,106.1031,30.8217,南充市,南充炼油厂,细颗粒物(PM2.5),82,89,56,60,33,13,,,,35,30,3,3,0.7,0.7
2024-10-16T0100,1908A,106.1064,30.7856,南充市,高坪区监测站,细颗粒物(PM2.5),110,118,57,83,39,9,,,,39,27,5,5,0.9,0.7
2024-10-16T0100,1909A,106.0642,30.7636,南充市,嘉陵区环保局,颗粒物(PM10),63,75,48,39,27,12,,,,54,38,3,2,0.8,0.7
2024-10-16T0100,1910A,106.1087,30.8388,南充市,市环境监测站,细颗粒物(PM2.5),68,79,45,49,29,34,,,,24,20,3,3,0.5,0.4
2024-10-16T0100,1151A,118.8086,32.1065,南京市,迈皋桥,细颗粒物(PM2.5),79,80,57,58,44,49,,,,28,24,3,4,0.6,0.6
2024-10-16T0100,1152A,118.7538,32.0551,南京市,草场门,细颗粒物(PM2.5),92,75,51,68,43,62,,,,34,30,5,5,0.5,0.5
2024-10-16T0100,1153A,118.7794,32.0745,南京市,山西路,细颗粒物(PM2.5),107,90,60,80,49,63,,,,19,17,4,4,0.6,0.7
2024-10-16T0100,1154A,118.7752,32.0023,南京市,中华门,细颗粒物(PM2.5),94,85,58,70,46,34,,,,42,28,6,6,0.8,0.7
2024-10-16T0100,1155A,118.8109,32.0309,南京市,瑞金路,细颗粒物(PM2.5),85,73,60,63,46,43,,,,33,34,8,6,0.7,0.5
2024-10-16T0100,1156A,118.7997,32.0754,南京市,玄武湖,细颗粒物(PM2.5),94,76,51,70,45,44,,,,47,34,5,5,0.8,0.8
2024-10-16T0100,1157A,118.6414,32.0931,南京市,浦口,细颗粒物(PM2.5),72,52,47,52,42,36,,,,27,23,5,5,0.7,0.8
2024-10-16T0100,1158A,118.7356,31.9996,南京市,奥体中心,细颗粒物(PM2.5),104,94,59,78,51,57,,,,30,24,6,6,0.6,0.6
2024-10-16T0100,1159A,118.9125,32.1028,南京市,仙林大学城,细颗粒物(PM2.5),70,75,56,51,43,27,,,,37,23,5,5,0.7,0.7
2024-10-16T0100,3422A,118.8436,31.9198,南京市,江宁彩虹桥,细颗粒物(PM2.5),79,58,44,58,38,33,,,,45,26,5,4,0.8,0.6
2024-10-16T0100,3423A,119.0138,31.6494,南京市,溧水永阳,颗粒物(PM10),62,73,49,40,29,26,,,,35,22,4,4,0.9,0.7
2024-10-16T0100,3424A,118.879,31.3302,南京市,高淳老职中,细颗粒物(PM2.5),54,50,41,38,33,63,,,,24,20,6,3,1.0,0.8
2024-10-16T0100,3427A,118.8554,32.3578,南京市,六合雄州,细颗粒物(PM2.5),82,83,67,60,50,37,,,,24,30,5,4,0.7,0.8
2024-10-16T0100,1401A,108.3103,22.7881,南宁市,二十一中,,28,28,19,11,11,49,,,,13,16,4,5,0.7,0.7
2024-10-16T0100,1402A,108.3141,22.8528,南宁市,北湖,,19,19,19,13,13,44,,,,11,14,8,12,1.2,1
2024-10-16T0100,1403A,108.3206,22.8225,南宁市,市监测站,,18,,18,12,12,44,,,,13,16,7,10,0.8,0.7
2024-10-16T0100,1404A,108.3829,22.8037,南宁市,大自然花园,,31,31,16,10,11,42,,,,15,14,6,6,0.7,0.6
2024-10-16T0100,1405A,108.4394,22.7904,南宁市,仙葫,,23,23,16,11,13,47,,,,11,13,5,5,0.8,0.7
2024-10-16T0100,1406A,108.2397,22.8467,南宁市,区农职院,,33,33,22,8,8,5,,,,28,14,8,8,0.8,0.8
2024-10-16T0100,1407A,108.3275,22.735,南宁市,英华嘉园,,15,12,21,8,11,46,,,,14,17,5,6,0.6,0.7
2024-10-16T0100,1408A,108.2257,22.7757,南宁市,沙井镇街道办,,43,43,29,18,17,4,,,,46,24,5,7,0.9,0.9
2024-10-16T0100,3401A,108.4834,22.7618,南宁市,红星社区,,19,18,15,13,9,44,,,,14,10,4,6,0.8,0.7
2024-10-16T0100,2331A,118.0966,26.6761,南平市,茫荡山,,,,,,,,,,,,,,,,
2024-10-16T0100,2332A,118.1681,26.6369,南平市,南平市监测站,,26,25,26,18,20,20,,,,17,11,3,3,0.4,0.4
2024-10-16T0100,2333A,118.1825,26.6489,南平市,南平铝业有限公司,,28,25,28,19,21,9,,,,27,15,2,3,0.5,0.5
2024-10-16T0100,2334A,118.1756,26.6272,南平市,南平七中,,26,22,27,18,19,18,,,,14,9,3,2,0.6,0.5
2024-10-16T0100,1168A,120.9098,31.9663,南通市,狼山街道,细颗粒物(PM2.5),63,60,45,45,38,56,,,,14,16,5,5,0.7,0.7
2024-10-16T0100,1169A,120.86,32.0005,南通市,虹桥,细颗粒物(PM2.5),68,57,47,49,40,91,,,,13,19,6,6,0.6,0.6
2024-10-16T0100,1170A,120.87,32.02,南通市,城中,细颗粒物(PM2.5),72,73,54,52,39,88,,,,22,26,6,6,0.8,0.7
2024-10-16T0100,1171A,120.94,31.93,南通市,星湖花园,细颗粒物(PM2.5),63,52,37,45,31,69,,,,20,21,6,5,0.9,0.8
2024-10-16T0100,1172A,120.81,32.0417,南通市,紫琅学院,细颗粒物(PM2.5),80,72,46,59,39,55,,,,24,24,8,7,0.9,0.8
2024-10-16T0100,3291A,121.067,32.062,南通市,通州监测站,,,56,43,46,35,,,,,9,10,2,2,0.8,0.8
2024-10-16T0100,3432A,120.9348,31.9883,南通市,环境教育馆,细颗粒物(PM2.5),67,58,49,48,36,76,,,,21,24,3,3,0.8,0.7
2024-10-16T0100,2404A,112.5224,33.0122,南阳市,瓦房庄,细颗粒物(PM2.5),188,141,81,141,69,95,,,,30,25,8,5,1.1,0.8
2024-10-16T0100,2405A,112.5003,32.9735,南阳市,汉画馆,细颗粒物(PM2.5),175,146,86,132,71,74,,,,31,29,9,6,1.0,0.7
2024-10-16T0100,2406A,112.5573,33.027,南阳市,气象站,细颗粒物(PM2.5),178,134,80,134,65,70,,,,43,30,8,5,1.0,0.7
2024-10-16T0100,2407A,112.5481,32.9689,南阳市,理工学院,细颗粒物(PM2.5),218,180,86,168,67,73,,,,40,32,9,5,1.2,0.7
2024-10-16T0100,4008A,112.5234,32.9922,南阳市,卧龙区政府,细颗粒物(PM2.5),192,154,84,144,66,83,,,,34,31,9,5,1.2,0.8
2024-10-16T0100,1234A,121.8358,29.911,宁波市,区环保大楼,,37,37,38,22,22,93,,,,20,28,7,7,0.9,0.9
2024-10-16T0100,1235A,121.56,29.82,宁波市,万里学院,,49,45,44,34,30,72,,,,23,26,6,6,0.8,0.8
2024-10-16T0100,1236A,121.713,29.9572,宁波市,龙赛医院,,30,27,36,18,18,93,,,,18,29,8,9,0.7,0.7
2024-10-16T0100,1239A,121.633,29.7733,宁波市,钱湖水厂,,48,43,36,33,28,68,,,,22,17,9,9,0.8,0.7
2024-10-16T0100,1240A,121.5856,29.8635,宁波市,太古小学,,43,43,43,28,26,74,,,,22,31,8,8,1.0,0.9
2024-10-16T0100,1241A,121.524,29.8674,宁波市,市环境监测中心,,44,44,40,22,20,57,,,,28,22,6,8,0.7,0.7
2024-10-16T0100,2871A,121.6147,29.9017,宁波市,万里国际学校,,48,48,65,22,20,79,,,,26,32,8,8,0.8,0.8
2024-10-16T0100,3710A,121.5594,29.8975,宁波市,白沙活动中心,颗粒物(PM10),52,53,55,22,18,54,,,,22,23,8,9,0.7,0.6
2024-10-16T0100,2339A,119.5001,26.6946,宁德市,金涵水库,,,,,,,,,,,,,,,,
2024-10-16T0100,2341A,119.5388,26.6612,宁德市,宁德市监测站,,22,22,25,15,15,62,,,,8,11,2,2,0.4,0.5
2024-10-16T0100,3209A,119.5231,26.6562,宁德市,宁德一中,,25,25,25,16,16,57,,,,4,8,1,1,0.2,0.3
2024-10-16T0100,2618A,98.8601,25.8567,怒江傈僳族自治州,州监测站,,40,35,32,28,20,15,,,,10,16,6,6,0.3,0.3
2024-10-16T0100,2619A,98.8546,25.8417,怒江傈僳族自治州,泸水一中,,42,37,30,29,20,6,,,,16,18,6,7,0.5,0.5
2024-10-16T0100,1888A,101.6891,26.571,攀枝花市,弄弄坪,,25,23,36,17,17,38,,,,18,23,12,12,0.8,0.7
2024-10-16T0100,1889A,101.5769,26.5928,攀枝花市,河门口,,46,46,31,24,18,50,,,,11,18,6,11,0.8,1
2024-10-16T0100,1890A,101.7169,26.585,攀枝花市,炳草岗,,42,,29,29,16,34,,,,22,21,10,11,1.0,0.6
2024-10-16T0100,1891A,101.7369,26.5008,攀枝花市,仁和,,32,32,29,21,19,37,,,,14,16,6,7,0.7,0.5
2024-10-16T0100,2835A,101.7227,26.567,攀枝花市,四十中小,,28,28,30,12,13,34,,,,6,9,12,11,1.4,0.7
2024-10-16T0100,1604A,122.0303,41.1489,盘锦市,开发区,,26,26,22,13,6,40,,,,20,11,17,6,0.4,0.3
2024-10-16T0100,1605A,122.0485,41.0883,盘锦市,兴隆台,,16,14,21,9,6,51,,,,20,17,8,7,0.2,0.2
2024-10-16T0100,1606A,121.8297,41.1028,盘锦市,新生街道,,24,16,18,13,7,7,,,,47,17,9,9,0.3,0.2
2024-10-16T0100,1832A,113.3257,33.742,平顶山市,新华旅馆,细颗粒物(PM2.5),247,271,149,197,83,94,,,,25,42,6,8,0.7,0.6
2024-10-16T0100,1833A,113.2919,33.737,平顶山市,规划设计院,细颗粒物(PM2.5),233,316,144,183,92,105,,,,27,38,8,8,1.0,0.9
2024-10-16T0100,1834A,113.182,33.774,平顶山市,平顶山工学院,细颗粒物(PM2.5),238,288,133,188,91,103,,,,20,22,7,8,0.9,0.8
2024-10-16T0100,3204A,113.3025,33.73,平顶山市,规划局,细颗粒物(PM2.5),193,271,145,145,85,96,,,,29,37,6,6,1.2,1.1
2024-10-16T0100,3594A,112.8867,33.9116,平顶山市,石龙区,细颗粒物(PM2.5),241,255,143,191,80,92,,,,34,53,10,15,1.1,1
2024-10-16T0100,2656A,106.6692,35.5461,平凉市,聚贤嘉苑,细颗粒物(PM2.5),73,85,48,53,28,125,,,,26,25,9,8,0.6,0.2
2024-10-16T0100,2657A,106.7021,35.5307,平凉市,博物馆,颗粒物(PM10),72,93,67,49,28,112,,,,48,35,12,11,0.5,0.5
2024-10-16T0100,2347A,114.0997,27.5002,萍乡市,武功山,,25,17,38,17,40,14,,,,11,13,6,10,1.4,1.5
2024-10-16T0100,2348A,113.8385,27.6434,萍乡市,中医院,细颗粒物(PM2.5),77,60,68,56,54,39,,,,11,28,17,14,1.0,1.4
2024-10-16T0100,2349A,113.8493,27.6253,萍乡市,市政府车库,细颗粒物(PM2.5),68,49,67,49,42,37,,,,9,26,25,17,0.8,1.2
2024-10-16T0100,2350A,113.8676,27.6435,萍乡市,市环保局,细颗粒物(PM2.5),64,49,52,46,42,42,,,,7,23,25,15,0.6,1.1
2024-10-16T0100,2351A,113.866,27.6198,萍乡市,安源区政府,细颗粒物(PM2.5),63,51,50,45,46,43,,,,15,32,14,15,1.0,1.1
2024-10-16T0100,2319A,119.0141,25.4325,莆田市,荔城区仓后路,,24,12,24,3,9,76,,,,2,4,1,1,0.4,0.5
2024-10-16T0100,2320A,119.0015,25.4553,莆田市,莆田市监测站,,24,6,21,3,7,76,,,,2,3,1,1,0.6,0.5
2024-10-16T0100,2321A,119.1119,25.4561,莆田市,涵江区六中,,24,7,25,3,9,76,,,,2,3,1,1,0.3,0.4
2024-10-16T0100,2322A,119.1013,25.3215,莆田市,秀屿区政府,,22,19,35,6,12,70,,,,7,5,2,2,0.3,0.5
2024-10-16T0100,2323A,118.981,25.4792,莆田市,东圳水库,,,,,,,,,,,,,,,,
2024-10-16T0100,2392A,115.0312,35.7636,濮阳市,环保局,细颗粒物(PM2.5),57,60,159,40,140,28,,,,22,32,2,3,0.5,0.8
2024-10-16T0100,2394A,115.0574,35.7609,濮阳市,油田运输公司,颗粒物(PM10),71,92,202,42,142,28,,,,18,31,4,5,0.5,0.9
2024-10-16T0100,2395A,115.0866,35.7754,濮阳市,油田物探公司,颗粒物(PM10),74,97,217,44,155,28,,,,26,40,2,3,0.5,0.8
2024-10-16T0100,3021A,115,35.7668,濮阳市,濮水河管理处,颗粒物(PM10),78,106,223,41,143,25,,,,21,30,2,3,0.5,0.9
2024-10-16T0100,2601A,100.98,22.7633,普洱市,市环保局,,23,23,28,11,15,20,,,,7,7,5,4,0.5,0.5
2024-10-16T0100,2602A,100.9817,22.8322,普洱市,普洱第二中学,,29,29,30,14,13,13,,,,13,8,5,5,0.5,0.5
2024-10-16T0100,2262A,131.0518,45.8751,七台河市,新一中,,19,,12,10,5,58,,,,5,6,7,9,1.0,1.1
2024-10-16T0100,3345A,131.0577,45.7879,七台河市,中波台,,26,26,18,9,5,28,,,,30,13,8,7,1.1,0.8
2024-10-16T0100,3637A,131.0176,45.7761,七台河市,人民广场,,15,11,20,10,12,45,,,,14,12,8,8,0.8,0.8
2024-10-16T0100,3684A,130.8781,45.8222,七台河市,新建矿广场,,30,,29,21,25,37,,,,14,15,7,8,0.4,0.4
2024-10-16T0100,1779A,123.9305,47.3636,齐齐哈尔市,安居小区,,21,21,19,10,5,42,,,,8,11,9,8,0.4,0.4
2024-10-16T0100,1780A,123.9488,47.3386,齐齐哈尔市,中心广场,,26,19,13,18,20,41,,,,8,11,3,2,0.2,0.2
2024-10-16T0100,1781A,123.9483,47.3227,齐齐哈尔市,农牧车辆厂,,19,19,22,9,7,38,,,,9,10,4,4,0.3,0.2
2024-10-16T0100,1783A,123.945,47.2988,齐齐哈尔市,市环境监测站,,25,25,21,12,8,40,,,,10,11,8,8,0.2,0.2
2024-10-16T0100,3662A,123.6333,47.2075,齐齐哈尔市,富区青少年活动中心,颗粒物(PM10),55,60,38,20,14,23,,,,26,13,28,9,1.4,0.6
2024-10-16T0100,2591A,107.9783,26.5747,黔东南苗族侗族自治州,市环境监测站,,35,30,24,24,20,43,,,,11,17,4,5,0.6,0.6
2024-10-16T0100,2881A,107.8908,26.5311,黔东南苗族侗族自治州,凯里学院,,20,17,13,14,14,52,,,,8,11,5,4,0.6,0.6
2024-10-16T0100,2593A,107.5228,26.2403,黔南布依族苗族自治州,小围寨,,25,17,16,17,11,12,,,,13,11,4,5,0.6,0.7
2024-10-16T0100,3538A,107.5175,26.2978,黔南布依族苗族自治州,沙坝,,28,28,22,14,11,14,,,,12,12,4,4,0.6,0.5
2024-10-16T0100,2589A,104.9022,25.0925,黔西南布依族苗族自治州,场坝街,,19,16,20,7,11,60,,,,4,8,2,11,0.5,0.5
2024-10-16T0100,2590A,104.8811,25.0992,黔西南布依族苗族自治州,坪东大道,,32,27,22,22,18,57,,,,2,6,1,3,0.4,0.5
2024-10-16T0100,2502A,108.6236,21.9667,钦州市,市环保站,,29,29,24,14,9,42,,,,20,13,10,8,1.7,1
2024-10-16T0100,2503A,108.6549,21.9481,钦州市,沙埠小学,,18,18,28,10,14,51,,,,15,14,5,5,0.8,0.9
2024-10-16T0100,2504A,108.5989,21.7431,钦州市,港区一小,,27,27,39,15,18,50,,,,17,17,6,7,0.9,0.8
2024-10-16T0100,3404A,108.5959,21.9633,钦州市,北职校,,18,17,24,12,14,54,,,,11,10,6,6,0.8,0.9
2024-10-16T0100,1042A,119.5134,39.8207,秦皇岛市,北戴河环保局,,20,20,50,8,28,54,,,,20,17,1,2,0.3,0.4
2024-10-16T0100,1043A,119.7493,40.0116,秦皇岛市,第一关,,33,33,49,18,33,47,,,,27,27,3,3,0.2,0.2
2024-10-16T0100,1044A,119.5897,39.9499,秦皇岛市,监测站,,29,22,49,20,33,42,,,,25,28,3,3,0.2,0.4
2024-10-16T0100,1046A,119.5251,39.9041,秦皇岛市,建设大厦,,33,33,51,16,28,20,,,,52,25,3,2,0.2,0.4
2024-10-16T0100,3132A,119.610547,39.943889,秦皇岛市,文明里,,35,35,62,15,28,48,,,,24,26,3,3,0.2,0.2
2024-10-16T0100,1307A,120.6659,36.2403,青岛市,仰口,,45,45,63,27,42,42,,,,11,10,6,7,0.6,0.7
2024-10-16T0100,1310A,120.4134,36.0658,青岛市,市南区东部子站,颗粒物(PM10),58,66,71,24,32,38,,,,23,30,5,8,0.6,0.6
2024-10-16T0100,1311A,120.3664,36.1032,青岛市,四方区子站,颗粒物(PM10),52,53,61,22,31,41,,,,28,51,8,10,0.6,0.7
2024-10-16T0100,1312A,120.2994,36.054,青岛市,市南区西部子站,颗粒物(PM10),57,63,61,15,28,40,,,,24,41,9,10,0.6,0.7
2024-10-16T0100,1313A,120.4581,36.0858,青岛市,崂山区子站,颗粒物(PM10),57,63,61,27,30,39,,,,34,32,8,9,0.7,0.7
2024-10-16T0100,1314A,120.1983,35.9608,青岛市,黄岛区子站,颗粒物(PM10),56,61,79,20,41,34,,,,36,46,9,12,0.7,0.8
2024-10-16T0100,1315A,120.3999,36.3083,青岛市,城阳区子站,,44,44,57,12,28,53,,,,20,29,8,9,0.6,0.7
2024-10-16T0100,1966A,120.0405,35.8735,青岛市,黄岛区4号,颗粒物(PM10),58,66,65,17,36,20,,,,50,35,6,8,0.6,0.7
2024-10-16T0100,3362A,120.5014,36.4034,青岛市,即墨2号,,39,39,60,9,25,48,,,,15,32,6,8,0.5,0.6
2024-10-16T0100,3642A,120.3503,36.0736,青岛市,市北区南部,颗粒物(PM10),55,60,61,27,37,29,,,,40,57,10,10,0.7,0.9
2024-10-16T0100,3643A,120.3948,36.1805,青岛市,李沧区北部,颗粒物(PM10),52,53,74,27,38,39,,,,26,43,9,10,0.7,0.8
2024-10-16T0100,1702A,113.0426,23.691,清远市,环保大楼,,45,36,44,31,34,76,,,,4,11,6,6,0.6,0.7
2024-10-16T0100,1703A,113.0208,23.7106,清远市,凤城街办,,38,38,48,22,31,68,,,,14,17,11,11,0.6,0.6
2024-10-16T0100,3025A,113.0477,23.6344,清远市,技师学院,,48,48,54,26,28,52,,,,19,22,8,10,0.7,0.7
2024-10-16T0100,3318A,112.9903,23.7403,清远市,清新太和,,44,44,50,26,29,76,,,,11,18,1,5,0.7,0.7
2024-10-16T0100,3455A,113.076,23.7198,清远市,清城东城,,38,32,47,26,29,67,,,,8,11,7,7,0.7,0.7
2024-10-16T0100,2661A,107.6325,35.7357,庆阳市,庆阳五中,细颗粒物(PM2.5),70,82,62,51,34,132,,,,12,15,8,7,0.6,0.5
2024-10-16T0100,2662A,107.6364,35.7067,庆阳市,市环保局,颗粒物(PM10),66,81,58,46,30,132,,,,14,15,7,7,0.7,0.6
2024-10-16T0100,1916A,103.7897,25.5035,曲靖市,环境监测站,,31,31,26,15,15,60,,,,16,14,5,7,0.8,0.7
2024-10-16T0100,1917A,103.8,25.5364,曲靖市,烟厂办公区,,29,29,26,14,14,62,,,,10,12,3,4,0.7,0.7
2024-10-16T0100,3376A,103.7947,25.462,曲靖市,南苑二区,,30,24,26,21,15,72,,,,6,10,8,11,0.7,0.6
2024-10-16T0100,3377A,103.7444,25.5261,曲靖市,曲靖师范学院,,23,23,25,15,19,73,,,,10,17,5,10,0.7,0.8
2024-10-16T0100,1264A,118.8692,28.9398,衢州市,环保大楼,,19,8,54,3,37,60,,,,14,20,6,6,0.6,0.6
2024-10-16T0100,1265A,118.8709,28.9666,衢州市,实验学校,,20,6,52,6,39,62,,,,10,21,7,4,0.4,0.5
2024-10-16T0100,1266A,118.8621,28.9808,衢州市,衢州学院,,19,9,55,6,37,58,,,,16,26,6,6,0.4,0.4
2024-10-16T0100,1611A,118.5819,24.9117,泉州市,涂山街,,19,13,32,12,16,58,,,,11,13,3,2,0.4,0.5
2024-10-16T0100,1612A,118.5972,24.8978,泉州市,津头埔,,20,20,38,13,18,55,,,,12,10,3,2,0.3,0.5
2024-10-16T0100,1613A,118.6663,24.9424,泉州市,万安,,24,24,30,15,17,44,,,,21,9,2,2,0.4,0.5
2024-10-16T0100,1614A,118.6117,24.9604,泉州市,清源山,,,,,,,,,,,,,,,,
2024-10-16T0100,3529A,118.6333,24.9264,泉州市,城华南路,,25,25,26,12,13,47,,,,10,11,1,1,0.3,0.3
2024-10-16T0100,2626A,88.8876,29.2718,日喀则市,日喀则监测站,,23,23,12,12,6,52,,,,27,8,4,5,0.4,0.3
2024-10-16T0100,3726A,88.8781,29.2426,日喀则市,林业技术推广中心,,25,16,12,3,2,79,,,,6,5,6,6,0.3,0.4
2024-10-16T0100,1659A,119.471,35.4209,日照市,监测站,颗粒物(PM10),52,53,65,35,38,40,,,,26,36,11,12,0.7,0.8
2024-10-16T0100,1660A,119.523,35.4216,日照市,市政府广场,颗粒物(PM10),58,66,72,24,41,38,,,,29,37,6,8,0.5,0.7
2024-10-16T0100,1661A,119.5587,35.4044,日照市,港务局,颗粒物(PM10),60,70,69,40,56,40,,,,26,31,6,7,0.7,0.8
2024-10-16T0100,3507A,119.5328,35.4625,日照市,职业技术学院,颗粒物(PM10),54,58,76,24,40,38,,,,31,34,9,11,0.7,0.8
2024-10-16T0100,3604A,119.3266,35.1044,日照市,岚山环保分局,颗粒物(PM10),84,117,103,58,68,8,,,,77,41,44,20,7.5,1.8
2024-10-16T0100,1835A,111.1922,34.7752,三门峡市,市政府,细颗粒物(PM2.5),135,180,103,103,62,128,,,,20,32,5,7,1.0,0.8
2024-10-16T0100,1836A,111.1587,34.7942,三门峡市,开发区,细颗粒物(PM2.5),224,231,122,174,85,133,,,,15,14,4,7,0.9,0.7
2024-10-16T0100,1838A,111.143,34.7955,三门峡市,风景区,细颗粒物(PM2.5),127,198,109,96,61,148,,,,18,17,11,15,1.3,1.1
2024-10-16T0100,3039A,111.1911,34.7829,三门峡市,三门峡市第一小学,细颗粒物(PM2.5),139,174,105,106,66,127,,,,16,15,4,7,0.9,0.7
2024-10-16T0100,3598A,111.1,34.7167,三门峡市,富达温泉假日酒店,细颗粒物(PM2.5),214,211,111,164,67,124,,,,19,20,6,7,0.8,0.5
2024-10-16T0100,2324A,117.6211,26.2625,三明市,三钢,,45,31,30,31,24,25,,,,17,10,9,4,0.8,0.4
2024-10-16T0100,2325A,117.635,26.2714,三明市,三明二中,,34,34,27,19,20,26,,,,14,11,6,3,0.5,0.4
2024-10-16T0100,2326A,117.6028,26.2378,三明市,三元区政府,细颗粒物(PM2.5),58,,38,41,25,25,,,,22,16,7,5,0.5,0.6
2024-10-16T0100,2327A,117.7275,26.3108,三明市,洋溪,,,,,,,,,,,,,,,,
2024-10-16T0100,1876A,109.5078,18.2489,三亚市,河东子站,,19,13,12,3,5,58,,,,2,4,4,4,0.3,0.2
2024-10-16T0100,1877A,109.4964,18.2681,三亚市,河西子站,,15,,10,3,5,47,,,,5,6,4,4,0.3,0.3
2024-10-16T0100,3540A,109.7348,18.3443,三亚市,君悦子站,,13,13,13,3,4,36,,,,11,8,3,3,0.3,0.4
2024-10-16T0100,2624A,91.7608,29.2313,山南市,山南监测站,,28,11,18,7,9,87,,,,8,7,9,9,0.3,0.3
2024-10-16T0100,2625A,91.7706,29.2436,山南市,山南人民医院,,27,10,26,7,11,85,,,,11,9,10,9,0.3,0.3
2024-10-16T0100,1674A,116.6794,23.3667,汕头市,金平子站,,26,10,24,8,13,81,,,,7,12,5,6,0.5,0.6
2024-10-16T0100,1675A,116.7244,23.3633,汕头市,龙湖子站,,24,20,24,10,13,76,,,,2,5,7,8,0.6,0.6
2024-10-16T0100,1676A,116.7258,23.2775,汕头市,濠江子站,,23,18,28,14,17,73,,,,4,7,6,7,0.5,0.8
2024-10-16T0100,1677A,116.7519,23.4714,汕头市,澄海子站,,25,,26,17,16,71,,,,8,9,9,9,0.6,0.6
2024-10-16T0100,1678A,116.6092,23.2539,汕头市,潮阳子站,,24,16,24,8,13,76,,,,1,4,5,6,0.5,0.5
2024-10-16T0100,3444A,116.454,23.2684,汕头市,潮南峡山,,23,21,29,7,15,72,,,,8,10,6,7,0.6,0.7
2024-10-16T0100,3624A,116.4069,23.2533,汕头市,潮南子站,,22,21,33,11,15,69,,,,10,13,8,7,0.6,0.7
2024-10-16T0100,1693A,115.3653,22.775,汕尾市,市环保局,细颗粒物(PM2.5),58,,32,41,24,86,,,,11,13,9,9,0.6,0.6
2024-10-16T0100,1694A,115.3706,22.7898,汕尾市,市政府,,36,32,29,25,21,78,,,,10,13,7,7,0.6,0.7
2024-10-16T0100,1695A,115.3622,22.7925,汕尾市,新城中学,,25,23,31,13,18,79,,,,8,13,10,11,0.5,0.5
2024-10-16T0100,2645A,109.9154,33.8715,商洛市,监测站,,45,43,32,31,19,49,,,,37,20,6,6,0.6,0.5
2024-10-16T0100,3045A,109.9643,33.8471,商洛市,商州区中学,颗粒物(PM10),58,65,37,25,17,54,,,,32,26,4,4,0.6,0.6
2024-10-16T0100,2408A,115.6702,34.4285,商丘市,环境监测站,细颗粒物(PM2.5),169,166,149,128,109,95,,,,29,30,6,6,0.7,0.7
2024-10-16T0100,2409A,115.6458,34.4045,商丘市,粮食局,细颗粒物(PM2.5),149,135,120,114,98,115,,,,26,26,5,5,0.9,0.8
2024-10-16T0100,2410A,115.6293,34.3948,商丘市,睢阳区环保局,细颗粒物(PM2.5),159,140,139,121,104,105,,,,22,30,4,4,0.6,0.7
2024-10-16T0100,3171A,115.6071,34.4465,商丘市,梁园区档案局,细颗粒物(PM2.5),149,117,120,114,98,125,,,,23,30,6,6,0.9,0.8
2024-10-16T0100,1141A,121.4,31.238,上海市,普陀,细颗粒物(PM2.5),74,55,45,54,32,49,,,,36,33,5,5,0.8,0.9
2024-10-16T0100,1142A,121.478,31.2036,上海市,十五厂,细颗粒物(PM2.5),78,,48,57,41,47,,,,46,41,11,11,0.7,0.8
2024-10-16T0100,1143A,121.467,31.3008,上海市,虹口,细颗粒物(PM2.5),75,,45,55,38,44,,,,45,37,6,7,0.8,0.8
2024-10-16T0100,1144A,121.412,31.1654,上海市,徐汇上师大,细颗粒物(PM2.5),87,,48,64,44,52,,,,36,37,8,8,0.8,0.9
2024-10-16T0100,1145A,121.536,31.2659,上海市,杨浦四漂,细颗粒物(PM2.5),73,,45,53,37,43,,,,47,38,10,10,1.0,1
2024-10-16T0100,1147A,121.425,31.2261,上海市,静安监测站,细颗粒物(PM2.5),88,,49,65,41,51,,,,40,35,6,7,0.6,0.7
2024-10-16T0100,1148A,121.703,31.1907,上海市,浦东川沙,细颗粒物(PM2.5),57,43,45,40,30,49,,,,30,25,7,6,0.8,0.8
2024-10-16T0100,1149A,121.533,31.2284,上海市,浦东新区监测站,细颗粒物(PM2.5),84,,46,62,40,40,,,,54,42,9,8,0.7,0.8
2024-10-16T0100,1150A,121.577,31.2071,上海市,浦东张江,细颗粒物(PM2.5),85,,46,63,39,47,,,,41,43,5,5,0.8,0.9
2024-10-16T0100,3265A,121.4316,31.3322,上海市,宝山庙行,细颗粒物(PM2.5),74,,48,54,36,46,,,,43,39,9,9,0.7,0.8
2024-10-16T0100,3266A,121.8791,31.4662,上海市,崇明上实东滩,,26,17,34,13,27,81,,,,5,7,6,8,0.5,0.7
2024-10-16T0100,3268A,121.3162,31.2838,上海市,嘉定南翔,细颗粒物(PM2.5),80,61,54,59,42,18,,,,61,47,8,8,0.7,0.8
2024-10-16T0100,3269A,121.3359,30.7456,上海市,金山新城,细颗粒物(PM2.5),90,,42,67,39,35,,,,35,33,5,5,0.6,0.6
2024-10-16T0100,3270A,121.4996,31.0739,上海市,闵行浦江,细颗粒物(PM2.5),83,,50,61,40,52,,,,34,41,6,7,0.8,0.8
2024-10-16T0100,3271A,121.2886,31.1663,上海市,青浦徐泾,细颗粒物(PM2.5),103,,56,77,53,13,,,,68,47,6,7,0.8,0.9
2024-10-16T0100,3272A,121.2186,31.0378,上海市,松江图书馆,细颗粒物(PM2.5),89,68,60,66,45,8,,,,64,45,5,5,0.9,0.9
2024-10-16T0100,3273A,121.3902,31.2059,上海市,长宁仙霞,细颗粒物(PM2.5),85,,48,63,40,42,,,,37,35,6,7,0.9,1.1
2024-10-16T0100,3274A,121.7965,31.0507,上海市,浦东惠南,细颗粒物(PM2.5),53,,40,37,27,39,,,,48,26,9,9,0.9,0.9
2024-10-16T0100,3544A,121.4891,30.925,上海市,奉贤南桥新城,细颗粒物(PM2.5),87,,48,64,41,25,,,,56,36,9,9,0.7,0.7
2024-10-16T0100,2381A,118.005,28.4572,上饶市,百草园,,25,25,67,16,47,64,,,,10,18,6,24,0.1,0.2
2024-10-16T0100,2382A,117.9756,28.4436,上饶市,市监测站,,20,18,70,10,49,64,,,,15,23,4,29,0.8,1
2024-10-16T0100,2383A,117.9519,28.4628,上饶市,凤凰光学,,20,16,69,10,50,62,,,,9,23,10,24,0.9,1.1
2024-10-16T0100,3413A,118.1953,28.4401,上饶市,广丰区教体局,,,25,26,24,20,58,,,,10,12,,15,0.5,1.5
2024-10-16T0100,3685A,117.897,28.4315,上饶市,双创科技城,,21,18,80,13,53,65,,,,12,25,8,35,0.5,0.8
2024-10-16T0100,1669A,113.5824,24.7733,韶关市,市八中,,22,14,54,8,41,70,,,,1,5,10,14,0.5,0.7
