timepoint,stationcode,longitude,latitude,area,positionname,primarypollutant,aqi,pm10,pm10_24h,pm2_5,pm2_5_24h,o3,o3_24h,o3_8h,o3_8h_24h,no2,no2_24h,so2,so2_24h,co,co_24h
2023-05-17T21:00:00,1001A,116.3621,39.8784,北京市,万寿西宫,,,,,,,,,,,,,,,,
2023-05-17T21:00:00,1002A,116.2202,40.2915,北京市,定陵,颗粒物(PM10),53,56,68,22,32,154,81,142,124,16,13,3,2,0.5,0.5
2023-05-17T21:00:00,1003A,116.4174,39.9289,北京市,东四,,48,48,66,20,32,156,82,146,115,18,16,5,4,0.6,0.6
2023-05-17T21:00:00,1004A,116.4072,39.8863,北京市,天坛,,44,44,59,20,30,146,81,136,109,19,19,2,2,0.6,0.5
2023-05-17T21:00:00,1005A,116.462,39.9365,北京市,农展馆,颗粒物(PM10),51,52,62,20,29,142,75,133,105,20,18,3,2,0.6,0.5
2023-05-17T21:00:00,1006A,116.3392,39.9295,北京市,官园,,46,46,63,21,31,139,76,132,106,20,18,6,4,0.5,0.5
2023-05-17T21:00:00,1007A,116.2878,39.9611,北京市,海淀万柳,,50,50,66,18,31,120,69,113,94,22,19,1,3,0.6,0.5
2023-05-17T21:00:00,1008A,116.6636,40.135,北京市,顺义新城,颗粒物(PM10),52,54,59,20,26,135,75,126,106,19,9,2,2,0.4,0.4
2023-05-17T21:00:00,1009A,116.6275,40.3275,北京市,怀柔镇,,50,50,69,21,30,134,77,112,98,24,15,2,3,0.4,0.3
2023-05-17T21:00:00,1010A,116.2296,40.217,北京市,昌平镇,颗粒物(PM10),53,55,64,21,28,146,71,125,105,10,7,1,2,0.4,0.4
2023-05-17T21:00:00,1011A,116.3966,39.9821,北京市,奥体中心,,,,,,,,,,,,,,,,
2023-05-17T21:00:00,1012A,116.184,39.9136,北京市,古城,,48,48,77,21,33,155,75,138,111,28,22,2,2,0.6,0.6
2023-05-17T21:00:00,1015A,117.1444,39.1661,天津市,勤俭道,,41,41,87,18,38,125,67,108,78,24,19,10,10,0.6,0.7
2023-05-17T21:00:00,1017A,117.237,39.1082,天津市,大直沽八号路,,37,37,82,11,37,110,71,94,75,20,21,5,5,0.3,0.7
2023-05-17T21:00:00,1018A,117.202,39.0927,天津市,前进道,,29,29,76,13,36,114,74,103,81,25,24,7,6,0.5,0.8
2023-05-17T21:00:00,1019A,117.1837,39.2133,天津市,淮河道,,46,46,86,20,37,137,51,115,78,38,20,9,8,1.0,0.8
2023-05-17T21:00:00,1021A,117.307,39.0877,天津市,跃进路,颗粒物(PM10),73,96,113,12,37,120,71,99,80,25,23,8,8,0.5,0.8
2023-05-17T21:00:00,1023A,117.707,39.0343,天津市,第四大街,,24,24,67,10,31,132,72,102,83,23,27,3,5,0.3,0.6
2023-05-17T21:00:00,1024A,117.457,38.8394,天津市,永明路,,25,22,64,14,42,103,79,94,92,17,23,12,10,0.4,0.5
2023-05-17T21:00:00,1026A,117.764,39.1587,天津市,汉北路,,22,18,68,8,32,124,69,91,82,21,21,4,5,0.5,0.7
2023-05-17T21:00:00,1027A,117.157,38.9194,天津市,团泊洼,,26,24,64,18,15,111,82,94,90,29,35,3,5,0.4,0.5
2023-05-17T21:00:00,1029A,114.4422,38.0444,石家庄市,职工医院,"颗粒物(PM10),细颗粒物(PM2.5)",77,104,103,56,45,187,92,170,149,14,24,3,2,0.4,0.5
2023-05-17T21:00:00,1030A,114.6063,38.0266,石家庄市,高新区,颗粒物(PM10),65,79,89,33,38,176,79,168,141,17,25,6,6,0.5,0.5
2023-05-17T21:00:00,1031A,114.4898,38.1328,石家庄市,西北水源,颗粒物(PM10),92,134,89,59,56,180,95,169,146,12,25,7,7,0.7,0.8
2023-05-17T21:00:00,1032A,114.4586,38.0058,石家庄市,西南高教,细颗粒物(PM2.5),77,89,87,56,50,192,86,168,147,12,21,3,7,0.8,0.9
2023-05-17T21:00:00,1033A,114.5331,38.0178,石家庄市,世纪公园,,,,,,,,,,,,,,,,
2023-05-17T21:00:00,1034A,114.509,38.0457,石家庄市,人民会堂,颗粒物(PM10),71,92,80,46,42,177,87,162,140,15,24,8,11,0.9,0.9
2023-05-17T21:00:00,1035A,114.3524,37.8911,石家庄市,封龙山,,36,33,72,25,25,191,88,168,150,14,8,5,7,0.7,0.7
2023-05-17T21:00:00,1037A,118.131,39.6363,唐山市,雷达站,,48,48,61,20,29,149,52,128,72,26,16,6,4,0.6,0.7
2023-05-17T21:00:00,1038A,118.1725,39.6334,唐山市,物资局,颗粒物(PM10),53,55,66,22,31,146,50,122,72,26,15,9,7,0.5,0.7
2023-05-17T21:00:00,1040A,118.1705,39.6506,唐山市,十二中,,41,41,55,22,34,144,49,123,69,27,15,7,6,0.7,0.6
2023-05-17T21:00:00,1041A,118.1869,39.622,唐山市,小山,颗粒物(PM10),56,62,77,23,26,153,38,125,63,35,16,18,6,0.5,0.6
2023-05-17T21:00:00,1042A,119.5134,39.8207,秦皇岛市,北戴河环保局,,25,18,48,10,23,181,80,115,85,14,14,2,2,0.0,0.1
2023-05-17T21:00:00,1043A,119.7493,40.0116,秦皇岛市,第一关,,26,20,46,18,29,164,53,112,65,37,32,3,2,0.1,0.3
2023-05-17T21:00:00,1044A,119.5897,39.9499,秦皇岛市,监测站,,,39,48,24,29,154,,122,70,23,19,1,2,,0.3
2023-05-17T21:00:00,1046A,119.5251,39.9041,秦皇岛市,建设大厦,,48,32,45,33,36,167,69,121,77,18,15,1,2,0.2,0.2
2023-05-17T21:00:00,1048A,114.5302,36.6116,邯郸市,东污水处理厂,颗粒物(PM10),91,132,74,19,34,173,134,160,157,7,16,2,3,0.3,0.5
2023-05-17T21:00:00,1049A,114.4918,36.5713,邯郸市,矿院,颗粒物(PM10),77,103,65,27,38,172,124,159,151,8,15,3,5,0.4,0.6
2023-05-17T21:00:00,1050A,114.484,36.6133,邯郸市,丛台公园,颗粒物(PM10),93,135,81,23,41,174,115,160,151,26,16,5,7,0.5,0.7
2023-05-17T21:00:00,1051A,115.493,38.8632,保定市,游泳馆,颗粒物(PM10),55,60,58,36,38,156,74,125,105,20,13,4,6,0.3,0.2
2023-05-17T21:00:00,1052A,115.5213,38.8959,保定市,华电二区,颗粒物(PM10),53,55,76,28,29,155,72,124,104,24,15,6,8,0.7,0.6
2023-05-17T21:00:00,1053A,115.4713,38.9108,保定市,接待中心,颗粒物(PM10),61,72,78,29,34,157,71,126,104,16,9,8,9,0.6,0.5
2023-05-17T21:00:00,1054A,115.4612,38.8416,保定市,地表水厂,颗粒物(PM10),56,61,86,36,34,156,72,127,103,19,18,11,9,0.5,0.5
2023-05-17T21:00:00,1056A,115.5086,38.8639,保定市,监测站,细颗粒物(PM2.5),57,58,83,40,38,170,74,136,108,24,18,8,8,0.5,0.4
2023-05-17T21:00:00,1057A,114.8883,40.8336,张家口市,人民公园,,38,38,75,14,14,114,94,108,108,8,3,3,3,0.3,0.3
2023-05-17T21:00:00,1059A,114.8687,40.8042,张家口市,五金库,,29,29,71,14,14,108,89,104,103,19,9,1,2,0.4,0.3
2023-05-17T21:00:00,1060A,114.8902,40.762,张家口市,世纪豪园,,,,76,,24,111,,107,107,,5,1,1,0.2,0.1
2023-05-17T21:00:00,1061A,114.8916,40.8661,张家口市,北泵房,,39,39,63,11,18,119,78,113,109,16,7,9,9,0.3,0.3
2023-05-17T21:00:00,1062A,117.9531,40.9081,承德市,铁路,,31,31,50,16,18,127,56,97,78,22,14,9,9,0.3,0.2
2023-05-17T21:00:00,1063A,117.9392,40.9763,承德市,中国银行,,39,39,56,26,20,136,66,95,88,18,12,8,8,0.1,0.1
2023-05-17T21:00:00,1064A,117.9503,40.928,承德市,开发区,,34,34,54,20,24,132,66,98,86,18,13,8,7,0.3,0.3
2023-05-17T21:00:00,1065A,117.8051,40.9655,承德市,文化中心,,31,31,52,12,19,110,73,105,87,12,10,7,7,0.2,0.2
2023-05-17T21:00:00,1066A,117.9268,41.0026,承德市,离宫,,36,28,46,25,24,96,55,91,82,9,8,4,5,0.2,0.2
2023-05-17T21:00:00,1067A,116.6708,39.5111,廊坊市,药材公司,颗粒物(PM10),53,55,65,25,31,129,68,123,87,26,17,5,3,0.6,0.6
2023-05-17T21:00:00,1068A,116.7214,39.5589,廊坊市,开发区,,,,62,,37,136,68,116,89,26,20,7,5,0.7,0.6
2023-05-17T21:00:00,1070A,116.7244,39.5269,廊坊市,北华航天学院,颗粒物(PM10),51,51,72,22,38,126,69,122,87,23,15,5,3,0.5,0.5
2023-05-17T21:00:00,1071A,116.8842,38.2991,沧州市,沧县城建局,,46,46,58,29,34,108,91,102,100,17,20,6,10,0.1,0.3
2023-05-17T21:00:00,1072A,116.8584,38.3254,沧州市,电视转播站,,,57,62,22,31,119,97,106,99,,22,5,9,0.2,0.3
2023-05-17T21:00:00,1073A,116.8709,38.3228,沧州市,市环保局,颗粒物(PM10),53,55,63,31,33,113,98,108,106,20,22,9,12,0.1,0.2
2023-05-17T21:00:00,1074A,115.6838,37.7541,衡水市,电机北厂,颗粒物(PM10),59,68,83,36,44,146,86,128,118,16,9,3,4,0.5,0.6
2023-05-17T21:00:00,1075A,115.6303,37.7316,衡水市,市监测站,颗粒物(PM10),65,80,90,41,44,152,87,132,122,16,12,7,8,0.5,0.6
2023-05-17T21:00:00,1077A,114.4704,37.0886,邢台市,达活泉,颗粒物(PM10),64,77,88,24,42,161,117,156,149,4,14,4,9,0.4,0.9
2023-05-17T21:00:00,1078A,114.5062,37.0349,邢台市,邢师高专,颗粒物(PM10),64,78,93,26,48,159,119,150,143,5,20,3,7,0.2,0.7
2023-05-17T21:00:00,1079A,114.5237,37.0851,邢台市,路桥公司,颗粒物(PM10),61,72,88,25,48,153,117,146,142,5,19,3,7,0,0.4
2023-05-17T21:00:00,1080A,114.4725,37.0719,邢台市,市环保局,,,,92,,54,163,,160,160,,11,,6,,0.7
2023-05-17T21:00:00,1081A,112.522,37.8873,太原市,尖草坪,颗粒物(PM10),62,74,80,22,31,132,109,127,125,24,22,6,6,0.4,0.4
2023-05-17T21:00:00,1083A,112.434,38.0108,太原市,上兰,颗粒物(PM10),55,59,67,21,33,121,103,117,116,10,9,5,8,0.4,0.5
2023-05-17T21:00:00,1084A,112.469,37.7124,太原市,晋源,颗粒物(PM10),60,70,77,25,33,133,78,126,115,40,33,9,11,0.4,0.4
2023-05-17T21:00:00,1085A,112.5583,37.7394,太原市,小店,颗粒物(PM10),60,69,96,18,34,128,110,121,119,18,37,5,9,0.3,0.4
2023-05-17T21:00:00,1086A,112.5369,37.8692,太原市,桃园,颗粒物(PM10),58,65,73,24,30,127,99,123,119,27,29,5,6,0.4,0.4
2023-05-17T21:00:00,1087A,112.57,37.8195,太原市,坞城,颗粒物(PM10),58,65,83,28,37,129,98,125,120,29,25,6,7,0.4,0.5
2023-05-17T21:00:00,1088A,112.549,37.9854,太原市,南寨,颗粒物(PM10),56,62,87,21,36,127,100,122,118,19,30,5,6,0.3,0.4
2023-05-17T21:00:00,1090A,111.6507,40.7517,呼和浩特市,呼市一监,,32,17,67,13,22,115,102,114,112,9,9,5,5,0.4,0.4
2023-05-17T21:00:00,1091A,111.6572,40.8033,呼和浩特市,小召,,30,24,66,7,18,110,93,105,104,17,17,7,8,0.3,0.3
2023-05-17T21:00:00,1094A,111.7516,40.8369,呼和浩特市,如意水处理厂,,28,15,60,5,18,109,88,104,102,11,8,6,6,0.3,0.3
2023-05-17T21:00:00,1095A,111.7276,40.8062,呼和浩特市,二十九中,,31,17,62,6,15,116,97,112,110,12,11,6,6,0.4,0.3
2023-05-17T21:00:00,1096A,111.5512,40.7866,呼和浩特市,工大金川校区,,25,22,60,7,17,109,80,106,102,22,10,5,5,0.3,0.3
2023-05-17T21:00:00,1097A,111.717,40.7612,呼和浩特市,化肥厂生活区,,29,23,74,8,17,108,92,103,101,11,11,6,6,0.2,0.2
2023-05-17T21:00:00,1098A,123.6836,41.9339,沈阳市,森林路,,,,,,,,,,,,,,,,
2023-05-17T21:00:00,1099A,123.505,41.7406,沈阳市,浑南东路,,34,34,41,21,27,118,30,94,43,38,28,8,9,0.6,0.7
2023-05-17T21:00:00,1100A,123.4231,41.6989,沈阳市,新秀街,,42,42,41,29,23,136,9,106,43,59,23,5,6,1.0,0.8
2023-05-17T21:00:00,1102A,123.5903,41.8411,沈阳市,东陵路,,31,31,32,16,20,105,17,77,36,29,19,7,7,0.7,0.6
2023-05-17T21:00:00,1103A,123.4264,41.8467,沈阳市,陵东街,,32,32,39,16,17,109,5,89,27,42,29,5,6,0.6,0.6
2023-05-17T21:00:00,1104A,123.4114,41.7653,沈阳市,文化路,,44,44,41,30,25,146,23,110,38,50,29,5,6,0.7,0.6
2023-05-17T21:00:00,1105A,123.4678,41.7867,沈阳市,小河沿,,30,18,39,21,21,109,18,88,32,38,31,5,6,0.5,0.6
2023-05-17T21:00:00,1106A,123.4017,41.7972,沈阳市,太原街,,42,42,41,21,22,116,15,109,30,57,35,5,6,0.6,0.5
2023-05-17T21:00:00,1108A,123.3783,41.9228,沈阳市,京沈街,,33,31,32,23,24,113,19,93,45,40,19,8,8,0.7,0.6
2023-05-17T21:00:00,1109A,121.612,38.9741,大连市,甘井子,,49,49,64,25,28,176,79,140,84,19,26,4,5,0.5,0.6
2023-05-17T21:00:00,1110A,121.565,38.9511,大连市,周水子,,42,39,52,29,28,179,72,144,82,26,27,6,8,0.6,0.6
2023-05-17T21:00:00,1111A,121.5637,38.8845,大连市,星海三站,,46,46,53,25,27,181,66,144,91,30,19,4,4,0.6,0.5
2023-05-17T21:00:00,1112A,121.6302,38.9117,大连市,青泥洼桥,,39,39,55,21,26,194,82,147,95,22,17,6,6,0.8,0.7
2023-05-17T21:00:00,1113A,121.6251,38.8638,大连市,傅家庄,,46,46,56,23,25,195,88,147,100,17,15,8,8,0.8,0.7
2023-05-17T21:00:00,1114A,121.5213,38.8661,大连市,七贤岭,,,57,56,39,26,192,,146,98,24,14,5,7,0.4,0.4
2023-05-17T21:00:00,1115A,121.2529,38.8061,大连市,旅顺,,46,45,46,32,28,179,65,155,88,22,19,8,8,0.7,0.6
2023-05-17T21:00:00,1116A,121.7485,39.1311,大连市,金州,,32,26,44,22,24,195,81,156,101,14,14,8,8,0.4,0.5
2023-05-17T21:00:00,1117A,121.7811,39.0496,大连市,开发区,,42,42,56,23,25,184,78,133,95,18,22,4,4,0.7,0.6
2023-05-17T21:00:00,1118A,121.9762,39.0631,大连市,双D港,,29,20,37,15,20,191,91,143,93,8,13,5,6,0.5,0.5
2023-05-17T21:00:00,1119A,125.3325,43.9166,长春市,食品厂,,48,47,56,33,34,63,30,54,46,48,48,7,8,0.6,0.6
2023-05-17T21:00:00,1120A,125.2863,43.9027,长春市,客车厂,,50,40,60,35,35,63,36,54,48,40,46,4,5,0.7,0.7
2023-05-17T21:00:00,1121A,125.2841,43.8463,长春市,邮电学院,,36,36,42,16,27,67,24,53,50,36,34,5,5,0.5,0.6
2023-05-17T21:00:00,1122A,125.3716,43.8772,长春市,劳动公园,,27,27,47,16,22,68,38,57,56,40,44,6,6,0.5,0.6
2023-05-17T21:00:00,1123A,125.3297,43.8805,长春市,园林处,,42,42,49,23,25,62,37,54,51,39,46,6,6,0.5,0.5
2023-05-17T21:00:00,1124A,125.4605,43.79,长春市,净月潭,,16,16,28,10,19,70,24,49,48,9,15,4,4,0.3,0.3
2023-05-17T21:00:00,1125A,125.7194,43.515,长春市,甩湾子,,18,14,32,9,22,67,57,59,59,8,21,5,5,0.5,0.8
2023-05-17T21:00:00,1126A,125.3863,43.8447,长春市,经开区环卫处,,36,36,43,16,22,69,20,53,50,47,44,6,6,0.5,0.5
2023-05-17T21:00:00,1127A,125.245,43.7783,长春市,高新区管委会,,35,35,42,18,25,77,5,59,54,58,41,5,6,0.5,0.6
2023-05-17T21:00:00,1128A,125.1761,43.8325,长春市,岱山公园,,30,30,44,13,29,67,44,55,54,30,42,4,5,0.3,0.6
2023-05-17T21:00:00,1129A,126.5422,45.755,哈尔滨市,岭北,颗粒物(PM10),51,52,35,16,16,120,77,112,105,18,17,5,8,0.3,0.4
2023-05-17T21:00:00,1130A,126.561,45.8167,哈尔滨市,松北商大,颗粒物(PM10),52,54,35,21,14,115,25,104,88,76,26,6,6,0.6,0.4
2023-05-17T21:00:00,1131A,126.979,45.5419,哈尔滨市,阿城会宁,细颗粒物(PM2.5),54,47,35,38,16,94,62,87,83,17,19,9,6,0.5,0.5
2023-05-17T21:00:00,1132A,126.599,45.7222,哈尔滨市,南岗学府路,,49,49,42,18,14,110,62,106,98,25,26,6,5,0.5,0.5
2023-05-17T21:00:00,1133A,126.689,45.7733,哈尔滨市,太平宏伟公园,颗粒物(PM10),58,65,44,33,24,109,56,102,96,43,38,6,5,0.7,0.6
2023-05-17T21:00:00,1134A,126.635,45.7667,哈尔滨市,道外承德广场,,45,42,39,31,17,114,63,106,99,38,33,5,6,0.6,0.5
2023-05-17T21:00:00,1135A,126.685,45.7319,哈尔滨市,香坊红旗大街,颗粒物(PM10),60,70,46,26,18,118,42,111,101,54,39,12,10,0.4,0.4
2023-05-17T21:00:00,1136A,126.6411,45.7258,哈尔滨市,动力和平路,颗粒物(PM10),53,56,41,36,23,112,57,105,97,36,38,8,10,0.3,0.5
2023-05-17T21:00:00,1137A,126.593,45.7478,哈尔滨市,道里建国路,,34,34,34,21,25,112,65,105,98,38,37,8,7,0.5,0.5
2023-05-17T21:00:00,1138A,126.615,45.61,哈尔滨市,平房东轻厂,,37,37,36,22,19,117,72,108,101,12,23,7,6,0.7,0.6
2023-05-17T21:00:00,1139A,126.595,45.9855,哈尔滨市,呼兰师专,,,,37,21,17,121,,110,107,28,19,7,8,,0.5
2023-05-17T21:00:00,1140A,126.6206,45.6842,哈尔滨市,省农科院,细颗粒物(PM2.5),64,58,44,46,24,119,58,114,103,36,35,11,11,0.3,0.4
2023-05-17T21:00:00,1141A,121.4,31.238,上海市,普陀,,27,11,18,12,9,114,84,108,96,20,16,4,4,0.5,0.4
2023-05-17T21:00:00,1142A,121.478,31.2036,上海市,十五厂,,43,12,18,30,14,113,84,104,92,12,9,7,7,0.5,0.4
2023-05-17T21:00:00,1143A,121.467,31.3008,上海市,虹口,,28,22,18,19,12,108,80,102,89,16,13,7,8,0.6,0.5
2023-05-17T21:00:00,1144A,121.412,31.1654,上海市,徐汇上师大,,37,37,26,16,11,117,87,108,97,22,21,7,8,0.8,0.6
2023-05-17T21:00:00,1145A,121.536,31.2659,上海市,杨浦四漂,,28,12,16,13,12,111,87,99,91,18,17,6,6,0.7,0.6
2023-05-17T21:00:00,1147A,121.425,31.2261,上海市,静安监测站,,32,32,22,14,10,110,83,104,92,19,16,5,5,0.6,0.5
2023-05-17T21:00:00,1148A,121.703,31.1907,上海市,浦东川沙,,29,25,25,14,12,107,92,99,94,12,12,5,5,0.5,0.4
2023-05-17T21:00:00,1149A,121.533,31.2284,上海市,浦东新区监测站,,32,30,24,13,10,122,100,114,105,11,11,6,6,0.4,0.3
2023-05-17T21:00:00,1150A,121.577,31.2071,上海市,浦东张江,,34,29,23,15,11,125,107,116,111,14,13,5,5,0.7,0.7
2023-05-17T21:00:00,1151A,118.8086,32.1065,南京市,迈皋桥,,32,27,29,22,17,118,43,101,51,33,22,6,8,0.3,0.3
2023-05-17T21:00:00,1152A,118.7538,32.0551,南京市,草场门,,36,36,32,24,19,104,26,91,45,42,25,1,3,0.5,0.6
2023-05-17T21:00:00,1153A,118.7794,32.0745,南京市,山西路,,41,41,31,22,16,101,41,94,56,32,14,3,6,0.3,0.3
2023-05-17T21:00:00,1154A,118.7752,32.0023,南京市,中华门,,29,29,24,12,12,106,21,94,45,52,23,5,5,0.8,0.7
2023-05-17T21:00:00,1155A,118.8109,32.0309,南京市,瑞金路,,,,40,27,18,100,34,92,54,27,11,4,4,0.3,0.3
2023-05-17T21:00:00,1156A,118.7997,32.0754,南京市,玄武湖,,34,34,31,23,15,98,39,90,46,30,16,4,6,0.5,0.5
2023-05-17T21:00:00,1157A,118.6414,32.0931,南京市,浦口,,30,30,35,19,18,104,42,89,52,27,21,5,7,0.3,0.3
2023-05-17T21:00:00,1158A,118.7356,31.9996,南京市,奥体中心,,35,21,39,24,20,98,30,90,51,40,22,2,5,0.5,0.6
2023-05-17T21:00:00,1159A,118.9125,32.1028,南京市,仙林大学城,,34,34,32,22,19,92,38,84,55,45,22,9,10,0.6,0.7
2023-05-17T21:00:00,1160A,120.561,31.2472,苏州市,上方山,,20,12,22,14,23,81,27,70,39,16,20,6,7,0.5,0.4
2023-05-17T21:00:00,1162A,120.591,31.3019,苏州市,彩香,,26,19,30,18,17,95,49,88,59,20,14,4,5,0.7,0.6
2023-05-17T21:00:00,1163A,120.596,31.3264,苏州市,轧钢厂,,21,21,34,13,16,92,45,85,58,28,15,6,7,0.7,0.7
2023-05-17T21:00:00,1164A,120.613,31.2703,苏州市,吴中区,,,19,31,12,16,89,,83,60,20,21,7,7,0.7,0.7
2023-05-17T21:00:00,1165A,120.543,31.2994,苏州市,苏州新区,,26,18,28,18,18,89,58,83,59,12,15,4,5,0.6,0.5
2023-05-17T21:00:00,1166A,120.669,31.3097,苏州市,苏州工业园区,,25,22,32,17,16,86,46,81,56,22,14,8,8,0.5,0.5
2023-05-17T21:00:00,1167A,120.641,31.3708,苏州市,相城区,,26,16,29,18,16,89,57,80,57,16,17,6,6,0.7,0.6
2023-05-17T21:00:00,1168A,120.9098,31.9663,南通市,狼山街道,,18,11,26,4,8,100,25,92,60,35,24,6,7,0.5,0.4
2023-05-17T21:00:00,1169A,120.86,32.0005,南通市,虹桥,,31,18,24,20,13,102,15,93,62,62,24,8,7,0.9,0.5
2023-05-17T21:00:00,1170A,120.87,32.02,南通市,城中,,28,16,24,19,12,93,27,84,59,46,21,6,6,0.6,0.4
2023-05-17T21:00:00,1171A,120.94,31.93,南通市,星湖花园,,20,15,22,14,11,85,33,79,55,39,24,4,4,0.5,0.4
2023-05-17T21:00:00,1172A,120.81,32.0417,南通市,紫琅学院,,23,23,30,14,12,90,35,79,51,33,29,6,8,0.7,0.5
2023-05-17T21:00:00,1173A,119.176,34.5885,连云港市,市环境监测站,,33,31,75,9,28,156,105,138,115,5,12,6,9,0.3,0.3
2023-05-17T21:00:00,1177A,117.179,34.2761,徐州市,黄河新村,,46,46,68,23,35,188,108,162,154,9,14,8,11,0.6,0.6
2023-05-17T21:00:00,1178A,117.1918,34.2384,徐州市,淮塔,颗粒物(PM10),52,53,67,24,39,185,112,166,156,12,16,9,12,0.6,0.7
2023-05-17T21:00:00,1180A,117.256,34.2153,徐州市,新城区,颗粒物(PM10),51,51,69,26,38,182,104,160,148,10,14,5,7,0.6,0.7
2023-05-17T21:00:00,1181A,117.244,34.2911,徐州市,桃园路,,46,46,69,19,34,188,103,161,152,9,12,8,10,0.6,0.7
2023-05-17T21:00:00,1182A,117.2933,34.2778,徐州市,农科院,颗粒物(PM10),51,51,68,14,30,173,112,156,148,13,21,6,9,0.5,0.6
2023-05-17T21:00:00,1186A,119.389,32.3761,扬州市,邗江监测站,颗粒物(PM10),53,56,55,35,29,124,51,83,63,24,28,8,10,0.8,0.7
2023-05-17T21:00:00,1188A,120.269,31.4867,无锡市,雪浪,,20,17,20,9,10,104,62,96,74,13,12,9,8,0.6,0.5
2023-05-17T21:00:00,1189A,120.275,31.6219,无锡市,黄巷,,35,30,23,24,12,96,25,93,38,52,30,5,4,1.0,0.8
2023-05-17T21:00:00,1190A,120.294,31.56,无锡市,曹张,,28,10,21,19,9,91,30,86,48,36,17,3,4,0.8,0.6
2023-05-17T21:00:00,1191A,120.242,31.5031,无锡市,漆塘,,25,19,18,17,12,99,55,91,69,17,12,5,5,0.4,0.4
2023-05-17T21:00:00,1192A,120.3489,31.5863,无锡市,东亭,,28,22,23,19,13,95,49,95,52,29,25,8,9,1.2,1
2023-05-17T21:00:00,1193A,120.354,31.5475,无锡市,旺庄,,16,14,20,9,9,89,50,89,53,28,26,5,6,0.6,0.5
2023-05-17T21:00:00,1194A,120.245,31.5631,无锡市,荣巷,,20,14,19,14,11,101,37,93,60,21,16,6,6,0.6,0.5
2023-05-17T21:00:00,1195A,120.299,31.6817,无锡市,堰桥,,35,19,20,24,13,91,13,90,38,56,26,6,6,0.9,0.6
2023-05-17T21:00:00,1196A,119.9633,31.762,常州市,市监测站,,50,50,34,14,15,113,42,90,54,34,25,5,5,0.4,0.4
2023-05-17T21:00:00,1200A,119.9468,31.7069,常州市,武进监测站,颗粒物(PM10),56,62,37,16,15,120,45,97,66,28,16,11,6,0.8,0.6
2023-05-17T21:00:00,1201A,119.9255,31.9087,常州市,安家,颗粒物(PM10),53,55,41,28,18,125,12,91,47,58,23,6,5,0.8,0.6
2023-05-17T21:00:00,1203A,119.6707,32.1875,镇江市,新区办事处,,,52,44,46,27,136,,94,49,67,30,7,3,0.7,0.6
2023-05-17T21:00:00,1204A,119.4974,32.1968,镇江市,职教中心,,50,50,47,34,31,136,38,86,59,41,26,4,4,0.8,0.7
2023-05-17T21:00:00,1205A,119.4303,32.1328,镇江市,丹徒区监测站,,46,34,51,32,35,117,44,88,69,42,24,4,6,0.6,0.6
2023-05-17T21:00:00,1206A,119.905,32.4878,泰州市,公园路,细颗粒物(PM2.5),55,39,34,39,28,122,58,79,69,20,19,10,10,0.6,0.7
2023-05-17T21:00:00,1207A,119.9189,32.4625,泰州市,莲花,,49,44,41,34,26,130,62,85,74,22,22,9,9,0.6,0.7
2023-05-17T21:00:00,1209A,119.888,32.4639,泰州市,留学生创业园,颗粒物(PM10),56,62,40,37,25,128,59,85,72,21,20,8,7,0.6,0.6
2023-05-17T21:00:00,1210A,119.036,33.5981,淮安市,钵池山,,27,14,31,17,29,152,84,106,93,15,17,8,10,0.6,0.6
2023-05-17T21:00:00,1211A,119.007,33.575,淮安市,北京南路,,29,17,42,13,30,130,91,99,91,14,24,6,9,0.5,0.7
2023-05-17T21:00:00,1212A,118.989,33.6067,淮安市,市监测站,,30,22,43,14,22,144,93,104,98,15,18,6,9,0.7,0.8
2023-05-17T21:00:00,1213A,119.135,33.5039,淮安市,楚州区监测站,,28,20,58,15,37,139,88,107,91,12,24,8,10,0.6,0.7
2023-05-17T21:00:00,1214A,119.0186,33.6297,淮安市,淮阴区监测站,,43,26,47,30,30,145,80,102,92,22,22,7,9,0.8,0.5
2023-05-17T21:00:00,1215A,120.118,33.4022,盐城市,盐城电厂,,29,19,42,10,24,156,91,102,100,6,13,7,8,0.4,0.5
2023-05-17T21:00:00,1216A,120.156,33.3942,盐城市,市监测站,,28,28,38,10,20,146,83,95,92,8,15,11,11,0.1,0.2
2023-05-17T21:00:00,1218A,120.2144,33.38,盐城市,开发区管委会,,24,9,32,12,21,117,75,91,86,7,15,5,5,0.4,0.4
2023-05-17T21:00:00,1220A,118.293,33.9528,宿迁市,宿迁学院,,28,28,49,16,31,157,76,136,114,26,20,12,12,0.6,0.6
2023-05-17T21:00:00,1221A,118.2442,33.9592,宿迁市,宿迁中学,,,,48,,32,161,,142,128,16,15,5,10,0.4,0.4
2023-05-17T21:00:00,1223A,120.2072,30.2111,杭州市,滨江,,22,22,21,11,11,103,34,102,43,31,19,7,7,0.7,0.5
2023-05-17T21:00:00,1224A,120.0633,30.2747,杭州市,西溪,,,24,25,11,9,102,,100,35,31,19,7,6,0.6,0.5
2023-05-17T21:00:00,1226A,120.3461,30.3153,杭州市,下沙,,32,18,28,12,17,97,9,95,18,63,39,5,5,0.7,0.6
2023-05-17T21:00:00,1227A,120.1269,30.2456,杭州市,卧龙桥,,18,16,23,12,12,100,29,100,39,22,15,6,7,0.6,0.5
2023-05-17T21:00:00,1228A,120.1903,30.2692,杭州市,浙江农大,,19,18,20,12,13,110,15,108,25,38,21,6,6,0.6,0.4
2023-05-17T21:00:00,1230A,120.1197,30.3119,杭州市,和睦小学,,20,19,28,14,17,106,30,102,34,32,23,5,5,0.6,0.5
2023-05-17T21:00:00,1231A,120.3019,30.4183,杭州市,临平镇,,16,16,27,11,14,106,41,106,36,27,24,3,4,0.6,0.5
2023-05-17T21:00:00,1232A,120.2697,30.1819,杭州市,城厢镇,,29,21,28,20,17,98,36,92,53,32,22,3,4,0.7,0.5
2023-05-17T21:00:00,1233A,120.0883,30.1808,杭州市,云栖,,19,17,19,13,13,88,29,87,37,21,21,6,6,0.5,0.4
2023-05-17T21:00:00,1234A,121.8358,29.911,宁波市,区环保大楼,,29,14,15,10,10,116,91,107,93,6,6,3,3,0.5,0.4
2023-05-17T21:00:00,1235A,121.56,29.82,宁波市,万里学院,,27,20,18,11,6,122,84,108,93,18,10,3,3,0.8,0.7
2023-05-17T21:00:00,1236A,121.713,29.9572,宁波市,龙赛医院,,37,37,18,9,8,123,83,115,96,14,6,8,5,0.3,0.2
2023-05-17T21:00:00,1239A,121.633,29.7733,宁波市,钱湖水厂,,28,11,10,10,6,110,88,102,101,5,5,4,4,0.2,0.2
2023-05-17T21:00:00,1240A,121.5856,29.8635,宁波市,太古小学,,29,16,16,20,11,110,70,99,88,24,10,5,5,0.7,0.5
2023-05-17T21:00:00,1241A,121.524,29.8674,宁波市,市环境监测中心,,21,20,17,11,6,107,67,95,80,19,11,4,3,0.4,0.3
2023-05-17T21:00:00,1242A,120.634,28.0089,温州市,瓯海,细颗粒物(PM2.5),65,52,26,47,24,91,57,80,67,33,20,6,6,0.6,0.4
2023-05-17T21:00:00,1243A,120.6748,27.9939,温州市,南浦,,50,50,30,32,16,96,76,88,78,20,16,4,4,0.5,0.4
2023-05-17T21:00:00,1244A,120.76,27.9747,温州市,龙湾,颗粒物(PM10),52,53,24,24,11,104,62,95,83,40,23,6,6,0.6,0.5
2023-05-17T21:00:00,1245A,120.6709,28.0167,温州市,市站,细颗粒物(PM2.5),54,52,32,38,17,84,59,81,62,42,31,5,4,0.7,0.6
2023-05-17T21:00:00,1247A,120.6053,29.9928,绍兴市,城东开发委,,18,16,16,12,9,98,28,91,59,25,13,5,6,0.8,0.7
2023-05-17T21:00:00,1250A,120.0751,30.8669,湖州市,城西水厂,,29,16,26,18,17,100,17,92,37,58,30,5,5,0.7,0.5
2023-05-17T21:00:00,1252A,120.7436,30.778,嘉兴市,清河小学,,38,30,22,26,8,90,40,85,60,29,17,4,5,0.4,0.3
2023-05-17T21:00:00,1253A,120.726,30.7478,嘉兴市,嘉兴学院,,,25,25,26,14,90,,86,62,42,17,4,4,0.4,0.3
2023-05-17T21:00:00,1255A,121.273,28.6459,台州市,黄岩环保大楼,细颗粒物(PM2.5),133,75,25,101,25,113,72,105,98,23,7,5,9,0.6,0.4
2023-05-17T21:00:00,1256A,121.419,28.6542,台州市,台州环保大楼,,42,34,21,29,10,110,57,98,85,20,7,4,4,0.6,0.4
2023-05-17T21:00:00,1257A,121.377,28.5773,台州市,路桥田洋王,,43,30,17,30,13,105,59,93,86,24,11,12,7,0.7,0.4
2023-05-17T21:00:00,1258A,122.122,30.0203,舟山市,定海檀枫,,25,7,12,4,6,88,77,83,82,11,9,5,5,0.5,0.4
2023-05-17T21:00:00,1259A,122.3094,29.9558,舟山市,普陀东港,,28,4,13,4,10,98,88,93,93,6,5,5,5,0.2,0.2
2023-05-17T21:00:00,1260A,122.19,29.9944,舟山市,临城新区,,26,7,15,2,3,101,82,93,91,15,10,5,5,0.3,0.3
2023-05-17T21:00:00,1262A,119.647,29.077,金华市,十五中,细颗粒物(PM2.5),62,36,36,44,33,116,57,103,76,18,17,6,6,0.7,0.5
2023-05-17T21:00:00,1263A,119.686,29.1029,金华市,监测站,,38,22,28,26,21,111,53,111,70,20,17,5,5,0.7,0.6
2023-05-17T21:00:00,1264A,118.8692,28.9398,衢州市,环保大楼,,34,34,42,22,34,108,32,73,47,31,22,5,5,0.8,0.6
2023-05-17T21:00:00,1265A,118.8709,28.9666,衢州市,实验学校,,37,37,48,18,20,96,48,86,60,25,18,3,3,0.6,0.4
2023-05-17T21:00:00,1266A,118.8621,28.9808,衢州市,衢州学院,,28,24,34,19,27,87,49,76,62,22,19,3,4,0.5,0.4
2023-05-17T21:00:00,1267A,119.914,28.4514,丽水市,监测站大楼,,32,17,23,22,18,110,46,89,65,15,10,5,5,0.7,0.5
2023-05-17T21:00:00,1268A,119.93,28.4586,丽水市,莲都小学,,,24,23,15,18,114,,87,72,15,10,4,4,0.6,0.4
2023-05-17T21:00:00,1269A,119.879,28.4231,丽水市,余庄前,,30,30,24,17,12,93,25,78,58,22,15,6,6,0.7,0.5
2023-05-17T21:00:00,1270A,117.1959,31.7848,合肥市,明珠广场,,22,22,31,14,23,95,38,94,69,40,21,4,4,0.6,0.6
2023-05-17T21:00:00,1271A,117.3072,31.8764,合肥市,三里街,,,39,37,27,27,94,,86,51,31,26,4,4,0.8,0.8
2023-05-17T21:00:00,1272A,117.2588,31.8707,合肥市,琥珀山庄,,39,36,34,27,26,111,49,101,60,29,19,3,3,0.9,0.8
2023-05-17T21:00:00,1273A,117.1604,31.9052,合肥市,董铺水库,,18,17,24,12,18,105,46,100,67,19,13,3,2,0.4,0.4
2023-05-17T21:00:00,1274A,117.25,31.8571,合肥市,长江中路,,41,41,41,25,29,101,50,95,62,24,16,8,8,0.7,0.7
2023-05-17T21:00:00,1275A,117.266,31.9436,合肥市,庐阳区,,32,24,31,22,26,99,51,88,56,28,26,5,5,0.5,0.4
2023-05-17T21:00:00,1276A,117.336,31.8586,合肥市,瑶海区,,41,41,41,23,25,100,25,93,58,49,20,7,6,0.9,0.6
2023-05-17T21:00:00,1277A,117.3027,31.7964,合肥市,包河区,颗粒物(PM10),54,58,40,36,28,100,7,100,44,60,21,6,6,0.7,0.5
2023-05-17T21:00:00,1278A,117.2776,31.7385,合肥市,滨湖新区,,46,46,30,27,18,101,15,98,67,64,15,5,5,0.6,0.7
2023-05-17T21:00:00,1279A,117.1318,31.8403,合肥市,高新区,,29,29,31,17,22,102,57,97,73,26,19,8,8,0.5,0.4
2023-05-17T21:00:00,1280A,119.3903,26.0543,福州市,鼓山,,,,,,,,,,,,,,,,
2023-05-17T21:00:00,1282A,119.2681,26.0504,福州市,师大,,22,22,44,12,26,117,56,101,91,22,23,4,6,0.5,0.6
2023-05-17T21:00:00,1283A,119.2984,26.1028,福州市,五四北路,,,,44,,27,126,,108,108,16,23,2,3,0.3,0.6
2023-05-17T21:00:00,1284A,119.2648,26.0768,福州市,杨桥西路,,26,26,43,13,27,109,56,94,86,18,21,3,4,0.5,0.5
2023-05-17T21:00:00,1285A,119.317,26.0746,福州市,紫阳,,20,17,46,12,26,115,61,94,92,14,24,2,3,0.5,0.6
2023-05-17T21:00:00,1286A,118.1608,24.8169,厦门市,溪东,,,,,,,,,,,,,,,,
2023-05-17T21:00:00,1287A,118.1514,24.4767,厦门市,洪文,,17,14,18,8,13,91,53,84,70,8,4,3,2,0.3,0.2
2023-05-17T21:00:00,1288A,118.0661,24.4444,厦门市,鼓浪屿,,17,10,16,6,10,78,53,71,64,2,10,3,3,0.2,0.3
2023-05-17T21:00:00,1290A,115.8931,28.6843,南昌市,省外办,,39,37,32,27,25,82,20,69,49,33,17,4,4,0.6,0.5
2023-05-17T21:00:00,1291A,115.8886,28.7003,南昌市,省林业公司,,49,29,22,34,25,85,10,69,46,63,32,4,4,0.6,0.4
2023-05-17T21:00:00,1292A,115.8126,28.7442,南昌市,林科所,,28,17,16,12,14,77,4,68,40,56,26,6,6,0.8,0.7
2023-05-17T21:00:00,1294A,115.8518,28.687,南昌市,建工学校,,44,44,43,21,19,81,24,71,46,31,18,5,5,0.7,0.6
2023-05-17T21:00:00,1295A,115.8921,28.6424,南昌市,象湖,,39,34,35,27,23,80,14,67,43,43,25,4,4,0.9,0.7
2023-05-17T21:00:00,1296A,115.7423,28.7996,南昌市,武术学校,,42,15,19,29,14,82,10,73,34,8,7,9,6,0.4,0.4
2023-05-17T21:00:00,1298A,115.9314,28.6842,南昌市,省站,,46,42,36,32,24,84,28,69,51,24,17,6,6,0.9,0.9
2023-05-17T21:00:00,1299A,116.9862,36.6114,济南市,科干所,颗粒物(PM10),81,112,55,49,28,167,120,155,149,28,12,13,10,0.7,0.4
2023-05-17T21:00:00,1300A,116.9376,36.665,济南市,农科所,颗粒物(PM10),80,110,61,46,25,157,109,151,143,30,17,6,5,0.3,0.2
2023-05-17T21:00:00,1301A,117.1265,36.6734,济南市,开发区,颗粒物(PM10),86,122,56,42,24,177,108,157,152,31,18,10,6,0.7,0.5
2023-05-17T21:00:00,1303A,117.0624,36.6868,济南市,省种子仓库,颗粒物(PM10),84,117,60,46,24,176,106,161,153,21,7,6,4,0.4,0.3
2023-05-17T21:00:00,1304A,116.9489,36.6447,济南市,机床二厂,颗粒物(PM10),89,127,67,46,23,164,116,154,149,30,10,10,5,0.5,0.3
2023-05-17T21:00:00,1305A,117.0495,36.663,济南市,市监测站,颗粒物(PM10),81,112,54,46,24,184,126,170,163,32,17,14,10,0.9,0.7
2023-05-17T21:00:00,1306A,116.7675,36.5484,济南市,长清党校,颗粒物(PM10),88,125,60,44,30,176,119,161,153,28,15,10,12,0.6,0.5
2023-05-17T21:00:00,1307A,120.6659,36.2403,青岛市,仰口,,33,5,53,7,26,182,103,174,111,4,10,4,6,0,0.1
2023-05-17T21:00:00,1310A,120.4134,36.0658,青岛市,市南区东部子站,,33,27,42,7,17,151,104,148,108,13,14,5,7,0.3,0.5
2023-05-17T21:00:00,1311A,120.3664,36.1032,青岛市,四方区子站,,35,19,52,5,21,167,112,163,114,16,22,6,8,0.4,0.6
2023-05-17T21:00:00,1312A,120.2994,36.054,青岛市,市南区西部子站,,37,22,43,10,18,169,117,160,114,12,16,5,6,0.4,0.6
2023-05-17T21:00:00,1313A,120.4581,36.0858,青岛市,崂山区子站,,36,19,48,14,22,166,114,154,117,11,14,7,8,0.2,0.3
2023-05-17T21:00:00,1314A,120.1983,35.9608,青岛市,黄岛区子站,,38,22,49,12,23,172,120,159,117,5,11,4,6,0.2,0.4
2023-05-17T21:00:00,1315A,120.3999,36.3083,青岛市,城阳区子站,,35,29,68,7,22,168,110,164,119,8,19,5,7,0.3,0.5
2023-05-17T21:00:00,1316A,113.69031,34.76122,郑州市,烟厂,,,62,55,27,22,204,104,180,170,,27,,7,0.5,0.5
2023-05-17T21:00:00,1317A,113.65724,34.77134,郑州市,郑纺机,,,60,53,,20,218,130,188,183,21,20,5,6,0.6,0.6
2023-05-17T21:00:00,1318A,113.67526,34.80246,郑州市,银行学校,颗粒物(PM10),64,77,50,24,19,200,112,176,170,28,21,7,8,0.6,0.5
2023-05-17T21:00:00,1319A,113.56746,34.81334,郑州市,供水公司,,,109,61,45,24,203,,179,178,26,22,9,9,0.5,0.3
2023-05-17T21:00:00,1320A,113.7329,34.7178,郑州市,经开区管委,,43,43,49,18,17,202,117,176,169,21,21,2,4,0.5,0.4
2023-05-17T21:00:00,1321A,113.73961,34.77172,郑州市,四十七中,颗粒物(PM10),57,63,49,20,16,210,106,178,169,30,19,5,6,0.5,0.4
2023-05-17T21:00:00,1322A,113.60532,34.74838,郑州市,市监测站,颗粒物(PM10),57,63,57,26,24,221,140,192,190,24,21,2,2,0.7,0.6
2023-05-17T21:00:00,1323A,113.64164,34.7525,郑州市,河医大,颗粒物(PM10),60,70,58,24,20,197,113,169,162,35,23,6,7,0.8,0.6
2023-05-17T21:00:00,1324A,113.51488,34.91089,郑州市,岗李水库,,,,,,,,,,,,,,,,
2023-05-17T21:00:00,1325A,114.3677,30.5584,武汉市,东湖梨园,,29,29,21,12,9,100,30,84,68,34,17,6,6,0.7,0.6
2023-05-17T21:00:00,1326A,114.2529,30.558,武汉市,汉阳月湖,颗粒物(PM10),51,52,22,24,10,88,9,71,52,80,26,6,6,0.9,0.6
2023-05-17T21:00:00,1327A,114.282,30.6189,武汉市,汉口花桥,,49,47,23,34,14,98,23,84,71,69,20,6,6,1.1,0.6
2023-05-17T21:00:00,1328A,114.3025,30.5332,武汉市,武昌紫阳,颗粒物(PM10),59,67,28,18,17,93,17,84,62,76,25,5,5,0.7,0.8
2023-05-17T21:00:00,1329A,114.3646,30.6217,武汉市,青山钢花,,42,36,22,29,19,99,11,89,70,73,21,7,6,1.2,0.8
2023-05-17T21:00:00,1330A,114.1566,30.4825,武汉市,沌口新区,颗粒物(PM10),52,53,28,32,19,81,17,74,62,61,26,6,6,0.7,0.6
2023-05-17T21:00:00,1331A,114.3014,30.5944,武汉市,汉口江滩,,41,34,17,26,12,104,22,88,54,82,29,6,6,0.9,0.7
2023-05-17T21:00:00,1333A,114.135,30.6319,武汉市,吴家山,,42,42,24,15,4,108,27,88,80,63,18,6,6,0.9,0.7
2023-05-17T21:00:00,1334A,113.8454,30.2917,武汉市,沉湖七壕,,20,16,19,14,13,86,64,77,77,15,6,5,6,0.5,0.6
2023-05-17T21:00:00,1335A,113.0833,28.2325,长沙市,经开区环保局,,24,20,24,10,19,112,76,106,102,21,10,4,4,0.5,0.5
2023-05-17T21:00:00,1336A,112.8872,28.2189,长沙市,高开区环保局,,29,7,18,13,22,109,92,102,101,2,3,6,7,0.6,0.6
2023-05-17T21:00:00,1337A,113.0792,28.2053,长沙市,马坡岭,,27,14,24,8,21,116,84,110,106,16,11,3,3,0.4,0.3
2023-05-17T21:00:00,1338A,112.9394,28.19,长沙市,湖南师范大学,,24,14,21,8,21,120,76,112,106,11,5,2,2,0.6,0.6
2023-05-17T21:00:00,1339A,113.0178,28.1322,长沙市,雨花区环保局,,28,16,23,12,22,117,89,107,104,12,15,5,5,0.5,0.4
2023-05-17T21:00:00,1340A,112.9792,28.2597,长沙市,伍家岭,,24,24,23,9,19,110,74,104,99,17,6,3,3,0.4,0.4
2023-05-17T21:00:00,1341A,113.0014,28.1944,长沙市,火车新站,,27,19,24,5,14,109,86,102,99,8,8,5,6,0.5,0.6
2023-05-17T21:00:00,1342A,112.9844,28.1178,长沙市,天心区环保局,,30,30,33,10,19,116,91,108,106,7,8,2,2,0.5,0.5
2023-05-17T21:00:00,1343A,112.8908,28.1308,长沙市,湖南中医药大学,,,16,21,14,19,126,,118,117,18,9,3,3,0.6,0.6
2023-05-17T21:00:00,1344A,112.9581,28.3611,长沙市,沙坪,,23,15,22,16,28,103,43,99,90,17,5,3,3,0.4,0.3
2023-05-17T21:00:00,1345A,113.2347,23.1423,广州市,广雅中学,,39,39,25,21,12,120,36,91,77,29,23,4,3,0.8,0.7
2023-05-17T21:00:00,1346A,113.2612,23.105,广州市,市五中,,37,37,24,18,11,124,44,96,86,20,19,5,4,0.6,0.5
2023-05-17T21:00:00,1348A,113.3478,23.0916,广州市,广东商学院,,37,37,24,17,7,111,19,74,59,38,22,4,3,0.6,0.6
2023-05-17T21:00:00,1349A,113.4332,23.1047,广州市,市八十六中,,38,38,22,14,8,94,8,68,55,49,35,4,4,0.7,0.7
2023-05-17T21:00:00,1350A,113.3505,22.9483,广州市,番禺中学,,30,30,19,15,9,112,53,95,84,19,20,8,8,0.6,0.5
2023-05-17T21:00:00,1351A,113.2146,23.3916,广州市,花都师范,,33,33,25,17,11,119,25,83,74,60,24,6,6,0.9,0.7
2023-05-17T21:00:00,1352A,113.2597,23.1331,广州市,市监测站,,,27,17,21,9,128,,92,84,46,24,5,5,0.8,0.8
2023-05-17T21:00:00,1353A,113.5618,23.312,广州市,九龙镇镇龙,,22,22,34,8,13,128,51,98,93,32,34,5,5,0.5,0.6
2023-05-17T21:00:00,1354A,113.2765,23.1544,广州市,麓湖,,43,43,23,18,10,130,21,92,77,41,21,4,4,0.7,0.6
2023-05-17T21:00:00,1355A,113.443,23.3035,广州市,帽峰山森林公园,,30,30,24,12,10,129,32,96,88,30,24,2,3,0.4,0.4
2023-05-17T21:00:00,1356A,114.1063,22.5545,深圳市,通心岭子站,,21,21,11,11,6,66,35,60,54,19,10,3,3,0.6,0.6
2023-05-17T21:00:00,1357A,114.117,22.5625,深圳市,洪湖,,28,28,15,9,5,72,39,69,55,17,13,4,4,0.6,0.6
2023-05-17T21:00:00,1358A,113.987,22.5417,深圳市,华侨城,,23,23,12,9,5,69,45,60,49,23,19,6,6,0.7,0.7
2023-05-17T21:00:00,1359A,113.9181,22.5171,深圳市,南海子站,,38,38,13,17,4,59,41,57,52,24,20,4,4,0.6,0.6
2023-05-17T21:00:00,1360A,114.2458,22.5689,深圳市,盐田,,31,31,20,15,7,75,1,59,13,57,28,5,4,0.6,0.6
2023-05-17T21:00:00,1361A,114.2283,22.7244,深圳市,龙岗,,24,24,14,10,5,77,46,72,58,22,17,2,2,0.6,0.6
2023-05-17T21:00:00,1363A,114.494,22.5422,深圳市,南澳,,20,20,11,8,4,84,58,73,67,6,6,2,2,0.6,0.6
2023-05-17T21:00:00,1364A,114.41,22.6342,深圳市,葵涌,,20,20,10,7,4,71,27,68,49,27,11,5,5,0.5,0.5
2023-05-17T21:00:00,1365A,114.297,22.5978,深圳市,梅沙,,26,26,21,12,11,88,34,71,59,18,16,4,4,0.6,0.6
2023-05-17T21:00:00,1366A,114.0678,22.738,深圳市,观澜,,32,32,20,10,7,70,34,51,47,30,25,5,5,0.6,0.6
2023-05-17T21:00:00,1367A,113.5814,22.2618,珠海市,吉大,,,25,15,19,16,83,52,79,56,9,8,,6,0.3,0.3
2023-05-17T21:00:00,1368A,113.4881,22.2335,珠海市,前山,,31,31,18,16,8,82,62,81,63,11,10,4,4,0.2,0.2
2023-05-17T21:00:00,1369A,113.628,22.4251,珠海市,唐家,,29,19,14,20,12,80,44,72,61,10,9,4,5,0.3,0.3
2023-05-17T21:00:00,1370A,113.299,22.2281,珠海市,斗门,,,10,12,10,8,82,,82,56,5,11,5,5,0.4,0.5
2023-05-17T21:00:00,1371A,113.1294,23.0067,佛山市,湾梁,,36,36,31,16,14,131,46,111,87,17,16,5,5,0.6,0.6
2023-05-17T21:00:00,1372A,113.1083,23.0478,佛山市,华材职中,,34,34,27,16,12,131,45,106,88,21,18,8,8,0.6,0.6
2023-05-17T21:00:00,1373A,113.144,23.0453,佛山市,南海气象局,,48,48,35,18,15,103,35,84,69,21,21,4,4,0.5,0.5
2023-05-17T21:00:00,1374A,113.2881,22.8094,佛山市,顺德苏岗,,28,28,15,19,11,89,44,77,63,13,15,4,4,0.6,0.6
2023-05-17T21:00:00,1376A,112.8383,22.8678,佛山市,高明孔堂,,,36,25,12,12,83,54,77,71,,8,3,4,,0.7
2023-05-17T21:00:00,1377A,112.8836,23.1588,佛山市,三水监测站,颗粒物(PM10),52,53,27,25,17,100,9,82,60,64,31,4,4,0.9,0.6
2023-05-17T21:00:00,1378A,112.867,23.185,佛山市,三水云东海,,30,30,30,19,14,100,5,86,61,41,23,3,5,0.5,0.5
2023-05-17T21:00:00,1379A,113.3769,22.5211,中山市,华柏园,,23,23,18,15,14,79,62,73,70,10,11,5,5,0.5,0.5
2023-05-17T21:00:00,1380A,113.3881,22.5497,中山市,张溪,,23,23,22,14,13,85,62,78,72,7,8,3,3,0.4,0.4
2023-05-17T21:00:00,1381A,113.4075,22.5111,中山市,紫马岭,,29,29,19,15,8,81,61,76,71,7,6,6,4,0.3,0.3
2023-05-17T21:00:00,1382A,113.4411,22.4853,中山市,长江旅游区,,25,25,16,17,12,89,63,81,74,6,6,9,8,0.3,0.3
2023-05-17T21:00:00,1383A,113.1064,22.6058,江门市,北街,,20,20,24,13,9,75,54,69,63,9,10,5,5,0.3,0.4
2023-05-17T21:00:00,1384A,113.0731,22.5835,江门市,西区,,36,36,23,19,12,82,55,75,68,12,12,7,7,0.4,0.4
2023-05-17T21:00:00,1385A,113.0219,22.5311,江门市,圭峰西,,37,37,26,18,15,82,40,74,62,22,12,5,5,0.5,0.5
2023-05-17T21:00:00,1386A,113.0828,22.5947,江门市,东湖,,,40,18,19,11,89,,84,78,12,11,7,7,0.4,0.4
2023-05-17T21:00:00,1389A,113.7547,23.0494,东莞市,莞城梨川,,26,26,17,9,7,110,50,94,81,15,18,7,8,0.6,0.6
2023-05-17T21:00:00,1390A,113.7944,23.0128,东莞市,东城石井,,27,27,16,10,7,107,54,92,82,14,18,9,9,0.6,0.6
2023-05-17T21:00:00,1391A,113.7383,22.9658,东莞市,南城西平,,24,24,16,0,7,100,56,87,76,44,21,9,7,0.9,0.4
2023-05-17T21:00:00,1392A,114.4183,23.0528,惠州市,河南岸金山湖子站,,45,45,21,20,15,90,38,77,67,20,11,2,3,0.5,0.5
2023-05-17T21:00:00,1393A,114.4053,23.0822,惠州市,下埔横江三路子站,,26,26,21,14,11,96,38,81,70,21,11,4,4,0.7,0.6
2023-05-17T21:00:00,1394A,114.4103,23.1142,惠州市,江北云山西路子站,,30,30,24,13,8,109,45,90,78,16,7,6,6,0.6,0.6
2023-05-17T21:00:00,1395A,114.4645,22.7833,惠州市,惠阳区承修路船湖子站,,34,34,21,14,10,66,27,62,48,25,12,4,4,0.6,0.5
2023-05-17T21:00:00,1396A,114.5317,22.7422,惠州市,大亚湾管委会子站,,42,42,22,10,9,86,29,79,58,32,16,8,8,0.5,0.4
2023-05-17T21:00:00,1397A,112.4267,23.0706,肇庆市,睦岗子站,,48,48,32,22,17,99,52,89,79,25,16,10,11,0.6,0.6
2023-05-17T21:00:00,1398A,112.4645,23.0475,肇庆市,城中子站,,37,37,27,23,16,93,51,84,77,25,17,13,13,0.6,0.4
2023-05-17T21:00:00,1399A,112.5544,23.1522,肇庆市,坑口子站,,29,28,25,20,16,98,34,84,72,22,21,4,5,0.2,0.2
2023-05-17T21:00:00,1400A,112.4753,23.1,肇庆市,七星岩子站,,,,,,,,,,,,,,,,
2023-05-17T21:00:00,1401A,108.3103,22.7881,南宁市,二十一中,颗粒物(PM10),52,54,43,33,24,154,151,146,146,12,12,9,6,1.0,0.9
2023-05-17T21:00:00,1402A,108.3141,22.8528,南宁市,北湖,颗粒物(PM10),53,55,48,32,25,144,127,136,135,10,9,9,7,0.6,0.6
2023-05-17T21:00:00,1403A,108.3206,22.8225,南宁市,市监测站,"颗粒物(PM10),细颗粒物(PM2.5)",52,54,45,36,26,144,133,136,136,25,15,11,9,0.8,0.7
2023-05-17T21:00:00,1404A,108.3829,22.8037,南宁市,大自然花园,颗粒物(PM10),54,57,40,30,23,124,113,116,116,8,7,5,5,0.8,0.8
2023-05-17T21:00:00,1405A,108.4394,22.7904,南宁市,仙葫,颗粒物(PM10),72,94,44,28,20,136,114,123,123,15,12,6,6,0.4,0.4
2023-05-17T21:00:00,1406A,108.2397,22.8467,南宁市,区农职院,,,,49,,24,153,,144,144,17,17,12,8,0.9,0.8
2023-05-17T21:00:00,1407A,108.3275,22.735,南宁市,英华嘉园,细颗粒物(PM2.5),59,59,49,42,26,142,125,128,128,15,16,9,7,0.7,0.7
2023-05-17T21:00:00,1408A,108.2257,22.7757,南宁市,沙井镇街道办,颗粒物(PM10),63,76,52,42,28,141,118,131,130,32,25,7,3,0.7,0.6
2023-05-17T21:00:00,1409A,110.576,19.9507,海口市,东寨港,,,,,,,,,,,,,,,,
2023-05-17T21:00:00,1410A,110.3232,20.0574,海口市,海南大学,,50,50,39,24,20,146,65,123,117,15,10,6,6,0.4,0.3
2023-05-17T21:00:00,1411A,110.283,20.0053,海口市,秀英海南医院,颗粒物(PM10),62,73,37,19,20,143,53,113,105,26,15,4,4,0.5,0.5
2023-05-17T21:00:00,1412A,110.338,19.9969,海口市,海南师范大学,,,,,,,,,,,,,,,,
2023-05-17T21:00:00,1413A,110.33,20.0356,海口市,龙华路环保局宿舍,颗粒物(PM10),56,61,37,26,19,135,55,113,108,22,12,6,5,0.4,0.3
2023-05-17T21:00:00,1414A,106.3787,29.8279,重庆市,缙云山,臭氧1小时,67,30,25,10,10,181,173,173,173,7,10,14,11,0.1,0.1
2023-05-17T21:00:00,1416A,106.4213,29.8253,重庆市,天生,颗粒物(PM10),64,78,44,28,28,167,104,159,152,40,28,12,9,0.8,0.8
2023-05-17T21:00:00,1417A,106.6263,29.7228,重庆市,两路,,41,41,28,27,16,198,116,176,171,42,26,11,8,0.9,0.9
2023-05-17T21:00:00,1418A,106.2953,29.5983,重庆市,虎溪,颗粒物(PM10),62,74,50,34,26,181,27,164,147,120,39,5,5,0.7,0.6
2023-05-17T21:00:00,1419A,106.5777,29.5102,重庆市,南坪,,49,49,39,34,28,218,132,184,182,31,29,10,11,0.6,0.8
2023-05-17T21:00:00,1420A,106.6556,29.6277,重庆市,唐家沱,颗粒物(PM10),60,69,45,32,25,260,148,215,194,53,36,8,10,0.8,0.6
2023-05-17T21:00:00,1421A,106.6349,29.4906,重庆市,茶园,颗粒物(PM10),91,131,63,33,32,240,29,194,173,146,53,5,7,0.8,0.7
2023-05-17T21:00:00,1422A,106.3754,29.4572,重庆市,白市驿,,49,43,55,34,29,173,135,152,151,10,30,10,10,0.5,0.8
2023-05-17T21:00:00,1425A,106.6205,29.7166,重庆市,空港,颗粒物(PM10),60,69,36,29,24,206,90,174,166,51,22,11,8,0.9,0.7
2023-05-17T21:00:00,1426A,106.4782,29.4875,重庆市,新山村,颗粒物(PM10),60,69,53,30,23,220,100,176,171,63,48,8,9,0.7,0.8
2023-05-17T21:00:00,1427A,106.5616,29.6453,重庆市,礼嘉,细颗粒物(PM2.5),55,53,41,39,25,203,114,172,167,45,44,12,10,0.9,0.9
2023-05-17T21:00:00,1428A,106.4522,29.7091,重庆市,蔡家,颗粒物(PM10),68,86,49,39,27,181,106,159,154,37,26,10,8,0.5,0.6
2023-05-17T21:00:00,1429A,106.5093,29.3917,重庆市,鱼新街,颗粒物(PM10),68,86,40,27,21,218,76,180,170,134,44,5,7,1.4,1.3
2023-05-17T21:00:00,1431A,103.9728,30.7236,成都市,金泉两河,细颗粒物(PM2.5),139,70,112,106,101,221,81,180,173,38,35,2,4,0.4,0.6
2023-05-17T21:00:00,1432A,104.176,30.6872,成都市,十里店,细颗粒物(PM2.5),70,66,111,51,69,237,107,176,174,32,51,2,3,0.6,0.8
2023-05-17T21:00:00,1433A,104.079,30.5706,成都市,三瓦窑,颗粒物(PM10),61,71,107,35,70,246,73,168,159,62,68,3,2,0.6,0.7
2023-05-17T21:00:00,1434A,104.1114,30.63,成都市,沙河铺,细颗粒物(PM2.5),70,59,95,51,64,233,102,179,175,27,47,2,2,0.6,0.7
2023-05-17T21:00:00,1437A,104.0786,30.6531,成都市,君平街,细颗粒物(PM2.5),55,58,117,39,85,247,104,187,187,40,53,1,5,0.5,0.9
2023-05-17T21:00:00,1438A,103.613,31.0283,成都市,灵岩寺,臭氧1小时,62,56,58,42,43,212,169,192,190,13,13,5,14,0.4,0.4
2023-05-17T21:00:00,1439A,106.6899,26.5998,贵阳市,马鞍山,细颗粒物(PM2.5),52,41,40,36,32,131,99,117,113,12,17,5,5,0.4,0.4
2023-05-17T21:00:00,1440A,106.6971,26.5694,贵阳市,市环保站,细颗粒物(PM2.5),73,73,55,53,49,152,88,140,133,50,31,8,5,0.5,0.4
2023-05-17T21:00:00,1441A,106.6243,26.6266,贵阳市,鉴湖路,颗粒物(PM10),56,61,52,39,31,145,125,135,132,17,20,7,5,0.2,0.2
2023-05-17T21:00:00,1442A,106.7487,26.6343,贵阳市,燕子冲,,,56,50,,41,146,109,138,134,23,18,6,6,,0.7
2023-05-17T21:00:00,1443A,106.6555,26.4365,贵阳市,碧云窝,,,,57,,32,163,91,146,136,53,20,5,5,,0.6
2023-05-17T21:00:00,1444A,106.694,26.5161,贵阳市,中院村,颗粒物(PM10),58,66,68,39,39,156,104,134,128,38,33,12,9,0.8,0.8
2023-05-17T21:00:00,1445A,106.7109,26.6027,贵阳市,红边门,细颗粒物(PM2.5),77,80,54,56,43,147,76,137,127,47,22,6,5,1.0,0.6
2023-05-17T21:00:00,1446A,106.7164,26.5699,贵阳市,新华路,颗粒物(PM10),58,66,59,39,38,151,102,138,133,39,27,6,5,0.5,0.5
2023-05-17T21:00:00,1447A,106.674,26.5424,贵阳市,太慈桥,颗粒物(PM10),65,80,56,34,30,151,44,135,122,69,27,7,5,0.8,0.6
2023-05-17T21:00:00,1450A,102.8204,24.8886,昆明市,呈贡新区,,44,44,36,24,18,170,129,160,154,10,9,8,8,0.6,0.6
2023-05-17T21:00:00,1451A,102.6251,24.9608,昆明市,西山森林公园,,36,36,29,9,19,126,102,120,118,14,14,9,8,0.9,1
2023-05-17T21:00:00,1452A,102.7252,25.0902,昆明市,龙泉镇,,41,41,32,22,13,153,106,142,139,28,16,7,7,0.5,0.4
2023-05-17T21:00:00,1453A,102.7266,25.0375,昆明市,东风东路,,42,42,35,20,18,143,106,134,131,18,11,8,6,0.6,0.5
2023-05-17T21:00:00,1454A,102.6742,25.0669,昆明市,金鼎山,,41,41,34,20,17,154,124,143,142,18,13,4,2,0.6,0.4
2023-05-17T21:00:00,1455A,102.6644,25.0401,昆明市,碧鸡广场,,44,44,34,20,18,155,114,145,142,24,13,5,5,0.5,0.4
2023-05-17T21:00:00,1456A,91.1319,29.6514,拉萨市,八廓街,,46,18,19,9,10,167,147,160,158,14,9,7,8,0.4,0.3
2023-05-17T21:00:00,1457A,91.1221,29.6747,拉萨市,市环保局,,47,22,16,6,7,167,148,162,160,17,14,6,7,0.4,0.5
2023-05-17T21:00:00,1458A,91.0874,29.6475,拉萨市,区监测站,,44,17,14,8,12,158,139,151,150,15,14,8,9,0.2,0.2
2023-05-17T21:00:00,1459A,91.1774,29.6541,拉萨市,西藏大学,,50,17,16,7,6,170,159,166,165,6,6,9,10,0.2,0.2
2023-05-17T21:00:00,1460A,90.9798,29.6588,拉萨市,区辐射站,,41,24,21,9,10,151,131,144,140,25,16,8,8,0.3,0.3
2023-05-17T21:00:00,1461A,91.0834,29.6292,拉萨市,拉萨火车站,,47,21,15,7,5,165,148,158,157,12,8,9,9,0.3,0.3
2023-05-17T21:00:00,1462A,108.882,34.2749,西安市,高压开关厂,颗粒物(PM10),81,111,78,35,32,153,74,124,104,28,23,12,9,0.3,0.3
2023-05-17T21:00:00,1463A,108.993,34.2629,西安市,兴庆小区,颗粒物(PM10),71,91,68,30,23,163,73,128,108,21,16,8,7,0.6,0.6
2023-05-17T21:00:00,1464A,109.06,34.2572,西安市,纺织城,颗粒物(PM10),74,97,73,30,29,167,77,136,115,17,16,8,6,0.5,0.5
2023-05-17T21:00:00,1465A,108.9356,34.2173,西安市,小寨,颗粒物(PM10),72,93,61,38,29,148,80,125,107,18,15,10,9,0.4,0.2
2023-05-17T21:00:00,1466A,108.954,34.2713,西安市,市人民体育场,颗粒物(PM10),72,93,72,32,29,150,68,119,98,23,20,7,7,0.4,0.4
2023-05-17T21:00:00,1467A,108.8922,34.2322,西安市,高新西区,颗粒物(PM10),69,87,66,31,27,149,75,124,106,22,18,10,9,0.5,0.5
2023-05-17T21:00:00,1468A,108.935,34.3474,西安市,经开区,颗粒物(PM10),74,97,71,30,30,150,73,126,106,19,20,5,4,0.3,0.3
2023-05-17T21:00:00,1469A,108.906,34.1546,西安市,长安区,颗粒物(PM10),74,97,79,41,26,150,94,128,115,16,21,10,7,0.3,0.3
2023-05-17T21:00:00,1471A,109.2186,34.3731,西安市,临潼区,颗粒物(PM10),75,99,69,34,30,168,88,148,128,24,21,9,9,0.4,0.3
2023-05-17T21:00:00,1472A,108.869,34.378,西安市,草滩,颗粒物(PM10),73,95,70,26,27,135,54,114,94,28,23,8,11,0.4,0.2
2023-05-17T21:00:00,1473A,108.985,34.1978,西安市,曲江文化产业集团,颗粒物(PM10),77,104,72,28,27,160,87,132,114,20,19,8,6,0.3,0.3
2023-05-17T21:00:00,1474A,109.051,34.3213,西安市,广运潭,颗粒物(PM10),74,98,70,29,29,151,69,128,109,23,23,8,7,0.4,0.4
2023-05-17T21:00:00,1476A,103.631,36.1031,兰州市,兰炼宾馆,,,48,57,30,35,124,,120,119,17,12,2,4,0.2,0.4
2023-05-17T21:00:00,1477A,104.1373,35.9454,兰州市,榆中兰大校区,,,,,,,,,,,,,,,,
2023-05-17T21:00:00,1478A,103.8412,36.0726,兰州市,生物制品所,,42,42,66,27,37,112,99,108,107,19,17,7,8,0.6,0.6
2023-05-17T21:00:00,1479A,103.831,36.0464,兰州市,铁路设计院,,46,46,69,27,33,113,102,107,107,21,23,2,3,0.6,0.7
2023-05-17T21:00:00,1483A,101.524,36.6867,西宁市,第五水厂,,,,,,,,,,,,,,,,
2023-05-17T21:00:00,1484A,105.9512,38.6016,银川市,贺兰山马莲口,,34,30,53,18,22,132,106,127,121,4,7,9,10,0.4,0.4
2023-05-17T21:00:00,1488A,106.2328,38.4975,银川市,贺兰山东路,,42,42,80,22,29,136,94,130,126,26,13,4,7,0.2,0.2
2023-05-17T21:00:00,1489A,106.1358,38.5036,银川市,学院路,,41,41,87,15,22,131,68,122,115,47,15,6,10,0.5,0.4
2023-05-17T21:00:00,1490A,87.5801,43.8303,乌鲁木齐市,监测站,,29,29,55,6,16,114,76,98,98,24,47,6,7,0.3,0.5
2023-05-17T21:00:00,1491A,87.6046,43.768,乌鲁木齐市,收费所,,29,29,68,11,18,112,74,92,92,15,41,8,7,0.2,0.4
2023-05-17T21:00:00,1492A,87.4754,43.9469,乌鲁木齐市,新疆农科院农场,,,33,72,,14,104,70,94,93,30,44,7,9,0.8,0.8
2023-05-17T21:00:00,1493A,87.5525,43.8711,乌鲁木齐市,铁路局,,28,28,48,17,17,115,77,99,99,22,44,5,6,0.5,0.6
2023-05-17T21:00:00,1494A,87.6432,43.831,乌鲁木齐市,三十一中学,,,,51,,14,118,,108,108,16,35,10,12,0.3,0.5
2023-05-17T21:00:00,1496A,87.7216,44.1747,乌鲁木齐市,米东区环保局,,44,44,28,13,9,113,104,105,105,12,8,4,3,0.5,0.2
2023-05-17T21:00:00,1508A,112.9433,27.8614,湘潭市,板塘,细颗粒物(PM2.5),77,21,40,56,37,122,92,111,110,27,38,3,4,0.2,0.3
2023-05-17T21:00:00,1511A,112.9118,27.8403,湘潭市,市监测站,,30,29,28,16,24,121,94,109,108,22,16,7,8,0.6,0.7
2023-05-17T21:00:00,1512A,112.8937,27.8728,湘潭市,江麓,,31,31,32,18,25,113,89,108,105,15,7,7,6,0.1,0.2
2023-05-17T21:00:00,1513A,112.9227,27.8159,湘潭市,岳塘,细颗粒物(PM2.5),62,31,35,44,31,115,86,103,100,19,11,18,7,0.1,0.2
2023-05-17T21:00:00,1514A,112.9074,27.9119,湘潭市,科大,,44,44,33,14,21,109,73,106,102,31,12,2,3,0.4,0.5
2023-05-17T21:00:00,1515A,113.135,27.8244,株洲市,天台山庄,,,,31,,27,148,65,120,119,36,12,7,7,0.9,0.6
2023-05-17T21:00:00,1518A,113.095,27.8867,株洲市,株冶医院,,41,41,32,20,28,132,54,110,107,34,19,1,2,0.6,0.5
2023-05-17T21:00:00,1519A,113.167,27.8667,株洲市,市四中,,26,16,22,18,26,134,75,111,111,18,12,6,7,0.7,0.7
2023-05-17T21:00:00,1520A,113.143,27.8381,株洲市,火车站,,42,41,34,29,31,146,54,118,116,39,16,4,4,1.0,0.6
2023-05-17T21:00:00,1524A,113.13,27.8528,株洲市,市监测站,,46,46,32,20,31,149,78,116,116,31,15,5,5,0.6,0.6
2023-05-17T21:00:00,1552A,106.805,26.3003,贵阳市,桐木岭,细颗粒物(PM2.5),98,68,48,73,36,98,59,89,82,10,3,1,4,0.6,0.4
2023-05-17T21:00:00,1559A,113.251,27.8336,株洲市,大京风景区,,,,35,13,26,123,26,90,90,7,10,3,3,0.4,0.5
2023-05-17T21:00:00,1562A,113.0048,27.9153,湘潭市,昭山,,36,36,34,22,26,130,62,111,106,32,12,2,2,0.4,0.5
2023-05-17T21:00:00,1564A,112.4876,27.9164,湘潭市,韶山,,23,23,22,8,10,118,71,116,108,13,7,5,5,0.3,0.4
2023-05-17T21:00:00,1585A,109.8756,40.6532,包头市,市环境监测站,,33,30,64,5,20,123,104,117,116,15,8,9,10,0.4,0.4
2023-05-17T21:00:00,1587A,109.9991,40.5842,包头市,包头八中,,33,23,69,12,17,123,104,120,118,20,13,10,10,0.5,0.5
2023-05-17T21:00:00,1588A,109.8538,40.6821,包头市,青山宾馆,,35,18,52,5,17,120,109,116,116,13,8,6,8,0.4,0.4
2023-05-17T21:00:00,1589A,109.8642,40.6288,包头市,惠龙物流,,32,17,62,9,27,120,102,116,115,18,10,8,8,0.4,0.3
2023-05-17T21:00:00,1590A,110.0377,40.5546,包头市,东河鸿龙湾,,32,32,66,7,20,120,88,116,113,23,12,5,5,0.3,0.3
2023-05-17T21:00:00,1591A,110.0023,39.8129,鄂尔多斯市,综合楼,,48,48,149,14,39,124,111,117,117,22,17,6,7,0.4,0.5
2023-05-17T21:00:00,1592A,109.9486,39.8261,鄂尔多斯市,巴音孟克林场办事处,颗粒物(PM10),54,58,131,29,38,128,111,120,120,23,14,9,8,0.6,0.6
2023-05-17T21:00:00,1593A,109.7736,39.5986,鄂尔多斯市,康泽苑,,39,39,85,17,26,115,114,113,113,13,12,9,10,0.4,0.5
2023-05-17T21:00:00,1594A,109.8119,39.5989,鄂尔多斯市,华泰汽车城,,31,31,77,9,23,108,93,104,104,23,14,6,5,0.3,0.5
2023-05-17T21:00:00,1595A,109.9734,39.7884,鄂尔多斯市,奥林花园,,39,39,117,9,47,132,106,123,122,26,22,6,7,1.0,0.7
2023-05-17T21:00:00,1597A,122.2703,40.7094,营口市,大庆路,颗粒物(PM10),55,60,68,28,31,152,41,124,65,35,23,5,6,0.8,0.8
2023-05-17T21:00:00,1598A,122.2150,40.6511,营口市,镜湖西路,颗粒物(PM10),54,57,64,30,27,139,43,136,66,38,23,6,8,0.9,0.5
2023-05-17T21:00:00,1599A,122.1658,40.6789,营口市,西炮台,,44,44,59,15,23,132,39,125,60,40,26,3,4,0.9,0.6
2023-05-17T21:00:00,1600A,124.3303,40.0625,丹东市,江湾东路,,24,12,24,8,10,190,76,138,83,6,7,7,7,0.7,0.6
2023-05-17T21:00:00,1601A,124.4256,40.1503,丹东市,临江后街,,24,7,21,4,10,190,76,131,83,7,4,4,5,0.5,0.5
2023-05-17T21:00:00,1602A,124.3933,40.1461,丹东市,元宝山,,20,9,19,7,13,186,63,132,77,6,9,7,8,0.4,0.5
2023-05-17T21:00:00,1603A,124.3633,40.1092,丹东市,民主桥,,21,14,25,9,12,183,65,128,76,12,7,6,6,0.5,0.5
2023-05-17T21:00:00,1604A,122.0303,41.1489,盘锦市,开发区,,45,29,42,31,28,172,46,130,65,28,20,5,6,0.5,0.7
2023-05-17T21:00:00,1605A,122.0485,41.0883,盘锦市,兴隆台,,49,38,45,34,25,167,39,125,56,35,23,6,6,0.7,0.6
2023-05-17T21:00:00,1606A,121.8297,41.1028,盘锦市,新生街道,,35,29,36,24,19,163,37,134,66,35,22,6,6,0.6,0.6
2023-05-17T21:00:00,1607A,120.9092,40.7136,葫芦岛市,龙港区,,42,42,55,21,31,221,10,148,56,63,22,14,35,0.6,0.7
2023-05-17T21:00:00,1608A,120.8392,40.7514,葫芦岛市,化工街,,34,34,53,19,23,197,14,135,58,42,15,8,12,0.8,0.8
2023-05-17T21:00:00,1609A,120.8341,40.7073,葫芦岛市,新区,,35,35,47,19,27,199,30,148,67,60,22,11,14,0.7,0.7
2023-05-17T21:00:00,1610A,120.8695,40.7677,葫芦岛市,东城区,,26,22,54,18,28,196,48,133,65,46,26,10,20,0.6,0.7
2023-05-17T21:00:00,1611A,118.5819,24.9117,泉州市,涂山街,,28,17,26,19,26,124,60,101,78,15,17,6,7,0.6,0.7
2023-05-17T21:00:00,1612A,118.5972,24.8978,泉州市,津头埔,,19,17,28,9,23,126,60,108,74,20,24,6,7,0.5,0.5
2023-05-17T21:00:00,1613A,118.6663,24.9424,泉州市,万安,,26,26,41,14,32,120,68,96,83,4,16,6,7,0.5,0.6
2023-05-17T21:00:00,1614A,118.6117,24.9604,泉州市,清源山,,,,,,,,,,,,,,,,
2023-05-17T21:00:00,1616A,117.6795,36.229,济南市,技术学院,颗粒物(PM10),85,119,64,51,30,195,155,184,182,30,16,13,12,0.9,0.7
2023-05-17T21:00:00,1618A,118.3429,35.0532,临沂市,沂河小区,,46,46,62,16,37,171,101,160,152,15,20,8,14,0.2,0.3
2023-05-17T21:00:00,1619A,118.295,35.0583,临沂市,鲁南制药厂,,39,39,62,22,27,183,103,170,160,11,17,12,18,0.1,0.3
2023-05-17T21:00:00,1620A,118.2794,34.9976,临沂市,新光毛纺厂,,37,34,62,17,35,179,117,162,158,9,21,5,16,0.3,0.5
2023-05-17T21:00:00,1621A,118.3956,35.0888,临沂市,河东保险公司,,,,54,,34,171,94,159,148,14,19,,15,0,0.3
2023-05-17T21:00:00,1622A,116.3032,37.4674,德州市,儿童乐园,颗粒物(PM10),51,51,59,27,31,149,99,131,121,10,8,5,6,0.5,0.6
2023-05-17T21:00:00,1624A,116.2991,37.4451,德州市,监理站,颗粒物(PM10),56,62,55,24,26,148,98,130,122,15,12,5,8,0.4,0.4
2023-05-17T21:00:00,1625A,115.9848,36.4372,聊城市,区政府,颗粒物(PM10),71,92,58,31,26,150,93,144,138,16,8,8,9,0.5,0.3
2023-05-17T21:00:00,1628A,118.0062,37.3803,滨州市,市环保局,颗粒物(PM10),62,73,80,28,38,191,94,170,141,11,21,7,10,0.5,0.6
2023-05-17T21:00:00,1629A,118.0018,37.3617,滨州市,第二水厂,颗粒物(PM10),59,68,83,29,34,198,93,174,146,16,28,4,7,0.7,0.7
2023-05-17T21:00:00,1630A,117.9776,37.393,滨州市,北中新校,颗粒物(PM10),64,77,75,29,36,182,90,165,136,15,26,8,11,0.7,0.7
2023-05-17T21:00:00,1631A,118.0414,36.8103,淄博市,人民公园,细颗粒物(PM2.5),120,75,65,91,46,230,107,195,180,22,13,9,12,0.4,0.5
2023-05-17T21:00:00,1633A,117.8525,36.4847,淄博市,双山,颗粒物(PM10),70,90,60,48,31,189,148,176,171,19,13,6,10,0.4,0.4
2023-05-17T21:00:00,1634A,117.9592,36.6331,淄博市,气象站,颗粒物(PM10),68,85,66,46,34,206,137,179,173,18,12,4,8,0.4,0.5
2023-05-17T21:00:00,1635A,118.3092,36.8194,淄博市,莆田园,颗粒物(PM10),65,80,70,31,37,200,115,188,177,19,19,8,13,0.3,0.6
2023-05-17T21:00:00,1637A,117.558,34.8438,枣庄市,市中区政府,颗粒物(PM10),63,75,78,36,38,184,163,173,173,20,25,9,12,0.4,0.5
2023-05-17T21:00:00,1638A,117.2852,34.7837,枣庄市,薛城环保局,颗粒物(PM10),55,59,77,36,38,180,136,169,166,25,26,7,11,0.4,0.7
2023-05-17T21:00:00,1639A,117.5852,34.7745,枣庄市,峄城区政府,颗粒物(PM10),60,70,74,27,32,175,129,162,158,16,20,12,15,0.3,0.4
2023-05-17T21:00:00,1640A,117.7276,34.5578,枣庄市,台儿庄区环保局,颗粒物(PM10),58,66,62,24,33,181,74,165,149,55,23,10,16,0.5,0.5
2023-05-17T21:00:00,1641A,117.4518,35.0992,枣庄市,山亭区环保局,臭氧1小时,70,68,55,39,32,176,176,166,166,18,16,8,10,0.3,0.3
2023-05-17T21:00:00,1642A,121.2514,37.5639,烟台市,开发区,,33,17,46,7,32,184,104,180,131,11,17,4,7,0.5,0.6
2023-05-17T21:00:00,1643A,121.3719,37.5433,烟台市,轴承厂,,35,24,51,12,28,180,109,180,136,4,9,1,3,0.3,0.5
2023-05-17T21:00:00,1644A,121.3181,37.5436,烟台市,西郊化工站,,34,19,55,9,29,191,107,187,139,4,10,2,4,0.3,0.4
2023-05-17T21:00:00,1645A,121.4478,37.4822,烟台市,莱山环保局,,34,29,52,9,26,169,107,153,126,5,10,3,4,0.3,0.4
2023-05-17T21:00:00,1646A,121.2611,37.4967,烟台市,福山环保局,,33,19,56,9,28,188,103,175,140,10,17,4,7,0.1,0.2
2023-05-17T21:00:00,1650A,119.1437,36.7023,潍坊市,环保局,,36,27,68,12,35,200,113,184,164,10,23,7,11,0.3,0.6
2023-05-17T21:00:00,1653A,116.6251,35.4302,济宁市,火炬城,,45,34,58,22,27,186,144,174,169,17,8,12,16,0.8,0.8
2023-05-17T21:00:00,1655A,116.5491,35.4042,济宁市,电化厂,颗粒物(PM10),58,66,61,29,30,192,130,172,166,28,12,8,11,0.6,0.6
2023-05-17T21:00:00,1656A,117.1437,36.1937,泰安市,监测站,臭氧1小时,75,63,58,31,29,193,180,183,183,8,12,7,9,0.4,0.5
2023-05-17T21:00:00,1657A,117.0885,36.2017,泰安市,人口学校,臭氧1小时,63,63,59,29,31,172,170,166,166,13,14,6,8,0.4,0.4
2023-05-17T21:00:00,1658A,117.1089,36.1758,泰安市,电力学校,,48,48,53,29,32,181,141,170,165,14,15,9,12,0.3,0.3
2023-05-17T21:00:00,1659A,119.471,35.4209,日照市,监测站,,36,9,59,7,34,157,115,137,120,9,29,3,7,0.1,0.4
2023-05-17T21:00:00,1660A,119.523,35.4216,日照市,市政府广场,,37,19,69,6,33,158,116,133,120,4,28,4,10,0.1,0.5
2023-05-17T21:00:00,1661A,119.5587,35.4044,日照市,港务局,,38,17,70,6,33,146,119,128,121,4,29,4,10,0.2,0.5
2023-05-17T21:00:00,1662A,122.1214,37.4236,威海市,华夏技校,,35,17,35,12,22,159,111,153,114,6,11,2,4,0.2,0.3
2023-05-17T21:00:00,1663A,122.0508,37.5236,威海市,山大分校,,,,48,,23,171,,159,127,7,9,5,6,0.3,0.3
2023-05-17T21:00:00,1664A,122.1067,37.5072,威海市,市监测站,,36,17,44,12,24,194,114,184,124,4,11,6,7,0.4,0.5
2023-05-17T21:00:00,1666A,118.6614,37.4309,东营市,市环保局,,46,46,68,29,36,228,103,184,150,16,27,8,13,0.1,0.3
2023-05-17T21:00:00,1669A,113.5824,24.7733,韶关市,市八中,颗粒物(PM10),52,53,33,33,22,128,97,112,112,30,17,22,13,0.7,0.6
2023-05-17T21:00:00,1671A,113.5917,24.7972,韶关市,园林处,,39,39,33,21,19,120,98,107,107,21,13,17,10,0.6,0.6
2023-05-17T21:00:00,1672A,113.6735,24.7791,韶关市,韶关学院,颗粒物(PM10),57,64,41,28,22,135,123,123,123,18,17,16,20,0.6,0.6
2023-05-17T21:00:00,1673A,113.5971,24.6863,韶关市,曲江监测站,,,55,34,38,20,136,124,125,125,13,13,9,9,,0.5
2023-05-17T21:00:00,1674A,116.6794,23.3667,汕头市,金平子站,,,4,11,10,9,96,43,94,65,,9,4,4,0.7,0.7
2023-05-17T21:00:00,1675A,116.7244,23.3633,汕头市,龙湖子站,,19,8,13,9,9,107,60,105,78,14,10,3,3,0.6,0.5
2023-05-17T21:00:00,1676A,116.7258,23.2775,汕头市,濠江子站,,20,12,15,14,7,104,60,98,81,11,10,9,7,0.8,0.6
2023-05-17T21:00:00,1677A,116.7519,23.4714,汕头市,澄海子站,,20,20,14,11,11,106,50,98,73,21,13,5,4,0.7,0.6
2023-05-17T21:00:00,1678A,116.6092,23.2539,汕头市,潮阳子站,,20,10,16,13,14,98,63,95,75,7,6,8,8,0.6,0.5
2023-05-17T21:00:00,1680A,110.3539,21.2706,湛江市,湛江影剧院,颗粒物(PM10),52,53,41,28,24,120,90,114,109,16,13,7,8,0.6,0.6
2023-05-17T21:00:00,1681A,110.3928,21.2228,湛江市,市环境监测站,颗粒物(PM10),53,56,39,20,21,114,83,109,104,19,12,17,8,0.6,0.5
2023-05-17T21:00:00,1682A,110.4019,21.1997,湛江市,环保局宿舍,颗粒物(PM10),56,62,35,28,20,118,88,112,108,18,14,9,6,0.5,0.5
2023-05-17T21:00:00,1683A,110.4111,21.2028,湛江市,霞山游泳场,颗粒物(PM10),72,93,42,50,23,116,83,110,107,24,15,11,8,0.4,0.4
2023-05-17T21:00:00,1684A,110.3316,21.2679,湛江市,麻章区环保局,颗粒物(PM10),60,69,43,20,23,124,80,117,111,24,16,16,7,0.6,0.6
2023-05-17T21:00:00,1685A,110.4558,21.2567,湛江市,坡头区环保局,细颗粒物(PM2.5),65,57,33,47,20,125,60,108,96,36,15,12,8,0.6,0.5
2023-05-17T21:00:00,1686A,111.0286,21.4688,茂名市,电白南海,,34,34,25,19,14,80,52,72,69,9,5,5,5,0.5,0.5
2023-05-17T21:00:00,1687A,110.9294,21.6533,茂名市,茂石化七小,,50,50,30,20,15,98,56,86,81,12,9,8,8,0.5,0.5
2023-05-17T21:00:00,1688A,110.9107,21.6687,茂名市,健康路,,31,31,26,20,10,110,61,98,93,11,6,5,5,0.6,0.6
2023-05-17T21:00:00,1689A,110.8592,21.6828,茂名市,高岭,,46,46,32,22,18,114,66,98,95,11,7,4,4,0.4,0.4
2023-05-17T21:00:00,1690A,116.1231,24.3284,梅州市,梅江月梅,,26,26,13,16,10,84,56,80,72,9,8,5,4,0.6,0.6
2023-05-17T21:00:00,1691A,116.0797,24.2719,梅州市,梅县新城,,,17,14,17,14,83,,79,73,10,9,4,4,0.5,0.5
2023-05-17T21:00:00,1692A,116.1248,24.2654,梅州市,环境监控中心,,25,25,21,12,12,84,55,80,73,15,16,3,3,0.5,0.5
2023-05-17T21:00:00,1693A,115.3653,22.775,汕尾市,市环保局,,25,25,16,9,2,85,50,80,68,3,2,6,6,0.6,0.6
2023-05-17T21:00:00,1694A,115.3706,22.7898,汕尾市,市政府,,20,20,18,8,7,93,59,84,70,6,6,4,4,0.5,0.5
2023-05-17T21:00:00,1695A,115.3622,22.7925,汕尾市,新城中学,,40,40,16,5,5,166,59,85,75,4,4,6,6,0.6,0.5
2023-05-17T21:00:00,1696A,114.6778,23.7569,河源市,源西,,42,22,18,29,13,98,60,86,83,16,12,3,4,0.8,0.7
2023-05-17T21:00:00,1697A,114.6944,23.7586,河源市,东埔,,30,30,22,20,12,95,60,84,78,14,13,5,5,0.6,0.5
2023-05-17T21:00:00,1698A,114.6892,23.7233,河源市,老城,,36,36,33,22,14,96,64,84,80,12,13,4,4,0.5,0.5
2023-05-17T21:00:00,1699A,111.9797,21.8593,阳江市,鸳鸯湖,,33,21,19,23,13,116,59,75,69,3,4,7,6,0.6,0.6
2023-05-17T21:00:00,1701A,111.9491,21.8658,阳江市,马南垌,,27,27,20,16,12,117,54,77,67,4,5,4,4,0.5,0.6
2023-05-17T21:00:00,1702A,113.0426,23.691,清远市,环保大楼,,29,29,24,18,16,167,81,120,120,11,20,4,5,0.7,0.8
2023-05-17T21:00:00,1703A,113.0208,23.7106,清远市,凤城街办,,35,35,35,20,20,164,80,117,117,12,19,4,3,0.5,0.6
2023-05-17T21:00:00,1705A,116.6367,23.6719,潮州市,西园路,,46,33,19,32,15,75,35,63,60,21,11,5,4,0.7,0.4
2023-05-17T21:00:00,1706A,116.6447,23.6706,潮州市,档案局,,29,26,18,20,12,102,34,87,72,17,6,6,5,0.8,0.5
2023-05-17T21:00:00,1708A,116.3701,23.5345,揭阳市,新兴,,22,22,16,10,9,78,43,71,59,14,9,6,6,0.7,0.6
2023-05-17T21:00:00,1709A,116.3264,23.5443,揭阳市,西马,,26,26,20,10,10,82,44,73,59,14,11,7,5,0.7,0.7
2023-05-17T21:00:00,1710A,116.3611,23.5626,揭阳市,东兴,,32,32,21,10,9,87,50,74,64,9,8,3,3,0.8,0.8
2023-05-17T21:00:00,1711A,116.4151,23.5294,揭阳市,渔湖,,28,18,16,19,10,85,47,80,66,9,6,5,5,0.7,0.6
2023-05-17T21:00:00,1712A,112.0392,22.9169,云浮市,新市府,,30,30,26,21,15,92,66,87,84,4,6,3,2,0.7,0.7
2023-05-17T21:00:00,1714A,112.0539,22.9539,云浮市,牧羊,,44,44,37,23,19,88,52,81,77,25,15,8,11,0.6,0.6
2023-05-17T21:00:00,1715A,102.575,24.3711,玉溪市,东风水库,颗粒物(PM10),61,71,41,22,22,132,116,128,126,13,13,8,8,0.5,0.6
2023-05-17T21:00:00,1718A,115.4208,35.2464,菏泽市,气象局,颗粒物(PM10),54,58,55,23,26,146,110,141,136,22,13,6,7,0.5,0.5
2023-05-17T21:00:00,1719A,115.4747,35.2375,菏泽市,市政协,,46,46,52,25,29,152,112,144,140,15,9,4,8,0.4,0.4
2023-05-17T21:00:00,1721A,113.3819,40.1097,大同市,果树场,颗粒物(PM10),51,51,80,20,20,121,82,110,108,21,14,1,7,0.4,0.4
2023-05-17T21:00:00,1723A,113.2994,40.0758,大同市,云冈宾馆,颗粒物(PM10),54,57,103,16,29,120,90,115,113,27,17,7,10,0.4,0.6
2023-05-17T21:00:00,1724A,113.3444,40.0917,大同市,大同大学,颗粒物(PM10),53,56,99,18,29,114,72,106,102,29,16,23,11,0.5,0.6
2023-05-17T21:00:00,1725A,113.2661,40.1269,大同市,安家小村,,45,45,131,20,44,119,87,112,108,20,9,6,8,0.2,0.3
2023-05-17T21:00:00,1726A,113.2711,40.0844,大同市,教育学院,颗粒物(PM10),53,55,111,21,28,116,87,110,108,26,18,9,12,0.4,0.5
2023-05-17T21:00:00,1727A,113.1147,36.1547,长治市,清华站,,39,23,69,27,51,215,114,180,130,23,23,15,13,0.7,0.8
2023-05-17T21:00:00,1728A,113.1031,36.1989,长治市,监测站,颗粒物(PM10),66,81,85,29,43,201,109,155,131,26,20,19,12,0.8,0.9
2023-05-17T21:00:00,1730A,113.0886,36.2125,长治市,审计局,颗粒物(PM10),64,78,78,29,45,204,116,152,132,22,20,16,15,0.6,0.8
2023-05-17T21:00:00,1731A,113.0844,36.1856,长治市,长治八中,颗粒物(PM10),77,104,95,26,42,216,113,163,137,17,16,12,10,0.6,0.8
2023-05-17T21:00:00,1733A,111.5531,36.0783,临汾市,临钢医院,颗粒物(PM10),71,92,82,29,33,147,107,126,120,19,29,4,7,0.3,0.6
2023-05-17T21:00:00,1734A,111.5028,36.0714,临汾市,技工学校,颗粒物(PM10),66,82,84,20,32,182,114,148,136,13,32,3,10,0.2,0.7
2023-05-17T21:00:00,1736A,111.5018,36.0855,临汾市,市委,颗粒物(PM10),71,91,92,21,36,174,114,142,136,16,34,2,7,0.3,0.8
2023-05-17T21:00:00,1738A,113.5758,37.8572,阳泉市,市中心,颗粒物(PM10),67,84,89,40,29,206,137,156,156,16,34,9,13,0.8,0.8
2023-05-17T21:00:00,1739A,113.4894,37.8731,阳泉市,赛鱼,颗粒物(PM10),90,130,90,32,31,197,137,151,151,15,36,10,10,0.9,0.9
2023-05-17T21:00:00,1740A,113.5819,37.8486,阳泉市,南庄,颗粒物(PM10),85,120,111,36,33,211,140,160,160,18,33,10,15,0.8,0.8
2023-05-17T21:00:00,1742A,113.5614,37.8703,阳泉市,平坦,颗粒物(PM10),70,90,97,48,40,201,134,151,151,16,34,8,10,0.7,0.7
2023-05-17T21:00:00,1743A,113.5158,37.8392,阳泉市,大阳泉,颗粒物(PM10),71,92,75,44,37,198,145,153,153,15,19,10,11,0.8,0.7
2023-05-17T21:00:00,1744A,118.9233,42.2816,赤峰市,松山一中,,41,41,66,16,21,96,56,88,82,43,29,11,12,0.5,0.4
2023-05-17T21:00:00,1745A,118.9576,42.2728,赤峰市,哈达街,,42,42,56,17,15,106,62,95,87,39,19,14,16,0.4,0.3
2023-05-17T21:00:00,1746A,118.8788,42.2554,赤峰市,天义路,,25,24,44,11,13,108,80,96,94,26,18,12,13,0.4,0.4
2023-05-17T21:00:00,1748A,123.044,41.1196,鞍山市,深沟寺,,37,37,56,23,32,160,36,141,57,19,16,7,8,0.6,0.6
2023-05-17T21:00:00,1749A,123.011,41.0931,鞍山市,太阳城,,37,37,54,23,30,163,39,123,60,24,18,7,8,0.8,0.8
2023-05-17T21:00:00,1750A,123.0485,41.1442,鞍山市,太平,颗粒物(PM10),57,64,64,39,34,156,42,139,60,31,25,10,11,0.7,0.5
2023-05-17T21:00:00,1751A,122.9642,41.0971,鞍山市,铁西三道街,,42,42,80,24,41,145,49,139,56,32,32,5,12,0.9,1.3
2023-05-17T21:00:00,1752A,122.9341,41.0833,鞍山市,铁西工业园区,细颗粒物(PM2.5),64,68,79,46,42,139,24,122,47,50,39,10,18,1.4,1.4
2023-05-17T21:00:00,1753A,123.022,41.0821,鞍山市,明达新区,,33,33,54,21,30,163,48,147,67,25,18,6,7,0.6,0.5
2023-05-17T21:00:00,1754A,123.1289,41.0228,鞍山市,千山,,,,,,,,,,,,,,,,
2023-05-17T21:00:00,1755A,123.7977,41.8491,抚顺市,望花区,,26,22,29,18,23,138,50,126,64,22,20,3,5,0.0,0.1
2023-05-17T21:00:00,1756A,123.9161,41.8822,抚顺市,顺城区,,29,22,28,20,19,130,51,130,63,17,18,3,5,0.2,0.2
2023-05-17T21:00:00,1757A,124.0436,41.8611,抚顺市,东洲区,,20,20,28,12,20,138,51,131,73,18,13,7,7,0.3,0.1
2023-05-17T21:00:00,1758A,123.9247,41.8642,抚顺市,新抚区,,23,19,29,16,21,125,36,113,61,22,17,7,8,0.4,0.5
2023-05-17T21:00:00,1759A,124.0972,41.8961,抚顺市,大伙房水库,,15,12,20,8,14,142,47,139,73,16,10,4,6,0.2,0.3
2023-05-17T21:00:00,1760A,123.7086,41.8391,抚顺市,沈抚新城,细颗粒物(PM2.5),54,32,32,38,25,139,40,118,62,28,21,6,8,0.4,0.5
2023-05-17T21:00:00,1761A,123.8275,41.3064,本溪市,大峪,,25,25,49,11,21,140,42,127,65,30,20,5,7,0.7,0.8
2023-05-17T21:00:00,1762A,123.7567,41.3325,本溪市,溪湖,,25,25,59,10,25,139,51,123,70,23,24,7,16,0.4,0.9
2023-05-17T21:00:00,1763A,123.7169,41.3094,本溪市,彩屯,,27,27,58,16,30,138,52,126,63,19,29,12,33,0.4,1.3
2023-05-17T21:00:00,1764A,123.7669,41.2864,本溪市,东明,,24,24,41,15,23,164,45,158,63,43,25,6,8,0.6,0.7
2023-05-17T21:00:00,1765A,123.7992,41.2664,本溪市,新立屯,,26,16,50,18,25,155,45,132,65,28,19,7,12,0.8,0.7
2023-05-17T21:00:00,1766A,123.8142,41.3472,本溪市,威宁,,23,22,49,16,30,124,41,105,55,28,23,5,6,0.5,0.6
2023-05-17T21:00:00,1767A,121.1115,41.0879,锦州市,南山,,46,32,44,32,30,182,34,173,62,29,20,6,12,0.5,0.5
2023-05-17T21:00:00,1768A,121.0533,40.8434,锦州市,开发区,细颗粒物(PM2.5),54,38,52,38,29,187,38,156,55,34,25,36,14,0.5,0.4
2023-05-17T21:00:00,1769A,121.1836,41.1119,锦州市,百股街道,,42,33,44,29,24,190,21,160,62,32,21,7,36,0.7,0.6
2023-05-17T21:00:00,1770A,121.1178,41.1222,锦州市,天安街道,,49,49,51,34,27,165,37,165,66,38,23,14,21,0.6,0.5
2023-05-17T21:00:00,1771A,121.1303,41.1386,锦州市,北湖公园,,40,32,42,28,30,160,51,156,72,27,17,5,11,0.7,0.5
2023-05-17T21:00:00,1772A,126.54,43.8622,吉林市,哈达湾,,26,24,82,18,56,64,61,60,60,17,28,4,11,0.8,0.9
2023-05-17T21:00:00,1773A,126.5844,43.8358,吉林市,东局子,细颗粒物(PM2.5),59,60,81,42,56,66,50,55,55,22,31,5,9,0.7,0.9
2023-05-17T21:00:00,1774A,126.5052,43.8245,吉林市,电力学院,,36,36,71,25,46,76,60,65,65,20,24,7,10,0.7,0.7
2023-05-17T21:00:00,1775A,126.6133,43.8972,吉林市,江北,,48,48,81,31,51,63,36,50,50,18,27,6,8,0.7,0.8
2023-05-17T21:00:00,1776A,126.555,43.8306,吉林市,江南公园,,29,24,77,20,56,65,65,62,62,15,31,5,8,0.7,0.8
2023-05-17T21:00:00,1778A,126.7061,43.7133,吉林市,丰满,,,,,,,,,,,,,,,,
2023-05-17T21:00:00,1779A,123.9305,47.3636,齐齐哈尔市,安居小区,,39,39,27,9,10,91,71,87,82,22,16,4,3,0.5,0.3
2023-05-17T21:00:00,1780A,123.9488,47.3386,齐齐哈尔市,中心广场,,40,40,26,7,5,83,68,79,76,19,14,6,6,0.4,0.3
2023-05-17T21:00:00,1781A,123.9483,47.3227,齐齐哈尔市,农牧车辆厂,,44,44,33,10,7,92,88,88,87,7,13,5,5,0.2,0.2
2023-05-17T21:00:00,1783A,123.945,47.2988,齐齐哈尔市,市环境监测站,,28,27,36,14,16,93,87,89,89,7,14,7,7,0.3,0.3
2023-05-17T21:00:00,1784A,129.61,44.561,牡丹江市,环保大楼,,28,26,32,19,22,96,39,83,63,30,16,4,5,0.4,0.3
2023-05-17T21:00:00,1785A,129.6115,44.5782,牡丹江市,文化广场,,36,35,36,25,24,98,43,78,64,30,19,5,6,0.5,0.5
2023-05-17T21:00:00,1786A,129.5904,44.5963,牡丹江市,第一医院,,38,38,35,25,24,107,51,79,68,24,15,3,4,0.4,0.4
2023-05-17T21:00:00,1787A,129.6364,44.6075,牡丹江市,机车工厂,,29,29,33,10,16,100,41,74,65,27,12,3,4,0.3,0.3
2023-05-17T21:00:00,1788A,129.6386,44.5462,牡丹江市,第一中学,,38,38,36,21,20,103,30,88,47,23,13,1,3,0.4,0.4
2023-05-17T21:00:00,1789A,124.81117,46.03138,大庆市,大同区,,22,22,29,10,10,90,68,86,80,14,10,4,4,0.3,0.3
2023-05-17T21:00:00,1790A,125.129,46.533,大庆市,龙凤区,,28,28,29,13,11,97,71,96,86,29,16,5,4,0.5,0.8
2023-05-17T21:00:00,1791A,124.902,46.408,大庆市,红岗区,,27,27,24,18,12,92,66,90,84,20,12,4,4,0.4,0.4
2023-05-17T21:00:00,1792A,125.153,46.586,大庆市,萨尔图区,,43,43,26,19,13,80,54,76,69,36,14,6,6,0.3,0.3
2023-05-17T21:00:00,1793A,124.9042,46.6215,大庆市,让胡路区,,25,17,19,17,15,91,62,85,79,28,10,6,6,0.3,0.2
2023-05-17T21:00:00,1794A,118.3606,31.3519,芜湖市,监测站,,22,20,32,15,20,96,52,96,60,34,26,6,6,0.7,0.6
2023-05-17T21:00:00,1795A,118.3714,31.4134,芜湖市,科创中心,,20,20,28,11,19,88,51,88,60,28,25,4,5,1.1,0.9
2023-05-17T21:00:00,1796A,118.3673,31.3131,芜湖市,四水厂,,33,33,26,18,17,89,59,88,53,31,25,7,7,0.8,0.7
2023-05-17T21:00:00,1798A,118.5092,31.6837,马鞍山市,湖东路四小,,45,34,30,31,27,97,34,89,57,36,17,8,6,0.9,0.7
2023-05-17T21:00:00,1799A,118.5024,31.6449,马鞍山市,开发区,,33,30,35,23,22,94,34,81,54,33,21,6,6,0.9,0.8
2023-05-17T21:00:00,1800A,118.5228,31.7231,马鞍山市,慈湖,,47,47,36,21,24,98,4,86,47,64,25,7,8,0.8,0.7
2023-05-17T21:00:00,1802A,118.6245,31.7241,马鞍山市,濮塘,,20,7,21,14,20,93,30,88,56,20,11,5,6,1.2,1.2
2023-05-17T21:00:00,1803A,115.9872,29.6815,九江市,十里,,32,27,20,22,13,126,73,101,96,22,12,11,10,0.8,0.6
2023-05-17T21:00:00,1804A,115.9584,29.7046,九江市,茅山头,,39,39,21,26,16,133,62,100,93,32,15,7,7,0.8,0.6
2023-05-17T21:00:00,1805A,115.9877,29.7295,九江市,西园,,30,19,15,21,16,115,44,92,82,55,18,9,7,0.7,0.6
2023-05-17T21:00:00,1806A,116.0172,29.6547,九江市,五七二七厂,,29,25,22,20,16,112,79,104,84,9,8,6,7,0.6,0.4
2023-05-17T21:00:00,1808A,115.9114,29.6038,九江市,综合工业园,,29,26,22,20,17,122,78,97,89,25,31,10,9,0.9,0.8
2023-05-17T21:00:00,1809A,116.0721,29.7535,九江市,石化总厂,,44,44,24,20,15,112,20,84,71,68,17,8,9,0.7,0.6
2023-05-17T21:00:00,1810A,115.9773,29.5698,九江市,庐山气象台,,33,12,9,7,8,114,105,109,108,6,5,7,6,1.0,0.8
2023-05-17T21:00:00,1812A,112.3931,34.6516,洛阳市,市委党校,颗粒物(PM10),54,58,65,32,35,223,115,181,168,15,12,2,4,0.7,0.7
2023-05-17T21:00:00,1814A,112.4657,34.6871,洛阳市,豫西宾馆,颗粒物(PM10),56,61,73,38,38,216,114,180,158,17,13,3,6,0.7,0.8
2023-05-17T21:00:00,1815A,112.494,34.6886,洛阳市,河南林校,颗粒物(PM10),55,59,65,34,36,231,118,188,173,16,14,8,12,0.6,0.6
2023-05-17T21:00:00,1816A,112.3844,34.623,洛阳市,开发区管委会,颗粒物(PM10),51,52,60,35,34,244,114,193,177,15,10,4,7,0.4,0.4
2023-05-17T21:00:00,1817A,112.4267,34.6258,洛阳市,市委新办公区,细颗粒物(PM2.5),58,55,61,41,40,228,111,184,168,14,12,7,11,0.6,0.6
2023-05-17T21:00:00,1818A,114.4839,36.0621,安阳市,棉研所,颗粒物(PM10),63,76,78,33,36,180,84,152,137,14,8,7,8,0.5,0.6
2023-05-17T21:00:00,1819A,114.3551,36.1017,安阳市,红庙街,颗粒物(PM10),56,62,81,27,36,202,114,178,168,17,15,4,9,0.3,0.5
2023-05-17T21:00:00,1820A,114.361,36.0681,安阳市,银杏小区,,,36,72,33,37,169,,150,147,,14,10,15,0.5,0.7
2023-05-17T21:00:00,1824A,114.3389,34.7781,开封市,肿瘤医院,颗粒物(PM10),51,51,40,18,19,165,85,146,138,19,8,6,6,0.6,0.6
2023-05-17T21:00:00,1826A,114.2885,34.7965,开封市,世纪星幼儿园,,47,47,40,16,20,158,94,143,136,20,11,5,4,0.7,0.6
2023-05-17T21:00:00,1828A,113.227,35.2125,焦作市,市环保局,颗粒物(PM10),79,108,84,41,36,193,134,174,168,26,24,14,11,0.8,0.7
2023-05-17T21:00:00,1830A,113.1992,35.2590,焦作市,影视城,细颗粒物(PM2.5),62,62,64,44,41,188,145,165,157,12,14,12,13,0.8,0.9
2023-05-17T21:00:00,1832A,113.3257,33.742,平顶山市,新华旅馆,,,96,37,,17,177,,151,148,16,11,5,4,0.4,0.4
2023-05-17T21:00:00,1833A,113.2919,33.737,平顶山市,规划设计院,颗粒物(PM10),82,114,37,30,18,174,129,151,146,12,11,7,6,0.5,0.4
2023-05-17T21:00:00,1834A,113.182,33.774,平顶山市,平顶山工学院,颗粒物(PM10),111,172,29,29,12,163,141,144,144,10,6,4,4,0.4,0.3
2023-05-17T21:00:00,1835A,111.1922,34.7752,三门峡市,市政府,颗粒物(PM10),63,76,83,33,33,172,108,156,146,22,26,10,10,0.4,0.6
2023-05-17T21:00:00,1836A,111.1587,34.7942,三门峡市,开发区,颗粒物(PM10),72,93,84,29,33,166,119,155,148,13,24,6,8,0.4,0.6
2023-05-17T21:00:00,1838A,111.143,34.7955,三门峡市,风景区,颗粒物(PM10),63,75,74,29,39,173,124,162,154,13,19,10,10,0.5,0.5
2023-05-17T21:00:00,1840A,111.2992,30.6981,宜昌市,白龙岗,,46,46,25,19,12,152,116,131,131,29,21,7,6,0.5,0.4
2023-05-17T21:00:00,1841A,111.3549,30.6465,宜昌市,伍家岗,,42,42,27,27,14,161,99,137,136,43,25,7,6,0.7,0.6
2023-05-17T21:00:00,1842A,111.2628,30.6961,宜昌市,点军区,,47,47,27,24,8,155,110,130,130,33,16,7,6,0.6,0.4
2023-05-17T21:00:00,1843A,111.3275,30.7819,宜昌市,夷陵区,,37,37,28,17,10,154,112,138,137,28,17,7,6,0.4,0.4
2023-05-17T21:00:00,1844A,112.2494,30.3197,荆州市,市图书馆,,41,41,25,25,15,162,102,144,142,21,11,7,6,0.7,0.6
2023-05-17T21:00:00,1845A,112.2008,30.3544,荆州市,市委党校,,42,41,24,29,15,170,110,144,142,29,11,8,6,0.6,0.5
2023-05-17T21:00:00,1847A,113.1094,29.3578,岳阳市,南湖风景区,,39,34,29,27,20,116,46,104,98,34,9,8,8,1.1,0.7
2023-05-17T21:00:00,1848A,113.1493,29.4251,岳阳市,城陵矶,,38,38,26,25,19,102,53,90,84,40,20,5,5,0.6,0.5
2023-05-17T21:00:00,1849A,113.1497,29.3575,岳阳市,开发区,,38,38,26,20,15,110,68,101,96,24,15,7,7,0.7,0.6
2023-05-17T21:00:00,1850A,113.2621,29.4758,岳阳市,云溪区,,38,38,25,23,18,114,44,103,93,18,17,7,8,0.9,0.7
2023-05-17T21:00:00,1851A,112.9943,29.4402,岳阳市,君山区,,33,32,23,23,20,118,77,105,105,30,15,7,6,0.5,0.4
2023-05-17T21:00:00,1852A,113.2117,29.355,岳阳市,金凤水库,,39,29,27,27,19,107,77,96,94,6,5,1,3,0.8,0.8
2023-05-17T21:00:00,1854A,111.6975,28.9703,常德市,市二中,,,28,22,20,16,131,,120,120,,5,6,8,0.5,0.4
2023-05-17T21:00:00,1857A,111.7158,29.1456,常德市,白鹤山,,23,7,21,12,12,116,72,97,93,4,2,7,7,0.4,0.4
2023-05-17T21:00:00,1858A,110.5319,29.1217,张家界市,永定新区,,33,33,20,19,9,117,35,107,96,33,10,4,3,0.2,0.1
2023-05-17T21:00:00,1859A,110.4697,29.1242,张家界市,电业局,颗粒物(PM10),59,68,22,23,11,122,35,107,96,41,9,3,3,0.4,0.2
2023-05-17T21:00:00,1860A,110.5594,29.3547,张家界市,未央路,,22,22,19,11,11,106,33,96,82,20,10,3,4,0.2,0.2
2023-05-17T21:00:00,1861A,110.4417,29.315,张家界市,袁家界,,,,13,0,7,103,81,94,92,4,4,7,7,0.5,0.5
2023-05-17T21:00:00,1862A,110.4144,25.3167,桂林市,电子科大尧山校区,,47,47,38,31,25,127,69,108,104,8,7,4,4,0.7,0.7
2023-05-17T21:00:00,1863A,110.2819,25.2697,桂林市,监测站,细颗粒物(PM2.5),78,89,43,57,31,121,21,108,98,65,8,5,5,1.0,0.5
2023-05-17T21:00:00,1864A,110.3089,25.2708,桂林市,龙隐路小学,,,60,41,35,28,116,,106,106,14,10,6,5,0.6,0.5
2023-05-17T21:00:00,1865A,110.2869,25.2178,桂林市,八中,细颗粒物(PM2.5),85,94,42,63,26,114,39,99,90,31,11,3,4,0.5,0.3
2023-05-17T21:00:00,1866A,109.2262,21.588,北海市,牛尾岭水库,,43,43,33,24,17,113,95,106,106,6,7,9,7,0.7,0.7
2023-05-17T21:00:00,1867A,109.1436,21.4086,北海市,海滩公园,颗粒物(PM10),60,69,49,27,17,124,120,116,116,5,6,3,3,0.3,0.4
2023-05-17T21:00:00,1868A,109.0981,21.4661,北海市,新市环保局,,49,49,39,24,19,124,119,117,117,4,7,2,2,0.5,0.6
2023-05-17T21:00:00,1869A,109.1778,21.5233,北海市,北海工业园,,42,37,42,29,24,126,118,121,121,6,10,4,4,0.5,0.5
2023-05-17T21:00:00,1870A,109.4856,24.3895,柳州市,柳东小学,,,53,38,40,27,136,113,124,124,12,7,24,7,,0.5
2023-05-17T21:00:00,1871A,109.4157,24.3277,柳州市,环保监测站,颗粒物(PM10),54,58,43,32,24,128,74,118,114,31,12,4,4,0.7,0.5
2023-05-17T21:00:00,1872A,109.389,24.341,柳州市,河西水厂,颗粒物(PM10),52,54,43,34,26,107,50,102,96,45,14,5,5,1.0,0.5
2023-05-17T21:00:00,1873A,109.4311,24.2921,柳州市,市四中,颗粒物(PM10),59,68,42,29,21,136,58,123,117,36,11,7,7,1.2,0.8
2023-05-17T21:00:00,1874A,109.4006,24.3631,柳州市,市九中,颗粒物(PM10),61,71,48,30,23,124,61,112,106,35,12,8,7,0.6,0.4
2023-05-17T21:00:00,1875A,109.4958,24.3134,柳州市,古亭山,细颗粒物(PM2.5),57,41,43,40,27,124,65,112,107,22,7,3,2,0.5,0.4
2023-05-17T21:00:00,1876A,109.5078,18.2489,三亚市,河东子站,,42,38,21,29,13,99,74,91,90,12,6,5,4,0.4,0.4
2023-05-17T21:00:00,1877A,109.4964,18.2681,三亚市,河西子站,,34,34,26,21,13,96,70,92,88,12,9,2,2,0.3,0.3
2023-05-17T21:00:00,1878A,104.7778,31.4741,绵阳市,富乐山,,,,55,,39,232,,201,201,27,21,4,5,0.4,0.4
2023-05-17T21:00:00,1879A,104.7563,31.4535,绵阳市,市人大,,,81,60,59,44,203,,191,191,53,39,11,6,0.6,0.6
2023-05-17T21:00:00,1880A,104.6697,31.4668,绵阳市,高新区自来水公司,细颗粒物(PM2.5),79,104,90,58,46,231,147,213,206,50,47,9,8,0.6,0.6
2023-05-17T21:00:00,1881A,104.7287,31.5075,绵阳市,三水厂,细颗粒物(PM2.5),73,78,83,53,55,235,149,209,204,53,46,8,6,0.6,0.8
2023-05-17T21:00:00,1882A,104.563,28.793,宜宾市,石马中学,细颗粒物(PM2.5),79,89,79,58,54,168,149,160,160,17,33,6,6,0.8,0.7
2023-05-17T21:00:00,1883A,104.6201,28.7728,宜宾市,市委,细颗粒物(PM2.5),99,111,92,74,57,167,121,156,152,34,43,9,10,0.8,0.7
2023-05-17T21:00:00,1884A,104.6055,28.793,宜宾市,宜宾四中,细颗粒物(PM2.5),104,101,96,78,67,162,128,154,152,29,48,9,12,0.8,0.7
2023-05-17T21:00:00,1885A,104.639,28.7562,宜宾市,市政府,细颗粒物(PM2.5),99,96,92,74,60,184,143,170,167,25,54,8,11,0.8,0.7
2023-05-17T21:00:00,1886A,104.5742,28.7199,宜宾市,黄金嘴,细颗粒物(PM2.5),109,110,84,82,56,167,133,158,157,30,43,10,9,0.8,0.7
2023-05-17T21:00:00,1888A,101.6891,26.571,攀枝花市,弄弄坪,,37,29,32,20,18,166,118,143,141,19,16,8,16,0.5,1
2023-05-17T21:00:00,1889A,101.5769,26.5928,攀枝花市,河门口,,41,27,30,15,17,150,131,141,139,12,22,6,16,0.5,1
2023-05-17T21:00:00,1890A,101.7169,26.585,攀枝花市,炳草岗,,38,38,35,13,18,162,90,142,133,36,28,6,10,1.1,1.2
2023-05-17T21:00:00,1891A,101.7369,26.5008,攀枝花市,仁和,,48,48,20,20,17,141,83,135,130,33,14,7,7,0.8,0.5
2023-05-17T21:00:00,1893A,105.4324,28.9634,泸州市,九狮山,细颗粒物(PM2.5),59,43,42,42,28,183,124,165,160,19,23,7,9,0.5,0.3
2023-05-17T21:00:00,1894A,105.4427,28.9063,泸州市,小市上码头,颗粒物(PM10),52,54,61,34,40,181,128,169,162,17,19,7,16,0.6,0.7
2023-05-17T21:00:00,1895A,105.4241,28.8573,泸州市,兰田宪桥,颗粒物(PM10),54,57,60,31,41,203,139,188,180,14,19,15,11,0.7,0.8
2023-05-17T21:00:00,1896A,105.4379,28.8833,泸州市,市环监站,颗粒物(PM10),51,52,54,24,33,184,130,168,163,21,27,5,15,0.6,0.7
2023-05-17T21:00:00,1901A,104.4239,31.1208,德阳市,东山公园,颗粒物(PM10),69,88,95,46,60,260,163,224,223,36,32,3,5,0.6,0.7
2023-05-17T21:00:00,1902A,104.3826,31.1317,德阳市,西小区,"颗粒物(PM10),细颗粒物(PM2.5)",70,90,108,51,69,251,153,215,212,28,39,3,3,0.5,0.6
2023-05-17T21:00:00,1904A,104.3553,31.1091,德阳市,耐火材料厂,,,,119,,76,267,,235,235,42,38,3,9,0.7,0.9
2023-05-17T21:00:00,1905A,106.056,30.8064,南充市,西山风景区,,47,47,31,31,25,149,124,140,139,17,12,6,7,0.5,0.4
2023-05-17T21:00:00,1906A,106.0789,30.8023,南充市,南充市委,颗粒物(PM10),72,93,50,36,22,156,40,146,128,82,28,14,10,0.9,0.5
2023-05-17T21:00:00,1907A,106.1031,30.8217,南充市,南充炼油厂,颗粒物(PM10),54,58,53,32,25,162,82,144,134,42,22,15,11,0.7,0.5
2023-05-17T21:00:00,1908A,106.1064,30.7856,南充市,高坪区监测站,颗粒物(PM10),70,90,45,44,26,156,48,145,126,72,30,31,13,0.8,0.5
2023-05-17T21:00:00,1909A,106.0642,30.7636,南充市,嘉陵区环保局,颗粒物(PM10),61,72,48,36,29,160,55,148,128,66,32,12,19,0.9,0.6
2023-05-17T21:00:00,1910A,106.1087,30.8388,南充市,市环境监测站,颗粒物(PM10),54,58,49,32,31,166,74,152,140,58,23,15,11,0.7,0.5
2023-05-17T21:00:00,1911A,106.9222,27.6869,遵义市,丁字口,,32,28,39,22,32,138,42,127,107,50,29,6,9,0.7,0.6
2023-05-17T21:00:00,1912A,106.9242,27.7019,遵义市,凤凰山,,42,36,37,21,25,159,133,154,148,13,17,7,10,0.3,0.4
2023-05-17T21:00:00,1913A,106.8906,27.6486,遵义市,忠庄,细颗粒物(PM2.5),52,43,48,36,33,157,115,146,137,14,21,5,4,0.2,0.5
2023-05-17T21:00:00,1914A,106.9231,27.6506,遵义市,舟水桥,细颗粒物(PM2.5),60,62,55,43,30,153,66,143,127,32,20,3,3,0.5,0.5
2023-05-17T21:00:00,1915A,106.9178,27.72,遵义市,干田坝,,46,46,38,11,21,157,80,148,132,30,22,5,7,0.4,0.5
2023-05-17T21:00:00,1916A,103.7897,25.5035,曲靖市,环境监测站,,50,50,34,16,11,158,147,153,153,14,11,4,6,0.5,0.5
2023-05-17T21:00:00,1917A,103.8,25.5364,曲靖市,烟厂办公区,臭氧1小时,59,38,30,17,13,185,167,172,172,13,11,5,10,0.4,0.5
2023-05-17T21:00:00,1918A,108.7197,34.3956,咸阳市,气象站,颗粒物(PM10),64,77,71,32,32,135,83,112,101,21,26,6,6,0.7,0.9
2023-05-17T21:00:00,1919A,108.673,34.3155,咸阳市,实验中学,颗粒物(PM10),74,97,89,36,31,139,47,114,93,40,21,6,5,0.6,0.6
2023-05-17T21:00:00,1920A,108.7233,34.3617,咸阳市,师范学院,颗粒物(PM10),69,87,86,28,28,141,80,114,100,30,26,8,7,0.5,0.5
2023-05-17T21:00:00,1922A,109.0656,35.0994,铜川市,党校,颗粒物(PM10),52,53,80,5,20,106,87,101,100,20,26,10,10,0.5,0.6
2023-05-17T21:00:00,1923A,109.0697,35.0697,铜川市,王益区政府,,43,43,58,15,23,110,80,102,98,20,20,5,6,0.2,0.3
2023-05-17T21:00:00,1924A,108.9344,34.9058,铜川市,新区管委会,,33,24,71,18,28,117,105,113,102,19,17,6,7,0.2,0.3
2023-05-17T21:00:00,1926A,109.4131,36.6275,延安市,枣园,颗粒物(PM10),73,95,65,20,21,129,24,123,101,58,23,6,6,0.3,0.3
2023-05-17T21:00:00,1927A,109.4761,36.6028,延安市,延大医附院,,,121,67,15,18,118,,112,94,62,49,4,5,0.5,0.5
2023-05-17T21:00:00,1929A,109.5056,36.6106,延安市,百米大道,颗粒物(PM10),76,102,71,37,25,115,14,110,88,80,34,7,7,0.8,0.5
2023-05-17T21:00:00,1930A,107.185,34.3063,宝鸡市,庙沟村,,41,41,69,19,26,123,103,120,106,1,6,7,8,0.2,0.2
2023-05-17T21:00:00,1931A,107.0708,34.3017,宝鸡市,竹园沟,,40,40,64,24,25,119,70,95,81,18,15,6,7,0.4,0.4
2023-05-17T21:00:00,1932A,107.1906,34.3672,宝鸡市,三陆医院,,40,40,74,18,30,117,60,117,83,35,27,6,8,0.4,0.5
2023-05-17T21:00:00,1933A,107.1431,34.3547,宝鸡市,监测站,,37,37,64,21,30,109,70,101,86,20,20,6,7,0.3,0.3
2023-05-17T21:00:00,1934A,107.1186,34.3739,宝鸡市,技工学校,,44,44,63,25,32,116,47,116,84,20,15,4,6,0.4,0.4
2023-05-17T21:00:00,1935A,107.3906,34.3528,宝鸡市,陈仓区环保局家属楼,颗粒物(PM10),56,61,77,32,32,116,62,105,91,28,23,6,8,0.5,0.6
2023-05-17T21:00:00,1936A,107.2058,34.3497,宝鸡市,文理学院,,49,49,71,15,34,120,68,120,93,27,20,5,6,0.5,0.5
2023-05-17T21:00:00,1937A,107.2386,34.3622,宝鸡市,三迪小学,颗粒物(PM10),55,60,78,18,30,128,61,128,88,36,23,5,6,0.4,0.4
2023-05-17T21:00:00,1938A,109.5293,34.5101,渭南市,农科所,颗粒物(PM10),65,80,64,31,31,147,78,129,104,21,22,9,10,0.5,0.5
2023-05-17T21:00:00,1939A,109.4974,34.4877,渭南市,日报社,颗粒物(PM10),71,92,66,37,33,164,61,136,102,49,37,6,8,0.5,0.5
2023-05-17T21:00:00,1940A,109.4636,34.493,渭南市,体育馆,,,,67,32,34,166,,140,107,46,33,7,9,0.4,0.4
2023-05-17T21:00:00,1941A,109.4259,34.5023,渭南市,高新一小,颗粒物(PM10),74,97,83,34,26,159,64,132,100,42,24,4,5,0.5,0.5
2023-05-17T21:00:00,1943A,102.1725,38.5339,金昌市,新川苑,颗粒物(PM10),53,56,53,8,12,134,121,126,126,18,12,9,15,0.6,0.6
2023-05-17T21:00:00,1944A,102.1692,38.5167,金昌市,天庆家园,,47,47,41,17,15,141,126,131,131,14,10,8,12,0.6,0.5
2023-05-17T21:00:00,1945A,98.2908,39.7711,嘉峪关市,气象局,颗粒物(PM10),58,66,45,29,16,131,98,126,124,30,20,1,6,0.2,0.3
2023-05-17T21:00:00,1947A,106.3394,38.817,石嘴山市,沙湖旅游区,颗粒物(PM10),69,87,106,27,29,147,126,139,139,9,10,6,6,0.3,0.2
2023-05-17T21:00:00,1948A,106.3668,39.0145,石嘴山市,大武口朝阳西街,,,81,81,32,29,134,,125,125,24,9,10,7,0.3,0.2
2023-05-17T21:00:00,1949A,106.7704,39.2282,石嘴山市,惠农南大街,颗粒物(PM10),66,81,108,30,35,113,67,111,103,42,16,14,14,0.5,0.5
2023-05-17T21:00:00,1950A,106.7099,39.1325,石嘴山市,红果子镇惠新街,颗粒物(PM10),59,68,88,22,33,118,77,115,108,28,10,6,20,0.4,0.5
2023-05-17T21:00:00,1951A,84.895,45.6094,克拉玛依市,长征新村,,33,28,20,10,6,113,104,107,107,9,6,8,7,0.2,0.2
2023-05-17T21:00:00,1952A,84.8988,45.5893,克拉玛依市,南林小区,,30,25,22,3,9,119,96,110,110,18,10,4,3,0.2,0.2
2023-05-17T21:00:00,1954A,84.905,44.3396,克拉玛依市,独山子区,,48,34,29,19,15,163,151,150,150,8,12,10,10,0.5,0.4
2023-05-17T21:00:00,1955A,85.6979,46.098,克拉玛依市,乌尔禾区商贸楼,,30,30,22,7,9,112,89,106,106,13,7,9,8,0.2,0.2
2023-05-17T21:00:00,1956A,86.1472,41.7538,巴音郭楞州,孔雀公园,颗粒物(PM10),74,97,103,20,23,117,83,110,107,24,21,4,4,0.3,0.3
2023-05-17T21:00:00,1957A,86.1972,41.7166,巴音郭楞州,棉纺厂,颗粒物(PM10),77,104,117,20,29,116,101,109,109,12,21,3,4,0.2,0.3
2023-05-17T21:00:00,1958A,86.2357,41.7173,巴音郭楞州,经济开发区,,,0,121,0,27,116,112,113,113,5,11,2,2,,0.2
2023-05-17T21:00:00,1961A,117.532,36.6868,济南市,东山小学,颗粒物(PM10),80,110,71,49,29,202,135,178,173,29,14,11,10,0.7,0.5
2023-05-17T21:00:00,1966A,120.0405,35.8735,青岛市,黄岛区4号,,38,27,54,7,23,174,119,152,114,4,12,5,6,0.4,0.6
2023-05-17T21:00:00,1982A,122.0693,37.2174,威海市,文登开发区,,35,17,43,9,16,150,109,133,107,6,9,4,4,0.4,0.4
2023-05-17T21:00:00,2031A,113.1817,27.9958,株洲市,云田中学,,31,31,31,19,28,142,89,122,120,19,15,4,4,0.3,0.4
2023-05-17T21:00:00,2054A,114.1099,32.1059,信阳市,平桥分局,,,44,21,27,11,125,,119,118,18,13,6,6,0.5,0.6
2023-05-17T21:00:00,2064A,113.9956,32.1271,信阳市,南湾水厂,,46,46,26,19,11,127,99,115,114,8,5,6,6,0.5,0.4
2023-05-17T21:00:00,2065A,114.0775,32.1195,信阳市,市酿酒公司,,42,42,19,29,18,130,82,123,116,18,9,7,7,0.6,0.5
2023-05-17T21:00:00,2066A,114.0609,32.1399,信阳市,审计局,颗粒物(PM10),60,70,31,34,18,131,72,122,116,28,9,8,8,0.6,0.4
2023-05-17T21:00:00,2067A,114.6613,33.6128,周口市,市环境监测站,,32,24,36,22,21,141,95,137,126,11,9,5,4,0.6,0.5
2023-05-17T21:00:00,2068A,114.6758,33.6347,周口市,周口师范,,31,31,32,17,15,132,96,129,122,12,7,3,4,0.4,0.3
2023-05-17T21:00:00,2069A,114.6546,33.5979,周口市,市运管处,,33,33,31,19,15,140,86,135,124,22,8,11,8,0.7,0.6
2023-05-17T21:00:00,2070A,114.6369,33.6406,周口市,川汇区环保局,,32,28,31,17,15,135,100,131,124,9,8,10,10,0.6,0.5
2023-05-17T21:00:00,2075A,117.6336,24.4674,漳州市,九湖,,,,,,,,,,,,,,,,
2023-05-17T21:00:00,2160A,112.85,35.5051,晋城市,自来水公司,细颗粒物(PM2.5),62,67,91,44,48,201,121,192,174,28,20,14,17,0.9,1.3
2023-05-17T21:00:00,2161A,112.8318,35.4936,晋城市,白云商贸,颗粒物(PM10),91,131,95,44,53,190,104,182,162,33,20,7,10,0.8,1.1
2023-05-17T21:00:00,2162A,112.8508,35.4887,晋城市,市环保局,颗粒物(PM10),69,88,92,44,57,194,112,181,161,34,24,10,12,0.8,1.2
2023-05-17T21:00:00,2163A,112.8676,35.4897,晋城市,技术学院,细颗粒物(PM2.5),64,68,81,46,55,195,118,178,160,28,20,9,12,0.7,1
2023-05-17T21:00:00,2165A,112.8453,35.546,晋城市,白马寺,,,,,,,,,,,,,,,,
2023-05-17T21:00:00,2166A,112.4397,39.3522,朔州市,平朔,颗粒物(PM10),78,105,118,39,47,112,79,108,102,20,13,6,6,0.2,0.3
2023-05-17T21:00:00,2167A,112.4575,39.3617,朔州市,朔唯,,,102,109,23,35,117,,107,107,23,17,13,9,0.6,0.5
2023-05-17T21:00:00,2168A,112.4258,39.3197,朔州市,区政府,颗粒物(PM10),64,77,123,24,50,120,79,113,106,24,9,7,4,0.6,0.3
2023-05-17T21:00:00,2169A,112.4072,39.3278,朔州市,市环保局,颗粒物(PM10),62,74,122,34,48,115,82,103,103,19,15,5,6,0.3,0.3
2023-05-17T21:00:00,2170A,112.4272,39.3681,朔州市,市二中,颗粒物(PM10),68,85,124,42,42,116,59,106,100,38,14,5,5,0.3,0.3
2023-05-17T21:00:00,2171A,112.7532,37.6945,晋中市,锦纶小区,颗粒物(PM10),74,97,86,21,34,145,106,135,129,30,29,11,11,0.3,0.4
2023-05-17T21:00:00,2173A,112.7249,37.7067,晋中市,南都小区,颗粒物(PM10),67,84,94,22,30,151,101,134,126,26,28,9,9,0.6,0.7
2023-05-17T21:00:00,2174A,112.6991,37.6982,晋中市,榆次区政府,颗粒物(PM10),68,86,89,16,25,139,87,130,122,40,32,9,11,0.4,0.5
2023-05-17T21:00:00,2175A,110.9956,35.0147,运城市,运城中学,颗粒物(PM10),71,92,81,19,30,165,95,144,128,17,10,7,7,0.5,0.7
2023-05-17T21:00:00,2178A,110.9686,35.0303,运城市,地区技校,颗粒物(PM10),74,98,78,28,30,166,99,145,127,16,12,6,8,0.3,0.5
2023-05-17T21:00:00,2179A,111.0414,35.1147,运城市,空港新区,颗粒物(PM10),81,112,94,31,37,175,93,148,129,21,16,15,12,0.5,0.7
2023-05-17T21:00:00,2181A,112.7383,38.4519,忻州市,开发区,颗粒物(PM10),68,86,90,16,29,135,98,130,124,15,15,6,13,0.3,0.2
2023-05-17T21:00:00,2182A,112.7003,38.4928,忻州市,会展中心,颗粒物(PM10),72,93,93,23,32,121,74,112,103,32,25,5,8,0.3,0.4
2023-05-17T21:00:00,2183A,111.1406,37.5211,吕梁市,环保局,颗粒物(PM10),76,102,108,19,23,138,21,127,100,72,34,9,10,0.6,0.4
2023-05-17T21:00:00,2185A,111.1297,37.5136,吕梁市,自来水公司,颗粒物(PM10),74,97,107,10,20,132,65,123,114,36,24,5,7,0.7,0.5
2023-05-17T21:00:00,2187A,106.8174,39.6973,乌海市,市林业局,颗粒物(PM10),60,69,79,16,23,118,81,114,109,11,6,8,9,0.6,0.5
2023-05-17T21:00:00,2188A,106.7907,39.6667,乌海市,中海勃湾学校,,,86,76,27,23,124,81,115,111,,5,8,8,0.5,0.3
2023-05-17T21:00:00,2191A,122.2532,43.6801,通辽市,艺术职业学校,,,,83,19,26,105,69,100,93,20,16,6,7,0.3,0.3
2023-05-17T21:00:00,2192A,119.7594,49.2261,呼伦贝尔市,区环保局,,26,20,34,10,18,92,83,88,86,4,11,4,4,0.2,0.3
2023-05-17T21:00:00,2195A,107.4212,40.761,巴彦淖尔市,附二中,,50,50,72,10,13,135,115,128,128,13,9,4,6,0.4,0.4
2023-05-17T21:00:00,2196A,107.37,40.7372,巴彦淖尔市,市环保大楼,颗粒物(PM10),56,62,85,28,28,131,124,127,127,11,9,4,5,0.4,0.4
2023-05-17T21:00:00,2197A,113.1306,40.9923,乌兰察布市,集宁新区,,30,28,64,18,21,117,95,114,111,7,6,11,11,0.4,0.4
2023-05-17T21:00:00,2200A,122.0392,46.0656,兴安盟,胜华新制药厂,,40,40,27,25,19,93,66,90,84,16,11,9,4,0.5,0.3
2023-05-17T21:00:00,2201A,121.9504,46.0741,兴安盟,科右前旗环保局,,36,30,21,25,15,92,41,90,79,43,11,3,3,0.3,0.1
2023-05-17T21:00:00,2202A,116.1042,43.9317,锡林郭勒盟,市环保监测站,,23,23,18,2,5,105,57,103,94,20,4,13,13,0.2,0.2
2023-05-17T21:00:00,2203A,116.0781,43.9311,锡林郭勒盟,市政府,,22,15,19,4,4,107,69,103,97,25,8,8,7,0.2,0.2
2023-05-17T21:00:00,2204A,105.6467,38.8363,阿拉善盟,西城区西花园,,47,47,62,16,25,113,85,112,107,24,9,8,8,0.5,0.4
2023-05-17T21:00:00,2205A,105.6985,38.8411,阿拉善盟,蒙二幼,,39,39,60,14,28,120,96,119,115,20,7,5,5,0.3,0.2
2023-05-17T21:00:00,2206A,105.724,38.8516,阿拉善盟,环保局新楼,,34,27,52,16,28,120,107,118,115,13,5,7,7,0.4,0.4
2023-05-17T21:00:00,2207A,121.6094,41.998,阜新市,工业园区,细颗粒物(PM2.5),65,77,53,47,18,92,19,81,67,24,16,13,18,1.1,0.8
2023-05-17T21:00:00,2208A,121.6697,42.0279,阜新市,长青街,细颗粒物(PM2.5),64,51,44,46,19,80,18,68,59,39,23,12,41,1.0,0.7
2023-05-17T21:00:00,2209A,121.6673,42.0705,阜新市,农业园区,,40,28,33,28,16,84,41,75,62,22,14,14,22,0.7,0.8
2023-05-17T21:00:00,2210A,121.6717,42.0224,阜新市,东苑,细颗粒物(PM2.5),60,49,44,43,21,84,44,76,69,44,25,12,53,1.0,0.8
2023-05-17T21:00:00,2211A,121.6506,42.0498,阜新市,玉龙新城,颗粒物(PM10),53,55,38,36,16,94,11,82,60,45,20,10,18,1.0,0.8
2023-05-17T21:00:00,2212A,123.2,41.1953,辽阳市,宏伟区,,28,23,38,19,24,150,37,128,51,25,18,10,12,0.7,0.7
2023-05-17T21:00:00,2213A,123.1683,41.2495,辽阳市,新华园,,43,39,47,30,31,148,39,112,52,23,21,13,16,0.7,0.7
2023-05-17T21:00:00,2214A,123.2354,41.2639,辽阳市,滨河路,,45,30,49,31,34,129,33,90,52,31,28,6,8,0.8,0.8
2023-05-17T21:00:00,2215A,123.149,41.2991,辽阳市,铁西工业园,,38,38,47,26,32,152,14,103,52,48,22,6,10,0.5,0.5
2023-05-17T21:00:00,2216A,123.8139,42.3022,铁岭市,汇工街西,,29,27,27,20,22,94,42,65,55,13,15,4,7,0.4,0.4
2023-05-17T21:00:00,2217A,123.8649,42.2923,铁岭市,水上乐园,,29,22,26,19,18,86,9,49,35,57,26,5,5,0.5,0.5
2023-05-17T21:00:00,2218A,123.8486,42.2867,铁岭市,银州路东段,,30,30,38,19,18,87,12,58,42,54,25,7,7,0.4,0.4
2023-05-17T21:00:00,2219A,123.7153,42.2217,铁岭市,金沙江路北,,30,28,27,21,21,84,36,58,47,15,19,7,7,0.5,0.5
2023-05-17T21:00:00,2220A,120.4318,41.5881,朝阳市,西梁,,,,13,,8,94,19,88,67,49,15,7,7,0.9,0.7
2023-05-17T21:00:00,2221A,120.4521,41.5646,朝阳市,河畔小区,,22,22,34,10,10,104,59,93,79,12,12,9,10,0.6,0.6
2023-05-17T21:00:00,2222A,120.4176,41.5648,朝阳市,八里堡,,34,34,48,14,11,103,34,98,74,40,16,6,7,0.8,0.7
2023-05-17T21:00:00,2223A,120.3806,41.5969,朝阳市,农业园区,,,47,38,24,13,98,,86,74,52,18,8,11,1.0,0.5
2023-05-17T21:00:00,2225A,124.4002,43.1713,四平市,一商场,,47,47,39,17,22,76,44,66,64,33,26,6,6,0.4,0.4
2023-05-17T21:00:00,2226A,124.388,43.193,四平市,境园,,34,34,37,17,19,71,40,59,58,17,18,7,6,0.2,0.3
2023-05-17T21:00:00,2227A,125.1358,42.8845,辽源市,环保局,,30,29,30,21,22,84,45,77,65,27,19,7,7,0.6,0.6
2023-05-17T21:00:00,2229A,125.9358,41.7173,通化市,光明,,19,14,31,3,18,200,60,198,70,17,13,9,9,0.4,0.4
2023-05-17T21:00:00,2230A,125.9446,41.7325,通化市,铁路,,19,8,27,6,17,193,60,190,70,13,14,9,8,0.3,0.3
2023-05-17T21:00:00,2231A,126.4219,41.9171,白山市,喜丰,,19,11,50,6,23,171,60,163,67,17,21,9,12,0.5,0.7
2023-05-17T21:00:00,2232A,126.4077,41.9419,白山市,环保局,,25,25,44,9,25,191,66,181,65,12,15,10,12,0.3,0.5
2023-05-17T21:00:00,2233A,124.8006,45.1214,松原市,江南,,40,33,30,28,19,115,47,106,96,40,19,6,6,0.5,0.3
2023-05-17T21:00:00,2234A,124.7965,45.1722,松原市,江北,,22,17,27,8,12,114,69,108,100,15,15,3,4,0.4,0.4
2023-05-17T21:00:00,2235A,122.7911,45.6077,白城市,洮北区环保局,,38,38,34,11,9,102,71,99,94,18,10,4,4,0.1,0.2
2023-05-17T21:00:00,2236A,122.8738,45.5725,白城市,市环保局,,,79,40,,11,97,66,95,89,25,13,4,5,0.3,0.3
2023-05-17T21:00:00,2237A,129.47,42.8883,延边朝鲜族自治州,妇幼医院,,20,18,35,14,23,125,62,107,70,10,22,8,9,0.5,0.7
2023-05-17T21:00:00,2238A,129.5055,42.9108,延边朝鲜族自治州,延边医院,,19,14,35,10,20,126,60,113,65,11,24,8,8,0.5,0.7
2023-05-17T21:00:00,2239A,129.3964,42.8881,延边朝鲜族自治州,朝阳川镇医院,,21,16,31,10,18,119,67,106,77,5,17,10,11,0.5,0.6
2023-05-17T21:00:00,2240A,130.9762,45.3001,鸡西市,环保局,,37,37,25,18,17,82,44,72,62,20,16,5,6,0.4,0.4
2023-05-17T21:00:00,2243A,130.9429,45.3039,鸡西市,第一中学,,26,26,19,18,14,83,53,77,68,8,9,4,5,0.3,0.3
2023-05-17T21:00:00,2244A,130.2537,47.3416,鹤岗市,哈啤分公司,,24,14,15,13,9,85,75,83,81,5,7,11,11,0.2,0.2
2023-05-17T21:00:00,2245A,130.2684,47.3086,鹤岗市,斯达机电,,28,28,19,18,13,84,66,81,77,13,9,9,9,0.3,0.2
2023-05-17T21:00:00,2246A,130.3114,47.3388,鹤岗市,东山纸板厂,,30,30,33,15,17,89,62,86,81,25,16,11,11,0.6,0.4
2023-05-17T21:00:00,2247A,130.1097,47.3382,鹤岗市,五号水库,,20,8,13,14,8,92,59,88,82,13,6,7,8,0.1,0.1
2023-05-17T21:00:00,2248A,131.1511,46.6937,双鸭山市,双合村,,40,40,26,12,14,104,73,97,91,13,10,8,8,0.2,0.1
2023-05-17T21:00:00,2249A,131.1652,46.6191,双鸭山市,南小市,,24,24,25,14,13,95,66,86,82,8,9,3,4,0.1,0.2
2023-05-17T21:00:00,2250A,131.1524,46.6554,双鸭山市,环保局,,26,20,27,18,18,95,72,88,85,8,10,7,7,0.3,0.4
2023-05-17T21:00:00,2251A,131.12,46.5656,双鸭山市,苗圃,,27,27,18,13,18,119,82,111,104,6,6,2,3,0.2,0.2
2023-05-17T21:00:00,2252A,128.5159,47.4311,伊春市,环保局,,,,18,,9,76,38,72,64,,11,7,6,0.4,0.4
2023-05-17T21:00:00,2253A,128.9102,47.7412,伊春市,电力嘉园,,26,26,21,16,11,75,57,71,67,12,9,5,6,0.6,0.8
2023-05-17T21:00:00,2254A,129.5029,48.471,伊春市,汤旺河国家公园,,25,16,14,17,16,88,48,82,76,3,2,4,5,1.3,1.2
2023-05-17T21:00:00,2255A,130.2751,46.8028,佳木斯市,佳纺,,31,31,25,12,15,99,72,94,89,8,10,3,4,0.3,0.4
2023-05-17T21:00:00,2256A,130.3995,46.8307,佳木斯市,发电厂,,29,29,20,14,12,98,76,94,90,14,12,7,6,0.2,0.2
2023-05-17T21:00:00,2257A,130.3258,46.7975,佳木斯市,环保局,,22,21,23,7,10,97,70,92,87,13,12,4,4,0.3,0.3
2023-05-17T21:00:00,2258A,130.3648,46.8032,佳木斯市,十一中,,38,38,25,18,9,93,72,88,83,16,14,6,6,0.4,0.4
2023-05-17T21:00:00,2259A,130.3794,46.7588,佳木斯市,四丰,,34,20,17,8,13,150,107,141,134,5,5,1,1,0.3,0.3
2023-05-17T21:00:00,2262A,131.0518,45.8751,七台河市,新一中,,28,28,18,14,10,102,59,92,80,16,12,8,10,0.7,0.7
2023-05-17T21:00:00,2263A,127.4833,50.2524,黑河市,交通局,,19,14,10,9,8,68,59,65,63,10,8,3,5,0.4,0.3
2023-05-17T21:00:00,2264A,127.5144,50.2341,黑河市,环保局,,32,32,14,16,9,69,56,66,64,8,6,2,3,0.4,0.3
2023-05-17T21:00:00,2265A,127.5291,50.2472,黑河市,大黑河岛,,20,20,11,5,4,85,62,76,73,5,3,16,18,0.3,0.2
2023-05-17T21:00:00,2266A,126.9785,46.6365,绥化市,人和东街,,39,39,32,16,14,104,55,97,90,24,11,7,7,0.6,0.4
2023-05-17T21:00:00,2267A,126.964,46.6528,绥化市,党政办公中心,,25,25,30,11,15,113,76,103,98,17,12,5,6,0.3,0.4
2023-05-17T21:00:00,2269A,124.1069,50.4097,大兴安岭地区,科技局,,22,22,12,13,10,97,58,91,85,13,4,7,6,0.3,0.3
2023-05-17T21:00:00,2270A,117.396,32.939,蚌埠市,工人疗养院,,37,37,42,25,23,161,76,136,125,23,16,6,8,0.4,0.5
2023-05-17T21:00:00,2271A,117.3605,32.9427,蚌埠市,百货大楼,,36,36,44,17,20,160,87,137,130,12,10,3,5,0.4,0.5
2023-05-17T21:00:00,2273A,117.4185,32.8911,蚌埠市,蚌埠学院,颗粒物(PM10),53,56,42,27,24,145,56,123,111,35,13,7,7,0.5,0.5
2023-05-17T21:00:00,2274A,117.3533,32.9673,蚌埠市,淮上区政府,颗粒物(PM10),51,51,44,19,23,157,73,136,125,18,8,5,8,0.4,0.4
2023-05-17T21:00:00,2275A,117.3145,32.8977,蚌埠市,高新区,颗粒物(PM10),52,53,42,32,28,158,82,135,127,21,10,6,8,0.6,0.5
2023-05-17T21:00:00,2277A,116.8305,32.7727,淮南市,潘集区政府,,39,39,36,13,25,134,68,108,104,13,10,5,6,0.3,0.3
2023-05-17T21:00:00,2278A,117.0067,32.6524,淮南市,师范学院,,36,36,35,16,26,116,61,97,87,24,10,6,6,0.2,0.4
2023-05-17T21:00:00,2279A,116.8569,32.5951,淮南市,谢家集区政府,,23,20,28,2,13,104,72,96,94,17,13,4,6,0.3,0.2
2023-05-17T21:00:00,2280A,116.8281,32.633,淮南市,八公山区政府,,22,22,37,12,23,95,67,89,84,12,11,6,6,0.3,0.2
2023-05-17T21:00:00,2281A,116.6325,32.6201,淮南市,焦岗湖风景区管理处,,19,15,28,1,15,95,59,81,79,7,4,10,10,0.2,0.2
2023-05-17T21:00:00,2282A,116.8004,33.975,淮北市,监测站,,47,47,56,15,33,168,110,155,147,10,11,4,6,0.4,0.5
2023-05-17T21:00:00,2283A,116.8091,33.9007,淮北市,烈山区政府,,34,31,50,18,33,166,107,156,146,14,15,7,8,0.5,0.6
2023-05-17T21:00:00,2284A,116.7856,33.9477,淮北市,职业技术学院,,46,46,57,16,36,182,117,169,159,13,14,6,7,0.5,0.6
2023-05-17T21:00:00,2285A,117.8177,30.9412,铜陵市,市第四中学,,29,29,31,12,18,93,66,78,71,29,24,5,6,0.4,0.5
2023-05-17T21:00:00,2286A,117.8059,30.9273,铜陵市,市公路局,,24,24,32,9,17,96,69,81,73,20,19,7,7,0.7,0.8
2023-05-17T21:00:00,2287A,117.7807,30.9413,铜陵市,市新民污水厂,,16,16,31,8,16,95,46,75,67,22,25,5,9,0.4,0.6
2023-05-17T21:00:00,2288A,117.7439,30.8792,铜陵市,市第九中学,,23,21,27,7,15,96,72,75,64,20,32,6,7,0.5,0.6
2023-05-17T21:00:00,2289A,117.846,30.9413,铜陵市,车站新区,,20,19,29,1,12,86,64,74,72,20,17,5,5,0.5,0.5
2023-05-17T21:00:00,2290A,117.8483,30.97,铜陵市,市职教基地,,20,10,21,1,12,86,64,70,62,15,17,3,3,0.5,0.3
2023-05-17T21:00:00,2291A,117.0809,30.5177,安庆市,环科院,,25,12,25,5,21,102,79,84,84,8,16,6,7,0.6,0.6
2023-05-17T21:00:00,2292A,117.0331,30.5119,安庆市,马山宾馆,,22,19,27,9,21,88,69,78,73,19,20,8,9,0.8,0.8
2023-05-17T21:00:00,2294A,116.9896,30.6145,安庆市,安庆大学,,26,12,22,4,15,84,81,79,79,4,9,8,8,0.5,0.6
2023-05-17T21:00:00,2295A,118.2903,29.6963,黄山市,延安路89号,,49,49,38,19,14,94,34,86,61,17,8,5,5,0.5,0.4
2023-05-17T21:00:00,2296A,118.327,29.7178,黄山市,黄山东路89号,,26,26,28,13,12,87,36,83,60,11,8,4,4,0.5,0.5
2023-05-17T21:00:00,2297A,118.1371,30.2756,黄山市,黄山区政府5号楼,,19,19,21,5,8,100,20,79,67,10,8,6,6,0.6,0.5
2023-05-17T21:00:00,2298A,118.3093,32.3153,滁州市,老年大学,,40,40,36,22,20,106,54,101,67,26,19,10,10,0.4,0.3
2023-05-17T21:00:00,2299A,118.3244,32.2786,滁州市,人大宾馆,,35,30,33,24,28,101,54,91,69,23,17,6,7,0.5,0.4
2023-05-17T21:00:00,2301A,115.8277,32.8929,阜阳市,市监测站,,27,26,31,18,17,115,86,105,100,20,15,8,7,0.5,0.4
2023-05-17T21:00:00,2303A,115.8554,32.8605,阜阳市,开发区,,39,39,30,17,20,114,77,110,101,18,12,9,8,0.5,0.5
2023-05-17T21:00:00,2307A,116.5079,31.737,六安市,监测大楼,,21,19,18,8,7,109,67,94,80,11,6,3,3,0.4,0.3
2023-05-17T21:00:00,2308A,116.4738,31.7643,六安市,皖西学院,,24,24,18,4,6,110,63,99,83,13,8,4,4,0.4,0.3
2023-05-17T21:00:00,2309A,116.4996,31.7905,六安市,朝阳厂,,,9,10,6,6,102,,94,85,10,6,4,4,0.6,0.5
2023-05-17T21:00:00,2310A,116.5567,31.7886,六安市,开发区,,35,35,24,21,18,102,55,92,82,22,10,5,7,0.6,0.5
2023-05-17T21:00:00,2311A,115.8072,33.8399,亳州市,污水处理厂,,49,49,44,13,22,166,136,150,150,14,7,6,8,0.5,0.6
2023-05-17T21:00:00,2312A,115.7789,33.8518,亳州市,三国揽胜宫,,46,46,43,26,26,151,131,136,136,12,8,5,6,0.6,0.5
2023-05-17T21:00:00,2314A,117.47,30.6618,池州市,池州学院,,23,12,27,9,22,101,71,90,90,14,12,4,5,0.5,0.6
2023-05-17T21:00:00,2316A,118.7581,30.9454,宣城市,鳌峰子站,,20,19,26,11,13,84,62,78,76,24,16,3,5,0.9,0.5
2023-05-17T21:00:00,2317A,118.7385,30.9743,宣城市,敬亭山子站,,19,19,24,12,13,73,37,65,62,36,22,7,5,1.2,0.5
2023-05-17T21:00:00,2318A,118.7173,30.9427,宣城市,开发区子站,,19,19,26,10,16,86,60,78,58,19,12,5,6,0.7,0.5
2023-05-17T21:00:00,2319A,119.0141,25.4325,莆田市,荔城区仓后路,,45,45,54,15,31,123,42,96,85,24,19,6,6,0.8,0.7
2023-05-17T21:00:00,2320A,119.0015,25.4553,莆田市,莆田市监测站,,40,40,50,18,31,126,42,95,77,14,16,6,6,0.9,0.9
2023-05-17T21:00:00,2321A,119.1119,25.4561,莆田市,涵江区六中,,36,36,51,6,33,113,56,97,89,18,20,8,9,0.6,0.7
2023-05-17T21:00:00,2322A,119.1013,25.3215,莆田市,秀屿区政府,,22,19,42,1,28,114,69,103,95,6,14,6,8,0.7,0.8
2023-05-17T21:00:00,2323A,118.981,25.4792,莆田市,东圳水库,,,,,,,,,,,,,,,,
2023-05-17T21:00:00,2324A,117.6211,26.2625,三明市,三钢,,35,35,41,18,33,93,25,76,58,27,19,8,10,0.9,1.1
2023-05-17T21:00:00,2325A,117.635,26.2714,三明市,三明二中,,37,37,39,20,34,97,21,79,59,31,22,6,6,1.0,1.1
2023-05-17T21:00:00,2326A,117.6028,26.2378,三明市,三元区政府,颗粒物(PM10),55,60,45,14,29,100,13,79,56,37,19,8,8,0.8,1
2023-05-17T21:00:00,2327A,117.7275,26.3108,三明市,洋溪,,,,,,,,,,,,,,,,
2023-05-17T21:00:00,2331A,118.0966,26.6761,南平市,茫荡山,,,,,,,,,,,,,,,,
2023-05-17T21:00:00,2332A,118.1681,26.6369,南平市,南平市监测站,,35,31,36,24,31,93,13,85,59,22,15,3,4,1.3,0.9
2023-05-17T21:00:00,2333A,118.1825,26.6489,南平市,南平铝业有限公司,颗粒物(PM10),56,62,43,20,29,93,16,81,59,24,17,8,8,1.1,1
2023-05-17T21:00:00,2334A,118.1756,26.6272,南平市,南平七中,,32,32,39,18,25,106,14,82,52,15,12,4,5,1.0,0.8
2023-05-17T21:00:00,2335A,117.0189,25.1181,龙岩市,龙岩师专,,,,,,,,,,,,,,,,
2023-05-17T21:00:00,2336A,117.0217,25.1033,龙岩市,龙岩市监测站,,34,34,17,17,13,84,37,79,69,20,9,8,7,0.5,0.4
2023-05-17T21:00:00,2337A,117.0258,25.0661,龙岩市,闽西职业技术学院,,31,31,19,11,13,81,28,74,60,24,11,10,8,0.4,0.4
2023-05-17T21:00:00,2338A,117.0196,25.0306,龙岩市,龙岩学院,,23,21,18,16,10,80,39,71,60,9,7,2,6,0.3,0.3
2023-05-17T21:00:00,2339A,119.5001,26.6946,宁德市,金涵水库,,,,,,,,,,,,,,,,
2023-05-17T21:00:00,2341A,119.5388,26.6612,宁德市,宁德市监测站,,39,34,36,27,29,125,97,109,109,13,13,8,8,0.5,0.6
2023-05-17T21:00:00,2342A,117.3102,29.3867,景德镇市,王港中学,,25,19,19,17,18,116,49,111,69,8,5,10,10,0.5,0.5
2023-05-17T21:00:00,2343A,117.2117,29.2933,景德镇市,老干部活动中心,颗粒物(PM10),51,51,43,33,24,84,29,83,45,27,12,14,4,0.6,0.5
2023-05-17T21:00:00,2344A,117.1894,29.2789,景德镇市,兽医站,,32,32,26,21,20,94,48,92,53,24,12,15,7,0.6,0.5
2023-05-17T21:00:00,2345A,117.1547,29.2617,景德镇市,台达陶瓷,,45,43,30,31,20,87,61,81,49,35,18,45,11,0.6,0.5
2023-05-17T21:00:00,2346A,117.2461,29.2956,景德镇市,陶研所,,33,26,36,23,16,90,44,89,51,8,7,4,4,0.4,0.3
2023-05-17T21:00:00,2347A,114.0997,27.5002,萍乡市,武功山,,28,13,11,19,11,86,51,78,66,8,7,11,15,0.5,0.4
2023-05-17T21:00:00,2348A,113.8385,27.6434,萍乡市,中医院,颗粒物(PM10),53,56,50,27,38,71,29,52,52,22,11,5,11,1.0,1.1
2023-05-17T21:00:00,2349A,113.8493,27.6253,萍乡市,市政府车库,,31,31,46,21,35,61,26,50,48,22,11,10,16,0.8,0.8
2023-05-17T21:00:00,2350A,113.8676,27.6435,萍乡市,市环保局,,41,41,46,26,30,62,30,50,50,29,15,10,16,0.9,0.8
2023-05-17T21:00:00,2351A,113.866,27.6198,萍乡市,安源区政府,,36,36,42,23,29,69,37,56,55,14,17,10,18,0.5,0.7
2023-05-17T21:00:00,2352A,115.0861,27.9317,新余市,北岗,,25,21,26,17,21,70,59,64,59,6,8,12,6,0.7,0.6
2023-05-17T21:00:00,2353A,114.9886,27.8431,新余市,飞宇,,39,39,43,18,24,86,73,80,77,17,13,5,5,0.8,0.8
2023-05-17T21:00:00,2354A,114.9231,27.8246,新余市,第二水厂,,32,32,45,16,24,81,74,74,74,8,8,5,8,0.4,0.5
2023-05-17T21:00:00,2355A,114.9308,27.8036,新余市,市气象局,,36,34,72,25,36,88,85,79,79,8,21,7,18,0.8,2.1
2023-05-17T21:00:00,2357A,116.9822,28.1136,鹰潭市,龙虎山,,21,13,22,7,14,84,67,74,74,3,2,2,2,0.7,0.6
2023-05-17T21:00:00,2358A,117.0564,28.2642,鹰潭市,新监测站,,19,18,33,13,21,97,60,84,78,10,8,11,36,0.5,0.7
2023-05-17T21:00:00,2359A,117.0311,28.2475,鹰潭市,财苑宾馆,,20,18,33,4,20,96,63,81,80,11,10,5,24,0.5,0.7
2023-05-17T21:00:00,2360A,117.0222,28.2264,鹰潭市,体育馆,,20,15,33,14,20,93,60,79,78,17,11,2,18,0.5,0.6
2023-05-17T21:00:00,2361A,117.0017,28.2131,鹰潭市,三川水表,,16,16,29,8,16,88,40,76,64,6,13,1,10,0.4,0.7
2023-05-17T21:00:00,2362A,114.9017,25.9149,赣州市,通天岩,,37,37,31,16,14,102,71,92,89,11,11,8,6,1.0,1
2023-05-17T21:00:00,2363A,114.9367,25.8664,赣州市,地委,,45,45,26,27,18,100,66,93,89,18,9,1,10,1.3,1.2
2023-05-17T21:00:00,2364A,114.9461,25.8481,赣州市,气象台,,39,39,25,18,13,105,83,96,95,13,5,5,6,0.7,0.7
2023-05-17T21:00:00,2365A,114.9322,25.8333,赣州市,市图书馆,,43,43,27,23,17,91,65,82,80,17,9,5,6,1.2,1.1
2023-05-17T21:00:00,2366A,114.8905,25.8471,赣州市,华坚鞋城,,46,46,32,25,16,101,61,91,87,14,5,7,7,1.0,0.8
2023-05-17T21:00:00,2367A,114.9754,27.0803,吉安市,红声器材厂,,27,27,39,14,23,103,66,95,76,10,8,10,10,0.6,0.5
2023-05-17T21:00:00,2368A,114.9658,27.0999,吉安市,市森林工业局,,24,24,35,14,22,96,65,93,74,10,7,6,8,0.4,0.5
2023-05-17T21:00:00,2369A,114.99,27.1312,吉安市,市环境监测站,,26,26,35,14,20,98,66,94,79,12,9,9,10,0.4,0.5
2023-05-17T21:00:00,2370A,115.0093,27.0968,吉安市,青原区法院,,27,27,34,16,23,105,64,98,79,17,11,11,12,0.6,0.6
2023-05-17T21:00:00,2371A,114.3408,27.8064,宜春市,槟榔水业,,36,32,45,25,36,61,48,52,52,11,9,16,14,0.6,0.8
2023-05-17T21:00:00,2373A,114.3956,27.7844,宜春市,市石油公司,,33,33,49,23,35,69,49,61,58,19,15,4,4,0.8,0.8
2023-05-17T21:00:00,2374A,114.3703,27.7914,宜春市,市气象局,,39,39,50,25,37,69,52,58,57,17,17,5,6,0.7,0.9
2023-05-17T21:00:00,2375A,114.4013,27.8074,宜春市,市广电局,,44,44,50,24,37,69,55,58,56,15,14,9,10,0.7,0.8
2023-05-17T21:00:00,2376A,116.2127,28.0814,抚州市,桐源党溪,,35,31,32,24,20,88,40,77,65,9,5,1,5,0.8,0.8
2023-05-17T21:00:00,2377A,116.3544,27.9831,抚州市,市站,,43,40,37,30,24,75,52,70,66,10,8,4,3,0.6,0.6
2023-05-17T21:00:00,2378A,116.3565,27.963,抚州市,血防站,颗粒物(PM10),51,51,46,30,22,75,52,68,64,11,9,8,6,0.8,0.8
2023-05-17T21:00:00,2379A,116.3564,28.0007,抚州市,采茶剧团,,45,37,35,31,23,68,44,63,59,12,10,6,6,0.9,0.8
2023-05-17T21:00:00,2380A,116.385,27.9647,抚州市,医学分院,,40,37,36,28,20,71,48,67,63,14,11,6,11,0.8,0.8
2023-05-17T21:00:00,2381A,118.005,28.4572,上饶市,百草园,,20,17,29,2,17,88,64,80,62,2,6,2,6,0.3,0.2
2023-05-17T21:00:00,2382A,117.9756,28.4436,上饶市,市监测站,,22,13,32,6,19,99,69,90,72,17,26,5,15,0.5,0.6
2023-05-17T21:00:00,2383A,117.9519,28.4628,上饶市,凤凰光学,,20,18,33,13,24,93,63,88,68,7,10,4,12,0.7,0.7
2023-05-17T21:00:00,2385A,114.17,35.9019,鹤壁市,市监测站,颗粒物(PM10),53,56,83,34,51,218,124,190,180,24,26,15,7,0.5,0.7
2023-05-17T21:00:00,2386A,114.2956,35.7511,鹤壁市,市交警支队,颗粒物(PM10),56,62,58,32,33,194,105,163,152,25,18,11,7,0.6,0.4
2023-05-17T21:00:00,2387A,114.2878,35.7306,鹤壁市,迎宾馆,颗粒物(PM10),56,62,59,19,31,193,112,162,152,25,18,16,10,0.8,0.7
2023-05-17T21:00:00,2389A,113.836,35.311,新乡市,环保西院,细颗粒物(PM2.5),79,75,60,58,37,169,116,159,152,23,18,6,7,0.8,0.6
2023-05-17T21:00:00,2390A,113.884,35.272,新乡市,开发区,颗粒物(PM10),62,74,55,34,23,172,100,154,147,34,15,3,7,0.7,0.4
2023-05-17T21:00:00,2391A,113.883,35.303,新乡市,环保东院,颗粒物(PM10),64,78,58,34,26,173,135,159,156,23,18,7,7,0.6,0.3
2023-05-17T21:00:00,2392A,115.0312,35.7636,濮阳市,环保局,颗粒物(PM10),51,52,40,20,22,142,100,130,127,20,11,7,7,0.7,0.5
2023-05-17T21:00:00,2394A,115.0574,35.7609,濮阳市,油田运输公司,颗粒物(PM10),61,71,46,23,24,151,98,139,135,30,12,5,5,0.5,0.4
2023-05-17T21:00:00,2395A,115.0866,35.7754,濮阳市,油田物探公司,颗粒物(PM10),52,54,42,25,26,154,115,144,141,19,9,4,4,0.5,0.4
2023-05-17T21:00:00,2396A,113.8276,34.0159,许昌市,监测站,,44,44,29,21,17,160,111,140,138,17,10,4,4,0.5,0.4
2023-05-17T21:00:00,2398A,113.7906,33.9953,许昌市,开发区,,45,45,29,24,14,155,84,136,129,28,7,3,3,0.5,0.4
2023-05-17T21:00:00,2399A,114.051,33.5699,漯河市,三五一五工厂,颗粒物(PM10),52,54,37,27,20,145,120,142,138,12,8,8,8,0.5,0.4
2023-05-17T21:00:00,2400A,114.0055,33.5698,漯河市,漯河大学,,39,38,34,19,20,157,123,146,141,11,10,8,8,0.5,0.4
2023-05-17T21:00:00,2401A,114.0138,33.5828,漯河市,市水利局,颗粒物(PM10),63,75,34,19,19,155,114,143,136,12,8,9,8,0.5,0.4
2023-05-17T21:00:00,2402A,114.0261,33.5698,漯河市,市广电局,,40,37,29,13,17,153,126,144,141,7,8,8,8,0.6,0.5
2023-05-17T21:00:00,2404A,112.5224,33.0122,南阳市,瓦房庄,,40,40,34,12,12,157,78,138,126,28,13,6,6,0.6,0.6
2023-05-17T21:00:00,2405A,112.5003,32.9735,南阳市,汉画馆,,43,43,35,13,16,166,61,139,125,36,16,10,10,0.8,0.7
2023-05-17T21:00:00,2406A,112.5573,33.027,南阳市,气象站,,,28,19,14,12,157,,143,133,32,14,5,4,0.7,0.6
2023-05-17T21:00:00,2407A,112.5481,32.9689,南阳市,理工学院,,34,34,27,20,19,160,92,140,129,20,9,5,5,0.5,0.5
2023-05-17T21:00:00,2408A,115.6702,34.4285,商丘市,环境监测站,,40,35,41,24,29,156,128,146,145,13,8,8,10,0.6,0.5
2023-05-17T21:00:00,2409A,115.6458,34.4045,商丘市,粮食局,,44,38,43,26,29,164,140,154,153,10,6,5,7,0.6,0.5
2023-05-17T21:00:00,2410A,115.6293,34.3948,商丘市,睢阳区环保局,颗粒物(PM10),57,63,42,20,26,154,99,143,138,36,13,4,5,0.6,0.5
2023-05-17T21:00:00,2420A,114.0189,32.9656,驻马店市,市一纸厂,,,,27,26,13,139,100,132,126,11,6,5,2,0.6,0.4
2023-05-17T21:00:00,2421A,114.0114,33.015,驻马店市,市彩印厂,,37,34,25,22,12,141,116,135,132,5,3,3,4,0.3,0.3
2023-05-17T21:00:00,2422A,113.9976,32.9771,驻马店市,天方二分厂,颗粒物(PM10),54,57,26,37,17,138,112,132,128,9,5,9,6,0.4,0.3
2023-05-17T21:00:00,2423A,115.0601,30.2313,黄石市,沈家营,,32,32,34,9,14,90,70,85,84,16,15,5,7,0.6,0.6
2023-05-17T21:00:00,2424A,115.0817,30.2006,黄石市,陈家湾,,38,38,33,17,16,104,68,90,87,13,9,4,4,0.6,0.5
2023-05-17T21:00:00,2426A,114.8988,30.2019,黄石市,铁山,,25,25,24,15,14,101,66,87,84,19,8,4,4,1.0,0.8
2023-05-17T21:00:00,2427A,115.0307,30.2092,黄石市,团城山,,,,26,,10,96,,85,85,16,8,7,7,0.6,0.7
2023-05-17T21:00:00,2428A,111.0419,32.395,十堰市,武当山,,44,44,22,26,12,138,101,125,123,7,6,8,9,0.6,0.5
2023-05-17T21:00:00,2429A,110.78,32.6494,十堰市,滨河新村,颗粒物(PM10),74,97,43,25,24,139,119,128,128,9,13,4,6,0.5,0.6
2023-05-17T21:00:00,2430A,110.7258,32.6389,十堰市,刘家沟,颗粒物(PM10),64,78,35,23,19,144,133,135,135,9,7,8,9,0.7,0.6
2023-05-17T21:00:00,2431A,110.8839,32.5714,十堰市,铁二处,颗粒物(PM10),92,133,33,13,15,168,121,150,148,7,7,7,7,0.5,0.4
2023-05-17T21:00:00,2432A,112.155,32.0197,襄阳市,襄城运动路,细颗粒物(PM2.5),67,66,41,48,21,173,98,157,151,28,12,9,8,0.8,0.6
2023-05-17T21:00:00,2433A,112.1392,32.0564,襄阳市,樊城新华路,,,55,41,26,22,163,120,148,145,,16,7,7,0.6,0.5
2023-05-17T21:00:00,2434A,112.1825,32.1142,襄阳市,高新管委会,,,,42,,25,141,,135,135,29,12,9,9,0.6,0.6
2023-05-17T21:00:00,2435A,112.2106,32.0903,襄阳市,襄州航空路,,44,44,44,11,16,139,96,133,129,20,11,6,6,0.8,0.7
2023-05-17T21:00:00,2436A,114.8938,30.3994,鄂州市,市政府,,20,9,25,14,12,94,56,89,73,24,12,10,10,0.7,0.7
2023-05-17T21:00:00,2437A,114.8989,30.3714,鄂州市,赵家坝,,,,29,,12,101,,88,81,32,12,12,9,0.8,0.8
2023-05-17T21:00:00,2439A,112.2014,31.0481,荆门市,竹园小学,颗粒物(PM10),57,63,36,21,23,174,78,148,142,34,14,10,8,0.9,0.6
2023-05-17T21:00:00,2440A,112.1969,30.9891,荆门市,掇刀,,39,39,30,19,24,162,86,140,134,25,10,9,9,0.5,0.5
2023-05-17T21:00:00,2441A,112.2213,31.0386,荆门市,石化一小,,,37,34,16,21,173,,147,147,24,8,14,8,0.7,0.5
2023-05-17T21:00:00,2443A,113.9153,30.9285,孝感市,文化路,,29,29,20,9,11,98,66,92,90,19,10,8,8,0.8,0.8
2023-05-17T21:00:00,2444A,113.942,30.9075,孝感市,东城区,,32,32,18,14,10,99,71,90,89,16,11,8,8,0.8,0.8
2023-05-17T21:00:00,2446A,114.9028,30.4742,黄冈市,职工中心,,32,32,23,17,15,99,63,88,80,11,6,4,3,0.9,0.6
2023-05-17T21:00:00,2447A,114.3175,29.8142,咸宁市,森林公园,,24,24,17,10,10,90,66,84,82,2,2,3,4,0.5,0.5
2023-05-17T21:00:00,2448A,114.3107,29.8454,咸宁市,市发改委,,34,34,26,19,20,92,70,85,84,11,5,6,4,0.6,0.6
