timepoint,stationcode,longitude,latitude,area,positionname,primarypollutant,aqi,pm10,pm10_24h,pm2_5,pm2_5_24h,o3,o3_24h,o3_8h,o3_8h_24h,no2,no2_24h,so2,so2_24h,co,co_24h
2025-03-19T1600,2566A,102.1879,31.914,阿坝藏族羌族自治州,州农科所,,27,16,19,3,8,85,,68,68,5,13,10,10,0.0,0.1
2025-03-19T1600,2568A,102.2502,31.8896,阿坝藏族羌族自治州,马师校,,30,9,18,3,15,96,,76,76,5,13,5,5,0.4,0.5
2025-03-19T1600,3994A,102.2165,31.9024,阿坝藏族羌族自治州,马尔康中学西区,,31,16,17,7,8,98,,81,81,6,11,5,6,0.3,0.4
2025-03-19T1600,2695A,80.292,41.1694,阿克苏地区,电视台,颗粒物(PM10),186,321,312,69,89,106,,69,69,6,34,6,6,0.2,0.9
2025-03-19T1600,2696A,80.2613,41.1551,阿克苏地区,艺术中心,颗粒物(PM10),195,339,342,60,87,101,,64,64,10,38,5,6,0.3,0.9
2025-03-19T1600,2204A,105.6467,38.8363,阿拉善盟,西城区西花园,,34,9,25,3,10,107,,102,102,6,13,10,10,0.6,0.9
2025-03-19T1600,2205A,105.6985,38.8411,阿拉善盟,蒙二幼,,32,12,15,3,7,101,,93,93,7,9,5,5,0.7,0.8
2025-03-19T1600,2206A,105.724,38.8516,阿拉善盟,环保局新楼,,31,15,10,3,5,99,,96,96,3,5,8,8,0.5,0.4
2025-03-19T1600,2708A,88.1264,47.8517,阿勒泰地区,市站,,30,13,22,8,8,96,,96,91,5,8,3,2,0.2,0.2
2025-03-19T1600,2630A,80.1161,32.5,阿里地区,阿里监测站,,30,8,7,3,5,96,,85,85,5,7,6,7,0.5,0.5
2025-03-19T1600,3192A,80.0903,32.5028,阿里地区,阿里藏医院,,,9,8,3,2,98,,86,86,,3,5,8,0.3,0.4
2025-03-19T1600,2642A,109.0318,32.6537,安康市,香溪洞,,42,42,33,19,19,108,,69,69,8,11,8,11,0.3,0.4
2025-03-19T1600,2644A,109.0072,32.6975,安康市,汉滨区检察院,,37,29,36,16,18,118,,73,73,8,16,8,9,0.3,0.4
2025-03-19T1600,4054A,109.0325,32.6913,安康市,市邮政管理局,,,29,42,11,21,114,,74,74,,22,6,14,0.4,0.5
2025-03-19T1600,2291A,117.0809,30.5177,安庆市,环科院,,37,35,52,16,26,116,,100,100,19,26,9,10,0.3,0.4
2025-03-19T1600,2292A,117.0331,30.5119,安庆市,马山宾馆,,37,27,49,18,26,118,,102,102,20,24,4,6,0.3,0.4
2025-03-19T1600,2294A,116.9896,30.6145,安庆市,安庆大学,颗粒物(PM10),51,51,51,28,24,139,,112,112,17,18,12,7,0.4,0.4
2025-03-19T1600,3173A,117.0598,30.5351,安庆市,市人大,,39,27,50,16,26,124,,101,101,10,22,8,8,0.4,0.5
2025-03-19T1600,3122A,105.9606,26.2611,安顺市,伍家关,,43,20,18,12,10,136,,118,118,5,9,7,14,0.1,0.2
2025-03-19T1600,3123A,105.9408,26.2431,安顺市,凤凰山,,40,27,20,11,13,125,,106,106,8,12,9,16,0.3,0.4
2025-03-19T1600,3124A,105.9439,26.2564,安顺市,金钟山,,37,17,17,10,13,118,,102,102,5,8,12,19,0.3,0.4
2025-03-19T1600,3125A,105.8983,26.2481,安顺市,娄家坡,,38,24,22,18,15,121,,104,104,6,8,8,14,0.2,0.3
2025-03-19T1600,1818A,114.4839,36.0621,安阳市,棉研所,,,,,,,,,,,,,,,,
2025-03-19T1600,1819A,114.3551,36.1017,安阳市,红庙街,颗粒物(PM10),51,51,74,24,35,111,,87,87,7,21,5,7,0.6,0.6
2025-03-19T1600,1820A,114.361,36.0681,安阳市,银杏小区,,45,36,72,31,40,117,,88,88,11,30,5,9,0.4,0.4
2025-03-19T1600,3141A,114.3922,36.0878,安阳市,信访局,,,45,66,28,34,123,,96,96,15,26,,9,0.4,0.4
2025-03-19T1600,3669A,114.4705,36.0637,安阳市,左辅环卫站,颗粒物(PM10),55,60,86,23,39,134,,94,94,8,26,9,7,0.4,0.4
2025-03-19T1600,3703A,114.2917,36.0949,安阳市,安钢职工学校,颗粒物(PM10),54,58,76,29,39,113,,88,88,11,24,6,5,0.4,0.5
2025-03-19T1600,1748A,123.044,41.1196,鞍山市,深沟寺,,,,49,21,23,100,,90,90,16,21,13,12,0.8,0.8
2025-03-19T1600,1749A,123.011,41.0931,鞍山市,太阳城,,35,35,48,20,30,93,,88,88,18,19,9,11,0.7,0.7
2025-03-19T1600,1750A,123.0485,41.1442,鞍山市,太平,颗粒物(PM10),51,52,63,26,34,98,,88,88,17,26,13,13,0.8,0.8
2025-03-19T1600,1751A,122.9642,41.0971,鞍山市,铁西三道街,颗粒物(PM10),55,60,68,34,40,101,,92,92,21,35,10,19,0.8,1
2025-03-19T1600,1753A,123.022,41.0821,鞍山市,明达新区,,39,39,45,23,31,97,,91,91,14,17,10,12,0.5,0.6
2025-03-19T1600,1754A,123.1289,41.0228,鞍山市,千山,,,,44,,19,,,76,,,10,,5,,0.6
2025-03-19T1600,4201A,122.9446,41.0826,鞍山市,兴盛南路290号,颗粒物(PM10),56,62,68,30,37,98,,90,90,26,38,15,15,1.0,1.1
2025-03-19T1600,2195A,107.4212,40.761,巴彦淖尔市,附二中,,35,35,44,11,18,103,,81,81,4,14,6,6,0.6,0.6
2025-03-19T1600,2196A,107.37,40.7372,巴彦淖尔市,市环保大楼,,35,29,43,12,23,109,,89,89,4,21,6,6,0.2,0.3
2025-03-19T1600,1956A,86.1472,41.7538,巴音郭楞蒙古自治州,孔雀公园,颗粒物(PM10),189,328,380,63,82,115,,61,61,6,44,6,6,0.3,0.5
2025-03-19T1600,1957A,86.1972,41.7166,巴音郭楞蒙古自治州,棉纺厂,颗粒物(PM10),252,386,463,79,85,107,,65,65,11,32,4,3,0.3,0.5
2025-03-19T1600,1958A,86.2357,41.7173,巴音郭楞蒙古自治州,经济开发区,颗粒物(PM10),179,308,373,63,71,109,,65,65,7,22,6,5,0.4,0.4
2025-03-19T1600,2914A,106.7677,31.8794,巴中市,苏山坪,,49,49,56,34,40,90,,60,60,15,15,5,5,0.3,0.4
2025-03-19T1600,3181A,106.7768,31.8526,巴中市,市五中,,47,47,56,32,40,91,,50,50,13,17,4,4,0.4,0.5
2025-03-19T1600,3183A,106.7418,31.8654,巴中市,圣泉水务公司,,,45,51,34,37,92,,50,50,11,23,,7,0.5,0.5
2025-03-19T1600,3616A,106.7616,31.8344,巴中市,市中心医院,,46,46,49,26,39,90,,51,51,12,19,6,6,0.3,0.4
2025-03-19T1600,2235A,122.7911,45.6077,白城市,洮北区环保局,细颗粒物(PM2.5),88,68,80,65,56,121,,116,116,12,18,7,6,0.4,0.5
2025-03-19T1600,2236A,122.8738,45.5725,白城市,市环保局,细颗粒物(PM2.5),68,78,64,49,42,129,,134,134,11,19,6,6,0.6,0.5
2025-03-19T1600,2231A,126.4219,41.9171,白山市,喜丰,,35,35,70,18,27,95,,82,82,8,18,7,7,0.7,0.9
2025-03-19T1600,2232A,126.4077,41.9419,白山市,环保局,,31,30,61,15,29,99,,83,83,14,17,8,6,0.9,0.5
2025-03-19T1600,2647A,104.1724,36.5446,白银市,第三小学,,36,36,43,23,20,113,,79,79,11,26,17,36,0.3,0.5
2025-03-19T1600,2648A,104.1465,36.5482,白银市,动力公司,,37,35,33,20,18,118,,90,90,10,19,8,11,0.4,0.6
2025-03-19T1600,2512A,106.6103,23.9011,百色市,市监测站,,30,30,27,20,21,91,,69,69,11,10,8,8,0.5,0.5
2025-03-19T1600,2513A,106.6538,23.8859,百色市,市中心血站,颗粒物(PM10),52,54,31,24,20,98,,74,74,8,9,10,9,0.5,0.6
2025-03-19T1600,3406A,106.6085,23.8798,百色市,祈福高中,,45,45,28,21,16,91,,71,71,10,9,6,6,0.5,0.5
2025-03-19T1600,2270A,117.396,32.939,蚌埠市,工人疗养院,,48,48,66,16,31,131,,109,109,11,29,5,6,0.4,0.5
2025-03-19T1600,2271A,117.3605,32.9427,蚌埠市,百货大楼,,47,47,63,11,31,125,,103,103,16,37,6,7,0.3,0.5
2025-03-19T1600,2273A,117.4185,32.8911,蚌埠市,蚌埠学院,,48,48,60,20,33,129,,109,109,10,31,4,6,0.2,0.4
2025-03-19T1600,2274A,117.3533,32.9673,蚌埠市,淮上区政府,,44,44,69,23,38,131,,108,108,10,34,6,7,0.3,0.4
2025-03-19T1600,2275A,117.3145,32.8977,蚌埠市,高新区,,44,44,71,20,40,127,,106,106,10,38,6,7,0.3,0.4
2025-03-19T1600,3715A,117.3092,32.9314,蚌埠市,蚌埠田家炳中学,颗粒物(PM10),51,51,76,22,36,129,,108,108,19,46,6,14,0.2,0.3
2025-03-19T1600,1585A,109.8756,40.6532,包头市,市环境监测站,,31,30,36,18,16,98,,84,84,8,23,9,18,0.5,0.8
2025-03-19T1600,1587A,109.9991,40.5842,包头市,包头八中,颗粒物(PM10),71,92,53,7,22,97,,77,77,9,42,5,13,0.3,0.7
2025-03-19T1600,1588A,109.8538,40.6821,包头市,青山宾馆,,30,22,33,8,16,96,,82,82,6,22,7,13,0.5,0.7
2025-03-19T1600,1589A,109.8642,40.6288,包头市,惠龙物流,,32,31,35,10,18,101,,88,88,7,25,5,18,0.4,1
2025-03-19T1600,1590A,110.0377,40.5546,包头市,东河鸿龙湾,,39,37,42,27,22,98,,81,81,5,36,6,11,0.4,0.6
2025-03-19T1600,3283A,109.9154,40.5685,包头市,滨河大厦,,31,21,45,3,24,99,,86,86,5,30,8,19,0.4,0.7
2025-03-19T1600,3419A,109.9447,40.6261,包头市,包头市委党校,,,,36,,18,94,,78,78,5,30,5,13,0.4,0.7
2025-03-19T1600,3683A,109.8331,40.6576,包头市,昆区政府,,,25,33,10,20,95,,84,84,8,19,6,15,,0.8
2025-03-19T1600,1930A,107.185,34.3063,宝鸡市,庙沟村,,49,49,26,17,10,117,,95,95,3,12,7,6,0.1,0.2
2025-03-19T1600,1931A,107.0708,34.3017,宝鸡市,竹园沟,细颗粒物(PM2.5),59,52,27,42,19,108,,90,90,14,17,7,6,0.3,0.5
2025-03-19T1600,1932A,107.1906,34.3672,宝鸡市,三陆医院,,40,40,44,13,24,116,,83,83,3,22,4,5,0.3,0.5
2025-03-19T1600,1933A,107.1431,34.3547,宝鸡市,监测站,颗粒物(PM10),59,68,36,19,18,111,,86,86,9,20,7,7,0.4,0.5
2025-03-19T1600,1934A,107.1186,34.3739,宝鸡市,技工学校,,43,43,37,14,19,114,,85,85,6,14,4,5,0.2,0.7
2025-03-19T1600,1935A,107.3906,34.3528,宝鸡市,陈仓区环保局家属楼,,37,32,48,9,29,117,,82,82,9,30,6,36,0.2,0.5
2025-03-19T1600,1936A,107.2058,34.3497,宝鸡市,文理学院,,39,39,36,19,19,115,,87,87,5,20,5,6,0.4,0.5
2025-03-19T1600,1937A,107.2386,34.3622,宝鸡市,三迪小学,,40,40,39,14,22,114,,85,85,13,35,6,6,0.6,0.8
2025-03-19T1600,1051A,115.493,38.8632,保定市,游泳馆,,35,29,46,6,29,112,,82,82,6,30,6,8,0.2,0.4
2025-03-19T1600,1052A,115.5213,38.8959,保定市,华电二区,,36,21,46,3,28,115,,91,91,3,19,4,8,0.1,0.3
2025-03-19T1600,1053A,115.4713,38.9108,保定市,接待中心,,34,27,57,15,33,108,,84,84,10,28,3,6,0.1,0.2
2025-03-19T1600,1054A,115.4612,38.8416,保定市,地表水厂,,36,29,71,3,31,113,,90,90,8,32,4,7,0.2,0.5
2025-03-19T1600,3581A,115.31981,38.95208,保定市,满城区生态环境分局,,35,31,58,12,30,112,,84,84,4,33,3,7,0.3,0.5
2025-03-19T1600,3582A,115.47694,38.76408,保定市,清苑区第二中学,,35,26,62,3,30,109,,77,77,6,28,8,11,0.2,0.4
2025-03-19T1600,3583A,115.62909,39.02311,保定市,徐水物探局,,36,18,57,7,29,115,,91,91,5,30,8,9,0.1,0.3
2025-03-19T1600,4004A,115.4202,38.8656,保定市,双鹰农机,,35,28,58,14,31,112,,92,92,3,28,1,4,0.2,0.6
2025-03-19T1600,4034A,115.5150,38.8590,保定市,植保所站,,36,25,52,14,33,113,,86,86,9,29,5,7,0,0.2
2025-03-19T1600,2594A,99.1678,25.1081,保山市,市环境监测站,细颗粒物(PM2.5),59,54,56,42,45,101,,76,76,11,11,3,4,0.6,0.6
2025-03-19T1600,2595A,99.1711,25.1328,保山市,市环保局,颗粒物(PM10),61,72,58,32,42,104,,76,76,13,10,4,4,0.7,0.6
2025-03-19T1600,1866A,109.2262,21.588,北海市,牛尾岭水库,,,41,47,22,31,113,,85,85,,,6,6,0.5,0.6
2025-03-19T1600,1867A,109.1436,21.4086,北海市,海滩公园,,45,41,47,17,29,143,,111,111,15,13,9,10,0.6,0.4
2025-03-19T1600,1868A,109.0981,21.4661,北海市,新市环保局,,44,38,49,27,37,140,,100,100,15,16,7,10,0.5,0.5
2025-03-19T1600,1869A,109.1778,21.5233,北海市,北海工业园,,46,46,52,24,35,129,,102,102,11,15,9,13,0.4,0.5
2025-03-19T1600,3400A,109.1911,21.4415,北海市,龙潭自来水厂,,46,41,46,32,39,135,,103,103,16,14,9,10,0.4,0.4
2025-03-19T1600,1001A,116.3621,39.8784,北京市,万寿西宫,,34,21,52,8,25,108,,82,82,11,46,2,3,0.1,0.3
2025-03-19T1600,1002A,116.2202,40.2915,北京市,定陵,,,,,,,,,,,,,,,,
2025-03-19T1600,1003A,116.4174,39.9289,北京市,东四,,35,17,47,7,22,109,,85,85,7,34,4,5,0.3,0.5
2025-03-19T1600,1004A,116.4072,39.8863,北京市,天坛,,33,20,46,7,22,104,,78,78,9,32,1,2,0.5,0.6
2025-03-19T1600,1005A,116.462,39.9365,北京市,农展馆,,34,15,49,6,22,106,,82,82,9,32,5,6,0.3,0.5
2025-03-19T1600,1006A,116.3392,39.9295,北京市,官园,,30,21,50,8,23,96,,72,72,10,36,7,8,0.4,0.5
2025-03-19T1600,1007A,116.2878,39.9611,北京市,海淀万柳,,28,18,50,8,20,89,,65,65,11,40,4,4,0.4,0.6
2025-03-19T1600,1008A,116.6636,40.135,北京市,顺义新城,,31,21,38,7,16,97,,72,72,7,37,5,5,0.3,0.4
2025-03-19T1600,1009A,116.6275,40.3275,北京市,怀柔镇,,31,16,21,9,12,97,,73,73,2,15,3,2,0.4,0.5
2025-03-19T1600,1010A,116.2296,40.217,北京市,昌平镇,,29,23,27,8,11,90,,71,71,11,32,2,2,0.4,0.4
2025-03-19T1600,1011A,116.3966,39.9821,北京市,奥体中心,,32,17,46,8,19,100,,75,75,9,37,3,4,0.3,0.6
2025-03-19T1600,3281A,115.9718,40.4529,北京市,延庆夏都,,33,16,23,8,13,104,,81,81,4,15,6,6,0.4,0.4
2025-03-19T1600,3418A,116.8336,40.4095,北京市,密云新城,,31,14,16,8,9,97,,77,77,12,11,4,3,0.4,0.4
2025-03-19T1600,3671A,116.088,39.9726,北京市,门头沟三家店,,39,39,50,11,16,91,,83,83,9,30,4,4,0.3,0.3
2025-03-19T1600,3672A,116.1541,39.8204,北京市,丰台云岗,,35,20,47,16,22,111,,88,88,3,28,4,5,0.3,0.4
2025-03-19T1600,3673A,116.6804,39.9081,北京市,通州东关,,34,25,57,9,24,106,,75,75,14,40,4,5,0.0,0.3
2025-03-19T1600,3674A,115.9577,39.7603,北京市,房山燕山,,31,16,26,6,13,98,,88,88,3,12,5,5,0.3,0.4
2025-03-19T1600,3675A,116.4672,39.7733,北京市,大兴旧宫,,32,21,55,7,22,101,,65,65,8,31,5,3,0.2,0.3
2025-03-19T1600,3694A,115.986,40.4563,北京市,延庆石河营,,33,13,24,6,14,104,,81,81,4,18,5,5,0.3,0.4
2025-03-19T1600,3695A,116.6151,40.3053,北京市,怀柔新城,,31,16,17,8,10,98,,75,75,3,10,5,4,0.4,0.7
2025-03-19T1600,3696A,116.2545,39.8768,北京市,丰台小屯,,30,23,64,9,23,95,,70,70,7,51,2,2,0.1,0.4
2025-03-19T1600,3697A,116.84,40.3844,北京市,密云镇,,33,15,22,7,11,103,,77,77,2,31,4,4,0.2,0.3
2025-03-19T1600,4182A,116.1942,39.9158,北京市,八角北路9号,,34,22,52,8,19,106,,78,78,9,43,2,2,0.2,0.4
2025-03-19T1600,4194A,117.0790,40.1518,北京市,洳河巡河路,,33,11,31,6,17,104,,78,78,13,19,2,2,0.3,0.4
2025-03-19T1600,1761A,123.8275,41.3064,本溪市,大峪,,46,38,66,32,48,112,,89,89,16,27,13,8,0.8,0.7
2025-03-19T1600,1762A,123.7567,41.3325,本溪市,溪湖,颗粒物(PM10),53,56,94,27,58,112,,86,86,16,30,11,11,0.8,1.2
2025-03-19T1600,1763A,123.7169,41.3094,本溪市,彩屯,,47,47,88,28,61,109,,81,81,14,36,11,16,0.8,1.6
2025-03-19T1600,1764A,123.7669,41.2864,本溪市,东明,,,,76,,47,100,,83,83,20,39,13,9,1.0,0.9
2025-03-19T1600,1765A,123.7992,41.2664,本溪市,新立屯,,37,36,52,21,41,118,,100,100,13,33,8,6,0.6,0.8
2025-03-19T1600,1766A,123.8142,41.3472,本溪市,威宁,颗粒物(PM10),55,59,91,20,49,109,,88,88,13,30,10,5,0.9,0.8
2025-03-19T1600,2587A,105.2864,27.3125,毕节市,八中,,29,23,24,14,14,91,,75,75,10,8,13,9,0.4,0.5
2025-03-19T1600,2588A,105.31,27.2944,毕节市,师专,,32,28,24,13,12,100,,75,75,12,11,9,8,0.5,0.5
2025-03-19T1600,4263A,105.3688,27.3598,毕节市,工业大道,,33,20,21,11,14,105,,84,84,9,11,11,9,0.3,0.3
2025-03-19T1600,1629A,118.0018,37.3617,滨州市,第二水厂,颗粒物(PM10),51,51,52,17,20,113,,99,99,4,14,9,9,0.4,0.3
2025-03-19T1600,1630A,117.9776,37.393,滨州市,北中新校,,46,46,51,17,20,121,,108,108,14,25,10,12,0.2,0.3
2025-03-19T1600,3514A,117.9378,37.3956,滨州市,中海酒店,,41,41,51,19,28,123,,110,110,8,21,8,16,0.4,0.5
2025-03-19T1600,3515A,117.9378,37.3553,滨州市,开发区一中,颗粒物(PM10),53,56,55,19,21,121,,106,106,13,27,9,10,0.3,0.3
2025-03-19T1600,3516A,118.0917,37.694,滨州市,金海六路,,49,49,54,17,21,118,,100,100,11,31,6,6,0.6,0.6
2025-03-19T1600,4028A,117.9956,37.3753,滨州市,滨州市西街道办事处,,44,44,44,19,24,121,,109,109,9,17,7,8,0.1,0.4
2025-03-19T1600,2311A,115.8072,33.8399,亳州市,污水处理厂,颗粒物(PM10),58,65,68,21,30,130,,117,117,13,23,4,9,0.2,0.2
2025-03-19T1600,2312A,115.7789,33.8518,亳州市,三国揽胜宫,,50,50,64,17,28,124,,110,110,8,19,5,6,0.4,0.4
2025-03-19T1600,3332A,115.7633,33.8034,亳州市,亳州学院,,45,45,62,29,35,120,,105,105,10,18,5,6,0.3,0.4
2025-03-19T1600,2693A,82.0485,44.8556,博尔塔拉蒙古自治州,市党校,,,71,52,38,27,132,,86,86,14,13,,7,0.6,0.5
2025-03-19T1600,2694A,82.0806,44.8969,博尔塔拉蒙古自治州,市环保局,颗粒物(PM10),58,65,55,20,22,163,,105,105,9,21,7,5,0.6,0.6
2025-03-19T1600,1071A,116.8842,38.2991,沧州市,沧县城建局,,37,37,57,14,30,112,,88,88,7,21,1,3,0.3,0.4
2025-03-19T1600,1072A,116.8584,38.3254,沧州市,电视转播站,,36,29,53,19,27,115,,94,94,8,20,5,4,0.3,0.4
2025-03-19T1600,1073A,116.8709,38.3228,沧州市,市环保局,,35,34,53,12,30,110,,89,89,7,20,8,9,0.3,0.4
2025-03-19T1600,3324A,116.8136,38.3004,沧州市,河北水利电力学院,,33,29,62,19,33,103,,84,84,8,28,2,3,0.2,0.3
2025-03-19T1600,2622A,97.1806,31.1273,昌都市,昌都监测站,,23,13,15,3,9,73,,64,60,2,5,6,7,0.5,0.5
2025-03-19T1600,3719A,97.1714,31.1406,昌都市,昌都会议中心,,,12,15,3,12,93,,79,79,3,4,,3,0.2,0.2
2025-03-19T1600,2690A,88.1236,43.8886,昌吉回族自治州,天山天池,,35,19,19,6,8,109,,98,98,6,6,7,6,1.0,1
2025-03-19T1600,2692A,87.2717,44.0297,昌吉回族自治州,新区政务中心,,50,50,75,19,28,126,,91,91,20,32,8,9,0.5,0.8
2025-03-19T1600,3613A,87.3095,44.0142,昌吉回族自治州,亚心广场,颗粒物(PM10),63,75,98,34,45,127,,83,83,16,27,10,8,0.5,0.8
2025-03-19T1600,1119A,125.3325,43.9166,长春市,食品厂,细颗粒物(PM2.5),90,104,83,67,58,116,,94,94,24,39,11,11,0.7,0.6
2025-03-19T1600,1120A,125.2863,43.9027,长春市,客车厂,细颗粒物(PM2.5),98,97,87,73,65,113,,96,96,24,41,10,9,0.8,0.7
2025-03-19T1600,1121A,125.2841,43.8463,长春市,邮电学院,颗粒物(PM10),74,98,84,49,59,119,,99,99,17,26,12,10,0.6,0.5
2025-03-19T1600,1122A,125.3716,43.8772,长春市,劳动公园,颗粒物(PM10),68,85,71,48,56,118,,98,98,14,24,11,10,0.7,0.9
2025-03-19T1600,1123A,125.3297,43.8805,长春市,园林处,细颗粒物(PM2.5),69,82,82,50,55,116,,98,98,18,32,11,13,0.6,0.6
2025-03-19T1600,1124A,125.4605,43.79,长春市,净月潭,颗粒物(PM10),53,55,73,31,52,109,,102,102,12,13,9,7,0.5,0.5
2025-03-19T1600,1125A,125.7194,43.515,长春市,甩湾子,,,,,,,,,,,,,,,,
2025-03-19T1600,1126A,125.3863,43.8447,长春市,经开区环卫处,颗粒物(PM10),59,68,77,38,54,108,,91,91,16,29,9,7,0.6,0.5
2025-03-19T1600,1127A,125.245,43.7783,长春市,高新区管委会,,,76,76,54,62,113,,95,95,20,31,12,9,,0.6
2025-03-19T1600,1128A,125.1761,43.8325,长春市,岱山公园,细颗粒物(PM2.5),83,98,87,61,64,122,,102,102,20,38,13,12,0.7,0.6
2025-03-19T1600,1335A,113.0833,28.2325,长沙市,经开区环保局,,49,49,49,27,22,156,,124,124,12,29,6,6,0.3,0.4
2025-03-19T1600,1336A,112.8872,28.2189,长沙市,高开区环保局,,47,45,54,19,27,148,,116,116,5,31,5,6,0.4,0.5
2025-03-19T1600,1337A,113.0792,28.2053,长沙市,马坡岭,,50,50,55,29,28,160,,128,128,9,33,6,7,0.7,0.5
2025-03-19T1600,1338A,112.9394,28.19,长沙市,湖南师范大学,颗粒物(PM10),51,52,52,21,25,152,,117,117,5,24,7,6,0.4,0.5
2025-03-19T1600,1339A,113.0178,28.1322,长沙市,雨花区环保局,,50,50,54,26,25,146,,115,115,14,32,7,7,0.4,0.4
2025-03-19T1600,1340A,112.9792,28.2597,长沙市,伍家岭,颗粒物(PM10),52,53,65,16,24,148,,109,109,7,44,5,4,0.3,0.4
2025-03-19T1600,1341A,113.0014,28.1944,长沙市,火车新站,,50,50,56,27,31,156,,117,117,14,39,8,7,0.3,0.4
2025-03-19T1600,1342A,112.9844,28.1178,长沙市,天心区环保局,颗粒物(PM10),52,54,54,26,27,155,,125,125,14,32,4,4,0.3,0.4
2025-03-19T1600,1343A,112.8908,28.1308,长沙市,湖南中医药大学,,46,45,52,23,27,147,,112,112,6,29,5,5,0.0,0.2
2025-03-19T1600,1344A,112.9581,28.3611,长沙市,沙坪,,44,36,31,20,22,138,,110,110,3,8,7,7,0.3,0.4
2025-03-19T1600,1727A,113.1147,36.1547,长治市,清华站,,38,24,43,7,15,120,,99,99,10,31,4,11,0.3,0.7
2025-03-19T1600,1730A,113.0886,36.2125,长治市,审计局,,38,20,39,7,19,119,,90,90,12,30,7,15,0.2,0.4
2025-03-19T1600,1731A,113.0844,36.1856,长治市,长治八中,,39,30,54,13,24,123,,90,90,9,29,7,17,0.3,0.5
2025-03-19T1600,2845A,113.1569,36.1911,长治市,德盛苑,,38,24,32,9,15,119,,96,96,9,17,4,11,0.5,0.8
2025-03-19T1600,3568A,113.06,36.0464,长治市,向阳小学,,42,42,56,13,26,115,,90,90,10,22,8,12,0.3,0.4
2025-03-19T1600,3569A,112.8792,36.3144,长治市,屯留一中,,38,25,35,3,11,119,,99,99,10,31,6,7,0.5,0.5
2025-03-19T1600,4189A,113.1131,36.19948,长治市,英华南巷50号,,38,19,44,7,20,120,,94,94,13,28,11,24,0.4,0.9
2025-03-19T1600,4190A,113.2367,36.3344,长治市,学府街1号,,37,29,60,11,26,117,,99,99,8,42,4,14,0.4,1
2025-03-19T1600,1854A,111.6975,28.9703,常德市,市二中,,38,25,43,13,29,119,,83,83,7,18,5,6,0.3,0.4
2025-03-19T1600,1857A,111.7158,29.1456,常德市,白鹤山,,,,,,,,,,,,,,,,
2025-03-19T1600,3138A,111.7153,29.0289,常德市,武陵区永安,,43,42,58,23,36,136,,100,100,7,28,6,10,0.4,0.5
2025-03-19T1600,3139A,111.6892,28.9881,常德市,鼎城区玉霞,,43,28,46,16,26,136,,98,98,9,28,5,6,0.3,0.4
2025-03-19T1600,3140A,111.6625,29.0531,常德市,武陵区长庚,,33,33,58,17,34,104,,97,97,4,27,5,7,0.3,0.5
2025-03-19T1600,1196A,119.9633,31.762,常州市,市监测站,颗粒物(PM10),69,87,63,40,33,127,,98,98,35,33,6,7,0.5,0.6
2025-03-19T1600,1200A,119.9468,31.7069,常州市,武进监测站,,,66,50,43,32,128,,103,103,20,36,13,15,,0.8
2025-03-19T1600,1201A,119.9255,31.9087,常州市,安家,颗粒物(PM10),51,52,59,30,32,123,,97,97,20,41,8,10,0.4,0.6
2025-03-19T1600,3002A,119.9805,31.8174,常州市,行政中心,颗粒物(PM10),56,61,49,38,31,119,,92,92,19,33,2,3,0.4,0.5
2025-03-19T1600,3003A,120.0522,31.7748,常州市,经开区,颗粒物(PM10),56,62,56,30,29,128,,101,101,23,40,10,11,0.5,0.6
2025-03-19T1600,3010A,119.9025,31.7964,常州市,钟楼,颗粒物(PM10),64,77,56,40,32,128,,98,98,22,34,9,10,0.7,0.8
2025-03-19T1600,3429A,119.8598,31.7066,常州市,武进经发区,细颗粒物(PM2.5),67,76,63,48,37,142,,111,111,21,44,10,10,0.8,0.8
2025-03-19T1600,3430A,119.5826,31.7245,常州市,金坛城区,细颗粒物(PM2.5),65,67,60,47,39,138,,110,110,18,34,10,9,0.6,0.7
2025-03-19T1600,2220A,120.4318,41.5881,朝阳市,西梁,,33,19,47,10,25,103,,84,84,3,25,4,8,0.4,0.8
2025-03-19T1600,2221A,120.4521,41.5646,朝阳市,河畔小区,,35,22,41,8,24,112,,92,92,8,21,7,11,0.5,0.8
2025-03-19T1600,2222A,120.4176,41.5648,朝阳市,八里堡,,34,24,39,12,21,106,,86,86,3,18,6,10,0.3,0.6
2025-03-19T1600,2223A,120.3806,41.5969,朝阳市,农业园区,颗粒物(PM10),61,71,48,10,30,111,,85,85,7,29,7,10,0.4,0.8
2025-03-19T1600,1705A,116.6367,23.6719,潮州市,西园路,,50,50,44,26,29,153,,107,107,16,17,5,4,0.3,0.3
2025-03-19T1600,3026A,116.6183,23.6608,潮州市,市政府,颗粒物(PM10),54,58,48,26,25,141,,109,109,26,24,6,6,0.4,0.4
2025-03-19T1600,4036A,116.6461,23.6761,潮州市,金山,颗粒物(PM10),51,52,40,31,27,153,,112,112,17,17,9,8,0.4,0.5
2025-03-19T1600,2472A,113.0073,25.9061,郴州市,马头岭,,36,35,45,17,18,113,,95,95,8,12,10,10,0.3,0.3
2025-03-19T1600,2473A,113.0116,25.8226,郴州市,市职中,,41,27,39,14,23,130,,100,100,10,20,7,7,0.5,0.6
2025-03-19T1600,2475A,113.0383,25.8071,郴州市,市审计局,,43,35,39,20,24,135,,100,100,11,23,6,5,0.3,0.6
2025-03-19T1600,2476A,113.0348,25.7759,郴州市,市环保局,,35,32,44,18,26,112,,36,,7,26,7,6,0.3,0.4
2025-03-19T1600,4252A,113.0138,25.8011,郴州市,好美居路49号,,40,30,40,19,25,128,,102,102,13,20,8,8,0.3,0.4
2025-03-19T1600,1431A,103.9728,30.7236,成都市,金泉两河,细颗粒物(PM2.5),77,101,70,56,32,62,,33,33,38,37,2,2,0.7,0.8
2025-03-19T1600,1432A,104.176,30.6872,成都市,十里店,"颗粒物(PM10),细颗粒物(PM2.5)",64,77,54,46,32,64,,33,33,29,44,3,3,0.7,0.9
2025-03-19T1600,1433A,104.079,30.5706,成都市,三瓦窑,颗粒物(PM10),56,61,58,25,31,64,,40,40,22,40,4,4,0.6,0.7
2025-03-19T1600,1434A,104.1114,30.63,成都市,沙河铺,细颗粒物(PM2.5),62,57,54,44,37,56,,32,32,26,36,5,5,0.8,0.8
2025-03-19T1600,1437A,104.0786,30.6531,成都市,君平街,细颗粒物(PM2.5),57,60,62,40,41,63,,33,33,29,46,6,6,0.6,0.8
2025-03-19T1600,1438A,103.613,31.0283,成都市,灵岩寺,,,,,,,,,,,,,,,,
2025-03-19T1600,2880A,104.0239,30.65639,成都市,大石西路,"颗粒物(PM10),细颗粒物(PM2.5)",52,53,63,36,37,75,,35,35,28,44,3,3,0.6,0.8
2025-03-19T1600,3136A,104.2725,30.5589,成都市,龙泉驿区区政府,,45,39,39,31,28,80,,46,46,12,19,4,4,0.6,0.6
2025-03-19T1600,3357A,104.0106,30.6931,成都市,金博路,颗粒物(PM10),53,56,57,30,33,63,,28,28,31,43,6,6,0.7,0.7
2025-03-19T1600,3359A,104.0578,30.5225,成都市,华阳,,36,36,44,24,34,77,,50,50,17,35,4,4,0.5,0.6
2025-03-19T1600,3488A,104.3853,30.7453,成都市,青白江技师分院,,47,47,46,32,34,85,,42,42,19,28,5,5,0.5,0.5
2025-03-19T1600,3489A,104.0789,30.4072,成都市,科学城,,42,36,40,29,28,81,,50,50,9,23,4,4,0.5,0.6
2025-03-19T1600,4011A,103.8506,30.6947,成都市,光华大道三段,细颗粒物(PM2.5),82,81,61,60,33,75,,41,41,40,43,4,4,0.8,0.8
2025-03-19T1600,4224A,104.2433,30.5353,成都市,鲸龙路1057号,,45,43,46,31,29,89,,52,52,13,32,4,4,0.6,0.7
2025-03-19T1600,1062A,117.9531,40.9081,承德市,铁路,,31,6,23,3,10,99,,78,78,9,17,6,6,0.2,0.4
2025-03-19T1600,1063A,117.9392,40.9763,承德市,中国银行,,32,,25,3,10,101,,75,75,4,17,3,3,0.3,0.4
2025-03-19T1600,1064A,117.9503,40.928,承德市,开发区,,34,19,38,10,17,108,,79,79,6,21,5,5,0.2,0.3
2025-03-19T1600,1065A,117.8051,40.9655,承德市,文化中心,,33,10,34,3,11,104,,73,73,5,28,3,4,0.2,0.4
2025-03-19T1600,1066A,117.9268,41.0026,承德市,离宫,,30,8,23,7,16,93,,72,72,2,11,6,5,0.2,0.2
2025-03-19T1600,2314A,117.47,30.6618,池州市,池州学院,,41,31,53,17,32,129,,104,104,18,30,6,6,0.4,0.5
2025-03-19T1600,3237A,117.4918,30.6617,池州市,展览馆,,40,32,48,16,29,126,,104,104,14,27,6,6,0.3,0.4
2025-03-19T1600,3333A,117.5627,30.695,池州市,第八中学,,41,32,51,16,29,131,,109,109,10,20,11,6,0.3,0.5
2025-03-19T1600,3334A,117.5038,30.6243,池州市,第十二中学,,42,38,52,22,31,133,,112,112,12,33,6,7,0.2,0.6
2025-03-19T1600,1744A,118.9233,42.2816,赤峰市,松山一中,,32,28,33,3,13,102,,87,87,12,38,8,12,0.4,0.8
2025-03-19T1600,1745A,118.9576,42.2728,赤峰市,哈达街,,,15,22,7,17,84,,51,,13,24,9,12,,0.7
2025-03-19T1600,1746A,118.8788,42.2554,赤峰市,天义路,,27,7,22,3,11,86,,80,80,11,24,6,9,0.4,0.6
2025-03-19T1600,3058A,119.2658,42.0353,赤峰市,银河街,,27,21,65,7,47,86,,78,78,13,31,14,19,0.4,0.9
2025-03-19T1600,3286A,118.9359,42.3147,赤峰市,桥北物流园区,,28,,21,16,19,87,,76,76,11,34,7,9,0.4,0.7
2025-03-19T1600,2521A,107.3476,22.4136,崇左市,市环保局江州分局,,37,37,32,18,18,101,,80,80,7,13,6,6,0.3,0.4
2025-03-19T1600,4256A,107.3750,22.3736,崇左市,石景林东路7号,,33,28,28,21,23,103,,81,81,10,14,5,5,0.3,0.4
2025-03-19T1600,2298A,118.3093,32.3153,滁州市,老年大学,,45,45,49,20,29,129,,98,98,16,27,5,4,0.4,0.5
2025-03-19T1600,2299A,118.3244,32.2786,滁州市,人大宾馆,,40,37,50,21,30,126,,97,97,11,28,8,8,0.4,0.5
2025-03-19T1600,3207A,118.3118,32.3038,滁州市,市政府原办公楼,,41,33,45,22,29,129,,99,99,8,26,5,5,0.3,0.4
2025-03-19T1600,3331A,118.3267,32.2634,滁州市,图书馆,,43,43,49,15,25,125,,96,96,10,28,6,6,0.3,0.4
2025-03-19T1600,2605A,101.5482,25.0441,楚雄彝族自治州,州环境监测站,,46,36,27,32,22,66,,63,62,15,15,11,9,0.5,0.6
2025-03-19T1600,2606A,101.538,25.0492,楚雄彝族自治州,市经济开发区,,46,42,30,32,24,66,,64,64,14,16,12,10,0.6,0.7
2025-03-19T1600,2548A,107.5277,31.2827,达州市,达州职业技术学院,颗粒物(PM10),54,57,59,37,34,77,,44,44,15,22,5,5,0.4,0.4
2025-03-19T1600,2549A,107.5086,31.2186,达州市,市环境监测站,颗粒物(PM10),54,57,59,34,32,83,,46,46,25,30,5,5,0.7,0.7
2025-03-19T1600,2550A,107.4988,31.2132,达州市,凤凰小区,颗粒物(PM10),58,66,58,39,37,87,,49,49,19,28,8,7,0.5,0.4
2025-03-19T1600,2551A,107.5082,31.1986,达州市,达县机关宾馆,细颗粒物(PM2.5),63,68,63,45,38,87,,46,46,20,32,6,5,0.7,0.7
2025-03-19T1600,2552A,107.4644,31.2124,达州市,市政中心,,,56,67,29,33,86,,44,44,17,30,,3,0.4,0.5
2025-03-19T1600,2614A,100.1542,25.7054,大理白族自治州,大理市环境监测站,,,26,16,15,17,49,,52,50,12,10,,7,0.7,0.7
2025-03-19T1600,2615A,100.2171,25.5811,大理白族自治州,大理古城,,28,,16,19,14,50,,49,47,12,11,6,7,0.7,0.7
2025-03-19T1600,1109A,121.612,38.9741,大连市,甘井子,细颗粒物(PM2.5),65,66,34,47,23,77,,75,75,50,33,10,9,0.8,0.7
2025-03-19T1600,1110A,121.565,38.9511,大连市,周水子,细颗粒物(PM2.5),69,67,38,50,26,70,,68,68,46,35,17,12,0.6,0.4
2025-03-19T1600,1111A,121.5637,38.8845,大连市,星海三站,细颗粒物(PM2.5),72,61,32,52,24,72,,73,71,26,15,10,8,0.9,0.7
2025-03-19T1600,1112A,121.6302,38.9117,大连市,青泥洼桥,细颗粒物(PM2.5),70,72,34,51,22,75,,78,78,44,20,15,12,0.7,0.5
2025-03-19T1600,1113A,121.6251,38.8638,大连市,傅家庄,细颗粒物(PM2.5),72,65,35,52,23,71,,76,72,36,22,10,10,0.6,0.5
2025-03-19T1600,1114A,121.5213,38.8661,大连市,七贤岭,颗粒物(PM10),70,89,36,44,21,72,,70,70,30,17,10,8,0.7,0.6
2025-03-19T1600,1115A,121.2529,38.8061,大连市,旅顺,细颗粒物(PM2.5),87,82,36,64,23,71,,66,63,46,26,12,7,1.0,0.6
2025-03-19T1600,1116A,121.7485,39.1311,大连市,金州,细颗粒物(PM2.5),60,53,39,43,24,101,,84,84,37,25,15,12,0.9,0.6
2025-03-19T1600,1117A,121.7811,39.0496,大连市,开发区,细颗粒物(PM2.5),65,62,38,47,24,70,,75,75,42,28,12,11,1.1,0.9
2025-03-19T1600,1118A,121.9762,39.0631,大连市,双D港,细颗粒物(PM2.5),67,60,33,48,18,87,,90,90,33,16,6,5,0.7,0.8
2025-03-19T1600,1789A,124.81117,46.03138,大庆市,大同区,细颗粒物(PM2.5),152,145,50,116,38,141,,89,89,17,14,8,6,0.6,0.7
2025-03-19T1600,1790A,125.129,46.533,大庆市,龙凤区,细颗粒物(PM2.5),155,175,52,118,32,143,,84,84,25,19,13,7,0.9,0.6
2025-03-19T1600,1791A,124.902,46.408,大庆市,红岗区,细颗粒物(PM2.5),248,236,48,198,29,169,,103,103,35,15,13,5,1.2,0.5
2025-03-19T1600,1792A,125.153,46.586,大庆市,萨尔图区,细颗粒物(PM2.5),176,169,50,133,29,,,72,72,26,23,12,7,,0.6
2025-03-19T1600,1793A,124.9042,46.6215,大庆市,让胡路区,,39,34,32,27,27,98,,82,82,11,16,7,7,0.2,0.3
2025-03-19T1600,3481A,125.141,46.634,大庆市,萨区政府监测点,颗粒物(PM10),60,70,38,31,18,115,,82,82,10,18,7,10,0.6,0.5
2025-03-19T1600,1721A,113.3819,40.1097,大同市,果树场,,32,26,37,8,21,102,,77,77,6,29,7,15,0.4,0.7
2025-03-19T1600,1723A,113.2994,40.0758,大同市,云冈宾馆,,35,17,47,7,19,110,,82,82,7,33,7,14,0.4,0.8
2025-03-19T1600,1724A,113.3444,40.0917,大同市,大同大学,,34,11,38,3,19,108,,82,82,3,26,10,19,0.3,0.7
2025-03-19T1600,1725A,113.2661,40.1269,大同市,安家小村,,34,16,54,3,19,106,,86,86,3,28,8,13,0.2,1.3
2025-03-19T1600,1726A,113.2711,40.0844,大同市,教育学院,,35,23,52,6,25,109,,82,82,9,32,6,12,0.3,0.7
2025-03-19T1600,3282A,113.3397,40.0597,大同市,大同市卫生学校,,33,10,50,3,21,105,,72,72,7,32,6,14,0.2,0.8
2025-03-19T1600,3565A,113.1367,40.1122,大同市,云冈站,,33,19,39,3,18,105,,86,86,7,21,8,13,0.3,0.4
2025-03-19T1600,3566A,113.1186,40.2556,大同市,图书馆,,32,13,33,3,18,101,,86,86,5,15,8,10,0.5,0.9
2025-03-19T1600,3567A,113.5931,40.0461,大同市,区一中,,38,38,50,3,20,103,,83,83,8,20,17,20,0.3,0.7
2025-03-19T1600,4199A,113.2798,40.0997,大同市,魏都大道141号,,35,18,58,6,26,110,,84,84,7,38,11,16,0.4,1.2
2025-03-19T1600,2269A,124.1069,50.4097,大兴安岭地区,科技局,,33,13,18,13,16,103,,96,96,2,5,5,6,0.4,0.4
2025-03-19T1600,3663A,124.1164,50.4278,大兴安岭地区,红旗社区,,32,19,13,6,8,100,,99,99,4,12,4,5,0.3,0.3
2025-03-19T1600,1600A,124.3303,40.0625,丹东市,江湾东路,颗粒物(PM10),54,57,68,37,52,118,,107,107,11,17,10,12,0.6,0.9
2025-03-19T1600,1601A,124.4256,40.1503,丹东市,临江后街,颗粒物(PM10),57,64,67,35,46,115,,103,103,11,17,8,10,0.5,0.6
2025-03-19T1600,1602A,124.3933,40.1461,丹东市,元宝山,细颗粒物(PM2.5),54,51,62,38,47,113,,100,100,11,16,8,9,0.5,0.6
2025-03-19T1600,1603A,124.3633,40.1092,丹东市,民主桥,颗粒物(PM10),57,63,67,35,48,117,,104,104,10,22,8,10,0.5,0.8
2025-03-19T1600,3541A,109.5726,19.5167,儋州市,第一中学子站,颗粒物(PM10),52,54,45,27,27,118,,88,88,11,11,6,5,0.6,0.6
2025-03-19T1600,3542A,109.5567,19.5187,儋州市,东坡学校子站,,46,46,46,27,26,127,,93,93,10,12,6,6,0.7,0.7
2025-03-19T1600,2616A,98.5842,24.428,德宏傣族景颇族自治州,德宏州监测站,细颗粒物(PM2.5),97,82,81,72,57,146,,78,78,14,23,10,9,0.6,0.7
2025-03-19T1600,3677A,98.5881,24.4368,德宏傣族景颇族自治州,芒市人民政府综合楼,细颗粒物(PM2.5),83,106,98,61,59,147,,80,80,13,19,12,9,0.5,0.6
2025-03-19T1600,1901A,104.4239,31.1208,德阳市,东山公园,细颗粒物(PM2.5),53,44,59,37,45,95,,46,46,12,27,3,3,0.6,0.7
2025-03-19T1600,1902A,104.3826,31.1317,德阳市,西小区,颗粒物(PM10),52,53,77,33,56,95,,43,43,16,35,2,4,0.4,0.7
2025-03-19T1600,1904A,104.3553,31.1091,德阳市,耐火材料厂,细颗粒物(PM2.5),54,48,74,38,61,96,,40,40,14,36,6,6,0.3,0.5
2025-03-19T1600,3639A,104.4019,31.1244,德阳市,市教育局,细颗粒物(PM2.5),54,47,60,38,52,97,,43,43,12,36,4,4,0.4,0.6
2025-03-19T1600,1622A,116.3032,37.4674,德州市,儿童乐园,,37,34,68,12,31,118,,106,106,11,25,9,9,0.6,0.7
2025-03-19T1600,1624A,116.2991,37.4451,德州市,监理站,,,27,60,14,33,117,,109,109,,24,15,14,0.5,0.6
2025-03-19T1600,3066A,116.2721,37.4379,德州市,九衢泉纯净水厂,,36,27,67,12,31,113,,99,99,14,35,9,11,0.5,0.6
2025-03-19T1600,3371A,116.3728,37.4403,德州市,开发区人民医院,,40,34,65,7,28,126,,110,110,12,24,11,8,0.4,0.5
2025-03-19T1600,3372A,116.3572,37.4094,德州市,太阳城中学,颗粒物(PM10),52,53,71,14,34,119,,104,104,11,28,6,7,0.4,0.5
2025-03-19T1600,3511A,116.5652,37.3319,德州市,陵城艺术中心,颗粒物(PM10),51,51,65,29,30,123,,99,99,17,32,10,12,0.6,0.6
2025-03-19T1600,2621A,99.7056,27.8317,迪庆藏族自治州,迪庆州站,,39,39,27,17,14,116,,102,102,8,9,8,8,0.4,0.5
2025-03-19T1600,3180A,99.7136,27.8094,迪庆藏族自治州,质量技术监督局,,38,38,23,25,19,121,,106,106,7,9,8,9,0.4,0.4
2025-03-19T1600,4257A,104.6092,35.5962,定西市,将台街,,44,44,65,18,32,119,,81,81,9,30,7,13,0.4,0.8
2025-03-19T1600,4309A,104.6159,35.5701,定西市,正龙路62号,颗粒物(PM10),56,62,63,22,33,126,,88,88,5,13,7,12,0.4,0.9
2025-03-19T1600,1389A,113.7547,23.0494,东莞市,莞城梨川,,44,30,49,19,30,139,,112,112,13,40,5,6,0.5,0.6
2025-03-19T1600,1390A,113.7944,23.0128,东莞市,东城石井,臭氧1小时,53,27,60,19,26,162,,120,120,12,27,8,7,0.5,0.7
2025-03-19T1600,1391A,113.7383,22.9658,东莞市,南城西平,,48,29,54,17,30,152,,115,115,12,48,6,8,0.6,0.7
2025-03-19T1600,3319A,113.7338,23.0381,东莞市,万江金泰,,50,28,44,17,26,159,,127,127,6,36,4,6,0.4,0.6
2025-03-19T1600,3626A,113.7533,23.0202,东莞市,南城元岭,,45,31,50,19,28,143,,113,113,7,40,6,7,0.3,0.5
2025-03-19T1600,3627A,113.7875,23.0457,东莞市,东城主山,,46,46,55,20,29,140,,116,116,15,42,9,10,0.5,0.6
2025-03-19T1600,1666A,118.6614,37.4309,东营市,市环保局,,36,29,49,3,17,114,,99,99,11,36,4,8,0.4,0.6
2025-03-19T1600,3036A,118.6904,37.4338,东营市,开发区管委会,,38,38,53,9,24,110,,94,94,11,37,3,8,0.4,0.5
2025-03-19T1600,3365A,118.5719,37.565,东营市,垦利区民丰路,,41,41,46,14,19,118,,101,101,14,26,8,9,0.5,0.6
2025-03-19T1600,3498A,118.5055,37.8612,东营市,河口城区,颗粒物(PM10),51,51,54,12,23,130,,104,104,27,32,4,5,0.3,0.5
2025-03-19T1600,3646A,118.4978,37.4623,东营市,胜利站,,35,28,52,9,20,112,,98,98,16,36,8,14,0.5,0.7
2025-03-19T1600,3734A,118.35,37.26,东营市,理想之城,,,,52,12,22,107,,93,93,13,36,6,8,0.3,0.5
2025-03-19T1600,1591A,110.0023,39.8129,鄂尔多斯市,综合楼,,31,24,28,3,8,99,,92,92,8,15,5,6,0.2,0.2
2025-03-19T1600,1592A,109.9486,39.8261,鄂尔多斯市,巴音孟克林场办事处,,32,27,30,7,12,102,,95,95,7,15,6,7,0.3,0.4
2025-03-19T1600,1593A,109.7736,39.5986,鄂尔多斯市,康泽苑,,31,14,22,3,9,99,,92,92,4,9,2,3,0.2,0.3
2025-03-19T1600,1594A,109.8119,39.5989,鄂尔多斯市,华泰汽车城,,31,17,26,7,13,97,,86,86,5,13,2,3,0.2,0.3
2025-03-19T1600,1595A,109.9734,39.7884,鄂尔多斯市,奥林花园,,32,27,30,9,8,102,,97,97,9,15,5,6,0.2,0.2
2025-03-19T1600,2436A,114.8938,30.3994,鄂州市,市政府,,39,26,52,16,30,124,,104,104,6,24,5,6,0.7,0.6
2025-03-19T1600,2437A,114.8989,30.3714,鄂州市,赵家坝,,45,34,57,10,27,142,,112,112,2,15,4,5,0.5,0.5
2025-03-19T1600,3654A,114.8094,30.4089,鄂州市,精准医疗中心,,,40,53,16,26,,,47,,4,33,4,4,0.4,0.5
2025-03-19T1600,2454A,109.4978,30.2981,恩施土家族苗族自治州,湖北民院,,35,23,34,15,24,112,,80,80,2,11,3,3,0.4,0.2
2025-03-19T1600,2455A,109.4707,30.2798,恩施土家族苗族自治州,州电力总公司,,34,26,34,17,25,108,,71,71,8,16,6,5,0.2,0.3
2025-03-19T1600,3549A,109.5061,30.3772,恩施土家族苗族自治州,龙凤新区,,35,28,34,19,22,111,,80,80,9,10,6,6,0.3,0.3
2025-03-19T1600,2499A,108.3411,21.6158,防城港市,沙万,,34,32,43,21,24,108,,87,87,10,14,8,9,0.2,0.4
2025-03-19T1600,2500A,108.3514,21.7731,防城港市,防城档案局,,42,42,84,15,26,100,,81,81,9,30,3,12,0.4,0.2
2025-03-19T1600,2501A,108.3506,21.6414,防城港市,大海花园,,38,38,40,22,25,109,,87,87,5,10,6,7,0.3,0.4
2025-03-19T1600,1371A,113.1294,23.0067,佛山市,湾梁,,40,34,52,17,26,127,,96,96,24,56,8,9,0.4,0.6
2025-03-19T1600,1372A,113.1083,23.0478,佛山市,华材职中,,48,44,64,26,32,152,,112,112,23,61,7,8,0.5,0.7
2025-03-19T1600,1373A,113.144,23.0453,佛山市,南海气象局,,47,31,49,21,28,150,,114,114,17,53,5,7,0.3,0.5
2025-03-19T1600,1374A,113.2881,22.8094,佛山市,顺德苏岗,,40,39,51,14,25,128,,94,94,17,50,7,6,0.5,0.7
2025-03-19T1600,1376A,112.8383,22.8678,佛山市,高明孔堂,臭氧1小时,52,38,41,28,27,161,,114,114,12,25,9,9,0.3,0.4
2025-03-19T1600,1377A,112.8836,23.1588,佛山市,三水监测站,,39,31,50,27,32,118,,94,94,18,56,3,5,0.3,0.5
2025-03-19T1600,1378A,112.867,23.185,佛山市,三水云东海,,44,26,35,20,24,139,,114,114,14,42,4,4,0.4,0.5
2025-03-19T1600,3625A,113.2544,22.7642,佛山市,容桂街道办,,42,39,57,29,32,134,,101,101,20,61,8,8,0.4,0.7
2025-03-19T1600,1280A,119.3903,26.0543,福州市,鼓山,,,,36,,17,,,124,,,6,,2,,0.3
2025-03-19T1600,1282A,119.2681,26.0504,福州市,师大,颗粒物(PM10),56,62,41,20,21,136,,131,131,14,15,5,4,0.2,0.3
2025-03-19T1600,1283A,119.2984,26.1028,福州市,五四北路,颗粒物(PM10),51,51,39,19,21,136,,128,128,18,16,4,5,0.4,0.4
2025-03-19T1600,1284A,119.2648,26.0768,福州市,杨桥西路,颗粒物(PM10),56,62,43,21,21,138,,132,132,16,14,5,5,0.3,0.3
2025-03-19T1600,1285A,119.317,26.0746,福州市,紫阳,颗粒物(PM10),53,55,44,18,25,130,,124,124,17,17,4,4,0.3,0.3
2025-03-19T1600,3048A,119.5799,26.0936,福州市,九龙,,48,48,37,23,20,134,,121,121,9,13,4,4,0.2,0.2
2025-03-19T1600,3526A,119.5189,25.9664,福州市,吴航,,47,47,35,24,20,136,,126,126,12,11,5,5,0.2,0.2
2025-03-19T1600,1755A,123.7977,41.8491,抚顺市,望花区,颗粒物(PM10),77,104,128,41,76,113,,95,95,26,35,18,9,0.9,1.1
2025-03-19T1600,1756A,123.9161,41.8822,抚顺市,顺城区,,,88,105,30,67,103,,90,90,30,44,17,11,,1
2025-03-19T1600,1757A,124.0436,41.8611,抚顺市,东洲区,颗粒物(PM10),67,84,109,27,76,104,,98,98,22,19,15,8,0.9,0.8
2025-03-19T1600,1758A,123.9247,41.8642,抚顺市,新抚区,颗粒物(PM10),68,86,108,33,75,102,,89,89,28,42,16,6,1.1,0.9
2025-03-19T1600,1759A,124.0972,41.8961,抚顺市,大伙房水库,颗粒物(PM10),61,72,100,34,80,108,,106,106,20,24,15,8,0.9,0.8
2025-03-19T1600,1760A,123.7086,41.8391,抚顺市,沈抚新城,颗粒物(PM10),69,87,101,45,68,118,,96,96,21,42,14,9,0.8,1
2025-03-19T1600,2376A,116.2127,28.0814,抚州市,桐源党溪,,39,34,47,18,22,123,,106,106,3,5,5,5,0.0,0.1
2025-03-19T1600,2377A,116.3544,27.9831,抚州市,市站,,40,40,50,22,23,118,,98,98,7,25,5,10,0.4,0.4
2025-03-19T1600,2378A,116.3565,27.963,抚州市,血防站,,46,46,51,24,24,125,,101,101,7,19,6,8,0.2,0.3
2025-03-19T1600,2379A,116.3564,28.0007,抚州市,采茶剧团,,39,39,44,21,21,110,,89,89,5,14,2,4,0.3,0.3
2025-03-19T1600,2380A,116.385,27.9647,抚州市,医学分院,,49,49,49,23,20,105,,82,82,5,20,3,5,0.6,0.6
2025-03-19T1600,2207A,121.6094,41.998,阜新市,工业园区,,42,32,52,29,43,113,,93,93,12,22,16,20,0.4,0.6
2025-03-19T1600,2208A,121.6697,42.0279,阜新市,长青街,颗粒物(PM10),54,58,52,19,33,108,,90,90,15,24,17,20,0.5,0.7
2025-03-19T1600,2209A,121.6673,42.0705,阜新市,农业园区,,40,36,50,24,32,127,,106,106,10,25,18,22,0.5,0.6
2025-03-19T1600,2210A,121.6717,42.0224,阜新市,东苑,颗粒物(PM10),62,74,58,28,38,108,,87,87,19,28,19,27,0.4,0.8
2025-03-19T1600,2211A,121.6506,42.0498,阜新市,玉龙新城,,38,38,69,22,40,113,,95,95,14,35,17,14,0.5,0.8
2025-03-19T1600,2301A,115.8277,32.8929,阜阳市,市监测站,,40,40,59,21,37,124,,104,104,10,29,7,7,0.3,0.4
2025-03-19T1600,2303A,115.8554,32.8605,阜阳市,开发区,颗粒物(PM10),51,52,71,17,33,128,,108,108,12,34,7,7,0.5,0.6
2025-03-19T1600,2875A,115.784,32.8892,阜阳市,阜阳职业技术学院,,45,45,58,22,33,115,,98,98,10,20,7,7,0.4,0.4
2025-03-19T1600,3468A,115.7901,32.8613,阜阳市,市规划展馆,,42,41,60,18,33,132,,109,109,11,21,7,8,0.2,0.3
2025-03-19T1600,3469A,115.836,32.9183,阜阳市,枣园社区,,42,35,62,17,33,134,,124,124,8,40,7,8,0.3,0.3
2025-03-19T1600,2669A,102.9099,34.9841,甘南藏族自治州,州政府,颗粒物(PM10),52,53,62,23,25,95,,76,76,7,18,5,5,0.3,0.4
2025-03-19T1600,3380A,102.8914,34.9617,甘南藏族自治州,甘肃民族师范学院,颗粒物(PM10),58,65,60,29,22,101,,82,82,2,12,8,8,0.2,0.3
2025-03-19T1600,2570A,101.9603,30.0475,甘孜藏族自治州,水桥子,,28,7,16,3,15,88,,63,63,5,18,3,3,0.2,0.4
2025-03-19T1600,3065A,101.9533,29.9972,甘孜藏族自治州,州环保局,,29,7,14,3,9,91,,79,79,6,11,4,4,0.5,0.5
2025-03-19T1600,3414A,115.8347,28.932,赣江新区,桑海产业园,,41,39,56,22,26,131,,107,107,11,28,9,9,0.3,0.4
2025-03-19T1600,2362A,114.9017,25.9149,赣州市,通天岩,,48,31,35,3,7,152,,128,128,3,6,14,12,0.2,0.3
2025-03-19T1600,2363A,114.9367,25.8664,赣州市,地委,,38,33,40,22,22,119,,95,95,5,13,2,3,0.6,0.6
2025-03-19T1600,2364A,114.9461,25.8481,赣州市,气象台,,43,32,48,13,17,137,,108,108,11,21,9,9,0.4,0.2
2025-03-19T1600,2365A,114.9322,25.8333,赣州市,市图书馆,,43,36,37,14,20,137,,104,104,9,22,4,4,0.5,0.5
2025-03-19T1600,2366A,114.8905,25.8471,赣州市,华坚鞋城,,42,32,38,9,20,134,,107,107,12,18,9,11,0.0,0
2025-03-19T1600,3109A,115.0093,25.8613,赣州市,赣县区卫计委,,38,36,36,19,22,121,,97,97,2,18,4,5,0.5,0.5
2025-03-19T1600,2683A,106.2319,36.1417,固原市,马园,颗粒物(PM10),62,74,51,17,23,104,,71,71,8,36,5,6,0.5,0.8
2025-03-19T1600,2684A,106.2792,36.0022,固原市,监测站,颗粒物(PM10),53,56,38,22,19,109,,83,83,6,18,7,8,0.3,0.7
2025-03-19T1600,2685A,106.2375,36.0211,固原市,新区,颗粒物(PM10),51,52,61,17,16,108,,82,82,3,33,6,7,0.4,0.7
2025-03-19T1600,3522A,106.2177,35.9959,固原市,原州区十五小,,50,50,32,18,13,109,,92,92,5,18,5,5,0.3,0.4
2025-03-19T1600,2543A,106.6308,30.5278,广安市,小平旧居,,,,,,,,,,,,,,,,
2025-03-19T1600,2544A,106.6303,30.4576,广安市,市委,,44,44,50,27,41,105,,72,72,8,21,3,3,0.3,0.5
2025-03-19T1600,2545A,106.6271,30.4663,广安市,友谊中学,,44,44,51,24,38,106,,70,70,13,22,3,2,0.4,0.5
2025-03-19T1600,2547A,106.6388,30.4551,广安市,广电花园,,46,41,45,32,35,103,,64,64,13,22,4,4,0.5,0.6
2025-03-19T1600,2902A,106.6351,30.4865,广安市,北辰小学,,49,45,46,34,36,109,,77,77,10,20,5,5,0.2,0.6
2025-03-19T1600,2523A,105.8945,32.4535,广元市,黑石坡,颗粒物(PM10),60,70,61,15,37,80,,53,53,9,9,10,8,0.4,0.4
2025-03-19T1600,2524A,105.821,32.4444,广元市,老城,,47,47,63,27,35,90,,58,58,9,20,1,2,0.8,0.8
2025-03-19T1600,2526A,105.8628,32.4287,广元市,监测站,,49,49,54,28,38,91,,59,59,14,18,12,5,0.5,0.8
2025-03-19T1600,3617A,105.8047,32.4166,广元市,经开区,细颗粒物(PM2.5),58,55,68,41,54,78,,54,54,14,22,18,6,0.7,0.6
2025-03-19T1600,1345A,113.2347,23.1423,广州市,广雅中学,,47,47,63,21,32,146,,111,111,17,59,5,6,0.3,0.8
2025-03-19T1600,1346A,113.2612,23.105,广州市,市五中,,48,36,38,21,23,151,,116,116,12,45,4,5,0.4,0.5
2025-03-19T1600,1348A,113.3478,23.0916,广州市,广东商学院,臭氧1小时,59,43,51,22,27,167,,130,130,14,49,6,5,0.2,0.4
2025-03-19T1600,1349A,113.4332,23.1047,广州市,市八十六中,,46,31,51,15,27,145,,105,105,16,57,4,5,0.2,0.5
2025-03-19T1600,1350A,113.3505,22.9483,广州市,番禺中学,,49,40,54,21,30,156,,124,124,17,54,4,5,0.3,0.5
2025-03-19T1600,1351A,113.2146,23.3916,广州市,花都师范,,44,30,36,16,20,138,,121,121,12,30,5,10,0.2,0.4
2025-03-19T1600,1352A,113.2597,23.1331,广州市,市监测站,,48,42,53,23,29,151,,115,115,17,54,7,7,0.4,0.6
2025-03-19T1600,1353A,113.5618,23.312,广州市,九龙镇镇龙,,40,31,45,18,28,127,,105,105,11,36,6,5,0.4,0.6
2025-03-19T1600,1354A,113.2765,23.1544,广州市,麓湖,,49,36,44,21,27,154,,122,122,11,41,5,5,0.3,0.6
2025-03-19T1600,1355A,113.443,23.3035,广州市,帽峰山森林公园,,46,,21,26,24,146,,125,125,7,12,6,6,0.4,0.5
2025-03-19T1600,2846A,113.3221,23.1322,广州市,体育西,,50,38,53,22,30,159,,124,124,8,45,6,6,0.4,0.6
2025-03-19T1600,3298A,113.5717,23.5491,广州市,从化街口,,45,24,38,15,25,144,,124,124,8,34,8,8,0.4,0.6
2025-03-19T1600,3299A,113.3472,23.3692,广州市,白云竹料,,48,30,47,16,29,151,,130,130,10,37,8,8,0.4,0.6
2025-03-19T1600,3300A,113.2981,23.237,广州市,白云嘉禾,,46,46,57,23,31,144,,112,112,22,55,6,6,0.1,0.3
2025-03-19T1600,3301A,113.4256,23.1716,广州市,黄埔科学城,,49,30,38,17,23,156,,128,128,8,34,6,8,0.3,0.5
2025-03-19T1600,3302A,113.3942,23.0483,广州市,番禺大学城,臭氧1小时,53,46,50,21,26,162,,128,128,16,51,5,5,0.2,0.3
2025-03-19T1600,3303A,113.4922,22.8168,广州市,南沙黄阁,臭氧1小时,54,42,56,22,29,163,,116,116,20,54,8,8,0.4,0.7
2025-03-19T1600,3304A,113.5342,22.7896,广州市,南沙街,,,,50,,28,171,,116,116,16,43,7,6,0.4,0.5
2025-03-19T1600,3443A,113.2902,23.5544,广州市,花都梯面,,46,41,27,23,17,146,,129,129,9,22,8,10,0.4,0.5
2025-03-19T1600,3445A,113.7858,23.7478,广州市,从化良口,,44,21,19,15,13,140,,125,125,5,9,8,7,0.2,0.3
2025-03-19T1600,3446A,113.8051,23.2614,广州市,增城荔城,,47,21,35,13,24,148,,122,122,9,19,8,8,0.4,0.5
2025-03-19T1600,2505A,109.568,23.1478,贵港市,德智高中,,,,,,,,,,,,,,,,
2025-03-19T1600,2506A,109.6047,23.0666,贵港市,江南子站,,43,31,41,14,23,136,,112,112,7,14,4,5,0.6,0.4
2025-03-19T1600,2507A,109.6014,23.0948,贵港市,贵城子站,,42,36,39,23,29,132,,111,111,8,13,8,8,0.4,0.4
2025-03-19T1600,2508A,109.5669,23.1065,贵港市,荷城子站,,35,27,36,14,17,112,,95,95,10,13,9,9,0.4,0.4
2025-03-19T1600,3405A,109.5886,23.1172,贵港市,新世纪学校,,37,27,41,22,24,118,,101,101,4,10,5,6,0.3,0.3
2025-03-19T1600,1439A,106.6899,26.5998,贵阳市,马鞍山,,38,27,25,12,14,120,,94,94,9,10,7,5,0.2,0.2
2025-03-19T1600,1441A,106.6243,26.6266,贵阳市,鉴湖路,,39,39,35,12,13,118,,97,97,7,10,7,8,0.3,0.4
2025-03-19T1600,1442A,106.7487,26.6343,贵阳市,燕子冲,,37,24,30,9,22,118,,92,92,8,14,3,10,0.1,0.2
2025-03-19T1600,1443A,106.6555,26.4365,贵阳市,碧云窝,,39,39,40,9,15,121,,90,90,9,17,8,12,0.5,0.4
2025-03-19T1600,1445A,106.7109,26.6027,贵阳市,红边门,,37,31,37,19,22,118,,98,98,12,17,7,10,0.2,0.2
2025-03-19T1600,1446A,106.7164,26.5699,贵阳市,新华路,,36,27,33,14,19,115,,96,96,7,12,22,16,0.3,0.4
2025-03-19T1600,1447A,106.674,26.5424,贵阳市,太慈桥,,,36,28,12,14,115,,92,92,,18,,9,0.3,0.3
2025-03-19T1600,1552A,106.805,26.3003,贵阳市,桐木岭,,42,42,44,23,26,114,,93,93,3,4,1,2,0.5,0.5
2025-03-19T1600,4230A,106.6882,26.5695,贵阳市,花果园大街66号,,33,27,26,17,18,103,,82,82,14,15,8,9,0.3,0.3
2025-03-19T1600,4231A,106.6873,26.5169,贵阳市,漓江路57号,,36,29,30,12,17,114,,88,88,10,18,11,13,0.3,0.4
2025-03-19T1600,1862A,110.4144,25.3167,桂林市,电子科大尧山校区,,,,,,,,,,,,,,,,
2025-03-19T1600,1864A,110.3089,25.2708,桂林市,龙隐路小学,,43,38,46,20,34,136,,106,106,6,12,11,21,0.6,0.6
2025-03-19T1600,1865A,110.2869,25.2178,桂林市,八中,,,,45,,27,133,,44,,,23,10,17,0.3,0.4
2025-03-19T1600,3531A,110.296,25.1253,桂林市,旅游学院,,42,29,33,14,22,132,,100,100,8,19,9,13,0.6,0.6
2025-03-19T1600,4222A,110.1835,25.2444,桂林市,环湖路276号,,42,41,48,22,31,133,,98,98,8,18,14,30,0.3,0.3
2025-03-19T1600,4301A,110.2803,25.2773,桂林市,信义路13号,,43,40,43,23,33,137,,105,105,10,18,13,16,0.3,0.4
2025-03-19T1600,2674A,100.2561,34.4714,果洛藏族自治州,玛沁县大武镇,颗粒物(PM10),64,77,56,31,22,110,,98,98,1,2,13,14,0.4,0.4
2025-03-19T1600,1129A,126.5422,45.755,哈尔滨市,岭北,细颗粒物(PM2.5),82,103,47,60,35,132,,105,105,16,17,13,16,0.8,1.2
2025-03-19T1600,1130A,126.561,45.8167,哈尔滨市,松北商大,细颗粒物(PM2.5),85,98,54,63,35,137,,105,105,14,20,8,6,0.5,0.7
2025-03-19T1600,1131A,126.979,45.5419,哈尔滨市,阿城会宁,颗粒物(PM10),64,77,95,33,71,116,,106,106,13,20,14,13,0.5,0.7
2025-03-19T1600,1132A,126.599,45.7222,哈尔滨市,南岗学府路,细颗粒物(PM2.5),95,134,61,71,33,128,,104,104,20,17,9,8,0.7,0.6
2025-03-19T1600,1133A,126.689,45.7733,哈尔滨市,太平宏伟公园,颗粒物(PM10),81,111,58,54,32,134,,104,104,21,28,8,10,0.6,0.6
2025-03-19T1600,1134A,126.635,45.7667,哈尔滨市,道外承德广场,细颗粒物(PM2.5),94,136,66,70,42,129,,100,100,19,29,8,7,0.5,0.7
2025-03-19T1600,1135A,126.685,45.7319,哈尔滨市,香坊红旗大街,颗粒物(PM10),79,107,67,57,36,128,,97,97,18,29,12,12,0.5,0.9
2025-03-19T1600,1136A,126.6411,45.7258,哈尔滨市,动力和平路,细颗粒物(PM2.5),95,117,53,71,36,124,,98,98,21,20,8,8,0.5,0.5
2025-03-19T1600,1137A,126.593,45.7478,哈尔滨市,道里建国路,细颗粒物(PM2.5),88,102,54,65,38,124,,103,103,17,26,11,8,0.5,0.5
2025-03-19T1600,1138A,126.615,45.61,哈尔滨市,平房东轻厂,颗粒物(PM10),72,94,61,49,37,124,,95,95,14,30,10,8,0.6,0.8
2025-03-19T1600,1139A,126.595,45.9855,哈尔滨市,呼兰师专,细颗粒物(PM2.5),69,63,55,50,41,115,,100,100,16,24,11,13,0.4,0.5
2025-03-19T1600,1140A,126.6206,45.6842,哈尔滨市,省农科院,颗粒物(PM10),97,144,75,68,44,124,,96,96,19,25,9,10,0.6,0.6
2025-03-19T1600,2688A,93.5128,42.8172,哈密市,地区监测站,颗粒物(PM10),75,100,125,21,24,96,,74,74,4,29,6,4,0.1,0.3
2025-03-19T1600,2689A,93.4961,42.8328,哈密市,哈密师范学校,颗粒物(PM10),66,82,107,30,37,99,,71,71,6,43,5,5,0,0.4
2025-03-19T1600,2671A,100.9048,36.9639,海北藏族自治州,海晏县西海镇,,37,37,59,13,26,106,,90,90,1,6,10,10,0.4,0.3
2025-03-19T1600,3867A,102.0738,36.5056,海东市,平安区公安北苑,,,62,56,23,30,110,,89,89,,10,9,11,0.5,0.6
2025-03-19T1600,1409A,110.576,19.9507,海口市,东寨港,,43,39,38,30,31,130,,91,91,8,7,4,3,1.0,1
2025-03-19T1600,1410A,110.3232,20.0574,海口市,海南大学,,48,41,53,26,35,153,,105,105,13,11,6,6,0.4,0.5
2025-03-19T1600,1411A,110.283,20.0053,海口市,秀英海南医院,,45,45,48,24,33,141,,96,96,12,17,8,8,0.3,0.4
2025-03-19T1600,1412A,110.338,19.9969,海口市,海南师范大学,,49,47,49,24,32,156,,110,110,10,9,7,5,0.4,0.5
2025-03-19T1600,1413A,110.33,20.0356,海口市,龙华路环保局宿舍,,48,48,50,23,34,151,,104,104,11,13,7,7,0.4,0.5
2025-03-19T1600,3539A,110.5111,19.9736,海口市,桂林洋子站,,47,40,48,26,32,148,,107,107,11,9,7,6,0.3,0.3
2025-03-19T1600,2673A,100.6188,36.2866,海南藏族自治州,共和县恰卜恰镇,细颗粒物(PM2.5),67,61,76,48,40,112,,90,90,2,12,8,11,0.3,0.5
2025-03-19T1600,2676A,97.3731,37.3753,海西蒙古族藏族自治州,德令哈市,,48,48,79,3,25,108,,98,98,2,2,8,14,0.4,0.4
2025-03-19T1600,1048A,114.5302,36.6116,邯郸市,东污水处理厂,,34,,54,19,29,108,,73,73,19,33,9,8,0.8,0.7
2025-03-19T1600,1049A,114.4918,36.5713,邯郸市,矿院,,40,40,70,12,26,105,,73,73,10,38,8,7,0.6,0.6
2025-03-19T1600,1050A,114.484,36.6133,邯郸市,丛台公园,,34,29,51,16,30,107,,77,77,14,28,7,7,0.6,0.6
2025-03-19T1600,3458A,114.7895,36.5593,邯郸市,香泉濮院小区,,38,20,49,8,21,120,,88,88,13,21,7,5,0.5,0.4
2025-03-19T1600,3579A,114.50634,36.77178,邯郸市,永年区实验高中,,42,42,73,17,30,111,,81,81,13,27,9,10,0.7,1
2025-03-19T1600,3580A,114.20016,36.44293,邯郸市,峰峰矿区临水派出所,,45,30,47,26,23,141,,108,108,1,9,8,11,0.8,1
2025-03-19T1600,2634A,106.9893,33.1842,汉中市,汉川机床厂子校,,40,34,27,28,19,118,,86,86,4,6,12,8,0.5,0.4
2025-03-19T1600,2635A,107.0154,33.0706,汉中市,市监测站,,35,34,48,24,33,111,,74,74,13,30,8,9,0.6,0.8
2025-03-19T1600,2636A,107.0089,33.1138,汉中市,鑫源开发区,,36,34,49,22,35,113,,78,78,18,41,7,9,0.6,0.9
2025-03-19T1600,2637A,107.007,33.0323,汉中市,南郑大河坎水厂,,37,34,45,19,29,118,,79,79,9,24,7,8,0.5,0.8
2025-03-19T1600,1223A,120.2072,30.2111,杭州市,滨江,颗粒物(PM10),52,53,54,28,30,121,,92,92,26,32,8,7,0.2,0.3
2025-03-19T1600,1224A,120.0633,30.2747,杭州市,西溪,颗粒物(PM10),55,60,48,34,28,122,,96,96,16,33,7,7,0.3,0.3
2025-03-19T1600,1226A,120.3417,30.3150,杭州市,下沙,颗粒物(PM10),53,55,64,28,30,115,,80,80,24,48,7,7,0.3,0.3
2025-03-19T1600,1227A,120.1269,30.2456,杭州市,卧龙桥,,50,50,46,32,26,124,,99,99,19,24,7,7,0.1,0.2
2025-03-19T1600,1228A,120.1903,30.2692,杭州市,浙江农大,,,47,55,28,31,116,,93,93,20,31,,10,0.2,0.2
2025-03-19T1600,1230A,120.1197,30.3119,杭州市,和睦小学,,,54,50,30,28,123,,95,95,19,30,,8,0.6,0.6
2025-03-19T1600,1231A,120.3019,30.4183,杭州市,临平镇,颗粒物(PM10),59,67,61,35,33,131,,96,96,20,37,7,7,0.2,0.4
2025-03-19T1600,1232A,120.2753,30.1839,杭州市,城厢镇,颗粒物(PM10),54,57,56,28,29,122,,92,92,27,37,8,8,0.3,0.4
2025-03-19T1600,1233A,120.0883,30.1808,杭州市,云栖,,47,47,46,28,25,133,,91,91,23,33,8,7,0.5,0.6
2025-03-19T1600,3557A,119.9464,30.0494,杭州市,镇二中,,50,50,40,31,30,122,,91,91,22,35,8,7,0.3,0.3
2025-03-19T1600,3558A,119.7183,30.2367,杭州市,市府大楼,颗粒物(PM10),53,55,55,31,32,139,,105,105,21,30,9,8,0.4,0.5
2025-03-19T1600,3656A,120.1556,30.2864,杭州市,消防大队,颗粒物(PM10),54,58,55,37,31,127,,99,99,23,33,8,8,0.3,0.4
2025-03-19T1600,1270A,117.1959,31.7848,合肥市,明珠广场,,40,39,55,17,24,127,,100,100,14,39,5,5,0.2,0.3
2025-03-19T1600,1271A,117.3072,31.8764,合肥市,三里街,颗粒物(PM10),53,56,57,22,26,108,,81,81,21,48,6,7,0.4,0.5
2025-03-19T1600,1272A,117.2588,31.8707,合肥市,琥珀山庄,,39,39,51,27,30,119,,95,95,17,37,3,3,0.3,0.5
2025-03-19T1600,1273A,117.1604,31.9052,合肥市,董铺水库,,,39,55,,19,125,,96,96,9,35,3,4,0.3,0.3
2025-03-19T1600,1274A,117.25,31.8571,合肥市,长江中路,,48,48,57,26,29,121,,98,98,18,38,8,8,0.2,0.4
2025-03-19T1600,1275A,117.266,31.9436,合肥市,庐阳区,,46,46,63,19,26,121,,89,89,12,38,5,5,0.2,0.4
2025-03-19T1600,1276A,117.3453,31.8616,合肥市,瑶海区,,46,46,60,22,24,110,,86,86,16,45,7,7,0.3,0.4
2025-03-19T1600,1277A,117.3027,31.7964,合肥市,包河区,,41,41,54,19,26,126,,102,102,8,49,2,2,0.4,0.5
2025-03-19T1600,1278A,117.2776,31.7385,合肥市,滨湖新区,,41,41,57,24,29,123,,99,99,10,46,8,8,0.4,0.4
2025-03-19T1600,1279A,117.1318,31.8403,合肥市,高新区,,39,39,55,16,24,122,,101,101,9,35,2,3,0.4,0.5
2025-03-19T1600,3464A,117.3803,31.9147,合肥市,高教基地,,42,42,53,27,26,121,,94,94,13,33,8,7,0.3,0.4
2025-03-19T1600,3614A,79.924,37.0877,和田地区,地区环保局,颗粒物(PM10),142,234,292,52,73,85,,64,64,6,15,3,3,0.8,0.7
2025-03-19T1600,3615A,79.9131,37.113,和田地区,市环保局,颗粒物(PM10),120,190,268,51,62,93,,66,66,8,25,1,2,0.4,0.6
2025-03-19T1600,2516A,108.2011,24.715,河池市,东仁乐园,,39,39,33,18,17,115,,93,93,8,12,8,8,0.6,0.6
2025-03-19T1600,2517A,108.0497,24.6947,河池市,市环保站,,35,31,25,14,14,112,,90,90,4,6,6,5,0.4,0.4
2025-03-19T1600,2518A,108.0983,24.6989,河池市,市疾控中心,,35,22,23,15,15,110,,85,85,5,6,8,7,0.4,0.5
2025-03-19T1600,1696A,114.6778,23.7569,河源市,源西,,42,23,28,18,22,133,,116,116,3,14,6,7,0.5,0.6
2025-03-19T1600,1697A,114.6944,23.7586,河源市,东埔,,42,21,38,18,23,133,,116,116,8,23,5,7,0.5,0.5
2025-03-19T1600,1698A,114.6892,23.7233,河源市,老城,,42,24,31,15,20,132,,115,115,8,22,5,6,0.4,0.5
2025-03-19T1600,1718A,115.4208,35.2464,菏泽市,气象局,颗粒物(PM10),56,62,78,31,40,125,,104,104,9,19,6,6,0.4,0.4
2025-03-19T1600,3374A,115.5564,35.0891,菏泽市,定陶老年大学,颗粒物(PM10),56,61,67,31,32,130,,109,109,13,22,6,6,0.5,0.6
2025-03-19T1600,4184A,115.4797,35.24401,菏泽市,永昌路1号,颗粒物(PM10),57,63,76,36,38,119,,87,,13,22,9,8,0.2,0.3
2025-03-19T1600,4193A,115.4715,35.2800,菏泽市,长城路999号,颗粒物(PM10),52,53,77,22,30,118,,96,96,16,23,7,5,0.4,0.4
2025-03-19T1600,2514A,111.5264,24.4172,贺州市,环保小区,颗粒物(PM10),53,56,50,36,28,161,,111,111,11,19,8,7,0.5,0.5
2025-03-19T1600,2515A,111.5608,24.4078,贺州市,政协大楼,,47,38,48,29,28,150,,106,106,12,22,8,7,0.5,0.5
2025-03-19T1600,3534A,111.4744,24.4553,贺州市,西湾,细颗粒物(PM2.5),67,58,45,48,30,139,,105,105,11,21,9,8,0.4,0.5
2025-03-19T1600,2385A,114.17,35.9019,鹤壁市,市监测站,颗粒物(PM10),54,58,79,24,35,110,,80,80,21,33,8,7,0.3,0.5
2025-03-19T1600,2386A,114.2956,35.7511,鹤壁市,市交警支队,,49,49,75,19,33,116,,76,76,11,31,8,8,0.1,0.3
2025-03-19T1600,2387A,114.2878,35.7306,鹤壁市,迎宾馆,颗粒物(PM10),53,56,88,23,31,119,,80,80,3,30,4,5,0.3,0.4
2025-03-19T1600,3474A,114.2617,35.6822,鹤壁市,大新区,,40,40,80,24,43,117,,75,75,13,49,6,7,0.4,0.5
2025-03-19T1600,3596A,114.1572,35.9603,鹤壁市,南山宾馆,颗粒物(PM10),58,66,77,37,42,112,,102,102,15,19,7,7,0.6,0.6
2025-03-19T1600,2244A,130.2537,47.3416,鹤岗市,哈啤分公司,,38,38,28,24,19,84,,77,77,9,7,16,15,0.4,0.3
2025-03-19T1600,2245A,130.2684,47.3086,鹤岗市,斯达机电,,37,37,37,17,18,89,,78,77,8,8,14,16,0.4,0.4
2025-03-19T1600,2246A,130.3114,47.3388,鹤岗市,东山纸板厂,颗粒物(PM10),63,75,40,39,20,73,,71,71,20,15,23,21,0.4,0.7
2025-03-19T1600,2247A,130.1097,47.3382,鹤岗市,五号水库,,,,,,,,,,,,,,,,
2025-03-19T1600,2263A,127.4833,50.2524,黑河市,交通局,,32,23,23,16,14,102,,98,98,10,9,6,7,0.4,0.3
2025-03-19T1600,2264A,127.5144,50.2341,黑河市,环保局,,32,24,22,17,15,102,,95,95,9,10,5,6,0.4,0.4
2025-03-19T1600,2265A,127.5291,50.2472,黑河市,大黑河岛,,,18,39,7,29,72,,67,67,11,11,1,4,,
2025-03-19T1600,1074A,115.6838,37.7541,衡水市,电机北厂,,36,26,54,3,27,114,,91,91,11,20,8,9,0.3,0.4
2025-03-19T1600,1075A,115.6303,37.7316,衡水市,市监测站,,35,34,49,3,21,110,,91,91,10,23,11,11,0.3,0.4
2025-03-19T1600,3188A,115.6683,37.7217,衡水市,市城管局,,34,27,53,17,30,107,,86,86,11,26,7,8,0.4,0.4
2025-03-19T1600,3459A,115.5989,37.5491,衡水市,地表水厂,,37,32,54,20,31,117,,95,95,14,36,9,9,0.3,0.4
2025-03-19T1600,2456A,112.5003,26.9167,衡阳市,原169医院,,38,37,40,22,22,120,,92,92,9,18,13,12,0.4,0.5
2025-03-19T1600,2457A,112.6194,26.9258,衡阳市,衡阳化工总厂,,42,36,47,16,24,134,,113,113,6,20,5,6,0.4,0.6
2025-03-19T1600,2458A,112.6211,26.8956,衡阳市,珠晖区环保局,,43,35,46,22,28,137,,110,110,11,29,7,8,0.4,0.6
2025-03-19T1600,2459A,112.6197,26.8733,衡阳市,市委党校,,45,37,53,18,29,141,,110,110,8,25,8,11,0.4,0.8
2025-03-19T1600,2460A,112.6006,26.8919,衡阳市,市监测站,,45,34,47,20,31,141,,112,112,10,26,9,9,0.5,0.7
2025-03-19T1600,2461A,112.5664,26.9056,衡阳市,真空机电公司,,,42,46,21,24,147,,111,111,3,15,,7,0.4,0.6
2025-03-19T1600,3399A,112.6703,26.882,衡阳市,师范学院,,43,32,50,20,32,135,,110,110,12,23,8,10,0.4,0.6
2025-03-19T1600,2608A,103.3772,23.3993,红河哈尼族彝族自治州,污水处理厂,细颗粒物(PM2.5),58,,37,41,33,85,,82,80,11,8,12,19,0.3,0.3
2025-03-19T1600,2609A,103.3861,23.35,红河哈尼族彝族自治州,监测站,,50,48,38,35,29,89,,84,80,14,9,10,8,0.5,0.5
2025-03-19T1600,3038A,103.3758,23.368,红河哈尼族彝族自治州,州图书馆,细颗粒物(PM2.5),53,41,29,37,28,114,,87,85,12,9,11,12,0.3,0.3
2025-03-19T1600,1090A,111.6507,40.7517,呼和浩特市,呼市一监,,39,39,33,19,24,96,,71,71,12,20,15,11,0.5,0.6
2025-03-19T1600,1091A,111.6572,40.8033,呼和浩特市,小召,,,48,32,18,16,97,,38,,14,29,5,3,,0.5
2025-03-19T1600,1094A,111.7516,40.8369,呼和浩特市,如意水处理厂,,30,26,30,12,16,94,,73,73,8,27,9,8,0.3,0.4
2025-03-19T1600,1095A,111.7276,40.8062,呼和浩特市,二十九中,,37,37,34,18,17,99,,74,74,15,27,8,4,0.6,0.5
2025-03-19T1600,1096A,111.5512,40.7866,呼和浩特市,工大金川校区,,,32,34,12,16,97,,73,73,7,28,6,9,,0.6
2025-03-19T1600,1097A,111.717,40.7612,呼和浩特市,化肥厂生活区,,44,44,39,20,19,104,,78,78,15,29,12,8,0.4,0.5
2025-03-19T1600,3698A,111.5968,40.8178,呼和浩特市,红旗小学,,34,31,28,10,16,106,,80,80,8,22,4,5,0.4,0.5
2025-03-19T1600,3699A,111.6518,40.8389,呼和浩特市,海东办,,34,34,30,11,16,99,,71,71,6,25,6,7,0.4,0.5
2025-03-19T1600,2192A,119.7594,49.2261,呼伦贝尔市,区环保局,,32,22,29,20,22,102,,85,85,9,15,5,6,0.3,0.4
2025-03-19T1600,3061A,119.7512,49.1577,呼伦贝尔市,国华电力东,,33,24,24,12,14,105,,92,92,6,7,4,4,0.2,0.2
2025-03-19T1600,1250A,120.0751,30.8669,湖州市,城西水厂,,49,49,60,28,32,136,,96,96,16,43,8,8,0.2,0.2
2025-03-19T1600,2873A,120.0830,30.8929,湖州市,仁皇山新区,,47,47,54,27,32,137,,102,102,15,29,6,5,0.4,0.4
2025-03-19T1600,2907A,120.1844,30.8596,湖州市,吴兴区站,,42,42,60,26,37,127,,99,99,11,27,7,7,0.2,0.4
2025-03-19T1600,3562A,120.4148,30.8538,湖州市,南浔区站,颗粒物(PM10),51,51,61,31,35,133,,106,106,12,25,4,5,0.3,0.4
2025-03-19T1600,1607A,120.9049,40.7211,葫芦岛市,龙港区,细颗粒物(PM2.5),68,60,31,49,23,68,,66,66,29,20,10,9,0.8,0.5
2025-03-19T1600,1608A,120.8392,40.7514,葫芦岛市,化工街,细颗粒物(PM2.5),58,63,47,41,29,76,,66,66,28,41,16,15,1.0,0.7
2025-03-19T1600,1609A,120.8341,40.7073,葫芦岛市,新区,细颗粒物(PM2.5),69,64,35,50,26,78,,73,73,31,31,13,10,1.0,0.7
2025-03-19T1600,1610A,120.8695,40.7677,葫芦岛市,东城区,细颗粒物(PM2.5),58,49,54,41,38,74,,63,63,33,47,11,17,1.0,0.8
2025-03-19T1600,2482A,109.5981,27.5721,怀化市,林科所,,35,25,33,22,27,109,,67,67,7,13,6,9,0.4,0.5
2025-03-19T1600,2483A,109.9453,27.5444,怀化市,河西地税局,,40,40,40,20,29,103,,62,62,7,15,8,8,0.4,0.5
2025-03-19T1600,2484A,109.9781,27.5342,怀化市,市四医院,,39,39,52,20,34,102,,63,63,9,23,4,6,0.1,0.3
2025-03-19T1600,2485A,109.9972,27.5578,怀化市,监测楼,,30,25,42,14,29,95,,60,60,8,17,7,10,0.2,0.4
2025-03-19T1600,2486A,110.0394,27.583,怀化市,市委党校,,33,25,39,16,27,104,,69,69,7,15,3,5,0.3,0.4
2025-03-19T1600,1210A,119.036,33.5981,淮安市,钵池山,,36,29,41,23,25,115,,99,99,9,19,10,9,0.5,0.6
2025-03-19T1600,1211A,119.007,33.575,淮安市,北京南路,,41,41,49,23,25,112,,96,96,15,27,11,10,0.9,0.6
2025-03-19T1600,1212A,118.989,33.6067,淮安市,市监测站,,38,29,40,22,28,121,,100,100,11,24,8,10,0.4,0.6
2025-03-19T1600,1213A,119.135,33.5039,淮安市,楚州区监测站,,35,24,42,18,24,112,,109,109,5,26,7,8,0.3,0.7
2025-03-19T1600,3426A,118.8755,33.2894,淮安市,新华书店,,42,42,46,28,30,123,,103,103,11,20,8,9,0.5,0.6
2025-03-19T1600,4206A,119.0288,33.6319,淮安市,承德北路606号,,37,34,49,25,24,116,,97,97,16,25,8,8,0.4,0.6
2025-03-19T1600,2282A,116.8004,33.975,淮北市,监测站,颗粒物(PM10),54,58,60,32,30,126,,107,107,11,23,7,7,0.7,0.8
2025-03-19T1600,2283A,116.8091,33.9007,淮北市,烈山区政府,,50,50,73,32,35,128,,106,106,12,42,5,7,0.6,0.7
2025-03-19T1600,3330A,116.8873,33.9836,淮北市,杜集区检察院,颗粒物(PM10),56,61,71,31,35,132,,110,110,13,26,6,7,0.6,0.6
2025-03-19T1600,4017A,116.7923,33.9535,淮北市,市博物馆,颗粒物(PM10),61,72,72,30,36,127,,106,106,12,31,9,10,0.7,0.8
2025-03-19T1600,2277A,116.8305,32.7727,淮南市,潘集区政府,颗粒物(PM10),51,51,69,27,38,126,,102,102,13,37,5,6,0.3,0.4
2025-03-19T1600,2279A,116.8569,32.5951,淮南市,谢家集区政府,颗粒物(PM10),51,52,57,22,29,128,,102,102,6,18,6,8,0.3,0.4
2025-03-19T1600,2280A,116.8281,32.633,淮南市,八公山区政府,,40,38,48,14,20,126,,105,105,7,12,2,3,0.2,0.3
2025-03-19T1600,2281A,116.6325,32.6201,淮南市,焦岗湖风景区管理处,,32,32,46,15,24,80,,69,69,4,21,4,4,0.4,0.5
2025-03-19T1600,2894A,117.0566,32.6531,淮南市,经济技术开发区消防队,,41,41,64,20,28,129,,100,100,7,27,5,6,0.2,0.4
2025-03-19T1600,3329A,117.0108,32.5893,淮南市,山南新区,,40,40,53,13,23,128,,105,105,5,15,7,7,0.5,0.5
2025-03-19T1600,4209A,117.0031,32.6445,淮南市,国庆中路369号,,,35,57,24,31,132,,113,113,,32,6,6,0.4,0.6
2025-03-19T1600,2446A,114.9028,30.4742,黄冈市,职工中心,,45,35,40,27,28,142,,106,106,12,19,6,6,0.5,0.5
2025-03-19T1600,2929A,114.8858,30.4519,黄冈市,红卫路,,,40,49,22,27,148,,113,113,,17,6,7,0.3,0.4
2025-03-19T1600,3398A,114.9136,30.4445,黄冈市,市林业局,,48,33,47,21,30,151,,113,113,10,19,5,9,0.6,0.5
2025-03-19T1600,2672A,102.0199,35.5102,黄南藏族自治州,同仁县隆务镇,,,69,71,31,30,102,,92,92,1,3,8,12,,0.2
2025-03-19T1600,2295A,118.2903,29.6963,黄山市,延安路89号,,,,48,,29,130,,110,110,2,9,5,5,0.1,0.3
2025-03-19T1600,2297A,118.1371,30.2756,黄山市,黄山区政府5号楼,,40,22,46,9,27,125,,101,101,3,8,9,8,0.3,0.4
2025-03-19T1600,4210A,118.3354,29.7203,黄山市,滨江东路7-2号,,42,37,49,14,28,132,,109,109,4,8,5,5,0.3,0.4
2025-03-19T1600,2423A,115.0601,30.2313,黄石市,沈家营,,46,26,50,8,21,147,,121,121,4,29,6,7,0.4,0.5
2025-03-19T1600,2426A,114.8988,30.2019,黄石市,铁山,,45,35,52,13,26,141,,122,122,11,16,4,5,0.5,0.5
2025-03-19T1600,2427A,115.0307,30.2092,黄石市,团城山,,44,26,45,8,19,138,,119,119,10,21,6,18,0.5,0.6
2025-03-19T1600,3149A,115.0235,30.1578,黄石市,笔架山北路,,46,19,36,7,20,145,,138,138,3,13,7,8,0.5,0.6
2025-03-19T1600,4185A,115.0780,30.21118,黄石市,磁湖东路29号,,46,33,50,12,25,146,,126,126,5,26,7,7,0.7,0.7
2025-03-19T1600,1392A,114.4183,23.0528,惠州市,河南岸金山湖子站,,41,27,42,18,25,131,,104,104,12,30,10,10,0.6,0.7
2025-03-19T1600,1393A,114.4053,23.0822,惠州市,下埔横江三路子站,,42,29,42,15,25,132,,110,110,8,28,10,10,0.5,0.6
2025-03-19T1600,1394A,114.4103,23.1142,惠州市,江北云山西路子站,,45,24,45,14,24,141,,116,116,8,34,10,11,0.4,0.5
2025-03-19T1600,1395A,114.4645,22.7833,惠州市,惠阳区承修路船湖子站,,46,35,50,18,25,146,,105,105,14,32,10,11,0.5,0.6
2025-03-19T1600,1396A,114.5317,22.7422,惠州市,大亚湾管委会子站,,47,38,44,20,22,148,,118,118,17,40,9,9,0.5,0.5
2025-03-19T1600,3314A,114.4338,22.8134,惠州市,惠阳秋长,,,29,50,18,28,143,,112,112,,33,5,7,0.4,0.5
2025-03-19T1600,3452A,114.6517,22.775,惠州市,大亚湾霞涌,,48,33,34,20,21,151,,113,113,13,17,6,7,0.4,0.4
2025-03-19T1600,2240A,130.9762,45.3001,鸡西市,环保局,,,38,34,22,24,98,,94,94,,10,5,6,0.3,0.4
2025-03-19T1600,2243A,130.9429,45.3039,鸡西市,第一中学,,32,24,32,19,24,100,,97,97,3,7,5,6,0.2,0.3
2025-03-19T1600,3707A,131.0207,45.3073,鸡西市,欧美日汽修厂,,35,35,51,21,37,109,,68,,5,14,20,14,0.7,0.8
2025-03-19T1600,3709A,130.9967,45.3106,鸡西市,市政设施管理处,,40,40,40,18,24,95,,91,91,5,13,4,4,0.2,0.3
2025-03-19T1600,2367A,114.9754,27.0803,吉安市,红声器材厂,,45,37,45,11,21,143,,115,115,14,26,10,13,0.5,0.6
2025-03-19T1600,2368A,114.9658,27.0999,吉安市,市森林工业局,,42,33,37,13,21,134,,106,106,12,20,12,16,0.5,0.3
2025-03-19T1600,2369A,114.99,27.1312,吉安市,市环境监测站,,46,33,40,14,22,146,,117,117,8,17,15,20,0.2,0.2
2025-03-19T1600,2370A,115.0093,27.0968,吉安市,青原区法院,,50,38,46,18,26,160,,127,127,13,29,11,13,0.3,0.3
2025-03-19T1600,1772A,126.54,43.8622,吉林市,哈达湾,颗粒物(PM10),51,52,80,29,58,113,,97,97,12,17,9,9,0.6,0.7
2025-03-19T1600,1773A,126.5844,43.8358,吉林市,东局子,,45,38,64,31,56,120,,104,104,13,18,7,7,0.5,0.6
2025-03-19T1600,1774A,126.5052,43.8245,吉林市,电力学院,,38,33,75,16,60,119,,103,103,10,20,7,6,0.5,0.5
2025-03-19T1600,1775A,126.6133,43.8972,吉林市,江北,颗粒物(PM10),51,52,81,34,59,115,,98,98,21,24,12,14,0.3,0.6
2025-03-19T1600,1776A,126.555,43.8306,吉林市,江南公园,细颗粒物(PM2.5),53,43,70,37,61,118,,102,102,10,17,7,7,0.5,0.6
2025-03-19T1600,1778A,126.7061,43.7133,吉林市,丰满,细颗粒物(PM2.5),55,,55,39,56,129,,109,109,10,11,7,7,0.6,0.6
2025-03-19T1600,2868A,126.4739,43.953,吉林市,九站,颗粒物(PM10),56,62,82,32,53,124,,107,107,13,19,10,9,0.6,0.6
2025-03-19T1600,1299A,116.9862,36.6114,济南市,科干所,颗粒物(PM10),51,51,40,20,17,129,,115,115,10,11,7,7,0.4,0.4
2025-03-19T1600,1300A,116.9376,36.665,济南市,农科所,颗粒物(PM10),56,61,53,12,15,131,,113,113,13,22,8,8,0.7,0.7
2025-03-19T1600,1301A,117.1265,36.6734,济南市,开发区,,44,44,39,17,19,127,,118,118,15,17,8,7,0.5,0.4
2025-03-19T1600,1303A,117.0624,36.6868,济南市,省种子仓库,颗粒物(PM10),54,58,49,22,17,130,,114,114,12,19,6,5,0.6,0.6
2025-03-19T1600,1304A,116.9489,36.6447,济南市,机床二厂,颗粒物(PM10),55,59,56,17,20,132,,115,115,17,23,10,11,0.7,0.7
2025-03-19T1600,1305A,117.0495,36.663,济南市,市监测站,,49,49,44,24,17,124,,111,111,13,16,9,8,0.4,0.3
2025-03-19T1600,1306A,116.7675,36.5484,济南市,长清党校,,,51,46,44,26,140,,115,115,,21,7,6,0.6,0.5
2025-03-19T1600,1616A,117.6795,36.229,济南市,技术学院,颗粒物(PM10),59,68,50,31,26,128,,101,101,22,47,15,14,1.2,1
2025-03-19T1600,1961A,117.532,36.6868,济南市,东山小学,,46,46,36,12,13,124,,111,111,5,13,7,7,0.6,0.6
2025-03-19T1600,3059A,117.7161,36.2049,济南市,泰兴公司,,,,53,,27,124,,23,,16,50,9,10,,0.9
2025-03-19T1600,3064A,117.6867,36.2171,济南市,莱芜战役纪念馆,颗粒物(PM10),57,63,56,24,24,130,,100,100,20,50,8,8,0.8,0.8
2025-03-19T1600,3494A,117.1673,36.9782,济南市,济阳区政府,颗粒物(PM10),52,54,71,27,22,120,,102,102,9,34,13,11,0.3,0.3
2025-03-19T1600,3495A,117.1171,36.63,济南市,锦屏中学,,44,44,33,17,13,126,,116,116,13,15,10,9,0.3,0.3
2025-03-19T1600,3682A,116.9814,36.6819,济南市,济南四建,,41,39,44,12,18,129,,113,113,10,16,6,6,0.2,0.3
2025-03-19T1600,1653A,116.6251,35.4302,济宁市,火炬城,颗粒物(PM10),52,53,45,31,31,138,,111,111,11,22,10,12,0.5,0.6
2025-03-19T1600,1655A,116.5491,35.4042,济宁市,电化厂,颗粒物(PM10),69,88,66,36,33,131,,115,115,11,31,9,13,0.5,0.6
2025-03-19T1600,3500A,116.5814,35.3707,济宁市,北湖一中,颗粒物(PM10),53,56,44,19,20,126,,110,110,17,29,10,12,0.5,0.5
2025-03-19T1600,3501A,116.8249,35.5593,济宁市,服务中心,颗粒物(PM10),59,67,70,29,29,135,,102,102,18,47,7,9,0.5,0.6
2025-03-19T1600,3678A,116.5907,35.4054,济宁市,市第七中学,颗粒物(PM10),57,64,51,27,24,137,,116,116,18,37,7,8,0.6,0.6
2025-03-19T1600,2255A,130.2751,46.8028,佳木斯市,佳纺,,44,44,33,22,19,89,,88,88,10,13,5,5,0.5,0.5
2025-03-19T1600,2256A,130.3995,46.8307,佳木斯市,发电厂,,40,40,31,24,19,96,,90,90,8,10,4,3,0.4,0.4
2025-03-19T1600,2257A,130.3258,46.7975,佳木斯市,环保局,,,41,39,26,18,86,,88,88,15,12,,3,,0.2
2025-03-19T1600,2258A,130.3648,46.8032,佳木斯市,十一中,,47,47,42,32,23,90,,86,86,14,15,4,4,0.4,0.4
2025-03-19T1600,2259A,130.3794,46.7588,佳木斯市,四丰,,35,35,21,21,12,89,,85,85,3,3,1,1,0.7,0.6
2025-03-19T1600,1252A,120.7436,30.778,嘉兴市,清河小学,颗粒物(PM10),51,51,54,28,27,124,,98,98,17,32,6,6,0.4,0.6
2025-03-19T1600,1253A,120.726,30.7478,嘉兴市,嘉兴学院,颗粒物(PM10),51,52,50,30,28,134,,106,106,16,24,9,9,0.6,0.6
2025-03-19T1600,2872A,120.7846,30.7525,嘉兴市,南湖区残联,"颗粒物(PM10),细颗粒物(PM2.5)",54,58,71,38,30,139,,111,111,14,25,10,10,0.4,0.5
2025-03-19T1600,3407A,120.6916,30.7739,嘉兴市,秀洲住建,,48,48,62,33,35,144,,112,112,12,33,7,7,0.4,0.5
2025-03-19T1600,1945A,98.2908,39.7711,嘉峪关市,气象局,颗粒物(PM10),93,136,180,36,48,106,,81,81,6,21,9,7,0.3,0.4
2025-03-19T1600,2884A,98.2672,39.7978,嘉峪关市,酒钢宾馆,颗粒物(PM10),98,146,190,36,49,100,,80,80,9,16,32,19,0.7,0.5
2025-03-19T1600,3248A,98.2643,39.7724,嘉峪关市,雄关区,颗粒物(PM10),85,120,154,46,44,105,,87,87,12,26,11,10,0.3,0.4
2025-03-19T1600,1383A,113.1064,22.6058,江门市,北街,,47,44,51,31,28,148,,104,104,18,50,5,5,0.3,0.6
2025-03-19T1600,1384A,113.0731,22.5835,江门市,西区,颗粒物(PM10),52,54,63,21,30,158,,111,111,18,54,8,8,0.4,0.6
2025-03-19T1600,1385A,113.0219,22.5311,江门市,圭峰西,,49,49,38,25,22,132,,101,101,17,29,7,7,0.2,0.3
2025-03-19T1600,1386A,113.0828,22.5947,江门市,东湖,,50,49,49,25,34,160,,112,112,14,47,9,8,0.3,0.6
2025-03-19T1600,3311A,113.1075,22.5647,江门市,江海富民,,46,42,58,14,26,147,,102,102,17,49,8,8,0.3,0.4
2025-03-19T1600,3449A,113.05,22.4667,江门市,新会银湖,,43,38,52,24,35,135,,101,101,20,47,5,3,0.3,0.5
2025-03-19T1600,1830A,113.1992,35.2590,焦作市,影视城,,,,37,,22,,,,,,15,,10,,0.7
2025-03-19T1600,3169A,113.2725,35.2067,焦作市,太极体育中心,,,42,85,21,39,109,,84,84,,28,8,13,,0.6
2025-03-19T1600,3335A,113.3137,35.2641,焦作市,马村街道办,,36,36,74,18,37,111,,91,91,16,29,8,9,0.4,0.6
2025-03-19T1600,3336A,113.2465,35.2373,焦作市,焦作技师学院,,38,32,75,9,31,119,,97,97,14,27,6,8,0.4,0.6
2025-03-19T1600,3477A,113.1656,35.2539,焦作市,中站许衡医院,,40,40,60,21,32,123,,101,101,12,25,8,11,0.5,0.7
2025-03-19T1600,3981A,113.2449,35.1803,焦作市,原李万街道办,颗粒物(PM10),51,52,85,12,33,122,,93,93,13,28,9,13,0.5,0.6
2025-03-19T1600,4264A,113.2340,35.2190,焦作市,新安路1731号,,50,50,82,17,36,115,,91,91,11,22,8,11,0.5,0.6
2025-03-19T1600,1708A,116.3701,23.5345,揭阳市,新兴,,50,46,51,25,32,159,,115,115,17,29,10,10,0.6,0.7
2025-03-19T1600,1709A,116.3264,23.5443,揭阳市,西马,,,,53,24,31,166,,117,117,13,25,11,10,,0.6
2025-03-19T1600,1710A,116.3611,23.5626,揭阳市,东兴,臭氧1小时,53,50,57,25,31,162,,114,114,13,28,9,9,0.4,0.6
2025-03-19T1600,1711A,116.4151,23.5294,揭阳市,渔湖,臭氧1小时,58,59,50,21,28,166,,119,119,13,27,8,9,0.6,0.6
2025-03-19T1600,3320A,116.403,23.5699,揭阳市,曲溪,臭氧1小时,68,45,56,28,37,174,,126,126,20,34,9,13,0.5,0.5
2025-03-19T1600,1944A,102.1692,38.5167,金昌市,天庆家园,颗粒物(PM10),61,71,52,22,25,84,,80,80,3,15,5,13,0.7,0.9
2025-03-19T1600,4022A,102.1647,38.5371,金昌市,金川区人防中心,颗粒物(PM10),74,98,89,34,29,102,,85,85,6,28,10,19,0.4,0.6
2025-03-19T1600,4239A,102.1930,38.5319,金昌市,长春路96号,颗粒物(PM10),81,111,83,25,22,101,,84,84,5,16,5,15,0.5,0.8
2025-03-19T1600,1262A,119.647,29.077,金华市,十五中,,44,44,58,22,29,137,,107,107,16,30,7,6,0.2,0.3
2025-03-19T1600,1263A,119.686,29.1029,金华市,监测站,颗粒物(PM10),52,54,61,25,32,140,,105,105,17,32,7,6,0.3,0.4
2025-03-19T1600,3659A,119.656,29.1131,金华市,气象局,,49,49,61,27,30,144,,110,110,15,34,7,6,0.5,0.5
2025-03-19T1600,1767A,121.1115,41.0879,锦州市,南山,细颗粒物(PM2.5),69,,44,50,40,81,,74,74,26,39,12,16,0.7,0.7
2025-03-19T1600,1768A,121.0604,40.8428,锦州市,开发区,细颗粒物(PM2.5),70,62,54,51,28,64,,68,68,36,44,12,26,0.8,0.6
2025-03-19T1600,1769A,121.1836,41.1119,锦州市,百股街道,细颗粒物(PM2.5),52,38,36,36,24,83,,76,76,24,23,10,18,0.7,0.7
2025-03-19T1600,1770A,121.1178,41.1222,锦州市,天安街道,,50,37,49,35,38,82,,70,70,26,37,11,20,0.7,0.8
2025-03-19T1600,1771A,121.1303,41.1386,锦州市,北湖公园,细颗粒物(PM2.5),53,46,45,37,34,79,,67,67,29,37,10,20,0.7,0.9
2025-03-19T1600,2160A,112.85,35.5051,晋城市,自来水公司,颗粒物(PM10),59,68,45,3,14,111,,86,86,13,31,6,9,0.5,0.7
2025-03-19T1600,2161A,112.8318,35.4936,晋城市,白云商贸,,39,26,46,3,9,123,,96,96,13,29,5,7,0.2,0.5
2025-03-19T1600,2162A,112.8508,35.4887,晋城市,市环保局,,37,34,52,3,15,116,,89,89,12,30,5,6,0.2,0.4
2025-03-19T1600,2163A,112.8676,35.4897,晋城市,技术学院,,35,22,43,3,12,109,,80,80,8,25,6,8,0.4,0.6
2025-03-19T1600,2165A,112.8453,35.546,晋城市,白马寺,,,,,,,,,,,,,,,,
2025-03-19T1600,3620A,112.8271,35.4828,晋城市,泽州一中,,37,21,39,3,12,117,,90,90,8,24,9,9,0.4,0.6
2025-03-19T1600,2173A,112.7249,37.7067,晋中市,南都小区,,39,39,48,21,25,109,,78,78,14,24,13,11,0.5,0.5
2025-03-19T1600,2174A,112.6991,37.6982,晋中市,榆次区政府,,41,41,49,19,24,112,,79,79,20,30,14,11,0.6,0.5
2025-03-19T1600,2865A,112.7195,37.6828,晋中市,榆次三中,,46,46,46,19,16,113,,79,79,18,30,12,9,0.3,0.3
2025-03-19T1600,4200A,112.7478,37.6954,晋中市,迎宾街26号,,44,44,47,19,18,114,,83,83,16,24,12,10,0.4,0.4
2025-03-19T1600,2439A,112.2014,31.0481,荆门市,竹园小学,,47,39,70,24,26,150,,117,117,12,30,5,6,0.2,0.4
2025-03-19T1600,2440A,112.1969,30.9891,荆门市,掇刀,,45,34,59,26,30,143,,114,114,6,24,6,9,0.3,0.4
2025-03-19T1600,2441A,112.2213,31.0386,荆门市,石化一小,,48,41,60,33,30,134,,104,104,14,41,8,11,0.1,0.4
2025-03-19T1600,3012A,112.1849,31.0362,荆门市,西山林语,,46,33,45,23,24,146,,117,117,9,16,6,7,0.1,0.3
2025-03-19T1600,3547A,112.1632,31.0138,荆门市,龙泉中学南校,,42,36,58,13,30,134,,109,109,5,19,7,9,0.4,0.5
2025-03-19T1600,1844A,112.2494,30.3197,荆州市,市图书馆,,46,46,46,31,32,141,,100,100,15,42,6,6,0.4,0.5
2025-03-19T1600,1845A,112.2008,30.3544,荆州市,市委党校,,46,35,53,32,35,129,,96,96,17,37,6,8,0.3,0.4
2025-03-19T1600,3194A,112.2747,30.3122,荆州市,管委会,,50,46,61,35,39,147,,105,105,9,45,7,7,0.3,0.4
2025-03-19T1600,4268A,112.1722,30.3366,荆州市,学苑路85号,,45,42,52,24,34,142,,104,104,11,25,6,7,0.5,0.5
2025-03-19T1600,2342A,117.3102,29.3867,景德镇市,王港中学,,,,,,,,,,,,,,,,
2025-03-19T1600,2343A,117.2117,29.2933,景德镇市,老干部活动中心,,42,20,40,18,26,132,,111,111,11,19,8,6,0.2,0.4
2025-03-19T1600,2344A,117.1894,29.2789,景德镇市,兽医站,,40,40,47,9,20,118,,102,102,6,16,5,5,0.6,0.6
2025-03-19T1600,2345A,117.1547,29.2617,景德镇市,台达陶瓷,,40,31,49,16,24,126,,114,114,16,25,42,30,0.5,0.6
2025-03-19T1600,2346A,117.2461,29.2956,景德镇市,陶研所,,41,27,38,18,27,130,,105,105,7,18,4,4,0.5,0.6
2025-03-19T1600,1803A,115.9872,29.6815,九江市,十里,颗粒物(PM10),72,93,53,12,27,133,,111,111,8,23,3,4,0.4,0.5
2025-03-19T1600,1804A,115.9584,29.7046,九江市,茅山头,,,15,52,,30,124,,110,110,,29,6,8,0.3,0.3
2025-03-19T1600,1805A,115.9877,29.7295,九江市,西园,,41,18,43,8,23,130,,112,112,18,30,6,8,0.2,0.4
2025-03-19T1600,1808A,115.9114,29.6038,九江市,综合工业园,,44,31,46,16,30,139,,108,108,15,40,7,9,0.4,0.6
2025-03-19T1600,1809A,116.0721,29.7535,九江市,石化总厂,,43,30,48,22,32,136,,114,114,14,31,6,7,0.5,0.6
2025-03-19T1600,1810A,115.9773,29.5698,九江市,庐山气象台,,39,30,41,20,31,122,,109,107,6,10,6,6,0.6,0.7
2025-03-19T1600,3190A,116.0254,29.6994,九江市,外国语学校,,38,35,46,13,26,121,,102,102,13,26,11,11,0.4,0.5
2025-03-19T1600,4253A,116.0102,29.6594,九江市,莲花大道8号,,40,37,48,24,30,127,,109,109,6,14,7,10,0.3,0.4
2025-03-19T1600,4240A,98.4958,39.7339,酒泉市,玉门东路5号,颗粒物(PM10),103,156,190,42,46,114,,92,92,4,9,15,10,0.4,0.5
2025-03-19T1600,4241A,98.5099,39.7506,酒泉市,北大街108号,颗粒物(PM10),97,144,181,40,42,96,,81,81,5,13,12,11,0.4,0.5
2025-03-19T1600,2698A,76.0072,39.4467,喀什地区,巡警大队,颗粒物(PM10),259,391,426,84,108,87,,39,39,9,50,2,6,0.3,1.1
2025-03-19T1600,2699A,75.9755,39.4694,喀什地区,吾办,颗粒物(PM10),230,371,397,108,120,83,,35,35,9,38,3,3,0.4,0.9
2025-03-19T1600,4027A,75.9483,39.4689,喀什地区,老干局,颗粒物(PM10),283,408,411,92,101,79,,51,51,20,36,2,4,0.4,1
2025-03-19T1600,1824A,114.3389,34.7781,开封市,肿瘤医院,,40,33,75,21,42,125,,85,85,9,31,6,8,0.4,0.5
2025-03-19T1600,1826A,114.2885,34.7965,开封市,世纪星幼儿园,,,,76,9,44,,,76,76,17,32,5,7,0.4,0.8
2025-03-19T1600,3147A,114.3438,34.8106,开封市,龙亭公园,,39,29,69,14,39,124,,86,86,14,32,4,5,0.6,0.7
2025-03-19T1600,3210A,114.3644,34.7964,开封市,汴京公园,,41,34,87,14,43,131,,89,89,16,37,6,7,0.5,0.7
2025-03-19T1600,3473A,114.2485,34.8306,开封市,技师学院,,38,30,70,9,38,119,,80,80,16,32,10,10,0.5,1
2025-03-19T1600,3592A,114.4644,34.7556,开封市,祥符区生态环境局,颗粒物(PM10),52,53,92,29,46,115,,86,86,18,41,6,6,0.5,0.6
2025-03-19T1600,1951A,84.895,45.6094,克拉玛依市,长征新村,,42,42,54,17,18,113,,90,90,13,22,7,7,0.2,0.3
2025-03-19T1600,1952A,84.8988,45.5893,克拉玛依市,南林小区,,42,42,55,16,24,112,,87,87,1,15,4,4,0.5,0.7
2025-03-19T1600,1954A,84.905,44.3396,克拉玛依市,独山子区,颗粒物(PM10),54,58,65,33,42,119,,105,105,8,13,9,8,0.4,0.5
2025-03-19T1600,1955A,85.6979,46.098,克拉玛依市,乌尔禾区商贸楼,,37,36,45,3,13,117,,90,90,6,14,5,5,0.3,0.4
2025-03-19T1600,3612A,85.1045,45.6899,克拉玛依市,白碱滩区新站,,,,52,,15,99,,88,61,2,17,8,8,,0.3
2025-03-19T1600,2697A,76.1454,39.7142,克孜勒苏柯尔克孜自治州,市人民政府,颗粒物(PM10),245,381,420,116,113,101,,80,80,1,10,4,4,0.4,0.5
2025-03-19T1600,3665A,76.1658,39.7157,克孜勒苏柯尔克孜自治州,克州文化中心,颗粒物(PM10),269,398,415,109,107,100,,79,79,2,10,3,3,0.4,0.4
2025-03-19T1600,1450A,102.8204,24.8886,昆明市,呈贡新区,,35,27,28,24,28,78,,65,65,11,13,5,7,0.3,0.5
2025-03-19T1600,1451A,102.6251,24.9608,昆明市,西山森林公园,,,,,,,,,,,,,,,,
2025-03-19T1600,1452A,102.7252,25.0902,昆明市,龙泉镇,,36,34,24,25,17,70,,75,71,23,11,8,7,0.5,0.5
2025-03-19T1600,1453A,102.7266,25.0375,昆明市,东风东路,,36,36,31,24,23,70,,69,63,26,16,8,8,0.4,0.4
2025-03-19T1600,1454A,102.6742,25.0669,昆明市,金鼎山,,39,39,28,23,21,71,,73,66,28,15,5,5,0.4,0.4
2025-03-19T1600,1455A,102.6644,25.0401,昆明市,碧鸡广场,,31,31,29,21,19,78,,76,67,23,16,7,7,0.3,0.3
2025-03-19T1600,3179A,102.7494,25.0119,昆明市,官渡区博物馆,,35,33,27,24,25,72,,63,63,24,19,8,8,0.4,0.4
2025-03-19T1600,3375A,102.8017,24.8336,昆明市,青年创业园,,,21,27,15,19,86,,75,75,9,13,,7,0.2,0.3
2025-03-19T1600,3550A,102.7997,24.9786,昆明市,昆明学院,,32,32,32,20,21,81,,64,64,17,18,6,6,0.3,0.3
2025-03-19T1600,3551A,102.5967,24.6736,昆明市,晋宁区生态环境分局,,35,29,25,24,21,79,,68,68,14,14,6,5,0.3,0.3
2025-03-19T1600,3552A,102.6678,24.9856,昆明市,云天化总部,,40,40,30,20,20,80,,72,69,20,17,8,7,0.2,1
2025-03-19T1600,1456A,91.1319,29.6514,拉萨市,八廓街,,40,9,17,7,9,126,,112,112,6,10,6,6,0.4,0.5
2025-03-19T1600,1457A,91.1221,29.6747,拉萨市,市环保局,,36,12,29,6,11,115,,98,98,12,16,7,8,0.4,0.6
2025-03-19T1600,1458A,91.0874,29.6475,拉萨市,区监测站,,38,11,16,7,7,121,,104,103,7,12,6,6,0.2,0.2
2025-03-19T1600,1459A,91.1774,29.6541,拉萨市,西藏大学,,36,13,16,3,7,115,,105,105,9,9,6,6,0.4,0.4
2025-03-19T1600,1460A,90.9798,29.6588,拉萨市,区辐射站,,39,7,19,6,10,122,,98,98,5,12,7,7,0.4,0.4
2025-03-19T1600,1461A,91.0834,29.6292,拉萨市,拉萨火车站,,39,7,16,3,8,124,,110,103,4,7,3,3,0.2,0.3
2025-03-19T1600,2520A,109.2203,23.7256,来宾市,来宾技工学校,,42,37,32,27,20,132,,104,104,8,9,9,8,0.8,0.7
2025-03-19T1600,3535A,109.1781,23.7297,来宾市,兴宾区政府,,42,36,32,22,19,134,,104,104,6,5,9,7,0.6,0.5
2025-03-19T1600,4002A,109.2416,23.7461,来宾市,中南小学,,41,41,37,21,20,127,,101,101,7,9,6,8,0.5,0.4
2025-03-19T1600,1477A,104.1373,35.9454,兰州市,榆中兰大校区,,,,,,,,,,,,,,,,
2025-03-19T1600,1479A,103.831,36.0464,兰州市,铁路设计院,,49,49,56,18,27,111,,62,62,28,57,9,17,0.5,1.2
2025-03-19T1600,3241A,103.7439,36.0842,兰州市,百合公园,,46,46,50,22,27,131,,82,82,6,35,5,11,0.1,0.6
2025-03-19T1600,3242A,103.9611,35.998,兰州市,和平,颗粒物(PM10),54,58,60,31,29,114,,82,82,13,26,9,12,0.3,0.5
2025-03-19T1600,4236A,103.6293,36.0938,兰州市,庄浪东路808号,颗粒物(PM10),62,74,59,40,36,154,,99,99,16,39,16,12,0.6,0.6
2025-03-19T1600,4237A,103.7251,36.1043,兰州市,安宁西路88号,颗粒物(PM10),66,82,34,44,38,153,,93,93,10,33,10,12,0.4,0.6
2025-03-19T1600,4238A,103.8470,36.0676,兰州市,北滨河东路1号,,42,42,52,22,35,120,,72,72,18,52,11,15,0.6,1
2025-03-19T1600,3245A,103.6633,36.533,兰州新区,新区管委会,,43,43,45,24,27,120,,88,88,7,19,12,16,0.4,0.5
2025-03-19T1600,3246A,103.6975,36.4789,兰州新区,舟曲中学,,48,48,43,23,19,118,,86,86,7,18,5,12,0.4,0.5
2025-03-19T1600,1067A,116.6708,39.5111,廊坊市,药材公司,,34,20,58,3,30,106,,74,74,6,30,3,4,0.3,0.4
2025-03-19T1600,1068A,116.7214,39.5589,廊坊市,开发区,,25,25,56,12,29,67,,54,54,6,24,2,2,0.2,0.3
2025-03-19T1600,1070A,116.7244,39.5269,廊坊市,北华航天学院,,33,18,51,8,29,103,,77,77,7,28,3,5,0.2,0.4
2025-03-19T1600,2919A,116.7022,39.5453,廊坊市,河北工业大学,,35,18,52,8,28,110,,80,80,4,26,5,6,0.2,0.4
2025-03-19T1600,2535A,103.7723,29.5462,乐山市,花湖湾,,28,25,35,19,26,80,,36,36,8,16,5,4,0.3,0.4
2025-03-19T1600,2536A,103.7627,29.5844,乐山市,牛耳桥,,26,21,38,18,28,78,,37,37,10,20,6,6,0.4,0.6
2025-03-19T1600,2537A,103.7508,29.6006,乐山市,市第三水厂,,26,22,39,16,25,83,,34,34,6,16,4,3,0.1,0.3
2025-03-19T1600,2538A,103.7571,29.5664,乐山市,市监测站,,39,,35,27,28,78,,32,32,7,16,6,5,0.6,0.8
2025-03-19T1600,3361A,103.7311,29.5628,乐山市,理工大学,,33,28,39,23,28,82,,36,36,9,21,8,8,0.2,0.5
2025-03-19T1600,2598A,100.2143,26.8576,丽江市,西南郊,,,,,,,,,,,,,,,,
2025-03-19T1600,2599A,100.2497,26.8802,丽江市,丽江古城,,20,17,19,10,13,61,,58,58,10,12,8,8,0.9,0.9
2025-03-19T1600,2600A,100.2203,26.8906,丽江市,市中心,,22,,11,15,11,58,,56,56,12,11,8,8,0.7,0.7
2025-03-19T1600,1267A,119.914,28.4514,丽水市,监测站大楼,,46,44,41,28,26,145,,119,119,12,18,4,4,0.2,0.2
2025-03-19T1600,1268A,119.93,28.4586,丽水市,莲都小学,颗粒物(PM10),58,66,52,27,27,130,,124,124,19,17,5,5,0.5,0.3
2025-03-19T1600,1269A,119.879,28.4231,丽水市,余庄前,,,42,44,24,25,147,,118,118,10,17,,4,0.2,0.2
2025-03-19T1600,1173A,119.176,34.5885,连云港市,市环境监测站,,41,41,39,17,21,128,,107,107,10,19,10,10,0.5,0.6
2025-03-19T1600,3000A,119.3581,34.6972,连云港市,德源药业,,44,44,38,22,17,118,,99,99,14,24,10,9,0.1,0.2
2025-03-19T1600,3007A,119.178,34.844,连云港市,新城一中,颗粒物(PM10),64,77,44,32,28,120,,93,93,12,32,11,9,0.6,0.6
2025-03-19T1600,3008A,119.3608,34.7519,连云港市,胡沟管理处,,,,42,,12,,,94,,,75,,12,,0.6
2025-03-19T1600,3009A,119.1478,34.5911,连云港市,矿山设计院,,44,44,43,22,22,125,,102,102,14,20,9,11,0.3,0.4
2025-03-19T1600,3434A,119.2413,34.6539,连云港市,工贸学校,,46,46,39,26,22,121,,99,99,14,17,9,9,0.5,0.4
2025-03-19T1600,3664A,119.4172,34.7341,连云港市,连云街道,颗粒物(PM10),51,51,47,26,21,115,,97,97,15,23,8,8,0.6,0.6
2025-03-19T1600,2571A,102.3431,27.8099,凉山彝族自治州,青龙寺,,32,16,13,7,6,102,,80,80,4,5,5,5,0.5,0.5
2025-03-19T1600,2572A,102.2721,27.8415,凉山彝族自治州,邛海宾馆,,35,31,22,24,16,98,,80,80,8,12,7,5,0.5,0.5
2025-03-19T1600,2573A,102.2625,27.898,凉山彝族自治州,西昌市政府,,30,27,26,17,26,95,,71,71,7,11,5,7,0.5,0.5
2025-03-19T1600,2574A,102.2685,27.8851,凉山彝族自治州,凉山州政府,,32,19,28,12,22,100,,85,85,7,12,4,6,0.2,0.6
2025-03-19T1600,4229A,102.2342,27.8859,凉山彝族自治州,凯乐南路30号,,30,20,38,16,29,93,,69,69,9,19,8,8,0.3,0.5
2025-03-19T1600,2212A,123.2,41.1953,辽阳市,宏伟区,,50,50,48,27,32,111,,100,100,16,17,14,13,0.7,0.7
2025-03-19T1600,2213A,123.1683,41.2495,辽阳市,新华园,,50,50,68,35,44,94,,83,83,29,39,24,21,0.9,0.9
2025-03-19T1600,2214A,123.2354,41.2639,辽阳市,滨河路,,49,49,55,24,38,108,,96,96,15,19,16,20,0.9,0.7
2025-03-19T1600,2215A,123.149,41.2991,辽阳市,铁西工业园,颗粒物(PM10),54,58,86,29,45,101,,87,87,24,39,16,17,1.1,1.2
2025-03-19T1600,2227A,125.1358,42.8845,辽源市,环保局,颗粒物(PM10),54,58,77,35,44,133,,110,110,7,24,6,5,0.7,0.7
2025-03-19T1600,3239A,125.0764,42.9078,辽源市,银鹰制药,颗粒物(PM10),85,119,69,61,49,139,,121,121,14,33,8,6,0.7,0.8
2025-03-19T1600,1625A,115.9848,36.4372,聊城市,区政府,颗粒物(PM10),51,52,64,23,30,127,,104,104,14,25,10,10,0.5,0.5
2025-03-19T1600,2878A,116.0072,36.4343,聊城市,聊大东校,颗粒物(PM10),52,53,70,27,34,125,,103,103,14,25,10,11,0.6,0.6
2025-03-19T1600,3200A,115.9819,36.4978,聊城市,监控中心,,46,46,62,27,31,123,,104,104,10,24,13,13,0.5,0.6
2025-03-19T1600,3513A,116.0445,36.4361,聊城市,九州社区,,,57,66,20,30,134,,118,118,,21,6,11,,0.5
2025-03-19T1600,4018A,116.0567,36.4608,聊城市,星美广场,颗粒物(PM10),51,51,69,19,27,126,,106,106,9,19,13,13,0.4,0.4
2025-03-19T1600,2632A,94.3681,29.6376,林芝市,林芝监测站,,,24,11,8,9,113,,113,113,,8,,4,0.3,0.4
2025-03-19T1600,2633A,94.3616,29.6616,林芝市,林芝人民医院,细颗粒物(PM2.5),72,,17,52,13,110,,106,106,4,5,7,7,0.3,0.3
2025-03-19T1600,2603A,100.0781,23.8982,临沧市,市环保局,,23,,35,16,36,43,,46,40,13,12,7,8,0.7,0.7
2025-03-19T1600,2604A,100.0894,23.8822,临沧市,市气象局,,16,11,33,11,25,49,,49,45,10,11,8,8,0.6,0.6
2025-03-19T1600,1733A,111.5531,36.0783,临汾市,临钢医院,,36,13,45,3,16,113,,72,72,4,22,1,3,0.3,0.5
2025-03-19T1600,1734A,111.5028,36.0714,临汾市,技工学校,,35,16,43,9,23,112,,77,77,5,25,5,7,0.2,0.5
2025-03-19T1600,1736A,111.5018,36.0855,临汾市,市委,,36,22,47,3,15,113,,77,77,6,26,2,4,0.2,0.4
2025-03-19T1600,3018A,111.505,36.1014,临汾市,唐尧大酒店,,35,22,56,3,16,112,,74,74,7,27,5,7,0.4,0.6
2025-03-19T1600,4244A,111.4879,36.0530,临汾市,启星学校,,35,,50,13,26,112,,74,74,4,25,3,5,0.3,0.5
2025-03-19T1600,4271A,103.2464,35.6123,临夏回族自治州,滨河东路1号,颗粒物(PM10),56,62,75,8,19,118,,95,95,2,18,2,3,0.3,0.8
2025-03-19T1600,4310A,103.2093,35.5995,临夏回族自治州,新华街21号,,44,44,63,10,16,114,,87,87,8,24,11,10,0.4,0.8
2025-03-19T1600,1618A,118.3429,35.0532,临沂市,沂河小区,颗粒物(PM10),60,70,55,38,33,117,,93,93,13,22,9,13,0.6,0.6
2025-03-19T1600,1619A,118.295,35.0583,临沂市,鲁南制药厂,颗粒物(PM10),57,63,55,33,28,127,,102,102,18,33,11,15,0.7,0.8
2025-03-19T1600,1620A,118.2794,34.9976,临沂市,新光毛纺厂,颗粒物(PM10),58,66,53,36,30,123,,97,97,18,32,10,14,0.6,0.6
2025-03-19T1600,1621A,118.3956,35.0888,临沂市,河东保险公司,颗粒物(PM10),57,63,50,31,25,128,,103,103,22,33,8,11,0.3,0.3
2025-03-19T1600,3370A,118.3564,35.0215,临沂市,十里堡居委,颗粒物(PM10),58,66,54,27,27,122,,95,95,18,27,12,20,0.6,0.6
2025-03-19T1600,3496A,118.3604,35.1084,临沂市,南坊新区,颗粒物(PM10),58,66,50,22,27,123,,98,98,16,25,8,11,0.5,0.6
2025-03-19T1600,3860A,118.3920,35.0300,临沂市,皇山花园小区,颗粒物(PM10),58,66,54,30,27,124,,97,97,14,26,9,15,0.3,0.3
2025-03-19T1600,1870A,109.4856,24.3895,柳州市,柳东小学,,,,36,,23,117,,90,90,,13,11,10,0.3,0.3
2025-03-19T1600,1871A,109.4157,24.3277,柳州市,环保监测站,,37,29,36,23,25,116,,92,92,7,12,11,12,0.4,0.5
2025-03-19T1600,1872A,109.389,24.341,柳州市,河西水厂,,37,35,40,14,21,118,,92,92,10,16,5,14,0.4,0.8
2025-03-19T1600,1873A,109.4311,24.2921,柳州市,市四中,,40,31,33,17,19,126,,100,100,8,11,10,11,0.4,0.5
2025-03-19T1600,1874A,109.4006,24.3631,柳州市,市九中,,38,36,40,23,22,120,,89,89,6,14,8,12,0.5,0.7
2025-03-19T1600,1875A,109.4958,24.3134,柳州市,古亭山,,38,30,32,19,18,120,,95,95,5,8,8,7,0.2,0.2
2025-03-19T1600,3402A,109.5422,24.3996,柳州市,市二中,,40,35,31,18,20,126,,99,99,9,13,11,10,0.2,0.2
2025-03-19T1600,2307A,116.5079,31.737,六安市,监测大楼,,41,30,46,13,21,131,,108,108,13,24,5,6,0.5,0.5
2025-03-19T1600,2308A,116.4738,31.7643,六安市,皖西学院,,44,44,53,14,22,133,,109,109,10,23,4,4,0.3,0.3
2025-03-19T1600,2309A,116.4996,31.7905,六安市,朝阳厂,,42,22,46,12,23,134,,114,114,13,26,4,4,0.5,0.5
2025-03-19T1600,2310A,116.5567,31.7886,六安市,开发区,,42,37,61,19,30,133,,112,112,10,30,4,4,0.4,0.5
2025-03-19T1600,2576A,104.8,26.5892,六盘水市,窑上,,30,30,28,19,18,92,,82,82,12,7,11,6,0.6,0.4
2025-03-19T1600,2577A,104.83,26.5917,六盘水市,黄土坡,,33,29,26,23,13,93,,79,79,19,14,18,16,0.7,0.5
2025-03-19T1600,2578A,104.89,26.5939,六盘水市,水钢,颗粒物(PM10),54,58,34,26,16,72,,75,72,39,17,44,21,2.0,1.1
2025-03-19T1600,2579A,104.8475,26.5894,六盘水市,民中,,33,33,27,22,14,91,,72,70,17,15,16,16,0.7,0.5
2025-03-19T1600,2580A,104.9544,26.5506,六盘水市,双水,,34,34,25,19,14,96,,83,83,15,12,15,12,0.7,0.6
2025-03-19T1600,2335A,117.0189,25.1181,龙岩市,龙岩师专,,,,,,,,,,,,,,,,
2025-03-19T1600,2336A,117.0217,25.1033,龙岩市,龙岩市监测站,,44,43,33,18,19,140,,115,115,11,23,6,9,0.3,0.4
2025-03-19T1600,2337A,117.0258,25.0661,龙岩市,闽西职业技术学院,,46,33,40,18,19,146,,114,114,8,22,6,18,0.3,0.4
2025-03-19T1600,2338A,117.0196,25.0306,龙岩市,龙岩学院,,45,26,39,16,21,143,,110,110,5,12,4,4,0.4,0.4
2025-03-19T1600,2665A,105.0822,33.3261,陇南市,汉王镇固水子,,,,,,,,,,,,,,,,
2025-03-19T1600,2885A,104.9339,33.3826,陇南市,滨江中学,,45,45,46,11,21,101,,66,66,3,17,5,8,0.4,0.5
2025-03-19T1600,3247A,104.955,33.371,陇南市,市总工会,,39,39,41,15,18,102,,66,66,2,11,5,6,0.4,0.5
2025-03-19T1600,2487A,111.9589,27.8901,娄底市,电视发射台,,,,30,,16,129,,113,113,6,6,8,6,0.7,0.7
2025-03-19T1600,2488A,111.9975,27.725,娄底市,市监测站,细颗粒物(PM2.5),53,48,58,37,33,142,,103,103,3,24,9,15,0.4,0.8
2025-03-19T1600,2489A,112.0194,27.7314,娄底市,市委党校,,49,49,52,28,31,126,,86,86,12,27,4,8,0.2,1
2025-03-19T1600,2490A,111.9561,27.7569,娄底市,涟钢,,,31,43,16,24,138,,109,109,7,17,15,15,,1
2025-03-19T1600,2491A,111.9892,27.7044,娄底市,市政府,,44,43,40,25,25,139,,104,104,11,13,15,9,0.9,0.6
2025-03-19T1600,1893A,105.4324,28.9634,泸州市,九狮山,,,,,,,,,,,,,,,,
2025-03-19T1600,1894A,105.4427,28.9063,泸州市,小市上码头,,30,20,32,17,22,95,,47,47,11,28,6,9,0.4,0.6
2025-03-19T1600,1895A,105.4241,28.8573,泸州市,兰田宪桥,,29,16,27,13,21,91,,45,45,8,24,6,6,0.3,0.5
2025-03-19T1600,1896A,105.4379,28.8833,泸州市,市环监站,,,,,,,,,,,,,,,,
2025-03-19T1600,4272A,105.3689,28.7783,泸州市,纳溪中医医院,,28,27,32,9,19,89,,42,42,12,21,7,5,0.3,0.5
2025-03-19T1600,2183A,111.1406,37.5211,吕梁市,环保局,,34,27,55,9,21,108,,64,64,10,40,3,4,0.3,0.5
2025-03-19T1600,2185A,111.1297,37.5136,吕梁市,自来水公司,,32,27,89,10,25,100,,60,60,11,34,2,5,0.4,0.5
2025-03-19T1600,2867A,111.1283,37.51,吕梁市,马茂庄小学,,35,30,61,7,19,111,,67,67,9,42,3,4,0.2,0.5
2025-03-19T1600,1812A,112.3931,34.6516,洛阳市,市委党校,,34,29,48,12,23,107,,87,87,7,25,4,6,0.3,0.4
2025-03-19T1600,1815A,112.494,34.6886,洛阳市,河南林校,,37,24,56,11,29,117,,88,88,6,21,3,4,0.5,0.6
2025-03-19T1600,1816A,112.3844,34.623,洛阳市,开发区管委会,,35,30,39,3,20,109,,89,89,8,17,6,5,0.2,0.3
2025-03-19T1600,1817A,112.4267,34.6258,洛阳市,市委新办公区,,36,35,41,12,23,113,,100,100,8,18,5,5,0.6,0.4
2025-03-19T1600,3340A,112.6005,34.6326,洛阳市,伊滨,,37,36,51,16,31,118,,94,94,7,20,5,6,0.3,0.4
2025-03-19T1600,3341A,112.4951,34.6332,洛阳市,中移产业园,,37,37,53,21,36,108,,89,89,10,22,7,7,0.4,0.5
2025-03-19T1600,3593A,112.5736,34.8993,洛阳市,吉利监测站,,38,36,54,16,28,119,,95,95,12,29,7,7,0.5,0.5
2025-03-19T1600,3635A,112.3677,34.662,洛阳市,河科大西苑校区,,,31,55,19,28,104,,78,78,4,31,6,8,,0.5
2025-03-19T1600,3636A,112.4388,34.6781,洛阳市,英才小学,,36,21,57,12,28,114,,90,90,8,32,8,10,0.3,0.4
2025-03-19T1600,4214A,112.4600,34.6949,洛阳市,春都路1号院,,38,34,72,8,27,120,,91,91,10,34,6,8,0.3,0.5
2025-03-19T1600,2399A,114.051,33.5699,漯河市,三五一五工厂,,38,37,77,18,44,120,,100,100,7,26,5,7,0.3,0.4
2025-03-19T1600,2400A,114.0055,33.5698,漯河市,漯河大学,,43,43,74,9,34,119,,103,103,11,25,6,8,0.3,0.4
2025-03-19T1600,2401A,114.0138,33.5828,漯河市,市水利局,,39,39,71,3,35,119,,104,104,8,19,4,6,0.3,0.6
2025-03-19T1600,2402A,114.0261,33.5698,漯河市,市广电局,,42,42,70,12,37,118,,102,102,8,25,5,7,0.3,0.4
2025-03-19T1600,3478A,113.9749,33.5664,漯河市,市图书馆,,37,31,73,6,38,118,,103,103,10,20,4,8,0.3,0.4
2025-03-19T1600,4250A,114.0892,33.5882,漯河市,韶山路11号,,42,42,80,3,41,128,,103,103,15,28,6,8,0.4,0.6
2025-03-19T1600,1798A,118.5092,31.6837,马鞍山市,湖东路四小,,37,37,55,20,27,116,,93,93,18,37,7,7,0.5,0.6
2025-03-19T1600,1799A,118.5024,31.6449,马鞍山市,开发区,,39,37,64,27,30,110,,92,92,25,47,5,6,0.6,0.8
2025-03-19T1600,1802A,118.6245,31.7241,马鞍山市,濮塘,,49,49,46,25,26,118,,97,97,18,15,14,11,0.8,0.6
2025-03-19T1600,3633A,118.4918,31.6809,马鞍山市,雨山,,43,42,54,30,29,111,,90,90,21,40,9,10,0.5,0.7
2025-03-19T1600,4191A,118.5274,31.72227,马鞍山市,慈湖高新区,,50,50,72,33,38,112,,85,85,26,41,8,9,0.6,0.8
2025-03-19T1600,1686A,111.0286,21.4688,茂名市,电白南海,颗粒物(PM10),54,58,70,31,46,138,,102,102,14,22,6,7,0.6,0.7
2025-03-19T1600,1687A,110.9294,21.6533,茂名市,茂石化七小,,44,34,58,17,36,140,,110,110,5,14,6,13,0.4,0.6
2025-03-19T1600,1688A,110.9107,21.6687,茂名市,健康路,,44,34,54,14,36,139,,108,108,7,18,6,14,0.3,0.5
2025-03-19T1600,1689A,110.8592,21.6828,茂名市,高岭,,41,41,68,22,34,129,,103,103,8,20,8,12,0.3,0.5
2025-03-19T1600,3450A,111.01,21.5165,茂名市,电白水东,,,41,59,17,34,134,,92,92,10,18,6,16,,0.9
2025-03-19T1600,2539A,104.0308,30.0478,眉山市,黑龙滩水库,,29,29,35,15,21,86,,49,49,2,5,3,3,0.4,0.5
2025-03-19T1600,2540A,103.8416,30.0874,眉山市,气象局,,32,32,57,17,33,91,,47,47,6,24,6,6,0.4,0.6
2025-03-19T1600,3137A,103.8578,30.0744,眉山市,市委党校,,,36,45,19,33,88,,44,44,,27,,6,0.5,0.7
2025-03-19T1600,3148A,103.8291,30.0564,眉山市,区人社局,,,28,46,,36,90,,46,46,11,32,4,5,0.4,0.6
2025-03-19T1600,1690A,116.1231,24.3284,梅州市,梅江月梅,,42,31,31,25,18,134,,111,111,14,22,4,10,0.3,0.4
2025-03-19T1600,1691A,116.0797,24.2719,梅州市,梅县新城,,45,27,31,19,18,144,,113,113,11,27,6,6,0.6,0.6
2025-03-19T1600,1692A,116.1248,24.2654,梅州市,环境监控中心,,44,28,35,19,22,139,,114,114,11,27,6,9,0.4,0.5
2025-03-19T1600,3315A,116.1233,24.2991,梅州市,梅龙,,44,19,30,16,22,139,,110,110,6,14,7,9,0.4,0.5
2025-03-19T1600,1878A,104.7778,31.4741,绵阳市,富乐山,,39,37,47,27,38,99,,56,56,13,16,3,2,0.4,0.5
2025-03-19T1600,1880A,104.6697,31.4668,绵阳市,高新区自来水公司,,34,34,70,19,46,97,,57,57,12,27,4,4,0.2,0.4
2025-03-19T1600,1881A,104.7287,31.5075,绵阳市,三水厂,,,49,70,32,48,107,,70,70,11,25,6,5,,0.6
2025-03-19T1600,3491A,104.69,31.5322,绵阳市,西科大附属小学,细颗粒物(PM2.5),54,49,70,38,46,96,,52,52,15,29,7,6,0.4,0.6
2025-03-19T1600,3492A,104.5648,31.5343,绵阳市,安州区旅游局,细颗粒物(PM2.5),58,45,62,41,50,89,,45,45,17,24,6,7,0.3,0.5
2025-03-19T1600,4226A,104.7651,31.4531,绵阳市,绵阳市气象局,,42,42,59,25,42,87,,49,49,12,21,7,6,0.4,0.6
2025-03-19T1600,1784A,129.61,44.561,牡丹江市,环保大楼,,36,30,62,25,51,93,,89,89,9,22,6,7,0.3,0.5
2025-03-19T1600,1785A,129.6115,44.5782,牡丹江市,文化广场,,46,34,63,32,46,95,,90,90,6,20,10,11,0.2,0.4
2025-03-19T1600,1786A,129.5904,44.5963,牡丹江市,第一医院,,,,35,18,39,96,,89,89,8,16,8,9,0.0,0.2
2025-03-19T1600,1787A,129.6364,44.6075,牡丹江市,机车工厂,,32,32,55,18,34,93,,89,89,6,19,7,12,0.4,0.5
2025-03-19T1600,1788A,129.6386,44.5462,牡丹江市,第一中学,,32,30,48,19,39,101,,97,97,3,15,6,8,0.3,0.4
2025-03-19T1600,2531A,105.0703,29.61,内江市,市监测站,,33,33,33,20,31,90,,50,50,16,24,6,5,0.9,1.1
2025-03-19T1600,2532A,105.0717,29.5947,内江市,东兴区政府,,29,20,34,10,23,91,,51,51,13,22,4,4,0.3,0.5
2025-03-19T1600,2533A,105.0653,29.5817,内江市,内江二中,,30,16,38,11,27,94,,49,49,11,21,8,7,0.6,0.8
2025-03-19T1600,2534A,105.0406,29.5822,内江市,内江日报社,,30,20,35,13,27,96,,51,51,8,24,7,7,0.3,0.6
2025-03-19T1600,2628A,92.0657,31.4846,那曲市,那曲监测站,,33,22,33,8,20,103,,81,81,3,14,6,10,0.6,0.9
2025-03-19T1600,3128A,92.0506,31.4797,那曲市,那曲会议中心,,,,,,,,,,,,,,,,
2025-03-19T1600,1290A,115.8931,28.6843,南昌市,省外办,,41,37,53,24,35,129,,115,115,13,26,7,8,0.5,0.6
2025-03-19T1600,1291A,115.8886,28.7003,南昌市,省林业公司,,39,34,59,22,31,123,,106,106,11,25,8,9,0.4,0.5
2025-03-19T1600,1292A,115.8126,28.7442,南昌市,林科所,,44,44,50,12,24,139,,124,124,14,23,6,5,0.5,0.6
2025-03-19T1600,1294A,115.8518,28.687,南昌市,建工学校,,43,33,55,21,36,135,,117,117,12,26,12,12,0.3,0.4
2025-03-19T1600,1295A,115.8921,28.6424,南昌市,象湖,,47,32,46,19,28,149,,131,131,5,16,8,8,0.3,0.5
2025-03-19T1600,1296A,115.7423,28.7996,南昌市,武术学校,,44,33,24,9,17,140,,118,118,7,7,6,5,0.4,0.4
2025-03-19T1600,3046A,115.9084,28.6062,南昌市,机电学校,,42,41,65,17,33,132,,118,118,14,24,5,6,0.5,0.5
2025-03-19T1600,3690A,115.9721,28.7031,南昌市,外国语学校,,46,41,58,20,26,145,,124,124,6,23,4,5,0.2,0.3
2025-03-19T1600,4192A,115.9316,28.68677,南昌市,南京东路235号,,44,44,56,19,28,137,,119,119,16,26,6,7,0.3,0.4
2025-03-19T1600,1905A,106.056,30.8064,南充市,西山风景区,,43,34,34,30,30,103,,60,60,12,14,2,3,0.6,0.6
2025-03-19T1600,1906A,106.0789,30.8023,南充市,南充市委,细颗粒物(PM2.5),54,50,46,38,34,106,,63,63,16,20,4,4,0.5,0.6
2025-03-19T1600,1907A,106.1031,30.8217,南充市,南充炼油厂,颗粒物(PM10),56,61,55,33,38,98,,65,65,14,20,4,4,0.3,0.4
2025-03-19T1600,1909A,106.0642,30.7636,南充市,嘉陵区环保局,,49,49,50,27,31,100,,60,60,10,17,3,3,0.5,0.5
2025-03-19T1600,1910A,106.1087,30.8388,南充市,市环境监测站,颗粒物(PM10),51,52,54,25,35,99,,66,66,15,19,7,7,0.2,0.2
2025-03-19T1600,4227A,106.1083,30.7884,南充市,梨树横街98号,,,46,50,24,26,,,63,63,15,19,5,5,0.3,0.4
2025-03-19T1600,1151A,118.8086,32.1065,南京市,迈皋桥,,35,35,45,19,27,112,,86,86,20,37,4,4,0.4,0.4
2025-03-19T1600,1152A,118.7538,32.0551,南京市,草场门,,34,34,48,22,26,96,,70,70,17,47,7,7,0.6,0.7
2025-03-19T1600,1153A,118.7794,32.0745,南京市,山西路,,41,41,51,22,26,104,,77,77,22,41,4,5,0.6,0.7
2025-03-19T1600,1154A,118.7752,32.0023,南京市,中华门,,34,34,48,17,25,98,,74,74,22,62,7,8,0.5,0.5
2025-03-19T1600,1155A,118.8109,32.0309,南京市,瑞金路,,44,44,53,14,26,107,,82,82,20,54,6,6,0.7,0.7
2025-03-19T1600,1156A,118.7997,32.0754,南京市,玄武湖,,41,41,52,24,24,102,,75,75,17,29,5,5,0.6,0.6
2025-03-19T1600,1157A,118.6414,32.0931,南京市,浦口,,43,43,52,23,23,112,,73,73,21,26,8,9,0.6,0.5
2025-03-19T1600,1158A,118.7356,31.9996,南京市,奥体中心,,42,42,52,19,26,110,,82,82,24,46,14,10,0.6,0.5
2025-03-19T1600,1159A,118.9125,32.1028,南京市,仙林大学城,颗粒物(PM10),52,53,51,29,29,93,,79,79,26,41,10,8,0.7,0.7
2025-03-19T1600,3422A,118.8436,31.9198,南京市,江宁彩虹桥,,46,46,56,22,28,112,,86,86,14,46,10,6,0.6,0.5
2025-03-19T1600,3423A,119.0138,31.6494,南京市,溧水永阳,细颗粒物(PM2.5),53,39,38,37,30,124,,95,95,15,27,7,6,0.5,0.4
2025-03-19T1600,3427A,118.8554,32.3578,南京市,六合雄州,,38,37,50,14,20,119,,94,94,14,32,4,6,0.3,0.4
2025-03-19T1600,4249A,118.8708,31.3402,南京市,汶溪路181号,,39,27,43,17,30,124,,101,101,10,27,5,5,0.2,0.4
2025-03-19T1600,1401A,108.3103,22.7881,南宁市,二十一中,,45,45,40,24,28,129,,99,99,14,28,7,14,0.3,0.4
2025-03-19T1600,1402A,108.3141,22.8528,南宁市,北湖,,38,38,43,16,26,115,,90,90,12,30,10,16,0.4,0.5
2025-03-19T1600,1403A,108.3206,22.8225,南宁市,市监测站,颗粒物(PM10),54,58,48,22,25,113,,87,87,19,30,9,16,0.5,0.5
2025-03-19T1600,1404A,108.3829,22.8037,南宁市,大自然花园,,,57,40,22,25,124,,96,96,9,26,8,8,,0.6
2025-03-19T1600,1405A,108.4394,22.7904,南宁市,仙葫,,35,30,42,16,25,109,,87,87,10,27,9,11,0.3,0.4
2025-03-19T1600,1406A,108.2397,22.8467,南宁市,区农职院,,43,43,41,24,22,122,,98,98,7,19,9,12,0.6,0.6
2025-03-19T1600,1407A,108.3275,22.735,南宁市,英华嘉园,,42,39,41,6,24,132,,102,102,12,27,9,10,0.4,0.5
2025-03-19T1600,3401A,108.4834,22.7618,南宁市,红星社区,,37,35,29,16,19,116,,94,94,7,20,9,10,0.3,0.5
2025-03-19T1600,4221A,108.2177,22.7774,南宁市,乐贤路16号,细颗粒物(PM2.5),55,47,52,39,33,110,,86,86,10,27,12,14,0.6,0.7
2025-03-19T1600,2331A,118.0966,26.6761,南平市,茫荡山,,,,,,,,,,,,,,,,
2025-03-19T1600,2332A,118.1681,26.6369,南平市,南平市监测站,,43,28,28,22,18,135,,116,116,6,19,5,5,0.5,0.6
2025-03-19T1600,2333A,118.1825,26.6489,南平市,南平铝业有限公司,,42,32,28,16,16,134,,114,114,6,19,6,7,0.5,0.6
2025-03-19T1600,2334A,118.1756,26.6272,南平市,南平七中,,43,39,27,20,18,136,,111,111,7,19,6,5,0.3,0.4
2025-03-19T1600,1168A,120.9098,31.9663,南通市,狼山街道,颗粒物(PM10),54,57,39,36,22,109,,92,92,34,26,17,7,1.3,0.5
2025-03-19T1600,1169A,120.86,32.0005,南通市,虹桥,,,,38,,21,109,,83,83,32,28,13,7,0.9,0.3
2025-03-19T1600,1170A,120.87,32.02,南通市,城中,颗粒物(PM10),58,66,43,33,21,106,,86,86,33,28,14,8,0.9,0.5
2025-03-19T1600,1171A,120.94,31.93,南通市,星湖花园,,48,44,33,33,20,113,,94,94,28,28,11,6,0.7,0.4
2025-03-19T1600,1172A,120.81,32.0417,南通市,紫琅学院,"颗粒物(PM10),细颗粒物(PM2.5)",52,54,38,36,19,111,,87,87,27,33,7,4,1.0,0.7
2025-03-19T1600,3291A,121.067,32.062,南通市,通州监测站,,39,39,36,22,18,109,,102,102,26,19,5,3,0.5,0.5
2025-03-19T1600,3432A,120.9348,31.9883,南通市,环境教育馆,颗粒物(PM10),52,53,38,32,21,111,,100,100,36,27,16,6,1.3,0.4
2025-03-19T1600,2404A,112.5224,33.0122,南阳市,瓦房庄,,45,45,73,20,33,112,,82,82,10,27,4,4,0.6,0.7
2025-03-19T1600,2405A,112.5003,32.9735,南阳市,汉画馆,,43,43,63,18,29,115,,83,83,11,31,5,5,0.3,0.5
2025-03-19T1600,2406A,112.5573,33.027,南阳市,气象站,颗粒物(PM10),53,55,80,19,31,114,,78,78,7,27,5,5,0.4,0.6
2025-03-19T1600,2407A,112.5481,32.9689,南阳市,理工学院,,48,48,69,14,28,113,,83,83,14,32,4,4,0.3,0.4
2025-03-19T1600,4008A,112.5234,32.9922,南阳市,卧龙区政府,颗粒物(PM10),53,55,76,22,33,114,,80,80,10,30,5,5,0.3,0.4
2025-03-19T1600,1234A,121.8358,29.911,宁波市,区环保大楼,颗粒物(PM10),56,61,51,20,24,104,,105,105,34,29,9,8,0.4,0.4
2025-03-19T1600,1235A,121.56,29.82,宁波市,万里学院,颗粒物(PM10),55,59,54,37,28,138,,106,106,21,24,10,7,0.4,0.4
2025-03-19T1600,1236A,121.713,29.9572,宁波市,龙赛医院,颗粒物(PM10),55,60,56,30,25,110,,110,110,26,25,8,7,0.5,0.5
2025-03-19T1600,1239A,121.633,29.7733,宁波市,钱湖水厂,,,49,47,30,27,,,108,108,22,22,8,7,,0.6
2025-03-19T1600,1240A,121.5856,29.8635,宁波市,太古小学,颗粒物(PM10),55,59,57,33,28,142,,113,113,20,28,10,9,0.4,0.5
2025-03-19T1600,1241A,121.524,29.8674,宁波市,市环境监测中心,颗粒物(PM10),57,63,50,35,26,139,,102,102,20,24,10,9,0.6,0.5
2025-03-19T1600,2871A,121.6147,29.9017,宁波市,万里国际学校,,48,48,45,31,22,135,,111,111,19,24,11,8,0.5,0.5
2025-03-19T1600,3710A,121.5594,29.8975,宁波市,白沙活动中心,,49,49,44,33,25,141,,114,114,22,26,9,7,0.6,0.6
2025-03-19T1600,2339A,119.5001,26.6946,宁德市,金涵水库,,,,,,,,,,,,,,,,
2025-03-19T1600,2341A,119.5388,26.6612,宁德市,宁德市监测站,,46,46,36,24,24,137,,120,120,12,15,6,7,0.4,0.5
2025-03-19T1600,3209A,119.5231,26.6562,宁德市,宁德一中,,44,40,35,28,23,138,,122,122,14,12,6,7,0.4,0.4
2025-03-19T1600,2618A,98.8601,25.8567,怒江傈僳族自治州,州监测站,,44,44,28,27,18,115,,93,93,7,5,6,5,0.4,0.3
2025-03-19T1600,2619A,98.8546,25.8417,怒江傈僳族自治州,泸水一中,颗粒物(PM10),59,68,28,41,19,103,,80,80,14,10,7,6,0.4,0.4
2025-03-19T1600,1888A,101.6891,26.571,攀枝花市,弄弄坪,,24,24,22,16,16,54,,52,47,26,20,8,9,0.5,0.5
2025-03-19T1600,1889A,101.5769,26.5928,攀枝花市,河门口,,45,32,29,31,19,64,,56,56,21,23,15,14,1.3,0.9
2025-03-19T1600,1890A,101.7169,26.585,攀枝花市,炳草岗,,22,15,24,15,15,45,,54,37,35,23,9,11,0.4,0.4
2025-03-19T1600,1891A,101.7369,26.5008,攀枝花市,仁和,,26,25,19,18,13,75,,60,60,13,12,8,8,0.6,0.5
2025-03-19T1600,2835A,101.7227,26.567,攀枝花市,四十中小,,23,20,20,11,11,73,,63,52,15,14,10,10,0.5,0.5
2025-03-19T1600,1604A,122.0303,41.1489,盘锦市,开发区,细颗粒物(PM2.5),74,,30,54,25,104,,94,94,25,20,14,10,0.8,0.5
2025-03-19T1600,1605A,122.0485,41.0883,盘锦市,兴隆台,细颗粒物(PM2.5),58,52,33,41,24,100,,88,88,24,24,12,9,1.0,0.7
2025-03-19T1600,1606A,121.8297,41.1028,盘锦市,新生街道,,49,36,23,34,19,98,,88,88,24,28,12,7,1.1,0.6
2025-03-19T1600,1832A,113.3257,33.742,平顶山市,新华旅馆,,40,40,77,11,36,115,,98,98,10,25,4,5,0.3,0.3
2025-03-19T1600,1833A,113.2919,33.737,平顶山市,规划设计院,,37,28,68,8,32,118,,96,96,8,25,5,6,0.3,0.5
2025-03-19T1600,1834A,113.182,33.774,平顶山市,平顶山工学院,,38,25,60,9,27,119,,98,98,6,18,4,5,0.4,0.5
2025-03-19T1600,3204A,113.3025,33.73,平顶山市,规划局,,38,34,70,22,41,120,,94,94,16,36,4,6,0.6,0.7
2025-03-19T1600,3594A,112.8867,33.9116,平顶山市,石龙区,,46,46,87,7,25,119,,100,100,15,47,4,6,0.3,0.4
2025-03-19T1600,2656A,106.6692,35.5461,平凉市,聚贤嘉苑,颗粒物(PM10),58,66,38,26,20,111,,88,88,5,22,12,10,0.3,0.2
2025-03-19T1600,2657A,106.7021,35.5307,平凉市,博物馆,颗粒物(PM10),53,55,38,22,20,114,,90,90,6,21,11,9,0.3,0.5
2025-03-19T1600,2347A,114.0997,27.5002,萍乡市,武功山,,40,36,27,17,17,128,,105,105,9,10,8,5,0.8,0.8
2025-03-19T1600,2348A,113.8385,27.6434,萍乡市,中医院,,48,34,49,14,25,151,,120,120,6,20,10,10,0.3,0.6
2025-03-19T1600,2349A,113.8493,27.6253,萍乡市,市政府车库,,48,39,48,22,31,152,,127,127,10,22,7,8,0.3,0.6
2025-03-19T1600,2350A,113.8676,27.6435,萍乡市,市环保局,,49,34,50,24,31,154,,118,118,5,19,6,8,0.4,0.6
2025-03-19T1600,2351A,113.866,27.6198,萍乡市,安源区政府,,48,38,46,18,25,153,,110,110,10,17,7,7,0.5,0.8
2025-03-19T1600,2319A,119.0141,25.4325,莆田市,荔城区仓后路,颗粒物(PM10),51,52,37,27,21,132,,131,131,14,14,3,2,0.5,0.5
2025-03-19T1600,2320A,119.0015,25.4553,莆田市,莆田市监测站,颗粒物(PM10),51,51,35,25,19,139,,134,134,14,12,4,4,0.4,0.3
2025-03-19T1600,2321A,119.1119,25.4561,莆田市,涵江区六中,颗粒物(PM10),52,53,40,32,24,138,,133,133,18,17,4,3,0.4,0.4
2025-03-19T1600,2322A,119.1013,25.3215,莆田市,秀屿区政府,颗粒物(PM10),52,53,36,22,25,135,,128,128,13,19,4,5,0.4,0.5
2025-03-19T1600,2323A,118.981,25.4792,莆田市,东圳水库,,,,,,,,,,,,,,,,
2025-03-19T1600,2392A,115.0312,35.7636,濮阳市,环保局,,39,39,52,19,33,123,,97,97,15,24,7,6,0.5,0.5
2025-03-19T1600,2394A,115.0574,35.7609,濮阳市,油田运输公司,颗粒物(PM10),52,54,68,24,32,126,,101,101,17,24,7,7,0.7,0.7
2025-03-19T1600,3021A,115,35.7668,濮阳市,濮水河管理处,颗粒物(PM10),52,53,74,16,34,129,,97,97,19,29,8,7,0.7,0.7
2025-03-19T1600,4216A,115.0924,35.7686,濮阳市,任丘路479号,颗粒物(PM10),53,55,74,28,36,136,,108,108,26,28,11,9,0.3,0.5
2025-03-19T1600,2601A,100.98,22.7633,普洱市,市环保局,,,33,26,6,12,44,,43,43,7,7,4,3,,0.7
2025-03-19T1600,2602A,100.9817,22.8322,普洱市,普洱第二中学,,22,20,21,15,14,37,,38,38,7,7,6,6,0.5,0.5
2025-03-19T1600,2262A,131.0518,45.8751,七台河市,新一中,,34,27,30,14,15,106,,101,101,7,9,11,12,1.1,1
2025-03-19T1600,3345A,131.0577,45.7879,七台河市,中波台,,43,43,30,12,15,90,,88,88,12,13,11,6,0.6,0.7
2025-03-19T1600,3637A,131.0176,45.7761,七台河市,人民广场,,,,41,,25,,,88,88,13,13,7,6,0.6,0.9
2025-03-19T1600,3684A,130.8781,45.8222,七台河市,新建矿广场,,36,36,37,20,29,94,,90,90,10,15,8,9,0.4,0.4
2025-03-19T1600,1779A,123.9305,47.3636,齐齐哈尔市,安居小区,,34,11,49,3,32,107,,96,96,7,17,12,9,0.3,0.4
2025-03-19T1600,1780A,123.9488,47.3386,齐齐哈尔市,中心广场,,31,22,55,10,33,98,,88,88,10,15,5,7,0.5,0.6
2025-03-19T1600,1781A,123.9483,47.3227,齐齐哈尔市,农牧车辆厂,,33,22,48,3,28,105,,95,95,11,14,5,6,0.2,0.4
2025-03-19T1600,1783A,123.945,47.2988,齐齐哈尔市,市环境监测站,,32,13,50,8,33,102,,91,91,6,13,3,4,0.3,0.4
2025-03-19T1600,3662A,123.6333,47.2075,齐齐哈尔市,富区青少年活动中心,,32,32,78,9,49,96,,88,88,9,23,6,16,0.3,0.9
2025-03-19T1600,2591A,107.9783,26.5747,黔东南苗族侗族自治州,市环境监测站,,34,23,27,15,19,107,,80,80,6,20,3,4,0.2,0.3
2025-03-19T1600,2881A,107.8908,26.5311,黔东南苗族侗族自治州,凯里学院,,,,23,,17,109,,81,81,2,12,3,3,0.4,0.5
2025-03-19T1600,2593A,107.5228,26.2403,黔南布依族苗族自治州,小围寨,,38,17,22,9,15,120,,90,90,5,9,7,7,0.6,0.6
2025-03-19T1600,3538A,107.5175,26.2978,黔南布依族苗族自治州,沙坝,,,,28,,17,113,,84,84,5,11,5,6,0.9,0.5
2025-03-19T1600,2589A,104.9022,25.0925,黔西南布依族苗族自治州,场坝街,,35,20,30,6,21,111,,80,80,10,12,8,26,0.2,0.2
2025-03-19T1600,2590A,104.8811,25.0992,黔西南布依族苗族自治州,坪东大道,,36,36,25,6,19,104,,74,74,12,15,8,7,0.3,0.3
2025-03-19T1600,2502A,108.6236,21.9667,钦州市,市环保站,,36,36,45,14,21,112,,89,89,10,18,7,9,0.5,0.6
2025-03-19T1600,2503A,108.6549,21.9481,钦州市,沙埠小学,,48,48,47,16,26,111,,87,87,12,21,7,8,0.4,0.5
2025-03-19T1600,2504A,108.5989,21.7431,钦州市,港区一小,颗粒物(PM10),54,57,52,15,24,112,,88,88,18,29,10,10,0.5,0.6
2025-03-19T1600,3404A,108.5959,21.9633,钦州市,北职校,,36,34,43,21,25,113,,89,89,8,15,8,8,0.5,0.6
2025-03-19T1600,1043A,119.7493,40.0116,秦皇岛市,第一关,颗粒物(PM10),69,87,50,42,26,69,,70,70,37,44,7,5,0.6,0.5
2025-03-19T1600,1044A,119.5897,39.9499,秦皇岛市,监测站,,32,25,46,12,18,102,,85,85,11,35,5,5,0.4,0.6
2025-03-19T1600,1046A,119.5251,39.9041,秦皇岛市,建设大厦,,44,44,55,13,27,105,,84,84,13,47,6,7,0.4,0.6
2025-03-19T1600,3132A,119.610547,39.943889,秦皇岛市,文明里,颗粒物(PM10),51,52,47,15,14,68,,73,73,40,36,6,6,0.5,0.5
2025-03-19T1600,4198A,119.5090,39.8253,秦皇岛市,北戴河轮滑馆,颗粒物(PM10),52,54,55,19,25,87,,73,73,26,39,8,8,0.6,0.8
2025-03-19T1600,1307A,120.6659,36.2403,青岛市,仰口,,50,50,20,31,15,120,,100,100,14,7,6,4,0.4,0.3
2025-03-19T1600,1310A,120.4134,36.0658,青岛市,市南区东部子站,颗粒物(PM10),53,56,39,29,18,90,,76,76,25,26,9,11,0.5,0.7
2025-03-19T1600,1311A,120.3664,36.1032,青岛市,四方区子站,,,,33,,17,102,,81,81,,35,6,6,,0.7
2025-03-19T1600,1312A,120.2994,36.054,青岛市,市南区西部子站,颗粒物(PM10),64,78,43,29,17,79,,64,64,41,41,11,9,0.6,0.7
2025-03-19T1600,1313A,120.4581,36.0858,青岛市,崂山区子站,颗粒物(PM10),54,58,32,22,14,95,,81,81,21,20,10,11,0.5,0.8
2025-03-19T1600,1315A,120.3999,36.3083,青岛市,城阳区子站,颗粒物(PM10),60,70,37,29,16,91,,79,79,38,37,12,9,0.9,0.8
2025-03-19T1600,1966A,120.0405,35.8735,青岛市,黄岛区4号,,46,46,39,17,16,105,,88,88,22,28,10,10,0.7,0.8
2025-03-19T1600,3362A,120.5014,36.4034,青岛市,即墨2号,颗粒物(PM10),65,80,47,34,23,94,,79,79,32,32,11,10,0.9,0.8
2025-03-19T1600,3642A,120.3503,36.0736,青岛市,市北区南部,颗粒物(PM10),62,74,34,22,16,90,,71,71,19,26,6,9,0.5,0.7
2025-03-19T1600,3643A,120.3948,36.1805,青岛市,李沧区北部,颗粒物(PM10),54,58,35,27,19,93,,74,74,30,34,11,9,0.8,0.8
2025-03-19T1600,4290A,120.1969,35.9546,青岛市,珠江路669号,颗粒物(PM10),52,53,37,32,21,96,,80,80,27,31,8,10,0.6,0.8
2025-03-19T1600,1702A,113.0426,23.691,清远市,环保大楼,,49,20,21,18,18,154,,134,134,9,16,11,10,0.5,0.5
2025-03-19T1600,1703A,113.0208,23.7106,清远市,凤城街办,,44,30,27,22,17,140,,119,119,11,16,10,8,0.3,0.4
2025-03-19T1600,3025A,113.0477,23.6344,清远市,技师学院,,47,29,33,16,18,150,,124,124,10,29,9,9,0.3,0.5
2025-03-19T1600,3318A,112.9903,23.7403,清远市,清新太和,,44,32,26,18,15,140,,131,131,10,13,3,9,0.4,0.5
2025-03-19T1600,3455A,113.076,23.7198,清远市,清城东城,,44,33,28,21,18,140,,122,122,11,14,9,8,0.4,0.5
2025-03-19T1600,2661A,107.6325,35.7357,庆阳市,庆阳五中,,39,39,36,11,14,105,,92,92,5,9,2,3,0.4,0.5
2025-03-19T1600,2662A,107.6364,35.7067,庆阳市,市环保局,,41,41,36,12,11,109,,94,94,5,10,5,4,0.4,0.4
2025-03-19T1600,1916A,103.7897,25.5035,曲靖市,环境监测站,,34,34,28,18,16,82,,68,68,13,13,2,6,0.5,0.5
2025-03-19T1600,1917A,103.8,25.5364,曲靖市,烟厂办公区,,39,39,29,20,16,89,,70,70,10,11,5,5,0.4,0.4
2025-03-19T1600,3376A,103.7947,25.462,曲靖市,南苑二区,,46,46,32,24,18,77,,63,63,10,14,7,10,0.4,0.6
2025-03-19T1600,3377A,103.7444,25.5261,曲靖市,曲靖师范学院,细颗粒物(PM2.5),60,45,29,43,21,83,,69,69,19,15,6,6,0.6,0.6
2025-03-19T1600,1264A,118.8692,28.9398,衢州市,环保大楼,,42,40,60,22,33,133,,109,109,18,21,2,3,0.4,0.5
2025-03-19T1600,1265A,118.8709,28.9666,衢州市,实验学校,颗粒物(PM10),55,59,56,31,33,134,,96,96,9,22,2,5,0.4,0.5
2025-03-19T1600,1266A,118.8621,28.9808,衢州市,衢州学院,,41,41,52,22,30,126,,104,104,16,32,6,6,0.4,0.5
2025-03-19T1600,1611A,118.5819,24.9117,泉州市,涂山街,颗粒物(PM10),52,53,40,24,22,139,,138,138,14,17,3,3,0.5,0.4
2025-03-19T1600,1612A,118.5972,24.8978,泉州市,津头埔,,48,48,39,20,22,138,,137,137,15,20,2,3,0.5,0.6
2025-03-19T1600,1613A,118.6663,24.9424,泉州市,万安,颗粒物(PM10),52,54,41,25,22,140,,140,140,10,18,3,4,0.4,0.4
2025-03-19T1600,1614A,118.6117,24.9604,泉州市,清源山,,,,,,,,,,,,,,,,
2025-03-19T1600,3529A,118.6333,24.9264,泉州市,城华南路,,47,47,35,24,19,132,,135,135,15,12,4,4,0.4,0.4
2025-03-19T1600,2626A,88.8876,29.2718,日喀则市,日喀则监测站,,39,14,16,3,5,122,,123,118,3,5,4,4,0.4,0.4
2025-03-19T1600,3726A,88.8781,29.2426,日喀则市,林业技术推广中心,颗粒物(PM10),69,87,24,3,4,118,,122,120,3,2,7,7,0.3,0.3
2025-03-19T1600,1659A,119.471,35.4209,日照市,监测站,颗粒物(PM10),54,58,44,27,21,128,,98,98,20,36,8,9,0.6,0.7
2025-03-19T1600,1660A,119.523,35.4216,日照市,市政府广场,颗粒物(PM10),52,53,40,22,18,117,,90,90,16,27,6,7,0.5,0.6
2025-03-19T1600,1661A,119.5587,35.4044,日照市,港务局,颗粒物(PM10),57,63,51,33,26,122,,86,86,18,34,7,8,0.6,0.7
2025-03-19T1600,3507A,119.5328,35.4625,日照市,职业技术学院,颗粒物(PM10),57,63,38,24,17,122,,97,97,19,27,6,6,0.6,0.7
2025-03-19T1600,3604A,119.3266,35.1044,日照市,岚山环保分局,细颗粒物(PM2.5),70,61,51,51,28,122,,96,96,16,30,11,10,0.8,0.7
2025-03-19T1600,1835A,111.1922,34.7752,三门峡市,市政府,,41,23,41,16,22,130,,85,85,11,42,4,8,0.3,0.4
2025-03-19T1600,1836A,111.1587,34.7942,三门峡市,开发区,,,24,46,6,20,,,66,66,14,31,7,8,0.2,0.3
2025-03-19T1600,1838A,111.143,34.7955,三门峡市,风景区,,37,21,38,3,20,116,,76,76,7,33,9,11,0.4,0.4
2025-03-19T1600,3039A,111.1911,34.7829,三门峡市,三门峡市第一小学,,40,30,44,9,23,128,,85,85,11,38,2,7,0.3,0.4
2025-03-19T1600,3598A,111.1,34.7167,三门峡市,富达温泉假日酒店,,40,21,47,16,29,126,,85,85,10,30,8,11,0.6,0.8
2025-03-19T1600,2324A,117.6211,26.2625,三明市,三钢,,47,38,29,16,22,149,,114,114,10,20,7,5,0.7,0.6
2025-03-19T1600,2325A,117.635,26.2714,三明市,三明二中,,45,42,26,21,17,144,,110,110,12,18,7,3,0.5,0.2
2025-03-19T1600,2326A,117.6028,26.2378,三明市,三元区政府,,50,35,36,25,21,157,,120,120,10,22,7,7,0.5,0.6
2025-03-19T1600,2327A,117.7275,26.3108,三明市,洋溪,,,,,,,,,,,,,,,,
2025-03-19T1600,1876A,109.5078,18.2489,三亚市,河东子站,,36,36,23,15,15,104,,97,97,11,7,4,4,0.4,0.3
2025-03-19T1600,1877A,109.4964,18.2681,三亚市,河西子站,,32,24,19,14,12,101,,90,90,8,7,3,3,0.4,0.4
2025-03-19T1600,3540A,109.7348,18.3443,三亚市,君悦子站,,44,44,30,20,17,120,,102,102,6,9,5,4,0.3,0.4
2025-03-19T1600,2624A,91.7608,29.2313,山南市,山南监测站,颗粒物(PM10),172,294,75,43,17,125,,106,106,2,3,5,5,0.3,0.3
2025-03-19T1600,2625A,91.7706,29.2436,山南市,山南人民医院,颗粒物(PM10),420,520,111,73,24,121,,107,105,3,4,4,4,0.3,0.4
2025-03-19T1600,1674A,116.6794,23.3667,汕头市,金平子站,,50,47,42,28,26,157,,126,126,22,28,6,9,0.6,0.7
2025-03-19T1600,1675A,116.7244,23.3633,汕头市,龙湖子站,,50,50,38,23,19,156,,129,129,9,14,5,6,0.5,0.5
