timepoint,stationcode,longitude,latitude,area,positionname,primarypollutant,aqi,pm10,pm10_24h,pm2_5,pm2_5_24h,o3,o3_24h,o3_8h,o3_8h_24h,no2,no2_24h,so2,so2_24h,co,co_24h
2025-06-27T2300,2566A,102.1879,31.914,阿坝藏族羌族自治州,州农科所,,24,24,20,16,10,42,,81,68,12,8,12,12,0.6,0.6
2025-06-27T2300,2568A,102.2502,31.8896,阿坝藏族羌族自治州,马师校,,35,31,22,24,15,41,,116,89,20,9,6,6,0.4,0.4
2025-06-27T2300,3994A,102.2165,31.9024,阿坝藏族羌族自治州,马尔康中学西区,,35,31,18,24,15,51,,120,100,17,6,6,6,0.5,0.5
2025-06-27T2300,2695A,80.292,41.1694,阿克苏地区,电视台,颗粒物(PM10),58,65,39,25,22,110,,140,136,17,8,5,5,0.8,0.6
2025-06-27T2300,2696A,80.2613,41.1551,阿克苏地区,艺术中心,,,,54,,28,,,122,,,2,,3,,0.3
2025-06-27T2300,2204A,105.6467,38.8363,阿拉善盟,西城区西花园,,34,29,17,16,10,107,,150,135,14,10,5,5,0.7,0.6
2025-06-27T2300,2205A,105.6985,38.8411,阿拉善盟,蒙二幼,,35,35,20,13,10,94,,135,126,11,8,7,7,0.6,0.5
2025-06-27T2300,2206A,105.724,38.8516,阿拉善盟,环保局新楼,,36,19,16,10,8,113,,136,130,6,5,9,9,0.6,0.6
2025-06-27T2300,2708A,88.1264,47.8517,阿勒泰地区,市站,,30,29,21,12,8,93,,103,103,8,8,2,1,0.4,0.3
2025-06-27T2300,2630A,80.1161,32.5,阿里地区,阿里监测站,,35,8,7,3,9,111,,115,113,8,6,8,8,0.3,0.3
2025-06-27T2300,3192A,80.0903,32.5028,阿里地区,阿里藏医院,,37,10,13,3,4,116,,120,120,9,3,9,9,0.5,0.4
2025-06-27T2300,2642A,109.0318,32.6537,安康市,香溪洞,,25,,21,17,10,75,,111,104,10,6,4,5,0.6,0.5
2025-06-27T2300,2644A,109.0072,32.6975,安康市,汉滨区检察院,,30,30,22,10,11,50,,112,97,16,9,6,10,0.4,0.4
2025-06-27T2300,4054A,109.0325,32.6913,安康市,市邮政管理局,,31,31,23,13,8,49,,109,88,13,11,6,8,0.7,0.6
2025-06-27T2300,2291A,117.0809,30.5177,安庆市,环科院,,17,17,16,7,8,7,,47,25,33,28,3,4,0.6,0.6
2025-06-27T2300,2292A,117.0331,30.5119,安庆市,马山宾馆,,17,17,16,7,9,18,,49,30,25,26,6,5,0.5,0.5
2025-06-27T2300,2294A,116.9896,30.6145,安庆市,安庆大学,,28,24,20,19,13,16,,51,32,29,23,3,3,0.5,0.5
2025-06-27T2300,3173A,117.0598,30.5351,安庆市,市人大,,25,25,16,11,9,23,,54,44,27,23,4,3,0.5,0.5
2025-06-27T2300,3122A,105.9606,26.2611,安顺市,伍家关,,,,15,7,8,40,,59,50,4,4,4,5,0.5,0.4
2025-06-27T2300,3123A,105.9408,26.2431,安顺市,凤凰山,,14,14,18,8,17,44,,67,52,7,8,4,4,0.5,0.5
2025-06-27T2300,3124A,105.9439,26.2564,安顺市,金钟山,,15,12,14,10,13,46,,67,55,4,5,4,5,0.6,0.4
2025-06-27T2300,3125A,105.8983,26.2481,安顺市,娄家坡,,14,10,12,6,12,43,,63,52,4,5,7,4,0.6,0.6
2025-06-27T2300,1818A,114.4839,36.0621,安阳市,棉研所,,,,,,,,,,,,,,,,
2025-06-27T2300,1819A,114.3551,36.1017,安阳市,红庙街,颗粒物(PM10),55,59,45,34,29,117,,134,95,2,2,2,3,0.5,0.8
2025-06-27T2300,1820A,114.361,36.0681,安阳市,银杏小区,颗粒物(PM10),54,57,50,34,37,109,,178,162,11,5,2,4,0.5,0.7
2025-06-27T2300,3141A,114.3922,36.0878,安阳市,信访局,颗粒物(PM10),54,58,45,26,24,122,,186,171,12,4,2,3,0.7,0.9
2025-06-27T2300,3669A,114.4705,36.0637,安阳市,左辅环卫站,,,88,61,32,33,102,,174,154,,13,6,7,0.7,0.9
2025-06-27T2300,3703A,114.2917,36.0949,安阳市,安钢职工学校,细颗粒物(PM2.5),67,72,45,48,30,118,,166,154,14,6,3,4,0.7,0.8
2025-06-27T2300,1748A,123.044,41.1196,鞍山市,深沟寺,,18,18,35,10,22,34,,72,44,8,20,5,6,0.7,1.1
2025-06-27T2300,1749A,123.011,41.0931,鞍山市,太阳城,,10,10,34,3,23,22,,71,44,8,16,6,7,0.6,1.1
2025-06-27T2300,1750A,123.0485,41.1442,鞍山市,太平,,24,24,50,13,29,43,,85,57,23,24,6,7,0.7,1
2025-06-27T2300,1751A,122.9642,41.0971,鞍山市,铁西三道街,,32,32,55,22,28,50,,83,62,14,26,6,8,0.7,1.2
2025-06-27T2300,1753A,123.022,41.0821,鞍山市,明达新区,,17,9,38,3,22,53,,89,63,5,13,6,7,0.4,0.8
2025-06-27T2300,1754A,123.1289,41.0228,鞍山市,千山,,,,,,,,,,,,,,,,
2025-06-27T2300,4201A,122.9446,41.0826,鞍山市,兴盛南路290号,,18,18,46,11,24,50,,75,60,16,30,3,5,0.6,1.1
2025-06-27T2300,2195A,107.4212,40.761,巴彦淖尔市,附二中,,38,38,28,23,19,120,,167,156,24,11,7,8,0.6,0.6
2025-06-27T2300,2196A,107.37,40.7372,巴彦淖尔市,市环保大楼,,44,44,36,29,22,110,,170,151,28,14,8,9,0.5,0.5
2025-06-27T2300,1956A,86.1472,41.7538,巴音郭楞蒙古自治州,孔雀公园,,39,39,44,6,16,122,,116,116,6,9,2,7,0.2,0.2
2025-06-27T2300,1957A,86.1972,41.7166,巴音郭楞蒙古自治州,棉纺厂,,35,35,61,7,13,109,,115,113,17,16,4,4,0.2,0.2
2025-06-27T2300,1958A,86.2357,41.7173,巴音郭楞蒙古自治州,经济开发区,,38,24,49,10,10,121,,125,124,6,6,4,4,0.1,0.1
2025-06-27T2300,2914A,106.7677,31.8794,巴中市,苏山坪,,31,13,17,11,13,98,,105,104,6,8,4,4,0.4,0.4
2025-06-27T2300,3181A,106.7768,31.8526,巴中市,市五中,,31,31,26,18,15,54,,115,98,15,15,7,7,0.6,0.6
2025-06-27T2300,3183A,106.7418,31.8654,巴中市,圣泉水务公司,,26,26,22,15,15,41,,114,90,31,16,6,6,0.7,0.6
2025-06-27T2300,3616A,106.7616,31.8344,巴中市,市中心医院,,26,26,23,16,16,36,,107,87,29,18,7,7,0.6,0.5
2025-06-27T2300,2235A,122.7911,45.6077,白城市,洮北区环保局,,30,13,36,7,24,93,,169,132,10,14,5,5,0.1,0.3
2025-06-27T2300,2236A,122.8738,45.5725,白城市,市环保局,,35,14,40,11,24,110,,159,133,3,8,6,6,0.3,0.5
2025-06-27T2300,2231A,126.4219,41.9171,白山市,喜丰,,35,32,56,24,26,39,,112,62,12,22,7,10,0.8,1
2025-06-27T2300,2232A,126.4077,41.9419,白山市,环保局,,32,31,46,22,25,44,,106,70,12,19,15,11,0.8,0.9
2025-06-27T2300,2647A,104.1724,36.5446,白银市,第三小学,二氧化硫,55,50,22,22,10,89,,136,126,23,9,180,25,0.7,0.7
2025-06-27T2300,2648A,104.1465,36.5482,白银市,动力公司,,32,30,19,16,11,102,,126,120,19,10,69,18,0.5,0.6
2025-06-27T2300,2512A,106.6103,23.9011,百色市,市监测站,,23,23,30,14,14,27,,72,45,14,12,6,6,0.5,0.5
2025-06-27T2300,2513A,106.6538,23.8859,百色市,市中心血站,,31,31,38,19,22,36,,67,45,11,17,5,7,0.7,0.7
2025-06-27T2300,3406A,106.6085,23.8798,百色市,祈福高中,,30,25,39,21,18,31,,68,46,14,12,7,6,0.5,0.4
2025-06-27T2300,2270A,117.396,32.939,蚌埠市,工人疗养院,,25,20,25,9,12,77,,125,97,6,7,3,4,0.4,0.5
2025-06-27T2300,2271A,117.3605,32.9427,蚌埠市,百货大楼,,23,20,26,10,12,71,,122,90,8,10,4,5,0.4,0.5
2025-06-27T2300,2273A,117.4185,32.8911,蚌埠市,蚌埠学院,,20,9,22,7,16,62,,111,83,7,9,5,6,0.4,0.5
2025-06-27T2300,2274A,117.3533,32.9673,蚌埠市,淮上区政府,,26,24,27,17,17,82,,139,101,7,9,5,5,0.5,0.5
2025-06-27T2300,2275A,117.3145,32.8977,蚌埠市,高新区,,28,24,26,19,15,59,,119,87,15,12,7,6,0.6,0.5
2025-06-27T2300,3715A,117.3092,32.9314,蚌埠市,蚌埠田家炳中学,,24,24,32,14,18,62,,121,87,11,10,8,6,0.4,0.4
2025-06-27T2300,1585A,109.8756,40.6532,包头市,市环境监测站,,33,33,31,20,22,105,,188,152,28,19,8,11,0.6,0.7
2025-06-27T2300,1587A,109.9991,40.5842,包头市,包头八中,,41,28,36,7,29,130,,168,148,13,19,12,13,0.8,0.8
2025-06-27T2300,1588A,109.8538,40.6821,包头市,青山宾馆,,38,,28,26,25,116,,186,148,23,18,8,11,0.5,0.6
2025-06-27T2300,1589A,109.8642,40.6288,包头市,惠龙物流,,38,28,35,22,21,119,,187,163,17,16,7,10,0.8,0.7
2025-06-27T2300,1590A,110.0377,40.5546,包头市,东河鸿龙湾,,44,26,32,13,21,138,,176,160,14,16,10,11,0.6,0.7
2025-06-27T2300,3283A,109.9154,40.5685,包头市,滨河大厦,,42,18,30,16,23,132,,184,163,15,16,10,12,0.8,0.7
2025-06-27T2300,3419A,109.9447,40.6261,包头市,包头市委党校,,41,24,29,23,22,131,,178,159,17,16,9,13,0.6,0.4
2025-06-27T2300,3683A,109.8331,40.6576,包头市,昆区政府,,39,32,38,27,29,116,,182,159,21,18,6,11,0.9,0.8
2025-06-27T2300,1930A,107.185,34.3063,宝鸡市,庙沟村,,36,26,27,14,11,114,,147,142,18,11,5,5,0.3,0.3
2025-06-27T2300,1931A,107.0708,34.3017,宝鸡市,竹园沟,,25,25,20,14,15,62,,135,114,31,15,6,6,0.4,0.4
2025-06-27T2300,1932A,107.1906,34.3672,宝鸡市,三陆医院,,35,22,28,10,11,109,,144,137,18,21,6,6,0.4,0.5
2025-06-27T2300,1933A,107.1431,34.3547,宝鸡市,监测站,,36,30,32,10,14,115,,138,132,14,15,7,7,0.2,0.3
2025-06-27T2300,1934A,107.1186,34.3739,宝鸡市,技工学校,,38,19,30,15,13,121,,147,141,10,10,7,8,0.4,0.5
2025-06-27T2300,1935A,107.3906,34.3528,宝鸡市,陈仓区环保局家属楼,,32,23,27,11,16,102,,137,129,23,15,6,6,0.3,0.4
2025-06-27T2300,1936A,107.2058,34.3497,宝鸡市,文理学院,,39,39,28,14,14,110,,151,142,12,14,6,6,0.4,0.5
2025-06-27T2300,1937A,107.2386,34.3622,宝鸡市,三迪小学,,36,18,31,8,14,115,,141,135,14,16,6,6,0.3,0.5
2025-06-27T2300,1051A,115.493,38.8632,保定市,游泳馆,细颗粒物(PM2.5),58,61,48,41,36,112,,157,152,16,12,4,4,0.4,0.3
2025-06-27T2300,1052A,115.5213,38.8959,保定市,华电二区,颗粒物(PM10),59,67,58,39,30,131,,166,164,16,13,2,2,0.8,0.6
2025-06-27T2300,1053A,115.4713,38.9108,保定市,接待中心,细颗粒物(PM2.5),62,66,50,44,36,134,,166,165,10,8,3,3,0.4,0.5
2025-06-27T2300,1054A,115.4612,38.8416,保定市,地表水厂,颗粒物(PM10),70,89,67,26,29,131,,172,168,17,16,3,3,0.7,0.6
2025-06-27T2300,3581A,115.31981,38.95208,保定市,满城区生态环境分局,颗粒物(PM10),73,95,58,44,35,123,,176,170,18,10,3,3,0.4,0.3
2025-06-27T2300,3582A,115.47694,38.76408,保定市,清苑区第二中学,"颗粒物(PM10),细颗粒物(PM2.5)",73,95,72,53,38,108,,173,164,17,8,1,2,0.5,0.5
2025-06-27T2300,3583A,115.62909,39.02311,保定市,徐水物探局,颗粒物(PM10),63,76,61,22,30,99,,163,151,15,12,2,2,0.8,0.6
2025-06-27T2300,4004A,115.4202,38.8656,保定市,双鹰农机,"颗粒物(PM10),细颗粒物(PM2.5)",53,55,40,37,31,134,,176,172,17,13,2,3,0.5,0.4
2025-06-27T2300,4034A,115.5150,38.8590,保定市,植保所站,颗粒物(PM10),54,58,56,30,33,124,,168,164,24,16,5,4,0.6,0.5
2025-06-27T2300,2594A,99.1678,25.1081,保山市,市环境监测站,,20,20,15,11,15,15,,42,35,5,6,8,7,0.4,0.4
2025-06-27T2300,2595A,99.1711,25.1328,保山市,市环保局,,16,16,15,10,9,26,,52,44,3,4,7,6,0.3,0.4
2025-06-27T2300,1866A,109.2262,21.588,北海市,牛尾岭水库,,18,15,9,12,6,51,,72,54,6,4,9,3,0.4,0.4
2025-06-27T2300,1867A,109.1436,21.4086,北海市,海滩公园,,32,32,24,3,3,40,,59,54,1,2,2,2,0.5,0.5
2025-06-27T2300,1868A,109.0981,21.4661,北海市,新市环保局,,18,15,13,12,8,49,,65,60,3,3,2,2,0.4,0.3
2025-06-27T2300,1869A,109.1778,21.5233,北海市,北海工业园,,28,28,22,10,9,24,,45,45,20,12,3,3,0.5,0.5
2025-06-27T2300,3400A,109.1911,21.4415,北海市,龙潭自来水厂,,15,12,12,6,8,48,,65,60,4,4,4,3,0.4,0.4
2025-06-27T2300,1001A,116.3621,39.8784,北京市,万寿西宫,,38,35,70,23,43,119,,141,129,13,21,3,3,0.7,0.6
2025-06-27T2300,1002A,116.2202,40.2915,北京市,定陵,细颗粒物(PM2.5),52,37,72,36,55,84,,112,110,7,7,2,3,0.9,0.9
2025-06-27T2300,1003A,116.4174,39.9289,北京市,东四,,41,28,65,17,37,131,,148,144,13,25,2,3,0.7,0.6
2025-06-27T2300,1004A,116.4072,39.8863,北京市,天坛,,33,31,65,23,44,85,,128,102,11,21,3,4,0.9,0.7
2025-06-27T2300,1005A,116.462,39.9365,北京市,农展馆,,36,32,69,23,44,114,,131,128,10,21,4,5,1.2,1
2025-06-27T2300,1006A,116.3392,39.9295,北京市,官园,,38,38,67,25,40,110,,140,132,15,23,3,4,0.7,0.6
2025-06-27T2300,1007A,116.2878,39.9611,北京市,海淀万柳,,36,36,77,11,33,111,,130,129,14,29,3,4,0.8,0.7
2025-06-27T2300,1008A,116.6636,40.135,北京市,顺义新城,,,,117,,57,,,172,,,39,,4,,0.7
2025-06-27T2300,1009A,116.6275,40.3275,北京市,怀柔镇,,50,45,65,35,45,108,,131,125,14,15,1,2,0.8,0.7
2025-06-27T2300,1010A,116.2296,40.217,北京市,昌平镇,细颗粒物(PM2.5),52,51,85,36,48,102,,121,120,17,17,4,5,1.1,1
2025-06-27T2300,1011A,116.3966,39.9821,北京市,奥体中心,,34,30,71,20,39,106,,134,127,9,13,3,4,0.8,0.7
2025-06-27T2300,3281A,115.9718,40.4529,北京市,延庆夏都,细颗粒物(PM2.5),70,60,74,51,55,105,,119,103,8,13,4,5,0.7,0.8
2025-06-27T2300,3418A,116.8336,40.4095,北京市,密云新城,细颗粒物(PM2.5),57,52,64,40,45,81,,123,108,10,11,2,2,0.9,0.8
2025-06-27T2300,3671A,116.088,39.9726,北京市,门头沟三家店,细颗粒物(PM2.5),74,72,97,54,61,94,,105,105,17,28,3,3,1.0,0.8
2025-06-27T2300,3672A,116.1541,39.8204,北京市,丰台云岗,,37,37,81,24,46,110,,137,122,9,19,3,3,0.7,0.6
2025-06-27T2300,3673A,116.6804,39.9081,北京市,通州东关,,38,23,68,17,43,120,,136,133,6,18,2,2,1.0,0.9
2025-06-27T2300,3674A,115.9577,39.7603,北京市,房山燕山,细颗粒物(PM2.5),69,65,78,50,49,91,,148,134,12,20,1,1,0.7,0.6
2025-06-27T2300,3675A,116.4672,39.7733,北京市,大兴旧宫,,36,36,68,23,39,110,,137,124,13,18,2,2,0.9,0.8
2025-06-27T2300,3694A,115.986,40.4563,北京市,延庆石河营,,48,48,67,33,48,102,,106,89,9,13,2,3,0.7,0.8
2025-06-27T2300,3695A,116.6151,40.3053,北京市,怀柔新城,细颗粒物(PM2.5),57,47,68,40,52,90,,119,114,11,11,1,2,1.2,1
2025-06-27T2300,3696A,116.2545,39.8768,北京市,丰台小屯,,39,39,76,25,46,89,,122,113,15,19,2,2,0.7,0.7
2025-06-27T2300,3697A,116.84,40.3844,北京市,密云镇,细颗粒物(PM2.5),64,54,71,46,50,78,,119,107,13,17,3,4,0.9,0.9
2025-06-27T2300,4182A,116.1942,39.9158,北京市,八角北路9号,,46,43,86,32,48,95,,127,121,18,27,1,1,0.8,0.7
2025-06-27T2300,4194A,117.0790,40.1518,北京市,洳河巡河路,,46,46,120,24,66,88,,120,105,11,7,3,4,0.7,1
2025-06-27T2300,1761A,123.8275,41.3064,本溪市,大峪,,13,13,43,8,20,25,,66,37,14,22,6,7,0.3,0.8
2025-06-27T2300,1762A,123.7567,41.3325,本溪市,溪湖,,24,24,49,9,20,16,,54,39,23,20,7,7,0.7,1.2
2025-06-27T2300,1763A,123.7169,41.3094,本溪市,彩屯,,32,32,42,18,26,28,,62,43,22,26,8,8,1.1,1.2
2025-06-27T2300,1764A,123.7669,41.2864,本溪市,东明,,18,18,35,12,19,32,,68,56,15,19,4,6,0.7,1
2025-06-27T2300,1765A,123.7992,41.2664,本溪市,新立屯,,16,16,29,3,16,22,,68,34,15,20,4,5,0.5,0.8
2025-06-27T2300,1766A,123.8142,41.3472,本溪市,威宁,,32,32,82,11,28,14,,53,22,17,23,6,6,0.5,0.8
2025-06-27T2300,2587A,105.2864,27.3125,毕节市,八中,,25,19,16,17,16,9,,48,35,15,11,5,6,0.6,0.5
2025-06-27T2300,2588A,105.31,27.2944,毕节市,师专,,28,28,20,19,14,15,,51,40,28,15,4,6,0.6,0.5
2025-06-27T2300,4263A,105.3688,27.3598,毕节市,工业大道,,19,19,18,11,12,24,,67,56,21,14,7,6,0.6,0.7
2025-06-27T2300,1629A,118.0018,37.3617,滨州市,第二水厂,细颗粒物(PM2.5),67,73,60,48,45,121,,142,133,10,8,2,2,0.6,0.6
2025-06-27T2300,1630A,117.9776,37.393,滨州市,北中新校,细颗粒物(PM2.5),83,73,57,61,45,121,,143,137,12,9,6,6,0.7,0.6
2025-06-27T2300,3514A,117.9378,37.3956,滨州市,中海酒店,细颗粒物(PM2.5),70,63,47,51,43,117,,141,136,20,15,8,6,0.8,0.7
2025-06-27T2300,3515A,117.9378,37.3553,滨州市,开发区一中,细颗粒物(PM2.5),73,68,52,53,47,103,,130,121,19,15,8,8,0.6,0.5
2025-06-27T2300,3516A,118.0917,37.694,滨州市,金海六路,细颗粒物(PM2.5),83,63,48,61,42,90,,143,131,24,10,7,8,0.4,0.4
2025-06-27T2300,4028A,117.9956,37.3753,滨州市,滨州市西街道办事处,,,63,50,51,44,124,,149,142,9,7,3,3,,0.4
2025-06-27T2300,2311A,115.8072,33.8399,亳州市,污水处理厂,,20,14,17,8,12,63,,132,109,12,8,4,4,0.9,0.8
2025-06-27T2300,2312A,115.7789,33.8518,亳州市,三国揽胜宫,,31,31,24,6,10,67,,132,114,12,8,2,3,0.6,0.5
2025-06-27T2300,3332A,115.7633,33.8034,亳州市,亳州学院,,21,,15,10,11,66,,140,118,11,7,3,3,0.6,0.5
2025-06-27T2300,2693A,82.0485,44.8556,博尔塔拉蒙古自治州,市党校,,34,18,16,10,10,106,,108,108,8,8,2,3,0.0,0.1
2025-06-27T2300,2694A,82.0806,44.8969,博尔塔拉蒙古自治州,市环保局,,32,25,24,12,10,102,,106,106,7,5,1,2,0.2,0.3
2025-06-27T2300,1071A,116.8842,38.2991,沧州市,沧县城建局,,47,47,47,27,32,97,,146,134,27,18,3,3,0.5,0.4
2025-06-27T2300,1072A,116.8584,38.3254,沧州市,电视转播站,细颗粒物(PM2.5),58,51,49,41,39,94,,131,125,26,18,3,2,0.5,0.4
2025-06-27T2300,1073A,116.8709,38.3228,沧州市,市环保局,"颗粒物(PM10),细颗粒物(PM2.5)",53,55,58,37,38,88,,137,125,22,14,3,3,0.5,0.4
2025-06-27T2300,3324A,116.8136,38.3004,沧州市,河北水利电力学院,颗粒物(PM10),53,56,57,26,38,128,,171,160,21,17,3,3,0.5,0.4
2025-06-27T2300,2622A,97.1806,31.1273,昌都市,昌都监测站,,34,34,20,21,12,60,,131,107,28,11,6,5,0.5,0.4
2025-06-27T2300,3719A,97.1714,31.1406,昌都市,昌都会议中心,,43,,26,30,18,78,,119,109,13,7,5,6,0.2,0.2
2025-06-27T2300,2690A,88.1236,43.8886,昌吉回族自治州,天山天池,,27,27,47,12,15,72,,108,96,7,7,10,8,0.7,0.6
2025-06-27T2300,2692A,87.2717,44.0297,昌吉回族自治州,新区政务中心,颗粒物(PM10),68,85,58,21,16,80,,120,107,8,8,1,3,0.2,0.2
2025-06-27T2300,3613A,87.3095,44.0142,昌吉回族自治州,亚心广场,,46,46,64,14,19,74,,114,102,11,10,5,6,0.2,0.2
2025-06-27T2300,1120A,125.2863,43.9027,长春市,客车厂,,33,30,49,23,28,97,,144,130,22,31,4,6,0.4,0.5
2025-06-27T2300,1121A,125.2841,43.8463,长春市,邮电学院,,36,31,47,25,19,52,,137,115,20,28,5,6,0.6,0.7
2025-06-27T2300,1122A,125.3716,43.8772,长春市,劳动公园,颗粒物(PM10),52,54,61,30,27,104,,147,133,22,28,6,7,0.5,0.5
2025-06-27T2300,1123A,125.3297,43.8805,长春市,园林处,,50,50,52,25,23,98,,142,130,18,25,5,6,0.6,0.7
2025-06-27T2300,1124A,125.4605,43.79,长春市,净月潭,颗粒物(PM10),55,60,49,36,22,59,,132,108,18,25,6,6,0.6,0.5
2025-06-27T2300,1125A,125.7194,43.515,长春市,甩湾子,,50,39,39,35,18,81,,132,97,14,42,1,2,0.7,0.7
2025-06-27T2300,1126A,125.3863,43.8447,长春市,经开区环卫处,,43,37,57,30,22,87,,147,130,17,26,6,7,0.6,0.6
2025-06-27T2300,1127A,125.245,43.7783,长春市,高新区管委会,,42,29,48,29,25,94,,145,123,23,37,3,4,0.6,0.5
2025-06-27T2300,1128A,125.1761,43.8325,长春市,岱山公园,,36,29,50,25,29,85,,134,108,43,45,3,5,0.6,0.5
2025-06-27T2300,4281A,125.3346,43.9164,长春市,北亚泰大街1068号,,43,34,53,30,26,106,,149,143,17,28,4,5,0.8,0.8
2025-06-27T2300,1335A,113.0833,28.2325,长沙市,经开区环保局,,16,16,24,3,12,39,,92,61,14,12,4,4,0.3,0.5
2025-06-27T2300,1336A,112.8872,28.2189,长沙市,高开区环保局,,28,28,29,3,11,27,,90,58,15,10,3,2,0.5,0.6
2025-06-27T2300,1337A,113.0792,28.2053,长沙市,马坡岭,,23,23,30,3,14,42,,90,64,10,9,4,4,0.4,0.5
2025-06-27T2300,1338A,112.9394,28.19,长沙市,湖南师范大学,,23,23,27,3,14,45,,92,61,10,11,2,3,0.4,0.5
2025-06-27T2300,1339A,113.0178,28.1322,长沙市,雨花区环保局,,18,18,33,7,13,45,,93,69,7,9,4,5,0.1,0.2
2025-06-27T2300,1340A,112.9792,28.2597,长沙市,伍家岭,,,,27,,13,,,92,62,16,10,2,2,0.4,0.5
2025-06-27T2300,1341A,113.0014,28.1944,长沙市,火车新站,,23,23,29,7,15,45,,92,,9,10,6,7,0.4,0.6
2025-06-27T2300,1342A,112.9844,28.1178,长沙市,天心区环保局,,20,20,24,6,15,50,,102,74,11,11,1,2,0.2,0.3
2025-06-27T2300,1343A,112.8908,28.1308,长沙市,湖南中医药大学,,32,28,26,22,14,40,,90,56,13,8,3,3,0.5,0.6
2025-06-27T2300,1344A,112.9581,28.3611,长沙市,沙坪,,18,18,33,3,15,46,,92,56,7,10,4,4,0.4,0.5
2025-06-27T2300,1727A,113.1147,36.1547,长治市,清华站,臭氧1小时,54,40,36,29,26,163,,158,154,12,10,8,8,0.8,0.8
2025-06-27T2300,1730A,113.0886,36.2125,长治市,审计局,,49,33,33,27,29,155,,165,158,13,13,9,10,0.8,1
2025-06-27T2300,1731A,113.0844,36.1856,长治市,长治八中,臭氧1小时,74,41,27,27,35,179,,170,164,10,11,11,12,0.7,0.8
2025-06-27T2300,2845A,113.1569,36.1911,长治市,德盛苑,,49,43,35,27,25,156,,164,157,11,9,8,8,0.9,0.8
2025-06-27T2300,3568A,113.06,36.0464,长治市,向阳小学,颗粒物(PM10),65,80,70,22,35,153,,169,159,22,12,6,5,0.8,0.8
2025-06-27T2300,3569A,112.8792,36.3144,长治市,屯留一中,颗粒物(PM10),52,53,52,34,33,130,,147,133,13,16,7,9,0.3,0.5
2025-06-27T2300,4189A,113.1131,36.19948,长治市,英华南巷50号,,44,40,44,29,30,140,,160,149,18,13,7,7,0.9,0.8
2025-06-27T2300,4190A,113.2367,36.3344,长治市,学府街1号,细颗粒物(PM2.5),57,42,50,40,30,144,,163,154,15,18,5,8,1.2,1
2025-06-27T2300,1854A,111.6975,28.9703,常德市,市二中,,12,11,22,3,16,16,,102,60,23,11,4,4,0.7,0.8
2025-06-27T2300,1857A,111.7158,29.1456,常德市,白鹤山,,,,,,,,,,,,,,,,
2025-06-27T2300,3138A,111.7153,29.0289,常德市,武陵区永安,,16,16,24,3,18,20,,98,63,17,8,4,4,0.3,0.4
2025-06-27T2300,3139A,111.6892,28.9881,常德市,鼎城区玉霞,,13,13,25,3,19,20,,101,60,17,10,2,3,0.5,0.6
2025-06-27T2300,3140A,111.6625,29.0531,常德市,武陵区长庚,,10,10,24,7,19,28,,99,68,13,9,2,3,0.5,0.6
2025-06-27T2300,1196A,119.9633,31.762,常州市,市监测站,,26,26,23,13,14,18,,109,36,37,28,11,11,0.5,0.5
2025-06-27T2300,1200A,119.9468,31.7069,常州市,武进监测站,,25,25,31,10,11,19,,118,38,30,20,12,14,0.7,0.7
2025-06-27T2300,1201A,119.9255,31.9087,常州市,安家,,,22,32,10,12,15,,116,29,,27,7,10,,0.6
2025-06-27T2300,3002A,119.9805,31.8174,常州市,行政中心,,23,23,28,16,12,13,,97,32,34,17,9,11,0.6,0.3
2025-06-27T2300,3003A,120.0522,31.7748,常州市,经开区,,41,41,28,9,12,14,,113,36,31,17,6,7,0.4,0.4
2025-06-27T2300,3010A,119.9025,31.7964,常州市,钟楼,,25,25,24,8,11,31,,92,38,21,18,7,8,0.6,0.5
2025-06-27T2300,3429A,119.8598,31.7066,常州市,武进经发区,,34,34,23,14,11,14,,116,34,28,15,6,8,0.8,0.8
2025-06-27T2300,3430A,119.5826,31.7245,常州市,金坛城区,,15,15,20,8,10,29,,88,43,19,15,7,8,0.5,0.4
2025-06-27T2300,2220A,120.4318,41.5881,朝阳市,西梁,,29,,35,20,32,87,,125,98,8,13,7,9,0.7,0.7
2025-06-27T2300,2221A,120.4521,41.5646,朝阳市,河畔小区,,31,,27,19,22,98,,144,113,6,10,6,9,0.3,0.4
2025-06-27T2300,2222A,120.4176,41.5648,朝阳市,八里堡,,36,,30,25,30,90,,132,112,12,15,4,6,0.6,0.6
2025-06-27T2300,2223A,120.3806,41.5969,朝阳市,农业园区,,30,,28,21,30,79,,113,98,13,20,3,4,0.5,0.6
2025-06-27T2300,1705A,116.6367,23.6719,潮州市,西园路,,23,23,21,3,6,22,,58,40,15,9,7,4,0.5,0.5
2025-06-27T2300,3026A,116.6183,23.6608,潮州市,市政府,,14,14,18,6,8,22,,53,37,9,6,5,3,0.7,0.7
2025-06-27T2300,4036A,116.6461,23.6761,潮州市,金山,,19,,17,13,13,23,,56,42,12,6,7,5,0.6,0.5
2025-06-27T2300,2472A,113.0073,25.9061,郴州市,马头岭,,13,13,12,3,6,26,,53,37,10,8,7,7,0.4,0.4
2025-06-27T2300,2473A,113.0116,25.8226,郴州市,市职中,,,10,9,6,5,34,,52,36,16,12,4,5,,0.5
2025-06-27T2300,2475A,113.0383,25.8071,郴州市,市审计局,,16,14,12,11,8,34,,55,38,8,7,12,11,0.3,0.3
2025-06-27T2300,2476A,113.0348,25.7759,郴州市,市环保局,,,12,22,3,5,,,56,45,10,9,5,11,0.4,0.2
2025-06-27T2300,4252A,113.0138,25.8011,郴州市,好美居路49号,,15,,12,8,6,45,,57,47,7,6,7,7,0.2,0.3
2025-06-27T2300,1431A,103.9728,30.7236,成都市,金泉两河,,30,30,37,14,28,65,,158,141,35,26,2,3,0.6,0.6
2025-06-27T2300,1432A,104.176,30.6872,成都市,十里店,细颗粒物(PM2.5),64,71,45,46,22,106,,177,166,40,30,4,4,0.9,0.7
2025-06-27T2300,1433A,104.079,30.5706,成都市,三瓦窑,,48,48,44,29,24,58,,176,144,62,43,4,4,0.8,0.7
2025-06-27T2300,1434A,104.1114,30.63,成都市,沙河铺,细颗粒物(PM2.5),65,,35,47,22,52,,148,112,45,26,4,5,1.2,1.2
2025-06-27T2300,1437A,104.0786,30.6531,成都市,君平街,,46,46,48,30,28,60,,110,98,24,27,4,4,0.8,0.9
2025-06-27T2300,1438A,103.613,31.0283,成都市,灵岩寺,,,,,,,,,,,,,,,,
2025-06-27T2300,2880A,104.0239,30.65639,成都市,大石西路,,50,50,51,34,32,94,,149,131,22,28,5,4,0.9,0.9
2025-06-27T2300,3136A,104.2725,30.5589,成都市,龙泉驿区区政府,,30,22,20,12,12,93,,138,123,36,35,4,4,0.8,0.8
2025-06-27T2300,3357A,104.0106,30.6931,成都市,金博路,,38,37,41,26,26,44,,142,110,31,34,3,4,1.0,0.9
2025-06-27T2300,3359A,104.0578,30.5225,成都市,华阳,,39,34,34,27,25,90,,163,148,26,24,6,7,0.7,0.7
2025-06-27T2300,3488A,104.3853,30.7453,成都市,青白江技师分院,颗粒物(PM10),78,105,43,42,18,70,,183,152,82,29,6,5,0.8,0.7
2025-06-27T2300,3489A,104.0789,30.4072,成都市,科学城,,,39,36,24,24,91,,173,157,19,25,4,4,,0.4
2025-06-27T2300,4011A,103.8506,30.6947,成都市,光华大道三段,细颗粒物(PM2.5),63,51,49,45,35,43,,140,127,52,18,4,5,0.7,0.5
2025-06-27T2300,4224A,104.2433,30.5353,成都市,鲸龙路1057号,,45,45,33,28,20,27,,144,107,73,24,7,7,0.8,0.6
2025-06-27T2300,1062A,117.9531,40.9081,承德市,铁路,,30,26,55,21,31,59,,134,103,17,15,2,3,0.5,0.7
2025-06-27T2300,1063A,117.9392,40.9763,承德市,中国银行,,35,,49,24,35,59,,132,96,8,13,3,2,0.5,0.6
2025-06-27T2300,1064A,117.9503,40.928,承德市,开发区,,35,30,55,24,34,59,,140,100,18,18,3,4,0.4,0.6
2025-06-27T2300,1065A,117.8051,40.9655,承德市,文化中心,,31,31,61,16,34,82,,148,107,9,16,1,3,0.4,0.7
2025-06-27T2300,1066A,117.9268,41.0026,承德市,离宫,,15,15,47,10,31,19,,130,64,5,11,3,2,0.4,0.5
2025-06-27T2300,2314A,117.47,30.6618,池州市,池州学院,,13,13,21,3,10,22,,56,46,15,12,5,6,0.4,0.4
2025-06-27T2300,3237A,117.4918,30.6617,池州市,展览馆,,14,14,17,3,8,13,,52,40,21,11,4,5,0.5,0.6
2025-06-27T2300,3333A,117.5627,30.695,池州市,第八中学,,17,17,17,7,9,16,,58,46,14,14,5,6,0.3,0.3
2025-06-27T2300,3334A,117.5038,30.6243,池州市,第十二中学,,15,15,18,3,9,10,,56,39,5,6,4,4,0.8,0.7
2025-06-27T2300,1744A,118.9233,42.2816,赤峰市,松山一中,,35,14,39,6,25,110,,148,127,14,17,6,11,0.7,0.8
2025-06-27T2300,1745A,118.9576,42.2728,赤峰市,哈达街,,35,10,44,3,24,110,,146,127,15,22,11,18,0.7,0.8
2025-06-27T2300,1746A,118.8788,42.2554,赤峰市,天义路,,36,,47,11,28,113,,154,133,14,15,12,11,0.4,0.5
2025-06-27T2300,3058A,119.2658,42.0353,赤峰市,银河街,,28,18,62,12,31,89,,139,109,11,17,9,19,0.6,0.8
2025-06-27T2300,3286A,118.9359,42.3147,赤峰市,桥北物流园区,,,17,49,,27,84,,148,121,18,14,10,31,0.8,0.8
2025-06-27T2300,2521A,107.3476,22.4136,崇左市,市环保局江州分局,,17,14,19,8,12,52,,66,65,6,8,6,6,0.7,0.7
2025-06-27T2300,4256A,107.3750,22.3736,崇左市,石景林东路7号,,,,14,7,6,46,,72,69,15,8,4,4,0.6,0.5
2025-06-27T2300,2298A,118.3093,32.3153,滁州市,老年大学,,20,20,20,8,12,37,,68,61,17,7,8,8,0.3,0.3
2025-06-27T2300,2299A,118.3244,32.2786,滁州市,人大宾馆,,25,,10,17,15,41,,84,71,19,8,5,4,0.4,0.3
2025-06-27T2300,3207A,118.3118,32.3038,滁州市,市政府原办公楼,,33,,16,23,20,37,,74,62,16,6,4,4,0.5,0.5
2025-06-27T2300,3331A,118.3267,32.2634,滁州市,图书馆,,21,21,11,14,12,32,,74,61,16,4,8,9,0.4,0.4
2025-06-27T2300,2605A,101.5482,25.0441,楚雄彝族自治州,州环境监测站,,20,14,12,7,8,64,,78,74,7,8,7,9,0.4,0.4
2025-06-27T2300,2606A,101.538,25.0492,楚雄彝族自治州,市经济开发区,,37,37,16,12,10,62,,75,71,7,8,6,10,0.5,0.4
2025-06-27T2300,2548A,107.5277,31.2827,达州市,达州职业技术学院,,34,34,30,3,5,22,,119,85,45,23,6,8,0.5,0.5
2025-06-27T2300,2549A,107.5086,31.2186,达州市,市环境监测站,,22,22,30,3,7,53,,116,92,38,32,5,6,0.4,0.4
2025-06-27T2300,2550A,107.4988,31.2132,达州市,凤凰小区,,29,29,26,12,8,45,,124,100,39,25,4,6,0.4,0.3
2025-06-27T2300,2551A,107.5082,31.1986,达州市,达县机关宾馆,,38,31,26,12,4,2,,122,83,75,33,6,7,0.4,0.4
2025-06-27T2300,2552A,107.4644,31.2124,达州市,市政中心,,46,46,32,12,7,22,,117,88,67,26,3,3,0.8,0.6
2025-06-27T2300,2614A,100.1542,25.7054,大理白族自治州,大理市环境监测站,,24,10,10,9,14,74,,118,92,8,9,5,5,0.5,0.5
2025-06-27T2300,2615A,100.2171,25.5811,大理白族自治州,大理古城,,20,20,13,9,6,61,,111,90,15,7,8,9,0.8,0.7
2025-06-27T2300,1109A,121.612,38.9741,大连市,甘井子,,23,14,25,7,21,71,,113,74,12,15,6,6,0.5,0.6
2025-06-27T2300,1110A,121.565,38.9511,大连市,周水子,,21,17,29,14,24,67,,111,77,13,14,10,10,0.4,0.4
2025-06-27T2300,1111A,121.5637,38.8845,大连市,星海三站,,23,19,38,9,20,73,,131,94,4,5,5,5,0.4,0.3
2025-06-27T2300,1112A,121.6302,38.9117,大连市,青泥洼桥,,27,27,38,13,22,74,,126,90,9,7,5,6,0.8,0.6
2025-06-27T2300,1113A,121.6251,38.8638,大连市,傅家庄,,23,13,22,10,20,72,,134,91,9,7,10,10,0.3,0.3
2025-06-27T2300,1114A,121.5213,38.8661,大连市,七贤岭,,25,13,23,6,21,79,,145,100,5,5,7,8,0.7,0.7
2025-06-27T2300,1115A,121.2529,38.8061,大连市,旅顺,,19,10,26,3,21,60,,122,86,11,7,4,4,0.3,0.4
2025-06-27T2300,1116A,121.7485,39.1311,大连市,金州,,24,,35,7,19,75,,118,78,6,9,7,8,0.3,0.3
2025-06-27T2300,1117A,121.7811,39.0496,大连市,开发区,,25,11,23,9,20,80,,119,74,10,14,16,16,0.5,0.5
2025-06-27T2300,1118A,121.9762,39.0631,大连市,双D港,,30,,14,11,18,93,,99,80,2,5,8,8,0.5,0.5
2025-06-27T2300,1789A,124.81117,46.03138,大庆市,大同区,颗粒物(PM10),55,60,56,29,28,124,,173,137,8,14,8,8,0.6,0.6
2025-06-27T2300,1790A,125.129,46.533,大庆市,龙凤区,颗粒物(PM10),54,57,45,33,23,117,,178,143,13,20,7,7,0.8,0.5
2025-06-27T2300,1791A,124.902,46.408,大庆市,红岗区,细颗粒物(PM2.5),59,57,44,42,28,136,,200,155,12,12,10,11,0.8,0.6
2025-06-27T2300,1792A,125.153,46.586,大庆市,萨尔图区,颗粒物(PM10),59,68,51,30,25,112,,166,134,14,16,9,10,0.6,0.5
2025-06-27T2300,1793A,124.9042,46.6215,大庆市,让胡路区,,49,49,47,28,27,128,,184,150,10,21,6,6,0.4,0.4
2025-06-27T2300,3481A,125.141,46.634,大庆市,萨区政府监测点,颗粒物(PM10),58,66,48,24,20,126,,192,151,11,14,7,7,0.5,0.4
2025-06-27T2300,1721A,113.3819,40.1097,大同市,果树场,,,,,,,,,,,,,,,,
2025-06-27T2300,1723A,113.2994,40.0758,大同市,云冈宾馆,,37,28,44,23,36,117,,157,143,14,12,5,5,0.7,0.7
2025-06-27T2300,1724A,113.3444,40.0917,大同市,大同大学,,38,,34,19,29,120,,172,157,13,12,14,12,0.4,0.5
2025-06-27T2300,1725A,113.2661,40.1269,大同市,安家小村,颗粒物(PM10),52,54,42,25,29,92,,169,146,30,14,4,4,0.7,0.7
2025-06-27T2300,1726A,113.2711,40.0844,大同市,教育学院,,41,31,40,17,30,130,,162,150,14,14,7,7,0.4,0.5
2025-06-27T2300,3282A,113.3397,40.0597,大同市,大同市卫生学校,,35,30,48,23,32,109,,153,141,17,11,6,6,0.7,0.7
2025-06-27T2300,3565A,113.1367,40.1122,大同市,云冈站,,35,35,45,22,27,64,,163,132,30,13,3,4,0.6,0.6
2025-06-27T2300,3566A,113.1186,40.2556,大同市,图书馆,,40,38,42,22,29,126,,165,145,10,11,6,7,0.7,0.7
2025-06-27T2300,3567A,113.5931,40.0461,大同市,区一中,,40,23,44,17,36,125,,164,154,8,12,10,11,0.5,0.5
2025-06-27T2300,4199A,113.2798,40.0997,大同市,魏都大道141号,,40,33,47,14,28,128,,168,155,16,13,6,6,0.7,0.7
2025-06-27T2300,2269A,124.1069,50.4097,大兴安岭地区,科技局,颗粒物(PM10),54,58,34,14,14,50,,106,96,16,6,8,6,0.4,0.3
2025-06-27T2300,3663A,124.1164,50.4278,大兴安岭地区,红旗社区,,33,24,19,23,17,42,,114,97,13,9,6,6,0.4,0.3
2025-06-27T2300,1600A,124.3303,40.0625,丹东市,江湾东路,,33,23,65,23,20,54,,66,48,13,17,3,3,0.8,0.8
2025-06-27T2300,1601A,124.4256,40.1503,丹东市,临江后街,,24,24,31,13,13,33,,60,49,15,14,8,8,0.8,0.8
2025-06-27T2300,1602A,124.3933,40.1461,丹东市,元宝山,,26,26,24,15,12,38,,54,44,10,11,5,6,0.6,0.6
2025-06-27T2300,1603A,124.3633,40.1092,丹东市,民主桥,,24,24,21,14,13,40,,60,44,15,14,7,9,1.3,1.3
2025-06-27T2300,3541A,109.5726,19.5167,儋州市,第一中学子站,,16,16,13,8,10,32,,47,42,3,3,7,5,0.5,0.6
2025-06-27T2300,3542A,109.5567,19.5187,儋州市,东坡学校子站,,11,7,10,3,6,35,,53,49,2,3,5,6,0.5,0.8
2025-06-27T2300,2616A,98.5842,24.428,德宏傣族景颇族自治州,德宏州监测站,,20,20,20,11,10,24,,48,38,10,8,6,7,0.8,0.7
2025-06-27T2300,3677A,98.5881,24.4368,德宏傣族景颇族自治州,芒市人民政府综合楼,,29,29,27,7,8,19,,50,38,9,7,6,8,0.5,0.5
2025-06-27T2300,1901A,104.4239,31.1208,德阳市,东山公园,,43,33,30,25,20,136,,174,165,12,12,6,6,0.9,0.8
2025-06-27T2300,1902A,104.3826,31.1317,德阳市,西小区,,46,46,44,31,27,102,,168,156,35,22,5,5,1.0,0.9
2025-06-27T2300,1904A,104.3553,31.1091,德阳市,耐火材料厂,细颗粒物(PM2.5),54,54,45,38,29,92,,180,166,31,23,1,2,0.7,0.6
2025-06-27T2300,3639A,104.4019,31.1244,德阳市,市教育局,,40,40,35,26,22,96,,180,162,31,16,12,7,0.8,0.8
2025-06-27T2300,1622A,116.3032,37.4674,德州市,儿童乐园,细颗粒物(PM2.5),64,48,52,46,47,137,,172,162,10,7,6,6,0.6,0.5
2025-06-27T2300,1624A,116.2991,37.4451,德州市,监理站,细颗粒物(PM2.5),55,51,51,39,39,136,,172,162,12,7,7,7,0.4,0.4
2025-06-27T2300,3066A,116.2721,37.4379,德州市,九衢泉纯净水厂,细颗粒物(PM2.5),58,56,53,41,45,125,,150,146,25,18,6,6,0.9,0.9
2025-06-27T2300,3371A,116.3728,37.4403,德州市,开发区人民医院,细颗粒物(PM2.5),58,53,49,41,36,136,,164,153,16,14,8,8,0.8,0.8
2025-06-27T2300,3372A,116.3572,37.4094,德州市,太阳城中学,,,,,,,,,,,,,,,,
2025-06-27T2300,3511A,116.5652,37.3319,德州市,陵城艺术中心,细颗粒物(PM2.5),52,51,53,36,39,128,,164,154,14,8,5,5,0.8,0.8
2025-06-27T2300,2621A,99.7056,27.8317,迪庆藏族自治州,迪庆州站,,29,24,21,20,14,74,,107,92,8,9,7,7,0.5,0.4
2025-06-27T2300,3180A,99.7136,27.8094,迪庆藏族自治州,质量技术监督局,,24,20,21,16,10,76,,107,93,7,11,6,6,0.4,0.4
2025-06-27T2300,4257A,104.6092,35.5962,定西市,将台街,颗粒物(PM10),56,61,29,23,12,84,,155,144,28,15,5,5,0.3,0.1
2025-06-27T2300,4309A,104.6159,35.5701,定西市,正龙路62号,,41,41,23,19,12,105,,149,142,8,4,4,4,0.2,0.2
2025-06-27T2300,1389A,113.7547,23.0494,东莞市,莞城梨川,,27,27,15,18,11,19,,88,43,24,16,7,6,0.5,0.5
2025-06-27T2300,1390A,113.7944,23.0128,东莞市,东城石井,,21,21,16,8,8,10,,77,36,25,20,2,3,0.5,0.5
2025-06-27T2300,1391A,113.7383,22.9658,东莞市,南城西平,,18,18,16,7,7,15,,70,32,26,23,3,3,0.5,0.5
2025-06-27T2300,3319A,113.7338,23.0381,东莞市,万江金泰,,16,16,16,8,9,16,,73,30,20,18,2,2,0.7,0.7
2025-06-27T2300,3626A,113.7533,23.0202,东莞市,南城元岭,,15,15,16,7,8,20,,79,36,24,20,3,4,0.5,0.5
2025-06-27T2300,3627A,113.7875,23.0457,东莞市,东城主山,,32,32,17,15,9,13,,86,42,28,17,6,6,0.8,0.8
2025-06-27T2300,1666A,118.6614,37.4309,东营市,市环保局,细颗粒物(PM2.5),70,58,39,51,35,100,,142,137,25,17,5,5,0.6,0.5
2025-06-27T2300,3036A,118.6904,37.4338,东营市,开发区管委会,细颗粒物(PM2.5),79,76,51,58,40,102,,135,131,24,15,4,4,0.5,0.4
2025-06-27T2300,3365A,118.5719,37.565,东营市,垦利区民丰路,细颗粒物(PM2.5),73,75,52,53,40,101,,136,129,22,15,8,8,0.9,0.8
2025-06-27T2300,3498A,118.5055,37.8612,东营市,河口城区,,42,36,33,29,29,111,,144,138,18,12,3,11,1.3,1.3
2025-06-27T2300,3646A,118.4978,37.4623,东营市,胜利站,细颗粒物(PM2.5),64,46,37,46,35,98,,134,125,24,17,7,7,1.3,1
2025-06-27T2300,3734A,118.35,37.26,东营市,理想之城,细颗粒物(PM2.5),73,70,45,53,41,103,,135,126,22,15,5,5,0.8,0.8
2025-06-27T2300,1591A,110.0023,39.8129,鄂尔多斯市,综合楼,,38,22,30,14,19,120,,156,139,23,24,4,5,0.6,0.5
2025-06-27T2300,1592A,109.9486,39.8261,鄂尔多斯市,巴音孟克林场办事处,,42,27,37,19,20,134,,167,147,16,16,4,5,0.5,0.5
2025-06-27T2300,1593A,109.7736,39.5986,鄂尔多斯市,康泽苑,,39,34,37,19,17,122,,162,140,19,14,11,11,0.4,0.4
2025-06-27T2300,1594A,109.8119,39.5989,鄂尔多斯市,华泰汽车城,,31,27,34,14,18,97,,146,118,17,14,6,5,0.5,0.5
2025-06-27T2300,1595A,109.9734,39.7884,鄂尔多斯市,奥林花园,,34,34,35,17,22,108,,156,136,22,19,5,6,0.5,0.5
2025-06-27T2300,2436A,114.8938,30.3994,鄂州市,市政府,,26,26,35,13,13,10,,50,44,33,10,8,6,0.7,0.8
2025-06-27T2300,2437A,114.8989,30.3714,鄂州市,赵家坝,,11,11,25,3,7,32,,51,48,12,13,10,10,0.6,0.8
2025-06-27T2300,3654A,114.8094,30.4089,鄂州市,精准医疗中心,,17,17,24,3,9,21,,49,46,33,24,9,5,0.9,0.6
2025-06-27T2300,2454A,109.4978,30.2981,恩施土家族苗族自治州,湖北民院,,19,19,20,3,15,32,,68,54,10,8,7,5,0.4,0.5
2025-06-27T2300,2455A,109.4707,30.2798,恩施土家族苗族自治州,州电力总公司,,16,13,17,11,11,33,,60,48,5,8,7,8,0.8,0.6
2025-06-27T2300,3549A,109.5061,30.3772,恩施土家族苗族自治州,龙凤新区,,28,19,18,19,11,27,,79,58,6,6,3,3,0.4,0.4
2025-06-27T2300,2499A,108.3411,21.6158,防城港市,沙万,,25,25,16,10,7,30,,51,46,37,13,3,2,0.6,0.6
2025-06-27T2300,2500A,108.3514,21.7731,防城港市,防城档案局,,29,29,16,13,7,7,,47,38,18,9,2,2,0.8,0.6
2025-06-27T2300,2501A,108.3506,21.6414,防城港市,大海花园,,,17,17,,4,57,,61,60,17,7,3,4,0.8,0.7
2025-06-27T2300,1371A,113.1294,23.0067,佛山市,湾梁,,15,,13,10,7,19,,66,39,28,25,7,8,0.5,0.4
2025-06-27T2300,1372A,113.1083,23.0478,佛山市,华材职中,,12,12,9,3,4,22,,78,52,17,14,6,6,0.5,0.5
2025-06-27T2300,1373A,113.144,23.0453,佛山市,南海气象局,,20,20,16,10,9,14,,68,36,27,20,2,2,0.6,0.6
2025-06-27T2300,1374A,113.2881,22.8094,佛山市,顺德苏岗,,25,25,14,7,5,17,,58,30,22,18,6,6,0.7,0.6
2025-06-27T2300,1376A,112.8383,22.8678,佛山市,高明孔堂,,15,15,15,6,6,28,,73,49,8,10,5,5,0.5,0.5
2025-06-27T2300,1377A,112.8836,23.1588,佛山市,三水监测站,,23,19,14,3,13,5,,67,46,45,23,2,1,0.6,0.6
2025-06-27T2300,1378A,112.867,23.185,佛山市,三水云东海,,,27,25,11,10,,,68,,31,29,1,1,0.6,0.6
2025-06-27T2300,3625A,113.2544,22.7642,佛山市,容桂街道办,,20,17,11,7,3,14,,41,,39,22,6,5,0.8,0.8
2025-06-27T2300,1280A,119.3903,26.0543,福州市,鼓山,,,,,,,,,,,,,,,,
2025-06-27T2300,1282A,119.2681,26.0504,福州市,师大,,25,25,26,7,9,30,,110,84,13,9,5,4,0.2,0.2
2025-06-27T2300,1283A,119.2984,26.1028,福州市,五四北路,,26,26,24,3,7,48,,112,88,12,13,4,4,0.3,0.3
2025-06-27T2300,1284A,119.2648,26.0768,福州市,杨桥西路,,25,25,27,3,11,38,,118,87,13,12,4,4,0.2,0.2
2025-06-27T2300,1285A,119.317,26.0746,福州市,紫阳,,19,19,33,3,9,33,,104,80,13,13,4,4,0.2,0.3
2025-06-27T2300,3048A,119.5799,26.0936,福州市,九龙,,23,23,26,3,10,45,,137,99,10,11,4,5,0.2,0.3
2025-06-27T2300,3526A,119.5189,25.9664,福州市,吴航,,15,15,19,7,9,24,,116,85,11,8,5,5,0.3,0.3
2025-06-27T2300,1755A,123.7977,41.8491,抚顺市,望花区,,29,25,43,20,32,19,,85,44,31,36,5,14,0.9,1.1
2025-06-27T2300,1756A,123.9161,41.8822,抚顺市,顺城区,,20,20,42,14,25,12,,77,44,38,39,6,8,0.9,1.2
2025-06-27T2300,1757A,124.0436,41.8611,抚顺市,东洲区,,26,18,24,18,21,12,,86,49,23,14,6,11,0.7,0.8
2025-06-27T2300,1758A,123.9247,41.8642,抚顺市,新抚区,,26,22,39,18,28,4,,74,36,26,32,5,7,0.8,1.1
2025-06-27T2300,1759A,124.0972,41.8961,抚顺市,大伙房水库,,19,19,24,10,20,33,,78,49,9,15,7,7,0.4,0.5
2025-06-27T2300,1760A,123.7086,41.8391,抚顺市,沈抚新城,,23,23,41,12,27,23,,79,47,20,33,4,10,0.8,1.1
2025-06-27T2300,2376A,116.2127,28.0814,抚州市,桐源党溪,,31,31,21,13,10,8,,49,28,3,2,4,4,0.2,0.2
2025-06-27T2300,2377A,116.3544,27.9831,抚州市,市站,,27,27,19,13,8,26,,54,45,10,4,1,2,0.7,0.6
2025-06-27T2300,2378A,116.3565,27.963,抚州市,血防站,,25,25,21,13,9,23,,51,39,11,7,2,2,0.7,0.6
2025-06-27T2300,2379A,116.3564,28.0007,抚州市,采茶剧团,,35,30,20,24,10,18,,52,42,10,4,4,5,0.3,0.3
2025-06-27T2300,2380A,116.385,27.9647,抚州市,医学分院,,22,22,18,13,8,20,,55,42,5,3,5,4,0.5,0.4
2025-06-27T2300,2207A,121.6094,41.998,阜新市,工业园区,,31,18,38,15,27,97,,140,124,16,24,7,18,0.6,0.6
2025-06-27T2300,2208A,121.6697,42.0279,阜新市,长青街,,31,18,35,13,25,98,,108,99,11,18,14,15,0.7,0.7
2025-06-27T2300,2209A,121.6673,42.0705,阜新市,农业园区,,28,22,40,19,31,88,,121,103,12,18,5,16,0.9,0.8
2025-06-27T2300,2210A,121.6717,42.0224,阜新市,东苑,,35,19,36,10,22,109,,126,114,9,18,7,17,0.7,0.7
2025-06-27T2300,2211A,121.6506,42.0498,阜新市,玉龙新城,,35,32,41,24,24,72,,112,92,14,23,6,12,0.9,0.8
2025-06-27T2300,2301A,115.8277,32.8929,阜阳市,市监测站,,30,30,23,18,14,46,,107,72,9,8,3,3,0.4,0.4
2025-06-27T2300,2303A,115.8554,32.8605,阜阳市,开发区,,19,19,20,10,9,50,,110,75,11,9,5,5,0.2,0.2
2025-06-27T2300,2875A,115.784,32.8892,阜阳市,阜阳职业技术学院,,18,18,12,7,9,51,,115,81,10,7,4,4,0.4,0.3
2025-06-27T2300,3468A,115.7901,32.8613,阜阳市,市规划展馆,,30,30,25,21,15,42,,110,74,12,8,2,3,0.4,0.4
2025-06-27T2300,3469A,115.836,32.9183,阜阳市,枣园社区,,26,,19,18,13,52,,113,77,13,13,5,5,0.5,0.5
2025-06-27T2300,2669A,102.9099,34.9841,甘南藏族自治州,州政府,颗粒物(PM10),85,119,25,51,17,13,,124,99,70,16,6,5,0.5,0.3
2025-06-27T2300,3380A,102.8914,34.9617,甘南藏族自治州,甘肃民族师范学院,颗粒物(PM10),118,185,46,44,13,0,,114,80,72,31,10,8,0.5,0.4
2025-06-27T2300,2570A,101.9603,30.0475,甘孜藏族自治州,水桥子,,28,28,13,9,7,15,,81,61,32,13,5,5,0.3,0.2
2025-06-27T2300,3065A,101.9533,29.9972,甘孜藏族自治州,州环保局,,29,29,15,8,5,26,,86,68,35,12,2,2,0.3,0.4
2025-06-27T2300,3414A,115.8347,28.932,赣江新区,桑海产业园,,18,17,20,12,10,44,,90,65,19,17,7,7,0.5,0.3
2025-06-27T2300,2362A,114.9017,25.9149,赣州市,通天岩,,17,17,12,3,4,14,,51,32,6,4,10,8,0.3,0.2
2025-06-27T2300,2363A,114.9367,25.8664,赣州市,地委,,25,25,27,9,6,16,,60,40,18,8,8,4,0.7,0.6
2025-06-27T2300,2364A,114.9461,25.8481,赣州市,气象台,,19,19,15,7,5,33,,58,41,5,6,7,7,0.3,0.3
2025-06-27T2300,2365A,114.9322,25.8333,赣州市,市图书馆,,12,12,10,6,6,32,,57,39,6,6,5,4,0.5,0.8
2025-06-27T2300,2366A,114.8905,25.8471,赣州市,华坚鞋城,,24,24,18,12,6,24,,60,35,12,10,4,4,0.3,0.3
2025-06-27T2300,3109A,115.0093,25.8613,赣州市,赣县区卫计委,,,8,13,7,6,,,48,40,,5,,2,,0.1
2025-06-27T2300,2683A,106.2319,36.1417,固原市,马园,颗粒物(PM10),54,58,21,25,8,47,,133,109,52,10,18,6,0.6,0.5
2025-06-27T2300,2684A,106.2792,36.0022,固原市,监测站,,49,49,20,9,9,81,,133,124,22,8,6,4,0.3,0.2
2025-06-27T2300,2685A,106.2375,36.0211,固原市,新区,,43,43,21,12,7,82,,130,120,34,10,10,6,3.0,0.9
2025-06-27T2300,3522A,106.2177,35.9959,固原市,原州区十五小,,47,47,19,15,8,85,,131,126,21,7,12,10,0.4,0.2
2025-06-27T2300,2543A,106.6308,30.5278,广安市,小平旧居,,,,,,,,,,,,,,,,
2025-06-27T2300,2544A,106.6303,30.4576,广安市,市委,,32,23,20,22,15,92,,124,111,17,16,3,3,0.5,0.5
2025-06-27T2300,2545A,106.6271,30.4663,广安市,友谊中学,,,36,21,15,12,,,139,132,32,16,2,2,0.8,0.6
2025-06-27T2300,2547A,106.6388,30.4551,广安市,广电花园,,26,21,22,13,11,83,,128,111,18,13,3,3,0.6,0.5
2025-06-27T2300,2902A,106.6351,30.4865,广安市,北辰小学,,26,26,22,17,10,80,,134,117,18,10,4,4,0.6,0.5
2025-06-27T2300,2523A,105.8945,32.4535,广元市,黑石坡,,49,49,28,13,13,87,,97,93,6,8,7,9,0.4,0.4
2025-06-27T2300,2524A,105.821,32.4444,广元市,老城,,28,28,20,18,10,72,,122,114,29,17,2,4,0.8,0.9
2025-06-27T2300,2526A,105.8628,32.4287,广元市,监测站,,25,16,21,8,10,78,,112,104,14,17,7,9,0.6,0.8
2025-06-27T2300,3617A,105.8047,32.4166,广元市,经开区,,30,28,31,21,26,77,,113,106,26,16,4,6,0.6,0.6
2025-06-27T2300,1345A,113.2347,23.1423,广州市,广雅中学,,,,16,14,8,,,82,,47,24,2,3,0.3,0.5
2025-06-27T2300,1346A,113.2612,23.105,广州市,市五中,,17,17,16,8,7,22,,73,39,31,24,4,4,0.3,0.3
2025-06-27T2300,1348A,113.3478,23.0916,广州市,广东商学院,,,,15,23,8,,,77,49,51,25,4,3,0.8,0.6
2025-06-27T2300,1349A,113.4332,23.1047,广州市,市八十六中,,27,27,16,17,8,2,,65,19,49,34,3,4,0.6,0.5
2025-06-27T2300,1350A,113.3505,22.9483,广州市,番禺中学,,,16,14,3,5,,,68,52,28,21,8,7,0.5,0.4
2025-06-27T2300,1351A,113.2146,23.3916,广州市,花都师范,,24,24,20,14,9,21,,92,51,34,27,4,4,0.6,0.5
2025-06-27T2300,1352A,113.2597,23.1331,广州市,市监测站,,29,29,19,12,8,5,,78,43,41,20,5,5,0.5,0.4
2025-06-27T2300,1353A,113.5618,23.312,广州市,九龙镇镇龙,,18,18,17,10,10,22,,89,41,12,14,6,6,0.4,0.3
2025-06-27T2300,1354A,113.2765,23.1544,广州市,麓湖,,25,25,15,14,8,0,,72,33,41,22,2,2,0.7,0.6
2025-06-27T2300,1355A,113.443,23.3035,广州市,帽峰山森林公园,,14,14,11,3,5,20,,106,50,23,15,6,6,0.5,0.4
2025-06-27T2300,2846A,113.3221,23.1322,广州市,体育西,,26,23,20,12,9,3,,79,40,52,27,5,5,0.6,0.5
2025-06-27T2300,3298A,113.5717,23.5491,广州市,从化街口,,31,31,16,17,7,13,,79,45,36,16,4,4,0.7,0.6
2025-06-27T2300,3299A,113.3472,23.3692,广州市,白云竹料,,24,24,21,11,10,21,,94,45,29,18,3,3,0.4,0.6
2025-06-27T2300,3300A,113.2981,23.237,广州市,白云嘉禾,,21,21,18,10,9,5,,85,36,37,26,5,5,0.2,0.3
2025-06-27T2300,3301A,113.4256,23.1716,广州市,黄埔科学城,,24,24,20,10,9,5,,78,23,27,21,4,4,0.6,0.5
2025-06-27T2300,3302A,113.3942,23.0483,广州市,番禺大学城,,27,15,19,12,8,2,,78,38,53,26,7,7,0.9,0.7
2025-06-27T2300,3303A,113.4922,22.8168,广州市,南沙黄阁,,18,18,13,6,5,23,,67,44,21,12,5,5,0.5,0.5
2025-06-27T2300,3304A,113.5342,22.7896,广州市,南沙街,,14,14,12,7,5,25,,66,37,18,16,3,3,0.4,0.4
2025-06-27T2300,3443A,113.2902,23.5544,广州市,花都梯面,,15,15,13,8,6,27,,94,59,18,12,4,4,0.5,0.5
2025-06-27T2300,3445A,113.7858,23.7478,广州市,从化良口,,,19,12,3,5,,,49,,8,6,6,6,0.5,0.6
2025-06-27T2300,3446A,113.8051,23.2614,广州市,增城荔城,,13,13,13,3,7,23,,86,46,11,9,6,6,0.3,0.3
2025-06-27T2300,2505A,109.568,23.1478,贵港市,德智高中,,,,,,,,,,,,,,,,
2025-06-27T2300,2506A,109.6047,23.0666,贵港市,江南子站,颗粒物(PM10),56,61,19,13,10,15,,52,40,26,11,5,6,0.6,0.5
2025-06-27T2300,2508A,109.5669,23.1065,贵港市,荷城子站,,41,41,19,7,4,21,,52,42,24,13,6,7,0.4,0.3
2025-06-27T2300,3405A,109.5886,23.1172,贵港市,新世纪学校,,24,24,16,10,9,21,,54,43,23,11,3,5,0.5,0.4
2025-06-27T2300,4260A,109.5933,23.0951,贵港市,中山路155-3号,,39,39,25,13,12,23,,53,42,19,13,5,5,1.0,0.6
2025-06-27T2300,1439A,106.6899,26.5998,贵阳市,马鞍山,,,9,13,,2,4,,50,22,13,10,3,3,0.5,0.4
2025-06-27T2300,1441A,106.6243,26.6266,贵阳市,鉴湖路,,22,22,19,7,5,17,,59,33,23,13,7,7,0.4,0.4
2025-06-27T2300,1442A,106.7487,26.6343,贵阳市,燕子冲,,19,19,17,7,15,18,,61,36,14,13,3,4,0.0,0.1
2025-06-27T2300,1443A,106.6555,26.4365,贵阳市,碧云窝,,22,22,24,3,7,16,,58,32,10,9,4,4,0.3,0.3
2025-06-27T2300,1445A,106.7109,26.6027,贵阳市,红边门,,19,19,17,7,8,9,,61,34,22,13,3,4,0.4,0.2
2025-06-27T2300,1446A,106.7164,26.5699,贵阳市,新华路,,25,17,14,17,14,9,,49,26,38,23,3,6,0.8,0.5
2025-06-27T2300,1447A,106.674,26.5424,贵阳市,太慈桥,,15,14,12,7,4,3,,58,26,29,18,4,4,0.5,0.4
2025-06-27T2300,1552A,106.805,26.3003,贵阳市,桐木岭,,22,22,24,9,13,43,,60,49,2,2,17,17,0.8,0.8
2025-06-27T2300,4230A,106.6882,26.5695,贵阳市,花果园大街66号,,29,29,13,18,13,13,,61,34,42,19,4,3,0.6,0.2
2025-06-27T2300,4231A,106.6873,26.5169,贵阳市,漓江路57号,,17,17,15,9,6,7,,56,31,31,20,4,5,0.5,0.3
2025-06-27T2300,1862A,110.4144,25.3167,桂林市,电子科大尧山校区,,,,,,,,,,,,,,,,
2025-06-27T2300,1864A,110.3089,25.2708,桂林市,龙隐路小学,,,,24,,11,,,58,,,14,,9,,0.7
2025-06-27T2300,1865A,110.2869,25.2178,桂林市,八中,,28,28,21,8,9,23,,52,40,18,13,8,7,0.5,0.5
2025-06-27T2300,3531A,110.296,25.1253,桂林市,旅游学院,,29,29,12,19,8,30,,58,47,14,8,4,4,0.4,0.3
2025-06-27T2300,4222A,110.1835,25.2444,桂林市,环湖路276号,,27,27,23,14,14,20,,54,40,16,12,18,16,0.5,0.4
2025-06-27T2300,4301A,110.2803,25.2773,桂林市,信义路13号,,27,27,22,15,9,10,,54,37,29,14,6,6,0.6,0.5
2025-06-27T2300,2674A,100.2561,34.4714,果洛藏族自治州,玛沁县大武镇,,39,36,36,22,18,124,,152,144,2,4,16,14,0.4,0.4
2025-06-27T2300,1129A,126.5422,45.755,哈尔滨市,岭北,,49,49,45,28,32,98,,213,123,27,35,3,6,0.9,1
2025-06-27T2300,1130A,126.561,45.8167,哈尔滨市,松北商大,,33,33,63,15,26,74,,184,101,25,44,6,5,0.7,0.9
2025-06-27T2300,1131A,126.979,45.5419,哈尔滨市,阿城会宁,颗粒物(PM10),78,106,66,52,31,0,,192,92,78,40,8,9,0.7,0.5
2025-06-27T2300,1132A,126.599,45.7222,哈尔滨市,南岗学府路,颗粒物(PM10),55,59,63,25,29,94,,189,123,32,53,6,8,0.7,0.8
2025-06-27T2300,1133A,126.689,45.7733,哈尔滨市,太平宏伟公园,,46,46,78,19,32,109,,143,111,11,55,5,6,0.8,0.9
2025-06-27T2300,1134A,126.635,45.7667,哈尔滨市,道外承德广场,颗粒物(PM10),53,56,76,17,30,124,,179,126,11,52,7,8,0.8,1
2025-06-27T2300,1135A,126.685,45.7319,哈尔滨市,香坊红旗大街,颗粒物(PM10),58,66,76,35,32,120,,188,132,25,61,1,6,0.8,0.8
2025-06-27T2300,1136A,126.6411,45.7258,哈尔滨市,动力和平路,颗粒物(PM10),57,63,74,8,28,102,,192,127,27,57,10,12,0.6,0.7
2025-06-27T2300,1137A,126.593,45.7478,哈尔滨市,道里建国路,颗粒物(PM10),51,52,65,19,28,123,,214,133,20,49,1,5,0.7,1.8
2025-06-27T2300,1138A,126.615,45.61,哈尔滨市,平房东轻厂,二氧化氮,56,51,54,11,23,10,,179,82,112,61,14,10,0.6,0.6
2025-06-27T2300,1139A,126.595,45.9855,哈尔滨市,呼兰师专,,32,24,72,3,23,17,,180,82,63,58,6,9,0.5,0.7
2025-06-27T2300,1140A,126.6206,45.6842,哈尔滨市,省农科院,颗粒物(PM10),68,86,81,24,29,60,,169,81,63,72,8,6,0.9,0.8
2025-06-27T2300,2688A,93.5128,42.8172,哈密市,地区监测站,颗粒物(PM10),60,70,51,16,18,89,,140,125,25,13,6,6,0.2,0.2
2025-06-27T2300,2689A,93.4961,42.8328,哈密市,哈密师范学校,,40,40,38,17,14,87,,119,106,16,16,10,11,0.3,0.3
2025-06-27T2300,2671A,100.9048,36.9639,海北藏族自治州,海晏县西海镇,,35,13,13,9,10,110,,148,137,10,6,8,7,0.4,0.3
2025-06-27T2300,3867A,102.0738,36.5056,海东市,平安区公安北苑,,41,41,24,11,10,122,,158,146,9,6,12,10,0.5,0.6
2025-06-27T2300,1409A,110.576,19.9507,海口市,东寨港,,12,12,7,7,7,32,,41,36,3,3,7,7,0.3,0.3
2025-06-27T2300,1410A,110.3232,20.0574,海口市,海南大学,,12,12,9,6,6,37,,44,38,4,3,2,3,0.4,0.3
2025-06-27T2300,1411A,110.283,20.0053,海口市,秀英海南医院,,18,18,15,7,5,30,,47,29,9,9,5,5,0.3,0.3
2025-06-27T2300,1412A,110.338,19.9969,海口市,海南师范大学,,,,12,9,6,35,,49,42,,5,,4,0.3,0.3
2025-06-27T2300,1413A,110.33,20.0356,海口市,龙华路环保局宿舍,,16,16,12,7,6,35,,45,38,5,5,4,5,0.3,0.2
2025-06-27T2300,3539A,110.5111,19.9736,海口市,桂林洋子站,,,15,11,8,5,29,,44,36,,5,5,4,0.2,0.2
2025-06-27T2300,2673A,100.6188,36.2866,海南藏族自治州,共和县恰卜恰镇,,44,32,24,3,8,139,,162,155,7,4,17,13,0.6,0.6
2025-06-27T2300,2676A,97.3731,37.3753,海西蒙古族藏族自治州,德令哈市,,45,29,29,11,11,144,,155,153,1,2,17,16,0.5,0.5
2025-06-27T2300,1048A,114.5302,36.6116,邯郸市,东污水处理厂,,50,46,64,22,29,159,,198,182,8,12,3,3,0.6,0.7
2025-06-27T2300,1049A,114.4918,36.5713,邯郸市,矿院,,50,39,57,34,42,160,,201,184,9,11,4,5,0.8,0.9
2025-06-27T2300,1050A,114.484,36.6133,邯郸市,丛台公园,臭氧1小时,55,29,57,22,33,164,,202,188,10,9,6,6,0.7,0.7
2025-06-27T2300,3458A,114.7895,36.5593,邯郸市,香泉濮院小区,颗粒物(PM10),63,76,65,22,21,123,,184,172,22,12,4,4,0.5,0.6
2025-06-27T2300,3579A,114.50634,36.77178,邯郸市,永年区实验高中,细颗粒物(PM2.5),54,47,63,38,43,148,,212,193,13,14,2,3,0.7,0.5
2025-06-27T2300,3580A,114.20016,36.44293,邯郸市,峰峰矿区临水派出所,颗粒物(PM10),53,56,49,29,21,142,,189,171,2,5,6,9,0.7,0.6
2025-06-27T2300,2634A,106.9893,33.1842,汉中市,汉川机床厂子校,,26,26,24,18,14,64,,91,91,19,13,3,4,0.6,0.6
2025-06-27T2300,2635A,107.0154,33.0706,汉中市,市监测站,,26,23,26,13,11,82,,117,102,9,11,6,6,0.5,0.6
2025-06-27T2300,2636A,107.0089,33.1138,汉中市,鑫源开发区,,26,26,26,11,11,74,,126,106,14,16,5,6,0.5,0.5
2025-06-27T2300,2637A,107.007,33.0323,汉中市,南郑大河坎水厂,,25,21,22,16,14,77,,103,89,11,12,4,4,0.5,0.6
2025-06-27T2300,1223A,120.2072,30.2111,杭州市,滨江,,15,14,18,8,12,48,,107,56,17,23,6,6,0.3,0.4
2025-06-27T2300,1224A,120.0633,30.2747,杭州市,西溪,,18,18,19,8,7,21,,80,34,15,11,3,3,0.3,0.3
2025-06-27T2300,1226A,120.3417,30.3150,杭州市,下沙,,21,21,21,11,10,42,,120,63,40,19,6,4,0.4,0.4
2025-06-27T2300,1227A,120.1269,30.2456,杭州市,卧龙桥,,17,17,19,8,9,23,,94,39,16,9,7,7,0.4,0.4
2025-06-27T2300,1228A,120.1903,30.2692,杭州市,浙江农大,,19,,13,13,10,46,,101,48,21,20,4,3,0.1,0.2
2025-06-27T2300,1230A,120.1197,30.3119,杭州市,和睦小学,,21,21,17,9,11,32,,92,41,17,11,8,8,0.4,0.4
2025-06-27T2300,1231A,120.3019,30.4183,杭州市,临平镇,,33,33,24,8,14,54,,125,57,30,22,6,5,0.4,0.5
2025-06-27T2300,1232A,120.2753,30.1839,杭州市,城厢镇,,16,16,21,3,7,47,,106,60,14,14,7,7,0.4,0.5
2025-06-27T2300,1233A,120.0883,30.1808,杭州市,云栖,,21,21,21,6,8,22,,96,40,18,12,7,7,0.4,0.5
2025-06-27T2300,3557A,119.9464,30.0494,杭州市,镇二中,,15,13,18,8,10,47,,96,50,11,16,3,4,0.4,0.5
2025-06-27T2300,3558A,119.7183,30.2367,杭州市,市府大楼,,13,13,17,7,9,16,,70,40,17,11,7,7,0.4,0.3
2025-06-27T2300,3656A,120.1556,30.2864,杭州市,消防大队,,17,17,20,8,8,36,,104,45,20,14,6,6,0.6,0.6
2025-06-27T2300,1270A,117.1959,31.7848,合肥市,明珠广场,,14,12,10,9,7,43,,76,56,16,16,4,4,0.5,0.6
2025-06-27T2300,1271A,117.3072,31.8764,合肥市,三里街,,14,14,13,3,9,28,,75,49,24,17,6,6,0.4,0.6
2025-06-27T2300,1272A,117.2588,31.8707,合肥市,琥珀山庄,,15,12,13,10,11,32,,70,54,20,17,6,6,0.6,0.7
2025-06-27T2300,1273A,117.1604,31.9052,合肥市,董铺水库,,14,9,14,3,8,43,,66,60,12,11,4,4,0.3,0.4
2025-06-27T2300,1274A,117.25,31.8571,合肥市,长江中路,,12,9,16,8,10,38,,76,57,17,15,5,5,0.5,0.6
2025-06-27T2300,1275A,117.266,31.9436,合肥市,庐阳区,,13,9,16,3,9,39,,70,60,15,13,8,8,0.5,0.6
2025-06-27T2300,1276A,117.3453,31.8616,合肥市,瑶海区,,12,9,11,3,6,38,,73,52,16,19,6,6,0.5,0.6
2025-06-27T2300,1277A,117.3027,31.7964,合肥市,包河区,,14,12,10,3,5,42,,65,57,14,23,4,4,0.6,0.7
2025-06-27T2300,1278A,117.2776,31.7385,合肥市,滨湖新区,,16,12,11,9,10,49,,71,58,8,13,8,8,0.5,0.5
2025-06-27T2300,1279A,117.1318,31.8403,合肥市,高新区,,14,14,14,6,8,38,,72,53,20,17,7,6,0.4,0.5
2025-06-27T2300,3464A,117.3803,31.9147,合肥市,高教基地,,18,17,17,12,9,26,,60,50,14,12,3,3,0.4,0.4
2025-06-27T2300,3614A,79.924,37.0877,和田地区,地区环保局,颗粒物(PM10),500,1406,1407,279,308,118,,129,123,10,9,1,2,0.5,0.5
2025-06-27T2300,3615A,79.9131,37.113,和田地区,市环保局,颗粒物(PM10),500,920,1000,225,300,114,,129,123,,8,3,2,0.2,0.6
2025-06-27T2300,2516A,108.2011,24.715,河池市,东仁乐园,,,,,,,,,,,,,,,,
2025-06-27T2300,2517A,108.0497,24.6947,河池市,市环保站,,11,11,20,6,11,29,,51,46,7,7,3,3,0.6,0.6
2025-06-27T2300,2518A,108.0983,24.6989,河池市,市疾控中心,,21,21,21,9,12,4,,50,37,22,15,3,3,0.6,0.6
2025-06-27T2300,1696A,114.6778,23.7569,河源市,源西,,17,17,14,7,9,42,,77,60,12,15,3,4,0.6,0.6
2025-06-27T2300,1697A,114.6944,23.7586,河源市,东埔,,14,14,11,3,6,24,,50,40,16,10,3,5,0.5,0.4
2025-06-27T2300,1698A,114.6892,23.7233,河源市,老城,,17,17,15,3,6,17,,48,38,12,7,6,5,0.5,0.4
2025-06-27T2300,1718A,115.4208,35.2464,菏泽市,气象局,颗粒物(PM10),54,57,38,28,24,113,,177,153,18,10,3,2,0.4,0.4
2025-06-27T2300,3374A,115.5564,35.0891,菏泽市,定陶老年大学,,34,34,25,17,14,101,,151,137,19,11,3,2,0.3,0.3
2025-06-27T2300,4184A,115.4797,35.24401,菏泽市,永昌路1号,,40,40,36,19,19,113,,173,153,19,7,4,3,0.2,0.2
2025-06-27T2300,4193A,115.4715,35.2800,菏泽市,长城路999号,,44,44,37,17,23,123,,179,161,18,10,3,4,0.3,0.3
2025-06-27T2300,2514A,111.5264,24.4172,贺州市,环保小区,,17,14,12,10,11,52,,64,57,4,5,10,10,0.5,0.5
2025-06-27T2300,2515A,111.5608,24.4078,贺州市,政协大楼,,,18,11,,8,43,,67,57,10,8,11,11,0.6,0.6
2025-06-27T2300,3534A,111.4744,24.4553,贺州市,西湾,,18,18,16,9,9,41,,64,53,10,9,12,12,0.5,0.5
2025-06-27T2300,2385A,114.17,35.9019,鹤壁市,市监测站,,42,42,42,19,29,132,,184,170,10,9,5,6,1.0,1.1
2025-06-27T2300,2386A,114.2956,35.7511,鹤壁市,市交警支队,,37,37,37,20,23,109,,176,158,23,16,11,11,1.0,1
2025-06-27T2300,2387A,114.2878,35.7306,鹤壁市,迎宾馆,颗粒物(PM10),54,58,50,29,29,109,,172,154,18,11,6,5,0.5,0.6
2025-06-27T2300,3474A,114.2617,35.6822,鹤壁市,大新区,,42,42,40,13,20,92,,166,140,21,12,6,6,0.7,0.8
2025-06-27T2300,3596A,114.1572,35.9603,鹤壁市,南山宾馆,细颗粒物(PM2.5),59,53,48,42,35,118,,180,168,14,9,3,4,0.7,0.7
2025-06-27T2300,2244A,130.2537,47.3416,鹤岗市,哈啤分公司,,28,28,22,19,16,73,,124,114,10,7,10,12,0.4,0.4
2025-06-27T2300,2245A,130.2684,47.3086,鹤岗市,斯达机电,,34,34,34,21,19,73,,118,108,10,7,12,12,0.5,0.4
2025-06-27T2300,2246A,130.3114,47.3388,鹤岗市,东山纸板厂,颗粒物(PM10),88,126,48,27,19,3,,119,79,24,13,9,8,0.4,0.5
2025-06-27T2300,2247A,130.1097,47.3382,鹤岗市,五号水库,,14,12,13,3,6,44,,89,58,12,8,16,15,0.6,0.6
2025-06-27T2300,2263A,127.4833,50.2524,黑河市,交通局,,40,40,32,14,13,91,,108,98,11,11,7,7,0.7,0.6
2025-06-27T2300,2264A,127.5144,50.2341,黑河市,环保局,,42,42,43,20,15,101,,110,100,8,11,6,7,0.5,0.4
2025-06-27T2300,2265A,127.5291,50.2472,黑河市,大黑河岛,,,,6,16,15,93,,86,86,,8,38,31,0.6,0.5
2025-06-27T2300,1074A,115.6838,37.7541,衡水市,电机北厂,,45,45,50,26,37,138,,182,172,14,9,3,3,0.3,0.4
2025-06-27T2300,1075A,115.6303,37.7316,衡水市,市监测站,颗粒物(PM10),53,56,56,22,32,136,,183,169,15,8,5,6,0.4,0.5
2025-06-27T2300,3188A,115.6683,37.7217,衡水市,市城管局,细颗粒物(PM2.5),52,50,52,36,39,131,,190,174,20,8,3,2,0.5,0.5
2025-06-27T2300,3459A,115.5989,37.5491,衡水市,地表水厂,颗粒物(PM10),54,58,55,33,29,125,,187,161,24,11,6,7,0.5,0.4
2025-06-27T2300,2456A,112.5003,26.9167,衡阳市,原169医院,,17,,14,3,5,53,,84,75,9,7,4,5,0.4,0.5
2025-06-27T2300,2457A,112.6194,26.9258,衡阳市,衡阳化工总厂,,,,15,,7,,,54,,,6,,4,,0.4
2025-06-27T2300,2458A,112.6211,26.8956,衡阳市,珠晖区环保局,,,7,17,,,46,,84,72,6,5,6,7,0.4,0.5
2025-06-27T2300,2459A,112.6197,26.8733,衡阳市,市委党校,,13,6,14,3,7,40,,75,64,8,6,6,7,0.4,0.4
2025-06-27T2300,2460A,112.6006,26.8919,衡阳市,市监测站,,13,8,15,6,7,40,,74,63,10,8,5,6,0.2,0.3
2025-06-27T2300,2461A,112.5664,26.9056,衡阳市,真空机电公司,,13,,15,9,11,40,,76,64,9,6,5,7,0.3,0.4
2025-06-27T2300,3399A,112.6703,26.882,衡阳市,师范学院,,,2,20,,8,40,,71,63,5,6,5,6,0.4,0.6
2025-06-27T2300,2608A,103.3772,23.3993,红河哈尼族彝族自治州,污水处理厂,,23,19,17,16,12,30,,38,36,5,6,6,8,0.1,0.2
2025-06-27T2300,2609A,103.3861,23.35,红河哈尼族彝族自治州,监测站,,33,26,25,23,15,22,,40,34,10,7,10,10,0.3,0.4
2025-06-27T2300,3038A,103.3758,23.368,红河哈尼族彝族自治州,州图书馆,,15,11,13,10,11,34,,43,39,6,6,2,5,0.2,0.2
2025-06-27T2300,1090A,111.6507,40.7517,呼和浩特市,呼市一监,,36,22,28,22,23,114,,158,142,17,12,8,9,0.7,0.6
2025-06-27T2300,1091A,111.6572,40.8033,呼和浩特市,小召,,39,,29,22,26,123,,160,148,18,13,5,6,0.5,0.5
2025-06-27T2300,1094A,111.7516,40.8369,呼和浩特市,如意水处理厂,,45,17,30,13,24,141,,162,149,12,12,4,5,0.4,0.5
2025-06-27T2300,1095A,111.7276,40.8062,呼和浩特市,二十九中,,44,24,37,16,31,138,,162,150,10,10,5,5,0.6,0.7
2025-06-27T2300,1096A,111.5512,40.7866,呼和浩特市,工大金川校区,,43,,39,30,27,100,,162,140,22,13,5,6,0.5,0.4
2025-06-27T2300,1097A,111.717,40.7612,呼和浩特市,化肥厂生活区,,42,24,33,20,30,132,,164,150,18,14,6,7,0.4,0.5
2025-06-27T2300,3698A,111.5968,40.8178,呼和浩特市,红旗小学,,34,24,32,21,24,107,,170,151,22,13,4,4,0.5,0.5
2025-06-27T2300,3699A,111.6518,40.8389,呼和浩特市,海东办,,36,,28,22,22,115,,164,147,20,15,5,6,0.5,0.5
2025-06-27T2300,2192A,119.7594,49.2261,呼伦贝尔市,区环保局,,39,39,32,19,19,111,,142,128,10,11,5,5,0.6,0.6
2025-06-27T2300,3061A,119.7512,49.1577,呼伦贝尔市,国华电力东,,44,44,31,25,16,120,,172,150,8,8,3,3,0.4,0.4
2025-06-27T2300,1250A,120.0751,30.8669,湖州市,城西水厂,,13,12,15,9,13,26,,95,29,18,26,5,5,0.4,0.4
2025-06-27T2300,2873A,120.0830,30.8929,湖州市,仁皇山新区,,13,13,16,6,7,18,,94,30,23,23,4,4,0.5,0.5
2025-06-27T2300,2907A,120.1844,30.8596,湖州市,吴兴区站,,16,16,22,7,10,27,,100,37,16,17,6,6,0.5,0.4
2025-06-27T2300,3562A,120.4148,30.8538,湖州市,南浔区站,,17,17,21,6,13,19,,101,40,28,19,4,5,0.5,0.5
2025-06-27T2300,1607A,120.9049,40.7211,葫芦岛市,龙港区,,21,17,44,13,39,67,,142,99,9,9,4,5,0.6,0.7
2025-06-27T2300,1608A,120.8392,40.7514,葫芦岛市,化工街,,24,9,28,7,25,76,,136,99,10,14,5,8,0.6,0.7
2025-06-27T2300,1609A,120.8341,40.7073,葫芦岛市,新区,,,15,29,11,40,,,161,,2,6,2,3,0.6,0.8
2025-06-27T2300,1610A,120.8695,40.7677,葫芦岛市,东城区,,24,,28,12,49,75,,118,89,7,14,2,6,0.6,0.8
2025-06-27T2300,2482A,109.5981,27.5721,怀化市,林科所,,16,16,16,3,3,11,,49,38,7,6,4,4,0.4,0.4
2025-06-27T2300,2483A,109.9453,27.5444,怀化市,河西地税局,,14,14,20,6,8,14,,57,37,18,10,5,5,0.2,0.2
2025-06-27T2300,2484A,109.9781,27.5342,怀化市,市四医院,,19,19,22,3,10,18,,53,39,12,7,1,2,0.6,0.6
2025-06-27T2300,2485A,109.9972,27.5578,怀化市,监测楼,,16,16,21,7,10,17,,48,36,12,6,4,3,0.0,0.1
2025-06-27T2300,2486A,110.0394,27.583,怀化市,市委党校,,14,,20,3,12,43,,54,46,4,9,4,8,0.3,0.3
2025-06-27T2300,1210A,119.036,33.5981,淮安市,钵池山,,33,,19,23,23,87,,136,120,8,10,7,9,0.4,0.6
2025-06-27T2300,1211A,119.007,33.575,淮安市,北京南路,,38,27,20,26,21,76,,124,107,11,12,6,7,0.8,0.8
2025-06-27T2300,1212A,118.989,33.6067,淮安市,市监测站,,32,27,24,22,20,79,,128,109,10,11,9,9,0.7,0.8
2025-06-27T2300,1213A,119.135,33.5039,淮安市,楚州区监测站,,29,29,28,16,17,78,,128,108,6,6,7,8,0.5,0.4
2025-06-27T2300,3426A,118.8755,33.2894,淮安市,新华书店,,23,23,19,13,11,63,,125,93,11,7,7,7,0.4,0.4
2025-06-27T2300,4206A,119.0288,33.6319,淮安市,承德北路606号,,34,34,29,16,21,78,,122,106,6,7,6,6,0.6,0.6
2025-06-27T2300,2282A,116.8004,33.975,淮北市,监测站,,36,36,25,12,18,80,,161,140,10,7,7,7,0.7,0.8
2025-06-27T2300,2283A,116.8091,33.9007,淮北市,烈山区政府,,45,45,43,9,17,75,,160,136,13,7,5,6,0.7,0.7
2025-06-27T2300,3330A,116.8873,33.9836,淮北市,杜集区检察院,,40,,28,28,23,78,,160,138,17,11,7,8,0.9,1
2025-06-27T2300,4017A,116.7923,33.9535,淮北市,市博物馆,,38,38,27,16,20,80,,165,143,9,6,8,8,0.9,0.8
2025-06-27T2300,2277A,116.8305,32.7727,淮南市,潘集区政府,,39,39,29,27,12,66,,107,76,14,11,4,3,0.5,0.5
2025-06-27T2300,2279A,116.8569,32.5951,淮南市,谢家集区政府,,19,19,21,8,8,45,,92,71,16,9,8,6,0.3,0.3
2025-06-27T2300,2280A,116.8281,32.633,淮南市,八公山区政府,,26,26,18,16,12,49,,93,72,16,10,3,3,0.4,0.4
2025-06-27T2300,2281A,116.6325,32.6201,淮南市,焦岗湖风景区管理处,,,,,,,,,,,,,,,,
2025-06-27T2300,2894A,117.0566,32.6531,淮南市,经济技术开发区消防队,,18,18,19,3,4,50,,96,82,11,10,6,7,0.3,0.4
2025-06-27T2300,3329A,117.0108,32.5893,淮南市,山南新区,,15,13,9,3,7,46,,96,80,6,6,7,7,0.4,0.5
2025-06-27T2300,4209A,117.0031,32.6445,淮南市,国庆中路369号,,19,18,19,13,18,52,,102,83,9,8,7,7,0.1,0.3
2025-06-27T2300,2446A,114.9028,30.4742,黄冈市,职工中心,,23,23,27,12,15,28,,52,45,14,10,12,9,0.5,0.6
2025-06-27T2300,2929A,114.8858,30.4519,黄冈市,红卫路,,23,23,24,12,15,26,,56,49,16,9,8,6,0.5,0.7
2025-06-27T2300,3398A,114.9136,30.4445,黄冈市,市林业局,,32,25,26,22,20,27,,51,44,21,11,9,7,0.4,0.6
2025-06-27T2300,2672A,102.0199,35.5102,黄南藏族自治州,同仁县隆务镇,,39,39,26,11,9,60,,87,75,6,10,8,8,0.1,0.2
2025-06-27T2300,2295A,118.2903,29.6963,黄山市,延安路89号,,12,12,21,8,10,30,,62,44,5,6,7,6,0.5,0.5
2025-06-27T2300,2297A,118.1371,30.2756,黄山市,黄山区政府5号楼,,22,22,17,6,9,7,,53,30,5,4,4,4,0.3,0.3
2025-06-27T2300,4210A,118.3354,29.7203,黄山市,滨江东路7-2号,,17,17,21,3,6,24,,60,38,6,4,4,5,0.4,0.3
2025-06-27T2300,2423A,115.0601,30.2313,黄石市,沈家营,,22,22,31,12,7,26,,51,42,24,12,7,6,0.7,0.4
2025-06-27T2300,2426A,114.8988,30.2019,黄石市,铁山,,,17,17,,7,39,,60,56,16,13,3,5,0.3,0.5
2025-06-27T2300,2427A,115.0307,30.2092,黄石市,团城山,,21,11,27,3,5,66,,59,59,2,9,7,7,0.4,0.5
2025-06-27T2300,3149A,115.0235,30.1578,黄石市,笔架山北路,,14,13,23,3,4,42,,54,49,2,10,4,5,0.3,0.5
2025-06-27T2300,4185A,115.0780,30.21118,黄石市,磁湖东路29号,,31,31,36,11,9,34,,50,50,18,16,8,7,1.2,0.6
2025-06-27T2300,1392A,114.4183,23.0528,惠州市,河南岸金山湖子站,,22,22,11,8,5,21,,50,29,13,9,7,7,0.5,0.4
2025-06-27T2300,1393A,114.4053,23.0822,惠州市,下埔横江三路子站,,23,23,12,10,6,26,,60,35,11,8,5,4,0.4,0.3
2025-06-27T2300,1394A,114.4103,23.1142,惠州市,江北云山西路子站,,17,17,10,9,5,22,,62,35,12,7,7,8,0.4,0.4
2025-06-27T2300,1395A,114.4645,22.7833,惠州市,惠阳区承修路船湖子站,,22,22,11,12,6,24,,58,38,17,11,8,6,0.4,0.4
2025-06-27T2300,1396A,114.5317,22.7422,惠州市,大亚湾管委会子站,,11,11,10,6,4,30,,40,35,14,10,10,9,0.4,0.4
2025-06-27T2300,3314A,114.4338,22.8134,惠州市,惠阳秋长,,12,12,9,8,7,22,,58,39,20,11,12,10,0.4,0.4
2025-06-27T2300,3452A,114.6517,22.775,惠州市,大亚湾霞涌,,15,15,11,10,3,16,,50,35,14,8,5,5,0.7,0.5
2025-06-27T2300,2240A,130.9762,45.3001,鸡西市,环保局,颗粒物(PM10),59,67,41,28,22,45,,138,90,38,22,7,5,0.5,0.5
2025-06-27T2300,2243A,130.9429,45.3039,鸡西市,第一中学,颗粒物(PM10),61,72,48,26,21,53,,126,99,36,20,10,9,0.4,0.5
2025-06-27T2300,3707A,131.0207,45.3073,鸡西市,欧美日汽修厂,颗粒物(PM10),86,121,50,27,25,32,,134,88,45,23,7,8,0.6,0.6
2025-06-27T2300,3709A,130.9967,45.3106,鸡西市,市政设施管理处,颗粒物(PM10),65,80,43,30,21,21,,130,86,52,23,3,5,0.7,0.6
2025-06-27T2300,2367A,114.9754,27.0803,吉安市,红声器材厂,,15,15,16,3,6,44,,61,58,4,4,8,9,0.2,0.2
2025-06-27T2300,2368A,114.9658,27.0999,吉安市,市森林工业局,,21,21,16,3,5,48,,68,63,3,3,7,8,0.3,0.3
2025-06-27T2300,2369A,114.99,27.1312,吉安市,市环境监测站,,15,9,14,3,6,47,,67,62,2,2,10,11,0.4,0.3
2025-06-27T2300,2370A,115.0093,27.0968,吉安市,青原区法院,,,23,16,7,5,,,60,60,13,7,6,8,0.4,0.2
2025-06-27T2300,1772A,126.54,43.8622,吉林市,哈达湾,颗粒物(PM10),59,68,57,33,34,119,,157,130,17,37,7,8,0.5,0.5
2025-06-27T2300,1773A,126.5844,43.8358,吉林市,东局子,颗粒物(PM10),60,70,55,39,35,73,,170,121,38,30,6,6,0.9,0.9
2025-06-27T2300,1774A,126.5052,43.8245,吉林市,电力学院,,,73,59,43,26,,,152,,36,43,6,6,0.8,0.8
2025-06-27T2300,1775A,126.6133,43.8972,吉林市,江北,颗粒物(PM10),62,73,61,40,32,69,,157,108,32,26,8,8,0.7,0.6
2025-06-27T2300,1776A,126.555,43.8306,吉林市,江南公园,细颗粒物(PM2.5),60,66,57,43,38,80,,144,109,32,34,6,7,0.5,0.7
2025-06-27T2300,1778A,126.7061,43.7133,吉林市,丰满,,,,,,,,,,,,,,,,
2025-06-27T2300,2868A,126.4739,43.953,吉林市,九站,细颗粒物(PM2.5),70,60,62,51,36,58,,148,102,53,47,4,7,0.5,0.5
2025-06-27T2300,1299A,116.9862,36.6114,济南市,科干所,,49,,24,34,36,81,,133,112,9,11,4,4,0.7,0.7
2025-06-27T2300,1300A,116.9376,36.665,济南市,农科所,颗粒物(PM10),55,59,34,34,24,31,,133,102,59,17,6,6,0.6,0.3
2025-06-27T2300,1301A,117.1265,36.6734,济南市,开发区,,46,44,35,32,26,53,,135,107,26,18,6,6,0.6,0.6
2025-06-27T2300,1303A,117.0624,36.6868,济南市,省种子仓库,颗粒物(PM10),54,58,46,34,30,66,,150,126,33,16,4,5,0.8,0.6
2025-06-27T2300,1304A,116.9489,36.6447,济南市,机床二厂,颗粒物(PM10),52,54,36,29,25,42,,134,112,53,17,4,4,0.9,0.6
2025-06-27T2300,1305A,117.0495,36.663,济南市,市监测站,,42,39,31,29,28,68,,135,111,26,19,7,8,0.7,0.6
2025-06-27T2300,1306A,116.7675,36.5484,济南市,长清党校,,46,,27,32,31,87,,129,119,23,15,4,4,0.5,0.5
2025-06-27T2300,1616A,117.6795,36.229,济南市,技术学院,,45,44,23,31,23,65,,128,112,46,24,7,8,1.1,1.1
2025-06-27T2300,1961A,117.532,36.6868,济南市,东山小学,,42,32,35,29,24,44,,126,102,25,16,5,5,0.3,0.4
2025-06-27T2300,3059A,117.7161,36.2049,济南市,泰兴公司,细颗粒物(PM2.5),62,51,29,44,25,40,,119,96,47,16,7,7,0.6,0.5
2025-06-27T2300,3064A,117.6867,36.2171,济南市,莱芜战役纪念馆,"颗粒物(PM10),细颗粒物(PM2.5)",60,70,35,43,27,51,,113,98,32,10,5,6,1.5,1.5
2025-06-27T2300,3494A,117.1673,36.9782,济南市,济阳区政府,细颗粒物(PM2.5),70,68,52,51,39,110,,144,133,18,12,5,5,0.5,0.5
2025-06-27T2300,3495A,117.1171,36.63,济南市,锦屏中学,,32,29,29,22,16,45,,115,84,12,11,4,4,0.7,0.7
2025-06-27T2300,3682A,116.9814,36.6819,济南市,济南四建,细颗粒物(PM2.5),64,73,35,46,31,46,,144,120,56,18,4,4,0.8,0.6
2025-06-27T2300,1653A,116.6251,35.4302,济宁市,火炬城,颗粒物(PM10),51,51,35,27,21,108,,139,131,10,6,7,5,0.6,0.5
2025-06-27T2300,1655A,116.5491,35.4042,济宁市,电化厂,,44,44,38,27,26,122,,155,146,13,10,3,3,0.9,0.8
2025-06-27T2300,3500A,116.5814,35.3707,济宁市,北湖一中,,45,45,36,25,26,125,,156,149,10,8,4,3,0.5,0.4
2025-06-27T2300,3501A,116.8249,35.5593,济宁市,服务中心,,46,42,26,32,18,88,,157,138,27,10,1,1,0.4,0.4
2025-06-27T2300,3678A,116.5907,35.4054,济宁市,市第七中学,,45,45,37,24,19,105,,143,132,9,4,10,9,0.5,0.5
2025-06-27T2300,2255A,130.2751,46.8028,佳木斯市,佳纺,颗粒物(PM10),59,68,42,36,22,13,,109,58,57,26,4,4,0.5,0.5
2025-06-27T2300,2256A,130.3995,46.8307,佳木斯市,发电厂,颗粒物(PM10),54,58,48,24,23,19,,109,52,55,23,5,5,0.5,0.5
2025-06-27T2300,2257A,130.3258,46.7975,佳木斯市,环保局,颗粒物(PM10),53,55,45,27,23,61,,119,85,26,23,5,5,0.5,0.5
2025-06-27T2300,2258A,130.3648,46.8032,佳木斯市,十一中,颗粒物(PM10),52,53,40,27,24,20,,114,72,46,18,7,7,0.5,0.4
2025-06-27T2300,2259A,130.3794,46.7588,佳木斯市,四丰,,,26,33,,,,,,,16,17,1,1,0.5,0.5
2025-06-27T2300,1252A,120.7436,30.778,嘉兴市,清河小学,,20,20,28,9,12,25,,143,56,23,22,8,8,0.7,0.8
2025-06-27T2300,1253A,120.726,30.7478,嘉兴市,嘉兴学院,,24,24,30,10,14,25,,140,53,23,21,4,5,0.3,0.4
2025-06-27T2300,2872A,120.7846,30.7525,嘉兴市,南湖区残联,,18,18,23,10,12,28,,128,58,19,16,5,5,0.2,0.3
2025-06-27T2300,3407A,120.6916,30.7739,嘉兴市,秀洲住建,,21,19,23,12,11,6,,120,42,42,25,5,6,0.7,0.7
2025-06-27T2300,1945A,98.2908,39.7711,嘉峪关市,气象局,,36,27,25,9,8,115,,159,143,13,13,6,9,0.5,0.6
2025-06-27T2300,2884A,98.2672,39.7978,嘉峪关市,酒钢宾馆,,31,31,26,7,10,95,,158,145,34,10,31,20,1.9,0.7
2025-06-27T2300,3248A,98.2643,39.7724,嘉峪关市,雄关区,,35,34,28,18,12,110,,156,144,16,13,6,8,0.5,0.5
2025-06-27T2300,1383A,113.1064,22.6058,江门市,北街,,14,14,15,6,8,26,,53,42,17,16,3,3,0.5,0.4
2025-06-27T2300,1384A,113.0731,22.5835,江门市,西区,,20,20,12,8,5,34,,60,46,14,11,8,8,0.4,0.4
2025-06-27T2300,1385A,113.0219,22.5311,江门市,圭峰西,,11,11,21,3,6,21,,59,40,10,9,3,3,0.6,0.6
2025-06-27T2300,1386A,113.0828,22.5947,江门市,东湖,,12,12,11,8,6,31,,55,44,14,12,6,6,0.5,0.5
2025-06-27T2300,3311A,113.1075,22.5647,江门市,江海富民,,33,29,24,23,12,31,,62,46,14,11,10,9,0.6,0.5
2025-06-27T2300,3449A,113.05,22.4667,江门市,新会银湖,,19,19,15,9,7,0,,53,30,22,12,1,2,0.5,0.4
2025-06-27T2300,1830A,113.1992,35.2590,焦作市,影视城,,,,,,,,,,,,,,,,
2025-06-27T2300,3169A,113.2725,35.2067,焦作市,太极体育中心,颗粒物(PM10),51,51,49,22,32,91,,178,154,22,12,3,4,0.4,0.5
2025-06-27T2300,3335A,113.3137,35.2641,焦作市,马村街道办,,48,48,48,24,30,92,,182,157,24,15,9,10,0.6,0.7
2025-06-27T2300,3336A,113.2465,35.2373,焦作市,焦作技师学院,,,,42,9,17,104,,177,157,14,10,3,4,0.8,0.8
2025-06-27T2300,3477A,113.1656,35.2539,焦作市,中站许衡医院,,37,37,36,15,26,104,,176,150,16,16,7,10,0.5,0.6
2025-06-27T2300,3981A,113.2449,35.1803,焦作市,原李万街道办,颗粒物(PM10),60,69,52,7,16,79,,179,150,28,17,10,12,0.2,0.2
2025-06-27T2300,4264A,113.2340,35.2190,焦作市,新安路1731号,,,25,38,14,22,109,,178,158,,7,6,6,0.5,0.5
2025-06-27T2300,1708A,116.3701,23.5345,揭阳市,新兴,,14,14,26,8,12,25,,57,38,13,13,6,6,0.6,0.6
2025-06-27T2300,1709A,116.3264,23.5443,揭阳市,西马,,22,22,29,3,11,28,,60,38,8,11,3,3,0.7,0.7
2025-06-27T2300,1710A,116.3611,23.5626,揭阳市,东兴,,21,21,32,6,8,28,,67,41,11,14,3,4,0.6,0.6
2025-06-27T2300,1711A,116.4151,23.5294,揭阳市,渔湖,,,,27,6,9,28,,50,35,8,13,7,7,0.5,0.5
2025-06-27T2300,3320A,116.403,23.5699,揭阳市,曲溪,,21,21,21,10,9,28,,63,42,11,10,8,7,0.5,0.5
2025-06-27T2300,1944A,102.1692,38.5167,金昌市,天庆家园,颗粒物(PM10),68,85,33,40,13,87,,141,125,21,10,40,20,0.9,0.7
2025-06-27T2300,4022A,102.1647,38.5371,金昌市,金川区人防中心,颗粒物(PM10),59,67,36,18,13,92,,146,127,18,10,12,20,0.6,0.5
2025-06-27T2300,4239A,102.1930,38.5319,金昌市,长春路96号,颗粒物(PM10),59,68,29,23,13,107,,145,133,13,8,13,27,1.0,0.6
2025-06-27T2300,1262A,119.647,29.077,金华市,十五中,,24,11,30,9,15,75,,141,100,8,11,3,4,0.4,0.5
2025-06-27T2300,1263A,119.686,29.1029,金华市,监测站,,21,,30,9,15,66,,136,95,8,8,1,3,0.5,0.6
2025-06-27T2300,3659A,119.656,29.1131,金华市,气象局,,20,13,30,9,14,61,,139,93,17,13,2,4,0.3,0.4
2025-06-27T2300,1767A,121.1115,41.0879,锦州市,南山,,26,,27,18,32,58,,107,81,14,13,5,6,0.7,0.8
2025-06-27T2300,1768A,121.0604,40.8428,锦州市,开发区,,21,,32,3,35,67,,137,98,14,15,4,7,0.6,0.8
2025-06-27T2300,1769A,121.1836,41.1119,锦州市,百股街道,,21,21,33,14,26,55,,121,84,18,16,10,42,0.7,0.7
2025-06-27T2300,1770A,121.1178,41.1222,锦州市,天安街道,,26,,33,18,31,75,,121,97,14,18,2,4,0.9,1
2025-06-27T2300,1771A,121.1303,41.1386,锦州市,北湖公园,,20,18,38,13,37,62,,110,78,10,15,7,7,0.6,0.8
2025-06-27T2300,2160A,112.85,35.5051,晋城市,自来水公司,颗粒物(PM10),51,51,56,14,25,127,,168,156,7,9,3,2,0.5,0.6
2025-06-27T2300,2161A,112.8318,35.4936,晋城市,白云商贸,,37,33,55,3,17,116,,159,148,11,12,5,4,0.5,0.6
2025-06-27T2300,2162A,112.8508,35.4887,晋城市,市环保局,,44,44,58,19,24,116,,159,146,9,11,7,8,0,0.1
2025-06-27T2300,2163A,112.8676,35.4897,晋城市,技术学院,,38,38,43,14,22,112,,150,140,9,9,7,7,0.5,0.6
2025-06-27T2300,2165A,112.8453,35.546,晋城市,白马寺,,40,28,43,22,34,128,,168,158,6,9,6,6,0.5,0.7
2025-06-27T2300,3620A,112.8271,35.4828,晋城市,泽州一中,,41,24,38,12,22,130,,166,156,10,13,4,4,0.5,0.5
2025-06-27T2300,2173A,112.7249,37.7067,晋中市,南都小区,颗粒物(PM10),52,53,48,30,32,129,,166,140,4,11,3,2,0.8,0.7
2025-06-27T2300,2174A,112.6991,37.6982,晋中市,榆次区政府,,40,39,37,24,27,128,,165,137,4,12,4,5,1.0,1
2025-06-27T2300,2865A,112.7195,37.6828,晋中市,榆次三中,,43,34,40,22,22,135,,172,153,8,9,5,6,0.5,0.6
2025-06-27T2300,4200A,112.7478,37.6954,晋中市,迎宾街26号,,44,29,40,19,26,139,,176,156,7,9,6,6,0.8,1
2025-06-27T2300,2439A,112.2014,31.0481,荆门市,竹园小学,,32,30,27,22,19,64,,87,75,11,11,5,6,0.7,0.8
2025-06-27T2300,2440A,112.1969,30.9891,荆门市,掇刀,,29,29,26,20,18,66,,88,79,8,10,7,8,0.7,0.6
2025-06-27T2300,2441A,112.2213,31.0386,荆门市,石化一小,,48,41,25,33,28,51,,91,75,18,13,15,14,0.4,0.4
2025-06-27T2300,3012A,112.1849,31.0362,荆门市,西山林语,,31,31,25,20,16,55,,83,73,5,4,11,10,0.4,0.4
2025-06-27T2300,3547A,112.1632,31.0138,荆门市,龙泉中学南校,,35,31,22,24,16,66,,87,80,2,6,5,5,0.4,0.5
2025-06-27T2300,1844A,112.2494,30.3197,荆州市,市图书馆,,32,26,19,22,14,56,,95,81,15,18,2,3,0.6,0.6
2025-06-27T2300,1845A,112.2008,30.3544,荆州市,市委党校,,36,36,19,15,13,44,,77,67,22,16,6,6,0.6,0.6
2025-06-27T2300,3194A,112.2747,30.3122,荆州市,管委会,,33,27,19,23,17,55,,91,79,17,14,6,7,0.7,0.8
2025-06-27T2300,4268A,112.1722,30.3366,荆州市,学苑路85号,,,31,21,25,15,,,81,,31,15,3,3,0.6,0.3
2025-06-27T2300,2342A,117.3102,29.3867,景德镇市,王港中学,,,,,,,,,,,,,,,,
2025-06-27T2300,2343A,117.2117,29.2933,景德镇市,老干部活动中心,,36,36,29,16,15,13,,74,53,26,14,5,6,0.5,0.4
2025-06-27T2300,2344A,117.1894,29.2789,景德镇市,兽医站,,32,28,30,22,15,35,,72,57,9,9,3,6,0.6,0.5
2025-06-27T2300,2345A,117.1547,29.2617,景德镇市,台达陶瓷,,32,29,31,22,21,21,,71,52,19,15,25,29,0.7,0.6
2025-06-27T2300,2346A,117.2461,29.2956,景德镇市,陶研所,,27,27,26,11,16,26,,78,56,6,6,4,5,0.4,0.2
2025-06-27T2300,1803A,115.9872,29.6815,九江市,十里,,32,,19,22,20,9,,72,50,47,23,3,4,0.6,0.6
2025-06-27T2300,1804A,115.9584,29.7046,九江市,茅山头,,22,18,26,15,17,15,,68,50,34,20,5,4,0.4,0.5
2025-06-27T2300,1805A,115.9877,29.7295,九江市,西园,,40,20,22,9,14,5,,72,52,80,36,12,8,0.7,0.7
2025-06-27T2300,1808A,115.9114,29.6038,九江市,综合工业园,,27,27,26,13,12,18,,72,30,38,29,4,3,0.9,0.9
2025-06-27T2300,1809A,116.0721,29.7535,九江市,石化总厂,,26,26,29,18,24,4,,58,39,51,25,9,7,0.6,0.5
2025-06-27T2300,1810A,115.9773,29.5698,九江市,庐山气象台,,23,6,11,3,4,71,,65,64,4,5,7,8,0.8,0.8
2025-06-27T2300,3190A,116.0254,29.6994,九江市,外国语学校,,20,18,22,13,16,18,,66,53,40,20,6,6,1.0,0.7
2025-06-27T2300,4253A,116.0102,29.6594,九江市,莲花大道8号,,12,,14,8,14,20,,61,47,4,8,4,4,0.7,0.7
2025-06-27T2300,4240A,98.4958,39.7339,酒泉市,玉门东路5号,,50,,29,35,22,105,,152,139,13,9,10,14,0.6,0.3
2025-06-27T2300,4241A,98.5099,39.7506,酒泉市,北大街108号,,38,,21,26,16,114,,160,145,8,8,12,21,0.3,0.3
2025-06-27T2300,2698A,76.0072,39.4467,喀什地区,巡警大队,颗粒物(PM10),160,270,144,76,35,94,,136,129,26,14,3,2,0.4,0.3
2025-06-27T2300,2699A,75.9755,39.4694,喀什地区,吾办,颗粒物(PM10),150,250,147,99,62,93,,132,126,27,14,5,6,0.6,0.5
2025-06-27T2300,4027A,75.9483,39.4689,喀什地区,老干局,,,,140,,36,97,,131,126,19,9,5,5,0.3,0.3
2025-06-27T2300,1824A,114.3389,34.7781,开封市,肿瘤医院,,34,34,34,17,15,98,,154,135,20,16,2,2,0.3,0.4
2025-06-27T2300,1826A,114.2885,34.7965,开封市,世纪星幼儿园,,34,34,31,12,22,104,,149,132,20,14,1,2,0.5,0.5
2025-06-27T2300,3147A,114.3438,34.8106,开封市,龙亭公园,,,,33,28,16,97,,158,140,20,11,4,3,0.4,0.3
2025-06-27T2300,3210A,114.3644,34.7964,开封市,汴京公园,,45,45,41,11,19,98,,158,137,27,16,5,4,0.5,0.4
2025-06-27T2300,3473A,114.2485,34.8306,开封市,技师学院,,39,31,30,14,16,124,,162,149,11,14,4,4,0.8,0.8
2025-06-27T2300,3592A,114.4644,34.7556,开封市,祥符区生态环境局,,38,38,31,17,15,84,,147,124,25,25,4,4,0.6,0.7
2025-06-27T2300,1951A,84.895,45.6094,克拉玛依市,长征新村,,22,6,22,3,5,68,,103,87,26,7,4,4,0.3,0.2
2025-06-27T2300,1952A,84.8988,45.5893,克拉玛依市,南林小区,,,20,25,17,11,65,,101,94,22,9,2,3,,0.1
2025-06-27T2300,1954A,84.905,44.3396,克拉玛依市,独山子区,,28,27,35,14,14,88,,115,106,14,10,8,8,0.3,0.3
2025-06-27T2300,1955A,85.6979,46.098,克拉玛依市,乌尔禾区商贸楼,,24,24,39,3,7,71,,104,97,6,5,4,4,0.4,0.3
2025-06-27T2300,3612A,85.1045,45.6899,克拉玛依市,白碱滩区新站,,38,,17,26,23,56,,110,102,29,7,7,7,0.5,0.2
2025-06-27T2300,2697A,76.1454,39.7142,克孜勒苏柯尔克孜自治州,市人民政府,颗粒物(PM10),164,278,104,112,44,104,,147,133,13,6,3,7,0.5,0.2
2025-06-27T2300,3665A,76.1658,39.7157,克孜勒苏柯尔克孜自治州,克州文化中心,颗粒物(PM10),157,264,112,88,46,110,,143,134,16,6,4,7,0.6,0.5
2025-06-27T2300,1450A,102.8204,24.8886,昆明市,呈贡新区,,14,,8,3,10,42,,66,60,9,16,6,7,0.3,0.4
2025-06-27T2300,1451A,102.6251,24.9608,昆明市,西山森林公园,,,,,,,,,,,,,,,,
2025-06-27T2300,1452A,102.7252,25.0902,昆明市,龙泉镇,,17,17,12,3,6,38,,53,48,11,13,1,2,0.3,0.4
2025-06-27T2300,1453A,102.7266,25.0375,昆明市,东风东路,,16,16,17,10,9,30,,60,52,22,18,4,4,0.3,0.3
2025-06-27T2300,1454A,102.6742,25.0669,昆明市,金鼎山,,13,13,12,6,5,36,,59,50,12,12,3,2,0.3,0.3
2025-06-27T2300,1455A,102.6644,25.0401,昆明市,碧鸡广场,,16,16,12,6,5,42,,62,52,16,18,5,5,0.4,0.4
2025-06-27T2300,3179A,102.7494,25.0119,昆明市,官渡区博物馆,,,,29,13,7,21,,57,44,27,18,7,6,0.4,0.4
2025-06-27T2300,3375A,102.8017,24.8336,昆明市,青年创业园,,13,10,12,7,10,17,,68,59,25,16,2,4,0.4,0.4
2025-06-27T2300,3550A,102.7997,24.9786,昆明市,昆明学院,,19,18,14,13,9,30,,58,51,18,16,6,5,0.3,0.3
2025-06-27T2300,3551A,102.5967,24.6736,昆明市,晋宁区生态环境分局,,29,29,16,17,7,36,,90,76,17,11,1,2,0.4,0.4
2025-06-27T2300,3552A,102.6678,24.9856,昆明市,云天化总部,,23,23,14,16,7,44,,64,55,7,16,3,3,0.6,0.6
2025-06-27T2300,1456A,91.1319,29.6514,拉萨市,八廓街,,38,27,22,11,10,121,,144,138,7,11,7,8,0.2,0.2
2025-06-27T2300,1457A,91.1221,29.6747,拉萨市,市环保局,,37,33,30,15,13,116,,148,141,14,14,9,8,0.3,0.3
2025-06-27T2300,1458A,91.0874,29.6475,拉萨市,区监测站,,40,29,24,9,11,125,,139,138,9,22,6,8,0.2,0.2
2025-06-27T2300,1459A,91.1774,29.6541,拉萨市,西藏大学,,36,28,19,10,10,115,,144,138,15,12,5,7,0.3,0.3
2025-06-27T2300,1460A,90.9798,29.6588,拉萨市,区辐射站,颗粒物(PM10),51,52,38,15,14,111,,126,123,10,25,6,7,0.2,0.3
2025-06-27T2300,1461A,91.0834,29.6292,拉萨市,拉萨火车站,,40,23,22,9,11,125,,140,139,4,17,4,5,0.1,0.2
2025-06-27T2300,2520A,109.2203,23.7256,来宾市,来宾技工学校,,24,24,16,7,7,43,,62,58,12,5,8,8,0.5,0.5
2025-06-27T2300,3535A,109.1781,23.7297,来宾市,兴宾区政府,,30,21,10,8,8,25,,62,53,25,7,22,7,3.0,0.6
2025-06-27T2300,4002A,109.2416,23.7461,来宾市,中南小学,,16,16,14,6,5,25,,66,59,24,7,9,8,0.5,0.5
2025-06-27T2300,1477A,104.1373,35.9454,兰州市,榆中兰大校区,,,,,,,,,,,,,,,,
2025-06-27T2300,1479A,103.831,36.0464,兰州市,铁路设计院,颗粒物(PM10),57,63,37,29,22,23,,144,118,105,38,8,10,0.8,0.6
2025-06-27T2300,3241A,103.7439,36.0842,兰州市,百合公园,,37,37,26,23,18,39,,138,112,72,25,5,4,0.3,0.4
2025-06-27T2300,3242A,103.9611,35.998,兰州市,和平,,40,40,32,21,16,98,,154,135,17,19,10,11,0.4,0.6
2025-06-27T2300,4236A,103.6293,36.0938,兰州市,庄浪东路808号,,37,37,30,22,16,64,,138,120,62,31,12,12,0.3,0.3
2025-06-27T2300,4237A,103.7251,36.1043,兰州市,安宁西路88号,,49,42,32,34,21,71,,162,143,44,17,8,7,0.4,0.3
2025-06-27T2300,4238A,103.8470,36.0676,兰州市,北滨河东路1号,二氧化氮,57,46,31,31,22,4,,156,121,113,39,8,8,0.9,0.7
2025-06-27T2300,3245A,103.6633,36.533,兰州新区,新区管委会,,35,33,22,24,15,87,,150,136,16,8,7,10,0.3,0.3
2025-06-27T2300,3246A,103.6975,36.4789,兰州新区,舟曲中学,,31,22,17,8,9,97,,142,129,23,10,5,9,0.3,0.4
2025-06-27T2300,1067A,116.6708,39.5111,廊坊市,药材公司,,37,37,60,18,32,114,,147,132,11,14,3,4,0.6,0.6
2025-06-27T2300,1068A,116.7214,39.5589,廊坊市,开发区,,37,24,57,17,32,116,,142,131,9,15,1,2,0.4,0.5
2025-06-27T2300,1070A,116.7244,39.5269,廊坊市,北华航天学院,颗粒物(PM10),53,55,66,31,38,107,,138,124,5,8,1,2,0.4,0.5
2025-06-27T2300,2919A,116.7022,39.5453,廊坊市,河北工业大学,,38,34,61,15,28,120,,147,132,10,13,3,4,0.4,0.5
2025-06-27T2300,2535A,103.7723,29.5462,乐山市,花湖湾,,38,30,25,26,20,85,,145,140,28,15,2,3,0.6,0.5
2025-06-27T2300,2536A,103.7627,29.5844,乐山市,牛耳桥,,27,27,27,17,22,86,,142,133,23,21,6,7,0.9,0.8
2025-06-27T2300,2537A,103.7508,29.6006,乐山市,市第三水厂,,32,31,29,22,24,70,,136,128,37,25,4,5,0.7,0.7
2025-06-27T2300,2538A,103.7571,29.5664,乐山市,市监测站,,30,30,30,16,19,87,,130,126,13,10,6,7,0.8,0.8
2025-06-27T2300,3361A,103.7311,29.5628,乐山市,理工大学,,48,48,39,28,22,74,,144,137,28,20,7,8,0.7,0.7
2025-06-27T2300,2598A,100.2143,26.8576,丽江市,西南郊,,22,22,13,7,6,67,,103,88,12,7,6,6,0.6,0.5
2025-06-27T2300,2599A,100.2497,26.8802,丽江市,丽江古城,,32,32,19,13,8,56,,90,75,15,10,7,9,0.5,0.4
2025-06-27T2300,2600A,100.2203,26.8906,丽江市,市中心,,21,21,12,14,6,56,,105,86,20,12,7,7,0.5,0.4
2025-06-27T2300,1267A,119.914,28.4514,丽水市,监测站大楼,,15,15,26,6,12,37,,106,70,16,13,2,4,0.4,0.5
2025-06-27T2300,1268A,119.93,28.4586,丽水市,莲都小学,,12,11,26,6,9,36,,104,69,13,15,3,4,0.3,0.4
2025-06-27T2300,1269A,119.879,28.4231,丽水市,余庄前,,16,16,24,3,13,18,,117,64,9,8,3,3,0.4,0.4
2025-06-27T2300,1173A,119.176,34.5885,连云港市,市环境监测站,细颗粒物(PM2.5),64,,29,46,26,109,,152,142,18,14,5,6,0.5,0.5
2025-06-27T2300,3000A,119.3581,34.6972,连云港市,德源药业,,45,44,27,31,17,93,,138,124,22,13,9,9,0.7,0.6
2025-06-27T2300,3007A,119.178,34.844,连云港市,新城一中,,35,32,30,20,17,111,,150,143,15,9,6,6,0.9,0.9
2025-06-27T2300,3008A,119.3608,34.7519,连云港市,胡沟管理处,,40,34,21,27,17,128,,149,146,12,10,7,7,1.0,1
2025-06-27T2300,3009A,119.1478,34.5911,连云港市,矿山设计院,,49,36,30,34,23,113,,140,135,7,8,5,5,0.6,0.7
2025-06-27T2300,3434A,119.2413,34.6539,连云港市,工贸学校,颗粒物(PM10),65,80,51,36,24,126,,153,147,3,4,8,7,0.8,0.8
2025-06-27T2300,3664A,119.4172,34.7341,连云港市,连云街道,,42,42,22,26,17,127,,155,152,8,5,7,7,0.6,0.6
2025-06-27T2300,2571A,102.3431,27.8099,凉山彝族自治州,青龙寺,,21,21,12,3,3,28,,105,90,24,6,4,4,0.6,0.6
2025-06-27T2300,2572A,102.2721,27.8415,凉山彝族自治州,邛海宾馆,,23,23,16,12,7,71,,108,102,12,9,8,8,0.4,0.4
2025-06-27T2300,2573A,102.2625,27.898,凉山彝族自治州,西昌市政府,,20,6,8,3,10,62,,123,109,3,8,9,10,0.3,0.4
2025-06-27T2300,2574A,102.2685,27.8851,凉山彝族自治州,凉山州政府,,25,22,17,17,12,61,,123,109,13,16,8,9,0.8,0.9
2025-06-27T2300,4229A,102.2342,27.8859,凉山彝族自治州,凯乐南路30号,,25,25,18,9,5,68,,119,106,4,14,9,10,0.6,0.6
2025-06-27T2300,2212A,123.2,41.1953,辽阳市,宏伟区,,14,14,27,3,19,38,,76,46,4,13,3,4,0.7,1
2025-06-27T2300,2213A,123.1683,41.2495,辽阳市,新华园,,13,12,44,7,21,39,,95,62,12,21,6,9,0.4,0.7
2025-06-27T2300,2214A,123.2354,41.2639,辽阳市,滨河路,,,,34,12,22,10,,78,34,30,23,7,8,0.5,0.8
2025-06-27T2300,2215A,123.149,41.2991,辽阳市,铁西工业园,,17,17,62,11,24,22,,83,38,11,27,3,5,0.7,1.1
2025-06-27T2300,2227A,125.1358,42.8845,辽源市,环保局,"颗粒物(PM10),细颗粒物(PM2.5)",57,64,50,40,30,70,,153,107,25,30,4,5,0.5,0.5
2025-06-27T2300,3239A,125.0764,42.9078,辽源市,银鹰制药,细颗粒物(PM2.5),57,47,44,40,30,59,,150,94,33,34,3,4,0.7,0.6
2025-06-27T2300,1625A,115.9848,36.4372,聊城市,区政府,,48,40,45,33,40,118,,166,156,17,11,8,7,0.7,0.7
2025-06-27T2300,2878A,116.0072,36.4343,聊城市,聊大东校,细颗粒物(PM2.5),54,46,46,38,38,121,,174,162,15,10,7,6,0.6,0.6
2025-06-27T2300,3200A,115.9819,36.4978,聊城市,监控中心,,42,39,38,29,30,113,,166,152,22,10,7,7,0.7,0.7
2025-06-27T2300,3513A,116.0445,36.4361,聊城市,九州社区,颗粒物(PM10),55,59,61,33,32,110,,167,152,24,12,3,3,0.5,0.5
2025-06-27T2300,4018A,116.0567,36.4608,聊城市,星美广场,颗粒物(PM10),55,60,60,31,29,118,,174,159,16,11,10,9,0.7,0.8
2025-06-27T2300,2632A,94.3681,29.6376,林芝市,林芝监测站,,23,,16,8,6,73,,87,84,3,4,4,4,0.3,0.4
2025-06-27T2300,2633A,94.3616,29.6616,林芝市,林芝人民医院,,23,12,13,8,6,73,,90,86,1,2,5,5,0.3,0.3
2025-06-27T2300,2603A,100.0781,23.8982,临沧市,市环保局,,33,25,18,23,14,23,,50,45,11,8,6,6,0.7,0.7
2025-06-27T2300,2604A,100.0894,23.8822,临沧市,市气象局,,21,21,15,13,10,28,,53,48,10,10,6,7,0.5,0.4
2025-06-27T2300,1733A,111.5531,36.0783,临汾市,临钢医院,,39,29,51,3,21,122,,172,160,13,18,7,11,0.6,1.1
2025-06-27T2300,1734A,111.5028,36.0714,临汾市,技工学校,,37,30,56,10,34,117,,171,152,10,16,2,6,0.4,0.9
2025-06-27T2300,1736A,111.5018,36.0855,临汾市,市委,,45,45,70,3,22,117,,176,155,13,20,3,8,0.6,1.1
2025-06-27T2300,3018A,111.505,36.1014,临汾市,唐尧大酒店,,,47,71,,25,110,,161,144,9,17,3,6,0.5,0.9
2025-06-27T2300,4244A,111.4879,36.0530,临汾市,启星学校,,35,20,52,14,35,110,,172,150,8,15,5,8,0.5,1
2025-06-27T2300,4271A,103.2464,35.6123,临夏回族自治州,滨河东路1号,颗粒物(PM10),64,77,28,21,13,33,,129,97,38,11,3,3,0.5,0.3
2025-06-27T2300,4310A,103.2093,35.5995,临夏回族自治州,新华街21号,,,80,33,49,21,,,135,131,24,13,7,6,0.4,0.3
2025-06-27T2300,1618A,118.3429,35.0532,临沂市,沂河小区,颗粒物(PM10),53,56,29,34,20,125,,143,142,23,14,10,7,0.5,0.5
2025-06-27T2300,1619A,118.295,35.0583,临沂市,鲁南制药厂,颗粒物(PM10),53,56,26,28,20,113,,145,137,29,15,9,7,0.6,0.6
2025-06-27T2300,1620A,118.2794,34.9976,临沂市,新光毛纺厂,,41,41,20,24,18,115,,152,146,23,12,9,8,0.6,0.6
2025-06-27T2300,1621A,118.3956,35.0888,临沂市,河东保险公司,颗粒物(PM10),53,56,22,30,12,79,,144,132,35,13,6,5,0.7,0.6
2025-06-27T2300,3370A,118.3564,35.0215,临沂市,十里堡居委,,49,44,23,34,20,127,,159,154,26,16,11,8,0.7,0.6
2025-06-27T2300,3496A,118.3604,35.1084,临沂市,南坊新区,颗粒物(PM10),52,53,27,29,13,116,,142,138,20,14,8,7,0.6,0.5
2025-06-27T2300,3860A,118.3920,35.0300,临沂市,皇山花园小区,,48,39,24,33,23,115,,148,143,26,14,10,9,0.7,0.7
2025-06-27T2300,1870A,109.4856,24.3895,柳州市,柳东小学,,16,13,16,8,9,50,,67,66,13,6,6,5,0.4,0.4
2025-06-27T2300,1871A,109.4157,24.3277,柳州市,环保监测站,,22,22,17,9,8,47,,68,65,20,8,7,8,0.6,0.5
2025-06-27T2300,1872A,109.389,24.341,柳州市,河西水厂,,,16,19,,9,24,,69,62,33,11,5,6,0.8,0.4
2025-06-27T2300,1873A,109.4311,24.2921,柳州市,市四中,,24,24,15,11,11,40,,68,62,22,12,6,8,0.5,0.4
2025-06-27T2300,1874A,109.4006,24.3631,柳州市,市九中,颗粒物(PM10),52,53,21,12,10,25,,68,60,38,10,3,3,1.0,0.7
2025-06-27T2300,1875A,109.4958,24.3134,柳州市,古亭山,,30,,19,21,8,11,,64,56,32,11,4,5,0.5,0.5
2025-06-27T2300,3402A,109.5422,24.3996,柳州市,市二中,细颗粒物(PM2.5),57,,16,40,17,14,,72,59,44,12,55,8,0.5,0.4
2025-06-27T2300,2307A,116.5079,31.737,六安市,监测大楼,,15,,9,10,10,32,,69,34,6,6,4,4,0.0,0.1
2025-06-27T2300,2308A,116.4738,31.7643,六安市,皖西学院,,14,,8,8,9,42,,77,45,6,5,3,4,0.2,0.3
2025-06-27T2300,2309A,116.4996,31.7905,六安市,朝阳厂,,12,12,8,8,9,30,,63,34,9,9,5,7,0.2,0.3
2025-06-27T2300,2310A,116.5567,31.7886,六安市,开发区,,12,8,9,8,11,30,,60,34,8,5,3,3,0.4,0.4
2025-06-27T2300,2576A,104.8,26.5892,六盘水市,窑上,,22,22,22,3,3,6,,44,28,2,6,2,3,0.2,0.4
2025-06-27T2300,2577A,104.83,26.5917,六盘水市,黄土坡,,17,17,12,3,8,6,,54,34,16,15,9,10,0.6,0.7
2025-06-27T2300,2578A,104.89,26.5939,六盘水市,水钢,,48,48,30,33,21,28,,62,47,16,11,13,13,0.5,0.5
2025-06-27T2300,2579A,104.8475,26.5894,六盘水市,民中,,29,29,12,9,4,2,,59,36,32,17,9,9,0.7,0.5
2025-06-27T2300,2580A,104.9544,26.5506,六盘水市,双水,,10,7,3,3,5,31,,58,45,8,6,9,9,0.3,0.3
2025-06-27T2300,2335A,117.0189,25.1181,龙岩市,龙岩师专,,,,,,,,,,,,,,,,
2025-06-27T2300,2336A,117.0217,25.1033,龙岩市,龙岩市监测站,,12,10,15,8,8,36,,63,54,13,10,8,6,0.4,0.4
2025-06-27T2300,2337A,117.0258,25.0661,龙岩市,闽西职业技术学院,,22,22,20,15,11,17,,56,42,18,8,21,9,0.5,0.4
2025-06-27T2300,2338A,117.0196,25.0306,龙岩市,龙岩学院,,9,,17,3,7,28,,54,37,5,6,6,5,0.7,0.6
2025-06-27T2300,2665A,105.0822,33.3261,陇南市,汉王镇固水子,,,,,,,,,,,,,,,,
2025-06-27T2300,2885A,104.9339,33.3826,陇南市,滨江中学,,38,38,19,18,12,84,,110,97,5,4,5,5,0.3,0.2
2025-06-27T2300,3247A,104.955,33.371,陇南市,市总工会,,48,48,37,13,8,93,,119,107,4,3,6,6,0.6,0.6
2025-06-27T2300,2487A,111.9589,27.8901,娄底市,电视发射台,,30,30,46,10,14,5,,44,13,5,7,5,6,0.3,0.5
2025-06-27T2300,2488A,111.9975,27.725,娄底市,市监测站,,40,37,28,28,20,11,,65,37,40,15,12,10,1.4,0.6
2025-06-27T2300,2489A,112.0194,27.7314,娄底市,市委党校,,31,31,23,21,17,33,,70,52,14,9,6,6,0.4,0.4
2025-06-27T2300,2490A,111.9561,27.7569,娄底市,涟钢,,14,14,29,8,15,25,,59,40,14,16,6,5,0.7,1
2025-06-27T2300,2491A,111.9892,27.7044,娄底市,市政府,,35,35,25,23,18,30,,67,36,14,7,6,6,0.8,0.6
2025-06-27T2300,1893A,105.4324,28.9634,泸州市,九狮山,细颗粒物(PM2.5),53,,33,37,28,56,,154,116,24,15,6,6,0.5,0.4
2025-06-27T2300,1894A,105.4427,28.9063,泸州市,小市上码头,,36,36,30,20,13,103,,164,142,17,14,2,2,0.3,0.2
2025-06-27T2300,1895A,105.4241,28.8573,泸州市,兰田宪桥,,41,41,31,24,15,54,,157,124,25,16,8,8,0.7,0.5
2025-06-27T2300,1896A,105.4379,28.8833,泸州市,市环监站,,,26,27,18,15,,,154,138,28,22,3,7,0.6,0.5
2025-06-27T2300,4272A,105.3689,28.7783,泸州市,纳溪中医医院,颗粒物(PM10),55,60,36,35,23,39,,140,108,46,23,5,5,0.7,0.5
2025-06-27T2300,2183A,111.1406,37.5211,吕梁市,环保局,,29,29,48,3,29,91,,130,127,22,19,5,5,0.7,0.7
2025-06-27T2300,2185A,111.1297,37.5136,吕梁市,自来水公司,,31,19,44,7,30,97,,120,119,18,16,2,2,0.6,0.7
2025-06-27T2300,2867A,111.1283,37.51,吕梁市,马茂庄小学,,29,20,50,9,32,90,,126,125,28,24,3,4,0.5,0.8
2025-06-27T2300,1812A,112.3931,34.6516,洛阳市,市委党校,,25,20,41,13,26,79,,141,108,12,12,7,7,0.5,0.6
2025-06-27T2300,1815A,112.494,34.6886,洛阳市,河南林校,,31,31,49,14,32,79,,161,121,17,16,8,9,0.6,0.6
2025-06-27T2300,1816A,112.3844,34.623,洛阳市,开发区管委会,,20,19,32,14,23,55,,148,97,16,13,9,12,0.5,0.6
2025-06-27T2300,1817A,112.4267,34.6258,洛阳市,市委新办公区,,29,29,46,15,27,62,,132,88,20,16,10,10,0.7,0.6
2025-06-27T2300,3340A,112.6005,34.6326,洛阳市,伊滨,,41,41,53,20,32,51,,148,98,22,16,4,5,0.5,0.5
2025-06-27T2300,3341A,112.4951,34.6332,洛阳市,中移产业园,,26,26,45,15,32,72,,151,106,23,16,13,9,0.9,0.8
2025-06-27T2300,3593A,112.5736,34.8993,洛阳市,吉利监测站,颗粒物(PM10),51,52,48,24,30,66,,172,143,25,13,6,8,0.4,0.4
2025-06-27T2300,3635A,112.3677,34.662,洛阳市,河科大西苑校区,,28,20,44,8,30,88,,158,121,10,14,11,10,0.6,0.6
2025-06-27T2300,3636A,112.4388,34.6781,洛阳市,英才小学,,30,26,58,21,32,77,,149,110,13,12,12,10,0.8,0.8
2025-06-27T2300,4214A,112.4600,34.6949,洛阳市,春都路1号院,,27,27,40,10,24,75,,152,117,17,13,6,6,0.7,0.7
2025-06-27T2300,2399A,114.051,33.5699,漯河市,三五一五工厂,,31,31,22,12,18,55,,141,109,18,18,4,5,0.5,0.5
2025-06-27T2300,2400A,114.0055,33.5698,漯河市,漯河大学,,26,26,24,7,14,57,,144,111,17,18,3,4,0.4,0.5
2025-06-27T2300,2401A,114.0138,33.5828,漯河市,市水利局,,19,19,23,9,15,55,,140,107,13,13,2,4,0.6,0.6
2025-06-27T2300,2402A,114.0261,33.5698,漯河市,市广电局,,33,,20,23,18,51,,142,108,15,14,2,2,0.5,0.5
2025-06-27T2300,3478A,113.9749,33.5664,漯河市,市图书馆,,,,27,11,19,50,,141,105,17,15,2,3,,0.4
2025-06-27T2300,4250A,114.0892,33.5882,漯河市,韶山路11号,,40,40,29,14,16,58,,136,105,14,17,2,3,0.6,0.7
2025-06-27T2300,1798A,118.5092,31.6837,马鞍山市,湖东路四小,,15,15,27,7,15,41,,71,53,6,16,7,10,0.7,1
2025-06-27T2300,1799A,118.5024,31.6449,马鞍山市,开发区,,15,15,27,7,11,30,,78,51,19,17,6,7,1.0,1
2025-06-27T2300,1802A,118.6245,31.7241,马鞍山市,濮塘,,18,18,22,11,13,24,,79,39,1,4,8,8,0.7,0.9
2025-06-27T2300,3633A,118.4918,31.6809,马鞍山市,雨山,,12,6,30,6,14,38,,62,48,10,21,5,5,0.8,1.2
2025-06-27T2300,4191A,118.5274,31.72227,马鞍山市,慈湖高新区,,12,12,27,7,16,34,,67,48,16,19,6,7,0.4,0.7
2025-06-27T2300,1686A,111.0286,21.4688,茂名市,电白南海,,17,17,13,9,9,30,,36,32,8,5,2,2,0.4,0.3
2025-06-27T2300,1687A,110.9294,21.6533,茂名市,茂石化七小,,19,19,17,7,5,25,,46,34,8,6,3,3,0.4,0.4
2025-06-27T2300,1688A,110.9107,21.6687,茂名市,健康路,,12,12,10,7,6,32,,52,41,8,7,3,3,0.3,0.3
2025-06-27T2300,1689A,110.8592,21.6828,茂名市,高岭,,19,19,19,3,2,28,,44,36,12,10,5,4,0.4,0.4
2025-06-27T2300,3450A,111.01,21.5165,茂名市,电白水东,,12,7,6,3,3,38,,44,42,6,5,4,4,0.3,0.3
2025-06-27T2300,2539A,104.0308,30.0478,眉山市,黑龙滩水库,,49,41,17,34,22,81,,145,132,13,10,2,2,0.6,0.6
2025-06-27T2300,2540A,103.8416,30.0874,眉山市,气象局,颗粒物(PM10),51,52,34,31,21,79,,170,155,45,33,3,3,0.5,0.6
2025-06-27T2300,3137A,103.8578,30.0744,眉山市,市委党校,,46,46,34,22,17,84,,165,150,40,33,5,6,0.6,0.6
2025-06-27T2300,3148A,103.8291,30.0564,眉山市,区人社局,颗粒物(PM10),51,52,44,24,15,78,,175,157,44,30,10,9,0.7,0.7
2025-06-27T2300,1690A,116.1231,24.3284,梅州市,梅江月梅,,29,29,22,14,9,6,,66,46,24,9,6,7,0.5,0.5
2025-06-27T2300,1691A,116.0797,24.2719,梅州市,梅县新城,,17,17,21,3,9,21,,66,53,15,10,6,6,0.5,0.5
2025-06-27T2300,1692A,116.1248,24.2654,梅州市,环境监控中心,,16,13,19,10,9,5,,61,51,31,14,3,8,0.5,0.5
2025-06-27T2300,3315A,116.1233,24.2991,梅州市,梅龙,,19,19,16,8,10,12,,62,49,22,10,6,7,0.6,0.6
2025-06-27T2300,1878A,104.7778,31.4741,绵阳市,富乐山,,32,31,32,22,22,82,,122,116,20,13,8,8,0.6,0.6
2025-06-27T2300,1880A,104.6697,31.4668,绵阳市,高新区自来水公司,,40,40,45,19,26,48,,131,116,51,27,8,8,0.6,0.6
2025-06-27T2300,1881A,104.7287,31.5075,绵阳市,三水厂,,39,39,44,22,29,37,,130,112,53,29,8,9,0.8,0.7
2025-06-27T2300,3491A,104.69,31.5322,绵阳市,西科大附属小学,,40,40,49,25,28,57,,140,116,48,31,8,8,0.2,0.2
2025-06-27T2300,3492A,104.5648,31.5343,绵阳市,安州区旅游局,,42,42,40,27,28,76,,134,120,19,16,5,5,0.5,0.5
2025-06-27T2300,4226A,104.7651,31.4531,绵阳市,绵阳市气象局,,40,40,35,21,23,68,,115,111,33,15,6,6,0.7,0.6
2025-06-27T2300,1784A,129.61,44.561,牡丹江市,环保大楼,,38,32,36,26,22,67,,146,93,16,20,1,2,0.4,0.4
2025-06-27T2300,1785A,129.6115,44.5782,牡丹江市,文化广场,,39,34,34,27,22,63,,144,88,19,25,4,3,0.5,0.5
2025-06-27T2300,1786A,129.5904,44.5963,牡丹江市,第一医院,,33,30,28,23,18,36,,148,76,26,25,5,5,0.5,0.4
2025-06-27T2300,1787A,129.6364,44.6075,牡丹江市,机车工厂,颗粒物(PM10),55,59,52,8,12,30,,145,82,23,18,5,5,0.6,0.6
2025-06-27T2300,1788A,129.6386,44.5462,牡丹江市,第一中学,,38,38,29,21,12,48,,135,68,17,20,3,3,0.5,0.5
2025-06-27T2300,2531A,105.0703,29.61,内江市,市监测站,,39,27,23,27,19,37,,128,106,61,20,6,5,0.8,0.6
2025-06-27T2300,2532A,105.0717,29.5947,内江市,东兴区政府,,36,36,19,12,11,78,,119,111,24,13,3,3,0.6,0.5
2025-06-27T2300,2533A,105.0653,29.5817,内江市,内江二中,,40,36,25,28,20,43,,116,99,34,19,8,8,0.7,0.6
2025-06-27T2300,2534A,105.0406,29.5822,内江市,内江日报社,,43,31,24,22,19,5,,119,89,85,27,14,16,1.0,0.5
2025-06-27T2300,2628A,92.0657,31.4846,那曲市,那曲监测站,,43,43,48,15,17,101,,131,118,12,18,6,7,0.3,0.4
2025-06-27T2300,4243A,92.0515,31.4787,那曲市,那曲市委宣传部,,34,25,29,12,13,106,,143,135,9,13,9,8,0.3,0.3
2025-06-27T2300,1290A,115.8931,28.6843,南昌市,省外办,,,20,21,14,14,,,72,70,18,16,1,3,0.6,0.4
2025-06-27T2300,1291A,115.8886,28.7003,南昌市,省林业公司,,19,19,20,9,10,60,,76,71,16,17,9,10,0.7,0.6
2025-06-27T2300,1292A,115.8126,28.7442,南昌市,林科所,,10,7,15,3,8,30,,73,59,17,13,4,6,0.3,0.3
2025-06-27T2300,1294A,115.8518,28.687,南昌市,建工学校,,40,,22,28,10,46,,71,65,21,15,7,8,0.5,0.5
2025-06-27T2300,1295A,115.8921,28.6424,南昌市,象湖,,24,24,18,12,9,76,,75,75,12,13,7,8,0.6,0.5
2025-06-27T2300,1296A,115.7423,28.7996,南昌市,武术学校,,20,20,16,9,12,3,,64,36,3,3,8,9,0.6,0.6
2025-06-27T2300,3046A,115.9084,28.6062,南昌市,机电学校,,26,26,27,9,11,65,,75,73,16,15,4,6,0.6,0.5
2025-06-27T2300,3690A,115.9721,28.7031,南昌市,外国语学校,,23,23,23,6,9,68,,70,70,13,14,13,11,0.8,0.7
2025-06-27T2300,4192A,115.9316,28.68677,南昌市,南京东路235号,颗粒物(PM10),75,100,33,8,9,66,,72,70,15,18,4,5,0.6,0.5
2025-06-27T2300,1905A,106.056,30.8064,南充市,西山风景区,,,,,,,,,,,,,,,,
2025-06-27T2300,1906A,106.0789,30.8023,南充市,南充市委,细颗粒物(PM2.5),70,68,32,51,20,25,,125,99,51,19,6,5,0.6,0.4
2025-06-27T2300,1907A,106.1031,30.8217,南充市,南充炼油厂,,41,41,29,26,18,65,,113,99,28,16,5,5,0.3,0.3
2025-06-27T2300,4227A,106.1083,30.7884,南充市,梨树横街98号,,42,42,29,23,16,51,,120,106,32,14,3,3,0.5,0.4
2025-06-27T2300,4304A,106.1172,30.843,南充市,清泉寺北路188号,,44,44,31,24,16,87,,110,109,17,12,3,3,0.3,0.3
2025-06-27T2300,4305A,106.067,30.7616,南充市,同庆路1号,,49,49,32,22,16,60,,128,106,27,19,4,4,0.4,0.4
2025-06-27T2300,1151A,118.8086,32.1065,南京市,迈皋桥,,14,14,16,7,10,31,,79,36,14,14,4,4,0.9,0.9
2025-06-27T2300,1152A,118.7538,32.0551,南京市,草场门,,14,12,16,9,10,43,,82,41,13,15,7,8,0.1,0.1
2025-06-27T2300,1153A,118.7794,32.0745,南京市,山西路,,14,14,21,3,7,37,,90,42,22,18,4,4,0.4,0.4
2025-06-27T2300,1154A,118.7752,32.0023,南京市,中华门,,10,9,17,3,9,29,,77,32,13,13,8,8,0.6,0.7
2025-06-27T2300,1155A,118.8109,32.0309,南京市,瑞金路,,14,14,16,7,9,30,,87,39,21,16,6,6,0.3,0.3
2025-06-27T2300,1156A,118.7997,32.0754,南京市,玄武湖,,19,19,21,3,4,28,,73,33,11,12,4,4,0.6,0.6
2025-06-27T2300,1157A,118.6414,32.0931,南京市,浦口,,26,26,25,8,9,27,,74,37,21,12,3,3,0.4,0.3
2025-06-27T2300,1158A,118.7356,31.9996,南京市,奥体中心,,14,10,17,9,11,42,,85,44,18,8,4,5,0.4,0.4
2025-06-27T2300,1159A,118.9125,32.1028,南京市,仙林大学城,,24,24,27,3,8,28,,92,38,16,18,7,8,0.7,0.9
2025-06-27T2300,3422A,118.8436,31.9198,南京市,江宁彩虹桥,,14,14,19,7,11,25,,91,35,23,21,4,4,0.6,0.6
2025-06-27T2300,3427A,118.8554,32.3578,南京市,六合雄州,,20,14,22,3,13,17,,89,50,39,22,4,4,0.9,0.8
2025-06-27T2300,4249A,118.8708,31.3402,南京市,汶溪路181号,,14,10,16,8,13,42,,92,56,14,14,3,3,0.5,0.5
2025-06-27T2300,4312A,119.019,31.6512,南京市,中山西路1号,,15,12,13,10,11,38,,87,46,8,11,3,4,0.7,0.7
2025-06-27T2300,1401A,108.3103,22.7881,南宁市,二十一中,,24,24,14,10,7,52,,58,57,11,7,6,4,0.9,0.7
2025-06-27T2300,1402A,108.3141,22.8528,南宁市,北湖,,24,24,15,14,9,56,,61,58,14,13,5,4,0.6,0.5
2025-06-27T2300,1403A,108.3206,22.8225,南宁市,市监测站,,26,26,13,11,9,55,,56,55,12,11,8,7,0.6,0.5
2025-06-27T2300,1404A,108.3829,22.8037,南宁市,大自然花园,,21,19,12,9,8,66,,64,64,6,7,5,4,0.5,0.4
2025-06-27T2300,1405A,108.4394,22.7904,南宁市,仙葫,,25,25,14,11,10,59,,66,65,10,9,9,11,0.6,0.5
2025-06-27T2300,1406A,108.2397,22.8467,南宁市,区农职院,,32,25,18,22,12,53,,65,59,17,15,3,4,0.6,0.4
2025-06-27T2300,1407A,108.3275,22.735,南宁市,英华嘉园,,31,31,23,17,14,51,,64,59,21,12,8,7,0.5,0.5
2025-06-27T2300,3401A,108.4834,22.7618,南宁市,红星社区,,24,24,12,12,8,47,,62,58,8,5,2,2,0.6,0.4
2025-06-27T2300,4221A,108.2177,22.7774,南宁市,乐贤路16号,,35,35,20,14,12,32,,61,43,29,15,6,6,0.8,0.5
2025-06-27T2300,2331A,118.0966,26.6761,南平市,茫荡山,,,,,,,,,,,,,,,,
2025-06-27T2300,2332A,118.1681,26.6369,南平市,南平市监测站,,16,16,16,7,9,29,,81,65,16,11,5,5,0.5,0.5
2025-06-27T2300,2333A,118.1825,26.6489,南平市,南平铝业有限公司,,17,17,21,7,8,24,,82,62,19,13,4,5,0.6,0.6
2025-06-27T2300,2334A,118.1756,26.6272,南平市,南平七中,,27,27,20,8,9,20,,84,62,17,9,4,5,0.5,0.5
2025-06-27T2300,1168A,120.9098,31.9663,南通市,狼山街道,,13,13,27,9,16,32,,170,56,13,26,4,6,0.7,1
2025-06-27T2300,1169A,120.86,32.0005,南通市,虹桥,,,,32,,24,,,57,,,52,,7,,1.1
2025-06-27T2300,1170A,120.87,32.02,南通市,城中,,16,16,35,3,18,37,,152,51,12,28,5,6,0.9,1.2
2025-06-27T2300,1171A,120.94,31.93,南通市,星湖花园,,16,,23,6,19,50,,158,49,14,29,3,5,0.6,0.9
2025-06-27T2300,1172A,120.81,32.0417,南通市,紫琅学院,,15,15,39,3,17,32,,164,46,18,38,5,12,0.6,1.2
2025-06-27T2300,3291A,121.067,32.062,南通市,通州监测站,,19,14,25,7,17,58,,156,81,10,17,6,8,0.7,0.9
2025-06-27T2300,3432A,120.9348,31.9883,南通市,环境教育馆,,17,17,34,6,15,39,,163,64,19,24,3,6,0.3,0.3
2025-06-27T2300,2404A,112.5224,33.0122,南阳市,瓦房庄,,26,26,25,14,9,65,,114,97,11,11,6,6,0.5,0.5
2025-06-27T2300,2405A,112.5003,32.9735,南阳市,汉画馆,,25,25,21,11,8,61,,112,94,14,13,5,5,0.5,0.5
2025-06-27T2300,2406A,112.5573,33.027,南阳市,气象站,,23,23,16,12,8,64,,118,96,13,11,6,6,0.5,0.5
2025-06-27T2300,2407A,112.5481,32.9689,南阳市,理工学院,,26,26,23,14,10,60,,111,90,12,12,5,5,0.4,0.4
2025-06-27T2300,4008A,112.5234,32.9922,南阳市,卧龙区政府,,28,28,20,15,8,61,,113,94,12,9,4,5,0.6,0.5
2025-06-27T2300,1234A,121.8358,29.911,宁波市,区环保大楼,,34,34,49,21,22,41,,126,68,29,39,3,4,0.5,0.6
2025-06-27T2300,1235A,121.56,29.82,宁波市,万里学院,,21,21,30,10,20,42,,117,59,20,17,2,2,0.4,0.4
2025-06-27T2300,1236A,121.713,29.9572,宁波市,龙赛医院,,27,27,38,9,19,25,,146,46,41,34,3,5,0.4,0.5
2025-06-27T2300,1239A,121.633,29.7733,宁波市,钱湖水厂,,19,19,28,10,18,40,,108,64,9,6,3,3,0.3,0.3
2025-06-27T2300,1240A,121.5856,29.8635,宁波市,太古小学,,18,18,29,12,23,44,,128,59,19,17,4,4,0.3,0.5
2025-06-27T2300,1241A,121.524,29.8674,宁波市,市环境监测中心,,20,20,32,8,17,32,,115,50,26,21,5,4,0.4,0.5
2025-06-27T2300,2871A,121.6147,29.9017,宁波市,万里国际学校,,20,20,29,10,19,43,,129,56,17,17,2,2,0.6,0.6
2025-06-27T2300,3710A,121.5594,29.8975,宁波市,白沙活动中心,,18,18,24,10,15,42,,122,53,20,16,3,3,0.4,0.5
2025-06-27T2300,2339A,119.5001,26.6946,宁德市,金涵水库,,,,,,,,,,,,,,,,
2025-06-27T2300,2341A,119.5388,26.6612,宁德市,宁德市监测站,,16,,24,11,14,40,,143,104,15,12,4,4,0.5,0.7
2025-06-27T2300,3209A,119.5231,26.6562,宁德市,宁德一中,,15,10,26,3,15,48,,151,112,4,6,3,5,0.2,0.4
2025-06-27T2300,2618A,98.8601,25.8567,怒江傈僳族自治州,州监测站,,26,21,22,18,12,22,,55,45,14,8,8,7,0.6,0.5
2025-06-27T2300,2619A,98.8546,25.8417,怒江傈僳族自治州,泸水一中,,13,11,20,9,8,11,,39,30,15,11,5,5,0.4,0.4
2025-06-27T2300,1888A,101.6891,26.571,攀枝花市,弄弄坪,颗粒物(PM10),55,59,31,17,7,39,,120,100,33,12,15,10,0.8,0.7
2025-06-27T2300,1889A,101.5769,26.5928,攀枝花市,河门口,,42,42,24,23,11,56,,120,109,19,10,7,7,0.8,0.6
2025-06-27T2300,1890A,101.7169,26.585,攀枝花市,炳草岗,,42,42,31,23,11,45,,116,100,24,18,25,13,0.8,0.7
2025-06-27T2300,1891A,101.7369,26.5008,攀枝花市,仁和,,31,31,29,19,16,38,,108,85,16,15,9,19,0.6,1.4
2025-06-27T2300,2835A,101.7227,26.567,攀枝花市,四十中小,,29,28,23,16,11,51,,127,102,26,13,87,17,1.1,0.8
2025-06-27T2300,1604A,122.0303,41.1489,盘锦市,开发区,,39,38,24,27,28,49,,132,83,25,19,5,5,0.9,0.8
2025-06-27T2300,1605A,122.0485,41.0883,盘锦市,兴隆台,,24,24,26,14,19,49,,126,80,29,23,2,2,0.6,0.6
2025-06-27T2300,1606A,121.8297,41.1028,盘锦市,新生街道,,48,,22,33,27,42,,132,85,17,10,6,6,1.2,0.8
2025-06-27T2300,1832A,113.3257,33.742,平顶山市,新华旅馆,,25,,16,14,15,79,,125,108,14,11,3,4,0.4,0.5
2025-06-27T2300,1833A,113.2919,33.737,平顶山市,规划设计院,颗粒物(PM10),59,67,24,14,13,68,,121,102,21,11,4,4,0.7,0.7
2025-06-27T2300,1834A,113.182,33.774,平顶山市,平顶山工学院,,23,23,18,9,9,64,,128,107,20,8,5,3,0.5,0.4
2025-06-27T2300,3204A,113.3025,33.73,平顶山市,规划局,,24,19,19,8,8,75,,127,109,18,10,3,4,0.4,0.4
2025-06-27T2300,3594A,112.8867,33.9116,平顶山市,石龙区,颗粒物(PM10),52,53,26,12,13,57,,126,103,40,18,6,8,0.5,0.5
2025-06-27T2300,2656A,106.6692,35.5461,平凉市,聚贤嘉苑,,35,35,30,9,10,59,,128,105,46,17,9,9,0.8,0.6
2025-06-27T2300,2657A,106.7021,35.5307,平凉市,博物馆,颗粒物(PM10),51,52,37,6,7,54,,132,104,36,15,9,9,0.8,0.7
2025-06-27T2300,2347A,114.0997,27.5002,萍乡市,武功山,,12,,5,3,5,36,,46,36,3,3,11,12,0.2,0.3
2025-06-27T2300,2348A,113.8385,27.6434,萍乡市,中医院,,13,13,23,3,14,37,,58,44,6,8,10,10,1.1,0.9
2025-06-27T2300,2349A,113.8493,27.6253,萍乡市,市政府车库,,19,,16,13,13,33,,50,37,9,6,7,7,0.8,1
2025-06-27T2300,2350A,113.8676,27.6435,萍乡市,市环保局,,19,19,24,11,13,35,,60,42,5,7,6,6,0.8,1.1
2025-06-27T2300,2351A,113.866,27.6198,萍乡市,安源区政府,,24,24,24,15,12,28,,55,39,11,6,8,9,0.8,0.7
2025-06-27T2300,2319A,119.0141,25.4325,莆田市,荔城区仓后路,,18,18,25,6,6,23,,90,50,11,10,4,5,0.5,0.5
2025-06-27T2300,2320A,119.0015,25.4553,莆田市,莆田市监测站,,23,23,23,3,8,21,,93,57,12,11,4,4,0.4,0.4
2025-06-27T2300,2321A,119.1119,25.4561,莆田市,涵江区六中,,16,16,21,6,6,14,,91,44,20,12,3,3,0.4,0.4
2025-06-27T2300,2322A,119.1013,25.3215,莆田市,秀屿区政府,,12,12,18,3,6,27,,97,44,12,11,4,5,0.3,0.3
2025-06-27T2300,2323A,118.981,25.4792,莆田市,东圳水库,,,,,,,,,,,,,,,,
2025-06-27T2300,2392A,115.0312,35.7636,濮阳市,环保局,,39,38,37,27,37,114,,170,156,18,12,4,4,0.3,0.5
2025-06-27T2300,2394A,115.0574,35.7609,濮阳市,油田运输公司,颗粒物(PM10),51,52,57,22,37,107,,165,151,23,15,5,5,0.6,0.7
2025-06-27T2300,3021A,115,35.7668,濮阳市,濮水河管理处,,38,38,49,26,41,88,,155,135,27,18,3,3,0.5,0.6
2025-06-27T2300,4216A,115.0924,35.7686,濮阳市,任丘路479号,,,49,64,30,44,,,165,,14,8,6,6,0.6,0.9
2025-06-27T2300,2601A,100.98,22.7633,普洱市,市环保局,,22,22,28,15,11,18,,48,36,4,5,4,4,0.6,0.5
2025-06-27T2300,2602A,100.9817,22.8322,普洱市,普洱第二中学,,23,23,25,15,14,16,,44,33,8,8,6,6,0.5,0.4
2025-06-27T2300,2262A,131.0518,45.8751,七台河市,新一中,细颗粒物(PM2.5),87,,40,64,33,25,,132,99,29,17,10,10,1.2,1
2025-06-27T2300,3345A,131.0577,45.7879,七台河市,中波台,颗粒物(PM10),56,62,23,7,7,59,,94,87,29,18,7,10,0.3,0.3
2025-06-27T2300,3637A,131.0176,45.7761,七台河市,人民广场,颗粒物(PM10),60,70,46,32,26,56,,104,89,27,16,12,12,0.7,0.6
2025-06-27T2300,3684A,130.8781,45.8222,七台河市,新建矿广场,,29,27,41,20,16,47,,126,90,31,25,11,10,0.4,0.6
2025-06-27T2300,1779A,123.9305,47.3636,齐齐哈尔市,安居小区,,47,47,46,21,24,122,,154,,11,23,60,21,0.7,0.6
2025-06-27T2300,1780A,123.9488,47.3386,齐齐哈尔市,中心广场,颗粒物(PM10),55,59,53,22,19,135,,178,161,10,18,8,8,0.7,0.6
2025-06-27T2300,1781A,123.9483,47.3227,齐齐哈尔市,农牧车辆厂,颗粒物(PM10),53,56,49,24,25,123,,171,154,12,19,7,6,0.2,0.3
2025-06-27T2300,1783A,123.945,47.2988,齐齐哈尔市,市环境监测站,,49,49,37,25,24,135,,182,167,9,14,6,5,0.4,0.4
2025-06-27T2300,3662A,123.6333,47.2075,齐齐哈尔市,富区青少年活动中心,颗粒物(PM10),73,96,44,39,28,120,,103,,19,14,11,4,1.1,0.5
2025-06-27T2300,2591A,107.9783,26.5747,黔东南苗族侗族自治州,市环境监测站,,15,12,12,8,9,4,,43,28,29,9,3,3,0.5,0.5
2025-06-27T2300,2881A,107.8908,26.5311,黔东南苗族侗族自治州,凯里学院,,11,9,8,3,7,16,,58,41,21,10,4,4,0.3,0.3
2025-06-27T2300,2593A,107.5228,26.2403,黔南布依族苗族自治州,小围寨,,9,6,8,3,0,26,,26,25,6,5,3,2,0.4,0.4
2025-06-27T2300,3538A,107.5175,26.2978,黔南布依族苗族自治州,沙坝,,,12,15,3,2,,,32,,6,7,4,4,0.2,0.5
2025-06-27T2300,2589A,104.9022,25.0925,黔西南布依族苗族自治州,场坝街,,12,12,14,6,7,35,,67,57,8,8,5,6,0.3,0.3
2025-06-27T2300,2590A,104.8811,25.0992,黔西南布依族苗族自治州,坪东大道,,15,10,15,10,9,32,,64,53,10,11,2,2,0.1,0.2
2025-06-27T2300,2502A,108.6236,21.9667,钦州市,市环保站,,17,9,11,7,5,54,,82,71,12,10,1,2,0.4,0.5
2025-06-27T2300,2503A,108.6549,21.9481,钦州市,沙埠小学,,29,29,17,15,10,30,,81,64,22,11,1,3,0.5,0.4
2025-06-27T2300,2504A,108.5989,21.7431,钦州市,港区一小,,39,39,23,10,9,33,,63,54,32,16,2,3,0.4,0.5
2025-06-27T2300,3404A,108.5959,21.9633,钦州市,北职校,,26,26,14,11,7,36,,68,58,19,8,3,3,0.5,0.5
2025-06-27T2300,1043A,119.7493,40.0116,秦皇岛市,第一关,,20,15,36,10,21,61,,125,103,15,16,3,4,0.2,0.3
2025-06-27T2300,1044A,119.5897,39.9499,秦皇岛市,监测站,,32,32,40,7,13,64,,121,103,15,11,2,2,0.3,0.4
2025-06-27T2300,1046A,119.5251,39.9041,秦皇岛市,建设大厦,,23,10,36,10,17,72,,134,110,12,8,3,3,0.3,0.4
2025-06-27T2300,3132A,119.610547,39.943889,秦皇岛市,文明里,,26,,31,9,17,81,,146,116,1,4,3,3,0.2,0.3
2025-06-27T2300,4198A,119.5090,39.8253,秦皇岛市,北戴河轮滑馆,,28,,37,13,29,88,,140,118,5,5,1,2,0.3,0.4
2025-06-27T2300,1307A,120.6659,36.2403,青岛市,仰口,,34,26,25,14,17,107,,122,117,10,7,7,6,0.7,0.7
2025-06-27T2300,1310A,120.4134,36.0658,青岛市,市南区东部子站,,32,27,24,22,18,99,,151,134,18,5,10,9,0.4,0.4
2025-06-27T2300,1311A,120.3664,36.1032,青岛市,四方区子站,,41,41,29,24,21,84,,153,133,36,14,8,8,0.5,0.5
2025-06-27T2300,1312A,120.2994,36.054,青岛市,市南区西部子站,,44,44,33,27,21,52,,139,106,62,21,10,8,0.8,0.7
2025-06-27T2300,1313A,120.4581,36.0858,青岛市,崂山区子站,,33,31,28,17,18,105,,142,130,20,13,7,7,0.4,0.3
2025-06-27T2300,1315A,120.3999,36.3083,青岛市,城阳区子站,,36,36,29,20,17,97,,147,135,29,16,6,5,0.6,0.5
2025-06-27T2300,1966A,120.0405,35.8735,青岛市,黄岛区4号,,39,39,26,19,15,110,,148,133,24,16,9,9,0.9,0.8
2025-06-27T2300,3362A,120.5014,36.4034,青岛市,即墨2号,,50,50,30,22,17,92,,136,127,30,14,2,2,0.5,0.4
2025-06-27T2300,3642A,120.3503,36.0736,青岛市,市北区南部,,28,25,29,19,20,65,,140,119,41,15,9,8,0.5,0.5
2025-06-27T2300,3643A,120.3948,36.1805,青岛市,李沧区北部,,42,34,26,29,22,90,,130,116,18,11,5,5,0.7,0.7
2025-06-27T2300,4290A,120.1969,35.9546,青岛市,珠江路669号,,42,,24,29,20,127,,158,147,10,9,7,7,0.5,0.4
2025-06-27T2300,1702A,113.0426,23.691,清远市,环保大楼,,23,22,33,6,7,71,,79,77,9,13,5,6,0.4,0.5
2025-06-27T2300,1703A,113.0208,23.7106,清远市,凤城街办,,17,12,14,6,7,54,,71,69,16,15,6,7,0.4,0.4
2025-06-27T2300,3025A,113.0477,23.6344,清远市,技师学院,,16,12,16,7,10,50,,66,63,15,17,7,8,0.5,0.5
2025-06-27T2300,3318A,112.9903,23.7403,清远市,清新太和,,21,21,12,12,6,32,,74,67,21,11,8,7,0.5,0.4
2025-06-27T2300,3455A,113.076,23.7198,清远市,清城东城,,17,8,12,3,5,52,,76,69,8,8,7,8,0.5,0.5
2025-06-27T2300,2661A,107.6325,35.7357,庆阳市,庆阳五中,,32,32,23,9,8,86,,126,108,17,10,5,6,0.4,0.4
2025-06-27T2300,2662A,107.6364,35.7067,庆阳市,市环保局,,32,32,26,13,8,96,,130,110,16,8,7,8,0.4,0.5
2025-06-27T2300,1916A,103.7897,25.5035,曲靖市,环境监测站,,18,18,11,10,7,21,,42,34,14,12,4,5,0.6,0.6
2025-06-27T2300,1917A,103.8,25.5364,曲靖市,烟厂办公区,,27,27,10,9,6,18,,44,35,17,10,5,4,0.9,0.7
2025-06-27T2300,3376A,103.7947,25.462,曲靖市,南苑二区,,10,6,8,3,5,32,,48,41,6,9,4,4,0.6,0.7
2025-06-27T2300,3377A,103.7444,25.5261,曲靖市,曲靖师范学院,,18,18,8,7,6,29,,45,38,9,9,7,6,0.3,0.3
2025-06-27T2300,1264A,118.8692,28.9398,衢州市,环保大楼,,15,14,23,7,13,46,,105,71,15,18,4,4,0.3,0.4
2025-06-27T2300,1265A,118.8709,28.9666,衢州市,实验学校,,18,18,27,6,14,51,,116,77,12,15,3,3,0.2,0.3
2025-06-27T2300,1266A,118.8621,28.9808,衢州市,衢州学院,,18,18,25,7,14,55,,114,78,11,15,4,4,0.2,0.3
2025-06-27T2300,1611A,118.5819,24.9117,泉州市,涂山街,,16,16,27,7,11,29,,96,46,16,17,3,6,0.5,0.5
2025-06-27T2300,1612A,118.5972,24.8978,泉州市,津头埔,,11,11,24,3,11,26,,90,42,15,16,2,4,0.4,0.4
2025-06-27T2300,1613A,118.6663,24.9424,泉州市,万安,,16,16,24,3,10,21,,89,42,17,13,2,3,0.4,0.4
2025-06-27T2300,1614A,118.6117,24.9604,泉州市,清源山,,,,,,,,,,,,,,,,
2025-06-27T2300,3529A,118.6333,24.9264,泉州市,城华南路,,13,13,21,3,8,22,,89,41,14,12,4,5,0.4,0.4
2025-06-27T2300,2626A,88.8876,29.2718,日喀则市,日喀则监测站,,35,12,12,3,6,110,,129,125,5,7,13,13,0.3,0.2
2025-06-27T2300,3726A,88.8781,29.2426,日喀则市,林业技术推广中心,,38,13,12,3,2,119,,129,128,2,3,8,8,0.3,0.2
2025-06-27T2300,1659A,119.471,35.4209,日照市,监测站,,39,39,23,21,17,76,,141,124,35,23,7,5,0.9,0.7
2025-06-27T2300,1660A,119.523,35.4216,日照市,市政府广场,,39,39,24,22,15,65,,125,113,64,13,10,7,0.8,0.7
2025-06-27T2300,1661A,119.5587,35.4044,日照市,港务局,颗粒物(PM10),58,66,30,31,25,68,,138,112,70,19,14,8,0.9,0.8
2025-06-27T2300,3507A,119.5328,35.4625,日照市,职业技术学院,,44,44,30,22,15,79,,138,128,35,13,8,5,1.0,0.6
2025-06-27T2300,3604A,119.3266,35.1044,日照市,岚山环保分局,,44,44,28,23,20,116,,146,140,19,19,7,13,0.8,1
2025-06-27T2300,1835A,111.1922,34.7752,三门峡市,市政府,,35,25,42,9,23,112,,125,124,8,13,4,6,0.3,0.4
2025-06-27T2300,1836A,111.1587,34.7942,三门峡市,开发区,,39,14,44,8,31,123,,131,131,10,13,5,7,0.5,0.7
2025-06-27T2300,1838A,111.143,34.7955,三门峡市,风景区,,42,20,38,15,23,134,,140,140,6,9,6,7,0.3,0.4
2025-06-27T2300,3039A,111.1911,34.7829,三门峡市,三门峡市第一小学,,37,21,42,9,23,118,,129,128,12,16,6,9,0.4,0.5
2025-06-27T2300,3598A,111.1,34.7167,三门峡市,富达温泉假日酒店,,37,37,32,9,25,104,,119,116,15,13,7,8,0.3,0.4
2025-06-27T2300,2324A,117.6211,26.2625,三明市,三钢,,26,21,24,9,15,49,,81,67,20,14,16,11,2.6,1.6
2025-06-27T2300,2325A,117.635,26.2714,三明市,三明二中,,16,,20,11,11,50,,82,65,16,13,9,5,1.4,0.7
2025-06-27T2300,2326A,117.6028,26.2378,三明市,三元区政府,,21,18,21,6,10,65,,84,73,9,12,2,4,0.3,0.4
2025-06-27T2300,2327A,117.7275,26.3108,三明市,洋溪,,,,,,,,,,,,,,,,
2025-06-27T2300,1876A,109.5078,18.2489,三亚市,河东子站,,15,14,16,6,5,45,,52,47,4,5,3,3,0.4,0.5
2025-06-27T2300,1877A,109.4964,18.2681,三亚市,河西子站,,16,13,12,11,7,32,,52,44,11,9,2,2,0.4,0.4
2025-06-27T2300,3540A,109.7348,18.3443,三亚市,君悦子站,,17,13,12,3,6,54,,57,55,2,6,2,2,0.3,0.3
2025-06-27T2300,2624A,91.7608,29.2313,山南市,山南监测站,,40,12,15,3,7,127,,128,127,1,6,2,3,0.2,0.2
2025-06-27T2300,2625A,91.7706,29.2436,山南市,山南人民医院,,40,8,18,3,8,126,,130,129,2,5,6,6,0.1,0.2
2025-06-27T2300,1674A,116.6794,23.3667,汕头市,金平子站,,12,12,11,8,6,36,,50,46,3,4,5,4,0.5,0.5
2025-06-27T2300,1675A,116.7244,23.3633,汕头市,龙湖子站,,11,6,11,3,3,33,,46,42,5,6,5,5,0.4,0.4
2025-06-27T2300,1676A,116.7258,23.2775,汕头市,濠江子站,,8,8,13,3,5,25,,46,34,7,5,4,4,0.5,0.5
2025-06-27T2300,1677A,116.7519,23.4714,汕头市,澄海子站,,15,,14,10,7,32,,46,40,7,6,2,2,0.5,0.5
2025-06-27T2300,1678A,116.6092,23.2539,汕头市,潮阳子站,,12,12,13,3,5,28,,53,45,7,3,4,4,0.4,0.4
2025-06-27T2300,3444A,116.454,23.2684,汕头市,潮南峡山,,10,,6,6,6,29,,47,40,7,8,5,5,0.5,0.5
2025-06-27T2300,3624A,116.4069,23.2533,汕头市,潮南子站,,21,21,23,9,9,28,,48,37,7,8,4,4,0.4,0.4
2025-06-27T2300,1693A,115.3653,22.775,汕尾市,市环保局,,10,6,12,3,4,32,,49,38,9,10,2,2,0.5,0.5
2025-06-27T2300,1694A,115.3706,22.7898,汕尾市,市政府,,14,14,15,3,5,25,,53,38,11,8,3,4,0.5,0.5
2025-06-27T2300,1695A,115.3622,22.7925,汕尾市,新城中学,,13,13,17,6,6,21,,52,35,12,8,3,3,0.5,0.5
2025-06-27T2300,2645A,109.9154,33.8715,商洛市,监测站,,25,21,22,10,10,77,,106,93,13,13,10,9,0.5,0.5
2025-06-27T2300,3045A,109.9643,33.8471,商洛市,商州区中学,,22,22,28,13,13,64,,95,84,20,16,5,8,0.5,0.5
2025-06-27T2300,2408A,115.6702,34.4285,商丘市,环境监测站,,34,29,25,20,24,108,,136,128,8,7,2,2,0.5,0.5
2025-06-27T2300,2409A,115.6458,34.4045,商丘市,粮食局,,34,25,31,16,21,107,,146,134,9,7,2,3,0.4,0.4
2025-06-27T2300,2410A,115.6293,34.3948,商丘市,睢阳区环保局,,34,34,37,17,17,99,,134,123,8,8,2,3,0.3,0.3
2025-06-27T2300,3171A,115.6071,34.4465,商丘市,梁园区档案局,,33,26,25,13,17,104,,136,125,10,8,2,2,0.5,0.5
2025-06-27T2300,1141A,121.4,31.238,上海市,普陀,,25,23,29,17,25,44,,132,82,26,20,5,6,0.4,0.3
2025-06-27T2300,1142A,121.478,31.2036,上海市,十五厂,,28,25,34,19,30,23,,144,103,54,34,8,8,0.6,0.5
2025-06-27T2300,1143A,121.467,31.3008,上海市,虹口,,30,30,34,17,24,41,,159,108,30,23,8,9,0.6,0.6
2025-06-27T2300,1147A,121.425,31.2261,上海市,静安监测站,,30,24,30,21,24,36,,119,80,31,20,4,5,0.8,0.7
2025-06-27T2300,1148A,121.703,31.1907,上海市,浦东川沙,,28,28,35,16,36,32,,177,104,44,22,8,8,0.8,0.7
2025-06-27T2300,1149A,121.533,31.2284,上海市,浦东新区监测站,,,,31,,25,,,117,,,18,,8,,0.3
2025-06-27T2300,1150A,121.577,31.2071,上海市,浦东张江,,37,37,52,17,14,37,,176,111,45,25,6,6,0.9,0.8
2025-06-27T2300,3265A,121.4316,31.3322,上海市,宝山庙行,,,,39,,29,,,108,,,24,,7,,0.4
2025-06-27T2300,3266A,121.8791,31.4662,上海市,崇明上实东滩,,25,16,30,8,21,77,,230,141,6,25,2,3,0.6,0.7
2025-06-27T2300,3268A,121.3162,31.2838,上海市,嘉定南翔,,30,30,38,14,24,31,,128,70,34,25,6,6,0.5,0.4
2025-06-27T2300,3269A,121.3359,30.7456,上海市,金山新城,,20,20,45,9,28,35,,219,116,29,20,2,5,0.7,0.7
2025-06-27T2300,3270A,121.4996,31.0739,上海市,闵行浦江,,37,37,32,24,30,23,,167,89,36,20,4,4,0.9,0.6
