timepoint,stationcode,longitude,latitude,area,positionname,primarypollutant,aqi,pm10,pm10_24h,pm2_5,pm2_5_24h,o3,o3_24h,o3_8h,o3_8h_24h,no2,no2_24h,so2,so2_24h,co,co_24h
2023-12-29T0000,2566A,102.1879,31.914,阿坝藏族羌族自治州,州农科所,,,,,15,16,12,,23,19,23,25,5,9,0.7,0.7
2023-12-29T0000,2568A,102.2502,31.8896,阿坝藏族羌族自治州,马师校,,36,28,15,25,16,22,,51,32,28,20,2,2,0.6,0.5
2023-12-29T0000,3994A,102.2165,31.9024,阿坝藏族羌族自治州,马尔康中学西区,,31,31,22,21,12,27,,60,38,31,20,4,4,0.7,0.6
2023-12-29T0000,2695A,80.292,41.1694,阿克苏地区,电视台,颗粒物(PM10),164,277,314,75,86,53,,61,53,31,39,9,8,0.9,1.2
2023-12-29T0000,2696A,80.2613,41.1551,阿克苏地区,艺术中心,颗粒物(PM10),240,378,325,159,98,17,,57,47,85,42,16,9,3.7,1.4
2023-12-29T0000,2204A,105.6467,38.8363,阿拉善盟,西城区西花园,细颗粒物(PM2.5),158,132,93,120,59,36,,65,41,40,35,12,11,1.2,1
2023-12-29T0000,2205A,105.6985,38.8411,阿拉善盟,蒙二幼,细颗粒物(PM2.5),99,134,69,74,35,36,,67,50,46,30,13,10,1.4,0.9
2023-12-29T0000,2206A,105.724,38.8516,阿拉善盟,环保局新楼,细颗粒物(PM2.5),60,64,47,43,27,75,,81,70,15,14,8,6,0.8,0.6
2023-12-29T0000,2708A,88.1264,47.8517,阿勒泰地区,市站,,49,43,35,34,19,18,,45,22,50,37,4,4,0.3,0.4
2023-12-29T0000,2630A,80.1161,32.5,阿里地区,阿里监测站,,34,34,12,13,6,20,,79,56,44,21,24,13,1.0,0.6
2023-12-29T0000,3192A,80.0903,32.5028,阿里地区,阿里藏医院,,36,36,16,24,7,33,,82,66,40,22,15,12,1.0,0.6
2023-12-29T0000,2642A,109.0318,32.6537,安康市,香溪洞,细颗粒物(PM2.5),158,130,107,120,108,39,,52,37,33,32,6,10,0.6,0.6
2023-12-29T0000,2643A,109.0281,32.6939,安康市,安康市监测站,细颗粒物(PM2.5),192,184,148,144,116,7,,19,13,63,50,9,10,1.1,1.1
2023-12-29T0000,2644A,109.0072,32.6975,安康市,汉滨区检察院,细颗粒物(PM2.5),192,184,140,144,111,10,,21,20,62,46,9,10,1.0,0.9
2023-12-29T0000,2291A,117.0809,30.5177,安庆市,环科院,细颗粒物(PM2.5),281,287,286,231,234,70,,86,73,45,52,13,12,1.7,1.6
2023-12-29T0000,2292A,117.0331,30.5119,安庆市,马山宾馆,细颗粒物(PM2.5),258,273,273,208,211,76,,89,75,50,59,12,10,1.5,1.4
2023-12-29T0000,2294A,116.9896,30.6145,安庆市,安庆大学,细颗粒物(PM2.5),317,321,301,267,254,69,,96,84,50,53,11,11,1.7,1.6
2023-12-29T0000,3173A,117.0598,30.5351,安庆市,市人大,细颗粒物(PM2.5),266,283,293,216,227,67,,81,63,51,60,9,7,1.5,1.5
2023-12-29T0000,3122A,105.9606,26.2611,安顺市,伍家关,,,,,,,,,,,,,,,,
2023-12-29T0000,3123A,105.9408,26.2431,安顺市,凤凰山,细颗粒物(PM2.5),69,58,52,50,41,99,,102,94,11,15,18,18,0.7,0.7
2023-12-29T0000,3124A,105.9439,26.2564,安顺市,金钟山,细颗粒物(PM2.5),67,61,54,48,44,99,,98,96,10,14,17,20,0.8,0.7
2023-12-29T0000,3125A,105.8983,26.2481,安顺市,娄家坡,细颗粒物(PM2.5),67,62,55,48,47,97,,103,93,9,12,18,19,0.6,0.7
2023-12-29T0000,1818A,114.4839,36.0621,安阳市,棉研所,,,,,,,,,,,,,,,,
2023-12-29T0000,1819A,114.3551,36.1017,安阳市,红庙街,细颗粒物(PM2.5),129,104,96,98,83,10,,64,46,80,45,6,11,1.1,1.2
2023-12-29T0000,1820A,114.361,36.0681,安阳市,银杏小区,细颗粒物(PM2.5),133,112,88,101,80,7,,58,34,85,55,3,4,1.3,1.4
2023-12-29T0000,3141A,114.3922,36.0878,安阳市,信访局,细颗粒物(PM2.5),123,94,90,93,80,26,,63,53,55,42,4,7,1.1,1.4
2023-12-29T0000,3669A,114.4705,36.0637,安阳市,左辅环卫站,细颗粒物(PM2.5),143,125,94,109,73,17,,69,51,69,46,3,7,0.8,0.9
2023-12-29T0000,3703A,114.2917,36.0949,安阳市,安钢职工学校,细颗粒物(PM2.5),153,128,107,117,91,11,,62,37,67,44,7,9,1.3,1.5
2023-12-29T0000,1748A,123.044,41.1196,鞍山市,深沟寺,细颗粒物(PM2.5),104,96,69,78,55,7,,36,10,70,44,9,13,2.0,1.4
2023-12-29T0000,1749A,123.011,41.0931,鞍山市,太阳城,细颗粒物(PM2.5),92,91,60,68,48,12,,38,10,65,43,14,16,2.2,1.3
2023-12-29T0000,1750A,123.0485,41.1442,鞍山市,太平,细颗粒物(PM2.5),90,92,100,67,80,8,,27,10,73,53,19,19,2.1,1.6
2023-12-29T0000,1751A,122.9642,41.0971,鞍山市,铁西三道街,细颗粒物(PM2.5),153,154,97,117,70,5,,28,6,72,56,13,21,3.0,2.1
2023-12-29T0000,1752A,122.9341,41.0833,鞍山市,铁西工业园区,,,,44,,42,6,,36,9,76,51,14,20,3.2,2.2
2023-12-29T0000,1753A,123.022,41.0821,鞍山市,明达新区,细颗粒物(PM2.5),110,105,65,83,54,8,,39,11,71,47,12,17,2.2,1.4
2023-12-29T0000,1754A,123.1289,41.0228,鞍山市,千山,,,,,,,,,,,,,,,,
2023-12-29T0000,2195A,107.4212,40.761,巴彦淖尔市,附二中,细颗粒物(PM2.5),301,376,234,251,134,7,,41,18,108,69,17,23,3.6,1.7
2023-12-29T0000,2196A,107.37,40.7372,巴彦淖尔市,市环保大楼,细颗粒物(PM2.5),210,259,183,160,110,5,,40,15,75,59,8,11,2.1,1.4
2023-12-29T0000,1956A,86.1472,41.7538,巴音郭楞州,孔雀公园,颗粒物(PM10),196,341,376,73,77,64,,54,51,22,36,6,5,0.7,0.8
2023-12-29T0000,1957A,86.1972,41.7166,巴音郭楞州,棉纺厂,颗粒物(PM10),263,394,433,83,90,52,,59,43,35,30,3,4,0.7,0.7
2023-12-29T0000,1958A,86.2357,41.7173,巴音郭楞州,经济开发区,颗粒物(PM10),188,325,377,68,83,74,,65,58,20,31,4,6,0.7,0.7
2023-12-29T0000,2914A,106.7677,31.8794,巴中市,苏山坪,细颗粒物(PM2.5),163,160,113,124,83,24,,81,24,38,31,5,5,1.0,0.8
2023-12-29T0000,3182A,106.7656,31.8545,巴中市,丽阳花园,细颗粒物(PM2.5),170,176,131,129,101,4,,7,6,40,48,5,4,1.8,1.3
2023-12-29T0000,3183A,106.7418,31.8654,巴中市,圣泉水务公司,细颗粒物(PM2.5),165,148,100,125,83,3,,23,4,37,41,5,4,1.3,1.1
2023-12-29T0000,3616A,106.7616,31.8344,巴中市,市中心医院,细颗粒物(PM2.5),163,164,125,124,98,4,,5,4,36,43,4,3,1.2,1.1
2023-12-29T0000,2235A,122.7911,45.6077,白城市,洮北区环保局,,29,29,46,20,35,47,,53,38,9,19,8,10,0.5,0.7
2023-12-29T0000,2236A,122.8738,45.5725,白城市,市环保局,,38,38,51,23,30,46,,52,29,10,22,5,6,0.4,0.5
2023-12-29T0000,2231A,126.4219,41.9171,白山市,喜丰,细颗粒物(PM2.5),70,82,79,51,44,7,,45,12,57,40,16,24,1.6,1.3
2023-12-29T0000,2232A,126.4077,41.9419,白山市,环保局,颗粒物(PM10),82,113,104,57,54,4,,36,8,63,52,26,26,1.9,1.6
2023-12-29T0000,2647A,104.1724,36.5446,白银市,第三小学,颗粒物(PM10),64,78,96,42,55,52,,53,49,27,45,16,64,0.9,1.4
2023-12-29T0000,2648A,104.1465,36.5482,白银市,动力公司,细颗粒物(PM2.5),72,67,76,52,58,54,,62,53,24,41,8,32,1.0,1.4
2023-12-29T0000,2512A,106.6103,23.9011,百色市,市监测站,细颗粒物(PM2.5),107,113,117,80,77,38,,103,69,38,39,11,17,1.3,1.2
2023-12-29T0000,2513A,106.6538,23.8859,百色市,市中心血站,细颗粒物(PM2.5),128,124,130,97,99,9,,116,80,78,50,15,23,1.5,1.4
2023-12-29T0000,3406A,106.6085,23.8798,百色市,祈福高中,细颗粒物(PM2.5),114,106,104,86,81,14,,118,81,61,39,9,19,1.1,1.1
2023-12-29T0000,2270A,117.396,32.939,蚌埠市,工人疗养院,细颗粒物(PM2.5),75,83,252,55,211,9,,72,31,51,65,6,9,1.3,1.7
2023-12-29T0000,2271A,117.3605,32.9427,蚌埠市,百货大楼,细颗粒物(PM2.5),134,117,271,102,222,3,,63,31,54,72,2,6,1.2,1.6
2023-12-29T0000,2273A,117.4185,32.8911,蚌埠市,蚌埠学院,细颗粒物(PM2.5),144,139,264,110,216,4,,72,31,58,65,4,6,1.2,1.5
2023-12-29T0000,2274A,117.3533,32.9673,蚌埠市,淮上区政府,细颗粒物(PM2.5),119,100,263,90,221,9,,68,31,50,64,4,7,1.1,1.6
2023-12-29T0000,2275A,117.3145,32.8977,蚌埠市,高新区,细颗粒物(PM2.5),196,158,261,147,229,3,,61,36,76,85,6,11,1.4,1.7
2023-12-29T0000,3715A,117.3092,32.9314,蚌埠市,蚌埠田家炳中学,细颗粒物(PM2.5),133,126,282,101,231,1,,65,31,59,75,3,8,1.2,1.5
2023-12-29T0000,1585A,109.8756,40.6532,包头市,市环境监测站,细颗粒物(PM2.5),232,261,173,182,125,6,,19,7,97,81,41,23,3.1,2.3
2023-12-29T0000,1587A,109.9991,40.5842,包头市,包头八中,细颗粒物(PM2.5),261,314,271,211,219,3,,14,4,95,93,63,38,3.0,2.7
2023-12-29T0000,1588A,109.8538,40.6821,包头市,青山宾馆,细颗粒物(PM2.5),258,272,163,208,134,6,,20,7,101,82,30,22,3.2,2.1
2023-12-29T0000,1589A,109.8642,40.6288,包头市,惠龙物流,细颗粒物(PM2.5),231,255,210,181,147,4,,18,5,101,91,41,24,2.6,2.4
2023-12-29T0000,1590A,110.0377,40.5546,包头市,东河鸿龙湾,细颗粒物(PM2.5),300,331,262,250,213,19,,22,13,105,89,30,18,4.2,2.5
2023-12-29T0000,3283A,109.9154,40.5685,包头市,滨河大厦,细颗粒物(PM2.5),260,274,243,210,204,5,,17,5,97,90,44,12,2.9,2.5
2023-12-29T0000,3419A,109.9447,40.6261,包头市,包头市委党校,细颗粒物(PM2.5),251,267,195,201,148,10,,22,10,103,91,57,35,3.2,2.4
2023-12-29T0000,3683A,109.8331,40.6576,包头市,昆区政府,细颗粒物(PM2.5),274,264,167,224,139,4,,19,5,105,84,31,22,2.7,2
2023-12-29T0000,1930A,107.185,34.3063,宝鸡市,庙沟村,细颗粒物(PM2.5),208,174,175,158,164,2,,27,2,65,64,9,8,1.2,1.3
2023-12-29T0000,1931A,107.0708,34.3017,宝鸡市,竹园沟,细颗粒物(PM2.5),223,174,174,173,175,16,,18,13,36,43,4,4,1.5,1.5
2023-12-29T0000,1932A,107.1906,34.3672,宝鸡市,三陆医院,细颗粒物(PM2.5),271,227,194,221,176,6,,28,6,80,65,12,10,1.9,1.7
2023-12-29T0000,1933A,107.1431,34.3547,宝鸡市,监测站,细颗粒物(PM2.5),241,216,188,191,166,5,,15,7,60,56,6,5,1.7,1.6
2023-12-29T0000,1934A,107.1186,34.3739,宝鸡市,技工学校,细颗粒物(PM2.5),242,195,177,192,167,13,,27,11,54,51,10,12,1.5,1.5
2023-12-29T0000,1935A,107.3906,34.3528,宝鸡市,陈仓区环保局家属楼,细颗粒物(PM2.5),288,258,233,238,213,14,,26,14,77,68,22,41,2.3,2.1
2023-12-29T0000,1936A,107.2058,34.3497,宝鸡市,文理学院,细颗粒物(PM2.5),242,201,193,192,166,6,,18,5,68,62,9,8,1.7,1.6
2023-12-29T0000,1937A,107.2386,34.3622,宝鸡市,三迪小学,细颗粒物(PM2.5),245,211,190,195,167,8,,20,9,71,60,9,7,2.0,1.8
2023-12-29T0000,1051A,115.493,38.8632,保定市,游泳馆,细颗粒物(PM2.5),190,202,112,143,98,5,,34,14,65,44,3,4,1.4,1.3
2023-12-29T0000,1052A,115.5213,38.8959,保定市,华电二区,,,,85,,81,,,32,17,,47,,5,,1
2023-12-29T0000,1053A,115.4713,38.9108,保定市,接待中心,细颗粒物(PM2.5),202,174,78,152,66,21,,16,16,53,56,4,3,1.2,1.3
2023-12-29T0000,1054A,115.4612,38.8416,保定市,地表水厂,细颗粒物(PM2.5),195,,105,146,103,3,,28,8,92,68,1,2,1.1,1.1
2023-12-29T0000,1056A,115.5086,38.8639,保定市,监测站,细颗粒物(PM2.5),158,144,98,120,78,2,,32,11,87,66,6,6,0.5,0.3
2023-12-29T0000,3581A,115.31981,38.95208,保定市,满城区生态环境分局,细颗粒物(PM2.5),152,124,73,116,70,1,,35,6,70,54,3,3,1.5,1.3
2023-12-29T0000,3582A,115.47694,38.76408,保定市,清苑区第二中学,细颗粒物(PM2.5),169,,91,128,85,19,,35,22,60,56,3,3,1.1,1.1
2023-12-29T0000,3583A,115.62909,39.02311,保定市,徐水物探局,细颗粒物(PM2.5),178,168,109,134,84,1,,22,2,80,60,5,3,1.2,0.9
2023-12-29T0000,4004A,115.4202,38.8656,保定市,双鹰农机,细颗粒物(PM2.5),173,,100,131,86,5,,29,8,78,59,4,4,1.2,1.1
2023-12-29T0000,2594A,99.1678,25.1081,保山市,市环境监测站,,16,16,18,4,14,42,,71,59,8,9,5,5,0.4,0.4
2023-12-29T0000,2595A,99.1711,25.1328,保山市,市环保局,,30,,24,21,16,50,,74,65,4,6,5,5,0.5,0.6
2023-12-29T0000,1866A,109.2262,21.588,北海市,牛尾岭水库,,,,,,,,,,,,,,,,
2023-12-29T0000,1867A,109.1436,21.4086,北海市,海滩公园,细颗粒物(PM2.5),59,57,63,42,42,137,,166,154,17,20,8,15,0.6,0.6
2023-12-29T0000,1868A,109.0981,21.4661,北海市,新市环保局,细颗粒物(PM2.5),55,45,64,39,49,136,,158,150,20,26,8,13,0.5,0.4
2023-12-29T0000,1869A,109.1778,21.5233,北海市,北海工业园,细颗粒物(PM2.5),80,78,84,59,57,94,,150,135,30,25,13,14,0.7,0.5
2023-12-29T0000,3400A,109.1911,21.4415,北海市,龙潭自来水厂,细颗粒物(PM2.5),52,50,72,36,57,122,,159,149,15,23,13,14,0.6,0.7
2023-12-29T0000,1001A,116.3621,39.8784,北京市,万寿西宫,细颗粒物(PM2.5),89,96,79,66,51,1,,21,5,92,72,1,3,1.1,0.9
2023-12-29T0000,1002A,116.2202,40.2915,北京市,定陵,颗粒物(PM10),69,87,83,49,53,20,,38,17,23,29,1,3,1.5,0.9
2023-12-29T0000,1003A,116.4174,39.9289,北京市,东四,细颗粒物(PM2.5),85,96,81,63,52,0,,22,5,73,56,3,4,1.1,1
2023-12-29T0000,1004A,116.4072,39.8863,北京市,天坛,细颗粒物(PM2.5),82,75,66,60,50,3,,22,7,70,59,3,3,1.0,0.9
2023-12-29T0000,1005A,116.462,39.9365,北京市,农展馆,细颗粒物(PM2.5),85,100,80,63,50,10,,27,12,82,62,1,3,1.2,0.8
2023-12-29T0000,1006A,116.3392,39.9295,北京市,官园,细颗粒物(PM2.5),88,100,81,65,52,4,,25,7,77,62,1,3,1.0,1
2023-12-29T0000,1007A,116.2878,39.9611,北京市,海淀万柳,细颗粒物(PM2.5),92,115,90,68,52,7,,25,9,75,61,3,3,1.5,1.1
2023-12-29T0000,1008A,116.6636,40.135,北京市,顺义新城,细颗粒物(PM2.5),87,122,68,64,39,3,,50,10,76,47,2,2,1.4,0.7
2023-12-29T0000,1009A,116.6275,40.3275,北京市,怀柔镇,颗粒物(PM10),53,55,49,36,30,13,,47,30,39,32,3,2,0.8,0.7
2023-12-29T0000,1010A,116.2296,40.217,北京市,昌平镇,细颗粒物(PM2.5),80,104,87,59,46,2,,21,12,57,52,2,3,0.6,0.8
2023-12-29T0000,1011A,116.3966,39.9821,北京市,奥体中心,细颗粒物(PM2.5),78,90,77,57,47,6,,27,8,79,58,3,3,1.3,0.9
2023-12-29T0000,1012A,116.184,39.9136,北京市,古城,细颗粒物(PM2.5),83,97,86,61,52,1,,20,5,65,56,2,3,1.0,0.9
2023-12-29T0000,3281A,115.9718,40.4529,北京市,延庆夏都,细颗粒物(PM2.5),109,111,89,82,62,3,,41,15,51,42,1,3,1.7,1
2023-12-29T0000,3417A,117.0709,40.1465,北京市,平谷新城,细颗粒物(PM2.5),69,76,54,50,36,4,,52,16,47,39,3,2,0.9,0.7
2023-12-29T0000,3418A,116.8336,40.4095,北京市,密云新城,,35,35,36,20,24,17,,61,36,37,24,3,2,0.4,0.4
2023-12-29T0000,3671A,116.088,39.9726,北京市,门头沟三家店,,,,,,,,,,,,,,,,
2023-12-29T0000,3672A,116.1541,39.8204,北京市,丰台云岗,细颗粒物(PM2.5),85,96,75,63,48,1,,25,8,73,57,2,3,0.9,0.7
2023-12-29T0000,3673A,116.6804,39.9081,北京市,通州东关,细颗粒物(PM2.5),84,101,72,62,45,1,,27,2,89,68,3,4,1.0,0.8
2023-12-29T0000,3674A,115.9577,39.7603,北京市,房山燕山,细颗粒物(PM2.5),65,69,59,47,41,23,,44,22,35,38,1,3,0.5,0.6
2023-12-29T0000,3675A,116.4672,39.7733,北京市,大兴旧宫,细颗粒物(PM2.5),98,102,73,73,50,2,,18,6,85,71,1,2,0.9,0.8
2023-12-29T0000,3694A,115.986,40.4563,北京市,延庆石河营,细颗粒物(PM2.5),102,105,84,76,58,2,,39,12,52,43,1,2,1.4,1.2
2023-12-29T0000,3695A,116.6151,40.3053,北京市,怀柔新城,颗粒物(PM10),55,60,54,35,30,29,,54,44,19,24,3,2,0.5,0.5
2023-12-29T0000,3696A,116.2545,39.8768,北京市,丰台小屯,细颗粒物(PM2.5),89,111,85,66,48,1,,21,6,81,61,1,2,1.2,1
2023-12-29T0000,3697A,116.84,40.3844,北京市,密云镇,,50,50,45,29,27,2,,50,12,48,37,3,3,0.6,0.6
2023-12-29T0000,1761A,123.8275,41.3064,本溪市,大峪,细颗粒物(PM2.5),104,119,90,78,55,6,,18,8,66,61,8,12,3.3,2.8
2023-12-29T0000,1762A,123.7567,41.3325,本溪市,溪湖,细颗粒物(PM2.5),150,211,152,115,84,7,,20,8,59,57,12,18,2.5,2.6
2023-12-29T0000,1763A,123.7169,41.3094,本溪市,彩屯,细颗粒物(PM2.5),120,123,140,91,102,8,,20,12,66,64,5,20,2.2,3.4
2023-12-29T0000,1764A,123.7669,41.2864,本溪市,东明,细颗粒物(PM2.5),134,111,94,102,72,9,,19,10,66,61,11,16,2.6,2.1
2023-12-29T0000,1765A,123.7992,41.2664,本溪市,新立屯,细颗粒物(PM2.5),87,84,59,64,42,5,,22,6,60,57,8,12,1.8,1.6
2023-12-29T0000,1766A,123.8142,41.3472,本溪市,威宁,细颗粒物(PM2.5),129,158,128,98,78,6,,16,7,58,54,8,8,2.7,2.2
2023-12-29T0000,2587A,105.2864,27.3125,毕节市,八中,细颗粒物(PM2.5),84,73,116,62,100,54,,84,66,10,14,6,8,0.9,0.9
2023-12-29T0000,2588A,105.31,27.2944,毕节市,师专,细颗粒物(PM2.5),95,84,118,71,98,54,,81,63,14,20,6,9,0.9,0.9
2023-12-29T0000,3537A,105.3631,27.3533,毕节市,长征村,细颗粒物(PM2.5),135,106,118,103,106,55,,79,67,11,17,7,12,0.9,0.9
2023-12-29T0000,1629A,118.0018,37.3617,滨州市,第二水厂,细颗粒物(PM2.5),156,153,104,119,72,4,,39,13,91,63,17,13,1.7,1.2
2023-12-29T0000,1630A,117.9776,37.393,滨州市,北中新校,细颗粒物(PM2.5),125,121,89,95,62,2,,40,11,102,68,9,9,1.3,0.9
2023-12-29T0000,3514A,117.9378,37.3956,滨州市,中海酒店,细颗粒物(PM2.5),133,121,88,101,75,14,,46,19,90,73,11,14,1.8,1.3
2023-12-29T0000,3515A,117.9378,37.3553,滨州市,开发区一中,细颗粒物(PM2.5),159,152,109,121,78,10,,31,14,83,67,19,18,1.4,1.1
2023-12-29T0000,3516A,118.0917,37.694,滨州市,金海六路,细颗粒物(PM2.5),152,146,80,116,62,2,,41,13,95,61,17,12,1.6,1.1
2023-12-29T0000,4028A,117.9956,37.3753,滨州市,滨州市西街道办事处,细颗粒物(PM2.5),178,163,91,134,72,4,,44,15,83,54,15,12,2.0,1.2
2023-12-29T0000,2311A,115.8072,33.8399,亳州市,污水处理厂,细颗粒物(PM2.5),247,249,180,197,131,6,,50,26,70,52,6,7,1.5,1.2
2023-12-29T0000,2312A,115.7789,33.8518,亳州市,三国揽胜宫,细颗粒物(PM2.5),255,297,211,205,137,4,,46,24,69,55,6,8,1.6,1.3
2023-12-29T0000,3332A,115.7633,33.8034,亳州市,亳州学院,细颗粒物(PM2.5),241,263,191,191,125,9,,49,34,57,50,3,5,1.4,1.1
2023-12-29T0000,2693A,82.0485,44.8556,博尔塔拉蒙古自治州,市党校,,,140,114,,79,18,,46,38,33,30,13,16,1.8,1
2023-12-29T0000,2694A,82.0806,44.8969,博尔塔拉蒙古自治州,市环保局,细颗粒物(PM2.5),94,127,108,70,60,34,,38,31,48,50,19,17,1.7,1.5
2023-12-29T0000,1071A,116.8842,38.2991,沧州市,沧县城建局,细颗粒物(PM2.5),128,105,87,97,78,15,,43,20,78,63,8,9,1.0,1
2023-12-29T0000,1072A,116.8584,38.3254,沧州市,电视转播站,细颗粒物(PM2.5),110,99,88,83,76,9,,40,11,78,67,8,11,1.1,1.1
2023-12-29T0000,1073A,116.8709,38.3228,沧州市,市环保局,细颗粒物(PM2.5),120,111,85,91,74,21,,44,15,62,57,5,7,1.2,1.2
2023-12-29T0000,3324A,116.8136,38.3004,沧州市,河北水利电力学院,细颗粒物(PM2.5),139,122,98,106,88,1,,34,9,87,67,16,13,1.4,1.3
2023-12-29T0000,2622A,97.1806,31.1273,昌都市,昌都监测站,,20,18,47,0,22,63,,53,40,6,32,6,7,0.3,1
2023-12-29T0000,3719A,97.1714,31.1406,昌都市,昌都会议中心,,24,16,14,4,11,74,,61,58,1,12,4,5,0.3,0.6
2023-12-29T0000,2690A,88.1236,43.8886,昌吉州,天山天池,,21,2,6,0,6,66,,78,68,4,5,6,6,0.4,0.4
2023-12-29T0000,2692A,87.2717,44.0297,昌吉州,新区政务中心,,,20,184,7,130,,,31,30,51,68,1,5,0.3,1.8
2023-12-29T0000,3613A,87.3095,44.0142,昌吉州,亚心广场,,20,7,169,5,128,49,,35,35,40,67,7,8,0.4,1.6
2023-12-29T0000,1119A,125.3325,43.9166,长春市,食品厂,细颗粒物(PM2.5),80,68,90,59,73,18,,29,19,52,52,14,25,0.8,1.1
2023-12-29T0000,1120A,125.2863,43.9027,长春市,客车厂,细颗粒物(PM2.5),103,,77,77,75,19,,39,18,55,55,13,30,0.9,1.2
2023-12-29T0000,1121A,125.2841,43.8463,长春市,邮电学院,细颗粒物(PM2.5),144,116,95,110,83,10,,29,14,68,51,19,19,1.1,1.1
2023-12-29T0000,1122A,125.3716,43.8772,长春市,劳动公园,细颗粒物(PM2.5),137,,88,104,71,12,,33,16,70,53,25,22,0.9,0.9
2023-12-29T0000,1123A,125.3297,43.8805,长春市,园林处,细颗粒物(PM2.5),103,80,79,77,72,18,,28,17,61,53,16,20,1.0,1.2
2023-12-29T0000,1124A,125.4605,43.79,长春市,净月潭,细颗粒物(PM2.5),166,144,83,126,73,7,,43,10,55,33,6,10,1.6,1.2
2023-12-29T0000,1125A,125.7194,43.515,长春市,甩湾子,,,,,,,,,,,,,,,,
2023-12-29T0000,1126A,125.3863,43.8447,长春市,经开区环卫处,细颗粒物(PM2.5),158,130,90,120,74,7,,29,11,67,49,11,15,1.5,1.2
2023-12-29T0000,1127A,125.245,43.7783,长春市,高新区管委会,细颗粒物(PM2.5),185,154,97,139,95,7,,32,9,67,48,10,13,1.7,1.3
2023-12-29T0000,1128A,125.1761,43.8325,长春市,岱山公园,细颗粒物(PM2.5),169,154,91,128,85,8,,34,15,67,47,8,12,1.7,1.3
2023-12-29T0000,1335A,113.0833,28.2325,长沙市,经开区环保局,细颗粒物(PM2.5),283,261,221,233,189,53,,84,63,44,50,8,7,1.3,1
2023-12-29T0000,1336A,112.8872,28.2189,长沙市,高开区环保局,细颗粒物(PM2.5),264,274,222,214,177,59,,92,74,33,35,4,6,1.3,1.3
2023-12-29T0000,1337A,113.0792,28.2053,长沙市,马坡岭,细颗粒物(PM2.5),271,262,218,221,177,47,,77,59,50,50,8,8,1.3,1
2023-12-29T0000,1338A,112.9394,28.19,长沙市,湖南师范大学,细颗粒物(PM2.5),287,278,229,237,196,59,,94,81,33,34,6,7,1.3,1.1
2023-12-29T0000,1339A,113.0178,28.1322,长沙市,雨花区环保局,细颗粒物(PM2.5),267,264,211,217,170,49,,85,68,44,47,5,6,1.6,1.4
2023-12-29T0000,1340A,112.9792,28.2597,长沙市,伍家岭,细颗粒物(PM2.5),272,286,242,222,190,51,,80,70,36,38,7,7,1.5,1.3
2023-12-29T0000,1341A,113.0014,28.1944,长沙市,火车新站,细颗粒物(PM2.5),269,248,215,219,173,51,,92,77,42,39,5,5,1.5,1.2
2023-12-29T0000,1342A,112.9844,28.1178,长沙市,天心区环保局,细颗粒物(PM2.5),253,263,214,203,172,55,,91,77,44,44,6,6,1.3,1
2023-12-29T0000,1343A,112.8908,28.1308,长沙市,湖南中医药大学,细颗粒物(PM2.5),278,272,225,228,185,59,,95,78,30,32,4,5,1.1,1
2023-12-29T0000,1344A,112.9581,28.3611,长沙市,沙坪,细颗粒物(PM2.5),249,252,213,199,159,58,,93,80,31,34,6,6,1.7,1.4
2023-12-29T0000,1727A,113.1147,36.1547,长治市,清华站,细颗粒物(PM2.5),203,180,166,153,143,9,,46,16,91,86,32,30,1.9,1.8
2023-12-29T0000,1728A,113.1031,36.1989,长治市,监测站,细颗粒物(PM2.5),250,,160,200,151,0,,58,14,126,91,40,33,2.4,2.1
2023-12-29T0000,1730A,113.0886,36.2125,长治市,审计局,细颗粒物(PM2.5),247,209,162,197,151,0,,56,18,118,84,53,38,1.7,1.6
2023-12-29T0000,1731A,113.0844,36.1856,长治市,长治八中,,,,155,,106,,,23,,,72,,33,,1.7
2023-12-29T0000,2845A,113.1569,36.1911,长治市,德盛苑,细颗粒物(PM2.5),180,,143,136,142,58,,68,51,47,55,32,30,1.6,1.8
2023-12-29T0000,3568A,113.06,36.0464,长治市,向阳小学,细颗粒物(PM2.5),201,179,155,151,132,30,,91,54,78,66,46,32,1.8,1.7
2023-12-29T0000,3569A,112.8792,36.3144,长治市,屯留一中,细颗粒物(PM2.5),189,152,158,142,144,13,,74,31,94,78,42,33,1.9,1.8
2023-12-29T0000,3570A,113.235,36.3489,长治市,潞城四中,细颗粒物(PM2.5),195,168,193,146,161,9,,66,25,89,74,17,40,1.5,2.3
2023-12-29T0000,1854A,111.6975,28.9703,常德市,市二中,细颗粒物(PM2.5),277,256,228,227,205,71,,105,89,30,36,10,9,1.3,1.2
2023-12-29T0000,1857A,111.7158,29.1456,常德市,白鹤山,颗粒物(PM10),149,247,269,107,172,62,,72,63,19,23,5,4,0.9,1
2023-12-29T0000,3138A,111.7153,29.0289,常德市,武陵区永安,细颗粒物(PM2.5),256,254,245,206,198,70,,99,80,31,40,11,10,1.2,1.3
2023-12-29T0000,3139A,111.6892,28.9881,常德市,鼎城区玉霞,细颗粒物(PM2.5),274,261,230,224,194,56,,104,85,38,33,11,10,1.4,1.3
2023-12-29T0000,3140A,111.6625,29.0531,常德市,武陵区长庚,细颗粒物(PM2.5),269,278,258,219,205,55,,97,83,34,38,7,7,1.2,1.2
2023-12-29T0000,1196A,119.9633,31.762,常州市,市监测站,细颗粒物(PM2.5),163,178,163,124,117,20,,82,35,59,77,7,11,1.3,1.4
2023-12-29T0000,1200A,119.9468,31.7069,常州市,武进监测站,细颗粒物(PM2.5),149,182,183,114,121,10,,81,33,65,77,8,14,1.0,1.2
2023-12-29T0000,1201A,119.9255,31.9087,常州市,安家,细颗粒物(PM2.5),139,138,165,106,105,38,,74,36,32,62,6,9,0.9,1.2
2023-12-29T0000,3002A,119.9805,31.8174,常州市,行政中心,细颗粒物(PM2.5),150,154,152,115,111,27,,83,42,44,65,10,15,1.3,1.1
2023-12-29T0000,3003A,120.0522,31.7748,常州市,经开区,细颗粒物(PM2.5),180,155,151,136,114,28,,82,33,46,81,4,10,1.1,1.4
2023-12-29T0000,3010A,119.9025,31.7964,常州市,钟楼,细颗粒物(PM2.5),150,145,156,115,124,34,,84,43,37,68,6,11,0.9,1.1
2023-12-29T0000,3429A,119.8598,31.7066,常州市,武进经发区,细颗粒物(PM2.5),150,167,160,115,126,20,,73,18,47,88,5,10,1.6,1.4
2023-12-29T0000,3430A,119.5826,31.7245,常州市,金坛城区,细颗粒物(PM2.5),179,167,162,135,128,42,,94,52,31,59,6,11,0.8,1.1
2023-12-29T0000,2220A,120.4318,41.5881,朝阳市,西梁,细颗粒物(PM2.5),165,188,136,125,74,6,,36,10,53,47,19,22,3.2,2.2
2023-12-29T0000,2221A,120.4521,41.5646,朝阳市,河畔小区,细颗粒物(PM2.5),147,,93,112,66,7,,43,14,56,44,9,17,2.1,1.7
2023-12-29T0000,2222A,120.4176,41.5648,朝阳市,八里堡,细颗粒物(PM2.5),110,110,98,83,64,4,,40,10,53,47,13,20,2.0,1.9
2023-12-29T0000,2223A,120.3806,41.5969,朝阳市,农业园区,细颗粒物(PM2.5),122,133,101,92,77,9,,38,12,64,52,14,22,1.9,1.6
2023-12-29T0000,1705A,116.6367,23.6719,潮州市,西园路,细颗粒物(PM2.5),67,53,63,48,45,11,,88,47,41,28,5,6,0.8,0.6
2023-12-29T0000,1706A,116.6447,23.6706,潮州市,档案局,细颗粒物(PM2.5),85,,72,63,56,7,,85,43,44,29,6,6,1.1,0.9
2023-12-29T0000,3026A,116.6183,23.6608,潮州市,市政府,细颗粒物(PM2.5),107,,68,80,55,23,,90,52,50,37,8,10,0.9,1
2023-12-29T0000,2472A,113.0073,25.9061,郴州市,马头岭,细颗粒物(PM2.5),88,122,92,65,39,47,,96,82,52,37,8,17,1.1,1.1
2023-12-29T0000,2473A,113.0116,25.8226,郴州市,市职中,细颗粒物(PM2.5),98,104,83,73,59,9,,91,44,53,39,6,13,1.0,0.9
2023-12-29T0000,2474A,113.0161,25.8001,郴州市,兴隆步行街,细颗粒物(PM2.5),120,135,92,91,62,6,,82,44,61,42,5,14,1.4,1.1
2023-12-29T0000,2475A,113.0383,25.8071,郴州市,市审计局,细颗粒物(PM2.5),100,98,74,75,56,12,,82,49,49,39,6,16,1.8,1.2
2023-12-29T0000,2476A,113.0348,25.7759,郴州市,市环保局,细颗粒物(PM2.5),117,112,82,88,62,14,,66,37,68,50,4,17,1.1,0.8
2023-12-29T0000,1431A,103.9728,30.7236,成都市,金泉两河,细颗粒物(PM2.5),208,183,164,158,122,0,,18,2,68,60,2,2,1.9,1.3
2023-12-29T0000,1432A,104.176,30.6872,成都市,十里店,细颗粒物(PM2.5),182,156,153,137,129,5,,33,18,85,64,1,2,1.3,1
2023-12-29T0000,1433A,104.079,30.5706,成都市,三瓦窑,细颗粒物(PM2.5),242,246,178,192,138,0,,18,11,52,50,4,3,1.5,1.2
2023-12-29T0000,1434A,104.1114,30.63,成都市,沙河铺,细颗粒物(PM2.5),175,151,148,132,126,1,,20,10,67,63,3,3,1.5,1
2023-12-29T0000,1437A,104.0786,30.6531,成都市,君平街,细颗粒物(PM2.5),218,206,166,168,135,0,,39,11,93,68,4,4,1.5,1
2023-12-29T0000,1438A,103.613,31.0283,成都市,灵岩寺,细颗粒物(PM2.5),135,122,124,103,103,63,,80,62,26,26,9,10,1.2,1.3
2023-12-29T0000,2880A,104.0239,30.65639,成都市,大石西路,细颗粒物(PM2.5),212,195,155,162,132,0,,37,4,93,70,5,4,1.6,1.2
2023-12-29T0000,3136A,104.2725,30.5589,成都市,龙泉驿区区政府,细颗粒物(PM2.5),156,151,153,119,114,10,,33,10,59,57,1,2,1.0,1.1
2023-12-29T0000,3357A,104.0106,30.6931,成都市,金博路,细颗粒物(PM2.5),211,177,157,161,129,2,,22,3,74,67,3,2,1.5,1.3
2023-12-29T0000,3359A,104.0578,30.5225,成都市,华阳,细颗粒物(PM2.5),225,224,165,175,129,0,,11,5,71,72,2,2,1.2,1.1
2023-12-29T0000,3487A,104.2394,30.5319,成都市,车城东七路,细颗粒物(PM2.5),193,188,168,145,133,2,,41,13,75,64,1,1,1.1,1.1
2023-12-29T0000,3488A,104.3853,30.7453,成都市,青白江技师分院,细颗粒物(PM2.5),202,171,143,152,132,2,,10,3,71,64,3,3,1.1,1.1
2023-12-29T0000,3489A,104.0789,30.4072,成都市,科学城,细颗粒物(PM2.5),202,181,153,152,131,2,,22,11,54,59,3,3,1.3,1
2023-12-29T0000,4011A,103.8506,30.6947,成都市,光华大道三段,细颗粒物(PM2.5),209,187,174,159,148,4,,17,4,65,61,1,2,1.1,1.1
2023-12-29T0000,1062A,117.9531,40.9081,承德市,铁路,细颗粒物(PM2.5),65,69,98,47,63,8,,23,8,52,54,9,15,1.1,1.5
2023-12-29T0000,1063A,117.9392,40.9763,承德市,中国银行,细颗粒物(PM2.5),89,92,82,66,52,10,,28,12,56,48,2,2,1.4,1.3
2023-12-29T0000,1064A,117.9503,40.928,承德市,开发区,细颗粒物(PM2.5),75,67,81,55,53,9,,26,11,54,50,8,11,1.2,1.3
2023-12-29T0000,1065A,117.8051,40.9655,承德市,文化中心,颗粒物(PM10),65,80,86,43,46,8,,45,14,58,44,6,11,1.0,1.1
2023-12-29T0000,1066A,117.9268,41.0026,承德市,离宫,细颗粒物(PM2.5),69,67,59,50,43,2,,27,11,50,37,3,3,0.6,0.8
2023-12-29T0000,2314A,117.47,30.6618,池州市,池州学院,细颗粒物(PM2.5),328,338,321,278,266,21,,56,40,78,68,12,10,1.7,1.5
2023-12-29T0000,3237A,117.4918,30.6617,池州市,展览馆,细颗粒物(PM2.5),316,344,333,266,260,2,,56,36,89,66,9,10,1.8,1.9
2023-12-29T0000,3333A,117.5627,30.695,池州市,第八中学,细颗粒物(PM2.5),289,302,305,239,245,4,,58,37,89,65,12,8,1.9,1.8
2023-12-29T0000,3334A,117.5038,30.6243,池州市,第十二中学,细颗粒物(PM2.5),295,287,297,245,250,33,,55,35,69,69,13,11,1.7,1.7
2023-12-29T0000,1744A,118.9233,42.2816,赤峰市,松山一中,细颗粒物(PM2.5),113,108,83,85,56,10,,27,8,61,60,20,22,2.0,1.9
2023-12-29T0000,1745A,118.9576,42.2728,赤峰市,哈达街,细颗粒物(PM2.5),145,129,84,111,66,9,,34,12,60,57,31,29,2.2,1.6
2023-12-29T0000,1746A,118.8788,42.2554,赤峰市,天义路,细颗粒物(PM2.5),93,84,43,69,25,10,,62,15,65,44,17,12,2.2,1.2
2023-12-29T0000,3058A,119.2658,42.0353,赤峰市,银河街,细颗粒物(PM2.5),140,155,144,107,103,14,,42,23,57,49,35,35,3.1,2.7
2023-12-29T0000,3286A,118.9359,42.3147,赤峰市,桥北物流园区,细颗粒物(PM2.5),100,92,87,75,69,10,,38,12,49,56,24,30,2.0,1.7
2023-12-29T0000,2521A,107.3476,22.4136,崇左市,市环保局江州分局,细颗粒物(PM2.5),90,108,96,67,60,14,,136,71,54,34,6,8,1.0,0.8
2023-12-29T0000,2522A,107.3702,22.3707,崇左市,城南新区,细颗粒物(PM2.5),103,110,95,77,77,8,,140,90,64,34,7,8,0.7,0.7
2023-12-29T0000,2298A,118.3093,32.3153,滁州市,老年大学,细颗粒物(PM2.5),168,143,173,127,142,20,,100,58,63,60,8,12,1.0,1.2
2023-12-29T0000,2299A,118.3244,32.2786,滁州市,人大宾馆,细颗粒物(PM2.5),206,156,200,156,190,17,,92,51,72,78,4,8,0.8,1.2
2023-12-29T0000,3207A,118.3118,32.3038,滁州市,市政府原办公楼,细颗粒物(PM2.5),168,147,177,127,151,17,,89,43,66,65,4,8,0.6,1.1
2023-12-29T0000,3331A,118.3267,32.2634,滁州市,图书馆,细颗粒物(PM2.5),155,165,186,118,140,17,,99,61,77,74,5,8,1.0,1.3
2023-12-29T0000,2605A,101.5482,25.0441,楚雄州,州环境监测站,颗粒物(PM10),53,56,26,35,19,6,,70,51,43,19,7,6,0.9,0.6
2023-12-29T0000,2606A,101.538,25.0492,楚雄州,市经济开发区,细颗粒物(PM2.5),64,62,29,46,19,9,,67,42,42,21,7,6,0.9,0.6
2023-12-29T0000,2548A,107.5277,31.2827,达州市,达州职业技术学院,细颗粒物(PM2.5),217,212,176,167,135,10,,10,10,27,42,10,12,1.5,1.4
2023-12-29T0000,2549A,107.5086,31.2186,达州市,市环境监测站,细颗粒物(PM2.5),203,217,185,153,136,3,,3,3,44,56,10,12,1.8,1.6
2023-12-29T0000,2550A,107.4988,31.2132,达州市,凤凰小区,细颗粒物(PM2.5),213,227,189,163,137,7,,8,8,51,57,16,17,2.0,1.6
2023-12-29T0000,2551A,107.5082,31.1986,达州市,达县机关宾馆,细颗粒物(PM2.5),215,229,191,165,135,6,,6,6,53,59,10,11,1.7,1.5
2023-12-29T0000,2552A,107.4644,31.2124,达州市,市政中心,细颗粒物(PM2.5),245,267,205,195,148,5,,5,5,64,63,15,21,2.7,2.2
2023-12-29T0000,2614A,100.1542,25.7054,大理州,大理市环境监测站,,19,18,19,13,14,40,,81,68,33,11,6,6,0.6,0.6
2023-12-29T0000,2615A,100.2171,25.5811,大理州,大理古城,,35,27,18,24,12,52,,82,71,19,13,6,6,0.9,0.9
2023-12-29T0000,1109A,121.612,38.9741,大连市,甘井子,细颗粒物(PM2.5),85,84,62,63,43,5,,49,13,62,45,14,12,1.1,0.9
2023-12-29T0000,1110A,121.565,38.9511,大连市,周水子,细颗粒物(PM2.5),89,83,64,66,46,5,,41,9,52,49,13,15,1.4,1.1
2023-12-29T0000,1111A,121.5637,38.8845,大连市,星海三站,细颗粒物(PM2.5),77,71,48,56,38,6,,52,21,45,30,8,11,1.5,1.1
2023-12-29T0000,1112A,121.6302,38.9117,大连市,青泥洼桥,细颗粒物(PM2.5),82,80,59,60,42,7,,43,9,61,52,16,16,1.7,1.2
2023-12-29T0000,1113A,121.6251,38.8638,大连市,傅家庄,细颗粒物(PM2.5),69,76,58,50,34,14,,56,21,58,37,37,21,1.7,1.3
2023-12-29T0000,1114A,121.5213,38.8661,大连市,七贤岭,细颗粒物(PM2.5),72,67,54,52,36,19,,57,24,38,30,9,11,1.6,1.3
2023-12-29T0000,1115A,121.2529,38.8061,大连市,旅顺,细颗粒物(PM2.5),74,65,46,54,39,23,,54,32,38,25,16,13,1.9,1.4
2023-12-29T0000,1116A,121.7485,39.1311,大连市,金州,细颗粒物(PM2.5),85,,76,63,46,28,,52,27,28,35,6,10,1.4,1.2
2023-12-29T0000,1117A,121.7811,39.0496,大连市,开发区,细颗粒物(PM2.5),139,,60,106,51,8,,44,14,62,52,20,14,2.0,1.2
2023-12-29T0000,1118A,121.9762,39.0631,大连市,双D港,细颗粒物(PM2.5),73,66,43,53,32,36,,51,36,24,25,10,10,1.4,1.2
2023-12-29T0000,1789A,124.81117,46.03138,大庆市,大同区,细颗粒物(PM2.5),142,119,116,108,107,9,,28,10,40,35,11,9,1.1,1
2023-12-29T0000,1790A,125.129,46.533,大庆市,龙凤区,细颗粒物(PM2.5),144,138,148,110,126,11,,18,7,50,53,4,8,1.1,1.2
2023-12-29T0000,1791A,124.902,46.408,大庆市,红岗区,细颗粒物(PM2.5),117,123,94,88,81,12,,29,19,48,39,6,6,1.4,1.2
2023-12-29T0000,1792A,125.153,46.586,大庆市,萨尔图区,细颗粒物(PM2.5),172,150,142,130,128,22,,28,20,54,53,6,8,0.9,1
2023-12-29T0000,1793A,124.9042,46.6215,大庆市,让胡路区,细颗粒物(PM2.5),118,124,121,89,86,5,,19,13,62,55,5,6,1.4,1.4
2023-12-29T0000,3481A,125.141,46.634,大庆市,萨区政府监测点,细颗粒物(PM2.5),137,116,137,104,118,15,,20,9,42,47,7,8,0.8,1.1
2023-12-29T0000,1721A,113.3819,40.1097,大同市,果树场,,,,,,,,,,,,,,,,
2023-12-29T0000,1723A,113.2994,40.0758,大同市,云冈宾馆,细颗粒物(PM2.5),143,173,219,109,143,5,,25,5,73,79,22,34,2.4,2.9
2023-12-29T0000,1724A,113.3444,40.0917,大同市,大同大学,细颗粒物(PM2.5),128,168,194,97,121,4,,35,6,74,75,26,36,2.4,2
2023-12-29T0000,1725A,113.2661,40.1269,大同市,安家小村,细颗粒物(PM2.5),200,308,212,150,125,6,,31,8,86,75,32,37,4.7,2.8
2023-12-29T0000,1726A,113.2711,40.0844,大同市,教育学院,颗粒物(PM10),152,254,246,110,132,8,,25,9,84,91,25,39,2.5,2.6
2023-12-29T0000,3282A,113.3397,40.0597,大同市,大同市卫生学校,颗粒物(PM10),124,198,191,90,131,7,,27,10,80,86,26,38,1.9,1.9
2023-12-29T0000,3565A,113.1367,40.1122,大同市,云冈站,细颗粒物(PM2.5),119,162,157,90,93,6,,39,7,67,71,40,60,1.7,1.4
2023-12-29T0000,3566A,113.1186,40.2556,大同市,图书馆,细颗粒物(PM2.5),204,214,185,154,135,8,,48,22,78,62,14,26,2.9,2.2
2023-12-29T0000,3567A,113.5931,40.0461,大同市,区一中,细颗粒物(PM2.5),212,262,236,162,135,8,,34,11,78,73,41,54,2.5,2.2
2023-12-29T0000,3676A,113.2802,40.0995,大同市,第二人民医院,细颗粒物(PM2.5),144,219,236,110,137,10,,30,13,79,80,26,34,2.6,2.8
2023-12-29T0000,2269A,124.1069,50.4097,大兴安岭地区,科技局,,30,27,18,21,17,39,,47,44,14,8,7,6,0.5,0.4
2023-12-29T0000,3663A,124.1164,50.4278,大兴安岭地区,红旗社区,,,,9,29,9,,,,,22,16,11,6,0.3,0.3
2023-12-29T0000,1600A,124.3303,40.0625,丹东市,江湾东路,细颗粒物(PM2.5),122,103,85,92,73,10,,45,15,53,50,44,33,4.3,2.5
2023-12-29T0000,1601A,124.4256,40.1503,丹东市,临江后街,细颗粒物(PM2.5),109,100,77,82,62,11,,47,15,60,48,15,19,2.3,1.6
2023-12-29T0000,1602A,124.3933,40.1461,丹东市,元宝山,细颗粒物(PM2.5),98,78,71,73,64,20,,45,27,46,44,17,23,1.7,1.7
2023-12-29T0000,1603A,124.3633,40.1092,丹东市,民主桥,细颗粒物(PM2.5),105,104,80,79,60,2,,35,7,69,59,16,19,2.1,1.7
2023-12-29T0000,3541A,109.5726,19.5167,儋州市,第一中学子站,,30,30,43,14,23,72,,102,82,4,11,4,5,0.5,0.8
2023-12-29T0000,3542A,109.5567,19.5187,儋州市,东坡学校子站,,34,34,48,9,21,73,,110,84,4,10,4,4,0.6,0.7
2023-12-29T0000,2616A,98.5842,24.428,德宏州,德宏州监测站,细颗粒物(PM2.5),53,41,45,37,37,14,,56,37,33,24,11,16,0.5,0.5
2023-12-29T0000,3677A,98.5881,24.4368,德宏州,芒市人民政府综合楼,,40,40,45,24,28,28,,59,48,14,18,8,11,0.6,0.6
2023-12-29T0000,1901A,104.4239,31.1208,德阳市,东山公园,细颗粒物(PM2.5),175,154,138,132,119,3,,46,9,65,57,3,3,1.1,1
2023-12-29T0000,1902A,104.3826,31.1317,德阳市,西小区,细颗粒物(PM2.5),212,172,160,162,143,1,,5,3,69,66,4,4,1.7,1.4
2023-12-29T0000,1904A,104.3553,31.1091,德阳市,耐火材料厂,,,,172,,146,,,5,3,,60,,4,,1.2
2023-12-29T0000,3639A,104.4019,31.1244,德阳市,市教育局,细颗粒物(PM2.5),173,146,140,131,128,1,,4,2,67,73,4,4,1.5,1.4
2023-12-29T0000,1622A,116.3032,37.4674,德州市,儿童乐园,细颗粒物(PM2.5),156,141,106,119,85,10,,28,13,81,76,12,14,1.3,1.3
2023-12-29T0000,1624A,116.2991,37.4451,德州市,监理站,细颗粒物(PM2.5),163,145,118,124,92,30,,31,14,79,85,11,13,1.0,1.4
2023-12-29T0000,3066A,116.2721,37.4379,德州市,九衢泉纯净水厂,细颗粒物(PM2.5),178,163,130,134,95,5,,35,18,98,78,11,11,1.4,1.4
2023-12-29T0000,3371A,116.3728,37.4403,德州市,开发区人民医院,细颗粒物(PM2.5),170,166,123,129,91,11,,33,12,87,81,7,11,1.2,1.4
2023-12-29T0000,3372A,116.3572,37.4094,德州市,太阳城中学,细颗粒物(PM2.5),201,175,130,151,101,7,,20,8,93,80,10,12,1.3,1.4
2023-12-29T0000,3511A,116.5652,37.3319,德州市,陵城艺术中心,细颗粒物(PM2.5),201,180,137,151,109,25,,48,32,50,56,15,10,1.4,1.4
2023-12-29T0000,2621A,99.7056,27.8317,迪庆州,迪庆州站,,27,27,24,14,15,52,,78,66,15,13,10,9,0.7,0.6
2023-12-29T0000,3180A,99.7136,27.8094,迪庆州,质量技术监督局,,36,,22,25,15,51,,80,70,17,11,7,7,0.9,0.6
2023-12-29T0000,2663A,104.6241,35.5734,定西市,东关小学,细颗粒物(PM2.5),148,160,116,113,74,8,,59,22,49,36,22,28,2.1,1.4
2023-12-29T0000,2664A,104.6194,35.5934,定西市,供电公司,细颗粒物(PM2.5),165,173,107,125,76,17,,32,29,52,34,30,20,2.2,1.3
2023-12-29T0000,1389A,113.7547,23.0494,东莞市,莞城梨川,细颗粒物(PM2.5),90,114,95,67,55,8,,131,62,104,72,10,11,1.3,1
2023-12-29T0000,1390A,113.7944,23.0128,东莞市,东城石井,细颗粒物(PM2.5),74,90,87,54,50,22,,130,82,64,55,9,11,0.8,0.8
2023-12-29T0000,1391A,113.7383,22.9658,东莞市,南城西平,细颗粒物(PM2.5),128,176,124,97,58,10,,134,82,143,86,11,12,1.2,1
2023-12-29T0000,3319A,113.7338,23.0381,东莞市,万江金泰,细颗粒物(PM2.5),93,125,99,69,55,1,,116,44,103,75,13,13,1.3,1.1
2023-12-29T0000,3626A,113.7533,23.0202,东莞市,南城元岭,"颗粒物(PM10),细颗粒物(PM2.5)",93,136,108,69,55,3,,134,48,108,78,10,12,1.8,1.3
2023-12-29T0000,3627A,113.7875,23.0457,东莞市,东城主山,细颗粒物(PM2.5),109,145,105,82,57,3,,139,60,119,77,11,13,1.4,1
2023-12-29T0000,1666A,118.6614,37.4309,东营市,市环保局,细颗粒物(PM2.5),160,146,84,122,62,9,,59,23,70,49,15,19,1.4,0.8
2023-12-29T0000,3036A,118.6904,37.4338,东营市,开发区管委会,细颗粒物(PM2.5),144,132,79,110,61,8,,72,27,91,59,9,24,1.3,0.7
2023-12-29T0000,3365A,118.5719,37.565,东营市,垦利区民丰路,细颗粒物(PM2.5),83,85,61,61,44,5,,65,26,80,47,9,9,1.2,0.9
2023-12-29T0000,3498A,118.5055,37.8612,东营市,河口城区,细颗粒物(PM2.5),104,107,69,78,47,21,,63,38,54,50,3,6,1.0,0.9
2023-12-29T0000,3646A,118.4978,37.4623,东营市,胜利站,细颗粒物(PM2.5),104,100,79,78,56,10,,52,26,74,54,9,12,1.2,1
2023-12-29T0000,3734A,118.35,37.26,东营市,理想之城,细颗粒物(PM2.5),140,153,85,107,57,7,,48,12,91,62,9,12,1.2,0.9
2023-12-29T0000,1591A,110.0023,39.8129,鄂尔多斯市,综合楼,颗粒物(PM10),62,73,138,31,42,11,,48,13,82,69,12,18,0.9,1.3
2023-12-29T0000,1592A,109.9486,39.8261,鄂尔多斯市,巴音孟克林场办事处,颗粒物(PM10),54,58,92,34,37,34,,39,20,49,61,11,15,0.6,1.1
2023-12-29T0000,1593A,109.7736,39.5986,鄂尔多斯市,康泽苑,细颗粒物(PM2.5),64,70,80,46,46,38,,54,40,37,40,7,9,0.7,0.8
2023-12-29T0000,1594A,109.8119,39.5989,鄂尔多斯市,华泰汽车城,颗粒物(PM10),58,66,82,36,43,26,,52,21,44,53,7,9,0.5,0.7
2023-12-29T0000,1595A,109.9734,39.7884,鄂尔多斯市,奥林花园,颗粒物(PM10),60,70,103,31,35,7,,45,12,84,66,11,12,1.4,1.3
2023-12-29T0000,2436A,114.8938,30.3994,鄂州市,市政府,细颗粒物(PM2.5),264,,188,214,186,10,,49,28,64,52,6,8,1.5,1.4
2023-12-29T0000,2437A,114.8989,30.3714,鄂州市,赵家坝,细颗粒物(PM2.5),238,203,190,188,173,4,,53,29,83,61,6,8,1.2,1.2
2023-12-29T0000,3654A,114.8094,30.4089,鄂州市,精准医疗中心,细颗粒物(PM2.5),264,269,249,214,196,21,,66,52,53,41,8,10,1.3,1.1
2023-12-29T0000,2499A,108.3411,21.6158,防城港市,沙万,细颗粒物(PM2.5),69,77,85,50,56,56,,121,74,52,43,42,19,1.0,0.9
2023-12-29T0000,2500A,108.3514,21.7731,防城港市,防城档案局,颗粒物(PM10),86,121,122,54,58,16,,133,60,56,43,6,9,0.7,0.8
2023-12-29T0000,2501A,108.3506,21.6414,防城港市,大海花园,细颗粒物(PM2.5),67,65,80,48,53,65,,112,81,35,42,21,18,1.0,1
2023-12-29T0000,1371A,113.1294,23.0067,佛山市,湾梁,颗粒物(PM10),89,127,112,55,53,4,,77,28,90,74,10,12,1.7,1.3
2023-12-29T0000,1372A,113.1083,23.0478,佛山市,华材职中,颗粒物(PM10),106,161,118,78,71,6,,96,46,130,90,14,14,1.6,1.1
2023-12-29T0000,1373A,113.144,23.0453,佛山市,南海气象局,颗粒物(PM10),93,135,111,68,61,3,,98,52,136,90,8,9,1.6,1.1
2023-12-29T0000,1374A,113.2881,22.8094,佛山市,顺德苏岗,细颗粒物(PM2.5),77,59,92,56,57,21,,130,85,67,91,9,12,1.1,1.1
2023-12-29T0000,1376A,112.8383,22.8678,佛山市,高明孔堂,细颗粒物(PM2.5),60,60,88,43,60,53,,120,93,34,51,8,15,0.6,0.7
2023-12-29T0000,1377A,112.8836,23.1588,佛山市,三水监测站,细颗粒物(PM2.5),123,144,114,93,86,2,,128,39,123,90,14,13,1.0,0.9
2023-12-29T0000,1378A,112.867,23.185,佛山市,三水云东海,细颗粒物(PM2.5),89,118,92,66,61,2,,110,46,113,71,10,10,1.0,1
2023-12-29T0000,3625A,113.2544,22.7642,佛山市,容桂街道办,细颗粒物(PM2.5),125,163,114,95,66,4,,142,93,161,108,15,13,1.7,1.3
2023-12-29T0000,1280A,119.3903,26.0543,福州市,鼓山,,,,,,,,,,,,,,,,
2023-12-29T0000,1282A,119.2681,26.0504,福州市,师大,,42,42,37,21,22,9,,73,46,57,30,5,6,0.5,0.5
2023-12-29T0000,1283A,119.2984,26.1028,福州市,五四北路,,26,26,37,16,22,22,,70,41,39,32,3,4,0.4,0.5
2023-12-29T0000,1284A,119.2648,26.0768,福州市,杨桥西路,,40,40,41,19,21,15,,80,40,50,33,3,4,0.5,0.6
2023-12-29T0000,1285A,119.317,26.0746,福州市,紫阳,,39,39,41,19,23,15,,61,32,49,37,5,5,0.6,0.7
2023-12-29T0000,3048A,119.5799,26.0936,福州市,九龙,,23,16,25,4,14,71,,84,62,12,17,3,4,0.4,0.6
2023-12-29T0000,3526A,119.5189,25.9664,福州市,吴航,,26,21,37,10,20,82,,79,77,5,27,3,5,0.4,0.5
2023-12-29T0000,1755A,123.7977,41.8491,抚顺市,望花区,细颗粒物(PM2.5),145,155,104,111,81,10,,22,11,60,60,15,21,2.5,1.7
2023-12-29T0000,1756A,123.9161,41.8822,抚顺市,顺城区,细颗粒物(PM2.5),309,272,116,259,101,6,,23,7,76,63,8,12,2.9,1.6
2023-12-29T0000,1757A,124.0436,41.8611,抚顺市,东洲区,细颗粒物(PM2.5),159,172,85,121,64,9,,39,9,51,43,5,8,2.4,1.4
2023-12-29T0000,1758A,123.9247,41.8642,抚顺市,新抚区,细颗粒物(PM2.5),207,176,99,157,92,10,,28,10,70,63,8,15,2.8,1.5
2023-12-29T0000,1759A,124.0972,41.8961,抚顺市,大伙房水库,细颗粒物(PM2.5),113,90,64,85,52,7,,39,9,52,41,7,11,1.9,1.2
2023-12-29T0000,1760A,123.7086,41.8391,抚顺市,沈抚新城,细颗粒物(PM2.5),140,171,118,107,75,15,,23,16,75,71,10,18,2.3,1.7
2023-12-29T0000,2376A,116.2127,28.0814,抚州市,桐源党溪,细颗粒物(PM2.5),82,78,77,60,54,32,,100,58,22,25,4,6,1.0,1.1
2023-12-29T0000,2377A,116.3544,27.9831,抚州市,市站,细颗粒物(PM2.5),105,115,98,79,64,67,,106,92,44,42,21,21,1.1,1.1
2023-12-29T0000,2378A,116.3565,27.963,抚州市,血防站,细颗粒物(PM2.5),112,120,104,84,68,42,,101,87,64,45,11,10,1.3,1.1
2023-12-29T0000,2379A,116.3564,28.0007,抚州市,采茶剧团,细颗粒物(PM2.5),105,103,96,79,67,72,,96,86,34,40,11,12,1.2,1
2023-12-29T0000,2380A,116.385,27.9647,抚州市,医学分院,细颗粒物(PM2.5),104,120,100,78,58,65,,97,86,37,41,30,18,1.1,1
2023-12-29T0000,2207A,121.6094,41.998,阜新市,工业园区,细颗粒物(PM2.5),188,275,184,141,88,4,,44,10,53,51,17,20,2.8,1.6
2023-12-29T0000,2208A,121.6697,42.0279,阜新市,长青街,细颗粒物(PM2.5),214,193,113,164,82,3,,48,16,59,44,13,13,2.0,1.5
2023-12-29T0000,2209A,121.6673,42.0705,阜新市,农业园区,细颗粒物(PM2.5),119,110,74,90,63,30,,61,44,41,31,41,22,1.2,1.1
2023-12-29T0000,2210A,121.6717,42.0224,阜新市,东苑,,,163,106,,62,13,,52,23,57,50,22,19,3.0,1.6
2023-12-29T0000,2211A,121.6506,42.0498,阜新市,玉龙新城,细颗粒物(PM2.5),108,109,89,81,79,10,,50,21,56,48,9,10,1.8,1.5
2023-12-29T0000,2301A,115.8277,32.8929,阜阳市,市监测站,细颗粒物(PM2.5),317,283,230,267,200,5,,44,21,82,64,6,7,1.5,1.4
2023-12-29T0000,2303A,115.8554,32.8605,阜阳市,开发区,细颗粒物(PM2.5),274,341,278,224,185,14,,45,20,68,65,8,9,1.2,1.2
2023-12-29T0000,2875A,115.784,32.8892,阜阳市,阜阳职业技术学院,细颗粒物(PM2.5),291,283,230,241,184,12,,54,31,68,57,3,4,1.5,1.3
2023-12-29T0000,3468A,115.7901,32.8613,阜阳市,市规划展馆,细颗粒物(PM2.5),307,311,256,257,202,29,,50,39,62,58,5,7,1.6,1.4
2023-12-29T0000,3469A,115.836,32.9183,阜阳市,枣园社区,细颗粒物(PM2.5),308,321,252,258,201,6,,47,28,81,62,3,5,1.5,1.3
2023-12-29T0000,2669A,102.9099,34.9841,甘南州,州政府,颗粒物(PM10),56,62,73,37,38,1,,58,14,55,45,16,20,1.0,1
2023-12-29T0000,3380A,102.8914,34.9617,甘南州,甘肃民族师范学院,颗粒物(PM10),63,76,79,27,32,3,,55,15,50,42,14,15,0.9,0.9
2023-12-29T0000,2570A,101.9603,30.0475,甘孜藏族自治州,水桥子,,32,29,28,22,15,13,,56,32,43,30,9,10,0.5,0.4
2023-12-29T0000,3065A,101.9533,29.9972,甘孜藏族自治州,州环保局,,18,10,22,3,6,55,,58,49,11,16,8,8,0.3,0.3
2023-12-29T0000,3414A,115.8347,28.932,赣江新区,桑海产业园,细颗粒物(PM2.5),244,249,161,194,117,2,,75,46,104,64,9,9,1.3,0.8
2023-12-29T0000,2362A,114.9017,25.9149,赣州市,通天岩,,,,,,,,,,,,,,,,
2023-12-29T0000,2363A,114.9367,25.8664,赣州市,地委,细颗粒物(PM2.5),74,90,92,54,44,0,,80,24,71,54,10,16,1.5,1.4
2023-12-29T0000,2364A,114.9461,25.8481,赣州市,气象台,细颗粒物(PM2.5),85,97,90,63,49,6,,88,25,82,65,11,11,1.5,1.3
2023-12-29T0000,2365A,114.9322,25.8333,赣州市,市图书馆,颗粒物(PM10),91,131,101,52,47,5,,87,22,83,66,16,19,1.8,1.2
2023-12-29T0000,2366A,114.8905,25.8471,赣州市,华坚鞋城,细颗粒物(PM2.5),87,113,112,64,59,2,,95,24,84,67,16,41,1.7,1.6
2023-12-29T0000,3109A,115.0093,25.8613,赣州市,赣县区卫计委,细颗粒物(PM2.5),77,82,81,56,42,8,,67,,63,51,6,7,1.4,1.1
2023-12-29T0000,2683A,106.2319,36.1417,固原市,马园,细颗粒物(PM2.5),147,160,102,112,73,22,,91,45,61,51,12,8,1.7,1.2
2023-12-29T0000,2684A,106.2792,36.0022,固原市,监测站,细颗粒物(PM2.5),132,137,97,100,75,42,,106,58,62,43,10,10,1.3,1.5
2023-12-29T0000,2685A,106.2375,36.0211,固原市,新区,细颗粒物(PM2.5),137,140,100,104,71,36,,98,52,56,45,6,5,1.2,1.3
2023-12-29T0000,3522A,106.2177,35.9959,固原市,原州区十五小,细颗粒物(PM2.5),133,147,107,101,68,44,,103,65,54,39,9,9,1.4,1.2
2023-12-29T0000,2543A,106.6308,30.5278,广安市,小平旧居,,,,,,,,,,,,,,,,
2023-12-29T0000,2544A,106.6303,30.4576,广安市,市委,细颗粒物(PM2.5),228,223,184,178,161,7,,30,12,53,46,8,11,1.5,1.3
2023-12-29T0000,2545A,106.6271,30.4663,广安市,友谊中学,细颗粒物(PM2.5),223,213,176,173,149,6,,18,8,52,50,10,13,1.7,1.4
2023-12-29T0000,2547A,106.6388,30.4551,广安市,广电花园,细颗粒物(PM2.5),241,198,168,191,165,2,,24,8,51,47,5,10,1.6,1.5
2023-12-29T0000,2902A,106.6351,30.4865,广安市,北辰小学,细颗粒物(PM2.5),218,211,176,168,151,4,,14,6,43,41,7,11,1.6,1.3
2023-12-29T0000,2523A,105.8945,32.4535,广元市,黑石坡,细颗粒物(PM2.5),95,101,79,71,73,38,,42,37,28,36,5,6,0.7,0.8
2023-12-29T0000,2524A,105.821,32.4444,广元市,老城,细颗粒物(PM2.5),82,87,116,60,77,32,,49,43,39,46,1,10,0.7,1
2023-12-29T0000,2526A,105.8628,32.4287,广元市,监测站,细颗粒物(PM2.5),83,69,94,61,76,50,,51,50,30,43,1,5,0.6,1
2023-12-29T0000,3617A,105.8047,32.4166,广元市,经开区,细颗粒物(PM2.5),119,116,123,90,86,5,,42,35,71,51,13,12,1.1,1.2
2023-12-29T0000,1345A,113.2347,23.1423,广州市,广雅中学,细颗粒物(PM2.5),149,237,163,114,74,3,,82,26,136,99,8,8,2.4,1.7
2023-12-29T0000,1346A,113.2612,23.105,广州市,市五中,细颗粒物(PM2.5),97,121,121,72,72,5,,87,30,129,85,9,9,2.0,1.5
2023-12-29T0000,1348A,113.3478,23.0916,广州市,广东商学院,颗粒物(PM10),116,182,123,53,39,4,,74,21,127,86,8,8,2.0,1.3
2023-12-29T0000,1349A,113.4332,23.1047,广州市,市八十六中,颗粒物(PM10),115,179,120,72,54,4,,50,13,97,98,8,8,1.3,1
2023-12-29T0000,1350A,113.3505,22.9483,广州市,番禺中学,细颗粒物(PM2.5),112,162,144,84,77,4,,79,34,122,102,7,10,1.7,1.4
2023-12-29T0000,1351A,113.2146,23.3916,广州市,花都师范,细颗粒物(PM2.5),97,134,90,72,45,4,,107,43,105,75,7,8,1.2,0.8
2023-12-29T0000,1352A,113.2597,23.1331,广州市,市监测站,颗粒物(PM10),96,142,124,69,58,4,,82,31,146,103,6,7,1.3,1
2023-12-29T0000,1353A,113.5618,23.312,广州市,九龙镇镇龙,颗粒物(PM10),79,108,88,44,39,2,,77,19,67,57,6,7,0.8,0.7
2023-12-29T0000,1354A,113.2765,23.1544,广州市,麓湖,细颗粒物(PM2.5),68,79,79,49,45,3,,87,31,96,76,6,6,0.7,0.7
2023-12-29T0000,1355A,113.443,23.3035,广州市,帽峰山森林公园,,41,41,42,22,26,113,,120,110,8,15,12,11,0.4,0.4
2023-12-29T0000,2846A,113.3221,23.1322,广州市,体育西,细颗粒物(PM2.5),95,119,103,71,56,6,,93,31,124,85,8,9,1.4,1.1
2023-12-29T0000,3298A,113.5717,23.5491,广州市,从化街口,细颗粒物(PM2.5),78,90,70,57,45,2,,94,36,63,50,6,9,1.1,0.9
2023-12-29T0000,3299A,113.3472,23.3692,广州市,白云竹料,,,129,82,69,46,5,,105,52,76,58,7,8,,1.4
2023-12-29T0000,3300A,113.2981,23.237,广州市,白云嘉禾,颗粒物(PM10),98,146,121,62,53,6,,90,27,112,83,8,10,1.0,1
2023-12-29T0000,3301A,113.4256,23.1716,广州市,黄埔科学城,颗粒物(PM10),59,68,61,36,34,5,,86,24,75,60,4,5,0.7,0.7
2023-12-29T0000,3302A,113.3942,23.0483,广州市,番禺大学城,颗粒物(PM10),100,149,107,66,50,0,,74,38,120,91,9,11,1.6,1.1
2023-12-29T0000,3303A,113.4922,22.8168,广州市,南沙黄阁,颗粒物(PM10),82,114,133,49,67,5,,156,66,138,110,10,11,1.2,1.2
2023-12-29T0000,3304A,113.5342,22.7896,广州市,南沙街,颗粒物(PM10),75,100,122,53,70,12,,187,90,109,95,10,9,0.9,1
2023-12-29T0000,3443A,113.2902,23.5544,广州市,花都梯面,,39,39,41,27,27,2,,109,29,69,48,5,8,0.6,0.5
2023-12-29T0000,3445A,113.7858,23.7478,广州市,从化良口,,25,25,25,17,19,27,,91,56,31,22,5,6,0.5,0.5
2023-12-29T0000,3446A,113.8051,23.2614,广州市,增城荔城,颗粒物(PM10),53,56,50,34,33,26,,103,50,28,30,6,9,0.6,0.6
2023-12-29T0000,2505A,109.568,23.1478,贵港市,德智高中,细颗粒物(PM2.5),55,52,80,39,61,105,,126,115,22,44,9,9,0.8,1
2023-12-29T0000,2506A,109.6047,23.0666,贵港市,江南子站,细颗粒物(PM2.5),113,166,132,85,74,32,,124,72,67,52,16,14,1.5,1.1
2023-12-29T0000,2507A,109.6014,23.0948,贵港市,贵城子站,细颗粒物(PM2.5),124,118,91,94,71,15,,117,72,76,48,15,15,1.5,1
2023-12-29T0000,2508A,109.5669,23.1065,贵港市,荷城子站,细颗粒物(PM2.5),89,110,116,66,63,9,,105,51,75,51,10,13,1.6,1.7
2023-12-29T0000,3405A,109.5886,23.1172,贵港市,新世纪学校,细颗粒物(PM2.5),97,105,92,72,55,16,,118,53,77,55,9,9,1.3,1.1
2023-12-29T0000,1439A,106.6899,26.5998,贵阳市,马鞍山,细颗粒物(PM2.5),89,75,64,66,50,7,,99,55,41,30,6,5,0.9,0.7
2023-12-29T0000,1440A,106.6971,26.5694,贵阳市,市环保站,细颗粒物(PM2.5),142,193,100,108,71,7,,102,43,91,62,44,25,2.6,1
2023-12-29T0000,1441A,106.6243,26.6266,贵阳市,鉴湖路,细颗粒物(PM2.5),64,66,67,46,42,90,,109,87,26,26,11,12,0.5,0.5
2023-12-29T0000,1442A,106.7487,26.6343,贵阳市,燕子冲,细颗粒物(PM2.5),77,80,72,56,52,26,,107,70,49,36,13,14,1.0,0.9
2023-12-29T0000,1443A,106.6555,26.4365,贵阳市,碧云窝,颗粒物(PM10),54,58,65,36,42,105,,115,95,12,17,16,18,0.7,0.7
2023-12-29T0000,1444A,106.694,26.5161,贵阳市,中院村,细颗粒物(PM2.5),117,129,98,88,64,6,,85,37,88,57,48,40,2.0,1.2
2023-12-29T0000,1445A,106.7109,26.6027,贵阳市,红边门,细颗粒物(PM2.5),100,107,93,75,64,9,,94,38,81,58,84,49,1.7,1.3
2023-12-29T0000,1446A,106.7164,26.5699,贵阳市,新华路,细颗粒物(PM2.5),94,112,93,70,59,7,,104,45,86,58,22,17,1.4,1
2023-12-29T0000,1447A,106.674,26.5424,贵阳市,太慈桥,细颗粒物(PM2.5),70,80,69,51,45,12,,114,53,64,37,10,9,0.8,0.6
2023-12-29T0000,1552A,106.805,26.3003,贵阳市,桐木岭,,,,,,,,,,,,,,,,
2023-12-29T0000,1862A,110.4144,25.3167,桂林市,电子科大尧山校区,细颗粒物(PM2.5),73,58,62,53,45,64,,108,72,10,12,8,11,0.6,0.6
2023-12-29T0000,1863A,110.2819,25.2697,桂林市,监测站,细颗粒物(PM2.5),108,115,106,81,72,17,,106,40,88,59,12,12,1.8,1.4
2023-12-29T0000,1864A,110.3089,25.2708,桂林市,龙隐路小学,细颗粒物(PM2.5),89,83,79,66,61,89,,121,79,34,44,23,14,1.0,1
2023-12-29T0000,1865A,110.2869,25.2178,桂林市,八中,细颗粒物(PM2.5),115,107,95,87,74,50,,106,50,55,44,14,10,1.2,1
2023-12-29T0000,3403A,110.1764,25.2381,桂林市,创业大厦,细颗粒物(PM2.5),104,114,95,78,71,6,,131,57,81,50,18,20,1.0,0.6
2023-12-29T0000,3531A,110.296,25.1253,桂林市,旅游学院,细颗粒物(PM2.5),110,110,85,83,60,10,,120,58,63,37,,12,0.8,0.6
2023-12-29T0000,2674A,100.2561,34.4714,果洛藏族自治州,玛沁县大武镇,,25,25,30,11,15,68,,71,66,6,15,10,18,0.6,0.6
2023-12-29T0000,1129A,126.5422,45.755,哈尔滨市,岭北,细颗粒物(PM2.5),114,98,104,86,87,49,,84,60,29,47,12,21,0.9,2.1
2023-12-29T0000,1130A,126.561,45.8167,哈尔滨市,松北商大,细颗粒物(PM2.5),124,104,111,94,92,26,,33,25,39,57,5,12,1.0,1
2023-12-29T0000,1131A,126.979,45.5419,哈尔滨市,阿城会宁,细颗粒物(PM2.5),176,151,83,133,74,28,,56,31,51,34,12,13,1.3,0.9
2023-12-29T0000,1132A,126.599,45.7222,哈尔滨市,南岗学府路,细颗粒物(PM2.5),113,124,125,85,92,20,,38,24,42,54,8,15,1.0,1.1
2023-12-29T0000,1133A,126.689,45.7733,哈尔滨市,太平宏伟公园,细颗粒物(PM2.5),117,101,110,88,90,22,,32,23,36,57,10,21,0.8,0.9
2023-12-29T0000,1134A,126.635,45.7667,哈尔滨市,道外承德广场,细颗粒物(PM2.5),124,120,112,94,90,18,,28,17,44,60,6,15,0.9,0.9
2023-12-29T0000,1135A,126.685,45.7319,哈尔滨市,香坊红旗大街,细颗粒物(PM2.5),137,116,110,104,107,15,,30,17,53,64,16,27,1.0,1.1
2023-12-29T0000,1136A,126.6411,45.7258,哈尔滨市,动力和平路,细颗粒物(PM2.5),115,103,107,87,94,15,,30,19,42,57,14,32,0.9,1.1
2023-12-29T0000,1137A,126.593,45.7478,哈尔滨市,道里建国路,细颗粒物(PM2.5),134,104,111,102,100,19,,24,15,36,54,4,12,0.7,1.5
2023-12-29T0000,1138A,126.615,45.61,哈尔滨市,平房东轻厂,细颗粒物(PM2.5),145,124,101,111,90,11,,63,14,62,44,7,11,1.2,1.3
2023-12-29T0000,1139A,126.595,45.9855,哈尔滨市,呼兰师专,细颗粒物(PM2.5),114,100,127,86,115,26,,37,31,36,57,6,16,1.0,1.4
2023-12-29T0000,1140A,126.6206,45.6842,哈尔滨市,省农科院,细颗粒物(PM2.5),144,147,129,110,103,25,,43,22,50,64,18,24,1.2,1.3
2023-12-29T0000,2688A,93.5128,42.8172,哈密地区,地区监测站,颗粒物(PM10),131,212,244,60,75,42,,54,48,41,51,7,13,0.7,1.1
2023-12-29T0000,2689A,93.4961,42.8328,哈密地区,哈密师范学校,颗粒物(PM10),143,236,265,64,81,31,,53,41,50,53,11,13,1.0,1.6
2023-12-29T0000,2671A,100.9048,36.9639,海北藏族自治州,海晏县西海镇,,22,22,31,9,13,65,,74,65,6,9,12,14,0.4,0.5
2023-12-29T0000,3867A,102.0738,36.5056,海东地区,平安区公安北苑,细颗粒物(PM2.5),97,97,72,72,47,37,,46,31,44,37,51,32,1.2,1.2
2023-12-29T0000,1409A,110.576,19.9507,海口市,东寨港,,,,,,,,,,,,,,,,
2023-12-29T0000,1410A,110.3232,20.0574,海口市,海南大学,,36,36,49,17,27,61,,136,114,31,15,7,8,0.4,0.5
2023-12-29T0000,1411A,110.283,20.0053,海口市,秀英海南医院,,33,33,47,12,23,87,,110,107,10,17,7,8,0.4,0.5
2023-12-29T0000,1412A,110.338,19.9969,海口市,海南师范大学,,31,31,45,14,24,83,,131,113,8,15,5,6,0.4,0.5
2023-12-29T0000,1413A,110.33,20.0356,海口市,龙华路环保局宿舍,,31,31,46,14,24,82,,135,118,10,14,7,7,0.3,0.4
2023-12-29T0000,3539A,110.5111,19.9736,海口市,桂林洋子站,,29,29,40,12,19,61,,122,96,19,13,5,6,0.3,0.4
2023-12-29T0000,2673A,100.6188,36.2866,海南藏族自治州,共和县恰卜恰镇,,34,34,30,14,16,15,,60,37,38,27,15,14,0.8,0.7
2023-12-29T0000,2676A,97.3731,37.3753,海西蒙古族藏族自治州,德令哈市,,38,36,31,26,15,55,,78,72,22,15,16,14,0.9,0.6
2023-12-29T0000,1048A,114.5302,36.6116,邯郸市,东污水处理厂,细颗粒物(PM2.5),119,,82,90,75,14,,36,29,65,55,4,5,1.1,1.2
2023-12-29T0000,1049A,114.4918,36.5713,邯郸市,矿院,细颗粒物(PM2.5),132,110,89,100,78,5,,49,30,77,51,2,3,1.2,1.2
2023-12-29T0000,1050A,114.484,36.6133,邯郸市,丛台公园,细颗粒物(PM2.5),109,114,99,82,79,52,,62,54,35,46,3,3,1.1,1.3
2023-12-29T0000,3458A,114.7895,36.5593,邯郸市,香泉濮院小区,细颗粒物(PM2.5),142,120,90,108,76,40,,64,55,47,50,12,8,1.1,1
2023-12-29T0000,3579A,114.50634,36.77178,邯郸市,永年区实验高中,细颗粒物(PM2.5),152,138,111,116,89,5,,33,16,86,67,10,12,1.6,1.4
2023-12-29T0000,3580A,114.20016,36.44293,邯郸市,峰峰矿区临水派出所,细颗粒物(PM2.5),179,160,116,135,97,25,,47,23,47,40,12,24,2.4,1.8
2023-12-29T0000,2634A,106.9893,33.1842,汉中市,汉川机床厂子校,细颗粒物(PM2.5),182,158,104,137,86,7,,34,10,38,30,5,4,1.8,1.1
2023-12-29T0000,2635A,107.0154,33.0706,汉中市,市监测站,细颗粒物(PM2.5),224,193,147,174,129,13,,12,12,60,55,14,11,2.8,2.2
2023-12-29T0000,2636A,107.0089,33.1138,汉中市,鑫源开发区,细颗粒物(PM2.5),172,144,127,130,128,9,,13,9,39,43,10,13,1.8,1.8
2023-12-29T0000,2637A,107.007,33.0323,汉中市,南郑大河坎水厂,细颗粒物(PM2.5),212,183,149,162,127,10,,11,11,52,44,13,11,2.5,1.8
2023-12-29T0000,1223A,120.2072,30.2111,杭州市,滨江,细颗粒物(PM2.5),209,240,177,159,111,3,,70,55,130,84,13,14,1.6,1.2
2023-12-29T0000,1224A,120.0633,30.2747,杭州市,西溪,细颗粒物(PM2.5),150,155,156,115,112,3,,83,36,42,59,7,9,1.2,1
2023-12-29T0000,1226A,120.3461,30.3153,杭州市,下沙,细颗粒物(PM2.5),266,297,233,216,164,4,,71,28,159,127,11,12,1.6,1.4
2023-12-29T0000,1227A,120.1269,30.2456,杭州市,卧龙桥,细颗粒物(PM2.5),195,193,159,146,114,14,,60,24,41,56,5,7,1.2,1.1
2023-12-29T0000,1228A,120.1903,30.2692,杭州市,浙江农大,细颗粒物(PM2.5),235,273,203,185,142,3,,71,36,124,88,10,12,1.3,1
2023-12-29T0000,1230A,120.1197,30.3119,杭州市,和睦小学,细颗粒物(PM2.5),192,201,192,144,133,4,,67,29,128,90,7,9,1.2,1
2023-12-29T0000,1231A,120.3019,30.4183,杭州市,临平镇,细颗粒物(PM2.5),249,234,201,199,155,10,,104,67,110,84,10,11,1.6,1.3
2023-12-29T0000,1232A,120.2697,30.1819,杭州市,城厢镇,细颗粒物(PM2.5),246,262,206,196,148,3,,67,32,124,95,6,8,2.1,1.5
2023-12-29T0000,1233A,120.0883,30.1808,杭州市,云栖,细颗粒物(PM2.5),203,190,155,153,111,48,,72,54,37,62,6,8,1.2,1
2023-12-29T0000,3557A,119.9464,30.0494,杭州市,镇二中,细颗粒物(PM2.5),189,159,139,142,121,3,,63,22,92,84,5,8,1.4,1.2
2023-12-29T0000,3558A,119.7183,30.2367,杭州市,市府大楼,细颗粒物(PM2.5),206,214,169,156,123,12,,90,46,59,60,5,8,1.3,1.1
2023-12-29T0000,3656A,120.1556,30.2864,杭州市,消防大队,细颗粒物(PM2.5),217,227,192,167,143,4,,63,36,151,101,11,12,1.8,1.3
2023-12-29T0000,1270A,117.1959,31.7848,合肥市,明珠广场,细颗粒物(PM2.5),287,307,303,237,230,3,,21,14,92,83,7,7,1.7,1.7
2023-12-29T0000,1271A,117.3072,31.8764,合肥市,三里街,细颗粒物(PM2.5),291,300,309,241,247,43,,44,27,65,80,9,9,1.1,1.5
2023-12-29T0000,1272A,117.2588,31.8707,合肥市,琥珀山庄,细颗粒物(PM2.5),299,315,286,249,224,37,,43,31,83,80,7,7,1.6,1.8
2023-12-29T0000,1273A,117.1604,31.9052,合肥市,董铺水库,细颗粒物(PM2.5),318,356,260,268,180,26,,57,36,55,54,5,4,1.0,1.4
2023-12-29T0000,1274A,117.25,31.8571,合肥市,长江中路,细颗粒物(PM2.5),289,271,292,239,250,27,,37,27,78,75,8,8,1.6,1.8
2023-12-29T0000,1275A,117.266,31.9436,合肥市,庐阳区,细颗粒物(PM2.5),250,283,268,200,177,30,,47,26,80,67,19,11,1.2,1.5
2023-12-29T0000,1276A,117.336,31.8586,合肥市,瑶海区,细颗粒物(PM2.5),267,254,301,217,251,49,,66,46,64,81,3,4,1.3,1.7
2023-12-29T0000,1277A,117.3027,31.7964,合肥市,包河区,细颗粒物(PM2.5),316,307,304,266,259,17,,36,16,107,93,4,7,1.4,1.7
2023-12-29T0000,1278A,117.2776,31.7385,合肥市,滨湖新区,细颗粒物(PM2.5),282,305,323,232,243,46,,50,36,70,92,4,4,0.9,1.2
2023-12-29T0000,1279A,117.1318,31.8403,合肥市,高新区,细颗粒物(PM2.5),323,317,290,273,246,19,,44,28,84,76,10,9,1.7,1.7
2023-12-29T0000,3464A,117.3803,31.9147,合肥市,高教基地,细颗粒物(PM2.5),241,231,275,191,197,62,,77,62,59,70,5,5,1.0,1.4
2023-12-29T0000,3614A,79.924,37.0877,和田地区,地区环保局,颗粒物(PM10),109,167,253,36,56,40,,84,68,40,23,13,14,0.8,0.5
2023-12-29T0000,3615A,79.9131,37.113,和田地区,市环保局,颗粒物(PM10),122,193,245,42,49,19,,74,54,85,48,46,15,3.0,4.3
2023-12-29T0000,2516A,108.2011,24.715,河池市,东仁乐园,细颗粒物(PM2.5),92,76,76,68,60,22,,116,73,49,26,5,8,0.9,0.8
2023-12-29T0000,2517A,108.0497,24.6947,河池市,市环保站,细颗粒物(PM2.5),152,119,91,116,74,8,,116,67,67,42,6,10,1.3,1
2023-12-29T0000,2518A,108.0983,24.6989,河池市,市疾控中心,细颗粒物(PM2.5),143,159,115,109,77,5,,96,41,70,58,7,10,1.2,1
2023-12-29T0000,1696A,114.6778,23.7569,河源市,源西,,38,38,50,26,29,45,,91,43,33,37,5,10,0.6,0.7
2023-12-29T0000,1697A,114.6944,23.7586,河源市,东埔,,49,48,56,34,33,31,,97,54,48,34,8,13,0.7,0.7
2023-12-29T0000,1698A,114.6892,23.7233,河源市,老城,颗粒物(PM10),55,60,55,27,30,25,,101,48,43,35,6,9,0.7,0.7
2023-12-29T0000,1718A,115.4208,35.2464,菏泽市,气象局,细颗粒物(PM2.5),208,183,124,158,98,22,,72,49,62,49,4,5,1.1,0.8
2023-12-29T0000,1719A,115.4747,35.2375,菏泽市,市政协,细颗粒物(PM2.5),193,180,132,145,97,7,,67,31,77,56,6,7,1.4,1
2023-12-29T0000,3374A,115.5564,35.0891,菏泽市,定陶老年大学,细颗粒物(PM2.5),221,212,147,171,116,4,,54,18,87,64,4,4,1.3,1
2023-12-29T0000,3647A,115.4702,35.2706,菏泽市,菏泽医专,细颗粒物(PM2.5),195,189,122,146,92,12,,70,42,80,54,10,8,1.3,1
2023-12-29T0000,2514A,111.5264,24.4172,贺州市,环保小区,,,96,79,,47,11,,104,50,55,40,8,9,1.0,1
2023-12-29T0000,2515A,111.5608,24.4078,贺州市,政协大楼,细颗粒物(PM2.5),98,114,85,73,55,4,,102,40,62,43,7,9,1.0,0.8
2023-12-29T0000,3534A,111.4744,24.4553,贺州市,西湾,细颗粒物(PM2.5),88,100,85,65,56,7,,108,46,58,41,6,9,0.9,0.8
2023-12-29T0000,2385A,114.17,35.9019,鹤壁市,市监测站,细颗粒物(PM2.5),142,152,113,108,88,0,,57,20,63,49,3,5,1.3,1
2023-12-29T0000,2386A,114.2956,35.7511,鹤壁市,市交警支队,细颗粒物(PM2.5),139,143,102,106,72,3,,49,25,83,61,6,7,1.1,0.9
2023-12-29T0000,2387A,114.2878,35.7306,鹤壁市,迎宾馆,细颗粒物(PM2.5),105,121,80,79,67,3,,53,31,83,52,7,10,1.2,1
2023-12-29T0000,3474A,114.2617,35.6822,鹤壁市,大新区,细颗粒物(PM2.5),110,83,78,83,69,3,,45,18,81,54,5,7,0.8,0.9
2023-12-29T0000,3596A,114.1572,35.9603,鹤壁市,南山宾馆,细颗粒物(PM2.5),179,164,105,135,83,19,,73,28,59,31,9,10,1.5,1.3
2023-12-29T0000,2244A,130.2537,47.3416,鹤岗市,哈啤分公司,细颗粒物(PM2.5),73,80,56,53,42,44,,46,18,39,35,18,16,0.5,0.5
2023-12-29T0000,2245A,130.2684,47.3086,鹤岗市,斯达机电,细颗粒物(PM2.5),75,73,57,55,42,45,,41,35,35,35,15,14,0.5,0.5
2023-12-29T0000,2246A,130.3114,47.3388,鹤岗市,东山纸板厂,细颗粒物(PM2.5),94,,60,70,56,24,,22,9,44,51,21,19,0.7,1.2
2023-12-29T0000,2247A,130.1097,47.3382,鹤岗市,五号水库,细颗粒物(PM2.5),75,75,51,55,37,6,,45,14,62,33,12,11,0.8,0.5
2023-12-29T0000,2263A,127.4833,50.2524,黑河市,交通局,细颗粒物(PM2.5),72,72,38,52,28,29,,43,32,25,16,10,8,0.8,0.6
2023-12-29T0000,2264A,127.5144,50.2341,黑河市,环保局,细颗粒物(PM2.5),69,69,40,50,31,30,,39,36,20,18,11,9,0.7,0.4
2023-12-29T0000,2265A,127.5291,50.2472,黑河市,大黑河岛,,,71,40,65,36,34,,29,29,16,15,4,4,,
2023-12-29T0000,1074A,115.6838,37.7541,衡水市,电机北厂,细颗粒物(PM2.5),159,,79,121,94,34,,52,43,43,47,5,5,0.8,1.1
2023-12-29T0000,1075A,115.6303,37.7316,衡水市,市监测站,细颗粒物(PM2.5),156,129,95,119,82,32,,57,36,52,48,7,7,1.0,1
2023-12-29T0000,3188A,115.6683,37.7217,衡水市,市城管局,细颗粒物(PM2.5),165,,85,125,84,3,,54,19,83,53,5,7,1.0,1
2023-12-29T0000,3459A,115.5989,37.5491,衡水市,地表水厂,细颗粒物(PM2.5),195,,110,146,103,3,,48,15,90,67,7,13,1.3,1.3
2023-12-29T0000,2456A,112.5003,26.9167,衡阳市,原169医院,细颗粒物(PM2.5),201,,120,151,115,58,,100,77,33,35,14,21,1.3,1
2023-12-29T0000,2457A,112.6194,26.9258,衡阳市,衡阳化工总厂,细颗粒物(PM2.5),231,197,153,181,139,63,,121,103,39,33,58,38,1.9,1.3
2023-12-29T0000,2458A,112.6211,26.8956,衡阳市,珠晖区环保局,细颗粒物(PM2.5),224,,135,174,130,65,,109,89,37,43,25,18,1.5,1.2
2023-12-29T0000,2459A,112.6197,26.8733,衡阳市,市委党校,细颗粒物(PM2.5),222,173,141,172,134,76,,133,111,36,36,13,13,1.5,1.3
2023-12-29T0000,2460A,112.6006,26.8919,衡阳市,市监测站,细颗粒物(PM2.5),216,202,165,166,131,69,,122,102,37,36,64,23,2.0,1.5
2023-12-29T0000,2461A,112.5664,26.9056,衡阳市,真空机电公司,细颗粒物(PM2.5),215,180,131,165,122,6,,115,84,90,42,13,21,1.9,1.4
2023-12-29T0000,3399A,112.6703,26.882,衡阳市,师范学院,细颗粒物(PM2.5),206,194,155,156,128,68,,131,107,37,32,16,17,1.4,1.3
2023-12-29T0000,2608A,103.3772,23.3993,红河州,污水处理厂,颗粒物(PM10),57,64,50,35,38,74,,78,71,10,11,5,10,0.5,0.5
2023-12-29T0000,2609A,103.3861,23.35,红河州,监测站,细颗粒物(PM2.5),89,,45,66,37,74,,79,72,15,11,4,6,0.7,0.6
2023-12-29T0000,3038A,103.3758,23.368,红河州,州图书馆,细颗粒物(PM2.5),65,65,43,47,33,74,,79,73,12,10,7,8,0.6,0.5
2023-12-29T0000,1090A,111.6507,40.7517,呼和浩特市,呼市一监,细颗粒物(PM2.5),284,280,265,234,215,4,,18,4,81,76,12,13,2.2,2
2023-12-29T0000,1091A,111.6572,40.8033,呼和浩特市,小召,细颗粒物(PM2.5),270,290,249,220,182,3,,10,3,94,92,14,15,2.4,2
2023-12-29T0000,1094A,111.7516,40.8369,呼和浩特市,如意水处理厂,细颗粒物(PM2.5),256,268,212,206,153,5,,21,5,95,82,13,14,2.7,1.7
2023-12-29T0000,1095A,111.7276,40.8062,呼和浩特市,二十九中,细颗粒物(PM2.5),269,256,233,219,169,8,,20,8,82,79,12,16,2.4,1.8
2023-12-29T0000,1096A,111.5512,40.7866,呼和浩特市,工大金川校区,细颗粒物(PM2.5),292,331,295,242,223,4,,10,4,109,95,9,9,2.6,2
2023-12-29T0000,1097A,111.717,40.7612,呼和浩特市,化肥厂生活区,细颗粒物(PM2.5),272,303,230,222,167,32,,30,28,85,80,14,13,3.1,2.2
2023-12-29T0000,3698A,111.5968,40.8178,呼和浩特市,红旗小学,细颗粒物(PM2.5),263,251,272,213,204,8,,16,11,105,99,16,16,1.8,2
2023-12-29T0000,3699A,111.6518,40.8389,呼和浩特市,海东办,细颗粒物(PM2.5),274,271,218,224,157,5,,14,,110,94,15,14,2.0,1.6
2023-12-29T0000,2192A,119.7594,49.2261,呼伦贝尔市,区环保局,,24,,19,13,18,76,,73,73,8,22,6,6,0.3,0.5
2023-12-29T0000,3061A,119.7512,49.1577,呼伦贝尔市,国华电力东,,29,20,20,20,17,72,,76,76,8,12,5,4,0.3,0.3
2023-12-29T0000,1250A,120.0751,30.8669,湖州市,城西水厂,细颗粒物(PM2.5),134,153,147,102,107,6,,93,44,114,86,7,11,1.1,1
2023-12-29T0000,2873A,120.0875,30.8955,湖州市,仁皇山新区,细颗粒物(PM2.5),183,172,155,138,117,18,,104,69,97,80,8,12,1.3,1.2
2023-12-29T0000,2907A,120.1844,30.8596,湖州市,吴兴区站,细颗粒物(PM2.5),225,213,174,175,117,25,,92,54,91,88,9,12,1.3,1.1
2023-12-29T0000,3562A,120.4148,30.8538,湖州市,南浔区站,细颗粒物(PM2.5),240,260,208,190,158,0,,90,41,129,96,10,13,1.9,1.5
2023-12-29T0000,1607A,120.9092,40.7136,葫芦岛市,龙港区,细颗粒物(PM2.5),69,60,97,50,80,22,,35,23,56,53,29,73,1.0,1.3
2023-12-29T0000,1608A,120.8392,40.7514,葫芦岛市,化工街,细颗粒物(PM2.5),201,222,155,151,104,5,,27,7,61,60,27,29,3.2,2
2023-12-29T0000,1609A,120.8341,40.7073,葫芦岛市,新区,细颗粒物(PM2.5),85,90,95,63,73,7,,23,7,80,70,21,33,0.9,1.3
2023-12-29T0000,1610A,120.8695,40.7677,葫芦岛市,东城区,细颗粒物(PM2.5),160,167,154,122,123,4,,26,10,54,59,21,37,2.7,2.5
2023-12-29T0000,2482A,109.5981,27.5721,怀化市,林科所,细颗粒物(PM2.5),103,93,88,77,70,93,,109,105,4,4,4,6,0.6,1
2023-12-29T0000,2483A,109.9453,27.5444,怀化市,河西地税局,细颗粒物(PM2.5),166,,98,126,65,78,,90,78,24,27,4,5,0.9,0.8
2023-12-29T0000,2484A,109.9781,27.5342,怀化市,市四医院,细颗粒物(PM2.5),140,130,76,107,52,66,,99,83,25,22,9,13,0.9,0.8
2023-12-29T0000,2485A,109.9972,27.5578,怀化市,监测楼,细颗粒物(PM2.5),122,118,110,92,88,54,,94,70,31,28,10,13,1.0,0.8
2023-12-29T0000,2486A,110.0394,27.583,怀化市,市委党校,细颗粒物(PM2.5),127,129,113,96,85,73,,99,88,19,22,17,18,1.0,0.8
2023-12-29T0000,1210A,119.036,33.5981,淮安市,钵池山,细颗粒物(PM2.5),83,63,100,61,100,38,,35,35,26,56,6,7,0.4,0.8
2023-12-29T0000,1211A,119.007,33.575,淮安市,北京南路,细颗粒物(PM2.5),100,,117,75,110,50,,36,36,21,56,4,6,0.7,1.1
2023-12-29T0000,1212A,118.989,33.6067,淮安市,市监测站,细颗粒物(PM2.5),85,73,111,63,98,51,,42,42,23,58,4,5,0.7,1
2023-12-29T0000,1213A,119.135,33.5039,淮安市,楚州区监测站,细颗粒物(PM2.5),97,,127,72,112,56,,42,42,19,59,4,6,0.6,1.1
2023-12-29T0000,1214A,119.0186,33.6297,淮安市,淮阴区监测站,细颗粒物(PM2.5),84,85,113,62,93,29,,36,36,35,59,3,4,0.7,0.9
2023-12-29T0000,3426A,118.8755,33.2894,淮安市,新华书店,细颗粒物(PM2.5),124,103,162,94,142,51,,30,25,20,54,4,19,0.6,1.1
2023-12-29T0000,2282A,116.8004,33.975,淮北市,监测站,细颗粒物(PM2.5),211,254,242,161,180,3,,16,5,62,59,4,5,1.7,1.6
2023-12-29T0000,2283A,116.8091,33.9007,淮北市,烈山区政府,细颗粒物(PM2.5),114,130,184,86,147,3,,26,9,62,57,3,4,1.6,1.3
2023-12-29T0000,3330A,116.8873,33.9836,淮北市,杜集区检察院,颗粒物(PM10),102,154,186,52,122,2,,21,10,61,54,5,6,2.1,1.6
2023-12-29T0000,4017A,116.7923,33.9535,淮北市,市博物馆,颗粒物(PM10),133,215,243,97,176,1,,16,2,59,55,4,6,1.9,1.8
2023-12-29T0000,2277A,116.8305,32.7727,淮南市,潘集区政府,细颗粒物(PM2.5),242,229,289,192,240,2,,69,37,59,71,7,11,1.3,1.5
2023-12-29T0000,2278A,117.0067,32.6524,淮南市,师范学院,细颗粒物(PM2.5),266,284,337,216,255,0,,75,38,76,71,8,10,1.3,1.5
2023-12-29T0000,2279A,116.8569,32.5951,淮南市,谢家集区政府,细颗粒物(PM2.5),269,278,300,219,241,4,,83,50,86,78,7,16,1.4,1.6
2023-12-29T0000,2280A,116.8281,32.633,淮南市,八公山区政府,细颗粒物(PM2.5),269,276,299,219,237,6,,80,44,64,65,7,9,1.3,1.5
2023-12-29T0000,2281A,116.6325,32.6201,淮南市,焦岗湖风景区管理处,细颗粒物(PM2.5),263,280,287,213,216,5,,40,17,46,49,3,3,0.0,1.1
2023-12-29T0000,2894A,117.0566,32.6531,淮南市,经济技术开发区消防队,细颗粒物(PM2.5),236,241,311,186,242,2,,69,37,71,67,5,8,1.2,1.3
2023-12-29T0000,3329A,117.0108,32.5893,淮南市,山南新区,细颗粒物(PM2.5),338,329,342,288,297,13,,76,54,77,69,8,7,1.5,1.6
2023-12-29T0000,2446A,114.9028,30.4742,黄冈市,职工中心,细颗粒物(PM2.5),246,235,212,196,175,32,,65,51,30,28,9,11,1.2,1
2023-12-29T0000,2929A,114.8858,30.4519,黄冈市,红卫路,细颗粒物(PM2.5),253,235,211,203,180,27,,62,46,43,38,7,9,1.3,1.2
2023-12-29T0000,3398A,114.9136,30.4445,黄冈市,市林业局,细颗粒物(PM2.5),247,218,191,197,170,33,,64,46,39,44,7,8,1.3,1.1
2023-12-29T0000,2672A,102.0199,35.5102,黄南藏族自治州,同仁县隆务镇,,45,45,36,20,19,44,,65,56,13,11,6,7,0.9,0.6
2023-12-29T0000,2295A,118.2903,29.6963,黄山市,延安路89号,颗粒物(PM10),65,80,68,26,40,16,,97,53,24,22,5,6,0.4,0.4
2023-12-29T0000,2296A,118.327,29.7178,黄山市,黄山东路89号,细颗粒物(PM2.5),74,71,78,54,46,13,,80,28,34,32,5,5,0.8,0.8
2023-12-29T0000,2297A,118.1371,30.2756,黄山市,黄山区政府5号楼,颗粒物(PM10),57,63,70,38,47,17,,72,37,18,22,4,5,0.8,0.8
2023-12-29T0000,2423A,115.0601,30.2313,黄石市,沈家营,细颗粒物(PM2.5),216,214,195,166,150,3,,69,25,75,65,4,7,1.3,1.1
2023-12-29T0000,2424A,115.0817,30.2006,黄石市,陈家湾,细颗粒物(PM2.5),214,193,191,164,169,91,,62,49,38,71,16,14,1.2,1.4
2023-12-29T0000,2426A,114.8988,30.2019,黄石市,铁山,细颗粒物(PM2.5),206,168,173,156,168,86,,91,51,48,58,17,13,1.3,1.5
2023-12-29T0000,2427A,115.0307,30.2092,黄石市,团城山,细颗粒物(PM2.5),208,203,190,158,158,78,,77,56,62,69,12,11,1.3,1.2
2023-12-29T0000,3149A,115.0235,30.1578,黄石市,笔架山北路,细颗粒物(PM2.5),224,204,170,174,150,79,,94,86,36,47,5,5,1.2,1.1
2023-12-29T0000,1392A,114.4183,23.0528,惠州市,河南岸金山湖子站,颗粒物(PM10),83,116,90,56,39,6,,98,26,75,58,6,8,1.1,1
2023-12-29T0000,1393A,114.4053,23.0822,惠州市,下埔横江三路子站,颗粒物(PM10),86,122,86,62,47,8,,105,34,79,51,9,13,1.8,0.9
2023-12-29T0000,1394A,114.4103,23.1142,惠州市,江北云山西路子站,颗粒物(PM10),79,108,77,52,38,17,,109,53,79,51,13,13,1.0,0.9
2023-12-29T0000,1395A,114.4645,22.7833,惠州市,惠阳区承修路船湖子站,颗粒物(PM10),69,87,82,40,41,47,,121,90,45,48,6,8,0.7,0.7
2023-12-29T0000,1396A,114.5317,22.7422,惠州市,大亚湾管委会子站,颗粒物(PM10),56,62,77,28,34,23,,135,81,70,59,6,7,0.8,0.8
2023-12-29T0000,3314A,114.4338,22.8134,惠州市,惠阳秋长,颗粒物(PM10),96,141,82,62,43,10,,125,80,68,47,8,9,1.2,0.9
2023-12-29T0000,3452A,114.6517,22.775,惠州市,大亚湾霞涌,颗粒物(PM10),55,60,60,37,36,11,,130,67,62,33,7,8,0.0,0.1
2023-12-29T0000,2240A,130.9762,45.3001,鸡西市,环保局,细颗粒物(PM2.5),207,186,66,157,52,5,,37,5,53,34,12,9,2.5,1.2
2023-12-29T0000,2243A,130.9429,45.3039,鸡西市,第一中学,细颗粒物(PM2.5),80,87,62,59,44,8,,45,6,55,34,22,13,0.7,0.6
2023-12-29T0000,3707A,131.0207,45.3073,鸡西市,欧美日汽修厂,细颗粒物(PM2.5),209,198,123,159,89,2,,26,3,57,45,28,27,2.3,1.8
2023-12-29T0000,3709A,130.9967,45.3106,鸡西市,市政设施管理处,细颗粒物(PM2.5),124,150,95,94,70,3,,25,4,51,44,7,7,1.4,1
2023-12-29T0000,2367A,114.9754,27.0803,吉安市,红声器材厂,细颗粒物(PM2.5),89,120,93,66,55,22,,110,72,77,51,10,17,1.0,0.9
2023-12-29T0000,2368A,114.9658,27.0999,吉安市,市森林工业局,细颗粒物(PM2.5),94,94,84,70,76,57,,103,80,40,44,19,18,0.7,0.5
2023-12-29T0000,2369A,114.99,27.1312,吉安市,市环境监测站,细颗粒物(PM2.5),82,94,88,60,55,56,,111,87,45,47,18,16,1.0,1
2023-12-29T0000,2370A,115.0093,27.0968,吉安市,青原区法院,细颗粒物(PM2.5),87,91,87,64,59,10,,106,71,81,52,12,16,0.9,0.9
2023-12-29T0000,1772A,126.54,43.8622,吉林市,哈达湾,细颗粒物(PM2.5),115,105,56,87,45,29,,51,38,46,34,13,14,1.5,1.1
2023-12-29T0000,1773A,126.5844,43.8358,吉林市,东局子,细颗粒物(PM2.5),112,108,56,84,42,18,,45,12,49,34,12,11,1.5,1
2023-12-29T0000,1774A,126.5052,43.8245,吉林市,电力学院,细颗粒物(PM2.5),102,82,87,76,71,22,,39,18,45,45,16,23,1.6,1.8
2023-12-29T0000,1775A,126.6133,43.8972,吉林市,江北,细颗粒物(PM2.5),120,110,70,91,56,23,,41,21,49,47,15,15,1.5,1.4
2023-12-29T0000,1776A,126.555,43.8306,吉林市,江南公园,细颗粒物(PM2.5),122,104,52,92,47,19,,46,24,48,29,14,14,1.5,1
2023-12-29T0000,1778A,126.7061,43.7133,吉林市,丰满,,,,,,,,,,,,,,,,
2023-12-29T0000,2868A,126.4739,43.953,吉林市,九站,细颗粒物(PM2.5),123,114,73,93,60,27,,39,20,49,46,10,14,1.5,1.2
2023-12-29T0000,1299A,116.9862,36.6114,济南市,科干所,细颗粒物(PM2.5),218,205,171,168,134,6,,10,6,94,85,14,15,1.9,1.6
2023-12-29T0000,1300A,116.9376,36.665,济南市,农科所,细颗粒物(PM2.5),150,149,144,115,108,3,,8,3,81,81,12,15,1.5,1.5
2023-12-29T0000,1301A,117.1265,36.6734,济南市,开发区,细颗粒物(PM2.5),199,178,154,149,124,3,,13,4,88,81,8,11,2.1,1.5
2023-12-29T0000,1303A,117.0624,36.6868,济南市,省种子仓库,细颗粒物(PM2.5),218,217,159,168,121,6,,13,6,82,80,9,16,1.8,1.6
2023-12-29T0000,1304A,116.9489,36.6447,济南市,机床二厂,细颗粒物(PM2.5),231,230,172,181,130,6,,10,5,95,85,59,26,2.4,1.7
2023-12-29T0000,1305A,117.0495,36.663,济南市,市监测站,细颗粒物(PM2.5),211,215,160,161,122,7,,14,7,93,85,16,19,1.7,1.3
2023-12-29T0000,1306A,116.7675,36.5484,济南市,长清党校,细颗粒物(PM2.5),211,200,164,161,128,6,,12,7,98,83,12,13,1.6,1.4
2023-12-29T0000,1616A,117.6795,36.229,济南市,技术学院,细颗粒物(PM2.5),279,288,252,229,205,4,,41,11,78,75,9,8,3.2,2.8
2023-12-29T0000,1961A,117.532,36.6868,济南市,东山小学,细颗粒物(PM2.5),218,205,208,168,118,6,,14,6,71,73,6,8,1.3,1.3
2023-12-29T0000,3059A,117.7161,36.2049,济南市,泰兴公司,细颗粒物(PM2.5),301,307,249,251,199,5,,42,10,80,75,10,8,2.9,2.3
2023-12-29T0000,3064A,117.6867,36.2171,济南市,莱芜战役纪念馆,细颗粒物(PM2.5),272,285,250,222,196,4,,36,10,77,74,11,10,2.8,2.4
2023-12-29T0000,3494A,117.1673,36.9782,济南市,济阳区政府,细颗粒物(PM2.5),150,134,120,115,95,13,,38,30,56,55,7,16,1.1,1.1
2023-12-29T0000,3495A,117.1171,36.63,济南市,锦屏中学,细颗粒物(PM2.5),199,171,157,149,132,5,,17,6,99,84,8,10,1.5,1.5
2023-12-29T0000,3682A,116.9814,36.6819,济南市,济南四建,细颗粒物(PM2.5),199,171,133,149,111,4,,10,4,90,88,30,22,2.1,1.5
2023-12-29T0000,1653A,116.6251,35.4302,济宁市,火炬城,细颗粒物(PM2.5),175,150,186,132,147,2,,13,3,91,72,3,6,1.9,1.7
2023-12-29T0000,1655A,116.5491,35.4042,济宁市,电化厂,细颗粒物(PM2.5),247,244,215,197,157,6,,19,8,77,66,6,11,2.0,1.8
2023-12-29T0000,3500A,116.5814,35.3707,济宁市,北湖一中,细颗粒物(PM2.5),201,151,183,151,153,3,,15,3,73,62,2,5,1.7,1.8
2023-12-29T0000,3501A,116.8249,35.5593,济宁市,服务中心,颗粒物(PM10),129,207,228,93,145,16,,11,8,62,62,1,4,1.5,1.6
2023-12-29T0000,3678A,116.5907,35.4054,济宁市,市第七中学,细颗粒物(PM2.5),216,188,194,166,157,2,,17,3,84,66,3,5,1.9,1.7
2023-12-29T0000,2255A,130.2751,46.8028,佳木斯市,佳纺,细颗粒物(PM2.5),168,140,119,127,99,27,,33,18,56,59,7,10,1.3,1.3
2023-12-29T0000,2256A,130.3995,46.8307,佳木斯市,发电厂,细颗粒物(PM2.5),165,,85,125,83,27,,37,22,56,50,12,11,1.0,0.9
2023-12-29T0000,2257A,130.3258,46.7975,佳木斯市,环保局,细颗粒物(PM2.5),202,164,104,152,92,6,,24,8,76,63,8,11,1.2,1.2
2023-12-29T0000,2258A,130.3648,46.8032,佳木斯市,十一中,细颗粒物(PM2.5),179,136,100,135,99,12,,21,14,73,64,10,10,1.5,1.4
2023-12-29T0000,2259A,130.3794,46.7588,佳木斯市,四丰,颗粒物(PM10),55,60,56,34,35,51,,56,50,16,21,1,1,0.9,0.9
2023-12-29T0000,1252A,120.7436,30.778,嘉兴市,清河小学,细颗粒物(PM2.5),183,221,239,138,170,4,,35,9,106,110,6,10,2.2,1.7
2023-12-29T0000,1253A,120.726,30.7478,嘉兴市,嘉兴学院,细颗粒物(PM2.5),210,251,234,160,160,0,,39,10,118,113,8,12,1.9,1.8
2023-12-29T0000,2872A,120.7846,30.7525,嘉兴市,南湖区残联,细颗粒物(PM2.5),198,232,251,148,161,22,,48,34,116,118,7,11,1.8,1.5
2023-12-29T0000,3407A,120.6916,30.7739,嘉兴市,秀洲住建,细颗粒物(PM2.5),195,194,180,146,155,2,,40,8,105,103,9,13,2.2,1.9
2023-12-29T0000,1945A,98.2908,39.7711,嘉峪关市,气象局,颗粒物(PM10),84,117,104,51,40,46,,59,58,36,45,8,14,0.6,0.7
2023-12-29T0000,2884A,98.2672,39.7978,嘉峪关市,酒钢宾馆,颗粒物(PM10),103,156,122,56,41,31,,60,56,50,37,77,28,1.7,0.8
2023-12-29T0000,3248A,98.2643,39.7724,嘉峪关市,雄关区,颗粒物(PM10),88,126,84,34,29,31,,63,59,40,33,24,12,1.1,0.5
2023-12-29T0000,1383A,113.1064,22.6058,江门市,北街,细颗粒物(PM2.5),94,112,114,70,76,4,,119,54,141,117,9,10,2.2,1.5
2023-12-29T0000,1384A,113.0731,22.5835,江门市,西区,颗粒物(PM10),116,181,163,80,83,4,,128,51,142,117,11,14,1.3,1.2
2023-12-29T0000,1385A,113.0219,22.5311,江门市,圭峰西,颗粒物(PM10),68,85,107,48,68,79,,151,122,51,101,8,11,1.1,1.2
2023-12-29T0000,1386A,113.0828,22.5947,江门市,东湖,细颗粒物(PM2.5),112,154,140,84,82,4,,124,52,139,114,9,13,1.7,1.3
2023-12-29T0000,3311A,113.1075,22.5647,江门市,江海富民,颗粒物(PM10),114,177,155,79,76,6,,128,56,159,130,12,14,1.5,1.4
2023-12-29T0000,3449A,113.05,22.4667,江门市,新会银湖,细颗粒物(PM2.5),140,117,110,107,84,24,,152,77,89,90,7,10,1.2,1.1
2023-12-29T0000,1828A,113.227,35.2125,焦作市,市环保局,细颗粒物(PM2.5),198,186,152,148,116,7,,50,26,67,49,8,10,1.4,1.3
2023-12-29T0000,1830A,113.1992,35.2590,焦作市,影视城,,,,,,,,,,,,,,,,
2023-12-29T0000,3169A,113.2725,35.2067,焦作市,太极体育中心,细颗粒物(PM2.5),200,201,158,150,122,7,,53,26,73,48,10,11,1.2,1.2
2023-12-29T0000,3335A,113.3137,35.2641,焦作市,马村街道办,细颗粒物(PM2.5),178,180,150,134,114,6,,59,19,63,48,9,11,1.4,1.2
2023-12-29T0000,3336A,113.2465,35.2373,焦作市,焦作技师学院,细颗粒物(PM2.5),160,144,146,122,120,19,,60,23,46,41,10,13,1.4,0.9
2023-12-29T0000,3477A,113.1656,35.2539,焦作市,中站许衡医院,细颗粒物(PM2.5),139,142,139,106,100,22,,59,28,62,58,11,14,1.1,1.2
2023-12-29T0000,3981A,113.2449,35.1803,焦作市,原李万街道办,细颗粒物(PM2.5),206,188,144,156,128,18,,52,33,51,41,9,10,1.2,1.2
2023-12-29T0000,1708A,116.3701,23.5345,揭阳市,新兴,细颗粒物(PM2.5),95,84,83,71,59,20,,104,46,59,48,11,13,0.9,1
2023-12-29T0000,1709A,116.3264,23.5443,揭阳市,西马,细颗粒物(PM2.5),94,72,85,70,62,35,,106,65,41,40,10,11,1.0,0.9
2023-12-29T0000,1710A,116.3611,23.5626,揭阳市,东兴,细颗粒物(PM2.5),100,113,95,75,58,8,,101,57,72,46,12,13,1.1,1
2023-12-29T0000,1711A,116.4151,23.5294,揭阳市,渔湖,颗粒物(PM10),65,80,82,40,43,35,,98,54,45,41,12,11,0.9,1
2023-12-29T0000,3320A,116.403,23.5699,揭阳市,曲溪,颗粒物(PM10),68,86,78,39,41,10,,97,56,71,43,3,8,0.9,0.7
2023-12-29T0000,1944A,102.1692,38.5167,金昌市,天庆家园,颗粒物(PM10),80,110,122,51,52,20,,60,36,59,38,38,22,1.3,1
2023-12-29T0000,3170A,102.1864,38.5253,金昌市,市委党校,颗粒物(PM10),106,162,141,63,60,15,,62,32,73,38,98,66,1.5,0.8
2023-12-29T0000,4022A,102.1647,38.5371,金昌市,金川区人防中心,颗粒物(PM10),98,146,150,56,50,31,,68,44,45,29,63,26,1.7,1
2023-12-29T0000,1262A,119.647,29.077,金华市,十五中,细颗粒物(PM2.5),258,265,145,208,100,30,,105,63,105,73,7,3,1.1,1
2023-12-29T0000,1263A,119.686,29.1029,金华市,监测站,细颗粒物(PM2.5),256,251,157,206,108,5,,104,48,129,81,6,5,1.2,0.8
2023-12-29T0000,3659A,119.656,29.1131,金华市,气象局,细颗粒物(PM2.5),260,277,183,210,118,3,,101,36,124,88,5,5,1.2,1.1
2023-12-29T0000,1767A,121.1115,41.0879,锦州市,南山,细颗粒物(PM2.5),326,,115,276,122,13,,39,16,75,60,18,17,4.2,2.1
2023-12-29T0000,1768A,121.0533,40.8434,锦州市,开发区,细颗粒物(PM2.5),169,211,150,128,91,8,,34,9,92,68,75,44,1.7,1.5
2023-12-29T0000,1769A,121.1836,41.1119,锦州市,百股街道,细颗粒物(PM2.5),225,195,107,175,110,10,,39,13,67,57,19,41,3.7,2
2023-12-29T0000,1770A,121.1178,41.1222,锦州市,天安街道,细颗粒物(PM2.5),206,170,120,156,125,6,,25,11,71,65,18,20,2.5,2
2023-12-29T0000,1771A,121.1303,41.1386,锦州市,北湖公园,细颗粒物(PM2.5),150,,95,115,111,12,,37,19,75,59,26,19,1.8,1.7
2023-12-29T0000,2160A,112.85,35.5051,晋城市,自来水公司,细颗粒物(PM2.5),156,148,161,119,131,30,,92,84,70,49,7,12,1.3,2.3
2023-12-29T0000,2161A,112.8318,35.4936,晋城市,白云商贸,细颗粒物(PM2.5),128,141,162,97,117,53,,83,66,45,46,7,9,1.2,1.8
2023-12-29T0000,2162A,112.8508,35.4887,晋城市,市环保局,细颗粒物(PM2.5),144,157,168,110,123,11,,80,58,85,48,8,13,1.4,1.7
2023-12-29T0000,2163A,112.8676,35.4897,晋城市,技术学院,细颗粒物(PM2.5),156,159,170,119,132,18,,79,58,88,64,10,14,1.3,2
2023-12-29T0000,2165A,112.8453,35.546,晋城市,白马寺,,,,,,,,,,,,,,,,
2023-12-29T0000,3620A,112.8271,35.4828,晋城市,泽州一中,细颗粒物(PM2.5),122,137,150,92,105,52,,85,75,50,49,11,13,1.5,2
2023-12-29T0000,2171A,112.7532,37.6945,晋中市,锦纶小区,细颗粒物(PM2.5),175,175,187,132,133,4,,40,,78,74,14,14,1.6,1.5
2023-12-29T0000,2173A,112.7249,37.7067,晋中市,南都小区,细颗粒物(PM2.5),180,205,207,136,137,2,,28,5,90,84,14,16,1.9,1.8
2023-12-29T0000,2174A,112.6991,37.6982,晋中市,榆次区政府,细颗粒物(PM2.5),149,163,194,114,129,5,,30,7,82,86,13,16,1.6,1.9
2023-12-29T0000,2865A,112.7195,37.6828,晋中市,榆次三中,细颗粒物(PM2.5),140,153,194,107,133,3,,32,6,76,81,12,14,1.3,1.6
2023-12-29T0000,2439A,112.2014,31.0481,荆门市,竹园小学,,,,195,,151,,,89,66,,30,,10,,1.1
2023-12-29T0000,2440A,112.1969,30.9891,荆门市,掇刀,颗粒物(PM10),110,170,187,,146,70,,96,74,24,25,12,13,0.9,1
2023-12-29T0000,2441A,112.2213,31.0386,荆门市,石化一小,细颗粒物(PM2.5),190,201,205,143,151,72,,89,69,28,36,11,15,0.7,0.8
2023-12-29T0000,3012A,112.1849,31.0362,荆门市,西山林语,细颗粒物(PM2.5),188,170,176,141,144,73,,93,81,28,28,9,12,0.7,0.9
2023-12-29T0000,3547A,112.1632,31.0138,荆门市,龙泉中学南校,细颗粒物(PM2.5),200,187,188,150,149,78,,96,87,22,21,10,12,1.2,1.3
2023-12-29T0000,1844A,112.2494,30.3197,荆州市,市图书馆,细颗粒物(PM2.5),225,,174,175,190,54,,88,74,34,32,9,10,1.1,1.1
2023-12-29T0000,1845A,112.2008,30.3544,荆州市,市委党校,细颗粒物(PM2.5),224,189,196,174,181,55,,92,74,35,31,7,9,1.0,1.1
2023-12-29T0000,3194A,112.2747,30.3122,荆州市,管委会,细颗粒物(PM2.5),229,,177,179,191,52,,84,71,30,35,8,10,1.0,1.2
2023-12-29T0000,3548A,112.1655,30.3364,荆州市,学苑路,细颗粒物(PM2.5),218,174,174,168,173,47,,79,64,34,30,6,8,1.2,1.2
2023-12-29T0000,2342A,117.3102,29.3867,景德镇市,王港中学,,,,,,,,,,,,,,,,
2023-12-29T0000,2343A,117.2117,29.2933,景德镇市,老干部活动中心,细颗粒物(PM2.5),79,79,63,58,48,4,,83,38,52,35,2,4,0.8,0.8
2023-12-29T0000,2344A,117.1894,29.2789,景德镇市,兽医站,颗粒物(PM10),70,89,68,48,38,23,,85,43,42,37,7,8,0.7,0.8
2023-12-29T0000,2345A,117.1547,29.2617,景德镇市,台达陶瓷,细颗粒物(PM2.5),78,90,74,57,41,3,,74,19,62,47,4,10,0.9,0.9
2023-12-29T0000,2346A,117.2461,29.2956,景德镇市,陶研所,颗粒物(PM10),55,60,59,32,30,2,,81,33,47,32,4,5,0.7,0.7
2023-12-29T0000,1803A,115.9872,29.6815,九江市,十里,细颗粒物(PM2.5),263,271,214,213,158,59,,88,71,54,53,12,13,1.6,1.4
2023-12-29T0000,1804A,115.9584,29.7046,九江市,茅山头,细颗粒物(PM2.5),280,264,210,230,168,60,,81,61,55,63,9,11,1.7,1.4
2023-12-29T0000,1805A,115.9877,29.7295,九江市,西园,细颗粒物(PM2.5),259,248,194,209,160,58,,91,69,51,55,9,10,1.5,1.3
2023-12-29T0000,1806A,116.0172,29.6547,九江市,五七二七厂,细颗粒物(PM2.5),279,287,216,229,164,63,,88,79,47,47,16,15,1.6,1.3
2023-12-29T0000,1808A,115.9114,29.6038,九江市,综合工业园,,,,192,,185,,,58,,,59,,15,,1.6
2023-12-29T0000,1809A,116.0721,29.7535,九江市,石化总厂,细颗粒物(PM2.5),259,276,222,209,167,58,,88,55,52,57,11,13,1.5,1.3
2023-12-29T0000,1810A,115.9773,29.5698,九江市,庐山气象台,,33,14,29,14,25,104,,108,108,3,5,6,14,0.2,0.7
2023-12-29T0000,3190A,116.0254,29.6994,九江市,外国语学校,细颗粒物(PM2.5),263,258,192,213,160,58,,76,63,51,57,11,13,1.9,1.6
2023-12-29T0000,2658A,98.5061,39.7443,酒泉市,仓门街子站,颗粒物(PM10),91,132,126,47,48,21,,48,19,43,35,7,10,0.7,0.7
2023-12-29T0000,2659A,98.4989,39.7256,酒泉市,油田生活基地,颗粒物(PM10),78,105,127,40,44,24,,38,21,42,42,8,9,0.5,0.7
2023-12-29T0000,2698A,76.0072,39.4467,喀什地区,巡警大队,颗粒物(PM10),146,242,329,95,117,39,,48,47,58,70,9,9,1.6,2.7
2023-12-29T0000,2699A,75.9755,39.4694,喀什地区,吾办,细颗粒物(PM2.5),198,298,326,148,131,21,,43,29,94,84,15,8,3.1,2.8
2023-12-29T0000,4027A,75.9483,39.4689,喀什地区,老干局,颗粒物(PM10),165,280,323,99,97,22,,53,41,81,60,12,8,2.6,2.7
2023-12-29T0000,1824A,114.3389,34.7781,开封市,肿瘤医院,细颗粒物(PM2.5),132,116,93,100,78,0,,62,23,69,37,4,6,1.1,0.9
2023-12-29T0000,1826A,114.2885,34.7965,开封市,世纪星幼儿园,细颗粒物(PM2.5),119,96,78,90,70,4,,55,26,71,43,4,5,1.1,0.9
2023-12-29T0000,3147A,114.3438,34.8106,开封市,龙亭公园,细颗粒物(PM2.5),132,102,86,100,80,5,,66,25,77,49,4,6,0.0,0.2
2023-12-29T0000,3210A,114.3644,34.7964,开封市,汴京公园,细颗粒物(PM2.5),124,131,95,94,78,2,,54,23,68,44,2,4,1.1,0.9
2023-12-29T0000,3473A,114.2485,34.8306,开封市,技师学院,细颗粒物(PM2.5),127,,80,96,75,11,,63,33,69,48,3,4,0.6,0.5
2023-12-29T0000,3592A,114.4644,34.7556,开封市,祥符区生态环境局,细颗粒物(PM2.5),120,135,109,91,80,4,,55,13,78,52,6,7,0.7,0.7
2023-12-29T0000,1951A,84.895,45.6094,克拉玛依市,长征新村,细颗粒物(PM2.5),123,108,117,93,82,77,,59,59,27,41,10,10,0.9,1
2023-12-29T0000,1952A,84.8988,45.5893,克拉玛依市,南林小区,细颗粒物(PM2.5),109,112,127,82,81,80,,61,61,16,30,1,1,0.7,0.9
2023-12-29T0000,1954A,84.905,44.3396,克拉玛依市,独山子区,颗粒物(PM10),149,248,96,90,70,30,,67,61,45,28,5,6,1.6,0.8
2023-12-29T0000,1955A,85.6979,46.098,克拉玛依市,乌尔禾区商贸楼,细颗粒物(PM2.5),100,106,104,75,76,55,,72,62,33,32,8,9,0.8,0.8
2023-12-29T0000,3612A,85.1045,45.6899,克拉玛依市,白碱滩区新站,细颗粒物(PM2.5),105,136,131,79,82,93,,75,75,17,32,10,9,0.7,0.9
2023-12-29T0000,2697A,76.1454,39.7142,克孜勒苏柯尔克孜自治州,市人民政府,颗粒物(PM10),144,237,208,93,77,62,,59,51,32,25,5,5,1.0,1.1
2023-12-29T0000,3665A,76.1658,39.7157,克孜勒苏柯尔克孜自治州,克州文化中心,颗粒物(PM10),178,306,232,96,81,61,,60,46,37,31,9,9,1.1,1.1
2023-12-29T0000,1450A,102.8204,24.8886,昆明市,呈贡新区,,46,,23,32,17,35,,73,54,29,20,8,10,0.5,0.4
2023-12-29T0000,1451A,102.6251,24.9608,昆明市,西山森林公园,,19,18,15,6,13,58,,80,70,8,6,9,7,0.6,0.5
2023-12-29T0000,1452A,102.7252,25.0902,昆明市,龙泉镇,颗粒物(PM10),55,60,40,32,23,4,,67,29,51,29,9,8,1.3,1.1
2023-12-29T0000,1453A,102.7266,25.0375,昆明市,东风东路,,32,32,36,18,23,28,,65,48,33,30,9,9,0.5,0.6
2023-12-29T0000,1454A,102.6742,25.0669,昆明市,金鼎山,细颗粒物(PM2.5),70,56,55,51,30,10,,69,46,53,35,10,34,1.0,0.7
2023-12-29T0000,1455A,102.6644,25.0401,昆明市,碧鸡广场,颗粒物(PM10),56,61,38,37,22,8,,70,40,56,32,9,9,0.7,0.8
2023-12-29T0000,3179A,102.7494,25.0119,昆明市,官渡区博物馆,,35,27,45,24,28,26,,70,53,30,29,9,9,0.5,0.9
2023-12-29T0000,3375A,102.8017,24.8336,昆明市,青年创业园,,30,30,29,18,17,37,,78,57,23,22,21,14,0.9,0.7
2023-12-29T0000,3550A,102.7997,24.9786,昆明市,昆明学院,,33,33,34,21,21,42,,76,55,17,22,11,10,0.6,0.7
2023-12-29T0000,3551A,102.5967,24.6736,昆明市,晋宁区生态环境分局,细颗粒物(PM2.5),64,68,38,46,26,11,,72,48,40,18,5,5,0.6,0.7
2023-12-29T0000,3552A,102.6678,24.9856,昆明市,云天化总部,,28,28,25,17,15,11,,78,58,48,24,8,8,0.5,0.6
2023-12-29T0000,1456A,91.1319,29.6514,拉萨市,八廓街,,29,29,27,12,13,69,,88,86,39,20,7,10,0.6,0.4
2023-12-29T0000,1457A,91.1221,29.6747,拉萨市,市环保局,,26,24,36,9,16,81,,87,86,17,24,6,9,0.6,0.7
2023-12-29T0000,1458A,91.0874,29.6475,拉萨市,区监测站,,27,20,22,8,12,84,,94,94,16,22,5,9,0.4,0.4
2023-12-29T0000,1459A,91.1774,29.6541,拉萨市,西藏大学,,27,25,23,8,9,86,,93,93,10,11,5,9,0.7,0.7
2023-12-29T0000,1460A,90.9798,29.6588,拉萨市,区辐射站,,30,16,23,7,11,94,,91,91,5,19,5,6,0.6,0.7
2023-12-29T0000,1461A,91.0834,29.6292,拉萨市,拉萨火车站,,29,17,24,7,13,92,,94,94,8,24,4,7,0.4,0.7
2023-12-29T0000,2520A,109.2203,23.7256,来宾市,来宾技工学校,细颗粒物(PM2.5),119,141,127,90,88,2,,125,60,68,48,8,14,1.3,1.2
2023-12-29T0000,3535A,109.1781,23.7297,来宾市,兴宾区政府,细颗粒物(PM2.5),122,139,111,92,79,56,,144,109,40,27,9,13,1.1,1.1
2023-12-29T0000,4002A,109.2416,23.7461,来宾市,中南小学,细颗粒物(PM2.5),128,193,151,97,97,4,,135,45,68,55,10,13,1.7,1.6
2023-12-29T0000,1476A,103.631,36.1031,兰州市,兰炼宾馆,细颗粒物(PM2.5),152,170,137,116,87,10,,32,15,107,89,29,34,3.2,2.1
2023-12-29T0000,1477A,104.1373,35.9454,兰州市,榆中兰大校区,,,,,,,,,,,,,,,,
2023-12-29T0000,1478A,103.8412,36.0726,兰州市,生物制品所,细颗粒物(PM2.5),124,137,146,94,93,8,,22,11,81,84,21,29,1.6,2.3
2023-12-29T0000,1479A,103.831,36.0464,兰州市,铁路设计院,细颗粒物(PM2.5),122,144,157,92,103,4,,13,6,95,95,28,37,2.3,3.3
2023-12-29T0000,3186A,103.7158,36.1058,兰州市,教育港,细颗粒物(PM2.5),108,117,131,81,81,4,,24,8,95,92,28,32,2.0,2.3
2023-12-29T0000,3241A,103.7439,36.0842,兰州市,百合公园,细颗粒物(PM2.5),130,137,139,99,84,8,,27,13,96,89,23,29,2.1,2.3
2023-12-29T0000,3242A,103.9611,35.998,兰州市,和平,细颗粒物(PM2.5),92,100,122,68,81,31,,43,28,57,67,18,30,1.3,2.1
2023-12-29T0000,3245A,103.6633,36.533,兰州新区,新区管委会,颗粒物(PM10),102,153,90,66,53,41,,44,38,33,38,11,28,0.9,1.2
2023-12-29T0000,3246A,103.6975,36.4789,兰州新区,舟曲中学,颗粒物(PM10),84,118,105,58,56,51,,41,41,33,50,14,27,0.6,0.9
2023-12-29T0000,1067A,116.6708,39.5111,廊坊市,药材公司,细颗粒物(PM2.5),127,132,85,96,54,2,,39,18,97,69,2,3,1.2,1.1
2023-12-29T0000,1068A,116.7214,39.5589,廊坊市,开发区,细颗粒物(PM2.5),137,126,80,104,57,0,,32,14,92,75,3,4,1.2,1
2023-12-29T0000,1070A,116.7244,39.5269,廊坊市,北华航天学院,细颗粒物(PM2.5),147,132,81,112,61,0,,38,16,80,62,3,4,1.2,1
2023-12-29T0000,2919A,116.7022,39.5453,廊坊市,河北工业大学,细颗粒物(PM2.5),129,134,83,98,53,0,,35,16,80,65,3,4,1.1,0.9
2023-12-29T0000,2535A,103.7723,29.5462,乐山市,花湖湾,细颗粒物(PM2.5),255,303,227,205,165,1,,35,10,66,52,4,5,1.1,0.8
2023-12-29T0000,2536A,103.7627,29.5844,乐山市,牛耳桥,细颗粒物(PM2.5),244,224,193,194,164,3,,15,7,64,61,4,4,1.4,1.2
2023-12-29T0000,2537A,103.7508,29.6006,乐山市,市第三水厂,细颗粒物(PM2.5),225,233,193,175,147,4,,20,10,71,60,4,5,1.5,1.2
2023-12-29T0000,2538A,103.7571,29.5664,乐山市,市监测站,细颗粒物(PM2.5),240,222,176,190,151,11,,17,14,65,57,7,7,1.1,1.1
2023-12-29T0000,3361A,103.7311,29.5628,乐山市,理工大学,细颗粒物(PM2.5),235,226,199,185,161,2,,14,10,66,62,7,7,1.2,1.1
2023-12-29T0000,2598A,100.2143,26.8576,丽江市,西南郊,,,,,,,,,,,,,,,,
2023-12-29T0000,2599A,100.2497,26.8802,丽江市,丽江古城,,22,19,31,11,14,70,,77,73,12,15,8,8,0.4,0.4
2023-12-29T0000,2600A,100.2203,26.8906,丽江市,市中心,,22,8,14,2,5,68,,73,68,8,13,6,7,0.5,0.5
2023-12-29T0000,1267A,119.914,28.4514,丽水市,监测站大楼,细颗粒物(PM2.5),99,95,69,74,48,12,,69,17,61,51,7,10,1.2,1.2
2023-12-29T0000,1268A,119.93,28.4586,丽水市,莲都小学,细颗粒物(PM2.5),102,112,84,76,71,5,,106,65,65,39,4,5,0.8,0.7
2023-12-29T0000,1269A,119.879,28.4231,丽水市,余庄前,细颗粒物(PM2.5),84,90,62,62,41,16,,64,30,26,31,4,5,0.7,0.6
2023-12-29T0000,1173A,119.176,34.5885,连云港市,市环境监测站,细颗粒物(PM2.5),98,80,91,73,79,7,,48,16,58,56,8,11,0.8,0.8
2023-12-29T0000,3000A,119.3581,34.6972,连云港市,德源药业,细颗粒物(PM2.5),67,63,99,48,68,1,,39,10,78,69,6,7,1.0,0.9
2023-12-29T0000,3007A,119.178,34.844,连云港市,新城一中,细颗粒物(PM2.5),129,120,95,98,75,3,,60,15,78,58,9,11,1.3,1.2
2023-12-29T0000,3008A,119.3608,34.7519,连云港市,胡沟管理处,细颗粒物(PM2.5),85,73,68,63,56,0,,52,17,76,61,8,10,1.0,0.9
2023-12-29T0000,3009A,119.1478,34.5911,连云港市,矿山设计院,"颗粒物(PM10),细颗粒物(PM2.5)",52,53,83,36,56,14,,52,14,46,51,4,7,0.9,0.8
2023-12-29T0000,3434A,119.2413,34.6539,连云港市,工贸学校,颗粒物(PM10),65,80,100,46,72,3,,68,30,65,36,7,10,1.0,0.9
2023-12-29T0000,3664A,119.4172,34.7341,连云港市,连云街道,细颗粒物(PM2.5),74,72,90,54,65,40,,48,37,19,38,2,13,0.9,0.9
2023-12-29T0000,2571A,102.3431,27.8099,凉山彝族自治州,青龙寺,,20,20,36,10,14,59,,89,71,7,8,5,5,0.7,0.7
2023-12-29T0000,2572A,102.2721,27.8415,凉山彝族自治州,邛海宾馆,细颗粒物(PM2.5),69,54,65,50,48,38,,86,64,26,20,12,12,0.8,0.8
2023-12-29T0000,2573A,102.2625,27.898,凉山彝族自治州,西昌市政府,,35,33,46,24,37,57,,87,73,12,16,15,16,0.8,0.8
2023-12-29T0000,2574A,102.2685,27.8851,凉山彝族自治州,凉山州政府,细颗粒物(PM2.5),72,72,60,52,49,30,,80,59,30,22,12,13,1.0,0.9
2023-12-29T0000,2575A,102.237,27.8914,凉山彝族自治州,长安,,32,29,54,22,41,59,,82,71,14,22,17,18,0.6,0.8
2023-12-29T0000,2212A,123.2,41.1953,辽阳市,宏伟区,细颗粒物(PM2.5),104,115,71,78,57,4,,38,7,67,44,14,16,1.6,1.2
2023-12-29T0000,2213A,123.1683,41.2495,辽阳市,新华园,细颗粒物(PM2.5),153,170,102,117,91,4,,23,7,75,59,34,25,2.5,2
2023-12-29T0000,2214A,123.2354,41.2639,辽阳市,滨河路,细颗粒物(PM2.5),165,,70,125,76,5,,34,6,71,46,14,14,2.0,1.4
2023-12-29T0000,2215A,123.149,41.2991,辽阳市,铁西工业园,细颗粒物(PM2.5),222,,98,172,100,2,,24,4,68,52,23,20,2.9,1.8
2023-12-29T0000,2227A,125.1358,42.8845,辽源市,环保局,细颗粒物(PM2.5),107,103,84,80,67,9,,49,18,48,45,10,14,2.2,1.7
2023-12-29T0000,3239A,125.0764,42.9078,辽源市,银鹰制药,细颗粒物(PM2.5),90,92,82,67,68,12,,49,27,55,42,29,19,2.1,1.4
2023-12-29T0000,1625A,115.9848,36.4372,聊城市,区政府,细颗粒物(PM2.5),144,149,130,110,95,6,,27,8,72,73,5,7,1.2,1.4
2023-12-29T0000,2878A,116.0072,36.4343,聊城市,聊大东校,细颗粒物(PM2.5),149,139,120,114,95,7,,30,9,54,52,4,6,0.8,0.9
2023-12-29T0000,3200A,115.9819,36.4978,聊城市,监控中心,细颗粒物(PM2.5),199,180,143,149,117,11,,30,13,79,72,3,4,1.2,1.2
2023-12-29T0000,3513A,116.0445,36.4361,聊城市,九州社区,细颗粒物(PM2.5),145,138,120,111,91,9,,27,9,70,68,5,5,0.9,1.1
2023-12-29T0000,4018A,116.0567,36.4608,聊城市,星美广场,细颗粒物(PM2.5),140,139,124,107,95,11,,27,11,75,68,2,3,0.9,1.1
2023-12-29T0000,2632A,94.3681,29.6376,林芝市,林芝监测站,,20,6,7,2,4,61,,70,67,3,4,7,7,0.4,0.3
2023-12-29T0000,2633A,94.3616,29.6616,林芝市,林芝人民医院,,17,12,13,8,7,52,,67,63,8,8,8,8,0.6,0.6
2023-12-29T0000,2603A,100.0781,23.8982,临沧市,市环保局,,46,,26,32,19,24,,60,38,12,13,7,7,0.4,0.5
2023-12-29T0000,2604A,100.0894,23.8822,临沧市,市气象局,,,43,31,37,26,14,,54,,22,15,,6,0.5,0.5
2023-12-29T0000,1733A,111.5531,36.0783,临汾市,临钢医院,细颗粒物(PM2.5),260,294,256,210,181,2,,30,9,74,69,14,20,2.1,2
2023-12-29T0000,1734A,111.5028,36.0714,临汾市,技工学校,细颗粒物(PM2.5),284,303,248,234,185,5,,49,22,84,76,18,31,2.4,2.2
2023-12-29T0000,1736A,111.5018,36.0855,临汾市,市委,细颗粒物(PM2.5),277,320,250,227,176,6,,60,24,86,78,14,29,2.4,2.2
2023-12-29T0000,3018A,111.505,36.1014,临汾市,唐尧大酒店,细颗粒物(PM2.5),284,285,224,234,175,4,,35,11,87,77,19,25,2.3,2.2
2023-12-29T0000,3668A,111.5036,36.0414,临汾市,城南,细颗粒物(PM2.5),266,277,238,216,170,1,,41,11,90,71,17,19,2.3,2
2023-12-29T0000,2667A,103.2069,35.5993,临夏回族自治州,环保局,颗粒物(PM10),109,167,106,59,43,2,,60,28,56,44,29,25,3.5,2.6
2023-12-29T0000,2668A,103.2417,35.6057,临夏回族自治州,建设大厦,颗粒物(PM10),92,133,91,63,44,12,,70,34,45,34,11,14,1.9,1.6
2023-12-29T0000,1618A,118.3429,35.0532,临沂市,沂河小区,细颗粒物(PM2.5),255,266,182,205,146,10,,55,31,96,64,14,9,1.7,1.1
2023-12-29T0000,1619A,118.295,35.0583,临沂市,鲁南制药厂,细颗粒物(PM2.5),320,378,198,270,149,6,,62,27,92,65,35,17,2.9,1.6
2023-12-29T0000,1620A,118.2794,34.9976,临沂市,新光毛纺厂,细颗粒物(PM2.5),214,232,180,164,135,4,,58,17,89,72,8,10,1.4,1.2
2023-12-29T0000,1621A,118.3956,35.0888,临沂市,河东保险公司,细颗粒物(PM2.5),278,276,188,228,156,5,,59,18,91,67,14,8,2.6,1.6
2023-12-29T0000,3370A,118.3564,35.0215,临沂市,十里堡居委,细颗粒物(PM2.5),195,185,173,146,132,3,,64,24,78,62,6,8,1.6,1.3
2023-12-29T0000,3496A,118.3604,35.1084,临沂市,南坊新区,细颗粒物(PM2.5),250,246,171,200,136,2,,64,31,100,69,12,9,2.1,1.5
2023-12-29T0000,3860A,118.3920,35.0300,临沂市,皇山花园小区,细颗粒物(PM2.5),138,158,170,105,125,2,,63,19,94,80,5,8,1.6,1.4
2023-12-29T0000,1870A,109.4856,24.3895,柳州市,柳东小学,细颗粒物(PM2.5),117,108,68,88,59,75,,137,104,38,29,45,22,0.7,0.7
2023-12-29T0000,1871A,109.4157,24.3277,柳州市,环保监测站,细颗粒物(PM2.5),108,109,84,81,71,4,,110,60,98,65,9,16,1.6,1
2023-12-29T0000,1872A,109.389,24.341,柳州市,河西水厂,颗粒物(PM10),119,188,137,86,75,0,,112,45,90,54,12,17,1.9,1.6
2023-12-29T0000,1873A,109.4311,24.2921,柳州市,市四中,细颗粒物(PM2.5),124,139,116,94,79,5,,112,50,86,60,8,13,2.9,1.6
2023-12-29T0000,1874A,109.4006,24.3631,柳州市,市九中,颗粒物(PM10),100,150,126,64,87,4,,106,46,85,53,6,14,1.3,1.2
2023-12-29T0000,1875A,109.4958,24.3134,柳州市,古亭山,细颗粒物(PM2.5),58,46,61,41,46,3,,107,54,82,48,12,14,0.9,1
2023-12-29T0000,3402A,109.5422,24.3996,柳州市,市二中,细颗粒物(PM2.5),92,87,83,68,61,45,,130,68,36,39,15,12,0.8,0.6
2023-12-29T0000,2307A,116.5079,31.737,六安市,监测大楼,细颗粒物(PM2.5),323,293,250,273,235,7,,46,30,82,58,4,5,1.8,1.6
2023-12-29T0000,2308A,116.4738,31.7643,六安市,皖西学院,细颗粒物(PM2.5),290,301,240,240,188,14,,58,45,67,48,17,7,1.7,1.5
2023-12-29T0000,2309A,116.4996,31.7905,六安市,朝阳厂,细颗粒物(PM2.5),295,282,229,245,202,8,,47,37,67,49,7,5,1.8,1.5
2023-12-29T0000,2310A,116.5567,31.7886,六安市,开发区,细颗粒物(PM2.5),288,327,300,238,217,5,,52,26,76,67,6,6,1.6,1.5
2023-12-29T0000,2576A,104.8,26.5892,六盘水市,窑上,,,,,,,,,,,,,,,,
2023-12-29T0000,2577A,104.83,26.5917,六盘水市,黄土坡,细颗粒物(PM2.5),74,63,78,54,56,26,,88,66,30,32,9,15,1.0,1.1
2023-12-29T0000,2578A,104.89,26.5939,六盘水市,水钢,细颗粒物(PM2.5),122,131,78,92,60,41,,108,94,51,18,5,5,1.0,0.7
2023-12-29T0000,2579A,104.8475,26.5894,六盘水市,民中,细颗粒物(PM2.5),117,99,73,88,63,14,,88,71,65,30,28,15,2.8,1
2023-12-29T0000,2580A,104.9544,26.5506,六盘水市,双水,细颗粒物(PM2.5),93,88,69,69,51,55,,108,97,24,14,8,8,0.9,0.7
2023-12-29T0000,2335A,117.0189,25.1181,龙岩市,龙岩师专,,,,,,,,,,,,,,,,
2023-12-29T0000,2336A,117.0217,25.1033,龙岩市,龙岩市监测站,,48,48,52,31,31,3,,88,24,52,40,6,11,0.9,0.8
2023-12-29T0000,2337A,117.0258,25.0661,龙岩市,闽西职业技术学院,颗粒物(PM10),54,58,58,28,31,2,,79,20,50,41,13,11,0.8,0.9
2023-12-29T0000,2338A,117.0196,25.0306,龙岩市,龙岩学院,,38,35,46,26,28,28,,79,46,22,29,4,7,0.3,0.5
2023-12-29T0000,2665A,105.0822,33.3261,陇南市,汉王镇固水子,,,,,,,,,,,,,,,,
2023-12-29T0000,2885A,104.9339,33.3826,陇南市,滨江中学,细颗粒物(PM2.5),100,107,98,75,60,3,,16,,64,52,32,24,2.3,2.1
2023-12-29T0000,3247A,104.955,33.371,陇南市,市总工会,,,,93,,63,,,60,,,42,,6,,0.9
2023-12-29T0000,2487A,111.9589,27.8901,娄底市,电视发射台,细颗粒物(PM2.5),199,175,120,149,92,80,,128,105,28,22,5,7,1.4,1.2
2023-12-29T0000,2488A,111.9975,27.725,娄底市,市监测站,细颗粒物(PM2.5),260,246,172,210,142,61,,121,99,51,37,8,10,1.3,1
2023-12-29T0000,2489A,112.0194,27.7314,娄底市,市委党校,细颗粒物(PM2.5),256,254,176,206,138,77,,114,97,65,58,5,7,1.2,1
2023-12-29T0000,2490A,111.9561,27.7569,娄底市,涟钢,细颗粒物(PM2.5),244,253,176,194,123,69,,112,98,52,42,7,9,2.1,1.6
2023-12-29T0000,2491A,111.9892,27.7044,娄底市,市政府,细颗粒物(PM2.5),254,235,161,204,131,60,,122,101,60,44,6,8,1.3,1.2
2023-12-29T0000,1893A,105.4324,28.9634,泸州市,九狮山,细颗粒物(PM2.5),225,,183,175,165,8,,31,18,27,30,5,6,0.7,0.7
2023-12-29T0000,1894A,105.4427,28.9063,泸州市,小市上码头,细颗粒物(PM2.5),228,220,209,178,166,9,,24,16,68,60,6,5,1.2,1.2
2023-12-29T0000,1895A,105.4241,28.8573,泸州市,兰田宪桥,细颗粒物(PM2.5),250,230,198,200,171,7,,39,27,49,37,6,6,1.2,1.1
2023-12-29T0000,1896A,105.4379,28.8833,泸州市,市环监站,细颗粒物(PM2.5),242,207,190,192,173,17,,27,17,48,47,12,12,0.8,1.1
2023-12-29T0000,3490A,105.3617,28.7703,泸州市,纳溪区环保局,细颗粒物(PM2.5),221,185,182,171,156,6,,35,14,48,45,6,6,1.3,1.1
2023-12-29T0000,2183A,111.1406,37.5211,吕梁市,环保局,细颗粒物(PM2.5),119,164,138,90,81,2,,30,4,79,81,7,7,1.2,1.1
2023-12-29T0000,2185A,111.1297,37.5136,吕梁市,自来水公司,细颗粒物(PM2.5),135,146,135,103,90,5,,35,6,71,69,10,11,1.0,1.1
2023-12-29T0000,2867A,111.1283,37.51,吕梁市,马茂庄小学,细颗粒物(PM2.5),149,184,149,114,94,2,,25,3,76,73,6,6,1.5,1.3
2023-12-29T0000,1812A,112.3931,34.6516,洛阳市,市委党校,细颗粒物(PM2.5),253,249,218,203,180,5,,53,29,86,63,8,8,1.7,1.6
2023-12-29T0000,1814A,112.4657,34.6871,洛阳市,豫西宾馆,细颗粒物(PM2.5),224,254,237,174,160,13,,56,24,74,65,8,9,1.5,1.5
2023-12-29T0000,1815A,112.494,34.6886,洛阳市,河南林校,细颗粒物(PM2.5),229,230,205,179,157,5,,53,22,78,62,7,8,1.4,1.4
2023-12-29T0000,1816A,112.3844,34.623,洛阳市,开发区管委会,细颗粒物(PM2.5),242,245,194,192,155,2,,64,32,93,59,4,4,1.6,1.4
2023-12-29T0000,1817A,112.4267,34.6258,洛阳市,市委新办公区,细颗粒物(PM2.5),269,237,196,219,185,5,,61,26,86,57,5,5,1.9,1.6
2023-12-29T0000,3340A,112.6005,34.6326,洛阳市,伊滨,细颗粒物(PM2.5),248,283,236,198,168,2,,46,17,80,60,3,4,1.9,1.6
2023-12-29T0000,3341A,112.4951,34.6332,洛阳市,中移产业园,细颗粒物(PM2.5),260,228,186,210,174,3,,60,24,84,57,8,6,1.9,1.5
2023-12-29T0000,3593A,112.5736,34.8993,洛阳市,吉利监测站,细颗粒物(PM2.5),232,222,208,182,175,2,,39,13,68,63,5,6,1.6,1.6
2023-12-29T0000,3635A,112.3677,34.662,洛阳市,河科大西苑校区,细颗粒物(PM2.5),263,283,234,213,180,3,,54,30,90,70,7,8,1.6,1.3
2023-12-29T0000,3636A,112.4388,34.6781,洛阳市,英才小学,细颗粒物(PM2.5),235,244,233,185,171,18,,48,22,68,63,7,8,1.5,1.6
2023-12-29T0000,2399A,114.051,33.5699,漯河市,三五一五工厂,细颗粒物(PM2.5),195,173,135,146,111,36,,70,48,45,41,5,4,1.0,0.9
2023-12-29T0000,2400A,114.0055,33.5698,漯河市,漯河大学,细颗粒物(PM2.5),188,161,126,141,104,48,,77,60,49,46,6,7,1.1,1
2023-12-29T0000,2401A,114.0138,33.5828,漯河市,市水利局,细颗粒物(PM2.5),188,163,130,141,107,43,,74,54,36,33,8,8,1.0,0.9
2023-12-29T0000,2402A,114.0261,33.5698,漯河市,市广电局,细颗粒物(PM2.5),179,171,130,135,99,38,,72,56,50,43,4,4,1.0,0.9
2023-12-29T0000,3478A,113.9749,33.5664,漯河市,市图书馆,细颗粒物(PM2.5),199,169,142,149,112,33,,66,52,43,40,6,6,0.9,0.8
2023-12-29T0000,3479A,114.0967,33.5906,漯河市,召陵区卫健委,细颗粒物(PM2.5),210,199,154,160,119,15,,61,25,62,49,6,6,0.8,0.8
2023-12-29T0000,1798A,118.5092,31.6837,马鞍山市,湖东路四小,细颗粒物(PM2.5),192,,163,144,168,54,,67,52,59,85,9,14,1.0,1.5
2023-12-29T0000,1799A,118.5024,31.6449,马鞍山市,开发区,细颗粒物(PM2.5),209,163,204,159,159,55,,56,44,54,83,10,15,1.2,1.6
2023-12-29T0000,1800A,118.5228,31.7231,马鞍山市,慈湖,细颗粒物(PM2.5),203,173,208,153,177,52,,43,39,55,82,8,11,1.4,1.8
2023-12-29T0000,1802A,118.6245,31.7241,马鞍山市,濮塘,细颗粒物(PM2.5),144,168,178,110,115,48,,63,58,50,68,7,8,0.9,1.2
2023-12-29T0000,3633A,118.4918,31.6809,马鞍山市,雨山,细颗粒物(PM2.5),188,165,211,141,164,58,,66,49,57,81,10,15,0.9,1.5
2023-12-29T0000,1686A,111.0286,21.4688,茂名市,电白南海,细颗粒物(PM2.5),55,58,90,39,51,135,,193,165,24,38,8,16,0.8,1
2023-12-29T0000,1687A,110.9294,21.6533,茂名市,茂石化七小,细颗粒物(PM2.5),70,75,93,51,57,150,,176,166,21,26,11,28,0.6,0.8
2023-12-29T0000,1688A,110.9107,21.6687,茂名市,健康路,颗粒物(PM10),62,73,85,41,54,145,,176,168,30,35,8,29,0.6,0.9
2023-12-29T0000,1689A,110.8592,21.6828,茂名市,高岭,细颗粒物(PM2.5),85,110,103,63,61,97,,163,142,47,43,28,23,0.6,0.6
2023-12-29T0000,3450A,111.01,21.5165,茂名市,电白水东,颗粒物(PM10),59,68,95,41,53,126,,178,156,24,34,17,25,0.7,0.8
2023-12-29T0000,2539A,104.0308,30.0478,眉山市,黑龙滩水库,细颗粒物(PM2.5),178,218,153,134,102,4,,52,12,56,32,5,5,1.1,0.8
2023-12-29T0000,2540A,103.8416,30.0874,眉山市,气象局,细颗粒物(PM2.5),260,213,183,210,172,6,,13,8,66,73,7,8,1.5,1.3
2023-12-29T0000,3137A,103.8578,30.0744,眉山市,市委党校,细颗粒物(PM2.5),262,254,199,212,170,4,,13,6,88,84,8,9,1.4,1
2023-12-29T0000,3148A,103.8291,30.0564,眉山市,区人社局,细颗粒物(PM2.5),262,,159,212,171,5,,13,6,74,82,14,12,1.4,1.4
2023-12-29T0000,1690A,116.1231,24.3284,梅州市,梅江月梅,颗粒物(PM10),55,59,51,32,33,3,,88,41,61,41,10,13,0.5,0.6
2023-12-29T0000,1691A,116.0797,24.2719,梅州市,梅县新城,,37,37,60,20,36,24,,78,32,36,41,3,7,0.6,0.8
2023-12-29T0000,1692A,116.1248,24.2654,梅州市,环境监控中心,细颗粒物(PM2.5),55,57,58,39,34,5,,80,33,63,44,10,13,0.6,0.6
2023-12-29T0000,3315A,116.1233,24.2991,梅州市,梅龙,细颗粒物(PM2.5),55,51,47,39,33,9,,78,34,43,34,5,10,0.6,0.6
2023-12-29T0000,1878A,104.7778,31.4741,绵阳市,富乐山,细颗粒物(PM2.5),156,154,136,119,115,2,,12,3,67,61,8,7,1.5,1.2
2023-12-29T0000,1879A,104.7563,31.4535,绵阳市,市人大,细颗粒物(PM2.5),180,176,154,136,122,2,,7,3,66,67,3,3,1.7,1.4
2023-12-29T0000,1880A,104.6697,31.4668,绵阳市,高新区自来水公司,细颗粒物(PM2.5),163,196,176,124,115,2,,8,3,56,55,12,9,1.3,1.1
2023-12-29T0000,1881A,104.7287,31.5075,绵阳市,三水厂,细颗粒物(PM2.5),185,199,170,139,127,5,,11,5,53,59,9,8,1.5,1.4
2023-12-29T0000,3491A,104.69,31.5322,绵阳市,西科大附属小学,细颗粒物(PM2.5),202,192,157,152,118,4,,14,5,62,62,7,6,1.3,1.2
2023-12-29T0000,3492A,104.5648,31.5343,绵阳市,安州区旅游局,细颗粒物(PM2.5),203,197,160,153,121,3,,25,13,48,53,7,7,1.2,1.1
2023-12-29T0000,1784A,129.61,44.561,牡丹江市,环保大楼,细颗粒物(PM2.5),95,100,76,71,54,8,,40,13,60,48,10,13,1.3,0.9
2023-12-29T0000,1785A,129.6115,44.5782,牡丹江市,文化广场,细颗粒物(PM2.5),94,74,83,70,68,12,,32,11,54,49,15,17,1.2,1.2
2023-12-29T0000,1786A,129.5904,44.5963,牡丹江市,第一医院,细颗粒物(PM2.5),103,94,87,77,70,5,,29,6,59,53,14,15,1.5,1.2
2023-12-29T0000,1787A,129.6364,44.6075,牡丹江市,机车工厂,细颗粒物(PM2.5),95,94,80,71,58,7,,26,9,59,54,12,16,1.4,1.1
2023-12-29T0000,1788A,129.6386,44.5462,牡丹江市,第一中学,细颗粒物(PM2.5),74,70,76,54,58,17,,27,9,29,44,7,12,1.1,1
2023-12-29T0000,2531A,105.0703,29.61,内江市,市监测站,细颗粒物(PM2.5),216,,130,166,141,20,,49,32,53,43,7,8,1.2,1.1
2023-12-29T0000,2532A,105.0717,29.5947,内江市,东兴区政府,细颗粒物(PM2.5),195,155,134,146,121,9,,43,30,63,47,7,8,0.8,1
2023-12-29T0000,2533A,105.0653,29.5817,内江市,内江二中,细颗粒物(PM2.5),205,,133,155,135,10,,37,22,68,59,7,8,1.1,1.1
2023-12-29T0000,2534A,105.0406,29.5822,内江市,内江日报社,细颗粒物(PM2.5),183,149,134,138,122,9,,49,31,68,45,8,12,1.0,0.8
2023-12-29T0000,1290A,115.8931,28.6843,南昌市,省外办,细颗粒物(PM2.5),245,242,173,195,119,50,,66,38,65,66,14,13,1.5,1.4
2023-12-29T0000,1291A,115.8886,28.7003,南昌市,省林业公司,细颗粒物(PM2.5),238,251,155,188,113,20,,69,38,92,71,14,15,1.4,1.1
2023-12-29T0000,1292A,115.8126,28.7442,南昌市,林科所,细颗粒物(PM2.5),175,185,127,132,86,39,,65,48,98,78,12,13,1.5,1.2
2023-12-29T0000,1294A,115.8518,28.687,南昌市,建工学校,细颗粒物(PM2.5),182,202,147,137,95,65,,76,64,46,53,15,16,1.3,1.1
2023-12-29T0000,1295A,115.8921,28.6424,南昌市,象湖,细颗粒物(PM2.5),234,,137,184,113,37,,66,44,67,62,11,13,1.3,1.2
2023-12-29T0000,1296A,115.7423,28.7996,南昌市,武术学校,颗粒物(PM10),55,59,53,20,33,20,,71,40,14,17,9,12,0.7,0.7
2023-12-29T0000,1298A,115.9314,28.6842,南昌市,省站,细颗粒物(PM2.5),251,248,169,201,115,42,,71,45,55,54,14,16,1.2,1
2023-12-29T0000,3046A,115.9084,28.6062,南昌市,机电学校,细颗粒物(PM2.5),225,228,169,175,115,42,,78,42,59,63,12,13,1.3,1
2023-12-29T0000,3690A,115.9721,28.7031,南昌市,外国语学校,细颗粒物(PM2.5),217,258,171,167,111,24,,80,48,83,59,13,14,1.3,1
2023-12-29T0000,1905A,106.056,30.8064,南充市,西山风景区,细颗粒物(PM2.5),158,,92,120,91,20,,75,21,34,27,6,6,1.0,0.9
2023-12-29T0000,1906A,106.0789,30.8023,南充市,南充市委,细颗粒物(PM2.5),132,136,113,100,80,4,,31,8,50,45,7,6,1.0,0.8
2023-12-29T0000,1907A,106.1031,30.8217,南充市,南充炼油厂,细颗粒物(PM2.5),158,145,123,120,99,2,,39,13,48,40,6,9,0.8,0.7
2023-12-29T0000,1908A,106.1064,30.7856,南充市,高坪区监测站,细颗粒物(PM2.5),149,149,137,114,94,5,,31,15,51,44,7,9,0.7,0.7
2023-12-29T0000,1909A,106.0642,30.7636,南充市,嘉陵区环保局,细颗粒物(PM2.5),134,148,124,102,84,2,,20,6,50,51,6,4,0.9,0.9
2023-12-29T0000,1910A,106.1087,30.8388,南充市,市环境监测站,细颗粒物(PM2.5),148,151,126,113,94,11,,47,18,38,29,7,10,0.9,0.7
2023-12-29T0000,1151A,118.8086,32.1065,南京市,迈皋桥,细颗粒物(PM2.5),134,128,152,102,108,5,,81,27,73,71,4,6,0.9,1.1
2023-12-29T0000,1152A,118.7538,32.0551,南京市,草场门,细颗粒物(PM2.5),138,139,147,105,113,4,,94,47,93,78,4,9,0.9,1.1
2023-12-29T0000,1153A,118.7794,32.0745,南京市,山西路,细颗粒物(PM2.5),175,160,174,132,133,3,,98,44,80,75,6,13,0.8,0.8
2023-12-29T0000,1154A,118.7752,32.0023,南京市,中华门,细颗粒物(PM2.5),163,161,159,124,115,10,,76,46,95,92,8,12,1.4,1.6
2023-12-29T0000,1155A,118.8109,32.0309,南京市,瑞金路,细颗粒物(PM2.5),149,163,163,114,106,14,,69,40,87,99,4,4,0.7,0.9
2023-12-29T0000,1156A,118.7997,32.0754,南京市,玄武湖,细颗粒物(PM2.5),148,174,163,113,116,2,,80,36,82,72,6,9,0.9,1.1
2023-12-29T0000,1157A,118.6414,32.0931,南京市,浦口,细颗粒物(PM2.5),150,171,182,115,133,14,,105,77,67,56,4,10,0.3,0.7
2023-12-29T0000,1158A,118.7356,31.9996,南京市,奥体中心,细颗粒物(PM2.5),178,174,158,134,111,27,,98,55,92,88,6,10,1.2,1.4
2023-12-29T0000,1159A,118.9125,32.1028,南京市,仙林大学城,细颗粒物(PM2.5),138,114,138,105,110,14,,85,33,69,77,3,7,0.8,1.1
2023-12-29T0000,3422A,118.8436,31.9198,南京市,江宁彩虹桥,细颗粒物(PM2.5),180,190,171,136,110,8,,87,31,97,97,8,10,1.2,1.3
2023-12-29T0000,3423A,119.0138,31.6494,南京市,溧水永阳,细颗粒物(PM2.5),202,153,147,152,132,6,,81,41,83,85,4,5,1.0,1.3
2023-12-29T0000,3424A,118.879,31.3302,南京市,高淳老职中,细颗粒物(PM2.5),183,152,162,138,133,46,,84,63,56,67,8,7,0.7,1.3
2023-12-29T0000,3427A,118.8554,32.3578,南京市,六合雄州,颗粒物(PM10),58,66,123,29,83,60,,105,68,17,43,2,5,0.8,1.1
2023-12-29T0000,1401A,108.3103,22.7881,南宁市,二十一中,细颗粒物(PM2.5),85,71,102,63,81,72,,126,88,43,57,10,9,1.1,1.3
2023-12-29T0000,1402A,108.3141,22.8528,南宁市,北湖,细颗粒物(PM2.5),147,181,114,112,78,6,,112,37,67,51,9,12,1.6,1.2
2023-12-29T0000,1403A,108.3206,22.8225,南宁市,市监测站,细颗粒物(PM2.5),84,75,99,62,72,39,,119,64,79,65,9,13,1.2,1.2
2023-12-29T0000,1404A,108.3829,22.8037,南宁市,大自然花园,细颗粒物(PM2.5),73,71,84,53,67,87,,117,90,29,39,9,9,0.7,0.9
2023-12-29T0000,1405A,108.4394,22.7904,南宁市,仙葫,细颗粒物(PM2.5),94,113,114,70,75,18,,116,46,90,57,6,8,1.2,1.1
2023-12-29T0000,1406A,108.2397,22.8467,南宁市,区农职院,细颗粒物(PM2.5),123,114,97,93,65,7,,110,45,75,56,14,14,1.1,1
2023-12-29T0000,1407A,108.3275,22.735,南宁市,英华嘉园,"颗粒物(PM10),细颗粒物(PM2.5)",65,80,114,47,71,36,,96,29,66,71,9,8,0.9,1.1
2023-12-29T0000,1408A,108.2257,22.7757,南宁市,沙井镇街道办,颗粒物(PM10),85,119,150,47,85,3,,101,34,103,70,10,22,0.9,1
2023-12-29T0000,3401A,108.4834,22.7618,南宁市,红星社区,细颗粒物(PM2.5),67,72,101,48,74,74,,92,58,27,50,8,7,0.8,1
2023-12-29T0000,2331A,118.0966,26.6761,南平市,茫荡山,,,,,,,,,,,,,,,,
2023-12-29T0000,2332A,118.1681,26.6369,南平市,南平市监测站,细颗粒物(PM2.5),53,49,43,37,33,0,,79,30,46,31,5,6,1.0,0.9
2023-12-29T0000,2333A,118.1825,26.6489,南平市,南平铝业有限公司,,45,38,46,31,32,4,,62,20,43,33,7,7,0.7,0.7
2023-12-29T0000,2334A,118.1756,26.6272,南平市,南平七中,,40,39,39,28,30,3,,74,36,45,30,6,9,0.9,0.6
2023-12-29T0000,1168A,120.9098,31.9663,南通市,狼山街道,细颗粒物(PM2.5),109,97,89,82,80,66,,56,56,24,45,6,7,0.8,0.7
2023-12-29T0000,1169A,120.86,32.0005,南通市,虹桥,细颗粒物(PM2.5),93,87,93,69,78,73,,60,60,24,48,3,3,1.0,0.9
2023-12-29T0000,1170A,120.87,32.02,南通市,城中,细颗粒物(PM2.5),87,77,81,64,68,71,,58,58,21,42,5,5,0.8,0.7
2023-12-29T0000,1171A,120.94,31.93,南通市,星湖花园,细颗粒物(PM2.5),115,101,95,87,75,65,,48,48,28,48,5,5,0.6,0.6
2023-12-29T0000,1172A,120.81,32.0417,南通市,紫琅学院,细颗粒物(PM2.5),73,62,82,53,66,74,,57,57,18,45,5,5,0.5,0.6
2023-12-29T0000,3291A,121.067,32.062,南通市,通州监测站,细颗粒物(PM2.5),64,70,88,46,72,89,,69,69,17,33,6,7,1.0,1
2023-12-29T0000,3432A,120.9348,31.9883,南通市,环境教育馆,细颗粒物(PM2.5),74,66,75,54,72,75,,60,60,20,43,6,6,0.9,0.8
2023-12-29T0000,2404A,112.5224,33.0122,南阳市,瓦房庄,细颗粒物(PM2.5),180,142,128,136,117,44,,74,56,39,34,4,5,0.9,0.9
2023-12-29T0000,2405A,112.5003,32.9735,南阳市,汉画馆,细颗粒物(PM2.5),180,162,145,136,117,41,,69,50,41,33,6,7,1.0,1
2023-12-29T0000,2406A,112.5573,33.027,南阳市,气象站,细颗粒物(PM2.5),188,152,137,141,123,41,,76,56,37,27,4,5,1.0,1
2023-12-29T0000,2407A,112.5481,32.9689,南阳市,理工学院,细颗粒物(PM2.5),175,151,131,132,108,33,,77,51,48,35,4,5,0.8,0.7
2023-12-29T0000,4008A,112.5234,32.9922,南阳市,卧龙区政府,细颗粒物(PM2.5),163,152,137,124,112,48,,70,51,42,43,5,6,1.0,0.9
2023-12-29T0000,1234A,121.8358,29.911,宁波市,区环保大楼,颗粒物(PM10),57,64,150,22,99,1,,54,8,70,78,10,10,0.8,1
2023-12-29T0000,1235A,121.56,29.82,宁波市,万里学院,颗粒物(PM10),107,163,173,76,101,0,,69,28,87,79,6,7,1.2,1
2023-12-29T0000,1236A,121.713,29.9572,宁波市,龙赛医院,,39,27,139,13,61,0,,59,20,77,82,6,9,0.7,0.9
2023-12-29T0000,1239A,121.633,29.7733,宁波市,钱湖水厂,细颗粒物(PM2.5),114,106,128,86,101,0,,56,27,70,71,8,9,1.0,1
2023-12-29T0000,1240A,121.5856,29.8635,宁波市,太古小学,颗粒物(PM10),77,103,160,51,99,2,,66,24,82,87,7,9,1.0,1.2
2023-12-29T0000,1241A,121.524,29.8674,宁波市,市环境监测中心,细颗粒物(PM2.5),79,106,155,58,90,1,,87,33,96,82,10,12,1.3,1.3
2023-12-29T0000,2871A,121.6147,29.9017,宁波市,万里国际学校,细颗粒物(PM2.5),90,104,162,67,122,0,,52,15,74,89,6,9,0.9,1.1
2023-12-29T0000,3710A,121.5594,29.8975,宁波市,白沙活动中心,颗粒物(PM10),70,89,117,50,85,2,,66,18,77,88,7,9,1.1,1.2
2023-12-29T0000,2339A,119.5001,26.6946,宁德市,金涵水库,,,,,,,,,,,,,,,,
2023-12-29T0000,2341A,119.5388,26.6612,宁德市,宁德市监测站,,22,17,35,15,25,60,,59,50,18,30,5,6,0.3,0.6
2023-12-29T0000,3209A,119.5231,26.6562,宁德市,宁德一中,,23,,33,16,22,47,,63,53,11,18,2,3,0.3,0.8
2023-12-29T0000,2618A,98.8601,25.8567,怒江州,州监测站,,50,50,30,33,20,11,,58,36,34,18,9,9,0.6,0.4
2023-12-29T0000,2619A,98.8546,25.8417,怒江州,泸水一中,细颗粒物(PM2.5),55,,28,39,19,3,,49,19,32,21,7,7,0.6,0.5
2023-12-29T0000,1888A,101.6891,26.571,攀枝花市,弄弄坪,颗粒物(PM10),62,73,53,34,34,10,,70,48,63,38,30,25,1.2,1.4
2023-12-29T0000,1889A,101.5769,26.5928,攀枝花市,河门口,"颗粒物(PM10),细颗粒物(PM2.5)",68,85,44,49,30,15,,81,56,37,28,12,20,1.3,1.2
2023-12-29T0000,1890A,101.7169,26.585,攀枝花市,炳草岗,颗粒物(PM10),68,86,60,39,34,5,,65,31,66,46,18,24,1.8,1.4
2023-12-29T0000,1891A,101.7369,26.5008,攀枝花市,仁和,,32,32,49,21,31,34,,68,43,20,30,7,18,0.7,1.3
2023-12-29T0000,2835A,101.7227,26.567,攀枝花市,四十中小,颗粒物(PM10),59,68,62,37,33,8,,63,34,67,48,55,26,1.9,1.7
2023-12-29T0000,1604A,122.0303,41.1489,盘锦市,开发区,细颗粒物(PM2.5),173,136,71,131,68,5,,35,10,92,69,24,24,2.4,1.5
2023-12-29T0000,1605A,122.0485,41.0883,盘锦市,兴隆台,细颗粒物(PM2.5),168,135,76,127,64,9,,35,12,77,64,19,21,2.5,1.5
2023-12-29T0000,1606A,121.8297,41.1028,盘锦市,新生街道,细颗粒物(PM2.5),107,107,73,80,57,7,,39,20,63,51,19,13,1.5,1.4
2023-12-29T0000,1832A,113.3257,33.742,平顶山市,新华旅馆,细颗粒物(PM2.5),170,215,200,129,135,19,,58,40,66,57,8,9,1.1,1
2023-12-29T0000,1833A,113.2919,33.737,平顶山市,规划设计院,细颗粒物(PM2.5),208,187,194,158,142,45,,64,51,48,52,10,11,1.2,1.2
2023-12-29T0000,1834A,113.182,33.774,平顶山市,平顶山工学院,细颗粒物(PM2.5),218,226,203,168,147,11,,74,54,77,48,6,7,1.3,1.1
2023-12-29T0000,3204A,113.3025,33.73,平顶山市,规划局,细颗粒物(PM2.5),192,180,191,144,138,48,,64,55,38,46,9,12,0.9,1.1
2023-12-29T0000,3594A,112.8867,33.9116,平顶山市,石龙区,细颗粒物(PM2.5),249,273,214,199,157,10,,85,46,91,63,8,9,1.3,1.2
2023-12-29T0000,2656A,106.6692,35.5461,平凉市,聚贤嘉苑,细颗粒物(PM2.5),129,143,118,98,86,9,,63,28,74,57,10,12,1.4,1.1
2023-12-29T0000,2657A,106.7021,35.5307,平凉市,博物馆,细颗粒物(PM2.5),144,158,143,110,100,12,,55,25,97,76,15,16,1.6,1.4
2023-12-29T0000,2347A,114.0997,27.5002,萍乡市,武功山,细颗粒物(PM2.5),72,58,54,52,44,39,,102,64,14,14,4,5,0.7,0.6
2023-12-29T0000,2348A,113.8385,27.6434,萍乡市,中医院,细颗粒物(PM2.5),102,99,113,76,92,50,,79,62,32,47,28,30,0.8,1.5
2023-12-29T0000,2349A,113.8493,27.6253,萍乡市,市政府车库,细颗粒物(PM2.5),113,120,108,85,87,30,,68,46,47,45,28,23,1.3,1.6
2023-12-29T0000,2350A,113.8676,27.6435,萍乡市,市环保局,细颗粒物(PM2.5),105,104,114,79,79,40,,88,65,50,50,35,30,1.0,1.1
2023-12-29T0000,2351A,113.866,27.6198,萍乡市,安源区政府,细颗粒物(PM2.5),132,135,121,100,85,14,,82,45,71,55,30,19,2.4,1.5
2023-12-29T0000,2319A,119.0141,25.4325,莆田市,荔城区仓后路,,48,48,43,22,23,28,,68,35,28,27,6,7,1.0,0.9
2023-12-29T0000,2320A,119.0015,25.4553,莆田市,莆田市监测站,,14,8,25,6,12,44,,77,52,7,12,6,7,0.6,0.6
2023-12-29T0000,2321A,119.1119,25.4561,莆田市,涵江区六中,,26,14,40,3,18,83,,69,67,4,30,6,8,0.5,0.8
2023-12-29T0000,2322A,119.1013,25.3215,莆田市,秀屿区政府,,23,23,34,8,18,65,,77,67,15,24,8,10,0.5,0.7
2023-12-29T0000,2323A,118.981,25.4792,莆田市,东圳水库,,,,,,,,,,,,,,,,
2023-12-29T0000,2392A,115.0312,35.7636,濮阳市,环保局,细颗粒物(PM2.5),122,112,70,92,64,1,,42,14,73,51,4,4,1.3,0.8
2023-12-29T0000,2394A,115.0574,35.7609,濮阳市,油田运输公司,细颗粒物(PM2.5),123,118,85,93,65,4,,52,13,71,49,5,7,1.1,0.7
2023-12-29T0000,2395A,115.0866,35.7754,濮阳市,油田物探公司,细颗粒物(PM2.5),145,128,88,111,74,3,,46,20,67,50,3,5,1.1,0.9
2023-12-29T0000,3021A,115,35.7668,濮阳市,濮水河管理处,细颗粒物(PM2.5),102,80,68,76,64,6,,50,22,65,46,3,3,1.3,0.9
2023-12-29T0000,2601A,100.98,22.7633,普洱市,市环保局,细颗粒物(PM2.5),54,38,35,38,26,14,,57,37,13,13,2,4,0.5,0.6
