timepoint,stationcode,longitude,latitude,area,positionname,primarypollutant,aqi,pm10,pm10_24h,pm2_5,pm2_5_24h,o3,o3_24h,o3_8h,o3_8h_24h,no2,no2_24h,so2,so2_24h,co,co_24h
2024-04-13T2100,2566A,102.1879,31.914,阿坝藏族羌族自治州,州农科所,,23,23,27,11,9,34,,47,45,5,9,3,3,0.4,0.5
2024-04-13T2100,2568A,102.2502,31.8896,阿坝藏族羌族自治州,马师校,,30,29,18,21,18,78,,130,120,16,9,4,5,0.3,0.4
2024-04-13T2100,3994A,102.2165,31.9024,阿坝藏族羌族自治州,马尔康中学西区,,32,32,24,22,18,91,,130,124,11,9,4,4,0.2,0.3
2024-04-13T2100,2695A,80.292,41.1694,阿克苏地区,电视台,颗粒物(PM10),75,100,63,23,20,124,,126,126,12,14,5,6,0.7,0.7
2024-04-13T2100,2696A,80.2613,41.1551,阿克苏地区,艺术中心,颗粒物(PM10),66,81,61,25,19,118,,126,126,15,24,4,5,0.8,0.9
2024-04-13T2100,2204A,105.6467,38.8363,阿拉善盟,西城区西花园,颗粒物(PM10),500,622,320,154,78,100,,118,111,10,7,7,9,0.7,0.6
2024-04-13T2100,2205A,105.6985,38.8411,阿拉善盟,蒙二幼,颗粒物(PM10),500,898,384,184,77,102,,114,107,11,9,8,9,0.4,0.4
2024-04-13T2100,2206A,105.724,38.8516,阿拉善盟,环保局新楼,颗粒物(PM10),500,741,233,179,72,108,,120,112,7,7,7,8,0.2,0.4
2024-04-13T2100,2708A,88.1264,47.8517,阿勒泰地区,市站,,45,45,48,11,9,74,,79,78,14,6,5,5,0.1,0.1
2024-04-13T2100,2630A,80.1161,32.5,阿里地区,阿里监测站,,38,32,28,6,9,119,,121,121,6,12,9,11,0.5,0.5
2024-04-13T2100,3192A,80.0903,32.5028,阿里地区,阿里藏医院,,44,4,11,3,4,138,,132,132,2,5,8,10,0.4,0.5
2024-04-13T2100,2642A,109.0318,32.6537,安康市,香溪洞,,45,35,38,31,28,66,,80,76,10,12,5,9,0.6,0.5
2024-04-13T2100,2643A,109.0281,32.6939,安康市,安康市监测站,,46,46,42,29,24,67,,80,75,8,12,8,9,0.5,0.4
2024-04-13T2100,2644A,109.0072,32.6975,安康市,汉滨区检察院,颗粒物(PM10),54,58,44,35,23,61,,84,80,9,9,10,9,0.6,0.5
2024-04-13T2100,2291A,117.0809,30.5177,安庆市,环科院,"颗粒物(PM10),细颗粒物(PM2.5)",53,55,58,37,44,98,,92,92,16,27,7,7,0.9,1
2024-04-13T2100,2292A,117.0331,30.5119,安庆市,马山宾馆,"颗粒物(PM10),细颗粒物(PM2.5)",58,65,61,41,45,70,,88,87,30,25,7,7,1.1,1.1
2024-04-13T2100,2294A,116.9896,30.6145,安庆市,安庆大学,细颗粒物(PM2.5),60,61,57,43,42,96,,96,96,18,28,7,7,0.7,0.8
2024-04-13T2100,3173A,117.0598,30.5351,安庆市,市人大,细颗粒物(PM2.5),53,52,63,37,47,93,,92,92,20,26,7,7,0.9,1
2024-04-13T2100,3122A,105.9606,26.2611,安顺市,伍家关,,,,,,,,,,,,,,,,
2024-04-13T2100,3123A,105.9408,26.2431,安顺市,凤凰山,细颗粒物(PM2.5),73,74,44,53,32,125,,151,148,13,9,13,8,1.0,0.9
2024-04-13T2100,3124A,105.9439,26.2564,安顺市,金钟山,细颗粒物(PM2.5),67,66,43,48,35,127,,158,155,9,7,11,6,0.7,0.7
2024-04-13T2100,3125A,105.8983,26.2481,安顺市,娄家坡,颗粒物(PM10),60,70,48,38,35,127,,159,156,19,6,9,9,0.6,0.6
2024-04-13T2100,1818A,114.4839,36.0621,安阳市,棉研所,,,,,,,,,,,,,,,,
2024-04-13T2100,1819A,114.3551,36.1017,安阳市,红庙街,细颗粒物(PM2.5),65,69,55,47,34,108,,138,135,8,9,4,5,0.5,0.6
2024-04-13T2100,1820A,114.361,36.0681,安阳市,银杏小区,细颗粒物(PM2.5),55,56,52,39,29,106,,135,132,2,6,6,7,0.5,0.5
2024-04-13T2100,3141A,114.3922,36.0878,安阳市,信访局,颗粒物(PM10),56,62,56,39,32,102,,139,135,7,8,1,2,0.5,0.5
2024-04-13T2100,3669A,114.4705,36.0637,安阳市,左辅环卫站,颗粒物(PM10),65,80,73,46,42,91,,125,121,12,14,5,6,0.2,0.2
2024-04-13T2100,3703A,114.2917,36.0949,安阳市,安钢职工学校,细颗粒物(PM2.5),80,80,64,59,39,106,,131,129,10,14,4,5,0.1,0.3
2024-04-13T2100,1748A,123.044,41.1196,鞍山市,深沟寺,,29,29,29,18,14,73,,106,90,10,9,6,6,0.4,0.4
2024-04-13T2100,1749A,123.011,41.0931,鞍山市,太阳城,,34,34,31,15,14,85,,111,94,11,10,7,8,0.5,0.6
2024-04-13T2100,1750A,123.0485,41.1442,鞍山市,太平,,36,36,32,20,17,77,,107,88,12,13,4,4,0.4,0.4
2024-04-13T2100,1751A,122.9642,41.0971,鞍山市,铁西三道街,,38,38,44,18,17,85,,117,101,15,17,4,5,0.5,0.5
2024-04-13T2100,1752A,122.9341,41.0833,鞍山市,铁西工业园区,,46,46,39,22,19,76,,117,103,17,13,6,8,0.6,0.5
2024-04-13T2100,1753A,123.022,41.0821,鞍山市,明达新区,,29,29,30,17,15,84,,104,93,10,10,8,8,0.5,0.5
2024-04-13T2100,1754A,123.1289,41.0228,鞍山市,千山,,,,,,,,,,,,,,,,
2024-04-13T2100,2195A,107.4212,40.761,巴彦淖尔市,附二中,颗粒物(PM10),500,655,639,135,135,110,,101,101,14,22,2,27,0.3,0.5
2024-04-13T2100,2196A,107.37,40.7372,巴彦淖尔市,市环保大楼,颗粒物(PM10),500,673,603,110,117,107,,104,104,10,20,3,9,0.3,0.4
2024-04-13T2100,1956A,86.1472,41.7538,巴音郭楞蒙古自治州,孔雀公园,颗粒物(PM10),500,750,448,184,106,73,,88,87,13,20,6,6,0.3,0.3
2024-04-13T2100,1957A,86.1972,41.7166,巴音郭楞蒙古自治州,棉纺厂,颗粒物(PM10),500,821,481,194,112,78,,89,89,9,12,3,3,0.3,0.3
2024-04-13T2100,1958A,86.2357,41.7173,巴音郭楞蒙古自治州,经济开发区,颗粒物(PM10),500,798,431,203,99,85,,92,90,8,7,6,6,0.2,0.2
2024-04-13T2100,2914A,106.7677,31.8794,巴中市,苏山坪,,38,31,28,26,22,62,,86,65,8,7,4,4,0.4,0.4
2024-04-13T2100,3182A,106.7656,31.8545,巴中市,丽阳花园,,47,47,38,31,26,25,,48,48,31,30,5,5,0.7,0.7
2024-04-13T2100,3183A,106.7418,31.8654,巴中市,圣泉水务公司,,38,36,32,26,22,22,,47,46,28,25,4,4,0.6,0.5
2024-04-13T2100,3616A,106.7616,31.8344,巴中市,市中心医院,,46,46,45,29,28,27,,51,51,29,31,6,6,0.6,0.6
2024-04-13T2100,2235A,122.7911,45.6077,白城市,洮北区环保局,,,106,97,35,28,95,,138,131,8,13,7,7,,0.3
2024-04-13T2100,2236A,122.8738,45.5725,白城市,市环保局,颗粒物(PM10),85,120,94,38,34,78,,112,106,16,25,9,6,0.4,0.4
2024-04-13T2100,2231A,126.4219,41.9171,白山市,喜丰,,32,32,47,14,19,90,,114,106,20,17,10,11,0.9,0.9
2024-04-13T2100,2232A,126.4077,41.9419,白山市,环保局,颗粒物(PM10),61,72,52,19,19,59,,115,101,21,14,12,10,0.8,0.7
2024-04-13T2100,2647A,104.1724,36.5446,白银市,第三小学,颗粒物(PM10),72,94,64,30,28,63,,109,103,49,30,11,51,0.6,0.7
2024-04-13T2100,2648A,104.1465,36.5482,白银市,动力公司,颗粒物(PM10),66,81,57,28,25,69,,114,110,34,25,10,24,0.5,0.6
2024-04-13T2100,2512A,106.6103,23.9011,百色市,市监测站,细颗粒物(PM2.5),69,81,64,50,40,90,,110,108,14,15,18,15,0.8,0.7
2024-04-13T2100,2513A,106.6538,23.8859,百色市,市中心血站,细颗粒物(PM2.5),74,86,69,54,44,84,,99,97,14,17,20,14,0.9,0.8
2024-04-13T2100,3406A,106.6085,23.8798,百色市,祈福高中,细颗粒物(PM2.5),80,79,70,59,43,86,,106,104,15,18,14,15,0.7,0.9
2024-04-13T2100,2270A,117.396,32.939,蚌埠市,工人疗养院,,48,48,74,23,43,60,,97,94,18,23,6,8,0.6,0.7
2024-04-13T2100,2271A,117.3605,32.9427,蚌埠市,百货大楼,,43,43,75,19,45,56,,96,92,24,23,3,5,0.6,0.7
2024-04-13T2100,2273A,117.4185,32.8911,蚌埠市,蚌埠学院,,45,36,48,31,41,65,,98,97,20,15,3,4,0.6,0.7
2024-04-13T2100,2274A,117.3533,32.9673,蚌埠市,淮上区政府,,39,39,64,23,47,60,,96,93,9,17,5,6,0.4,0.6
2024-04-13T2100,2275A,117.3145,32.8977,蚌埠市,高新区,细颗粒物(PM2.5),54,41,54,38,47,78,,101,101,18,15,4,5,0.5,0.5
2024-04-13T2100,3715A,117.3092,32.9314,蚌埠市,蚌埠田家炳中学,颗粒物(PM10),55,60,77,33,50,58,,101,96,25,15,6,5,0.5,0.6
2024-04-13T2100,1585A,109.8756,40.6532,包头市,市环境监测站,颗粒物(PM10),52,53,96,20,29,81,,108,91,24,50,15,20,0.6,0.8
2024-04-13T2100,1587A,109.9991,40.5842,包头市,包头八中,,,58,103,34,40,80,,85,84,26,37,17,39,,1
2024-04-13T2100,1588A,109.8538,40.6821,包头市,青山宾馆,颗粒物(PM10),59,67,82,35,41,78,,109,89,26,47,21,23,0.8,0.9
2024-04-13T2100,1589A,109.8642,40.6288,包头市,惠龙物流,颗粒物(PM10),55,60,87,28,41,85,,112,99,22,38,20,26,0.7,0.8
2024-04-13T2100,1590A,110.0377,40.5546,包头市,东河鸿龙湾,,40,39,103,28,39,84,,108,91,18,38,12,25,0.7,0.9
2024-04-13T2100,3283A,109.9154,40.5685,包头市,滨河大厦,,50,50,98,22,38,76,,109,91,23,34,17,23,0.7,0.7
2024-04-13T2100,3419A,109.9447,40.6261,包头市,包头市委党校,颗粒物(PM10),56,61,91,29,31,79,,107,88,29,39,24,35,0.6,0.7
2024-04-13T2100,3683A,109.8331,40.6576,包头市,昆区政府,颗粒物(PM10),53,55,83,34,37,78,,105,92,28,49,22,24,0.9,1
2024-04-13T2100,1930A,107.185,34.3063,宝鸡市,庙沟村,,24,24,60,11,20,45,,96,87,24,22,8,9,0.5,0.6
2024-04-13T2100,1931A,107.0708,34.3017,宝鸡市,竹园沟,,,,51,,28,,,76,,,18,,5,,0.7
2024-04-13T2100,1932A,107.1906,34.3672,宝鸡市,三陆医院,,28,26,72,19,31,38,,103,93,42,33,5,9,0.7,0.7
2024-04-13T2100,1933A,107.1431,34.3547,宝鸡市,监测站,,36,28,72,25,35,65,,103,98,24,26,6,7,0.7,0.7
2024-04-13T2100,1934A,107.1186,34.3739,宝鸡市,技工学校,,30,22,65,21,32,66,,105,101,23,21,6,10,0.5,0.5
2024-04-13T2100,1935A,107.3906,34.3528,宝鸡市,陈仓区环保局家属楼,,31,31,68,20,31,67,,106,100,26,33,4,6,0.4,0.5
2024-04-13T2100,1936A,107.2058,34.3497,宝鸡市,文理学院,,39,30,81,27,31,65,,108,103,32,28,5,6,0.6,0.5
2024-04-13T2100,1937A,107.2386,34.3622,宝鸡市,三迪小学,,32,26,79,22,32,58,,103,96,34,33,6,8,0.7,0.7
2024-04-13T2100,1051A,115.493,38.8632,保定市,游泳馆,颗粒物(PM10),69,88,99,36,56,122,,134,134,11,13,2,3,0.0,0.1
2024-04-13T2100,1052A,115.5213,38.8959,保定市,华电二区,细颗粒物(PM2.5),54,55,63,38,42,108,,128,128,10,10,3,4,0.5,0.6
2024-04-13T2100,1053A,115.4713,38.9108,保定市,接待中心,颗粒物(PM10),62,73,75,24,32,115,,126,126,7,9,2,2,0.4,0.4
2024-04-13T2100,1054A,115.4612,38.8416,保定市,地表水厂,细颗粒物(PM2.5),65,78,91,47,53,115,,131,131,14,18,1,2,0.5,0.5
2024-04-13T2100,3581A,115.31981,38.95208,保定市,满城区生态环境分局,颗粒物(PM10),64,78,83,44,49,95,,113,113,10,10,3,4,0.4,0.4
2024-04-13T2100,3582A,115.47694,38.76408,保定市,清苑区第二中学,颗粒物(PM10),67,83,96,40,51,115,,134,134,17,18,7,7,0.3,0.4
2024-04-13T2100,3583A,115.62909,39.02311,保定市,徐水物探局,颗粒物(PM10),69,88,93,46,57,112,,125,125,13,13,4,8,0,0.3
2024-04-13T2100,4004A,115.4202,38.8656,保定市,双鹰农机,颗粒物(PM10),60,70,76,40,38,119,,134,134,11,12,2,4,0.3,0.4
2024-04-13T2100,4034A,115.5150,38.8590,保定市,植保所站,颗粒物(PM10),59,67,77,36,45,113,,137,137,21,18,1,3,0.2,0.4
2024-04-13T2100,2594A,99.1678,25.1081,保山市,市环境监测站,颗粒物(PM10),52,53,55,29,34,117,,134,132,9,11,7,8,0.5,0.5
2024-04-13T2100,2595A,99.1711,25.1328,保山市,市环保局,,48,40,53,33,31,119,,133,131,4,6,6,6,0.5,0.5
2024-04-13T2100,1866A,109.2262,21.588,北海市,牛尾岭水库,,,,,,,,,,,,,,,,
2024-04-13T2100,1867A,109.1436,21.4086,北海市,海滩公园,,34,34,35,12,15,77,,101,101,15,9,6,6,0.7,0.7
2024-04-13T2100,1868A,109.0981,21.4661,北海市,新市环保局,,34,34,35,19,20,77,,79,79,10,10,6,6,0.7,0.7
2024-04-13T2100,1869A,109.1778,21.5233,北海市,北海工业园,,35,28,42,24,23,67,,78,77,10,10,6,7,0.4,0.4
2024-04-13T2100,3400A,109.1911,21.4415,北海市,龙潭自来水厂,,35,34,33,24,24,73,,87,87,9,8,4,4,0.6,0.6
2024-04-13T2100,1001A,116.3621,39.8784,北京市,万寿西宫,"颗粒物(PM10),细颗粒物(PM2.5)",68,86,97,49,63,104,,130,128,26,27,3,2,0.7,0.7
2024-04-13T2100,1002A,116.2202,40.2915,北京市,定陵,,,,,,,,,,,,,,,,
2024-04-13T2100,1003A,116.4174,39.9289,北京市,东四,颗粒物(PM10),82,113,104,50,59,105,,135,133,28,26,2,3,0.8,0.7
2024-04-13T2100,1004A,116.4072,39.8863,北京市,天坛,颗粒物(PM10),86,121,84,49,56,82,,129,123,25,22,1,2,0.6,0.6
2024-04-13T2100,1005A,116.462,39.9365,北京市,农展馆,颗粒物(PM10),65,80,89,43,55,105,,134,133,29,35,3,3,0.6,0.6
2024-04-13T2100,1006A,116.3392,39.9295,北京市,官园,"颗粒物(PM10),细颗粒物(PM2.5)",68,85,96,49,56,114,,134,134,22,21,2,3,0.6,0.6
2024-04-13T2100,1007A,116.2878,39.9611,北京市,海淀万柳,颗粒物(PM10),79,108,103,54,60,100,,128,126,31,32,3,4,0.7,0.8
2024-04-13T2100,1008A,116.6636,40.135,北京市,顺义新城,细颗粒物(PM2.5),87,121,105,64,68,154,,146,146,21,29,3,2,0.7,0.6
2024-04-13T2100,1009A,116.6275,40.3275,北京市,怀柔镇,细颗粒物(PM2.5),93,105,92,69,70,147,,138,138,22,21,3,2,0.5,0.5
2024-04-13T2100,1010A,116.2296,40.217,北京市,昌平镇,颗粒物(PM10),68,86,114,43,66,84,,118,118,30,40,3,3,0.6,0.7
2024-04-13T2100,1011A,116.3966,39.9821,北京市,奥体中心,颗粒物(PM10),67,83,86,47,53,99,,124,123,32,33,1,2,0.6,0.6
2024-04-13T2100,1012A,116.184,39.9136,北京市,古城,颗粒物(PM10),80,109,114,53,66,99,,128,126,33,34,3,2,0.9,0.9
2024-04-13T2100,3281A,115.9718,40.4529,北京市,延庆夏都,颗粒物(PM10),56,61,95,37,64,131,,129,129,7,13,3,2,0.5,0.6
2024-04-13T2100,3417A,117.0709,40.1465,北京市,平谷新城,细颗粒物(PM2.5),89,104,103,66,64,156,,160,160,20,23,2,2,0.6,0.6
2024-04-13T2100,3418A,116.8336,40.4095,北京市,密云新城,细颗粒物(PM2.5),75,96,101,55,65,161,,152,152,15,26,3,2,0.7,0.6
2024-04-13T2100,3671A,116.088,39.9726,北京市,门头沟三家店,,,,,,,,,,,,,,,,
2024-04-13T2100,3672A,116.1541,39.8204,北京市,丰台云岗,细颗粒物(PM2.5),84,96,113,62,65,80,,,,30,28,3,4,0.9,0.8
2024-04-13T2100,3673A,116.6804,39.9081,北京市,通州东关,"颗粒物(PM10),细颗粒物(PM2.5)",77,103,97,56,57,152,,147,147,16,25,4,2,0.8,0.6
2024-04-13T2100,3674A,115.9577,39.7603,北京市,房山燕山,细颗粒物(PM2.5),60,65,82,43,51,115,,123,123,18,20,3,2,0.5,0.6
2024-04-13T2100,3675A,116.4672,39.7733,北京市,大兴旧宫,颗粒物(PM10),66,82,78,43,47,136,,136,136,23,18,3,3,0.7,0.6
2024-04-13T2100,3694A,115.986,40.4563,北京市,延庆石河营,细颗粒物(PM2.5),57,55,84,40,65,143,,140,140,7,13,3,3,0.5,0.6
2024-04-13T2100,3695A,116.6151,40.3053,北京市,怀柔新城,细颗粒物(PM2.5),88,102,90,65,67,148,,141,141,23,20,2,2,0.8,0.7
2024-04-13T2100,3696A,116.2545,39.8768,北京市,丰台小屯,细颗粒物(PM2.5),72,87,95,52,58,85,,119,116,36,26,3,3,0.6,0.6
2024-04-13T2100,3697A,116.84,40.3844,北京市,密云镇,细颗粒物(PM2.5),75,98,92,55,59,163,,150,150,9,24,2,3,0.7,0.6
2024-04-13T2100,1761A,123.8275,41.3064,本溪市,大峪,,32,23,25,10,10,100,,104,103,1,7,8,8,0.4,0.4
2024-04-13T2100,1762A,123.7567,41.3325,本溪市,溪湖,,31,31,31,15,14,78,,95,88,11,14,9,14,0.5,0.7
2024-04-13T2100,1763A,123.7169,41.3094,本溪市,彩屯,颗粒物(PM10),51,52,46,24,24,33,,69,52,48,44,36,33,2.6,2.8
2024-04-13T2100,1764A,123.7669,41.2864,本溪市,东明,,27,27,29,15,12,81,,93,86,7,10,4,5,0.5,0.5
2024-04-13T2100,1765A,123.7992,41.2664,本溪市,新立屯,,28,21,24,14,14,87,,103,93,7,9,11,11,0.3,0.2
2024-04-13T2100,1766A,123.8142,41.3472,本溪市,威宁,,40,40,39,16,14,61,,96,84,20,16,9,9,0.6,0.6
2024-04-13T2100,2587A,105.2864,27.3125,毕节市,八中,细颗粒物(PM2.5),58,51,52,41,40,104,,142,136,18,12,8,8,0.9,0.7
2024-04-13T2100,2588A,105.31,27.2944,毕节市,师专,细颗粒物(PM2.5),54,52,52,38,42,112,,144,140,20,13,8,8,0.6,0.6
2024-04-13T2100,3537A,105.3631,27.3533,毕节市,长征村,细颗粒物(PM2.5),85,82,90,63,68,134,,155,152,13,11,11,9,0.6,0.6
2024-04-13T2100,1629A,118.0018,37.3617,滨州市,第二水厂,颗粒物(PM10),52,53,93,24,47,59,,167,126,30,40,7,9,0.9,1.1
2024-04-13T2100,1630A,117.9776,37.393,滨州市,北中新校,颗粒物(PM10),54,58,103,27,46,58,,165,124,31,41,10,13,0.8,1
2024-04-13T2100,3514A,117.9378,37.3956,滨州市,中海酒店,颗粒物(PM10),56,61,88,24,47,66,,164,131,22,29,11,13,0.6,0.9
2024-04-13T2100,3515A,117.9378,37.3553,滨州市,开发区一中,颗粒物(PM10),54,58,95,27,48,63,,158,128,34,44,10,13,0.8,0.9
2024-04-13T2100,3516A,118.0917,37.694,滨州市,金海六路,,41,41,80,14,36,70,,159,131,15,19,9,13,0.6,0.7
2024-04-13T2100,4028A,117.9956,37.3753,滨州市,滨州市西街道办事处,颗粒物(PM10),53,56,93,29,55,58,,163,122,27,34,10,12,0.8,1
2024-04-13T2100,2311A,115.8072,33.8399,亳州市,污水处理厂,,39,39,65,27,46,60,,92,83,12,12,9,11,0.6,0.6
2024-04-13T2100,2312A,115.7789,33.8518,亳州市,三国揽胜宫,,42,38,52,29,42,56,,88,79,14,12,7,8,0.6,0.7
2024-04-13T2100,3332A,115.7633,33.8034,亳州市,亳州学院,颗粒物(PM10),53,56,80,22,45,60,,93,83,11,10,8,9,0.6,0.6
2024-04-13T2100,2693A,82.0485,44.8556,博尔塔拉蒙古自治州,市党校,颗粒物(PM10),134,218,173,81,58,83,,83,83,6,5,7,7,0.3,0.2
2024-04-13T2100,2694A,82.0806,44.8969,博尔塔拉蒙古自治州,市环保局,颗粒物(PM10),286,410,345,66,46,70,,72,72,10,8,8,7,,0.2
2024-04-13T2100,1071A,116.8842,38.2991,沧州市,沧县城建局,颗粒物(PM10),71,92,83,51,48,119,,161,154,30,16,3,3,0.6,0.7
2024-04-13T2100,1072A,116.8584,38.3254,沧州市,电视转播站,细颗粒物(PM2.5),83,91,88,61,56,134,,159,157,15,12,6,7,0.4,0.4
2024-04-13T2100,1073A,116.8709,38.3228,沧州市,市环保局,细颗粒物(PM2.5),73,55,62,53,59,137,,167,163,19,15,2,3,0.5,0.5
2024-04-13T2100,3324A,116.8136,38.3004,沧州市,河北水利电力学院,颗粒物(PM10),78,105,84,48,50,99,,146,139,40,18,6,7,0.4,0.4
2024-04-13T2100,2622A,97.1806,31.1273,昌都市,昌都监测站,,38,,13,12,11,119,,140,137,17,7,8,7,0.5,0.6
2024-04-13T2100,3719A,97.1714,31.1406,昌都市,昌都会议中心,,43,11,16,8,13,137,,143,142,2,5,9,8,0.3,0.4
2024-04-13T2100,2690A,88.1236,43.8886,昌吉回族自治州,天山天池,颗粒物(PM10),80,110,88,36,22,52,,98,90,10,6,5,3,0.6,0.5
2024-04-13T2100,2692A,87.2717,44.0297,昌吉回族自治州,新区政务中心,颗粒物(PM10),115,180,871,38,201,86,,88,88,8,7,9,6,0.4,0.4
2024-04-13T2100,3613A,87.3095,44.0142,昌吉回族自治州,亚心广场,颗粒物(PM10),136,222,598,31,248,88,,92,92,11,7,3,5,0.2,0.8
2024-04-13T2100,1119A,125.3325,43.9166,长春市,食品厂,细颗粒物(PM2.5),80,105,82,59,37,119,,155,151,35,26,10,10,0.8,0.7
2024-04-13T2100,1120A,125.2863,43.9027,长春市,客车厂,颗粒物(PM10),74,97,81,53,41,116,,154,151,31,20,8,7,0.7,0.6
2024-04-13T2100,1121A,125.2841,43.8463,长春市,邮电学院,颗粒物(PM10),72,94,80,48,35,124,,156,155,26,20,14,11,0.7,0.6
2024-04-13T2100,1122A,125.3716,43.8772,长春市,劳动公园,颗粒物(PM10),71,91,76,38,34,137,,165,162,20,18,8,7,0.7,0.5
2024-04-13T2100,1123A,125.3297,43.8805,长春市,园林处,颗粒物(PM10),73,96,69,41,29,128,,160,157,25,19,13,10,0.4,0.3
2024-04-13T2100,1124A,125.4605,43.79,长春市,净月潭,细颗粒物(PM2.5),92,94,57,68,30,103,,152,147,17,8,10,9,0.7,0.5
2024-04-13T2100,1125A,125.7194,43.515,长春市,甩湾子,,,,,,,,,,,,,,,,
2024-04-13T2100,1126A,125.3863,43.8447,长春市,经开区环卫处,颗粒物(PM10),72,94,72,44,33,111,,159,155,30,21,8,7,0.5,0.4
2024-04-13T2100,1127A,125.245,43.7783,长春市,高新区管委会,颗粒物(PM10),77,103,66,46,30,96,,165,154,40,22,10,11,0.7,0.6
2024-04-13T2100,1128A,125.1761,43.8325,长春市,岱山公园,细颗粒物(PM2.5),88,109,84,65,43,96,,157,148,44,22,9,9,0.6,0.5
2024-04-13T2100,1335A,113.0833,28.2325,长沙市,经开区环保局,,40,40,43,19,36,27,,50,48,16,19,5,6,0.7,0.8
2024-04-13T2100,1336A,112.8872,28.2189,长沙市,高开区环保局,,35,35,44,19,28,32,,50,50,20,20,4,5,0.9,1
2024-04-13T2100,1337A,113.0792,28.2053,长沙市,马坡岭,,40,38,46,28,32,32,,56,55,20,13,6,7,0.7,0.8
2024-04-13T2100,1338A,112.9394,28.19,长沙市,湖南师范大学,,43,43,47,18,27,20,,50,46,20,20,4,5,1.0,1
2024-04-13T2100,1339A,113.0178,28.1322,长沙市,雨花区环保局,,34,34,44,22,28,53,,60,60,15,19,4,5,1.2,1.3
2024-04-13T2100,1340A,112.9792,28.2597,长沙市,伍家岭,,31,31,47,12,32,20,,39,38,22,29,4,5,1.0,1.1
2024-04-13T2100,1341A,113.0014,28.1944,长沙市,火车新站,,46,46,47,24,30,33,,52,52,27,25,3,4,0.9,1
2024-04-13T2100,1342A,112.9844,28.1178,长沙市,天心区环保局,,44,44,47,29,34,43,,51,51,21,24,2,3,0.6,0.7
2024-04-13T2100,1343A,112.8908,28.1308,长沙市,湖南中医药大学,,45,45,53,29,39,51,,57,57,17,30,4,4,1.2,1.4
2024-04-13T2100,1344A,112.9581,28.3611,长沙市,沙坪,,15,15,37,6,23,47,,40,,3,16,5,6,0.6,0.8
2024-04-13T2100,1727A,113.1147,36.1547,长治市,清华站,,43,43,54,27,22,117,,132,130,17,19,8,8,0.6,0.6
2024-04-13T2100,1728A,113.1031,36.1989,长治市,监测站,,42,42,61,24,24,128,,139,138,14,20,11,12,0.5,0.5
2024-04-13T2100,1730A,113.0886,36.2125,长治市,审计局,,42,36,53,22,26,133,,138,138,11,20,11,13,0.3,0.3
2024-04-13T2100,1731A,113.0844,36.1856,长治市,长治八中,颗粒物(PM10),53,56,69,33,26,132,,138,137,21,30,6,8,0.5,0.5
2024-04-13T2100,2845A,113.1569,36.1911,长治市,德盛苑,,40,37,39,22,21,128,,136,136,20,21,8,10,0.6,0.6
2024-04-13T2100,3568A,113.06,36.0464,长治市,向阳小学,细颗粒物(PM2.5),57,55,65,40,35,133,,142,142,16,18,13,13,0.7,0.6
2024-04-13T2100,3569A,112.8792,36.3144,长治市,屯留一中,细颗粒物(PM2.5),58,62,63,41,34,121,,143,140,16,22,8,9,0.4,0.6
2024-04-13T2100,3570A,113.235,36.3489,长治市,潞城四中,,47,47,68,27,35,131,,149,146,12,31,7,7,0.6,0.3
2024-04-13T2100,1854A,111.6975,28.9703,常德市,市二中,,32,32,25,22,18,50,,63,53,11,14,6,7,0.8,0.8
2024-04-13T2100,1857A,111.7158,29.1456,常德市,白鹤山,,35,,34,24,21,65,,74,60,5,5,4,4,0.8,0.8
2024-04-13T2100,3138A,111.7153,29.0289,常德市,武陵区永安,,25,21,22,17,15,53,,72,60,12,9,6,7,0.7,0.7
2024-04-13T2100,3139A,111.6892,28.9881,常德市,鼎城区玉霞,,26,25,25,18,15,52,,64,57,13,14,8,8,0.8,0.8
2024-04-13T2100,3140A,111.6625,29.0531,常德市,武陵区长庚,,23,23,23,16,15,58,,74,61,8,9,7,8,0.8,0.8
2024-04-13T2100,1196A,119.9633,31.762,常州市,市监测站,,,56,68,22,23,,,66,66,29,31,6,6,0.5,0.5
2024-04-13T2100,1200A,119.9468,31.7069,常州市,武进监测站,颗粒物(PM10),51,52,62,30,26,48,,67,60,29,35,18,19,0.8,0.8
2024-04-13T2100,1201A,119.9255,31.9087,常州市,安家,,43,43,59,20,26,53,,62,62,28,30,6,6,0.7,0.7
2024-04-13T2100,3002A,119.9805,31.8174,常州市,行政中心,,37,37,54,24,27,56,,65,62,23,26,12,11,0.3,0.4
2024-04-13T2100,3003A,120.0522,31.7748,常州市,经开区,颗粒物(PM10),52,53,65,18,21,54,,66,63,28,29,5,5,0.3,0.4
2024-04-13T2100,3010A,119.9025,31.7964,常州市,钟楼,,38,38,45,22,24,49,,65,60,27,30,5,6,0.6,0.7
2024-04-13T2100,3429A,119.8598,31.7066,常州市,武进经发区,,34,34,37,18,19,49,,69,63,29,36,8,6,0.9,0.9
2024-04-13T2100,3430A,119.5826,31.7245,常州市,金坛城区,,34,34,25,18,20,47,,75,69,30,36,5,5,0.7,0.7
2024-04-13T2100,2220A,120.4318,41.5881,朝阳市,西梁,细颗粒物(PM2.5),94,89,64,70,38,141,,136,136,21,17,18,17,1.0,0.7
2024-04-13T2100,2221A,120.4521,41.5646,朝阳市,河畔小区,细颗粒物(PM2.5),109,98,67,82,45,151,,142,142,15,12,12,11,0.9,0.7
2024-04-13T2100,2222A,120.4176,41.5648,朝阳市,八里堡,细颗粒物(PM2.5),104,94,65,78,45,131,,133,132,18,15,13,13,1.0,0.8
2024-04-13T2100,2223A,120.3806,41.5969,朝阳市,农业园区,细颗粒物(PM2.5),115,87,66,87,47,142,,145,141,17,15,15,14,1.0,0.8
2024-04-13T2100,1705A,116.6367,23.6719,潮州市,西园路,细颗粒物(PM2.5),59,60,61,42,38,68,,135,113,16,18,6,9,0.3,0.4
2024-04-13T2100,3026A,116.6183,23.6608,潮州市,市政府,细颗粒物(PM2.5),57,47,68,40,39,78,,154,128,14,18,5,12,0.8,1
2024-04-13T2100,4036A,116.6461,23.6761,潮州市,金山,细颗粒物(PM2.5),60,,57,43,43,73,,142,119,14,19,7,9,0.6,0.8
2024-04-13T2100,2472A,113.0073,25.9061,郴州市,马头岭,,50,50,31,25,13,80,,79,78,12,16,4,4,0.5,0.9
2024-04-13T2100,2473A,113.0116,25.8226,郴州市,市职中,细颗粒物(PM2.5),57,44,30,40,25,94,,91,91,5,12,8,7,0.8,1.1
2024-04-13T2100,2474A,113.0161,25.8001,郴州市,兴隆步行街,细颗粒物(PM2.5),55,55,41,39,26,88,,89,89,9,13,7,6,0.8,1.2
2024-04-13T2100,2475A,113.0383,25.8071,郴州市,市审计局,细颗粒物(PM2.5),54,52,31,38,25,85,,88,87,10,15,6,8,0.6,1
2024-04-13T2100,2476A,113.0348,25.7759,郴州市,市环保局,细颗粒物(PM2.5),55,52,41,39,33,87,,89,87,10,17,5,6,0.7,1.1
2024-04-13T2100,1431A,103.9728,30.7236,成都市,金泉两河,颗粒物(PM10),65,80,72,46,43,107,,152,148,20,23,4,4,0.8,0.8
2024-04-13T2100,1432A,104.176,30.6872,成都市,十里店,细颗粒物(PM2.5),63,72,61,45,37,120,,156,154,25,42,3,2,0.6,0.7
2024-04-13T2100,1433A,104.079,30.5706,成都市,三瓦窑,细颗粒物(PM2.5),73,79,50,53,32,113,,162,159,24,47,2,2,0.5,0.5
2024-04-13T2100,1434A,104.1114,30.63,成都市,沙河铺,细颗粒物(PM2.5),79,71,51,58,34,114,,145,144,22,32,5,4,0.5,0.5
2024-04-13T2100,1437A,104.0786,30.6531,成都市,君平街,细颗粒物(PM2.5),69,78,60,50,39,121,,164,161,24,35,6,5,0.5,0.5
2024-04-13T2100,1438A,103.613,31.0283,成都市,灵岩寺,颗粒物(PM10),54,57,49,31,28,141,,145,145,16,13,5,11,0.7,0.7
2024-04-13T2100,2880A,104.0239,30.65639,成都市,大石西路,细颗粒物(PM2.5),84,89,60,62,41,113,,162,159,28,35,5,4,0.7,0.7
2024-04-13T2100,3136A,104.2725,30.5589,成都市,龙泉驿区区政府,颗粒物(PM10),56,61,30,34,18,110,,148,144,22,11,4,3,0.5,0.4
2024-04-13T2100,3357A,104.0106,30.6931,成都市,金博路,细颗粒物(PM2.5),72,86,74,52,46,96,,143,143,24,35,4,2,0.8,0.9
2024-04-13T2100,3359A,104.0578,30.5225,成都市,华阳,细颗粒物(PM2.5),70,70,43,51,31,115,,156,152,26,26,3,3,0.6,0.5
2024-04-13T2100,3487A,104.2394,30.5319,成都市,车城东七路,颗粒物(PM10),64,78,41,45,26,109,,152,148,31,18,5,4,0.6,0.5
2024-04-13T2100,3488A,104.3853,30.7453,成都市,青白江技师分院,"颗粒物(PM10),细颗粒物(PM2.5)",60,70,35,43,19,86,,147,140,34,30,4,4,0.7,0.6
2024-04-13T2100,3489A,104.0789,30.4072,成都市,科学城,细颗粒物(PM2.5),58,59,42,41,26,123,,160,158,30,25,5,5,0.7,0.6
2024-04-13T2100,4011A,103.8506,30.6947,成都市,光华大道三段,细颗粒物(PM2.5),93,84,76,69,57,107,,156,151,25,28,3,3,0.8,0.8
2024-04-13T2100,1062A,117.9531,40.9081,承德市,铁路,细颗粒物(PM2.5),82,91,77,60,42,175,,154,154,24,25,8,8,0.5,0.5
2024-04-13T2100,1063A,117.9392,40.9763,承德市,中国银行,臭氧1小时,85,89,78,54,39,188,,162,162,25,29,8,8,0.5,0.5
2024-04-13T2100,1064A,117.9503,40.928,承德市,开发区,细颗粒物(PM2.5),92,80,88,68,45,181,,154,154,21,29,8,7,0.6,0.6
2024-04-13T2100,1065A,117.8051,40.9655,承德市,文化中心,臭氧1小时,90,98,91,60,45,192,,163,163,16,34,8,8,0.5,0.5
2024-04-13T2100,1066A,117.9268,41.0026,承德市,离宫,颗粒物(PM10),77,104,84,48,45,178,,151,151,16,17,2,3,0.5,0.5
2024-04-13T2100,2314A,117.47,30.6618,池州市,池州学院,细颗粒物(PM2.5),59,56,42,42,33,114,,101,101,15,15,4,4,0.6,0.9
2024-04-13T2100,3237A,117.4918,30.6617,池州市,展览馆,颗粒物(PM10),51,52,44,34,28,107,,98,98,14,13,3,2,0.6,0.8
2024-04-13T2100,3333A,117.5627,30.695,池州市,第八中学,颗粒物(PM10),53,55,47,35,29,111,,100,100,13,11,3,2,0.7,1
2024-04-13T2100,3334A,117.5038,30.6243,池州市,第十二中学,细颗粒物(PM2.5),57,48,39,40,29,105,,95,95,17,22,4,3,0.7,1
2024-04-13T2100,1744A,118.9233,42.2816,赤峰市,松山一中,颗粒物(PM10),53,56,73,30,31,145,,143,143,18,18,11,11,0.7,0.6
2024-04-13T2100,1745A,118.9576,42.2728,赤峰市,哈达街,颗粒物(PM10),57,63,78,34,38,130,,132,131,22,22,12,14,0.8,0.7
2024-04-13T2100,1746A,118.8788,42.2554,赤峰市,天义路,颗粒物(PM10),52,54,58,23,31,144,,145,145,17,17,10,7,0.6,0.6
2024-04-13T2100,3058A,119.2658,42.0353,赤峰市,银河街,颗粒物(PM10),77,104,110,50,53,141,,137,136,17,19,18,19,0.8,0.8
2024-04-13T2100,3286A,118.9359,42.3147,赤峰市,桥北物流园区,颗粒物(PM10),61,72,73,34,38,135,,135,135,16,15,9,10,0.6,0.7
2024-04-13T2100,2521A,107.3476,22.4136,崇左市,市环保局江州分局,,43,43,41,28,27,64,,78,78,5,6,8,9,0.6,0.6
2024-04-13T2100,2522A,107.3702,22.3707,崇左市,城南新区,,44,44,36,29,23,66,,77,77,7,6,7,7,0.6,0.6
2024-04-13T2100,2298A,118.3093,32.3153,滁州市,老年大学,颗粒物(PM10),54,57,60,36,43,48,,81,76,33,33,12,11,0.7,0.9
2024-04-13T2100,2299A,118.3244,32.2786,滁州市,人大宾馆,,46,41,42,32,46,47,,84,77,35,31,9,7,0.8,1
2024-04-13T2100,3207A,118.3118,32.3038,滁州市,市政府原办公楼,细颗粒物(PM2.5),59,47,49,42,49,43,,84,76,42,32,10,8,0.7,0.9
2024-04-13T2100,3331A,118.3267,32.2634,滁州市,图书馆,,49,47,48,34,46,44,,82,75,33,28,10,9,0.8,1
2024-04-13T2100,2605A,101.5482,25.0441,楚雄彝族自治州,州环境监测站,,40,33,41,24,32,128,,138,134,6,12,6,7,0.6,0.6
2024-04-13T2100,2606A,101.538,25.0492,楚雄彝族自治州,市经济开发区,,50,50,43,28,31,120,,136,131,11,13,5,6,0.5,0.5
2024-04-13T2100,2548A,107.5277,31.2827,达州市,达州职业技术学院,颗粒物(PM10),52,54,43,8,10,8,,56,43,38,27,5,5,0.8,0.7
2024-04-13T2100,2549A,107.5086,31.2186,达州市,市环境监测站,,50,50,41,22,17,8,,57,46,55,39,7,7,0.8,0.7
2024-04-13T2100,2550A,107.4988,31.2132,达州市,凤凰小区,颗粒物(PM10),52,53,45,22,21,8,,62,51,59,41,7,9,1.1,0.9
2024-04-13T2100,2551A,107.5082,31.1986,达州市,达县机关宾馆,颗粒物(PM10),63,75,53,24,23,1,,55,43,59,44,5,7,1.0,0.8
2024-04-13T2100,2552A,107.4644,31.2124,达州市,市政中心,颗粒物(PM10),64,78,47,36,21,6,,63,52,75,44,6,11,1.4,1
2024-04-13T2100,2614A,100.1542,25.7054,大理白族自治州,大理市环境监测站,,50,50,60,17,26,129,,141,139,8,12,7,8,0.5,0.6
2024-04-13T2100,2615A,100.2171,25.5811,大理白族自治州,大理古城,颗粒物(PM10),53,55,45,31,32,141,,143,140,8,9,6,6,0.6,0.6
2024-04-13T2100,1109A,121.612,38.9741,大连市,甘井子,,33,33,38,6,11,73,,68,68,18,28,4,3,0.6,0.5
2024-04-13T2100,1110A,121.565,38.9511,大连市,周水子,,22,22,41,12,20,57,,62,61,29,27,4,5,0.6,0.6
2024-04-13T2100,1111A,121.5637,38.8845,大连市,星海三站,,22,22,29,13,16,70,,70,66,15,17,2,2,0.4,0.4
2024-04-13T2100,1112A,121.6302,38.9117,大连市,青泥洼桥,,22,21,31,13,16,69,,92,88,19,15,8,8,0.7,0.7
2024-04-13T2100,1113A,121.6251,38.8638,大连市,傅家庄,,23,16,29,8,14,73,,85,85,12,12,6,6,0.4,0.4
2024-04-13T2100,1114A,121.5213,38.8661,大连市,七贤岭,,31,31,40,13,15,68,,70,70,20,20,9,9,0.3,0.3
2024-04-13T2100,1115A,121.2529,38.8061,大连市,旅顺,,23,11,21,9,14,71,,80,78,20,21,8,8,0.5,0.5
2024-04-13T2100,1116A,121.7485,39.1311,大连市,金州,,25,21,28,12,14,77,,96,93,12,12,8,9,0.6,0.7
2024-04-13T2100,1117A,121.7811,39.0496,大连市,开发区,,22,22,35,14,21,64,,63,63,17,29,3,4,0.4,0.3
2024-04-13T2100,1118A,121.9762,39.0631,大连市,双D港,,22,8,12,3,8,68,,66,66,16,18,8,7,0.4,0.4
2024-04-13T2100,1789A,124.81117,46.03138,大庆市,大同区,颗粒物(PM10),105,160,112,59,51,88,,125,120,21,17,13,10,0.6,0.5
2024-04-13T2100,1790A,125.129,46.533,大庆市,龙凤区,细颗粒物(PM2.5),176,179,88,133,52,68,,133,124,49,24,22,11,0.7,0.5
2024-04-13T2100,1791A,124.902,46.408,大庆市,红岗区,颗粒物(PM10),90,130,82,51,36,92,,124,120,22,18,11,9,0.8,0.8
2024-04-13T2100,1792A,125.153,46.586,大庆市,萨尔图区,细颗粒物(PM2.5),118,174,110,89,48,91,,122,119,24,20,15,10,0.6,0.4
2024-04-13T2100,1793A,124.9042,46.6215,大庆市,让胡路区,颗粒物(PM10),81,111,85,47,30,74,,129,118,42,23,14,11,0.7,0.6
2024-04-13T2100,3481A,125.141,46.634,大庆市,萨区政府监测点,细颗粒物(PM2.5),113,146,93,85,42,101,,137,133,23,20,13,10,0.7,0.6
2024-04-13T2100,1721A,113.3819,40.1097,大同市,果树场,,,,,,,,,,,,,,,,
2024-04-13T2100,1723A,113.2994,40.0758,大同市,云冈宾馆,颗粒物(PM10),128,205,116,57,43,131,,151,140,18,33,5,7,0.6,0.6
2024-04-13T2100,1724A,113.3444,40.0917,大同市,大同大学,颗粒物(PM10),160,270,106,48,41,136,,151,144,12,24,12,16,0.6,0.6
2024-04-13T2100,1725A,113.2661,40.1269,大同市,安家小村,颗粒物(PM10),166,281,135,53,43,130,,143,135,14,22,13,16,0.6,0.6
2024-04-13T2100,1726A,113.2711,40.0844,大同市,教育学院,颗粒物(PM10),134,218,135,53,45,134,,153,143,20,42,11,12,0.6,0.7
2024-04-13T2100,3282A,113.3397,40.0597,大同市,大同市卫生学校,颗粒物(PM10),147,243,115,57,44,134,,151,142,16,27,6,9,0.6,0.6
2024-04-13T2100,3565A,113.1367,40.1122,大同市,云冈站,颗粒物(PM10),150,250,124,65,41,135,,149,141,14,34,8,16,0.6,0.5
2024-04-13T2100,3566A,113.1186,40.2556,大同市,图书馆,颗粒物(PM10),105,160,103,71,40,136,,156,147,18,17,14,14,0.7,0.6
2024-04-13T2100,3567A,113.5931,40.0461,大同市,区一中,颗粒物(PM10),133,216,111,28,37,153,,166,161,13,17,2,7,0.6,0.7
2024-04-13T2100,3676A,113.2802,40.0995,大同市,第二人民医院,颗粒物(PM10),149,248,132,57,43,134,,151,141,16,36,8,11,0.6,0.7
2024-04-13T2100,2269A,124.1069,50.4097,大兴安岭地区,科技局,,23,17,15,16,15,72,,79,75,4,6,6,7,0.3,0.3
2024-04-13T2100,3663A,124.1164,50.4278,大兴安岭地区,红旗社区,,24,,5,2,3,74,,84,81,5,7,10,9,0.5,0.5
2024-04-13T2100,1600A,124.3303,40.0625,丹东市,江湾东路,细颗粒物(PM2.5),60,44,23,43,17,58,,86,74,14,13,7,9,0.6,0.5
2024-04-13T2100,1601A,124.4256,40.1503,丹东市,临江后街,细颗粒物(PM2.5),67,61,24,48,15,54,,86,76,13,9,13,12,1.2,0.7
2024-04-13T2100,1602A,124.3933,40.1461,丹东市,元宝山,细颗粒物(PM2.5),52,41,21,36,14,46,,76,66,22,16,8,8,0.6,0.4
2024-04-13T2100,1603A,124.3633,40.1092,丹东市,民主桥,,32,32,21,20,14,55,,79,70,10,10,10,10,0.5,0.7
2024-04-13T2100,3541A,109.5726,19.5167,儋州市,第一中学子站,,42,42,39,22,23,73,,90,86,6,5,4,5,0.5,0.6
2024-04-13T2100,3542A,109.5567,19.5187,儋州市,东坡学校子站,,39,39,36,20,26,77,,94,90,5,5,3,3,0.7,0.7
2024-04-13T2100,2616A,98.5842,24.428,德宏傣族景颇族自治州,德宏州监测站,细颗粒物(PM2.5),103,110,95,77,66,94,,145,144,32,29,8,17,0.9,0.8
2024-04-13T2100,3677A,98.5881,24.4368,德宏傣族景颇族自治州,芒市人民政府综合楼,细颗粒物(PM2.5),72,77,89,52,64,111,,140,140,19,21,10,11,0.8,0.9
2024-04-13T2100,1901A,104.4239,31.1208,德阳市,东山公园,颗粒物(PM10),52,54,48,30,25,117,,133,132,13,19,9,3,0.5,0.5
2024-04-13T2100,1902A,104.3826,31.1317,德阳市,西小区,颗粒物(PM10),55,59,57,34,33,97,,132,128,24,38,10,3,0.6,0.7
2024-04-13T2100,1904A,104.3553,31.1091,德阳市,耐火材料厂,颗粒物(PM10),55,60,64,35,35,100,,142,140,20,34,6,4,0.6,0.6
2024-04-13T2100,3639A,104.4019,31.1244,德阳市,市教育局,颗粒物(PM10),53,55,49,33,29,92,,129,126,24,33,10,3,0.6,0.6
2024-04-13T2100,1622A,116.3032,37.4674,德州市,儿童乐园,颗粒物(PM10),80,110,93,58,59,124,,154,152,26,15,7,8,0.8,0.8
2024-04-13T2100,1624A,116.2991,37.4451,德州市,监理站,细颗粒物(PM2.5),83,97,90,61,68,122,,161,154,26,17,11,12,0.6,0.7
2024-04-13T2100,3066A,116.2721,37.4379,德州市,九衢泉纯净水厂,颗粒物(PM10),79,107,100,56,51,103,,150,140,33,19,6,7,0.8,0.8
2024-04-13T2100,3371A,116.3728,37.4403,德州市,开发区人民医院,颗粒物(PM10),69,88,93,39,52,126,,156,150,16,14,8,9,0.6,0.7
2024-04-13T2100,3372A,116.3572,37.4094,德州市,太阳城中学,颗粒物(PM10),69,88,88,48,62,116,,151,144,18,13,6,7,0.5,0.7
2024-04-13T2100,3511A,116.5652,37.3319,德州市,陵城艺术中心,颗粒物(PM10),63,75,83,39,51,110,,157,151,21,17,4,6,0.7,0.8
2024-04-13T2100,2621A,99.7056,27.8317,迪庆藏族自治州,迪庆州站,,42,42,36,23,21,123,,134,132,15,12,5,6,0.4,0.3
2024-04-13T2100,3180A,99.7136,27.8094,迪庆藏族自治州,质量技术监督局,,38,26,32,19,19,120,,130,126,11,12,7,6,0.5,0.5
2024-04-13T2100,2663A,104.6241,35.5734,定西市,东关小学,颗粒物(PM10),81,111,58,43,28,76,,122,116,29,11,5,3,0.4,0.3
2024-04-13T2100,2664A,104.6194,35.5934,定西市,供电公司,颗粒物(PM10),81,112,48,41,28,68,,115,109,32,9,5,4,0.2,0.1
2024-04-13T2100,1389A,113.7547,23.0494,东莞市,莞城梨川,,38,38,46,18,24,58,,122,104,23,25,8,8,0.8,0.9
2024-04-13T2100,1390A,113.7944,23.0128,东莞市,东城石井,,31,31,38,18,23,56,,124,104,22,23,7,7,0.7,0.7
2024-04-13T2100,1391A,113.7383,22.9658,东莞市,南城西平,,30,30,38,16,22,68,,108,94,14,18,9,8,0.7,0.8
2024-04-13T2100,3319A,113.7338,23.0381,东莞市,万江金泰,,38,38,45,21,26,62,,116,99,14,25,7,8,0.7,0.7
2024-04-13T2100,3626A,113.7533,23.0202,东莞市,南城元岭,,34,34,42,16,23,61,,121,101,17,25,7,8,0.8,0.9
2024-04-13T2100,3627A,113.7875,23.0457,东莞市,东城主山,,30,30,39,17,24,60,,128,108,18,23,8,9,0.7,0.8
2024-04-13T2100,1666A,118.6614,37.4309,东营市,市环保局,,27,27,51,9,28,78,,116,102,13,15,10,13,0.3,0.4
2024-04-13T2100,3036A,118.6904,37.4338,东营市,开发区管委会,,24,22,51,9,32,76,,108,96,16,18,4,8,0.5,0.6
2024-04-13T2100,3365A,118.5719,37.565,东营市,垦利区民丰路,,27,27,56,9,26,76,,123,104,13,21,13,28,0.5,0.8
2024-04-13T2100,3498A,118.5055,37.8612,东营市,河口城区,,29,27,62,20,42,79,,140,116,10,13,5,10,0.7,0.9
2024-04-13T2100,3646A,118.4978,37.4623,东营市,胜利站,,33,33,57,7,28,73,,123,101,16,19,10,12,0.4,0.6
2024-04-13T2100,3734A,118.35,37.26,东营市,理想之城,,31,31,64,12,30,68,,114,94,16,18,29,23,0.5,0.8
2024-04-13T2100,1591A,110.0023,39.8129,鄂尔多斯市,综合楼,颗粒物(PM10),53,56,81,29,26,93,,118,110,18,21,6,11,0.6,0.7
2024-04-13T2100,1592A,109.9486,39.8261,鄂尔多斯市,巴音孟克林场办事处,颗粒物(PM10),54,58,79,29,26,87,,120,112,21,22,7,14,0.6,0.7
2024-04-13T2100,1593A,109.7736,39.5986,鄂尔多斯市,康泽苑,,46,46,71,29,28,93,,130,119,15,28,5,10,0.5,0.6
2024-04-13T2100,1594A,109.8119,39.5989,鄂尔多斯市,华泰汽车城,,45,39,73,31,31,83,,118,108,13,38,7,13,0.4,0.6
2024-04-13T2100,1595A,109.9734,39.7884,鄂尔多斯市,奥林花园,,48,48,81,24,27,81,,120,110,16,25,6,13,0.6,0.7
2024-04-13T2100,2436A,114.8938,30.3994,鄂州市,市政府,,42,42,55,28,27,79,,78,78,12,23,12,13,1.1,1.1
2024-04-13T2100,2437A,114.8989,30.3714,鄂州市,赵家坝,,48,40,47,33,31,81,,72,72,3,15,5,8,1.0,1
2024-04-13T2100,3654A,114.8094,30.4089,鄂州市,精准医疗中心,颗粒物(PM10),55,59,65,37,32,72,,67,67,16,30,17,15,1.5,1.5
2024-04-13T2100,2454A,109.4978,30.2981,恩施土家族苗族自治州,湖北民院,,33,33,34,16,23,79,,95,95,27,23,6,6,0.6,0.7
2024-04-13T2100,2455A,109.4707,30.2798,恩施土家族苗族自治州,州电力总公司,,36,,36,25,24,82,,94,94,27,36,6,6,0.7,0.8
2024-04-13T2100,3549A,109.5061,30.3772,恩施土家族苗族自治州,龙凤新区,,27,25,26,13,18,26,,102,99,53,19,7,7,1.0,0.8
2024-04-13T2100,2499A,108.3411,21.6158,防城港市,沙万,,37,37,43,22,21,50,,64,60,27,37,3,7,0.7,0.7
2024-04-13T2100,2500A,108.3514,21.7731,防城港市,防城档案局,,38,38,39,20,22,56,,64,62,8,12,3,4,0.5,0.6
2024-04-13T2100,2501A,108.3506,21.6414,防城港市,大海花园,,38,38,42,16,16,57,,68,66,20,31,4,6,0.6,0.6
2024-04-13T2100,1371A,113.1294,23.0067,佛山市,湾梁,,39,39,51,21,25,75,,131,118,12,29,7,7,0.6,0.6
2024-04-13T2100,1372A,113.1083,23.0478,佛山市,华材职中,,46,46,51,26,29,70,,130,118,18,31,7,7,0.5,0.5
2024-04-13T2100,1373A,113.144,23.0453,佛山市,南海气象局,,42,42,49,27,31,65,,127,114,18,32,7,7,0.6,0.7
2024-04-13T2100,1374A,113.2881,22.8094,佛山市,顺德苏岗,,37,37,46,22,27,68,,126,107,12,26,5,6,0.8,0.8
2024-04-13T2100,1376A,112.8383,22.8678,佛山市,高明孔堂,,34,34,32,19,22,78,,90,89,5,9,7,7,0.5,0.6
2024-04-13T2100,1377A,112.8836,23.1588,佛山市,三水监测站,,48,48,69,25,36,42,,90,76,31,44,5,8,0.7,0.8
2024-04-13T2100,1378A,112.867,23.185,佛山市,三水云东海,,39,39,55,26,37,57,,98,86,29,34,5,6,0.5,0.6
2024-04-13T2100,3625A,113.2544,22.7642,佛山市,容桂街道办,,39,39,46,19,29,52,,100,84,22,27,6,8,0.7,0.7
2024-04-13T2100,1280A,119.3903,26.0543,福州市,鼓山,,,,,,,,,,,,,,,,
2024-04-13T2100,1282A,119.2681,26.0504,福州市,师大,,23,23,52,10,39,71,,80,78,14,28,4,5,0.5,0.7
2024-04-13T2100,1283A,119.2984,26.1028,福州市,五四北路,,20,20,51,10,49,64,,70,70,22,34,4,4,0.2,0.4
2024-04-13T2100,1284A,119.2648,26.0768,福州市,杨桥西路,,25,19,52,8,41,77,,80,80,14,26,4,4,0.4,0.6
2024-04-13T2100,1285A,119.317,26.0746,福州市,紫阳,,23,14,49,4,45,71,,75,75,16,31,3,4,0.4,0.6
2024-04-13T2100,3048A,119.5799,26.0936,福州市,九龙,,21,10,20,2,19,65,,86,84,10,13,3,3,0.4,0.4
2024-04-13T2100,3526A,119.5189,25.9664,福州市,吴航,,19,9,38,5,26,60,,72,72,15,16,2,4,0.3,0.5
2024-04-13T2100,1755A,123.7977,41.8491,抚顺市,望花区,,42,42,51,23,23,84,,112,102,11,14,13,17,0.4,0.6
2024-04-13T2100,1756A,123.9161,41.8822,抚顺市,顺城区,,43,38,43,30,19,96,,138,127,16,15,7,7,0.6,0.5
2024-04-13T2100,1757A,124.0436,41.8611,抚顺市,东洲区,,34,34,33,17,14,95,,123,112,6,7,6,7,0.4,0.4
2024-04-13T2100,1758A,123.9247,41.8642,抚顺市,新抚区,,29,29,43,20,17,80,,120,110,14,13,10,9,0.8,0.5
2024-04-13T2100,1759A,124.0972,41.8961,抚顺市,大伙房水库,,37,31,34,15,13,116,,143,133,5,6,5,6,0.4,0.4
2024-04-13T2100,1760A,123.7086,41.8391,抚顺市,沈抚新城,,31,31,46,10,16,84,,125,108,9,11,7,7,0.4,0.5
2024-04-13T2100,2376A,116.2127,28.0814,抚州市,桐源党溪,,24,24,47,8,24,24,,58,49,6,8,5,7,0.3,0.3
2024-04-13T2100,2377A,116.3544,27.9831,抚州市,市站,,23,22,44,16,30,45,,54,52,18,16,4,4,0.8,0.8
2024-04-13T2100,2378A,116.3565,27.963,抚州市,血防站,,28,28,42,10,29,45,,70,54,18,16,1,2,1.2,1.1
2024-04-13T2100,2379A,116.3564,28.0007,抚州市,采茶剧团,,30,30,46,14,31,31,,56,48,26,16,2,3,1.1,0.9
2024-04-13T2100,2380A,116.385,27.9647,抚州市,医学分院,,27,27,46,10,23,47,,57,56,21,19,8,9,0.6,0.7
2024-04-13T2100,2207A,121.6094,41.998,阜新市,工业园区,颗粒物(PM10),53,55,60,33,36,129,,127,127,14,17,9,10,0.8,0.7
2024-04-13T2100,2208A,121.6697,42.0279,阜新市,长青街,细颗粒物(PM2.5),70,62,79,51,42,134,,130,130,16,19,8,10,0.6,0.6
2024-04-13T2100,2209A,121.6673,42.0705,阜新市,农业园区,颗粒物(PM10),64,77,72,44,34,128,,123,123,15,18,6,8,0.6,0.5
2024-04-13T2100,2210A,121.6717,42.0224,阜新市,东苑,细颗粒物(PM2.5),64,,58,46,36,123,,118,118,19,12,10,12,0.9,0.7
2024-04-13T2100,2211A,121.6506,42.0498,阜新市,玉龙新城,颗粒物(PM10),51,52,56,30,25,124,,122,122,13,16,9,10,0.9,0.8
2024-04-13T2100,2301A,115.8277,32.8929,阜阳市,市监测站,颗粒物(PM10),59,68,84,37,42,90,,113,109,22,19,10,8,0.7,0.7
2024-04-13T2100,2303A,115.8554,32.8605,阜阳市,开发区,颗粒物(PM10),56,62,68,39,51,78,,114,109,30,19,6,6,0.6,0.6
2024-04-13T2100,2875A,115.784,32.8892,阜阳市,阜阳职业技术学院,颗粒物(PM10),65,80,81,34,36,95,,116,114,22,18,6,6,0.6,0.6
2024-04-13T2100,3468A,115.7901,32.8613,阜阳市,市规划展馆,细颗粒物(PM2.5),62,56,66,44,55,86,,115,112,29,17,7,7,0.8,0.8
2024-04-13T2100,3469A,115.836,32.9183,阜阳市,枣园社区,细颗粒物(PM2.5),62,59,63,44,60,91,,108,108,23,19,6,6,0.6,0.6
2024-04-13T2100,2669A,102.9099,34.9841,甘南藏族自治州,州政府,颗粒物(PM10),54,57,47,27,20,79,,101,97,12,15,7,9,0.6,0.6
2024-04-13T2100,3380A,102.8914,34.9617,甘南藏族自治州,甘肃民族师范学院,颗粒物(PM10),63,76,51,28,18,64,,102,98,21,20,16,13,0.3,0.3
2024-04-13T2100,2570A,101.9603,30.0475,甘孜藏族自治州,水桥子,颗粒物(PM10),78,106,28,26,13,18,,127,99,83,35,3,2,0.6,0.4
2024-04-13T2100,3065A,101.9533,29.9972,甘孜藏族自治州,州环保局,,30,30,27,10,5,68,,138,116,40,20,2,2,0.3,0.3
2024-04-13T2100,3414A,115.8347,28.932,赣江新区,桑海产业园,,19,19,33,10,14,46,,42,33,22,39,6,7,0.5,0.6
2024-04-13T2100,2362A,114.9017,25.9149,赣州市,通天岩,,,,,,,,,,,,,,,,
2024-04-13T2100,2363A,114.9367,25.8664,赣州市,地委,细颗粒物(PM2.5),77,101,55,56,32,34,,89,74,78,31,11,9,1.6,1.1
2024-04-13T2100,2364A,114.9461,25.8481,赣州市,气象台,细颗粒物(PM2.5),77,94,53,56,28,38,,84,67,36,26,8,10,1.0,0.8
2024-04-13T2100,2365A,114.9322,25.8333,赣州市,市图书馆,"颗粒物(PM10),细颗粒物(PM2.5)",79,108,55,58,33,8,,64,40,48,20,15,20,1.8,1.1
2024-04-13T2100,2366A,114.8905,25.8471,赣州市,华坚鞋城,颗粒物(PM10),74,98,55,51,33,35,,81,70,30,20,54,14,1.0,0.8
2024-04-13T2100,3109A,115.0093,25.8613,赣州市,赣县区卫计委,颗粒物(PM10),86,122,57,63,37,5,,73,54,40,28,11,11,1.6,0.8
2024-04-13T2100,2683A,106.2319,36.1417,固原市,马园,颗粒物(PM10),94,138,71,18,23,68,,109,93,27,24,5,5,0.6,0.7
2024-04-13T2100,2684A,106.2792,36.0022,固原市,监测站,颗粒物(PM10),83,115,59,25,24,74,,108,102,17,14,4,5,0.4,0.4
2024-04-13T2100,2685A,106.2375,36.0211,固原市,新区,颗粒物(PM10),77,104,56,22,24,64,,110,102,38,17,5,5,0.4,0.4
2024-04-13T2100,3522A,106.2177,35.9959,固原市,原州区十五小,颗粒物(PM10),105,160,62,54,27,47,,118,105,50,15,8,9,0.4,0.3
2024-04-13T2100,2543A,106.6308,30.5278,广安市,小平旧居,,,,,,,,,,,,,,,,
2024-04-13T2100,2544A,106.6303,30.4576,广安市,市委,,,,32,,18,,,62,,,25,,5,,0.8
2024-04-13T2100,2545A,106.6271,30.4663,广安市,友谊中学,,38,38,31,23,19,89,,110,110,19,22,6,6,0.7,0.7
2024-04-13T2100,2547A,106.6388,30.4551,广安市,广电花园,,40,40,34,24,19,88,,108,108,17,17,8,8,0.7,0.7
2024-04-13T2100,2902A,106.6351,30.4865,广安市,北辰小学,,43,43,36,25,20,90,,106,106,15,16,7,7,0.8,0.7
2024-04-13T2100,2523A,105.8945,32.4535,广元市,黑石坡,,35,,21,24,13,104,,117,117,5,10,6,8,0.3,0.4
2024-04-13T2100,2524A,105.821,32.4444,广元市,老城,,40,40,34,23,16,19,,106,95,70,27,4,6,0.8,0.8
2024-04-13T2100,2526A,105.8628,32.4287,广元市,监测站,,,48,30,37,19,52,,103,96,34,17,9,6,,0.5
2024-04-13T2100,3617A,105.8047,32.4166,广元市,经开区,,42,42,42,24,25,44,,108,101,48,26,6,10,0.7,0.8
2024-04-13T2100,1345A,113.2347,23.1423,广州市,广雅中学,颗粒物(PM10),51,52,59,25,33,41,,144,123,50,53,5,5,0.9,0.9
2024-04-13T2100,1346A,113.2612,23.105,广州市,市五中,颗粒物(PM10),54,57,59,30,35,50,,147,126,36,43,7,7,0.8,0.8
2024-04-13T2100,1348A,113.3478,23.0916,广州市,广东商学院,,39,39,53,20,31,48,,138,123,34,46,4,5,0.6,0.7
2024-04-13T2100,1349A,113.4332,23.1047,广州市,市八十六中,,38,38,53,17,27,37,,122,107,37,50,5,6,0.7,0.7
2024-04-13T2100,1350A,113.3505,22.9483,广州市,番禺中学,,,40,53,21,27,54,,152,125,29,44,4,4,,0.7
2024-04-13T2100,1351A,113.2146,23.3916,广州市,花都师范,,47,47,68,24,36,61,,146,136,34,51,6,6,0.7,0.8
2024-04-13T2100,1352A,113.2597,23.1331,广州市,市监测站,颗粒物(PM10),52,53,56,25,30,42,,138,119,43,50,5,6,0.6,0.7
2024-04-13T2100,1353A,113.5618,23.312,广州市,九龙镇镇龙,,45,45,68,23,39,60,,139,127,32,39,6,7,0.6,0.7
2024-04-13T2100,1354A,113.2765,23.1544,广州市,麓湖,,46,46,58,24,35,53,,153,135,30,40,5,5,0.7,0.8
2024-04-13T2100,1355A,113.443,23.3035,广州市,帽峰山森林公园,,34,34,49,19,28,57,,161,148,32,30,6,5,0.6,0.7
2024-04-13T2100,2846A,113.3221,23.1322,广州市,体育西,颗粒物(PM10),53,55,68,26,32,49,,145,129,32,38,7,8,0.8,0.8
2024-04-13T2100,3298A,113.5717,23.5491,广州市,从化街口,,44,44,64,27,44,87,,156,151,28,32,5,5,0.8,0.9
2024-04-13T2100,3299A,113.3472,23.3692,广州市,白云竹料,颗粒物(PM10),52,54,76,29,43,48,,151,140,48,48,8,7,0.7,0.8
2024-04-13T2100,3300A,113.2981,23.237,广州市,白云嘉禾,,,45,63,20,32,,,160,160,41,54,4,5,0.7,0.8
2024-04-13T2100,3301A,113.4256,23.1716,广州市,黄埔科学城,,43,43,63,20,36,50,,135,118,19,35,6,8,0.8,0.9
2024-04-13T2100,3302A,113.3942,23.0483,广州市,番禺大学城,,37,37,49,17,25,50,,133,113,23,38,4,5,0.8,0.8
2024-04-13T2100,3303A,113.4922,22.8168,广州市,南沙黄阁,,34,34,50,16,26,64,,110,98,20,29,5,6,0.7,0.8
2024-04-13T2100,3304A,113.5342,22.7896,广州市,南沙街,,34,34,42,15,24,69,,105,94,14,21,7,7,0.6,0.7
2024-04-13T2100,3443A,113.2902,23.5544,广州市,花都梯面,,47,47,61,28,38,83,,175,168,32,30,8,6,0.9,0.9
2024-04-13T2100,3445A,113.7858,23.7478,广州市,从化良口,,40,40,42,28,31,102,,138,138,12,14,4,4,0.7,0.7
2024-04-13T2100,3446A,113.8051,23.2614,广州市,增城荔城,,38,38,60,22,41,61,,148,129,26,30,6,6,0.6,0.7
2024-04-13T2100,2505A,109.568,23.1478,贵港市,德智高中,颗粒物(PM10),61,72,64,41,39,33,,44,42,39,38,6,8,0.7,0.8
2024-04-13T2100,2506A,109.6047,23.0666,贵港市,江南子站,细颗粒物(PM2.5),78,75,65,57,40,60,,68,68,15,20,7,8,0.5,0.6
2024-04-13T2100,2507A,109.6014,23.0948,贵港市,贵城子站,细颗粒物(PM2.5),59,64,89,42,46,58,,60,60,13,26,7,11,0.7,0.8
2024-04-13T2100,2508A,109.5669,23.1065,贵港市,荷城子站,细颗粒物(PM2.5),62,70,65,44,39,39,,50,50,25,22,8,10,0.9,0.8
2024-04-13T2100,3405A,109.5886,23.1172,贵港市,新世纪学校,细颗粒物(PM2.5),68,78,66,49,38,45,,57,57,28,37,9,9,1.0,1
2024-04-13T2100,1439A,106.6899,26.5998,贵阳市,马鞍山,颗粒物(PM10),51,51,49,34,31,103,,137,134,12,10,6,9,0.5,0.5
2024-04-13T2100,1440A,106.6971,26.5694,贵阳市,市环保站,细颗粒物(PM2.5),68,66,61,49,45,102,,139,133,16,14,4,5,0.7,0.6
2024-04-13T2100,1441A,106.6243,26.6266,贵阳市,鉴湖路,颗粒物(PM10),59,68,57,34,33,101,,143,140,15,8,4,5,0.6,0.5
2024-04-13T2100,1442A,106.7487,26.6343,贵阳市,燕子冲,,48,48,51,31,36,113,,143,141,8,9,8,9,0.5,0.5
2024-04-13T2100,1443A,106.6555,26.4365,贵阳市,碧云窝,颗粒物(PM10),51,51,52,34,33,113,,140,138,8,7,5,6,0.2,0.5
2024-04-13T2100,1444A,106.694,26.5161,贵阳市,中院村,,49,46,53,34,38,94,,123,121,12,11,7,9,0.5,0.5
2024-04-13T2100,1445A,106.7109,26.6027,贵阳市,红边门,细颗粒物(PM2.5),70,58,60,51,44,103,,139,136,11,10,4,5,0.5,0.5
2024-04-13T2100,1446A,106.7164,26.5699,贵阳市,新华路,细颗粒物(PM2.5),62,63,54,44,39,105,,141,138,14,11,2,4,0.6,0.7
2024-04-13T2100,1447A,106.674,26.5424,贵阳市,太慈桥,"颗粒物(PM10),细颗粒物(PM2.5)",52,53,50,36,34,108,,134,132,13,11,7,7,0.6,0.5
2024-04-13T2100,1552A,106.805,26.3003,贵阳市,桐木岭,,,,,,,,,,,,,,,,
2024-04-13T2100,1862A,110.4144,25.3167,桂林市,电子科大尧山校区,,35,34,37,24,25,104,,102,102,5,6,4,7,0.8,0.9
2024-04-13T2100,1863A,110.2819,25.2697,桂林市,监测站,细颗粒物(PM2.5),55,47,59,39,42,48,,66,63,18,21,7,12,0.8,1
2024-04-13T2100,1864A,110.3089,25.2708,桂林市,龙隐路小学,,45,42,46,31,34,50,,66,62,13,16,4,8,0.7,0.8
2024-04-13T2100,1865A,110.2869,25.2178,桂林市,八中,,,43,49,30,35,,,66,66,24,16,4,8,0.7,0.9
2024-04-13T2100,3403A,110.1764,25.2381,桂林市,创业大厦,,42,39,45,29,34,55,,73,70,12,17,6,9,0.6,0.8
2024-04-13T2100,3531A,110.296,25.1253,桂林市,旅游学院,,32,27,39,22,31,58,,66,65,7,16,5,11,0.5,0.7
2024-04-13T2100,2674A,100.2561,34.4714,果洛藏族自治州,玛沁县大武镇,颗粒物(PM10),53,55,32,24,20,98,,118,115,10,6,13,11,0.5,0.4
2024-04-13T2100,1129A,126.5422,45.755,哈尔滨市,岭北,细颗粒物(PM2.5),105,146,112,79,49,129,,148,148,,22,28,24,0.5,0.6
2024-04-13T2100,1130A,126.561,45.8167,哈尔滨市,松北商大,颗粒物(PM10),82,113,87,54,41,130,,139,139,17,14,8,7,0.8,0.7
2024-04-13T2100,1131A,126.979,45.5419,哈尔滨市,阿城会宁,细颗粒物(PM2.5),67,77,79,48,43,107,,141,136,12,12,14,9,0.7,0.7
2024-04-13T2100,1132A,126.599,45.7222,哈尔滨市,南岗学府路,细颗粒物(PM2.5),102,148,104,76,43,112,,133,132,28,25,12,10,0.9,0.7
2024-04-13T2100,1133A,126.689,45.7733,哈尔滨市,太平宏伟公园,颗粒物(PM10),99,147,99,70,46,112,,150,147,28,18,10,9,0.5,0.4
2024-04-13T2100,1134A,126.635,45.7667,哈尔滨市,道外承德广场,细颗粒物(PM2.5),99,137,100,74,51,130,,145,145,27,27,16,15,0.7,0.4
2024-04-13T2100,1135A,126.685,45.7319,哈尔滨市,香坊红旗大街,细颗粒物(PM2.5),139,152,101,106,52,92,,140,134,43,31,17,13,1.0,0.7
2024-04-13T2100,1136A,126.6411,45.7258,哈尔滨市,动力和平路,"颗粒物(PM10),细颗粒物(PM2.5)",97,143,98,72,44,106,,153,148,43,28,12,10,0.9,0.7
2024-04-13T2100,1137A,126.593,45.7478,哈尔滨市,道里建国路,颗粒物(PM10),89,127,97,58,49,128,,141,141,22,22,12,14,1.0,1.4
2024-04-13T2100,1138A,126.615,45.61,哈尔滨市,平房东轻厂,颗粒物(PM10),100,150,96,64,39,110,,146,143,20,13,10,8,0.7,0.5
2024-04-13T2100,1139A,126.595,45.9855,哈尔滨市,呼兰师专,颗粒物(PM10),101,151,102,74,49,118,,134,134,33,24,14,13,0.8,0.7
2024-04-13T2100,1140A,126.6206,45.6842,哈尔滨市,省农科院,颗粒物(PM10),113,175,107,84,50,95,,143,133,59,36,11,10,0.9,0.7
2024-04-13T2100,2688A,93.5128,42.8172,哈密市,地区监测站,颗粒物(PM10),500,1479,2360,234,282,88,,111,103,14,7,5,4,0.3,0.1
2024-04-13T2100,2689A,93.4961,42.8328,哈密市,哈密师范学校,颗粒物(PM10),500,1462,2184,256,293,88,,107,99,11,8,4,4,0.4,0.3
2024-04-13T2100,2671A,100.9048,36.9639,海北藏族自治州,海晏县西海镇,颗粒物(PM10),58,65,52,26,21,96,,102,102,4,7,9,13,0.4,0.4
2024-04-13T2100,3867A,102.0738,36.5056,海东市,平安区公安北苑,颗粒物(PM10),60,70,61,26,21,82,,104,101,16,15,5,11,0.3,0.4
2024-04-13T2100,1409A,110.576,19.9507,海口市,东寨港,,,,,,,,,,,,,,,,
2024-04-13T2100,1410A,110.3232,20.0574,海口市,海南大学,,40,40,34,22,21,63,,85,76,4,6,5,5,0.4,0.4
2024-04-13T2100,1411A,110.283,20.0053,海口市,秀英海南医院,,44,44,38,25,22,30,,85,62,12,12,5,5,0.5,0.4
2024-04-13T2100,1412A,110.338,19.9969,海口市,海南师范大学,,33,33,36,21,21,60,,93,84,3,5,5,5,0.5,0.5
2024-04-13T2100,1413A,110.33,20.0356,海口市,龙华路环保局宿舍,,46,46,36,23,21,58,,84,75,5,6,6,6,0.5,0.5
2024-04-13T2100,3539A,110.5111,19.9736,海口市,桂林洋子站,,43,43,37,24,22,57,,83,73,6,5,6,5,0.3,0.4
2024-04-13T2100,2673A,100.6188,36.2866,海南藏族自治州,共和县恰卜恰镇,颗粒物(PM10),70,90,62,23,18,85,,108,104,17,9,12,12,0.5,0.5
2024-04-13T2100,2676A,97.3731,37.3753,海西蒙古族藏族自治州,德令哈市,颗粒物(PM10),92,133,133,29,33,101,,110,110,13,8,10,13,0.8,0.6
2024-04-13T2100,1048A,114.5302,36.6116,邯郸市,东污水处理厂,细颗粒物(PM2.5),79,92,54,58,46,99,,133,130,20,15,6,6,0.4,0.4
2024-04-13T2100,1049A,114.4918,36.5713,邯郸市,矿院,细颗粒物(PM2.5),67,54,60,48,37,93,,124,122,16,11,6,6,0.6,0.6
2024-04-13T2100,1050A,114.484,36.6133,邯郸市,丛台公园,细颗粒物(PM2.5),69,83,55,50,35,100,,132,129,16,10,6,6,0.5,0.4
2024-04-13T2100,3458A,114.7895,36.5593,邯郸市,香泉濮院小区,颗粒物(PM10),69,87,71,44,42,97,,148,139,18,15,7,7,0.4,0.4
2024-04-13T2100,3579A,114.50634,36.77178,邯郸市,永年区实验高中,细颗粒物(PM2.5),92,82,68,68,42,120,,147,144,14,13,4,4,0.2,0.3
2024-04-13T2100,3580A,114.20016,36.44293,邯郸市,峰峰矿区临水派出所,细颗粒物(PM2.5),78,74,68,57,39,119,,143,141,3,5,7,8,1.0,0.9
2024-04-13T2100,2634A,106.9893,33.1842,汉中市,汉川机床厂子校,,23,23,35,8,21,68,,69,69,17,17,19,6,0.4,0.4
2024-04-13T2100,2635A,107.0154,33.0706,汉中市,市监测站,,28,24,43,19,24,85,,76,76,18,19,16,8,0.8,0.8
2024-04-13T2100,2636A,107.0089,33.1138,汉中市,鑫源开发区,,26,20,44,13,25,83,,78,78,22,26,17,10,0.8,0.7
2024-04-13T2100,2637A,107.007,33.0323,汉中市,南郑大河坎水厂,,22,20,41,14,24,69,,77,77,26,18,8,8,0.6,0.6
2024-04-13T2100,1223A,120.2072,30.2111,杭州市,滨江,,45,45,60,22,27,47,,116,100,37,36,5,4,0.5,0.6
2024-04-13T2100,1224A,120.0633,30.2747,杭州市,西溪,,26,26,46,17,32,68,,121,109,27,33,6,6,0.6,0.7
2024-04-13T2100,1226A,120.3461,30.3153,杭州市,下沙,,32,32,42,15,20,55,,110,93,28,30,5,5,0.5,0.6
2024-04-13T2100,1227A,120.1269,30.2456,杭州市,卧龙桥,,43,32,46,30,42,66,,131,115,28,26,4,4,0.5,0.6
2024-04-13T2100,1228A,120.1903,30.2692,杭州市,浙江农大,,36,36,43,21,28,57,,116,99,32,38,5,5,0.5,0.6
2024-04-13T2100,1230A,120.1197,30.3119,杭州市,和睦小学,,24,24,44,16,29,61,,105,94,31,40,6,7,0.5,0.7
2024-04-13T2100,1231A,120.3019,30.4183,杭州市,临平镇,,37,37,58,22,37,64,,105,93,17,25,4,4,0.5,0.6
2024-04-13T2100,1232A,120.2697,30.1819,杭州市,城厢镇,,40,38,49,28,35,41,,112,96,39,39,4,5,0.5,0.7
2024-04-13T2100,1233A,120.0883,30.1808,杭州市,云栖,,30,30,47,17,28,61,,124,109,34,30,6,6,0.5,0.7
2024-04-13T2100,3557A,119.9464,30.0494,杭州市,镇二中,,33,33,65,19,37,65,,131,121,30,36,7,6,0.8,1
2024-04-13T2100,3558A,119.7183,30.2367,杭州市,市府大楼,,23,20,58,15,46,72,,130,124,28,36,5,5,0.5,0.7
2024-04-13T2100,3656A,120.1556,30.2864,杭州市,消防大队,,26,26,43,18,30,63,,119,103,34,43,7,7,0.7,0.8
2024-04-13T2100,1270A,117.1959,31.7848,合肥市,明珠广场,细颗粒物(PM2.5),64,61,104,46,76,97,,125,121,32,32,11,8,0.9,1
2024-04-13T2100,1271A,117.3072,31.8764,合肥市,三里街,颗粒物(PM10),53,56,96,34,61,89,,55,,31,38,6,6,0.7,0.9
2024-04-13T2100,1272A,117.2588,31.8707,合肥市,琥珀山庄,颗粒物(PM10),54,58,104,29,60,102,,124,123,23,28,4,4,0.7,0.9
2024-04-13T2100,1273A,117.1604,31.9052,合肥市,董铺水库,颗粒物(PM10),54,58,105,31,60,119,,133,133,10,17,1,2,0.5,0.7
2024-04-13T2100,1274A,117.25,31.8571,合肥市,长江中路,颗粒物(PM10),58,66,111,40,63,100,,119,118,25,30,4,5,1.1,1.2
2024-04-13T2100,1275A,117.266,31.9436,合肥市,庐阳区,颗粒物(PM10),54,58,109,34,61,95,,121,118,36,43,5,5,0.6,0.8
2024-04-13T2100,1276A,117.336,31.8586,合肥市,瑶海区,颗粒物(PM10),52,53,101,34,64,91,,118,115,26,33,7,7,0.7,0.9
2024-04-13T2100,1277A,117.3027,31.7964,合肥市,包河区,颗粒物(PM10),58,66,97,34,65,87,,128,117,40,37,8,8,0.5,0.7
2024-04-13T2100,1278A,117.2776,31.7385,合肥市,滨湖新区,颗粒物(PM10),56,61,88,39,59,91,,128,123,28,19,8,7,0.5,0.7
2024-04-13T2100,1279A,117.1318,31.8403,合肥市,高新区,细颗粒物(PM2.5),60,66,107,43,78,106,,128,126,23,29,8,7,0.8,1
2024-04-13T2100,3464A,117.3803,31.9147,合肥市,高教基地,,38,38,80,20,36,97,,120,117,25,33,5,5,0.5,0.7
2024-04-13T2100,3614A,79.924,37.0877,和田地区,地区环保局,细颗粒物(PM2.5),223,342,151,173,56,84,,98,97,14,18,6,6,0.4,0.4
2024-04-13T2100,3615A,79.9131,37.113,和田地区,市环保局,颗粒物(PM10),169,287,155,104,44,60,,89,86,33,41,5,7,,0.8
2024-04-13T2100,2516A,108.2011,24.715,河池市,东仁乐园,颗粒物(PM10),57,63,62,32,32,10,,17,17,18,11,5,5,0.8,0.8
2024-04-13T2100,2517A,108.0497,24.6947,河池市,市环保站,,49,47,46,34,30,82,,84,84,10,10,7,7,0.6,0.6
2024-04-13T2100,2518A,108.0983,24.6989,河池市,市疾控中心,细颗粒物(PM2.5),57,58,45,40,30,67,,83,82,23,14,6,6,0.7,0.7
2024-04-13T2100,1696A,114.6778,23.7569,河源市,源西,颗粒物(PM10),64,77,74,30,58,84,,148,138,15,35,4,4,0.7,0.9
2024-04-13T2100,1697A,114.6944,23.7586,河源市,东埔,,49,43,84,34,53,89,,160,151,13,26,7,7,0.7,0.9
2024-04-13T2100,1698A,114.6892,23.7233,河源市,老城,,48,48,65,24,37,85,,155,144,9,19,6,7,0.7,0.8
2024-04-13T2100,1718A,115.4208,35.2464,菏泽市,气象局,,39,39,76,20,43,66,,125,103,18,19,3,3,0.4,0.5
2024-04-13T2100,1719A,115.4747,35.2375,菏泽市,市政协,,40,39,62,28,45,59,,120,98,16,13,3,3,0.5,0.6
2024-04-13T2100,3374A,115.5564,35.0891,菏泽市,定陶老年大学,,39,36,69,27,46,60,,109,88,20,16,3,4,0.5,0.5
2024-04-13T2100,3647A,115.4702,35.2706,菏泽市,菏泽医专,,38,38,67,18,42,49,,95,78,16,15,2,3,0.4,0.5
2024-04-13T2100,2514A,111.5264,24.4172,贺州市,环保小区,"颗粒物(PM10),细颗粒物(PM2.5)",59,68,68,42,42,49,,56,56,20,24,10,9,0.9,1
2024-04-13T2100,2515A,111.5608,24.4078,贺州市,政协大楼,颗粒物(PM10),58,65,63,38,41,44,,60,57,23,21,11,10,0.9,1
2024-04-13T2100,3534A,111.4744,24.4553,贺州市,西湾,,,69,66,44,45,,,40,40,41,28,8,8,0.9,1
2024-04-13T2100,2385A,114.17,35.9019,鹤壁市,市监测站,细颗粒物(PM2.5),87,85,61,64,50,103,,127,124,20,20,8,7,0.5,0.5
2024-04-13T2100,2386A,114.2956,35.7511,鹤壁市,市交警支队,细颗粒物(PM2.5),82,88,59,60,41,100,,136,131,15,14,10,10,0.5,0.5
2024-04-13T2100,2387A,114.2878,35.7306,鹤壁市,迎宾馆,,,,49,,53,102,,137,132,14,16,10,11,0.2,0.3
2024-04-13T2100,3474A,114.2617,35.6822,鹤壁市,大新区,"颗粒物(PM10),细颗粒物(PM2.5)",60,70,60,43,32,94,,133,126,12,17,11,8,0.8,0.8
2024-04-13T2100,3596A,114.1572,35.9603,鹤壁市,南山宾馆,细颗粒物(PM2.5),83,76,66,61,47,101,,126,123,13,11,11,9,0.6,0.6
2024-04-13T2100,2244A,130.2537,47.3416,鹤岗市,哈啤分公司,颗粒物(PM10),60,70,91,32,43,70,,98,93,18,16,16,17,0.8,0.7
2024-04-13T2100,2245A,130.2684,47.3086,鹤岗市,斯达机电,颗粒物(PM10),71,91,95,47,45,92,,106,102,23,22,14,13,0.9,0.8
2024-04-13T2100,2246A,130.3114,47.3388,鹤岗市,东山纸板厂,颗粒物(PM10),129,207,115,42,48,50,,97,87,29,18,14,14,1.1,0.9
2024-04-13T2100,2247A,130.1097,47.3382,鹤岗市,五号水库,,40,40,80,10,38,70,,118,108,13,14,10,10,0.5,0.7
2024-04-13T2100,2263A,127.4833,50.2524,黑河市,交通局,,32,26,40,22,29,59,,77,73,16,13,9,9,0.3,0.4
2024-04-13T2100,2264A,127.5144,50.2341,黑河市,环保局,,40,,43,28,31,59,,78,73,15,13,8,6,0.3,0.6
2024-04-13T2100,2265A,127.5291,50.2472,黑河市,大黑河岛,,,,44,20,34,47,,54,54,32,26,9,9,,
2024-04-13T2100,1074A,115.6838,37.7541,衡水市,电机北厂,"颗粒物(PM10),细颗粒物(PM2.5)",60,70,62,43,46,136,,146,145,7,6,1,2,0.3,0.4
2024-04-13T2100,1075A,115.6303,37.7316,衡水市,市监测站,"颗粒物(PM10),细颗粒物(PM2.5)",65,80,67,47,45,130,,148,146,16,13,4,5,0.6,0.6
2024-04-13T2100,3188A,115.6683,37.7217,衡水市,市城管局,细颗粒物(PM2.5),63,71,68,45,50,123,,142,140,15,12,3,2,0.4,0.5
2024-04-13T2100,3459A,115.5989,37.5491,衡水市,地表水厂,颗粒物(PM10),70,90,74,41,40,109,,144,138,27,20,3,4,0.4,0.5
2024-04-13T2100,2456A,112.5003,26.9167,衡阳市,原169医院,颗粒物(PM10),56,61,50,30,28,33,,63,60,32,20,9,8,0.8,1.1
2024-04-13T2100,2457A,112.6194,26.9258,衡阳市,衡阳化工总厂,细颗粒物(PM2.5),58,63,53,41,30,64,,84,84,12,19,9,8,0.8,1
2024-04-13T2100,2458A,112.6211,26.8956,衡阳市,珠晖区环保局,,46,46,47,30,28,66,,80,80,14,19,8,7,0.9,1.2
2024-04-13T2100,2459A,112.6197,26.8733,衡阳市,市委党校,颗粒物(PM10),60,70,49,32,25,54,,81,80,21,17,8,8,1.0,1.1
2024-04-13T2100,2460A,112.6006,26.8919,衡阳市,市监测站,细颗粒物(PM2.5),54,55,46,38,35,64,,81,81,12,21,9,8,0.8,1.1
2024-04-13T2100,2461A,112.5664,26.9056,衡阳市,真空机电公司,,48,48,48,30,29,60,,70,70,11,23,12,9,0.9,1.2
2024-04-13T2100,3399A,112.6703,26.882,衡阳市,师范学院,细颗粒物(PM2.5),58,55,45,41,33,56,,81,80,15,12,7,8,0.8,1
2024-04-13T2100,2608A,103.3772,23.3993,红河哈尼族彝族自治州,污水处理厂,细颗粒物(PM2.5),95,96,78,71,57,139,,156,149,12,11,8,9,0.7,0.7
2024-04-13T2100,2609A,103.3861,23.35,红河哈尼族彝族自治州,监测站,细颗粒物(PM2.5),74,85,69,54,53,115,,158,148,27,12,11,8,0.7,0.7
2024-04-13T2100,3038A,103.3758,23.368,红河哈尼族彝族自治州,州图书馆,细颗粒物(PM2.5),77,74,69,56,50,126,,160,151,15,8,5,6,0.5,0.5
2024-04-13T2100,1090A,111.6507,40.7517,呼和浩特市,呼市一监,,44,44,96,27,43,92,,126,114,7,32,14,12,0.4,0.6
2024-04-13T2100,1091A,111.6572,40.8033,呼和浩特市,小召,颗粒物(PM10),52,53,89,27,35,100,,118,112,11,40,7,9,0.5,0.6
2024-04-13T2100,1094A,111.7516,40.8369,呼和浩特市,如意水处理厂,颗粒物(PM10),66,81,94,28,33,103,,116,108,8,44,11,12,0.3,0.5
2024-04-13T2100,1095A,111.7276,40.8062,呼和浩特市,二十九中,颗粒物(PM10),52,53,94,28,35,105,,119,111,8,34,10,12,0.4,0.6
2024-04-13T2100,1096A,111.5512,40.7866,呼和浩特市,工大金川校区,颗粒物(PM10),59,68,92,26,37,91,,107,101,10,38,5,8,0.3,0.5
2024-04-13T2100,1097A,111.717,40.7612,呼和浩特市,化肥厂生活区,颗粒物(PM10),66,81,103,30,37,101,,118,110,10,32,13,14,0.4,0.6
2024-04-13T2100,3698A,111.5968,40.8178,呼和浩特市,红旗小学,颗粒物(PM10),51,51,93,29,37,99,,116,107,16,46,4,7,0.3,0.5
2024-04-13T2100,3699A,111.6518,40.8389,呼和浩特市,海东办,颗粒物(PM10),56,61,89,31,36,104,,118,112,8,46,6,8,0.1,0.4
2024-04-13T2100,2192A,119.7594,49.2261,呼伦贝尔市,区环保局,,45,45,32,16,15,74,,95,91,12,14,7,6,0.4,0.4
2024-04-13T2100,3061A,119.7512,49.1577,呼伦贝尔市,国华电力东,,30,30,21,10,10,68,,97,91,13,7,9,6,0.4,0.3
2024-04-13T2100,1250A,120.0751,30.8669,湖州市,城西水厂,,22,22,53,13,36,62,,100,88,27,34,4,3,0.6,0.7
2024-04-13T2100,2873A,120.0875,30.8955,湖州市,仁皇山新区,,18,15,49,12,40,53,,94,83,30,35,7,7,0.7,0.7
2024-04-13T2100,2907A,120.1844,30.8596,湖州市,吴兴区站,,22,22,38,13,29,50,,102,88,28,30,5,4,0.5,0.6
2024-04-13T2100,3562A,120.4148,30.8538,湖州市,南浔区站,,23,22,31,16,28,64,,92,84,17,23,4,5,0.5,0.6
2024-04-13T2100,1607A,120.9092,40.7136,葫芦岛市,龙港区,,40,40,32,28,24,84,,79,79,11,12,8,7,0.4,0.4
2024-04-13T2100,1608A,120.8392,40.7514,葫芦岛市,化工街,,32,31,33,22,21,65,,76,75,25,16,9,10,0.3,0.2
2024-04-13T2100,1609A,120.8341,40.7073,葫芦岛市,新区,,45,,26,31,25,84,,84,84,13,13,7,7,0.5,0.5
2024-04-13T2100,1610A,120.8695,40.7677,葫芦岛市,东城区,,49,,27,34,27,69,,78,78,30,24,6,6,0.3,0.3
2024-04-13T2100,2482A,109.5981,27.5721,怀化市,林科所,,22,14,24,9,11,69,,68,68,4,4,30,13,0.8,0.9
2024-04-13T2100,2483A,109.9453,27.5444,怀化市,河西地税局,,17,14,32,8,20,54,,58,58,9,12,16,9,0.7,0.7
2024-04-13T2100,2484A,109.9781,27.5342,怀化市,市四医院,,18,15,35,11,25,55,,58,58,6,15,8,11,0.7,0.7
2024-04-13T2100,2485A,109.9972,27.5578,怀化市,监测楼,,18,18,43,11,28,54,,57,57,7,15,10,15,0.6,0.7
2024-04-13T2100,2486A,110.0394,27.583,怀化市,市委党校,,19,18,38,8,25,58,,62,62,8,16,3,13,0.6,0.7
2024-04-13T2100,1210A,119.036,33.5981,淮安市,钵池山,,24,14,15,10,20,76,,76,76,10,10,5,5,0.3,0.6
2024-04-13T2100,1211A,119.007,33.575,淮安市,北京南路,,26,,18,13,22,82,,78,78,9,11,6,6,0.4,0.5
2024-04-13T2100,1212A,118.989,33.6067,淮安市,市监测站,,26,9,17,5,12,81,,80,80,10,12,6,6,0.5,0.5
2024-04-13T2100,1213A,119.135,33.5039,淮安市,楚州区监测站,,24,,18,11,21,76,,76,76,14,15,6,6,0.4,0.4
2024-04-13T2100,1214A,119.0186,33.6297,淮安市,淮阴区监测站,,25,,18,12,24,78,,77,77,14,16,4,4,0.2,0.2
2024-04-13T2100,3426A,118.8755,33.2894,淮安市,新华书店,,23,14,20,7,13,72,,72,72,14,16,4,4,0.3,0.3
2024-04-13T2100,2282A,116.8004,33.975,淮北市,监测站,,37,37,44,18,28,76,,90,71,13,15,5,6,0.4,0.6
2024-04-13T2100,2283A,116.8091,33.9007,淮北市,烈山区政府,,43,33,58,30,46,70,,82,73,14,12,5,6,0.4,0.5
2024-04-13T2100,3330A,116.8873,33.9836,淮北市,杜集区检察院,细颗粒物(PM2.5),52,,50,36,46,87,,98,82,9,10,2,3,0.5,0.6
2024-04-13T2100,4017A,116.7923,33.9535,淮北市,市博物馆,,30,30,41,16,27,76,,89,76,4,8,3,5,0.6,0.7
2024-04-13T2100,2277A,116.8305,32.7727,淮南市,潘集区政府,颗粒物(PM10),61,72,92,32,51,92,,101,101,17,20,5,6,0.6,0.6
2024-04-13T2100,2278A,117.0067,32.6524,淮南市,师范学院,颗粒物(PM10),57,64,77,36,55,77,,101,99,22,17,10,10,0.3,0.4
2024-04-13T2100,2279A,116.8569,32.5951,淮南市,谢家集区政府,颗粒物(PM10),55,59,77,33,39,86,,113,111,24,24,7,14,0.6,0.6
2024-04-13T2100,2280A,116.8281,32.633,淮南市,八公山区政府,细颗粒物(PM2.5),84,83,92,62,68,85,,112,110,24,17,12,4,0.7,0.6
2024-04-13T2100,2281A,116.6325,32.6201,淮南市,焦岗湖风景区管理处,颗粒物(PM10),55,59,80,18,27,74,,101,98,33,25,3,3,0.4,0.5
2024-04-13T2100,2894A,117.0566,32.6531,淮南市,经济技术开发区消防队,颗粒物(PM10),53,56,71,34,50,76,,96,93,27,25,4,4,0.6,0.6
2024-04-13T2100,3329A,117.0108,32.5893,淮南市,山南新区,颗粒物(PM10),57,64,72,32,39,84,,112,109,26,22,5,4,0.6,0.6
2024-04-13T2100,2446A,114.9028,30.4742,黄冈市,职工中心,,42,40,61,29,40,88,,85,85,6,14,6,7,0.7,0.8
2024-04-13T2100,2929A,114.8858,30.4519,黄冈市,红卫路,,50,46,56,35,38,70,,71,71,11,23,14,12,1.1,1
2024-04-13T2100,3398A,114.9136,30.4445,黄冈市,市林业局,细颗粒物(PM2.5),54,50,63,38,43,81,,83,83,2,21,10,7,0.7,0.6
2024-04-13T2100,2672A,102.0199,35.5102,黄南藏族自治州,同仁县隆务镇,颗粒物(PM10),65,79,54,27,21,84,,101,100,5,5,4,4,0.7,0.7
2024-04-13T2100,2295A,118.2903,29.6963,黄山市,延安路89号,颗粒物(PM10),54,57,35,1,8,7,,61,47,27,10,6,6,0.9,0.7
2024-04-13T2100,2296A,118.327,29.7178,黄山市,黄山东路89号,,38,35,25,26,9,10,,61,45,28,11,5,4,1.0,0.8
2024-04-13T2100,2297A,118.1371,30.2756,黄山市,黄山区政府5号楼,,33,28,23,23,14,37,,59,43,12,9,4,4,0.8,0.7
2024-04-13T2100,2423A,115.0601,30.2313,黄石市,沈家营,,47,47,67,30,26,61,,78,72,24,30,26,24,1.5,1.5
2024-04-13T2100,2424A,115.0817,30.2006,黄石市,陈家湾,,44,44,47,24,24,87,,85,85,4,14,13,14,0.7,0.8
2024-04-13T2100,2426A,114.8988,30.2019,黄石市,铁山,,40,40,35,19,22,80,,75,75,6,15,6,9,0.8,0.9
2024-04-13T2100,2427A,115.0307,30.2092,黄石市,团城山,,37,37,52,11,18,86,,85,85,7,18,6,9,0.7,0.9
2024-04-13T2100,3149A,115.0235,30.1578,黄石市,笔架山北路,,41,41,47,18,19,74,,76,74,14,16,7,7,0.9,0.8
2024-04-13T2100,1392A,114.4183,23.0528,惠州市,河南岸金山湖子站,,37,37,63,24,40,70,,143,117,16,20,5,6,0.6,0.7
2024-04-13T2100,1393A,114.4053,23.0822,惠州市,下埔横江三路子站,,41,41,64,24,39,76,,160,129,17,20,6,6,0.7,0.8
2024-04-13T2100,1394A,114.4103,23.1142,惠州市,江北云山西路子站,,43,41,60,30,31,75,,167,135,16,18,6,7,0.6,0.7
2024-04-13T2100,1395A,114.4645,22.7833,惠州市,惠阳区承修路船湖子站,,32,32,44,16,26,75,,114,96,11,23,3,3,0.6,0.7
2024-04-13T2100,1396A,114.5317,22.7422,惠州市,大亚湾管委会子站,,,37,50,19,27,67,,112,91,,32,,4,0.8,0.8
2024-04-13T2100,3314A,114.4338,22.8134,惠州市,惠阳秋长,,31,31,70,12,32,91,,139,118,11,36,7,10,0.4,0.6
2024-04-13T2100,3452A,114.6517,22.775,惠州市,大亚湾霞涌,,26,22,33,18,25,74,,87,,8,16,5,7,0.5,0.6
2024-04-13T2100,2240A,130.9762,45.3001,鸡西市,环保局,颗粒物(PM10),56,62,63,25,26,78,,96,93,17,9,7,7,0.6,0.4
2024-04-13T2100,2243A,130.9429,45.3039,鸡西市,第一中学,颗粒物(PM10),58,65,62,32,23,103,,124,119,15,10,10,9,0.4,0.4
2024-04-13T2100,3707A,131.0207,45.3073,鸡西市,欧美日汽修厂,细颗粒物(PM2.5),107,142,73,80,31,58,,102,91,35,14,8,6,0.8,0.6
2024-04-13T2100,3709A,130.9967,45.3106,鸡西市,市政设施管理处,颗粒物(PM10),68,86,66,47,26,50,,114,98,37,16,6,7,0.6,0.5
2024-04-13T2100,2367A,114.9754,27.0803,吉安市,红声器材厂,细颗粒物(PM2.5),69,62,54,50,38,16,,66,53,38,27,16,16,0.8,0.8
2024-04-13T2100,2368A,114.9658,27.0999,吉安市,市森林工业局,细颗粒物(PM2.5),69,70,54,50,42,20,,76,64,36,27,15,18,0.8,0.8
2024-04-13T2100,2369A,114.99,27.1312,吉安市,市环境监测站,细颗粒物(PM2.5),67,68,51,48,32,25,,73,62,31,21,17,20,1.1,0.9
2024-04-13T2100,2370A,115.0093,27.0968,吉安市,青原区法院,细颗粒物(PM2.5),70,70,55,51,40,14,,71,61,44,28,19,19,0.8,0.8
2024-04-13T2100,1772A,126.54,43.8622,吉林市,哈达湾,颗粒物(PM10),85,119,56,56,29,110,,157,152,37,14,10,7,0.9,0.7
2024-04-13T2100,1773A,126.5844,43.8358,吉林市,东局子,细颗粒物(PM2.5),78,88,61,57,34,96,,146,140,53,19,7,6,0.9,0.7
2024-04-13T2100,1774A,126.5052,43.8245,吉林市,电力学院,细颗粒物(PM2.5),143,159,68,109,39,49,,167,146,79,18,16,10,1.3,0.6
2024-04-13T2100,1775A,126.6133,43.8972,吉林市,江北,细颗粒物(PM2.5),122,160,68,92,34,71,,142,130,49,18,9,9,1.2,0.7
2024-04-13T2100,1776A,126.555,43.8306,吉林市,江南公园,细颗粒物(PM2.5),77,90,62,56,37,116,,154,150,35,17,8,7,0.9,0.6
2024-04-13T2100,1778A,126.7061,43.7133,吉林市,丰满,,,,,,,,,,,,,,,,
2024-04-13T2100,2868A,126.4739,43.953,吉林市,九站,细颗粒物(PM2.5),82,106,72,60,32,89,,150,142,59,19,13,10,0.8,0.6
2024-04-13T2100,1299A,116.9862,36.6114,济南市,科干所,,31,31,69,12,42,82,,148,130,11,12,6,7,0.6,0.7
2024-04-13T2100,1300A,116.9376,36.665,济南市,农科所,颗粒物(PM10),52,54,80,22,41,79,,150,132,14,16,5,6,0.5,0.6
2024-04-13T2100,1301A,117.1265,36.6734,济南市,开发区,颗粒物(PM10),51,51,64,22,40,88,,150,133,14,16,6,6,0.5,0.6
2024-04-13T2100,1303A,117.0624,36.6868,济南市,省种子仓库,颗粒物(PM10),51,51,74,17,38,81,,147,128,11,17,3,4,0.3,0.5
2024-04-13T2100,1304A,116.9489,36.6447,济南市,机床二厂,,42,42,73,15,36,89,,158,140,9,17,3,5,0.5,0.7
2024-04-13T2100,1305A,117.0495,36.663,济南市,市监测站,,42,42,63,15,35,90,,157,138,19,19,9,10,0.5,0.7
2024-04-13T2100,1306A,116.7675,36.5484,济南市,长清党校,,46,46,77,24,51,82,,155,134,11,11,4,6,0.5,0.7
2024-04-13T2100,1616A,117.6795,36.229,济南市,技术学院,,25,17,68,7,43,80,,118,96,14,16,8,9,0.7,0.8
2024-04-13T2100,1961A,117.532,36.6868,济南市,东山小学,,29,29,79,10,41,81,,151,126,16,15,5,7,0.3,0.4
2024-04-13T2100,3059A,117.7161,36.2049,济南市,泰兴公司,,25,14,65,12,40,77,,111,90,17,20,10,11,0.8,0.9
2024-04-13T2100,3064A,117.6867,36.2171,济南市,莱芜战役纪念馆,,24,24,72,14,39,76,,112,91,17,20,6,8,0.7,0.9
2024-04-13T2100,3494A,117.1673,36.9782,济南市,济阳区政府,颗粒物(PM10),73,95,97,24,43,68,,162,144,41,33,8,8,0.5,0.7
2024-04-13T2100,3495A,117.1171,36.63,济南市,锦屏中学,,39,39,59,20,38,85,,148,132,7,8,6,6,0.4,0.5
2024-04-13T2100,3682A,116.9814,36.6819,济南市,济南四建,,44,44,64,20,40,78,,150,132,13,15,5,7,0.5,0.6
2024-04-13T2100,1653A,116.6251,35.4302,济宁市,火炬城,,,42,71,9,34,,,91,75,11,11,7,6,0.5,0.8
2024-04-13T2100,1655A,116.5491,35.4042,济宁市,电化厂,,44,44,74,7,27,63,,95,76,8,7,4,6,0.7,0.9
2024-04-13T2100,3500A,116.5814,35.3707,济宁市,北湖一中,,42,42,67,14,36,60,,93,73,11,10,4,6,0.8,0.9
2024-04-13T2100,3501A,116.8249,35.5593,济宁市,服务中心,,33,33,68,8,33,69,,102,80,10,13,2,3,0.7,0.8
2024-04-13T2100,3678A,116.5907,35.4054,济宁市,市第七中学,,40,40,64,9,32,51,,80,63,12,10,4,5,0.4,0.5
2024-04-13T2100,2255A,130.2751,46.8028,佳木斯市,佳纺,颗粒物(PM10),52,54,60,26,28,108,,130,124,14,9,8,7,0.6,0.5
2024-04-13T2100,2256A,130.3995,46.8307,佳木斯市,发电厂,颗粒物(PM10),51,52,66,27,30,125,,132,131,17,13,5,5,0.4,0.4
2024-04-13T2100,2257A,130.3258,46.7975,佳木斯市,环保局,,50,50,59,25,28,87,,135,127,44,13,5,5,0.7,0.5
2024-04-13T2100,2258A,130.3648,46.8032,佳木斯市,十一中,颗粒物(PM10),53,55,54,30,28,111,,127,125,21,10,8,9,0.6,0.5
2024-04-13T2100,2259A,130.3794,46.7588,佳木斯市,四丰,,43,42,47,21,26,135,,156,153,7,6,1,1,0.8,0.7
2024-04-13T2100,1252A,120.7436,30.778,嘉兴市,清河小学,,25,25,24,14,15,70,,78,74,15,20,7,7,0.6,0.7
2024-04-13T2100,1253A,120.726,30.7478,嘉兴市,嘉兴学院,,30,30,27,18,16,62,,77,70,22,24,5,6,0.5,0.4
2024-04-13T2100,2872A,120.7846,30.7525,嘉兴市,南湖区残联,,28,28,27,19,17,68,,84,76,15,21,5,5,0.5,0.5
2024-04-13T2100,3407A,120.6916,30.7739,嘉兴市,秀洲住建,,22,22,24,14,14,70,,84,77,12,22,5,5,0.6,0.6
2024-04-13T2100,1945A,98.2908,39.7711,嘉峪关市,气象局,颗粒物(PM10),102,153,872,31,161,106,,112,112,8,10,3,11,0.4,0.4
2024-04-13T2100,2884A,98.2672,39.7978,嘉峪关市,酒钢宾馆,颗粒物(PM10),95,139,973,29,177,114,,112,112,4,10,2,22,0.3,0.4
2024-04-13T2100,3248A,98.2643,39.7724,嘉峪关市,雄关区,颗粒物(PM10),84,117,645,31,133,100,,109,108,10,11,5,7,0.3,0.4
2024-04-13T2100,1383A,113.1064,22.6058,江门市,北街,,33,33,40,19,26,66,,103,94,11,17,6,7,0.5,0.6
2024-04-13T2100,1384A,113.0731,22.5835,江门市,西区,,44,44,41,26,24,64,,107,95,15,20,6,6,0.5,0.6
2024-04-13T2100,1385A,113.0219,22.5311,江门市,圭峰西,,26,24,38,18,22,67,,100,92,11,15,4,4,0.7,0.7
2024-04-13T2100,1386A,113.0828,22.5947,江门市,东湖,,35,35,42,16,21,68,,104,95,13,19,6,6,0.6,0.6
2024-04-13T2100,3311A,113.1075,22.5647,江门市,江海富民,,41,41,59,18,31,68,,103,96,14,21,6,7,0.6,0.5
2024-04-13T2100,3449A,113.05,22.4667,江门市,新会银湖,,,26,35,20,20,71,,102,93,,18,4,4,0.6,0.6
2024-04-13T2100,1828A,113.227,35.2125,焦作市,市环保局,细颗粒物(PM2.5),70,78,68,51,37,102,,132,128,16,16,3,3,0.7,0.6
2024-04-13T2100,1830A,113.1992,35.2590,焦作市,影视城,,,,,,,,,,,,,,,,
2024-04-13T2100,3169A,113.2725,35.2067,焦作市,太极体育中心,细颗粒物(PM2.5),79,78,78,58,44,102,,131,127,16,21,3,5,0.6,0.5
2024-04-13T2100,3335A,113.3137,35.2641,焦作市,马村街道办,细颗粒物(PM2.5),90,86,68,67,45,100,,129,126,18,20,14,8,0.7,0.6
2024-04-13T2100,3336A,113.2465,35.2373,焦作市,焦作技师学院,细颗粒物(PM2.5),79,81,66,58,42,101,,126,124,12,15,2,4,0.8,0.8
2024-04-13T2100,3477A,113.1656,35.2539,焦作市,中站许衡医院,细颗粒物(PM2.5),58,60,49,41,36,102,,131,127,9,9,7,7,0.8,0.6
2024-04-13T2100,3981A,113.2449,35.1803,焦作市,原李万街道办,细颗粒物(PM2.5),73,75,64,53,34,92,,123,119,17,16,3,7,0.7,0.6
2024-04-13T2100,1708A,116.3701,23.5345,揭阳市,新兴,颗粒物(PM10),60,69,93,35,50,73,,152,121,16,30,11,22,0.8,0.9
2024-04-13T2100,1709A,116.3264,23.5443,揭阳市,西马,颗粒物(PM10),54,58,86,28,45,74,,158,123,10,23,10,17,0.9,1
2024-04-13T2100,1710A,116.3611,23.5626,揭阳市,东兴,颗粒物(PM10),71,92,101,43,53,63,,163,126,18,28,12,27,0.8,1
2024-04-13T2100,1711A,116.4151,23.5294,揭阳市,渔湖,颗粒物(PM10),55,59,91,22,38,72,,155,120,15,26,8,14,0.8,0.9
2024-04-13T2100,3320A,116.403,23.5699,揭阳市,曲溪,细颗粒物(PM2.5),52,48,70,36,44,69,,160,129,13,26,4,25,0.6,0.9
2024-04-13T2100,1944A,102.1692,38.5167,金昌市,天庆家园,细颗粒物(PM2.5),202,,87,152,98,76,,105,82,15,17,14,9,0.2,0.4
2024-04-13T2100,3170A,102.1864,38.5253,金昌市,市委党校,颗粒物(PM10),500,1090,573,242,142,69,,103,84,19,17,15,20,0.4,0.5
2024-04-13T2100,4022A,102.1647,38.5371,金昌市,金川区人防中心,颗粒物(PM10),500,1000,571,153,109,78,,112,90,15,11,14,7,0.2,0.2
2024-04-13T2100,1262A,119.647,29.077,金华市,十五中,细颗粒物(PM2.5),60,66,79,43,66,93,,152,137,30,33,5,6,0.7,0.7
2024-04-13T2100,1263A,119.686,29.1029,金华市,监测站,颗粒物(PM10),61,72,82,43,54,86,,148,132,29,39,2,3,0.6,0.6
2024-04-13T2100,3659A,119.656,29.1131,金华市,气象局,颗粒物(PM10),62,73,79,35,40,78,,150,131,38,43,4,5,0.5,0.6
2024-04-13T2100,1767A,121.1115,41.0879,锦州市,南山,细颗粒物(PM2.5),67,,40,48,44,99,,92,92,14,18,9,12,0.4,0.4
2024-04-13T2100,1768A,121.0533,40.8434,锦州市,开发区,细颗粒物(PM2.5),53,,30,37,32,70,,76,76,36,28,14,10,0.5,0.5
2024-04-13T2100,1769A,121.1836,41.1119,锦州市,百股街道,,39,32,36,27,25,107,,99,99,13,18,8,10,0.5,0.5
2024-04-13T2100,1770A,121.1178,41.1222,锦州市,天安街道,,49,,45,34,39,106,,94,94,12,18,10,14,0.5,0.5
2024-04-13T2100,1771A,121.1303,41.1386,锦州市,北湖公园,细颗粒物(PM2.5),55,,40,39,40,90,,82,82,10,15,10,14,0.6,0.6
2024-04-13T2100,2160A,112.85,35.5051,晋城市,自来水公司,二氧化氮,57,54,61,29,32,82,,120,108,113,54,7,6,0.7,0.7
2024-04-13T2100,2161A,112.8318,35.4936,晋城市,白云商贸,颗粒物(PM10),54,58,73,31,30,120,,146,143,16,27,5,5,0.7,0.7
2024-04-13T2100,2162A,112.8508,35.4887,晋城市,市环保局,细颗粒物(PM2.5),58,54,76,41,31,116,,140,136,14,32,5,5,0.7,0.7
2024-04-13T2100,2163A,112.8676,35.4897,晋城市,技术学院,颗粒物(PM10),54,57,73,27,32,116,,142,139,10,25,5,5,0.8,0.8
2024-04-13T2100,2165A,112.8453,35.546,晋城市,白马寺,,,,,,,,,,,,,,,,
2024-04-13T2100,3620A,112.8271,35.4828,晋城市,泽州一中,颗粒物(PM10),51,51,65,27,29,122,,148,146,13,21,8,8,0.7,0.7
2024-04-13T2100,2171A,112.7532,37.6945,晋中市,锦纶小区,颗粒物(PM10),71,92,89,46,37,115,,151,144,20,26,13,12,0.6,0.5
2024-04-13T2100,2173A,112.7249,37.7067,晋中市,南都小区,细颗粒物(PM2.5),74,96,89,54,39,112,,150,142,21,25,8,10,0.6,0.6
2024-04-13T2100,2174A,112.6991,37.6982,晋中市,榆次区政府,颗粒物(PM10),75,100,87,49,35,112,,150,143,22,24,12,13,0.6,0.5
2024-04-13T2100,2865A,112.7195,37.6828,晋中市,榆次三中,颗粒物(PM10),74,97,91,51,34,115,,149,143,22,30,12,12,0.7,0.6
2024-04-13T2100,2439A,112.2014,31.0481,荆门市,竹园小学,细颗粒物(PM2.5),82,84,76,60,57,82,,93,93,26,27,12,11,1.0,0.9
2024-04-13T2100,2440A,112.1969,30.9891,荆门市,掇刀,细颗粒物(PM2.5),80,81,69,59,57,72,,91,91,26,22,15,11,1.0,0.8
2024-04-13T2100,2441A,112.2213,31.0386,荆门市,石化一小,细颗粒物(PM2.5),82,86,85,60,66,74,,94,94,33,33,16,19,1.0,1
2024-04-13T2100,3012A,112.1849,31.0362,荆门市,西山林语,细颗粒物(PM2.5),78,79,68,57,44,61,,92,92,25,20,10,9,1.1,0.8
2024-04-13T2100,3547A,112.1632,31.0138,荆门市,龙泉中学南校,,50,49,44,35,27,89,,100,100,13,13,13,10,1.2,0.9
2024-04-13T2100,1844A,112.2494,30.3197,荆州市,市图书馆,细颗粒物(PM2.5),53,53,44,37,29,63,,90,90,20,32,6,6,1.1,1.1
2024-04-13T2100,1845A,112.2008,30.3544,荆州市,市委党校,颗粒物(PM10),54,57,46,34,30,54,,88,87,30,32,6,6,1.0,0.9
2024-04-13T2100,3194A,112.2747,30.3122,荆州市,管委会,细颗粒物(PM2.5),57,52,45,40,33,74,,90,90,14,32,8,9,1.0,1
2024-04-13T2100,3548A,112.1655,30.3364,荆州市,学苑路,细颗粒物(PM2.5),77,,36,56,43,55,,99,97,33,32,6,7,0.9,0.8
2024-04-13T2100,2342A,117.3102,29.3867,景德镇市,王港中学,,,,,,,,,,,,,,,,
2024-04-13T2100,2343A,117.2117,29.2933,景德镇市,老干部活动中心,,29,24,16,20,13,36,,38,33,14,13,3,5,0.4,0.4
2024-04-13T2100,2344A,117.1894,29.2789,景德镇市,兽医站,,36,,25,25,14,36,,44,40,14,12,6,6,0.6,0.6
2024-04-13T2100,2345A,117.1547,29.2617,景德镇市,台达陶瓷,,32,,18,22,13,34,,38,34,18,19,18,18,0.6,0.7
2024-04-13T2100,2346A,117.2461,29.2956,景德镇市,陶研所,,25,25,18,14,10,41,,33,30,9,14,5,7,0.4,0.4
2024-04-13T2100,1803A,115.9872,29.6815,九江市,十里,,25,22,25,17,16,52,,59,52,20,28,8,10,0.7,0.8
2024-04-13T2100,1804A,115.9584,29.7046,九江市,茅山头,,20,,27,14,21,36,,49,46,35,33,8,10,0.9,0.9
2024-04-13T2100,1805A,115.9877,29.7295,九江市,西园,,32,25,29,22,23,34,,50,42,28,24,15,16,0.8,0.8
2024-04-13T2100,1806A,116.0172,29.6547,九江市,五七二七厂,,20,14,17,11,13,64,,61,53,11,11,8,8,0.7,0.8
2024-04-13T2100,1808A,115.9114,29.6038,九江市,综合工业园,,22,21,29,9,14,14,,39,32,44,38,9,10,0.8,0.8
2024-04-13T2100,1809A,116.0721,29.7535,九江市,石化总厂,,25,20,31,17,18,39,,54,48,34,22,12,15,0.8,0.9
2024-04-13T2100,1810A,115.9773,29.5698,九江市,庐山气象台,,35,11,12,6,13,110,,109,109,2,2,6,7,1.2,0.8
2024-04-13T2100,3190A,116.0254,29.6994,九江市,外国语学校,,24,24,22,12,18,50,,56,53,26,26,14,10,0.8,0.8
2024-04-13T2100,2658A,98.5061,39.7443,酒泉市,仓门街子站,颗粒物(PM10),113,175,1768,42,170,99,,100,99,8,9,7,8,0.2,0.2
2024-04-13T2100,2659A,98.4989,39.7256,酒泉市,油田生活基地,颗粒物(PM10),128,205,2438,40,169,107,,104,103,5,9,9,10,0.2,0.3
2024-04-13T2100,2698A,76.0072,39.4467,喀什地区,巡警大队,颗粒物(PM10),149,247,120,64,23,101,,110,110,13,34,2,3,0.4,0.6
2024-04-13T2100,2699A,75.9755,39.4694,喀什地区,吾办,颗粒物(PM10),150,250,122,89,41,103,,107,107,15,38,3,4,0.3,0.5
2024-04-13T2100,4027A,75.9483,39.4689,喀什地区,老干局,颗粒物(PM10),149,248,142,68,32,108,,117,117,11,29,3,4,0.4,0.6
2024-04-13T2100,1824A,114.3389,34.7781,开封市,肿瘤医院,颗粒物(PM10),56,61,65,32,33,75,,122,109,10,14,2,4,0.4,0.5
2024-04-13T2100,1826A,114.2885,34.7965,开封市,世纪星幼儿园,,50,50,56,25,34,74,,124,111,12,13,3,5,0.4,0.5
2024-04-13T2100,3147A,114.3438,34.8106,开封市,龙亭公园,,42,42,59,23,31,80,,136,120,8,13,2,5,0.4,0.5
2024-04-13T2100,3210A,114.3644,34.7964,开封市,汴京公园,,46,34,69,32,43,76,,129,114,11,18,3,5,0.5,0.6
2024-04-13T2100,3473A,114.2485,34.8306,开封市,技师学院,细颗粒物(PM2.5),63,51,58,45,42,81,,130,118,13,7,4,6,0.5,0.9
2024-04-13T2100,3592A,114.4644,34.7556,开封市,祥符区生态环境局,,37,37,64,22,37,67,,127,107,15,23,4,5,0.4,0.5
2024-04-13T2100,1951A,84.895,45.6094,克拉玛依市,长征新村,颗粒物(PM10),382,485,318,67,42,82,,80,80,11,10,7,7,0.2,0.2
2024-04-13T2100,1952A,84.8988,45.5893,克拉玛依市,南林小区,颗粒物(PM10),389,491,311,67,44,86,,85,85,9,7,6,7,0.4,0.4
2024-04-13T2100,1954A,84.905,44.3396,克拉玛依市,独山子区,颗粒物(PM10),350,460,375,92,62,83,,87,87,12,9,8,8,0.4,0.3
2024-04-13T2100,1955A,85.6979,46.098,克拉玛依市,乌尔禾区商贸楼,颗粒物(PM10),92,133,101,7,14,100,,101,101,4,2,7,7,0.4,0.3
2024-04-13T2100,3612A,85.1045,45.6899,克拉玛依市,白碱滩区新站,颗粒物(PM10),374,479,219,90,44,88,,87,87,7,6,9,9,0.1,0.1
2024-04-13T2100,2697A,76.1454,39.7142,克孜勒苏柯尔克孜自治州,市人民政府,颗粒物(PM10),120,190,65,82,25,100,,108,108,5,11,6,7,0.3,0.3
2024-04-13T2100,3665A,76.1658,39.7157,克孜勒苏柯尔克孜自治州,克州文化中心,颗粒物(PM10),148,245,66,83,26,98,,112,112,10,13,8,8,0.3,0.3
2024-04-13T2100,1450A,102.8204,24.8886,昆明市,呈贡新区,颗粒物(PM10),51,51,52,30,38,102,,132,123,13,17,4,7,0.6,0.7
2024-04-13T2100,1451A,102.6251,24.9608,昆明市,西山森林公园,,,,,,,,,,,,,,,,
2024-04-13T2100,1452A,102.7252,25.0902,昆明市,龙泉镇,,50,50,42,23,27,107,,138,127,14,20,6,7,0.6,0.6
2024-04-13T2100,1453A,102.7266,25.0375,昆明市,东风东路,,44,44,44,29,32,102,,132,121,14,14,8,7,0.7,0.6
2024-04-13T2100,1454A,102.6742,25.0669,昆明市,金鼎山,,40,40,47,25,28,114,,141,129,12,13,12,14,0.7,0.7
2024-04-13T2100,1455A,102.6644,25.0401,昆明市,碧鸡广场,,41,41,41,28,31,102,,137,124,17,15,9,9,0.6,0.6
2024-04-13T2100,3179A,102.7494,25.0119,昆明市,官渡区博物馆,,42,42,47,26,30,113,,140,130,12,15,8,9,0.6,0.7
2024-04-13T2100,3375A,102.8017,24.8336,昆明市,青年创业园,,35,24,46,8,42,110,,135,128,7,23,8,10,0.5,0.5
2024-04-13T2100,3550A,102.7997,24.9786,昆明市,昆明学院,,45,45,52,23,33,110,,138,128,8,12,9,10,0.6,0.7
2024-04-13T2100,3551A,102.5967,24.6736,昆明市,晋宁区生态环境分局,细颗粒物(PM2.5),110,86,79,83,61,106,,128,123,11,18,6,7,0.7,1.1
2024-04-13T2100,3552A,102.6678,24.9856,昆明市,云天化总部,,40,40,45,24,30,116,,142,132,8,11,5,7,0.4,0.6
2024-04-13T2100,1456A,91.1319,29.6514,拉萨市,八廓街,,43,17,23,17,15,136,,149,148,12,11,8,9,0.3,0.3
2024-04-13T2100,1457A,91.1221,29.6747,拉萨市,市环保局,,38,30,26,17,15,121,,145,143,23,18,5,7,0.3,0.3
2024-04-13T2100,1458A,91.0874,29.6475,拉萨市,区监测站,,41,15,21,11,16,130,,143,142,22,20,5,7,0.2,0.2
2024-04-13T2100,1459A,91.1774,29.6541,拉萨市,西藏大学,,45,18,20,10,13,143,,152,151,5,7,4,5,0.1,0.2
2024-04-13T2100,1460A,90.9798,29.6588,拉萨市,区辐射站,,37,32,29,17,16,116,,141,138,31,23,6,7,0.5,0.4
2024-04-13T2100,1461A,91.0834,29.6292,拉萨市,拉萨火车站,,42,20,22,15,14,134,,142,142,13,17,4,4,0.3,0.5
2024-04-13T2100,2520A,109.2203,23.7256,来宾市,来宾技工学校,颗粒物(PM10),57,63,51,31,31,56,,67,67,9,10,18,8,0.7,0.7
2024-04-13T2100,3535A,109.1781,23.7297,来宾市,兴宾区政府,,43,37,44,30,32,62,,73,73,14,12,5,5,0.6,0.7
2024-04-13T2100,4002A,109.2416,23.7461,来宾市,中南小学,,47,47,53,32,34,54,,68,67,10,14,10,10,0.7,0.7
2024-04-13T2100,1476A,103.631,36.1031,兰州市,兰炼宾馆,细颗粒物(PM2.5),105,,74,79,42,94,,122,116,27,46,10,28,0.3,0.6
2024-04-13T2100,1477A,104.1373,35.9454,兰州市,榆中兰大校区,,,,,,,,,,,,,,,,
2024-04-13T2100,1478A,103.8412,36.0726,兰州市,生物制品所,颗粒物(PM10),68,86,70,42,38,70,,102,101,46,40,13,14,0.4,0.5
2024-04-13T2100,1479A,103.831,36.0464,兰州市,铁路设计院,颗粒物(PM10),70,90,67,38,33,26,,89,84,96,60,12,16,0.6,0.6
2024-04-13T2100,3186A,103.7158,36.1058,兰州市,教育港,颗粒物(PM10),69,87,73,41,36,101,,114,114,20,48,11,18,0.4,0.6
2024-04-13T2100,3241A,103.7439,36.0842,兰州市,百合公园,颗粒物(PM10),68,86,67,33,31,23,,99,92,86,55,3,11,0.7,0.7
2024-04-13T2100,3242A,103.9611,35.998,兰州市,和平,颗粒物(PM10),73,95,56,36,24,91,,114,112,23,24,12,14,0.4,0.5
2024-04-13T2100,3245A,103.6633,36.533,兰州新区,新区管委会,颗粒物(PM10),96,142,84,46,33,58,,112,105,46,23,8,22,0.5,0.4
2024-04-13T2100,3246A,103.6975,36.4789,兰州新区,舟曲中学,颗粒物(PM10),79,108,76,30,27,94,,108,107,18,20,13,23,0.4,0.4
2024-04-13T2100,1067A,116.6708,39.5111,廊坊市,药材公司,,,,81,49,53,147,,150,150,20,17,3,2,0.6,0.6
2024-04-13T2100,1068A,116.7214,39.5589,廊坊市,开发区,颗粒物(PM10),77,103,99,51,52,145,,154,154,25,18,3,2,0.5,0.4
2024-04-13T2100,1070A,116.7244,39.5269,廊坊市,北华航天学院,细颗粒物(PM2.5),77,99,97,56,60,145,,156,156,20,15,3,2,0.5,0.5
2024-04-13T2100,2919A,116.7022,39.5453,廊坊市,河北工业大学,细颗粒物(PM2.5),74,94,95,54,54,150,,155,155,28,21,4,3,0.5,0.5
2024-04-13T2100,2535A,103.7723,29.5462,乐山市,花湖湾,细颗粒物(PM2.5),62,63,50,44,40,116,,146,143,25,27,4,5,0.8,0.9
2024-04-13T2100,2536A,103.7627,29.5844,乐山市,牛耳桥,细颗粒物(PM2.5),60,63,54,43,39,90,,138,130,41,36,6,5,0.7,0.7
2024-04-13T2100,2537A,103.7508,29.6006,乐山市,市第三水厂,细颗粒物(PM2.5),58,63,52,41,36,105,,149,142,43,39,4,5,0.9,0.8
2024-04-13T2100,2538A,103.7571,29.5664,乐山市,市监测站,细颗粒物(PM2.5),57,53,53,40,37,123,,147,144,20,25,6,7,0.6,0.7
2024-04-13T2100,3361A,103.7311,29.5628,乐山市,理工大学,细颗粒物(PM2.5),55,58,57,39,38,115,,150,144,24,27,8,8,0.7,0.8
2024-04-13T2100,2598A,100.2143,26.8576,丽江市,西南郊,,,,,,,,,,,,,,,,
2024-04-13T2100,2599A,100.2497,26.8802,丽江市,丽江古城,,45,45,46,30,28,127,,137,135,15,13,8,8,0.6,0.6
2024-04-13T2100,2600A,100.2203,26.8906,丽江市,市中心,,41,22,32,18,19,129,,134,134,12,10,8,8,0.6,0.6
2024-04-13T2100,1267A,119.914,28.4514,丽水市,监测站大楼,,36,36,42,21,23,91,,101,100,13,15,2,3,0.6,0.7
2024-04-13T2100,1268A,119.93,28.4586,丽水市,莲都小学,,46,46,40,28,23,95,,105,104,14,15,2,3,0.5,0.5
2024-04-13T2100,1269A,119.879,28.4231,丽水市,余庄前,,42,38,34,29,25,82,,94,91,8,13,4,4,0.6,0.6
2024-04-13T2100,1173A,119.176,34.5885,连云港市,市环境监测站,,25,17,17,17,13,75,,77,76,9,10,7,7,0.2,0.2
2024-04-13T2100,3000A,119.3581,34.6972,连云港市,德源药业,,25,24,15,17,10,73,,79,79,7,8,5,5,0.4,0.4
2024-04-13T2100,3007A,119.178,34.844,连云港市,新城一中,,28,28,31,10,10,79,,83,83,16,25,6,6,0.4,0.5
2024-04-13T2100,3008A,119.3608,34.7519,连云港市,胡沟管理处,,23,22,17,14,8,71,,70,70,12,16,7,8,0.6,0.5
2024-04-13T2100,3009A,119.1478,34.5911,连云港市,矿山设计院,,23,19,17,14,9,73,,75,74,7,8,5,6,0.5,0.5
2024-04-13T2100,3434A,119.2413,34.6539,连云港市,工贸学校,,27,18,11,10,6,86,,90,88,4,4,7,7,0.4,0.4
2024-04-13T2100,3664A,119.4172,34.7341,连云港市,连云街道,,28,20,15,11,8,88,,95,94,10,9,2,2,0.4,0.4
2024-04-13T2100,2571A,102.3431,27.8099,凉山彝族自治州,青龙寺,,37,33,26,7,5,118,,141,137,5,4,5,5,0.6,0.5
2024-04-13T2100,2572A,102.2721,27.8415,凉山彝族自治州,邛海宾馆,,39,32,27,21,18,124,,145,142,22,7,12,12,0.5,0.5
2024-04-13T2100,2573A,102.2625,27.898,凉山彝族自治州,西昌市政府,,43,36,30,22,20,135,,138,138,9,8,10,9,0.5,0.7
2024-04-13T2100,2574A,102.2685,27.8851,凉山彝族自治州,凉山州政府,,41,41,33,26,23,130,,135,134,8,9,10,12,0.5,0.7
2024-04-13T2100,2575A,102.237,27.8914,凉山彝族自治州,长安,,43,39,32,22,19,137,,146,146,16,9,19,11,1.1,0.7
2024-04-13T2100,2212A,123.2,41.1953,辽阳市,宏伟区,,25,18,21,13,12,77,,94,89,9,9,10,10,0.5,0.5
2024-04-13T2100,2213A,123.1683,41.2495,辽阳市,新华园,,26,19,23,16,15,81,,99,94,10,11,8,7,0.4,0.4
2024-04-13T2100,2214A,123.2354,41.2639,辽阳市,滨河路,,24,21,24,12,16,74,,94,88,8,9,7,8,0.5,0.5
2024-04-13T2100,2215A,123.149,41.2991,辽阳市,铁西工业园,,27,26,30,18,14,86,,105,101,10,10,10,10,0.6,0.6
2024-04-13T2100,2227A,125.1358,42.8845,辽源市,环保局,细颗粒物(PM2.5),52,44,33,36,25,71,,149,135,44,20,9,8,1.0,0.7
2024-04-13T2100,3239A,125.0764,42.9078,辽源市,银鹰制药,,32,32,32,22,20,95,,147,139,25,13,11,9,0.8,0.6
2024-04-13T2100,1625A,115.9848,36.4372,聊城市,区政府,,36,36,78,13,43,64,,135,120,18,16,3,8,0.7,0.8
2024-04-13T2100,2878A,116.0072,36.4343,聊城市,聊大东校,,33,33,69,20,42,67,,143,125,16,15,8,11,0.6,0.7
2024-04-13T2100,3200A,115.9819,36.4978,聊城市,监控中心,,34,34,75,12,40,72,,145,128,11,12,7,9,0.7,0.7
2024-04-13T2100,3513A,116.0445,36.4361,聊城市,九州社区,,50,50,94,17,41,65,,144,125,12,13,14,9,0.6,0.7
2024-04-13T2100,4018A,116.0567,36.4608,聊城市,星美广场,颗粒物(PM10),53,55,89,19,48,66,,147,127,14,13,8,8,0.6,0.7
2024-04-13T2100,2632A,94.3681,29.6376,林芝市,林芝监测站,,38,25,15,14,11,120,,128,127,3,4,6,6,0.3,0.6
2024-04-13T2100,2633A,94.3616,29.6616,林芝市,林芝人民医院,,40,29,18,17,14,125,,136,135,6,7,6,6,0.3,0.4
2024-04-13T2100,2603A,100.0781,23.8982,临沧市,市环保局,细颗粒物(PM2.5),92,,66,68,60,96,,134,124,14,15,11,12,0.6,0.7
2024-04-13T2100,2604A,100.0894,23.8822,临沧市,市气象局,,,,86,,67,,,101,,,19,,14,,0.9
2024-04-13T2100,1733A,111.5531,36.0783,临汾市,临钢医院,颗粒物(PM10),69,87,69,22,24,109,,148,143,28,21,4,5,0.6,0.6
2024-04-13T2100,1734A,111.5028,36.0714,临汾市,技工学校,颗粒物(PM10),71,92,70,51,33,124,,154,150,22,23,8,8,0.8,0.7
2024-04-13T2100,1736A,111.5018,36.0855,临汾市,市委,颗粒物(PM10),64,78,76,29,24,122,,152,147,19,19,8,7,0.8,0.7
2024-04-13T2100,3018A,111.505,36.1014,临汾市,唐尧大酒店,颗粒物(PM10),75,99,87,36,28,114,,142,138,22,25,9,8,0.7,0.7
2024-04-13T2100,3668A,111.5036,36.0414,临汾市,城南,颗粒物(PM10),66,82,66,47,33,107,,151,144,22,24,8,8,0.8,0.7
2024-04-13T2100,2667A,103.2069,35.5993,临夏回族自治州,环保局,颗粒物(PM10),64,77,78,30,36,78,,94,93,16,26,4,6,0.5,0.6
2024-04-13T2100,2668A,103.2417,35.6057,临夏回族自治州,建设大厦,颗粒物(PM10),61,71,71,29,34,92,,101,101,11,25,6,9,0.3,0.5
2024-04-13T2100,1618A,118.3429,35.0532,临沂市,沂河小区,,29,29,38,11,21,63,,76,74,14,10,5,5,0.2,0.2
2024-04-13T2100,1619A,118.295,35.0583,临沂市,鲁南制药厂,,,31,39,12,21,70,,83,81,15,12,4,5,,0.3
2024-04-13T2100,1620A,118.2794,34.9976,临沂市,新光毛纺厂,,27,27,33,12,23,58,,78,74,22,15,4,4,0.5,0.5
2024-04-13T2100,1621A,118.3956,35.0888,临沂市,河东保险公司,,29,29,29,12,16,61,,74,72,10,7,4,4,0.1,0.1
2024-04-13T2100,3370A,118.3564,35.0215,临沂市,十里堡居委,,24,24,29,12,22,61,,76,73,15,12,3,4,0.4,0.5
2024-04-13T2100,3496A,118.3604,35.1084,临沂市,南坊新区,,29,29,34,14,16,65,,79,77,16,12,6,6,0.3,0.3
2024-04-13T2100,3860A,118.3920,35.0300,临沂市,皇山花园小区,,29,27,32,20,28,64,,78,75,20,15,6,6,0.3,0.3
2024-04-13T2100,1870A,109.4856,24.3895,柳州市,柳东小学,,50,50,44,33,31,53,,65,65,18,12,6,6,0.6,0.6
2024-04-13T2100,1871A,109.4157,24.3277,柳州市,环保监测站,颗粒物(PM10),53,56,50,36,35,46,,64,64,18,11,6,6,0.9,0.9
2024-04-13T2100,1872A,109.389,24.341,柳州市,河西水厂,颗粒物(PM10),51,52,48,35,32,57,,67,67,12,11,2,2,0.6,0.6
2024-04-13T2100,1873A,109.4311,24.2921,柳州市,市四中,颗粒物(PM10),57,63,51,37,32,54,,67,67,17,13,6,5,0.6,0.6
2024-04-13T2100,1874A,109.4006,24.3631,柳州市,市九中,颗粒物(PM10),57,64,56,36,30,50,,64,64,20,15,6,6,0.6,0.6
2024-04-13T2100,1875A,109.4958,24.3134,柳州市,古亭山,颗粒物(PM10),52,53,46,33,31,60,,69,69,14,10,5,5,0.5,0.5
2024-04-13T2100,3402A,109.5422,24.3996,柳州市,市二中,,46,36,45,32,30,60,,67,67,15,14,7,8,0.7,0.7
2024-04-13T2100,2307A,116.5079,31.737,六安市,监测大楼,细颗粒物(PM2.5),93,,62,69,79,121,,126,126,18,17,6,4,0.7,0.8
2024-04-13T2100,2308A,116.4738,31.7643,六安市,皖西学院,细颗粒物(PM2.5),83,,70,61,69,128,,132,132,16,15,6,4,0.7,0.8
2024-04-13T2100,2309A,116.4996,31.7905,六安市,朝阳厂,细颗粒物(PM2.5),85,,61,63,76,120,,126,126,15,14,7,5,0.5,0.6
2024-04-13T2100,2310A,116.5567,31.7886,六安市,开发区,细颗粒物(PM2.5),54,53,74,38,50,125,,130,130,21,22,6,6,0.8,0.9
2024-04-13T2100,2576A,104.8,26.5892,六盘水市,窑上,,,,,,,,,,,,,,,,
2024-04-13T2100,2577A,104.83,26.5917,六盘水市,黄土坡,,43,43,46,16,27,108,,165,155,26,12,7,8,0.6,0.5
2024-04-13T2100,2578A,104.89,26.5939,六盘水市,水钢,颗粒物(PM10),55,60,56,24,31,116,,165,160,37,13,20,13,1.2,0.6
2024-04-13T2100,2579A,104.8475,26.5894,六盘水市,民中,颗粒物(PM10),51,52,40,29,28,81,,167,153,54,15,9,9,0.7,0.5
2024-04-13T2100,2580A,104.9544,26.5506,六盘水市,双水,,,48,41,16,18,121,,169,162,34,12,8,13,,0.8
2024-04-13T2100,2335A,117.0189,25.1181,龙岩市,龙岩师专,,,,,,,,,,,,,,,,
2024-04-13T2100,2336A,117.0217,25.1033,龙岩市,龙岩市监测站,细颗粒物(PM2.5),92,81,40,68,33,109,,106,104,17,16,5,7,0.8,0.7
2024-04-13T2100,2337A,117.0258,25.0661,龙岩市,闽西职业技术学院,细颗粒物(PM2.5),100,84,43,75,33,98,,94,93,15,18,7,10,0.7,0.7
2024-04-13T2100,2338A,117.0196,25.0306,龙岩市,龙岩学院,细颗粒物(PM2.5),87,73,41,64,29,110,,106,106,9,11,4,3,0.8,0.7
2024-04-13T2100,2665A,105.0822,33.3261,陇南市,汉王镇固水子,,,,,,,,,,,,,,,,
2024-04-13T2100,2885A,104.9339,33.3826,陇南市,滨江中学,颗粒物(PM10),67,83,57,26,21,54,,116,94,30,11,8,8,0.8,0.6
2024-04-13T2100,3247A,104.955,33.371,陇南市,市总工会,,42,42,43,16,15,56,,105,89,14,11,6,6,0.4,0.4
2024-04-13T2100,2487A,111.9589,27.8901,娄底市,电视发射台,,49,49,45,34,31,14,,56,50,5,7,6,6,1.2,1.3
2024-04-13T2100,2488A,111.9975,27.725,娄底市,市监测站,颗粒物(PM10),63,76,55,40,35,33,,63,61,24,13,7,11,1.0,0.9
2024-04-13T2100,2489A,112.0194,27.7314,娄底市,市委党校,细颗粒物(PM2.5),59,58,50,42,34,36,,57,56,14,14,3,8,1.1,0.9
2024-04-13T2100,2490A,111.9561,27.7569,娄底市,涟钢,细颗粒物(PM2.5),64,73,64,46,39,34,,57,56,27,25,14,17,1.6,1.2
2024-04-13T2100,2491A,111.9892,27.7044,娄底市,市政府,颗粒物(PM10),57,63,40,38,34,48,,68,68,21,16,8,9,1.0,0.6
2024-04-13T2100,1893A,105.4324,28.9634,泸州市,九狮山,细颗粒物(PM2.5),88,88,56,65,38,80,,170,155,18,18,5,7,0.5,0.5
2024-04-13T2100,1894A,105.4427,28.9063,泸州市,小市上码头,颗粒物(PM10),65,79,67,45,45,121,,168,162,26,26,7,12,0.5,0.6
2024-04-13T2100,1895A,105.4241,28.8573,泸州市,兰田宪桥,细颗粒物(PM2.5),65,72,62,47,42,100,,170,162,27,24,5,5,0.6,0.7
2024-04-13T2100,1896A,105.4379,28.8833,泸州市,市环监站,细颗粒物(PM2.5),69,74,59,50,44,108,,160,155,31,24,10,11,0.7,0.7
2024-04-13T2100,3490A,105.3617,28.7703,泸州市,纳溪区环保局,细颗粒物(PM2.5),73,73,60,53,42,44,,164,146,60,35,5,7,0.8,0.5
2024-04-13T2100,2183A,111.1406,37.5211,吕梁市,环保局,颗粒物(PM10),94,138,103,17,28,105,,141,133,9,43,12,13,0.5,0.5
2024-04-13T2100,2185A,111.1297,37.5136,吕梁市,自来水公司,颗粒物(PM10),66,81,118,15,32,103,,140,132,10,37,9,11,0.5,0.5
2024-04-13T2100,2867A,111.1283,37.51,吕梁市,马茂庄小学,颗粒物(PM10),89,128,128,17,33,102,,138,130,13,45,7,10,0.4,0.5
2024-04-13T2100,1812A,112.3931,34.6516,洛阳市,市委党校,,42,42,59,28,40,113,,132,129,8,22,2,4,0.6,0.6
2024-04-13T2100,1814A,112.4657,34.6871,洛阳市,豫西宾馆,,42,42,74,27,38,109,,135,131,14,24,3,6,0.6,0.6
2024-04-13T2100,1815A,112.494,34.6886,洛阳市,河南林校,,40,39,58,28,40,101,,133,127,18,25,3,5,0.5,0.5
2024-04-13T2100,1816A,112.3844,34.623,洛阳市,开发区管委会,,42,38,57,29,35,112,,132,130,8,17,2,4,0.5,0.4
2024-04-13T2100,1817A,112.4267,34.6258,洛阳市,市委新办公区,,43,43,56,28,34,112,,128,126,7,15,5,6,0.5,0.5
2024-04-13T2100,3340A,112.6005,34.6326,洛阳市,伊滨,,40,38,54,28,38,106,,135,130,10,21,5,6,0.5,0.5
2024-04-13T2100,3341A,112.4951,34.6332,洛阳市,中移产业园,,36,36,59,22,35,106,,130,126,5,17,3,6,0.6,0.6
2024-04-13T2100,3593A,112.5736,34.8993,洛阳市,吉利监测站,颗粒物(PM10),57,64,81,17,31,96,,137,130,15,26,1,3,0.8,0.8
2024-04-13T2100,3635A,112.3677,34.662,洛阳市,河科大西苑校区,,39,39,62,21,33,114,,131,128,6,26,2,5,0.5,0.5
2024-04-13T2100,3636A,112.4388,34.6781,洛阳市,英才小学,,40,40,72,23,35,103,,129,125,11,19,3,6,0.5,0.5
2024-04-13T2100,2399A,114.051,33.5699,漯河市,三五一五工厂,颗粒物(PM10),63,76,62,42,33,92,,113,108,8,13,2,7,0.6,0.5
2024-04-13T2100,2400A,114.0055,33.5698,漯河市,漯河大学,,,79,65,61,42,,,119,116,18,16,7,8,0.6,0.5
2024-04-13T2100,2401A,114.0138,33.5828,漯河市,市水利局,细颗粒物(PM2.5),79,83,58,58,42,98,,119,112,11,11,5,5,0.5,0.5
2024-04-13T2100,2402A,114.0261,33.5698,漯河市,市广电局,细颗粒物(PM2.5),72,81,67,52,37,102,,120,116,13,14,4,4,0.8,0.7
2024-04-13T2100,3478A,113.9749,33.5664,漯河市,市图书馆,细颗粒物(PM2.5),108,98,56,81,36,99,,120,113,15,13,12,11,0.9,0.7
2024-04-13T2100,3479A,114.0967,33.5906,漯河市,召陵区卫健委,,,66,61,,37,92,,115,109,14,14,6,4,0.7,0.6
2024-04-13T2100,1798A,118.5092,31.6837,马鞍山市,湖东路四小,,40,36,37,28,30,70,,116,111,27,25,8,8,0.6,0.8
2024-04-13T2100,1799A,118.5024,31.6449,马鞍山市,开发区,,42,42,42,29,31,67,,122,112,34,31,6,6,0.8,0.9
2024-04-13T2100,1800A,118.5228,31.7231,马鞍山市,慈湖,颗粒物(PM10),51,51,51,29,29,74,,112,108,26,26,10,10,0.8,0.9
2024-04-13T2100,1802A,118.6245,31.7241,马鞍山市,濮塘,,40,38,33,28,23,72,,112,108,20,18,4,4,0.8,0.9
2024-04-13T2100,3633A,118.4918,31.6809,马鞍山市,雨山,,33,33,32,23,23,71,,118,113,26,24,5,5,0.7,0.9
2024-04-13T2100,1686A,111.0286,21.4688,茂名市,电白南海,,35,31,34,24,20,73,,74,74,9,11,7,7,0.5,0.6
2024-04-13T2100,1687A,110.9294,21.6533,茂名市,茂石化七小,,39,36,40,27,28,67,,79,75,10,11,8,8,0.8,0.8
2024-04-13T2100,1688A,110.9107,21.6687,茂名市,健康路,,34,34,33,19,19,62,,74,71,10,10,6,8,0.6,0.6
2024-04-13T2100,1689A,110.8592,21.6828,茂名市,高岭,,44,44,46,27,23,57,,74,70,14,13,8,8,0.8,0.7
2024-04-13T2100,3450A,111.01,21.5165,茂名市,电白水东,,25,24,29,17,19,54,,63,58,21,13,4,5,0.6,0.6
2024-04-13T2100,2539A,104.0308,30.0478,眉山市,黑龙滩水库,,43,42,29,30,21,120,,162,157,6,5,6,6,0.6,0.5
2024-04-13T2100,2540A,103.8416,30.0874,眉山市,气象局,颗粒物(PM10),63,75,54,39,26,120,,148,144,46,40,11,9,0.4,0.4
2024-04-13T2100,3137A,103.8578,30.0744,眉山市,市委党校,颗粒物(PM10),62,73,49,34,26,127,,146,143,42,38,10,10,0.6,0.5
2024-04-13T2100,3148A,103.8291,30.0564,眉山市,区人社局,颗粒物(PM10),62,73,49,36,33,141,,149,148,39,38,11,12,0.5,0.5
2024-04-13T2100,1690A,116.1231,24.3284,梅州市,梅江月梅,细颗粒物(PM2.5),68,65,49,49,30,138,,153,152,13,19,6,4,0.7,0.7
2024-04-13T2100,1691A,116.0797,24.2719,梅州市,梅县新城,细颗粒物(PM2.5),57,59,43,40,31,138,,155,153,11,18,4,4,0.6,0.6
2024-04-13T2100,1692A,116.1248,24.2654,梅州市,环境监控中心,细颗粒物(PM2.5),59,66,49,42,36,110,,147,143,32,17,4,12,0.8,0.7
2024-04-13T2100,3315A,116.1233,24.2991,梅州市,梅龙,细颗粒物(PM2.5),68,66,40,49,29,129,,149,147,13,9,10,9,0.8,0.8
2024-04-13T2100,1878A,104.7778,31.4741,绵阳市,富乐山,,48,48,44,31,33,94,,133,131,24,22,8,8,0.6,0.6
2024-04-13T2100,1879A,104.7563,31.4535,绵阳市,市人大,颗粒物(PM10),54,58,66,31,33,77,,121,116,54,46,6,8,0.6,0.7
2024-04-13T2100,1880A,104.6697,31.4668,绵阳市,高新区自来水公司,颗粒物(PM10),62,74,72,31,36,50,,133,121,71,43,10,10,0.5,0.6
2024-04-13T2100,1881A,104.7287,31.5075,绵阳市,三水厂,,,,74,,49,,,123,123,46,45,7,6,0.7,0.8
2024-04-13T2100,3491A,104.69,31.5322,绵阳市,西科大附属小学,颗粒物(PM10),57,64,59,35,35,48,,129,120,59,34,10,9,0.7,0.7
2024-04-13T2100,3492A,104.5648,31.5343,绵阳市,安州区旅游局,细颗粒物(PM2.5),69,68,59,50,36,38,,117,108,64,20,6,7,1.1,0.7
2024-04-13T2100,1784A,129.61,44.561,牡丹江市,环保大楼,颗粒物(PM10),80,109,52,55,34,20,,128,101,77,20,8,8,1.0,0.5
2024-04-13T2100,1785A,129.6115,44.5782,牡丹江市,文化广场,颗粒物(PM10),97,144,62,60,44,6,,116,86,98,26,12,12,1.7,0.8
2024-04-13T2100,1786A,129.5904,44.5963,牡丹江市,第一医院,细颗粒物(PM2.5),138,119,65,105,43,41,,118,89,44,23,12,12,1.1,0.6
2024-04-13T2100,1787A,129.6364,44.6075,牡丹江市,机车工厂,细颗粒物(PM2.5),100,109,67,75,34,35,,118,91,50,22,20,12,0.9,0.6
2024-04-13T2100,1788A,129.6386,44.5462,牡丹江市,第一中学,颗粒物(PM10),63,76,51,44,25,34,,124,91,46,23,11,12,0.9,0.7
2024-04-13T2100,2531A,105.0703,29.61,内江市,市监测站,颗粒物(PM10),63,76,43,44,32,68,,123,116,44,25,8,9,0.4,0.3
2024-04-13T2100,2532A,105.0717,29.5947,内江市,东兴区政府,颗粒物(PM10),52,53,42,32,23,101,,127,124,18,19,9,9,0.4,0.4
2024-04-13T2100,2533A,105.0653,29.5817,内江市,内江二中,,42,37,33,29,23,93,,120,117,18,20,8,8,0.8,0.7
2024-04-13T2100,2534A,105.0406,29.5822,内江市,内江日报社,,46,40,29,32,23,87,,131,125,37,27,10,11,0.8,0.7
2024-04-13T2100,2628A,92.0657,31.4846,那曲市,那曲监测站,,34,31,41,17,24,107,,123,120,10,13,9,9,0.7,0.9
2024-04-13T2100,3128A,92.0506,31.4797,那曲市,那曲会议中心,,50,50,44,17,20,109,,122,120,4,12,7,8,0.4,0.7
2024-04-13T2100,1290A,115.8931,28.6843,南昌市,省外办,,28,26,36,19,22,24,,46,41,33,30,5,6,0.7,0.7
2024-04-13T2100,1291A,115.8886,28.7003,南昌市,省林业公司,,32,22,30,22,20,24,,48,42,35,34,4,5,0.7,0.7
2024-04-13T2100,1292A,115.8126,28.7442,南昌市,林科所,,20,7,20,2,12,25,,53,42,40,33,6,7,0.9,0.7
2024-04-13T2100,1294A,115.8518,28.687,南昌市,建工学校,,32,,37,22,25,32,,54,47,36,32,4,4,0.8,0.8
2024-04-13T2100,1295A,115.8921,28.6424,南昌市,象湖,,35,35,36,21,20,8,,48,35,51,36,3,4,1.2,1.1
2024-04-13T2100,1296A,115.7423,28.7996,南昌市,武术学校,,12,12,13,7,16,28,,60,57,4,7,6,6,0.5,0.5
2024-04-13T2100,1298A,115.9314,28.6842,南昌市,省站,,42,34,33,29,23,20,,48,39,32,23,7,8,1.1,0.9
2024-04-13T2100,3046A,115.9084,28.6062,南昌市,机电学校,,28,28,41,17,21,9,,44,35,47,34,6,8,0.7,0.8
2024-04-13T2100,3690A,115.9721,28.7031,南昌市,外国语学校,,26,22,27,18,19,17,,48,37,41,24,2,3,0.7,0.7
2024-04-13T2100,1905A,106.056,30.8064,南充市,西山风景区,,,,,,,,,,,,,,,,
2024-04-13T2100,1906A,106.0789,30.8023,南充市,南充市委,,50,50,49,35,27,67,,107,104,21,24,7,8,0.7,0.6
2024-04-13T2100,1907A,106.1031,30.8217,南充市,南充炼油厂,颗粒物(PM10),56,62,55,31,29,61,,101,100,30,30,10,8,0.4,0.4
2024-04-13T2100,1908A,106.1064,30.7856,南充市,高坪区监测站,颗粒物(PM10),53,56,53,29,25,76,,106,104,19,33,16,8,0.2,0.3
2024-04-13T2100,1909A,106.0642,30.7636,南充市,嘉陵区环保局,,45,42,49,31,25,64,,103,101,28,32,7,8,0.6,0.6
2024-04-13T2100,1910A,106.1087,30.8388,南充市,市环境监测站,,,50,53,31,29,75,,106,106,,25,7,8,0.3,0.4
2024-04-13T2100,1151A,118.8086,32.1065,南京市,迈皋桥,,45,33,32,31,28,50,,82,74,28,26,4,4,0.6,0.7
2024-04-13T2100,1152A,118.7538,32.0551,南京市,草场门,,42,34,30,29,30,50,,76,70,27,24,1,1,0.5,0.6
2024-04-13T2100,1153A,118.7794,32.0745,南京市,山西路,,49,34,32,34,35,51,,86,76,30,26,3,4,0.4,0.5
2024-04-13T2100,1154A,118.7752,32.0023,南京市,中华门,,42,31,29,29,30,53,,82,75,24,22,6,6,0.6,0.7
2024-04-13T2100,1155A,118.8109,32.0309,南京市,瑞金路,,45,36,36,31,28,50,,78,71,15,14,3,3,0.3,0.5
2024-04-13T2100,1156A,118.7997,32.0754,南京市,玄武湖,,43,38,30,30,29,42,,80,70,38,27,6,6,0.5,0.6
2024-04-13T2100,1157A,118.6414,32.0931,南京市,浦口,,33,31,35,23,18,48,,78,71,31,31,4,4,0.6,0.8
2024-04-13T2100,1158A,118.7356,31.9996,南京市,奥体中心,,43,43,42,24,32,57,,86,78,27,26,7,7,0.4,0.6
2024-04-13T2100,1159A,118.9125,32.1028,南京市,仙林大学城,,36,36,32,22,23,52,,80,73,29,27,8,8,0.6,0.7
2024-04-13T2100,3422A,118.8436,31.9198,南京市,江宁彩虹桥,,42,36,26,29,32,48,,84,76,28,26,4,3,0.4,0.6
2024-04-13T2100,3423A,119.0138,31.6494,南京市,溧水永阳,,44,44,32,18,19,59,,100,96,29,27,4,4,0.4,0.6
2024-04-13T2100,3424A,118.879,31.3302,南京市,高淳老职中,,27,27,34,18,23,63,,111,104,25,28,7,6,0.6,0.7
2024-04-13T2100,3427A,118.8554,32.3578,南京市,六合雄州,,29,25,38,20,30,48,,61,59,26,29,4,3,0.7,0.7
2024-04-13T2100,1401A,108.3103,22.7881,南宁市,二十一中,,32,32,40,22,25,57,,72,70,11,12,3,4,0.7,0.8
2024-04-13T2100,1402A,108.3141,22.8528,南宁市,北湖,,36,27,45,25,27,50,,64,63,14,15,4,5,0.8,0.9
2024-04-13T2100,1403A,108.3206,22.8225,南宁市,市监测站,,38,38,42,23,25,49,,65,63,21,16,6,6,0.7,0.7
2024-04-13T2100,1404A,108.3829,22.8037,南宁市,大自然花园,,32,32,38,18,24,59,,68,68,7,10,4,5,0.6,0.6
2024-04-13T2100,1405A,108.4394,22.7904,南宁市,仙葫,,29,29,52,20,24,58,,68,66,9,13,6,6,0.9,1
2024-04-13T2100,1406A,108.2397,22.8467,南宁市,区农职院,,35,35,52,21,25,49,,62,61,18,21,5,6,0.6,0.6
2024-04-13T2100,1407A,108.3275,22.735,南宁市,英华嘉园,,35,35,42,17,23,47,,61,59,19,21,6,6,0.6,0.6
2024-04-13T2100,1408A,108.2257,22.7757,南宁市,沙井镇街道办,,46,46,44,18,25,46,,67,63,18,18,4,5,0.8,0.9
2024-04-13T2100,3401A,108.4834,22.7618,南宁市,红星社区,,48,,44,33,26,57,,71,68,11,13,7,7,0.7,0.8
2024-04-13T2100,2331A,118.0966,26.6761,南平市,茫荡山,,,,,,,,,,,,,,,,
2024-04-13T2100,2332A,118.1681,26.6369,南平市,南平市监测站,,33,29,46,23,31,67,,77,76,11,15,4,4,0.7,0.8
2024-04-13T2100,2333A,118.1825,26.6489,南平市,南平铝业有限公司,,36,36,41,24,30,80,,80,80,8,14,6,6,0.8,0.9
2024-04-13T2100,2334A,118.1756,26.6272,南平市,南平七中,,42,,43,29,40,64,,82,80,7,12,2,3,0.8,0.9
2024-04-13T2100,1168A,120.9098,31.9663,南通市,狼山街道,,27,9,10,2,2,84,,86,86,12,12,8,8,0.4,0.4
2024-04-13T2100,1169A,120.86,32.0005,南通市,虹桥,,25,16,16,5,6,79,,77,77,9,10,4,4,0.3,0.3
2024-04-13T2100,1170A,120.87,32.02,南通市,城中,,27,27,19,12,8,72,,76,75,10,9,4,4,0.5,0.4
2024-04-13T2100,1171A,120.94,31.93,南通市,星湖花园,,25,11,9,5,6,77,,77,77,14,14,6,6,0.5,0.5
2024-04-13T2100,1172A,120.81,32.0417,南通市,紫琅学院,,37,37,12,5,4,77,,77,77,13,16,7,7,0.4,0.4
2024-04-13T2100,3291A,121.067,32.062,南通市,通州监测站,,25,19,16,12,5,79,,80,79,5,5,7,7,0.6,0.5
2024-04-13T2100,3432A,120.9348,31.9883,南通市,环境教育馆,,26,17,13,4,4,82,,80,80,13,14,6,6,0.2,0.2
2024-04-13T2100,2404A,112.5224,33.0122,南阳市,瓦房庄,,44,44,56,23,33,83,,113,108,16,30,5,5,0.7,0.6
2024-04-13T2100,2405A,112.5003,32.9735,南阳市,汉画馆,颗粒物(PM10),52,54,58,33,39,72,,105,98,28,31,3,4,0.8,0.7
2024-04-13T2100,2406A,112.5573,33.027,南阳市,气象站,,41,41,50,24,31,79,,114,108,20,31,6,7,0.6,0.5
2024-04-13T2100,2407A,112.5481,32.9689,南阳市,理工学院,,48,44,55,33,39,81,,113,107,20,32,4,4,0.7,0.7
2024-04-13T2100,4008A,112.5234,32.9922,南阳市,卧龙区政府,,40,40,49,17,32,79,,107,100,23,34,5,6,1.0,0.9
2024-04-13T2100,1234A,121.8358,29.911,宁波市,区环保大楼,,23,4,30,2,15,71,,66,62,9,39,6,7,0.6,0.7
2024-04-13T2100,1235A,121.56,29.82,宁波市,万里学院,,24,10,25,3,17,75,,116,106,5,19,7,7,0.5,0.6
2024-04-13T2100,1236A,121.713,29.9572,宁波市,龙赛医院,,22,20,27,7,11,70,,67,62,14,42,8,10,0.6,0.5
2024-04-13T2100,1239A,121.633,29.7733,宁波市,钱湖水厂,,25,,23,5,16,79,,103,101,4,16,8,8,0.6,0.7
2024-04-13T2100,1240A,121.5856,29.8635,宁波市,太古小学,,24,6,31,6,15,76,,100,91,9,29,8,8,0.6,0.7
2024-04-13T2100,1241A,121.524,29.8674,宁波市,市环境监测中心,,24,8,26,4,14,74,,122,110,18,27,6,7,0.5,0.6
2024-04-13T2100,2871A,121.6147,29.9017,宁波市,万里国际学校,,25,25,35,6,18,79,,95,86,11,33,8,9,0.4,0.5
2024-04-13T2100,3710A,121.5594,29.8975,宁波市,白沙活动中心,,25,,36,8,13,78,,111,98,12,27,7,8,0.4,0.5
2024-04-13T2100,2339A,119.5001,26.6946,宁德市,金涵水库,,,,,,,,,,,,,,,,
2024-04-13T2100,2341A,119.5388,26.6612,宁德市,宁德市监测站,,28,,36,19,34,82,,99,96,10,11,6,6,0.5,0.6
2024-04-13T2100,3209A,119.5231,26.6562,宁德市,宁德一中,,33,28,42,23,38,84,,98,93,14,16,7,7,0.4,0.5
2024-04-13T2100,2618A,98.8601,25.8567,怒江傈僳族自治州,州监测站,细颗粒物(PM2.5),58,58,40,41,31,93,,111,111,31,7,6,6,0.7,0.4
2024-04-13T2100,2619A,98.8546,25.8417,怒江傈僳族自治州,泸水一中,颗粒物(PM10),61,72,44,36,32,61,,90,86,49,17,7,7,0.7,0.4
2024-04-13T2100,1888A,101.6891,26.571,攀枝花市,弄弄坪,颗粒物(PM10),52,53,53,34,30,129,,138,136,32,28,98,38,3.4,1.7
2024-04-13T2100,1889A,101.5769,26.5928,攀枝花市,河门口,,48,46,46,30,29,152,,159,158,14,18,7,9,0.4,0.5
2024-04-13T2100,1890A,101.7169,26.585,攀枝花市,炳草岗,,44,42,41,24,23,138,,155,153,21,23,8,26,0.6,0.9
2024-04-13T2100,1891A,101.7369,26.5008,攀枝花市,仁和,,43,40,35,30,25,120,,159,155,21,15,8,7,0.7,0.6
2024-04-13T2100,2835A,101.7227,26.567,攀枝花市,四十中小,臭氧1小时,52,44,41,29,25,161,,161,161,12,23,10,22,0.7,1.3
2024-04-13T2100,1604A,122.0303,41.1489,盘锦市,开发区,,45,,32,31,26,82,,99,96,22,16,5,5,0.4,0.4
2024-04-13T2100,1605A,122.0485,41.0883,盘锦市,兴隆台,,40,32,31,28,24,76,,99,94,26,13,8,8,0.6,0.5
2024-04-13T2100,1606A,121.8297,41.1028,盘锦市,新生街道,,43,39,26,30,24,78,,94,91,22,17,7,7,0.5,0.5
2024-04-13T2100,1832A,113.3257,33.742,平顶山市,新华旅馆,细颗粒物(PM2.5),104,108,74,78,50,105,,130,125,19,35,10,11,0.6,0.5
2024-04-13T2100,1833A,113.2919,33.737,平顶山市,规划设计院,细颗粒物(PM2.5),103,106,72,77,46,89,,114,108,15,26,7,9,0.9,0.8
2024-04-13T2100,1834A,113.182,33.774,平顶山市,平顶山工学院,细颗粒物(PM2.5),85,112,69,63,33,89,,121,111,12,20,9,6,0.8,0.6
2024-04-13T2100,3204A,113.3025,33.73,平顶山市,规划局,细颗粒物(PM2.5),94,95,69,70,38,97,,122,117,12,23,10,10,1.1,0.9
2024-04-13T2100,3594A,112.8867,33.9116,平顶山市,石龙区,细颗粒物(PM2.5),65,72,63,47,36,71,,123,114,24,24,9,8,0.7,0.5
2024-04-13T2100,2656A,106.6692,35.5461,平凉市,聚贤嘉苑,颗粒物(PM10),74,97,65,32,30,28,,105,82,64,37,12,10,0.5,0.4
2024-04-13T2100,2657A,106.7021,35.5307,平凉市,博物馆,颗粒物(PM10),67,83,71,35,28,50,,109,89,44,28,27,20,0.5,0.5
2024-04-13T2100,2347A,114.0997,27.5002,萍乡市,武功山,颗粒物(PM10),58,66,31,28,11,24,,52,46,15,9,12,13,0.5,0.6
2024-04-13T2100,2348A,113.8385,27.6434,萍乡市,中医院,颗粒物(PM10),56,62,62,39,47,41,,49,47,17,20,7,18,0.9,1.3
2024-04-13T2100,2349A,113.8493,27.6253,萍乡市,市政府车库,,50,50,51,31,38,33,,46,43,26,23,21,16,3.5,2.2
2024-04-13T2100,2350A,113.8676,27.6435,萍乡市,市环保局,细颗粒物(PM2.5),55,55,52,39,41,40,,44,42,12,17,15,17,0.8,1
2024-04-13T2100,2351A,113.866,27.6198,萍乡市,安源区政府,颗粒物(PM10),56,62,54,28,34,40,,45,44,14,17,11,11,0.8,1.2
2024-04-13T2100,2319A,119.0141,25.4325,莆田市,荔城区仓后路,,48,48,50,25,38,57,,72,71,27,23,6,5,0.9,0.9
2024-04-13T2100,2320A,119.0015,25.4553,莆田市,莆田市监测站,,43,43,53,30,37,29,,65,62,24,20,7,6,1.0,0.9
2024-04-13T2100,2321A,119.1119,25.4561,莆田市,涵江区六中,,28,28,52,15,41,52,,72,69,31,25,7,7,0.9,1.4
2024-04-13T2100,2322A,119.1013,25.3215,莆田市,秀屿区政府,,26,26,35,16,30,69,,81,79,14,16,17,10,0.8,0.8
2024-04-13T2100,2323A,118.981,25.4792,莆田市,东圳水库,,,,,,,,,,,,,,,,
2024-04-13T2100,2392A,115.0312,35.7636,濮阳市,环保局,细颗粒物(PM2.5),52,40,60,36,49,66,,137,119,11,12,8,9,0.3,0.5
2024-04-13T2100,2394A,115.0574,35.7609,濮阳市,油田运输公司,颗粒物(PM10),57,63,86,37,53,69,,147,126,12,13,9,11,0.6,0.8
2024-04-13T2100,2395A,115.0866,35.7754,濮阳市,油田物探公司,细颗粒物(PM2.5),62,56,88,44,58,66,,140,120,9,10,7,7,0.5,0.6
2024-04-13T2100,3021A,115,35.7668,濮阳市,濮水河管理处,,50,41,58,35,47,66,,132,116,6,6,8,9,0.5,0.6
2024-04-13T2100,2601A,100.98,22.7633,普洱市,市环保局,细颗粒物(PM2.5),122,129,87,92,57,146,,161,159,17,14,12,11,0.7,0.6
2024-04-13T2100,2602A,100.9817,22.8322,普洱市,普洱第二中学,细颗粒物(PM2.5),103,88,74,77,50,128,,164,160,31,29,12,12,0.7,0.7
2024-04-13T2100,2262A,131.0518,45.8751,七台河市,新一中,细颗粒物(PM2.5),92,101,57,68,29,108,,133,128,23,15,16,11,0.9,0.9
2024-04-13T2100,3345A,131.0577,45.7879,七台河市,中波台,颗粒物(PM10),59,67,51,40,21,114,,132,130,21,16,7,8,0.6,0.5
2024-04-13T2100,3637A,131.0176,45.7761,七台河市,人民广场,颗粒物(PM10),69,88,65,49,33,110,,121,121,21,17,11,10,0.6,0.6
2024-04-13T2100,3684A,130.8781,45.8222,七台河市,新建矿广场,细颗粒物(PM2.5),82,90,59,60,33,93,,123,118,27,18,15,14,1.0,0.8
2024-04-13T2100,1779A,123.9305,47.3636,齐齐哈尔市,安居小区,细颗粒物(PM2.5),84,87,112,62,68,112,,125,125,16,33,5,16,0.8,0.9
2024-04-13T2100,1780A,123.9488,47.3386,齐齐哈尔市,中心广场,颗粒物(PM10),80,110,140,29,51,107,,124,123,19,30,8,8,0.5,0.7
2024-04-13T2100,1781A,123.9483,47.3227,齐齐哈尔市,农牧车辆厂,颗粒物(PM10),75,100,109,41,52,110,,128,127,15,29,11,10,0.5,0.7
2024-04-13T2100,1783A,123.945,47.2988,齐齐哈尔市,市环境监测站,颗粒物(PM10),71,92,109,45,64,115,,128,128,15,30,7,6,0.5,0.6
2024-04-13T2100,3662A,123.6333,47.2075,齐齐哈尔市,富区青少年活动中心,颗粒物(PM10),74,98,121,41,60,106,,134,132,15,26,10,11,0.6,0.8
2024-04-13T2100,2591A,107.9783,26.5747,黔东南苗族侗族自治州,市环境监测站,细颗粒物(PM2.5),57,45,45,40,37,81,,108,104,20,9,2,3,0.6,0.6
2024-04-13T2100,2881A,107.8908,26.5311,黔东南苗族侗族自治州,凯里学院,,,,42,34,31,104,,114,113,3,4,2,2,0.3,0.4
2024-04-13T2100,2593A,107.5228,26.2403,黔南布依族苗族自治州,小围寨,,45,41,40,31,31,89,,118,108,5,5,3,4,0.5,0.5
2024-04-13T2100,3538A,107.5175,26.2978,黔南布依族苗族自治州,沙坝,颗粒物(PM10),51,51,44,31,32,89,,111,107,4,5,3,4,0.7,0.6
2024-04-13T2100,2589A,104.9022,25.0925,黔西南布依族苗族自治州,场坝街,细颗粒物(PM2.5),72,66,54,52,37,109,,143,137,10,10,2,2,0.4,0.6
2024-04-13T2100,2590A,104.8811,25.0992,黔西南布依族苗族自治州,坪东大道,细颗粒物(PM2.5),68,52,50,49,38,121,,154,150,6,16,2,3,0.6,0.6
2024-04-13T2100,2502A,108.6236,21.9667,钦州市,市环保站,,46,46,44,22,20,45,,60,54,24,22,9,6,0.8,0.7
2024-04-13T2100,2503A,108.6549,21.9481,钦州市,沙埠小学,,46,46,42,27,24,47,,71,65,24,19,9,6,1.0,0.9
2024-04-13T2100,2504A,108.5989,21.7431,钦州市,港区一小,颗粒物(PM10),51,51,60,24,24,69,,78,76,20,19,6,6,0.7,0.7
2024-04-13T2100,3404A,108.5959,21.9633,钦州市,北职校,颗粒物(PM10),52,54,48,26,27,43,,62,57,27,30,7,6,0.8,0.7
2024-04-13T2100,1042A,119.5134,39.8207,秦皇岛市,北戴河环保局,,34,34,37,21,19,67,,72,71,24,20,6,6,0.3,0.3
2024-04-13T2100,1043A,119.7493,40.0116,秦皇岛市,第一关,细颗粒物(PM2.5),79,,41,58,36,73,,76,76,27,20,7,6,0.4,0.3
2024-04-13T2100,1044A,119.5897,39.9499,秦皇岛市,监测站,细颗粒物(PM2.5),64,59,50,46,36,70,,79,79,31,24,5,5,0.4,0.3
2024-04-13T2100,1046A,119.5251,39.9041,秦皇岛市,建设大厦,,38,29,36,26,25,76,,81,81,22,18,3,3,0.2,0.1
2024-04-13T2100,3132A,119.610547,39.943889,秦皇岛市,文明里,细颗粒物(PM2.5),57,53,39,40,34,61,,72,72,39,27,3,4,0.4,0.4
2024-04-13T2100,1307A,120.6659,36.2403,青岛市,仰口,,25,22,10,17,11,50,,80,71,18,12,3,3,0.2,0.2
2024-04-13T2100,1310A,120.4134,36.0658,青岛市,市南区东部子站,,19,,7,12,6,58,,71,64,19,11,3,5,0.5,0.5
2024-04-13T2100,1311A,120.3664,36.1032,青岛市,四方区子站,,24,17,12,14,9,76,,83,77,18,17,3,3,0.4,0.4
2024-04-13T2100,1312A,120.2994,36.054,青岛市,市南区西部子站,,20,,2,7,4,64,,79,67,19,11,5,5,0.6,0.6
2024-04-13T2100,1313A,120.4581,36.0858,青岛市,崂山区子站,,18,,3,7,4,57,,78,65,21,11,6,6,0.4,0.4
2024-04-13T2100,1314A,120.1983,35.9608,青岛市,黄岛区子站,,18,,5,12,7,53,,66,59,26,16,5,5,0.6,0.5
2024-04-13T2100,1315A,120.3999,36.3083,青岛市,城阳区子站,,26,22,13,15,7,83,,92,84,12,15,6,6,0.4,0.4
2024-04-13T2100,1966A,120.0405,35.8735,青岛市,黄岛区4号,,21,7,5,2,2,65,,74,69,20,17,7,7,0.5,0.5
2024-04-13T2100,3362A,120.5014,36.4034,青岛市,即墨2号,,21,21,16,10,7,61,,87,78,14,11,4,4,0.4,0.4
2024-04-13T2100,3642A,120.3503,36.0736,青岛市,市北区南部,,25,10,8,7,4,77,,85,82,19,16,6,6,0.5,0.5
2024-04-13T2100,3643A,120.3948,36.1805,青岛市,李沧区北部,,32,,9,22,10,77,,88,77,19,17,7,7,0.4,0.4
2024-04-13T2100,1702A,113.0426,23.691,清远市,环保大楼,颗粒物(PM10),52,53,65,31,40,80,,124,117,27,24,5,8,1.0,1
2024-04-13T2100,1703A,113.0208,23.7106,清远市,凤城街办,颗粒物(PM10),58,65,75,36,50,88,,142,133,40,36,6,7,0.7,0.7
2024-04-13T2100,3025A,113.0477,23.6344,清远市,技师学院,颗粒物(PM10),60,69,89,34,45,91,,146,138,42,40,5,6,0.6,0.6
2024-04-13T2100,3318A,112.9903,23.7403,清远市,清新太和,颗粒物(PM10),51,51,68,33,44,85,,163,148,30,29,13,11,0.6,0.7
2024-04-13T2100,3455A,113.076,23.7198,清远市,清城东城,颗粒物(PM10),57,63,77,34,50,101,,149,143,33,31,6,8,0.6,0.6
2024-04-13T2100,2661A,107.6325,35.7357,庆阳市,庆阳五中,,40,39,47,28,22,80,,102,89,10,11,4,5,0.4,0.4
2024-04-13T2100,2662A,107.6364,35.7067,庆阳市,市环保局,,37,37,42,20,18,83,,101,88,12,12,6,7,0.4,0.3
2024-04-13T2100,1916A,103.7897,25.5035,曲靖市,环境监测站,,46,46,52,23,26,113,,154,144,12,10,7,6,0.6,0.6
2024-04-13T2100,1917A,103.8,25.5364,曲靖市,烟厂办公区,,49,49,54,28,30,116,,154,144,8,11,4,9,0.3,0.7
2024-04-13T2100,3376A,103.7947,25.462,曲靖市,南苑二区,颗粒物(PM10),53,56,44,19,23,113,,145,136,9,9,6,8,0.6,0.6
2024-04-13T2100,3377A,103.7444,25.5261,曲靖市,曲靖师范学院,颗粒物(PM10),54,57,54,28,31,121,,156,147,8,11,5,30,0.5,0.7
2024-04-13T2100,1264A,118.8692,28.9398,衢州市,环保大楼,颗粒物(PM10),52,53,53,35,37,69,,120,106,23,26,5,5,0.7,0.6
