timepoint,stationcode,longitude,latitude,area,positionname,primarypollutant,aqi,pm10,pm10_24h,pm2_5,pm2_5_24h,o3,o3_24h,o3_8h,o3_8h_24h,no2,no2_24h,so2,so2_24h,co,co_24h
2025-05-06T0300,2566A,102.1879,31.914,阿坝藏族羌族自治州,州农科所,,18,12,31,12,12,49,,,,9,10,9,11,0.5,0.6
2025-05-06T0300,2568A,102.2502,31.8896,阿坝藏族羌族自治州,马师校,,23,23,26,11,14,23,,,,25,12,5,5,0.5,0.5
2025-05-06T0300,3994A,102.2165,31.9024,阿坝藏族羌族自治州,马尔康中学西区,,22,16,30,15,15,55,,,,7,4,4,4,0.2,0.2
2025-05-06T0300,2695A,80.292,41.1694,阿克苏地区,电视台,颗粒物(PM10),249,384,494,130,149,66,,,,12,12,4,8,0.5,0.5
2025-05-06T0300,2696A,80.2613,41.1551,阿克苏地区,艺术中心,颗粒物(PM10),252,386,540,143,163,40,,,,24,14,5,4,0.5,0.4
2025-05-06T0300,2204A,105.6467,38.8363,阿拉善盟,西城区西花园,颗粒物(PM10),101,152,394,54,111,92,,,,8,9,22,6,0.7,0.7
2025-05-06T0300,2205A,105.6985,38.8411,阿拉善盟,蒙二幼,颗粒物(PM10),95,139,478,42,108,83,,,,5,7,8,8,0.4,0.4
2025-05-06T0300,2206A,105.724,38.8516,阿拉善盟,环保局新楼,颗粒物(PM10),86,122,467,38,112,97,,,,3,3,7,8,0.5,0.4
2025-05-06T0300,2708A,88.1264,47.8517,阿勒泰地区,市站,,23,23,25,3,5,73,,,,4,8,2,3,0.3,0.2
2025-05-06T0300,2630A,80.1161,32.5,阿里地区,阿里监测站,,40,6,14,3,8,125,,,,4,5,6,6,0.4,0.4
2025-05-06T0300,3192A,80.0903,32.5028,阿里地区,阿里藏医院,,43,11,24,3,9,135,,,,2,4,8,7,0.4,0.4
2025-05-06T0300,2642A,109.0318,32.6537,安康市,香溪洞,颗粒物(PM10),51,52,51,20,17,81,,,,7,5,8,7,0.7,0.7
2025-05-06T0300,2644A,109.0072,32.6975,安康市,汉滨区检察院,颗粒物(PM10),54,57,53,16,18,53,,,,11,8,12,10,0.3,0.3
2025-05-06T0300,4054A,109.0325,32.6913,安康市,市邮政管理局,颗粒物(PM10),54,58,60,24,21,54,,,,8,8,15,8,0.5,0.6
2025-05-06T0300,2291A,117.0809,30.5177,安庆市,环科院,,42,42,32,28,25,79,,,,14,22,5,2,0.8,0.9
2025-05-06T0300,2292A,117.0331,30.5119,安庆市,马山宾馆,,,39,31,30,27,51,,,,18,23,,5,0.8,0.8
2025-05-06T0300,2294A,116.9896,30.6145,安庆市,安庆大学,细颗粒物(PM2.5),89,,32,66,37,43,,,,28,20,5,4,0.6,0.6
2025-05-06T0300,3173A,117.0598,30.5351,安庆市,市人大,,40,38,32,28,25,68,,,,16,17,10,8,0.5,0.6
2025-05-06T0300,3122A,105.9606,26.2611,安顺市,伍家关,,42,42,28,28,20,63,,,,9,6,22,7,0.4,0.4
2025-05-06T0300,3123A,105.9408,26.2431,安顺市,凤凰山,细颗粒物(PM2.5),65,,32,47,30,63,,,,10,7,21,10,0.5,0.5
2025-05-06T0300,3124A,105.9439,26.2564,安顺市,金钟山,细颗粒物(PM2.5),63,,33,45,28,61,,,,8,6,22,9,0.3,0.3
2025-05-06T0300,3125A,105.8983,26.2481,安顺市,娄家坡,细颗粒物(PM2.5),63,,28,45,29,64,,,,8,7,22,9,0.7,0.7
2025-05-06T0300,1818A,114.4839,36.0621,安阳市,棉研所,,,,,,,,,,,,,,,,
2025-05-06T0300,1819A,114.3551,36.1017,安阳市,红庙街,颗粒物(PM10),424,524,343,126,86,82,,,,1,3,2,3,0.5,0.4
2025-05-06T0300,1820A,114.361,36.0681,安阳市,银杏小区,颗粒物(PM10),444,544,321,173,102,89,,,,3,6,3,3,0.4,0.3
2025-05-06T0300,3141A,114.3922,36.0878,安阳市,信访局,颗粒物(PM10),500,602,336,128,93,93,,,,4,8,2,3,0.4,0.4
2025-05-06T0300,3669A,114.4705,36.0637,安阳市,左辅环卫站,颗粒物(PM10),337,449,269,127,90,88,,,,8,11,2,3,0.5,0.6
2025-05-06T0300,3703A,114.2917,36.0949,安阳市,安钢职工学校,颗粒物(PM10),426,526,356,137,94,85,,,,5,9,3,4,0.4,0.5
2025-05-06T0300,1748A,123.044,41.1196,鞍山市,深沟寺,,23,20,24,11,12,72,,,,5,9,5,6,0.4,0.5
2025-05-06T0300,1749A,123.011,41.0931,鞍山市,太阳城,,18,18,25,11,13,56,,,,4,8,5,6,0.5,0.6
2025-05-06T0300,1750A,123.0485,41.1442,鞍山市,太平,,26,24,36,10,13,82,,,,6,12,8,8,0.5,0.6
2025-05-06T0300,1751A,122.9642,41.0971,鞍山市,铁西三道街,,28,26,37,11,14,89,,,,7,16,2,4,0.5,0.6
2025-05-06T0300,1753A,123.022,41.0821,鞍山市,明达新区,,26,18,25,8,10,83,,,,4,8,5,7,0.2,0.3
2025-05-06T0300,1754A,123.1289,41.0228,鞍山市,千山,,,,14,,7,,,60,,,8,,4,,0.4
2025-05-06T0300,4201A,122.9446,41.0826,鞍山市,兴盛南路290号,,25,24,38,11,15,80,,,,10,16,4,6,0.5,0.6
2025-05-06T0300,2195A,107.4212,40.761,巴彦淖尔市,附二中,颗粒物(PM10),53,56,253,21,59,60,,,,15,8,7,7,0.6,0.6
2025-05-06T0300,2196A,107.37,40.7372,巴彦淖尔市,市环保大楼,细颗粒物(PM2.5),54,52,254,38,69,75,,,,10,12,4,4,0.4,0.4
2025-05-06T0300,1956A,86.1472,41.7538,巴音郭楞蒙古自治州,孔雀公园,颗粒物(PM10),99,148,552,48,136,7,,,,74,33,7,7,0.5,0.4
2025-05-06T0300,1957A,86.1972,41.7166,巴音郭楞蒙古自治州,棉纺厂,颗粒物(PM10),83,116,805,3,178,75,,,,10,18,4,3,0.2,0.3
2025-05-06T0300,1958A,86.2357,41.7173,巴音郭楞蒙古自治州,经济开发区,,49,49,670,3,145,83,,,,4,12,10,7,0.3,0.3
2025-05-06T0300,2914A,106.7677,31.8794,巴中市,苏山坪,,32,32,23,16,10,96,,,,12,8,4,3,0.2,0.2
2025-05-06T0300,3181A,106.7768,31.8526,巴中市,市五中,,35,35,29,15,11,44,,,,18,13,6,6,0.4,0.4
2025-05-06T0300,3183A,106.7418,31.8654,巴中市,圣泉水务公司,,23,23,24,13,11,41,,,,26,19,7,7,0.4,0.3
2025-05-06T0300,3616A,106.7616,31.8344,巴中市,市中心医院,,43,40,28,30,17,30,,,,28,15,5,4,0.5,0.3
2025-05-06T0300,2235A,122.7911,45.6077,白城市,洮北区环保局,,33,33,26,14,10,74,,,,7,9,2,2,0.4,0.4
2025-05-06T0300,2236A,122.8738,45.5725,白城市,市环保局,,28,17,18,17,12,87,,,,2,6,2,3,0.4,0.3
2025-05-06T0300,2231A,126.4219,41.9171,白山市,喜丰,,17,17,32,10,12,23,,,,24,19,5,7,0.4,0.5
2025-05-06T0300,2232A,126.4077,41.9419,白山市,环保局,,24,24,25,3,10,35,,,,12,14,2,4,0.3,0.4
2025-05-06T0300,2647A,104.1724,36.5446,白银市,第三小学,颗粒物(PM10),167,284,238,97,78,52,,,,30,14,13,25,0.8,0.5
2025-05-06T0300,2648A,104.1465,36.5482,白银市,动力公司,颗粒物(PM10),154,257,222,90,74,40,,,,30,14,8,19,0.4,0.6
2025-05-06T0300,2512A,106.6103,23.9011,百色市,市监测站,,32,32,38,14,21,78,,,,12,15,14,11,0.5,0.5
2025-05-06T0300,2513A,106.6538,23.8859,百色市,市中心血站,,34,34,46,19,28,79,,,,8,14,14,13,0.9,0.8
2025-05-06T0300,3406A,106.6085,23.8798,百色市,祈福高中,,30,30,43,20,20,72,,,,10,14,12,10,0.8,0.8
2025-05-06T0300,2270A,117.396,32.939,蚌埠市,工人疗养院,颗粒物(PM10),59,67,60,30,32,102,,,,12,15,5,5,0.8,0.8
2025-05-06T0300,2271A,117.3605,32.9427,蚌埠市,百货大楼,颗粒物(PM10),59,68,56,30,37,98,,,,15,17,7,6,0.6,0.6
2025-05-06T0300,2273A,117.4185,32.8911,蚌埠市,蚌埠学院,颗粒物(PM10),60,70,48,42,40,85,,,,22,18,5,4,0.8,0.7
2025-05-06T0300,2274A,117.3533,32.9673,蚌埠市,淮上区政府,颗粒物(PM10),60,70,52,35,36,99,,,,14,15,6,5,0.4,0.5
2025-05-06T0300,2275A,117.3145,32.8977,蚌埠市,高新区,颗粒物(PM10),56,61,53,33,38,85,,,,17,18,5,5,0.6,0.6
2025-05-06T0300,3715A,117.3092,32.9314,蚌埠市,蚌埠田家炳中学,颗粒物(PM10),64,78,62,27,34,97,,,,13,16,7,8,0.4,0.5
2025-05-06T0300,1585A,109.8756,40.6532,包头市,市环境监测站,,49,49,153,21,44,11,,,,42,20,8,9,0.8,0.6
2025-05-06T0300,1587A,109.9991,40.5842,包头市,包头八中,颗粒物(PM10),55,60,138,28,50,37,,,,20,23,10,11,0.6,0.6
2025-05-06T0300,1588A,109.8538,40.6821,包头市,青山宾馆,颗粒物(PM10),53,56,142,21,54,16,,,,29,15,9,10,0.4,0.4
2025-05-06T0300,1589A,109.8642,40.6288,包头市,惠龙物流,颗粒物(PM10),51,51,150,10,41,34,,,,24,17,8,11,0.5,0.6
2025-05-06T0300,1590A,110.0377,40.5546,包头市,东河鸿龙湾,颗粒物(PM10),56,62,120,11,29,5,,,,39,16,7,8,0.5,0.4
2025-05-06T0300,3283A,109.9154,40.5685,包头市,滨河大厦,颗粒物(PM10),55,60,132,15,51,4,,,,48,18,11,13,0.6,0.5
2025-05-06T0300,3419A,109.9447,40.6261,包头市,包头市委党校,颗粒物(PM10),52,53,148,21,47,10,,,,47,18,7,8,0.4,0.4
2025-05-06T0300,3683A,109.8331,40.6576,包头市,昆区政府,,43,43,142,16,49,46,,,,17,17,6,8,0.4,0.6
2025-05-06T0300,1930A,107.185,34.3063,宝鸡市,庙沟村,颗粒物(PM10),174,298,188,120,77,81,,,,7,3,7,8,0.4,0.4
2025-05-06T0300,1931A,107.0708,34.3017,宝鸡市,竹园沟,颗粒物(PM10),158,266,165,111,58,59,,,,10,6,8,8,0.3,0.3
2025-05-06T0300,1932A,107.1906,34.3672,宝鸡市,三陆医院,细颗粒物(PM2.5),168,242,168,127,68,30,,,,34,24,9,6,0.3,0.3
2025-05-06T0300,1933A,107.1431,34.3547,宝鸡市,监测站,颗粒物(PM10),116,181,179,74,70,53,,,,8,11,4,4,0.3,0.3
2025-05-06T0300,1934A,107.1186,34.3739,宝鸡市,技工学校,颗粒物(PM10),115,180,167,80,55,52,,,,8,7,8,7,0.5,0.4
2025-05-06T0300,1935A,107.3906,34.3528,宝鸡市,陈仓区环保局家属楼,颗粒物(PM10),117,184,182,78,61,43,,,,19,18,8,20,0.5,0.5
2025-05-06T0300,1936A,107.2058,34.3497,宝鸡市,文理学院,颗粒物(PM10),120,190,163,87,70,47,,,,15,14,6,6,0.3,0.3
2025-05-06T0300,1937A,107.2386,34.3622,宝鸡市,三迪小学,颗粒物(PM10),137,223,175,98,64,36,,,,25,16,8,6,0.5,0.5
2025-05-06T0300,1051A,115.493,38.8632,保定市,游泳馆,颗粒物(PM10),58,66,86,32,45,70,,,,11,20,5,7,0.1,0.2
2025-05-06T0300,1052A,115.5213,38.8959,保定市,华电二区,颗粒物(PM10),53,56,68,30,40,56,,,,12,17,2,4,0.2,0.4
2025-05-06T0300,1053A,115.4713,38.9108,保定市,接待中心,颗粒物(PM10),61,72,71,37,44,46,,,,12,15,1,2,0.5,0.6
2025-05-06T0300,1054A,115.4612,38.8416,保定市,地表水厂,颗粒物(PM10),56,61,81,25,35,73,,,,8,20,3,4,0.2,0.4
2025-05-06T0300,3581A,115.31981,38.95208,保定市,满城区生态环境分局,,,70,68,39,37,42,,,,16,13,,3,0.3,0.4
2025-05-06T0300,3582A,115.47694,38.76408,保定市,清苑区第二中学,颗粒物(PM10),65,79,87,40,37,70,,,,11,13,5,6,0.3,0.4
2025-05-06T0300,3583A,115.62909,39.02311,保定市,徐水物探局,颗粒物(PM10),63,75,70,22,36,35,,,,22,22,3,2,0.3,0.5
2025-05-06T0300,4004A,115.4202,38.8656,保定市,双鹰农机,颗粒物(PM10),62,73,63,33,31,57,,,,18,18,8,5,0.2,0.4
2025-05-06T0300,4034A,115.5150,38.8590,保定市,植保所站,颗粒物(PM10),59,67,76,36,37,69,,,,7,15,3,2,0.4,0.6
2025-05-06T0300,2594A,99.1678,25.1081,保山市,市环境监测站,,49,,25,34,22,67,,,,6,8,4,4,0.5,0.5
2025-05-06T0300,2595A,99.1711,25.1328,保山市,市环保局,,28,28,26,16,13,75,,,,4,5,5,6,0.4,0.4
2025-05-06T0300,1866A,109.2262,21.588,北海市,牛尾岭水库,,,,20,,10,,,40,,,6,,7,,0.4
2025-05-06T0300,1867A,109.1436,21.4086,北海市,海滩公园,,24,24,31,12,6,56,,,,6,5,5,5,0.6,0.6
2025-05-06T0300,1868A,109.0981,21.4661,北海市,新市环保局,,20,20,25,9,10,59,,,,7,7,3,3,0.4,0.4
2025-05-06T0300,1869A,109.1778,21.5233,北海市,北海工业园,,37,37,29,22,16,27,,,,24,10,26,8,0.4,0.4
2025-05-06T0300,3400A,109.1911,21.4415,北海市,龙潭自来水厂,,29,24,23,20,15,25,,,,21,7,6,7,0.4,0.4
2025-05-06T0300,1001A,116.3621,39.8784,北京市,万寿西宫,,33,33,48,16,32,68,,,,9,12,6,6,0.6,0.7
2025-05-06T0300,1002A,116.2202,40.2915,北京市,定陵,,,,,,,,,,,,,,,,
2025-05-06T0300,1003A,116.4174,39.9289,北京市,东四,,27,27,50,11,31,70,,,,11,16,2,3,0.4,0.5
2025-05-06T0300,1004A,116.4072,39.8863,北京市,天坛,,24,24,42,13,30,62,,,,14,14,2,2,0.5,0.7
2025-05-06T0300,1005A,116.462,39.9365,北京市,农展馆,,22,22,43,11,29,58,,,,17,16,1,2,0.5,0.7
2025-05-06T0300,1006A,116.3392,39.9295,北京市,官园,,35,35,52,16,32,57,,,,17,17,3,4,0.4,0.5
2025-05-06T0300,1007A,116.2878,39.9611,北京市,海淀万柳,,40,40,49,16,28,28,,,,29,14,4,4,0.4,0.4
2025-05-06T0300,1008A,116.6636,40.135,北京市,顺义新城,,23,11,43,6,31,72,,,,4,9,6,6,0.3,0.4
2025-05-06T0300,1009A,116.6275,40.3275,北京市,怀柔镇,,19,16,45,3,30,58,,,,6,10,2,2,0.3,0.5
2025-05-06T0300,1010A,116.2296,40.217,北京市,昌平镇,,33,33,45,14,31,60,,,,4,10,2,2,0.2,0.3
2025-05-06T0300,1011A,116.3966,39.9821,北京市,奥体中心,,22,22,45,10,30,61,,,,22,21,2,3,0.3,0.4
2025-05-06T0300,3281A,115.9718,40.4529,北京市,延庆夏都,颗粒物(PM10),56,62,68,26,33,48,,,,9,11,3,3,0.4,0.4
2025-05-06T0300,3418A,116.8336,40.4095,北京市,密云新城,,22,8,41,3,25,68,,,,4,9,4,3,0.4,0.5
2025-05-06T0300,3671A,116.088,39.9726,北京市,门头沟三家店,,,,,,,,,,,,,,,,
2025-05-06T0300,3672A,116.1541,39.8204,北京市,丰台云岗,颗粒物(PM10),53,56,57,23,28,41,,,,23,17,3,3,0.3,0.4
2025-05-06T0300,3673A,116.6804,39.9081,北京市,通州东关,,25,13,48,8,37,78,,,,3,10,5,5,0.5,0.7
2025-05-06T0300,3674A,115.9577,39.7603,北京市,房山燕山,颗粒物(PM10),71,91,68,43,40,63,,,,7,15,1,1,0.2,0.3
2025-05-06T0300,3675A,116.4672,39.7733,北京市,大兴旧宫,,30,30,53,9,30,63,,,,15,17,3,3,0.3,0.4
2025-05-06T0300,3694A,115.986,40.4563,北京市,延庆石河营,颗粒物(PM10),55,60,69,24,32,45,,,,2,6,2,2,0.3,0.4
2025-05-06T0300,3695A,116.6151,40.3053,北京市,怀柔新城,,17,16,44,8,32,53,,,,4,7,3,2,0.4,0.6
2025-05-06T0300,3696A,116.2545,39.8768,北京市,丰台小屯,,42,42,55,19,31,47,,,,17,17,2,2,0.3,0.4
2025-05-06T0300,3697A,116.84,40.3844,北京市,密云镇,,22,8,37,3,26,68,,,,7,10,6,6,0.4,0.5
2025-05-06T0300,4182A,116.1942,39.9158,北京市,八角北路9号,颗粒物(PM10),54,57,58,22,31,36,,,,34,23,3,3,0.2,0.3
2025-05-06T0300,4194A,117.0790,40.1518,北京市,洳河巡河路,,27,7,39,6,31,86,,,,2,6,2,3,0.4,0.5
2025-05-06T0300,1761A,123.8275,41.3064,本溪市,大峪,,35,35,40,22,21,42,,,,16,19,6,7,0.6,0.6
2025-05-06T0300,1762A,123.7567,41.3325,本溪市,溪湖,,43,40,43,30,20,51,,,,15,22,2,4,0.7,0.8
2025-05-06T0300,1763A,123.7169,41.3094,本溪市,彩屯,,48,48,64,26,36,42,,,,21,30,8,15,0.7,1.5
2025-05-06T0300,1764A,123.7669,41.2864,本溪市,东明,,36,36,36,18,17,44,,,,23,20,7,8,0.7,0.7
2025-05-06T0300,1765A,123.7992,41.2664,本溪市,新立屯,,23,23,24,12,15,38,,,,38,19,4,5,0.4,0.5
2025-05-06T0300,1766A,123.8142,41.3472,本溪市,威宁,,32,32,43,21,21,38,,,,16,16,4,5,0.7,0.7
2025-05-06T0300,2587A,105.2864,27.3125,毕节市,八中,,29,27,30,20,18,46,,,,7,8,6,6,0.5,0.5
2025-05-06T0300,2588A,105.31,27.2944,毕节市,师专,,25,20,65,17,16,52,,,,9,8,3,4,0.5,0.6
2025-05-06T0300,4263A,105.3688,27.3598,毕节市,工业大道,,30,30,26,19,16,38,,,,14,10,9,7,0.7,0.6
2025-05-06T0300,1629A,118.0018,37.3617,滨州市,第二水厂,,48,48,74,29,31,67,,,,7,9,6,8,0.7,0.7
2025-05-06T0300,1630A,117.9776,37.393,滨州市,北中新校,颗粒物(PM10),51,51,66,31,35,66,,,,10,13,6,8,0.2,0.2
2025-05-06T0300,3514A,117.9378,37.3956,滨州市,中海酒店,细颗粒物(PM2.5),55,,44,39,36,64,,,,10,11,7,9,0.6,0.7
2025-05-06T0300,3515A,117.9378,37.3553,滨州市,开发区一中,颗粒物(PM10),51,51,81,31,31,64,,,,15,15,4,7,0.5,0.5
2025-05-06T0300,3516A,118.0917,37.694,滨州市,金海六路,,49,49,49,27,36,80,,,,10,14,6,8,0.1,0.1
2025-05-06T0300,4028A,117.9956,37.3753,滨州市,滨州市西街道办事处,,49,36,60,34,33,76,,,,8,10,4,6,0.2,0.3
2025-05-06T0300,2311A,115.8072,33.8399,亳州市,污水处理厂,颗粒物(PM10),233,373,89,80,27,80,,,,12,10,2,2,0.2,0.4
2025-05-06T0300,2312A,115.7789,33.8518,亳州市,三国揽胜宫,颗粒物(PM10),162,274,75,91,28,85,,,,8,7,5,5,0.3,0.5
2025-05-06T0300,3332A,115.7633,33.8034,亳州市,亳州学院,颗粒物(PM10),202,351,87,77,25,87,,,,11,11,4,3,0.5,0.6
2025-05-06T0300,2693A,82.0485,44.8556,博尔塔拉蒙古自治州,市党校,,35,35,31,15,11,70,,,,20,15,5,5,0.6,0.7
2025-05-06T0300,2694A,82.0806,44.8969,博尔塔拉蒙古自治州,市环保局,,44,44,41,11,11,61,,,,13,15,3,2,0.8,0.7
2025-05-06T0300,1071A,116.8842,38.2991,沧州市,沧县城建局,细颗粒物(PM2.5),60,64,73,43,45,70,,,,9,13,1,2,0.4,0.4
2025-05-06T0300,1072A,116.8584,38.3254,沧州市,电视转播站,颗粒物(PM10),55,60,76,31,40,68,,,,12,15,4,4,0.2,0.2
2025-05-06T0300,1073A,116.8709,38.3228,沧州市,市环保局,颗粒物(PM10),66,81,87,42,46,75,,,,11,13,6,5,0.3,0.3
2025-05-06T0300,3324A,116.8136,38.3004,沧州市,河北水利电力学院,细颗粒物(PM2.5),55,48,73,39,38,79,,,,9,12,3,3,0.2,0.2
2025-05-06T0300,2622A,97.1806,31.1273,昌都市,昌都监测站,,27,7,13,3,9,85,,,,1,3,3,3,0.2,0.2
2025-05-06T0300,3719A,97.1714,31.1406,昌都市,昌都会议中心,,29,,15,3,10,91,,,,2,3,3,3,0.2,0.2
2025-05-06T0300,2690A,88.1236,43.8886,昌吉回族自治州,天山天池,,18,6,24,3,10,56,,,,5,5,6,6,0.5,0.5
2025-05-06T0300,2692A,87.2717,44.0297,昌吉回族自治州,新区政务中心,,27,27,29,3,13,62,,,,15,23,8,7,0.3,0.5
2025-05-06T0300,3613A,87.3095,44.0142,昌吉回族自治州,亚心广场,,34,34,39,14,11,53,,,,27,26,7,9,0.4,0.4
2025-05-06T0300,1119A,125.3325,43.9166,长春市,食品厂,,30,26,35,21,22,67,,,,22,20,5,5,0.4,0.4
2025-05-06T0300,1120A,125.2863,43.9027,长春市,客车厂,,33,,33,23,23,62,,,,23,18,6,6,0.4,0.4
2025-05-06T0300,1121A,125.2841,43.8463,长春市,邮电学院,,39,,33,27,25,40,,,,42,20,6,7,0.6,0.6
2025-05-06T0300,1122A,125.3716,43.8772,长春市,劳动公园,,32,23,33,22,23,62,,,,23,15,7,8,0.4,0.4
2025-05-06T0300,1123A,125.3297,43.8805,长春市,园林处,,25,19,32,17,20,56,,,,29,19,7,7,0.4,0.4
2025-05-06T0300,1124A,125.4605,43.79,长春市,净月潭,,32,32,33,17,21,30,,,,8,12,6,7,0.4,0.4
2025-05-06T0300,1125A,125.7194,43.515,长春市,甩湾子,,,,,,,,,,,,,,,,
2025-05-06T0300,1126A,125.3863,43.8447,长春市,经开区环卫处,,29,28,41,20,18,38,,,,23,17,6,7,0.5,0.5
2025-05-06T0300,1127A,125.245,43.7783,长春市,高新区管委会,,25,21,32,17,26,50,,,,17,17,5,7,0.3,0.4
2025-05-06T0300,1128A,125.1761,43.8325,长春市,岱山公园,,33,,30,23,26,55,,,,22,16,5,5,0.4,0.4
2025-05-06T0300,1335A,113.0833,28.2325,长沙市,经开区环保局,细颗粒物(PM2.5),84,74,52,62,34,34,,,,56,19,6,5,0.8,0.6
2025-05-06T0300,1336A,112.8872,28.2189,长沙市,高开区环保局,细颗粒物(PM2.5),89,76,51,66,35,39,,,,43,12,5,5,0.8,0.6
2025-05-06T0300,1337A,113.0792,28.2053,长沙市,马坡岭,细颗粒物(PM2.5),79,84,46,58,31,4,,,,79,23,4,3,0.8,0.5
2025-05-06T0300,1338A,112.9394,28.19,长沙市,湖南师范大学,颗粒物(PM10),53,56,40,29,20,84,,,,13,9,3,3,0.5,0.5
2025-05-06T0300,1339A,113.0178,28.1322,长沙市,雨花区环保局,"颗粒物(PM10),细颗粒物(PM2.5)",59,68,45,42,29,55,,,,48,13,4,4,0.8,0.6
2025-05-06T0300,1340A,112.9792,28.2597,长沙市,伍家岭,细颗粒物(PM2.5),73,84,50,53,34,27,,,,57,19,3,3,0.7,0.6
2025-05-06T0300,1341A,113.0014,28.1944,长沙市,火车新站,颗粒物(PM10),63,75,46,44,28,59,,,,36,16,7,6,0.8,0.6
2025-05-06T0300,1342A,112.9844,28.1178,长沙市,天心区环保局,颗粒物(PM10),70,90,44,42,26,32,,,,56,22,3,3,1.0,0.9
2025-05-06T0300,1343A,112.8908,28.1308,长沙市,湖南中医药大学,"颗粒物(PM10),细颗粒物(PM2.5)",62,73,48,44,34,16,,,,42,20,2,2,0.6,0.6
2025-05-06T0300,1344A,112.9581,28.3611,长沙市,沙坪,,50,50,43,18,22,75,,,,8,8,5,5,0.6,0.6
2025-05-06T0300,1727A,113.1147,36.1547,长治市,清华站,颗粒物(PM10),148,246,278,53,73,86,,,,9,12,7,6,0.4,0.5
2025-05-06T0300,1730A,113.0886,36.2125,长治市,审计局,颗粒物(PM10),125,200,259,61,80,86,,,,13,14,8,7,0.3,0.3
2025-05-06T0300,1731A,113.0844,36.1856,长治市,长治八中,颗粒物(PM10),140,229,299,94,94,84,,,,13,14,9,7,0.3,0.4
2025-05-06T0300,2845A,113.1569,36.1911,长治市,德盛苑,颗粒物(PM10),150,250,307,90,83,77,,,,14,9,11,6,0.5,0.4
2025-05-06T0300,3568A,113.06,36.0464,长治市,向阳小学,颗粒物(PM10),129,207,271,61,70,86,,,,16,14,14,11,0.2,0.2
2025-05-06T0300,3569A,112.8792,36.3144,长治市,屯留一中,颗粒物(PM10),90,130,231,35,65,66,,,,29,10,7,8,0.2,0.2
2025-05-06T0300,4189A,113.1131,36.19948,长治市,英华南巷50号,颗粒物(PM10),145,240,311,58,77,86,,,,6,8,6,5,0.3,0.4
2025-05-06T0300,4190A,113.2367,36.3344,长治市,学府街1号,颗粒物(PM10),185,319,318,93,84,90,,,,8,17,5,5,0.5,0.5
2025-05-06T0300,1854A,111.6975,28.9703,常德市,市二中,,49,43,55,34,31,51,,,,16,13,7,7,0.7,0.8
2025-05-06T0300,1857A,111.7158,29.1456,常德市,白鹤山,,,,,,,,,,,,,,,,
2025-05-06T0300,3138A,111.7153,29.0289,常德市,武陵区永安,颗粒物(PM10),58,65,62,35,25,69,,,,14,10,10,7,0.6,0.6
2025-05-06T0300,3139A,111.6892,28.9881,常德市,鼎城区玉霞,颗粒物(PM10),54,58,57,25,26,30,,,,23,10,4,5,0.7,0.6
2025-05-06T0300,3140A,111.6625,29.0531,常德市,武陵区长庚,颗粒物(PM10),65,79,60,35,27,57,,,,11,11,9,9,0.9,0.8
2025-05-06T0300,1196A,119.9633,31.762,常州市,市监测站,,,116,79,,30,60,,,,30,24,10,9,0.9,0.9
2025-05-06T0300,1200A,119.9468,31.7069,常州市,武进监测站,颗粒物(PM10),73,96,63,47,24,67,,,,41,32,12,9,0.9,0.8
2025-05-06T0300,1201A,119.9255,31.9087,常州市,安家,颗粒物(PM10),69,87,74,43,27,22,,,,53,32,10,9,0.3,0.3
2025-05-06T0300,3002A,119.9805,31.8174,常州市,行政中心,细颗粒物(PM2.5),74,93,77,54,29,61,,,,34,28,16,16,0.6,0.6
2025-05-06T0300,3003A,120.0522,31.7748,常州市,经开区,细颗粒物(PM2.5),68,61,47,49,25,44,,,,43,30,11,9,1.0,0.6
2025-05-06T0300,3010A,119.9025,31.7964,常州市,钟楼,颗粒物(PM10),72,94,65,50,26,68,,,,24,23,7,7,0.7,0.7
2025-05-06T0300,3429A,119.8598,31.7066,常州市,武进经发区,颗粒物(PM10),62,74,54,39,28,69,,,,22,25,9,8,0.9,0.9
2025-05-06T0300,3430A,119.5826,31.7245,常州市,金坛城区,颗粒物(PM10),81,112,63,35,25,53,,,,23,22,8,7,0.9,0.6
2025-05-06T0300,2220A,120.4318,41.5881,朝阳市,西梁,细颗粒物(PM2.5),53,,29,37,29,72,,,,9,17,10,10,0.7,0.7
2025-05-06T0300,2221A,120.4521,41.5646,朝阳市,河畔小区,细颗粒物(PM2.5),57,,24,40,31,73,,,,8,11,6,6,0.6,0.5
2025-05-06T0300,2222A,120.4176,41.5648,朝阳市,八里堡,细颗粒物(PM2.5),52,39,24,36,25,71,,,,8,16,5,5,0.6,0.5
2025-05-06T0300,2223A,120.3806,41.5969,朝阳市,农业园区,细颗粒物(PM2.5),65,,24,47,36,64,,,,9,17,6,6,0.6,0.6
2025-05-06T0300,1705A,116.6367,23.6719,潮州市,西园路,,50,50,44,29,31,19,,,,12,11,4,4,0.7,0.6
2025-05-06T0300,3026A,116.6183,23.6608,潮州市,市政府,,39,34,49,27,26,31,,,,20,13,15,6,0.8,0.8
2025-05-06T0300,4036A,116.6461,23.6761,潮州市,金山,细颗粒物(PM2.5),53,38,50,37,31,16,,,,18,16,6,8,0.8,0.8
2025-05-06T0300,2472A,113.0073,25.9061,郴州市,马头岭,,39,39,24,13,9,30,,,,11,9,6,7,0.6,0.6
2025-05-06T0300,2473A,113.0116,25.8226,郴州市,市职中,,36,35,20,25,17,46,,,,8,8,3,3,0.7,0.7
2025-05-06T0300,2475A,113.0383,25.8071,郴州市,市审计局,,32,31,18,22,14,68,,,,7,7,3,2,0.7,0.6
2025-05-06T0300,2476A,113.0348,25.7759,郴州市,市环保局,,45,,19,31,16,63,,,,12,9,2,3,0.6,0.6
2025-05-06T0300,4252A,113.0138,25.8011,郴州市,好美居路49号,,36,33,20,25,14,64,,,,7,9,8,7,0.7,0.8
2025-05-06T0300,1431A,103.9728,30.7236,成都市,金泉两河,,37,37,32,3,11,42,,,,15,13,3,2,0.7,0.7
2025-05-06T0300,1432A,104.176,30.6872,成都市,十里店,,29,25,24,18,10,92,,,,12,15,4,4,0.4,0.4
2025-05-06T0300,1433A,104.079,30.5706,成都市,三瓦窑,,35,35,21,19,14,72,,,,25,22,5,4,0.5,0.5
2025-05-06T0300,1434A,104.1114,30.63,成都市,沙河铺,,40,40,29,17,11,65,,,,17,16,7,7,0.6,0.5
2025-05-06T0300,1437A,104.0786,30.6531,成都市,君平街,,32,32,32,22,14,57,,,,20,17,7,7,0.5,0.6
2025-05-06T0300,1438A,103.613,31.0283,成都市,灵岩寺,,,,,,,,,,,,,,,,
2025-05-06T0300,2880A,104.0239,30.65639,成都市,大石西路,,34,34,31,22,14,68,,,,21,21,4,4,0.3,0.3
2025-05-06T0300,3136A,104.2725,30.5589,成都市,龙泉驿区区政府,细颗粒物(PM2.5),52,51,22,36,9,62,,,,21,14,5,4,0.5,0.4
2025-05-06T0300,3357A,104.0106,30.6931,成都市,金博路,,27,27,21,10,9,59,,,,17,15,7,7,0.3,0.3
2025-05-06T0300,3359A,104.0578,30.5225,成都市,华阳,,49,34,25,34,21,62,,,,23,16,6,6,0.6,0.6
2025-05-06T0300,3488A,104.3853,30.7453,成都市,青白江技师分院,,47,47,25,23,11,78,,,,30,24,5,2,0.4,0.2
2025-05-06T0300,3489A,104.0789,30.4072,成都市,科学城,细颗粒物(PM2.5),63,63,27,45,17,42,,,,25,14,4,4,0.6,0.5
2025-05-06T0300,4011A,103.8506,30.6947,成都市,光华大道三段,,33,33,27,6,10,73,,,,17,13,2,1,0.5,0.5
2025-05-06T0300,4224A,104.2433,30.5353,成都市,鲸龙路1057号,"颗粒物(PM10),细颗粒物(PM2.5)",65,79,29,47,17,51,,,,24,28,6,5,0.6,0.5
2025-05-06T0300,1062A,117.9531,40.9081,承德市,铁路,,18,14,35,12,20,38,,,,12,15,2,2,0.3,0.5
2025-05-06T0300,1063A,117.9392,40.9763,承德市,中国银行,,18,13,29,12,15,27,,,,14,8,3,3,0.3,0.5
2025-05-06T0300,1064A,117.9503,40.928,承德市,开发区,,26,,28,18,23,42,,,,12,11,4,5,0.3,0.5
2025-05-06T0300,1065A,117.8051,40.9655,承德市,文化中心,,29,29,40,7,17,32,,,,11,11,3,4,0.3,0.4
2025-05-06T0300,1066A,117.9268,41.0026,承德市,离宫,,36,,33,25,34,32,,,,8,7,3,3,0.2,0.3
2025-05-06T0300,2314A,117.47,30.6618,池州市,池州学院,,33,29,30,23,22,74,,,,10,14,5,6,0.7,0.7
2025-05-06T0300,3237A,117.4918,30.6617,池州市,展览馆,,28,27,32,19,21,81,,,,6,13,4,6,0.8,0.8
2025-05-06T0300,3333A,117.5627,30.695,池州市,第八中学,,30,28,33,21,22,67,,,,6,13,5,5,0.8,0.7
2025-05-06T0300,3334A,117.5038,30.6243,池州市,第十二中学,,29,24,28,20,22,59,,,,10,13,3,4,1.3,0.9
2025-05-06T0300,1744A,118.9233,42.2816,赤峰市,松山一中,,33,26,20,23,11,61,,,,14,20,11,11,0.5,0.7
2025-05-06T0300,1745A,118.9576,42.2728,赤峰市,哈达街,,26,21,18,18,15,65,,,,12,19,12,11,0.4,0.5
2025-05-06T0300,1746A,118.8788,42.2554,赤峰市,天义路,,35,30,21,24,17,60,,,,9,15,7,7,0.3,0.4
2025-05-06T0300,3058A,119.2658,42.0353,赤峰市,银河街,,22,22,36,13,21,68,,,,10,12,17,15,0.5,0.6
2025-05-06T0300,3286A,118.9359,42.3147,赤峰市,桥北物流园区,,40,,22,28,16,50,,,,7,10,6,7,0.5,0.5
2025-05-06T0300,2521A,107.3476,22.4136,崇左市,市环保局江州分局,,32,21,50,8,31,101,,,,3,7,7,7,0.4,0.5
2025-05-06T0300,4256A,107.3750,22.3736,崇左市,石景林东路7号,,,31,43,,29,98,,,,6,9,3,5,0.4,0.5
2025-05-06T0300,2298A,118.3093,32.3153,滁州市,老年大学,细颗粒物(PM2.5),67,54,36,48,35,86,,,,13,13,2,2,0.5,0.4
2025-05-06T0300,2299A,118.3244,32.2786,滁州市,人大宾馆,细颗粒物(PM2.5),90,70,35,67,35,69,,,,20,16,8,8,0.5,0.4
2025-05-06T0300,3207A,118.3118,32.3038,滁州市,市政府原办公楼,细颗粒物(PM2.5),78,,33,57,35,79,,,,14,14,4,4,0.5,0.4
2025-05-06T0300,3331A,118.3267,32.2634,滁州市,图书馆,细颗粒物(PM2.5),64,68,42,46,31,69,,,,18,13,7,7,0.6,0.5
2025-05-06T0300,2605A,101.5482,25.0441,楚雄彝族自治州,州环境监测站,,42,36,20,29,14,33,,,,36,14,10,7,0.6,0.5
2025-05-06T0300,2606A,101.538,25.0492,楚雄彝族自治州,市经济开发区,,37,37,27,24,16,35,,,,31,15,11,8,0.7,0.6
2025-05-06T0300,2548A,107.5277,31.2827,达州市,达州职业技术学院,,45,45,64,22,21,10,,,,39,26,5,6,0.6,0.6
2025-05-06T0300,2549A,107.5086,31.2186,达州市,市环境监测站,,44,44,60,22,18,23,,,,38,32,5,5,0.3,0.4
2025-05-06T0300,2550A,107.4988,31.2132,达州市,凤凰小区,,44,44,58,24,19,27,,,,38,27,6,7,0.4,0.4
2025-05-06T0300,2551A,107.5082,31.1986,达州市,达县机关宾馆,颗粒物(PM10),54,58,66,18,19,12,,,,41,37,5,5,0.4,0.4
2025-05-06T0300,2552A,107.4644,31.2124,达州市,市政中心,颗粒物(PM10),53,55,63,22,16,19,,,,41,28,2,3,0.4,0.4
2025-05-06T0300,2614A,100.1542,25.7054,大理白族自治州,大理市环境监测站,,27,22,16,18,20,84,,,,7,6,7,7,0.3,0.3
2025-05-06T0300,2615A,100.2171,25.5811,大理白族自治州,大理古城,,25,23,21,12,13,80,,,,6,8,8,8,0.4,0.4
2025-05-06T0300,1109A,121.612,38.9741,大连市,甘井子,,34,34,42,12,17,82,,,,17,22,4,5,0.2,0.3
2025-05-06T0300,1110A,121.565,38.9511,大连市,周水子,,27,27,37,14,17,79,,,,14,17,5,6,0.2,0.3
2025-05-06T0300,1111A,121.5637,38.8845,大连市,星海三站,,30,30,33,14,16,80,,,,12,13,3,4,0.2,0.3
2025-05-06T0300,1112A,121.6302,38.9117,大连市,青泥洼桥,,31,31,29,16,16,84,,,,10,12,6,7,0.3,0.2
2025-05-06T0300,1113A,121.6251,38.8638,大连市,傅家庄,,29,29,33,10,13,85,,,,14,14,5,5,0.2,0.2
2025-05-06T0300,1114A,121.5213,38.8661,大连市,七贤岭,,30,30,35,14,17,74,,,,18,18,6,6,0.4,0.5
2025-05-06T0300,1115A,121.2529,38.8061,大连市,旅顺,,28,28,34,12,16,59,,,,15,21,2,4,0.3,0.3
2025-05-06T0300,1116A,121.7485,39.1311,大连市,金州,,30,23,28,14,16,96,,,,12,15,6,7,0.2,0.2
2025-05-06T0300,1117A,121.7811,39.0496,大连市,开发区,,40,40,43,16,16,80,,,,19,21,4,5,0.5,0.5
2025-05-06T0300,1118A,121.9762,39.0631,大连市,双D港,,29,22,28,9,16,92,,,,4,11,6,7,0.3,0.3
2025-05-06T0300,1789A,124.81117,46.03138,大庆市,大同区,,33,27,32,23,21,68,,,,5,8,4,11,0.3,0.4
2025-05-06T0300,1790A,125.129,46.533,大庆市,龙凤区,,27,27,20,17,14,67,,,,15,14,4,4,0.4,0.4
2025-05-06T0300,1791A,124.902,46.408,大庆市,红岗区,,23,21,23,14,14,73,,,,10,11,6,6,0.3,0.2
2025-05-06T0300,1792A,125.153,46.586,大庆市,萨尔图区,,31,31,34,19,15,62,,,,15,15,7,6,0.6,0.5
2025-05-06T0300,1793A,124.9042,46.6215,大庆市,让胡路区,,26,26,22,16,15,70,,,,10,11,6,6,0.3,0.4
2025-05-06T0300,3481A,125.141,46.634,大庆市,萨区政府监测点,,27,24,24,7,5,86,,,,7,9,7,5,0.3,0.4
2025-05-06T0300,1721A,113.3819,40.1097,大同市,果树场,,23,19,90,16,26,59,,,,10,17,9,6,0.3,0.5
2025-05-06T0300,1723A,113.2994,40.0758,大同市,云冈宾馆,,26,16,89,15,31,82,,,,7,17,8,9,0.1,0.5
2025-05-06T0300,1724A,113.3444,40.0917,大同市,大同大学,,22,22,87,11,29,68,,,,10,17,7,8,0.4,0.5
2025-05-06T0300,1725A,113.2661,40.1269,大同市,安家小村,,25,19,98,3,30,77,,,,8,15,19,20,0.1,0.2
2025-05-06T0300,1726A,113.2711,40.0844,大同市,教育学院,,26,25,98,7,34,81,,,,8,17,9,10,0.2,0.3
2025-05-06T0300,3282A,113.3397,40.0597,大同市,大同市卫生学校,,23,22,97,11,32,72,,,,6,14,7,7,0.6,0.7
2025-05-06T0300,3565A,113.1367,40.1122,大同市,云冈站,,47,47,103,17,38,46,,,,17,12,10,10,0.2,0.2
2025-05-06T0300,3566A,113.1186,40.2556,大同市,图书馆,颗粒物(PM10),54,57,119,21,38,41,,,,27,11,12,9,0.6,0.3
2025-05-06T0300,3567A,113.5931,40.0461,大同市,区一中,,27,27,97,11,27,71,,,,8,14,16,14,0.4,0.5
2025-05-06T0300,4199A,113.2798,40.0997,大同市,魏都大道141号,,27,23,104,9,29,85,,,,7,15,13,14,0.5,0.6
2025-05-06T0300,2269A,124.1069,50.4097,大兴安岭地区,科技局,,22,21,18,15,14,65,,,,2,3,5,4,0.3,0.3
2025-05-06T0300,3663A,124.1164,50.4278,大兴安岭地区,红旗社区,,17,7,6,7,6,53,,,,5,3,7,4,0.3,0.3
2025-05-06T0300,1600A,124.3303,40.0625,丹东市,江湾东路,,44,44,54,27,25,52,,,,10,14,11,9,0.7,0.7
2025-05-06T0300,1601A,124.4256,40.1503,丹东市,临江后街,,44,44,52,20,24,42,,,,8,14,5,8,0.6,0.8
2025-05-06T0300,1602A,124.3933,40.1461,丹东市,元宝山,,40,40,40,23,20,18,,,,31,14,8,9,0.6,0.6
2025-05-06T0300,1603A,124.3633,40.1092,丹东市,民主桥,,42,42,48,22,21,45,,,,20,16,7,9,0.8,0.8
2025-05-06T0300,3541A,109.5726,19.5167,儋州市,第一中学子站,,17,17,19,8,11,27,,,,4,4,6,6,0.5,0.5
2025-05-06T0300,3542A,109.5567,19.5187,儋州市,东坡学校子站,,26,26,22,9,12,28,,,,3,4,6,4,0.6,0.6
2025-05-06T0300,2616A,98.5842,24.428,德宏傣族景颇族自治州,德宏州监测站,,42,41,37,29,22,39,,,,12,13,7,8,0.8,0.7
2025-05-06T0300,3677A,98.5881,24.4368,德宏傣族景颇族自治州,芒市人民政府综合楼,颗粒物(PM10),53,55,44,26,21,46,,,,13,12,5,5,0.5,0.5
2025-05-06T0300,1901A,104.4239,31.1208,德阳市,东山公园,,36,36,25,22,15,70,,,,18,12,5,4,0.8,0.7
2025-05-06T0300,1902A,104.3826,31.1317,德阳市,西小区,细颗粒物(PM2.5),69,69,36,50,19,35,,,,50,26,8,5,0.9,0.7
2025-05-06T0300,1904A,104.3553,31.1091,德阳市,耐火材料厂,细颗粒物(PM2.5),72,72,39,52,20,27,,,,44,21,12,6,0.6,0.5
2025-05-06T0300,3639A,104.4019,31.1244,德阳市,市教育局,,43,43,31,26,16,60,,,,32,21,7,5,0.7,0.5
2025-05-06T0300,1622A,116.3032,37.4674,德州市,儿童乐园,颗粒物(PM10),58,66,111,24,44,59,,,,10,11,5,7,0.3,0.4
2025-05-06T0300,1624A,116.2991,37.4451,德州市,监理站,,46,46,104,24,47,64,,,,8,8,6,8,0.3,0.4
2025-05-06T0300,3066A,116.2721,37.4379,德州市,九衢泉纯净水厂,,48,48,99,22,39,55,,,,18,12,6,6,0.7,0.7
2025-05-06T0300,3371A,116.3728,37.4403,德州市,开发区人民医院,,46,46,109,19,39,68,,,,9,11,5,6,0.5,0.6
2025-05-06T0300,3372A,116.3572,37.4094,德州市,太阳城中学,颗粒物(PM10),51,51,109,27,44,83,,,,9,11,4,4,0.3,0.4
2025-05-06T0300,3511A,116.5652,37.3319,德州市,陵城艺术中心,颗粒物(PM10),53,56,124,19,47,84,,,,11,12,4,4,0.5,0.6
2025-05-06T0300,2621A,99.7056,27.8317,迪庆藏族自治州,迪庆州站,,28,16,19,10,12,89,,,,6,8,5,5,0.3,0.3
2025-05-06T0300,3180A,99.7136,27.8094,迪庆藏族自治州,质量技术监督局,,29,10,16,7,9,92,,,,5,8,4,4,0.6,0.6
2025-05-06T0300,4257A,104.6092,35.5962,定西市,将台街,颗粒物(PM10),250,385,208,108,61,36,,,,32,13,4,4,0.3,0.3
2025-05-06T0300,4309A,104.6159,35.5701,定西市,正龙路62号,颗粒物(PM10),243,380,196,113,54,58,,,,9,7,9,9,0.2,0.3
2025-05-06T0300,1389A,113.7547,23.0494,东莞市,莞城梨川,,30,30,24,14,14,24,,,,14,10,6,6,0.5,0.5
2025-05-06T0300,1390A,113.7944,23.0128,东莞市,东城石井,,22,22,22,11,12,0,,,,20,15,3,3,0.5,0.5
2025-05-06T0300,1391A,113.7383,22.9658,东莞市,南城西平,,30,30,21,3,10,19,,,,20,13,1,2,0.4,0.4
2025-05-06T0300,3319A,113.7338,23.0381,东莞市,万江金泰,,,,23,,13,,,45,,,8,,5,,0.6
2025-05-06T0300,3626A,113.7533,23.0202,东莞市,南城元岭,,20,20,20,10,11,18,,,,20,14,2,2,0.6,0.6
2025-05-06T0300,3627A,113.7875,23.0457,东莞市,东城主山,,21,21,20,12,11,20,,,,21,16,4,4,0.4,0.4
2025-05-06T0300,1666A,118.6614,37.4309,东营市,市环保局,,36,36,51,19,23,86,,,,12,19,4,8,0.4,0.4
2025-05-06T0300,3036A,118.6904,37.4338,东营市,开发区管委会,,39,34,59,27,23,84,,,,12,19,6,9,0.4,0.4
2025-05-06T0300,3365A,118.5719,37.565,东营市,垦利区民丰路,颗粒物(PM10),53,56,52,36,23,75,,,,18,22,5,6,0.6,0.7
2025-05-06T0300,3498A,118.5055,37.8612,东营市,河口城区,,,,52,,21,,,131,,,20,,7,,0.8
2025-05-06T0300,3646A,118.4978,37.4623,东营市,胜利站,,44,44,61,29,24,75,,,,12,21,8,9,0.8,0.8
2025-05-06T0300,3734A,118.35,37.26,东营市,理想之城,颗粒物(PM10),51,51,55,31,25,78,,,,11,15,4,6,0.5,0.6
2025-05-06T0300,1591A,110.0023,39.8129,鄂尔多斯市,综合楼,颗粒物(PM10),62,73,206,17,48,35,,,,37,16,5,4,0.5,0.3
2025-05-06T0300,1592A,109.9486,39.8261,鄂尔多斯市,巴音孟克林场办事处,颗粒物(PM10),58,66,189,19,51,36,,,,34,20,6,7,0.4,0.4
2025-05-06T0300,1593A,109.7736,39.5986,鄂尔多斯市,康泽苑,颗粒物(PM10),59,68,256,19,60,51,,,,8,8,8,8,0.2,0.2
2025-05-06T0300,1594A,109.8119,39.5989,鄂尔多斯市,华泰汽车城,颗粒物(PM10),63,75,253,17,64,32,,,,11,13,6,6,0.3,0.3
2025-05-06T0300,1595A,109.9734,39.7884,鄂尔多斯市,奥林花园,颗粒物(PM10),64,78,185,19,39,3,,,,63,19,4,3,0.4,0.5
2025-05-06T0300,2436A,114.8938,30.3994,鄂州市,市政府,,50,50,69,26,24,96,,,,16,14,12,8,1.1,1.1
2025-05-06T0300,2437A,114.8989,30.3714,鄂州市,赵家坝,,49,49,46,20,19,102,,,,12,10,5,5,0.6,0.7
2025-05-06T0300,3654A,114.8094,30.4089,鄂州市,精准医疗中心,,46,46,43,24,20,87,,,,9,11,4,4,0.5,0.6
2025-05-06T0300,2454A,109.4978,30.2981,恩施土家族苗族自治州,湖北民院,,37,37,33,17,17,28,,,,9,9,6,6,0.6,0.6
2025-05-06T0300,2455A,109.4707,30.2798,恩施土家族苗族自治州,州电力总公司,,30,30,32,19,22,10,,,,16,12,6,6,0.5,0.5
2025-05-06T0300,3549A,109.5061,30.3772,恩施土家族苗族自治州,龙凤新区,,23,23,25,16,15,48,,,,5,6,6,6,0.6,0.6
2025-05-06T0300,2499A,108.3411,21.6158,防城港市,沙万,,21,21,25,14,13,34,,,,8,5,3,2,0.5,0.5
2025-05-06T0300,2500A,108.3514,21.7731,防城港市,防城档案局,,22,22,26,13,15,48,,,,3,3,2,2,0.4,0.4
2025-05-06T0300,2501A,108.3506,21.6414,防城港市,大海花园,,25,25,24,11,10,53,,,,1,3,2,2,0.3,0.3
2025-05-06T0300,1371A,113.1294,23.0067,佛山市,湾梁,,13,12,20,6,13,23,,,,26,18,7,7,0.6,0.6
2025-05-06T0300,1372A,113.1083,23.0478,佛山市,华材职中,,16,14,18,11,13,21,,,,24,17,8,8,0.4,0.4
2025-05-06T0300,1373A,113.144,23.0453,佛山市,南海气象局,,16,14,25,11,14,19,,,,23,18,1,1,0.5,0.5
2025-05-06T0300,1374A,113.2881,22.8094,佛山市,顺德苏岗,,12,8,24,7,10,23,,,,24,14,5,6,0.5,0.5
2025-05-06T0300,1376A,112.8383,22.8678,佛山市,高明孔堂,,22,22,23,8,13,12,,,,22,11,5,5,0.5,0.5
2025-05-06T0300,1377A,112.8836,23.1588,佛山市,三水监测站,,26,12,21,10,15,1,,,,52,30,5,3,0.4,0.4
2025-05-06T0300,1378A,112.867,23.185,佛山市,三水云东海,,28,28,39,7,14,4,,,,32,27,3,2,0.5,0.5
2025-05-06T0300,3625A,113.2544,22.7642,佛山市,容桂街道办,,20,,17,14,13,24,,,,30,17,5,5,0.6,0.7
2025-05-06T0300,1280A,119.3903,26.0543,福州市,鼓山,,,,33,,23,,,87,,,4,,2,,0.3
2025-05-06T0300,1282A,119.2681,26.0504,福州市,师大,,48,48,49,33,28,17,,,,33,20,4,4,0.5,0.5
2025-05-06T0300,1283A,119.2984,26.1028,福州市,五四北路,细颗粒物(PM2.5),57,55,48,40,28,29,,,,30,20,4,4,0.6,0.5
2025-05-06T0300,1284A,119.2648,26.0768,福州市,杨桥西路,颗粒物(PM10),56,61,57,36,28,20,,,,32,24,3,4,0.4,0.4
2025-05-06T0300,1285A,119.317,26.0746,福州市,紫阳,细颗粒物(PM2.5),63,60,54,45,29,24,,,,33,26,5,6,0.6,0.5
2025-05-06T0300,3048A,119.5799,26.0936,福州市,九龙,,33,33,43,22,27,55,,,,12,13,4,4,0.3,0.4
2025-05-06T0300,3526A,119.5189,25.9664,福州市,吴航,,39,39,44,26,26,37,,,,22,15,4,4,0.8,0.8
2025-05-06T0300,1755A,123.7977,41.8491,抚顺市,望花区,,49,42,48,34,33,37,,,,18,28,8,10,0.5,0.7
2025-05-06T0300,1756A,123.9161,41.8822,抚顺市,顺城区,,36,32,38,25,21,26,,,,28,28,6,7,0.5,0.5
2025-05-06T0300,1757A,124.0436,41.8611,抚顺市,东洲区,,18,18,24,11,15,57,,,,8,13,5,6,0.4,0.4
2025-05-06T0300,1758A,123.9247,41.8642,抚顺市,新抚区,,25,25,34,15,18,13,,,,26,23,6,7,0.5,0.5
2025-05-06T0300,1759A,124.0972,41.8961,抚顺市,大伙房水库,,45,,21,31,20,37,,,,10,9,7,8,0.6,0.6
2025-05-06T0300,1760A,123.7086,41.8391,抚顺市,沈抚新城,,50,50,46,33,25,25,,,,34,29,10,12,1.3,0.9
2025-05-06T0300,2376A,116.2127,28.0814,抚州市,桐源党溪,,38,38,31,21,16,10,,,,2,3,2,3,0.5,0.5
2025-05-06T0300,2377A,116.3544,27.9831,抚州市,市站,,38,38,29,22,16,51,,,,10,6,2,2,0.7,0.8
2025-05-06T0300,2378A,116.3565,27.963,抚州市,血防站,,39,39,30,19,16,42,,,,17,6,1,2,0.4,0.3
2025-05-06T0300,2379A,116.3564,28.0007,抚州市,采茶剧团,,35,35,28,22,15,50,,,,7,3,2,4,1.1,1
2025-05-06T0300,2380A,116.385,27.9647,抚州市,医学分院,,26,19,25,18,15,49,,,,9,3,5,5,1.1,1.1
2025-05-06T0300,2207A,121.6094,41.998,阜新市,工业园区,细颗粒物(PM2.5),59,,25,42,24,68,,,,10,19,36,18,0.6,0.6
2025-05-06T0300,2208A,121.6697,42.0279,阜新市,长青街,,46,34,22,32,19,60,,,,11,17,26,13,0.6,0.6
2025-05-06T0300,2209A,121.6673,42.0705,阜新市,农业园区,,42,,28,29,21,61,,,,9,13,10,27,0.6,0.6
2025-05-06T0300,2210A,121.6717,42.0224,阜新市,东苑,细颗粒物(PM2.5),57,,27,40,26,68,,,,12,15,62,20,0.6,0.6
2025-05-06T0300,2211A,121.6506,42.0498,阜新市,玉龙新城,,48,36,34,33,21,57,,,,12,20,32,19,0.7,0.6
2025-05-06T0300,2301A,115.8277,32.8929,阜阳市,市监测站,,,48,46,25,28,87,,,,,12,8,9,,0.4
2025-05-06T0300,2303A,115.8554,32.8605,阜阳市,开发区,颗粒物(PM10),54,57,59,19,25,98,,,,11,15,7,7,0.1,0.3
2025-05-06T0300,2875A,115.784,32.8892,阜阳市,阜阳职业技术学院,颗粒物(PM10),52,54,48,12,25,96,,,,10,11,4,5,0.2,0.4
2025-05-06T0300,3468A,115.7901,32.8613,阜阳市,市规划展馆,,38,38,51,16,25,96,,,,7,9,7,8,0.2,0.3
2025-05-06T0300,3469A,115.836,32.9183,阜阳市,枣园社区,颗粒物(PM10),51,51,50,17,25,94,,,,6,9,4,5,0.5,0.6
2025-05-06T0300,2669A,102.9099,34.9841,甘南藏族自治州,州政府,颗粒物(PM10),65,79,54,35,25,22,,,,33,12,6,6,0.4,0.3
2025-05-06T0300,3380A,102.8914,34.9617,甘南藏族自治州,甘肃民族师范学院,颗粒物(PM10),71,91,57,18,19,14,,,,39,18,7,7,0.4,0.4
2025-05-06T0300,2570A,101.9603,30.0475,甘孜藏族自治州,水桥子,,26,,7,7,6,81,,,,6,17,5,4,0.2,0.3
2025-05-06T0300,3065A,101.9533,29.9972,甘孜藏族自治州,州环保局,,15,10,10,6,5,46,,,,26,17,1,1,0.0,0.1
2025-05-06T0300,3414A,115.8347,28.932,赣江新区,桑海产业园,,32,31,21,22,13,54,,,,18,8,4,4,0.3,0.4
2025-05-06T0300,2362A,114.9017,25.9149,赣州市,通天岩,,21,21,20,3,4,15,,,,4,6,2,2,1.1,1.1
2025-05-06T0300,2363A,114.9367,25.8664,赣州市,地委,,38,38,25,13,10,18,,,,14,13,1,4,1.2,1.2
2025-05-06T0300,2364A,114.9461,25.8481,赣州市,气象台,,36,36,22,10,8,15,,,,19,19,8,7,0.5,0.5
2025-05-06T0300,2365A,114.9322,25.8333,赣州市,市图书馆,,28,28,16,17,10,13,,,,20,14,4,4,0.5,0.5
2025-05-06T0300,2366A,114.8905,25.8471,赣州市,华坚鞋城,,32,32,19,13,10,15,,,,20,15,6,6,0.6,0.6
2025-05-06T0300,3109A,115.0093,25.8613,赣州市,赣县区卫计委,,28,28,16,12,9,14,,,,22,15,3,3,1.0,1.1
2025-05-06T0300,2683A,106.2319,36.1417,固原市,马园,颗粒物(PM10),199,348,431,143,149,15,,,,49,11,5,5,0.5,0.5
2025-05-06T0300,2684A,106.2792,36.0022,固原市,监测站,颗粒物(PM10),177,304,367,130,138,50,,,,17,9,5,5,0.4,0.3
2025-05-06T0300,2685A,106.2375,36.0211,固原市,新区,颗粒物(PM10),163,276,347,106,92,8,,,,51,12,5,5,0.6,0.4
2025-05-06T0300,3522A,106.2177,35.9959,固原市,原州区十五小,颗粒物(PM10),166,281,363,104,101,82,,,,10,6,8,8,0.2,0.1
2025-05-06T0300,2543A,106.6308,30.5278,广安市,小平旧居,,,,,,,,,,,,,,,,
2025-05-06T0300,2544A,106.6303,30.4576,广安市,市委,颗粒物(PM10),58,66,60,29,21,42,,,,20,14,5,5,0.5,0.4
2025-05-06T0300,2545A,106.6271,30.4663,广安市,友谊中学,颗粒物(PM10),52,54,44,25,18,34,,,,22,19,2,3,0.8,0.7
2025-05-06T0300,2547A,106.6388,30.4551,广安市,广电花园,细颗粒物(PM2.5),59,63,47,42,16,41,,,,20,15,10,6,0.5,0.5
2025-05-06T0300,2902A,106.6351,30.4865,广安市,北辰小学,颗粒物(PM10),52,54,49,24,19,31,,,,18,15,5,6,0.5,0.4
2025-05-06T0300,2523A,105.8945,32.4535,广元市,黑石坡,,36,36,29,6,9,44,,,,22,9,7,4,0.4,0.3
2025-05-06T0300,2524A,105.821,32.4444,广元市,老城,,37,37,28,7,10,25,,,,38,18,1,1,0.6,0.4
2025-05-06T0300,2526A,105.8628,32.4287,广元市,监测站,,34,34,24,12,11,43,,,,16,10,6,4,0.5,0.4
2025-05-06T0300,3617A,105.8047,32.4166,广元市,经开区,颗粒物(PM10),52,54,35,32,16,11,,,,47,22,10,6,0.8,0.5
2025-05-06T0300,1345A,113.2347,23.1423,广州市,广雅中学,,16,16,27,6,10,29,,,,25,17,3,3,0.3,0.4
2025-05-06T0300,1346A,113.2612,23.105,广州市,市五中,,14,14,25,8,15,38,,,,14,12,1,1,0.8,0.8
2025-05-06T0300,1348A,113.3478,23.0916,广州市,广东商学院,,24,15,25,9,18,11,,,,48,21,4,4,0.5,0.6
2025-05-06T0300,1349A,113.4332,23.1047,广州市,市八十六中,,23,19,24,9,12,13,,,,45,32,2,2,0.6,0.6
2025-05-06T0300,1350A,113.3505,22.9483,广州市,番禺中学,,13,13,23,7,14,38,,,,20,17,5,5,0.6,0.6
2025-05-06T0300,1351A,113.2146,23.3916,广州市,花都师范,,27,27,30,16,18,0,,,,42,24,4,4,0.8,0.7
2025-05-06T0300,1352A,113.2597,23.1331,广州市,市监测站,,13,12,25,9,15,36,,,,20,18,4,4,0.1,0.2
2025-05-06T0300,1353A,113.5618,23.312,广州市,九龙镇镇龙,,23,23,32,13,19,4,,,,20,23,4,5,0.4,0.4
2025-05-06T0300,1354A,113.2765,23.1544,广州市,麓湖,,17,17,25,9,15,8,,,,34,16,4,4,0.5,0.5
2025-05-06T0300,1355A,113.443,23.3035,广州市,帽峰山森林公园,,9,,11,6,7,20,,,,15,16,6,6,0.6,0.6
2025-05-06T0300,2846A,113.3221,23.1322,广州市,体育西,,19,19,28,13,19,31,,,,30,21,4,4,0.4,0.4
2025-05-06T0300,3298A,113.5717,23.5491,广州市,从化街口,,29,28,28,20,17,36,,,,19,15,6,6,0.4,0.5
2025-05-06T0300,3299A,113.3472,23.3692,广州市,白云竹料,,33,33,31,20,18,8,,,,28,19,2,3,0.6,0.6
2025-05-06T0300,3300A,113.2981,23.237,广州市,白云嘉禾,,23,19,28,9,16,11,,,,46,29,5,5,0.7,0.7
2025-05-06T0300,3301A,113.4256,23.1716,广州市,黄埔科学城,,16,16,28,7,14,21,,,,17,19,2,2,0.5,0.5
2025-05-06T0300,3302A,113.3942,23.0483,广州市,番禺大学城,,20,20,24,8,13,27,,,,28,18,5,6,0.6,0.6
2025-05-06T0300,3303A,113.4922,22.8168,广州市,南沙黄阁,,24,24,22,10,11,17,,,,21,10,5,5,0.7,0.7
2025-05-06T0300,3304A,113.5342,22.7896,广州市,南沙街,,23,23,22,15,11,5,,,,21,11,7,6,0.7,0.6
2025-05-06T0300,3443A,113.2902,23.5544,广州市,花都梯面,,26,26,30,15,15,8,,,,26,17,4,4,0.6,0.6
2025-05-06T0300,3445A,113.7858,23.7478,广州市,从化良口,,13,13,22,6,12,31,,,,14,9,6,6,0.7,0.7
2025-05-06T0300,3446A,113.8051,23.2614,广州市,增城荔城,,27,27,31,15,17,14,,,,12,13,7,7,0.2,0.2
2025-05-06T0300,2505A,109.568,23.1478,贵港市,德智高中,,,,,,,,,,,,,,,,
2025-05-06T0300,2506A,109.6047,23.0666,贵港市,江南子站,,23,,30,16,19,64,,,,13,11,3,4,0.8,0.6
2025-05-06T0300,2508A,109.5669,23.1065,贵港市,荷城子站,,24,24,32,7,13,65,,,,12,12,4,5,0.3,0.2
2025-05-06T0300,3405A,109.5886,23.1172,贵港市,新世纪学校,,20,14,29,9,18,64,,,,11,10,6,8,1.0,1
2025-05-06T0300,4260A,109.5933,23.0951,贵港市,中山路155-3号,颗粒物(PM10),58,65,38,13,21,78,,,,10,11,3,3,0.5,0.5
2025-05-06T0300,1439A,106.6899,26.5998,贵阳市,马鞍山,,29,29,33,14,13,23,,,,6,8,3,3,0.7,0.8
2025-05-06T0300,1441A,106.6243,26.6266,贵阳市,鉴湖路,,36,36,39,22,22,51,,,,11,11,6,6,0.5,0.5
2025-05-06T0300,1442A,106.7487,26.6343,贵阳市,燕子冲,,42,39,36,29,30,34,,,,9,10,1,2,0.3,0.4
2025-05-06T0300,1443A,106.6555,26.4365,贵阳市,碧云窝,,46,46,41,22,23,47,,,,12,12,4,4,0.5,0.4
2025-05-06T0300,1445A,106.7109,26.6027,贵阳市,红边门,,41,41,36,27,28,57,,,,2,5,2,3,0.3,0.3
2025-05-06T0300,1446A,106.7164,26.5699,贵阳市,新华路,,39,36,32,27,27,42,,,,12,8,9,12,0.5,0.5
2025-05-06T0300,1447A,106.674,26.5424,贵阳市,太慈桥,,35,29,28,24,20,14,,,,15,12,4,4,0.2,0.3
2025-05-06T0300,1552A,106.805,26.3003,贵阳市,桐木岭,,42,41,38,29,26,58,,,,2,2,1,1,0.8,0.8
2025-05-06T0300,4230A,106.6882,26.5695,贵阳市,花果园大街66号,,41,41,33,28,29,38,,,,15,9,4,4,0.4,0.4
2025-05-06T0300,4231A,106.6873,26.5169,贵阳市,漓江路57号,,34,34,34,22,22,41,,,,14,9,8,8,0.4,0.4
2025-05-06T0300,1862A,110.4144,25.3167,桂林市,电子科大尧山校区,,,,,,,,,,,,,,,,
2025-05-06T0300,1864A,110.3089,25.2708,桂林市,龙隐路小学,,30,30,30,10,16,96,,,,4,8,12,15,0.7,0.7
2025-05-06T0300,1865A,110.2869,25.2178,桂林市,八中,,32,32,30,14,18,91,,,,8,14,2,4,0.8,0.8
2025-05-06T0300,3531A,110.296,25.1253,桂林市,旅游学院,,27,19,19,17,16,86,,,,7,10,2,4,0.7,0.7
2025-05-06T0300,4222A,110.1835,25.2444,桂林市,环湖路276号,,32,31,31,22,20,76,,,,8,12,11,16,0.5,0.4
2025-05-06T0300,4301A,110.2803,25.2773,桂林市,信义路13号,,32,29,33,21,16,101,,,,6,13,3,7,0.6,0.6
2025-05-06T0300,2674A,100.2561,34.4714,果洛藏族自治州,玛沁县大武镇,,35,35,37,16,16,61,,,,2,3,20,21,0.4,0.4
2025-05-06T0300,1129A,126.5422,45.755,哈尔滨市,岭北,,39,39,22,27,14,57,,,,26,14,15,12,0.8,0.7
2025-05-06T0300,1130A,126.561,45.8167,哈尔滨市,松北商大,,35,35,25,24,12,40,,,,18,20,5,6,0.5,0.5
2025-05-06T0300,1131A,126.979,45.5419,哈尔滨市,阿城会宁,,45,45,26,19,15,26,,,,23,19,7,7,0.5,0.4
2025-05-06T0300,1132A,126.599,45.7222,哈尔滨市,南岗学府路,,48,48,31,23,13,50,,,,23,17,5,6,0.4,0.4
2025-05-06T0300,1133A,126.689,45.7733,哈尔滨市,太平宏伟公园,,32,32,29,17,17,51,,,,29,17,5,4,0.6,0.5
2025-05-06T0300,1134A,126.635,45.7667,哈尔滨市,道外承德广场,,42,42,23,27,18,16,,,,59,20,6,6,0.6,0.5
2025-05-06T0300,1135A,126.685,45.7319,哈尔滨市,香坊红旗大街,,39,39,31,23,17,43,,,,33,20,8,9,0.5,0.5
2025-05-06T0300,1136A,126.6411,45.7258,哈尔滨市,动力和平路,,46,34,26,32,19,55,,,,22,18,8,7,0.4,0.3
2025-05-06T0300,1137A,126.593,45.7478,哈尔滨市,道里建国路,,45,41,25,31,16,24,,,,46,22,6,3,0.7,0.5
2025-05-06T0300,1138A,126.615,45.61,哈尔滨市,平房东轻厂,,30,30,29,16,15,33,,,,47,29,21,10,0.5,0.3
2025-05-06T0300,1139A,126.595,45.9855,哈尔滨市,呼兰师专,,47,47,34,29,22,28,,,,46,21,9,7,0.3,0.3
2025-05-06T0300,1140A,126.6206,45.6842,哈尔滨市,省农科院,颗粒物(PM10),56,62,43,24,18,3,,,,71,31,10,8,0.7,0.6
2025-05-06T0300,2688A,93.5128,42.8172,哈密市,地区监测站,细颗粒物(PM2.5),84,90,89,62,38,24,,,,68,26,3,3,0.4,0.4
2025-05-06T0300,2689A,93.4961,42.8328,哈密市,哈密师范学校,颗粒物(PM10),67,83,77,27,20,20,,,,62,22,5,4,0.8,0.6
2025-05-06T0300,2671A,100.9048,36.9639,海北藏族自治州,海晏县西海镇,颗粒物(PM10),96,142,46,54,19,95,,,,8,2,12,8,0.4,0.3
2025-05-06T0300,3867A,102.0738,36.5056,海东市,平安区公安北苑,颗粒物(PM10),115,180,115,54,39,66,,,,2,9,5,7,0.5,0.6
2025-05-06T0300,1409A,110.576,19.9507,海口市,东寨港,,15,11,18,10,10,20,,,,4,3,1,3,0.5,0.5
2025-05-06T0300,1410A,110.3232,20.0574,海口市,海南大学,,21,21,21,13,12,23,,,,7,7,2,2,0.3,0.4
2025-05-06T0300,1411A,110.283,20.0053,海口市,秀英海南医院,,22,22,21,13,12,22,,,,9,12,4,4,0.3,0.2
2025-05-06T0300,1412A,110.338,19.9969,海口市,海南师范大学,,25,25,24,11,11,18,,,,12,8,4,4,0.3,0.4
2025-05-06T0300,1413A,110.33,20.0356,海口市,龙华路环保局宿舍,,24,24,20,10,11,23,,,,10,9,4,4,0.2,0.3
2025-05-06T0300,3539A,110.5111,19.9736,海口市,桂林洋子站,,24,24,20,12,10,17,,,,9,8,3,4,0.2,0.2
2025-05-06T0300,2673A,100.6188,36.2866,海南藏族自治州,共和县恰卜恰镇,,45,45,48,21,18,53,,,,24,13,14,10,0.3,0.3
2025-05-06T0300,2676A,97.3731,37.3753,海西蒙古族藏族自治州,德令哈市,,43,43,48,22,19,69,,,,4,7,14,15,0.4,0.4
2025-05-06T0300,1048A,114.5302,36.6116,邯郸市,东污水处理厂,颗粒物(PM10),134,217,240,66,73,80,,,,10,13,3,3,0.2,0.3
2025-05-06T0300,1049A,114.4918,36.5713,邯郸市,矿院,颗粒物(PM10),109,168,216,61,79,83,,,,5,11,2,4,0.2,0.4
2025-05-06T0300,1050A,114.484,36.6133,邯郸市,丛台公园,颗粒物(PM10),124,198,280,59,78,89,,,,8,11,4,6,0.2,0.3
2025-05-06T0300,3458A,114.7895,36.5593,邯郸市,香泉濮院小区,颗粒物(PM10),120,190,286,46,66,62,,,,12,9,3,4,0.3,0.4
2025-05-06T0300,3579A,114.50634,36.77178,邯郸市,永年区实验高中,颗粒物(PM10),128,206,269,57,85,75,,,,12,16,6,5,0.1,0.3
2025-05-06T0300,3580A,114.20016,36.44293,邯郸市,峰峰矿区临水派出所,颗粒物(PM10),113,175,312,48,108,92,,,,5,6,5,7,0.3,0.4
2025-05-06T0300,2634A,106.9893,33.1842,汉中市,汉川机床厂子校,颗粒物(PM10),64,78,53,39,30,47,,,,16,7,7,8,0.7,0.5
2025-05-06T0300,2635A,107.0154,33.0706,汉中市,市监测站,,49,49,55,23,20,52,,,,10,9,5,6,0.4,0.5
2025-05-06T0300,2636A,107.0089,33.1138,汉中市,鑫源开发区,,,86,61,30,26,21,,,,30,13,,7,0.6,0.5
2025-05-06T0300,2637A,107.007,33.0323,汉中市,南郑大河坎水厂,,43,43,48,26,23,42,,,,16,10,5,6,0.5,0.5
2025-05-06T0300,1223A,120.2072,30.2111,杭州市,滨江,,46,42,34,32,24,19,,,,43,27,5,6,0.8,0.7
2025-05-06T0300,1224A,120.0633,30.2747,杭州市,西溪,,35,,30,24,31,8,,,,24,14,5,5,0.5,0.5
2025-05-06T0300,1226A,120.3417,30.3150,杭州市,下沙,细颗粒物(PM2.5),82,84,60,60,40,46,,,,32,33,6,8,0.6,0.5
2025-05-06T0300,1227A,120.1269,30.2456,杭州市,卧龙桥,,25,23,32,17,20,12,,,,10,15,6,6,0.7,0.7
2025-05-06T0300,1228A,120.1903,30.2692,杭州市,浙江农大,,35,35,31,24,19,36,,,,30,31,8,9,0.4,0.4
2025-05-06T0300,1230A,120.1197,30.3119,杭州市,和睦小学,,39,39,33,27,23,42,,,,20,20,6,6,0.6,0.4
2025-05-06T0300,1231A,120.3019,30.4183,杭州市,临平镇,颗粒物(PM10),55,60,52,36,28,35,,,,33,22,5,5,0.7,0.5
2025-05-06T0300,1232A,120.2753,30.1839,杭州市,城厢镇,,48,48,46,32,26,17,,,,38,24,6,7,0.7,0.6
2025-05-06T0300,1233A,120.0883,30.1808,杭州市,云栖,,29,29,27,17,17,5,,,,20,23,5,5,0.7,0.7
2025-05-06T0300,3557A,119.9464,30.0494,杭州市,镇二中,,29,28,33,20,27,7,,,,29,26,2,3,0.6,0.7
2025-05-06T0300,3558A,119.7183,30.2367,杭州市,市府大楼,,32,32,38,20,21,28,,,,19,15,7,7,0.6,0.6
2025-05-06T0300,3656A,120.1556,30.2864,杭州市,消防大队,,31,31,39,20,24,63,,,,15,23,4,4,0.6,0.6
2025-05-06T0300,1270A,117.1959,31.7848,合肥市,明珠广场,"颗粒物(PM10),细颗粒物(PM2.5)",52,53,46,36,30,63,,,,28,21,5,5,0.4,0.4
2025-05-06T0300,1271A,117.3072,31.8764,合肥市,三里街,颗粒物(PM10),51,51,48,34,27,91,,,,22,18,4,4,0.6,0.6
2025-05-06T0300,1272A,117.2588,31.8707,合肥市,琥珀山庄,细颗粒物(PM2.5),64,51,50,46,35,69,,,,27,21,3,3,0.7,0.7
2025-05-06T0300,1273A,117.1604,31.9052,合肥市,董铺水库,颗粒物(PM10),54,58,49,34,25,75,,,,16,12,3,3,0.5,0.4
2025-05-06T0300,1274A,117.25,31.8571,合肥市,长江中路,,,63,52,42,34,99,,,,16,15,,8,0.6,0.6
2025-05-06T0300,1275A,117.266,31.9436,合肥市,庐阳区,颗粒物(PM10),57,63,48,39,28,103,,,,19,12,7,6,0.6,0.5
2025-05-06T0300,1276A,117.3453,31.8616,合肥市,瑶海区,细颗粒物(PM2.5),59,63,53,42,31,55,,,,37,20,6,6,0.5,0.4
2025-05-06T0300,1277A,117.3027,31.7964,合肥市,包河区,细颗粒物(PM2.5),62,53,49,44,32,63,,,,27,24,6,6,0.5,0.5
2025-05-06T0300,1278A,117.2776,31.7385,合肥市,滨湖新区,细颗粒物(PM2.5),58,53,47,41,35,35,,,,48,27,8,8,0.8,0.7
2025-05-06T0300,1279A,117.1318,31.8403,合肥市,高新区,颗粒物(PM10),56,61,49,38,31,84,,,,18,16,2,2,0.6,0.6
2025-05-06T0300,3464A,117.3803,31.9147,合肥市,高教基地,细颗粒物(PM2.5),57,58,50,40,32,55,,,,19,25,5,5,0.6,0.5
2025-05-06T0300,3614A,79.924,37.0877,和田地区,地区环保局,颗粒物(PM10),189,327,584,118,232,56,,,,16,10,1,2,0.3,0.3
2025-05-06T0300,3615A,79.9131,37.113,和田地区,市环保局,细颗粒物(PM2.5),275,301,583,225,190,37,,,,36,28,3,3,0.1,0.2
2025-05-06T0300,2516A,108.2011,24.715,河池市,东仁乐园,,,,,,,,,,,,,,,,
2025-05-06T0300,2517A,108.0497,24.6947,河池市,市环保站,,23,23,25,10,14,24,,,,13,7,7,7,0.6,0.6
2025-05-06T0300,2518A,108.0983,24.6989,河池市,市疾控中心,,24,24,23,11,15,25,,,,22,13,9,9,0.6,0.6
2025-05-06T0300,1696A,114.6778,23.7569,河源市,源西,,22,,29,15,27,40,,,,20,10,3,3,0.7,0.6
2025-05-06T0300,1697A,114.6944,23.7586,河源市,东埔,,23,,34,16,23,51,,,,14,13,5,4,0.4,0.4
2025-05-06T0300,1698A,114.6892,23.7233,河源市,老城,,15,15,33,8,24,41,,,,13,12,5,4,0.5,0.5
2025-05-06T0300,1718A,115.4208,35.2464,菏泽市,气象局,颗粒物(PM10),216,361,285,107,90,83,,,,11,13,11,7,0.3,0.4
2025-05-06T0300,3374A,115.5564,35.0891,菏泽市,定陶老年大学,颗粒物(PM10),189,327,229,102,63,94,,,,8,12,3,5,0.4,0.5
2025-05-06T0300,4184A,115.4797,35.24401,菏泽市,永昌路1号,颗粒物(PM10),187,323,260,112,106,88,,,,8,11,4,7,0.2,0.3
2025-05-06T0300,4193A,115.4715,35.2800,菏泽市,长城路999号,颗粒物(PM10),182,313,279,83,69,83,,,,14,16,6,10,0.1,0.3
2025-05-06T0300,2514A,111.5264,24.4172,贺州市,环保小区,,21,10,22,9,16,66,,,,6,9,4,4,1.0,0.9
2025-05-06T0300,2515A,111.5608,24.4078,贺州市,政协大楼,,20,,22,11,14,64,,,,8,9,6,7,0.7,0.7
2025-05-06T0300,3534A,111.4744,24.4553,贺州市,西湾,,18,9,19,6,12,55,,,,8,9,8,7,0.7,0.6
2025-05-06T0300,2385A,114.17,35.9019,鹤壁市,市监测站,颗粒物(PM10),188,326,241,120,86,93,,,,6,13,3,3,0.3,0.5
2025-05-06T0300,2386A,114.2956,35.7511,鹤壁市,市交警支队,颗粒物(PM10),276,403,232,123,70,76,,,,10,15,6,5,0.3,0.6
2025-05-06T0300,2387A,114.2878,35.7306,鹤壁市,迎宾馆,颗粒物(PM10),437,537,264,194,96,84,,,,4,8,3,3,0.3,0.5
2025-05-06T0300,3474A,114.2617,35.6822,鹤壁市,大新区,颗粒物(PM10),199,348,198,106,71,90,,,,7,11,8,8,0.3,0.4
2025-05-06T0300,3596A,114.1572,35.9603,鹤壁市,南山宾馆,颗粒物(PM10),368,474,354,112,92,102,,,,2,8,3,6,0.2,0.4
2025-05-06T0300,2244A,130.2537,47.3416,鹤岗市,哈啤分公司,,29,29,16,16,13,25,,,,15,5,13,13,0.3,0.3
2025-05-06T0300,2245A,130.2684,47.3086,鹤岗市,斯达机电,,22,,15,15,13,60,,,,2,3,11,11,0.1,0.1
2025-05-06T0300,2246A,130.3114,47.3388,鹤岗市,东山纸板厂,颗粒物(PM10),53,56,33,27,15,22,,,,18,8,12,12,0.8,0.3
2025-05-06T0300,2247A,130.1097,47.3382,鹤岗市,五号水库,,,,,,,,,,,,,,,,
2025-05-06T0300,2263A,127.4833,50.2524,黑河市,交通局,,21,,15,14,10,67,,,,3,5,7,7,0.4,0.4
2025-05-06T0300,2264A,127.5144,50.2341,黑河市,环保局,,25,13,13,12,12,80,,,,3,5,3,4,0.2,0.2
2025-05-06T0300,2265A,127.5291,50.2472,黑河市,大黑河岛,,,,,12,5,68,,,,4,8,1,2,0.2,0.2
2025-05-06T0300,1074A,115.6838,37.7541,衡水市,电机北厂,颗粒物(PM10),58,66,135,27,56,56,,,,10,11,3,5,0.2,0.3
2025-05-06T0300,1075A,115.6303,37.7316,衡水市,市监测站,颗粒物(PM10),61,72,135,17,48,60,,,,10,11,5,8,0.2,0.3
2025-05-06T0300,3188A,115.6683,37.7217,衡水市,市城管局,,,74,138,38,52,68,,,,8,10,,5,0.3,0.3
2025-05-06T0300,3459A,115.5989,37.5491,衡水市,地表水厂,颗粒物(PM10),54,57,169,17,71,68,,,,6,15,7,7,0.2,0.3
2025-05-06T0300,2456A,112.5003,26.9167,衡阳市,原169医院,,34,34,28,20,25,52,,,,3,5,3,2,0.5,0.5
2025-05-06T0300,2457A,112.6194,26.9258,衡阳市,衡阳化工总厂,,36,30,44,25,30,36,,,,11,13,5,5,0.5,0.6
2025-05-06T0300,2458A,112.6211,26.8956,衡阳市,珠晖区环保局,,,41,38,,,54,,,,18,13,,7,0.7,0.7
2025-05-06T0300,2459A,112.6197,26.8733,衡阳市,市委党校,,,28,38,,19,58,,,,9,12,,2,0.6,0.6
2025-05-06T0300,2460A,112.6006,26.8919,衡阳市,市监测站,,29,25,37,20,26,60,,,,9,14,9,8,0.6,0.8
2025-05-06T0300,2461A,112.5664,26.9056,衡阳市,真空机电公司,,35,35,35,19,26,68,,,,2,6,5,5,0.6,0.7
2025-05-06T0300,3399A,112.6703,26.882,衡阳市,师范学院,,44,44,42,22,25,33,,,,14,12,6,6,0.9,0.8
2025-05-06T0300,2608A,103.3772,23.3993,红河哈尼族彝族自治州,污水处理厂,,27,27,24,12,20,71,,,,8,7,7,11,0.4,0.4
2025-05-06T0300,2609A,103.3861,23.35,红河哈尼族彝族自治州,监测站,,31,31,35,18,18,79,,,,7,6,7,9,0.3,0.4
2025-05-06T0300,3038A,103.3758,23.368,红河哈尼族彝族自治州,州图书馆,,30,30,21,8,13,65,,,,8,7,1,6,0.3,0.3
2025-05-06T0300,1090A,111.6507,40.7517,呼和浩特市,呼市一监,,44,44,89,24,31,25,,,,19,13,6,6,0.5,0.5
2025-05-06T0300,1091A,111.6572,40.8033,呼和浩特市,小召,,46,46,85,25,30,28,,,,28,23,9,9,0.9,0.9
2025-05-06T0300,1094A,111.7516,40.8369,呼和浩特市,如意水处理厂,颗粒物(PM10),54,57,99,23,35,21,,,,36,24,4,5,0.4,0.5
2025-05-06T0300,1095A,111.7276,40.8062,呼和浩特市,二十九中,,48,48,94,24,34,37,,,,16,16,3,4,0.6,0.6
2025-05-06T0300,1096A,111.5512,40.7866,呼和浩特市,工大金川校区,,36,36,67,17,31,20,,,,37,27,6,6,0.5,0.6
2025-05-06T0300,1097A,111.717,40.7612,呼和浩特市,化肥厂生活区,,50,50,99,26,33,37,,,,21,22,8,8,0.4,0.4
2025-05-06T0300,3698A,111.5968,40.8178,呼和浩特市,红旗小学,,36,36,68,21,28,9,,,,53,26,4,4,0.5,0.4
2025-05-06T0300,3699A,111.6518,40.8389,呼和浩特市,海东办,,41,41,76,25,31,28,,,,27,20,7,7,0.5,0.5
2025-05-06T0300,2192A,119.7594,49.2261,呼伦贝尔市,区环保局,,,,28,,23,,,73,,,13,,4,,0.4
2025-05-06T0300,3061A,119.7512,49.1577,呼伦贝尔市,国华电力东,,40,40,31,19,14,22,,,,17,12,3,5,0.4,0.3
2025-05-06T0300,1250A,120.0751,30.8669,湖州市,城西水厂,细颗粒物(PM2.5),59,64,56,42,38,37,,,,40,33,6,6,0.7,0.6
2025-05-06T0300,2873A,120.0830,30.8929,湖州市,仁皇山新区,细颗粒物(PM2.5),65,61,52,47,36,32,,,,42,29,4,5,1.1,0.9
2025-05-06T0300,2907A,120.1844,30.8596,湖州市,吴兴区站,细颗粒物(PM2.5),70,55,48,51,38,52,,,,32,21,6,7,0.7,0.5
2025-05-06T0300,3562A,120.4148,30.8538,湖州市,南浔区站,细颗粒物(PM2.5),68,72,52,49,35,72,,,,18,19,4,4,0.8,0.6
2025-05-06T0300,1607A,120.9049,40.7211,葫芦岛市,龙港区,,46,,35,32,27,53,,,,26,26,8,21,0.5,0.5
2025-05-06T0300,1608A,120.8392,40.7514,葫芦岛市,化工街,,25,22,31,17,22,77,,,,15,29,6,14,0.5,0.5
2025-05-06T0300,1609A,120.8341,40.7073,葫芦岛市,新区,,35,,33,24,28,77,,,,15,24,6,11,0.5,0.6
2025-05-06T0300,1610A,120.8695,40.7677,葫芦岛市,东城区,,40,,31,28,32,70,,,,16,30,4,12,0.5,0.6
2025-05-06T0300,2482A,109.5981,27.5721,怀化市,林科所,颗粒物(PM10),55,59,40,33,20,25,,,,16,9,4,5,0.7,0.8
2025-05-06T0300,2483A,109.9453,27.5444,怀化市,河西地税局,,45,45,37,28,25,13,,,,14,13,5,5,0.6,0.5
2025-05-06T0300,2484A,109.9781,27.5342,怀化市,市四医院,颗粒物(PM10),59,67,47,33,29,20,,,,20,10,6,6,0.9,0.8
2025-05-06T0300,2485A,109.9972,27.5578,怀化市,监测楼,细颗粒物(PM2.5),55,58,44,39,25,34,,,,16,9,2,2,0.5,0.4
2025-05-06T0300,2486A,110.0394,27.583,怀化市,市委党校,,43,43,40,30,25,37,,,,10,8,5,7,0.6,0.6
2025-05-06T0300,1210A,119.036,33.5981,淮安市,钵池山,细颗粒物(PM2.5),59,,24,42,24,67,,,,21,17,8,7,0.5,0.4
2025-05-06T0300,1211A,119.007,33.575,淮安市,北京南路,细颗粒物(PM2.5),65,,25,47,24,71,,,,21,12,8,8,0.5,0.5
2025-05-06T0300,1212A,118.989,33.6067,淮安市,市监测站,细颗粒物(PM2.5),58,,22,41,23,78,,,,18,15,10,8,0.5,0.5
2025-05-06T0300,1213A,119.135,33.5039,淮安市,楚州区监测站,细颗粒物(PM2.5),54,39,29,38,23,43,,,,26,16,7,7,0.4,0.4
2025-05-06T0300,3426A,118.8755,33.2894,淮安市,新华书店,,50,47,32,35,28,66,,,,26,17,7,8,0.5,0.5
2025-05-06T0300,4206A,119.0288,33.6319,淮安市,承德北路606号,细颗粒物(PM2.5),59,46,30,42,22,67,,,,19,13,8,6,0.5,0.5
2025-05-06T0300,2282A,116.8004,33.975,淮北市,监测站,颗粒物(PM10),73,96,52,42,54,93,,,,13,17,8,8,0.7,0.8
2025-05-06T0300,2283A,116.8091,33.9007,淮北市,烈山区政府,颗粒物(PM10),83,116,48,35,32,81,,,,15,15,6,6,0.7,0.8
2025-05-06T0300,3330A,116.8873,33.9836,淮北市,杜集区检察院,颗粒物(PM10),85,119,57,33,31,75,,,,21,17,7,8,0.8,0.8
2025-05-06T0300,4017A,116.7923,33.9535,淮北市,市博物馆,颗粒物(PM10),79,108,53,34,32,88,,,,14,15,6,7,0.6,0.7
2025-05-06T0300,2277A,116.8305,32.7727,淮南市,潘集区政府,颗粒物(PM10),51,51,52,27,32,93,,,,11,14,3,3,0.4,0.5
2025-05-06T0300,2279A,116.8569,32.5951,淮南市,谢家集区政府,颗粒物(PM10),53,55,52,32,36,94,,,,13,16,5,4,0.2,0.3
2025-05-06T0300,2280A,116.8281,32.633,淮南市,八公山区政府,颗粒物(PM10),53,56,58,29,35,106,,,,6,8,7,6,0.3,0.4
2025-05-06T0300,2281A,116.6325,32.6201,淮南市,焦岗湖风景区管理处,,,,,,,,,,,,,,,,
2025-05-06T0300,2894A,117.0566,32.6531,淮南市,经济技术开发区消防队,,47,47,50,29,37,103,,,,10,14,6,6,0.4,0.4
2025-05-06T0300,3329A,117.0108,32.5893,淮南市,山南新区,颗粒物(PM10),63,75,59,34,36,98,,,,12,13,8,8,0.4,0.5
2025-05-06T0300,4209A,117.0031,32.6445,淮南市,国庆中路369号,颗粒物(PM10),56,62,60,27,41,91,,,,8,11,10,9,0.4,0.4
2025-05-06T0300,2446A,114.9028,30.4742,黄冈市,职工中心,,,,,,,,,,,,,,,,
2025-05-06T0300,2929A,114.8858,30.4519,黄冈市,红卫路,,44,44,40,22,24,98,,,,4,4,7,6,0.5,0.6
2025-05-06T0300,3398A,114.9136,30.4445,黄冈市,市林业局,,42,42,41,21,26,90,,,,14,8,9,7,0.6,0.7
2025-05-06T0300,2672A,102.0199,35.5102,黄南藏族自治州,同仁县隆务镇,颗粒物(PM10),72,93,57,35,20,75,,,,2,3,4,4,0.2,0.2
2025-05-06T0300,2295A,118.2903,29.6963,黄山市,延安路89号,,22,22,13,7,8,13,,,,10,7,5,5,0.5,0.5
2025-05-06T0300,2297A,118.1371,30.2756,黄山市,黄山区政府5号楼,,15,15,20,7,10,45,,,,5,6,3,3,0.9,0.8
2025-05-06T0300,4210A,118.3354,29.7203,黄山市,滨江东路7-2号,,32,32,21,9,7,16,,,,10,7,4,4,0.6,0.6
2025-05-06T0300,2423A,115.0601,30.2313,黄石市,沈家营,,46,46,48,16,21,112,,,,7,7,7,8,0.6,0.6
2025-05-06T0300,2426A,114.8988,30.2019,黄石市,铁山,颗粒物(PM10),52,53,53,22,30,62,,,,9,9,7,7,0.4,0.3
2025-05-06T0300,2427A,115.0307,30.2092,黄石市,团城山,颗粒物(PM10),52,53,48,13,18,122,,,,11,11,10,10,0.7,0.6
2025-05-06T0300,3149A,115.0235,30.1578,黄石市,笔架山北路,,43,43,40,20,20,92,,,,11,8,9,7,0.7,0.7
2025-05-06T0300,4185A,115.0780,30.21118,黄石市,磁湖东路29号,,41,41,46,27,26,128,,,,9,10,8,7,0.6,0.6
2025-05-06T0300,1392A,114.4183,23.0528,惠州市,河南岸金山湖子站,,38,38,39,18,18,22,,,,16,10,8,8,0.5,0.5
2025-05-06T0300,1393A,114.4053,23.0822,惠州市,下埔横江三路子站,,41,41,34,25,18,19,,,,20,10,9,8,0.6,0.5
2025-05-06T0300,1394A,114.4103,23.1142,惠州市,江北云山西路子站,,42,42,36,21,17,24,,,,20,9,11,11,0.6,0.5
2025-05-06T0300,1395A,114.4645,22.7833,惠州市,惠阳区承修路船湖子站,,31,31,38,18,18,21,,,,18,10,8,7,0.3,0.3
2025-05-06T0300,1396A,114.5317,22.7422,惠州市,大亚湾管委会子站,,24,24,36,12,17,14,,,,19,9,8,9,0.5,0.5
2025-05-06T0300,3314A,114.4338,22.8134,惠州市,惠阳秋长,,32,29,34,22,18,12,,,,31,12,14,10,0.6,0.6
2025-05-06T0300,3452A,114.6517,22.775,惠州市,大亚湾霞涌,,19,19,28,10,17,25,,,,15,8,7,7,0.4,0.4
2025-05-06T0300,2240A,130.9762,45.3001,鸡西市,环保局,,35,35,21,17,13,53,,,,13,10,6,6,0.5,0.4
2025-05-06T0300,2243A,130.9429,45.3039,鸡西市,第一中学,,27,27,19,18,12,58,,,,9,6,6,6,0.5,0.4
2025-05-06T0300,3707A,131.0207,45.3073,鸡西市,欧美日汽修厂,,38,37,27,26,16,39,,,,15,15,6,5,0.5,0.5
2025-05-06T0300,3709A,130.9967,45.3106,鸡西市,市政设施管理处,,43,43,27,22,14,33,,,,17,14,7,7,0.5,0.4
2025-05-06T0300,2367A,114.9754,27.0803,吉安市,红声器材厂,,28,28,26,12,13,81,,,,3,4,10,10,0.6,0.6
2025-05-06T0300,2368A,114.9658,27.0999,吉安市,市森林工业局,,25,19,22,13,13,77,,,,2,4,8,9,0.5,0.5
2025-05-06T0300,2369A,114.99,27.1312,吉安市,市环境监测站,,35,35,21,13,10,82,,,,2,2,8,9,0.7,0.6
2025-05-06T0300,2370A,115.0093,27.0968,吉安市,青原区法院,,26,25,22,12,14,81,,,,4,5,12,12,0.6,0.5
2025-05-06T0300,1772A,126.54,43.8622,吉林市,哈达湾,,24,24,33,16,19,73,,,,10,10,6,6,0.4,0.4
2025-05-06T0300,1773A,126.5844,43.8358,吉林市,东局子,,22,20,28,12,18,68,,,,12,11,5,6,0.4,0.4
2025-05-06T0300,1774A,126.5052,43.8245,吉林市,电力学院,,26,23,29,18,20,68,,,,8,9,4,5,0.4,0.4
2025-05-06T0300,1775A,126.6133,43.8972,吉林市,江北,,29,29,38,18,21,66,,,,12,13,6,7,0.3,0.2
2025-05-06T0300,1776A,126.555,43.8306,吉林市,江南公园,,23,21,31,16,22,73,,,,7,9,5,6,0.3,0.3
2025-05-06T0300,1778A,126.7061,43.7133,吉林市,丰满,,,,,,,,,,,,,,,,
2025-05-06T0300,2868A,126.4739,43.953,吉林市,九站,,32,26,38,22,22,69,,,,18,13,8,9,0.4,0.4
2025-05-06T0300,1299A,116.9862,36.6114,济南市,科干所,颗粒物(PM10),89,127,120,54,40,62,,,,18,12,3,4,0.4,0.4
2025-05-06T0300,1300A,116.9376,36.665,济南市,农科所,颗粒物(PM10),84,117,115,54,50,57,,,,17,18,6,7,0.3,0.3
2025-05-06T0300,1301A,117.1265,36.6734,济南市,开发区,颗粒物(PM10),86,122,132,59,51,78,,,,14,13,6,7,0.5,0.5
2025-05-06T0300,1303A,117.0624,36.6868,济南市,省种子仓库,细颗粒物(PM2.5),73,66,73,53,48,74,,,,13,14,3,4,0.3,0.4
2025-05-06T0300,1304A,116.9489,36.6447,济南市,机床二厂,颗粒物(PM10),88,125,122,46,45,67,,,,18,19,7,8,0.4,0.4
2025-05-06T0300,1305A,117.0495,36.663,济南市,市监测站,颗粒物(PM10),88,125,127,63,53,72,,,,18,17,7,8,0.3,0.5
2025-05-06T0300,1306A,116.7675,36.5484,济南市,长清党校,颗粒物(PM10),96,142,96,61,40,53,,,,21,16,4,5,0.5,0.6
2025-05-06T0300,1616A,117.6795,36.229,济南市,技术学院,颗粒物(PM10),91,132,71,51,34,70,,,,22,17,9,11,0.6,0.7
2025-05-06T0300,1961A,117.532,36.6868,济南市,东山小学,颗粒物(PM10),99,147,120,54,42,65,,,,13,12,5,7,0.2,0.4
2025-05-06T0300,3059A,117.7161,36.2049,济南市,泰兴公司,颗粒物(PM10),84,117,68,61,38,47,,,,31,21,4,6,0.6,0.4
2025-05-06T0300,3064A,117.6867,36.2171,济南市,莱芜战役纪念馆,颗粒物(PM10),89,127,67,41,29,52,,,,32,20,5,6,0.9,0.8
2025-05-06T0300,3494A,117.1673,36.9782,济南市,济阳区政府,颗粒物(PM10),90,129,110,56,42,53,,,,13,16,4,5,0.3,0.4
2025-05-06T0300,3495A,117.1171,36.63,济南市,锦屏中学,颗粒物(PM10),81,112,124,44,44,82,,,,13,13,5,6,0.3,0.5
2025-05-06T0300,3682A,116.9814,36.6819,济南市,济南四建,颗粒物(PM10),81,112,123,46,50,66,,,,19,18,3,5,0.3,0.5
2025-05-06T0300,1653A,116.6251,35.4302,济宁市,火炬城,细颗粒物(PM2.5),122,166,67,92,39,73,,,,6,7,5,7,0.3,0.4
2025-05-06T0300,1655A,116.5491,35.4042,济宁市,电化厂,颗粒物(PM10),134,217,86,63,32,76,,,,5,8,1,3,0.3,0.5
2025-05-06T0300,3500A,116.5814,35.3707,济宁市,北湖一中,颗粒物(PM10),146,241,90,78,29,80,,,,6,10,3,5,0.2,0.4
2025-05-06T0300,3501A,116.8249,35.5593,济宁市,服务中心,颗粒物(PM10),61,71,47,38,25,65,,,,15,14,1,3,0.3,0.4
2025-05-06T0300,3678A,116.5907,35.4054,济宁市,市第七中学,颗粒物(PM10),119,188,92,70,31,76,,,,8,10,4,5,0.2,0.4
2025-05-06T0300,2255A,130.2751,46.8028,佳木斯市,佳纺,颗粒物(PM10),51,52,24,20,13,53,,,,18,10,5,5,0.5,0.4
2025-05-06T0300,2256A,130.3995,46.8307,佳木斯市,发电厂,,21,15,22,14,14,65,,,,8,6,4,4,0.2,0.2
2025-05-06T0300,2257A,130.3258,46.7975,佳木斯市,环保局,,30,30,20,12,11,77,,,,7,10,6,6,0.2,0.1
2025-05-06T0300,2258A,130.3648,46.8032,佳木斯市,十一中,,26,26,22,12,12,64,,,,10,10,4,4,0.3,0.3
2025-05-06T0300,2259A,130.3794,46.7588,佳木斯市,四丰,,,19,17,7,7,,,,,5,6,1,1,0.2,0.2
2025-05-06T0300,1252A,120.7436,30.778,嘉兴市,清河小学,,49,49,43,30,21,78,,,,16,17,5,5,1.1,0.9
2025-05-06T0300,1253A,120.726,30.7478,嘉兴市,嘉兴学院,细颗粒物(PM2.5),55,52,44,39,31,86,,,,15,15,6,6,1.0,0.8
2025-05-06T0300,2872A,120.7846,30.7525,嘉兴市,南湖区残联,细颗粒物(PM2.5),60,52,43,43,31,91,,,,7,10,5,5,0.8,0.7
2025-05-06T0300,3407A,120.6916,30.7739,嘉兴市,秀洲住建,颗粒物(PM10),65,79,63,36,22,82,,,,12,10,6,6,0.9,0.7
2025-05-06T0300,1945A,98.2908,39.7711,嘉峪关市,气象局,颗粒物(PM10),157,263,249,70,66,48,,,,30,9,41,11,1.8,1.1
2025-05-06T0300,2884A,98.2672,39.7978,嘉峪关市,酒钢宾馆,,,,264,,67,,,100,,,10,,18,,0.7
2025-05-06T0300,3248A,98.2643,39.7724,嘉峪关市,雄关区,颗粒物(PM10),143,236,196,66,48,48,,,,33,13,11,10,0.8,0.9
2025-05-06T0300,1383A,113.1064,22.6058,江门市,北街,,33,33,25,21,12,6,,,,33,11,2,2,0.5,0.4
2025-05-06T0300,1384A,113.0731,22.5835,江门市,西区,,28,28,22,8,12,13,,,,27,11,6,6,0.6,0.4
2025-05-06T0300,1385A,113.0219,22.5311,江门市,圭峰西,,21,21,24,13,12,8,,,,18,10,3,3,0.4,0.4
2025-05-06T0300,1386A,113.0828,22.5947,江门市,东湖,颗粒物(PM10),53,55,29,3,13,6,,,,28,10,7,8,0.6,0.4
2025-05-06T0300,3311A,113.1075,22.5647,江门市,江海富民,,42,41,31,29,19,5,,,,30,9,8,8,0.6,0.4
2025-05-06T0300,3449A,113.05,22.4667,江门市,新会银湖,,23,22,23,16,12,1,,,,27,11,1,1,0.5,0.4
2025-05-06T0300,1830A,113.1992,35.2590,焦作市,影视城,,,,17,,10,,,,,,10,,9,,0.7
2025-05-06T0300,3169A,113.2725,35.2067,焦作市,太极体育中心,颗粒物(PM10),164,278,337,60,68,103,,,,1,7,2,4,0,0
2025-05-06T0300,3335A,113.3137,35.2641,焦作市,马村街道办,颗粒物(PM10),131,212,297,87,74,104,,,,9,11,7,7,0.1,0.1
2025-05-06T0300,3336A,113.2465,35.2373,焦作市,焦作技师学院,颗粒物(PM10),161,272,322,46,65,106,,,,4,8,4,7,0.1,0.3
2025-05-06T0300,3477A,113.1656,35.2539,焦作市,中站许衡医院,颗粒物(PM10),132,214,287,64,68,108,,,,3,8,5,8,0.3,0.4
2025-05-06T0300,3981A,113.2449,35.1803,焦作市,原李万街道办,颗粒物(PM10),174,297,334,97,84,108,,,,7,10,6,10,0.4,0.3
2025-05-06T0300,4264A,113.2340,35.2190,焦作市,新安路1731号,颗粒物(PM10),166,281,314,68,85,103,,,,4,8,3,5,0.2,0.5
2025-05-06T0300,1708A,116.3701,23.5345,揭阳市,新兴,,29,27,45,20,24,41,,,,7,10,5,6,0.5,0.6
2025-05-06T0300,1709A,116.3264,23.5443,揭阳市,西马,,26,26,44,12,20,41,,,,6,6,6,7,0.8,0.8
2025-05-06T0300,1710A,116.3611,23.5626,揭阳市,东兴,,34,34,52,16,23,41,,,,3,5,4,5,0.6,0.7
2025-05-06T0300,1711A,116.4151,23.5294,揭阳市,渔湖,,28,28,57,17,23,46,,,,7,11,3,4,0.6,0.7
2025-05-06T0300,3320A,116.403,23.5699,揭阳市,曲溪,,29,22,43,20,22,50,,,,9,12,4,14,0.5,0.6
2025-05-06T0300,1944A,102.1692,38.5167,金昌市,天庆家园,颗粒物(PM10),118,185,285,54,66,66,,,,9,6,13,9,0.8,0.7
2025-05-06T0300,4022A,102.1647,38.5371,金昌市,金川区人防中心,颗粒物(PM10),139,227,376,47,55,62,,,,8,6,10,4,0.4,0.4
2025-05-06T0300,4239A,102.1930,38.5319,金昌市,长春路96号,颗粒物(PM10),136,221,310,53,71,62,,,,8,5,8,20,0.7,0.5
2025-05-06T0300,1262A,119.647,29.077,金华市,十五中,,26,26,32,14,19,17,,,,40,20,3,3,0.6,0.5
2025-05-06T0300,1263A,119.686,29.1029,金华市,监测站,,29,29,31,18,19,7,,,,48,20,4,4,0.4,0.4
2025-05-06T0300,3659A,119.656,29.1131,金华市,气象局,,36,36,31,22,17,7,,,,50,23,2,2,0.8,0.6
2025-05-06T0300,1767A,121.1115,41.0879,锦州市,南山,细颗粒物(PM2.5),60,,26,43,33,59,,,,11,21,6,13,0.6,0.7
2025-05-06T0300,1768A,121.0604,40.8428,锦州市,开发区,,31,17,24,8,24,99,,,,8,22,4,7,0.5,0.6
2025-05-06T0300,1769A,121.1836,41.1119,锦州市,百股街道,,32,31,26,22,22,69,,,,12,23,4,7,0.6,0.6
2025-05-06T0300,1770A,121.1178,41.1222,锦州市,天安街道,,48,,32,33,31,67,,,,14,26,4,6,0.6,0.7
2025-05-06T0300,1771A,121.1303,41.1386,锦州市,北湖公园,,43,,30,30,32,67,,,,9,21,7,9,0.6,0.7
2025-05-06T0300,2160A,112.85,35.5051,晋城市,自来水公司,颗粒物(PM10),105,159,335,39,65,99,,,,8,10,6,6,0.4,0.4
2025-05-06T0300,2161A,112.8318,35.4936,晋城市,白云商贸,颗粒物(PM10),109,168,340,58,96,100,,,,11,12,5,5,0.3,0.4
2025-05-06T0300,2162A,112.8508,35.4887,晋城市,市环保局,颗粒物(PM10),121,191,351,39,81,92,,,,8,8,4,5,0.1,0.2
2025-05-06T0300,2163A,112.8676,35.4897,晋城市,技术学院,颗粒物(PM10),105,160,355,36,70,89,,,,7,9,5,5,0.3,0.4
2025-05-06T0300,2165A,112.8453,35.546,晋城市,白马寺,细颗粒物(PM2.5),113,146,283,85,88,106,,,,6,8,4,4,0.2,0.3
2025-05-06T0300,3620A,112.8271,35.4828,晋城市,泽州一中,颗粒物(PM10),140,229,347,46,92,98,,,,8,9,4,4,0.2,0.3
2025-05-06T0300,2173A,112.7249,37.7067,晋中市,南都小区,颗粒物(PM10),57,64,218,19,44,82,,,,14,13,4,7,0.2,0.4
2025-05-06T0300,2174A,112.6991,37.6982,晋中市,榆次区政府,,46,46,226,15,38,89,,,,11,15,4,7,0.4,0.5
2025-05-06T0300,2865A,112.7195,37.6828,晋中市,榆次三中,,48,48,269,12,51,96,,,,5,12,2,5,0.2,0.5
2025-05-06T0300,4200A,112.7478,37.6954,晋中市,迎宾街26号,,41,41,241,19,53,88,,,,7,14,3,6,0.2,0.3
2025-05-06T0300,2439A,112.2014,31.0481,荆门市,竹园小学,颗粒物(PM10),68,85,59,40,22,107,,,,22,12,14,6,0.2,0.1
2025-05-06T0300,2440A,112.1969,30.9891,荆门市,掇刀,颗粒物(PM10),67,84,54,33,22,90,,,,15,10,11,6,0.3,0.3
2025-05-06T0300,2441A,112.2213,31.0386,荆门市,石化一小,颗粒物(PM10),80,110,60,37,25,101,,,,16,10,16,10,0.2,0.1
2025-05-06T0300,3012A,112.1849,31.0362,荆门市,西山林语,颗粒物(PM10),62,73,47,36,20,91,,,,18,6,13,8,0.7,0.4
2025-05-06T0300,3547A,112.1632,31.0138,荆门市,龙泉中学南校,颗粒物(PM10),58,66,53,33,22,84,,,,17,7,2,2,0.5,0.4
2025-05-06T0300,1844A,112.2494,30.3197,荆州市,市图书馆,颗粒物(PM10),55,59,49,35,24,93,,,,17,16,7,6,0.6,0.5
2025-05-06T0300,1845A,112.2008,30.3544,荆州市,市委党校,颗粒物(PM10),58,66,48,36,24,73,,,,18,13,8,8,0.6,0.6
2025-05-06T0300,3194A,112.2747,30.3122,荆州市,管委会,"颗粒物(PM10),细颗粒物(PM2.5)",54,58,46,38,25,96,,,,13,13,10,7,0.7,0.7
2025-05-06T0300,4268A,112.1722,30.3366,荆州市,学苑路85号,细颗粒物(PM2.5),52,52,42,36,27,76,,,,18,14,4,3,0.5,0.5
2025-05-06T0300,2342A,117.3102,29.3867,景德镇市,王港中学,,,,,,,,,,,,,,,,
2025-05-06T0300,2343A,117.2117,29.2933,景德镇市,老干部活动中心,,38,38,26,22,12,15,,,,19,13,5,7,0.6,0.6
2025-05-06T0300,2344A,117.1894,29.2789,景德镇市,兽医站,颗粒物(PM10),54,58,32,27,17,20,,,,19,15,4,8,0.7,0.6
2025-05-06T0300,2345A,117.1547,29.2617,景德镇市,台达陶瓷,,49,45,33,34,19,15,,,,35,17,10,17,0.8,0.6
2025-05-06T0300,2346A,117.2461,29.2956,景德镇市,陶研所,,35,32,23,24,16,10,,,,11,10,4,6,0.5,0.5
2025-05-06T0300,1803A,115.9872,29.6815,九江市,十里,细颗粒物(PM2.5),53,50,37,37,28,104,,,,14,12,2,2,0.7,0.7
2025-05-06T0300,1804A,115.9584,29.7046,九江市,茅山头,细颗粒物(PM2.5),54,53,38,38,24,78,,,,12,17,6,5,0.5,0.6
2025-05-06T0300,1805A,115.9877,29.7295,九江市,西园,颗粒物(PM10),51,52,40,33,22,120,,,,24,38,8,9,0.7,0.8
2025-05-06T0300,1808A,115.9114,29.6038,九江市,综合工业园,细颗粒物(PM2.5),59,59,35,42,20,30,,,,73,18,8,8,0.8,0.8
2025-05-06T0300,1809A,116.0721,29.7535,九江市,石化总厂,细颗粒物(PM2.5),59,57,46,42,31,117,,,,15,17,9,11,0.8,0.8
2025-05-06T0300,1810A,115.9773,29.5698,九江市,庐山气象台,,40,34,18,22,15,128,,,,6,7,6,6,0.7,0.8
2025-05-06T0300,3190A,116.0254,29.6994,九江市,外国语学校,颗粒物(PM10),54,58,31,34,23,113,,,,18,17,6,6,0.8,0.8
2025-05-06T0300,4253A,116.0102,29.6594,九江市,莲花大道8号,,42,42,31,26,24,107,,,,2,6,4,4,0.6,0.7
2025-05-06T0300,4240A,98.4958,39.7339,酒泉市,玉门东路5号,,,,307,,62,,,105,,,8,,41,,0.4
2025-05-06T0300,4241A,98.5099,39.7506,酒泉市,北大街108号,颗粒物(PM10),86,122,240,29,43,75,,,,14,9,9,22,0.1,0.2
2025-05-06T0300,2698A,76.0072,39.4467,喀什地区,巡警大队,颗粒物(PM10),228,369,337,80,83,21,,,,68,38,6,5,0.7,0.6
2025-05-06T0300,2699A,75.9755,39.4694,喀什地区,吾办,细颗粒物(PM2.5),207,332,301,157,152,17,,,,74,50,4,5,0.7,0.5
2025-05-06T0300,4027A,75.9483,39.4689,喀什地区,老干局,颗粒物(PM10),170,289,292,102,93,26,,,,51,29,3,6,0.5,0.3
2025-05-06T0300,1824A,114.3389,34.7781,开封市,肿瘤医院,颗粒物(PM10),177,303,360,82,93,61,,,,15,8,6,7,0.3,0.3
2025-05-06T0300,1826A,114.2885,34.7965,开封市,世纪星幼儿园,颗粒物(PM10),155,260,351,100,121,66,,,,19,15,8,7,0.8,0.7
2025-05-06T0300,3147A,114.3438,34.8106,开封市,龙亭公园,颗粒物(PM10),157,263,368,102,160,70,,,,16,14,2,3,0.6,0.6
2025-05-06T0300,3210A,114.3644,34.7964,开封市,汴京公园,颗粒物(PM10),168,286,400,115,104,78,,,,12,12,3,4,0.5,0.5
2025-05-06T0300,3473A,114.2485,34.8306,开封市,技师学院,细颗粒物(PM2.5),188,257,313,141,137,72,,,,12,15,3,5,0.7,0.6
2025-05-06T0300,3592A,114.4644,34.7556,开封市,祥符区生态环境局,细颗粒物(PM2.5),214,303,285,164,135,76,,,,11,14,7,11,0.4,0.5
2025-05-06T0300,1951A,84.895,45.6094,克拉玛依市,长征新村,,38,29,27,26,10,88,,,,5,11,8,8,0.2,0.2
2025-05-06T0300,1952A,84.8988,45.5893,克拉玛依市,南林小区,,28,28,32,16,13,75,,,,7,14,5,5,0.2,0.3
2025-05-06T0300,1954A,84.905,44.3396,克拉玛依市,独山子区,,30,13,28,9,11,95,,,,7,13,7,10,0.4,0.5
2025-05-06T0300,1955A,85.6979,46.098,克拉玛依市,乌尔禾区商贸楼,,24,24,27,9,9,47,,,,22,7,7,7,0.5,0.3
2025-05-06T0300,3612A,85.1045,45.6899,克拉玛依市,白碱滩区新站,颗粒物(PM10),61,71,32,17,10,84,,,,4,5,11,11,0.2,0.2
2025-05-06T0300,2697A,76.1454,39.7142,克孜勒苏柯尔克孜自治州,市人民政府,颗粒物(PM10),139,227,295,77,97,93,,,,16,13,11,10,0.3,0.4
2025-05-06T0300,3665A,76.1658,39.7157,克孜勒苏柯尔克孜自治州,克州文化中心,颗粒物(PM10),128,205,288,83,100,102,,,,11,16,14,11,0.3,0.3
2025-05-06T0300,1450A,102.8204,24.8886,昆明市,呈贡新区,,23,,24,16,15,72,,,,20,12,4,6,0.6,0.5
2025-05-06T0300,1451A,102.6251,24.9608,昆明市,西山森林公园,,,,,,,,,,,,,,,,
2025-05-06T0300,1452A,102.7252,25.0902,昆明市,龙泉镇,,34,34,25,23,16,41,,,,24,25,8,9,0.4,0.3
2025-05-06T0300,1453A,102.7266,25.0375,昆明市,东风东路,,35,32,25,24,21,76,,,,20,17,8,10,0.6,0.5
2025-05-06T0300,1454A,102.6742,25.0669,昆明市,金鼎山,,,,29,,17,,,97,,,22,,4,,0.5
2025-05-06T0300,1455A,102.6644,25.0401,昆明市,碧鸡广场,细颗粒物(PM2.5),59,53,31,42,29,22,,,,67,26,9,9,0.4,0.5
2025-05-06T0300,3179A,102.7494,25.0119,昆明市,官渡区博物馆,,,,26,,14,,,101,,,17,,9,,0.4
2025-05-06T0300,3375A,102.8017,24.8336,昆明市,青年创业园,,32,30,22,12,14,11,,,,64,21,8,9,0.5,0.4
2025-05-06T0300,3550A,102.7997,24.9786,昆明市,昆明学院,,36,36,28,21,16,52,,,,38,17,8,6,0.5,0.4
2025-05-06T0300,3551A,102.5967,24.6736,昆明市,晋宁区生态环境分局,,35,24,15,24,12,63,,,,19,9,7,7,0.6,0.4
2025-05-06T0300,3552A,102.6678,24.9856,昆明市,云天化总部,,34,34,23,22,14,17,,,,66,20,11,10,0.5,0.5
2025-05-06T0300,1456A,91.1319,29.6514,拉萨市,八廓街,,41,7,17,3,8,130,,,,7,9,8,6,0.3,0.3
2025-05-06T0300,1457A,91.1221,29.6747,拉萨市,市环保局,,42,9,19,6,7,134,,,,6,9,5,4,0.4,0.4
2025-05-06T0300,1458A,91.0874,29.6475,拉萨市,区监测站,,41,10,15,3,7,130,,,,11,12,6,6,0.4,0.4
2025-05-06T0300,1459A,91.1774,29.6541,拉萨市,西藏大学,,42,6,14,3,7,133,,,,7,9,11,6,0.3,0.4
2025-05-06T0300,1460A,90.9798,29.6588,拉萨市,区辐射站,,40,15,16,8,8,127,,,,11,13,8,9,0.3,0.3
2025-05-06T0300,1461A,91.0834,29.6292,拉萨市,拉萨火车站,,39,10,15,6,7,122,,,,7,8,3,3,0.4,0.4
2025-05-06T0300,2520A,109.2203,23.7256,来宾市,来宾技工学校,,20,20,33,14,18,55,,,,10,7,7,7,0.7,0.6
2025-05-06T0300,3535A,109.1781,23.7297,来宾市,兴宾区政府,,18,17,31,12,19,44,,,,6,7,4,4,0.5,0.5
2025-05-06T0300,4002A,109.2416,23.7461,来宾市,中南小学,,23,23,30,15,19,49,,,,9,6,7,7,0.6,0.5
2025-05-06T0300,1477A,104.1373,35.9454,兰州市,榆中兰大校区,,,,,,,,,,,,,,,,
2025-05-06T0300,1479A,103.831,36.0464,兰州市,铁路设计院,颗粒物(PM10),194,338,203,97,58,14,,,,58,30,8,10,0.6,0.6
2025-05-06T0300,3241A,103.7439,36.0842,兰州市,百合公园,颗粒物(PM10),177,303,189,96,54,12,,,,60,19,3,5,0.5,0.4
2025-05-06T0300,3242A,103.9611,35.998,兰州市,和平,颗粒物(PM10),303,422,234,138,88,57,,,,18,12,9,12,0.4,0.6
2025-05-06T0300,4236A,103.6293,36.0938,兰州市,庄浪东路808号,颗粒物(PM10),209,356,225,116,73,54,,,,24,23,7,9,0.2,0.3
2025-05-06T0300,4237A,103.7251,36.1043,兰州市,安宁西路88号,颗粒物(PM10),212,358,235,92,70,42,,,,27,14,5,6,0.2,0.3
2025-05-06T0300,4238A,103.8470,36.0676,兰州市,北滨河东路1号,颗粒物(PM10),196,341,230,94,64,4,,,,67,28,10,12,0.5,0.6
2025-05-06T0300,3245A,103.6633,36.533,兰州新区,新区管委会,颗粒物(PM10),141,231,155,83,70,64,,,,11,9,28,24,0.5,0.4
2025-05-06T0300,3246A,103.6975,36.4789,兰州新区,舟曲中学,颗粒物(PM10),198,346,234,109,68,72,,,,19,11,43,14,0.6,0.4
2025-05-06T0300,1067A,116.6708,39.5111,廊坊市,药材公司,,32,32,61,15,39,74,,,,8,15,1,2,0.2,0.4
2025-05-06T0300,1068A,116.7214,39.5589,廊坊市,开发区,,23,22,59,14,37,71,,,,12,17,1,2,0.2,0.4
2025-05-06T0300,1070A,116.7244,39.5269,廊坊市,北华航天学院,,34,34,71,13,45,68,,,,13,18,3,4,0.2,0.5
2025-05-06T0300,2919A,116.7022,39.5453,廊坊市,河北工业大学,,40,40,64,16,41,69,,,,14,20,4,5,0.2,0.4
2025-05-06T0300,2535A,103.7723,29.5462,乐山市,花湖湾,,22,22,28,13,17,49,,,,9,9,6,6,0.8,0.6
2025-05-06T0300,2536A,103.7627,29.5844,乐山市,牛耳桥,,22,20,28,15,18,46,,,,15,10,7,6,0.7,0.3
2025-05-06T0300,2537A,103.7508,29.6006,乐山市,市第三水厂,,23,22,28,16,15,41,,,,12,7,4,4,1.1,0.7
2025-05-06T0300,2538A,103.7571,29.5664,乐山市,市监测站,,20,20,28,9,14,47,,,,9,9,5,6,1.1,0.7
2025-05-06T0300,3361A,103.7311,29.5628,乐山市,理工大学,,19,16,27,13,17,55,,,,13,11,6,5,1.1,0.7
2025-05-06T0300,2598A,100.2143,26.8576,丽江市,西南郊,,30,10,14,6,7,95,,,,1,5,5,13,0.7,0.8
2025-05-06T0300,2599A,100.2497,26.8802,丽江市,丽江古城,,25,10,18,8,11,77,,,,9,10,9,9,0.5,0.4
2025-05-06T0300,2600A,100.2203,26.8906,丽江市,市中心,,25,6,11,3,8,77,,,,3,4,7,7,0.4,0.3
2025-05-06T0300,1267A,119.914,28.4514,丽水市,监测站大楼,,27,27,28,15,13,0,,,,27,19,3,3,0.6,0.5
2025-05-06T0300,1268A,119.93,28.4586,丽水市,莲都小学,,28,28,28,8,13,2,,,,40,21,3,3,0.6,0.5
2025-05-06T0300,1269A,119.879,28.4231,丽水市,余庄前,,36,36,31,13,15,0,,,,7,13,4,4,0.5,0.4
2025-05-06T0300,1173A,119.176,34.5885,连云港市,市环境监测站,,42,34,24,29,14,89,,,,12,10,6,5,0.6,0.4
2025-05-06T0300,3000A,119.3581,34.6972,连云港市,德源药业,,32,29,20,17,11,100,,,,7,10,8,8,0.6,0.5
2025-05-06T0300,3007A,119.178,34.844,连云港市,新城一中,,34,34,29,21,11,81,,,,15,14,6,6,1.0,0.5
2025-05-06T0300,3008A,119.3608,34.7519,连云港市,胡沟管理处,,34,34,23,14,11,97,,,,12,28,12,14,0.8,0.6
2025-05-06T0300,3009A,119.1478,34.5911,连云港市,矿山设计院,,36,36,30,24,14,88,,,,14,14,8,8,0.7,0.5
2025-05-06T0300,3434A,119.2413,34.6539,连云港市,工贸学校,,30,30,18,20,16,92,,,,13,11,8,8,0.6,0.5
2025-05-06T0300,3664A,119.4172,34.7341,连云港市,连云街道,,29,25,32,11,14,92,,,,19,16,7,7,0.6,0.4
2025-05-06T0300,2571A,102.3431,27.8099,凉山彝族自治州,青龙寺,,25,25,20,3,4,30,,,,24,9,3,4,0.7,0.7
2025-05-06T0300,2572A,102.2721,27.8415,凉山彝族自治州,邛海宾馆,,,9,19,7,10,75,,,,8,12,,9,0.7,0.7
2025-05-06T0300,2573A,102.2625,27.898,凉山彝族自治州,西昌市政府,,18,14,18,9,10,55,,,,11,11,11,11,0.7,0.7
2025-05-06T0300,2574A,102.2685,27.8851,凉山彝族自治州,凉山州政府,,20,18,18,9,9,62,,,,13,13,9,7,0.7,0.7
2025-05-06T0300,4229A,102.2342,27.8859,凉山彝族自治州,凯乐南路30号,,20,16,18,3,7,63,,,,13,14,18,15,1.0,0.9
2025-05-06T0300,2212A,123.2,41.1953,辽阳市,宏伟区,,30,,22,20,8,94,,,,6,6,6,6,0.5,0.4
2025-05-06T0300,2213A,123.1683,41.2495,辽阳市,新华园,,29,12,28,12,13,91,,,,7,10,6,3,0.4,0.4
2025-05-06T0300,2214A,123.2354,41.2639,辽阳市,滨河路,,25,17,21,14,14,80,,,,15,13,6,7,0.3,0.3
2025-05-06T0300,2215A,123.149,41.2991,辽阳市,铁西工业园,,28,15,31,14,16,88,,,,4,10,9,10,0.3,0.3
2025-05-06T0300,2227A,125.1358,42.8845,辽源市,环保局,,33,33,38,19,16,34,,,,17,17,5,7,0.4,0.4
2025-05-06T0300,3239A,125.0764,42.9078,辽源市,银鹰制药,,38,38,28,18,17,27,,,,29,23,3,4,0.5,0.4
2025-05-06T0300,1625A,115.9848,36.4372,聊城市,区政府,颗粒物(PM10),105,160,164,53,48,66,,,,12,11,4,6,0.6,0.7
2025-05-06T0300,2878A,116.0072,36.4343,聊城市,聊大东校,颗粒物(PM10),109,168,157,62,57,62,,,,11,9,5,6,0.3,0.4
2025-05-06T0300,3200A,115.9819,36.4978,聊城市,监控中心,颗粒物(PM10),96,141,154,56,50,61,,,,13,13,6,7,0.4,0.5
2025-05-06T0300,3513A,116.0445,36.4361,聊城市,九州社区,颗粒物(PM10),101,152,124,56,42,78,,,,7,9,4,5,0.3,0.5
2025-05-06T0300,4018A,116.0567,36.4608,聊城市,星美广场,颗粒物(PM10),96,142,121,61,42,73,,,,15,18,8,9,0.5,0.6
2025-05-06T0300,2632A,94.3681,29.6376,林芝市,林芝监测站,,23,6,10,3,4,73,,,,2,4,6,5,0.3,0.2
2025-05-06T0300,2633A,94.3616,29.6616,林芝市,林芝人民医院,,24,10,13,3,5,75,,,,1,2,6,5,0.3,0.3
2025-05-06T0300,2603A,100.0781,23.8982,临沧市,市环保局,,39,,27,27,24,43,,,,10,9,5,7,0.5,0.5
2025-05-06T0300,2604A,100.0894,23.8822,临沧市,市气象局,,35,,24,24,19,43,,,,14,12,7,8,0.7,0.7
2025-05-06T0300,1733A,111.5531,36.0783,临汾市,临钢医院,颗粒物(PM10),339,451,466,84,90,77,,,,10,12,3,7,0.3,0.5
2025-05-06T0300,1734A,111.5028,36.0714,临汾市,技工学校,颗粒物(PM10),286,410,456,93,85,74,,,,11,7,4,8,0.3,0.5
2025-05-06T0300,1736A,111.5018,36.0855,临汾市,市委,颗粒物(PM10),300,420,473,78,90,80,,,,7,6,5,10,0.4,0.6
2025-05-06T0300,3018A,111.505,36.1014,临汾市,唐尧大酒店,颗粒物(PM10),243,380,402,78,81,79,,,,12,9,2,7,0.3,0.5
2025-05-06T0300,4244A,111.4879,36.0530,临汾市,启星学校,颗粒物(PM10),256,389,412,87,83,74,,,,9,8,4,8,0.3,0.5
2025-05-06T0300,4271A,103.2464,35.6123,临夏回族自治州,滨河东路1号,颗粒物(PM10),95,139,90,57,37,16,,,,25,16,5,6,0.5,0.5
2025-05-06T0300,4310A,103.2093,35.5995,临夏回族自治州,新华街21号,颗粒物(PM10),127,204,108,82,43,30,,,,32,18,6,5,0.6,0.4
2025-05-06T0300,1618A,118.3429,35.0532,临沂市,沂河小区,,39,39,40,16,29,97,,,,2,9,6,8,0.2,0.2
2025-05-06T0300,1619A,118.295,35.0583,临沂市,鲁南制药厂,,34,34,30,16,26,106,,,,9,18,3,6,0.4,0.4
2025-05-06T0300,1620A,118.2794,34.9976,临沂市,新光毛纺厂,,31,,21,19,26,99,,,,11,17,6,8,0.2,0.3
2025-05-06T0300,1621A,118.3956,35.0888,临沂市,河东保险公司,,30,24,27,14,16,96,,,,7,9,4,4,0.3,0.3
2025-05-06T0300,3370A,118.3564,35.0215,临沂市,十里堡居委,,27,27,27,17,21,74,,,,12,18,2,2,0.3,0.4
2025-05-06T0300,3496A,118.3604,35.1084,临沂市,南坊新区,,31,22,25,19,20,98,,,,7,12,5,6,0.3,0.3
2025-05-06T0300,3860A,118.3920,35.0300,临沂市,皇山花园小区,,31,27,29,20,23,98,,,,12,16,6,7,0.4,0.4
2025-05-06T0300,1870A,109.4856,24.3895,柳州市,柳东小学,,17,17,26,9,17,53,,,,6,8,18,10,0.8,0.7
2025-05-06T0300,1871A,109.4157,24.3277,柳州市,环保监测站,,31,31,31,6,21,55,,,,9,12,11,9,0.6,0.5
2025-05-06T0300,1872A,109.389,24.341,柳州市,河西水厂,,39,39,33,21,22,46,,,,10,12,14,6,0.8,0.8
2025-05-06T0300,1873A,109.4311,24.2921,柳州市,市四中,,18,16,32,12,18,56,,,,6,10,10,8,0.7,0.8
2025-05-06T0300,1874A,109.4006,24.3631,柳州市,市九中,,,26,32,,22,60,,,,7,10,10,8,0.7,0.7
2025-05-06T0300,1875A,109.4958,24.3134,柳州市,古亭山,,,34,29,,18,43,,,,3,7,8,6,0.8,0.8
2025-05-06T0300,3402A,109.5422,24.3996,柳州市,市二中,,24,24,26,16,18,38,,,,8,9,10,10,0.6,0.6
2025-05-06T0300,2307A,116.5079,31.737,六安市,监测大楼,,45,45,43,22,30,77,,,,11,10,5,5,0.4,0.4
2025-05-06T0300,2308A,116.4738,31.7643,六安市,皖西学院,,46,46,46,19,29,81,,,,11,12,5,5,0.4,0.4
2025-05-06T0300,2309A,116.4996,31.7905,六安市,朝阳厂,,43,43,41,19,28,88,,,,11,15,4,4,0.3,0.3
2025-05-06T0300,2310A,116.5567,31.7886,六安市,开发区,,,,27,,24,,,91,,,11,,4,,0.5
2025-05-06T0300,2576A,104.8,26.5892,六盘水市,窑上,,46,41,39,32,26,51,,,,8,8,5,6,0.5,0.5
2025-05-06T0300,2577A,104.83,26.5917,六盘水市,黄土坡,,36,29,30,25,23,70,,,,9,11,8,11,0.5,0.6
2025-05-06T0300,2578A,104.89,26.5939,六盘水市,水钢,,29,24,35,20,20,65,,,,12,11,8,10,0.4,0.5
2025-05-06T0300,2579A,104.8475,26.5894,六盘水市,民中,,28,28,34,17,19,69,,,,7,11,8,11,0.4,0.5
2025-05-06T0300,2580A,104.9544,26.5506,六盘水市,双水,,23,22,35,12,18,73,,,,8,11,8,10,0.4,0.5
2025-05-06T0300,2335A,117.0189,25.1181,龙岩市,龙岩师专,,,,,,,,,,,,,,,,
2025-05-06T0300,2336A,117.0217,25.1033,龙岩市,龙岩市监测站,,29,29,22,19,16,11,,,,24,14,4,3,0.6,0.6
2025-05-06T0300,2337A,117.0258,25.0661,龙岩市,闽西职业技术学院,,45,45,25,16,13,6,,,,25,12,13,5,0.5,0.5
2025-05-06T0300,2338A,117.0196,25.0306,龙岩市,龙岩学院,,21,21,21,14,14,17,,,,12,7,11,11,0.5,0.5
2025-05-06T0300,2665A,105.0822,33.3261,陇南市,汉王镇固水子,,,,,,,,,,,,,,,,
2025-05-06T0300,2885A,104.9339,33.3826,陇南市,滨江中学,颗粒物(PM10),62,73,47,36,23,50,,,,10,5,10,9,0.3,0.3
2025-05-06T0300,3247A,104.955,33.371,陇南市,市总工会,颗粒物(PM10),52,54,46,16,14,76,,,,2,4,7,7,0.2,0.3
2025-05-06T0300,2487A,111.9589,27.8901,娄底市,电视发射台,颗粒物(PM10),57,63,48,28,22,47,,,,4,4,6,5,0.6,0.5
2025-05-06T0300,2488A,111.9975,27.725,娄底市,市监测站,细颗粒物(PM2.5),75,76,51,55,29,44,,,,36,15,12,7,1.4,0.9
2025-05-06T0300,2489A,112.0194,27.7314,娄底市,市委党校,细颗粒物(PM2.5),64,76,50,46,32,42,,,,16,8,3,4,0.6,0.5
2025-05-06T0300,2490A,111.9561,27.7569,娄底市,涟钢,,,74,51,48,30,52,,,,8,9,,12,0.6,0.9
2025-05-06T0300,2491A,111.9892,27.7044,娄底市,市政府,颗粒物(PM10),56,62,44,38,30,46,,,,9,8,5,5,0.5,0.5
2025-05-06T0300,1893A,105.4324,28.9634,泸州市,九狮山,,,,,,,,,,,,,,,,
2025-05-06T0300,1894A,105.4427,28.9063,泸州市,小市上码头,颗粒物(PM10),60,70,42,31,18,25,,,,26,12,7,8,0.6,0.5
2025-05-06T0300,1895A,105.4241,28.8573,泸州市,兰田宪桥,颗粒物(PM10),51,52,39,32,22,27,,,,15,9,8,8,0.4,0.4
2025-05-06T0300,1896A,105.4379,28.8833,泸州市,市环监站,,,,,,,,,,,,,,,,
2025-05-06T0300,4272A,105.3689,28.7783,泸州市,纳溪中医医院,细颗粒物(PM2.5),63,61,43,45,25,16,,,,24,16,8,7,0.6,0.4
2025-05-06T0300,2183A,111.1406,37.5211,吕梁市,环保局,颗粒物(PM10),84,118,293,20,62,22,,,,38,17,1,3,0.3,0.4
2025-05-06T0300,2185A,111.1297,37.5136,吕梁市,自来水公司,颗粒物(PM10),65,79,247,23,58,36,,,,22,15,2,3,0.4,0.5
2025-05-06T0300,2867A,111.1283,37.51,吕梁市,马茂庄小学,颗粒物(PM10),64,77,307,21,64,22,,,,43,24,4,5,0.3,0.5
2025-05-06T0300,1812A,112.3931,34.6516,洛阳市,市委党校,颗粒物(PM10),209,356,266,133,76,91,,,,7,5,4,4,0.4,0.4
2025-05-06T0300,1815A,112.494,34.6886,洛阳市,河南林校,颗粒物(PM10),334,447,286,130,79,97,,,,4,9,4,6,0.1,0.2
2025-05-06T0300,1816A,112.3844,34.623,洛阳市,开发区管委会,颗粒物(PM10),279,405,265,212,112,96,,,,7,9,3,5,0.3,0.3
2025-05-06T0300,1817A,112.4267,34.6258,洛阳市,市委新办公区,颗粒物(PM10),286,410,263,94,72,95,,,,7,8,4,5,0.1,0.2
2025-05-06T0300,3340A,112.6005,34.6326,洛阳市,伊滨,颗粒物(PM10),343,454,234,116,73,101,,,,4,8,3,5,0.4,0.4
2025-05-06T0300,3341A,112.4951,34.6332,洛阳市,中移产业园,颗粒物(PM10),500,708,360,99,70,103,,,,4,8,2,5,0.2,0.3
2025-05-06T0300,3593A,112.5736,34.8993,洛阳市,吉利监测站,颗粒物(PM10),175,300,316,115,86,89,,,,10,9,8,7,0.2,0.3
2025-05-06T0300,3635A,112.3677,34.662,洛阳市,河科大西苑校区,颗粒物(PM10),283,408,313,82,61,98,,,,7,7,6,6,0.3,0.4
2025-05-06T0300,3636A,112.4388,34.6781,洛阳市,英才小学,颗粒物(PM10),296,417,305,98,74,104,,,,8,14,2,5,0.3,0.4
2025-05-06T0300,4214A,112.4600,34.6949,洛阳市,春都路1号院,颗粒物(PM10),292,414,328,85,77,104,,,,4,8,2,5,0.4,0.4
2025-05-06T0300,2399A,114.051,33.5699,漯河市,三五一五工厂,颗粒物(PM10),345,456,238,120,67,92,,,,7,9,4,6,0.5,0.5
2025-05-06T0300,2400A,114.0055,33.5698,漯河市,漯河大学,颗粒物(PM10),393,494,238,156,74,90,,,,6,10,6,6,0.3,0.3
2025-05-06T0300,2401A,114.0138,33.5828,漯河市,市水利局,颗粒物(PM10),500,635,277,141,75,89,,,,7,9,6,5,0.7,0.7
2025-05-06T0300,2402A,114.0261,33.5698,漯河市,市广电局,颗粒物(PM10),500,618,256,128,61,91,,,,5,8,4,5,0.2,0.3
2025-05-06T0300,3478A,113.9749,33.5664,漯河市,市图书馆,颗粒物(PM10),344,455,241,135,78,89,,,,10,13,5,5,0.4,0.4
2025-05-06T0300,4250A,114.0892,33.5882,漯河市,韶山路11号,颗粒物(PM10),286,410,234,118,70,85,,,,10,11,3,6,0.5,0.5
2025-05-06T0300,1798A,118.5092,31.6837,马鞍山市,湖东路四小,细颗粒物(PM2.5),85,88,47,63,34,43,,,,33,20,10,9,1.2,0.9
2025-05-06T0300,1799A,118.5024,31.6449,马鞍山市,开发区,细颗粒物(PM2.5),102,84,44,76,43,38,,,,28,22,8,7,1.4,0.8
2025-05-06T0300,1802A,118.6245,31.7241,马鞍山市,濮塘,细颗粒物(PM2.5),70,86,44,51,27,36,,,,26,13,7,7,1.5,0.8
2025-05-06T0300,3633A,118.4918,31.6809,马鞍山市,雨山,颗粒物(PM10),59,68,50,40,30,33,,,,43,22,6,8,1.3,1
2025-05-06T0300,4191A,118.5274,31.72227,马鞍山市,慈湖高新区,,,99,59,48,29,,,,,34,24,10,10,1.1,0.9
2025-05-06T0300,1686A,111.0286,21.4688,茂名市,电白南海,,25,24,27,17,17,31,,,,5,5,1,1,0.8,0.8
2025-05-06T0300,1687A,110.9294,21.6533,茂名市,茂石化七小,,27,27,32,7,11,28,,,,4,5,2,2,0.5,0.7
2025-05-06T0300,1688A,110.9107,21.6687,茂名市,健康路,,12,12,18,3,7,32,,,,1,3,3,2,0.7,0.7
2025-05-06T0300,1689A,110.8592,21.6828,茂名市,高岭,,29,29,34,3,7,27,,,,1,3,3,3,0.6,0.6
2025-05-06T0300,3450A,111.01,21.5165,茂名市,电白水东,,24,24,18,3,7,32,,,,7,7,3,3,0.7,0.7
2025-05-06T0300,2539A,104.0308,30.0478,眉山市,黑龙滩水库,,39,39,19,25,11,50,,,,7,4,1,2,0.5,0.4
2025-05-06T0300,2540A,103.8416,30.0874,眉山市,气象局,颗粒物(PM10),61,71,42,39,20,49,,,,25,17,15,14,0.5,0.3
2025-05-06T0300,3137A,103.8578,30.0744,眉山市,市委党校,,44,44,29,29,13,38,,,,23,17,8,8,0.5,0.4
2025-05-06T0300,3148A,103.8291,30.0564,眉山市,区人社局,颗粒物(PM10),54,57,36,34,17,30,,,,31,19,11,8,0.6,0.4
2025-05-06T0300,1690A,116.1231,24.3284,梅州市,梅江月梅,,32,29,24,22,20,32,,,,12,8,6,5,0.7,0.7
2025-05-06T0300,1691A,116.0797,24.2719,梅州市,梅县新城,,36,,23,25,18,45,,,,7,9,6,6,0.6,0.6
2025-05-06T0300,1692A,116.1248,24.2654,梅州市,环境监控中心,,29,20,26,20,19,39,,,,12,13,8,7,0.7,0.7
2025-05-06T0300,3315A,116.1233,24.2991,梅州市,梅龙,,23,17,22,16,17,45,,,,5,6,6,6,0.6,0.7
2025-05-06T0300,1878A,104.7778,31.4741,绵阳市,富乐山,颗粒物(PM10),52,53,32,27,16,52,,,,18,14,7,7,0.4,0.4
2025-05-06T0300,1880A,104.6697,31.4668,绵阳市,高新区自来水公司,颗粒物(PM10),56,62,37,31,20,31,,,,43,22,3,3,0.5,0.5
2025-05-06T0300,1881A,104.7287,31.5075,绵阳市,三水厂,颗粒物(PM10),57,63,37,33,19,17,,,,50,27,7,7,0.7,0.5
2025-05-06T0300,3491A,104.69,31.5322,绵阳市,西科大附属小学,颗粒物(PM10),56,61,46,29,22,18,,,,50,23,6,7,0.6,0.5
2025-05-06T0300,3492A,104.5648,31.5343,绵阳市,安州区旅游局,,49,49,38,24,18,46,,,,21,14,7,9,0.5,0.4
2025-05-06T0300,4226A,104.7651,31.4531,绵阳市,绵阳市气象局,颗粒物(PM10),51,52,34,32,18,43,,,,28,20,6,3,0.5,0.4
2025-05-06T0300,1784A,129.61,44.561,牡丹江市,环保大楼,,29,29,22,14,16,21,,,,24,13,5,6,0.3,0.3
2025-05-06T0300,1785A,129.6115,44.5782,牡丹江市,文化广场,,43,38,26,30,19,25,,,,29,17,10,9,0.5,0.4
2025-05-06T0300,1786A,129.5904,44.5963,牡丹江市,第一医院,,32,22,22,22,18,49,,,,9,9,6,7,0.4,0.4
2025-05-06T0300,1787A,129.6364,44.6075,牡丹江市,机车工厂,,36,36,27,24,14,34,,,,17,13,7,7,0.4,0.4
2025-05-06T0300,1788A,129.6386,44.5462,牡丹江市,第一中学,,25,17,22,17,14,25,,,,26,14,6,6,0.4,0.5
2025-05-06T0300,2531A,105.0703,29.61,内江市,市监测站,细颗粒物(PM2.5),228,,51,178,40,62,,,,18,10,16,12,1.4,0.7
2025-05-06T0300,2532A,105.0717,29.5947,内江市,东兴区政府,细颗粒物(PM2.5),212,,55,162,36,61,,,,20,12,21,16,1.1,0.4
2025-05-06T0300,2533A,105.0653,29.5817,内江市,内江二中,细颗粒物(PM2.5),217,176,59,167,40,56,,,,24,16,12,8,1.2,0.5
2025-05-06T0300,2534A,105.0406,29.5822,内江市,内江日报社,细颗粒物(PM2.5),210,,57,160,41,56,,,,18,10,16,13,1.2,0.5
2025-05-06T0300,2628A,92.0657,31.4846,那曲市,那曲监测站,,25,17,24,17,19,80,,,,13,17,6,8,0.6,0.5
2025-05-06T0300,4243A,92.0515,31.4787,那曲市,那曲市委宣传部,,,,31,,22,94,,,,5,10,6,6,0.2,0.4
2025-05-06T0300,1290A,115.8931,28.6843,南昌市,省外办,,40,40,23,24,17,53,,,,30,17,6,5,0.6,0.7
2025-05-06T0300,1291A,115.8886,28.7003,南昌市,省林业公司,,35,29,15,24,14,59,,,,19,10,7,7,0.8,0.7
2025-05-06T0300,1292A,115.8126,28.7442,南昌市,林科所,,46,46,16,24,12,18,,,,58,17,3,4,0.5,0.5
2025-05-06T0300,1294A,115.8518,28.687,南昌市,建工学校,,49,39,27,34,18,66,,,,21,16,4,4,0.7,0.7
2025-05-06T0300,1295A,115.8921,28.6424,南昌市,象湖,,42,42,23,27,12,59,,,,28,14,8,7,0.8,0.7
2025-05-06T0300,1296A,115.7423,28.7996,南昌市,武术学校,,20,16,19,14,12,5,,,,5,4,5,5,0.6,0.6
2025-05-06T0300,3046A,115.9084,28.6062,南昌市,机电学校,,42,42,24,29,15,60,,,,27,18,4,4,0.6,0.5
2025-05-06T0300,3690A,115.9721,28.7031,南昌市,外国语学校,,41,41,22,28,16,77,,,,18,11,7,7,0.5,0.4
2025-05-06T0300,4192A,115.9316,28.68677,南昌市,南京东路235号,,48,48,29,31,13,81,,,,20,14,11,9,1.0,0.9
2025-05-06T0300,1905A,106.056,30.8064,南充市,西山风景区,,,,,,,,,,,,,,,,
2025-05-06T0300,1906A,106.0789,30.8023,南充市,南充市委,细颗粒物(PM2.5),75,92,42,55,20,73,,,,18,14,7,5,0.7,0.4
2025-05-06T0300,1907A,106.1031,30.8217,南充市,南充炼油厂,细颗粒物(PM2.5),65,77,47,47,22,76,,,,18,12,8,5,0.6,0.4
2025-05-06T0300,4227A,106.1083,30.7884,南充市,梨树横街98号,颗粒物(PM10),59,68,43,28,19,77,,,,17,11,6,4,0.3,0.2
2025-05-06T0300,4304A,106.1172,30.843,南充市,清泉寺北路188号,颗粒物(PM10),59,67,43,41,17,59,,,,20,13,6,4,0.3,0.1
2025-05-06T0300,4305A,106.067,30.7616,南充市,同庆路1号,细颗粒物(PM2.5),73,77,44,53,23,63,,,,14,12,5,4,0.3,0.3
2025-05-06T0300,1151A,118.8086,32.1065,南京市,迈皋桥,细颗粒物(PM2.5),62,56,38,44,30,55,,,,20,25,4,4,0.9,0.8
2025-05-06T0300,1152A,118.7538,32.0551,南京市,草场门,细颗粒物(PM2.5),58,51,43,41,28,54,,,,25,27,3,3,0.6,0.3
2025-05-06T0300,1153A,118.7794,32.0745,南京市,山西路,细颗粒物(PM2.5),83,66,46,61,30,64,,,,23,26,4,4,0.7,0.5
2025-05-06T0300,1154A,118.7752,32.0023,南京市,中华门,细颗粒物(PM2.5),62,70,45,44,28,39,,,,23,22,4,5,0.6,0.6
2025-05-06T0300,1155A,118.8109,32.0309,南京市,瑞金路,颗粒物(PM10),58,66,47,39,29,45,,,,15,16,6,6,0.4,0.4
2025-05-06T0300,1156A,118.7997,32.0754,南京市,玄武湖,细颗粒物(PM2.5),65,70,43,47,27,52,,,,10,12,8,7,0.6,0.5
2025-05-06T0300,1157A,118.6414,32.0931,南京市,浦口,细颗粒物(PM2.5),57,56,33,40,20,31,,,,37,21,6,6,0.8,0.6
2025-05-06T0300,1158A,118.7356,31.9996,南京市,奥体中心,细颗粒物(PM2.5),67,67,45,48,27,55,,,,18,16,4,3,0.8,0.5
2025-05-06T0300,1159A,118.9125,32.1028,南京市,仙林大学城,细颗粒物(PM2.5),70,58,40,51,30,58,,,,22,24,10,10,0.7,0.6
2025-05-06T0300,3422A,118.8436,31.9198,南京市,江宁彩虹桥,颗粒物(PM10),51,51,40,34,25,38,,,,31,25,3,4,0.7,0.5
2025-05-06T0300,3427A,118.8554,32.3578,南京市,六合雄州,颗粒物(PM10),61,71,47,42,26,42,,,,51,36,5,5,0.9,0.5
2025-05-06T0300,4249A,118.8708,31.3402,南京市,汶溪路181号,,40,37,25,28,24,78,,,,18,22,12,4,0.7,0.6
2025-05-06T0300,4312A,119.019,31.6512,南京市,中山西路1号,,50,36,29,35,23,79,,,,10,18,8,6,1.0,0.8
2025-05-06T0300,1401A,108.3103,22.7881,南宁市,二十一中,,23,,30,12,18,73,,,,15,7,5,2,0.6,0.6
2025-05-06T0300,1402A,108.3141,22.8528,南宁市,北湖,,25,15,34,8,22,77,,,,11,8,4,5,0.7,0.7
2025-05-06T0300,1403A,108.3206,22.8225,南宁市,市监测站,,,,34,14,20,68,,,,9,6,5,5,0.4,0.4
2025-05-06T0300,1404A,108.3829,22.8037,南宁市,大自然花园,,22,,31,14,19,69,,,,6,5,4,5,0.5,0.5
2025-05-06T0300,1405A,108.4394,22.7904,南宁市,仙葫,,19,,28,11,18,60,,,,13,5,6,6,0.6,0.6
2025-05-06T0300,1406A,108.2397,22.8467,南宁市,区农职院,,23,7,35,6,20,72,,,,8,9,5,4,0.7,0.5
2025-05-06T0300,1407A,108.3275,22.735,南宁市,英华嘉园,,25,16,29,8,20,78,,,,13,10,8,7,0.4,0.4
2025-05-06T0300,3401A,108.4834,22.7618,南宁市,红星社区,,29,9,30,8,19,90,,,,7,5,8,8,0.5,0.5
2025-05-06T0300,4221A,108.2177,22.7774,南宁市,乐贤路16号,,27,,37,14,22,84,,,,5,10,4,4,0.4,0.5
2025-05-06T0300,2331A,118.0966,26.6761,南平市,茫荡山,,,,,,,,,,,,,,,,
2025-05-06T0300,2332A,118.1681,26.6369,南平市,南平市监测站,,25,21,26,17,18,18,,,,13,13,4,5,0.8,1
2025-05-06T0300,2333A,118.1825,26.6489,南平市,南平铝业有限公司,,24,24,28,13,18,13,,,,15,11,6,5,0.7,0.8
2025-05-06T0300,2334A,118.1756,26.6272,南平市,南平七中,,25,,25,17,15,21,,,,12,11,5,5,0.7,0.7
2025-05-06T0300,1168A,120.9098,31.9663,南通市,狼山街道,,39,39,31,27,19,18,,,,32,24,3,3,0.8,0.6
2025-05-06T0300,1169A,120.86,32.0005,南通市,虹桥,细颗粒物(PM2.5),54,40,31,38,26,45,,,,46,27,3,3,0.9,0.8
2025-05-06T0300,1170A,120.87,32.02,南通市,城中,颗粒物(PM10),67,84,36,36,21,41,,,,48,26,4,3,0.8,0.6
2025-05-06T0300,1171A,120.94,31.93,南通市,星湖花园,,38,38,26,26,22,55,,,,29,30,4,3,0.9,0.7
2025-05-06T0300,1172A,120.81,32.0417,南通市,紫琅学院,颗粒物(PM10),51,51,28,34,22,38,,,,37,21,6,5,0.6,0.6
2025-05-06T0300,3291A,121.067,32.062,南通市,通州监测站,,48,48,30,29,19,36,,,,21,13,5,4,0.7,0.6
2025-05-06T0300,3432A,120.9348,31.9883,南通市,环境教育馆,,46,46,31,32,22,30,,,,18,17,2,2,0.4,0.3
2025-05-06T0300,2404A,112.5224,33.0122,南阳市,瓦房庄,颗粒物(PM10),178,305,138,66,40,88,,,,11,13,6,6,0.5,0.5
2025-05-06T0300,2405A,112.5003,32.9735,南阳市,汉画馆,颗粒物(PM10),78,105,113,23,35,76,,,,15,14,6,6,0.3,0.3
2025-05-06T0300,2406A,112.5573,33.027,南阳市,气象站,颗粒物(PM10),427,527,169,114,52,88,,,,9,11,5,5,0.1,0.2
2025-05-06T0300,2407A,112.5481,32.9689,南阳市,理工学院,颗粒物(PM10),75,99,113,37,38,74,,,,17,15,4,5,0.4,0.4
2025-05-06T0300,4008A,112.5234,32.9922,南阳市,卧龙区政府,颗粒物(PM10),155,259,134,60,44,89,,,,12,14,5,4,0.5,0.5
2025-05-06T0300,1234A,121.8358,29.911,宁波市,区环保大楼,颗粒物(PM10),51,52,37,33,14,96,,,,4,15,8,9,0.6,0.5
2025-05-06T0300,1235A,121.56,29.82,宁波市,万里学院,细颗粒物(PM2.5),58,,31,41,26,104,,,,15,17,6,5,0.6,0.5
2025-05-06T0300,1236A,121.713,29.9572,宁波市,龙赛医院,颗粒物(PM10),52,54,36,30,17,85,,,,12,13,6,6,0.5,0.5
2025-05-06T0300,1239A,121.633,29.7733,宁波市,钱湖水厂,,46,42,30,32,19,78,,,,14,12,9,8,0.5,0.4
2025-05-06T0300,1240A,121.5856,29.8635,宁波市,太古小学,颗粒物(PM10),58,66,41,32,22,90,,,,14,14,7,6,1.0,0.8
2025-05-06T0300,1241A,121.524,29.8674,宁波市,市环境监测中心,,44,44,32,30,18,83,,,,22,21,11,10,0.8,0.6
2025-05-06T0300,2871A,121.6147,29.9017,宁波市,万里国际学校,颗粒物(PM10),58,65,34,36,20,78,,,,22,18,8,8,0.8,0.6
2025-05-06T0300,3710A,121.5594,29.8975,宁波市,白沙活动中心,,48,40,25,33,16,86,,,,11,12,7,7,0.5,0.4
2025-05-06T0300,2339A,119.5001,26.6946,宁德市,金涵水库,,,,,,,,,,,,,,,,
2025-05-06T0300,2341A,119.5388,26.6612,宁德市,宁德市监测站,,50,50,46,25,27,6,,,,32,29,5,6,0.8,0.7
2025-05-06T0300,3209A,119.5231,26.6562,宁德市,宁德一中,,45,39,39,31,27,20,,,,12,14,2,4,0.5,0.5
2025-05-06T0300,2618A,98.8601,25.8567,怒江傈僳族自治州,州监测站,,22,21,27,15,15,54,,,,7,7,8,7,0.3,0.3
2025-05-06T0300,2619A,98.8546,25.8417,怒江傈僳族自治州,泸水一中,,14,14,29,9,15,24,,,,18,15,6,6,0.3,0.3
2025-05-06T0300,1888A,101.6891,26.571,攀枝花市,弄弄坪,,,26,26,12,13,86,,,,10,13,,10,0.5,0.7
2025-05-06T0300,1889A,101.5769,26.5928,攀枝花市,河门口,颗粒物(PM10),52,54,41,17,14,39,,,,24,15,24,19,1.0,0.8
2025-05-06T0300,1890A,101.7169,26.585,攀枝花市,炳草岗,,,,36,33,18,48,,,,33,27,,15,0.6,0.5
2025-05-06T0300,1891A,101.7369,26.5008,攀枝花市,仁和,,32,32,21,16,13,58,,,,14,11,11,10,0.5,0.4
2025-05-06T0300,2835A,101.7227,26.567,攀枝花市,四十中小,,32,24,23,13,14,102,,,,5,17,8,10,0.4,0.6
2025-05-06T0300,1604A,122.0303,41.1489,盘锦市,开发区,细颗粒物(PM2.5),52,,28,36,36,39,,,,22,20,8,9,0.7,0.5
2025-05-06T0300,1605A,122.0485,41.0883,盘锦市,兴隆台,,24,,29,14,17,75,,,,14,23,7,9,0.8,0.6
2025-05-06T0300,1606A,121.8297,41.1028,盘锦市,新生街道,细颗粒物(PM2.5),54,,20,38,20,45,,,,26,18,7,8,0.5,0.4
2025-05-06T0300,1832A,113.3257,33.742,平顶山市,新华旅馆,颗粒物(PM10),500,700,275,82,49,97,,,,7,10,4,5,0.3,0.3
2025-05-06T0300,1833A,113.2919,33.737,平顶山市,规划设计院,颗粒物(PM10),500,689,250,198,75,85,,,,9,10,4,5,0.3,0.4
2025-05-06T0300,1834A,113.182,33.774,平顶山市,平顶山工学院,颗粒物(PM10),458,558,250,132,68,97,,,,4,5,4,5,0,0
2025-05-06T0300,3204A,113.3025,33.73,平顶山市,规划局,颗粒物(PM10),500,744,274,151,58,88,,,,6,7,6,6,0.3,0.3
2025-05-06T0300,3594A,112.8867,33.9116,平顶山市,石龙区,颗粒物(PM10),500,786,349,158,86,98,,,,8,9,6,6,0.2,0.2
2025-05-06T0300,2656A,106.6692,35.5461,平凉市,聚贤嘉苑,颗粒物(PM10),161,272,380,71,83,50,,,,31,29,22,13,0.9,0.8
2025-05-06T0300,2657A,106.7021,35.5307,平凉市,博物馆,颗粒物(PM10),173,295,353,79,72,62,,,,13,10,9,8,0.5,0.5
2025-05-06T0300,2347A,114.0997,27.5002,萍乡市,武功山,,15,13,17,10,13,21,,,,5,7,13,14,0.5,0.6
2025-05-06T0300,2348A,113.8385,27.6434,萍乡市,中医院,细颗粒物(PM2.5),69,76,44,50,31,41,,,,17,8,16,11,1.8,1
2025-05-06T0300,2349A,113.8493,27.6253,萍乡市,市政府车库,,33,33,32,23,31,53,,,,12,11,5,6,0.6,0.7
2025-05-06T0300,2350A,113.8676,27.6435,萍乡市,市环保局,,33,32,35,23,25,56,,,,12,10,7,6,0.9,0.8
2025-05-06T0300,2351A,113.866,27.6198,萍乡市,安源区政府,,30,28,34,21,28,37,,,,10,11,2,3,0.6,0.7
2025-05-06T0300,2319A,119.0141,25.4325,莆田市,荔城区仓后路,细颗粒物(PM2.5),70,73,59,51,36,31,,,,27,20,4,4,0.8,0.7
2025-05-06T0300,2320A,119.0015,25.4553,莆田市,莆田市监测站,细颗粒物(PM2.5),57,46,54,40,33,40,,,,12,13,4,6,0.6,0.5
2025-05-06T0300,2321A,119.1119,25.4561,莆田市,涵江区六中,细颗粒物(PM2.5),67,62,54,48,37,24,,,,40,24,6,6,0.5,0.5
2025-05-06T0300,2322A,119.1013,25.3215,莆田市,秀屿区政府,,43,38,41,30,30,40,,,,18,14,9,7,0.6,0.5
2025-05-06T0300,2323A,118.981,25.4792,莆田市,东圳水库,,,,,,,,,,,,,,,,
2025-05-06T0300,2392A,115.0312,35.7636,濮阳市,环保局,颗粒物(PM10),193,336,275,61,65,84,,,,13,13,6,7,0.5,0.6
2025-05-06T0300,2394A,115.0574,35.7609,濮阳市,油田运输公司,颗粒物(PM10),162,274,276,76,65,91,,,,11,13,6,6,0.5,0.6
2025-05-06T0300,3021A,115,35.7668,濮阳市,濮水河管理处,颗粒物(PM10),172,294,287,61,66,82,,,,11,11,5,6,0.5,0.7
2025-05-06T0300,4216A,115.0924,35.7686,濮阳市,任丘路479号,颗粒物(PM10),158,265,287,60,68,84,,,,12,11,5,6,0.4,0.6
2025-05-06T0300,2601A,100.98,22.7633,普洱市,市环保局,,37,37,33,13,15,36,,,,8,7,6,7,0.5,0.4
2025-05-06T0300,2602A,100.9817,22.8322,普洱市,普洱第二中学,,28,28,22,9,14,26,,,,27,14,6,6,0.5,0.5
2025-05-06T0300,2262A,131.0518,45.8751,七台河市,新一中,,20,20,22,12,10,50,,,,7,10,11,11,0.6,0.7
2025-05-06T0300,3345A,131.0577,45.7879,七台河市,中波台,,21,21,21,14,9,44,,,,18,16,7,6,0.6,0.5
2025-05-06T0300,3637A,131.0176,45.7761,七台河市,人民广场,,34,34,29,18,18,55,,,,18,15,10,10,0.5,0.5
2025-05-06T0300,3684A,130.8781,45.8222,七台河市,新建矿广场,,19,14,43,13,14,42,,,,11,15,9,10,0.5,0.5
2025-05-06T0300,1779A,123.9305,47.3636,齐齐哈尔市,安居小区,,28,28,21,12,6,66,,,,9,10,4,3,0.3,0.3
2025-05-06T0300,1780A,123.9488,47.3386,齐齐哈尔市,中心广场,,29,29,21,9,7,71,,,,9,10,11,8,0.3,0.3
2025-05-06T0300,1781A,123.9483,47.3227,齐齐哈尔市,农牧车辆厂,,31,31,21,7,16,67,,,,9,7,5,4,0.4,0.3
2025-05-06T0300,1783A,123.945,47.2988,齐齐哈尔市,市环境监测站,,36,36,24,6,8,66,,,,8,6,3,3,0.5,0.4
2025-05-06T0300,3662A,123.6333,47.2075,齐齐哈尔市,富区青少年活动中心,,29,29,28,19,13,51,,,,18,7,4,3,0.5,0.4
2025-05-06T0300,2591A,107.9783,26.5747,黔东南苗族侗族自治州,市环境监测站,,29,25,19,20,14,20,,,,10,10,2,3,0.5,0.5
2025-05-06T0300,2881A,107.8908,26.5311,黔东南苗族侗族自治州,凯里学院,,19,19,13,13,13,13,,,,11,7,2,1,0.4,0.4
2025-05-06T0300,2593A,107.5228,26.2403,黔南布依族苗族自治州,小围寨,,24,24,19,9,12,9,,,,10,7,2,2,0.3,0.3
2025-05-06T0300,3538A,107.5175,26.2978,黔南布依族苗族自治州,沙坝,,27,27,25,14,14,14,,,,6,6,3,4,0.4,0.4
2025-05-06T0300,2589A,104.9022,25.0925,黔西南布依族苗族自治州,场坝街,,40,40,36,27,21,84,,,,6,13,5,18,0.4,0.4
2025-05-06T0300,2590A,104.8811,25.0992,黔西南布依族苗族自治州,坪东大道,,50,35,34,35,21,86,,,,9,15,4,6,0.3,0.3
2025-05-06T0300,2502A,108.6236,21.9667,钦州市,市环保站,,19,19,27,7,12,51,,,,8,12,2,3,0.6,0.7
2025-05-06T0300,2503A,108.6549,21.9481,钦州市,沙埠小学,,31,31,33,14,18,51,,,,9,11,5,8,0.6,0.6
2025-05-06T0300,2504A,108.5989,21.7431,钦州市,港区一小,,35,35,44,15,13,41,,,,13,9,11,10,0.8,0.5
2025-05-06T0300,3404A,108.5959,21.9633,钦州市,北职校,,27,27,32,12,15,44,,,,9,10,5,7,0.5,0.6
2025-05-06T0300,1043A,119.7493,40.0116,秦皇岛市,第一关,细颗粒物(PM2.5),68,55,44,49,30,51,,,,20,33,5,4,0.3,0.3
2025-05-06T0300,1044A,119.5897,39.9499,秦皇岛市,监测站,细颗粒物(PM2.5),65,62,58,47,29,50,,,,15,26,4,4,0.4,0.4
2025-05-06T0300,1046A,119.5251,39.9041,秦皇岛市,建设大厦,细颗粒物(PM2.5),60,50,48,43,30,55,,,,18,29,2,3,0.4,0.4
2025-05-06T0300,3132A,119.610547,39.943889,秦皇岛市,文明里,颗粒物(PM10),54,58,51,35,27,50,,,,17,24,4,4,0.3,0.3
2025-05-06T0300,4198A,119.5090,39.8253,秦皇岛市,北戴河轮滑馆,细颗粒物(PM2.5),58,63,38,41,26,59,,,,17,19,3,4,0.3,0.4
2025-05-06T0300,1307A,120.6659,36.2403,青岛市,仰口,,,,18,,13,,,113,,,6,,6,,0.4
2025-05-06T0300,1310A,120.4134,36.0658,青岛市,市南区东部子站,,31,14,24,9,9,97,,,,4,7,7,7,0.3,0.3
2025-05-06T0300,1311A,120.3664,36.1032,青岛市,四方区子站,,35,7,18,3,8,109,,,,8,13,2,3,0.5,0.5
2025-05-06T0300,1312A,120.2994,36.054,青岛市,市南区西部子站,,30,12,19,7,7,94,,,,16,19,7,7,0.6,0.6
2025-05-06T0300,1313A,120.4581,36.0858,青岛市,崂山区子站,,34,6,16,3,4,107,,,,6,8,7,8,0.4,0.4
2025-05-06T0300,1315A,120.3999,36.3083,青岛市,城阳区子站,,26,17,20,10,9,83,,,,9,11,4,4,0.3,0.3
2025-05-06T0300,1966A,120.0405,35.8735,青岛市,黄岛区4号,,31,9,18,3,5,97,,,,11,9,8,8,0.5,0.4
2025-05-06T0300,3362A,120.5014,36.4034,青岛市,即墨2号,,31,,21,12,9,98,,,,4,4,6,6,0.5,0.5
2025-05-06T0300,3642A,120.3503,36.0736,青岛市,市北区南部,,29,19,21,3,8,90,,,,6,5,6,8,0.7,0.7
2025-05-06T0300,3643A,120.3948,36.1805,青岛市,李沧区北部,,27,7,16,3,11,84,,,,12,13,8,8,0.4,0.4
2025-05-06T0300,4290A,120.1969,35.9546,青岛市,珠江路669号,,30,7,17,3,12,95,,,,9,6,6,6,0.5,0.5
2025-05-06T0300,1702A,113.0426,23.691,清远市,环保大楼,,24,8,28,3,16,75,,,,8,16,5,5,0.7,0.7
2025-05-06T0300,1703A,113.0208,23.7106,清远市,凤城街办,,,9,24,3,16,63,,,,10,20,,5,0.4,0.5
2025-05-06T0300,3025A,113.0477,23.6344,清远市,技师学院,,18,18,26,10,15,47,,,,14,17,8,7,0.4,0.5
2025-05-06T0300,3318A,112.9903,23.7403,清远市,清新太和,,,13,28,6,18,46,,,,11,14,,7,0.6,0.6
2025-05-06T0300,3455A,113.076,23.7198,清远市,清城东城,,19,17,28,9,15,58,,,,11,12,8,7,0.3,0.5
2025-05-06T0300,2661A,107.6325,35.7357,庆阳市,庆阳五中,颗粒物(PM10),324,439,454,139,115,82,,,,2,6,2,4,0.4,0.4
2025-05-06T0300,2662A,107.6364,35.7067,庆阳市,市环保局,颗粒物(PM10),299,419,424,140,110,80,,,,4,5,4,8,0.4,0.4
2025-05-06T0300,1916A,103.7897,25.5035,曲靖市,环境监测站,颗粒物(PM10),52,53,40,33,19,89,,,,20,18,8,9,0.6,0.5
2025-05-06T0300,1917A,103.8,25.5364,曲靖市,烟厂办公区,,48,48,39,25,22,97,,,,12,17,3,8,0.6,0.5
2025-05-06T0300,3376A,103.7947,25.462,曲靖市,南苑二区,颗粒物(PM10),57,63,38,32,19,96,,,,14,12,12,7,0.7,0.5
2025-05-06T0300,3377A,103.7444,25.5261,曲靖市,曲靖师范学院,细颗粒物(PM2.5),60,45,38,43,29,99,,,,9,16,10,14,0.5,0.5
2025-05-06T0300,1264A,118.8692,28.9398,衢州市,环保大楼,,25,25,32,12,17,28,,,,20,13,4,3,0.6,0.5
2025-05-06T0300,1265A,118.8709,28.9666,衢州市,实验学校,,26,26,25,16,19,32,,,,22,16,6,6,0.5,0.5
2025-05-06T0300,1266A,118.8621,28.9808,衢州市,衢州学院,,27,27,28,18,20,38,,,,17,19,3,3,0.5,0.5
2025-05-06T0300,1611A,118.5819,24.9117,泉州市,涂山街,颗粒物(PM10),63,75,48,42,28,12,,,,54,19,13,7,0.7,0.6
2025-05-06T0300,1612A,118.5972,24.8978,泉州市,津头埔,细颗粒物(PM2.5),65,70,47,47,28,14,,,,53,23,11,5,0.7,0.6
2025-05-06T0300,1613A,118.6663,24.9424,泉州市,万安,,43,40,42,30,24,20,,,,30,17,4,4,0.7,0.6
2025-05-06T0300,1614A,118.6117,24.9604,泉州市,清源山,,,,,,,,,,,,,,,,
2025-05-06T0300,3529A,118.6333,24.9264,泉州市,城华南路,"颗粒物(PM10),细颗粒物(PM2.5)",53,56,42,37,26,23,,,,32,18,6,4,0.6,0.6
2025-05-06T0300,2626A,88.8876,29.2718,日喀则市,日喀则监测站,,39,15,14,6,4,122,,,,3,6,7,8,0.4,0.4
2025-05-06T0300,3726A,88.8781,29.2426,日喀则市,林业技术推广中心,,39,8,19,3,4,124,,,,3,3,7,7,0.3,0.3
2025-05-06T0300,1659A,119.471,35.4209,日照市,监测站,,27,14,25,7,12,86,,,,13,12,5,5,0.5,0.4
2025-05-06T0300,1660A,119.523,35.4216,日照市,市政府广场,,27,7,23,6,8,84,,,,7,6,4,4,0.4,0.4
2025-05-06T0300,1661A,119.5587,35.4044,日照市,港务局,,33,14,20,14,16,103,,,,8,8,6,7,0.7,0.6
2025-05-06T0300,3507A,119.5328,35.4625,日照市,职业技术学院,,30,14,20,7,8,93,,,,5,3,4,4,0.5,0.4
2025-05-06T0300,3604A,119.3266,35.1044,日照市,岚山环保分局,,29,27,23,20,15,75,,,,25,17,17,6,2.3,0.6
2025-05-06T0300,1835A,111.1922,34.7752,三门峡市,市政府,颗粒物(PM10),303,422,297,145,109,104,,,,6,13,4,7,0.5,0.5
2025-05-06T0300,1836A,111.1587,34.7942,三门峡市,开发区,颗粒物(PM10),191,331,309,91,93,104,,,,6,8,5,7,0.4,0.5
2025-05-06T0300,1838A,111.143,34.7955,三门峡市,风景区,,,,273,,90,,,108,,,8,,9,,0.3
2025-05-06T0300,3039A,111.1911,34.7829,三门峡市,三门峡市第一小学,颗粒物(PM10),307,425,381,87,90,108,,,,9,11,8,10,0.4,0.4
2025-05-06T0300,3598A,111.1,34.7167,三门峡市,富达温泉假日酒店,颗粒物(PM10),406,506,412,168,88,99,,,,7,10,8,7,0.7,0.7
2025-05-06T0300,2324A,117.6211,26.2625,三明市,三钢,,29,25,25,20,17,22,,,,22,16,14,11,1.8,1.7
2025-05-06T0300,2325A,117.635,26.2714,三明市,三明二中,,28,21,22,19,17,23,,,,22,15,9,6,0.6,0.6
2025-05-06T0300,2326A,117.6028,26.2378,三明市,三元区政府,,31,31,26,14,14,17,,,,19,16,6,5,0.5,0.6
2025-05-06T0300,2327A,117.7275,26.3108,三明市,洋溪,,,,,,,,,,,,,,,,
2025-05-06T0300,1876A,109.5078,18.2489,三亚市,河东子站,,18,16,17,12,10,28,,,,3,4,4,4,0.3,0.2
2025-05-06T0300,1877A,109.4964,18.2681,三亚市,河西子站,,21,21,17,8,10,16,,,,11,6,2,2,0.2,0.2
2025-05-06T0300,3540A,109.7348,18.3443,三亚市,君悦子站,,19,19,16,12,9,10,,,,13,7,2,3,0.1,0.2
2025-05-06T0300,2624A,91.7608,29.2313,山南市,山南监测站,,32,,13,12,9,102,,,,12,7,5,4,0.3,0.4
2025-05-06T0300,2625A,91.7706,29.2436,山南市,山南人民医院,,35,10,24,3,10,110,,,,10,9,7,5,0.4,0.4
2025-05-06T0300,1674A,116.6794,23.3667,汕头市,金平子站,,26,25,32,18,20,36,,,,16,12,5,5,0.7,0.7
2025-05-06T0300,1675A,116.7244,23.3633,汕头市,龙湖子站,,24,24,34,13,16,44,,,,5,5,4,4,0.5,0.6
2025-05-06T0300,1676A,116.7258,23.2775,汕头市,濠江子站,,24,24,34,15,21,43,,,,10,10,4,4,0.4,0.5
2025-05-06T0300,1677A,116.7519,23.4714,汕头市,澄海子站,,,33,40,21,21,42,,,,13,13,,2,0.7,0.7
2025-05-06T0300,1678A,116.6092,23.2539,汕头市,潮阳子站,,31,31,49,16,17,46,,,,10,9,7,7,0.4,0.5
2025-05-06T0300,3444A,116.454,23.2684,汕头市,潮南峡山,,44,44,34,19,19,34,,,,5,3,5,5,0.6,0.6
2025-05-06T0300,3624A,116.4069,23.2533,汕头市,潮南子站,,28,27,33,19,19,47,,,,2,4,4,4,0.5,0.6
2025-05-06T0300,1693A,115.3653,22.775,汕尾市,市环保局,,,26,28,11,16,56,,,,3,4,,6,0.5,0.5
2025-05-06T0300,1694A,115.3706,22.7898,汕尾市,市政府,,33,27,29,23,18,47,,,,5,6,4,4,0.4,0.3
2025-05-06T0300,1695A,115.3622,22.7925,汕尾市,新城中学,,23,23,31,13,17,49,,,,4,4,8,8,0.3,0.3
2025-05-06T0300,2645A,109.9154,33.8715,商洛市,监测站,颗粒物(PM10),337,449,162,214,77,103,,,,4,7,4,5,0.2,0.3
2025-05-06T0300,3045A,109.9643,33.8471,商洛市,商州区中学,颗粒物(PM10),500,640,249,203,79,97,,,,6,11,3,3,0.3,0.3
2025-05-06T0300,2408A,115.6702,34.4285,商丘市,环境监测站,颗粒物(PM10),236,375,161,93,47,75,,,,13,12,3,3,0.3,0.4
2025-05-06T0300,2409A,115.6458,34.4045,商丘市,粮食局,颗粒物(PM10),289,412,166,117,55,84,,,,8,11,2,3,0.2,0.4
2025-05-06T0300,2410A,115.6293,34.3948,商丘市,睢阳区环保局,颗粒物(PM10),310,428,167,116,53,85,,,,11,15,1,3,0.3,0.4
2025-05-06T0300,3171A,115.6071,34.4465,商丘市,梁园区档案局,颗粒物(PM10),246,382,177,106,53,72,,,,13,11,3,3,0.3,0.4
2025-05-06T0300,1141A,121.4,31.238,上海市,普陀,细颗粒物(PM2.5),95,,41,71,35,62,,,,21,25,6,5,1.0,0.7
2025-05-06T0300,1142A,121.478,31.2036,上海市,十五厂,细颗粒物(PM2.5),87,,42,64,31,76,,,,19,24,10,8,1.2,0.8
2025-05-06T0300,1143A,121.467,31.3008,上海市,虹口,细颗粒物(PM2.5),79,61,44,58,30,55,,,,14,19,8,7,1.4,1
2025-05-06T0300,1147A,121.425,31.2261,上海市,静安监测站,细颗粒物(PM2.5),85,,41,63,31,68,,,,22,26,10,8,1.3,1
2025-05-06T0300,1148A,121.703,31.1907,上海市,浦东川沙,细颗粒物(PM2.5),97,,39,72,26,69,,,,19,22,6,6,1.0,0.8
2025-05-06T0300,1149A,121.533,31.2284,上海市,浦东新区监测站,细颗粒物(PM2.5),79,,38,58,26,77,,,,20,24,9,7,1.1,0.7
2025-05-06T0300,1150A,121.577,31.2071,上海市,浦东张江,细颗粒物(PM2.5),87,,40,64,31,72,,,,18,20,6,5,1.3,1
2025-05-06T0300,3265A,121.4316,31.3322,上海市,宝山庙行,细颗粒物(PM2.5),89,,44,66,32,56,,,,20,25,8,6,1.2,0.7
2025-05-06T0300,3266A,121.8791,31.4662,上海市,崇明上实东滩,细颗粒物(PM2.5),133,128,35,101,24,68,,,,9,11,1,1,0.3,0.3
2025-05-06T0300,3268A,121.3162,31.2838,上海市,嘉定南翔,细颗粒物(PM2.5),85,,43,63,34,33,,,,42,30,6,6,1.0,0.9
2025-05-06T0300,3269A,121.3359,30.7456,上海市,金山新城,细颗粒物(PM2.5),98,92,46,73,29,62,,,,17,16,3,2,1.0,0.7
2025-05-06T0300,3270A,121.4996,31.0739,上海市,闵行浦江,细颗粒物(PM2.5),103,,41,77,34,54,,,,27,25,7,4,1.5,0.9
2025-05-06T0300,3271A,121.2886,31.1663,上海市,青浦徐泾,细颗粒物(PM2.5),78,70,49,57,33,32,,,,41,29,6,5,0.8,0.7
2025-05-06T0300,3272A,121.2186,31.0378,上海市,松江图书馆,细颗粒物(PM2.5),87,91,53,64,31,57,,,,19,25,7,7,1.0,0.7
2025-05-06T0300,3273A,121.3902,31.2059,上海市,长宁仙霞,细颗粒物(PM2.5),84,,39,62,34,32,,,,28,28,7,7,1.4,1
2025-05-06T0300,3274A,121.7965,31.0507,上海市,浦东惠南,细颗粒物(PM2.5),112,,34,84,31,59,,,,18,18,7,7,1.2,0.9
2025-05-06T0300,3544A,121.4891,30.925,上海市,奉贤南桥新城,细颗粒物(PM2.5),137,,41,104,44,59,,,,25,25,3,2,1.0,0.7
2025-05-06T0300,4183A,121.4174,31.16637,上海市,冠生园路458号,细颗粒物(PM2.5),90,,44,67,35,30,,,,20,24,8,7,1.3,0.9
2025-05-06T0300,4205A,121.5419,31.2683,上海市,宁武路151号,细颗粒物(PM2.5),63,62,48,45,22,70,,,,18,30,5,4,1.4,0.8
2025-05-06T0300,2381A,118.005,28.4572,上饶市,百草园,,,,,,,,,,,,,,,,
2025-05-06T0300,2382A,117.9756,28.4436,上饶市,市监测站,,27,27,33,13,18,64,,,,11,12,19,8,0.6,0.6
2025-05-06T0300,2383A,117.9519,28.4628,上饶市,凤凰光学,,32,32,30,18,20,51,,,,8,13,71,20,0.9,0.8
2025-05-06T0300,3685A,117.897,28.4315,上饶市,双创科技城,,29,29,30,18,22,50,,,,27,19,65,16,1.0,0.8
2025-05-06T0300,4211A,118.1904,28.4448,上饶市,裕丰大道,,34,34,31,16,21,59,,,,10,9,21,9,0.5,0.5
2025-05-06T0300,1669A,113.5824,24.7733,韶关市,市八中,,39,39,30,24,16,19,,,,18,19,11,10,0.7,0.6
2025-05-06T0300,1671A,113.5917,24.7972,韶关市,园林处,,26,26,19,16,13,19,,,,10,12,10,7,0.5,0.5
2025-05-06T0300,1673A,113.5971,24.6863,韶关市,曲江监测站,,41,41,25,21,15,22,,,,21,18,7,8,0.8,0.9
2025-05-06T0300,2809A,113.6668,24.7756,韶关市,大学路288号,细颗粒物(PM2.5),59,55,27,42,17,11,,,,18,12,12,12,0.6,0.7
2025-05-06T0300,3622A,113.5556,24.8082,韶关市,碧湖山庄,,38,38,23,18,14,11,,,,13,10,5,6,0.5,0.6
2025-05-06T0300,2462A,111.5239,27.3033,邵阳市,市水土所,,,,,,,,,,,,,,,,
2025-05-06T0300,2464A,111.5283,27.2442,邵阳市,市化工厂,,49,49,36,22,23,42,,,,15,14,6,7,0.5,0.5
2025-05-06T0300,2466A,111.4328,27.2272,邵阳市,市环保局,,49,44,34,34,25,26,,,,17,11,4,2,0.6,0.5
