timepoint,stationcode,longitude,latitude,area,positionname,primarypollutant,aqi,pm10,pm10_24h,pm2_5,pm2_5_24h,o3,o3_24h,o3_8h,o3_8h_24h,no2,no2_24h,so2,so2_24h,co,co_24h
2022-12-25T02:00:00,1001A,116.3621,39.8784,北京市,万寿西宫,,37,37,33,22,18,61,21,19,19,44,34,2,2,0.4,0.3
2022-12-25T02:00:00,1002A,116.2202,40.2915,北京市,定陵(对照点),,38,31,24,26,14,74,55,55,55,12,7,4,3,0.3,0.3
2022-12-25T02:00:00,1003A,116.4174,39.9289,北京市,东四,,29,29,28,17,14,67,27,18,18,31,21,1,3,0.4,0.4
2022-12-25T02:00:00,1004A,116.4072,39.8863,北京市,天坛,,37,37,29,23,15,63,2,4,3,64,30,1,1,0.6,0.4
2022-12-25T02:00:00,1005A,116.462,39.9365,北京市,农展馆,,27,27,26,15,13,63,36,26,26,32,31,1,2,0.3,0.3
2022-12-25T02:00:00,1006A,116.3392,39.9295,北京市,官园,,45,45,31,25,17,63,6,15,10,47,28,5,3,0.5,0.4
2022-12-25T02:00:00,1007A,116.2878,39.9611,北京市,海淀万柳,,48,48,35,24,15,55,1,3,2,68,40,2,2,0.4,0.3
2022-12-25T02:00:00,1008A,116.6636,40.135,北京市,顺义新城,,27,27,20,16,11,72,64,62,62,11,11,2,1,0.3,0.2
2022-12-25T02:00:00,1009A,116.6275,40.3275,北京市,怀柔镇,,20,20,23,12,12,64,41,43,42,16,16,1,2,0.2,0.2
2022-12-25T02:00:00,1010A,116.2296,40.217,北京市,昌平镇,,33,33,26,21,14,69,45,49,47,21,12,3,3,0.4,0.4
2022-12-25T02:00:00,1011A,116.3966,39.9821,北京市,奥体中心,,30,30,25,21,13,66,21,12,12,51,26,1,2,0.3,0.3
2022-12-25T02:00:00,1012A,116.184,39.9136,北京市,古城,颗粒物(PM10),51,52,39,23,17,66,5,4,4,51,37,1,2,0.7,0.5
2022-12-25T02:00:00,1015A,117.1444,39.1661,天津市,勤俭道,细颗粒物(PM2.5),92,107,48,68,27,68,2,2,2,69,33,6,4,0.9,0.6
2022-12-25T02:00:00,1017A,117.237,39.1082,天津市,大直沽八号路,"颗粒物(PM10),细颗粒物(PM2.5)",69,88,40,50,21,69,12,9,9,63,35,7,4,0.8,0.5
2022-12-25T02:00:00,1018A,117.202,39.0927,天津市,前进道,细颗粒物(PM2.5),80,93,42,59,23,72,6,6,6,76,34,8,5,0.8,0.5
2022-12-25T02:00:00,1019A,117.1837,39.2133,天津市,淮河道,细颗粒物(PM2.5),84,100,45,62,24,73,5,5,5,76,39,8,5,0.8,0.5
2022-12-25T02:00:00,1021A,117.307,39.0877,天津市,跃进路,细颗粒物(PM2.5),79,94,44,58,25,66,4,4,4,66,35,8,6,0.6,0.4
2022-12-25T02:00:00,1023A,117.707,39.0343,天津市,第四大街,细颗粒物(PM2.5),77,92,44,56,22,56,2,2,2,75,49,8,6,0.7,0.5
2022-12-25T02:00:00,1024A,117.457,38.8394,天津市,永明路,细颗粒物(PM2.5),100,118,52,75,29,51,6,6,6,73,44,13,7,0.8,0.4
2022-12-25T02:00:00,1026A,117.764,39.1587,天津市,汉北路,颗粒物(PM10),70,90,44,49,20,62,3,2,2,66,45,7,7,0.7,0.6
2022-12-25T02:00:00,1027A,117.157,38.9194,天津市,团泊洼(对照点),细颗粒物(PM2.5),99,122,49,74,30,60,2,3,2,81,44,14,8,1.1,0.6
2022-12-25T02:00:00,1029A,114.4422,38.0444,石家庄市,职工医院,"颗粒物(PM10),细颗粒物(PM2.5)",84,118,92,62,51,47,4,4,4,75,60,18,15,1.2,1.2
2022-12-25T02:00:00,1030A,114.6063,38.0266,石家庄市,高新区,细颗粒物(PM2.5),85,103,93,63,59,46,8,9,8,82,66,11,12,1.0,1
2022-12-25T02:00:00,1031A,114.4898,38.1328,石家庄市,西北水源,细颗粒物(PM2.5),115,161,113,87,63,37,8,8,8,85,71,22,17,1.5,1
2022-12-25T02:00:00,1032A,114.4586,38.0058,石家庄市,西南高教,细颗粒物(PM2.5),88,109,97,65,64,48,3,4,4,61,58,12,13,0.8,0.9
2022-12-25T02:00:00,1033A,114.5331,38.0178,石家庄市,世纪公园,细颗粒物(PM2.5),74,76,82,54,52,35,0,0,0,78,67,12,15,1.0,1.1
2022-12-25T02:00:00,1034A,114.509,38.0457,石家庄市,人民会堂,细颗粒物(PM2.5),94,109,91,70,56,46,5,5,5,73,57,16,14,1.1,1
2022-12-25T02:00:00,1035A,114.3524,37.8911,石家庄市,封龙山(对照点),细颗粒物(PM2.5),59,53,60,42,39,76,43,44,44,47,36,3,4,1.0,0.9
2022-12-25T02:00:00,1037A,118.131,39.6363,唐山市,雷达站,细颗粒物(PM2.5),98,97,58,73,34,64,5,5,5,69,41,10,8,1.2,0.8
2022-12-25T02:00:00,1038A,118.1725,39.6334,唐山市,物资局,细颗粒物(PM2.5),69,83,41,50,28,58,0,0,0,72,40,10,9,1.0,0.7
2022-12-25T02:00:00,1040A,118.1705,39.6506,唐山市,十二中,细颗粒物(PM2.5),100,83,41,75,37,61,1,1,1,80,37,9,7,1.1,0.9
2022-12-25T02:00:00,1041A,118.1869,39.622,唐山市,小山,细颗粒物(PM2.5),88,78,38,65,25,61,2,3,2,79,45,11,10,1.0,0.6
2022-12-25T02:00:00,1042A,119.5134,39.8207,秦皇岛市,北戴河环保局,"颗粒物(PM10),细颗粒物(PM2.5)",62,74,35,44,19,65,0,0,0,70,28,6,6,0.4,0.6
2022-12-25T02:00:00,1043A,119.7493,40.0116,秦皇岛市,第一关,,49,49,48,29,28,66,6,6,6,60,55,8,9,0.7,0.7
2022-12-25T02:00:00,1044A,119.5897,39.9499,秦皇岛市,监测站,颗粒物(PM10),68,85,50,48,29,71,8,9,8,45,27,9,9,1.3,0.6
2022-12-25T02:00:00,1046A,119.5251,39.9041,秦皇岛市,建设大厦,颗粒物(PM10),54,58,51,27,23,73,8,6,6,47,39,7,8,1.1,0.7
2022-12-25T02:00:00,1048A,114.5302,36.6116,邯郸市,东污水处理厂,颗粒物(PM10),68,85,87,44,57,60,16,14,14,60,56,13,17,0.6,0.9
2022-12-25T02:00:00,1049A,114.4918,36.5713,邯郸市,矿院,细颗粒物(PM2.5),92,83,96,68,70,55,3,3,3,66,59,8,15,0.7,1
2022-12-25T02:00:00,1050A,114.484,36.6133,邯郸市,丛台公园,细颗粒物(PM2.5),98,75,82,73,64,51,3,3,3,58,48,10,16,1.8,1.5
2022-12-25T02:00:00,1051A,115.493,38.8632,保定市,游泳馆,细颗粒物(PM2.5),127,126,102,96,64,60,8,8,8,89,63,16,11,1.1,0.7
2022-12-25T02:00:00,1052A,115.5213,38.8959,保定市,华电二区,细颗粒物(PM2.5),103,98,84,77,58,46,6,6,6,83,65,12,10,1.2,0.9
2022-12-25T02:00:00,1053A,115.4713,38.9108,保定市,接待中心,细颗粒物(PM2.5),73,87,107,53,63,49,2,3,2,74,59,13,10,0.9,0.6
2022-12-25T02:00:00,1054A,115.4612,38.8416,保定市,地表水厂,细颗粒物(PM2.5),145,175,123,111,61,52,9,9,9,78,61,17,11,1.3,0.8
2022-12-25T02:00:00,1056A,115.5086,38.8639,保定市,监测站,细颗粒物(PM2.5),110,121,97,83,57,49,7,6,6,79,59,15,11,1.2,0.9
2022-12-25T02:00:00,1057A,114.8883,40.8336,张家口市,人民公园,,25,25,18,6,9,82,64,63,63,5,6,3,5,0.6,0.5
2022-12-25T02:00:00,1059A,114.8687,40.8042,张家口市,五金库,,22,10,13,12,15,76,70,70,70,7,9,8,9,0.5,0.4
2022-12-25T02:00:00,1060A,114.8902,40.762,张家口市,世纪豪园,,20,14,20,9,11,74,62,62,62,11,14,3,2,0.7,0.6
2022-12-25T02:00:00,1061A,114.8916,40.8661,张家口市,北泵房(对照点),,22,20,29,14,21,86,68,68,68,6,12,6,11,0.5,0.6
2022-12-25T02:00:00,1062A,117.9531,40.9081,承德市,铁路,颗粒物(PM10),53,55,44,34,25,61,9,13,11,41,32,8,9,0.8,0.6
2022-12-25T02:00:00,1063A,117.9392,40.9763,承德市,中国银行,细颗粒物(PM2.5),70,71,43,51,28,61,9,10,10,46,34,6,6,0.9,0.6
2022-12-25T02:00:00,1064A,117.9503,40.928,承德市,开发区,细颗粒物(PM2.5),60,57,45,43,28,59,6,6,6,49,36,6,5,0.9,0.6
2022-12-25T02:00:00,1065A,117.8051,40.9655,承德市,文化中心,细颗粒物(PM2.5),74,78,48,54,28,64,5,4,4,50,26,9,13,1.2,0.7
2022-12-25T02:00:00,1066A,117.9268,41.0026,承德市,离宫(对照点),细颗粒物(PM2.5),55,46,36,39,24,55,4,2,2,42,25,8,9,0.7,0.5
2022-12-25T02:00:00,1067A,116.6708,39.5111,廊坊市,药材公司,颗粒物(PM10),66,81,39,46,19,66,8,10,9,71,36,7,6,0.7,0.5
2022-12-25T02:00:00,1068A,116.7214,39.5589,廊坊市,开发区,细颗粒物(PM2.5),69,81,45,50,21,70,6,7,6,79,46,9,7,0.7,0.5
2022-12-25T02:00:00,1070A,116.7244,39.5269,廊坊市,北华航天学院,细颗粒物(PM2.5),68,79,39,49,17,66,7,6,6,78,38,10,8,0.7,0.4
2022-12-25T02:00:00,1071A,116.8842,38.2991,沧州市,沧县城建局,细颗粒物(PM2.5),67,39,27,48,27,67,20,21,20,52,40,11,9,0.8,0.7
2022-12-25T02:00:00,1072A,116.8584,38.3254,沧州市,电视转播站,颗粒物(PM10),70,90,45,48,25,75,10,11,10,76,44,11,13,1.0,0.8
2022-12-25T02:00:00,1073A,116.8709,38.3228,沧州市,市环保局,细颗粒物(PM2.5),67,70,48,48,25,66,5,6,6,74,44,10,7,0.7,0.5
2022-12-25T02:00:00,1074A,115.6838,37.7541,衡水市,电机北厂,颗粒物(PM10),54,58,57,36,28,68,12,22,17,60,44,4,6,0.6,0.5
2022-12-25T02:00:00,1075A,115.6303,37.7316,衡水市,市监测站,颗粒物(PM10),59,67,57,34,27,69,6,5,5,63,35,12,15,1.1,1.1
2022-12-25T02:00:00,1077A,114.4704,37.0886,邢台市,达活泉,细颗粒物(PM2.5),93,70,63,69,56,45,3,2,2,58,46,9,16,1.0,1.1
2022-12-25T02:00:00,1078A,114.5062,37.0349,邢台市,邢师高专,,,87,68,66,49,48,5,5,5,,44,7,9,1.1,0.8
2022-12-25T02:00:00,1079A,114.5237,37.0851,邢台市,路桥公司,细颗粒物(PM2.5),95,77,65,71,48,49,4,4,4,50,39,4,9,1.1,1.1
2022-12-25T02:00:00,1080A,114.4725,37.0719,邢台市,市环保局,细颗粒物(PM2.5),98,86,81,73,55,50,2,2,2,53,45,11,13,1.2,1
2022-12-25T02:00:00,1081A,112.522,37.8873,太原市,尖草坪,,38,35,46,26,28,53,7,6,6,58,49,10,20,0.5,0.8
2022-12-25T02:00:00,1083A,112.434,38.0108,太原市,上兰(对照点),,,,,,,,,,,,,,,,
2022-12-25T02:00:00,1084A,112.469,37.7124,太原市,晋源,颗粒物(PM10),58,66,63,35,37,56,5,4,4,77,57,20,23,1.0,0.9
2022-12-25T02:00:00,1085A,112.5583,37.7394,太原市,小店,颗粒物(PM10),61,72,62,35,35,52,2,3,2,72,53,23,20,1.1,1
2022-12-25T02:00:00,1086A,112.5369,37.8692,太原市,桃园,颗粒物(PM10),54,58,57,27,32,48,2,2,2,65,53,11,19,0.6,1
2022-12-25T02:00:00,1087A,112.57,37.8195,太原市,坞城,颗粒物(PM10),51,51,52,29,33,63,6,6,6,70,50,24,22,1.0,1
2022-12-25T02:00:00,1088A,112.549,37.9854,太原市,南寨,颗粒物(PM10),53,56,47,25,23,68,4,4,4,53,44,11,10,0.6,0.6
2022-12-25T02:00:00,1089A,112.4783,37.7778,太原市,金胜(停运211219),,,,,,,,,,,,,,,,
2022-12-25T02:00:00,1090A,111.6507,40.7517,呼和浩特市,呼市一监,,32,31,24,22,16,76,4,5,4,61,32,16,11,0.8,0.5
2022-12-25T02:00:00,1091A,111.6572,40.8033,呼和浩特市,小召,,34,22,27,15,15,64,1,2,2,68,47,26,25,0.9,0.7
2022-12-25T02:00:00,1094A,111.7516,40.8369,呼和浩特市,如意水处理厂,,34,34,31,16,15,75,8,8,8,63,49,18,13,1.0,0.8
2022-12-25T02:00:00,1095A,111.7276,40.8062,呼和浩特市,二十九中,,31,20,23,17,13,67,3,3,3,62,40,15,11,1.0,0.5
2022-12-25T02:00:00,1096A,111.5512,40.7866,呼和浩特市,工大金川校区,,27,20,33,14,16,64,2,5,4,54,44,11,20,0.6,0.6
2022-12-25T02:00:00,1097A,111.717,40.7612,呼和浩特市,化肥厂生活区,,30,20,28,11,15,77,8,8,8,60,37,14,14,0.8,0.6
2022-12-25T02:00:00,1098A,123.6836,41.9339,沈阳市,森林路(对照点),,,,,,,,,,,,,,,,
2022-12-25T02:00:00,1099A,123.505,41.7406,沈阳市,浑南东路,细颗粒物(PM2.5),149,133,79,114,68,45,5,6,6,52,48,7,7,1.8,1.3
2022-12-25T02:00:00,1100A,123.4231,41.6989,沈阳市,新秀街,细颗粒物(PM2.5),168,159,74,127,53,45,5,6,6,56,50,22,13,1.7,1
2022-12-25T02:00:00,1102A,123.5903,41.8411,沈阳市,东陵路,细颗粒物(PM2.5),89,98,54,66,45,49,8,6,6,39,38,10,11,1.0,0.8
2022-12-25T02:00:00,1103A,123.4264,41.8467,沈阳市,陵东街,细颗粒物(PM2.5),144,147,77,110,58,52,6,7,6,61,47,9,10,1.8,1
2022-12-25T02:00:00,1104A,123.4114,41.7653,沈阳市,文化路,细颗粒物(PM2.5),156,146,58,119,42,47,5,5,5,52,42,20,30,2.3,1.3
2022-12-25T02:00:00,1105A,123.4678,41.7867,沈阳市,小河沿,细颗粒物(PM2.5),119,113,54,90,43,50,7,7,7,55,42,15,16,1.7,0.8
2022-12-25T02:00:00,1106A,123.4017,41.7972,沈阳市,太原街,细颗粒物(PM2.5),128,128,60,97,42,48,4,4,4,59,45,21,22,1.5,0.9
2022-12-25T02:00:00,1108A,123.3783,41.9228,沈阳市,京沈街,细颗粒物(PM2.5),110,98,51,83,43,66,5,5,5,64,35,17,17,1.9,1.1
2022-12-25T02:00:00,1109A,121.612,38.9741,大连市,甘井子,,26,24,26,18,18,68,50,54,52,17,12,8,8,0.9,0.6
2022-12-25T02:00:00,1110A,121.565,38.9511,大连市,周水子,,32,32,32,17,16,66,54,54,54,13,12,8,8,0.7,0.6
2022-12-25T02:00:00,1111A,121.5637,38.8845,大连市,星海三站,,29,29,34,18,19,58,43,47,45,25,23,30,23,0.7,0.6
2022-12-25T02:00:00,1112A,121.6302,38.9117,大连市,青泥洼桥,,27,27,27,15,16,64,51,52,52,18,16,10,9,0.6,0.5
2022-12-25T02:00:00,1113A,121.6251,38.8638,大连市,傅家庄,,24,24,25,15,14,63,46,48,47,22,18,14,10,0.7,0.6
2022-12-25T02:00:00,1114A,121.5213,38.8661,大连市,七贤岭,,28,28,28,14,11,72,61,60,60,9,9,9,10,0.7,0.5
2022-12-25T02:00:00,1115A,121.2529,38.8061,大连市,旅顺,,24,24,30,14,13,67,58,58,58,12,11,8,7,0.7,0.6
2022-12-25T02:00:00,1116A,121.7485,39.1311,大连市,金州,,36,36,35,18,18,63,44,44,44,22,13,13,10,0.3,0.3
2022-12-25T02:00:00,1117A,121.7811,39.0496,大连市,开发区,,29,29,30,17,19,62,45,49,47,25,20,15,11,0.6,0.4
2022-12-25T02:00:00,1118A,121.9762,39.0631,大连市,双D港,,40,40,31,18,18,62,54,55,54,15,14,10,8,0.7,0.7
2022-12-25T02:00:00,1119A,125.3325,43.9166,长春市,食品厂,细颗粒物(PM2.5),87,69,45,64,43,51,23,20,20,39,38,7,10,0.9,0.8
2022-12-25T02:00:00,1120A,125.2863,43.9027,长春市,客车厂,细颗粒物(PM2.5),112,61,44,84,42,60,23,22,22,36,33,10,14,0.7,0.6
2022-12-25T02:00:00,1121A,125.2841,43.8463,长春市,邮电学院,细颗粒物(PM2.5),110,73,56,83,52,63,10,9,9,50,39,18,22,0.9,0.6
2022-12-25T02:00:00,1122A,125.3716,43.8772,长春市,劳动公园,细颗粒物(PM2.5),87,58,44,64,41,56,16,15,15,61,51,37,33,0.9,0.7
2022-12-25T02:00:00,1123A,125.3297,43.8805,长春市,园林处,细颗粒物(PM2.5),90,72,46,67,44,56,21,18,18,50,43,35,30,0.8,0.6
2022-12-25T02:00:00,1124A,125.4605,43.79,长春市,净月潭,细颗粒物(PM2.5),77,67,56,56,42,54,9,8,8,54,39,5,7,1.0,0.7
2022-12-25T02:00:00,1125A,125.7194,43.515,长春市,甩湾子(对照点),,,,,,,,,,,,,,,,
2022-12-25T02:00:00,1126A,125.3863,43.8447,长春市,经开区环卫处,细颗粒物(PM2.5),97,78,50,72,45,54,11,11,11,54,51,18,18,0.9,0.7
2022-12-25T02:00:00,1127A,125.245,43.7783,长春市,高新区管委会,细颗粒物(PM2.5),127,85,56,96,60,71,8,11,10,59,44,8,9,0.8,0.5
2022-12-25T02:00:00,1128A,125.1761,43.8325,长春市,岱山公园,细颗粒物(PM2.5),150,106,64,115,71,74,20,21,20,39,30,5,5,1.2,0.8
2022-12-25T02:00:00,1129A,126.5422,45.755,哈尔滨市,岭北(对照点),,49,35,35,34,35,69,40,40,40,20,19,15,13,0.7,0.7
2022-12-25T02:00:00,1130A,126.561,45.8167,哈尔滨市,松北商大,,45,45,29,29,21,60,35,34,34,19,20,2,4,0.7,0.6
2022-12-25T02:00:00,1131A,126.979,45.5419,哈尔滨市,阿城会宁,细颗粒物(PM2.5),125,107,98,95,92,62,20,22,21,38,31,14,15,1.1,1
2022-12-25T02:00:00,1132A,126.599,45.7222,哈尔滨市,南岗学府路,,49,48,38,34,27,57,29,37,33,29,29,13,18,0.7,0.6
2022-12-25T02:00:00,1133A,126.689,45.7733,哈尔滨市,太平宏伟公园,,32,32,29,19,12,55,44,47,46,16,26,27,39,0.5,0.5
2022-12-25T02:00:00,1134A,126.635,45.7667,哈尔滨市,道外承德广场,,36,34,26,25,21,54,44,46,45,18,27,16,15,0.4,0.4
2022-12-25T02:00:00,1135A,126.685,45.7319,哈尔滨市,香坊红旗大街,,33,33,28,21,26,57,45,46,46,19,22,31,32,0.6,0.6
2022-12-25T02:00:00,1136A,126.6411,45.7258,哈尔滨市,动力和平路,,37,37,28,25,21,56,38,40,39,24,27,21,21,0.6,0.6
2022-12-25T02:00:00,1137A,126.593,45.7478,哈尔滨市,道里建国路,,38,36,29,26,24,54,40,39,39,17,22,18,22,0.3,0.3
2022-12-25T02:00:00,1138A,126.615,45.61,哈尔滨市,平房东轻厂,细颗粒物(PM2.5),54,44,56,38,49,56,17,16,16,37,44,9,16,0.8,0.6
2022-12-25T02:00:00,1139A,126.595,45.9855,哈尔滨市,呼兰师专,,21,21,38,7,27,66,38,39,38,11,16,5,9,0.8,0.7
2022-12-25T02:00:00,1140A,126.6206,45.6842,哈尔滨市,省农科院,细颗粒物(PM2.5),62,53,52,44,47,53,18,22,20,48,40,23,27,0.9,1.1
2022-12-25T02:00:00,1141A,121.4,31.238,上海市,普陀,,49,49,48,27,32,75,35,44,40,41,44,7,9,1.0,1
2022-12-25T02:00:00,1142A,121.478,31.2036,上海市,十五厂,,41,41,48,25,31,75,46,46,46,28,35,11,13,0.6,0.8
2022-12-25T02:00:00,1143A,121.467,31.3008,上海市,虹口,,,,57,29,32,68,36,39,38,33,41,11,12,1.0,1
2022-12-25T02:00:00,1144A,121.412,31.1654,上海市,徐汇上师大,,43,43,52,24,27,60,24,34,29,58,57,6,8,1.1,1
2022-12-25T02:00:00,1145A,121.536,31.2659,上海市,杨浦四漂,,41,41,53,26,30,63,46,44,44,28,39,6,8,0.6,0.6
2022-12-25T02:00:00,1147A,121.425,31.2261,上海市,静安监测站,,48,48,55,25,27,72,40,43,42,38,44,8,10,1.0,1
2022-12-25T02:00:00,1148A,121.703,31.1907,上海市,浦东川沙,,39,32,43,27,32,63,38,45,42,33,38,6,8,0.8,0.8
2022-12-25T02:00:00,1149A,121.533,31.2284,上海市,浦东新区监测站,,46,46,52,31,32,64,48,44,44,27,36,6,8,0.7,0.8
2022-12-25T02:00:00,1150A,121.577,31.2071,上海市,浦东张江,,38,38,47,22,27,62,43,41,41,26,33,6,8,0.9,0.9
2022-12-25T02:00:00,1151A,118.8086,32.1065,南京市,迈皋桥,细颗粒物(PM2.5),73,69,57,53,32,75,9,7,7,79,49,4,5,0.8,0.8
2022-12-25T02:00:00,1152A,118.7538,32.0551,南京市,草场门,,,53,50,,25,74,12,11,11,69,42,5,8,0.4,0.5
2022-12-25T02:00:00,1153A,118.7794,32.0745,南京市,山西路,细颗粒物(PM2.5),67,70,57,48,34,75,6,7,6,65,34,4,7,0.6,0.5
2022-12-25T02:00:00,1154A,118.7752,32.0023,南京市,中华门,,,68,53,39,28,69,,4,4,43,30,9,11,0.5,0.4
2022-12-25T02:00:00,1155A,118.8109,32.0309,南京市,瑞金路,细颗粒物(PM2.5),70,74,59,51,30,71,4,4,4,83,47,10,10,0.5,0.6
2022-12-25T02:00:00,1156A,118.7997,32.0754,南京市,玄武湖,细颗粒物(PM2.5),72,84,57,52,31,72,5,4,4,66,41,7,7,0.4,0.4
2022-12-25T02:00:00,1157A,118.6414,32.0931,南京市,浦口,颗粒物(PM10),55,59,50,36,30,83,60,64,62,19,22,9,5,0.6,0.7
2022-12-25T02:00:00,1158A,118.7356,31.9996,南京市,奥体中心,细颗粒物(PM2.5),64,69,58,46,35,76,26,24,24,59,44,5,8,0.4,0.6
2022-12-25T02:00:00,1159A,118.9125,32.1028,南京市,仙林大学城,细颗粒物(PM2.5),67,61,53,48,33,76,1,2,2,68,42,6,7,0.6,0.6
2022-12-25T02:00:00,1160A,120.561,31.2472,苏州市,上方山(对照点),颗粒物(PM10),52,53,55,35,32,68,30,28,28,33,42,13,12,0.8,0.6
2022-12-25T02:00:00,1162A,120.591,31.3019,苏州市,彩香,细颗粒物(PM2.5),55,57,58,39,34,68,26,24,24,36,44,8,8,1.0,0.8
2022-12-25T02:00:00,1163A,120.596,31.3264,苏州市,轧钢厂,颗粒物(PM10),58,66,64,35,34,70,4,6,5,67,48,8,9,0.7,0.7
2022-12-25T02:00:00,1164A,120.613,31.2703,苏州市,吴中区,"颗粒物(PM10),细颗粒物(PM2.5)",53,55,55,37,33,73,26,33,30,44,41,10,11,0.6,0.5
2022-12-25T02:00:00,1165A,120.543,31.2994,苏州市,苏州新区,细颗粒物(PM2.5),53,52,53,37,34,76,31,37,34,37,42,11,11,0.8,0.7
2022-12-25T02:00:00,1166A,120.669,31.3097,苏州市,苏州工业园区,细颗粒物(PM2.5),63,58,59,45,35,72,25,28,26,47,43,10,10,1.0,0.8
2022-12-25T02:00:00,1167A,120.641,31.3708,苏州市,相城区,细颗粒物(PM2.5),58,59,61,41,36,76,35,34,34,37,41,12,13,0.9,0.7
2022-12-25T02:00:00,1168A,120.9098,31.9663,南通市,狼山街道,颗粒物(PM10),51,51,47,35,30,72,45,44,44,17,16,7,8,0.6,0.5
2022-12-25T02:00:00,1169A,120.86,32.0005,南通市,虹桥,细颗粒物(PM2.5),62,62,55,44,34,72,35,35,35,27,22,4,5,0.9,0.8
2022-12-25T02:00:00,1170A,120.87,32.02,南通市,城中,细颗粒物(PM2.5),68,63,56,49,36,75,39,38,38,23,25,6,6,0.6,0.5
2022-12-25T02:00:00,1171A,120.94,31.93,南通市,星湖花园,,,,46,34,28,74,49,46,46,16,17,7,8,0.5,0.5
2022-12-25T02:00:00,1172A,120.81,32.0417,南通市,紫琅学院,细颗粒物(PM2.5),67,76,64,48,34,75,34,32,32,24,22,6,6,0.6,0.5
2022-12-25T02:00:00,1173A,119.176,34.5885,连云港市,市环境监测站,细颗粒物(PM2.5),92,68,54,68,48,59,15,18,16,53,38,15,14,0.9,0.9
2022-12-25T02:00:00,1177A,117.179,34.2761,徐州市,黄河新村,细颗粒物(PM2.5),98,97,67,73,40,71,8,10,9,57,36,16,16,1.0,0.8
2022-12-25T02:00:00,1178A,117.1918,34.2384,徐州市,淮塔,细颗粒物(PM2.5),85,90,63,63,36,74,16,14,14,50,35,14,12,1.1,1
2022-12-25T02:00:00,1180A,117.256,34.2153,徐州市,新城区,颗粒物(PM10),78,105,64,54,37,71,4,5,4,62,33,16,14,1.0,0.8
2022-12-25T02:00:00,1181A,117.244,34.2911,徐州市,桃园路,颗粒物(PM10),79,107,72,56,37,67,4,7,6,68,40,15,12,1.0,0.9
2022-12-25T02:00:00,1182A,117.2933,34.2778,徐州市,农科院,细颗粒物(PM2.5),77,90,70,56,35,71,8,8,8,54,32,17,15,1.1,1
2022-12-25T02:00:00,1186A,119.389,32.3761,扬州市,邗江监测站,细颗粒物(PM2.5),70,58,46,51,36,78,48,50,49,30,29,5,4,0.7,0.6
2022-12-25T02:00:00,1188A,120.269,31.4867,无锡市,雪浪,颗粒物(PM10),51,51,53,29,28,70,26,29,28,31,31,8,10,1.0,0.8
2022-12-25T02:00:00,1189A,120.275,31.6219,无锡市,黄巷,颗粒物(PM10),59,68,69,31,32,74,7,7,7,65,51,12,13,0.3,0.3
2022-12-25T02:00:00,1190A,120.294,31.56,无锡市,曹张,颗粒物(PM10),55,60,62,31,26,78,8,8,8,56,41,19,20,1.7,1.6
2022-12-25T02:00:00,1191A,120.242,31.5031,无锡市,漆塘,,42,31,45,29,26,75,22,26,24,32,37,8,11,0.9,0.9
2022-12-25T02:00:00,1192A,120.3489,31.5863,无锡市,东亭,,48,48,56,31,31,72,21,29,25,47,42,13,14,1.0,0.9
2022-12-25T02:00:00,1193A,120.354,31.5475,无锡市,旺庄,颗粒物(PM10),52,53,52,31,30,72,27,31,29,34,34,8,8,0.7,0.7
2022-12-25T02:00:00,1194A,120.245,31.5631,无锡市,荣巷,细颗粒物(PM2.5),52,51,51,36,32,69,27,36,32,37,34,13,13,1.3,0.7
2022-12-25T02:00:00,1195A,120.299,31.6817,无锡市,堰桥,细颗粒物(PM2.5),55,58,61,39,32,72,8,13,10,57,36,10,13,0.8,0.8
2022-12-25T02:00:00,1196A,119.9633,31.762,常州市,市监测站,细颗粒物(PM2.5),57,58,52,40,34,74,31,36,34,34,36,7,8,0.6,0.5
2022-12-25T02:00:00,1200A,119.9468,31.7069,常州市,武进监测站,细颗粒物(PM2.5),65,70,54,47,30,74,5,7,6,65,39,7,8,0.6,0.5
2022-12-25T02:00:00,1201A,119.9255,31.9087,常州市,安家,颗粒物(PM10),62,74,63,42,36,78,8,18,13,58,37,8,8,0.6,0.6
2022-12-25T02:00:00,1203A,119.6707,32.1875,镇江市,新区办事处,细颗粒物(PM2.5),67,73,56,48,32,70,20,28,24,54,44,7,7,0.7,0.6
2022-12-25T02:00:00,1204A,119.4974,32.1968,镇江市,职教中心,细颗粒物(PM2.5),57,58,53,40,31,69,33,38,36,36,31,4,5,0.6,0.5
2022-12-25T02:00:00,1205A,119.4303,32.1328,镇江市,丹徒区监测站,细颗粒物(PM2.5),65,61,58,47,36,74,28,26,26,52,42,8,7,0.5,0.5
2022-12-25T02:00:00,1206A,119.905,32.4878,泰州市,公园路,细颗粒物(PM2.5),62,58,48,44,36,71,20,25,22,32,26,4,9,0.8,0.7
2022-12-25T02:00:00,1207A,119.9189,32.4625,泰州市,莲花,细颗粒物(PM2.5),63,56,49,45,36,74,23,31,27,41,30,11,12,0.7,0.6
2022-12-25T02:00:00,1209A,119.888,32.4639,泰州市,留学生创业园,细颗粒物(PM2.5),64,74,60,46,38,73,9,15,12,53,31,12,14,1.0,0.9
2022-12-25T02:00:00,1210A,119.036,33.5981,淮安市,钵池山,细颗粒物(PM2.5),63,68,49,45,33,75,20,31,26,47,28,17,13,0.5,0.4
2022-12-25T02:00:00,1211A,119.007,33.575,淮安市,北京南路,颗粒物(PM10),69,88,57,41,33,76,25,24,24,41,31,15,13,0.8,0.7
2022-12-25T02:00:00,1212A,118.989,33.6067,淮安市,市监测站,细颗粒物(PM2.5),67,73,54,48,32,79,26,39,32,48,37,13,10,0.8,0.7
2022-12-25T02:00:00,1213A,119.135,33.5039,淮安市,楚州区监测站,细颗粒物(PM2.5),68,81,54,49,32,67,23,16,16,41,35,13,11,0.5,0.4
2022-12-25T02:00:00,1214A,119.0186,33.6297,淮安市,淮阴区监测站,细颗粒物(PM2.5),85,79,56,63,29,74,23,32,28,44,32,15,12,0.6,0.4
2022-12-25T02:00:00,1215A,120.118,33.4022,盐城市,盐城电厂,细颗粒物(PM2.5),74,85,58,54,32,72,28,25,25,37,28,9,10,0.6,0.6
2022-12-25T02:00:00,1216A,120.156,33.3942,盐城市,市监测站,颗粒物(PM10),60,69,52,39,29,69,50,48,48,19,22,9,11,0.5,0.7
2022-12-25T02:00:00,1218A,120.2144,33.38,盐城市,开发区管委会,细颗粒物(PM2.5),77,82,55,56,27,67,36,37,36,29,28,12,8,0.5,0.6
2022-12-25T02:00:00,1220A,118.293,33.9528,宿迁市,宿迁学院,细颗粒物(PM2.5),97,97,59,72,42,79,17,22,20,54,33,15,13,0.6,0.4
2022-12-25T02:00:00,1221A,118.2442,33.9592,宿迁市,宿迁中学,细颗粒物(PM2.5),92,102,64,68,42,74,10,10,10,55,34,14,10,0.7,0.6
2022-12-25T02:00:00,1223A,120.2072,30.2111,杭州市,滨江,颗粒物(PM10),54,58,36,36,35,82,31,30,30,42,43,8,9,0.7,0.6
2022-12-25T02:00:00,1224A,120.0633,30.2747,杭州市,西溪,细颗粒物(PM2.5),55,52,59,39,33,87,8,8,8,36,37,4,6,0.7,0.6
2022-12-25T02:00:00,1226A,120.3461,30.3153,杭州市,下沙,颗粒物(PM10),57,63,72,33,36,76,13,19,16,61,50,7,8,0.6,0.6
2022-12-25T02:00:00,1227A,120.1269,30.2456,杭州市,卧龙桥,,48,45,47,33,28,86,10,10,10,36,31,7,10,0.7,0.6
2022-12-25T02:00:00,1228A,120.1903,30.2692,杭州市,浙江农大,颗粒物(PM10),52,54,56,32,31,88,30,28,28,40,44,9,9,0.9,0.9
2022-12-25T02:00:00,1230A,120.1197,30.3119,杭州市,和睦小学,细颗粒物(PM2.5),58,62,62,41,37,78,10,15,12,68,53,7,7,0.9,0.9
2022-12-25T02:00:00,1231A,120.3019,30.4183,杭州市,临平镇,,45,45,59,27,30,67,37,38,38,27,35,9,11,0.5,0.4
2022-12-25T02:00:00,1232A,120.2697,30.1819,杭州市,城厢镇,颗粒物(PM10),58,65,68,37,40,81,33,32,32,37,42,6,7,0.6,1
2022-12-25T02:00:00,1233A,120.0883,30.1808,杭州市,云栖,颗粒物(PM10),52,54,53,34,29,80,19,22,20,29,30,6,8,0.7,0.6
2022-12-25T02:00:00,1234A,121.8358,29.911,宁波市,区环保大楼,,46,46,56,31,36,72,49,51,50,23,36,16,14,0.6,0.7
2022-12-25T02:00:00,1235A,121.56,29.82,宁波市,万里学院,颗粒物(PM10),56,61,63,36,35,81,41,42,42,32,38,12,14,0.8,0.7
2022-12-25T02:00:00,1236A,121.713,29.9572,宁波市,龙赛医院,颗粒物(PM10),55,59,65,28,32,73,46,51,48,30,40,13,10,0.8,0.7
2022-12-25T02:00:00,1239A,121.633,29.7733,宁波市,钱湖水厂,,50,50,60,35,37,78,40,39,39,28,36,10,10,0.9,0.8
2022-12-25T02:00:00,1240A,121.5856,29.8635,宁波市,太古小学,颗粒物(PM10),55,60,62,30,33,80,38,39,38,32,33,8,8,0.6,0.6
2022-12-25T02:00:00,1241A,121.524,29.8674,宁波市,市环境监测中心,颗粒物(PM10),58,66,64,31,31,72,31,33,32,32,36,7,8,0.6,0.6
2022-12-25T02:00:00,1242A,120.634,28.0089,温州市,瓯海,细颗粒物(PM2.5),74,92,71,54,35,85,3,8,6,94,49,10,9,0.6,0.4
2022-12-25T02:00:00,1243A,120.6748,27.9939,温州市,南浦,颗粒物(PM10),67,83,63,47,36,87,3,3,3,65,48,6,7,0.5,0.4
2022-12-25T02:00:00,1244A,120.76,27.9747,温州市,龙湾,颗粒物(PM10),68,85,65,39,32,80,3,3,3,61,47,6,8,0.4,0.4
2022-12-25T02:00:00,1245A,120.6709,28.0167,温州市,市站,颗粒物(PM10),60,69,60,36,28,94,10,6,6,55,41,11,12,0.4,0.4
2022-12-25T02:00:00,1247A,120.6053,29.9928,绍兴市,城东开发委,颗粒物(PM10),54,58,59,35,33,80,4,6,5,49,38,4,6,0.7,0.6
2022-12-25T02:00:00,1250A,120.0751,30.8669,湖州市,城西水厂,,43,41,50,30,32,68,11,43,27,63,44,10,12,0.7,0.7
2022-12-25T02:00:00,1252A,120.7436,30.778,嘉兴市,清河小学,颗粒物(PM10),51,52,55,32,29,73,14,22,18,56,42,7,9,1.2,1.1
2022-12-25T02:00:00,1253A,120.726,30.7478,嘉兴市,嘉兴学院,颗粒物(PM10),51,51,55,28,30,73,17,22,20,55,43,9,10,0.6,0.6
2022-12-25T02:00:00,1255A,121.273,28.6459,台州市,黄岩环保大楼,颗粒物(PM10),53,56,50,35,27,83,48,53,50,24,24,11,11,0.5,0.5
2022-12-25T02:00:00,1256A,121.419,28.6542,台州市,台州环保大楼,颗粒物(PM10),54,58,51,36,33,89,54,54,54,24,23,12,11,0.4,0.4
2022-12-25T02:00:00,1257A,121.377,28.5773,台州市,路桥田洋王,颗粒物(PM10),54,57,52,34,29,87,59,65,62,18,24,10,10,0.5,0.4
2022-12-25T02:00:00,1258A,122.122,30.0203,舟山市,定海檀枫,颗粒物(PM10),51,52,61,32,34,75,56,53,53,20,26,5,6,0.5,0.5
2022-12-25T02:00:00,1259A,122.3094,29.9558,舟山市,普陀东港,"颗粒物(PM10),细颗粒物(PM2.5)",52,54,58,36,34,74,51,52,52,25,26,7,8,0.7,0.6
2022-12-25T02:00:00,1260A,122.19,29.9944,舟山市,临城新区,颗粒物(PM10),52,54,62,32,32,78,54,54,54,20,22,6,7,0.6,0.5
2022-12-25T02:00:00,1262A,119.647,29.077,金华市,十五中,细颗粒物(PM2.5),53,43,64,37,36,80,33,39,36,40,41,6,8,0.4,0.4
2022-12-25T02:00:00,1263A,119.686,29.1029,金华市,监测站,细颗粒物(PM2.5),55,52,61,39,37,73,26,31,28,35,34,10,8,0.6,0.5
2022-12-25T02:00:00,1264A,118.8692,28.9398,衢州市,环保大楼,,49,47,61,34,38,82,6,9,8,59,49,10,12,0.4,0.6
2022-12-25T02:00:00,1265A,118.8709,28.9666,衢州市,实验学校,细颗粒物(PM2.5),58,58,57,41,34,74,11,7,7,50,45,13,10,0.5,0.5
2022-12-25T02:00:00,1266A,118.8621,28.9808,衢州市,衢州学院,颗粒物(PM10),55,59,56,36,33,78,7,4,4,56,46,11,10,0.6,0.6
2022-12-25T02:00:00,1267A,119.914,28.4514,丽水市,监测站大楼,,30,29,37,21,23,90,24,24,24,26,25,12,12,0.3,0.3
2022-12-25T02:00:00,1268A,119.93,28.4586,丽水市,莲都小学,,40,40,43,23,24,100,24,24,24,32,26,10,9,0.5,0.4
2022-12-25T02:00:00,1269A,119.879,28.4231,丽水市,余庄前,,37,37,41,21,20,96,18,20,19,16,18,7,8,0.3,0.3
2022-12-25T02:00:00,1270A,117.1959,31.7848,合肥市,明珠广场,细颗粒物(PM2.5),67,73,76,48,43,75,3,4,4,73,53,10,12,0.6,0.6
2022-12-25T02:00:00,1271A,117.3072,31.8764,合肥市,三里街,细颗粒物(PM2.5),85,80,80,63,53,72,3,2,2,89,61,15,18,0.7,0.6
2022-12-25T02:00:00,1272A,117.2588,31.8707,合肥市,琥珀山庄,细颗粒物(PM2.5),77,80,81,56,42,60,3,4,4,64,45,9,13,0.8,0.7
2022-12-25T02:00:00,1273A,117.1604,31.9052,合肥市,董铺水库(对照点),细颗粒物(PM2.5),77,92,95,56,48,74,7,6,6,62,48,4,7,0.5,0.6
2022-12-25T02:00:00,1274A,117.25,31.8571,合肥市,长江中路,细颗粒物(PM2.5),73,70,79,53,47,69,4,9,6,71,45,10,13,0.8,0.7
2022-12-25T02:00:00,1275A,117.266,31.9436,合肥市,庐阳区,颗粒物(PM10),67,83,85,46,43,71,19,28,24,56,46,12,13,0.7,0.6
2022-12-25T02:00:00,1276A,117.336,31.8586,合肥市,瑶海区,细颗粒物(PM2.5),95,92,88,71,51,64,16,14,14,64,55,11,14,0.6,0.6
2022-12-25T02:00:00,1277A,117.3027,31.7964,合肥市,包河区,细颗粒物(PM2.5),117,97,83,88,48,71,6,7,6,74,61,10,14,0.7,0.7
2022-12-25T02:00:00,1278A,117.2776,31.7385,合肥市,滨湖新区,细颗粒物(PM2.5),79,88,81,58,45,71,5,5,5,78,62,10,12,0.6,0.6
2022-12-25T02:00:00,1279A,117.1318,31.8403,合肥市,高新区,细颗粒物(PM2.5),64,68,82,46,48,76,12,14,13,61,44,10,12,0.8,0.8
2022-12-25T02:00:00,1280A,119.3903,26.0543,福州市,鼓山(对照点),,,,,,,,,,,,,,,,
2022-12-25T02:00:00,1282A,119.2681,26.0504,福州市,师大,,37,37,44,18,23,93,42,49,46,25,21,4,5,0.4,0.4
2022-12-25T02:00:00,1283A,119.2984,26.1028,福州市,五四北路,,35,35,40,24,23,92,43,45,44,26,21,3,4,0.4,0.4
2022-12-25T02:00:00,1284A,119.2648,26.0768,福州市,杨桥西路,,40,40,45,17,19,95,34,40,37,30,20,3,4,0.6,0.6
2022-12-25T02:00:00,1285A,119.317,26.0746,福州市,紫阳,,37,37,45,25,22,93,40,43,42,27,20,3,5,0.4,0.4
2022-12-25T02:00:00,1286A,118.1608,24.8169,厦门市,溪东(对照点),,,,,,,,,,,,,,,,
2022-12-25T02:00:00,1287A,118.1514,24.4767,厦门市,洪文,,35,35,46,12,16,115,72,70,70,25,23,4,4,0.5,0.6
2022-12-25T02:00:00,1288A,118.0661,24.4444,厦门市,鼓浪屿,,32,32,40,15,18,119,74,72,72,30,24,6,5,0.4,0.4
2022-12-25T02:00:00,1290A,115.8931,28.6843,南昌市,省外办,细颗粒物(PM2.5),62,72,84,44,50,95,36,37,36,43,40,17,12,0.7,0.5
2022-12-25T02:00:00,1291A,115.8886,28.7003,南昌市,省林业公司,颗粒物(PM10),62,73,84,41,52,90,24,22,22,64,49,14,14,0.8,0.6
2022-12-25T02:00:00,1292A,115.8126,28.7442,南昌市,林科所,颗粒物(PM10),54,58,64,34,36,85,61,60,60,19,36,12,10,0.6,0.4
2022-12-25T02:00:00,1294A,115.8518,28.687,南昌市,建工学校,颗粒物(PM10),63,76,78,40,44,95,56,54,54,24,37,12,12,0.8,0.6
2022-12-25T02:00:00,1295A,115.8921,28.6424,南昌市,象湖,细颗粒物(PM2.5),67,69,70,48,45,86,40,38,38,32,41,21,10,0.8,0.7
2022-12-25T02:00:00,1296A,115.7423,28.7996,南昌市,武术学校(对照点),,41,41,33,28,28,82,28,30,29,10,14,3,3,0.6,0.6
2022-12-25T02:00:00,1298A,115.9314,28.6842,南昌市,省站,颗粒物(PM10),66,82,94,44,53,96,36,37,36,33,35,14,12,0.6,0.5
2022-12-25T02:00:00,1299A,116.9862,36.6114,济南市,科干所,颗粒物(PM10),53,56,53,29,28,59,24,18,18,39,45,15,16,0.6,0.5
2022-12-25T02:00:00,1300A,116.9376,36.665,济南市,农科所,颗粒物(PM10),79,107,69,39,31,59,4,5,4,66,55,29,23,1.2,0.9
2022-12-25T02:00:00,1301A,117.1265,36.6734,济南市,开发区,颗粒物(PM10),61,71,60,34,31,53,5,5,5,61,50,12,13,0.7,0.7
2022-12-25T02:00:00,1303A,117.0624,36.6868,济南市,省种子仓库,颗粒物(PM10),58,66,58,31,30,51,11,11,11,61,51,10,14,0.8,0.8
2022-12-25T02:00:00,1304A,116.9489,36.6447,济南市,机床二厂,颗粒物(PM10),106,161,84,51,46,63,8,8,8,68,51,40,37,1.4,1.1
2022-12-25T02:00:00,1305A,117.0495,36.663,济南市,市监测站,,49,49,52,22,24,60,17,20,18,50,52,9,13,0.6,0.5
2022-12-25T02:00:00,1306A,116.7675,36.5484,济南市,长清党校,颗粒物(PM10),58,66,58,32,31,65,8,8,8,71,54,14,15,0.9,0.8
2022-12-25T02:00:00,1307A,120.6659,36.2403,青岛市,仰口(对照点),,25,24,26,17,17,80,77,79,78,10,8,4,4,0.7,0.6
2022-12-25T02:00:00,1310A,120.4134,36.0658,青岛市,市南区东部子站,,46,46,42,22,20,70,42,42,42,28,27,11,12,0.7,0.5
2022-12-25T02:00:00,1311A,120.3664,36.1032,青岛市,四方区子站,,42,39,40,29,22,63,42,44,43,21,24,10,11,0.7,0.6
2022-12-25T02:00:00,1312A,120.2994,36.054,青岛市,市南区西部子站,,29,29,37,17,17,75,54,57,56,21,20,10,12,1.1,0.8
2022-12-25T02:00:00,1313A,120.4581,36.0858,青岛市,崂山区子站,,46,46,44,29,20,72,32,38,35,42,30,11,13,0.8,0.6
2022-12-25T02:00:00,1314A,120.1983,35.9608,青岛市,黄岛区子站,,46,44,44,32,22,76,52,59,56,23,26,9,10,0.8,0.6
2022-12-25T02:00:00,1315A,120.3999,36.3083,青岛市,城阳区子站,颗粒物(PM10),54,58,44,34,23,70,13,14,14,53,31,9,12,1.1,0.7
2022-12-25T02:00:00,1316A,113.69031,34.76122,郑州市,烟厂,细颗粒物(PM2.5),67,82,58,48,36,60,5,4,4,67,35,8,9,0.7,0.7
2022-12-25T02:00:00,1317A,113.65724,34.77134,郑州市,郑纺机,细颗粒物(PM2.5),64,74,57,46,37,66,9,8,8,74,44,11,13,0.9,0.8
2022-12-25T02:00:00,1318A,113.67526,34.80246,郑州市,银行学校,细颗粒物(PM2.5),72,87,60,52,40,68,6,6,6,78,42,10,10,0.6,0.5
2022-12-25T02:00:00,1319A,113.56746,34.81334,郑州市,供水公司,细颗粒物(PM2.5),62,68,78,44,37,60,4,4,4,74,47,5,8,0.8,0.6
2022-12-25T02:00:00,1320A,113.7329,34.7178,郑州市,经开区管委,细颗粒物(PM2.5),95,106,62,71,41,66,2,2,2,70,43,7,10,0.9,0.6
2022-12-25T02:00:00,1321A,113.73961,34.77172,郑州市,四十七中,细颗粒物(PM2.5),64,71,62,46,38,60,3,2,2,67,36,7,8,0.7,0.6
2022-12-25T02:00:00,1322A,113.60532,34.74838,郑州市,市监测站,细颗粒物(PM2.5),89,105,70,66,41,68,3,3,3,73,43,5,8,0.9,0.8
2022-12-25T02:00:00,1323A,113.64164,34.7525,郑州市,河医大,细颗粒物(PM2.5),67,64,59,48,36,61,10,18,14,66,36,5,6,0.4,0.4
2022-12-25T02:00:00,1324A,113.51488,34.91089,郑州市,岗李水库(对照点),,,,,,,,,,,,,,,,
2022-12-25T02:00:00,1325A,114.3677,30.5584,武汉市,东湖梨园,细颗粒物(PM2.5),80,81,91,59,63,106,23,22,22,56,50,22,15,1.7,1
2022-12-25T02:00:00,1326A,114.2529,30.558,武汉市,汉阳月湖,细颗粒物(PM2.5),70,64,90,51,57,95,19,34,26,57,52,8,11,1.1,1
2022-12-25T02:00:00,1327A,114.282,30.6189,武汉市,汉口花桥,细颗粒物(PM2.5),83,68,95,61,58,87,27,42,34,44,49,9,13,0.7,1
2022-12-25T02:00:00,1328A,114.3025,30.5332,武汉市,武昌紫阳,细颗粒物(PM2.5),82,86,82,60,62,107,17,14,14,68,60,25,17,2.1,1.1
2022-12-25T02:00:00,1329A,114.3646,30.6217,武汉市,青山钢花,细颗粒物(PM2.5),73,78,96,53,62,91,22,35,28,53,58,10,14,0.8,0.9
2022-12-25T02:00:00,1330A,114.1566,30.4825,武汉市,沌口新区,,,,,,,,,,,,,,,,
2022-12-25T02:00:00,1331A,114.3014,30.5944,武汉市,汉口江滩,细颗粒物(PM2.5),65,64,87,47,61,96,38,50,44,40,47,9,12,0.7,0.8
2022-12-25T02:00:00,1333A,114.135,30.6319,武汉市,吴家山,细颗粒物(PM2.5),62,62,89,44,60,85,52,59,56,35,55,8,10,0.6,0.7
2022-12-25T02:00:00,1334A,113.8454,30.2917,武汉市,沉湖七壕(对照点),颗粒物(PM10),64,78,83,42,44,89,26,30,28,43,49,9,12,0.8,0.9
2022-12-25T02:00:00,1335A,113.0833,28.2325,长沙市,经开区环保局,颗粒物(PM10),63,75,85,44,59,94,33,33,33,49,39,8,7,0.7,0.6
2022-12-25T02:00:00,1336A,112.8872,28.2189,长沙市,高开区环保局,细颗粒物(PM2.5),105,115,88,79,58,98,8,9,8,97,53,8,9,0.9,0.7
2022-12-25T02:00:00,1337A,113.0792,28.2053,长沙市,马坡岭,细颗粒物(PM2.5),114,106,88,86,57,100,3,10,6,72,44,11,10,0.9,0.7
2022-12-25T02:00:00,1338A,112.9394,28.19,长沙市,湖南师范大学,细颗粒物(PM2.5),90,106,86,67,46,73,7,19,13,64,40,5,6,0.7,0.6
2022-12-25T02:00:00,1339A,113.0178,28.1322,长沙市,雨花区环保局,颗粒物(PM10),57,63,75,34,44,97,44,38,38,40,43,7,4,0.4,0.6
2022-12-25T02:00:00,1340A,112.9792,28.2597,长沙市,伍家岭,细颗粒物(PM2.5),103,139,107,77,61,105,6,6,6,76,51,7,7,0.9,0.7
2022-12-25T02:00:00,1341A,113.0014,28.1944,长沙市,火车新站,细颗粒物(PM2.5),98,116,85,73,48,87,4,5,4,86,50,8,8,0.9,0.6
2022-12-25T02:00:00,1342A,112.9844,28.1178,长沙市,天心区环保局,颗粒物(PM10),58,65,73,31,37,104,66,61,61,30,38,13,10,0.4,0.5
2022-12-25T02:00:00,1343A,112.8908,28.1308,长沙市,湖南中医药大学,细颗粒物(PM2.5),114,120,92,86,55,97,4,3,3,63,50,4,5,1.0,0.8
2022-12-25T02:00:00,1344A,112.9581,28.3611,长沙市,沙坪(对照点),细颗粒物(PM2.5),59,60,66,42,40,92,56,52,52,15,16,7,5,0.5,0.4
2022-12-25T02:00:00,1345A,113.2347,23.1423,广州市,广雅中学,颗粒物(PM10),55,59,50,26,22,86,6,16,11,71,48,5,5,0.8,0.8
2022-12-25T02:00:00,1346A,113.2612,23.105,广州市,市五中,,29,29,39,18,24,105,44,57,50,36,24,6,6,0.5,0.5
2022-12-25T02:00:00,1348A,113.3478,23.0916,广州市,广东商学院,,31,31,36,15,18,98,41,36,36,40,32,6,5,0.5,0.5
2022-12-25T02:00:00,1349A,113.4332,23.1047,广州市,市八十六中,,38,38,45,18,21,92,34,34,34,48,45,5,5,0.7,0.6
2022-12-25T02:00:00,1350A,113.3505,22.9483,广州市,番禺中学,,41,41,45,20,21,91,27,17,17,65,48,12,9,0.4,0.4
2022-12-25T02:00:00,1351A,113.2146,23.3916,广州市,花都师范,,31,31,34,16,17,97,75,72,72,16,20,7,7,0.5,0.5
2022-12-25T02:00:00,1352A,113.2597,23.1331,广州市,市监测站,,47,47,42,21,19,102,8,28,18,74,29,6,6,0.5,0.5
2022-12-25T02:00:00,1353A,113.5618,23.312,广州市,九龙镇镇龙,颗粒物(PM10),57,63,56,28,26,89,2,13,8,49,36,4,5,0.5,0.5
2022-12-25T02:00:00,1354A,113.2765,23.1544,广州市,麓湖,,35,35,38,15,18,100,13,15,14,52,35,4,5,0.4,0.4
2022-12-25T02:00:00,1355A,113.443,23.3035,广州市,帽峰山森林公园(对照点),,26,26,32,12,14,98,66,67,66,9,10,5,5,0.3,0.3
2022-12-25T02:00:00,1356A,114.1063,22.5545,深圳市,通心岭子站,颗粒物(PM10),56,62,39,29,18,89,3,4,4,71,40,2,3,1.0,0.6
2022-12-25T02:00:00,1357A,114.117,22.5625,深圳市,洪湖,颗粒物(PM10),67,83,52,30,19,98,8,8,8,74,43,8,8,0.7,0.5
2022-12-25T02:00:00,1358A,113.987,22.5417,深圳市,华侨城,,43,43,36,24,17,108,24,18,18,51,32,4,4,0.4,0.5
2022-12-25T02:00:00,1359A,113.9181,22.5171,深圳市,南海子站,颗粒物(PM10),51,51,41,32,17,111,3,4,4,78,35,5,5,0.8,0.6
2022-12-25T02:00:00,1360A,114.2458,22.5689,深圳市,盐田,,31,31,29,18,12,90,68,79,74,14,20,5,6,0.6,0.5
2022-12-25T02:00:00,1361A,114.2283,22.7244,深圳市,龙岗,颗粒物(PM10),56,62,40,30,17,93,6,5,5,92,39,5,6,0.6,0.5
2022-12-25T02:00:00,1363A,114.494,22.5422,深圳市,南澳,,30,30,32,21,18,97,53,60,56,10,14,2,2,0.4,0.3
2022-12-25T02:00:00,1364A,114.41,22.6342,深圳市,葵涌,,35,35,28,22,14,89,32,46,39,22,16,7,8,0.5,0.4
2022-12-25T02:00:00,1365A,114.297,22.5978,深圳市,梅沙,,36,36,34,15,13,107,71,93,82,16,13,7,7,0.6,0.5
2022-12-25T02:00:00,1366A,114.0678,22.738,深圳市,观澜,颗粒物(PM10),82,114,77,57,30,91,6,6,6,53,45,7,7,0.6,0.6
2022-12-25T02:00:00,1367A,113.5814,22.2618,珠海市,吉大,,44,44,47,20,18,141,35,50,42,42,30,8,8,0.4,0.3
2022-12-25T02:00:00,1368A,113.4881,22.2335,珠海市,前山,颗粒物(PM10),59,67,57,26,25,123,1,0,0,80,57,3,4,0.4,0.3
2022-12-25T02:00:00,1369A,113.628,22.4251,珠海市,唐家,,43,43,45,22,20,118,11,15,13,39,33,7,9,0.3,0.2
2022-12-25T02:00:00,1370A,113.299,22.2281,珠海市,斗门,颗粒物(PM10),53,56,58,29,31,100,3,25,14,71,54,4,6,0.2,0.3
2022-12-25T02:00:00,1371A,113.1294,23.0067,佛山市,湾梁,,29,29,43,18,21,101,31,20,20,55,37,7,7,0.4,0.4
2022-12-25T02:00:00,1372A,113.1083,23.0478,佛山市,华材职中,,,63,50,40,24,98,3,3,3,76,55,13,11,0.8,0.6
2022-12-25T02:00:00,1373A,113.144,23.0453,佛山市,南海气象局,,33,30,45,21,22,87,12,8,8,65,45,5,5,0.3,0.3
2022-12-25T02:00:00,1374A,113.2881,22.8094,佛山市,顺德苏岗,,44,44,37,22,19,78,0,0,0,74,51,13,9,0.7,0.6
2022-12-25T02:00:00,1376A,112.8383,22.8678,佛山市,高明孔堂,,44,44,55,24,27,111,7,12,10,57,36,5,8,0.5,0.4
2022-12-25T02:00:00,1377A,112.8836,23.1588,佛山市,三水监测站,颗粒物(PM10),58,66,56,35,31,98,18,15,15,65,42,14,13,0.6,0.5
2022-12-25T02:00:00,1378A,112.867,23.185,佛山市,三水云东海,,46,33,41,32,28,98,13,10,10,52,32,11,9,0.5,0.4
2022-12-25T02:00:00,1379A,113.3769,22.5211,中山市,华柏园,颗粒物(PM10),54,57,55,28,28,98,1,2,2,70,62,6,9,0.5,0.5
2022-12-25T02:00:00,1380A,113.3881,22.5497,中山市,张溪,颗粒物(PM10),61,72,68,30,33,102,0,0,0,79,62,4,8,0.6,0.6
2022-12-25T02:00:00,1381A,113.4075,22.5111,中山市,紫马岭,,31,31,48,17,20,108,5,6,6,47,48,8,10,0.4,0.5
2022-12-25T02:00:00,1382A,113.4411,22.4853,中山市,长江旅游区(对照点),,,,,,,,,,,,,,,,
2022-12-25T02:00:00,1383A,113.1064,22.6058,江门市,北街,颗粒物(PM10),58,66,55,34,26,87,6,6,6,86,63,11,9,0.8,0.6
2022-12-25T02:00:00,1384A,113.0731,22.5835,江门市,西区,颗粒物(PM10),62,74,63,38,29,89,3,4,4,82,58,9,8,0.6,0.5
2022-12-25T02:00:00,1385A,113.0219,22.5311,江门市,圭峰西,,42,42,44,25,22,93,22,27,24,64,43,6,5,0.4,0.4
2022-12-25T02:00:00,1386A,113.0828,22.5947,江门市,东湖,颗粒物(PM10),56,61,53,35,26,93,4,6,5,73,50,7,7,0.8,0.7
2022-12-25T02:00:00,1389A,113.7547,23.0494,东莞市,莞城梨川,,43,43,40,24,21,107,21,15,15,51,36,10,10,0.5,0.6
2022-12-25T02:00:00,1390A,113.7944,23.0128,东莞市,东城石井,,37,37,35,22,19,109,31,34,32,20,21,11,12,0.5,0.4
2022-12-25T02:00:00,1391A,113.7383,22.9658,东莞市,南城西平,颗粒物(PM10),53,56,48,32,24,111,5,10,8,77,52,12,12,0.4,0.4
2022-12-25T02:00:00,1392A,114.4183,23.0528,惠州市,河南岸金山湖子站,,30,30,36,15,18,87,54,57,56,20,18,12,9,0.4,0.5
2022-12-25T02:00:00,1393A,114.4053,23.0822,惠州市,下埔横江三路子站,,27,27,33,14,15,92,63,61,61,16,17,13,11,0.3,0.3
2022-12-25T02:00:00,1394A,114.4103,23.1142,惠州市,江北云山西路子站,,24,24,29,16,16,96,68,70,69,12,11,9,7,0.3,0.3
2022-12-25T02:00:00,1395A,114.4645,22.7833,惠州市,惠阳区承修路船湖子站,颗粒物(PM10),66,82,57,32,24,96,22,14,14,51,37,5,5,0.3,0.4
2022-12-25T02:00:00,1396A,114.5317,22.7422,惠州市,大亚湾管委会子站,颗粒物(PM10),51,51,44,27,25,93,17,16,16,49,37,4,5,0.6,0.6
2022-12-25T02:00:00,1397A,112.4267,23.0706,肇庆市,睦岗子站,,41,41,51,20,26,104,4,5,4,69,58,9,11,0.3,0.4
2022-12-25T02:00:00,1398A,112.4645,23.0475,肇庆市,城中子站,颗粒物(PM10),51,52,54,27,27,112,5,6,6,67,46,13,12,0.4,0.4
2022-12-25T02:00:00,1399A,112.5544,23.1522,肇庆市,坑口子站,,31,31,41,19,24,97,49,51,50,28,29,10,17,0.3,0.5
2022-12-25T02:00:00,1400A,112.4753,23.1,肇庆市,七星岩子站(对照点),,41,41,48,17,23,104,67,65,65,16,20,11,8,0.3,0.4
2022-12-25T02:00:00,1401A,108.3103,22.7881,南宁市,二十一中,细颗粒物(PM2.5),88,99,85,65,55,133,6,6,6,71,46,8,12,1.0,0.9
2022-12-25T02:00:00,1402A,108.3141,22.8528,南宁市,北湖,颗粒物(PM10),94,137,112,69,64,138,5,5,5,59,47,15,24,1.1,1
2022-12-25T02:00:00,1403A,108.3206,22.8225,南宁市,市监测站,细颗粒物(PM2.5),92,100,88,68,57,124,43,36,36,54,52,35,21,0.9,0.8
2022-12-25T02:00:00,1404A,108.3829,22.8037,南宁市,大自然花园,细颗粒物(PM2.5),82,70,72,60,49,130,39,48,44,38,30,14,15,0.9,0.8
2022-12-25T02:00:00,1405A,108.4394,22.7904,南宁市,仙葫(对照点),细颗粒物(PM2.5),99,128,84,74,51,123,4,5,4,74,43,20,16,1.2,0.9
2022-12-25T02:00:00,1406A,108.2397,22.8467,南宁市,区农职院,颗粒物(PM10),61,71,72,42,44,139,22,37,30,46,35,14,15,0.6,0.7
2022-12-25T02:00:00,1407A,108.3275,22.735,南宁市,英华嘉园,细颗粒物(PM2.5),127,117,92,96,62,125,5,6,6,90,59,9,12,1.1,0.9
2022-12-25T02:00:00,1408A,108.2257,22.7757,南宁市,沙井镇街道办,颗粒物(PM10),127,203,131,71,65,135,0,0,0,82,64,30,17,1.1,0.9
2022-12-25T02:00:00,1409A,110.576,19.9507,海口市,东寨港(对照点),,,12,31,15,15,109,36,30,30,,,3,3,0.4,0.4
2022-12-25T02:00:00,1410A,110.3232,20.0574,海口市,海南大学,,35,35,43,13,20,150,102,102,102,9,12,4,5,0.4,0.5
2022-12-25T02:00:00,1411A,110.283,20.0053,海口市,秀英海南医院,,39,39,44,21,18,154,97,97,97,14,14,6,6,0.5,0.6
2022-12-25T02:00:00,1412A,110.338,19.9969,海口市,海南师范大学,,44,44,44,16,14,148,90,88,88,15,14,5,6,0.6,0.6
2022-12-25T02:00:00,1413A,110.33,20.0356,海口市,龙华路环保局宿舍,,35,35,44,21,23,148,90,88,88,16,14,5,6,0.5,0.5
2022-12-25T02:00:00,1414A,106.3787,29.8279,重庆市,缙云山(对照点),细颗粒物(PM2.5),64,69,119,46,78,105,82,82,82,32,44,5,7,0.5,0.7
2022-12-25T02:00:00,1416A,106.4213,29.8253,重庆市,天生,细颗粒物(PM2.5),133,124,159,101,123,102,44,45,44,35,50,13,14,0.9,1.1
2022-12-25T02:00:00,1417A,106.6263,29.7228,重庆市,两路,细颗粒物(PM2.5),110,92,118,83,90,95,59,62,60,27,54,8,11,1.0,1.2
2022-12-25T02:00:00,1418A,106.2953,29.5983,重庆市,虎溪,细颗粒物(PM2.5),162,134,157,123,146,109,8,7,7,81,73,13,14,1.0,1.1
2022-12-25T02:00:00,1419A,106.5777,29.5102,重庆市,南坪,细颗粒物(PM2.5),94,105,164,70,129,100,62,62,62,28,51,8,17,1.0,1.2
2022-12-25T02:00:00,1420A,106.6556,29.6277,重庆市,唐家沱,细颗粒物(PM2.5),92,111,140,68,103,75,45,41,41,36,54,10,13,0.6,0.9
2022-12-25T02:00:00,1421A,106.6349,29.4906,重庆市,茶园,细颗粒物(PM2.5),135,140,169,103,115,91,47,37,37,49,81,8,13,1.0,1.2
2022-12-25T02:00:00,1422A,106.3754,29.4572,重庆市,白市驿,细颗粒物(PM2.5),94,113,183,70,136,106,59,64,62,40,58,10,15,0.8,1
2022-12-25T02:00:00,1425A,106.6205,29.7166,重庆市,空港,细颗粒物(PM2.5),120,102,124,91,102,106,62,65,64,21,50,8,12,1.0,1.2
2022-12-25T02:00:00,1426A,106.4782,29.4875,重庆市,新山村,细颗粒物(PM2.5),140,124,193,107,147,91,28,26,26,73,80,7,14,0.1,0.4
2022-12-25T02:00:00,1427A,106.5616,29.6453,重庆市,礼嘉,细颗粒物(PM2.5),87,95,158,64,95,115,66,66,66,32,67,11,14,1.4,1.9
2022-12-25T02:00:00,1428A,106.4522,29.7091,重庆市,蔡家,细颗粒物(PM2.5),133,139,164,101,110,96,4,4,4,66,69,,8,0.9,0.9
2022-12-25T02:00:00,1429A,106.5093,29.3917,重庆市,鱼新街,细颗粒物(PM2.5),118,124,175,89,135,83,42,34,34,41,60,13,15,2.0,2.1
2022-12-25T02:00:00,1431A,103.9728,30.7236,成都市,金泉两河,细颗粒物(PM2.5),133,143,152,101,123,86,57,54,54,21,42,3,5,0.6,0.8
2022-12-25T02:00:00,1432A,104.1419,30.6764,成都市,十里店,细颗粒物(PM2.5),201,162,184,151,158,79,35,33,33,44,60,4,6,0.8,1
2022-12-25T02:00:00,1433A,104.0594,30.5767,成都市,三瓦窑,细颗粒物(PM2.5),160,158,171,122,131,86,45,44,44,32,56,4,4,0.7,0.9
2022-12-25T02:00:00,1434A,104.1122,30.6306,成都市,沙河铺,细颗粒物(PM2.5),195,174,182,146,153,77,41,40,40,38,55,4,5,0.8,1.1
2022-12-25T02:00:00,1437A,104.0431,30.6556,成都市,君平街,细颗粒物(PM2.5),200,168,189,150,164,82,43,45,44,43,62,5,6,0.8,1
2022-12-25T02:00:00,1438A,103.6202,31.0201,成都市,灵岩寺(对照点),颗粒物(PM10),102,154,141,,,110,99,102,100,16,21,4,10,0.8,0.7
2022-12-25T02:00:00,1439A,106.6899,26.5998,贵阳市,马鞍山,细颗粒物(PM2.5),55,51,70,39,53,112,84,85,84,15,26,14,18,0.7,0.8
2022-12-25T02:00:00,1440A,106.6971,26.5694,贵阳市,市环保站,颗粒物(PM10),58,66,79,39,59,106,78,77,77,19,29,14,21,0.4,0.5
2022-12-25T02:00:00,1441A,106.6243,26.6266,贵阳市,鉴湖路,颗粒物(PM10),57,63,90,36,54,111,86,86,86,15,29,16,24,0.2,0.4
2022-12-25T02:00:00,1442A,106.7487,26.6343,贵阳市,燕子冲,细颗粒物(PM2.5),70,73,84,51,65,111,40,42,41,34,29,15,20,0.5,0.6
2022-12-25T02:00:00,1443A,106.6555,26.4365,贵阳市,碧云窝,细颗粒物(PM2.5),58,58,75,41,52,104,82,80,80,14,24,19,23,0.4,0.5
2022-12-25T02:00:00,1444A,106.694,26.5161,贵阳市,中院村,细颗粒物(PM2.5),58,58,78,41,56,95,72,73,72,20,30,14,23,0.5,0.6
2022-12-25T02:00:00,1445A,106.7109,26.6027,贵阳市,红边门,细颗粒物(PM2.5),62,58,85,44,59,109,77,76,76,24,35,16,26,0.7,0.7
2022-12-25T02:00:00,1446A,106.7164,26.5699,贵阳市,新华路,颗粒物(PM10),68,85,93,44,54,111,57,58,58,35,28,27,23,0.6,0.6
2022-12-25T02:00:00,1447A,106.674,26.5424,贵阳市,太慈桥,颗粒物(PM10),57,63,86,31,48,105,84,89,86,14,29,20,25,0.4,0.5
2022-12-25T02:00:00,1450A,102.8204,24.8886,昆明市,呈贡新区,细颗粒物(PM2.5),53,36,58,37,49,81,60,58,58,15,17,8,7,0.6,0.7
2022-12-25T02:00:00,1451A,102.6251,24.9608,昆明市,西山森林公园(对照点),,43,32,48,30,31,82,59,62,60,10,14,10,8,0.5,0.8
2022-12-25T02:00:00,1452A,102.7252,25.0902,昆明市,龙泉镇,细颗粒物(PM2.5),69,74,74,50,53,77,45,42,42,26,26,10,9,1.0,0.9
2022-12-25T02:00:00,1453A,102.7266,25.0375,昆明市,东风东路,细颗粒物(PM2.5),65,66,68,47,52,80,52,52,52,22,27,11,9,0.8,0.7
2022-12-25T02:00:00,1454A,102.6742,25.0669,昆明市,金鼎山,细颗粒物(PM2.5),77,68,75,56,58,71,49,50,50,17,23,12,10,1.0,0.9
2022-12-25T02:00:00,1455A,102.6644,25.0401,昆明市,碧鸡广场,细颗粒物(PM2.5),72,68,67,52,54,76,46,46,46,24,27,8,6,1.0,0.8
2022-12-25T02:00:00,1456A,91.1319,29.6514,拉萨市,八廓街,颗粒物(PM10),53,55,39,11,11,100,100,99,99,12,17,7,7,0,0.2
2022-12-25T02:00:00,1457A,91.1221,29.6747,拉萨市,市环保局,颗粒物(PM10),67,84,45,9,11,96,95,96,96,7,20,6,7,0.2,0.5
2022-12-25T02:00:00,1458A,91.0874,29.6475,拉萨市,区监测站,颗粒物(PM10),62,74,39,14,11,103,103,103,103,4,16,6,6,0.2,0.3
2022-12-25T02:00:00,1459A,91.1774,29.6541,拉萨市,西藏大学,颗粒物(PM10),73,95,34,25,14,102,95,95,95,9,16,9,10,1.0,0.7
2022-12-25T02:00:00,1460A,90.9798,29.6588,拉萨市,区辐射站,颗粒物(PM10),56,62,41,13,18,100,99,100,100,3,22,7,8,0.5,0.6
2022-12-25T02:00:00,1461A,91.0834,29.6292,拉萨市,拉萨火车站,颗粒物(PM10),63,75,45,11,8,95,94,95,94,7,20,9,9,0.2,0.4
2022-12-25T02:00:00,1462A,108.882,34.2749,西安市,高压开关厂,细颗粒物(PM2.5),211,218,156,161,108,76,12,16,14,82,65,13,13,1.6,1.1
2022-12-25T02:00:00,1463A,108.993,34.2629,西安市,兴庆小区,细颗粒物(PM2.5),204,150,129,154,98,73,14,29,22,78,55,16,15,1.3,0.9
2022-12-25T02:00:00,1464A,109.06,34.2572,西安市,纺织城,细颗粒物(PM2.5),206,188,147,156,107,67,6,4,4,80,63,14,14,1.3,1.1
2022-12-25T02:00:00,1465A,108.9356,34.2173,西安市,小寨,细颗粒物(PM2.5),230,260,154,180,96,65,13,14,14,74,68,16,15,1.8,1.4
2022-12-25T02:00:00,1466A,108.954,34.2713,西安市,市人民体育场,细颗粒物(PM2.5),215,191,140,165,102,77,12,22,17,86,62,16,15,1.3,0.9
2022-12-25T02:00:00,1467A,108.8922,34.2322,西安市,高新西区,细颗粒物(PM2.5),248,198,151,198,120,72,18,17,17,70,62,15,15,1.6,1.2
2022-12-25T02:00:00,1468A,108.935,34.3474,西安市,经开区,细颗粒物(PM2.5),199,174,138,149,113,79,9,10,10,78,58,14,15,1.1,1
2022-12-25T02:00:00,1469A,108.906,34.1546,西安市,长安区,细颗粒物(PM2.5),226,244,192,176,131,53,28,26,26,54,71,11,10,1.7,1.5
2022-12-25T02:00:00,1471A,109.2186,34.3731,西安市,临潼区,细颗粒物(PM2.5),115,146,143,87,94,71,49,44,44,32,52,17,15,1.0,1.3
2022-12-25T02:00:00,1472A,108.869,34.378,西安市,草滩(对照点),细颗粒物(PM2.5),142,143,140,108,102,80,13,11,11,64,56,14,14,0.7,0.8
2022-12-25T02:00:00,1473A,108.985,34.1978,西安市,曲江文化产业集团,细颗粒物(PM2.5),216,215,148,166,96,68,18,23,20,66,64,14,12,1.4,1
2022-12-25T02:00:00,1474A,109.051,34.3213,西安市,广运潭,细颗粒物(PM2.5),186,172,147,140,107,69,3,3,3,66,51,20,16,1.6,1.2
2022-12-25T02:00:00,1476A,103.631,36.1031,兰州市,兰炼宾馆,颗粒物(PM10),81,111,214,34,67,73,72,71,71,17,58,12,39,0.4,1.3
2022-12-25T02:00:00,1477A,104.1373,35.9454,兰州市,榆中兰大校区(对照点),,,,,,,,,,,,,,,,
2022-12-25T02:00:00,1478A,103.8412,36.0726,兰州市,生物制品所,颗粒物(PM10),71,92,244,30,65,74,64,65,64,25,58,15,25,0.6,2
2022-12-25T02:00:00,1479A,103.831,36.0464,兰州市,铁路设计院,颗粒物(PM10),60,69,225,37,80,79,79,78,78,18,62,13,30,0.6,2.5
2022-12-25T02:00:00,1483A,101.524,36.6867,西宁市,第五水厂(对照点),,,,,,,,,,,,,,,,
2022-12-25T02:00:00,1484A,105.9512,38.6016,银川市,贺兰山马莲口(对照点),,41,41,39,24,22,85,44,55,50,28,23,17,20,0.8,0.7
2022-12-25T02:00:00,1488A,106.2328,38.4975,银川市,贺兰山东路,颗粒物(PM10),64,78,116,29,56,59,48,50,49,28,44,5,12,0.6,1.3
2022-12-25T02:00:00,1489A,106.1358,38.5036,银川市,学院路,颗粒物(PM10),63,76,95,26,41,56,48,42,42,22,47,11,28,0.6,1.2
2022-12-25T02:00:00,1490A,87.5801,43.8303,乌鲁木齐市,监测站,细颗粒物(PM2.5),119,116,66,90,48,58,0,4,2,70,54,4,5,1.1,0.8
2022-12-25T02:00:00,1491A,87.6046,43.768,乌鲁木齐市,收费所,细颗粒物(PM2.5),124,114,70,94,58,54,4,4,4,76,56,1,2,1.0,0.8
2022-12-25T02:00:00,1492A,87.4754,43.9469,乌鲁木齐市,新疆农科院农场(对照点),细颗粒物(PM2.5),107,65,25,80,61,43,11,19,15,53,44,8,6,1.2,0.9
2022-12-25T02:00:00,1493A,87.5525,43.8711,乌鲁木齐市,铁路局,细颗粒物(PM2.5),143,124,63,109,51,49,9,13,11,64,54,3,3,0.9,0.8
2022-12-25T02:00:00,1494A,87.6432,43.831,乌鲁木齐市,三十一中学,细颗粒物(PM2.5),88,92,69,65,54,44,7,6,6,59,46,3,3,1.0,0.8
2022-12-25T02:00:00,1496A,87.7216,44.1747,乌鲁木齐市,米东区环保局,细颗粒物(PM2.5),59,63,93,42,73,66,32,28,28,37,45,5,5,0.6,0.7
2022-12-25T02:00:00,1508A,112.9433,27.8614,湘潭市,板塘,颗粒物(PM10),63,76,82,35,44,102,36,41,38,45,44,16,17,0.6,0.6
2022-12-25T02:00:00,1511A,112.9118,27.8403,湘潭市,市监测站,颗粒物(PM10),65,80,91,34,54,101,7,5,5,83,62,11,10,0.5,0.5
2022-12-25T02:00:00,1512A,112.8937,27.8728,湘潭市,江麓,颗粒物(PM10),66,81,82,37,44,115,24,28,26,62,52,12,13,0.6,0.6
2022-12-25T02:00:00,1513A,112.9227,27.8159,湘潭市,岳塘,细颗粒物(PM2.5),78,92,86,57,44,114,16,29,22,55,48,7,8,0.6,0.5
2022-12-25T02:00:00,1514A,112.9074,27.9119,湘潭市,科大,颗粒物(PM10),58,65,78,33,44,99,39,36,36,41,44,16,13,0.6,0.6
2022-12-25T02:00:00,1515A,113.135,27.8244,株洲市,天台山庄,颗粒物(PM10),58,66,68,37,37,114,47,47,47,33,37,8,8,0.5,0.5
2022-12-25T02:00:00,1518A,113.095,27.8867,株洲市,株冶医院,颗粒物(PM10),58,66,74,27,39,113,50,44,44,32,40,13,11,0.6,0.7
2022-12-25T02:00:00,1519A,113.167,27.8667,株洲市,市四中,颗粒物(PM10),56,61,71,39,39,110,41,38,38,32,33,3,4,0.5,0.5
2022-12-25T02:00:00,1520A,113.143,27.8381,株洲市,火车站,颗粒物(PM10),63,75,89,44,48,107,23,20,20,42,41,13,14,0.9,1
2022-12-25T02:00:00,1524A,113.13,27.8528,株洲市,市监测站,"颗粒物(PM10),细颗粒物(PM2.5)",57,63,77,40,42,115,56,54,54,29,35,12,10,0.7,0.8
2022-12-25T02:00:00,1552A,106.805,26.3003,贵阳市,桐木岭(对照点),,,,,,,,,,,,,,,,
2022-12-25T02:00:00,1559A,113.251,27.8336,株洲市,大京风景区(对照点),,31,31,54,19,30,119,41,49,45,7,9,3,5,0.4,0.4
2022-12-25T02:00:00,1562A,113.0048,27.9153,湘潭市,昭山,颗粒物(PM10),59,67,78,37,39,103,20,29,24,70,57,8,6,0.4,0.5
2022-12-25T02:00:00,1564A,112.4876,27.9164,湘潭市,韶山(对照点),细颗粒物(PM2.5),77,93,76,56,40,101,43,50,46,13,21,6,9,0.9,0.9
2022-12-25T02:00:00,1585A,109.8756,40.6532,包头市,市环境监测站,颗粒物(PM10),65,79,61,45,35,51,8,6,6,52,52,26,29,1.5,1.4
2022-12-25T02:00:00,1587A,109.9991,40.5842,包头市,包头八中,颗粒物(PM10),66,82,91,33,49,51,0,0,0,63,52,28,35,1.4,1.8
2022-12-25T02:00:00,1588A,109.8538,40.6821,包头市,青山宾馆,颗粒物(PM10),65,80,71,37,43,49,8,6,6,46,50,24,30,1.3,1.5
2022-12-25T02:00:00,1589A,109.8642,40.6288,包头市,惠龙物流,,,83,72,49,35,60,10,8,8,58,50,,29,1.2,1
2022-12-25T02:00:00,1590A,110.0377,40.5546,包头市,东河鸿龙湾,颗粒物(PM10),65,79,81,36,40,60,4,5,4,61,46,21,21,1.9,1.6
2022-12-25T02:00:00,1591A,110.0023,39.8129,鄂尔多斯市,综合楼,颗粒物(PM10),53,56,65,27,27,57,12,13,12,58,45,16,20,0.7,0.9
2022-12-25T02:00:00,1592A,109.9486,39.8261,鄂尔多斯市,巴音孟克林场办事处,,41,41,58,19,27,58,34,34,34,40,40,19,17,0.9,1
2022-12-25T02:00:00,1593A,109.7736,39.5986,鄂尔多斯市,康泽苑,颗粒物(PM10),58,66,66,29,27,49,8,10,9,45,33,9,9,1.0,1
2022-12-25T02:00:00,1594A,109.8119,39.5989,鄂尔多斯市,华泰汽车城,颗粒物(PM10),56,61,61,31,29,57,8,8,8,50,45,10,12,0.8,0.8
2022-12-25T02:00:00,1595A,109.9734,39.7884,鄂尔多斯市,奥林花园,颗粒物(PM10),53,56,70,17,26,57,5,6,6,68,49,15,14,1.0,1.2
2022-12-25T02:00:00,1596A,122.2414,40.6592,营口市,学府南路(停运211214),,,,,,,,,,,,,,,,
2022-12-25T02:00:00,1597A,122.2703,40.7094,营口市,大庆路,细颗粒物(PM2.5),98,98,63,73,40,63,9,10,10,56,32,35,24,2.6,1.3
2022-12-25T02:00:00,1598A,122.2150,40.6511,营口市,镜湖西路,细颗粒物(PM2.5),68,69,41,49,24,65,25,24,24,39,21,12,10,1.3,0.5
2022-12-25T02:00:00,1599A,122.1658,40.6789,营口市,西炮台,细颗粒物(PM2.5),64,66,40,46,26,62,13,16,14,48,25,7,9,0.8,0.4
2022-12-25T02:00:00,1600A,124.3303,40.0625,丹东市,江湾东路,,23,22,27,16,18,66,59,59,59,8,12,7,11,0.5,0.5
2022-12-25T02:00:00,1601A,124.4256,40.1503,丹东市,临江后街,,20,19,21,14,15,68,63,63,63,5,8,2,4,0.3,0.3
2022-12-25T02:00:00,1602A,124.3933,40.1461,丹东市,元宝山,,18,10,31,11,23,60,57,56,56,8,19,8,11,0.5,0.8
2022-12-25T02:00:00,1603A,124.3633,40.1092,丹东市,民主桥,,21,21,22,13,15,65,60,60,60,5,11,7,10,0.5,0.5
2022-12-25T02:00:00,1604A,122.0303,41.1489,盘锦市,开发区,,40,40,51,17,36,68,53,36,36,12,22,11,14,0.7,1
2022-12-25T02:00:00,1605A,122.0485,41.0883,盘锦市,兴隆台,颗粒物(PM10),53,55,48,20,24,62,47,29,29,18,29,11,18,0.6,0.7
2022-12-25T02:00:00,1606A,121.8297,41.1028,盘锦市,新生街道,颗粒物(PM10),54,57,41,32,22,66,8,7,7,65,38,14,12,1.3,0.7
2022-12-25T02:00:00,1607A,120.9092,40.7136,葫芦岛市,龙港区,颗粒物(PM10),64,77,74,26,35,69,42,44,43,31,30,46,45,0.7,0.9
2022-12-25T02:00:00,1608A,120.8392,40.7514,葫芦岛市,化工街,颗粒物(PM10),51,52,40,22,19,70,9,27,18,58,26,16,19,0.8,0.6
2022-12-25T02:00:00,1609A,120.8341,40.7073,葫芦岛市,新区,细颗粒物(PM2.5),69,86,51,50,30,70,10,17,14,58,27,21,22,1.0,0.8
2022-12-25T02:00:00,1610A,120.8695,40.7677,葫芦岛市,东城区,,34,34,44,14,21,74,57,57,57,11,22,37,23,0.6,0.7
2022-12-25T02:00:00,1611A,118.5819,24.9117,泉州市,涂山街,,41,41,43,14,15,139,68,91,80,19,16,8,9,0.6,0.6
2022-12-25T02:00:00,1612A,118.5972,24.8978,泉州市,津头埔,,24,18,34,10,18,135,76,83,80,15,17,8,9,0.5,0.5
2022-12-25T02:00:00,1613A,118.6663,24.9424,泉州市,万安,,26,26,41,9,19,132,60,75,68,30,18,7,9,0.5,0.5
2022-12-25T02:00:00,1614A,118.6117,24.9604,泉州市,清源山(对照点),,,,,,,,,,,,,,,,
2022-12-25T02:00:00,1616A,117.6795,36.229,济南市,技术学院,细颗粒物(PM2.5),72,88,57,52,30,65,6,8,7,63,40,11,13,0.8,0.6
2022-12-25T02:00:00,1618A,118.3429,35.0532,临沂市,沂河小区,细颗粒物(PM2.5),74,68,53,54,37,67,25,35,30,38,33,18,17,0.9,0.8
2022-12-25T02:00:00,1619A,118.295,35.0583,临沂市,鲁南制药厂,,,56,61,40,38,68,29,34,32,44,46,21,25,,1.1
2022-12-25T02:00:00,1620A,118.2794,34.9976,临沂市,新光毛纺厂,细颗粒物(PM2.5),55,53,53,39,34,68,30,30,30,44,45,15,15,1.2,1
2022-12-25T02:00:00,1621A,118.3956,35.0888,临沂市,河东保险公司,细颗粒物(PM2.5),73,70,49,53,34,70,16,25,20,58,39,16,15,1.1,1
2022-12-25T02:00:00,1622A,116.3032,37.4674,德州市,儿童乐园,颗粒物(PM10),56,61,55,34,29,71,4,4,4,73,51,10,9,0.7,0.6
2022-12-25T02:00:00,1624A,116.2991,37.4451,德州市,监理站,,45,45,44,27,24,75,22,19,19,58,40,9,9,0.7,0.6
2022-12-25T02:00:00,1625A,115.9848,36.4372,聊城市,区政府,细颗粒物(PM2.5),67,70,47,48,28,78,6,10,8,62,37,11,11,1.2,0.8
2022-12-25T02:00:00,1628A,118.0062,37.3803,滨州市,市环保局,细颗粒物(PM2.5),77,84,62,56,35,66,6,6,6,71,52,18,17,1.6,1.4
2022-12-25T02:00:00,1629A,118.0018,37.3617,滨州市,第二水厂,细颗粒物(PM2.5),69,85,75,50,30,66,6,7,6,74,52,11,10,1.2,1.1
2022-12-25T02:00:00,1630A,117.9776,37.393,滨州市,北中新校,细颗粒物(PM2.5),92,100,56,68,30,65,5,5,5,70,49,14,9,0.9,0.7
2022-12-25T02:00:00,1631A,118.0414,36.8103,淄博市,人民公园,细颗粒物(PM2.5),100,134,75,75,43,63,4,4,4,72,53,49,27,1.1,0.8
2022-12-25T02:00:00,1633A,117.8525,36.4847,淄博市,双山,"颗粒物(PM10),细颗粒物(PM2.5)",64,77,67,46,38,60,4,4,4,54,43,18,19,0.9,0.7
2022-12-25T02:00:00,1634A,117.9592,36.6331,淄博市,气象站,颗粒物(PM10),84,117,88,61,46,54,1,1,1,55,43,21,23,1.0,0.8
2022-12-25T02:00:00,1635A,118.3092,36.8194,淄博市,莆田园,细颗粒物(PM2.5),98,105,70,73,43,67,2,2,2,48,41,31,22,2.8,1.3
2022-12-25T02:00:00,1637A,117.558,34.8438,枣庄市,市中区政府,细颗粒物(PM2.5),94,110,66,70,37,71,7,9,8,65,38,22,18,1.6,1
2022-12-25T02:00:00,1638A,117.2852,34.7837,枣庄市,薛城环保局,细颗粒物(PM2.5),70,76,72,51,40,68,19,15,15,62,48,13,14,0.9,0.9
2022-12-25T02:00:00,1639A,117.5852,34.7745,枣庄市,峄城区政府,细颗粒物(PM2.5),92,127,63,68,31,71,9,14,12,55,38,18,20,0.8,0.6
2022-12-25T02:00:00,1640A,117.7276,34.5578,枣庄市,台儿庄区环保局,细颗粒物(PM2.5),94,112,70,70,42,71,10,11,10,70,45,19,17,1.0,0.7
2022-12-25T02:00:00,1641A,117.4518,35.0992,枣庄市,山亭区环保局,细颗粒物(PM2.5),59,58,46,42,30,72,20,20,20,35,33,9,10,1.0,0.9
2022-12-25T02:00:00,1642A,121.2514,37.5639,烟台市,开发区,,29,29,25,14,10,69,60,62,61,7,5,13,10,0.4,0.3
2022-12-25T02:00:00,1643A,121.3719,37.5433,烟台市,轴承厂,,,,23,,10,66,,67,,,4,,11,,0.2
2022-12-25T02:00:00,1644A,121.3181,37.5436,烟台市,西郊化工站,,31,31,25,15,11,78,71,72,72,5,5,11,9,0.5,0.5
2022-12-25T02:00:00,1645A,121.4478,37.4822,烟台市,莱山环保局,,29,29,21,14,10,70,66,66,66,4,4,10,9,0.6,0.6
2022-12-25T02:00:00,1646A,121.2611,37.4967,烟台市,福山环保局,,44,44,27,19,10,71,47,51,49,20,10,9,7,0.6,0.3
2022-12-25T02:00:00,1650A,119.1437,36.7023,潍坊市,环保局,细颗粒物(PM2.5),54,48,46,38,30,72,14,22,18,52,35,42,16,1.0,0.7
2022-12-25T02:00:00,1653A,116.6251,35.4302,济宁市,火炬城,颗粒物(PM10),53,56,44,36,29,83,26,28,27,37,21,18,17,0.7,0.5
2022-12-25T02:00:00,1655A,116.5491,35.4042,济宁市,电化厂,细颗粒物(PM2.5),62,66,49,44,33,78,12,18,15,64,34,42,27,1.0,0.7
2022-12-25T02:00:00,1656A,117.1437,36.1937,泰安市,监测站,细颗粒物(PM2.5),83,75,54,61,40,61,7,11,9,57,39,15,13,1.1,0.8
2022-12-25T02:00:00,1657A,117.0885,36.2017,泰安市,人口学校,颗粒物(PM10),54,58,47,36,26,55,13,18,16,56,41,14,12,0.7,0.6
2022-12-25T02:00:00,1658A,117.1089,36.1758,泰安市,电力学校,细颗粒物(PM2.5),65,73,53,47,30,61,4,5,4,60,42,20,20,1.2,0.9
2022-12-25T02:00:00,1659A,119.471,35.4209,日照市,监测站,,27,27,33,12,17,66,62,60,60,16,22,11,10,0.8,0.7
2022-12-25T02:00:00,1660A,119.523,35.4216,日照市,市政府广场,,29,29,32,16,15,67,56,58,57,11,15,6,7,0.8,0.7
2022-12-25T02:00:00,1661A,119.5587,35.4044,日照市,港务局,,32,24,38,22,22,70,62,61,61,12,19,6,6,0.9,0.8
2022-12-25T02:00:00,1662A,122.1214,37.4236,威海市,华夏技校,,29,29,24,17,13,74,73,74,74,8,9,3,2,0.3,0.3
2022-12-25T02:00:00,1663A,122.0508,37.5236,威海市,山大分校,,27,27,24,12,10,77,73,76,74,7,7,5,4,0.6,0.5
2022-12-25T02:00:00,1664A,122.1067,37.5072,威海市,市监测站,,24,24,24,7,12,73,71,73,72,6,9,2,2,0.2,0.2
2022-12-25T02:00:00,1666A,118.6614,37.4309,东营市,市环保局,细颗粒物(PM2.5),77,70,42,56,27,77,23,38,30,48,39,51,25,1.0,0.7
2022-12-25T02:00:00,1669A,113.5824,24.7733,韶关市,市八中,,42,42,39,17,19,103,21,33,27,37,22,10,11,0.4,0.4
2022-12-25T02:00:00,1671A,113.5917,24.7972,韶关市,园林处,,36,36,35,25,21,106,34,53,44,25,13,9,11,0.4,0.4
2022-12-25T02:00:00,1672A,113.6735,24.7791,韶关市,韶关学院,,,34,44,,29,101,26,30,28,32,28,11,15,0.6,0.7
2022-12-25T02:00:00,1673A,113.5971,24.6863,韶关市,曲江监测站,,42,42,48,22,22,102,9,8,8,48,29,8,10,0.3,0.3
2022-12-25T02:00:00,1674A,116.6794,23.3667,汕头市,金平子站,,29,26,49,20,26,122,82,89,86,16,19,13,14,0.7,0.7
2022-12-25T02:00:00,1675A,116.7244,23.3633,汕头市,龙湖子站,,38,38,50,15,22,128,91,98,94,17,21,12,13,0.6,0.6
2022-12-25T02:00:00,1676A,116.7258,23.2775,汕头市,濠江子站,,28,28,46,15,20,121,89,92,90,12,13,11,11,0.4,0.4
2022-12-25T02:00:00,1677A,116.7519,23.4714,汕头市,澄海子站,,42,42,48,26,27,124,76,79,78,24,22,8,8,0.5,0.5
2022-12-25T02:00:00,1678A,116.6092,23.2539,汕头市,潮阳子站,,35,35,47,14,21,113,83,88,86,14,16,9,9,0.5,0.6
2022-12-25T02:00:00,1680A,110.3539,21.2706,湛江市,湛江影剧院,,39,39,56,20,31,145,93,106,100,20,21,15,23,0.6,0.6
2022-12-25T02:00:00,1681A,110.3928,21.2228,湛江市,市环境监测站,,36,36,55,22,31,142,102,106,104,21,16,8,16,0.4,0.5
2022-12-25T02:00:00,1682A,110.4019,21.1997,湛江市,环保局宿舍,,38,38,51,23,31,137,107,110,108,17,17,6,14,0.4,0.5
2022-12-25T02:00:00,1683A,110.4111,21.2028,湛江市,霞山游泳场,,45,45,55,25,30,135,99,105,102,21,18,8,18,0.4,0.4
2022-12-25T02:00:00,1684A,110.3316,21.2679,湛江市,麻章区环保局,,39,39,63,21,36,148,99,106,102,17,24,12,24,0.4,0.5
2022-12-25T02:00:00,1685A,110.4558,21.2567,湛江市,坡头区环保局,,38,38,52,25,36,145,110,113,112,16,19,7,20,0.4,0.5
2022-12-25T02:00:00,1686A,111.0286,21.4688,茂名市,电白南海,颗粒物(PM10),63,75,73,36,33,117,60,67,64,28,25,21,15,0.5,0.4
2022-12-25T02:00:00,1687A,110.9294,21.6533,茂名市,茂石化七小,,39,39,58,24,36,96,68,74,71,18,24,21,24,0.5,0.6
2022-12-25T02:00:00,1688A,110.9107,21.6687,茂名市,健康路,,48,48,67,23,33,131,77,84,80,18,23,21,29,0.5,0.6
2022-12-25T02:00:00,1689A,110.8592,21.6828,茂名市,高岭,,48,48,74,29,45,127,56,82,69,25,32,44,33,0.7,0.8
2022-12-25T02:00:00,1690A,116.1231,24.3284,梅州市,梅江月梅,颗粒物(PM10),57,63,39,17,20,81,2,3,2,48,32,6,7,0.4,0.4
2022-12-25T02:00:00,1691A,116.0797,24.2719,梅州市,梅县新城,,27,27,40,18,24,13,3,6,4,44,47,7,7,0.5,0.6
2022-12-25T02:00:00,1692A,116.1248,24.2654,梅州市,环境监控中心,,32,32,40,20,22,82,8,6,6,41,35,9,10,0.5,0.5
2022-12-25T02:00:00,1693A,115.3653,22.775,汕尾市,市环保局,,49,44,41,34,21,124,79,86,82,16,12,8,9,0.5,0.4
2022-12-25T02:00:00,1694A,115.3706,22.7898,汕尾市,市政府,细颗粒物(PM2.5),52,40,40,36,23,127,82,92,87,15,15,9,9,0.7,0.5
2022-12-25T02:00:00,1695A,115.3622,22.7925,汕尾市,新城中学,颗粒物(PM10),59,68,50,30,25,122,83,90,86,13,11,10,10,0.7,0.5
2022-12-25T02:00:00,1696A,114.6778,23.7569,河源市,源西(对照点),,22,21,35,15,19,94,55,56,56,17,27,12,8,0.4,0.5
2022-12-25T02:00:00,1697A,114.6944,23.7586,河源市,东埔,,33,33,37,15,17,94,57,63,60,14,19,11,8,0.4,0.4
2022-12-25T02:00:00,1698A,114.6892,23.7233,河源市,老城,,41,41,44,13,18,94,44,43,43,18,21,5,6,0.4,0.4
2022-12-25T02:00:00,1699A,111.9797,21.8593,阳江市,鸳鸯湖(对照点),,,,52,38,34,114,4,43,24,74,29,10,11,0.7,0.5
2022-12-25T02:00:00,1701A,111.9491,21.8658,阳江市,马南垌,,41,41,53,25,29,112,35,22,22,34,36,5,8,0.5,0.6
2022-12-25T02:00:00,1702A,113.0426,23.691,清远市,环保大楼(对照点),,27,27,33,17,20,108,84,84,84,8,15,8,8,0.6,0.6
2022-12-25T02:00:00,1703A,113.0208,23.7106,清远市,凤城街办,,28,28,39,14,18,88,62,61,61,8,14,8,8,0.4,0.4
2022-12-25T02:00:00,1705A,116.6367,23.6719,潮州市,西园路(对照点),细颗粒物(PM2.5),73,32,50,53,38,125,42,42,42,16,18,7,9,0.6,0.5
2022-12-25T02:00:00,1706A,116.6447,23.6706,潮州市,档案局,细颗粒物(PM2.5),52,47,52,36,34,122,34,37,36,18,20,6,8,0.6,0.6
2022-12-25T02:00:00,1708A,116.3701,23.5345,揭阳市,新兴,细颗粒物(PM2.5),57,58,67,40,38,130,57,61,59,30,26,17,14,0.6,0.6
2022-12-25T02:00:00,1709A,116.3264,23.5443,揭阳市,西马,颗粒物(PM10),63,75,67,39,35,132,33,46,40,41,26,21,14,0.6,0.6
2022-12-25T02:00:00,1710A,116.3611,23.5626,揭阳市,东兴,颗粒物(PM10),57,64,71,38,36,125,40,49,44,42,30,22,14,0.5,0.6
2022-12-25T02:00:00,1711A,116.4151,23.5294,揭阳市,渔湖,细颗粒物(PM2.5),68,73,68,49,44,135,34,42,38,50,33,22,19,0.6,0.6
2022-12-25T02:00:00,1712A,112.0392,22.9169,云浮市,新市府(对照点),,32,15,38,22,27,108,56,56,56,10,16,8,11,0.4,0.5
2022-12-25T02:00:00,1714A,112.0539,22.9539,云浮市,牧羊,颗粒物(PM10),68,86,77,28,29,109,15,12,12,41,38,27,35,0.8,0.7
2022-12-25T02:00:00,1715A,102.575,24.3711,玉溪市,东风水库,细颗粒物(PM2.5),58,51,49,41,33,84,50,59,54,14,13,6,7,0.8,0.8
2022-12-25T02:00:00,1718A,115.4208,35.2464,菏泽市,气象局,细颗粒物(PM2.5),80,76,70,59,42,85,31,23,23,52,35,10,21,0.7,0.6
2022-12-25T02:00:00,1719A,115.4747,35.2375,菏泽市,市政协,细颗粒物(PM2.5),62,61,58,44,36,77,34,39,36,44,36,11,19,0.8,0.7
2022-12-25T02:00:00,1721A,113.3819,40.1097,大同市,果树场(对照点),,,,,,,,,,,,,,,,
2022-12-25T02:00:00,1723A,113.2994,40.0758,大同市,云冈宾馆,颗粒物(PM10),70,90,66,45,35,45,0,0,0,55,49,25,26,2.2,1.5
2022-12-25T02:00:00,1724A,113.3444,40.0917,大同市,大同大学,,43,43,42,21,23,57,20,20,20,32,34,18,23,0.9,1
2022-12-25T02:00:00,1725A,113.2661,40.1269,大同市,安家小村,颗粒物(PM10),89,127,91,47,35,54,7,7,7,59,48,31,34,1.6,1.7
2022-12-25T02:00:00,1726A,113.2711,40.0844,大同市,教育学院,细颗粒物(PM2.5),90,126,93,67,50,47,5,6,6,56,52,91,37,1.5,1.6
2022-12-25T02:00:00,1727A,113.1147,36.1547,长治市,清华站,细颗粒物(PM2.5),110,91,91,83,59,69,41,30,30,47,59,25,20,1.2,1.7
2022-12-25T02:00:00,1728A,113.1031,36.1989,长治市,监测站,细颗粒物(PM2.5),98,89,82,73,59,66,11,10,10,58,49,32,24,2.3,1.9
2022-12-25T02:00:00,1730A,113.0886,36.2125,长治市,审计局,细颗粒物(PM2.5),100,88,82,75,62,65,18,18,18,51,43,29,21,1.8,1.5
2022-12-25T02:00:00,1731A,113.0844,36.1856,长治市,长治八中,"颗粒物(PM10),细颗粒物(PM2.5)",73,96,97,53,55,66,23,22,22,38,38,30,31,1.3,1.5
2022-12-25T02:00:00,1733A,111.5531,36.0783,临汾市,临钢医院,细颗粒物(PM2.5),99,116,95,74,59,62,35,41,38,34,40,8,18,0.9,1
2022-12-25T02:00:00,1734A,111.5028,36.0714,临汾市,技工学校,细颗粒物(PM2.5),107,114,103,80,61,68,4,5,4,64,50,31,29,1.0,1
2022-12-25T02:00:00,1736A,111.5018,36.0855,临汾市,市委,细颗粒物(PM2.5),89,120,104,66,57,72,6,6,6,55,43,26,24,1.1,1
2022-12-25T02:00:00,1738A,113.5758,37.8572,阳泉市,市中心,颗粒物(PM10),70,89,81,40,37,44,3,3,3,64,59,21,27,1.0,1
2022-12-25T02:00:00,1739A,113.4894,37.8731,阳泉市,赛鱼,颗粒物(PM10),62,74,67,37,33,38,2,2,2,56,53,13,19,1.1,1.1
2022-12-25T02:00:00,1740A,113.5819,37.8486,阳泉市,南庄,颗粒物(PM10),85,120,80,50,39,47,4,4,4,60,53,29,28,1.7,1.4
2022-12-25T02:00:00,1742A,113.5614,37.8703,阳泉市,平坦,颗粒物(PM10),65,79,72,39,35,42,6,6,6,66,59,25,31,1.2,1.2
2022-12-25T02:00:00,1743A,113.5158,37.8392,阳泉市,大阳泉,细颗粒物(PM2.5),63,56,51,45,35,52,32,32,32,47,46,21,30,1.0,1
2022-12-25T02:00:00,1744A,118.9233,42.2816,赤峰市,松山一中,颗粒物(PM10),51,51,50,34,34,25,25,24,24,38,40,22,23,1.3,1.3
2022-12-25T02:00:00,1745A,118.9576,42.2728,赤峰市,哈达街,,50,50,37,31,26,78,32,31,31,25,29,15,17,1.0,0.9
2022-12-25T02:00:00,1746A,118.8788,42.2554,赤峰市,天义路,"颗粒物(PM10),细颗粒物(PM2.5)",52,54,39,36,22,80,30,32,31,27,30,18,18,1.3,0.8
2022-12-25T02:00:00,1748A,123.044,41.1196,鞍山市,深沟寺,,46,46,45,32,30,57,21,23,22,38,23,10,11,0.8,0.8
2022-12-25T02:00:00,1749A,123.011,41.0931,鞍山市,太阳城,,44,44,40,29,24,58,19,22,20,35,21,12,13,0.9,0.8
2022-12-25T02:00:00,1750A,123.0485,41.1442,鞍山市,太平,细颗粒物(PM2.5),74,88,63,54,38,53,9,11,10,46,31,12,14,1.3,0.9
2022-12-25T02:00:00,1751A,122.9642,41.0971,鞍山市,铁西三道街,细颗粒物(PM2.5),233,263,74,183,39,42,15,16,16,59,42,39,29,3.6,2.4
2022-12-25T02:00:00,1752A,122.9341,41.0833,鞍山市,铁西工业园区,细颗粒物(PM2.5),216,226,84,166,51,48,16,16,16,63,43,27,26,3.9,1.6
2022-12-25T02:00:00,1753A,123.022,41.0821,鞍山市,明达新区,,48,48,39,31,22,52,11,15,13,40,22,14,14,0.9,0.7
2022-12-25T02:00:00,1754A,123.1289,41.0228,鞍山市,千山(对照点),,,,,,,,,,,,,,,,
2022-12-25T02:00:00,1755A,123.7977,41.8491,抚顺市,望花区,细颗粒物(PM2.5),118,133,87,89,65,59,8,8,8,48,38,5,10,1.3,1.1
2022-12-25T02:00:00,1756A,123.9161,41.8822,抚顺市,顺城区,细颗粒物(PM2.5),127,121,95,96,78,68,4,5,4,43,39,11,12,1.9,1.6
2022-12-25T02:00:00,1757A,124.0436,41.8611,抚顺市,东洲区,细颗粒物(PM2.5),95,99,87,71,57,60,6,6,6,40,29,7,8,1.4,1.2
2022-12-25T02:00:00,1758A,123.9247,41.8642,抚顺市,新抚区,细颗粒物(PM2.5),99,91,74,74,61,64,10,10,10,38,35,4,5,1.1,0.9
2022-12-25T02:00:00,1759A,124.0972,41.8961,抚顺市,大伙房水库,细颗粒物(PM2.5),93,59,56,69,47,63,16,14,14,38,26,4,4,1.1,0.8
2022-12-25T02:00:00,1760A,123.7086,41.8391,抚顺市,沈抚新城,细颗粒物(PM2.5),69,73,69,50,48,53,3,4,4,47,40,7,13,1.0,0.8
2022-12-25T02:00:00,1761A,123.8275,41.3064,本溪市,大峪,细颗粒物(PM2.5),67,73,50,48,35,56,4,4,4,47,25,9,12,1.6,1.2
2022-12-25T02:00:00,1762A,123.7567,41.3325,本溪市,溪湖,颗粒物(PM10),71,91,68,45,42,58,6,7,6,46,32,7,11,1.1,0.8
2022-12-25T02:00:00,1763A,123.7169,41.3094,本溪市,彩屯,细颗粒物(PM2.5),69,58,61,50,47,56,14,16,15,42,34,8,13,1.2,1
2022-12-25T02:00:00,1764A,123.7669,41.2864,本溪市,东明,细颗粒物(PM2.5),70,76,47,51,36,59,6,7,6,49,32,9,14,1.3,0.9
2022-12-25T02:00:00,1765A,123.7992,41.2664,本溪市,新立屯,,28,18,37,19,32,62,8,8,8,50,30,7,11,0.6,0.8
2022-12-25T02:00:00,1766A,123.8142,41.3472,本溪市,威宁,细颗粒物(PM2.5),94,84,68,70,56,58,6,6,6,40,34,6,8,1.2,0.9
2022-12-25T02:00:00,1767A,121.1115,41.0879,锦州市,南山,,32,32,36,13,19,79,59,68,64,13,11,49,21,0.4,0.4
2022-12-25T02:00:00,1768A,121.0533,40.8434,锦州市,开发区,颗粒物(PM10),61,71,61,39,29,82,12,17,14,54,27,22,20,0.8,0.6
2022-12-25T02:00:00,1769A,121.1836,41.1119,锦州市,百股街道,颗粒物(PM10),58,66,58,24,21,81,43,41,41,27,20,34,24,0.7,0.6
2022-12-25T02:00:00,1770A,121.1178,41.1222,锦州市,天安街道,,26,26,43,10,17,72,59,58,58,12,16,39,22,0.2,0.2
2022-12-25T02:00:00,1771A,121.1303,41.1386,锦州市,北湖公园,,24,24,37,14,17,77,62,62,62,7,7,43,21,0.5,0.5
2022-12-25T02:00:00,1772A,126.54,43.8622,吉林市,哈达湾,细颗粒物(PM2.5),69,60,56,50,48,59,50,51,50,23,27,10,13,0.8,0.7
2022-12-25T02:00:00,1773A,126.5844,43.8358,吉林市,东局子,细颗粒物(PM2.5),70,63,59,51,46,51,47,46,46,22,32,9,16,0.8,0.8
2022-12-25T02:00:00,1774A,126.5052,43.8245,吉林市,电力学院,细颗粒物(PM2.5),84,76,91,62,63,59,35,35,35,27,32,10,21,1.6,1.6
2022-12-25T02:00:00,1775A,126.6133,43.8972,吉林市,江北,细颗粒物(PM2.5),65,57,61,47,44,56,52,54,53,17,27,17,21,1.3,1.3
2022-12-25T02:00:00,1776A,126.555,43.8306,吉林市,江南公园,细颗粒物(PM2.5),78,63,59,57,49,56,37,37,37,32,31,10,16,0.9,0.8
2022-12-25T02:00:00,1778A,126.7061,43.7133,吉林市,丰满(对照点),,,,,,,,,,,,,,,,
2022-12-25T02:00:00,1779A,123.9305,47.3636,齐齐哈尔市,安居小区,,26,13,23,18,15,60,48,50,49,8,12,4,6,0.1,0.2
2022-12-25T02:00:00,1780A,123.9488,47.3386,齐齐哈尔市,中心广场,,19,14,20,2,5,62,58,60,59,6,9,2,4,0.3,0.4
2022-12-25T02:00:00,1781A,123.9483,47.3227,齐齐哈尔市,农牧车辆厂,,17,12,19,2,9,62,54,57,56,7,10,5,7,0.3,0.4
2022-12-25T02:00:00,1783A,123.945,47.2988,齐齐哈尔市,市环境监测站,,22,12,19,15,20,62,57,57,57,7,10,3,4,0.3,0.3
2022-12-25T02:00:00,1784A,129.61,44.561,牡丹江市,环保大楼,,42,33,37,29,28,62,55,59,57,12,15,8,10,0.3,0.3
2022-12-25T02:00:00,1785A,129.6115,44.5782,牡丹江市,文化广场,,39,31,32,27,30,56,55,56,56,10,21,8,10,0.4,0.4
2022-12-25T02:00:00,1786A,129.5904,44.5963,牡丹江市,第一医院,,48,43,39,33,35,57,54,54,54,13,22,5,7,0.5,0.6
2022-12-25T02:00:00,1787A,129.6364,44.6075,牡丹江市,机车工厂,,45,40,49,31,28,60,50,52,51,19,24,2,4,0.4,0.5
2022-12-25T02:00:00,1788A,129.6386,44.5462,牡丹江市,第一中学,,46,28,32,32,30,65,56,59,58,15,17,6,6,0.4,0.4
2022-12-25T02:00:00,1789A,124.81117,46.03138,大庆市,大同区,,26,13,25,18,17,60,50,50,50,8,8,6,6,0.5,0.4
2022-12-25T02:00:00,1790A,125.129,46.533,大庆市,龙凤区,,28,16,21,19,11,56,49,49,49,9,12,5,6,0.3,0.2
2022-12-25T02:00:00,1791A,124.902,46.408,大庆市,红岗区,,22,13,22,15,12,63,53,51,51,9,10,6,5,0.3,0.2
2022-12-25T02:00:00,1792A,125.153,46.586,大庆市,萨尔图区,,20,20,16,11,11,56,49,48,48,11,14,9,7,0.3,0.4
2022-12-25T02:00:00,1793A,124.9042,46.6215,大庆市,让胡路区,,28,21,17,19,17,62,57,56,56,4,6,5,5,0.4,0.4
2022-12-25T02:00:00,1794A,118.3606,31.3519,芜湖市,监测站,细颗粒物(PM2.5),57,54,70,40,41,71,16,14,14,65,62,7,9,1.0,0.8
2022-12-25T02:00:00,1795A,118.3714,31.4134,芜湖市,科创中心,细颗粒物(PM2.5),59,61,69,42,42,78,7,8,8,73,51,12,13,0.8,0.5
2022-12-25T02:00:00,1796A,118.3673,31.3131,芜湖市,四水厂,细颗粒物(PM2.5),54,56,63,38,40,70,29,26,26,46,54,8,13,0.8,0.7
2022-12-25T02:00:00,1798A,118.5092,31.6837,马鞍山市,湖东路四小,细颗粒物(PM2.5),53,38,52,37,40,62,3,7,5,64,51,7,14,0.7,0.8
2022-12-25T02:00:00,1799A,118.5024,31.6449,马鞍山市,开发区,细颗粒物(PM2.5),55,51,53,39,40,62,3,7,5,64,49,5,13,0.6,1
2022-12-25T02:00:00,1800A,118.5228,31.7231,马鞍山市,慈湖,细颗粒物(PM2.5),67,70,62,48,40,66,9,8,8,48,49,9,12,0.8,0.7
2022-12-25T02:00:00,1802A,118.6245,31.7241,马鞍山市,濮塘(对照点),,46,46,54,32,30,66,30,32,31,25,30,6,8,0.4,0.5
2022-12-25T02:00:00,1803A,115.9872,29.6815,九江市,十里,颗粒物(PM10),57,64,56,35,32,88,43,52,48,30,35,14,11,0.7,0.7
2022-12-25T02:00:00,1804A,115.9584,29.7046,九江市,茅山头,细颗粒物(PM2.5),64,61,62,46,40,76,35,47,41,30,34,17,13,0.9,0.8
2022-12-25T02:00:00,1805A,115.9877,29.7295,九江市,西园,细颗粒物(PM2.5),60,63,57,43,41,75,32,38,35,37,38,13,9,0.7,0.5
2022-12-25T02:00:00,1806A,116.0172,29.6547,九江市,五七二七厂,颗粒物(PM10),53,56,44,33,32,87,54,63,58,20,22,12,11,0.3,0.7
2022-12-25T02:00:00,1808A,115.9114,29.6038,九江市,综合工业园,细颗粒物(PM2.5),62,55,54,44,37,76,43,47,45,35,40,11,9,0.5,0.6
2022-12-25T02:00:00,1809A,116.0721,29.7535,九江市,石化总厂,细颗粒物(PM2.5),74,75,70,54,39,84,33,36,34,36,32,15,13,0.8,0.7
2022-12-25T02:00:00,1810A,115.9773,29.5698,九江市,庐山气象台(对照点),,30,25,26,19,13,96,96,95,95,12,13,7,8,0.6,0.6
2022-12-25T02:00:00,1812A,112.3931,34.6516,洛阳市,市委党校,细颗粒物(PM2.5),100,128,122,75,65,58,2,3,2,65,48,12,16,0.8,0.8
2022-12-25T02:00:00,1814A,112.4657,34.6871,洛阳市,豫西宾馆,细颗粒物(PM2.5),75,94,110,55,67,60,7,7,7,66,50,10,14,0.7,0.7
2022-12-25T02:00:00,1815A,112.494,34.6886,洛阳市,河南林校,细颗粒物(PM2.5),72,85,113,52,66,63,13,13,13,57,48,8,10,0.6,0.7
2022-12-25T02:00:00,1816A,112.3844,34.623,洛阳市,开发区管委会,细颗粒物(PM2.5),84,99,116,62,72,67,5,6,6,66,46,8,14,0.6,0.6
2022-12-25T02:00:00,1817A,112.4267,34.6258,洛阳市,市委新办公区,细颗粒物(PM2.5),83,89,118,61,73,76,20,24,22,63,49,8,14,0.7,0.7
2022-12-25T02:00:00,1818A,114.4839,36.0621,安阳市,棉研所(对照点),,,,,,,,,,,,,,,,
2022-12-25T02:00:00,1819A,114.3551,36.1017,安阳市,红庙街,细颗粒物(PM2.5),109,131,99,82,67,54,2,2,2,63,53,10,10,1.5,1.3
2022-12-25T02:00:00,1820A,114.361,36.0681,安阳市,银杏小区,细颗粒物(PM2.5),100,103,90,75,68,66,5,5,5,62,51,11,14,1.5,1.3
2022-12-25T02:00:00,1824A,114.3389,34.7781,开封市,肿瘤医院,细颗粒物(PM2.5),108,113,88,81,53,64,4,7,6,68,44,8,14,1.5,1.2
2022-12-25T02:00:00,1826A,114.2885,34.7965,开封市,世纪星幼儿园,细颗粒物(PM2.5),87,82,70,64,53,71,3,7,5,71,47,7,12,1.3,1.1
2022-12-25T02:00:00,1828A,113.227,35.2125,焦作市,市环保局,颗粒物(PM10),68,85,98,39,54,62,40,42,41,23,35,10,17,0.7,0.9
2022-12-25T02:00:00,1830A,113.1992,35.2590,焦作市,影视城(对照点),,,,,,,,,,,,,,,,
2022-12-25T02:00:00,1832A,113.3257,33.742,平顶山市,新华旅馆,颗粒物(PM10),63,75,99,43,52,67,24,20,20,49,40,8,13,0.3,0.5
2022-12-25T02:00:00,1833A,113.2919,33.737,平顶山市,规划设计院,细颗粒物(PM2.5),100,109,77,75,46,68,4,36,20,55,28,10,16,0.9,0.7
2022-12-25T02:00:00,1834A,113.182,33.774,平顶山市,平顶山工学院,细颗粒物(PM2.5),92,88,77,68,45,71,20,18,18,56,37,7,13,0.7,0.8
2022-12-25T02:00:00,1835A,111.1922,34.7752,三门峡市,市政府,细颗粒物(PM2.5),73,63,115,53,75,74,42,40,40,31,35,14,17,0.7,0.7
2022-12-25T02:00:00,1836A,111.1587,34.7942,三门峡市,开发区,细颗粒物(PM2.5),84,102,140,62,68,48,36,34,34,32,32,12,11,0.6,0.7
2022-12-25T02:00:00,1838A,111.143,34.7955,三门峡市,风景区(对照点),,,,,,,,,,,,,,,,
2022-12-25T02:00:00,1840A,111.2992,30.6981,宜昌市,白龙岗,细颗粒物(PM2.5),149,136,137,114,98,166,48,46,46,39,39,7,8,1.1,1.1
2022-12-25T02:00:00,1841A,111.3549,30.6465,宜昌市,伍家岗,细颗粒物(PM2.5),203,197,138,153,98,112,6,8,7,77,57,3,6,1.4,1
2022-12-25T02:00:00,1842A,111.2628,30.6961,宜昌市,点军区,细颗粒物(PM2.5),208,193,145,158,108,111,23,19,19,33,34,5,8,1.3,1
2022-12-25T02:00:00,1843A,111.3275,30.7819,宜昌市,夷陵区,细颗粒物(PM2.5),149,132,122,114,99,112,21,16,16,47,42,6,9,1.0,0.9
2022-12-25T02:00:00,1844A,112.2494,30.3197,荆州市,市图书馆,细颗粒物(PM2.5),172,162,133,130,109,108,47,51,49,36,43,13,11,0.8,0.9
2022-12-25T02:00:00,1845A,112.2008,30.3544,荆州市,市委党校,细颗粒物(PM2.5),176,167,132,133,107,113,48,52,50,37,45,16,10,0.9,1
2022-12-25T02:00:00,1847A,113.1094,29.3578,岳阳市,南湖风景区,细颗粒物(PM2.5),80,83,86,59,54,86,20,27,24,72,54,32,18,0.7,0.8
2022-12-25T02:00:00,1848A,113.1493,29.4251,岳阳市,城陵矶,颗粒物(PM10),75,100,86,53,49,74,44,38,38,41,50,12,16,0.9,0.9
2022-12-25T02:00:00,1849A,113.1497,29.3575,岳阳市,开发区,细颗粒物(PM2.5),94,96,83,70,58,67,8,7,7,70,54,13,14,0.9,0.9
2022-12-25T02:00:00,1850A,113.2621,29.4758,岳阳市,云溪区,细颗粒物(PM2.5),69,83,77,50,45,86,50,53,52,29,31,11,11,0.7,0.8
2022-12-25T02:00:00,1851A,112.9943,29.4402,岳阳市,君山区,细颗粒物(PM2.5),80,89,79,59,51,102,39,47,43,36,32,10,12,0.6,0.6
2022-12-25T02:00:00,1852A,113.2117,29.355,岳阳市,金凤水库(对照点),,,88,75,52,44,77,38,42,40,25,28,,13,0.8,0.8
2022-12-25T02:00:00,1854A,111.6975,28.9703,常德市,市二中,细颗粒物(PM2.5),217,174,138,167,114,81,14,20,17,53,36,9,9,1.0,0.8
2022-12-25T02:00:00,1857A,111.7158,29.1456,常德市,白鹤山(对照点),细颗粒物(PM2.5),90,102,91,67,62,102,69,68,68,18,16,10,9,0.5,0.5
2022-12-25T02:00:00,1858A,110.5319,29.1217,张家界市,永定新区,细颗粒物(PM2.5),130,122,103,99,74,114,65,65,65,33,25,10,8,0.6,0.5
2022-12-25T02:00:00,1859A,110.4697,29.1242,张家界市,电业局,细颗粒物(PM2.5),123,120,96,93,69,113,76,77,76,19,17,11,8,0.8,0.7
2022-12-25T02:00:00,1860A,110.5594,29.3547,张家界市,未央路,细颗粒物(PM2.5),99,105,83,74,54,121,52,56,54,8,9,3,3,0.9,0.8
2022-12-25T02:00:00,1861A,110.4417,29.315,张家界市,袁家界(对照点),细颗粒物(PM2.5),104,118,72,78,45,134,113,113,113,12,8,16,13,0.8,0.6
2022-12-25T02:00:00,1862A,110.4144,25.3167,桂林市,电子科大尧山校区(对照点),颗粒物(PM10),58,65,78,39,47,133,96,102,99,4,4,10,13,0.6,0.6
2022-12-25T02:00:00,1863A,110.2819,25.2697,桂林市,监测站,细颗粒物(PM2.5),62,68,83,44,53,136,96,99,98,13,18,15,14,0.5,0.5
2022-12-25T02:00:00,1864A,110.3089,25.2708,桂林市,龙隐路小学,细颗粒物(PM2.5),59,64,74,42,50,126,85,93,89,15,17,21,21,0.5,0.5
2022-12-25T02:00:00,1865A,110.2869,25.2178,桂林市,八中,颗粒物(PM10),57,63,79,39,43,132,88,88,88,12,19,14,15,0.4,0.5
2022-12-25T02:00:00,1866A,109.2262,21.588,北海市,牛尾岭水库(对照点),细颗粒物(PM2.5),75,55,62,55,45,122,35,41,38,14,18,7,13,0.5,0.6
2022-12-25T02:00:00,1867A,109.1436,21.4086,北海市,海滩公园,,36,36,63,15,36,162,110,119,114,6,15,6,13,0.6,0.7
2022-12-25T02:00:00,1868A,109.0981,21.4661,北海市,新市环保局,,37,37,65,22,48,148,106,109,108,13,22,5,12,0.2,0.4
2022-12-25T02:00:00,1869A,109.1778,21.5233,北海市,北海工业园,细颗粒物(PM2.5),80,76,79,59,49,150,49,60,54,34,25,7,14,0.6,0.5
2022-12-25T02:00:00,1870A,109.4856,24.3895,柳州市,柳东小学,细颗粒物(PM2.5),133,139,92,101,70,132,26,32,29,60,24,29,19,1.0,0.9
2022-12-25T02:00:00,1871A,109.4157,24.3277,柳州市,环保监测站,细颗粒物(PM2.5),113,102,89,85,71,124,4,8,6,72,47,7,16,1.4,1.2
2022-12-25T02:00:00,1872A,109.389,24.341,柳州市,河西水厂,细颗粒物(PM2.5),117,140,120,88,69,98,13,9,9,52,48,11,23,1.3,1.5
2022-12-25T02:00:00,1873A,109.4311,24.2921,柳州市,市四中,细颗粒物(PM2.5),92,114,97,68,63,133,9,8,8,64,41,9,16,1.3,1.3
2022-12-25T02:00:00,1874A,109.4006,24.3631,柳州市,市九中,细颗粒物(PM2.5),115,150,116,87,68,98,4,5,4,68,49,11,20,1.2,1.3
2022-12-25T02:00:00,1875A,109.4958,24.3134,柳州市,古亭山,细颗粒物(PM2.5),62,52,71,44,51,130,6,6,6,76,31,12,16,0.9,0.6
2022-12-25T02:00:00,1876A,109.5078,18.2489,三亚市,河东子站,,40,31,37,15,15,134,128,130,129,5,6,3,3,0.4,0.4
2022-12-25T02:00:00,1877A,109.4964,18.2681,三亚市,河西子站,,35,35,36,16,16,126,109,113,111,6,8,3,3,0.3,0.3
2022-12-25T02:00:00,1878A,104.7778,31.4741,绵阳市,富乐山,细颗粒物(PM2.5),192,174,160,144,122,108,70,68,68,21,39,3,3,0.9,1
2022-12-25T02:00:00,1879A,104.7563,31.4535,绵阳市,市人大,细颗粒物(PM2.5),160,178,177,122,135,90,44,39,39,38,59,2,3,1.0,1.1
2022-12-25T02:00:00,1880A,104.6697,31.4668,绵阳市,高新区自来水公司,细颗粒物(PM2.5),189,179,193,142,149,90,52,44,44,45,52,4,6,1.0,1.2
2022-12-25T02:00:00,1881A,104.7287,31.5075,绵阳市,三水厂,细颗粒物(PM2.5),218,216,196,168,146,89,35,20,20,51,55,3,4,1.0,1.2
2022-12-25T02:00:00,1882A,104.563,28.793,宜宾市,石马中学(对照点),细颗粒物(PM2.5),196,164,150,147,126,94,33,48,40,30,29,10,10,0.9,0.9
2022-12-25T02:00:00,1883A,104.6201,28.7728,宜宾市,市委,细颗粒物(PM2.5),193,182,159,145,125,104,27,24,24,40,36,12,12,,
2022-12-25T02:00:00,1884A,104.6055,28.793,宜宾市,宜宾四中,细颗粒物(PM2.5),213,186,165,163,137,103,5,22,14,66,46,10,11,0.9,0.9
2022-12-25T02:00:00,1885A,104.639,28.7562,宜宾市,市政府,细颗粒物(PM2.5),204,190,155,154,126,110,26,26,26,48,44,13,11,0.8,0.8
2022-12-25T02:00:00,1886A,104.5742,28.7199,宜宾市,黄金嘴,细颗粒物(PM2.5),195,178,147,146,118,110,52,36,36,,25,15,12,0.8,0.9
2022-12-25T02:00:00,1888A,101.6891,26.571,攀枝花市,弄弄坪,细颗粒物(PM2.5),107,116,79,80,58,114,2,3,2,69,33,17,22,3.0,2
2022-12-25T02:00:00,1889A,101.5769,26.5928,攀枝花市,河门口,细颗粒物(PM2.5),64,63,74,46,53,116,36,34,34,25,31,14,16,1.7,2
2022-12-25T02:00:00,1890A,101.7169,26.585,攀枝花市,炳草岗,细颗粒物(PM2.5),100,93,79,75,58,102,3,4,4,66,49,20,29,1.8,1.7
2022-12-25T02:00:00,1891A,101.7369,26.5008,攀枝花市,仁和,颗粒物(PM10),52,53,60,30,43,126,25,31,28,20,23,10,19,1.1,1.2
2022-12-25T02:00:00,1893A,105.4324,28.9634,泸州市,九狮山(对照点),细颗粒物(PM2.5),225,193,159,175,140,86,6,7,6,18,21,7,10,0.6,0.6
2022-12-25T02:00:00,1894A,105.4427,28.9063,泸州市,小市上码头,细颗粒物(PM2.5),308,325,235,258,182,75,19,16,16,39,41,9,11,1.5,1
2022-12-25T02:00:00,1895A,105.4241,28.8573,泸州市,兰田宪桥,细颗粒物(PM2.5),288,274,202,238,165,89,11,10,10,41,38,16,13,1.1,1
2022-12-25T02:00:00,1896A,105.4379,28.8833,泸州市,市环监站,,,,,,,,,,,,,,,,
2022-12-25T02:00:00,1901A,104.4239,31.1208,德阳市,东山公园,细颗粒物(PM2.5),188,173,191,141,150,84,40,43,42,54,53,2,7,0.9,1
2022-12-25T02:00:00,1902A,104.3826,31.1317,德阳市,西小区,细颗粒物(PM2.5),162,147,177,123,146,74,50,48,48,39,57,2,7,0.9,1.1
2022-12-25T02:00:00,1904A,104.3553,31.1091,德阳市,耐火材料厂,细颗粒物(PM2.5),173,179,220,131,153,86,44,40,40,44,51,1,9,0.9,1.1
2022-12-25T02:00:00,1905A,106.056,30.8064,南充市,西山风景区(对照点),细颗粒物(PM2.5),123,107,124,93,106,56,54,52,52,13,24,4,5,1.1,1.2
2022-12-25T02:00:00,1906A,106.0789,30.8023,南充市,南充市委,细颗粒物(PM2.5),132,113,137,100,103,40,40,38,38,24,39,5,6,0.8,0.9
2022-12-25T02:00:00,1907A,106.1031,30.8217,南充市,南充炼油厂,细颗粒物(PM2.5),118,121,137,89,107,50,50,48,48,12,26,7,8,0.7,0.7
2022-12-25T02:00:00,1908A,106.1064,30.7856,南充市,高坪区监测站,细颗粒物(PM2.5),134,122,141,102,109,48,45,44,44,20,37,9,11,0.7,0.9
2022-12-25T02:00:00,1909A,106.0642,30.7636,南充市,嘉陵区环保局,细颗粒物(PM2.5),119,117,135,90,102,47,46,47,46,25,42,7,16,0.9,1
2022-12-25T02:00:00,1910A,106.1087,30.8388,南充市,市环境监测站,细颗粒物(PM2.5),125,122,139,95,105,42,42,40,40,14,27,8,8,1.0,1
2022-12-25T02:00:00,1911A,106.9222,27.6869,遵义市,丁字口,细颗粒物(PM2.5),53,50,73,37,61,110,92,94,93,16,36,21,40,0.7,1
2022-12-25T02:00:00,1912A,106.9242,27.7019,遵义市,凤凰山,颗粒物(PM10),51,52,76,23,42,119,102,104,103,16,27,10,20,0.5,0.8
2022-12-25T02:00:00,1913A,106.8906,27.6486,遵义市,忠庄,,50,50,81,30,62,108,76,79,78,18,31,10,18,0.6,0.9
2022-12-25T02:00:00,1914A,106.9231,27.6506,遵义市,舟水桥,,43,40,87,30,59,106,84,83,83,11,27,12,47,0.3,0.9
2022-12-25T02:00:00,1915A,106.9178,27.72,遵义市,干田坝,,48,48,64,30,49,107,84,86,85,16,31,14,22,0.6,0.8
2022-12-25T02:00:00,1916A,103.7897,25.5035,曲靖市,环境监测站,颗粒物(PM10),56,62,81,38,58,85,67,65,65,13,19,4,6,0.3,0.7
2022-12-25T02:00:00,1917A,103.8,25.5364,曲靖市,烟厂办公区,颗粒物(PM10),61,71,83,41,52,84,58,65,62,16,17,11,11,0.8,0.9
2022-12-25T02:00:00,1918A,108.7197,34.3956,咸阳市,气象站(对照点),细颗粒物(PM2.5),211,214,149,161,114,67,4,4,4,79,63,15,18,2.0,1.5
2022-12-25T02:00:00,1919A,108.673,34.3155,咸阳市,实验中学,细颗粒物(PM2.5),195,194,153,146,107,76,22,20,20,54,58,10,13,1.7,1.3
2022-12-25T02:00:00,1920A,108.7233,34.3617,咸阳市,师范学院,细颗粒物(PM2.5),206,211,159,156,121,90,11,15,13,75,55,13,15,1.9,1.5
2022-12-25T02:00:00,1922A,109.0656,35.0994,铜川市,党校(对照点),颗粒物(PM10),72,93,69,39,31,95,5,6,6,82,40,16,17,1.3,1
2022-12-25T02:00:00,1923A,109.0697,35.0697,铜川市,王益区政府,细颗粒物(PM2.5),82,77,73,60,49,85,4,4,4,68,43,12,14,1.0,0.9
2022-12-25T02:00:00,1924A,108.9344,34.9058,铜川市,新区管委会,细颗粒物(PM2.5),123,112,98,93,70,85,38,38,38,43,32,26,20,1.5,1.1
2022-12-25T02:00:00,1926A,109.4131,36.6275,延安市,枣园(对照点),颗粒物(PM10),61,72,56,41,37,74,5,4,4,44,39,6,6,0.7,0.6
2022-12-25T02:00:00,1927A,109.4761,36.6028,延安市,延大医附院,颗粒物(PM10),55,60,52,36,38,72,6,6,6,52,44,8,8,1.1,1.2
2022-12-25T02:00:00,1929A,109.5056,36.6106,延安市,百米大道,颗粒物(PM10),65,80,67,41,40,68,10,11,10,62,52,8,9,1.0,1
2022-12-25T02:00:00,1930A,107.185,34.3063,宝鸡市,庙沟村(对照点),细颗粒物(PM2.5),123,134,106,93,76,90,59,72,66,25,34,5,8,1.3,1.1
2022-12-25T02:00:00,1931A,107.0708,34.3017,宝鸡市,竹园沟,细颗粒物(PM2.5),124,132,99,94,82,100,66,61,61,27,33,6,7,1.1,0.9
2022-12-25T02:00:00,1932A,107.1906,34.3672,宝鸡市,三陆医院,细颗粒物(PM2.5),165,158,130,125,99,93,50,48,48,45,45,10,13,1.4,1.2
2022-12-25T02:00:00,1933A,107.1431,34.3547,宝鸡市,监测站,细颗粒物(PM2.5),129,126,112,98,86,92,71,65,65,25,41,7,9,1.2,1.1
2022-12-25T02:00:00,1934A,107.1186,34.3739,宝鸡市,技工学校,细颗粒物(PM2.5),137,126,109,104,87,86,69,72,70,27,39,7,11,1.0,0.9
2022-12-25T02:00:00,1935A,107.3906,34.3528,宝鸡市,陈仓区环保局家属楼,细颗粒物(PM2.5),124,163,158,94,113,78,60,48,48,32,59,13,16,1.3,1.2
2022-12-25T02:00:00,1936A,107.2058,34.3497,宝鸡市,文理学院,细颗粒物(PM2.5),135,147,122,103,85,90,68,62,62,27,42,11,13,1.1,0.9
2022-12-25T02:00:00,1937A,107.2386,34.3622,宝鸡市,三迪小学,细颗粒物(PM2.5),144,151,129,110,93,83,67,64,64,26,43,10,12,1.2,1
2022-12-25T02:00:00,1938A,109.5293,34.5101,渭南市,农科所(对照点),细颗粒物(PM2.5),113,144,159,85,96,76,35,32,32,42,51,15,14,0.9,1.1
2022-12-25T02:00:00,1939A,109.4974,34.4877,渭南市,日报社,细颗粒物(PM2.5),127,158,149,96,96,69,22,23,22,61,54,17,16,0.8,0.8
2022-12-25T02:00:00,1940A,109.4636,34.493,渭南市,体育馆,细颗粒物(PM2.5),124,161,153,94,100,64,16,39,28,62,54,12,12,0.8,0.9
2022-12-25T02:00:00,1941A,109.4259,34.5023,渭南市,高新一小,细颗粒物(PM2.5),119,147,162,90,107,80,45,47,46,36,46,16,16,0.9,1.2
2022-12-25T02:00:00,1943A,102.1725,38.5339,金昌市,新川苑,颗粒物(PM10),65,79,137,29,28,78,53,52,52,25,16,127,27,0.8,0.8
2022-12-25T02:00:00,1944A,102.1692,38.5167,金昌市,天庆家园,颗粒物(PM10),51,51,118,19,22,78,57,56,56,20,21,27,33,0.7,0.9
2022-12-25T02:00:00,1945A,98.2908,39.7711,嘉峪关市,气象局,颗粒物(PM10),71,92,84,19,20,82,57,70,64,22,20,12,8,0.4,0.3
2022-12-25T02:00:00,1947A,106.3394,38.817,石嘴山市,沙湖旅游区(对照点),颗粒物(PM10),69,88,120,41,59,81,44,40,40,23,38,14,28,1.0,1.6
2022-12-25T02:00:00,1948A,106.3668,39.0145,石嘴山市,大武口朝阳西街,颗粒物(PM10),53,56,62,14,26,83,83,81,81,2,30,3,16,0.2,0.4
2022-12-25T02:00:00,1949A,106.7704,39.2282,石嘴山市,惠农南大街,颗粒物(PM10),80,110,84,21,32,74,72,71,71,13,34,11,18,0.5,0.7
2022-12-25T02:00:00,1950A,106.7099,39.1325,石嘴山市,红果子镇惠新街,颗粒物(PM10),64,78,78,22,25,74,63,58,58,19,30,14,22,0.3,0.4
2022-12-25T02:00:00,1951A,84.895,45.6094,克拉玛依市,长征新村,颗粒物(PM10),55,59,72,35,54,60,41,40,40,35,34,5,7,0.5,0.7
2022-12-25T02:00:00,1952A,84.8988,45.5893,克拉玛依市,南林小区,细颗粒物(PM2.5),60,56,77,43,58,63,39,38,38,27,28,4,7,0.6,0.6
2022-12-25T02:00:00,1954A,84.905,44.3396,克拉玛依市,独山子区,细颗粒物(PM2.5),72,79,39,52,25,69,35,33,33,29,20,6,6,0.6,0.5
2022-12-25T02:00:00,1955A,85.6979,46.098,克拉玛依市,乌尔禾区商贸楼,细颗粒物(PM2.5),69,55,63,50,46,67,54,48,48,19,33,2,2,0.7,0.8
2022-12-25T02:00:00,1956A,86.1472,41.7538,巴音郭楞州,孔雀公园,颗粒物(PM10),65,79,124,28,44,83,1,20,10,70,69,10,11,0.6,0.8
2022-12-25T02:00:00,1957A,86.1972,41.7166,巴音郭楞州,棉纺厂,颗粒物(PM10),63,75,136,27,37,86,56,48,48,23,42,6,6,0.3,0.6
2022-12-25T02:00:00,1958A,86.2357,41.7173,巴音郭楞州,经济开发区,颗粒物(PM10),71,92,89,14,22,84,18,14,14,41,27,8,9,0.3,0.5
2022-12-25T02:00:00,1961A,117.532,36.6868,济南市,东山小学,颗粒物(PM10),53,56,57,34,30,60,10,11,10,47,40,8,9,0.6,0.5
2022-12-25T02:00:00,1966A,120.0405,35.8735,青岛市,黄岛区4号,,39,36,36,27,18,71,39,40,40,34,28,12,11,1.1,0.9
2022-12-25T02:00:00,1982A,122.0693,37.2174,威海市,文登开发区,,31,31,24,14,13,75,69,72,70,8,10,5,4,0.3,0.4
2022-12-25T02:00:00,2031A,113.1817,27.9958,株洲市,云田中学,,48,48,70,24,37,110,76,76,76,17,20,17,14,0.4,0.5
2022-12-25T02:00:00,2054A,114.1099,32.1059,信阳市,平桥分局,细颗粒物(PM2.5),110,111,130,83,88,73,28,24,24,39,39,10,14,0.9,0.9
2022-12-25T02:00:00,2064A,113.9956,32.1271,信阳市,南湾水厂,细颗粒物(PM2.5),94,88,115,70,87,76,49,50,50,22,33,10,12,0.6,0.7
2022-12-25T02:00:00,2065A,114.0775,32.1195,信阳市,市酿酒公司,细颗粒物(PM2.5),122,89,108,92,90,76,3,4,4,64,43,8,12,1.1,1
2022-12-25T02:00:00,2066A,114.0609,32.1399,信阳市,审计局,细颗粒物(PM2.5),103,95,117,77,90,81,6,6,6,57,46,11,14,0.8,0.8
2022-12-25T02:00:00,2067A,114.6613,33.6128,周口市,市环境监测站,细颗粒物(PM2.5),69,63,61,50,41,77,39,37,37,34,32,6,6,0.6,0.6
2022-12-25T02:00:00,2068A,114.6758,33.6347,周口市,周口师范,细颗粒物(PM2.5),148,128,68,113,54,82,31,46,38,44,34,8,8,0.9,0.7
2022-12-25T02:00:00,2069A,114.6546,33.5979,周口市,市运管处,细颗粒物(PM2.5),110,96,66,83,45,77,50,63,56,30,29,7,7,0.7,0.5
2022-12-25T02:00:00,2070A,114.6369,33.6406,周口市,川汇区环保局,细颗粒物(PM2.5),97,93,68,72,43,77,4,11,8,79,51,5,5,1.0,0.6
2022-12-25T02:00:00,2075A,117.6336,24.4674,漳州市,九湖(对照点),,,,,,,,,,,,,,,,
2022-12-25T02:00:00,2160A,112.85,35.5051,晋城市,自来水公司,颗粒物(PM10),64,77,95,44,55,78,25,37,31,37,31,7,14,0.7,1
2022-12-25T02:00:00,2161A,112.8318,35.4936,晋城市,白云商贸,细颗粒物(PM2.5),55,56,93,39,51,79,36,36,36,33,36,8,14,0.8,1
2022-12-25T02:00:00,2162A,112.8508,35.4887,晋城市,市环保局,细颗粒物(PM2.5),62,61,101,44,56,78,21,45,33,52,38,12,17,0.8,1
2022-12-25T02:00:00,2163A,112.8676,35.4897,晋城市,技术学院,颗粒物(PM10),56,62,84,34,55,75,12,30,21,58,35,8,13,0.9,1
2022-12-25T02:00:00,2165A,112.8453,35.546,晋城市,白马寺 (对照点),,,,,,,,,,,,,,,,
2022-12-25T02:00:00,2166A,112.4397,39.3522,朔州市,平朔,颗粒物(PM10),173,295,127,72,52,54,6,6,6,58,41,52,34,1.2,1
2022-12-25T02:00:00,2167A,112.4575,39.3617,朔州市,朔唯,颗粒物(PM10),200,349,141,71,54,57,4,4,4,68,43,70,36,1.1,0.8
2022-12-25T02:00:00,2168A,112.4258,39.3197,朔州市,区政府,颗粒物(PM10),85,119,92,50,49,58,4,5,4,58,42,31,29,1.1,1
2022-12-25T02:00:00,2169A,112.4072,39.3278,朔州市,市环保局,颗粒物(PM10),76,102,97,49,59,60,4,6,5,51,41,30,28,0.9,0.9
2022-12-25T02:00:00,2170A,112.4272,39.3681,朔州市,市二中,颗粒物(PM10),167,283,140,70,50,57,4,4,4,54,40,59,39,1.4,1.1
2022-12-25T02:00:00,2171A,112.7532,37.6945,晋中市,锦纶小区,颗粒物(PM10),52,53,57,33,34,62,7,8,8,56,40,13,13,0.7,0.6
2022-12-25T02:00:00,2173A,112.7249,37.7067,晋中市,南都小区,颗粒物(PM10),56,62,57,31,29,56,6,6,6,57,46,15,16,0.7,0.6
2022-12-25T02:00:00,2174A,112.6991,37.6982,晋中市,榆次区政府,颗粒物(PM10),56,61,59,30,28,57,5,4,4,53,41,15,16,0.7,0.6
2022-12-25T02:00:00,2175A,110.9956,35.0147,运城市,运城中学,颗粒物(PM10),85,120,122,58,72,97,62,62,62,24,31,13,13,0.6,0.9
2022-12-25T02:00:00,2178A,110.9686,35.0303,运城市,地区技校,细颗粒物(PM2.5),87,80,100,64,77,82,54,56,55,24,30,16,17,0.5,0.9
2022-12-25T02:00:00,2179A,111.0414,35.1147,运城市,空港新区,细颗粒物(PM2.5),102,128,155,76,92,92,47,60,54,28,33,14,19,1.0,1.6
2022-12-25T02:00:00,2181A,112.7383,38.4519,忻州市,开发区,细颗粒物(PM2.5),88,88,51,65,32,70,8,8,8,42,31,13,13,1.0,0.8
2022-12-25T02:00:00,2182A,112.7003,38.4928,忻州市,会展中心,细颗粒物(PM2.5),88,100,55,65,34,50,9,9,9,47,40,10,13,0.9,0.7
2022-12-25T02:00:00,2183A,111.1406,37.5211,吕梁市,环保局,颗粒物(PM10),76,101,80,30,23,47,1,1,1,50,50,8,12,0.5,0.5
2022-12-25T02:00:00,2185A,111.1297,37.5136,吕梁市,自来水公司,颗粒物(PM10),100,150,101,41,31,41,2,2,2,48,45,15,11,0.7,0.6
2022-12-25T02:00:00,2187A,106.8174,39.6973,乌海市,市林业局,颗粒物(PM10),54,57,105,30,43,75,75,71,71,7,43,10,33,0.6,1.2
2022-12-25T02:00:00,2188A,106.7907,39.6667,乌海市,中海勃湾学校,,45,45,99,17,42,79,79,76,76,8,40,8,35,0.3,1.1
2022-12-25T02:00:00,2191A,122.2532,43.6801,通辽市,艺术职业学校,,47,47,36,16,14,68,54,56,55,16,15,9,8,0.3,0.2
2022-12-25T02:00:00,2192A,119.7594,49.2261,呼伦贝尔市,区环保局,细颗粒物(PM2.5),69,50,32,50,24,47,6,6,6,44,24,5,5,0.7,0.4
2022-12-25T02:00:00,2195A,107.4212,40.761,巴彦淖尔市,附二中,颗粒物(PM10),135,219,118,40,55,67,67,64,64,7,35,7,18,0.5,0.9
2022-12-25T02:00:00,2196A,107.37,40.7372,巴彦淖尔市,市环保大楼,颗粒物(PM10),138,226,97,30,51,60,60,58,58,12,38,6,16,0.5,1
2022-12-25T02:00:00,2197A,113.1306,40.9923,乌兰察布市,集宁新区,,36,36,35,20,16,56,6,6,6,55,39,30,36,0.6,0.6
2022-12-25T02:00:00,2200A,122.0392,46.0656,兴安盟,胜华新制药厂,,33,29,24,23,16,72,44,56,50,23,14,7,4,0.8,0.3
2022-12-25T02:00:00,2201A,121.9504,46.0741,兴安盟,科右前旗环保局,,26,12,16,18,18,74,65,71,68,9,7,1,2,0.3,0.4
2022-12-25T02:00:00,2202A,116.1042,43.9317,锡林郭勒盟,市环保监测站,,17,11,15,8,11,60,53,52,52,4,11,8,10,0.2,0.3
2022-12-25T02:00:00,2203A,116.0781,43.9311,锡林郭勒盟,市政府,,18,9,14,12,6,63,52,50,50,11,18,12,12,0.2,0.2
2022-12-25T02:00:00,2204A,105.6467,38.8363,阿拉善盟,西城区西花园(对照点),颗粒物(PM10),55,59,63,23,26,83,80,79,79,8,21,5,9,0.4,0.6
2022-12-25T02:00:00,2205A,105.6985,38.8411,阿拉善盟,蒙二幼,颗粒物(PM10),59,67,51,39,34,85,84,82,82,5,16,9,13,0.3,0.5
2022-12-25T02:00:00,2206A,105.724,38.8516,阿拉善盟,环保局新楼,颗粒物(PM10),52,54,44,25,30,90,86,84,84,5,12,9,13,0.5,0.6
2022-12-25T02:00:00,2207A,121.6094,41.998,阜新市,工业园区,颗粒物(PM10),59,67,36,30,15,68,28,40,34,31,14,16,11,0.7,0.4
2022-12-25T02:00:00,2208A,121.6697,42.0279,阜新市,长青街,,21,21,27,10,10,62,49,49,49,7,9,4,6,0.6,0.6
2022-12-25T02:00:00,2209A,121.6673,42.0705,阜新市,农业园区,,19,5,23,3,11,63,60,61,60,5,6,5,6,0.4,0.4
2022-12-25T02:00:00,2210A,121.6717,42.0224,阜新市,东苑,,20,14,29,12,14,70,63,64,64,5,4,10,10,0.6,0.6
2022-12-25T02:00:00,2211A,121.6506,42.0498,阜新市,玉龙新城,,16,12,26,6,11,66,50,48,48,13,13,4,5,0.6,0.5
2022-12-25T02:00:00,2212A,123.2,41.1953,辽阳市,宏伟区,细颗粒物(PM2.5),89,76,47,66,37,50,5,6,6,52,32,10,13,1.6,0.8
2022-12-25T02:00:00,2213A,123.1683,41.2495,辽阳市,新华园,细颗粒物(PM2.5),89,91,52,66,44,49,6,8,7,52,31,15,16,1.9,1.1
2022-12-25T02:00:00,2214A,123.2354,41.2639,辽阳市,滨河路,细颗粒物(PM2.5),98,72,52,73,50,52,5,5,5,46,33,12,14,1.2,0.9
2022-12-25T02:00:00,2215A,123.149,41.2991,辽阳市,铁西工业园,细颗粒物(PM2.5),230,144,71,180,70,53,7,8,8,60,37,10,9,2.7,1
2022-12-25T02:00:00,2216A,123.8139,42.3022,铁岭市,汇工街西,细颗粒物(PM2.5),110,94,94,83,98,69,8,8,8,53,42,28,21,1.3,1.3
2022-12-25T02:00:00,2217A,123.8649,42.2923,铁岭市,水上乐园,细颗粒物(PM2.5),67,57,73,48,52,56,39,40,40,13,27,3,6,0.5,0.4
2022-12-25T02:00:00,2218A,123.8486,42.2867,铁岭市,银州路东段,细颗粒物(PM2.5),64,61,69,46,48,61,36,36,36,20,35,4,5,0.8,0.8
2022-12-25T02:00:00,2219A,123.7153,42.2217,铁岭市,金沙江路北,细颗粒物(PM2.5),105,82,74,79,64,67,9,9,9,50,45,5,6,1.1,0.8
2022-12-25T02:00:00,2220A,120.4318,41.5881,朝阳市,西梁,颗粒物(PM10),66,82,55,44,32,72,6,6,6,49,30,13,15,1.6,1.1
2022-12-25T02:00:00,2221A,120.4521,41.5646,朝阳市,河畔小区,细颗粒物(PM2.5),64,72,44,46,30,65,5,5,5,48,22,10,10,1.5,0.9
2022-12-25T02:00:00,2222A,120.4176,41.5648,朝阳市,八里堡,颗粒物(PM10),69,87,56,47,28,74,5,5,5,46,32,12,13,1.7,1
2022-12-25T02:00:00,2223A,120.3806,41.5969,朝阳市,农业园区,,38,32,37,26,16,77,14,48,31,52,18,10,7,1.1,0.6
2022-12-25T02:00:00,2225A,124.4002,43.1713,四平市,一商场,细颗粒物(PM2.5),59,53,63,42,52,65,15,24,20,51,48,9,10,0.5,0.8
2022-12-25T02:00:00,2226A,124.388,43.193,四平市,境园,细颗粒物(PM2.5),70,65,91,51,61,68,9,8,8,40,34,8,11,0.9,0.9
2022-12-25T02:00:00,2227A,125.1358,42.8845,辽源市,环保局,细颗粒物(PM2.5),117,111,73,88,61,65,12,16,14,46,30,7,11,1.6,1.1
2022-12-25T02:00:00,2229A,125.9358,41.7173,通化市,光明,细颗粒物(PM2.5),55,46,36,39,25,61,18,16,16,40,29,18,19,0,0.4
2022-12-25T02:00:00,2230A,125.9446,41.7325,通化市,铁路,颗粒物(PM10),53,55,40,31,32,70,11,23,17,47,29,13,24,0.9,0.8
2022-12-25T02:00:00,2231A,126.4219,41.9171,白山市,喜丰,细颗粒物(PM2.5),62,60,51,44,32,56,25,20,20,28,22,9,12,0.8,0.6
2022-12-25T02:00:00,2232A,126.4077,41.9419,白山市,环保局,细颗粒物(PM2.5),82,108,78,60,44,57,13,18,16,38,24,19,16,1.3,0.9
2022-12-25T02:00:00,2233A,124.8006,45.1214,松原市,江南,,43,43,25,24,19,55,32,26,26,22,13,7,6,0.6,0.5
2022-12-25T02:00:00,2234A,124.7965,45.1722,松原市,江北,,40,35,28,28,17,59,35,35,35,24,14,5,5,0.6,0.4
2022-12-25T02:00:00,2235A,122.7911,45.6077,白城市,洮北区环保局,,37,37,44,25,34,72,59,58,58,9,19,4,8,0.1,0.3
2022-12-25T02:00:00,2236A,122.8738,45.5725,白城市,市环保局,,27,27,36,8,14,74,64,63,63,11,23,5,6,0.3,0.4
2022-12-25T02:00:00,2237A,129.47,42.8883,延边朝鲜族自治州,妇幼医院,,30,22,22,21,18,66,64,64,64,11,11,10,10,0.6,0.6
2022-12-25T02:00:00,2238A,129.5055,42.9108,延边朝鲜族自治州,延边医院,,33,19,22,23,22,66,65,65,65,10,10,7,7,0.6,0.6
2022-12-25T02:00:00,2239A,129.3964,42.8881,延边朝鲜族自治州,朝阳川镇医院,,33,25,23,23,20,64,63,64,64,8,8,7,7,0.5,0.5
2022-12-25T02:00:00,2240A,130.9762,45.3001,鸡西市,环保局,,20,19,19,10,18,64,64,64,64,6,11,4,5,0.2,0.2
2022-12-25T02:00:00,2243A,130.9429,45.3039,鸡西市,第一中学,,28,14,19,19,16,69,65,64,64,2,4,4,4,0.5,0.5
2022-12-25T02:00:00,2244A,130.2537,47.3416,鹤岗市,哈啤分公司,,20,17,17,11,12,73,64,65,64,4,5,9,9,0.2,0.2
2022-12-25T02:00:00,2245A,130.2684,47.3086,鹤岗市,斯达机电,,22,19,15,13,10,75,70,71,70,3,4,10,9,0.1,0.2
2022-12-25T02:00:00,2246A,130.3114,47.3388,鹤岗市,东山纸板厂,,21,19,15,10,10,74,67,69,68,1,2,8,8,0.3,0.2
2022-12-25T02:00:00,2247A,130.1097,47.3382,鹤岗市,五号水库(对照点),,22,15,11,10,12,74,70,70,70,4,4,6,6,0.3,0.3
2022-12-25T02:00:00,2248A,131.1511,46.6937,双鸭山市,双合村,,20,20,29,8,23,72,62,63,62,9,20,9,11,0.6,0.8
2022-12-25T02:00:00,2249A,131.1652,46.6191,双鸭山市,南小市,细颗粒物(PM2.5),68,58,40,49,33,66,52,55,54,17,13,13,11,0.9,0.7
2022-12-25T02:00:00,2250A,131.1524,46.6554,双鸭山市,环保局,细颗粒物(PM2.5),65,53,40,47,36,60,31,34,32,38,29,9,9,0.8,0.6
2022-12-25T02:00:00,2251A,131.12,46.5656,双鸭山市,苗圃(对照点),细颗粒物(PM2.5),65,54,43,47,37,52,44,46,45,17,12,6,6,0.6,0.5
2022-12-25T02:00:00,2252A,128.5159,47.4311,伊春市,环保局,,20,10,18,11,9,64,61,63,62,4,11,8,6,0.4,0.5
2022-12-25T02:00:00,2253A,128.9102,47.7412,伊春市,电力嘉园,,20,12,19,10,9,66,63,64,64,3,10,6,7,0.3,0.4
2022-12-25T02:00:00,2254A,129.5029,48.471,伊春市,汤旺河国家公园(对照点),,19,18,23,8,8,65,58,59,58,2,2,5,6,0.2,0.2
2022-12-25T02:00:00,2255A,130.2751,46.8028,佳木斯市,佳纺,,45,29,35,31,33,59,47,51,49,14,14,12,9,0.5,0.5
2022-12-25T02:00:00,2256A,130.3995,46.8307,佳木斯市,发电厂,,43,25,24,30,25,60,46,49,48,19,24,14,8,0.3,0.4
2022-12-25T02:00:00,2257A,130.3258,46.7975,佳木斯市,环保局,细颗粒物(PM2.5),55,30,26,39,23,56,51,53,52,13,24,6,7,0.3,0.3
2022-12-25T02:00:00,2258A,130.3648,46.8032,佳木斯市,十一中,,33,25,23,23,22,58,53,50,50,13,25,6,5,0.4,0.5
2022-12-25T02:00:00,2259A,130.3794,46.7588,佳木斯市,四丰(对照点),细颗粒物(PM2.5),52,29,27,36,25,80,70,71,70,9,8,1,1,0.5,0.4
2022-12-25T02:00:00,2262A,131.0518,45.8751,七台河市,新一中(对照点),,42,33,30,29,25,71,63,62,62,15,13,14,13,0.6,0.6
2022-12-25T02:00:00,2263A,127.4833,50.2524,黑河市,交通局,,22,11,8,6,8,68,68,68,68,1,2,5,5,0.3,0.3
2022-12-25T02:00:00,2264A,127.5144,50.2341,黑河市,环保局,,,,3,10,11,69,69,69,69,3,4,5,6,0.2,0.3
2022-12-25T02:00:00,2265A,127.5291,50.2472,黑河市,大黑河岛(对照点),,22,3,10,2,8,70,70,69,69,1,3,2,11,0.3,0.3
2022-12-25T02:00:00,2266A,126.9785,46.6365,绥化市,人和东街,,22,18,27,15,20,78,63,62,62,6,11,4,5,0.2,0.2
2022-12-25T02:00:00,2267A,126.964,46.6528,绥化市,党政办公中心,,25,16,22,17,21,78,61,60,60,6,7,4,4,0.3,0.3
2022-12-25T02:00:00,2269A,124.1069,50.4097,大兴安岭地区,科技局,,20,7,8,13,13,64,64,64,64,3,5,7,8,0.2,0.3
2022-12-25T02:00:00,2270A,117.396,32.939,蚌埠市,工人疗养院,细颗粒物(PM2.5),68,74,74,49,45,76,39,47,43,27,30,10,10,0.6,0.6
2022-12-25T02:00:00,2271A,117.3605,32.9427,蚌埠市,百货大楼,细颗粒物(PM2.5),83,65,76,61,50,76,21,20,20,50,38,14,15,0.7,0.7
2022-12-25T02:00:00,2273A,117.4185,32.8911,蚌埠市,蚌埠学院,细颗粒物(PM2.5),89,102,81,66,46,77,5,5,5,59,34,9,12,0.4,0.4
2022-12-25T02:00:00,2274A,117.3533,32.9673,蚌埠市,淮上区政府,细颗粒物(PM2.5),92,97,88,68,51,79,14,33,24,55,38,12,14,0.6,0.5
2022-12-25T02:00:00,2275A,117.3145,32.8977,蚌埠市,高新区,细颗粒物(PM2.5),107,112,88,80,56,73,5,5,5,67,46,28,14,0.5,0.5
2022-12-25T02:00:00,2277A,116.8305,32.7727,淮南市,潘集区政府,细颗粒物(PM2.5),109,104,105,82,75,79,34,34,34,27,34,6,8,0.5,0.6
2022-12-25T02:00:00,2278A,117.0067,32.6524,淮南市,师范学院,细颗粒物(PM2.5),133,124,103,101,63,78,31,38,34,28,37,10,12,0.7,0.7
2022-12-25T02:00:00,2279A,116.8569,32.5951,淮南市,谢家集区政府,细颗粒物(PM2.5),88,97,97,65,65,80,34,40,37,35,30,13,15,0.6,0.6
2022-12-25T02:00:00,2280A,116.8281,32.633,淮南市,八公山区政府,细颗粒物(PM2.5),99,61,81,74,74,72,32,37,34,30,25,12,14,0.4,0.5
2022-12-25T02:00:00,2281A,116.6325,32.6201,淮南市,焦岗湖风景区管理处(对照点),细颗粒物(PM2.5),117,118,102,88,67,76,4,3,3,13,8,17,18,0.5,0.4
2022-12-25T02:00:00,2282A,116.8004,33.975,淮北市,监测站,细颗粒物(PM2.5),70,70,61,51,35,80,28,32,30,29,23,10,11,0.8,0.7
2022-12-25T02:00:00,2283A,116.8091,33.9007,淮北市,烈山区政府,细颗粒物(PM2.5),79,99,63,58,36,86,9,15,12,44,25,6,9,0.6,0.5
2022-12-25T02:00:00,2284A,116.7856,33.9477,淮北市,职业技术学院,细颗粒物(PM2.5),93,84,57,69,38,81,26,30,28,36,24,12,11,0.8,0.6
2022-12-25T02:00:00,2285A,117.8177,30.9412,铜陵市,市第四中学,细颗粒物(PM2.5),82,86,84,60,50,80,8,9,8,53,47,8,12,0.7,0.9
2022-12-25T02:00:00,2286A,117.8059,30.9273,铜陵市,市公路局,细颗粒物(PM2.5),70,59,79,51,56,80,27,24,24,30,42,15,15,0.6,0.9
2022-12-25T02:00:00,2287A,117.7807,30.9413,铜陵市,市新民污水厂,细颗粒物(PM2.5),73,80,66,53,40,87,4,6,5,64,47,7,8,0.5,0.4
2022-12-25T02:00:00,2288A,117.7439,30.8792,铜陵市,市第九中学,颗粒物(PM10),122,194,101,71,53,80,13,12,12,52,46,17,14,1.1,0.8
2022-12-25T02:00:00,2289A,117.846,30.9413,铜陵市,车站新区,细颗粒物(PM2.5),85,87,69,63,46,80,6,6,6,48,44,6,9,0.6,0.7
2022-12-25T02:00:00,2290A,117.8483,30.97,铜陵市,市职教基地,细颗粒物(PM2.5),83,84,68,61,45,83,5,6,6,39,32,8,10,0.4,0.4
2022-12-25T02:00:00,2291A,117.0809,30.5177,安庆市,环科院,细颗粒物(PM2.5),80,84,75,59,47,82,34,32,32,27,28,13,9,0.5,0.5
2022-12-25T02:00:00,2292A,117.0331,30.5119,安庆市,马山宾馆,细颗粒物(PM2.5),68,79,73,49,45,83,40,38,38,28,34,15,10,0.6,0.6
2022-12-25T02:00:00,2294A,116.9896,30.6145,安庆市,安庆大学,细颗粒物(PM2.5),75,85,70,55,46,83,39,38,38,26,33,11,12,0.6,0.7
2022-12-25T02:00:00,2295A,118.2903,29.6963,黄山市,延安路89号,,43,29,35,30,29,100,22,23,22,17,17,4,5,0.3,0.3
2022-12-25T02:00:00,2296A,118.327,29.7178,黄山市,黄山东路89号,,50,44,40,35,26,94,24,22,22,17,19,6,7,0.5,0.4
2022-12-25T02:00:00,2297A,118.1371,30.2756,黄山市,黄山区政府5号楼,颗粒物(PM10),53,55,49,22,25,94,22,24,23,14,15,6,8,0.6,0.5
2022-12-25T02:00:00,2298A,118.3093,32.3153,滁州市,老年大学,细颗粒物(PM2.5),62,54,52,44,34,83,6,18,12,45,25,5,8,0.5,0.5
2022-12-25T02:00:00,2299A,118.3244,32.2786,滁州市,人大宾馆,"颗粒物(PM10),细颗粒物(PM2.5)",53,56,55,37,30,83,27,37,32,33,29,5,8,0.6,0.5
2022-12-25T02:00:00,2301A,115.8277,32.8929,阜阳市,市监测站,细颗粒物(PM2.5),75,60,72,55,51,72,46,37,37,26,34,11,15,0.4,0.5
2022-12-25T02:00:00,2303A,115.8554,32.8605,阜阳市,开发区,细颗粒物(PM2.5),102,99,87,76,49,76,29,23,23,40,38,7,9,0.7,0.7
2022-12-25T02:00:00,2307A,116.5079,31.737,六安市,监测大楼,细颗粒物(PM2.5),118,98,80,89,61,78,5,23,14,54,32,6,9,0.6,0.5
2022-12-25T02:00:00,2308A,116.4738,31.7643,六安市,皖西学院,细颗粒物(PM2.5),103,105,93,77,61,81,5,6,6,51,32,5,7,0.5,0.4
2022-12-25T02:00:00,2309A,116.4996,31.7905,六安市,朝阳厂,细颗粒物(PM2.5),107,98,81,80,61,84,10,17,14,50,35,4,7,0.6,0.5
2022-12-25T02:00:00,2310A,116.5567,31.7886,六安市,开发区,细颗粒物(PM2.5),118,129,112,89,68,71,6,6,6,53,41,6,9,0.5,0.5
2022-12-25T02:00:00,2311A,115.8072,33.8399,亳州市,污水处理厂,细颗粒物(PM2.5),78,64,59,57,38,71,36,42,39,21,16,7,8,0.5,0.4
2022-12-25T02:00:00,2312A,115.7789,33.8518,亳州市,三国揽胜宫,细颗粒物(PM2.5),83,63,60,61,44,73,49,42,42,16,20,5,8,0.5,0.5
2022-12-25T02:00:00,2314A,117.47,30.6618,池州市,池州学院,细颗粒物(PM2.5),80,81,75,59,48,82,24,20,20,42,39,9,13,0.6,0.5
2022-12-25T02:00:00,2316A,118.7581,30.9454,宣城市,鳌峰子站,细颗粒物(PM2.5),68,71,61,49,38,76,17,17,17,60,45,12,10,0.7,0.6
2022-12-25T02:00:00,2317A,118.7385,30.9743,宣城市,敬亭山子站,,49,49,58,32,32,92,44,38,38,29,33,9,11,0.6,0.6
2022-12-25T02:00:00,2318A,118.7173,30.9427,宣城市,开发区子站,细颗粒物(PM2.5),75,70,59,55,38,75,15,15,15,49,39,5,7,0.8,0.7
2022-12-25T02:00:00,2319A,119.0141,25.4325,莆田市,荔城区仓后路,,25,25,38,14,18,106,68,68,68,11,14,6,7,0.6,0.7
2022-12-25T02:00:00,2320A,119.0015,25.4553,莆田市,莆田市监测站,,26,22,39,18,19,109,66,64,64,6,11,6,7,0.6,0.6
2022-12-25T02:00:00,2321A,119.1119,25.4561,莆田市,涵江区六中,,27,25,38,12,18,107,84,84,84,9,14,4,6,0.4,0.6
2022-12-25T02:00:00,2322A,119.1013,25.3215,莆田市,秀屿区政府,,32,32,39,20,21,106,65,63,63,15,19,8,9,0.4,0.5
2022-12-25T02:00:00,2323A,118.981,25.4792,莆田市,东圳水库(对照点),,,,,,,,,,,,,,,,
2022-12-25T02:00:00,2324A,117.6211,26.2625,三明市,三钢,,36,28,41,25,28,93,19,22,20,30,26,5,7,0.7,0.7
2022-12-25T02:00:00,2325A,117.635,26.2714,三明市,三明二中,,29,17,42,20,24,89,26,35,30,18,16,9,10,0.6,0.6
2022-12-25T02:00:00,2326A,117.6028,26.2378,三明市,三元区政府,细颗粒物(PM2.5),53,38,46,37,30,86,12,8,8,33,34,10,11,0.9,0.9
2022-12-25T02:00:00,2327A,117.7275,26.3108,三明市,洋溪(对照点),,,,,,,,,,,,,,,,
2022-12-25T02:00:00,2331A,118.0966,26.6761,南平市,茫荡山(对照点),,,,,,,,,,,,,,,,
2022-12-25T02:00:00,2332A,118.1681,26.6369,南平市,南平市监测站,,27,27,32,17,20,93,4,4,4,40,22,3,4,0.3,0.3
2022-12-25T02:00:00,2333A,118.1825,26.6489,南平市,南平铝业有限公司,,25,25,32,17,21,95,3,7,5,39,25,15,8,0.5,0.5
2022-12-25T02:00:00,2334A,118.1756,26.6272,南平市,南平七中,,25,25,34,17,19,92,15,16,16,29,22,4,5,0.6,0.6
2022-12-25T02:00:00,2335A,117.0189,25.1181,龙岩市,龙岩师专(对照点),,,,,,,,,,,,,,,,
2022-12-25T02:00:00,2336A,117.0217,25.1033,龙岩市,龙岩市监测站,,26,22,33,18,18,96,34,32,32,23,23,10,12,0.3,0.4
2022-12-25T02:00:00,2337A,117.0258,25.0661,龙岩市,闽西职业技术学院,,48,48,45,16,21,90,11,19,15,45,30,52,30,0.5,0.5
2022-12-25T02:00:00,2338A,117.0196,25.0306,龙岩市,龙岩学院,,23,20,30,16,18,92,32,36,34,24,19,8,9,0.4,0.4
2022-12-25T02:00:00,2339A,119.5001,26.6946,宁德市,金涵水库(对照点),,,,,,,,,,,,,,,,
2022-12-25T02:00:00,2341A,119.5388,26.6612,宁德市,宁德市监测站,,45,36,35,31,23,82,51,51,51,12,16,5,5,0.8,0.6
2022-12-25T02:00:00,2342A,117.3102,29.3867,景德镇市,王港中学(对照点),,,,,,,,,,,,,,,,
2022-12-25T02:00:00,2343A,117.2117,29.2933,景德镇市,老干部活动中心,颗粒物(PM10),63,75,71,35,29,89,11,28,20,35,22,6,7,0.7,0.7
2022-12-25T02:00:00,2344A,117.1894,29.2789,景德镇市,兽医站,,34,34,35,22,24,96,41,46,44,16,16,6,7,0.8,0.7
2022-12-25T02:00:00,2345A,117.1547,29.2617,景德镇市,台达陶瓷,,48,48,44,16,17,89,41,46,44,22,24,6,9,0.9,0.8
2022-12-25T02:00:00,2346A,117.2461,29.2956,景德镇市,陶研所,颗粒物(PM10),56,61,52,15,17,97,2,4,3,32,19,4,4,0.7,0.7
2022-12-25T02:00:00,2347A,114.0997,27.5002,萍乡市,武功山(对照点),,38,38,44,23,27,86,37,36,36,12,15,10,11,0.8,0.8
2022-12-25T02:00:00,2348A,113.8385,27.6434,萍乡市,中医院,颗粒物(PM10),58,66,81,30,39,99,65,65,65,23,31,30,28,0.6,0.8
2022-12-25T02:00:00,2349A,113.8493,27.6253,萍乡市,市政府车库,细颗粒物(PM2.5),64,65,83,46,46,100,54,52,52,20,32,29,33,0.9,1.9
2022-12-25T02:00:00,2350A,113.8676,27.6435,萍乡市,市环保局,"颗粒物(PM10),细颗粒物(PM2.5)",60,70,80,43,46,93,56,57,56,19,27,35,34,0.4,0.5
2022-12-25T02:00:00,2351A,113.866,27.6198,萍乡市,安源区政府,颗粒物(PM10),65,79,78,41,40,97,45,41,41,29,32,33,28,1.1,1
2022-12-25T02:00:00,2352A,115.0861,27.9317,新余市,北岗(对照点),细颗粒物(PM2.5),69,78,59,50,38,73,24,26,25,23,22,56,44,0.9,0.6
2022-12-25T02:00:00,2353A,114.9886,27.8431,新余市,飞宇,颗粒物(PM10),72,94,69,36,31,80,36,35,35,32,31,65,28,0.7,0.7
2022-12-25T02:00:00,2354A,114.9231,27.8246,新余市,第二水厂,细颗粒物(PM2.5),74,70,67,54,39,73,35,34,34,33,33,53,23,0.4,0.5
2022-12-25T02:00:00,2355A,114.9308,27.8036,新余市,市气象局,细颗粒物(PM2.5),64,59,57,46,33,75,36,34,34,33,29,43,19,0.2,0.3
2022-12-25T02:00:00,2357A,116.9822,28.1136,鹰潭市,龙虎山(对照点),,34,34,38,20,18,108,40,52,46,12,11,4,7,0.4,0.3
2022-12-25T02:00:00,2358A,117.0564,28.2642,鹰潭市,新监测站,,46,46,54,23,27,96,24,21,21,36,28,2,28,0.3,0.3
2022-12-25T02:00:00,2359A,117.0311,28.2475,鹰潭市,财苑宾馆,颗粒物(PM10),61,72,57,41,32,96,6,6,6,55,33,32,38,0.3,0.4
2022-12-25T02:00:00,2360A,117.0222,28.2264,鹰潭市,体育馆,,42,42,49,26,29,96,15,32,24,33,25,4,25,0.2,0.7
2022-12-25T02:00:00,2361A,117.0017,28.2131,鹰潭市,三川水表,,33,33,53,19,27,97,34,37,36,6,23,3,14,0.3,0.3
2022-12-25T02:00:00,2362A,114.9017,25.9149,赣州市,通天岩(对照点),,19,19,25,12,14,98,46,61,54,16,10,5,5,0.8,0.8
2022-12-25T02:00:00,2363A,114.9367,25.8664,赣州市,地委,颗粒物(PM10),54,57,50,22,20,99,43,48,46,24,20,11,10,0.5,0.5
2022-12-25T02:00:00,2364A,114.9461,25.8481,赣州市,气象台,,47,47,43,18,22,89,0,2,1,58,27,10,14,0.4,0.4
2022-12-25T02:00:00,2365A,114.9322,25.8333,赣州市,市图书馆,,47,47,47,22,22,95,11,8,8,44,24,4,13,0.7,0.7
2022-12-25T02:00:00,2366A,114.8905,25.8471,赣州市,华坚鞋城,,48,48,50,28,21,90,18,34,26,47,18,23,7,0.6,0.5
2022-12-25T02:00:00,2367A,114.9754,27.0803,吉安市,红声器材厂,颗粒物(PM10),58,65,61,39,27,93,38,38,38,30,27,8,11,0.6,0.5
2022-12-25T02:00:00,2368A,114.9658,27.0999,吉安市,市森林工业局,颗粒物(PM10),55,59,53,30,30,95,49,52,50,26,25,12,12,0.5,0.5
2022-12-25T02:00:00,2369A,114.99,27.1312,吉安市,市环境监测站,,50,50,52,29,28,96,49,48,48,27,25,12,10,0.6,0.6
2022-12-25T02:00:00,2370A,115.0093,27.0968,吉安市,青原区法院,颗粒物(PM10),60,69,57,33,28,97,35,36,36,39,26,24,14,0.5,0.5
2022-12-25T02:00:00,2371A,114.3408,27.8064,宜春市,槟榔水业(对照点),颗粒物(PM10),58,65,63,32,30,66,38,36,36,26,26,32,29,0.4,0.5
2022-12-25T02:00:00,2373A,114.3956,27.7844,宜春市,市石油公司,颗粒物(PM10),65,80,71,43,39,90,23,29,26,32,32,6,9,0.6,1.1
2022-12-25T02:00:00,2374A,114.3703,27.7914,宜春市,市气象局,颗粒物(PM10),61,71,71,40,36,77,17,28,22,39,36,14,16,0.9,0.8
2022-12-25T02:00:00,2375A,114.4013,27.8074,宜春市,市广电局,细颗粒物(PM2.5),59,59,66,42,33,82,39,35,35,33,32,24,18,1.4,1.3
2022-12-25T02:00:00,2376A,116.2127,28.0814,抚州市,桐源党溪(对照点),,47,47,48,20,21,99,24,29,26,15,10,1,6,0.2,0.3
2022-12-25T02:00:00,2377A,116.3544,27.9831,抚州市,市站,,46,46,48,23,26,90,15,43,29,45,19,4,5,0.9,0.8
2022-12-25T02:00:00,2378A,116.3565,27.963,抚州市,血防站,颗粒物(PM10),52,53,54,24,25,90,14,10,10,66,32,6,9,0.4,0.3
2022-12-25T02:00:00,2379A,116.3564,28.0007,抚州市,采茶剧团,,49,49,47,26,26,89,25,41,33,38,23,6,7,0.4,0.4
2022-12-25T02:00:00,2380A,116.385,27.9647,抚州市,医学分院,颗粒物(PM10),55,59,52,31,24,83,17,26,22,48,26,5,9,0.8,0.7
2022-12-25T02:00:00,2381A,118.005,28.4572,上饶市,百草园(对照点),,46,46,46,21,20,52,15,18,16,28,24,10,27,0.6,0.6
2022-12-25T02:00:00,2382A,117.9756,28.4436,上饶市,市监测站,颗粒物(PM10),53,56,53,30,25,86,6,18,12,40,29,16,39,0.4,0.5
2022-12-25T02:00:00,2383A,117.9519,28.4628,上饶市,凤凰光学,颗粒物(PM10),54,58,60,32,27,89,2,2,2,49,40,27,32,0.7,0.7
2022-12-25T02:00:00,2385A,114.17,35.9019,鹤壁市,市监测站,细颗粒物(PM2.5),99,115,107,74,70,60,5,7,6,53,51,8,12,1.0,1.2
2022-12-25T02:00:00,2386A,114.2956,35.7511,鹤壁市,市交警支队,细颗粒物(PM2.5),88,93,93,65,58,67,3,2,2,50,46,6,12,1.2,1
2022-12-25T02:00:00,2387A,114.2878,35.7306,鹤壁市,迎宾馆,细颗粒物(PM2.5),90,80,78,67,56,69,3,6,4,49,44,12,15,1.2,1.1
2022-12-25T02:00:00,2389A,113.836,35.311,新乡市,环保西院,细颗粒物(PM2.5),153,176,101,117,68,76,3,3,3,61,43,15,16,1.6,1
2022-12-25T02:00:00,2390A,113.884,35.272,新乡市,开发区,细颗粒物(PM2.5),98,108,86,73,52,77,9,10,10,60,38,7,10,1.2,0.9
2022-12-25T02:00:00,2391A,113.883,35.303,新乡市,环保东院,细颗粒物(PM2.5),90,86,73,67,57,75,4,5,4,66,41,14,15,1.0,1
2022-12-25T02:00:00,2392A,115.0312,35.7636,濮阳市,环保局,细颗粒物(PM2.5),60,47,53,43,42,91,14,16,15,54,43,14,12,0.8,0.7
2022-12-25T02:00:00,2394A,115.0574,35.7609,濮阳市,油田运输公司,细颗粒物(PM2.5),58,52,68,41,44,82,19,31,25,46,36,14,14,0.6,0.5
2022-12-25T02:00:00,2395A,115.0866,35.7754,濮阳市,油田物探公司,细颗粒物(PM2.5),82,53,57,60,50,77,13,20,16,54,41,9,12,0.8,0.5
2022-12-25T02:00:00,2396A,113.8276,34.0159,许昌市,监测站,细颗粒物(PM2.5),100,66,73,75,58,77,10,6,6,53,33,6,9,0.6,0.8
