timepoint,stationcode,longitude,latitude,area,positionname,primarypollutant,aqi,pm10,pm10_24h,pm2_5,pm2_5_24h,o3,o3_24h,o3_8h,o3_8h_24h,no2,no2_24h,so2,so2_24h,co,co_24h
2024-10-13T1900,2568A,102.2502,31.8896,阿坝藏族羌族自治州,马师校,,33,25,15,23,14,23,,66,64,33,8,4,4,0.3,0.2
2024-10-13T1900,3994A,102.2165,31.9024,阿坝藏族羌族自治州,马尔康中学西区,,29,29,20,19,14,45,,64,64,18,7,5,4,0.4,0.4
2024-10-13T1900,2695A,80.292,41.1694,阿克苏地区,电视台,颗粒物(PM10),65,79,105,33,39,113,,98,98,13,44,3,5,0.4,0.8
2024-10-13T1900,2696A,80.2613,41.1551,阿克苏地区,艺术中心,,,63,104,20,41,110,,95,95,10,45,,4,0.7,1.1
2024-10-13T1900,2204A,105.6467,38.8363,阿拉善盟,西城区西花园,,33,33,35,21,22,84,,120,117,31,13,9,9,1.3,1.3
2024-10-13T1900,2205A,105.6985,38.8411,阿拉善盟,蒙二幼,,33,33,29,10,14,95,,113,112,25,13,9,9,0.8,0.8
2024-10-13T1900,2206A,105.724,38.8516,阿拉善盟,环保局新楼,,29,26,23,20,13,92,,111,110,17,8,10,9,0.9,0.9
2024-10-13T1900,2708A,88.1264,47.8517,阿勒泰地区,市站,,14,6,10,3,6,43,,58,48,13,15,7,7,0.4,0.4
2024-10-13T1900,2630A,80.1161,32.5,阿里地区,阿里监测站,,39,,20,3,12,122,,113,113,1,17,8,9,0.3,0.5
2024-10-13T1900,3192A,80.0903,32.5028,阿里地区,阿里藏医院,,,10,15,3,5,119,,111,111,5,12,,6,0.4,0.6
2024-10-13T1900,2642A,109.0318,32.6537,安康市,香溪洞,,38,32,37,26,25,92,,89,89,6,5,8,8,0.4,0.4
2024-10-13T1900,2643A,109.0281,32.6939,安康市,安康市监测站,,42,42,46,27,29,59,,92,91,24,13,8,11,0.8,0.6
2024-10-13T1900,2644A,109.0072,32.6975,安康市,汉滨区检察院,,43,43,42,25,27,67,,89,89,25,12,8,8,0.6,0.5
2024-10-13T1900,2291A,117.0809,30.5177,安庆市,环科院,细颗粒物(PM2.5),70,65,68,51,54,116,,143,142,19,19,9,10,0.7,0.6
2024-10-13T1900,2292A,117.0331,30.5119,安庆市,马山宾馆,细颗粒物(PM2.5),59,56,62,42,50,121,,142,141,23,21,10,12,0.7,0.7
2024-10-13T1900,2294A,116.9896,30.6145,安庆市,安庆大学,细颗粒物(PM2.5),62,67,69,44,54,122,,124,124,14,14,9,9,0.7,0.7
2024-10-13T1900,3173A,117.0598,30.5351,安庆市,市人大,细颗粒物(PM2.5),64,55,62,46,52,112,,137,136,23,20,10,10,0.7,0.6
2024-10-13T1900,3123A,105.9408,26.2431,安顺市,凤凰山,,20,16,19,14,13,57,,69,54,10,8,7,7,0.5,0.5
2024-10-13T1900,3124A,105.9439,26.2564,安顺市,金钟山,,20,,19,13,13,62,,72,57,8,7,9,9,0.6,0.6
2024-10-13T1900,3125A,105.8983,26.2481,安顺市,娄家坡,,23,17,16,16,15,58,,69,54,10,9,8,7,0.6,0.6
2024-10-13T1900,1819A,114.3551,36.1017,安阳市,红庙街,细颗粒物(PM2.5),67,74,131,48,77,124,,150,150,25,39,1,3,0.7,0.7
2024-10-13T1900,1820A,114.361,36.0681,安阳市,银杏小区,颗粒物(PM10),62,74,126,42,90,124,,146,146,29,42,3,4,0.7,0.7
2024-10-13T1900,3141A,114.3922,36.0878,安阳市,信访局,细颗粒物(PM2.5),64,65,139,46,89,142,,152,152,16,34,2,4,0.4,0.5
2024-10-13T1900,3669A,114.4705,36.0637,安阳市,左辅环卫站,颗粒物(PM10),77,103,162,42,89,111,,150,150,40,50,2,3,0.6,0.7
2024-10-13T1900,3703A,114.2917,36.0949,安阳市,安钢职工学校,颗粒物(PM10),66,82,136,45,81,124,,145,145,28,43,1,3,0.6,0.6
2024-10-13T1900,1748A,123.044,41.1196,鞍山市,深沟寺,颗粒物(PM10),55,59,70,34,37,98,,122,116,22,20,6,6,0.6,0.9
2024-10-13T1900,1749A,123.011,41.0931,鞍山市,太阳城,颗粒物(PM10),55,60,78,35,43,115,,127,120,17,23,11,12,0.5,0.8
2024-10-13T1900,1750A,123.0485,41.1442,鞍山市,太平,"颗粒物(PM10),细颗粒物(PM2.5)",62,73,77,44,41,110,,121,118,29,28,10,11,0.7,0.9
2024-10-13T1900,1751A,122.9642,41.0971,鞍山市,铁西三道街,颗粒物(PM10),76,102,129,54,61,81,,125,100,43,54,6,7,0.8,1.2
2024-10-13T1900,1752A,122.9341,41.0833,鞍山市,铁西工业园区,颗粒物(PM10),69,88,113,49,55,102,,127,113,27,49,10,11,0.7,1
2024-10-13T1900,1753A,123.022,41.0821,鞍山市,明达新区,细颗粒物(PM2.5),62,69,87,44,48,113,,117,114,14,23,6,8,0.6,1.1
2024-10-13T1900,2195A,107.4212,40.761,巴彦淖尔市,附二中,细颗粒物(PM2.5),67,80,46,48,27,72,,90,90,44,18,5,4,0.9,0.7
2024-10-13T1900,2196A,107.37,40.7372,巴彦淖尔市,市环保大楼,颗粒物(PM10),57,64,45,36,20,59,,90,90,29,12,4,3,0.6,0.5
2024-10-13T1900,1956A,86.1472,41.7538,巴音郭楞蒙古自治州,孔雀公园,颗粒物(PM10),89,127,111,31,25,79,,89,89,12,31,3,4,0.3,0.4
2024-10-13T1900,1957A,86.1972,41.7166,巴音郭楞蒙古自治州,棉纺厂,颗粒物(PM10),91,132,142,31,28,95,,96,96,4,21,1,2,0.2,0.3
2024-10-13T1900,1958A,86.2357,41.7173,巴音郭楞蒙古自治州,经济开发区,颗粒物(PM10),84,117,106,28,27,93,,97,97,6,12,2,2,0.2,0.2
2024-10-13T1900,2914A,106.7677,31.8794,巴中市,苏山坪,,27,15,20,13,15,85,,92,92,9,7,3,3,0.5,0.5
2024-10-13T1900,3182A,106.7656,31.8545,巴中市,丽阳花园,,24,18,22,12,17,75,,93,93,23,15,5,5,0.8,0.6
2024-10-13T1900,3183A,106.7418,31.8654,巴中市,圣泉水务公司,,24,15,20,12,18,75,,94,94,18,15,4,4,0.7,0.6
2024-10-13T1900,3616A,106.7616,31.8344,巴中市,市中心医院,,24,14,22,8,16,74,,94,94,14,13,5,5,0.6,0.6
2024-10-13T1900,2235A,122.7911,45.6077,白城市,洮北区环保局,细颗粒物(PM2.5),80,102,53,59,29,126,,139,139,27,21,8,6,0.9,0.7
2024-10-13T1900,2236A,122.8738,45.5725,白城市,市环保局,颗粒物(PM10),78,105,57,51,27,123,,131,131,24,24,7,6,0.8,0.6
2024-10-13T1900,2231A,126.4219,41.9171,白山市,喜丰,颗粒物(PM10),53,55,79,19,23,48,,94,91,48,38,8,11,0.7,0.7
2024-10-13T1900,2232A,126.4077,41.9419,白山市,环保局,颗粒物(PM10),68,85,64,32,26,10,,84,76,68,30,12,11,1.3,0.8
2024-10-13T1900,2647A,104.1724,36.5446,白银市,第三小学,颗粒物(PM10),57,63,47,25,29,82,,95,95,36,30,37,27,1.0,1.3
2024-10-13T1900,2648A,104.1465,36.5482,白银市,动力公司,,38,37,41,26,24,84,,98,98,35,24,91,14,0.7,1.1
2024-10-13T1900,2512A,106.6103,23.9011,百色市,市监测站,细颗粒物(PM2.5),70,76,79,51,52,103,,133,133,16,21,11,16,1.1,1.1
2024-10-13T1900,2513A,106.6538,23.8859,百色市,市中心血站,细颗粒物(PM2.5),74,86,85,54,54,94,,131,130,22,20,7,17,0.9,0.9
2024-10-13T1900,3406A,106.6085,23.8798,百色市,祈福高中,"颗粒物(PM10),细颗粒物(PM2.5)",67,83,87,48,49,113,,135,135,12,26,6,11,1.0,1
2024-10-13T1900,2270A,117.396,32.939,蚌埠市,工人疗养院,细颗粒物(PM2.5),80,106,89,59,50,56,,97,87,44,23,7,7,0.7,0.6
2024-10-13T1900,2271A,117.3605,32.9427,蚌埠市,百货大楼,颗粒物(PM10),74,97,83,42,48,50,,93,90,41,19,5,6,0.7,0.5
2024-10-13T1900,2273A,117.4185,32.8911,蚌埠市,蚌埠学院,颗粒物(PM10),68,85,64,48,50,24,,93,83,55,16,6,6,0.7,0.6
2024-10-13T1900,2274A,117.3533,32.9673,蚌埠市,淮上区政府,细颗粒物(PM2.5),84,100,77,62,53,28,,99,87,68,18,6,7,0.8,0.6
2024-10-13T1900,2275A,117.3145,32.8977,蚌埠市,高新区,细颗粒物(PM2.5),65,66,67,47,52,36,,97,84,58,23,7,7,0.7,0.6
2024-10-13T1900,3715A,117.3092,32.9314,蚌埠市,蚌埠田家炳中学,"颗粒物(PM10),细颗粒物(PM2.5)",75,100,83,55,49,44,,101,93,48,16,6,7,0.7,0.5
2024-10-13T1900,1585A,109.8756,40.6532,包头市,市环境监测站,,29,24,28,16,18,29,,99,75,58,23,9,8,0.9,0.7
2024-10-13T1900,1587A,109.9991,40.5842,包头市,包头八中,,33,32,35,23,24,54,,87,76,39,22,24,7,0.9,0.7
2024-10-13T1900,1588A,109.8538,40.6821,包头市,青山宾馆,,30,25,25,20,22,30,,96,74,60,22,9,9,1.0,0.8
2024-10-13T1900,1589A,109.8642,40.6288,包头市,惠龙物流,,36,36,32,15,16,59,,93,82,36,19,8,7,0.9,0.8
2024-10-13T1900,1590A,110.0377,40.5546,包头市,东河鸿龙湾,,23,23,31,16,16,63,,87,82,24,17,6,8,0.7,0.6
2024-10-13T1900,3283A,109.9154,40.5685,包头市,滨河大厦,,21,18,30,13,18,67,,89,86,27,22,9,9,0.7,0.6
2024-10-13T1900,3419A,109.9447,40.6261,包头市,包头市委党校,,40,31,30,28,18,45,,94,81,55,25,22,11,0.9,0.6
2024-10-13T1900,3683A,109.8331,40.6576,包头市,昆区政府,,33,24,29,23,23,57,,95,79,40,20,8,7,0.7,0.5
2024-10-13T1900,1930A,107.185,34.3063,宝鸡市,庙沟村,,50,50,71,30,43,95,,104,104,17,20,7,7,0.6,0.7
2024-10-13T1900,1931A,107.0708,34.3017,宝鸡市,竹园沟,颗粒物(PM10),56,61,72,33,60,81,,111,111,24,23,7,7,0.6,0.6
2024-10-13T1900,1932A,107.1906,34.3672,宝鸡市,三陆医院,,50,50,84,35,66,99,,112,112,34,38,6,6,0.7,0.8
2024-10-13T1900,1933A,107.1431,34.3547,宝鸡市,监测站,颗粒物(PM10),61,71,85,37,66,87,,110,110,32,26,7,7,0.8,0.8
2024-10-13T1900,1934A,107.1186,34.3739,宝鸡市,技工学校,细颗粒物(PM2.5),67,62,80,48,67,86,,110,110,46,27,7,7,0.9,0.8
2024-10-13T1900,1935A,107.3906,34.3528,宝鸡市,陈仓区环保局家属楼,细颗粒物(PM2.5),77,66,112,56,105,86,,114,114,58,42,9,10,0.7,0.7
2024-10-13T1900,1936A,107.2058,34.3497,宝鸡市,文理学院,颗粒物(PM10),54,57,80,25,53,108,,115,115,24,26,8,8,0.7,0.7
2024-10-13T1900,1937A,107.2386,34.3622,宝鸡市,三迪小学,细颗粒物(PM2.5),60,59,87,43,71,98,,110,110,41,42,7,8,0.8,0.8
2024-10-13T1900,1051A,115.493,38.8632,保定市,游泳馆,细颗粒物(PM2.5),150,117,159,115,137,42,,64,62,34,34,3,4,1.0,0.8
2024-10-13T1900,1052A,115.5213,38.8959,保定市,华电二区,细颗粒物(PM2.5),139,121,170,106,138,35,,58,56,38,43,4,5,1.2,0.9
2024-10-13T1900,1053A,115.4713,38.9108,保定市,接待中心,细颗粒物(PM2.5),128,121,171,97,132,40,,62,61,32,36,2,3,1.1,0.9
2024-10-13T1900,1054A,115.4612,38.8416,保定市,地表水厂,细颗粒物(PM2.5),134,147,170,102,124,43,,63,62,33,32,2,4,1.0,0.8
2024-10-13T1900,3581A,115.31981,38.95208,保定市,满城区生态环境分局,细颗粒物(PM2.5),94,95,151,70,98,73,,79,79,24,34,3,4,1.1,1
2024-10-13T1900,3582A,115.47694,38.76408,保定市,清苑区第二中学,细颗粒物(PM2.5),156,149,168,119,123,32,,64,59,54,45,6,9,0.9,0.8
2024-10-13T1900,3583A,115.62909,39.02311,保定市,徐水物探局,细颗粒物(PM2.5),125,115,151,95,135,12,,54,48,53,46,6,7,0.9,0.7
2024-10-13T1900,4004A,115.4202,38.8656,保定市,双鹰农机,细颗粒物(PM2.5),110,107,166,83,114,53,,78,77,37,36,2,4,1.0,0.9
2024-10-13T1900,4034A,115.5150,38.8590,保定市,植保所站,细颗粒物(PM2.5),145,144,170,111,135,37,,61,60,44,45,9,12,1.1,0.9
2024-10-13T1900,2594A,99.1678,25.1081,保山市,市环境监测站,,43,33,29,30,20,70,,68,68,5,8,5,4,0.4,0.4
2024-10-13T1900,2595A,99.1711,25.1328,保山市,市环保局,,46,46,31,15,14,76,,72,72,3,5,4,4,0.4,0.4
2024-10-13T1900,1867A,109.1436,21.4086,北海市,海滩公园,臭氧1小时,60,45,43,15,21,168,,162,162,6,8,7,10,0.8,0.8
2024-10-13T1900,1868A,109.0981,21.4661,北海市,新市环保局,,44,41,39,19,22,140,,148,146,9,9,6,8,0.7,0.7
2024-10-13T1900,1869A,109.1778,21.5233,北海市,北海工业园,,45,36,45,27,27,141,,156,154,11,10,7,12,0.7,0.7
2024-10-13T1900,3400A,109.1911,21.4415,北海市,龙潭自来水厂,,48,42,40,24,28,152,,154,154,10,8,8,11,0.6,0.6
2024-10-13T1900,1001A,116.3621,39.8784,北京市,万寿西宫,细颗粒物(PM2.5),130,149,145,99,95,15,,66,50,44,24,1,3,2.1,1.5
2024-10-13T1900,1002A,116.2202,40.2915,北京市,定陵,细颗粒物(PM2.5),98,92,114,73,93,29,,74,69,11,12,1,1,1.2,1
2024-10-13T1900,1003A,116.4174,39.9289,北京市,东四,细颗粒物(PM2.5),150,162,144,115,97,28,,66,54,49,33,4,6,2.0,1.4
2024-10-13T1900,1004A,116.4072,39.8863,北京市,天坛,细颗粒物(PM2.5),103,114,129,77,91,8,,64,45,27,30,3,3,1.9,1.3
2024-10-13T1900,1005A,116.462,39.9365,北京市,农展馆,细颗粒物(PM2.5),124,147,139,94,91,9,,54,45,51,35,3,3,2.0,1.4
2024-10-13T1900,1006A,116.3392,39.9295,北京市,官园,细颗粒物(PM2.5),138,149,139,105,91,35,,67,56,37,26,3,3,1.7,1.3
2024-10-13T1900,1007A,116.2878,39.9611,北京市,海淀万柳,细颗粒物(PM2.5),123,142,137,93,93,27,,63,55,40,45,3,3,1.5,1.2
2024-10-13T1900,1008A,116.6636,40.135,北京市,顺义新城,细颗粒物(PM2.5),119,129,136,90,89,33,,66,65,46,32,3,2,1.3,1.1
2024-10-13T1900,1009A,116.6275,40.3275,北京市,怀柔镇,细颗粒物(PM2.5),103,101,105,77,75,43,,78,75,39,24,3,2,1.3,1.1
2024-10-13T1900,1010A,116.2296,40.217,北京市,昌平镇,细颗粒物(PM2.5),87,116,149,64,83,36,,73,67,19,26,3,4,1.4,1.2
2024-10-13T1900,1011A,116.3966,39.9821,北京市,奥体中心,细颗粒物(PM2.5),133,147,139,101,92,28,,62,53,44,38,2,3,1.8,1.4
2024-10-13T1900,1012A,116.184,39.9136,北京市,古城,细颗粒物(PM2.5),172,201,186,130,114,24,,68,57,56,54,3,3,1.9,1.5
2024-10-13T1900,3281A,115.9718,40.4529,北京市,延庆夏都,细颗粒物(PM2.5),79,75,123,58,87,77,,107,105,14,17,3,2,0.9,0.9
2024-10-13T1900,3417A,117.0709,40.1465,北京市,平谷新城,细颗粒物(PM2.5),118,129,123,89,86,50,,98,94,22,16,3,3,1.3,1.1
2024-10-13T1900,3418A,116.8336,40.4095,北京市,密云新城,细颗粒物(PM2.5),98,122,120,73,68,56,,93,90,17,24,3,2,1.1,1
2024-10-13T1900,3671A,116.088,39.9726,北京市,门头沟三家店,细颗粒物(PM2.5),105,92,115,79,92,6,,69,62,39,35,3,3,1.3,0.9
2024-10-13T1900,3672A,116.1541,39.8204,北京市,丰台云岗,细颗粒物(PM2.5),128,143,156,97,111,18,,48,38,35,43,3,4,1.5,1.1
2024-10-13T1900,3673A,116.6804,39.9081,北京市,通州东关,细颗粒物(PM2.5),132,165,140,100,85,14,,65,57,54,25,2,3,1.6,1.4
2024-10-13T1900,3674A,115.9577,39.7603,北京市,房山燕山,细颗粒物(PM2.5),122,119,125,92,89,34,,78,67,27,21,3,3,1.2,0.8
2024-10-13T1900,3675A,116.4672,39.7733,北京市,大兴旧宫,细颗粒物(PM2.5),124,146,135,94,90,11,,68,46,38,24,3,3,1.8,1.3
2024-10-13T1900,3694A,115.986,40.4563,北京市,延庆石河营,细颗粒物(PM2.5),75,69,105,55,76,75,,100,98,12,16,3,3,0.8,0.8
2024-10-13T1900,3695A,116.6151,40.3053,北京市,怀柔新城,细颗粒物(PM2.5),97,104,107,72,73,61,,76,76,10,15,3,3,1.2,1.1
2024-10-13T1900,3696A,116.2545,39.8768,北京市,丰台小屯,细颗粒物(PM2.5),114,128,138,86,90,10,,56,39,36,40,1,1,1.9,1.5
2024-10-13T1900,3697A,116.84,40.3844,北京市,密云镇,细颗粒物(PM2.5),107,125,117,80,77,46,,83,83,32,43,3,4,1.1,1
2024-10-13T1900,1761A,123.8275,41.3064,本溪市,大峪,,31,31,62,16,30,93,,118,118,16,33,10,11,0.9,1.2
2024-10-13T1900,1762A,123.7567,41.3325,本溪市,溪湖,,40,40,102,20,48,111,,114,114,20,40,11,13,0.7,1.7
2024-10-13T1900,1763A,123.7169,41.3094,本溪市,彩屯,细颗粒物(PM2.5),65,72,99,47,64,96,,110,110,33,46,18,16,2.4,2.4
2024-10-13T1900,1764A,123.7669,41.2864,本溪市,东明,颗粒物(PM10),52,54,77,30,36,96,,119,119,31,46,6,6,0.7,1.1
2024-10-13T1900,1765A,123.7992,41.2664,本溪市,新立屯,颗粒物(PM10),52,54,40,19,18,12,,117,101,91,44,6,6,0.7,0.8
2024-10-13T1900,1766A,123.8142,41.3472,本溪市,威宁,颗粒物(PM10),72,93,87,26,38,32,,105,103,73,39,8,9,0.7,1.1
2024-10-13T1900,2587A,105.2864,27.3125,毕节市,八中,,19,16,11,13,6,27,,60,56,25,11,6,6,1.1,0.6
2024-10-13T1900,2588A,105.31,27.2944,毕节市,师专,,18,14,10,12,8,54,,64,63,12,8,8,7,0.7,0.6
2024-10-13T1900,3537A,105.3631,27.3533,毕节市,长征村,,18,13,7,10,5,57,,70,69,9,6,10,7,0.7,0.6
2024-10-13T1900,1629A,118.0018,37.3617,滨州市,第二水厂,颗粒物(PM10),76,102,132,46,79,99,,149,149,42,30,10,10,0.3,0.6
2024-10-13T1900,1630A,117.9776,37.393,滨州市,北中新校,颗粒物(PM10),70,90,131,41,73,110,,151,151,36,32,12,13,0.8,1
2024-10-13T1900,3514A,117.9378,37.3956,滨州市,中海酒店,"颗粒物(PM10),细颗粒物(PM2.5)",62,73,113,44,69,130,,165,165,33,32,9,10,0.8,0.9
2024-10-13T1900,3515A,117.9378,37.3553,滨州市,开发区一中,颗粒物(PM10),69,88,120,48,74,118,,156,156,34,32,12,15,0.3,0.5
2024-10-13T1900,3516A,118.0917,37.694,滨州市,金海六路,颗粒物(PM10),83,115,121,48,75,112,,147,147,40,24,11,10,0.6,0.8
2024-10-13T1900,4028A,117.9956,37.3753,滨州市,滨州市西街道办事处,颗粒物(PM10),63,75,114,41,84,118,,157,157,28,28,12,12,0.8,1
2024-10-13T1900,2311A,115.8072,33.8399,亳州市,污水处理厂,细颗粒物(PM2.5),95,107,110,71,70,97,,118,118,27,19,12,13,0.3,0.3
2024-10-13T1900,2312A,115.7789,33.8518,亳州市,三国揽胜宫,颗粒物(PM10),67,83,102,44,69,113,,118,118,14,16,5,8,0.5,0.6
2024-10-13T1900,3332A,115.7633,33.8034,亳州市,亳州学院,"颗粒物(PM10),细颗粒物(PM2.5)",85,119,120,63,61,110,,118,118,24,20,4,6,0.6,0.6
2024-10-13T1900,2693A,82.0485,44.8556,博尔塔拉蒙古自治州,市党校,,27,27,32,12,17,76,,72,72,16,11,6,6,0.4,0.2
2024-10-13T1900,2694A,82.0806,44.8969,博尔塔拉蒙古自治州,市环保局,,48,48,43,14,13,67,,66,66,13,19,6,6,0.3,0.3
2024-10-13T1900,1071A,116.8842,38.2991,沧州市,沧县城建局,细颗粒物(PM2.5),132,152,127,100,84,53,,109,106,76,37,4,4,0.8,0.6
2024-10-13T1900,1072A,116.8584,38.3254,沧州市,电视转播站,细颗粒物(PM2.5),122,126,115,92,91,61,,122,118,59,31,3,6,0.7,0.6
2024-10-13T1900,1073A,116.8709,38.3228,沧州市,市环保局,细颗粒物(PM2.5),130,171,134,99,89,47,,113,109,65,29,7,9,0.8,0.7
2024-10-13T1900,3324A,116.8136,38.3004,沧州市,河北水利电力学院,细颗粒物(PM2.5),122,146,120,92,91,88,,117,117,47,28,7,9,0.7,0.6
2024-10-13T1900,2622A,97.1806,31.1273,昌都市,昌都监测站,,31,,7,10,6,98,,81,81,6,8,7,8,0.4,0.3
2024-10-13T1900,3719A,97.1714,31.1406,昌都市,昌都会议中心,,34,22,8,11,6,108,,87,87,3,5,8,8,0.4,0.4
2024-10-13T1900,2690A,88.1236,43.8886,昌吉回族自治州,天山天池,,29,29,10,11,3,80,,79,79,12,5,10,8,0.8,0.6
2024-10-13T1900,2692A,87.2717,44.0297,昌吉回族自治州,新区政务中心,,35,35,27,6,13,79,,88,88,12,16,6,6,0.6,0.7
2024-10-13T1900,3613A,87.3095,44.0142,昌吉回族自治州,亚心广场,,39,39,28,7,8,82,,88,88,14,21,5,5,0.6,0.7
2024-10-13T1900,1119A,125.3325,43.9166,长春市,食品厂,"颗粒物(PM10),细颗粒物(PM2.5)",65,80,85,47,47,86,,124,124,53,46,8,8,0.7,0.8
2024-10-13T1900,1120A,125.2863,43.9027,长春市,客车厂,细颗粒物(PM2.5),75,85,81,55,48,65,,122,120,72,46,10,9,0.8,0.9
2024-10-13T1900,1121A,125.2841,43.8463,长春市,邮电学院,颗粒物(PM10),58,66,64,37,36,114,,139,139,28,35,9,8,0.6,0.6
2024-10-13T1900,1122A,125.3716,43.8772,长春市,劳动公园,颗粒物(PM10),60,69,97,26,49,122,,144,144,29,40,10,9,0.7,1.1
2024-10-13T1900,1123A,125.3297,43.8805,长春市,园林处,颗粒物(PM10),58,66,80,31,40,125,,142,142,25,39,8,8,0.6,0.8
2024-10-13T1900,1124A,125.4605,43.79,长春市,净月潭,,38,38,42,19,23,104,,142,138,18,18,6,8,0.4,0.4
2024-10-13T1900,1125A,125.7194,43.515,长春市,甩湾子,细颗粒物(PM2.5),98,73,46,73,32,52,,101,91,33,20,8,7,0.9,0.7
2024-10-13T1900,1126A,125.3863,43.8447,长春市,经开区环卫处,,46,46,67,22,29,110,,132,131,28,34,10,10,0.6,0.7
2024-10-13T1900,1127A,125.245,43.7783,长春市,高新区管委会,细颗粒物(PM2.5),132,124,66,100,42,90,,143,135,56,33,11,9,0.9,0.7
2024-10-13T1900,1128A,125.1761,43.8325,长春市,岱山公园,颗粒物(PM10),60,69,61,38,37,35,,134,114,105,51,9,8,0.6,0.7
2024-10-13T1900,1335A,113.0833,28.2325,长沙市,经开区环保局,细颗粒物(PM2.5),183,156,183,138,167,72,,104,104,32,29,4,6,0.8,0.8
2024-10-13T1900,1336A,112.8872,28.2189,长沙市,高开区环保局,细颗粒物(PM2.5),165,139,173,125,168,75,,101,101,17,18,6,8,0.9,1
2024-10-13T1900,1337A,113.0792,28.2053,长沙市,马坡岭,细颗粒物(PM2.5),169,147,180,128,171,72,,55,,22,21,6,8,0.7,0.8
2024-10-13T1900,1338A,112.9394,28.19,长沙市,湖南师范大学,细颗粒物(PM2.5),139,143,188,106,148,86,,116,116,18,18,5,7,0.7,0.8
2024-10-13T1900,1339A,113.0178,28.1322,长沙市,雨花区环保局,细颗粒物(PM2.5),175,147,175,132,159,84,,116,116,18,21,7,9,1.2,1.2
2024-10-13T1900,1340A,112.9792,28.2597,长沙市,伍家岭,细颗粒物(PM2.5),152,151,192,116,168,65,,93,93,21,20,5,7,1.0,1.1
2024-10-13T1900,1341A,113.0014,28.1944,长沙市,火车新站,细颗粒物(PM2.5),138,140,178,105,148,76,,106,106,18,20,6,9,1.0,1
2024-10-13T1900,1342A,112.9844,28.1178,长沙市,天心区环保局,细颗粒物(PM2.5),142,172,203,108,142,80,,112,112,22,24,6,9,1.1,1.1
2024-10-13T1900,1343A,112.8908,28.1308,长沙市,湖南中医药大学,细颗粒物(PM2.5),219,,188,169,211,79,,116,116,18,18,8,9,1.2,1.3
2024-10-13T1900,1344A,112.9581,28.3611,长沙市,沙坪,细颗粒物(PM2.5),108,148,174,81,112,66,,86,86,18,16,9,11,1.1,1.1
2024-10-13T1900,1727A,113.1147,36.1547,长治市,清华站,细颗粒物(PM2.5),77,74,78,56,67,122,,145,144,28,19,8,8,1.0,0.9
2024-10-13T1900,1728A,113.1031,36.1989,长治市,监测站,细颗粒物(PM2.5),83,69,80,61,65,128,,147,147,31,24,10,11,1.2,1.1
2024-10-13T1900,1730A,113.0886,36.2125,长治市,审计局,细颗粒物(PM2.5),89,79,82,66,75,136,,145,145,22,21,7,8,0.7,0.7
2024-10-13T1900,1731A,113.0844,36.1856,长治市,长治八中,细颗粒物(PM2.5),69,82,101,50,60,135,,150,150,26,22,8,8,1.0,0.9
2024-10-13T1900,2845A,113.1569,36.1911,长治市,德盛苑,细颗粒物(PM2.5),70,70,71,51,58,133,,154,154,19,17,4,6,0.7,0.9
2024-10-13T1900,3568A,113.06,36.0464,长治市,向阳小学,细颗粒物(PM2.5),100,102,99,75,76,126,,154,152,35,25,11,10,0.7,0.6
2024-10-13T1900,3569A,112.8792,36.3144,长治市,屯留一中,细颗粒物(PM2.5),114,104,89,86,76,124,,143,143,26,32,11,11,1.1,1
2024-10-13T1900,3570A,113.235,36.3489,长治市,潞城四中,细颗粒物(PM2.5),93,85,100,69,77,119,,134,134,22,35,6,6,0.7,0.9
2024-10-13T1900,1854A,111.6975,28.9703,常德市,市二中,细颗粒物(PM2.5),63,53,55,45,41,100,,91,91,11,14,3,4,0.8,0.7
2024-10-13T1900,3138A,111.7153,29.0289,常德市,武陵区永安,细颗粒物(PM2.5),67,53,56,48,40,102,,94,94,14,14,3,4,0.6,0.5
2024-10-13T1900,3139A,111.6892,28.9881,常德市,鼎城区玉霞,细颗粒物(PM2.5),59,50,56,42,36,101,,94,94,12,14,4,6,0.7,0.7
2024-10-13T1900,3140A,111.6625,29.0531,常德市,武陵区长庚,,48,42,56,33,39,95,,91,91,15,15,2,4,0.7,0.6
2024-10-13T1900,1196A,119.9633,31.762,常州市,市监测站,,32,32,54,22,27,76,,91,91,44,28,11,9,0.9,0.7
2024-10-13T1900,1200A,119.9468,31.7069,常州市,武进监测站,,30,30,50,18,23,89,,100,100,23,17,8,11,0.5,0.6
2024-10-13T1900,1201A,119.9255,31.9087,常州市,安家,,28,28,58,19,30,78,,82,82,33,31,6,6,0.5,0.6
2024-10-13T1900,3002A,119.9805,31.8174,常州市,行政中心,,29,25,52,12,22,90,,92,92,31,23,7,7,0.3,0.2
2024-10-13T1900,3003A,120.0522,31.7748,常州市,经开区,,38,38,45,20,26,69,,91,91,49,26,8,9,0.2,0.3
2024-10-13T1900,3010A,119.9025,31.7964,常州市,钟楼,,28,24,44,16,24,87,,94,94,34,24,10,10,0.7,0.7
2024-10-13T1900,3429A,119.8598,31.7066,常州市,武进经发区,,25,25,37,9,16,78,,99,99,36,21,6,7,0.7,0.7
2024-10-13T1900,3430A,119.5826,31.7245,常州市,金坛城区,,35,16,29,11,17,109,,118,118,17,18,8,9,0.6,0.7
2024-10-13T1900,2220A,120.4318,41.5881,朝阳市,西梁,,33,33,65,22,37,100,,105,105,12,27,7,8,0.6,0.9
2024-10-13T1900,2221A,120.4521,41.5646,朝阳市,河畔小区,,39,29,62,27,37,110,,113,113,10,27,10,11,0.7,1
2024-10-13T1900,2222A,120.4176,41.5648,朝阳市,八里堡,,45,45,63,24,32,90,,108,105,23,32,9,10,0.7,1
2024-10-13T1900,2223A,120.3806,41.5969,朝阳市,农业园区,,43,43,59,29,40,96,,100,100,15,30,7,9,0.7,1
2024-10-13T1900,1705A,116.6367,23.6719,潮州市,西园路,,49,49,41,22,29,88,,104,104,16,13,7,4,0.5,0.4
2024-10-13T1900,3026A,116.6183,23.6608,潮州市,市政府,,44,44,43,24,22,92,,109,109,16,12,8,6,0.6,0.6
2024-10-13T1900,4036A,116.6461,23.6761,潮州市,金山,,37,37,40,22,28,95,,112,112,13,11,10,8,0.6,0.6
2024-10-13T1900,2472A,113.0073,25.9061,郴州市,马头岭,颗粒物(PM10),67,84,72,37,39,121,,141,141,17,23,16,21,0.2,0.3
2024-10-13T1900,2473A,113.0116,25.8226,郴州市,市职中,细颗粒物(PM2.5),79,82,64,58,52,87,,156,151,48,23,12,16,0.9,0.7
2024-10-13T1900,2474A,113.0161,25.8001,郴州市,兴隆步行街,细颗粒物(PM2.5),70,69,73,51,50,119,,161,160,31,28,12,15,0.8,0.6
2024-10-13T1900,2475A,113.0383,25.8071,郴州市,市审计局,细颗粒物(PM2.5),70,67,65,51,52,94,,150,148,26,20,6,12,0.8,0.8
2024-10-13T1900,2476A,113.0348,25.7759,郴州市,市环保局,细颗粒物(PM2.5),58,60,69,41,46,124,,147,147,15,29,12,13,0.7,0.7
2024-10-13T1900,1431A,103.9728,30.7236,成都市,金泉两河,细颗粒物(PM2.5),62,59,48,44,28,65,,75,75,28,26,3,3,0.7,0.6
2024-10-13T1900,1432A,104.176,30.6872,成都市,十里店,细颗粒物(PM2.5),57,52,42,40,31,50,,68,68,29,32,2,2,0.7,0.7
2024-10-13T1900,1433A,104.079,30.5706,成都市,三瓦窑,细颗粒物(PM2.5),52,36,38,36,30,69,,72,72,17,30,3,3,0.6,0.6
2024-10-13T1900,1434A,104.1114,30.63,成都市,沙河铺,,46,39,47,32,30,48,,66,66,26,26,3,2,0.6,0.5
2024-10-13T1900,1437A,104.0786,30.6531,成都市,君平街,颗粒物(PM10),53,56,51,30,33,76,,76,76,28,40,2,2,0.6,0.6
2024-10-13T1900,2880A,104.0239,30.65639,成都市,大石西路,颗粒物(PM10),53,55,50,36,35,66,,70,70,27,31,4,4,0.7,0.7
2024-10-13T1900,3136A,104.2725,30.5589,成都市,龙泉驿区区政府,,35,34,27,24,21,54,,74,74,19,16,1,2,0.7,0.5
2024-10-13T1900,3357A,104.0106,30.6931,成都市,金博路,细颗粒物(PM2.5),58,63,46,41,29,69,,67,67,26,32,1,2,0.8,0.8
2024-10-13T1900,3359A,104.0578,30.5225,成都市,华阳,,35,34,38,24,28,61,,75,75,19,20,3,3,0.7,0.8
2024-10-13T1900,3487A,104.2394,30.5319,成都市,车城东七路,,36,33,37,25,28,85,,86,86,11,17,1,1,0.6,0.6
2024-10-13T1900,3488A,104.3853,30.7453,成都市,青白江技师分院,,29,23,29,20,19,62,,86,86,20,19,2,3,0.7,0.6
2024-10-13T1900,3489A,104.0789,30.4072,成都市,科学城,,36,30,36,25,31,75,,80,80,10,16,3,3,0.6,0.6
2024-10-13T1900,4011A,103.8506,30.6947,成都市,光华大道三段,颗粒物(PM10),55,60,52,38,34,92,,92,92,15,17,2,2,0.7,0.7
2024-10-13T1900,1062A,117.9531,40.9081,承德市,铁路,细颗粒物(PM2.5),99,115,105,74,68,58,,63,63,62,44,3,3,0.8,0.9
2024-10-13T1900,1063A,117.9392,40.9763,承德市,中国银行,细颗粒物(PM2.5),83,91,92,61,56,36,,67,66,45,37,3,2,0.9,0.9
2024-10-13T1900,1064A,117.9503,40.928,承德市,开发区,细颗粒物(PM2.5),79,104,106,58,59,106,,85,85,26,42,5,5,0.8,1
2024-10-13T1900,1065A,117.8051,40.9655,承德市,文化中心,细颗粒物(PM2.5),89,107,116,66,63,74,,80,80,40,46,2,2,0.9,0.9
2024-10-13T1900,1066A,117.9268,41.0026,承德市,离宫,细颗粒物(PM2.5),97,88,104,72,66,60,,72,72,10,23,4,4,0.8,0.8
2024-10-13T1900,2314A,117.47,30.6618,池州市,池州学院,细颗粒物(PM2.5),69,72,64,50,45,83,,117,117,46,22,11,10,0.8,0.7
2024-10-13T1900,3237A,117.4918,30.6617,池州市,展览馆,颗粒物(PM10),62,74,72,41,46,86,,110,110,34,21,7,8,0.7,0.7
2024-10-13T1900,3333A,117.5627,30.695,池州市,第八中学,颗粒物(PM10),59,68,68,35,42,92,,105,105,26,22,6,7,0.7,0.8
2024-10-13T1900,3334A,117.5038,30.6243,池州市,第十二中学,细颗粒物(PM2.5),79,71,66,58,50,92,,114,114,28,22,6,5,1.0,0.9
2024-10-13T1900,1744A,118.9233,42.2816,赤峰市,松山一中,颗粒物(PM10),60,69,130,39,76,100,,126,122,29,50,12,13,0.8,1.2
2024-10-13T1900,1745A,118.9576,42.2728,赤峰市,哈达街,颗粒物(PM10),58,65,114,37,69,112,,142,138,19,30,9,11,0.8,1.1
2024-10-13T1900,1746A,118.8788,42.2554,赤峰市,天义路,细颗粒物(PM2.5),72,88,136,52,92,86,,142,133,41,35,8,9,0.7,0.7
2024-10-13T1900,3058A,119.2658,42.0353,赤峰市,银河街,颗粒物(PM10),67,84,115,46,62,84,,139,131,27,25,24,24,0.8,1
2024-10-13T1900,3286A,118.9359,42.3147,赤峰市,桥北物流园区,细颗粒物(PM2.5),72,70,114,52,67,101,,130,130,36,58,8,15,1.1,1.4
2024-10-13T1900,2521A,107.3476,22.4136,崇左市,市环保局江州分局,颗粒物(PM10),55,59,59,29,35,98,,123,120,11,13,4,5,0.7,0.7
2024-10-13T1900,2522A,107.3702,22.3707,崇左市,城南新区,,36,36,40,24,28,101,,120,118,9,9,4,4,0.7,0.7
2024-10-13T1900,2298A,118.3093,32.3153,滁州市,老年大学,颗粒物(PM10),51,51,55,32,46,56,,85,84,24,19,4,3,0.6,0.5
2024-10-13T1900,2299A,118.3244,32.2786,滁州市,人大宾馆,颗粒物(PM10),53,56,69,33,49,58,,85,85,29,23,6,7,0.6,0.5
2024-10-13T1900,3207A,118.3118,32.3038,滁州市,市政府原办公楼,,50,50,58,35,51,61,,83,82,33,22,6,6,0.7,0.5
2024-10-13T1900,3331A,118.3267,32.2634,滁州市,图书馆,,38,38,56,23,38,64,,86,86,28,23,5,5,0.5,0.5
2024-10-13T1900,2605A,101.5482,25.0441,楚雄彝族自治州,州环境监测站,,22,15,15,13,15,70,,73,73,6,4,8,8,0.5,0.5
2024-10-13T1900,2606A,101.538,25.0492,楚雄彝族自治州,市经济开发区,,38,38,20,22,16,67,,73,73,9,6,6,6,0.6,0.5
2024-10-13T1900,2548A,107.5277,31.2827,达州市,达州职业技术学院,,40,40,30,15,15,17,,80,76,52,25,5,5,0.8,0.7
2024-10-13T1900,2549A,107.5086,31.2186,达州市,市环境监测站,颗粒物(PM10),54,58,35,24,14,44,,78,78,51,28,6,7,1.1,0.8
2024-10-13T1900,2550A,107.4988,31.2132,达州市,凤凰小区,颗粒物(PM10),56,61,29,31,17,49,,82,82,47,25,8,9,1.0,0.7
2024-10-13T1900,2551A,107.5082,31.1986,达州市,达县机关宾馆,颗粒物(PM10),58,66,35,39,23,13,,82,77,84,34,6,7,1.3,0.7
2024-10-13T1900,2552A,107.4644,31.2124,达州市,市政中心,颗粒物(PM10),54,58,36,24,17,38,,74,73,60,29,6,7,1.0,0.8
2024-10-13T1900,2614A,100.1542,25.7054,大理白族自治州,大理市环境监测站,,30,25,27,21,19,68,,77,77,14,9,7,7,0.7,0.6
2024-10-13T1900,2615A,100.2171,25.5811,大理白族自治州,大理古城,,,36,30,25,18,74,,89,89,,12,,7,0.7,0.7
2024-10-13T1900,1109A,121.612,38.9741,大连市,甘井子,,40,33,60,12,27,128,,130,130,14,21,8,8,0.6,0.9
2024-10-13T1900,1110A,121.565,38.9511,大连市,周水子,,41,41,73,21,40,102,,118,116,32,39,10,9,0.7,0.8
2024-10-13T1900,1111A,121.5637,38.8845,大连市,星海三站,,40,28,52,12,23,128,,128,128,8,18,8,8,0.3,0.5
2024-10-13T1900,1112A,121.6302,38.9117,大连市,青泥洼桥,,38,30,59,15,28,119,,123,123,9,21,8,7,0.6,0.7
2024-10-13T1900,1113A,121.6251,38.8638,大连市,傅家庄,,36,25,37,12,19,115,,117,117,8,10,8,9,0.6,0.6
2024-10-13T1900,1114A,121.5213,38.8661,大连市,七贤岭,,41,36,62,15,29,131,,133,133,10,22,7,7,0.5,0.6
2024-10-13T1900,1115A,121.2529,38.8061,大连市,旅顺,,45,36,37,14,18,142,,141,141,11,15,7,7,0.3,0.4
2024-10-13T1900,1116A,121.7485,39.1311,大连市,金州,,40,24,46,13,26,126,,124,124,6,15,7,7,0.6,0.8
2024-10-13T1900,1117A,121.7811,39.0496,大连市,开发区,,45,45,87,17,38,111,,118,118,14,34,6,7,0.3,0.5
2024-10-13T1900,1118A,121.9762,39.0631,大连市,双D港,,44,23,30,10,21,139,,131,131,9,13,6,6,0.6,0.7
2024-10-13T1900,1789A,124.81117,46.03138,大庆市,大同区,颗粒物(PM10),74,97,70,52,38,110,,124,124,22,24,5,5,0.7,0.6
2024-10-13T1900,1790A,125.129,46.533,大庆市,龙凤区,颗粒物(PM10),74,97,64,52,30,128,,121,121,30,43,5,5,0.8,0.6
2024-10-13T1900,1791A,124.902,46.408,大庆市,红岗区,颗粒物(PM10),68,86,52,44,26,133,,131,131,22,20,8,7,0.7,0.5
2024-10-13T1900,1792A,125.153,46.586,大庆市,萨尔图区,颗粒物(PM10),74,98,65,51,32,126,,120,120,24,31,8,8,0.5,0.4
2024-10-13T1900,1793A,124.9042,46.6215,大庆市,让胡路区,颗粒物(PM10),76,101,56,53,31,136,,128,128,19,28,8,9,0.6,0.6
2024-10-13T1900,3481A,125.141,46.634,大庆市,萨区政府监测点,颗粒物(PM10),72,93,50,49,33,143,,135,135,22,26,9,9,0.7,0.5
2024-10-13T1900,1721A,113.3819,40.1097,大同市,果树场,,43,40,58,30,43,63,,100,86,26,18,6,7,0.8,0.8
2024-10-13T1900,1723A,113.2994,40.0758,大同市,云冈宾馆,细颗粒物(PM2.5),65,48,83,47,51,73,,113,90,39,29,7,8,0.8,0.9
2024-10-13T1900,1724A,113.3444,40.0917,大同市,大同大学,,49,38,62,34,43,80,,112,98,32,21,11,12,0.6,0.6
2024-10-13T1900,1725A,113.2661,40.1269,大同市,安家小村,细颗粒物(PM2.5),63,56,72,45,46,68,,119,95,33,23,11,12,0.6,0.6
2024-10-13T1900,1726A,113.2711,40.0844,大同市,教育学院,细颗粒物(PM2.5),57,49,74,40,41,64,,99,88,44,31,9,9,0.8,0.8
2024-10-13T1900,3282A,113.3397,40.0597,大同市,大同市卫生学校,,49,46,79,34,48,75,,120,88,27,22,7,8,0.8,0.8
2024-10-13T1900,3565A,113.1367,40.1122,大同市,云冈站,细颗粒物(PM2.5),70,68,79,51,50,64,,112,89,36,24,9,10,0.9,0.8
2024-10-13T1900,3566A,113.1186,40.2556,大同市,图书馆,细颗粒物(PM2.5),75,62,79,55,56,64,,109,96,43,25,18,11,1.0,0.7
2024-10-13T1900,3567A,113.5931,40.0461,大同市,区一中,,44,44,60,26,29,55,,104,88,29,16,1,4,0.6,0.6
2024-10-13T1900,3676A,113.2802,40.0995,大同市,第二人民医院,,46,39,71,32,41,73,,115,96,36,25,10,11,0.7,0.7
2024-10-13T1900,2269A,124.1069,50.4097,大兴安岭地区,科技局,,43,43,21,18,15,75,,73,73,11,10,9,9,0.4,0.4
2024-10-13T1900,3663A,124.1164,50.4278,大兴安岭地区,红旗社区,,48,48,22,20,11,74,,72,72,16,12,5,3,0.5,0.5
2024-10-13T1900,1600A,124.3303,40.0625,丹东市,江湾东路,颗粒物(PM10),52,54,51,34,32,46,,65,65,35,26,9,9,0.9,0.8
2024-10-13T1900,1601A,124.4256,40.1503,丹东市,临江后街,颗粒物(PM10),112,174,67,75,31,16,,67,61,73,29,14,7,2.3,1.1
2024-10-13T1900,1602A,124.3933,40.1461,丹东市,元宝山,,45,45,41,21,21,53,,65,65,30,20,5,5,0.8,0.8
2024-10-13T1900,1603A,124.3633,40.1092,丹东市,民主桥,颗粒物(PM10),63,76,46,43,22,4,,70,62,69,31,6,6,1.3,0.7
2024-10-13T1900,3541A,109.5726,19.5167,儋州市,第一中学子站,,28,28,29,15,17,86,,89,89,6,5,6,7,0.2,0.3
2024-10-13T1900,3542A,109.5567,19.5187,儋州市,东坡学校子站,,28,27,29,15,15,88,,92,92,5,3,5,6,0.4,0.5
2024-10-13T1900,2616A,98.5842,24.428,德宏傣族景颇族自治州,德宏州监测站,,37,37,38,21,20,71,,71,71,9,14,5,9,0.5,0.5
2024-10-13T1900,3677A,98.5881,24.4368,德宏傣族景颇族自治州,芒市人民政府综合楼,,44,44,40,25,22,71,,74,74,9,11,5,9,0.5,0.6
2024-10-13T1900,1901A,104.4239,31.1208,德阳市,东山公园,,23,20,26,14,15,71,,75,75,11,10,2,2,0.7,0.7
2024-10-13T1900,1902A,104.3826,31.1317,德阳市,西小区,,31,31,35,18,20,60,,65,65,17,16,2,2,0.6,0.6
2024-10-13T1900,1904A,104.3553,31.1091,德阳市,耐火材料厂,,28,26,30,19,21,59,,71,71,13,17,3,3,0.4,0.4
2024-10-13T1900,3639A,104.4019,31.1244,德阳市,市教育局,,23,23,28,12,16,61,,73,73,17,16,2,2,0.6,0.5
2024-10-13T1900,1622A,116.3032,37.4674,德州市,儿童乐园,颗粒物(PM10),95,139,120,68,70,118,,152,152,53,42,9,16,1.0,0.7
2024-10-13T1900,1624A,116.2991,37.4451,德州市,监理站,细颗粒物(PM2.5),92,129,119,68,69,135,,158,158,37,41,11,17,0.7,0.7
2024-10-13T1900,3066A,116.2721,37.4379,德州市,九衢泉纯净水厂,颗粒物(PM10),104,158,124,73,61,99,,143,142,57,53,8,15,0.9,0.8
2024-10-13T1900,3371A,116.3728,37.4403,德州市,开发区人民医院,"颗粒物(PM10),细颗粒物(PM2.5)",89,127,125,66,63,106,,146,146,55,43,11,17,0.9,0.8
2024-10-13T1900,3372A,116.3572,37.4094,德州市,太阳城中学,细颗粒物(PM2.5),98,136,126,73,64,29,,147,138,145,67,14,19,1.1,0.8
2024-10-13T1900,3511A,116.5652,37.3319,德州市,陵城艺术中心,颗粒物(PM10),115,180,120,68,67,103,,151,150,62,45,8,15,0.8,0.7
2024-10-13T1900,2621A,99.7056,27.8317,迪庆藏族自治州,迪庆州站,,,32,18,9,11,68,,81,80,17,10,9,11,,0.4
2024-10-13T1900,3180A,99.7136,27.8094,迪庆藏族自治州,质量技术监督局,,23,21,16,8,9,71,,78,78,16,11,7,6,0.5,0.5
2024-10-13T1900,2663A,104.6241,35.5734,定西市,东关小学,,42,42,33,21,21,72,,76,76,17,14,8,8,0.3,0.3
2024-10-13T1900,2664A,104.6194,35.5934,定西市,供电公司,,38,36,31,26,21,54,,77,77,34,15,7,7,0.4,0.4
2024-10-13T1900,1389A,113.7547,23.0494,东莞市,莞城梨川,臭氧1小时,89,66,56,32,30,191,,170,170,32,21,8,8,0.8,0.7
2024-10-13T1900,1390A,113.7944,23.0128,东莞市,东城石井,颗粒物(PM10),53,56,47,33,28,158,,172,172,28,20,7,8,0.8,0.7
2024-10-13T1900,1391A,113.7383,22.9658,东莞市,南城西平,臭氧1小时,79,60,54,33,31,183,,182,182,25,30,9,10,0.7,0.7
2024-10-13T1900,3319A,113.7338,23.0381,东莞市,万江金泰,臭氧1小时,97,71,58,38,30,197,,167,167,34,22,8,7,0.6,0.7
2024-10-13T1900,3626A,113.7533,23.0202,东莞市,南城元岭,臭氧1小时,78,63,57,32,30,182,,167,167,26,21,8,9,0.9,0.9
2024-10-13T1900,3627A,113.7875,23.0457,东莞市,东城主山,臭氧1小时,99,66,55,34,30,199,,175,175,29,25,8,9,0.7,0.7
2024-10-13T1900,1666A,118.6614,37.4309,东营市,市环保局,,48,48,77,27,50,123,,142,142,19,15,3,7,0.3,0.6
2024-10-13T1900,3036A,118.6904,37.4338,东营市,开发区管委会,颗粒物(PM10),53,56,85,34,53,134,,153,153,26,20,3,6,0.1,0.4
2024-10-13T1900,3365A,118.5719,37.565,东营市,垦利区民丰路,细颗粒物(PM2.5),55,58,81,39,49,97,,132,131,36,19,10,11,0.6,0.8
2024-10-13T1900,3498A,118.5055,37.8612,东营市,河口城区,细颗粒物(PM2.5),62,63,80,44,55,120,,136,136,17,21,6,7,0.6,0.7
2024-10-13T1900,3646A,118.4978,37.4623,东营市,胜利站,细颗粒物(PM2.5),55,53,69,39,49,118,,138,138,31,22,9,10,0.7,0.9
2024-10-13T1900,3734A,118.35,37.26,东营市,理想之城,"颗粒物(PM10),细颗粒物(PM2.5)",62,73,93,44,59,129,,147,147,24,21,4,6,0.3,0.5
2024-10-13T1900,1591A,110.0023,39.8129,鄂尔多斯市,综合楼,颗粒物(PM10),54,58,35,29,19,73,,120,89,30,13,5,6,0.7,0.5
2024-10-13T1900,1592A,109.9486,39.8261,鄂尔多斯市,巴音孟克林场办事处,,46,46,33,29,22,73,,104,79,28,16,7,6,0.7,0.6
2024-10-13T1900,1593A,109.7736,39.5986,鄂尔多斯市,康泽苑,,44,44,33,27,21,83,,109,86,22,12,6,6,0.6,0.6
2024-10-13T1900,1594A,109.8119,39.5989,鄂尔多斯市,华泰汽车城,细颗粒物(PM2.5),52,,31,36,24,80,,98,80,17,11,9,9,0.5,0.5
2024-10-13T1900,1595A,109.9734,39.7884,鄂尔多斯市,奥林花园,,48,48,34,22,19,55,,96,74,28,14,5,4,0.6,0.6
2024-10-13T1900,2436A,114.8938,30.3994,鄂州市,市政府,细颗粒物(PM2.5),95,108,93,71,68,101,,133,131,36,31,26,16,1.6,1.2
2024-10-13T1900,2437A,114.8989,30.3714,鄂州市,赵家坝,细颗粒物(PM2.5),98,107,101,73,73,112,,136,134,25,28,14,17,1.4,1.3
2024-10-13T1900,3654A,114.8094,30.4089,鄂州市,精准医疗中心,细颗粒物(PM2.5),97,95,90,72,62,100,,135,130,25,33,8,11,0.9,0.9
2024-10-13T1900,2454A,109.4978,30.2981,恩施土家族苗族自治州,湖北民院,,29,29,44,16,28,66,,67,67,15,14,8,8,0.8,0.8
2024-10-13T1900,2455A,109.4707,30.2798,恩施土家族苗族自治州,州电力总公司,,26,22,32,18,27,52,,62,62,30,21,8,6,1.1,1
2024-10-13T1900,3549A,109.5061,30.3772,恩施土家族苗族自治州,龙凤新区,,23,20,35,16,28,37,,53,53,22,18,6,6,0.9,0.9
2024-10-13T1900,2499A,108.3411,21.6158,防城港市,沙万,颗粒物(PM10),63,76,53,26,28,115,,129,129,25,21,12,15,0.7,0.8
2024-10-13T1900,2500A,108.3514,21.7731,防城港市,防城档案局,,46,46,74,31,36,110,,129,129,30,25,16,10,1.0,0.9
2024-10-13T1900,2501A,108.3506,21.6414,防城港市,大海花园,,47,47,49,21,29,128,,144,144,22,16,9,9,0.7,0.7
2024-10-13T1900,1371A,113.1294,23.0067,佛山市,湾梁,臭氧1小时,100,63,64,30,29,200,,222,222,30,31,8,8,0.8,0.8
2024-10-13T1900,1372A,113.1083,23.0478,佛山市,华材职中,臭氧1小时,104,53,62,31,39,207,,219,219,24,30,9,8,0.6,0.6
2024-10-13T1900,1373A,113.144,23.0453,佛山市,南海气象局,臭氧1小时,97,59,63,33,35,197,,205,205,24,25,9,9,0.7,0.7
2024-10-13T1900,1374A,113.2881,22.8094,佛山市,顺德苏岗,臭氧1小时,103,68,59,36,32,205,,223,223,24,25,9,9,0.7,0.7
2024-10-13T1900,1376A,112.8383,22.8678,佛山市,高明孔堂,臭氧1小时,74,60,59,31,37,179,,220,220,17,18,6,6,0.7,0.7
2024-10-13T1900,1377A,112.8836,23.1588,佛山市,三水监测站,臭氧1小时,117,102,93,46,57,233,,261,261,46,56,6,9,0.8,0.8
2024-10-13T1900,1378A,112.867,23.185,佛山市,三水云东海,臭氧1小时,79,70,77,40,55,183,,236,227,45,53,10,13,0.8,0.9
2024-10-13T1900,3625A,113.2544,22.7642,佛山市,容桂街道办,臭氧1小时,103,56,55,36,34,205,,228,228,28,26,8,8,0.8,0.7
2024-10-13T1900,1282A,119.2681,26.0504,福州市,师大,,36,36,34,20,17,71,,88,86,8,13,2,2,0.3,0.4
2024-10-13T1900,1283A,119.2984,26.1028,福州市,五四北路,,40,40,28,20,13,70,,78,78,12,16,3,2,0.2,0.3
2024-10-13T1900,1284A,119.2648,26.0768,福州市,杨桥西路,,32,32,31,19,13,74,,85,84,9,11,3,4,0.2,0.3
2024-10-13T1900,1285A,119.317,26.0746,福州市,紫阳,,35,35,33,19,14,61,,72,72,17,18,2,2,0.2,0.3
2024-10-13T1900,3048A,119.5799,26.0936,福州市,九龙,,30,30,25,20,11,77,,82,81,1,5,1,2,0.1,0.2
2024-10-13T1900,3526A,119.5189,25.9664,福州市,吴航,,34,34,24,19,14,80,,82,82,4,9,2,3,0.2,0.4
2024-10-13T1900,1755A,123.7977,41.8491,抚顺市,望花区,颗粒物(PM10),83,115,115,50,58,59,,117,114,73,51,25,11,0.9,1.2
2024-10-13T1900,1756A,123.9161,41.8822,抚顺市,顺城区,细颗粒物(PM2.5),90,113,80,67,50,23,,112,106,111,45,13,7,1.1,1
2024-10-13T1900,1757A,124.0436,41.8611,抚顺市,东洲区,细颗粒物(PM2.5),115,109,77,87,60,66,,106,105,44,30,12,9,0.9,1
2024-10-13T1900,1758A,123.9247,41.8642,抚顺市,新抚区,颗粒物(PM10),82,113,88,43,50,73,,117,117,52,43,14,6,0.8,1
2024-10-13T1900,1759A,124.0972,41.8961,抚顺市,大伙房水库,颗粒物(PM10),62,73,71,37,44,84,,122,122,26,21,9,8,0.8,1
2024-10-13T1900,1760A,123.7086,41.8391,抚顺市,沈抚新城,细颗粒物(PM2.5),79,105,96,58,53,48,,126,118,84,51,23,15,0.9,1.3
2024-10-13T1900,2376A,116.2127,28.0814,抚州市,桐源党溪,颗粒物(PM10),56,61,67,35,41,106,,131,130,6,12,8,10,0.9,0.8
2024-10-13T1900,2377A,116.3544,27.9831,抚州市,市站,,47,47,59,27,36,110,,112,112,14,16,8,11,0.6,0.8
2024-10-13T1900,2378A,116.3565,27.963,抚州市,血防站,,48,48,57,21,34,121,,128,128,7,9,4,7,0.9,0.8
2024-10-13T1900,2379A,116.3564,28.0007,抚州市,采茶剧团,,46,46,55,26,36,119,,124,124,9,11,7,9,0.8,0.9
2024-10-13T1900,2380A,116.385,27.9647,抚州市,医学分院,颗粒物(PM10),51,51,56,32,33,105,,117,117,10,13,6,7,0.9,0.9
2024-10-13T1900,2207A,121.6094,41.998,阜新市,工业园区,颗粒物(PM10),52,54,98,23,45,103,,127,126,20,34,6,11,0.7,1
2024-10-13T1900,2208A,121.6697,42.0279,阜新市,长青街,颗粒物(PM10),56,61,79,29,41,93,,121,120,21,29,12,13,0.6,1.6
2024-10-13T1900,2209A,121.6673,42.0705,阜新市,农业园区,"颗粒物(PM10),细颗粒物(PM2.5)",52,54,77,36,50,100,,121,120,17,28,8,18,0.5,0.8
2024-10-13T1900,2210A,121.6717,42.0224,阜新市,东苑,颗粒物(PM10),58,65,85,24,46,81,,112,110,37,44,15,22,0.8,1.9
2024-10-13T1900,2211A,121.6506,42.0498,阜新市,玉龙新城,颗粒物(PM10),51,52,78,35,36,99,,130,128,25,35,12,12,1.0,1
2024-10-13T1900,2301A,115.8277,32.8929,阜阳市,市监测站,细颗粒物(PM2.5),79,90,96,58,63,81,,103,103,29,23,6,8,0.7,0.7
2024-10-13T1900,2303A,115.8554,32.8605,阜阳市,开发区,颗粒物(PM10),80,109,106,3,60,78,,98,98,24,23,7,8,0.5,0.5
2024-10-13T1900,2875A,115.784,32.8892,阜阳市,阜阳职业技术学院,细颗粒物(PM2.5),72,83,90,52,52,72,,98,98,33,22,7,8,0.6,0.6
2024-10-13T1900,3468A,115.7901,32.8613,阜阳市,市规划展馆,细颗粒物(PM2.5),87,93,88,64,67,83,,103,103,30,26,6,7,0.7,0.7
2024-10-13T1900,3469A,115.836,32.9183,阜阳市,枣园社区,细颗粒物(PM2.5),94,95,94,70,70,72,,100,99,37,23,6,8,0.7,0.7
2024-10-13T1900,2669A,102.9099,34.9841,甘南藏族自治州,州政府,,21,18,30,14,13,66,,89,89,23,30,9,9,0.6,0.6
2024-10-13T1900,3380A,102.8914,34.9617,甘南藏族自治州,甘肃民族师范学院,,18,8,23,3,15,56,,83,83,29,31,3,7,0.5,0.6
2024-10-13T1900,2570A,101.9603,30.0475,甘孜藏族自治州,水桥子,,22,22,16,6,7,47,,57,57,18,17,5,6,0.4,0.3
2024-10-13T1900,3065A,101.9533,29.9972,甘孜藏族自治州,州环保局,,20,20,15,3,3,57,,65,65,15,17,3,3,0.3,0.2
2024-10-13T1900,3414A,115.8347,28.932,赣江新区,桑海产业园,颗粒物(PM10),60,70,86,37,52,105,,136,134,21,43,10,12,0.6,0.6
2024-10-13T1900,2362A,114.9017,25.9149,赣州市,通天岩,细颗粒物(PM2.5),59,48,47,42,39,104,,162,157,10,11,31,31,0.2,0.2
2024-10-13T1900,2363A,114.9367,25.8664,赣州市,地委,颗粒物(PM10),60,69,52,33,33,115,,144,144,28,23,10,11,1.3,1
2024-10-13T1900,2364A,114.9461,25.8481,赣州市,气象台,颗粒物(PM10),55,60,52,36,31,131,,165,165,23,22,9,13,1.3,1.1
2024-10-13T1900,2365A,114.9322,25.8333,赣州市,市图书馆,颗粒物(PM10),57,64,51,34,29,135,,171,171,26,25,4,6,1.0,0.8
2024-10-13T1900,2366A,114.8905,25.8471,赣州市,华坚鞋城,颗粒物(PM10),54,58,56,37,33,89,,148,147,43,24,4,6,0.9,0.7
2024-10-13T1900,3109A,115.0093,25.8613,赣州市,赣县区卫计委,,49,37,43,34,31,90,,139,137,34,21,6,6,0.7,0.6
2024-10-13T1900,2683A,106.2319,36.1417,固原市,马园,颗粒物(PM10),56,62,29,29,12,24,,85,77,70,17,6,6,0.4,0.4
2024-10-13T1900,2684A,106.2792,36.0022,固原市,监测站,"颗粒物(PM10),细颗粒物(PM2.5)",55,60,30,39,21,92,,89,89,17,25,5,5,0.6,0.6
2024-10-13T1900,2685A,106.2375,36.0211,固原市,新区,,45,45,29,31,18,90,,91,91,20,19,5,5,0.6,0.5
2024-10-13T1900,3522A,106.2177,35.9959,固原市,原州区十五小,颗粒物(PM10),72,93,29,43,15,81,,90,90,25,17,5,5,0.6,0.6
2024-10-13T1900,2544A,106.6303,30.4576,广安市,市委,,36,30,34,25,26,78,,97,97,21,13,2,3,0.6,0.5
2024-10-13T1900,2545A,106.6271,30.4663,广安市,友谊中学,,35,32,32,24,24,74,,95,95,23,14,2,2,0.6,0.5
2024-10-13T1900,2547A,106.6388,30.4551,广安市,广电花园,,34,34,35,21,23,80,,96,96,20,13,1,1,0.5,0.4
2024-10-13T1900,2902A,106.6351,30.4865,广安市,北辰小学,,36,36,38,22,24,71,,98,98,17,11,4,4,0.7,0.6
2024-10-13T1900,2523A,105.8945,32.4535,广元市,黑石坡,,15,15,18,7,12,42,,63,62,12,8,8,8,0.7,0.5
2024-10-13T1900,2524A,105.821,32.4444,广元市,老城,,34,34,25,8,10,51,,68,68,26,28,2,2,0.9,0.8
2024-10-13T1900,2526A,105.8628,32.4287,广元市,监测站,,25,20,17,17,13,59,,74,74,16,14,3,2,0.7,0.6
2024-10-13T1900,3617A,105.8047,32.4166,广元市,经开区,,15,13,21,7,13,48,,59,59,18,23,4,4,0.7,0.7
2024-10-13T1900,1345A,113.2347,23.1423,广州市,广雅中学,颗粒物(PM10),54,57,64,30,36,157,,186,185,35,35,7,7,0.9,0.9
2024-10-13T1900,1346A,113.2612,23.105,广州市,市五中,臭氧1小时,82,45,56,34,44,185,,205,205,18,24,6,6,0.7,0.8
2024-10-13T1900,1348A,113.3478,23.0916,广州市,广东商学院,臭氧1小时,97,56,61,28,36,197,,205,205,23,40,14,12,0.7,0.7
2024-10-13T1900,1349A,113.4332,23.1047,广州市,市八十六中,颗粒物(PM10),58,65,67,26,33,141,,179,179,28,54,5,6,0.8,0.9
2024-10-13T1900,1350A,113.3505,22.9483,广州市,番禺中学,臭氧1小时,110,64,60,37,33,220,,219,219,25,28,8,8,0.6,0.7
2024-10-13T1900,1351A,113.2146,23.3916,广州市,花都师范,,42,36,70,16,40,132,,172,170,27,44,5,6,0.8,0.9
2024-10-13T1900,1352A,113.2597,23.1331,广州市,市监测站,,48,47,57,24,33,151,,180,179,30,31,5,6,0.8,0.8
2024-10-13T1900,1353A,113.5618,23.312,广州市,九龙镇镇龙,,46,46,55,27,34,125,,128,128,12,25,8,8,0.7,0.7
2024-10-13T1900,1354A,113.2765,23.1544,广州市,麓湖,,45,42,57,25,36,143,,164,162,19,39,6,7,0.6,0.8
2024-10-13T1900,1355A,113.443,23.3035,广州市,帽峰山森林公园,,44,31,41,17,25,138,,143,143,9,19,6,7,0.6,0.7
2024-10-13T1900,2846A,113.3221,23.1322,广州市,体育西,颗粒物(PM10),55,59,59,29,34,148,,176,176,25,31,5,6,0.8,0.8
2024-10-13T1900,3298A,113.5717,23.5491,广州市,从化街口,细颗粒物(PM2.5),54,55,48,38,35,78,,129,121,21,20,7,7,0.8,0.7
2024-10-13T1900,3299A,113.3472,23.3692,广州市,白云竹料,颗粒物(PM10),58,66,60,32,36,135,,147,146,18,29,7,6,0.7,0.8
2024-10-13T1900,3300A,113.2981,23.237,广州市,白云嘉禾,颗粒物(PM10),51,51,66,25,38,121,,167,163,44,46,6,7,0.8,0.9
2024-10-13T1900,3301A,113.4256,23.1716,广州市,黄埔科学城,,49,49,59,27,37,121,,160,157,23,35,6,7,0.7,0.8
2024-10-13T1900,3302A,113.3942,23.0483,广州市,番禺大学城,臭氧1小时,95,46,59,27,29,196,,201,201,21,31,8,9,0.6,0.7
2024-10-13T1900,3303A,113.4922,22.8168,广州市,南沙黄阁,臭氧1小时,59,63,60,26,32,167,,230,226,33,31,6,7,0.9,0.9
2024-10-13T1900,3304A,113.5342,22.7896,广州市,南沙街,颗粒物(PM10),66,81,55,30,31,147,,218,215,24,26,5,6,0.8,0.8
2024-10-13T1900,3443A,113.2902,23.5544,广州市,花都梯面,细颗粒物(PM2.5),98,86,49,73,36,52,,148,134,38,26,6,6,0.8,0.6
2024-10-13T1900,3445A,113.7858,23.7478,广州市,从化良口,,38,37,30,26,24,60,,93,89,17,12,7,7,0.9,0.8
2024-10-13T1900,3446A,113.8051,23.2614,广州市,增城荔城,颗粒物(PM10),51,51,50,34,34,91,,136,132,17,14,7,8,0.7,0.7
2024-10-13T1900,2506A,109.6047,23.0666,贵港市,江南子站,颗粒物(PM10),68,85,96,43,56,134,,163,163,16,29,8,13,0.9,1
2024-10-13T1900,2507A,109.6014,23.0948,贵港市,贵城子站,颗粒物(PM10),62,73,84,36,55,145,,169,169,14,23,10,13,0.9,1
2024-10-13T1900,2508A,109.5669,23.1065,贵港市,荷城子站,颗粒物(PM10),59,68,79,36,47,134,,162,162,20,24,11,16,0.7,0.8
2024-10-13T1900,3405A,109.5886,23.1172,贵港市,新世纪学校,颗粒物(PM10),58,66,77,38,44,138,,163,163,19,25,8,13,0.6,0.7
2024-10-13T1900,1439A,106.6899,26.5998,贵阳市,马鞍山,,12,12,27,3,19,33,,38,38,15,15,3,4,0.6,0.7
2024-10-13T1900,1440A,106.6971,26.5694,贵阳市,市环保站,,35,,33,24,31,52,,52,52,19,21,4,5,0.7,0.7
2024-10-13T1900,1441A,106.6243,26.6266,贵阳市,鉴湖路,,34,34,28,12,19,42,,44,44,14,13,4,5,0.6,0.5
2024-10-13T1900,1442A,106.7487,26.6343,贵阳市,燕子冲,,32,,28,22,28,50,,51,51,12,12,6,6,0.6,0.7
2024-10-13T1900,1443A,106.6555,26.4365,贵阳市,碧云窝,,22,22,25,12,13,45,,72,46,21,14,4,4,0.2,0.5
2024-10-13T1900,1444A,106.694,26.5161,贵阳市,中院村,,31,31,31,14,23,47,,50,50,19,21,8,8,0.8,0.7
2024-10-13T1900,1445A,106.7109,26.6027,贵阳市,红边门,,28,24,37,19,34,44,,50,50,18,19,4,5,0.8,0.8
2024-10-13T1900,1446A,106.7164,26.5699,贵阳市,新华路,,,22,30,17,26,51,,53,53,,17,4,5,0.6,0.6
2024-10-13T1900,1447A,106.674,26.5424,贵阳市,太慈桥,,18,12,28,12,19,38,,40,40,21,19,9,9,0.6,0.6
2024-10-13T1900,1862A,110.4144,25.3167,桂林市,电子科大尧山校区,颗粒物(PM10),56,62,64,37,39,124,,142,142,8,12,5,8,0.6,0.6
2024-10-13T1900,1863A,110.2819,25.2697,桂林市,监测站,细颗粒物(PM2.5),62,56,64,44,46,134,,160,159,21,18,11,14,0.8,0.8
2024-10-13T1900,1864A,110.3089,25.2708,桂林市,龙隐路小学,细颗粒物(PM2.5),69,63,67,50,49,133,,162,160,17,21,8,16,0.7,0.6
2024-10-13T1900,1865A,110.2869,25.2178,桂林市,八中,细颗粒物(PM2.5),58,48,61,41,43,130,,153,152,12,19,7,12,0.7,0.7
2024-10-13T1900,3403A,110.1764,25.2381,桂林市,创业大厦,细颗粒物(PM2.5),64,61,72,46,52,151,,162,162,18,30,9,27,0.4,0.4
2024-10-13T1900,3531A,110.296,25.1253,桂林市,旅游学院,细颗粒物(PM2.5),73,78,50,53,36,134,,153,153,14,23,17,11,0.6,0.5
2024-10-13T1900,2674A,100.2561,34.4714,果洛藏族自治州,玛沁县大武镇,,30,25,27,16,15,96,,99,99,3,8,6,8,0.4,0.5
2024-10-13T1900,1129A,126.5422,45.755,哈尔滨市,岭北,臭氧1小时,63,56,58,38,36,170,,178,178,24,36,6,10,0.7,0.8
2024-10-13T1900,1130A,126.561,45.8167,哈尔滨市,松北商大,颗粒物(PM10),63,75,60,37,26,134,,138,138,22,42,10,11,0.7,0.7
2024-10-13T1900,1131A,126.979,45.5419,哈尔滨市,阿城会宁,细颗粒物(PM2.5),100,148,69,75,34,94,,131,131,33,34,4,6,1.0,0.7
2024-10-13T1900,1132A,126.599,45.7222,哈尔滨市,南岗学府路,颗粒物(PM10),74,98,75,43,32,131,,130,130,30,43,9,12,0.7,0.7
2024-10-13T1900,1133A,126.689,45.7733,哈尔滨市,太平宏伟公园,细颗粒物(PM2.5),70,82,76,51,32,124,,136,136,34,45,10,8,0.7,0.7
2024-10-13T1900,1134A,126.635,45.7667,哈尔滨市,道外承德广场,颗粒物(PM10),68,86,66,35,28,131,,133,133,32,44,7,7,0.9,0.6
2024-10-13T1900,1135A,126.685,45.7319,哈尔滨市,香坊红旗大街,颗粒物(PM10),70,90,88,46,38,119,,132,132,39,46,12,15,0.8,0.8
2024-10-13T1900,1136A,126.6411,45.7258,哈尔滨市,动力和平路,细颗粒物(PM2.5),74,88,71,54,39,125,,136,136,32,45,9,8,0.7,0.6
2024-10-13T1900,1137A,126.593,45.7478,哈尔滨市,道里建国路,颗粒物(PM10),64,77,76,40,40,141,,138,138,29,48,16,19,0.9,1.9
2024-10-13T1900,1138A,126.615,45.61,哈尔滨市,平房东轻厂,颗粒物(PM10),65,79,67,33,33,134,,138,138,19,31,8,8,0.6,0.6
2024-10-13T1900,1139A,126.595,45.9855,哈尔滨市,呼兰师专,细颗粒物(PM2.5),64,54,53,46,31,120,,116,116,36,38,6,5,0.8,0.5
2024-10-13T1900,1140A,126.6206,45.6842,哈尔滨市,省农科院,颗粒物(PM10),81,111,90,45,46,113,,122,122,42,48,3,11,0.6,0.7
2024-10-13T1900,2688A,93.5128,42.8172,哈密市,地区监测站,颗粒物(PM10),81,111,146,32,43,62,,101,98,56,33,6,5,0.5,0.4
2024-10-13T1900,2689A,93.4961,42.8328,哈密市,哈密师范学校,颗粒物(PM10),113,176,115,31,38,59,,99,96,34,32,4,5,0.6,0.6
2024-10-13T1900,2671A,100.9048,36.9639,海北藏族自治州,海晏县西海镇,,24,21,15,8,11,74,,90,90,8,9,7,9,0.3,0.3
2024-10-13T1900,3867A,102.0738,36.5056,海东市,平安区公安北苑,颗粒物(PM10),63,75,43,18,21,61,,89,89,41,19,8,12,0.5,0.6
2024-10-13T1900,1410A,110.3232,20.0574,海口市,海南大学,,27,20,35,8,15,84,,118,111,4,5,4,4,0.4,0.4
2024-10-13T1900,1411A,110.283,20.0053,海口市,秀英海南医院,,31,31,35,11,15,88,,117,109,7,6,6,6,0.4,0.4
2024-10-13T1900,1412A,110.338,19.9969,海口市,海南师范大学,,38,38,35,10,15,76,,118,110,4,3,6,6,0.5,0.5
2024-10-13T1900,1413A,110.33,20.0356,海口市,龙华路环保局宿舍,,33,33,35,8,15,81,,119,111,6,5,5,5,0.4,0.4
2024-10-13T1900,3539A,110.5111,19.9736,海口市,桂林洋子站,,,24,29,15,16,69,,109,98,,4,,7,0.2,0.3
2024-10-13T1900,2673A,100.6188,36.2866,海南藏族自治州,共和县恰卜恰镇,,28,22,29,6,11,87,,91,91,8,17,11,10,0.4,0.6
2024-10-13T1900,2676A,97.3731,37.3753,海西蒙古族藏族自治州,德令哈市,,30,18,28,17,16,96,,98,98,7,8,6,8,0.5,0.5
2024-10-13T1900,1048A,114.5302,36.6116,邯郸市,东污水处理厂,细颗粒物(PM2.5),92,100,131,68,88,115,,135,135,42,42,2,4,0.7,0.7
2024-10-13T1900,1049A,114.4918,36.5713,邯郸市,矿院,细颗粒物(PM2.5),83,106,137,61,89,131,,134,134,28,42,4,6,0.3,0.3
2024-10-13T1900,1050A,114.484,36.6133,邯郸市,丛台公园,细颗粒物(PM2.5),84,106,124,62,87,127,,130,130,30,37,4,6,0.7,0.6
2024-10-13T1900,3458A,114.7895,36.5593,邯郸市,香泉濮院小区,细颗粒物(PM2.5),82,112,133,60,74,139,,163,163,32,32,2,5,0.5,0.6
2024-10-13T1900,3579A,114.50634,36.77178,邯郸市,永年区实验高中,细颗粒物(PM2.5),199,234,173,149,99,57,,137,132,66,60,5,6,1.0,0.8
2024-10-13T1900,3580A,114.20016,36.44293,邯郸市,峰峰矿区临水派出所,细颗粒物(PM2.5),79,87,121,58,88,152,,143,143,21,28,5,8,0.0,0.1
2024-10-13T1900,2634A,106.9893,33.1842,汉中市,汉川机床厂子校,,42,42,30,29,21,52,,59,59,17,15,7,5,0.8,0.7
2024-10-13T1900,2636A,107.0089,33.1138,汉中市,鑫源开发区,,43,36,40,30,26,48,,58,58,24,24,15,18,0.5,0.5
2024-10-13T1900,2637A,107.007,33.0323,汉中市,南郑大河坎水厂,,32,27,32,22,22,52,,61,61,17,18,10,11,0.6,0.6
2024-10-13T1900,1223A,120.2072,30.2111,杭州市,滨江,,33,33,33,15,17,91,,94,94,27,24,5,5,0.7,0.6
2024-10-13T1900,1224A,120.0633,30.2747,杭州市,西溪,,37,37,37,18,16,46,,76,74,22,19,6,6,0.7,0.6
2024-10-13T1900,1226A,120.3461,30.3153,杭州市,下沙,,34,34,35,12,15,104,,102,102,27,37,7,7,0.5,0.5
2024-10-13T1900,1227A,120.1269,30.2456,杭州市,卧龙桥,,28,28,32,18,18,24,,91,85,29,20,5,6,0.7,0.5
2024-10-13T1900,1228A,120.1903,30.2692,杭州市,浙江农大,,32,29,28,13,15,100,,93,93,23,29,3,5,0.5,0.6
2024-10-13T1900,1230A,120.1197,30.3119,杭州市,和睦小学,,30,30,28,19,19,94,,100,100,26,26,6,6,0.3,0.3
2024-10-13T1900,1231A,120.3019,30.4183,杭州市,临平镇,,34,26,35,9,15,107,,108,108,14,21,5,5,0.5,0.5
2024-10-13T1900,1232A,120.2697,30.1819,杭州市,城厢镇,,38,38,34,16,22,98,,103,103,30,27,7,7,0.6,0.6
2024-10-13T1900,1233A,120.0883,30.1808,杭州市,云栖,,20,20,24,10,16,32,,81,77,34,26,7,7,0.6,0.6
2024-10-13T1900,3557A,119.9464,30.0494,杭州市,镇二中,,,52,31,38,26,76,,103,102,25,19,8,8,,0.8
2024-10-13T1900,3558A,119.7183,30.2367,杭州市,市府大楼,颗粒物(PM10),57,63,59,35,28,69,,98,98,35,27,6,6,0.7,0.6
2024-10-13T1900,3656A,120.1556,30.2864,杭州市,消防大队,,33,33,34,16,19,100,,100,100,22,23,9,9,0.3,0.3
2024-10-13T1900,1270A,117.1959,31.7848,合肥市,明珠广场,细颗粒物(PM2.5),64,68,72,46,48,66,,100,99,48,31,6,7,0.8,0.7
2024-10-13T1900,1271A,117.3072,31.8764,合肥市,三里街,细颗粒物(PM2.5),70,68,74,51,45,69,,94,94,41,31,3,4,0.8,0.8
2024-10-13T1900,1272A,117.2588,31.8707,合肥市,琥珀山庄,细颗粒物(PM2.5),73,73,71,53,50,68,,101,101,44,32,8,8,1.0,0.9
2024-10-13T1900,1273A,117.1604,31.9052,合肥市,董铺水库,细颗粒物(PM2.5),64,70,77,46,46,79,,109,109,22,21,4,4,0.6,0.6
2024-10-13T1900,1274A,117.25,31.8571,合肥市,长江中路,细颗粒物(PM2.5),79,90,87,58,52,79,,104,104,34,27,8,8,1.0,0.8
2024-10-13T1900,1275A,117.266,31.9436,合肥市,庐阳区,细颗粒物(PM2.5),73,78,76,53,49,71,,108,108,38,31,4,5,0.8,0.8
2024-10-13T1900,1276A,117.336,31.8586,合肥市,瑶海区,细颗粒物(PM2.5),74,95,79,54,49,27,,92,88,85,34,4,3,1.1,0.8
2024-10-13T1900,1277A,117.3027,31.7964,合肥市,包河区,细颗粒物(PM2.5),55,56,70,39,46,20,,102,95,94,52,7,7,0.6,0.6
2024-10-13T1900,1278A,117.2776,31.7385,合肥市,滨湖新区,细颗粒物(PM2.5),62,66,69,44,42,80,,106,106,27,22,5,6,0.7,0.6
2024-10-13T1900,1279A,117.1318,31.8403,合肥市,高新区,细颗粒物(PM2.5),73,70,69,53,55,88,,116,116,29,25,6,6,1.0,0.9
2024-10-13T1900,3464A,117.3803,31.9147,合肥市,高教基地,颗粒物(PM10),52,53,78,32,50,26,,85,82,38,25,4,5,0.6,0.6
2024-10-13T1900,3614A,79.924,37.0877,和田地区,地区环保局,颗粒物(PM10),67,84,136,30,39,116,,109,109,7,11,6,7,0.4,0.5
2024-10-13T1900,3615A,79.9131,37.113,和田地区,市环保局,颗粒物(PM10),59,67,127,23,36,114,,109,109,8,26,6,7,0.4,0.7
2024-10-13T1900,2516A,108.2011,24.715,河池市,东仁乐园,细颗粒物(PM2.5),65,64,67,47,48,59,,107,102,11,14,5,11,0.8,0.7
2024-10-13T1900,2517A,108.0497,24.6947,河池市,市环保站,细颗粒物(PM2.5),69,64,58,50,47,85,,114,113,15,20,11,16,0.8,0.8
2024-10-13T1900,2518A,108.0983,24.6989,河池市,市疾控中心,细颗粒物(PM2.5),98,93,65,73,51,74,,112,110,27,25,10,11,0.9,0.7
2024-10-13T1900,1696A,114.6778,23.7569,河源市,源西,细颗粒物(PM2.5),63,46,47,45,35,81,,123,118,26,29,5,5,0.7,0.9
2024-10-13T1900,1697A,114.6944,23.7586,河源市,东埔,细颗粒物(PM2.5),88,,45,65,54,94,,130,127,24,23,4,4,0.9,0.8
2024-10-13T1900,1698A,114.6892,23.7233,河源市,老城,细颗粒物(PM2.5),77,72,49,56,30,93,,124,122,13,15,5,6,0.9,0.8
2024-10-13T1900,1718A,115.4208,35.2464,菏泽市,气象局,颗粒物(PM10),70,89,103,47,60,131,,150,150,29,26,4,5,0.5,0.6
2024-10-13T1900,1719A,115.4747,35.2375,菏泽市,市政协,细颗粒物(PM2.5),73,91,104,53,65,121,,144,144,27,25,4,5,0.5,0.6
2024-10-13T1900,3374A,115.5564,35.0891,菏泽市,定陶老年大学,颗粒物(PM10),85,119,119,61,73,109,,136,136,36,29,6,8,0.5,0.5
2024-10-13T1900,3647A,115.4702,35.2706,菏泽市,菏泽医专,细颗粒物(PM2.5),89,79,86,66,71,123,,147,147,29,25,6,8,0.6,0.6
2024-10-13T1900,2514A,111.5264,24.4172,贺州市,环保小区,细颗粒物(PM2.5),75,97,59,55,37,100,,138,138,20,24,7,8,0.8,0.6
2024-10-13T1900,2515A,111.5608,24.4078,贺州市,政协大楼,细颗粒物(PM2.5),65,69,49,47,31,103,,142,142,29,22,8,11,0.8,0.5
2024-10-13T1900,3534A,111.4744,24.4553,贺州市,西湾,,,68,60,48,41,94,,129,129,21,29,7,7,,0.6
2024-10-13T1900,2385A,114.17,35.9019,鹤壁市,市监测站,细颗粒物(PM2.5),74,89,122,54,77,101,,149,149,36,41,3,6,0.8,0.8
2024-10-13T1900,2386A,114.2956,35.7511,鹤壁市,市交警支队,颗粒物(PM10),66,81,120,43,70,66,,142,140,87,51,3,3,0.8,0.6
2024-10-13T1900,2387A,114.2878,35.7306,鹤壁市,迎宾馆,颗粒物(PM10),84,118,141,51,78,121,,148,148,46,46,3,5,0.7,0.8
2024-10-13T1900,3474A,114.2617,35.6822,鹤壁市,大新区,,,76,116,46,73,98,,135,135,,48,3,2,0.7,0.8
2024-10-13T1900,3596A,114.1572,35.9603,鹤壁市,南山宾馆,,,104,130,65,82,145,,153,153,18,18,3,3,,0.4
2024-10-13T1900,2244A,130.2537,47.3416,鹤岗市,哈啤分公司,颗粒物(PM10),52,54,34,23,20,39,,62,60,36,15,18,15,0.6,0.5
2024-10-13T1900,2245A,130.2684,47.3086,鹤岗市,斯达机电,,50,50,27,23,17,58,,71,71,20,12,14,13,0.2,0.2
2024-10-13T1900,2246A,130.3114,47.3388,鹤岗市,东山纸板厂,颗粒物(PM10),101,152,51,36,24,27,,60,54,53,28,22,17,3.5,0.9
2024-10-13T1900,2247A,130.1097,47.3382,鹤岗市,五号水库,,35,35,19,13,9,56,,79,76,18,8,9,8,0.1,0.1
2024-10-13T1900,2263A,127.4833,50.2524,黑河市,交通局,,47,47,22,14,14,37,,61,59,18,11,7,7,0.5,0.4
2024-10-13T1900,2264A,127.5144,50.2341,黑河市,环保局,,40,40,20,13,13,46,,66,65,10,10,4,4,0.3,0.4
2024-10-13T1900,2265A,127.5291,50.2472,黑河市,大黑河岛,,,,,16,12,35,,56,53,12,9,1,1,,
2024-10-13T1900,1074A,115.6838,37.7541,衡水市,电机北厂,细颗粒物(PM2.5),220,233,138,170,88,60,,123,115,71,58,8,10,0.8,0.6
2024-10-13T1900,1075A,115.6303,37.7316,衡水市,市监测站,细颗粒物(PM2.5),212,205,133,162,86,71,,116,112,63,61,9,10,0.9,0.7
2024-10-13T1900,3188A,115.6683,37.7217,衡水市,市城管局,细颗粒物(PM2.5),210,214,132,160,82,84,,124,121,60,59,10,11,0.8,0.7
2024-10-13T1900,3459A,115.5989,37.5491,衡水市,地表水厂,细颗粒物(PM2.5),193,216,138,145,80,62,,129,122,62,63,4,5,0.8,0.6
2024-10-13T1900,2456A,112.5003,26.9167,衡阳市,原169医院,细颗粒物(PM2.5),135,137,137,103,99,136,,179,179,17,19,14,15,1.0,1
2024-10-13T1900,2457A,112.6194,26.9258,衡阳市,衡阳化工总厂,细颗粒物(PM2.5),199,160,161,149,139,167,,183,183,20,17,10,11,1.2,1.1
2024-10-13T1900,2458A,112.6211,26.8956,衡阳市,珠晖区环保局,细颗粒物(PM2.5),155,134,146,118,119,167,,188,188,25,25,12,13,1.2,1.1
2024-10-13T1900,2459A,112.6197,26.8733,衡阳市,市委党校,细颗粒物(PM2.5),130,100,148,99,111,176,,192,192,21,21,13,13,1.1,1.1
2024-10-13T1900,2460A,112.6006,26.8919,衡阳市,市监测站,细颗粒物(PM2.5),127,115,145,96,125,174,,198,198,22,18,13,13,1.2,1.1
2024-10-13T1900,2461A,112.5664,26.9056,衡阳市,真空机电公司,细颗粒物(PM2.5),127,109,143,96,118,170,,199,199,20,21,11,12,1.2,1.2
2024-10-13T1900,3399A,112.6703,26.882,衡阳市,师范学院,细颗粒物(PM2.5),113,116,155,85,105,179,,190,190,22,21,14,14,1.3,1.2
2024-10-13T1900,2608A,103.3772,23.3993,红河哈尼族彝族自治州,污水处理厂,,,67,34,34,31,62,,78,73,,6,4,4,0.5,0.6
2024-10-13T1900,2609A,103.3861,23.35,红河哈尼族彝族自治州,监测站,,50,38,42,35,34,71,,77,73,5,7,11,11,0.5,0.5
2024-10-13T1900,3038A,103.3758,23.368,红河哈尼族彝族自治州,州图书馆,,36,36,39,21,27,66,,75,71,8,7,6,7,0.4,0.4
2024-10-13T1900,1090A,111.6507,40.7517,呼和浩特市,呼市一监,,35,29,46,24,30,40,,84,73,19,26,6,7,0.6,0.6
2024-10-13T1900,1091A,111.6572,40.8033,呼和浩特市,小召,,42,29,44,29,30,47,,81,67,24,32,8,8,0.7,0.7
2024-10-13T1900,1094A,111.7516,40.8369,呼和浩特市,如意水处理厂,,42,42,66,25,27,56,,81,76,26,41,2,3,0.6,0.6
2024-10-13T1900,1095A,111.7276,40.8062,呼和浩特市,二十九中,细颗粒物(PM2.5),53,38,52,37,33,50,,85,78,31,36,5,6,0.8,0.8
2024-10-13T1900,1096A,111.5512,40.7866,呼和浩特市,工大金川校区,,34,34,65,23,32,39,,80,68,42,43,3,5,0.7,0.7
2024-10-13T1900,1097A,111.717,40.7612,呼和浩特市,化肥厂生活区,细颗粒物(PM2.5),52,39,58,36,33,41,,80,70,29,34,8,9,0.5,0.5
2024-10-13T1900,3698A,111.5968,40.8178,呼和浩特市,红旗小学,,46,34,52,32,31,29,,81,62,56,50,3,5,0.7,0.6
2024-10-13T1900,3699A,111.6518,40.8389,呼和浩特市,海东办,,45,31,48,31,29,56,,86,73,30,41,6,6,0.8,0.8
2024-10-13T1900,2192A,119.7594,49.2261,呼伦贝尔市,区环保局,颗粒物(PM10),54,58,39,26,16,105,,112,112,14,18,6,8,0.4,0.3
2024-10-13T1900,3061A,119.7512,49.1577,呼伦贝尔市,国华电力东,,39,39,31,20,14,111,,121,121,8,13,5,4,0.5,0.4
2024-10-13T1900,1250A,120.0751,30.8669,湖州市,城西水厂,,27,19,32,6,19,85,,101,101,29,27,5,5,0.4,0.4
2024-10-13T1900,2873A,120.0875,30.8955,湖州市,仁皇山新区,,30,17,31,9,19,94,,100,100,22,29,7,7,0.5,0.6
2024-10-13T1900,2907A,120.1844,30.8596,湖州市,吴兴区站,,27,20,25,7,16,86,,92,92,20,24,6,6,0.4,0.4
2024-10-13T1900,3562A,120.4148,30.8538,湖州市,南浔区站,,25,20,20,10,16,77,,96,96,21,20,10,4,0.5,0.5
2024-10-13T1900,1607A,120.9092,40.7136,葫芦岛市,龙港区,,38,34,60,24,46,119,,116,116,9,17,10,10,0.5,0.7
2024-10-13T1900,1608A,120.8392,40.7514,葫芦岛市,化工街,,39,39,81,22,44,110,,114,114,20,43,15,23,0.7,0.9
2024-10-13T1900,1609A,120.8341,40.7073,葫芦岛市,新区,,42,,44,29,47,110,,116,116,17,28,8,8,0.6,0.8
2024-10-13T1900,1610A,120.8695,40.7677,葫芦岛市,东城区,细颗粒物(PM2.5),59,,63,42,59,84,,108,106,32,43,8,15,0.5,0.7
2024-10-13T1900,2482A,109.5981,27.5721,怀化市,林科所,细颗粒物(PM2.5),55,44,54,39,40,65,,84,76,8,9,4,7,1.3,1.2
2024-10-13T1900,2483A,109.9453,27.5444,怀化市,河西地税局,,,48,65,,54,57,,86,74,,11,10,10,0.6,0.5
2024-10-13T1900,2484A,109.9781,27.5342,怀化市,市四医院,细颗粒物(PM2.5),64,61,67,46,48,65,,79,72,7,7,6,8,0.7,0.7
2024-10-13T1900,2485A,109.9972,27.5578,怀化市,监测楼,细颗粒物(PM2.5),64,60,64,46,50,72,,93,83,10,9,1,5,0.7,0.7
2024-10-13T1900,2486A,110.0394,27.583,怀化市,市委党校,细颗粒物(PM2.5),64,68,67,46,48,58,,86,78,11,10,7,8,0.7,0.7
2024-10-13T1900,1210A,119.036,33.5981,淮安市,钵池山,细颗粒物(PM2.5),54,,46,38,47,13,,92,58,50,26,4,5,0.8,0.5
2024-10-13T1900,1211A,119.007,33.575,淮安市,北京南路,,40,34,57,28,42,54,,97,58,29,22,6,6,0.5,0.5
2024-10-13T1900,1212A,118.989,33.6067,淮安市,市监测站,,35,29,42,24,37,56,,107,52,36,28,6,7,0.8,0.7
2024-10-13T1900,1213A,119.135,33.5039,淮安市,楚州区监测站,,48,44,56,33,42,44,,84,74,36,28,6,6,0.6,0.6
2024-10-13T1900,1214A,119.0186,33.6297,淮安市,淮阴区监测站,,45,31,52,31,46,9,,94,40,72,34,5,7,0.8,0.5
2024-10-13T1900,3426A,118.8755,33.2894,淮安市,新华书店,,37,37,50,15,28,56,,80,73,30,21,4,4,0.4,0.5
2024-10-13T1900,2282A,116.8004,33.975,淮北市,监测站,颗粒物(PM10),60,70,68,42,45,65,,111,83,22,15,1,2,0.6,0.6
2024-10-13T1900,2283A,116.8091,33.9007,淮北市,烈山区政府,细颗粒物(PM2.5),68,82,80,49,52,64,,110,85,22,16,2,3,0.5,0.6
2024-10-13T1900,3330A,116.8873,33.9836,淮北市,杜集区检察院,细颗粒物(PM2.5),78,79,79,57,57,64,,119,85,25,16,2,4,0.3,0.4
2024-10-13T1900,4017A,116.7923,33.9535,淮北市,市博物馆,颗粒物(PM10),60,69,65,42,45,66,,117,88,24,15,1,3,0.6,0.6
2024-10-13T1900,2277A,116.8305,32.7727,淮南市,潘集区政府,细颗粒物(PM2.5),78,82,78,57,56,79,,107,107,26,18,8,9,0.8,0.7
2024-10-13T1900,2278A,117.0067,32.6524,淮南市,师范学院,细颗粒物(PM2.5),88,92,79,65,58,78,,101,100,30,18,9,8,0.7,0.6
2024-10-13T1900,2279A,116.8569,32.5951,淮南市,谢家集区政府,细颗粒物(PM2.5),78,63,69,57,55,84,,98,98,30,23,7,8,0.6,0.6
2024-10-13T1900,2280A,116.8281,32.633,淮南市,八公山区政府,细颗粒物(PM2.5),94,88,85,70,58,77,,102,101,20,15,9,10,0.5,0.4
2024-10-13T1900,2281A,116.6325,32.6201,淮南市,焦岗湖风景区管理处,颗粒物(PM10),65,80,74,30,34,47,,92,88,11,14,10,9,0.3,0.3
2024-10-13T1900,2894A,117.0566,32.6531,淮南市,经济技术开发区消防队,细颗粒物(PM2.5),73,70,71,53,42,88,,99,99,24,20,5,5,0.6,0.6
2024-10-13T1900,3329A,117.0108,32.5893,淮南市,山南新区,细颗粒物(PM2.5),82,97,84,60,56,62,,97,94,40,23,3,3,0.8,0.7
2024-10-13T1900,2446A,114.9028,30.4742,黄冈市,职工中心,细颗粒物(PM2.5),104,104,91,78,66,93,,131,125,30,25,9,10,0.8,0.8
2024-10-13T1900,2929A,114.8858,30.4519,黄冈市,红卫路,细颗粒物(PM2.5),78,79,82,57,61,97,,135,130,26,25,8,10,0.8,0.8
2024-10-13T1900,3398A,114.9136,30.4445,黄冈市,市林业局,细颗粒物(PM2.5),77,75,83,56,59,112,,141,138,22,22,9,11,0.6,0.7
2024-10-13T1900,2672A,102.0199,35.5102,黄南藏族自治州,同仁县隆务镇,,46,46,30,13,11,71,,84,84,11,5,11,10,0.4,0.4
2024-10-13T1900,2295A,118.2903,29.6963,黄山市,延安路89号,,49,49,58,15,25,75,,102,99,9,11,7,6,0.4,0.4
2024-10-13T1900,2296A,118.327,29.7178,黄山市,黄山东路89号,"颗粒物(PM10),细颗粒物(PM2.5)",58,66,46,41,25,59,,97,91,16,10,6,6,0.5,0.4
2024-10-13T1900,2297A,118.1371,30.2756,黄山市,黄山区政府5号楼,颗粒物(PM10),72,93,56,49,37,44,,98,92,21,11,7,7,0.6,0.5
2024-10-13T1900,2423A,115.0601,30.2313,黄石市,沈家营,细颗粒物(PM2.5),99,124,106,74,75,97,,131,128,34,32,16,18,1.0,0.9
2024-10-13T1900,2424A,115.0817,30.2006,黄石市,陈家湾,细颗粒物(PM2.5),83,100,101,61,76,124,,126,126,17,26,17,13,0.8,0.8
2024-10-13T1900,2426A,114.8988,30.2019,黄石市,铁山,细颗粒物(PM2.5),113,96,85,85,73,87,,140,128,30,17,12,14,0.7,1
2024-10-13T1900,2427A,115.0307,30.2092,黄石市,团城山,细颗粒物(PM2.5),100,110,99,75,71,102,,126,125,33,25,58,17,1.0,0.8
2024-10-13T1900,3149A,115.0235,30.1578,黄石市,笔架山北路,细颗粒物(PM2.5),113,105,86,85,72,108,,139,132,26,22,9,12,0.9,0.8
2024-10-13T1900,1392A,114.4183,23.0528,惠州市,河南岸金山湖子站,,44,44,48,26,27,124,,140,140,12,13,6,7,0.6,0.7
2024-10-13T1900,1393A,114.4053,23.0822,惠州市,下埔横江三路子站,,45,45,48,26,26,137,,151,150,16,12,6,6,0.7,0.7
2024-10-13T1900,1394A,114.4103,23.1142,惠州市,江北云山西路子站,,46,45,43,15,25,146,,145,145,15,10,7,7,0.6,0.6
2024-10-13T1900,1395A,114.4645,22.7833,惠州市,惠阳区承修路船湖子站,,37,37,41,16,19,112,,140,138,14,16,7,8,0.6,0.6
2024-10-13T1900,1396A,114.5317,22.7422,惠州市,大亚湾管委会子站,,39,30,36,12,18,122,,142,140,12,16,8,9,0.6,0.7
2024-10-13T1900,3314A,114.4338,22.8134,惠州市,惠阳秋长,,40,24,32,20,20,128,,168,166,13,15,6,6,0.6,0.7
2024-10-13T1900,3452A,114.6517,22.775,惠州市,大亚湾霞涌,,37,31,35,15,20,116,,135,135,8,11,5,6,0.4,0.5
2024-10-13T1900,2240A,130.9762,45.3001,鸡西市,环保局,颗粒物(PM10),54,58,51,3,18,43,,58,57,16,28,8,9,0.2,0.4
2024-10-13T1900,2243A,130.9429,45.3039,鸡西市,第一中学,颗粒物(PM10),57,64,36,18,12,44,,57,56,23,25,7,8,0.1,0.1
2024-10-13T1900,3707A,131.0207,45.3073,鸡西市,欧美日汽修厂,,44,44,66,19,29,46,,66,64,20,27,8,9,0.1,0.3
2024-10-13T1900,3709A,130.9967,45.3106,鸡西市,市政设施管理处,颗粒物(PM10),57,63,68,14,24,40,,56,55,24,33,10,8,0.2,0.3
2024-10-13T1900,2367A,114.9754,27.0803,吉安市,红声器材厂,颗粒物(PM10),52,54,78,34,49,139,,169,169,26,24,13,16,0.6,0.6
2024-10-13T1900,2368A,114.9658,27.0999,吉安市,市森林工业局,,48,48,71,28,47,120,,159,157,33,24,10,15,0.8,0.8
2024-10-13T1900,2369A,114.99,27.1312,吉安市,市环境监测站,颗粒物(PM10),53,56,65,33,42,127,,161,158,29,22,16,20,0.8,0.7
2024-10-13T1900,2370A,115.0093,27.0968,吉安市,青原区法院,细颗粒物(PM2.5),65,77,75,47,47,99,,163,157,40,26,14,21,0.5,0.7
2024-10-13T1900,1772A,126.54,43.8622,吉林市,哈达湾,,45,45,38,28,20,85,,116,116,35,27,8,8,0.7,0.6
2024-10-13T1900,1773A,126.5844,43.8358,吉林市,东局子,,32,32,43,18,22,81,,111,109,38,34,5,6,0.6,0.7
2024-10-13T1900,1774A,126.5052,43.8245,吉林市,电力学院,,,,55,,31,10,,109,101,99,34,10,6,1.8,0.8
2024-10-13T1900,1775A,126.6133,43.8972,吉林市,江北,,,138,49,,25,38,,108,100,54,29,10,9,1.5,0.8
2024-10-13T1900,1776A,126.555,43.8306,吉林市,江南公园,颗粒物(PM10),53,55,50,31,28,71,,109,108,44,36,7,8,0.7,0.7
2024-10-13T1900,1778A,126.7061,43.7133,吉林市,丰满,,26,18,16,14,12,83,,107,106,7,7,6,6,0.3,0.3
2024-10-13T1900,2868A,126.4739,43.953,吉林市,九站,颗粒物(PM10),63,76,63,37,32,76,,118,115,46,39,8,9,0.8,0.8
2024-10-13T1900,1299A,116.9862,36.6114,济南市,科干所,颗粒物(PM10),52,53,87,32,49,144,,150,150,16,18,6,8,0.7,0.8
2024-10-13T1900,1300A,116.9376,36.665,济南市,农科所,颗粒物(PM10),68,85,102,39,46,120,,143,142,36,47,5,6,0.8,0.9
2024-10-13T1900,1301A,117.1265,36.6734,济南市,开发区,颗粒物(PM10),51,51,80,32,48,137,,153,152,24,35,5,6,0.7,0.7
2024-10-13T1900,1303A,117.0624,36.6868,济南市,省种子仓库,颗粒物(PM10),56,61,90,31,49,130,,149,147,23,37,3,4,0.5,0.6
2024-10-13T1900,1304A,116.9489,36.6447,济南市,机床二厂,颗粒物(PM10),89,127,101,49,48,105,,152,148,59,48,4,6,0.9,0.9
2024-10-13T1900,1305A,117.0495,36.663,济南市,市监测站,细颗粒物(PM2.5),59,66,83,42,52,122,,154,151,37,34,5,6,0.7,0.8
2024-10-13T1900,1306A,116.7675,36.5484,济南市,长清党校,臭氧1小时,54,51,90,32,50,163,,171,171,21,26,6,8,0.6,0.7
2024-10-13T1900,1616A,117.6795,36.229,济南市,技术学院,颗粒物(PM10),57,63,92,39,59,130,,141,139,21,28,8,9,0.7,0.9
2024-10-13T1900,1961A,117.532,36.6868,济南市,东山小学,颗粒物(PM10),59,68,87,27,47,79,,150,142,43,29,4,5,0.7,0.7
2024-10-13T1900,3059A,117.7161,36.2049,济南市,泰兴公司,颗粒物(PM10),62,73,90,39,54,119,,141,138,34,44,9,9,0.8,0.6
2024-10-13T1900,3064A,117.6867,36.2171,济南市,莱芜战役纪念馆,颗粒物(PM10),59,68,92,34,53,126,,140,138,25,32,6,7,0.6,0.7
2024-10-13T1900,3494A,117.1673,36.9782,济南市,济阳区政府,颗粒物(PM10),77,103,121,46,57,128,,154,154,35,54,3,13,0.6,0.6
2024-10-13T1900,3495A,117.1171,36.63,济南市,锦屏中学,颗粒物(PM10),51,51,70,32,44,118,,156,150,33,24,5,6,0.7,0.7
2024-10-13T1900,3682A,116.9814,36.6819,济南市,济南四建,颗粒物(PM10),75,100,84,51,49,105,,148,145,56,44,3,4,0.9,0.8
2024-10-13T1900,1653A,116.6251,35.4302,济宁市,火炬城,颗粒物(PM10),57,63,79,36,49,105,,146,142,24,22,10,11,0.7,0.9
2024-10-13T1900,1655A,116.5491,35.4042,济宁市,电化厂,颗粒物(PM10),60,70,99,29,47,96,,138,134,28,23,7,10,1.0,1.1
2024-10-13T1900,3500A,116.5814,35.3707,济宁市,北湖一中,颗粒物(PM10),51,52,73,31,57,108,,147,144,18,20,7,9,0.5,0.6
2024-10-13T1900,3501A,116.8249,35.5593,济宁市,服务中心,颗粒物(PM10),56,62,81,36,53,104,,138,135,21,24,7,8,0.8,0.8
2024-10-13T1900,3678A,116.5907,35.4054,济宁市,市第七中学,颗粒物(PM10),62,74,79,27,53,106,,148,145,20,19,8,9,0.7,0.8
2024-10-13T1900,2255A,130.2751,46.8028,佳木斯市,佳纺,,44,44,37,15,14,54,,71,71,27,26,5,5,0.5,0.5
2024-10-13T1900,2256A,130.3995,46.8307,佳木斯市,发电厂,,50,50,29,17,13,54,,69,69,28,24,6,6,0.4,0.4
2024-10-13T1900,2257A,130.3258,46.7975,佳木斯市,环保局,,28,28,35,7,15,67,,68,68,15,29,8,9,0.4,0.4
2024-10-13T1900,2258A,130.3648,46.8032,佳木斯市,十一中,,38,38,30,17,16,50,,67,65,40,35,7,8,0.6,0.5
2024-10-13T1900,2259A,130.3794,46.7588,佳木斯市,四丰,,,28,16,13,9,74,,81,81,,,1,1,0.1,0
2024-10-13T1900,1252A,120.7436,30.778,嘉兴市,清河小学,,30,21,21,9,10,94,,109,109,19,24,5,5,0.5,0.5
2024-10-13T1900,1253A,120.726,30.7478,嘉兴市,嘉兴学院,,26,24,24,8,14,83,,103,103,22,23,6,4,0.5,0.5
2024-10-13T1900,2872A,120.7846,30.7525,嘉兴市,南湖区残联,,26,25,24,10,13,83,,96,96,16,23,10,7,0.5,0.5
2024-10-13T1900,3407A,120.6916,30.7739,嘉兴市,秀洲住建,,26,20,17,10,10,83,,110,110,23,22,8,7,0.5,0.5
2024-10-13T1900,1945A,98.2908,39.7711,嘉峪关市,气象局,颗粒物(PM10),69,88,71,34,22,73,,95,95,30,29,11,28,0.6,0.6
2024-10-13T1900,2884A,98.2672,39.7978,嘉峪关市,酒钢宾馆,颗粒物(PM10),65,80,76,22,23,91,,91,91,23,30,18,53,0,0.9
2024-10-13T1900,3248A,98.2643,39.7724,嘉峪关市,雄关区,颗粒物(PM10),70,90,63,26,22,80,,92,92,33,32,16,26,0,0.7
2024-10-13T1900,1383A,113.1064,22.6058,江门市,北街,臭氧1小时,53,47,42,30,30,162,,207,207,20,19,6,6,0.6,0.6
2024-10-13T1900,1384A,113.0731,22.5835,江门市,西区,臭氧1小时,70,69,59,29,28,176,,208,208,20,27,7,6,0.5,0.5
2024-10-13T1900,1385A,113.0219,22.5311,江门市,圭峰西,臭氧1小时,72,58,49,23,29,177,,202,202,20,20,4,4,0.5,0.4
2024-10-13T1900,1386A,113.0828,22.5947,江门市,东湖,臭氧1小时,68,56,56,28,27,174,,197,197,17,20,6,6,0.5,0.5
2024-10-13T1900,3311A,113.1075,22.5647,江门市,江海富民,臭氧1小时,69,72,67,27,33,175,,209,209,18,20,8,7,0.5,0.6
2024-10-13T1900,3449A,113.05,22.4667,江门市,新会银湖,臭氧1小时,58,49,48,29,33,166,,201,201,14,23,7,7,0.6,0.6
2024-10-13T1900,1828A,113.227,35.2125,焦作市,市环保局,细颗粒物(PM2.5),94,118,145,70,97,140,,158,158,29,33,3,7,0.5,0.6
2024-10-13T1900,1830A,113.1992,35.2590,焦作市,影视城,细颗粒物(PM2.5),119,90,111,90,78,177,,170,170,13,15,8,9,0.6,0.6
2024-10-13T1900,3169A,113.2725,35.2067,焦作市,太极体育中心,颗粒物(PM10),83,115,158,60,92,131,,148,148,36,43,3,9,0.6,0.8
2024-10-13T1900,3335A,113.3137,35.2641,焦作市,马村街道办,细颗粒物(PM2.5),102,115,137,76,96,121,,152,152,34,35,2,6,0.2,0.3
2024-10-13T1900,3336A,113.2465,35.2373,焦作市,焦作技师学院,细颗粒物(PM2.5),94,103,142,70,87,120,,149,149,32,28,4,6,0.9,0.9
2024-10-13T1900,3477A,113.1656,35.2539,焦作市,中站许衡医院,细颗粒物(PM2.5),100,96,122,75,77,155,,160,160,16,22,5,7,0.2,0.3
2024-10-13T1900,3981A,113.2449,35.1803,焦作市,原李万街道办,颗粒物(PM10),84,117,167,55,91,145,,152,152,32,51,7,13,0.6,0.8
2024-10-13T1900,1708A,116.3701,23.5345,揭阳市,新兴,,38,37,49,26,30,84,,126,123,14,21,5,7,0.5,0.6
2024-10-13T1900,1709A,116.3264,23.5443,揭阳市,西马,,38,38,54,17,28,89,,137,133,6,17,6,8,0.6,0.7
2024-10-13T1900,1710A,116.3611,23.5626,揭阳市,东兴,,47,47,54,18,28,87,,129,126,11,21,6,8,0.8,0.8
2024-10-13T1900,1711A,116.4151,23.5294,揭阳市,渔湖,,36,36,52,14,27,100,,127,125,10,22,7,10,0.6,0.7
2024-10-13T1900,3320A,116.403,23.5699,揭阳市,曲溪,,45,45,47,22,27,88,,128,125,15,23,8,11,0.7,0.6
2024-10-13T1900,1944A,102.1692,38.5167,金昌市,天庆家园,,46,46,61,32,36,58,,103,96,52,35,12,49,0.7,0.7
2024-10-13T1900,3170A,102.1864,38.5253,金昌市,市委党校,,38,38,68,13,30,92,,101,101,19,32,7,37,0.5,0.8
2024-10-13T1900,4022A,102.1647,38.5371,金昌市,金川区人防中心,颗粒物(PM10),57,63,68,23,28,66,,113,104,49,25,8,44,0.6,0.7
2024-10-13T1900,1262A,119.647,29.077,金华市,十五中,,50,50,59,24,34,74,,102,102,26,37,4,4,0.4,0.5
2024-10-13T1900,1263A,119.686,29.1029,金华市,监测站,颗粒物(PM10),53,55,57,30,33,74,,106,106,37,40,3,3,0.5,0.5
2024-10-13T1900,3659A,119.656,29.1131,金华市,气象局,颗粒物(PM10),53,55,49,25,25,80,,108,108,31,37,4,4,0.3,0.3
2024-10-13T1900,1767A,121.1115,41.0879,锦州市,南山,细颗粒物(PM2.5),74,,61,54,73,78,,97,97,29,48,7,8,0.5,0.8
2024-10-13T1900,1768A,121.0533,40.8434,锦州市,开发区,细颗粒物(PM2.5),73,61,96,53,80,36,,84,75,90,73,7,16,0.7,0.9
2024-10-13T1900,1769A,121.1836,41.1119,锦州市,百股街道,,49,,64,34,41,89,,105,105,21,39,7,12,0.9,1.2
2024-10-13T1900,1770A,121.1178,41.1222,锦州市,天安街道,细颗粒物(PM2.5),82,,80,60,83,88,,100,100,32,56,8,10,0.8,1.1
2024-10-13T1900,1771A,121.1303,41.1386,锦州市,北湖公园,细颗粒物(PM2.5),78,,73,57,80,100,,109,109,24,41,9,9,0.7,1
2024-10-13T1900,2160A,112.85,35.5051,晋城市,自来水公司,细颗粒物(PM2.5),79,93,126,58,87,169,,167,167,30,40,10,11,0.9,1.1
2024-10-13T1900,2161A,112.8318,35.4936,晋城市,白云商贸,颗粒物(PM10),93,135,142,63,90,160,,164,164,36,37,7,8,0.9,1.1
2024-10-13T1900,2162A,112.8508,35.4887,晋城市,市环保局,细颗粒物(PM2.5),92,106,141,68,86,158,,165,165,34,42,8,9,0.9,1.1
2024-10-13T1900,2163A,112.8676,35.4897,晋城市,技术学院,细颗粒物(PM2.5),85,114,132,63,84,168,,167,167,34,44,8,9,1.0,1.2
2024-10-13T1900,3620A,112.8271,35.4828,晋城市,泽州一中,细颗粒物(PM2.5),92,89,127,68,95,159,,162,162,36,33,12,12,1.0,1.2
2024-10-13T1900,2171A,112.7532,37.6945,晋中市,锦纶小区,细颗粒物(PM2.5),113,122,105,85,69,92,,74,74,28,28,8,8,0.9,0.8
2024-10-13T1900,2173A,112.7249,37.7067,晋中市,南都小区,细颗粒物(PM2.5),105,125,98,79,63,102,,83,83,28,25,6,8,1.0,0.8
2024-10-13T1900,2174A,112.6991,37.6982,晋中市,榆次区政府,,,,88,74,52,97,,78,78,26,26,7,8,0.8,0.7
2024-10-13T1900,2865A,112.7195,37.6828,晋中市,榆次三中,细颗粒物(PM2.5),100,124,105,75,63,97,,77,77,27,27,9,10,1.0,0.9
2024-10-13T1900,2439A,112.2014,31.0481,荆门市,竹园小学,细颗粒物(PM2.5),77,69,70,56,53,108,,98,98,25,24,15,10,0.7,0.7
2024-10-13T1900,2440A,112.1969,30.9891,荆门市,掇刀,细颗粒物(PM2.5),79,64,70,58,55,113,,92,92,26,23,7,8,0.6,0.6
2024-10-13T1900,2441A,112.2213,31.0386,荆门市,石化一小,细颗粒物(PM2.5),92,85,75,68,62,100,,94,94,31,24,23,21,0.5,0.5
2024-10-13T1900,3012A,112.1849,31.0362,荆门市,西山林语,细颗粒物(PM2.5),77,64,64,56,50,81,,88,88,21,17,6,8,0.5,0.5
2024-10-13T1900,3547A,112.1632,31.0138,荆门市,龙泉中学南校,细颗粒物(PM2.5),55,47,53,39,37,99,,92,92,26,30,5,6,0.7,0.7
2024-10-13T1900,1844A,112.2494,30.3197,荆州市,市图书馆,细颗粒物(PM2.5),55,47,54,39,42,83,,80,80,30,24,9,10,1.0,0.9
2024-10-13T1900,1845A,112.2008,30.3544,荆州市,市委党校,细颗粒物(PM2.5),67,55,55,48,43,97,,98,98,22,22,5,6,0.7,0.6
2024-10-13T1900,3194A,112.2747,30.3122,荆州市,管委会,细颗粒物(PM2.5),59,54,58,42,49,90,,88,88,21,23,8,9,0.9,0.8
2024-10-13T1900,3548A,112.1655,30.3364,荆州市,学苑路,细颗粒物(PM2.5),72,,60,52,47,95,,97,97,26,24,6,20,0.9,0.8
2024-10-13T1900,2343A,117.2117,29.2933,景德镇市,老干部活动中心,细颗粒物(PM2.5),55,43,47,39,36,77,,99,99,13,13,10,9,0.2,0.2
2024-10-13T1900,2344A,117.1894,29.2789,景德镇市,兽医站,颗粒物(PM10),57,64,57,36,33,84,,112,112,16,15,7,7,0.6,0.5
2024-10-13T1900,2345A,117.1547,29.2617,景德镇市,台达陶瓷,,50,50,49,21,33,71,,104,104,16,13,24,15,0.5,0.6
2024-10-13T1900,2346A,117.2461,29.2956,景德镇市,陶研所,颗粒物(PM10),55,59,52,32,34,60,,105,103,22,19,7,6,0.5,0.5
2024-10-13T1900,1803A,115.9872,29.6815,九江市,十里,细颗粒物(PM2.5),80,89,96,59,62,122,,156,156,20,23,11,15,0.9,0.9
2024-10-13T1900,1804A,115.9584,29.7046,九江市,茅山头,细颗粒物(PM2.5),94,105,88,70,66,97,,141,140,32,25,10,12,1.0,0.9
2024-10-13T1900,1805A,115.9877,29.7295,九江市,西园,细颗粒物(PM2.5),93,103,88,69,64,94,,145,143,44,24,15,14,0.8,0.7
2024-10-13T1900,1806A,116.0172,29.6547,九江市,五七二七厂,细颗粒物(PM2.5),72,71,84,52,66,105,,141,140,23,28,8,14,0.7,0.9
2024-10-13T1900,1808A,115.9114,29.6038,九江市,综合工业园,细颗粒物(PM2.5),104,89,90,78,71,100,,152,150,50,49,21,23,0.8,0.9
2024-10-13T1900,1809A,116.0721,29.7535,九江市,石化总厂,细颗粒物(PM2.5),94,98,97,70,69,101,,139,137,36,29,12,12,1.2,0.9
2024-10-13T1900,1810A,115.9773,29.5698,九江市,庐山气象台,细颗粒物(PM2.5),69,78,60,50,39,131,,165,157,14,7,6,7,0.8,0.7
2024-10-13T1900,3190A,116.0254,29.6994,九江市,外国语学校,细颗粒物(PM2.5),79,82,97,58,70,100,,142,140,35,27,6,10,0.4,0.5
2024-10-13T1900,2658A,98.5061,39.7443,酒泉市,仓门街子站,颗粒物(PM10),71,92,71,28,23,92,,109,109,9,15,3,9,0.3,0.4
2024-10-13T1900,2659A,98.4989,39.7256,酒泉市,油田生活基地,颗粒物(PM10),78,105,82,31,26,87,,103,103,11,15,3,8,0.4,0.4
2024-10-13T1900,2698A,76.0072,39.4467,喀什地区,巡警大队,,,31,99,6,21,104,,78,78,,40,3,5,0.3,0.7
2024-10-13T1900,2699A,75.9755,39.4694,喀什地区,吾办,,38,38,102,10,38,95,,79,79,19,43,2,3,0.4,0.9
2024-10-13T1900,4027A,75.9483,39.4689,喀什地区,老干局,,33,32,135,3,24,103,,86,86,10,46,4,5,0.4,0.8
2024-10-13T1900,1824A,114.3389,34.7781,开封市,肿瘤医院,细颗粒物(PM2.5),100,96,117,75,92,140,,158,158,28,31,3,5,0.6,0.6
2024-10-13T1900,1826A,114.2885,34.7965,开封市,世纪星幼儿园,颗粒物(PM10),74,98,104,42,57,146,,166,166,25,24,1,3,0.6,0.6
2024-10-13T1900,3147A,114.3438,34.8106,开封市,龙亭公园,细颗粒物(PM2.5),93,90,102,69,95,158,,165,165,25,25,2,4,0.5,0.6
2024-10-13T1900,3210A,114.3644,34.7964,开封市,汴京公园,颗粒物(PM10),97,144,115,70,84,120,,144,144,22,24,2,4,0.6,0.6
2024-10-13T1900,3473A,114.2485,34.8306,开封市,技师学院,颗粒物(PM10),66,81,101,43,54,164,,171,171,15,18,2,3,0.6,0.7
2024-10-13T1900,3592A,114.4644,34.7556,开封市,祥符区生态环境局,颗粒物(PM10),80,110,129,56,74,41,,149,140,123,45,2,3,0.6,0.6
2024-10-13T1900,1951A,84.895,45.6094,克拉玛依市,长征新村,,23,20,12,3,6,72,,75,73,8,5,6,6,0.2,0.2
2024-10-13T1900,1952A,84.8988,45.5893,克拉玛依市,南林小区,,24,,12,15,11,76,,80,75,8,7,4,4,0.2,0.1
2024-10-13T1900,1954A,84.905,44.3396,克拉玛依市,独山子区,,38,38,20,9,7,88,,77,77,12,16,9,9,0.3,0.4
2024-10-13T1900,1955A,85.6979,46.098,克拉玛依市,乌尔禾区商贸楼,,21,7,13,7,6,67,,77,73,5,2,2,2,0.1,0.1
2024-10-13T1900,3612A,85.1045,45.6899,克拉玛依市,白碱滩区新站,,30,30,23,7,6,74,,82,75,11,7,8,8,0.3,0.3
2024-10-13T1900,2697A,76.1454,39.7142,克孜勒苏柯尔克孜自治州,市人民政府,,43,43,51,14,17,116,,108,108,7,9,3,8,0.3,0.3
2024-10-13T1900,3665A,76.1658,39.7157,克孜勒苏柯尔克孜自治州,克州文化中心,,38,38,41,8,18,118,,109,109,7,9,6,12,0.3,0.3
2024-10-13T1900,1450A,102.8204,24.8886,昆明市,呈贡新区,,36,36,25,14,13,68,,81,81,10,11,5,6,0.6,0.6
2024-10-13T1900,1452A,102.7252,25.0902,昆明市,龙泉镇,,27,27,23,8,12,68,,75,75,11,19,6,7,0.6,0.7
2024-10-13T1900,1453A,102.7266,25.0375,昆明市,东风东路,,24,24,24,13,14,65,,78,78,14,14,6,7,0.4,0.5
2024-10-13T1900,1454A,102.6742,25.0669,昆明市,金鼎山,,22,22,21,10,11,62,,75,75,19,14,2,2,0.5,0.5
2024-10-13T1900,1455A,102.6644,25.0401,昆明市,碧鸡广场,,22,22,24,6,13,63,,76,76,20,17,6,7,0.3,0.3
2024-10-13T1900,3179A,102.7494,25.0119,昆明市,官渡区博物馆,,42,42,24,13,13,68,,85,85,14,11,7,7,0.5,0.6
2024-10-13T1900,3375A,102.8017,24.8336,昆明市,青年创业园,,25,18,19,14,13,77,,83,83,4,13,4,6,0.5,0.6
2024-10-13T1900,3550A,102.7997,24.9786,昆明市,昆明学院,,24,15,20,8,14,76,,87,87,11,9,6,6,0.5,0.6
2024-10-13T1900,3551A,102.5967,24.6736,昆明市,晋宁区生态环境分局,,25,,22,17,15,76,,84,84,8,10,1,1,0.4,0.6
2024-10-13T1900,3552A,102.6678,24.9856,昆明市,云天化总部,,24,14,19,8,13,76,,87,87,7,15,4,6,0.4,0.5
2024-10-13T1900,1456A,91.1319,29.6514,拉萨市,八廓街,,40,11,13,6,7,126,,125,125,9,9,7,12,0.1,0.2
2024-10-13T1900,1457A,91.1221,29.6747,拉萨市,市环保局,,33,25,16,7,8,104,,116,116,23,13,6,10,0.3,0.2
2024-10-13T1900,1458A,91.0874,29.6475,拉萨市,区监测站,,35,17,12,6,7,112,,115,115,18,13,6,11,0.3,0.2
2024-10-13T1900,1459A,91.1774,29.6541,拉萨市,西藏大学,,39,11,11,7,6,124,,122,122,6,6,7,12,0.3,0.2
2024-10-13T1900,1460A,90.9798,29.6588,拉萨市,区辐射站,,32,26,16,7,7,101,,114,114,23,15,8,10,0.2,0.2
2024-10-13T1900,1461A,91.0834,29.6292,拉萨市,拉萨火车站,,33,17,11,10,7,105,,111,111,15,10,5,9,0.1,0.1
2024-10-13T1900,2520A,109.2203,23.7256,来宾市,来宾技工学校,细颗粒物(PM2.5),69,78,82,50,51,124,,140,140,21,25,8,14,0.9,0.9
2024-10-13T1900,3535A,109.1781,23.7297,来宾市,兴宾区政府,颗粒物(PM10),58,66,68,39,45,127,,142,142,17,14,9,11,0.7,0.7
2024-10-13T1900,4002A,109.2416,23.7461,来宾市,中南小学,细颗粒物(PM2.5),68,78,80,49,50,133,,148,148,17,29,6,9,0.9,0.8
2024-10-13T1900,1476A,103.631,36.1031,兰州市,兰炼宾馆,细颗粒物(PM2.5),83,83,60,61,42,73,,175,163,80,53,10,15,0.9,0.8
2024-10-13T1900,1478A,103.8412,36.0726,兰州市,生物制品所,颗粒物(PM10),64,77,51,39,35,37,,76,76,86,49,12,12,1.1,0.7
2024-10-13T1900,1479A,103.831,36.0464,兰州市,铁路设计院,细颗粒物(PM2.5),92,104,61,68,39,15,,62,62,122,63,12,10,1.4,0.9
2024-10-13T1900,3186A,103.7158,36.1058,兰州市,教育港,颗粒物(PM10),70,89,62,48,40,51,,144,144,100,47,12,12,1.0,0.8
2024-10-13T1900,3241A,103.7439,36.0842,兰州市,百合公园,颗粒物(PM10),68,85,52,36,31,11,,112,108,109,43,13,10,1.2,0.8
2024-10-13T1900,3242A,103.9611,35.998,兰州市,和平,颗粒物(PM10),65,80,50,46,29,76,,99,99,50,31,16,16,0.9,0.7
2024-10-13T1900,3245A,103.6633,36.533,兰州新区,新区管委会,颗粒物(PM10),58,66,43,33,26,101,,108,108,28,20,17,10,0.5,0.5
2024-10-13T1900,3246A,103.6975,36.4789,兰州新区,舟曲中学,,40,40,38,23,21,115,,114,114,23,23,33,11,0.6,0.5
2024-10-13T1900,1067A,116.6708,39.5111,廊坊市,药材公司,细颗粒物(PM2.5),110,142,153,83,92,8,,73,50,49,30,2,3,1.4,1.1
2024-10-13T1900,1068A,116.7214,39.5589,廊坊市,开发区,细颗粒物(PM2.5),107,153,163,80,91,16,,72,54,45,26,1,2,1.2,1
2024-10-13T1900,1070A,116.7244,39.5269,廊坊市,北华航天学院,细颗粒物(PM2.5),150,166,150,115,102,24,,69,56,50,26,2,3,1.3,1
2024-10-13T1900,2919A,116.7022,39.5453,廊坊市,河北工业大学,细颗粒物(PM2.5),133,136,133,101,94,18,,71,58,62,30,3,3,1.3,1
2024-10-13T1900,2535A,103.7723,29.5462,乐山市,花湖湾,,29,21,26,20,16,67,,74,74,9,12,2,3,0.8,0.8
2024-10-13T1900,2536A,103.7627,29.5844,乐山市,牛耳桥,,38,34,27,26,21,57,,66,66,19,20,4,4,0.6,0.6
2024-10-13T1900,2537A,103.7508,29.6006,乐山市,市第三水厂,,34,34,28,22,22,60,,77,77,20,17,4,3,0.8,0.7
2024-10-13T1900,2538A,103.7571,29.5664,乐山市,市监测站,,35,28,24,24,21,59,,67,67,15,13,4,4,0.7,0.7
2024-10-13T1900,3361A,103.7311,29.5628,乐山市,理工大学,,38,30,25,26,22,53,,72,72,20,14,3,3,0.7,0.6
2024-10-13T1900,2599A,100.2497,26.8802,丽江市,丽江古城,,24,24,16,14,9,64,,75,75,15,9,9,9,0.5,0.4
2024-10-13T1900,2600A,100.2203,26.8906,丽江市,市中心,,22,,11,11,6,68,,80,80,13,8,6,6,0.5,0.5
2024-10-13T1900,1267A,119.914,28.4514,丽水市,监测站大楼,,,45,32,,22,48,,79,78,36,24,3,2,0.6,0.5
2024-10-13T1900,1268A,119.93,28.4586,丽水市,莲都小学,,47,47,29,26,17,62,,81,81,25,22,4,4,0.6,0.5
2024-10-13T1900,1269A,119.879,28.4231,丽水市,余庄前,细颗粒物(PM2.5),74,93,31,54,20,27,,69,67,17,19,3,4,0.5,0.4
2024-10-13T1900,1173A,119.176,34.5885,连云港市,市环境监测站,,23,17,47,14,33,72,,138,97,29,16,7,8,0.2,0.3
2024-10-13T1900,3000A,119.3581,34.6972,连云港市,德源药业,,32,9,54,9,29,101,,110,100,19,28,4,5,0.2,0.3
2024-10-13T1900,3007A,119.178,34.844,连云港市,新城一中,,35,29,65,3,20,112,,115,111,12,33,4,5,0.4,0.5
2024-10-13T1900,3008A,119.3608,34.7519,连云港市,胡沟管理处,,38,9,38,9,23,121,,128,107,6,9,5,5,0.3,0.3
2024-10-13T1900,3009A,119.1478,34.5911,连云港市,矿山设计院,,26,14,50,12,36,83,,126,96,20,14,6,7,0.4,0.5
2024-10-13T1900,3434A,119.2413,34.6539,连云港市,工贸学校,,35,10,35,7,21,110,,141,106,17,14,7,8,0.5,0.7
2024-10-13T1900,3664A,119.4172,34.7341,连云港市,连云街道,,36,10,27,7,18,115,,141,116,10,10,4,5,0.4,0.4
2024-10-13T1900,2571A,102.3431,27.8099,凉山彝族自治州,青龙寺,,17,17,12,10,5,46,,78,78,3,2,9,8,0.9,0.6
2024-10-13T1900,2572A,102.2721,27.8415,凉山彝族自治州,邛海宾馆,,36,36,22,16,10,53,,76,76,15,10,14,11,0.8,0.7
2024-10-13T1900,2573A,102.2625,27.898,凉山彝族自治州,西昌市政府,,22,20,22,15,11,59,,81,81,21,12,13,9,1.0,0.7
2024-10-13T1900,2574A,102.2685,27.8851,凉山彝族自治州,凉山州政府,,49,47,20,34,12,65,,86,86,22,14,16,8,0.9,0.7
2024-10-13T1900,2575A,102.237,27.8914,凉山彝族自治州,长安,,34,34,13,17,8,53,,77,77,28,16,14,13,1.0,0.8
2024-10-13T1900,2212A,123.2,41.1953,辽阳市,宏伟区,,48,48,51,20,28,124,,123,123,10,16,9,8,0.6,0.7
2024-10-13T1900,2213A,123.1683,41.2495,辽阳市,新华园,颗粒物(PM10),54,58,74,28,38,107,,109,106,20,36,12,12,0.6,1
2024-10-13T1900,2214A,123.2354,41.2639,辽阳市,滨河路,细颗粒物(PM2.5),62,48,62,44,31,97,,117,110,26,26,12,12,0.6,0.8
2024-10-13T1900,2215A,123.149,41.2991,辽阳市,铁西工业园,,48,48,87,30,37,108,,106,106,12,26,12,13,0.8,1.2
2024-10-13T1900,2227A,125.1358,42.8845,辽源市,环保局,颗粒物(PM10),51,52,64,33,39,44,,132,115,64,32,8,8,1.0,0.9
2024-10-13T1900,3239A,125.0764,42.9078,辽源市,银鹰制药,细颗粒物(PM2.5),64,70,65,46,40,75,,121,111,47,37,17,14,1.0,0.9
2024-10-13T1900,1625A,115.9848,36.4372,聊城市,区政府,颗粒物(PM10),73,95,112,45,56,106,,152,150,47,28,9,11,0.7,0.6
2024-10-13T1900,2878A,116.0072,36.4343,聊城市,聊大东校,颗粒物(PM10),69,88,117,47,62,126,,158,157,36,31,8,10,0.6,0.6
2024-10-13T1900,3200A,115.9819,36.4978,聊城市,监控中心,颗粒物(PM10),77,103,111,44,63,122,,150,150,43,31,8,10,0.7,0.8
2024-10-13T1900,3513A,116.0445,36.4361,聊城市,九州社区,颗粒物(PM10),85,119,104,62,56,73,,153,146,64,27,4,7,0.7,0.8
2024-10-13T1900,4018A,116.0567,36.4608,聊城市,星美广场,细颗粒物(PM2.5),80,103,105,59,55,89,,156,150,56,27,11,10,0.8,0.8
2024-10-13T1900,2632A,94.3681,29.6376,林芝市,林芝监测站,,28,,3,7,4,89,,85,85,3,3,6,6,0.2,0.2
2024-10-13T1900,2633A,94.3616,29.6616,林芝市,林芝人民医院,,32,11,6,7,4,101,,89,89,4,6,6,5,0.1,0.1
2024-10-13T1900,2603A,100.0781,23.8982,临沧市,市环保局,,30,30,24,17,15,52,,66,66,9,9,16,14,0.5,0.5
2024-10-13T1900,2604A,100.0894,23.8822,临沧市,市气象局,,35,35,27,21,18,52,,66,66,10,10,14,13,0.6,0.6
2024-10-13T1900,1733A,111.5531,36.0783,临汾市,临钢医院,颗粒物(PM10),107,164,85,68,51,109,,125,125,30,30,4,4,0.8,0.7
2024-10-13T1900,1734A,111.5028,36.0714,临汾市,技工学校,细颗粒物(PM2.5),84,115,77,62,58,133,,141,141,38,28,6,5,1.0,0.8
2024-10-13T1900,1736A,111.5018,36.0855,临汾市,市委,颗粒物(PM10),86,121,82,63,56,151,,152,152,24,20,7,6,1.0,0.8
2024-10-13T1900,3018A,111.505,36.1014,临汾市,唐尧大酒店,细颗粒物(PM2.5),97,120,77,72,56,123,,142,142,38,26,6,5,0.8,0.7
2024-10-13T1900,3668A,111.5036,36.0414,临汾市,城南,细颗粒物(PM2.5),105,124,77,79,54,132,,152,152,34,25,6,6,1.0,0.8
2024-10-13T1900,2667A,103.2069,35.5993,临夏回族自治州,环保局,,33,33,44,12,13,51,,88,88,34,24,4,4,0.5,0.6
2024-10-13T1900,2668A,103.2417,35.6057,临夏回族自治州,建设大厦,颗粒物(PM10),54,58,44,16,23,44,,86,86,57,24,3,3,0.5,0.5
2024-10-13T1900,1618A,118.3429,35.0532,临沂市,沂河小区,,36,36,84,17,43,91,,118,112,14,16,6,9,0.3,0.5
2024-10-13T1900,1619A,118.295,35.0583,临沂市,鲁南制药厂,,31,31,79,17,36,99,,126,120,14,15,5,9,0.5,0.6
2024-10-13T1900,1620A,118.2794,34.9976,临沂市,新光毛纺厂,,30,24,78,21,43,92,,119,113,22,24,4,10,0.6,0.7
2024-10-13T1900,1621A,118.3956,35.0888,临沂市,河东保险公司,,36,34,78,25,54,83,,118,108,25,26,3,4,0.5,0.6
2024-10-13T1900,3370A,118.3564,35.0215,临沂市,十里堡居委,,45,34,74,31,51,95,,120,115,22,21,4,8,0.7,0.8
2024-10-13T1900,3496A,118.3604,35.1084,临沂市,南坊新区,,41,41,81,24,51,91,,123,117,21,21,7,8,0.6,0.7
2024-10-13T1900,3860A,118.3920,35.0300,临沂市,皇山花园小区,,48,34,80,33,55,90,,120,112,24,26,7,9,0.8,0.8
2024-10-13T1900,1870A,109.4856,24.3895,柳州市,柳东小学,颗粒物(PM10),55,59,57,37,38,143,,155,155,12,19,8,10,0.8,0.8
2024-10-13T1900,1871A,109.4157,24.3277,柳州市,环保监测站,颗粒物(PM10),53,56,70,36,43,144,,155,155,11,22,9,10,0.9,1
2024-10-13T1900,1872A,109.389,24.341,柳州市,河西水厂,颗粒物(PM10),56,61,80,38,48,141,,155,155,9,26,8,12,0.9,1
2024-10-13T1900,1873A,109.4311,24.2921,柳州市,市四中,细颗粒物(PM2.5),63,61,75,45,43,139,,160,160,18,31,8,8,0.9,0.9
2024-10-13T1900,1874A,109.4006,24.3631,柳州市,市九中,颗粒物(PM10),62,74,74,36,42,140,,161,160,15,25,6,7,0.7,0.8
2024-10-13T1900,1875A,109.4958,24.3134,柳州市,古亭山,颗粒物(PM10),63,76,56,41,35,121,,159,156,23,40,9,9,1.0,0.9
2024-10-13T1900,3402A,109.5422,24.3996,柳州市,市二中,颗粒物(PM10),57,63,66,37,41,153,,160,160,17,39,9,10,0.9,0.8
2024-10-13T1900,2307A,116.5079,31.737,六安市,监测大楼,细颗粒物(PM2.5),80,,61,59,64,90,,113,113,19,19,5,6,0.6,0.5
2024-10-13T1900,2308A,116.4738,31.7643,六安市,皖西学院,细颗粒物(PM2.5),72,60,72,52,62,69,,105,103,24,21,5,6,0.1,0.5
2024-10-13T1900,2309A,116.4996,31.7905,六安市,朝阳厂,细颗粒物(PM2.5),68,60,61,49,61,79,,107,107,24,21,2,2,0.7,0.7
2024-10-13T1900,2310A,116.5567,31.7886,六安市,开发区,颗粒物(PM10),64,77,90,38,48,77,,115,114,31,24,5,6,0.6,0.6
2024-10-13T1900,2577A,104.83,26.5917,六盘水市,黄土坡,,33,33,11,16,8,37,,60,58,30,13,11,9,1.0,0.6
2024-10-13T1900,2578A,104.89,26.5939,六盘水市,水钢,,34,34,15,18,7,59,,61,61,12,18,8,7,0.6,0.7
2024-10-13T1900,2579A,104.8475,26.5894,六盘水市,民中,,25,21,10,17,6,48,,58,58,23,14,9,7,0.9,0.6
2024-10-13T1900,2580A,104.9544,26.5506,六盘水市,双水,,17,17,12,3,7,54,,67,67,9,11,6,8,0.6,0.6
2024-10-13T1900,2336A,117.0217,25.1033,龙岩市,龙岩市监测站,,35,30,29,24,21,73,,104,103,28,20,8,5,0.7,0.5
2024-10-13T1900,2337A,117.0258,25.0661,龙岩市,闽西职业技术学院,颗粒物(PM10),51,51,40,21,22,45,,105,99,35,23,12,6,0.4,0.4
2024-10-13T1900,2338A,117.0196,25.0306,龙岩市,龙岩学院,,25,17,26,11,17,78,,107,106,6,13,4,5,0.4,0.4
2024-10-13T1900,2885A,104.9339,33.3826,陇南市,滨江中学,,37,37,31,16,14,55,,65,65,11,10,4,5,0.5,0.5
2024-10-13T1900,3247A,104.955,33.371,陇南市,市总工会,,29,29,25,3,5,62,,68,68,6,8,4,4,0.4,0.5
2024-10-13T1900,2487A,111.9589,27.8901,娄底市,电视发射台,细颗粒物(PM2.5),108,118,114,81,83,105,,128,128,16,14,9,10,0.8,0.8
2024-10-13T1900,2488A,111.9975,27.725,娄底市,市监测站,细颗粒物(PM2.5),117,125,135,88,96,110,,136,136,15,14,9,10,0.7,0.7
2024-10-13T1900,2489A,112.0194,27.7314,娄底市,市委党校,细颗粒物(PM2.5),109,114,134,82,99,103,,126,126,15,15,6,7,0.8,0.8
2024-10-13T1900,2490A,111.9561,27.7569,娄底市,涟钢,细颗粒物(PM2.5),134,142,133,102,103,89,,109,109,25,21,12,11,0.7,0.8
2024-10-13T1900,2491A,111.9892,27.7044,娄底市,市政府,细颗粒物(PM2.5),118,115,129,89,105,112,,135,135,18,18,8,9,0.7,0.7
2024-10-13T1900,1893A,105.4324,28.9634,泸州市,九狮山,,26,26,24,13,16,54,,56,56,28,23,4,5,0.6,0.6
2024-10-13T1900,1894A,105.4427,28.9063,泸州市,小市上码头,,30,30,32,19,17,66,,72,72,29,25,4,4,0.7,0.6
2024-10-13T1900,1895A,105.4241,28.8573,泸州市,兰田宪桥,,32,22,21,22,16,67,,74,74,16,15,3,3,0.6,0.5
2024-10-13T1900,1896A,105.4379,28.8833,泸州市,市环监站,,25,24,25,17,20,68,,72,72,19,21,4,4,0.6,0.6
2024-10-13T1900,3490A,105.3617,28.7703,泸州市,纳溪区环保局,,22,21,20,15,16,54,,72,72,24,23,5,5,0.7,0.6
2024-10-13T1900,2183A,111.1406,37.5211,吕梁市,环保局,细颗粒物(PM2.5),65,71,50,47,32,32,,74,74,53,31,3,3,0.9,0.7
2024-10-13T1900,2185A,111.1297,37.5136,吕梁市,自来水公司,细颗粒物(PM2.5),63,60,42,45,30,43,,88,85,45,27,1,2,0.8,0.6
2024-10-13T1900,2867A,111.1283,37.51,吕梁市,马茂庄小学,颗粒物(PM10),58,66,54,39,33,44,,88,86,46,30,1,2,0.7,0.5
2024-10-13T1900,1812A,112.3931,34.6516,洛阳市,市委党校,细颗粒物(PM2.5),159,153,143,121,118,109,,128,128,56,43,4,6,1.1,0.9
2024-10-13T1900,1814A,112.4657,34.6871,洛阳市,豫西宾馆,细颗粒物(PM2.5),135,154,142,103,113,109,,140,140,46,48,5,7,1.0,1.1
2024-10-13T1900,1815A,112.494,34.6886,洛阳市,河南林校,细颗粒物(PM2.5),173,142,146,131,130,105,,125,125,43,48,5,7,0.8,0.9
2024-10-13T1900,1816A,112.3844,34.623,洛阳市,开发区管委会,细颗粒物(PM2.5),193,180,144,145,120,146,,141,141,38,36,6,6,0.7,0.7
2024-10-13T1900,1817A,112.4267,34.6258,洛阳市,市委新办公区,细颗粒物(PM2.5),186,172,142,140,106,129,,139,139,46,33,5,6,0.7,0.6
2024-10-13T1900,3340A,112.6005,34.6326,洛阳市,伊滨,细颗粒物(PM2.5),130,123,116,99,108,119,,132,132,33,34,5,5,0.8,1
2024-10-13T1900,3341A,112.4951,34.6332,洛阳市,中移产业园,细颗粒物(PM2.5),143,140,127,109,106,134,,144,144,39,38,6,7,0.9,1
2024-10-13T1900,3593A,112.5736,34.8993,洛阳市,吉利监测站,细颗粒物(PM2.5),110,136,122,83,88,77,,110,110,54,47,1,3,0.7,0.8
2024-10-13T1900,3635A,112.3677,34.662,洛阳市,河科大西苑校区,细颗粒物(PM2.5),145,157,151,111,100,128,,140,140,51,47,6,8,1.1,1
2024-10-13T1900,3636A,112.4388,34.6781,洛阳市,英才小学,细颗粒物(PM2.5),130,172,167,99,97,115,,132,132,47,52,5,8,0.9,1
2024-10-13T1900,2399A,114.051,33.5699,漯河市,三五一五工厂,细颗粒物(PM2.5),152,200,155,116,91,101,,134,134,33,25,7,9,0.8,0.8
2024-10-13T1900,2400A,114.0055,33.5698,漯河市,漯河大学,细颗粒物(PM2.5),119,150,146,90,95,114,,143,143,28,24,8,8,0.6,0.6
2024-10-13T1900,2401A,114.0138,33.5828,漯河市,市水利局,细颗粒物(PM2.5),104,149,155,78,88,119,,141,141,22,19,9,8,0.7,0.7
2024-10-13T1900,2402A,114.0261,33.5698,漯河市,市广电局,细颗粒物(PM2.5),119,186,146,90,93,104,,140,140,32,22,8,7,0.8,0.8
2024-10-13T1900,3478A,113.9749,33.5664,漯河市,市图书馆,颗粒物(PM10),83,116,140,57,88,113,,145,145,32,22,6,6,0.8,0.8
2024-10-13T1900,3479A,114.0967,33.5906,漯河市,召陵区卫健委,细颗粒物(PM2.5),95,129,161,71,98,103,,136,136,29,25,8,9,0.5,0.5
2024-10-13T1900,1798A,118.5092,31.6837,马鞍山市,湖东路四小,,44,44,47,18,30,66,,96,96,40,25,9,8,1.0,0.8
2024-10-13T1900,1799A,118.5024,31.6449,马鞍山市,开发区,,42,42,53,19,32,47,,94,91,43,26,6,7,0.7,0.7
2024-10-13T1900,1800A,118.5228,31.7231,马鞍山市,慈湖,,43,43,55,19,30,13,,88,80,68,21,8,9,0.8,0.8
2024-10-13T1900,1802A,118.6245,31.7241,马鞍山市,濮塘,,32,32,48,14,39,56,,89,88,23,22,6,6,0.6,0.7
2024-10-13T1900,3633A,118.4918,31.6809,马鞍山市,雨山,,41,41,44,19,26,42,,94,91,39,16,5,4,1.5,0.9
2024-10-13T1900,1686A,111.0286,21.4688,茂名市,电白南海,,41,41,50,19,22,122,,141,136,14,14,10,13,0.8,0.8
2024-10-13T1900,1687A,110.9294,21.6533,茂名市,茂石化七小,,48,48,48,24,26,124,,145,139,12,10,9,10,0.8,0.7
2024-10-13T1900,1688A,110.9107,21.6687,茂名市,健康路,,44,44,45,19,24,130,,153,146,10,8,11,13,0.7,0.7
2024-10-13T1900,1689A,110.8592,21.6828,茂名市,高岭,颗粒物(PM10),56,61,52,31,28,115,,144,134,14,12,7,12,0.6,0.7
2024-10-13T1900,3450A,111.01,21.5165,茂名市,电白水东,,37,29,45,17,24,118,,137,132,8,10,7,12,0.6,0.7
2024-10-13T1900,2539A,104.0308,30.0478,眉山市,黑龙滩水库,,32,31,33,22,22,101,,91,91,4,4,5,5,0.6,0.6
2024-10-13T1900,2540A,103.8416,30.0874,眉山市,气象局,,42,30,29,29,24,67,,75,75,16,20,6,6,0.5,0.5
2024-10-13T1900,3137A,103.8578,30.0744,眉山市,市委党校,,32,31,28,22,18,69,,76,76,23,21,8,6,0.6,0.6
2024-10-13T1900,3148A,103.8291,30.0564,眉山市,区人社局,,28,28,32,17,20,65,,73,73,26,23,8,8,0.8,0.7
2024-10-13T1900,1690A,116.1231,24.3284,梅州市,梅江月梅,细颗粒物(PM2.5),58,,41,41,26,77,,104,101,5,25,7,9,0.7,0.7
2024-10-13T1900,1691A,116.0797,24.2719,梅州市,梅县新城,细颗粒物(PM2.5),54,46,46,38,26,57,,110,106,27,22,5,6,0.8,0.7
2024-10-13T1900,1692A,116.1248,24.2654,梅州市,环境监控中心,,32,24,46,22,25,61,,100,96,19,33,5,6,0.8,0.7
2024-10-13T1900,3315A,116.1233,24.2991,梅州市,梅龙,颗粒物(PM10),60,70,36,28,21,50,,101,96,26,18,10,11,0.8,0.7
2024-10-13T1900,1878A,104.7778,31.4741,绵阳市,富乐山,,29,24,23,20,19,31,,64,60,13,10,2,2,0.6,0.6
2024-10-13T1900,1879A,104.7563,31.4535,绵阳市,市人大,,31,31,29,18,20,56,,67,66,31,19,11,10,0.7,0.6
2024-10-13T1900,1880A,104.6697,31.4668,绵阳市,高新区自来水公司,,35,35,38,14,20,66,,68,68,18,25,3,3,0.6,0.6
2024-10-13T1900,1881A,104.7287,31.5075,绵阳市,三水厂,,28,25,32,19,28,59,,67,67,22,27,6,6,0.6,0.7
2024-10-13T1900,3491A,104.69,31.5322,绵阳市,西科大附属小学,,29,29,35,11,21,47,,62,62,30,24,2,2,0.7,0.6
2024-10-13T1900,3492A,104.5648,31.5343,绵阳市,安州区旅游局,,39,29,28,27,24,53,,74,74,33,15,9,9,0.6,0.6
2024-10-13T1900,1784A,129.61,44.561,牡丹江市,环保大楼,颗粒物(PM10),90,129,47,38,23,5,,52,44,84,38,15,12,1.4,0.6
2024-10-13T1900,1785A,129.6115,44.5782,牡丹江市,文化广场,细颗粒物(PM2.5),119,157,72,90,33,6,,39,32,90,47,26,14,2.1,0.9
2024-10-13T1900,1786A,129.5904,44.5963,牡丹江市,第一医院,细颗粒物(PM2.5),100,106,51,75,33,13,,56,48,73,33,12,11,1.2,0.5
2024-10-13T1900,1787A,129.6364,44.6075,牡丹江市,机车工厂,颗粒物(PM10),67,84,49,41,22,24,,55,51,46,28,200,43,0.8,0.5
2024-10-13T1900,1788A,129.6386,44.5462,牡丹江市,第一中学,颗粒物(PM10),91,132,40,48,18,4,,54,42,69,32,8,8,0.8,0.4
2024-10-13T1900,2531A,105.0703,29.61,内江市,市监测站,,22,19,19,15,18,60,,88,88,35,17,6,7,0.5,0.4
2024-10-13T1900,2532A,105.0717,29.5947,内江市,东兴区政府,,26,26,20,14,15,66,,96,96,24,15,7,6,0.7,0.6
2024-10-13T1900,2533A,105.0653,29.5817,内江市,内江二中,,26,24,25,15,23,82,,94,94,18,19,5,5,0.6,0.6
2024-10-13T1900,2534A,105.0406,29.5822,内江市,内江日报社,,27,27,28,16,20,65,,94,94,24,14,11,11,0.6,0.6
2024-10-13T1900,2628A,92.0657,31.4846,那曲市,那曲监测站,,32,22,36,7,21,101,,103,103,6,11,5,6,0.4,0.6
2024-10-13T1900,3128A,92.0506,31.4797,那曲市,那曲会议中心,,36,12,49,3,18,115,,111,111,2,16,2,3,0.4,0.6
2024-10-13T1900,1290A,115.8931,28.6843,南昌市,省外办,细颗粒物(PM2.5),83,84,79,61,59,109,,149,147,20,24,11,15,0.9,0.9
2024-10-13T1900,1291A,115.8886,28.7003,南昌市,省林业公司,细颗粒物(PM2.5),79,95,94,58,57,94,,150,146,28,33,8,11,0.4,0.4
2024-10-13T1900,1292A,115.8126,28.7442,南昌市,林科所,颗粒物(PM10),57,63,63,39,41,114,,163,160,34,25,10,11,0.7,0.7
2024-10-13T1900,1294A,115.8518,28.687,南昌市,建工学校,细颗粒物(PM2.5),67,68,87,48,54,115,,159,154,21,24,11,13,0.5,0.6
2024-10-13T1900,1295A,115.8921,28.6424,南昌市,象湖,细颗粒物(PM2.5),67,69,76,48,51,132,,171,170,18,27,11,13,0.7,0.8
2024-10-13T1900,1296A,115.7423,28.7996,南昌市,武术学校,,48,37,28,33,34,55,,112,100,20,18,2,2,0.5,0.6
2024-10-13T1900,1298A,115.9314,28.6842,南昌市,省站,细颗粒物(PM2.5),114,96,83,86,57,105,,139,137,13,19,12,14,0.8,0.8
2024-10-13T1900,3046A,115.9084,28.6062,南昌市,机电学校,颗粒物(PM10),66,82,92,39,51,123,,154,154,23,30,14,16,0.5,0.7
2024-10-13T1900,3690A,115.9721,28.7031,南昌市,外国语学校,颗粒物(PM10),67,84,83,44,51,109,,141,140,18,21,8,10,0.7,0.7
2024-10-13T1900,1905A,106.056,30.8064,南充市,西山风景区,,32,32,20,20,21,75,,90,90,13,9,2,1,0.6,0.6
2024-10-13T1900,1906A,106.0789,30.8023,南充市,南充市委,,33,32,32,23,25,75,,98,98,28,15,3,2,0.6,0.6
2024-10-13T1900,1907A,106.1031,30.8217,南充市,南充炼油厂,,37,37,37,17,24,92,,100,100,14,13,3,2,0.5,0.6
2024-10-13T1900,1908A,106.1064,30.7856,南充市,高坪区监测站,,42,32,34,29,25,70,,94,94,25,12,5,4,0.7,0.6
2024-10-13T1900,1909A,106.0642,30.7636,南充市,嘉陵区环保局,,41,41,31,24,22,82,,94,94,23,19,2,2,0.6,0.6
2024-10-13T1900,1910A,106.1087,30.8388,南充市,市环境监测站,,44,44,31,27,26,87,,98,98,18,11,13,3,0.4,0.4
2024-10-13T1900,1151A,118.8086,32.1065,南京市,迈皋桥,,27,27,46,17,31,73,,83,83,22,23,3,4,0.4,0.5
2024-10-13T1900,1152A,118.7538,32.0551,南京市,草场门,,36,36,42,14,28,62,,75,75,37,27,4,5,0.4,0.4
2024-10-13T1900,1153A,118.7794,32.0745,南京市,山西路,,29,27,47,14,32,91,,88,88,10,13,5,4,0.4,0.5
2024-10-13T1900,1154A,118.7752,32.0023,南京市,中华门,,34,34,47,22,31,87,,82,82,23,19,6,6,0.3,0.5
2024-10-13T1900,1155A,118.8109,32.0309,南京市,瑞金路,,36,36,47,19,30,72,,79,79,35,25,5,6,0.2,0.4
2024-10-13T1900,1156A,118.7997,32.0754,南京市,玄武湖,,27,23,43,6,29,85,,81,81,19,30,5,6,0.5,0.7
2024-10-13T1900,1157A,118.6414,32.0931,南京市,浦口,,26,26,39,16,33,48,,68,68,15,23,4,5,0.5,0.6
2024-10-13T1900,1158A,118.7356,31.9996,南京市,奥体中心,,38,38,49,19,38,82,,83,83,26,22,6,6,0.4,0.5
2024-10-13T1900,1159A,118.9125,32.1028,南京市,仙林大学城,,31,31,48,14,30,90,,92,92,15,18,6,6,0.5,0.6
2024-10-13T1900,3422A,118.8436,31.9198,南京市,江宁彩虹桥,,46,46,46,17,32,88,,90,90,23,21,4,4,0.4,0.6
2024-10-13T1900,3423A,119.0138,31.6494,南京市,溧水永阳,,29,24,41,20,22,92,,101,101,19,22,4,4,0.5,0.5
2024-10-13T1900,3424A,118.879,31.3302,南京市,高淳老职中,,29,,25,18,23,91,,103,103,16,18,3,5,0.4,0.5
2024-10-13T1900,3427A,118.8554,32.3578,南京市,六合雄州,,18,13,42,12,29,43,,69,68,34,20,3,4,0.5,0.5
2024-10-13T1900,1401A,108.3103,22.7881,南宁市,二十一中,细颗粒物(PM2.5),72,59,52,52,32,128,,142,142,14,14,3,6,0.9,0.9
2024-10-13T1900,1402A,108.3141,22.8528,南宁市,北湖,,49,,15,34,34,122,,,,10,10,7,7,1.6,1.6
2024-10-13T1900,1403A,108.3206,22.8225,南宁市,市监测站,,48,48,52,31,32,128,,137,137,11,14,10,12,0.8,0.8
2024-10-13T1900,1404A,108.3829,22.8037,南宁市,大自然花园,细颗粒物(PM2.5),57,57,51,40,32,103,,139,136,23,14,5,7,0.8,0.7
2024-10-13T1900,1405A,108.4394,22.7904,南宁市,仙葫,细颗粒物(PM2.5),55,53,48,39,34,112,,121,121,14,12,4,5,0.7,0.8
2024-10-13T1900,1406A,108.2397,22.8467,南宁市,区农职院,颗粒物(PM10),55,59,56,37,33,122,,140,140,21,18,7,9,0.8,0.9
2024-10-13T1900,1407A,108.3275,22.735,南宁市,英华嘉园,细颗粒物(PM2.5),69,54,58,50,36,116,,128,128,22,26,6,8,0.9,0.8
2024-10-13T1900,1408A,108.2257,22.7757,南宁市,沙井镇街道办,颗粒物(PM10),71,91,77,38,34,69,,129,123,62,37,5,7,0.9,1
2024-10-13T1900,3401A,108.4834,22.7618,南宁市,红星社区,"颗粒物(PM10),细颗粒物(PM2.5)",60,69,52,43,36,96,,130,127,18,14,5,6,0.8,0.7
2024-10-13T1900,2332A,118.1681,26.6369,南平市,南平市监测站,,38,37,27,26,20,44,,84,82,21,12,3,4,0.8,0.5
2024-10-13T1900,2333A,118.1825,26.6489,南平市,南平铝业有限公司,细颗粒物(PM2.5),52,46,26,36,20,33,,80,76,29,16,4,4,0.7,0.5
2024-10-13T1900,2334A,118.1756,26.6272,南平市,南平七中,,46,,25,32,18,47,,88,82,20,9,3,4,0.6,0.5
2024-10-13T1900,1168A,120.9098,31.9663,南通市,狼山街道,,35,23,27,10,17,111,,104,104,10,13,6,6,0.5,0.5
2024-10-13T1900,1169A,120.86,32.0005,南通市,虹桥,,34,24,26,10,13,106,,97,97,12,17,7,7,0.4,0.4
2024-10-13T1900,1170A,120.87,32.02,南通市,城中,,34,28,32,10,14,106,,102,102,20,24,7,6,0.5,0.6
2024-10-13T1900,1171A,120.94,31.93,南通市,星湖花园,,31,18,23,6,15,99,,98,98,19,18,6,6,0.6,0.6
2024-10-13T1900,1172A,120.81,32.0417,南通市,紫琅学院,,32,19,26,3,10,100,,92,92,14,20,7,7,0.5,0.6
2024-10-13T1900,3291A,121.067,32.062,南通市,通州监测站,,49,48,28,34,15,108,,110,110,12,10,2,2,0.7,0.6
2024-10-13T1900,3432A,120.9348,31.9883,南通市,环境教育馆,,33,24,28,12,13,103,,100,100,17,20,4,3,0.5,0.5
2024-10-13T1900,2404A,112.5224,33.0122,南阳市,瓦房庄,细颗粒物(PM2.5),83,74,104,61,87,107,,123,123,30,26,5,5,0.8,0.8
2024-10-13T1900,2405A,112.5003,32.9735,南阳市,汉画馆,细颗粒物(PM2.5),77,78,108,56,87,115,,123,123,25,37,8,7,0.7,0.8
2024-10-13T1900,2406A,112.5573,33.027,南阳市,气象站,细颗粒物(PM2.5),77,70,100,56,83,116,,126,126,26,27,7,7,0.7,0.7
2024-10-13T1900,2407A,112.5481,32.9689,南阳市,理工学院,细颗粒物(PM2.5),72,74,111,52,85,94,,119,119,38,38,11,8,0.8,0.9
2024-10-13T1900,4008A,112.5234,32.9922,南阳市,卧龙区政府,细颗粒物(PM2.5),74,76,111,54,82,120,,125,125,24,34,6,5,0.8,0.8
2024-10-13T1900,1234A,121.8358,29.911,宁波市,区环保大楼,,48,48,30,14,12,87,,118,113,36,42,6,7,0.8,0.8
2024-10-13T1900,1235A,121.56,29.82,宁波市,万里学院,,,27,45,8,26,108,,106,106,17,42,,7,,0.7
2024-10-13T1900,1236A,121.713,29.9572,宁波市,龙赛医院,,29,29,30,13,10,86,,116,112,40,39,9,12,0.7,0.7
2024-10-13T1900,1239A,121.633,29.7733,宁波市,钱湖水厂,,,14,34,3,18,93,,110,110,10,28,8,9,,0.6
2024-10-13T1900,1240A,121.5856,29.8635,宁波市,太古小学,,31,28,40,14,20,97,,102,102,20,44,8,8,0.8,1
2024-10-13T1900,1241A,121.524,29.8674,宁波市,市环境监测中心,,33,21,41,9,19,105,,103,103,19,41,7,8,0.6,0.7
2024-10-13T1900,2871A,121.6147,29.9017,宁波市,万里国际学校,,49,49,54,17,22,105,,113,113,19,46,8,8,0.7,0.8
2024-10-13T1900,3710A,121.5594,29.8975,宁波市,白沙活动中心,,34,33,41,10,14,107,,109,109,16,44,8,9,0.4,0.5
2024-10-13T1900,2341A,119.5388,26.6612,宁德市,宁德市监测站,颗粒物(PM10),51,52,36,18,23,70,,82,82,11,16,3,3,0.5,0.6
2024-10-13T1900,3209A,119.5231,26.6562,宁德市,宁德一中,,38,38,33,21,23,71,,87,86,9,11,2,2,0.3,0.4
2024-10-13T1900,2618A,98.8601,25.8567,怒江傈僳族自治州,州监测站,,37,37,22,20,12,32,,38,38,20,10,7,7,0.4,0.3
2024-10-13T1900,2619A,98.8546,25.8417,怒江傈僳族自治州,泸水一中,,38,38,21,23,12,16,,31,31,25,13,6,7,0.6,0.4
2024-10-13T1900,1888A,101.6891,26.571,攀枝花市,弄弄坪,颗粒物(PM10),55,60,62,30,31,108,,100,100,28,31,18,19,1.2,1.4
2024-10-13T1900,1889A,101.5769,26.5928,攀枝花市,河门口,,39,36,36,27,24,95,,95,95,22,19,15,9,1.2,1
2024-10-13T1900,1890A,101.7169,26.585,攀枝花市,炳草岗,,39,39,58,22,34,116,,109,109,20,33,15,18,1.1,1.3
2024-10-13T1900,1891A,101.7369,26.5008,攀枝花市,仁和,细颗粒物(PM2.5),59,63,41,42,26,82,,104,104,22,20,12,13,0.8,0.9
2024-10-13T1900,2835A,101.7227,26.567,攀枝花市,四十中小,,50,50,48,29,28,115,,108,108,16,18,23,15,0.9,1.3
2024-10-13T1900,1604A,122.0303,41.1489,盘锦市,开发区,细颗粒物(PM2.5),74,,54,54,58,67,,115,109,40,39,2,3,0.6,0.7
2024-10-13T1900,1605A,122.0485,41.0883,盘锦市,兴隆台,细颗粒物(PM2.5),63,45,46,45,56,21,,115,100,84,49,5,7,0.7,0.6
2024-10-13T1900,1606A,121.8297,41.1028,盘锦市,新生街道,,40,30,23,28,22,64,,120,114,27,30,8,8,0.4,0.6
2024-10-13T1900,1832A,113.3257,33.742,平顶山市,新华旅馆,细颗粒物(PM2.5),114,149,189,86,112,116,,148,148,30,39,8,10,0.6,0.7
2024-10-13T1900,1833A,113.2919,33.737,平顶山市,规划设计院,细颗粒物(PM2.5),119,135,182,90,128,128,,153,153,25,35,8,10,1.0,1
2024-10-13T1900,1834A,113.182,33.774,平顶山市,平顶山工学院,细颗粒物(PM2.5),98,136,197,73,136,135,,152,152,19,32,7,9,0.7,0.9
2024-10-13T1900,3204A,113.3025,33.73,平顶山市,规划局,细颗粒物(PM2.5),117,144,186,88,127,119,,147,147,29,34,6,9,1.0,1.1
2024-10-13T1900,3594A,112.8867,33.9116,平顶山市,石龙区,细颗粒物(PM2.5),134,189,188,102,105,100,,139,139,57,64,10,15,1.0,1
2024-10-13T1900,2656A,106.6692,35.5461,平凉市,聚贤嘉苑,颗粒物(PM10),61,72,61,39,37,79,,82,82,40,33,9,7,0.3,0.3
2024-10-13T1900,2657A,106.7021,35.5307,平凉市,博物馆,颗粒物(PM10),66,82,72,42,45,71,,85,85,65,41,10,10,0.6,0.6
2024-10-13T1900,2347A,114.0997,27.5002,萍乡市,武功山,细颗粒物(PM2.5),62,46,36,44,36,88,,128,121,10,8,10,9,0.6,0.5
2024-10-13T1900,2348A,113.8385,27.6434,萍乡市,中医院,颗粒物(PM10),67,84,79,43,48,134,,170,168,28,18,12,30,0.9,0.9
2024-10-13T1900,2349A,113.8493,27.6253,萍乡市,市政府车库,细颗粒物(PM2.5),67,75,80,48,61,139,,164,164,17,21,15,34,0.8,1.2
2024-10-13T1900,2350A,113.8676,27.6435,萍乡市,市环保局,细颗粒物(PM2.5),75,81,84,55,58,135,,156,156,14,17,15,34,0.7,0.7
2024-10-13T1900,2351A,113.866,27.6198,萍乡市,安源区政府,"颗粒物(PM10),细颗粒物(PM2.5)",75,99,86,55,51,132,,164,162,22,28,16,35,0.7,0.8
2024-10-13T1900,2319A,119.0141,25.4325,莆田市,荔城区仓后路,,30,30,25,17,9,66,,90,86,6,5,3,2,0.5,0.4
2024-10-13T1900,2320A,119.0015,25.4553,莆田市,莆田市监测站,,22,22,22,14,11,67,,89,86,3,3,1,1,0.5,0.5
2024-10-13T1900,2321A,119.1119,25.4561,莆田市,涵江区六中,颗粒物(PM10),72,94,32,17,13,74,,92,88,2,6,1,1,0.4,0.4
2024-10-13T1900,2322A,119.1013,25.3215,莆田市,秀屿区政府,,42,42,30,23,12,66,,89,84,3,4,1,2,0.4,0.4
2024-10-13T1900,2392A,115.0312,35.7636,濮阳市,环保局,细颗粒物(PM2.5),77,,87,56,69,133,,157,157,34,28,2,3,0.8,0.7
2024-10-13T1900,2394A,115.0574,35.7609,濮阳市,油田运输公司,颗粒物(PM10),83,116,107,57,69,103,,157,157,51,24,3,4,0.8,0.7
2024-10-13T1900,2395A,115.0866,35.7754,濮阳市,油田物探公司,细颗粒物(PM2.5),82,105,107,60,74,108,,150,150,51,28,1,2,0.8,0.6
2024-10-13T1900,3021A,115,35.7668,濮阳市,濮水河管理处,细颗粒物(PM2.5),74,87,111,54,66,93,,137,136,34,22,1,2,0.8,0.7
2024-10-13T1900,2601A,100.98,22.7633,普洱市,市环保局,,31,31,27,16,15,46,,57,57,6,5,4,4,0.6,0.6
2024-10-13T1900,2602A,100.9817,22.8322,普洱市,普洱第二中学,,40,40,30,21,14,42,,61,60,14,7,6,5,0.5,0.5
2024-10-13T1900,2262A,131.0518,45.8751,七台河市,新一中,,23,22,15,3,8,73,,88,87,11,9,10,9,1.0,1
2024-10-13T1900,3345A,131.0577,45.7879,七台河市,中波台,,29,29,30,7,11,50,,60,59,20,27,7,7,0.8,0.9
2024-10-13T1900,3637A,131.0176,45.7761,七台河市,人民广场,,40,40,34,25,19,38,,68,63,35,28,8,8,1.0,0.9
2024-10-13T1900,3684A,130.8781,45.8222,七台河市,新建矿广场,颗粒物(PM10),60,70,82,37,25,36,,61,58,39,32,11,9,1.0,0.9
2024-10-13T1900,1779A,123.9305,47.3636,齐齐哈尔市,安居小区,"颗粒物(PM10),细颗粒物(PM2.5)",80,110,50,59,21,114,,99,99,29,22,12,10,0.9,0.5
2024-10-13T1900,1780A,123.9488,47.3386,齐齐哈尔市,中心广场,细颗粒物(PM2.5),108,109,48,81,32,117,,101,101,25,19,4,4,0.7,0.3
2024-10-13T1900,1781A,123.9483,47.3227,齐齐哈尔市,农牧车辆厂,颗粒物(PM10),74,97,43,36,11,122,,108,108,16,15,6,5,0.3,0.2
2024-10-13T1900,1783A,123.945,47.2988,齐齐哈尔市,市环境监测站,颗粒物(PM10),71,91,40,45,17,126,,114,114,16,13,10,9,0.6,0.3
2024-10-13T1900,3662A,123.6333,47.2075,齐齐哈尔市,富区青少年活动中心,颗粒物(PM10),68,85,42,30,10,100,,102,102,15,11,6,5,0.7,0.4
2024-10-13T1900,2591A,107.9783,26.5747,黔东南苗族侗族自治州,市环境监测站,,40,32,68,28,55,48,,80,61,25,16,4,5,0.7,0.7
2024-10-13T1900,2881A,107.8908,26.5311,黔东南苗族侗族自治州,凯里学院,,49,,54,34,51,43,,91,61,26,13,4,5,0.8,0.7
2024-10-13T1900,2593A,107.5228,26.2403,黔南布依族苗族自治州,小围寨,,13,9,37,9,32,31,,54,42,16,18,3,5,0.7,0.7
2024-10-13T1900,3538A,107.5175,26.2978,黔南布依族苗族自治州,沙坝,,13,11,48,7,34,39,,48,42,10,18,3,4,0.6,0.6
2024-10-13T1900,2589A,104.9022,25.0925,黔西南布依族苗族自治州,场坝街,,49,46,42,34,34,41,,82,61,16,8,6,3,0.4,0.3
2024-10-13T1900,2590A,104.8811,25.0992,黔西南布依族苗族自治州,坪东大道,细颗粒物(PM2.5),52,47,46,36,38,44,,68,61,6,5,2,2,0.4,0.4
2024-10-13T1900,2502A,108.6236,21.9667,钦州市,市环保站,颗粒物(PM10),53,56,59,24,28,133,,157,157,23,21,10,10,0.8,0.8
2024-10-13T1900,2503A,108.6549,21.9481,钦州市,沙埠小学,,49,45,78,34,36,136,,162,162,23,35,9,8,0.8,0.8
2024-10-13T1900,2504A,108.5989,21.7431,钦州市,港区一小,颗粒物(PM10),59,68,84,24,31,123,,147,146,20,29,7,8,0.8,0.9
2024-10-13T1900,3404A,108.5959,21.9633,钦州市,北职校,,50,47,60,35,34,135,,158,158,16,24,8,9,0.8,0.8
2024-10-13T1900,1042A,119.5134,39.8207,秦皇岛市,北戴河环保局,,45,45,64,19,35,134,,122,122,7,29,1,2,0.7,0.6
2024-10-13T1900,1043A,119.7493,40.0116,秦皇岛市,第一关,颗粒物(PM10),55,59,72,27,44,124,,126,126,12,55,1,3,0.4,0.5
2024-10-13T1900,1044A,119.5897,39.9499,秦皇岛市,监测站,细颗粒物(PM2.5),55,51,64,39,42,116,,124,124,30,45,1,2,0.4,0.5
2024-10-13T1900,1046A,119.5251,39.9041,秦皇岛市,建设大厦,细颗粒物(PM2.5),54,53,78,38,36,133,,121,121,11,43,3,3,0.4,0.5
2024-10-13T1900,3132A,119.610547,39.943889,秦皇岛市,文明里,,49,49,76,24,33,132,,127,127,12,40,1,2,0.4,0.6
2024-10-13T1900,1307A,120.6659,36.2403,青岛市,仰口,,34,19,36,18,28,108,,128,108,5,7,6,6,0.6,0.6
2024-10-13T1900,1310A,120.4134,36.0658,青岛市,市南区东部子站,,39,19,41,3,20,123,,145,126,3,4,6,6,0.3,0.4
2024-10-13T1900,1311A,120.3664,36.1032,青岛市,四方区子站,,39,24,46,12,24,123,,154,131,18,16,9,9,0.4,0.5
2024-10-13T1900,1312A,120.2994,36.054,青岛市,市南区西部子站,,,27,40,12,19,132,,153,132,,7,,8,,0.6
2024-10-13T1900,1313A,120.4581,36.0858,青岛市,崂山区子站,,42,22,36,7,19,134,,156,137,13,14,8,8,0.5,0.5
2024-10-13T1900,1314A,120.1983,35.9608,青岛市,黄岛区子站,,41,12,38,10,24,130,,155,134,9,10,8,8,0.5,0.6
2024-10-13T1900,1315A,120.3999,36.3083,青岛市,城阳区子站,,34,34,63,20,33,96,,127,123,30,34,8,8,0.7,0.7
2024-10-13T1900,1966A,120.0405,35.8735,青岛市,黄岛区4号,,40,12,39,9,19,127,,159,136,12,12,5,6,0.5,0.5
2024-10-13T1900,3362A,120.5014,36.4034,青岛市,即墨2号,,34,26,44,14,19,107,,130,122,18,14,6,6,0.5,0.5
2024-10-13T1900,3642A,120.3503,36.0736,青岛市,市北区南部,,37,24,38,12,20,117,,142,121,16,17,6,6,0.6,0.6
2024-10-13T1900,3643A,120.3948,36.1805,青岛市,李沧区北部,,36,29,54,19,30,113,,125,122,26,27,9,9,0.7,0.7
2024-10-13T1900,1702A,113.0426,23.691,清远市,环保大楼,细颗粒物(PM2.5),54,53,46,38,44,162,,176,176,22,20,6,7,1.0,0.9
2024-10-13T1900,1703A,113.0208,23.7106,清远市,凤城街办,臭氧1小时,62,52,48,36,34,169,,180,180,17,13,10,11,0.8,0.7
2024-10-13T1900,3025A,113.0477,23.6344,清远市,技师学院,臭氧1小时,63,61,61,33,35,170,,184,184,17,26,11,14,0.6,0.6
2024-10-13T1900,3318A,112.9903,23.7403,清远市,清新太和,颗粒物(PM10),52,53,48,28,30,146,,166,166,12,13,3,5,0.8,0.7
2024-10-13T1900,3455A,113.076,23.7198,清远市,清城东城,细颗粒物(PM2.5),53,53,48,37,32,135,,159,159,17,12,8,8,0.6,0.6
2024-10-13T1900,2661A,107.6325,35.7357,庆阳市,庆阳五中,颗粒物(PM10),57,64,66,37,43,88,,92,92,18,12,7,6,0.6,0.5
2024-10-13T1900,2662A,107.6364,35.7067,庆阳市,市环保局,颗粒物(PM10),53,55,61,26,36,92,,93,93,18,12,5,5,0.5,0.5
2024-10-13T1900,1916A,103.7897,25.5035,曲靖市,环境监测站,,43,43,30,17,15,82,,89,89,19,14,7,7,0.6,0.6
2024-10-13T1900,1917A,103.8,25.5364,曲靖市,烟厂办公区,,,29,27,11,15,77,,87,87,,10,4,5,0.4,0.4
2024-10-13T1900,3376A,103.7947,25.462,曲靖市,南苑二区,,,23,24,9,15,88,,93,93,,8,9,8,0.6,0.6
2024-10-13T1900,3377A,103.7444,25.5261,曲靖市,曲靖师范学院,,40,40,24,15,17,72,,92,92,41,12,10,12,0.7,0.5
2024-10-13T1900,1264A,118.8692,28.9398,衢州市,环保大楼,,48,48,55,26,36,78,,102,102,33,29,7,7,0.5,0.5
2024-10-13T1900,1265A,118.8709,28.9666,衢州市,实验学校,,47,47,47,29,34,80,,102,102,28,23,4,5,0.4,0.4
2024-10-13T1900,1266A,118.8621,28.9808,衢州市,衢州学院,,48,48,44,28,28,80,,105,104,32,27,6,7,0.3,0.3
2024-10-13T1900,1611A,118.5819,24.9117,泉州市,涂山街,,46,46,30,21,15,72,,106,104,17,13,3,3,0.5,0.4
2024-10-13T1900,1612A,118.5972,24.8978,泉州市,津头埔,颗粒物(PM10),51,52,35,17,15,72,,103,100,9,8,1,3,0.6,0.5
