timepoint,stationcode,longitude,latitude,area,positionname,primarypollutant,aqi,pm10,pm10_24h,pm2_5,pm2_5_24h,o3,o3_24h,o3_8h,o3_8h_24h,no2,no2_24h,so2,so2_24h,co,co_24h
2024-10-13T1600,2566A,102.1879,31.914,阿坝藏族羌族自治州,州农科所,颗粒物(PM10),51,52,20,7,7,62,,48,48,20,9,11,8,0,0
2024-10-13T1600,2568A,102.2502,31.8896,阿坝藏族羌族自治州,马师校,,23,,15,14,14,71,,53,53,6,8,4,4,0.2,0.2
2024-10-13T1600,3994A,102.2165,31.9024,阿坝藏族羌族自治州,马尔康中学西区,,23,14,20,6,13,73,,52,52,8,8,6,4,0.3,0.4
2024-10-13T1600,2695A,80.292,41.1694,阿克苏地区,电视台,,,71,108,8,39,118,,73,73,,45,15,5,0.3,0.8
2024-10-13T1600,2696A,80.2613,41.1551,阿克苏地区,艺术中心,颗粒物(PM10),52,53,108,23,41,114,,66,66,10,46,4,4,0.7,1.1
2024-10-13T1600,2204A,105.6467,38.8363,阿拉善盟,西城区西花园,,40,25,36,19,22,127,,110,110,6,12,9,8,1.1,1.3
2024-10-13T1600,2205A,105.6985,38.8411,阿拉善盟,蒙二幼,,37,29,29,7,15,118,,105,105,8,13,10,9,0.6,0.8
2024-10-13T1600,2206A,105.724,38.8516,阿拉善盟,环保局新楼,,35,20,24,9,13,112,,107,107,7,8,9,9,0.8,0.9
2024-10-13T1600,2708A,88.1264,47.8517,阿勒泰地区,市站,,15,11,11,3,7,48,,58,48,12,16,8,7,0.4,0.4
2024-10-13T1600,2630A,80.1161,32.5,阿里地区,阿里监测站,,,8,19,,11,121,,84,84,4,18,10,9,0.3,0.5
2024-10-13T1600,3192A,80.0903,32.5028,阿里地区,阿里藏医院,,38,6,15,3,5,120,,86,86,3,11,4,6,0.5,0.6
2024-10-13T1600,2642A,109.0318,32.6537,安康市,香溪洞,,41,41,36,24,24,94,,73,73,5,6,8,8,0.4,0.3
2024-10-13T1600,2643A,109.0281,32.6939,安康市,安康市监测站,,39,38,45,27,29,96,,81,81,10,12,8,12,0.5,0.7
2024-10-13T1600,2644A,109.0072,32.6975,安康市,汉滨区检察院,,40,40,41,26,26,93,,75,75,12,12,8,8,0.5,0.5
2024-10-13T1600,2291A,117.0809,30.5177,安庆市,环科院,细颗粒物(PM2.5),74,86,65,54,53,151,,134,134,19,19,9,10,0.7,0.6
2024-10-13T1600,2292A,117.0331,30.5119,安庆市,马山宾馆,颗粒物(PM10),59,68,61,41,50,141,,135,135,23,21,12,12,0.8,0.7
2024-10-13T1600,2294A,116.9896,30.6145,安庆市,安庆大学,颗粒物(PM10),53,56,68,33,54,127,,109,109,13,14,9,9,0.7,0.7
2024-10-13T1600,3173A,117.0598,30.5351,安庆市,市人大,细颗粒物(PM2.5),60,64,62,43,51,142,,129,129,19,20,10,11,0.7,0.6
2024-10-13T1600,3122A,105.9606,26.2611,安顺市,伍家关,,16,7,20,3,14,51,,57,49,9,7,4,4,0.8,0.7
2024-10-13T1600,3123A,105.9408,26.2431,安顺市,凤凰山,,18,10,23,3,17,56,,69,51,8,7,6,7,0.5,0.5
2024-10-13T1600,3124A,105.9439,26.2564,安顺市,金钟山,,19,6,23,3,16,59,,72,52,7,7,8,9,0.6,0.6
2024-10-13T1600,3125A,105.8983,26.2481,安顺市,娄家坡,,19,8,21,6,19,59,,69,48,9,9,8,7,0.6,0.6
2024-10-13T1600,1818A,114.4839,36.0621,安阳市,棉研所,细颗粒物(PM2.5),108,,185,81,97,192,,121,121,20,61,7,8,0.7,0.7
2024-10-13T1600,1819A,114.3551,36.1017,安阳市,红庙街,细颗粒物(PM2.5),69,76,135,50,79,174,,123,123,15,40,2,4,0.6,0.8
2024-10-13T1600,1820A,114.361,36.0681,安阳市,银杏小区,细颗粒物(PM2.5),82,75,129,60,93,170,,120,120,7,43,3,5,0.6,0.7
2024-10-13T1600,3141A,114.3922,36.0878,安阳市,信访局,细颗粒物(PM2.5),88,96,142,65,92,172,,123,123,10,36,2,4,0.4,0.6
2024-10-13T1600,3669A,114.4705,36.0637,安阳市,左辅环卫站,细颗粒物(PM2.5),80,101,176,59,98,180,,116,116,17,55,3,3,0.6,0.7
2024-10-13T1600,3703A,114.2917,36.0949,安阳市,安钢职工学校,细颗粒物(PM2.5),79,83,140,58,83,164,,117,117,16,44,1,4,0.5,0.6
2024-10-13T1600,1748A,123.044,41.1196,鞍山市,深沟寺,,47,47,77,22,40,122,,120,120,21,23,9,8,0.8,1
2024-10-13T1600,1749A,123.011,41.0931,鞍山市,太阳城,,48,48,85,25,46,124,,126,126,23,26,13,12,0.8,0.9
2024-10-13T1600,1750A,123.0485,41.1442,鞍山市,太平,颗粒物(PM10),51,52,88,27,45,126,,119,119,31,33,13,13,0.9,1.1
2024-10-13T1600,1751A,122.9642,41.0971,鞍山市,铁西三道街,颗粒物(PM10),54,58,135,25,64,121,,125,124,27,55,8,9,0.7,1.3
2024-10-13T1600,1752A,122.9341,41.0833,鞍山市,铁西工业园区,颗粒物(PM10),52,54,121,26,60,129,,120,120,19,53,11,12,0.6,1.1
2024-10-13T1600,1753A,123.022,41.0821,鞍山市,明达新区,颗粒物(PM10),52,54,95,31,52,118,,115,115,20,26,10,9,0.8,1.2
2024-10-13T1600,1754A,123.1289,41.0228,鞍山市,千山,,,,54,,31,,,65,,,14,,9,,0.7
2024-10-13T1600,2195A,107.4212,40.761,巴彦淖尔市,附二中,颗粒物(PM10),65,79,43,33,24,113,,63,63,17,17,6,4,0.7,0.6
2024-10-13T1600,2196A,107.37,40.7372,巴彦淖尔市,市环保大楼,颗粒物(PM10),59,68,42,26,18,115,,64,64,12,12,5,3,0.5,0.5
2024-10-13T1600,1956A,86.1472,41.7538,巴音郭楞蒙古自治州,孔雀公园,颗粒物(PM10),80,109,117,28,26,97,,80,80,6,31,3,4,0.2,0.4
2024-10-13T1600,1957A,86.1972,41.7166,巴音郭楞蒙古自治州,棉纺厂,颗粒物(PM10),82,113,148,32,29,101,,85,85,4,22,1,2,0.2,0.3
2024-10-13T1600,1958A,86.2357,41.7173,巴音郭楞蒙古自治州,经济开发区,颗粒物(PM10),72,93,112,25,29,100,,90,90,2,13,2,2,0.2,0.2
2024-10-13T1600,2914A,106.7677,31.8794,巴中市,苏山坪,,33,14,21,12,15,104,,80,80,8,7,3,3,0.5,0.5
2024-10-13T1600,3182A,106.7656,31.8545,巴中市,丽阳花园,,32,13,23,10,17,100,,77,77,11,15,4,5,0.6,0.6
2024-10-13T1600,3183A,106.7418,31.8654,巴中市,圣泉水务公司,,34,10,21,9,19,106,,76,76,10,16,4,4,0.6,0.6
2024-10-13T1600,3616A,106.7616,31.8344,巴中市,市中心医院,,31,12,23,7,17,98,,77,77,8,13,5,4,0.6,0.6
2024-10-13T1600,2235A,122.7911,45.6077,白城市,洮北区环保局,细颗粒物(PM2.5),88,118,42,65,23,176,,113,113,15,20,9,5,0.9,0.7
2024-10-13T1600,2236A,122.8738,45.5725,白城市,市环保局,颗粒物(PM10),89,127,48,56,22,154,,112,112,19,25,8,5,0.8,0.5
2024-10-13T1600,2231A,126.4219,41.9171,白山市,喜丰,,37,37,80,9,24,91,,78,78,16,39,8,11,0.5,0.7
2024-10-13T1600,2232A,126.4077,41.9419,白山市,环保局,,41,41,67,8,27,92,,74,74,10,31,11,11,0.5,0.8
2024-10-13T1600,2647A,104.1724,36.5446,白银市,第三小学,,35,32,47,22,29,112,,69,69,13,30,12,22,0.8,1.3
2024-10-13T1600,2648A,104.1465,36.5482,白银市,动力公司,,38,38,41,18,24,113,,73,73,11,23,9,8,0.6,1.1
2024-10-13T1600,2512A,106.6103,23.9011,百色市,市监测站,细颗粒物(PM2.5),68,72,77,49,51,126,,111,111,11,21,10,17,1.0,1.1
2024-10-13T1600,2513A,106.6538,23.8859,百色市,市中心血站,细颗粒物(PM2.5),77,88,83,56,51,143,,112,112,11,19,11,17,0.9,0.9
2024-10-13T1600,3406A,106.6085,23.8798,百色市,祈福高中,颗粒物(PM10),70,90,85,49,48,130,,108,108,19,26,10,12,1.1,1
2024-10-13T1600,2270A,117.396,32.939,蚌埠市,工人疗养院,颗粒物(PM10),64,78,89,42,49,101,,97,97,14,20,5,7,0.6,0.6
2024-10-13T1600,2271A,117.3605,32.9427,蚌埠市,百货大楼,颗粒物(PM10),62,74,85,38,49,104,,90,88,12,18,5,6,0.5,0.5
2024-10-13T1600,2273A,117.4185,32.8911,蚌埠市,蚌埠学院,细颗粒物(PM2.5),53,51,65,37,50,102,,93,92,8,14,6,6,0.6,0.5
2024-10-13T1600,2274A,117.3533,32.9673,蚌埠市,淮上区政府,细颗粒物(PM2.5),70,63,79,51,55,103,,99,90,16,15,6,7,0.7,0.6
2024-10-13T1600,2275A,117.3145,32.8977,蚌埠市,高新区,细颗粒物(PM2.5),69,66,70,50,52,100,,97,92,23,21,7,7,0.6,0.6
2024-10-13T1600,3715A,117.3092,32.9314,蚌埠市,蚌埠田家炳中学,颗粒物(PM10),65,79,83,45,49,109,,101,97,15,15,7,7,0.5,0.5
2024-10-13T1600,1585A,109.8756,40.6532,包头市,市环境监测站,,33,,33,23,19,92,,99,79,19,24,7,8,0.7,0.7
2024-10-13T1600,1587A,109.9991,40.5842,包头市,包头八中,,29,21,40,15,24,90,,87,79,15,23,2,5,0.7,0.7
2024-10-13T1600,1588A,109.8538,40.6821,包头市,青山宾馆,,30,26,27,21,22,86,,96,80,20,21,9,9,0.9,0.8
2024-10-13T1600,1589A,109.8642,40.6288,包头市,惠龙物流,,29,,37,14,17,91,,93,84,17,20,6,7,0.8,0.8
2024-10-13T1600,1590A,110.0377,40.5546,包头市,东河鸿龙湾,,30,18,36,10,17,95,,87,82,11,18,6,9,0.6,0.6
2024-10-13T1600,3283A,109.9154,40.5685,包头市,滨河大厦,,30,17,35,14,19,96,,89,85,14,25,8,9,0.6,0.6
2024-10-13T1600,3419A,109.9447,40.6261,包头市,包头市委党校,,30,26,38,14,19,95,,94,84,22,25,5,10,0.5,0.6
2024-10-13T1600,3683A,109.8331,40.6576,包头市,昆区政府,,33,23,33,23,23,85,,95,80,21,20,8,7,0.6,0.5
2024-10-13T1600,1930A,107.185,34.3063,宝鸡市,庙沟村,,42,40,75,29,45,118,,76,76,12,22,8,8,0.6,0.7
2024-10-13T1600,1931A,107.0708,34.3017,宝鸡市,竹园沟,细颗粒物(PM2.5),63,53,77,45,64,138,,81,81,19,23,8,7,0.6,0.6
2024-10-13T1600,1932A,107.1906,34.3672,宝鸡市,三陆医院,细颗粒物(PM2.5),52,36,88,36,70,123,,80,80,19,40,6,7,0.6,0.8
2024-10-13T1600,1933A,107.1431,34.3547,宝鸡市,监测站,颗粒物(PM10),54,57,90,28,71,119,,79,79,17,28,8,8,0.7,0.8
2024-10-13T1600,1934A,107.1186,34.3739,宝鸡市,技工学校,,39,39,85,26,73,115,,80,80,21,28,7,8,0.6,0.8
2024-10-13T1600,1935A,107.3906,34.3528,宝鸡市,陈仓区环保局家属楼,,45,35,123,31,115,128,,86,86,14,43,9,10,0.5,0.8
2024-10-13T1600,1936A,107.2058,34.3497,宝鸡市,文理学院,,45,39,85,31,57,122,,82,82,14,28,8,9,0.6,0.8
2024-10-13T1600,1937A,107.2386,34.3622,宝鸡市,三迪小学,,50,49,92,35,75,120,,80,80,23,44,8,8,0.6,0.8
2024-10-13T1600,1051A,115.493,38.8632,保定市,游泳馆,细颗粒物(PM2.5),150,129,167,115,139,67,,60,60,25,36,3,5,0.9,0.8
2024-10-13T1600,1052A,115.5213,38.8959,保定市,华电二区,细颗粒物(PM2.5),133,129,179,101,143,61,,54,54,28,46,5,6,1.1,0.9
2024-10-13T1600,1053A,115.4713,38.9108,保定市,接待中心,细颗粒物(PM2.5),143,128,177,109,135,69,,58,58,23,39,2,4,1.0,0.9
2024-10-13T1600,1054A,115.4612,38.8416,保定市,地表水厂,细颗粒物(PM2.5),133,156,175,101,129,66,,63,60,26,34,2,5,0.8,0.7
2024-10-13T1600,3581A,115.31981,38.95208,保定市,满城区生态环境分局,细颗粒物(PM2.5),100,97,164,75,101,88,,76,76,22,39,3,5,1.0,0.9
2024-10-13T1600,3582A,115.47694,38.76408,保定市,清苑区第二中学,细颗粒物(PM2.5),130,153,175,99,126,65,,64,64,37,47,6,10,0.8,0.8
2024-10-13T1600,3583A,115.62909,39.02311,保定市,徐水物探局,细颗粒物(PM2.5),140,,155,107,135,55,,53,53,28,48,6,8,0.8,0.7
2024-10-13T1600,4004A,115.4202,38.8656,保定市,双鹰农机,细颗粒物(PM2.5),114,133,173,86,118,84,,74,74,28,38,2,4,0.9,0.8
2024-10-13T1600,4034A,115.5150,38.8590,保定市,植保所站,细颗粒物(PM2.5),137,127,175,104,138,65,,56,56,34,48,10,12,1.0,0.8
2024-10-13T1600,2594A,99.1678,25.1081,保山市,市环境监测站,,25,25,29,11,19,77,,52,52,4,8,4,4,0.4,0.4
2024-10-13T1600,2595A,99.1711,25.1328,保山市,市环保局,,34,34,30,19,14,81,,58,58,3,6,4,4,0.4,0.4
2024-10-13T1600,1866A,109.2262,21.588,北海市,牛尾岭水库,,,37,32,35,23,154,,142,142,,,7,10,0.8,0.8
2024-10-13T1600,1867A,109.1436,21.4086,北海市,海滩公园,臭氧1小时,62,50,43,20,22,169,,145,145,5,8,8,10,0.8,0.9
2024-10-13T1600,1868A,109.0981,21.4661,北海市,新市环保局,,43,29,39,14,23,135,,144,144,7,9,5,7,0.6,0.7
2024-10-13T1600,1869A,109.1778,21.5233,北海市,北海工业园,,50,33,47,20,28,158,,146,146,7,11,7,12,0.7,0.7
2024-10-13T1600,3400A,109.1911,21.4415,北海市,龙潭自来水厂,,50,39,41,23,29,158,,142,142,6,8,8,11,0.6,0.6
2024-10-13T1600,1001A,116.3621,39.8784,北京市,万寿西宫,细颗粒物(PM2.5),132,150,146,100,94,50,,66,64,28,26,2,4,1.9,1.3
2024-10-13T1600,1002A,116.2202,40.2915,北京市,定陵,细颗粒物(PM2.5),138,116,115,105,91,72,,69,69,16,14,1,2,1.2,1
2024-10-13T1600,1003A,116.4174,39.9289,北京市,东四,细颗粒物(PM2.5),134,152,145,102,96,55,,66,66,38,33,4,6,1.8,1.3
2024-10-13T1600,1004A,116.4072,39.8863,北京市,天坛,细颗粒物(PM2.5),123,136,130,93,92,42,,64,62,32,32,3,3,1.8,1.2
2024-10-13T1600,1005A,116.462,39.9365,北京市,农展馆,细颗粒物(PM2.5),132,153,140,100,91,44,,54,54,35,35,1,3,1.8,1.2
2024-10-13T1600,1006A,116.3392,39.9295,北京市,官园,细颗粒物(PM2.5),123,145,141,93,91,56,,67,67,31,26,3,3,1.6,1.1
2024-10-13T1600,1007A,116.2878,39.9611,北京市,海淀万柳,细颗粒物(PM2.5),129,139,137,98,91,54,,63,63,35,47,3,4,1.5,1.1
2024-10-13T1600,1008A,116.6636,40.135,北京市,顺义新城,细颗粒物(PM2.5),98,114,139,73,91,71,,60,60,37,32,2,3,1.1,1.1
2024-10-13T1600,1009A,116.6275,40.3275,北京市,怀柔镇,细颗粒物(PM2.5),87,85,107,64,74,88,,73,73,23,25,1,2,1.1,1.2
2024-10-13T1600,1010A,116.2296,40.217,北京市,昌平镇,细颗粒物(PM2.5),99,121,152,74,83,52,,73,73,30,23,3,4,1.4,1.1
2024-10-13T1600,1011A,116.3966,39.9821,北京市,奥体中心,细颗粒物(PM2.5),133,150,139,101,90,51,,62,62,36,40,3,4,1.8,1.3
2024-10-13T1600,1012A,116.184,39.9136,北京市,古城,细颗粒物(PM2.5),160,195,186,122,107,56,,68,68,35,59,3,4,1.7,1.4
2024-10-13T1600,3281A,115.9718,40.4529,北京市,延庆夏都,细颗粒物(PM2.5),89,86,127,66,88,107,,100,100,13,18,3,2,0.8,0.9
2024-10-13T1600,3417A,117.0709,40.1465,北京市,平谷新城,细颗粒物(PM2.5),127,133,127,96,87,118,,93,93,18,17,1,3,1.1,1.1
2024-10-13T1600,3418A,116.8336,40.4095,北京市,密云新城,细颗粒物(PM2.5),83,97,122,61,67,106,,88,88,14,25,2,3,1.0,1
2024-10-13T1600,3671A,116.088,39.9726,北京市,门头沟三家店,细颗粒物(PM2.5),109,101,118,82,91,56,,65,65,27,38,3,3,1.2,0.8
2024-10-13T1600,3672A,116.1541,39.8204,北京市,丰台云岗,细颗粒物(PM2.5),140,140,154,107,109,34,,48,48,24,46,3,4,1.4,1
2024-10-13T1600,3673A,116.6804,39.9081,北京市,通州东关,细颗粒物(PM2.5),124,158,137,94,83,66,,64,64,24,22,3,3,1.7,1.4
2024-10-13T1600,3674A,115.9577,39.7603,北京市,房山燕山,细颗粒物(PM2.5),123,126,125,93,87,53,,78,78,33,20,3,3,1.3,0.8
2024-10-13T1600,3675A,116.4672,39.7733,北京市,大兴旧宫,细颗粒物(PM2.5),125,143,134,95,90,47,,68,60,29,24,3,2,1.8,1.2
2024-10-13T1600,3694A,115.986,40.4563,北京市,延庆石河营,细颗粒物(PM2.5),93,78,110,69,77,98,,92,92,9,17,3,3,0.8,0.8
2024-10-13T1600,3695A,116.6151,40.3053,北京市,怀柔新城,细颗粒物(PM2.5),90,93,109,67,72,78,,71,71,22,17,3,3,1.1,1.1
2024-10-13T1600,3696A,116.2545,39.8768,北京市,丰台小屯,细颗粒物(PM2.5),133,144,139,101,89,32,,56,55,29,45,1,1,1.8,1.4
2024-10-13T1600,3697A,116.84,40.3844,北京市,密云镇,细颗粒物(PM2.5),93,93,118,69,76,100,,70,70,14,45,5,5,0.9,1
2024-10-13T1600,1761A,123.8275,41.3064,本溪市,大峪,,37,33,67,17,33,117,,89,89,22,35,12,11,0.9,1.2
2024-10-13T1600,1762A,123.7567,41.3325,本溪市,溪湖,,48,48,112,23,52,101,,82,82,38,45,21,13,2.0,1.8
2024-10-13T1600,1763A,123.7169,41.3094,本溪市,彩屯,细颗粒物(PM2.5),54,54,104,38,67,109,,84,84,33,50,18,15,2.5,2.3
2024-10-13T1600,1764A,123.7669,41.2864,本溪市,东明,,48,48,84,20,39,128,,90,90,17,51,8,7,0.6,1.3
2024-10-13T1600,1765A,123.7992,41.2664,本溪市,新立屯,,47,47,43,14,19,129,,110,110,17,46,7,6,0.6,0.8
2024-10-13T1600,1766A,123.8142,41.3472,本溪市,威宁,颗粒物(PM10),55,59,95,14,42,108,,87,87,29,44,10,9,0.6,1.1
2024-10-13T1600,2587A,105.2864,27.3125,毕节市,八中,,20,11,12,8,6,64,,54,54,10,11,6,6,0.7,0.6
2024-10-13T1600,2588A,105.31,27.2944,毕节市,师专,,21,11,10,10,8,65,,58,58,9,8,8,7,0.7,0.6
2024-10-13T1600,3537A,105.3631,27.3533,毕节市,长征村,,23,10,6,6,4,72,,68,68,5,6,7,7,0.7,0.6
2024-10-13T1600,1629A,118.0018,37.3617,滨州市,第二水厂,颗粒物(PM10),85,119,129,56,78,185,,126,126,18,29,10,10,0.4,0.6
2024-10-13T1600,1630A,117.9776,37.393,滨州市,北中新校,颗粒物(PM10),82,114,130,53,72,182,,127,127,19,33,11,13,0.8,1
2024-10-13T1600,3514A,117.9378,37.3956,滨州市,中海酒店,臭氧1小时,82,97,111,53,67,185,,138,138,20,32,8,10,0.7,0.9
2024-10-13T1600,3515A,117.9378,37.3553,滨州市,开发区一中,细颗粒物(PM2.5),79,100,117,58,71,179,,128,128,16,31,11,16,0.2,0.5
2024-10-13T1600,3516A,118.0917,37.694,滨州市,金海六路,细颗粒物(PM2.5),83,107,117,61,72,179,,125,125,24,23,7,10,0.6,0.7
2024-10-13T1600,4028A,117.9956,37.3753,滨州市,滨州市西街道办事处,臭氧1小时,93,105,115,63,84,194,,130,130,17,28,12,12,0.8,1
2024-10-13T1600,2311A,115.8072,33.8399,亳州市,污水处理厂,细颗粒物(PM2.5),70,76,110,51,68,133,,103,103,12,20,7,13,0.2,0.3
2024-10-13T1600,2312A,115.7789,33.8518,亳州市,三国揽胜宫,细颗粒物(PM2.5),59,60,103,42,69,130,,100,100,10,17,6,8,0.5,0.6
2024-10-13T1600,3332A,115.7633,33.8034,亳州市,亳州学院,颗粒物(PM10),72,94,118,39,59,128,,104,104,18,20,4,6,0.6,0.6
2024-10-13T1600,2693A,82.0485,44.8556,博尔塔拉蒙古自治州,市党校,,26,24,34,11,17,81,,48,48,6,11,6,6,0.2,0.2
2024-10-13T1600,2694A,82.0806,44.8969,博尔塔拉蒙古自治州,市环保局,,33,33,42,8,13,76,,46,46,9,19,6,6,0.3,0.3
2024-10-13T1600,1071A,116.8842,38.2991,沧州市,沧县城建局,细颗粒物(PM2.5),89,110,123,66,81,126,,91,91,25,35,3,5,0.6,0.6
2024-10-13T1600,1072A,116.8584,38.3254,沧州市,电视转播站,细颗粒物(PM2.5),104,87,115,78,89,135,,105,105,20,30,3,6,0.5,0.6
2024-10-13T1600,1073A,116.8709,38.3228,沧州市,市环保局,细颗粒物(PM2.5),110,109,133,83,89,128,,96,96,18,28,7,10,0.6,0.7
2024-10-13T1600,3324A,116.8136,38.3004,沧州市,河北水利电力学院,细颗粒物(PM2.5),95,105,119,71,89,128,,98,98,22,26,7,10,0.5,0.6
2024-10-13T1600,2622A,97.1806,31.1273,昌都市,昌都监测站,,30,6,7,3,6,95,,58,58,3,8,7,8,0.3,0.3
2024-10-13T1600,3719A,97.1714,31.1406,昌都市,昌都会议中心,,32,10,8,3,5,101,,60,60,5,5,8,8,0.4,0.4
2024-10-13T1600,2690A,88.1236,43.8886,昌吉回族自治州,天山天池,,23,11,12,7,3,73,,64,64,15,4,9,8,0.7,0.5
2024-10-13T1600,2692A,87.2717,44.0297,昌吉回族自治州,新区政务中心,,30,24,37,12,14,95,,69,69,8,17,7,6,0.7,0.7
2024-10-13T1600,3613A,87.3095,44.0142,昌吉回族自治州,亚心广场,,31,19,42,7,8,99,,70,70,11,22,6,5,0.6,0.7
2024-10-13T1600,1119A,125.3325,43.9166,长春市,食品厂,,45,45,84,28,47,134,,115,115,27,49,8,8,0.4,0.8
2024-10-13T1600,1120A,125.2863,43.9027,长春市,客车厂,颗粒物(PM10),51,52,79,30,45,129,,114,114,25,48,9,9,0.5,0.9
2024-10-13T1600,1121A,125.2841,43.8463,长春市,邮电学院,,46,45,61,23,34,146,,123,123,19,37,9,8,0.4,0.6
2024-10-13T1600,1122A,125.3716,43.8772,长春市,劳动公园,颗粒物(PM10),54,58,96,19,50,152,,129,129,20,43,9,8,0.6,1.1
2024-10-13T1600,1123A,125.3297,43.8805,长春市,园林处,,46,42,76,24,38,145,,123,123,19,41,8,8,0.5,0.8
2024-10-13T1600,1124A,125.4605,43.79,长春市,净月潭,,44,37,39,17,22,140,,134,134,11,18,8,7,0.3,0.4
2024-10-13T1600,1125A,125.7194,43.515,长春市,甩湾子,,31,31,43,8,30,94,,98,98,7,20,6,7,0.5,0.7
2024-10-13T1600,1126A,125.3863,43.8447,长春市,经开区环卫处,颗粒物(PM10),55,59,65,21,28,135,,123,123,20,37,11,10,0.6,0.7
2024-10-13T1600,1127A,125.245,43.7783,长春市,高新区管委会,,47,37,62,19,36,148,,137,137,14,33,9,9,0.6,0.7
2024-10-13T1600,1128A,125.1761,43.8325,长春市,岱山公园,,45,45,56,22,35,132,,130,130,25,44,8,8,0.5,0.7
2024-10-13T1600,1335A,113.0833,28.2325,长沙市,经开区环保局,细颗粒物(PM2.5),176,150,178,133,168,139,,90,90,25,29,4,6,0.8,0.8
2024-10-13T1600,1336A,112.8872,28.2189,长沙市,高开区环保局,细颗粒物(PM2.5),206,,183,156,174,131,,87,87,14,19,6,8,1.0,1
2024-10-13T1600,1337A,113.0792,28.2053,长沙市,马坡岭,细颗粒物(PM2.5),190,146,178,143,171,,,55,,15,22,6,9,0.7,0.8
2024-10-13T1600,1338A,112.9394,28.19,长沙市,湖南师范大学,细颗粒物(PM2.5),144,155,193,110,153,153,,102,102,13,18,5,7,0.8,0.9
2024-10-13T1600,1339A,113.0178,28.1322,长沙市,雨花区环保局,细颗粒物(PM2.5),178,146,172,134,152,153,,100,100,18,22,7,10,1.1,1.2
2024-10-13T1600,1340A,112.9792,28.2597,长沙市,伍家岭,细颗粒物(PM2.5),176,,198,133,175,124,,82,82,15,21,4,7,1.0,1.1
2024-10-13T1600,1341A,113.0014,28.1944,长沙市,火车新站,细颗粒物(PM2.5),156,140,182,119,153,136,,92,92,15,22,6,9,0.9,1.1
2024-10-13T1600,1342A,112.9844,28.1178,长沙市,天心区环保局,细颗粒物(PM2.5),159,168,199,121,142,157,,94,94,21,25,9,9,1.1,1.1
2024-10-13T1600,1343A,112.8908,28.1308,长沙市,湖南中医药大学,细颗粒物(PM2.5),211,,192,161,223,162,,100,100,14,19,8,9,1.1,1.3
2024-10-13T1600,1344A,112.9581,28.3611,长沙市,沙坪,细颗粒物(PM2.5),118,161,177,89,120,113,,74,74,12,17,9,11,1.1,1.1
2024-10-13T1600,1727A,113.1147,36.1547,长治市,清华站,细颗粒物(PM2.5),67,63,80,48,64,151,,137,137,16,18,7,8,0.9,0.9
2024-10-13T1600,1728A,113.1031,36.1989,长治市,监测站,细颗粒物(PM2.5),73,62,78,53,62,152,,133,133,19,23,10,11,0.9,1.1
2024-10-13T1600,1730A,113.0886,36.2125,长治市,审计局,细颗粒物(PM2.5),73,66,80,53,71,145,,130,130,21,21,6,8,0.5,0.6
2024-10-13T1600,1731A,113.0844,36.1856,长治市,长治八中,颗粒物(PM10),61,72,100,43,58,156,,137,137,17,21,7,8,0.8,0.9
2024-10-13T1600,2845A,113.1569,36.1911,长治市,德盛苑,细颗粒物(PM2.5),77,71,69,56,56,156,,144,144,16,16,4,6,0.6,0.9
2024-10-13T1600,3568A,113.06,36.0464,长治市,向阳小学,细颗粒物(PM2.5),90,84,97,67,73,159,,140,140,21,24,9,10,0.5,0.6
2024-10-13T1600,3569A,112.8792,36.3144,长治市,屯留一中,细颗粒物(PM2.5),83,74,87,61,72,158,,103,103,13,31,10,12,0.9,1
2024-10-13T1600,3570A,113.235,36.3489,长治市,潞城四中,细颗粒物(PM2.5),97,94,98,72,74,130,,111,111,27,34,6,6,0.9,0.9
2024-10-13T1600,1854A,111.6975,28.9703,常德市,市二中,细颗粒物(PM2.5),52,42,65,36,46,88,,82,82,14,15,3,5,0.7,0.7
2024-10-13T1600,1857A,111.7158,29.1456,常德市,白鹤山,,,,,,,,,,,,,,,,
2024-10-13T1600,3138A,111.7153,29.0289,常德市,武陵区永安,细颗粒物(PM2.5),54,40,65,38,44,93,,88,85,18,14,3,5,0.6,0.5
2024-10-13T1600,3139A,111.6892,28.9881,常德市,鼎城区玉霞,,42,39,70,29,42,102,,86,86,12,15,4,6,0.7,0.7
2024-10-13T1600,3140A,111.6625,29.0531,常德市,武陵区长庚,,46,35,67,32,43,95,,88,80,15,15,3,4,0.6,0.6
2024-10-13T1600,1196A,119.9633,31.762,常州市,市监测站,,35,23,56,15,28,109,,79,79,22,27,8,9,0.6,0.7
2024-10-13T1600,1200A,119.9468,31.7069,常州市,武进监测站,,37,26,53,11,24,116,,87,87,10,19,9,11,0.5,0.6
2024-10-13T1600,1201A,119.9255,31.9087,常州市,安家,,30,24,61,14,32,96,,71,71,22,32,6,7,0.4,0.6
2024-10-13T1600,3002A,119.9805,31.8174,常州市,行政中心,,34,23,55,12,25,108,,77,77,20,24,7,7,0.2,0.2
2024-10-13T1600,3003A,120.0522,31.7748,常州市,经开区,,35,20,47,11,28,112,,78,78,19,26,8,9,0.2,0.3
2024-10-13T1600,3010A,119.9025,31.7964,常州市,钟楼,,33,24,47,17,27,105,,82,82,23,24,9,10,0.5,0.7
2024-10-13T1600,3429A,119.8598,31.7066,常州市,武进经发区,,37,17,40,7,18,117,,88,88,15,21,6,7,0.6,0.7
2024-10-13T1600,3430A,119.5826,31.7245,常州市,金坛城区,,43,16,32,7,19,136,,101,101,12,20,9,9,0.6,0.8
2024-10-13T1600,2220A,120.4318,41.5881,朝阳市,西梁,,49,49,67,14,38,104,,92,92,10,30,8,8,0.5,0.9
2024-10-13T1600,2221A,120.4521,41.5646,朝阳市,河畔小区,,42,42,62,26,35,112,,101,101,9,28,10,11,0.7,1
2024-10-13T1600,2222A,120.4176,41.5648,朝阳市,八里堡,颗粒物(PM10),52,53,65,22,31,109,,97,97,12,33,10,10,0.7,1
2024-10-13T1600,2223A,120.3806,41.5969,朝阳市,农业园区,,40,40,60,17,40,95,,84,84,21,33,9,9,0.6,1
2024-10-13T1600,1705A,116.6367,23.6719,潮州市,西园路,,37,26,41,23,31,117,,98,98,12,13,5,4,0.4,0.4
2024-10-13T1600,3026A,116.6183,23.6608,潮州市,市政府,,44,44,45,15,23,122,,105,105,13,12,6,6,0.5,0.6
2024-10-13T1600,4036A,116.6461,23.6761,潮州市,金山,,40,40,43,18,29,127,,105,105,8,11,9,8,0.5,0.6
2024-10-13T1600,2472A,113.0073,25.9061,郴州市,马头岭,颗粒物(PM10),57,63,72,32,38,151,,121,121,9,24,15,22,0.1,0.3
2024-10-13T1600,2473A,113.0116,25.8226,郴州市,市职中,臭氧1小时,78,44,61,44,50,182,,133,133,14,23,19,15,0.6,0.7
2024-10-13T1600,2474A,113.0161,25.8001,郴州市,兴隆步行街,臭氧1小时,79,62,71,38,48,183,,137,137,13,28,18,14,0.5,0.6
2024-10-13T1600,2475A,113.0383,25.8071,郴州市,市审计局,臭氧1小时,75,67,62,51,50,180,,127,127,9,20,17,11,0.7,0.7
2024-10-13T1600,2476A,113.0348,25.7759,郴州市,市环保局,臭氧1小时,70,63,68,39,45,176,,122,122,12,30,21,13,0.7,0.7
2024-10-13T1600,1431A,103.9728,30.7236,成都市,金泉两河,颗粒物(PM10),54,58,47,30,26,104,,60,60,16,26,3,3,0.5,0.6
2024-10-13T1600,1432A,104.176,30.6872,成都市,十里店,细颗粒物(PM2.5),64,53,40,46,29,91,,49,49,19,31,1,2,0.7,0.7
2024-10-13T1600,1433A,104.079,30.5706,成都市,三瓦窑,细颗粒物(PM2.5),54,48,39,38,31,92,,52,52,22,30,3,3,0.6,0.6
2024-10-13T1600,1434A,104.1114,30.63,成都市,沙河铺,,45,45,48,19,30,86,,51,51,22,26,3,2,0.5,0.5
2024-10-13T1600,1437A,104.0786,30.6531,成都市,君平街,,50,50,50,33,32,106,,54,54,18,40,2,2,0.6,0.6
2024-10-13T1600,1438A,103.613,31.0283,成都市,灵岩寺,,,,,,,,,,,,,,,,
2024-10-13T1600,2880A,104.0239,30.65639,成都市,大石西路,,44,44,51,30,34,99,,53,53,16,31,4,4,0.6,0.7
2024-10-13T1600,3136A,104.2725,30.5589,成都市,龙泉驿区区政府,,25,22,26,17,21,78,,64,64,13,16,2,2,0.6,0.5
2024-10-13T1600,3357A,104.0106,30.6931,成都市,金博路,,49,40,44,34,28,89,,43,43,20,32,2,2,0.7,0.8
2024-10-13T1600,3359A,104.0578,30.5225,成都市,华阳,,41,41,39,24,28,104,,63,63,11,21,4,3,0.7,0.8
2024-10-13T1600,3487A,104.2394,30.5319,成都市,车城东七路,,38,36,37,26,29,94,,69,69,11,18,1,1,0.6,0.6
2024-10-13T1600,3488A,104.3853,30.7453,成都市,青白江技师分院,,33,33,30,14,20,96,,73,73,10,19,3,3,0.6,0.6
2024-10-13T1600,3489A,104.0789,30.4072,成都市,科学城,,39,30,36,27,31,94,,63,63,11,16,3,3,0.6,0.6
2024-10-13T1600,4011A,103.8506,30.6947,成都市,光华大道三段,细颗粒物(PM2.5),63,58,50,45,32,111,,71,71,8,18,3,2,0.7,0.7
2024-10-13T1600,1062A,117.9531,40.9081,承德市,铁路,颗粒物(PM10),70,90,106,50,68,85,,37,37,46,46,3,4,0.8,0.9
2024-10-13T1600,1063A,117.9392,40.9763,承德市,中国银行,细颗粒物(PM2.5),85,98,92,63,54,100,,54,54,33,38,2,2,0.9,0.8
2024-10-13T1600,1064A,117.9503,40.928,承德市,开发区,细颗粒物(PM2.5),77,101,109,56,58,93,,52,52,43,46,6,5,0.9,1
2024-10-13T1600,1065A,117.8051,40.9655,承德市,文化中心,细颗粒物(PM2.5),80,93,121,59,63,115,,53,53,21,48,2,2,0.9,0.9
2024-10-13T1600,1066A,117.9268,41.0026,承德市,离宫,细颗粒物(PM2.5),99,119,103,74,65,89,,64,64,18,23,5,4,0.9,0.8
2024-10-13T1600,2314A,117.47,30.6618,池州市,池州学院,细颗粒物(PM2.5),58,60,63,41,44,143,,98,98,16,20,11,9,0.6,0.7
2024-10-13T1600,3237A,117.4918,30.6617,池州市,展览馆,颗粒物(PM10),56,62,71,39,45,140,,94,94,15,19,11,7,0.6,0.7
2024-10-13T1600,3333A,117.5627,30.695,池州市,第八中学,"颗粒物(PM10),细颗粒物(PM2.5)",58,65,66,41,42,123,,86,86,28,21,11,6,0.7,0.8
2024-10-13T1600,3334A,117.5038,30.6243,池州市,第十二中学,细颗粒物(PM2.5),60,62,67,43,49,133,,96,96,20,21,9,5,0.8,0.8
2024-10-13T1600,1744A,118.9233,42.2816,赤峰市,松山一中,颗粒物(PM10),57,64,130,31,75,131,,117,117,23,51,12,13,0.7,1.3
2024-10-13T1600,1745A,118.9576,42.2728,赤峰市,哈达街,颗粒物(PM10),58,66,113,35,67,146,,128,128,16,31,10,11,0.7,1.1
2024-10-13T1600,1746A,118.8788,42.2554,赤峰市,天义路,,50,50,134,35,90,148,,140,140,19,36,8,10,0.4,0.7
2024-10-13T1600,3058A,119.2658,42.0353,赤峰市,银河街,细颗粒物(PM2.5),72,83,116,52,60,139,,131,131,18,26,14,24,0.7,1
2024-10-13T1600,3286A,118.9359,42.3147,赤峰市,桥北物流园区,细颗粒物(PM2.5),57,49,114,40,68,143,,120,120,28,64,13,17,0.9,1.4
2024-10-13T1600,2521A,107.3476,22.4136,崇左市,市环保局江州分局,,38,38,59,22,36,119,,117,117,5,13,3,5,0.6,0.7
2024-10-13T1600,2522A,107.3702,22.3707,崇左市,城南新区,,37,28,41,22,29,118,,110,110,4,9,4,4,0.7,0.7
2024-10-13T1600,2298A,118.3093,32.3153,滁州市,老年大学,,39,35,60,27,49,95,,77,74,16,21,4,3,0.4,0.5
2024-10-13T1600,2299A,118.3244,32.2786,滁州市,人大宾馆,,45,45,74,31,50,96,,76,76,20,24,6,8,0.4,0.5
2024-10-13T1600,3207A,118.3118,32.3038,滁州市,市政府原办公楼,细颗粒物(PM2.5),55,,62,39,53,96,,74,74,16,23,6,6,0.4,0.5
2024-10-13T1600,3331A,118.3267,32.2634,滁州市,图书馆,,31,31,62,20,40,98,,76,76,17,24,5,6,0.5,0.5
2024-10-13T1600,2605A,101.5482,25.0441,楚雄彝族自治州,州环境监测站,,25,13,15,10,14,77,,68,68,4,4,7,8,0.4,0.5
2024-10-13T1600,2606A,101.538,25.0492,楚雄彝族自治州,市经济开发区,,24,,19,12,16,76,,65,65,4,6,6,6,0.5,0.5
2024-10-13T1600,2548A,107.5277,31.2827,达州市,达州职业技术学院,,31,25,31,16,17,99,,66,66,13,26,5,5,0.8,0.7
2024-10-13T1600,2549A,107.5086,31.2186,达州市,市环境监测站,,47,47,35,19,15,90,,61,61,32,25,11,7,1.3,0.7
2024-10-13T1600,2550A,107.4988,31.2132,达州市,凤凰小区,,41,41,28,24,17,94,,65,65,28,23,13,8,1.3,0.7
2024-10-13T1600,2551A,107.5082,31.1986,达州市,达县机关宾馆,,44,44,35,18,23,96,,65,65,29,31,11,6,1.3,0.7
2024-10-13T1600,2552A,107.4644,31.2124,达州市,市政中心,,31,31,37,17,18,99,,58,58,23,28,8,7,0.9,0.8
2024-10-13T1600,2614A,100.1542,25.7054,大理白族自治州,大理市环境监测站,,26,26,28,18,19,80,,74,74,8,9,6,7,0.6,0.6
2024-10-13T1600,2615A,100.2171,25.5811,大理白族自治州,大理古城,,37,37,29,16,17,100,,81,81,9,12,7,7,0.7,0.6
2024-10-13T1600,1109A,121.612,38.9741,大连市,甘井子,,42,38,66,14,31,134,,121,121,12,23,8,9,0.7,0.9
2024-10-13T1600,1110A,121.565,38.9511,大连市,周水子,,40,40,79,19,45,119,,104,104,20,40,9,10,0.6,0.8
2024-10-13T1600,1111A,121.5637,38.8845,大连市,星海三站,,41,32,59,14,26,130,,122,122,8,19,8,8,0.3,0.5
2024-10-13T1600,1112A,121.6302,38.9117,大连市,青泥洼桥,,39,33,67,16,32,123,,112,112,9,22,8,7,0.6,0.7
2024-10-13T1600,1113A,121.6251,38.8638,大连市,傅家庄,,38,28,44,16,23,119,,114,114,8,11,8,9,0.6,0.7
2024-10-13T1600,1114A,121.5213,38.8661,大连市,七贤岭,,42,38,73,16,35,133,,116,116,11,24,8,7,0.5,0.6
2024-10-13T1600,1115A,121.2529,38.8061,大连市,旅顺,,45,24,44,17,22,142,,138,138,12,17,6,7,0.3,0.4
2024-10-13T1600,1116A,121.7485,39.1311,大连市,金州,,41,25,53,14,31,131,,105,105,8,17,7,7,0.6,0.8
2024-10-13T1600,1117A,121.7811,39.0496,大连市,开发区,,48,48,95,15,43,118,,91,91,13,36,6,7,0.3,0.6
2024-10-13T1600,1118A,121.9762,39.0631,大连市,双D港,,40,17,34,9,25,126,,110,110,9,15,6,7,0.6,0.7
2024-10-13T1600,1789A,124.81117,46.03138,大庆市,大同区,颗粒物(PM10),86,122,65,57,34,144,,97,97,20,26,7,4,0.8,0.6
2024-10-13T1600,1790A,125.129,46.533,大庆市,龙凤区,细颗粒物(PM2.5),77,98,56,56,26,137,,90,90,45,45,7,5,0.8,0.5
2024-10-13T1600,1791A,124.902,46.408,大庆市,红岗区,颗粒物(PM10),68,85,44,47,21,150,,102,102,22,21,10,7,0.8,0.4
2024-10-13T1600,1792A,125.153,46.586,大庆市,萨尔图区,颗粒物(PM10),82,113,57,55,27,140,,90,90,23,33,9,8,0.6,0.4
2024-10-13T1600,1793A,124.9042,46.6215,大庆市,让胡路区,颗粒物(PM10),74,97,47,45,27,153,,94,94,16,30,9,8,0.7,0.6
2024-10-13T1600,3481A,125.141,46.634,大庆市,萨区政府监测点,细颗粒物(PM2.5),79,101,42,58,28,159,,96,96,19,28,10,8,0.8,0.4
2024-10-13T1600,1721A,113.3819,40.1097,大同市,果树场,,43,,73,30,48,88,,100,97,15,21,7,8,0.7,0.8
2024-10-13T1600,1723A,113.2994,40.0758,大同市,云冈宾馆,,49,46,87,34,50,90,,113,99,31,30,7,9,0.6,1
2024-10-13T1600,1724A,113.3444,40.0917,大同市,大同大学,,48,,67,33,43,95,,112,103,22,22,11,13,0.6,0.6
2024-10-13T1600,1725A,113.2661,40.1269,大同市,安家小村,细颗粒物(PM2.5),53,,75,37,44,90,,119,104,26,23,11,13,0.5,0.6
2024-10-13T1600,1726A,113.2711,40.0844,大同市,教育学院,,46,41,78,32,41,86,,99,95,36,32,8,9,0.8,0.7
2024-10-13T1600,3282A,113.3397,40.0597,大同市,大同市卫生学校,,49,49,84,32,48,83,,120,96,22,24,7,8,0.7,0.7
2024-10-13T1600,3565A,113.1367,40.1122,大同市,云冈站,颗粒物(PM10),52,54,82,33,48,85,,112,98,33,24,9,11,0.8,0.8
2024-10-13T1600,3566A,113.1186,40.2556,大同市,图书馆,细颗粒物(PM2.5),64,50,81,46,53,98,,109,105,28,25,10,11,0.7,0.7
2024-10-13T1600,3567A,113.5931,40.0461,大同市,区一中,,42,35,62,29,26,95,,104,104,10,18,1,5,0.6,0.6
2024-10-13T1600,3676A,113.2802,40.0995,大同市,第二人民医院,,46,41,75,32,41,97,,115,104,29,25,10,12,0.6,0.7
2024-10-13T1600,2269A,124.1069,50.4097,大兴安岭地区,科技局,,31,31,19,13,15,82,,61,61,9,10,9,8,0.4,0.4
2024-10-13T1600,3663A,124.1164,50.4278,大兴安岭地区,红旗社区,,36,36,18,14,10,81,,65,65,13,11,3,2,0.4,0.5
2024-10-13T1600,1600A,124.3303,40.0625,丹东市,江湾东路,,40,40,51,21,31,86,,59,59,15,25,11,9,0.6,0.8
2024-10-13T1600,1601A,124.4256,40.1503,丹东市,临江后街,,38,38,58,17,27,107,,63,63,10,24,9,7,0.9,0.9
2024-10-13T1600,1602A,124.3933,40.1461,丹东市,元宝山,,31,31,41,20,20,86,,55,55,14,18,6,5,0.7,0.8
2024-10-13T1600,1603A,124.3633,40.1092,丹东市,民主桥,,44,44,45,20,21,97,,62,62,17,28,10,6,0.6,0.7
2024-10-13T1600,3541A,109.5726,19.5167,儋州市,第一中学子站,,31,22,29,12,17,97,,86,84,4,5,6,7,0.2,0.3
2024-10-13T1600,3542A,109.5567,19.5187,儋州市,东坡学校子站,,31,16,29,12,15,99,,89,87,2,3,5,6,0.4,0.5
2024-10-13T1600,2616A,98.5842,24.428,德宏傣族景颇族自治州,德宏州监测站,,45,43,38,31,20,86,,47,47,9,15,18,9,0.4,0.5
2024-10-13T1600,3677A,98.5881,24.4368,德宏傣族景颇族自治州,芒市人民政府综合楼,,48,48,39,27,21,84,,50,50,13,11,29,8,0.5,0.6
2024-10-13T1600,1901A,104.4239,31.1208,德阳市,东山公园,,27,23,27,13,16,84,,65,65,9,10,2,2,0.7,0.7
2024-10-13T1600,1902A,104.3826,31.1317,德阳市,西小区,,34,34,36,17,21,73,,55,55,12,17,2,2,0.5,0.6
2024-10-13T1600,1904A,104.3553,31.1091,德阳市,耐火材料厂,,28,28,31,14,22,78,,62,62,9,18,3,3,0.4,0.4
2024-10-13T1600,3639A,104.4019,31.1244,德阳市,市教育局,,28,28,29,15,18,81,,63,63,10,16,2,2,0.5,0.5
2024-10-13T1600,1622A,116.3032,37.4674,德州市,儿童乐园,"颗粒物(PM10),细颗粒物(PM2.5)",70,90,117,51,67,172,,134,134,15,45,8,16,0.6,0.7
2024-10-13T1600,1624A,116.2991,37.4451,德州市,监理站,细颗粒物(PM2.5),77,90,115,56,65,175,,133,133,15,43,9,17,0.6,0.6
2024-10-13T1600,3066A,116.2721,37.4379,德州市,九衢泉纯净水厂,颗粒物(PM10),71,92,121,46,58,161,,122,122,18,55,7,15,0.6,0.7
2024-10-13T1600,3371A,116.3728,37.4403,德州市,开发区人民医院,颗粒物(PM10),78,105,120,53,59,172,,119,119,10,43,9,17,0.7,0.8
2024-10-13T1600,3372A,116.3572,37.4094,德州市,太阳城中学,颗粒物(PM10),78,105,122,51,60,169,,115,115,17,66,11,19,0.6,0.7
2024-10-13T1600,3511A,116.5652,37.3319,德州市,陵城艺术中心,颗粒物(PM10),74,97,118,48,63,173,,128,128,14,46,8,15,0.6,0.7
2024-10-13T1600,2621A,99.7056,27.8317,迪庆藏族自治州,迪庆州站,,,33,18,15,11,82,,72,72,14,10,,11,0.5,0.4
2024-10-13T1600,3180A,99.7136,27.8094,迪庆藏族自治州,质量技术监督局,,25,19,17,11,9,78,,68,68,13,11,7,6,0.5,0.5
2024-10-13T1600,2663A,104.6241,35.5734,定西市,东关小学,,28,26,32,13,21,88,,55,55,6,13,8,8,0.2,0.3
2024-10-13T1600,2664A,104.6194,35.5934,定西市,供电公司,,31,26,31,15,21,97,,58,58,1,14,7,7,0.3,0.4
2024-10-13T1600,1389A,113.7547,23.0494,东莞市,莞城梨川,臭氧1小时,65,40,57,20,30,172,,148,148,12,21,8,8,0.7,0.7
2024-10-13T1600,1390A,113.7944,23.0128,东莞市,东城石井,臭氧1小时,93,39,48,25,28,194,,156,156,13,20,7,8,0.6,0.7
2024-10-13T1600,1391A,113.7383,22.9658,东莞市,南城西平,臭氧1小时,83,44,53,27,32,186,,154,154,11,30,10,9,0.6,0.7
2024-10-13T1600,3319A,113.7338,23.0381,东莞市,万江金泰,臭氧1小时,60,39,57,23,30,168,,145,145,12,21,7,7,0.7,0.7
2024-10-13T1600,3626A,113.7533,23.0202,东莞市,南城元岭,臭氧1小时,72,41,58,26,31,177,,143,143,9,22,8,9,0.8,0.9
2024-10-13T1600,3627A,113.7875,23.0457,东莞市,东城主山,臭氧1小时,79,46,55,20,31,183,,154,154,16,24,8,9,0.6,0.7
2024-10-13T1600,1666A,118.6614,37.4309,东营市,市环保局,颗粒物(PM10),57,63,81,29,52,151,,128,128,12,15,9,7,0.5,0.6
2024-10-13T1600,3036A,118.6904,37.4338,东营市,开发区管委会,颗粒物(PM10),63,76,88,36,56,164,,141,141,17,20,6,7,0.2,0.4
2024-10-13T1600,3365A,118.5719,37.565,东营市,垦利区民丰路,颗粒物(PM10),56,61,85,31,51,145,,122,122,17,20,10,11,0.7,0.8
2024-10-13T1600,3498A,118.5055,37.8612,东营市,河口城区,颗粒物(PM10),63,75,84,42,55,148,,125,125,15,22,6,7,0.7,0.7
2024-10-13T1600,3646A,118.4978,37.4623,东营市,胜利站,颗粒物(PM10),53,56,71,34,51,144,,118,118,19,23,9,11,0.6,0.9
2024-10-13T1600,3734A,118.35,37.26,东营市,理想之城,,49,46,97,34,62,152,,130,130,15,23,4,6,0.3,0.5
2024-10-13T1600,1591A,110.0023,39.8129,鄂尔多斯市,综合楼,,41,41,38,19,18,103,,120,88,14,13,6,6,0.5,0.5
2024-10-13T1600,1592A,109.9486,39.8261,鄂尔多斯市,巴音孟克林场办事处,,42,39,36,29,22,93,,104,80,13,15,7,6,0.7,0.6
2024-10-13T1600,1593A,109.7736,39.5986,鄂尔多斯市,康泽苑,,39,39,34,17,20,100,,109,80,8,12,6,6,0.5,0.5
2024-10-13T1600,1594A,109.8119,39.5989,鄂尔多斯市,华泰汽车城,,32,29,33,22,24,89,,98,75,13,11,8,9,0.5,0.5
2024-10-13T1600,1595A,109.9734,39.7884,鄂尔多斯市,奥林花园,,,34,37,,19,89,,96,75,11,14,4,4,0.5,0.6
2024-10-13T1600,2436A,114.8938,30.3994,鄂州市,市政府,细颗粒物(PM2.5),78,91,88,57,63,138,,126,126,28,31,18,15,1.1,1.1
2024-10-13T1600,2437A,114.8989,30.3714,鄂州市,赵家坝,细颗粒物(PM2.5),83,89,96,61,68,144,,132,132,23,27,18,16,1.3,1.3
2024-10-13T1600,3654A,114.8094,30.4089,鄂州市,精准医疗中心,细颗粒物(PM2.5),79,80,87,58,59,127,,134,134,36,34,16,11,1.2,0.8
2024-10-13T1600,2454A,109.4978,30.2981,恩施土家族苗族自治州,湖北民院,,30,30,47,17,32,87,,58,56,11,14,8,8,0.7,0.8
2024-10-13T1600,2455A,109.4707,30.2798,恩施土家族苗族自治州,州电力总公司,,25,22,36,13,30,80,,52,52,19,21,6,6,0.9,1
2024-10-13T1600,3549A,109.5061,30.3772,恩施土家族苗族自治州,龙凤新区,,38,,38,26,31,76,,48,48,19,18,6,6,0.9,0.9
2024-10-13T1600,2499A,108.3411,21.6158,防城港市,沙万,颗粒物(PM10),51,51,50,26,28,134,,118,118,21,21,18,14,0.9,0.8
2024-10-13T1600,2500A,108.3514,21.7731,防城港市,防城档案局,,42,41,76,26,37,133,,118,118,16,26,14,10,1.1,0.9
2024-10-13T1600,2501A,108.3506,21.6414,防城港市,大海花园,,48,36,49,20,29,152,,126,126,8,16,8,8,0.6,0.7
2024-10-13T1600,1371A,113.1294,23.0067,佛山市,湾梁,臭氧1小时,111,51,67,23,31,221,,187,187,21,33,8,8,0.8,0.9
2024-10-13T1600,1372A,113.1083,23.0478,佛山市,华材职中,臭氧1小时,112,53,66,35,42,223,,185,185,19,32,8,8,0.6,0.7
2024-10-13T1600,1373A,113.144,23.0453,佛山市,南海气象局,臭氧1小时,87,60,66,30,37,189,,174,174,13,27,8,8,0.6,0.7
2024-10-13T1600,1374A,113.2881,22.8094,佛山市,顺德苏岗,臭氧1小时,119,55,61,34,34,237,,184,184,18,27,9,9,0.7,0.8
2024-10-13T1600,1376A,112.8383,22.8678,佛山市,高明孔堂,臭氧1小时,120,51,66,35,40,240,,188,188,17,20,6,6,0.7,0.7
2024-10-13T1600,1377A,112.8836,23.1588,佛山市,三水监测站,臭氧1小时,139,78,88,42,56,277,,206,206,35,56,6,9,0.7,0.8
2024-10-13T1600,1378A,112.867,23.185,佛山市,三水云东海,臭氧1小时,126,82,73,42,54,252,,236,236,28,52,11,13,0.8,0.8
2024-10-13T1600,3625A,113.2544,22.7642,佛山市,容桂街道办,臭氧1小时,123,58,57,34,35,246,,189,189,20,26,8,8,0.7,0.8
2024-10-13T1600,1280A,119.3903,26.0543,福州市,鼓山,,,,20,,14,,,95,,,3,,3,,0.4
2024-10-13T1600,1282A,119.2681,26.0504,福州市,师大,,32,32,34,10,17,92,,83,83,6,13,2,2,0.3,0.4
2024-10-13T1600,1283A,119.2984,26.1028,福州市,五四北路,,28,28,28,13,13,73,,75,75,12,16,3,2,0.2,0.3
2024-10-13T1600,1284A,119.2648,26.0768,福州市,杨桥西路,,36,36,31,13,13,81,,82,82,9,11,3,4,0.2,0.3
2024-10-13T1600,1285A,119.317,26.0746,福州市,紫阳,,34,34,33,10,13,73,,70,70,13,20,2,2,0.2,0.3
2024-10-13T1600,3048A,119.5799,26.0936,福州市,九龙,,29,29,24,13,9,85,,,,2,5,3,2,0.1,0.2
2024-10-13T1600,3526A,119.5189,25.9664,福州市,吴航,,26,22,22,14,12,81,,77,77,4,9,1,3,0.3,0.3
2024-10-13T1600,1755A,123.7977,41.8491,抚顺市,望花区,颗粒物(PM10),51,52,115,22,60,126,,103,103,21,54,11,10,0.5,1.3
2024-10-13T1600,1756A,123.9161,41.8822,抚顺市,顺城区,颗粒物(PM10),54,58,82,25,51,126,,104,104,30,45,11,7,0.5,1.1
2024-10-13T1600,1757A,124.0436,41.8611,抚顺市,东洲区,颗粒物(PM10),66,82,78,14,61,114,,102,102,31,27,11,9,0.6,1
2024-10-13T1600,1758A,123.9247,41.8642,抚顺市,新抚区,颗粒物(PM10),54,57,89,23,52,132,,107,107,24,44,8,6,0.5,1.1
2024-10-13T1600,1759A,124.0972,41.8961,抚顺市,大伙房水库,颗粒物(PM10),68,86,71,26,45,128,,113,113,25,20,10,9,0.7,1
2024-10-13T1600,1760A,123.7086,41.8391,抚顺市,沈抚新城,,47,47,97,22,54,132,,114,114,27,50,17,14,0.4,1.3
2024-10-13T1600,2376A,116.2127,28.0814,抚州市,桐源党溪,,45,42,66,17,41,141,,117,117,3,12,11,10,0.6,0.8
2024-10-13T1600,2377A,116.3544,27.9831,抚州市,市站,,37,33,59,18,36,117,,102,102,8,17,8,11,0.5,0.8
2024-10-13T1600,2378A,116.3565,27.963,抚州市,血防站,,43,33,57,14,34,137,,113,113,2,9,4,7,0.8,0.8
2024-10-13T1600,2379A,116.3564,28.0007,抚州市,采茶剧团,,40,35,56,17,37,128,,111,111,3,11,5,9,0.7,0.9
2024-10-13T1600,2380A,116.385,27.9647,抚州市,医学分院,,42,34,57,17,32,132,,103,103,6,13,4,7,0.8,0.9
2024-10-13T1600,2207A,121.6094,41.998,阜新市,工业园区,颗粒物(PM10),61,71,101,22,44,127,,106,106,16,35,4,12,0.7,0.9
2024-10-13T1600,2208A,121.6697,42.0279,阜新市,长青街,颗粒物(PM10),61,71,76,25,41,122,,103,103,19,29,8,13,0.5,1.6
2024-10-13T1600,2209A,121.6673,42.0705,阜新市,农业园区,颗粒物(PM10),52,54,78,27,49,121,,104,104,13,29,8,18,0.4,0.8
2024-10-13T1600,2210A,121.6717,42.0224,阜新市,东苑,颗粒物(PM10),59,68,84,18,46,116,,95,95,19,44,11,23,0.7,1.9
2024-10-13T1600,2211A,121.6506,42.0498,阜新市,玉龙新城,,49,49,82,30,36,131,,108,108,14,39,9,13,0.9,0.9
2024-10-13T1600,2301A,115.8277,32.8929,阜阳市,市监测站,细颗粒物(PM2.5),78,86,95,57,61,112,,94,94,22,22,7,8,0.7,0.6
2024-10-13T1600,2303A,115.8554,32.8605,阜阳市,开发区,细颗粒物(PM2.5),72,71,108,52,60,105,,87,87,20,23,8,8,0.5,0.5
2024-10-13T1600,2875A,115.784,32.8892,阜阳市,阜阳职业技术学院,细颗粒物(PM2.5),69,81,88,50,50,108,,92,92,24,21,7,8,0.6,0.6
2024-10-13T1600,3468A,115.7901,32.8613,阜阳市,市规划展馆,细颗粒物(PM2.5),78,61,85,57,62,110,,93,93,25,25,7,7,0.7,0.7
2024-10-13T1600,3469A,115.836,32.9183,阜阳市,枣园社区,细颗粒物(PM2.5),72,56,92,52,66,109,,95,95,20,22,7,8,0.6,0.6
2024-10-13T1600,2669A,102.9099,34.9841,甘南藏族自治州,州政府,,31,8,32,7,14,98,,68,68,2,30,8,9,0.4,0.7
2024-10-13T1600,3380A,102.8914,34.9617,甘南藏族自治州,甘肃民族师范学院,,30,,23,3,16,96,,61,61,4,32,4,7,0.4,0.6
2024-10-13T1600,2570A,101.9603,30.0475,甘孜藏族自治州,水桥子,,21,13,16,3,8,65,,39,39,3,19,6,6,0.2,0.3
2024-10-13T1600,3065A,101.9533,29.9972,甘孜藏族自治州,州环保局,,22,10,14,3,3,70,,51,51,7,18,3,3,0.2,0.2
2024-10-13T1600,3414A,115.8347,28.932,赣江新区,桑海产业园,颗粒物(PM10),51,51,87,25,52,126,,122,122,17,44,11,12,0.4,0.6
2024-10-13T1600,2362A,114.9017,25.9149,赣州市,通天岩,细颗粒物(PM2.5),72,54,46,52,37,165,,151,151,7,11,34,31,0.3,0.2
2024-10-13T1600,2363A,114.9367,25.8664,赣州市,地委,臭氧1小时,58,56,49,29,32,166,,122,122,11,20,10,11,1.1,1
2024-10-13T1600,2364A,114.9461,25.8481,赣州市,气象台,臭氧1小时,80,51,49,28,30,184,,136,136,11,22,12,13,1.0,1.1
2024-10-13T1600,2365A,114.9322,25.8333,赣州市,市图书馆,臭氧1小时,75,44,49,26,27,180,,141,141,8,25,5,6,0.8,0.8
2024-10-13T1600,2366A,114.8905,25.8471,赣州市,华坚鞋城,臭氧1小时,58,42,55,31,31,166,,126,126,11,23,5,6,0.6,0.6
2024-10-13T1600,3109A,115.0093,25.8613,赣州市,赣县区卫计委,,50,49,42,35,31,152,,120,120,10,21,6,6,0.6,0.6
2024-10-13T1600,2683A,106.2319,36.1417,固原市,马园,,30,18,29,3,12,95,,84,84,14,15,6,6,0.1,0.4
2024-10-13T1600,2684A,106.2792,36.0022,固原市,监测站,,31,17,28,9,20,97,,65,65,8,25,5,5,0.4,0.6
2024-10-13T1600,2685A,106.2375,36.0211,固原市,新区,,31,12,28,6,18,98,,74,74,7,20,5,5,0.3,0.5
2024-10-13T1600,3522A,106.2177,35.9959,固原市,原州区十五小,,31,27,25,11,14,98,,82,82,8,17,5,5,0.4,0.6
2024-10-13T1600,2543A,106.6308,30.5278,广安市,小平旧居,,,,,,,,,,,,,,,,
2024-10-13T1600,2544A,106.6303,30.4576,广安市,市委,,35,30,34,21,24,109,,87,87,12,13,3,3,0.5,0.5
2024-10-13T1600,2545A,106.6271,30.4663,广安市,友谊中学,,33,28,32,21,24,105,,86,86,16,14,2,2,0.6,0.5
2024-10-13T1600,2547A,106.6388,30.4551,广安市,广电花园,,33,33,35,20,23,104,,86,86,14,13,1,1,0.4,0.4
2024-10-13T1600,2902A,106.6351,30.4865,广安市,北辰小学,,36,34,38,21,23,114,,87,87,12,11,4,4,0.6,0.6
2024-10-13T1600,2523A,105.8945,32.4535,广元市,黑石坡,,24,14,18,11,12,76,,54,54,6,10,10,8,0.5,0.5
2024-10-13T1600,2524A,105.821,32.4444,广元市,老城,,26,16,25,13,11,83,,52,52,10,28,2,2,0.7,0.8
2024-10-13T1600,2526A,105.8628,32.4287,广元市,监测站,,26,24,18,14,14,82,,58,58,12,15,3,2,0.6,0.6
2024-10-13T1600,3617A,105.8047,32.4166,广元市,经开区,,24,21,22,12,15,75,,44,44,13,23,5,5,0.7,0.7
2024-10-13T1600,1345A,113.2347,23.1423,广州市,广雅中学,臭氧1小时,97,49,65,24,37,197,,159,159,17,36,6,7,0.8,0.9
2024-10-13T1600,1346A,113.2612,23.105,广州市,市五中,臭氧1小时,109,42,60,34,45,218,,177,177,13,25,5,6,0.7,0.8
2024-10-13T1600,1348A,113.3478,23.0916,广州市,广东商学院,臭氧1小时,104,44,63,24,38,207,,169,169,15,41,8,11,0.6,0.7
2024-10-13T1600,1349A,113.4332,23.1047,广州市,市八十六中,臭氧1小时,74,56,70,24,35,179,,157,157,28,57,7,6,0.7,0.9
2024-10-13T1600,1350A,113.3505,22.9483,广州市,番禺中学,臭氧1小时,110,56,63,28,35,219,,182,182,25,29,9,8,,0.7
2024-10-13T1600,1351A,113.2146,23.3916,广州市,花都师范,臭氧1小时,57,34,72,19,41,165,,154,154,16,44,5,6,0.8,0.9
2024-10-13T1600,1352A,113.2597,23.1331,广州市,市监测站,臭氧1小时,87,37,60,19,35,189,,153,153,14,31,5,6,0.7,0.8
2024-10-13T1600,1353A,113.5618,23.312,广州市,九龙镇镇龙,,42,38,56,23,35,132,,116,116,11,25,8,8,0.6,0.7
2024-10-13T1600,1354A,113.2765,23.1544,广州市,麓湖,臭氧1小时,58,40,59,23,38,166,,150,150,12,40,7,7,0.6,0.8
2024-10-13T1600,1355A,113.443,23.3035,广州市,帽峰山森林公园,,50,28,43,17,26,157,,130,130,7,20,7,7,0.6,0.7
2024-10-13T1600,2846A,113.3221,23.1322,广州市,体育西,臭氧1小时,90,47,62,24,36,192,,151,151,17,32,5,6,0.7,0.8
2024-10-13T1600,3298A,113.5717,23.5491,广州市,从化街口,,42,34,49,29,35,127,,119,119,7,20,7,7,0.6,0.7
2024-10-13T1600,3299A,113.3472,23.3692,广州市,白云竹料,,43,32,62,14,38,137,,128,128,8,30,6,6,0.6,0.8
2024-10-13T1600,3300A,113.2981,23.237,广州市,白云嘉禾,臭氧1小时,67,35,68,19,39,173,,149,149,13,48,6,7,0.7,0.9
2024-10-13T1600,3301A,113.4256,23.1716,广州市,黄埔科学城,臭氧1小时,70,32,61,20,39,176,,146,146,13,36,7,7,0.6,0.8
2024-10-13T1600,3302A,113.3942,23.0483,广州市,番禺大学城,臭氧1小时,102,45,62,21,31,204,,164,164,15,33,9,9,0.6,0.7
2024-10-13T1600,3303A,113.4922,22.8168,广州市,南沙黄阁,臭氧1小时,123,59,62,35,34,246,,197,197,21,31,7,7,0.8,0.9
2024-10-13T1600,3304A,113.5342,22.7896,广州市,南沙街,臭氧1小时,119,56,54,30,31,238,,192,192,19,26,6,6,0.8,0.8
2024-10-13T1600,3443A,113.2902,23.5544,广州市,花都梯面,,49,43,47,28,34,154,,136,136,10,25,6,6,0.6,0.6
2024-10-13T1600,3445A,113.7858,23.7478,广州市,从化良口,,38,28,31,26,24,92,,86,86,6,11,7,7,0.8,0.8
2024-10-13T1600,3446A,113.8051,23.2614,广州市,增城荔城,,45,38,52,29,35,144,,121,121,6,14,7,7,0.7,0.7
2024-10-13T1600,2505A,109.568,23.1478,贵港市,德智高中,,,,,,,,,,,,,,,,
2024-10-13T1600,2506A,109.6047,23.0666,贵港市,江南子站,臭氧1小时,58,63,96,32,56,166,,140,140,10,29,11,14,0.8,1
2024-10-13T1600,2507A,109.6014,23.0948,贵港市,贵城子站,臭氧1小时,68,64,83,34,55,174,,143,143,11,23,11,13,0.8,1
2024-10-13T1600,2508A,109.5669,23.1065,贵港市,荷城子站,颗粒物(PM10),60,70,79,36,46,156,,146,146,20,23,14,16,0.8,0.8
2024-10-13T1600,3405A,109.5886,23.1172,贵港市,新世纪学校,颗粒物(PM10),56,61,76,37,44,164,,144,144,13,25,10,12,0.6,0.7
2024-10-13T1600,1439A,106.6899,26.5998,贵阳市,马鞍山,,15,12,30,3,21,46,,38,38,16,15,3,4,0.7,0.6
2024-10-13T1600,1440A,106.6971,26.5694,贵阳市,市环保站,,22,,37,15,33,50,,50,50,25,22,5,5,0.8,0.7
2024-10-13T1600,1441A,106.6243,26.6266,贵阳市,鉴湖路,,16,9,32,7,21,51,,43,43,9,14,4,5,0.6,0.5
2024-10-13T1600,1442A,106.7487,26.6343,贵阳市,燕子冲,,20,,31,14,30,60,,47,47,12,12,6,6,0.7,0.6
2024-10-13T1600,1443A,106.6555,26.4365,贵阳市,碧云窝,,17,17,27,7,15,49,,72,42,20,13,4,5,0.3,0.5
2024-10-13T1600,1444A,106.694,26.5161,贵阳市,中院村,,17,14,34,9,25,53,,46,46,20,22,8,8,0.8,0.7
2024-10-13T1600,1445A,106.7109,26.6027,贵阳市,红边门,,28,22,42,19,37,50,,48,48,22,20,5,5,0.9,0.8
2024-10-13T1600,1446A,106.7164,26.5699,贵阳市,新华路,,19,19,34,12,28,55,,50,50,17,18,4,5,0.6,0.6
2024-10-13T1600,1447A,106.674,26.5424,贵阳市,太慈桥,,12,9,35,7,22,38,,37,37,20,20,11,8,0.7,0.6
2024-10-13T1600,1552A,106.805,26.3003,贵阳市,桐木岭,,20,17,40,14,26,56,,89,46,2,2,7,6,0.7,0.6
2024-10-13T1600,1862A,110.4144,25.3167,桂林市,电子科大尧山校区,,48,41,63,33,38,149,,126,126,5,12,5,8,0.6,0.6
2024-10-13T1600,1863A,110.2819,25.2697,桂林市,监测站,细颗粒物(PM2.5),64,53,62,46,45,164,,143,143,8,18,9,15,0.7,0.8
2024-10-13T1600,1864A,110.3089,25.2708,桂林市,龙隐路小学,细颗粒物(PM2.5),63,52,66,45,47,165,,145,145,8,21,7,15,0.5,0.6
2024-10-13T1600,1865A,110.2869,25.2178,桂林市,八中,细颗粒物(PM2.5),54,51,60,38,43,155,,134,134,8,19,8,12,0.6,0.7
2024-10-13T1600,3403A,110.1764,25.2381,桂林市,创业大厦,细颗粒物(PM2.5),62,53,70,44,51,161,,128,128,8,30,8,27,0.4,0.4
2024-10-13T1600,3531A,110.296,25.1253,桂林市,旅游学院,,50,44,49,29,36,160,,132,132,6,24,10,10,0.5,0.5
2024-10-13T1600,2674A,100.2561,34.4714,果洛藏族自治州,玛沁县大武镇,,33,18,26,14,15,104,,82,82,1,7,5,8,0.4,0.5
2024-10-13T1600,1129A,126.5422,45.755,哈尔滨市,岭北,臭氧1小时,94,80,51,46,32,195,,155,155,19,35,10,10,0.9,0.7
2024-10-13T1600,1130A,126.561,45.8167,哈尔滨市,松北商大,颗粒物(PM10),64,77,55,38,22,156,,108,108,22,44,12,11,0.7,0.7
2024-10-13T1600,1131A,126.979,45.5419,哈尔滨市,阿城会宁,细颗粒物(PM2.5),64,76,63,46,29,160,,114,114,19,36,5,7,0.8,0.7
2024-10-13T1600,1132A,126.599,45.7222,哈尔滨市,南岗学府路,颗粒物(PM10),73,96,68,40,29,162,,103,103,23,44,11,11,0.7,0.7
2024-10-13T1600,1133A,126.689,45.7733,哈尔滨市,太平宏伟公园,"颗粒物(PM10),细颗粒物(PM2.5)",65,80,74,47,28,155,,104,104,32,47,8,8,0.7,0.7
2024-10-13T1600,1134A,126.635,45.7667,哈尔滨市,道外承德广场,颗粒物(PM10),68,86,61,38,26,156,,105,105,27,47,8,7,0.7,0.6
2024-10-13T1600,1135A,126.685,45.7319,哈尔滨市,香坊红旗大街,颗粒物(PM10),68,85,84,47,36,153,,106,106,31,48,17,14,0.8,0.7
2024-10-13T1600,1136A,126.6411,45.7258,哈尔滨市,动力和平路,细颗粒物(PM2.5),77,87,61,56,34,160,,109,109,23,47,8,8,0.8,0.6
2024-10-13T1600,1137A,126.593,45.7478,哈尔滨市,道里建国路,细颗粒物(PM2.5),78,83,69,57,36,159,,107,107,29,49,18,19,0.8,2
2024-10-13T1600,1138A,126.615,45.61,哈尔滨市,平房东轻厂,颗粒物(PM10),73,96,62,49,31,157,,111,111,20,35,10,8,0.7,0.5
2024-10-13T1600,1139A,126.595,45.9855,哈尔滨市,呼兰师专,,,100,55,70,28,128,,83,83,,41,7,4,,0.5
2024-10-13T1600,1140A,126.6206,45.6842,哈尔滨市,省农科院,颗粒物(PM10),84,118,86,56,45,135,,100,100,36,51,6,11,0.6,0.7
2024-10-13T1600,2688A,93.5128,42.8172,哈密市,地区监测站,颗粒物(PM10),57,64,157,27,45,111,,95,95,4,33,5,6,0.1,0.4
2024-10-13T1600,2689A,93.4961,42.8328,哈密市,哈密师范学校,颗粒物(PM10),52,54,124,28,41,108,,93,93,8,34,5,5,0.3,0.7
2024-10-13T1600,2671A,100.9048,36.9639,海北藏族自治州,海晏县西海镇,,30,10,15,8,11,93,,74,74,2,9,12,9,0.3,0.3
2024-10-13T1600,3867A,102.0738,36.5056,海东市,平安区公安北苑,,31,28,42,10,21,99,,67,67,11,18,8,12,0.4,0.6
2024-10-13T1600,1409A,110.576,19.9507,海口市,东寨港,,,,,,,,,,,,,,,,
2024-10-13T1600,1410A,110.3232,20.0574,海口市,海南大学,,36,31,36,14,16,114,,118,118,6,5,4,4,0.4,0.4
2024-10-13T1600,1411A,110.283,20.0053,海口市,秀英海南医院,,34,31,36,12,16,107,,117,117,5,6,6,6,0.3,0.4
2024-10-13T1600,1412A,110.338,19.9969,海口市,海南师范大学,,35,32,36,13,16,109,,118,118,2,3,6,6,0.5,0.5
2024-10-13T1600,1413A,110.33,20.0356,海口市,龙华路环保局宿舍,,35,33,35,13,16,110,,119,119,5,5,5,5,0.4,0.4
2024-10-13T1600,3539A,110.5111,19.9736,海口市,桂林洋子站,,,21,31,10,17,96,,109,109,4,4,8,7,,0.4
2024-10-13T1600,2673A,100.6188,36.2866,海南藏族自治州,共和县恰卜恰镇,,32,12,29,11,11,100,,72,72,3,17,5,10,0.4,0.6
2024-10-13T1600,2676A,97.3731,37.3753,海西蒙古族藏族自治州,德令哈市,,34,22,29,7,15,107,,90,90,2,8,7,8,0.4,0.5
2024-10-13T1600,1048A,114.5302,36.6116,邯郸市,东污水处理厂,细颗粒物(PM2.5),77,90,134,56,90,160,,107,107,12,44,3,4,0.6,0.7
2024-10-13T1600,1049A,114.4918,36.5713,邯郸市,矿院,细颗粒物(PM2.5),83,88,141,61,91,157,,101,101,12,43,4,6,0.2,0.3
2024-10-13T1600,1050A,114.484,36.6133,邯郸市,丛台公园,细颗粒物(PM2.5),90,79,126,67,88,151,,100,100,13,39,5,6,0.5,0.6
2024-10-13T1600,3458A,114.7895,36.5593,邯郸市,香泉濮院小区,臭氧1小时,78,83,136,44,76,182,,137,137,11,34,2,6,0.4,0.6
2024-10-13T1600,3579A,114.50634,36.77178,邯郸市,永年区实验高中,细颗粒物(PM2.5),104,115,171,78,97,168,,111,111,16,60,5,6,0.7,0.8
2024-10-13T1600,3580A,114.20016,36.44293,邯郸市,峰峰矿区临水派出所,细颗粒物(PM2.5),99,91,125,74,91,166,,106,106,15,29,8,9,0.2,0.1
2024-10-13T1600,2634A,106.9893,33.1842,汉中市,汉川机床厂子校,,36,34,28,25,19,67,,44,44,12,14,5,5,0.8,0.7
2024-10-13T1600,2635A,107.0154,33.0706,汉中市,市监测站,,,,33,,20,,,43,,,17,,9,,0.6
2024-10-13T1600,2636A,107.0089,33.1138,汉中市,鑫源开发区,,40,30,39,28,24,69,,42,42,10,23,11,18,0.4,0.5
2024-10-13T1600,2637A,107.007,33.0323,汉中市,南郑大河坎水厂,,35,27,32,24,21,69,,45,45,11,18,10,11,0.6,0.6
2024-10-13T1600,1223A,120.2072,30.2111,杭州市,滨江,,34,22,33,13,18,106,,81,81,13,23,5,5,0.6,0.6
2024-10-13T1600,1224A,120.0633,30.2747,杭州市,西溪,,31,31,38,12,16,81,,74,74,12,19,6,6,0.6,0.6
2024-10-13T1600,1226A,120.3461,30.3153,杭州市,下沙,,35,35,36,13,16,102,,86,86,26,37,7,7,0.6,0.5
2024-10-13T1600,1227A,120.1269,30.2456,杭州市,卧龙桥,,35,27,32,13,18,112,,85,85,15,20,6,6,0.5,0.5
2024-10-13T1600,1228A,120.1903,30.2692,杭州市,浙江农大,,33,26,28,14,15,105,,79,79,18,28,2,5,0.5,0.6
2024-10-13T1600,1230A,120.1197,30.3119,杭州市,和睦小学,,38,26,28,17,20,119,,88,88,16,26,6,6,0.3,0.3
2024-10-13T1600,1231A,120.3019,30.4183,杭州市,临平镇,,37,29,34,15,16,116,,93,93,16,21,6,5,0.5,0.5
2024-10-13T1600,1232A,120.2697,30.1819,杭州市,城厢镇,,34,27,34,11,23,107,,85,85,14,26,6,7,0.5,0.6
2024-10-13T1600,1233A,120.0883,30.1808,杭州市,云栖,,27,22,25,12,17,86,,79,79,26,26,7,7,0.5,0.6
2024-10-13T1600,3557A,119.9464,30.0494,杭州市,镇二中,,36,20,31,15,26,113,,92,92,14,19,8,8,0.7,0.8
2024-10-13T1600,3558A,119.7183,30.2367,杭州市,市府大楼,,35,35,60,17,28,103,,86,86,23,26,6,6,0.5,0.6
2024-10-13T1600,3656A,120.1556,30.2864,杭州市,消防大队,,37,30,34,15,19,118,,89,89,12,21,9,9,0.3,0.3
2024-10-13T1600,1270A,117.1959,31.7848,合肥市,明珠广场,颗粒物(PM10),59,68,72,36,47,114,,91,91,26,30,7,8,0.6,0.7
2024-10-13T1600,1271A,117.3072,31.8764,合肥市,三里街,细颗粒物(PM2.5),55,58,73,39,44,113,,72,72,23,30,4,4,0.7,0.7
2024-10-13T1600,1272A,117.2588,31.8707,合肥市,琥珀山庄,颗粒物(PM10),59,68,70,37,49,126,,90,90,28,30,8,8,0.8,0.8
2024-10-13T1600,1273A,117.1604,31.9052,合肥市,董铺水库,细颗粒物(PM2.5),64,73,75,46,45,138,,90,90,20,20,4,4,0.5,0.6
2024-10-13T1600,1274A,117.25,31.8571,合肥市,长江中路,颗粒物(PM10),68,85,85,45,50,124,,86,86,21,26,9,9,0.8,0.8
2024-10-13T1600,1275A,117.266,31.9436,合肥市,庐阳区,颗粒物(PM10),60,70,74,39,48,133,,90,90,27,30,6,5,1.0,0.8
2024-10-13T1600,1276A,117.336,31.8586,合肥市,瑶海区,颗粒物(PM10),57,63,77,35,48,115,,76,76,22,30,3,3,0.6,0.7
2024-10-13T1600,1277A,117.3027,31.7964,合肥市,包河区,颗粒物(PM10),53,56,71,31,46,116,,89,89,18,52,7,7,0.5,0.6
2024-10-13T1600,1278A,117.2776,31.7385,合肥市,滨湖新区,,48,48,70,29,43,124,,93,93,10,21,5,6,0.6,0.6
2024-10-13T1600,1279A,117.1318,31.8403,合肥市,高新区,细颗粒物(PM2.5),63,63,68,45,53,135,,94,94,23,24,6,6,0.8,0.9
2024-10-13T1600,3464A,117.3803,31.9147,合肥市,高教基地,颗粒物(PM10),66,81,79,44,50,107,,81,81,26,24,6,5,0.6,0.6
2024-10-13T1600,3614A,79.924,37.0877,和田地区,地区环保局,颗粒物(PM10),64,78,140,41,38,117,,86,86,7,11,7,8,0.4,0.5
2024-10-13T1600,3615A,79.9131,37.113,和田地区,市环保局,颗粒物(PM10),63,76,131,26,36,120,,80,80,6,26,7,7,0.4,0.7
2024-10-13T1600,2516A,108.2011,24.715,河池市,东仁乐园,细颗粒物(PM2.5),64,70,66,46,47,118,,104,104,8,14,7,10,0.7,0.7
2024-10-13T1600,2517A,108.0497,24.6947,河池市,市环保站,细颗粒物(PM2.5),64,66,55,46,45,122,,102,102,13,20,14,16,0.8,0.8
2024-10-13T1600,2518A,108.0983,24.6989,河池市,市疾控中心,细颗粒物(PM2.5),69,67,62,50,47,117,,100,100,11,24,11,12,0.7,0.7
2024-10-13T1600,1696A,114.6778,23.7569,河源市,源西,颗粒物(PM10),54,58,48,29,34,134,,108,108,7,30,5,5,0.6,0.9
2024-10-13T1600,1697A,114.6944,23.7586,河源市,东埔,,50,35,43,35,53,141,,115,115,12,22,4,4,0.7,0.8
2024-10-13T1600,1698A,114.6892,23.7233,河源市,老城,,42,38,47,27,28,134,,112,112,7,15,4,6,0.7,0.8
2024-10-13T1600,1718A,115.4208,35.2464,菏泽市,气象局,颗粒物(PM10),58,66,106,36,60,162,,136,136,19,27,3,5,0.4,0.6
2024-10-13T1600,1719A,115.4747,35.2375,菏泽市,市政协,颗粒物(PM10),65,79,107,45,65,155,,131,131,17,26,4,5,0.4,0.6
2024-10-13T1600,3374A,115.5564,35.0891,菏泽市,定陶老年大学,颗粒物(PM10),68,85,120,46,72,152,,125,125,19,29,6,8,0.4,0.6
2024-10-13T1600,3647A,115.4702,35.2706,菏泽市,菏泽医专,细颗粒物(PM2.5),67,59,88,48,70,159,,134,134,16,25,6,8,0.5,0.6
2024-10-13T1600,2514A,111.5264,24.4172,贺州市,环保小区,,49,47,54,34,35,143,,117,117,10,23,6,8,0.5,0.6
2024-10-13T1600,2515A,111.5608,24.4078,贺州市,政协大楼,,48,42,47,28,29,153,,119,119,13,22,7,11,0.5,0.5
2024-10-13T1600,3534A,111.4744,24.4553,贺州市,西湾,,,49,57,33,40,139,,114,114,9,28,,7,0.6,0.6
2024-10-13T1600,2385A,114.17,35.9019,鹤壁市,市监测站,细颗粒物(PM2.5),84,93,127,62,81,185,,124,124,23,43,5,7,0.7,0.8
2024-10-13T1600,2386A,114.2956,35.7511,鹤壁市,市交警支队,臭氧1小时,73,71,129,51,74,178,,119,119,18,55,3,3,0.3,0.6
2024-10-13T1600,2387A,114.2878,35.7306,鹤壁市,迎宾馆,臭氧1小时,72,87,150,44,80,177,,116,116,19,49,3,5,0.6,0.8
2024-10-13T1600,3474A,114.2617,35.6822,鹤壁市,大新区,颗粒物(PM10),65,79,124,46,77,170,,127,127,8,50,2,2,0.6,0.8
2024-10-13T1600,3596A,114.1572,35.9603,鹤壁市,南山宾馆,细颗粒物(PM2.5),83,94,135,61,86,181,,117,117,6,19,3,3,0.3,0.4
2024-10-13T1600,2244A,130.2537,47.3416,鹤岗市,哈啤分公司,,28,28,29,19,19,74,,56,56,13,12,14,15,0.5,0.5
2024-10-13T1600,2245A,130.2684,47.3086,鹤岗市,斯达机电,,30,30,25,18,17,82,,66,66,12,12,13,13,0.1,0.2
2024-10-13T1600,2246A,130.3114,47.3388,鹤岗市,东山纸板厂,颗粒物(PM10),62,74,34,26,23,66,,58,58,24,22,16,16,0.1,0.7
2024-10-13T1600,2247A,130.1097,47.3382,鹤岗市,五号水库,,28,26,18,6,9,88,,74,74,6,7,8,8,0.1,0.1
2024-10-13T1600,2263A,127.4833,50.2524,黑河市,交通局,,33,33,20,17,14,80,,58,58,14,12,7,7,0.4,0.4
2024-10-13T1600,2264A,127.5144,50.2341,黑河市,环保局,,28,28,19,7,13,83,,64,64,9,12,3,4,0.3,0.4
2024-10-13T1600,2265A,127.5291,50.2472,黑河市,大黑河岛,,,,,15,11,56,,54,54,9,10,1,1,,
2024-10-13T1600,1074A,115.6838,37.7541,衡水市,电机北厂,细颗粒物(PM2.5),206,188,123,156,75,92,,123,123,53,56,9,10,0.7,0.5
2024-10-13T1600,1075A,115.6303,37.7316,衡水市,市监测站,细颗粒物(PM2.5),202,183,121,152,74,91,,113,113,59,58,11,10,0.9,0.7
2024-10-13T1600,3188A,115.6683,37.7217,衡水市,市城管局,细颗粒物(PM2.5),179,178,120,135,71,100,,121,121,55,55,11,11,0.9,0.7
2024-10-13T1600,3459A,115.5989,37.5491,衡水市,地表水厂,细颗粒物(PM2.5),142,150,127,108,70,126,,120,120,40,63,5,5,0.8,0.6
2024-10-13T1600,2456A,112.5003,26.9167,衡阳市,原169医院,臭氧1小时,103,90,131,71,94,206,,153,153,16,19,16,15,0.9,0.9
2024-10-13T1600,2457A,112.6194,26.9258,衡阳市,衡阳化工总厂,臭氧1小时,104,96,154,71,133,208,,153,153,13,17,10,10,1.0,1
2024-10-13T1600,2458A,112.6211,26.8956,衡阳市,珠晖区环保局,臭氧1小时,105,107,140,68,113,210,,157,157,18,25,13,12,1.1,1.1
2024-10-13T1600,2459A,112.6197,26.8733,衡阳市,市委党校,臭氧1小时,104,101,142,54,106,208,,159,159,13,21,12,13,0.8,1.1
2024-10-13T1600,2460A,112.6006,26.8919,衡阳市,市监测站,细颗粒物(PM2.5),115,104,140,87,120,225,,164,164,13,18,13,13,1.1,1.1
2024-10-13T1600,2461A,112.5664,26.9056,衡阳市,真空机电公司,臭氧1小时,111,96,137,78,114,222,,165,165,15,21,12,12,1.2,1.1
2024-10-13T1600,3399A,112.6703,26.882,衡阳市,师范学院,臭氧1小时,101,93,150,57,101,202,,157,157,16,21,12,14,0.9,1.1
2024-10-13T1600,2608A,103.3772,23.3993,红河哈尼族彝族自治州,污水处理厂,,28,27,31,19,31,72,,78,78,7,6,4,4,0.5,0.6
2024-10-13T1600,2609A,103.3861,23.35,红河哈尼族彝族自治州,监测站,,36,36,42,22,34,70,,77,77,8,7,13,11,0.5,0.6
2024-10-13T1600,3038A,103.3758,23.368,红河哈尼族彝族自治州,州图书馆,,37,37,39,15,28,69,,75,75,5,7,6,7,0.4,0.4
2024-10-13T1600,1090A,111.6507,40.7517,呼和浩特市,呼市一监,,28,22,50,19,29,75,,84,83,12,26,6,7,0.5,0.6
2024-10-13T1600,1091A,111.6572,40.8033,呼和浩特市,小召,,23,,48,16,29,59,,81,77,26,32,7,9,0.7,0.7
2024-10-13T1600,1094A,111.7516,40.8369,呼和浩特市,如意水处理厂,,22,20,68,13,26,70,,81,80,24,43,2,4,0.5,0.6
2024-10-13T1600,1095A,111.7276,40.8062,呼和浩特市,二十九中,,28,,55,19,31,75,,85,85,21,38,5,7,0.7,0.7
2024-10-13T1600,1096A,111.5512,40.7866,呼和浩特市,工大金川校区,,28,20,72,19,32,72,,80,77,20,44,3,5,0.6,0.7
2024-10-13T1600,1097A,111.717,40.7612,呼和浩特市,化肥厂生活区,,38,26,61,26,30,70,,80,77,18,36,8,9,0.4,0.5
2024-10-13T1600,3698A,111.5968,40.8178,呼和浩特市,红旗小学,,29,,58,20,30,57,,81,73,37,52,2,5,0.6,0.6
2024-10-13T1600,3699A,111.6518,40.8389,呼和浩特市,海东办,,22,,52,13,28,69,,86,80,25,42,5,6,0.7,0.8
2024-10-13T1600,2192A,119.7594,49.2261,呼伦贝尔市,区环保局,,43,43,39,20,16,118,,92,92,12,20,6,8,0.4,0.3
2024-10-13T1600,3061A,119.7512,49.1577,呼伦贝尔市,国华电力东,,41,41,29,16,12,129,,106,106,7,13,5,4,0.5,0.4
2024-10-13T1600,1250A,120.0751,30.8669,湖州市,城西水厂,,38,19,32,7,20,120,,84,84,19,28,5,5,0.3,0.4
2024-10-13T1600,2873A,120.0875,30.8955,湖州市,仁皇山新区,,38,16,32,8,20,119,,80,80,16,30,7,7,0.5,0.6
2024-10-13T1600,2907A,120.1844,30.8596,湖州市,吴兴区站,,36,17,25,7,17,114,,74,74,13,25,6,7,0.4,0.4
2024-10-13T1600,3562A,120.4148,30.8538,湖州市,南浔区站,,36,15,20,7,16,113,,86,86,11,20,4,4,0.4,0.4
2024-10-13T1600,1607A,120.9092,40.7136,葫芦岛市,龙港区,,40,21,64,21,48,127,,105,105,9,18,10,10,0.5,0.7
2024-10-13T1600,1608A,120.8392,40.7514,葫芦岛市,化工街,,41,41,87,22,46,122,,103,103,15,44,16,24,0.7,0.9
2024-10-13T1600,1609A,120.8341,40.7073,葫芦岛市,新区,,40,28,48,27,49,127,,113,113,12,30,8,8,0.6,0.8
2024-10-13T1600,1610A,120.8695,40.7677,葫芦岛市,东城区,,43,,67,30,61,122,,97,97,12,45,9,17,0.4,0.7
2024-10-13T1600,2482A,109.5981,27.5721,怀化市,林科所,细颗粒物(PM2.5),52,52,57,36,41,79,,84,79,8,9,8,8,1.1,1.2
2024-10-13T1600,2483A,109.9453,27.5444,怀化市,河西地税局,,,66,70,56,56,74,,86,80,15,12,8,10,,0.5
2024-10-13T1600,2484A,109.9781,27.5342,怀化市,市四医院,"颗粒物(PM10),细颗粒物(PM2.5)",60,69,71,43,50,72,,79,75,7,7,7,8,0.7,0.7
2024-10-13T1600,2485A,109.9972,27.5578,怀化市,监测楼,细颗粒物(PM2.5),64,58,67,46,52,83,,93,85,8,10,4,6,0.7,0.7
2024-10-13T1600,2486A,110.0394,27.583,怀化市,市委党校,细颗粒物(PM2.5),59,60,71,42,50,83,,86,82,8,10,9,9,0.7,0.7
2024-10-13T1600,1210A,119.036,33.5981,淮安市,钵池山,细颗粒物(PM2.5),52,,52,36,50,54,,92,67,33,24,4,5,0.6,0.5
2024-10-13T1600,1211A,119.007,33.575,淮安市,北京南路,,46,,66,32,46,52,,97,67,30,20,6,6,0.7,0.4
2024-10-13T1600,1212A,118.989,33.6067,淮安市,市监测站,,28,22,49,19,42,60,,107,61,30,25,6,7,0.7,0.7
2024-10-13T1600,1213A,119.135,33.5039,淮安市,楚州区监测站,,42,42,61,28,46,76,,84,84,29,26,6,6,0.6,0.6
2024-10-13T1600,1214A,119.0186,33.6297,淮安市,淮阴区监测站,,49,,60,34,50,49,,94,52,36,31,6,7,0.5,0.5
2024-10-13T1600,3426A,118.8755,33.2894,淮安市,新华书店,,34,34,56,19,31,69,,80,80,22,20,4,4,0.6,0.5
2024-10-13T1600,2282A,116.8004,33.975,淮北市,监测站,颗粒物(PM10),56,61,69,37,44,90,,111,89,18,15,3,2,0.5,0.6
2024-10-13T1600,2283A,116.8091,33.9007,淮北市,烈山区政府,细颗粒物(PM2.5),65,75,81,47,52,92,,110,92,18,15,3,3,0.5,0.6
2024-10-13T1600,3330A,116.8873,33.9836,淮北市,杜集区检察院,细颗粒物(PM2.5),70,76,79,51,56,97,,119,96,19,16,3,4,0.3,0.4
2024-10-13T1600,4017A,116.7923,33.9535,淮北市,市博物馆,细颗粒物(PM2.5),57,58,67,40,44,97,,117,96,18,14,2,3,0.6,0.6
2024-10-13T1600,2277A,116.8305,32.7727,淮南市,潘集区政府,细颗粒物(PM2.5),65,63,82,47,56,114,,96,96,19,18,9,9,0.6,0.7
2024-10-13T1600,2278A,117.0067,32.6524,淮南市,师范学院,颗粒物(PM10),61,71,80,43,56,108,,98,96,16,17,8,8,0.5,0.6
2024-10-13T1600,2279A,116.8569,32.5951,淮南市,谢家集区政府,细颗粒物(PM2.5),67,63,70,48,54,103,,87,87,25,22,7,8,0.5,0.6
2024-10-13T1600,2280A,116.8281,32.633,淮南市,八公山区政府,细颗粒物(PM2.5),73,77,85,53,57,108,,95,95,17,15,11,10,0.4,0.4
2024-10-13T1600,2281A,116.6325,32.6201,淮南市,焦岗湖风景区管理处,颗粒物(PM10),60,70,72,32,33,106,,87,87,10,14,9,9,0.3,0.3
2024-10-13T1600,2894A,117.0566,32.6531,淮南市,经济技术开发区消防队,颗粒物(PM10),57,64,73,35,42,102,,91,91,20,20,6,5,0.6,0.5
2024-10-13T1600,3329A,117.0108,32.5893,淮南市,山南新区,细颗粒物(PM2.5),73,76,84,53,56,107,,97,92,26,21,3,3,0.7,0.7
2024-10-13T1600,2446A,114.9028,30.4742,黄冈市,职工中心,细颗粒物(PM2.5),85,96,89,63,63,129,,131,131,29,27,9,10,0.8,0.8
2024-10-13T1600,2929A,114.8858,30.4519,黄冈市,红卫路,细颗粒物(PM2.5),70,68,81,51,59,140,,134,134,20,27,10,11,0.8,0.8
2024-10-13T1600,3398A,114.9136,30.4445,黄冈市,市林业局,细颗粒物(PM2.5),65,69,82,47,56,151,,137,137,10,28,10,11,0.6,0.6
2024-10-13T1600,2672A,102.0199,35.5102,黄南藏族自治州,同仁县隆务镇,,31,21,29,3,11,98,,74,74,3,4,10,10,0.4,0.4
2024-10-13T1600,2295A,118.2903,29.6963,黄山市,延安路89号,,45,45,60,13,26,98,,97,97,5,11,6,6,0.3,0.5
2024-10-13T1600,2296A,118.327,29.7178,黄山市,黄山东路89号,,30,25,48,10,26,95,,95,95,4,10,6,6,0.3,0.4
2024-10-13T1600,2297A,118.1371,30.2756,黄山市,黄山区政府5号楼,,44,44,57,22,38,110,,90,90,8,10,7,7,0.4,0.5
2024-10-13T1600,2423A,115.0601,30.2313,黄石市,沈家营,细颗粒物(PM2.5),83,95,99,61,71,136,,124,124,28,31,11,17,0.8,0.9
2024-10-13T1600,2424A,115.0817,30.2006,黄石市,陈家湾,细颗粒物(PM2.5),92,97,94,68,73,138,,122,122,28,24,15,12,0.7,0.7
2024-10-13T1600,2426A,114.8988,30.2019,黄石市,铁山,细颗粒物(PM2.5),95,88,81,71,68,140,,140,140,18,15,12,14,0.7,1
2024-10-13T1600,2427A,115.0307,30.2092,黄石市,团城山,细颗粒物(PM2.5),78,85,94,57,66,134,,123,123,27,23,16,14,0.8,0.8
2024-10-13T1600,3149A,115.0235,30.1578,黄石市,笔架山北路,细颗粒物(PM2.5),78,69,80,57,66,136,,136,136,24,21,12,12,0.8,0.7
2024-10-13T1600,1392A,114.4183,23.0528,惠州市,河南岸金山湖子站,,46,35,49,25,28,145,,123,123,6,14,6,7,0.6,0.7
2024-10-13T1600,1393A,114.4053,23.0822,惠州市,下埔横江三路子站,,49,38,48,19,26,154,,138,138,9,12,6,6,0.7,0.7
2024-10-13T1600,1394A,114.4103,23.1142,惠州市,江北云山西路子站,,47,32,42,26,26,148,,130,130,7,10,5,7,0.5,0.6
2024-10-13T1600,1395A,114.4645,22.7833,惠州市,惠阳区承修路船湖子站,,45,32,43,16,20,144,,132,132,14,17,8,8,0.6,0.6
2024-10-13T1600,1396A,114.5317,22.7422,惠州市,大亚湾管委会子站,,46,32,37,16,20,146,,132,132,11,16,8,9,0.6,0.7
2024-10-13T1600,3314A,114.4338,22.8134,惠州市,惠阳秋长,,,34,33,20,22,,,158,158,14,16,7,6,0.5,0.7
2024-10-13T1600,3452A,114.6517,22.775,惠州市,大亚湾霞涌,,44,39,36,9,22,139,,128,128,8,11,7,6,0.4,0.5
2024-10-13T1600,2240A,130.9762,45.3001,鸡西市,环保局,,32,32,48,10,19,61,,53,53,8,31,6,9,0.2,0.4
2024-10-13T1600,2243A,130.9429,45.3039,鸡西市,第一中学,,23,23,34,3,12,62,,52,52,15,27,8,8,0,0
2024-10-13T1600,3707A,131.0207,45.3073,鸡西市,欧美日汽修厂,,30,30,66,9,29,67,,61,61,10,29,6,9,0.0,0.4
2024-10-13T1600,3709A,130.9967,45.3106,鸡西市,市政设施管理处,,23,23,67,3,24,54,,54,54,19,35,6,8,0.1,0.4
2024-10-13T1600,2367A,114.9754,27.0803,吉安市,红声器材厂,臭氧1小时,65,65,78,33,49,172,,152,152,18,23,14,16,0.5,0.6
2024-10-13T1600,2368A,114.9658,27.0999,吉安市,市森林工业局,臭氧1小时,60,53,71,32,47,168,,145,145,14,23,12,15,0.7,0.8
2024-10-13T1600,2369A,114.99,27.1312,吉安市,市环境监测站,臭氧1小时,54,41,65,27,42,163,,149,149,15,22,14,20,0.5,0.7
2024-10-13T1600,2370A,115.0093,27.0968,吉安市,青原区法院,,50,47,75,22,46,159,,148,148,16,25,14,22,0.5,0.7
2024-10-13T1600,1772A,126.54,43.8622,吉林市,哈达湾,,40,27,38,12,20,125,,105,105,10,28,8,8,0.5,0.6
2024-10-13T1600,1773A,126.5844,43.8358,吉林市,东局子,,38,23,46,15,24,119,,100,100,18,36,6,6,0.5,0.7
2024-10-13T1600,1774A,126.5052,43.8245,吉林市,电力学院,,39,22,60,18,34,123,,97,97,9,33,6,6,0.6,0.8
2024-10-13T1600,1775A,126.6133,43.8972,吉林市,江北,,34,29,48,13,26,108,,99,99,20,29,8,9,0.6,0.8
2024-10-13T1600,1776A,126.555,43.8306,吉林市,江南公园,,39,26,50,17,28,123,,95,95,11,37,8,8,0.5,0.7
2024-10-13T1600,1778A,126.7061,43.7133,吉林市,丰满,,35,20,16,13,11,112,,99,99,7,8,6,6,0.4,0.3
2024-10-13T1600,2868A,126.4739,43.953,吉林市,九站,,42,42,67,14,35,125,,109,109,13,40,7,9,0.6,0.8
2024-10-13T1600,1299A,116.9862,36.6114,济南市,科干所,颗粒物(PM10),52,53,86,27,47,152,,143,143,11,19,6,8,0.7,0.8
2024-10-13T1600,1300A,116.9376,36.665,济南市,农科所,颗粒物(PM10),59,68,100,34,44,151,,133,133,15,49,5,7,0.7,0.9
2024-10-13T1600,1301A,117.1265,36.6734,济南市,开发区,,47,46,80,29,47,150,,147,147,18,37,5,6,0.6,0.7
2024-10-13T1600,1303A,117.0624,36.6868,济南市,省种子仓库,颗粒物(PM10),54,58,91,29,48,152,,145,145,11,40,3,5,0.5,0.6
2024-10-13T1600,1304A,116.9489,36.6447,济南市,机床二厂,颗粒物(PM10),57,63,100,29,46,158,,145,145,14,50,4,6,0.7,0.9
2024-10-13T1600,1305A,117.0495,36.663,济南市,市监测站,细颗粒物(PM2.5),55,56,81,39,50,156,,152,152,14,36,5,6,0.6,0.8
2024-10-13T1600,1306A,116.7675,36.5484,济南市,长清党校,臭氧1小时,78,61,89,39,49,182,,158,158,15,26,5,8,0.6,0.7
2024-10-13T1600,1616A,117.6795,36.229,济南市,技术学院,,44,36,93,22,59,140,,131,131,16,29,9,9,0.7,0.9
2024-10-13T1600,1961A,117.532,36.6868,济南市,东山小学,,50,44,90,27,47,159,,146,146,12,34,4,5,0.6,0.7
2024-10-13T1600,3059A,117.7161,36.2049,济南市,泰兴公司,,45,39,91,14,54,144,,132,132,17,47,7,9,0.5,0.7
2024-10-13T1600,3064A,117.6867,36.2171,济南市,莱芜战役纪念馆,,44,34,94,22,53,140,,130,130,18,33,6,7,0.5,0.8
2024-10-13T1600,3494A,117.1673,36.9782,济南市,济阳区政府,臭氧1小时,68,78,122,42,56,174,,128,128,15,55,3,17,0.4,0.6
2024-10-13T1600,3495A,117.1171,36.63,济南市,锦屏中学,,49,44,69,27,43,156,,156,151,18,25,5,6,0.5,0.7
2024-10-13T1600,3682A,116.9814,36.6819,济南市,济南四建,细颗粒物(PM2.5),55,51,81,39,47,155,,138,138,13,45,3,4,0.6,0.8
2024-10-13T1600,1653A,116.6251,35.4302,济宁市,火炬城,颗粒物(PM10),59,68,78,34,49,157,,140,140,15,22,11,11,0.7,0.9
2024-10-13T1600,1655A,116.5491,35.4042,济宁市,电化厂,颗粒物(PM10),74,98,98,34,47,146,,134,134,25,24,10,10,1.0,1.1
2024-10-13T1600,3500A,116.5814,35.3707,济宁市,北湖一中,颗粒物(PM10),56,61,72,29,58,158,,140,140,14,20,10,9,0.6,0.7
2024-10-13T1600,3501A,116.8249,35.5593,济宁市,服务中心,颗粒物(PM10),51,51,84,31,54,150,,130,130,10,25,7,8,0.7,0.8
2024-10-13T1600,3678A,116.5907,35.4054,济宁市,市第七中学,颗粒物(PM10),57,63,79,31,53,160,,142,142,12,20,9,9,0.7,0.8
2024-10-13T1600,2255A,130.2751,46.8028,佳木斯市,佳纺,,25,22,36,7,14,78,,65,65,13,24,4,5,0.5,0.5
2024-10-13T1600,2256A,130.3995,46.8307,佳木斯市,发电厂,,27,27,26,8,12,71,,64,64,18,21,6,6,0.4,0.4
2024-10-13T1600,2257A,130.3258,46.7975,佳木斯市,环保局,,25,24,35,8,16,78,,56,56,13,28,8,9,0.4,0.4
2024-10-13T1600,2258A,130.3648,46.8032,佳木斯市,十一中,,24,20,30,7,15,74,,62,62,18,33,6,8,0.4,0.5
2024-10-13T1600,2259A,130.3794,46.7588,佳木斯市,四丰,,,36,14,6,8,86,,72,72,,,1,1,0,0
2024-10-13T1600,1252A,120.7436,30.778,嘉兴市,清河小学,,36,14,20,7,11,113,,91,91,15,24,6,5,0.5,0.5
2024-10-13T1600,1253A,120.726,30.7478,嘉兴市,嘉兴学院,,35,19,24,3,14,109,,69,69,13,23,5,4,0.4,0.5
2024-10-13T1600,2872A,120.7846,30.7525,嘉兴市,南湖区残联,,31,21,24,3,13,99,,78,78,14,23,8,6,0.5,0.5
2024-10-13T1600,3407A,120.6916,30.7739,嘉兴市,秀洲住建,,38,13,17,7,10,120,,93,93,12,21,7,6,0.5,0.5
2024-10-13T1600,1945A,98.2908,39.7711,嘉峪关市,气象局,颗粒物(PM10),85,119,65,39,19,107,,80,80,29,28,28,26,0.8,0.6
2024-10-13T1600,2884A,98.2672,39.7978,嘉峪关市,酒钢宾馆,颗粒物(PM10),73,95,70,29,23,99,,77,77,29,30,69,53,1.4,1
2024-10-13T1600,3248A,98.2643,39.7724,嘉峪关市,雄关区,颗粒物(PM10),67,83,58,20,21,108,,73,73,22,30,26,25,0.2,0.8
2024-10-13T1600,1383A,113.1064,22.6058,江门市,北街,臭氧1小时,114,47,42,32,31,227,,179,179,14,19,6,6,0.5,0.6
2024-10-13T1600,1384A,113.0731,22.5835,江门市,西区,臭氧1小时,109,41,58,29,28,218,,181,181,17,27,6,6,0.4,0.5
2024-10-13T1600,1385A,113.0219,22.5311,江门市,圭峰西,臭氧1小时,108,59,49,27,30,215,,176,176,16,20,5,4,0.4,0.4
2024-10-13T1600,1386A,113.0828,22.5947,江门市,东湖,臭氧1小时,90,58,56,34,28,192,,173,173,14,21,6,6,0.5,0.5
2024-10-13T1600,3311A,113.1075,22.5647,江门市,江海富民,臭氧1小时,111,55,67,27,34,222,,183,183,16,20,7,7,0.5,0.6
2024-10-13T1600,3449A,113.05,22.4667,江门市,新会银湖,臭氧1小时,115,64,46,32,33,229,,174,174,12,23,8,7,0.6,0.6
2024-10-13T1600,1828A,113.227,35.2125,焦作市,市环保局,细颗粒物(PM2.5),80,88,152,59,101,180,,119,119,12,36,3,8,0.3,0.6
2024-10-13T1600,1830A,113.1992,35.2590,焦作市,影视城,细颗粒物(PM2.5),103,94,112,77,76,189,,142,142,13,16,9,10,0.6,0.6
2024-10-13T1600,3169A,113.2725,35.2067,焦作市,太极体育中心,细颗粒物(PM2.5),77,92,167,56,97,169,,110,110,15,46,3,9,0.6,0.8
2024-10-13T1600,3335A,113.3137,35.2641,焦作市,马村街道办,细颗粒物(PM2.5),100,90,144,75,97,178,,116,116,14,39,8,6,0.2,0.3
2024-10-13T1600,3336A,113.2465,35.2373,焦作市,焦作技师学院,细颗粒物(PM2.5),85,85,149,63,89,174,,115,115,8,32,5,6,0.7,1
2024-10-13T1600,3477A,113.1656,35.2539,焦作市,中站许衡医院,细颗粒物(PM2.5),78,89,124,57,79,180,,131,131,11,24,6,7,0.2,0.3
2024-10-13T1600,3981A,113.2449,35.1803,焦作市,原李万街道办,颗粒物(PM10),74,97,178,50,96,173,,113,113,18,55,7,13,0.5,0.8
2024-10-13T1600,1708A,116.3701,23.5345,揭阳市,新兴,,39,38,51,19,31,122,,119,119,12,22,6,7,0.5,0.6
2024-10-13T1600,1709A,116.3264,23.5443,揭阳市,西马,,44,39,57,15,30,138,,127,127,6,17,6,8,0.6,0.7
2024-10-13T1600,1710A,116.3611,23.5626,揭阳市,东兴,,41,32,55,15,29,131,,122,122,7,21,6,8,0.8,0.9
2024-10-13T1600,1711A,116.4151,23.5294,揭阳市,渔湖,,41,40,54,13,28,129,,119,119,11,22,8,10,0.7,0.7
2024-10-13T1600,3320A,116.403,23.5699,揭阳市,曲溪,,,26,48,15,28,132,,118,118,12,23,,11,0.5,0.6
2024-10-13T1600,1944A,102.1692,38.5167,金昌市,天庆家园,,34,30,60,12,35,106,,86,86,9,34,11,49,0.4,0.7
2024-10-13T1600,3170A,102.1864,38.5253,金昌市,市委党校,,34,22,69,8,30,108,,80,80,5,32,7,38,0.5,0.8
2024-10-13T1600,4022A,102.1647,38.5371,金昌市,金川区人防中心,,34,32,67,11,28,107,,104,104,7,25,8,44,0.4,0.7
2024-10-13T1600,1262A,119.647,29.077,金华市,十五中,,37,37,60,19,35,110,,88,88,14,38,4,4,0.3,0.5
2024-10-13T1600,1263A,119.686,29.1029,金华市,监测站,,38,31,57,15,33,119,,91,91,14,41,3,3,0.4,0.5
2024-10-13T1600,3659A,119.656,29.1131,金华市,气象局,,39,30,50,14,25,124,,90,90,14,38,4,4,0.2,0.3
2024-10-13T1600,1767A,121.1115,41.0879,锦州市,南山,细颗粒物(PM2.5),64,,65,46,73,102,,78,78,17,50,8,8,0.5,0.8
2024-10-13T1600,1768A,121.0533,40.8434,锦州市,开发区,细颗粒物(PM2.5),73,,97,53,80,87,,77,77,39,69,9,17,0.7,0.9
2024-10-13T1600,1769A,121.1836,41.1119,锦州市,百股街道,,35,24,68,22,43,112,,84,84,11,42,7,12,0.8,1.2
2024-10-13T1600,1770A,121.1178,41.1222,锦州市,天安街道,细颗粒物(PM2.5),62,,84,44,82,104,,83,83,23,57,9,10,0.7,1.2
2024-10-13T1600,1771A,121.1303,41.1386,锦州市,北湖公园,细颗粒物(PM2.5),58,,75,41,80,110,,90,90,19,42,9,10,0.6,1
2024-10-13T1600,2160A,112.85,35.5051,晋城市,自来水公司,"细颗粒物(PM2.5),臭氧1小时",79,83,131,58,89,183,,132,132,21,42,10,11,0.9,1.1
2024-10-13T1600,2161A,112.8318,35.4936,晋城市,白云商贸,细颗粒物(PM2.5),79,85,145,58,93,181,,130,130,25,38,8,8,0.8,1.1
2024-10-13T1600,2162A,112.8508,35.4887,晋城市,市环保局,细颗粒物(PM2.5),79,95,146,58,87,182,,127,127,21,43,8,9,0.8,1.1
2024-10-13T1600,2163A,112.8676,35.4897,晋城市,技术学院,"细颗粒物(PM2.5),臭氧1小时",79,88,135,58,85,183,,125,125,25,46,8,9,0.9,1.3
2024-10-13T1600,2165A,112.8453,35.546,晋城市,白马寺,,,,,,,,,,,,,,,,
2024-10-13T1600,3620A,112.8271,35.4828,晋城市,泽州一中,细颗粒物(PM2.5),89,94,130,66,97,176,,129,129,25,34,12,13,0.9,1.2
2024-10-13T1600,2171A,112.7532,37.6945,晋中市,锦纶小区,细颗粒物(PM2.5),110,114,99,83,62,91,,66,63,25,27,8,9,0.9,0.8
2024-10-13T1600,2173A,112.7249,37.7067,晋中市,南都小区,细颗粒物(PM2.5),99,104,90,74,57,101,,78,77,24,25,6,8,1.0,0.7
2024-10-13T1600,2174A,112.6991,37.6982,晋中市,榆次区政府,,,,83,59,47,104,,74,74,21,26,7,8,0.7,0.6
2024-10-13T1600,2865A,112.7195,37.6828,晋中市,榆次三中,细颗粒物(PM2.5),94,102,100,70,57,103,,66,60,21,27,10,10,1.5,0.9
2024-10-13T1600,2439A,112.2014,31.0481,荆门市,竹园小学,细颗粒物(PM2.5),67,58,72,48,53,103,,82,82,19,24,10,10,0.6,0.7
2024-10-13T1600,2440A,112.1969,30.9891,荆门市,掇刀,细颗粒物(PM2.5),70,55,70,51,54,101,,80,80,19,23,7,8,0.5,0.6
2024-10-13T1600,2441A,112.2213,31.0386,荆门市,石化一小,细颗粒物(PM2.5),74,57,76,54,59,108,,87,87,21,24,12,21,0.5,0.5
2024-10-13T1600,3012A,112.1849,31.0362,荆门市,西山林语,细颗粒物(PM2.5),65,56,65,47,50,102,,77,77,19,17,7,8,0.4,0.5
2024-10-13T1600,3547A,112.1632,31.0138,荆门市,龙泉中学南校,,50,50,55,33,38,114,,73,73,23,30,4,6,0.7,0.6
2024-10-13T1600,1844A,112.2494,30.3197,荆州市,市图书馆,,49,45,58,34,46,93,,67,66,26,23,10,11,0.9,0.9
2024-10-13T1600,1845A,112.2008,30.3544,荆州市,市委党校,,49,42,59,34,45,103,,81,81,22,22,6,7,0.7,0.6
2024-10-13T1600,3194A,112.2747,30.3122,荆州市,管委会,细颗粒物(PM2.5),65,57,63,47,53,94,,76,76,25,23,8,9,0.8,0.9
2024-10-13T1600,3548A,112.1655,30.3364,荆州市,学苑路,细颗粒物(PM2.5),58,42,66,41,49,102,,80,80,23,24,7,23,0.8,0.8
2024-10-13T1600,2342A,117.3102,29.3867,景德镇市,王港中学,,,,,,,,,,,,,,,,
2024-10-13T1600,2343A,117.2117,29.2933,景德镇市,老干部活动中心,,37,31,49,22,37,116,,92,92,9,14,12,9,0.2,0.3
2024-10-13T1600,2344A,117.1894,29.2789,景德镇市,兽医站,,41,40,58,26,34,131,,103,103,13,15,10,7,0.6,0.5
2024-10-13T1600,2345A,117.1547,29.2617,景德镇市,台达陶瓷,,46,46,50,27,34,120,,94,94,13,13,33,12,0.5,0.6
2024-10-13T1600,2346A,117.2461,29.2956,景德镇市,陶研所,,39,39,53,23,36,124,,90,90,9,19,7,6,0.4,0.5
2024-10-13T1600,1803A,115.9872,29.6815,九江市,十里,颗粒物(PM10),65,79,96,45,60,163,,138,138,38,23,13,15,0.8,0.9
2024-10-13T1600,1804A,115.9584,29.7046,九江市,茅山头,细颗粒物(PM2.5),64,66,85,46,65,153,,128,128,19,25,11,12,0.9,0.9
2024-10-13T1600,1805A,115.9877,29.7295,九江市,西园,细颗粒物(PM2.5),68,70,87,49,62,155,,135,135,25,23,13,14,0.7,0.7
2024-10-13T1600,1806A,116.0172,29.6547,九江市,五七二七厂,细颗粒物(PM2.5),63,70,83,45,65,137,,125,125,64,27,14,15,0.8,0.9
2024-10-13T1600,1808A,115.9114,29.6038,九江市,综合工业园,细颗粒物(PM2.5),83,84,88,61,69,158,,136,136,50,48,24,23,0.9,0.9
2024-10-13T1600,1809A,116.0721,29.7535,九江市,石化总厂,细颗粒物(PM2.5),73,76,98,53,70,147,,128,128,22,29,10,12,0.8,0.9
2024-10-13T1600,1810A,115.9773,29.5698,九江市,庐山气象台,"细颗粒物(PM2.5),臭氧1小时",63,56,60,45,37,170,,165,165,10,6,9,7,0.7,0.7
2024-10-13T1600,3190A,116.0254,29.6994,九江市,外国语学校,细颗粒物(PM2.5),67,77,99,48,69,146,,127,127,28,27,11,11,0.4,0.5
2024-10-13T1600,2658A,98.5061,39.7443,酒泉市,仓门街子站,颗粒物(PM10),68,85,64,21,22,120,,95,95,7,15,6,9,0.3,0.4
2024-10-13T1600,2659A,98.4989,39.7256,酒泉市,油田生活基地,颗粒物(PM10),71,92,75,27,24,115,,89,89,7,14,6,9,0.3,0.4
2024-10-13T1600,2698A,76.0072,39.4467,喀什地区,巡警大队,,34,34,107,6,23,95,,43,43,8,41,3,5,0.3,0.7
2024-10-13T1600,2699A,75.9755,39.4694,喀什地区,吾办,,30,29,110,8,40,95,,45,45,7,44,2,3,0.4,0.9
2024-10-13T1600,4027A,75.9483,39.4689,喀什地区,老干局,,31,24,144,3,25,98,,50,50,5,47,4,5,0.4,0.8
2024-10-13T1600,1824A,114.3389,34.7781,开封市,肿瘤医院,细颗粒物(PM2.5),72,,122,52,93,165,,131,131,10,34,3,6,0.4,0.6
2024-10-13T1600,1826A,114.2885,34.7965,开封市,世纪星幼儿园,臭氧1小时,72,48,106,33,58,177,,140,140,9,26,3,2,0.5,0.6
2024-10-13T1600,3147A,114.3438,34.8106,开封市,龙亭公园,细颗粒物(PM2.5),72,56,106,52,94,171,,138,138,11,27,2,4,0.5,0.6
2024-10-13T1600,3210A,114.3644,34.7964,开封市,汴京公园,细颗粒物(PM2.5),68,71,116,49,86,158,,124,124,9,26,2,4,0.4,0.6
2024-10-13T1600,3473A,114.2485,34.8306,开封市,技师学院,臭氧1小时,70,79,104,31,54,176,,143,143,8,19,3,3,0.5,0.7
2024-10-13T1600,3592A,114.4644,34.7556,开封市,祥符区生态环境局,颗粒物(PM10),65,79,132,45,75,167,,128,128,14,46,2,3,0.4,0.6
2024-10-13T1600,1951A,84.895,45.6094,克拉玛依市,长征新村,,24,18,12,7,5,74,,75,72,4,5,6,6,0.2,0.2
2024-10-13T1600,1952A,84.8988,45.5893,克拉玛依市,南林小区,,25,19,12,17,11,77,,80,75,6,7,3,4,0.1,0.1
2024-10-13T1600,1954A,84.905,44.3396,克拉玛依市,独山子区,,27,27,18,11,6,81,,60,60,11,16,10,9,0.2,0.4
2024-10-13T1600,1955A,85.6979,46.098,克拉玛依市,乌尔禾区商贸楼,,25,6,13,3,5,78,,77,73,2,2,2,2,0.1,0.1
2024-10-13T1600,3612A,85.1045,45.6899,克拉玛依市,白碱滩区新站,,25,16,24,3,6,77,,82,78,8,8,8,8,0.3,0.3
2024-10-13T1600,2697A,76.1454,39.7142,克孜勒苏柯尔克孜自治州,市人民政府,,36,31,54,11,18,114,,98,98,4,9,4,8,0.3,0.3
2024-10-13T1600,3665A,76.1658,39.7157,克孜勒苏柯尔克孜自治州,克州文化中心,,36,24,45,9,20,113,,103,99,6,9,7,12,0.3,0.3
2024-10-13T1600,1450A,102.8204,24.8886,昆明市,呈贡新区,,27,19,25,9,13,85,,72,72,4,11,7,6,0.5,0.6
2024-10-13T1600,1451A,102.6251,24.9608,昆明市,西山森林公园,,,,,,,,,,,,,,,,
2024-10-13T1600,1452A,102.7252,25.0902,昆明市,龙泉镇,,,,22,9,13,82,,63,63,7,19,6,7,0.6,0.7
2024-10-13T1600,1453A,102.7266,25.0375,昆明市,东风东路,,27,18,23,13,14,85,,64,64,9,14,7,7,0.4,0.5
2024-10-13T1600,1454A,102.6742,25.0669,昆明市,金鼎山,,27,15,21,7,11,84,,62,62,9,14,2,2,0.4,0.5
2024-10-13T1600,1455A,102.6644,25.0401,昆明市,碧鸡广场,,26,14,23,3,14,81,,65,65,14,16,7,7,0.3,0.3
2024-10-13T1600,3179A,102.7494,25.0119,昆明市,官渡区博物馆,,30,28,23,12,13,93,,72,72,8,12,7,7,0.5,0.6
2024-10-13T1600,3375A,102.8017,24.8336,昆明市,青年创业园,,27,17,18,12,13,85,,71,71,4,13,4,6,0.5,0.6
2024-10-13T1600,3550A,102.7997,24.9786,昆明市,昆明学院,,31,13,20,8,14,97,,76,76,6,10,7,6,0.4,0.6
2024-10-13T1600,3551A,102.5967,24.6736,昆明市,晋宁区生态环境分局,,28,10,22,9,15,88,,72,72,4,9,2,2,0.4,0.6
2024-10-13T1600,3552A,102.6678,24.9856,昆明市,云天化总部,,30,11,19,7,14,93,,74,74,4,15,6,6,0.4,0.5
2024-10-13T1600,1456A,91.1319,29.6514,拉萨市,八廓街,,40,20,13,9,6,127,,111,111,8,9,7,13,0.1,0.2
2024-10-13T1600,1457A,91.1221,29.6747,拉萨市,市环保局,,39,14,15,6,8,124,,102,102,10,13,6,10,0.2,0.2
2024-10-13T1600,1458A,91.0874,29.6475,拉萨市,区监测站,,39,18,12,6,6,124,,102,102,8,12,6,11,0.3,0.2
2024-10-13T1600,1459A,91.1774,29.6541,拉萨市,西藏大学,,39,13,11,6,6,123,,105,105,6,6,7,12,0.3,0.2
2024-10-13T1600,1460A,90.9798,29.6588,拉萨市,区辐射站,,39,13,14,7,7,124,,98,98,5,14,8,9,0.2,0.2
2024-10-13T1600,1461A,91.0834,29.6292,拉萨市,拉萨火车站,,38,14,10,6,7,120,,101,92,6,9,6,9,0.1,0.1
2024-10-13T1600,2520A,109.2203,23.7256,来宾市,来宾技工学校,细颗粒物(PM2.5),55,58,82,39,52,141,,119,119,10,25,8,14,0.8,0.9
2024-10-13T1600,3535A,109.1781,23.7297,来宾市,兴宾区政府,细颗粒物(PM2.5),58,64,66,41,45,144,,115,115,9,14,16,11,0.7,0.7
2024-10-13T1600,4002A,109.2416,23.7461,来宾市,中南小学,细颗粒物(PM2.5),60,56,79,43,50,148,,118,118,7,29,6,10,0.8,0.8
2024-10-13T1600,1476A,103.631,36.1031,兰州市,兰炼宾馆,臭氧1小时,85,60,59,44,40,188,,144,144,39,50,17,15,0.8,0.8
2024-10-13T1600,1477A,104.1373,35.9454,兰州市,榆中兰大校区,,,,,,,,,,,,,,,,
2024-10-13T1600,1478A,103.8412,36.0726,兰州市,生物制品所,,47,47,48,31,34,95,,51,51,41,44,14,11,0.6,0.6
2024-10-13T1600,1479A,103.831,36.0464,兰州市,铁路设计院,细颗粒物(PM2.5),54,51,56,38,37,91,,47,47,49,56,13,9,0.7,0.8
2024-10-13T1600,3186A,103.7158,36.1058,兰州市,教育港,臭氧1小时,113,65,60,47,39,225,,109,109,34,43,14,12,0.8,0.7
2024-10-13T1600,3241A,103.7439,36.0842,兰州市,百合公园,臭氧1小时,78,48,49,24,30,182,,89,89,21,38,14,10,0.8,0.7
2024-10-13T1600,3242A,103.9611,35.998,兰州市,和平,颗粒物(PM10),55,60,47,34,26,123,,70,70,24,29,22,15,0.9,0.7
2024-10-13T1600,3245A,103.6633,36.533,兰州新区,新区管委会,,39,39,43,23,26,123,,80,80,9,20,8,9,0.5,0.5
2024-10-13T1600,3246A,103.6975,36.4789,兰州新区,舟曲中学,,39,27,39,16,20,124,,89,89,10,22,12,11,0.5,0.5
2024-10-13T1600,1067A,116.6708,39.5111,廊坊市,药材公司,细颗粒物(PM2.5),129,150,155,98,94,60,,73,63,31,31,2,4,1.3,1
2024-10-13T1600,1068A,116.7214,39.5589,廊坊市,开发区,细颗粒物(PM2.5),143,177,165,109,91,65,,72,70,29,28,2,3,1.2,1
2024-10-13T1600,1070A,116.7244,39.5269,廊坊市,北华航天学院,细颗粒物(PM2.5),149,152,153,114,99,64,,69,68,29,27,2,4,1.2,1
2024-10-13T1600,2919A,116.7022,39.5453,廊坊市,河北工业大学,细颗粒物(PM2.5),138,134,135,105,93,67,,71,68,30,31,3,4,1.2,1
2024-10-13T1600,2535A,103.7723,29.5462,乐山市,花湖湾,,32,31,25,22,15,92,,52,52,7,12,3,3,0.8,0.8
2024-10-13T1600,2536A,103.7627,29.5844,乐山市,牛耳桥,,38,34,25,26,20,84,,49,49,14,20,4,4,0.6,0.6
2024-10-13T1600,2537A,103.7508,29.6006,乐山市,市第三水厂,,33,32,28,23,22,94,,58,58,8,17,3,3,0.7,0.7
2024-10-13T1600,2538A,103.7571,29.5664,乐山市,市监测站,,35,32,23,24,21,84,,48,48,8,14,3,4,0.7,0.6
2024-10-13T1600,3361A,103.7311,29.5628,乐山市,理工大学,,45,36,25,31,21,88,,56,56,8,14,3,3,0.6,0.6
2024-10-13T1600,2598A,100.2143,26.8576,丽江市,西南郊,,30,9,11,3,7,94,,82,82,3,4,6,7,0.6,0.7
2024-10-13T1600,2599A,100.2497,26.8802,丽江市,丽江古城,,26,19,15,7,8,81,,67,67,8,9,9,10,0.4,0.4
2024-10-13T1600,2600A,100.2203,26.8906,丽江市,市中心,,28,11,11,3,6,87,,71,71,6,8,6,6,0.5,0.5
2024-10-13T1600,1267A,119.914,28.4514,丽水市,监测站大楼,,,24,31,,21,99,,68,68,16,23,3,2,0.5,0.5
2024-10-13T1600,1268A,119.93,28.4586,丽水市,莲都小学,,41,41,29,18,16,98,,67,67,15,21,4,4,0.5,0.5
2024-10-13T1600,1269A,119.879,28.4231,丽水市,余庄前,,32,32,27,18,18,82,,62,62,19,18,4,4,0.4,0.4
2024-10-13T1600,1173A,119.176,34.5885,连云港市,市环境监测站,,30,12,57,7,39,96,,138,114,16,16,7,8,0.2,0.3
2024-10-13T1600,3000A,119.3581,34.6972,连云港市,德源药业,,32,,63,7,34,101,,110,110,18,28,4,5,0.2,0.3
2024-10-13T1600,3007A,119.178,34.844,连云港市,新城一中,,39,39,74,7,24,119,,115,115,14,34,4,5,0.4,0.6
2024-10-13T1600,3008A,119.3608,34.7519,连云港市,胡沟管理处,,35,7,46,3,28,110,,128,106,7,10,5,6,0.3,0.4
2024-10-13T1600,3009A,119.1478,34.5911,连云港市,矿山设计院,,32,,61,7,42,100,,126,111,12,14,7,7,0.5,0.5
2024-10-13T1600,3434A,119.2413,34.6539,连云港市,工贸学校,,32,6,44,3,28,100,,141,121,11,14,7,9,0.6,0.7
2024-10-13T1600,3664A,119.4172,34.7341,连云港市,连云街道,,35,6,33,3,22,110,,141,124,12,10,4,6,0.3,0.5
2024-10-13T1600,2571A,102.3431,27.8099,凉山彝族自治州,青龙寺,,32,,12,11,5,102,,65,65,3,2,16,7,0.9,0.6
2024-10-13T1600,2572A,102.2721,27.8415,凉山彝族自治州,邛海宾馆,颗粒物(PM10),57,63,21,16,10,92,,67,67,17,10,20,10,1.4,0.7
2024-10-13T1600,2573A,102.2625,27.898,凉山彝族自治州,西昌市政府,,30,10,24,3,13,94,,67,67,9,13,8,9,0.5,0.7
2024-10-13T1600,2574A,102.2685,27.8851,凉山彝族自治州,凉山州政府,,32,23,21,14,12,102,,70,70,8,15,7,8,0.3,0.7
2024-10-13T1600,2575A,102.237,27.8914,凉山彝族自治州,长安,,30,17,14,8,9,94,,62,62,10,17,11,12,0.6,0.8
2024-10-13T1600,2212A,123.2,41.1953,辽阳市,宏伟区,颗粒物(PM10),51,51,58,18,31,117,,117,117,22,21,10,9,0.7,0.9
2024-10-13T1600,2213A,123.1683,41.2495,辽阳市,新华园,,46,46,81,22,42,105,,103,103,26,39,13,14,0.7,1.1
2024-10-13T1600,2214A,123.2354,41.2639,辽阳市,滨河路,,49,49,71,24,33,114,,117,117,24,29,13,13,0.7,1
2024-10-13T1600,2215A,123.149,41.2991,辽阳市,铁西工业园,,45,45,94,22,39,110,,102,102,16,30,13,14,0.8,1.3
2024-10-13T1600,2227A,125.1358,42.8845,辽源市,环保局,,42,30,63,16,38,133,,118,118,8,32,7,8,0.5,0.9
2024-10-13T1600,3239A,125.0764,42.9078,辽源市,银鹰制药,,41,24,64,11,38,130,,113,113,12,37,10,14,0.6,0.9
2024-10-13T1600,1625A,115.9848,36.4372,聊城市,区政府,颗粒物(PM10),57,64,112,30,55,164,,135,135,15,29,8,11,0.5,0.6
2024-10-13T1600,2878A,116.0072,36.4343,聊城市,聊大东校,"颗粒物(PM10),臭氧1小时",63,75,119,41,61,170,,140,140,16,32,8,10,0.5,0.6
2024-10-13T1600,3200A,115.9819,36.4978,聊城市,监控中心,颗粒物(PM10),59,68,111,34,62,163,,137,137,16,33,8,10,0.7,0.8
2024-10-13T1600,3513A,116.0445,36.4361,聊城市,九州社区,颗粒物(PM10),61,72,103,39,54,164,,136,136,8,26,4,8,0.6,0.7
2024-10-13T1600,4018A,116.0567,36.4608,聊城市,星美广场,颗粒物(PM10),64,78,104,39,53,167,,141,141,11,27,1,10,0.7,0.8
2024-10-13T1600,2632A,94.3681,29.6376,林芝市,林芝监测站,,29,8,3,3,4,90,,73,73,2,4,6,6,0.2,0.2
2024-10-13T1600,2633A,94.3616,29.6616,林芝市,林芝人民医院,,30,10,7,3,4,93,,74,74,5,7,6,5,0.1,0.1
2024-10-13T1600,2603A,100.0781,23.8982,临沧市,市环保局,,26,26,23,15,15,68,,54,54,8,10,14,13,0.4,0.6
2024-10-13T1600,2604A,100.0894,23.8822,临沧市,市气象局,,25,23,26,17,19,71,,54,54,9,10,11,12,0.4,0.6
2024-10-13T1600,1733A,111.5531,36.0783,临汾市,临钢医院,细颗粒物(PM2.5),85,102,82,63,49,152,,93,93,22,34,5,4,0.7,0.7
2024-10-13T1600,1734A,111.5028,36.0714,临汾市,技工学校,细颗粒物(PM2.5),84,96,78,62,59,168,,108,108,17,30,6,5,0.9,0.8
2024-10-13T1600,1736A,111.5018,36.0855,临汾市,市委,细颗粒物(PM2.5),83,98,80,61,55,175,,116,116,12,22,7,6,0.8,0.9
2024-10-13T1600,3018A,111.505,36.1014,临汾市,唐尧大酒店,细颗粒物(PM2.5),84,97,77,62,55,167,,107,107,16,27,6,5,0.7,0.7
2024-10-13T1600,3668A,111.5036,36.0414,临汾市,城南,细颗粒物(PM2.5),87,106,77,64,53,179,,115,115,15,27,7,6,0.8,0.8
2024-10-13T1600,2667A,103.2069,35.5993,临夏回族自治州,环保局,,31,24,45,9,14,99,,67,67,8,24,4,4,0.3,0.6
2024-10-13T1600,2668A,103.2417,35.6057,临夏回族自治州,建设大厦,,33,29,43,15,24,105,,68,68,8,23,4,3,0.3,0.5
2024-10-13T1600,1618A,118.3429,35.0532,临沂市,沂河小区,,39,39,91,26,47,105,,116,116,14,17,6,9,0.4,0.5
2024-10-13T1600,1619A,118.295,35.0583,临沂市,鲁南制药厂,,36,29,87,21,38,114,,125,125,13,16,5,10,0.5,0.6
2024-10-13T1600,1620A,118.2794,34.9976,临沂市,新光毛纺厂,,34,27,88,21,46,106,,119,119,19,24,4,11,0.6,0.7
2024-10-13T1600,1621A,118.3956,35.0888,临沂市,河东保险公司,,40,39,85,28,58,103,,112,112,24,27,3,4,0.5,0.6
2024-10-13T1600,3370A,118.3564,35.0215,临沂市,十里堡居委,,42,34,81,29,54,107,,118,118,20,21,4,8,0.7,0.8
2024-10-13T1600,3496A,118.3604,35.1084,临沂市,南坊新区,,46,46,88,31,54,111,,119,119,20,21,7,9,0.7,0.7
2024-10-13T1600,3860A,118.3920,35.0300,临沂市,皇山花园小区,,41,41,89,27,58,105,,117,117,24,26,8,9,0.8,0.9
2024-10-13T1600,1870A,109.4856,24.3895,柳州市,柳东小学,颗粒物(PM10),56,62,54,37,37,152,,136,136,6,19,8,10,0.8,0.8
2024-10-13T1600,1871A,109.4157,24.3277,柳州市,环保监测站,颗粒物(PM10),56,62,68,37,42,158,,138,138,9,22,9,10,0.9,1
2024-10-13T1600,1872A,109.389,24.341,柳州市,河西水厂,颗粒物(PM10),54,57,78,36,48,160,,133,133,9,26,9,12,0.8,1
2024-10-13T1600,1873A,109.4311,24.2921,柳州市,市四中,"细颗粒物(PM2.5),臭氧1小时",55,54,74,39,42,164,,141,141,9,30,7,8,0.8,0.9
2024-10-13T1600,1874A,109.4006,24.3631,柳州市,市九中,颗粒物(PM10),56,62,72,35,41,163,,142,142,10,24,7,7,0.6,0.8
2024-10-13T1600,1875A,109.4958,24.3134,柳州市,古亭山,臭氧1小时,55,58,54,38,34,164,,140,140,9,41,9,9,0.9,0.9
2024-10-13T1600,3402A,109.5422,24.3996,柳州市,市二中,臭氧1小时,52,51,64,33,40,161,,135,135,11,39,11,10,0.8,0.8
2024-10-13T1600,2307A,116.5079,31.737,六安市,监测大楼,细颗粒物(PM2.5),63,54,61,45,62,123,,100,100,15,18,5,6,0.5,0.5
2024-10-13T1600,2308A,116.4738,31.7643,六安市,皖西学院,,,,74,,64,,,113,,,19,,6,,0.5
2024-10-13T1600,2309A,116.4996,31.7905,六安市,朝阳厂,细颗粒物(PM2.5),80,,62,59,60,116,,100,100,17,20,2,3,0.6,0.7
2024-10-13T1600,2310A,116.5567,31.7886,六安市,开发区,颗粒物(PM10),86,121,88,44,47,128,,104,104,26,23,6,6,0.6,0.6
2024-10-13T1600,2576A,104.8,26.5892,六盘水市,窑上,,28,26,35,19,24,59,,49,49,7,8,6,6,0.7,0.6
2024-10-13T1600,2577A,104.83,26.5917,六盘水市,黄土坡,,20,19,14,7,11,61,,53,53,13,14,9,9,0.7,0.7
2024-10-13T1600,2578A,104.89,26.5939,六盘水市,水钢,,21,9,16,3,9,66,,55,55,10,18,6,7,0.5,0.7
2024-10-13T1600,2579A,104.8475,26.5894,六盘水市,民中,,19,13,12,9,8,58,,54,54,15,14,8,7,0.6,0.6
2024-10-13T1600,2580A,104.9544,26.5506,六盘水市,双水,,23,9,15,7,10,73,,58,58,5,12,7,8,0.6,0.6
2024-10-13T1600,2335A,117.0189,25.1181,龙岩市,龙岩师专,,,,,,,,,,,,,,,,
2024-10-13T1600,2336A,117.0217,25.1033,龙岩市,龙岩市监测站,,37,15,30,10,22,118,,95,95,7,20,1,5,0.4,0.5
2024-10-13T1600,2337A,117.0258,25.0661,龙岩市,闽西职业技术学院,,35,20,41,16,22,111,,99,99,6,22,1,7,0.3,0.4
2024-10-13T1600,2338A,117.0196,25.0306,龙岩市,龙岩学院,,35,13,28,7,17,112,,95,95,4,13,4,5,0.4,0.4
2024-10-13T1600,2665A,105.0822,33.3261,陇南市,汉王镇固水子,,,,,,,,,,,,,,,,
2024-10-13T1600,2885A,104.9339,33.3826,陇南市,滨江中学,,35,35,32,10,14,71,,58,58,7,11,5,5,0.4,0.5
2024-10-13T1600,3247A,104.955,33.371,陇南市,市总工会,,23,19,25,7,5,73,,60,60,6,9,4,4,0.4,0.5
2024-10-13T1600,2487A,111.9589,27.8901,娄底市,电视发射台,细颗粒物(PM2.5),129,141,106,98,77,149,,116,116,14,13,11,10,0.9,0.7
2024-10-13T1600,2488A,111.9975,27.725,娄底市,市监测站,细颗粒物(PM2.5),118,132,128,89,91,158,,124,124,13,14,10,10,0.8,0.7
2024-10-13T1600,2489A,112.0194,27.7314,娄底市,市委党校,细颗粒物(PM2.5),133,134,128,101,94,147,,125,125,13,15,6,7,0.9,0.8
2024-10-13T1600,2490A,111.9561,27.7569,娄底市,涟钢,细颗粒物(PM2.5),115,120,129,87,99,126,,100,100,21,22,16,12,0.7,0.7
2024-10-13T1600,2491A,111.9892,27.7044,娄底市,市政府,细颗粒物(PM2.5),127,118,123,96,98,153,,121,121,17,18,8,9,0.7,0.7
2024-10-13T1600,1893A,105.4324,28.9634,泸州市,九狮山,,21,12,23,11,16,66,,42,42,25,23,5,5,0.6,0.6
2024-10-13T1600,1894A,105.4427,28.9063,泸州市,小市上码头,,29,28,31,14,15,90,,52,52,16,25,4,4,0.5,0.6
2024-10-13T1600,1895A,105.4241,28.8573,泸州市,兰田宪桥,,30,18,20,14,15,94,,59,59,10,15,3,3,0.5,0.5
2024-10-13T1600,1896A,105.4379,28.8833,泸州市,市环监站,,27,23,24,16,20,86,,54,54,13,23,4,4,0.5,0.6
2024-10-13T1600,3490A,105.3617,28.7703,泸州市,纳溪区环保局,,27,13,21,13,17,86,,60,60,11,24,5,5,0.5,0.6
2024-10-13T1600,2183A,111.1406,37.5211,吕梁市,环保局,颗粒物(PM10),52,54,52,24,31,105,,74,62,10,30,1,3,0.6,0.7
2024-10-13T1600,2185A,111.1297,37.5136,吕梁市,自来水公司,,47,47,44,23,29,102,,80,80,14,26,2,2,0.5,0.6
2024-10-13T1600,2867A,111.1283,37.51,吕梁市,马茂庄小学,颗粒物(PM10),53,56,57,29,33,110,,76,74,10,31,2,2,0.4,0.5
2024-10-13T1600,1812A,112.3931,34.6516,洛阳市,市委党校,细颗粒物(PM2.5),143,123,145,109,119,169,,80,80,20,44,6,6,0.7,1
2024-10-13T1600,1814A,112.4657,34.6871,洛阳市,豫西宾馆,细颗粒物(PM2.5),129,136,144,98,114,178,,89,89,20,50,6,7,0.8,1.1
2024-10-13T1600,1815A,112.494,34.6886,洛阳市,河南林校,细颗粒物(PM2.5),170,138,147,129,129,154,,80,80,24,50,8,7,0.7,1
2024-10-13T1600,1816A,112.3844,34.623,洛阳市,开发区管委会,细颗粒物(PM2.5),160,164,141,122,118,177,,89,89,22,38,8,6,0.7,0.7
2024-10-13T1600,1817A,112.4267,34.6258,洛阳市,市委新办公区,细颗粒物(PM2.5),150,174,140,115,104,177,,94,94,21,34,7,5,0.5,0.6
2024-10-13T1600,3340A,112.6005,34.6326,洛阳市,伊滨,细颗粒物(PM2.5),147,120,115,112,109,171,,84,84,21,36,8,5,0.9,1
2024-10-13T1600,3341A,112.4951,34.6332,洛阳市,中移产业园,细颗粒物(PM2.5),134,119,130,102,107,181,,93,93,21,42,8,7,0.8,1
2024-10-13T1600,3593A,112.5736,34.8993,洛阳市,吉利监测站,细颗粒物(PM2.5),135,125,120,103,88,153,,70,70,19,49,5,3,0.6,0.8
2024-10-13T1600,3635A,112.3677,34.662,洛阳市,河科大西苑校区,细颗粒物(PM2.5),130,129,154,99,99,183,,85,85,22,49,10,9,0.8,1.1
2024-10-13T1600,3636A,112.4388,34.6781,洛阳市,英才小学,细颗粒物(PM2.5),122,150,168,92,95,170,,82,82,22,54,7,9,0.8,1.1
2024-10-13T1600,2399A,114.051,33.5699,漯河市,三五一五工厂,细颗粒物(PM2.5),93,117,154,69,87,154,,116,116,15,25,7,9,0.7,0.8
2024-10-13T1600,2400A,114.0055,33.5698,漯河市,漯河大学,细颗粒物(PM2.5),94,122,149,70,91,164,,124,124,17,24,7,7,0.5,0.6
2024-10-13T1600,2401A,114.0138,33.5828,漯河市,市水利局,细颗粒物(PM2.5),89,117,155,66,85,158,,122,122,13,19,7,8,0.6,0.7
2024-10-13T1600,2402A,114.0261,33.5698,漯河市,市广电局,细颗粒物(PM2.5),88,120,147,65,89,160,,122,122,15,22,6,7,0.7,0.8
2024-10-13T1600,3478A,113.9749,33.5664,漯河市,市图书馆,细颗粒物(PM2.5),82,87,141,60,86,168,,127,127,16,22,6,6,0.7,0.8
2024-10-13T1600,3479A,114.0967,33.5906,漯河市,召陵区卫健委,细颗粒物(PM2.5),87,117,158,64,94,154,,118,118,17,25,8,9,0.4,0.5
2024-10-13T1600,1798A,118.5092,31.6837,马鞍山市,湖东路四小,,33,31,48,9,32,104,,87,87,20,25,7,8,0.6,0.8
2024-10-13T1600,1799A,118.5024,31.6449,马鞍山市,开发区,,33,27,55,10,34,105,,83,83,14,26,6,7,0.5,0.7
2024-10-13T1600,1800A,118.5228,31.7231,马鞍山市,慈湖,,33,25,58,13,33,103,,81,81,13,17,8,9,0.7,0.8
2024-10-13T1600,1802A,118.6245,31.7241,马鞍山市,濮塘,,30,20,51,8,42,96,,84,84,19,22,6,6,0.5,0.7
2024-10-13T1600,3633A,118.4918,31.6809,马鞍山市,雨山,,34,27,46,11,27,107,,89,89,8,17,3,4,0.7,0.8
2024-10-13T1600,1686A,111.0286,21.4688,茂名市,电白南海,,41,39,52,14,23,129,,135,135,11,14,10,13,0.8,0.8
2024-10-13T1600,1687A,110.9294,21.6533,茂名市,茂石化七小,,41,29,49,17,27,130,,143,143,9,10,9,10,0.7,0.8
2024-10-13T1600,1688A,110.9107,21.6687,茂名市,健康路,,44,29,47,17,25,139,,152,152,6,8,10,13,0.6,0.7
2024-10-13T1600,1689A,110.8592,21.6828,茂名市,高岭,,40,34,60,17,29,128,,141,141,11,12,7,12,0.6,0.7
2024-10-13T1600,3450A,111.01,21.5165,茂名市,电白水东,,41,41,47,19,25,121,,132,132,9,10,8,12,0.6,0.7
2024-10-13T1600,2539A,104.0308,30.0478,眉山市,黑龙滩水库,,30,30,33,21,22,95,,75,75,4,4,5,5,0.6,0.6
2024-10-13T1600,2540A,103.8416,30.0874,眉山市,气象局,,32,,29,22,24,85,,63,63,10,20,6,6,0.5,0.5
2024-10-13T1600,3137A,103.8578,30.0744,眉山市,市委党校,,26,24,28,14,18,82,,61,61,12,22,6,6,0.5,0.6
2024-10-13T1600,3148A,103.8291,30.0564,眉山市,区人社局,,26,19,33,12,20,82,,68,68,13,24,7,8,0.6,0.7
2024-10-13T1600,1690A,116.1231,24.3284,梅州市,梅江月梅,,35,24,41,15,26,110,,95,95,5,25,8,9,0.6,0.7
2024-10-13T1600,1691A,116.0797,24.2719,梅州市,梅县新城,,36,23,45,15,25,113,,98,98,6,22,5,6,0.5,0.7
2024-10-13T1600,1692A,116.1248,24.2654,梅州市,环境监控中心,,34,24,48,15,25,108,,94,94,12,34,5,7,0.6,0.7
2024-10-13T1600,3315A,116.1233,24.2991,梅州市,梅龙,,34,14,34,8,22,107,,93,93,6,17,9,12,0.6,0.7
2024-10-13T1600,1878A,104.7778,31.4741,绵阳市,富乐山,,22,20,25,15,20,70,,58,58,14,10,2,2,0.6,0.6
2024-10-13T1600,1879A,104.7563,31.4535,绵阳市,市人大,,26,25,31,18,21,70,,55,55,18,20,11,10,0.6,0.6
2024-10-13T1600,1880A,104.6697,31.4668,绵阳市,高新区自来水公司,,28,18,40,9,21,87,,43,43,7,26,3,3,0.6,0.6
2024-10-13T1600,1881A,104.7287,31.5075,绵阳市,三水厂,,25,25,33,17,30,79,,55,55,19,26,6,6,0.6,0.7
2024-10-13T1600,3491A,104.69,31.5322,绵阳市,西科大附属小学,,25,22,35,12,22,78,,52,52,12,23,2,2,0.6,0.6
2024-10-13T1600,3492A,104.5648,31.5343,绵阳市,安州区旅游局,,29,,28,17,25,91,,60,60,10,14,9,9,0.5,0.6
2024-10-13T1600,1784A,129.61,44.561,牡丹江市,环保大楼,,36,36,40,25,22,60,,51,51,37,36,12,11,0.4,0.5
2024-10-13T1600,1785A,129.6115,44.5782,牡丹江市,文化广场,,50,50,61,35,28,20,,39,39,84,42,12,13,1.1,0.7
2024-10-13T1600,1786A,129.5904,44.5963,牡丹江市,第一医院,颗粒物(PM10),64,77,45,34,28,68,,56,56,42,29,10,10,0.5,0.4
2024-10-13T1600,1787A,129.6364,44.6075,牡丹江市,机车工厂,颗粒物(PM10),62,73,47,23,21,62,,54,54,32,24,10,16,0.4,0.5
2024-10-13T1600,1788A,129.6386,44.5462,牡丹江市,第一中学,,40,40,31,17,17,54,,54,54,42,28,11,8,0.4,0.3
2024-10-13T1600,2531A,105.0703,29.61,内江市,市监测站,,35,14,19,7,19,111,,75,75,17,16,6,7,0.3,0.4
2024-10-13T1600,2532A,105.0717,29.5947,内江市,东兴区政府,,36,17,21,9,16,114,,79,79,15,16,6,6,0.6,0.6
2024-10-13T1600,2533A,105.0653,29.5817,内江市,内江二中,,34,29,26,13,24,106,,76,76,20,20,5,5,0.5,0.6
2024-10-13T1600,2534A,105.0406,29.5822,内江市,内江日报社,,34,26,27,10,21,108,,78,78,13,14,10,11,0.4,0.6
2024-10-13T1600,2628A,92.0657,31.4846,那曲市,那曲监测站,,35,20,36,8,21,111,,81,81,6,11,5,6,0.3,0.5
2024-10-13T1600,3128A,92.0506,31.4797,那曲市,那曲会议中心,,37,28,48,8,17,117,,83,83,2,16,2,3,0.4,0.6
2024-10-13T1600,1290A,115.8931,28.6843,南昌市,省外办,细颗粒物(PM2.5),62,60,78,44,59,155,,138,138,14,24,12,14,0.8,0.8
2024-10-13T1600,1291A,115.8886,28.7003,南昌市,省林业公司,颗粒物(PM10),58,66,93,39,56,149,,138,138,17,32,8,10,0.4,0.5
2024-10-13T1600,1292A,115.8126,28.7442,南昌市,林科所,臭氧1小时,79,68,63,39,40,183,,154,154,22,25,12,11,0.8,0.7
2024-10-13T1600,1294A,115.8518,28.687,南昌市,建工学校,颗粒物(PM10),64,78,87,39,52,163,,152,152,18,23,12,12,0.6,0.6
2024-10-13T1600,1295A,115.8921,28.6424,南昌市,象湖,臭氧1小时,82,58,74,38,50,185,,157,157,20,28,14,13,0.8,0.8
2024-10-13T1600,1296A,115.7423,28.7996,南昌市,武术学校,细颗粒物(PM2.5),68,,27,49,35,111,,107,107,17,18,2,2,0.6,0.6
2024-10-13T1600,1298A,115.9314,28.6842,南昌市,省站,颗粒物(PM10),58,65,82,39,57,138,,130,130,6,20,10,14,0.7,0.8
2024-10-13T1600,3046A,115.9084,28.6062,南昌市,机电学校,臭氧1小时,69,74,91,36,51,175,,138,138,18,30,15,15,0.6,0.7
2024-10-13T1600,3690A,115.9721,28.7031,南昌市,外国语学校,颗粒物(PM10),60,69,83,39,51,145,,130,130,14,22,9,10,0.6,0.7
2024-10-13T1600,1905A,106.056,30.8064,南充市,西山风景区,,32,,20,19,20,101,,72,72,9,10,3,1,0.6,0.6
2024-10-13T1600,1906A,106.0789,30.8023,南充市,南充市委,,36,30,30,22,24,114,,78,78,12,15,2,2,0.6,0.6
2024-10-13T1600,1907A,106.1031,30.8217,南充市,南充炼油厂,,35,26,36,20,24,109,,78,78,9,14,2,2,0.5,0.6
2024-10-13T1600,1908A,106.1064,30.7856,南充市,高坪区监测站,,38,,32,26,25,115,,83,83,7,12,4,4,0.5,0.6
2024-10-13T1600,1909A,106.0642,30.7636,南充市,嘉陵区环保局,,35,28,30,14,21,110,,72,72,12,21,1,2,0.5,0.6
2024-10-13T1600,1910A,106.1087,30.8388,南充市,市环境监测站,,,23,29,19,26,104,,78,78,10,10,3,2,,0.4
2024-10-13T1600,1151A,118.8086,32.1065,南京市,迈皋桥,,28,20,50,7,34,88,,74,74,11,23,4,4,0.3,0.5
2024-10-13T1600,1152A,118.7538,32.0551,南京市,草场门,,36,36,45,9,31,81,,72,69,25,27,4,5,0.2,0.4
2024-10-13T1600,1153A,118.7794,32.0745,南京市,山西路,,29,24,52,12,35,92,,77,77,5,13,4,4,0.4,0.6
2024-10-13T1600,1154A,118.7752,32.0023,南京市,中华门,,28,22,52,9,33,89,,70,69,15,20,6,6,0.3,0.5
2024-10-13T1600,1155A,118.8109,32.0309,南京市,瑞金路,,29,29,52,7,33,86,,69,69,16,26,4,7,0.1,0.4
2024-10-13T1600,1156A,118.7997,32.0754,南京市,玄武湖,,26,19,47,9,32,82,,71,71,21,35,5,6,0.5,0.7
2024-10-13T1600,1157A,118.6414,32.0931,南京市,浦口,,23,18,44,14,36,71,,58,58,19,24,4,5,0.6,0.7
2024-10-13T1600,1158A,118.7356,31.9996,南京市,奥体中心,,28,26,53,19,41,88,,75,73,19,22,5,6,0.3,0.5
2024-10-13T1600,1159A,118.9125,32.1028,南京市,仙林大学城,,30,17,52,9,33,96,,80,80,10,19,5,6,0.4,0.6
2024-10-13T1600,3422A,118.8436,31.9198,南京市,江宁彩虹桥,,,22,50,17,35,94,,72,72,,23,3,4,0.4,0.6
2024-10-13T1600,3423A,119.0138,31.6494,南京市,溧水永阳,,35,22,44,15,24,110,,83,83,11,22,4,4,0.4,0.6
2024-10-13T1600,3424A,118.879,31.3302,南京市,高淳老职中,,35,28,28,13,26,112,,92,92,10,19,3,5,0.3,0.5
2024-10-13T1600,3427A,118.8554,32.3578,南京市,六合雄州,,23,9,46,3,32,73,,66,65,18,19,4,4,0.5,0.5
2024-10-13T1600,1401A,108.3103,22.7881,南宁市,二十一中,,49,49,52,31,31,151,,135,135,11,14,5,6,0.8,0.9
2024-10-13T1600,1402A,108.3141,22.8528,南宁市,北湖,,,,,,,,,,,,,,,,
2024-10-13T1600,1403A,108.3206,22.8225,南宁市,市监测站,,50,50,52,27,33,142,,128,128,14,15,10,12,0.7,0.8
2024-10-13T1600,1404A,108.3829,22.8037,南宁市,大自然花园,,44,42,51,27,33,138,,132,132,10,13,6,7,0.6,0.7
2024-10-13T1600,1405A,108.4394,22.7904,南宁市,仙葫,,39,34,48,27,35,121,,116,116,7,13,4,5,0.7,0.8
2024-10-13T1600,1406A,108.2397,22.8467,南宁市,区农职院,,50,50,57,30,33,148,,133,133,21,18,7,9,0.7,0.9
2024-10-13T1600,1407A,108.3275,22.735,南宁市,英华嘉园,,42,41,58,28,36,132,,120,120,16,27,6,8,0.7,0.8
2024-10-13T1600,1408A,108.2257,22.7757,南宁市,沙井镇街道办,,44,43,77,27,34,140,,121,121,10,37,4,7,0.8,1
2024-10-13T1600,3401A,108.4834,22.7618,南宁市,红星社区,颗粒物(PM10),51,51,51,27,36,133,,125,125,8,16,4,6,0.7,0.7
2024-10-13T1600,2331A,118.0966,26.6761,南平市,茫荡山,,,,,,,,,,,,,,,,
2024-10-13T1600,2332A,118.1681,26.6369,南平市,南平市监测站,,30,,27,17,20,94,,71,71,2,12,3,4,0.2,0.5
2024-10-13T1600,2333A,118.1825,26.6489,南平市,南平铝业有限公司,,29,14,25,12,18,90,,69,69,4,14,2,4,0.4,0.5
2024-10-13T1600,2334A,118.1756,26.6272,南平市,南平七中,,30,20,25,13,17,96,,78,78,3,8,3,4,0.3,0.5
2024-10-13T1600,1168A,120.9098,31.9663,南通市,狼山街道,,35,16,32,11,20,111,,93,93,9,13,6,6,0.4,0.5
2024-10-13T1600,1169A,120.86,32.0005,南通市,虹桥,,34,20,30,6,17,106,,83,83,16,17,7,7,0.3,0.5
2024-10-13T1600,1170A,120.87,32.02,南通市,城中,,34,22,35,10,17,107,,92,92,20,24,7,7,0.5,0.6
2024-10-13T1600,1171A,120.94,31.93,南通市,星湖花园,,33,17,28,3,18,105,,89,89,13,18,6,6,0.6,0.6
2024-10-13T1600,1172A,120.81,32.0417,南通市,紫琅学院,,,21,30,,14,97,,82,82,14,20,7,7,0.5,0.6
2024-10-13T1600,3291A,121.067,32.062,南通市,通州监测站,,35,17,29,7,16,110,,102,102,11,10,2,2,0.6,0.7
2024-10-13T1600,3432A,120.9348,31.9883,南通市,环境教育馆,,34,22,33,3,16,106,,91,91,15,19,3,4,0.4,0.5
2024-10-13T1600,2404A,112.5224,33.0122,南阳市,瓦房庄,细颗粒物(PM2.5),84,72,108,62,89,140,,99,99,20,28,4,5,0.6,0.8
2024-10-13T1600,2405A,112.5003,32.9735,南阳市,汉画馆,细颗粒物(PM2.5),82,69,109,60,88,140,,91,91,16,39,7,7,0.6,0.8
2024-10-13T1600,2406A,112.5573,33.027,南阳市,气象站,细颗粒物(PM2.5),79,71,105,58,84,145,,103,103,17,30,6,7,0.6,0.8
2024-10-13T1600,2407A,112.5481,32.9689,南阳市,理工学院,细颗粒物(PM2.5),69,63,112,50,85,139,,92,92,16,39,6,7,0.7,0.9
2024-10-13T1600,4008A,112.5234,32.9922,南阳市,卧龙区政府,细颗粒物(PM2.5),73,71,113,53,82,143,,98,98,16,38,5,5,0.6,0.9
2024-10-13T1600,1234A,121.8358,29.911,宁波市,区环保大楼,,35,34,26,13,12,112,,116,116,21,41,8,7,0.9,0.8
2024-10-13T1600,1235A,121.56,29.82,宁波市,万里学院,,34,28,46,8,27,106,,79,79,23,44,6,7,0.5,0.7
2024-10-13T1600,1236A,121.713,29.9572,宁波市,龙赛医院,,38,29,30,10,10,119,,111,111,20,40,11,12,0.6,0.7
2024-10-13T1600,1239A,121.633,29.7733,宁波市,钱湖水厂,,,13,33,3,18,118,,82,82,9,27,,9,0.5,0.6
2024-10-13T1600,1240A,121.5856,29.8635,宁波市,太古小学,,33,19,39,9,20,104,,79,79,11,45,8,8,0.7,1
2024-10-13T1600,1241A,121.524,29.8674,宁波市,市环境监测中心,,33,18,43,9,20,105,,78,78,13,42,8,8,0.5,0.7
2024-10-13T1600,2871A,121.6147,29.9017,宁波市,万里国际学校,,41,41,53,15,22,115,,92,92,9,48,8,9,0.6,0.8
2024-10-13T1600,3710A,121.5594,29.8975,宁波市,白沙活动中心,,35,23,40,8,14,110,,89,89,12,46,8,9,0.3,0.5
2024-10-13T1600,2339A,119.5001,26.6946,宁德市,金涵水库,,,,,,,,,,,,,,,,
2024-10-13T1600,2341A,119.5388,26.6612,宁德市,宁德市监测站,,45,45,35,23,23,92,,74,74,12,17,4,3,0.5,0.6
2024-10-13T1600,3209A,119.5231,26.6562,宁德市,宁德一中,,40,40,33,23,25,96,,80,80,10,12,4,2,0.3,0.4
2024-10-13T1600,2618A,98.8601,25.8567,怒江傈僳族自治州,州监测站,,24,24,21,14,13,51,,30,30,6,9,6,7,0.3,0.3
2024-10-13T1600,2619A,98.8546,25.8417,怒江傈僳族自治州,泸水一中,,21,21,20,9,10,39,,24,24,13,12,7,7,0.4,0.4
2024-10-13T1600,1888A,101.6891,26.571,攀枝花市,弄弄坪,颗粒物(PM10),51,51,61,25,31,129,,63,63,20,31,36,19,1.9,1.5
2024-10-13T1600,1889A,101.5769,26.5928,攀枝花市,河门口,,34,23,36,18,23,108,,63,63,10,19,11,7,0.9,0.9
2024-10-13T1600,1890A,101.7169,26.585,攀枝花市,炳草岗,,44,39,58,20,33,139,,65,65,16,33,27,17,1.6,1.3
2024-10-13T1600,1891A,101.7369,26.5008,攀枝花市,仁和,,40,30,38,20,24,128,,74,74,11,20,13,12,0.8,0.9
2024-10-13T1600,2835A,101.7227,26.567,攀枝花市,四十中小,,47,47,47,28,27,137,,74,74,12,18,15,13,1.3,1.3
2024-10-13T1600,1604A,122.0303,41.1489,盘锦市,开发区,,36,35,60,18,59,114,,111,111,17,41,2,4,0.4,0.7
2024-10-13T1600,1605A,122.0485,41.0883,盘锦市,兴隆台,,37,29,49,24,58,116,,111,111,19,51,6,8,0.3,0.7
2024-10-13T1600,1606A,121.8297,41.1028,盘锦市,新生街道,,40,22,26,17,23,127,,114,114,12,31,8,8,0.4,0.6
2024-10-13T1600,1832A,113.3257,33.742,平顶山市,新华旅馆,细颗粒物(PM2.5),130,127,192,99,111,170,,119,119,13,45,10,10,0.5,0.7
2024-10-13T1600,1833A,113.2919,33.737,平顶山市,规划设计院,细颗粒物(PM2.5),122,123,191,92,127,169,,127,127,18,40,9,10,0.8,1
2024-10-13T1600,1834A,113.182,33.774,平顶山市,平顶山工学院,细颗粒物(PM2.5),132,146,202,100,137,170,,120,120,12,35,7,9,0.8,0.9
2024-10-13T1600,3204A,113.3025,33.73,平顶山市,规划局,细颗粒物(PM2.5),125,124,194,95,126,167,,122,122,16,39,6,9,1.0,1.1
2024-10-13T1600,3594A,112.8867,33.9116,平顶山市,石龙区,,,126,191,69,101,163,,106,106,15,69,9,15,,1
2024-10-13T1600,2656A,106.6692,35.5461,平凉市,聚贤嘉苑,颗粒物(PM10),63,75,63,40,37,108,,59,59,22,32,9,7,0.2,0.3
2024-10-13T1600,2657A,106.7021,35.5307,平凉市,博物馆,颗粒物(PM10),61,71,73,39,45,113,,62,62,32,39,12,9,0.4,0.6
2024-10-13T1600,2347A,114.0997,27.5002,萍乡市,武功山,细颗粒物(PM2.5),53,49,37,37,36,149,,122,122,8,8,12,9,0.6,0.5
2024-10-13T1600,2348A,113.8385,27.6434,萍乡市,中医院,臭氧1小时,64,50,78,28,48,171,,157,157,9,17,12,31,0.8,0.9
2024-10-13T1600,2349A,113.8493,27.6253,萍乡市,市政府车库,"细颗粒物(PM2.5),臭氧1小时",63,52,80,45,61,170,,147,147,7,22,16,35,0.7,1.3
2024-10-13T1600,2350A,113.8676,27.6435,萍乡市,市环保局,细颗粒物(PM2.5),65,62,82,47,57,162,,142,142,8,17,15,35,0.6,0.6
2024-10-13T1600,2351A,113.866,27.6198,萍乡市,安源区政府,臭氧1小时,69,58,85,29,51,175,,149,149,9,29,17,35,0.5,0.8
2024-10-13T1600,2319A,119.0141,25.4325,莆田市,荔城区仓后路,,34,34,25,12,10,90,,89,89,3,5,3,2,0.4,0.4
2024-10-13T1600,2320A,119.0015,25.4553,莆田市,莆田市监测站,,29,29,23,9,11,91,,88,88,3,3,1,1,0.2,0.5
2024-10-13T1600,2321A,119.1119,25.4561,莆田市,涵江区六中,,29,29,29,13,13,88,,91,91,2,6,1,1,0.4,0.4
2024-10-13T1600,2322A,119.1013,25.3215,莆田市,秀屿区政府,,26,26,28,12,12,82,,88,88,2,4,1,2,0.4,0.4
2024-10-13T1600,2323A,118.981,25.4792,莆田市,东圳水库,,,,,,,,,,,,,,,,
2024-10-13T1600,2392A,115.0312,35.7636,濮阳市,环保局,臭氧1小时,70,56,89,46,67,176,,135,135,15,28,2,3,0.6,0.7
2024-10-13T1600,2394A,115.0574,35.7609,濮阳市,油田运输公司,臭氧1小时,78,66,107,46,67,182,,136,136,9,24,3,4,0.5,0.6
2024-10-13T1600,2395A,115.0866,35.7754,濮阳市,油田物探公司,细颗粒物(PM2.5),67,69,106,48,71,171,,130,130,14,27,1,2,0.5,0.6
2024-10-13T1600,3021A,115,35.7668,濮阳市,濮水河管理处,细颗粒物(PM2.5),62,72,110,44,64,162,,125,125,11,22,2,2,0.6,0.7
2024-10-13T1600,2601A,100.98,22.7633,普洱市,市环保局,,28,28,26,13,15,64,,52,52,4,5,3,4,0.5,0.5
2024-10-13T1600,2602A,100.9817,22.8322,普洱市,普洱第二中学,,24,24,29,6,14,68,,54,54,4,7,5,5,0.4,0.5
2024-10-13T1600,2262A,131.0518,45.8751,七台河市,新一中,,29,24,13,7,8,90,,84,84,7,9,10,9,1.1,1
2024-10-13T1600,3345A,131.0577,45.7879,七台河市,中波台,,22,22,29,3,12,61,,56,56,18,28,7,8,0.8,0.9
2024-10-13T1600,3637A,131.0176,45.7761,七台河市,人民广场,,22,22,35,11,19,70,,65,65,13,29,7,8,0.7,0.9
2024-10-13T1600,3684A,130.8781,45.8222,七台河市,新建矿广场,颗粒物(PM10),64,78,77,21,25,54,,57,57,31,31,7,8,0.8,1
2024-10-13T1600,1779A,123.9305,47.3636,齐齐哈尔市,安居小区,颗粒物(PM10),77,103,41,41,15,105,,77,77,31,22,13,10,0.8,0.5
2024-10-13T1600,1780A,123.9488,47.3386,齐齐哈尔市,中心广场,细颗粒物(PM2.5),82,81,44,60,25,110,,77,77,26,19,5,3,0.6,0.3
2024-10-13T1600,1781A,123.9483,47.3227,齐齐哈尔市,农牧车辆厂,颗粒物(PM10),67,83,35,24,8,119,,84,84,15,14,7,5,0.3,0.3
2024-10-13T1600,1783A,123.945,47.2988,齐齐哈尔市,市环境监测站,颗粒物(PM10),68,85,31,40,12,125,,89,89,14,12,10,8,0.5,0.3
2024-10-13T1600,3662A,123.6333,47.2075,齐齐哈尔市,富区青少年活动中心,颗粒物(PM10),67,84,36,29,7,109,,82,82,12,12,7,5,0.6,0.4
2024-10-13T1600,2591A,107.9783,26.5747,黔东南苗族侗族自治州,市环境监测站,,46,38,70,32,57,66,,80,63,19,18,4,6,0.6,0.7
2024-10-13T1600,2881A,107.8908,26.5311,黔东南苗族侗族自治州,凯里学院,,50,,57,35,51,61,,91,68,16,13,4,6,0.7,0.7
2024-10-13T1600,2593A,107.5228,26.2403,黔南布依族苗族自治州,小围寨,,18,17,39,12,33,44,,54,47,15,17,5,5,0.7,0.7
2024-10-13T1600,3538A,107.5175,26.2978,黔南布依族苗族自治州,沙坝,,24,24,51,12,36,42,,48,46,16,18,3,4,0.6,0.6
2024-10-13T1600,2589A,104.9022,25.0925,黔西南布依族苗族自治州,场坝街,,49,41,42,34,33,52,,82,72,13,7,4,3,0.4,0.3
2024-10-13T1600,2590A,104.8811,25.0992,黔西南布依族苗族自治州,坪东大道,,48,,46,33,37,59,,68,68,4,5,2,3,0.4,0.4
2024-10-13T1600,2502A,108.6236,21.9667,钦州市,市环保站,臭氧1小时,65,58,59,24,28,172,,144,144,12,20,11,10,0.8,0.8
2024-10-13T1600,2503A,108.6549,21.9481,钦州市,沙埠小学,臭氧1小时,70,66,79,31,36,176,,145,145,12,35,9,8,0.8,0.9
2024-10-13T1600,2504A,108.5989,21.7431,钦州市,港区一小,颗粒物(PM10),63,76,81,27,31,146,,136,136,19,28,8,8,0.8,0.9
2024-10-13T1600,3404A,108.5959,21.9633,钦州市,北职校,臭氧1小时,60,55,61,23,34,168,,146,146,11,24,10,9,0.8,0.8
2024-10-13T1600,1042A,119.5134,39.8207,秦皇岛市,北戴河环保局,,41,39,65,14,36,131,,92,92,6,30,1,2,0.6,0.6
2024-10-13T1600,1043A,119.7493,40.0116,秦皇岛市,第一关,,44,40,75,29,46,138,,104,104,7,60,2,3,0.3,0.5
2024-10-13T1600,1044A,119.5897,39.9499,秦皇岛市,监测站,,43,41,66,22,42,136,,89,89,16,46,2,2,0.3,0.5
2024-10-13T1600,1046A,119.5251,39.9041,秦皇岛市,建设大厦,,43,38,80,25,35,135,,86,86,8,45,1,3,0.3,0.5
2024-10-13T1600,3132A,119.610547,39.943889,秦皇岛市,文明里,,44,44,79,18,33,137,,92,92,8,42,2,2,0.3,0.6
2024-10-13T1600,1307A,120.6659,36.2403,青岛市,仰口,,33,24,41,19,31,105,,128,108,6,7,6,7,0.6,0.6
2024-10-13T1600,1310A,120.4134,36.0658,青岛市,市南区东部子站,,42,34,45,12,22,134,,145,126,3,5,6,6,0.4,0.4
2024-10-13T1600,1311A,120.3664,36.1032,青岛市,四方区子站,,44,31,51,17,27,138,,154,133,16,17,9,9,0.4,0.5
2024-10-13T1600,1312A,120.2994,36.054,青岛市,市南区西部子站,,42,27,42,12,20,134,,153,130,9,7,8,8,0.5,0.6
2024-10-13T1600,1313A,120.4581,36.0858,青岛市,崂山区子站,,45,17,41,14,21,143,,156,136,13,14,8,8,0.5,0.6
2024-10-13T1600,1314A,120.1983,35.9608,青岛市,黄岛区子站,,43,22,41,15,26,137,,155,134,10,10,8,8,0.5,0.6
2024-10-13T1600,1315A,120.3999,36.3083,青岛市,城阳区子站,,39,27,69,12,36,122,,113,113,14,33,8,8,0.5,0.8
2024-10-13T1600,1966A,120.0405,35.8735,青岛市,黄岛区4号,,44,24,43,9,22,139,,159,138,12,12,6,6,0.5,0.5
2024-10-13T1600,3362A,120.5014,36.4034,青岛市,即墨2号,,39,27,50,9,22,122,,130,121,12,15,6,6,0.4,0.5
2024-10-13T1600,3642A,120.3503,36.0736,青岛市,市北区南部,,40,25,42,9,22,128,,142,121,15,17,6,7,0.6,0.7
2024-10-13T1600,3643A,120.3948,36.1805,青岛市,李沧区北部,,40,27,60,17,34,126,,125,122,21,28,9,9,0.6,0.8
2024-10-13T1600,1702A,113.0426,23.691,清远市,环保大楼,臭氧1小时,89,,45,43,42,191,,141,141,14,20,5,7,0.9,0.9
2024-10-13T1600,1703A,113.0208,23.7106,清远市,凤城街办,臭氧1小时,97,47,46,38,33,197,,147,147,9,12,10,11,0.6,0.7
2024-10-13T1600,3025A,113.0477,23.6344,清远市,技师学院,臭氧1小时,101,58,59,34,34,202,,146,146,13,26,12,14,0.6,0.6
2024-10-13T1600,3318A,112.9903,23.7403,清远市,清新太和,臭氧1小时,67,38,46,24,29,173,,142,142,8,13,5,5,0.7,0.7
2024-10-13T1600,3455A,113.076,23.7198,清远市,清城东城,臭氧1小时,58,48,47,30,31,166,,132,132,5,12,6,8,0.5,0.6
2024-10-13T1600,2661A,107.6325,35.7357,庆阳市,庆阳五中,颗粒物(PM10),55,60,67,36,44,102,,80,80,11,12,7,6,0.5,0.5
2024-10-13T1600,2662A,107.6364,35.7067,庆阳市,市环保局,颗粒物(PM10),51,51,63,28,39,105,,79,79,10,13,5,5,0.5,0.5
2024-10-13T1600,1916A,103.7897,25.5035,曲靖市,环境监测站,,32,12,30,3,15,102,,71,71,9,13,10,6,0.5,0.6
2024-10-13T1600,1917A,103.8,25.5364,曲靖市,烟厂办公区,,32,14,26,8,15,100,,70,70,7,10,3,5,0.3,0.4
2024-10-13T1600,3376A,103.7947,25.462,曲靖市,南苑二区,,32,16,23,14,15,100,,74,74,6,8,9,8,0.5,0.6
2024-10-13T1600,3377A,103.7444,25.5261,曲靖市,曲靖师范学院,,35,,23,13,16,109,,76,76,8,10,14,11,0.5,0.5
2024-10-13T1600,1264A,118.8692,28.9398,衢州市,环保大楼,,35,25,57,14,38,112,,90,90,17,29,6,7,0.4,0.5
2024-10-13T1600,1265A,118.8709,28.9666,衢州市,实验学校,,36,21,48,13,35,113,,90,90,11,24,4,6,0.3,0.4
2024-10-13T1600,1266A,118.8621,28.9808,衢州市,衢州学院,,36,26,46,14,30,115,,96,96,12,28,6,7,0.2,0.3
2024-10-13T1600,1611A,118.5819,24.9117,泉州市,涂山街,,39,39,29,15,15,118,,100,100,10,12,3,3,0.4,0.4
2024-10-13T1600,1612A,118.5972,24.8978,泉州市,津头埔,,42,42,34,15,15,112,,97,97,7,8,3,3,0.5,0.5
