timepoint,stationcode,longitude,latitude,area,positionname,primarypollutant,aqi,pm10,pm10_24h,pm2_5,pm2_5_24h,o3,o3_24h,o3_8h,o3_8h_24h,no2,no2_24h,so2,so2_24h,co,co_24h
2026-04-25T1500,2568A,102.2503,31.8896,阿坝藏族羌族自治州,马师校,,41,24,39,7,12,130,130,98,98,3,5,6,6,0.2,0.2
2026-04-25T1500,3994A,102.2174,31.9016,阿坝藏族羌族自治州,马尔康中学西区,,40,22,30,10,12,125,125,94,94,5,5,4,3,0.2,0.2
2026-04-25T1500,2695A,80.2899,41.1684,阿克苏地区,电视台,NA,NA,50,106,3,39,92,92,75,62,11,12,NA,3,NA,0.5
2026-04-25T1500,2696A,80.2592,41.1541,阿克苏地区,艺术中心,颗粒物(PM10),57,59,105,20,38,90,90,68,67,14,21,7,4,0.4,0.5
2026-04-25T1500,2205A,105.699,38.8409,阿拉善盟,蒙二幼,,43,39,36,10,10,135,135,121,121,4,4,8,8,0.4,0.4
2026-04-25T1500,2206A,105.7198,38.8508,阿拉善盟,环保局新楼,,40,35,34,6,7,127,127,119,119,3,3,8,8,0.5,0.5
2026-04-25T1500,2708A,88.1266,47.8515,阿勒泰地区,市站,,27,22,23,3,4,84,84,53,53,5,11,5,5,0.3,0.3
2026-04-25T1500,4166A,88.1198,47.7931,阿勒泰地区,阿勒泰路33号,,25,17,22,3,4,79,79,58,56,4,7,7,7,0.2,0.2
2026-04-25T1500,2630A,80.1171,32.4999,阿里地区,阿里监测站,,30,8,15,3,4,96,96,83,83,1,7,6,7,0.3,0.4
2026-04-25T1500,3192A,80.0906,32.5029,阿里地区,阿里藏医院,,34,6,15,3,3,108,108,99,97,1,4,7,7,0.3,0.3
2026-04-25T1500,2644A,109.0088,32.6974,安康市,汉滨区检察院,,41,39,45,18,20,129,129,69,69,8,12,7,7,0.4,0.4
2026-04-25T1500,4054A,109.0324,32.6913,安康市,市邮政管理局,,43,43,51,19,25,132,132,72,72,10,14,5,11,0.5,0.6
2026-04-25T1500,2291A,117.0806,30.5181,安庆市,环科院,,37,14,27,3,14,116,116,86,86,6,35,6,6,0.4,0.5
2026-04-25T1500,2292A,117.0331,30.5118,安庆市,马山宾馆,,33,13,26,3,16,103,103,83,83,10,39,4,5,0.4,0.5
2026-04-25T1500,2294A,116.9897,30.6146,安庆市,安庆大学,,35,7,26,3,13,110,110,89,89,6,17,4,6,0.3,0.4
2026-04-25T1500,3173A,117.0598,30.5351,安庆市,市人大,,34,10,24,3,13,108,108,91,91,4,21,4,5,0.3,0.6
2026-04-25T1500,3123A,105.9408,26.2431,安顺市,凤凰山,,42,NA,44,29,34,119,119,84,84,6,20,7,10,0.6,0.7
2026-04-25T1500,3124A,105.9443,26.2567,安顺市,金钟山,,45,31,38,31,30,110,110,82,82,4,9,6,9,0.6,0.6
2026-04-25T1500,3125A,105.8983,26.248,安顺市,娄家坡,NA,NA,30,40,30,34,111,111,46,NA,5,11,5,10,NA,0.8
2026-04-25T1500,1819A,114.3552,36.1017,安阳市,红庙街,颗粒物(PM10),59,62,46,30,21,129,129,87,87,7,12,4,4,0.2,0.3
2026-04-25T1500,1820A,114.361,36.0681,安阳市,银杏小区,颗粒物(PM10),68,75,52,32,22,133,133,88,88,9,15,6,5,0.3,0.3
2026-04-25T1500,3141A,114.3921,36.0879,安阳市,信访局,颗粒物(PM10),63,68,47,34,23,137,137,91,91,7,10,3,3,0.4,0.4
2026-04-25T1500,3669A,114.4706,36.0634,安阳市,左辅环卫站,颗粒物(PM10),65,70,48,26,21,129,129,86,86,8,12,2,3,0.4,0.3
2026-04-25T1500,4117A,114.2918,36.0769,安阳市,钢三路198号,颗粒物(PM10),66,72,48,39,23,127,127,82,82,7,11,5,3,0.4,0.4
2026-04-25T1500,1748A,123.0441,41.1201,鞍山市,深沟寺,颗粒物(PM10),53,53,66,18,32,146,146,134,134,15,19,14,14,0.7,0.8
2026-04-25T1500,1749A,123.011,41.0931,鞍山市,太阳城,颗粒物(PM10),53,54,71,21,36,141,141,130,130,12,15,12,12,0.7,0.8
2026-04-25T1500,1750A,123.0483,41.1445,鞍山市,太平,颗粒物(PM10),56,58,75,20,35,141,141,129,129,14,18,12,13,0.7,0.9
2026-04-25T1500,1751A,122.964,41.0968,鞍山市,铁西三道街,颗粒物(PM10),61,65,81,23,41,144,144,128,128,13,26,10,10,0.7,0.9
2026-04-25T1500,1753A,123.0219,41.0822,鞍山市,明达新区,颗粒物(PM10),57,59,70,19,33,142,142,132,132,12,16,12,12,0.7,0.9
2026-04-25T1500,4201A,122.944647,41.082639,鞍山市,兴盛南路290号,NA,NA,67,92,25,41,144,144,132,132,NA,26,12,12,0.5,0.7
2026-04-25T1500,2195A,107.4206,40.7609,巴彦淖尔市,附二中,颗粒物(PM10),68,75,78,24,20,119,119,83,83,4,13,11,12,0.3,0.4
2026-04-25T1500,2196A,107.37,40.7372,巴彦淖尔市,市环保大楼,颗粒物(PM10),54,55,66,15,24,121,121,87,87,4,12,7,8,0.3,0.4
2026-04-25T1500,1956A,86.1476,41.7529,巴音郭楞蒙古自治州,孔雀公园,,40,40,113,3,42,108,108,88,88,4,29,3,4,0.3,0.5
2026-04-25T1500,1957A,86.1971,41.7166,巴音郭楞蒙古自治州,棉纺厂,,44,44,142,7,51,115,115,96,96,2,23,/,/,/,/
2026-04-25T1500,1958A,86.236,41.7172,巴音郭楞蒙古自治州,经济开发区,NA,NA,26,115,3,43,102,102,88,88,2,12,NA,9,0.3,0.4
2026-04-25T1500,3181A,106.776805,31.852614,巴中市,市五中,,45,35,37,18,22,144,144,89,89,8,16,10,9,0.6,0.7
2026-04-25T1500,3183A,106.7419,31.8654,巴中市,圣泉水务公司,,47,36,40,19,22,148,148,96,96,6,22,10,9,0.5,0.6
2026-04-25T1500,3616A,106.7617,31.8343,巴中市,市中心医院,,46,32,43,18,25,147,147,90,90,5,20,11,10,0.6,0.7
2026-04-25T1500,2235A,122.7909,45.608,白城市,洮北区环保局,,32,24,30,16,12,101,101,96,96,13,12,5,4,0.1,0.2
2026-04-25T1500,2236A,122.8741,45.5725,白城市,市环保局,,29,22,26,6,14,90,90,88,88,16,15,4,5,0.3,0.3
2026-04-25T1500,2231A,126.4219,41.9172,白山市,喜丰,颗粒物(PM10),76,86,64,13,23,144,144,132,132,7,18,8,9,0.9,0.9
2026-04-25T1500,2232A,126.4082,41.9416,白山市,环保局,,46,46,43,14,21,143,143,132,132,9,12,9,11,0.7,0.7
2026-04-25T1500,2647A,104.1727,36.5448,白银市,第三小学,颗粒物(PM10),55,56,71,18,22,134,134,94,94,4,28,15,33,0.4,0.6
2026-04-25T1500,2648A,104.1467,36.5482,白银市,动力公司,颗粒物(PM10),52,52,58,17,17,134,134,93,93,8,26,16,12,0.3,0.4
2026-04-25T1500,2512A,106.6102,23.901,百色市,市监测站,,36,33,30,14,16,113,113,60,60,8,12,15,10,0.5,0.6
2026-04-25T1500,2513A,106.6524,23.8842,百色市,市中心血站,,41,41,35,14,22,114,114,67,67,7,18,13,12,0.5,0.6
2026-04-25T1500,4133A,106.6273,23.8798,百色市,龙景西路,,42,42,36,20,22,124,124,71,71,10,15,17,14,0.5,0.8
2026-04-25T1500,2270A,117.396,32.9389,蚌埠市,工人疗养院,,50,35,48,8,19,160,160,144,144,15,27,5,6,0.4,0.4
2026-04-25T1500,2271A,117.3606,32.9428,蚌埠市,百货大楼,,50,42,47,7,19,160,160,162,162,10,22,7,6,0.4,0.5
2026-04-25T1500,2273A,117.4183,32.8909,蚌埠市,蚌埠学院,,49,31,40,7,18,156,156,137,137,9,17,7,5,0.4,0.4
2026-04-25T1500,2274A,117.3534,32.9672,蚌埠市,淮上区政府,臭氧1小时(O3_1h),60,39,47,8,19,168,168,144,144,14,37,6,8,0.3,0.4
2026-04-25T1500,2275A,117.3143,32.8977,蚌埠市,高新区,,50,29,44,8,20,160,160,149,149,4,15,8,8,0.4,0.4
2026-04-25T1500,3715A,117.3091,32.9314,蚌埠市,蚌埠田家炳中学,臭氧1小时(O3_1h),59,38,53,8,21,167,167,154,154,10,19,8,10,0.4,0.4
2026-04-25T1500,1585A,109.8761,40.6533,包头市,市环境监测站,颗粒物(PM10),79,90,51,36,27,126,126,86,86,7,26,7,10,0.4,0.5
2026-04-25T1500,1587A,109.9992,40.5843,包头市,包头八中,颗粒物(PM10),70,78,61,28,26,121,121,81,81,8,30,9,12,0.5,0.6
2026-04-25T1500,1589A,109.8641,40.6288,包头市,惠龙物流,颗粒物(PM10),65,70,47,17,21,122,122,87,87,5,22,6,9,0.4,0.5
2026-04-25T1500,1590A,110.0376,40.5546,包头市,东河鸿龙湾,颗粒物(PM10),58,61,57,10,27,132,132,88,88,7,32,13,13,0.5,0.5
2026-04-25T1500,3283A,109.9154,40.5684,包头市,滨河大厦,颗粒物(PM10),104,129,52,28,28,124,124,84,84,5,28,10,11,0.3,0.4
2026-04-25T1500,3419A,109.9449,40.6259,包头市,包头市委党校,颗粒物(PM10),96,114,57,25,20,124,124,80,80,6,29,8,10,0.4,0.5
2026-04-25T1500,3683A,109.8332,40.6577,包头市,昆区政府,颗粒物(PM10),112,151,57,18,19,121,121,81,81,11,26,4,8,0.5,0.6
2026-04-25T1500,1931A,107.0802,34.3129,宝鸡市,竹园沟,颗粒物(PM10),80,91,84,21,23,140,140,85,85,10,11,8,7,0.4,0.3
2026-04-25T1500,1933A,107.1429,34.3549,宝鸡市,监测站,颗粒物(PM10),84,97,91,28,35,139,139,87,87,12,18,6,6,0.3,0.3
2026-04-25T1500,1934A,107.1172,34.3759,宝鸡市,技工学校,颗粒物(PM10),85,99,92,31,34,143,143,88,88,11,11,5,5,0.4,0.4
2026-04-25T1500,1936A,107.2025,34.3518,宝鸡市,文理学院,颗粒物(PM10),80,91,97,33,39,141,141,90,90,11,19,6,6,0.4,0.4
2026-04-25T1500,1937A,107.2396,34.3626,宝鸡市,三迪小学,颗粒物(PM10),78,88,96,38,37,146,146,88,88,14,27,6,5,0.4,0.5
2026-04-25T1500,4155A,107.1721,34.3558,宝鸡市,滨河北路,颗粒物(PM10),75,85,101,34,35,135,135,85,85,10,17,8,7,0.5,0.5
2026-04-25T1500,4308A,107.3898,34.3601,宝鸡市,陈仓区北开路21号,颗粒物(PM10),81,93,106,38,40,135,135,83,83,11,25,10,8,0.4,0.4
2026-04-25T1500,1051A,115.4803,38.8568,保定市,游泳馆,颗粒物(PM10),68,74,62,30,33,150,150,105,105,9,16,8,4,0.2,0.1
2026-04-25T1500,1052A,115.509,38.8895,保定市,华电二区,颗粒物(PM10),73,81,58,23,29,155,155,109,109,9,15,8,4,0.6,0.5
2026-04-25T1500,1053A,115.4588,38.9037,保定市,接待中心,颗粒物(PM10),70,77,64,35,34,136,136,94,94,7,12,5,3,0.4,0.3
2026-04-25T1500,1054A,115.4484,38.8344,保定市,地表水厂,颗粒物(PM10),99,118,78,28,30,147,147,102,102,9,17,8,6,0.5,0.4
2026-04-25T1500,3581A,115.3136,38.9511,保定市,满城区生态环境分局,颗粒物(PM10),93,110,91,19,35,161,161,100,100,6,16,7,4,0.3,0.4
2026-04-25T1500,3582A,115.4709,38.7628,保定市,清苑区第二中学,颗粒物(PM10),82,94,80,27,30,138,138,99,99,5,17,8,7,0.4,0.4
2026-04-25T1500,3583A,115.6231,39.0223,保定市,徐水物探局,颗粒物(PM10),102,124,94,31,37,151,151,101,101,10,25,6,3,0.5,0.4
2026-04-25T1500,4004A,115.4199,38.8665,保定市,双鹰农机,颗粒物(PM10),88,102,74,35,35,157,157,105,105,10,16,6,3,0.5,0.3
2026-04-25T1500,4034A,115.515,38.8589,保定市,植保所站,颗粒物(PM10),85,98,82,24,28,156,156,107,107,8,18,1,3,0.4,0.3
2026-04-25T1500,2594A,99.1589,25.1137,保山市,市环境监测站,颗粒物(PM10),63,67,59,41,40,151,151,118,118,8,10,7,6,0.5,0.4
2026-04-25T1500,2595A,99.1616,25.1381,保山市,市环保局,"颗粒物(PM10),细颗粒物(PM2.5)",70,78,65,45,42,153,153,123,123,6,7,7,7,0.5,0.4
2026-04-25T1500,1867A,109.1435,21.4085,北海市,海滩公园,,41,33,30,24,25,129,129,79,79,8,14,9,10,1.0,1
2026-04-25T1500,1868A,109.0983,21.466,北海市,新市环保局,,38,26,26,14,18,120,120,74,74,9,15,11,12,0.8,0.7
2026-04-25T1500,1869A,109.1775,21.5232,北海市,北海工业园,,37,30,34,12,24,116,116,73,73,6,15,7,14,0.8,0.9
2026-04-25T1500,3400A,109.1844,21.4396,北海市,龙潭自来水厂,,39,30,27,20,22,124,124,72,72,8,13,10,11,1.1,1
2026-04-25T1500,1001A,116.3611,39.8786,北京市,万寿西宫,,49,46,92,20,49,156,156,98,98,10,33,5,4,0.5,0.6
2026-04-25T1500,1003A,116.4174,39.9289,北京市,东四,臭氧1小时(O3_1h),52,47,98,25,59,161,161,108,108,9,30,4,3,0.4,0.7
2026-04-25T1500,1004A,116.4073,39.8858,北京市,天坛,,47,47,75,18,46,149,149,90,90,14,28,6,5,0.3,0.5
2026-04-25T1500,1005A,116.4622,39.9364,北京市,农展馆,,50,46,92,20,52,157,157,93,93,9,37,5,4,0.5,0.8
2026-04-25T1500,1006A,116.3399,39.9293,北京市,官园,,46,45,94,28,57,145,145,101,101,14,39,3,2,0.3,0.5
2026-04-25T1500,1007A,116.2879,39.9613,北京市,海淀万柳,,50,50,89,22,52,130,130,84,84,16,41,6,5,0.5,0.6
2026-04-25T1500,1008A,116.6635,40.1349,北京市,顺义新城,"颗粒物(PM10),臭氧1小时(O3_1h)",52,52,100,23,59,161,161,94,94,7,21,3,2,0.6,0.7
2026-04-25T1500,1009A,116.6275,40.327,北京市,怀柔镇,臭氧1小时(O3_1h),57,51,85,27,53,165,165,110,110,16,19,5,4,0.5,0.6
2026-04-25T1500,1010A,116.2295,40.217,北京市,昌平镇,颗粒物(PM10),55,56,80,26,44,162,162,115,115,15,24,4,3,0.4,0.5
2026-04-25T1500,1011A,116.3968,39.982,北京市,奥体中心,,45,43,91,18,49,141,141,98,98,10,37,5,4,0.4,0.6
2026-04-25T1500,3418A,116.8336,40.4095,北京市,密云新城,颗粒物(PM10),56,58,76,29,43,155,155,102,102,7,13,5,4,0.4,0.4
2026-04-25T1500,3671A,116.0879,39.9725,北京市,门头沟三家店,颗粒物(PM10),69,76,70,32,35,150,150,106,106,11,20,4,2,0.4,0.4
2026-04-25T1500,3672A,116.1507,39.8246,北京市,丰台云岗,颗粒物(PM10),61,65,95,30,47,159,159,109,109,15,29,4,2,0.5,0.5
2026-04-25T1500,3674A,115.9578,39.7602,北京市,房山燕山,颗粒物(PM10),65,70,74,35,36,147,147,105,105,9,15,5,3,0.4,0.4
2026-04-25T1500,3675A,116.4669,39.7734,北京市,大兴旧宫,,50,49,79,18,40,159,159,100,100,10,27,2,2,0.5,0.6
2026-04-25T1500,3694A,115.9859,40.4562,北京市,延庆石河营,颗粒物(PM10),94,111,68,53,33,176,176,111,111,15,20,2,1,0.6,0.5
2026-04-25T1500,3695A,116.6151,40.3052,北京市,怀柔新城,,50,46,82,19,48,157,157,105,105,14,16,6,4,0.5,0.5
2026-04-25T1500,3696A,116.2542,39.8764,北京市,丰台小屯,颗粒物(PM10),55,57,88,22,43,141,141,90,90,8,33,4,3,0.4,0.5
2026-04-25T1500,3697A,116.8399,40.3843,北京市,密云镇,颗粒物(PM10),59,62,84,32,48,162,162,101,101,10,26,8,6,0.4,0.5
2026-04-25T1500,4057A,115.9423,40.4431,北京市,延庆百泉,细颗粒物(PM2.5),96,102,70,58,36,179,179,111,111,16,17,2,1,0.7,0.6
2026-04-25T1500,4058A,116.6598,39.9164,北京市,通州新华,,49,49,95,19,53,152,152,93,93,16,41,5,4,0.5,0.6
2026-04-25T1500,4182A,116.1942,39.9158,北京市,石景山八角,颗粒物(PM10),70,77,95,27,43,143,143,102,102,16,30,3,5,0.4,0.5
2026-04-25T1500,4194A,117.078628,40.151726,北京市,平谷新城,"颗粒物(PM10),细颗粒物(PM2.5)",74,83,87,47,54,159,159,113,113,3,6,4,3,0.6,0.6
2026-04-25T1500,1761A,123.8274146,41.31234549,本溪市,大峪,,48,48,65,15,30,150,150,137,137,7,15,8,8,0.4,0.5
2026-04-25T1500,1763A,123.7169,41.3094,本溪市,彩屯,颗粒物(PM10),53,54,74,17,43,149,149,130,130,7,24,12,17,0.7,1.9
2026-04-25T1500,1764A,123.7672166,41.28649327,本溪市,东明,颗粒物(PM10),70,77,74,14,31,142,142,134,134,14,20,5,5,0.6,0.6
2026-04-25T1500,1765A,123.799345,41.266614,本溪市,新立屯,颗粒物(PM10),60,63,57,14,30,152,152,144,144,7,17,9,9,0.5,0.5
2026-04-25T1500,1766A,123.829144,41.336777,本溪市,威宁,颗粒物(PM10),62,66,81,15,30,149,149,134,134,9,20,8,9,0.6,0.7
2026-04-25T1500,2587A,105.287,27.3133,毕节市,八中,细颗粒物(PM2.5),52,44,60,36,38,101,101,55,55,10,16,12,10,0.6,0.7
2026-04-25T1500,2588A,105.3079,27.2987,毕节市,师专,,49,35,55,34,31,100,100,50,50,7,14,15,11,0.5,0.6
2026-04-25T1500,4263A,105.3688,27.3598,毕节市,工业大道,,43,36,50,30,27,112,112,61,61,8,13,10,11,/,/
2026-04-25T1500,1629A,117.9961,37.3604,滨州市,第二水厂,颗粒物(PM10),68,75,59,19,20,152,152,108,108,12,24,12,10,0.7,0.6
2026-04-25T1500,1630A,117.9789,37.3931,滨州市,北中新校,颗粒物(PM10),58,61,53,18,21,161,161,117,117,13,25,15,13,0.4,0.3
2026-04-25T1500,3514A,117.9379,37.3959,滨州市,中海酒店,,50,39,47,12,18,158,158,121,121,15,27,10,11,0.4,0.4
2026-04-25T1500,3515A,117.9381509,37.35547456,滨州市,开发区一中,颗粒物(PM10),56,58,61,13,22,140,140,101,101,13,31,11,13,0.7,0.7
2026-04-25T1500,3516A,118.0914,37.6938,滨州市,金海六路,颗粒物(PM10),67,73,59,21,22,154,154,117,117,8,26,11,10,0.8,0.7
2026-04-25T1500,4028A,117.9955,37.3752,滨州市,滨州市西街道办事处,颗粒物(PM10),60,63,59,17,18,159,159,116,116,13,22,15,11,0.5,0.5
2026-04-25T1500,2311A,115.8071,33.8399,亳州市,污水处理厂,,37,15,32,3,17,116,116,101,101,5,11,4,6,0.1,0.1
2026-04-25T1500,2312A,115.7789,33.8519,亳州市,三国揽胜宫,,34,22,34,3,15,107,107,96,96,8,9,4,5,0.1,0.2
2026-04-25T1500,3332A,115.7631,33.803,亳州市,亳州学院,,34,12,28,3,15,108,108,96,96,2,7,6,7,0.4,0.4
2026-04-25T1500,2693A,82.0482,44.8553,博尔塔拉蒙古自治州,市党校,,36,20,27,3,5,115,115,79,79,4,9,2,3,0,0.2
2026-04-25T1500,2694A,82.0805,44.8966,博尔塔拉蒙古自治州,市环保局,,36,10,28,3,8,113,113,70,70,2,13,3,4,0.3,0.3
2026-04-25T1500,1071A,116.8733,38.2922,沧州市,沧县城建局,,45,45,54,19,23,139,139,106,106,10,16,4,6,0.6,0.6
2026-04-25T1500,1072A,116.8462,38.3189,沧州市,电视转播站,,49,49,54,18,23,142,142,107,107,8,13,4,8,0.3,0.2
2026-04-25T1500,1073A,116.8588,38.3161,沧州市,市环保局,,50,50,62,13,25,139,139,105,105,6,15,6,8,0.6,0.6
2026-04-25T1500,3324A,116.8011,38.294,沧州市,河北水利电力学院,颗粒物(PM10),63,68,55,22,26,126,126,99,99,6,17,8,8,0.2,0.2
2026-04-25T1500,2622A,97.1813,31.1289,昌都市,昌都监测站,,31,12,31,3,7,97,97,76,76,9,19,9,8,0.5,0.6
2026-04-25T1500,3719A,97.1707,31.1428,昌都市,昌都会议中心,,31,12,24,3,7,98,98,79,79,8,8,6,6,0.3,0.4
2026-04-25T1500,2692A,87.2722,44.0298,昌吉回族自治州,新区政务中心,,35,20,27,3,14,109,109,70,70,6,9,6,7,0.2,0.3
2026-04-25T1500,3613A,87.3069,44.0093,昌吉回族自治州,亚心广场,,36,12,31,3,22,114,114,79,79,2,6,7,10,0.3,0.3
2026-04-25T1500,4164A,87.2057,43.9289,昌吉回族自治州,财政所,,33,15,34,6,13,104,104,75,75,4,8,8,10,0.3,0.3
2026-04-25T1500,1120A,125.2874,43.9024,长春市,客车厂,颗粒物(PM10),65,70,85,31,48,102,102,82,82,18,28,8,8,0.4,0.5
2026-04-25T1500,1121A,125.2943,43.8508,长春市,邮电学院,颗粒物(PM10),78,89,80,42,44,110,110,91,91,10,13,8,8,0.6,0.6
2026-04-25T1500,1122A,125.3648,43.8745,长春市,劳动公园,颗粒物(PM10),75,84,78,37,41,113,113,90,90,20,28,8,8,0.6,0.6
2026-04-25T1500,1123A,125.3233,43.8781,长春市,园林处,颗粒物(PM10),66,72,75,38,42,110,110,95,95,18,22,8,7,0.4,0.5
2026-04-25T1500,1124A,125.4604,43.7904,长春市,净月潭,颗粒物(PM10),60,64,67,35,38,120,120,104,104,14,14,7,7,0.5,0.5
2026-04-25T1500,1126A,125.38,43.8422,长春市,经开区环卫处,细颗粒物(PM2.5),102,105,82,62,39,111,111,94,94,21,27,8,7,0.8,0.6
2026-04-25T1500,1127A,125.234,43.7761,长春市,高新区管委会,颗粒物(PM10),77,87,79,40,44,107,107,94,94,23,22,9,9,0.5,0.5
2026-04-25T1500,1128A,125.1695,43.83,长春市,岱山公园,颗粒物(PM10),75,85,87,34,48,107,107,94,94,29,35,6,5,0.4,0.4
2026-04-25T1500,4281A,125.334645,43.916281,长春市,北亚泰大街1068号,颗粒物(PM10),61,65,82,36,44,104,104,86,86,21,30,7,7,0.5,0.5
2026-04-25T1500,1335A,113.082,28.2421,长沙市,经开区环保局,,47,47,46,19,29,146,146,90,90,10,28,4,4,0.6,0.6
2026-04-25T1500,1336A,112.8873,28.2202,长沙市,高开区环保局,,43,30,42,19,28,136,136,98,98,6,23,8,7,0.6,0.6
2026-04-25T1500,1337A,113.0785,28.2012,长沙市,马坡岭,,49,47,48,24,34,154,154,18,NA,18,29,7,6,0.3,0.7
2026-04-25T1500,1338A,112.9448,28.1894,长沙市,湖南师范大学,,46,41,46,16,27,146,146,101,101,5,26,9,7,0.8,0.7
2026-04-25T1500,1339A,113.0177,28.1322,长沙市,雨花区环保局,,42,35,42,14,27,134,134,99,99,4,21,5,5,0.6,0.7
2026-04-25T1500,1340A,112.9795,28.2593,长沙市,伍家岭,,48,40,58,19,32,151,151,93,93,4,27,8,5,0.8,0.6
2026-04-25T1500,1341A,113.002,28.1944,长沙市,火车新站,,45,40,50,15,30,141,141,94,94,6,31,6,5,0.5,0.5
2026-04-25T1500,1342A,112.9846,28.1177,长沙市,天心区环保局,,45,42,44,16,29,141,141,101,101,10,28,7,6,0.6,0.6
2026-04-25T1500,1343A,112.8906,28.1307,长沙市,湖南中医药大学,,47,40,46,16,27,148,148,95,95,7,31,9,7,0.8,0.7
2026-04-25T1500,1727A,113.1146,36.1547,长治市,清华站,,46,46,42,21,18,147,147,96,96,9,18,8,7,0.4,0.5
2026-04-25T1500,1730A,113.0887,36.2126,长治市,审计局,,48,48,43,28,20,150,150,98,98,6,17,8,8,0.3,0.4
2026-04-25T1500,1731A,113.0845,36.1856,长治市,长治八中,颗粒物(PM10),55,56,51,24,23,144,144,96,96,10,19,9,9,0.3,0.5
2026-04-25T1500,2845A,113.1561,36.1912,长治市,德盛苑,,48,48,38,21,21,152,152,108,108,9,13,8,8,0.3,0.6
2026-04-25T1500,3568A,113.0603,36.0464,长治市,向阳小学,颗粒物(PM10),73,81,66,26,19,157,157,103,103,16,24,11,8,0.8,0.6
2026-04-25T1500,3569A,112.8788,36.315,长治市,屯留一中,,45,44,47,20,18,143,143,104,104,14,25,8,8,0.4,0.4
2026-04-25T1500,4189A,113.113092,36.199482,长治市,英华南巷50号,颗粒物(PM10),53,53,48,28,21,152,152,106,106,6,13,7,7,0.4,0.7
2026-04-25T1500,4190A,113.23666,36.33435,长治市,学府街1号,颗粒物(PM10),56,58,68,20,24,141,141,95,95,8,20,3,6,0.4,0.9
2026-04-25T1500,1854A,111.696,28.9725,常德市,市二中,,35,28,34,12,25,111,111,88,88,5,16,9,9,0.8,0.8
2026-04-25T1500,3138A,111.7152,29.0288,常德市,武陵区永安,,39,36,36,14,24,123,123,96,96,7,11,7,7,0.6,0.6
2026-04-25T1500,3139A,111.6891,28.9881,常德市,鼎城区玉霞,,38,29,34,14,26,119,119,92,92,4,10,10,9,0.7,0.7
2026-04-25T1500,3140A,111.6651,29.0526,常德市,武陵区长庚,,42,34,32,18,25,134,134,94,94,7,10,10,9,0.7,0.7
2026-04-25T1500,1196A,119.9524,31.7586,常州市,市监测站,臭氧1小时(O3_1h),62,29,68,8,29,169,169,129,129,9,43,6,6,0.5,0.8
2026-04-25T1500,1200A,119.9351,31.703,常州市,武进监测站,,48,21,69,7,34,151,151,120,120,10,34,5,7,0.4,0.7
2026-04-25T1500,3002A,119.9701,31.813,常州市,行政中心,臭氧1小时(O3_1h),52,44,67,13,31,161,161,120,120,12,44,8,8,0.2,0.4
2026-04-25T1500,3003A,120.0434,31.7726,常州市,经开区,臭氧1小时(O3_1h),64,31,79,11,33,171,171,126,126,6,45,7,7,0.6,0.7
2026-04-25T1500,3010A,119.8919,31.7892,常州市,钟楼,臭氧1小时(O3_1h),74,35,59,9,30,179,179,139,139,14,39,8,9,0.0,0.2
2026-04-25T1500,3429A,119.8595,31.706,常州市,武进经发区,臭氧1小时(O3_1h),52,22,64,10,35,161,161,130,130,17,50,7,8,0.4,0.6
2026-04-25T1500,3430A,119.5812,31.7256,常州市,金坛城区,,50,20,58,9,36,160,160,141,141,8,20,9,10,0.5,0.7
2026-04-25T1500,4089A,119.9551,31.863,常州市,崇义南街5-H号,臭氧1小时(O3_1h),62,44,70,11,32,169,169,126,126,9,41,8,8,0.4,0.6
2026-04-25T1500,2220A,120.4318,41.588,朝阳市,西梁,颗粒物(PM10),81,93,76,18,26,148,148,119,119,13,30,12,11,0.6,0.6
2026-04-25T1500,2221A,120.452,41.565,朝阳市,河畔小区,颗粒物(PM10),75,84,67,19,21,158,158,126,126,10,24,8,9,0.4,0.5
2026-04-25T1500,2222A,120.4176,41.5648,朝阳市,八里堡,颗粒物(PM10),84,97,78,20,26,149,149,118,118,13,33,11,9,0.8,0.8
2026-04-25T1500,3026A,116.6179,23.6608,潮州市,市政府,,25,25,14,13,10,56,56,45,45,4,8,2,3,0.6,0.6
2026-04-25T1500,4036A,116.646,23.676,潮州市,金山,,13,11,11,9,7,39,39,35,35,5,5,2,2,0.5,0.5
2026-04-25T1500,2473A,113.0116,25.8228,郴州市,市职中,,40,NA,31,9,24,125,125,75,75,14,20,5,6,0.5,0.6
2026-04-25T1500,2475A,113.0381,25.8074,郴州市,市审计局,,34,21,36,9,29,107,107,61,61,9,20,4,5,/,/
2026-04-25T1500,2476A,113.0348,25.7757,郴州市,市环保局,,36,36,47,10,33,115,115,67,67,9,23,6,7,0.5,0.7
2026-04-25T1500,4252A,113.0138,25.8011,郴州市,好美居路49号,,41,14,32,3,20,130,130,76,76,9,19,4,4,/,/
2026-04-25T1500,1431A,103.9727,30.7242,成都市,金泉两河,臭氧1小时(O3_1h),90,59,70,24,48,192,192,119,119,8,29,4,4,0.4,0.5
2026-04-25T1500,1432A,104.1423,30.6765,成都市,十里店,臭氧1小时(O3_1h),68,51,78,28,54,174,174,117,117,7,26,6,6,0.6,0.7
2026-04-25T1500,1433A,104.0594,30.5765,成都市,三瓦窑,臭氧1小时(O3_1h),57,48,80,22,55,165,165,117,117,10,46,4,6,0.7,0.9
2026-04-25T1500,1434A,104.1122,30.6306,成都市,沙河铺,,47,42,76,30,54,150,150,104,104,10,29,4,3,0.5,0.7
2026-04-25T1500,2880A,104.0219,30.6561,成都市,大石西路,颗粒物(PM10),53,54,76,28,55,160,160,106,106,11,40,5,5,0.5,0.8
2026-04-25T1500,3136A,104.2724,30.559,成都市,龙泉驿区区政府,颗粒物(PM10),51,51,58,28,41,152,152,122,122,4,12,8,8,0.5,0.6
2026-04-25T1500,3357A,104.0028,30.6891,成都市,金博路,臭氧1小时(O3_1h),67,30,66,24,50,173,173,112,112,11,48,6,6,0.5,0.7
2026-04-25T1500,3359A,104.056,30.5228,成都市,华阳,臭氧1小时(O3_1h),60,56,75,24,54,168,168,120,120,6,31,7,7,0.5,0.7
2026-04-25T1500,3488A,104.387954,30.746684,成都市,青石路225号,臭氧1小时(O3_1h),62,47,65,28,43,169,169,124,124,9,30,6,5,0.5,0.8
2026-04-25T1500,3489A,104.0788,30.4054,成都市,科学城,,48,24,67,22,47,152,152,114,114,3,14,6,8,0.5,0.6
2026-04-25T1500,4011A,103.8505,30.6946,成都市,光华大道三段,臭氧1小时(O3_1h),85,50,70,28,45,188,188,126,126,4,16,5,7,0.5,0.6
2026-04-25T1500,4144A,104.3257,30.6406,成都市,八角井街185号,颗粒物(PM10),56,58,67,28,42,159,159,111,111,4,16,5,6,0.5,0.6
2026-04-25T1500,4224A,104.2433276,30.53529463,成都市,鲸龙路1057号,臭氧1小时(O3_1h),52,47,69,20,45,161,161,122,122,5,26,7,8,0.5,0.7
2026-04-25T1500,1062A,117.9531,40.908,承德市,铁路,颗粒物(PM10),68,74,61,30,24,143,143,100,100,9,17,4,3,0.2,0.3
2026-04-25T1500,1063A,117.9397,40.9763,承德市,中国银行,颗粒物(PM10),60,63,57,9,19,135,135,98,98,4,13,3,2,0.3,0.3
2026-04-25T1500,4073A,117.9462,40.95,承德市,杏林街1号,颗粒物(PM10),65,71,58,29,26,144,144,105,105,3,12,3,2,0.2,0.3
2026-04-25T1500,4274A,117.7994,40.9605,承德市,滨河大街98号,颗粒物(PM10),85,98,52,26,20,146,146,108,108,4,16,2,7,0.3,0.4
2026-04-25T1500,2314A,117.4698,30.6617,池州市,池州学院,,42,14,24,8,14,133,133,87,87,17,25,5,4,0.6,0.8
2026-04-25T1500,3237A,117.4918,30.6617,池州市,展览馆,,45,16,20,11,10,141,141,90,90,12,22,4,3,0.7,0.7
2026-04-25T1500,3333A,117.5626,30.695,池州市,第八中学,,39,12,22,8,13,123,123,87,87,19,26,5,4,0.3,0.4
2026-04-25T1500,3334A,117.5037,30.6242,池州市,第十二中学,,41,20,24,9,13,130,130,86,86,14,32,6,4,0.6,0.8
2026-04-25T1500,1744A,118.9229,42.2816,赤峰市,松山一中,颗粒物(PM10),54,55,40,20,15,131,131,102,102,15,28,7,9,0.5,0.5
2026-04-25T1500,1745A,118.9588,42.2733,赤峰市,哈达街,颗粒物(PM10),68,74,42,22,13,116,116,93,93,7,17,9,11,0.6,0.6
2026-04-25T1500,1746A,118.8792,42.2551,赤峰市,天义路,颗粒物(PM10),51,51,29,23,15,130,130,105,105,14,25,5,9,0.4,0.5
2026-04-25T1500,3058A,119.2656,42.0356,赤峰市,银河街,颗粒物(PM10),67,73,53,30,20,141,141,108,108,12,15,30,19,0.7,0.7
2026-04-25T1500,3286A,118.9359,42.3146,赤峰市,桥北物流园区,颗粒物(PM10),61,65,38,30,13,115,115,88,88,14,26,3,4,0.5,0.4
2026-04-25T1500,2521A,107.3473,22.4137,崇左市,市环保局江州分局,,42,39,36,16,21,132,132,93,93,5,10,6,6,0.6,0.2
2026-04-25T1500,4256A,107.375,22.3736,崇左市,石景林东路7号,,40,40,33,14,22,128,128,97,97,6,14,4,4,0.5,0.6
2026-04-25T1500,3207A,118.31131,32.3033,滁州市,市政府原办公楼,臭氧1小时(O3_1h),73,34,47,26,41,178,178,130,130,12,28,6,6,0.3,0.5
2026-04-25T1500,3331A,118.3268,32.2633,滁州市,图书馆,臭氧1小时(O3_1h),101,44,64,20,31,201,201,144,144,18,30,NA,10,0.5,0.7
2026-04-25T1500,4101A,118.3196,32.3335,滁州市,银山路666号,臭氧1小时(O3_1h),68,36,46,18,22,174,174,127,127,14,26,7,7,0.3,0.4
2026-04-25T1500,4102A,118.3426,32.2979,滁州市,黄山路555号,臭氧1小时(O3_1h),101,47,62,25,32,201,201,140,140,11,27,9,8,0.6,0.7
2026-04-25T1500,2606A,101.5379,25.0492,楚雄彝族自治州,市经济开发区,颗粒物(PM10),53,53,42,31,26,118,118,103,103,6,11,1,3,0.4,0.4
2026-04-25T1500,4153A,101.5536,25.0343,楚雄彝族自治州,团结路562号,,46,46,36,30,24,124,124,108,108,5,8,4,4,0.5,0.4
2026-04-25T1500,2549A,107.5087,31.2186,达州市,市环境监测站,NA,NA,NA,53,NA,24,NA,NA,65,NA,NA,40,NA,6,NA,0.5
2026-04-25T1500,2550A,107.4988,31.2132,达州市,凤凰小区,颗粒物(PM10),62,66,52,28,24,156,156,96,96,12,28,6,7,0.1,0.2
2026-04-25T1500,2551A,107.5081,31.1987,达州市,达县机关宾馆,颗粒物(PM10),60,63,57,8,24,158,158,116,116,16,42,6,6,0.3,0.4
2026-04-25T1500,2552A,107.4644,31.2124,达州市,市政中心,颗粒物(PM10),62,66,59,23,23,160,160,93,93,10,36,7,6,0.3,0.5
2026-04-25T1500,2614A,100.2168,25.5818,大理白族自治州,大理市环境监测站,,39,39,47,26,33,108,108,111,106,10,11,4,4,0.5,0.5
2026-04-25T1500,2615A,100.1542,25.7055,大理白族自治州,大理古城,,38,29,44,26,30,109,109,108,108,5,8,3,3,0.6,0.6
2026-04-25T1500,1109A,121.6119,38.974,大连市,甘井子,细颗粒物(PM2.5),74,77,73,47,39,156,156,115,115,24,35,14,13,0.7,0.6
2026-04-25T1500,1110A,121.565,38.9509,大连市,周水子,颗粒物(PM10),70,78,75,42,44,132,132,108,108,33,43,12,10,0.7,0.7
2026-04-25T1500,1111A,121.5637,38.8849,大连市,星海三站,颗粒物(PM10),61,65,58,33,35,121,121,93,93,33,33,7,7,0.6,0.5
2026-04-25T1500,1112A,121.6301,38.9117,大连市,青泥洼桥,细颗粒物(PM2.5),70,73,58,45,35,166,166,126,126,17,24,10,9,0.7,0.6
2026-04-25T1500,1113A,121.6248,38.8643,大连市,傅家庄,细颗粒物(PM2.5),66,66,55,43,33,118,118,91,91,29,28,12,12,0.6,0.6
2026-04-25T1500,1114A,121.5117,38.8636,大连市,七贤岭,细颗粒物(PM2.5),64,66,65,42,36,156,156,125,125,22,29,9,8,0.6,0.7
2026-04-25T1500,1116A,121.7507,39.1339,大连市,金州,颗粒物(PM10),70,77,66,43,37,158,158,126,126,27,28,16,13,0.5,0.5
2026-04-25T1500,1117A,121.7811,39.0495,大连市,开发区,细颗粒物(PM2.5),74,66,71,47,44,151,151,109,109,31,50,13,12,0.5,0.5
2026-04-25T1500,1118A,121.9762,39.0631,大连市,双D港,细颗粒物(PM2.5),84,71,57,52,35,166,166,102,102,24,37,10,7,0.4,0.5
2026-04-25T1500,4082A,121.2548,38.8188,大连市,旅顺,颗粒物(PM10),63,68,60,41,37,144,144,121,121,22,26,10,10,0.6,0.6
2026-04-25T1500,1789A,124.8085,46.0381,大庆市,大同区,,32,11,43,9,22,101,101,102,97,3,10,1,2,0.4,0.5
2026-04-25T1500,1790A,125.1166,46.5255,大庆市,龙凤区,,31,31,47,17,32,91,91,82,82,7,17,3,6,0.2,0.3
2026-04-25T1500,1791A,124.8894,46.4007,大庆市,红岗区,,29,18,37,3,20,92,92,86,86,4,11,6,8,0.2,0.4
2026-04-25T1500,1792A,125.1391,46.578,大庆市,萨尔图区,,29,11,39,8,21,91,91,82,82,7,16,7,8,0.4,0.5
2026-04-25T1500,1793A,124.9026,46.6217,大庆市,让胡路区,NA,NA,33,38,21,23,87,87,78,78,5,10,NA,2,0.2,0.3
2026-04-25T1500,3481A,125.127,46.6277,大庆市,萨区政府监测点,,31,18,37,3,20,98,98,89,89,2,9,8,8,0.3,0.4
2026-04-25T1500,1723A,113.2926,40.0759,大同市,云冈宾馆,颗粒物(PM10),58,60,103,20,30,127,127,88,88,7,33,5,8,0.4,0.8
2026-04-25T1500,1724A,113.3437,40.0921,大同市,大同大学,,40,32,51,16,28,125,125,95,95,12,34,3,7,0.3,0.6
2026-04-25T1500,1725A,113.2637,40.129,大同市,安家小村,颗粒物(PM10),72,80,98,20,33,129,129,91,91,9,28,8,12,0.2,0.7
2026-04-25T1500,3282A,113.3399,40.0586,大同市,大同市卫生学校,颗粒物(PM10),69,76,95,8,29,134,134,98,98,9,35,5,7,0.3,0.6
2026-04-25T1500,3565A,113.1371,40.1122,大同市,云冈站,颗粒物(PM10),58,60,98,13,29,123,123,85,85,4,30,4,9,0.3,0.4
2026-04-25T1500,3566A,113.1186,40.2556,大同市,图书馆,颗粒物(PM10),68,74,78,18,26,114,114,91,91,9,17,5,6,0.3,0.4
2026-04-25T1500,3567A,113.5931,40.0459,大同市,区一中,NA,NA,108,91,22,29,143,143,120,120,NA,17,3,2,0.6,0.8
2026-04-25T1500,4199A,113.2798248,40.09972476,大同市,魏都大道141号,颗粒物(PM10),78,88,109,18,36,122,122,82,82,8,36,7,11,0.3,0.8
2026-04-25T1500,2269A,124.1068,50.4091,大兴安岭地区,科技局,,27,23,20,3,9,85,85,78,78,2,4,6,6,0.2,0.2
2026-04-25T1500,3663A,124.117,50.4279,大兴安岭地区,红旗社区,,28,9,8,3,8,88,88,84,84,4,6,5,6,0.2,0.3
2026-04-25T1500,1600A,124.33,40.0625,丹东市,江湾东路,颗粒物(PM10),71,79,66,42,32,146,146,133,133,13,15,6,6,0.6,0.5
2026-04-25T1500,1601A,124.4242,40.1513,丹东市,临江后街,颗粒物(PM10),76,86,66,41,33,136,136,122,122,11,14,8,9,0.6,0.6
2026-04-25T1500,1602A,124.3935,40.1461,丹东市,元宝山,颗粒物(PM10),73,81,70,40,30,132,132,120,120,13,17,8,10,0.7,0.7
2026-04-25T1500,1603A,124.3634,40.1093,丹东市,民主桥,颗粒物(PM10),83,95,73,43,34,142,142,126,126,11,17,8,9,0.6,0.7
2026-04-25T1500,3541A,109.5726195,19.51688767,儋州市,第一中学子站,,26,13,13,10,7,82,82,59,59,3,6,3,4,0.7,0.7
2026-04-25T1500,3542A,109.5567,19.5187,儋州市,东坡学校子站,,30,10,15,9,6,94,94,75,75,3,6,5,4,0.5,0.5
2026-04-25T1500,2616A,98.5611,24.4273,德宏傣族景颇族自治州,德宏州监测站,细颗粒物(PM2.5),121,90,80,83,75,175,175,92,92,12,20,7,6,1.7,1
2026-04-25T1500,3677A,98.5887,24.4366,德宏傣族景颇族自治州,芒市人民政府综合楼,细颗粒物(PM2.5),122,136,117,84,67,186,186,109,109,15,17,4,3,1.4,1.4
2026-04-25T1500,1901A,104.424,31.1209,德阳市,东山公园,"颗粒物(PM10),臭氧1小时(O3_1h)",63,67,66,30,55,170,170,114,114,6,18,5,10,0.5,0.6
2026-04-25T1500,1902A,104.3827,31.1318,德阳市,西小区,颗粒物(PM10),70,77,85,33,59,169,169,98,98,12,36,5,7,0.6,0.8
2026-04-25T1500,1904A,104.3553,31.1091,德阳市,耐火材料厂,臭氧1小时(O3_1h),99,72,94,27,72,199,199,122,122,14,33,4,10,0.4,0.6
2026-04-25T1500,4145A,104.4144,31.1495,德阳市,市林业局,臭氧1小时(O3_1h),94,69,69,30,54,195,195,117,117,9,39,4,5,0.4,0.5
2026-04-25T1500,1622A,116.3034,37.4675,德州市,儿童乐园,颗粒物(PM10),88,102,63,12,16,151,151,118,118,6,11,7,7,0.5,0.5
2026-04-25T1500,1624A,116.2992,37.4449,德州市,监理站,颗粒物(PM10),80,92,61,12,16,149,149,117,117,6,11,9,9,0.4,0.4
2026-04-25T1500,3066A,116.2722,37.438,德州市,九衢泉纯净水厂,颗粒物(PM10),62,66,54,15,17,148,148,118,118,13,23,12,12,0.7,0.6
2026-04-25T1500,3371A,116.3693,37.44,德州市,开发区人民医院,颗粒物(PM10),75,85,65,19,21,149,149,114,114,11,16,10,11,0.6,0.5
2026-04-25T1500,3511A,116.5687,37.3331,德州市,陵城艺术中心,,48,48,51,14,20,146,146,113,113,11,17,16,16,0.5,0.5
2026-04-25T1500,4292A,116.352738,37.420875,德州市,新河东路,颗粒物(PM10),56,58,53,17,16,146,146,113,113,8,15,9,9,0.6,0.6
2026-04-25T1500,2621A,99.7054,27.8319,迪庆藏族自治州,迪庆州站,,32,23,29,14,13,100,100,73,73,8,12,8,6,0.4,0.4
2026-04-25T1500,3180A,99.7122,27.8129,迪庆藏族自治州,质量技术监督局,,38,38,27,14,14,105,105,78,78,10,11,8,8,0.4,0.4
2026-04-25T1500,4257A,104.6092,35.5962,定西市,将台街,,47,41,72,9,30,148,148,103,103,5,20,4,5,0.0,0.1
2026-04-25T1500,4309A,104.6159,35.5701,定西市,正龙路62号,NA,NA,43,71,13,26,146,146,119,119,NA,13,2,4,0.3,0.3
2026-04-25T1500,4071A,114.9883,38.5232,定州市,交通局,颗粒物(PM10),101,121,85,26,27,148,148,98,98,9,19,12,10,0.6,0.5
2026-04-25T1500,4072A,115.0045,38.5136,定州市,第五中学,颗粒物(PM10),104,129,98,29,27,140,140,95,95,7,19,6,5,0.5,0.4
2026-04-25T1500,1390A,113.7943,23.0132,东莞市,东城石井,,43,14,28,8,18,136,136,109,109,18,28,6,6,0.6,0.7
2026-04-25T1500,1391A,113.7384,22.9659,东莞市,南城西平,,45,16,28,11,20,143,143,103,103,12,31,7,7,0.5,0.6
2026-04-25T1500,3319A,113.7283,23.041,东莞市,万江金泰,,38,15,34,15,25,120,120,91,91,8,19,7,6,0.7,0.7
2026-04-25T1500,4129A,113.8666,23.1062,东莞市,裕兴路,,38,15,29,6,18,119,119,89,89,6,18,6,6,0.6,0.7
2026-04-25T1500,4130A,114.0076,22.9739,东莞市,教育路1号,,46,18,23,9,16,145,145,98,98,13,25,7,8,0.5,0.5
2026-04-25T1500,4131A,113.7981,22.8124,东莞市,长怡路1号,臭氧1小时(O3_1h),94,35,30,20,18,195,195,114,114,18,25,8,7,0.6,0.6
2026-04-25T1500,1666A,118.6612,37.4313,东营市,市环保局,臭氧1小时(O3_1h),60,56,60,12,22,168,168,122,122,12,31,8,11,0.4,0.4
2026-04-25T1500,3036A,118.6903,37.4337,东营市,开发区管委会,颗粒物(PM10),64,69,60,30,22,166,166,121,121,17,35,9,11,0.4,0.5
2026-04-25T1500,3365A,118.5721,37.5654,东营市,垦利区民丰路,臭氧1小时(O3_1h),65,56,59,23,23,172,172,127,127,14,27,13,13,0.6,0.6
2026-04-25T1500,3498A,118.5063,37.8606,东营市,河口城区,臭氧1小时(O3_1h),73,46,58,10,18,178,178,143,143,10,21,15,12,0.9,0.9
2026-04-25T1500,3646A,118.4979,37.4623,东营市,胜利站,臭氧1小时(O3_1h),54,49,47,14,17,163,163,123,123,19,31,8,9,0.6,0.7
2026-04-25T1500,3734A,118.5753,37.4405,东营市,理想之城,颗粒物(PM10),51,51,56,18,20,138,138,97,97,21,38,10,9,0.6,0.6
2026-04-25T1500,1591A,110.0024,39.8127,鄂尔多斯市,综合楼,颗粒物(PM10),53,53,70,16,19,122,122,91,91,7,21,8,8,0.2,0.3
2026-04-25T1500,1592A,109.9485,39.8259,鄂尔多斯市,巴音孟克林场办事处,,48,48,60,11,17,127,127,103,103,8,18,5,6,0.2,0.2
2026-04-25T1500,1593A,109.7734,39.5987,鄂尔多斯市,康泽苑,,48,48,59,15,17,123,123,90,90,6,12,8,9,0.2,0.3
2026-04-25T1500,1594A,109.8121,39.5987,鄂尔多斯市,华泰汽车城,,39,39,60,9,15,120,120,84,84,7,19,8,9,0.3,0.3
2026-04-25T1500,1595A,109.9734,39.7884,鄂尔多斯市,奥林花园,,48,48,72,15,15,127,127,89,89,8,27,5,7,0.1,0.2
2026-04-25T1500,2436A,114.894,30.3989,鄂州市,市政府,,38,23,44,15,24,121,121,72,72,14,29,10,14,0.4,0.6
2026-04-25T1500,2437A,114.8986,30.3714,鄂州市,赵家坝,,39,25,47,8,27,122,122,67,67,2,19,10,12,0.6,0.8
2026-04-25T1500,3654A,114.8093,30.4091,鄂州市,精准医疗中心,,40,30,52,12,32,128,128,69,69,7,28,6,10,0.7,1
2026-04-25T1500,2454A,109.4978,30.2979,恩施土家族苗族自治州,湖北民院,,43,42,39,23,23,135,135,69,69,8,11,8,8,0.4,0.4
2026-04-25T1500,3549A,109.5061,30.3771,恩施土家族苗族自治州,龙凤新区,,45,45,32,23,19,124,124,65,65,6,7,7,7,0.3,0.4
2026-04-25T1500,2499A,108.3411,21.6159,防城港市,沙万,,39,39,50,14,28,108,108,80,80,10,18,7,7,0.7,0.9
2026-04-25T1500,2500A,108.3515,21.7733,防城港市,防城档案局,,39,31,60,14,30,124,124,79,79,5,14,8,8,0.5,0.7
2026-04-25T1500,2501A,108.3506,21.6414,防城港市,大海花园,,38,30,40,17,31,120,120,90,90,7,16,9,9,0.6,0.9
2026-04-25T1500,1371A,113.1293,23.0065,佛山市,湾梁,臭氧1小时(O3_1h),63,31,28,21,24,170,170,87,87,12,37,/,/,/,/
2026-04-25T1500,1372A,113.1082,23.0477,佛山市,华材职中,臭氧1小时(O3_1h),60,39,33,25,25,168,168,88,88,14,38,5,4,0.5,0.6
2026-04-25T1500,1373A,113.1439,23.045,佛山市,南海气象局,臭氧1小时(O3_1h),73,52,32,22,22,178,178,88,88,16,37,/,/,/,/
2026-04-25T1500,1374A,113.2879,22.8094,佛山市,顺德苏岗,,49,NA,17,20,22,155,155,76,76,13,30,/,/,0.6,0.7
2026-04-25T1500,1376A,112.8384,22.8678,佛山市,高明孔堂,,49,34,35,28,25,154,154,93,93,14,33,/,/,/,/
2026-04-25T1500,1377A,112.8835,23.1584,佛山市,三水监测站,,35,29,36,12,28,112,112,76,76,13,33,7,7,0.5,0.6
2026-04-25T1500,1378A,112.8668,23.185,佛山市,三水云东海,,38,37,41,11,25,120,120,82,82,9,21,/,/,/,/
2026-04-25T1500,3625A,113.2568,22.7629,佛山市,容桂街道办,臭氧1小时(O3_1h),60,36,22,24,25,168,168,79,79,17,35,/,/,/,/
2026-04-25T1500,1282A,119.2681,26.0506,福州市,师大,臭氧1小时(O3_1h),58,50,34,21,13,166,166,120,120,15,17,5,4,0.5,0.5
2026-04-25T1500,1283A,119.2983,26.1028,福州市,五四北路,臭氧1小时(O3_1h),60,43,33,23,14,168,168,122,122,19,21,5,5,0.4,0.4
2026-04-25T1500,1284A,119.2648,26.0769,福州市,杨桥西路,臭氧1小时(O3_1h),63,49,33,20,12,170,170,118,118,13,16,5,4,/,/
2026-04-25T1500,3048A,119.5799,26.0937,福州市,九龙,,40,40,29,14,10,126,126,112,112,10,15,6,7,0.3,0.4
2026-04-25T1500,3526A,119.5188,25.9666,福州市,吴航,,42,28,26,14,13,134,134,117,117,10,15,7,7,0.2,0.3
2026-04-25T1500,4104A,119.3106,26.0648,福州市,路通桥巷6号,臭氧1小时(O3_1h),57,54,31,21,17,165,165,124,124,14,15,/,/,/,/
2026-04-25T1500,1755A,123.7974,41.8494,抚顺市,望花区,颗粒物(PM10),112,151,97,28,41,152,152,146,146,21,24,17,17,0.7,0.8
2026-04-25T1500,1756A,123.9161,41.8827,抚顺市,顺城区,颗粒物(PM10),93,110,74,21,36,162,162,145,145,16,28,15,16,0.8,0.8
2026-04-25T1500,1757A,124.0437,41.8615,抚顺市,东洲区,颗粒物(PM10),108,139,97,24,34,163,163,152,152,14,17,10,12,0.7,0.8
2026-04-25T1500,1758A,123.9246,41.8638,抚顺市,新抚区,颗粒物(PM10),86,100,82,26,38,171,171,146,146,13,22,12,12,0.8,0.8
2026-04-25T1500,1759A,124.0972,41.8961,抚顺市,大伙房水库,颗粒物(PM10),105,132,77,21,31,165,165,152,152,12,13,11,11,0.7,0.6
2026-04-25T1500,1760A,123.708,41.8386,抚顺市,沈抚新城,颗粒物(PM10),108,139,93,23,37,154,154,150,150,20,24,14,14,0.9,0.9
2026-04-25T1500,2377A,116.3544,27.9833,抚州市,市站,NA,NA,20,25,8,14,108,108,83,83,4,13,1,1,NA,0.6
2026-04-25T1500,2378A,116.3562,27.9631,抚州市,血防站,,36,18,26,8,15,115,115,86,86,4,13,8,8,0.8,0.8
2026-04-25T1500,2379A,116.3561,28.0007,抚州市,采茶剧团,,35,17,25,10,15,111,111,86,86,4,12,7,6,0.6,0.8
2026-04-25T1500,2380A,116.3854,27.9648,抚州市,医学分院,,36,19,32,17,16,115,115,90,90,4,11,8,8,0.7,0.8
2026-04-25T1500,2207A,121.6095,41.9978,阜新市,工业园区,颗粒物(PM10),95,112,86,33,36,158,158,126,126,10,29,11,13,0.6,0.6
2026-04-25T1500,2208A,121.6567,42.0188,阜新市,长青街,颗粒物(PM10),83,95,73,20,31,167,167,136,136,13,24,9,12,0.7,0.7
2026-04-25T1500,2209A,121.6672,42.07,阜新市,农业园区,颗粒物(PM10),90,105,78,22,30,169,169,138,138,15,19,9,15,0.7,0.7
2026-04-25T1500,2211A,121.6343,42.0455,阜新市,玉龙新城,NA,NA,99,83,14,29,168,168,151,151,12,31,12,13,NA,0.7
2026-04-25T1500,2301A,115.8276,32.8929,阜阳市,市监测站,,36,23,37,3,17,114,114,98,98,3,15,6,7,0.3,0.4
2026-04-25T1500,2303A,115.8551,32.8606,阜阳市,开发区,,36,35,41,3,17,114,114,96,96,6,18,4,5,0.4,0.4
2026-04-25T1500,2875A,115.783962,32.889217,阜阳市,阜阳职业技术学院,,37,23,29,3,12,117,117,101,101,6,10,7,7,0.4,0.4
2026-04-25T1500,3468A,115.79,32.8614,阜阳市,市规划展馆,,37,30,32,3,15,118,118,102,102,4,9,7,8,0.4,0.5
2026-04-25T1500,3469A,115.835101,32.918568,阜阳市,枣园社区,,36,21,32,3,16,115,115,99,99,8,16,6,7,0.1,0.3
2026-04-25T1500,2669A,102.9097,34.9841,甘南藏族自治州,州政府,,41,20,66,3,27,130,130,82,82,3,28,5,4,0.2,0.4
2026-04-25T1500,3380A,102.8915,34.9618,甘南藏族自治州,甘肃民族师范学院,,44,13,76,3,23,138,138,91,91,1,29,1,2,0.2,0.3
2026-04-25T1500,2570A,101.96,30.048,甘孜藏族自治州,水桥子,,31,21,25,3,10,99,99,63,63,2,17,6,6,0.2,0.2
2026-04-25T1500,3065A,101.9534,29.9976,甘孜藏族自治州,州环保局,,32,28,27,16,12,100,100,71,71,8,16,4,4,0.4,0.4
2026-04-25T1500,2363A,114.9368,25.8663,赣州市,地委,,35,18,26,6,14,109,109,76,76,2,6,2,2,0.9,0.9
2026-04-25T1500,2364A,114.946,25.8483,赣州市,气象台,,36,20,31,10,17,113,113,80,80,5,10,4,5,0.8,0.9
2026-04-25T1500,2365A,114.932,25.8332,赣州市,市图书馆,,38,15,23,3,15,119,119,87,87,4,10,3,4,0.7,0.8
2026-04-25T1500,2366A,114.8905,25.8472,赣州市,华坚鞋城,,35,23,27,3,17,112,112,79,79,8,11,5,5,0.3,1
2026-04-25T1500,3109A,115.0094,25.8614,赣州市,赣县区卫计委,,41,41,29,9,13,116,116,76,76,8,11,3,4,0.5,0.6
2026-04-25T1500,2684A,106.2753,36.0057,固原市,监测站,,44,39,60,16,18,138,138,105,105,8,18,6,7,0.3,0.4
2026-04-25T1500,2685A,106.2384,36.0189,固原市,新区,颗粒物(PM10),52,52,66,17,18,141,141,114,114,7,23,5,5,0.3,0.5
2026-04-25T1500,2544A,106.6307,30.4577,广安市,市委,,48,48,59,21,36,147,147,111,111,6,25,8,7,0.4,0.5
2026-04-25T1500,2545A,106.6266,30.4662,广安市,友谊中学,,45,44,50,16,30,142,142,103,103,7,18,8,7,0.6,0.7
2026-04-25T1500,2547A,106.6386,30.4551,广安市,广电花园,,46,46,57,22,41,135,135,100,100,9,23,7,6,0.4,0.5
2026-04-25T1500,2902A,106.6347,30.4868,广安市,北辰小学,,50,50,59,22,36,143,143,104,104,8,15,7,6,0.3,0.4
2026-04-25T1500,2524A,105.8211,32.4444,广元市,老城,颗粒物(PM10),54,55,47,24,24,162,162,92,92,7,33,3,2,0.6,0.6
2026-04-25T1500,2526A,105.8629,32.429,广元市,监测站,颗粒物(PM10),52,52,48,34,24,160,160,95,95,10,17,2,4,0.6,0.6
2026-04-25T1500,3617A,105.8047,32.4167,广元市,经开区,颗粒物(PM10),58,61,52,35,29,155,155,84,84,8,22,3,5,0.6,0.6
2026-04-25T1500,1345A,113.2346,23.1423,广州市,广雅中学,,47,31,32,19,20,150,150,83,83,21,37,4,2,0.8,0.7
2026-04-25T1500,1346A,113.2611,23.105,广州市,市五中,臭氧1小时(O3_1h),83,30,26,22,20,186,186,98,98,18,29,4,3,/,/
2026-04-25T1500,1348A,113.3477,23.0916,广州市,广东商学院,,49,24,25,14,17,154,154,86,86,14,30,5,4,0.6,0.8
2026-04-25T1500,1349A,113.4332,23.105,广州市,市八十六中,,46,25,22,22,16,145,145,78,78,12,30,6,6,/,/
2026-04-25T1500,1350A,113.3506,22.9488,广州市,番禺中学,臭氧1小时(O3_1h),52,37,30,19,19,161,161,84,84,12,36,5,5,0.5,0.6
2026-04-25T1500,1351A,113.2147,23.3918,广州市,花都师范,,40,22,30,14,18,128,128,89,89,13,25,8,7,0.7,0.8
2026-04-25T1500,1352A,113.2599,23.1329,广州市,市监测站,臭氧1小时(O3_1h),54,34,18,21,17,163,163,88,88,14,23,3,2,/,/
2026-04-25T1500,1353A,113.5618,23.3119,广州市,九龙镇镇龙,NA,NA,35,24,25,16,115,115,67,67,11,16,6,6,NA,0.5
2026-04-25T1500,1354A,113.2764,23.1544,广州市,麓湖,,50,36,25,20,17,159,159,84,84,12,23,5,5,0.6,0.7
2026-04-25T1500,2846A,113.3209,23.1323,广州市,体育西,,48,29,26,19,18,152,152,83,83,14,29,6,5,0.6,0.7
2026-04-25T1500,3298A,113.5718,23.5493,广州市,从化街口,,34,21,27,15,19,108,108,76,76,7,15,8,7,0.5,0.6
2026-04-25T1500,3299A,113.3463,23.369,广州市,白云竹料,,40,23,30,13,18,127,127,82,82,10,20,4,4,0.5,0.7
2026-04-25T1500,3300A,113.2981,23.2365,广州市,白云嘉禾,,47,26,29,15,18,148,148,87,87,13,26,8,6,/,/
2026-04-25T1500,3301A,113.4256,23.1716,广州市,黄埔科学城,,42,20,27,14,20,132,132,80,80,10,18,6,4,0.5,0.6
2026-04-25T1500,3302A,113.3942,23.0485,广州市,番禺大学城,臭氧1小时(O3_1h),58,21,25,13,16,166,166,88,88,12,33,6,5,0.4,0.5
2026-04-25T1500,3303A,113.4923,22.8169,广州市,南沙黄阁,臭氧1小时(O3_1h),69,38,30,31,23,175,175,90,90,14,28,9,8,/,/
2026-04-25T1500,3304A,113.534,22.7893,广州市,南沙街,臭氧1小时(O3_1h),75,34,30,20,22,180,180,104,104,23,35,11,9,0.6,0.6
2026-04-25T1500,3443A,113.2905,23.5541,广州市,花都梯面,,25,25,23,16,17,79,79,64,64,8,16,10,10,/,/
2026-04-25T1500,3445A,113.786,23.7479,广州市,从化良口,,30,22,18,18,11,93,93,74,74,5,8,5,4,/,/
2026-04-25T1500,3446A,113.805,23.2614,广州市,增城荔城,,32,17,25,12,15,102,102,69,69,10,19,5,6,0.6,0.7
2026-04-25T1500,2506A,109.604387,23.066791,贵港市,江南子站,,40,36,42,18,23,126,126,85,85,5,17,10,10,0.7,0.7
2026-04-25T1500,2508A,109.5669,23.1065,贵港市,荷城子站,,37,36,34,16,21,116,116,82,82,8,17,6,8,0.6,0.7
2026-04-25T1500,3405A,109.5886,23.1172,贵港市,新世纪学校,,39,31,37,21,23,123,123,84,84,12,21,/,/,0.6,0.6
2026-04-25T1500,4260A,109.5933,23.095,贵港市,中山路155-3号,,43,39,39,26,23,136,136,91,91,8,16,/,/,0.6,0.7
2026-04-25T1500,1439A,106.6863,26.6035,贵阳市,马鞍山,,43,34,33,13,19,136,136,73,73,10,15,5,3,/,/
2026-04-25T1500,1441A,106.6241,26.6266,贵阳市,鉴湖路,,46,46,52,16,24,145,145,84,84,12,21,7,7,0.6,0.7
2026-04-25T1500,1442A,106.7468,26.6344,贵阳市,燕子冲,,46,46,40,16,19,133,133,74,74,10,16,3,5,0.5,0.7
2026-04-25T1500,1443A,106.6556,26.4362,贵阳市,碧云窝,,48,48,53,17,24,121,121,72,72,6,15,7,7,/,/
2026-04-25T1500,1445A,106.6963,26.6063,贵阳市,红边门,,43,39,41,16,24,137,137,78,78,13,25,9,6,/,/
2026-04-25T1500,1446A,106.7162383,26.56964667,贵阳市,新华路,二氧化硫(SO2),54,48,49,16,23,140,140,82,82,12,26,173,32,0.8,0.5
2026-04-25T1500,1447A,106.6742,26.542,贵阳市,太慈桥,,40,39,40,18,22,126,126,66,66,10,21,7,4,/,/
2026-04-25T1500,4230A,106.688212,26.56952,贵阳市,花果园大街66号,,41,31,35,14,24,129,129,68,68,8,21,3,4,/,/
2026-04-25T1500,4231A,106.687268,26.516892,贵阳市,漓江路57号,,41,39,39,22,23,130,130,78,78,10,26,6,6,0.3,0.8
2026-04-25T1500,1864A,110.3091,25.2705,桂林市,龙隐路小学,,40,38,36,19,23,127,127,88,88,7,10,5,6,0.4,0.4
2026-04-25T1500,1865A,110.2849361,25.22909545,桂林市,八中,,36,36,39,9,17,110,110,73,73,8,16,5,6,0.5,0.6
2026-04-25T1500,3531A,110.296,25.1254,桂林市,旅游学院,,44,44,41,20,29,121,121,84,84,5,15,8,8,0.6,0.6
2026-04-25T1500,4222A,110.1835,25.2444,桂林市,环湖路276号,,44,36,37,26,25,139,139,76,76,7,18,4,11,0.4,0.4
2026-04-25T1500,4301A,110.2803,25.2773,桂林市,信义路13号,,41,39,35,7,24,130,130,87,87,11,14,6,8,0.6,0.7
2026-04-25T1500,2674A,100.2262,34.4854,果洛藏族自治州,玛沁县大武镇,,33,19,34,3,14,104,104,83,83,1,5,17,22,0.3,0.4
2026-04-25T1500,1130A,126.5557,45.8109,哈尔滨市,松北商大,,30,21,40,12,28,96,96,93,93,6,10,5,6,0.6,0.7
2026-04-25T1500,1132A,126.6162,45.719,哈尔滨市,南岗学府路,,31,20,46,6,23,97,97,90,90,6,12,2,2,0.6,0.7
2026-04-25T1500,1133A,126.6894,45.7733,哈尔滨市,太平宏伟公园,,31,26,43,7,23,98,98,90,90,10,15,5,6,0.3,0.3
2026-04-25T1500,1134A,126.6361,45.7672,哈尔滨市,道外承德广场,,39,39,61,8,22,90,90,86,86,13,14,7,7,0.2,0.4
2026-04-25T1500,1136A,126.644,45.7261,哈尔滨市,动力和平路,NA,NA,24,47,3,24,95,95,87,87,NA,14,3,5,0.2,0.4
2026-04-25T1500,1137A,126.5933,45.7479,哈尔滨市,道里建国路,,29,25,40,10,26,90,90,87,87,12,13,1,2,0.6,0.8
2026-04-25T1500,1138A,126.6127,45.6119,哈尔滨市,平房东轻厂,,30,18,44,10,24,95,95,91,91,14,18,12,11,0.3,0.5
2026-04-25T1500,1139A,126.5875,45.9827,哈尔滨市,呼兰师专,,29,25,40,3,22,90,90,87,87,10,14,10,10,0.0,0.2
2026-04-25T1500,1140A,126.6299,45.6799,哈尔滨市,省农科院,颗粒物(PM10),53,54,70,26,47,91,91,84,83,9,13,6,6,0.2,0.4
2026-04-25T1500,4282A,126.6769,45.7379,哈尔滨市,华山路1号,,32,22,44,3,25,101,101,94,94,4,9,3,2,0.3,0.3
2026-04-25T1500,4283A,126.9717,45.5356,哈尔滨市,解放大街52号,,32,25,73,9,24,102,102,93,93,9,17,3,4,0.4,0.5
2026-04-25T1500,2688A,93.5124,42.8176,哈密市,地区监测站,,36,18,35,10,22,114,114,106,100,7,13,17,14,0.3,0.2
2026-04-25T1500,2689A,93.5014,42.8312,哈密市,哈密师范学校,,37,27,48,13,19,116,116,101,101,6,20,9,9,0,0.2
2026-04-25T1500,2671A,100.9016,36.9464,海北藏族自治州,海晏县西海镇,,40,19,34,6,16,128,128,101,101,1,4,8,7,0.4,0.4
2026-04-25T1500,3867A,102.074,36.5056,海东市,平安区公安局北苑,,45,33,56,13,30,143,143,106,106,5,11,8,11,0.5,0.6
2026-04-25T1500,4163A,102.0984,36.5119,海东市,滨河路,,40,21,72,3,28,126,126,90,90,8,42,7,11,0.6,0.7
2026-04-25T1500,1410A,110.3189,20.0596,海口市,海南大学,,40,33,19,22,13,126,126,82,82,6,6,6,5,0.5,0.5
2026-04-25T1500,1411A,110.2827,20.0051,海口市,秀英海南医院,,34,NA,16,21,12,108,108,76,76,6,8,8,7,0.4,0.4
2026-04-25T1500,1412A,110.3391,19.9979,海口市,海南师范大学,,36,22,19,20,13,115,115,80,80,6,7,6,5,0.5,0.4
2026-04-25T1500,1413A,110.3303,20.0359,海口市,龙华路环保局宿舍,,38,23,17,20,12,121,121,81,81,8,8,/,/,0.8,0.7
2026-04-25T1500,3539A,110.5111,19.9737,海口市,桂林洋子站,,34,28,20,17,11,106,106,76,76,7,7,/,/,/,/
2026-04-25T1500,4134A,110.1952,20.0451,海口市,长滨二路9号,,37,24,16,22,12,116,116,79,79,4,5,/,/,/,/
2026-04-25T1500,2673A,100.6158,36.2985,海南藏族自治州,共和县恰卜恰镇,,45,19,33,6,16,144,144,114,114,5,7,8,9,0.3,0.3
2026-04-25T1500,2676A,97.373,37.376,海西蒙古族藏族自治州,德令哈市,,49,NA,28,7,11,154,154,142,142,4,3,17,17,0.4,0.3
2026-04-25T1500,1049A,114.492,36.5712,邯郸市,矿院,,42,35,35,14,16,134,134,97,97,2,7,5,4,0.3,0.3
2026-04-25T1500,1050A,114.4839,36.6136,邯郸市,丛台公园,,41,27,31,7,17,131,131,99,99,3,7,3,2,0.3,0.3
2026-04-25T1500,3458A,114.7893,36.5592,邯郸市,香泉濮院小区,,47,47,39,17,19,127,127,96,96,6,9,3,3,0.3,0.3
2026-04-25T1500,3580A,114.1998,36.4439,邯郸市,峰峰矿区临水派出所,颗粒物(PM10),53,53,49,26,28,140,140,103,103,11,19,7,6,0.4,0.6
2026-04-25T1500,4068A,114.5209,36.7697,邯郸市,建安街268号,,43,43,44,17,17,124,124,95,95,5,11,3,2,0.2,0.3
2026-04-25T1500,4069A,114.5488,36.6177,邯郸市,丛台东路558号,,45,45,42,8,14,127,127,94,94,3,12,2,3,0.3,0.4
2026-04-25T1500,2635A,107.0155,33.0707,汉中市,市监测站,颗粒物(PM10),55,56,59,23,28,143,143,82,82,12,14,5,5,0.6,0.6
2026-04-25T1500,2636A,107.0083,33.114,汉中市,鑫源开发区,颗粒物(PM10),54,55,58,14,28,141,141,81,81,6,16,5,5,0.6,0.5
2026-04-25T1500,2637A,107.0072,33.0323,汉中市,南郑大河坎水厂,,50,50,49,21,27,141,141,80,80,7,13,5,4,0.3,0.4
2026-04-25T1500,1223A,120.2073,30.2111,杭州市,滨江,臭氧1小时(O3_1h),106,68,79,38,44,211,211,131,131,17,41,10,9,0.6,0.7
2026-04-25T1500,1224A,120.0625,30.2737,杭州市,西溪,臭氧1小时(O3_1h),112,97,58,47,33,223,223,137,137,18,26,7,5,0.6,0.6
2026-04-25T1500,1226A,120.3417,30.315,杭州市,下沙,臭氧1小时(O3_1h),68,38,110,25,49,174,174,127,127,10,58,10,10,0.5,0.7
2026-04-25T1500,1227A,120.1252,30.2465,杭州市,卧龙桥,臭氧1小时(O3_1h),114,77,62,45,35,227,227,147,147,25,26,11,9,0.5,0.6
2026-04-25T1500,1228A,120.1902,30.2691,杭州市,浙江农大,臭氧1小时(O3_1h),98,66,82,39,48,198,198,129,129,29,65,11,9,0.4,0.5
2026-04-25T1500,1230A,120.1195,30.3121,杭州市,和睦小学,臭氧1小时(O3_1h),105,70,59,44,43,209,209,133,133,23,45,9,8,0.6,0.7
2026-04-25T1500,1231A,120.3076,30.4146,杭州市,临平镇,臭氧1小时(O3_1h),79,30,72,16,45,183,183,146,146,11,36,8,8,0.4,0.5
2026-04-25T1500,1232A,120.2753,30.1839,杭州市,城厢镇,细颗粒物(PM2.5),86,83,79,53,48,188,188,116,116,20,50,10,7,0.5,0.6
2026-04-25T1500,1233A,120.0883,30.1808,杭州市,云栖,臭氧1小时(O3_1h),102,79,61,45,34,203,203,132,132,32,31,9,8,0.7,0.7
2026-04-25T1500,3557A,119.9463,30.0496,杭州市,镇二中,臭氧1小时(O3_1h),58,27,42,16,27,166,166,121,121,14,29,6,6,0.4,0.5
2026-04-25T1500,3558A,119.7184,30.2367,杭州市,市府大楼,臭氧1小时(O3_1h),73,36,36,23,26,178,178,127,127,16,21,8,7,0.6,0.6
2026-04-25T1500,3656A,120.1554,30.2863,杭州市,消防大队,臭氧1小时(O3_1h),83,78,70,48,46,186,186,127,127,16,39,8,6,0.5,0.6
2026-04-25T1500,1270A,117.1957,31.7845,合肥市,明珠广场,,41,22,46,3,22,131,131,112,112,10,35,8,8,0.5,0.7
2026-04-25T1500,1271A,117.307,31.8765,合肥市,三里街,,37,24,53,3,23,117,117,108,108,15,41,7,7,0.4,0.6
2026-04-25T1500,1272A,117.2587,31.8703,合肥市,琥珀山庄,NA,NA,NA,48,NA,22,NA,NA,128,122,NA,27,NA,8,NA,0.9
2026-04-25T1500,1275A,117.2593,31.9376,合肥市,庐阳区,,41,22,55,3,21,129,129,18,NA,9,46,6,6,0.5,0.7
2026-04-25T1500,1276A,117.345251,31.861615,合肥市,瑶海区,NA,NA,24,54,NA,20,125,125,121,121,8,38,NA,7,0.5,0.6
2026-04-25T1500,1277A,117.3033,31.7967,合肥市,包河区,,34,29,61,3,21,108,108,109,109,2,51,9,10,0.4,0.6
2026-04-25T1500,1278A,117.278,31.7392,合肥市,滨湖新区,,39,14,40,3,17,122,122,112,112,5,15,6,6,0.5,0.6
2026-04-25T1500,1279A,117.1324,31.8395,合肥市,高新区,,39,24,46,3,17,124,124,111,111,6,20,6,6,0.4,0.6
2026-04-25T1500,3464A,117.3802,31.9148,合肥市,高教基地,,46,22,50,3,18,146,146,126,126,8,31,10,9,0.6,0.6
2026-04-25T1500,4098A,117.2518,31.8404,合肥市,中国科学技术大学,,38,19,45,3,18,121,121,123,123,4,20,6,7,0.5,0.7
2026-04-25T1500,3614A,79.9241,37.0878,和田地区,地区环保局,颗粒物(PM10),300,420,415,65,103,103,103,87,87,3,11,1,3,0.5,0.6
2026-04-25T1500,3615A,79.9132,37.1137,和田地区,市环保局,颗粒物(PM10),303,422,394,86,106,103,103,87,87,4,19,3,3,0.5,0.6
2026-04-25T1500,2517A,108.0496,24.6957,河池市,市环保站,,39,39,26,11,12,111,111,62,62,2,9,16,7,0.6,0.7
2026-04-25T1500,4302A,108.0901,24.6945,河池市,上任中路54号,,38,35,31,26,14,101,101,52,52,4,17,22,9,0.7,0.8
2026-04-25T1500,1697A,114.6962,23.7538,河源市,东埔,,32,NA,23,16,18,100,100,69,69,6,14,6,6,0.4,0.5
2026-04-25T1500,1698A,114.6895,23.7232,河源市,老城,,28,13,20,11,17,88,88,66,66,3,13,6,6,0.4,0.6
2026-04-25T1500,3374A,115.5562,35.089,菏泽市,定陶老年大学,,44,44,45,13,18,121,121,106,106,9,14,5,5,0.3,0.3
2026-04-25T1500,4114A,115.4239,35.2593,菏泽市,黄河路600号,,48,48,51,11,16,124,124,106,106,5,10,4,3,0.3,0.3
2026-04-25T1500,4115A,115.5025,35.2727,菏泽市,菏泽市人社局,,39,39,44,11,18,118,118,107,107,6,12,6,6,0.3,0.3
2026-04-25T1500,4184A,115.479691,35.244011,菏泽市,永昌路1号,,45,45,45,10,16,131,131,116,116,6,11,5,5,0.2,0.2
2026-04-25T1500,4193A,115.471542,35.280012,菏泽市,长城路999号,,41,38,40,16,15,131,131,117,117,6,10,8,8,0.3,0.3
2026-04-25T1500,2514A,111.5264,24.4178,贺州市,环保小区,,37,21,30,12,20,116,116,84,84,6,11,7,7,0.3,0.4
2026-04-25T1500,2515A,111.561,24.4074,贺州市,政协大楼,,39,26,31,14,21,124,124,87,87,8,17,10,9,0.4,0.4
2026-04-25T1500,3534A,111.4744,24.455,贺州市,西湾,,37,33,37,22,23,116,116,79,79,8,16,9,9,0.5,0.6
2026-04-25T1500,2385A,114.17,35.9019,鹤壁市,市监测站,细颗粒物(PM2.5),101,76,53,61,35,143,143,63,NA,8,10,6,5,0.5,0.5
2026-04-25T1500,2386A,114.2953,35.7512,鹤壁市,市交警支队,颗粒物(PM10),59,62,52,33,25,137,137,82,82,6,11,9,7,0.5,0.5
2026-04-25T1500,2387A,114.2877,35.7302,鹤壁市,迎宾馆,颗粒物(PM10),83,96,61,31,23,143,143,84,84,9,13,7,5,0.4,0.3
2026-04-25T1500,3474A,114.2616,35.6824,鹤壁市,大新区,颗粒物(PM10),72,80,51,44,30,135,135,79,79,8,15,8,5,0.5,0.4
2026-04-25T1500,3596A,114.1573,35.9607,鹤壁市,南山宾馆,细颗粒物(PM2.5),88,84,58,54,34,136,136,83,83,10,12,10,8,0.5,0.5
2026-04-25T1500,2244A,130.2537,47.3416,鹤岗市,哈啤分公司,,34,34,22,13,8,72,72,85,82,18,9,16,10,0.3,0.3
2026-04-25T1500,2245A,130.2683,47.3087,鹤岗市,斯达机电,,37,37,23,8,7,86,86,85,84,6,8,10,12,0.4,0.4
2026-04-25T1500,2246A,130.3114,47.3388,鹤岗市,东山纸板厂,颗粒物(PM10),95,112,47,18,8,82,82,89,87,9,8,8,8,0.4,0.4
2026-04-25T1500,2263A,127.4832,50.2524,黑河市,交通局,,40,NA,17,28,25,79,79,76,76,12,8,5,5,0.2,0.2
2026-04-25T1500,2264A,127.5146,50.2339,黑河市,环保局,NA,NA,NA,12,NA,7,81,81,77,77,8,6,5,7,0.2,0.3
2026-04-25T1500,1074A,115.6839,37.754,衡水市,电机北厂,颗粒物(PM10),85,98,68,16,21,137,137,105,105,9,14,6,6,0.3,0.3
2026-04-25T1500,1075A,115.6303,37.7318,衡水市,市监测站,颗粒物(PM10),90,106,76,3,15,134,134,98,98,9,15,7,7,0.3,0.3
2026-04-25T1500,3188A,115.6684,37.7216,衡水市,市城管局,颗粒物(PM10),78,88,62,14,20,140,140,109,109,8,13,2,4,0.3,0.3
2026-04-25T1500,3459A,115.599,37.5491,衡水市,地表水厂,颗粒物(PM10),61,65,57,14,16,133,133,102,102,3,13,4,5,0.3,0.3
2026-04-25T1500,2457A,112.6209,26.9268,衡阳市,衡阳化工总厂,,48,48,45,10,30,122,122,84,84,6,15,5,7,0.6,0.7
2026-04-25T1500,2458A,112.621,26.8957,衡阳市,珠晖区环保局,,37,31,39,8,23,117,117,82,82,3,25,8,9,0.6,0.8
2026-04-25T1500,2459A,112.628,26.8654,衡阳市,市委党校,,38,38,37,15,25,119,119,80,80,5,12,8,9,0.6,0.8
2026-04-25T1500,2460A,112.6007,26.8977,衡阳市,市监测站,,34,34,44,22,29,108,108,78,78,6,20,8,9,0.6,0.9
2026-04-25T1500,2461A,112.5658,26.9013,衡阳市,真空机电公司,,40,35,40,9,33,125,125,85,85,6,23,8,12,0.6,1
2026-04-25T1500,3399A,112.6703,26.8817,衡阳市,师范学院,NA,NA,NA,40,NA,28,NA,NA,117,NA,NA,14,NA,7,NA,0.7
2026-04-25T1500,3038A,103.3757,23.3679,红河哈尼族彝族自治州,州图书馆,,34,33,31,23,25,107,107,96,96,5,5,4,4,0.5,0.4
2026-04-25T1500,4154A,103.401,23.3561,红河哈尼族彝族自治州,蒙自市朝阳路,,35,NA,22,21,24,110,110,97,97,2,2,3,4,0.4,0.4
2026-04-25T1500,1090A,111.6506,40.7517,呼和浩特市,呼市一监,颗粒物(PM10),80,92,67,16,26,129,129,90,90,14,24,11,8,0.4,0.4
2026-04-25T1500,1094A,111.7516,40.8369,呼和浩特市,如意水处理厂,颗粒物(PM10),73,82,58,36,22,128,128,87,87,14,27,12,8,0.4,0.3
2026-04-25T1500,1095A,111.727798,40.806187,呼和浩特市,二十九中,NA,NA,79,61,35,31,119,119,83,83,NA,23,12,9,0.4,0.5
2026-04-25T1500,1097A,111.717,40.7617,呼和浩特市,化肥厂生活区,细颗粒物(PM2.5),110,80,72,71,36,128,128,89,89,14,25,11,9,0.3,0.4
2026-04-25T1500,3699A,111.6519,40.8389,呼和浩特市,海东办,颗粒物(PM10),91,107,55,51,23,126,126,81,81,16,28,9,6,0.3,0.3
2026-04-25T1500,4275A,111.591512,40.827312,呼和浩特市,成吉思汗西街8号,颗粒物(PM10),98,117,62,44,23,126,126,79,79,19,34,9,7,0.5,0.4
2026-04-25T1500,4276A,111.6597,40.8077,呼和浩特市,公园东路75号,颗粒物(PM10),95,112,65,17,22,114,114,84,84,17,23,8,5,0.4,0.4
2026-04-25T1500,4277A,111.5427,40.7846,呼和浩特市,金海路35号,颗粒物(PM10),93,110,61,43,23,118,118,91,91,21,25,9,6,0.5,0.4
2026-04-25T1500,3061A,119.7511,49.1576,呼伦贝尔市,国华电力东,,30,18,20,8,9,93,93,87,87,4,5,5,5,0.3,0.3
2026-04-25T1500,4279A,119.7569,49.2222,呼伦贝尔市,伊敏大街东7号,,28,18,21,3,9,89,89,84,84,5,6,6,6,0.4,0.4
2026-04-25T1500,1250A,120.075,30.867,湖州市,城西水厂,臭氧1小时(O3_1h),92,28,71,18,46,193,193,156,156,16,46,8,8,0.4,0.5
2026-04-25T1500,2873A,120.083,30.8929,湖州市,仁皇山新区,臭氧1小时(O3_1h),64,22,60,13,40,171,171,150,150,21,34,6,7,0.4,0.6
2026-04-25T1500,2907A,120.1846,30.8592,湖州市,吴兴区站,臭氧1小时(O3_1h),68,34,72,11,38,174,174,155,155,18,31,6,8,0.2,0.4
2026-04-25T1500,3562A,120.4146,30.8538,湖州市,南浔区站,,47,28,59,8,32,150,150,127,127,11,22,6,7,0.4,0.6
2026-04-25T1500,1607A,120.904878,40.721091,葫芦岛市,龙港区,颗粒物(PM10),70,77,50,27,27,146,146,121,121,16,18,13,11,0.7,0.6
2026-04-25T1500,1608A,120.8382,40.7521,葫芦岛市,化工街,颗粒物(PM10),79,90,67,41,39,131,131,98,98,20,37,17,14,0.6,0.5
2026-04-25T1500,1609A,120.8339,40.7078,葫芦岛市,新区,颗粒物(PM10),66,72,48,40,36,137,137,102,102,17,21,12,9,0.7,0.6
2026-04-25T1500,1610A,120.8697,40.7679,葫芦岛市,东城区,细颗粒物(PM2.5),72,66,58,46,38,134,134,104,104,20,42,12,14,0.8,0.7
2026-04-25T1500,2483A,109.9297,27.5383,怀化市,河西地税局,,34,29,26,12,11,108,108,62,62,5,10,8,7,/,/
2026-04-25T1500,2484A,109.9783,27.5342,怀化市,市四医院,,34,31,40,21,36,107,107,71,71,4,16,6,6,0.3,0.4
2026-04-25T1500,2485A,109.9971,27.5579,怀化市,监测楼,,32,30,33,18,22,102,102,70,70,1,20,3,4,0.5,0.6
2026-04-25T1500,1210A,119.0566,33.5991,淮安市,钵池山,臭氧1小时(O3_1h),52,41,51,23,32,161,161,124,124,11,30,9,11,0.4,0.6
2026-04-25T1500,1211A,119.0083,33.578,淮安市,北京南路,,50,39,54,24,31,160,160,119,119,9,38,9,10,0.3,0.6
2026-04-25T1500,1212A,118.9938,33.6083,淮安市,市监测站,臭氧1小时(O3_1h),78,36,42,23,31,182,182,139,139,10,27,9,9,0.7,0.8
2026-04-25T1500,1213A,119.135,33.5038,淮安市,楚州区监测站,臭氧1小时(O3_1h),58,44,55,23,32,166,166,116,116,8,34,8,8,0.5,0.5
2026-04-25T1500,3426A,118.8757,33.2897,淮安市,新华书店,,49,38,54,16,27,155,155,124,124,8,28,8,9,0.4,0.5
2026-04-25T1500,4092A,119.119691,33.550006,淮安市,枚皋中路89号,颗粒物(PM10),64,69,49,24,30,162,162,124,124,8,21,8,8,0.6,0.5
2026-04-25T1500,4206A,119.028838,33.631911,淮安市,承德北路606号,,49,46,58,21,30,154,154,121,121,10,38,10,10,0.4,0.6
2026-04-25T1500,2282A,116.8005,33.9749,淮北市,监测站,臭氧1小时(O3_1h),54,34,47,17,22,163,163,140,140,11,19,9,9,0.4,0.5
2026-04-25T1500,2283A,116.8094,33.9008,淮北市,烈山区政府,臭氧1小时(O3_1h),52,40,57,13,24,161,161,134,134,10,19,8,10,0.4,0.4
2026-04-25T1500,4017A,116.7926,33.9534,淮北市,市博物馆,,50,32,46,18,22,160,160,136,136,12,17,8,10,0.4,0.4
2026-04-25T1500,4100A,116.8322,33.9884,淮北市,杜集区第一实验学校,,50,42,54,9,19,159,159,137,137,8,13,9,10,0.4,0.5
2026-04-25T1500,2277A,116.8304,32.7726,淮南市,潘集区政府,,40,29,44,3,22,128,128,104,104,9,23,7,8,0.4,0.5
2026-04-25T1500,2279A,116.8569,32.5949,淮南市,谢家集区政府,,39,9,46,3,24,123,123,108,108,5,18,8,10,0.2,0.4
2026-04-25T1500,2280A,116.8279,32.6333,淮南市,八公山区政府,,38,21,49,3,22,119,119,105,105,5,14,6,8,0.1,0.4
2026-04-25T1500,2894A,117.0561,32.6536,淮南市,经济技术开发区消防队,,47,31,45,11,22,148,148,124,124,8,22,8,9,0.4,0.4
2026-04-25T1500,3329A,117.011,32.5891,淮南市,山南新区,,49,21,39,11,22,155,155,126,126,12,16,9,9,0.3,0.4
2026-04-25T1500,4209A,117.003137,32.644456,淮南市,国庆中路369号,,45,35,40,9,21,143,143,119,119,7,12,2,5,0.4,0.4
2026-04-25T1500,2446A,114.9021,30.474,黄冈市,职工中心,,37,22,39,15,27,118,118,72,72,6,16,9,10,0.7,0.7
2026-04-25T1500,2929A,114.8858,30.4519,黄冈市,红卫路,,40,24,39,22,29,126,126,76,76,4,17,8,9,0.2,0.4
2026-04-25T1500,3398A,114.9134,30.4446,黄冈市,市林业局,,39,26,47,24,31,123,123,77,77,6,22,3,6,0.6,0.7
2026-04-25T1500,2672A,102.02,35.5101,黄南藏族自治州,同仁县隆务镇,,44,11,35,9,16,138,138,115,115,2,2,10,10,0.2,0.2
2026-04-25T1500,2295A,118.2905,29.6965,黄山市,延安路89号,,33,9,12,3,6,105,105,66,66,3,9,5,5,0.2,0.3
2026-04-25T1500,2297A,118.1369,30.2755,黄山市,黄山区政府5号楼,,27,6,19,3,10,86,86,66,66,2,5,2,3,0.3,0.3
2026-04-25T1500,4210A,118.335445,29.720283,黄山市,滨江东路7-2号,,34,21,28,3,7,107,107,70,70,5,12,/,/,/,/
2026-04-25T1500,2423A,115.0547,30.2332,黄石市,沈家营,,43,42,52,12,31,135,135,65,65,9,27,5,4,0.4,0.6
2026-04-25T1500,2426A,114.899,30.211,黄石市,铁山,,37,28,42,8,20,117,117,76,76,6,18,9,9,0.1,0.4
2026-04-25T1500,2427A,115.0259,30.2108,黄石市,团城山,,35,30,47,10,26,109,109,41,41,9,23,5,6,0.7,0.9
2026-04-25T1500,3149A,115.0174,30.1591,黄石市,笔架山北路,,37,18,43,3,18,117,117,86,86,4,11,8,8,0.6,0.8
2026-04-25T1500,4185A,115.078022,30.21118,黄石市,磁湖东路29号,,43,43,54,23,31,120,120,62,62,17,34,4,4,0.6,0.5
2026-04-25T1500,1392A,114.4181,23.0528,惠州市,河南岸金山湖子站,,34,22,19,18,14,106,106,70,70,10,15,7,8,0.6,0.6
2026-04-25T1500,1393A,114.4055,23.0824,惠州市,下埔横江三路子站,,38,22,22,13,14,120,120,80,80,6,10,6,6,0.7,0.8
2026-04-25T1500,1395A,114.4645,22.7832,惠州市,惠阳区承修路船湖子站,,35,25,21,17,14,110,110,60,60,7,13,6,6,0.4,0.4
2026-04-25T1500,1396A,114.5316,22.7423,惠州市,大亚湾管委会子站,,34,25,18,18,12,108,108,66,66,6,13,4,4,0.4,0.4
2026-04-25T1500,3314A,114.4334,22.8134,惠州市,惠阳秋长,,34,24,16,13,13,106,106,63,63,6,11,/,/,/,/
2026-04-25T1500,3452A,114.6521,22.7755,惠州市,大亚湾霞涌,,29,18,9,8,5,90,90,61,61,7,8,/,/,/,/
2026-04-25T1500,4300A,114.4089,23.1147,惠州市,文华一路1号,,37,22,19,14,14,117,117,79,79,6,12,/,/,/,/
2026-04-25T1500,2240A,130.9618,45.2926,鸡西市,环保局,,38,38,27,11,16,78,78,85,85,13,7,7,7,0.1,0.2
2026-04-25T1500,2243A,130.9294,45.2959,鸡西市,第一中学,,26,25,25,14,15,82,82,83,83,6,6,6,6,0.2,0.3
2026-04-25T1500,3707A,131.0069,45.2988,鸡西市,欧美日汽修厂,,31,31,29,12,15,74,74,82,82,11,7,6,6,0.3,0.3
2026-04-25T1500,2367A,114.9753,27.0803,吉安市,红声器材厂,,47,35,35,15,17,148,148,90,90,12,16,9,9,0.2,0.3
2026-04-25T1500,2369A,114.9903,27.1313,吉安市,市环境监测站,NA,NA,32,30,7,17,143,143,105,105,NA,17,13,14,/,/
2026-04-25T1500,2370A,115.009527,27.096792,吉安市,青原区法院,,43,34,32,10,16,136,136,89,89,9,18,8,8,0.4,0.4
2026-04-25T1500,1772A,126.54,43.8622,吉林市,哈达湾,细颗粒物(PM2.5),72,79,95,46,54,127,127,106,106,14,18,12,10,0.4,0.4
2026-04-25T1500,1773A,126.5843,43.8358,吉林市,东局子,颗粒物(PM10),70,78,109,39,45,120,120,105,105,18,22,14,7,1.1,0.9
2026-04-25T1500,1774A,126.5051,43.8243,吉林市,电力学院,颗粒物(PM10),68,75,95,43,53,132,132,108,108,16,13,16,9,0.6,0.7
2026-04-25T1500,1775A,126.6133,43.8971,吉林市,江北,颗粒物(PM10),73,81,104,40,45,126,126,109,109,15,17,19,14,1.1,0.9
2026-04-25T1500,1776A,126.5549,43.8304,吉林市,江南公园,颗粒物(PM10),70,78,93,44,52,117,117,98,98,21,20,13,10,0.7,0.7
2026-04-25T1500,2868A,126.4737,43.953,吉林市,九站,颗粒物(PM10),72,80,95,43,51,103,103,89,89,30,24,22,20,0.4,0.5
2026-04-25T1500,1299A,116.9866,36.6118,济南市,科干所,,47,44,36,12,10,150,150,130,130,11,11,6,6,0.5,0.5
2026-04-25T1500,1300A,116.9379,36.6652,济南市,农科所,颗粒物(PM10),57,59,41,10,12,143,143,127,127,9,11,7,6,0.3,0.2
2026-04-25T1500,1301A,117.1265,36.6736,济南市,开发区,,46,37,33,14,10,147,147,130,130,8,11,5,5,0.4,0.3
2026-04-25T1500,1303A,117.0616,36.6865,济南市,省种子仓库,颗粒物(PM10),79,90,48,14,14,142,142,126,126,13,11,4,4,0.4,0.4
2026-04-25T1500,1304A,116.9495185,36.644937,济南市,机床二厂,颗粒物(PM10),53,54,47,14,19,150,150,132,132,14,11,6,5,0.4,0.3
2026-04-25T1500,1305A,117.0496,36.6629,济南市,市监测站,,46,46,37,11,9,137,137,122,122,10,10,4,4,0.5,0.5
2026-04-25T1500,1306A,116.7674,36.5458,济南市,长清党校,颗粒物(PM10),53,54,44,8,11,154,154,136,136,8,10,6,5,0.6,0.5
2026-04-25T1500,1961A,117.5323,36.6865,济南市,东山小学,,45,39,45,11,13,141,141,125,125,9,12,4,4,0.2,0.3
2026-04-25T1500,3059A,117.7181,36.205,济南市,泰兴公司,,44,34,49,8,19,138,138,112,112,9,43,8,10,0.3,0.4
2026-04-25T1500,3064A,117.6861,36.2172,济南市,莱芜战役纪念馆,,45,39,46,8,16,144,144,117,117,9,20,6,7,0.2,0.2
2026-04-25T1500,3494A,117.1673,36.9782,济南市,济阳区政府,颗粒物(PM10),60,63,58,16,20,131,131,105,105,18,26,5,6,0.5,0.4
2026-04-25T1500,3495A,117.1168,36.6299,济南市,锦屏中学,,44,44,34,12,9,138,138,122,122,7,7,5,5,0.4,0.4
2026-04-25T1500,4108A,117.7107,36.2385,济南市,山财大街5号,,45,44,48,9,17,141,141,115,115,9,27,6,7,0.4,0.6
2026-04-25T1500,4109A,116.9744,36.6889,济南市,无影山路12号,,44,39,37,12,12,139,139,124,124,10,12,4,4,0.4,0.4
2026-04-25T1500,1653A,116.6229,35.4288,济宁市,火炬城,,46,46,43,10,16,147,147,116,116,7,10,4,4,0.4,0.5
2026-04-25T1500,3500A,116.5808,35.3703,济宁市,北湖一中,,50,36,40,14,17,159,159,128,128,10,16,8,8,0.4,0.4
2026-04-25T1500,3501A,116.8251,35.5592,济宁市,服务中心,NA,NA,NA,49,NA,23,154,154,116,116,NA,17,NA,3,0.6,0.5
2026-04-25T1500,3678A,116.5907,35.4054,济宁市,市第七中学,颗粒物(PM10),56,58,52,12,18,159,159,128,128,10,15,6,6,0.3,0.3
2026-04-25T1500,4111A,116.6075,35.4566,济宁市,任和路,,50,40,52,13,18,158,158,129,129,10,11,8,8,0.4,0.4
2026-04-25T1500,4112A,116.5648,35.3921,济宁市,文体南路1号,,48,33,48,3,15,153,153,122,122,8,10,5,6,0.3,0.5
2026-04-25T1500,4122A,112.6071,35.1015,济源市,市委党校,颗粒物(PM10),56,58,78,17,28,129,129,94,94,7,20,7,9,0.2,0.6
2026-04-25T1500,4123A,112.596,35.0702,济源市,沁园中路1号,,42,39,57,21,29,132,132,97,97,3,18,2,6,0.3,0.7
2026-04-25T1500,2255A,130.2749,46.8028,佳木斯市,佳纺,,27,17,36,7,16,86,86,84,84,3,8,3,3,0.2,0.3
2026-04-25T1500,2257A,130.3258,46.7975,佳木斯市,环保局,,29,20,23,7,14,90,90,89,89,4,7,2,2,0.1,0.1
2026-04-25T1500,4285A,130.363,46.806,佳木斯市,顺和街,,27,18,23,13,13,86,86,84,84,6,9,2,2,0.2,0.2
2026-04-25T1500,4286A,130.3952,46.8268,佳木斯市,长安路196号,,28,18,23,10,11,88,88,88,88,7,8,1,2,0.2,0.3
2026-04-25T1500,1252A,120.7439,30.778,嘉兴市,清河小学,,45,20,43,3,20,141,141,123,123,9,24,8,8,0.3,0.5
2026-04-25T1500,1253A,120.7261,30.7477,嘉兴市,嘉兴学院,,50,20,44,8,21,159,159,132,132,10,20,7,7,0.3,0.4
2026-04-25T1500,2872A,120.7845,30.7524,嘉兴市,南湖区残联,臭氧1小时(O3_1h),54,23,37,9,21,163,163,145,145,12,23,5,6,0.4,0.5
2026-04-25T1500,3407A,120.6915,30.7741,嘉兴市,秀洲住建,臭氧1小时(O3_1h),65,22,37,3,17,172,172,144,144,7,20,7,7,0.2,0.3
2026-04-25T1500,1945A,98.291,39.7705,嘉峪关市,气象局,,41,34,53,12,19,130,130,108,108,8,15,18,16,1.1,0.7
2026-04-25T1500,2884A,98.2672,39.7978,嘉峪关市,酒钢宾馆,,46,46,60,9,19,129,129,102,102,5,13,33,25,0.8,0.6
2026-04-25T1500,3248A,98.2644,39.7723,嘉峪关市,雄关区,,45,45,59,14,17,127,127,105,105,10,15,26,15,0.9,0.6
2026-04-25T1500,1383A,113.1063,22.6058,江门市,北街,臭氧1小时(O3_1h),75,34,32,19,26,180,180,88,88,25,44,/,/,/,/
2026-04-25T1500,1384A,113.073,22.5835,江门市,西区,臭氧1小时(O3_1h),95,35,32,22,26,196,196,93,93,22,39,/,/,/,/
2026-04-25T1500,1385A,113.0218,22.531,江门市,圭峰西,臭氧1小时(O3_1h),101,43,28,24,22,201,201,100,100,23,32,/,/,/,/
2026-04-25T1500,1386A,113.0826,22.5947,江门市,东湖,臭氧1小时(O3_1h),82,32,35,17,27,185,185,94,94,20,35,9,8,0.5,0.6
2026-04-25T1500,3311A,113.1077,22.5647,江门市,江海富民,臭氧1小时(O3_1h),85,53,44,21,26,188,188,92,92,22,43,/,/,0.4,0.6
2026-04-25T1500,3449A,113.0496,22.4669,江门市,新会银湖,臭氧1小时(O3_1h),103,44,33,22,26,206,206,95,95,23,42,8,8,0.4,0.5
2026-04-25T1500,3335A,113.3137,35.2643,焦作市,马村街道办,,50,50,60,20,26,141,141,94,94,4,13,10,11,0.3,0.4
2026-04-25T1500,3336A,113.2464,35.2374,焦作市,焦作技师学院,颗粒物(PM10),52,52,59,32,27,140,140,96,96,7,14,11,10,0.5,0.7
2026-04-25T1500,3477A,113.1656,35.2536,焦作市,中站许衡医院,颗粒物(PM10),65,71,56,29,27,142,142,96,96,7,14,13,12,0.6,0.7
2026-04-25T1500,3981A,113.2456,35.18,焦作市,原李万街道办,,46,35,53,20,24,147,147,94,94,5,14,6,9,0.3,0.3
2026-04-25T1500,4264A,113.234,35.219,焦作市,新安路1731号,,48,48,56,21,26,150,150,103,103,5,11,12,11,0.3,0.4
2026-04-25T1500,4295A,113.2722,35.2121,焦作市,人民路3066号,,45,36,57,15,27,141,141,96,96,11,15,7,6,0.3,0.4
2026-04-25T1500,1708A,116.3701,23.5345,揭阳市,新兴,,28,28,21,16,15,82,82,53,53,17,21,6,9,0.8,0.8
2026-04-25T1500,1709A,116.3261,23.5442,揭阳市,西马,,32,32,22,20,14,72,72,47,47,18,19,8,7,1.0,0.9
2026-04-25T1500,1710A,116.361,23.5627,揭阳市,东兴,,39,29,20,27,17,62,62,42,42,18,20,6,5,/,/
2026-04-25T1500,1711A,116.4151,23.5295,揭阳市,渔湖,,30,30,21,21,15,79,79,60,60,19,23,3,5,/,/
2026-04-25T1500,3320A,116.4028,23.5699,揭阳市,曲溪,,32,30,20,22,14,68,68,51,51,21,21,16,15,0.8,0.7
2026-04-25T1500,1944A,102.1691,38.5166,金昌市,天庆家园,,46,36,62,6,29,145,145,105,105,2,18,4,8,0.4,0.8
2026-04-25T1500,4022A,102.1648,38.5369,金昌市,金川区人防中心,,45,27,51,9,20,141,141,104,104,4,16,7,10,0.3,0.4
2026-04-25T1500,4239A,102.193042,38.531887,金昌市,长春路96号,,43,32,62,11,25,137,137,100,100,1,15,7,33,0.4,0.5
2026-04-25T1500,1262A,119.6478,29.0773,金华市,十五中,,46,23,52,11,26,146,146,110,110,8,26,3,4,0.6,0.6
2026-04-25T1500,1263A,119.6859,29.1032,金华市,监测站,,50,22,47,10,24,157,157,117,117,10,35,3,4,0.5,0.6
2026-04-25T1500,3659A,119.656,29.1132,金华市,气象局,,46,26,47,10,23,145,145,110,110,15,38,4,5,0.4,0.4
2026-04-25T1500,1767A,121.1114,41.0879,锦州市,南山,颗粒物(PM10),93,109,90,44,68,159,159,128,128,19,45,15,12,0.8,0.9
2026-04-25T1500,1768A,121.060361,40.842794,锦州市,开发区,颗粒物(PM10),120,172,83,48,38,134,134,105,105,25,40,8,8,0.6,0.6
2026-04-25T1500,1769A,121.1836,41.1118,锦州市,百股街道,颗粒物(PM10),88,102,93,41,76,149,149,127,127,20,45,10,14,0.7,0.8
2026-04-25T1500,1770A,121.1176,41.1224,锦州市,天安街道,颗粒物(PM10),107,136,106,41,73,147,147,118,118,22,46,11,10,0.7,0.8
2026-04-25T1500,1771A,121.1303,41.1385,锦州市,北湖公园,颗粒物(PM10),93,110,105,46,77,154,154,122,122,17,35,14,11,0.7,0.8
2026-04-25T1500,2160A,112.8496,35.5051,晋城市,自来水公司,,49,49,54,6,19,149,149,116,116,8,17,6,6,0.3,0.6
2026-04-25T1500,2162A,112.8509,35.4886,晋城市,市环保局,NA,NA,NA,53,6,21,137,137,108,108,8,15,6,6,NA,0.5
2026-04-25T1500,3620A,112.8258,35.4804,晋城市,泽州一中,,50,50,55,18,25,152,152,112,112,6,15,6,6,0.6,0.8
2026-04-25T1500,4078A,112.8246,35.5152,晋城市,前书院路,颗粒物(PM10),58,60,56,3,18,148,148,109,109,7,19,10,9,0.4,0.7
2026-04-25T1500,4079A,112.8864,35.4773,晋城市,祥云街666号,颗粒物(PM10),52,52,45,19,21,135,135,102,102,5,14,10,9,0.4,0.6
2026-04-25T1500,2174A,112.6992,37.6984,晋中市,榆次区政府,颗粒物(PM10),70,78,89,43,38,150,150,102,102,11,24,6,10,0.7,0.9
2026-04-25T1500,2865A,112.7195,37.683,晋中市,榆次三中,颗粒物(PM10),86,100,86,48,31,160,160,108,108,6,23,6,10,0.5,0.6
2026-04-25T1500,4080A,112.7375,37.7215,晋中市,广安街188号,颗粒物(PM10),73,82,83,32,31,149,149,104,104,8,23,5,7,0.1,0.3
2026-04-25T1500,4200A,112.7478,37.6954,晋中市,迎宾街26号,颗粒物(PM10),79,90,84,37,35,160,160,108,108,9,21,5,8,0.4,0.4
2026-04-25T1500,2439A,112.2012,31.048,荆门市,竹园小学,细颗粒物(PM2.5),66,65,63,43,38,144,144,112,112,10,11,54,8,0.6,0.5
2026-04-25T1500,2440A,112.1968,30.9892,荆门市,掇刀,颗粒物(PM10),58,60,66,36,40,147,147,110,110,9,12,12,8,0.6,0.6
2026-04-25T1500,3012A,112.1849,31.0361,荆门市,西山林语,颗粒物(PM10),58,61,62,37,34,143,143,105,105,10,10,11,7,0.6,0.5
2026-04-25T1500,3547A,112.1631,31.0134,荆门市,龙泉中学南校,颗粒物(PM10),60,63,61,29,33,152,152,111,111,12,12,9,6,0.6,0.5
2026-04-25T1500,4124A,112.2213,31.0654,荆门市,新台西路6号,细颗粒物(PM2.5),74,68,54,47,38,145,145,111,111,10,14,46,14,0.7,0.7
2026-04-25T1500,1844A,112.2493,30.3198,荆州市,市图书馆,细颗粒物(PM2.5),56,45,37,38,31,136,136,103,103,18,16,8,10,0.5,0.6
2026-04-25T1500,1845A,112.2009,30.3543,荆州市,市委党校,细颗粒物(PM2.5),76,52,42,48,33,111,111,80,80,10,16,8,8,0.5,0.5
2026-04-25T1500,3194A,112.2749,30.3124,荆州市,管委会,细颗粒物(PM2.5),54,46,39,37,32,123,123,93,93,9,15,9,11,0.5,0.5
2026-04-25T1500,4268A,112.1722,30.3366,荆州市,学苑路85号,细颗粒物(PM2.5),64,50,35,42,34,143,143,105,105,4,10,4,6,0.7,0.7
2026-04-25T1500,2343A,117.2114,29.2931,景德镇市,老干部活动中心,,33,24,22,20,20,104,104,64,64,3,9,4,5,0.6,0.7
2026-04-25T1500,2344A,117.1893,29.2789,景德镇市,兽医站,,37,19,34,16,17,116,116,79,79,6,14,4,4,0.5,0.7
2026-04-25T1500,2346A,117.246,29.2958,景德镇市,陶研所,,34,NA,19,21,15,107,107,69,69,8,11,4,5,0.8,0.9
2026-04-25T1500,4289A,117.154766,29.256967,景德镇市,青少年活动中心,,36,25,25,25,19,106,106,69,69,14,16,34,15,/,/
2026-04-25T1500,1803A,115.9873,29.6816,九江市,十里,,33,19,29,9,14,105,105,79,79,12,32,8,7,0.8,0.9
2026-04-25T1500,1804A,115.9583,29.7047,九江市,茅山头,,33,9,29,9,17,105,105,72,72,8,32,4,4,0.6,0.6
2026-04-25T1500,1805A,115.9877,29.7295,九江市,西园,,35,18,27,10,17,110,110,76,76,20,40,6,6,0.6,0.7
2026-04-25T1500,1808A,115.9112,29.6038,九江市,综合工业园,,32,30,24,9,11,101,101,76,76,17,31,9,8,0.5,0.6
2026-04-25T1500,3190A,116.0254,29.6995,九江市,外国语学校,,30,17,26,14,16,96,96,75,75,15,34,11,11,0.8,0.8
2026-04-25T1500,4253A,116.010205,29.659402,九江市,莲花大道8号,,31,22,21,11,9,97,97,76,76,9,12,6,5,0.5,0.5
2026-04-25T1500,4240A,98.495752,39.733935,酒泉市,玉门东路5号,NA,NA,NA,56,NA,29,113,113,90,90,3,11,NA,8,0.2,0.3
2026-04-25T1500,4241A,98.5099,39.7506,酒泉市,北大街108号,,44,44,54,17,21,106,106,84,84,3,11,7,9,0.2,0.3
2026-04-25T1500,2698A,76.0071,39.466,喀什地区,巡警大队,,39,30,131,3,34,123,123,91,70,4,19,4,4,0.1,0.2
2026-04-25T1500,2699A,75.9756,39.4693,喀什地区,吾办,NA,NA,24,131,NA,38,123,123,92,77,3,11,5,4,0.1,0.3
2026-04-25T1500,4027A,75.9485,39.4688,喀什地区,老干局,细颗粒物(PM2.5),107,NA,119,67,62,121,121,95,76,3,9,3,3,0.3,0.4
2026-04-25T1500,1824A,114.3389,34.778,开封市,肿瘤医院,,50,50,41,23,22,130,130,97,97,8,14,7,7,0.7,0.6
2026-04-25T1500,1826A,114.2884,34.7966,开封市,世纪星幼儿园,,46,46,42,31,22,132,132,96,96,6,10,7,7,0.6,0.6
2026-04-25T1500,3147A,114.3434,34.8101,开封市,龙亭公园,,50,50,38,19,19,136,136,100,100,11,17,8,8,0.4,0.4
2026-04-25T1500,3210A,114.3645,34.7955,开封市,汴京公园,,43,43,42,22,21,132,132,98,98,9,16,5,5,0.5,0.5
2026-04-25T1500,3473A,114.2485,34.8306,开封市,技师学院,颗粒物(PM10),57,59,47,26,21,138,138,100,100,10,13,6,5,0.5,0.5
2026-04-25T1500,3592A,114.4518,34.7503,开封市,祥符区生态环境局,,41,41,43,27,25,131,131,98,98,11,21,8,8,0.5,0.5
2026-04-25T1500,1951A,84.886,45.6029,克拉玛依市,长征新村,NA,NA,NA,17,40,15,99,99,59,59,NA,10,6,7,0.4,0.5
2026-04-25T1500,1952A,84.8894,45.5827,克拉玛依市,南林小区,,31,14,18,3,1,97,97,50,50,2,5,2,2,0.2,0.1
2026-04-25T1500,1954A,84.896,44.3328,克拉玛依市,独山子区,,34,7,13,3,2,108,108,89,89,4,7,5,6,0.4,0.4
2026-04-25T1500,1955A,85.6888,46.0909,克拉玛依市,乌尔禾区商贸楼,,28,22,32,9,12,89,89,57,57,6,11,4,4,0.1,0.1
2026-04-25T1500,3612A,85.1045,45.6895,克拉玛依市,白碱滩区新站,颗粒物(PM10),53,53,38,6,8,108,108,67,62,2,9,7,8,0.2,0.2
2026-04-25T1500,2697A,76.1457,39.7143,克孜勒苏柯尔克孜自治州,市人民政府,,43,NA,82,30,41,126,126,105,97,4,6,4,6,0.1,0.2
2026-04-25T1500,3665A,76.1654,39.7157,克孜勒苏柯尔克孜自治州,克州文化中心,,40,13,83,8,32,128,128,109,99,2,4,3,4,0.0,0.2
2026-04-25T1500,1450A,102.8203,24.889,昆明市,呈贡新区,,47,43,34,30,24,148,148,92,92,8,13,5,4,0.4,0.4
2026-04-25T1500,1452A,102.7253,25.0904,昆明市,龙泉镇,,42,NA,38,29,24,133,133,85,85,9,10,5,5,0.6,0.6
2026-04-25T1500,1453A,102.7267,25.0378,昆明市,东风东路,,46,46,37,28,24,147,147,99,99,11,13,2,2,0.6,0.6
2026-04-25T1500,1454A,102.6744,25.0671,昆明市,金鼎山,,50,50,42,28,24,145,145,95,95,9,11,2,2,0.7,0.7
2026-04-25T1500,1455A,102.6643,25.0401,昆明市,碧鸡广场,,44,NA,39,30,24,139,139,95,95,11,15,6,5,0.6,0.5
2026-04-25T1500,3179A,102.7491,25.012,昆明市,官渡区博物馆,,45,42,38,30,25,141,141,90,90,11,18,4,4,0.7,0.7
2026-04-25T1500,3375A,102.8016,24.8336,昆明市,青年创业园,,48,44,36,33,26,145,145,95,95,5,8,6,5,0.6,0.6
2026-04-25T1500,3550A,102.8,24.9787,昆明市,昆明学院,,47,47,43,25,25,140,140,88,88,10,16,5,5,0.5,0.5
2026-04-25T1500,3551A,102.5969,24.6738,昆明市,晋宁区生态环境分局,,46,NA,33,32,26,145,145,107,107,8,8,5,4,0.5,0.5
2026-04-25T1500,3552A,102.6673,24.9861,昆明市,云天化总部,,47,47,32,16,19,131,131,86,86,9,12,4,4,0.6,0.6
2026-04-25T1500,1456A,91.132,29.6515,拉萨市,八廓街,,40,21,23,8,9,125,125,93,93,2,9,4,4,0.5,0.4
2026-04-25T1500,1457A,91.1221,29.6748,拉萨市,市环保局,,39,12,23,3,6,123,123,92,92,6,14,4,4,0.2,0.3
2026-04-25T1500,1458A,91.0874,29.6476,拉萨市,区监测站,,39,12,15,7,8,122,122,93,93,6,13,4,4,0.3,0.3
2026-04-25T1500,1459A,91.1774,29.6541,拉萨市,西藏大学,,38,15,19,7,8,119,119,86,86,7,12,3,3,0.3,0.3
2026-04-25T1500,1460A,90.9798,29.6586,拉萨市,区辐射站,,33,17,22,6,9,105,105,75,75,13,18,4,7,0.3,0.3
2026-04-25T1500,1461A,91.0831,29.6292,拉萨市,拉萨火车站,,38,20,18,6,9,120,120,93,93,6,10,4,4,0.2,0.2
2026-04-25T1500,2520A,109.2203,23.7252,来宾市,来宾技工学校,,40,32,40,14,23,128,128,91,91,4,21,6,13,0.4,0.5
2026-04-25T1500,3535A,109.1781,23.7293,来宾市,兴宾区政府,,45,29,45,12,23,143,143,95,95,4,18,9,11,0.4,0.5
2026-04-25T1500,4002A,109.2312,23.7428,来宾市,中南小学,,44,29,38,12,23,139,139,100,100,6,23,7,10,0.4,0.5
2026-04-25T1500,1479A,103.8309,36.0467,兰州市,铁路设计院,臭氧1小时(O3_1h),93,59,93,33,38,194,194,115,115,26,51,11,14,0.5,0.7
2026-04-25T1500,3241A,103.7439,36.0841,兰州市,百合公园,臭氧1小时(O3_1h),67,55,92,29,36,173,173,106,106,14,46,8,11,0.4,0.6
2026-04-25T1500,3242A,103.9613,35.9985,兰州市,和平,臭氧1小时(O3_1h),84,56,74,27,30,187,187,118,118,9,17,14,11,0.4,0.3
2026-04-25T1500,4236A,103.629272,36.093822,兰州市,庄浪东路808号,臭氧1小时(O3_1h),130,96,83,42,43,260,260,165,165,12,30,17,20,0.5,0.5
2026-04-25T1500,4237A,103.7251,36.104344,兰州市,安宁西路88号,NA,NA,NA,92,NA,50,NA,NA,135,102,NA,38,NA,15,NA,0.4
2026-04-25T1500,4238A,103.846982,36.067567,兰州市,北滨河东路1号,臭氧1小时(O3_1h),94,53,81,32,35,195,195,110,110,19,50,14,14,0.6,0.7
2026-04-25T1500,1067A,116.6712,39.5109,廊坊市,药材公司,颗粒物(PM10),74,83,77,36,41,155,155,100,100,7,16,4,4,0.4,0.5
2026-04-25T1500,1068A,116.7215,39.5592,廊坊市,开发区,颗粒物(PM10),94,111,86,35,40,162,162,108,108,5,19,6,5,0.3,0.4
2026-04-25T1500,1070A,116.7246,39.5273,廊坊市,北华航天学院,颗粒物(PM10),79,90,74,27,33,161,161,108,108,7,19,6,5,0.4,0.4
2026-04-25T1500,2919A,116.7022,39.5454,廊坊市,河北工业大学,颗粒物(PM10),75,85,70,34,34,164,164,108,108,8,19,5,5,0.4,0.4
2026-04-25T1500,2536A,103.7629,29.5844,乐山市,牛耳桥,,49,42,79,26,60,156,156,104,104,9,26,7,6,0.5,0.9
2026-04-25T1500,2537A,103.7501,29.6002,乐山市,市第三水厂,,45,45,80,21,59,140,140,89,89,18,31,6,5,0.6,0.9
2026-04-25T1500,2538A,103.7571,29.5664,乐山市,市监测站,颗粒物(PM10),58,60,71,25,42,144,144,93,93,7,18,6,7,0.6,1
2026-04-25T1500,3361A,103.7313,29.563,乐山市,理工大学,臭氧1小时(O3_1h),57,53,65,23,42,165,165,103,103,7,20,6,7,0.5,0.9
2026-04-25T1500,2599A,100.2497,26.8802,丽江市,丽江古城,,33,31,48,13,24,104,104,105,105,6,9,8,6,0.5,0.6
2026-04-25T1500,2600A,100.2203,26.8906,丽江市,市中心,,33,24,35,9,19,105,105,108,108,6,10,5,6,0.5,0.6
2026-04-25T1500,1267A,119.9141,28.4513,丽水市,监测站大楼,,38,8,29,7,13,120,120,107,107,7,16,5,4,0.4,0.5
2026-04-25T1500,1268A,119.93,28.4589,丽水市,莲都小学,,38,19,28,6,11,119,119,106,106,6,18,/,/,/,/
2026-04-25T1500,1269A,119.8794,28.4232,丽水市,余庄前,,39,22,22,9,11,124,124,91,91,7,13,4,4,0.3,0.4
2026-04-25T1500,1173A,119.1759,34.5885,连云港市,市环境监测站,,49,29,41,14,23,154,154,124,124,10,21,10,11,0.5,0.5
2026-04-25T1500,3000A,119.3577,34.6971,连云港市,德源药业,,46,34,58,12,22,145,145,129,129,9,35,7,7,0.6,0.7
2026-04-25T1500,3007A,119.178,34.8442,连云港市,新城一中,,50,50,50,28,31,156,156,120,120,17,39,6,7,0.7,0.7
2026-04-25T1500,3008A,119.3607,34.7519,连云港市,胡沟管理处,,44,19,22,7,16,140,140,132,132,13,21,10,10,0.4,0.5
2026-04-25T1500,3009A,119.1478,34.5913,连云港市,矿山设计院,,47,36,42,14,20,150,150,124,124,9,18,7,8,0.6,0.6
2026-04-25T1500,3434A,119.2414,34.6539,连云港市,工贸学校,,48,34,42,21,24,153,153,132,132,8,10,7,6,0.4,0.4
2026-04-25T1500,3664A,119.4171,34.734,连云港市,连云街道,,43,28,40,14,21,135,135,136,136,12,11,8,8,0.4,0.4
2026-04-25T1500,2573A,102.2629,27.8981,凉山彝族自治州,西昌市政府,,35,22,23,15,17,110,110,80,80,5,11,8,10,0.5,0.7
2026-04-25T1500,2574A,102.2686,27.885,凉山彝族自治州,凉山州政府,,31,24,25,14,16,97,97,71,71,4,12,8,12,0.3,0.7
2026-04-25T1500,4229A,102.2342,27.8859,凉山彝族自治州,凯乐南路30号,,30,22,28,14,17,96,96,66,66,8,18,10,13,0.8,0.8
2026-04-25T1500,2212A,123.1978,41.2036,辽阳市,宏伟区,颗粒物(PM10),101,121,72,15,34,147,147,142,142,15,13,8,8,0.6,0.6
2026-04-25T1500,2213A,123.1684,41.2497,辽阳市,新华园,颗粒物(PM10),89,104,81,14,37,156,156,143,143,11,20,8,10,0.5,0.6
2026-04-25T1500,2214A,123.2355,41.2663,辽阳市,滨河路,颗粒物(PM10),92,108,72,13,38,151,151,134,134,9,21,10,10,0.5,0.5
2026-04-25T1500,4083A,123.153,41.2874,辽阳市,铁西路150号,颗粒物(PM10),105,133,88,26,41,133,133,118,118,11,22,10,12,0.7,0.8
2026-04-25T1500,2227A,125.1359,42.8845,辽源市,环保局,,50,48,55,17,27,157,157,135,135,6,14,8,7,0.4,0.5
2026-04-25T1500,4085A,125.0998,42.9134,辽源市,安宁大街333号,颗粒物(PM10),76,86,76,19,29,156,156,133,133,8,15,7,6,0.5,0.5
2026-04-25T1500,1625A,115.9789,36.4372,聊城市,区政府,,46,46,51,12,16,132,132,120,120,6,12,7,7,0.6,0.6
2026-04-25T1500,3200A,115.9772,36.4986,聊城市,监控中心,颗粒物(PM10),57,59,55,10,16,141,141,130,130,6,10,8,8,0.4,0.4
2026-04-25T1500,3513A,116.0443,36.436,聊城市,九州社区,颗粒物(PM10),53,53,52,18,17,153,153,133,133,12,16,8,8,0.4,0.4
2026-04-25T1500,4018A,116.0564,36.4609,聊城市,星美广场,颗粒物(PM10),60,64,54,19,17,138,138,117,117,11,14,6,6,0.4,0.4
2026-04-25T1500,4113A,116.0091,36.4495,聊城市,利民路,,46,41,47,16,19,146,146,132,132,7,13,9,9,0.4,0.5
2026-04-25T1500,2632A,94.3683,29.6373,林芝市,林芝监测站,,30,13,20,3,8,93,93,64,64,3,5,2,3,0.4,0.5
2026-04-25T1500,2633A,94.3616,29.6634,林芝市,林芝人民医院,,31,12,25,3,10,98,98,70,70,4,6,4,3,0.5,0.6
2026-04-25T1500,2603A,100.0779,23.8981,临沧市,市环保局,颗粒物(PM10),83,96,69,47,50,166,166,123,123,6,11,8,7,0.7,0.8
2026-04-25T1500,2604A,100.0894,23.882,临沧市,市气象局,细颗粒物(PM2.5),94,73,78,57,63,173,173,129,129,6,12,9,9,0.6,0.7
2026-04-25T1500,1733A,111.5552,36.0791,临汾市,临钢医院,颗粒物(PM10),55,57,68,24,25,147,147,105,105,9,16,11,8,1.0,0.7
2026-04-25T1500,1734A,111.4984,36.0734,临汾市,技工学校,颗粒物(PM10),65,71,64,34,26,146,146,92,92,12,20,13,8,0.8,0.5
2026-04-25T1500,1736A,111.5017,36.0857,临汾市,市委,颗粒物(PM10),82,94,68,42,23,152,152,96,96,9,17,12,8,1.0,0.7
2026-04-25T1500,3018A,111.5048,36.1015,临汾市,唐尧大酒店,颗粒物(PM10),87,101,80,29,23,147,147,93,93,10,18,11,7,0.9,0.7
2026-04-25T1500,4244A,111.4879,36.053,临汾市,启星学校,颗粒物(PM10),59,62,73,33,24,148,148,86,86,14,21,12,7,1.0,0.7
2026-04-25T1500,4271A,103.2464,35.6123,临夏回族自治州,滨河东路1号,颗粒物(PM10),59,62,112,37,49,112,112,91,91,19,30,11,10,0.2,0.4
2026-04-25T1500,4310A,103.207136,35.599807,临夏回族自治州,新华街21号,,37,37,101,19,46,108,108,73,73,4,19,8,8,0.1,0.5
2026-04-25T1500,1618A,118.3429,35.0532,临沂市,沂河小区,臭氧1小时(O3_1h),53,48,57,22,29,162,162,124,124,11,27,13,22,0.3,0.4
2026-04-25T1500,1619A,118.2962,35.0568,临沂市,鲁南制药厂,臭氧1小时(O3_1h),65,44,56,22,29,172,172,130,130,16,38,14,24,0.2,0.3
2026-04-25T1500,1620A,118.2793,34.9976,临沂市,新光毛纺厂,臭氧1小时(O3_1h),63,44,58,23,32,170,170,126,126,10,36,13,28,0.3,0.3
2026-04-25T1500,1621A,118.3955,35.0889,临沂市,河东保险公司,臭氧1小时(O3_1h),63,39,54,25,28,170,170,128,128,13,31,14,17,0.3,0.4
2026-04-25T1500,3370A,118.3563,35.0215,临沂市,十里堡居委,臭氧1小时(O3_1h),63,46,55,24,32,170,170,133,133,14,36,11,20,0.4,0.5
2026-04-25T1500,3496A,118.359,35.1067,临沂市,南坊新区,,50,44,48,22,26,160,160,125,125,13,25,14,19,0.2,0.2
2026-04-25T1500,3860A,118.3915,35.0297,临沂市,皇山花园小区,臭氧1小时(O3_1h),53,41,53,19,32,162,162,131,131,14,33,13,22,0.3,0.5
2026-04-25T1500,1870A,109.4854,24.3898,柳州市,柳东小学,,42,32,30,16,24,132,132,96,96,5,15,5,9,0.6,0.7
2026-04-25T1500,1871A,109.4109,24.3304,柳州市,环保监测站,,37,25,38,13,22,116,116,86,86,9,24,6,8,0.6,0.8
2026-04-25T1500,1872A,109.3886,24.3408,柳州市,河西水厂,,41,24,54,16,32,131,131,89,89,4,30,11,14,0.5,0.7
2026-04-25T1500,1873A,109.4263,24.2951,柳州市,市四中,,47,47,43,17,26,124,124,91,91,7,23,8,9,0.4,0.5
2026-04-25T1500,1874A,109.396,24.3658,柳州市,市九中,,39,24,48,13,27,123,123,86,86,4,22,6,9,0.1,0.4
2026-04-25T1500,1875A,109.4912,24.3164,柳州市,古亭山,,37,29,32,11,22,118,118,87,87,7,30,5,6,0.5,0.6
2026-04-25T1500,3402A,109.5422,24.3994,柳州市,市二中,,44,33,34,18,25,139,139,98,98,8,23,9,12,0.3,0.3
2026-04-25T1500,2307A,116.5078,31.7369,六安市,监测大楼,,35,11,17,6,14,112,112,87,87,5,10,4,4,0.3,0.3
2026-04-25T1500,2308A,116.4738,31.7642,六安市,皖西学院,,37,13,18,3,13,118,118,98,98,4,7,4,4,0.3,0.4
2026-04-25T1500,2309A,116.4997,31.7904,六安市,朝阳厂,,36,8,14,3,12,115,115,96,96,4,9,6,6,0.2,0.3
2026-04-25T1500,2310A,116.5566,31.7885,六安市,开发区,,37,7,7,3,13,117,117,98,98,7,18,4,5,0.3,0.4
2026-04-25T1500,2577A,104.8293,26.592,六盘水市,黄土坡,NA,NA,34,53,20,41,105,105,67,67,10,16,7,7,NA,0.3
2026-04-25T1500,2579A,104.8481,26.5898,六盘水市,民中,,35,27,44,24,41,104,104,71,71,10,17,4,5,0.5,0.7
2026-04-25T1500,2580A,104.9541,26.5506,六盘水市,双水,,35,27,47,24,38,98,98,76,76,6,10,4,4,0.1,0.3
2026-04-25T1500,4151A,104.8899,26.5685,六盘水市,钟山大道中段564号,,46,46,60,25,40,92,92,66,66,5,10,3,3,0.5,0.6
2026-04-25T1500,2336A,117.022,25.1031,龙岩市,龙岩市监测站,,34,30,18,11,16,107,107,58,58,8,11,4,9,0.7,0.7
2026-04-25T1500,2337A,117.0257,25.0662,龙岩市,闽西职业技术学院,,30,20,16,8,13,94,94,49,49,4,8,5,7,0.8,0.7
2026-04-25T1500,2338A,117.0195,25.0306,龙岩市,龙岩学院,,30,20,17,7,12,94,94,55,55,4,7,4,4,/,/
2026-04-25T1500,2885A,104.9344,33.3827,陇南市,滨江中学,颗粒物(PM10),51,51,73,24,32,110,110,78,78,8,11,8,9,0.5,0.5
2026-04-25T1500,3247A,104.9551,33.3709,陇南市,市总工会,,42,42,62,19,28,109,109,78,78,6,7,8,8,0.4,0.5
2026-04-25T1500,2488A,111.9984,27.7346,娄底市,市监测站,,36,36,37,13,25,115,115,86,86,3,17,6,6,0.4,0.5
2026-04-25T1500,2491A,111.9888,27.7035,娄底市,市政府,,39,32,32,13,25,122,122,93,93,8,11,4,4,0.3,0.4
2026-04-25T1500,4127A,111.9812,27.7591,娄底市,涟钢职大,,41,20,40,8,23,129,129,92,92,4,16,4,7,0.3,0.7
2026-04-25T1500,4128A,112.0303,27.7457,娄底市,娄底体校,,34,30,38,12,24,108,108,76,76,5,10,6,4,0.3,0.4
2026-04-25T1500,1894A,105.4427,28.9063,泸州市,小市上码头,,41,13,24,7,14,130,130,78,78,8,17,7,8,0.5,0.6
2026-04-25T1500,1895A,105.4241,28.8573,泸州市,兰田宪桥,,41,17,28,11,21,129,129,70,70,7,17,8,8,0.5,0.6
2026-04-25T1500,1896A,105.4378,28.8833,泸州市,市环监站,,41,16,24,6,13,130,130,80,80,10,22,10,10,0.6,0.8
2026-04-25T1500,4272A,105.3689,28.7783,泸州市,纳溪中医医院,,40,20,37,9,18,125,125,72,72,9,15,5,5,0.5,0.6
2026-04-25T1500,2183A,111.1447,37.5212,吕梁市,环保局,颗粒物(PM10),70,78,78,24,28,130,130,86,86,6,22,4,4,0.4,0.5
2026-04-25T1500,2185A,111.1285,37.5338,吕梁市,自来水公司,颗粒物(PM10),68,74,88,21,31,127,127,83,83,6,19,3,3,0.3,0.5
2026-04-25T1500,2867A,111.1225,37.5093,吕梁市,马茂庄小学,颗粒物(PM10),75,84,85,19,24,130,130,85,85,4,22,1,2,0.2,0.4
2026-04-25T1500,1812A,112.3934,34.6517,洛阳市,市委党校,,45,37,33,19,17,142,142,96,96,9,12,9,8,0.5,0.5
2026-04-25T1500,1815A,112.494,34.6883,洛阳市,河南林校,颗粒物(PM10),54,55,44,17,18,151,151,103,103,12,15,21,12,0.5,0.5
2026-04-25T1500,1816A,112.3843,34.623,洛阳市,开发区管委会,,46,37,36,20,19,145,145,96,96,7,10,10,11,0.5,0.4
2026-04-25T1500,1817A,112.4263,34.6249,洛阳市,市委新办公区,,47,38,35,13,17,148,148,96,96,11,12,13,9,0.5,0.5
2026-04-25T1500,3340A,112.6005,34.6323,洛阳市,伊滨,颗粒物(PM10),60,64,40,16,16,137,137,100,100,14,15,12,12,0.3,0.3
2026-04-25T1500,3341A,112.495,34.6338,洛阳市,中移产业园,,46,45,35,26,20,146,146,102,102,9,11,19,11,0.4,0.4
2026-04-25T1500,3593A,112.5736,34.8993,洛阳市,吉利监测站,,44,36,44,10,18,139,139,92,92,9,15,8,8,0.3,0.4
2026-04-25T1500,3635A,112.3678,34.6623,洛阳市,河科大西苑校区,,47,33,33,24,18,148,148,105,105,8,10,9,9,0.4,0.4
2026-04-25T1500,3636A,112.4387,34.678,洛阳市,英才小学,颗粒物(PM10),104,129,45,32,23,146,146,98,98,9,12,11,8,0.4,0.4
2026-04-25T1500,4214A,112.460027,34.694929,洛阳市,春都路1号院,颗粒物(PM10),51,51,44,24,19,148,148,101,101,8,13,15,11,0.5,0.4
2026-04-25T1500,2399A,114.051,33.5721,漯河市,三五一五工厂,,44,20,38,16,22,140,140,104,104,12,22,5,5,0.4,0.5
2026-04-25T1500,2400A,114.0055,33.5698,漯河市,漯河大学,,44,25,31,19,23,139,139,103,103,10,16,6,7,0.3,0.4
2026-04-25T1500,2401A,114.0134,33.5826,漯河市,市水利局,,43,31,34,13,22,136,136,103,103,8,13,4,5,0.4,0.5
2026-04-25T1500,2402A,114.0261,33.5697,漯河市,市广电局,,45,27,33,16,22,143,143,105,105,13,21,5,5,0.3,0.3
2026-04-25T1500,3478A,113.9691,33.568,漯河市,市图书馆,,43,36,38,26,21,136,136,95,95,10,18,7,9,0.6,0.6
2026-04-25T1500,4250A,114.089259,33.588274,漯河市,韶山路11号,,42,26,40,12,23,134,134,100,100,8,18,6,6,0.4,0.3
2026-04-25T1500,1798A,118.5084,31.6838,马鞍山市,湖东路四小,臭氧1小时(O3_1h),80,47,67,20,34,184,184,157,157,14,42,8,9,0.4,0.6
2026-04-25T1500,1799A,118.5019,31.6449,马鞍山市,开发区,臭氧1小时(O3_1h),70,35,72,16,40,176,176,160,160,11,40,7,10,0.4,0.5
2026-04-25T1500,3633A,118.4914,31.681,马鞍山市,雨山,臭氧1小时(O3_1h),83,38,61,23,34,186,186,162,162,18,36,12,13,0.5,0.6
2026-04-25T1500,4191A,118.527362,31.722269,马鞍山市,慈湖高新区,臭氧1小时(O3_1h),102,51,75,28,37,204,204,153,153,15,40,10,10,0.5,0.6
2026-04-25T1500,1686A,111.0285,21.469,茂名市,电白南海,,38,36,28,14,18,119,119,69,69,9,13,6,8,0.7,0.8
2026-04-25T1500,1687A,110.9294,21.6533,茂名市,茂石化七小,,34,31,23,11,16,108,108,70,70,9,14,11,12,0.7,0.7
2026-04-25T1500,1688A,110.9108,21.6688,茂名市,健康路,,32,19,16,12,14,100,100,70,70,13,14,7,11,0.6,0.6
2026-04-25T1500,1689A,110.8592,21.6826,茂名市,高岭,,31,31,37,14,19,94,94,66,66,6,14,11,10,/,/
2026-04-25T1500,3450A,111.0101,21.5165,茂名市,电白水东,,37,31,20,14,19,118,118,73,73,10,14,4,6,/,/
2026-04-25T1500,2540A,103.8414,30.0871,眉山市,气象局,臭氧1小时(O3_1h),58,57,87,17,41,166,166,100,100,7,34,8,17,0.6,0.8
2026-04-25T1500,3148A,103.829,30.0563,眉山市,区人社局,颗粒物(PM10),54,55,88,22,52,150,150,100,100,11,44,13,10,0.7,0.9
2026-04-25T1500,4148A,103.8836,30.0695,眉山市,眉职院,臭氧1小时(O3_1h),52,44,79,19,39,161,161,104,104,6,27,9,10,0.7,0.9
2026-04-25T1500,1690A,116.1248,24.3307,梅州市,梅江月梅,,23,23,18,13,16,70,70,34,34,8,12,/,/,/,/
2026-04-25T1500,1691A,116.0798,24.2719,梅州市,梅县新城,,28,28,20,9,13,81,81,35,35,9,14,8,8,0.6,0.6
2026-04-25T1500,3315A,116.1234,24.2994,梅州市,梅龙,,26,17,19,11,14,81,81,38,38,8,13,6,6,0.7,0.7
2026-04-25T1500,1878A,104.7775,31.4741,绵阳市,富乐山,细颗粒物(PM2.5),76,65,59,48,45,174,174,111,111,13,21,9,8,0.7,0.8
2026-04-25T1500,1880A,104.6698,31.4668,绵阳市,高新区自来水公司,臭氧1小时(O3_1h),65,67,82,35,42,172,172,109,109,10,40,8,7,0.8,0.8
2026-04-25T1500,3491A,104.6899,31.5324,绵阳市,西科大附属小学,臭氧1小时(O3_1h),70,68,90,39,45,176,176,105,105,10,32,6,6,0.5,0.6
2026-04-25T1500,3492A,104.5647,31.5343,绵阳市,安州区旅游局,臭氧1小时(O3_1h),88,57,75,34,44,190,190,109,109,7,16,7,6,0.4,0.5
2026-04-25T1500,4146A,104.7092,31.4972,绵阳市,科技城新区公安局,颗粒物(PM10),60,64,86,35,43,164,164,101,101,10,27,7,6,0.7,0.7
2026-04-25T1500,4226A,104.765114,31.453094,绵阳市,绵阳市气象局,颗粒物(PM10),63,67,73,37,42,157,157,93,93,10,35,7,8,0.4,0.5
2026-04-25T1500,1784A,129.61,44.561,牡丹江市,环保大楼,,37,37,34,22,16,104,104,91,91,13,8,3,3,0.3,0.2
2026-04-25T1500,1787A,129.6364,44.6075,牡丹江市,机车工厂,,39,38,36,27,19,97,97,86,86,11,12,10,6,0.3,0.3
2026-04-25T1500,1788A,129.6386,44.5462,牡丹江市,第一中学,,42,NA,32,29,17,102,102,89,89,12,9,3,4,0.4,0.3
2026-04-25T1500,4287A,129.5992,44.5964,牡丹江市,东晓云街98号,,35,32,38,24,17,103,103,88,88,8,7,5,4,0.2,0.3
2026-04-25T1500,2531A,105.0703,29.61,内江市,市监测站,,45,30,49,19,39,141,141,94,94,8,20,9,9,0.5,0.7
2026-04-25T1500,2533A,105.0657,29.5807,内江市,内江二中,,44,30,52,17,43,138,138,91,91,9,24,7,7,0.2,0.4
2026-04-25T1500,2534A,105.0407,29.5828,内江市,内江日报社,,45,24,50,21,43,141,141,91,91,7,26,10,9,0.4,0.5
2026-04-25T1500,4147A,105.0433,29.6105,内江市,玉峰路西段888号,,45,28,49,16,40,144,144,92,92,9,23,4,3,0.4,0.5
2026-04-25T1500,2628A,92.0653,31.4846,那曲市,那曲监测站,,32,26,34,3,20,101,101,68,68,8,18,6,7,0.5,0.8
2026-04-25T1500,4243A,92.0515,31.4787,那曲市,那曲市委宣传部,,37,14,23,8,14,118,118,83,83,2,10,4,6,0.4,0.7
2026-04-25T1500,1291A,115.8887,28.7006,南昌市,省林业公司,,39,22,28,14,19,122,122,85,85,8,27,5,5,0.3,0.8
2026-04-25T1500,1292A,115.813,28.7443,南昌市,林科所,,41,24,22,14,16,130,130,96,96,7,32,9,9,0.3,0.5
2026-04-25T1500,1294A,115.8518,28.687,南昌市,建工学校,,43,43,37,19,21,134,134,92,92,9,30,7,7,0.7,0.9
2026-04-25T1500,1295A,115.8926,28.6425,南昌市,象湖,,43,25,27,16,22,135,135,94,94,12,31,11,9,1.1,1
2026-04-25T1500,3046A,115.9084,28.6062,南昌市,机电学校,,47,39,35,19,21,149,149,103,103,8,28,9,6,0.8,0.7
2026-04-25T1500,3690A,115.9718,28.7032,南昌市,外国语学校,,40,30,26,14,20,126,126,96,96,14,26,9,9,0.6,0.7
2026-04-25T1500,4106A,115.7923,28.6873,南昌市,工业二路,,45,37,36,17,19,141,141,100,100,9,25,6,6,0.6,0.6
2026-04-25T1500,4192A,115.931587,28.686774,南昌市,南京东路235号,,41,19,41,11,25,130,130,100,100,8,26,7,8,0.6,0.8
2026-04-25T1500,1906A,106.0791,30.8022,南充市,南充市委,,46,46,53,18,30,134,134,95,95,6,30,8,8,0.3,0.5
2026-04-25T1500,1907A,106.1038,30.8215,南充市,南充炼油厂,,47,47,68,25,42,138,138,92,92,7,24,6,6,0.2,0.3
2026-04-25T1500,4227A,106.108336,30.788436,南充市,梨树横街98号,,43,40,51,20,32,137,137,103,103,6,21,7,7,0.2,0.4
2026-04-25T1500,4304A,106.1172,30.843,南充市,清泉寺北路188号,,50,50,55,20,32,145,145,97,97,9,18,7,8,0.4,0.5
2026-04-25T1500,4305A,106.067,30.7616,南充市,同庆路1号,,43,43,54,23,30,133,133,96,96,6,23,8,8,0.2,0.4
2026-04-25T1500,1151A,118.8033,32.1085,南京市,迈皋桥,臭氧1小时(O3_1h),102,34,49,8,30,203,203,165,165,16,42,14,10,0.5,0.4
2026-04-25T1500,1152A,118.7487,32.057,南京市,草场门,臭氧1小时(O3_1h),80,36,53,10,31,184,184,155,155,14,35,5,6,0.3,0.5
2026-04-25T1500,1154A,118.770105,32.004342,南京市,中华门,臭氧1小时(O3_1h),88,27,56,7,30,190,190,156,156,11,38,9,10,0.5,0.7
2026-04-25T1500,1155A,118.8059,32.0329,南京市,瑞金路,臭氧1小时(O3_1h),80,39,53,11,34,184,184,155,155,10,34,6,7,0.7,0.9
2026-04-25T1500,1156A,118.7946,32.0774,南京市,玄武湖,臭氧1小时(O3_1h),79,40,50,9,26,183,183,147,147,13,35,4,5,0.3,0.4
2026-04-25T1500,1157A,118.6415,32.0964,南京市,浦口,臭氧1小时(O3_1h),84,35,56,12,24,187,187,141,141,17,34,5,6,0.4,0.5
2026-04-25T1500,1158A,118.730129,32.000956,南京市,奥体中心,臭氧1小时(O3_1h),58,39,63,7,31,166,166,133,133,15,49,8,9,0.2,0.5
2026-04-25T1500,1159A,118.9072,32.1047,南京市,仙林大学城,臭氧1小时(O3_1h),84,51,54,10,27,187,187,161,161,13,29,9,9,0.6,0.6
2026-04-25T1500,3422A,118.8443,31.919,南京市,江宁彩虹桥,臭氧1小时(O3_1h),64,40,58,6,31,171,171,144,144,13,44,3,4,0.4,0.6
2026-04-25T1500,3427A,118.8497,32.3599,南京市,六合雄州,臭氧1小时(O3_1h),85,32,54,11,23,188,188,143,143,18,37,4,4,0.4,0.5
2026-04-25T1500,4086A,118.7641,32.0841,南京市,新模范马路66号,臭氧1小时(O3_1h),100,51,57,8,29,200,200,167,167,5,32,3,4,0.4,0.5
2026-04-25T1500,4249A,118.8707617,31.34017673,南京市,汶溪路181号,臭氧1小时(O3_1h),102,52,59,18,30,203,203,160,160,16,25,8,7,0.2,0.3
2026-04-25T1500,4312A,119.019,31.6512,南京市,中山西路1号,,49,34,49,7,28,155,155,131,131,11,32,4,4,0.4,0.6
2026-04-25T1500,1401A,108.3098,22.788,南宁市,二十一中,颗粒物(PM10),51,51,33,20,26,145,145,101,101,8,14,3,2,0.5,0.5
2026-04-25T1500,1402A,108.3135,22.8529,南宁市,北湖,,47,34,38,21,34,148,148,96,96,10,22,4,6,0.6,0.6
2026-04-25T1500,1403A,108.3205,22.8222,南宁市,市监测站,臭氧1小时(O3_1h),57,41,35,22,25,165,165,117,117,9,13,4,4,0.5,0.5
2026-04-25T1500,1404A,108.3828,22.8038,南宁市,大自然花园,,48,37,33,18,25,153,153,105,105,11,16,7,6,0.5,0.5
2026-04-25T1500,1406A,108.2397,22.8462,南宁市,区农职院,,46,40,39,24,28,147,147,97,97,7,13,4,6,0.5,0.6
2026-04-25T1500,1407A,108.3285,22.7356,南宁市,英华嘉园,,49,42,35,15,25,155,155,104,104,9,16,5,5,0.5,0.5
2026-04-25T1500,3401A,108.4829,22.762,南宁市,红星社区,,49,34,35,15,26,156,156,105,105,9,17,6,7,0.5,0.6
2026-04-25T1500,4132A,108.2927,23.1477,南宁市,起凤路9号,,47,31,44,21,33,149,149,99,99,6,18,6,5,0.6,0.6
2026-04-25T1500,4221A,108.2177,22.7774,南宁市,乐贤路16号,,50,38,41,22,29,157,157,96,96,12,29,5,6,0.4,0.5
2026-04-25T1500,2332A,118.1682,26.6371,南平市,南平市监测站,,33,22,19,10,11,105,105,87,87,4,11,4,4,0.3,0.4
2026-04-25T1500,2334A,118.1757,26.6276,南平市,南平七中,,33,19,19,9,12,105,105,83,83,4,11,2,2,0.4,0.5
2026-04-25T1500,1168A,120.9056,31.9669,南通市,狼山街道,,43,33,41,3,22,135,135,102,102,17,24,5,5,0.4,0.5
2026-04-25T1500,1170A,120.8635,32.0231,南通市,城中,,46,42,56,3,21,145,145,109,109,17,20,5,5,0.3,0.4
2026-04-25T1500,1171A,120.9376,31.9301,南通市,星湖花园,,43,32,46,3,24,135,135,106,106,7,17,4,5,0.4,0.5
2026-04-25T1500,1172A,120.8053,32.046,南通市,紫琅学院,臭氧1小时(O3_1h),62,31,42,6,20,169,169,125,125,18,28,6,6,0.6,0.7
2026-04-25T1500,3291A,121.0631,32.0644,南通市,通州监测站,,44,34,47,3,21,140,140,115,115,5,8,5,5,0.5,0.5
2026-04-25T1500,3432A,120.9348,31.9874,南通市,环境教育馆,,43,36,44,3,22,137,137,105,105,10,30,5,5,0.4,0.5
2026-04-25T1500,4091A,120.8692,31.9885,南通市,洪江路,,42,39,47,6,24,134,134,99,99,20,25,6,6,0.7,0.8
2026-04-25T1500,2404A,112.5338,33.0086,南阳市,瓦房庄,,41,41,50,15,26,127,127,94,94,13,17,5,5,0.4,0.5
2026-04-25T1500,2405A,112.5002,32.9734,南阳市,汉画馆,,40,40,54,16,26,124,124,88,88,8,18,7,7,0.4,0.4
2026-04-25T1500,2406A,112.5778,33.0144,南阳市,气象站,,43,42,49,18,25,137,137,100,100,6,13,6,6,0.3,0.4
2026-04-25T1500,2407A,112.548,32.9687,南阳市,理工学院,,40,40,53,22,30,125,125,92,92,8,16,6,7,0.4,0.4
2026-04-25T1500,4008A,112.5233,32.9921,南阳市,卧龙区政府,,39,21,44,13,29,124,124,91,91,6,14,7,7,0.4,0.5
2026-04-25T1500,1234A,121.8352,29.9111,宁波市,区环保大楼,,46,43,46,11,14,146,146,106,106,22,42,8,7,0.2,0.3
2026-04-25T1500,1235A,121.5595,29.8208,宁波市,万里学院,臭氧1小时(O3_1h),55,46,45,14,21,164,164,116,116,21,35,5,4,0.4,0.4
2026-04-25T1500,1236A,121.713,29.9564,宁波市,龙赛医院,,46,24,51,14,23,145,145,106,106,21,39,7,8,0.4,0.6
2026-04-25T1500,1240A,121.5855,29.8635,宁波市,太古小学,,49,48,46,16,16,155,155,112,112,20,33,6,5,0.5,0.4
2026-04-25T1500,1241A,121.5239,29.8673,宁波市,市环境监测中心,NA,NA,48,60,13,26,160,160,121,121,16,40,8,9,NA,0.2
2026-04-25T1500,2871A,121.6156,29.9015,宁波市,万里国际学校,,50,48,47,15,19,157,157,122,122,20,32,7,6,0.4,0.5
2026-04-25T1500,3710A,121.5593,29.8976,宁波市,白沙活动中心,NA,NA,45,50,15,20,158,158,119,119,17,33,NA,7,0.5,0.5
2026-04-25T1500,4095A,121.8962,29.7529,宁波市,中科路88号,,41,27,38,8,12,130,130,117,117,7,19,8,7,0.4,0.4
2026-04-25T1500,2341A,119.5387,26.6611,宁德市,宁德市监测站,,50,39,30,18,13,157,157,125,125,12,14,10,9,0.4,0.5
2026-04-25T1500,3209A,119.5231,26.6562,宁德市,宁德一中,,50,33,27,16,15,158,158,131,131,11,13,10,8,0.5,0.5
2026-04-25T1500,2618A,98.859,25.8541,怒江傈僳族自治州,州监测站,细颗粒物(PM2.5),72,68,53,46,36,143,143,93,93,8,10,8,6,0.5,0.4
2026-04-25T1500,2619A,98.8607,25.8168,怒江傈僳族自治州,泸水一中,细颗粒物(PM2.5),66,68,48,43,39,130,130,87,87,21,21,6,6,0.6,0.6
2026-04-25T1500,1888A,101.6891,26.571,攀枝花市,弄弄坪,,46,34,44,32,26,126,126,80,80,9,14,19,25,0.6,0.6
2026-04-25T1500,1889A,101.577,26.5914,攀枝花市,河门口,NA,NA,52,54,29,25,153,153,84,84,12,18,21,23,NA,NA
2026-04-25T1500,1891A,101.7365,26.4986,攀枝花市,仁和,,49,46,41,34,23,126,126,77,77,9,12,20,11,0.3,0.3
2026-04-25T1500,2835A,101.7222,26.567,攀枝花市,四十中小,,39,32,36,23,22,123,123,79,79,9,11,18,28,0.6,0.6
2026-04-25T1500,1604A,122.0303,41.1489,盘锦市,开发区,细颗粒物(PM2.5),74,66,60,47,69,142,142,115,115,13,18,11,9,0.6,0.6
2026-04-25T1500,1605A,122.0486,41.0883,盘锦市,兴隆台,细颗粒物(PM2.5),88,63,55,54,71,155,155,116,116,16,26,13,11,0.9,0.8
2026-04-25T1500,1606A,121.8297,41.1026,盘锦市,新生街道,颗粒物(PM10),55,56,59,31,57,157,157,132,132,35,31,8,7,0.7,0.7
2026-04-25T1500,1832A,113.3257,33.7423,平顶山市,新华旅馆,,41,41,50,23,19,127,127,104,104,6,17,5,5,0.4,0.4
2026-04-25T1500,1833A,113.2917,33.737,平顶山市,规划设计院,,41,31,42,27,19,129,129,104,104,9,20,7,7,0.4,0.4
2026-04-25T1500,1834A,113.182,33.7738,平顶山市,平顶山工学院,,40,31,31,25,19,126,126,100,100,6,12,8,9,0.4,0.4
2026-04-25T1500,3594A,112.8736,33.9068,平顶山市,石龙区,,45,45,44,18,18,123,123,95,95,8,18,8,8,0.4,0.5
2026-04-25T1500,4116A,113.284,33.7139,平顶山市,姚电大道23号,,40,36,50,18,22,127,127,102,102,10,26,7,7,0.3,0.4
2026-04-25T1500,2656A,106.6633,35.5338,平凉市,聚贤嘉苑,NA,NA,84,71,29,22,127,127,90,90,8,21,NA,9,0.3,0.3
2026-04-25T1500,2657A,106.7021,35.5307,平凉市,博物馆,颗粒物(PM10),56,58,66,30,25,135,135,83,83,6,18,9,9,0.4,0.4
2026-04-25T1500,2348A,113.8384,27.6436,萍乡市,中医院,,44,25,38,11,27,138,138,88,88,7,22,6,8,0.7,0.8
2026-04-25T1500,2350A,113.8677,27.6438,萍乡市,市环保局,,41,22,43,11,28,131,131,87,87,9,25,10,9,0.8,1
2026-04-25T1500,2351A,113.8663,27.6202,萍乡市,安源区政府,,42,40,42,12,26,134,134,79,79,12,20,10,8,0.9,1.1
2026-04-25T1500,4107A,113.8686,27.6668,萍乡市,联洪村委会,,41,28,44,18,24,129,129,94,94,7,20,6,5,0.6,0.5
2026-04-25T1500,2319A,119.0142,25.4324,莆田市,荔城区仓后路,,40,36,30,15,12,128,128,108,108,6,7,/,/,/,/
2026-04-25T1500,2320A,119.0016,25.4553,莆田市,莆田市监测站,,41,35,26,12,10,131,131,113,113,10,11,3,3,0.4,0.5
2026-04-25T1500,2321A,119.112,25.4561,莆田市,涵江区六中,,40,39,29,17,11,126,126,107,107,7,11,/,/,0.4,0.5
2026-04-25T1500,2322A,119.1014,25.3215,莆田市,秀屿区政府,颗粒物(PM10),52,52,30,20,12,130,130,105,105,11,12,5,5,0.5,0.6
2026-04-25T1500,2392A,115.0312,35.7636,濮阳市,环保局,,41,41,39,19,16,123,123,97,97,9,14,4,5,0.5,0.6
2026-04-25T1500,3021A,115,35.7667,濮阳市,濮水河管理处,,45,45,40,17,16,126,126,98,98,9,15,4,4,0.7,0.6
2026-04-25T1500,4118A,115.0552,35.7816,濮阳市,中原东路68号,,43,43,42,10,14,130,130,102,102,6,11,3,4,0.5,0.5
2026-04-25T1500,4216A,115.0923632,35.76857718,濮阳市,任丘路479号,,41,41,45,9,19,126,126,98,98,13,17,3,4,0.3,0.4
2026-04-25T1500,2601A,100.9801,22.7634,普洱市,市环保局,颗粒物(PM10),92,108,87,52,44,136,136,118,118,9,9,5,5,0.8,0.7
2026-04-25T1500,2602A,100.9763,22.8237,普洱市,普洱第二中学,细颗粒物(PM2.5),90,98,82,55,46,126,126,106,106,13,21,6,6,1.1,1
2026-04-25T1500,3345A,131.0413,45.7795,七台河市,中波台,,30,6,21,3,11,94,94,96,96,5,7,2,3,0.1,0.2
2026-04-25T1500,3637A,131.0136,45.7688,七台河市,人民广场,,30,11,27,8,10,94,94,100,100,13,9,9,10,0.5,0.5
2026-04-25T1500,3684A,130.8639,45.8144,七台河市,新建矿广场,,39,39,32,7,12,79,79,82,82,11,10,8,9,0.4,0.3
2026-04-25T1500,1779A,123.9307,47.3641,齐齐哈尔市,安居小区,,29,27,27,3,9,92,92,86,86,2,6,6,4,0.2,0.2
2026-04-25T1500,1780A,123.9497,47.3389,齐齐哈尔市,中心广场,,27,8,26,3,10,86,86,82,82,3,7,7,7,0.2,0.2
2026-04-25T1500,1781A,123.9483,47.3229,齐齐哈尔市,农牧车辆厂,,29,19,29,3,8,90,90,86,86,7,8,4,5,0.4,0.5
2026-04-25T1500,1783A,123.9442,47.2994,齐齐哈尔市,市环境监测站,,29,18,33,7,11,90,90,84,84,4,11,3,3,0.2,0.3
2026-04-25T1500,3662A,123.6341,47.2079,齐齐哈尔市,富区青少年活动中心,,28,19,40,3,17,88,88,80,80,5,16,3,4,0.2,0.3
2026-04-25T1500,2591A,107.9765,26.5724,黔东南苗族侗族自治州,市环境监测站,,33,28,24,9,16,105,105,61,61,6,14,4,3,0.3,0.4
2026-04-25T1500,2881A,107.8909,26.531,黔东南苗族侗族自治州,凯里学院,,41,41,19,17,14,117,117,66,66,5,11,3,2,0.3,0.3
2026-04-25T1500,2593A,107.5223,26.2371,黔南布依族苗族自治州,小围寨,,34,24,19,12,12,106,106,62,62,5,9,6,6,0.2,0.2
2026-04-25T1500,3538A,107.5175,26.2977,黔南布依族苗族自治州,沙坝,,44,44,23,12,12,104,104,55,55,7,9,4,4,0.5,0.5
2026-04-25T1500,2589A,104.9022,25.0943,黔西南布依族苗族自治州,场坝街,,34,12,24,8,20,107,107,78,78,4,5,5,6,0.2,0.4
2026-04-25T1500,2590A,104.8812,25.0994,黔西南布依族苗族自治州,坪东大道,,32,13,22,12,18,100,100,75,75,4,6,3,3,0.2,0.3
2026-04-25T1500,2502A,108.6238,21.9667,钦州市,市环保站,,39,31,45,3,22,124,124,81,81,6,16,2,2,0.7,1
2026-04-25T1500,2503A,108.655,21.9481,钦州市,沙埠小学,,36,36,49,16,25,114,114,77,77,5,21,2,4,0.4,0.6
2026-04-25T1500,2504A,108.5989,21.7435,钦州市,港区一小,,36,35,62,23,32,115,115,80,80,7,28,3,6,0.5,0.8
2026-04-25T1500,3404A,108.5959,21.9634,钦州市,北职校,,40,32,44,13,26,127,127,85,85,6,16,2,2,0.4,0.7
2026-04-25T1500,1046A,119.5247,39.9346,秦皇岛市,建设大厦,颗粒物(PM10),100,120,96,34,41,146,146,115,115,4,14,8,9,0.4,0.5
2026-04-25T1500,3132A,119.5979,39.938,秦皇岛市,文明里,颗粒物(PM10),83,95,95,34,43,146,146,102,102,24,29,13,11,0.4,0.4
2026-04-25T1500,4066A,119.7458,39.9952,秦皇岛市,南园路157号,颗粒物(PM10),70,78,85,44,45,128,128,94,94,33,33,11,10,0.5,0.4
2026-04-25T1500,4067A,119.5131,39.8858,秦皇岛市,翠岛大街1号,颗粒物(PM10),74,83,73,24,42,150,150,105,105,15,24,11,10,0.4,0.4
2026-04-25T1500,4198A,119.509013,39.825305,秦皇岛市,北戴河轮滑馆,颗粒物(PM10),71,79,75,41,41,149,149,104,104,24,22,10,9,0.4,0.4
2026-04-25T1500,1310A,120.404,36.0625,青岛市,市南区东部子站,细颗粒物(PM2.5),58,51,56,39,39,135,135,116,116,20,23,9,8,0.5,0.6
2026-04-25T1500,1311A,120.362344,36.10282,青岛市,四方区子站,臭氧1小时(O3_1h),55,51,53,31,36,164,164,134,134,15,22,8,10,0.6,0.9
2026-04-25T1500,1312A,120.294373,36.054183,青岛市,市南区西部子站,细颗粒物(PM2.5),56,53,55,38,38,121,121,117,106,32,31,6,6,0.7,0.8
2026-04-25T1500,1313A,120.4581,36.0858,青岛市,崂山区子站,颗粒物(PM10),51,51,55,32,32,143,143,123,123,14,27,11,10,0.5,0.6
2026-04-25T1500,1315A,120.3945,36.3083,青岛市,城阳区子站,,47,44,57,17,28,149,149,132,132,11,19,9,10,0.6,0.7
2026-04-25T1500,3642A,120.3454,36.0735,青岛市,市北区南部,,48,40,50,30,32,153,153,134,133,15,15,7,7,0.6,0.7
2026-04-25T1500,3643A,120.3897,36.18,青岛市,李沧区北部,颗粒物(PM10),53,53,61,22,33,142,142,123,123,9,22,12,12,0.5,0.7
2026-04-25T1500,4110A,120.5222,36.4089,青岛市,盟旺路653号,,47,30,44,14,23,150,150,140,140,6,11,6,6,0.6,0.7
2026-04-25T1500,4290A,120.196923,35.954556,青岛市,珠江路669号,颗粒物(PM10),60,63,66,27,32,148,148,133,121,23,24,8,7,0.7,0.8
2026-04-25T1500,4291A,120.0424,35.8656,青岛市,黄岛区人民政府广场,细颗粒物(PM2.5),60,58,67,40,41,98,98,91,91,37,30,11,10,0.6,0.7
2026-04-25T1500,1703A,113.0218,23.7086,清远市,凤城街办,,38,26,30,17,21,120,120,79,79,11,21,/,/,/,/
2026-04-25T1500,3025A,113.0479,23.6343,清远市,技师学院,,39,20,30,12,18,124,124,81,81,8,22,6,8,0.6,0.7
2026-04-25T1500,3318A,112.9898,23.7403,清远市,清新太和,,44,32,29,24,21,140,140,81,81,12,15,8,7,0.5,0.6
2026-04-25T1500,3455A,113.076,23.72,清远市,清城东城,,39,25,27,18,17,122,122,85,85,10,14,/,/,/,/
2026-04-25T1500,2661A,107.6325,35.7357,庆阳市,庆阳五中,颗粒物(PM10),77,87,76,30,25,117,117,94,94,12,16,4,3,0.2,0.3
2026-04-25T1500,2662A,107.6361,35.7067,庆阳市,市环保局,颗粒物(PM10),63,67,64,27,22,127,127,104,104,11,15,6,7,0.3,0.3
2026-04-25T1500,1916A,103.7897,25.5036,曲靖市,环境监测站,,39,21,46,13,33,124,124,68,68,10,19,7,8,0.7,0.7
2026-04-25T1500,1917A,103.8013,25.5357,曲靖市,烟厂办公区,,36,22,40,16,29,114,114,61,61,8,21,8,8,0.6,0.7
2026-04-25T1500,3376A,103.7926,25.4651,曲靖市,南苑二区,,37,23,42,11,32,117,117,68,68,12,15,3,4,0.7,0.7
2026-04-25T1500,3377A,103.7442,25.5259,曲靖市,曲靖师范学院,,38,NA,40,20,32,119,119,72,72,9,21,3,4,0.4,0.5
2026-04-25T1500,1264A,118.8694,28.94,衢州市,环保大楼,,40,17,29,10,17,127,127,109,109,9,26,/,/,/,/
2026-04-25T1500,1266A,118.8622,28.9809,衢州市,衢州学院,,40,15,22,10,12,125,125,108,108,11,28,6,6,0.4,0.5
2026-04-25T1500,4097A,118.9646,28.9832,衢州市,衢州三中,,43,18,31,10,17,137,137,104,104,11,29,8,8,0.4,0.4
2026-04-25T1500,1611A,118.5818,24.9116,泉州市,涂山街,,30,22,23,9,13,95,95,86,86,10,14,3,3,0.6,0.7
2026-04-25T1500,1612A,118.597,24.8976,泉州市,津头埔,,33,24,22,12,16,105,105,95,95,10,14,3,3,0.4,0.5
2026-04-25T1500,1613A,118.6669,24.9422,泉州市,万安,,31,29,25,14,14,98,98,86,86,11,15,4,4,0.5,0.6
2026-04-25T1500,4105A,118.6355,24.9148,泉州市,霞新路6号,,32,32,24,13,13,98,98,89,89,3,10,/,/,0.4,0.5
2026-04-25T1500,2626A,88.8873,29.2723,日喀则市,日喀则监测站,,39,26,26,6,12,122,122,102,102,4,6,8,7,0.4,0.4
2026-04-25T1500,3726A,88.8775,29.2425,日喀则市,林业技术推广中心,,37,19,28,3,11,116,116,103,103,4,5,9,8,0.3,0.3
2026-04-25T1500,1659A,119.4711,35.421,日照市,监测站,臭氧1小时(O3_1h),53,46,60,21,34,162,162,117,117,19,35,11,12,0.6,0.8
2026-04-25T1500,1660A,119.523,35.4216,日照市,市政府广场,颗粒物(PM10),55,56,77,29,40,160,160,120,120,21,37,8,14,0.5,0.8
2026-04-25T1500,1661A,119.5511,35.4113,日照市,港务局,颗粒物(PM10),62,66,83,37,41,124,124,102,102,36,48,8,10,0.5,0.8
2026-04-25T1500,3507A,119.5326,35.4627,日照市,职业技术学院,颗粒物(PM10),65,70,77,26,39,149,149,122,122,28,34,10,14,0.6,0.8
2026-04-25T1500,3604A,119.3267,35.1043,日照市,岚山环保分局,颗粒物(PM10),80,92,66,28,36,149,149,116,116,33,37,12,32,0.6,0.7
2026-04-25T1500,1835A,111.1922,34.7752,三门峡市,市政府,,39,37,40,3,15,123,123,88,88,8,18,9,9,0.4,0.4
2026-04-25T1500,1836A,111.1588,34.794,三门峡市,开发区,,41,29,29,27,32,129,129,90,90,7,10,10,11,0.4,0.5
2026-04-25T1500,3039A,111.1911,34.7829,三门峡市,三门峡市第一小学,NA,NA,57,49,NA,19,128,128,90,90,8,12,13,13,0.6,0.6
2026-04-25T1500,3598A,111.1031,34.719,三门峡市,富达温泉假日酒店,,44,44,66,16,19,129,129,83,83,11,15,13,13,0.3,0.3
2026-04-25T1500,2324A,117.621,26.2626,三明市,三钢,,38,31,19,17,17,119,119,76,76,8,12,7,5,0.8,0.5
2026-04-25T1500,2325A,117.6352,26.2714,三明市,三明二中,,34,25,18,16,15,108,108,70,70,6,10,1,3,0.7,0.5
2026-04-25T1500,2326A,117.6028,26.2377,三明市,三元区政府,,38,29,21,19,16,121,121,78,78,11,12,12,6,1.5,0.8
2026-04-25T1500,1877A,109.4962,18.2682,三亚市,河西子站,,27,12,11,10,7,86,86,81,81,4,8,4,4,0.5,0.6
2026-04-25T1500,3540A,109.7348,18.3443,三亚市,君悦子站,,31,24,16,12,8,99,99,77,77,4,11,4,3,0.7,0.7
2026-04-25T1500,4135A,109.1714,18.3739,三亚市,城东小学站,,26,10,18,9,10,83,83,76,76,9,13,/,/,/,/
2026-04-25T1500,2624A,91.7592,29.234,山南市,山南监测站,,38,15,17,3,4,119,119,87,87,1,4,6,5,0.2,0.2
2026-04-25T1500,2625A,91.7701,29.2436,山南市,山南人民医院,,38,14,20,3,9,120,120,86,86,1,4,7,7,0.2,0.2
2026-04-25T1500,1674A,116.6795,23.3666,汕头市,金平子站,,39,20,19,11,14,123,123,100,100,12,19,5,6,0.7,0.8
2026-04-25T1500,1675A,116.7248,23.3632,汕头市,龙湖子站,,39,28,17,11,13,123,123,99,99,7,13,6,6,/,/
2026-04-25T1500,1676A,116.7257,23.2774,汕头市,濠江子站,,39,24,20,10,13,122,122,93,93,10,17,9,8,/,/
2026-04-25T1500,1677A,116.7518,23.4712,汕头市,澄海子站,,35,27,19,11,12,110,110,87,87,11,16,7,8,0.6,0.7
2026-04-25T1500,1678A,116.6088,23.2539,汕头市,潮阳子站,,39,24,18,11,15,124,124,90,90,8,14,7,6,0.6,0.7
2026-04-25T1500,3444A,116.4539,23.2684,汕头市,潮南峡山,,36,25,20,17,13,114,114,88,88,16,15,7,6,0.8,0.8
2026-04-25T1500,3624A,116.4069,23.2533,汕头市,潮南子站,,43,43,24,24,16,101,101,73,73,21,18,6,6,/,/
2026-04-25T1500,1693A,115.3653,22.7751,汕尾市,市环保局,,23,23,13,15,10,66,66,52,52,6,8,5,5,0.8,0.7
2026-04-25T1500,1695A,115.362,22.7926,汕尾市,新城中学,,28,28,13,15,9,69,69,53,53,5,6,6,6,0.6,0.6
2026-04-25T1500,2645A,109.9155,33.8714,商洛市,监测站,颗粒物(PM10),52,52,47,30,25,140,140,101,101,8,11,8,8,0.4,0.4
2026-04-25T1500,3045A,109.9647,33.8486,商洛市,商州区中学,颗粒物(PM10),75,85,62,21,17,129,129,94,94,7,16,6,8,0.3,0.4
2026-04-25T1500,2408A,115.6701,34.4283,商丘市,环境监测站,,41,34,36,12,20,131,131,113,113,3,7,2,2,0.3,0.4
2026-04-25T1500,2409A,115.6458,34.4047,商丘市,粮食局,,40,37,33,16,17,125,125,108,108,9,11,4,4,0.3,0.3
2026-04-25T1500,3171A,115.6069,34.4465,商丘市,梁园区档案局,,40,28,33,3,17,127,127,110,110,4,9,4,5,0.4,0.4
2026-04-25T1500,4119A,115.6701,34.3767,商丘市,北海东路185号,,42,20,39,10,18,132,132,109,109,3,9,4,5,0.4,0.4
2026-04-25T1500,4120A,115.6172,34.3704,商丘市,中山大街3号,,39,22,40,20,19,124,124,102,102,5,10,7,8,0.3,0.3
2026-04-25T1500,1141A,121.401,31.2382,上海市,普陀,,42,28,51,8,23,132,132,113,113,16,29,6,6,0.3,0.4
2026-04-25T1500,1142A,121.4774,31.2043,上海市,十五厂,,40,28,52,11,25,127,127,107,107,13,27,7,6,0.5,0.6
2026-04-25T1500,1143A,121.4673,31.3011,上海市,虹口,,37,24,48,12,26,118,118,105,105,15,29,5,5,0.3,0.4
2026-04-25T1500,1147A,121.4253,31.226,上海市,静安监测站,,42,27,47,11,25,132,132,113,113,18,32,9,8,0.5,0.6
2026-04-25T1500,1148A,121.7029,31.1905,上海市,浦东川沙,,42,25,55,11,24,134,134,110,110,16,38,8,8,0.4,0.5
2026-04-25T1500,1149A,121.5339,31.229,上海市,浦东新区监测站,,37,24,45,11,24,118,118,106,106,14,23,6,6,0.4,0.4
2026-04-25T1500,1150A,121.5776,31.2038,上海市,浦东张江,,41,21,43,11,22,131,131,114,114,11,23,7,6,0.2,0.3
2026-04-25T1500,3265A,121.4242,31.3303,上海市,宝山庙行,,39,27,54,10,25,124,124,107,107,20,31,9,7,0.2,0.3
