timepoint,stationcode,longitude,latitude,area,positionname,primarypollutant,aqi,pm10,pm10_24h,pm2_5,pm2_5_24h,o3,o3_24h,o3_8h,o3_8h_24h,no2,no2_24h,so2,so2_24h,co,co_24h
2024-09-23T1700,2566A,102.1879,31.914,阿坝藏族羌族自治州,州农科所,,31,31,20,8,10,45,,42,42,21,14,8,7,0,0
2024-09-23T1700,2568A,102.2502,31.8896,阿坝藏族羌族自治州,马师校,,19,19,21,3,8,58,,38,38,6,5,4,4,0.4,0.4
2024-09-23T1700,3994A,102.2165,31.9024,阿坝藏族羌族自治州,马尔康中学西区,,19,17,18,8,16,59,,40,40,7,7,6,6,0.5,0.5
2024-09-23T1700,2695A,80.292,41.1694,阿克苏地区,电视台,颗粒物(PM10),59,68,97,22,36,139,,84,84,10,19,5,4,0.3,0.5
2024-09-23T1700,2696A,80.2613,41.1551,阿克苏地区,艺术中心,颗粒物(PM10),52,53,100,23,35,131,,79,79,6,20,3,4,0.3,0.7
2024-09-23T1700,2204A,105.6467,38.8363,阿拉善盟,西城区西花园,,49,16,27,13,16,155,,146,146,8,15,8,9,0.6,0.7
2024-09-23T1700,2205A,105.6985,38.8411,阿拉善盟,蒙二幼,,42,19,22,6,7,132,,119,119,9,10,5,6,0.4,0.5
2024-09-23T1700,2206A,105.724,38.8516,阿拉善盟,环保局新楼,,39,15,16,6,7,123,,123,123,10,9,10,9,0.4,0.4
2024-09-23T1700,2708A,88.1264,47.8517,阿勒泰地区,市站,,28,21,21,10,8,89,,76,76,16,16,7,7,0.4,0.4
2024-09-23T1700,2630A,80.1161,32.5,阿里地区,阿里监测站,,,,20,,8,124,,100,100,5,25,6,7,0.3,0.4
2024-09-23T1700,3192A,80.0903,32.5028,阿里地区,阿里藏医院,,39,9,17,3,4,122,,98,98,6,14,6,6,0.2,0.3
2024-09-23T1700,2642A,109.0318,32.6537,安康市,香溪洞,颗粒物(PM10),55,60,30,18,10,115,,112,112,19,8,8,9,0.3,0.2
2024-09-23T1700,2643A,109.0281,32.6939,安康市,安康市监测站,,39,29,34,18,18,124,,119,119,6,9,8,9,0.5,0.5
2024-09-23T1700,2644A,109.0072,32.6975,安康市,汉滨区检察院,,41,27,30,15,11,130,,121,121,6,9,8,9,0.3,0.4
2024-09-23T1700,2291A,117.0809,30.5177,安庆市,环科院,臭氧1小时,53,32,28,15,13,162,,135,135,15,15,8,10,0.6,0.5
2024-09-23T1700,2292A,117.0331,30.5119,安庆市,马山宾馆,臭氧1小时,53,33,28,14,12,162,,137,137,13,14,10,11,0.3,0.3
2024-09-23T1700,2294A,116.9896,30.6145,安庆市,安庆大学,,41,22,30,10,13,130,,126,126,8,12,8,9,0.3,0.3
2024-09-23T1700,3173A,117.0598,30.5351,安庆市,市人大,,49,37,29,16,14,156,,133,133,11,12,10,10,0.6,0.5
2024-09-23T1700,3123A,105.9408,26.2431,安顺市,凤凰山,,32,20,25,14,19,102,,101,101,5,7,7,12,0.5,0.5
2024-09-23T1700,3124A,105.9439,26.2564,安顺市,金钟山,,34,23,25,15,22,106,,101,101,4,6,6,12,0.5,0.6
2024-09-23T1700,3125A,105.8983,26.2481,安顺市,娄家坡,,,,29,,25,108,,99,99,6,8,6,10,0.5,0.6
2024-09-23T1700,1818A,114.4839,36.0621,安阳市,棉研所,臭氧1小时,58,37,42,19,21,166,,130,130,21,26,8,11,0.4,0.6
2024-09-23T1700,1819A,114.3551,36.1017,安阳市,红庙街,,49,39,48,12,20,156,,134,134,2,17,8,9,0.7,0.9
2024-09-23T1700,1820A,114.361,36.0681,安阳市,银杏小区,,48,36,42,3,14,152,,130,130,6,17,6,5,0.3,0.4
2024-09-23T1700,3141A,114.3922,36.0878,安阳市,信访局,,50,38,47,19,21,159,,137,137,9,24,6,7,0.5,0.7
2024-09-23T1700,3669A,114.4705,36.0637,安阳市,左辅环卫站,,49,48,52,17,23,156,,130,130,12,34,6,6,1.1,1.1
2024-09-23T1700,3703A,114.2917,36.0949,安阳市,安钢职工学校,,49,49,61,18,23,147,,122,122,8,22,8,8,0.4,0.5
2024-09-23T1700,1748A,123.044,41.1196,鞍山市,深沟寺,,45,45,27,30,15,100,,84,84,27,23,18,8,1.1,0.8
2024-09-23T1700,1749A,123.011,41.0931,鞍山市,太阳城,,41,41,35,22,20,102,,81,81,24,26,17,14,1.0,1.1
2024-09-23T1700,1750A,123.0485,41.1442,鞍山市,太平,颗粒物(PM10),58,66,39,34,17,74,,79,79,50,37,27,13,1.6,0.9
2024-09-23T1700,1751A,122.9642,41.0971,鞍山市,铁西三道街,颗粒物(PM10),52,54,56,25,22,95,,78,78,32,39,14,12,1.1,1.1
2024-09-23T1700,1752A,122.9341,41.0833,鞍山市,铁西工业园区,,50,50,65,23,24,103,,84,84,28,35,13,12,0.9,0.8
2024-09-23T1700,1753A,123.022,41.0821,鞍山市,明达新区,,48,48,36,26,18,88,,72,72,28,26,15,12,1.1,1.2
2024-09-23T1700,2196A,107.37,40.7372,巴彦淖尔市,市环保大楼,臭氧1小时,82,85,61,41,26,185,,130,130,13,34,15,8,0.7,0.6
2024-09-23T1700,1956A,86.1472,41.7538,巴音郭楞蒙古自治州,孔雀公园,颗粒物(PM10),54,58,76,15,23,108,,80,80,3,20,6,6,0.2,0.3
2024-09-23T1700,1957A,86.1972,41.7166,巴音郭楞蒙古自治州,棉纺厂,颗粒物(PM10),59,67,80,25,24,115,,91,91,5,14,5,6,0.2,0.2
2024-09-23T1700,1958A,86.2357,41.7173,巴音郭楞蒙古自治州,经济开发区,颗粒物(PM10),51,52,69,33,22,110,,99,99,4,7,7,7,0.2,0.3
2024-09-23T1700,2914A,106.7677,31.8794,巴中市,苏山坪,,40,24,20,14,13,128,,107,107,9,8,3,3,0.3,0.3
2024-09-23T1700,3182A,106.7656,31.8545,巴中市,丽阳花园,,39,25,25,15,16,123,,104,104,17,16,5,5,0.4,0.5
2024-09-23T1700,3183A,106.7418,31.8654,巴中市,圣泉水务公司,,42,22,22,14,16,132,,108,108,9,16,3,3,0.4,0.5
2024-09-23T1700,3616A,106.7616,31.8344,巴中市,市中心医院,,42,19,21,14,15,134,,106,106,7,15,5,5,0.4,0.5
2024-09-23T1700,2235A,122.7911,45.6077,白城市,洮北区环保局,,30,21,24,7,9,96,,83,83,6,10,6,6,0.1,0.1
2024-09-23T1700,2236A,122.8738,45.5725,白城市,市环保局,,,38,40,3,8,87,,78,78,11,21,6,4,,0.2
2024-09-23T1700,2231A,126.4219,41.9171,白山市,喜丰,,21,18,31,6,9,66,,59,59,15,16,10,8,0.5,0.5
2024-09-23T1700,2232A,126.4077,41.9419,白山市,环保局,,27,27,24,3,7,59,,55,55,18,12,9,7,0.7,0.5
2024-09-23T1700,2647A,104.1724,36.5446,白银市,第三小学,,36,25,31,12,17,114,,98,98,7,16,7,19,0.6,0.8
2024-09-23T1700,2648A,104.1465,36.5482,白银市,动力公司,,37,30,31,9,18,116,,99,99,7,15,6,13,0.2,0.5
2024-09-23T1700,2512A,106.6103,23.9011,百色市,市监测站,,43,35,32,14,12,137,,110,110,10,12,7,6,0.4,0.5
2024-09-23T1700,2513A,106.6538,23.8859,百色市,市中心血站,,43,43,38,8,14,137,,106,106,11,16,20,6,0.5,0.5
2024-09-23T1700,3406A,106.6085,23.8798,百色市,祈福高中,,47,47,44,20,16,127,,102,102,11,16,4,4,0.5,0.6
2024-09-23T1700,2270A,117.396,32.939,蚌埠市,工人疗养院,,40,40,50,11,20,128,,111,111,7,20,6,7,0.3,0.4
2024-09-23T1700,2271A,117.3605,32.9427,蚌埠市,百货大楼,,41,41,45,6,16,126,,112,112,11,20,9,10,0.3,0.4
2024-09-23T1700,2273A,117.4185,32.8911,蚌埠市,蚌埠学院,,41,36,38,12,20,131,,112,112,9,21,8,8,0.3,0.3
2024-09-23T1700,2274A,117.3533,32.9673,蚌埠市,淮上区政府,,38,31,44,16,21,121,,106,106,9,21,7,7,0.2,0.3
2024-09-23T1700,2275A,117.3145,32.8977,蚌埠市,高新区,,42,36,41,11,22,132,,116,116,11,25,7,11,0.3,0.3
2024-09-23T1700,3715A,117.3092,32.9314,蚌埠市,蚌埠田家炳中学,,41,39,49,11,21,130,,115,115,8,22,6,7,0.3,0.4
2024-09-23T1700,1585A,109.8756,40.6532,包头市,市环境监测站,,42,35,55,19,25,134,,100,100,22,51,18,12,0.6,0.8
2024-09-23T1700,1587A,109.9991,40.5842,包头市,包头八中,,43,36,51,20,27,137,,97,97,18,45,10,13,0.5,0.9
2024-09-23T1700,1588A,109.8538,40.6821,包头市,青山宾馆,,41,33,40,9,24,130,,98,98,15,42,13,13,0.7,0.9
2024-09-23T1700,1589A,109.8642,40.6288,包头市,惠龙物流,,,,55,18,21,132,,108,108,,53,22,18,0.7,0.8
2024-09-23T1700,1590A,110.0377,40.5546,包头市,东河鸿龙湾,,42,39,41,21,16,132,,96,96,16,38,20,17,0.6,0.6
2024-09-23T1700,3283A,109.9154,40.5685,包头市,滨河大厦,,43,31,38,19,17,135,,104,104,18,46,17,14,0.6,0.7
2024-09-23T1700,3419A,109.9447,40.6261,包头市,包头市委党校,,45,31,44,13,19,144,,105,105,16,49,10,15,0.5,1
2024-09-23T1700,3683A,109.8331,40.6576,包头市,昆区政府,,42,32,48,11,26,133,,97,97,14,46,12,17,0.5,0.9
2024-09-23T1700,1930A,107.185,34.3063,宝鸡市,庙沟村,臭氧1小时,63,60,45,30,24,170,,123,123,15,16,9,9,0.5,0.4
2024-09-23T1700,1931A,107.0708,34.3017,宝鸡市,竹园沟,臭氧1小时,83,67,42,42,29,186,,119,119,15,12,9,7,0.6,0.5
2024-09-23T1700,1932A,107.1906,34.3672,宝鸡市,三陆医院,颗粒物(PM10),57,63,60,34,37,161,,126,126,21,32,7,12,0.6,0.6
2024-09-23T1700,1933A,107.1431,34.3547,宝鸡市,监测站,臭氧1小时,59,61,52,38,34,167,,127,127,17,19,8,7,0.5,0.7
2024-09-23T1700,1934A,107.1186,34.3739,宝鸡市,技工学校,臭氧1小时,62,58,52,39,35,169,,128,128,20,20,9,9,0.6,0.6
2024-09-23T1700,1935A,107.3906,34.3528,宝鸡市,陈仓区环保局家属楼,臭氧1小时,74,57,54,36,34,179,,144,144,24,30,11,10,0.7,0.7
2024-09-23T1700,1936A,107.2058,34.3497,宝鸡市,文理学院,臭氧1小时,60,61,54,21,26,168,,131,131,14,20,9,9,0.5,0.6
2024-09-23T1700,1937A,107.2386,34.3622,宝鸡市,三迪小学,颗粒物(PM10),59,67,58,30,36,164,,129,129,20,30,10,11,0.6,0.6
2024-09-23T1700,1051A,115.493,38.8632,保定市,游泳馆,,50,34,46,13,20,157,,121,121,7,35,3,2,0.2,0.3
2024-09-23T1700,1052A,115.5213,38.8959,保定市,华电二区,,46,34,37,14,24,145,,114,114,7,22,3,2,0.1,0.1
2024-09-23T1700,1053A,115.4713,38.9108,保定市,接待中心,,45,34,41,17,25,143,,109,109,9,29,3,2,0,0.1
2024-09-23T1700,1054A,115.4612,38.8416,保定市,地表水厂,,48,37,53,15,26,151,,113,113,11,38,3,2,0,0
2024-09-23T1700,3581A,115.31981,38.95208,保定市,满城区生态环境分局,,47,39,41,19,13,149,,115,115,11,24,4,3,0.3,0.3
2024-09-23T1700,3582A,115.47694,38.76408,保定市,清苑区第二中学,,48,36,47,11,22,152,,122,122,5,34,1,2,0.3,0.3
2024-09-23T1700,3583A,115.62909,39.02311,保定市,徐水物探局,,46,24,39,7,16,147,,111,111,12,31,4,3,0.4,0.4
2024-09-23T1700,4004A,115.4202,38.8656,保定市,双鹰农机,,49,39,55,13,25,154,,114,114,16,39,3,2,0.3,0.3
2024-09-23T1700,4034A,115.5150,38.8590,保定市,植保所站,臭氧1小时,52,35,45,21,24,161,,126,126,8,31,4,4,0.1,0.2
2024-09-23T1700,2594A,99.1678,25.1081,保山市,市环境监测站,,30,27,29,11,14,96,,89,89,7,9,7,7,0.5,0.5
2024-09-23T1700,2595A,99.1711,25.1328,保山市,市环保局,,32,32,30,10,13,99,,95,95,5,6,5,6,0.4,0.4
2024-09-23T1700,1867A,109.1436,21.4086,北海市,海滩公园,,34,34,23,15,11,91,,87,87,8,8,6,6,0.5,0.5
2024-09-23T1700,1868A,109.0981,21.4661,北海市,新市环保局,,32,30,25,22,15,102,,100,100,9,7,5,4,0.6,0.7
2024-09-23T1700,1869A,109.1778,21.5233,北海市,北海工业园,,32,26,26,22,16,95,,90,90,10,9,6,7,0.6,0.5
2024-09-23T1700,3400A,109.1911,21.4415,北海市,龙潭自来水厂,,29,25,21,20,14,87,,85,85,6,6,5,5,0.6,0.6
2024-09-23T1700,1001A,116.3621,39.8784,北京市,万寿西宫,,49,49,33,24,14,120,,92,92,19,33,2,2,0.4,0.4
2024-09-23T1700,1002A,116.2202,40.2915,北京市,定陵,,38,38,16,20,11,113,,78,78,16,9,3,2,0.4,0.2
2024-09-23T1700,1003A,116.4174,39.9289,北京市,东四,,45,45,34,20,16,127,,93,93,14,30,5,5,0.5,0.5
2024-09-23T1700,1004A,116.4072,39.8863,北京市,天坛,,37,37,26,18,14,117,,87,87,17,26,1,2,0.4,0.3
2024-09-23T1700,1005A,116.462,39.9365,北京市,农展馆,,43,43,36,19,15,112,,80,80,17,34,2,3,0.3,0.4
2024-09-23T1700,1006A,116.3392,39.9295,北京市,官园,,45,45,34,20,16,122,,88,88,15,29,6,6,0.4,0.4
2024-09-23T1700,1007A,116.2878,39.9611,北京市,海淀万柳,,37,37,32,15,12,118,,85,85,14,32,4,3,0.3,0.3
2024-09-23T1700,1008A,116.6636,40.135,北京市,顺义新城,,40,40,31,18,15,115,,83,83,18,26,1,2,0.3,0.3
2024-09-23T1700,1009A,116.6275,40.3275,北京市,怀柔镇,,43,43,19,26,11,118,,93,93,25,12,1,2,0.5,0.3
2024-09-23T1700,1010A,116.2296,40.217,北京市,昌平镇,,38,35,22,13,9,119,,77,77,14,15,4,4,0.3,0.3
2024-09-23T1700,1011A,116.3966,39.9821,北京市,奥体中心,,43,43,28,15,13,109,,82,82,17,30,2,2,0.4,0.4
2024-09-23T1700,1012A,116.184,39.9136,北京市,古城,颗粒物(PM10),55,60,35,20,14,119,,85,85,14,31,3,3,0.4,0.3
2024-09-23T1700,3281A,115.9718,40.4529,北京市,延庆夏都,,30,30,19,17,9,93,,68,68,15,11,1,2,0.3,0.3
2024-09-23T1700,3417A,117.0709,40.1465,北京市,平谷新城,,42,33,25,17,14,134,,107,107,11,12,1,2,0.4,0.3
2024-09-23T1700,3418A,116.8336,40.4095,北京市,密云新城,颗粒物(PM10),52,54,27,24,10,106,,93,93,29,10,1,3,0.4,0.3
2024-09-23T1700,3671A,116.088,39.9726,北京市,门头沟三家店,,42,42,27,17,10,121,,84,84,11,17,6,6,0.2,0.2
2024-09-23T1700,3672A,116.1541,39.8204,北京市,丰台云岗,,42,42,28,20,11,119,,88,88,12,22,4,3,0.1,0.2
2024-09-23T1700,3673A,116.6804,39.9081,北京市,通州东关,颗粒物(PM10),52,54,53,20,20,130,,89,89,15,39,1,1,0.2,0.3
2024-09-23T1700,3674A,115.9577,39.7603,北京市,房山燕山,,46,46,24,20,9,121,,94,94,13,12,1,2,0.3,0.2
2024-09-23T1700,3675A,116.4672,39.7733,北京市,大兴旧宫,,43,43,33,22,16,137,,92,92,12,26,3,3,0.2,0.3
2024-09-23T1700,3694A,115.986,40.4563,北京市,延庆石河营,,32,32,17,16,11,88,,63,63,13,12,3,3,0.3,0.2
2024-09-23T1700,3695A,116.6151,40.3053,北京市,怀柔新城,,42,42,19,23,10,115,,88,88,23,9,3,3,0.4,0.2
2024-09-23T1700,3696A,116.2545,39.8768,北京市,丰台小屯,,48,48,33,22,13,114,,83,83,13,37,1,2,0.4,0.4
2024-09-23T1700,3697A,116.84,40.3844,北京市,密云镇,颗粒物(PM10),52,53,24,29,11,104,,88,88,27,25,3,2,0.3,0.2
2024-09-23T1700,1761A,123.8275,41.3064,本溪市,大峪,,26,19,27,11,9,82,,75,75,14,19,10,9,0.6,0.8
2024-09-23T1700,1762A,123.7567,41.3325,本溪市,溪湖,,31,31,59,6,14,86,,70,70,11,28,10,9,0.7,1
2024-09-23T1700,1763A,123.7169,41.3094,本溪市,彩屯,,23,23,31,10,14,69,,66,66,23,32,9,11,0.5,1.1
2024-09-23T1700,1764A,123.7669,41.2864,本溪市,东明,,35,35,35,10,13,79,,73,73,24,33,9,7,1.0,0.8
2024-09-23T1700,1765A,123.7992,41.2664,本溪市,新立屯,,41,41,21,3,4,35,,68,68,52,28,5,5,0.8,0.8
2024-09-23T1700,1766A,123.8142,41.3472,本溪市,威宁,,36,36,36,11,13,72,,70,70,30,24,11,9,1.3,1
2024-09-23T1700,2587A,105.2864,27.3125,毕节市,八中,,34,29,29,22,22,108,,105,105,8,9,5,6,0.4,0.4
2024-09-23T1700,2588A,105.31,27.2944,毕节市,师专,,35,34,29,19,19,109,,111,111,8,10,8,7,0.5,0.5
2024-09-23T1700,3537A,105.3631,27.3533,毕节市,长征村,细颗粒物(PM2.5),53,46,35,37,27,108,,112,112,6,6,7,7,0.6,0.6
2024-09-23T1700,1629A,118.0018,37.3617,滨州市,第二水厂,,49,27,26,7,9,156,,127,127,14,26,11,8,0.4,0.3
2024-09-23T1700,1630A,117.9776,37.393,滨州市,北中新校,,50,24,25,7,9,159,,129,129,8,16,12,9,0.5,0.5
2024-09-23T1700,3514A,117.9378,37.3956,滨州市,中海酒店,臭氧1小时,55,27,27,17,16,164,,126,126,14,27,11,9,0.5,0.5
2024-09-23T1700,3515A,117.9378,37.3553,滨州市,开发区一中,臭氧1小时,62,27,29,14,13,169,,128,128,13,31,14,12,0.6,0.5
2024-09-23T1700,3516A,118.0917,37.694,滨州市,金海六路,臭氧1小时,60,37,28,12,10,168,,127,127,10,36,10,9,0.6,0.6
2024-09-23T1700,4028A,117.9956,37.3753,滨州市,滨州市西街道办事处,臭氧1小时,57,19,22,9,14,165,,134,134,13,24,12,9,0.6,0.6
2024-09-23T1700,2311A,115.8072,33.8399,亳州市,污水处理厂,,45,32,41,12,19,141,,120,120,14,21,5,6,0.2,0.3
2024-09-23T1700,2312A,115.7789,33.8518,亳州市,三国揽胜宫,,43,31,33,19,24,136,,114,114,11,14,4,5,0.3,0.4
2024-09-23T1700,3332A,115.7633,33.8034,亳州市,亳州学院,,46,38,40,19,26,147,,122,122,11,15,4,5,0.3,0.3
2024-09-23T1700,2693A,82.0485,44.8556,博尔塔拉蒙古自治州,市党校,,44,44,63,25,26,133,,100,100,6,10,7,9,0.4,0.5
2024-09-23T1700,2694A,82.0806,44.8969,博尔塔拉蒙古自治州,市环保局,,,40,62,16,20,,,84,84,7,18,5,8,0.6,0.5
2024-09-23T1700,1071A,116.8842,38.2991,沧州市,沧县城建局,,44,32,33,14,15,140,,119,119,14,27,2,3,0.3,0.4
2024-09-23T1700,1072A,116.8584,38.3254,沧州市,电视转播站,,49,22,26,9,13,156,,132,132,14,27,4,7,0.3,0.4
2024-09-23T1700,1073A,116.8709,38.3228,沧州市,市环保局,,47,26,33,15,19,149,,125,125,11,23,3,5,0.2,0.3
2024-09-23T1700,3324A,116.8136,38.3004,沧州市,河北水利电力学院,,49,24,30,14,20,155,,129,129,13,27,4,5,0.4,0.4
2024-09-23T1700,2622A,97.1806,31.1273,昌都市,昌都监测站,,26,,10,7,7,82,,68,68,2,7,7,7,0.4,0.5
2024-09-23T1700,3719A,97.1714,31.1406,昌都市,昌都会议中心,,26,9,6,3,4,83,,76,76,4,3,8,8,0.4,0.4
2024-09-23T1700,2690A,88.1236,43.8886,昌吉回族自治州,天山天池,,32,8,26,3,10,100,,86,85,6,6,27,25,0.5,0.5
2024-09-23T1700,2692A,87.2717,44.0297,昌吉回族自治州,新区政务中心,,40,24,63,12,27,126,,88,88,9,31,7,9,0.6,0.8
2024-09-23T1700,3613A,87.3095,44.0142,昌吉回族自治州,亚心广场,,41,34,74,3,19,129,,94,94,11,40,5,7,0.5,0.8
2024-09-23T1700,1119A,125.3325,43.9166,长春市,食品厂,,26,20,48,6,21,82,,71,71,16,41,4,5,0.2,0.5
2024-09-23T1700,1120A,125.2863,43.9027,长春市,客车厂,,24,20,38,9,16,76,,73,73,18,41,6,7,0.2,0.4
2024-09-23T1700,1121A,125.2841,43.8463,长春市,邮电学院,,27,16,30,6,13,84,,73,73,11,26,6,6,0.2,0.3
2024-09-23T1700,1122A,125.3716,43.8772,长春市,劳动公园,,28,6,53,3,21,88,,78,78,13,35,8,9,0.1,0.4
2024-09-23T1700,1123A,125.3297,43.8805,长春市,园林处,,28,18,40,12,18,89,,74,74,12,40,5,5,0.2,0.4
2024-09-23T1700,1124A,125.4605,43.79,长春市,净月潭,,26,8,13,3,6,81,,75,75,7,7,6,6,0.3,0.3
2024-09-23T1700,1126A,125.3863,43.8447,长春市,经开区环卫处,,25,12,34,3,11,80,,74,74,15,33,8,8,0.3,0.4
2024-09-23T1700,1127A,125.245,43.7783,长春市,高新区管委会,,26,8,31,3,14,81,,78,78,9,28,5,6,0.3,0.4
2024-09-23T1700,1128A,125.1761,43.8325,长春市,岱山公园,,24,15,42,10,16,76,,77,77,13,36,4,5,0.3,0.4
2024-09-23T1700,1335A,113.0833,28.2325,长沙市,经开区环保局,臭氧1小时,53,40,42,19,15,162,,138,138,14,19,2,2,0.3,0.3
2024-09-23T1700,1336A,112.8872,28.2189,长沙市,高开区环保局,,47,39,43,20,17,150,,133,133,6,10,5,6,0.3,0.3
2024-09-23T1700,1337A,113.0792,28.2053,长沙市,马坡岭,臭氧1小时,62,48,42,23,16,169,,147,147,15,17,6,6,0.5,0.5
2024-09-23T1700,1338A,112.9394,28.19,长沙市,湖南师范大学,,50,41,48,16,20,157,,138,138,8,13,5,6,0.3,0.3
2024-09-23T1700,1339A,113.0178,28.1322,长沙市,雨花区环保局,,49,45,41,18,16,155,,135,135,16,17,7,7,0.4,0.4
2024-09-23T1700,1340A,112.9792,28.2597,长沙市,伍家岭,,49,38,45,15,14,154,,134,134,7,14,4,5,0.7,0.6
2024-09-23T1700,1341A,113.0014,28.1944,长沙市,火车新站,颗粒物(PM10),54,58,46,22,20,149,,130,130,9,15,5,6,0.5,0.4
2024-09-23T1700,1342A,112.9844,28.1178,长沙市,天心区环保局,颗粒物(PM10),51,52,47,14,17,146,,134,134,13,14,4,4,0.5,0.2
2024-09-23T1700,1343A,112.8908,28.1308,长沙市,湖南中医药大学,,50,50,54,18,18,156,,144,144,10,13,7,8,0.6,0.6
2024-09-23T1700,1344A,112.9581,28.3611,长沙市,沙坪,臭氧1小时,53,36,40,11,19,162,,138,138,10,12,10,10,0.1,0.2
2024-09-23T1700,1727A,113.1147,36.1547,长治市,清华站,,47,33,39,27,24,149,,123,123,12,21,10,9,0.6,0.7
2024-09-23T1700,1728A,113.1031,36.1989,长治市,监测站,,45,27,44,17,25,142,,116,116,16,25,12,12,0.4,0.8
2024-09-23T1700,1730A,113.0886,36.2125,长治市,审计局,,45,30,39,24,29,143,,115,115,15,24,9,9,0.2,0.5
2024-09-23T1700,1731A,113.0844,36.1856,长治市,长治八中,,46,36,50,26,22,145,,124,124,14,22,9,9,0.6,0.8
2024-09-23T1700,2845A,113.1569,36.1911,长治市,德盛苑,,49,33,34,24,22,154,,126,126,12,14,7,6,0.6,0.9
2024-09-23T1700,3568A,113.06,36.0464,长治市,向阳小学,,48,48,52,26,33,142,,128,128,12,17,10,9,0.3,0.3
2024-09-23T1700,3569A,112.8792,36.3144,长治市,屯留一中,,46,39,57,28,37,146,,124,124,10,24,9,12,0.9,1.1
2024-09-23T1700,3570A,113.235,36.3489,长治市,潞城四中,臭氧1小时,54,45,47,31,29,163,,142,142,10,20,6,6,0.4,0.9
2024-09-23T1700,1854A,111.6975,28.9703,常德市,市二中,臭氧1小时,55,44,52,32,32,164,,146,146,12,13,10,13,0.5,0.5
2024-09-23T1700,3138A,111.7153,29.0289,常德市,武陵区永安,臭氧1小时,62,45,49,28,27,169,,146,146,12,13,11,13,0.5,0.5
2024-09-23T1700,3139A,111.6892,28.9881,常德市,鼎城区玉霞,臭氧1小时,64,46,52,24,27,171,,150,150,11,12,11,14,0.5,0.6
2024-09-23T1700,3140A,111.6625,29.0531,常德市,武陵区长庚,臭氧1小时,60,42,51,22,28,168,,145,145,13,14,11,12,0.3,0.4
2024-09-23T1700,1196A,119.9633,31.762,常州市,市监测站,,35,31,35,11,12,112,,107,107,6,13,7,8,0.3,0.3
2024-09-23T1700,1200A,119.9468,31.7069,常州市,武进监测站,,38,23,26,8,10,119,,113,113,6,13,8,10,0.5,0.5
2024-09-23T1700,1201A,119.9255,31.9087,常州市,安家,,34,25,29,13,13,106,,106,106,16,28,8,9,0.3,0.3
2024-09-23T1700,3002A,119.9805,31.8174,常州市,行政中心,,35,21,23,10,10,111,,108,108,9,16,9,3,0.4,0.3
2024-09-23T1700,3003A,120.0522,31.7748,常州市,经开区,,36,23,25,9,9,114,,114,114,11,18,9,10,0.3,0.3
2024-09-23T1700,3010A,119.9025,31.7964,常州市,钟楼,,34,27,28,14,12,107,,102,102,10,22,8,9,0.3,0.4
2024-09-23T1700,3429A,119.8598,31.7066,常州市,武进经发区,,33,26,31,12,14,103,,110,110,18,19,7,10,0.5,0.5
2024-09-23T1700,3430A,119.5826,31.7245,常州市,金坛城区,,41,21,29,9,13,130,,122,122,15,20,7,9,0.5,0.5
2024-09-23T1700,2220A,120.4318,41.5881,朝阳市,西梁,,31,14,40,6,18,99,,80,80,10,21,5,6,0.4,0.6
2024-09-23T1700,2221A,120.4521,41.5646,朝阳市,河畔小区,,33,16,26,10,11,103,,86,86,5,14,8,8,0.5,0.6
2024-09-23T1700,2222A,120.4176,41.5648,朝阳市,八里堡,,32,29,39,12,15,102,,84,84,11,25,8,10,0.5,0.8
2024-09-23T1700,2223A,120.3806,41.5969,朝阳市,农业园区,,30,23,25,11,15,95,,84,84,12,16,8,9,0.4,0.5
2024-09-23T1700,1705A,116.6367,23.6719,潮州市,西园路,,17,17,10,3,3,47,,45,45,12,7,3,3,0.6,0.6
2024-09-23T1700,3026A,116.6183,23.6608,潮州市,市政府,,22,22,11,8,5,58,,61,61,11,9,4,4,0.8,0.9
2024-09-23T1700,4036A,116.6461,23.6761,潮州市,金山,,20,13,7,3,9,62,,66,66,7,6,6,6,0.6,0.7
2024-09-23T1700,2472A,113.0073,25.9061,郴州市,马头岭,,45,45,46,10,14,95,,90,90,4,9,8,9,0.7,0.7
2024-09-23T1700,2473A,113.0116,25.8226,郴州市,市职中,,36,36,38,22,25,95,,94,94,14,16,8,5,0.5,0.5
2024-09-23T1700,2474A,113.0161,25.8001,郴州市,兴隆步行街,颗粒物(PM10),51,52,48,30,25,78,,84,84,19,17,12,6,0.6,0.5
2024-09-23T1700,2475A,113.0383,25.8071,郴州市,市审计局,,48,48,40,30,26,74,,80,80,16,15,16,7,0.7,0.7
2024-09-23T1700,2476A,113.0348,25.7759,郴州市,市环保局,,49,49,45,23,25,81,,78,78,11,12,15,8,0.7,0.6
2024-09-23T1700,1431A,103.9728,30.7236,成都市,金泉两河,,34,34,39,3,13,94,,73,73,10,17,3,5,0.5,0.5
2024-09-23T1700,1432A,104.176,30.6872,成都市,十里店,"颗粒物(PM10),细颗粒物(PM2.5)",54,58,32,38,14,143,,88,88,12,21,3,2,0.5,0.5
2024-09-23T1700,1433A,104.079,30.5706,成都市,三瓦窑,,43,34,34,18,22,137,,95,95,20,15,3,4,0.5,0.5
2024-09-23T1700,1434A,104.1114,30.63,成都市,沙河铺,,40,24,37,9,17,125,,91,91,11,18,3,3,0.6,0.6
2024-09-23T1700,1437A,104.0786,30.6531,成都市,君平街,,39,32,35,10,20,124,,87,87,15,17,3,3,0.5,0.5
2024-09-23T1700,2880A,104.0239,30.65639,成都市,大石西路,,36,30,37,7,17,114,,81,81,16,18,5,6,0.8,0.8
2024-09-23T1700,3136A,104.2725,30.5589,成都市,龙泉驿区区政府,,41,24,26,9,16,130,,95,95,15,14,4,5,0.5,0.5
2024-09-23T1700,3357A,104.0106,30.6931,成都市,金博路,,32,24,31,10,15,101,,76,76,12,16,2,3,0.4,0.5
2024-09-23T1700,3359A,104.0578,30.5225,成都市,华阳,,41,41,37,14,19,128,,88,88,17,15,4,4,0.5,0.5
2024-09-23T1700,3487A,104.2394,30.5319,成都市,车城东七路,,44,28,35,17,22,138,,98,98,12,14,3,3,0.5,0.5
2024-09-23T1700,3488A,104.3853,30.7453,成都市,青白江技师分院,臭氧1小时,73,37,25,18,13,178,,115,115,13,18,3,3,0.5,0.6
2024-09-23T1700,3489A,104.0789,30.4072,成都市,科学城,,45,44,40,31,29,130,,89,89,19,14,4,4,0.6,0.5
2024-09-23T1700,4011A,103.8506,30.6947,成都市,光华大道三段,,35,27,48,10,26,110,,78,78,5,19,2,4,0.5,0.6
2024-09-23T1700,1062A,117.9531,40.9081,承德市,铁路,,30,13,20,3,7,93,,69,69,24,20,10,9,0.4,0.3
2024-09-23T1700,1063A,117.9392,40.9763,承德市,中国银行,,32,16,20,13,8,101,,78,78,12,16,7,6,0.4,0.4
2024-09-23T1700,1064A,117.9503,40.928,承德市,开发区,,31,26,26,10,11,99,,74,74,14,19,10,8,0.3,0.3
2024-09-23T1700,1065A,117.8051,40.9655,承德市,文化中心,,32,25,31,8,7,102,,73,73,9,23,13,13,0.3,0.5
2024-09-23T1700,1066A,117.9268,41.0026,承德市,离宫,,25,25,17,15,16,51,,59,59,5,13,2,3,0.4,0.4
2024-09-23T1700,2314A,117.47,30.6618,池州市,池州学院,,50,34,36,15,16,157,,127,127,12,19,8,10,0.6,0.6
2024-09-23T1700,3237A,117.4918,30.6617,池州市,展览馆,,49,31,35,14,15,154,,128,128,10,16,7,7,0.7,0.7
2024-09-23T1700,3333A,117.5627,30.695,池州市,第八中学,,48,33,35,14,14,152,,129,129,16,19,6,6,0.7,0.8
2024-09-23T1700,3334A,117.5038,30.6243,池州市,第十二中学,,48,43,33,15,14,151,,129,129,20,18,6,6,0.7,0.8
2024-09-23T1700,1744A,118.9233,42.2816,赤峰市,松山一中,,27,7,23,3,8,86,,71,71,19,27,9,10,0.3,0.4
2024-09-23T1700,1745A,118.9576,42.2728,赤峰市,哈达街,,30,12,18,3,8,94,,80,80,13,17,7,8,0.3,0.4
2024-09-23T1700,1746A,118.8788,42.2554,赤峰市,天义路,,,,18,15,10,88,,83,83,15,22,6,11,0.3,0.1
2024-09-23T1700,3058A,119.2658,42.0353,赤峰市,银河街,,30,18,41,10,19,95,,79,79,13,20,13,17,0.3,0.6
2024-09-23T1700,3286A,118.9359,42.3147,赤峰市,桥北物流园区,,29,13,28,10,12,90,,79,79,17,24,7,9,0.4,0.6
2024-09-23T1700,2521A,107.3476,22.4136,崇左市,市环保局江州分局,,33,18,24,10,11,105,,98,98,6,4,3,3,0.6,0.6
2024-09-23T1700,2522A,107.3702,22.3707,崇左市,城南新区,,38,18,20,11,10,121,,110,110,7,6,4,4,0.7,0.6
2024-09-23T1700,2298A,118.3093,32.3153,滁州市,老年大学,,40,26,30,11,16,128,,122,122,8,14,1,2,0.2,0.3
2024-09-23T1700,2299A,118.3244,32.2786,滁州市,人大宾馆,,39,27,35,9,14,124,,119,119,9,13,6,7,0.3,0.4
2024-09-23T1700,3207A,118.3118,32.3038,滁州市,市政府原办公楼,,39,21,30,12,18,122,,117,117,9,15,5,8,0.2,0.3
2024-09-23T1700,3331A,118.3267,32.2634,滁州市,图书馆,,39,24,35,3,12,122,,118,118,6,16,4,5,0.2,0.3
2024-09-23T1700,2605A,101.5482,25.0441,楚雄彝族自治州,州环境监测站,,32,20,19,13,14,100,,88,88,5,12,9,11,0.7,0.7
2024-09-23T1700,2606A,101.538,25.0492,楚雄彝族自治州,市经济开发区,,31,,22,18,16,98,,86,86,6,14,6,22,0.7,0.7
2024-09-23T1700,2548A,107.5277,31.2827,达州市,达州职业技术学院,,39,36,30,16,12,124,,97,97,12,24,7,8,0.6,0.5
2024-09-23T1700,2549A,107.5086,31.2186,达州市,市环境监测站,,40,29,30,9,9,128,,100,100,18,24,6,8,0.4,0.4
2024-09-23T1700,2550A,107.4988,31.2132,达州市,凤凰小区,,45,19,24,7,11,143,,110,110,11,22,7,10,0.4,0.4
2024-09-23T1700,2551A,107.5082,31.1986,达州市,达县机关宾馆,,41,27,25,16,12,131,,104,104,19,29,5,7,0.3,0.3
2024-09-23T1700,2552A,107.4644,31.2124,达州市,市政中心,,47,36,31,12,12,149,,113,113,14,19,13,10,0.5,0.3
2024-09-23T1700,2614A,100.1542,25.7054,大理白族自治州,大理市环境监测站,,33,22,28,11,17,104,,97,97,4,18,7,8,0.5,0.6
2024-09-23T1700,2615A,100.2171,25.5811,大理白族自治州,大理古城,,32,13,19,3,12,101,,94,94,5,9,7,8,0.2,0.3
2024-09-23T1700,1109A,121.612,38.9741,大连市,甘井子,,34,25,30,8,14,108,,100,100,22,27,8,9,0.6,0.6
2024-09-23T1700,1110A,121.565,38.9511,大连市,周水子,,33,24,25,10,13,105,,84,84,25,36,8,8,0.8,0.8
2024-09-23T1700,1111A,121.5637,38.8845,大连市,星海三站,,40,19,23,6,11,125,,102,102,8,14,7,7,0.3,0.3
2024-09-23T1700,1112A,121.6302,38.9117,大连市,青泥洼桥,,38,12,31,6,14,121,,93,93,10,30,7,8,0.2,0.2
2024-09-23T1700,1113A,121.6251,38.8638,大连市,傅家庄,,48,48,52,6,12,122,,59,,8,20,8,9,0.3,0.3
2024-09-23T1700,1114A,121.5213,38.8661,大连市,七贤岭,,41,18,24,6,11,130,,111,111,12,15,7,7,0.6,0.6
2024-09-23T1700,1115A,121.2529,38.8061,大连市,旅顺,,40,23,20,11,10,127,,117,117,12,14,7,12,0.4,0.4
2024-09-23T1700,1116A,121.7485,39.1311,大连市,金州,,34,27,25,10,14,106,,90,90,20,20,5,7,0.6,0.6
2024-09-23T1700,1117A,121.7811,39.0496,大连市,开发区,,35,20,25,6,11,111,,99,99,12,19,3,5,0.5,0.5
2024-09-23T1700,1118A,121.9762,39.0631,大连市,双D港,,31,6,22,3,10,98,,96,96,10,13,7,10,0.5,0.6
2024-09-23T1700,1789A,124.81117,46.03138,大庆市,大同区,,40,40,36,13,15,81,,77,77,12,10,4,3,0.7,0.7
2024-09-23T1700,1790A,125.129,46.533,大庆市,龙凤区,颗粒物(PM10),56,62,56,18,16,75,,75,75,20,14,7,4,0.4,0.4
2024-09-23T1700,1791A,124.902,46.408,大庆市,红岗区,颗粒物(PM10),64,77,35,11,16,89,,79,79,9,13,6,6,0.3,0.4
2024-09-23T1700,1792A,125.153,46.586,大庆市,萨尔图区,,36,36,35,6,12,80,,74,74,13,16,6,6,0.3,0.3
2024-09-23T1700,1793A,124.9042,46.6215,大庆市,让胡路区,,37,37,26,15,19,82,,78,78,13,15,4,4,0.2,0.2
2024-09-23T1700,3481A,125.141,46.634,大庆市,萨区政府监测点,,33,33,26,13,11,90,,80,80,7,13,6,7,0.4,0.5
2024-09-23T1700,1721A,113.3819,40.1097,大同市,果树场,颗粒物(PM10),59,67,50,29,28,110,,80,80,19,23,10,11,0.6,0.7
2024-09-23T1700,1723A,113.2994,40.0758,大同市,云冈宾馆,颗粒物(PM10),55,60,53,16,18,122,,92,92,26,36,14,11,0.5,0.8
2024-09-23T1700,1724A,113.3444,40.0917,大同市,大同大学,颗粒物(PM10),53,55,40,23,16,126,,87,87,18,30,14,14,0.6,0.6
2024-09-23T1700,1725A,113.2661,40.1269,大同市,安家小村,颗粒物(PM10),54,58,54,22,18,121,,88,88,24,36,18,14,0.6,1.1
2024-09-23T1700,1726A,113.2711,40.0844,大同市,教育学院,颗粒物(PM10),59,67,65,26,25,120,,82,82,26,46,14,11,0.5,1.2
2024-09-23T1700,3282A,113.3397,40.0597,大同市,大同市卫生学校,颗粒物(PM10),53,56,46,20,17,130,,85,85,15,31,14,11,0.5,0.6
2024-09-23T1700,3565A,113.1367,40.1122,大同市,云冈站,颗粒物(PM10),66,82,75,30,26,114,,82,82,30,28,16,14,0.6,0.7
2024-09-23T1700,3566A,113.1186,40.2556,大同市,图书馆,颗粒物(PM10),57,64,46,30,22,120,,91,91,22,20,16,14,0.5,0.5
2024-09-23T1700,3567A,113.5931,40.0461,大同市,区一中,,43,42,26,12,9,136,,100,100,13,14,20,15,0.6,0.5
2024-09-23T1700,3676A,113.2802,40.0995,大同市,第二人民医院,颗粒物(PM10),56,62,61,20,21,124,,88,88,20,35,16,14,0.5,1
2024-09-23T1700,2269A,124.1069,50.4097,大兴安岭地区,科技局,,26,21,21,13,16,82,,66,66,4,7,5,6,0.3,0.3
2024-09-23T1700,3663A,124.1164,50.4278,大兴安岭地区,红旗社区,,25,9,23,3,12,78,,63,63,6,18,2,2,0.3,0.4
2024-09-23T1700,1600A,124.3303,40.0625,丹东市,江湾东路,,20,20,16,12,7,61,,61,61,13,11,11,10,0.5,0.6
2024-09-23T1700,1601A,124.4256,40.1503,丹东市,临江后街,,32,32,17,12,6,70,,76,76,12,11,7,7,0.6,0.5
2024-09-23T1700,1602A,124.3933,40.1461,丹东市,元宝山,,20,14,10,6,6,64,,62,62,7,8,4,4,0.6,0.6
2024-09-23T1700,1603A,124.3633,40.1092,丹东市,民主桥,,23,16,14,7,4,72,,67,67,8,13,5,5,0.5,0.5
2024-09-23T1700,3541A,109.5726,19.5167,儋州市,第一中学子站,,24,9,9,3,4,74,,59,59,6,5,5,5,0.6,0.7
2024-09-23T1700,3542A,109.5567,19.5187,儋州市,东坡学校子站,,24,,8,6,4,74,,60,60,6,5,4,4,0.6,0.6
2024-09-23T1700,2616A,98.5842,24.428,德宏傣族景颇族自治州,德宏州监测站,,28,19,32,6,14,88,,76,76,8,14,8,10,0.5,0.6
2024-09-23T1700,3677A,98.5881,24.4368,德宏傣族景颇族自治州,芒市人民政府综合楼,,28,14,22,8,15,88,,80,80,7,12,8,9,0.4,0.6
2024-09-23T1700,1901A,104.4239,31.1208,德阳市,东山公园,,38,23,26,14,15,120,,92,92,12,9,3,3,0.6,0.6
2024-09-23T1700,1902A,104.3826,31.1317,德阳市,西小区,,,26,27,17,16,115,,89,89,14,12,,2,0.4,0.5
2024-09-23T1700,1904A,104.3553,31.1091,德阳市,耐火材料厂,,37,24,24,12,13,118,,89,89,11,11,3,3,0.4,0.5
2024-09-23T1700,3639A,104.4019,31.1244,德阳市,市教育局,,37,26,28,14,15,116,,90,90,12,11,1,2,0.5,0.5
2024-09-23T1700,1622A,116.3032,37.4674,德州市,儿童乐园,,47,39,36,9,12,149,,129,129,12,26,9,11,0.5,0.5
2024-09-23T1700,1624A,116.2991,37.4451,德州市,监理站,,48,31,29,7,11,153,,132,132,12,21,8,8,0.3,0.5
2024-09-23T1700,3066A,116.2721,37.4379,德州市,九衢泉纯净水厂,,46,22,28,9,13,147,,126,126,11,30,7,11,0.3,0.4
2024-09-23T1700,3371A,116.3728,37.4403,德州市,开发区人民医院,,49,27,31,9,13,156,,133,133,10,26,9,12,0.4,0.5
2024-09-23T1700,3372A,116.3572,37.4094,德州市,太阳城中学,,47,27,31,7,13,150,,127,127,15,31,11,13,0.4,0.4
2024-09-23T1700,3511A,116.5652,37.3319,德州市,陵城艺术中心,,41,24,33,7,12,130,,115,115,17,29,10,12,0.5,0.6
2024-09-23T1700,2621A,99.7056,27.8317,迪庆藏族自治州,迪庆州站,,23,19,28,9,14,72,,71,71,14,11,8,13,0.4,0.3
2024-09-23T1700,3180A,99.7136,27.8094,迪庆藏族自治州,质量技术监督局,,27,27,23,12,15,74,,71,71,10,11,6,7,0.3,0.4
2024-09-23T1700,2663A,104.6241,35.5734,定西市,东关小学,,35,28,40,13,22,110,,98,98,4,15,7,6,0.3,0.3
2024-09-23T1700,2664A,104.6194,35.5934,定西市,供电公司,,35,29,44,15,27,110,,96,96,2,17,8,7,0.2,0.2
2024-09-23T1700,1389A,113.7547,23.0494,东莞市,莞城梨川,,17,12,16,6,9,52,,58,58,14,10,6,6,0.7,0.7
2024-09-23T1700,1390A,113.7944,23.0128,东莞市,东城石井,,16,13,16,7,8,49,,55,55,17,13,4,4,0.7,0.7
2024-09-23T1700,1391A,113.7383,22.9658,东莞市,南城西平,,15,14,16,8,8,46,,54,54,23,18,6,5,0.8,0.8
2024-09-23T1700,3319A,113.7338,23.0381,东莞市,万江金泰,,17,13,17,6,8,52,,58,58,13,9,7,6,0.5,0.5
2024-09-23T1700,3626A,113.7533,23.0202,东莞市,南城元岭,,18,10,15,6,7,55,,62,62,12,6,6,6,0.7,0.7
2024-09-23T1700,3627A,113.7875,23.0457,东莞市,东城主山,,17,13,14,7,9,52,,59,59,17,13,6,6,0.6,0.6
2024-09-23T1700,1666A,118.6614,37.4309,东营市,市环保局,,50,27,20,7,4,157,,140,140,10,19,8,10,0.3,0.2
2024-09-23T1700,3036A,118.6904,37.4338,东营市,开发区管委会,,48,34,26,14,10,152,,134,134,10,15,8,7,0.4,0.2
2024-09-23T1700,3365A,118.5719,37.565,东营市,垦利区民丰路,,40,22,18,12,8,127,,110,110,11,20,7,7,0.3,0.2
2024-09-23T1700,3498A,118.5055,37.8612,东营市,河口城区,,50,41,25,20,10,160,,122,122,14,18,9,9,0.4,0.3
2024-09-23T1700,3646A,118.4978,37.4623,东营市,胜利站,,45,29,25,7,9,141,,129,129,10,17,9,10,0.4,0.3
2024-09-23T1700,3734A,118.35,37.26,东营市,理想之城,,45,29,22,9,11,144,,131,131,12,23,8,6,0.2,0.2
2024-09-23T1700,1591A,110.0023,39.8129,鄂尔多斯市,综合楼,,50,31,58,7,17,160,,120,120,14,31,12,16,0.5,0.6
2024-09-23T1700,1592A,109.9486,39.8261,鄂尔多斯市,巴音孟克林场办事处,,48,27,50,9,19,152,,117,117,14,30,8,10,0.4,0.5
2024-09-23T1700,1593A,109.7736,39.5986,鄂尔多斯市,康泽苑,,49,29,39,12,15,155,,118,118,14,29,9,8,0.4,0.5
2024-09-23T1700,1594A,109.8119,39.5989,鄂尔多斯市,华泰汽车城,,47,22,40,14,18,150,,112,112,9,30,9,9,0.4,0.6
2024-09-23T1700,1595A,109.9734,39.7884,鄂尔多斯市,奥林花园,,45,29,59,12,20,143,,111,111,11,39,5,6,0.4,0.6
2024-09-23T1700,2436A,114.8938,30.3994,鄂州市,市政府,,47,24,25,12,11,148,,139,139,15,14,12,12,0.9,0.8
2024-09-23T1700,2437A,114.8989,30.3714,鄂州市,赵家坝,,50,25,28,13,10,158,,143,143,16,15,11,10,0.7,0.6
2024-09-23T1700,3654A,114.8094,30.4089,鄂州市,精准医疗中心,,48,20,33,8,10,152,,140,140,10,14,5,9,0.5,0.5
2024-09-23T1700,2454A,109.4978,30.2981,恩施土家族苗族自治州,湖北民院,,45,23,25,12,19,142,,126,126,7,12,9,9,0.7,0.7
2024-09-23T1700,2455A,109.4707,30.2798,恩施土家族苗族自治州,州电力总公司,,42,28,26,13,17,132,,120,120,17,17,9,8,0.7,0.8
2024-09-23T1700,3549A,109.5061,30.3772,恩施土家族苗族自治州,龙凤新区,,44,28,27,19,17,139,,122,122,12,10,6,6,0.8,0.8
2024-09-23T1700,2499A,108.3411,21.6158,防城港市,沙万,,40,39,25,28,18,103,,96,96,9,9,8,8,0.7,0.6
2024-09-23T1700,2500A,108.3514,21.7731,防城港市,防城档案局,,37,37,36,15,16,98,,89,89,11,13,8,8,0.6,0.6
2024-09-23T1700,2501A,108.3506,21.6414,防城港市,大海花园,,39,39,25,14,11,100,,92,92,8,8,6,7,0.7,0.7
2024-09-23T1700,1371A,113.1294,23.0067,佛山市,湾梁,,18,12,22,3,7,55,,87,70,27,17,6,6,0.7,0.7
2024-09-23T1700,1372A,113.1083,23.0478,佛山市,华材职中,,16,,23,10,9,50,,81,64,28,19,6,7,0.5,0.5
2024-09-23T1700,1373A,113.144,23.0453,佛山市,南海气象局,,16,16,26,10,9,46,,82,61,25,12,6,6,0.5,0.6
2024-09-23T1700,1374A,113.2881,22.8094,佛山市,顺德苏岗,,14,14,18,7,9,43,,58,55,22,16,6,7,0.7,0.7
2024-09-23T1700,1376A,112.8383,22.8678,佛山市,高明孔堂,,20,,23,11,10,64,,72,72,20,14,4,6,0.4,0.4
2024-09-23T1700,1377A,112.8836,23.1588,佛山市,三水监测站,,22,7,15,7,4,69,,77,77,18,15,6,7,0.6,0.5
2024-09-23T1700,1378A,112.867,23.185,佛山市,三水云东海,,23,18,19,12,12,71,,77,77,17,14,6,7,0.6,0.6
2024-09-23T1700,3625A,113.2544,22.7642,佛山市,容桂街道办,,15,,13,7,12,46,,63,61,25,17,6,6,0.8,0.7
2024-09-23T1700,1282A,119.2681,26.0504,福州市,师大,,19,16,7,3,2,60,,68,67,15,9,2,2,0.7,0.6
2024-09-23T1700,1283A,119.2984,26.1028,福州市,五四北路,,23,14,7,3,1,72,,73,73,12,8,3,3,0.6,0.6
2024-09-23T1700,1284A,119.2648,26.0768,福州市,杨桥西路,,22,13,8,3,1,69,,72,72,13,8,3,3,0.7,0.7
2024-09-23T1700,1285A,119.317,26.0746,福州市,紫阳,,17,15,9,3,3,52,,60,60,25,15,3,3,0.3,0.2
2024-09-23T1700,3048A,119.5799,26.0936,福州市,九龙,,20,14,10,3,1,62,,66,65,6,6,6,6,0.6,0.6
2024-09-23T1700,3526A,119.5189,25.9664,福州市,吴航,,24,11,6,9,5,74,,78,78,10,6,6,6,0.5,0.5
2024-09-23T1700,1755A,123.7977,41.8491,抚顺市,望花区,,34,34,51,10,16,104,,76,76,19,25,15,11,0.5,0.6
2024-09-23T1700,1756A,123.9161,41.8822,抚顺市,顺城区,,30,30,33,9,13,90,,76,76,24,24,12,7,0.6,0.6
2024-09-23T1700,1757A,124.0436,41.8611,抚顺市,东洲区,,32,32,26,10,12,89,,78,78,24,16,13,11,0.8,0.5
2024-09-23T1700,1758A,123.9247,41.8642,抚顺市,新抚区,,35,35,39,9,13,95,,78,78,22,26,9,5,0.4,0.3
2024-09-23T1700,1759A,124.0972,41.8961,抚顺市,大伙房水库,,32,32,17,10,10,98,,96,96,13,11,9,6,0.8,0.4
2024-09-23T1700,1760A,123.7086,41.8391,抚顺市,沈抚新城,,39,39,39,12,17,105,,81,81,25,29,13,12,0.3,0.6
2024-09-23T1700,2376A,116.2127,28.0814,抚州市,桐源党溪,,36,36,38,13,14,90,,96,96,6,3,5,6,0.7,0.7
2024-09-23T1700,2377A,116.3544,27.9831,抚州市,市站,,25,23,30,14,14,80,,85,85,10,9,1,2,1.0,1
2024-09-23T1700,2378A,116.3565,27.963,抚州市,血防站,,,26,33,10,14,84,,91,91,,10,3,5,0.7,0.6
2024-09-23T1700,2379A,116.3564,28.0007,抚州市,采茶剧团,,27,22,29,12,14,84,,89,89,4,5,4,5,0.7,0.7
2024-09-23T1700,2380A,116.385,27.9647,抚州市,医学分院,,26,22,31,14,13,81,,88,88,5,6,3,5,0.9,0.9
2024-09-23T1700,2207A,121.6094,41.998,阜新市,工业园区,,49,49,47,11,14,131,,109,109,16,24,19,13,0.6,0.7
2024-09-23T1700,2208A,121.6697,42.0279,阜新市,长青街,,38,38,46,20,18,119,,98,98,15,23,16,12,0.6,0.8
2024-09-23T1700,2209A,121.6673,42.0705,阜新市,农业园区,,50,50,35,19,17,113,,98,98,16,17,13,16,0.4,0.4
2024-09-23T1700,2210A,121.6717,42.0224,阜新市,东苑,,39,39,57,14,22,116,,103,103,16,27,13,19,0.6,0.9
2024-09-23T1700,2211A,121.6506,42.0498,阜新市,玉龙新城,,41,41,42,23,15,129,,110,110,14,24,17,13,0.7,0.9
2024-09-23T1700,2301A,115.8277,32.8929,阜阳市,市监测站,,44,28,41,19,23,140,,126,126,13,18,8,8,0.3,0.4
2024-09-23T1700,2303A,115.8554,32.8605,阜阳市,开发区,,49,49,47,15,23,142,,126,126,14,21,8,8,0.6,0.6
2024-09-23T1700,2875A,115.784,32.8892,阜阳市,阜阳职业技术学院,,46,35,42,13,21,145,,130,130,12,18,8,8,0.4,0.4
2024-09-23T1700,3468A,115.7901,32.8613,阜阳市,市规划展馆,,46,20,39,11,23,147,,130,130,14,19,8,9,0.3,0.3
2024-09-23T1700,3469A,115.836,32.9183,阜阳市,枣园社区,,46,36,44,12,24,146,,127,127,13,24,8,10,0.5,0.5
2024-09-23T1700,2669A,102.9099,34.9841,甘南藏族自治州,州政府,,35,18,29,14,21,109,,87,87,2,13,12,10,0.3,0.4
2024-09-23T1700,3380A,102.8914,34.9617,甘南藏族自治州,甘肃民族师范学院,,33,17,33,3,16,104,,82,82,4,17,4,4,0.5,0.6
2024-09-23T1700,2570A,101.9603,30.0475,甘孜藏族自治州,水桥子,,27,,9,6,5,84,,79,79,7,19,5,5,0.3,0.3
2024-09-23T1700,3065A,101.9533,29.9972,甘孜藏族自治州,州环保局,,25,14,10,8,4,78,,77,77,11,17,3,3,0.3,0.3
2024-09-23T1700,3414A,115.8347,28.932,赣江新区,桑海产业园,,44,44,41,15,13,134,,123,123,12,10,12,12,0.2,0.3
2024-09-23T1700,2362A,114.9017,25.9149,赣州市,通天岩,,29,28,30,18,19,91,,84,84,3,2,7,7,0.5,0.5
2024-09-23T1700,2363A,114.9367,25.8664,赣州市,地委,,33,33,35,21,24,91,,88,86,8,8,8,9,0.8,0.8
2024-09-23T1700,2364A,114.9461,25.8481,赣州市,气象台,,34,34,36,22,21,85,,86,81,10,8,1,4,0.9,0.9
2024-09-23T1700,2365A,114.9322,25.8333,赣州市,市图书馆,,36,36,36,19,19,98,,95,91,6,6,4,4,0.6,0.6
2024-09-23T1700,2366A,114.8905,25.8471,赣州市,华坚鞋城,,37,37,38,22,18,88,,85,83,9,8,2,4,0.4,0.4
2024-09-23T1700,3109A,115.0093,25.8613,赣州市,赣县区卫计委,,32,28,30,22,18,82,,88,78,9,9,5,6,0.6,0.6
2024-09-23T1700,2683A,106.2319,36.1417,固原市,马园,,49,49,41,11,16,119,,105,105,24,33,7,6,0.8,0.8
2024-09-23T1700,2684A,106.2792,36.0022,固原市,监测站,,,40,35,20,22,,,85,85,10,15,4,4,0.2,0.4
2024-09-23T1700,2685A,106.2375,36.0211,固原市,新区,,,40,44,14,20,132,,114,114,11,23,,6,0.4,0.4
2024-09-23T1700,3522A,106.2177,35.9959,固原市,原州区十五小,,43,40,41,21,21,137,,108,108,8,20,6,5,0.6,0.6
2024-09-23T1700,2544A,106.6303,30.4576,广安市,市委,,46,27,26,19,19,145,,118,118,10,11,1,2,0.4,0.4
2024-09-23T1700,2545A,106.6271,30.4663,广安市,友谊中学,,45,26,25,19,18,141,,116,116,15,13,3,3,0.5,0.4
2024-09-23T1700,2547A,106.6388,30.4551,广安市,广电花园,,46,23,28,18,17,146,,117,117,9,11,3,3,0.3,0.4
2024-09-23T1700,2902A,106.6351,30.4865,广安市,北辰小学,,48,33,34,20,19,152,,128,128,8,10,5,4,0.4,0.4
2024-09-23T1700,2523A,105.8945,32.4535,广元市,黑石坡,,39,10,23,8,15,122,,97,97,5,11,7,7,0.3,0.3
2024-09-23T1700,2524A,105.821,32.4444,广元市,老城,,43,23,23,6,12,135,,110,110,4,25,2,2,0.6,0.7
2024-09-23T1700,2526A,105.8628,32.4287,广元市,监测站,,43,20,23,14,16,135,,113,113,6,13,4,2,0.6,0.6
2024-09-23T1700,3617A,105.8047,32.4166,广元市,经开区,,45,30,34,16,21,143,,117,117,8,20,20,6,0.7,0.5
2024-09-23T1700,1345A,113.2347,23.1423,广州市,广雅中学,,16,12,25,6,15,50,,81,66,29,18,5,5,0.7,0.7
2024-09-23T1700,1346A,113.2612,23.105,广州市,市五中,,19,13,27,6,13,58,,87,73,17,11,4,4,0.8,0.7
2024-09-23T1700,1348A,113.3478,23.0916,广州市,广东商学院,,15,8,22,6,14,45,,78,61,20,13,4,4,0.6,0.6
2024-09-23T1700,1349A,113.4332,23.1047,广州市,市八十六中,,14,10,21,6,11,44,,65,61,20,14,3,3,0.6,0.5
2024-09-23T1700,1350A,113.3505,22.9483,广州市,番禺中学,,16,11,22,6,8,49,,66,62,21,15,4,4,0.7,0.6
2024-09-23T1700,1353A,113.5618,23.312,广州市,九龙镇镇龙,,16,9,16,3,11,49,,65,61,13,10,6,6,0.7,0.6
2024-09-23T1700,1354A,113.2765,23.1544,广州市,麓湖,,16,10,24,6,14,50,,68,63,22,19,5,5,0.5,0.5
2024-09-23T1700,1355A,113.443,23.3035,广州市,帽峰山森林公园,,19,6,16,3,11,59,,87,70,8,6,5,6,0.3,0.5
2024-09-23T1700,2846A,113.3221,23.1322,广州市,体育西,,16,12,21,6,10,51,,76,64,16,13,4,4,0.6,0.6
2024-09-23T1700,3298A,113.5717,23.5491,广州市,从化街口,,20,6,15,3,9,62,,86,69,8,7,7,7,0.7,0.6
2024-09-23T1700,3299A,113.3472,23.3692,广州市,白云竹料,,20,8,18,3,12,62,,91,74,10,8,5,5,0.6,0.6
2024-09-23T1700,3300A,113.2981,23.237,广州市,白云嘉禾,,18,12,25,6,13,57,,79,67,24,22,6,6,0.8,0.8
2024-09-23T1700,3301A,113.4256,23.1716,广州市,黄埔科学城,,17,8,23,3,14,52,,76,64,12,8,5,5,0.6,0.8
2024-09-23T1700,3302A,113.3942,23.0483,广州市,番禺大学城,,19,19,21,6,12,35,,62,51,25,14,5,5,0.4,0.5
2024-09-23T1700,3303A,113.4922,22.8168,广州市,南沙黄阁,,20,20,17,11,13,46,,56,55,32,20,8,7,0.6,0.6
2024-09-23T1700,3304A,113.5342,22.7896,广州市,南沙街,,19,19,20,12,13,43,,53,53,28,18,6,7,0.7,0.7
2024-09-23T1700,3443A,113.2902,23.5544,广州市,花都梯面,,20,6,19,3,13,62,,76,67,8,7,5,6,0.6,0.6
2024-09-23T1700,3445A,113.7858,23.7478,广州市,从化良口,,18,6,17,3,7,55,,81,61,6,7,6,6,0.7,0.7
2024-09-23T1700,3446A,113.8051,23.2614,广州市,增城荔城,,20,8,13,3,6,61,,67,64,10,9,5,5,0.7,0.6
2024-09-23T1700,2506A,109.6047,23.0666,贵港市,江南子站,,48,48,31,21,12,127,,118,118,9,8,8,7,0.6,0.6
2024-09-23T1700,2507A,109.6014,23.0948,贵港市,贵城子站,,45,45,30,25,19,125,,115,115,7,8,7,7,0.7,0.6
2024-09-23T1700,2508A,109.5669,23.1065,贵港市,荷城子站,,37,36,33,17,11,118,,111,111,8,7,10,10,0.6,0.5
2024-09-23T1700,3405A,109.5886,23.1172,贵港市,新世纪学校,,39,39,33,23,17,119,,111,111,5,5,7,7,0.9,0.8
2024-09-23T1700,1439A,106.6899,26.5998,贵阳市,马鞍山,,36,22,22,14,8,114,,109,109,9,9,7,8,0.4,0.4
2024-09-23T1700,1440A,106.6971,26.5694,贵阳市,市环保站,,41,27,25,22,17,129,,124,124,8,7,5,5,0.5,0.4
2024-09-23T1700,1441A,106.6243,26.6266,贵阳市,鉴湖路,,35,31,31,22,14,112,,109,109,6,7,8,7,0.4,0.4
2024-09-23T1700,1442A,106.7487,26.6343,贵阳市,燕子冲,,39,22,16,19,16,124,,117,117,5,5,8,6,0.3,0.3
2024-09-23T1700,1443A,106.6555,26.4365,贵阳市,碧云窝,颗粒物(PM10),63,75,48,17,13,127,,121,121,14,13,5,4,0.4,0.3
2024-09-23T1700,1444A,106.694,26.5161,贵阳市,中院村,,39,36,27,22,15,123,,120,120,12,9,6,6,0.4,0.4
2024-09-23T1700,1445A,106.7109,26.6027,贵阳市,红边门,,,29,27,24,21,121,,117,117,,10,,4,0.5,0.5
2024-09-23T1700,1446A,106.7164,26.5699,贵阳市,新华路,,40,29,24,3,14,127,,121,121,9,8,7,5,0.1,0.4
2024-09-23T1700,1447A,106.674,26.5424,贵阳市,太慈桥,,40,24,22,14,11,126,,120,120,8,7,5,5,0.4,0.3
2024-09-23T1700,1862A,110.4144,25.3167,桂林市,电子科大尧山校区,,39,22,32,13,14,122,,122,122,5,7,4,4,0.7,0.7
2024-09-23T1700,1863A,110.2819,25.2697,桂林市,监测站,,41,41,35,14,14,114,,113,113,8,10,7,9,0.5,0.6
2024-09-23T1700,1864A,110.3089,25.2708,桂林市,龙隐路小学,,38,13,31,12,15,119,,120,120,4,6,7,10,0.4,0.4
2024-09-23T1700,1865A,110.2869,25.2178,桂林市,八中,,37,33,34,11,11,117,,120,120,10,9,8,9,0.4,0.5
2024-09-23T1700,3403A,110.1764,25.2381,桂林市,创业大厦,,35,34,38,24,24,109,,107,107,6,7,7,8,0.4,0.4
2024-09-23T1700,3531A,110.296,25.1253,桂林市,旅游学院,,39,27,31,12,14,122,,123,123,4,6,7,7,0.4,0.4
2024-09-23T1700,2674A,100.2561,34.4714,果洛藏族自治州,玛沁县大武镇,,37,25,24,15,14,117,,96,96,1,5,8,8,0.4,0.4
2024-09-23T1700,1129A,126.5422,45.755,哈尔滨市,岭北,,37,20,23,8,12,118,,108,108,14,21,6,7,0.6,0.7
2024-09-23T1700,1130A,126.561,45.8167,哈尔滨市,松北商大,颗粒物(PM10),55,60,42,10,12,86,,82,82,15,36,8,8,0.4,0.4
2024-09-23T1700,1131A,126.979,45.5419,哈尔滨市,阿城会宁,,25,25,35,6,13,76,,80,80,11,22,12,12,0.5,0.5
2024-09-23T1700,1132A,126.599,45.7222,哈尔滨市,南岗学府路,颗粒物(PM10),52,53,63,13,22,83,,86,86,27,39,7,8,0.5,0.6
2024-09-23T1700,1133A,126.689,45.7733,哈尔滨市,太平宏伟公园,,34,34,49,15,15,82,,78,78,25,37,12,9,0.6,0.6
2024-09-23T1700,1134A,126.635,45.7667,哈尔滨市,道外承德广场,,37,37,45,12,16,80,,76,76,28,45,5,5,0.3,0.4
2024-09-23T1700,1135A,126.685,45.7319,哈尔滨市,香坊红旗大街,,44,44,53,9,19,85,,79,79,27,47,14,11,0.6,0.6
2024-09-23T1700,1136A,126.6411,45.7258,哈尔滨市,动力和平路,,36,36,39,11,18,89,,82,82,22,40,10,11,0.7,0.6
2024-09-23T1700,1137A,126.593,45.7478,哈尔滨市,道里建国路,,35,35,37,10,16,90,,83,83,14,35,5,8,1.0,0.7
2024-09-23T1700,1138A,126.615,45.61,哈尔滨市,平房东轻厂,,29,27,32,10,11,90,,82,82,21,30,7,6,0.5,0.5
2024-09-23T1700,1139A,126.595,45.9855,哈尔滨市,呼兰师专,,32,32,35,14,12,79,,70,70,26,38,8,8,0.6,0.6
2024-09-23T1700,1140A,126.6206,45.6842,哈尔滨市,省农科院,颗粒物(PM10),78,106,77,34,21,72,,72,72,30,44,5,6,0.5,0.6
2024-09-23T1700,2688A,93.5128,42.8172,哈密市,地区监测站,颗粒物(PM10),58,66,136,26,40,112,,78,78,7,46,10,7,0.2,0.4
2024-09-23T1700,2689A,93.4961,42.8328,哈密市,哈密师范学校,颗粒物(PM10),52,54,111,20,37,111,,71,71,6,49,5,5,0.3,0.7
2024-09-23T1700,2671A,100.9048,36.9639,海北藏族自治州,海晏县西海镇,,33,,16,10,15,105,,90,90,3,9,9,15,0.3,0.4
2024-09-23T1700,3867A,102.0738,36.5056,海东市,平安区公安北苑,,41,9,27,3,12,130,,95,95,7,15,7,9,0.4,0.6
2024-09-23T1700,1410A,110.3232,20.0574,海口市,海南大学,,25,10,17,3,8,77,,66,66,7,7,6,6,0.5,0.5
2024-09-23T1700,1412A,110.338,19.9969,海口市,海南师范大学,,,13,14,10,9,76,,66,66,,7,,5,0.5,0.6
2024-09-23T1700,1413A,110.33,20.0356,海口市,龙华路环保局宿舍,,24,15,15,6,8,74,,68,68,8,7,4,4,0.4,0.4
2024-09-23T1700,3539A,110.5111,19.9736,海口市,桂林洋子站,,42,,20,29,12,84,,76,76,5,7,5,5,0.4,0.3
2024-09-23T1700,2673A,100.6188,36.2866,海南藏族自治州,共和县恰卜恰镇,,33,10,26,3,9,104,,93,93,3,12,12,12,0.3,0.5
2024-09-23T1700,2676A,97.3731,37.3753,海西蒙古族藏族自治州,德令哈市,,35,12,24,7,12,112,,97,97,6,9,9,9,0.4,0.4
2024-09-23T1700,1048A,114.5302,36.6116,邯郸市,东污水处理厂,,46,38,35,12,13,146,,116,116,12,33,3,2,0.6,0.5
2024-09-23T1700,1049A,114.4918,36.5713,邯郸市,矿院,,47,40,40,9,13,150,,122,122,10,30,5,4,0.3,0.2
2024-09-23T1700,1050A,114.484,36.6133,邯郸市,丛台公园,,45,39,32,16,13,142,,114,114,11,29,4,3,0.5,0.7
2024-09-23T1700,3458A,114.7895,36.5593,邯郸市,香泉濮院小区,,47,18,39,12,12,148,,121,121,8,32,3,4,0.4,0.3
2024-09-23T1700,3579A,114.50634,36.77178,邯郸市,永年区实验高中,臭氧1小时,69,50,57,16,20,175,,129,129,16,35,4,5,0.7,0.6
2024-09-23T1700,3580A,114.20016,36.44293,邯郸市,峰峰矿区临水派出所,,50,49,24,16,8,157,,134,134,6,10,6,6,0.8,0.7
2024-09-23T1700,2634A,106.9893,33.1842,汉中市,汉川机床厂子校,,40,32,24,20,12,126,,117,117,5,5,5,4,0.6,0.6
2024-09-23T1700,2635A,107.0154,33.0706,汉中市,市监测站,,41,26,31,14,16,131,,118,118,5,8,8,8,0.4,0.4
2024-09-23T1700,2636A,107.0089,33.1138,汉中市,鑫源开发区,,41,19,33,16,21,130,,120,120,6,10,9,9,0.3,0.4
2024-09-23T1700,2637A,107.007,33.0323,汉中市,南郑大河坎水厂,,41,28,32,14,18,131,,116,116,5,11,9,8,0.4,0.4
2024-09-23T1700,1223A,120.2072,30.2111,杭州市,滨江,,38,38,33,14,11,87,,86,86,24,18,5,6,0.6,0.6
2024-09-23T1700,1224A,120.0633,30.2747,杭州市,西溪,,35,35,25,21,11,98,,100,100,24,20,5,6,0.9,0.8
2024-09-23T1700,1226A,120.3461,30.3153,杭州市,下沙,,34,34,35,18,12,96,,102,102,38,34,6,8,0.7,0.7
2024-09-23T1700,1227A,120.1269,30.2456,杭州市,卧龙桥,,34,34,26,20,13,106,,101,101,24,19,5,6,0.5,0.4
2024-09-23T1700,1228A,120.1903,30.2692,杭州市,浙江农大,,33,33,28,18,13,95,,94,94,29,22,8,9,0.7,0.7
2024-09-23T1700,1230A,120.1197,30.3119,杭州市,和睦小学,,35,35,25,16,10,108,,108,108,24,21,6,6,0.7,0.7
2024-09-23T1700,1231A,120.3019,30.4183,杭州市,临平镇,颗粒物(PM10),53,56,35,13,11,99,,112,112,27,16,5,5,0.7,0.7
2024-09-23T1700,1232A,120.2697,30.1819,杭州市,城厢镇,,39,39,28,23,16,75,,86,86,36,20,6,6,0.6,0.5
2024-09-23T1700,1233A,120.0883,30.1808,杭州市,云栖,,33,23,22,18,7,103,,98,98,25,17,6,7,0.7,0.7
2024-09-23T1700,3557A,119.9464,30.0494,杭州市,镇二中,,39,36,22,27,8,100,,96,96,21,17,8,8,0.7,0.6
2024-09-23T1700,3558A,119.7183,30.2367,杭州市,市府大楼,,37,30,17,17,12,117,,124,124,17,11,7,6,0.5,0.4
2024-09-23T1700,3656A,120.1556,30.2864,杭州市,消防大队,,36,36,27,17,11,100,,102,102,22,15,8,8,0.7,0.7
2024-09-23T1700,1270A,117.1959,31.7848,合肥市,明珠广场,,40,19,30,9,12,126,,121,121,15,19,6,7,0.6,0.6
2024-09-23T1700,1271A,117.3072,31.8764,合肥市,三里街,,36,24,29,9,13,113,,103,103,10,17,7,8,0.3,0.4
2024-09-23T1700,1272A,117.2588,31.8707,合肥市,琥珀山庄,,38,22,32,9,15,119,,115,115,8,17,7,8,0.3,0.4
2024-09-23T1700,1273A,117.1604,31.9052,合肥市,董铺水库,,34,22,41,3,15,107,,100,100,5,13,3,4,0.4,0.4
2024-09-23T1700,1274A,117.25,31.8571,合肥市,长江中路,,37,34,36,8,17,118,,111,111,12,17,9,10,0.3,0.4
2024-09-23T1700,1275A,117.266,31.9436,合肥市,庐阳区,,39,34,43,9,15,123,,115,115,8,18,4,4,0.4,0.4
2024-09-23T1700,1276A,117.336,31.8586,合肥市,瑶海区,,35,27,32,6,12,112,,104,104,11,18,6,8,0.2,0.3
2024-09-23T1700,1277A,117.3027,31.7964,合肥市,包河区,,35,24,32,7,14,110,,105,105,15,43,12,7,0.4,0.4
2024-09-23T1700,1278A,117.2776,31.7385,合肥市,滨湖新区,,37,22,30,7,11,116,,110,110,12,21,5,5,0.4,0.5
2024-09-23T1700,1279A,117.1318,31.8403,合肥市,高新区,,35,22,37,9,18,111,,105,105,12,23,8,8,0.6,0.7
2024-09-23T1700,3464A,117.3803,31.9147,合肥市,高教基地,,38,15,27,6,16,119,,111,111,4,9,4,4,0.4,0.4
2024-09-23T1700,3614A,79.924,37.0877,和田地区,地区环保局,颗粒物(PM10),109,168,224,42,73,112,,93,93,4,12,7,7,0.4,0.6
2024-09-23T1700,3615A,79.9131,37.113,和田地区,市环保局,,,144,278,45,83,102,,76,76,2,28,,7,0.4,0.7
2024-09-23T1700,2516A,108.2011,24.715,河池市,东仁乐园,,39,31,26,10,6,124,,125,125,6,7,6,6,0.4,0.5
2024-09-23T1700,2517A,108.0497,24.6947,河池市,市环保站,,40,20,22,10,6,128,,128,128,7,7,9,9,0.5,0.5
2024-09-23T1700,2518A,108.0983,24.6989,河池市,市疾控中心,,43,,20,12,10,135,,132,132,6,7,10,10,0.4,0.4
2024-09-23T1700,1696A,114.6778,23.7569,河源市,源西,,22,,13,8,12,68,,71,70,7,8,4,4,0.6,0.6
2024-09-23T1700,1697A,114.6944,23.7586,河源市,东埔,,20,,13,7,15,63,,64,64,12,11,3,2,0.7,0.7
2024-09-23T1700,1698A,114.6892,23.7233,河源市,老城,,20,12,15,3,4,64,,67,67,8,8,3,2,0.7,0.7
2024-09-23T1700,1718A,115.4208,35.2464,菏泽市,气象局,臭氧1小时,67,50,52,20,23,173,,145,145,18,33,6,14,0.4,0.4
2024-09-23T1700,1719A,115.4747,35.2375,菏泽市,市政协,臭氧1小时,62,57,52,30,25,169,,146,146,14,24,7,10,0.3,0.3
2024-09-23T1700,3374A,115.5564,35.0891,菏泽市,定陶老年大学,臭氧1小时,67,46,56,24,26,173,,139,139,14,28,9,11,0.3,0.3
2024-09-23T1700,3647A,115.4702,35.2706,菏泽市,菏泽医专,臭氧1小时,64,48,57,22,27,171,,138,138,16,32,4,17,0.4,0.5
2024-09-23T1700,2514A,111.5264,24.4172,贺州市,环保小区,颗粒物(PM10),55,60,39,20,18,93,,104,104,19,12,5,5,0.6,0.6
2024-09-23T1700,2515A,111.5608,24.4078,贺州市,政协大楼,,46,46,39,21,18,90,,110,110,13,13,6,6,0.6,0.6
2024-09-23T1700,3534A,111.4744,24.4553,贺州市,西湾,,41,41,31,19,15,99,,100,100,14,10,7,7,0.6,0.5
2024-09-23T1700,2385A,114.17,35.9019,鹤壁市,市监测站,,50,50,38,16,17,160,,137,137,12,21,6,6,0.6,0.6
2024-09-23T1700,2386A,114.2956,35.7511,鹤壁市,市交警支队,,49,39,31,10,9,156,,134,134,18,33,6,4,0.5,0.5
2024-09-23T1700,2387A,114.2878,35.7306,鹤壁市,迎宾馆,,50,40,28,14,13,159,,135,135,20,28,5,4,0.5,0.5
2024-09-23T1700,3474A,114.2617,35.6822,鹤壁市,大新区,颗粒物(PM10),53,55,31,21,11,151,,139,139,17,22,9,7,0.4,0.3
2024-09-23T1700,3596A,114.1572,35.9603,鹤壁市,南山宾馆,,48,33,22,28,17,153,,134,134,12,11,3,3,0.5,0.3
2024-09-23T1700,2244A,130.2537,47.3416,鹤岗市,哈啤分公司,,33,33,26,21,18,81,,74,74,10,13,14,14,0.6,0.7
2024-09-23T1700,2245A,130.2684,47.3086,鹤岗市,斯达机电,,42,42,30,19,19,77,,70,70,16,12,13,12,0.3,0.3
2024-09-23T1700,2246A,130.3114,47.3388,鹤岗市,东山纸板厂,颗粒物(PM10),78,105,59,31,30,63,,62,62,24,23,17,17,0.3,0.9
2024-09-23T1700,2247A,130.1097,47.3382,鹤岗市,五号水库,,26,21,17,15,9,81,,82,82,4,6,16,16,0.4,0.5
2024-09-23T1700,2263A,127.4833,50.2524,黑河市,交通局,,35,35,24,16,16,72,,68,68,12,11,7,7,0.4,0.3
2024-09-23T1700,2264A,127.5144,50.2341,黑河市,环保局,,29,29,19,10,11,84,,78,78,8,8,3,4,0.4,0.4
2024-09-23T1700,2265A,127.5291,50.2472,黑河市,大黑河岛,,,,55,7,11,61,,66,66,9,10,2,2,0.1,0.1
2024-09-23T1700,1074A,115.6838,37.7541,衡水市,电机北厂,,46,22,28,11,13,145,,122,122,8,23,6,7,0.3,0.3
2024-09-23T1700,1075A,115.6303,37.7316,衡水市,市监测站,,46,24,31,16,9,146,,121,121,12,31,6,7,0.3,0.3
2024-09-23T1700,3188A,115.6683,37.7217,衡水市,市城管局,,47,31,31,11,13,148,,122,122,9,26,3,4,0.3,0.4
2024-09-23T1700,3459A,115.5989,37.5491,衡水市,地表水厂,,45,29,24,11,11,143,,116,116,7,36,6,5,0.4,0.3
2024-09-23T1700,2456A,112.5003,26.9167,衡阳市,原169医院,,42,32,33,17,14,134,,127,127,11,13,11,10,0.5,0.5
2024-09-23T1700,2457A,112.6194,26.9258,衡阳市,衡阳化工总厂,,45,37,41,17,8,144,,122,122,7,11,9,13,0.6,0.6
2024-09-23T1700,2458A,112.6211,26.8956,衡阳市,珠晖区环保局,,44,36,39,18,18,139,,117,117,11,14,8,10,0.7,0.7
2024-09-23T1700,2459A,112.6197,26.8733,衡阳市,市委党校,,46,36,37,16,16,147,,125,125,10,13,12,12,0.6,0.6
2024-09-23T1700,2460A,112.6006,26.8919,衡阳市,市监测站,,48,30,39,22,22,151,,129,129,7,10,8,10,0.6,0.6
2024-09-23T1700,2461A,112.5664,26.9056,衡阳市,真空机电公司,,45,44,37,16,16,144,,127,127,8,9,8,8,0.6,0.6
2024-09-23T1700,3399A,112.6703,26.882,衡阳市,师范学院,,47,30,40,17,21,150,,125,125,10,13,9,9,0.6,0.7
2024-09-23T1700,2608A,103.3772,23.3993,红河哈尼族彝族自治州,污水处理厂,,29,,19,16,21,91,,78,78,5,7,6,11,0.4,0.4
2024-09-23T1700,2609A,103.3861,23.35,红河哈尼族彝族自治州,监测站,,31,29,26,10,15,98,,87,87,5,7,8,12,0.4,0.4
2024-09-23T1700,3038A,103.3758,23.368,红河哈尼族彝族自治州,州图书馆,,28,22,24,13,13,89,,79,79,5,7,7,12,0.5,0.5
2024-09-23T1700,1090A,111.6507,40.7517,呼和浩特市,呼市一监,,43,27,42,24,23,136,,95,95,8,28,10,8,0.5,0.6
2024-09-23T1700,1091A,111.6572,40.8033,呼和浩特市,小召,,46,46,49,18,23,123,,84,84,23,36,10,9,0.6,0.6
2024-09-23T1700,1094A,111.7516,40.8369,呼和浩特市,如意水处理厂,,47,47,50,22,22,128,,83,83,13,35,10,8,0.4,0.5
2024-09-23T1700,1095A,111.7276,40.8062,呼和浩特市,二十九中,,41,36,45,24,24,131,,87,87,21,37,9,7,0.5,0.6
2024-09-23T1700,1096A,111.5512,40.7866,呼和浩特市,工大金川校区,颗粒物(PM10),52,53,49,25,22,122,,84,84,18,41,6,5,0.5,0.6
2024-09-23T1700,1097A,111.717,40.7612,呼和浩特市,化肥厂生活区,,46,46,53,20,22,137,,88,88,14,34,12,10,0.5,0.8
2024-09-23T1700,3698A,111.5968,40.8178,呼和浩特市,红旗小学,颗粒物(PM10),52,53,50,23,23,127,,86,86,21,42,7,6,0.4,0.5
2024-09-23T1700,3699A,111.6518,40.8389,呼和浩特市,海东办,,40,39,46,24,23,125,,84,84,18,43,8,6,0.5,0.6
2024-09-23T1700,2192A,119.7594,49.2261,呼伦贝尔市,区环保局,,26,20,23,10,14,82,,65,65,10,16,6,6,0.3,0.4
2024-09-23T1700,3061A,119.7512,49.1577,呼伦贝尔市,国华电力东,,26,,24,15,12,82,,72,72,6,10,3,4,0.4,0.3
2024-09-23T1700,1250A,120.0751,30.8669,湖州市,城西水厂,,50,32,27,15,11,158,,132,132,14,21,5,5,0.4,0.4
2024-09-23T1700,2873A,120.0875,30.8955,湖州市,仁皇山新区,,49,30,27,14,12,154,,133,133,13,18,6,7,0.4,0.4
2024-09-23T1700,2907A,120.1844,30.8596,湖州市,吴兴区站,,42,31,25,16,11,133,,117,117,12,13,5,6,0.4,0.4
2024-09-23T1700,3562A,120.4148,30.8538,湖州市,南浔区站,,47,33,26,13,10,148,,125,125,12,13,7,7,0.5,0.4
2024-09-23T1700,1607A,120.9092,40.7136,葫芦岛市,龙港区,,37,18,32,6,19,116,,96,96,6,25,11,25,0.5,0.6
2024-09-23T1700,1608A,120.8392,40.7514,葫芦岛市,化工街,,39,17,49,9,18,124,,103,103,9,36,16,62,0.3,0.4
2024-09-23T1700,1609A,120.8341,40.7073,葫芦岛市,新区,,39,32,40,3,22,124,,107,107,12,46,12,17,0.4,0.5
2024-09-23T1700,1610A,120.8695,40.7677,葫芦岛市,东城区,,38,16,49,8,25,119,,108,108,7,31,10,92,0.3,0.5
2024-09-23T1700,2482A,109.5981,27.5721,怀化市,林科所,,43,20,24,13,12,137,,126,126,10,10,13,13,0.3,0.3
2024-09-23T1700,2483A,109.9453,27.5444,怀化市,河西地税局,,45,30,41,19,19,141,,130,130,8,10,10,11,0.7,0.7
2024-09-23T1700,2484A,109.9781,27.5342,怀化市,市四医院,,43,34,34,17,17,136,,126,126,6,7,7,11,0.5,0.5
2024-09-23T1700,2485A,109.9972,27.5578,怀化市,监测楼,,44,22,36,9,17,139,,128,128,7,9,3,8,0.3,0.3
2024-09-23T1700,2486A,110.0394,27.583,怀化市,市委党校,,,32,39,18,19,137,,126,126,,9,9,21,0.4,0.5
2024-09-23T1700,1210A,119.036,33.5981,淮安市,钵池山,,37,27,30,10,12,117,,106,106,8,17,8,8,0.7,0.7
2024-09-23T1700,1211A,119.007,33.575,淮安市,北京南路,,37,31,32,12,10,118,,106,106,14,18,6,7,0.2,0.3
2024-09-23T1700,1212A,118.989,33.6067,淮安市,市监测站,,39,24,27,9,14,122,,112,112,18,29,6,8,0.4,0.5
2024-09-23T1700,1213A,119.135,33.5039,淮安市,楚州区监测站,,38,34,33,13,11,120,,109,109,11,17,6,6,0.7,0.8
2024-09-23T1700,1214A,119.0186,33.6297,淮安市,淮阴区监测站,,40,36,36,10,11,125,,110,110,15,24,3,4,0.5,0.6
2024-09-23T1700,3426A,118.8755,33.2894,淮安市,新华书店,,40,34,39,12,16,127,,114,114,18,27,8,11,0.7,0.9
2024-09-23T1700,2282A,116.8004,33.975,淮北市,监测站,,42,30,32,10,14,133,,114,114,13,15,8,8,0.4,0.4
2024-09-23T1700,2283A,116.8091,33.9007,淮北市,烈山区政府,,48,29,31,14,15,151,,125,125,8,11,7,7,0.3,0.3
2024-09-23T1700,3330A,116.8873,33.9836,淮北市,杜集区检察院,,47,33,38,10,15,148,,123,123,5,8,10,9,0.3,0.4
2024-09-23T1700,4017A,116.7923,33.9535,淮北市,市博物馆,,46,23,32,11,15,146,,124,124,10,13,7,7,0.5,0.6
2024-09-23T1700,2277A,116.8305,32.7727,淮南市,潘集区政府,,,40,47,17,26,128,,114,114,20,24,8,9,,0.4
2024-09-23T1700,2278A,117.0067,32.6524,淮南市,师范学院,,45,44,55,26,30,142,,122,122,8,24,8,8,0.5,0.5
2024-09-23T1700,2279A,116.8569,32.5951,淮南市,谢家集区政府,,43,42,49,18,28,135,,115,115,13,20,9,9,0.4,0.4
2024-09-23T1700,2280A,116.8281,32.633,淮南市,八公山区政府,,43,43,49,17,24,136,,112,112,9,15,8,9,0.2,0.3
2024-09-23T1700,2281A,116.6325,32.6201,淮南市,焦岗湖风景区管理处,,37,24,36,14,17,117,,106,106,5,14,6,5,0.0,0.1
2024-09-23T1700,2894A,117.0566,32.6531,淮南市,经济技术开发区消防队,,48,48,58,11,20,141,,121,121,10,24,7,8,0.2,0.3
2024-09-23T1700,3329A,117.0108,32.5893,淮南市,山南新区,颗粒物(PM10),52,53,53,17,20,147,,125,125,16,20,6,6,0.2,0.2
2024-09-23T1700,2446A,114.9028,30.4742,黄冈市,职工中心,,48,42,38,22,20,153,,138,138,12,11,9,8,0.5,0.4
2024-09-23T1700,2929A,114.8858,30.4519,黄冈市,红卫路,,,31,28,17,16,155,,142,142,12,12,8,8,,0.2
2024-09-23T1700,3398A,114.9136,30.4445,黄冈市,市林业局,臭氧1小时,63,34,29,20,14,170,,153,153,7,9,8,8,0.4,0.4
2024-09-23T1700,2672A,102.0199,35.5102,黄南藏族自治州,同仁县隆务镇,,31,29,28,7,11,98,,81,81,8,5,7,8,0.4,0.4
2024-09-23T1700,2295A,118.2903,29.6963,黄山市,延安路89号,,28,23,28,9,10,87,,89,89,4,6,6,6,0.2,0.2
2024-09-23T1700,2296A,118.327,29.7178,黄山市,黄山东路89号,,27,16,29,3,8,86,,89,89,3,6,4,5,0.2,0.2
2024-09-23T1700,2297A,118.1371,30.2756,黄山市,黄山区政府5号楼,,37,34,28,19,14,116,,107,107,7,7,6,7,0.4,0.4
2024-09-23T1700,2423A,115.0601,30.2313,黄石市,沈家营,臭氧1小时,54,24,27,7,8,163,,147,147,7,10,8,8,0.5,0.5
2024-09-23T1700,2424A,115.0817,30.2006,黄石市,陈家湾,臭氧1小时,65,22,28,8,10,172,,147,147,6,9,9,9,0.7,0.6
2024-09-23T1700,2426A,114.8988,30.2019,黄石市,铁山,臭氧1小时,69,34,26,14,12,175,,154,154,9,8,7,8,0.3,0.3
2024-09-23T1700,2427A,115.0307,30.2092,黄石市,团城山,臭氧1小时,60,25,27,8,7,168,,150,150,9,11,8,8,0.6,0.5
2024-09-23T1700,3149A,115.0235,30.1578,黄石市,笔架山北路,臭氧1小时,62,17,22,6,5,169,,152,152,6,7,6,9,0.5,0.5
2024-09-23T1700,1392A,114.4183,23.0528,惠州市,河南岸金山湖子站,,20,9,15,6,8,61,,64,64,7,6,5,5,0.5,0.5
2024-09-23T1700,1393A,114.4053,23.0822,惠州市,下埔横江三路子站,,21,9,15,6,10,67,,72,72,8,7,4,4,0.7,0.6
2024-09-23T1700,1394A,114.4103,23.1142,惠州市,江北云山西路子站,,20,8,14,3,8,61,,68,68,7,4,4,4,0.6,0.5
2024-09-23T1700,1395A,114.4645,22.7833,惠州市,惠阳区承修路船湖子站,,15,12,15,6,8,47,,50,50,15,12,5,5,0.7,0.4
2024-09-23T1700,1396A,114.5317,22.7422,惠州市,大亚湾管委会子站,,16,14,11,7,7,51,,51,51,14,9,6,6,0.6,0.6
2024-09-23T1700,3314A,114.4338,22.8134,惠州市,惠阳秋长,,20,12,9,8,6,62,,63,63,12,8,5,4,0.7,0.6
2024-09-23T1700,3452A,114.6517,22.775,惠州市,大亚湾霞涌,,19,,9,13,4,48,,46,46,6,6,4,4,0.8,0.7
2024-09-23T1700,2240A,130.9762,45.3001,鸡西市,环保局,,21,19,35,3,13,67,,69,69,12,13,6,5,0.2,0.3
2024-09-23T1700,2243A,130.9429,45.3039,鸡西市,第一中学,,47,47,42,3,9,70,,71,71,8,13,5,4,0.0,0.1
2024-09-23T1700,3707A,131.0207,45.3073,鸡西市,欧美日汽修厂,,25,22,38,9,16,78,,70,70,7,20,4,6,0.1,0.2
2024-09-23T1700,3709A,130.9967,45.3106,鸡西市,市政设施管理处,,28,28,41,15,14,75,,68,68,12,23,6,6,0.1,0.2
2024-09-23T1700,2367A,114.9754,27.0803,吉安市,红声器材厂,,42,42,45,16,14,121,,112,112,12,14,12,12,0.7,0.7
2024-09-23T1700,2368A,114.9658,27.0999,吉安市,市森林工业局,,38,38,41,17,15,118,,111,111,20,19,10,11,0.5,0.5
2024-09-23T1700,2369A,114.99,27.1312,吉安市,市环境监测站,,40,39,40,15,14,126,,117,117,13,13,16,18,0.5,0.4
2024-09-23T1700,2370A,115.0093,27.0968,吉安市,青原区法院,,40,40,42,16,15,121,,111,111,14,16,11,12,0.7,0.6
2024-09-23T1700,1772A,126.54,43.8622,吉林市,哈达湾,,20,15,30,3,12,64,,72,72,13,24,6,6,0.4,0.5
2024-09-23T1700,1773A,126.5844,43.8358,吉林市,东局子,,21,11,27,9,13,65,,67,66,8,22,4,5,0.5,0.6
2024-09-23T1700,1774A,126.5052,43.8245,吉林市,电力学院,,20,11,37,11,17,61,,72,72,9,20,3,4,0.6,0.7
2024-09-23T1700,1775A,126.6133,43.8972,吉林市,江北,,20,19,29,8,12,63,,70,70,11,18,6,6,0.6,0.7
2024-09-23T1700,1776A,126.555,43.8306,吉林市,江南公园,,20,20,32,13,15,58,,69,69,16,27,6,6,0.5,0.7
2024-09-23T1700,1778A,126.7061,43.7133,吉林市,丰满,,21,7,6,3,4,65,,61,61,2,2,5,5,0.3,0.3
2024-09-23T1700,2868A,126.4739,43.953,吉林市,九站,,32,32,48,8,19,68,,75,75,17,25,8,10,0.5,0.6
2024-09-23T1700,1299A,116.9862,36.6114,济南市,科干所,,44,41,32,10,11,139,,116,116,22,29,7,7,0.5,0.6
2024-09-23T1700,1300A,116.9376,36.665,济南市,农科所,,42,37,40,7,12,133,,119,119,20,38,5,5,0.4,0.6
2024-09-23T1700,1301A,117.1265,36.6734,济南市,开发区,,44,44,30,15,13,112,,106,106,37,30,5,5,0.4,0.4
2024-09-23T1700,1303A,117.0624,36.6868,济南市,省种子仓库,,48,48,42,12,9,124,,103,103,22,33,6,6,0.1,0.2
2024-09-23T1700,1304A,116.9489,36.6447,济南市,机床二厂,,46,39,46,3,10,146,,122,122,21,37,5,5,0.6,0.7
2024-09-23T1700,1305A,117.0495,36.663,济南市,市监测站,,44,44,32,10,9,128,,111,111,29,36,5,5,0.5,0.5
2024-09-23T1700,1306A,116.7675,36.5484,济南市,长清党校,,49,27,29,15,13,155,,134,134,15,35,7,7,0.7,0.7
2024-09-23T1700,1616A,117.6795,36.229,济南市,技术学院,,45,41,30,19,12,141,,112,112,15,28,17,9,1.6,0.6
2024-09-23T1700,1961A,117.532,36.6868,济南市,东山小学,,42,42,30,10,7,127,,111,111,25,36,6,5,0.3,0.3
2024-09-23T1700,3059A,117.7161,36.2049,济南市,泰兴公司,,42,41,27,17,12,132,,108,108,17,30,15,8,1.2,0.4
2024-09-23T1700,3064A,117.6867,36.2171,济南市,莱芜战役纪念馆,,42,41,32,17,11,133,,109,109,17,26,10,5,1.3,0.5
2024-09-23T1700,3494A,117.1673,36.9782,济南市,济阳区政府,,43,24,33,3,9,136,,116,116,12,22,4,10,0.4,0.5
2024-09-23T1700,3495A,117.1171,36.63,济南市,锦屏中学,,42,42,14,7,4,118,,115,115,37,18,6,5,0.4,0.3
2024-09-23T1700,3682A,116.9814,36.6819,济南市,济南四建,,41,31,36,10,12,130,,107,107,21,38,3,4,0.5,0.6
2024-09-23T1700,1653A,116.6251,35.4302,济宁市,火炬城,,45,37,41,17,19,142,,113,113,8,21,11,10,0.5,0.6
2024-09-23T1700,3500A,116.5814,35.3707,济宁市,北湖一中,臭氧1小时,53,45,41,27,22,162,,127,127,18,24,4,3,0.4,0.4
2024-09-23T1700,3501A,116.8249,35.5593,济宁市,服务中心,,45,30,46,10,16,143,,119,119,13,26,7,7,0.3,0.3
2024-09-23T1700,3678A,116.5907,35.4054,济宁市,市第七中学,,47,35,53,14,21,148,,122,122,12,24,10,10,0.5,0.6
2024-09-23T1700,2255A,130.2751,46.8028,佳木斯市,佳纺,,27,12,20,7,8,84,,88,88,7,10,3,3,0.4,0.4
2024-09-23T1700,2256A,130.3995,46.8307,佳木斯市,发电厂,,24,13,31,8,12,76,,78,78,15,22,3,6,0.3,0.3
2024-09-23T1700,2257A,130.3258,46.7975,佳木斯市,环保局,,25,19,28,3,12,80,,82,82,13,17,8,8,0.4,0.4
2024-09-23T1700,2258A,130.3648,46.8032,佳木斯市,十一中,,23,21,24,10,13,72,,78,78,23,28,6,7,0.5,0.5
2024-09-23T1700,2259A,130.3794,46.7588,佳木斯市,四丰,,26,7,12,3,6,82,,79,79,12,10,1,1,0.2,0.2
2024-09-23T1700,1252A,120.7436,30.778,嘉兴市,清河小学,,43,24,27,9,9,135,,119,119,14,21,4,5,0.5,0.6
2024-09-23T1700,1253A,120.726,30.7478,嘉兴市,嘉兴学院,,44,25,25,9,10,140,,121,121,12,18,3,4,0.4,0.6
2024-09-23T1700,2872A,120.7846,30.7525,嘉兴市,南湖区残联,,48,28,27,11,10,151,,134,134,15,20,5,6,0.3,0.4
2024-09-23T1700,3407A,120.6916,30.7739,嘉兴市,秀洲住建,,44,24,26,11,13,139,,122,122,10,17,5,6,0.5,0.6
2024-09-23T1700,1945A,98.2908,39.7711,嘉峪关市,气象局,,40,36,38,9,13,126,,118,118,3,17,2,7,0.2,0.3
2024-09-23T1700,2884A,98.2672,39.7978,嘉峪关市,酒钢宾馆,,46,46,46,17,16,118,,123,123,20,17,70,22,1.3,0.5
2024-09-23T1700,3248A,98.2643,39.7724,嘉峪关市,雄关区,,39,39,41,17,17,120,,111,111,7,20,14,12,0.2,0.3
2024-09-23T1700,1383A,113.1064,22.6058,江门市,北街,,17,10,21,9,14,54,,70,66,27,17,4,4,0.7,0.7
2024-09-23T1700,1384A,113.0731,22.5835,江门市,西区,,20,20,20,7,10,52,,71,68,29,17,4,5,0.5,0.5
2024-09-23T1700,1385A,113.0219,22.5311,江门市,圭峰西,,19,15,20,7,14,60,,72,70,19,13,3,3,0.6,0.6
2024-09-23T1700,1386A,113.0828,22.5947,江门市,东湖,,17,15,24,9,11,54,,66,63,22,15,4,3,0.5,0.4
2024-09-23T1700,3311A,113.1075,22.5647,江门市,江海富民,,22,21,24,15,13,56,,67,66,26,18,6,6,0.7,0.7
2024-09-23T1700,3449A,113.05,22.4667,江门市,新会银湖,,16,13,20,11,15,51,,64,62,25,17,4,4,0.8,0.8
2024-09-23T1700,1828A,113.227,35.2125,焦作市,市环保局,,48,45,36,27,18,152,,126,126,15,19,7,6,0.2,0.2
2024-09-23T1700,1830A,113.1992,35.2590,焦作市,影视城,臭氧1小时,53,38,34,29,27,162,,139,139,15,16,9,9,0.5,0.4
2024-09-23T1700,3169A,113.2725,35.2067,焦作市,太极体育中心,,50,50,41,23,20,152,,126,126,12,20,6,5,0.5,0.5
2024-09-23T1700,3335A,113.3137,35.2641,焦作市,马村街道办,,49,44,41,31,18,154,,130,130,15,19,3,3,0.2,0.4
2024-09-23T1700,3336A,113.2465,35.2373,焦作市,焦作技师学院,,49,44,30,31,20,155,,127,127,13,16,9,9,0.4,0.3
2024-09-23T1700,3477A,113.1656,35.2539,焦作市,中站许衡医院,臭氧1小时,58,46,33,24,20,166,,137,137,14,21,7,5,0.3,0.3
2024-09-23T1700,3981A,113.2449,35.1803,焦作市,原李万街道办,颗粒物(PM10),62,73,43,27,21,152,,134,134,17,23,4,4,0.2,0.4
2024-09-23T1700,1708A,116.3701,23.5345,揭阳市,新兴,,41,41,12,10,7,87,,65,65,14,13,7,4,1.2,0.7
2024-09-23T1700,1709A,116.3264,23.5443,揭阳市,西马,,29,24,10,12,8,90,,64,64,11,9,6,5,1.0,0.6
2024-09-23T1700,1710A,116.3611,23.5626,揭阳市,东兴,,31,31,13,12,6,96,,64,64,11,14,5,4,1.3,0.9
2024-09-23T1700,1711A,116.4151,23.5294,揭阳市,渔湖,颗粒物(PM10),56,61,12,12,6,94,,69,69,15,13,8,4,1.2,0.7
2024-09-23T1700,3320A,116.403,23.5699,揭阳市,曲溪,,29,14,9,14,9,91,,62,62,12,18,7,4,1.0,0.7
2024-09-23T1700,1944A,102.1692,38.5167,金昌市,天庆家园,,35,25,48,11,29,110,,94,94,10,23,32,18,0.5,0.5
2024-09-23T1700,3170A,102.1864,38.5253,金昌市,市委党校,,40,24,62,8,28,126,,100,100,8,26,12,19,0.6,0.6
2024-09-23T1700,4022A,102.1647,38.5371,金昌市,金川区人防中心,,35,34,71,11,30,109,,86,86,10,28,11,18,0.6,0.7
2024-09-23T1700,1262A,119.647,29.077,金华市,十五中,,,,25,,7,82,,94,94,17,15,2,2,0.5,0.4
2024-09-23T1700,1263A,119.686,29.1029,金华市,监测站,,25,22,27,11,12,78,,90,90,18,16,2,3,0.5,0.5
2024-09-23T1700,3659A,119.656,29.1131,金华市,气象局,,25,18,26,10,7,77,,86,86,20,20,4,5,0.3,0.3
2024-09-23T1700,1767A,121.1115,41.0879,锦州市,南山,,36,36,31,16,20,105,,88,88,13,28,9,11,0.4,0.7
2024-09-23T1700,1768A,121.0533,40.8434,锦州市,开发区,颗粒物(PM10),54,58,78,9,30,86,,77,77,28,51,6,25,0.6,1.1
2024-09-23T1700,1769A,121.1836,41.1119,锦州市,百股街道,,35,15,29,3,12,109,,89,89,8,24,8,11,0.4,0.7
2024-09-23T1700,1770A,121.1178,41.1222,锦州市,天安街道,,34,34,50,9,28,105,,88,88,14,39,10,14,0.5,0.7
2024-09-23T1700,1771A,121.1303,41.1386,锦州市,北湖公园,,35,29,39,7,30,110,,93,93,14,29,10,13,0.5,0.7
2024-09-23T1700,2160A,112.85,35.5051,晋城市,自来水公司,颗粒物(PM10),61,72,44,24,23,153,,130,130,16,24,18,10,0.7,0.7
2024-09-23T1700,2161A,112.8318,35.4936,晋城市,白云商贸,,47,44,53,19,22,148,,128,128,21,27,14,9,0.7,0.8
2024-09-23T1700,2162A,112.8508,35.4887,晋城市,市环保局,,47,43,44,24,22,148,,125,125,24,32,16,8,0.6,0.6
2024-09-23T1700,2163A,112.8676,35.4897,晋城市,技术学院,,48,45,46,19,21,152,,131,131,23,29,16,9,0.6,0.6
2024-09-23T1700,3620A,112.8271,35.4828,晋城市,泽州一中,,47,46,44,31,22,149,,119,119,25,32,16,11,0.6,0.7
2024-09-23T1700,2171A,112.7532,37.6945,晋中市,锦纶小区,颗粒物(PM10),57,63,56,29,24,164,,133,133,14,28,11,11,0.6,0.5
2024-09-23T1700,2173A,112.7249,37.7067,晋中市,南都小区,臭氧1小时,52,48,51,28,28,161,,136,136,12,30,9,8,0.8,0.8
2024-09-23T1700,2174A,112.6991,37.6982,晋中市,榆次区政府,臭氧1小时,53,44,48,24,22,162,,127,127,13,29,9,9,0.4,0.4
2024-09-23T1700,2865A,112.7195,37.6828,晋中市,榆次三中,臭氧1小时,57,51,56,22,24,165,,131,131,12,27,12,12,0.7,0.7
2024-09-23T1700,2439A,112.2014,31.0481,荆门市,竹园小学,臭氧1小时,63,43,52,19,20,170,,148,148,13,19,14,14,0.5,0.5
2024-09-23T1700,2440A,112.1969,30.9891,荆门市,掇刀,臭氧1小时,62,43,43,18,17,169,,150,150,15,18,5,4,0.4,0.4
2024-09-23T1700,2441A,112.2213,31.0386,荆门市,石化一小,臭氧1小时,63,43,51,22,19,170,,150,150,11,16,18,14,0.3,0.3
2024-09-23T1700,3012A,112.1849,31.0362,荆门市,西山林语,臭氧1小时,63,44,44,16,15,170,,154,154,12,15,9,10,0.7,0.7
2024-09-23T1700,3547A,112.1632,31.0138,荆门市,龙泉中学南校,臭氧1小时,67,45,44,21,19,173,,152,152,18,18,10,13,0.4,0.4
2024-09-23T1700,1844A,112.2494,30.3197,荆州市,市图书馆,,49,26,49,18,38,156,,140,140,14,22,9,12,0.5,0.6
2024-09-23T1700,1845A,112.2008,30.3544,荆州市,市委党校,臭氧1小时,54,30,53,19,44,163,,147,147,10,19,7,10,0.4,0.5
2024-09-23T1700,3194A,112.2747,30.3122,荆州市,管委会,,50,32,39,21,31,157,,144,144,15,20,9,10,0.5,0.5
2024-09-23T1700,3548A,112.1655,30.3364,荆州市,学苑路,臭氧1小时,60,37,66,16,43,168,,152,152,13,22,6,10,0.4,0.5
2024-09-23T1700,2343A,117.2117,29.2933,景德镇市,老干部活动中心,,34,34,25,11,13,79,,86,86,8,8,7,7,0.4,0.4
2024-09-23T1700,2344A,117.1894,29.2789,景德镇市,兽医站,,26,26,29,15,12,82,,89,89,6,6,7,8,0.5,0.4
2024-09-23T1700,2345A,117.1547,29.2617,景德镇市,台达陶瓷,,25,25,25,11,12,76,,93,91,14,6,6,7,0.4,0.4
2024-09-23T1700,2346A,117.2461,29.2956,景德镇市,陶研所,,,,27,,10,83,,92,92,7,9,8,7,0.4,0.4
2024-09-23T1700,1803A,115.9872,29.6815,九江市,十里,,45,38,32,8,11,144,,126,126,11,12,9,11,0.5,0.5
2024-09-23T1700,1804A,115.9584,29.7046,九江市,茅山头,,42,26,27,7,12,133,,118,118,13,11,9,8,0.6,0.6
2024-09-23T1700,1805A,115.9877,29.7295,九江市,西园,,,27,23,8,10,146,,128,128,,9,,11,,0.4
2024-09-23T1700,1806A,116.0172,29.6547,九江市,五七二七厂,,44,25,29,15,13,139,,122,122,10,11,10,10,0.5,0.5
2024-09-23T1700,1808A,115.9114,29.6038,九江市,综合工业园,,47,27,27,15,16,148,,132,132,15,16,10,14,0.5,0.4
2024-09-23T1700,1809A,116.0721,29.7535,九江市,石化总厂,,41,38,37,10,19,130,,117,117,16,12,10,9,0.5,0.4
2024-09-23T1700,1810A,115.9773,29.5698,九江市,庐山气象台,,42,27,24,16,19,134,,123,123,5,5,8,8,0.6,0.8
2024-09-23T1700,3190A,116.0254,29.6994,九江市,外国语学校,,47,31,32,10,9,149,,128,128,11,13,16,14,0.3,0.3
2024-09-23T1700,2658A,98.5061,39.7443,酒泉市,仓门街子站,,38,31,44,13,14,121,,108,108,3,19,11,13,0.3,0.4
2024-09-23T1700,2659A,98.4989,39.7256,酒泉市,油田生活基地,,40,36,50,6,12,127,,113,113,4,19,11,13,0.3,0.4
2024-09-23T1700,2698A,76.0072,39.4467,喀什地区,巡警大队,颗粒物(PM10),54,58,204,20,47,104,,66,66,6,37,5,6,0.4,0.7
2024-09-23T1700,2699A,75.9755,39.4694,喀什地区,吾办,,50,50,179,19,68,100,,68,68,10,33,6,6,0.3,0.6
2024-09-23T1700,4027A,75.9483,39.4689,喀什地区,老干局,颗粒物(PM10),55,59,196,9,43,100,,71,71,6,25,6,5,0.3,0.6
2024-09-23T1700,1824A,114.3389,34.7781,开封市,肿瘤医院,臭氧1小时,67,62,49,38,30,173,,140,140,18,26,10,9,0.4,0.3
2024-09-23T1700,1826A,114.2885,34.7965,开封市,世纪星幼儿园,臭氧1小时,74,41,41,24,18,179,,146,146,10,23,9,10,0.6,0.6
2024-09-23T1700,3147A,114.3438,34.8106,开封市,龙亭公园,臭氧1小时,65,51,54,30,33,172,,30,,15,31,7,9,0.6,0.5
2024-09-23T1700,3210A,114.3644,34.7964,开封市,汴京公园,臭氧1小时,62,42,59,30,31,169,,137,137,13,29,10,8,0.6,0.6
2024-09-23T1700,3473A,114.2485,34.8306,开封市,技师学院,臭氧1小时,57,46,46,18,19,165,,136,136,15,33,10,14,0.4,0.4
2024-09-23T1700,3592A,114.4644,34.7556,开封市,祥符区生态环境局,,,78,68,44,35,150,,130,130,,42,,11,0.6,0.5
2024-09-23T1700,1951A,84.895,45.6094,克拉玛依市,长征新村,,34,21,28,8,7,108,,85,85,5,11,6,7,0.2,0.2
2024-09-23T1700,1954A,84.905,44.3396,克拉玛依市,独山子区,,40,39,59,10,21,127,,109,109,8,16,10,11,0.3,0.4
2024-09-23T1700,1955A,85.6979,46.098,克拉玛依市,乌尔禾区商贸楼,,30,13,25,8,6,96,,78,75,4,8,15,13,0.2,0.2
2024-09-23T1700,3612A,85.1045,45.6899,克拉玛依市,白碱滩区新站,,37,24,31,8,9,116,,84,84,5,12,8,8,0.2,0.3
2024-09-23T1700,2697A,76.1454,39.7142,克孜勒苏柯尔克孜自治州,市人民政府,颗粒物(PM10),52,54,132,20,52,110,,90,90,2,12,3,16,0.3,0.4
2024-09-23T1700,3665A,76.1658,39.7157,克孜勒苏柯尔克孜自治州,克州文化中心,,42,42,120,18,50,110,,96,96,2,8,7,16,0.4,0.4
2024-09-23T1700,1450A,102.8204,24.8886,昆明市,呈贡新区,,33,33,27,13,15,92,,84,84,11,11,7,7,0.5,0.5
2024-09-23T1700,1452A,102.7252,25.0902,昆明市,龙泉镇,,33,18,17,12,9,103,,89,89,7,11,7,7,0.6,0.7
2024-09-23T1700,1453A,102.7266,25.0375,昆明市,东风东路,,30,22,22,15,13,95,,84,84,11,14,6,6,0.3,0.4
2024-09-23T1700,1454A,102.6742,25.0669,昆明市,金鼎山,,32,32,17,11,11,99,,88,88,11,10,6,6,0.4,0.4
2024-09-23T1700,1455A,102.6644,25.0401,昆明市,碧鸡广场,,31,17,20,6,12,98,,86,86,11,11,7,7,0.6,0.6
2024-09-23T1700,3179A,102.7494,25.0119,昆明市,官渡区博物馆,,30,30,22,14,13,96,,85,85,14,17,7,7,0.4,0.5
2024-09-23T1700,3375A,102.8017,24.8336,昆明市,青年创业园,,32,14,14,8,11,100,,90,90,6,8,4,5,0.3,0.8
2024-09-23T1700,3550A,102.7997,24.9786,昆明市,昆明学院,,31,19,27,10,17,97,,88,88,9,13,6,6,0.4,0.5
2024-09-23T1700,3551A,102.5967,24.6736,昆明市,晋宁区生态环境分局,,35,,21,12,14,109,,97,97,7,12,2,3,0.5,0.5
2024-09-23T1700,3552A,102.6678,24.9856,昆明市,云天化总部,,32,18,21,9,15,100,,90,90,11,11,6,6,0.5,0.5
2024-09-23T1700,1456A,91.1319,29.6514,拉萨市,八廓街,,38,11,12,8,8,119,,83,83,7,16,7,11,0.1,0.1
2024-09-23T1700,1457A,91.1221,29.6747,拉萨市,市环保局,,37,9,12,6,7,118,,82,82,9,14,8,10,0.4,0.4
2024-09-23T1700,1458A,91.0874,29.6475,拉萨市,区监测站,,33,7,12,6,8,105,,74,74,11,20,6,8,0.4,0.4
2024-09-23T1700,1459A,91.1774,29.6541,拉萨市,西藏大学,,36,8,12,3,7,113,,80,80,3,11,6,9,0.4,0.4
2024-09-23T1700,1460A,90.9798,29.6588,拉萨市,区辐射站,,27,11,17,6,8,86,,74,74,18,24,9,9,0.2,0.2
2024-09-23T1700,1461A,91.0834,29.6292,拉萨市,拉萨火车站,,,19,10,6,7,103,,72,72,20,13,6,7,,0.4
2024-09-23T1700,2520A,109.2203,23.7256,来宾市,来宾技工学校,,39,38,30,19,13,123,,112,112,9,10,8,8,0.7,0.6
2024-09-23T1700,3535A,109.1781,23.7297,来宾市,兴宾区政府,,40,37,28,20,14,127,,116,116,6,7,8,7,0.6,0.8
2024-09-23T1700,4002A,109.2416,23.7461,来宾市,中南小学,,41,36,34,25,13,129,,118,118,8,10,11,9,0.7,0.6
2024-09-23T1700,1476A,103.631,36.1031,兰州市,兰炼宾馆,臭氧1小时,64,39,41,29,27,171,,171,171,15,24,11,17,0.4,0.5
2024-09-23T1700,1478A,103.8412,36.0726,兰州市,生物制品所,,49,35,38,24,23,155,,102,102,15,30,13,12,0.5,0.5
2024-09-23T1700,1479A,103.831,36.0464,兰州市,铁路设计院,,47,47,43,28,26,141,,93,93,30,41,11,11,0.6,0.6
2024-09-23T1700,3186A,103.7158,36.1058,兰州市,教育港,臭氧1小时,54,43,39,24,26,163,,120,120,13,23,9,11,0.4,0.4
2024-09-23T1700,3241A,103.7439,36.0842,兰州市,百合公园,,50,37,35,18,14,158,,113,113,15,28,11,11,0.6,0.5
2024-09-23T1700,3242A,103.9611,35.998,兰州市,和平,,46,46,40,17,18,134,,103,103,14,20,18,14,0.6,0.4
2024-09-23T1700,3245A,103.6633,36.533,兰州新区,新区管委会,,41,26,34,8,15,130,,101,101,6,14,12,12,0.4,0.4
2024-09-23T1700,3246A,103.6975,36.4789,兰州新区,舟曲中学,,42,14,20,8,10,133,,105,105,8,12,8,12,0.3,0.4
2024-09-23T1700,1067A,116.6708,39.5111,廊坊市,药材公司,,44,35,40,10,22,139,,110,110,9,29,3,5,0.3,0.4
2024-09-23T1700,1068A,116.7214,39.5589,廊坊市,开发区,,45,33,39,12,19,144,,117,117,11,32,3,3,0.3,0.4
2024-09-23T1700,1070A,116.7244,39.5269,廊坊市,北华航天学院,,48,48,50,10,21,144,,119,119,8,34,4,4,0.3,0.4
2024-09-23T1700,2919A,116.7022,39.5453,廊坊市,河北工业大学,,46,28,41,13,24,145,,116,116,8,33,3,4,0.3,0.4
2024-09-23T1700,2535A,103.7723,29.5462,乐山市,花湖湾,,42,42,51,21,29,97,,76,76,21,22,3,4,0.6,0.6
2024-09-23T1700,2536A,103.7627,29.5844,乐山市,牛耳桥,细颗粒物(PM2.5),52,52,52,36,38,104,,76,76,22,29,5,6,0.6,0.6
2024-09-23T1700,2537A,103.7508,29.6006,乐山市,市第三水厂,细颗粒物(PM2.5),58,55,51,41,38,111,,87,87,21,27,5,6,0.5,0.5
2024-09-23T1700,2538A,103.7571,29.5664,乐山市,市监测站,细颗粒物(PM2.5),59,54,52,42,35,108,,81,81,16,20,6,6,0.5,0.5
2024-09-23T1700,3361A,103.7311,29.5628,乐山市,理工大学,,48,44,46,33,37,104,,73,73,22,24,5,4,0.7,0.7
2024-09-23T1700,2599A,100.2497,26.8802,丽江市,丽江古城,,27,21,21,10,16,84,,71,71,8,10,10,9,0.5,0.6
2024-09-23T1700,2600A,100.2203,26.8906,丽江市,市中心,,29,29,18,8,12,82,,68,68,6,11,6,7,0.6,0.6
2024-09-23T1700,1267A,119.914,28.4514,丽水市,监测站大楼,,25,6,20,3,10,78,,72,72,13,17,4,4,0.4,0.4
2024-09-23T1700,1268A,119.93,28.4586,丽水市,莲都小学,,27,6,23,3,14,84,,74,74,14,18,4,4,0.4,0.4
2024-09-23T1700,1269A,119.879,28.4231,丽水市,余庄前,,21,13,25,8,13,65,,65,65,14,16,4,4,0.3,0.3
2024-09-23T1700,1173A,119.176,34.5885,连云港市,市环境监测站,,43,31,30,7,8,135,,116,116,15,21,9,9,0.7,0.6
2024-09-23T1700,3000A,119.3581,34.6972,连云港市,德源药业,,37,27,23,7,6,118,,112,112,24,16,8,6,0.5,0.2
2024-09-23T1700,3007A,119.178,34.844,连云港市,新城一中,,47,34,30,13,12,150,,119,119,24,27,10,9,1.1,0.8
2024-09-23T1700,3008A,119.3608,34.7519,连云港市,胡沟管理处,,43,22,19,12,4,136,,113,113,12,11,9,8,0.4,0.3
2024-09-23T1700,3009A,119.1478,34.5911,连云港市,矿山设计院,,43,29,29,12,11,137,,113,113,16,18,11,8,1.0,0.7
2024-09-23T1700,3434A,119.2413,34.6539,连云港市,工贸学校,,40,18,25,7,9,128,,116,116,21,20,11,10,1.0,0.9
2024-09-23T1700,3664A,119.4172,34.7341,连云港市,连云街道,,40,23,26,10,8,125,,116,116,23,21,6,5,0.4,0.4
2024-09-23T1700,2571A,102.3431,27.8099,凉山彝族自治州,青龙寺,臭氧1小时,60,14,16,12,7,168,,113,113,5,4,9,4,0.8,0.4
2024-09-23T1700,2572A,102.2721,27.8415,凉山彝族自治州,邛海宾馆,,50,45,24,23,14,159,,114,114,12,8,13,7,0.9,0.5
2024-09-23T1700,2573A,102.2625,27.898,凉山彝族自治州,西昌市政府,,44,26,21,17,14,140,,102,102,6,7,10,7,0.7,0.4
2024-09-23T1700,2574A,102.2685,27.8851,凉山彝族自治州,凉山州政府,,48,37,22,21,12,152,,112,112,10,8,11,6,0.8,0.7
2024-09-23T1700,2575A,102.237,27.8914,凉山彝族自治州,长安,,46,38,32,18,14,146,,105,105,12,7,10,8,0.6,0.6
2024-09-23T1700,2212A,123.2,41.1953,辽阳市,宏伟区,,40,40,31,17,15,72,,76,76,35,24,27,14,1.2,0.6
2024-09-23T1700,2213A,123.1683,41.2495,辽阳市,新华园,颗粒物(PM10),52,54,57,28,19,76,,66,66,29,37,23,14,1.2,0.9
2024-09-23T1700,2214A,123.2354,41.2639,辽阳市,滨河路,颗粒物(PM10),53,56,53,19,20,87,,79,79,28,29,20,15,1.0,0.8
2024-09-23T1700,2215A,123.149,41.2991,辽阳市,铁西工业园,,47,47,53,21,24,82,,66,66,22,32,17,15,0.9,1
2024-09-23T1700,2227A,125.1358,42.8845,辽源市,环保局,,26,17,31,3,12,82,,75,75,6,17,8,8,0.6,0.7
2024-09-23T1700,3239A,125.0764,42.9078,辽源市,银鹰制药,,,,51,,33,,,,,,27,,7,,0.7
2024-09-23T1700,1625A,115.9848,36.4372,聊城市,区政府,,50,36,36,16,16,157,,130,130,15,32,11,11,0.4,0.4
2024-09-23T1700,2878A,116.0072,36.4343,聊城市,聊大东校,臭氧1小时,54,34,39,17,22,163,,139,139,18,34,11,11,0.4,0.4
2024-09-23T1700,3200A,115.9819,36.4978,聊城市,监控中心,臭氧1小时,60,41,41,22,20,168,,136,136,20,45,9,9,0.2,0.2
2024-09-23T1700,3513A,116.0445,36.4361,聊城市,九州社区,臭氧1小时,74,41,44,18,19,179,,142,142,11,32,4,6,0.5,0.5
2024-09-23T1700,4018A,116.0567,36.4608,聊城市,星美广场,臭氧1小时,67,53,53,18,19,173,,142,142,14,34,7,9,0.3,0.3
2024-09-23T1700,2632A,94.3681,29.6376,林芝市,林芝监测站,,20,17,11,3,7,62,,54,54,2,6,10,9,0.3,0.3
2024-09-23T1700,2633A,94.3616,29.6616,林芝市,林芝人民医院,,20,12,10,3,7,63,,54,54,5,8,8,8,0.2,0.2
2024-09-23T1700,2603A,100.0781,23.8982,临沧市,市环保局,,28,,23,19,15,74,,71,71,7,12,4,5,0.3,0.5
2024-09-23T1700,2604A,100.0894,23.8822,临沧市,市气象局,,25,16,21,14,20,79,,71,71,6,11,4,4,0.4,0.5
2024-09-23T1700,1733A,111.5531,36.0783,临汾市,临钢医院,颗粒物(PM10),54,57,79,17,37,151,,124,124,25,33,7,7,0.7,0.6
2024-09-23T1700,1734A,111.5028,36.0714,临汾市,技工学校,臭氧1小时,58,51,78,25,46,166,,135,135,13,32,8,7,1.0,1.1
2024-09-23T1700,1736A,111.5018,36.0855,临汾市,市委,臭氧1小时,60,44,75,19,34,168,,137,137,14,29,8,8,0.7,0.8
2024-09-23T1700,3018A,111.505,36.1014,临汾市,唐尧大酒店,,49,37,73,23,37,156,,126,126,14,28,6,6,0.7,0.8
2024-09-23T1700,3668A,111.5036,36.0414,临汾市,城南,臭氧1小时,60,37,77,33,43,168,,144,144,12,34,8,6,0.8,0.6
2024-09-23T1700,2667A,103.2069,35.5993,临夏回族自治州,环保局,,38,22,29,9,16,120,,96,96,6,10,8,8,0.3,0.4
2024-09-23T1700,2668A,103.2417,35.6057,临夏回族自治州,建设大厦,,36,28,31,11,14,115,,96,96,6,10,10,9,0.3,0.3
2024-09-23T1700,1618A,118.3429,35.0532,临沂市,沂河小区,,43,31,28,15,13,135,,114,114,8,9,7,7,0.3,0.3
2024-09-23T1700,1619A,118.295,35.0583,临沂市,鲁南制药厂,,45,,19,28,23,141,,119,119,14,17,6,6,0.4,0.4
2024-09-23T1700,1620A,118.2794,34.9976,临沂市,新光毛纺厂,,43,27,19,11,8,136,,111,111,16,19,5,6,0.5,0.5
2024-09-23T1700,1621A,118.3956,35.0888,临沂市,河东保险公司,,45,24,24,8,11,141,,118,118,19,27,7,7,0.5,0.6
2024-09-23T1700,3370A,118.3564,35.0215,临沂市,十里堡居委,,45,24,19,9,8,142,,115,115,12,15,9,9,0.4,0.5
2024-09-23T1700,3496A,118.3604,35.1084,临沂市,南坊新区,,44,24,26,9,7,139,,114,114,14,19,9,9,0.4,0.4
2024-09-23T1700,3860A,118.3920,35.0300,临沂市,皇山花园小区,,43,36,31,16,15,136,,110,110,15,23,8,8,0.1,0.2
2024-09-23T1700,1870A,109.4856,24.3895,柳州市,柳东小学,,36,33,26,12,14,113,,107,107,4,6,8,9,0.5,0.5
2024-09-23T1700,1871A,109.4157,24.3277,柳州市,环保监测站,,34,17,28,14,13,107,,108,108,6,7,8,9,0.7,0.7
2024-09-23T1700,1872A,109.389,24.341,柳州市,河西水厂,,33,30,34,14,16,104,,103,103,7,8,9,10,0.9,0.9
2024-09-23T1700,1873A,109.4311,24.2921,柳州市,市四中,,37,37,22,13,9,118,,115,115,4,5,6,8,0.8,0.7
2024-09-23T1700,1874A,109.4006,24.3631,柳州市,市九中,,33,31,34,19,14,105,,108,108,7,8,6,7,0.6,0.7
2024-09-23T1700,1875A,109.4958,24.3134,柳州市,古亭山,,39,36,28,16,12,122,,114,114,9,10,8,8,0.7,0.7
2024-09-23T1700,3402A,109.5422,24.3996,柳州市,市二中,,38,25,26,14,14,119,,113,113,9,10,9,9,0.5,0.4
2024-09-23T1700,2307A,116.5079,31.737,六安市,监测大楼,,41,26,29,13,17,129,,123,123,7,14,4,5,0.3,0.4
2024-09-23T1700,2308A,116.4738,31.7643,六安市,皖西学院,,41,37,43,9,15,129,,127,127,7,17,5,5,0.2,0.2
2024-09-23T1700,2309A,116.4996,31.7905,六安市,朝阳厂,,40,23,29,13,16,127,,122,122,5,17,1,2,0.2,0.3
2024-09-23T1700,2310A,116.5567,31.7886,六安市,开发区,,40,24,42,13,20,126,,124,124,11,20,3,2,0.3,0.4
2024-09-23T1700,2577A,104.83,26.5917,六盘水市,黄土坡,,31,14,17,11,14,98,,97,97,6,7,5,7,0.4,0.5
2024-09-23T1700,2578A,104.89,26.5939,六盘水市,水钢,,30,25,25,10,13,95,,92,92,8,10,8,8,0.4,0.4
2024-09-23T1700,2579A,104.8475,26.5894,六盘水市,民中,,31,16,16,12,11,98,,97,97,5,7,7,7,0.3,0.3
2024-09-23T1700,2580A,104.9544,26.5506,六盘水市,双水,,31,17,25,3,11,97,,90,90,5,9,6,9,0.3,0.3
2024-09-23T1700,2336A,117.0217,25.1033,龙岩市,龙岩市监测站,,20,12,6,9,3,63,,58,58,11,9,7,7,0.6,0.5
2024-09-23T1700,2337A,117.0258,25.0661,龙岩市,闽西职业技术学院,,21,,6,13,2,66,,60,60,6,4,4,3,0.6,0.5
2024-09-23T1700,2338A,117.0196,25.0306,龙岩市,龙岩学院,,22,10,6,8,2,68,,57,57,12,6,2,2,0.6,0.5
2024-09-23T1700,2885A,104.9339,33.3826,陇南市,滨江中学,,49,49,45,19,16,90,,80,80,7,12,7,8,0.6,0.6
2024-09-23T1700,3247A,104.955,33.371,陇南市,市总工会,,33,33,34,10,8,92,,82,82,4,9,8,8,0.4,0.4
2024-09-23T1700,2487A,111.9589,27.8901,娄底市,电视发射台,颗粒物(PM10),66,82,43,21,17,133,,117,117,8,7,7,5,0.5,0.3
2024-09-23T1700,2488A,111.9975,27.725,娄底市,市监测站,,45,41,53,28,21,144,,130,130,5,8,6,6,0.7,0.8
2024-09-23T1700,2489A,112.0194,27.7314,娄底市,市委党校,,41,37,41,24,20,131,,119,119,7,6,4,5,0.5,0.6
2024-09-23T1700,2490A,111.9561,27.7569,娄底市,涟钢,,45,45,42,23,22,109,,100,100,18,13,8,5,0.7,0.8
2024-09-23T1700,2491A,111.9892,27.7044,娄底市,市政府,,44,36,35,24,19,139,,126,126,6,8,7,7,0.4,0.3
2024-09-23T1700,1893A,105.4324,28.9634,泸州市,九狮山,,45,37,43,26,29,143,,108,108,14,10,4,6,0.4,0.5
2024-09-23T1700,1894A,105.4427,28.9063,泸州市,小市上码头,,40,34,43,22,26,127,,100,100,13,20,4,5,0.6,0.7
2024-09-23T1700,1895A,105.4241,28.8573,泸州市,兰田宪桥,,43,36,36,25,24,135,,100,100,12,16,4,5,0.4,0.5
2024-09-23T1700,1896A,105.4379,28.8833,泸州市,市环监站,,,32,40,23,30,125,,93,93,12,16,6,7,,0.6
2024-09-23T1700,3490A,105.3617,28.7703,泸州市,纳溪区环保局,,45,34,34,29,30,141,,114,114,20,21,8,6,0.6,0.5
2024-09-23T1700,2183A,111.1406,37.5211,吕梁市,环保局,,48,34,66,22,26,153,,131,131,12,32,7,6,0.5,0.6
2024-09-23T1700,2185A,111.1297,37.5136,吕梁市,自来水公司,,47,31,70,21,22,148,,116,116,18,28,4,5,0.4,0.5
2024-09-23T1700,2867A,111.1283,37.51,吕梁市,马茂庄小学,,49,40,71,19,24,156,,121,121,14,35,4,5,0.5,0.6
2024-09-23T1700,1812A,112.3931,34.6516,洛阳市,市委党校,臭氧1小时,55,41,57,29,36,164,,131,131,8,30,8,9,0.4,0.5
2024-09-23T1700,1814A,112.4657,34.6871,洛阳市,豫西宾馆,,46,46,53,23,26,134,,123,123,25,26,9,12,0.4,0.4
2024-09-23T1700,1815A,112.494,34.6886,洛阳市,河南林校,,49,39,45,26,30,154,,129,129,9,25,6,8,0.5,0.6
2024-09-23T1700,1816A,112.3844,34.623,洛阳市,开发区管委会,,50,43,51,27,35,159,,132,132,10,25,4,3,0.3,0.4
2024-09-23T1700,1817A,112.4267,34.6258,洛阳市,市委新办公区,,49,43,57,31,41,156,,128,128,4,20,4,3,0.5,0.5
2024-09-23T1700,3340A,112.6005,34.6326,洛阳市,伊滨,,50,42,56,29,38,157,,131,131,10,27,9,10,0.5,0.6
2024-09-23T1700,3341A,112.4951,34.6332,洛阳市,中移产业园,臭氧1小时,57,38,56,25,38,165,,136,136,8,26,5,5,0.4,0.4
2024-09-23T1700,3593A,112.5736,34.8993,洛阳市,吉利监测站,,45,41,54,20,26,144,,126,126,5,25,6,6,0.1,0.3
2024-09-23T1700,3635A,112.3677,34.662,洛阳市,河科大西苑校区,臭氧1小时,63,41,53,27,33,170,,135,135,7,30,6,8,0.5,0.5
2024-09-23T1700,3636A,112.4388,34.6781,洛阳市,英才小学,,49,43,55,25,27,156,,132,132,10,36,4,6,0.4,0.5
2024-09-23T1700,2399A,114.051,33.5699,漯河市,三五一五工厂,臭氧1小时,75,66,63,36,37,180,,144,144,11,22,9,10,0.6,0.6
2024-09-23T1700,2400A,114.0055,33.5698,漯河市,漯河大学,臭氧1小时,83,67,66,29,34,186,,148,148,15,22,7,8,0.5,0.5
2024-09-23T1700,2401A,114.0138,33.5828,漯河市,市水利局,臭氧1小时,74,56,64,29,34,179,,143,143,9,20,8,10,0.8,0.8
2024-09-23T1700,2402A,114.0261,33.5698,漯河市,市广电局,臭氧1小时,79,66,59,32,37,183,,145,145,12,21,12,13,0.5,0.5
2024-09-23T1700,3478A,113.9749,33.5664,漯河市,市图书馆,臭氧1小时,87,54,59,21,29,189,,150,150,13,26,4,4,0.5,0.5
2024-09-23T1700,3479A,114.0967,33.5906,漯河市,召陵区卫健委,臭氧1小时,75,63,73,28,40,180,,145,145,9,29,9,10,0.6,0.7
2024-09-23T1700,1798A,118.5092,31.6837,马鞍山市,湖东路四小,,45,24,29,8,10,143,,125,125,12,17,6,8,0.5,0.5
2024-09-23T1700,1799A,118.5024,31.6449,马鞍山市,开发区,,42,28,28,9,11,134,,120,120,17,19,6,7,0.6,0.7
2024-09-23T1700,1800A,118.5228,31.7231,马鞍山市,慈湖,,44,22,23,12,13,140,,123,123,15,20,7,8,0.7,0.8
2024-09-23T1700,1802A,118.6245,31.7241,马鞍山市,濮塘,,,,24,,15,131,,53,,8,15,7,7,0.6,0.6
2024-09-23T1700,3633A,118.4918,31.6809,马鞍山市,雨山,,45,27,30,9,12,142,,122,122,11,17,8,9,0.6,0.6
2024-09-23T1700,1686A,111.0286,21.4688,茂名市,电白南海,,,22,23,,9,68,,66,66,8,7,9,10,0.7,0.7
2024-09-23T1700,1687A,110.9294,21.6533,茂名市,茂石化七小,,20,9,15,7,8,61,,62,62,10,8,6,11,0.7,0.7
2024-09-23T1700,1688A,110.9107,21.6687,茂名市,健康路,,21,,11,3,6,65,,65,65,5,5,11,15,0.7,0.7
2024-09-23T1700,1689A,110.8592,21.6828,茂名市,高岭,,21,7,18,3,10,65,,63,63,7,9,5,9,0.7,0.8
2024-09-23T1700,3450A,111.01,21.5165,茂名市,电白水东,,21,,11,9,10,65,,64,64,9,8,5,6,0.6,0.6
2024-09-23T1700,2539A,104.0308,30.0478,眉山市,黑龙滩水库,,41,41,44,26,30,130,,97,97,7,8,4,4,0.4,0.5
2024-09-23T1700,2540A,103.8416,30.0874,眉山市,气象局,,36,31,48,24,32,113,,58,58,18,34,6,8,0.5,0.6
2024-09-23T1700,3137A,103.8578,30.0744,眉山市,市委党校,,48,48,51,24,28,110,,61,61,20,28,7,8,0.4,0.5
2024-09-23T1700,3148A,103.8291,30.0564,眉山市,区人社局,,39,39,43,19,23,116,,61,60,20,29,8,9,0.5,0.5
2024-09-23T1700,1690A,116.1231,24.3284,梅州市,梅江月梅,,12,,10,8,4,37,,35,35,6,9,6,7,0.5,0.5
2024-09-23T1700,1691A,116.0797,24.2719,梅州市,梅县新城,,15,15,10,7,4,41,,40,40,5,8,4,4,0.5,0.6
2024-09-23T1700,1692A,116.1248,24.2654,梅州市,环境监控中心,,13,13,11,8,3,39,,35,35,9,14,4,4,0.6,0.6
2024-09-23T1700,3315A,116.1233,24.2991,梅州市,梅龙,,14,14,8,6,7,44,,39,39,6,10,8,8,0.6,0.7
2024-09-23T1700,1878A,104.7778,31.4741,绵阳市,富乐山,,42,26,25,18,20,132,,102,102,12,9,3,2,0.5,0.5
2024-09-23T1700,1879A,104.7563,31.4535,绵阳市,市人大,,40,21,29,17,18,128,,102,102,9,11,11,10,0.4,0.4
2024-09-23T1700,1880A,104.6697,31.4668,绵阳市,高新区自来水公司,,37,22,29,9,14,116,,106,106,7,13,4,4,0.4,0.6
2024-09-23T1700,1881A,104.7287,31.5075,绵阳市,三水厂,,40,24,30,19,20,127,,105,105,15,16,7,6,0.4,0.5
2024-09-23T1700,3491A,104.69,31.5322,绵阳市,西科大附属小学,,40,26,38,16,20,128,,101,101,9,24,4,5,0.6,0.7
2024-09-23T1700,3492A,104.5648,31.5343,绵阳市,安州区旅游局,,41,22,33,19,21,130,,100,100,9,17,5,7,0.5,0.6
2024-09-23T1700,1784A,129.61,44.561,牡丹江市,环保大楼,,33,33,25,7,17,62,,60,60,14,13,7,7,0.3,0.3
2024-09-23T1700,1785A,129.6115,44.5782,牡丹江市,文化广场,,30,25,33,21,19,48,,54,54,27,18,8,8,0.4,0.4
2024-09-23T1700,1786A,129.5904,44.5963,牡丹江市,第一医院,,22,22,40,10,23,47,,57,57,28,18,7,7,0.3,0.4
2024-09-23T1700,1787A,129.6364,44.6075,牡丹江市,机车工厂,,35,35,32,22,15,49,,57,57,17,14,90,22,0.3,0.4
2024-09-23T1700,1788A,129.6386,44.5462,牡丹江市,第一中学,,24,24,30,13,17,45,,61,61,31,13,6,6,0.2,0.2
2024-09-23T1700,2531A,105.0703,29.61,内江市,市监测站,,44,,32,20,33,140,,124,124,14,15,3,4,0.4,0.6
2024-09-23T1700,2532A,105.0717,29.5947,内江市,东兴区政府,,42,26,35,25,30,132,,117,117,20,17,4,4,0.7,0.8
2024-09-23T1700,2533A,105.0653,29.5817,内江市,内江二中,,45,44,42,31,42,135,,127,127,13,17,8,8,0.5,0.6
2024-09-23T1700,2534A,105.0406,29.5822,内江市,内江日报社,,42,,36,29,36,131,,117,117,19,20,6,6,0.6,0.6
2024-09-23T1700,2628A,92.0657,31.4846,那曲市,那曲监测站,,36,36,37,10,14,90,,68,68,5,6,8,7,0.6,0.7
2024-09-23T1700,3128A,92.0506,31.4797,那曲市,那曲会议中心,,35,35,41,3,14,95,,76,76,5,16,4,4,1.2,0.9
2024-09-23T1700,1290A,115.8931,28.6843,南昌市,省外办,,48,48,41,22,20,123,,114,114,26,18,9,10,0.5,0.5
2024-09-23T1700,1291A,115.8886,28.7003,南昌市,省林业公司,,45,34,37,14,16,142,,122,122,12,11,7,7,0.5,0.6
2024-09-23T1700,1292A,115.8126,28.7442,南昌市,林科所,,47,41,37,12,12,150,,128,128,18,15,8,8,0.7,0.7
2024-09-23T1700,1294A,115.8518,28.687,南昌市,建工学校,,50,50,43,23,16,143,,121,121,14,14,10,10,0.5,0.5
2024-09-23T1700,1295A,115.8921,28.6424,南昌市,象湖,,46,32,33,17,17,146,,130,130,13,13,8,9,0.6,0.6
2024-09-23T1700,1296A,115.7423,28.7996,南昌市,武术学校,,44,23,19,8,12,138,,125,125,8,7,3,2,0.7,0.7
2024-09-23T1700,1298A,115.9314,28.6842,南昌市,省站,,41,39,33,24,18,129,,116,116,24,22,10,10,0.5,0.5
2024-09-23T1700,3046A,115.9084,28.6062,南昌市,机电学校,,44,42,41,22,16,139,,119,119,16,17,9,8,0.7,0.6
2024-09-23T1700,3690A,115.9721,28.7031,南昌市,外国语学校,,42,41,35,16,12,134,,117,117,12,11,8,7,0.5,0.5
2024-09-23T1700,1905A,106.056,30.8064,南充市,西山风景区,,42,,23,19,18,134,,110,110,4,6,1,2,0.8,0.8
2024-09-23T1700,1906A,106.0789,30.8023,南充市,南充市委,,40,18,24,9,17,128,,108,108,8,12,3,3,0.3,0.4
2024-09-23T1700,1907A,106.1031,30.8217,南充市,南充炼油厂,,44,36,37,19,22,138,,116,116,8,10,3,2,0.2,0.2
2024-09-23T1700,1908A,106.1064,30.7856,南充市,高坪区监测站,,43,31,31,20,19,137,,113,113,11,15,6,6,0.4,0.4
2024-09-23T1700,1909A,106.0642,30.7636,南充市,嘉陵区环保局,,41,33,35,17,15,129,,110,110,8,13,1,2,0.3,0.4
2024-09-23T1700,1910A,106.1087,30.8388,南充市,市环境监测站,,42,32,34,13,24,134,,113,113,9,12,4,3,0.2,0.2
2024-09-23T1700,1151A,118.8086,32.1065,南京市,迈皋桥,,37,19,19,7,7,116,,110,110,11,24,3,4,0.2,0.3
2024-09-23T1700,1152A,118.7538,32.0551,南京市,草场门,,36,24,25,7,9,114,,108,108,14,26,5,6,0.1,0.2
2024-09-23T1700,1153A,118.7794,32.0745,南京市,山西路,,36,34,29,9,12,114,,110,110,9,19,3,4,0.3,0.4
2024-09-23T1700,1154A,118.7752,32.0023,南京市,中华门,,36,19,25,9,8,115,,110,110,13,19,7,7,0.3,0.3
2024-09-23T1700,1155A,118.8109,32.0309,南京市,瑞金路,,36,27,26,7,10,114,,114,114,16,22,7,7,0.3,0.3
2024-09-23T1700,1156A,118.7997,32.0754,南京市,玄武湖,,34,24,27,7,9,107,,105,105,16,27,6,6,0.6,0.4
2024-09-23T1700,1157A,118.6414,32.0931,南京市,浦口,,34,24,30,11,12,106,,102,102,8,11,6,7,0.6,0.5
2024-09-23T1700,1158A,118.7356,31.9996,南京市,奥体中心,,41,31,28,17,12,129,,121,121,13,17,5,6,0.3,0.3
2024-09-23T1700,1159A,118.9125,32.1028,南京市,仙林大学城,,37,24,26,7,12,117,,120,120,13,25,5,6,0.4,0.4
2024-09-23T1700,3422A,118.8436,31.9198,南京市,江宁彩虹桥,,40,23,29,9,8,128,,116,116,9,15,5,4,0.4,0.4
2024-09-23T1700,3423A,119.0138,31.6494,南京市,溧水永阳,,41,22,22,12,10,129,,116,116,5,13,3,4,0.4,0.4
2024-09-23T1700,3424A,118.879,31.3302,南京市,高淳老职中,,41,23,22,12,10,129,,120,120,9,12,4,4,0.3,0.3
2024-09-23T1700,3427A,118.8554,32.3578,南京市,六合雄州,,34,18,29,3,11,108,,101,101,8,19,6,7,0.2,0.2
2024-09-23T1700,1401A,108.3103,22.7881,南宁市,二十一中,,35,32,20,14,11,111,,101,101,12,11,8,5,0.8,0.7
2024-09-23T1700,1402A,108.3141,22.8528,南宁市,北湖,,34,25,21,13,11,107,,95,95,11,14,4,4,0.6,0.6
2024-09-23T1700,1403A,108.3206,22.8225,南宁市,市监测站,,46,46,19,13,15,107,,95,95,18,16,8,6,0.7,0.7
2024-09-23T1700,1404A,108.3829,22.8037,南宁市,大自然花园,,35,24,23,15,13,110,,102,102,11,11,8,9,0.4,0.4
2024-09-23T1700,1405A,108.4394,22.7904,南宁市,仙葫,,,24,22,13,10,108,,97,97,8,8,7,6,,0.7
2024-09-23T1700,1406A,108.2397,22.8467,南宁市,区农职院,,38,26,24,13,11,120,,103,103,6,8,7,10,0.5,0.5
2024-09-23T1700,1407A,108.3275,22.735,南宁市,英华嘉园,,,,21,,10,,,92,,,10,,6,,0.5
2024-09-23T1700,1408A,108.2257,22.7757,南宁市,沙井镇街道办,,37,34,24,22,15,116,,99,99,15,14,4,4,0.5,0.5
2024-09-23T1700,3401A,108.4834,22.7618,南宁市,红星社区,,38,,21,13,11,120,,109,109,8,8,9,9,0.6,0.6
2024-09-23T1700,2332A,118.1681,26.6369,南平市,南平市监测站,,23,6,5,3,4,71,,71,71,7,7,4,4,0.4,0.4
2024-09-23T1700,2333A,118.1825,26.6489,南平市,南平铝业有限公司,,24,6,5,3,1,75,,75,75,8,7,3,4,0.5,0.4
2024-09-23T1700,2334A,118.1756,26.6272,南平市,南平七中,,22,11,12,3,4,69,,72,72,6,6,6,7,0.7,0.7
2024-09-23T1700,1168A,120.9098,31.9663,南通市,狼山街道,,,14,17,3,6,100,,98,98,3,7,6,7,,0.4
2024-09-23T1700,1169A,120.86,32.0005,南通市,虹桥,,32,17,19,3,7,100,,95,95,4,8,6,7,0.5,0.5
2024-09-23T1700,1170A,120.87,32.02,南通市,城中,,31,23,24,3,6,97,,92,92,5,9,6,8,0.5,0.5
2024-09-23T1700,1171A,120.94,31.93,南通市,星湖花园,,32,14,17,3,6,101,,98,98,7,11,5,6,0.4,0.4
2024-09-23T1700,1172A,120.81,32.0417,南通市,紫琅学院,,31,10,20,3,9,98,,96,96,6,10,7,8,0.3,0.4
2024-09-23T1700,3291A,121.067,32.062,南通市,通州监测站,,33,22,21,3,6,104,,99,99,10,12,2,3,0.4,0.4
2024-09-23T1700,3432A,120.9348,31.9883,南通市,环境教育馆,,33,27,23,3,4,103,,97,97,6,9,3,4,0.4,0.4
2024-09-23T1700,2404A,112.5224,33.0122,南阳市,瓦房庄,臭氧1小时,63,51,44,30,25,170,,150,150,17,16,7,5,0.6,0.5
2024-09-23T1700,2405A,112.5003,32.9735,南阳市,汉画馆,臭氧1小时,54,51,41,34,31,163,,142,142,17,17,8,7,0.3,0.3
2024-09-23T1700,2406A,112.5573,33.027,南阳市,气象站,,,56,48,17,18,173,,149,149,14,18,9,9,,0.5
2024-09-23T1700,2407A,112.5481,32.9689,南阳市,理工学院,臭氧1小时,57,50,45,24,20,165,,146,146,19,15,9,7,0.4,0.4
2024-09-23T1700,4008A,112.5234,32.9922,南阳市,卧龙区政府,臭氧1小时,62,56,47,28,25,169,,146,146,17,19,7,6,0.5,0.4
2024-09-23T1700,1234A,121.8358,29.911,宁波市,区环保大楼,颗粒物(PM10),51,52,34,24,15,47,,76,47,53,26,3,4,1.0,0.8
2024-09-23T1700,1235A,121.56,29.82,宁波市,万里学院,,34,34,30,22,15,80,,81,81,25,18,5,6,0.6,0.5
2024-09-23T1700,1236A,121.713,29.9572,宁波市,龙赛医院,,37,37,27,18,9,49,,62,48,56,28,8,9,0.9,0.8
2024-09-23T1700,1239A,121.633,29.7733,宁波市,钱湖水厂,,34,34,30,18,13,72,,70,69,28,18,8,9,0.7,0.5
2024-09-23T1700,1240A,121.5856,29.8635,宁波市,太古小学,,40,40,32,16,10,75,,75,75,34,21,7,8,0.9,0.7
2024-09-23T1700,1241A,121.524,29.8674,宁波市,市环境监测中心,,27,27,27,13,9,75,,76,76,30,21,11,11,0.7,0.6
2024-09-23T1700,2871A,121.6147,29.9017,宁波市,万里国际学校,,33,33,26,19,10,78,,72,72,33,24,7,8,0.7,0.6
2024-09-23T1700,3710A,121.5594,29.8975,宁波市,白沙活动中心,,30,30,26,13,9,71,,72,72,30,18,8,8,0.5,0.4
2024-09-23T1700,2341A,119.5388,26.6612,宁德市,宁德市监测站,,17,16,5,8,5,53,,67,66,28,15,6,6,0.6,0.5
2024-09-23T1700,3209A,119.5231,26.6562,宁德市,宁德一中,,22,22,6,7,3,59,,71,68,16,9,4,4,0.5,0.4
2024-09-23T1700,2618A,98.8601,25.8567,怒江傈僳族自治州,州监测站,,31,18,27,13,17,99,,78,78,9,10,5,6,0.3,0.3
2024-09-23T1700,2619A,98.8546,25.8417,怒江傈僳族自治州,泸水一中,,30,28,24,19,16,93,,72,72,9,14,6,8,0.4,0.4
2024-09-23T1700,1888A,101.6891,26.571,攀枝花市,弄弄坪,,38,30,31,14,13,121,,108,108,12,15,14,12,0.6,0.6
2024-09-23T1700,1889A,101.5769,26.5928,攀枝花市,河门口,,40,17,28,9,16,125,,105,105,10,19,9,12,0.6,0.8
2024-09-23T1700,1890A,101.7169,26.585,攀枝花市,炳草岗,,44,22,29,7,13,139,,110,110,9,25,10,12,0.6,0.8
2024-09-23T1700,1891A,101.7369,26.5008,攀枝花市,仁和,,35,9,23,6,14,110,,101,101,7,14,4,5,0.5,0.5
2024-09-23T1700,2835A,101.7227,26.567,攀枝花市,四十中小,,40,26,32,15,16,126,,108,108,6,16,8,9,0.3,0.5
2024-09-23T1700,1604A,122.0303,41.1489,盘锦市,开发区,,35,35,35,17,21,102,,94,94,19,36,10,15,0.3,0.3
2024-09-23T1700,1605A,122.0485,41.0883,盘锦市,兴隆台,,32,28,35,14,21,100,,98,98,24,43,7,12,0.4,0.5
2024-09-23T1700,1606A,121.8297,41.1028,盘锦市,新生街道,,40,30,22,14,12,125,,110,110,18,35,11,10,0.6,0.4
2024-09-23T1700,1832A,113.3257,33.742,平顶山市,新华旅馆,臭氧1小时,58,45,53,21,31,166,,147,147,17,23,9,9,0.6,0.5
2024-09-23T1700,1833A,113.2919,33.737,平顶山市,规划设计院,,,42,51,22,23,182,,152,152,14,26,,10,0.5,0.5
2024-09-23T1700,1834A,113.182,33.774,平顶山市,平顶山工学院,臭氧1小时,59,37,52,14,24,167,,140,140,9,20,8,11,0.4,0.4
2024-09-23T1700,3204A,113.3025,33.73,平顶山市,规划局,臭氧1小时,73,48,58,29,31,178,,147,147,13,24,8,8,0.8,0.8
2024-09-23T1700,3594A,112.8867,33.9116,平顶山市,石龙区,臭氧1小时,58,60,80,24,26,166,,144,144,16,53,12,17,0.6,0.6
2024-09-23T1700,2656A,106.6692,35.5461,平凉市,聚贤嘉苑,颗粒物(PM10),51,52,59,26,32,134,,121,121,13,36,7,8,0.4,0.5
2024-09-23T1700,2657A,106.7021,35.5307,平凉市,博物馆,颗粒物(PM10),52,53,69,22,31,136,,127,127,8,29,6,13,0.4,0.4
2024-09-23T1700,2347A,114.0997,27.5002,萍乡市,武功山,,34,26,26,7,5,106,,90,90,6,5,8,8,0.3,0.4
2024-09-23T1700,2348A,113.8385,27.6434,萍乡市,中医院,,36,36,36,23,18,115,,108,108,11,8,9,17,0.9,0.7
2024-09-23T1700,2349A,113.8493,27.6253,萍乡市,市政府车库,,37,33,32,7,22,118,,108,108,9,9,8,13,0.5,0.8
2024-09-23T1700,2350A,113.8676,27.6435,萍乡市,市环保局,,42,42,35,19,20,108,,99,99,6,5,8,15,0.8,0.6
2024-09-23T1700,2351A,113.866,27.6198,萍乡市,安源区政府,,38,27,30,11,13,119,,108,108,15,19,5,5,0.3,0.5
2024-09-23T1700,2319A,119.0141,25.4325,莆田市,荔城区仓后路,,21,6,6,3,0,66,,68,66,14,12,7,7,0.4,0.3
2024-09-23T1700,2320A,119.0015,25.4553,莆田市,莆田市监测站,,22,6,5,3,0,70,,74,70,5,3,6,6,0.4,0.3
2024-09-23T1700,2321A,119.1119,25.4561,莆田市,涵江区六中,,22,13,6,6,2,70,,78,68,18,12,8,7,0.6,0.6
2024-09-23T1700,2322A,119.1013,25.3215,莆田市,秀屿区政府,,25,22,11,3,0,79,,85,82,9,6,6,6,0.6,0.6
2024-09-23T1700,2392A,115.0312,35.7636,濮阳市,环保局,臭氧1小时,68,35,36,19,22,174,,148,148,19,30,10,12,0.3,0.3
2024-09-23T1700,2394A,115.0574,35.7609,濮阳市,油田运输公司,臭氧1小时,70,33,38,21,24,176,,148,148,18,31,7,9,0.4,0.4
2024-09-23T1700,2395A,115.0866,35.7754,濮阳市,油田物探公司,臭氧1小时,72,33,49,20,30,177,,150,150,15,37,6,9,0.2,0.3
2024-09-23T1700,3021A,115,35.7668,濮阳市,濮水河管理处,臭氧1小时,65,64,38,25,25,172,,149,149,19,32,8,7,0.2,0.3
2024-09-23T1700,2601A,100.98,22.7633,普洱市,市环保局,,29,27,26,20,17,74,,75,75,5,8,10,10,0.4,0.4
2024-09-23T1700,2602A,100.9817,22.8322,普洱市,普洱第二中学,,30,30,25,13,13,80,,80,80,4,5,8,9,0.4,0.4
2024-09-23T1700,2262A,131.0518,45.8751,七台河市,新一中,,26,26,16,15,9,69,,94,94,25,10,9,9,1.1,1
2024-09-23T1700,3345A,131.0577,45.7879,七台河市,中波台,,34,34,29,7,9,51,,65,65,29,32,6,6,0.5,0.5
2024-09-23T1700,3637A,131.0176,45.7761,七台河市,人民广场,,29,29,36,10,16,52,,67,67,20,26,8,8,0.3,0.4
2024-09-23T1700,3684A,130.8781,45.8222,七台河市,新建矿广场,颗粒物(PM10),84,117,47,17,15,32,,63,63,46,27,5,7,0.5,0.5
2024-09-23T1700,1779A,123.9305,47.3636,齐齐哈尔市,安居小区,,36,36,32,8,14,72,,60,60,18,15,11,10,0.4,0.3
2024-09-23T1700,1780A,123.9488,47.3386,齐齐哈尔市,中心广场,,41,41,34,3,9,70,,57,57,18,15,2,2,0.4,0.4
2024-09-23T1700,1781A,123.9483,47.3227,齐齐哈尔市,农牧车辆厂,,31,31,35,7,8,81,,63,63,7,12,9,9,0.3,0.3
2024-09-23T1700,1783A,123.945,47.2988,齐齐哈尔市,市环境监测站,,32,32,27,7,9,84,,67,67,8,10,8,9,0.2,0.2
2024-09-23T1700,3662A,123.6333,47.2075,齐齐哈尔市,富区青少年活动中心,,29,29,27,3,6,73,,67,67,14,8,5,5,0.3,0.4
2024-09-23T1700,2591A,107.9783,26.5747,黔东南苗族侗族自治州,市环境监测站,,39,22,20,16,14,124,,123,123,12,10,5,5,0.4,0.4
2024-09-23T1700,2881A,107.8908,26.5311,黔东南苗族侗族自治州,凯里学院,,42,24,24,14,12,132,,132,132,9,10,3,4,0.8,0.7
2024-09-23T1700,2593A,107.5228,26.2403,黔南布依族苗族自治州,小围寨,,46,19,20,14,10,147,,137,137,5,4,5,4,0.5,0.5
2024-09-23T1700,3538A,107.5175,26.2978,黔南布依族苗族自治州,沙坝,,45,31,22,17,9,142,,134,134,5,5,4,4,0.6,0.5
2024-09-23T1700,2589A,104.9022,25.0925,黔西南布依族苗族自治州,场坝街,,32,15,25,9,15,100,,89,89,7,12,4,13,0.3,0.3
2024-09-23T1700,2590A,104.8811,25.0992,黔西南布依族苗族自治州,坪东大道,,33,19,23,12,15,104,,89,89,5,13,8,8,0.3,0.3
2024-09-23T1700,2502A,108.6236,21.9667,钦州市,市环保站,,,,33,,11,110,,100,100,,11,7,8,0.5,0.5
2024-09-23T1700,2503A,108.6549,21.9481,钦州市,沙埠小学,,41,41,37,21,13,114,,106,106,12,12,6,6,0.8,0.7
2024-09-23T1700,2504A,108.5989,21.7431,钦州市,港区一小,颗粒物(PM10),64,77,53,23,17,112,,100,100,16,16,6,8,0.6,0.6
2024-09-23T1700,3404A,108.5959,21.9633,钦州市,北职校,,38,37,35,19,15,119,,108,108,9,9,6,7,0.7,0.7
2024-09-23T1700,1042A,119.5134,39.8207,秦皇岛市,北戴河环保局,,46,28,27,11,10,147,,110,110,12,26,4,3,0.6,0.6
2024-09-23T1700,1043A,119.7493,40.0116,秦皇岛市,第一关,颗粒物(PM10),53,56,37,29,21,158,,112,112,14,58,5,3,0.8,0.5
2024-09-23T1700,1044A,119.5897,39.9499,秦皇岛市,监测站,,47,36,29,20,18,148,,109,109,11,28,2,3,0.6,0.5
2024-09-23T1700,1046A,119.5251,39.9041,秦皇岛市,建设大厦,,50,50,43,21,13,148,,118,118,8,26,5,4,0.6,0.4
2024-09-23T1700,3132A,119.610547,39.943889,秦皇岛市,文明里,颗粒物(PM10),51,51,44,19,12,146,,116,116,14,31,4,3,0.7,0.6
2024-09-23T1700,1307A,120.6659,36.2403,青岛市,仰口,,,,19,,10,,,129,129,8,5,6,7,,0.6
2024-09-23T1700,1310A,120.4134,36.0658,青岛市,市南区东部子站,,45,31,36,9,9,144,,123,123,14,25,6,7,0.5,0.5
2024-09-23T1700,1311A,120.3664,36.1032,青岛市,四方区子站,,45,29,36,9,12,143,,123,123,29,29,11,10,0.6,0.5
2024-09-23T1700,1312A,120.2994,36.054,青岛市,市南区西部子站,,46,36,35,3,7,146,,126,126,26,18,10,9,0.6,0.6
2024-09-23T1700,1313A,120.4581,36.0858,青岛市,崂山区子站,,45,22,25,3,4,144,,124,124,10,18,9,9,0.5,0.5
2024-09-23T1700,1314A,120.1983,35.9608,青岛市,黄岛区子站,臭氧1小时,55,31,27,15,10,164,,126,126,13,28,10,10,0.4,0.4
2024-09-23T1700,1315A,120.3999,36.3083,青岛市,城阳区子站,,45,27,33,10,12,141,,128,128,18,26,9,8,0.5,0.5
2024-09-23T1700,1966A,120.0405,35.8735,青岛市,黄岛区4号,臭氧1小时,53,29,25,9,6,162,,133,133,14,18,7,7,0.5,0.5
2024-09-23T1700,3362A,120.5014,36.4034,青岛市,即墨2号,,45,25,30,9,12,141,,123,123,8,18,7,7,0.4,0.4
2024-09-23T1700,3642A,120.3503,36.0736,青岛市,市北区南部,,45,39,36,9,10,141,,123,123,23,29,7,8,0.6,0.5
2024-09-23T1700,3643A,120.3948,36.1805,青岛市,李沧区北部,,44,44,39,14,15,136,,126,126,34,27,10,10,0.7,0.6
2024-09-23T1700,1702A,113.0426,23.691,清远市,环保大楼,,23,16,22,7,4,73,,77,76,12,10,6,7,0.8,0.8
2024-09-23T1700,1703A,113.0208,23.7106,清远市,凤城街办,,22,15,17,11,8,70,,72,72,9,5,7,6,0.7,0.7
2024-09-23T1700,3025A,113.0477,23.6344,清远市,技师学院,,22,17,24,10,13,70,,75,75,11,8,5,6,0.6,0.7
2024-09-23T1700,3318A,112.9903,23.7403,清远市,清新太和,,22,9,14,6,10,70,,72,70,7,7,1,2,0.5,0.5
2024-09-23T1700,3455A,113.076,23.7198,清远市,清城东城,,,,14,7,10,76,,81,80,9,4,,3,0.7,0.7
2024-09-23T1700,2661A,107.6325,35.7357,庆阳市,庆阳五中,,49,49,58,18,30,151,,141,141,9,14,8,8,0.4,0.4
2024-09-23T1700,2662A,107.6364,35.7067,庆阳市,市环保局,,48,44,51,16,27,151,,140,140,9,12,6,7,0.4,0.4
2024-09-23T1700,1916A,103.7897,25.5035,曲靖市,环境监测站,,29,21,22,10,12,91,,84,84,10,11,9,7,0.7,0.8
2024-09-23T1700,1917A,103.8,25.5364,曲靖市,烟厂办公区,,31,,22,19,18,98,,86,86,7,11,4,5,0.4,0.7
2024-09-23T1700,3376A,103.7947,25.462,曲靖市,南苑二区,,32,13,20,6,12,100,,88,88,8,10,9,10,0.7,0.8
2024-09-23T1700,3377A,103.7444,25.5261,曲靖市,曲靖师范学院,,32,,20,11,15,100,,92,92,8,11,11,12,0.5,1
2024-09-23T1700,1264A,118.8692,28.9398,衢州市,环保大楼,,30,17,27,10,13,94,,93,93,14,14,3,3,0.6,0.6
2024-09-23T1700,1265A,118.8709,28.9666,衢州市,实验学校,,27,14,25,9,13,86,,87,87,11,12,2,5,0.5,0.5
2024-09-23T1700,1266A,118.8621,28.9808,衢州市,衢州学院,,26,16,25,9,13,82,,86,86,15,15,6,7,0.5,0.5
2024-09-23T1700,1611A,118.5819,24.9117,泉州市,涂山街,,25,12,4,11,3,79,,63,63,14,9,2,2,0.6,0.5
2024-09-23T1700,1612A,118.5972,24.8978,泉州市,津头埔,,25,12,4,9,3,77,,77,77,20,14,4,3,0.6,0.6
2024-09-23T1700,1613A,118.6663,24.9424,泉州市,万安,,25,12,6,9,3,80,,81,81,11,7,2,2,0.8,0.7
2024-09-23T1700,3529A,118.6333,24.9264,泉州市,城华南路,,25,11,4,3,3,80,,80,80,11,6,4,3,0.4,0.4
2024-09-23T1700,2626A,88.8876,29.2718,日喀则市,日喀则监测站,,29,6,9,3,4,91,,82,82,5,7,5,5,0.3,0.4
2024-09-23T1700,3726A,88.8781,29.2426,日喀则市,林业技术推广中心,,28,6,8,3,5,89,,78,78,6,8,6,6,0.6,0.6
2024-09-23T1700,1659A,119.471,35.4209,日照市,监测站,,46,46,23,16,9,137,,121,121,35,19,14,12,0.5,0.3
2024-09-23T1700,1660A,119.523,35.4216,日照市,市政府广场,臭氧1小时,57,34,21,10,6,165,,135,135,18,14,12,11,0.6,0.5
2024-09-23T1700,1661A,119.5587,35.4044,日照市,港务局,臭氧1小时,60,29,23,16,12,168,,140,140,14,12,10,8,0.6,0.5
2024-09-23T1700,3507A,119.5328,35.4625,日照市,职业技术学院,臭氧1小时,53,34,22,9,7,162,,132,132,14,13,11,10,0.6,0.5
2024-09-23T1700,3604A,119.3266,35.1044,日照市,岚山环保分局,,47,44,33,19,13,149,,126,126,25,26,14,27,0.9,1.8
2024-09-23T1700,1835A,111.1922,34.7752,三门峡市,市政府,,47,36,36,14,18,150,,135,135,12,16,10,13,0.5,0.5
2024-09-23T1700,1836A,111.1587,34.7942,三门峡市,开发区,,44,33,43,12,21,138,,124,124,13,14,9,11,0.3,0.3
2024-09-23T1700,1838A,111.143,34.7955,三门峡市,风景区,颗粒物(PM10),51,52,49,23,22,148,,135,135,14,14,9,12,0.7,0.8
2024-09-23T1700,3039A,111.1911,34.7829,三门峡市,三门峡市第一小学,,44,44,38,16,15,140,,127,127,14,16,8,11,0.5,0.5
2024-09-23T1700,3598A,111.1,34.7167,三门峡市,富达温泉假日酒店,,47,39,47,16,28,149,,133,133,15,18,10,12,0.6,0.5
2024-09-23T1700,2324A,117.6211,26.2625,三明市,三钢,,20,6,6,3,6,61,,69,66,8,6,5,5,0.5,0.4
2024-09-23T1700,2325A,117.635,26.2714,三明市,三明二中,,20,7,10,3,3,63,,70,67,6,5,3,3,0.8,0.6
2024-09-23T1700,2326A,117.6028,26.2378,三明市,三元区政府,,20,7,4,3,1,61,,69,66,12,7,2,2,0.4,0.4
2024-09-23T1700,1876A,109.5078,18.2489,三亚市,河东子站,,16,10,9,3,3,50,,56,50,3,4,3,3,0.2,0.3
2024-09-23T1700,1877A,109.4964,18.2681,三亚市,河西子站,,17,8,8,3,3,52,,51,50,1,4,3,3,0.3,0.3
2024-09-23T1700,3540A,109.7348,18.3443,三亚市,君悦子站,,17,17,9,3,3,42,,52,45,10,8,3,3,0.4,0.3
2024-09-23T1700,2624A,91.7608,29.2313,山南市,山南监测站,,28,7,11,3,5,89,,84,84,4,5,8,8,0.3,0.2
2024-09-23T1700,2625A,91.7706,29.2436,山南市,山南人民医院,,29,11,14,3,7,90,,84,84,6,7,8,8,0.3,0.3
2024-09-23T1700,1674A,116.6794,23.3667,汕头市,金平子站,,18,,11,3,6,56,,61,61,6,13,4,7,0.7,1
2024-09-23T1700,1675A,116.7244,23.3633,汕头市,龙湖子站,,17,,9,9,5,52,,55,55,6,9,6,7,0.6,0.8
2024-09-23T1700,1676A,116.7258,23.2775,汕头市,濠江子站,,,,8,4,5,46,,46,46,11,11,6,6,0.7,0.8
2024-09-23T1700,1677A,116.7519,23.4714,汕头市,澄海子站,,19,,10,9,6,60,,62,62,8,11,4,6,0.7,0.9
2024-09-23T1700,1678A,116.6092,23.2539,汕头市,潮阳子站,,18,10,8,3,3,57,,46,46,3,8,5,5,0.6,0.8
2024-09-23T1700,3444A,116.454,23.2684,汕头市,潮南峡山,,19,11,10,8,8,60,,55,55,5,6,6,6,0.7,0.8
2024-09-23T1700,3624A,116.4069,23.2533,汕头市,潮南子站,,21,21,12,12,10,52,,52,52,15,14,5,5,0.7,0.7
2024-09-23T1700,1693A,115.3653,22.775,汕尾市,市环保局,,16,9,5,3,4,50,,45,45,6,6,7,7,0.7,0.7
2024-09-23T1700,1694A,115.3706,22.7898,汕尾市,市政府,,32,,6,22,5,46,,41,41,10,9,8,8,0.5,0.5
2024-09-23T1700,1695A,115.3622,22.7925,汕尾市,新城中学,,15,6,6,3,1,47,,44,44,7,5,6,6,0.8,0.8
2024-09-23T1700,2645A,109.9154,33.8715,商洛市,监测站,,37,30,35,16,19,116,,103,103,12,22,7,6,0.3,0.4
2024-09-23T1700,3045A,109.9643,33.8471,商洛市,商州区中学,,42,42,45,15,21,109,,101,101,13,28,7,7,0.6,0.7
2024-09-23T1700,2408A,115.6702,34.4285,商丘市,环境监测站,,41,28,36,14,19,129,,116,116,15,21,5,6,0.3,0.4
2024-09-23T1700,2409A,115.6458,34.4045,商丘市,粮食局,,46,29,35,17,26,145,,129,129,7,12,9,9,0.5,0.5
2024-09-23T1700,2410A,115.6293,34.3948,商丘市,睢阳区环保局,,44,35,37,17,20,138,,122,122,13,18,9,9,0.3,0.4
2024-09-23T1700,3171A,115.6071,34.4465,商丘市,梁园区档案局,,42,42,38,20,24,134,,114,114,12,21,10,11,0.3,0.4
2024-09-23T1700,1141A,121.4,31.238,上海市,普陀,,29,29,31,13,11,90,,95,95,16,21,8,6,0.9,0.8
2024-09-23T1700,1142A,121.478,31.2036,上海市,十五厂,,31,26,27,7,11,98,,103,103,17,23,8,9,0.4,0.4
2024-09-23T1700,1143A,121.467,31.3008,上海市,虹口,,30,19,27,3,12,95,,95,95,10,22,9,10,0.4,0.6
2024-09-23T1700,1144A,121.412,31.1654,上海市,徐汇上师大,,31,27,31,11,15,98,,101,101,20,26,7,7,0.7,0.7
2024-09-23T1700,1145A,121.536,31.2659,上海市,杨浦四漂,,31,24,27,7,10,97,,101,101,13,18,6,7,0.4,0.5
2024-09-23T1700,1147A,121.425,31.2261,上海市,静安监测站,,30,26,30,10,11,94,,99,99,18,25,6,6,0.6,0.5
2024-09-23T1700,1148A,121.703,31.1907,上海市,浦东川沙,,29,25,28,6,7,90,,102,102,20,23,6,6,0.6,0.7
2024-09-23T1700,1149A,121.533,31.2284,上海市,浦东新区监测站,,28,20,26,10,10,88,,94,94,19,21,6,7,0.5,0.6
2024-09-23T1700,1150A,121.577,31.2071,上海市,浦东张江,,25,21,24,8,10,80,,85,85,18,23,6,6,0.6,0.6
2024-09-23T1700,3265A,121.4316,31.3322,上海市,宝山庙行,,28,22,28,8,10,89,,95,95,18,26,8,8,0.6,0.7
2024-09-23T1700,3266A,121.8791,31.4662,上海市,崇明上实东滩,,30,14,18,3,7,94,,94,94,4,6,10,10,0.4,0.5
2024-09-23T1700,3268A,121.3162,31.2838,上海市,嘉定南翔,,33,22,26,3,10,103,,100,100,12,22,7,8,0.7,0.8
2024-09-23T1700,3269A,121.3359,30.7456,上海市,金山新城,,43,27,27,14,12,137,,109,109,15,19,6,6,0.6,0.7
2024-09-23T1700,3270A,121.4996,31.0739,上海市,闵行浦江,,33,24,27,8,10,105,,106,106,17,25,6,7,0.7,0.8
2024-09-23T1700,3271A,121.2886,31.1663,上海市,青浦徐泾,,33,24,28,11,12,103,,108,108,18,24,6,7,0.5,0.6
2024-09-23T1700,3272A,121.2186,31.0378,上海市,松江图书馆,,,22,29,10,8,123,,119,119,16,23,4,5,,0.6
2024-09-23T1700,3273A,121.3902,31.2059,上海市,长宁仙霞,,30,28,31,14,11,93,,102,102,22,24,11,10,0.9,0.8
2024-09-23T1700,3274A,121.7965,31.0507,上海市,浦东惠南,,30,20,26,6,9,95,,96,96,11,25,8,8,0.6,0.7
2024-09-23T1700,3544A,121.4891,30.925,上海市,奉贤南桥新城,,37,25,27,16,11,118,,110,110,19,23,8,9,0.5,0.6
2024-09-23T1700,2381A,118.005,28.4572,上饶市,百草园,细颗粒物(PM2.5),70,,24,51,15,84,,93,74,7,9,2,2,0.6,0.6
2024-09-23T1700,2382A,117.9756,28.4436,上饶市,市监测站,,30,23,27,7,12,95,,96,88,10,11,6,4,0.6,0.6
2024-09-23T1700,2383A,117.9519,28.4628,上饶市,凤凰光学,,30,17,24,17,11,95,,92,86,11,10,3,4,0.7,0.7
2024-09-23T1700,3413A,118.1953,28.4401,上饶市,广丰区教体局,,30,,26,15,14,94,,91,83,8,10,7,8,0.9,0.9
2024-09-23T1700,3685A,117.897,28.4315,上饶市,双创科技城,,30,17,26,8,13,96,,92,85,12,12,3,3,0.5,0.5
2024-09-23T1700,1669A,113.5824,24.7733,韶关市,市八中,,42,38,23,29,14,64,,77,74,6,3,9,11,0.7,0.6
2024-09-23T1700,1671A,113.5917,24.7972,韶关市,园林处,,43,35,25,30,18,64,,81,76,6,4,9,10,0.6,0.5
2024-09-23T1700,1672A,113.6735,24.7791,韶关市,韶关学院,,25,23,22,17,14,68,,78,76,8,9,7,8,0.6,0.6
2024-09-23T1700,1673A,113.5971,24.6863,韶关市,曲江监测站,,39,39,25,26,14,67,,79,77,8,7,9,11,0.6,0.5
2024-09-23T1700,3622A,113.5556,24.8082,韶关市,碧湖山庄,,42,42,26,27,15,67,,73,72,7,4,8,9,0.5,0.5
2024-09-23T1700,2462A,111.5239,27.3033,邵阳市,市水土所,,44,37,33,25,18,138,,127,127,6,6,11,10,0.4,0.4
2024-09-23T1700,2463A,111.4733,27.2317,邵阳市,市一中,,45,37,37,22,20,143,,132,132,8,7,7,8,0.6,0.6
