timepoint,stationcode,longitude,latitude,area,positionname,primarypollutant,aqi,pm10,pm10_24h,pm2_5,pm2_5_24h,o3,o3_24h,o3_8h,o3_8h_24h,no2,no2_24h,so2,so2_24h,co,co_24h
2024-09-23T2100,2566A,102.1879,31.914,阿坝藏族羌族自治州,州农科所,,18,15,20,12,10,32,,51,50,10,12,6,7,0,0
2024-09-23T2100,2568A,102.2502,31.8896,阿坝藏族羌族自治州,马师校,,25,25,20,7,7,16,,45,42,16,6,4,4,0.5,0.4
2024-09-23T2100,3994A,102.2165,31.9024,阿坝藏族羌族自治州,马尔康中学西区,,38,,17,26,16,20,,50,47,14,8,5,6,0.5,0.5
2024-09-23T2100,2695A,80.292,41.1694,阿克苏地区,电视台,颗粒物(PM10),78,106,89,40,35,61,,122,118,58,20,3,4,0.7,0.5
2024-09-23T2100,2696A,80.2613,41.1551,阿克苏地区,艺术中心,颗粒物(PM10),72,94,91,40,34,73,,121,118,32,21,4,4,0.8,0.6
2024-09-23T2100,2204A,105.6467,38.8363,阿拉善盟,西城区西花园,颗粒物(PM10),59,67,31,27,16,102,,150,135,34,16,8,8,0.9,0.7
2024-09-23T2100,2205A,105.6985,38.8411,阿拉善盟,蒙二幼,颗粒物(PM10),57,64,22,12,7,76,,127,115,27,12,5,5,0.7,0.5
2024-09-23T2100,2206A,105.724,38.8516,阿拉善盟,环保局新楼,,33,18,16,8,7,104,,123,118,8,9,8,9,0.4,0.4
2024-09-23T2100,2708A,88.1264,47.8517,阿勒泰地区,市站,,27,27,19,11,8,51,,89,84,46,15,8,7,0.5,0.4
2024-09-23T2100,2630A,80.1161,32.5,阿里地区,阿里监测站,,,5,19,,9,114,,122,122,7,25,6,7,0.3,0.4
2024-09-23T2100,3192A,80.0903,32.5028,阿里地区,阿里藏医院,,38,12,17,3,4,120,,121,121,6,14,6,6,0.2,0.3
2024-09-23T2100,2642A,109.0318,32.6537,安康市,香溪洞,,41,41,34,11,11,114,,117,114,7,8,8,9,0.2,0.2
2024-09-23T2100,2643A,109.0281,32.6939,安康市,安康市监测站,颗粒物(PM10),53,55,35,31,19,87,,122,113,16,10,8,10,0.5,0.5
2024-09-23T2100,2644A,109.0072,32.6975,安康市,汉滨区检察院,颗粒物(PM10),51,51,32,19,12,72,,124,115,24,10,8,9,0.5,0.4
2024-09-23T2100,2291A,117.0809,30.5177,安庆市,环科院,,39,39,31,14,15,120,,148,147,14,15,8,10,0.5,0.5
2024-09-23T2100,2292A,117.0331,30.5119,安庆市,马山宾馆,,40,34,30,13,14,128,,149,148,14,14,10,11,0.2,0.3
2024-09-23T2100,2294A,116.9896,30.6145,安庆市,安庆大学,,38,36,31,19,14,119,,128,126,10,11,9,9,0.3,0.3
2024-09-23T2100,3173A,117.0598,30.5351,安庆市,市人大,,38,30,31,14,15,119,,143,140,12,12,10,10,0.5,0.5
2024-09-23T2100,3123A,105.9408,26.2431,安顺市,凤凰山,,49,38,26,34,20,95,,106,105,9,7,13,13,0.5,0.5
2024-09-23T2100,3124A,105.9439,26.2564,安顺市,金钟山,细颗粒物(PM2.5),59,43,27,42,23,96,,107,106,8,6,12,12,0.6,0.6
2024-09-23T2100,3125A,105.8983,26.2481,安顺市,娄家坡,细颗粒物(PM2.5),74,63,29,54,25,91,,106,105,15,8,12,10,0.7,0.6
2024-09-23T2100,1819A,114.3551,36.1017,安阳市,红庙街,,49,49,51,23,21,114,,146,144,16,17,9,9,0.7,0.9
2024-09-23T2100,1820A,114.361,36.0681,安阳市,银杏小区,,49,49,44,9,14,98,,141,137,24,18,7,6,0.4,0.4
2024-09-23T2100,3141A,114.3922,36.0878,安阳市,信访局,,49,49,50,32,23,116,,149,146,25,25,8,7,0.5,0.7
2024-09-23T2100,3669A,114.4705,36.0637,安阳市,左辅环卫站,颗粒物(PM10),70,90,56,50,26,75,,138,122,50,37,5,6,1.2,1.2
2024-09-23T2100,3703A,114.2917,36.0949,安阳市,安钢职工学校,细颗粒物(PM2.5),57,60,62,40,25,79,,135,128,36,24,8,8,0.6,0.5
2024-09-23T2100,1748A,123.044,41.1196,鞍山市,深沟寺,,37,37,29,22,16,67,,92,88,26,23,7,9,0.8,0.8
2024-09-23T2100,1749A,123.011,41.0931,鞍山市,太阳城,,39,39,38,21,21,52,,89,82,28,28,8,14,0.8,1.2
2024-09-23T2100,1750A,123.0485,41.1442,鞍山市,太平,,43,43,38,22,17,59,,80,76,41,36,12,14,0.9,1
2024-09-23T2100,1751A,122.9642,41.0971,鞍山市,铁西三道街,颗粒物(PM10),65,79,59,40,25,20,,83,68,75,42,9,11,0.9,1
2024-09-23T2100,1752A,122.9341,41.0833,鞍山市,铁西工业园区,颗粒物(PM10),63,76,64,39,26,35,,90,78,54,34,8,10,0.9,0.8
2024-09-23T2100,1753A,123.022,41.0821,鞍山市,明达新区,,45,45,40,24,20,53,,78,71,25,28,7,12,0.9,1.3
2024-09-23T2100,2195A,107.4212,40.761,巴彦淖尔市,附二中,颗粒物(PM10),111,172,94,48,40,13,,60,,126,60,10,14,1.9,0.9
2024-09-23T2100,2196A,107.37,40.7372,巴彦淖尔市,市环保大楼,,,,67,,27,14,,148,120,,40,6,9,1.0,0.6
2024-09-23T2100,1956A,86.1472,41.7538,巴音郭楞蒙古自治州,孔雀公园,颗粒物(PM10),68,86,60,13,18,99,,102,102,6,18,5,6,0.1,0.3
2024-09-23T2100,1957A,86.1972,41.7166,巴音郭楞蒙古自治州,棉纺厂,颗粒物(PM10),88,125,61,23,19,98,,107,107,7,12,5,6,0.2,0.2
2024-09-23T2100,1958A,86.2357,41.7173,巴音郭楞蒙古自治州,经济开发区,颗粒物(PM10),147,244,62,35,18,101,,107,107,4,5,7,7,0.2,0.2
2024-09-23T2100,2914A,106.7677,31.8794,巴中市,苏山坪,,34,31,21,23,14,106,,118,118,13,9,4,3,0.3,0.3
2024-09-23T2100,3182A,106.7656,31.8545,巴中市,丽阳花园,细颗粒物(PM2.5),90,94,30,67,19,63,,113,103,31,19,6,5,0.7,0.5
2024-09-23T2100,3183A,106.7418,31.8654,巴中市,圣泉水务公司,颗粒物(PM10),60,70,26,41,17,43,,120,106,50,20,3,3,0.6,0.5
2024-09-23T2100,3616A,106.7616,31.8344,巴中市,市中心医院,细颗粒物(PM2.5),70,62,25,51,19,47,,117,106,42,18,5,5,0.6,0.5
2024-09-23T2100,2235A,122.7911,45.6077,白城市,洮北区环保局,,29,29,22,6,9,76,,89,88,11,9,6,5,0.1,0.1
2024-09-23T2100,2236A,122.8738,45.5725,白城市,市环保局,,,53,42,,6,61,,82,78,,18,5,4,0.2,0.2
2024-09-23T2100,2231A,126.4219,41.9171,白山市,喜丰,颗粒物(PM10),64,77,34,19,10,8,,62,47,36,17,9,8,0.6,0.5
2024-09-23T2100,2232A,126.4077,41.9419,白山市,环保局,颗粒物(PM10),63,76,32,19,9,4,,55,39,30,17,5,7,0.9,0.6
2024-09-23T2100,2647A,104.1724,36.5446,白银市,第三小学,颗粒物(PM10),58,66,31,28,17,87,,103,100,37,19,76,19,0.9,0.8
2024-09-23T2100,2648A,104.1465,36.5482,白银市,动力公司,,44,44,30,18,16,56,,108,100,40,17,39,12,0.6,0.5
2024-09-23T2100,2512A,106.6103,23.9011,百色市,市监测站,,34,34,35,17,13,75,,120,110,19,13,9,6,0.6,0.5
2024-09-23T2100,2513A,106.6538,23.8859,百色市,市中心血站,,,,41,,14,,,120,120,28,17,7,7,,0.5
2024-09-23T2100,3406A,106.6085,23.8798,百色市,祈福高中,颗粒物(PM10),54,58,47,23,17,32,,116,105,50,18,4,4,0.7,0.6
2024-09-23T2100,2270A,117.396,32.939,蚌埠市,工人疗养院,颗粒物(PM10),52,54,49,22,19,85,,120,115,24,19,8,7,0.4,0.4
2024-09-23T2100,2271A,117.3605,32.9427,蚌埠市,百货大楼,,41,41,45,11,16,92,,118,114,18,20,8,10,0.4,0.4
2024-09-23T2100,2273A,117.4185,32.8911,蚌埠市,蚌埠学院,,41,41,37,17,19,68,,122,105,43,23,12,9,0.2,0.3
2024-09-23T2100,2274A,117.3533,32.9673,蚌埠市,淮上区政府,,48,48,43,24,20,85,,114,110,23,21,6,7,0.3,0.3
2024-09-23T2100,2275A,117.3145,32.8977,蚌埠市,高新区,,39,39,41,10,21,91,,123,118,26,26,9,10,0.3,0.3
2024-09-23T2100,3715A,117.3092,32.9314,蚌埠市,蚌埠田家炳中学,,44,44,48,18,20,100,,122,119,13,22,6,7,0.4,0.4
2024-09-23T2100,1585A,109.8756,40.6532,包头市,市环境监测站,颗粒物(PM10),73,96,57,29,26,9,,108,84,118,55,10,12,0.9,0.9
2024-09-23T2100,1587A,109.9991,40.5842,包头市,包头八中,颗粒物(PM10),69,88,53,36,28,18,,113,102,114,48,16,14,1.1,1
2024-09-23T2100,1588A,109.8538,40.6821,包头市,青山宾馆,颗粒物(PM10),65,80,43,27,23,10,,108,87,105,44,9,13,0.8,0.9
2024-09-23T2100,1589A,109.8642,40.6288,包头市,惠龙物流,颗粒物(PM10),61,72,62,30,22,36,,113,104,98,56,18,19,0.9,0.9
2024-09-23T2100,1590A,110.0377,40.5546,包头市,东河鸿龙湾,颗粒物(PM10),62,73,43,43,18,35,,111,103,90,40,64,20,0.8,0.6
2024-09-23T2100,3283A,109.9154,40.5685,包头市,滨河大厦,颗粒物(PM10),59,68,41,30,18,67,,112,106,75,48,19,15,0.8,0.7
2024-09-23T2100,3419A,109.9447,40.6261,包头市,包头市委党校,颗粒物(PM10),63,76,45,27,20,13,,122,103,122,52,14,16,0.7,1
2024-09-23T2100,3683A,109.8331,40.6576,包头市,昆区政府,颗粒物(PM10),55,60,49,34,25,18,,113,104,105,46,11,17,1.0,0.9
2024-09-23T2100,1930A,107.185,34.3063,宝鸡市,庙沟村,颗粒物(PM10),54,57,47,32,27,125,,152,152,30,17,9,9,0.5,0.4
2024-09-23T2100,1931A,107.0708,34.3017,宝鸡市,竹园沟,细颗粒物(PM2.5),55,52,45,39,32,86,,138,136,16,13,7,7,0.6,0.5
2024-09-23T2100,1932A,107.1906,34.3672,宝鸡市,三陆医院,细颗粒物(PM2.5),70,82,65,51,40,91,,155,149,50,33,7,12,0.7,0.6
2024-09-23T2100,1933A,107.1431,34.3547,宝鸡市,监测站,颗粒物(PM10),65,79,55,45,36,76,,152,142,35,19,7,7,0.6,0.6
2024-09-23T2100,1934A,107.1186,34.3739,宝鸡市,技工学校,细颗粒物(PM2.5),77,80,56,56,37,87,,154,147,33,21,10,9,0.7,0.6
2024-09-23T2100,1935A,107.3906,34.3528,宝鸡市,陈仓区环保局家属楼,细颗粒物(PM2.5),78,86,58,57,36,89,,159,153,58,32,10,10,0.8,0.7
2024-09-23T2100,1936A,107.2058,34.3497,宝鸡市,文理学院,颗粒物(PM10),70,89,58,34,29,81,,162,155,41,20,8,9,0.7,0.6
2024-09-23T2100,1937A,107.2386,34.3622,宝鸡市,三迪小学,细颗粒物(PM2.5),67,79,60,48,38,97,,154,148,53,31,10,11,0.8,0.7
2024-09-23T2100,1051A,115.493,38.8632,保定市,游泳馆,颗粒物(PM10),53,56,48,15,21,98,,139,134,30,34,1,2,0.3,0.3
2024-09-23T2100,1052A,115.5213,38.8959,保定市,华电二区,,47,47,40,29,26,95,,132,128,23,22,2,3,0.1,0.1
2024-09-23T2100,1053A,115.4713,38.9108,保定市,接待中心,,48,48,44,22,26,100,,131,129,27,29,3,2,0.1,0.1
2024-09-23T2100,1054A,115.4612,38.8416,保定市,地表水厂,颗粒物(PM10),61,72,56,21,27,89,,130,125,36,37,3,2,0,0
2024-09-23T2100,3581A,115.31981,38.95208,保定市,满城区生态环境分局,颗粒物(PM10),70,90,45,46,16,80,,131,125,36,24,4,3,0.5,0.3
2024-09-23T2100,3582A,115.47694,38.76408,保定市,清苑区第二中学,颗粒物(PM10),69,88,51,41,23,66,,134,123,49,33,1,2,0.5,0.3
2024-09-23T2100,3583A,115.62909,39.02311,保定市,徐水物探局,颗粒物(PM10),65,79,42,31,18,99,,132,130,29,30,5,4,0.5,0.4
2024-09-23T2100,4004A,115.4202,38.8656,保定市,双鹰农机,颗粒物(PM10),53,56,57,30,26,89,,134,129,38,38,2,2,0.3,0.3
2024-09-23T2100,4034A,115.5150,38.8590,保定市,植保所站,颗粒物(PM10),61,72,48,32,25,82,,141,132,42,31,2,4,0.2,0.2
2024-09-23T2100,2594A,99.1678,25.1081,保山市,市环境监测站,,43,43,29,28,15,65,,93,88,10,9,7,7,0.6,0.5
2024-09-23T2100,2595A,99.1711,25.1328,保山市,市环保局,,46,46,31,26,14,75,,97,94,6,6,6,6,0.4,0.4
2024-09-23T2100,1867A,109.1436,21.4086,北海市,海滩公园,,24,20,26,15,12,74,,91,88,7,8,7,6,0.5,0.5
2024-09-23T2100,1868A,109.0981,21.4661,北海市,新市环保局,,28,22,26,19,16,77,,102,97,11,8,4,5,0.7,0.7
2024-09-23T2100,1869A,109.1778,21.5233,北海市,北海工业园,,28,28,27,17,17,72,,93,90,9,10,13,7,0.6,0.6
2024-09-23T2100,3400A,109.1911,21.4415,北海市,龙潭自来水厂,,33,,22,23,15,67,,89,87,7,6,6,5,0.6,0.6
2024-09-23T2100,1001A,116.3621,39.8784,北京市,万寿西宫,,46,46,38,21,17,99,,110,110,32,35,1,2,0.5,0.4
2024-09-23T2100,1002A,116.2202,40.2915,北京市,定陵,,24,24,19,13,11,47,,83,76,8,9,1,2,0.4,0.3
2024-09-23T2100,1003A,116.4174,39.9289,北京市,东四,,36,36,38,14,17,115,,120,120,20,30,5,5,0.5,0.5
2024-09-23T2100,1004A,116.4072,39.8863,北京市,天坛,,26,26,29,13,16,82,,107,106,24,27,3,2,0.4,0.4
2024-09-23T2100,1005A,116.462,39.9365,北京市,农展馆,,40,40,40,16,17,94,,104,104,26,35,1,2,0.4,0.4
2024-09-23T2100,1006A,116.3392,39.9295,北京市,官园,,38,38,39,15,18,116,,116,116,19,29,6,6,0.4,0.4
2024-09-23T2100,1007A,116.2878,39.9611,北京市,海淀万柳,,36,36,36,13,14,108,,113,113,21,32,3,3,0.3,0.3
2024-09-23T2100,1008A,116.6636,40.135,北京市,顺义新城,,48,48,35,19,16,50,,95,89,45,29,3,2,0.5,0.3
2024-09-23T2100,1009A,116.6275,40.3275,北京市,怀柔镇,,40,40,24,24,14,66,,105,99,17,14,3,2,0.5,0.4
2024-09-23T2100,1010A,116.2296,40.217,北京市,昌平镇,,40,40,25,17,10,66,,88,87,18,16,3,4,0.4,0.3
2024-09-23T2100,1011A,116.3966,39.9821,北京市,奥体中心,,36,36,34,14,15,102,,104,104,26,31,3,2,0.5,0.4
2024-09-23T2100,1012A,116.184,39.9136,北京市,古城,颗粒物(PM10),58,65,40,22,15,75,,103,102,38,30,3,3,0.4,0.3
2024-09-23T2100,3281A,115.9718,40.4529,北京市,延庆夏都,,46,46,24,20,12,90,,91,91,16,13,1,2,0.4,0.3
2024-09-23T2100,3417A,117.0709,40.1465,北京市,平谷新城,颗粒物(PM10),51,51,28,27,16,32,,116,102,25,13,3,2,0.3,0.3
2024-09-23T2100,3418A,116.8336,40.4095,北京市,密云新城,,45,45,30,13,11,27,,99,82,18,13,3,3,0.4,0.3
2024-09-23T2100,3671A,116.088,39.9726,北京市,门头沟三家店,颗粒物(PM10),51,51,30,23,11,23,,97,90,48,17,6,6,0.4,0.2
2024-09-23T2100,3672A,116.1541,39.8204,北京市,丰台云岗,颗粒物(PM10),52,54,32,23,13,55,,101,96,28,23,3,3,0.2,0.1
2024-09-23T2100,3673A,116.6804,39.9081,北京市,通州东关,,45,45,58,15,21,107,,120,120,29,39,1,1,0.2,0.3
2024-09-23T2100,3674A,115.9577,39.7603,北京市,房山燕山,,38,38,27,19,12,89,,104,104,9,12,1,2,0.3,0.3
2024-09-23T2100,3675A,116.4672,39.7733,北京市,大兴旧宫,,31,31,35,12,17,77,,115,112,22,27,3,3,0.3,0.3
2024-09-23T2100,3694A,115.986,40.4563,北京市,延庆石河营,,41,41,22,22,13,83,,87,87,12,13,3,3,0.3,0.2
2024-09-23T2100,3695A,116.6151,40.3053,北京市,怀柔新城,,27,27,22,13,12,81,,99,97,10,11,3,3,0.4,0.3
2024-09-23T2100,3696A,116.2545,39.8768,北京市,丰台小屯,,41,41,37,15,15,73,,98,97,41,37,3,2,0.5,0.4
2024-09-23T2100,3697A,116.84,40.3844,北京市,密云镇,,44,44,29,27,14,17,,100,84,56,27,2,2,0.4,0.3
2024-09-23T2100,1761A,123.8275,41.3064,本溪市,大峪,,,21,27,9,10,,,75,75,11,19,9,9,0.5,0.8
2024-09-23T2100,1762A,123.7567,41.3325,本溪市,溪湖,颗粒物(PM10),73,96,62,29,14,26,,75,66,41,28,8,9,1.0,1
2024-09-23T2100,1763A,123.7169,41.3094,本溪市,彩屯,颗粒物(PM10),60,69,35,32,16,21,,67,52,51,35,8,11,1.0,1.1
2024-09-23T2100,1764A,123.7669,41.2864,本溪市,东明,颗粒物(PM10),55,60,37,32,13,14,,81,68,67,33,6,7,1.2,0.9
2024-09-23T2100,1765A,123.7992,41.2664,本溪市,新立屯,,22,19,25,8,5,23,,68,48,44,30,5,5,0.5,0.8
2024-09-23T2100,1766A,123.8142,41.3472,本溪市,威宁,颗粒物(PM10),56,61,38,21,14,6,,73,53,52,25,9,9,1.0,1
2024-09-23T2100,2587A,105.2864,27.3125,毕节市,八中,细颗粒物(PM2.5),52,39,32,36,25,73,,105,99,8,9,5,6,0.5,0.5
2024-09-23T2100,2588A,105.31,27.2944,毕节市,师专,,49,49,33,29,21,89,,111,106,14,10,7,7,0.6,0.5
2024-09-23T2100,3537A,105.3631,27.3533,毕节市,长征村,细颗粒物(PM2.5),63,57,40,45,31,78,,112,103,6,6,7,7,0.6,0.6
2024-09-23T2100,1629A,118.0018,37.3617,滨州市,第二水厂,,46,46,29,17,11,85,,139,132,29,27,8,9,0.5,0.3
2024-09-23T2100,1630A,117.9776,37.393,滨州市,北中新校,,39,39,28,14,10,103,,137,127,15,17,10,10,0.7,0.6
2024-09-23T2100,3514A,117.9378,37.3956,滨州市,中海酒店,,,31,29,12,17,,,146,146,19,26,10,9,0.8,0.5
2024-09-23T2100,3515A,117.9378,37.3553,滨州市,开发区一中,,48,48,33,19,15,64,,141,131,50,34,13,12,0.5,0.5
2024-09-23T2100,3516A,118.0917,37.694,滨州市,金海六路,,,61,33,,11,107,,143,141,19,36,7,9,0.7,0.6
2024-09-23T2100,4028A,117.9956,37.3753,滨州市,滨州市西街道办事处,,34,29,25,17,16,107,,146,140,20,25,10,10,0.8,0.7
2024-09-23T2100,2311A,115.8072,33.8399,亳州市,污水处理厂,颗粒物(PM10),56,62,41,29,20,67,,129,120,29,20,9,7,0.3,0.3
2024-09-23T2100,2312A,115.7789,33.8518,亳州市,三国揽胜宫,细颗粒物(PM2.5),55,47,35,39,25,92,,127,123,16,14,8,6,0.4,0.4
2024-09-23T2100,3332A,115.7633,33.8034,亳州市,亳州学院,,47,47,41,32,26,102,,135,131,17,14,6,5,0.4,0.3
2024-09-23T2100,2693A,82.0485,44.8556,博尔塔拉蒙古自治州,市党校,,47,47,59,12,25,94,,123,122,16,10,5,8,0.5,0.5
2024-09-23T2100,2694A,82.0806,44.8969,博尔塔拉蒙古自治州,市环保局,颗粒物(PM10),56,62,60,16,20,78,,116,113,30,18,8,6,0.4,0.5
2024-09-23T2100,1071A,116.8842,38.2991,沧州市,沧县城建局,,42,42,35,28,17,88,,129,122,30,28,4,4,0.3,0.4
2024-09-23T2100,1072A,116.8584,38.3254,沧州市,电视转播站,,37,37,26,19,14,79,,142,132,37,26,4,7,0.4,0.4
2024-09-23T2100,1073A,116.8709,38.3228,沧州市,市环保局,,42,42,34,25,19,86,,136,130,29,23,4,5,0.3,0.3
2024-09-23T2100,3324A,116.8136,38.3004,沧州市,河北水利电力学院,,31,31,31,17,20,93,,140,134,34,27,5,6,0.5,0.4
2024-09-23T2100,2622A,97.1806,31.1273,昌都市,昌都监测站,,18,12,10,8,7,57,,73,71,14,8,7,7,0.5,0.5
2024-09-23T2100,3719A,97.1714,31.1406,昌都市,昌都会议中心,,23,9,6,6,4,71,,82,82,2,3,8,8,0.4,0.4
2024-09-23T2100,2690A,88.1236,43.8886,昌吉回族自治州,天山天池,,19,19,23,12,10,56,,89,83,5,5,26,24,0.4,0.5
2024-09-23T2100,2692A,87.2717,44.0297,昌吉回族自治州,新区政务中心,,38,38,54,14,23,88,,114,114,24,29,6,8,0.6,0.7
2024-09-23T2100,3613A,87.3095,44.0142,昌吉回族自治州,亚心广场,颗粒物(PM10),60,70,65,17,17,73,,119,115,42,37,2,6,0.6,0.7
2024-09-23T2100,1119A,125.3325,43.9166,长春市,食品厂,颗粒物(PM10),54,57,46,29,19,9,,73,54,74,41,7,5,0.5,0.4
2024-09-23T2100,1120A,125.2863,43.9027,长春市,客车厂,,41,41,35,22,15,32,,74,56,62,39,7,6,0.5,0.4
2024-09-23T2100,1121A,125.2841,43.8463,长春市,邮电学院,,30,30,28,9,12,25,,75,59,47,27,6,6,0.4,0.3
2024-09-23T2100,1122A,125.3716,43.8772,长春市,劳动公园,颗粒物(PM10),65,80,48,34,18,9,,81,61,69,35,8,9,0.8,0.5
2024-09-23T2100,1123A,125.3297,43.8805,长春市,园林处,,27,27,37,12,16,66,,77,74,28,36,6,5,0.3,0.4
2024-09-23T2100,1124A,125.4605,43.79,长春市,净月潭,,17,11,13,6,6,53,,75,69,9,8,6,6,0.3,0.3
2024-09-23T2100,1126A,125.3863,43.8447,长春市,经开区环卫处,颗粒物(PM10),71,92,34,23,11,5,,76,52,68,33,10,8,1.0,0.5
2024-09-23T2100,1127A,125.245,43.7783,长春市,高新区管委会,,46,46,28,13,12,11,,78,52,54,28,5,5,0.4,0.4
2024-09-23T2100,1128A,125.1761,43.8325,长春市,岱山公园,颗粒物(PM10),64,77,44,17,16,4,,77,48,69,39,4,5,0.5,0.4
2024-09-23T2100,1335A,113.0833,28.2325,长沙市,经开区环保局,颗粒物(PM10),51,52,42,28,16,137,,151,150,23,19,3,3,0.3,0.3
2024-09-23T2100,1336A,112.8872,28.2189,长沙市,高开区环保局,,50,50,43,22,18,128,,144,143,13,11,5,6,0.3,0.3
2024-09-23T2100,1337A,113.0792,28.2053,长沙市,马坡岭,颗粒物(PM10),53,55,43,28,18,139,,160,158,23,18,6,6,0.6,0.5
2024-09-23T2100,1338A,112.9394,28.19,长沙市,湖南师范大学,颗粒物(PM10),53,56,48,25,20,142,,152,152,12,12,6,6,0.3,0.3
2024-09-23T2100,1339A,113.0178,28.1322,长沙市,雨花区环保局,颗粒物(PM10),51,51,41,22,17,140,,150,150,19,17,8,7,0.5,0.4
2024-09-23T2100,1340A,112.9792,28.2597,长沙市,伍家岭,,50,50,44,24,16,137,,150,150,10,14,4,5,0.7,0.6
2024-09-23T2100,1341A,113.0014,28.1944,长沙市,火车新站,,50,50,45,29,20,136,,144,144,14,15,6,6,0.5,0.4
2024-09-23T2100,1342A,112.9844,28.1178,长沙市,天心区环保局,颗粒物(PM10),51,51,46,23,17,132,,142,142,16,15,4,4,0.5,0.3
2024-09-23T2100,1343A,112.8908,28.1308,长沙市,湖南中医药大学,颗粒物(PM10),56,62,54,29,19,126,,154,150,22,14,7,8,0.7,0.6
2024-09-23T2100,1344A,112.9581,28.3611,长沙市,沙坪,,44,42,39,30,20,138,,154,154,13,12,10,10,0.2,0.2
2024-09-23T2100,1727A,113.1147,36.1547,长治市,清华站,细颗粒物(PM2.5),58,60,39,41,24,106,,136,134,23,20,11,9,0.9,0.7
2024-09-23T2100,1728A,113.1031,36.1989,长治市,监测站,细颗粒物(PM2.5),62,61,44,44,26,97,,128,125,25,25,13,12,0.8,0.8
2024-09-23T2100,1730A,113.0886,36.2125,长治市,审计局,细颗粒物(PM2.5),64,56,39,46,29,106,,129,126,28,24,12,9,0.6,0.5
2024-09-23T2100,1731A,113.0844,36.1856,长治市,长治八中,颗粒物(PM10),65,80,51,38,22,109,,130,129,24,22,12,9,0.9,0.8
2024-09-23T2100,2845A,113.1569,36.1911,长治市,德盛苑,细颗粒物(PM2.5),62,56,36,44,24,121,,139,138,15,15,9,6,0.7,0.9
2024-09-23T2100,3568A,113.06,36.0464,长治市,向阳小学,细颗粒物(PM2.5),83,87,54,61,33,94,,136,129,32,18,12,9,0.4,0.3
2024-09-23T2100,3569A,112.8792,36.3144,长治市,屯留一中,细颗粒物(PM2.5),68,69,56,49,35,94,,137,132,27,23,10,11,1.1,1.1
2024-09-23T2100,3570A,113.235,36.3489,长治市,潞城四中,颗粒物(PM10),61,71,51,26,32,78,,146,133,35,23,35,9,0.5,0.5
2024-09-23T2100,1854A,111.6975,28.9703,常德市,市二中,细颗粒物(PM2.5),94,114,54,70,33,118,,150,147,20,13,16,13,0.7,0.5
2024-09-23T2100,3138A,111.7153,29.0289,常德市,武陵区永安,细颗粒物(PM2.5),85,87,50,63,29,123,,154,151,22,14,12,13,0.7,0.5
2024-09-23T2100,3139A,111.6892,28.9881,常德市,鼎城区玉霞,颗粒物(PM10),76,101,53,55,28,124,,158,154,20,12,12,14,0.7,0.6
2024-09-23T2100,3140A,111.6625,29.0531,常德市,武陵区长庚,颗粒物(PM10),56,62,52,35,28,147,,157,157,15,14,17,12,0.5,0.4
2024-09-23T2100,1196A,119.9633,31.762,常州市,市监测站,,38,38,37,15,12,89,,109,103,13,13,8,8,0.4,0.3
2024-09-23T2100,1200A,119.9468,31.7069,常州市,武进监测站,,30,26,26,14,11,96,,115,109,8,13,9,10,0.6,0.6
2024-09-23T2100,1201A,119.9255,31.9087,常州市,安家,,45,45,31,21,14,83,,107,99,26,29,9,9,0.4,0.3
2024-09-23T2100,3002A,119.9805,31.8174,常州市,行政中心,,38,38,25,16,11,86,,110,103,18,16,9,4,0.4,0.4
2024-09-23T2100,3003A,120.0522,31.7748,常州市,经开区,,41,41,27,17,10,74,,115,103,22,19,10,10,0.3,0.3
2024-09-23T2100,3010A,119.9025,31.7964,常州市,钟楼,,31,31,29,11,12,89,,105,100,16,22,8,9,0.3,0.4
2024-09-23T2100,3429A,119.8598,31.7066,常州市,武进经发区,,30,30,33,15,16,82,,110,97,24,21,7,10,0.5,0.5
2024-09-23T2100,3430A,119.5826,31.7245,常州市,金坛城区,,34,34,28,20,13,89,,125,117,25,20,9,9,0.5,0.5
2024-09-23T2100,2220A,120.4318,41.5881,朝阳市,西梁,,33,24,32,11,15,103,,95,95,10,17,6,6,0.4,0.5
2024-09-23T2100,2221A,120.4521,41.5646,朝阳市,河畔小区,,35,21,26,12,12,110,,103,103,8,12,9,8,0.6,0.6
2024-09-23T2100,2222A,120.4176,41.5648,朝阳市,八里堡,,35,35,34,15,15,97,,95,95,16,20,8,10,0.6,0.7
2024-09-23T2100,2223A,120.3806,41.5969,朝阳市,农业园区,,37,37,28,23,16,45,,89,75,33,16,7,9,0.5,0.5
2024-09-23T2100,1705A,116.6367,23.6719,潮州市,西园路,,10,,8,3,3,31,,49,47,9,8,3,3,0.6,0.6
2024-09-23T2100,3026A,116.6183,23.6608,潮州市,市政府,,11,11,11,7,5,32,,64,58,12,9,4,4,0.8,0.9
2024-09-23T2100,4036A,116.6461,23.6761,潮州市,金山,,13,6,7,3,7,40,,66,63,7,6,7,6,0.6,0.7
2024-09-23T2100,2472A,113.0073,25.9061,郴州市,马头岭,颗粒物(PM10),56,61,47,16,14,17,,92,73,34,10,9,9,1.1,0.7
2024-09-23T2100,2473A,113.0116,25.8226,郴州市,市职中,颗粒物(PM10),51,52,39,32,26,30,,95,74,24,17,4,6,0.7,0.5
2024-09-23T2100,2474A,113.0161,25.8001,郴州市,兴隆步行街,颗粒物(PM10),60,69,49,34,26,37,,86,71,32,18,5,6,0.6,0.5
2024-09-23T2100,2475A,113.0383,25.8071,郴州市,市审计局,,48,48,42,32,27,45,,80,65,18,16,8,8,0.7,0.7
2024-09-23T2100,2476A,113.0348,25.7759,郴州市,市环保局,颗粒物(PM10),52,53,47,29,25,27,,79,66,24,13,6,9,0.8,0.7
2024-09-23T2100,1431A,103.9728,30.7236,成都市,金泉两河,,,34,40,9,12,,,96,96,,17,,5,0.5,0.6
2024-09-23T2100,1432A,104.176,30.6872,成都市,十里店,,37,37,34,23,16,89,,116,116,18,20,2,3,0.5,0.5
2024-09-23T2100,1433A,104.079,30.5706,成都市,三瓦窑,,44,44,36,21,22,84,,119,119,26,17,3,4,0.6,0.5
2024-09-23T2100,1434A,104.1114,30.63,成都市,沙河铺,,50,50,38,18,18,87,,114,114,27,18,4,3,0.7,0.6
2024-09-23T2100,1437A,104.0786,30.6531,成都市,君平街,,38,38,36,10,21,79,,109,109,21,18,2,3,0.6,0.6
2024-09-23T2100,2880A,104.0239,30.65639,成都市,大石西路,,30,30,36,17,17,79,,103,103,24,19,5,6,0.8,0.8
2024-09-23T2100,3136A,104.2725,30.5589,成都市,龙泉驿区区政府,颗粒物(PM10),51,51,27,22,17,86,,110,110,26,14,4,4,0.6,0.5
2024-09-23T2100,3357A,104.0106,30.6931,成都市,金博路,,26,26,32,11,15,56,,97,95,30,16,3,3,0.5,0.5
2024-09-23T2100,3359A,104.0578,30.5225,成都市,华阳,,36,36,39,14,21,82,,115,115,22,16,4,4,0.5,0.5
2024-09-23T2100,3487A,104.2394,30.5319,成都市,车城东七路,颗粒物(PM10),51,51,36,29,24,85,,125,124,35,15,3,3,0.8,0.6
2024-09-23T2100,3488A,104.3853,30.7453,成都市,青白江技师分院,,38,38,27,24,15,43,,135,128,62,18,3,3,0.7,0.6
2024-09-23T2100,3489A,104.0789,30.4072,成都市,科学城,,46,45,43,32,32,89,,114,114,27,16,4,4,0.6,0.6
2024-09-23T2100,4011A,103.8506,30.6947,成都市,光华大道三段,,28,22,46,17,26,87,,100,100,14,18,2,4,0.5,0.6
2024-09-23T2100,1062A,117.9531,40.9081,承德市,铁路,,44,44,21,12,7,21,,79,66,29,20,8,10,0.6,0.3
2024-09-23T2100,1063A,117.9392,40.9763,承德市,中国银行,,40,40,20,12,8,20,,87,72,28,16,4,6,0.5,0.4
2024-09-23T2100,1064A,117.9503,40.928,承德市,开发区,,39,39,28,19,11,36,,85,73,24,19,9,8,0.5,0.3
2024-09-23T2100,1065A,117.8051,40.9655,承德市,文化中心,颗粒物(PM10),51,52,30,12,7,20,,79,70,37,22,8,11,0.4,0.5
2024-09-23T2100,1066A,117.9268,41.0026,承德市,离宫,,25,25,18,15,16,43,,63,55,7,11,3,3,0.4,0.4
2024-09-23T2100,2314A,117.47,30.6618,池州市,池州学院,,48,48,38,26,18,116,,145,144,18,19,6,10,0.6,0.6
2024-09-23T2100,3237A,117.4918,30.6617,池州市,展览馆,,43,43,36,21,16,111,,142,140,17,17,5,7,0.6,0.7
2024-09-23T2100,3333A,117.5627,30.695,池州市,第八中学,颗粒物(PM10),58,66,39,26,16,66,,138,127,38,21,8,7,0.8,0.8
2024-09-23T2100,3334A,117.5038,30.6243,池州市,第十二中学,颗粒物(PM10),52,53,35,27,15,87,,139,134,26,19,6,6,0.7,0.8
2024-09-23T2100,1744A,118.9233,42.2816,赤峰市,松山一中,,22,22,22,10,8,66,,77,73,21,26,9,9,0.3,0.4
2024-09-23T2100,1745A,118.9576,42.2728,赤峰市,哈达街,,28,28,18,16,8,60,,87,82,18,17,8,8,0.4,0.4
2024-09-23T2100,1746A,118.8788,42.2554,赤峰市,天义路,,29,29,20,8,10,71,,83,80,16,20,7,10,0.3,0.2
2024-09-23T2100,3058A,119.2658,42.0353,赤峰市,银河街,颗粒物(PM10),56,61,38,17,18,58,,88,82,22,18,24,19,0.6,0.5
2024-09-23T2100,3286A,118.9359,42.3147,赤峰市,桥北物流园区,,37,37,25,10,11,62,,84,75,29,24,8,8,0.5,0.6
2024-09-23T2100,2521A,107.3476,22.4136,崇左市,市环保局江州分局,,33,33,25,17,12,86,,102,100,11,5,4,3,0.7,0.6
2024-09-23T2100,2522A,107.3702,22.3707,崇左市,城南新区,,31,31,21,14,11,88,,113,110,11,6,4,4,0.7,0.6
2024-09-23T2100,2298A,118.3093,32.3153,滁州市,老年大学,,32,32,30,14,15,96,,124,117,13,14,5,3,0.2,0.3
2024-09-23T2100,2299A,118.3244,32.2786,滁州市,人大宾馆,,30,30,33,13,13,89,,123,114,19,14,6,7,0.4,0.4
2024-09-23T2100,3207A,118.3118,32.3038,滁州市,市政府原办公楼,,34,34,29,19,18,89,,120,112,17,14,6,7,0.3,0.3
2024-09-23T2100,3331A,118.3267,32.2634,滁州市,图书馆,,33,33,34,7,10,96,,121,115,12,14,4,5,0.2,0.3
2024-09-23T2100,2605A,101.5482,25.0441,楚雄彝族自治州,州环境监测站,,35,35,20,22,15,79,,96,95,11,12,8,11,0.8,0.7
2024-09-23T2100,2606A,101.538,25.0492,楚雄彝族自治州,市经济开发区,,39,39,22,26,17,80,,96,94,14,14,6,22,0.8,0.7
2024-09-23T2100,2548A,107.5277,31.2827,达州市,达州职业技术学院,,49,42,34,34,15,36,,106,93,53,27,6,9,0.6,0.5
2024-09-23T2100,2549A,107.5086,31.2186,达州市,市环境监测站,,45,45,33,22,11,69,,115,106,42,27,6,8,0.5,0.4
2024-09-23T2100,2550A,107.4988,31.2132,达州市,凤凰小区,,46,46,27,19,12,68,,128,121,45,24,7,10,0.6,0.4
2024-09-23T2100,2551A,107.5082,31.1986,达州市,达县机关宾馆,,45,34,27,16,12,20,,119,102,89,33,5,7,0.5,0.4
2024-09-23T2100,2552A,107.4644,31.2124,达州市,市政中心,,47,47,35,19,13,52,,129,120,56,23,5,11,0.6,0.4
2024-09-23T2100,2614A,100.1542,25.7054,大理白族自治州,大理市环境监测站,,32,32,28,22,16,84,,102,96,8,16,7,8,0.6,0.6
2024-09-23T2100,2615A,100.2171,25.5811,大理白族自治州,大理古城,,32,32,20,19,13,67,,96,85,19,10,8,8,0.4,0.3
2024-09-23T2100,1109A,121.612,38.9741,大连市,甘井子,,33,33,30,22,15,79,,108,104,32,28,8,9,0.7,0.7
2024-09-23T2100,1110A,121.565,38.9511,大连市,周水子,,48,35,26,22,15,12,,92,76,96,42,7,8,1.0,0.9
2024-09-23T2100,1111A,121.5637,38.8845,大连市,星海三站,,34,34,24,23,12,24,,109,92,60,19,7,7,0.6,0.4
2024-09-23T2100,1112A,121.6302,38.9117,大连市,青泥洼桥,,48,48,31,26,14,30,,106,95,78,32,7,8,0.5,0.3
2024-09-23T2100,1113A,121.6251,38.8638,大连市,傅家庄,颗粒物(PM10),64,77,50,19,12,64,,113,106,43,20,8,9,0.5,0.3
2024-09-23T2100,1114A,121.5213,38.8661,大连市,七贤岭,,35,35,25,12,11,71,,115,105,17,16,6,7,0.6,0.6
2024-09-23T2100,1115A,121.2529,38.8061,大连市,旅顺,,37,16,21,10,11,118,,125,125,13,14,5,12,0.4,0.4
2024-09-23T2100,1116A,121.7485,39.1311,大连市,金州,,29,29,26,12,14,58,,92,84,26,21,4,7,0.7,0.6
2024-09-23T2100,1117A,121.7811,39.0496,大连市,开发区,,37,37,26,19,12,50,,102,88,52,24,4,5,0.6,0.5
2024-09-23T2100,1118A,121.9762,39.0631,大连市,双D港,,33,16,19,6,9,104,,99,99,14,13,7,9,0.6,0.6
2024-09-23T2100,1789A,124.81117,46.03138,大庆市,大同区,,32,32,34,20,15,59,,78,75,14,10,4,3,0.8,0.7
2024-09-23T2100,1790A,125.129,46.533,大庆市,龙凤区,,43,43,55,14,15,72,,76,74,10,13,5,4,0.4,0.4
2024-09-23T2100,1791A,124.902,46.408,大庆市,红岗区,,42,42,39,17,15,66,,82,80,13,12,6,6,0.4,0.4
2024-09-23T2100,1792A,125.153,46.586,大庆市,萨尔图区,,34,34,33,14,11,78,,78,78,10,11,6,6,0.3,0.3
2024-09-23T2100,1793A,124.9042,46.6215,大庆市,让胡路区,,37,37,26,14,16,65,,80,77,13,13,9,5,0.2,0.2
2024-09-23T2100,3481A,125.141,46.634,大庆市,萨区政府监测点,,27,23,25,15,11,84,,86,86,8,12,7,7,0.5,0.4
2024-09-23T2100,1721A,113.3819,40.1097,大同市,果树场,颗粒物(PM10),59,68,59,40,32,36,,88,83,44,31,8,10,0.6,0.7
2024-09-23T2100,1723A,113.2994,40.0758,大同市,云冈宾馆,细颗粒物(PM2.5),67,78,58,48,21,11,,103,94,108,41,10,11,1.0,0.9
2024-09-23T2100,1724A,113.3444,40.0917,大同市,大同大学,颗粒物(PM10),56,62,46,30,19,78,,107,106,35,30,12,14,0.6,0.6
2024-09-23T2100,1725A,113.2661,40.1269,大同市,安家小村,颗粒物(PM10),58,66,61,37,21,90,,106,106,35,36,14,15,0.6,1.1
2024-09-23T2100,1726A,113.2711,40.0844,大同市,教育学院,细颗粒物(PM2.5),97,136,74,72,28,5,,96,84,124,52,11,12,1.7,1.2
2024-09-23T2100,3282A,113.3397,40.0597,大同市,大同市卫生学校,颗粒物(PM10),71,92,51,38,20,17,,108,99,95,33,10,12,0.7,0.6
2024-09-23T2100,3565A,113.1367,40.1122,大同市,云冈站,颗粒物(PM10),74,98,82,37,29,37,,96,92,33,28,10,14,0.6,0.7
2024-09-23T2100,3566A,113.1186,40.2556,大同市,图书馆,颗粒物(PM10),61,71,51,37,25,33,,104,92,22,21,9,14,0.5,0.5
2024-09-23T2100,3567A,113.5931,40.0461,大同市,区一中,颗粒物(PM10),54,58,31,27,11,69,,114,108,17,15,14,16,0.7,0.5
2024-09-23T2100,3676A,113.2802,40.0995,大同市,第二人民医院,颗粒物(PM10),67,84,67,29,23,59,,106,104,55,36,14,15,0.6,1.1
2024-09-23T2100,2269A,124.1069,50.4097,大兴安岭地区,科技局,,26,,18,18,15,58,,72,71,8,6,6,5,0.3,0.3
2024-09-23T2100,3663A,124.1164,50.4278,大兴安岭地区,红旗社区,,16,14,20,11,11,40,,68,64,16,16,2,2,0.4,0.3
2024-09-23T2100,1600A,124.3303,40.0625,丹东市,江湾东路,,39,39,18,16,9,6,,62,45,46,15,10,10,0.9,0.6
2024-09-23T2100,1601A,124.4256,40.1503,丹东市,临江后街,颗粒物(PM10),54,58,30,24,11,16,,76,50,39,17,7,7,0.8,0.6
2024-09-23T2100,1602A,124.3933,40.1461,丹东市,元宝山,,31,31,12,17,6,19,,64,58,37,10,4,4,0.8,0.6
2024-09-23T2100,1603A,124.3633,40.1092,丹东市,民主桥,,25,25,15,14,6,8,,70,48,40,16,5,5,0.7,0.5
2024-09-23T2100,3541A,109.5726,19.5167,儋州市,第一中学子站,,25,6,9,3,4,78,,70,70,6,5,5,5,0.6,0.7
2024-09-23T2100,3542A,109.5567,19.5187,儋州市,东坡学校子站,,24,13,9,3,5,75,,70,70,6,6,4,4,0.6,0.6
2024-09-23T2100,2616A,98.5842,24.428,德宏傣族景颇族自治州,德宏州监测站,颗粒物(PM10),58,66,37,36,17,44,,82,73,18,15,8,11,0.8,0.6
2024-09-23T2100,3677A,98.5881,24.4368,德宏傣族景颇族自治州,芒市人民政府综合楼,,38,38,23,26,16,49,,87,78,15,12,8,9,0.8,0.6
2024-09-23T2100,1901A,104.4239,31.1208,德阳市,东山公园,颗粒物(PM10),51,52,29,23,16,77,,113,111,41,12,5,3,0.7,0.6
2024-09-23T2100,1902A,104.3826,31.1317,德阳市,西小区,颗粒物(PM10),51,52,30,34,19,84,,106,105,24,12,3,2,0.5,0.5
2024-09-23T2100,1904A,104.3553,31.1091,德阳市,耐火材料厂,颗粒物(PM10),68,85,30,47,17,51,,102,97,42,14,6,4,0.7,0.5
2024-09-23T2100,3639A,104.4019,31.1244,德阳市,市教育局,,49,49,31,24,16,84,,108,107,30,12,4,2,0.6,0.5
2024-09-23T2100,1622A,116.3032,37.4674,德州市,儿童乐园,颗粒物(PM10),57,63,39,29,14,83,,137,130,47,26,9,11,0.7,0.5
2024-09-23T2100,1624A,116.2991,37.4451,德州市,监理站,,46,46,32,19,12,115,,144,141,33,22,8,9,0.4,0.5
2024-09-23T2100,3066A,116.2721,37.4379,德州市,九衢泉纯净水厂,颗粒物(PM10),81,112,38,41,18,31,,133,115,95,35,8,11,0.7,0.4
2024-09-23T2100,3371A,116.3728,37.4403,德州市,开发区人民医院,颗粒物(PM10),52,53,34,22,14,69,,146,136,68,28,9,12,0.6,0.5
2024-09-23T2100,3372A,116.3572,37.4094,德州市,太阳城中学,,48,48,35,24,14,60,,137,122,72,36,11,13,0.5,0.4
2024-09-23T2100,3511A,116.5652,37.3319,德州市,陵城艺术中心,颗粒物(PM10),51,51,34,14,13,66,,124,113,50,31,8,12,0.6,0.6
2024-09-23T2100,2621A,99.7056,27.8317,迪庆藏族自治州,迪庆州站,,33,33,27,17,14,64,,77,73,15,12,8,13,0.4,0.4
2024-09-23T2100,3180A,99.7136,27.8094,迪庆藏族自治州,质量技术监督局,,30,30,24,20,15,58,,76,70,13,12,6,7,0.4,0.4
2024-09-23T2100,2663A,104.6241,35.5734,定西市,东关小学,,45,45,41,28,21,68,,106,97,29,18,6,6,0.3,0.3
2024-09-23T2100,2664A,104.6194,35.5934,定西市,供电公司,,46,43,43,32,26,80,,107,100,16,17,6,7,0.2,0.2
2024-09-23T2100,1389A,113.7547,23.0494,东莞市,莞城梨川,,13,11,15,6,8,40,,58,49,15,11,6,6,0.7,0.7
2024-09-23T2100,1390A,113.7944,23.0128,东莞市,东城石井,,14,14,15,7,8,41,,56,51,14,13,4,4,0.7,0.7
2024-09-23T2100,1391A,113.7383,22.9658,东莞市,南城西平,,15,15,16,9,9,30,,55,49,27,19,4,5,0.8,0.8
2024-09-23T2100,3319A,113.7338,23.0381,东莞市,万江金泰,,13,13,17,6,8,40,,58,49,15,11,5,6,0.5,0.5
2024-09-23T2100,3626A,113.7533,23.0202,东莞市,南城元岭,,14,12,14,7,8,44,,62,54,11,8,6,6,0.7,0.7
2024-09-23T2100,3627A,113.7875,23.0457,东莞市,东城主山,,13,11,13,7,8,41,,59,52,17,14,6,6,0.6,0.6
2024-09-23T2100,1666A,118.6614,37.4309,东营市,市环保局,,44,31,23,12,6,140,,149,148,21,19,7,11,0.3,0.3
2024-09-23T2100,3036A,118.6904,37.4338,东营市,开发区管委会,,49,49,29,24,12,146,,145,145,16,16,8,8,0.5,0.3
2024-09-23T2100,3365A,118.5719,37.565,东营市,垦利区民丰路,,44,44,21,24,10,78,,118,111,44,22,7,7,0.5,0.3
2024-09-23T2100,3498A,118.5055,37.8612,东营市,河口城区,颗粒物(PM10),51,51,30,29,14,118,,142,142,15,19,8,9,0.5,0.4
2024-09-23T2100,3646A,118.4978,37.4623,东营市,胜利站,,38,26,26,17,10,120,,136,132,16,18,10,9,0.6,0.4
2024-09-23T2100,3734A,118.35,37.26,东营市,理想之城,,35,34,24,19,13,112,,138,132,29,23,5,7,0.4,0.2
2024-09-23T2100,1591A,110.0023,39.8129,鄂尔多斯市,综合楼,颗粒物(PM10),59,68,59,14,17,109,,140,138,38,31,13,15,0.6,0.6
2024-09-23T2100,1592A,109.9486,39.8261,鄂尔多斯市,巴音孟克林场办事处,颗粒物(PM10),58,66,51,19,18,107,,131,126,40,31,10,11,0.5,0.5
2024-09-23T2100,1593A,109.7736,39.5986,鄂尔多斯市,康泽苑,颗粒物(PM10),51,51,39,17,15,92,,137,128,41,29,9,8,0.6,0.5
2024-09-23T2100,1594A,109.8119,39.5989,鄂尔多斯市,华泰汽车城,,48,48,39,14,18,46,,131,111,58,33,8,9,0.7,0.6
2024-09-23T2100,1595A,109.9734,39.7884,鄂尔多斯市,奥林花园,颗粒物(PM10),64,78,59,19,18,61,,118,107,62,39,4,5,0.6,0.6
2024-09-23T2100,2436A,114.8938,30.3994,鄂州市,市政府,,47,47,26,32,13,102,,143,135,30,16,14,12,1.2,0.8
2024-09-23T2100,2437A,114.8989,30.3714,鄂州市,赵家坝,细颗粒物(PM2.5),53,49,28,37,13,86,,151,140,45,17,11,10,0.9,0.7
2024-09-23T2100,3654A,114.8094,30.4089,鄂州市,精准医疗中心,细颗粒物(PM2.5),69,53,33,50,13,102,,147,140,34,16,7,9,0.8,0.5
2024-09-23T2100,2454A,109.4978,30.2981,恩施土家族苗族自治州,湖北民院,细颗粒物(PM2.5),54,,26,38,20,87,,131,123,25,13,10,9,0.9,0.7
2024-09-23T2100,2455A,109.4707,30.2798,恩施土家族苗族自治州,州电力总公司,,50,50,29,30,18,86,,123,116,29,19,10,8,0.9,0.8
2024-09-23T2100,3549A,109.5061,30.3772,恩施土家族苗族自治州,龙凤新区,,46,46,28,30,18,87,,126,117,13,11,6,6,1.0,0.8
2024-09-23T2100,2499A,108.3411,21.6158,防城港市,沙万,,38,26,25,26,20,96,,100,100,16,10,8,8,0.7,0.6
2024-09-23T2100,2500A,108.3514,21.7731,防城港市,防城档案局,颗粒物(PM10),53,56,39,26,17,74,,91,89,24,15,9,8,0.7,0.6
2024-09-23T2100,2501A,108.3506,21.6414,防城港市,大海花园,,30,26,26,15,12,94,,98,98,12,8,6,7,0.8,0.7
2024-09-23T2100,1371A,113.1294,23.0067,佛山市,湾梁,,15,6,21,3,7,47,,87,56,23,19,6,6,0.7,0.7
2024-09-23T2100,1372A,113.1083,23.0478,佛山市,华材职中,,17,9,21,9,9,31,,81,48,33,21,6,7,0.5,0.5
2024-09-23T2100,1373A,113.144,23.0453,佛山市,南海气象局,,14,,24,8,9,42,,82,49,18,14,6,6,0.5,0.5
2024-09-23T2100,1374A,113.2881,22.8094,佛山市,顺德苏岗,,15,,18,7,9,18,,58,40,30,18,7,7,0.7,0.7
2024-09-23T2100,1376A,112.8383,22.8678,佛山市,高明孔堂,,18,17,23,12,10,47,,72,62,20,16,4,5,0.5,0.4
2024-09-23T2100,1377A,112.8836,23.1588,佛山市,三水监测站,,22,,14,15,6,54,,77,68,18,15,6,7,0.6,0.6
2024-09-23T2100,1378A,112.867,23.185,佛山市,三水云东海,,18,,18,8,12,56,,77,68,16,14,6,7,0.7,0.6
2024-09-23T2100,3625A,113.2544,22.7642,佛山市,容桂街道办,,16,,12,9,13,21,,63,42,32,19,6,6,0.8,0.7
2024-09-23T2100,1282A,119.2681,26.0504,福州市,师大,,17,13,9,3,2,53,,68,61,18,11,2,2,0.8,0.7
2024-09-23T2100,1283A,119.2984,26.1028,福州市,五四北路,,18,14,8,3,2,56,,73,66,14,9,3,3,0.8,0.6
2024-09-23T2100,1284A,119.2648,26.0768,福州市,杨桥西路,,18,14,9,3,2,56,,72,66,17,9,3,3,0.8,0.7
2024-09-23T2100,1285A,119.317,26.0746,福州市,紫阳,,16,16,10,7,4,37,,60,50,27,17,3,3,0.5,0.3
2024-09-23T2100,3048A,119.5799,26.0936,福州市,九龙,,20,12,11,3,1,63,,66,62,5,7,6,6,0.7,0.6
2024-09-23T2100,3526A,119.5189,25.9664,福州市,吴航,,18,12,8,8,6,55,,78,71,12,8,6,6,0.5,0.5
2024-09-23T2100,1755A,123.7977,41.8491,抚顺市,望花区,颗粒物(PM10),62,74,59,40,20,26,,81,73,70,30,18,13,1.2,0.8
2024-09-23T2100,1756A,123.9161,41.8822,抚顺市,顺城区,颗粒物(PM10),67,84,39,39,15,6,,78,53,60,30,8,8,1.0,0.6
2024-09-23T2100,1757A,124.0436,41.8611,抚顺市,东洲区,颗粒物(PM10),56,62,33,33,14,32,,80,62,33,21,15,11,1.1,0.6
2024-09-23T2100,1758A,123.9247,41.8642,抚顺市,新抚区,颗粒物(PM10),80,110,45,37,15,6,,84,61,62,30,4,5,0.9,0.4
2024-09-23T2100,1759A,124.0972,41.8961,抚顺市,大伙房水库,,26,26,22,14,10,45,,96,82,18,12,7,7,0.8,0.4
2024-09-23T2100,1760A,123.7086,41.8391,抚顺市,沈抚新城,颗粒物(PM10),76,101,48,53,20,19,,85,68,78,35,16,13,1.1,0.7
2024-09-23T2100,2376A,116.2127,28.0814,抚州市,桐源党溪,,34,34,38,15,15,57,,96,81,12,4,8,6,0.8,0.7
2024-09-23T2100,2377A,116.3544,27.9831,抚州市,市站,,29,29,29,14,13,67,,85,78,10,9,1,2,1.0,1
2024-09-23T2100,2378A,116.3565,27.963,抚州市,血防站,,36,36,32,13,14,72,,91,84,12,10,13,5,0.8,0.6
2024-09-23T2100,2379A,116.3564,28.0007,抚州市,采茶剧团,,27,27,28,14,13,68,,89,81,6,5,6,5,0.6,0.7
2024-09-23T2100,2380A,116.385,27.9647,抚州市,医学分院,,33,33,30,15,12,70,,88,81,6,6,4,5,0.9,0.9
2024-09-23T2100,2207A,121.6094,41.998,阜新市,工业园区,,42,42,44,16,14,76,,118,112,20,20,53,16,0.7,0.7
2024-09-23T2100,2208A,121.6697,42.0279,阜新市,长青街,,,26,46,17,18,,,110,110,15,21,12,13,0.5,0.8
2024-09-23T2100,2209A,121.6673,42.0705,阜新市,农业园区,,31,19,37,14,18,98,,108,108,12,17,9,14,0.3,0.4
2024-09-23T2100,2210A,121.6717,42.0224,阜新市,东苑,,30,30,56,16,21,92,,106,105,16,24,11,19,0.6,1
2024-09-23T2100,2211A,121.6506,42.0498,阜新市,玉龙新城,,31,26,39,20,15,98,,119,117,11,19,13,14,0.5,0.8
2024-09-23T2100,2301A,115.8277,32.8929,阜阳市,市监测站,颗粒物(PM10),57,63,44,23,24,84,,136,126,28,19,8,8,0.5,0.4
2024-09-23T2100,2303A,115.8554,32.8605,阜阳市,开发区,颗粒物(PM10),66,82,53,28,24,98,,134,126,29,22,8,8,0.6,0.6
2024-09-23T2100,2875A,115.784,32.8892,阜阳市,阜阳职业技术学院,,46,46,44,22,23,101,,140,134,23,19,7,8,0.4,0.4
2024-09-23T2100,3468A,115.7901,32.8613,阜阳市,市规划展馆,,49,49,41,21,23,90,,142,135,35,20,8,9,0.4,0.3
2024-09-23T2100,3469A,115.836,32.9183,阜阳市,枣园社区,颗粒物(PM10),52,54,45,27,25,81,,139,129,42,25,9,9,0.6,0.5
2024-09-23T2100,2669A,102.9099,34.9841,甘南藏族自治州,州政府,,28,28,28,19,21,67,,95,93,9,11,10,10,0.3,0.4
2024-09-23T2100,3380A,102.8914,34.9617,甘南藏族自治州,甘肃民族师范学院,颗粒物(PM10),65,80,36,24,16,12,,87,77,41,16,4,4,0.6,0.6
2024-09-23T2100,2570A,101.9603,30.0475,甘孜藏族自治州,水桥子,,15,14,9,3,4,48,,84,76,26,20,5,5,0.5,0.3
2024-09-23T2100,3065A,101.9533,29.9972,甘孜藏族自治州,州环保局,,14,8,10,3,4,43,,80,73,22,19,2,3,0.3,0.3
2024-09-23T2100,3414A,115.8347,28.932,赣江新区,桑海产业园,,44,44,40,19,14,113,,130,128,16,11,13,12,0.4,0.3
2024-09-23T2100,2362A,114.9017,25.9149,赣州市,通天岩,,43,32,30,30,22,60,,86,79,2,3,7,7,0.4,0.5
2024-09-23T2100,2363A,114.9367,25.8664,赣州市,地委,,37,37,33,21,23,89,,90,90,8,8,12,9,0.8,0.8
2024-09-23T2100,2364A,114.9461,25.8481,赣州市,气象台,,35,34,34,24,20,88,,86,85,10,8,4,4,0.9,0.9
2024-09-23T2100,2365A,114.9322,25.8333,赣州市,市图书馆,,35,35,35,18,18,99,,98,98,6,6,4,4,0.5,0.6
2024-09-23T2100,2366A,114.8905,25.8471,赣州市,华坚鞋城,,43,43,37,24,18,90,,88,88,8,8,3,4,0.4,0.4
2024-09-23T2100,3109A,115.0093,25.8613,赣州市,赣县区卫计委,,31,31,28,20,18,60,,88,78,11,9,5,6,0.6,0.6
2024-09-23T2100,2683A,106.2319,36.1417,固原市,马园,,38,,36,26,17,95,,111,108,27,29,7,6,1.0,0.8
2024-09-23T2100,2684A,106.2792,36.0022,固原市,监测站,,,47,35,25,23,,,85,,12,15,4,4,0.3,0.4
2024-09-23T2100,2685A,106.2375,36.0211,固原市,新区,,42,42,45,20,21,105,,119,118,15,22,6,6,0.4,0.4
2024-09-23T2100,3522A,106.2177,35.9959,固原市,原州区十五小,,47,47,43,24,22,105,,124,123,15,19,6,5,0.7,0.6
2024-09-23T2100,2544A,106.6303,30.4576,广安市,市委,颗粒物(PM10),61,72,28,38,20,106,,137,134,23,12,2,2,0.5,0.4
2024-09-23T2100,2545A,106.6271,30.4663,广安市,友谊中学,,46,42,26,32,19,104,,136,133,24,14,5,3,0.6,0.5
2024-09-23T2100,2547A,106.6388,30.4551,广安市,广电花园,,,39,28,29,18,,,138,138,19,12,2,3,0.5,0.4
2024-09-23T2100,2902A,106.6351,30.4865,广安市,北辰小学,,42,39,35,29,19,98,,138,135,18,11,5,5,0.5,0.4
2024-09-23T2100,2523A,105.8945,32.4535,广元市,黑石坡,,33,33,24,13,16,98,,116,116,14,12,11,8,0.5,0.4
2024-09-23T2100,2524A,105.821,32.4444,广元市,老城,颗粒物(PM10),57,64,25,38,13,34,,121,105,71,26,3,3,0.9,0.7
2024-09-23T2100,2526A,105.8628,32.4287,广元市,监测站,,48,34,23,33,17,75,,122,115,16,13,3,3,0.7,0.6
2024-09-23T2100,3617A,105.8047,32.4166,广元市,经开区,,49,49,35,29,22,49,,127,113,52,21,7,7,0.7,0.6
2024-09-23T2100,1345A,113.2347,23.1423,广州市,广雅中学,,15,11,23,7,14,36,,81,51,30,20,5,5,0.7,0.7
2024-09-23T2100,1346A,113.2612,23.105,广州市,市五中,,15,11,24,6,11,47,,87,59,15,12,4,4,0.8,0.7
2024-09-23T2100,1348A,113.3478,23.0916,广州市,广东商学院,,11,9,20,7,13,33,,78,46,21,14,4,4,0.7,0.6
2024-09-23T2100,1349A,113.4332,23.1047,广州市,市八十六中,,13,11,19,6,10,29,,65,43,26,17,2,3,0.6,0.5
2024-09-23T2100,1350A,113.3505,22.9483,广州市,番禺中学,,14,12,20,8,8,30,,66,47,27,17,4,4,0.7,0.6
2024-09-23T2100,1353A,113.5618,23.312,广州市,九龙镇镇龙,,12,12,15,6,10,36,,65,49,15,11,6,6,0.7,0.7
2024-09-23T2100,1354A,113.2765,23.1544,广州市,麓湖,,15,6,22,3,13,45,,68,52,15,19,4,5,0.5,0.5
2024-09-23T2100,1355A,113.443,23.3035,广州市,帽峰山森林公园,,16,,14,3,10,50,,87,58,10,7,6,6,0.4,0.4
2024-09-23T2100,2846A,113.3221,23.1322,广州市,体育西,,13,13,19,8,10,36,,76,50,18,14,4,4,0.6,0.6
2024-09-23T2100,3298A,113.5717,23.5491,广州市,从化街口,,17,6,14,3,8,54,,86,60,9,8,7,8,0.7,0.6
2024-09-23T2100,3299A,113.3472,23.3692,广州市,白云竹料,,20,6,16,3,11,62,,91,65,8,8,5,5,0.6,0.6
2024-09-23T2100,3300A,113.2981,23.237,广州市,白云嘉禾,,,10,23,3,12,,,79,53,35,24,6,6,0.8,0.8
2024-09-23T2100,3301A,113.4256,23.1716,广州市,黄埔科学城,,13,8,21,3,12,41,,76,52,13,9,5,5,0.6,0.8
2024-09-23T2100,3302A,113.3942,23.0483,广州市,番禺大学城,,16,16,18,6,11,25,,62,37,23,16,5,5,0.4,0.4
2024-09-23T2100,3303A,113.4922,22.8168,广州市,南沙黄阁,,19,17,18,13,13,28,,56,44,34,22,6,7,0.7,0.6
2024-09-23T2100,3304A,113.5342,22.7896,广州市,南沙街,,18,18,20,11,13,31,,53,41,24,20,7,7,0.7,0.7
2024-09-23T2100,3443A,113.2902,23.5544,广州市,花都梯面,,20,6,17,3,12,63,,76,64,6,7,5,6,0.6,0.6
2024-09-23T2100,3445A,113.7858,23.7478,广州市,从化良口,,17,6,15,3,7,54,,81,55,6,7,6,6,0.7,0.7
2024-09-23T2100,3446A,113.8051,23.2614,广州市,增城荔城,,17,6,11,3,6,52,,67,59,9,9,5,5,0.6,0.6
2024-09-23T2100,2506A,109.6047,23.0666,贵港市,江南子站,,44,44,34,22,15,91,,121,116,13,9,7,7,0.7,0.6
2024-09-23T2100,2507A,109.6014,23.0948,贵港市,贵城子站,,42,42,34,29,22,89,,117,111,11,9,7,7,0.7,0.7
2024-09-23T2100,2508A,109.5669,23.1065,贵港市,荷城子站,,39,39,35,14,13,87,,114,111,11,8,11,10,0.6,0.5
2024-09-23T2100,3405A,109.5886,23.1172,贵港市,新世纪学校,,41,41,35,22,19,78,,115,109,10,5,9,7,1.0,0.9
2024-09-23T2100,1439A,106.6899,26.5998,贵阳市,马鞍山,,31,31,24,17,9,87,,111,109,12,9,6,8,0.5,0.4
2024-09-23T2100,1440A,106.6971,26.5694,贵阳市,市环保站,,39,36,27,27,19,110,,126,123,17,8,4,5,0.6,0.4
2024-09-23T2100,1441A,106.6243,26.6266,贵阳市,鉴湖路,,,41,33,29,16,,,114,114,12,7,11,7,0.4,0.4
2024-09-23T2100,1442A,106.7487,26.6343,贵阳市,燕子冲,,42,39,19,29,18,103,,121,119,19,6,6,6,0.4,0.3
2024-09-23T2100,1443A,106.6555,26.4365,贵阳市,碧云窝,颗粒物(PM10),62,73,49,27,15,95,,122,116,23,13,5,4,0.4,0.3
2024-09-23T2100,1444A,106.694,26.5161,贵阳市,中院村,,39,39,28,22,15,112,,122,120,15,9,6,6,0.5,0.4
2024-09-23T2100,1445A,106.7109,26.6027,贵阳市,红边门,,,46,30,,21,,,119,117,18,11,4,5,0.5,0.5
2024-09-23T2100,1446A,106.7164,26.5699,贵阳市,新华路,,36,29,27,17,15,114,,124,123,13,8,12,7,0.3,0.3
2024-09-23T2100,1447A,106.674,26.5424,贵阳市,太慈桥,,35,31,24,19,13,110,,123,121,15,8,4,5,0.4,0.3
2024-09-23T2100,1862A,110.4144,25.3167,桂林市,电子科大尧山校区,,40,29,32,16,15,127,,124,124,6,7,5,4,0.7,0.7
2024-09-23T2100,1863A,110.2819,25.2697,桂林市,监测站,,34,28,36,16,15,106,,114,111,13,9,10,8,0.6,0.6
2024-09-23T2100,1864A,110.3089,25.2708,桂林市,龙隐路小学,,36,28,30,16,16,114,,120,119,8,6,12,9,0.5,0.5
2024-09-23T2100,1865A,110.2869,25.2178,桂林市,八中,,36,20,34,12,13,115,,120,117,11,9,10,9,0.5,0.5
2024-09-23T2100,3403A,110.1764,25.2381,桂林市,创业大厦,,34,34,39,22,24,103,,108,106,8,7,10,8,0.5,0.4
2024-09-23T2100,3531A,110.296,25.1253,桂林市,旅游学院,,,27,32,17,15,118,,123,120,,5,7,7,0.4,0.4
2024-09-23T2100,2674A,100.2561,34.4714,果洛藏族自治州,玛沁县大武镇,,37,37,26,21,14,90,,111,109,7,6,10,8,0.5,0.4
2024-09-23T2100,1129A,126.5422,45.755,哈尔滨市,岭北,,27,23,23,12,12,86,,113,109,22,21,6,7,0.6,0.7
2024-09-23T2100,1130A,126.561,45.8167,哈尔滨市,松北商大,,37,37,35,10,12,50,,84,76,33,33,8,8,0.4,0.4
2024-09-23T2100,1131A,126.979,45.5419,哈尔滨市,阿城会宁,,49,49,30,18,12,17,,82,62,38,20,12,12,0.6,0.5
2024-09-23T2100,1132A,126.599,45.7222,哈尔滨市,南岗学府路,颗粒物(PM10),69,87,65,26,21,12,,86,58,66,42,8,8,0.7,0.6
2024-09-23T2100,1133A,126.689,45.7733,哈尔滨市,太平宏伟公园,,49,49,52,19,16,41,,81,70,33,37,9,10,0.7,0.6
2024-09-23T2100,1134A,126.635,45.7667,哈尔滨市,道外承德广场,,49,49,45,24,17,27,,80,68,57,44,7,6,0.4,0.4
2024-09-23T2100,1135A,126.685,45.7319,哈尔滨市,香坊红旗大街,颗粒物(PM10),52,53,50,20,17,24,,82,68,56,44,9,11,0.7,0.6
2024-09-23T2100,1136A,126.6411,45.7258,哈尔滨市,动力和平路,,,51,41,22,17,36,,85,72,42,39,13,12,,0.7
2024-09-23T2100,1137A,126.593,45.7478,哈尔滨市,道里建国路,,42,42,36,15,14,37,,86,74,41,33,9,8,1.4,0.9
2024-09-23T2100,1138A,126.615,45.61,哈尔滨市,平房东轻厂,,31,31,30,12,10,62,,88,81,18,21,6,6,0.5,0.5
2024-09-23T2100,1139A,126.595,45.9855,哈尔滨市,呼兰师专,颗粒物(PM10),58,65,39,24,13,31,,71,61,58,40,10,8,0.7,0.6
2024-09-23T2100,1140A,126.6206,45.6842,哈尔滨市,省农科院,颗粒物(PM10),56,61,75,27,21,10,,72,48,70,47,5,6,0.7,0.6
2024-09-23T2100,2688A,93.5128,42.8172,哈密市,地区监测站,颗粒物(PM10),59,67,135,21,40,75,,94,94,31,44,9,8,0.3,0.4
2024-09-23T2100,2689A,93.4961,42.8328,哈密市,哈密师范学校,颗粒物(PM10),57,63,113,26,38,74,,88,88,31,47,4,5,0.4,0.7
2024-09-23T2100,2671A,100.9048,36.9639,海北藏族自治州,海晏县西海镇,,22,19,15,15,15,66,,102,98,9,9,14,15,0.3,0.4
2024-09-23T2100,3867A,102.0738,36.5056,海东市,平安区公安北苑,,40,40,25,10,12,81,,114,112,24,15,13,10,0.5,0.6
2024-09-23T2100,1410A,110.3232,20.0574,海口市,海南大学,,23,10,17,7,8,72,,76,76,8,7,6,6,0.5,0.5
2024-09-23T2100,1412A,110.338,19.9969,海口市,海南师范大学,,,,14,,9,,,71,71,12,8,5,5,0.6,0.7
2024-09-23T2100,1413A,110.33,20.0356,海口市,龙华路环保局宿舍,,22,8,15,7,8,70,,72,72,9,8,3,4,0.5,0.4
2024-09-23T2100,3539A,110.5111,19.9736,海口市,桂林洋子站,,23,,20,10,14,72,,81,81,6,6,5,5,0.5,0.3
2024-09-23T2100,2673A,100.6188,36.2866,海南藏族自治州,共和县恰卜恰镇,颗粒物(PM10),68,86,28,3,8,36,,101,91,34,13,14,12,0.5,0.5
2024-09-23T2100,2676A,97.3731,37.3753,海西蒙古族藏族自治州,德令哈市,,41,41,23,23,12,59,,106,101,22,10,10,9,0.4,0.4
2024-09-23T2100,1048A,114.5302,36.6116,邯郸市,东污水处理厂,颗粒物(PM10),64,77,40,34,15,90,,131,128,41,33,3,3,0.6,0.5
2024-09-23T2100,1049A,114.4918,36.5713,邯郸市,矿院,颗粒物(PM10),57,64,43,31,15,101,,135,133,30,31,4,4,0.2,0.3
2024-09-23T2100,1050A,114.484,36.6133,邯郸市,丛台公园,颗粒物(PM10),51,51,35,25,15,108,,128,128,26,29,3,3,0.5,0.7
2024-09-23T2100,3458A,114.7895,36.5593,邯郸市,香泉濮院小区,颗粒物(PM10),71,92,45,46,16,112,,136,134,32,31,5,4,0.6,0.4
2024-09-23T2100,3579A,114.50634,36.77178,邯郸市,永年区实验高中,颗粒物(PM10),59,67,59,31,22,108,,150,147,40,34,4,5,0.5,0.7
2024-09-23T2100,3580A,114.20016,36.44293,邯郸市,峰峰矿区临水派出所,颗粒物(PM10),60,69,34,22,11,106,,143,139,22,11,4,6,0.6,0.7
2024-09-23T2100,2634A,106.9893,33.1842,汉中市,汉川机床厂子校,,39,,25,27,16,103,,121,118,5,5,5,5,0.4,0.6
2024-09-23T2100,2635A,107.0154,33.0706,汉中市,市监测站,,37,37,32,19,16,98,,126,122,14,8,8,8,0.5,0.4
2024-09-23T2100,2636A,107.0089,33.1138,汉中市,鑫源开发区,,40,40,34,25,20,82,,125,115,18,10,9,9,0.4,0.4
2024-09-23T2100,2637A,107.007,33.0323,汉中市,南郑大河坎水厂,,49,46,34,34,20,62,,124,115,37,12,10,8,0.6,0.5
2024-09-23T2100,1223A,120.2072,30.2111,杭州市,滨江,,48,48,35,20,12,56,,87,74,31,20,5,6,0.7,0.6
2024-09-23T2100,1224A,120.0633,30.2747,杭州市,西溪,,37,37,27,23,13,54,,104,93,37,21,5,6,0.9,0.8
2024-09-23T2100,1226A,120.3461,30.3153,杭州市,下沙,,42,38,34,29,14,74,,102,88,37,35,6,7,0.7,0.7
2024-09-23T2100,1227A,120.1269,30.2456,杭州市,卧龙桥,,32,32,27,20,14,58,,104,90,23,20,5,6,0.6,0.5
2024-09-23T2100,1228A,120.1903,30.2692,杭州市,浙江农大,,33,33,28,20,14,72,,97,88,33,25,8,9,0.7,0.7
2024-09-23T2100,1230A,120.1197,30.3119,杭州市,和睦小学,,42,42,27,24,12,75,,110,100,35,23,6,6,0.8,0.7
2024-09-23T2100,1231A,120.3019,30.4183,杭州市,临平镇,颗粒物(PM10),53,55,39,26,14,68,,112,95,38,20,5,5,0.8,0.7
2024-09-23T2100,1232A,120.2697,30.1819,杭州市,城厢镇,,39,39,31,24,17,61,,86,72,27,23,6,6,0.6,0.6
2024-09-23T2100,1233A,120.0883,30.1808,杭州市,云栖,,22,21,21,15,9,35,,99,78,28,19,6,6,0.7,0.7
2024-09-23T2100,3557A,119.9464,30.0494,杭州市,镇二中,,,25,22,23,11,,,96,93,17,18,8,8,0.7,0.6
2024-09-23T2100,3558A,119.7183,30.2367,杭州市,市府大楼,,46,46,21,22,13,94,,125,116,20,13,8,7,0.6,0.4
2024-09-23T2100,3656A,120.1556,30.2864,杭州市,消防大队,,42,42,29,22,12,85,,104,96,26,17,8,8,0.7,0.7
2024-09-23T2100,1270A,117.1959,31.7848,合肥市,明珠广场,,36,31,30,12,12,113,,124,119,17,20,6,7,0.6,0.6
2024-09-23T2100,1271A,117.3072,31.8764,合肥市,三里街,,36,36,28,12,12,97,,108,107,16,17,8,8,0.4,0.4
2024-09-23T2100,1272A,117.2588,31.8707,合肥市,琥珀山庄,,36,36,32,14,15,104,,115,114,21,17,8,8,0.3,0.4
2024-09-23T2100,1273A,117.1604,31.9052,合肥市,董铺水库,,41,41,39,14,14,83,,103,100,16,14,4,4,0.5,0.4
2024-09-23T2100,1274A,117.25,31.8571,合肥市,长江中路,,41,41,36,15,17,107,,115,114,19,17,9,9,0.4,0.4
2024-09-23T2100,1275A,117.266,31.9436,合肥市,庐阳区,,46,46,43,14,15,96,,118,115,22,18,5,4,0.4,0.4
2024-09-23T2100,1276A,117.336,31.8586,合肥市,瑶海区,,32,31,31,10,12,100,,108,107,19,18,7,8,0.3,0.3
2024-09-23T2100,1277A,117.3027,31.7964,合肥市,包河区,,36,36,33,17,14,73,,107,91,47,45,12,9,0.5,0.4
2024-09-23T2100,1278A,117.2776,31.7385,合肥市,滨湖新区,,34,34,30,14,11,92,,112,108,24,22,6,5,0.5,0.5
2024-09-23T2100,1279A,117.1318,31.8403,合肥市,高新区,,44,44,37,19,18,92,,109,106,28,23,8,8,0.7,0.7
2024-09-23T2100,3464A,117.3803,31.9147,合肥市,高教基地,,38,38,27,21,15,90,,114,108,16,10,4,4,0.4,0.4
2024-09-23T2100,3614A,79.924,37.0877,和田地区,地区环保局,颗粒物(PM10),167,283,222,76,72,63,,107,103,36,13,8,7,0.7,0.6
2024-09-23T2100,3615A,79.9131,37.113,和田地区,市环保局,颗粒物(PM10),190,329,280,56,79,,,97,97,71,29,8,8,0.9,0.7
2024-09-23T2100,2516A,108.2011,24.715,河池市,东仁乐园,,24,24,28,16,8,52,,125,106,18,7,5,6,0.5,0.4
2024-09-23T2100,2517A,108.0497,24.6947,河池市,市环保站,,30,17,22,16,8,96,,128,118,14,8,10,9,0.6,0.5
2024-09-23T2100,2518A,108.0983,24.6989,河池市,市疾控中心,,43,40,22,30,12,65,,133,119,35,9,11,10,0.5,0.4
2024-09-23T2100,1696A,114.6778,23.7569,河源市,源西,,20,,11,3,12,61,,71,66,9,8,4,4,0.6,0.6
2024-09-23T2100,1697A,114.6944,23.7586,河源市,东埔,,34,34,14,3,12,56,,64,62,14,11,2,2,0.7,0.7
2024-09-23T2100,1698A,114.6892,23.7233,河源市,老城,,19,6,13,3,4,59,,67,64,11,9,2,2,0.7,0.7
2024-09-23T2100,1718A,115.4208,35.2464,菏泽市,气象局,颗粒物(PM10),69,87,56,33,26,117,,160,154,41,34,6,15,0.6,0.4
2024-09-23T2100,1719A,115.4747,35.2375,菏泽市,市政协,颗粒物(PM10),71,92,57,41,28,99,,157,152,42,25,6,10,0.5,0.4
2024-09-23T2100,3374A,115.5564,35.0891,菏泽市,定陶老年大学,颗粒物(PM10),60,70,59,31,28,108,,158,151,29,28,7,11,0.4,0.4
2024-09-23T2100,3647A,115.4702,35.2706,菏泽市,菏泽医专,颗粒物(PM10),68,86,59,40,29,94,,160,154,62,32,4,17,0.6,0.5
2024-09-23T2100,2514A,111.5264,24.4172,贺州市,环保小区,,42,36,38,29,19,81,,104,92,12,12,5,5,0.6,0.6
2024-09-23T2100,2515A,111.5608,24.4078,贺州市,政协大楼,,34,34,38,20,19,96,,110,101,12,13,6,5,0.6,0.6
2024-09-23T2100,3534A,111.4744,24.4553,贺州市,西湾,,44,44,33,23,16,87,,101,98,12,10,6,7,0.6,0.6
2024-09-23T2100,2385A,114.17,35.9019,鹤壁市,市监测站,颗粒物(PM10),52,53,41,30,17,93,,148,139,27,20,9,6,0.8,0.6
2024-09-23T2100,2386A,114.2956,35.7511,鹤壁市,市交警支队,颗粒物(PM10),52,54,34,31,11,84,,143,133,50,34,5,5,0.6,0.5
2024-09-23T2100,2387A,114.2878,35.7306,鹤壁市,迎宾馆,颗粒物(PM10),54,58,32,28,15,87,,144,135,48,29,4,4,0.6,0.5
2024-09-23T2100,3474A,114.2617,35.6822,鹤壁市,大新区,,39,36,34,27,14,64,,139,123,57,25,7,7,0.5,0.4
2024-09-23T2100,3596A,114.1572,35.9603,鹤壁市,南山宾馆,细颗粒物(PM2.5),62,54,25,44,20,101,,143,136,21,12,4,3,0.5,0.4
2024-09-23T2100,2244A,130.2537,47.3416,鹤岗市,哈啤分公司,,33,33,26,15,18,63,,77,73,16,13,14,14,0.7,0.7
2024-09-23T2100,2245A,130.2684,47.3086,鹤岗市,斯达机电,,33,33,32,17,18,70,,77,75,17,13,13,12,0.3,0.3
2024-09-23T2100,2246A,130.3114,47.3388,鹤岗市,东山纸板厂,颗粒物(PM10),56,62,63,29,26,45,,64,55,29,24,18,17,0.3,0.8
2024-09-23T2100,2247A,130.1097,47.3382,鹤岗市,五号水库,,17,17,17,10,8,36,,82,66,14,6,16,16,0.5,0.4
2024-09-23T2100,2263A,127.4833,50.2524,黑河市,交通局,,38,38,25,25,17,53,,72,68,15,12,6,7,0.4,0.3
2024-09-23T2100,2264A,127.5144,50.2341,黑河市,环保局,,31,31,20,17,12,65,,83,79,9,8,3,4,0.4,0.4
2024-09-23T2100,2265A,127.5291,50.2472,黑河市,大黑河岛,,,,55,19,11,38,,69,61,12,10,3,2,0.1,0.1
2024-09-23T2100,1074A,115.6838,37.7541,衡水市,电机北厂,颗粒物(PM10),56,62,31,35,15,88,,133,128,39,23,6,7,0.5,0.3
2024-09-23T2100,1075A,115.6303,37.7316,衡水市,市监测站,,45,45,33,18,10,114,,133,128,30,32,8,7,0.5,0.4
2024-09-23T2100,3188A,115.6683,37.7217,衡水市,市城管局,颗粒物(PM10),58,65,35,22,14,113,,137,134,29,27,5,4,0.4,0.4
2024-09-23T2100,3459A,115.5989,37.5491,衡水市,地表水厂,颗粒物(PM10),59,68,28,23,13,62,,126,113,55,37,6,5,0.5,0.4
2024-09-23T2100,2456A,112.5003,26.9167,衡阳市,原169医院,,35,29,33,20,15,112,,133,128,22,14,14,10,0.5,0.5
2024-09-23T2100,2457A,112.6194,26.9258,衡阳市,衡阳化工总厂,,41,41,41,28,11,118,,132,132,18,11,9,10,0.6,0.6
2024-09-23T2100,2458A,112.6211,26.8956,衡阳市,珠晖区环保局,,41,41,40,22,19,126,,133,133,13,13,8,10,0.7,0.7
2024-09-23T2100,2459A,112.6197,26.8733,衡阳市,市委党校,,42,36,38,22,17,132,,141,141,14,13,12,12,0.6,0.6
2024-09-23T2100,2460A,112.6006,26.8919,衡阳市,市监测站,颗粒物(PM10),53,55,40,36,22,135,,142,142,11,10,7,9,0.6,0.6
2024-09-23T2100,2461A,112.5664,26.9056,衡阳市,真空机电公司,,43,37,38,19,16,136,,139,139,8,8,8,8,0.6,0.6
2024-09-23T2100,3399A,112.6703,26.882,衡阳市,师范学院,,50,50,40,22,21,114,,140,139,18,13,11,10,0.9,0.7
2024-09-23T2100,2608A,103.3772,23.3993,红河哈尼族彝族自治州,污水处理厂,,39,,19,27,21,71,,82,81,6,6,4,6,0.4,0.4
2024-09-23T2100,2609A,103.3861,23.35,红河哈尼族彝族自治州,监测站,,36,33,28,25,16,74,,89,86,7,7,10,10,0.4,0.4
2024-09-23T2100,3038A,103.3758,23.368,红河哈尼族彝族自治州,州图书馆,,26,26,25,17,13,72,,82,82,6,6,7,9,0.4,0.5
2024-09-23T2100,1090A,111.6507,40.7517,呼和浩特市,呼市一监,颗粒物(PM10),68,85,46,43,26,50,,109,106,47,30,8,8,0.8,0.6
2024-09-23T2100,1091A,111.6572,40.8033,呼和浩特市,小召,颗粒物(PM10),80,110,54,39,25,41,,105,102,75,38,12,10,1.1,0.6
2024-09-23T2100,1094A,111.7516,40.8369,呼和浩特市,如意水处理厂,颗粒物(PM10),57,63,53,23,23,42,,102,94,61,37,8,8,0.6,0.5
2024-09-23T2100,1095A,111.7276,40.8062,呼和浩特市,二十九中,颗粒物(PM10),79,107,51,36,27,19,,104,94,96,42,7,7,1.1,0.7
2024-09-23T2100,1096A,111.5512,40.7866,呼和浩特市,工大金川校区,颗粒物(PM10),69,88,57,25,24,34,,99,91,72,44,4,5,0.6,0.6
2024-09-23T2100,1097A,111.717,40.7612,呼和浩特市,化肥厂生活区,颗粒物(PM10),87,123,60,45,24,8,,104,90,105,40,10,11,1.3,0.9
2024-09-23T2100,3698A,111.5968,40.8178,呼和浩特市,红旗小学,颗粒物(PM10),54,58,55,26,24,75,,98,95,41,44,5,6,0.5,0.5
2024-09-23T2100,3699A,111.6518,40.8389,呼和浩特市,海东办,颗粒物(PM10),67,83,51,32,25,13,,101,91,97,46,6,7,0.8,0.6
2024-09-23T2100,2192A,119.7594,49.2261,呼伦贝尔市,区环保局,颗粒物(PM10),87,123,33,39,15,4,,68,51,65,21,12,7,1.4,0.5
2024-09-23T2100,3061A,119.7512,49.1577,呼伦贝尔市,国华电力东,,44,44,25,21,13,7,,73,58,43,13,4,4,0.6,0.4
2024-09-23T2100,1250A,120.0751,30.8669,湖州市,城西水厂,,38,38,29,17,12,100,,141,136,42,24,5,5,0.5,0.4
2024-09-23T2100,2873A,120.0875,30.8955,湖州市,仁皇山新区,,36,36,28,17,13,104,,144,140,30,19,6,7,0.5,0.5
2024-09-23T2100,2907A,120.1844,30.8596,湖州市,吴兴区站,,36,36,27,17,13,88,,125,120,23,15,5,6,0.5,0.4
2024-09-23T2100,3562A,120.4148,30.8538,湖州市,南浔区站,,41,41,27,22,11,92,,136,132,23,14,7,7,0.5,0.4
2024-09-23T2100,1607A,120.9092,40.7136,葫芦岛市,龙港区,,46,20,32,9,18,145,,120,120,8,24,13,25,0.8,0.6
2024-09-23T2100,1608A,120.8392,40.7514,葫芦岛市,化工街,,40,29,46,17,18,128,,118,118,16,32,18,63,0.8,0.4
2024-09-23T2100,1609A,120.8341,40.7073,葫芦岛市,新区,,46,26,39,9,21,145,,126,126,15,42,12,17,0.8,0.6
2024-09-23T2100,1610A,120.8695,40.7677,葫芦岛市,东城区,,38,29,46,11,22,119,,114,114,22,28,11,91,0.8,0.5
2024-09-23T2100,2482A,109.5981,27.5721,怀化市,林科所,,33,21,24,11,13,104,,129,125,14,10,11,13,0.7,0.4
2024-09-23T2100,2483A,109.9453,27.5444,怀化市,河西地税局,颗粒物(PM10),61,71,45,40,22,73,,133,121,23,12,8,11,0.8,0.7
2024-09-23T2100,2484A,109.9781,27.5342,怀化市,市四医院,,40,40,35,27,19,86,,131,125,20,8,16,12,0.6,0.5
2024-09-23T2100,2485A,109.9972,27.5578,怀化市,监测楼,颗粒物(PM10),53,56,38,25,17,101,,132,127,16,10,7,8,0.4,0.3
2024-09-23T2100,2486A,110.0394,27.583,怀化市,市委党校,,,58,40,42,22,79,,130,122,25,10,12,20,,0.5
2024-09-23T2100,1210A,119.036,33.5981,淮安市,钵池山,,44,44,29,16,12,81,,111,106,22,16,8,8,0.8,0.7
2024-09-23T2100,1211A,119.007,33.575,淮安市,北京南路,,36,36,31,14,11,98,,112,110,19,18,7,7,0.3,0.3
2024-09-23T2100,1212A,118.989,33.6067,淮安市,市监测站,,,41,27,22,14,,,118,117,25,27,8,7,0.5,0.4
2024-09-23T2100,1213A,119.135,33.5039,淮安市,楚州区监测站,,42,42,34,21,13,87,,115,110,21,17,6,6,0.8,0.8
2024-09-23T2100,1214A,119.0186,33.6297,淮安市,淮阴区监测站,颗粒物(PM10),51,51,35,16,12,82,,115,109,30,24,3,4,0.6,0.6
2024-09-23T2100,3426A,118.8755,33.2894,淮安市,新华书店,,45,45,40,18,16,98,,120,116,22,26,7,10,0.8,0.9
2024-09-23T2100,2282A,116.8004,33.975,淮北市,监测站,,36,36,32,18,14,83,,120,114,22,17,7,8,0.5,0.4
2024-09-23T2100,2283A,116.8091,33.9007,淮北市,烈山区政府,,32,30,30,16,14,102,,138,135,15,12,6,7,0.3,0.3
2024-09-23T2100,3330A,116.8873,33.9836,淮北市,杜集区检察院,颗粒物(PM10),53,55,40,17,14,102,,133,128,12,9,9,9,0.4,0.4
2024-09-23T2100,4017A,116.7923,33.9535,淮北市,市博物馆,,39,39,31,16,14,109,,133,131,19,14,7,7,0.6,0.6
2024-09-23T2100,2277A,116.8305,32.7727,淮南市,潘集区政府,颗粒物(PM10),57,64,49,25,27,67,,119,112,37,26,8,10,0.4,0.4
2024-09-23T2100,2278A,117.0067,32.6524,淮南市,师范学院,颗粒物(PM10),57,63,58,30,29,74,,130,120,34,25,8,8,0.6,0.5
2024-09-23T2100,2279A,116.8569,32.5951,淮南市,谢家集区政府,颗粒物(PM10),54,57,49,33,28,88,,128,124,28,20,11,9,0.5,0.4
2024-09-23T2100,2280A,116.8281,32.633,淮南市,八公山区政府,,45,45,50,25,24,109,,128,126,14,15,9,9,0.3,0.3
2024-09-23T2100,2281A,116.6325,32.6201,淮南市,焦岗湖风景区管理处,颗粒物(PM10),61,72,38,23,18,49,,111,96,27,15,4,5,0.1,0.1
2024-09-23T2100,2894A,117.0566,32.6531,淮南市,经济技术开发区消防队,颗粒物(PM10),55,59,58,16,19,84,,131,123,28,23,9,8,0.3,0.3
2024-09-23T2100,3329A,117.0108,32.5893,淮南市,山南新区,颗粒物(PM10),53,56,54,20,21,96,,134,130,27,20,6,6,0.2,0.2
2024-09-23T2100,2446A,114.9028,30.4742,黄冈市,职工中心,颗粒物(PM10),53,56,39,35,21,111,,144,140,22,12,9,8,0.6,0.4
2024-09-23T2100,2929A,114.8858,30.4519,黄冈市,红卫路,,42,39,29,29,17,103,,149,143,28,13,8,8,0.6,0.3
2024-09-23T2100,3398A,114.9136,30.4445,黄冈市,市林业局,,,64,31,25,15,,,162,162,23,9,9,8,0.6,0.4
2024-09-23T2100,2672A,102.0199,35.5102,黄南藏族自治州,同仁县隆务镇,,45,45,28,11,10,70,,89,88,5,5,7,7,0.4,0.4
2024-09-23T2100,2295A,118.2903,29.6963,黄山市,延安路89号,,25,21,26,8,9,78,,89,82,8,6,6,6,0.2,0.2
2024-09-23T2100,2296A,118.327,29.7178,黄山市,黄山东路89号,,23,14,26,6,7,73,,89,84,4,5,4,5,0.3,0.2
2024-09-23T2100,2297A,118.1371,30.2756,黄山市,黄山区政府5号楼,,43,43,28,17,13,98,,114,112,8,7,7,7,0.4,0.4
2024-09-23T2100,2423A,115.0601,30.2313,黄石市,沈家营,,38,34,27,14,9,121,,155,152,29,11,9,8,0.6,0.5
2024-09-23T2100,2424A,115.0817,30.2006,黄石市,陈家湾,,44,44,28,13,11,140,,157,156,8,9,9,9,0.7,0.7
2024-09-23T2100,2426A,114.8988,30.2019,黄石市,铁山,,48,48,27,15,13,129,,168,165,27,10,9,8,0.3,0.3
2024-09-23T2100,2427A,115.0307,30.2092,黄石市,团城山,,43,39,27,11,7,137,,160,159,13,12,8,8,0.6,0.6
2024-09-23T2100,3149A,115.0235,30.1578,黄石市,笔架山北路,,39,38,23,6,7,122,,157,154,12,8,8,9,0.6,0.5
2024-09-23T2100,1392A,114.4183,23.0528,惠州市,河南岸金山湖子站,,,,13,,8,,,65,59,10,6,4,5,,0.5
2024-09-23T2100,1393A,114.4053,23.0822,惠州市,下埔横江三路子站,,17,10,13,7,9,54,,72,66,10,7,3,4,0.7,0.6
2024-09-23T2100,1394A,114.4103,23.1142,惠州市,江北云山西路子站,,17,8,12,8,8,53,,68,61,7,4,4,4,0.5,0.6
2024-09-23T2100,1395A,114.4645,22.7833,惠州市,惠阳区承修路船湖子站,,15,13,15,10,9,33,,50,43,16,12,5,5,0.7,0.4
2024-09-23T2100,1396A,114.5317,22.7422,惠州市,大亚湾管委会子站,,17,17,12,7,7,37,,52,47,17,11,6,6,0.7,0.6
2024-09-23T2100,3314A,114.4338,22.8134,惠州市,惠阳秋长,,14,9,9,8,7,43,,63,58,13,8,4,4,0.7,0.7
2024-09-23T2100,3452A,114.6517,22.775,惠州市,大亚湾霞涌,,12,11,10,3,4,36,,47,45,8,6,4,4,0.7,0.7
2024-09-23T2100,2240A,130.9762,45.3001,鸡西市,环保局,颗粒物(PM10),54,58,35,18,12,13,,69,52,36,13,7,5,0.6,0.3
2024-09-23T2100,2243A,130.9429,45.3039,鸡西市,第一中学,颗粒物(PM10),54,58,46,17,10,34,,71,55,25,15,5,5,0.3,0.1
2024-09-23T2100,3707A,131.0207,45.3073,鸡西市,欧美日汽修厂,颗粒物(PM10),79,108,37,45,14,9,,74,57,34,18,6,6,0.5,0.2
2024-09-23T2100,3709A,130.9967,45.3106,鸡西市,市政设施管理处,颗粒物(PM10),62,73,43,28,15,3,,68,47,47,23,8,7,0.5,0.2
2024-09-23T2100,2367A,114.9754,27.0803,吉安市,红声器材厂,,38,38,42,20,14,95,,120,117,14,14,19,13,0.7,0.7
2024-09-23T2100,2368A,114.9658,27.0999,吉安市,市森林工业局,,37,37,38,21,15,97,,119,117,17,20,13,11,0.5,0.5
2024-09-23T2100,2369A,114.99,27.1312,吉安市,市环境监测站,,38,38,38,16,14,97,,125,122,12,14,24,18,0.5,0.5
2024-09-23T2100,2370A,115.0093,27.0968,吉安市,青原区法院,,42,42,40,20,15,82,,118,114,26,17,17,13,0.7,0.7
2024-09-23T2100,1772A,126.54,43.8622,吉林市,哈达湾,,49,44,27,34,11,12,,72,54,48,22,6,6,0.8,0.5
2024-09-23T2100,1773A,126.5844,43.8358,吉林市,东局子,,24,24,22,10,12,24,,68,56,30,19,4,5,0.6,0.6
2024-09-23T2100,1774A,126.5052,43.8245,吉林市,电力学院,颗粒物(PM10),84,118,33,47,18,4,,72,45,36,20,4,3,1.1,0.7
2024-09-23T2100,1775A,126.6133,43.8972,吉林市,江北,颗粒物(PM10),60,70,31,26,12,11,,70,46,42,19,7,6,0.7,0.7
2024-09-23T2100,1776A,126.555,43.8306,吉林市,江南公园,,33,33,27,14,14,29,,69,54,22,23,6,6,0.6,0.6
2024-09-23T2100,1778A,126.7061,43.7133,吉林市,丰满,,12,11,9,7,5,38,,62,54,4,3,5,5,0.4,0.3
2024-09-23T2100,2868A,126.4739,43.953,吉林市,九站,颗粒物(PM10),61,72,49,27,18,9,,75,46,48,27,11,10,0.7,0.6
2024-09-23T2100,1299A,116.9862,36.6114,济南市,科干所,颗粒物(PM10),56,61,35,20,11,54,,126,115,55,32,6,7,0.7,0.6
2024-09-23T2100,1300A,116.9376,36.665,济南市,农科所,颗粒物(PM10),62,73,41,22,11,46,,119,108,75,40,5,5,0.7,0.5
2024-09-23T2100,1301A,117.1265,36.6734,济南市,开发区,颗粒物(PM10),55,59,33,22,14,43,,109,93,57,35,4,5,0.7,0.4
2024-09-23T2100,1303A,117.0624,36.6868,济南市,省种子仓库,颗粒物(PM10),68,85,46,24,10,40,,111,99,70,38,5,6,0.5,0.2
2024-09-23T2100,1304A,116.9489,36.6447,济南市,机床二厂,颗粒物(PM10),67,83,49,32,11,45,,132,119,78,40,4,5,1.1,0.7
2024-09-23T2100,1305A,117.0495,36.663,济南市,市监测站,颗粒物(PM10),57,63,35,22,10,30,,117,103,84,41,5,6,0.9,0.5
2024-09-23T2100,1306A,116.7675,36.5484,济南市,长清党校,,37,37,28,17,12,115,,146,141,26,34,6,7,0.7,0.7
2024-09-23T2100,1616A,117.6795,36.229,济南市,技术学院,颗粒物(PM10),65,80,37,44,19,56,,126,116,59,31,10,10,1.3,0.7
2024-09-23T2100,1961A,117.532,36.6868,济南市,东山小学,,49,49,33,20,8,96,,114,110,57,39,6,5,0.5,0.3
2024-09-23T2100,3059A,117.7161,36.2049,济南市,泰兴公司,颗粒物(PM10),56,61,33,27,15,27,,119,106,89,36,9,9,0.8,0.5
2024-09-23T2100,3064A,117.6867,36.2171,济南市,莱芜战役纪念馆,颗粒物(PM10),59,68,39,31,17,69,,123,118,48,28,6,5,0.9,0.6
2024-09-23T2100,3494A,117.1673,36.9782,济南市,济阳区政府,颗粒物(PM10),53,56,36,24,11,131,,131,131,20,23,28,12,0.6,0.5
2024-09-23T2100,3495A,117.1171,36.63,济南市,锦屏中学,,,39,18,12,6,,,116,108,34,22,4,5,0.5,0.3
2024-09-23T2100,3682A,116.9814,36.6819,济南市,济南四建,颗粒物(PM10),59,68,38,22,13,42,,119,109,86,40,2,4,0.7,0.6
2024-09-23T2100,1653A,116.6251,35.4302,济宁市,火炬城,颗粒物(PM10),53,55,42,34,21,88,,134,130,30,22,10,10,0.8,0.6
2024-09-23T2100,3500A,116.5814,35.3707,济宁市,北湖一中,细颗粒物(PM2.5),58,53,44,41,26,107,,138,135,36,28,3,3,0.5,0.4
2024-09-23T2100,3501A,116.8249,35.5593,济宁市,服务中心,颗粒物(PM10),53,56,44,23,17,89,,132,126,38,27,8,8,0.4,0.3
2024-09-23T2100,3678A,116.5907,35.4054,济宁市,市第七中学,细颗粒物(PM2.5),52,51,56,36,23,116,,141,140,26,24,9,10,0.7,0.6
2024-09-23T2100,2255A,130.2751,46.8028,佳木斯市,佳纺,颗粒物(PM10),53,55,23,20,10,36,,88,67,30,13,3,3,0.5,0.4
2024-09-23T2100,2256A,130.3995,46.8307,佳木斯市,发电厂,颗粒物(PM10),84,117,42,28,13,4,,78,50,64,29,8,6,0.6,0.3
2024-09-23T2100,2257A,130.3258,46.7975,佳木斯市,环保局,,21,21,27,10,11,61,,83,74,22,17,8,8,0.5,0.4
2024-09-23T2100,2258A,130.3648,46.8032,佳木斯市,十一中,,48,48,26,24,14,18,,78,57,63,33,7,7,0.9,0.6
2024-09-23T2100,2259A,130.3794,46.7588,佳木斯市,四丰,,20,19,12,7,7,63,,81,76,11,10,1,1,0.2,0.2
2024-09-23T2100,1252A,120.7436,30.778,嘉兴市,清河小学,,47,47,31,17,11,54,,125,108,50,25,5,5,0.7,0.7
2024-09-23T2100,1253A,120.726,30.7478,嘉兴市,嘉兴学院,,48,48,29,24,13,27,,126,99,86,25,3,4,0.7,0.6
2024-09-23T2100,2872A,120.7846,30.7525,嘉兴市,南湖区残联,,42,40,29,29,14,53,,139,117,54,24,5,6,0.5,0.5
2024-09-23T2100,3407A,120.6916,30.7739,嘉兴市,秀洲住建,,43,43,28,19,14,82,,127,113,34,20,6,6,0.7,0.6
2024-09-23T2100,1945A,98.2908,39.7711,嘉峪关市,气象局,颗粒物(PM10),59,68,42,17,13,96,,128,119,24,17,1,6,0.3,0.3
2024-09-23T2100,2884A,98.2672,39.7978,嘉峪关市,酒钢宾馆,颗粒物(PM10),58,66,48,19,17,100,,123,115,25,18,14,26,0.6,0.5
2024-09-23T2100,3248A,98.2643,39.7724,嘉峪关市,雄关区,颗粒物(PM10),52,54,41,15,16,87,,120,112,24,20,8,13,0.3,0.4
2024-09-23T2100,1383A,113.1064,22.6058,江门市,北街,,16,,20,8,13,31,,70,51,31,20,4,4,0.8,0.7
2024-09-23T2100,1384A,113.0731,22.5835,江门市,西区,,17,14,21,6,10,28,,71,48,33,20,4,5,0.5,0.5
2024-09-23T2100,1385A,113.0219,22.5311,江门市,圭峰西,,13,6,18,3,13,39,,72,57,18,14,3,3,0.7,0.6
2024-09-23T2100,1386A,113.0828,22.5947,江门市,东湖,,14,14,22,8,11,31,,66,48,26,17,4,3,0.5,0.5
2024-09-23T2100,3311A,113.1075,22.5647,江门市,江海富民,,19,15,24,13,14,31,,67,52,30,19,6,6,0.8,0.7
2024-09-23T2100,3449A,113.05,22.4667,江门市,新会银湖,,15,,18,8,14,28,,64,48,29,18,5,4,0.8,0.8
2024-09-23T2100,1828A,113.227,35.2125,焦作市,市环保局,颗粒物(PM10),54,58,39,33,20,104,,141,138,28,20,7,6,0.4,0.2
2024-09-23T2100,1830A,113.1992,35.2590,焦作市,影视城,,48,44,36,33,28,137,,152,151,15,16,8,9,0.5,0.5
2024-09-23T2100,3169A,113.2725,35.2067,焦作市,太极体育中心,颗粒物(PM10),61,72,47,33,21,97,,138,133,36,21,6,5,0.6,0.6
2024-09-23T2100,3335A,113.3137,35.2641,焦作市,马村街道办,颗粒物(PM10),57,64,44,27,21,93,,143,134,27,19,2,3,0.6,0.4
2024-09-23T2100,3336A,113.2465,35.2373,焦作市,焦作技师学院,颗粒物(PM10),55,60,33,36,22,94,,140,135,25,16,8,8,0.5,0.3
2024-09-23T2100,3477A,113.1656,35.2539,焦作市,中站许衡医院,,50,50,36,31,20,123,,150,148,24,20,6,6,0.4,0.3
2024-09-23T2100,3981A,113.2449,35.1803,焦作市,原李万街道办,颗粒物(PM10),69,88,48,44,24,100,,140,137,36,24,7,4,0.4,0.4
2024-09-23T2100,1708A,116.3701,23.5345,揭阳市,新兴,,10,9,14,6,7,30,,70,67,18,13,4,4,0.7,0.7
2024-09-23T2100,1709A,116.3264,23.5443,揭阳市,西马,,12,12,12,3,8,36,,72,71,12,10,5,5,0.6,0.6
2024-09-23T2100,1710A,116.3611,23.5626,揭阳市,东兴,,18,18,15,9,6,32,,72,70,16,13,4,4,0.8,0.9
2024-09-23T2100,1711A,116.4151,23.5294,揭阳市,渔湖,,16,16,15,8,7,27,,74,70,20,13,4,4,0.6,0.7
2024-09-23T2100,3320A,116.403,23.5699,揭阳市,曲溪,,18,13,11,12,10,20,,68,64,28,18,16,5,0.6,0.7
2024-09-23T2100,1944A,102.1692,38.5167,金昌市,天庆家园,颗粒物(PM10),59,67,45,32,28,46,,103,94,46,23,16,18,0.8,0.4
2024-09-23T2100,3170A,102.1864,38.5253,金昌市,市委党校,颗粒物(PM10),70,89,62,31,28,38,,110,101,62,28,8,19,1.3,0.7
2024-09-23T2100,4022A,102.1647,38.5371,金昌市,金川区人防中心,颗粒物(PM10),69,88,70,22,28,51,,98,90,24,25,8,18,0.5,0.6
2024-09-23T2100,1262A,119.647,29.077,金华市,十五中,,,63,27,22,9,,,94,85,26,16,1,2,0.6,0.4
2024-09-23T2100,1263A,119.686,29.1029,金华市,监测站,,44,44,28,24,13,55,,90,78,25,17,2,2,0.7,0.5
2024-09-23T2100,3659A,119.656,29.1131,金华市,气象局,,45,45,26,30,10,55,,86,76,24,21,4,5,0.6,0.3
2024-09-23T2100,1767A,121.1115,41.0879,锦州市,南山,,33,,32,23,21,70,,97,95,41,28,16,11,0.7,0.7
2024-09-23T2100,1768A,121.0533,40.8434,锦州市,开发区,,39,39,77,14,29,97,,93,93,41,46,8,24,1.0,1.1
2024-09-23T2100,1769A,121.1836,41.1119,锦州市,百股街道,,30,20,27,3,11,95,,101,101,16,23,12,11,0.6,0.7
2024-09-23T2100,1770A,121.1178,41.1222,锦州市,天安街道,,30,28,44,19,27,95,,98,98,20,36,21,15,0.6,0.7
2024-09-23T2100,1771A,121.1303,41.1386,锦州市,北湖公园,,33,26,40,16,27,105,,106,106,17,28,20,14,0.6,0.7
2024-09-23T2100,2160A,112.85,35.5051,晋城市,自来水公司,,48,48,43,31,22,136,,146,146,25,24,14,11,0.8,0.7
2024-09-23T2100,2161A,112.8318,35.4936,晋城市,白云商贸,颗粒物(PM10),60,69,53,36,22,128,,143,142,30,27,11,9,0.8,0.8
2024-09-23T2100,2162A,112.8508,35.4887,晋城市,市环保局,颗粒物(PM10),51,51,44,29,21,122,,140,139,34,32,11,9,0.7,0.6
2024-09-23T2100,2163A,112.8676,35.4897,晋城市,技术学院,颗粒物(PM10),59,68,45,24,20,120,,144,143,35,30,11,9,0.7,0.6
2024-09-23T2100,3620A,112.8271,35.4828,晋城市,泽州一中,颗粒物(PM10),54,58,42,27,21,118,,138,138,32,31,14,11,0.8,0.7
2024-09-23T2100,2171A,112.7532,37.6945,晋中市,锦纶小区,颗粒物(PM10),76,102,59,41,26,70,,153,139,49,29,9,11,0.7,0.5
2024-09-23T2100,2173A,112.7249,37.7067,晋中市,南都小区,颗粒物(PM10),88,125,55,48,30,47,,149,136,81,32,7,8,1.4,0.8
2024-09-23T2100,2174A,112.6991,37.6982,晋中市,榆次区政府,颗粒物(PM10),76,102,55,46,26,70,,149,136,61,32,8,10,0.8,0.4
2024-09-23T2100,2865A,112.7195,37.6828,晋中市,榆次三中,颗粒物(PM10),80,110,59,46,24,70,,152,140,52,28,11,13,0.9,0.7
2024-09-23T2100,2439A,112.2014,31.0481,荆门市,竹园小学,颗粒物(PM10),56,62,54,23,21,132,,159,156,20,19,11,14,0.6,0.5
2024-09-23T2100,2440A,112.1969,30.9891,荆门市,掇刀,颗粒物(PM10),53,56,45,21,18,142,,162,160,19,18,6,5,0.5,0.4
2024-09-23T2100,2441A,112.2213,31.0386,荆门市,石化一小,颗粒物(PM10),58,65,51,24,19,132,,161,158,23,16,21,16,0.4,0.3
2024-09-23T2100,3012A,112.1849,31.0362,荆门市,西山林语,,,38,45,25,17,,,163,163,13,15,10,11,0.6,0.7
2024-09-23T2100,3547A,112.1632,31.0138,荆门市,龙泉中学南校,颗粒物(PM10),54,57,45,28,20,155,,163,163,13,18,10,13,0.4,0.4
2024-09-23T2100,1844A,112.2494,30.3197,荆州市,市图书馆,颗粒物(PM10),57,63,46,33,38,117,,146,142,30,22,13,12,0.7,0.6
2024-09-23T2100,1845A,112.2008,30.3544,荆州市,市委党校,颗粒物(PM10),63,76,54,35,45,120,,155,150,26,19,13,10,0.7,0.5
2024-09-23T2100,3194A,112.2747,30.3122,荆州市,管委会,颗粒物(PM10),60,69,38,27,31,88,,149,136,45,22,11,10,0.7,0.6
2024-09-23T2100,3548A,112.1655,30.3364,荆州市,学苑路,细颗粒物(PM2.5),72,,66,52,41,124,,160,155,25,21,6,10,0.7,0.5
2024-09-23T2100,2343A,117.2117,29.2933,景德镇市,老干部活动中心,,22,14,23,14,13,68,,86,77,8,8,7,7,0.4,0.4
2024-09-23T2100,2344A,117.1894,29.2789,景德镇市,兽医站,,26,26,28,10,12,75,,89,82,4,6,9,8,0.4,0.5
2024-09-23T2100,2345A,117.1547,29.2617,景德镇市,台达陶瓷,,23,20,24,7,12,73,,93,82,6,7,6,7,0.4,0.4
2024-09-23T2100,2346A,117.2461,29.2956,景德镇市,陶研所,,24,,24,9,10,74,,92,82,7,9,6,7,0.4,0.4
2024-09-23T2100,1803A,115.9872,29.6815,九江市,十里,,43,38,32,16,11,136,,140,140,14,12,9,11,0.6,0.5
2024-09-23T2100,1804A,115.9584,29.7046,九江市,茅山头,,43,43,26,21,12,124,,128,128,16,12,9,8,0.7,0.6
2024-09-23T2100,1805A,115.9877,29.7295,九江市,西园,,,34,23,20,11,,,140,140,16,9,10,11,0.6,0.4
2024-09-23T2100,1806A,116.0172,29.6547,九江市,五七二七厂,,50,39,29,35,14,121,,131,130,13,11,9,10,0.6,0.5
2024-09-23T2100,1808A,115.9114,29.6038,九江市,综合工业园,,43,40,27,22,16,137,,141,141,21,17,18,15,0.4,0.4
2024-09-23T2100,1809A,116.0721,29.7535,九江市,石化总厂,,42,42,37,23,20,108,,125,124,21,12,9,9,0.5,0.5
2024-09-23T2100,1810A,115.9773,29.5698,九江市,庐山气象台,,42,28,24,26,19,134,,132,132,8,5,7,8,1.0,0.8
2024-09-23T2100,3190A,116.0254,29.6994,九江市,外国语学校,,41,33,30,22,10,130,,140,140,16,13,15,15,0.3,0.3
2024-09-23T2100,2658A,98.5061,39.7443,酒泉市,仓门街子站,颗粒物(PM10),56,61,43,27,15,87,,124,118,18,17,11,13,0.5,0.4
2024-09-23T2100,2659A,98.4989,39.7256,酒泉市,油田生活基地,颗粒物(PM10),56,61,50,27,13,102,,126,123,16,18,10,12,0.5,0.4
2024-09-23T2100,2698A,76.0072,39.4467,喀什地区,巡警大队,颗粒物(PM10),69,87,186,21,42,81,,97,97,25,38,5,6,0.6,0.7
2024-09-23T2100,2699A,75.9755,39.4694,喀什地区,吾办,颗粒物(PM10),69,87,162,42,65,69,,95,95,37,33,6,6,0.5,0.6
2024-09-23T2100,4027A,75.9483,39.4689,喀什地区,老干局,颗粒物(PM10),71,91,179,16,38,67,,94,94,24,25,5,5,0.5,0.6
2024-09-23T2100,1824A,114.3389,34.7781,开封市,肿瘤医院,颗粒物(PM10),81,111,56,52,35,93,,155,148,45,29,8,10,0.4,0.4
2024-09-23T2100,1826A,114.2885,34.7965,开封市,世纪星幼儿园,颗粒物(PM10),60,70,48,32,22,105,,162,155,29,24,8,11,0.7,0.6
2024-09-23T2100,3147A,114.3438,34.8106,开封市,龙亭公园,细颗粒物(PM2.5),83,94,60,61,36,105,,30,,34,31,9,9,0.7,0.6
2024-09-23T2100,3210A,114.3644,34.7964,开封市,汴京公园,细颗粒物(PM2.5),152,,59,116,38,97,,153,147,36,29,9,9,0.7,0.6
2024-09-23T2100,3473A,114.2485,34.8306,开封市,技师学院,颗粒物(PM10),60,70,50,35,22,123,,150,148,23,34,9,14,0.5,0.4
2024-09-23T2100,3592A,114.4644,34.7556,开封市,祥符区生态环境局,,,94,67,53,37,,,139,133,75,44,8,11,0.5,0.5
2024-09-23T2100,1951A,84.895,45.6094,克拉玛依市,长征新村,,29,29,24,6,5,80,,100,100,15,7,6,6,0.3,0.2
2024-09-23T2100,1952A,84.8988,45.5893,克拉玛依市,南林小区,,43,,21,30,16,90,,69,,9,9,9,8,1.0,0.5
2024-09-23T2100,1954A,84.905,44.3396,克拉玛依市,独山子区,颗粒物(PM10),68,86,54,15,18,106,,120,119,25,13,12,11,0.8,0.4
2024-09-23T2100,1955A,85.6979,46.098,克拉玛依市,乌尔禾区商贸楼,,41,41,24,3,5,103,,100,100,5,7,14,13,0.2,0.2
2024-09-23T2100,3612A,85.1045,45.6899,克拉玛依市,白碱滩区新站,,35,35,28,17,9,92,,109,109,20,10,8,8,0.3,0.3
2024-09-23T2100,2697A,76.1454,39.7142,克孜勒苏柯尔克孜自治州,市人民政府,颗粒物(PM10),67,83,115,27,45,79,,109,108,36,13,5,16,0.5,0.4
2024-09-23T2100,3665A,76.1658,39.7157,克孜勒苏柯尔克孜自治州,克州文化中心,颗粒物(PM10),66,81,103,27,43,102,,110,110,14,8,7,16,0.5,0.4
2024-09-23T2100,1450A,102.8204,24.8886,昆明市,呈贡新区,,25,25,27,16,15,75,,88,85,13,11,5,7,0.5,0.5
2024-09-23T2100,1452A,102.7252,25.0902,昆明市,龙泉镇,,46,46,19,17,10,73,,96,94,18,11,9,7,0.8,0.7
2024-09-23T2100,1453A,102.7266,25.0375,昆明市,东风东路,,37,37,24,19,14,50,,90,84,36,15,6,6,0.5,0.4
2024-09-23T2100,1454A,102.6742,25.0669,昆明市,金鼎山,,33,33,20,13,12,67,,93,90,29,12,11,7,0.5,0.4
2024-09-23T2100,1455A,102.6644,25.0401,昆明市,碧鸡广场,,30,30,21,15,12,50,,92,87,42,13,8,7,0.7,0.6
2024-09-23T2100,3179A,102.7494,25.0119,昆明市,官渡区博物馆,,30,30,23,17,14,34,,92,83,53,18,6,7,0.6,0.5
2024-09-23T2100,3375A,102.8017,24.8336,昆明市,青年创业园,,23,21,15,16,12,64,,94,88,19,9,4,5,0.2,0.8
2024-09-23T2100,3550A,102.7997,24.9786,昆明市,昆明学院,,28,28,26,14,16,57,,92,88,33,14,7,6,0.5,0.5
2024-09-23T2100,3551A,102.5967,24.6736,昆明市,晋宁区生态环境分局,,,44,24,31,15,,,104,102,35,12,2,3,0.6,0.5
2024-09-23T2100,3552A,102.6678,24.9856,昆明市,云天化总部,,23,23,22,14,15,68,,96,93,23,12,6,6,0.6,0.5
2024-09-23T2100,1456A,91.1319,29.6514,拉萨市,八廓街,,29,29,13,15,9,62,,96,93,34,18,8,11,0.2,0.2
2024-09-23T2100,1457A,91.1221,29.6747,拉萨市,市环保局,,39,39,14,11,7,44,,94,88,35,16,8,10,0.6,0.4
2024-09-23T2100,1458A,91.0874,29.6475,拉萨市,区监测站,,28,28,14,9,8,56,,85,82,37,23,6,8,0.4,0.4
2024-09-23T2100,1459A,91.1774,29.6541,拉萨市,西藏大学,,20,18,13,9,7,64,,98,96,28,13,6,9,0.5,0.4
2024-09-23T2100,1460A,90.9798,29.6588,拉萨市,区辐射站,,25,21,17,11,8,77,,83,79,19,24,8,9,0.2,0.2
2024-09-23T2100,1461A,91.0834,29.6292,拉萨市,拉萨火车站,,,21,11,11,7,,,86,86,22,17,6,8,0.3,0.4
2024-09-23T2100,2520A,109.2203,23.7256,来宾市,来宾技工学校,,44,44,32,21,15,90,,118,114,13,10,8,8,0.6,0.6
2024-09-23T2100,3535A,109.1781,23.7297,来宾市,兴宾区政府,,32,31,30,22,16,97,,121,118,9,7,7,8,0.6,0.7
2024-09-23T2100,4002A,109.2416,23.7461,来宾市,中南小学,,38,30,36,26,15,82,,124,117,20,10,11,10,0.7,0.6
2024-09-23T2100,1476A,103.631,36.1031,兰州市,兰炼宾馆,颗粒物(PM10),64,78,45,41,27,58,,179,140,77,28,8,18,0.8,0.6
2024-09-23T2100,1478A,103.8412,36.0726,兰州市,生物制品所,颗粒物(PM10),67,83,40,41,25,36,,128,120,61,31,9,12,0.8,0.5
2024-09-23T2100,1479A,103.831,36.0464,兰州市,铁路设计院,细颗粒物(PM2.5),84,99,45,62,28,1,,105,87,141,47,10,11,1.6,0.7
2024-09-23T2100,3186A,103.7158,36.1058,兰州市,教育港,,,106,41,53,27,,,146,141,81,23,8,11,0.8,0.5
2024-09-23T2100,3241A,103.7439,36.0842,兰州市,百合公园,颗粒物(PM10),62,74,38,38,16,46,,135,120,75,31,12,11,0.8,0.6
2024-09-23T2100,3242A,103.9611,35.998,兰州市,和平,颗粒物(PM10),65,79,42,24,18,70,,117,111,18,20,10,14,0.4,0.4
2024-09-23T2100,3245A,103.6633,36.533,兰州新区,新区管委会,颗粒物(PM10),71,92,37,28,15,38,,112,101,54,18,11,12,0.6,0.4
2024-09-23T2100,3246A,103.6975,36.4789,兰州新区,舟曲中学,颗粒物(PM10),53,56,21,20,10,53,,119,111,58,15,9,11,0.6,0.4
2024-09-23T2100,1067A,116.6708,39.5111,廊坊市,药材公司,颗粒物(PM10),68,85,46,32,24,66,,124,116,39,29,4,5,0.4,0.4
2024-09-23T2100,1068A,116.7214,39.5589,廊坊市,开发区,,47,47,40,15,19,46,,131,117,48,32,2,3,0.5,0.4
2024-09-23T2100,1070A,116.7244,39.5269,廊坊市,北华航天学院,颗粒物(PM10),55,60,51,23,22,79,,133,127,39,32,4,4,0.5,0.4
2024-09-23T2100,2919A,116.7022,39.5453,廊坊市,河北工业大学,颗粒物(PM10),55,60,44,27,25,97,,131,128,29,33,4,4,0.5,0.4
2024-09-23T2100,2535A,103.7723,29.5462,乐山市,花湖湾,颗粒物(PM10),59,67,54,31,29,74,,92,92,25,23,2,3,0.7,0.6
2024-09-23T2100,2536A,103.7627,29.5844,乐山市,牛耳桥,细颗粒物(PM2.5),67,59,53,48,40,82,,96,96,31,30,7,6,0.6,0.6
2024-09-23T2100,2537A,103.7508,29.6006,乐山市,市第三水厂,细颗粒物(PM2.5),60,55,51,43,41,94,,106,106,32,27,7,6,0.6,0.5
2024-09-23T2100,2538A,103.7571,29.5664,乐山市,市监测站,细颗粒物(PM2.5),62,58,54,44,38,80,,99,99,26,21,6,6,0.5,0.5
2024-09-23T2100,3361A,103.7311,29.5628,乐山市,理工大学,细颗粒物(PM2.5),54,53,47,38,38,74,,96,96,27,25,3,4,0.8,0.7
2024-09-23T2100,2599A,100.2497,26.8802,丽江市,丽江古城,,32,29,23,22,17,64,,79,78,12,10,10,10,0.6,0.6
2024-09-23T2100,2600A,100.2203,26.8906,丽江市,市中心,,28,19,19,19,13,64,,77,76,14,11,7,7,0.6,0.6
2024-09-23T2100,1267A,119.914,28.4514,丽水市,监测站大楼,,21,7,17,3,8,66,,75,74,12,14,4,4,0.4,0.4
2024-09-23T2100,1268A,119.93,28.4586,丽水市,莲都小学,,22,6,17,3,11,70,,78,78,13,15,4,4,0.4,0.4
2024-09-23T2100,1269A,119.879,28.4231,丽水市,余庄前,,20,9,20,3,11,62,,67,66,9,13,4,4,0.3,0.3
2024-09-23T2100,1173A,119.176,34.5885,连云港市,市环境监测站,,40,36,30,12,8,128,,128,128,19,21,6,9,0.4,0.7
2024-09-23T2100,3000A,119.3581,34.6972,连云港市,德源药业,,35,29,24,9,6,111,,119,118,25,19,5,6,0.3,0.3
2024-09-23T2100,3007A,119.178,34.844,连云港市,新城一中,,35,34,31,12,12,70,,131,124,69,29,5,8,0.5,0.8
2024-09-23T2100,3008A,119.3608,34.7519,连云港市,胡沟管理处,,48,48,22,17,6,97,,125,123,54,15,9,8,0.4,0.3
2024-09-23T2100,3009A,119.1478,34.5911,连云港市,矿山设计院,,34,29,29,14,11,107,,125,124,19,19,5,8,0.6,0.7
2024-09-23T2100,3434A,119.2413,34.6539,连云港市,工贸学校,,42,26,25,11,10,133,,129,129,16,20,7,9,0.6,0.8
2024-09-23T2100,3664A,119.4172,34.7341,连云港市,连云街道,,44,25,26,10,9,140,,132,132,15,19,4,5,0.3,0.4
2024-09-23T2100,2571A,102.3431,27.8099,凉山彝族自治州,青龙寺,,27,27,16,12,7,65,,122,116,16,5,6,5,0.6,0.5
2024-09-23T2100,2572A,102.2721,27.8415,凉山彝族自治州,邛海宾馆,,46,46,26,25,15,69,,121,116,24,10,12,8,0.6,0.6
2024-09-23T2100,2573A,102.2625,27.898,凉山彝族自治州,西昌市政府,,25,22,22,11,15,79,,115,113,8,8,7,8,0.5,0.4
2024-09-23T2100,2574A,102.2685,27.8851,凉山彝族自治州,凉山州政府,,28,25,22,18,12,87,,123,121,9,9,5,6,0.7,0.8
2024-09-23T2100,2575A,102.237,27.8914,凉山彝族自治州,长安,,48,48,35,22,15,75,,118,114,13,9,9,9,0.7,0.6
2024-09-23T2100,2212A,123.2,41.1953,辽阳市,宏伟区,颗粒物(PM10),52,54,37,21,16,52,,76,69,41,28,16,15,0.9,0.7
2024-09-23T2100,2213A,123.1683,41.2495,辽阳市,新华园,颗粒物(PM10),53,56,61,22,22,46,,69,65,44,38,12,15,0.8,1
2024-09-23T2100,2214A,123.2354,41.2639,辽阳市,滨河路,颗粒物(PM10),56,62,51,33,21,29,,84,73,60,31,13,15,1.0,0.9
2024-09-23T2100,2215A,123.149,41.2991,辽阳市,铁西工业园,颗粒物(PM10),64,78,58,32,26,30,,68,60,51,35,15,16,1.3,1.1
2024-09-23T2100,2227A,125.1358,42.8845,辽源市,环保局,颗粒物(PM10),55,60,31,30,12,7,,76,54,39,16,8,8,1.0,0.7
2024-09-23T2100,3239A,125.0764,42.9078,辽源市,银鹰制药,,,40,41,24,27,3,,,,48,25,6,7,,0.7
2024-09-23T2100,1625A,115.9848,36.4372,聊城市,区政府,颗粒物(PM10),64,78,41,29,18,86,,145,140,54,34,10,11,0.5,0.4
2024-09-23T2100,2878A,116.0072,36.4343,聊城市,聊大东校,颗粒物(PM10),64,78,44,44,25,96,,153,145,54,36,10,11,0.5,0.4
2024-09-23T2100,3200A,115.9819,36.4978,聊城市,监控中心,颗粒物(PM10),73,96,47,48,23,17,,144,122,113,47,8,9,0.5,0.3
2024-09-23T2100,3513A,116.0445,36.4361,聊城市,九州社区,颗粒物(PM10),61,72,50,29,22,85,,157,150,66,35,8,6,0.5,0.5
2024-09-23T2100,2632A,94.3681,29.6376,林芝市,林芝监测站,,13,,9,9,7,38,,62,57,11,5,10,10,0.3,0.3
2024-09-23T2100,2633A,94.3616,29.6616,林芝市,林芝人民医院,,15,13,10,8,7,45,,63,62,13,8,8,8,0.3,0.2
2024-09-23T2100,2603A,100.0781,23.8982,临沧市,市环保局,,36,,23,25,16,55,,72,70,12,11,4,5,0.4,0.5
2024-09-23T2100,2604A,100.0894,23.8822,临沧市,市气象局,,33,,21,23,20,60,,76,73,10,10,4,4,0.4,0.5
2024-09-23T2100,1733A,111.5531,36.0783,临汾市,临钢医院,颗粒物(PM10),93,136,78,52,35,40,,143,126,73,33,7,7,1.2,0.7
2024-09-23T2100,1734A,111.5028,36.0714,临汾市,技工学校,颗粒物(PM10),57,63,74,28,43,84,,151,140,39,32,6,7,0.5,1
2024-09-23T2100,1736A,111.5018,36.0855,临汾市,市委,颗粒物(PM10),66,81,74,26,33,82,,155,140,38,30,6,8,0.6,0.8
2024-09-23T2100,3018A,111.505,36.1014,临汾市,唐尧大酒店,颗粒物(PM10),65,80,72,31,35,63,,144,131,45,29,5,6,0.8,0.8
2024-09-23T2100,3668A,111.5036,36.0414,临汾市,城南,颗粒物(PM10),99,147,76,69,43,31,,150,133,79,34,7,6,0.9,0.7
2024-09-23T2100,2667A,103.2069,35.5993,临夏回族自治州,环保局,,35,35,27,10,14,56,,106,97,25,11,8,8,0.5,0.4
2024-09-23T2100,2668A,103.2417,35.6057,临夏回族自治州,建设大厦,颗粒物(PM10),61,71,29,24,13,34,,107,96,40,11,10,9,0.5,0.3
2024-09-23T2100,1618A,118.3429,35.0532,临沂市,沂河小区,,44,44,28,19,14,116,,124,124,14,10,10,8,0.6,0.3
2024-09-23T2100,1619A,118.295,35.0583,临沂市,鲁南制药厂,,,51,21,18,22,94,,132,126,,17,14,7,0.7,0.4
2024-09-23T2100,1620A,118.2794,34.9976,临沂市,新光毛纺厂,颗粒物(PM10),54,58,22,25,10,93,,122,120,32,20,25,7,0.7,0.5
2024-09-23T2100,1621A,118.3956,35.0888,临沂市,河东保险公司,颗粒物(PM10),54,58,26,31,12,87,,129,125,67,30,12,8,1.0,0.6
2024-09-23T2100,3370A,118.3564,35.0215,临沂市,十里堡居委,,41,41,20,19,8,108,,128,127,23,16,22,9,0.8,0.5
2024-09-23T2100,3496A,118.3604,35.1084,临沂市,南坊新区,颗粒物(PM10),60,70,29,34,9,97,,124,122,64,22,14,9,0.8,0.4
2024-09-23T2100,3860A,118.3920,35.0300,临沂市,皇山花园小区,颗粒物(PM10),53,56,31,24,15,100,,123,122,49,24,11,8,0.5,0.2
2024-09-23T2100,1870A,109.4856,24.3895,柳州市,柳东小学,,34,22,28,18,15,108,,110,110,8,6,8,9,0.5,0.5
2024-09-23T2100,1871A,109.4157,24.3277,柳州市,环保监测站,,33,27,29,14,14,104,,110,108,9,7,9,10,0.8,0.7
2024-09-23T2100,1872A,109.389,24.341,柳州市,河西水厂,,33,31,37,16,17,104,,108,106,7,8,8,10,0.8,1
2024-09-23T2100,1873A,109.4311,24.2921,柳州市,市四中,,35,18,23,15,9,110,,116,113,7,6,7,8,0.8,0.8
2024-09-23T2100,1874A,109.4006,24.3631,柳州市,市九中,,48,48,36,15,15,100,,110,107,12,8,6,7,0.7,0.6
2024-09-23T2100,1875A,109.4958,24.3134,柳州市,古亭山,,35,,28,12,13,112,,117,116,12,10,7,8,0.7,0.7
2024-09-23T2100,3402A,109.5422,24.3996,柳州市,市二中,,32,28,28,16,14,102,,116,113,15,11,9,9,0.5,0.5
2024-09-23T2100,2307A,116.5079,31.737,六安市,监测大楼,,37,31,30,25,18,116,,127,126,13,15,6,5,0.4,0.4
2024-09-23T2100,2308A,116.4738,31.7643,六安市,皖西学院,,45,45,44,19,16,109,,130,124,15,17,5,5,0.2,0.2
2024-09-23T2100,2309A,116.4996,31.7905,六安市,朝阳厂,,44,44,31,19,15,107,,126,121,17,17,1,2,0.3,0.3
2024-09-23T2100,2310A,116.5567,31.7886,六安市,开发区,颗粒物(PM10),54,57,43,22,21,93,,126,118,22,19,2,2,0.4,0.4
2024-09-23T2100,2577A,104.83,26.5917,六盘水市,黄土坡,,30,30,19,19,15,96,,99,97,10,8,7,7,0.6,0.5
2024-09-23T2100,2578A,104.89,26.5939,六盘水市,水钢,,37,37,27,20,15,93,,93,93,10,10,7,8,0.4,0.4
2024-09-23T2100,2579A,104.8475,26.5894,六盘水市,民中,,29,27,18,19,13,90,,97,95,14,8,7,7,0.4,0.3
2024-09-23T2100,2580A,104.9544,26.5506,六盘水市,双水,,31,27,26,3,11,98,,95,95,7,9,6,9,0.3,0.3
2024-09-23T2100,2336A,117.0217,25.1033,龙岩市,龙岩市监测站,,15,,6,10,4,44,,60,57,13,10,7,7,0.6,0.5
2024-09-23T2100,2337A,117.0258,25.0661,龙岩市,闽西职业技术学院,,15,,7,10,4,44,,61,59,11,5,4,3,0.7,0.5
2024-09-23T2100,2338A,117.0196,25.0306,龙岩市,龙岩学院,,16,12,7,11,4,40,,59,56,10,7,3,2,0.7,0.5
2024-09-23T2100,2885A,104.9339,33.3826,陇南市,滨江中学,颗粒物(PM10),57,64,46,16,16,58,,85,80,17,12,7,8,0.7,0.6
2024-09-23T2100,3247A,104.955,33.371,陇南市,市总工会,,40,40,34,7,8,69,,88,84,9,9,8,8,0.4,0.4
2024-09-23T2100,2487A,111.9589,27.8901,娄底市,电视发射台,,42,28,44,27,17,133,,128,128,7,7,5,5,0.3,0.3
2024-09-23T2100,2488A,111.9975,27.725,娄底市,市监测站,,45,45,51,31,21,134,,140,140,11,8,6,7,0.8,0.8
2024-09-23T2100,2489A,112.0194,27.7314,娄底市,市委党校,,46,44,39,32,21,125,,128,128,9,7,4,5,0.6,0.6
2024-09-23T2100,2490A,111.9561,27.7569,娄底市,涟钢,颗粒物(PM10),60,69,42,41,22,120,,110,110,15,12,7,5,1.7,0.7
2024-09-23T2100,2491A,111.9892,27.7044,娄底市,市政府,,48,48,35,28,19,134,,135,135,9,8,7,7,0.4,0.3
2024-09-23T2100,1893A,105.4324,28.9634,泸州市,九狮山,细颗粒物(PM2.5),59,52,43,42,31,77,,136,130,23,12,5,6,0.6,0.5
2024-09-23T2100,1894A,105.4427,28.9063,泸州市,小市上码头,细颗粒物(PM2.5),69,77,46,50,29,109,,129,128,23,20,4,5,0.8,0.7
2024-09-23T2100,1895A,105.4241,28.8573,泸州市,兰田宪桥,细颗粒物(PM2.5),65,54,39,47,26,96,,132,130,24,17,4,5,0.6,0.5
2024-09-23T2100,1896A,105.4379,28.8833,泸州市,市环监站,,,62,43,48,33,,,127,127,30,18,7,7,0.7,0.6
2024-09-23T2100,3490A,105.3617,28.7703,泸州市,纳溪区环保局,细颗粒物(PM2.5),60,55,38,43,32,49,,131,122,59,23,7,6,0.8,0.5
2024-09-23T2100,2183A,111.1406,37.5211,吕梁市,环保局,颗粒物(PM10),80,109,69,26,27,39,,132,107,57,35,5,6,0.7,0.6
2024-09-23T2100,2185A,111.1297,37.5136,吕梁市,自来水公司,颗粒物(PM10),63,75,72,32,24,63,,129,117,39,30,2,5,0.5,0.5
2024-09-23T2100,2867A,111.1283,37.51,吕梁市,马茂庄小学,颗粒物(PM10),73,95,73,21,25,36,,135,112,66,38,3,5,0.8,0.7
2024-09-23T2100,1812A,112.3931,34.6516,洛阳市,市委党校,颗粒物(PM10),64,78,60,37,37,126,,151,149,24,32,10,9,0.6,0.5
2024-09-23T2100,1814A,112.4657,34.6871,洛阳市,豫西宾馆,颗粒物(PM10),73,96,58,39,28,84,,136,130,42,28,10,12,0.6,0.5
2024-09-23T2100,1815A,112.494,34.6886,洛阳市,河南林校,细颗粒物(PM2.5),74,91,50,54,32,90,,143,135,38,27,7,8,0.7,0.6
2024-09-23T2100,1816A,112.3844,34.623,洛阳市,开发区管委会,细颗粒物(PM2.5),70,69,53,51,37,116,,148,145,25,26,4,4,0.5,0.4
2024-09-23T2100,1817A,112.4267,34.6258,洛阳市,市委新办公区,细颗粒物(PM2.5),74,96,61,54,43,95,,145,137,30,22,4,3,0.7,0.6
2024-09-23T2100,3340A,112.6005,34.6326,洛阳市,伊滨,细颗粒物(PM2.5),74,87,58,54,40,84,,144,134,36,28,10,10,0.7,0.6
2024-09-23T2100,3341A,112.4951,34.6332,洛阳市,中移产业园,颗粒物(PM10),66,81,61,46,41,101,,151,142,40,28,4,5,0.6,0.5
2024-09-23T2100,3593A,112.5736,34.8993,洛阳市,吉利监测站,颗粒物(PM10),76,101,57,28,27,73,,139,129,43,26,6,8,0.2,0.3
2024-09-23T2100,3635A,112.3677,34.662,洛阳市,河科大西苑校区,,,71,57,36,36,,,155,155,25,32,7,8,,0.6
2024-09-23T2100,3636A,112.4388,34.6781,洛阳市,英才小学,颗粒物(PM10),69,88,60,38,29,93,,147,139,39,35,6,6,0.6,0.5
2024-09-23T2100,2399A,114.051,33.5699,漯河市,三五一五工厂,,,,68,,40,,,165,164,39,23,9,10,0.7,0.6
2024-09-23T2100,2400A,114.0055,33.5698,漯河市,漯河大学,颗粒物(PM10),72,94,72,44,38,111,,169,164,31,23,6,9,0.7,0.6
2024-09-23T2100,2401A,114.0138,33.5828,漯河市,市水利局,颗粒物(PM10),84,117,72,44,36,108,,163,158,29,21,9,10,1.0,0.9
2024-09-23T2100,2402A,114.0261,33.5698,漯河市,市广电局,细颗粒物(PM2.5),74,95,65,54,42,116,,168,163,27,22,11,13,0.6,0.5
2024-09-23T2100,3478A,113.9749,33.5664,漯河市,市图书馆,颗粒物(PM10),73,96,66,33,32,103,,171,165,45,28,4,5,0.6,0.5
2024-09-23T2100,3479A,114.0967,33.5906,漯河市,召陵区卫健委,颗粒物(PM10),94,137,81,59,44,56,,160,143,70,32,16,10,0.9,0.7
2024-09-23T2100,1798A,118.5092,31.6837,马鞍山市,湖东路四小,,42,42,30,14,10,93,,131,124,23,18,6,8,0.5,0.5
2024-09-23T2100,1799A,118.5024,31.6449,马鞍山市,开发区,,42,42,28,16,11,94,,126,120,26,20,6,7,0.7,0.7
2024-09-23T2100,1800A,118.5228,31.7231,马鞍山市,慈湖,,27,26,23,9,13,86,,129,122,25,21,7,8,0.8,0.8
2024-09-23T2100,1802A,118.6245,31.7241,马鞍山市,濮塘,,,,22,,15,80,,117,109,12,14,7,7,0.7,0.6
2024-09-23T2100,3633A,118.4918,31.6809,马鞍山市,雨山,,38,38,29,16,12,96,,129,125,19,17,8,8,0.6,0.6
2024-09-23T2100,1686A,111.0286,21.4688,茂名市,电白南海,,20,12,22,7,9,61,,68,67,9,8,9,10,0.8,0.7
2024-09-23T2100,1687A,110.9294,21.6533,茂名市,茂石化七小,,,,15,,8,46,,63,58,,8,,11,0.7,0.7
2024-09-23T2100,1688A,110.9107,21.6687,茂名市,健康路,,20,14,11,14,7,48,,66,61,8,5,24,16,0.8,0.8
2024-09-23T2100,1689A,110.8592,21.6828,茂名市,高岭,,17,17,18,9,10,42,,63,57,12,9,15,10,0.8,0.8
2024-09-23T2100,3450A,111.01,21.5165,茂名市,电白水东,,19,7,11,3,10,58,,65,64,9,8,6,6,0.6,0.6
2024-09-23T2100,2539A,104.0308,30.0478,眉山市,黑龙滩水库,,43,43,45,28,31,108,,119,119,12,8,4,4,0.5,0.5
2024-09-23T2100,2540A,103.8416,30.0874,眉山市,气象局,,50,50,46,29,32,76,,91,91,31,32,8,8,0.5,0.6
2024-09-23T2100,3137A,103.8578,30.0744,眉山市,市委党校,,36,36,51,19,28,90,,96,96,26,28,7,8,0.4,0.5
2024-09-23T2100,3148A,103.8291,30.0564,眉山市,区人社局,,48,48,43,24,25,99,,100,100,25,28,5,9,0.4,0.5
2024-09-23T2100,1690A,116.1231,24.3284,梅州市,梅江月梅,,8,6,10,3,4,25,,36,34,11,10,6,7,0.5,0.5
2024-09-23T2100,1691A,116.0797,24.2719,梅州市,梅县新城,,11,6,9,3,4,33,,40,38,7,7,4,4,0.5,0.5
2024-09-23T2100,1692A,116.1248,24.2654,梅州市,环境监控中心,,19,19,11,3,3,23,,36,31,14,14,4,4,0.6,0.6
2024-09-23T2100,3315A,116.1233,24.2991,梅州市,梅龙,,11,7,8,3,6,35,,39,39,6,10,8,8,0.6,0.7
2024-09-23T2100,1878A,104.7778,31.4741,绵阳市,富乐山,,34,34,27,20,21,81,,110,109,23,10,3,2,0.6,0.5
2024-09-23T2100,1879A,104.7563,31.4535,绵阳市,市人大,,42,41,30,29,19,82,,114,112,34,12,10,10,0.5,0.4
2024-09-23T2100,1880A,104.6697,31.4668,绵阳市,高新区自来水公司,,48,48,31,24,16,68,,113,109,43,14,6,4,0.6,0.6
2024-09-23T2100,1881A,104.7287,31.5075,绵阳市,三水厂,,36,36,32,23,22,62,,115,109,43,18,7,6,0.6,0.5
2024-09-23T2100,3491A,104.69,31.5322,绵阳市,西科大附属小学,颗粒物(PM10),51,52,40,30,21,44,,115,104,58,25,5,5,0.7,0.7
2024-09-23T2100,3492A,104.5648,31.5343,绵阳市,安州区旅游局,,49,48,34,34,22,89,,120,120,26,18,8,7,0.6,0.6
2024-09-23T2100,1784A,129.61,44.561,牡丹江市,环保大楼,,39,39,25,25,16,3,,60,46,39,14,9,7,0.5,0.3
2024-09-23T2100,1785A,129.6115,44.5782,牡丹江市,文化广场,颗粒物(PM10),66,82,38,47,21,3,,54,32,40,20,13,8,0.8,0.4
2024-09-23T2100,1786A,129.5904,44.5963,牡丹江市,第一医院,,46,44,35,32,22,20,,57,41,21,17,7,7,0.5,0.4
2024-09-23T2100,1787A,129.6364,44.6075,牡丹江市,机车工厂,,46,40,32,32,17,17,,58,45,21,15,90,35,0.5,0.4
2024-09-23T2100,1788A,129.6386,44.5462,牡丹江市,第一中学,,34,34,26,11,15,7,,61,42,28,14,6,6,0.3,0.2
2024-09-23T2100,2531A,105.0703,29.61,内江市,市监测站,细颗粒物(PM2.5),68,,33,49,35,102,,138,132,21,14,7,4,0.7,0.6
2024-09-23T2100,2532A,105.0717,29.5947,内江市,东兴区政府,细颗粒物(PM2.5),62,71,38,44,32,87,,128,120,28,19,6,4,0.9,0.8
2024-09-23T2100,2533A,105.0653,29.5817,内江市,内江二中,细颗粒物(PM2.5),84,,46,62,45,84,,132,122,24,16,11,8,0.7,0.6
2024-09-23T2100,2534A,105.0406,29.5822,内江市,内江日报社,细颗粒物(PM2.5),77,,38,56,39,74,,129,119,32,21,12,6,0.8,0.6
2024-09-23T2100,2628A,92.0657,31.4846,那曲市,那曲监测站,,42,42,38,17,14,83,,86,86,11,6,11,7,0.8,0.7
2024-09-23T2100,3128A,92.0506,31.4797,那曲市,那曲会议中心,,35,35,40,20,14,87,,92,92,22,17,5,4,1.5,1
2024-09-23T2100,1290A,115.8931,28.6843,南昌市,省外办,,38,35,42,22,20,120,,124,124,22,20,10,10,0.7,0.6
2024-09-23T2100,1291A,115.8886,28.7003,南昌市,省林业公司,,41,39,36,17,16,129,,132,132,13,12,8,8,0.6,0.6
2024-09-23T2100,1292A,115.8126,28.7442,南昌市,林科所,,41,31,35,14,12,131,,138,138,22,17,9,8,0.8,0.7
2024-09-23T2100,1294A,115.8518,28.687,南昌市,建工学校,颗粒物(PM10),51,51,39,20,16,129,,133,133,17,14,12,11,0.6,0.5
2024-09-23T2100,1295A,115.8921,28.6424,南昌市,象湖,,44,39,31,23,18,140,,143,143,15,13,9,9,0.7,0.6
2024-09-23T2100,1296A,115.7423,28.7996,南昌市,武术学校,,29,20,18,9,12,90,,129,121,10,8,3,2,0.8,0.7
2024-09-23T2100,1298A,115.9314,28.6842,南昌市,省站,,40,40,32,23,18,117,,126,126,26,23,10,10,0.6,0.5
2024-09-23T2100,3046A,115.9084,28.6062,南昌市,机电学校,,45,45,40,24,16,131,,131,131,18,17,9,8,0.7,0.7
2024-09-23T2100,3690A,115.9721,28.7031,南昌市,外国语学校,,38,38,34,21,13,118,,128,128,13,11,8,8,0.5,0.5
2024-09-23T2100,1905A,106.056,30.8064,南充市,西山风景区,,36,36,23,25,18,102,,127,124,7,6,3,2,0.8,0.8
2024-09-23T2100,1906A,106.0789,30.8023,南充市,南充市委,,30,29,23,21,16,83,,121,116,23,12,5,3,0.4,0.4
2024-09-23T2100,1907A,106.1031,30.8217,南充市,南充炼油厂,颗粒物(PM10),59,67,38,36,22,98,,130,127,15,10,5,3,0.2,0.2
2024-09-23T2100,1908A,106.1064,30.7856,南充市,高坪区监测站,,49,49,31,19,19,93,,128,124,22,15,8,6,0.4,0.4
2024-09-23T2100,1909A,106.0642,30.7636,南充市,嘉陵区环保局,,44,44,34,24,16,78,,123,117,31,14,4,2,0.5,0.4
2024-09-23T2100,1910A,106.1087,30.8388,南充市,市环境监测站,颗粒物(PM10),55,59,39,32,24,92,,127,123,15,12,7,4,0.3,0.2
2024-09-23T2100,1151A,118.8086,32.1065,南京市,迈皋桥,,27,16,19,9,7,84,,114,108,25,24,6,4,0.3,0.3
2024-09-23T2100,1152A,118.7538,32.0551,南京市,草场门,,26,22,24,3,8,82,,111,105,25,26,8,6,0.2,0.2
2024-09-23T2100,1153A,118.7794,32.0745,南京市,山西路,,27,27,29,14,11,81,,113,106,20,19,4,4,0.4,0.4
2024-09-23T2100,1154A,118.7752,32.0023,南京市,中华门,,27,22,25,7,8,84,,112,104,18,20,7,8,0.3,0.3
2024-09-23T2100,1155A,118.8109,32.0309,南京市,瑞金路,,27,19,25,14,11,86,,116,109,21,23,7,7,0.3,0.3
2024-09-23T2100,1156A,118.7997,32.0754,南京市,玄武湖,,27,27,27,10,9,58,,110,100,49,29,6,6,0.7,0.5
2024-09-23T2100,1157A,118.6414,32.0931,南京市,浦口,,29,29,28,12,12,72,,106,97,15,11,10,7,0.9,0.6
2024-09-23T2100,1158A,118.7356,31.9996,南京市,奥体中心,,29,26,28,14,12,90,,124,117,22,18,6,6,0.3,0.3
2024-09-23T2100,1159A,118.9125,32.1028,南京市,仙林大学城,,29,22,25,14,11,90,,120,112,21,25,5,6,0.4,0.4
2024-09-23T2100,3422A,118.8436,31.9198,南京市,江宁彩虹桥,,30,30,29,9,8,86,,121,112,20,16,3,4,0.4,0.4
2024-09-23T2100,3423A,119.0138,31.6494,南京市,溧水永阳,,31,31,22,15,10,80,,120,113,14,13,3,4,0.5,0.4
2024-09-23T2100,3424A,118.879,31.3302,南京市,高淳老职中,,32,18,21,18,11,101,,121,117,17,13,4,4,0.4,0.3
2024-09-23T2100,3427A,118.8554,32.3578,南京市,六合雄州,,35,35,28,10,11,66,,104,92,17,20,7,7,0.2,0.2
2024-09-23T2100,1401A,108.3103,22.7881,南宁市,二十一中,,38,31,22,26,12,102,,104,104,16,12,8,6,0.8,0.7
2024-09-23T2100,1402A,108.3141,22.8528,南宁市,北湖,,34,34,22,23,12,89,,99,99,24,15,14,4,0.7,0.6
2024-09-23T2100,1403A,108.3206,22.8225,南宁市,市监测站,,30,30,21,15,15,90,,101,100,29,17,16,7,0.8,0.7
2024-09-23T2100,1404A,108.3829,22.8037,南宁市,大自然花园,,37,37,24,19,14,103,,107,107,16,11,7,8,0.5,0.4
2024-09-23T2100,1405A,108.4394,22.7904,南宁市,仙葫,,,23,24,19,11,103,,103,103,10,8,10,6,,0.7
2024-09-23T2100,1406A,108.2397,22.8467,南宁市,区农职院,,35,35,26,24,12,82,,106,102,19,9,17,11,0.6,0.5
2024-09-23T2100,1407A,108.3275,22.735,南宁市,英华嘉园,颗粒物(PM10),63,76,31,18,13,96,,92,,17,11,5,6,0.9,0.6
2024-09-23T2100,1408A,108.2257,22.7757,南宁市,沙井镇街道办,,40,39,25,28,17,88,,101,97,25,16,5,4,0.6,0.5
2024-09-23T2100,3401A,108.4834,22.7618,南宁市,红星社区,颗粒物(PM10),53,56,24,25,13,86,,114,109,22,9,9,9,0.7,0.6
2024-09-23T2100,2332A,118.1681,26.6369,南平市,南平市监测站,,17,6,5,3,3,53,,71,65,9,8,4,4,0.4,0.4
2024-09-23T2100,2333A,118.1825,26.6489,南平市,南平铝业有限公司,,19,6,5,3,2,58,,75,70,8,7,4,4,0.5,0.5
2024-09-23T2100,2334A,118.1756,26.6272,南平市,南平七中,,15,6,11,3,4,48,,72,64,9,6,4,7,0.7,0.7
2024-09-23T2100,1168A,120.9098,31.9663,南通市,狼山街道,,29,21,17,8,6,90,,99,97,9,7,6,7,0.4,0.4
2024-09-23T2100,1169A,120.86,32.0005,南通市,虹桥,,29,17,18,7,7,91,,97,96,9,8,6,6,0.5,0.5
2024-09-23T2100,1170A,120.87,32.02,南通市,城中,,27,20,24,8,6,86,,94,93,12,9,6,7,0.6,0.5
2024-09-23T2100,1171A,120.94,31.93,南通市,星湖花园,,27,18,17,6,6,84,,99,95,16,12,5,6,0.4,0.4
2024-09-23T2100,1172A,120.81,32.0417,南通市,紫琅学院,,24,18,20,11,9,74,,97,92,19,11,13,8,0.4,0.4
2024-09-23T2100,3291A,121.067,32.062,南通市,通州监测站,,30,19,22,3,6,94,,101,99,10,12,3,3,0.4,0.4
2024-09-23T2100,3432A,120.9348,31.9883,南通市,环境教育馆,,29,27,24,8,4,90,,99,97,14,10,4,4,0.5,0.4
2024-09-23T2100,2404A,112.5224,33.0122,南阳市,瓦房庄,颗粒物(PM10),59,67,49,36,27,146,,158,154,19,20,6,6,0.7,0.6
2024-09-23T2100,2405A,112.5003,32.9735,南阳市,汉画馆,颗粒物(PM10),60,69,46,38,33,126,,152,150,23,18,8,8,0.4,0.3
2024-09-23T2100,2406A,112.5573,33.027,南阳市,气象站,颗粒物(PM10),63,76,53,31,21,138,,162,160,27,19,8,9,0.7,0.6
2024-09-23T2100,2407A,112.5481,32.9689,南阳市,理工学院,颗粒物(PM10),64,78,49,33,22,134,,157,154,22,16,9,8,0.5,0.4
2024-09-23T2100,4008A,112.5234,32.9922,南阳市,卧龙区政府,颗粒物(PM10),64,77,52,33,26,133,,158,156,28,19,6,6,0.6,0.5
2024-09-23T2100,1234A,121.8358,29.911,宁波市,区环保大楼,,41,41,37,21,18,19,,76,41,61,33,3,4,0.9,0.8
2024-09-23T2100,1235A,121.56,29.82,宁波市,万里学院,,31,31,30,19,16,45,,81,70,29,20,5,6,0.5,0.5
2024-09-23T2100,1236A,121.713,29.9572,宁波市,龙赛医院,,33,33,28,17,11,20,,62,51,64,34,8,9,0.9,0.8
2024-09-23T2100,1239A,121.633,29.7733,宁波市,钱湖水厂,,,23,29,12,13,,,70,63,23,20,8,9,0.6,0.6
2024-09-23T2100,1240A,121.5856,29.8635,宁波市,太古小学,,35,35,34,13,10,32,,75,62,48,26,7,8,0.8,0.8
2024-09-23T2100,1241A,121.524,29.8674,宁波市,市环境监测中心,,30,30,27,14,10,36,,76,62,42,24,10,11,0.7,0.6
2024-09-23T2100,2871A,121.6147,29.9017,宁波市,万里国际学校,,32,27,27,22,12,51,,75,73,36,27,7,8,0.6,0.6
2024-09-23T2100,3710A,121.5594,29.8975,宁波市,白沙活动中心,,,30,26,16,10,,,75,74,38,20,8,9,0.5,0.5
2024-09-23T2100,2341A,119.5388,26.6612,宁德市,宁德市监测站,,16,16,7,8,5,38,,67,54,28,18,6,6,0.6,0.6
2024-09-23T2100,3209A,119.5231,26.6562,宁德市,宁德一中,,16,10,7,3,4,51,,71,59,8,9,5,5,0.4,0.4
2024-09-23T2100,2618A,98.8601,25.8567,怒江傈僳族自治州,州监测站,,34,34,28,20,17,87,,94,94,7,10,5,6,0.3,0.3
2024-09-23T2100,2619A,98.8546,25.8417,怒江傈僳族自治州,泸水一中,,25,22,23,12,16,78,,86,86,12,14,6,8,0.5,0.4
2024-09-23T2100,1888A,101.6891,26.571,攀枝花市,弄弄坪,,42,42,29,16,13,48,,115,100,37,17,17,12,1.3,0.7
2024-09-23T2100,1889A,101.5769,26.5928,攀枝花市,河门口,,42,42,28,27,16,74,,118,112,25,19,9,12,0.8,0.8
2024-09-23T2100,1890A,101.7169,26.585,攀枝花市,炳草岗,,34,34,28,18,13,56,,129,116,30,25,7,12,0.8,0.8
2024-09-23T2100,1891A,101.7369,26.5008,攀枝花市,仁和,,29,29,21,17,13,52,,108,97,18,14,4,5,0.6,0.5
2024-09-23T2100,2835A,101.7227,26.567,攀枝花市,四十中小,,27,27,30,17,15,68,,122,110,26,20,4,8,0.5,0.5
2024-09-23T2100,1604A,122.0303,41.1489,盘锦市,开发区,,49,,37,34,24,79,,99,95,26,37,9,14,0.3,0.4
2024-09-23T2100,1605A,122.0485,41.0883,盘锦市,兴隆台,,38,26,36,26,22,72,,102,95,44,42,5,12,0.4,0.5
2024-09-23T2100,1606A,121.8297,41.1028,盘锦市,新生街道,,26,,23,18,14,56,,112,98,29,33,8,10,0.4,0.5
2024-09-23T2100,1832A,113.3257,33.742,平顶山市,新华旅馆,颗粒物(PM10),59,67,56,38,32,105,,158,149,38,24,7,9,0.6,0.5
2024-09-23T2100,1833A,113.2919,33.737,平顶山市,规划设计院,颗粒物(PM10),61,71,54,43,25,112,,162,156,38,27,7,10,0.7,0.6
2024-09-23T2100,1834A,113.182,33.774,平顶山市,平顶山工学院,颗粒物(PM10),54,57,55,31,27,135,,155,154,22,21,10,11,0.5,0.4
2024-09-23T2100,3204A,113.3025,33.73,平顶山市,规划局,细颗粒物(PM2.5),77,92,61,56,33,100,,161,154,36,25,6,8,1.0,0.8
2024-09-23T2100,3594A,112.8867,33.9116,平顶山市,石龙区,颗粒物(PM10),80,109,87,31,27,59,,154,140,59,55,10,17,0.6,0.6
2024-09-23T2100,2656A,106.6692,35.5461,平凉市,聚贤嘉苑,,49,45,60,34,33,112,,132,129,20,36,7,8,0.4,0.5
2024-09-23T2100,2657A,106.7021,35.5307,平凉市,博物馆,颗粒物(PM10),66,81,71,32,32,79,,136,124,36,30,8,12,0.9,0.5
2024-09-23T2100,2347A,114.0997,27.5002,萍乡市,武功山,,28,28,25,11,7,42,,92,79,5,5,7,8,0.4,0.4
2024-09-23T2100,2348A,113.8385,27.6434,萍乡市,中医院,,40,40,37,23,18,100,,113,111,12,9,9,18,0.6,0.7
2024-09-23T2100,2349A,113.8493,27.6253,萍乡市,市政府车库,,43,43,34,26,22,91,,113,109,15,10,14,13,1.4,0.8
2024-09-23T2100,2350A,113.8676,27.6435,萍乡市,市环保局,,38,38,36,23,19,91,,104,102,9,6,8,15,0.5,0.6
2024-09-23T2100,2351A,113.866,27.6198,萍乡市,安源区政府,,46,46,32,26,14,74,,114,108,45,21,4,5,0.5,0.5
2024-09-23T2100,2319A,119.0141,25.4325,莆田市,荔城区仓后路,,18,18,7,3,1,55,,68,58,14,13,7,7,0.4,0.4
2024-09-23T2100,2320A,119.0015,25.4553,莆田市,莆田市监测站,,20,7,6,3,0,63,,74,66,3,3,6,6,0.3,0.3
2024-09-23T2100,2321A,119.1119,25.4561,莆田市,涵江区六中,,18,9,8,3,3,55,,78,60,14,14,8,7,0.7,0.6
2024-09-23T2100,2322A,119.1013,25.3215,莆田市,秀屿区政府,,,32,14,3,0,,,85,80,5,6,7,6,,0.6
2024-09-23T2100,2392A,115.0312,35.7636,濮阳市,环保局,颗粒物(PM10),58,65,39,35,24,115,,162,158,34,30,11,12,0.4,0.3
2024-09-23T2100,2394A,115.0574,35.7609,濮阳市,油田运输公司,颗粒物(PM10),60,69,41,37,27,109,,162,156,38,32,8,9,0.5,0.4
2024-09-23T2100,2395A,115.0866,35.7754,濮阳市,油田物探公司,颗粒物(PM10),61,71,51,41,32,115,,162,156,33,37,8,10,0.4,0.3
2024-09-23T2100,3021A,115,35.7668,濮阳市,濮水河管理处,颗粒物(PM10),51,52,42,33,27,88,,156,142,32,34,6,7,0.4,0.3
2024-09-23T2100,2601A,100.98,22.7633,普洱市,市环保局,,35,35,28,22,18,62,,75,72,9,8,11,10,0.5,0.4
2024-09-23T2100,2602A,100.9817,22.8322,普洱市,普洱第二中学,,36,32,26,25,14,57,,80,75,11,6,8,9,0.5,0.4
2024-09-23T2100,2262A,131.0518,45.8751,七台河市,新一中,,34,34,20,15,10,42,,94,70,12,12,12,9,1.2,1.1
2024-09-23T2100,3345A,131.0577,45.7879,七台河市,中波台,,28,28,28,8,9,43,,65,55,22,28,6,6,0.5,0.5
2024-09-23T2100,3637A,131.0176,45.7761,七台河市,人民广场,,30,30,35,17,16,34,,67,52,27,24,8,8,0.4,0.4
2024-09-23T2100,3684A,130.8781,45.8222,七台河市,新建矿广场,,39,39,48,24,16,24,,63,38,33,28,8,7,0.7,0.5
2024-09-23T2100,1779A,123.9305,47.3636,齐齐哈尔市,安居小区,,35,35,34,7,12,85,,75,75,10,15,10,11,0.3,0.4
2024-09-23T2100,1780A,123.9488,47.3386,齐齐哈尔市,中心广场,,28,28,35,3,8,78,,72,72,9,14,2,2,0.4,0.4
2024-09-23T2100,1781A,123.9483,47.3227,齐齐哈尔市,农牧车辆厂,颗粒物(PM10),53,56,36,13,7,84,,81,81,5,10,8,9,0.2,0.3
2024-09-23T2100,1783A,123.945,47.2988,齐齐哈尔市,市环境监测站,,26,20,26,8,9,83,,82,82,6,10,8,9,0.2,0.2
2024-09-23T2100,3662A,123.6333,47.2075,齐齐哈尔市,富区青少年活动中心,,26,26,27,7,5,73,,78,78,7,8,5,5,0.3,0.4
2024-09-23T2100,2591A,107.9783,26.5747,黔东南苗族侗族自治州,市环境监测站,,35,28,22,21,16,111,,123,118,20,11,6,5,0.5,0.4
2024-09-23T2100,2881A,107.8908,26.5311,黔东南苗族侗族自治州,凯里学院,,29,29,26,18,13,90,,133,124,28,10,3,3,0.8,0.7
2024-09-23T2100,2593A,107.5228,26.2403,黔南布依族苗族自治州,小围寨,,35,27,21,14,10,111,,140,135,10,5,6,4,0.5,0.5
2024-09-23T2100,3538A,107.5175,26.2978,黔南布依族苗族自治州,沙坝,,39,39,24,24,11,88,,138,129,18,6,4,4,0.6,0.5
2024-09-23T2100,2589A,104.9022,25.0925,黔西南布依族苗族自治州,场坝街,细颗粒物(PM2.5),55,48,26,39,16,70,,97,94,28,12,4,13,0.6,0.3
2024-09-23T2100,2590A,104.8811,25.0992,黔西南布依族苗族自治州,坪东大道,,46,43,24,32,17,30,,94,83,50,14,7,8,0.6,0.4
2024-09-23T2100,2502A,108.6236,21.9667,钦州市,市环保站,颗粒物(PM10),51,51,35,24,12,96,,107,106,17,11,7,8,0.6,0.5
2024-09-23T2100,2504A,108.5989,21.7431,钦州市,港区一小,颗粒物(PM10),73,95,57,30,19,74,,104,100,30,18,6,8,0.6,0.6
2024-09-23T2100,3404A,108.5959,21.9633,钦州市,北职校,颗粒物(PM10),52,54,36,34,17,88,,112,110,22,10,6,7,0.9,0.7
2024-09-23T2100,1042A,119.5134,39.8207,秦皇岛市,北戴河环保局,,47,47,31,15,11,131,,135,135,17,28,3,3,0.7,0.6
2024-09-23T2100,1043A,119.7493,40.0116,秦皇岛市,第一关,颗粒物(PM10),64,77,42,38,23,25,,125,111,103,59,5,4,0.7,0.5
2024-09-23T2100,1044A,119.5897,39.9499,秦皇岛市,监测站,颗粒物(PM10),58,66,33,32,19,116,,130,130,21,28,2,3,0.5,0.5
2024-09-23T2100,1046A,119.5251,39.9041,秦皇岛市,建设大厦,,,83,48,29,14,,,136,136,26,25,5,5,0.6,0.4
2024-09-23T2100,3132A,119.610547,39.943889,秦皇岛市,文明里,颗粒物(PM10),57,63,49,22,14,120,,131,131,25,31,4,3,0.7,0.6
2024-09-23T2100,1307A,120.6659,36.2403,青岛市,仰口,,37,16,18,11,10,116,,133,125,3,5,7,7,0.3,0.6
2024-09-23T2100,1310A,120.4134,36.0658,青岛市,市南区东部子站,,41,41,35,9,9,73,,135,128,51,25,6,7,0.7,0.5
2024-09-23T2100,1311A,120.3664,36.1032,青岛市,四方区子站,,39,39,36,14,13,87,,137,132,50,32,10,11,0.7,0.5
2024-09-23T2100,1312A,120.2994,36.054,青岛市,市南区西部子站,,48,48,36,22,8,111,,144,142,25,18,9,9,0.6,0.6
2024-09-23T2100,1313A,120.4581,36.0858,青岛市,崂山区子站,,28,19,24,3,5,87,,133,123,30,20,8,9,0.6,0.5
2024-09-23T2100,1314A,120.1983,35.9608,青岛市,黄岛区子站,,41,41,28,17,11,109,,147,146,29,27,9,10,0.5,0.4
2024-09-23T2100,1315A,120.3999,36.3083,青岛市,城阳区子站,颗粒物(PM10),54,58,37,15,13,72,,134,118,48,32,9,9,0.6,0.5
2024-09-23T2100,1966A,120.0405,35.8735,青岛市,黄岛区4号,颗粒物(PM10),54,58,27,19,7,90,,145,141,42,19,7,7,0.6,0.5
2024-09-23T2100,3362A,120.5014,36.4034,青岛市,即墨2号,颗粒物(PM10),54,58,31,20,12,69,,128,118,39,20,7,7,0.5,0.4
2024-09-23T2100,3642A,120.3503,36.0736,青岛市,市北区南部,,31,31,36,12,11,92,,139,134,43,32,8,8,0.6,0.6
2024-09-23T2100,3643A,120.3948,36.1805,青岛市,李沧区北部,颗粒物(PM10),56,61,41,24,16,57,,132,120,75,32,9,10,0.8,0.6
2024-09-23T2100,1702A,113.0426,23.691,清远市,环保大楼,,21,8,21,6,5,66,,77,72,10,10,6,7,0.8,0.8
2024-09-23T2100,1703A,113.0208,23.7106,清远市,凤城街办,,20,6,17,3,9,62,,72,68,8,6,6,7,0.8,0.7
2024-09-23T2100,3025A,113.0477,23.6344,清远市,技师学院,,20,10,23,8,13,61,,75,70,8,8,6,6,0.7,0.7
2024-09-23T2100,3318A,112.9903,23.7403,清远市,清新太和,,22,6,14,3,9,69,,72,70,5,7,2,2,0.6,0.5
2024-09-23T2100,3455A,113.076,23.7198,清远市,清城东城,,,,14,4,10,,,81,78,,5,,3,,0.7
2024-09-23T2100,2661A,107.6325,35.7357,庆阳市,庆阳五中,颗粒物(PM10),53,56,58,27,30,129,,146,142,17,13,7,8,0.4,0.4
2024-09-23T2100,2662A,107.6364,35.7067,庆阳市,市环保局,颗粒物(PM10),52,53,51,25,26,130,,145,143,15,12,6,7,0.5,0.4
2024-09-23T2100,1916A,103.7897,25.5035,曲靖市,环境监测站,,28,28,23,11,12,72,,89,88,17,12,4,8,0.7,0.8
2024-09-23T2100,1917A,103.8,25.5364,曲靖市,烟厂办公区,,37,37,24,19,18,60,,90,86,23,12,6,6,0.6,0.7
2024-09-23T2100,3376A,103.7947,25.462,曲靖市,南苑二区,,28,26,21,19,12,72,,95,93,13,10,8,10,1.0,0.8
2024-09-23T2100,3377A,103.7444,25.5261,曲靖市,曲靖师范学院,,34,34,21,20,16,43,,94,87,34,12,12,13,0.8,1
2024-09-23T2100,1264A,118.8692,28.9398,衢州市,环保大楼,,26,26,23,16,12,66,,95,90,21,13,2,3,0.6,0.6
2024-09-23T2100,1265A,118.8709,28.9666,衢州市,实验学校,,28,24,22,19,13,58,,88,80,22,12,6,5,0.5,0.5
2024-09-23T2100,1266A,118.8621,28.9808,衢州市,衢州学院,,,,23,19,12,64,,87,78,19,15,6,6,0.5,0.5
2024-09-23T2100,1611A,118.5819,24.9117,泉州市,涂山街,,22,,6,11,4,70,,77,77,13,10,2,2,0.6,0.6
2024-09-23T2100,1612A,118.5972,24.8978,泉州市,津头埔,,20,14,6,14,5,62,,77,73,21,16,4,3,0.6,0.6
2024-09-23T2100,1613A,118.6663,24.9424,泉州市,万安,,,,8,11,5,,,82,79,15,8,3,2,0.6,0.7
2024-09-23T2100,3529A,118.6333,24.9264,泉州市,城华南路,,20,10,5,3,4,64,,80,77,12,7,4,3,0.4,0.4
2024-09-23T2100,2626A,88.8876,29.2718,日喀则市,日喀则监测站,,24,12,9,3,4,74,,90,89,10,7,6,5,0.4,0.4
2024-09-23T2100,3726A,88.8781,29.2426,日喀则市,林业技术推广中心,,20,10,6,8,5,62,,84,82,11,8,6,6,0.6,0.6
2024-09-23T2100,1659A,119.471,35.4209,日照市,监测站,,44,44,25,22,11,52,,128,117,70,23,12,12,0.5,0.4
2024-09-23T2100,1660A,119.523,35.4216,日照市,市政府广场,,,29,22,9,8,,,154,154,25,16,10,11,0.6,0.6
2024-09-23T2100,1661A,119.5587,35.4044,日照市,港务局,,41,41,25,23,13,131,,155,155,21,13,8,8,0.6,0.5
2024-09-23T2100,3507A,119.5328,35.4625,日照市,职业技术学院,,43,19,22,12,8,137,,146,146,13,14,9,10,0.5,0.5
2024-09-23T2100,3604A,119.3266,35.1044,日照市,岚山环保分局,,42,39,35,16,14,133,,138,138,29,27,13,24,0.6,1.6
2024-09-23T2100,1835A,111.1922,34.7752,三门峡市,市政府,,44,44,36,21,18,126,,143,141,21,15,13,13,0.7,0.5
2024-09-23T2100,1836A,111.1587,34.7942,三门峡市,开发区,,50,50,43,25,21,123,,135,134,14,14,9,11,0.3,0.3
2024-09-23T2100,1838A,111.143,34.7955,三门峡市,风景区,,39,30,46,27,22,122,,144,144,18,14,10,11,0.8,0.8
2024-09-23T2100,3039A,111.1911,34.7829,三门峡市,三门峡市第一小学,颗粒物(PM10),59,68,41,36,16,119,,136,134,33,16,9,11,0.6,0.5
2024-09-23T2100,3598A,111.1,34.7167,三门峡市,富达温泉假日酒店,,48,48,48,24,28,109,,140,135,16,19,9,12,0.6,0.6
2024-09-23T2100,2324A,117.6211,26.2625,三明市,三钢,,18,7,6,3,6,57,,69,62,8,6,6,5,0.5,0.4
2024-09-23T2100,2325A,117.635,26.2714,三明市,三明二中,,18,9,6,3,3,57,,70,62,8,5,4,3,0.8,0.7
2024-09-23T2100,2326A,117.6028,26.2378,三明市,三元区政府,,18,6,5,3,1,57,,69,62,8,7,4,2,0.5,0.4
2024-09-23T2100,1876A,109.5078,18.2489,三亚市,河东子站,,27,27,10,13,4,14,,56,41,16,5,3,3,0.5,0.3
2024-09-23T2100,1877A,109.4964,18.2681,三亚市,河西子站,,16,16,8,8,3,14,,52,42,19,5,3,3,0.5,0.4
2024-09-23T2100,3540A,109.7348,18.3443,三亚市,君悦子站,,11,6,7,3,2,34,,52,42,10,7,3,3,0.4,0.3
2024-09-23T2100,2624A,91.7608,29.2313,山南市,山南监测站,,26,7,11,3,5,81,,86,86,4,5,8,8,0.3,0.3
2024-09-23T2100,2625A,91.7706,29.2436,山南市,山南人民医院,,28,10,14,3,7,87,,89,89,6,7,8,8,0.3,0.3
2024-09-23T2100,1674A,116.6794,23.3667,汕头市,金平子站,,,,10,2,6,43,,67,63,6,12,4,7,0.7,0.9
2024-09-23T2100,1675A,116.7244,23.3633,汕头市,龙湖子站,,14,,8,3,5,44,,61,58,4,9,6,7,0.6,0.8
2024-09-23T2100,1676A,116.7258,23.2775,汕头市,濠江子站,,,6,8,3,4,,,52,52,10,12,6,6,0.7,0.8
2024-09-23T2100,1677A,116.7519,23.4714,汕头市,澄海子站,,15,,9,8,6,47,,67,63,10,11,5,6,0.7,0.8
2024-09-23T2100,1678A,116.6092,23.2539,汕头市,潮阳子站,,14,6,7,3,3,44,,54,54,4,8,4,5,0.6,0.8
2024-09-23T2100,3444A,116.454,23.2684,汕头市,潮南峡山,,14,6,9,3,7,43,,61,59,3,5,6,6,0.6,0.7
2024-09-23T2100,3624A,116.4069,23.2533,汕头市,潮南子站,,11,8,11,3,9,33,,57,55,12,12,5,5,0.6,0.7
2024-09-23T2100,1693A,115.3653,22.775,汕尾市,市环保局,,11,10,6,3,4,35,,47,44,8,7,7,7,0.7,0.7
2024-09-23T2100,1694A,115.3706,22.7898,汕尾市,市政府,,15,,6,10,8,35,,42,40,10,10,7,8,0.5,0.5
2024-09-23T2100,1695A,115.3622,22.7925,汕尾市,新城中学,,12,6,6,3,1,38,,45,42,6,5,6,6,0.7,0.7
2024-09-23T2100,2645A,109.9154,33.8715,商洛市,监测站,,44,44,35,23,19,54,,108,99,35,22,6,6,0.4,0.4
2024-09-23T2100,3045A,109.9643,33.8471,商洛市,商州区中学,颗粒物(PM10),53,56,45,23,21,29,,105,87,50,28,7,7,0.8,0.7
2024-09-23T2100,2408A,115.6702,34.4285,商丘市,环境监测站,颗粒物(PM10),53,56,37,23,19,55,,124,112,47,22,6,6,0.4,0.4
2024-09-23T2100,2409A,115.6458,34.4045,商丘市,粮食局,,42,42,35,28,28,86,,138,130,23,13,8,9,0.7,0.5
2024-09-23T2100,2410A,115.6293,34.3948,商丘市,睢阳区环保局,颗粒物(PM10),52,54,38,23,21,75,,132,122,42,20,9,9,0.5,0.4
2024-09-23T2100,3171A,115.6071,34.4465,商丘市,梁园区档案局,颗粒物(PM10),60,70,40,37,24,46,,125,112,60,23,10,11,0.6,0.4
2024-09-23T2100,1141A,121.4,31.238,上海市,普陀,,25,24,31,3,11,79,,97,92,16,21,5,6,0.7,0.8
2024-09-23T2100,1142A,121.478,31.2036,上海市,十五厂,,27,18,26,8,11,86,,103,98,18,22,8,8,0.3,0.4
2024-09-23T2100,1143A,121.467,31.3008,上海市,虹口,,27,18,26,9,11,85,,96,92,12,21,8,10,0.4,0.5
2024-09-23T2100,1144A,121.412,31.1654,上海市,徐汇上师大,,28,21,31,12,14,88,,103,98,17,26,6,7,0.7,0.7
2024-09-23T2100,1145A,121.536,31.2659,上海市,杨浦四漂,,25,24,27,8,10,80,,101,94,18,19,6,7,0.4,0.5
2024-09-23T2100,1147A,121.425,31.2261,上海市,静安监测站,,28,21,29,8,11,87,,100,96,16,25,6,6,0.5,0.5
2024-09-23T2100,1148A,121.703,31.1907,上海市,浦东川沙,,27,27,28,6,6,76,,102,92,23,23,6,6,0.6,0.6
