timepoint,stationcode,longitude,latitude,area,positionname,primarypollutant,aqi,pm10,pm10_24h,pm2_5,pm2_5_24h,o3,o3_24h,o3_8h,o3_8h_24h,no2,no2_24h,so2,so2_24h,co,co_24h
2023-03-11T19:00:00,1001A,116.3621,39.8784,北京市,万寿西宫,颗粒物(PM10),108,166,278,25,31,70,45,66,58,28,14,2,3,0.5,0.3
2023-03-11T19:00:00,1002A,116.2202,40.2915,北京市,定陵,颗粒物(PM10),113,175,273,30,28,83,52,80,73,22,6,3,3,0.3,0.1
2023-03-11T19:00:00,1003A,116.4174,39.9289,北京市,东四,颗粒物(PM10),119,188,186,25,19,79,51,72,66,24,11,2,3,0.5,0.3
2023-03-11T19:00:00,1004A,116.4072,39.8863,北京市,天坛,颗粒物(PM10),131,212,282,26,26,72,50,67,62,21,13,2,2,0.4,0.2
2023-03-11T19:00:00,1005A,116.462,39.9365,北京市,农展馆,颗粒物(PM10),115,180,283,29,29,75,47,70,64,28,14,2,2,0.4,0.1
2023-03-11T19:00:00,1006A,116.3392,39.9295,北京市,官园,颗粒物(PM10),114,177,296,27,39,87,58,80,76,26,14,5,3,0.3,0.1
2023-03-11T19:00:00,1007A,116.2878,39.9611,北京市,海淀万柳,颗粒物(PM10),123,195,295,29,26,62,36,56,51,29,14,3,2,0.4,0.2
2023-03-11T19:00:00,1008A,116.6636,40.135,北京市,顺义新城,颗粒物(PM10),107,163,317,21,35,84,55,82,74,22,7,2,2,0.3,0.1
2023-03-11T19:00:00,1009A,116.6275,40.3275,北京市,怀柔镇,颗粒物(PM10),93,135,294,20,25,78,46,74,68,30,6,1,2,0.2,0.1
2023-03-11T19:00:00,1010A,116.2296,40.217,北京市,昌平镇,颗粒物(PM10),122,193,273,34,31,86,50,80,73,31,9,2,3,0.3,0.1
2023-03-11T19:00:00,1011A,116.3966,39.9821,北京市,奥体中心,颗粒物(PM10),112,173,272,27,29,75,48,69,64,26,13,3,2,0.5,0.2
2023-03-11T19:00:00,1012A,116.184,39.9136,北京市,古城,颗粒物(PM10),119,187,284,26,26,78,48,74,64,25,8,1,3,0.6,0.4
2023-03-11T19:00:00,1015A,117.1444,39.1661,天津市,勤俭道,颗粒物(PM10),90,129,388,12,40,76,53,74,57,28,20,7,7,0.6,0.6
2023-03-11T19:00:00,1017A,117.237,39.1082,天津市,大直沽八号路,颗粒物(PM10),98,146,383,17,45,74,41,64,55,41,24,10,8,0.5,0.4
2023-03-11T19:00:00,1018A,117.202,39.0927,天津市,前进道,颗粒物(PM10),77,104,362,13,41,83,54,73,62,33,24,6,6,0.7,0.7
2023-03-11T19:00:00,1019A,117.1837,39.2133,天津市,淮河道,颗粒物(PM10),99,147,421,12,46,86,58,80,65,30,22,9,7,0.6,0.6
2023-03-11T19:00:00,1021A,117.307,39.0877,天津市,跃进路,颗粒物(PM10),73,95,311,16,45,80,52,78,57,30,24,9,8,0.5,0.4
2023-03-11T19:00:00,1023A,117.707,39.0343,天津市,第四大街,颗粒物(PM10),78,106,240,12,42,82,5,82,26,79,45,12,7,0.7,0.6
2023-03-11T19:00:00,1024A,117.457,38.8394,天津市,永明路,颗粒物(PM10),71,92,298,16,48,85,51,85,59,33,30,5,8,0.4,0.6
2023-03-11T19:00:00,1026A,117.764,39.1587,天津市,汉北路,颗粒物(PM10),66,81,221,10,39,79,36,79,53,48,37,10,9,0.7,0.8
2023-03-11T19:00:00,1027A,117.157,38.9194,天津市,团泊洼,颗粒物(PM10),68,86,333,10,36,69,49,69,54,25,25,5,6,0.7,0.8
2023-03-11T19:00:00,1029A,114.4422,38.0444,石家庄市,职工医院,颗粒物(PM10),124,198,351,24,57,123,55,74,69,21,16,5,5,0.2,0.3
2023-03-11T19:00:00,1030A,114.6063,38.0266,石家庄市,高新区,颗粒物(PM10),94,137,363,25,53,114,54,71,65,22,17,4,4,0.4,0.4
2023-03-11T19:00:00,1031A,114.4898,38.1328,石家庄市,西北水源,颗粒物(PM10),132,214,376,31,66,125,56,70,64,26,21,2,3,0.4,0.4
2023-03-11T19:00:00,1032A,114.4586,38.0058,石家庄市,西南高教,颗粒物(PM10),136,222,419,33,53,128,54,74,70,27,22,2,2,0.4,0.5
2023-03-11T19:00:00,1033A,114.5331,38.0178,石家庄市,世纪公园,颗粒物(PM10),105,159,329,24,54,111,50,64,61,31,23,6,6,0.4,0.5
2023-03-11T19:00:00,1034A,114.509,38.0457,石家庄市,人民会堂,颗粒物(PM10),123,196,354,12,43,121,56,70,67,24,21,6,6,0.4,0.4
2023-03-11T19:00:00,1035A,114.3524,37.8911,石家庄市,封龙山,颗粒物(PM10),112,173,400,22,56,143,61,76,73,17,13,12,10,0.4,0.5
2023-03-11T19:00:00,1037A,118.131,39.6363,唐山市,雷达站,颗粒物(PM10),69,87,201,12,60,75,55,69,64,22,34,5,9,0.4,1.1
2023-03-11T19:00:00,1038A,118.1725,39.6334,唐山市,物资局,颗粒物(PM10),67,83,194,26,57,74,47,68,60,39,44,2,9,0.4,1.1
2023-03-11T19:00:00,1040A,118.1705,39.6506,唐山市,十二中,颗粒物(PM10),77,103,192,29,66,78,55,73,67,41,48,3,10,0.3,1
2023-03-11T19:00:00,1041A,118.1869,39.622,唐山市,小山,颗粒物(PM10),76,102,202,14,55,74,50,70,64,33,49,4,9,0.3,1
2023-03-11T19:00:00,1042A,119.5134,39.8207,秦皇岛市,北戴河环保局,,44,44,108,15,31,90,70,75,73,16,22,2,3,0.3,0.4
2023-03-11T19:00:00,1043A,119.7493,40.0116,秦皇岛市,第一关,,40,40,123,20,34,78,39,70,64,30,12,4,2,0.3,0.3
2023-03-11T19:00:00,1044A,119.5897,39.9499,秦皇岛市,监测站,颗粒物(PM10),54,57,111,25,34,85,49,69,63,28,23,5,3,0.4,0.4
2023-03-11T19:00:00,1046A,119.5251,39.9041,秦皇岛市,建设大厦,颗粒物(PM10),53,56,143,15,23,90,57,75,68,33,30,5,4,0.3,0.3
2023-03-11T19:00:00,1048A,114.5302,36.6116,邯郸市,东污水处理厂,颗粒物(PM10),65,79,259,7,54,128,65,82,79,19,14,4,7,0.2,0.4
2023-03-11T19:00:00,1049A,114.4918,36.5713,邯郸市,矿院,颗粒物(PM10),70,90,292,12,58,110,66,77,75,12,13,5,7,0.5,0.7
2023-03-11T19:00:00,1050A,114.484,36.6133,邯郸市,丛台公园,颗粒物(PM10),55,60,295,11,52,116,65,71,70,18,46,3,10,0.3,0.4
2023-03-11T19:00:00,1051A,115.493,38.8632,保定市,游泳馆,颗粒物(PM10),89,128,359,16,56,108,62,72,58,19,19,3,3,0.3,0.3
2023-03-11T19:00:00,1052A,115.5213,38.8959,保定市,华电二区,颗粒物(PM10),89,128,346,17,55,76,58,64,56,19,19,5,7,0.2,0.2
2023-03-11T19:00:00,1053A,115.4713,38.9108,保定市,接待中心,颗粒物(PM10),84,118,310,22,47,80,56,64,53,21,18,7,7,0.3,0.3
2023-03-11T19:00:00,1054A,115.4612,38.8416,保定市,地表水厂,颗粒物(PM10),103,155,367,19,50,96,47,64,51,32,22,9,9,0.3,0.4
2023-03-11T19:00:00,1056A,115.5086,38.8639,保定市,监测站,颗粒物(PM10),99,148,398,22,51,105,63,72,62,27,24,8,5,0.2,0.1
2023-03-11T19:00:00,1057A,114.8883,40.8336,张家口市,人民公园,颗粒物(PM10),259,391,134,25,14,89,80,85,85,5,8,2,3,0.3,0.3
2023-03-11T19:00:00,1059A,114.8687,40.8042,张家口市,五金库,颗粒物(PM10),188,325,126,19,16,85,74,80,80,9,10,4,5,0.1,0.1
2023-03-11T19:00:00,1060A,114.8902,40.762,张家口市,世纪豪园,颗粒物(PM10),248,383,145,70,28,88,75,81,81,5,8,5,6,0.1,0.1
2023-03-11T19:00:00,1061A,114.8916,40.8661,张家口市,北泵房,颗粒物(PM10),187,323,118,32,17,97,87,92,92,5,8,7,8,0.1,0.1
2023-03-11T19:00:00,1062A,117.9531,40.9081,承德市,铁路,,50,50,201,20,24,80,70,80,69,11,11,8,8,0.3,0.2
2023-03-11T19:00:00,1063A,117.9392,40.9763,承德市,中国银行,颗粒物(PM10),51,51,193,8,22,80,72,80,75,6,4,8,7,0.3,0.2
2023-03-11T19:00:00,1064A,117.9503,40.928,承德市,开发区,,47,47,200,16,23,84,72,82,72,13,10,8,7,0.4,0.3
2023-03-11T19:00:00,1065A,117.8051,40.9655,承德市,文化中心,,49,49,222,13,21,77,70,71,71,9,8,8,8,0.4,0.3
2023-03-11T19:00:00,1066A,117.9268,41.0026,承德市,离宫,,36,36,156,18,23,82,67,81,74,8,7,10,9,0.3,0.2
2023-03-11T19:00:00,1067A,116.6708,39.5111,廊坊市,药材公司,颗粒物(PM10),122,194,333,17,35,78,53,78,67,29,14,5,2,0.5,0.4
2023-03-11T19:00:00,1068A,116.7214,39.5589,廊坊市,开发区,颗粒物(PM10),122,194,356,31,36,82,55,79,68,38,25,11,8,0.7,0.4
2023-03-11T19:00:00,1070A,116.7244,39.5269,廊坊市,北华航天学院,颗粒物(PM10),142,234,404,26,39,76,49,74,66,45,25,6,3,0.5,0.3
2023-03-11T19:00:00,1071A,116.8842,38.2991,沧州市,沧县城建局,颗粒物(PM10),67,83,307,18,49,95,60,86,73,30,25,10,7,0.5,0.4
2023-03-11T19:00:00,1072A,116.8584,38.3254,沧州市,电视转播站,颗粒物(PM10),57,63,224,12,38,91,63,78,74,30,30,6,7,0.5,0.4
2023-03-11T19:00:00,1073A,116.8709,38.3228,沧州市,市环保局,颗粒物(PM10),53,56,257,21,51,95,61,77,71,36,35,6,7,0.5,0.3
2023-03-11T19:00:00,1074A,115.6838,37.7541,衡水市,电机北厂,颗粒物(PM10),81,112,234,14,50,117,62,73,72,18,21,1,3,0.2,0.3
2023-03-11T19:00:00,1075A,115.6303,37.7316,衡水市,市监测站,颗粒物(PM10),75,100,329,11,41,101,64,72,72,15,13,4,5,0.4,0.5
2023-03-11T19:00:00,1077A,114.4704,37.0886,邢台市,达活泉,颗粒物(PM10),72,94,385,21,70,90,63,70,67,8,11,3,5,0.4,0.6
2023-03-11T19:00:00,1078A,114.5062,37.0349,邢台市,邢师高专,颗粒物(PM10),64,78,304,13,59,92,58,74,70,23,15,4,6,0.4,0.6
2023-03-11T19:00:00,1079A,114.5237,37.0851,邢台市,路桥公司,颗粒物(PM10),65,80,310,7,44,91,62,72,69,9,11,4,6,0.2,0.5
2023-03-11T19:00:00,1080A,114.4725,37.0719,邢台市,市环保局,颗粒物(PM10),79,107,401,12,62,95,66,74,71,11,11,5,7,0.3,0.4
2023-03-11T19:00:00,1081A,112.522,37.8873,太原市,尖草坪,颗粒物(PM10),94,138,374,36,66,88,66,70,70,32,27,6,8,0.5,0.5
2023-03-11T19:00:00,1083A,112.434,38.0108,太原市,上兰,,,,,,,,,,,,,,,,
2023-03-11T19:00:00,1084A,112.469,37.7124,太原市,晋源,颗粒物(PM10),100,150,369,41,66,81,52,67,67,44,27,9,6,0.5,0.4
2023-03-11T19:00:00,1085A,112.5583,37.7394,太原市,小店,颗粒物(PM10),94,138,435,29,68,85,63,67,67,33,24,8,6,0.5,0.4
2023-03-11T19:00:00,1086A,112.5369,37.8692,太原市,桃园,颗粒物(PM10),90,130,362,32,64,87,70,68,68,26,26,6,6,0.4,0.5
2023-03-11T19:00:00,1087A,112.57,37.8195,太原市,坞城,颗粒物(PM10),89,127,343,28,65,89,74,68,68,26,26,9,8,0.5,0.5
2023-03-11T19:00:00,1088A,112.549,37.9854,太原市,南寨,颗粒物(PM10),109,168,373,48,68,81,62,69,69,33,24,5,5,0.4,0.2
2023-03-11T19:00:00,1090A,111.6507,40.7517,呼和浩特市,呼市一监,颗粒物(PM10),500,947,169,54,18,80,77,76,76,59,34,5,8,0.3,0.3
2023-03-11T19:00:00,1091A,111.6572,40.8033,呼和浩特市,小召,颗粒物(PM10),500,1440,209,68,22,80,77,74,74,5,14,6,16,0.3,0.4
2023-03-11T19:00:00,1094A,111.7516,40.8369,呼和浩特市,如意水处理厂,颗粒物(PM10),433,533,126,26,13,78,77,74,74,6,12,8,12,0.3,0.3
2023-03-11T19:00:00,1095A,111.7276,40.8062,呼和浩特市,二十九中,颗粒物(PM10),222,365,138,46,17,80,78,76,76,4,10,5,8,0.4,0.4
2023-03-11T19:00:00,1096A,111.5512,40.7866,呼和浩特市,工大金川校区,颗粒物(PM10),266,396,132,44,15,78,75,78,73,5,10,5,6,0.4,0.3
2023-03-11T19:00:00,1097A,111.717,40.7612,呼和浩特市,化肥厂生活区,颗粒物(PM10),477,577,126,85,24,71,71,68,68,8,12,6,9,0.2,0.2
2023-03-11T19:00:00,1098A,123.6836,41.9339,沈阳市,森林路,,,,,,,,,,,,,,,,
2023-03-11T19:00:00,1099A,123.505,41.7406,沈阳市,浑南东路,颗粒物(PM10),64,78,124,22,22,116,72,79,78,19,17,11,12,0.5,0.5
2023-03-11T19:00:00,1100A,123.4231,41.6989,沈阳市,新秀街,颗粒物(PM10),58,65,133,12,15,108,69,78,74,14,13,9,10,0.4,0.4
2023-03-11T19:00:00,1102A,123.5903,41.8411,沈阳市,东陵路,,36,36,168,16,26,101,63,74,74,18,15,9,9,0.3,0.4
2023-03-11T19:00:00,1103A,123.4264,41.8467,沈阳市,陵东街,颗粒物(PM10),52,53,106,12,16,120,70,78,77,18,15,7,7,0.6,0.6
2023-03-11T19:00:00,1104A,123.4114,41.7653,沈阳市,文化路,颗粒物(PM10),54,58,118,18,22,108,65,77,74,19,15,10,8,0.4,0.4
2023-03-11T19:00:00,1105A,123.4678,41.7867,沈阳市,小河沿,颗粒物(PM10),53,56,120,14,18,111,66,72,72,16,16,8,9,0.4,0.5
2023-03-11T19:00:00,1106A,123.4017,41.7972,沈阳市,太原街,颗粒物(PM10),68,86,136,23,28,97,60,72,69,23,19,8,7,0.4,0.4
2023-03-11T19:00:00,1108A,123.3783,41.9228,沈阳市,京沈街,,40,40,158,17,25,111,69,76,76,18,16,6,8,0.4,0.4
2023-03-11T19:00:00,1109A,121.612,38.9741,大连市,甘井子,颗粒物(PM10),83,115,114,24,24,115,61,96,62,26,20,6,5,0.4,0.5
2023-03-11T19:00:00,1110A,121.565,38.9511,大连市,周水子,,,,134,22,28,111,54,90,53,35,28,5,4,0.5,0.5
2023-03-11T19:00:00,1111A,121.5637,38.8845,大连市,星海三站,颗粒物(PM10),75,99,101,17,27,105,43,90,42,41,32,5,5,0.4,0.5
2023-03-11T19:00:00,1112A,121.6302,38.9117,大连市,青泥洼桥,颗粒物(PM10),93,136,123,23,29,128,42,104,52,48,28,11,9,0.7,0.7
2023-03-11T19:00:00,1113A,121.6251,38.8638,大连市,傅家庄,颗粒物(PM10),98,145,121,23,27,132,50,105,57,35,22,12,12,0.8,0.9
2023-03-11T19:00:00,1114A,121.5213,38.8661,大连市,七贤岭,颗粒物(PM10),81,111,114,17,30,128,67,102,70,23,20,11,8,0.5,0.6
2023-03-11T19:00:00,1115A,121.2529,38.8061,大连市,旅顺,颗粒物(PM10),73,96,102,15,26,129,68,97,69,20,17,10,9,0.5,0.6
2023-03-11T19:00:00,1116A,121.7485,39.1311,大连市,金州,颗粒物(PM10),72,93,81,25,24,115,60,99,61,22,17,10,10,0.7,0.7
2023-03-11T19:00:00,1117A,121.7811,39.0496,大连市,开发区,颗粒物(PM10),79,108,76,27,25,120,45,104,56,38,19,8,7,0.7,0.6
2023-03-11T19:00:00,1118A,121.9762,39.0631,大连市,双D港,颗粒物(PM10),88,126,71,32,25,127,53,108,64,23,13,9,8,0.6,0.7
2023-03-11T19:00:00,1119A,125.3325,43.9166,长春市,食品厂,,49,49,228,16,31,74,50,68,66,31,20,4,3,0.4,0.3
2023-03-11T19:00:00,1120A,125.2863,43.9027,长春市,客车厂,颗粒物(PM10),59,68,229,15,31,72,33,67,62,50,20,22,7,0.5,0.3
2023-03-11T19:00:00,1121A,125.2841,43.8463,长春市,邮电学院,,49,49,230,20,24,89,59,85,81,26,12,24,7,0.8,0.4
2023-03-11T19:00:00,1122A,125.3716,43.8772,长春市,劳动公园,,39,39,203,15,18,83,66,80,78,23,15,9,9,0.5,0.4
2023-03-11T19:00:00,1123A,125.3297,43.8805,长春市,园林处,,34,34,205,17,22,77,66,72,72,20,18,5,6,0.3,0.3
2023-03-11T19:00:00,1124A,125.4605,43.79,长春市,净月潭,,,,,,,,,,,11,11,,,0.6,0.6
2023-03-11T19:00:00,1125A,125.7194,43.515,长春市,甩湾子,,,,,,,,,,,,,,,,
2023-03-11T19:00:00,1126A,125.3863,43.8447,长春市,经开区环卫处,,36,36,221,16,21,83,66,79,78,18,16,10,11,0.3,0.3
2023-03-11T19:00:00,1127A,125.245,43.7783,长春市,高新区管委会,颗粒物(PM10),52,54,256,28,28,92,62,86,82,22,12,9,8,0.5,0.4
2023-03-11T19:00:00,1128A,125.1761,43.8325,长春市,岱山公园,细颗粒物(PM2.5),74,81,262,54,28,85,49,82,76,36,14,8,5,0.5,0.2
2023-03-11T19:00:00,1129A,126.5422,45.755,哈尔滨市,岭北,颗粒物(PM10),74,97,111,23,16,94,62,88,84,16,7,12,15,0.9,0.3
2023-03-11T19:00:00,1130A,126.561,45.8167,哈尔滨市,松北商大,颗粒物(PM10),59,67,160,34,35,86,52,76,72,26,16,20,8,0.6,0.5
2023-03-11T19:00:00,1131A,126.979,45.5419,哈尔滨市,阿城会宁,颗粒物(PM10),64,78,143,23,17,94,67,84,82,18,12,3,4,0.6,0.5
2023-03-11T19:00:00,1132A,126.599,45.7222,哈尔滨市,南岗学府路,颗粒物(PM10),58,65,149,10,21,88,59,81,80,21,12,7,9,0.2,0.2
2023-03-11T19:00:00,1133A,126.689,45.7733,哈尔滨市,太平宏伟公园,颗粒物(PM10),71,92,152,28,16,103,75,88,87,13,8,8,7,0.1,0.3
2023-03-11T19:00:00,1134A,126.635,45.7667,哈尔滨市,道外承德广场,,,,206,25,28,96,71,79,71,19,16,7,8,0.1,0.4
2023-03-11T19:00:00,1135A,126.685,45.7319,哈尔滨市,香坊红旗大街,颗粒物(PM10),63,76,152,25,17,93,69,83,82,16,11,8,10,0.7,0.6
2023-03-11T19:00:00,1136A,126.6411,45.7258,哈尔滨市,动力和平路,颗粒物(PM10),55,60,125,16,18,92,64,86,83,20,10,4,5,0.4,0.3
2023-03-11T19:00:00,1137A,126.593,45.7478,哈尔滨市,道里建国路,颗粒物(PM10),59,68,137,24,25,90,64,80,78,23,13,5,6,0.6,0.5
2023-03-11T19:00:00,1138A,126.615,45.61,哈尔滨市,平房东轻厂,颗粒物(PM10),71,92,173,42,20,86,59,83,79,16,11,9,7,0.8,0.6
2023-03-11T19:00:00,1139A,126.595,45.9855,哈尔滨市,呼兰师专,颗粒物(PM10),76,101,116,26,16,90,73,82,81,15,12,6,6,0.4,0.3
2023-03-11T19:00:00,1140A,126.6206,45.6842,哈尔滨市,省农科院,颗粒物(PM10),69,88,148,20,18,97,66,91,88,15,7,8,5,0.6,0.4
2023-03-11T19:00:00,1141A,121.4,31.238,上海市,普陀,颗粒物(PM10),56,62,71,24,22,151,110,140,138,30,31,5,7,0.6,0.6
2023-03-11T19:00:00,1142A,121.478,31.2036,上海市,十五厂,,,,70,22,32,141,85,127,123,39,35,7,8,0.6,0.6
2023-03-11T19:00:00,1143A,121.467,31.3008,上海市,虹口,颗粒物(PM10),56,61,69,28,30,154,100,139,137,36,30,6,7,0.9,0.8
2023-03-11T19:00:00,1144A,121.412,31.1654,上海市,徐汇上师大,细颗粒物(PM2.5),64,60,68,46,25,155,97,139,135,45,44,10,16,0.5,0.5
2023-03-11T19:00:00,1145A,121.536,31.2659,上海市,杨浦四漂,颗粒物(PM10),58,66,77,28,30,146,91,129,125,38,42,8,8,0.6,0.6
2023-03-11T19:00:00,1147A,121.425,31.2261,上海市,静安监测站,颗粒物(PM10),60,70,71,24,28,151,103,140,137,39,39,9,10,0.7,0.6
2023-03-11T19:00:00,1148A,121.703,31.1907,上海市,浦东川沙,颗粒物(PM10),70,90,76,36,35,142,64,119,111,56,42,5,6,0.4,0.3
2023-03-11T19:00:00,1149A,121.533,31.2284,上海市,浦东新区监测站,颗粒物(PM10),57,63,75,26,31,145,113,132,131,21,26,7,6,0.5,0.6
2023-03-11T19:00:00,1150A,121.577,31.2071,上海市,浦东张江,颗粒物(PM10),60,70,67,26,25,161,87,145,139,39,27,4,5,0.8,0.7
2023-03-11T19:00:00,1151A,118.8086,32.1065,南京市,迈皋桥,颗粒物(PM10),66,81,84,36,31,132,28,123,72,86,48,9,7,0.7,0.4
2023-03-11T19:00:00,1152A,118.7538,32.0551,南京市,草场门,颗粒物(PM10),64,78,86,36,35,105,22,96,49,75,57,8,7,0.6,0.5
2023-03-11T19:00:00,1153A,118.7794,32.0745,南京市,山西路,颗粒物(PM10),63,75,83,44,35,144,25,119,64,74,38,9,8,0.7,0.4
2023-03-11T19:00:00,1154A,118.7752,32.0023,南京市,中华门,颗粒物(PM10),71,92,82,48,32,118,12,100,49,85,54,18,13,1.5,1
2023-03-11T19:00:00,1155A,118.8109,32.0309,南京市,瑞金路,颗粒物(PM10),71,92,83,39,35,97,23,84,54,74,52,16,11,0.7,0.5
2023-03-11T19:00:00,1156A,118.7997,32.0754,南京市,玄武湖,颗粒物(PM10),65,79,78,41,36,132,33,105,61,66,41,7,5,0.8,0.5
2023-03-11T19:00:00,1157A,118.6414,32.0931,南京市,浦口,颗粒物(PM10),69,87,86,44,36,116,16,101,62,79,52,7,8,0.9,0.7
2023-03-11T19:00:00,1158A,118.7356,31.9996,南京市,奥体中心,颗粒物(PM10),83,115,96,44,40,102,28,76,46,75,70,11,10,0.8,0.6
2023-03-11T19:00:00,1159A,118.9125,32.1028,南京市,仙林大学城,颗粒物(PM10),58,66,76,29,32,147,30,121,85,84,41,8,11,0.9,0.7
2023-03-11T19:00:00,1160A,120.561,31.2472,苏州市,上方山,颗粒物(PM10),67,83,74,31,36,144,82,106,106,47,38,8,9,0.7,1.1
2023-03-11T19:00:00,1162A,120.591,31.3019,苏州市,彩香,颗粒物(PM10),66,82,73,37,33,165,115,128,128,36,29,6,7,0.9,0.8
2023-03-11T19:00:00,1163A,120.596,31.3264,苏州市,轧钢厂,颗粒物(PM10),69,87,74,33,33,152,106,123,123,41,29,7,8,0.7,0.7
2023-03-11T19:00:00,1164A,120.613,31.2703,苏州市,吴中区,颗粒物(PM10),66,82,70,34,31,158,101,124,124,56,41,8,10,0.6,0.5
2023-03-11T19:00:00,1165A,120.543,31.2994,苏州市,苏州新区,颗粒物(PM10),66,81,71,39,34,158,99,114,114,48,36,7,8,0.7,0.6
2023-03-11T19:00:00,1166A,120.669,31.3097,苏州市,苏州工业园区,颗粒物(PM10),65,79,69,36,32,152,114,122,122,40,31,9,10,0.7,0.6
2023-03-11T19:00:00,1167A,120.641,31.3708,苏州市,相城区,颗粒物(PM10),64,77,73,33,30,151,106,117,117,44,31,7,8,0.6,0.6
2023-03-11T19:00:00,1168A,120.9098,31.9663,南通市,狼山街道,颗粒物(PM10),67,84,85,41,34,142,43,104,100,98,57,8,9,0.4,0.4
2023-03-11T19:00:00,1169A,120.86,32.0005,南通市,虹桥,颗粒物(PM10),78,106,86,42,34,155,62,122,120,90,56,9,9,0.7,0.6
2023-03-11T19:00:00,1170A,120.87,32.02,南通市,城中,颗粒物(PM10),77,103,84,39,33,145,68,112,112,85,53,9,9,0.6,0.4
2023-03-11T19:00:00,1171A,120.94,31.93,南通市,星湖花园,颗粒物(PM10),78,106,89,41,34,123,30,90,87,104,60,8,9,0.6,0.6
2023-03-11T19:00:00,1172A,120.81,32.0417,南通市,紫琅学院,二氧化氮,80,107,89,41,31,138,6,109,99,160,54,13,10,0.5,0.4
2023-03-11T19:00:00,1173A,119.176,34.5885,连云港市,市环境监测站,颗粒物(PM10),112,173,149,56,66,129,120,117,117,20,34,10,16,0.4,0.4
2023-03-11T19:00:00,1177A,117.179,34.2761,徐州市,黄河新村,颗粒物(PM10),269,398,151,39,49,147,74,117,115,24,37,11,14,0.8,1
2023-03-11T19:00:00,1178A,117.1918,34.2384,徐州市,淮塔,颗粒物(PM10),289,412,151,31,47,154,78,120,118,30,44,10,13,0.7,0.8
2023-03-11T19:00:00,1180A,117.256,34.2153,徐州市,新城区,颗粒物(PM10),177,303,135,45,52,160,76,129,127,23,37,12,13,0.7,0.7
2023-03-11T19:00:00,1181A,117.244,34.2911,徐州市,桃园路,颗粒物(PM10),220,364,151,39,47,146,73,120,117,26,33,9,12,0.7,0.7
2023-03-11T19:00:00,1182A,117.2933,34.2778,徐州市,农科院,颗粒物(PM10),155,259,133,36,41,148,83,120,120,26,37,9,12,0.8,0.7
2023-03-11T19:00:00,1186A,119.389,32.3761,扬州市,邗江监测站,颗粒物(PM10),60,70,99,31,47,115,70,98,86,50,55,6,11,0.7,0.7
2023-03-11T19:00:00,1188A,120.269,31.4867,无锡市,雪浪,颗粒物(PM10),68,85,71,48,34,154,130,138,138,27,33,11,10,1.0,0.9
2023-03-11T19:00:00,1189A,120.275,31.6219,无锡市,黄巷,颗粒物(PM10),80,110,86,41,31,164,86,132,125,61,50,14,10,1.0,0.8
2023-03-11T19:00:00,1190A,120.294,31.56,无锡市,曹张,颗粒物(PM10),89,128,78,48,36,160,69,128,124,78,46,10,9,1.1,0.8
2023-03-11T19:00:00,1191A,120.242,31.5031,无锡市,漆塘,"颗粒物(PM10),细颗粒物(PM2.5)",67,83,71,48,31,160,130,142,142,26,30,10,10,0.9,0.8
2023-03-11T19:00:00,1192A,120.3489,31.5863,无锡市,东亭,颗粒物(PM10),68,85,76,39,32,162,95,134,134,54,49,12,11,0.9,0.6
2023-03-11T19:00:00,1193A,120.354,31.5475,无锡市,旺庄,,,102,75,68,33,157,93,134,134,56,41,13,11,,0.7
2023-03-11T19:00:00,1194A,120.245,31.5631,无锡市,荣巷,颗粒物(PM10),54,58,72,36,33,156,115,134,134,30,37,14,13,0.7,0.6
2023-03-11T19:00:00,1195A,120.299,31.6817,无锡市,堰桥,颗粒物(PM10),85,119,84,51,34,171,92,139,139,60,46,15,11,1.3,0.9
2023-03-11T19:00:00,1196A,119.9633,31.762,常州市,市监测站,颗粒物(PM10),53,56,77,30,40,149,69,121,116,43,42,7,9,0.5,0.4
2023-03-11T19:00:00,1200A,119.9468,31.7069,常州市,武进监测站,颗粒物(PM10),55,60,75,29,37,159,76,129,123,36,30,8,12,0.8,0.7
2023-03-11T19:00:00,1201A,119.9255,31.9087,常州市,安家,,,68,78,38,41,162,80,123,122,36,40,11,11,,0.7
2023-03-11T19:00:00,1203A,119.6707,32.1875,镇江市,新区办事处,颗粒物(PM10),55,59,105,27,45,139,49,102,95,91,83,1,7,0.7,0.7
2023-03-11T19:00:00,1204A,119.4974,32.1968,镇江市,职教中心,,37,37,75,20,41,133,83,112,110,35,39,3,10,0.7,0.9
2023-03-11T19:00:00,1205A,119.4303,32.1328,镇江市,丹徒区监测站,,43,43,91,19,42,120,72,108,96,42,38,3,9,0.5,0.6
2023-03-11T19:00:00,1206A,119.905,32.4878,泰州市,公园路,"颗粒物(PM10),细颗粒物(PM2.5)",73,95,103,53,50,156,102,131,131,36,42,14,13,0.9,0.9
2023-03-11T19:00:00,1207A,119.9189,32.4625,泰州市,莲花,细颗粒物(PM2.5),79,103,104,58,53,168,102,135,135,39,46,15,14,0.8,0.9
2023-03-11T19:00:00,1209A,119.888,32.4639,泰州市,留学生创业园,颗粒物(PM10),78,106,113,46,48,158,96,130,130,46,46,14,12,0.8,0.8
2023-03-11T19:00:00,1210A,119.036,33.5981,淮安市,钵池山,细颗粒物(PM2.5),104,132,108,78,66,166,121,136,136,19,34,8,13,1.1,1.1
2023-03-11T19:00:00,1211A,119.007,33.575,淮安市,北京南路,颗粒物(PM10),111,171,117,76,60,152,115,128,128,26,45,9,14,0.9,0.9
2023-03-11T19:00:00,1212A,118.989,33.6067,淮安市,市监测站,颗粒物(PM10),112,173,122,73,60,163,123,137,137,30,43,8,13,1.0,1
2023-03-11T19:00:00,1213A,119.135,33.5039,淮安市,楚州区监测站,颗粒物(PM10),116,181,131,78,67,165,122,136,136,26,58,9,14,0.9,0.7
2023-03-11T19:00:00,1214A,119.0186,33.6297,淮安市,淮阴区监测站,颗粒物(PM10),114,177,123,77,67,158,116,131,131,28,44,8,13,0.8,0.8
2023-03-11T19:00:00,1215A,120.118,33.4022,盐城市,盐城电厂,细颗粒物(PM2.5),77,80,106,56,53,208,98,146,145,19,33,10,17,0.6,0.9
2023-03-11T19:00:00,1216A,120.156,33.3942,盐城市,市监测站,细颗粒物(PM2.5),64,66,100,46,51,183,89,127,127,23,39,11,16,0.5,0.8
2023-03-11T19:00:00,1218A,120.2144,33.38,盐城市,开发区管委会,细颗粒物(PM2.5),68,71,114,49,55,188,89,128,128,21,38,3,8,0.6,0.8
2023-03-11T19:00:00,1220A,118.293,33.9528,宿迁市,宿迁学院,颗粒物(PM10),116,181,127,83,54,156,113,134,134,32,46,8,14,0.8,0.7
2023-03-11T19:00:00,1221A,118.2442,33.9592,宿迁市,宿迁中学,颗粒物(PM10),118,185,120,76,53,146,108,130,130,29,31,7,10,0.8,0.6
2023-03-11T19:00:00,1223A,120.2072,30.2111,杭州市,滨江,颗粒物(PM10),73,95,76,42,37,114,71,109,99,75,53,10,9,0.5,0.4
2023-03-11T19:00:00,1224A,120.0633,30.2747,杭州市,西溪,颗粒物(PM10),61,71,66,33,34,142,66,103,100,53,50,8,8,0.7,0.7
2023-03-11T19:00:00,1226A,120.3461,30.3153,杭州市,下沙,颗粒物(PM10),71,91,81,42,33,113,62,98,95,91,71,8,9,0.6,0.5
2023-03-11T19:00:00,1227A,120.1269,30.2456,杭州市,卧龙桥,颗粒物(PM10),54,58,56,29,31,136,52,107,104,54,41,5,6,0.7,0.7
2023-03-11T19:00:00,1228A,120.1903,30.2692,杭州市,浙江农大,颗粒物(PM10),70,90,69,41,36,124,45,104,98,90,56,7,6,0.5,0.4
2023-03-11T19:00:00,1230A,120.1197,30.3119,杭州市,和睦小学,颗粒物(PM10),70,89,84,39,40,112,69,96,90,73,71,7,6,0.6,0.7
2023-03-11T19:00:00,1231A,120.3019,30.4183,杭州市,临平镇,颗粒物(PM10),84,118,91,48,33,133,64,106,101,77,63,10,10,0.7,0.6
2023-03-11T19:00:00,1232A,120.2697,30.1819,杭州市,城厢镇,细颗粒物(PM2.5),70,88,72,51,37,134,76,112,110,83,53,9,8,0.5,0.5
2023-03-11T19:00:00,1233A,120.0883,30.1808,杭州市,云栖,,48,48,57,16,25,108,38,83,81,57,49,5,6,0.7,0.7
2023-03-11T19:00:00,1234A,121.8358,29.911,宁波市,区环保大楼,,39,39,40,23,23,136,106,130,124,16,19,5,6,0.5,0.5
2023-03-11T19:00:00,1235A,121.56,29.82,宁波市,万里学院,,50,50,51,23,23,148,108,138,134,17,18,5,7,0.4,0.4
2023-03-11T19:00:00,1236A,121.713,29.9572,宁波市,龙赛医院,,34,34,36,18,20,138,102,134,126,16,13,5,6,0.6,0.5
2023-03-11T19:00:00,1239A,121.633,29.7733,宁波市,钱湖水厂,,36,32,34,20,22,140,113,132,129,4,7,5,5,0.5,0.6
2023-03-11T19:00:00,1240A,121.5856,29.8635,宁波市,太古小学,,40,40,49,19,18,126,99,122,119,12,15,7,8,0.6,0.6
2023-03-11T19:00:00,1241A,121.524,29.8674,宁波市,市环境监测中心,颗粒物(PM10),51,52,53,25,20,133,95,129,119,24,20,6,8,0.6,0.5
2023-03-11T19:00:00,1242A,120.634,28.0089,温州市,瓯海,,46,46,77,24,40,131,80,112,109,29,54,7,8,0.6,0.6
2023-03-11T19:00:00,1243A,120.6748,27.9939,温州市,南浦,,46,46,58,19,32,125,77,105,103,21,37,5,6,0.6,0.6
2023-03-11T19:00:00,1244A,120.76,27.9747,温州市,龙湾,,45,45,62,19,30,116,67,101,98,36,52,6,7,0.5,0.5
2023-03-11T19:00:00,1245A,120.6709,28.0167,温州市,市站,颗粒物(PM10),63,75,72,26,35,128,51,98,90,57,49,5,6,0.6,0.5
2023-03-11T19:00:00,1247A,120.6053,29.9928,绍兴市,城东开发委,颗粒物(PM10),65,80,52,40,25,139,93,135,119,50,24,6,5,0.6,0.5
2023-03-11T19:00:00,1250A,120.0751,30.8669,湖州市,城西水厂,颗粒物(PM10),84,117,100,58,45,129,21,85,82,138,61,9,12,0.7,0.6
2023-03-11T19:00:00,1252A,120.7436,30.778,嘉兴市,清河小学,颗粒物(PM10),88,125,76,34,26,140,91,114,113,39,33,7,10,0.6,0.5
2023-03-11T19:00:00,1253A,120.726,30.7478,嘉兴市,嘉兴学院,颗粒物(PM10),62,74,63,39,27,138,90,120,118,48,34,7,9,0.6,0.5
2023-03-11T19:00:00,1255A,121.273,28.6459,台州市,黄岩环保大楼,,40,40,49,18,20,136,91,112,110,11,19,4,4,0.4,0.4
2023-03-11T19:00:00,1256A,121.419,28.6542,台州市,台州环保大楼,,40,40,51,25,27,128,95,116,112,11,20,5,5,0.4,0.4
2023-03-11T19:00:00,1257A,121.377,28.5773,台州市,路桥田洋王,,40,40,50,23,27,122,92,113,109,15,27,11,13,0.4,0.5
2023-03-11T19:00:00,1258A,122.122,30.0203,舟山市,定海檀枫,颗粒物(PM10),58,66,38,32,19,118,89,111,108,31,29,5,5,0.6,0.6
2023-03-11T19:00:00,1259A,122.3094,29.9558,舟山市,普陀东港,,48,48,35,32,20,109,85,91,91,35,36,5,5,0.4,0.3
2023-03-11T19:00:00,1260A,122.19,29.9944,舟山市,临城新区,颗粒物(PM10),55,59,33,37,19,126,92,119,116,41,36,5,6,0.6,0.5
2023-03-11T19:00:00,1262A,119.647,29.077,金华市,十五中,颗粒物(PM10),64,78,58,45,27,149,97,135,129,42,25,19,8,0.7,0.5
2023-03-11T19:00:00,1263A,119.686,29.1029,金华市,监测站,"颗粒物(PM10),细颗粒物(PM2.5)",63,75,53,45,24,152,99,143,138,49,26,16,7,0.5,0.3
2023-03-11T19:00:00,1264A,118.8692,28.9398,衢州市,环保大楼,颗粒物(PM10),101,151,74,37,39,139,46,122,114,66,42,7,11,0.5,0.5
2023-03-11T19:00:00,1265A,118.8709,28.9666,衢州市,实验学校,颗粒物(PM10),59,68,64,21,33,131,61,110,104,54,44,9,12,0.6,0.5
2023-03-11T19:00:00,1266A,118.8621,28.9808,衢州市,衢州学院,颗粒物(PM10),57,64,55,33,31,133,53,122,114,67,42,7,8,0.5,0.5
2023-03-11T19:00:00,1267A,119.914,28.4514,丽水市,监测站大楼,,48,48,46,30,22,135,115,114,114,12,16,8,8,0.4,0.3
2023-03-11T19:00:00,1268A,119.93,28.4586,丽水市,莲都小学,颗粒物(PM10),54,57,55,24,20,156,126,123,122,13,22,7,7,0.3,0.3
2023-03-11T19:00:00,1269A,119.879,28.4231,丽水市,余庄前,,48,48,41,24,24,149,129,122,122,11,14,9,9,0.3,0.3
2023-03-11T19:00:00,1270A,117.1959,31.7848,合肥市,明珠广场,,48,48,69,19,35,82,44,52,52,51,53,3,4,0.7,0.7
2023-03-11T19:00:00,1271A,117.3072,31.8764,合肥市,三里街,,,,73,,30,76,68,62,58,,64,,5,0.5,1
2023-03-11T19:00:00,1272A,117.2588,31.8707,合肥市,琥珀山庄,,44,44,60,24,33,108,73,74,74,46,47,4,4,0.6,0.7
2023-03-11T19:00:00,1273A,117.1604,31.9052,合肥市,董铺水库,,46,46,59,17,24,106,72,81,79,41,39,3,4,0.3,0.3
2023-03-11T19:00:00,1274A,117.25,31.8571,合肥市,长江中路,,46,46,61,22,34,96,65,63,61,44,45,8,8,0.5,0.6
2023-03-11T19:00:00,1275A,117.266,31.9436,合肥市,庐阳区,颗粒物(PM10),56,61,66,19,29,108,59,70,68,54,51,8,9,0.6,0.6
2023-03-11T19:00:00,1276A,117.336,31.8586,合肥市,瑶海区,,41,41,92,15,34,83,62,60,60,39,63,5,7,0.7,0.9
2023-03-11T19:00:00,1277A,117.3027,31.7964,合肥市,包河区,,46,46,67,24,33,103,74,69,60,22,55,7,7,0.4,0.5
2023-03-11T19:00:00,1278A,117.2776,31.7385,合肥市,滨湖新区,,27,27,53,12,25,115,70,90,67,23,40,5,7,0.5,0.6
2023-03-11T19:00:00,1279A,117.1318,31.8403,合肥市,高新区,,41,41,61,19,28,101,54,69,57,47,43,6,7,0.5,0.5
2023-03-11T19:00:00,1280A,119.3903,26.0543,福州市,鼓山,,,,,,,,,,,,,,,,
2023-03-11T19:00:00,1282A,119.2681,26.0504,福州市,师大,颗粒物(PM10),51,52,49,15,24,131,97,116,115,15,18,4,5,0.3,0.3
2023-03-11T19:00:00,1283A,119.2984,26.1028,福州市,五四北路,颗粒物(PM10),53,56,45,16,23,128,100,114,114,13,15,3,3,0.3,0.4
2023-03-11T19:00:00,1284A,119.2648,26.0768,福州市,杨桥西路,,50,50,50,16,23,127,87,114,112,17,17,3,4,0.4,0.4
2023-03-11T19:00:00,1285A,119.317,26.0746,福州市,紫阳,颗粒物(PM10),52,54,48,15,22,120,96,108,108,13,16,3,4,0.3,0.4
2023-03-11T19:00:00,1286A,118.1608,24.8169,厦门市,溪东,,,,,,,,,,,,,,,,
2023-03-11T19:00:00,1287A,118.1514,24.4767,厦门市,洪文,颗粒物(PM10),53,56,62,30,32,141,110,122,122,17,38,2,4,0.3,0.4
2023-03-11T19:00:00,1288A,118.0661,24.4444,厦门市,鼓浪屿,,44,44,62,25,33,149,110,128,128,48,54,4,9,0.4,0.4
2023-03-11T19:00:00,1290A,115.8931,28.6843,南昌市,省外办,细颗粒物(PM2.5),75,96,95,55,52,123,87,95,95,30,54,10,10,0.6,0.6
2023-03-11T19:00:00,1291A,115.8886,28.7003,南昌市,省林业公司,细颗粒物(PM2.5),64,66,85,46,56,104,78,86,86,32,70,6,7,0.6,0.6
2023-03-11T19:00:00,1292A,115.8126,28.7442,南昌市,林科所,颗粒物(PM10),62,73,48,41,37,108,62,94,90,48,31,12,9,0.7,0.6
2023-03-11T19:00:00,1294A,115.8518,28.687,南昌市,建工学校,细颗粒物(PM2.5),73,83,96,53,51,107,88,88,88,31,56,8,8,0.9,0.9
2023-03-11T19:00:00,1295A,115.8921,28.6424,南昌市,象湖,细颗粒物(PM2.5),69,65,83,50,56,91,63,74,73,37,52,7,6,0.9,1
2023-03-11T19:00:00,1296A,115.7423,28.7996,南昌市,武术学校,,49,39,44,34,32,90,50,82,74,3,4,12,11,0.5,0.4
2023-03-11T19:00:00,1298A,115.9314,28.6842,南昌市,省站,颗粒物(PM10),71,91,99,44,52,103,86,89,89,40,58,9,10,0.9,0.9
2023-03-11T19:00:00,1299A,116.9862,36.6114,济南市,科干所,颗粒物(PM10),51,51,176,15,27,149,81,138,86,19,20,6,8,0.6,0.7
2023-03-11T19:00:00,1300A,116.9376,36.665,济南市,农科所,颗粒物(PM10),62,73,216,7,27,129,67,118,78,24,20,4,6,0.4,0.5
2023-03-11T19:00:00,1301A,117.1265,36.6734,济南市,开发区,颗粒物(PM10),55,59,179,12,30,143,71,131,79,12,12,9,11,0.4,0.5
2023-03-11T19:00:00,1303A,117.0624,36.6868,济南市,省种子仓库,颗粒物(PM10),51,51,221,7,26,146,77,131,83,14,14,6,10,0.2,0.4
2023-03-11T19:00:00,1304A,116.9489,36.6447,济南市,机床二厂,颗粒物(PM10),56,61,275,10,25,143,83,135,87,16,15,5,8,0.5,0.6
2023-03-11T19:00:00,1305A,117.0495,36.663,济南市,市监测站,颗粒物(PM10),59,68,203,5,30,147,73,143,82,17,16,6,9,0.3,0.4
2023-03-11T19:00:00,1306A,116.7675,36.5484,济南市,长清党校,颗粒物(PM10),57,63,241,5,26,144,79,127,84,19,19,6,9,0.3,0.4
2023-03-11T19:00:00,1307A,120.6659,36.2403,青岛市,仰口,颗粒物(PM10),128,205,110,29,47,159,83,154,115,16,16,1,5,0.3,0.5
2023-03-11T19:00:00,1310A,120.4134,36.0658,青岛市,市南区东部子站,颗粒物(PM10),107,163,119,34,61,165,83,126,120,30,40,7,10,0.7,0.8
2023-03-11T19:00:00,1311A,120.3664,36.1032,青岛市,四方区子站,颗粒物(PM10),151,251,136,27,55,116,67,101,98,29,44,5,9,0.7,0.9
2023-03-11T19:00:00,1312A,120.2994,36.054,青岛市,市南区西部子站,颗粒物(PM10),102,153,110,34,55,163,73,124,118,46,41,9,9,0.6,0.7
2023-03-11T19:00:00,1313A,120.4581,36.0858,青岛市,崂山区子站,颗粒物(PM10),136,222,128,27,58,152,81,130,124,30,30,8,7,0.4,0.5
2023-03-11T19:00:00,1314A,120.1983,35.9608,青岛市,黄岛区子站,颗粒物(PM10),128,205,136,37,51,148,61,114,90,48,38,7,8,0.5,0.6
2023-03-11T19:00:00,1315A,120.3999,36.3083,青岛市,城阳区子站,颗粒物(PM10),136,222,126,37,45,128,72,122,108,23,24,6,6,0.6,0.7
2023-03-11T19:00:00,1316A,113.69031,34.76122,郑州市,烟厂,颗粒物(PM10),122,194,367,18,41,108,72,85,82,22,19,5,7,0.3,0.5
2023-03-11T19:00:00,1317A,113.65724,34.77134,郑州市,郑纺机,颗粒物(PM10),134,217,409,16,39,106,75,85,84,13,18,3,4,0.6,0.8
2023-03-11T19:00:00,1318A,113.67526,34.80246,郑州市,银行学校,颗粒物(PM10),125,199,325,14,37,116,76,92,86,20,24,6,8,0.3,0.4
2023-03-11T19:00:00,1319A,113.56746,34.81334,郑州市,供水公司,颗粒物(PM10),107,164,303,12,33,110,74,95,86,12,13,4,6,0.1,0.4
2023-03-11T19:00:00,1320A,113.7329,34.7178,郑州市,经开区管委,颗粒物(PM10),120,190,330,16,42,107,79,86,85,15,18,1,4,0.3,0.5
2023-03-11T19:00:00,1321A,113.73961,34.77172,郑州市,四十七中,颗粒物(PM10),124,197,388,15,40,97,61,80,76,14,17,3,5,0.4,0.5
2023-03-11T19:00:00,1322A,113.60532,34.74838,郑州市,市监测站,颗粒物(PM10),118,185,352,19,46,107,76,89,86,16,20,7,9,0.4,0.5
2023-03-11T19:00:00,1323A,113.64164,34.7525,郑州市,河医大,颗粒物(PM10),140,230,391,65,57,110,66,90,75,16,16,4,6,0.5,0.6
2023-03-11T19:00:00,1324A,113.51488,34.91089,郑州市,岗李水库,,,,,,,,,,,,,,,,
2023-03-11T19:00:00,1325A,114.3677,30.5584,武汉市,东湖梨园,细颗粒物(PM2.5),55,46,45,39,28,132,108,115,115,20,32,6,7,0.6,0.6
2023-03-11T19:00:00,1326A,114.2529,30.558,武汉市,汉阳月湖,细颗粒物(PM2.5),58,54,61,41,31,112,68,94,93,49,52,7,7,1.3,0.9
2023-03-11T19:00:00,1327A,114.282,30.6189,武汉市,汉口花桥,细颗粒物(PM2.5),55,46,64,39,33,121,77,105,103,42,49,8,8,1.1,0.8
2023-03-11T19:00:00,1328A,114.3025,30.5332,武汉市,武昌紫阳,细颗粒物(PM2.5),78,56,54,57,31,124,84,102,102,42,49,14,11,1.5,0.8
2023-03-11T19:00:00,1329A,114.3646,30.6217,武汉市,青山钢花,细颗粒物(PM2.5),79,60,71,58,44,124,99,105,105,23,46,9,10,0.9,1.2
2023-03-11T19:00:00,1330A,114.1566,30.4825,武汉市,沌口新区,细颗粒物(PM2.5),62,60,62,44,33,109,84,96,96,29,39,9,9,1.0,0.7
2023-03-11T19:00:00,1331A,114.3014,30.5944,武汉市,汉口江滩,细颗粒物(PM2.5),59,46,63,42,28,132,56,108,104,72,64,8,8,1.1,0.9
2023-03-11T19:00:00,1333A,114.135,30.6319,武汉市,吴家山,,33,33,65,22,32,120,86,106,106,37,58,7,8,0.7,0.9
2023-03-11T19:00:00,1334A,113.8454,30.2917,武汉市,沉湖七壕,颗粒物(PM10),51,52,37,32,23,129,100,114,114,35,21,11,10,0.9,0.7
2023-03-11T19:00:00,1335A,113.0833,28.2325,长沙市,经开区环保局,细颗粒物(PM2.5),58,55,44,41,44,110,86,88,86,32,27,3,2,0.7,0.6
2023-03-11T19:00:00,1336A,112.8872,28.2189,长沙市,高开区环保局,,,67,55,50,48,119,,92,92,35,23,7,5,0.5,0.6
2023-03-11T19:00:00,1337A,113.0792,28.2053,长沙市,马坡岭,细颗粒物(PM2.5),79,78,55,58,46,114,58,89,88,45,28,6,6,0.6,0.5
2023-03-11T19:00:00,1338A,112.9394,28.19,长沙市,湖南师范大学,细颗粒物(PM2.5),70,65,60,51,58,94,47,76,70,28,24,5,6,0.6,0.6
2023-03-11T19:00:00,1339A,113.0178,28.1322,长沙市,雨花区环保局,细颗粒物(PM2.5),67,61,50,48,42,94,63,87,80,31,29,4,4,0.6,0.6
2023-03-11T19:00:00,1340A,112.9792,28.2597,长沙市,伍家岭,细颗粒物(PM2.5),92,70,54,68,58,119,56,91,90,40,29,5,5,1.0,0.7
2023-03-11T19:00:00,1341A,113.0014,28.1944,长沙市,火车新站,细颗粒物(PM2.5),67,58,50,48,45,100,63,82,82,29,30,6,6,0.7,0.6
2023-03-11T19:00:00,1342A,112.9844,28.1178,长沙市,天心区环保局,颗粒物(PM10),62,73,64,43,42,87,43,84,61,33,31,2,3,0.5,0.6
2023-03-11T19:00:00,1343A,112.8908,28.1308,长沙市,湖南中医药大学,细颗粒物(PM2.5),65,53,58,47,52,82,37,74,65,31,28,2,3,0.8,0.8
2023-03-11T19:00:00,1344A,112.9581,28.3611,长沙市,沙坪,,42,39,51,29,39,119,111,104,104,10,12,5,5,0.8,0.8
2023-03-11T19:00:00,1345A,113.2347,23.1423,广州市,广雅中学,颗粒物(PM10),55,60,66,33,34,160,106,133,133,42,47,4,6,0.7,0.6
2023-03-11T19:00:00,1346A,113.2612,23.105,广州市,市五中,颗粒物(PM10),58,66,63,38,37,158,112,138,138,34,40,4,6,0.7,0.7
2023-03-11T19:00:00,1348A,113.3478,23.0916,广州市,广东商学院,颗粒物(PM10),56,62,70,29,31,147,101,124,124,39,60,5,6,0.6,0.6
2023-03-11T19:00:00,1349A,113.4332,23.1047,广州市,市八十六中,,,,80,,34,147,,128,128,,77,,9,,0.6
2023-03-11T19:00:00,1350A,113.3505,22.9483,广州市,番禺中学,,42,42,57,21,29,134,89,119,118,27,41,8,9,0.7,0.7
2023-03-11T19:00:00,1351A,113.2146,23.3916,广州市,花都师范,颗粒物(PM10),68,86,76,46,36,177,168,148,148,32,50,10,9,0.8,0.8
2023-03-11T19:00:00,1352A,113.2597,23.1331,广州市,市监测站,颗粒物(PM10),61,72,64,30,31,148,100,126,126,39,45,6,8,0.5,0.5
2023-03-11T19:00:00,1353A,113.5618,23.312,广州市,九龙镇镇龙,颗粒物(PM10),57,64,77,27,36,176,94,128,128,42,59,5,6,0.5,0.6
2023-03-11T19:00:00,1354A,113.2765,23.1544,广州市,麓湖,颗粒物(PM10),54,58,59,29,32,157,110,137,137,30,53,4,6,0.5,0.5
2023-03-11T19:00:00,1355A,113.443,23.3035,广州市,帽峰山森林公园,颗粒物(PM10),54,57,54,26,26,197,127,149,149,31,33,5,8,0.6,0.6
2023-03-11T19:00:00,1356A,114.1063,22.5545,深圳市,通心岭子站,,,42,38,23,20,139,,104,104,9,14,4,4,0.5,0.4
2023-03-11T19:00:00,1357A,114.117,22.5625,深圳市,洪湖,颗粒物(PM10),51,51,49,14,17,158,109,120,120,15,21,8,8,0.9,0.9
2023-03-11T19:00:00,1358A,113.987,22.5417,深圳市,华侨城,,43,43,39,23,23,141,81,123,111,44,20,5,4,0.6,0.6
2023-03-11T19:00:00,1359A,113.9181,22.5171,深圳市,南海子站,颗粒物(PM10),51,52,46,24,22,150,92,122,104,27,18,5,5,0.6,0.6
2023-03-11T19:00:00,1360A,114.2458,22.5689,深圳市,盐田,,41,41,44,20,24,152,116,139,139,16,32,6,8,0.6,0.6
2023-03-11T19:00:00,1361A,114.2283,22.7244,深圳市,龙岗,,39,39,44,17,22,152,91,128,103,15,15,2,4,0.7,0.7
2023-03-11T19:00:00,1363A,114.494,22.5422,深圳市,南澳,,46,46,36,25,20,142,119,128,128,16,13,5,5,0.5,0.5
2023-03-11T19:00:00,1364A,114.41,22.6342,深圳市,葵涌,,50,50,40,26,23,157,136,134,134,19,14,6,6,0.5,0.5
2023-03-11T19:00:00,1365A,114.297,22.5978,深圳市,梅沙,,44,44,41,20,23,161,125,149,148,2,3,5,6,0.6,0.6
2023-03-11T19:00:00,1366A,114.0678,22.738,深圳市,观澜,颗粒物(PM10),57,63,65,23,29,134,88,110,104,29,33,5,6,0.7,0.6
2023-03-11T19:00:00,1367A,113.5814,22.2618,珠海市,吉大,,42,42,46,24,25,182,132,135,135,17,22,4,5,0.4,0.4
2023-03-11T19:00:00,1368A,113.4881,22.2335,珠海市,前山,颗粒物(PM10),51,51,60,20,21,170,118,125,110,26,28,4,4,0.4,0.4
2023-03-11T19:00:00,1369A,113.628,22.4251,珠海市,唐家,颗粒物(PM10),62,74,43,25,26,177,122,120,120,14,20,3,4,0.3,0.4
2023-03-11T19:00:00,1370A,113.299,22.2281,珠海市,斗门,,38,38,52,16,28,182,110,137,114,13,20,3,4,0.4,0.4
2023-03-11T19:00:00,1371A,113.1294,23.0067,佛山市,湾梁,颗粒物(PM10),58,66,65,24,28,186,106,145,145,30,39,4,5,0.6,0.6
2023-03-11T19:00:00,1372A,113.1083,23.0478,佛山市,华材职中,颗粒物(PM10),56,61,55,25,30,196,117,158,158,36,31,7,7,0.5,0.5
2023-03-11T19:00:00,1373A,113.144,23.0453,佛山市,南海气象局,颗粒物(PM10),62,73,54,28,30,161,90,126,126,34,41,2,3,0.7,0.6
2023-03-11T19:00:00,1374A,113.2881,22.8094,佛山市,顺德苏岗,,47,47,46,14,26,143,88,124,108,22,33,8,9,0.7,0.7
2023-03-11T19:00:00,1376A,112.8383,22.8678,佛山市,高明孔堂,,47,47,51,26,29,146,101,136,117,17,17,5,5,0.6,0.7
2023-03-11T19:00:00,1377A,112.8836,23.1588,佛山市,三水监测站,颗粒物(PM10),65,80,72,32,40,154,85,129,127,52,51,6,8,0.7,0.6
2023-03-11T19:00:00,1378A,112.867,23.185,佛山市,三水云东海,颗粒物(PM10),64,77,66,24,37,147,76,128,125,42,38,5,8,0.6,0.6
2023-03-11T19:00:00,1379A,113.3769,22.5211,中山市,华柏园,,43,43,43,23,25,159,96,143,108,22,19,7,7,0.6,0.6
2023-03-11T19:00:00,1380A,113.3881,22.5497,中山市,张溪,,47,47,53,21,23,162,101,125,106,16,25,4,5,0.4,0.5
2023-03-11T19:00:00,1381A,113.4075,22.5111,中山市,紫马岭,,44,44,42,16,26,157,98,127,108,11,15,5,6,0.4,0.5
2023-03-11T19:00:00,1382A,113.4411,22.4853,中山市,长江旅游区,,31,20,25,15,19,150,97,111,107,9,10,10,10,0.4,0.4
2023-03-11T19:00:00,1383A,113.1064,22.6058,江门市,北街,,43,43,52,13,29,157,99,129,118,13,26,7,8,0.4,0.6
2023-03-11T19:00:00,1384A,113.0731,22.5835,江门市,西区,颗粒物(PM10),54,57,59,20,32,171,100,159,119,22,26,6,7,0.4,0.5
2023-03-11T19:00:00,1385A,113.0219,22.5311,江门市,圭峰西,,47,47,51,17,35,167,98,159,113,24,21,6,6,0.6,0.6
2023-03-11T19:00:00,1386A,113.0828,22.5947,江门市,东湖,,38,38,60,18,32,168,102,147,123,20,22,6,7,0.5,0.5
2023-03-11T19:00:00,1389A,113.7547,23.0494,东莞市,莞城梨川,,46,46,56,22,36,195,100,153,151,31,31,9,10,0.5,0.4
2023-03-11T19:00:00,1390A,113.7944,23.0128,东莞市,东城石井,,46,46,54,19,27,195,97,159,155,26,26,12,11,0.6,0.6
2023-03-11T19:00:00,1391A,113.7383,22.9658,东莞市,南城西平,,40,40,58,23,29,167,88,131,129,28,42,10,10,0.4,0.4
2023-03-11T19:00:00,1392A,114.4183,23.0528,惠州市,河南岸金山湖子站,颗粒物(PM10),59,67,58,27,25,140,98,122,122,15,23,5,7,0.3,0.4
2023-03-11T19:00:00,1393A,114.4053,23.0822,惠州市,下埔横江三路子站,,39,39,57,22,25,170,114,142,142,18,23,4,7,0.5,0.5
2023-03-11T19:00:00,1394A,114.4103,23.1142,惠州市,江北云山西路子站,,47,47,56,27,29,180,110,144,144,14,21,5,9,0.5,0.5
2023-03-11T19:00:00,1395A,114.4645,22.7833,惠州市,惠阳区承修路船湖子站,颗粒物(PM10),52,54,56,26,25,145,89,114,110,34,29,5,8,0.6,0.5
2023-03-11T19:00:00,1396A,114.5317,22.7422,惠州市,大亚湾管委会子站,颗粒物(PM10),62,73,73,31,29,137,102,124,121,35,38,6,7,0.4,0.4
2023-03-11T19:00:00,1397A,112.4267,23.0706,肇庆市,睦岗子站,颗粒物(PM10),53,56,57,33,31,159,128,131,130,22,29,10,16,0.6,0.6
2023-03-11T19:00:00,1398A,112.4645,23.0475,肇庆市,城中子站,颗粒物(PM10),56,62,63,36,34,161,120,126,126,19,27,12,18,0.6,0.5
2023-03-11T19:00:00,1399A,112.5544,23.1522,肇庆市,坑口子站,颗粒物(PM10),52,53,47,35,30,167,98,120,117,41,28,8,11,0.4,0.4
2023-03-11T19:00:00,1400A,112.4753,23.1,肇庆市,七星岩子站,,,,,,,,,,,,,,,,
2023-03-11T19:00:00,1401A,108.3103,22.7881,南宁市,二十一中,,48,47,51,33,32,140,134,132,132,11,12,7,10,0.7,0.7
2023-03-11T19:00:00,1402A,108.3141,22.8528,南宁市,北湖,,,,56,,32,132,115,122,122,,12,7,10,0.8,0.7
2023-03-11T19:00:00,1403A,108.3206,22.8225,南宁市,市监测站,细颗粒物(PM2.5),53,53,54,37,36,129,118,121,121,35,29,7,9,0.7,0.7
2023-03-11T19:00:00,1404A,108.3829,22.8037,南宁市,大自然花园,颗粒物(PM10),51,52,52,31,31,125,122,119,119,14,12,6,8,0.7,0.7
2023-03-11T19:00:00,1405A,108.4394,22.7904,南宁市,仙葫,颗粒物(PM10),52,53,53,28,33,138,126,127,127,13,11,7,8,0.6,0.7
2023-03-11T19:00:00,1406A,108.2397,22.8467,南宁市,区农职院,,,,54,,30,132,106,120,120,34,21,8,9,0.8,0.7
2023-03-11T19:00:00,1407A,108.3275,22.735,南宁市,英华嘉园,,48,36,54,33,32,123,111,112,112,24,22,6,8,0.8,0.8
2023-03-11T19:00:00,1408A,108.2257,22.7757,南宁市,沙井镇街道办,颗粒物(PM10),64,78,60,36,31,125,103,116,116,33,23,6,8,0.8,0.7
2023-03-11T19:00:00,1409A,110.576,19.9507,海口市,东寨港,,,40,34,20,21,61,58,60,60,,,6,6,0.7,0.7
2023-03-11T19:00:00,1410A,110.3232,20.0574,海口市,海南大学,颗粒物(PM10),55,59,39,38,26,115,110,109,108,7,8,6,6,0.6,0.6
2023-03-11T19:00:00,1411A,110.283,20.0053,海口市,秀英海南医院,颗粒物(PM10),52,54,45,25,22,106,95,101,97,7,8,4,4,0.4,0.4
2023-03-11T19:00:00,1412A,110.338,19.9969,海口市,海南师范大学,颗粒物(PM10),52,53,46,24,22,109,99,104,101,8,7,4,5,0.4,0.4
2023-03-11T19:00:00,1413A,110.33,20.0356,海口市,龙华路环保局宿舍,,48,48,43,24,21,106,102,102,100,6,8,6,8,0.6,0.6
2023-03-11T19:00:00,1414A,106.3787,29.8279,重庆市,缙云山,,43,33,29,19,17,139,137,127,127,14,14,14,10,0.5,0.5
2023-03-11T19:00:00,1416A,106.4213,29.8253,重庆市,天生,细颗粒物(PM2.5),54,41,38,38,30,127,116,121,120,20,30,11,7,0.7,0.7
2023-03-11T19:00:00,1417A,106.6263,29.7228,重庆市,两路,,,,42,,26,130,91,108,106,48,48,8,9,0.9,0.9
2023-03-11T19:00:00,1418A,106.2953,29.5983,重庆市,虎溪,,41,36,45,24,30,147,130,124,124,17,42,9,6,0.7,0.8
2023-03-11T19:00:00,1419A,106.5777,29.5102,重庆市,南坪,,,58,50,35,31,130,,104,104,29,32,6,11,0.6,0.8
2023-03-11T19:00:00,1420A,106.6556,29.6277,重庆市,唐家沱,,48,40,47,33,27,146,121,118,118,38,45,8,9,0.7,0.9
2023-03-11T19:00:00,1421A,106.6349,29.4906,重庆市,茶园,颗粒物(PM10),59,67,64,34,34,138,97,108,108,45,47,6,8,0.8,1
2023-03-11T19:00:00,1422A,106.3754,29.4572,重庆市,白市驿,,50,50,48,19,29,146,119,118,118,41,45,8,10,0.7,0.8
2023-03-11T19:00:00,1425A,106.6205,29.7166,重庆市,空港,颗粒物(PM10),51,52,35,31,23,139,95,114,114,45,38,6,8,0.7,0.7
2023-03-11T19:00:00,1426A,106.4782,29.4875,重庆市,新山村,颗粒物(PM10),52,53,59,27,33,111,94,85,85,49,59,7,10,0.6,0.7
2023-03-11T19:00:00,1427A,106.5616,29.6453,重庆市,礼嘉,颗粒物(PM10),55,59,56,24,30,122,108,93,93,46,52,6,7,0.8,0.9
2023-03-11T19:00:00,1428A,106.4522,29.7091,重庆市,蔡家,颗粒物(PM10),58,66,59,32,28,147,114,117,117,25,31,7,7,0.7,0.8
2023-03-11T19:00:00,1429A,106.5093,29.3917,重庆市,鱼新街,"颗粒物(PM10),细颗粒物(PM2.5)",52,54,51,36,29,122,118,102,102,25,44,8,10,0.6,0.8
2023-03-11T19:00:00,1431A,103.9728,30.7236,成都市,金泉两河,,,71,66,47,40,177,134,146,146,20,35,,3,,0.5
2023-03-11T19:00:00,1432A,104.176,30.6872,成都市,十里店,细颗粒物(PM2.5),58,51,72,41,47,143,111,118,118,23,47,4,4,0.6,0.7
2023-03-11T19:00:00,1433A,104.079,30.5706,成都市,三瓦窑,颗粒物(PM10),61,71,64,30,34,148,77,113,113,50,51,1,2,0.8,0.8
2023-03-11T19:00:00,1434A,104.1114,30.63,成都市,沙河铺,颗粒物(PM10),55,59,63,34,41,154,92,105,105,35,36,5,5,0.6,0.6
2023-03-11T19:00:00,1437A,104.0786,30.6531,成都市,君平街,,,57,71,42,46,161,123,128,128,24,49,,6,0.5,0.7
2023-03-11T19:00:00,1438A,103.613,31.0283,成都市,灵岩寺,,48,47,32,33,24,144,132,128,128,18,18,7,15,0.6,0.6
2023-03-11T19:00:00,1439A,106.6899,26.5998,贵阳市,马鞍山,细颗粒物(PM2.5),64,61,54,46,43,120,95,109,109,18,19,8,7,0.8,0.9
2023-03-11T19:00:00,1440A,106.6971,26.5694,贵阳市,市环保站,细颗粒物(PM2.5),83,73,64,61,50,121,112,113,113,22,29,8,8,0.4,0.5
2023-03-11T19:00:00,1441A,106.6243,26.6266,贵阳市,鉴湖路,细颗粒物(PM2.5),64,73,67,46,42,118,100,106,106,23,18,10,8,0.4,0.4
2023-03-11T19:00:00,1442A,106.7487,26.6343,贵阳市,燕子冲,细颗粒物(PM2.5),83,73,59,61,48,105,101,100,100,16,18,6,6,0.6,0.6
2023-03-11T19:00:00,1443A,106.6555,26.4365,贵阳市,碧云窝,细颗粒物(PM2.5),79,88,68,58,45,132,109,113,113,19,18,16,9,0.4,0.5
2023-03-11T19:00:00,1444A,106.694,26.5161,贵阳市,中院村,细颗粒物(PM2.5),85,90,72,63,48,118,99,100,100,24,30,10,13,0.6,0.6
2023-03-11T19:00:00,1445A,106.7109,26.6027,贵阳市,红边门,细颗粒物(PM2.5),83,83,66,61,49,120,102,109,109,24,24,13,12,0.7,0.7
2023-03-11T19:00:00,1446A,106.7164,26.5699,贵阳市,新华路,细颗粒物(PM2.5),79,78,59,58,43,112,108,107,107,12,17,7,7,0.6,0.6
2023-03-11T19:00:00,1447A,106.674,26.5424,贵阳市,太慈桥,颗粒物(PM10),65,80,69,46,41,117,99,108,108,26,29,7,5,0.5,0.6
2023-03-11T19:00:00,1450A,102.8204,24.8886,昆明市,呈贡新区,,38,38,56,24,39,148,116,136,136,9,24,6,9,0.4,0.6
2023-03-11T19:00:00,1451A,102.6251,24.9608,昆明市,西山森林公园,,38,38,48,18,32,141,121,132,132,6,10,7,9,0.7,0.8
2023-03-11T19:00:00,1452A,102.7252,25.0902,昆明市,龙泉镇,,47,47,72,25,42,137,110,127,127,16,51,8,9,0.4,0.6
2023-03-11T19:00:00,1453A,102.7266,25.0375,昆明市,东风东路,,43,43,64,27,41,133,103,121,121,17,36,7,9,0.5,0.7
2023-03-11T19:00:00,1454A,102.6742,25.0669,昆明市,金鼎山,,42,42,70,27,49,135,112,124,124,13,36,6,23,0.5,0.8
2023-03-11T19:00:00,1455A,102.6644,25.0401,昆明市,碧鸡广场,,44,44,62,25,40,135,109,126,126,16,36,6,6,0.4,0.7
2023-03-11T19:00:00,1456A,91.1319,29.6514,拉萨市,八廓街,,,17,16,,2,119,97,109,109,6,9,6,6,0.2,0.3
2023-03-11T19:00:00,1457A,91.1221,29.6747,拉萨市,市环保局,,34,12,15,4,6,128,106,117,117,9,13,4,5,0.4,0.4
2023-03-11T19:00:00,1458A,91.0874,29.6475,拉萨市,区监测站,,33,16,15,4,2,123,104,116,116,9,13,6,6,0.2,0.2
2023-03-11T19:00:00,1459A,91.1774,29.6541,拉萨市,西藏大学,,34,19,13,1,5,128,107,119,119,5,7,5,5,0.2,0.2
2023-03-11T19:00:00,1460A,90.9798,29.6588,拉萨市,区辐射站,,35,19,17,5,9,127,111,116,116,7,13,7,7,0.4,0.4
2023-03-11T19:00:00,1461A,91.0834,29.6292,拉萨市,拉萨火车站,,33,16,17,1,4,125,105,120,116,7,9,6,5,0.2,0.3
2023-03-11T19:00:00,1462A,108.882,34.2749,西安市,高压开关厂,颗粒物(PM10),61,71,210,18,56,102,96,88,88,10,66,5,10,0.3,0.6
2023-03-11T19:00:00,1463A,108.993,34.2629,西安市,兴庆小区,颗粒物(PM10),55,60,221,10,52,97,97,87,87,10,52,5,8,0.4,0.8
2023-03-11T19:00:00,1464A,109.06,34.2572,西安市,纺织城,颗粒物(PM10),59,68,219,11,52,94,94,83,83,12,64,5,7,0.4,0.6
2023-03-11T19:00:00,1465A,108.9356,34.2173,西安市,小寨,颗粒物(PM10),71,92,174,9,48,92,92,82,82,11,62,5,9,0.2,0.5
2023-03-11T19:00:00,1466A,108.954,34.2713,西安市,市人民体育场,颗粒物(PM10),55,59,223,8,50,94,91,83,83,9,60,5,8,0.2,0.5
2023-03-11T19:00:00,1467A,108.8922,34.2322,西安市,高新西区,颗粒物(PM10),54,57,217,10,53,94,94,85,85,8,57,6,10,0.3,0.7
2023-03-11T19:00:00,1468A,108.935,34.3474,西安市,经开区,,41,41,204,7,54,97,96,86,86,9,66,4,8,0.0,0.4
2023-03-11T19:00:00,1469A,108.906,34.1546,西安市,长安区,颗粒物(PM10),60,69,257,10,48,88,88,78,78,14,54,6,8,0.1,0.4
2023-03-11T19:00:00,1471A,109.2186,34.3731,西安市,临潼区,颗粒物(PM10),61,72,204,14,54,110,99,81,81,5,41,7,11,0.5,0.8
2023-03-11T19:00:00,1472A,108.869,34.378,西安市,草滩,颗粒物(PM10),51,51,227,17,45,86,82,75,75,9,57,3,12,0.0,0.2
2023-03-11T19:00:00,1473A,108.985,34.1978,西安市,曲江文化产业集团,颗粒物(PM10),55,60,213,8,47,97,97,86,86,6,57,4,6,0.3,0.5
2023-03-11T19:00:00,1474A,109.051,34.3213,西安市,广运潭,颗粒物(PM10),63,76,203,11,45,98,98,86,86,12,61,4,8,0.1,0.4
2023-03-11T19:00:00,1476A,103.631,36.1031,兰州市,兰炼宾馆,颗粒物(PM10),57,64,147,27,45,97,95,91,91,12,13,5,7,0.3,0.3
2023-03-11T19:00:00,1477A,104.1373,35.9454,兰州市,榆中兰大校区,,,,,,,,,,,,,,,,
2023-03-11T19:00:00,1478A,103.8412,36.0726,兰州市,生物制品所,颗粒物(PM10),64,78,145,32,37,96,89,88,88,15,14,2,4,0.4,0.4
2023-03-11T19:00:00,1479A,103.831,36.0464,兰州市,铁路设计院,颗粒物(PM10),60,69,138,31,46,92,83,86,85,20,17,4,5,0.4,0.3
2023-03-11T19:00:00,1483A,101.524,36.6867,西宁市,第五水厂,,,,,,,,,,,,,,,,
2023-03-11T19:00:00,1484A,105.9512,38.6016,银川市,贺兰山马莲口,颗粒物(PM10),84,118,170,31,35,103,95,99,98,4,8,8,9,0.2,0.3
2023-03-11T19:00:00,1488A,106.2328,38.4975,银川市,贺兰山东路,颗粒物(PM10),239,377,265,75,38,94,78,90,90,13,13,5,4,0.4,0.4
2023-03-11T19:00:00,1489A,106.1358,38.5036,银川市,学院路,颗粒物(PM10),167,284,259,42,34,93,78,90,88,13,15,4,5,0.5,0.5
2023-03-11T19:00:00,1490A,87.5801,43.8303,乌鲁木齐市,监测站,颗粒物(PM10),75,100,61,41,14,95,77,80,80,53,53,7,5,0.8,0.7
2023-03-11T19:00:00,1491A,87.6046,43.768,乌鲁木齐市,收费所,颗粒物(PM10),102,153,86,20,15,94,92,92,92,8,38,1,3,0.2,0.3
2023-03-11T19:00:00,1492A,87.4754,43.9469,乌鲁木齐市,新疆农科院农场,细颗粒物(PM2.5),98,82,80,73,50,88,75,65,65,35,44,22,12,1.1,0.9
2023-03-11T19:00:00,1493A,87.5525,43.8711,乌鲁木齐市,铁路局,颗粒物(PM10),61,72,53,36,22,85,83,58,58,33,53,8,6,0.6,0.6
2023-03-11T19:00:00,1494A,87.6432,43.831,乌鲁木齐市,三十一中学,,,100,57,44,17,97,,78,78,42,32,13,9,0.9,0.6
2023-03-11T19:00:00,1496A,87.7216,44.1747,乌鲁木齐市,米东区环保局,,,72,42,,17,115,63,56,56,,24,49,11,1.3,0.5
2023-03-11T19:00:00,1508A,112.9433,27.8614,湘潭市,板塘,细颗粒物(PM2.5),78,59,58,57,52,81,33,66,62,32,21,9,11,0.9,0.7
2023-03-11T19:00:00,1511A,112.9118,27.8403,湘潭市,市监测站,细颗粒物(PM2.5),94,68,58,70,64,83,29,64,59,43,29,6,7,1.1,1
2023-03-11T19:00:00,1512A,112.8937,27.8728,湘潭市,江麓,颗粒物(PM10),65,80,72,46,55,104,40,84,76,36,21,8,9,0.8,0.7
2023-03-11T19:00:00,1513A,112.9227,27.8159,湘潭市,岳塘,细颗粒物(PM2.5),89,72,69,66,59,82,31,80,61,43,29,4,6,1.0,0.8
2023-03-11T19:00:00,1514A,112.9074,27.9119,湘潭市,科大,细颗粒物(PM2.5),93,71,85,69,58,92,31,65,60,47,35,5,5,1.0,0.9
2023-03-11T19:00:00,1515A,113.135,27.8244,株洲市,天台山庄,细颗粒物(PM2.5),105,56,54,79,48,114,47,84,80,53,33,5,6,1.1,0.8
2023-03-11T19:00:00,1518A,113.095,27.8867,株洲市,株冶医院,细颗粒物(PM2.5),105,75,52,79,51,96,34,74,68,46,31,4,5,0.9,0.7
2023-03-11T19:00:00,1519A,113.167,27.8667,株洲市,市四中,细颗粒物(PM2.5),120,63,48,91,52,110,38,76,70,47,26,10,10,1.4,1.1
2023-03-11T19:00:00,1520A,113.143,27.8381,株洲市,火车站,细颗粒物(PM2.5),104,85,59,78,56,108,38,77,73,51,36,5,7,1.3,0.9
2023-03-11T19:00:00,1524A,113.13,27.8528,株洲市,市监测站,细颗粒物(PM2.5),135,70,55,103,62,106,44,79,76,52,32,5,7,1.3,0.9
2023-03-11T19:00:00,1552A,106.805,26.3003,贵阳市,桐木岭,,,,,,,,,,,,,,,,
2023-03-11T19:00:00,1559A,113.251,27.8336,株洲市,大京风景区,细颗粒物(PM2.5),58,46,46,41,35,104,52,77,76,13,13,3,4,0.6,0.5
2023-03-11T19:00:00,1562A,113.0048,27.9153,湘潭市,昭山,细颗粒物(PM2.5),70,63,56,51,45,90,12,60,53,60,37,1,2,1.0,0.8
2023-03-11T19:00:00,1564A,112.4876,27.9164,湘潭市,韶山,,46,46,45,21,23,89,43,77,64,14,14,5,5,0.7,0.7
2023-03-11T19:00:00,1585A,109.8756,40.6532,包头市,市环境监测站,颗粒物(PM10),335,448,154,28,16,87,81,82,82,8,14,8,12,0.5,0.6
2023-03-11T19:00:00,1587A,109.9991,40.5842,包头市,包头八中,颗粒物(PM10),500,705,174,62,21,92,82,83,83,7,16,3,6,0.4,0.5
2023-03-11T19:00:00,1588A,109.8538,40.6821,包头市,青山宾馆,颗粒物(PM10),216,361,124,30,16,87,82,83,83,7,10,5,8,0.4,0.5
2023-03-11T19:00:00,1589A,109.8642,40.6288,包头市,惠龙物流,颗粒物(PM10),275,402,129,28,18,86,81,80,80,6,15,4,9,0.6,0.8
2023-03-11T19:00:00,1590A,110.0377,40.5546,包头市,东河鸿龙湾,颗粒物(PM10),500,659,155,30,13,86,80,79,79,7,13,6,8,0.4,0.5
2023-03-11T19:00:00,1591A,110.0023,39.8129,鄂尔多斯市,综合楼,颗粒物(PM10),500,969,308,,31,87,78,81,81,13,27,5,7,0.4,0.6
2023-03-11T19:00:00,1592A,109.9486,39.8261,鄂尔多斯市,巴音孟克林场办事处,颗粒物(PM10),500,693,281,51,27,90,83,85,85,7,28,6,10,0.2,0.3
2023-03-11T19:00:00,1593A,109.7736,39.5986,鄂尔多斯市,康泽苑,颗粒物(PM10),444,544,258,29,20,84,78,80,80,9,14,7,10,0.5,0.6
2023-03-11T19:00:00,1594A,109.8119,39.5989,鄂尔多斯市,华泰汽车城,,,,235,39,26,90,83,85,85,5,15,7,11,0.4,0.5
2023-03-11T19:00:00,1595A,109.9734,39.7884,鄂尔多斯市,奥林花园,颗粒物(PM10),500,749,328,46,27,90,85,85,85,8,24,6,8,0.3,0.4
2023-03-11T19:00:00,1597A,122.2703,40.7094,营口市,大庆路,颗粒物(PM10),73,95,125,16,16,90,64,74,73,24,18,7,6,0.5,0.5
2023-03-11T19:00:00,1598A,122.2150,40.6511,营口市,镜湖西路,颗粒物(PM10),51,52,106,12,14,101,68,77,76,18,17,8,7,0.6,0.7
2023-03-11T19:00:00,1599A,122.1658,40.6789,营口市,西炮台,颗粒物(PM10),67,84,119,15,18,108,64,79,77,28,20,14,6,0.6,0.4
2023-03-11T19:00:00,1600A,124.3303,40.0625,丹东市,江湾东路,颗粒物(PM10),70,89,129,9,50,93,80,80,80,7,20,6,10,0.3,0.9
2023-03-11T19:00:00,1601A,124.4256,40.1503,丹东市,临江后街,颗粒物(PM10),69,88,111,9,40,82,79,81,81,7,19,9,13,0.5,0.7
2023-03-11T19:00:00,1602A,124.3933,40.1461,丹东市,元宝山,颗粒物(PM10),66,82,108,9,38,105,73,76,72,6,20,10,13,0.6,0.8
2023-03-11T19:00:00,1603A,124.3633,40.1092,丹东市,民主桥,颗粒物(PM10),73,96,112,11,38,96,70,96,73,15,21,9,10,0.4,0.7
2023-03-11T19:00:00,1604A,122.0303,41.1489,盘锦市,开发区,,25,25,78,13,10,93,76,83,82,8,8,5,6,0.5,0.4
2023-03-11T19:00:00,1605A,122.0485,41.0883,盘锦市,兴隆台,,23,23,92,9,12,96,72,78,78,14,12,8,8,0.3,0.3
2023-03-11T19:00:00,1606A,121.8297,41.1028,盘锦市,新生街道,,21,13,73,13,11,83,65,80,78,17,17,4,5,0.3,0.3
2023-03-11T19:00:00,1607A,120.9092,40.7136,葫芦岛市,龙港区,二氧化硫,69,64,111,20,29,84,56,77,72,27,24,279,45,0.9,0.7
2023-03-11T19:00:00,1608A,120.8392,40.7514,葫芦岛市,化工街,,44,44,133,17,17,81,55,78,72,31,14,10,9,0.7,0.7
2023-03-11T19:00:00,1609A,120.8341,40.7073,葫芦岛市,新区,,35,35,89,19,18,83,48,79,71,37,16,16,15,0.6,0.5
2023-03-11T19:00:00,1610A,120.8695,40.7677,葫芦岛市,东城区,,32,32,93,19,16,78,38,76,69,46,20,18,12,0.8,0.6
2023-03-11T19:00:00,1611A,118.5819,24.9117,泉州市,涂山街,颗粒物(PM10),60,69,63,29,25,166,103,136,136,28,21,10,11,0.7,0.6
2023-03-11T19:00:00,1612A,118.5972,24.8978,泉州市,津头埔,颗粒物(PM10),58,65,59,32,27,159,105,135,134,32,25,8,10,0.6,0.5
2023-03-11T19:00:00,1613A,118.6663,24.9424,泉州市,万安,颗粒物(PM10),54,58,51,36,27,177,119,152,152,17,16,8,10,0.6,0.6
2023-03-11T19:00:00,1614A,118.6117,24.9604,泉州市,清源山,,,,,,,,,,,,,,,,
2023-03-11T19:00:00,1616A,117.6795,36.229,济南市,技术学院,颗粒物(PM10),67,83,175,14,26,140,76,131,85,26,23,6,9,0.3,0.5
2023-03-11T19:00:00,1618A,118.3429,35.0532,临沂市,沂河小区,颗粒物(PM10),156,261,171,31,51,106,73,85,83,14,38,6,10,0.2,0.3
2023-03-11T19:00:00,1619A,118.295,35.0583,临沂市,鲁南制药厂,颗粒物(PM10),161,271,167,35,49,124,78,95,91,23,49,9,21,0.4,0.6
2023-03-11T19:00:00,1620A,118.2794,34.9976,临沂市,新光毛纺厂,颗粒物(PM10),202,351,173,26,51,109,66,85,83,20,47,5,19,0.4,0.5
2023-03-11T19:00:00,1621A,118.3956,35.0888,临沂市,河东保险公司,颗粒物(PM10),141,232,165,24,47,130,83,100,98,23,47,8,17,0.6,0.7
2023-03-11T19:00:00,1622A,116.3032,37.4674,德州市,儿童乐园,颗粒物(PM10),71,92,365,12,39,128,74,89,79,17,21,4,5,0.3,0.5
2023-03-11T19:00:00,1624A,116.2991,37.4451,德州市,监理站,颗粒物(PM10),75,99,368,5,33,116,73,88,79,14,16,5,8,0.3,0.4
2023-03-11T19:00:00,1625A,115.9848,36.4372,聊城市,区政府,颗粒物(PM10),64,78,264,11,36,110,72,89,83,14,15,9,9,0.2,0.3
2023-03-11T19:00:00,1628A,118.0062,37.3803,滨州市,市环保局,颗粒物(PM10),59,68,197,9,32,114,63,105,75,22,22,6,7,0.4,0.5
2023-03-11T19:00:00,1629A,118.0018,37.3617,滨州市,第二水厂,颗粒物(PM10),60,70,220,13,29,116,66,106,76,23,27,5,5,0.4,0.5
2023-03-11T19:00:00,1630A,117.9776,37.393,滨州市,北中新校,颗粒物(PM10),60,69,164,14,29,119,66,104,76,22,30,7,4,0.3,0.4
2023-03-11T19:00:00,1631A,118.0414,36.8103,淄博市,人民公园,颗粒物(PM10),56,61,159,20,37,126,70,100,78,23,20,18,10,0.4,0.4
2023-03-11T19:00:00,1633A,117.8525,36.4847,淄博市,双山,颗粒物(PM10),63,75,155,10,27,137,68,128,79,24,20,9,10,0.4,0.5
2023-03-11T19:00:00,1634A,117.9592,36.6331,淄博市,气象站,颗粒物(PM10),60,70,163,14,30,140,67,135,77,27,23,12,12,0.2,0.2
2023-03-11T19:00:00,1635A,118.3092,36.8194,淄博市,莆田园,颗粒物(PM10),54,58,134,9,27,124,34,104,37,48,92,6,9,0.5,0.8
2023-03-11T19:00:00,1637A,117.558,34.8438,枣庄市,市中区政府,颗粒物(PM10),161,271,178,36,55,140,88,123,123,35,52,9,15,0.5,0.6
2023-03-11T19:00:00,1638A,117.2852,34.7837,枣庄市,薛城环保局,颗粒物(PM10),279,405,141,39,49,166,73,127,124,31,44,13,19,0.7,0.9
2023-03-11T19:00:00,1639A,117.5852,34.7745,枣庄市,峄城区政府,颗粒物(PM10),159,268,178,34,52,125,89,114,114,27,44,14,18,0.4,0.6
2023-03-11T19:00:00,1640A,117.7276,34.5578,枣庄市,台儿庄区环保局,颗粒物(PM10),136,222,150,41,52,132,93,112,112,31,56,11,16,0.8,0.9
2023-03-11T19:00:00,1641A,117.4518,35.0992,枣庄市,山亭区环保局,颗粒物(PM10),172,293,120,29,36,168,82,140,136,28,31,7,12,0.8,0.8
2023-03-11T19:00:00,1642A,121.2514,37.5639,烟台市,开发区,颗粒物(PM10),81,112,115,17,42,124,56,116,57,22,22,5,6,0.4,0.5
2023-03-11T19:00:00,1643A,121.3719,37.5433,烟台市,轴承厂,,,,121,,46,166,36,129,54,42,26,6,6,,0.7
2023-03-11T19:00:00,1644A,121.3181,37.5436,烟台市,西郊化工站,颗粒物(PM10),91,132,136,15,42,163,53,132,59,31,23,8,9,0.4,0.6
2023-03-11T19:00:00,1645A,121.4478,37.4822,烟台市,莱山环保局,颗粒物(PM10),100,149,127,20,45,143,51,128,61,31,24,10,10,0.9,1.1
2023-03-11T19:00:00,1646A,121.2611,37.4967,烟台市,福山环保局,颗粒物(PM10),100,149,140,19,41,130,57,122,63,31,29,7,9,0.7,0.9
2023-03-11T19:00:00,1650A,119.1437,36.7023,潍坊市,环保局,,,75,156,17,34,114,,95,76,,26,,6,,0.6
2023-03-11T19:00:00,1653A,116.6251,35.4302,济宁市,火炬城,颗粒物(PM10),100,149,115,22,36,122,81,94,93,18,22,6,13,0.5,0.7
2023-03-11T19:00:00,1655A,116.5491,35.4042,济宁市,电化厂,颗粒物(PM10),102,154,118,24,38,112,73,94,90,16,23,5,13,0.4,0.6
2023-03-11T19:00:00,1656A,117.1437,36.1937,泰安市,监测站,颗粒物(PM10),85,119,143,11,30,114,85,104,89,7,18,3,4,0.5,0.6
2023-03-11T19:00:00,1657A,117.0885,36.2017,泰安市,人口学校,颗粒物(PM10),74,97,160,17,28,150,90,129,102,12,11,6,9,0.3,0.4
2023-03-11T19:00:00,1658A,117.1089,36.1758,泰安市,电力学校,,,114,169,,35,122,93,102,94,6,19,7,11,0.5,0.6
2023-03-11T19:00:00,1659A,119.471,35.4209,日照市,监测站,颗粒物(PM10),133,215,147,32,49,124,70,102,100,23,48,7,10,0.5,0.8
2023-03-11T19:00:00,1660A,119.523,35.4216,日照市,市政府广场,颗粒物(PM10),137,224,132,32,50,137,69,112,109,16,39,5,12,0.8,1.4
2023-03-11T19:00:00,1661A,119.5587,35.4044,日照市,港务局,颗粒物(PM10),124,197,139,31,48,156,81,132,130,25,59,8,14,0.6,1
2023-03-11T19:00:00,1662A,122.1214,37.4236,威海市,华夏技校,颗粒物(PM10),96,141,139,22,47,171,75,145,80,19,19,2,2,0.4,0.6
2023-03-11T19:00:00,1663A,122.0508,37.5236,威海市,山大分校,颗粒物(PM10),94,137,107,17,36,179,45,145,64,36,19,2,3,0.3,0.4
2023-03-11T19:00:00,1664A,122.1067,37.5072,威海市,市监测站,颗粒物(PM10),95,139,123,20,39,193,49,148,74,35,14,5,5,0.5,0.6
2023-03-11T19:00:00,1666A,118.6614,37.4309,东营市,市环保局,颗粒物(PM10),54,58,136,5,46,128,81,119,85,16,20,7,9,0.6,0.7
2023-03-11T19:00:00,1669A,113.5824,24.7733,韶关市,市八中,颗粒物(PM10),53,56,63,30,33,151,124,134,131,22,30,14,17,0.6,0.6
2023-03-11T19:00:00,1671A,113.5917,24.7972,韶关市,园林处,颗粒物(PM10),57,64,66,38,36,129,129,121,121,18,27,14,14,0.5,0.7
2023-03-11T19:00:00,1672A,113.6735,24.7791,韶关市,韶关学院,,45,45,63,31,44,155,140,139,139,19,22,14,14,0.5,0.7
2023-03-11T19:00:00,1673A,113.5971,24.6863,韶关市,曲江监测站,,50,42,59,35,33,146,132,134,134,22,27,11,14,0.5,0.5
2023-03-11T19:00:00,1674A,116.6794,23.3667,汕头市,金平子站,,45,41,48,24,29,149,144,139,139,17,24,6,12,0.7,0.7
2023-03-11T19:00:00,1675A,116.7244,23.3633,汕头市,龙湖子站,"颗粒物(PM10),细颗粒物(PM2.5)",53,56,46,37,23,144,142,138,138,18,22,3,7,0.6,0.6
2023-03-11T19:00:00,1676A,116.7258,23.2775,汕头市,濠江子站,细颗粒物(PM2.5),59,62,44,42,26,143,128,132,132,28,21,10,12,0.6,0.7
2023-03-11T19:00:00,1677A,116.7519,23.4714,汕头市,澄海子站,细颗粒物(PM2.5),54,56,46,38,28,148,146,143,143,22,24,5,11,0.7,0.6
2023-03-11T19:00:00,1678A,116.6092,23.2539,汕头市,潮阳子站,颗粒物(PM10),59,68,49,33,22,133,133,112,112,15,20,6,9,0.6,0.7
2023-03-11T19:00:00,1680A,110.3539,21.2706,湛江市,湛江影剧院,,40,40,43,27,26,135,92,129,103,7,8,5,5,0.6,0.6
2023-03-11T19:00:00,1681A,110.3928,21.2228,湛江市,市环境监测站,,42,42,42,26,30,129,95,128,107,8,9,6,6,0.5,0.5
2023-03-11T19:00:00,1682A,110.4019,21.1997,湛江市,环保局宿舍,,42,36,40,29,28,142,96,135,112,7,7,5,5,0.4,0.5
2023-03-11T19:00:00,1683A,110.4111,21.2028,湛江市,霞山游泳场,,47,47,41,29,27,142,101,138,116,7,8,4,4,0.4,0.4
2023-03-11T19:00:00,1684A,110.3316,21.2679,湛江市,麻章区环保局,,49,49,51,22,27,142,89,136,106,13,11,5,6,0.4,0.5
2023-03-11T19:00:00,1685A,110.4558,21.2567,湛江市,坡头区环保局,,48,48,40,26,28,145,106,137,115,7,7,6,6,0.4,0.5
2023-03-11T19:00:00,1686A,111.0286,21.4688,茂名市,电白南海,颗粒物(PM10),51,51,54,31,33,149,100,149,107,13,13,6,7,0.4,0.5
2023-03-11T19:00:00,1687A,110.9294,21.6533,茂名市,茂石化七小,颗粒物(PM10),53,56,55,27,34,118,86,110,100,11,12,6,7,0.5,0.5
2023-03-11T19:00:00,1688A,110.9107,21.6687,茂名市,健康路,,44,44,49,18,27,125,87,121,103,11,11,6,8,0.6,0.6
2023-03-11T19:00:00,1689A,110.8592,21.6828,茂名市,高岭,,46,46,57,24,38,125,80,122,104,16,16,8,13,0.6,0.6
2023-03-11T19:00:00,1690A,116.1231,24.3284,梅州市,梅江月梅,细颗粒物(PM2.5),59,51,49,42,26,160,123,140,140,17,23,8,10,0.5,0.5
2023-03-11T19:00:00,1691A,116.0797,24.2719,梅州市,梅县新城,,43,43,52,28,28,141,105,131,131,27,28,6,8,0.6,0.5
2023-03-11T19:00:00,1692A,116.1248,24.2654,梅州市,环境监控中心,细颗粒物(PM2.5),72,50,51,52,29,163,83,138,135,54,36,10,10,0.8,0.6
2023-03-11T19:00:00,1693A,115.3653,22.775,汕尾市,市环保局,,47,47,39,24,24,142,121,124,124,11,11,9,10,0.5,0.5
2023-03-11T19:00:00,1694A,115.3706,22.7898,汕尾市,市政府,,50,50,54,24,27,141,123,125,125,14,15,10,11,0.5,0.5
2023-03-11T19:00:00,1695A,115.3622,22.7925,汕尾市,新城中学,,,,47,28,26,141,125,125,125,10,12,6,7,0.5,0.4
2023-03-11T19:00:00,1696A,114.6778,23.7569,河源市,源西,颗粒物(PM10),64,77,60,34,26,153,89,130,129,51,32,6,8,0.7,0.6
2023-03-11T19:00:00,1697A,114.6944,23.7586,河源市,东埔,,,,69,37,29,148,128,127,127,16,22,,7,0.7,0.6
2023-03-11T19:00:00,1698A,114.6892,23.7233,河源市,老城,颗粒物(PM10),73,95,75,43,27,160,130,139,139,23,20,5,7,0.8,0.7
2023-03-11T19:00:00,1699A,111.9797,21.8593,阳江市,鸳鸯湖,,32,32,43,17,36,162,100,131,106,4,13,6,7,0.7,0.8
2023-03-11T19:00:00,1701A,111.9491,21.8658,阳江市,马南垌,,40,40,54,12,32,160,98,126,104,5,15,5,6,0.5,0.5
2023-03-11T19:00:00,1702A,113.0426,23.691,清远市,环保大楼,"细颗粒物(PM2.5),臭氧1小时",70,67,63,51,43,220,176,176,176,30,34,7,9,0.7,0.6
2023-03-11T19:00:00,1703A,113.0208,23.7106,清远市,凤城街办,颗粒物(PM10),66,81,69,40,37,173,142,140,140,26,26,6,7,0.8,0.6
2023-03-11T19:00:00,1705A,116.6367,23.6719,潮州市,西园路,细颗粒物(PM2.5),72,75,47,52,32,170,129,139,139,22,16,6,4,0.7,0.5
2023-03-11T19:00:00,1706A,116.6447,23.6706,潮州市,档案局,细颗粒物(PM2.5),84,63,47,62,28,181,124,148,148,19,14,11,10,0.6,0.5
2023-03-11T19:00:00,1708A,116.3701,23.5345,揭阳市,新兴,颗粒物(PM10),61,72,61,38,35,174,108,140,140,29,28,10,10,0.8,0.6
2023-03-11T19:00:00,1709A,116.3264,23.5443,揭阳市,西马,颗粒物(PM10),64,78,65,38,36,168,114,142,142,18,26,10,12,0.6,0.6
2023-03-11T19:00:00,1710A,116.3611,23.5626,揭阳市,东兴,颗粒物(PM10),61,71,58,36,30,188,127,163,156,22,37,7,10,0.8,0.7
2023-03-11T19:00:00,1711A,116.4151,23.5294,揭阳市,渔湖,颗粒物(PM10),59,68,60,34,37,181,121,147,147,20,28,14,12,1.1,0.7
2023-03-11T19:00:00,1712A,112.0392,22.9169,云浮市,新市府,,42,41,36,29,26,143,88,114,111,7,9,3,5,0.7,0.7
2023-03-11T19:00:00,1714A,112.0539,22.9539,云浮市,牧羊,,50,50,52,34,28,140,84,109,107,23,29,7,9,0.6,0.6
2023-03-11T19:00:00,1715A,102.575,24.3711,玉溪市,东风水库,颗粒物(PM10),62,74,54,31,57,125,113,112,112,14,17,11,11,0.8,0.9
2023-03-11T19:00:00,1718A,115.4208,35.2464,菏泽市,气象局,颗粒物(PM10),95,139,354,13,38,106,74,80,79,24,24,4,11,0.3,0.4
2023-03-11T19:00:00,1719A,115.4747,35.2375,菏泽市,市政协,颗粒物(PM10),89,128,335,16,36,120,79,87,86,17,20,4,9,0.4,0.5
2023-03-11T19:00:00,1721A,113.3819,40.1097,大同市,果树场,,,,,,,,,,,,,,,,
2023-03-11T19:00:00,1723A,113.2994,40.0758,大同市,云冈宾馆,颗粒物(PM10),200,349,126,24,18,94,82,78,78,9,17,7,11,0.2,0.5
2023-03-11T19:00:00,1724A,113.3444,40.0917,大同市,大同大学,颗粒物(PM10),478,578,130,20,18,92,70,76,76,133,23,7,14,0.2,0.7
2023-03-11T19:00:00,1725A,113.2661,40.1269,大同市,安家小村,颗粒物(PM10),353,462,134,32,29,92,80,78,76,6,12,4,8,0.3,0.6
2023-03-11T19:00:00,1726A,113.2711,40.0844,大同市,教育学院,颗粒物(PM10),350,460,122,58,17,84,77,74,72,9,17,5,9,0.3,0.5
2023-03-11T19:00:00,1727A,113.1147,36.1547,长治市,清华站,颗粒物(PM10),55,59,218,12,41,103,76,89,83,21,29,6,8,0.6,0.6
2023-03-11T19:00:00,1728A,113.1031,36.1989,长治市,监测站,颗粒物(PM10),56,62,200,17,44,89,64,76,72,22,28,4,6,0.6,0.6
2023-03-11T19:00:00,1730A,113.0886,36.2125,长治市,审计局,颗粒物(PM10),51,51,213,12,43,96,71,82,76,19,32,8,9,0.5,0.5
2023-03-11T19:00:00,1731A,113.0844,36.1856,长治市,长治八中,颗粒物(PM10),57,64,211,10,41,87,58,76,70,24,30,6,7,0.3,0.4
2023-03-11T19:00:00,1733A,111.5531,36.0783,临汾市,临钢医院,颗粒物(PM10),71,92,309,26,61,87,67,76,76,24,36,2,8,0.5,1
2023-03-11T19:00:00,1734A,111.5028,36.0714,临汾市,技工学校,颗粒物(PM10),80,109,279,37,57,85,56,74,74,34,42,4,10,0.5,0.6
2023-03-11T19:00:00,1736A,111.5018,36.0855,临汾市,市委,,,109,305,28,57,98,64,85,85,,36,2,5,0.4,0.7
2023-03-11T19:00:00,1738A,113.5758,37.8572,阳泉市,市中心,颗粒物(PM10),103,155,369,30,53,72,72,66,66,15,43,7,12,0.5,0.6
2023-03-11T19:00:00,1739A,113.4894,37.8731,阳泉市,赛鱼,颗粒物(PM10),108,165,359,37,60,71,61,65,63,30,48,9,11,0.5,0.6
2023-03-11T19:00:00,1740A,113.5819,37.8486,阳泉市,南庄,颗粒物(PM10),119,188,383,35,62,78,73,78,69,16,35,9,12,0.6,0.7
2023-03-11T19:00:00,1742A,113.5614,37.8703,阳泉市,平坦,颗粒物(PM10),122,193,371,35,58,73,69,69,69,21,46,8,11,0.6,0.7
2023-03-11T19:00:00,1743A,113.5158,37.8392,阳泉市,大阳泉,颗粒物(PM10),100,150,385,43,69,111,75,100,71,16,23,6,8,0.5,0.6
2023-03-11T19:00:00,1744A,118.9233,42.2816,赤峰市,松山一中,,46,46,50,20,11,81,58,80,67,31,19,26,13,0.6,0.5
2023-03-11T19:00:00,1745A,118.9576,42.2728,赤峰市,哈达街,颗粒物(PM10),56,62,53,21,14,84,39,82,64,51,19,57,19,0.7,0.5
2023-03-11T19:00:00,1746A,118.8788,42.2554,赤峰市,天义路,,44,44,45,20,8,81,58,81,68,27,15,17,15,0.7,0.7
2023-03-11T19:00:00,1748A,123.044,41.1196,鞍山市,深沟寺,颗粒物(PM10),63,76,117,17,22,121,65,74,72,20,15,10,10,0.5,0.5
2023-03-11T19:00:00,1749A,123.011,41.0931,鞍山市,太阳城,颗粒物(PM10),60,69,111,13,17,112,67,76,73,19,15,12,10,0.5,0.6
2023-03-11T19:00:00,1750A,123.0485,41.1442,鞍山市,太平,颗粒物(PM10),60,69,133,16,21,109,60,69,66,22,21,11,12,0.4,0.4
2023-03-11T19:00:00,1751A,122.9642,41.0971,鞍山市,铁西三道街,颗粒物(PM10),82,114,159,31,32,70,44,54,53,39,41,29,23,2.5,2
2023-03-11T19:00:00,1752A,122.9341,41.0833,鞍山市,铁西工业园区,颗粒物(PM10),65,80,144,22,31,72,58,67,60,34,42,24,28,0.6,1.5
2023-03-11T19:00:00,1753A,123.022,41.0821,鞍山市,明达新区,颗粒物(PM10),64,77,120,13,17,119,68,77,73,23,19,8,8,0.4,0.4
2023-03-11T19:00:00,1754A,123.1289,41.0228,鞍山市,千山,,,,,,,,,,,,,,,,
2023-03-11T19:00:00,1755A,123.7977,41.8491,抚顺市,望花区,,44,44,231,20,25,98,62,74,73,18,11,3,6,0.7,0.6
2023-03-11T19:00:00,1756A,123.9161,41.8822,抚顺市,顺城区,,45,45,226,21,21,132,81,93,90,11,8,5,5,0.6,0.5
2023-03-11T19:00:00,1757A,124.0436,41.8611,抚顺市,东洲区,,40,40,247,13,24,121,82,89,89,9,9,3,3,0.3,0.3
2023-03-11T19:00:00,1758A,123.9247,41.8642,抚顺市,新抚区,,39,39,258,20,28,115,73,80,78,12,11,6,7,0.5,0.4
2023-03-11T19:00:00,1759A,124.0972,41.8961,抚顺市,大伙房水库,,36,36,285,18,24,111,88,98,97,10,9,7,6,0.3,0.3
2023-03-11T19:00:00,1760A,123.7086,41.8391,抚顺市,沈抚新城,,36,36,209,12,23,106,73,82,80,10,9,6,7,0.4,0.4
2023-03-11T19:00:00,1761A,123.8275,41.3064,本溪市,大峪,颗粒物(PM10),71,91,208,14,22,100,63,74,73,17,12,5,5,0.5,0.6
2023-03-11T19:00:00,1762A,123.7567,41.3325,本溪市,溪湖,颗粒物(PM10),93,136,205,15,26,84,73,82,82,14,13,12,14,0.7,0.8
2023-03-11T19:00:00,1763A,123.7169,41.3094,本溪市,彩屯,颗粒物(PM10),87,123,191,16,23,99,66,74,74,19,15,12,11,0.7,0.6
2023-03-11T19:00:00,1764A,123.7669,41.2864,本溪市,东明,颗粒物(PM10),59,67,251,19,30,118,67,74,73,17,15,8,8,0.7,0.7
2023-03-11T19:00:00,1765A,123.7992,41.2664,本溪市,新立屯,颗粒物(PM10),62,74,251,15,24,96,69,80,79,19,20,7,7,0.4,0.4
2023-03-11T19:00:00,1766A,123.8142,41.3472,本溪市,威宁,颗粒物(PM10),55,60,244,16,25,80,66,76,75,10,11,6,5,0.4,0.4
2023-03-11T19:00:00,1767A,121.1115,41.0879,锦州市,南山,,33,33,90,17,19,83,62,80,75,26,16,9,7,0.6,0.6
2023-03-11T19:00:00,1768A,121.0533,40.8434,锦州市,开发区,,43,43,113,17,15,101,70,81,77,19,16,8,9,0.5,0.5
2023-03-11T19:00:00,1769A,121.1836,41.1119,锦州市,百股街道,,45,45,103,17,19,81,60,78,74,29,19,11,9,0.6,0.6
2023-03-11T19:00:00,1770A,121.1178,41.1222,锦州市,天安街道,,44,44,103,18,17,89,63,80,76,26,16,10,9,0.4,0.4
2023-03-11T19:00:00,1771A,121.1303,41.1386,锦州市,北湖公园,,34,34,82,16,15,81,64,78,75,21,14,10,10,0.6,0.5
2023-03-11T19:00:00,1772A,126.54,43.8622,吉林市,哈达湾,颗粒物(PM10),65,80,185,17,19,132,72,82,82,17,11,6,5,0.5,0.4
2023-03-11T19:00:00,1773A,126.5844,43.8358,吉林市,东局子,颗粒物(PM10),54,58,172,14,21,127,72,79,79,20,15,6,8,0.5,0.5
2023-03-11T19:00:00,1774A,126.5052,43.8245,吉林市,电力学院,颗粒物(PM10),75,100,158,26,22,137,75,89,88,16,8,10,7,0.7,0.5
2023-03-11T19:00:00,1775A,126.6133,43.8972,吉林市,江北,颗粒物(PM10),61,72,140,23,24,119,66,83,82,24,13,24,11,0.5,0.5
2023-03-11T19:00:00,1776A,126.555,43.8306,吉林市,江南公园,颗粒物(PM10),53,55,158,17,21,128,71,79,79,21,16,6,6,0.5,0.5
2023-03-11T19:00:00,1778A,126.7061,43.7133,吉林市,丰满,,,,,,,,,,,,,,,,
2023-03-11T19:00:00,1779A,123.9305,47.3636,齐齐哈尔市,安居小区,,28,28,44,11,11,92,83,92,90,1,2,4,4,0.3,0.2
2023-03-11T19:00:00,1780A,123.9488,47.3386,齐齐哈尔市,中心广场,,27,27,36,3,3,87,76,86,83,5,3,2,3,0.2,0.1
2023-03-11T19:00:00,1781A,123.9483,47.3227,齐齐哈尔市,农牧车辆厂,,31,31,66,8,9,82,74,80,79,4,6,3,4,0.2,0.2
2023-03-11T19:00:00,1783A,123.945,47.2988,齐齐哈尔市,市环境监测站,,30,30,54,18,8,84,77,82,82,5,5,5,6,0.3,0.3
2023-03-11T19:00:00,1784A,129.61,44.561,牡丹江市,环保大楼,颗粒物(PM10),74,97,55,33,23,83,72,81,79,16,11,4,4,0.4,0.3
2023-03-11T19:00:00,1785A,129.6115,44.5782,牡丹江市,文化广场,颗粒物(PM10),68,86,49,31,23,74,69,73,72,19,18,2,3,0.3,0.4
2023-03-11T19:00:00,1786A,129.5904,44.5963,牡丹江市,第一医院,颗粒物(PM10),72,94,64,15,28,81,75,79,78,12,12,1,3,0.3,0.4
2023-03-11T19:00:00,1787A,129.6364,44.6075,牡丹江市,机车工厂,颗粒物(PM10),73,95,64,23,19,80,74,78,77,14,15,3,2,0.4,0.5
2023-03-11T19:00:00,1788A,129.6386,44.5462,牡丹江市,第一中学,颗粒物(PM10),78,106,51,19,20,82,72,81,79,12,13,2,3,0.3,0.4
2023-03-11T19:00:00,1789A,124.81117,46.03138,大庆市,大同区,,46,46,166,20,27,97,70,88,86,6,5,2,2,0.4,0.4
2023-03-11T19:00:00,1790A,125.129,46.533,大庆市,龙凤区,,49,49,64,12,18,77,69,74,73,15,13,5,9,0.3,0.3
2023-03-11T19:00:00,1791A,124.902,46.408,大庆市,红岗区,,,55,87,13,15,85,71,84,82,10,7,,7,0.2,0.2
2023-03-11T19:00:00,1792A,125.153,46.586,大庆市,萨尔图区,,,,,,,,,,,,,,,,
2023-03-11T19:00:00,1793A,124.9042,46.6215,大庆市,让胡路区,颗粒物(PM10),52,54,73,21,23,90,77,87,85,8,5,4,3,0.1,0.1
2023-03-11T19:00:00,1794A,118.3606,31.3519,芜湖市,监测站,,28,28,85,19,46,75,66,56,56,56,104,5,13,0.6,1
2023-03-11T19:00:00,1795A,118.3714,31.4134,芜湖市,科创中心,,33,33,102,20,51,58,55,43,43,48,94,4,9,0.9,1.1
2023-03-11T19:00:00,1796A,118.3673,31.3131,芜湖市,四水厂,,27,26,89,17,45,65,65,46,46,53,95,6,12,0.5,0.9
2023-03-11T19:00:00,1798A,118.5092,31.6837,马鞍山市,湖东路四小,,30,23,87,21,50,90,74,61,50,29,67,8,13,0.8,1
2023-03-11T19:00:00,1799A,118.5024,31.6449,马鞍山市,开发区,,35,35,143,18,51,70,62,38,38,34,83,9,13,0.7,0.9
2023-03-11T19:00:00,1800A,118.5228,31.7231,马鞍山市,慈湖,,39,14,116,27,57,92,37,73,37,46,76,17,19,2.1,1.1
2023-03-11T19:00:00,1802A,118.6245,31.7241,马鞍山市,濮塘,颗粒物(PM10),51,51,78,34,42,146,40,108,31,44,41,5,9,1.0,1.1
2023-03-11T19:00:00,1803A,115.9872,29.6815,九江市,十里,,40,39,64,28,39,95,85,71,71,12,51,9,9,0.8,0.9
2023-03-11T19:00:00,1804A,115.9584,29.7046,九江市,茅山头,,48,48,60,28,41,90,83,74,74,23,56,10,11,0.7,0.9
2023-03-11T19:00:00,1805A,115.9877,29.7295,九江市,西园,,42,35,49,29,45,93,65,61,61,45,70,7,11,0.7,0.9
2023-03-11T19:00:00,1806A,116.0172,29.6547,九江市,五七二七厂,,47,47,45,32,38,131,45,86,65,20,24,7,8,0.6,0.6
2023-03-11T19:00:00,1808A,115.9114,29.6038,九江市,综合工业园,,50,50,64,27,41,63,63,54,54,34,68,10,11,0.4,0.9
2023-03-11T19:00:00,1809A,116.0721,29.7535,九江市,石化总厂,,40,40,63,27,39,110,60,63,63,39,61,7,12,0.7,0.9
2023-03-11T19:00:00,1810A,115.9773,29.5698,九江市,庐山气象台,,30,30,28,15,29,121,84,120,91,24,12,7,8,0.8,0.9
2023-03-11T19:00:00,1812A,112.3931,34.6516,洛阳市,市委党校,颗粒物(PM10),129,207,286,29,49,110,77,86,86,18,36,5,10,0.2,0.5
2023-03-11T19:00:00,1814A,112.4657,34.6871,洛阳市,豫西宾馆,颗粒物(PM10),273,401,274,37,56,107,91,96,96,9,29,1,5,0.7,0.9
2023-03-11T19:00:00,1815A,112.494,34.6886,洛阳市,河南林校,颗粒物(PM10),162,273,312,33,50,109,92,97,97,10,29,3,8,0.4,0.6
2023-03-11T19:00:00,1816A,112.3844,34.623,洛阳市,开发区管委会,颗粒物(PM10),126,202,273,34,52,113,87,96,96,12,24,4,8,0.2,0.4
2023-03-11T19:00:00,1817A,112.4267,34.6258,洛阳市,市委新办公区,颗粒物(PM10),157,263,272,29,58,106,86,92,92,16,28,3,8,0.3,0.5
2023-03-11T19:00:00,1818A,114.4839,36.0621,安阳市,棉研所,,,,,,,,,,,,,,,,
2023-03-11T19:00:00,1819A,114.3551,36.1017,安阳市,红庙街,,,,368,,53,122,71,84,82,24,24,6,10,0.5,0.5
2023-03-11T19:00:00,1820A,114.361,36.0681,安阳市,银杏小区,颗粒物(PM10),70,90,390,26,51,250,73,155,81,17,22,6,9,0.3,0.4
2023-03-11T19:00:00,1824A,114.3389,34.7781,开封市,肿瘤医院,颗粒物(PM10),140,229,437,21,42,99,85,90,88,8,14,5,5,0.3,0.4
2023-03-11T19:00:00,1826A,114.2885,34.7965,开封市,世纪星幼儿园,颗粒物(PM10),117,183,342,27,40,102,77,85,82,,15,4,8,0.4,0.5
2023-03-11T19:00:00,1828A,113.227,35.2125,焦作市,市环保局,颗粒物(PM10),70,89,310,34,58,105,87,86,86,7,26,3,10,0.4,0.8
2023-03-11T19:00:00,1830A,113.1992,35.2590,焦作市,影视城,,,,,,,,,,,,,,,,
2023-03-11T19:00:00,1832A,113.3257,33.742,平顶山市,新华旅馆,颗粒物(PM10),146,242,246,39,46,110,81,97,97,16,18,4,6,0.3,0.4
2023-03-11T19:00:00,1833A,113.2919,33.737,平顶山市,规划设计院,颗粒物(PM10),200,350,307,34,42,110,85,98,98,8,12,2,4,0.3,0.5
2023-03-11T19:00:00,1834A,113.182,33.774,平顶山市,平顶山工学院,颗粒物(PM10),290,413,374,19,33,109,81,96,96,17,15,2,4,0.4,0.5
2023-03-11T19:00:00,1835A,111.1922,34.7752,三门峡市,市政府,颗粒物(PM10),100,150,272,36,54,90,90,79,79,14,57,6,14,0.4,0.8
2023-03-11T19:00:00,1836A,111.1587,34.7942,三门峡市,开发区,颗粒物(PM10),126,202,247,42,52,109,95,83,83,10,43,2,8,0.4,0.8
2023-03-11T19:00:00,1838A,111.143,34.7955,三门峡市,风景区,,,,,,,,,,,,,,,,
2023-03-11T19:00:00,1840A,111.2992,30.6981,宜昌市,白龙岗,,,,32,,16,117,88,95,95,32,31,6,11,0.6,0.5
2023-03-11T19:00:00,1841A,111.3549,30.6465,宜昌市,伍家岗,颗粒物(PM10),54,57,40,27,19,142,122,116,116,21,37,12,9,0.5,0.5
2023-03-11T19:00:00,1842A,111.2628,30.6961,宜昌市,点军区,,,59,41,27,18,139,,94,94,20,20,8,5,0.6,0.5
2023-03-11T19:00:00,1843A,111.3275,30.7819,宜昌市,夷陵区,,42,42,35,24,18,126,109,106,106,25,30,9,7,0.5,0.5
2023-03-11T19:00:00,1844A,112.2494,30.3197,荆州市,市图书馆,细颗粒物(PM2.5),52,33,43,36,33,148,129,126,126,17,30,5,7,0.7,0.7
2023-03-11T19:00:00,1845A,112.2008,30.3544,荆州市,市委党校,细颗粒物(PM2.5),54,39,40,38,28,152,132,129,129,16,26,6,8,0.6,0.7
2023-03-11T19:00:00,1847A,113.1094,29.3578,岳阳市,南湖风景区,细颗粒物(PM2.5),55,54,62,39,43,136,122,121,121,14,25,8,9,0.7,0.7
2023-03-11T19:00:00,1848A,113.1493,29.4251,岳阳市,城陵矶,细颗粒物(PM2.5),54,54,65,38,40,132,117,110,110,28,47,3,6,0.5,0.6
2023-03-11T19:00:00,1849A,113.1497,29.3575,岳阳市,开发区,细颗粒物(PM2.5),52,44,57,36,39,138,126,119,119,20,31,9,9,0.4,0.6
2023-03-11T19:00:00,1850A,113.2621,29.4758,岳阳市,云溪区,,46,44,57,32,36,138,131,121,121,12,30,8,10,0.6,0.7
2023-03-11T19:00:00,1851A,112.9943,29.4402,岳阳市,君山区,细颗粒物(PM2.5),64,48,52,46,46,147,125,126,126,18,23,9,10,0.8,0.8
2023-03-11T19:00:00,1852A,113.2117,29.355,岳阳市,金凤水库,颗粒物(PM10),53,56,57,31,34,136,125,119,119,12,25,2,3,0.6,0.6
2023-03-11T19:00:00,1854A,111.6975,28.9703,常德市,市二中,,50,38,46,35,37,128,115,109,109,12,12,5,6,0.6,0.6
2023-03-11T19:00:00,1857A,111.7158,29.1456,常德市,白鹤山,,36,36,34,24,25,125,103,109,109,11,9,6,6,0.5,0.5
2023-03-11T19:00:00,1858A,110.5319,29.1217,张家界市,永定新区,,42,42,31,19,20,114,99,100,100,7,8,4,3,0.3,0.3
2023-03-11T19:00:00,1859A,110.4697,29.1242,张家界市,电业局,,38,34,31,26,26,116,92,96,96,14,12,5,5,0.5,0.4
2023-03-11T19:00:00,1860A,110.5594,29.3547,张家界市,未央路,,37,35,27,24,20,121,116,109,109,6,10,7,6,0.4,0.5
2023-03-11T19:00:00,1861A,110.4417,29.315,张家界市,袁家界,,38,17,21,23,16,125,120,118,118,8,6,8,7,0.5,0.6
2023-03-11T19:00:00,1862A,110.4144,25.3167,桂林市,电子科大尧山校区,颗粒物(PM10),57,64,57,38,42,149,119,136,136,17,11,32,5,0.6,0.7
2023-03-11T19:00:00,1863A,110.2819,25.2697,桂林市,监测站,颗粒物(PM10),55,59,103,28,67,137,88,128,122,45,35,6,13,0.8,1
2023-03-11T19:00:00,1864A,110.3089,25.2708,桂林市,龙隐路小学,颗粒物(PM10),53,55,87,34,64,143,94,129,129,42,30,11,15,0.7,0.9
2023-03-11T19:00:00,1865A,110.2869,25.2178,桂林市,八中,细颗粒物(PM2.5),57,59,85,40,60,138,96,126,126,41,37,5,9,1.0,1.1
2023-03-11T19:00:00,1866A,109.2262,21.588,北海市,牛尾岭水库,,33,29,40,20,25,120,105,116,115,7,8,9,10,0.4,0.5
2023-03-11T19:00:00,1867A,109.1436,21.4086,北海市,海滩公园,,44,44,44,20,21,141,119,129,128,7,6,5,7,0.7,0.6
2023-03-11T19:00:00,1868A,109.0981,21.4661,北海市,新市环保局,,38,38,40,22,24,140,108,119,116,13,10,2,4,0.5,0.5
2023-03-11T19:00:00,1869A,109.1778,21.5233,北海市,北海工业园,,37,37,51,20,27,141,115,122,121,8,10,4,8,0.5,0.5
2023-03-11T19:00:00,1870A,109.4856,24.3895,柳州市,柳东小学,细颗粒物(PM2.5),84,96,61,62,45,125,99,113,109,25,19,9,8,0.7,0.3
2023-03-11T19:00:00,1871A,109.4157,24.3277,柳州市,环保监测站,颗粒物(PM10),60,69,61,32,37,122,98,111,111,28,18,8,7,0.7,0.6
2023-03-11T19:00:00,1872A,109.389,24.341,柳州市,河西水厂,,,,,,,,,,,,,,,,
2023-03-11T19:00:00,1873A,109.4311,24.2921,柳州市,市四中,颗粒物(PM10),63,76,57,36,34,124,74,114,112,42,20,13,10,1.0,0.8
2023-03-11T19:00:00,1874A,109.4006,24.3631,柳州市,市九中,颗粒物(PM10),74,98,72,43,38,112,95,104,102,24,22,11,9,0.8,0.8
2023-03-11T19:00:00,1875A,109.4958,24.3134,柳州市,古亭山,颗粒物(PM10),59,67,56,37,32,123,77,113,105,36,22,13,6,0.6,0.5
2023-03-11T19:00:00,1876A,109.5078,18.2489,三亚市,河东子站,,40,40,38,23,19,105,76,96,91,7,7,2,2,0.6,0.5
2023-03-11T19:00:00,1877A,109.4964,18.2681,三亚市,河西子站,,34,34,36,22,20,111,80,101,98,5,6,3,3,0.3,0.3
2023-03-11T19:00:00,1878A,104.7778,31.4741,绵阳市,富乐山,颗粒物(PM10),66,82,37,32,26,129,89,115,115,4,12,4,5,0.3,0.5
2023-03-11T19:00:00,1879A,104.7563,31.4535,绵阳市,市人大,细颗粒物(PM2.5),70,68,43,51,32,122,81,107,107,15,34,5,6,0.4,0.6
2023-03-11T19:00:00,1880A,104.6697,31.4668,绵阳市,高新区自来水公司,,,,57,17,32,134,88,115,115,8,39,4,6,,0.6
2023-03-11T19:00:00,1881A,104.7287,31.5075,绵阳市,三水厂,颗粒物(PM10),83,115,66,32,28,128,86,111,111,10,36,2,4,0.2,0.5
2023-03-11T19:00:00,1882A,104.563,28.793,宜宾市,石马中学,,49,41,66,34,47,137,114,121,121,26,36,6,8,0.6,0.7
2023-03-11T19:00:00,1883A,104.6201,28.7728,宜宾市,市委,,,56,77,41,54,144,,128,128,28,45,10,10,0.6,0.8
2023-03-11T19:00:00,1884A,104.6055,28.793,宜宾市,宜宾四中,颗粒物(PM10),55,59,85,38,58,142,110,126,126,32,49,7,12,0.7,0.8
2023-03-11T19:00:00,1885A,104.639,28.7562,宜宾市,市政府,颗粒物(PM10),57,63,89,39,56,158,132,132,132,29,54,10,10,0.5,0.7
2023-03-11T19:00:00,1886A,104.5742,28.7199,宜宾市,黄金嘴,细颗粒物(PM2.5),54,54,76,38,52,164,127,136,136,26,44,9,11,0.5,0.7
2023-03-11T19:00:00,1888A,101.6891,26.571,攀枝花市,弄弄坪,,50,49,58,35,34,162,133,143,143,22,23,13,15,0.9,1
2023-03-11T19:00:00,1889A,101.5769,26.5928,攀枝花市,河门口,颗粒物(PM10),54,58,55,34,31,157,144,140,140,14,26,17,19,0.9,1.3
2023-03-11T19:00:00,1890A,101.7169,26.585,攀枝花市,炳草岗,颗粒物(PM10),53,55,65,32,32,161,133,140,140,28,38,17,17,1.1,1.3
2023-03-11T19:00:00,1891A,101.7369,26.5008,攀枝花市,仁和,颗粒物(PM10),60,70,50,41,32,163,85,138,138,51,22,15,12,1.4,0.9
2023-03-11T19:00:00,1893A,105.4324,28.9634,泸州市,九狮山,细颗粒物(PM2.5),52,42,70,36,41,139,126,122,122,15,26,9,14,0.5,0.4
2023-03-11T19:00:00,1894A,105.4427,28.9063,泸州市,小市上码头,,49,44,89,34,57,146,134,124,124,14,32,7,13,0.8,0.9
2023-03-11T19:00:00,1895A,105.4241,28.8573,泸州市,兰田宪桥,细颗粒物(PM2.5),57,42,90,40,67,163,120,135,135,20,36,10,16,0.7,0.7
2023-03-11T19:00:00,1896A,105.4379,28.8833,泸州市,市环监站,,45,41,81,31,52,143,118,121,121,35,45,5,11,0.6,0.7
2023-03-11T19:00:00,1901A,104.4239,31.1208,德阳市,东山公园,,38,37,42,26,32,125,117,116,116,15,18,3,6,0.4,0.5
2023-03-11T19:00:00,1902A,104.3826,31.1317,德阳市,西小区,,48,46,63,33,45,128,95,113,113,24,36,2,4,0.5,0.6
2023-03-11T19:00:00,1904A,104.3553,31.1091,德阳市,耐火材料厂,颗粒物(PM10),55,59,83,37,56,132,102,110,110,21,36,2,4,0.5,0.7
2023-03-11T19:00:00,1905A,106.056,30.8064,南充市,西山风景区,,,42,25,28,23,121,112,103,103,,17,7,8,0.6,0.6
2023-03-11T19:00:00,1906A,106.0789,30.8023,南充市,南充市委,,50,50,42,21,21,116,98,101,101,30,29,11,11,0.6,0.6
2023-03-11T19:00:00,1907A,106.1031,30.8217,南充市,南充炼油厂,颗粒物(PM10),52,53,44,26,24,117,95,100,100,31,23,10,11,0.4,0.4
2023-03-11T19:00:00,1908A,106.1064,30.7856,南充市,高坪区监测站,细颗粒物(PM2.5),52,51,44,36,30,113,89,96,96,36,29,10,14,0.6,0.6
2023-03-11T19:00:00,1909A,106.0642,30.7636,南充市,嘉陵区环保局,颗粒物(PM10),52,53,37,27,23,118,85,103,103,48,34,10,11,0.9,0.6
2023-03-11T19:00:00,1910A,106.1087,30.8388,南充市,市环境监测站,颗粒物(PM10),52,54,47,29,30,118,96,98,98,41,30,10,12,0.5,0.5
2023-03-11T19:00:00,1911A,106.9222,27.6869,遵义市,丁字口,,48,48,38,29,30,126,87,118,117,34,26,26,17,0.8,0.7
2023-03-11T19:00:00,1912A,106.9242,27.7019,遵义市,凤凰山,细颗粒物(PM2.5),55,47,47,39,30,130,122,125,125,16,19,5,7,0.6,0.6
2023-03-11T19:00:00,1913A,106.8906,27.6486,遵义市,忠庄,,50,50,53,33,34,121,103,115,115,22,20,4,5,0.4,0.5
2023-03-11T19:00:00,1914A,106.9231,27.6506,遵义市,舟水桥,细颗粒物(PM2.5),59,48,50,42,35,126,108,121,118,18,16,12,9,0.6,0.6
2023-03-11T19:00:00,1915A,106.9178,27.72,遵义市,干田坝,细颗粒物(PM2.5),57,32,38,40,32,126,114,118,118,18,19,8,9,0.6,0.7
2023-03-11T19:00:00,1916A,103.7897,25.5035,曲靖市,环境监测站,颗粒物(PM10),79,107,81,40,48,175,117,152,152,14,23,8,16,0.7,0.8
2023-03-11T19:00:00,1917A,103.8,25.5364,曲靖市,烟厂办公区,颗粒物(PM10),62,73,79,42,43,182,122,159,155,15,23,4,14,0.6,0.8
2023-03-11T19:00:00,1918A,108.7197,34.3956,咸阳市,气象站,颗粒物(PM10),53,55,179,12,56,87,87,79,79,16,63,8,10,0.2,0.5
2023-03-11T19:00:00,1919A,108.673,34.3155,咸阳市,实验中学,颗粒物(PM10),56,61,200,15,55,100,94,84,84,8,55,5,7,0.0,0.4
2023-03-11T19:00:00,1920A,108.7233,34.3617,咸阳市,师范学院,颗粒物(PM10),68,85,186,17,54,89,89,83,83,12,56,5,6,0.4,0.6
2023-03-11T19:00:00,1922A,109.0656,35.0994,铜川市,党校,颗粒物(PM10),58,65,303,17,41,92,61,88,85,27,29,13,14,0.6,0.6
2023-03-11T19:00:00,1923A,109.0697,35.0697,铜川市,王益区政府,颗粒物(PM10),58,65,232,28,44,89,49,84,81,40,24,6,7,0.4,0.4
2023-03-11T19:00:00,1924A,108.9344,34.9058,铜川市,新区管委会,,48,48,270,25,50,99,72,93,91,22,17,7,8,0.4,0.4
2023-03-11T19:00:00,1926A,109.4131,36.6275,延安市,枣园,颗粒物(PM10),95,140,252,24,40,99,98,96,96,12,30,5,6,0.3,0.4
2023-03-11T19:00:00,1927A,109.4761,36.6028,延安市,延大医附院,颗粒物(PM10),82,113,223,26,52,93,87,91,91,11,31,2,3,0.4,0.4
2023-03-11T19:00:00,1929A,109.5056,36.6106,延安市,百米大道,颗粒物(PM10),96,142,272,27,55,90,86,86,86,9,33,2,4,0.2,0.5
2023-03-11T19:00:00,1930A,107.185,34.3063,宝鸡市,庙沟村,,39,24,226,27,46,98,69,81,78,13,14,4,5,0.2,0.3
2023-03-11T19:00:00,1931A,107.0708,34.3017,宝鸡市,竹园沟,,24,21,170,15,35,96,74,88,88,12,16,4,4,0.4,0.4
2023-03-11T19:00:00,1932A,107.1906,34.3672,宝鸡市,三陆医院,,31,31,207,10,43,94,68,87,86,29,38,5,8,0.4,0.6
2023-03-11T19:00:00,1933A,107.1431,34.3547,宝鸡市,监测站,,33,33,195,16,44,92,73,84,84,17,27,3,5,0.3,0.4
2023-03-11T19:00:00,1934A,107.1186,34.3739,宝鸡市,技工学校,,38,38,195,13,54,90,75,84,84,16,30,5,9,0.3,0.4
2023-03-11T19:00:00,1935A,107.3906,34.3528,宝鸡市,陈仓区环保局家属楼,,35,35,216,23,53,88,64,82,81,26,32,4,10,0.4,0.5
2023-03-11T19:00:00,1936A,107.2058,34.3497,宝鸡市,文理学院,,39,39,228,18,48,92,69,85,84,27,35,6,9,0.3,0.4
2023-03-11T19:00:00,1937A,107.2386,34.3622,宝鸡市,三迪小学,,48,48,225,20,52,94,67,87,85,32,35,8,11,0.4,0.5
2023-03-11T19:00:00,1938A,109.5293,34.5101,渭南市,农科所,颗粒物(PM10),68,85,243,24,53,88,88,80,80,17,57,5,9,0.5,0.7
2023-03-11T19:00:00,1939A,109.4974,34.4877,渭南市,日报社,颗粒物(PM10),64,78,241,27,64,88,88,82,82,14,55,5,10,0.3,0.6
2023-03-11T19:00:00,1940A,109.4636,34.493,渭南市,体育馆,颗粒物(PM10),63,75,242,20,64,97,97,86,86,11,54,4,9,0.3,0.5
2023-03-11T19:00:00,1941A,109.4259,34.5023,渭南市,高新一小,颗粒物(PM10),73,95,256,13,67,95,95,82,82,9,50,6,10,0.3,0.6
2023-03-11T19:00:00,1943A,102.1725,38.5339,金昌市,新川苑,,40,40,62,5,8,103,96,102,96,11,8,5,5,0.6,0.5
2023-03-11T19:00:00,1944A,102.1692,38.5167,金昌市,天庆家园,,34,34,49,12,11,97,92,95,90,7,6,5,6,0.4,0.4
2023-03-11T19:00:00,1945A,98.2908,39.7711,嘉峪关市,气象局,颗粒物(PM10),57,63,50,9,12,98,94,93,93,7,10,3,12,0.0,0.1
2023-03-11T19:00:00,1947A,106.3394,38.817,石嘴山市,沙湖旅游区,颗粒物(PM10),256,389,364,48,55,89,60,84,73,72,51,20,16,0.2,0.5
2023-03-11T19:00:00,1948A,106.3668,39.0145,石嘴山市,大武口朝阳西街,颗粒物(PM10),243,380,358,46,50,94,81,90,88,7,3,4,5,0.1,0.1
2023-03-11T19:00:00,1949A,106.7704,39.2282,石嘴山市,惠农南大街,颗粒物(PM10),249,384,359,61,51,91,76,87,84,15,17,7,16,0.3,0.4
2023-03-11T19:00:00,1950A,106.7099,39.1325,石嘴山市,红果子镇惠新街,颗粒物(PM10),226,368,352,56,56,94,83,89,88,7,10,9,12,,0.5
2023-03-11T19:00:00,1951A,84.895,45.6094,克拉玛依市,长征新村,,,18,45,7,6,92,,82,82,6,6,7,5,0.3,0.2
2023-03-11T19:00:00,1952A,84.8988,45.5893,克拉玛依市,南林小区,,29,17,47,15,11,93,92,85,85,8,14,5,5,0.1,0.1
2023-03-11T19:00:00,1954A,84.905,44.3396,克拉玛依市,独山子区,,29,26,39,12,14,94,92,79,79,9,16,11,7,0.6,0.6
2023-03-11T19:00:00,1955A,85.6979,46.098,克拉玛依市,乌尔禾区商贸楼,,31,6,26,3,8,99,99,87,87,3,10,6,3,0.3,0.3
2023-03-11T19:00:00,1956A,86.1472,41.7538,巴音郭楞州,孔雀公园,颗粒物(PM10),83,116,551,12,111,99,97,94,94,7,14,2,2,0.3,0.4
2023-03-11T19:00:00,1957A,86.1972,41.7166,巴音郭楞州,棉纺厂,颗粒物(PM10),89,127,601,25,134,93,91,86,86,8,19,2,2,0.3,0.4
2023-03-11T19:00:00,1958A,86.2357,41.7173,巴音郭楞州,经济开发区,颗粒物(PM10),103,155,674,16,125,96,95,88,88,6,16,4,4,0.2,0.3
2023-03-11T19:00:00,1961A,117.532,36.6868,济南市,东山小学,颗粒物(PM10),68,85,176,15,24,143,71,130,82,16,14,14,10,0.4,0.5
2023-03-11T19:00:00,1966A,120.0405,35.8735,青岛市,黄岛区4号,颗粒物(PM10),103,155,104,41,51,144,78,124,119,36,41,6,8,0.7,0.8
2023-03-11T19:00:00,1982A,122.0693,37.2174,威海市,文登开发区,颗粒物(PM10),89,127,140,22,57,174,69,167,75,24,24,5,5,0.4,0.6
2023-03-11T19:00:00,2031A,113.1817,27.9958,株洲市,云田中学,细颗粒物(PM2.5),114,58,47,86,48,197,24,74,67,48,20,5,6,0.9,0.7
2023-03-11T19:00:00,2054A,114.1099,32.1059,信阳市,平桥分局,颗粒物(PM10),219,363,134,55,42,134,94,124,122,15,19,9,11,0.6,0.8
2023-03-11T19:00:00,2064A,113.9956,32.1271,信阳市,南湾水厂,颗粒物(PM10),178,306,119,34,31,138,90,129,124,16,11,8,10,0.5,0.6
2023-03-11T19:00:00,2065A,114.0775,32.1195,信阳市,市酿酒公司,颗粒物(PM10),156,261,109,44,41,138,95,129,125,14,15,9,10,0.4,0.6
2023-03-11T19:00:00,2066A,114.0609,32.1399,信阳市,审计局,颗粒物(PM10),169,288,124,49,47,140,96,130,126,18,18,8,10,0.5,0.7
2023-03-11T19:00:00,2067A,114.6613,33.6128,周口市,市环境监测站,颗粒物(PM10),195,339,284,23,40,114,78,93,93,14,21,6,8,0.4,0.6
2023-03-11T19:00:00,2068A,114.6758,33.6347,周口市,周口师范,颗粒物(PM10),216,361,287,20,37,117,81,96,96,21,25,6,8,0.2,0.5
2023-03-11T19:00:00,2069A,114.6546,33.5979,周口市,市运管处,颗粒物(PM10),172,293,274,22,36,120,82,97,97,17,27,5,7,0.3,0.5
2023-03-11T19:00:00,2070A,114.6369,33.6406,周口市,川汇区环保局,颗粒物(PM10),193,335,291,19,41,123,81,95,95,18,21,3,5,0.3,0.5
2023-03-11T19:00:00,2075A,117.6336,24.4674,漳州市,九湖,,,,,,,,,,,,,,,,
2023-03-11T19:00:00,2160A,112.85,35.5051,晋城市,自来水公司,颗粒物(PM10),66,82,263,9,47,109,93,92,92,14,37,7,16,0.4,1.2
2023-03-11T19:00:00,2161A,112.8318,35.4936,晋城市,白云商贸,颗粒物(PM10),54,57,250,5,44,107,90,91,91,3,26,3,11,0.4,1.2
2023-03-11T19:00:00,2162A,112.8508,35.4887,晋城市,市环保局,颗粒物(PM10),60,69,267,9,51,110,95,94,94,4,38,5,13,0.4,1.1
2023-03-11T19:00:00,2163A,112.8676,35.4897,晋城市,技术学院,颗粒物(PM10),52,53,270,14,51,106,93,91,91,10,43,4,11,0.2,0.6
2023-03-11T19:00:00,2165A,112.8453,35.546,晋城市,白马寺,,,,,,,,,,,,,,,,
2023-03-11T19:00:00,2166A,112.4397,39.3522,朔州市,平朔,颗粒物(PM10),500,830,258,42,35,81,68,74,74,6,20,4,11,0.3,0.5
2023-03-11T19:00:00,2167A,112.4575,39.3617,朔州市,朔唯,颗粒物(PM10),500,798,265,51,51,87,72,77,77,3,21,9,15,0.1,0.3
2023-03-11T19:00:00,2168A,112.4258,39.3197,朔州市,区政府,颗粒物(PM10),500,758,241,45,26,81,68,73,73,5,16,4,9,0.0,0.4
2023-03-11T19:00:00,2169A,112.4072,39.3278,朔州市,市环保局,颗粒物(PM10),500,755,230,57,34,82,70,73,73,8,18,3,9,0.1,0.3
2023-03-11T19:00:00,2170A,112.4272,39.3681,朔州市,市二中,颗粒物(PM10),500,851,237,41,33,82,69,74,74,7,20,4,11,0.4,0.5
2023-03-11T19:00:00,2171A,112.7532,37.6945,晋中市,锦纶小区,颗粒物(PM10),85,119,456,31,66,80,77,69,69,21,34,6,6,0.3,0.3
2023-03-11T19:00:00,2173A,112.7249,37.7067,晋中市,南都小区,颗粒物(PM10),92,134,466,33,62,82,76,68,68,18,26,8,8,0.3,0.3
2023-03-11T19:00:00,2174A,112.6991,37.6982,晋中市,榆次区政府,颗粒物(PM10),90,130,426,24,55,82,72,66,66,23,29,8,8,0.3,0.4
2023-03-11T19:00:00,2175A,110.9956,35.0147,运城市,运城中学,颗粒物(PM10),88,126,397,22,77,98,89,80,80,6,32,5,14,0.3,1.1
2023-03-11T19:00:00,2178A,110.9686,35.0303,运城市,地区技校,颗粒物(PM10),88,125,416,16,78,94,92,85,85,13,54,4,14,1.5,1.9
2023-03-11T19:00:00,2179A,111.0414,35.1147,运城市,空港新区,颗粒物(PM10),96,141,428,31,107,103,96,90,90,10,50,6,32,0.4,1.7
2023-03-11T19:00:00,2181A,112.7383,38.4519,忻州市,开发区,颗粒物(PM10),123,195,271,40,45,73,42,65,62,36,20,5,6,0.2,0.4
2023-03-11T19:00:00,2182A,112.7003,38.4928,忻州市,会展中心,颗粒物(PM10),119,188,273,41,45,65,35,57,52,32,15,5,5,0.4,0.3
2023-03-11T19:00:00,2183A,111.1406,37.5211,吕梁市,环保局,颗粒物(PM10),187,323,319,11,44,90,88,77,77,7,45,7,10,0.5,0.6
2023-03-11T19:00:00,2185A,111.1297,37.5136,吕梁市,自来水公司,颗粒物(PM10),192,334,310,18,48,87,86,76,76,8,41,6,12,0.4,0.6
2023-03-11T19:00:00,2187A,106.8174,39.6973,乌海市,市林业局,颗粒物(PM10),131,212,212,43,37,90,86,89,88,7,10,8,9,0.5,0.5
2023-03-11T19:00:00,2188A,106.7907,39.6667,乌海市,中海勃湾学校,颗粒物(PM10),149,248,261,54,43,93,90,91,90,7,9,8,9,0.2,0.3
2023-03-11T19:00:00,2191A,122.2532,43.6801,通辽市,艺术职业学校,,48,48,64,29,15,80,65,79,77,23,13,8,6,0.6,0.3
2023-03-11T19:00:00,2192A,119.7594,49.2261,呼伦贝尔市,区环保局,,43,43,44,13,21,106,82,95,90,4,3,5,4,0.3,0.2
2023-03-11T19:00:00,2195A,107.4212,40.761,巴彦淖尔市,附二中,颗粒物(PM10),236,375,200,46,23,83,76,78,78,8,12,3,5,0.4,0.5
2023-03-11T19:00:00,2196A,107.37,40.7372,巴彦淖尔市,市环保大楼,颗粒物(PM10),238,376,179,48,26,87,81,84,84,10,12,2,4,0.6,0.6
2023-03-11T19:00:00,2197A,113.1306,40.9923,乌兰察布市,集宁新区,颗粒物(PM10),68,85,87,23,15,85,75,76,76,5,12,5,8,0.4,0.4
2023-03-11T19:00:00,2200A,122.0392,46.0656,兴安盟,胜华新制药厂,,35,35,81,12,20,88,81,86,85,11,11,3,3,0.5,0.4
2023-03-11T19:00:00,2201A,121.9504,46.0741,兴安盟,科右前旗环保局,,35,32,89,24,21,87,82,86,85,10,9,2,2,0.7,0.6
2023-03-11T19:00:00,2202A,116.1042,43.9317,锡林郭勒盟,市环保监测站,颗粒物(PM10),57,64,28,10,9,82,76,79,79,4,4,7,8,0.3,0.3
2023-03-11T19:00:00,2203A,116.0781,43.9311,锡林郭勒盟,市政府,颗粒物(PM10),53,56,29,12,9,85,69,81,80,16,6,9,9,0.2,0.2
2023-03-11T19:00:00,2204A,105.6467,38.8363,阿拉善盟,西城区西花园,颗粒物(PM10),123,196,247,33,44,102,88,94,94,8,8,8,8,0.5,0.5
2023-03-11T19:00:00,2205A,105.6985,38.8411,阿拉善盟,蒙二幼,颗粒物(PM10),163,275,325,51,59,100,88,93,93,8,7,8,8,0.3,0.3
2023-03-11T19:00:00,2206A,105.724,38.8516,阿拉善盟,环保局新楼,颗粒物(PM10),119,188,235,41,54,101,93,95,95,4,5,8,8,0.3,0.3
2023-03-11T19:00:00,2207A,121.6094,41.998,阜新市,工业园区,,41,41,77,11,17,89,80,86,84,18,16,8,7,0.7,0.7
2023-03-11T19:00:00,2208A,121.6697,42.0279,阜新市,长青街,,31,31,43,8,5,87,76,83,82,14,8,8,7,0.6,0.5
2023-03-11T19:00:00,2209A,121.6673,42.0705,阜新市,农业园区,,22,17,84,11,8,78,69,76,75,11,6,8,7,0.6,0.7
2023-03-11T19:00:00,2210A,121.6717,42.0224,阜新市,东苑,,31,31,113,14,8,85,72,82,80,14,8,7,4,0.5,0.4
2023-03-11T19:00:00,2211A,121.6506,42.0498,阜新市,玉龙新城,,30,30,99,11,12,83,71,79,70,12,13,7,8,0.6,0.4
2023-03-11T19:00:00,2212A,123.2,41.1953,辽阳市,宏伟区,,45,45,162,19,22,117,60,69,68,15,11,12,12,0.5,0.5
2023-03-11T19:00:00,2213A,123.1683,41.2495,辽阳市,新华园,,40,40,157,18,23,113,66,78,73,16,12,8,10,0.5,0.5
2023-03-11T19:00:00,2214A,123.2354,41.2639,辽阳市,滨河路,颗粒物(PM10),51,52,165,23,25,103,50,63,61,24,20,5,6,0.4,0.4
2023-03-11T19:00:00,2215A,123.149,41.2991,辽阳市,铁西工业园,,43,43,150,18,22,100,58,69,66,20,18,6,7,0.3,0.4
2023-03-11T19:00:00,2216A,123.8139,42.3022,铁岭市,汇工街西,,43,43,226,28,28,137,78,86,85,13,10,8,5,0.3,0.1
2023-03-11T19:00:00,2217A,123.8649,42.2923,铁岭市,水上乐园,,32,32,197,9,16,131,57,79,77,28,12,5,5,0.4,0.3
2023-03-11T19:00:00,2218A,123.8486,42.2867,铁岭市,银州路东段,颗粒物(PM10),62,74,221,21,27,133,70,80,78,17,13,5,5,0.3,0.3
2023-03-11T19:00:00,2219A,123.7153,42.2217,铁岭市,金沙江路北,,37,37,180,17,21,124,70,78,77,15,13,7,7,0.3,0.3
2023-03-11T19:00:00,2220A,120.4318,41.5881,朝阳市,西梁,颗粒物(PM10),51,51,87,18,5,82,62,76,74,20,8,14,9,0.6,0.7
2023-03-11T19:00:00,2221A,120.4521,41.5646,朝阳市,河畔小区,,25,24,99,9,7,90,80,86,84,11,9,7,6,0.5,0.5
2023-03-11T19:00:00,2222A,120.4176,41.5648,朝阳市,八里堡,,45,45,103,14,5,96,76,84,82,15,7,11,9,0.7,0.6
2023-03-11T19:00:00,2223A,120.3806,41.5969,朝阳市,农业园区,,37,37,97,9,5,87,74,80,79,9,5,8,8,0.5,0.4
2023-03-11T19:00:00,2225A,124.4002,43.1713,四平市,一商场,,34,34,204,22,28,88,64,76,74,19,14,6,7,0.3,1
2023-03-11T19:00:00,2226A,124.388,43.193,四平市,境园,,28,28,206,19,24,90,68,83,80,13,6,2,2,0.3,0.2
2023-03-11T19:00:00,2227A,125.1358,42.8845,辽源市,环保局,,29,29,112,20,31,140,66,80,79,21,11,12,12,0.4,0.4
2023-03-11T19:00:00,2229A,125.9358,41.7173,通化市,光明,颗粒物(PM10),119,187,147,18,24,155,63,82,67,17,17,8,11,0.3,0.3
2023-03-11T19:00:00,2230A,125.9446,41.7325,通化市,铁路,颗粒物(PM10),133,216,163,18,25,155,70,80,73,12,20,6,8,0.1,0.2
2023-03-11T19:00:00,2231A,126.4219,41.9171,白山市,喜丰,颗粒物(PM10),105,160,215,7,23,151,63,100,66,14,15,13,9,0.4,0.4
2023-03-11T19:00:00,2232A,126.4077,41.9419,白山市,环保局,颗粒物(PM10),91,132,182,22,32,151,53,91,58,18,13,11,13,0.4,0.5
2023-03-11T19:00:00,2233A,124.8006,45.1214,松原市,江南,颗粒物(PM10),66,82,204,14,14,75,61,72,71,9,3,6,5,0.4,0.3
2023-03-11T19:00:00,2234A,124.7965,45.1722,松原市,江北,颗粒物(PM10),76,101,282,9,23,81,74,79,79,6,4,2,2,0.4,0.4
2023-03-11T19:00:00,2235A,122.7911,45.6077,白城市,洮北区环保局,,43,43,138,4,16,108,88,101,100,9,8,4,4,0.2,0.1
2023-03-11T19:00:00,2236A,122.8738,45.5725,白城市,市环保局,颗粒物(PM10),52,53,107,10,23,88,82,86,85,11,10,5,4,0.2,0.2
2023-03-11T19:00:00,2237A,129.47,42.8883,延边朝鲜族自治州,妇幼医院,颗粒物(PM10),69,88,41,36,14,79,46,70,68,25,14,10,8,0.8,0.6
2023-03-11T19:00:00,2238A,129.5055,42.9108,延边朝鲜族自治州,延边医院,颗粒物(PM10),59,68,37,17,12,81,62,80,71,23,17,9,11,0.6,0.6
2023-03-11T19:00:00,2239A,129.3964,42.8881,延边朝鲜族自治州,朝阳川镇医院,颗粒物(PM10),82,114,48,27,13,81,47,72,69,18,15,7,10,0.6,0.5
2023-03-11T19:00:00,2240A,130.9762,45.3001,鸡西市,环保局,颗粒物(PM10),51,51,44,10,18,80,58,77,74,25,18,3,4,0.4,0.4
2023-03-11T19:00:00,2243A,130.9429,45.3039,鸡西市,第一中学,颗粒物(PM10),70,90,47,16,15,81,68,79,78,7,10,6,4,0.3,0.4
2023-03-11T19:00:00,2244A,130.2537,47.3416,鹤岗市,哈啤分公司,,32,32,29,16,16,87,84,83,83,7,8,8,9,0.2,0.2
2023-03-11T19:00:00,2245A,130.2684,47.3086,鹤岗市,斯达机电,,39,39,34,19,17,85,79,83,82,8,8,9,10,0.2,0.2
2023-03-11T19:00:00,2246A,130.3114,47.3388,鹤岗市,东山纸板厂,,29,29,32,13,18,89,82,86,85,4,4,8,7,0.3,0.1
2023-03-11T19:00:00,2247A,130.1097,47.3382,鹤岗市,五号水库,,28,23,24,16,16,92,89,89,89,5,6,6,6,0.3,0.3
2023-03-11T19:00:00,2248A,131.1511,46.6937,双鸭山市,双合村,颗粒物(PM10),74,98,46,17,19,89,83,84,84,6,9,10,12,0.3,0.4
2023-03-11T19:00:00,2249A,131.1652,46.6191,双鸭山市,南小市,颗粒物(PM10),90,129,57,18,17,93,78,86,85,9,5,7,5,0.5,0.4
2023-03-11T19:00:00,2250A,131.1524,46.6554,双鸭山市,环保局,颗粒物(PM10),63,76,53,15,24,99,84,89,89,9,11,11,12,0.1,0.4
2023-03-11T19:00:00,2251A,131.12,46.5656,双鸭山市,苗圃,,47,47,38,25,27,123,117,120,120,8,8,4,8,0.1,0.1
2023-03-11T19:00:00,2252A,128.5159,47.4311,伊春市,环保局,,41,41,27,6,13,85,81,84,84,8,7,4,4,0.5,0.4
2023-03-11T19:00:00,2253A,128.9102,47.7412,伊春市,电力嘉园,,37,37,34,17,20,89,84,88,87,6,4,5,5,0.5,0.5
2023-03-11T19:00:00,2254A,129.5029,48.471,伊春市,汤旺河国家公园,,41,41,35,16,19,81,81,81,81,2,3,5,5,0.1,0.2
2023-03-11T19:00:00,2255A,130.2751,46.8028,佳木斯市,佳纺,,48,48,42,15,21,86,76,81,81,9,16,3,3,0.4,0.4
2023-03-11T19:00:00,2256A,130.3995,46.8307,佳木斯市,发电厂,,44,44,35,13,18,85,74,82,81,15,12,3,8,0.4,0.4
2023-03-11T19:00:00,2257A,130.3258,46.7975,佳木斯市,环保局,,36,36,34,11,21,82,69,78,78,15,17,3,3,0.4,0.5
2023-03-11T19:00:00,2258A,130.3648,46.8032,佳木斯市,十一中,颗粒物(PM10),51,51,38,10,21,82,67,78,77,20,16,5,6,0.4,0.4
2023-03-11T19:00:00,2259A,130.3794,46.7588,佳木斯市,四丰,,38,33,28,9,16,125,121,120,120,5,11,1,1,0.4,0.3
2023-03-11T19:00:00,2262A,131.0518,45.8751,七台河市,新一中,颗粒物(PM10),59,68,36,14,14,92,76,87,86,6,7,5,5,0.5,0.5
2023-03-11T19:00:00,2263A,127.4833,50.2524,黑河市,交通局,,32,21,15,22,11,73,70,72,72,6,5,5,6,0.3,0.3
2023-03-11T19:00:00,2264A,127.5144,50.2341,黑河市,环保局,细颗粒物(PM2.5),59,48,24,42,16,84,58,81,74,23,8,64,13,0.2,0.3
2023-03-11T19:00:00,2265A,127.5291,50.2472,黑河市,大黑河岛,,26,9,17,18,8,83,65,81,78,11,15,62,11,0.3,0.3
2023-03-11T19:00:00,2266A,126.9785,46.6365,绥化市,人和东街,颗粒物(PM10),57,63,40,14,11,105,78,97,95,8,7,2,3,0.2,0.2
2023-03-11T19:00:00,2267A,126.964,46.6528,绥化市,党政办公中心,颗粒物(PM10),54,58,40,15,13,89,75,85,85,9,5,2,3,0.2,0.2
2023-03-11T19:00:00,2269A,124.1069,50.4097,大兴安岭地区,科技局,,27,12,14,17,13,87,84,86,84,3,3,6,6,0.2,0.2
2023-03-11T19:00:00,2270A,117.396,32.939,蚌埠市,工人疗养院,,,,67,64,39,131,106,115,115,27,29,11,14,0.6,0.6
2023-03-11T19:00:00,2271A,117.3605,32.9427,蚌埠市,百货大楼,颗粒物(PM10),189,328,97,59,41,152,107,134,134,32,28,6,10,0.6,0.6
2023-03-11T19:00:00,2273A,117.4185,32.8911,蚌埠市,蚌埠学院,颗粒物(PM10),403,503,89,58,36,155,125,128,128,21,30,9,10,0.6,0.4
2023-03-11T19:00:00,2274A,117.3533,32.9673,蚌埠市,淮上区政府,颗粒物(PM10),452,552,104,46,36,153,114,138,138,19,25,7,10,0.6,0.6
2023-03-11T19:00:00,2275A,117.3145,32.8977,蚌埠市,高新区,颗粒物(PM10),430,530,103,56,42,144,110,129,129,23,29,9,11,0.8,0.7
2023-03-11T19:00:00,2277A,116.8305,32.7727,淮南市,潘集区政府,颗粒物(PM10),280,406,103,78,46,146,101,132,132,,28,5,12,0.4,0.5
2023-03-11T19:00:00,2278A,117.0067,32.6524,淮南市,师范学院,颗粒物(PM10),382,485,100,51,39,149,108,132,132,12,22,12,14,0.4,0.4
2023-03-11T19:00:00,2279A,116.8569,32.5951,淮南市,谢家集区政府,颗粒物(PM10),160,269,79,51,33,155,111,135,135,25,34,12,14,0.7,0.6
2023-03-11T19:00:00,2280A,116.8281,32.633,淮南市,八公山区政府,颗粒物(PM10),173,295,85,42,30,150,104,131,131,16,22,8,9,0.4,0.3
2023-03-11T19:00:00,2281A,116.6325,32.6201,淮南市,焦岗湖风景区管理处,颗粒物(PM10),262,393,89,108,43,129,28,65,60,21,45,5,6,0.5,0.8
2023-03-11T19:00:00,2282A,116.8004,33.975,淮北市,监测站,颗粒物(PM10),191,331,128,25,43,144,86,118,115,15,26,6,10,0.3,0.5
2023-03-11T19:00:00,2283A,116.8091,33.9007,淮北市,烈山区政府,颗粒物(PM10),143,235,152,33,46,137,83,116,113,23,38,6,11,0.5,0.7
2023-03-11T19:00:00,2284A,116.7856,33.9477,淮北市,职业技术学院,颗粒物(PM10),181,311,149,27,44,140,81,112,109,18,30,7,11,0.6,0.7
2023-03-11T19:00:00,2285A,117.8177,30.9412,铜陵市,市第四中学,,41,41,73,24,41,85,76,64,64,26,63,11,19,0.2,0.7
2023-03-11T19:00:00,2286A,117.8059,30.9273,铜陵市,市公路局,,27,20,71,17,33,86,86,69,69,19,52,7,13,0.4,0.8
2023-03-11T19:00:00,2287A,117.7807,30.9413,铜陵市,市新民污水厂,,38,38,74,19,38,84,84,55,55,20,69,5,15,0.5,0.8
2023-03-11T19:00:00,2288A,117.7439,30.8792,铜陵市,市第九中学,,45,45,79,26,38,86,66,58,51,36,74,8,11,0.6,0.8
2023-03-11T19:00:00,2289A,117.846,30.9413,铜陵市,车站新区,,36,36,61,25,32,108,73,65,65,30,58,8,13,0.4,0.6
2023-03-11T19:00:00,2290A,117.8483,30.97,铜陵市,市职教基地,,,31,66,27,38,79,75,59,59,22,41,,9,0.5,0.5
2023-03-11T19:00:00,2291A,117.0809,30.5177,安庆市,环科院,,35,28,57,24,44,88,87,60,60,16,66,7,11,0.6,0.8
2023-03-11T19:00:00,2292A,117.0331,30.5119,安庆市,马山宾馆,,49,49,63,29,44,81,68,52,52,27,58,6,15,0.7,0.8
2023-03-11T19:00:00,2294A,116.9896,30.6145,安庆市,安庆大学,细颗粒物(PM2.5),58,34,58,41,38,124,33,70,54,60,48,7,17,0.7,0.9
2023-03-11T19:00:00,2295A,118.2903,29.6963,黄山市,延安路89号,细颗粒物(PM2.5),57,57,46,40,30,104,21,75,69,36,20,6,6,0.6,0.5
2023-03-11T19:00:00,2296A,118.327,29.7178,黄山市,黄山东路89号,,48,48,46,33,32,85,36,59,56,28,28,5,5,0.7,0.7
2023-03-11T19:00:00,2297A,118.1371,30.2756,黄山市,黄山区政府5号楼,,43,42,58,30,36,55,51,47,47,16,18,6,6,0.7,0.6
2023-03-11T19:00:00,2298A,118.3093,32.3153,滁州市,老年大学,,46,46,79,26,36,122,79,95,94,29,46,9,10,0.7,0.8
2023-03-11T19:00:00,2299A,118.3244,32.2786,滁州市,人大宾馆,细颗粒物(PM2.5),67,59,99,48,44,106,56,82,76,44,73,6,8,0.5,0.6
2023-03-11T19:00:00,2301A,115.8277,32.8929,阜阳市,市监测站,颗粒物(PM10),238,376,150,50,40,140,81,119,116,20,30,5,6,0.4,0.5
2023-03-11T19:00:00,2303A,115.8554,32.8605,阜阳市,开发区,颗粒物(PM10),362,469,183,41,36,145,87,126,123,18,28,7,9,0.3,0.4
2023-03-11T19:00:00,2307A,116.5079,31.737,六安市,监测大楼,,48,48,42,24,26,97,64,88,69,39,31,4,5,0.3,0.3
2023-03-11T19:00:00,2308A,116.4738,31.7643,六安市,皖西学院,颗粒物(PM10),59,67,50,23,23,99,47,92,73,43,20,4,4,0.4,0.4
2023-03-11T19:00:00,2309A,116.4996,31.7905,六安市,朝阳厂,,45,41,46,31,25,123,64,96,84,47,27,6,6,0.6,0.5
2023-03-11T19:00:00,2310A,116.5567,31.7886,六安市,开发区,颗粒物(PM10),69,88,65,28,31,97,24,78,61,58,29,8,9,0.6,0.5
2023-03-11T19:00:00,2311A,115.8072,33.8399,亳州市,污水处理厂,颗粒物(PM10),230,371,260,30,43,129,85,107,101,9,20,8,14,0.2,0.4
2023-03-11T19:00:00,2312A,115.7789,33.8518,亳州市,三国揽胜宫,颗粒物(PM10),202,351,212,39,48,126,81,102,97,11,14,5,10,0.3,0.4
2023-03-11T19:00:00,2314A,117.47,30.6618,池州市,池州学院,细颗粒物(PM2.5),74,54,59,54,52,114,51,56,56,45,39,4,6,0.7,0.8
2023-03-11T19:00:00,2316A,118.7581,30.9454,宣城市,鳌峰子站,颗粒物(PM10),51,52,68,25,38,99,87,88,88,21,44,4,9,0.6,0.6
2023-03-11T19:00:00,2317A,118.7385,30.9743,宣城市,敬亭山子站,,35,35,68,23,36,104,83,81,81,22,35,8,11,0.5,0.6
2023-03-11T19:00:00,2318A,118.7173,30.9427,宣城市,开发区子站,,43,43,67,24,38,92,80,82,82,24,54,5,9,0.5,0.6
2023-03-11T19:00:00,2319A,119.0141,25.4325,莆田市,荔城区仓后路,,47,47,45,24,21,137,95,123,120,17,12,8,8,0.9,0.7
2023-03-11T19:00:00,2320A,119.0015,25.4553,莆田市,莆田市监测站,,49,49,39,34,23,142,98,126,123,16,9,9,8,0.8,0.5
2023-03-11T19:00:00,2321A,119.1119,25.4561,莆田市,涵江区六中,,,58,45,23,24,140,94,124,119,,10,10,8,0.8,0.5
2023-03-11T19:00:00,2322A,119.1013,25.3215,莆田市,秀屿区政府,,46,39,45,32,26,129,110,121,120,11,12,7,6,0.6,0.6
2023-03-11T19:00:00,2323A,118.981,25.4792,莆田市,东圳水库,,,,,,,,,,,,,,,,
2023-03-11T19:00:00,2324A,117.6211,26.2625,三明市,三钢,颗粒物(PM10),57,63,48,36,31,169,118,151,151,40,34,15,15,1.0,0.7
2023-03-11T19:00:00,2325A,117.635,26.2714,三明市,三明二中,颗粒物(PM10),57,63,44,34,26,165,86,145,142,61,35,11,7,1.6,0.8
2023-03-11T19:00:00,2326A,117.6028,26.2378,三明市,三元区政府,颗粒物(PM10),85,120,63,54,34,166,62,141,135,76,43,8,17,1.3,0.9
2023-03-11T19:00:00,2327A,117.7275,26.3108,三明市,洋溪,,,,,,,,,,,,,,,,
2023-03-11T19:00:00,2331A,118.0966,26.6761,南平市,茫荡山,,,,,,,,,,,,,,,,
2023-03-11T19:00:00,2332A,118.1681,26.6369,南平市,南平市监测站,细颗粒物(PM2.5),53,53,40,37,26,130,70,120,114,37,18,4,5,1.1,0.7
2023-03-11T19:00:00,2333A,118.1825,26.6489,南平市,南平铝业有限公司,颗粒物(PM10),57,63,42,36,24,131,69,119,113,44,23,6,9,0.8,0.5
2023-03-11T19:00:00,2334A,118.1756,26.6272,南平市,南平七中,,45,44,40,31,23,149,82,121,115,28,15,4,6,0.7,0.6
2023-03-11T19:00:00,2335A,117.0189,25.1181,龙岩市,龙岩师专,,,,,,,,,,,,,,,,
2023-03-11T19:00:00,2336A,117.0217,25.1033,龙岩市,龙岩市监测站,,41,23,52,18,28,173,131,157,157,18,27,7,17,0.5,0.6
2023-03-11T19:00:00,2337A,117.0258,25.0661,龙岩市,闽西职业技术学院,,42,42,60,20,25,162,112,148,146,27,30,10,18,0.4,0.4
2023-03-11T19:00:00,2338A,117.0196,25.0306,龙岩市,龙岩学院,,41,41,44,17,24,161,126,147,147,9,15,7,9,0.3,0.4
2023-03-11T19:00:00,2339A,119.5001,26.6946,宁德市,金涵水库,,,,,,,,,,,,,,,,
2023-03-11T19:00:00,2341A,119.5388,26.6612,宁德市,宁德市监测站,,,44,43,25,27,124,,114,114,20,18,4,3,0.8,0.6
2023-03-11T19:00:00,2342A,117.3102,29.3867,景德镇市,王港中学,,37,37,44,25,27,69,33,55,50,5,9,4,4,0.3,0.2
2023-03-11T19:00:00,2343A,117.2117,29.2933,景德镇市,老干部活动中心,颗粒物(PM10),56,62,71,37,37,67,28,48,42,25,36,6,6,0.4,0.4
2023-03-11T19:00:00,2344A,117.1894,29.2789,景德镇市,兽医站,,42,42,54,22,36,87,38,62,52,20,35,7,10,0.6,0.7
2023-03-11T19:00:00,2345A,117.1547,29.2617,景德镇市,台达陶瓷,颗粒物(PM10),53,56,67,35,39,61,41,58,45,22,44,6,25,0.6,0.8
2023-03-11T19:00:00,2346A,117.2461,29.2956,景德镇市,陶研所,颗粒物(PM10),51,51,69,28,35,79,24,53,50,20,30,5,6,0.6,0.6
2023-03-11T19:00:00,2347A,114.0997,27.5002,萍乡市,武功山,细颗粒物(PM2.5),53,33,29,37,27,114,77,95,95,18,13,22,22,0.9,0.7
2023-03-11T19:00:00,2348A,113.8385,27.6434,萍乡市,中医院,细颗粒物(PM2.5),78,65,63,57,45,129,66,99,99,24,27,4,11,1.2,1.2
2023-03-11T19:00:00,2349A,113.8493,27.6253,萍乡市,市政府车库,细颗粒物(PM2.5),85,70,69,63,50,130,64,96,96,25,25,8,16,1.1,1.4
2023-03-11T19:00:00,2350A,113.8676,27.6435,萍乡市,市环保局,细颗粒物(PM2.5),72,67,64,52,45,127,62,98,97,25,24,14,27,1.0,1.1
2023-03-11T19:00:00,2351A,113.866,27.6198,萍乡市,安源区政府,细颗粒物(PM2.5),79,69,68,58,47,120,60,90,90,24,23,16,21,1.0,1.1
2023-03-11T19:00:00,2352A,115.0861,27.9317,新余市,北岗,细颗粒物(PM2.5),53,41,48,37,41,93,58,78,77,17,22,9,16,0.5,0.6
2023-03-11T19:00:00,2353A,114.9886,27.8431,新余市,飞宇,细颗粒物(PM2.5),62,68,68,44,41,107,62,87,86,100,32,10,19,0.7,0.6
2023-03-11T19:00:00,2354A,114.9231,27.8246,新余市,第二水厂,颗粒物(PM10),59,67,71,39,41,111,59,92,90,43,37,13,15,0.6,0.3
2023-03-11T19:00:00,2355A,114.9308,27.8036,新余市,市气象局,细颗粒物(PM2.5),78,83,83,57,51,110,60,90,87,34,32,14,13,1.3,0.9
2023-03-11T19:00:00,2357A,116.9822,28.1136,鹰潭市,龙虎山,,49,49,56,34,38,118,70,92,72,11,12,8,10,0.9,0.9
2023-03-11T19:00:00,2358A,117.0564,28.2642,鹰潭市,新监测站,颗粒物(PM10),59,68,70,39,40,145,78,75,75,31,35,8,34,0.5,0.6
2023-03-11T19:00:00,2359A,117.0311,28.2475,鹰潭市,财苑宾馆,颗粒物(PM10),56,62,72,34,40,134,79,78,78,30,37,14,37,0.4,0.5
2023-03-11T19:00:00,2360A,117.0222,28.2264,鹰潭市,体育馆,颗粒物(PM10),66,81,82,39,45,107,66,76,76,36,45,10,33,0.2,0.5
2023-03-11T19:00:00,2361A,117.0017,28.2131,鹰潭市,三川水表,颗粒物(PM10),68,85,81,36,42,108,52,74,74,54,41,11,20,0.6,0.6
2023-03-11T19:00:00,2362A,114.9017,25.9149,赣州市,通天岩,颗粒物(PM10),51,51,67,33,37,183,120,168,165,42,31,13,12,0.4,0.4
2023-03-11T19:00:00,2363A,114.9367,25.8664,赣州市,地委,颗粒物(PM10),54,58,73,30,34,179,130,161,159,22,30,11,13,1.0,1
2023-03-11T19:00:00,2364A,114.9461,25.8481,赣州市,气象台,,46,45,53,32,32,167,136,157,156,22,28,7,10,0.7,0.8
2023-03-11T19:00:00,2365A,114.9322,25.8333,赣州市,市图书馆,,49,49,62,27,35,162,132,152,152,22,32,9,13,1.1,1.1
2023-03-11T19:00:00,2366A,114.8905,25.8471,赣州市,华坚鞋城,颗粒物(PM10),81,112,87,41,37,166,49,147,128,93,38,6,10,0.9,0.8
2023-03-11T19:00:00,2367A,114.9754,27.0803,吉安市,红声器材厂,细颗粒物(PM2.5),65,71,68,47,41,167,101,135,135,24,31,11,17,0.9,0.6
2023-03-11T19:00:00,2368A,114.9658,27.0999,吉安市,市森林工业局,细颗粒物(PM2.5),69,75,69,50,46,155,103,131,131,18,41,12,18,0.9,0.8
2023-03-11T19:00:00,2369A,114.99,27.1312,吉安市,市环境监测站,细颗粒物(PM2.5),67,75,66,48,42,147,99,134,130,26,32,14,21,1.1,0.8
2023-03-11T19:00:00,2370A,115.0093,27.0968,吉安市,青原区法院,细颗粒物(PM2.5),69,75,68,50,43,168,99,133,133,24,30,14,23,1.0,0.8
2023-03-11T19:00:00,2371A,114.3408,27.8064,宜春市,槟榔水业,细颗粒物(PM2.5),69,68,60,50,39,45,31,36,36,10,10,8,8,0.7,0.6
2023-03-11T19:00:00,2373A,114.3956,27.7844,宜春市,市石油公司,细颗粒物(PM2.5),78,68,61,57,43,105,68,88,86,27,26,2,5,1.0,0.9
2023-03-11T19:00:00,2374A,114.3703,27.7914,宜春市,市气象局,细颗粒物(PM2.5),74,71,66,54,43,107,87,91,91,24,30,5,7,1.1,1
2023-03-11T19:00:00,2375A,114.4013,27.8074,宜春市,市广电局,细颗粒物(PM2.5),75,74,63,55,46,118,104,104,104,21,24,10,10,0.9,1
2023-03-11T19:00:00,2376A,116.2127,28.0814,抚州市,桐源党溪,细颗粒物(PM2.5),52,49,51,36,38,118,44,72,72,14,9,12,10,1.0,0.8
2023-03-11T19:00:00,2377A,116.3544,27.9831,抚州市,市站,颗粒物(PM10),53,55,63,35,43,129,69,93,72,25,25,5,10,0.8,0.8
2023-03-11T19:00:00,2378A,116.3565,27.963,抚州市,血防站,颗粒物(PM10),55,60,67,36,41,129,58,90,64,29,26,8,9,1.1,1
2023-03-11T19:00:00,2379A,116.3564,28.0007,抚州市,采茶剧团,细颗粒物(PM2.5),55,58,65,39,45,116,62,87,68,27,24,4,13,1.0,1
2023-03-11T19:00:00,2380A,116.385,27.9647,抚州市,医学分院,颗粒物(PM10),54,58,68,33,38,133,79,91,70,24,27,5,12,0.9,1
2023-03-11T19:00:00,2381A,118.005,28.4572,上饶市,百草园,,,,,,,,,,,,,,,,
2023-03-11T19:00:00,2382A,117.9756,28.4436,上饶市,市监测站,颗粒物(PM10),66,81,72,31,34,133,61,102,102,42,38,22,38,0.6,0.6
2023-03-11T19:00:00,2383A,117.9519,28.4628,上饶市,凤凰光学,颗粒物(PM10),60,69,66,30,31,129,59,102,100,47,39,20,31,0.8,0.7
2023-03-11T19:00:00,2385A,114.17,35.9019,鹤壁市,市监测站,颗粒物(PM10),57,63,267,18,54,122,73,83,81,17,18,5,8,0.4,0.5
2023-03-11T19:00:00,2386A,114.2956,35.7511,鹤壁市,市交警支队,颗粒物(PM10),59,68,267,7,44,97,64,82,78,22,23,5,7,0.1,0.3
2023-03-11T19:00:00,2387A,114.2878,35.7306,鹤壁市,迎宾馆,颗粒物(PM10),53,56,245,8,46,97,68,84,81,22,21,2,7,0.3,0.3
2023-03-11T19:00:00,2389A,113.836,35.311,新乡市,环保西院,颗粒物(PM10),79,108,306,12,56,103,76,93,89,13,23,5,9,0.3,0.5
2023-03-11T19:00:00,2390A,113.884,35.272,新乡市,开发区,颗粒物(PM10),90,130,321,14,51,94,76,88,86,12,20,6,9,0.5,0.6
2023-03-11T19:00:00,2391A,113.883,35.303,新乡市,环保东院,颗粒物(PM10),76,102,313,27,52,105,76,91,88,9,17,7,9,0.4,0.6
2023-03-11T19:00:00,2392A,115.0312,35.7636,濮阳市,环保局,颗粒物(PM10),59,68,239,11,38,116,79,86,86,14,16,7,8,0.4,0.5
