timepoint,stationcode,longitude,latitude,area,positionname,primarypollutant,aqi,pm10,pm10_24h,pm2_5,pm2_5_24h,o3,o3_24h,o3_8h,o3_8h_24h,no2,no2_24h,so2,so2_24h,co,co_24h
2025-05-19T0000,2566A,102.1879,31.914,阿坝藏族羌族自治州,州农科所,,19,19,20,9,9,57,,90,78,4,7,11,11,0.7,0.7
2025-05-19T0000,2568A,102.2502,31.8896,阿坝藏族羌族自治州,马师校,,30,28,21,21,17,21,,96,71,22,9,4,4,0.5,0.5
2025-05-19T0000,3994A,102.2165,31.9024,阿坝藏族羌族自治州,马尔康中学西区,,40,,22,28,18,50,,100,84,3,6,4,4,0.8,0.8
2025-05-19T0000,2695A,80.292,41.1694,阿克苏地区,电视台,颗粒物(PM10),148,245,212,59,62,120,,129,120,12,23,8,6,0.2,0.3
2025-05-19T0000,2696A,80.2613,41.1551,阿克苏地区,艺术中心,颗粒物(PM10),154,258,216,49,63,108,,119,103,9,18,4,4,0.2,0.3
2025-05-19T0000,2204A,105.6467,38.8363,阿拉善盟,西城区西花园,,50,48,78,35,34,89,,120,95,12,14,18,6,0.7,0.8
2025-05-19T0000,2205A,105.6985,38.8411,阿拉善盟,蒙二幼,颗粒物(PM10),52,53,85,20,33,77,,103,85,6,8,8,8,0.4,0.5
2025-05-19T0000,2206A,105.724,38.8516,阿拉善盟,环保局新楼,,48,48,81,21,36,95,,112,102,2,4,10,9,0.4,0.4
2025-05-19T0000,2708A,88.1264,47.8517,阿勒泰地区,市站,颗粒物(PM10),85,119,99,14,17,107,,111,110,2,4,2,2,0.3,0.2
2025-05-19T0000,2630A,80.1161,32.5,阿里地区,阿里监测站,,42,14,11,7,8,132,,130,130,4,4,8,7,0.4,0.4
2025-05-19T0000,3192A,80.0903,32.5028,阿里地区,阿里藏医院,,45,21,23,11,8,142,,137,137,2,4,7,6,0.4,0.4
2025-05-19T0000,2642A,109.0318,32.6537,安康市,香溪洞,颗粒物(PM10),61,71,54,29,20,91,,125,114,9,6,9,8,0.2,0.1
2025-05-19T0000,2644A,109.0072,32.6975,安康市,汉滨区检察院,颗粒物(PM10),61,72,57,27,24,66,,134,95,11,10,8,10,0.4,0.4
2025-05-19T0000,4054A,109.0325,32.6913,安康市,市邮政管理局,颗粒物(PM10),69,87,64,36,29,49,,116,72,16,12,9,8,0.5,0.4
2025-05-19T0000,2291A,117.0809,30.5177,安庆市,环科院,细颗粒物(PM2.5),100,113,158,75,51,63,,163,131,46,16,6,5,1.1,0.7
2025-05-19T0000,2292A,117.0331,30.5119,安庆市,马山宾馆,细颗粒物(PM2.5),160,146,146,122,53,59,,157,129,62,22,8,7,1.4,0.8
2025-05-19T0000,2294A,116.9896,30.6145,安庆市,安庆大学,细颗粒物(PM2.5),109,112,151,82,51,52,,150,113,50,20,5,6,0.8,0.4
2025-05-19T0000,3173A,117.0598,30.5351,安庆市,市人大,细颗粒物(PM2.5),119,128,156,90,50,111,,177,155,26,17,11,10,1.0,0.6
2025-05-19T0000,3122A,105.9606,26.2611,安顺市,伍家关,细颗粒物(PM2.5),80,103,41,59,28,40,,116,91,30,12,10,7,0.7,0.5
2025-05-19T0000,3123A,105.9408,26.2431,安顺市,凤凰山,细颗粒物(PM2.5),104,79,45,78,40,72,,112,98,19,10,9,12,0.9,0.7
2025-05-19T0000,3124A,105.9439,26.2564,安顺市,金钟山,细颗粒物(PM2.5),117,,44,88,39,58,,108,93,20,8,7,7,0.6,0.5
2025-05-19T0000,3125A,105.8983,26.2481,安顺市,娄家坡,细颗粒物(PM2.5),105,83,43,79,40,70,,111,102,12,7,14,11,0.7,0.6
2025-05-19T0000,1818A,114.4839,36.0621,安阳市,棉研所,,,,,,,,,,,,,,,,
2025-05-19T0000,1819A,114.3551,36.1017,安阳市,红庙街,颗粒物(PM10),97,144,108,36,32,107,,164,146,9,8,5,5,0.7,0.5
2025-05-19T0000,1820A,114.361,36.0681,安阳市,银杏小区,颗粒物(PM10),96,142,103,51,39,99,,159,138,18,14,6,5,0.4,0.2
2025-05-19T0000,3141A,114.3922,36.0878,安阳市,信访局,颗粒物(PM10),102,153,121,33,22,123,,169,154,19,12,6,5,0.6,0.4
2025-05-19T0000,3669A,114.4705,36.0637,安阳市,左辅环卫站,颗粒物(PM10),91,131,107,43,35,92,,160,136,27,22,6,5,0.6,0.5
2025-05-19T0000,3703A,114.2917,36.0949,安阳市,安钢职工学校,颗粒物(PM10),104,157,112,48,31,116,,161,148,13,10,35,7,0.5,0.3
2025-05-19T0000,1748A,123.044,41.1196,鞍山市,深沟寺,,37,34,29,21,18,117,,104,104,7,16,6,11,0.6,0.9
2025-05-19T0000,1749A,123.011,41.0931,鞍山市,太阳城,,45,45,28,28,19,100,,96,96,7,17,6,11,0.4,0.8
2025-05-19T0000,1750A,123.0485,41.1442,鞍山市,太平,,50,50,33,24,20,127,,100,100,8,19,8,13,0.6,1
2025-05-19T0000,1751A,122.9642,41.0971,鞍山市,铁西三道街,,40,40,33,27,20,112,,94,94,16,20,4,8,0.8,0.9
2025-05-19T0000,1753A,123.022,41.0821,鞍山市,明达新区,,40,36,28,26,21,127,,104,104,5,13,6,11,0.4,0.8
2025-05-19T0000,1754A,123.1289,41.0228,鞍山市,千山,,,,23,,10,,,91,,,11,,6,,0.7
2025-05-19T0000,4201A,122.9446,41.0826,鞍山市,兴盛南路290号,,46,46,33,22,19,116,,95,95,20,18,8,9,0.8,0.8
2025-05-19T0000,2195A,107.4212,40.761,巴彦淖尔市,附二中,颗粒物(PM10),57,64,79,33,26,75,,102,82,13,12,4,4,0.5,0.5
2025-05-19T0000,2196A,107.37,40.7372,巴彦淖尔市,市环保大楼,颗粒物(PM10),56,61,90,34,33,63,,108,79,21,19,5,5,0.2,0.2
2025-05-19T0000,1956A,86.1472,41.7538,巴音郭楞蒙古自治州,孔雀公园,颗粒物(PM10),167,283,238,85,66,3,,96,76,84,46,8,8,0.7,0.4
2025-05-19T0000,1957A,86.1972,41.7166,巴音郭楞蒙古自治州,棉纺厂,颗粒物(PM10),161,271,265,93,66,17,,106,84,66,31,3,4,0.6,0.3
2025-05-19T0000,1958A,86.2357,41.7173,巴音郭楞蒙古自治州,经济开发区,颗粒物(PM10),500,662,294,171,70,19,,102,79,48,22,8,8,0.2,0.1
2025-05-19T0000,2914A,106.7677,31.8794,巴中市,苏山坪,细颗粒物(PM2.5),97,110,76,72,53,129,,134,129,13,10,6,5,0.7,0.5
2025-05-19T0000,3181A,106.7768,31.8526,巴中市,市五中,细颗粒物(PM2.5),83,102,85,61,59,57,,137,114,24,13,7,7,0.8,0.7
2025-05-19T0000,3183A,106.7418,31.8654,巴中市,圣泉水务公司,细颗粒物(PM2.5),123,114,80,93,61,33,,142,120,70,14,9,8,0.9,0.7
2025-05-19T0000,3616A,106.7616,31.8344,巴中市,市中心医院,细颗粒物(PM2.5),82,109,93,60,65,70,,138,117,23,14,6,6,0.9,0.7
2025-05-19T0000,2235A,122.7911,45.6077,白城市,洮北区环保局,,25,14,29,3,22,80,,82,75,6,8,7,6,0.3,0.4
2025-05-19T0000,2236A,122.8738,45.5725,白城市,市环保局,,26,7,24,7,22,82,,86,78,2,4,2,2,0.4,0.4
2025-05-19T0000,2231A,126.4219,41.9171,白山市,喜丰,,48,48,30,10,14,34,,92,65,28,17,8,6,0.6,0.7
2025-05-19T0000,2232A,126.4077,41.9419,白山市,环保局,,31,31,37,11,16,48,,94,70,14,14,7,9,0.6,0.7
2025-05-19T0000,2647A,104.1724,36.5446,白银市,第三小学,颗粒物(PM10),81,111,60,50,28,7,,125,89,81,15,77,42,1.1,0.8
2025-05-19T0000,2648A,104.1465,36.5482,白银市,动力公司,,44,44,52,14,21,33,,126,98,53,16,33,30,0.8,0.5
2025-05-19T0000,2512A,106.6103,23.9011,百色市,市监测站,,37,37,28,21,16,25,,55,48,13,12,3,8,0.9,0.8
2025-05-19T0000,2513A,106.6538,23.8859,百色市,市中心血站,颗粒物(PM10),53,55,33,25,18,18,,62,45,26,15,8,9,0.8,0.7
2025-05-19T0000,3406A,106.6085,23.8798,百色市,祈福高中,,49,49,33,23,19,15,,51,44,25,12,5,6,0.6,0.5
2025-05-19T0000,2270A,117.396,32.939,蚌埠市,工人疗养院,颗粒物(PM10),85,120,99,48,24,127,,164,153,11,12,6,6,0.6,0.4
2025-05-19T0000,2271A,117.3605,32.9427,蚌埠市,百货大楼,颗粒物(PM10),90,130,106,53,28,116,,160,149,22,15,9,7,0.6,0.4
2025-05-19T0000,2273A,117.4185,32.8911,蚌埠市,蚌埠学院,颗粒物(PM10),79,107,98,48,28,124,,161,149,12,13,6,5,0.6,0.4
2025-05-19T0000,2274A,117.3533,32.9673,蚌埠市,淮上区政府,颗粒物(PM10),84,117,99,59,29,119,,164,153,19,16,8,6,0.9,0.6
2025-05-19T0000,2275A,117.3145,32.8977,蚌埠市,高新区,颗粒物(PM10),91,132,109,58,30,110,,158,146,22,18,7,6,0.8,0.5
2025-05-19T0000,3715A,117.3092,32.9314,蚌埠市,蚌埠田家炳中学,颗粒物(PM10),94,137,112,53,29,115,,166,154,14,10,12,7,0.6,0.4
2025-05-19T0000,1585A,109.8756,40.6532,包头市,市环境监测站,颗粒物(PM10),74,98,86,33,28,0,,106,58,71,29,8,15,0.4,0.5
2025-05-19T0000,1587A,109.9991,40.5842,包头市,包头八中,颗粒物(PM10),88,126,88,62,43,1,,104,58,74,27,11,11,0.8,0.7
2025-05-19T0000,1588A,109.8538,40.6821,包头市,青山宾馆,细颗粒物(PM2.5),97,114,93,72,41,1,,105,53,72,30,9,11,0.6,0.6
2025-05-19T0000,1589A,109.8642,40.6288,包头市,惠龙物流,颗粒物(PM10),74,98,81,34,26,2,,106,66,74,24,15,20,0.6,0.5
2025-05-19T0000,1590A,110.0377,40.5546,包头市,东河鸿龙湾,颗粒物(PM10),67,84,73,29,26,18,,106,70,50,16,5,6,0.6,0.4
2025-05-19T0000,3283A,109.9154,40.5685,包头市,滨河大厦,颗粒物(PM10),63,76,72,23,19,37,,108,77,42,17,6,8,0.4,0.4
2025-05-19T0000,3419A,109.9447,40.6261,包头市,包头市委党校,颗粒物(PM10),71,92,79,40,32,9,,104,66,60,19,11,13,0.9,0.9
2025-05-19T0000,3683A,109.8331,40.6576,包头市,昆区政府,颗粒物(PM10),79,107,82,51,38,2,,103,57,76,30,10,17,1.2,1
2025-05-19T0000,1930A,107.185,34.3063,宝鸡市,庙沟村,细颗粒物(PM2.5),57,58,162,40,79,100,,131,120,17,12,7,8,0.4,0.4
2025-05-19T0000,1931A,107.0708,34.3017,宝鸡市,竹园沟,颗粒物(PM10),63,75,161,35,70,108,,125,104,6,11,4,4,0.4,0.4
2025-05-19T0000,1932A,107.1906,34.3672,宝鸡市,三陆医院,细颗粒物(PM2.5),85,70,166,63,73,35,,122,78,44,27,13,8,0.5,0.5
2025-05-19T0000,1933A,107.1431,34.3547,宝鸡市,监测站,颗粒物(PM10),59,67,175,38,77,31,,113,71,40,20,5,6,0.4,0.5
2025-05-19T0000,1934A,107.1186,34.3739,宝鸡市,技工学校,细颗粒物(PM2.5),183,,171,138,76,60,,122,88,15,11,8,6,0.7,0.6
2025-05-19T0000,1935A,107.3906,34.3528,宝鸡市,陈仓区环保局家属楼,细颗粒物(PM2.5),67,82,193,48,86,55,,129,70,24,23,4,16,0.4,0.5
2025-05-19T0000,1936A,107.2058,34.3497,宝鸡市,文理学院,细颗粒物(PM2.5),72,80,174,52,87,55,,125,85,26,17,8,8,0.5,0.4
2025-05-19T0000,1937A,107.2386,34.3622,宝鸡市,三迪小学,,,,199,,104,,,126,,,20,,8,,0.4
2025-05-19T0000,1051A,115.493,38.8632,保定市,游泳馆,颗粒物(PM10),69,88,74,41,33,88,,162,133,26,19,5,5,0.3,0.3
2025-05-19T0000,1052A,115.5213,38.8959,保定市,华电二区,颗粒物(PM10),63,76,56,35,26,77,,159,132,20,10,5,5,0.4,0.3
2025-05-19T0000,1053A,115.4713,38.9108,保定市,接待中心,颗粒物(PM10),64,77,61,34,29,79,,163,139,27,14,2,4,0.5,0.4
2025-05-19T0000,1054A,115.4612,38.8416,保定市,地表水厂,颗粒物(PM10),75,100,77,33,27,92,,159,131,25,21,2,4,0.3,0.3
2025-05-19T0000,3581A,115.31981,38.95208,保定市,满城区生态环境分局,颗粒物(PM10),76,102,78,34,32,91,,170,146,26,16,6,8,0.6,0.6
2025-05-19T0000,3582A,115.47694,38.76408,保定市,清苑区第二中学,颗粒物(PM10),95,140,83,36,28,58,,162,126,52,17,4,5,0.5,0.4
2025-05-19T0000,3583A,115.62909,39.02311,保定市,徐水物探局,颗粒物(PM10),69,87,78,31,23,73,,153,119,33,21,3,4,0.2,0.2
2025-05-19T0000,4004A,115.4202,38.8656,保定市,双鹰农机,颗粒物(PM10),63,75,63,41,32,90,,159,136,23,17,4,6,0.4,0.4
2025-05-19T0000,4034A,115.5150,38.8590,保定市,植保所站,颗粒物(PM10),71,91,71,22,26,88,,162,134,20,10,6,6,0.5,0.5
2025-05-19T0000,2594A,99.1678,25.1081,保山市,市环境监测站,,29,29,24,16,19,92,,108,101,5,7,6,7,0.5,0.5
2025-05-19T0000,2595A,99.1711,25.1328,保山市,市环保局,,37,37,29,18,13,95,,115,108,4,5,6,6,0.3,0.3
2025-05-19T0000,1866A,109.2262,21.588,北海市,牛尾岭水库,,,,,,,,,,,,,,,,
2025-05-19T0000,1867A,109.1436,21.4086,北海市,海滩公园,,15,15,21,7,7,48,,71,62,5,5,5,5,0.8,0.7
2025-05-19T0000,1868A,109.0981,21.4661,北海市,新市环保局,,32,29,19,22,11,33,,72,59,19,9,7,3,0.3,0.3
2025-05-19T0000,1869A,109.1778,21.5233,北海市,北海工业园,,32,24,24,22,14,17,,68,48,22,14,23,11,0.5,0.5
2025-05-19T0000,3400A,109.1911,21.4415,北海市,龙潭自来水厂,,26,25,20,18,14,21,,72,55,20,10,6,4,0.4,0.3
2025-05-19T0000,1001A,116.3621,39.8784,北京市,万寿西宫,颗粒物(PM10),53,56,50,29,25,57,,118,102,38,36,4,4,0.7,0.6
2025-05-19T0000,1002A,116.2202,40.2915,北京市,定陵,,,,,,,,,,,,,,,,
2025-05-19T0000,1003A,116.4174,39.9289,北京市,东四,颗粒物(PM10),67,83,54,38,23,69,,113,97,38,33,4,4,0.6,0.5
2025-05-19T0000,1004A,116.4072,39.8863,北京市,天坛,颗粒物(PM10),61,71,50,39,24,72,,126,111,26,33,2,3,0.5,0.4
2025-05-19T0000,1005A,116.462,39.9365,北京市,农展馆,颗粒物(PM10),61,71,51,38,23,43,,110,92,50,35,4,4,0.6,0.3
2025-05-19T0000,1006A,116.3392,39.9295,北京市,官园,颗粒物(PM10),51,52,74,24,26,53,,105,88,38,28,7,8,0.4,0.3
2025-05-19T0000,1007A,116.2878,39.9611,北京市,海淀万柳,颗粒物(PM10),51,51,39,24,16,50,,91,71,34,35,5,6,0.4,0.4
2025-05-19T0000,1008A,116.6636,40.135,北京市,顺义新城,颗粒物(PM10),60,69,50,35,23,37,,108,84,40,24,5,6,0.5,0.3
2025-05-19T0000,1009A,116.6275,40.3275,北京市,怀柔镇,,26,26,34,15,18,67,,98,82,10,19,2,3,0.5,0.5
2025-05-19T0000,1010A,116.2296,40.217,北京市,昌平镇,,38,38,29,18,14,43,,94,60,25,21,4,4,0.3,0.3
2025-05-19T0000,1011A,116.3966,39.9821,北京市,奥体中心,颗粒物(PM10),51,52,42,25,24,32,,95,78,65,37,4,4,0.3,0.2
2025-05-19T0000,3281A,115.9718,40.4529,北京市,延庆夏都,,41,41,26,22,13,75,,92,80,13,16,4,4,0.4,0.4
2025-05-19T0000,3418A,116.8336,40.4095,北京市,密云新城,,47,47,35,27,17,26,,95,62,14,12,3,2,0.5,0.3
2025-05-19T0000,3671A,116.088,39.9726,北京市,门头沟三家店,颗粒物(PM10),56,62,39,28,19,42,,80,56,25,20,8,8,0.1,0.1
2025-05-19T0000,3672A,116.1541,39.8204,北京市,丰台云岗,颗粒物(PM10),59,68,52,30,21,54,,110,82,38,26,4,3,0.4,0.3
2025-05-19T0000,3673A,116.6804,39.9081,北京市,通州东关,颗粒物(PM10),68,86,66,44,29,70,,148,127,36,26,6,4,0.5,0.4
2025-05-19T0000,3674A,115.9577,39.7603,北京市,房山燕山,颗粒物(PM10),53,55,51,27,23,63,,118,90,27,24,2,3,0.5,0.4
2025-05-19T0000,3675A,116.4672,39.7733,北京市,大兴旧宫,颗粒物(PM10),63,75,59,39,26,90,,142,122,26,19,1,3,0.7,0.6
2025-05-19T0000,3694A,115.986,40.4563,北京市,延庆石河营,,46,46,27,21,13,72,,92,82,14,15,2,2,0.4,0.4
2025-05-19T0000,3695A,116.6151,40.3053,北京市,怀柔新城,,27,27,33,14,17,65,,98,81,10,16,1,3,0.4,0.4
2025-05-19T0000,3696A,116.2545,39.8768,北京市,丰台小屯,颗粒物(PM10),58,66,52,32,21,57,,97,75,27,31,2,3,0.4,0.4
2025-05-19T0000,3697A,116.84,40.3844,北京市,密云镇,,39,39,37,22,17,31,,102,70,26,19,5,6,0.5,0.4
2025-05-19T0000,4182A,116.1942,39.9158,北京市,八角北路9号,颗粒物(PM10),58,66,41,30,20,61,,99,82,37,28,3,2,0.3,0.1
2025-05-19T0000,4194A,117.0790,40.1518,北京市,洳河巡河路,颗粒物(PM10),53,55,43,28,21,63,,128,100,15,14,2,4,0.4,0.3
2025-05-19T0000,1761A,123.8275,41.3064,本溪市,大峪,,41,34,25,16,12,131,,103,103,8,13,6,8,0.6,0.9
2025-05-19T0000,1762A,123.7567,41.3325,本溪市,溪湖,,34,33,38,22,21,108,,99,94,17,18,9,8,1.3,1.6
2025-05-19T0000,1763A,123.7169,41.3094,本溪市,彩屯,,44,44,33,26,19,98,,103,85,32,22,19,13,2.1,1.4
2025-05-19T0000,1764A,123.7669,41.2864,本溪市,东明,,38,37,36,13,17,120,,101,101,10,20,7,10,0.6,1.2
2025-05-19T0000,1765A,123.7992,41.2664,本溪市,新立屯,,39,38,27,27,15,118,,98,98,13,16,5,7,0.5,0.6
2025-05-19T0000,1766A,123.8142,41.3472,本溪市,威宁,,39,39,32,17,15,124,,99,90,12,17,5,6,0.4,0.6
2025-05-19T0000,2587A,105.2864,27.3125,毕节市,八中,,49,49,40,32,29,22,,98,58,13,10,5,5,0.6,0.5
2025-05-19T0000,2588A,105.31,27.2944,毕节市,师专,颗粒物(PM10),52,54,49,30,30,19,,102,59,21,16,3,4,0.5,0.5
2025-05-19T0000,4263A,105.3688,27.3598,毕节市,工业大道,,47,47,44,27,30,12,,98,58,26,16,7,7,0.7,0.7
2025-05-19T0000,1629A,118.0018,37.3617,滨州市,第二水厂,颗粒物(PM10),68,85,76,39,32,40,,145,105,62,29,10,11,0.4,0.2
2025-05-19T0000,1630A,117.9776,37.393,滨州市,北中新校,颗粒物(PM10),65,80,62,39,32,71,,149,120,39,22,13,13,0.4,0.3
2025-05-19T0000,3514A,117.9378,37.3956,滨州市,中海酒店,细颗粒物(PM2.5),79,102,77,58,41,105,,168,141,25,19,17,15,0.8,0.7
2025-05-19T0000,3515A,117.9378,37.3553,滨州市,开发区一中,颗粒物(PM10),79,107,81,53,33,41,,148,103,58,31,10,10,0.7,0.6
2025-05-19T0000,3516A,118.0917,37.694,滨州市,金海六路,颗粒物(PM10),57,63,67,27,30,65,,164,126,36,33,9,10,0.4,0.4
2025-05-19T0000,4028A,117.9956,37.3753,滨州市,滨州市西街道办事处,颗粒物(PM10),64,78,72,39,35,59,,172,126,40,22,9,10,0.5,0.3
2025-05-19T0000,2311A,115.8072,33.8399,亳州市,污水处理厂,颗粒物(PM10),86,121,103,46,25,135,,171,163,14,15,2,5,0.6,0.4
2025-05-19T0000,2312A,115.7789,33.8518,亳州市,三国揽胜宫,颗粒物(PM10),85,119,99,52,28,141,,179,171,12,13,6,7,0.5,0.3
2025-05-19T0000,3332A,115.7633,33.8034,亳州市,亳州学院,颗粒物(PM10),81,111,103,51,28,127,,172,160,14,11,4,5,0.6,0.4
2025-05-19T0000,2693A,82.0485,44.8556,博尔塔拉蒙古自治州,市党校,,25,13,74,3,19,80,,115,104,14,9,12,12,0.4,0.4
2025-05-19T0000,2694A,82.0806,44.8969,博尔塔拉蒙古自治州,市环保局,颗粒物(PM10),52,54,108,15,22,83,,110,100,10,11,6,8,0.6,0.7
2025-05-19T0000,1071A,116.8842,38.2991,沧州市,沧县城建局,颗粒物(PM10),83,115,72,37,28,108,,157,140,20,15,3,3,0.6,0.5
2025-05-19T0000,1072A,116.8584,38.3254,沧州市,电视转播站,颗粒物(PM10),73,96,74,34,31,109,,159,142,23,19,3,5,0.5,0.4
2025-05-19T0000,1073A,116.8709,38.3228,沧州市,市环保局,颗粒物(PM10),80,109,81,37,33,112,,171,152,28,17,2,3,0.5,0.4
2025-05-19T0000,3324A,116.8136,38.3004,沧州市,河北水利电力学院,颗粒物(PM10),79,107,89,29,29,118,,164,147,28,25,8,7,0.6,0.4
2025-05-19T0000,2622A,97.1806,31.1273,昌都市,昌都监测站,,24,,3,3,5,74,,91,84,3,4,3,4,0.2,0.2
2025-05-19T0000,3719A,97.1714,31.1406,昌都市,昌都会议中心,,19,9,6,7,5,59,,92,81,5,3,4,4,0.1,0.1
2025-05-19T0000,2690A,88.1236,43.8886,昌吉回族自治州,天山天池,颗粒物(PM10),52,53,21,14,6,83,,124,107,7,5,8,7,0.5,0.4
2025-05-19T0000,2692A,87.2717,44.0297,昌吉回族自治州,新区政务中心,颗粒物(PM10),186,321,56,48,17,113,,153,135,1,15,5,7,0.3,0.5
2025-05-19T0000,3613A,87.3095,44.0142,昌吉回族自治州,亚心广场,颗粒物(PM10),427,527,104,83,22,104,,140,122,5,22,8,9,0.2,0.5
2025-05-19T0000,1119A,125.3325,43.9166,长春市,食品厂,,32,32,34,10,22,86,,84,80,15,15,4,4,0.2,0.2
2025-05-19T0000,1120A,125.2863,43.9027,长春市,客车厂,,33,33,34,10,24,84,,86,80,14,13,6,5,0.2,0.2
2025-05-19T0000,1121A,125.2841,43.8463,长春市,邮电学院,,28,26,33,14,21,87,,88,86,10,13,6,6,0.5,0.4
2025-05-19T0000,1122A,125.3716,43.8772,长春市,劳动公园,,37,37,33,10,20,77,,86,79,11,9,6,6,0.3,0.3
2025-05-19T0000,1123A,125.3297,43.8805,长春市,园林处,,28,28,32,3,19,89,,88,86,9,9,7,6,0.3,0.4
2025-05-19T0000,1124A,125.4605,43.79,长春市,净月潭,,25,21,30,10,17,78,,84,77,6,7,7,6,0.3,0.3
2025-05-19T0000,1125A,125.7194,43.515,长春市,甩湾子,,,,,,,,,,,,,,,,
2025-05-19T0000,1126A,125.3863,43.8447,长春市,经开区环卫处,,31,31,42,11,18,75,,84,76,11,11,6,6,0.2,0.2
2025-05-19T0000,1127A,125.245,43.7783,长春市,高新区管委会,,32,32,32,10,24,80,,84,76,10,10,6,6,0.3,0.3
2025-05-19T0000,1128A,125.1761,43.8325,长春市,岱山公园,,26,26,33,12,22,76,,83,70,18,13,5,4,0.3,0.3
2025-05-19T0000,1335A,113.0833,28.2325,长沙市,经开区环保局,细颗粒物(PM2.5),88,66,55,65,39,62,,123,93,29,27,5,6,0.9,0.8
2025-05-19T0000,1336A,112.8872,28.2189,长沙市,高开区环保局,颗粒物(PM10),51,51,52,32,37,96,,115,98,6,8,6,5,0.7,0.8
2025-05-19T0000,1337A,113.0792,28.2053,长沙市,马坡岭,细颗粒物(PM2.5),69,69,54,50,40,40,,95,70,27,21,3,3,0.9,0.8
2025-05-19T0000,1338A,112.9394,28.19,长沙市,湖南师范大学,颗粒物(PM10),54,58,55,34,39,71,,98,81,15,17,3,3,0.6,0.6
2025-05-19T0000,1339A,113.0178,28.1322,长沙市,雨花区环保局,,45,45,51,31,30,81,,107,97,15,17,6,5,1.0,1.2
2025-05-19T0000,1340A,112.9792,28.2597,长沙市,伍家岭,颗粒物(PM10),60,69,58,41,36,73,,119,83,18,17,4,3,0.8,0.8
2025-05-19T0000,1341A,113.0014,28.1944,长沙市,火车新站,"颗粒物(PM10),细颗粒物(PM2.5)",55,60,55,39,37,76,,110,94,18,16,8,8,0.9,0.7
2025-05-19T0000,1342A,112.9844,28.1178,长沙市,天心区环保局,"颗粒物(PM10),细颗粒物(PM2.5)",54,58,53,38,36,63,,101,89,26,21,4,3,0.8,0.7
2025-05-19T0000,1343A,112.8908,28.1308,长沙市,湖南中医药大学,细颗粒物(PM2.5),64,63,58,46,45,52,,98,78,25,16,4,4,0.8,0.8
2025-05-19T0000,1344A,112.9581,28.3611,长沙市,沙坪,颗粒物(PM10),59,67,54,40,26,74,,104,71,13,9,5,4,0.8,0.7
2025-05-19T0000,1727A,113.1147,36.1547,长治市,清华站,,50,50,75,14,21,90,,141,113,18,11,10,8,1.0,0.6
2025-05-19T0000,1730A,113.0886,36.2125,长治市,审计局,,45,45,74,14,28,83,,141,112,33,16,11,8,0.3,0.3
2025-05-19T0000,1731A,113.0844,36.1856,长治市,长治八中,颗粒物(PM10),56,61,94,17,35,83,,137,106,25,15,13,10,0.5,0.4
2025-05-19T0000,2845A,113.1569,36.1911,长治市,德盛苑,,35,34,83,12,25,109,,136,120,9,9,8,7,0.5,0.4
2025-05-19T0000,3568A,113.06,36.0464,长治市,向阳小学,颗粒物(PM10),57,64,97,16,29,73,,141,114,28,13,15,10,0.3,0.3
2025-05-19T0000,3569A,112.8792,36.3144,长治市,屯留一中,,37,37,47,9,19,59,,135,101,40,15,9,10,0.6,0.5
2025-05-19T0000,4189A,113.1131,36.19948,长治市,英华南巷50号,,,68,98,24,24,,,150,125,27,12,10,7,0.7,0.5
2025-05-19T0000,4190A,113.2367,36.3344,长治市,学府街1号,颗粒物(PM10),61,72,96,18,23,25,,151,91,82,31,7,5,0.5,0.5
2025-05-19T0000,1854A,111.6975,28.9703,常德市,市二中,细颗粒物(PM2.5),78,62,69,57,58,53,,133,112,16,13,8,8,0.7,0.7
2025-05-19T0000,1857A,111.7158,29.1456,常德市,白鹤山,,,,,,,,,,,,,,,,
2025-05-19T0000,3138A,111.7153,29.0289,常德市,武陵区永安,细颗粒物(PM2.5),87,79,86,64,59,69,,131,116,13,14,7,10,0.6,0.6
2025-05-19T0000,3139A,111.6892,28.9881,常德市,鼎城区玉霞,细颗粒物(PM2.5),84,78,75,62,51,34,,135,102,21,15,7,7,0.8,0.7
2025-05-19T0000,3140A,111.6625,29.0531,常德市,武陵区长庚,细颗粒物(PM2.5),72,74,81,52,51,76,,139,122,16,13,8,8,0.9,0.9
2025-05-19T0000,1196A,119.9633,31.762,常州市,市监测站,颗粒物(PM10),89,128,78,31,27,70,,130,110,16,18,6,8,0.8,0.9
2025-05-19T0000,1200A,119.9468,31.7069,常州市,武进监测站,颗粒物(PM10),83,116,84,28,24,71,,126,110,21,23,10,11,0.6,0.6
2025-05-19T0000,1201A,119.9255,31.9087,常州市,安家,颗粒物(PM10),89,127,89,30,25,67,,119,96,16,16,12,13,0.3,0.3
2025-05-19T0000,3002A,119.9805,31.8174,常州市,行政中心,颗粒物(PM10),73,96,64,26,26,72,,130,108,18,18,8,8,0.5,0.5
2025-05-19T0000,3003A,120.0522,31.7748,常州市,经开区,颗粒物(PM10),68,86,86,28,23,75,,135,114,22,20,12,8,1.6,0.7
2025-05-19T0000,3010A,119.9025,31.7964,常州市,钟楼,颗粒物(PM10),87,124,86,28,26,71,,123,106,16,18,7,9,0.5,0.6
2025-05-19T0000,3429A,119.8598,31.7066,常州市,武进经发区,颗粒物(PM10),92,134,103,39,28,64,,124,103,18,16,10,12,0.8,0.8
2025-05-19T0000,3430A,119.5826,31.7245,常州市,金坛城区,颗粒物(PM10),101,152,103,37,25,64,,139,112,24,15,10,10,0.9,0.6
2025-05-19T0000,2220A,120.4318,41.5881,朝阳市,西梁,,33,31,24,23,10,44,,95,80,35,16,9,7,0.4,0.3
2025-05-19T0000,2221A,120.4521,41.5646,朝阳市,河畔小区,,36,26,26,25,13,64,,104,93,23,12,12,11,0.5,0.4
2025-05-19T0000,2222A,120.4176,41.5648,朝阳市,八里堡,,24,24,41,16,14,63,,94,83,20,16,7,8,0.4,0.5
2025-05-19T0000,2223A,120.3806,41.5969,朝阳市,农业园区,,30,,28,21,11,45,,97,79,24,12,6,7,0.4,0.4
2025-05-19T0000,1705A,116.6367,23.6719,潮州市,西园路,,27,27,28,12,18,24,,87,48,16,15,4,4,0.3,0.3
2025-05-19T0000,3026A,116.6183,23.6608,潮州市,市政府,,15,13,31,10,12,46,,87,53,7,16,8,10,0.5,0.6
2025-05-19T0000,4036A,116.6461,23.6761,潮州市,金山,,28,28,33,15,16,19,,97,45,15,15,6,8,0.7,0.7
2025-05-19T0000,2472A,113.0073,25.9061,郴州市,马头岭,,11,11,14,6,8,24,,43,28,8,10,6,7,0.3,0.4
2025-05-19T0000,2473A,113.0116,25.8226,郴州市,市职中,,14,14,16,8,11,20,,46,33,9,10,2,3,0.7,0.7
2025-05-19T0000,2475A,113.0383,25.8071,郴州市,市审计局,,15,15,13,3,8,24,,51,38,10,9,4,3,0.6,0.5
2025-05-19T0000,2476A,113.0348,25.7759,郴州市,市环保局,,12,12,15,3,10,23,,38,29,11,12,4,5,0.4,0.5
2025-05-19T0000,4252A,113.0138,25.8011,郴州市,好美居路49号,,13,13,14,7,9,25,,51,38,11,10,6,5,0.6,0.6
2025-05-19T0000,1431A,103.9728,30.7236,成都市,金泉两河,细颗粒物(PM2.5),113,90,113,85,94,70,,222,164,50,32,5,6,0.6,0.6
2025-05-19T0000,1432A,104.176,30.6872,成都市,十里店,细颗粒物(PM2.5),87,86,123,64,88,144,,245,204,19,32,6,6,0.8,1
2025-05-19T0000,1433A,104.079,30.5706,成都市,三瓦窑,细颗粒物(PM2.5),77,82,120,56,88,134,,230,194,27,40,7,7,1.0,1.1
2025-05-19T0000,1434A,104.1114,30.63,成都市,沙河铺,细颗粒物(PM2.5),75,86,116,55,83,115,,203,166,24,29,8,8,1.0,1.1
2025-05-19T0000,1437A,104.0786,30.6531,成都市,君平街,细颗粒物(PM2.5),82,103,130,60,91,98,,202,165,30,35,15,9,0.8,0.9
2025-05-19T0000,1438A,103.613,31.0283,成都市,灵岩寺,,,,,,,,,,,,,,,,
2025-05-19T0000,2880A,104.0239,30.65639,成都市,大石西路,细颗粒物(PM2.5),108,115,128,81,91,92,,227,172,52,46,8,7,0.9,0.9
2025-05-19T0000,3136A,104.2725,30.5589,成都市,龙泉驿区区政府,细颗粒物(PM2.5),67,75,82,48,56,121,,166,150,22,22,6,6,0.7,0.7
2025-05-19T0000,3357A,104.0106,30.6931,成都市,金博路,细颗粒物(PM2.5),90,88,129,67,87,108,,231,185,42,45,13,10,0.7,0.8
2025-05-19T0000,3359A,104.0578,30.5225,成都市,华阳,细颗粒物(PM2.5),89,80,99,66,76,108,,194,163,27,29,8,8,0.6,0.7
2025-05-19T0000,3488A,104.3853,30.7453,成都市,青白江技师分院,细颗粒物(PM2.5),105,96,108,79,75,150,,235,204,33,36,8,7,0.7,0.8
2025-05-19T0000,3489A,104.0789,30.4072,成都市,科学城,细颗粒物(PM2.5),88,91,96,65,73,129,,190,178,18,23,7,6,0.8,0.8
2025-05-19T0000,4011A,103.8506,30.6947,成都市,光华大道三段,细颗粒物(PM2.5),122,114,137,92,107,133,,215,190,19,24,9,7,0.9,1
2025-05-19T0000,4224A,104.2433,30.5353,成都市,鲸龙路1057号,细颗粒物(PM2.5),84,92,99,62,68,104,,186,166,61,35,8,8,0.7,0.8
2025-05-19T0000,1062A,117.9531,40.9081,承德市,铁路,,36,36,20,12,6,57,,97,84,20,15,4,4,0.3,0.2
2025-05-19T0000,1063A,117.9392,40.9763,承德市,中国银行,,24,24,18,8,7,45,,99,80,16,10,3,3,0.4,0.3
2025-05-19T0000,1064A,117.9503,40.928,承德市,开发区,,30,30,30,20,15,63,,102,88,8,12,3,3,0.3,0.3
2025-05-19T0000,1065A,117.8051,40.9655,承德市,文化中心,,24,24,27,3,6,49,,97,74,22,15,3,7,0.4,0.4
2025-05-19T0000,1066A,117.9268,41.0026,承德市,离宫,,45,,20,31,19,40,,101,76,9,7,2,3,0.2,0.3
2025-05-19T0000,2314A,117.47,30.6618,池州市,池州学院,细颗粒物(PM2.5),79,106,143,58,49,88,,155,132,19,16,6,7,0.9,0.7
2025-05-19T0000,3237A,117.4918,30.6617,池州市,展览馆,颗粒物(PM10),78,106,140,42,44,65,,155,126,21,15,5,6,0.9,0.7
2025-05-19T0000,3333A,117.5627,30.695,池州市,第八中学,颗粒物(PM10),86,121,142,56,46,77,,153,124,24,17,6,8,0.8,0.5
2025-05-19T0000,3334A,117.5038,30.6243,池州市,第十二中学,颗粒物(PM10),70,89,141,46,42,85,,153,126,18,14,6,7,1.2,0.8
2025-05-19T0000,1744A,118.9233,42.2816,赤峰市,松山一中,颗粒物(PM10),55,60,24,19,5,14,,99,57,68,20,35,9,1.0,0.4
2025-05-19T0000,1745A,118.9576,42.2728,赤峰市,哈达街,细颗粒物(PM2.5),59,42,19,42,16,8,,88,58,77,24,66,10,0.8,0.4
2025-05-19T0000,1746A,118.8788,42.2554,赤峰市,天义路,,25,25,9,15,6,18,,94,58,49,15,7,7,0.4,0.3
2025-05-19T0000,3058A,119.2658,42.0353,赤峰市,银河街,,35,35,20,23,9,47,,89,71,18,10,14,16,0.5,0.4
2025-05-19T0000,3286A,118.9359,42.3147,赤峰市,桥北物流园区,,40,40,17,16,9,30,,85,52,48,19,25,8,0.7,0.5
2025-05-19T0000,2521A,107.3476,22.4136,崇左市,市环保局江州分局,,15,,23,6,12,45,,67,52,2,6,5,5,0.3,0.3
2025-05-19T0000,4256A,107.3750,22.3736,崇左市,石景林东路7号,,14,,20,7,12,43,,72,54,6,8,3,2,0.5,0.5
2025-05-19T0000,2298A,118.3093,32.3153,滁州市,老年大学,颗粒物(PM10),92,134,103,48,30,105,,158,136,23,17,4,3,0.6,0.4
2025-05-19T0000,2299A,118.3244,32.2786,滁州市,人大宾馆,颗粒物(PM10),88,126,98,49,28,82,,142,120,26,17,11,10,0.5,0.4
2025-05-19T0000,3207A,118.3118,32.3038,滁州市,市政府原办公楼,颗粒物(PM10),87,124,91,46,29,103,,158,135,19,13,6,6,0.5,0.4
2025-05-19T0000,3331A,118.3267,32.2634,滁州市,图书馆,颗粒物(PM10),79,108,81,47,31,86,,142,120,21,12,11,9,0.6,0.4
2025-05-19T0000,2605A,101.5482,25.0441,楚雄彝族自治州,州环境监测站,,28,,22,14,18,88,,110,100,11,13,10,10,0.4,0.4
2025-05-19T0000,2606A,101.538,25.0492,楚雄彝族自治州,市经济开发区,,27,23,26,16,19,84,,110,97,13,14,7,10,0.6,0.5
2025-05-19T0000,2548A,107.5277,31.2827,达州市,达州职业技术学院,颗粒物(PM10),66,81,68,37,30,32,,134,92,36,19,7,9,0.6,0.6
2025-05-19T0000,2549A,107.5086,31.2186,达州市,市环境监测站,颗粒物(PM10),65,79,72,39,36,41,,143,101,43,24,5,6,0.5,0.4
2025-05-19T0000,2550A,107.4988,31.2132,达州市,凤凰小区,细颗粒物(PM2.5),67,78,72,48,39,39,,137,94,41,21,6,8,0.6,0.5
2025-05-19T0000,2551A,107.5082,31.1986,达州市,达县机关宾馆,颗粒物(PM10),68,85,71,48,29,5,,139,,71,37,5,6,0.5,0.4
2025-05-19T0000,2552A,107.4644,31.2124,达州市,市政中心,颗粒物(PM10),73,95,77,46,38,8,,141,90,73,24,3,3,0.9,0.6
2025-05-19T0000,2614A,100.1542,25.7054,大理白族自治州,大理市环境监测站,,30,23,18,20,18,94,,101,101,8,7,7,7,0.3,0.3
2025-05-19T0000,2615A,100.2171,25.5811,大理白族自治州,大理古城,,25,22,21,16,12,79,,115,92,6,8,7,7,0.6,0.6
2025-05-19T0000,1109A,121.612,38.9741,大连市,甘井子,,34,34,32,14,19,97,,146,121,16,19,2,2,0.3,0.3
2025-05-19T0000,1110A,121.565,38.9511,大连市,周水子,,35,35,37,13,20,91,,132,111,10,14,7,6,0.3,0.3
2025-05-19T0000,1111A,121.5637,38.8845,大连市,星海三站,,30,30,35,13,22,91,,136,115,8,11,2,2,0.3,0.4
2025-05-19T0000,1112A,121.6302,38.9117,大连市,青泥洼桥,,32,25,30,14,19,101,,150,121,13,12,6,7,0.2,0.3
2025-05-19T0000,1113A,121.6251,38.8638,大连市,傅家庄,,32,30,33,12,22,102,,144,125,12,17,8,8,0.2,0.3
2025-05-19T0000,1114A,121.5213,38.8661,大连市,七贤岭,,29,29,38,13,22,92,,141,115,14,15,5,6,0.4,0.4
2025-05-19T0000,1115A,121.2529,38.8061,大连市,旅顺,,29,21,31,11,22,90,,135,111,14,16,6,6,0.3,0.3
2025-05-19T0000,1116A,121.7485,39.1311,大连市,金州,,31,23,36,13,21,97,,152,123,13,19,6,7,0.2,0.3
2025-05-19T0000,1117A,121.7811,39.0496,大连市,开发区,,35,35,40,13,21,90,,144,116,16,24,6,7,0.2,0.3
2025-05-19T0000,1118A,121.9762,39.0631,大连市,双D港,,33,33,34,12,22,98,,135,116,8,18,8,9,0.3,0.4
2025-05-19T0000,1789A,124.81117,46.03138,大庆市,大同区,,28,28,33,19,24,64,,80,65,5,7,5,5,0.4,0.5
2025-05-19T0000,1790A,125.129,46.533,大庆市,龙凤区,,25,25,39,13,25,49,,79,61,13,11,5,6,0.4,0.4
2025-05-19T0000,1791A,124.902,46.408,大庆市,红岗区,,29,21,34,20,25,52,,87,68,9,7,6,6,0.3,0.3
2025-05-19T0000,1792A,125.153,46.586,大庆市,萨尔图区,,29,29,40,8,23,45,,68,50,14,12,7,8,0.3,0.3
2025-05-19T0000,1793A,124.9042,46.6215,大庆市,让胡路区,,28,19,32,19,26,50,,73,57,6,6,6,6,0.2,0.2
2025-05-19T0000,3481A,125.141,46.634,大庆市,萨区政府监测点,,21,12,33,3,9,65,,82,67,5,6,5,5,0.4,0.4
2025-05-19T0000,1721A,113.3819,40.1097,大同市,果树场,,,,,,,,,,,,,,,,
2025-05-19T0000,1723A,113.2994,40.0758,大同市,云冈宾馆,,30,29,60,7,12,95,,116,110,8,17,11,11,0.4,0.5
2025-05-19T0000,1724A,113.3444,40.0917,大同市,大同大学,,31,31,58,10,22,98,,116,110,7,18,9,12,0.3,0.4
2025-05-19T0000,1725A,113.2661,40.1269,大同市,安家小村,,30,29,65,13,22,96,,115,109,3,13,6,9,0.5,0.8
2025-05-19T0000,1726A,113.2711,40.0844,大同市,教育学院,,33,33,67,18,23,86,,112,103,8,16,10,9,0.2,0.4
2025-05-19T0000,3282A,113.3397,40.0597,大同市,大同市卫生学校,,35,35,61,14,17,87,,106,99,6,17,8,10,0.4,0.4
2025-05-19T0000,3565A,113.1367,40.1122,大同市,云冈站,,33,27,57,23,27,77,,109,100,9,10,6,6,0.3,0.3
2025-05-19T0000,3566A,113.1186,40.2556,大同市,图书馆,,45,45,53,30,23,81,,98,92,4,6,5,6,0.5,0.7
2025-05-19T0000,3567A,113.5931,40.0461,大同市,区一中,,46,46,66,20,23,86,,113,101,9,14,12,15,0.5,0.5
2025-05-19T0000,4199A,113.2798,40.0997,大同市,魏都大道141号,,29,28,71,8,16,91,,113,105,7,18,5,8,0.4,0.6
2025-05-19T0000,2269A,124.1069,50.4097,大兴安岭地区,科技局,,20,16,14,14,9,51,,80,65,2,2,5,5,0.1,0.1
2025-05-19T0000,3663A,124.1164,50.4278,大兴安岭地区,红旗社区,,11,6,2,3,2,33,,78,61,9,2,2,2,0.3,0.2
2025-05-19T0000,1600A,124.3303,40.0625,丹东市,江湾东路,,38,34,31,17,22,120,,120,120,6,10,5,8,0.5,0.6
2025-05-19T0000,1601A,124.4256,40.1503,丹东市,临江后街,,44,44,39,21,19,116,,109,109,12,15,6,8,0.7,0.7
2025-05-19T0000,1602A,124.3933,40.1461,丹东市,元宝山,,45,45,33,18,20,120,,111,111,9,11,8,8,0.7,0.6
2025-05-19T0000,1603A,124.3633,40.1092,丹东市,民主桥,颗粒物(PM10),58,65,49,22,18,122,,118,118,7,14,7,9,0.6,0.6
2025-05-19T0000,3541A,109.5726,19.5167,儋州市,第一中学子站,,19,19,17,9,8,44,,58,58,4,4,6,6,0.6,0.6
2025-05-19T0000,3542A,109.5567,19.5187,儋州市,东坡学校子站,,19,17,15,13,10,38,,58,57,9,5,5,5,0.6,0.5
2025-05-19T0000,2616A,98.5842,24.428,德宏傣族景颇族自治州,德宏州监测站,,49,49,38,33,23,47,,102,78,18,11,8,7,0.7,0.6
2025-05-19T0000,3677A,98.5881,24.4368,德宏傣族景颇族自治州,芒市人民政府综合楼,颗粒物(PM10),51,52,44,30,21,59,,118,94,12,9,6,6,0.6,0.6
2025-05-19T0000,1901A,104.4239,31.1208,德阳市,东山公园,颗粒物(PM10),92,134,149,66,95,140,,219,207,29,22,7,6,1.4,1.3
2025-05-19T0000,1902A,104.3826,31.1317,德阳市,西小区,细颗粒物(PM2.5),122,151,141,92,101,120,,228,199,46,29,7,7,1.2,1.2
2025-05-19T0000,1904A,104.3553,31.1091,德阳市,耐火材料厂,细颗粒物(PM2.5),115,168,151,87,99,93,,215,184,54,32,9,8,0.9,0.9
2025-05-19T0000,3639A,104.4019,31.1244,德阳市,市教育局,细颗粒物(PM2.5),99,143,142,74,98,139,,239,209,36,29,8,8,1.1,1.1
2025-05-19T0000,1622A,116.3032,37.4674,德州市,儿童乐园,颗粒物(PM10),81,112,103,31,30,128,,163,146,11,13,11,8,0.7,0.5
2025-05-19T0000,1624A,116.2991,37.4451,德州市,监理站,颗粒物(PM10),76,102,99,27,28,134,,171,152,11,16,12,10,0.6,0.5
2025-05-19T0000,3066A,116.2721,37.4379,德州市,九衢泉纯净水厂,颗粒物(PM10),73,95,102,31,34,113,,155,132,22,28,9,7,0.7,0.5
2025-05-19T0000,3371A,116.3728,37.4403,德州市,开发区人民医院,颗粒物(PM10),74,97,109,29,30,119,,167,148,19,16,8,8,0.8,0.6
2025-05-19T0000,3372A,116.3572,37.4094,德州市,太阳城中学,颗粒物(PM10),73,95,114,27,33,122,,158,142,12,21,7,7,0.6,0.5
2025-05-19T0000,3511A,116.5652,37.3319,德州市,陵城艺术中心,颗粒物(PM10),75,100,101,22,29,135,,170,156,13,20,10,9,0.3,0.3
2025-05-19T0000,2621A,99.7056,27.8317,迪庆藏族自治州,迪庆州站,,41,21,27,14,15,131,,141,138,12,12,5,5,0.2,0.2
2025-05-19T0000,3180A,99.7136,27.8094,迪庆藏族自治州,质量技术监督局,,40,16,20,11,10,128,,138,132,6,8,3,4,0.2,0.4
2025-05-19T0000,4257A,104.6092,35.5962,定西市,将台街,颗粒物(PM10),57,64,62,29,23,51,,150,113,47,25,4,5,0.2,0.1
2025-05-19T0000,4309A,104.6159,35.5701,定西市,正龙路62号,颗粒物(PM10),57,64,57,30,24,74,,143,121,15,9,6,7,0.2,0.2
2025-05-19T0000,1389A,113.7547,23.0494,东莞市,莞城梨川,,43,40,19,30,16,7,,64,26,39,25,11,8,0.6,0.5
2025-05-19T0000,1390A,113.7944,23.0128,东莞市,东城石井,,38,38,22,19,11,1,,59,19,39,24,3,3,0.6,0.5
2025-05-19T0000,1391A,113.7383,22.9658,东莞市,南城西平,,46,46,18,19,8,3,,68,17,43,25,1,2,0.9,0.6
2025-05-19T0000,3319A,113.7338,23.0381,东莞市,万江金泰,,32,32,18,21,11,0,,47,13,38,24,8,6,0.9,0.8
2025-05-19T0000,3626A,113.7533,23.0202,东莞市,南城元岭,,33,31,19,23,13,6,,62,25,41,25,4,4,0.8,0.6
2025-05-19T0000,3627A,113.7875,23.0457,东莞市,东城主山,,31,31,19,15,8,16,,60,25,24,22,5,5,0.6,0.5
2025-05-19T0000,1666A,118.6614,37.4309,东营市,市环保局,,46,46,55,17,20,71,,147,108,24,25,22,9,0.5,0.6
2025-05-19T0000,3036A,118.6904,37.4338,东营市,开发区管委会,,48,48,64,17,19,79,,150,110,16,21,9,7,0.5,0.5
2025-05-19T0000,3365A,118.5719,37.565,东营市,垦利区民丰路,颗粒物(PM10),51,51,61,19,20,79,,171,127,29,25,7,8,0.8,0.8
2025-05-19T0000,3498A,118.5055,37.8612,东营市,河口城区,颗粒物(PM10),56,61,61,12,21,84,,165,134,25,23,10,10,1.0,0.9
2025-05-19T0000,3646A,118.4978,37.4623,东营市,胜利站,,48,48,63,12,23,83,,163,121,21,28,9,11,0.7,0.7
2025-05-19T0000,3734A,118.35,37.26,东营市,理想之城,,39,39,61,17,27,63,,163,116,36,29,6,6,0.6,0.6
2025-05-19T0000,1591A,110.0023,39.8129,鄂尔多斯市,综合楼,颗粒物(PM10),98,146,113,56,33,52,,109,81,44,22,9,9,0.2,0.2
2025-05-19T0000,1592A,109.9486,39.8261,鄂尔多斯市,巴音孟克林场办事处,颗粒物(PM10),96,141,101,46,38,98,,112,93,15,17,5,6,0.3,0.4
2025-05-19T0000,1593A,109.7736,39.5986,鄂尔多斯市,康泽苑,细颗粒物(PM2.5),83,114,108,61,41,31,,114,78,36,14,10,9,0.3,0.2
2025-05-19T0000,1594A,109.8119,39.5989,鄂尔多斯市,华泰汽车城,颗粒物(PM10),87,124,111,46,35,67,,109,73,23,18,4,4,0.2,0.2
2025-05-19T0000,1595A,109.9734,39.7884,鄂尔多斯市,奥林花园,颗粒物(PM10),85,119,106,41,31,32,,112,70,16,22,1,2,0,0.2
2025-05-19T0000,2436A,114.8938,30.3994,鄂州市,市政府,细颗粒物(PM2.5),196,234,204,147,85,100,,191,154,35,27,14,11,1.5,0.7
2025-05-19T0000,2437A,114.8989,30.3714,鄂州市,赵家坝,细颗粒物(PM2.5),149,186,191,114,73,93,,174,140,34,24,12,8,1.5,0.8
2025-05-19T0000,3654A,114.8094,30.4089,鄂州市,精准医疗中心,细颗粒物(PM2.5),150,142,157,115,77,90,,171,138,28,22,10,6,1.2,0.7
2025-05-19T0000,2454A,109.4978,30.2981,恩施土家族苗族自治州,湖北民院,颗粒物(PM10),56,61,52,24,23,49,,124,97,13,8,6,6,0.5,0.5
2025-05-19T0000,2455A,109.4707,30.2798,恩施土家族苗族自治州,州电力总公司,,49,49,39,29,21,23,,98,71,28,11,8,7,0.3,0.3
2025-05-19T0000,3549A,109.5061,30.3772,恩施土家族苗族自治州,龙凤新区,,45,45,41,19,22,45,,114,81,10,9,6,6,0.4,0.4
2025-05-19T0000,2499A,108.3411,21.6158,防城港市,沙万,,36,36,24,14,11,13,,29,17,38,14,1,1,0.6,0.5
2025-05-19T0000,2500A,108.3514,21.7731,防城港市,防城档案局,,29,29,20,14,12,17,,31,19,12,8,2,2,0.6,0.5
2025-05-19T0000,2501A,108.3506,21.6414,防城港市,大海花园,,41,41,24,14,8,11,,43,30,30,8,2,2,0.6,0.5
2025-05-19T0000,1371A,113.1294,23.0067,佛山市,湾梁,,27,24,16,18,11,1,,52,24,54,26,8,7,0.6,0.5
2025-05-19T0000,1372A,113.1083,23.0478,佛山市,华材职中,,36,36,16,14,11,0,,47,20,58,26,4,4,0.6,0.4
2025-05-19T0000,1373A,113.144,23.0453,佛山市,南海气象局,,30,30,19,13,12,0,,43,10,42,24,1,1,0.7,0.6
2025-05-19T0000,1374A,113.2881,22.8094,佛山市,顺德苏岗,,33,33,24,9,8,0,,50,14,45,20,6,6,0.7,0.6
2025-05-19T0000,1376A,112.8383,22.8678,佛山市,高明孔堂,,33,33,26,12,12,13,,50,32,13,16,5,6,0.6,0.6
2025-05-19T0000,1377A,112.8836,23.1588,佛山市,三水监测站,,25,24,15,17,14,6,,44,25,41,29,3,4,0.6,0.5
2025-05-19T0000,1378A,112.867,23.185,佛山市,三水云东海,,44,44,32,23,14,7,,63,30,30,29,3,2,0.5,0.5
2025-05-19T0000,3625A,113.2544,22.7642,佛山市,容桂街道办,,35,27,15,24,13,2,,45,16,37,24,5,5,0.9,0.8
2025-05-19T0000,1280A,119.3903,26.0543,福州市,鼓山,,,,23,,14,,,102,,,9,,3,,0.3
2025-05-19T0000,1282A,119.2681,26.0504,福州市,师大,,25,6,23,3,14,80,,98,84,8,10,3,3,0.3,0.3
2025-05-19T0000,1283A,119.2984,26.1028,福州市,五四北路,,23,6,21,3,15,72,,95,80,12,14,3,3,0.4,0.4
2025-05-19T0000,1284A,119.2648,26.0768,福州市,杨桥西路,,25,6,26,3,17,80,,96,83,10,12,3,3,0.3,0.3
2025-05-19T0000,1285A,119.317,26.0746,福州市,紫阳,,25,6,27,3,16,77,,97,85,11,14,3,4,0.1,0.1
2025-05-19T0000,3048A,119.5799,26.0936,福州市,九龙,,23,8,17,3,12,72,,99,97,7,8,4,4,0.3,0.2
2025-05-19T0000,3526A,119.5189,25.9664,福州市,吴航,,27,6,30,3,19,85,,95,94,4,12,4,4,0.3,0.4
2025-05-19T0000,1755A,123.7977,41.8491,抚顺市,望花区,,49,49,42,23,20,78,,103,86,32,25,9,9,0.8,0.8
2025-05-19T0000,1756A,123.9161,41.8822,抚顺市,顺城区,,38,38,35,20,18,46,,95,67,35,24,7,8,0.7,0.6
2025-05-19T0000,1757A,124.0436,41.8611,抚顺市,东洲区,,32,26,35,22,21,54,,96,74,24,17,6,8,0.5,0.5
2025-05-19T0000,1758A,123.9247,41.8642,抚顺市,新抚区,,34,34,37,16,17,33,,88,61,29,17,6,7,0.5,0.5
2025-05-19T0000,1759A,124.0972,41.8961,抚顺市,大伙房水库,,30,24,24,21,16,74,,104,88,18,15,8,9,0.7,0.7
2025-05-19T0000,1760A,123.7086,41.8391,抚顺市,沈抚新城,,35,35,36,20,18,84,,99,87,24,22,9,10,1.0,0.7
2025-05-19T0000,2376A,116.2127,28.0814,抚州市,桐源党溪,,30,30,27,12,9,17,,68,41,3,3,4,7,0.5,0.5
2025-05-19T0000,2377A,116.3544,27.9831,抚州市,市站,,22,22,18,11,9,31,,58,54,23,9,1,2,0.5,0.6
2025-05-19T0000,2378A,116.3565,27.963,抚州市,血防站,,30,30,21,18,10,34,,56,50,21,7,3,3,0.4,0.4
2025-05-19T0000,2379A,116.3564,28.0007,抚州市,采茶剧团,,25,25,18,11,7,30,,49,46,11,5,2,3,0.3,0.3
2025-05-19T0000,2380A,116.385,27.9647,抚州市,医学分院,,28,28,18,11,7,38,,58,54,14,5,7,6,0.7,0.5
2025-05-19T0000,2207A,121.6094,41.998,阜新市,工业园区,,42,32,35,29,12,115,,109,109,11,10,17,10,0.4,0.3
2025-05-19T0000,2208A,121.6697,42.0279,阜新市,长青街,,36,22,25,18,10,115,,102,102,17,12,11,9,0.4,0.3
2025-05-19T0000,2209A,121.6673,42.0705,阜新市,农业园区,,,,,,,,,,,,,,,,
2025-05-19T0000,2210A,121.6717,42.0224,阜新市,东苑,,49,,33,34,14,131,,109,109,13,12,9,9,0.4,0.4
2025-05-19T0000,2211A,121.6506,42.0498,阜新市,玉龙新城,,34,24,32,18,9,108,,103,103,12,12,10,8,0.2,0.2
2025-05-19T0000,2301A,115.8277,32.8929,阜阳市,市监测站,细颗粒物(PM2.5),79,104,109,58,35,114,,166,150,20,19,8,9,0.7,0.4
2025-05-19T0000,2303A,115.8554,32.8605,阜阳市,开发区,颗粒物(PM10),110,169,138,61,29,113,,174,156,17,16,7,8,0.6,0.3
2025-05-19T0000,2875A,115.784,32.8892,阜阳市,阜阳职业技术学院,颗粒物(PM10),83,116,99,53,31,128,,179,164,15,17,6,7,0.6,0.5
2025-05-19T0000,3468A,115.7901,32.8613,阜阳市,市规划展馆,细颗粒物(PM2.5),102,107,82,76,43,110,,172,152,17,15,8,9,0.7,0.4
2025-05-19T0000,3469A,115.836,32.9183,阜阳市,枣园社区,颗粒物(PM10),106,161,113,73,38,111,,171,155,15,13,6,6,0.6,0.3
2025-05-19T0000,2669A,102.9099,34.9841,甘南藏族自治州,州政府,颗粒物(PM10),87,123,53,31,23,4,,111,80,74,16,6,6,0.5,0.3
2025-05-19T0000,3380A,102.8914,34.9617,甘南藏族自治州,甘肃民族师范学院,颗粒物(PM10),112,174,74,45,26,0,,118,67,78,25,9,8,0.5,0.4
2025-05-19T0000,2570A,101.9603,30.0475,甘孜藏族自治州,水桥子,,26,21,13,18,8,15,,62,31,25,26,4,4,0.4,0.3
2025-05-19T0000,3065A,101.9533,29.9972,甘孜藏族自治州,州环保局,,16,14,16,3,5,49,,78,52,9,23,1,1,0.3,0.3
2025-05-19T0000,3414A,115.8347,28.932,赣江新区,桑海产业园,,29,29,100,20,34,50,,134,86,29,21,7,8,0.3,0.4
2025-05-19T0000,2362A,114.9017,25.9149,赣州市,通天岩,,11,10,14,3,4,33,,49,41,7,5,2,2,0.6,0.6
2025-05-19T0000,2363A,114.9367,25.8664,赣州市,地委,,19,19,19,7,8,35,,48,41,8,9,8,12,0.4,0.5
2025-05-19T0000,2364A,114.9461,25.8481,赣州市,气象台,,17,17,18,3,6,35,,49,42,8,10,4,8,0.4,0.4
2025-05-19T0000,2365A,114.9322,25.8333,赣州市,市图书馆,,11,11,10,3,8,30,,38,33,6,10,4,4,0.5,0.5
2025-05-19T0000,2366A,114.8905,25.8471,赣州市,华坚鞋城,,21,21,17,7,7,33,,49,44,11,10,5,4,0.2,0.2
2025-05-19T0000,3109A,115.0093,25.8613,赣州市,赣县区卫计委,,,,15,1,8,23,,41,33,9,10,2,3,0.3,0.6
2025-05-19T0000,2683A,106.2319,36.1417,固原市,马园,颗粒物(PM10),69,87,80,23,40,41,,121,74,42,15,6,6,0.2,0.2
2025-05-19T0000,2684A,106.2792,36.0022,固原市,监测站,颗粒物(PM10),60,69,76,28,31,62,,117,87,25,10,7,6,0.3,0.2
2025-05-19T0000,2685A,106.2375,36.0211,固原市,新区,颗粒物(PM10),59,68,77,23,30,56,,113,77,34,14,8,8,0.2,0.2
2025-05-19T0000,3522A,106.2177,35.9959,固原市,原州区十五小,颗粒物(PM10),57,64,78,27,31,88,,116,99,11,6,8,8,0.3,0.3
2025-05-19T0000,2543A,106.6308,30.5278,广安市,小平旧居,,,,,,,,,,,,,,,,
2025-05-19T0000,2544A,106.6303,30.4576,广安市,市委,细颗粒物(PM2.5),100,112,89,75,58,107,,157,137,18,14,7,7,0.7,0.6
2025-05-19T0000,2545A,106.6271,30.4663,广安市,友谊中学,细颗粒物(PM2.5),84,108,82,62,52,125,,173,158,19,17,6,6,0.9,0.8
2025-05-19T0000,2547A,106.6388,30.4551,广安市,广电花园,细颗粒物(PM2.5),84,91,87,62,50,114,,159,140,18,17,6,7,0.8,0.7
2025-05-19T0000,2902A,106.6351,30.4865,广安市,北辰小学,细颗粒物(PM2.5),84,101,88,62,53,124,,171,156,17,15,8,8,0.8,0.7
2025-05-19T0000,2523A,105.8945,32.4535,广元市,黑石坡,细颗粒物(PM2.5),90,111,116,67,68,121,,132,122,12,16,6,6,0.6,0.7
2025-05-19T0000,2524A,105.821,32.4444,广元市,老城,细颗粒物(PM2.5),89,121,111,66,68,34,,143,102,67,22,1,2,1.1,1.2
2025-05-19T0000,2526A,105.8628,32.4287,广元市,监测站,细颗粒物(PM2.5),83,75,94,61,72,109,,147,129,8,10,2,4,0.5,0.6
2025-05-19T0000,3617A,105.8047,32.4166,广元市,经开区,细颗粒物(PM2.5),104,115,122,78,91,44,,147,124,63,20,4,8,1.0,1
2025-05-19T0000,1345A,113.2347,23.1423,广州市,广雅中学,,22,10,18,3,11,1,,2,,43,32,7,6,0.3,0.3
2025-05-19T0000,1346A,113.2612,23.105,广州市,市五中,,26,26,19,16,11,3,,56,16,47,26,3,2,0.3,0.1
2025-05-19T0000,1348A,113.3478,23.0916,广州市,广东商学院,,32,32,18,16,11,8,,55,14,48,32,5,5,0.8,0.6
2025-05-19T0000,1349A,113.4332,23.1047,广州市,市八十六中,,24,23,21,12,11,0,,38,7,47,41,4,3,0.6,0.5
2025-05-19T0000,1350A,113.3505,22.9483,广州市,番禺中学,,34,34,19,23,14,0,,62,18,56,28,12,6,0.7,0.4
2025-05-19T0000,1351A,113.2146,23.3916,广州市,花都师范,,23,20,18,15,12,11,,60,33,45,26,3,3,0.5,0.7
2025-05-19T0000,1352A,113.2597,23.1331,广州市,市监测站,,28,28,19,16,10,3,,56,20,44,26,5,4,0.6,0.4
2025-05-19T0000,1353A,113.5618,23.312,广州市,九龙镇镇龙,,12,12,16,6,10,31,,64,34,12,19,5,5,0.4,0.4
2025-05-19T0000,1354A,113.2765,23.1544,广州市,麓湖,,30,30,17,17,11,0,,52,14,26,19,4,4,0.7,0.5
2025-05-19T0000,1355A,113.443,23.3035,广州市,帽峰山森林公园,,16,16,9,6,5,20,,58,34,14,16,6,5,0.5,0.5
2025-05-19T0000,2846A,113.3221,23.1322,广州市,体育西,,24,23,19,16,12,1,,56,15,47,31,4,4,0.6,0.5
2025-05-19T0000,3298A,113.5717,23.5491,广州市,从化街口,,,18,17,11,12,9,,31,28,58,24,6,6,,0.6
2025-05-19T0000,3299A,113.3472,23.3692,广州市,白云竹料,,19,18,17,13,12,26,,70,38,22,20,2,2,0.5,0.5
2025-05-19T0000,3300A,113.2981,23.237,广州市,白云嘉禾,,24,24,16,14,10,0,,57,18,43,31,6,5,1.0,0.9
2025-05-19T0000,3301A,113.4256,23.1716,广州市,黄埔科学城,,18,18,17,8,11,6,,55,15,25,20,4,3,0.5,0.5
2025-05-19T0000,3302A,113.3942,23.0483,广州市,番禺大学城,,28,23,20,19,11,1,,63,12,54,32,7,5,0.6,0.4
2025-05-19T0000,3303A,113.4922,22.8168,广州市,南沙黄阁,,40,40,21,19,12,4,,56,12,45,20,5,4,0.8,0.6
2025-05-19T0000,3304A,113.5342,22.7896,广州市,南沙街,,41,41,19,22,11,2,,51,10,24,16,1,2,0.7,0.5
2025-05-19T0000,3443A,113.2902,23.5544,广州市,花都梯面,,20,17,16,14,10,19,,51,38,18,17,4,4,0.6,0.6
2025-05-19T0000,3445A,113.7858,23.7478,广州市,从化良口,,17,17,11,3,4,15,,44,34,12,12,6,6,0.6,0.6
2025-05-19T0000,3446A,113.8051,23.2614,广州市,增城荔城,,11,10,19,6,14,32,,60,41,9,14,8,8,1.1,1
2025-05-19T0000,2505A,109.568,23.1478,贵港市,德智高中,,,,,,,,,,,,,,,,
2025-05-19T0000,2506A,109.6047,23.0666,贵港市,江南子站,,29,,28,20,18,12,,49,15,21,20,3,5,0.8,0.8
2025-05-19T0000,2508A,109.5669,23.1065,贵港市,荷城子站,,20,16,16,14,12,25,,44,22,17,20,4,6,0.2,0.3
2025-05-19T0000,3405A,109.5886,23.1172,贵港市,新世纪学校,,20,14,20,14,15,4,,39,14,20,16,1,2,0.9,0.8
2025-05-19T0000,4260A,109.5933,23.0951,贵港市,中山路155-3号,,31,31,33,19,20,22,,50,24,19,19,3,5,0.5,0.6
2025-05-19T0000,1439A,106.6899,26.5998,贵阳市,马鞍山,,44,44,42,27,24,19,,80,60,15,11,3,3,0.7,0.7
2025-05-19T0000,1441A,106.6243,26.6266,贵阳市,鉴湖路,颗粒物(PM10),60,70,48,36,28,30,,96,84,53,22,6,5,0.7,0.5
2025-05-19T0000,1442A,106.7487,26.6343,贵阳市,燕子冲,细颗粒物(PM2.5),55,51,46,39,36,49,,110,90,22,15,4,4,0.4,0.4
2025-05-19T0000,1443A,106.6555,26.4365,贵阳市,碧云窝,颗粒物(PM10),60,70,52,41,31,22,,110,80,26,24,3,3,0.4,0.4
2025-05-19T0000,1445A,106.7109,26.6027,贵阳市,红边门,颗粒物(PM10),51,51,47,31,38,51,,112,90,25,11,3,3,0.5,0.4
2025-05-19T0000,1446A,106.7164,26.5699,贵阳市,新华路,颗粒物(PM10),58,66,42,39,32,33,,106,87,45,15,6,8,0.9,0.6
2025-05-19T0000,1447A,106.674,26.5424,贵阳市,太慈桥,颗粒物(PM10),52,53,41,31,27,30,,99,73,23,19,4,4,0.3,0.3
2025-05-19T0000,1552A,106.805,26.3003,贵阳市,桐木岭,细颗粒物(PM2.5),70,68,50,51,33,65,,111,96,6,6,1,2,0.9,0.9
2025-05-19T0000,4230A,106.6882,26.5695,贵阳市,花果园大街66号,细颗粒物(PM2.5),79,88,49,58,39,30,,121,105,60,17,5,4,1.0,0.5
2025-05-19T0000,4231A,106.6873,26.5169,贵阳市,漓江路57号,颗粒物(PM10),63,75,46,44,32,13,,103,79,57,18,3,3,0.7,0.5
2025-05-19T0000,1862A,110.4144,25.3167,桂林市,电子科大尧山校区,,,,,,,,,,,,,,,,
2025-05-19T0000,1864A,110.3089,25.2708,桂林市,龙隐路小学,,13,13,9,3,5,34,,58,42,11,6,12,7,0.5,0.5
2025-05-19T0000,1865A,110.2869,25.2178,桂林市,八中,,13,13,8,3,5,39,,52,34,10,12,1,2,0.6,0.6
2025-05-19T0000,3531A,110.296,25.1253,桂林市,旅游学院,,10,6,1,3,1,32,,51,38,10,6,1,1,0.2,0.2
2025-05-19T0000,4222A,110.1835,25.2444,桂林市,环湖路276号,,35,31,9,24,8,24,,47,35,17,7,22,4,0.4,0.4
2025-05-19T0000,4301A,110.2803,25.2773,桂林市,信义路13号,,29,,9,20,6,32,,57,37,17,10,7,2,0.5,0.5
2025-05-19T0000,2674A,100.2561,34.4714,果洛藏族自治州,玛沁县大武镇,,36,36,32,20,14,80,,128,115,2,4,21,21,0.4,0.4
2025-05-19T0000,1129A,126.5422,45.755,哈尔滨市,岭北,,23,23,20,16,15,69,,91,79,16,8,10,22,0.5,0.7
2025-05-19T0000,1130A,126.561,45.8167,哈尔滨市,松北商大,,20,16,17,14,14,57,,85,68,14,7,5,5,0.5,0.5
2025-05-19T0000,1131A,126.979,45.5419,哈尔滨市,阿城会宁,,36,28,27,25,20,46,,87,68,17,11,7,9,0.5,0.5
2025-05-19T0000,1132A,126.599,45.7222,哈尔滨市,南岗学府路,,40,40,32,18,14,56,,87,70,22,10,5,5,0.4,0.4
2025-05-19T0000,1133A,126.689,45.7733,哈尔滨市,太平宏伟公园,,32,32,29,19,18,65,,89,76,17,10,5,4,0.5,0.5
2025-05-19T0000,1134A,126.635,45.7667,哈尔滨市,道外承德广场,,30,30,27,19,20,51,,82,68,26,12,5,5,0.6,0.6
2025-05-19T0000,1135A,126.685,45.7319,哈尔滨市,香坊红旗大街,,39,39,35,19,18,57,,86,72,23,12,5,5,0.6,0.5
2025-05-19T0000,1136A,126.6411,45.7258,哈尔滨市,动力和平路,,28,28,31,12,21,46,,71,59,28,14,4,4,0.5,0.4
2025-05-19T0000,1137A,126.593,45.7478,哈尔滨市,道里建国路,,27,27,26,16,17,62,,84,69,16,10,4,3,0.7,0.5
2025-05-19T0000,1138A,126.615,45.61,哈尔滨市,平房东轻厂,,22,22,27,13,13,67,,91,75,12,11,7,7,0.3,0.3
2025-05-19T0000,1139A,126.595,45.9855,哈尔滨市,呼兰师专,颗粒物(PM10),74,97,31,21,18,44,,80,65,29,12,5,5,0.5,0.5
2025-05-19T0000,1140A,126.6206,45.6842,哈尔滨市,省农科院,颗粒物(PM10),53,55,46,22,20,23,,77,53,49,16,10,9,0.7,0.6
2025-05-19T0000,2688A,93.5128,42.8172,哈密市,地区监测站,颗粒物(PM10),72,94,52,30,23,64,,119,92,46,20,3,4,0.0,0
2025-05-19T0000,2689A,93.4961,42.8328,哈密市,哈密师范学校,颗粒物(PM10),68,86,46,37,19,53,,115,83,18,9,9,5,0.9,0.4
2025-05-19T0000,2671A,100.9048,36.9639,海北藏族自治州,海晏县西海镇,,28,28,32,14,17,64,,125,95,12,6,9,8,0.4,0.4
2025-05-19T0000,3867A,102.0738,36.5056,海东市,平安区公安北苑,,42,42,42,19,22,75,,134,115,3,8,5,8,0.5,0.7
2025-05-19T0000,1409A,110.576,19.9507,海口市,东寨港,,23,23,16,13,9,31,,45,35,3,3,3,2,0.0,0.1
2025-05-19T0000,1410A,110.3232,20.0574,海口市,海南大学,,15,15,19,7,10,32,,70,43,4,6,3,3,0.4,0.4
2025-05-19T0000,1411A,110.283,20.0053,海口市,秀英海南医院,,21,21,19,8,9,21,,64,38,17,10,4,4,0.3,0.3
2025-05-19T0000,1412A,110.338,19.9969,海口市,海南师范大学,,26,26,21,10,10,31,,62,44,4,5,3,4,0.4,0.4
2025-05-19T0000,1413A,110.33,20.0356,海口市,龙华路环保局宿舍,,21,21,20,9,10,31,,67,44,6,7,4,4,0.2,0.2
2025-05-19T0000,3539A,110.5111,19.9736,海口市,桂林洋子站,,18,18,17,9,8,28,,51,34,8,6,4,4,0.1,0.1
2025-05-19T0000,2673A,100.6188,36.2866,海南藏族自治州,共和县恰卜恰镇,,40,40,49,20,28,82,,140,114,16,9,14,14,0.2,0.3
2025-05-19T0000,2676A,97.3731,37.3753,海西蒙古族藏族自治州,德令哈市,,33,33,34,15,14,86,,131,113,7,4,11,11,0.4,0.4
2025-05-19T0000,1048A,114.5302,36.6116,邯郸市,东污水处理厂,颗粒物(PM10),82,114,80,22,16,101,,142,133,25,16,4,4,0.5,0.4
2025-05-19T0000,1049A,114.4918,36.5713,邯郸市,矿院,颗粒物(PM10),71,92,69,31,21,101,,139,131,20,15,6,6,0.5,0.3
2025-05-19T0000,1050A,114.484,36.6133,邯郸市,丛台公园,,,0,75,,22,84,,144,134,55,17,5,5,,0.3
2025-05-19T0000,3458A,114.7895,36.5593,邯郸市,香泉濮院小区,颗粒物(PM10),103,156,114,33,19,108,,143,135,15,11,5,4,0.5,0.3
2025-05-19T0000,3579A,114.50634,36.77178,邯郸市,永年区实验高中,颗粒物(PM10),98,145,97,47,32,98,,143,137,24,14,11,5,1.3,0.6
2025-05-19T0000,3580A,114.20016,36.44293,邯郸市,峰峰矿区临水派出所,颗粒物(PM10),85,120,72,40,21,101,,155,144,31,15,18,9,2.1,0.8
2025-05-19T0000,2634A,106.9893,33.1842,汉中市,汉川机床厂子校,颗粒物(PM10),58,66,69,37,41,66,,154,120,16,13,6,9,0.5,0.6
2025-05-19T0000,2635A,107.0154,33.0706,汉中市,市监测站,颗粒物(PM10),74,98,73,38,37,44,,145,103,30,12,6,9,1.0,0.9
2025-05-19T0000,2636A,107.0089,33.1138,汉中市,鑫源开发区,细颗粒物(PM2.5),80,102,72,59,41,20,,148,93,53,19,7,11,0.8,1
2025-05-19T0000,2637A,107.007,33.0323,汉中市,南郑大河坎水厂,颗粒物(PM10),70,90,68,49,38,33,,139,97,39,15,6,7,0.8,0.6
2025-05-19T0000,1223A,120.2072,30.2111,杭州市,滨江,颗粒物(PM10),67,84,79,41,28,52,,101,68,28,28,6,6,0.5,0.5
2025-05-19T0000,1224A,120.0633,30.2747,杭州市,西溪,颗粒物(PM10),55,60,65,31,24,39,,86,66,14,16,4,4,0.4,0.3
2025-05-19T0000,1226A,120.3417,30.3150,杭州市,下沙,颗粒物(PM10),85,119,99,58,40,16,,96,54,63,33,6,7,0.6,0.5
2025-05-19T0000,1227A,120.1269,30.2456,杭州市,卧龙桥,颗粒物(PM10),63,76,76,36,26,28,,95,58,25,20,6,7,0.3,0.3
2025-05-19T0000,1228A,120.1903,30.2692,杭州市,浙江农大,颗粒物(PM10),62,74,83,42,34,50,,72,57,20,34,8,9,0.5,0.5
2025-05-19T0000,1230A,120.1197,30.3119,杭州市,和睦小学,颗粒物(PM10),65,79,84,32,23,42,,99,68,25,23,8,8,0.5,0.5
2025-05-19T0000,1231A,120.3019,30.4183,杭州市,临平镇,颗粒物(PM10),72,93,100,38,28,23,,100,58,47,27,6,6,0.6,0.5
2025-05-19T0000,1232A,120.2753,30.1839,杭州市,城厢镇,颗粒物(PM10),68,86,75,44,29,48,,93,57,27,29,7,7,0.3,0.3
2025-05-19T0000,1233A,120.0883,30.1808,杭州市,云栖,,,,76,,20,,,89,,,26,,6,,0.5
2025-05-19T0000,3557A,119.9464,30.0494,杭州市,镇二中,颗粒物(PM10),66,82,76,36,28,39,,88,61,25,27,3,4,0.6,0.5
2025-05-19T0000,3558A,119.7183,30.2367,杭州市,市府大楼,颗粒物(PM10),72,94,77,40,29,56,,103,82,23,25,8,8,0.9,0.7
2025-05-19T0000,3656A,120.1556,30.2864,杭州市,消防大队,颗粒物(PM10),65,79,77,35,28,44,,91,63,25,26,4,5,0.8,0.8
2025-05-19T0000,1270A,117.1959,31.7848,合肥市,明珠广场,细颗粒物(PM2.5),89,122,124,66,33,121,,162,148,23,19,7,7,0.7,0.5
2025-05-19T0000,1271A,117.3072,31.8764,合肥市,三里街,颗粒物(PM10),84,117,111,58,32,92,,145,126,35,21,6,7,0.8,0.6
2025-05-19T0000,1272A,117.2588,31.8707,合肥市,琥珀山庄,颗粒物(PM10),86,122,123,58,36,121,,162,148,21,18,5,6,0.9,0.7
2025-05-19T0000,1273A,117.1604,31.9052,合肥市,董铺水库,颗粒物(PM10),82,114,118,46,28,143,,166,158,13,13,2,3,0.6,0.5
2025-05-19T0000,1274A,117.25,31.8571,合肥市,长江中路,颗粒物(PM10),86,122,119,62,37,122,,157,145,17,16,7,8,0.8,0.7
2025-05-19T0000,1275A,117.266,31.9436,合肥市,庐阳区,颗粒物(PM10),84,117,119,51,43,129,,158,146,15,16,10,10,0.8,0.6
2025-05-19T0000,1276A,117.3453,31.8616,合肥市,瑶海区,颗粒物(PM10),90,129,130,59,38,43,,140,111,81,27,7,8,0.5,0.5
2025-05-19T0000,1277A,117.3027,31.7964,合肥市,包河区,细颗粒物(PM2.5),92,114,118,68,43,117,,162,149,14,18,8,9,0.7,0.6
2025-05-19T0000,1278A,117.2776,31.7385,合肥市,滨湖新区,细颗粒物(PM2.5),100,124,118,75,41,115,,155,143,18,16,12,12,0.8,0.5
2025-05-19T0000,1279A,117.1318,31.8403,合肥市,高新区,颗粒物(PM10),85,119,111,62,33,126,,161,152,21,19,7,7,0.8,0.6
2025-05-19T0000,3464A,117.3803,31.9147,合肥市,高教基地,颗粒物(PM10),85,119,118,59,36,110,,154,138,18,15,8,8,0.7,0.5
2025-05-19T0000,3614A,79.924,37.0877,和田地区,地区环保局,颗粒物(PM10),174,298,280,80,95,56,,92,82,32,13,3,2,0.7,0.5
2025-05-19T0000,3615A,79.9131,37.113,和田地区,市环保局,颗粒物(PM10),141,232,239,95,71,17,,89,63,57,14,1,3,0.5,0.2
2025-05-19T0000,2516A,108.2011,24.715,河池市,东仁乐园,,,,,,,,,,,,,,,,
2025-05-19T0000,2517A,108.0497,24.6947,河池市,市环保站,,13,12,19,9,9,37,,58,49,9,8,6,7,0.6,0.6
2025-05-19T0000,2518A,108.0983,24.6989,河池市,市疾控中心,,13,12,19,9,11,26,,53,41,14,13,3,3,0.7,0.6
2025-05-19T0000,1696A,114.6778,23.7569,河源市,源西,,30,,22,21,27,28,,57,42,16,17,3,4,0.6,0.7
2025-05-19T0000,1697A,114.6944,23.7586,河源市,东埔,,28,,24,19,27,29,,62,45,16,19,4,4,0.6,0.5
2025-05-19T0000,1698A,114.6892,23.7233,河源市,老城,,23,19,26,16,28,23,,57,41,18,18,3,4,0.4,0.4
2025-05-19T0000,1718A,115.4208,35.2464,菏泽市,气象局,颗粒物(PM10),97,144,139,34,30,139,,165,155,17,21,6,5,0.4,0.4
2025-05-19T0000,3374A,115.5564,35.0891,菏泽市,定陶老年大学,颗粒物(PM10),86,122,110,39,27,122,,157,145,16,17,4,5,0.6,0.5
2025-05-19T0000,4184A,115.4797,35.24401,菏泽市,永昌路1号,颗粒物(PM10),95,139,122,44,38,120,,159,146,30,19,7,7,0.3,0.3
2025-05-19T0000,4193A,115.4715,35.2800,菏泽市,长城路999号,颗粒物(PM10),89,127,118,39,34,133,,158,151,21,22,9,8,0.2,0.2
2025-05-19T0000,2514A,111.5264,24.4172,贺州市,环保小区,,18,18,10,6,8,25,,40,30,14,10,9,7,0.9,0.9
2025-05-19T0000,2515A,111.5608,24.4078,贺州市,政协大楼,,14,14,6,3,7,24,,42,32,15,11,10,9,0.7,0.7
2025-05-19T0000,3534A,111.4744,24.4553,贺州市,西湾,,10,,8,7,7,23,,40,24,11,10,6,6,0.6,0.6
2025-05-19T0000,2385A,114.17,35.9019,鹤壁市,市监测站,颗粒物(PM10),85,120,103,42,30,130,,166,152,21,14,7,5,1.0,0.5
2025-05-19T0000,2386A,114.2956,35.7511,鹤壁市,市交警支队,颗粒物(PM10),79,108,82,46,26,114,,161,141,22,20,3,2,0.7,0.4
2025-05-19T0000,2387A,114.2878,35.7306,鹤壁市,迎宾馆,颗粒物(PM10),100,149,113,44,26,115,,162,141,23,21,8,5,0.5,0.4
2025-05-19T0000,3474A,114.2617,35.6822,鹤壁市,大新区,"颗粒物(PM10),细颗粒物(PM2.5)",77,103,76,56,35,84,,162,126,28,26,11,11,0.5,0.4
2025-05-19T0000,3596A,114.1572,35.9603,鹤壁市,南山宾馆,颗粒物(PM10),99,147,126,53,37,134,,170,155,14,14,8,7,0.5,0.4
2025-05-19T0000,2244A,130.2537,47.3416,鹤岗市,哈啤分公司,,50,,16,35,18,75,,87,83,5,4,14,14,0.4,0.2
2025-05-19T0000,2245A,130.2684,47.3086,鹤岗市,斯达机电,细颗粒物(PM2.5),54,47,29,38,22,56,,83,77,26,9,30,15,0.4,0.3
2025-05-19T0000,2246A,130.3114,47.3388,鹤岗市,东山纸板厂,颗粒物(PM10),51,51,30,27,12,51,,80,74,25,7,26,14,0.3,0.4
2025-05-19T0000,2247A,130.1097,47.3382,鹤岗市,五号水库,,,,,,,,,,,,,,,,
2025-05-19T0000,2263A,127.4833,50.2524,黑河市,交通局,,19,13,12,13,11,41,,61,51,4,5,5,7,0.4,0.4
2025-05-19T0000,2264A,127.5144,50.2341,黑河市,环保局,,20,14,11,14,11,58,,67,60,4,4,5,3,0.2,0.2
2025-05-19T0000,2265A,127.5291,50.2472,黑河市,大黑河岛,,20,,8,9,4,62,,64,63,2,4,3,2,0.2,0.2
2025-05-19T0000,1074A,115.6838,37.7541,衡水市,电机北厂,颗粒物(PM10),77,103,85,34,29,113,,162,140,15,12,12,10,0.5,0.4
2025-05-19T0000,1075A,115.6303,37.7316,衡水市,市监测站,颗粒物(PM10),80,109,89,31,28,103,,159,136,21,12,13,12,0.5,0.4
2025-05-19T0000,3188A,115.6683,37.7217,衡水市,市城管局,颗粒物(PM10),81,112,91,39,27,102,,164,139,20,13,7,6,0.5,0.4
2025-05-19T0000,3459A,115.5989,37.5491,衡水市,地表水厂,颗粒物(PM10),80,110,106,27,30,96,,154,123,21,22,9,8,0.5,0.4
2025-05-19T0000,2456A,112.5003,26.9167,衡阳市,原169医院,,20,15,20,14,12,58,,92,77,5,7,3,4,0.6,0.5
2025-05-19T0000,2457A,112.6194,26.9258,衡阳市,衡阳化工总厂,,36,36,29,17,17,37,,89,64,14,8,6,6,0.8,0.5
2025-05-19T0000,2458A,112.6211,26.8956,衡阳市,珠晖区环保局,,,24,27,,,38,,98,73,15,11,8,7,1.1,0.7
2025-05-19T0000,2459A,112.6197,26.8733,衡阳市,市委党校,,19,17,28,13,12,35,,94,63,13,8,5,5,0.6,0.6
2025-05-19T0000,2460A,112.6006,26.8919,衡阳市,市监测站,,31,31,25,14,17,32,,88,61,16,9,9,9,0.7,0.5
2025-05-19T0000,2461A,112.5664,26.9056,衡阳市,真空机电公司,,20,16,22,14,13,53,,86,67,5,4,5,5,0.6,0.6
2025-05-19T0000,3399A,112.6703,26.882,衡阳市,师范学院,,32,30,27,22,17,34,,97,71,11,9,8,6,0.2,0.5
2025-05-19T0000,2608A,103.3772,23.3993,红河哈尼族彝族自治州,污水处理厂,,43,,23,30,15,45,,72,61,15,8,12,8,0.7,0.5
2025-05-19T0000,2609A,103.3861,23.35,红河哈尼族彝族自治州,监测站,,39,39,23,27,16,24,,66,48,18,8,13,11,0.4,0.2
2025-05-19T0000,3038A,103.3758,23.368,红河哈尼族彝族自治州,州图书馆,,37,37,19,24,18,45,,76,61,9,5,12,8,0.4,0.3
2025-05-19T0000,1090A,111.6507,40.7517,呼和浩特市,呼市一监,,28,19,57,19,23,89,,107,96,1,10,7,8,0.3,0.4
2025-05-19T0000,1091A,111.6572,40.8033,呼和浩特市,小召,,28,14,52,7,14,88,,105,96,13,20,6,7,0.5,0.5
2025-05-19T0000,1094A,111.7516,40.8369,呼和浩特市,如意水处理厂,,28,20,44,8,17,89,,99,93,6,17,4,6,0.3,0.3
2025-05-19T0000,1095A,111.7276,40.8062,呼和浩特市,二十九中,,29,21,47,10,19,90,,104,96,4,13,4,6,0.5,0.5
2025-05-19T0000,1096A,111.5512,40.7866,呼和浩特市,工大金川校区,,28,21,47,10,19,89,,108,94,7,20,5,8,0.5,0.5
2025-05-19T0000,1097A,111.717,40.7612,呼和浩特市,化肥厂生活区,,28,22,55,9,22,89,,108,98,10,17,5,6,0.3,0.3
2025-05-19T0000,3698A,111.5968,40.8178,呼和浩特市,红旗小学,,29,14,55,7,20,92,,111,99,11,18,3,5,0.4,0.5
2025-05-19T0000,3699A,111.6518,40.8389,呼和浩特市,海东办,,27,14,48,8,18,84,,100,90,6,17,6,8,0.4,0.5
2025-05-19T0000,2192A,119.7594,49.2261,呼伦贝尔市,区环保局,,42,32,52,29,49,59,,80,69,8,9,6,6,0.2,0.3
2025-05-19T0000,3061A,119.7512,49.1577,呼伦贝尔市,国华电力东,,30,30,53,19,39,54,,81,67,6,6,3,3,0.3,0.4
2025-05-19T0000,1250A,120.0751,30.8669,湖州市,城西水厂,颗粒物(PM10),95,140,106,63,30,50,,119,89,36,18,7,7,0.5,0.4
2025-05-19T0000,2873A,120.0830,30.8929,湖州市,仁皇山新区,颗粒物(PM10),91,132,104,67,32,55,,99,80,41,22,5,5,0.7,0.6
2025-05-19T0000,2907A,120.1844,30.8596,湖州市,吴兴区站,颗粒物(PM10),84,118,90,61,30,38,,106,75,40,19,7,7,0.6,0.4
2025-05-19T0000,3562A,120.4148,30.8538,湖州市,南浔区站,颗粒物(PM10),81,111,90,48,24,49,,114,84,28,19,4,4,0.6,0.5
2025-05-19T0000,1607A,120.9049,40.7211,葫芦岛市,龙港区,,39,29,38,18,18,123,,135,135,12,21,9,9,0.6,0.4
2025-05-19T0000,1608A,120.8392,40.7514,葫芦岛市,化工街,,36,36,31,19,15,112,,132,132,21,25,10,10,0.4,0.4
2025-05-19T0000,1609A,120.8341,40.7073,葫芦岛市,新区,,38,33,25,18,16,120,,136,136,14,20,8,7,0.5,0.4
2025-05-19T0000,1610A,120.8695,40.7677,葫芦岛市,东城区,,38,38,34,26,23,111,,126,126,21,25,6,8,0.6,0.5
2025-05-19T0000,2482A,109.5981,27.5721,怀化市,林科所,,45,45,34,21,15,25,,58,39,10,8,4,4,0.6,0.6
2025-05-19T0000,2483A,109.9453,27.5444,怀化市,河西地税局,,42,42,37,25,24,6,,65,33,16,14,3,3,0.6,0.5
2025-05-19T0000,2484A,109.9781,27.5342,怀化市,市四医院,颗粒物(PM10),52,53,37,29,27,9,,76,47,30,9,2,2,1.0,0.9
2025-05-19T0000,2485A,109.9972,27.5578,怀化市,监测楼,,49,49,36,29,25,18,,77,51,24,13,1,2,0.4,0.3
2025-05-19T0000,2486A,110.0394,27.583,怀化市,市委党校,,34,34,33,22,24,44,,73,52,6,7,3,4,0.6,0.6
2025-05-19T0000,1210A,119.036,33.5981,淮安市,钵池山,颗粒物(PM10),74,97,55,37,20,93,,144,133,28,13,14,9,1.8,1.2
2025-05-19T0000,1211A,119.007,33.575,淮安市,北京南路,颗粒物(PM10),79,107,61,39,20,94,,153,141,29,13,12,9,1.4,0.9
2025-05-19T0000,1212A,118.989,33.6067,淮安市,市监测站,颗粒物(PM10),75,100,55,41,24,90,,141,132,30,15,15,10,1.1,0.6
2025-05-19T0000,1213A,119.135,33.5039,淮安市,楚州区监测站,颗粒物(PM10),75,100,64,34,22,81,,132,116,28,13,9,8,0.9,0.5
2025-05-19T0000,3426A,118.8755,33.2894,淮安市,新华书店,颗粒物(PM10),78,106,75,44,26,77,,146,126,36,16,9,9,0.7,0.6
2025-05-19T0000,4206A,119.0288,33.6319,淮安市,承德北路606号,颗粒物(PM10),79,107,65,35,22,94,,143,134,28,14,12,8,0.9,0.4
2025-05-19T0000,2282A,116.8004,33.975,淮北市,监测站,颗粒物(PM10),99,147,96,50,24,127,,163,155,24,16,8,7,0.9,0.7
2025-05-19T0000,2283A,116.8091,33.9007,淮北市,烈山区政府,颗粒物(PM10),91,132,105,49,31,108,,148,138,25,16,10,6,1.0,0.7
2025-05-19T0000,3330A,116.8873,33.9836,淮北市,杜集区检察院,颗粒物(PM10),93,136,106,55,31,127,,156,147,20,16,10,8,0.9,0.7
2025-05-19T0000,4017A,116.7923,33.9535,淮北市,市博物馆,颗粒物(PM10),90,129,89,49,32,121,,163,153,22,15,9,7,0.9,0.6
2025-05-19T0000,2277A,116.8305,32.7727,淮南市,潘集区政府,颗粒物(PM10),87,123,116,55,40,106,,158,144,19,17,5,6,0.7,0.4
2025-05-19T0000,2279A,116.8569,32.5951,淮南市,谢家集区政府,颗粒物(PM10),88,125,106,56,31,102,,156,141,24,18,6,6,0.4,0.3
2025-05-19T0000,2280A,116.8281,32.633,淮南市,八公山区政府,颗粒物(PM10),89,127,123,54,31,108,,159,148,15,13,5,7,0.6,0.4
2025-05-19T0000,2281A,116.6325,32.6201,淮南市,焦岗湖风景区管理处,,,,,,,,,,,,,,,,
2025-05-19T0000,2894A,117.0566,32.6531,淮南市,经济技术开发区消防队,细颗粒物(PM2.5),108,142,112,81,42,95,,147,131,23,16,8,7,0.7,0.4
2025-05-19T0000,3329A,117.0108,32.5893,淮南市,山南新区,细颗粒物(PM2.5),122,180,143,92,38,110,,163,147,22,15,10,9,0.8,0.5
2025-05-19T0000,4209A,117.0031,32.6445,淮南市,国庆中路369号,颗粒物(PM10),94,138,116,53,35,106,,141,130,15,12,13,11,0.4,0.4
2025-05-19T0000,2446A,114.9028,30.4742,黄冈市,职工中心,,,,,,,,,,,,,,,,
2025-05-19T0000,2929A,114.8858,30.4519,黄冈市,红卫路,细颗粒物(PM2.5),140,173,161,107,66,127,,187,151,18,11,12,9,1.2,0.7
2025-05-19T0000,3398A,114.9136,30.4445,黄冈市,市林业局,细颗粒物(PM2.5),152,171,169,116,64,119,,185,148,20,14,16,11,1.3,1.1
2025-05-19T0000,2672A,102.0199,35.5102,黄南藏族自治州,同仁县隆务镇,,30,30,37,10,16,84,,115,102,2,1,3,3,0.1,0.1
2025-05-19T0000,2295A,118.2903,29.6963,黄山市,延安路89号,,27,27,39,3,20,23,,76,59,10,10,5,5,0.5,0.6
2025-05-19T0000,2297A,118.1371,30.2756,黄山市,黄山区政府5号楼,,44,44,77,18,29,35,,98,70,8,7,3,4,0.4,0.4
2025-05-19T0000,4210A,118.3354,29.7203,黄山市,滨江东路7-2号,,34,34,48,20,30,45,,76,66,7,8,4,4,0.3,0.4
2025-05-19T0000,2423A,115.0601,30.2313,黄石市,沈家营,细颗粒物(PM2.5),153,197,146,117,64,78,,164,128,39,25,9,9,1.3,0.9
2025-05-19T0000,2426A,114.8988,30.2019,黄石市,铁山,细颗粒物(PM2.5),170,169,129,129,67,79,,164,133,50,20,18,16,0.6,0.3
2025-05-19T0000,2427A,115.0307,30.2092,黄石市,团城山,细颗粒物(PM2.5),130,194,142,99,56,99,,149,129,24,22,13,10,0.9,0.6
2025-05-19T0000,3149A,115.0235,30.1578,黄石市,笔架山北路,细颗粒物(PM2.5),170,184,115,129,60,112,,174,144,10,8,16,10,1.3,0.9
2025-05-19T0000,4185A,115.0780,30.21118,黄石市,磁湖东路29号,细颗粒物(PM2.5),132,180,153,100,65,104,,166,138,39,30,17,11,1.1,0.8
2025-05-19T0000,1392A,114.4183,23.0528,惠州市,河南岸金山湖子站,,13,9,24,3,16,41,,75,48,14,19,8,8,0.2,0.3
2025-05-19T0000,1393A,114.4053,23.0822,惠州市,下埔横江三路子站,,15,14,26,10,16,44,,84,53,13,18,6,5,0.3,0.4
2025-05-19T0000,1394A,114.4103,23.1142,惠州市,江北云山西路子站,,23,23,26,15,17,28,,87,50,26,21,6,6,0.6,0.6
2025-05-19T0000,1395A,114.4645,22.7833,惠州市,惠阳区承修路船湖子站,,34,34,23,16,11,15,,67,45,29,16,8,8,0.6,0.5
2025-05-19T0000,1396A,114.5317,22.7422,惠州市,大亚湾管委会子站,,21,21,15,9,7,5,,64,36,35,17,8,8,0.6,0.5
2025-05-19T0000,3314A,114.4338,22.8134,惠州市,惠阳秋长,,17,17,21,7,10,42,,80,60,17,17,11,12,0.4,0.4
2025-05-19T0000,3452A,114.6517,22.775,惠州市,大亚湾霞涌,,13,13,15,6,6,24,,58,46,16,13,5,6,0.6,0.5
2025-05-19T0000,2240A,130.9762,45.3001,鸡西市,环保局,,22,18,16,13,9,69,,86,78,10,7,5,5,0.4,0.4
2025-05-19T0000,2243A,130.9429,45.3039,鸡西市,第一中学,,21,18,15,13,8,67,,84,76,4,3,6,6,0.3,0.3
2025-05-19T0000,3707A,131.0207,45.3073,鸡西市,欧美日汽修厂,,21,16,27,13,7,67,,80,72,5,8,4,4,0.3,0.4
2025-05-19T0000,3709A,130.9967,45.3106,鸡西市,市政设施管理处,,27,27,23,13,11,59,,82,67,7,6,4,4,0.4,0.4
2025-05-19T0000,2367A,114.9754,27.0803,吉安市,红声器材厂,,17,16,22,6,10,52,,66,55,9,8,11,11,0.5,0.5
2025-05-19T0000,2368A,114.9658,27.0999,吉安市,市森林工业局,,19,19,19,3,10,50,,69,57,7,6,10,9,0.4,0.5
2025-05-19T0000,2369A,114.99,27.1312,吉安市,市环境监测站,,14,14,21,7,10,40,,72,58,6,5,12,11,0.5,0.6
2025-05-19T0000,2370A,115.0093,27.0968,吉安市,青原区法院,,16,14,20,11,13,47,,71,57,9,8,13,11,0.4,0.4
2025-05-19T0000,1772A,126.54,43.8622,吉林市,哈达湾,,26,12,31,6,19,81,,79,75,8,8,6,5,0.2,0.3
2025-05-19T0000,1773A,126.5844,43.8358,吉林市,东局子,,29,12,27,6,24,91,,87,82,6,9,6,6,0.3,0.4
2025-05-19T0000,1774A,126.5052,43.8245,吉林市,电力学院,,26,15,28,10,20,82,,86,76,7,8,4,4,0.3,0.4
2025-05-19T0000,1775A,126.6133,43.8972,吉林市,江北,,30,14,27,7,17,93,,89,83,6,9,6,6,0.2,0.3
2025-05-19T0000,1776A,126.555,43.8306,吉林市,江南公园,,28,10,28,6,20,89,,86,83,6,7,5,5,0.2,0.3
2025-05-19T0000,1778A,126.7061,43.7133,吉林市,丰满,,,,,,,,,,,,,,,,
2025-05-19T0000,2868A,126.4739,43.953,吉林市,九站,,30,22,37,6,20,93,,90,89,7,7,7,6,0.3,0.3
2025-05-19T0000,1299A,116.9862,36.6114,济南市,科干所,颗粒物(PM10),90,129,74,29,24,160,,166,165,12,15,6,5,0.3,0.3
2025-05-19T0000,1300A,116.9376,36.665,济南市,农科所,颗粒物(PM10),92,134,92,24,22,148,,157,155,13,19,8,8,0.3,0.3
2025-05-19T0000,1301A,117.1265,36.6734,济南市,开发区,颗粒物(PM10),84,117,78,29,26,156,,162,162,8,10,9,8,0.7,0.6
2025-05-19T0000,1303A,117.0624,36.6868,济南市,省种子仓库,颗粒物(PM10),101,151,96,36,28,162,,165,164,8,16,6,6,0.5,0.4
2025-05-19T0000,1304A,116.9489,36.6447,济南市,机床二厂,颗粒物(PM10),97,144,105,29,29,143,,156,151,11,20,10,9,0.4,0.5
2025-05-19T0000,1305A,117.0495,36.663,济南市,市监测站,颗粒物(PM10),91,132,83,29,23,155,,157,157,12,18,9,9,0.5,0.4
2025-05-19T0000,1306A,116.7675,36.5484,济南市,长清党校,颗粒物(PM10),86,122,82,32,27,143,,166,160,13,18,7,7,0.8,0.8
2025-05-19T0000,1616A,117.6795,36.229,济南市,技术学院,颗粒物(PM10),69,88,70,22,26,104,,146,136,30,24,13,12,0.6,0.5
2025-05-19T0000,1961A,117.532,36.6868,济南市,东山小学,颗粒物(PM10),89,127,87,32,25,137,,156,150,10,10,6,6,0.5,0.4
2025-05-19T0000,3059A,117.7161,36.2049,济南市,泰兴公司,颗粒物(PM10),67,83,64,27,25,99,,148,126,27,25,8,8,0.2,0.2
2025-05-19T0000,3064A,117.6867,36.2171,济南市,莱芜战役纪念馆,颗粒物(PM10),70,90,65,22,20,106,,150,139,32,23,9,8,0.8,0.7
2025-05-19T0000,3494A,117.1673,36.9782,济南市,济阳区政府,颗粒物(PM10),99,147,103,44,32,128,,162,150,25,32,9,8,0.4,0.4
2025-05-19T0000,3495A,117.1171,36.63,济南市,锦屏中学,颗粒物(PM10),84,117,80,27,24,151,,160,159,11,12,10,9,0.4,0.4
2025-05-19T0000,3682A,116.9814,36.6819,济南市,济南四建,颗粒物(PM10),92,134,89,29,29,162,,168,166,10,15,6,7,0.4,0.4
2025-05-19T0000,1653A,116.6251,35.4302,济宁市,火炬城,颗粒物(PM10),65,79,67,24,27,107,,144,126,8,9,7,8,0.4,0.4
2025-05-19T0000,1655A,116.5491,35.4042,济宁市,电化厂,颗粒物(PM10),64,77,45,29,28,111,,142,128,8,8,3,4,0.6,0.5
2025-05-19T0000,3500A,116.5814,35.3707,济宁市,北湖一中,颗粒物(PM10),57,64,57,36,33,117,,152,135,10,11,5,5,0.4,0.3
2025-05-19T0000,3501A,116.8249,35.5593,济宁市,服务中心,颗粒物(PM10),73,96,83,20,25,112,,143,128,15,21,3,3,0.4,0.3
2025-05-19T0000,3678A,116.5907,35.4054,济宁市,市第七中学,颗粒物(PM10),54,58,69,22,22,106,,140,123,9,10,7,8,0.4,0.4
2025-05-19T0000,2255A,130.2751,46.8028,佳木斯市,佳纺,,38,32,19,26,9,74,,79,72,5,5,2,2,0.3,0.2
2025-05-19T0000,2256A,130.3995,46.8307,佳木斯市,发电厂,,38,30,18,26,9,79,,81,77,6,5,3,3,0.2,0.1
2025-05-19T0000,2257A,130.3258,46.7975,佳木斯市,环保局,,36,33,18,25,8,76,,79,74,6,6,4,4,0.3,0.3
2025-05-19T0000,2258A,130.3648,46.8032,佳木斯市,十一中,,39,34,19,27,10,77,,79,74,9,9,2,2,0.4,0.3
2025-05-19T0000,2259A,130.3794,46.7588,佳木斯市,四丰,,,25,10,16,6,,,,,5,5,1,1,0.3,0.3
2025-05-19T0000,1252A,120.7436,30.778,嘉兴市,清河小学,颗粒物(PM10),75,100,89,32,22,54,,101,83,23,18,6,6,0.7,0.6
2025-05-19T0000,1253A,120.726,30.7478,嘉兴市,嘉兴学院,颗粒物(PM10),77,103,76,48,25,53,,100,80,17,13,5,6,0.4,0.2
2025-05-19T0000,2872A,120.7846,30.7525,嘉兴市,南湖区残联,颗粒物(PM10),92,134,92,50,27,56,,105,87,18,13,6,7,0.7,0.6
2025-05-19T0000,3407A,120.6916,30.7739,嘉兴市,秀洲住建,颗粒物(PM10),92,133,98,33,28,55,,111,89,17,12,7,7,0.8,0.6
2025-05-19T0000,1945A,98.2908,39.7711,嘉峪关市,气象局,,34,19,41,9,21,108,,129,122,15,10,7,12,0.4,0.4
2025-05-19T0000,2884A,98.2672,39.7978,嘉峪关市,酒钢宾馆,,,27,47,9,18,,,129,,10,8,12,12,0.5,0.6
2025-05-19T0000,3248A,98.2643,39.7724,嘉峪关市,雄关区,,31,31,41,10,17,90,,127,118,23,13,9,10,0.3,0.3
2025-05-19T0000,1383A,113.1064,22.6058,江门市,北街,,26,26,19,13,10,4,,38,16,15,9,4,5,0.5,0.3
2025-05-19T0000,1384A,113.0731,22.5835,江门市,西区,,24,24,18,11,8,6,,45,22,26,14,6,6,0.5,0.4
2025-05-19T0000,1385A,113.0219,22.5311,江门市,圭峰西,,22,22,22,13,11,15,,39,19,5,8,3,4,0.4,0.4
2025-05-19T0000,1386A,113.0828,22.5947,江门市,东湖,,23,23,17,12,10,9,,46,21,20,12,7,8,0.6,0.5
2025-05-19T0000,3311A,113.1075,22.5647,江门市,江海富民,,26,26,28,17,14,10,,50,24,22,11,8,8,0.3,0.3
2025-05-19T0000,3449A,113.05,22.4667,江门市,新会银湖,,31,31,21,20,12,0,,38,10,18,12,3,2,0.3,0.3
2025-05-19T0000,1830A,113.1992,35.2590,焦作市,影视城,,,,27,,15,,,,,,10,,8,,0.2
2025-05-19T0000,3169A,113.2725,35.2067,焦作市,太极体育中心,颗粒物(PM10),97,144,120,42,32,144,,168,160,16,17,9,10,0.5,0.3
2025-05-19T0000,3335A,113.3137,35.2641,焦作市,马村街道办,颗粒物(PM10),94,137,106,48,47,146,,185,171,21,18,12,12,0.8,0.6
2025-05-19T0000,3336A,113.2465,35.2373,焦作市,焦作技师学院,颗粒物(PM10),84,117,99,36,36,131,,176,165,15,13,9,8,1.0,0.8
2025-05-19T0000,3477A,113.1656,35.2539,焦作市,中站许衡医院,颗粒物(PM10),80,109,99,39,25,104,,189,,48,25,11,10,0.6,0.5
2025-05-19T0000,3981A,113.2449,35.1803,焦作市,原李万街道办,颗粒物(PM10),100,150,107,36,35,162,,181,174,15,16,18,17,0.6,0.6
2025-05-19T0000,4264A,113.2340,35.2190,焦作市,新安路1731号,颗粒物(PM10),91,131,103,52,32,128,,167,158,20,17,11,9,0.7,0.6
2025-05-19T0000,1708A,116.3701,23.5345,揭阳市,新兴,,18,,26,12,18,37,,70,46,2,9,4,6,0.4,0.4
2025-05-19T0000,1709A,116.3264,23.5443,揭阳市,西马,,14,14,30,7,14,37,,66,41,7,12,6,7,0.5,0.5
2025-05-19T0000,1710A,116.3611,23.5626,揭阳市,东兴,,18,,23,12,14,50,,76,52,1,7,3,4,0.6,0.6
2025-05-19T0000,1711A,116.4151,23.5294,揭阳市,渔湖,,16,,34,11,12,42,,73,52,12,16,3,5,0.5,0.5
2025-05-19T0000,3320A,116.403,23.5699,揭阳市,曲溪,,,16,22,13,13,,,82,,10,14,4,5,0.2,0.4
2025-05-19T0000,1944A,102.1692,38.5167,金昌市,天庆家园,,46,46,56,18,22,82,,123,105,16,6,15,7,0.9,0.6
2025-05-19T0000,4022A,102.1647,38.5371,金昌市,金川区人防中心,,40,40,59,15,21,76,,126,106,16,6,12,6,0.6,0.5
2025-05-19T0000,4239A,102.1930,38.5319,金昌市,长春路96号,颗粒物(PM10),54,58,65,17,22,82,,122,106,14,6,23,16,1.0,0.6
2025-05-19T0000,1262A,119.647,29.077,金华市,十五中,颗粒物(PM10),65,80,56,37,24,22,,82,48,52,28,2,2,0.7,0.5
2025-05-19T0000,1263A,119.686,29.1029,金华市,监测站,"颗粒物(PM10),细颗粒物(PM2.5)",65,79,56,47,33,0,,76,29,67,34,3,2,0.7,0.6
2025-05-19T0000,3659A,119.656,29.1131,金华市,气象局,颗粒物(PM10),67,84,58,40,26,5,,61,25,64,35,3,2,0.7,0.6
2025-05-19T0000,1767A,121.1115,41.0879,锦州市,南山,细颗粒物(PM2.5),69,,26,50,21,115,,114,114,20,14,8,10,0.7,0.6
2025-05-19T0000,1768A,121.0604,40.8428,锦州市,开发区,,48,48,48,28,20,114,,116,116,26,32,10,9,0.6,0.5
2025-05-19T0000,1769A,121.1836,41.1119,锦州市,百股街道,细颗粒物(PM2.5),52,42,31,36,13,122,,118,118,19,13,9,9,0.6,0.5
2025-05-19T0000,1770A,121.1178,41.1222,锦州市,天安街道,细颗粒物(PM2.5),54,51,32,38,18,116,,114,114,20,13,7,8,0.5,0.3
2025-05-19T0000,1771A,121.1303,41.1386,锦州市,北湖公园,细颗粒物(PM2.5),62,48,30,44,16,122,,119,119,20,13,7,9,0.7,0.5
2025-05-19T0000,2160A,112.85,35.5051,晋城市,自来水公司,颗粒物(PM10),83,115,84,24,18,36,,154,108,48,15,6,8,0.3,0.1
2025-05-19T0000,2161A,112.8318,35.4936,晋城市,白云商贸,颗粒物(PM10),75,100,91,27,20,47,,152,104,46,21,6,7,0.6,0.5
2025-05-19T0000,2162A,112.8508,35.4887,晋城市,市环保局,颗粒物(PM10),72,93,90,24,21,34,,145,100,52,17,4,5,0.6,0.3
2025-05-19T0000,2163A,112.8676,35.4897,晋城市,技术学院,颗粒物(PM10),94,138,84,34,20,26,,148,101,80,21,9,8,1.0,0.6
2025-05-19T0000,2165A,112.8453,35.546,晋城市,白马寺,颗粒物(PM10),58,66,72,15,17,123,,161,151,19,8,6,5,0.4,0.2
2025-05-19T0000,3620A,112.8271,35.4828,晋城市,泽州一中,颗粒物(PM10),66,82,89,17,20,61,,160,122,32,15,8,8,0.5,0.3
2025-05-19T0000,2173A,112.7249,37.7067,晋中市,南都小区,颗粒物(PM10),71,92,67,22,16,46,,131,96,44,22,13,12,0.5,0.4
2025-05-19T0000,2174A,112.6991,37.6982,晋中市,榆次区政府,颗粒物(PM10),74,97,72,15,10,43,,134,97,44,22,12,12,0.4,0.4
2025-05-19T0000,2865A,112.7195,37.6828,晋中市,榆次三中,颗粒物(PM10),74,97,77,27,20,50,,133,98,40,23,16,10,1.4,0.5
2025-05-19T0000,4200A,112.7478,37.6954,晋中市,迎宾街26号,颗粒物(PM10),68,85,71,19,13,53,,130,98,32,21,11,11,0.7,0.5
2025-05-19T0000,2439A,112.2014,31.0481,荆门市,竹园小学,颗粒物(PM10),154,257,221,95,67,146,,181,168,16,20,8,8,0.5,0.4
2025-05-19T0000,2440A,112.1969,30.9891,荆门市,掇刀,颗粒物(PM10),164,277,243,82,66,144,,181,170,15,15,5,21,0.6,0.5
2025-05-19T0000,2441A,112.2213,31.0386,荆门市,石化一小,颗粒物(PM10),151,252,247,90,77,124,,172,154,20,23,7,9,0.5,0.5
2025-05-19T0000,3012A,112.1849,31.0362,荆门市,西山林语,颗粒物(PM10),130,210,204,89,64,136,,165,152,14,12,10,11,0.5,0.5
2025-05-19T0000,3547A,112.1632,31.0138,荆门市,龙泉中学南校,颗粒物(PM10),146,242,229,75,70,114,,163,146,19,14,6,8,0.7,0.6
2025-05-19T0000,1844A,112.2494,30.3197,荆州市,市图书馆,颗粒物(PM10),147,244,245,84,84,98,,190,152,30,26,9,8,0.8,0.5
2025-05-19T0000,1845A,112.2008,30.3544,荆州市,市委党校,颗粒物(PM10),147,244,244,89,82,88,,161,132,34,23,9,9,0.6,0.5
2025-05-19T0000,3194A,112.2747,30.3122,荆州市,管委会,颗粒物(PM10),152,253,226,95,86,96,,189,150,26,24,13,11,1.1,0.8
2025-05-19T0000,4268A,112.1722,30.3366,荆州市,学苑路85号,颗粒物(PM10),122,194,207,77,79,53,,168,120,46,16,6,5,0.8,0.7
2025-05-19T0000,2342A,117.3102,29.3867,景德镇市,王港中学,,,,,,,,,,,,,,,,
2025-05-19T0000,2343A,117.2117,29.2933,景德镇市,老干部活动中心,,30,30,35,9,18,82,,92,84,10,15,6,8,0.3,0.5
2025-05-19T0000,2344A,117.1894,29.2789,景德镇市,兽医站,,25,24,47,13,24,78,,87,80,7,13,3,3,0.5,0.6
2025-05-19T0000,2345A,117.1547,29.2617,景德镇市,台达陶瓷,,26,23,47,14,30,81,,92,80,7,19,5,32,0.1,0.4
2025-05-19T0000,2346A,117.2461,29.2956,景德镇市,陶研所,,23,16,33,14,22,72,,89,84,8,11,3,6,0.2,0.4
2025-05-19T0000,1803A,115.9872,29.6815,九江市,十里,细颗粒物(PM2.5),68,81,141,49,52,59,,177,124,25,16,3,4,0.4,0.6
2025-05-19T0000,1804A,115.9584,29.7046,九江市,茅山头,颗粒物(PM10),72,93,162,36,46,71,,179,134,19,18,4,6,0.7,0.7
2025-05-19T0000,1805A,115.9877,29.7295,九江市,西园,颗粒物(PM10),63,76,133,37,46,48,,176,120,77,38,6,9,0.9,0.9
2025-05-19T0000,1808A,115.9114,29.6038,九江市,综合工业园,颗粒物(PM10),62,73,159,25,51,70,,170,126,22,30,7,9,0.8,0.9
2025-05-19T0000,1809A,116.0721,29.7535,九江市,石化总厂,细颗粒物(PM2.5),65,78,155,47,55,69,,160,116,12,21,6,6,0.7,0.8
2025-05-19T0000,1810A,115.9773,29.5698,九江市,庐山气象台,,31,21,44,13,27,99,,114,109,4,7,6,8,0.5,0.7
2025-05-19T0000,3190A,116.0254,29.6994,九江市,外国语学校,颗粒物(PM10),58,66,163,39,47,68,,165,120,20,23,6,8,0.9,0.9
2025-05-19T0000,4253A,116.0102,29.6594,九江市,莲花大道8号,颗粒物(PM10),91,132,141,47,46,51,,159,109,14,11,5,7,0.8,0.8
2025-05-19T0000,4240A,98.4958,39.7339,酒泉市,玉门东路5号,,45,31,65,31,31,94,,124,106,4,7,7,9,0.2,0.3
2025-05-19T0000,4241A,98.5099,39.7506,酒泉市,北大街108号,,36,36,59,19,21,86,,120,103,11,12,9,12,0.2,0.3
2025-05-19T0000,2698A,76.0072,39.4467,喀什地区,巡警大队,颗粒物(PM10),96,142,105,37,26,95,,126,111,22,18,6,4,0.3,0.3
2025-05-19T0000,2699A,75.9755,39.4694,喀什地区,吾办,颗粒物(PM10),86,122,118,33,56,105,,120,109,10,19,16,13,0.5,0.6
2025-05-19T0000,4027A,75.9483,39.4689,喀什地区,老干局,颗粒物(PM10),80,109,97,22,21,110,,120,113,7,11,5,6,0.4,0.4
2025-05-19T0000,1824A,114.3389,34.7781,开封市,肿瘤医院,颗粒物(PM10),107,163,116,46,30,88,,163,142,31,19,10,10,0.7,0.5
2025-05-19T0000,1826A,114.2885,34.7965,开封市,世纪星幼儿园,颗粒物(PM10),106,161,122,50,42,98,,174,152,30,18,9,11,0.7,0.6
2025-05-19T0000,3147A,114.3438,34.8106,开封市,龙亭公园,颗粒物(PM10),101,152,117,41,30,82,,152,,34,23,3,6,0.9,0.6
2025-05-19T0000,3210A,114.3644,34.7964,开封市,汴京公园,颗粒物(PM10),115,180,135,67,41,78,,156,134,28,20,7,8,0.8,0.6
2025-05-19T0000,3473A,114.2485,34.8306,开封市,技师学院,颗粒物(PM10),102,153,113,62,31,67,,177,156,48,24,5,5,0.8,0.5
2025-05-19T0000,3592A,114.4644,34.7556,开封市,祥符区生态环境局,颗粒物(PM10),113,175,151,51,40,73,,163,134,42,32,8,9,0.6,0.5
2025-05-19T0000,1951A,84.895,45.6094,克拉玛依市,长征新村,颗粒物(PM10),77,104,138,6,16,116,,111,111,3,12,6,7,0.2,0.3
2025-05-19T0000,1952A,84.8988,45.5893,克拉玛依市,南林小区,颗粒物(PM10),54,57,123,22,29,120,,118,118,2,17,4,4,0.1,0.3
2025-05-19T0000,1954A,84.905,44.3396,克拉玛依市,独山子区,,,149,77,,24,102,,121,110,3,7,6,6,0.3,0.3
2025-05-19T0000,1955A,85.6979,46.098,克拉玛依市,乌尔禾区商贸楼,,50,50,134,22,20,112,,111,111,1,8,10,10,0.4,0.5
2025-05-19T0000,3612A,85.1045,45.6899,克拉玛依市,白碱滩区新站,颗粒物(PM10),83,116,146,31,36,125,,124,124,2,7,13,13,0.1,0.1
2025-05-19T0000,2697A,76.1454,39.7142,克孜勒苏柯尔克孜自治州,市人民政府,颗粒物(PM10),75,99,82,36,29,108,,142,130,7,5,7,5,0.2,0.2
2025-05-19T0000,3665A,76.1658,39.7157,克孜勒苏柯尔克孜自治州,克州文化中心,颗粒物(PM10),80,109,88,34,30,118,,139,134,1,4,9,10,0.2,0.2
2025-05-19T0000,1450A,102.8204,24.8886,昆明市,呈贡新区,细颗粒物(PM2.5),55,54,29,39,20,68,,98,90,14,12,7,5,0.8,0.6
2025-05-19T0000,1451A,102.6251,24.9608,昆明市,西山森林公园,,,,,,,,,,,,,,,,
2025-05-19T0000,1452A,102.7252,25.0902,昆明市,龙泉镇,,30,30,22,18,16,59,,92,75,12,10,2,1,0.3,0.4
2025-05-19T0000,1453A,102.7266,25.0375,昆明市,东风东路,,34,34,35,20,21,65,,95,82,15,17,9,7,0.4,0.4
2025-05-19T0000,1454A,102.6742,25.0669,昆明市,金鼎山,,39,,25,27,15,62,,95,79,13,14,4,3,0.3,0.4
2025-05-19T0000,1455A,102.6644,25.0401,昆明市,碧鸡广场,,35,33,27,24,14,60,,93,80,15,14,8,6,0.5,0.5
2025-05-19T0000,3179A,102.7494,25.0119,昆明市,官渡区博物馆,,35,35,25,24,16,44,,93,73,28,18,9,7,0.5,0.5
2025-05-19T0000,3375A,102.8017,24.8336,昆明市,青年创业园,细颗粒物(PM2.5),68,50,20,49,16,68,,96,83,16,12,8,7,0.7,0.5
2025-05-19T0000,3550A,102.7997,24.9786,昆明市,昆明学院,,45,43,33,31,24,38,,95,72,32,19,7,6,0.4,0.4
2025-05-19T0000,3551A,102.5967,24.6736,昆明市,晋宁区生态环境分局,,21,21,16,12,11,49,,92,75,13,10,5,5,0.5,0.5
2025-05-19T0000,3552A,102.6678,24.9856,昆明市,云天化总部,,46,41,27,32,21,51,,93,77,23,14,4,3,0.7,0.7
2025-05-19T0000,1456A,91.1319,29.6514,拉萨市,八廓街,,28,21,11,10,7,89,,132,116,20,14,5,6,0.3,0.3
2025-05-19T0000,1457A,91.1221,29.6747,拉萨市,市环保局,,35,35,14,16,8,56,,114,93,27,14,4,4,0.3,0.2
2025-05-19T0000,1458A,91.0874,29.6475,拉萨市,区监测站,,39,39,12,13,7,50,,129,103,58,20,6,6,0.4,0.2
2025-05-19T0000,1459A,91.1774,29.6541,拉萨市,西藏大学,,26,21,9,10,6,83,,135,112,23,12,10,9,0.4,0.3
2025-05-19T0000,1460A,90.9798,29.6588,拉萨市,区辐射站,,29,25,12,11,7,91,,126,112,29,16,6,5,0.5,0.4
2025-05-19T0000,1461A,91.0834,29.6292,拉萨市,拉萨火车站,,25,16,8,8,7,80,,131,115,25,13,3,3,0.6,0.5
2025-05-19T0000,2520A,109.2203,23.7256,来宾市,来宾技工学校,,18,18,18,10,11,24,,48,35,16,12,8,9,0.6,0.6
2025-05-19T0000,3535A,109.1781,23.7297,来宾市,兴宾区政府,,11,11,14,7,11,31,,48,41,7,10,3,5,0.6,0.6
2025-05-19T0000,4002A,109.2416,23.7461,来宾市,中南小学,,15,13,18,10,10,21,,49,34,17,13,10,8,0.5,0.5
2025-05-19T0000,1477A,104.1373,35.9454,兰州市,榆中兰大校区,,,,,,,,,,,,,,,,
2025-05-19T0000,1479A,103.831,36.0464,兰州市,铁路设计院,颗粒物(PM10),65,79,60,40,34,25,,136,67,90,44,17,14,1.0,0.6
2025-05-19T0000,3241A,103.7439,36.0842,兰州市,百合公园,颗粒物(PM10),59,68,61,24,22,47,,139,86,62,31,8,9,0.4,0.5
2025-05-19T0000,3242A,103.9611,35.998,兰州市,和平,,,,65,,30,,,132,124,,15,,9,,0.3
2025-05-19T0000,4236A,103.6293,36.0938,兰州市,庄浪东路808号,颗粒物(PM10),53,56,62,23,29,43,,133,84,68,29,10,17,0.3,0.3
2025-05-19T0000,4237A,103.7251,36.1043,兰州市,安宁西路88号,颗粒物(PM10),62,73,71,37,34,68,,153,113,46,19,6,12,0.3,0.3
2025-05-19T0000,4238A,103.8470,36.0676,兰州市,北滨河东路1号,颗粒物(PM10),70,89,66,37,29,2,,143,78,100,43,8,11,0.9,0.7
2025-05-19T0000,3245A,103.6633,36.533,兰州新区,新区管委会,颗粒物(PM10),55,59,46,34,30,42,,141,114,33,11,19,22,0.4,0.3
2025-05-19T0000,3246A,103.6975,36.4789,兰州新区,舟曲中学,颗粒物(PM10),59,68,51,24,22,68,,136,117,45,11,8,13,0.4,0.3
2025-05-19T0000,1067A,116.6708,39.5111,廊坊市,药材公司,细颗粒物(PM2.5),70,85,52,51,28,105,,144,133,25,19,4,3,0.4,0.3
2025-05-19T0000,1068A,116.7214,39.5589,廊坊市,开发区,颗粒物(PM10),64,78,59,45,26,69,,147,120,32,32,3,4,0.5,0.4
2025-05-19T0000,1070A,116.7244,39.5269,廊坊市,北华航天学院,颗粒物(PM10),78,106,67,43,29,72,,151,123,38,25,5,5,0.5,0.3
2025-05-19T0000,2919A,116.7022,39.5453,廊坊市,河北工业大学,颗粒物(PM10),71,91,60,50,30,76,,148,123,36,19,6,5,0.5,0.4
2025-05-19T0000,2535A,103.7723,29.5462,乐山市,花湖湾,"颗粒物(PM10),细颗粒物(PM2.5)",55,59,74,39,52,82,,135,114,15,32,4,7,0.6,1
2025-05-19T0000,2536A,103.7627,29.5844,乐山市,牛耳桥,细颗粒物(PM2.5),62,69,84,44,57,60,,131,102,23,30,8,10,0.8,1
2025-05-19T0000,2537A,103.7508,29.6006,乐山市,市第三水厂,细颗粒物(PM2.5),59,60,75,42,53,74,,136,112,19,33,7,8,0.8,1
2025-05-19T0000,2538A,103.7571,29.5664,乐山市,市监测站,颗粒物(PM10),55,60,76,37,48,73,,124,103,16,29,8,7,1.1,1.3
2025-05-19T0000,3361A,103.7311,29.5628,乐山市,理工大学,细颗粒物(PM2.5),75,73,72,55,55,70,,136,106,20,30,16,9,1.0,1.2
2025-05-19T0000,2598A,100.2143,26.8576,丽江市,西南郊,,,,,,,,,,,,,,,,
2025-05-19T0000,2599A,100.2497,26.8802,丽江市,丽江古城,,23,23,28,16,19,66,,109,94,14,12,9,10,0.5,0.5
2025-05-19T0000,2600A,100.2203,26.8906,丽江市,市中心,,22,,20,13,14,69,,108,95,14,12,6,8,0.6,0.5
2025-05-19T0000,1267A,119.914,28.4514,丽水市,监测站大楼,,20,12,16,7,8,62,,84,76,12,14,2,2,0.6,0.6
2025-05-19T0000,1268A,119.93,28.4586,丽水市,莲都小学,,20,11,13,8,9,63,,91,80,12,12,3,3,0.4,0.5
2025-05-19T0000,1269A,119.879,28.4231,丽水市,余庄前,,19,19,19,11,10,44,,79,57,10,11,3,3,0.5,0.6
2025-05-19T0000,1173A,119.176,34.5885,连云港市,市环境监测站,,31,31,31,14,15,85,,104,95,16,15,6,6,0.4,0.4
2025-05-19T0000,3000A,119.3581,34.6972,连云港市,德源药业,,26,22,30,12,13,83,,99,90,9,10,9,9,0.6,0.5
2025-05-19T0000,3007A,119.178,34.844,连云港市,新城一中,,42,42,42,15,16,61,,103,84,35,19,7,7,0.6,0.5
2025-05-19T0000,3008A,119.3608,34.7519,连云港市,胡沟管理处,,34,34,27,14,12,107,,89,74,13,33,10,11,0.7,0.6
2025-05-19T0000,3009A,119.1478,34.5911,连云港市,矿山设计院,,27,27,31,12,13,81,,105,96,15,16,6,7,0.5,0.4
2025-05-19T0000,3434A,119.2413,34.6539,连云港市,工贸学校,,30,,24,18,17,96,,111,104,5,5,8,8,0.6,0.5
2025-05-19T0000,3664A,119.4172,34.7341,连云港市,连云街道,,39,39,25,20,14,107,,106,101,15,13,9,8,0.5,0.4
2025-05-19T0000,2571A,102.3431,27.8099,凉山彝族自治州,青龙寺,,17,17,18,3,5,42,,89,54,11,7,4,4,0.5,0.5
2025-05-19T0000,2572A,102.2721,27.8415,凉山彝族自治州,邛海宾馆,,34,34,28,14,10,38,,101,62,22,15,10,10,0.5,0.5
2025-05-19T0000,2573A,102.2625,27.898,凉山彝族自治州,西昌市政府,,30,30,19,20,11,39,,95,65,16,10,10,11,0.5,0.4
2025-05-19T0000,2574A,102.2685,27.8851,凉山彝族自治州,凉山州政府,,24,24,18,15,11,40,,95,66,18,12,7,7,0.6,0.3
2025-05-19T0000,4229A,102.2342,27.8859,凉山彝族自治州,凯乐南路30号,,43,43,26,29,13,31,,96,68,38,17,6,6,0.5,0.3
2025-05-19T0000,2212A,123.2,41.1953,辽阳市,宏伟区,,41,40,32,12,17,130,,101,101,8,13,7,11,0.4,0.8
2025-05-19T0000,2213A,123.1683,41.2495,辽阳市,新华园,颗粒物(PM10),52,54,41,19,18,113,,87,87,8,15,6,12,0.4,0.8
2025-05-19T0000,2214A,123.2354,41.2639,辽阳市,滨河路,,43,43,34,21,19,120,,95,91,16,17,8,12,0.4,0.7
2025-05-19T0000,2215A,123.149,41.2991,辽阳市,铁西工业园,颗粒物(PM10),61,72,43,27,24,120,,96,92,12,20,7,13,0.6,1
2025-05-19T0000,2227A,125.1358,42.8845,辽源市,环保局,,29,20,33,7,13,91,,100,94,13,11,7,7,0.4,0.4
2025-05-19T0000,3239A,125.0764,42.9078,辽源市,银鹰制药,,29,15,22,3,16,91,,107,98,16,12,4,4,0.3,0.3
2025-05-19T0000,1625A,115.9848,36.4372,聊城市,区政府,颗粒物(PM10),85,119,100,28,26,118,,156,143,16,17,7,8,0.7,0.7
2025-05-19T0000,2878A,116.0072,36.4343,聊城市,聊大东校,颗粒物(PM10),82,114,102,31,37,118,,153,141,16,20,8,8,0.4,0.4
2025-05-19T0000,3200A,115.9819,36.4978,聊城市,监控中心,颗粒物(PM10),99,147,115,31,27,128,,156,148,12,18,6,6,0.6,0.5
2025-05-19T0000,3513A,116.0445,36.4361,聊城市,九州社区,颗粒物(PM10),71,92,87,30,26,122,,161,146,13,17,9,7,0.4,0.4
2025-05-19T0000,4018A,116.0567,36.4608,聊城市,星美广场,颗粒物(PM10),79,108,100,25,27,116,,153,140,8,10,8,8,0.6,0.6
2025-05-19T0000,2632A,94.3681,29.6376,林芝市,林芝监测站,,24,,3,3,4,74,,99,89,5,7,6,6,0.4,0.4
2025-05-19T0000,2633A,94.3616,29.6616,林芝市,林芝人民医院,,22,6,7,3,5,69,,100,87,2,4,6,6,0.4,0.4
2025-05-19T0000,2603A,100.0781,23.8982,临沧市,市环保局,细颗粒物(PM2.5),62,,32,44,27,42,,91,69,12,9,5,6,0.8,0.8
2025-05-19T0000,2604A,100.0894,23.8822,临沧市,市气象局,,,38,31,,25,,,96,,13,11,10,9,0.6,0.6
2025-05-19T0000,1733A,111.5531,36.0783,临汾市,临钢医院,颗粒物(PM10),101,152,93,31,17,17,,134,74,72,31,7,6,1.0,0.7
2025-05-19T0000,1734A,111.5028,36.0714,临汾市,技工学校,颗粒物(PM10),80,109,87,36,29,57,,150,108,37,22,6,6,0.5,0.5
2025-05-19T0000,1736A,111.5018,36.0855,临汾市,市委,细颗粒物(PM2.5),93,121,89,69,19,46,,150,104,45,25,6,7,0.7,0.6
2025-05-19T0000,3018A,111.505,36.1014,临汾市,唐尧大酒店,颗粒物(PM10),73,96,84,28,27,22,,142,98,49,22,6,6,0.6,0.5
2025-05-19T0000,4244A,111.4879,36.0530,临汾市,启星学校,颗粒物(PM10),87,124,95,38,25,47,,151,111,43,29,6,5,0.6,0.6
2025-05-19T0000,4271A,103.2464,35.6123,临夏回族自治州,滨河东路1号,细颗粒物(PM2.5),95,122,86,71,38,33,,128,76,35,17,8,7,0.4,0.3
2025-05-19T0000,4310A,103.2093,35.5995,临夏回族自治州,新华街21号,颗粒物(PM10),74,97,81,42,33,51,,125,87,30,20,8,5,0.4,0.3
2025-05-19T0000,1618A,118.3429,35.0532,临沂市,沂河小区,颗粒物(PM10),52,53,52,28,28,85,,122,114,14,11,6,7,0.3,0.3
2025-05-19T0000,1619A,118.295,35.0583,临沂市,鲁南制药厂,,48,48,48,17,18,95,,136,126,20,23,7,9,0.6,0.5
2025-05-19T0000,1620A,118.2794,34.9976,临沂市,新光毛纺厂,,39,39,38,26,26,81,,132,116,24,22,9,11,0.3,0.3
2025-05-19T0000,1621A,118.3956,35.0888,临沂市,河东保险公司,,41,41,44,16,20,77,,127,109,20,16,7,8,0.4,0.4
2025-05-19T0000,3370A,118.3564,35.0215,临沂市,十里堡居委,,41,41,46,22,21,86,,134,121,21,19,7,8,0.4,0.4
2025-05-19T0000,3496A,118.3604,35.1084,临沂市,南坊新区,颗粒物(PM10),51,51,49,14,16,83,,124,110,16,15,7,9,0.2,0.3
2025-05-19T0000,3860A,118.3920,35.0300,临沂市,皇山花园小区,,46,46,48,25,25,79,,127,114,26,23,10,11,0.5,0.4
2025-05-19T0000,1870A,109.4856,24.3895,柳州市,柳东小学,,11,7,13,3,7,34,,52,42,7,7,11,9,0.3,0.4
2025-05-19T0000,1871A,109.4157,24.3277,柳州市,环保监测站,,14,14,17,3,11,26,,50,36,13,13,3,2,0.9,0.8
2025-05-19T0000,1872A,109.389,24.341,柳州市,河西水厂,,11,11,17,6,11,30,,50,40,14,13,4,4,0.6,0.6
2025-05-19T0000,1873A,109.4311,24.2921,柳州市,市四中,,11,11,15,6,8,23,,47,36,18,12,7,7,0.4,0.4
2025-05-19T0000,1874A,109.4006,24.3631,柳州市,市九中,,11,11,20,3,11,29,,51,36,12,12,8,8,0.6,0.6
2025-05-19T0000,1875A,109.4958,24.3134,柳州市,古亭山,,10,7,15,3,5,13,,42,30,20,9,5,5,0.9,0.9
2025-05-19T0000,3402A,109.5422,24.3996,柳州市,市二中,,10,8,13,3,8,29,,50,34,12,11,10,10,0.6,0.5
2025-05-19T0000,2307A,116.5079,31.737,六安市,监测大楼,颗粒物(PM10),71,91,98,48,32,88,,139,126,14,13,4,5,0.7,0.5
2025-05-19T0000,2308A,116.4738,31.7643,六安市,皖西学院,颗粒物(PM10),74,98,120,47,33,100,,155,141,21,16,7,6,0.7,0.5
2025-05-19T0000,2309A,116.4996,31.7905,六安市,朝阳厂,细颗粒物(PM2.5),68,79,84,49,32,88,,123,114,20,21,5,5,0.6,0.4
2025-05-19T0000,2310A,116.5567,31.7886,六安市,开发区,颗粒物(PM10),97,143,125,64,38,91,,146,133,26,21,6,6,0.8,0.5
2025-05-19T0000,2576A,104.8,26.5892,六盘水市,窑上,,29,29,36,11,22,45,,100,61,4,5,5,5,0.3,0.3
2025-05-19T0000,2577A,104.83,26.5917,六盘水市,黄土坡,,40,40,32,23,22,29,,110,77,37,17,8,10,0.5,0.4
2025-05-19T0000,2578A,104.89,26.5939,六盘水市,水钢,,45,45,38,3,7,50,,107,85,26,18,9,12,0.6,0.6
2025-05-19T0000,2579A,104.8475,26.5894,六盘水市,民中,,37,37,29,19,16,45,,99,78,24,16,8,9,0.5,0.4
2025-05-19T0000,2580A,104.9544,26.5506,六盘水市,双水,,23,22,27,8,16,72,,105,93,9,13,8,9,0.2,0.2
2025-05-19T0000,2335A,117.0189,25.1181,龙岩市,龙岩师专,,,,,,,,,,,,,,,,
2025-05-19T0000,2336A,117.0217,25.1033,龙岩市,龙岩市监测站,,18,12,17,12,14,20,,66,43,17,16,3,6,0.5,0.5
2025-05-19T0000,2337A,117.0258,25.0661,龙岩市,闽西职业技术学院,,24,24,27,10,14,16,,61,36,20,15,5,17,0.4,0.4
2025-05-19T0000,2338A,117.0196,25.0306,龙岩市,龙岩学院,,18,18,15,9,11,24,,67,40,14,8,6,8,0.3,0.4
2025-05-19T0000,2665A,105.0822,33.3261,陇南市,汉王镇固水子,,,,,,,,,,,,,,,,
2025-05-19T0000,2885A,104.9339,33.3826,陇南市,滨江中学,颗粒物(PM10),66,82,63,44,24,111,,134,128,7,5,7,7,0.4,0.4
2025-05-19T0000,3247A,104.955,33.371,陇南市,市总工会,细颗粒物(PM2.5),65,72,54,47,24,120,,131,128,5,5,6,6,0.6,0.5
2025-05-19T0000,2487A,111.9589,27.8901,娄底市,电视发射台,颗粒物(PM10),69,88,70,35,29,20,,72,46,5,4,6,7,0.9,0.5
2025-05-19T0000,2488A,111.9975,27.725,娄底市,市监测站,颗粒物(PM10),57,63,54,36,31,36,,81,73,32,20,13,12,1.4,0.9
2025-05-19T0000,2489A,112.0194,27.7314,娄底市,市委党校,细颗粒物(PM2.5),62,72,45,44,33,21,,80,65,32,10,3,4,0.9,0.7
2025-05-19T0000,2490A,111.9561,27.7569,娄底市,涟钢,颗粒物(PM10),54,58,51,37,32,44,,80,58,11,14,9,10,0.7,0.7
2025-05-19T0000,2491A,111.9892,27.7044,娄底市,市政府,颗粒物(PM10),55,60,40,36,29,10,,89,60,18,7,4,3,0.8,0.5
2025-05-19T0000,1893A,105.4324,28.9634,泸州市,九狮山,细颗粒物(PM2.5),68,71,75,49,55,58,,119,78,26,26,6,6,0.5,0.5
2025-05-19T0000,1894A,105.4427,28.9063,泸州市,小市上码头,细颗粒物(PM2.5),69,81,80,50,51,51,,113,94,29,26,10,9,0.6,0.7
2025-05-19T0000,1895A,105.4241,28.8573,泸州市,兰田宪桥,细颗粒物(PM2.5),72,79,75,52,52,13,,111,68,43,24,9,9,0.9,0.7
2025-05-19T0000,1896A,105.4379,28.8833,泸州市,市环监站,细颗粒物(PM2.5),89,96,78,66,55,34,,122,88,49,27,32,10,0.6,0.6
2025-05-19T0000,4272A,105.3689,28.7783,泸州市,纳溪中医医院,颗粒物(PM10),69,88,66,42,49,25,,113,72,30,33,7,8,0.8,0.9
2025-05-19T0000,2183A,111.1406,37.5211,吕梁市,环保局,颗粒物(PM10),91,132,86,23,19,43,,129,78,38,23,6,4,0.4,0.4
2025-05-19T0000,2185A,111.1297,37.5136,吕梁市,自来水公司,颗粒物(PM10),95,140,79,35,24,21,,117,69,50,32,3,5,0.5,0.5
2025-05-19T0000,2867A,111.1283,37.51,吕梁市,马茂庄小学,颗粒物(PM10),95,139,87,44,25,24,,122,73,47,26,3,5,0.5,0.5
2025-05-19T0000,1812A,112.3931,34.6516,洛阳市,市委党校,颗粒物(PM10),129,208,117,67,34,122,,162,145,15,13,17,10,0.7,0.5
2025-05-19T0000,1815A,112.494,34.6886,洛阳市,河南林校,颗粒物(PM10),123,195,126,69,35,74,,171,150,47,17,18,13,0.3,0.1
2025-05-19T0000,1816A,112.3844,34.623,洛阳市,开发区管委会,颗粒物(PM10),132,214,120,76,36,112,,162,148,24,15,15,9,0.7,0.4
2025-05-19T0000,1817A,112.4267,34.6258,洛阳市,市委新办公区,颗粒物(PM10),139,227,122,74,37,126,,173,159,19,18,17,13,0.4,0.2
2025-05-19T0000,3340A,112.6005,34.6326,洛阳市,伊滨,颗粒物(PM10),122,193,133,76,40,60,,171,131,52,20,12,10,0.9,0.6
2025-05-19T0000,3341A,112.4951,34.6332,洛阳市,中移产业园,颗粒物(PM10),128,205,128,68,39,86,,176,155,41,18,12,12,0.7,0.4
2025-05-19T0000,3593A,112.5736,34.8993,洛阳市,吉利监测站,颗粒物(PM10),99,148,115,60,42,44,,182,126,54,22,12,13,0.6,0.2
2025-05-19T0000,3635A,112.3677,34.662,洛阳市,河科大西苑校区,颗粒物(PM10),141,232,132,61,30,130,,174,160,20,16,21,12,0.6,0.3
2025-05-19T0000,3636A,112.4388,34.6781,洛阳市,英才小学,颗粒物(PM10),124,198,122,60,32,105,,175,154,24,16,12,9,0.6,0.4
2025-05-19T0000,4214A,112.4600,34.6949,洛阳市,春都路1号院,颗粒物(PM10),119,188,129,57,32,68,,178,151,55,24,11,10,0.6,0.4
2025-05-19T0000,2399A,114.051,33.5699,漯河市,三五一五工厂,颗粒物(PM10),128,206,130,63,37,125,,161,148,18,16,7,8,0.6,0.5
2025-05-19T0000,2400A,114.0055,33.5698,漯河市,漯河大学,颗粒物(PM10),127,203,143,56,34,124,,174,158,25,14,4,6,0.4,0.3
2025-05-19T0000,2401A,114.0138,33.5828,漯河市,市水利局,颗粒物(PM10),131,212,152,68,46,126,,168,154,21,15,6,7,0.6,0.5
2025-05-19T0000,2402A,114.0261,33.5698,漯河市,市广电局,颗粒物(PM10),129,208,141,66,40,134,,160,152,16,17,5,7,0.6,0.5
2025-05-19T0000,3478A,113.9749,33.5664,漯河市,市图书馆,颗粒物(PM10),117,184,135,65,44,139,,167,,16,19,4,6,0.6,0.5
2025-05-19T0000,4250A,114.0892,33.5882,漯河市,韶山路11号,颗粒物(PM10),129,208,136,66,43,115,,160,146,26,20,10,8,0.9,0.7
2025-05-19T0000,1798A,118.5092,31.6837,马鞍山市,湖东路四小,细颗粒物(PM2.5),82,111,109,60,30,85,,149,121,21,12,7,7,0.9,0.5
2025-05-19T0000,1799A,118.5024,31.6449,马鞍山市,开发区,颗粒物(PM10),82,114,114,51,32,88,,147,114,25,20,6,7,0.6,0.5
2025-05-19T0000,1802A,118.6245,31.7241,马鞍山市,濮塘,颗粒物(PM10),81,111,96,46,29,88,,146,119,18,9,10,9,0.8,0.7
2025-05-19T0000,3633A,118.4918,31.6809,马鞍山市,雨山,颗粒物(PM10),84,117,113,49,30,79,,148,120,28,14,7,8,0.8,0.6
2025-05-19T0000,4191A,118.5274,31.72227,马鞍山市,慈湖高新区,颗粒物(PM10),99,148,113,55,33,86,,138,111,23,18,8,8,0.6,0.5
2025-05-19T0000,1686A,111.0286,21.4688,茂名市,电白南海,,25,19,19,17,14,22,,46,27,13,7,3,3,0.6,0.6
2025-05-19T0000,1687A,110.9294,21.6533,茂名市,茂石化七小,,19,19,17,7,9,17,,32,24,10,9,2,2,0.5,0.5
2025-05-19T0000,1688A,110.9107,21.6687,茂名市,健康路,,9,9,10,3,7,20,,35,26,11,10,3,2,0.5,0.5
2025-05-19T0000,1689A,110.8592,21.6828,茂名市,高岭,,36,36,24,9,7,19,,29,20,14,14,10,7,0.4,0.4
2025-05-19T0000,3450A,111.01,21.5165,茂名市,电白水东,,18,14,14,12,7,18,,40,26,18,11,1,2,0.5,0.5
2025-05-19T0000,2539A,104.0308,30.0478,眉山市,黑龙滩水库,细颗粒物(PM2.5),64,56,77,46,57,96,,178,150,6,11,2,3,0.5,0.6
2025-05-19T0000,2540A,103.8416,30.0874,眉山市,气象局,细颗粒物(PM2.5),64,62,94,46,73,88,,182,157,27,39,3,4,0.6,0.7
2025-05-19T0000,3137A,103.8578,30.0744,眉山市,市委党校,细颗粒物(PM2.5),64,70,105,46,67,86,,168,143,25,43,10,12,0.6,0.7
2025-05-19T0000,3148A,103.8291,30.0564,眉山市,区人社局,细颗粒物(PM2.5),64,51,92,46,68,78,,168,142,29,44,14,15,0.6,0.7
2025-05-19T0000,1690A,116.1231,24.3284,梅州市,梅江月梅,,20,16,19,14,15,35,,61,37,9,11,5,5,0.6,0.6
2025-05-19T0000,1691A,116.0797,24.2719,梅州市,梅县新城,,16,14,19,11,14,37,,66,44,9,12,6,6,0.6,0.6
2025-05-19T0000,1692A,116.1248,24.2654,梅州市,环境监控中心,,19,,18,13,13,20,,56,26,16,15,9,8,0.5,0.5
2025-05-19T0000,3315A,116.1233,24.2991,梅州市,梅龙,,24,24,17,9,11,24,,57,38,15,8,6,7,0.5,0.5
2025-05-19T0000,1878A,104.7778,31.4741,绵阳市,富乐山,细颗粒物(PM2.5),117,118,144,88,114,121,,178,172,19,18,9,9,0.8,0.9
2025-05-19T0000,1880A,104.6697,31.4668,绵阳市,高新区自来水公司,细颗粒物(PM2.5),132,149,137,100,102,61,,182,159,75,29,5,5,1.0,0.9
2025-05-19T0000,1881A,104.7287,31.5075,绵阳市,三水厂,细颗粒物(PM2.5),123,156,150,93,106,70,,181,158,51,27,9,9,1.1,1.1
2025-05-19T0000,3491A,104.69,31.5322,绵阳市,西科大附属小学,细颗粒物(PM2.5),113,135,143,85,101,75,,192,172,61,26,8,8,0.9,0.9
2025-05-19T0000,3492A,104.5648,31.5343,绵阳市,安州区旅游局,细颗粒物(PM2.5),107,106,142,80,106,90,,184,162,25,24,6,8,1.2,1.2
2025-05-19T0000,4226A,104.7651,31.4531,绵阳市,绵阳市气象局,细颗粒物(PM2.5),130,139,155,99,112,121,,181,175,27,20,5,6,1.0,1.1
2025-05-19T0000,1784A,129.61,44.561,牡丹江市,环保大楼,,33,30,16,23,14,53,,78,62,10,8,5,6,0.3,0.3
2025-05-19T0000,1785A,129.6115,44.5782,牡丹江市,文化广场,,37,37,25,20,15,58,,77,64,10,10,9,9,0.3,0.3
2025-05-19T0000,1786A,129.5904,44.5963,牡丹江市,第一医院,,38,29,23,26,18,32,,77,55,13,11,4,5,0.4,0.4
2025-05-19T0000,1787A,129.6364,44.6075,牡丹江市,机车工厂,,28,28,23,19,13,56,,78,60,11,11,6,7,0.3,0.3
2025-05-19T0000,1788A,129.6386,44.5462,牡丹江市,第一中学,,33,33,22,22,13,56,,82,68,11,8,3,2,0.2,0.2
2025-05-19T0000,2531A,105.0703,29.61,内江市,市监测站,细颗粒物(PM2.5),68,54,74,49,67,77,,148,114,23,19,8,7,1.1,1.1
2025-05-19T0000,2532A,105.0717,29.5947,内江市,东兴区政府,细颗粒物(PM2.5),58,41,70,41,58,82,,149,114,16,16,14,13,0.7,0.8
2025-05-19T0000,2533A,105.0653,29.5817,内江市,内江二中,细颗粒物(PM2.5),64,59,78,46,71,64,,143,105,17,16,10,9,0.7,0.7
2025-05-19T0000,2534A,105.0406,29.5822,内江市,内江日报社,颗粒物(PM10),64,78,76,45,68,77,,142,110,17,20,8,9,0.7,0.8
2025-05-19T0000,2628A,92.0657,31.4846,那曲市,那曲监测站,颗粒物(PM10),60,69,40,31,16,68,,113,99,30,16,8,8,0.9,0.4
2025-05-19T0000,4243A,92.0515,31.4787,那曲市,那曲市委宣传部,,29,29,18,14,9,79,,124,112,22,9,4,4,0.8,0.4
2025-05-19T0000,1290A,115.8931,28.6843,南昌市,省外办,,25,17,55,12,27,80,,98,81,15,23,4,6,0.6,0.7
2025-05-19T0000,1291A,115.8886,28.7003,南昌市,省林业公司,,27,,72,12,28,85,,110,86,10,20,10,11,1.1,0.9
2025-05-19T0000,1292A,115.8126,28.7442,南昌市,林科所,,24,19,67,14,26,19,,117,78,47,18,4,6,0.3,0.4
2025-05-19T0000,1294A,115.8518,28.687,南昌市,建工学校,,30,,69,15,22,94,,115,95,8,22,4,6,0.3,0.5
2025-05-19T0000,1295A,115.8921,28.6424,南昌市,象湖,,26,8,44,7,16,82,,94,82,9,13,6,8,0.5,0.7
2025-05-19T0000,1296A,115.7423,28.7996,南昌市,武术学校,,33,,65,23,29,12,,114,51,6,8,7,9,0.6,0.7
2025-05-19T0000,3046A,115.9084,28.6062,南昌市,机电学校,,24,20,40,9,15,76,,87,84,10,14,4,4,0.3,0.4
2025-05-19T0000,3690A,115.9721,28.7031,南昌市,外国语学校,,,13,53,9,16,91,,107,88,5,10,,6,0.2,0.4
2025-05-19T0000,4192A,115.9316,28.68677,南昌市,南京东路235号,,27,20,67,7,19,85,,101,84,3,10,5,5,1.0,0.8
2025-05-19T0000,1905A,106.056,30.8064,南充市,西山风景区,,,,,,,,,,,,,,,,
2025-05-19T0000,1906A,106.0789,30.8023,南充市,南充市委,细颗粒物(PM2.5),104,109,96,78,76,122,,161,137,17,17,7,6,0.7,0.6
2025-05-19T0000,1907A,106.1031,30.8217,南充市,南充炼油厂,细颗粒物(PM2.5),99,104,97,74,74,113,,156,134,16,15,7,6,0.6,0.6
2025-05-19T0000,4227A,106.1083,30.7884,南充市,梨树横街98号,细颗粒物(PM2.5),94,123,128,70,67,114,,155,132,14,15,6,5,0.6,0.5
2025-05-19T0000,4304A,106.1172,30.843,南充市,清泉寺北路188号,细颗粒物(PM2.5),119,102,97,90,78,113,,157,133,17,15,5,6,0.5,0.5
2025-05-19T0000,4305A,106.067,30.7616,南充市,同庆路1号,细颗粒物(PM2.5),100,107,93,75,68,107,,143,127,13,16,5,6,0.5,0.4
2025-05-19T0000,1151A,118.8086,32.1065,南京市,迈皋桥,颗粒物(PM10),69,87,75,41,26,101,,144,124,17,14,4,4,0.5,0.3
2025-05-19T0000,1152A,118.7538,32.0551,南京市,草场门,颗粒物(PM10),85,119,103,51,29,89,,141,118,29,19,4,3,0.4,0.2
2025-05-19T0000,1153A,118.7794,32.0745,南京市,山西路,颗粒物(PM10),89,127,109,46,26,97,,149,127,34,23,5,4,0.4,0.3
2025-05-19T0000,1154A,118.7752,32.0023,南京市,中华门,颗粒物(PM10),78,105,93,44,28,82,,130,109,20,10,3,4,0.6,0.4
2025-05-19T0000,1155A,118.8109,32.0309,南京市,瑞金路,颗粒物(PM10),85,119,96,44,28,85,,134,113,29,16,6,6,0.2,0.2
2025-05-19T0000,1156A,118.7997,32.0754,南京市,玄武湖,颗粒物(PM10),83,116,87,35,20,98,,146,126,12,10,4,4,0.6,0.5
2025-05-19T0000,1157A,118.6414,32.0931,南京市,浦口,颗粒物(PM10),81,111,94,40,22,82,,134,111,28,21,4,4,0.4,0.1
2025-05-19T0000,1158A,118.7356,31.9996,南京市,奥体中心,颗粒物(PM10),89,127,105,48,26,97,,150,128,27,17,8,6,0.4,0.3
2025-05-19T0000,1159A,118.9125,32.1028,南京市,仙林大学城,颗粒物(PM10),82,114,105,39,23,92,,140,121,21,14,13,11,0.6,0.5
2025-05-19T0000,3422A,118.8436,31.9198,南京市,江宁彩虹桥,颗粒物(PM10),79,108,95,39,27,80,,140,113,27,15,4,4,0.5,0.4
2025-05-19T0000,3427A,118.8554,32.3578,南京市,六合雄州,颗粒物(PM10),89,127,92,35,20,96,,144,124,36,28,8,8,0.5,0.4
2025-05-19T0000,4249A,118.8708,31.3402,南京市,汶溪路181号,颗粒物(PM10),56,62,93,31,30,75,,142,115,22,17,3,5,0.9,0.9
2025-05-19T0000,4312A,119.019,31.6512,南京市,中山西路1号,颗粒物(PM10),68,85,89,46,30,68,,120,100,28,20,10,8,0.7,0.5
2025-05-19T0000,1401A,108.3103,22.7881,南宁市,二十一中,,15,15,22,8,12,13,,58,27,15,14,3,2,0.6,0.6
2025-05-19T0000,1402A,108.3141,22.8528,南宁市,北湖,,19,16,19,13,14,17,,66,29,17,17,4,4,0.5,0.6
2025-05-19T0000,1403A,108.3206,22.8225,南宁市,市监测站,,19,,25,13,12,13,,55,24,13,13,1,1,0.5,0.5
2025-05-19T0000,1404A,108.3829,22.8037,南宁市,大自然花园,,16,,20,11,11,10,,64,30,16,10,4,4,0.6,0.5
2025-05-19T0000,1405A,108.4394,22.7904,南宁市,仙葫,,22,17,19,15,12,18,,55,30,15,12,3,3,0.6,0.6
2025-05-19T0000,1406A,108.2397,22.8467,南宁市,区农职院,,12,,22,8,8,15,,63,26,17,16,3,3,0.3,0.3
2025-05-19T0000,1407A,108.3275,22.735,南宁市,英华嘉园,,18,18,33,9,12,17,,60,27,12,13,6,6,0.4,0.4
2025-05-19T0000,3401A,108.4834,22.7618,南宁市,红星社区,,15,15,18,10,20,4,,64,25,25,12,8,8,0.4,0.4
2025-05-19T0000,4221A,108.2177,22.7774,南宁市,乐贤路16号,,20,20,19,12,17,2,,61,16,27,19,3,4,0.5,0.5
2025-05-19T0000,2331A,118.0966,26.6761,南平市,茫荡山,,,,,,,,,,,,,,,,
2025-05-19T0000,2332A,118.1681,26.6369,南平市,南平市监测站,,12,12,10,7,8,21,,61,40,14,8,4,4,0.8,0.7
2025-05-19T0000,2333A,118.1825,26.6489,南平市,南平铝业有限公司,,11,11,21,3,6,31,,61,42,8,9,3,3,0.7,0.7
2025-05-19T0000,2334A,118.1756,26.6272,南平市,南平七中,细颗粒物(PM2.5),60,,15,43,17,14,,61,32,12,6,4,4,0.6,0.6
2025-05-19T0000,1168A,120.9098,31.9663,南通市,狼山街道,颗粒物(PM10),58,66,65,21,20,54,,124,80,44,22,7,5,0.7,0.6
2025-05-19T0000,1169A,120.86,32.0005,南通市,虹桥,颗粒物(PM10),53,55,56,29,24,63,,109,79,34,25,4,3,0.5,0.4
2025-05-19T0000,1170A,120.87,32.02,南通市,城中,颗粒物(PM10),62,74,72,24,20,59,,121,83,37,21,6,4,0.6,0.5
2025-05-19T0000,1171A,120.94,31.93,南通市,星湖花园,颗粒物(PM10),55,60,65,28,23,55,,116,76,40,20,7,4,0.5,0.4
2025-05-19T0000,1172A,120.81,32.0417,南通市,紫琅学院,颗粒物(PM10),66,81,72,25,17,55,,107,74,43,28,6,6,0.5,0.4
2025-05-19T0000,3291A,121.067,32.062,南通市,通州监测站,颗粒物(PM10),53,56,61,22,18,62,,133,105,23,9,5,5,0.7,0.6
2025-05-19T0000,3432A,120.9348,31.9883,南通市,环境教育馆,颗粒物(PM10),60,70,65,23,20,51,,128,86,37,15,6,3,0.4,0.3
2025-05-19T0000,2404A,112.5224,33.0122,南阳市,瓦房庄,颗粒物(PM10),119,188,200,61,47,140,,168,161,14,13,8,8,0.5,0.4
2025-05-19T0000,2405A,112.5003,32.9735,南阳市,汉画馆,颗粒物(PM10),118,185,204,62,50,136,,168,158,18,16,8,7,0.6,0.4
2025-05-19T0000,2406A,112.5573,33.027,南阳市,气象站,细颗粒物(PM2.5),192,233,238,144,65,136,,168,158,17,12,8,7,0.6,0.4
2025-05-19T0000,2407A,112.5481,32.9689,南阳市,理工学院,颗粒物(PM10),118,186,200,62,50,133,,163,151,13,15,7,7,0.5,0.4
2025-05-19T0000,4008A,112.5234,32.9922,南阳市,卧龙区政府,颗粒物(PM10),125,199,220,69,49,133,,165,157,18,15,7,6,0.5,0.4
2025-05-19T0000,1234A,121.8358,29.911,宁波市,区环保大楼,,26,25,66,18,30,80,,94,40,13,53,8,9,0.5,0.6
2025-05-19T0000,1235A,121.56,29.82,宁波市,万里学院,颗粒物(PM10),55,59,59,38,33,41,,107,58,34,27,5,5,0.6,0.6
2025-05-19T0000,1236A,121.713,29.9572,宁波市,龙赛医院,,,52,66,21,23,,,113,,18,30,7,7,0.4,0.4
2025-05-19T0000,1239A,121.633,29.7733,宁波市,钱湖水厂,,40,40,64,24,27,45,,104,59,15,18,8,8,0.7,0.7
2025-05-19T0000,1240A,121.5856,29.8635,宁波市,太古小学,颗粒物(PM10),54,58,73,21,25,58,,107,62,20,25,6,8,0.8,0.7
2025-05-19T0000,1241A,121.524,29.8674,宁波市,市环境监测中心,颗粒物(PM10),52,54,63,24,23,44,,108,55,30,29,11,11,0.7,0.6
2025-05-19T0000,2871A,121.6147,29.9017,宁波市,万里国际学校,,50,50,55,26,24,50,,107,63,24,28,6,6,0.8,0.8
2025-05-19T0000,3710A,121.5594,29.8975,宁波市,白沙活动中心,,48,48,51,26,26,48,,111,60,21,22,8,8,0.7,0.6
2025-05-19T0000,2339A,119.5001,26.6946,宁德市,金涵水库,,,,,,,,,,,,,,,,
2025-05-19T0000,2341A,119.5388,26.6612,宁德市,宁德市监测站,,27,,17,6,14,85,,90,90,9,17,3,4,0.3,0.4
2025-05-19T0000,3209A,119.5231,26.6562,宁德市,宁德一中,,28,6,26,3,15,89,,91,91,6,12,2,3,0.4,0.5
2025-05-19T0000,2618A,98.8601,25.8567,怒江傈僳族自治州,州监测站,,37,37,35,18,23,44,,97,72,11,9,8,6,0.5,0.5
2025-05-19T0000,2619A,98.8546,25.8417,怒江傈僳族自治州,泸水一中,,34,34,30,20,17,22,,80,50,17,13,7,6,0.5,0.4
2025-05-19T0000,1888A,101.6891,26.571,攀枝花市,弄弄坪,,34,34,37,6,12,67,,102,84,12,13,6,9,0.5,0.6
2025-05-19T0000,1889A,101.5769,26.5928,攀枝花市,河门口,,33,33,52,17,25,55,,107,81,17,17,7,15,0.9,1.2
2025-05-19T0000,1890A,101.7169,26.585,攀枝花市,炳草岗,,26,,32,18,14,73,,106,90,11,13,7,12,0.5,0.6
2025-05-19T0000,1891A,101.7369,26.5008,攀枝花市,仁和,,32,32,37,12,18,59,,105,90,9,14,7,12,0.4,0.5
2025-05-19T0000,2835A,101.7227,26.567,攀枝花市,四十中小,,28,28,28,11,12,88,,111,100,5,9,6,10,0.6,0.6
2025-05-19T0000,1604A,122.0303,41.1489,盘锦市,开发区,,45,32,23,24,13,144,,115,115,10,13,10,12,0.5,0.4
2025-05-19T0000,1605A,122.0485,41.0883,盘锦市,兴隆台,,42,34,26,26,14,134,,112,112,13,19,6,9,0.5,0.4
2025-05-19T0000,1606A,121.8297,41.1028,盘锦市,新生街道,,42,,20,29,13,133,,120,120,21,22,9,13,0.4,0.3
2025-05-19T0000,1832A,113.3257,33.742,平顶山市,新华旅馆,颗粒物(PM10),117,183,154,45,26,140,,167,157,14,15,6,7,0.5,0.4
2025-05-19T0000,1833A,113.2919,33.737,平顶山市,规划设计院,颗粒物(PM10),131,211,148,70,48,136,,167,155,18,16,7,7,0.4,0.4
2025-05-19T0000,1834A,113.182,33.774,平顶山市,平顶山工学院,颗粒物(PM10),113,176,136,56,39,144,,168,159,11,12,4,4,0.3,0.3
2025-05-19T0000,3204A,113.3025,33.73,平顶山市,规划局,颗粒物(PM10),118,185,169,54,34,140,,163,155,10,11,7,8,0.4,0.4
2025-05-19T0000,3594A,112.8867,33.9116,平顶山市,石龙区,颗粒物(PM10),123,196,179,65,55,156,,172,155,14,18,8,10,0.4,0.5
2025-05-19T0000,2656A,106.6692,35.5461,平凉市,聚贤嘉苑,颗粒物(PM10),62,74,94,38,43,55,,118,90,35,16,13,11,0.7,0.7
2025-05-19T0000,2657A,106.7021,35.5307,平凉市,博物馆,颗粒物(PM10),68,85,103,29,33,56,,120,89,30,18,10,10,0.5,0.5
2025-05-19T0000,2347A,114.0997,27.5002,萍乡市,武功山,,10,10,5,3,3,29,,72,56,4,4,17,17,0.9,0.8
2025-05-19T0000,2348A,113.8385,27.6434,萍乡市,中医院,,20,20,36,10,22,57,,76,63,6,15,10,15,0.7,1.4
2025-05-19T0000,2349A,113.8493,27.6253,萍乡市,市政府车库,,22,19,25,15,22,45,,72,61,9,16,4,5,0.5,1.1
2025-05-19T0000,2350A,113.8676,27.6435,萍乡市,市环保局,,19,19,31,12,23,59,,82,69,6,17,5,11,0.6,1.2
2025-05-19T0000,2351A,113.866,27.6198,萍乡市,安源区政府,,20,20,32,12,15,41,,74,60,14,15,5,7,0.9,1.2
2025-05-19T0000,2319A,119.0141,25.4325,莆田市,荔城区仓后路,,25,18,32,17,13,47,,91,55,16,17,4,5,1.3,0.5
2025-05-19T0000,2320A,119.0015,25.4553,莆田市,莆田市监测站,,16,16,27,10,13,37,,97,54,12,9,5,5,1.1,0.5
2025-05-19T0000,2321A,119.1119,25.4561,莆田市,涵江区六中,,20,20,27,12,14,56,,99,51,17,18,1,2,0.8,0.4
2025-05-19T0000,2322A,119.1013,25.3215,莆田市,秀屿区政府,,29,16,22,3,10,92,,77,56,6,11,5,5,0.5,0.4
2025-05-19T0000,2323A,118.981,25.4792,莆田市,东圳水库,,,,,,,,,,,,,,,,
2025-05-19T0000,2392A,115.0312,35.7636,濮阳市,环保局,颗粒物(PM10),99,148,114,35,27,134,,160,154,18,16,8,9,0.7,0.7
2025-05-19T0000,2394A,115.0574,35.7609,濮阳市,油田运输公司,颗粒物(PM10),96,141,110,34,27,124,,155,147,15,14,8,11,0.8,0.7
2025-05-19T0000,3021A,115,35.7668,濮阳市,濮水河管理处,颗粒物(PM10),105,160,106,47,29,134,,156,152,18,19,10,8,0.6,0.5
2025-05-19T0000,4216A,115.0924,35.7686,濮阳市,任丘路479号,颗粒物(PM10),105,159,115,41,30,108,,155,142,26,23,7,12,0.8,0.6
2025-05-19T0000,2601A,100.98,22.7633,普洱市,市环保局,,39,38,30,27,12,20,,54,33,5,3,6,7,0.5,0.4
2025-05-19T0000,2602A,100.9817,22.8322,普洱市,普洱第二中学,,28,28,18,17,12,15,,61,34,9,10,4,4,0.5,0.5
2025-05-19T0000,2262A,131.0518,45.8751,七台河市,新一中,,,23,10,12,6,,,,,5,7,10,9,0.7,0.7
2025-05-19T0000,3345A,131.0577,45.7879,七台河市,中波台,,20,15,13,6,5,62,,74,67,11,10,6,5,0.3,0.3
2025-05-19T0000,3637A,131.0176,45.7761,七台河市,人民广场,,43,43,24,21,13,76,,84,82,10,9,11,10,0.4,0.4
2025-05-19T0000,3684A,130.8781,45.8222,七台河市,新建矿广场,,32,22,18,22,11,62,,83,74,8,10,11,9,0.6,0.5
2025-05-19T0000,1779A,123.9305,47.3636,齐齐哈尔市,安居小区,,23,23,27,12,14,54,,77,64,9,10,4,4,0.4,0.4
2025-05-19T0000,1780A,123.9488,47.3386,齐齐哈尔市,中心广场,,19,17,35,9,14,58,,78,70,8,7,1,2,0.3,0.2
2025-05-19T0000,1781A,123.9483,47.3227,齐齐哈尔市,农牧车辆厂,,17,17,31,3,13,51,,72,62,10,8,5,6,0.2,0.3
2025-05-19T0000,1783A,123.945,47.2988,齐齐哈尔市,市环境监测站,,17,17,29,6,16,53,,76,65,8,8,3,3,0.2,0.2
2025-05-19T0000,3662A,123.6333,47.2075,齐齐哈尔市,富区青少年活动中心,细颗粒物(PM2.5),79,65,50,58,32,40,,71,53,22,15,10,7,0.7,0.7
2025-05-19T0000,2591A,107.9783,26.5747,黔东南苗族侗族自治州,市环境监测站,,46,39,30,32,26,25,,83,56,28,11,3,3,0.6,0.5
2025-05-19T0000,2881A,107.8908,26.5311,黔东南苗族侗族自治州,凯里学院,,40,31,31,28,24,37,,89,59,15,10,2,2,0.5,0.5
2025-05-19T0000,2593A,107.5228,26.2403,黔南布依族苗族自治州,小围寨,,44,44,32,29,24,28,,89,69,17,9,2,3,0.4,0.4
2025-05-19T0000,3538A,107.5175,26.2978,黔南布依族苗族自治州,沙坝,细颗粒物(PM2.5),52,48,40,36,25,27,,96,70,15,10,3,4,0.8,0.6
2025-05-19T0000,2589A,104.9022,25.0925,黔西南布依族苗族自治州,场坝街,,44,44,34,22,19,82,,105,90,5,7,2,3,0.3,0.3
2025-05-19T0000,2590A,104.8811,25.0992,黔西南布依族苗族自治州,坪东大道,,42,42,33,19,21,72,,90,74,7,12,2,4,0.4,0.4
2025-05-19T0000,2502A,108.6236,21.9667,钦州市,市环保站,,19,19,15,3,8,22,,38,18,17,15,4,4,0.5,0.6
2025-05-19T0000,2503A,108.6549,21.9481,钦州市,沙埠小学,,29,29,27,18,13,9,,39,14,23,19,5,6,0.4,0.4
2025-05-19T0000,2504A,108.5989,21.7431,钦州市,港区一小,,34,34,30,13,11,43,,42,36,20,14,11,8,0.4,0.4
2025-05-19T0000,3404A,108.5959,21.9633,钦州市,北职校,,38,28,20,26,13,11,,32,14,21,13,6,6,0.5,0.5
2025-05-19T0000,1043A,119.7493,40.0116,秦皇岛市,第一关,,49,47,37,34,24,92,,160,150,40,22,5,5,0.4,0.3
2025-05-19T0000,1044A,119.5897,39.9499,秦皇岛市,监测站,,43,43,48,19,19,123,,166,158,12,26,4,5,0.4,0.4
2025-05-19T0000,1046A,119.5251,39.9041,秦皇岛市,建设大厦,,47,47,48,31,20,110,,159,149,16,28,4,6,0.4,0.4
2025-05-19T0000,3132A,119.610547,39.943889,秦皇岛市,文明里,,,,34,,15,,,80,,,29,,4,,0.3
2025-05-19T0000,4198A,119.5090,39.8253,秦皇岛市,北戴河轮滑馆,,41,41,37,22,24,97,,158,142,17,22,3,5,0.2,0.2
2025-05-19T0000,1307A,120.6659,36.2403,青岛市,仰口,,35,27,20,11,18,110,,113,108,2,3,6,7,0.2,0.3
2025-05-19T0000,1310A,120.4134,36.0658,青岛市,市南区东部子站,,30,22,30,9,20,95,,111,106,9,21,8,8,0.3,0.4
2025-05-19T0000,1311A,120.3664,36.1032,青岛市,四方区子站,,33,19,27,12,18,104,,116,112,8,16,6,6,0.6,0.6
2025-05-19T0000,1312A,120.2994,36.054,青岛市,市南区西部子站,,30,22,35,10,15,95,,107,103,12,33,7,8,0.6,0.6
2025-05-19T0000,1313A,120.4581,36.0858,青岛市,崂山区子站,,33,17,20,7,11,103,,118,112,9,13,8,8,0.3,0.4
2025-05-19T0000,1315A,120.3999,36.3083,青岛市,城阳区子站,,,19,32,10,16,100,,107,100,10,21,5,4,,0.4
2025-05-19T0000,1966A,120.0405,35.8735,青岛市,黄岛区4号,,32,24,32,3,12,102,,113,109,10,19,8,8,0.5,0.5
2025-05-19T0000,3362A,120.5014,36.4034,青岛市,即墨2号,,31,22,37,11,17,99,,105,99,6,13,7,7,0.5,0.5
2025-05-19T0000,3642A,120.3503,36.0736,青岛市,市北区南部,,29,21,32,7,15,90,,104,101,10,18,8,7,0.3,0.3
2025-05-19T0000,3643A,120.3948,36.1805,青岛市,李沧区北部,,29,19,32,14,19,90,,96,94,14,22,8,8,0.4,0.5
2025-05-19T0000,4290A,120.1969,35.9546,青岛市,珠江路669号,,32,19,26,7,15,100,,111,108,4,13,6,7,0.6,0.6
2025-05-19T0000,1702A,113.0426,23.691,清远市,环保大楼,,29,29,20,14,11,19,,36,29,18,19,6,7,0.7,0.7
2025-05-19T0000,1703A,113.0208,23.7106,清远市,凤城街办,,49,36,17,34,21,30,,37,31,17,21,6,6,0.5,0.5
2025-05-19T0000,3025A,113.0477,23.6344,清远市,技师学院,,27,27,18,18,12,12,,35,25,35,24,7,7,0.2,0.3
2025-05-19T0000,3318A,112.9903,23.7403,清远市,清新太和,,34,34,16,23,11,19,,34,29,18,17,9,8,0.4,0.4
2025-05-19T0000,3455A,113.076,23.7198,清远市,清城东城,,29,25,17,20,10,30,,38,35,13,14,10,8,0.7,0.7
2025-05-19T0000,2661A,107.6325,35.7357,庆阳市,庆阳五中,细颗粒物(PM2.5),62,70,103,44,65,111,,106,100,6,9,5,4,0.4,0.5
2025-05-19T0000,2662A,107.6364,35.7067,庆阳市,市环保局,颗粒物(PM10),58,66,103,23,46,109,,114,108,8,6,14,8,0.5,0.5
2025-05-19T0000,1916A,103.7897,25.5035,曲靖市,环境监测站,,37,37,33,17,18,65,,91,74,12,13,6,4,0.6,0.7
2025-05-19T0000,1917A,103.8,25.5364,曲靖市,烟厂办公区,,42,37,32,29,17,59,,95,76,15,10,5,4,0.7,0.7
2025-05-19T0000,3376A,103.7947,25.462,曲靖市,南苑二区,,35,35,31,20,17,64,,98,81,12,11,5,5,0.8,0.8
2025-05-19T0000,3377A,103.7444,25.5261,曲靖市,曲靖师范学院,,40,40,31,23,20,55,,98,79,15,15,7,6,0.5,0.5
2025-05-19T0000,1264A,118.8692,28.9398,衢州市,环保大楼,颗粒物(PM10),57,64,53,37,31,33,,73,58,20,18,4,4,0.6,0.5
2025-05-19T0000,1265A,118.8709,28.9666,衢州市,实验学校,细颗粒物(PM2.5),95,,53,71,44,33,,73,60,19,16,3,3,0.4,0.4
2025-05-19T0000,1266A,118.8621,28.9808,衢州市,衢州学院,细颗粒物(PM2.5),60,61,48,43,30,28,,72,56,27,21,5,4,0.5,0.4
2025-05-19T0000,1611A,118.5819,24.9117,泉州市,涂山街,,35,,27,24,13,35,,82,42,27,20,5,5,0.5,0.5
2025-05-19T0000,1612A,118.5972,24.8978,泉州市,津头埔,,28,,24,19,12,39,,81,43,20,16,2,3,0.5,0.5
2025-05-19T0000,1613A,118.6663,24.9424,泉州市,万安,,24,24,24,15,10,28,,81,42,24,12,4,4,0.5,0.5
2025-05-19T0000,1614A,118.6117,24.9604,泉州市,清源山,,,,,,,,,,,,,,,,
