timepoint,stationcode,longitude,latitude,area,positionname,primarypollutant,aqi,pm10,pm10_24h,pm2_5,pm2_5_24h,o3,o3_24h,o3_8h,o3_8h_24h,no2,no2_24h,so2,so2_24h,co,co_24h
2024-06-22T1700,2566A,102.1879,31.914,阿坝藏族羌族自治州,州农科所,,20,10,20,3,11,64,,66,66,21,13,5,4,0.1,0.3
2024-06-22T1700,2568A,102.2502,31.8896,阿坝藏族羌族自治州,马师校,,25,10,14,3,12,78,,77,77,11,14,5,5,0.3,0.4
2024-06-22T1700,3994A,102.2165,31.9024,阿坝藏族羌族自治州,马尔康中学西区,,25,9,15,7,11,77,,74,74,2,4,5,5,0.3,0.3
2024-06-22T1700,2695A,80.292,41.1694,阿克苏地区,电视台,颗粒物(PM10),58,65,45,17,18,123,,110,101,7,12,4,6,0.3,0.4
2024-06-22T1700,2696A,80.2613,41.1551,阿克苏地区,艺术中心,颗粒物(PM10),57,64,44,14,17,123,,104,96,5,14,5,4,0.3,0.3
2024-06-22T1700,2204A,105.6467,38.8363,阿拉善盟,西城区西花园,颗粒物(PM10),54,58,65,16,20,116,,106,106,7,13,6,8,0.7,0.7
2024-06-22T1700,2205A,105.6985,38.8411,阿拉善盟,蒙二幼,颗粒物(PM10),59,67,71,16,22,111,,100,100,7,9,8,8,0.4,0.4
2024-06-22T1700,2206A,105.724,38.8516,阿拉善盟,环保局新楼,颗粒物(PM10),55,59,70,19,24,113,,103,103,4,7,10,10,0.4,0.4
2024-06-22T1700,2708A,88.1264,47.8517,阿勒泰地区,市站,,34,9,29,3,13,108,,96,96,10,12,7,6,0.3,0.3
2024-06-22T1700,2630A,80.1161,32.5,阿里地区,阿里监测站,,,7,8,3,4,132,,130,130,3,6,,7,0.4,0.4
2024-06-22T1700,3192A,80.0903,32.5028,阿里地区,阿里藏医院,,44,9,11,6,6,138,,135,135,3,3,7,7,0.4,0.4
2024-06-22T1700,2642A,109.0318,32.6537,安康市,香溪洞,,22,22,13,3,3,53,,51,51,2,4,6,6,0.6,0.6
2024-06-22T1700,2643A,109.0281,32.6939,安康市,安康市监测站,,20,17,25,7,6,63,,57,57,3,8,6,7,0.5,0.6
2024-06-22T1700,2644A,109.0072,32.6975,安康市,汉滨区检察院,,21,14,19,3,4,66,,57,57,3,7,6,7,0.5,0.5
2024-06-22T1700,2291A,117.0809,30.5177,安庆市,环科院,,19,10,16,7,7,60,,60,52,12,11,4,4,0.5,0.5
2024-06-22T1700,2292A,117.0331,30.5119,安庆市,马山宾馆,,18,18,12,11,7,57,,54,52,14,18,6,6,0.5,0.7
2024-06-22T1700,2294A,116.9896,30.6145,安庆市,安庆大学,,21,16,13,8,6,65,,68,63,13,11,7,7,0.3,0.2
2024-06-22T1700,3173A,117.0598,30.5351,安庆市,市人大,,19,16,11,10,6,60,,62,58,9,11,4,5,0.3,0.3
2024-06-22T1700,3122A,105.9606,26.2611,安顺市,伍家关,,,,,,,,,,,,,,,,
2024-06-22T1700,3123A,105.9408,26.2431,安顺市,凤凰山,,26,6,11,3,8,81,,87,77,6,5,6,6,0.6,0.6
2024-06-22T1700,3124A,105.9439,26.2564,安顺市,金钟山,,,6,10,3,4,79,,86,76,,5,4,4,0.8,0.7
2024-06-22T1700,3125A,105.8983,26.2481,安顺市,娄家坡,,26,6,16,3,7,83,,83,77,4,4,4,4,0.6,0.6
2024-06-22T1700,1818A,114.4839,36.0621,安阳市,棉研所,,,,,,,,,,,,,,,,
2024-06-22T1700,1819A,114.3551,36.1017,安阳市,红庙街,臭氧1小时,79,72,42,19,28,183,,171,171,3,3,4,3,0.5,0.7
2024-06-22T1700,1820A,114.361,36.0681,安阳市,银杏小区,臭氧1小时,78,77,41,17,20,182,,165,165,9,9,8,7,0.6,0.8
2024-06-22T1700,3141A,114.3922,36.0878,安阳市,信访局,臭氧1小时,79,81,42,16,27,183,,168,168,2,3,7,5,0.7,0.9
2024-06-22T1700,3669A,114.4705,36.0637,安阳市,左辅环卫站,臭氧1小时,84,81,45,14,32,187,,166,166,4,8,3,3,0.4,0.5
2024-06-22T1700,3703A,114.2917,36.0949,安阳市,安钢职工学校,臭氧1小时,78,93,48,18,39,182,,165,165,5,8,5,3,0.6,0.8
2024-06-22T1700,1748A,123.044,41.1196,鞍山市,深沟寺,细颗粒物(PM2.5),60,55,24,43,13,136,,113,113,21,15,13,10,1.0,0.6
2024-06-22T1700,1749A,123.011,41.0931,鞍山市,太阳城,,44,30,20,19,12,138,,116,116,11,13,8,7,0.9,0.8
2024-06-22T1700,1750A,123.0485,41.1442,鞍山市,太平,颗粒物(PM10),66,82,28,45,15,125,,109,109,19,16,7,7,0.9,0.8
2024-06-22T1700,1751A,122.9642,41.0971,鞍山市,铁西三道街,,43,43,36,24,16,134,,116,116,15,20,5,5,0.8,0.8
2024-06-22T1700,1752A,122.9341,41.0833,鞍山市,铁西工业园区,,42,39,29,25,17,133,,112,112,13,20,6,5,0.7,0.8
2024-06-22T1700,1753A,123.022,41.0821,鞍山市,明达新区,,41,23,23,18,12,130,,107,107,10,11,7,7,0.5,0.5
2024-06-22T1700,1754A,123.1289,41.0228,鞍山市,千山,,,,,,,,,,,,,,,,
2024-06-22T1700,2195A,107.4212,40.761,巴彦淖尔市,附二中,,50,50,151,16,43,104,,102,102,3,6,2,4,0.3,0.3
2024-06-22T1700,2196A,107.37,40.7372,巴彦淖尔市,市环保大楼,颗粒物(PM10),52,54,161,23,39,110,,106,106,3,6,3,4,0.3,0.3
2024-06-22T1700,1956A,86.1472,41.7538,巴音郭楞蒙古自治州,孔雀公园,颗粒物(PM10),62,73,72,21,19,121,,118,118,3,29,2,5,0.2,0.4
2024-06-22T1700,1957A,86.1972,41.7166,巴音郭楞蒙古自治州,棉纺厂,颗粒物(PM10),59,67,70,21,19,126,,115,115,4,27,4,5,0.2,0.3
2024-06-22T1700,1958A,86.2357,41.7173,巴音郭楞蒙古自治州,经济开发区,,50,50,53,23,20,128,,122,122,3,8,2,3,0.2,0.2
2024-06-22T1700,2914A,106.7677,31.8794,巴中市,苏山坪,,46,46,17,25,8,100,,72,58,16,13,6,5,0.5,0.3
2024-06-22T1700,3182A,106.7656,31.8545,巴中市,丽阳花园,,32,32,25,22,13,90,,56,56,15,24,6,6,0.6,0.5
2024-06-22T1700,3183A,106.7418,31.8654,巴中市,圣泉水务公司,,37,37,17,25,8,90,,56,56,17,23,4,4,0.6,0.5
2024-06-22T1700,3616A,106.7616,31.8344,巴中市,市中心医院,,30,30,20,19,12,91,,55,55,10,24,7,6,0.5,0.5
2024-06-22T1700,2235A,122.7911,45.6077,白城市,洮北区环保局,,14,8,11,3,10,42,,72,44,7,8,6,5,0.2,0.2
2024-06-22T1700,2236A,122.8738,45.5725,白城市,市环保局,,17,6,9,3,8,52,,80,52,5,8,5,5,0.2,0.3
2024-06-22T1700,2231A,126.4219,41.9171,白山市,喜丰,,38,32,44,22,20,119,,114,114,5,21,11,12,1.0,1
2024-06-22T1700,2232A,126.4077,41.9419,白山市,环保局,,38,29,39,12,19,121,,118,118,7,14,9,9,1.0,1
2024-06-22T1700,2647A,104.1724,36.5446,白银市,第三小学,颗粒物(PM10),55,60,53,13,17,151,,142,142,12,22,20,25,0.5,0.7
2024-06-22T1700,2648A,104.1465,36.5482,白银市,动力公司,颗粒物(PM10),63,76,42,6,14,146,,140,140,9,14,11,13,0.3,0.4
2024-06-22T1700,2512A,106.6103,23.9011,百色市,市监测站,,42,42,37,20,21,84,,82,82,7,11,5,14,0.7,0.8
2024-06-22T1700,2513A,106.6538,23.8859,百色市,市中心血站,,41,41,36,23,22,89,,84,84,7,10,4,12,0.7,0.8
2024-06-22T1700,3406A,106.6085,23.8798,百色市,祈福高中,,29,29,42,19,26,88,,83,83,4,13,8,17,0.9,0.9
2024-06-22T1700,2270A,117.396,32.939,蚌埠市,工人疗养院,颗粒物(PM10),53,56,31,25,12,152,,111,111,2,6,7,7,0.6,0.5
2024-06-22T1700,2271A,117.3605,32.9427,蚌埠市,百货大楼,,49,48,29,28,19,156,,118,118,2,6,5,5,0.6,0.5
2024-06-22T1700,2273A,117.4185,32.8911,蚌埠市,蚌埠学院,,50,41,16,27,13,159,,114,114,2,4,6,5,0.6,0.6
2024-06-22T1700,2274A,117.3533,32.9673,蚌埠市,淮上区政府,,49,41,22,34,21,139,,106,106,2,6,5,5,0.6,0.5
2024-06-22T1700,2275A,117.3145,32.8977,蚌埠市,高新区,臭氧1小时,52,39,23,32,16,161,,120,120,2,7,5,6,0.6,0.6
2024-06-22T1700,3715A,117.3092,32.9314,蚌埠市,蚌埠田家炳中学,颗粒物(PM10),53,55,30,32,16,150,,114,114,4,7,6,5,0.5,0.4
2024-06-22T1700,1585A,109.8756,40.6532,包头市,市环境监测站,颗粒物(PM10),285,409,329,92,69,95,,94,94,10,8,6,6,0.4,0.3
2024-06-22T1700,1587A,109.9991,40.5842,包头市,包头八中,颗粒物(PM10),185,320,347,88,88,100,,98,98,11,9,7,7,0.3,0.2
2024-06-22T1700,1588A,109.8538,40.6821,包头市,青山宾馆,颗粒物(PM10),191,332,266,83,58,98,,95,95,6,6,7,7,0.3,0.3
2024-06-22T1700,1589A,109.8642,40.6288,包头市,惠龙物流,颗粒物(PM10),202,351,303,65,65,96,,93,93,11,8,10,10,0.4,0.4
2024-06-22T1700,1590A,110.0377,40.5546,包头市,东河鸿龙湾,颗粒物(PM10),168,286,314,42,65,98,,95,95,7,7,8,8,0.4,0.3
2024-06-22T1700,3283A,109.9154,40.5685,包头市,滨河大厦,颗粒物(PM10),137,224,263,53,71,100,,97,97,6,8,10,10,0.5,0.5
2024-06-22T1700,3419A,109.9447,40.6261,包头市,包头市委党校,颗粒物(PM10),189,328,316,66,66,99,,94,94,8,8,10,10,0.2,0.2
2024-06-22T1700,3683A,109.8331,40.6576,包头市,昆区政府,颗粒物(PM10),187,323,290,136,70,93,,93,93,12,10,6,7,0.3,0.3
2024-06-22T1700,1930A,107.185,34.3063,宝鸡市,庙沟村,,44,35,28,10,10,138,,122,122,3,8,10,9,0.2,0.2
2024-06-22T1700,1931A,107.0708,34.3017,宝鸡市,竹园沟,,48,28,28,10,8,153,,138,138,6,12,8,8,0.4,0.5
2024-06-22T1700,1932A,107.1906,34.3672,宝鸡市,三陆医院,,48,33,39,18,15,153,,134,134,10,23,6,9,0.3,0.5
2024-06-22T1700,1933A,107.1431,34.3547,宝鸡市,监测站,,47,39,30,12,10,150,,132,132,10,13,8,8,0.3,0.4
2024-06-22T1700,1934A,107.1186,34.3739,宝鸡市,技工学校,颗粒物(PM10),51,51,34,11,11,153,,136,136,8,12,6,7,0.3,0.4
2024-06-22T1700,1935A,107.3906,34.3528,宝鸡市,陈仓区环保局家属楼,臭氧1小时,53,33,33,9,14,162,,142,142,7,15,7,7,0.3,0.3
2024-06-22T1700,1936A,107.2058,34.3497,宝鸡市,文理学院,,50,31,32,12,8,157,,139,139,9,15,8,8,0.3,0.3
2024-06-22T1700,1937A,107.2386,34.3622,宝鸡市,三迪小学,,50,32,39,22,12,157,,137,137,20,23,7,8,0.2,0.3
2024-06-22T1700,1051A,115.493,38.8632,保定市,游泳馆,颗粒物(PM10),111,172,107,36,36,136,,153,153,4,7,7,8,0.0,0.2
2024-06-22T1700,1052A,115.5213,38.8959,保定市,华电二区,颗粒物(PM10),95,140,71,69,36,140,,154,154,2,10,3,2,0,0.4
2024-06-22T1700,1053A,115.4713,38.9108,保定市,接待中心,颗粒物(PM10),84,118,76,41,37,133,,147,147,2,8,1,2,0.1,0.5
2024-06-22T1700,1054A,115.4612,38.8416,保定市,地表水厂,颗粒物(PM10),110,170,101,48,51,139,,158,158,3,12,1,2,0.1,0.6
2024-06-22T1700,3581A,115.31981,38.95208,保定市,满城区生态环境分局,颗粒物(PM10),103,156,104,31,44,122,,135,135,2,10,1,2,0,0.4
2024-06-22T1700,3582A,115.47694,38.76408,保定市,清苑区第二中学,颗粒物(PM10),120,189,101,35,44,135,,162,162,11,17,5,5,0.2,0.5
2024-06-22T1700,3583A,115.62909,39.02311,保定市,徐水物探局,颗粒物(PM10),104,158,79,24,38,140,,150,150,2,13,3,2,0.3,0.4
2024-06-22T1700,4004A,115.4202,38.8656,保定市,双鹰农机,细颗粒物(PM2.5),105,154,80,79,44,140,,155,155,2,8,1,3,0.1,0.5
2024-06-22T1700,4034A,115.5150,38.8590,保定市,植保所站,颗粒物(PM10),102,154,73,50,45,152,,172,172,2,10,3,4,0.2,0.5
2024-06-22T1700,2594A,99.1678,25.1081,保山市,市环境监测站,,32,32,32,9,20,72,,67,67,6,6,4,5,0.6,0.6
2024-06-22T1700,2595A,99.1711,25.1328,保山市,市环保局,,28,28,37,6,9,76,,74,74,4,4,6,6,0.4,0.4
2024-06-22T1700,1866A,109.2262,21.588,北海市,牛尾岭水库,,,,,,,,,,,,,,,,
2024-06-22T1700,1867A,109.1436,21.4086,北海市,海滩公园,,28,28,22,3,3,56,,60,60,2,4,3,3,0.6,0.6
2024-06-22T1700,1868A,109.0981,21.4661,北海市,新市环保局,,17,17,15,3,5,52,,59,59,4,4,4,4,0.5,0.5
2024-06-22T1700,1869A,109.1778,21.5233,北海市,北海工业园,,22,19,17,12,7,68,,63,63,4,4,4,4,0.5,0.6
2024-06-22T1700,3400A,109.1911,21.4415,北海市,龙潭自来水厂,,16,10,12,3,7,51,,63,63,3,3,5,5,0.4,0.4
2024-06-22T1700,1001A,116.3621,39.8784,北京市,万寿西宫,颗粒物(PM10),150,249,103,50,51,141,,134,134,10,23,3,3,0.2,0.6
2024-06-22T1700,1002A,116.2202,40.2915,北京市,定陵,颗粒物(PM10),181,312,118,74,48,108,,86,86,10,17,3,3,0.2,0.6
2024-06-22T1700,1003A,116.4174,39.9289,北京市,东四,颗粒物(PM10),162,274,105,46,54,125,,124,124,21,29,3,2,0.3,0.7
2024-06-22T1700,1004A,116.4072,39.8863,北京市,天坛,颗粒物(PM10),142,234,87,42,38,132,,127,127,6,17,3,3,0.2,0.6
2024-06-22T1700,1005A,116.462,39.9365,北京市,农展馆,颗粒物(PM10),180,310,113,50,51,116,,124,124,9,29,5,3,0.2,0.6
2024-06-22T1700,1006A,116.3392,39.9295,北京市,官园,颗粒物(PM10),165,280,113,47,43,129,,135,135,9,17,3,3,0.1,0.6
2024-06-22T1700,1007A,116.2878,39.9611,北京市,海淀万柳,颗粒物(PM10),149,247,105,44,54,115,,129,129,5,18,5,4,0.1,0.5
2024-06-22T1700,1008A,116.6636,40.135,北京市,顺义新城,颗粒物(PM10),220,364,108,93,44,114,,132,132,5,15,3,3,0.2,0.6
2024-06-22T1700,1009A,116.6275,40.3275,北京市,怀柔镇,颗粒物(PM10),199,347,129,71,51,120,,110,110,4,11,2,2,0.2,0.5
2024-06-22T1700,1010A,116.2296,40.217,北京市,昌平镇,颗粒物(PM10),186,322,156,63,64,102,,87,87,8,24,1,1,0.1,0.6
2024-06-22T1700,1011A,116.3966,39.9821,北京市,奥体中心,颗粒物(PM10),167,284,105,56,50,91,,108,108,9,26,1,1,0.2,0.6
2024-06-22T1700,1012A,116.184,39.9136,北京市,古城,颗粒物(PM10),117,183,105,33,41,116,,125,125,8,20,1,1,0.2,0.6
2024-06-22T1700,3281A,115.9718,40.4529,北京市,延庆夏都,颗粒物(PM10),144,237,143,60,53,114,,93,93,7,10,1,3,0.0,0.3
2024-06-22T1700,3417A,117.0709,40.1465,北京市,平谷新城,颗粒物(PM10),148,246,109,63,40,119,,118,118,10,14,3,3,0.3,0.4
2024-06-22T1700,3418A,116.8336,40.4095,北京市,密云新城,颗粒物(PM10),169,288,121,58,45,129,,119,119,11,13,3,3,0.1,0.4
2024-06-22T1700,3671A,116.088,39.9726,北京市,门头沟三家店,,,,,,,,,,,,,,,,
2024-06-22T1700,3672A,116.1541,39.8204,北京市,丰台云岗,颗粒物(PM10),126,202,88,51,43,150,,129,129,5,14,3,4,0.3,0.6
2024-06-22T1700,3673A,116.6804,39.9081,北京市,通州东关,颗粒物(PM10),193,336,112,57,51,112,,130,130,15,26,3,2,0.2,0.6
2024-06-22T1700,3674A,115.9577,39.7603,北京市,房山燕山,颗粒物(PM10),118,186,69,32,30,107,,124,124,6,9,3,3,0.2,0.6
2024-06-22T1700,3675A,116.4672,39.7733,北京市,大兴旧宫,颗粒物(PM10),112,174,83,27,37,133,,125,125,9,21,3,3,0.3,0.6
2024-06-22T1700,3694A,115.986,40.4563,北京市,延庆石河营,颗粒物(PM10),137,224,129,53,55,112,,90,90,6,9,3,3,0.1,0.4
2024-06-22T1700,3695A,116.6151,40.3053,北京市,怀柔新城,颗粒物(PM10),196,342,126,73,51,116,,107,107,5,14,3,3,0.2,0.6
2024-06-22T1700,3696A,116.2545,39.8768,北京市,丰台小屯,颗粒物(PM10),133,215,85,40,37,122,,117,117,4,16,3,3,0.3,0.6
2024-06-22T1700,3697A,116.84,40.3844,北京市,密云镇,颗粒物(PM10),177,303,112,73,45,125,,116,116,10,12,3,3,0.1,0.4
2024-06-22T1700,1761A,123.8275,41.3064,本溪市,大峪,,38,15,28,11,16,119,,108,108,12,13,9,10,0.5,0.5
2024-06-22T1700,1762A,123.7567,41.3325,本溪市,溪湖,,29,24,34,9,14,90,,83,83,11,18,9,12,0.6,1.2
2024-06-22T1700,1763A,123.7169,41.3094,本溪市,彩屯,,23,18,30,8,17,72,,72,72,23,21,9,12,0.6,1.5
2024-06-22T1700,1764A,123.7669,41.2864,本溪市,东明,,29,21,23,10,11,90,,85,85,14,13,7,7,0.5,0.6
2024-06-22T1700,1765A,123.7992,41.2664,本溪市,新立屯,,29,15,19,3,5,90,,78,78,5,12,5,5,0.6,0.7
2024-06-22T1700,1766A,123.8142,41.3472,本溪市,威宁,,31,31,32,15,17,69,,66,66,13,17,8,8,0.5,0.5
2024-06-22T1700,2587A,105.2864,27.3125,毕节市,八中,,30,11,11,10,10,95,,93,93,5,7,5,5,0.4,0.4
2024-06-22T1700,2588A,105.31,27.2944,毕节市,师专,,29,14,22,10,10,90,,85,85,6,7,3,3,0.5,0.5
2024-06-22T1700,3537A,105.3631,27.3533,毕节市,长征村,,32,17,18,12,12,102,,94,94,6,7,6,6,0.5,0.5
2024-06-22T1700,1629A,118.0018,37.3617,滨州市,第二水厂,臭氧1小时,107,51,50,31,40,214,,199,199,6,12,2,2,0.4,0.5
2024-06-22T1700,1630A,117.9776,37.393,滨州市,北中新校,臭氧1小时,109,51,59,24,35,218,,198,198,5,12,2,2,0.5,0.5
2024-06-22T1700,3514A,117.9378,37.3956,滨州市,中海酒店,臭氧1小时,116,44,57,34,39,231,,210,210,9,17,5,4,0.5,0.5
2024-06-22T1700,3515A,117.9378,37.3553,滨州市,开发区一中,臭氧1小时,109,51,64,31,38,218,,198,198,6,14,6,6,0.6,0.7
2024-06-22T1700,3516A,118.0917,37.694,滨州市,金海六路,臭氧1小时,103,54,50,27,29,205,,213,213,4,20,4,6,0.4,0.5
2024-06-22T1700,4028A,117.9956,37.3753,滨州市,滨州市西街道办事处,臭氧1小时,114,46,49,36,41,227,,208,208,7,13,1,1,0.6,0.7
2024-06-22T1700,2311A,115.8072,33.8399,亳州市,污水处理厂,臭氧1小时,98,27,17,26,27,198,,176,176,6,4,2,2,0.6,0.7
2024-06-22T1700,2312A,115.7789,33.8518,亳州市,三国揽胜宫,臭氧1小时,78,32,24,17,20,182,,157,157,9,5,2,2,0.6,0.7
2024-06-22T1700,3332A,115.7633,33.8034,亳州市,亳州学院,臭氧1小时,95,25,19,23,28,196,,176,176,5,5,4,3,0.5,0.6
2024-06-22T1700,2693A,82.0485,44.8556,博尔塔拉蒙古自治州,市党校,,48,19,30,10,12,151,,127,127,8,11,12,11,0.4,0.4
2024-06-22T1700,2694A,82.0806,44.8969,博尔塔拉蒙古自治州,市环保局,,49,26,31,7,12,154,,128,128,10,17,11,10,0.4,0.4
2024-06-22T1700,1071A,116.8842,38.2991,沧州市,沧县城建局,臭氧1小时,104,81,56,32,40,208,,203,203,8,13,1,3,0.5,0.7
2024-06-22T1700,1072A,116.8584,38.3254,沧州市,电视转播站,臭氧1小时,102,75,53,24,43,203,,190,190,4,6,3,2,0.3,0.4
2024-06-22T1700,1073A,116.8709,38.3228,沧州市,市环保局,臭氧1小时,105,63,56,33,46,209,,203,203,12,10,7,7,0.3,0.4
2024-06-22T1700,3324A,116.8136,38.3004,沧州市,河北水利电力学院,臭氧1小时,108,78,50,38,47,216,,202,202,7,13,3,2,0.2,0.3
2024-06-22T1700,2622A,97.1806,31.1273,昌都市,昌都监测站,,33,6,7,3,6,103,,85,85,2,7,10,9,0.5,0.5
2024-06-22T1700,3719A,97.1714,31.1406,昌都市,昌都会议中心,,31,9,9,3,5,97,,88,88,3,4,6,5,0.4,0.4
2024-06-22T1700,2690A,88.1236,43.8886,昌吉回族自治州,天山天池,,50,27,13,3,4,160,,131,131,9,7,9,6,0.6,0.5
2024-06-22T1700,2692A,87.2717,44.0297,昌吉回族自治州,新区政务中心,臭氧1小时,58,16,25,8,12,166,,116,116,6,22,16,11,0.5,0.5
2024-06-22T1700,3613A,87.3095,44.0142,昌吉回族自治州,亚心广场,臭氧1小时,73,41,48,17,10,178,,127,127,9,33,16,10,0.5,0.5
2024-06-22T1700,1119A,125.3325,43.9166,长春市,食品厂,颗粒物(PM10),163,275,98,38,28,86,,92,92,16,27,5,6,0.4,0.5
2024-06-22T1700,1120A,125.2863,43.9027,长春市,客车厂,颗粒物(PM10),157,264,86,49,28,88,,96,96,12,22,3,3,0.3,0.4
2024-06-22T1700,1121A,125.2841,43.8463,长春市,邮电学院,颗粒物(PM10),171,292,87,39,21,89,,90,90,10,19,6,7,0.3,0.4
2024-06-22T1700,1122A,125.3716,43.8772,长春市,劳动公园,颗粒物(PM10),175,300,90,32,21,100,,101,101,10,22,4,5,0.4,0.5
2024-06-22T1700,1123A,125.3297,43.8805,长春市,园林处,颗粒物(PM10),154,258,78,41,27,94,,91,91,8,19,3,4,0.4,0.5
2024-06-22T1700,1124A,125.4605,43.79,长春市,净月潭,颗粒物(PM10),150,249,75,48,23,79,,93,93,7,14,4,4,0.4,0.4
2024-06-22T1700,1125A,125.7194,43.515,长春市,甩湾子,,,,,,,,,,,,,,,,
2024-06-22T1700,1126A,125.3863,43.8447,长春市,经开区环卫处,颗粒物(PM10),175,300,91,41,20,107,,103,103,9,27,4,4,0.3,0.4
2024-06-22T1700,1127A,125.245,43.7783,长春市,高新区管委会,颗粒物(PM10),178,306,89,56,25,103,,101,101,7,21,5,5,0.5,0.4
2024-06-22T1700,1128A,125.1761,43.8325,长春市,岱山公园,颗粒物(PM10),165,280,81,34,27,98,,96,96,6,22,4,4,0.3,0.4
2024-06-22T1700,1335A,113.0833,28.2325,长沙市,经开区环保局,,,,24,,10,,,64,,,12,,3,,0.4
2024-06-22T1700,1336A,112.8872,28.2189,长沙市,高开区环保局,,34,34,29,19,16,47,,51,51,20,10,5,7,0.7,0.7
2024-06-22T1700,1337A,113.0792,28.2053,长沙市,马坡岭,,39,39,28,27,12,77,,55,55,18,11,8,9,0.8,0.6
2024-06-22T1700,1338A,112.9394,28.19,长沙市,湖南师范大学,,41,41,35,21,17,39,,45,45,34,13,4,7,0.9,0.8
2024-06-22T1700,1339A,113.0178,28.1322,长沙市,雨花区环保局,,33,33,27,12,11,77,,59,59,5,6,3,4,0.7,0.6
2024-06-22T1700,1340A,112.9792,28.2597,长沙市,伍家岭,,41,41,32,28,16,40,,32,31,27,15,4,7,0.6,0.5
2024-06-22T1700,1341A,113.0014,28.1944,长沙市,火车新站,,30,30,30,14,13,69,,53,53,11,9,2,4,0.6,0.6
2024-06-22T1700,1342A,112.9844,28.1178,长沙市,天心区环保局,,50,50,30,16,15,55,,46,46,12,10,2,3,0.8,1.2
2024-06-22T1700,1343A,112.8908,28.1308,长沙市,湖南中医药大学,,34,34,31,19,13,61,,50,50,11,10,7,8,0.7,0.8
2024-06-22T1700,1344A,112.9581,28.3611,长沙市,沙坪,,,29,23,18,13,46,,34,34,,11,5,6,0.5,0.5
2024-06-22T1700,1727A,113.1147,36.1547,长治市,清华站,臭氧1小时,59,51,44,14,31,167,,159,159,12,13,10,10,0.2,0.7
2024-06-22T1700,1728A,113.1031,36.1989,长治市,监测站,臭氧1小时,64,54,48,17,29,171,,163,163,16,19,6,6,0.4,0.9
2024-06-22T1700,1730A,113.0886,36.2125,长治市,审计局,臭氧1小时,54,52,43,14,28,163,,156,156,24,25,4,4,0.2,0.6
2024-06-22T1700,1731A,113.0844,36.1856,长治市,长治八中,臭氧1小时,57,56,52,24,27,165,,156,156,12,16,4,4,0.3,0.8
2024-06-22T1700,2845A,113.1569,36.1911,长治市,德盛苑,臭氧1小时,70,43,41,17,28,176,,169,169,8,10,7,9,0.5,1
2024-06-22T1700,3568A,113.06,36.0464,长治市,向阳小学,臭氧1小时,74,71,67,20,45,179,,164,164,9,13,5,5,0.5,1.1
2024-06-22T1700,3569A,112.8792,36.3144,长治市,屯留一中,臭氧1小时,54,39,46,19,32,163,,159,159,10,21,10,14,0.5,1
2024-06-22T1700,3570A,113.235,36.3489,长治市,潞城四中,臭氧1小时,90,64,53,10,36,192,,174,174,6,9,7,8,0.3,0.9
2024-06-22T1700,1854A,111.6975,28.9703,常德市,市二中,,24,6,14,3,6,76,,76,76,3,6,5,6,0.6,0.6
2024-06-22T1700,1857A,111.7158,29.1456,常德市,白鹤山,,,,,,,,,,,,,,,,
2024-06-22T1700,3138A,111.7153,29.0289,常德市,武陵区永安,,24,24,14,3,6,72,,72,72,5,5,6,6,0.4,0.4
2024-06-22T1700,3139A,111.6892,28.9881,常德市,鼎城区玉霞,,25,9,14,7,7,77,,75,75,5,5,2,3,0.5,0.5
2024-06-22T1700,3140A,111.6625,29.0531,常德市,武陵区长庚,,,,11,6,7,71,,76,72,6,6,7,7,0.5,0.5
2024-06-22T1700,1196A,119.9633,31.762,常州市,市监测站,,24,6,24,3,16,76,,78,78,7,18,5,5,0.5,0.7
2024-06-22T1700,1200A,119.9468,31.7069,常州市,武进监测站,,24,8,21,3,17,76,,80,78,2,11,4,4,0.8,0.9
2024-06-22T1700,1201A,119.9255,31.9087,常州市,安家,,22,7,23,3,21,68,,72,72,7,18,9,7,0.5,0.6
2024-06-22T1700,3002A,119.9805,31.8174,常州市,行政中心,,22,13,32,3,16,68,,69,69,6,17,9,10,0.5,0.6
2024-06-22T1700,3003A,120.0522,31.7748,常州市,经开区,,23,,23,7,18,72,,73,73,5,19,4,4,0.2,0.6
2024-06-22T1700,3010A,119.9025,31.7964,常州市,钟楼,,21,7,20,3,20,66,,68,68,1,11,3,4,0.8,1
2024-06-22T1700,3429A,119.8598,31.7066,常州市,武进经发区,,22,6,22,3,12,70,,74,72,2,14,6,8,0.3,0.4
2024-06-22T1700,3430A,119.5826,31.7245,常州市,金坛城区,,27,6,15,3,11,86,,78,78,2,12,4,4,0.7,0.8
2024-06-22T1700,2220A,120.4318,41.5881,朝阳市,西梁,颗粒物(PM10),146,241,122,52,30,147,,114,114,10,12,7,8,0.8,0.9
2024-06-22T1700,2221A,120.4521,41.5646,朝阳市,河畔小区,颗粒物(PM10),143,236,116,37,31,140,,114,114,8,9,8,8,0.8,0.8
2024-06-22T1700,2222A,120.4176,41.5648,朝阳市,八里堡,颗粒物(PM10),147,244,115,47,29,143,,117,117,10,14,7,7,1.0,1.1
2024-06-22T1700,2223A,120.3806,41.5969,朝阳市,农业园区,颗粒物(PM10),183,316,134,60,49,144,,118,118,7,11,6,5,0.8,0.8
2024-06-22T1700,1705A,116.6367,23.6719,潮州市,西园路,,23,22,32,16,17,56,,74,74,14,10,5,4,0.4,0.4
2024-06-22T1700,3026A,116.6183,23.6608,潮州市,市政府,,30,23,35,21,18,64,,76,76,13,8,8,6,0.7,0.6
2024-06-22T1700,4036A,116.6461,23.6761,潮州市,金山,,25,25,33,16,18,55,,84,84,16,10,7,6,0.6,0.6
2024-06-22T1700,2472A,113.0073,25.9061,郴州市,马头岭,,27,27,28,9,8,58,,58,58,5,6,6,6,0.5,0.5
2024-06-22T1700,2473A,113.0116,25.8226,郴州市,市职中,,19,,14,7,9,60,,60,60,3,5,8,8,0.3,0.4
2024-06-22T1700,2474A,113.0161,25.8001,郴州市,兴隆步行街,,19,17,19,8,10,59,,60,58,4,5,8,8,0.4,0.5
2024-06-22T1700,2475A,113.0383,25.8071,郴州市,市审计局,,19,9,12,3,9,58,,61,57,4,5,4,4,0.2,0.3
2024-06-22T1700,2476A,113.0348,25.7759,郴州市,市环保局,,20,12,16,11,11,61,,64,60,6,7,4,5,0.3,0.4
2024-06-22T1700,1431A,103.9728,30.7236,成都市,金泉两河,臭氧1小时,62,29,21,8,8,169,,138,138,6,11,2,2,0.3,0.3
2024-06-22T1700,1432A,104.176,30.6872,成都市,十里店,臭氧1小时,83,65,21,36,8,186,,121,121,13,22,4,4,0.5,0.5
2024-06-22T1700,1433A,104.079,30.5706,成都市,三瓦窑,臭氧1小时,92,47,30,19,16,193,,122,122,14,21,2,2,0.4,0.4
2024-06-22T1700,1434A,104.1114,30.63,成都市,沙河铺,臭氧1小时,88,52,27,28,10,190,,122,122,16,22,3,2,0.4,0.5
2024-06-22T1700,1437A,104.0786,30.6531,成都市,君平街,臭氧1小时,104,58,29,22,12,207,,145,145,21,22,2,2,0.4,0.4
2024-06-22T1700,1438A,103.613,31.0283,成都市,灵岩寺,,,,,,,,,,,,,,,,
2024-06-22T1700,2880A,104.0239,30.65639,成都市,大石西路,臭氧1小时,100,38,27,18,10,200,,146,146,17,19,3,3,0.5,0.6
2024-06-22T1700,3136A,104.2725,30.5589,成都市,龙泉驿区区政府,臭氧1小时,53,14,15,3,6,162,,121,121,5,16,3,3,0.3,0.4
2024-06-22T1700,3357A,104.0106,30.6931,成都市,金博路,臭氧1小时,62,34,22,29,9,169,,135,135,12,14,2,2,0.4,0.4
2024-06-22T1700,3359A,104.0578,30.5225,成都市,华阳,臭氧1小时,70,27,23,19,14,176,,108,108,9,18,2,2,0.3,0.4
2024-06-22T1700,3487A,104.2394,30.5319,成都市,车城东七路,,50,20,16,10,7,160,,124,124,5,15,2,2,0.3,0.4
2024-06-22T1700,3488A,104.3853,30.7453,成都市,青白江技师分院,臭氧1小时,85,21,19,3,5,188,,126,126,5,24,6,6,0.3,0.4
2024-06-22T1700,3489A,104.0789,30.4072,成都市,科学城,,48,23,15,9,7,153,,109,109,7,22,3,3,0.4,0.4
2024-06-22T1700,4011A,103.8506,30.6947,成都市,光华大道三段,,45,13,22,3,7,143,,134,134,4,8,3,3,0.4,0.5
2024-06-22T1700,1062A,117.9531,40.9081,承德市,铁路,颗粒物(PM10),128,205,111,56,40,128,,112,112,5,20,6,6,0.1,0.5
2024-06-22T1700,1063A,117.9392,40.9763,承德市,中国银行,颗粒物(PM10),131,212,131,53,45,126,,114,114,6,19,8,7,0.1,0.5
2024-06-22T1700,1064A,117.9503,40.928,承德市,开发区,颗粒物(PM10),100,150,101,44,33,131,,117,117,7,21,6,8,0.1,0.5
2024-06-22T1700,1065A,117.8051,40.9655,承德市,文化中心,颗粒物(PM10),126,201,148,48,47,130,,116,116,10,22,16,13,0.2,0.5
2024-06-22T1700,1066A,117.9268,41.0026,承德市,离宫,颗粒物(PM10),133,216,124,61,50,120,,107,107,2,10,6,5,0.2,0.5
2024-06-22T1700,2314A,117.47,30.6618,池州市,池州学院,,20,17,14,12,9,62,,70,66,8,8,5,5,0.6,0.5
2024-06-22T1700,3237A,117.4918,30.6617,池州市,展览馆,,18,13,12,9,5,55,,64,58,6,7,3,3,0.7,0.6
2024-06-22T1700,3333A,117.5627,30.695,池州市,第八中学,,20,12,11,8,6,62,,70,64,6,8,2,2,0.5,0.4
2024-06-22T1700,3334A,117.5038,30.6243,池州市,第十二中学,,17,15,11,8,7,53,,66,60,9,10,4,4,0.4,0.4
2024-06-22T1700,1744A,118.9233,42.2816,赤峰市,松山一中,颗粒物(PM10),240,378,159,92,41,71,,89,89,17,19,9,11,0.4,0.6
2024-06-22T1700,1745A,118.9576,42.2728,赤峰市,哈达街,颗粒物(PM10),379,483,188,121,49,69,,84,84,12,14,10,12,0.4,0.6
2024-06-22T1700,1746A,118.8788,42.2554,赤峰市,天义路,颗粒物(PM10),242,379,162,86,38,79,,100,100,17,18,5,6,0.2,0.4
2024-06-22T1700,3058A,119.2658,42.0353,赤峰市,银河街,颗粒物(PM10),500,681,175,155,57,74,,91,91,15,17,10,14,0.3,0.6
2024-06-22T1700,3286A,118.9359,42.3147,赤峰市,桥北物流园区,颗粒物(PM10),393,494,194,177,72,66,,81,81,18,24,6,7,0.5,0.8
2024-06-22T1700,2521A,107.3476,22.4136,崇左市,市环保局江州分局,,26,26,28,15,14,78,,71,71,2,9,5,5,0.6,1
2024-06-22T1700,2522A,107.3702,22.3707,崇左市,城南新区,,26,23,25,18,14,77,,71,71,4,9,3,3,0.6,0.6
2024-06-22T1700,2298A,118.3093,32.3153,滁州市,老年大学,,39,20,21,15,14,122,,99,99,5,6,13,11,0.6,0.5
2024-06-22T1700,2299A,118.3244,32.2786,滁州市,人大宾馆,,42,,12,16,18,133,,108,108,10,8,6,5,0.6,0.6
2024-06-22T1700,3207A,118.3118,32.3038,滁州市,市政府原办公楼,,,,28,,26,,,72,,,14,,6,,0.8
2024-06-22T1700,3331A,118.3267,32.2634,滁州市,图书馆,,38,24,22,17,15,121,,99,99,3,5,7,7,0.5,0.5
2024-06-22T1700,2605A,101.5482,25.0441,楚雄彝族自治州,州环境监测站,,23,15,18,7,13,72,,74,74,3,6,2,3,0.5,0.5
2024-06-22T1700,2606A,101.538,25.0492,楚雄彝族自治州,市经济开发区,,22,,24,7,12,69,,70,70,5,9,5,5,0.4,0.5
2024-06-22T1700,2548A,107.5277,31.2827,达州市,达州职业技术学院,,29,29,28,15,6,70,,44,44,16,22,10,6,0.3,0.3
2024-06-22T1700,2549A,107.5086,31.2186,达州市,市环境监测站,,36,36,27,14,2,70,,44,44,32,27,10,7,0.7,0.6
2024-06-22T1700,2550A,107.4988,31.2132,达州市,凤凰小区,,41,41,24,19,7,80,,54,54,29,25,10,8,0.7,0.5
2024-06-22T1700,2551A,107.5082,31.1986,达州市,达县机关宾馆,,39,39,26,17,10,103,,56,56,26,30,7,6,0.6,0.4
2024-06-22T1700,2552A,107.4644,31.2124,达州市,市政中心,颗粒物(PM10),51,51,29,12,5,109,,64,64,22,27,12,8,0.7,0.5
2024-06-22T1700,2614A,100.1542,25.7054,大理白族自治州,大理市环境监测站,,40,40,42,12,20,80,,75,75,8,7,5,5,0.5,0.5
2024-06-22T1700,2615A,100.2171,25.5811,大理白族自治州,大理古城,,29,14,26,11,18,90,,88,88,4,10,6,6,0.8,0.8
2024-06-22T1700,1109A,121.612,38.9741,大连市,甘井子,,25,18,19,8,14,78,,84,84,13,19,3,3,0.5,0.4
2024-06-22T1700,1110A,121.565,38.9511,大连市,周水子,,24,17,18,8,16,74,,71,71,17,20,4,5,0.6,0.6
2024-06-22T1700,1111A,121.5637,38.8845,大连市,星海三站,,29,11,17,7,7,90,,89,89,8,9,8,8,0.6,0.5
2024-06-22T1700,1112A,121.6302,38.9117,大连市,青泥洼桥,,25,15,25,8,16,77,,77,77,6,11,8,8,0.7,0.7
2024-06-22T1700,1113A,121.6251,38.8638,大连市,傅家庄,,30,10,13,10,14,93,,90,90,5,8,7,8,0.4,0.3
2024-06-22T1700,1114A,121.5213,38.8661,大连市,七贤岭,,30,10,15,8,14,94,,79,79,9,12,5,5,0.4,0.4
2024-06-22T1700,1115A,121.2529,38.8061,大连市,旅顺,,31,,10,7,13,99,,85,85,3,10,7,8,0.3,0.3
2024-06-22T1700,1116A,121.7485,39.1311,大连市,金州,,27,12,15,9,27,86,,82,82,7,9,7,6,0.6,0.5
2024-06-22T1700,1117A,121.7811,39.0496,大连市,开发区,,26,17,23,6,16,83,,85,84,9,16,3,8,0.4,0.4
2024-06-22T1700,1118A,121.9762,39.0631,大连市,双D港,,30,14,14,9,15,93,,93,93,6,8,6,6,0.6,0.5
2024-06-22T1700,1789A,124.81117,46.03138,大庆市,大同区,,15,10,9,10,14,39,,51,46,5,6,5,4,0.2,0.2
2024-06-22T1700,1790A,125.129,46.533,大庆市,龙凤区,,20,20,13,8,10,36,,49,43,4,6,6,6,0.2,0.2
2024-06-22T1700,1791A,124.902,46.408,大庆市,红岗区,,18,,11,12,13,40,,51,47,3,4,5,5,0.2,0.2
2024-06-22T1700,1792A,125.153,46.586,大庆市,萨尔图区,,11,8,6,3,6,34,,49,40,2,4,7,6,0.2,0.2
2024-06-22T1700,1793A,124.9042,46.6215,大庆市,让胡路区,,38,38,23,3,7,36,,52,42,5,5,6,5,0.2,0.1
2024-06-22T1700,3481A,125.141,46.634,大庆市,萨区政府监测点,,17,17,14,6,5,33,,49,40,3,4,5,5,0.1,0.1
2024-06-22T1700,1721A,113.3819,40.1097,大同市,果树场,,,,,,,,,,,,,,,,
2024-06-22T1700,1723A,113.2994,40.0758,大同市,云冈宾馆,颗粒物(PM10),74,98,272,16,66,121,,108,108,9,14,6,7,0.2,0.3
2024-06-22T1700,1724A,113.3444,40.0917,大同市,大同大学,细颗粒物(PM2.5),133,,223,101,77,115,,102,102,7,14,9,9,0.1,0.3
2024-06-22T1700,1725A,113.2661,40.1269,大同市,安家小村,颗粒物(PM10),61,72,348,14,76,116,,103,103,4,8,12,11,0.2,0.3
2024-06-22T1700,1726A,113.2711,40.0844,大同市,教育学院,颗粒物(PM10),63,76,311,19,66,119,,104,104,11,19,8,10,0.4,0.4
2024-06-22T1700,3282A,113.3397,40.0597,大同市,大同市卫生学校,颗粒物(PM10),80,110,280,14,74,118,,104,104,9,15,10,10,0.2,0.4
2024-06-22T1700,3565A,113.1367,40.1122,大同市,云冈站,颗粒物(PM10),61,72,280,3,63,135,,105,105,5,14,8,9,0.2,0.3
2024-06-22T1700,3566A,113.1186,40.2556,大同市,图书馆,颗粒物(PM10),63,75,325,6,81,120,,109,109,8,10,7,6,0.2,0.3
2024-06-22T1700,3567A,113.5931,40.0461,大同市,区一中,颗粒物(PM10),58,66,265,3,40,120,,106,106,9,13,11,8,0.3,0.5
2024-06-22T1700,3676A,113.2802,40.0995,大同市,第二人民医院,颗粒物(PM10),55,60,192,21,72,120,,107,107,5,13,8,9,0.3,0.4
2024-06-22T1700,2269A,124.1069,50.4097,大兴安岭地区,科技局,,20,18,16,9,11,63,,57,57,4,6,8,8,0.3,0.3
2024-06-22T1700,3663A,124.1164,50.4278,大兴安岭地区,红旗社区,,22,,4,7,4,68,,60,60,2,2,6,6,0.4,0.4
2024-06-22T1700,1600A,124.3303,40.0625,丹东市,江湾东路,,31,25,26,20,15,98,,93,93,12,8,5,8,0.5,0.4
2024-06-22T1700,1601A,124.4256,40.1503,丹东市,临江后街,颗粒物(PM10),51,52,23,18,11,92,,87,87,11,8,9,9,0.8,0.7
2024-06-22T1700,1602A,124.3933,40.1461,丹东市,元宝山,,32,32,21,18,12,65,,66,62,15,12,7,7,1.0,0.8
2024-06-22T1700,1603A,124.3633,40.1092,丹东市,民主桥,,33,33,27,18,13,90,,84,84,7,6,4,5,0.6,0.5
2024-06-22T1700,3541A,109.5726,19.5167,儋州市,第一中学子站,,14,6,10,3,4,44,,46,46,2,2,4,5,0.5,0.5
2024-06-22T1700,3542A,109.5567,19.5187,儋州市,东坡学校子站,,15,7,10,3,4,45,,47,47,1,3,5,5,0.5,0.5
2024-06-22T1700,2616A,98.5842,24.428,德宏傣族景颇族自治州,德宏州监测站,,30,30,29,10,17,70,,69,69,7,12,19,11,0.6,0.7
2024-06-22T1700,3677A,98.5881,24.4368,德宏傣族景颇族自治州,芒市人民政府综合楼,,26,26,33,14,17,73,,70,70,7,11,10,9,0.6,0.7
2024-06-22T1700,1901A,104.4239,31.1208,德阳市,东山公园,,43,21,26,8,8,135,,104,104,3,14,2,3,0.3,0.4
2024-06-22T1700,1902A,104.3826,31.1317,德阳市,西小区,,44,17,26,7,12,140,,102,102,6,22,2,3,0.3,0.6
2024-06-22T1700,1904A,104.3553,31.1091,德阳市,耐火材料厂,,50,19,26,12,11,158,,107,107,5,19,3,4,0.4,0.5
2024-06-22T1700,3639A,104.4019,31.1244,德阳市,市教育局,,45,18,27,7,11,143,,104,104,4,20,3,4,0.3,0.5
2024-06-22T1700,1622A,116.3032,37.4674,德州市,儿童乐园,臭氧1小时,109,63,57,29,55,218,,202,202,7,13,7,7,0.6,0.8
2024-06-22T1700,1624A,116.2991,37.4451,德州市,监理站,臭氧1小时,112,61,59,29,51,224,,209,209,10,15,12,13,0.6,0.7
2024-06-22T1700,3066A,116.2721,37.4379,德州市,九衢泉纯净水厂,臭氧1小时,109,63,59,31,47,217,,201,201,12,18,6,6,0.7,0.8
2024-06-22T1700,3371A,116.3728,37.4403,德州市,开发区人民医院,臭氧1小时,114,63,66,31,45,228,,208,208,8,13,8,8,0.6,0.7
2024-06-22T1700,3372A,116.3572,37.4094,德州市,太阳城中学,臭氧1小时,117,63,53,34,44,234,,213,213,10,17,7,7,0.7,0.8
2024-06-22T1700,3511A,116.5652,37.3319,德州市,陵城艺术中心,臭氧1小时,111,51,57,14,47,221,,205,205,9,13,2,4,0.5,0.6
2024-06-22T1700,2621A,99.7056,27.8317,迪庆藏族自治州,迪庆州站,,25,18,19,10,8,80,,77,77,8,10,8,8,0.2,0.3
2024-06-22T1700,3180A,99.7136,27.8094,迪庆藏族自治州,质量技术监督局,,25,19,17,3,9,77,,74,74,8,9,8,8,0.3,0.3
2024-06-22T1700,2663A,104.6241,35.5734,定西市,东关小学,,45,38,50,17,18,143,,128,128,4,16,6,6,0.2,0.2
2024-06-22T1700,2664A,104.6194,35.5934,定西市,供电公司,,45,25,38,22,21,144,,127,127,3,24,3,3,0.1,0.2
2024-06-22T1700,1389A,113.7547,23.0494,东莞市,莞城梨川,,20,13,28,8,18,62,,59,59,9,16,8,8,0.6,0.6
2024-06-22T1700,1390A,113.7944,23.0128,东莞市,东城石井,,23,12,26,9,16,73,,68,68,9,16,4,4,0.4,0.4
2024-06-22T1700,1391A,113.7383,22.9658,东莞市,南城西平,,22,10,27,7,17,68,,58,58,3,10,4,2,0.5,0.5
2024-06-22T1700,3319A,113.7338,23.0381,东莞市,万江金泰,,20,12,31,7,19,63,,56,56,5,13,5,5,0.6,0.6
2024-06-22T1700,3626A,113.7533,23.0202,东莞市,南城元岭,,21,12,29,6,16,65,,59,59,4,14,7,7,0.5,0.5
2024-06-22T1700,3627A,113.7875,23.0457,东莞市,东城主山,,22,14,29,8,19,70,,65,65,4,14,8,9,0.5,0.6
2024-06-22T1700,1666A,118.6614,37.4309,东营市,市环保局,臭氧1小时,70,46,22,29,16,176,,177,177,8,11,12,10,0.2,0
2024-06-22T1700,3036A,118.6904,37.4338,东营市,开发区管委会,臭氧1小时,80,44,30,29,16,184,,182,182,9,11,12,8,0.3,0.3
2024-06-22T1700,3365A,118.5719,37.565,东营市,垦利区民丰路,臭氧1小时,112,51,33,31,23,223,,220,220,11,12,11,11,0.6,0.6
2024-06-22T1700,3498A,118.5055,37.8612,东营市,河口城区,臭氧1小时,106,36,32,20,23,211,,209,209,5,13,6,6,0.6,0.6
2024-06-22T1700,3646A,118.4978,37.4623,东营市,胜利站,臭氧1小时,110,46,30,31,21,219,,204,204,19,12,8,7,0.6,0.6
2024-06-22T1700,3734A,118.35,37.26,东营市,理想之城,臭氧1小时,82,51,32,34,20,185,,181,181,12,11,10,8,0.5,0.4
2024-06-22T1700,1591A,110.0023,39.8129,鄂尔多斯市,综合楼,颗粒物(PM10),68,85,226,36,51,127,,111,111,6,16,8,8,0.3,0.3
2024-06-22T1700,1592A,109.9486,39.8261,鄂尔多斯市,巴音孟克林场办事处,颗粒物(PM10),69,88,200,14,42,115,,101,101,6,16,6,6,0.3,0.3
2024-06-22T1700,1593A,109.7736,39.5986,鄂尔多斯市,康泽苑,颗粒物(PM10),60,70,175,14,42,121,,107,107,3,6,8,8,0.3,0.2
2024-06-22T1700,1594A,109.8119,39.5989,鄂尔多斯市,华泰汽车城,颗粒物(PM10),56,61,162,22,44,114,,103,103,4,8,8,8,0.3,0.3
2024-06-22T1700,1595A,109.9734,39.7884,鄂尔多斯市,奥林花园,颗粒物(PM10),67,83,214,17,46,116,,101,101,9,17,5,5,0.4,0.4
2024-06-22T1700,2436A,114.8938,30.3994,鄂州市,市政府,,30,21,16,3,3,96,,74,74,4,8,3,7,0.5,0.6
2024-06-22T1700,2437A,114.8989,30.3714,鄂州市,赵家坝,,32,13,13,3,3,100,,74,74,2,6,5,5,0.5,0.6
2024-06-22T1700,3654A,114.8094,30.4089,鄂州市,精准医疗中心,,35,9,9,3,2,109,,79,79,2,7,5,5,0.2,0.3
2024-06-22T1700,2454A,109.4978,30.2981,恩施土家族苗族自治州,湖北民院,,29,24,15,7,6,91,,100,100,10,9,6,6,0.8,0.8
2024-06-22T1700,2455A,109.4707,30.2798,恩施土家族苗族自治州,州电力总公司,,32,,9,22,6,82,,101,101,16,17,7,6,0.7,0.7
2024-06-22T1700,3549A,109.5061,30.3772,恩施土家族苗族自治州,龙凤新区,,21,21,8,6,5,62,,81,80,12,11,6,6,0.8,0.8
2024-06-22T1700,2499A,108.3411,21.6158,防城港市,沙万,,26,26,23,9,10,39,,46,46,32,20,23,8,1.6,0.8
2024-06-22T1700,2500A,108.3514,21.7731,防城港市,防城档案局,,27,27,18,11,11,54,,46,46,17,10,10,6,1.5,0.8
2024-06-22T1700,2501A,108.3506,21.6414,防城港市,大海花园,,21,21,22,12,9,62,,49,49,8,9,9,6,0.6,0.6
2024-06-22T1700,1371A,113.1294,23.0067,佛山市,湾梁,,26,17,23,17,15,83,,80,80,6,10,8,8,0.6,0.6
2024-06-22T1700,1372A,113.1083,23.0478,佛山市,华材职中,,28,,20,16,16,89,,81,81,7,9,8,7,0.4,0.4
2024-06-22T1700,1373A,113.144,23.0453,佛山市,南海气象局,,34,34,41,18,18,84,,85,85,6,10,7,7,0.2,0.3
2024-06-22T1700,1374A,113.2881,22.8094,佛山市,顺德苏岗,,23,11,21,9,19,72,,69,69,8,9,5,6,0.9,0.8
2024-06-22T1700,1376A,112.8383,22.8678,佛山市,高明孔堂,,26,26,24,17,14,75,,66,66,5,9,6,7,0.5,0.5
2024-06-22T1700,1377A,112.8836,23.1588,佛山市,三水监测站,,27,17,19,16,16,84,,82,82,9,15,5,5,0.7,0.7
2024-06-22T1700,1378A,112.867,23.185,佛山市,三水云东海,,27,,19,13,18,84,,86,86,11,19,5,5,0.5,0.6
2024-06-22T1700,3625A,113.2544,22.7642,佛山市,容桂街道办,,21,14,19,12,17,67,,67,67,13,13,6,6,0.3,0.4
2024-06-22T1700,1280A,119.3903,26.0543,福州市,鼓山,,,,,,,,,,,,,,,,
2024-06-22T1700,1282A,119.2681,26.0504,福州市,师大,,37,37,32,20,19,105,,81,81,5,15,4,4,0.2,0.3
2024-06-22T1700,1283A,119.2984,26.1028,福州市,五四北路,,,,,23,18,140,,99,99,12,13,4,4,0.3,0.3
2024-06-22T1700,1284A,119.2648,26.0768,福州市,杨桥西路,,37,37,34,24,19,101,,84,84,6,14,3,4,0.3,0.3
2024-06-22T1700,1285A,119.317,26.0746,福州市,紫阳,,47,47,32,23,20,126,,85,85,4,8,2,2,0.4,0.4
2024-06-22T1700,3048A,119.5799,26.0936,福州市,九龙,,40,37,31,15,17,126,,113,113,4,9,5,6,0.2,0.2
2024-06-22T1700,3526A,119.5189,25.9664,福州市,吴航,,37,27,30,15,18,118,,111,111,4,8,5,5,0.4,0.4
2024-06-22T1700,1755A,123.7977,41.8491,抚顺市,望花区,,46,32,25,15,16,146,,143,143,14,17,4,6,0.4,0.5
2024-06-22T1700,1756A,123.9161,41.8822,抚顺市,顺城区,,42,36,28,9,12,132,,131,131,13,18,5,7,0.5,0.6
2024-06-22T1700,1757A,124.0436,41.8611,抚顺市,东洲区,,32,32,37,10,17,101,,113,113,7,13,8,11,0.2,0.5
2024-06-22T1700,1758A,123.9247,41.8642,抚顺市,新抚区,,35,30,24,12,14,109,,112,112,9,14,3,5,0.6,0.7
2024-06-22T1700,1759A,124.0972,41.8961,抚顺市,大伙房水库,,33,7,22,7,14,105,,97,97,4,9,7,9,0.4,0.4
2024-06-22T1700,1760A,123.7086,41.8391,抚顺市,沈抚新城,,50,15,22,14,15,160,,128,128,10,17,6,7,0.4,0.6
2024-06-22T1700,2376A,116.2127,28.0814,抚州市,桐源党溪,,22,22,22,10,11,64,,73,73,2,3,5,5,0.2,0.2
2024-06-22T1700,2377A,116.3544,27.9831,抚州市,市站,,25,25,22,15,11,66,,65,65,3,4,3,4,0.7,0.6
2024-06-22T1700,2378A,116.3565,27.963,抚州市,血防站,,26,26,23,15,11,60,,61,61,6,6,3,3,0.5,0.5
2024-06-22T1700,2379A,116.3564,28.0007,抚州市,采茶剧团,,24,24,21,16,9,66,,64,64,2,3,3,4,0.5,0.5
2024-06-22T1700,2380A,116.385,27.9647,抚州市,医学分院,,32,32,27,13,10,67,,67,67,6,6,4,6,0.2,0.3
2024-06-22T1700,2207A,121.6094,41.998,阜新市,工业园区,颗粒物(PM10),65,79,69,24,25,148,,122,122,13,13,5,5,1.0,0.8
2024-06-22T1700,2208A,121.6697,42.0279,阜新市,长青街,颗粒物(PM10),67,84,76,28,27,140,,112,112,10,10,5,6,0.7,0.6
2024-06-22T1700,2209A,121.6673,42.0705,阜新市,农业园区,颗粒物(PM10),76,101,87,34,34,130,,108,108,14,14,7,6,0.8,0.7
2024-06-22T1700,2210A,121.6717,42.0224,阜新市,东苑,颗粒物(PM10),62,74,76,26,25,140,,112,112,12,15,9,8,0.8,0.7
2024-06-22T1700,2211A,121.6506,42.0498,阜新市,玉龙新城,颗粒物(PM10),66,82,78,16,29,145,,116,116,9,11,4,4,0.8,0.7
2024-06-22T1700,2301A,115.8277,32.8929,阜阳市,市监测站,臭氧1小时,78,28,16,23,16,182,,154,154,8,8,7,6,0.5,0.5
2024-06-22T1700,2303A,115.8554,32.8605,阜阳市,开发区,臭氧1小时,77,22,14,15,12,181,,156,156,8,10,4,4,0.4,0.4
2024-06-22T1700,2875A,115.784,32.8892,阜阳市,阜阳职业技术学院,臭氧1小时,89,15,17,12,11,191,,166,166,6,7,5,5,0.4,0.4
2024-06-22T1700,3468A,115.7901,32.8613,阜阳市,市规划展馆,臭氧1小时,73,25,25,14,24,178,,151,151,8,9,2,2,0.5,0.5
2024-06-22T1700,3469A,115.836,32.9183,阜阳市,枣园社区,臭氧1小时,68,33,24,16,19,174,,144,144,8,7,1,1,0.5,0.7
2024-06-22T1700,2669A,102.9099,34.9841,甘南藏族自治州,州政府,,34,19,21,12,15,107,,115,115,2,13,5,5,0.7,0.7
2024-06-22T1700,3380A,102.8914,34.9617,甘南藏族自治州,甘肃民族师范学院,,35,22,24,10,12,110,,112,112,5,21,4,3,0.6,0.6
2024-06-22T1700,2570A,101.9603,30.0475,甘孜藏族自治州,水桥子,,30,,7,3,5,95,,94,94,2,7,4,3,0.2,0.2
2024-06-22T1700,3065A,101.9533,29.9972,甘孜藏族自治州,州环保局,,27,15,10,3,5,84,,91,91,14,13,2,2,0.3,0.2
2024-06-22T1700,3414A,115.8347,28.932,赣江新区,桑海产业园,,31,31,25,17,13,90,,76,76,17,20,12,12,0.4,0.3
2024-06-22T1700,2362A,114.9017,25.9149,赣州市,通天岩,,,,,,,,,,,,,,,,
2024-06-22T1700,2363A,114.9367,25.8664,赣州市,地委,,29,29,23,18,13,76,,74,74,5,7,9,11,0.8,0.8
2024-06-22T1700,2364A,114.9461,25.8481,赣州市,气象台,,30,30,23,16,12,72,,70,70,9,9,4,5,0.6,0.6
2024-06-22T1700,2365A,114.9322,25.8333,赣州市,市图书馆,,24,23,22,16,12,74,,74,74,4,7,4,10,0.7,0.7
2024-06-22T1700,2366A,114.8905,25.8471,赣州市,华坚鞋城,,32,31,26,22,13,76,,73,73,6,8,18,11,0.5,0.5
2024-06-22T1700,3109A,115.0093,25.8613,赣州市,赣县区卫计委,,40,40,30,22,16,62,,58,58,12,12,7,7,0.5,0.5
2024-06-22T1700,2683A,106.2319,36.1417,固原市,马园,,45,22,34,6,10,142,,133,133,11,32,5,6,0.3,0.4
2024-06-22T1700,2684A,106.2792,36.0022,固原市,监测站,,48,21,30,8,10,152,,144,144,8,15,6,6,0.2,0.2
2024-06-22T1700,2685A,106.2375,36.0211,固原市,新区,,48,25,30,10,10,152,,144,144,4,17,6,6,0.2,0.2
2024-06-22T1700,3522A,106.2177,35.9959,固原市,原州区十五小,,49,30,30,10,10,154,,146,146,6,12,6,6,0.4,0.4
2024-06-22T1700,2543A,106.6308,30.5278,广安市,小平旧居,,,,,,,,,,,,,,,,
2024-06-22T1700,2544A,106.6303,30.4576,广安市,市委,,50,50,41,26,21,152,,110,110,11,17,10,10,0.5,0.6
2024-06-22T1700,2545A,106.6271,30.4663,广安市,友谊中学,,49,31,24,21,16,156,,119,119,12,18,8,9,0.6,0.6
2024-06-22T1700,2547A,106.6388,30.4551,广安市,广电花园,,45,32,30,18,18,144,,106,106,11,16,11,11,0.5,0.6
2024-06-22T1700,2902A,106.6351,30.4865,广安市,北辰小学,,48,37,30,24,18,152,,116,116,10,16,13,13,0.4,0.5
2024-06-22T1700,2523A,105.8945,32.4535,广元市,黑石坡,,41,11,15,6,7,131,,101,101,5,9,14,16,0.3,0.3
2024-06-22T1700,2524A,105.821,32.4444,广元市,老城,,44,23,21,9,8,138,,115,115,4,33,3,6,0.2,0.3
2024-06-22T1700,2526A,105.8628,32.4287,广元市,监测站,,44,21,18,7,7,140,,113,113,4,14,8,7,0.3,0.5
2024-06-22T1700,3617A,105.8047,32.4166,广元市,经开区,,42,31,37,12,13,132,,100,100,4,32,5,8,0.2,0.4
2024-06-22T1700,1345A,113.2347,23.1423,广州市,广雅中学,,35,21,31,15,21,110,,87,87,13,17,5,5,0.7,0.7
2024-06-22T1700,1346A,113.2612,23.105,广州市,市五中,,34,21,36,16,27,107,,88,88,8,12,4,4,0.6,0.6
2024-06-22T1700,1348A,113.3478,23.0916,广州市,广东商学院,,31,21,39,17,24,98,,80,80,12,18,3,4,0.4,0.4
2024-06-22T1700,1349A,113.4332,23.1047,广州市,市八十六中,,20,18,32,10,21,64,,60,60,24,28,4,4,0.6,0.6
2024-06-22T1700,1350A,113.3505,22.9483,广州市,番禺中学,,28,18,34,10,19,88,,78,78,10,14,6,6,0.5,0.5
2024-06-22T1700,1351A,113.2146,23.3916,广州市,花都师范,,42,29,40,20,22,132,,96,96,12,18,6,6,0.6,0.6
2024-06-22T1700,1352A,113.2597,23.1331,广州市,市监测站,,33,28,35,16,23,104,,83,83,11,15,5,5,0.4,0.5
2024-06-22T1700,1353A,113.5618,23.312,广州市,九龙镇镇龙,,30,30,39,15,24,86,,81,81,16,22,7,8,0.4,0.5
2024-06-22T1700,1354A,113.2765,23.1544,广州市,麓湖,,32,23,36,15,24,102,,77,77,10,15,3,3,0.5,0.5
2024-06-22T1700,1355A,113.443,23.3035,广州市,帽峰山森林公园,,35,17,23,14,18,110,,85,85,11,18,4,5,0.6,0.6
2024-06-22T1700,2846A,113.3221,23.1322,广州市,体育西,,31,26,36,18,31,98,,82,82,7,9,4,4,0.4,0.4
2024-06-22T1700,3298A,113.5717,23.5491,广州市,从化街口,,36,28,33,22,21,113,,96,96,9,17,8,9,0.5,0.5
2024-06-22T1700,3299A,113.3472,23.3692,广州市,白云竹料,,39,39,40,22,22,115,,87,87,15,19,4,4,0.6,0.5
2024-06-22T1700,3300A,113.2981,23.237,广州市,白云嘉禾,,33,28,39,19,22,103,,82,82,20,24,5,6,0.6,0.6
2024-06-22T1700,3301A,113.4256,23.1716,广州市,黄埔科学城,,30,26,35,21,24,78,,74,74,17,23,6,6,0.7,0.6
2024-06-22T1700,3302A,113.3942,23.0483,广州市,番禺大学城,,27,27,31,12,20,79,,68,68,12,13,4,4,0.6,0.6
2024-06-22T1700,3303A,113.4922,22.8168,广州市,南沙黄阁,,31,31,31,9,21,70,,67,67,6,9,5,5,0.5,0.5
2024-06-22T1700,3304A,113.5342,22.7896,广州市,南沙街,,27,27,30,6,20,57,,59,59,7,11,8,7,0.4,0.5
2024-06-22T1700,3443A,113.2902,23.5544,广州市,花都梯面,,44,27,36,24,22,139,,91,91,16,17,4,4,0.6,0.5
2024-06-22T1700,3445A,113.7858,23.7478,广州市,从化良口,,35,23,24,20,17,112,,87,87,6,11,5,5,0.6,0.6
2024-06-22T1700,3446A,113.8051,23.2614,广州市,增城荔城,,33,28,36,19,21,104,,97,97,11,16,6,6,0.4,0.4
2024-06-22T1700,2505A,109.568,23.1478,贵港市,德智高中,,,,,,,,,,,,,,,,
2024-06-22T1700,2506A,109.6047,23.0666,贵港市,江南子站,,21,12,34,10,15,66,,58,58,3,11,7,10,0.4,0.5
2024-06-22T1700,2507A,109.6014,23.0948,贵港市,贵城子站,,30,30,29,8,13,71,,61,61,5,12,8,12,0.5,0.6
2024-06-22T1700,2508A,109.5669,23.1065,贵港市,荷城子站,,25,17,22,3,5,78,,66,66,2,7,10,13,0.4,0.5
2024-06-22T1700,3405A,109.5886,23.1172,贵港市,新世纪学校,,25,19,23,8,11,78,,67,67,5,11,13,16,0.6,0.8
2024-06-22T1700,1439A,106.6899,26.5998,贵阳市,马鞍山,,16,6,7,3,3,50,,69,59,14,12,5,5,0.4,0.4
2024-06-22T1700,1440A,106.6971,26.5694,贵阳市,市环保站,,18,,11,3,10,57,,71,51,17,18,4,4,0.3,0.3
2024-06-22T1700,1441A,106.6243,26.6266,贵阳市,鉴湖路,,18,7,4,3,3,55,,52,52,6,10,4,3,0.4,0.5
2024-06-22T1700,1442A,106.7487,26.6343,贵阳市,燕子冲,,17,6,4,3,4,54,,64,56,10,12,5,5,0.7,0.7
2024-06-22T1700,1443A,106.6555,26.4365,贵阳市,碧云窝,,16,14,17,9,4,51,,79,65,16,11,20,6,0.5,0.4
2024-06-22T1700,1444A,106.694,26.5161,贵阳市,中院村,,19,9,12,3,4,59,,79,60,13,14,4,4,0.6,0.4
2024-06-22T1700,1445A,106.7109,26.6027,贵阳市,红边门,,19,,11,9,12,60,,69,57,14,18,5,5,0.7,0.7
2024-06-22T1700,1446A,106.7164,26.5699,贵阳市,新华路,,12,,7,7,8,37,,60,42,19,16,4,3,0.5,0.4
2024-06-22T1700,1447A,106.674,26.5424,贵阳市,太慈桥,,18,6,7,3,4,57,,67,54,9,11,5,5,0.5,0.4
2024-06-22T1700,1552A,106.805,26.3003,贵阳市,桐木岭,,,,,,,,,,,,,,,,
2024-06-22T1700,1862A,110.4144,25.3167,桂林市,电子科大尧山校区,,,18,22,14,14,,,,,3,4,4,4,0.3,0.4
2024-06-22T1700,1863A,110.2819,25.2697,桂林市,监测站,细颗粒物(PM2.5),74,,26,54,69,55,,55,55,6,8,6,5,0.2,0.4
2024-06-22T1700,1864A,110.3089,25.2708,桂林市,龙隐路小学,,24,24,23,12,13,58,,54,54,4,8,5,5,0.4,0.4
2024-06-22T1700,1865A,110.2869,25.2178,桂林市,八中,,18,10,19,3,7,57,,53,53,4,6,5,6,0.3,0.3
2024-06-22T1700,3403A,110.1764,25.2381,桂林市,创业大厦,,20,9,14,7,12,62,,49,49,5,6,6,7,0.5,0.5
2024-06-22T1700,3531A,110.296,25.1253,桂林市,旅游学院,,19,7,11,7,8,60,,56,56,3,6,7,7,0.3,0.3
2024-06-22T1700,2674A,100.2561,34.4714,果洛藏族自治州,玛沁县大武镇,,39,,12,17,9,124,,115,115,14,13,10,9,0.4,0.4
2024-06-22T1700,1129A,126.5422,45.755,哈尔滨市,岭北,,,6,5,3,4,34,,51,39,12,16,8,17,,0.1
2024-06-22T1700,1130A,126.561,45.8167,哈尔滨市,松北商大,,10,7,9,3,3,32,,46,37,9,10,5,5,0.4,0.4
2024-06-22T1700,1131A,126.979,45.5419,哈尔滨市,阿城会宁,,8,6,10,3,4,25,,40,30,10,13,8,7,0.4,0.4
2024-06-22T1700,1132A,126.599,45.7222,哈尔滨市,南岗学府路,,12,12,15,3,2,30,,42,31,9,11,8,8,0.5,0.5
2024-06-22T1700,1133A,126.689,45.7733,哈尔滨市,太平宏伟公园,,9,6,10,3,4,27,,43,31,16,18,5,5,0.3,0.3
2024-06-22T1700,1134A,126.635,45.7667,哈尔滨市,道外承德广场,,9,8,12,3,3,24,,42,28,18,18,7,7,0.5,0.5
2024-06-22T1700,1135A,126.685,45.7319,哈尔滨市,香坊红旗大街,,10,9,8,3,5,31,,44,34,11,12,4,3,0.4,0.4
2024-06-22T1700,1136A,126.6411,45.7258,哈尔滨市,动力和平路,,10,9,9,3,2,31,,43,31,12,14,6,6,0.4,0.4
2024-06-22T1700,1137A,126.593,45.7478,哈尔滨市,道里建国路,,19,19,10,3,3,29,,42,31,15,18,7,7,0.4,0.7
2024-06-22T1700,1138A,126.615,45.61,哈尔滨市,平房东轻厂,,16,16,14,6,6,30,,32,28,17,25,8,9,0.2,0.2
2024-06-22T1700,1139A,126.595,45.9855,哈尔滨市,呼兰师专,,14,14,13,3,2,35,,55,45,11,11,8,8,0.3,0.3
2024-06-22T1700,1140A,126.6206,45.6842,哈尔滨市,省农科院,,10,10,8,3,1,29,,38,31,13,14,6,6,0.3,0.3
2024-06-22T1700,2688A,93.5128,42.8172,哈密市,地区监测站,,46,14,48,13,18,146,,126,126,2,20,3,3,0.1,0.2
2024-06-22T1700,2689A,93.4961,42.8328,哈密市,哈密师范学校,,48,15,51,3,17,153,,132,132,4,24,4,4,0.1,0.3
2024-06-22T1700,2671A,100.9048,36.9639,海北藏族自治州,海晏县西海镇,,48,26,30,9,18,152,,125,125,7,11,13,14,0.2,0.5
2024-06-22T1700,3867A,102.0738,36.5056,海东市,平安区公安北苑,,42,39,33,12,13,134,,126,126,13,14,8,12,0.4,0.6
2024-06-22T1700,1409A,110.576,19.9507,海口市,东寨港,,,,,,,,,,,,,,,,
2024-06-22T1700,1410A,110.3232,20.0574,海口市,海南大学,,18,12,14,3,5,56,,55,55,5,6,4,5,0.4,0.4
2024-06-22T1700,1411A,110.283,20.0053,海口市,秀英海南医院,,16,12,14,3,7,51,,51,51,10,8,6,6,0.2,0.2
2024-06-22T1700,1412A,110.338,19.9969,海口市,海南师范大学,,22,12,13,6,6,68,,57,57,7,5,7,6,0.4,0.4
2024-06-22T1700,1413A,110.33,20.0356,海口市,龙华路环保局宿舍,,17,9,12,3,5,54,,54,54,5,5,6,7,0.2,0.2
2024-06-22T1700,3539A,110.5111,19.9736,海口市,桂林洋子站,,18,10,13,8,6,56,,55,55,4,5,6,6,0.2,0.2
2024-06-22T1700,2673A,100.6188,36.2866,海南藏族自治州,共和县恰卜恰镇,,40,8,18,3,8,126,,118,118,9,12,16,16,0.5,0.5
2024-06-22T1700,2676A,97.3731,37.3753,海西蒙古族藏族自治州,德令哈市,,46,35,15,15,12,146,,126,126,6,8,12,13,0.5,0.5
2024-06-22T1700,1048A,114.5302,36.6116,邯郸市,东污水处理厂,颗粒物(PM10),62,73,52,27,35,160,,169,169,5,8,2,2,0.3,0.6
2024-06-22T1700,1049A,114.4918,36.5713,邯郸市,矿院,颗粒物(PM10),51,51,40,29,30,155,,160,160,8,12,5,4,0.5,0.7
2024-06-22T1700,1050A,114.484,36.6133,邯郸市,丛台公园,颗粒物(PM10),57,63,43,26,28,151,,157,157,2,6,4,3,0.4,0.7
2024-06-22T1700,3458A,114.7895,36.5593,邯郸市,香泉濮院小区,臭氧1小时,72,64,45,25,28,177,,170,170,4,6,2,2,0.3,0.5
2024-06-22T1700,3579A,114.50634,36.77178,邯郸市,永年区实验高中,臭氧1小时,69,77,64,32,42,175,,175,175,3,10,2,2,0.5,0.9
2024-06-22T1700,3580A,114.20016,36.44293,邯郸市,峰峰矿区临水派出所,臭氧1小时,68,74,60,18,34,174,,172,172,5,7,7,6,0.3,0.8
2024-06-22T1700,2634A,106.9893,33.1842,汉中市,汉川机床厂子校,,46,15,19,11,11,146,,104,104,4,11,4,4,0.3,0.4
2024-06-22T1700,2635A,107.0154,33.0706,汉中市,市监测站,,44,26,28,12,8,140,,107,107,4,14,7,12,0.4,0.6
2024-06-22T1700,2636A,107.0089,33.1138,汉中市,鑫源开发区,,49,28,26,12,8,155,,110,110,4,16,9,11,0.4,0.4
2024-06-22T1700,2637A,107.007,33.0323,汉中市,南郑大河坎水厂,,46,22,24,13,11,146,,108,108,4,10,9,9,0.6,0.6
2024-06-22T1700,1223A,120.2072,30.2111,杭州市,滨江,,17,9,32,9,20,54,,84,84,6,14,3,3,0.6,0.7
2024-06-22T1700,1224A,120.0633,30.2747,杭州市,西溪,,18,18,32,12,18,38,,56,56,8,10,6,6,0.4,0.6
2024-06-22T1700,1226A,120.3461,30.3153,杭州市,下沙,,28,28,38,12,20,75,,94,94,4,12,4,5,0.3,0.5
2024-06-22T1700,1227A,120.1269,30.2456,杭州市,卧龙桥,,20,20,27,3,16,41,,56,56,3,8,4,4,0.6,0.7
2024-06-22T1700,1228A,120.1903,30.2692,杭州市,浙江农大,,16,16,27,8,18,49,,72,72,12,16,6,7,0.4,0.5
2024-06-22T1700,1230A,120.1197,30.3119,杭州市,和睦小学,,22,20,27,15,18,60,,74,74,7,13,3,4,0.4,0.6
2024-06-22T1700,1231A,120.3019,30.4183,杭州市,临平镇,,28,28,40,14,21,64,,87,87,15,20,4,4,0.6,0.7
2024-06-22T1700,1232A,120.2697,30.1819,杭州市,城厢镇,,28,28,34,12,24,61,,86,86,10,16,4,4,0.5,0.7
2024-06-22T1700,1233A,120.0883,30.1808,杭州市,云栖,,13,11,34,9,16,39,,63,63,5,8,6,6,0.4,0.6
2024-06-22T1700,3557A,119.9464,30.0494,杭州市,镇二中,,21,21,28,13,26,51,,76,76,11,15,6,6,0.6,0.8
2024-06-22T1700,3558A,119.7183,30.2367,杭州市,市府大楼,,23,23,22,12,14,57,,58,58,6,8,6,6,0.5,0.6
2024-06-22T1700,3656A,120.1556,30.2864,杭州市,消防大队,,18,12,27,10,19,56,,75,75,7,12,5,6,0.8,0.9
2024-06-22T1700,1270A,117.1959,31.7848,合肥市,明珠广场,,33,22,16,17,14,105,,102,102,12,12,7,6,0.4,0.4
2024-06-22T1700,1271A,117.3072,31.8764,合肥市,三里街,,30,24,14,17,10,94,,100,100,18,15,5,5,0.4,0.4
2024-06-22T1700,1272A,117.2588,31.8707,合肥市,琥珀山庄,,31,22,20,12,10,97,,103,103,11,9,4,4,0.9,0.8
2024-06-22T1700,1273A,117.1604,31.9052,合肥市,董铺水库,,29,17,14,17,11,92,,99,99,8,6,1,2,0.4,0.3
2024-06-22T1700,1274A,117.25,31.8571,合肥市,长江中路,,32,27,20,21,14,100,,105,105,10,8,4,4,0.7,0.7
2024-06-22T1700,1275A,117.266,31.9436,合肥市,庐阳区,,33,24,17,22,12,105,,113,113,14,9,9,9,0.4,0.4
2024-06-22T1700,1276A,117.336,31.8586,合肥市,瑶海区,,30,24,17,20,11,94,,99,99,14,10,7,8,0.5,0.4
2024-06-22T1700,1277A,117.3027,31.7964,合肥市,包河区,,33,17,12,9,8,103,,105,105,12,10,5,5,0.5,0.5
2024-06-22T1700,1278A,117.2776,31.7385,合肥市,滨湖新区,,32,12,11,7,6,101,,99,99,11,13,7,7,0.5,0.5
2024-06-22T1700,1279A,117.1318,31.8403,合肥市,高新区,,32,19,16,19,12,101,,100,100,8,7,7,7,0.6,0.6
2024-06-22T1700,3464A,117.3803,31.9147,合肥市,高教基地,,26,21,17,18,12,80,,86,86,14,9,6,6,0.5,0.4
2024-06-22T1700,3614A,79.924,37.0877,和田地区,地区环保局,颗粒物(PM10),213,359,188,75,48,114,,100,100,3,6,6,7,0.5,0.5
2024-06-22T1700,3615A,79.9131,37.113,和田地区,市环保局,颗粒物(PM10),194,337,191,69,48,111,,97,97,2,10,6,7,0.6,0.6
2024-06-22T1700,2516A,108.2011,24.715,河池市,东仁乐园,,34,34,33,11,15,69,,68,68,1,4,4,10,0.7,0.7
2024-06-22T1700,2517A,108.0497,24.6947,河池市,市环保站,,36,36,22,13,13,70,,68,68,5,7,6,9,0.5,0.5
2024-06-22T1700,2518A,108.0983,24.6989,河池市,市疾控中心,,23,20,21,12,12,72,,67,67,7,10,6,9,0.5,0.5
2024-06-22T1700,1696A,114.6778,23.7569,河源市,源西,,,,67,,30,,,61,,,16,,4,,0.5
2024-06-22T1700,1697A,114.6944,23.7586,河源市,东埔,,32,,28,22,22,68,,70,70,8,13,6,7,0.5,0.5
2024-06-22T1700,1698A,114.6892,23.7233,河源市,老城,,35,35,32,12,18,67,,72,72,4,8,5,5,0.4,0.4
2024-06-22T1700,1718A,115.4208,35.2464,菏泽市,气象局,臭氧1小时,100,56,46,25,32,200,,193,193,10,10,3,4,0.3,0.4
2024-06-22T1700,1719A,115.4747,35.2375,菏泽市,市政协,臭氧1小时,94,53,40,28,36,195,,189,189,8,6,3,4,0.2,0.2
2024-06-22T1700,3374A,115.5564,35.0891,菏泽市,定陶老年大学,臭氧1小时,83,51,37,19,25,186,,173,173,16,13,3,2,0.2,0.3
2024-06-22T1700,3647A,115.4702,35.2706,菏泽市,菏泽医专,臭氧1小时,57,57,40,24,35,165,,154,154,9,8,3,3,0.5,0.5
2024-06-22T1700,2514A,111.5264,24.4172,贺州市,环保小区,,20,8,20,3,12,64,,50,50,3,8,6,8,0.6,0.6
2024-06-22T1700,2515A,111.5608,24.4078,贺州市,政协大楼,,25,14,23,11,13,79,,53,53,7,12,6,8,0.6,0.6
2024-06-22T1700,3534A,111.4744,24.4553,贺州市,西湾,,18,15,22,3,10,57,,52,52,5,12,9,8,0.5,0.5
2024-06-22T1700,2385A,114.17,35.9019,鹤壁市,市监测站,臭氧1小时,107,67,51,34,32,213,,173,173,11,9,7,5,0.8,0.8
2024-06-22T1700,2386A,114.2956,35.7511,鹤壁市,市交警支队,臭氧1小时,112,75,55,34,39,224,,174,174,12,10,10,7,0.7,0.8
2024-06-22T1700,2387A,114.2878,35.7306,鹤壁市,迎宾馆,臭氧1小时,113,65,57,55,43,226,,176,176,16,15,11,8,0.6,0.7
2024-06-22T1700,3474A,114.2617,35.6822,鹤壁市,大新区,臭氧1小时,108,71,47,22,28,216,,171,171,14,14,9,5,0.8,0.9
2024-06-22T1700,3596A,114.1572,35.9603,鹤壁市,南山宾馆,臭氧1小时,104,79,46,31,35,207,,167,167,8,6,10,7,0.8,1
2024-06-22T1700,2244A,130.2537,47.3416,鹤岗市,哈啤分公司,,13,11,16,9,6,32,,28,28,7,5,14,13,0.3,0.2
2024-06-22T1700,2245A,130.2684,47.3086,鹤岗市,斯达机电,,17,17,16,6,6,25,,27,26,12,8,12,12,0.3,0.2
2024-06-22T1700,2246A,130.3114,47.3388,鹤岗市,东山纸板厂,,10,10,17,3,6,28,,25,25,7,8,14,15,0.3,0.4
2024-06-22T1700,2247A,130.1097,47.3382,鹤岗市,五号水库,,20,20,17,9,6,34,,33,33,5,5,9,8,0.4,0.4
2024-06-22T1700,2263A,127.4833,50.2524,黑河市,交通局,,23,17,21,11,9,71,,62,62,4,7,6,6,0.2,0.2
2024-06-22T1700,2264A,127.5144,50.2341,黑河市,环保局,,22,19,18,10,9,69,,62,62,3,7,3,4,0.2,0.2
2024-06-22T1700,2265A,127.5291,50.2472,黑河市,大黑河岛,,,47,27,12,11,92,,88,88,12,11,4,4,,
2024-06-22T1700,1074A,115.6838,37.7541,衡水市,电机北厂,臭氧1小时,83,96,62,40,44,186,,190,190,5,9,5,4,0.2,0.4
2024-06-22T1700,1075A,115.6303,37.7316,衡水市,市监测站,臭氧1小时,93,102,68,33,41,194,,192,192,6,12,6,4,0.5,0.7
2024-06-22T1700,3188A,115.6683,37.7217,衡水市,市城管局,臭氧1小时,88,90,53,28,41,190,,194,194,5,10,3,3,0.2,0.4
2024-06-22T1700,3459A,115.5989,37.5491,衡水市,地表水厂,臭氧1小时,109,74,59,30,32,218,,203,203,7,15,9,7,0.2,0.4
2024-06-22T1700,2456A,112.5003,26.9167,衡阳市,原169医院,,22,22,27,14,14,53,,48,48,2,17,4,6,0.6,0.7
2024-06-22T1700,2457A,112.6194,26.9258,衡阳市,衡阳化工总厂,,,21,23,,,64,,60,60,4,6,6,8,0.3,0.4
2024-06-22T1700,2458A,112.6211,26.8956,衡阳市,珠晖区环保局,,,16,20,,,70,,66,66,3,5,5,7,0.4,0.4
2024-06-22T1700,2459A,112.6197,26.8733,衡阳市,市委党校,,30,30,20,11,11,69,,61,61,5,7,8,6,0.4,0.5
2024-06-22T1700,2460A,112.6006,26.8919,衡阳市,市监测站,,21,8,23,6,14,65,,62,62,4,7,6,10,0.3,0.5
2024-06-22T1700,2461A,112.5664,26.9056,衡阳市,真空机电公司,,,9,31,,15,59,,57,57,2,12,6,18,0.5,1.1
2024-06-22T1700,3399A,112.6703,26.882,衡阳市,师范学院,,24,24,21,10,10,62,,59,59,5,6,12,9,0.5,0.5
2024-06-22T1700,2608A,103.3772,23.3993,红河哈尼族彝族自治州,污水处理厂,,14,8,21,3,14,42,,44,44,4,6,9,5,0.4,0.4
2024-06-22T1700,2609A,103.3861,23.35,红河哈尼族彝族自治州,监测站,,15,6,17,3,10,45,,45,45,3,6,7,6,0.5,0.5
2024-06-22T1700,3038A,103.3758,23.368,红河哈尼族彝族自治州,州图书馆,,14,9,19,3,8,43,,45,44,4,7,21,5,0.4,0.4
2024-06-22T1700,1090A,111.6507,40.7517,呼和浩特市,呼市一监,颗粒物(PM10),500,735,436,164,135,107,,108,108,4,5,5,6,0.1,0.2
2024-06-22T1700,1091A,111.6572,40.8033,呼和浩特市,小召,颗粒物(PM10),500,752,595,150,115,104,,97,97,12,11,5,5,0.1,0.1
2024-06-22T1700,1094A,111.7516,40.8369,呼和浩特市,如意水处理厂,颗粒物(PM10),500,613,512,131,97,102,,98,98,6,6,4,4,0.1,0.1
2024-06-22T1700,1095A,111.7276,40.8062,呼和浩特市,二十九中,颗粒物(PM10),500,730,588,164,121,107,,101,101,7,8,2,2,0.2,0.2
2024-06-22T1700,1096A,111.5512,40.7866,呼和浩特市,工大金川校区,颗粒物(PM10),500,684,498,153,122,105,,96,96,4,7,5,5,0.2,0.3
2024-06-22T1700,1097A,111.717,40.7612,呼和浩特市,化肥厂生活区,颗粒物(PM10),500,633,557,166,113,107,,102,102,8,8,6,6,0.2,0.2
2024-06-22T1700,3698A,111.5968,40.8178,呼和浩特市,红旗小学,颗粒物(PM10),500,823,679,165,146,111,,103,103,6,8,2,2,0.1,0.1
2024-06-22T1700,3699A,111.6518,40.8389,呼和浩特市,海东办,颗粒物(PM10),500,801,704,173,140,111,,104,104,5,6,4,5,0.3,0.2
2024-06-22T1700,2192A,119.7594,49.2261,呼伦贝尔市,区环保局,,29,29,30,16,14,78,,75,75,9,9,5,5,0.4,0.4
2024-06-22T1700,3061A,119.7512,49.1577,呼伦贝尔市,国华电力东,,26,24,20,9,10,81,,77,77,4,4,3,4,0.3,0.3
2024-06-22T1700,1250A,120.0751,30.8669,湖州市,城西水厂,,15,8,23,3,12,39,,55,55,29,25,3,3,0.6,0.7
2024-06-22T1700,2873A,120.0875,30.8955,湖州市,仁皇山新区,,16,10,25,3,16,50,,54,54,18,27,5,5,0.6,0.7
2024-06-22T1700,2907A,120.1844,30.8596,湖州市,吴兴区站,,15,10,27,3,13,48,,56,56,8,20,6,5,0.5,0.6
2024-06-22T1700,3562A,120.4148,30.8538,湖州市,南浔区站,,14,13,32,8,22,44,,59,59,14,19,2,2,0.6,0.7
2024-06-22T1700,1607A,120.9092,40.7136,葫芦岛市,龙港区,颗粒物(PM10),53,56,41,26,25,125,,101,101,8,8,7,5,0.9,0.5
2024-06-22T1700,1608A,120.8392,40.7514,葫芦岛市,化工街,,46,46,30,29,20,135,,106,106,12,16,7,7,1.5,0.9
2024-06-22T1700,1609A,120.8341,40.7073,葫芦岛市,新区,细颗粒物(PM2.5),52,42,30,36,42,117,,98,98,7,10,3,4,0.9,0.6
2024-06-22T1700,1610A,120.8695,40.7677,葫芦岛市,东城区,臭氧1小时,73,48,30,46,42,178,,145,145,6,11,10,6,1.7,0.8
2024-06-22T1700,2482A,109.5981,27.5721,怀化市,林科所,,19,19,18,9,8,44,,74,63,2,3,4,4,0.6,0.6
2024-06-22T1700,2483A,109.9453,27.5444,怀化市,河西地税局,,16,16,17,8,12,37,,62,55,5,3,9,9,0.7,0.7
2024-06-22T1700,2484A,109.9781,27.5342,怀化市,市四医院,,13,,18,9,11,36,,60,56,15,8,4,5,0.5,0.5
2024-06-22T1700,2485A,109.9972,27.5578,怀化市,监测楼,,25,17,23,17,14,32,,55,51,11,5,6,7,0.7,0.6
2024-06-22T1700,2486A,110.0394,27.583,怀化市,市委党校,,13,13,18,6,12,37,,57,54,6,4,6,6,0.5,0.5
2024-06-22T1700,1210A,119.036,33.5981,淮安市,钵池山,臭氧1小时,55,24,14,17,14,164,,143,143,10,11,7,6,0.6,0.7
2024-06-22T1700,1211A,119.007,33.575,淮安市,北京南路,,50,34,14,21,11,157,,139,139,10,11,6,6,0.6,0.8
2024-06-22T1700,1212A,118.989,33.6067,淮安市,市监测站,臭氧1小时,53,31,16,19,13,162,,140,140,9,10,6,6,0.7,0.8
2024-06-22T1700,1213A,119.135,33.5039,淮安市,楚州区监测站,臭氧1小时,59,39,21,17,14,167,,138,138,13,13,6,4,0.7,0.5
2024-06-22T1700,1214A,119.0186,33.6297,淮安市,淮阴区监测站,臭氧1小时,58,27,15,23,14,166,,142,142,10,13,6,6,0.4,0.4
2024-06-22T1700,3426A,118.8755,33.2894,淮安市,新华书店,,45,25,12,20,9,142,,130,130,11,12,5,5,0.7,0.7
2024-06-22T1700,2282A,116.8004,33.975,淮北市,监测站,臭氧1小时,102,28,31,21,26,204,,171,171,3,5,4,4,0.5,0.5
2024-06-22T1700,2283A,116.8091,33.9007,淮北市,烈山区政府,臭氧1小时,102,33,31,22,22,204,,170,170,5,9,4,5,0.7,0.7
2024-06-22T1700,3330A,116.8873,33.9836,淮北市,杜集区检察院,臭氧1小时,108,36,46,18,46,216,,185,185,5,6,6,5,0.5,0.5
2024-06-22T1700,4017A,116.7923,33.9535,淮北市,市博物馆,臭氧1小时,106,45,31,19,27,211,,181,181,3,5,4,3,0.6,0.7
2024-06-22T1700,2277A,116.8305,32.7727,淮南市,潘集区政府,臭氧1小时,62,33,18,26,15,169,,134,134,6,6,6,6,0.4,0.4
2024-06-22T1700,2278A,117.0067,32.6524,淮南市,师范学院,细颗粒物(PM2.5),58,42,27,41,22,153,,116,116,12,8,12,11,0.4,0.3
2024-06-22T1700,2279A,116.8569,32.5951,淮南市,谢家集区政府,,48,22,19,16,11,153,,123,123,5,6,5,5,0.3,0.2
2024-06-22T1700,2280A,116.8281,32.633,淮南市,八公山区政府,,49,40,33,32,24,154,,121,121,4,6,3,2,0.4,0.4
2024-06-22T1700,2281A,116.6325,32.6201,淮南市,焦岗湖风景区管理处,,38,38,26,18,9,72,,59,59,6,9,6,6,0.4,0.3
2024-06-22T1700,2894A,117.0566,32.6531,淮南市,经济技术开发区消防队,,50,43,17,29,12,160,,120,120,9,9,5,4,0.4,0.4
2024-06-22T1700,3329A,117.0108,32.5893,淮南市,山南新区,细颗粒物(PM2.5),55,,23,39,17,155,,116,116,8,9,9,20,0.6,0.5
2024-06-22T1700,2446A,114.9028,30.4742,黄冈市,职工中心,,36,12,9,9,7,114,,90,90,8,10,6,6,0.2,0.2
2024-06-22T1700,2929A,114.8858,30.4519,黄冈市,红卫路,,37,14,9,10,8,118,,94,94,8,9,7,7,0.4,0.4
2024-06-22T1700,3398A,114.9136,30.4445,黄冈市,市林业局,,33,14,10,11,8,105,,81,81,7,8,6,4,0.6,0.5
2024-06-22T1700,2672A,102.0199,35.5102,黄南藏族自治州,同仁县隆务镇,,38,20,18,3,5,119,,114,114,1,1,8,8,0.4,0.4
2024-06-22T1700,2295A,118.2903,29.6963,黄山市,延安路89号,颗粒物(PM10),51,51,44,12,9,51,,57,57,5,10,3,3,0.4,0.3
2024-06-22T1700,2296A,118.327,29.7178,黄山市,黄山东路89号,,26,26,23,8,8,46,,56,56,7,7,4,4,0.4,0.5
2024-06-22T1700,2297A,118.1371,30.2756,黄山市,黄山区政府5号楼,,19,18,22,10,8,58,,43,,5,5,6,6,0.5,0.5
2024-06-22T1700,2423A,115.0601,30.2313,黄石市,沈家营,,35,11,21,3,3,112,,74,74,8,13,6,6,0.6,0.5
2024-06-22T1700,2424A,115.0817,30.2006,黄石市,陈家湾,,29,26,27,9,5,92,,79,79,8,9,4,4,0.5,0.4
2024-06-22T1700,2426A,114.8988,30.2019,黄石市,铁山,,29,15,16,3,4,92,,92,75,2,4,7,9,0.3,0.4
2024-06-22T1700,2427A,115.0307,30.2092,黄石市,团城山,,34,14,18,3,3,108,,78,76,6,6,6,6,0.4,0.4
2024-06-22T1700,3149A,115.0235,30.1578,黄石市,笔架山北路,,32,32,23,3,3,68,,70,65,12,6,6,6,0.6,0.5
2024-06-22T1700,1392A,114.4183,23.0528,惠州市,河南岸金山湖子站,,18,14,27,11,19,57,,66,66,2,6,4,4,0.3,0.3
2024-06-22T1700,1393A,114.4053,23.0822,惠州市,下埔横江三路子站,,19,18,29,10,19,59,,71,71,4,7,6,8,0.4,0.5
2024-06-22T1700,1394A,114.4103,23.1142,惠州市,江北云山西路子站,,22,15,29,15,17,64,,75,75,2,5,8,8,0.4,0.5
2024-06-22T1700,1395A,114.4645,22.7833,惠州市,惠阳区承修路船湖子站,,14,14,25,9,21,44,,47,47,7,7,1,2,0.4,0.4
2024-06-22T1700,1396A,114.5317,22.7422,惠州市,大亚湾管委会子站,,,15,25,11,19,51,,62,62,,7,4,6,0.5,0.7
2024-06-22T1700,3314A,114.4338,22.8134,惠州市,惠阳秋长,,16,,28,8,18,51,,60,60,2,4,4,5,0.3,0.5
2024-06-22T1700,3452A,114.6517,22.775,惠州市,大亚湾霞涌,,26,21,18,18,12,52,,54,54,7,4,3,3,0.4,0.4
2024-06-22T1700,2240A,130.9762,45.3001,鸡西市,环保局,,10,6,6,3,3,31,,35,32,6,5,7,6,0.7,0.5
2024-06-22T1700,2243A,130.9429,45.3039,鸡西市,第一中学,,10,9,6,3,4,30,,31,31,4,4,8,7,0.3,0.3
2024-06-22T1700,3707A,131.0207,45.3073,鸡西市,欧美日汽修厂,,12,6,7,3,4,38,,38,38,2,3,4,4,0.4,0.4
2024-06-22T1700,3709A,130.9967,45.3106,鸡西市,市政设施管理处,,18,,5,12,4,32,,31,31,6,8,7,7,0.4,0.3
2024-06-22T1700,2367A,114.9754,27.0803,吉安市,红声器材厂,,34,34,30,16,15,80,,87,87,15,13,11,12,0.4,0.5
2024-06-22T1700,2368A,114.9658,27.0999,吉安市,市森林工业局,,26,26,30,15,16,82,,86,86,9,13,14,12,0.5,0.5
2024-06-22T1700,2369A,114.99,27.1312,吉安市,市环境监测站,,29,29,26,18,14,89,,93,93,12,9,11,11,0.6,0.7
2024-06-22T1700,2370A,115.0093,27.0968,吉安市,青原区法院,,26,26,29,13,13,78,,84,84,11,11,10,15,0.4,0.4
2024-06-22T1700,1772A,126.54,43.8622,吉林市,哈达湾,颗粒物(PM10),110,170,65,50,29,129,,119,119,8,29,4,15,0.6,0.7
2024-06-22T1700,1773A,126.5844,43.8358,吉林市,东局子,颗粒物(PM10),86,121,43,44,26,128,,117,117,10,34,4,8,0.5,0.7
2024-06-22T1700,1774A,126.5052,43.8245,吉林市,电力学院,颗粒物(PM10),89,127,50,43,27,124,,116,116,9,33,9,18,0.4,0.5
2024-06-22T1700,1775A,126.6133,43.8972,吉林市,江北,颗粒物(PM10),104,157,54,42,27,121,,112,112,12,33,8,9,0.6,0.7
2024-06-22T1700,1776A,126.555,43.8306,吉林市,江南公园,颗粒物(PM10),94,138,46,47,30,123,,117,117,13,37,4,9,0.7,0.8
2024-06-22T1700,1778A,126.7061,43.7133,吉林市,丰满,,,,,,,,,,,,,,,,
2024-06-22T1700,2868A,126.4739,43.953,吉林市,九站,颗粒物(PM10),122,194,53,58,23,121,,121,121,10,31,6,12,0.6,0.6
2024-06-22T1700,1299A,116.9862,36.6114,济南市,科干所,臭氧1小时,102,41,52,22,39,203,,209,209,14,22,8,7,0.6,0.6
2024-06-22T1700,1300A,116.9376,36.665,济南市,农科所,臭氧1小时,101,42,52,20,32,201,,216,216,17,24,8,8,0.4,0.5
2024-06-22T1700,1301A,117.1265,36.6734,济南市,开发区,臭氧1小时,109,46,49,22,28,218,,227,227,14,22,8,8,0.5,0.7
2024-06-22T1700,1303A,117.0624,36.6868,济南市,省种子仓库,臭氧1小时,103,53,60,22,45,205,,217,217,14,20,6,7,0.6,0.7
2024-06-22T1700,1304A,116.9489,36.6447,济南市,机床二厂,臭氧1小时,105,54,57,15,38,209,,221,220,15,20,9,9,0.3,0.4
2024-06-22T1700,1305A,117.0495,36.663,济南市,市监测站,臭氧1小时,109,44,53,24,40,218,,230,230,14,25,11,11,0.4,0.6
2024-06-22T1700,1306A,116.7675,36.5484,济南市,长清党校,臭氧1小时,108,39,52,29,46,215,,201,201,6,13,8,8,0.6,0.7
2024-06-22T1700,1616A,117.6795,36.229,济南市,技术学院,臭氧1小时,99,41,37,27,29,199,,182,182,8,12,9,8,0.7,0.8
2024-06-22T1700,1961A,117.532,36.6868,济南市,东山小学,臭氧1小时,129,54,49,39,38,258,,210,210,16,15,6,5,0.5,0.6
2024-06-22T1700,3059A,117.7161,36.2049,济南市,泰兴公司,臭氧1小时,84,36,35,24,27,187,,175,175,11,12,9,8,0.6,0.6
2024-06-22T1700,3064A,117.6867,36.2171,济南市,莱芜战役纪念馆,臭氧1小时,77,46,38,24,26,181,,169,169,8,10,9,8,0.7,0.7
2024-06-22T1700,3494A,117.1673,36.9782,济南市,济阳区政府,臭氧1小时,123,63,54,37,38,246,,210,210,12,14,7,10,0.4,0.4
2024-06-22T1700,3495A,117.1171,36.63,济南市,锦屏中学,臭氧1小时,119,49,51,29,36,238,,241,241,16,17,9,9,0.6,0.7
2024-06-22T1700,3682A,116.9814,36.6819,济南市,济南四建,臭氧1小时,106,36,44,29,39,211,,218,218,10,17,8,7,0.6,0.7
2024-06-22T1700,1653A,116.6251,35.4302,济宁市,火炬城,臭氧1小时,110,45,54,31,39,219,,182,182,12,14,10,9,0.7,0.8
2024-06-22T1700,1655A,116.5491,35.4042,济宁市,电化厂,臭氧1小时,118,55,54,34,40,236,,192,192,14,13,7,6,0.6,0.7
2024-06-22T1700,3500A,116.5814,35.3707,济宁市,北湖一中,臭氧1小时,114,51,51,31,40,228,,186,186,13,13,8,6,0.6,0.7
2024-06-22T1700,3501A,116.8249,35.5593,济宁市,服务中心,臭氧1小时,106,38,37,26,43,212,,184,184,9,12,3,3,0.5,0.6
2024-06-22T1700,3678A,116.5907,35.4054,济宁市,市第七中学,臭氧1小时,121,44,57,29,38,241,,198,198,12,13,6,4,0.6,0.7
2024-06-22T1700,2255A,130.2751,46.8028,佳木斯市,佳纺,,10,7,15,6,11,31,,27,27,7,14,5,5,0.4,0.4
2024-06-22T1700,2256A,130.3995,46.8307,佳木斯市,发电厂,,13,13,20,3,9,30,,26,26,4,10,8,6,0.4,0.4
2024-06-22T1700,2257A,130.3258,46.7975,佳木斯市,环保局,,9,9,21,6,12,19,,20,16,15,18,6,6,0.6,0.5
2024-06-22T1700,2258A,130.3648,46.8032,佳木斯市,十一中,,12,9,18,8,12,30,,26,24,8,17,6,6,0.4,0.4
2024-06-22T1700,2259A,130.3794,46.7588,佳木斯市,四丰,,8,8,10,3,6,22,,18,17,12,12,1,1,0.6,0.6
2024-06-22T1700,1252A,120.7436,30.778,嘉兴市,清河小学,,22,18,35,7,16,69,,86,86,15,25,4,5,0.4,0.5
2024-06-22T1700,1253A,120.726,30.7478,嘉兴市,嘉兴学院,,,,27,7,19,50,,61,61,18,27,2,3,0.5,0.6
2024-06-22T1700,2872A,120.7846,30.7525,嘉兴市,南湖区残联,,30,15,32,10,21,94,,96,96,8,20,5,5,0.6,0.6
2024-06-22T1700,3407A,120.6916,30.7739,嘉兴市,秀洲住建,,,34,34,,20,60,,82,81,6,19,4,4,0.6,0.8
2024-06-22T1700,1945A,98.2908,39.7711,嘉峪关市,气象局,,46,17,32,3,9,145,,136,136,2,15,4,6,0,0.1
2024-06-22T1700,2884A,98.2672,39.7978,嘉峪关市,酒钢宾馆,,47,24,38,12,13,150,,138,138,4,15,12,17,0.3,0.4
2024-06-22T1700,3248A,98.2643,39.7724,嘉峪关市,雄关区,,45,24,33,8,12,142,,132,132,3,16,7,8,0.4,0.4
2024-06-22T1700,1383A,113.1064,22.6058,江门市,北街,,20,19,23,7,16,63,,65,65,5,7,3,3,0.5,0.5
2024-06-22T1700,1384A,113.0731,22.5835,江门市,西区,,22,,23,15,14,67,,71,71,5,7,8,8,0.4,0.4
2024-06-22T1700,1385A,113.0219,22.5311,江门市,圭峰西,,,20,25,,7,49,,57,57,2,4,3,3,0.5,0.5
2024-06-22T1700,1386A,113.0828,22.5947,江门市,东湖,,22,10,22,6,17,68,,69,69,7,8,7,7,0.4,0.4
2024-06-22T1700,3311A,113.1075,22.5647,江门市,江海富民,,39,39,38,19,21,69,,70,70,7,9,6,5,0.5,0.4
2024-06-22T1700,3449A,113.05,22.4667,江门市,新会银湖,,18,,21,12,12,53,,60,60,2,5,5,4,0.5,0.5
2024-06-22T1700,1828A,113.227,35.2125,焦作市,市环保局,臭氧1小时,87,65,44,24,26,189,,179,179,7,7,3,3,0.1,0.5
2024-06-22T1700,1830A,113.1992,35.2590,焦作市,影视城,,,,,,,,,,,,,,,,
2024-06-22T1700,3169A,113.2725,35.2067,焦作市,太极体育中心,臭氧1小时,75,61,49,23,25,180,,175,175,4,6,4,3,0.2,0.6
2024-06-22T1700,3335A,113.3137,35.2641,焦作市,马村街道办,臭氧1小时,83,55,36,18,34,186,,176,176,5,6,6,5,0.4,0.7
2024-06-22T1700,3336A,113.2465,35.2373,焦作市,焦作技师学院,臭氧1小时,87,71,46,19,24,189,,175,175,7,7,4,3,0.4,0.8
2024-06-22T1700,3477A,113.1656,35.2539,焦作市,中站许衡医院,臭氧1小时,77,40,36,11,31,181,,167,167,12,15,9,10,0.4,0.8
2024-06-22T1700,3981A,113.2449,35.1803,焦作市,原李万街道办,颗粒物(PM10),67,83,38,22,26,166,,165,165,7,8,7,6,0.4,0.7
2024-06-22T1700,1708A,116.3701,23.5345,揭阳市,新兴,,26,,31,18,19,63,,72,72,18,11,5,4,0.6,0.6
2024-06-22T1700,1709A,116.3264,23.5443,揭阳市,西马,,26,26,36,18,21,67,,72,72,13,13,2,3,0.7,0.6
2024-06-22T1700,1710A,116.3611,23.5626,揭阳市,东兴,,,,36,21,17,62,,77,75,13,9,2,2,0.7,0.6
2024-06-22T1700,1711A,116.4151,23.5294,揭阳市,渔湖,,20,20,28,14,13,46,,62,62,24,12,4,4,0.6,0.5
2024-06-22T1700,3320A,116.403,23.5699,揭阳市,曲溪,,30,25,27,21,21,52,,78,78,15,11,3,5,0.6,0.5
2024-06-22T1700,1944A,102.1692,38.5167,金昌市,天庆家园,,40,14,26,3,10,128,,129,129,2,14,5,11,0.4,0.5
2024-06-22T1700,3170A,102.1864,38.5253,金昌市,市委党校,,42,15,36,3,10,132,,130,130,4,15,6,11,0.4,0.5
2024-06-22T1700,4022A,102.1647,38.5371,金昌市,金川区人防中心,,41,22,28,3,9,130,,125,125,3,12,10,12,0.4,0.5
2024-06-22T1700,1262A,119.647,29.077,金华市,十五中,,27,22,35,13,20,85,,108,108,6,19,4,4,0.3,0.6
2024-06-22T1700,1263A,119.686,29.1029,金华市,监测站,,29,22,36,13,22,91,,107,107,5,23,4,4,0.3,0.6
2024-06-22T1700,3659A,119.656,29.1131,金华市,气象局,,,21,36,,18,82,,94,94,20,27,5,4,0.6,0.7
2024-06-22T1700,1767A,121.1115,41.0879,锦州市,南山,细颗粒物(PM2.5),57,58,32,40,32,164,,138,138,11,12,7,5,1.3,0.7
2024-06-22T1700,1768A,121.0533,40.8434,锦州市,开发区,,42,42,32,24,24,118,,108,108,29,16,9,11,1.2,0.8
2024-06-22T1700,1769A,121.1836,41.1119,锦州市,百股街道,,50,37,31,24,22,157,,141,141,9,12,9,9,1.2,0.9
2024-06-22T1700,1770A,121.1178,41.1222,锦州市,天安街道,颗粒物(PM10),56,62,39,39,24,146,,122,122,16,15,5,4,1.4,0.9
2024-06-22T1700,1771A,121.1303,41.1386,锦州市,北湖公园,细颗粒物(PM2.5),60,61,40,43,30,156,,131,131,13,13,8,6,1.2,0.7
2024-06-22T1700,2160A,112.85,35.5051,晋城市,自来水公司,臭氧1小时,73,46,61,12,31,178,,153,153,11,12,6,6,0.5,0.9
2024-06-22T1700,2161A,112.8318,35.4936,晋城市,白云商贸,臭氧1小时,65,50,46,14,26,172,,150,150,12,13,7,6,0.4,0.8
2024-06-22T1700,2162A,112.8508,35.4887,晋城市,市环保局,臭氧1小时,62,61,68,14,32,169,,148,148,14,13,6,5,0.4,0.8
2024-06-22T1700,2163A,112.8676,35.4897,晋城市,技术学院,颗粒物(PM10),60,70,58,17,36,167,,149,149,17,16,6,5,0.6,1
2024-06-22T1700,2165A,112.8453,35.546,晋城市,白马寺,,,,,,,,,,,,,,,,
2024-06-22T1700,3620A,112.8271,35.4828,晋城市,泽州一中,臭氧1小时,58,53,52,19,27,166,,148,148,13,14,8,6,0.6,1
2024-06-22T1700,2171A,112.7532,37.6945,晋中市,锦纶小区,颗粒物(PM10),82,114,100,22,39,124,,125,125,8,20,7,10,0.1,0.5
2024-06-22T1700,2173A,112.7249,37.7067,晋中市,南都小区,颗粒物(PM10),83,115,96,16,39,124,,122,122,7,18,8,10,0.1,0.4
2024-06-22T1700,2174A,112.6991,37.6982,晋中市,榆次区政府,,,124,98,22,39,119,,120,120,15,26,,8,0.1,0.4
2024-06-22T1700,2865A,112.7195,37.6828,晋中市,榆次三中,颗粒物(PM10),95,139,104,22,34,122,,124,124,11,20,7,10,0.2,0.6
2024-06-22T1700,2439A,112.2014,31.0481,荆门市,竹园小学,,37,20,23,9,7,118,,120,120,8,12,8,9,0.5,0.5
2024-06-22T1700,2440A,112.1969,30.9891,荆门市,掇刀,,37,25,18,12,14,116,,110,110,12,11,6,5,0.6,0.6
2024-06-22T1700,2441A,112.2213,31.0386,荆门市,石化一小,,39,25,21,7,12,124,,126,126,9,11,20,16,0.5,0.5
2024-06-22T1700,3012A,112.1849,31.0362,荆门市,西山林语,,39,18,19,11,9,122,,121,121,6,8,8,8,0.4,0.4
2024-06-22T1700,3547A,112.1632,31.0138,荆门市,龙泉中学南校,,38,22,21,10,8,119,,108,108,9,11,8,9,0.5,0.5
2024-06-22T1700,1844A,112.2494,30.3197,荆州市,市图书馆,,29,12,19,10,13,90,,77,77,10,12,6,5,0.7,0.7
2024-06-22T1700,1845A,112.2008,30.3544,荆州市,市委党校,,32,,20,22,16,89,,82,82,7,11,5,5,0.7,0.7
2024-06-22T1700,3194A,112.2747,30.3122,荆州市,管委会,,30,,19,10,15,93,,81,81,7,11,3,4,0.5,0.6
2024-06-22T1700,3548A,112.1655,30.3364,荆州市,学苑路,,30,15,17,9,16,93,,83,83,6,10,7,6,0.5,0.5
2024-06-22T1700,2342A,117.3102,29.3867,景德镇市,王港中学,,,,,,,,,,,,,,,,
2024-06-22T1700,2343A,117.2117,29.2933,景德镇市,老干部活动中心,,35,35,24,18,16,67,,57,57,8,14,10,13,0.3,0.4
2024-06-22T1700,2344A,117.1894,29.2789,景德镇市,兽医站,,33,33,25,19,13,77,,68,68,9,14,14,15,0.3,0.4
2024-06-22T1700,2345A,117.1547,29.2617,景德镇市,台达陶瓷,细颗粒物(PM2.5),55,39,34,39,20,64,,54,54,19,21,37,40,0.4,0.3
2024-06-22T1700,2346A,117.2461,29.2956,景德镇市,陶研所,,29,29,18,17,8,73,,70,70,8,4,6,6,0.3,0.3
2024-06-22T1700,1803A,115.9872,29.6815,九江市,十里,,22,19,17,15,12,48,,61,51,10,14,9,11,0.6,0.6
2024-06-22T1700,1804A,115.9584,29.7046,九江市,茅山头,,17,17,18,8,10,37,,57,50,13,14,10,11,0.6,0.5
2024-06-22T1700,1805A,115.9877,29.7295,九江市,西园,,15,15,17,9,10,45,,62,49,21,25,11,13,0.7,0.7
2024-06-22T1700,1806A,116.0172,29.6547,九江市,五七二七厂,,22,22,13,8,9,36,,51,48,12,10,9,9,0.5,0.5
2024-06-22T1700,1808A,115.9114,29.6038,九江市,综合工业园,,19,19,23,12,10,28,,54,45,36,20,9,12,0.8,0.6
2024-06-22T1700,1809A,116.0721,29.7535,九江市,石化总厂,,23,22,26,16,15,46,,61,58,9,12,8,9,0.5,0.6
2024-06-22T1700,1810A,115.9773,29.5698,九江市,庐山气象台,,17,6,14,3,9,53,,58,56,2,2,20,12,0.8,0.9
2024-06-22T1700,3190A,116.0254,29.6994,九江市,外国语学校,,20,20,20,10,13,43,,59,50,16,19,9,11,0.6,0.7
2024-06-22T1700,2658A,98.5061,39.7443,酒泉市,仓门街子站,,42,24,42,6,6,134,,120,120,3,14,5,9,0.2,0.3
2024-06-22T1700,2659A,98.4989,39.7256,酒泉市,油田生活基地,,45,22,40,8,9,144,,130,130,4,15,5,7,0.3,0.4
2024-06-22T1700,2698A,76.0072,39.4467,喀什地区,巡警大队,颗粒物(PM10),57,64,84,25,14,93,,104,83,15,17,3,4,0.2,0.2
2024-06-22T1700,2699A,75.9755,39.4694,喀什地区,吾办,颗粒物(PM10),53,56,82,19,33,84,,102,75,10,13,9,6,0.3,0.4
2024-06-22T1700,4027A,75.9483,39.4689,喀什地区,老干局,颗粒物(PM10),55,59,100,16,19,86,,91,79,11,20,6,4,0.2,0.2
2024-06-22T1700,1824A,114.3389,34.7781,开封市,肿瘤医院,臭氧1小时,74,58,37,12,16,179,,180,180,13,6,1,2,0.6,0.6
2024-06-22T1700,1826A,114.2885,34.7965,开封市,世纪星幼儿园,臭氧1小时,100,139,40,14,20,200,,193,193,12,6,3,3,0.6,0.6
2024-06-22T1700,3147A,114.3438,34.8106,开封市,龙亭公园,,,,,,,,,,,,,,,,
2024-06-22T1700,3210A,114.3644,34.7964,开封市,汴京公园,臭氧1小时,94,71,40,17,26,195,,186,186,13,6,5,3,0.7,0.6
2024-06-22T1700,3473A,114.2485,34.8306,开封市,技师学院,臭氧1小时,105,79,44,18,19,209,,198,198,14,11,6,4,0.6,0.8
2024-06-22T1700,3592A,114.4644,34.7556,开封市,祥符区生态环境局,臭氧1小时,69,36,32,16,23,175,,176,176,25,10,3,3,0.6,0.6
2024-06-22T1700,1951A,84.895,45.6094,克拉玛依市,长征新村,,43,14,29,7,8,135,,116,116,3,15,10,10,0.2,0.3
2024-06-22T1700,1952A,84.8988,45.5893,克拉玛依市,南林小区,,44,,32,16,18,138,,109,109,3,27,4,4,0.2,0.5
2024-06-22T1700,1954A,84.905,44.3396,克拉玛依市,独山子区,,47,15,26,3,11,150,,138,138,6,12,10,10,0.3,0.3
2024-06-22T1700,1955A,85.6979,46.098,克拉玛依市,乌尔禾区商贸楼,,39,6,24,3,9,124,,105,105,2,19,5,8,0.1,0.5
2024-06-22T1700,3612A,85.1045,45.6899,克拉玛依市,白碱滩区新站,,43,14,27,8,15,136,,114,114,3,10,10,10,0.2,0.2
2024-06-22T1700,2697A,76.1454,39.7142,克孜勒苏柯尔克孜自治州,市人民政府,,37,25,77,21,36,116,,110,110,2,8,9,9,0.2,0.2
2024-06-22T1700,3665A,76.1658,39.7157,克孜勒苏柯尔克孜自治州,克州文化中心,颗粒物(PM10),55,60,80,19,37,117,,117,117,2,5,10,11,0.2,0.2
2024-06-22T1700,1450A,102.8204,24.8886,昆明市,呈贡新区,,24,24,26,6,11,63,,68,68,12,11,4,6,0.6,0.6
2024-06-22T1700,1451A,102.6251,24.9608,昆明市,西山森林公园,,,,,,,,,,,,,,,,
2024-06-22T1700,1452A,102.7252,25.0902,昆明市,龙泉镇,,30,30,23,14,14,77,,70,70,20,12,6,7,0.6,0.6
2024-06-22T1700,1453A,102.7266,25.0375,昆明市,东风东路,,,,20,,14,57,,61,61,,10,1,2,0.6,0.6
2024-06-22T1700,1454A,102.6742,25.0669,昆明市,金鼎山,,30,30,24,10,10,58,,68,68,22,12,8,13,0.4,0.4
2024-06-22T1700,1455A,102.6644,25.0401,昆明市,碧鸡广场,,19,18,24,6,12,58,,66,66,15,12,2,3,0.4,0.5
2024-06-22T1700,3179A,102.7494,25.0119,昆明市,官渡区博物馆,,22,14,21,8,9,70,,72,72,9,7,8,8,0.4,0.4
2024-06-22T1700,3375A,102.8017,24.8336,昆明市,青年创业园,,14,14,22,7,12,44,,64,63,21,11,8,9,0.5,0.5
2024-06-22T1700,3550A,102.7997,24.9786,昆明市,昆明学院,,22,10,23,3,13,68,,72,72,11,9,8,9,0.3,0.4
2024-06-22T1700,3551A,102.5967,24.6736,昆明市,晋宁区生态环境分局,,22,14,20,3,10,68,,62,62,8,7,3,2,0.5,0.6
2024-06-22T1700,3552A,102.6678,24.9856,昆明市,云天化总部,,19,12,20,6,14,60,,60,60,8,6,2,3,0.7,0.6
2024-06-22T1700,1456A,91.1319,29.6514,拉萨市,八廓街,,40,8,15,6,10,128,,117,117,7,11,6,5,0.2,0.2
2024-06-22T1700,1457A,91.1221,29.6747,拉萨市,市环保局,,41,11,13,3,7,130,,116,116,10,12,8,8,0.4,0.4
2024-06-22T1700,1458A,91.0874,29.6475,拉萨市,区监测站,,39,7,12,6,6,122,,113,113,5,9,6,6,0.2,0.3
2024-06-22T1700,1459A,91.1774,29.6541,拉萨市,西藏大学,,40,,14,8,9,128,,115,115,4,8,7,7,0.4,0.4
2024-06-22T1700,1460A,90.9798,29.6588,拉萨市,区辐射站,,38,7,13,7,7,119,,108,108,7,10,7,7,0.3,0.3
2024-06-22T1700,1461A,91.0834,29.6292,拉萨市,拉萨火车站,,38,12,10,3,6,119,,111,111,8,6,8,7,0.2,0.2
2024-06-22T1700,2520A,109.2203,23.7256,来宾市,来宾技工学校,,21,21,21,12,15,63,,50,50,2,6,5,6,0.6,0.7
2024-06-22T1700,3535A,109.1781,23.7297,来宾市,兴宾区政府,,20,14,19,6,10,64,,52,52,4,8,4,4,0.6,0.6
2024-06-22T1700,4002A,109.2416,23.7461,来宾市,中南小学,,23,17,23,16,16,62,,51,51,6,9,7,6,0.6,0.7
2024-06-22T1700,1476A,103.631,36.1031,兰州市,兰炼宾馆,臭氧1小时,89,45,60,23,27,191,,161,161,7,33,11,16,0.2,0.4
2024-06-22T1700,1477A,104.1373,35.9454,兰州市,榆中兰大校区,,,,,,,,,,,,,,,,
2024-06-22T1700,1478A,103.8412,36.0726,兰州市,生物制品所,,49,37,58,12,27,156,,134,134,9,34,10,12,0.2,0.3
2024-06-22T1700,1479A,103.831,36.0464,兰州市,铁路设计院,臭氧1小时,59,40,55,14,25,167,,144,144,20,51,9,13,0.3,0.5
2024-06-22T1700,3186A,103.7158,36.1058,兰州市,教育港,臭氧1小时,83,47,58,23,25,186,,161,161,15,27,11,13,0.3,0.4
2024-06-22T1700,3241A,103.7439,36.0842,兰州市,百合公园,,,36,49,17,22,178,,151,151,9,34,6,8,,0.3
2024-06-22T1700,3242A,103.9611,35.998,兰州市,和平,臭氧1小时,80,32,46,20,16,184,,154,154,8,18,10,11,0.3,0.3
2024-06-22T1700,3245A,103.6633,36.533,兰州新区,新区管委会,,46,36,42,16,23,145,,140,140,8,16,8,12,0.3,0.4
2024-06-22T1700,3246A,103.6975,36.4789,兰州新区,舟曲中学,,48,31,54,9,19,151,,149,149,9,23,8,16,0.3,0.5
2024-06-22T1700,1067A,116.6708,39.5111,廊坊市,药材公司,颗粒物(PM10),119,187,119,46,48,151,,139,139,7,18,3,3,0.4,0.7
2024-06-22T1700,1068A,116.7214,39.5589,廊坊市,开发区,颗粒物(PM10),130,210,145,56,54,158,,138,138,8,26,2,2,0.3,0.6
2024-06-22T1700,1070A,116.7244,39.5269,廊坊市,北华航天学院,颗粒物(PM10),140,229,145,45,59,153,,134,134,6,26,3,3,0.3,0.7
2024-06-22T1700,2919A,116.7022,39.5453,廊坊市,河北工业大学,颗粒物(PM10),132,214,133,53,50,154,,137,137,3,24,1,3,0.3,0.6
2024-06-22T1700,2535A,103.7723,29.5462,乐山市,花湖湾,,41,,8,9,10,130,,91,91,7,23,4,4,0,0.2
2024-06-22T1700,2536A,103.7627,29.5844,乐山市,牛耳桥,,40,25,17,9,8,126,,95,95,18,32,4,3,0.3,0.5
2024-06-22T1700,2537A,103.7508,29.6006,乐山市,市第三水厂,,44,27,20,8,8,140,,105,105,10,29,3,4,0.3,0.5
2024-06-22T1700,2538A,103.7571,29.5664,乐山市,市监测站,,45,19,20,12,12,141,,106,106,9,24,3,4,0.4,0.6
2024-06-22T1700,3361A,103.7311,29.5628,乐山市,理工大学,,45,23,23,12,11,143,,106,106,7,26,5,5,0.3,0.6
2024-06-22T1700,2598A,100.2143,26.8576,丽江市,西南郊,,,,,,,,,,,,,,,,
2024-06-22T1700,2599A,100.2497,26.8802,丽江市,丽江古城,,24,21,24,6,12,75,,75,75,10,12,6,6,0.5,0.5
2024-06-22T1700,2600A,100.2203,26.8906,丽江市,市中心,,26,11,20,7,10,81,,78,78,11,11,8,8,0.5,0.5
2024-06-22T1700,1267A,119.914,28.4514,丽水市,监测站大楼,,34,34,37,14,15,64,,68,67,7,16,2,2,0.5,0.5
2024-06-22T1700,1268A,119.93,28.4586,丽水市,莲都小学,,26,26,36,6,13,69,,71,71,4,11,4,3,0.4,0.5
2024-06-22T1700,1269A,119.879,28.4231,丽水市,余庄前,,22,22,33,9,14,56,,58,58,5,6,2,2,0.4,0.5
2024-06-22T1700,1173A,119.176,34.5885,连云港市,市环境监测站,臭氧1小时,74,41,24,31,19,179,,173,173,13,11,6,5,0.5,0.5
2024-06-22T1700,3000A,119.3581,34.6972,连云港市,德源药业,臭氧1小时,101,29,17,24,12,201,,189,189,9,8,4,4,0.5,0.5
2024-06-22T1700,3007A,119.178,34.844,连云港市,新城一中,臭氧1小时,105,33,19,31,16,210,,189,189,11,10,5,5,0.6,0.6
2024-06-22T1700,3008A,119.3608,34.7519,连云港市,胡沟管理处,臭氧1小时,88,31,15,24,9,190,,181,181,10,11,7,6,0.7,0.6
2024-06-22T1700,3009A,119.1478,34.5911,连云港市,矿山设计院,臭氧1小时,75,44,24,31,18,180,,169,169,12,10,3,2,0.6,0.5
2024-06-22T1700,3434A,119.2413,34.6539,连云港市,工贸学校,臭氧1小时,95,40,21,32,17,196,,189,189,10,6,7,7,0.8,0.7
2024-06-22T1700,3664A,119.4172,34.7341,连云港市,连云街道,臭氧1小时,106,45,23,28,14,211,,187,187,12,12,2,3,0.7,0.6
2024-06-22T1700,2571A,102.3431,27.8099,凉山彝族自治州,青龙寺,,19,13,20,9,11,59,,61,61,4,4,3,3,0.6,0.6
2024-06-22T1700,2572A,102.2721,27.8415,凉山彝族自治州,邛海宾馆,,27,12,16,3,9,84,,81,81,9,10,9,9,0.8,0.7
2024-06-22T1700,2573A,102.2625,27.898,凉山彝族自治州,西昌市政府,,27,12,16,3,10,85,,80,80,9,7,9,8,0.6,0.6
2024-06-22T1700,2574A,102.2685,27.8851,凉山彝族自治州,凉山州政府,,28,16,18,7,6,89,,79,79,9,9,8,7,0.6,0.7
2024-06-22T1700,2575A,102.237,27.8914,凉山彝族自治州,长安,,26,18,21,9,12,81,,85,82,14,11,15,12,0.7,0.6
2024-06-22T1700,2212A,123.2,41.1953,辽阳市,宏伟区,细颗粒物(PM2.5),75,71,21,55,8,122,,94,94,15,12,10,10,0.9,0.6
2024-06-22T1700,2213A,123.1683,41.2495,辽阳市,新华园,颗粒物(PM10),60,70,26,34,15,132,,104,104,10,14,9,10,0.7,0.6
2024-06-22T1700,2214A,123.2354,41.2639,辽阳市,滨河路,,45,41,18,22,7,141,,98,98,10,13,8,9,1.0,0.7
2024-06-22T1700,2215A,123.149,41.2991,辽阳市,铁西工业园,,45,28,27,16,10,142,,97,97,6,16,10,11,0.8,0.8
2024-06-22T1700,2227A,125.1358,42.8845,辽源市,环保局,颗粒物(PM10),81,112,29,40,17,138,,128,128,9,13,7,8,0.6,0.7
2024-06-22T1700,3239A,125.0764,42.9078,辽源市,银鹰制药,颗粒物(PM10),136,222,45,51,19,138,,132,132,13,20,2,3,0.7,0.8
2024-06-22T1700,1625A,115.9848,36.4372,聊城市,区政府,臭氧1小时,101,58,53,28,39,201,,184,184,11,14,7,6,0.7,0.7
2024-06-22T1700,2878A,116.0072,36.4343,聊城市,聊大东校,臭氧1小时,112,52,45,33,45,223,,203,203,11,12,7,5,0.5,0.6
2024-06-22T1700,3200A,115.9819,36.4978,聊城市,监控中心,臭氧1小时,105,52,45,31,27,210,,194,194,11,14,8,7,0.6,0.6
2024-06-22T1700,3513A,116.0445,36.4361,聊城市,九州社区,臭氧1小时,103,56,54,34,34,206,,188,188,8,12,7,7,0.7,0.8
2024-06-22T1700,4018A,116.0567,36.4608,聊城市,星美广场,臭氧1小时,109,58,67,29,34,218,,201,201,15,17,7,7,0.8,0.8
2024-06-22T1700,2632A,94.3681,29.6376,林芝市,林芝监测站,,23,8,6,3,5,72,,81,81,3,5,7,7,0.3,0.3
2024-06-22T1700,2633A,94.3616,29.6616,林芝市,林芝人民医院,,24,6,10,3,7,74,,84,84,5,8,8,8,0.3,0.4
2024-06-22T1700,2603A,100.0781,23.8982,临沧市,市环保局,,22,22,27,13,20,37,,44,44,9,10,4,4,0.6,0.6
2024-06-22T1700,2604A,100.0894,23.8822,临沧市,市气象局,,23,23,26,12,20,32,,44,44,20,12,4,4,0.6,0.6
2024-06-22T1700,1733A,111.5531,36.0783,临汾市,临钢医院,臭氧1小时,100,70,69,23,22,200,,181,181,6,17,8,8,0.5,0.8
2024-06-22T1700,1734A,111.5028,36.0714,临汾市,技工学校,臭氧1小时,102,86,73,28,29,204,,192,192,10,24,8,9,0.5,0.7
2024-06-22T1700,1736A,111.5018,36.0855,临汾市,市委,臭氧1小时,106,78,80,18,22,212,,196,196,10,22,9,9,0.6,0.8
2024-06-22T1700,3018A,111.505,36.1014,临汾市,唐尧大酒店,臭氧1小时,83,57,63,19,21,186,,184,184,7,20,7,7,0.7,1
2024-06-22T1700,3668A,111.5036,36.0414,临汾市,城南,臭氧1小时,109,91,69,33,29,218,,196,196,11,23,10,7,0.5,0.8
2024-06-22T1700,2667A,103.2069,35.5993,临夏回族自治州,环保局,,40,24,26,14,21,127,,115,115,1,12,6,6,0.2,0.4
2024-06-22T1700,2668A,103.2417,35.6057,临夏回族自治州,建设大厦,,40,19,29,16,19,128,,115,115,4,12,8,8,0.2,0.3
2024-06-22T1700,1618A,118.3429,35.0532,临沂市,沂河小区,臭氧1小时,108,36,36,20,23,216,,194,194,18,16,8,9,0.4,0.4
2024-06-22T1700,1619A,118.295,35.0583,临沂市,鲁南制药厂,臭氧1小时,103,34,39,15,14,206,,207,207,5,8,7,8,0.5,0.5
2024-06-22T1700,1620A,118.2794,34.9976,临沂市,新光毛纺厂,臭氧1小时,92,27,29,15,20,193,,189,189,11,12,4,4,0.7,0.8
2024-06-22T1700,1621A,118.3956,35.0888,临沂市,河东保险公司,臭氧1小时,103,29,33,17,23,205,,180,180,9,10,4,5,0.5,0.5
2024-06-22T1700,3370A,118.3564,35.0215,临沂市,十里堡居委,臭氧1小时,101,,30,22,25,202,,196,196,10,11,7,7,0.6,0.7
2024-06-22T1700,3496A,118.3604,35.1084,临沂市,南坊新区,臭氧1小时,103,48,45,27,21,206,,187,187,14,13,7,7,0.7,0.7
2024-06-22T1700,3860A,118.3920,35.0300,临沂市,皇山花园小区,臭氧1小时,101,31,37,26,27,202,,186,186,15,16,8,9,0.6,0.7
2024-06-22T1700,1870A,109.4856,24.3895,柳州市,柳东小学,,21,11,16,3,9,67,,56,56,4,10,7,8,0.5,0.5
2024-06-22T1700,1871A,109.4157,24.3277,柳州市,环保监测站,,22,16,18,3,11,69,,54,54,7,9,6,7,0.4,0.6
2024-06-22T1700,1872A,109.389,24.341,柳州市,河西水厂,,22,18,21,9,10,70,,54,54,5,9,6,7,0.1,0.3
2024-06-22T1700,1873A,109.4311,24.2921,柳州市,市四中,,26,26,19,12,13,73,,59,59,5,11,5,6,0.2,0.3
2024-06-22T1700,1874A,109.4006,24.3631,柳州市,市九中,,22,22,23,6,11,69,,55,55,8,12,4,4,0.5,0.6
2024-06-22T1700,1875A,109.4958,24.3134,柳州市,古亭山,,24,24,22,8,11,68,,55,55,6,12,6,6,0.3,0.4
2024-06-22T1700,3402A,109.5422,24.3996,柳州市,市二中,,22,12,17,10,10,70,,54,54,6,11,6,8,0.3,0.3
2024-06-22T1700,2307A,116.5079,31.737,六安市,监测大楼,,35,21,10,16,12,109,,108,106,6,4,5,5,0.5,0.4
2024-06-22T1700,2308A,116.4738,31.7643,六安市,皖西学院,,35,21,12,12,11,109,,110,110,4,4,3,3,0.5,0.5
2024-06-22T1700,2309A,116.4996,31.7905,六安市,朝阳厂,,35,35,14,16,12,108,,108,108,4,2,8,7,0.5,0.4
2024-06-22T1700,2310A,116.5567,31.7886,六安市,开发区,,32,18,9,16,9,101,,108,106,8,5,5,4,0.7,0.7
2024-06-22T1700,2576A,104.8,26.5892,六盘水市,窑上,,,,,,,,,,,,,,,,
2024-06-22T1700,2577A,104.83,26.5917,六盘水市,黄土坡,,31,,12,12,10,99,,98,98,6,10,7,8,0.4,0.5
2024-06-22T1700,2578A,104.89,26.5939,六盘水市,水钢,,28,15,19,9,11,89,,95,95,10,14,8,9,0.3,0.5
2024-06-22T1700,2579A,104.8475,26.5894,六盘水市,民中,,31,6,12,3,9,98,,101,101,6,10,6,6,0.6,0.7
2024-06-22T1700,2580A,104.9544,26.5506,六盘水市,双水,,32,9,13,8,9,101,,98,98,4,10,18,14,0.2,0.3
2024-06-22T1700,2335A,117.0189,25.1181,龙岩市,龙岩师专,,,,,,,,,,,,,,,,
2024-06-22T1700,2336A,117.0217,25.1033,龙岩市,龙岩市监测站,,18,15,22,12,16,49,,48,48,6,9,3,4,0.3,0.4
2024-06-22T1700,2337A,117.0258,25.0661,龙岩市,闽西职业技术学院,,30,25,24,21,16,51,,52,52,4,9,4,10,0.3,0.4
2024-06-22T1700,2338A,117.0196,25.0306,龙岩市,龙岩学院,,25,24,22,17,16,49,,51,51,3,3,2,2,0.3,0.4
2024-06-22T1700,2665A,105.0822,33.3261,陇南市,汉王镇固水子,,,,,,,,,,,,,,,,
2024-06-22T1700,2885A,104.9339,33.3826,陇南市,滨江中学,,42,22,37,3,13,132,,118,118,6,12,7,11,0.3,0.4
2024-06-22T1700,3247A,104.955,33.371,陇南市,市总工会,,42,30,25,9,18,132,,125,125,6,5,3,4,0.3,0.2
2024-06-22T1700,2487A,111.9589,27.8901,娄底市,电视发射台,,37,37,33,15,13,55,,41,41,5,6,7,6,0.7,0.8
2024-06-22T1700,2488A,111.9975,27.725,娄底市,市监测站,,39,39,27,19,13,56,,51,51,3,4,5,6,0.5,0.5
2024-06-22T1700,2489A,112.0194,27.7314,娄底市,市委党校,,18,18,24,10,14,50,,46,46,4,5,7,7,0.3,0.3
2024-06-22T1700,2490A,111.9561,27.7569,娄底市,涟钢,颗粒物(PM10),51,51,53,22,23,35,,38,38,31,26,18,20,1.4,0.7
2024-06-22T1700,2491A,111.9892,27.7044,娄底市,市政府,,25,25,20,11,14,60,,57,57,3,5,6,6,0.2,0.2
2024-06-22T1700,1893A,105.4324,28.9634,泸州市,九狮山,,29,8,18,3,11,91,,52,52,14,17,7,5,0.2,0.3
2024-06-22T1700,1894A,105.4427,28.9063,泸州市,小市上码头,,29,22,23,12,10,92,,58,58,10,15,7,7,0.4,0.5
2024-06-22T1700,1895A,105.4241,28.8573,泸州市,兰田宪桥,,25,22,20,9,14,80,,53,53,13,13,7,4,0.2,0.2
2024-06-22T1700,1896A,105.4379,28.8833,泸州市,市环监站,,28,24,21,12,12,87,,56,56,13,15,8,8,0.5,0.6
2024-06-22T1700,3490A,105.3617,28.7703,泸州市,纳溪区环保局,,31,31,25,3,6,71,,48,48,18,24,3,4,0.4,0.6
2024-06-22T1700,2183A,111.1406,37.5211,吕梁市,环保局,颗粒物(PM10),148,245,112,46,34,124,,105,105,4,27,6,6,0.2,0.4
2024-06-22T1700,2185A,111.1297,37.5136,吕梁市,自来水公司,颗粒物(PM10),140,230,119,42,35,120,,103,103,6,26,5,8,0.2,0.4
2024-06-22T1700,2867A,111.1283,37.51,吕梁市,马茂庄小学,颗粒物(PM10),149,247,115,42,32,129,,110,110,6,34,4,5,0.2,0.4
2024-06-22T1700,1812A,112.3931,34.6516,洛阳市,市委党校,颗粒物(PM10),63,75,37,23,21,166,,144,144,9,8,4,3,0.5,0.7
2024-06-22T1700,1814A,112.4657,34.6871,洛阳市,豫西宾馆,颗粒物(PM10),70,89,46,24,23,175,,163,163,15,14,3,3,0.4,0.7
2024-06-22T1700,1815A,112.494,34.6886,洛阳市,河南林校,颗粒物(PM10),58,66,29,25,18,164,,152,152,13,13,4,3,0.3,0.6
2024-06-22T1700,1816A,112.3844,34.623,洛阳市,开发区管委会,颗粒物(PM10),59,68,30,21,17,164,,138,138,10,10,11,10,0.3,0.5
2024-06-22T1700,1817A,112.4267,34.6258,洛阳市,市委新办公区,臭氧1小时,64,63,29,29,22,171,,146,146,8,6,6,5,0.3,0.5
2024-06-22T1700,3340A,112.6005,34.6326,洛阳市,伊滨,臭氧1小时,63,47,30,23,19,170,,157,157,13,11,8,5,0.3,0.5
2024-06-22T1700,3341A,112.4951,34.6332,洛阳市,中移产业园,臭氧1小时,69,68,31,26,22,175,,151,151,10,9,10,8,0.5,0.8
2024-06-22T1700,3593A,112.5736,34.8993,洛阳市,吉利监测站,颗粒物(PM10),61,72,36,12,20,139,,147,147,12,11,7,6,0.2,0.3
2024-06-22T1700,3635A,112.3677,34.662,洛阳市,河科大西苑校区,颗粒物(PM10),63,75,36,23,16,169,,150,150,4,8,5,5,0.3,0.6
2024-06-22T1700,3636A,112.4388,34.6781,洛阳市,英才小学,臭氧1小时,62,58,40,25,22,169,,151,151,7,6,3,3,0.3,0.6
2024-06-22T1700,2399A,114.051,33.5699,漯河市,三五一五工厂,臭氧1小时,104,59,32,22,17,208,,198,198,7,8,6,6,0.6,0.7
2024-06-22T1700,2400A,114.0055,33.5698,漯河市,漯河大学,臭氧1小时,104,61,35,22,22,208,,201,201,11,9,7,6,0.5,0.7
2024-06-22T1700,2401A,114.0138,33.5828,漯河市,市水利局,臭氧1小时,104,58,32,24,23,208,,197,197,6,8,7,7,0.6,0.7
2024-06-22T1700,2402A,114.0261,33.5698,漯河市,市广电局,臭氧1小时,104,51,35,21,17,208,,197,197,4,5,2,2,0.6,0.7
2024-06-22T1700,3478A,113.9749,33.5664,漯河市,市图书馆,臭氧1小时,104,50,26,20,18,208,,197,197,4,6,4,4,0.4,0.6
2024-06-22T1700,3479A,114.0967,33.5906,漯河市,召陵区卫健委,臭氧1小时,104,53,30,25,22,208,,196,196,6,9,5,4,0.4,0.6
2024-06-22T1700,1798A,118.5092,31.6837,马鞍山市,湖东路四小,,33,30,24,15,13,103,,84,84,6,8,5,4,0.7,0.8
2024-06-22T1700,1799A,118.5024,31.6449,马鞍山市,开发区,,32,26,20,12,10,102,,86,86,10,11,8,8,0.7,0.7
2024-06-22T1700,1800A,118.5228,31.7231,马鞍山市,慈湖,,34,34,27,19,18,107,,89,89,13,19,8,9,0.7,1.1
2024-06-22T1700,1802A,118.6245,31.7241,马鞍山市,濮塘,,28,14,16,10,16,89,,74,74,4,8,2,2,0.7,0.8
2024-06-22T1700,3633A,118.4918,31.6809,马鞍山市,雨山,,34,20,25,12,11,106,,88,88,7,9,5,6,0.6,0.7
2024-06-22T1700,1686A,111.0286,21.4688,茂名市,电白南海,,15,14,12,9,7,47,,48,48,4,4,4,4,0.4,0.4
2024-06-22T1700,1687A,110.9294,21.6533,茂名市,茂石化七小,,16,12,12,7,10,50,,49,49,8,10,7,8,0.4,0.4
2024-06-22T1700,1688A,110.9107,21.6687,茂名市,健康路,,18,7,13,3,4,57,,56,56,5,7,9,10,0.4,0.4
2024-06-22T1700,1689A,110.8592,21.6828,茂名市,高岭,,44,44,23,12,10,49,,48,48,10,9,7,7,0.5,0.5
2024-06-22T1700,3450A,111.01,21.5165,茂名市,电白水东,,13,,6,3,6,41,,44,44,9,6,2,2,0.4,0.4
2024-06-22T1700,2539A,104.0308,30.0478,眉山市,黑龙滩水库,,43,21,29,12,16,136,,111,111,2,25,5,6,0.3,0.4
2024-06-22T1700,2540A,103.8416,30.0874,眉山市,气象局,臭氧1小时,62,31,20,9,10,169,,122,122,8,34,8,9,0.2,0.3
2024-06-22T1700,3137A,103.8578,30.0744,眉山市,市委党校,臭氧1小时,64,19,20,3,4,171,,120,120,13,35,7,8,0.3,0.3
2024-06-22T1700,3148A,103.8291,30.0564,眉山市,区人社局,臭氧1小时,68,14,25,3,4,174,,123,123,16,38,5,6,0.2,0.3
2024-06-22T1700,1690A,116.1231,24.3284,梅州市,梅江月梅,,25,19,20,17,27,67,,62,62,1,6,6,6,0.5,0.5
2024-06-22T1700,1691A,116.0797,24.2719,梅州市,梅县新城,,28,27,21,19,12,62,,59,59,3,7,3,4,0.4,0.4
2024-06-22T1700,1692A,116.1248,24.2654,梅州市,环境监控中心,,37,37,25,17,11,57,,53,53,6,11,3,3,0.4,0.6
2024-06-22T1700,3315A,116.1233,24.2991,梅州市,梅龙,,30,,21,21,15,63,,59,59,3,11,7,7,0.5,0.7
2024-06-22T1700,1878A,104.7778,31.4741,绵阳市,富乐山,,45,23,31,12,21,143,,98,98,1,19,8,8,0.4,0.6
2024-06-22T1700,1879A,104.7563,31.4535,绵阳市,市人大,,42,25,37,6,19,134,,92,92,13,26,6,9,0.2,0.5
2024-06-22T1700,1880A,104.6697,31.4668,绵阳市,高新区自来水公司,,50,24,38,3,16,160,,107,107,6,24,5,7,0.3,0.6
2024-06-22T1700,1881A,104.7287,31.5075,绵阳市,三水厂,,45,22,35,8,22,144,,96,96,6,27,7,8,0.2,0.5
2024-06-22T1700,3491A,104.69,31.5322,绵阳市,西科大附属小学,,45,23,36,10,21,142,,97,97,4,25,5,8,0.2,0.4
2024-06-22T1700,3492A,104.5648,31.5343,绵阳市,安州区旅游局,,49,18,32,3,17,154,,100,100,5,19,6,11,0.3,0.6
2024-06-22T1700,1784A,129.61,44.561,牡丹江市,环保大楼,,19,,13,13,8,56,,30,28,10,10,6,7,0.3,0.3
2024-06-22T1700,1785A,129.6115,44.5782,牡丹江市,文化广场,,18,18,21,11,19,46,,28,22,17,11,7,6,0.5,0.4
2024-06-22T1700,1786A,129.5904,44.5963,牡丹江市,第一医院,,19,13,15,13,16,43,,30,23,19,10,4,4,0.5,0.4
2024-06-22T1700,1787A,129.6364,44.6075,牡丹江市,机车工厂,,28,22,19,19,15,40,,28,22,14,7,5,3,0.4,0.3
2024-06-22T1700,1788A,129.6386,44.5462,牡丹江市,第一中学,,19,14,13,12,7,59,,29,29,12,11,4,4,0.3,0.3
2024-06-22T1700,2531A,105.0703,29.61,内江市,市监测站,,41,29,21,24,19,130,,82,82,15,21,9,8,0.6,0.6
2024-06-22T1700,2532A,105.0717,29.5947,内江市,东兴区政府,,40,23,24,13,9,128,,76,76,14,17,9,8,0.4,0.4
2024-06-22T1700,2533A,105.0653,29.5817,内江市,内江二中,,39,26,22,9,15,122,,71,71,18,23,11,10,0.5,0.6
2024-06-22T1700,2534A,105.0406,29.5822,内江市,内江日报社,,40,22,21,20,16,128,,72,72,15,21,12,11,0.6,0.6
2024-06-22T1700,2628A,92.0657,31.4846,那曲市,那曲监测站,,43,43,25,8,7,134,,121,121,5,6,7,6,0.3,0.4
2024-06-22T1700,3128A,92.0506,31.4797,那曲市,那曲会议中心,颗粒物(PM10),74,97,31,14,10,122,,123,123,17,7,3,3,0.4,0.4
2024-06-22T1700,1290A,115.8931,28.6843,南昌市,省外办,,35,33,33,24,21,80,,83,83,11,16,7,12,0.5,0.5
2024-06-22T1700,1291A,115.8886,28.7003,南昌市,省林业公司,,39,39,32,19,16,89,,88,88,11,19,7,12,0.7,0.6
2024-06-22T1700,1292A,115.8126,28.7442,南昌市,林科所,,39,39,23,17,12,82,,80,80,1,15,9,9,0.4,0.3
2024-06-22T1700,1294A,115.8518,28.687,南昌市,建工学校,,36,36,35,13,15,89,,84,84,14,18,8,14,0.5,0.4
2024-06-22T1700,1295A,115.8921,28.6424,南昌市,象湖,,32,32,29,19,15,80,,92,92,17,15,5,8,0.4,0.4
2024-06-22T1700,1296A,115.7423,28.7996,南昌市,武术学校,,48,,14,33,20,20,,60,43,3,5,9,9,0.6,0.5
2024-06-22T1700,1298A,115.9314,28.6842,南昌市,省站,,32,32,30,18,17,85,,88,88,12,18,7,11,0.6,0.6
2024-06-22T1700,3046A,115.9084,28.6062,南昌市,机电学校,,38,38,35,19,17,85,,88,88,7,13,10,12,0.6,0.6
2024-06-22T1700,3690A,115.9721,28.7031,南昌市,外国语学校,,35,35,35,18,16,85,,89,89,15,16,6,8,0.3,0.3
2024-06-22T1700,1905A,106.056,30.8064,南充市,西山风景区,,45,,17,15,13,142,,106,106,4,11,4,5,0.4,0.5
2024-06-22T1700,1906A,106.0789,30.8023,南充市,南充市委,,44,30,28,12,14,139,,103,103,7,21,5,6,0.2,0.4
2024-06-22T1700,1907A,106.1031,30.8217,南充市,南充炼油厂,,45,30,33,16,17,141,,99,99,10,23,6,8,0.1,0.3
2024-06-22T1700,1908A,106.1064,30.7856,南充市,高坪区监测站,,44,26,27,6,11,140,,98,98,6,19,6,5,0.1,0.3
2024-06-22T1700,1909A,106.0642,30.7636,南充市,嘉陵区环保局,,46,35,29,14,15,146,,105,105,8,20,5,6,0.2,0.3
2024-06-22T1700,1910A,106.1087,30.8388,南充市,市环境监测站,,44,32,28,19,16,138,,104,104,8,20,6,8,0.4,0.6
2024-06-22T1700,1151A,118.8086,32.1065,南京市,迈皋桥,,37,22,15,14,10,116,,84,84,2,7,4,4,0.6,0.5
2024-06-22T1700,1152A,118.7538,32.0551,南京市,草场门,,39,14,14,14,12,124,,94,94,16,17,4,4,0.7,0.7
2024-06-22T1700,1153A,118.7794,32.0745,南京市,山西路,,44,19,15,7,6,139,,101,101,7,12,5,4,0.4,0.4
2024-06-22T1700,1154A,118.7752,32.0023,南京市,中华门,,30,14,12,12,8,95,,82,82,8,10,6,6,1.0,0.6
2024-06-22T1700,1155A,118.8109,32.0309,南京市,瑞金路,,40,28,20,12,10,125,,93,93,5,6,8,7,0.7,0.4
2024-06-22T1700,1156A,118.7997,32.0754,南京市,玄武湖,,34,18,18,12,7,108,,79,79,9,11,2,2,0.6,0.5
2024-06-22T1700,1157A,118.6414,32.0931,南京市,浦口,,38,10,22,10,8,120,,99,99,5,9,4,4,0.4,0.4
2024-06-22T1700,1158A,118.7356,31.9996,南京市,奥体中心,,38,18,14,17,13,119,,95,95,5,10,5,5,0.8,0.5
2024-06-22T1700,1159A,118.9125,32.1028,南京市,仙林大学城,,42,22,15,9,9,134,,98,98,8,11,7,7,0.7,0.7
2024-06-22T1700,3422A,118.8436,31.9198,南京市,江宁彩虹桥,,35,15,18,14,12,112,,88,88,5,11,4,4,0.8,0.6
2024-06-22T1700,3423A,119.0138,31.6494,南京市,溧水永阳,,28,,10,8,10,88,,80,80,7,11,4,4,0.6,0.5
2024-06-22T1700,3424A,118.879,31.3302,南京市,高淳老职中,,23,8,11,3,9,72,,73,66,7,9,4,4,0.5,0.5
2024-06-22T1700,3427A,118.8554,32.3578,南京市,六合雄州,,35,23,18,16,11,109,,90,90,2,10,6,6,0.8,0.7
2024-06-22T1700,1401A,108.3103,22.7881,南宁市,二十一中,,24,24,25,12,12,75,,65,65,6,8,2,2,0.6,0.6
2024-06-22T1700,1402A,108.3141,22.8528,南宁市,北湖,,27,27,24,10,16,73,,62,62,8,10,2,3,0.6,0.7
2024-06-22T1700,1403A,108.3206,22.8225,南宁市,市监测站,,23,23,22,6,16,73,,63,63,6,12,2,3,0.6,0.7
2024-06-22T1700,1404A,108.3829,22.8037,南宁市,大自然花园,,21,20,25,9,15,66,,58,58,6,9,4,5,0.5,0.6
2024-06-22T1700,1405A,108.4394,22.7904,南宁市,仙葫,,22,22,24,11,16,63,,56,56,16,14,8,9,0.2,0.4
2024-06-22T1700,1406A,108.2397,22.8467,南宁市,区农职院,,25,13,25,3,14,78,,66,66,8,12,5,5,0.6,0.6
2024-06-22T1700,1407A,108.3275,22.735,南宁市,英华嘉园,,20,19,25,10,15,63,,54,54,10,16,5,5,0.5,0.6
2024-06-22T1700,1408A,108.2257,22.7757,南宁市,沙井镇街道办,,20,16,33,11,15,64,,56,56,5,19,2,3,0.6,0.6
2024-06-22T1700,3401A,108.4834,22.7618,南宁市,红星社区,,19,19,23,12,14,54,,55,55,12,8,4,5,0.5,0.6
2024-06-22T1700,2331A,118.0966,26.6761,南平市,茫荡山,,,,,,,,,,,,,,,,
2024-06-22T1700,2332A,118.1681,26.6369,南平市,南平市监测站,,28,28,25,15,11,53,,70,70,5,8,4,4,0.5,0.6
2024-06-22T1700,2333A,118.1825,26.6489,南平市,南平铝业有限公司,,28,21,23,19,13,51,,66,66,5,7,5,5,0.4,0.5
2024-06-22T1700,2334A,118.1756,26.6272,南平市,南平七中,,17,14,22,9,11,53,,74,74,3,6,4,4,0.6,0.7
2024-06-22T1700,1168A,120.9098,31.9663,南通市,狼山街道,,,2,17,,10,57,,73,73,11,30,9,10,0.6,0.7
2024-06-22T1700,1169A,120.86,32.0005,南通市,虹桥,,18,11,24,3,11,55,,76,75,21,37,5,5,0.6,0.8
2024-06-22T1700,1170A,120.87,32.02,南通市,城中,,20,14,28,3,18,64,,85,82,18,37,5,6,0.5,0.6
2024-06-22T1700,1171A,120.94,31.93,南通市,星湖花园,,,,14,0,10,60,,72,72,16,39,3,3,0.7,0.8
2024-06-22T1700,1172A,120.81,32.0417,南通市,紫琅学院,,20,10,15,3,9,64,,82,82,26,43,8,7,1.1,1
2024-06-22T1700,3291A,121.067,32.062,南通市,通州监测站,,23,6,22,3,13,71,,92,92,9,32,11,12,0.7,0.9
2024-06-22T1700,3432A,120.9348,31.9883,南通市,环境教育馆,,20,19,25,3,14,61,,80,80,20,42,8,8,0.5,0.7
2024-06-22T1700,2404A,112.5224,33.0122,南阳市,瓦房庄,臭氧1小时,70,58,29,21,16,176,,152,152,10,18,5,4,0.5,0.6
2024-06-22T1700,2405A,112.5003,32.9735,南阳市,汉画馆,颗粒物(PM10),56,61,33,25,19,162,,146,146,20,22,3,2,0.4,0.6
2024-06-22T1700,2406A,112.5573,33.027,南阳市,气象站,臭氧1小时,75,55,23,17,12,180,,150,150,17,20,4,4,0.3,0.5
2024-06-22T1700,2407A,112.5481,32.9689,南阳市,理工学院,臭氧1小时,65,57,33,17,19,172,,150,150,15,20,7,6,0.3,0.6
2024-06-22T1700,4008A,112.5234,32.9922,南阳市,卧龙区政府,臭氧1小时,60,55,27,26,19,168,,147,147,14,21,3,2,0.6,0.9
2024-06-22T1700,1234A,121.8358,29.911,宁波市,区环保大楼,颗粒物(PM10),69,87,60,26,24,54,,87,87,128,50,11,7,0.9,0.9
2024-06-22T1700,1235A,121.56,29.82,宁波市,万里学院,,35,30,33,24,22,107,,97,97,9,13,5,5,0.6,0.7
2024-06-22T1700,1236A,121.713,29.9572,宁波市,龙赛医院,,32,32,32,16,16,100,,96,96,24,17,4,5,0.5,0.5
2024-06-22T1700,1239A,121.633,29.7733,宁波市,钱湖水厂,,40,31,33,28,24,102,,91,91,14,10,4,4,0.5,0.5
2024-06-22T1700,1240A,121.5856,29.8635,宁波市,太古小学,,31,28,41,21,21,99,,89,89,5,12,5,5,0.6,0.8
2024-06-22T1700,1241A,121.524,29.8674,宁波市,市环境监测中心,,33,30,30,17,18,103,,95,95,14,15,3,3,0.6,0.7
2024-06-22T1700,2871A,121.6147,29.9017,宁波市,万里国际学校,,31,20,27,20,21,98,,95,95,16,12,4,4,0.3,0.4
2024-06-22T1700,3710A,121.5594,29.8975,宁波市,白沙活动中心,,30,23,29,13,15,96,,91,91,4,8,7,8,0.4,0.5
2024-06-22T1700,2339A,119.5001,26.6946,宁德市,金涵水库,,,,,,,,,,,,,,,,
2024-06-22T1700,2341A,119.5388,26.6612,宁德市,宁德市监测站,,48,45,38,33,21,106,,77,77,15,21,8,6,1.0,0.7
2024-06-22T1700,3209A,119.5231,26.6562,宁德市,宁德一中,,38,30,36,22,22,119,,74,74,11,13,7,6,1.0,0.9
2024-06-22T1700,2618A,98.8601,25.8567,怒江傈僳族自治州,州监测站,,29,17,31,8,24,90,,78,78,5,17,10,10,0.4,0.5
2024-06-22T1700,2619A,98.8546,25.8417,怒江傈僳族自治州,泸水一中,,43,43,40,22,22,85,,68,68,9,16,6,5,0.4,0.5
2024-06-22T1700,1888A,101.6891,26.571,攀枝花市,弄弄坪,,34,34,58,16,24,87,,102,102,10,26,9,22,0.4,0.6
2024-06-22T1700,1889A,101.5769,26.5928,攀枝花市,河门口,,37,37,45,18,23,95,,107,107,13,21,10,20,1.0,1.2
2024-06-22T1700,1890A,101.7169,26.585,攀枝花市,炳草岗,,39,39,54,11,24,89,,107,107,13,24,15,35,0.4,0.6
2024-06-22T1700,1891A,101.7369,26.5008,攀枝花市,仁和,,29,21,33,12,18,90,,97,97,8,11,7,8,0.2,0.3
2024-06-22T1700,2835A,101.7227,26.567,攀枝花市,四十中小,,32,32,42,19,22,99,,112,112,10,18,7,31,0.3,0.4
2024-06-22T1700,1604A,122.0303,41.1489,盘锦市,开发区,,45,25,21,22,15,144,,123,123,8,9,5,4,0.4,0.3
2024-06-22T1700,1605A,122.0485,41.0883,盘锦市,兴隆台,,48,,18,22,16,153,,126,126,7,11,3,3,0.4,0.3
2024-06-22T1700,1606A,121.8297,41.1028,盘锦市,新生街道,,44,28,22,15,11,140,,122,122,7,9,4,4,0.4,0.3
2024-06-22T1700,1832A,113.3257,33.742,平顶山市,新华旅馆,臭氧1小时,89,85,37,23,29,191,,186,186,13,12,7,5,0.4,0.5
2024-06-22T1700,1833A,113.2919,33.737,平顶山市,规划设计院,臭氧1小时,69,51,26,29,18,175,,168,168,12,14,6,5,0.6,0.8
2024-06-22T1700,1834A,113.182,33.774,平顶山市,平顶山工学院,,48,39,32,9,16,151,,161,161,6,11,6,5,0.5,0.7
2024-06-22T1700,3204A,113.3025,33.73,平顶山市,规划局,臭氧1小时,68,63,34,31,21,174,,168,168,14,14,5,4,0.6,0.7
2024-06-22T1700,3594A,112.8867,33.9116,平顶山市,石龙区,颗粒物(PM10),52,53,46,24,23,134,,152,152,7,18,6,6,0.5,0.5
2024-06-22T1700,2656A,106.6692,35.5461,平凉市,聚贤嘉苑,,49,41,43,10,12,156,,148,148,4,23,7,9,0.2,0.3
2024-06-22T1700,2657A,106.7021,35.5307,平凉市,博物馆,,50,32,36,12,14,160,,152,152,5,21,9,6,0.2,0.3
2024-06-22T1700,2347A,114.0997,27.5002,萍乡市,武功山,,16,,6,3,3,50,,60,55,3,3,11,9,0.4,0.4
2024-06-22T1700,2348A,113.8385,27.6434,萍乡市,中医院,,22,22,30,3,16,42,,42,42,2,10,3,4,0.5,0.6
2024-06-22T1700,2349A,113.8493,27.6253,萍乡市,市政府车库,,15,,18,7,12,46,,43,43,4,14,6,9,0.5,0.7
2024-06-22T1700,2350A,113.8676,27.6435,萍乡市,市环保局,,20,20,23,7,12,43,,41,41,4,14,8,7,0.3,0.5
2024-06-22T1700,2351A,113.866,27.6198,萍乡市,安源区政府,,,17,23,,9,44,,38,38,2,11,2,9,0.3,0.5
2024-06-22T1700,2319A,119.0141,25.4325,莆田市,荔城区仓后路,,41,41,34,18,21,89,,101,101,9,13,8,7,0.6,0.6
2024-06-22T1700,2320A,119.0015,25.4553,莆田市,莆田市监测站,,40,40,31,13,19,106,,97,97,12,11,12,10,0.6,0.6
2024-06-22T1700,2321A,119.1119,25.4561,莆田市,涵江区六中,,28,28,32,11,17,81,,99,99,8,19,8,10,0.5,0.6
2024-06-22T1700,2322A,119.1013,25.3215,莆田市,秀屿区政府,,,,33,,12,59,,83,83,7,13,10,12,0.4,0.4
2024-06-22T1700,2323A,118.981,25.4792,莆田市,东圳水库,,,,,,,,,,,,,,,,
2024-06-22T1700,2392A,115.0312,35.7636,濮阳市,环保局,臭氧1小时,78,69,35,26,37,182,,167,167,7,9,11,7,0.4,0.5
2024-06-22T1700,2394A,115.0574,35.7609,濮阳市,油田运输公司,臭氧1小时,83,67,52,27,38,186,,175,175,5,3,8,6,0.6,0.6
2024-06-22T1700,2395A,115.0866,35.7754,濮阳市,油田物探公司,臭氧1小时,83,,41,18,45,186,,169,169,10,7,9,7,0.7,0.7
2024-06-22T1700,3021A,115,35.7668,濮阳市,濮水河管理处,臭氧1小时,62,65,36,37,37,169,,149,149,4,5,9,6,0.5,0.6
2024-06-22T1700,2601A,100.98,22.7633,普洱市,市环保局,,19,19,16,10,14,50,,40,40,4,5,12,11,0.3,0.4
2024-06-22T1700,2602A,100.9817,22.8322,普洱市,普洱第二中学,,,11,15,8,11,46,,44,44,,9,11,10,0.0,0.2
2024-06-22T1700,2262A,131.0518,45.8751,七台河市,新一中,,20,7,6,3,5,61,,58,58,5,5,9,9,0.7,0.6
2024-06-22T1700,3345A,131.0577,45.7879,七台河市,中波台,,15,,5,7,5,47,,44,44,12,10,6,6,0.2,0.3
2024-06-22T1700,3637A,131.0176,45.7761,七台河市,人民广场,,15,,7,7,7,46,,43,43,13,10,8,9,0.2,0.2
2024-06-22T1700,3684A,130.8781,45.8222,七台河市,新建矿广场,,,,4,6,10,49,,42,42,14,16,16,12,0.2,0.3
2024-06-22T1700,1779A,123.9305,47.3636,齐齐哈尔市,安居小区,,17,17,15,11,4,26,,41,34,20,10,6,6,0.4,0.4
2024-06-22T1700,1780A,123.9488,47.3386,齐齐哈尔市,中心广场,,18,16,10,12,8,28,,41,32,23,11,9,8,0.4,0.3
2024-06-22T1700,1781A,123.9483,47.3227,齐齐哈尔市,农牧车辆厂,,24,24,18,9,6,36,,44,40,16,8,7,7,0.3,0.2
2024-06-22T1700,1783A,123.945,47.2988,齐齐哈尔市,市环境监测站,,13,13,11,7,8,37,,42,38,12,8,5,5,0.2,0.2
2024-06-22T1700,3662A,123.6333,47.2075,齐齐哈尔市,富区青少年活动中心,,15,6,6,3,5,45,,47,44,8,7,5,5,0.3,0.3
2024-06-22T1700,2591A,107.9783,26.5747,黔东南苗族侗族自治州,市环境监测站,,18,10,18,10,14,55,,65,59,14,6,3,3,0.4,0.3
2024-06-22T1700,2881A,107.8908,26.5311,黔东南苗族侗族自治州,凯里学院,,21,,14,7,11,67,,61,61,8,5,3,3,0.2,0.3
2024-06-22T1700,2593A,107.5228,26.2403,黔南布依族苗族自治州,小围寨,,16,6,12,3,9,49,,52,52,5,4,4,4,0.3,0.4
2024-06-22T1700,3538A,107.5175,26.2978,黔南布依族苗族自治州,沙坝,,16,6,12,3,8,51,,45,45,7,4,3,3,0.4,0.5
2024-06-22T1700,2589A,104.9022,25.0925,黔西南布依族苗族自治州,场坝街,,19,10,13,7,7,58,,54,54,6,7,3,5,0.3,0.3
2024-06-22T1700,2590A,104.8811,25.0992,黔西南布依族苗族自治州,坪东大道,,,19,17,3,7,62,,55,55,3,5,,4,0.1,0.3
2024-06-22T1700,2502A,108.6236,21.9667,钦州市,市环保站,,22,19,24,3,7,69,,58,58,13,16,6,8,0.5,0.6
2024-06-22T1700,2503A,108.6549,21.9481,钦州市,沙埠小学,,22,22,27,12,12,70,,63,63,6,15,4,7,0.4,0.4
2024-06-22T1700,2504A,108.5989,21.7431,钦州市,港区一小,,22,22,31,7,9,64,,53,53,12,12,10,9,1.5,0.7
2024-06-22T1700,3404A,108.5959,21.9633,钦州市,北职校,,31,31,22,6,10,70,,55,55,8,12,8,8,0.5,0.5
2024-06-22T1700,1042A,119.5134,39.8207,秦皇岛市,北戴河环保局,臭氧1小时,93,91,52,57,23,194,,134,134,14,17,5,3,0.8,0.6
2024-06-22T1700,1043A,119.7493,40.0116,秦皇岛市,第一关,臭氧1小时,101,122,59,72,47,202,,164,164,11,15,3,3,0.7,0.6
2024-06-22T1700,1044A,119.5897,39.9499,秦皇岛市,监测站,臭氧1小时,100,113,70,60,37,200,,156,156,8,12,4,2,1.0,0.8
2024-06-22T1700,1046A,119.5251,39.9041,秦皇岛市,建设大厦,细颗粒物(PM2.5),109,120,52,82,26,210,,170,170,34,22,3,3,0.9,0.6
2024-06-22T1700,3132A,119.610547,39.943889,秦皇岛市,文明里,细颗粒物(PM2.5),134,107,65,102,58,197,,152,152,13,16,4,2,0.9,0.8
2024-06-22T1700,1307A,120.6659,36.2403,青岛市,仰口,,41,41,10,17,10,126,,111,111,12,5,5,4,0.3,0.3
2024-06-22T1700,1310A,120.4134,36.0658,青岛市,市南区东部子站,臭氧1小时,59,27,11,9,5,167,,143,143,9,15,7,8,0.5,0.4
2024-06-22T1700,1311A,120.3664,36.1032,青岛市,四方区子站,臭氧1小时,60,36,19,14,11,168,,142,142,29,20,11,10,0.7,0.5
2024-06-22T1700,1312A,120.2994,36.054,青岛市,市南区西部子站,颗粒物(PM10),58,66,21,34,11,160,,146,146,32,17,10,8,0.6,0.5
2024-06-22T1700,1313A,120.4581,36.0858,青岛市,崂山区子站,,47,24,10,12,8,150,,145,145,13,15,9,9,0.5,0.4
2024-06-22T1700,1314A,120.1983,35.9608,青岛市,黄岛区子站,臭氧1小时,84,39,16,22,12,187,,159,159,16,14,8,6,0.9,0.5
2024-06-22T1700,1315A,120.3999,36.3083,青岛市,城阳区子站,,49,46,17,22,11,154,,133,133,35,21,9,8,0.6,0.5
2024-06-22T1700,1966A,120.0405,35.8735,青岛市,黄岛区4号,臭氧1小时,80,41,16,17,7,184,,167,167,20,13,10,9,0.8,0.5
2024-06-22T1700,3362A,120.5014,36.4034,青岛市,即墨2号,臭氧1小时,59,35,11,19,8,167,,137,137,15,11,7,7,0.5,0.4
2024-06-22T1700,3642A,120.3503,36.0736,青岛市,市北区南部,臭氧1小时,83,32,18,14,9,186,,143,143,14,18,7,6,0.7,0.5
2024-06-22T1700,3643A,120.3948,36.1805,青岛市,李沧区北部,,50,48,18,22,13,160,,142,142,40,25,10,9,0.6,0.4
2024-06-22T1700,1702A,113.0426,23.691,清远市,环保大楼,,46,46,34,22,16,127,,93,93,11,16,5,7,0.5,0.5
2024-06-22T1700,1703A,113.0208,23.7106,清远市,凤城街办,细颗粒物(PM2.5),59,43,38,42,22,126,,89,89,10,12,4,4,0.4,0.4
2024-06-22T1700,3025A,113.0477,23.6344,清远市,技师学院,,44,41,37,27,21,138,,106,106,17,18,5,5,0.5,0.5
2024-06-22T1700,3318A,112.9903,23.7403,清远市,清新太和,,,66,37,37,16,143,,94,94,,20,8,8,0.2,0.3
2024-06-22T1700,3455A,113.076,23.7198,清远市,清城东城,细颗粒物(PM2.5),53,51,44,37,24,113,,84,84,7,16,5,5,0.5,0.6
2024-06-22T1700,2661A,107.6325,35.7357,庆阳市,庆阳五中,,44,33,38,7,9,139,,137,137,5,11,2,3,0.2,0.2
2024-06-22T1700,2662A,107.6364,35.7067,庆阳市,市环保局,,44,33,36,7,9,139,,134,134,4,10,4,5,0.3,0.3
2024-06-22T1700,1916A,103.7897,25.5035,曲靖市,环境监测站,,30,30,26,3,12,72,,64,64,7,10,2,2,0.5,0.5
2024-06-22T1700,1917A,103.8,25.5364,曲靖市,烟厂办公区,,24,12,25,6,12,76,,68,68,6,9,3,4,0.3,0.4
2024-06-22T1700,3376A,103.7947,25.462,曲靖市,南苑二区,,26,14,25,10,12,81,,68,68,7,9,4,6,0.5,0.5
2024-06-22T1700,3377A,103.7444,25.5261,曲靖市,曲靖师范学院,,26,25,21,8,13,82,,79,79,6,9,4,5,0.5,0.5
2024-06-22T1700,1264A,118.8692,28.9398,衢州市,环保大楼,,19,19,21,12,11,60,,61,61,10,20,4,4,0.2,0.3
2024-06-22T1700,1265A,118.8709,28.9666,衢州市,实验学校,,25,21,19,17,9,54,,55,55,7,19,2,2,0.2,0.1
2024-06-22T1700,1266A,118.8621,28.9808,衢州市,衢州学院,,22,19,20,15,8,60,,65,65,7,20,4,3,0.3,0.4
2024-06-22T1700,1611A,118.5819,24.9117,泉州市,涂山街,,26,26,32,16,19,80,,93,93,7,15,4,4,0.4,0.5
2024-06-22T1700,1612A,118.5972,24.8978,泉州市,津头埔,,25,23,31,17,18,77,,91,91,11,17,3,3,0.4,0.4
2024-06-22T1700,1613A,118.6663,24.9424,泉州市,万安,,33,26,29,23,16,76,,89,89,6,12,3,3,0.3,0.4
2024-06-22T1700,1614A,118.6117,24.9604,泉州市,清源山,,,,,,,,,,,,,,,,
2024-06-22T1700,3529A,118.6333,24.9264,泉州市,城华南路,,27,27,28,11,13,72,,86,86,12,15,4,4,0.5,0.4
2024-06-22T1700,2626A,88.8876,29.2718,日喀则市,日喀则监测站,,43,6,8,3,6,136,,127,127,5,5,5,6,0.4,0.4
2024-06-22T1700,3726A,88.8781,29.2426,日喀则市,林业技术推广中心,,42,6,10,3,2,132,,123,123,5,6,4,5,0.4,0.5
2024-06-22T1700,1659A,119.471,35.4209,日照市,监测站,臭氧1小时,105,36,16,22,16,209,,187,187,15,14,12,10,0.7,0.4
2024-06-22T1700,1660A,119.523,35.4216,日照市,市政府广场,臭氧1小时,73,68,24,24,10,178,,172,172,34,12,15,11,0.9,0.6
2024-06-22T1700,1661A,119.5587,35.4044,日照市,港务局,臭氧1小时,103,48,22,17,10,206,,182,182,18,9,11,8,0.8,0.5
2024-06-22T1700,3507A,119.5328,35.4625,日照市,职业技术学院,臭氧1小时,82,75,24,27,13,185,,176,176,30,13,12,8,0.9,0.6
2024-06-22T1700,3604A,119.3266,35.1044,日照市,岚山环保分局,臭氧1小时,85,27,19,17,12,188,,184,184,8,11,7,7,0.7,0.6
2024-06-22T1700,1835A,111.1922,34.7752,三门峡市,市政府,臭氧1小时,92,47,44,18,17,193,,150,150,15,33,15,11,0.5,0.5
2024-06-22T1700,1836A,111.1587,34.7942,三门峡市,开发区,臭氧1小时,107,45,40,21,18,213,,165,165,16,22,15,13,0.4,0.4
2024-06-22T1700,1838A,111.143,34.7955,三门峡市,风景区,,,,,,,,,,,,,,,,
2024-06-22T1700,3039A,111.1911,34.7829,三门峡市,三门峡市第一小学,臭氧1小时,100,63,48,20,15,200,,158,158,14,26,14,10,0.5,0.6
2024-06-22T1700,3598A,111.1,34.7167,三门峡市,富达温泉假日酒店,,,,55,,26,,,83,,,28,,15,,0.6
2024-06-22T1700,2324A,117.6211,26.2625,三明市,三钢,,,31,31,22,20,45,,52,52,,19,14,17,1.3,1.7
2024-06-22T1700,2325A,117.635,26.2714,三明市,三明二中,,23,22,23,16,15,51,,61,61,6,14,6,8,0.5,0.7
2024-06-22T1700,2326A,117.6028,26.2378,三明市,三元区政府,,24,24,28,16,14,48,,57,57,6,14,2,5,0.3,0.4
2024-06-22T1700,2327A,117.7275,26.3108,三明市,洋溪,,,,,,,,,,,,,,,,
2024-06-22T1700,1876A,109.5078,18.2489,三亚市,河东子站,,16,6,12,3,4,51,,50,50,2,3,3,3,0.4,0.4
2024-06-22T1700,1877A,109.4964,18.2681,三亚市,河西子站,,16,6,10,3,4,49,,46,46,3,5,1,1,0.3,0.3
2024-06-22T1700,3540A,109.7348,18.3443,三亚市,君悦子站,,17,10,9,3,3,54,,48,48,3,5,1,2,0.3,0.3
2024-06-22T1700,2624A,91.7608,29.2313,山南市,山南监测站,,38,10,11,3,5,119,,110,110,2,3,4,5,0.2,0.2
2024-06-22T1700,2625A,91.7706,29.2436,山南市,山南人民医院,,36,18,15,6,7,114,,107,107,11,7,6,6,0.3,0.3
2024-06-22T1700,1674A,116.6794,23.3667,汕头市,金平子站,,30,30,19,19,12,61,,62,62,8,8,7,5,0.7,0.8
2024-06-22T1700,1675A,116.7244,23.3633,汕头市,龙湖子站,,34,34,18,18,11,54,,58,58,8,6,8,7,0.7,0.6
2024-06-22T1700,1676A,116.7258,23.2775,汕头市,濠江子站,,35,32,21,24,13,63,,57,57,8,6,6,6,0.7,0.8
2024-06-22T1700,1677A,116.7519,23.4714,汕头市,澄海子站,,37,37,23,18,12,50,,55,55,10,9,5,5,0.7,0.7
2024-06-22T1700,1678A,116.6092,23.2539,汕头市,潮阳子站,,36,36,19,13,9,64,,62,62,4,4,7,5,0.5,0.5
2024-06-22T1700,3444A,116.454,23.2684,汕头市,潮南峡山,,36,25,24,25,16,54,,58,58,6,6,5,5,0.3,0.4
2024-06-22T1700,3624A,116.4069,23.2533,汕头市,潮南子站,,40,40,28,15,15,61,,61,61,5,4,8,7,0.6,0.6
2024-06-22T1700,1693A,115.3653,22.775,汕尾市,市环保局,,,,18,8,12,40,,45,45,1,2,4,4,0.5,0.5
2024-06-22T1700,1694A,115.3706,22.7898,汕尾市,市政府,,14,7,17,3,13,44,,50,50,1,2,6,7,0.5,0.5
2024-06-22T1700,1695A,115.3622,22.7925,汕尾市,新城中学,,23,23,18,9,19,46,,47,47,3,2,4,11,0.3,0.3
2024-06-22T1700,2645A,109.9154,33.8715,商洛市,监测站,,46,38,40,18,17,146,,119,119,8,13,8,5,0.5,0.5
2024-06-22T1700,3045A,109.9643,33.8471,商洛市,商州区中学,颗粒物(PM10),68,86,46,24,11,148,,116,116,11,17,14,9,0.7,0.7
2024-06-22T1700,2408A,115.6702,34.4285,商丘市,环境监测站,臭氧1小时,104,42,41,22,30,208,,195,195,5,5,8,8,0.4,0.5
2024-06-22T1700,2409A,115.6458,34.4045,商丘市,粮食局,臭氧1小时,97,37,35,26,22,197,,183,183,6,7,4,5,0.5,0.5
2024-06-22T1700,2410A,115.6293,34.3948,商丘市,睢阳区环保局,臭氧1小时,107,54,42,20,32,214,,203,203,8,7,5,4,0.5,0.6
2024-06-22T1700,3171A,115.6071,34.4465,商丘市,梁园区档案局,臭氧1小时,107,51,36,17,25,214,,192,192,6,8,7,7,0.5,0.6
2024-06-22T1700,1141A,121.4,31.238,上海市,普陀,,28,,38,19,31,64,,85,85,19,38,4,6,0.4,0.5
2024-06-22T1700,1142A,121.478,31.2036,上海市,十五厂,,22,12,37,10,34,69,,92,92,17,43,6,7,0.6,0.7
