timepoint,stationcode,longitude,latitude,area,positionname,primarypollutant,aqi,pm10,pm10_24h,pm2_5,pm2_5_24h,o3,o3_24h,o3_8h,o3_8h_24h,no2,no2_24h,so2,so2_24h,co,co_24h
2024-02-13T1900,2566A,102.1879,31.914,阿坝藏族羌族自治州,州农科所,,15,15,19,8,11,22,,25,25,26,6,19,8,0.8,0.9
2024-02-13T1900,2568A,102.2502,31.8896,阿坝藏族羌族自治州,马师校,,22,12,11,6,5,70,,76,76,8,3,4,4,0.6,0.5
2024-02-13T1900,3994A,102.2165,31.9024,阿坝藏族羌族自治州,马尔康中学西区,,22,12,10,9,6,68,,73,73,5,2,5,5,0.5,0.4
2024-02-13T1900,2695A,80.292,41.1694,阿克苏地区,电视台,颗粒物(PM10),63,76,93,29,44,99,,86,86,10,38,7,9,0.6,1.2
2024-02-13T1900,2696A,80.2613,41.1551,阿克苏地区,艺术中心,颗粒物(PM10),67,83,121,27,57,99,,86,86,11,40,7,10,0.4,1.6
2024-02-13T1900,2204A,105.6467,38.8363,阿拉善盟,西城区西花园,颗粒物(PM10),88,125,43,26,17,96,,90,90,3,6,11,11,0.4,0.5
2024-02-13T1900,2205A,105.6985,38.8411,阿拉善盟,蒙二幼,颗粒物(PM10),66,82,36,18,11,90,,86,86,6,8,5,5,0.5,0.6
2024-02-13T1900,2206A,105.724,38.8516,阿拉善盟,环保局新楼,颗粒物(PM10),65,80,24,25,9,97,,89,89,5,4,5,5,0.4,0.5
2024-02-13T1900,2708A,88.1264,47.8517,阿勒泰地区,市站,,21,21,23,9,15,66,,70,70,26,19,6,6,0.3,0.3
2024-02-13T1900,2630A,80.1161,32.5,阿里地区,阿里监测站,,28,14,5,4,3,88,,88,88,2,4,7,7,0.4,0.4
2024-02-13T1900,3192A,80.0903,32.5028,阿里地区,阿里藏医院,,30,13,7,4,3,93,,93,93,2,2,4,5,0.4,0.4
2024-02-13T1900,2642A,109.0318,32.6537,安康市,香溪洞,"颗粒物(PM10),细颗粒物(PM2.5)",53,56,56,37,41,88,,75,75,8,7,8,10,0.5,0.6
2024-02-13T1900,2643A,109.0281,32.6939,安康市,安康市监测站,细颗粒物(PM2.5),72,82,81,52,56,16,,66,64,56,22,12,12,1.7,1
2024-02-13T1900,2644A,109.0072,32.6975,安康市,汉滨区检察院,细颗粒物(PM2.5),62,59,57,44,45,73,,78,78,19,10,10,10,0.6,0.6
2024-02-13T1900,2291A,117.0809,30.5177,安庆市,环科院,,41,41,53,28,35,78,,81,81,10,28,10,10,0.6,0.7
2024-02-13T1900,2292A,117.0331,30.5119,安庆市,马山宾馆,,48,48,55,31,38,54,,84,84,47,36,7,8,0.4,0.4
2024-02-13T1900,2294A,116.9896,30.6145,安庆市,安庆大学,,35,35,43,24,28,91,,96,96,11,13,8,9,0.4,0.7
2024-02-13T1900,3173A,117.0598,30.5351,安庆市,市人大,,42,42,56,27,39,73,,88,88,22,28,7,8,0.5,0.6
2024-02-13T1900,3123A,105.9408,26.2431,安顺市,凤凰山,,40,36,32,28,27,91,,94,94,8,8,15,18,0.5,0.4
2024-02-13T1900,3124A,105.9439,26.2564,安顺市,金钟山,,46,39,35,32,27,91,,92,92,8,6,21,18,0.5,0.5
2024-02-13T1900,3125A,105.8983,26.2481,安顺市,娄家坡,,42,36,34,29,28,92,,93,93,5,4,13,13,0.6,0.6
2024-02-13T1900,1819A,114.3551,36.1017,安阳市,红庙街,细颗粒物(PM2.5),103,110,130,77,86,97,,107,107,17,16,11,12,0.2,0.4
2024-02-13T1900,1820A,114.361,36.0681,安阳市,银杏小区,细颗粒物(PM2.5),110,101,119,83,104,103,,106,106,6,12,12,11,1.0,1.1
2024-02-13T1900,3141A,114.3922,36.0878,安阳市,信访局,细颗粒物(PM2.5),105,113,124,79,99,110,,111,111,6,13,8,8,0.6,0.7
2024-02-13T1900,3669A,114.4705,36.0637,安阳市,左辅环卫站,细颗粒物(PM2.5),99,115,119,74,88,84,,102,102,13,12,11,9,0.8,0.9
2024-02-13T1900,3703A,114.2917,36.0949,安阳市,安钢职工学校,细颗粒物(PM2.5),113,152,148,85,99,100,,105,104,43,31,11,11,,0.8
2024-02-13T1900,1748A,123.044,41.1196,鞍山市,深沟寺,细颗粒物(PM2.5),103,114,98,77,64,100,,106,105,10,10,8,12,0.7,0.7
2024-02-13T1900,1749A,123.011,41.0931,鞍山市,太阳城,细颗粒物(PM2.5),80,99,95,59,55,98,,112,109,12,10,10,13,0.7,0.8
2024-02-13T1900,1750A,123.0485,41.1442,鞍山市,太平,细颗粒物(PM2.5),98,111,102,73,65,102,,112,107,15,12,6,9,0.6,0.7
2024-02-13T1900,1751A,122.9642,41.0971,鞍山市,铁西三道街,细颗粒物(PM2.5),98,109,111,73,67,95,,103,98,17,26,10,20,0.8,0.9
2024-02-13T1900,1752A,122.9341,41.0833,鞍山市,铁西工业园区,细颗粒物(PM2.5),92,98,104,68,64,94,,106,104,15,16,11,16,0.8,1.3
2024-02-13T1900,1753A,123.022,41.0821,鞍山市,明达新区,细颗粒物(PM2.5),200,,93,150,78,93,,104,102,11,11,11,16,0.7,0.7
2024-02-13T1900,2195A,107.4212,40.761,巴彦淖尔市,附二中,颗粒物(PM10),79,108,75,36,27,87,,81,81,7,9,5,11,0.4,0.5
2024-02-13T1900,2196A,107.37,40.7372,巴彦淖尔市,市环保大楼,颗粒物(PM10),91,132,70,30,25,81,,78,78,6,5,5,5,0.4,0.4
2024-02-13T1900,1956A,86.1472,41.7538,巴音郭楞蒙古自治州,孔雀公园,颗粒物(PM10),77,103,94,19,27,75,,86,80,14,18,4,5,0.3,0.5
2024-02-13T1900,1957A,86.1972,41.7166,巴音郭楞蒙古自治州,棉纺厂,颗粒物(PM10),80,109,110,20,26,90,,84,84,2,19,2,3,0.2,0.5
2024-02-13T1900,1958A,86.2357,41.7173,巴音郭楞蒙古自治州,经济开发区,颗粒物(PM10),85,120,91,12,24,91,,89,89,6,11,4,5,0.3,0.4
2024-02-13T1900,2914A,106.7677,31.8794,巴中市,苏山坪,细颗粒物(PM2.5),57,51,54,40,41,107,,94,94,7,8,6,6,0.4,0.4
2024-02-13T1900,3182A,106.7656,31.8545,巴中市,丽阳花园,细颗粒物(PM2.5),88,86,75,65,58,22,,69,69,82,31,7,5,1.9,0.9
2024-02-13T1900,3183A,106.7418,31.8654,巴中市,圣泉水务公司,细颗粒物(PM2.5),68,62,57,49,47,36,,79,78,56,19,6,5,1.0,0.7
2024-02-13T1900,3616A,106.7616,31.8344,巴中市,市中心医院,细颗粒物(PM2.5),73,74,69,53,56,30,,79,79,60,27,6,5,1.2,0.9
2024-02-13T1900,2235A,122.7911,45.6077,白城市,洮北区环保局,,,27,125,21,35,78,,115,112,,8,8,8,,0.4
2024-02-13T1900,2236A,122.8738,45.5725,白城市,市环保局,,49,49,108,19,38,66,,78,77,10,8,8,8,0.4,0.5
2024-02-13T1900,2231A,126.4219,41.9171,白山市,喜丰,细颗粒物(PM2.5),74,91,103,54,53,92,,101,99,14,11,20,17,1.4,1.3
2024-02-13T1900,2232A,126.4077,41.9419,白山市,环保局,细颗粒物(PM2.5),102,108,108,76,66,93,,105,103,20,17,14,14,1.3,1.2
2024-02-13T1900,2647A,104.1724,36.5446,白银市,第三小学,,49,49,79,20,44,85,,87,87,6,32,9,56,0.2,0.9
2024-02-13T1900,2648A,104.1465,36.5482,白银市,动力公司,颗粒物(PM10),52,53,65,12,45,84,,93,93,11,27,7,36,0.4,0.9
2024-02-13T1900,2512A,106.6103,23.9011,百色市,市监测站,颗粒物(PM10),53,55,66,30,43,86,,91,91,7,12,12,17,0.7,0.8
2024-02-13T1900,2513A,106.6538,23.8859,百色市,市中心血站,,49,35,55,34,42,83,,86,86,9,12,9,20,0.6,0.6
2024-02-13T1900,3406A,106.6085,23.8798,百色市,祈福高中,颗粒物(PM10),51,52,54,34,42,87,,90,90,6,13,9,18,0.8,0.8
2024-02-13T1900,2270A,117.396,32.939,蚌埠市,工人疗养院,颗粒物(PM10),51,51,45,23,24,88,,94,94,11,7,7,6,0.5,0.5
2024-02-13T1900,2271A,117.3605,32.9427,蚌埠市,百货大楼,颗粒物(PM10),53,56,48,33,27,83,,92,92,20,12,4,4,0.8,0.7
2024-02-13T1900,2273A,117.4185,32.8911,蚌埠市,蚌埠学院,"颗粒物(PM10),细颗粒物(PM2.5)",52,53,44,36,28,83,,91,91,11,7,7,5,0.7,0.6
2024-02-13T1900,2274A,117.3533,32.9673,蚌埠市,淮上区政府,颗粒物(PM10),51,51,47,30,27,81,,92,92,19,10,6,6,0.6,0.6
2024-02-13T1900,2275A,117.3145,32.8977,蚌埠市,高新区,颗粒物(PM10),51,51,46,33,31,86,,94,94,7,9,6,5,0.6,0.6
2024-02-13T1900,3715A,117.3092,32.9314,蚌埠市,蚌埠田家炳中学,颗粒物(PM10),56,62,55,35,31,82,,94,94,16,15,8,12,0.4,0.4
2024-02-13T1900,1585A,109.8756,40.6532,包头市,市环境监测站,细颗粒物(PM2.5),77,92,101,56,65,27,,70,67,81,54,25,27,1.4,1.8
2024-02-13T1900,1587A,109.9991,40.5842,包头市,包头八中,颗粒物(PM10),67,84,130,41,86,40,,73,73,66,54,16,34,0.9,2
2024-02-13T1900,1588A,109.8538,40.6821,包头市,青山宾馆,细颗粒物(PM2.5),110,101,101,83,71,42,,69,69,80,53,33,26,2.0,1.8
2024-02-13T1900,1589A,109.8642,40.6288,包头市,惠龙物流,颗粒物(PM10),65,80,100,42,60,53,,77,77,47,49,26,32,0.9,1.5
2024-02-13T1900,1590A,110.0377,40.5546,包头市,东河鸿龙湾,细颗粒物(PM2.5),60,60,127,43,84,79,,82,82,27,51,16,21,0.8,1.6
2024-02-13T1900,3283A,109.9154,40.5685,包头市,滨河大厦,颗粒物(PM10),58,66,99,32,65,60,,83,83,40,42,18,25,1.0,1.5
2024-02-13T1900,3419A,109.9447,40.6261,包头市,包头市委党校,细颗粒物(PM2.5),70,77,85,51,49,61,,76,76,39,43,22,29,0.8,1.4
2024-02-13T1900,3683A,109.8331,40.6576,包头市,昆区政府,细颗粒物(PM2.5),99,98,106,74,87,48,,64,64,60,55,40,34,1.4,1.8
2024-02-13T1900,1930A,107.185,34.3063,宝鸡市,庙沟村,细颗粒物(PM2.5),107,97,83,80,59,114,,106,106,12,10,8,7,0.9,0.8
2024-02-13T1900,1931A,107.0708,34.3017,宝鸡市,竹园沟,细颗粒物(PM2.5),112,106,78,84,57,83,,112,112,30,19,7,6,0.9,0.7
2024-02-13T1900,1932A,107.1906,34.3672,宝鸡市,三陆医院,细颗粒物(PM2.5),109,95,103,82,78,125,,124,124,30,32,9,8,0.8,0.8
2024-02-13T1900,1933A,107.1431,34.3547,宝鸡市,监测站,细颗粒物(PM2.5),93,97,92,69,69,123,,117,117,28,22,8,5,0.8,0.7
2024-02-13T1900,1934A,107.1186,34.3739,宝鸡市,技工学校,细颗粒物(PM2.5),87,83,100,64,73,121,,118,118,33,26,10,9,0.9,0.8
2024-02-13T1900,1935A,107.3906,34.3528,宝鸡市,陈仓区环保局家属楼,细颗粒物(PM2.5),114,108,141,86,109,128,,129,129,27,44,11,32,0.9,1.2
2024-02-13T1900,1936A,107.2058,34.3497,宝鸡市,文理学院,细颗粒物(PM2.5),104,103,106,78,74,133,,125,125,30,29,12,10,0.8,0.8
2024-02-13T1900,1937A,107.2386,34.3622,宝鸡市,三迪小学,细颗粒物(PM2.5),120,104,113,91,80,118,,124,124,44,33,13,10,0.7,0.8
2024-02-13T1900,1051A,115.493,38.8632,保定市,游泳馆,细颗粒物(PM2.5),202,245,207,152,134,105,,128,128,35,34,12,10,1.4,1.2
2024-02-13T1900,1052A,115.5213,38.8959,保定市,华电二区,细颗粒物(PM2.5),172,180,154,130,128,119,,124,124,18,19,9,9,0.8,0.8
2024-02-13T1900,1053A,115.4713,38.9108,保定市,接待中心,细颗粒物(PM2.5),160,172,156,122,120,106,,117,117,21,17,9,10,1.1,1
2024-02-13T1900,1054A,115.4612,38.8416,保定市,地表水厂,细颗粒物(PM2.5),207,212,187,157,129,98,,124,124,52,45,11,8,1.9,1.4
2024-02-13T1900,3581A,115.31981,38.95208,保定市,满城区生态环境分局,细颗粒物(PM2.5),175,183,186,132,141,97,,130,130,38,42,10,10,1.3,1.4
2024-02-13T1900,3582A,115.47694,38.76408,保定市,清苑区第二中学,细颗粒物(PM2.5),160,210,197,122,123,121,,130,130,27,34,15,13,1.1,1.1
2024-02-13T1900,3583A,115.62909,39.02311,保定市,徐水物探局,细颗粒物(PM2.5),144,200,198,110,129,112,,119,119,20,30,10,9,0.9,1
2024-02-13T1900,4004A,115.4202,38.8656,保定市,双鹰农机,细颗粒物(PM2.5),180,187,157,136,118,117,,132,132,24,32,10,11,1.1,1
2024-02-13T1900,4034A,115.5150,38.8590,保定市,植保所站,细颗粒物(PM2.5),207,186,162,157,137,93,,124,124,43,39,8,7,0.9,1
2024-02-13T1900,2594A,99.1678,25.1081,保山市,市环境监测站,,28,27,32,18,20,88,,92,92,5,6,5,6,0.4,0.4
2024-02-13T1900,2595A,99.1711,25.1328,保山市,市环保局,,29,26,33,20,23,91,,95,95,3,4,6,7,0.4,0.5
2024-02-13T1900,1867A,109.1436,21.4086,北海市,海滩公园,颗粒物(PM10),59,67,58,15,24,102,,105,105,6,8,7,7,1.0,0.6
2024-02-13T1900,1868A,109.0981,21.4661,北海市,新市环保局,,47,47,52,19,24,99,,100,100,11,9,6,6,0.2,0.3
2024-02-13T1900,1869A,109.1778,21.5233,北海市,北海工业园,,48,48,59,29,30,101,,105,105,7,9,6,7,0.3,0.4
2024-02-13T1900,3400A,109.1911,21.4415,北海市,龙潭自来水厂,,50,50,53,26,26,94,,99,99,9,6,7,7,0.5,0.5
2024-02-13T1900,1001A,116.3621,39.8784,北京市,万寿西宫,细颗粒物(PM2.5),186,164,158,140,117,108,,123,123,52,50,6,5,1.4,0.9
2024-02-13T1900,1002A,116.2202,40.2915,北京市,定陵,细颗粒物(PM2.5),138,149,122,105,92,100,,107,107,19,16,4,4,0.8,0.7
2024-02-13T1900,1003A,116.4174,39.9289,北京市,东四,细颗粒物(PM2.5),169,184,172,128,121,104,,115,115,45,43,11,9,1.4,1
2024-02-13T1900,1004A,116.4072,39.8863,北京市,天坛,细颗粒物(PM2.5),162,170,155,123,116,85,,116,116,29,45,2,4,0.9,1
2024-02-13T1900,1005A,116.462,39.9365,北京市,农展馆,细颗粒物(PM2.5),156,170,172,119,119,95,,113,113,44,48,5,4,1.0,1
2024-02-13T1900,1006A,116.3392,39.9295,北京市,官园,细颗粒物(PM2.5),168,177,157,127,112,125,,129,129,35,42,7,6,1.0,1
2024-02-13T1900,1007A,116.2878,39.9611,北京市,海淀万柳,细颗粒物(PM2.5),140,162,136,107,97,64,,110,109,82,49,3,3,0.9,0.7
2024-02-13T1900,1008A,116.6636,40.135,北京市,顺义新城,细颗粒物(PM2.5),150,175,168,115,118,136,,131,131,22,27,5,3,0.8,0.8
2024-02-13T1900,1009A,116.6275,40.3275,北京市,怀柔镇,细颗粒物(PM2.5),159,172,134,121,96,83,,115,115,65,22,8,7,1.2,0.8
2024-02-13T1900,1010A,116.2296,40.217,北京市,昌平镇,细颗粒物(PM2.5),144,169,138,110,93,118,,124,124,41,34,3,3,0.8,0.7
2024-02-13T1900,1011A,116.3966,39.9821,北京市,奥体中心,细颗粒物(PM2.5),115,126,135,87,102,72,,113,113,76,53,7,7,0.8,0.9
2024-02-13T1900,1012A,116.184,39.9136,北京市,古城,细颗粒物(PM2.5),144,159,133,110,93,93,,114,114,45,32,3,3,1.1,0.9
2024-02-13T1900,3281A,115.9718,40.4529,北京市,延庆夏都,细颗粒物(PM2.5),85,92,110,63,85,58,,87,87,38,24,5,4,0.8,0.9
2024-02-13T1900,3417A,117.0709,40.1465,北京市,平谷新城,细颗粒物(PM2.5),201,222,188,151,132,83,,125,125,36,16,5,4,1.5,1.1
2024-02-13T1900,3418A,116.8336,40.4095,北京市,密云新城,细颗粒物(PM2.5),142,168,166,108,110,130,,132,132,25,22,5,4,0.8,0.8
2024-02-13T1900,3672A,116.1541,39.8204,北京市,丰台云岗,细颗粒物(PM2.5),159,168,130,121,93,147,,131,131,21,22,4,4,0.8,0.6
2024-02-13T1900,3673A,116.6804,39.9081,北京市,通州东关,细颗粒物(PM2.5),163,180,193,124,137,115,,121,121,28,41,7,5,1.0,1
2024-02-13T1900,3674A,115.9577,39.7603,北京市,房山燕山,细颗粒物(PM2.5),122,114,102,92,83,120,,141,141,22,20,1,3,0.6,0.6
2024-02-13T1900,3675A,116.4672,39.7733,北京市,大兴旧宫,细颗粒物(PM2.5),169,166,165,128,121,119,,117,117,18,35,1,3,0.9,0.8
2024-02-13T1900,3694A,115.986,40.4563,北京市,延庆石河营,细颗粒物(PM2.5),80,89,103,59,80,63,,94,94,33,25,3,4,0.8,1
2024-02-13T1900,3695A,116.6151,40.3053,北京市,怀柔新城,细颗粒物(PM2.5),140,156,129,107,91,110,,120,120,30,20,4,3,0.8,0.7
2024-02-13T1900,3696A,116.2545,39.8768,北京市,丰台小屯,细颗粒物(PM2.5),145,171,151,111,104,120,,121,121,35,51,3,3,0.8,0.9
2024-02-13T1900,3697A,116.84,40.3844,北京市,密云镇,细颗粒物(PM2.5),166,181,176,126,134,66,,114,113,74,35,3,3,1.0,0.9
2024-02-13T1900,1761A,123.8275,41.3064,本溪市,大峪,细颗粒物(PM2.5),74,87,90,54,56,84,,105,101,23,16,10,9,1.0,1
2024-02-13T1900,1762A,123.7567,41.3325,本溪市,溪湖,细颗粒物(PM2.5),83,101,112,61,67,96,,99,99,21,17,21,23,1.2,1.1
2024-02-13T1900,1763A,123.7169,41.3094,本溪市,彩屯,细颗粒物(PM2.5),98,109,122,73,76,77,,83,82,43,35,33,33,3.3,2.7
2024-02-13T1900,1764A,123.7669,41.2864,本溪市,东明,细颗粒物(PM2.5),79,76,86,58,66,86,,98,96,31,16,14,15,0.7,0.6
2024-02-13T1900,1765A,123.7992,41.2664,本溪市,新立屯,细颗粒物(PM2.5),64,58,81,46,49,109,,110,110,14,13,12,13,0.6,0.6
2024-02-13T1900,1766A,123.8142,41.3472,本溪市,威宁,细颗粒物(PM2.5),72,83,94,52,56,80,,98,95,26,18,8,15,0.7,0.7
2024-02-13T1900,2587A,105.2864,27.3125,毕节市,八中,,40,35,60,28,51,112,,96,96,12,8,15,10,0.5,0.6
2024-02-13T1900,2588A,105.31,27.2944,毕节市,师专,,40,35,68,28,59,112,,97,97,11,16,13,11,0.5,0.8
2024-02-13T1900,3537A,105.3631,27.3533,毕节市,长征村,细颗粒物(PM2.5),54,49,79,38,61,126,,108,108,12,7,20,11,0.7,0.9
2024-02-13T1900,1629A,118.0018,37.3617,滨州市,第二水厂,颗粒物(PM10),63,75,95,44,57,114,,121,121,19,23,10,14,0.9,1.1
2024-02-13T1900,1630A,117.9776,37.393,滨州市,北中新校,颗粒物(PM10),88,125,95,51,52,42,,117,110,92,24,13,16,1.3,1
2024-02-13T1900,3514A,117.9378,37.3956,滨州市,中海酒店,细颗粒物(PM2.5),63,69,81,45,53,104,,117,117,21,20,14,24,0.9,0.8
2024-02-13T1900,3515A,117.9378,37.3553,滨州市,开发区一中,颗粒物(PM10),64,78,97,41,59,103,,119,119,26,19,17,22,0.7,0.8
2024-02-13T1900,3516A,118.0917,37.694,滨州市,金海六路,细颗粒物(PM2.5),80,105,128,59,80,86,,119,118,28,26,16,39,0.8,0.9
2024-02-13T1900,4028A,117.9956,37.3753,滨州市,滨州市西街道办事处,颗粒物(PM10),81,111,99,58,60,66,,113,110,47,25,16,18,1.1,0.9
2024-02-13T1900,2311A,115.8072,33.8399,亳州市,污水处理厂,颗粒物(PM10),59,68,75,38,50,85,,97,97,15,11,8,7,0.7,0.7
2024-02-13T1900,2312A,115.7789,33.8518,亳州市,三国揽胜宫,颗粒物(PM10),59,67,80,37,43,84,,98,98,16,12,9,8,0.7,0.7
2024-02-13T1900,3332A,115.7633,33.8034,亳州市,亳州学院,颗粒物(PM10),56,61,73,34,45,85,,98,98,8,8,8,7,1.0,0.9
2024-02-13T1900,2693A,82.0485,44.8556,博尔塔拉蒙古自治州,市党校,细颗粒物(PM2.5),73,70,39,53,22,74,,77,77,27,15,31,13,0.8,0.6
2024-02-13T1900,2694A,82.0806,44.8969,博尔塔拉蒙古自治州,市环保局,颗粒物(PM10),57,63,42,36,23,74,,73,73,18,18,10,8,0.5,0.4
2024-02-13T1900,1071A,116.8842,38.2991,沧州市,沧县城建局,细颗粒物(PM2.5),140,153,123,107,78,76,,101,101,42,19,8,9,1.4,1.2
2024-02-13T1900,1072A,116.8584,38.3254,沧州市,电视转播站,细颗粒物(PM2.5),110,118,118,83,79,96,,108,108,21,15,14,16,0.8,0.8
2024-02-13T1900,1073A,116.8709,38.3228,沧州市,市环保局,细颗粒物(PM2.5),127,134,122,96,81,55,,100,99,58,21,11,12,1.0,0.8
2024-02-13T1900,3324A,116.8136,38.3004,沧州市,河北水利电力学院,细颗粒物(PM2.5),97,107,127,72,78,97,,105,105,20,15,18,19,0.6,0.8
2024-02-13T1900,2622A,97.1806,31.1273,昌都市,昌都监测站,,30,30,19,14,11,60,,69,69,23,13,8,7,0.6,0.4
2024-02-13T1900,3719A,97.1714,31.1406,昌都市,昌都会议中心,,26,5,9,5,8,82,,80,80,3,5,4,4,0.2,0.3
2024-02-13T1900,2690A,88.1236,43.8886,昌吉回族自治州,天山天池,,30,,16,21,10,79,,85,85,5,7,8,9,0.5,0.6
2024-02-13T1900,2692A,87.2717,44.0297,昌吉回族自治州,新区政务中心,,48,48,68,29,55,123,,96,96,13,18,7,6,1.0,1.1
2024-02-13T1900,3613A,87.3095,44.0142,昌吉回族自治州,亚心广场,,,51,63,41,52,119,,98,98,12,13,,7,0.8,0.8
2024-02-13T1900,1119A,125.3325,43.9166,长春市,食品厂,细颗粒物(PM2.5),99,120,104,74,72,68,,100,93,22,16,14,17,0.7,0.7
2024-02-13T1900,1120A,125.2863,43.9027,长春市,客车厂,细颗粒物(PM2.5),98,118,103,73,68,69,,94,85,21,16,12,19,0.9,0.9
2024-02-13T1900,1121A,125.2841,43.8463,长春市,邮电学院,细颗粒物(PM2.5),97,129,112,72,74,76,,98,94,19,21,18,26,0.8,0.8
2024-02-13T1900,1122A,125.3716,43.8772,长春市,劳动公园,细颗粒物(PM2.5),83,105,104,61,63,67,,87,82,24,18,11,12,0.6,0.7
2024-02-13T1900,1123A,125.3297,43.8805,长春市,园林处,细颗粒物(PM2.5),90,105,101,67,64,75,,102,94,21,15,18,18,0.8,1
2024-02-13T1900,1124A,125.4605,43.79,长春市,净月潭,细颗粒物(PM2.5),103,111,91,77,60,85,,104,101,13,9,9,9,0.8,0.7
2024-02-13T1900,1126A,125.3863,43.8447,长春市,经开区环卫处,细颗粒物(PM2.5),95,101,104,71,64,63,,103,96,35,11,32,11,0.8,0.7
2024-02-13T1900,1127A,125.245,43.7783,长春市,高新区管委会,细颗粒物(PM2.5),120,122,99,91,73,80,,105,100,19,11,18,19,1.2,1.1
2024-02-13T1900,1128A,125.1761,43.8325,长春市,岱山公园,细颗粒物(PM2.5),85,115,98,63,71,77,,98,95,12,12,7,11,0.7,0.8
2024-02-13T1900,1335A,113.0833,28.2325,长沙市,经开区环保局,,39,35,51,27,32,80,,82,79,3,3,6,5,0.5,0.5
2024-02-13T1900,1336A,112.8872,28.2189,长沙市,高开区环保局,颗粒物(PM10),58,66,55,32,38,60,,76,74,19,7,6,5,0.8,0.7
2024-02-13T1900,1337A,113.0792,28.2053,长沙市,马坡岭,细颗粒物(PM2.5),67,56,60,48,45,58,,70,62,5,4,8,8,0.6,0.6
2024-02-13T1900,1338A,112.9394,28.19,长沙市,湖南师范大学,细颗粒物(PM2.5),58,54,57,41,41,50,,61,59,21,12,7,7,0.9,0.8
2024-02-13T1900,1339A,113.0178,28.1322,长沙市,雨花区环保局,,46,46,53,32,37,64,,63,63,5,5,5,5,0.5,0.7
2024-02-13T1900,1340A,112.9792,28.2597,长沙市,伍家岭,颗粒物(PM10),57,64,77,38,49,38,,41,41,26,21,7,6,0.8,0.8
2024-02-13T1900,1341A,113.0014,28.1944,长沙市,火车新站,,48,48,60,31,39,44,,53,50,25,18,6,5,0.9,0.8
2024-02-13T1900,1342A,112.9844,28.1178,长沙市,天心区环保局,颗粒物(PM10),52,54,55,29,34,69,,69,69,5,6,6,6,0.4,0.4
2024-02-13T1900,1343A,112.8908,28.1308,长沙市,湖南中医药大学,颗粒物(PM10),56,62,68,38,47,29,,60,56,30,21,6,5,0.9,0.8
2024-02-13T1900,1344A,112.9581,28.3611,长沙市,沙坪,,46,42,43,32,34,39,,46,45,12,9,6,6,0.7,0.6
2024-02-13T1900,1727A,113.1147,36.1547,长治市,清华站,细颗粒物(PM2.5),64,63,66,46,41,79,,106,106,30,22,17,24,0.8,0.9
2024-02-13T1900,1728A,113.1031,36.1989,长治市,监测站,颗粒物(PM10),58,65,94,29,53,73,,99,99,34,36,14,29,0.6,1
2024-02-13T1900,1730A,113.0886,36.2125,长治市,审计局,,46,46,69,24,48,82,,100,100,20,26,13,29,0.6,1.1
2024-02-13T1900,1731A,113.0844,36.1856,长治市,长治八中,颗粒物(PM10),52,53,70,24,41,76,,103,103,27,28,9,23,0.6,1
2024-02-13T1900,2845A,113.1569,36.1911,长治市,德盛苑,,40,40,60,24,41,104,,114,114,12,18,15,30,0.8,1.1
2024-02-13T1900,3568A,113.06,36.0464,长治市,向阳小学,颗粒物(PM10),88,126,79,63,47,85,,104,104,42,23,27,29,0.9,1
2024-02-13T1900,3569A,112.8792,36.3144,长治市,屯留一中,细颗粒物(PM2.5),75,86,63,55,47,80,,98,98,20,21,14,25,0.7,0.8
2024-02-13T1900,3570A,113.235,36.3489,长治市,潞城四中,"颗粒物(PM10),细颗粒物(PM2.5)",65,80,95,47,63,65,,126,117,52,38,14,23,1.3,1.4
2024-02-13T1900,1854A,111.6975,28.9703,常德市,市二中,颗粒物(PM10),54,58,76,35,63,84,,80,80,12,16,8,8,0.6,0.8
2024-02-13T1900,1857A,111.7158,29.1456,常德市,白鹤山,颗粒物(PM10),61,71,88,35,48,54,,59,59,3,3,3,3,0.5,0.7
2024-02-13T1900,3138A,111.7153,29.0289,常德市,武陵区永安,颗粒物(PM10),55,59,85,36,63,82,,82,82,9,12,8,8,0.9,1.1
2024-02-13T1900,3139A,111.6892,28.9881,常德市,鼎城区玉霞,细颗粒物(PM2.5),58,59,86,41,67,70,,73,73,22,21,9,9,0.6,0.8
2024-02-13T1900,3140A,111.6625,29.0531,常德市,武陵区长庚,细颗粒物(PM2.5),64,70,96,46,66,67,,83,83,25,15,6,6,1.0,1
2024-02-13T1900,1196A,119.9633,31.762,常州市,市监测站,颗粒物(PM10),52,53,61,31,34,74,,98,96,26,8,8,7,0.7,0.6
2024-02-13T1900,1200A,119.9468,31.7069,常州市,武进监测站,,44,44,58,26,31,96,,95,95,10,9,6,5,0.6,0.6
2024-02-13T1900,1201A,119.9255,31.9087,常州市,安家,颗粒物(PM10),53,55,55,33,33,88,,95,95,15,11,8,8,0.8,0.8
2024-02-13T1900,3002A,119.9805,31.8174,常州市,行政中心,,42,42,55,27,32,92,,94,94,13,11,14,11,0.7,1.1
2024-02-13T1900,3003A,120.0522,31.7748,常州市,经开区,,47,47,58,26,32,91,,99,99,14,13,10,14,0.5,1.1
2024-02-13T1900,3010A,119.9025,31.7964,常州市,钟楼,,,43,55,31,33,,,94,94,18,12,7,7,0.8,0.7
2024-02-13T1900,3429A,119.8598,31.7066,常州市,武进经发区,,43,43,60,28,37,99,,99,99,8,7,6,6,0.8,0.8
2024-02-13T1900,3430A,119.5826,31.7245,常州市,金坛城区,,50,49,64,35,39,90,,90,90,14,10,8,9,0.6,0.8
2024-02-13T1900,2220A,120.4318,41.5881,朝阳市,西梁,细颗粒物(PM2.5),183,181,132,138,80,118,,117,117,30,14,39,24,1.6,1.4
2024-02-13T1900,2221A,120.4521,41.5646,朝阳市,河畔小区,细颗粒物(PM2.5),186,173,129,140,79,88,,109,107,57,19,25,13,1.7,1.2
2024-02-13T1900,2222A,120.4176,41.5648,朝阳市,八里堡,细颗粒物(PM2.5),186,217,135,140,76,86,,109,108,48,23,30,23,1.9,1.6
2024-02-13T1900,2223A,120.3806,41.5969,朝阳市,农业园区,细颗粒物(PM2.5),204,178,127,154,91,109,,115,115,29,15,30,18,1.4,1.1
2024-02-13T1900,1705A,116.6367,23.6719,潮州市,西园路,细颗粒物(PM2.5),75,69,60,55,42,96,,110,110,17,9,5,4,0.6,0.4
2024-02-13T1900,3026A,116.6183,23.6608,潮州市,市政府,细颗粒物(PM2.5),65,64,55,47,36,97,,110,110,18,10,6,6,0.8,0.6
2024-02-13T1900,4036A,116.6461,23.6761,潮州市,金山,细颗粒物(PM2.5),90,,54,67,42,94,,105,105,17,10,7,6,0.6,0.5
2024-02-13T1900,2472A,113.0073,25.9061,郴州市,马头岭,,33,33,34,11,11,83,,96,87,8,7,4,5,0.2,0.2
2024-02-13T1900,2473A,113.0116,25.8226,郴州市,市职中,,30,30,34,21,24,87,,101,91,5,5,6,6,0.4,0.4
2024-02-13T1900,2474A,113.0161,25.8001,郴州市,兴隆步行街,,39,39,33,13,20,91,,106,95,6,5,5,5,0.5,0.4
2024-02-13T1900,2475A,113.0383,25.8071,郴州市,市审计局,,35,34,32,24,22,90,,104,95,5,5,4,4,0.3,0.3
2024-02-13T1900,2476A,113.0348,25.7759,郴州市,市环保局,,36,36,34,23,24,87,,104,94,9,9,4,4,0.4,0.4
2024-02-13T1900,1431A,103.9728,30.7236,成都市,金泉两河,细颗粒物(PM2.5),107,,77,80,76,95,,106,106,14,30,2,3,0.7,1
2024-02-13T1900,1432A,104.176,30.6872,成都市,十里店,细颗粒物(PM2.5),100,87,91,75,82,131,,115,115,14,32,3,3,0.5,0.6
2024-02-13T1900,1433A,104.079,30.5706,成都市,三瓦窑,细颗粒物(PM2.5),105,102,101,79,77,111,,103,103,18,43,2,2,0.7,0.9
2024-02-13T1900,1434A,104.1114,30.63,成都市,沙河铺,细颗粒物(PM2.5),97,94,110,72,97,107,,105,105,20,39,2,3,0.6,1
2024-02-13T1900,1437A,104.0786,30.6531,成都市,君平街,细颗粒物(PM2.5),119,,97,90,90,117,,108,108,30,56,6,7,0.6,1
2024-02-13T1900,1438A,103.613,31.0283,成都市,灵岩寺,细颗粒物(PM2.5),74,69,58,54,46,143,,121,121,16,14,5,5,0.8,0.8
2024-02-13T1900,2880A,104.0239,30.65639,成都市,大石西路,细颗粒物(PM2.5),97,93,98,72,87,107,,109,109,23,49,4,4,0.8,1.2
2024-02-13T1900,3136A,104.2725,30.5589,成都市,龙泉驿区区政府,细颗粒物(PM2.5),85,83,84,63,72,125,,118,118,10,13,4,3,0.8,0.8
2024-02-13T1900,3357A,104.0106,30.6931,成都市,金博路,细颗粒物(PM2.5),109,109,108,82,94,90,,104,104,29,43,1,3,0.8,0.9
2024-02-13T1900,3359A,104.0578,30.5225,成都市,华阳,细颗粒物(PM2.5),89,70,98,66,91,99,,104,104,11,25,2,2,0.8,1.1
2024-02-13T1900,3487A,104.2394,30.5319,成都市,车城东七路,细颗粒物(PM2.5),87,74,92,64,81,128,,121,121,12,17,3,2,0.7,0.7
2024-02-13T1900,3488A,104.3853,30.7453,成都市,青白江技师分院,细颗粒物(PM2.5),104,102,89,78,69,126,,128,128,20,21,10,8,0.8,0.9
2024-02-13T1900,3489A,104.0789,30.4072,成都市,科学城,细颗粒物(PM2.5),87,72,82,64,74,133,,117,117,3,9,5,4,0.8,0.8
2024-02-13T1900,4011A,103.8506,30.6947,成都市,光华大道三段,细颗粒物(PM2.5),114,102,109,86,88,87,,105,105,25,29,2,3,1.1,1.1
2024-02-13T1900,1062A,117.9531,40.9081,承德市,铁路,细颗粒物(PM2.5),170,186,127,129,89,39,,88,87,66,41,25,15,1.5,1.3
2024-02-13T1900,1063A,117.9392,40.9763,承德市,中国银行,细颗粒物(PM2.5),109,156,136,82,84,,,96,96,,37,14,12,1.5,1.3
2024-02-13T1900,1064A,117.9503,40.928,承德市,开发区,细颗粒物(PM2.5),88,107,111,65,69,71,,100,100,27,36,11,10,0.8,1.1
2024-02-13T1900,1065A,117.8051,40.9655,承德市,文化中心,细颗粒物(PM2.5),168,179,148,127,94,46,,89,88,50,39,22,24,1.5,1.3
2024-02-13T1900,1066A,117.9268,41.0026,承德市,离宫,细颗粒物(PM2.5),114,131,107,86,73,100,,103,103,16,19,13,9,0.9,0.9
2024-02-13T1900,2314A,117.47,30.6618,池州市,池州学院,,43,43,44,27,30,74,,84,84,24,25,6,6,0.7,0.7
2024-02-13T1900,3237A,117.4918,30.6617,池州市,展览馆,颗粒物(PM10),62,74,52,26,35,66,,78,78,16,18,5,4,0.6,0.7
2024-02-13T1900,3333A,117.5627,30.695,池州市,第八中学,,29,28,39,20,26,87,,89,89,8,13,2,10,0.4,0.5
2024-02-13T1900,3334A,117.5038,30.6243,池州市,第十二中学,,36,36,46,22,32,85,,87,87,9,15,4,4,0.3,0.4
2024-02-13T1900,1744A,118.9233,42.2816,赤峰市,松山一中,颗粒物(PM10),61,72,54,20,23,65,,85,82,17,15,9,11,0.6,0.7
2024-02-13T1900,1745A,118.9576,42.2728,赤峰市,哈达街,颗粒物(PM10),63,75,57,20,27,57,,82,75,24,17,23,14,0.9,0.8
2024-02-13T1900,1746A,118.8788,42.2554,赤峰市,天义路,颗粒物(PM10),53,55,41,16,20,60,,83,77,18,11,11,8,0.4,0.4
2024-02-13T1900,3058A,119.2658,42.0353,赤峰市,银河街,颗粒物(PM10),68,85,84,28,51,62,,88,85,13,15,15,18,0.5,0.8
2024-02-13T1900,3286A,118.9359,42.3147,赤峰市,桥北物流园区,颗粒物(PM10),61,72,48,17,26,73,,88,86,3,8,7,8,0.5,0.6
2024-02-13T1900,2521A,107.3476,22.4136,崇左市,市环保局江州分局,细颗粒物(PM2.5),57,54,82,40,55,78,,91,91,11,14,8,8,0.5,0.5
2024-02-13T1900,2522A,107.3702,22.3707,崇左市,城南新区,细颗粒物(PM2.5),113,,60,85,55,97,,98,98,15,13,8,8,0.5,0.4
2024-02-13T1900,2298A,118.3093,32.3153,滁州市,老年大学,颗粒物(PM10),61,71,69,41,48,35,,66,63,52,27,11,10,1.2,1
2024-02-13T1900,2299A,118.3244,32.2786,滁州市,人大宾馆,颗粒物(PM10),56,62,61,36,43,37,,61,59,50,29,10,9,1.1,0.9
2024-02-13T1900,3207A,118.3118,32.3038,滁州市,市政府原办公楼,颗粒物(PM10),53,55,57,31,39,48,,64,62,46,28,9,9,1.1,0.8
2024-02-13T1900,3331A,118.3267,32.2634,滁州市,图书馆,,39,39,52,23,34,69,,69,69,22,21,12,11,1.0,0.9
2024-02-13T1900,2605A,101.5482,25.0441,楚雄彝族自治州,州环境监测站,,30,22,28,10,22,93,,96,96,3,8,5,6,0.4,0.6
2024-02-13T1900,2606A,101.538,25.0492,楚雄彝族自治州,市经济开发区,,32,32,35,15,25,84,,90,90,7,9,6,7,0.5,0.6
2024-02-13T1900,2548A,107.5277,31.2827,达州市,达州职业技术学院,颗粒物(PM10),53,55,64,35,43,37,,86,85,54,20,12,10,1.0,0.7
2024-02-13T1900,2549A,107.5086,31.2186,达州市,市环境监测站,细颗粒物(PM2.5),89,94,69,66,49,11,,70,68,104,39,13,10,1.8,1
2024-02-13T1900,2550A,107.4988,31.2132,达州市,凤凰小区,细颗粒物(PM2.5),98,105,71,73,51,10,,70,68,100,39,16,11,2.6,1
2024-02-13T1900,2551A,107.5082,31.1986,达州市,达县机关宾馆,细颗粒物(PM2.5),104,146,76,78,47,5,,57,53,94,43,14,7,3.2,1.1
2024-02-13T1900,2552A,107.4644,31.2124,达州市,市政中心,细颗粒物(PM2.5),85,107,79,63,55,7,,62,60,105,50,13,16,2.2,1.7
2024-02-13T1900,2614A,100.1542,25.7054,大理白族自治州,大理市环境监测站,,31,25,25,13,19,99,,94,94,5,5,7,7,0.4,0.5
2024-02-13T1900,2615A,100.2171,25.5811,大理白族自治州,大理古城,,34,34,22,23,17,87,,96,96,10,9,6,6,0.4,0.6
2024-02-13T1900,1109A,121.612,38.9741,大连市,甘井子,细颗粒物(PM2.5),88,105,103,65,72,74,,84,79,26,22,7,9,0.8,0.8
2024-02-13T1900,1110A,121.565,38.9511,大连市,周水子,细颗粒物(PM2.5),97,106,106,72,89,76,,85,85,21,31,7,46,0.9,1
2024-02-13T1900,1111A,121.5637,38.8845,大连市,星海三站,细颗粒物(PM2.5),122,129,103,92,74,42,,86,80,60,22,13,7,,1.2
2024-02-13T1900,1112A,121.6302,38.9117,大连市,青泥洼桥,细颗粒物(PM2.5),98,105,94,73,67,55,,95,87,53,24,23,16,1.2,1
2024-02-13T1900,1113A,121.6251,38.8638,大连市,傅家庄,细颗粒物(PM2.5),87,104,105,64,72,89,,97,90,20,13,14,13,0.9,1
2024-02-13T1900,1114A,121.5213,38.8661,大连市,七贤岭,细颗粒物(PM2.5),89,109,106,66,67,72,,75,75,28,23,9,11,0.7,0.8
2024-02-13T1900,1115A,121.2529,38.8061,大连市,旅顺,细颗粒物(PM2.5),82,93,89,60,60,93,,91,91,25,24,7,9,0.9,1
2024-02-13T1900,1116A,121.7485,39.1311,大连市,金州,细颗粒物(PM2.5),84,91,95,62,73,78,,94,94,31,25,10,14,1.5,1.3
2024-02-13T1900,1117A,121.7811,39.0496,大连市,开发区,细颗粒物(PM2.5),84,98,117,62,81,70,,79,79,35,27,5,6,0.9,1.1
2024-02-13T1900,1118A,121.9762,39.0631,大连市,双D港,细颗粒物(PM2.5),83,99,98,61,67,85,,95,94,17,16,7,7,0.9,1
2024-02-13T1900,1789A,124.81117,46.03138,大庆市,大同区,颗粒物(PM10),66,81,126,24,66,67,,79,69,8,11,6,10,0.3,0.8
2024-02-13T1900,1790A,125.129,46.533,大庆市,龙凤区,颗粒物(PM10),51,52,96,26,50,64,,80,70,19,14,10,7,0.4,0.7
2024-02-13T1900,1791A,124.902,46.408,大庆市,红岗区,,49,49,105,29,55,78,,84,80,6,10,5,8,0.3,0.4
2024-02-13T1900,1792A,125.153,46.586,大庆市,萨尔图区,颗粒物(PM10),57,64,115,15,60,65,,75,72,14,14,10,12,0.4,0.7
2024-02-13T1900,1793A,124.9042,46.6215,大庆市,让胡路区,颗粒物(PM10),53,55,107,26,52,71,,78,73,8,10,6,8,0.4,0.6
2024-02-13T1900,3481A,125.141,46.634,大庆市,萨区政府监测点,,34,34,106,11,56,77,,87,80,7,12,9,13,0.5,0.8
2024-02-13T1900,1723A,113.2994,40.0758,大同市,云冈宾馆,颗粒物(PM10),54,58,102,20,57,52,,88,88,42,42,5,18,0.6,1.1
2024-02-13T1900,1724A,113.3444,40.0917,大同市,大同大学,颗粒物(PM10),61,72,74,35,37,60,,86,86,38,30,14,25,0.6,0.8
2024-02-13T1900,1725A,113.2661,40.1269,大同市,安家小村,,42,42,68,13,28,75,,85,85,8,15,10,25,0.3,1
2024-02-13T1900,1726A,113.2711,40.0844,大同市,教育学院,颗粒物(PM10),54,57,92,29,43,38,,84,81,55,41,8,23,0.7,1.5
2024-02-13T1900,3282A,113.3397,40.0597,大同市,大同市卫生学校,颗粒物(PM10),59,68,90,39,59,81,,91,91,23,36,14,21,0.6,0.9
2024-02-13T1900,3565A,113.1367,40.1122,大同市,云冈站,,42,42,55,10,20,51,,89,86,31,18,22,32,0.3,0.5
2024-02-13T1900,3566A,113.1186,40.2556,大同市,图书馆,,40,40,56,14,28,65,,81,81,14,12,17,26,0.5,0.4
2024-02-13T1900,3567A,113.5931,40.0461,大同市,区一中,"颗粒物(PM10),细颗粒物(PM2.5)",74,97,76,54,39,72,,90,90,25,18,47,32,0.9,0.8
2024-02-13T1900,3676A,113.2802,40.0995,大同市,第二人民医院,颗粒物(PM10),51,51,85,19,38,72,,90,90,22,31,3,20,0.4,1.1
2024-02-13T1900,2269A,124.1069,50.4097,大兴安岭地区,科技局,,46,32,35,32,26,63,,67,65,9,10,9,11,0.5,0.5
2024-02-13T1900,3663A,124.1164,50.4278,大兴安岭地区,红旗社区,,30,,31,21,22,57,,70,63,11,20,12,15,0.3,0.3
2024-02-13T1900,1600A,124.3303,40.0625,丹东市,江湾东路,细颗粒物(PM2.5),92,118,101,68,64,92,,104,102,7,5,10,12,0.9,0.8
2024-02-13T1900,1601A,124.4256,40.1503,丹东市,临江后街,颗粒物(PM10),77,103,101,50,57,101,,105,104,12,9,10,12,1.0,1
2024-02-13T1900,1602A,124.3933,40.1461,丹东市,元宝山,颗粒物(PM10),83,115,107,55,61,90,,97,96,20,14,11,13,1.0,0.9
2024-02-13T1900,1603A,124.3633,40.1092,丹东市,民主桥,细颗粒物(PM2.5),89,124,110,66,63,84,,92,88,17,10,16,13,1.5,1.1
2024-02-13T1900,3541A,109.5726,19.5167,儋州市,第一中学子站,,32,32,32,12,18,83,,84,84,2,2,5,5,0.5,0.6
2024-02-13T1900,3542A,109.5567,19.5187,儋州市,东坡学校子站,,33,33,33,16,17,86,,89,89,3,3,5,5,0.5,0.5
2024-02-13T1900,2616A,98.5842,24.428,德宏傣族景颇族自治州,德宏州监测站,,30,24,49,12,38,93,,92,92,13,24,6,12,0.4,0.7
2024-02-13T1900,3677A,98.5881,24.4368,德宏傣族景颇族自治州,芒市人民政府综合楼,,29,27,49,13,34,91,,88,88,12,15,8,7,0.4,0.6
2024-02-13T1900,1901A,104.4239,31.1208,德阳市,东山公园,细颗粒物(PM2.5),85,66,72,63,67,124,,117,117,12,13,4,5,0.7,0.7
2024-02-13T1900,1902A,104.3826,31.1317,德阳市,西小区,细颗粒物(PM2.5),102,76,94,76,84,102,,107,107,23,44,4,4,0.7,1
2024-02-13T1900,1904A,104.3553,31.1091,德阳市,耐火材料厂,细颗粒物(PM2.5),100,77,87,75,78,116,,113,113,11,23,4,5,0.6,0.7
2024-02-13T1900,3639A,104.4019,31.1244,德阳市,市教育局,细颗粒物(PM2.5),97,,78,72,70,102,,111,111,29,38,4,3,0.7,0.8
2024-02-13T1900,1622A,116.3032,37.4674,德州市,儿童乐园,细颗粒物(PM2.5),89,114,103,66,58,106,,116,116,27,11,14,13,1.3,1.1
2024-02-13T1900,1624A,116.2991,37.4451,德州市,监理站,细颗粒物(PM2.5),85,108,102,63,58,112,,118,118,30,19,14,16,0.9,0.9
2024-02-13T1900,3066A,116.2721,37.4379,德州市,九衢泉纯净水厂,细颗粒物(PM2.5),93,113,107,69,64,109,,112,112,29,18,16,13,1.1,1
2024-02-13T1900,3371A,116.3728,37.4403,德州市,开发区人民医院,颗粒物(PM10),79,107,104,56,56,110,,115,115,23,12,12,13,0.9,0.8
2024-02-13T1900,3372A,116.3572,37.4094,德州市,太阳城中学,细颗粒物(PM2.5),87,95,102,64,66,112,,116,116,22,11,9,11,0.9,0.9
2024-02-13T1900,3511A,116.5652,37.3319,德州市,陵城艺术中心,细颗粒物(PM2.5),83,110,93,61,49,106,,112,112,17,13,10,13,0.8,0.8
2024-02-13T1900,2621A,99.7056,27.8317,迪庆藏族自治州,迪庆州站,,27,25,21,10,13,84,,87,87,6,8,8,8,0.3,0.3
2024-02-13T1900,3180A,99.7136,27.8094,迪庆藏族自治州,质量技术监督局,,26,15,19,15,12,81,,86,86,4,8,8,8,0.3,0.5
2024-02-13T1900,2663A,104.6241,35.5734,定西市,东关小学,细颗粒物(PM2.5),83,86,89,61,57,60,,74,74,10,18,14,20,0.5,1.3
2024-02-13T1900,2664A,104.6194,35.5934,定西市,供电公司,细颗粒物(PM2.5),55,57,86,39,61,84,,86,86,2,13,6,16,0.3,1
2024-02-13T1900,1389A,113.7547,23.0494,东莞市,莞城梨川,,,,54,20,35,,,122,122,13,18,7,8,0.5,0.6
2024-02-13T1900,1390A,113.7944,23.0128,东莞市,东城石井,,34,34,37,20,25,84,,111,109,8,12,7,7,0.5,0.6
2024-02-13T1900,1391A,113.7383,22.9658,东莞市,南城西平,,43,43,42,20,24,122,,113,113,13,14,8,8,0.7,0.7
2024-02-13T1900,3319A,113.7338,23.0381,东莞市,万江金泰,,42,42,54,25,38,112,,110,110,11,13,8,8,0.8,0.8
2024-02-13T1900,3626A,113.7533,23.0202,东莞市,南城元岭,,39,39,45,22,27,123,,117,117,9,10,7,7,0.7,0.6
2024-02-13T1900,3627A,113.7875,23.0457,东莞市,东城主山,,38,38,46,21,31,112,,117,117,8,11,9,10,0.6,0.7
2024-02-13T1900,1666A,118.6614,37.4309,东营市,市环保局,细颗粒物(PM2.5),85,95,100,63,64,114,,129,129,26,24,14,22,0.8,1
2024-02-13T1900,3036A,118.6904,37.4338,东营市,开发区管委会,细颗粒物(PM2.5),77,80,94,56,62,112,,119,119,28,23,9,15,0.8,0.9
2024-02-13T1900,3365A,118.5719,37.565,东营市,垦利区民丰路,细颗粒物(PM2.5),119,124,103,90,64,107,,130,130,40,22,30,21,1.2,1
2024-02-13T1900,3498A,118.5055,37.8612,东营市,河口城区,细颗粒物(PM2.5),100,122,116,75,87,130,,143,143,23,24,12,17,0.9,1.1
2024-02-13T1900,3646A,118.4978,37.4623,东营市,胜利站,细颗粒物(PM2.5),104,127,112,78,61,81,,117,117,64,30,16,18,1.1,0.9
2024-02-13T1900,3734A,118.35,37.26,东营市,理想之城,细颗粒物(PM2.5),85,100,101,63,63,89,,116,116,51,25,11,14,1.0,0.9
2024-02-13T1900,1591A,110.0023,39.8129,鄂尔多斯市,综合楼,颗粒物(PM10),65,80,50,27,17,74,,82,82,22,21,6,10,0.6,0.6
2024-02-13T1900,1592A,109.9486,39.8261,鄂尔多斯市,巴音孟克林场办事处,颗粒物(PM10),58,66,43,29,17,65,,79,77,24,15,11,15,0.5,0.5
2024-02-13T1900,1593A,109.7736,39.5986,鄂尔多斯市,康泽苑,,36,36,41,19,20,80,,87,87,21,17,8,7,0.7,0.6
2024-02-13T1900,1594A,109.8119,39.5989,鄂尔多斯市,华泰汽车城,颗粒物(PM10),52,53,44,22,22,66,,86,86,35,23,11,7,0.6,0.5
2024-02-13T1900,1595A,109.9734,39.7884,鄂尔多斯市,奥林花园,颗粒物(PM10),56,61,49,17,18,60,,78,78,35,28,10,12,0.6,0.6
2024-02-13T1900,2436A,114.8938,30.3994,鄂州市,市政府,,47,47,46,27,28,78,,86,86,12,11,10,10,0.8,0.8
2024-02-13T1900,2437A,114.8989,30.3714,鄂州市,赵家坝,,40,40,40,27,29,82,,91,91,8,9,6,7,0.7,0.5
2024-02-13T1900,3654A,114.8094,30.4089,鄂州市,精准医疗中心,颗粒物(PM10),55,60,72,36,36,78,,93,93,31,23,32,33,1.7,2.3
2024-02-13T1900,2454A,109.4978,30.2981,恩施土家族苗族自治州,湖北民院,颗粒物(PM10),52,54,60,35,42,81,,88,88,29,19,8,7,1.1,1.1
2024-02-13T1900,2455A,109.4707,30.2798,恩施土家族苗族自治州,州电力总公司,"颗粒物(PM10),细颗粒物(PM2.5)",54,57,67,38,51,69,,77,77,18,20,6,6,1.0,1.1
2024-02-13T1900,3549A,109.5061,30.3772,恩施土家族苗族自治州,龙凤新区,细颗粒物(PM2.5),53,43,44,37,42,54,,76,76,19,14,6,6,1.0,0.9
2024-02-13T1900,2499A,108.3411,21.6158,防城港市,沙万,颗粒物(PM10),56,61,58,23,36,72,,73,73,35,26,4,5,0.5,0.6
2024-02-13T1900,2500A,108.3514,21.7731,防城港市,防城档案局,颗粒物(PM10),60,69,67,30,42,71,,71,71,26,18,12,9,0.7,0.6
2024-02-13T1900,2501A,108.3506,21.6414,防城港市,大海花园,细颗粒物(PM2.5),54,50,59,38,31,69,,79,78,33,17,4,5,0.3,0.4
2024-02-13T1900,1371A,113.1294,23.0067,佛山市,湾梁,,44,44,49,29,35,117,,120,120,7,12,9,9,0.5,0.6
2024-02-13T1900,1372A,113.1083,23.0478,佛山市,华材职中,,,97,50,26,33,95,,115,115,,23,,10,0.6,0.6
2024-02-13T1900,1373A,113.144,23.0453,佛山市,南海气象局,,48,45,53,33,39,111,,114,114,10,18,6,7,0.4,0.3
2024-02-13T1900,1374A,113.2881,22.8094,佛山市,顺德苏岗,,33,30,41,17,25,104,,119,119,7,14,8,9,0.4,0.4
2024-02-13T1900,1376A,112.8383,22.8678,佛山市,高明孔堂,,44,44,39,21,22,108,,116,116,5,5,4,4,0.3,0.3
2024-02-13T1900,1377A,112.8836,23.1588,佛山市,三水监测站,,46,46,50,25,35,102,,109,109,8,23,6,6,0.6,0.6
2024-02-13T1900,1378A,112.867,23.185,佛山市,三水云东海,,32,32,36,20,29,88,,111,111,18,18,4,4,0.5,0.5
2024-02-13T1900,3625A,113.2544,22.7642,佛山市,容桂街道办,,32,31,39,19,21,100,,109,109,5,11,5,6,0.5,0.5
2024-02-13T1900,1282A,119.2681,26.0504,福州市,师大,颗粒物(PM10),54,58,53,34,36,107,,112,112,10,6,9,6,0.5,0.4
2024-02-13T1900,1283A,119.2984,26.1028,福州市,五四北路,颗粒物(PM10),58,65,53,34,37,101,,110,110,14,9,5,4,0.5,0.5
2024-02-13T1900,1284A,119.2648,26.0768,福州市,杨桥西路,细颗粒物(PM2.5),54,56,49,38,35,107,,115,115,15,10,5,4,0.5,0.5
2024-02-13T1900,1285A,119.317,26.0746,福州市,紫阳,,,49,65,33,46,,,107,107,,12,7,7,0.7,0.6
2024-02-13T1900,3048A,119.5799,26.0936,福州市,九龙,,44,44,44,22,25,102,,113,113,6,8,3,3,0.3,0.6
2024-02-13T1900,3526A,119.5189,25.9664,福州市,吴航,颗粒物(PM10),51,52,54,27,32,97,,111,111,10,13,5,5,0.5,0.4
2024-02-13T1900,1755A,123.7977,41.8491,抚顺市,望花区,细颗粒物(PM2.5),97,88,87,72,60,72,,99,94,34,15,35,29,0.9,0.8
2024-02-13T1900,1756A,123.9161,41.8822,抚顺市,顺城区,细颗粒物(PM2.5),104,96,97,78,65,104,,116,114,18,11,12,14,0.8,0.7
2024-02-13T1900,1757A,124.0436,41.8611,抚顺市,东洲区,细颗粒物(PM2.5),88,80,93,65,63,110,,114,114,10,7,14,14,0.7,0.9
2024-02-13T1900,1758A,123.9247,41.8642,抚顺市,新抚区,细颗粒物(PM2.5),94,90,92,70,62,70,,119,109,41,15,12,15,1.2,0.8
2024-02-13T1900,1759A,124.0972,41.8961,抚顺市,大伙房水库,细颗粒物(PM2.5),92,89,94,68,61,116,,119,119,5,6,12,12,0.7,0.7
2024-02-13T1900,1760A,123.7086,41.8391,抚顺市,沈抚新城,细颗粒物(PM2.5),82,90,95,60,61,96,,110,108,22,14,14,18,0.8,1
2024-02-13T1900,2376A,116.2127,28.0814,抚州市,桐源党溪,细颗粒物(PM2.5),59,65,54,42,31,24,,56,51,36,9,14,9,0.7,0.4
2024-02-13T1900,2377A,116.3544,27.9831,抚州市,市站,颗粒物(PM10),70,90,41,36,23,27,,66,52,39,14,4,8,1.2,0.4
2024-02-13T1900,2378A,116.3565,27.963,抚州市,血防站,颗粒物(PM10),53,56,42,25,21,46,,62,59,22,8,4,4,0.7,0.6
2024-02-13T1900,2379A,116.3564,28.0007,抚州市,采茶剧团,颗粒物(PM10),53,55,45,31,30,45,,62,60,18,7,6,5,1.1,0.8
2024-02-13T1900,2380A,116.385,27.9647,抚州市,医学分院,颗粒物(PM10),51,51,37,28,18,49,,69,67,15,6,7,6,0.8,0.5
2024-02-13T1900,2207A,121.6094,41.998,阜新市,工业园区,细颗粒物(PM2.5),134,211,144,102,81,52,,102,96,60,25,35,24,1.8,1.5
2024-02-13T1900,2208A,121.6697,42.0279,阜新市,长青街,细颗粒物(PM2.5),173,170,147,131,106,70,,104,102,40,23,34,24,1.8,1.3
2024-02-13T1900,2209A,121.6673,42.0705,阜新市,农业园区,细颗粒物(PM2.5),153,171,165,117,106,95,,110,110,24,22,22,34,1.4,1
2024-02-13T1900,2210A,121.6717,42.0224,阜新市,东苑,细颗粒物(PM2.5),199,179,140,149,111,79,,111,111,36,25,47,26,1.8,1.3
2024-02-13T1900,2211A,121.6506,42.0498,阜新市,玉龙新城,细颗粒物(PM2.5),147,160,140,112,89,85,,108,107,32,22,44,26,1.2,1
2024-02-13T1900,2301A,115.8277,32.8929,阜阳市,市监测站,颗粒物(PM10),55,60,84,32,64,58,,75,75,20,15,8,9,0.4,0.6
2024-02-13T1900,2303A,115.8554,32.8605,阜阳市,开发区,颗粒物(PM10),55,60,79,26,40,78,,81,81,9,11,7,7,0.2,0.4
2024-02-13T1900,2875A,115.784,32.8892,阜阳市,阜阳职业技术学院,颗粒物(PM10),51,51,61,22,38,74,,85,84,18,16,6,7,0.5,0.7
2024-02-13T1900,3468A,115.7901,32.8613,阜阳市,市规划展馆,,48,48,72,31,45,72,,80,80,12,11,6,7,0.6,0.6
2024-02-13T1900,3469A,115.836,32.9183,阜阳市,枣园社区,细颗粒物(PM2.5),53,49,86,37,56,65,,82,81,18,19,7,7,0.4,0.5
2024-02-13T1900,2669A,102.9099,34.9841,甘南藏族自治州,州政府,,28,,23,19,15,81,,78,78,5,13,9,17,0.4,0.6
2024-02-13T1900,3380A,102.8914,34.9617,甘南藏族自治州,甘肃民族师范学院,,24,,21,5,10,74,,73,73,2,8,5,17,0.7,0.7
2024-02-13T1900,2570A,101.9603,30.0475,甘孜藏族自治州,水桥子,,26,,13,15,9,82,,76,76,2,6,10,10,0.3,0.3
2024-02-13T1900,3065A,101.9533,29.9972,甘孜藏族自治州,州环保局,,,12,13,4,6,,,89,89,7,3,8,8,,0.2
2024-02-13T1900,3414A,115.8347,28.932,赣江新区,桑海产业园,,34,34,49,23,33,54,,71,71,16,18,4,6,0.5,0.6
2024-02-13T1900,2363A,114.9367,25.8664,赣州市,地委,,50,50,51,16,31,72,,93,93,23,21,10,11,1.1,1
2024-02-13T1900,2364A,114.9461,25.8481,赣州市,气象台,,33,33,44,19,32,80,,101,101,7,22,6,9,0.5,0.6
2024-02-13T1900,2365A,114.9322,25.8333,赣州市,市图书馆,,,48,57,16,32,39,,83,81,,2,11,15,0.6,0.6
2024-02-13T1900,2366A,114.8905,25.8471,赣州市,华坚鞋城,,31,31,60,17,36,71,,86,86,12,23,3,5,0.7,0.9
2024-02-13T1900,3109A,115.0093,25.8613,赣州市,赣县区卫计委,,32,26,42,22,29,63,,84,84,19,14,6,7,0.8,0.7
2024-02-13T1900,2683A,106.2319,36.1417,固原市,马园,颗粒物(PM10),66,81,59,39,36,85,,100,100,17,20,8,7,0.5,0.6
2024-02-13T1900,2684A,106.2792,36.0022,固原市,监测站,颗粒物(PM10),51,51,56,32,58,89,,100,100,16,24,7,11,0.5,1.1
2024-02-13T1900,2685A,106.2375,36.0211,固原市,新区,,46,46,53,31,37,82,,94,94,17,30,8,7,0.5,0.7
2024-02-13T1900,3522A,106.2177,35.9959,固原市,原州区十五小,,49,48,42,34,30,85,,96,95,13,10,10,10,0.5,0.5
2024-02-13T1900,2544A,106.6303,30.4576,广安市,市委,细颗粒物(PM2.5),130,119,130,99,106,84,,94,94,49,36,10,8,1.1,1.2
2024-02-13T1900,2545A,106.6271,30.4663,广安市,友谊中学,细颗粒物(PM2.5),119,107,102,90,89,98,,102,102,40,30,8,6,1.1,1.1
2024-02-13T1900,2547A,106.6388,30.4551,广安市,广电花园,细颗粒物(PM2.5),122,96,116,92,108,98,,102,102,39,35,8,6,1.1,1.3
2024-02-13T1900,2902A,106.6351,30.4865,广安市,北辰小学,细颗粒物(PM2.5),132,102,112,100,102,119,,108,108,26,26,8,6,1.1,1.1
2024-02-13T1900,2523A,105.8945,32.4535,广元市,黑石坡,颗粒物(PM10),56,62,55,31,50,117,,102,102,15,13,18,8,0.9,0.6
2024-02-13T1900,2524A,105.821,32.4444,广元市,老城,细颗粒物(PM2.5),82,89,79,60,52,63,,87,87,60,25,20,12,1.8,1.2
2024-02-13T1900,2526A,105.8628,32.4287,广元市,监测站,细颗粒物(PM2.5),83,67,62,61,50,88,,86,86,26,18,16,8,1.0,0.9
2024-02-13T1900,3617A,105.8047,32.4166,广元市,经开区,细颗粒物(PM2.5),83,84,83,61,62,79,,91,91,33,29,18,23,1.1,1.2
2024-02-13T1900,1345A,113.2347,23.1423,广州市,广雅中学,,40,40,49,26,31,97,,108,108,15,27,5,5,0.7,0.7
2024-02-13T1900,1346A,113.2612,23.105,广州市,市五中,,48,48,49,32,33,100,,112,112,17,26,5,6,0.6,0.6
2024-02-13T1900,1348A,113.3478,23.0916,广州市,广东商学院,,39,37,48,27,32,104,,117,117,11,18,5,5,0.5,0.5
2024-02-13T1900,1349A,113.4332,23.1047,广州市,市八十六中,,35,35,52,15,37,105,,125,122,16,19,5,6,0.3,0.4
2024-02-13T1900,1350A,113.3505,22.9483,广州市,番禺中学,,40,37,54,28,38,104,,122,122,17,22,5,5,0.6,0.6
2024-02-13T1900,1351A,113.2146,23.3916,广州市,花都师范,,43,43,62,24,42,112,,117,117,12,28,6,6,0.5,0.7
2024-02-13T1900,1352A,113.2597,23.1331,广州市,市监测站,,45,45,50,23,30,99,,113,113,17,26,5,6,0.6,0.6
2024-02-13T1900,1353A,113.5618,23.312,广州市,九龙镇镇龙,,33,33,59,19,45,99,,110,110,11,17,6,6,0.6,0.7
2024-02-13T1900,1354A,113.2765,23.1544,广州市,麓湖,,38,38,44,22,28,105,,117,117,13,25,5,5,0.5,0.5
2024-02-13T1900,1355A,113.443,23.3035,广州市,帽峰山森林公园,,38,32,39,19,25,119,,128,128,9,11,8,8,0.4,0.3
2024-02-13T1900,2846A,113.3221,23.1322,广州市,体育西,,33,33,45,20,31,105,,121,121,9,20,7,8,0.6,0.6
2024-02-13T1900,3298A,113.5717,23.5491,广州市,从化街口,细颗粒物(PM2.5),55,58,71,39,54,101,,106,106,14,15,5,5,0.6,0.5
2024-02-13T1900,3299A,113.3472,23.3692,广州市,白云竹料,,42,42,71,24,52,108,,114,114,9,16,6,6,0.6,0.7
2024-02-13T1900,3300A,113.2981,23.237,广州市,白云嘉禾,,39,39,46,17,28,105,,120,120,15,22,6,6,0.5,0.5
2024-02-13T1900,3301A,113.4256,23.1716,广州市,黄埔科学城,,37,37,49,24,37,104,,118,118,11,14,5,5,0.6,0.6
2024-02-13T1900,3302A,113.3942,23.0483,广州市,番禺大学城,,43,43,47,17,29,110,,122,122,7,17,9,9,0.6,0.5
2024-02-13T1900,3303A,113.4922,22.8168,广州市,南沙黄阁,,50,37,50,35,30,103,,108,108,10,16,5,5,0.6,0.6
2024-02-13T1900,3304A,113.5342,22.7896,广州市,南沙街,,36,36,42,22,24,99,,112,112,17,18,2,2,0.6,0.6
2024-02-13T1900,3443A,113.2902,23.5544,广州市,花都梯面,,35,35,44,21,32,112,,118,118,10,15,5,5,0.3,0.3
2024-02-13T1900,3445A,113.7858,23.7478,广州市,从化良口,,34,34,32,21,20,101,,101,101,5,5,7,7,0.4,0.4
2024-02-13T1900,3446A,113.8051,23.2614,广州市,增城荔城,,,42,63,28,50,,,116,116,5,11,6,7,0.5,0.7
2024-02-13T1900,2505A,109.568,23.1478,贵港市,德智高中,细颗粒物(PM2.5),156,,76,119,70,55,,73,72,26,15,7,8,1.2,0.8
2024-02-13T1900,2506A,109.6047,23.0666,贵港市,江南子站,细颗粒物(PM2.5),87,114,82,64,56,54,,70,67,25,14,8,10,1.0,0.8
2024-02-13T1900,2507A,109.6014,23.0948,贵港市,贵城子站,细颗粒物(PM2.5),123,99,68,93,59,50,,65,63,26,16,9,10,0.9,0.7
2024-02-13T1900,2508A,109.5669,23.1065,贵港市,荷城子站,细颗粒物(PM2.5),98,105,73,73,48,55,,65,62,18,13,11,10,1.2,1
2024-02-13T1900,3405A,109.5886,23.1172,贵港市,新世纪学校,细颗粒物(PM2.5),89,100,80,66,50,64,,70,70,18,18,10,10,1.0,0.8
2024-02-13T1900,1439A,106.6899,26.5998,贵阳市,马鞍山,,,48,36,,25,90,,100,98,11,10,8,11,0.6,0.5
2024-02-13T1900,1440A,106.6971,26.5694,贵阳市,市环保站,细颗粒物(PM2.5),55,41,35,39,38,80,,103,101,33,17,13,13,0.6,0.5
2024-02-13T1900,1441A,106.6243,26.6266,贵阳市,鉴湖路,,44,44,39,24,22,99,,100,100,8,6,9,9,0.6,0.6
2024-02-13T1900,1442A,106.7487,26.6343,贵阳市,燕子冲,,41,41,40,24,29,96,,105,105,9,12,16,13,0.6,0.6
2024-02-13T1900,1443A,106.6555,26.4365,贵阳市,碧云窝,,42,36,41,29,22,105,,103,103,7,6,9,12,0.5,0.5
2024-02-13T1900,1444A,106.694,26.5161,贵阳市,中院村,细颗粒物(PM2.5),52,41,40,36,30,88,,93,93,17,14,17,18,0.8,0.5
2024-02-13T1900,1445A,106.7109,26.6027,贵阳市,红边门,,41,41,44,27,33,91,,99,99,18,20,10,13,0.7,0.7
2024-02-13T1900,1446A,106.7164,26.5699,贵阳市,新华路,,49,41,46,34,34,95,,103,102,18,23,12,17,0.6,0.6
2024-02-13T1900,1447A,106.674,26.5424,贵阳市,太慈桥,,39,36,36,27,22,106,,105,105,8,6,11,9,0.4,0.4
2024-02-13T1900,1862A,110.4144,25.3167,桂林市,电子科大尧山校区,,43,,46,30,38,48,,63,54,9,7,3,4,0.7,0.4
2024-02-13T1900,1863A,110.2819,25.2697,桂林市,监测站,细颗粒物(PM2.5),54,,74,38,62,27,,60,40,28,34,6,8,1.2,1
2024-02-13T1900,1864A,110.3089,25.2708,桂林市,龙隐路小学,,50,,60,35,58,42,,69,52,19,22,4,6,0.8,0.8
2024-02-13T1900,1865A,110.2869,25.2178,桂林市,八中,,42,,45,29,40,29,,68,44,23,19,4,5,0.8,0.6
2024-02-13T1900,3403A,110.1764,25.2381,桂林市,创业大厦,,39,,57,27,49,38,,60,54,13,11,6,8,0.6,0.6
2024-02-13T1900,3531A,110.296,25.1253,桂林市,旅游学院,,35,24,43,24,36,27,,72,54,21,12,4,5,0.6,0.5
2024-02-13T1900,2674A,100.2561,34.4714,果洛藏族自治州,玛沁县大武镇,,25,20,23,16,13,79,,82,82,12,11,5,12,0.4,0.4
2024-02-13T1900,1129A,126.5422,45.755,哈尔滨市,岭北,细颗粒物(PM2.5),60,,98,43,69,44,,77,59,24,20,15,23,2.0,1.7
2024-02-13T1900,1130A,126.561,45.8167,哈尔滨市,松北商大,,,63,94,24,62,73,,103,87,12,9,10,12,,0.9
2024-02-13T1900,1131A,126.979,45.5419,哈尔滨市,阿城会宁,细颗粒物(PM2.5),104,114,87,78,64,65,,101,91,20,9,8,13,0.8,0.7
2024-02-13T1900,1132A,126.599,45.7222,哈尔滨市,南岗学府路,颗粒物(PM10),83,115,120,52,61,61,,99,87,29,14,14,13,0.9,0.9
2024-02-13T1900,1133A,126.689,45.7733,哈尔滨市,太平宏伟公园,颗粒物(PM10),58,65,102,26,64,74,,102,94,17,11,2,6,0.4,0.7
2024-02-13T1900,1134A,126.635,45.7667,哈尔滨市,道外承德广场,,,75,109,36,65,,,94,,29,19,8,12,0.8,0.6
2024-02-13T1900,1135A,126.685,45.7319,哈尔滨市,香坊红旗大街,细颗粒物(PM2.5),79,92,104,58,73,55,,88,81,29,18,21,22,0.9,1
2024-02-13T1900,1136A,126.6411,45.7258,哈尔滨市,动力和平路,,,116,97,39,67,,,101,93,24,11,13,12,,0.9
2024-02-13T1900,1137A,126.593,45.7478,哈尔滨市,道里建国路,细颗粒物(PM2.5),69,82,101,50,66,57,,96,82,24,13,1,5,0.7,0.7
2024-02-13T1900,1138A,126.615,45.61,哈尔滨市,平房东轻厂,细颗粒物(PM2.5),80,106,102,59,64,74,,103,94,22,11,14,17,0.8,0.8
2024-02-13T1900,1139A,126.595,45.9855,哈尔滨市,呼兰师专,颗粒物(PM10),128,206,112,70,79,58,,90,82,36,19,21,22,0.6,0.8
2024-02-13T1900,1140A,126.6206,45.6842,哈尔滨市,省农科院,"颗粒物(PM10),细颗粒物(PM2.5)",89,127,110,66,67,49,,105,74,30,9,18,10,1.0,0.9
2024-02-13T1900,2688A,93.5128,42.8172,哈密市,地区监测站,,44,44,88,22,26,67,,72,72,17,18,6,5,0.4,0.4
2024-02-13T1900,2689A,93.4961,42.8328,哈密市,哈密师范学校,颗粒物(PM10),59,68,94,20,32,73,,76,76,12,17,7,8,0.3,0.4
2024-02-13T1900,2671A,100.9048,36.9639,海北藏族自治州,海晏县西海镇,,24,18,16,6,8,74,,75,75,4,3,11,13,0.6,0.4
2024-02-13T1900,3867A,102.0738,36.5056,海东市,平安区公安北苑,,22,21,32,5,16,70,,69,69,17,15,12,19,0.3,0.5
2024-02-13T1900,1410A,110.3232,20.0574,海口市,海南大学,,40,40,41,18,18,94,,99,98,2,3,9,9,0.4,0.4
2024-02-13T1900,1411A,110.283,20.0053,海口市,秀英海南医院,,41,41,41,19,20,89,,96,95,2,4,8,8,0.3,0.3
2024-02-13T1900,1412A,110.338,19.9969,海口市,海南师范大学,,42,42,41,20,20,90,,95,94,2,4,7,7,0.4,0.4
2024-02-13T1900,1413A,110.33,20.0356,海口市,龙华路环保局宿舍,,43,43,43,20,19,88,,93,92,3,5,8,8,0.3,0.3
2024-02-13T1900,3539A,110.5111,19.9736,海口市,桂林洋子站,,46,46,38,19,17,89,,95,94,2,2,6,6,0.3,0.3
2024-02-13T1900,2673A,100.6188,36.2866,海南藏族自治州,共和县恰卜恰镇,,25,19,24,1,11,80,,71,71,10,15,3,12,0.5,0.6
2024-02-13T1900,2676A,97.3731,37.3753,海西蒙古族藏族自治州,德令哈市,,30,17,16,9,11,96,,98,98,5,4,10,12,0.4,0.4
2024-02-13T1900,1048A,114.5302,36.6116,邯郸市,东污水处理厂,细颗粒物(PM2.5),113,144,139,85,100,92,,105,105,25,18,11,12,0.9,1.1
2024-02-13T1900,1049A,114.4918,36.5713,邯郸市,矿院,细颗粒物(PM2.5),112,113,124,84,87,90,,95,95,16,13,7,7,0.9,1
2024-02-13T1900,1050A,114.484,36.6133,邯郸市,丛台公园,细颗粒物(PM2.5),102,125,127,76,85,99,,113,113,9,11,9,10,1.0,1.2
2024-02-13T1900,3458A,114.7895,36.5593,邯郸市,香泉濮院小区,细颗粒物(PM2.5),117,150,114,88,76,114,,115,115,16,9,13,10,0.7,0.8
2024-02-13T1900,3579A,114.50634,36.77178,邯郸市,永年区实验高中,细颗粒物(PM2.5),156,162,153,119,109,86,,128,128,46,32,19,20,1.0,1.3
2024-02-13T1900,3580A,114.20016,36.44293,邯郸市,峰峰矿区临水派出所,细颗粒物(PM2.5),84,88,91,62,61,114,,76,,11,10,11,24,0.6,1
2024-02-13T1900,2634A,106.9893,33.1842,汉中市,汉川机床厂子校,,,64,48,45,40,92,,94,94,,10,8,7,0.7,0.6
2024-02-13T1900,2635A,107.0154,33.0706,汉中市,市监测站,细颗粒物(PM2.5),69,70,89,50,78,72,,91,91,36,29,12,18,1.3,1.6
2024-02-13T1900,2636A,107.0089,33.1138,汉中市,鑫源开发区,细颗粒物(PM2.5),64,49,77,46,73,87,,90,90,15,25,11,25,0.7,1.2
2024-02-13T1900,2637A,107.007,33.0323,汉中市,南郑大河坎水厂,细颗粒物(PM2.5),74,68,78,54,67,61,,92,92,44,17,14,15,1.3,1.1
2024-02-13T1900,1223A,120.2072,30.2111,杭州市,滨江,,43,43,47,24,30,75,,88,88,16,11,4,5,0.2,0.3
2024-02-13T1900,1224A,120.0633,30.2747,杭州市,西溪,,36,31,40,25,27,78,,95,92,8,11,6,6,0.5,0.5
2024-02-13T1900,1226A,120.3461,30.3153,杭州市,下沙,,40,40,54,25,32,87,,101,98,11,9,7,7,0.5,0.5
2024-02-13T1900,1227A,120.1269,30.2456,杭州市,卧龙桥,,39,39,43,25,31,72,,89,88,16,17,4,4,0.3,0.3
2024-02-13T1900,1228A,120.1903,30.2692,杭州市,浙江农大,,40,38,48,28,33,70,,75,70,15,17,7,7,0.6,0.5
2024-02-13T1900,1230A,120.1197,30.3119,杭州市,和睦小学,,40,39,46,28,33,62,,80,79,22,15,6,6,0.5,0.5
2024-02-13T1900,1231A,120.3019,30.4183,杭州市,临平镇,,35,30,38,24,28,76,,93,91,12,8,6,6,0.4,0.3
2024-02-13T1900,1232A,120.2697,30.1819,杭州市,城厢镇,细颗粒物(PM2.5),52,52,51,36,34,73,,95,90,26,14,7,7,0.5,0.5
2024-02-13T1900,1233A,120.0883,30.1808,杭州市,云栖,,34,34,42,22,27,63,,84,84,14,17,8,7,0.6,0.5
2024-02-13T1900,3557A,119.9464,30.0494,杭州市,镇二中,,42,42,56,29,38,81,,84,84,7,15,7,7,0.5,0.6
2024-02-13T1900,3558A,119.7183,30.2367,杭州市,市府大楼,颗粒物(PM10),57,64,48,36,32,60,,81,81,17,10,6,5,0.6,0.5
2024-02-13T1900,3656A,120.1556,30.2864,杭州市,消防大队,,41,41,50,28,36,70,,82,81,20,22,8,8,0.8,0.8
2024-02-13T1900,1270A,117.1959,31.7848,合肥市,明珠广场,,46,46,43,24,23,85,,84,84,13,12,8,8,0.5,0.5
2024-02-13T1900,1271A,117.3072,31.8764,合肥市,三里街,,48,48,47,24,27,62,,73,73,32,20,6,6,0.5,0.5
2024-02-13T1900,1272A,117.2588,31.8707,合肥市,琥珀山庄,,41,41,43,22,26,81,,82,82,10,10,4,5,0.7,0.7
2024-02-13T1900,1273A,117.1604,31.9052,合肥市,董铺水库,,34,34,43,19,24,87,,82,82,4,4,3,3,0.3,0.4
2024-02-13T1900,1274A,117.25,31.8571,合肥市,长江中路,,41,41,45,23,26,83,,80,80,15,14,7,7,0.7,0.7
2024-02-13T1900,1275A,117.266,31.9436,合肥市,庐阳区,,41,41,41,22,21,76,,72,72,16,15,6,6,0.5,0.5
2024-02-13T1900,1276A,117.336,31.8586,合肥市,瑶海区,,36,36,42,23,26,79,,81,81,14,11,6,6,0.5,0.5
2024-02-13T1900,1277A,117.3027,31.7964,合肥市,包河区,,34,34,39,19,26,87,,87,87,12,11,6,6,0.4,0.4
2024-02-13T1900,1278A,117.2776,31.7385,合肥市,滨湖新区,,36,36,45,24,30,84,,83,83,8,8,6,6,0.7,0.7
2024-02-13T1900,1279A,117.1318,31.8403,合肥市,高新区,,36,36,37,22,23,89,,83,83,10,10,5,5,0.6,0.6
2024-02-13T1900,3464A,117.3803,31.9147,合肥市,高教基地,,36,36,42,24,29,89,,91,91,6,4,4,4,0.4,0.4
2024-02-13T1900,3614A,79.924,37.0877,和田地区,地区环保局,颗粒物(PM10),159,268,89,26,27,96,,91,91,6,20,4,11,0.3,0.6
2024-02-13T1900,3615A,79.9131,37.113,和田地区,市环保局,颗粒物(PM10),136,221,81,25,31,97,,90,90,3,33,4,10,0.2,1.3
2024-02-13T1900,2516A,108.2011,24.715,河池市,东仁乐园,细颗粒物(PM2.5),100,,66,75,50,43,,47,47,12,9,4,4,0.9,0.7
2024-02-13T1900,2517A,108.0497,24.6947,河池市,市环保站,细颗粒物(PM2.5),98,83,60,73,50,57,,59,59,18,17,8,8,0.8,0.7
2024-02-13T1900,2518A,108.0983,24.6989,河池市,市疾控中心,细颗粒物(PM2.5),95,,57,71,50,67,,74,73,18,16,9,9,0.8,0.6
2024-02-13T1900,1696A,114.6778,23.7569,河源市,源西,,50,47,47,35,33,73,,95,95,18,21,4,5,0.8,0.6
2024-02-13T1900,1697A,114.6944,23.7586,河源市,东埔,,40,28,58,28,44,92,,100,100,9,15,6,7,0.6,0.6
2024-02-13T1900,1698A,114.6892,23.7233,河源市,老城,,46,46,48,29,33,93,,102,102,7,8,6,6,0.6,0.6
2024-02-13T1900,1718A,115.4208,35.2464,菏泽市,气象局,细颗粒物(PM2.5),69,84,89,50,49,111,,118,118,17,8,6,5,0.6,0.6
2024-02-13T1900,1719A,115.4747,35.2375,菏泽市,市政协,颗粒物(PM10),73,95,83,45,48,101,,110,110,16,7,7,5,0.5,0.4
2024-02-13T1900,3374A,115.5564,35.0891,菏泽市,定陶老年大学,颗粒物(PM10),76,102,83,46,45,92,,110,110,22,13,8,7,0.5,0.4
2024-02-13T1900,3647A,115.4702,35.2706,菏泽市,菏泽医专,颗粒物(PM10),66,81,80,35,38,112,,113,113,25,14,11,8,0.5,0.5
2024-02-13T1900,2514A,111.5264,24.4172,贺州市,环保小区,颗粒物(PM10),59,67,55,38,39,62,,85,82,14,10,10,9,0.8,0.6
2024-02-13T1900,2515A,111.5608,24.4078,贺州市,政协大楼,颗粒物(PM10),57,63,59,33,36,54,,89,82,22,11,16,9,0.8,0.5
2024-02-13T1900,3534A,111.4744,24.4553,贺州市,西湾,细颗粒物(PM2.5),58,57,55,41,42,74,,86,85,13,11,10,10,0.6,0.5
2024-02-13T1900,2385A,114.17,35.9019,鹤壁市,市监测站,细颗粒物(PM2.5),143,136,140,109,93,97,,114,114,28,24,7,4,1.0,0.9
2024-02-13T1900,2386A,114.2956,35.7511,鹤壁市,市交警支队,细颗粒物(PM2.5),100,109,120,75,84,81,,110,110,21,12,13,12,0.7,0.7
2024-02-13T1900,2387A,114.2878,35.7306,鹤壁市,迎宾馆,细颗粒物(PM2.5),95,101,107,71,83,94,,114,114,30,17,7,9,0.7,0.7
2024-02-13T1900,3474A,114.2617,35.6822,鹤壁市,大新区,细颗粒物(PM2.5),97,102,124,72,90,86,,110,110,24,15,12,12,1.0,0.9
2024-02-13T1900,3596A,114.1572,35.9603,鹤壁市,南山宾馆,细颗粒物(PM2.5),134,135,105,102,76,111,,118,118,35,19,16,12,0.9,0.8
2024-02-13T1900,2244A,130.2537,47.3416,鹤岗市,哈啤分公司,颗粒物(PM10),53,56,75,34,43,86,,85,79,8,20,16,22,0.4,1
2024-02-13T1900,2245A,130.2684,47.3086,鹤岗市,斯达机电,颗粒物(PM10),62,74,79,41,49,91,,97,97,11,17,11,16,0.6,0.7
2024-02-13T1900,2246A,130.3114,47.3388,鹤岗市,东山纸板厂,细颗粒物(PM2.5),73,79,96,53,59,98,,106,106,11,28,14,21,0.2,1.2
2024-02-13T1900,2247A,130.1097,47.3382,鹤岗市,五号水库,细颗粒物(PM2.5),63,59,58,45,35,95,,103,103,8,11,9,11,0.7,0.7
2024-02-13T1900,2263A,127.4833,50.2524,黑河市,交通局,,36,,43,25,28,68,,73,73,7,8,9,8,0.3,0.5
2024-02-13T1900,2264A,127.5144,50.2341,黑河市,环保局,,40,,37,28,31,72,,71,71,8,13,5,8,0.2,0.4
2024-02-13T1900,2265A,127.5291,50.2472,黑河市,大黑河岛,,,52,51,30,32,64,,65,65,60,62,20,13,,
2024-02-13T1900,1074A,115.6838,37.7541,衡水市,电机北厂,细颗粒物(PM2.5),98,108,118,73,74,114,,110,110,8,7,7,7,0.7,0.8
2024-02-13T1900,1075A,115.6303,37.7316,衡水市,市监测站,细颗粒物(PM2.5),114,109,111,86,72,108,,106,106,18,14,10,9,0.8,0.8
2024-02-13T1900,3188A,115.6683,37.7217,衡水市,市城管局,细颗粒物(PM2.5),112,130,115,84,76,94,,104,104,21,12,13,12,0.7,0.7
2024-02-13T1900,3459A,115.5989,37.5491,衡水市,地表水厂,细颗粒物(PM2.5),109,127,119,82,79,106,,111,111,19,16,9,7,0.8,0.8
2024-02-13T1900,2456A,112.5003,26.9167,衡阳市,原169医院,,38,34,49,26,40,84,,90,89,8,12,18,25,0.7,0.9
2024-02-13T1900,2457A,112.6194,26.9258,衡阳市,衡阳化工总厂,,46,34,55,32,37,77,,79,79,9,11,22,8,0.5,0.4
2024-02-13T1900,2458A,112.6211,26.8956,衡阳市,珠晖区环保局,,46,46,56,29,42,90,,89,89,5,13,26,10,0.5,0.5
2024-02-13T1900,2459A,112.6197,26.8733,衡阳市,市委党校,,44,44,46,23,31,85,,93,91,8,9,17,12,0.7,0.6
2024-02-13T1900,2460A,112.6006,26.8919,衡阳市,市监测站,,44,44,65,30,48,80,,80,80,6,12,26,9,0.7,0.8
2024-02-13T1900,2461A,112.5664,26.9056,衡阳市,真空机电公司,,36,36,52,23,37,81,,82,82,9,14,8,9,0.7,0.8
2024-02-13T1900,3399A,112.6703,26.882,衡阳市,师范学院,,35,35,41,23,30,84,,94,93,8,5,10,10,0.5,0.5
2024-02-13T1900,2608A,103.3772,23.3993,红河哈尼族彝族自治州,污水处理厂,细颗粒物(PM2.5),53,38,39,37,31,86,,90,90,5,5,8,8,0.5,0.5
2024-02-13T1900,2609A,103.3861,23.35,红河哈尼族彝族自治州,监测站,,42,40,37,29,33,85,,90,90,6,5,10,8,0.6,0.6
2024-02-13T1900,3038A,103.3758,23.368,红河哈尼族彝族自治州,州图书馆,,35,29,33,24,26,79,,84,84,4,5,6,6,0.5,0.6
2024-02-13T1900,1090A,111.6507,40.7517,呼和浩特市,呼市一监,颗粒物(PM10),63,75,86,44,55,77,,93,93,28,32,18,16,0.6,0.8
2024-02-13T1900,1091A,111.6572,40.8033,呼和浩特市,小召,颗粒物(PM10),64,78,105,39,63,97,,94,94,28,51,18,16,0.7,1.1
2024-02-13T1900,1094A,111.7516,40.8369,呼和浩特市,如意水处理厂,颗粒物(PM10),66,81,84,40,53,52,,92,92,63,49,23,20,0.9,0.9
2024-02-13T1900,1095A,111.7276,40.8062,呼和浩特市,二十九中,颗粒物(PM10),69,88,87,37,47,80,,90,90,31,38,23,18,0.8,0.9
2024-02-13T1900,1096A,111.5512,40.7866,呼和浩特市,工大金川校区,颗粒物(PM10),71,92,78,40,40,51,,82,82,66,34,19,14,0.9,0.7
2024-02-13T1900,1097A,111.717,40.7612,呼和浩特市,化肥厂生活区,颗粒物(PM10),66,82,88,41,50,79,,87,87,33,32,25,21,0.7,0.8
2024-02-13T1900,3698A,111.5968,40.8178,呼和浩特市,红旗小学,颗粒物(PM10),78,105,80,48,44,47,,85,85,83,49,24,17,1.0,0.9
2024-02-13T1900,3699A,111.6518,40.8389,呼和浩特市,海东办,颗粒物(PM10),68,85,91,43,55,85,,89,89,41,53,23,18,0.6,0.8
2024-02-13T1900,2192A,119.7594,49.2261,呼伦贝尔市,区环保局,,26,26,26,13,18,78,,84,83,7,9,4,4,0.3,0.3
2024-02-13T1900,3061A,119.7512,49.1577,呼伦贝尔市,国华电力东,,35,,29,24,17,78,,84,83,5,5,4,4,0.2,0.3
2024-02-13T1900,1250A,120.0751,30.8669,湖州市,城西水厂,,38,38,55,19,33,88,,93,93,10,13,4,4,0.4,0.5
2024-02-13T1900,2873A,120.0875,30.8955,湖州市,仁皇山新区,,34,34,55,23,35,84,,90,90,11,15,6,6,0.5,0.6
2024-02-13T1900,2907A,120.1844,30.8596,湖州市,吴兴区站,,39,39,53,21,32,80,,91,90,12,10,7,6,0.5,0.5
2024-02-13T1900,3562A,120.4148,30.8538,湖州市,南浔区站,,44,44,56,27,32,90,,102,101,7,7,7,7,0.6,0.5
2024-02-13T1900,1607A,120.9092,40.7136,葫芦岛市,龙港区,细颗粒物(PM2.5),108,100,142,81,98,94,,91,91,19,19,10,13,0.9,1
2024-02-13T1900,1608A,120.8392,40.7514,葫芦岛市,化工街,细颗粒物(PM2.5),128,141,166,97,109,66,,81,81,26,18,14,13,1.9,1.8
2024-02-13T1900,1609A,120.8341,40.7073,葫芦岛市,新区,细颗粒物(PM2.5),108,100,135,81,99,73,,79,79,34,26,15,14,1.0,1.1
2024-02-13T1900,1610A,120.8695,40.7677,葫芦岛市,东城区,细颗粒物(PM2.5),145,118,159,111,118,52,,78,78,61,38,20,20,1.7,1.6
2024-02-13T1900,2482A,109.5981,27.5721,怀化市,林科所,,39,39,48,25,34,76,,96,88,4,4,1,3,0.4,0.1
2024-02-13T1900,2483A,109.9453,27.5444,怀化市,河西地税局,,40,31,64,28,53,73,,91,86,5,6,4,4,0.5,0.5
2024-02-13T1900,2484A,109.9781,27.5342,怀化市,市四医院,,38,31,84,26,66,79,,91,90,3,10,6,6,0.6,0.8
2024-02-13T1900,2485A,109.9972,27.5578,怀化市,监测楼,,40,36,115,28,102,66,,76,76,3,10,6,6,0.6,0.8
2024-02-13T1900,2486A,110.0394,27.583,怀化市,市委党校,,43,33,88,30,73,74,,80,80,1,7,7,8,0.4,0.6
2024-02-13T1900,1210A,119.036,33.5981,淮安市,钵池山,细颗粒物(PM2.5),55,58,56,39,41,66,,86,85,28,17,9,9,0.6,0.5
2024-02-13T1900,1211A,119.007,33.575,淮安市,北京南路,"颗粒物(PM10),细颗粒物(PM2.5)",54,58,59,38,42,76,,93,93,23,17,8,8,0.7,0.7
2024-02-13T1900,1212A,118.989,33.6067,淮安市,市监测站,颗粒物(PM10),53,56,60,36,40,77,,93,93,24,17,9,9,0.6,0.7
2024-02-13T1900,1213A,119.135,33.5039,淮安市,楚州区监测站,颗粒物(PM10),64,78,86,45,56,56,,93,90,37,26,8,9,0.6,0.6
2024-02-13T1900,1214A,119.0186,33.6297,淮安市,淮阴区监测站,颗粒物(PM10),62,73,75,40,49,74,,90,90,33,22,6,7,0.5,0.5
2024-02-13T1900,3426A,118.8755,33.2894,淮安市,新华书店,颗粒物(PM10),58,66,60,40,41,57,,84,82,32,20,8,7,0.5,0.5
2024-02-13T1900,2282A,116.8004,33.975,淮北市,监测站,细颗粒物(PM2.5),60,63,80,43,47,75,,92,91,29,18,9,8,0.7,0.7
2024-02-13T1900,2283A,116.8091,33.9007,淮北市,烈山区政府,颗粒物(PM10),65,80,74,40,44,93,,101,101,23,17,8,8,0.3,0.4
2024-02-13T1900,3330A,116.8873,33.9836,淮北市,杜集区检察院,颗粒物(PM10),57,64,69,36,39,99,,104,104,20,15,12,12,0.5,0.5
2024-02-13T1900,4017A,116.7923,33.9535,淮北市,市博物馆,细颗粒物(PM2.5),62,70,80,44,50,83,,94,94,27,21,9,10,0.5,0.8
2024-02-13T1900,2277A,116.8305,32.7727,淮南市,潘集区政府,细颗粒物(PM2.5),82,108,66,60,40,62,,85,84,19,10,6,4,0.5,0.4
2024-02-13T1900,2278A,117.0067,32.6524,淮南市,师范学院,颗粒物(PM10),56,62,56,30,34,73,,80,80,21,12,6,7,0.3,0.4
2024-02-13T1900,2279A,116.8569,32.5951,淮南市,谢家集区政府,,43,43,50,30,32,82,,92,92,15,10,6,5,0.5,0.4
2024-02-13T1900,2280A,116.8281,32.633,淮南市,八公山区政府,颗粒物(PM10),55,60,52,31,30,80,,90,90,16,8,3,3,0.4,0.4
2024-02-13T1900,2281A,116.6325,32.6201,淮南市,焦岗湖风景区管理处,,47,47,53,17,28,70,,74,74,12,9,4,3,0.2,0.1
2024-02-13T1900,2894A,117.0566,32.6531,淮南市,经济技术开发区消防队,颗粒物(PM10),54,58,61,29,32,79,,85,85,9,5,5,5,0.4,0.4
2024-02-13T1900,3329A,117.0108,32.5893,淮南市,山南新区,颗粒物(PM10),54,57,63,34,41,87,,88,88,14,9,5,5,0.5,0.4
2024-02-13T1900,2446A,114.9028,30.4742,黄冈市,职工中心,,45,45,48,28,31,82,,96,96,9,6,11,12,0.6,0.5
2024-02-13T1900,2929A,114.8858,30.4519,黄冈市,红卫路,,44,44,46,26,31,78,,87,87,8,5,8,9,0.6,0.6
2024-02-13T1900,3398A,114.9136,30.4445,黄冈市,市林业局,,39,39,43,27,30,85,,95,95,7,7,7,7,0.4,0.4
2024-02-13T1900,2672A,102.0199,35.5102,黄南藏族自治州,同仁县隆务镇,,38,38,28,5,12,67,,72,72,1,2,25,21,1.0,1
2024-02-13T1900,2295A,118.2903,29.6963,黄山市,延安路89号,,34,34,48,18,27,78,,75,75,4,6,6,6,0.3,0.3
2024-02-13T1900,2296A,118.327,29.7178,黄山市,黄山东路89号,,31,31,60,11,35,87,,70,70,4,17,5,5,0.6,0.8
2024-02-13T1900,2297A,118.1371,30.2756,黄山市,黄山区政府5号楼,,45,45,48,24,32,68,,73,73,8,8,5,4,0.6,0.6
2024-02-13T1900,2423A,115.0601,30.2313,黄石市,沈家营,,44,44,53,29,34,74,,86,86,25,25,13,19,1.1,1.2
2024-02-13T1900,2424A,115.0817,30.2006,黄石市,陈家湾,,49,43,51,34,40,80,,89,89,12,22,12,16,0.5,0.8
2024-02-13T1900,2426A,114.8988,30.2019,黄石市,铁山,,44,44,53,25,30,85,,100,100,21,18,13,11,0.6,0.7
2024-02-13T1900,2427A,115.0307,30.2092,黄石市,团城山,,50,50,59,22,29,84,,94,94,16,18,13,19,0.9,1
2024-02-13T1900,3149A,115.0235,30.1578,黄石市,笔架山北路,,38,38,41,19,25,82,,101,101,26,16,12,14,0.7,0.8
2024-02-13T1900,1392A,114.4183,23.0528,惠州市,河南岸金山湖子站,,32,32,46,20,32,94,,100,100,3,7,4,5,0.5,0.5
2024-02-13T1900,1393A,114.4053,23.0822,惠州市,下埔横江三路子站,,36,36,57,19,37,96,,106,106,7,14,4,5,0.5,0.6
2024-02-13T1900,1394A,114.4103,23.1142,惠州市,江北云山西路子站,,32,32,53,15,35,98,,111,111,2,7,8,9,0.5,0.5
2024-02-13T1900,1395A,114.4645,22.7833,惠州市,惠阳区承修路船湖子站,,42,42,45,23,27,102,,107,107,9,10,8,8,0.6,0.6
2024-02-13T1900,1396A,114.5317,22.7422,惠州市,大亚湾管委会子站,,42,42,46,24,25,107,,111,111,12,13,6,6,0.4,0.4
2024-02-13T1900,3314A,114.4338,22.8134,惠州市,惠阳秋长,,36,36,41,20,25,107,,115,115,3,5,7,7,0.5,0.4
2024-02-13T1900,3452A,114.6517,22.775,惠州市,大亚湾霞涌,,49,49,45,25,28,98,,111,111,18,9,8,8,0.4,0.5
2024-02-13T1900,2240A,130.9762,45.3001,鸡西市,环保局,颗粒物(PM10),71,91,64,46,39,93,,93,93,9,8,10,10,0.5,0.4
2024-02-13T1900,2243A,130.9429,45.3039,鸡西市,第一中学,颗粒物(PM10),71,91,66,49,40,105,,109,109,8,8,9,10,0.4,0.4
2024-02-13T1900,3707A,131.0207,45.3073,鸡西市,欧美日汽修厂,,,100,70,60,48,83,,91,89,,12,25,13,0.7,0.8
2024-02-13T1900,3709A,130.9967,45.3106,鸡西市,市政设施管理处,细颗粒物(PM2.5),77,89,67,56,47,107,,109,109,14,17,6,6,0.8,0.8
2024-02-13T1900,2367A,114.9754,27.0803,吉安市,红声器材厂,颗粒物(PM10),53,55,54,28,30,49,,65,65,21,15,12,10,1.0,0.8
2024-02-13T1900,2368A,114.9658,27.0999,吉安市,市森林工业局,,49,49,58,34,43,53,,58,58,13,18,8,8,0.4,0.4
2024-02-13T1900,2369A,114.99,27.1312,吉安市,市环境监测站,颗粒物(PM10),53,56,57,34,36,53,,62,62,15,16,8,7,0.5,0.5
2024-02-13T1900,2370A,115.0093,27.0968,吉安市,青原区法院,,50,50,51,31,33,54,,73,73,24,19,9,9,0.7,0.6
2024-02-13T1900,1772A,126.54,43.8622,吉林市,哈达湾,细颗粒物(PM2.5),94,113,86,70,58,104,,115,113,13,8,6,6,1.0,0.8
2024-02-13T1900,1773A,126.5844,43.8358,吉林市,东局子,细颗粒物(PM2.5),97,115,88,72,58,95,,109,106,18,12,13,13,0.9,1
2024-02-13T1900,1774A,126.5052,43.8245,吉林市,电力学院,细颗粒物(PM2.5),95,101,82,71,59,106,,115,113,11,9,12,12,1.0,0.8
2024-02-13T1900,1775A,126.6133,43.8972,吉林市,江北,细颗粒物(PM2.5),100,122,96,75,61,91,,106,103,16,11,15,18,1.0,0.8
2024-02-13T1900,1776A,126.555,43.8306,吉林市,江南公园,细颗粒物(PM2.5),105,114,88,79,65,101,,115,111,15,8,9,8,0.9,0.7
2024-02-13T1900,2868A,126.4739,43.953,吉林市,九站,细颗粒物(PM2.5),99,105,89,74,61,99,,121,115,15,10,14,15,1.0,0.9
2024-02-13T1900,1299A,116.9862,36.6114,济南市,科干所,细颗粒物(PM2.5),53,48,63,37,36,107,,116,116,8,5,10,10,0.8,0.8
2024-02-13T1900,1300A,116.9376,36.665,济南市,农科所,颗粒物(PM10),57,63,68,32,34,101,,111,111,17,13,11,9,0.7,0.7
2024-02-13T1900,1301A,117.1265,36.6734,济南市,开发区,颗粒物(PM10),55,59,55,32,31,101,,103,103,17,6,9,8,0.8,0.7
2024-02-13T1900,1303A,117.0624,36.6868,济南市,省种子仓库,颗粒物(PM10),57,63,64,34,31,95,,118,116,16,6,7,7,0.8,0.8
2024-02-13T1900,1304A,116.9489,36.6447,济南市,机床二厂,颗粒物(PM10),59,68,69,34,34,106,,120,120,19,9,23,12,1.0,0.9
2024-02-13T1900,1305A,117.0495,36.663,济南市,市监测站,细颗粒物(PM2.5),55,49,60,39,35,90,,118,116,34,12,15,15,0.7,0.6
2024-02-13T1900,1306A,116.7675,36.5484,济南市,长清党校,细颗粒物(PM2.5),74,66,77,54,45,120,,125,125,20,14,11,10,0.9,0.8
2024-02-13T1900,1616A,117.6795,36.229,济南市,技术学院,"颗粒物(PM10),细颗粒物(PM2.5)",62,73,81,44,47,86,,112,112,40,29,14,15,1.0,1
2024-02-13T1900,1961A,117.532,36.6868,济南市,东山小学,细颗粒物(PM2.5),77,78,68,56,37,93,,120,118,24,12,9,10,0.5,0.5
2024-02-13T1900,3059A,117.7161,36.2049,济南市,泰兴公司,颗粒物(PM10),67,83,87,44,52,70,,109,107,32,25,15,14,1.0,1.2
2024-02-13T1900,3064A,117.6867,36.2171,济南市,莱芜战役纪念馆,颗粒物(PM10),62,73,91,41,46,82,,104,104,28,25,14,14,0.8,1
2024-02-13T1900,3494A,117.1673,36.9782,济南市,济阳区政府,颗粒物(PM10),62,73,77,42,39,111,,118,118,18,14,12,11,0.6,0.5
2024-02-13T1900,3495A,117.1171,36.63,济南市,锦屏中学,颗粒物(PM10),56,61,57,32,32,90,,116,114,19,8,9,9,0.6,0.5
2024-02-13T1900,3682A,116.9814,36.6819,济南市,济南四建,细颗粒物(PM2.5),62,56,58,44,40,96,,110,110,36,18,17,13,0.9,0.7
2024-02-13T1900,1653A,116.6251,35.4302,济宁市,火炬城,细颗粒物(PM2.5),77,90,80,56,45,95,,102,102,15,12,8,7,0.9,0.8
2024-02-13T1900,1655A,116.5491,35.4042,济宁市,电化厂,颗粒物(PM10),72,93,83,48,41,104,,109,109,21,12,7,7,0.7,0.6
2024-02-13T1900,3500A,116.5814,35.3707,济宁市,北湖一中,细颗粒物(PM2.5),70,75,80,51,46,98,,103,103,14,11,9,9,0.7,0.5
2024-02-13T1900,3501A,116.8249,35.5593,济宁市,服务中心,颗粒物(PM10),71,92,90,45,43,92,,105,105,18,15,6,7,0.6,0.9
2024-02-13T1900,3678A,116.5907,35.4054,济宁市,市第七中学,颗粒物(PM10),71,91,86,51,42,97,,106,106,23,13,6,6,0.9,0.8
2024-02-13T1900,2255A,130.2751,46.8028,佳木斯市,佳纺,细颗粒物(PM2.5),88,94,80,65,53,86,,113,108,17,12,16,7,0.8,0.8
2024-02-13T1900,2256A,130.3995,46.8307,佳木斯市,发电厂,细颗粒物(PM2.5),85,85,76,63,51,91,,112,109,16,15,5,8,0.7,0.7
2024-02-13T1900,2257A,130.3258,46.7975,佳木斯市,环保局,细颗粒物(PM2.5),88,86,76,65,56,87,,111,107,14,10,8,9,0.7,0.7
2024-02-13T1900,2258A,130.3648,46.8032,佳木斯市,十一中,细颗粒物(PM2.5),88,93,80,65,57,84,,110,106,18,11,9,10,0.8,0.7
2024-02-13T1900,2259A,130.3794,46.7588,佳木斯市,四丰,,,84,70,51,43,,,120,,,8,1,1,,0.3
2024-02-13T1900,1252A,120.7436,30.778,嘉兴市,清河小学,颗粒物(PM10),52,54,56,32,26,63,,94,90,28,7,6,6,0.5,0.5
2024-02-13T1900,1253A,120.726,30.7478,嘉兴市,嘉兴学院,,48,48,57,26,29,73,,100,98,20,9,5,6,0.6,0.6
2024-02-13T1900,2872A,120.7846,30.7525,嘉兴市,南湖区残联,颗粒物(PM10),58,65,64,30,30,87,,107,105,16,5,9,6,0.6,0.5
2024-02-13T1900,3407A,120.6916,30.7739,嘉兴市,秀洲住建,,40,40,55,22,30,71,,93,91,19,11,7,7,0.5,0.5
2024-02-13T1900,1945A,98.2908,39.7711,嘉峪关市,气象局,,27,27,77,9,25,86,,83,83,5,24,4,40,0.4,1.1
2024-02-13T1900,2884A,98.2672,39.7978,嘉峪关市,酒钢宾馆,,29,29,73,9,24,81,,84,84,14,16,23,36,0.8,0.7
2024-02-13T1900,3248A,98.2643,39.7724,嘉峪关市,雄关区,,39,39,66,11,26,84,,78,78,7,28,7,32,0,0.7
2024-02-13T1900,1383A,113.1064,22.6058,江门市,北街,,30,28,43,19,28,96,,110,110,10,15,7,8,0.3,0.3
2024-02-13T1900,1384A,113.0731,22.5835,江门市,西区,细颗粒物(PM2.5),57,,51,40,35,96,,110,110,12,17,5,7,0.5,0.3
2024-02-13T1900,1385A,113.0219,22.5311,江门市,圭峰西,,38,35,43,26,25,107,,116,116,11,13,6,6,0.5,0.5
2024-02-13T1900,1386A,113.0828,22.5947,江门市,东湖,,49,46,50,34,39,99,,108,108,10,15,6,7,0.4,0.5
2024-02-13T1900,3311A,113.1075,22.5647,江门市,江海富民,,41,41,52,15,23,102,,115,115,10,14,6,7,0.4,0.4
2024-02-13T1900,3449A,113.05,22.4667,江门市,新会银湖,,38,34,44,26,27,100,,116,116,10,15,5,6,0.6,0.5
2024-02-13T1900,1828A,113.227,35.2125,焦作市,市环保局,细颗粒物(PM2.5),107,141,124,80,87,100,,106,106,24,21,19,13,1.4,1.2
2024-02-13T1900,3169A,113.2725,35.2067,焦作市,太极体育中心,细颗粒物(PM2.5),119,143,129,90,89,106,,114,114,32,27,20,14,1.1,1.1
2024-02-13T1900,3335A,113.3137,35.2641,焦作市,马村街道办,细颗粒物(PM2.5),118,158,107,89,75,93,,114,114,27,19,18,15,0.7,0.7
2024-02-13T1900,3336A,113.2465,35.2373,焦作市,焦作技师学院,细颗粒物(PM2.5),110,130,104,83,70,91,,105,105,34,25,25,19,1.4,1.2
2024-02-13T1900,3477A,113.1656,35.2539,焦作市,中站许衡医院,细颗粒物(PM2.5),100,129,97,75,62,112,,113,113,21,17,22,13,1.0,0.9
2024-02-13T1900,3981A,113.2449,35.1803,焦作市,原李万街道办,细颗粒物(PM2.5),110,118,119,83,75,106,,112,112,31,27,25,18,1.3,1.2
2024-02-13T1900,1708A,116.3701,23.5345,揭阳市,新兴,细颗粒物(PM2.5),54,46,64,38,48,109,,116,116,10,10,8,9,0.8,0.8
2024-02-13T1900,1709A,116.3264,23.5443,揭阳市,西马,颗粒物(PM10),59,68,62,38,48,110,,116,116,8,8,8,9,0.6,0.6
2024-02-13T1900,1710A,116.3611,23.5626,揭阳市,东兴,,46,46,63,32,44,109,,116,116,7,9,8,8,0.7,0.6
2024-02-13T1900,1711A,116.4151,23.5294,揭阳市,渔湖,颗粒物(PM10),51,51,66,34,44,110,,117,117,8,9,8,9,0.7,0.7
2024-02-13T1900,3320A,116.403,23.5699,揭阳市,曲溪,颗粒物(PM10),52,54,68,30,47,104,,118,118,11,10,5,4,0.9,0.6
2024-02-13T1900,1944A,102.1692,38.5167,金昌市,天庆家园,,50,50,67,7,27,92,,88,88,9,19,8,12,0.4,0.6
2024-02-13T1900,3170A,102.1864,38.5253,金昌市,市委党校,颗粒物(PM10),55,59,70,15,31,92,,88,88,3,18,6,11,0.6,0.6
2024-02-13T1900,4022A,102.1647,38.5371,金昌市,金川区人防中心,,48,48,57,11,22,94,,88,88,5,9,5,9,0.4,0.5
2024-02-13T1900,1262A,119.647,29.077,金华市,十五中,颗粒物(PM10),59,68,53,39,31,65,,89,70,16,12,4,4,0.6,0.5
2024-02-13T1900,1263A,119.686,29.1029,金华市,监测站,颗粒物(PM10),55,60,57,35,32,70,,91,86,16,11,3,3,0.6,0.4
2024-02-13T1900,3659A,119.656,29.1131,金华市,气象局,细颗粒物(PM2.5),58,61,50,41,31,64,,90,81,12,15,4,3,0.8,0.6
2024-02-13T1900,1767A,121.1115,41.0879,锦州市,南山,细颗粒物(PM2.5),150,125,163,115,126,100,,101,101,36,28,26,48,1.0,1.2
2024-02-13T1900,1768A,121.0533,40.8434,锦州市,开发区,细颗粒物(PM2.5),112,118,152,84,103,68,,78,78,42,30,17,18,1.1,1.2
2024-02-13T1900,1769A,121.1836,41.1119,锦州市,百股街道,细颗粒物(PM2.5),156,134,143,119,112,71,,87,87,28,20,24,23,1.3,1.2
2024-02-13T1900,1770A,121.1178,41.1222,锦州市,天安街道,细颗粒物(PM2.5),188,155,170,141,126,43,,83,78,63,34,23,32,1.6,1.4
2024-02-13T1900,1771A,121.1303,41.1386,锦州市,北湖公园,细颗粒物(PM2.5),195,,140,146,123,55,,79,77,46,33,22,31,1.7,1.4
2024-02-13T1900,2160A,112.85,35.5051,晋城市,自来水公司,细颗粒物(PM2.5),77,97,105,56,63,127,,108,108,19,28,18,18,1.0,1.7
2024-02-13T1900,2161A,112.8318,35.4936,晋城市,白云商贸,颗粒物(PM10),79,107,115,53,59,119,,105,105,20,25,16,17,1.0,1.3
2024-02-13T1900,2162A,112.8508,35.4887,晋城市,市环保局,颗粒物(PM10),85,120,126,61,67,120,,105,105,21,33,17,17,1.0,1.6
2024-02-13T1900,2163A,112.8676,35.4897,晋城市,技术学院,,,,109,,58,125,,106,106,19,34,19,17,,1.7
2024-02-13T1900,3620A,112.8271,35.4828,晋城市,泽州一中,细颗粒物(PM2.5),73,94,99,53,53,119,,106,106,20,23,18,21,1.2,1.4
2024-02-13T1900,2171A,112.7532,37.6945,晋中市,锦纶小区,颗粒物(PM10),71,92,84,44,44,88,,114,114,38,21,15,18,0.7,0.6
2024-02-13T1900,2173A,112.7249,37.7067,晋中市,南都小区,颗粒物(PM10),73,95,112,48,63,72,,112,112,63,33,18,18,0.8,0.8
2024-02-13T1900,2174A,112.6991,37.6982,晋中市,榆次区政府,颗粒物(PM10),63,75,90,44,52,103,,114,114,22,28,21,19,0.8,0.8
2024-02-13T1900,2865A,112.7195,37.6828,晋中市,榆次三中,颗粒物(PM10),68,85,89,46,44,106,,116,116,22,27,18,18,0.8,0.8
2024-02-13T1900,2439A,112.2014,31.0481,荆门市,竹园小学,,,75,81,49,53,95,,102,102,21,20,,10,0.9,0.8
2024-02-13T1900,2440A,112.1969,30.9891,荆门市,掇刀,细颗粒物(PM2.5),74,76,77,54,55,86,,104,104,28,22,12,12,0.8,0.7
2024-02-13T1900,2441A,112.2213,31.0386,荆门市,石化一小,细颗粒物(PM2.5),77,72,80,56,57,103,,104,104,15,17,15,17,0.7,0.8
2024-02-13T1900,3012A,112.1849,31.0362,荆门市,西山林语,颗粒物(PM10),76,102,80,42,49,91,,102,102,17,15,14,21,0.6,0.7
2024-02-13T1900,3547A,112.1632,31.0138,荆门市,龙泉中学南校,细颗粒物(PM2.5),83,80,74,61,54,104,,105,105,14,20,8,10,0.5,0.6
2024-02-13T1900,1844A,112.2494,30.3197,荆州市,市图书馆,细颗粒物(PM2.5),64,62,63,46,52,86,,89,89,20,17,8,8,0.9,0.9
2024-02-13T1900,1845A,112.2008,30.3544,荆州市,市委党校,细颗粒物(PM2.5),64,55,62,46,53,98,,96,96,23,20,6,6,0.6,0.6
2024-02-13T1900,3194A,112.2747,30.3122,荆州市,管委会,细颗粒物(PM2.5),59,48,57,42,51,97,,96,96,12,14,9,10,0.6,0.7
2024-02-13T1900,3548A,112.1655,30.3364,荆州市,学苑路,细颗粒物(PM2.5),54,42,54,38,50,86,,89,89,17,16,6,7,0.9,1
2024-02-13T1900,2342A,117.3102,29.3867,景德镇市,王港中学,,31,31,35,20,29,52,,78,78,3,4,3,4,0.4,0.1
2024-02-13T1900,2343A,117.2117,29.2933,景德镇市,老干部活动中心,,42,33,38,29,25,43,,66,65,9,9,7,6,0.3,0.3
2024-02-13T1900,2344A,117.1894,29.2789,景德镇市,兽医站,,,42,42,,28,50,,77,77,6,10,6,5,0.3,0.4
2024-02-13T1900,2345A,117.1547,29.2617,景德镇市,台达陶瓷,,35,32,41,24,26,53,,76,73,10,11,4,4,0.4,0.5
2024-02-13T1900,2346A,117.2461,29.2956,景德镇市,陶研所,,25,25,29,10,18,48,,72,70,8,8,3,4,0.4,0.5
2024-02-13T1900,1803A,115.9872,29.6815,九江市,十里,,40,40,56,26,39,80,,89,89,16,24,10,10,0.6,0.7
2024-02-13T1900,1804A,115.9584,29.7046,九江市,茅山头,,45,35,73,31,60,83,,83,83,20,45,11,12,0.6,0.9
2024-02-13T1900,1805A,115.9877,29.7295,九江市,西园,,43,43,72,28,52,73,,77,77,24,42,7,8,0.7,0.6
2024-02-13T1900,1806A,116.0172,29.6547,九江市,五七二七厂,,40,32,32,28,25,64,,74,74,13,12,9,9,0.6,0.6
2024-02-13T1900,1808A,115.9114,29.6038,九江市,综合工业园,,38,36,38,26,30,95,,99,99,16,16,11,13,0.3,0.4
2024-02-13T1900,1809A,116.0721,29.7535,九江市,石化总厂,,36,36,44,23,30,92,,95,95,15,11,10,12,0.6,0.6
2024-02-13T1900,1810A,115.9773,29.5698,九江市,庐山气象台,,32,26,22,22,18,94,,93,93,5,2,6,7,2.0,1
2024-02-13T1900,3190A,116.0254,29.6994,九江市,外国语学校,,45,42,47,31,32,65,,71,71,27,26,9,9,0.6,0.7
2024-02-13T1900,2658A,98.5061,39.7443,酒泉市,仓门街子站,颗粒物(PM10),52,53,74,24,34,86,,88,88,4,12,3,6,0.2,0.4
2024-02-13T1900,2659A,98.4989,39.7256,酒泉市,油田生活基地,颗粒物(PM10),56,61,72,22,31,91,,91,91,3,9,5,7,0.3,0.4
2024-02-13T1900,2698A,76.0072,39.4467,喀什地区,巡警大队,,45,45,81,6,22,96,,90,90,12,41,4,8,0.6,1.4
2024-02-13T1900,2699A,75.9755,39.4694,喀什地区,吾办,颗粒物(PM10),51,51,110,13,39,81,,79,79,25,51,2,6,0.5,1.7
2024-02-13T1900,4027A,75.9483,39.4689,喀什地区,老干局,,45,45,101,10,27,91,,89,89,14,36,3,7,0.6,1.5
2024-02-13T1900,1824A,114.3389,34.7781,开封市,肿瘤医院,细颗粒物(PM2.5),79,87,96,58,61,93,,102,102,16,12,2,2,0.7,0.7
2024-02-13T1900,1826A,114.2885,34.7965,开封市,世纪星幼儿园,细颗粒物(PM2.5),82,91,103,60,72,96,,107,107,16,9,7,7,0.6,0.6
2024-02-13T1900,3147A,114.3438,34.8106,开封市,龙亭公园,细颗粒物(PM2.5),78,85,97,57,60,88,,100,100,18,14,6,5,0.7,1
2024-02-13T1900,3210A,114.3644,34.7964,开封市,汴京公园,细颗粒物(PM2.5),85,99,108,63,69,79,,101,101,28,16,5,4,0.7,0.7
2024-02-13T1900,3473A,114.2485,34.8306,开封市,技师学院,细颗粒物(PM2.5),73,78,93,53,63,108,,106,106,7,7,4,3,0.9,0.8
2024-02-13T1900,3592A,114.4644,34.7556,开封市,祥符区生态环境局,细颗粒物(PM2.5),77,87,97,56,62,83,,103,103,23,15,6,5,0.7,0.5
2024-02-13T1900,1951A,84.895,45.6094,克拉玛依市,长征新村,,24,17,77,3,47,76,,83,77,14,20,9,10,0.3,0.6
2024-02-13T1900,1952A,84.8988,45.5893,克拉玛依市,南林小区,,25,21,79,13,61,77,,79,79,15,18,3,4,0.3,0.7
2024-02-13T1900,1954A,84.905,44.3396,克拉玛依市,独山子区,细颗粒物(PM2.5),65,60,22,47,17,82,,83,83,20,23,5,6,0.5,0.4
2024-02-13T1900,1955A,85.6979,46.098,克拉玛依市,乌尔禾区商贸楼,,26,22,34,9,18,82,,78,78,15,24,5,4,0.3,0.4
2024-02-13T1900,3612A,85.1045,45.6899,克拉玛依市,白碱滩区新站,,26,25,57,11,34,82,,81,81,8,11,9,10,0.3,0.4
2024-02-13T1900,2697A,76.1454,39.7142,克孜勒苏柯尔克孜自治州,市人民政府,,41,30,37,17,10,88,,95,90,7,4,5,4,4.1,0.8
2024-02-13T1900,3665A,76.1658,39.7157,克孜勒苏柯尔克孜自治州,克州文化中心,,34,34,36,19,9,87,,98,91,9,5,6,5,0.4,0.3
2024-02-13T1900,1450A,102.8204,24.8886,昆明市,呈贡新区,,28,20,30,8,25,88,,94,94,5,6,5,6,0.5,0.7
2024-02-13T1900,1451A,102.6251,24.9608,昆明市,西山森林公园,,29,19,26,14,19,92,,98,98,4,6,6,7,0.8,1
2024-02-13T1900,1452A,102.7252,25.0902,昆明市,龙泉镇,,28,27,29,11,21,89,,96,96,7,11,11,12,0.4,0.6
2024-02-13T1900,1453A,102.7266,25.0375,昆明市,东风东路,,26,17,29,16,26,82,,91,91,10,11,5,10,0.4,0.7
2024-02-13T1900,1454A,102.6742,25.0669,昆明市,金鼎山,,29,24,34,8,22,91,,96,96,6,11,6,7,0.5,0.7
2024-02-13T1900,1455A,102.6644,25.0401,昆明市,碧鸡广场,,28,16,30,12,23,88,,94,94,5,9,7,10,0.5,0.7
2024-02-13T1900,3179A,102.7494,25.0119,昆明市,官渡区博物馆,,,28,30,12,24,83,,82,,,11,8,8,0.3,0.7
2024-02-13T1900,3375A,102.8017,24.8336,昆明市,青年创业园,,29,12,29,9,23,90,,94,94,2,7,10,10,0.5,0.7
2024-02-13T1900,3550A,102.7997,24.9786,昆明市,昆明学院,,27,15,31,8,23,84,,91,91,2,5,7,8,0.5,0.7
2024-02-13T1900,3551A,102.5967,24.6736,昆明市,晋宁区生态环境分局,,30,24,38,12,23,93,,94,94,7,9,3,4,0.5,0.7
2024-02-13T1900,3552A,102.6678,24.9856,昆明市,云天化总部,,27,15,28,11,22,85,,95,94,5,7,7,7,0.7,0.8
2024-02-13T1900,1456A,91.1319,29.6514,拉萨市,八廓街,,32,12,14,6,8,102,,87,87,12,14,7,6,0.3,0.3
2024-02-13T1900,1457A,91.1221,29.6747,拉萨市,市环保局,,33,10,19,5,12,104,,89,89,8,15,7,6,0.5,0.7
2024-02-13T1900,1458A,91.0874,29.6475,拉萨市,区监测站,,34,14,14,5,8,106,,89,89,4,12,4,4,0.4,0.6
2024-02-13T1900,1459A,91.1774,29.6541,拉萨市,西藏大学,,33,10,13,5,7,105,,90,90,5,6,4,4,0.3,0.4
2024-02-13T1900,1460A,90.9798,29.6588,拉萨市,区辐射站,,32,19,16,6,10,101,,87,87,6,11,5,5,0.3,0.4
2024-02-13T1900,1461A,91.0834,29.6292,拉萨市,拉萨火车站,,33,13,13,5,7,105,,88,88,6,15,4,4,0.2,0.4
2024-02-13T1900,2520A,109.2203,23.7256,来宾市,来宾技工学校,细颗粒物(PM2.5),134,119,95,102,78,54,,61,61,22,19,9,11,1.1,0.9
2024-02-13T1900,3535A,109.1781,23.7297,来宾市,兴宾区政府,细颗粒物(PM2.5),89,91,78,66,58,64,,74,66,19,15,9,11,1.1,0.8
2024-02-13T1900,4002A,109.2416,23.7461,来宾市,中南小学,细颗粒物(PM2.5),158,143,111,120,82,42,,46,46,33,30,7,9,1.5,1.2
2024-02-13T1900,1476A,103.631,36.1031,兰州市,兰炼宾馆,细颗粒物(PM2.5),82,76,80,60,54,66,,86,86,51,48,25,28,1.1,1.1
2024-02-13T1900,1478A,103.8412,36.0726,兰州市,生物制品所,细颗粒物(PM2.5),64,75,78,46,56,88,,64,64,36,54,29,21,0.8,1.3
2024-02-13T1900,1479A,103.831,36.0464,兰州市,铁路设计院,颗粒物(PM10),64,78,83,45,58,85,,59,59,36,68,28,27,0.8,1.7
2024-02-13T1900,3186A,103.7158,36.1058,兰州市,教育港,细颗粒物(PM2.5),59,61,68,42,51,81,,71,71,32,52,18,23,0.7,1.3
2024-02-13T1900,3241A,103.7439,36.0842,兰州市,百合公园,,49,49,72,27,53,75,,64,64,32,55,10,17,0.8,1.6
2024-02-13T1900,3242A,103.9611,35.998,兰州市,和平,颗粒物(PM10),56,62,69,37,48,77,,76,76,31,30,24,26,1.0,1.4
2024-02-13T1900,3245A,103.6633,36.533,兰州新区,新区管委会,颗粒物(PM10),67,83,46,30,28,87,,83,83,8,13,8,17,0.4,0.7
2024-02-13T1900,3246A,103.6975,36.4789,兰州新区,舟曲中学,颗粒物(PM10),55,60,48,23,28,89,,82,82,9,17,8,21,0.4,0.8
2024-02-13T1900,1067A,116.6708,39.5111,廊坊市,药材公司,细颗粒物(PM2.5),182,217,243,137,158,98,,118,118,42,47,7,7,1.2,1.3
2024-02-13T1900,1068A,116.7214,39.5589,廊坊市,开发区,细颗粒物(PM2.5),189,189,212,142,156,120,,120,120,19,37,8,6,1.0,1.2
2024-02-13T1900,1070A,116.7244,39.5269,廊坊市,北华航天学院,细颗粒物(PM2.5),180,215,225,136,151,,,125,125,67,39,6,6,1.2,1.2
2024-02-13T1900,2919A,116.7022,39.5453,廊坊市,河北工业大学,细颗粒物(PM2.5),199,208,222,149,162,90,,118,118,47,38,8,7,1.2,1.2
2024-02-13T1900,2535A,103.7723,29.5462,乐山市,花湖湾,细颗粒物(PM2.5),87,67,113,64,91,111,,93,93,16,20,8,42,0.5,0.8
2024-02-13T1900,2536A,103.7627,29.5844,乐山市,牛耳桥,细颗粒物(PM2.5),92,85,99,68,85,74,,89,89,52,33,6,6,1.1,1.1
2024-02-13T1900,2537A,103.7508,29.6006,乐山市,市第三水厂,细颗粒物(PM2.5),90,93,99,67,79,62,,89,89,67,36,5,5,1.1,1.1
2024-02-13T1900,2538A,103.7571,29.5664,乐山市,市监测站,细颗粒物(PM2.5),92,76,95,68,77,111,,92,92,16,25,8,22,0.5,0.9
2024-02-13T1900,3361A,103.7311,29.5628,乐山市,理工大学,细颗粒物(PM2.5),87,69,96,64,81,119,,99,99,10,24,7,17,0.7,1
2024-02-13T1900,2599A,100.2497,26.8802,丽江市,丽江古城,,28,22,22,15,14,89,,87,87,17,17,8,7,0.5,0.5
2024-02-13T1900,2600A,100.2203,26.8906,丽江市,市中心,,26,18,11,7,5,83,,86,86,16,11,10,8,0.5,0.5
2024-02-13T1900,1267A,119.914,28.4514,丽水市,监测站大楼,"颗粒物(PM10),细颗粒物(PM2.5)",62,73,46,44,30,17,,88,80,46,10,6,5,1.4,0.5
2024-02-13T1900,1268A,119.93,28.4586,丽水市,莲都小学,颗粒物(PM10),56,62,50,30,29,33,,89,85,38,10,4,4,0.8,0.5
2024-02-13T1900,1269A,119.879,28.4231,丽水市,余庄前,,27,27,38,17,24,47,,93,89,7,5,4,4,0.5,0.5
2024-02-13T1900,1173A,119.176,34.5885,连云港市,市环境监测站,细颗粒物(PM2.5),77,83,83,56,56,86,,99,99,30,22,9,8,0.7,0.8
2024-02-13T1900,3000A,119.3581,34.6972,连云港市,德源药业,细颗粒物(PM2.5),62,61,76,44,50,98,,107,107,14,13,6,6,0.4,0.5
2024-02-13T1900,3007A,119.178,34.844,连云港市,新城一中,细颗粒物(PM2.5),107,99,81,80,59,42,,96,91,62,24,10,11,0.9,0.7
2024-02-13T1900,3008A,119.3608,34.7519,连云港市,胡沟管理处,细颗粒物(PM2.5),55,58,70,39,41,103,,95,95,18,20,14,11,0.4,0.4
2024-02-13T1900,3009A,119.1478,34.5911,连云港市,矿山设计院,细颗粒物(PM2.5),79,88,88,58,55,84,,97,97,27,17,8,8,0.7,0.7
2024-02-13T1900,3434A,119.2413,34.6539,连云港市,工贸学校,细颗粒物(PM2.5),80,86,80,59,48,110,,116,116,29,22,13,11,0.7,0.7
2024-02-13T1900,3664A,119.4172,34.7341,连云港市,连云街道,颗粒物(PM10),76,102,99,54,52,112,,79,70,13,35,5,10,0.7,0.8
2024-02-13T1900,2571A,102.3431,27.8099,凉山彝族自治州,青龙寺,,27,24,23,5,6,86,,96,96,5,5,4,5,0.7,0.8
2024-02-13T1900,2572A,102.2721,27.8415,凉山彝族自治州,邛海宾馆,,50,35,25,35,34,99,,95,95,6,9,10,10,0.6,0.8
2024-02-13T1900,2573A,102.2625,27.898,凉山彝族自治州,西昌市政府,,31,26,21,17,16,99,,100,100,8,6,14,11,0.9,0.9
2024-02-13T1900,2574A,102.2685,27.8851,凉山彝族自治州,凉山州政府,,29,22,22,15,17,91,,90,90,8,9,11,9,0.7,0.8
2024-02-13T1900,2575A,102.237,27.8914,凉山彝族自治州,长安,,30,19,26,10,18,95,,95,95,8,11,18,14,1.5,1.1
2024-02-13T1900,2212A,123.2,41.1953,辽阳市,宏伟区,细颗粒物(PM2.5),83,81,87,61,63,95,,98,98,9,8,13,15,0.9,0.9
2024-02-13T1900,2213A,123.1683,41.2495,辽阳市,新华园,细颗粒物(PM2.5),89,82,85,66,66,96,,102,102,13,9,14,17,1.0,1
2024-02-13T1900,2214A,123.2354,41.2639,辽阳市,滨河路,细颗粒物(PM2.5),97,,79,72,73,89,,93,93,8,8,10,14,1.0,1
2024-02-13T1900,2215A,123.149,41.2991,辽阳市,铁西工业园,细颗粒物(PM2.5),94,77,84,70,67,102,,105,105,14,12,14,16,0.9,1
2024-02-13T1900,2227A,125.1358,42.8845,辽源市,环保局,细颗粒物(PM2.5),78,78,65,57,45,104,,121,120,14,10,12,12,1.2,0.9
2024-02-13T1900,3239A,125.0764,42.9078,辽源市,银鹰制药,细颗粒物(PM2.5),88,85,72,65,50,99,,124,122,14,5,12,9,1.2,0.8
2024-02-13T1900,1625A,115.9848,36.4372,聊城市,区政府,颗粒物(PM10),75,100,94,51,52,103,,108,108,16,8,10,7,0.8,0.7
2024-02-13T1900,2878A,116.0072,36.4343,聊城市,聊大东校,细颗粒物(PM2.5),80,89,84,59,54,117,,119,118,16,13,8,9,0.7,0.8
2024-02-13T1900,3200A,115.9819,36.4978,聊城市,监控中心,"颗粒物(PM10),细颗粒物(PM2.5)",79,107,91,58,48,108,,112,112,16,7,9,9,0.9,0.7
2024-02-13T1900,3513A,116.0445,36.4361,聊城市,九州社区,颗粒物(PM10),79,108,102,51,49,110,,114,114,20,14,6,6,0.6,0.7
2024-02-13T1900,4018A,116.0567,36.4608,聊城市,星美广场,颗粒物(PM10),76,102,105,52,51,111,,112,112,15,11,2,3,0.8,0.8
2024-02-13T1900,2632A,94.3681,29.6376,林芝市,林芝监测站,,28,,12,9,6,88,,86,86,2,2,4,4,0.5,0.5
2024-02-13T1900,2633A,94.3616,29.6616,林芝市,林芝人民医院,,27,13,12,7,7,86,,83,83,2,3,10,10,0.5,0.5
2024-02-13T1900,2603A,100.0781,23.8982,临沧市,市环保局,,43,,34,30,34,91,,90,90,6,8,6,6,0.2,0.4
2024-02-13T1900,2604A,100.0894,23.8822,临沧市,市气象局,,27,26,40,15,32,84,,88,88,6,8,6,7,0.2,0.4
2024-02-13T1900,1733A,111.5531,36.0783,临汾市,临钢医院,颗粒物(PM10),73,95,97,46,50,96,,106,106,20,16,12,12,0.9,1
2024-02-13T1900,1734A,111.5028,36.0714,临汾市,技工学校,细颗粒物(PM2.5),79,97,113,58,64,105,,113,113,24,24,15,18,0.8,1
2024-02-13T1900,1736A,111.5018,36.0855,临汾市,市委,,,,109,,55,,,114,114,22,17,14,17,0.9,1.1
2024-02-13T1900,3018A,111.505,36.1014,临汾市,唐尧大酒店,颗粒物(PM10),68,85,101,40,55,113,,111,111,25,28,16,18,0.7,1.1
2024-02-13T1900,3668A,111.5036,36.0414,临汾市,城南,细颗粒物(PM2.5),84,92,111,62,62,112,,112,112,18,20,17,15,0.7,1.1
2024-02-13T1900,2667A,103.2069,35.5993,临夏回族自治州,环保局,,36,36,53,16,24,53,,67,67,23,25,16,19,0.6,1.6
2024-02-13T1900,2668A,103.2417,35.6057,临夏回族自治州,建设大厦,,46,,38,32,27,74,,69,69,19,16,14,16,0.5,0.9
2024-02-13T1900,1618A,118.3429,35.0532,临沂市,沂河小区,细颗粒物(PM2.5),63,66,85,45,60,84,,99,99,20,20,9,10,0.6,0.8
2024-02-13T1900,1619A,118.295,35.0583,临沂市,鲁南制药厂,细颗粒物(PM2.5),63,73,84,45,54,92,,106,106,18,22,12,12,0.9,1.1
2024-02-13T1900,1620A,118.2794,34.9976,临沂市,新光毛纺厂,"颗粒物(PM10),细颗粒物(PM2.5)",67,83,88,48,58,86,,102,102,25,27,12,12,0.8,0.9
2024-02-13T1900,1621A,118.3956,35.0888,临沂市,河东保险公司,细颗粒物(PM2.5),64,73,85,46,56,87,,107,107,22,22,17,11,0.9,1
2024-02-13T1900,3370A,118.3564,35.0215,临沂市,十里堡居委,细颗粒物(PM2.5),62,68,80,44,53,90,,109,109,25,25,11,9,0.9,1
2024-02-13T1900,3496A,118.3604,35.1084,临沂市,南坊新区,,,70,87,46,54,,,97,,42,30,13,11,0.8,1
2024-02-13T1900,3860A,118.3920,35.0300,临沂市,皇山花园小区,颗粒物(PM10),59,68,83,40,51,94,,108,108,26,18,51,13,0.8,0.9
2024-02-13T1900,1870A,109.4856,24.3895,柳州市,柳东小学,细颗粒物(PM2.5),115,88,72,87,68,34,,71,42,21,20,6,8,0.8,0.7
2024-02-13T1900,1871A,109.4157,24.3277,柳州市,环保监测站,细颗粒物(PM2.5),104,92,112,78,96,38,,56,56,24,25,7,10,0.9,0.8
2024-02-13T1900,1872A,109.389,24.341,柳州市,河西水厂,细颗粒物(PM2.5),90,94,123,67,82,39,,56,56,23,26,6,9,0.8,0.7
2024-02-13T1900,1873A,109.4311,24.2921,柳州市,市四中,细颗粒物(PM2.5),107,112,124,80,95,39,,54,54,26,26,6,10,0.7,0.7
2024-02-13T1900,1874A,109.4006,24.3631,柳州市,市九中,细颗粒物(PM2.5),100,105,100,75,80,24,,46,44,22,25,4,6,0.8,0.7
2024-02-13T1900,1875A,109.4958,24.3134,柳州市,古亭山,细颗粒物(PM2.5),132,100,91,100,88,13,,38,36,33,24,6,7,1.1,0.8
2024-02-13T1900,3402A,109.5422,24.3996,柳州市,市二中,细颗粒物(PM2.5),84,80,90,62,76,34,,51,34,23,24,7,8,1.0,0.9
2024-02-13T1900,2307A,116.5079,31.737,六安市,监测大楼,,36,32,33,25,26,86,,89,83,13,12,5,5,0.7,0.6
2024-02-13T1900,2308A,116.4738,31.7643,六安市,皖西学院,,42,42,36,29,23,88,,91,84,13,10,5,4,0.5,0.5
2024-02-13T1900,2309A,116.4996,31.7905,六安市,朝阳厂,,40,36,36,28,28,84,,81,79,11,9,6,6,0.5,0.4
2024-02-13T1900,2310A,116.5567,31.7886,六安市,开发区,,49,49,50,26,31,37,,72,69,62,14,35,9,0.5,0.5
2024-02-13T1900,2577A,104.83,26.5917,六盘水市,黄土坡,,36,36,47,12,36,90,,98,98,19,22,13,17,0.6,0.9
2024-02-13T1900,2578A,104.89,26.5939,六盘水市,水钢,,35,23,37,16,21,112,,101,101,4,8,7,10,0.3,0.5
2024-02-13T1900,2579A,104.8475,26.5894,六盘水市,民中,细颗粒物(PM2.5),52,40,63,36,47,90,,95,95,19,25,13,16,0.6,0.9
2024-02-13T1900,2580A,104.9544,26.5506,六盘水市,双水,,35,31,33,17,22,110,,103,103,6,6,8,9,0.4,0.5
2024-02-13T1900,2336A,117.0217,25.1033,龙岩市,龙岩市监测站,,25,23,27,17,18,75,,94,94,11,9,3,4,0.4,0.3
2024-02-13T1900,2337A,117.0258,25.0661,龙岩市,闽西职业技术学院,,32,32,29,16,18,73,,94,94,8,4,2,2,0.5,0.4
2024-02-13T1900,2338A,117.0196,25.0306,龙岩市,龙岩学院,,32,32,25,13,17,79,,92,92,4,5,3,3,0.5,0.5
2024-02-13T1900,2885A,104.9339,33.3826,陇南市,滨江中学,颗粒物(PM10),69,87,75,46,53,47,,76,75,40,30,12,18,1.5,1.6
2024-02-13T1900,3247A,104.955,33.371,陇南市,市总工会,细颗粒物(PM2.5),53,52,54,37,37,75,,87,87,15,14,6,10,0.7,0.8
2024-02-13T1900,2487A,111.9589,27.8901,娄底市,电视发射台,,47,47,56,27,36,51,,67,65,16,17,6,9,0.4,1.2
2024-02-13T1900,2488A,111.9975,27.725,娄底市,市监测站,颗粒物(PM10),57,63,111,32,83,76,,83,83,18,33,12,17,0.6,1.3
2024-02-13T1900,2489A,112.0194,27.7314,娄底市,市委党校,,,52,97,22,72,,,67,67,10,22,15,12,0.4,0.7
2024-02-13T1900,2490A,111.9561,27.7569,娄底市,涟钢,细颗粒物(PM2.5),67,74,101,48,76,66,,72,72,18,18,15,13,0.8,1.2
2024-02-13T1900,2491A,111.9892,27.7044,娄底市,市政府,颗粒物(PM10),51,52,111,21,83,76,,79,79,4,18,14,10,0.3,0.8
2024-02-13T1900,1893A,105.4324,28.9634,泸州市,九狮山,细颗粒物(PM2.5),114,108,118,86,81,111,,118,118,11,14,6,6,0.4,0.5
2024-02-13T1900,1894A,105.4427,28.9063,泸州市,小市上码头,细颗粒物(PM2.5),99,92,107,74,86,115,,108,108,10,28,6,5,0.7,0.9
2024-02-13T1900,1895A,105.4241,28.8573,泸州市,兰田宪桥,细颗粒物(PM2.5),102,95,115,76,99,102,,104,104,19,19,6,5,0.8,0.8
2024-02-13T1900,1896A,105.4379,28.8833,泸州市,市环监站,细颗粒物(PM2.5),108,88,109,81,95,109,,96,96,5,19,4,4,0.7,0.8
2024-02-13T1900,3490A,105.3617,28.7703,泸州市,纳溪区环保局,细颗粒物(PM2.5),100,98,123,75,98,92,,108,108,29,20,6,5,1.0,0.9
2024-02-13T1900,2183A,111.1406,37.5211,吕梁市,环保局,颗粒物(PM10),75,100,85,48,38,32,,87,86,65,31,7,6,0.6,0.6
2024-02-13T1900,2185A,111.1297,37.5136,吕梁市,自来水公司,颗粒物(PM10),72,94,81,45,47,41,,85,84,58,28,11,11,1.0,0.6
2024-02-13T1900,2867A,111.1283,37.51,吕梁市,马茂庄小学,细颗粒物(PM2.5),72,85,102,52,57,52,,87,87,43,30,9,8,0.5,0.5
2024-02-13T1900,1812A,112.3931,34.6516,洛阳市,市委党校,细颗粒物(PM2.5),94,95,115,70,91,91,,89,89,28,30,15,13,0.7,0.7
2024-02-13T1900,1814A,112.4657,34.6871,洛阳市,豫西宾馆,细颗粒物(PM2.5),99,112,140,74,88,75,,96,96,45,36,12,15,0.6,0.6
2024-02-13T1900,1815A,112.494,34.6886,洛阳市,河南林校,细颗粒物(PM2.5),87,113,107,64,73,42,,93,92,75,27,10,9,1.1,0.9
2024-02-13T1900,1816A,112.3844,34.623,洛阳市,开发区管委会,细颗粒物(PM2.5),78,83,94,57,72,96,,100,100,19,13,8,7,0.8,0.8
2024-02-13T1900,1817A,112.4267,34.6258,洛阳市,市委新办公区,细颗粒物(PM2.5),92,96,121,68,108,70,,92,92,48,24,9,8,1.3,0.9
2024-02-13T1900,3340A,112.6005,34.6326,洛阳市,伊滨,细颗粒物(PM2.5),95,92,136,71,94,95,,97,97,18,20,10,10,0.7,0.8
2024-02-13T1900,3341A,112.4951,34.6332,洛阳市,中移产业园,细颗粒物(PM2.5),88,89,107,65,86,101,,102,102,13,22,11,9,0.8,1
2024-02-13T1900,3593A,112.5736,34.8993,洛阳市,吉利监测站,细颗粒物(PM2.5),102,106,100,76,67,109,,111,111,32,23,6,8,1.1,0.7
2024-02-13T1900,3635A,112.3677,34.662,洛阳市,河科大西苑校区,细颗粒物(PM2.5),85,104,129,63,91,92,,96,96,26,32,6,11,0.2,0.3
2024-02-13T1900,3636A,112.4388,34.6781,洛阳市,英才小学,细颗粒物(PM2.5),84,100,139,62,99,78,,95,95,44,33,8,12,1.0,1
2024-02-13T1900,2399A,114.051,33.5699,漯河市,三五一五工厂,细颗粒物(PM2.5),69,81,80,50,58,87,,102,102,19,18,9,9,0.7,0.7
2024-02-13T1900,2400A,114.0055,33.5698,漯河市,漯河大学,颗粒物(PM10),63,76,75,41,51,84,,103,103,24,17,8,8,0.9,0.8
2024-02-13T1900,2401A,114.0138,33.5828,漯河市,市水利局,细颗粒物(PM2.5),62,66,79,44,56,93,,105,105,13,13,11,11,0.8,0.8
2024-02-13T1900,2402A,114.0261,33.5698,漯河市,市广电局,颗粒物(PM10),59,68,78,41,53,97,,106,106,12,16,5,5,1.0,1
2024-02-13T1900,3478A,113.9749,33.5664,漯河市,市图书馆,"颗粒物(PM10),细颗粒物(PM2.5)",59,68,73,42,51,98,,102,102,16,15,9,12,0.6,0.5
2024-02-13T1900,3479A,114.0967,33.5906,漯河市,召陵区卫健委,颗粒物(PM10),60,69,81,41,54,84,,102,102,16,12,8,8,0.7,0.6
2024-02-13T1900,1798A,118.5092,31.6837,马鞍山市,湖东路四小,颗粒物(PM10),57,63,58,33,40,57,,68,68,29,19,8,8,0.8,0.7
2024-02-13T1900,1799A,118.5024,31.6449,马鞍山市,开发区,,48,48,54,27,39,55,,72,71,34,23,5,5,0.4,0.4
2024-02-13T1900,1800A,118.5228,31.7231,马鞍山市,慈湖,颗粒物(PM10),52,54,62,35,44,54,,64,64,33,26,7,6,0.3,0.3
2024-02-13T1900,1802A,118.6245,31.7241,马鞍山市,濮塘,,35,35,46,20,29,76,,72,72,6,8,5,6,0.4,0.4
2024-02-13T1900,3633A,118.4918,31.6809,马鞍山市,雨山,,47,47,58,31,40,59,,70,70,29,23,9,9,0.4,0.4
2024-02-13T1900,1686A,111.0286,21.4688,茂名市,电白南海,,,63,62,24,25,107,,108,108,,11,10,11,0.6,0.5
2024-02-13T1900,1687A,110.9294,21.6533,茂名市,茂石化七小,颗粒物(PM10),53,56,52,24,28,96,,101,101,10,10,9,10,0.5,0.6
2024-02-13T1900,1688A,110.9107,21.6687,茂名市,健康路,,44,44,48,24,24,89,,95,95,8,8,6,7,0.6,0.6
2024-02-13T1900,1689A,110.8592,21.6828,茂名市,高岭,,46,46,51,29,30,88,,97,97,7,15,8,14,0.5,0.6
2024-02-13T1900,3450A,111.01,21.5165,茂名市,电白水东,,44,44,48,24,24,102,,100,100,6,6,6,7,0.7,0.6
2024-02-13T1900,2539A,104.0308,30.0478,眉山市,黑龙滩水库,细颗粒物(PM2.5),73,71,70,53,51,132,,117,117,5,5,4,2,0.6,0.6
2024-02-13T1900,2540A,103.8416,30.0874,眉山市,气象局,细颗粒物(PM2.5),79,78,89,58,77,110,,103,103,17,22,7,9,0.7,0.8
2024-02-13T1900,3137A,103.8578,30.0744,眉山市,市委党校,细颗粒物(PM2.5),83,78,94,61,76,93,,97,97,25,34,8,8,0.7,0.8
2024-02-13T1900,3148A,103.8291,30.0564,眉山市,区人社局,细颗粒物(PM2.5),92,81,79,68,81,85,,95,95,43,42,11,11,0.7,0.8
2024-02-13T1900,1690A,116.1231,24.3284,梅州市,梅江月梅,细颗粒物(PM2.5),57,43,39,40,34,94,,104,104,6,7,10,10,0.7,0.6
2024-02-13T1900,1691A,116.0797,24.2719,梅州市,梅县新城,细颗粒物(PM2.5),64,49,53,46,43,89,,107,107,13,12,7,7,0.6,0.5
2024-02-13T1900,1692A,116.1248,24.2654,梅州市,环境监控中心,细颗粒物(PM2.5),55,,57,39,48,90,,102,102,14,16,6,5,0.6,0.5
2024-02-13T1900,3315A,116.1233,24.2991,梅州市,梅龙,,48,48,54,31,47,78,,100,100,20,13,6,6,0.7,0.6
2024-02-13T1900,1878A,104.7778,31.4741,绵阳市,富乐山,细颗粒物(PM2.5),70,59,66,51,55,109,,110,110,10,14,8,8,0.7,0.7
2024-02-13T1900,1879A,104.7563,31.4535,绵阳市,市人大,细颗粒物(PM2.5),70,74,85,51,62,95,,101,101,31,38,9,6,0.6,0.8
2024-02-13T1900,1880A,104.6697,31.4668,绵阳市,高新区自来水公司,细颗粒物(PM2.5),72,67,85,52,68,108,,109,109,20,28,9,8,0.6,0.7
2024-02-13T1900,1881A,104.7287,31.5075,绵阳市,三水厂,细颗粒物(PM2.5),82,68,80,60,67,80,,104,104,38,27,8,6,0.8,0.9
2024-02-13T1900,3491A,104.69,31.5322,绵阳市,西科大附属小学,细颗粒物(PM2.5),75,63,70,55,59,127,,115,115,14,18,9,8,0.4,0.5
2024-02-13T1900,3492A,104.5648,31.5343,绵阳市,安州区旅游局,细颗粒物(PM2.5),82,84,90,60,70,106,,111,111,24,32,6,6,0.9,1
2024-02-13T1900,1784A,129.61,44.561,牡丹江市,环保大楼,细颗粒物(PM2.5),74,90,70,54,42,101,,115,109,16,12,11,12,0.7,0.6
2024-02-13T1900,1785A,129.6115,44.5782,牡丹江市,文化广场,细颗粒物(PM2.5),109,120,75,82,55,76,,102,93,28,14,18,18,1.0,0.7
2024-02-13T1900,1786A,129.5904,44.5963,牡丹江市,第一医院,细颗粒物(PM2.5),119,124,72,90,54,89,,102,97,16,14,20,18,0.8,0.6
2024-02-13T1900,1787A,129.6364,44.6075,牡丹江市,机车工厂,细颗粒物(PM2.5),84,96,76,62,45,74,,102,91,29,17,14,15,0.6,0.5
2024-02-13T1900,1788A,129.6386,44.5462,牡丹江市,第一中学,颗粒物(PM10),68,86,67,47,37,97,,110,107,14,10,14,14,0.8,0.7
2024-02-13T1900,2531A,105.0703,29.61,内江市,市监测站,细颗粒物(PM2.5),113,110,98,85,105,89,,100,100,40,36,9,10,1.1,1.2
2024-02-13T1900,2532A,105.0717,29.5947,内江市,东兴区政府,细颗粒物(PM2.5),108,112,106,81,103,100,,104,104,25,32,13,12,1.0,1.2
2024-02-13T1900,2533A,105.0653,29.5817,内江市,内江二中,细颗粒物(PM2.5),114,96,104,86,111,119,,100,100,19,36,8,8,0.9,1.2
2024-02-13T1900,2534A,105.0406,29.5822,内江市,内江日报社,细颗粒物(PM2.5),110,90,121,83,121,100,,101,101,32,41,10,11,1.1,1.2
2024-02-13T1900,2628A,92.0657,31.4846,那曲市,那曲监测站,,27,17,32,8,18,84,,78,78,4,10,5,8,0.6,1.1
2024-02-13T1900,3128A,92.0506,31.4797,那曲市,那曲会议中心,,,0,22,0,11,,,87,87,1,10,5,7,0.3,0.6
2024-02-13T1900,1290A,115.8931,28.6843,南昌市,省外办,颗粒物(PM10),92,134,115,53,77,9,,58,57,42,34,6,6,1.1,1.2
2024-02-13T1900,1291A,115.8886,28.7003,南昌市,省林业公司,颗粒物(PM10),51,51,65,34,46,52,,68,68,26,36,5,5,0.8,0.8
2024-02-13T1900,1292A,115.8126,28.7442,南昌市,林科所,,49,41,35,34,26,47,,71,71,10,9,7,8,0.4,0.5
2024-02-13T1900,1294A,115.8518,28.687,南昌市,建工学校,颗粒物(PM10),54,57,74,16,44,59,,74,74,23,31,6,7,0.5,0.6
2024-02-13T1900,1295A,115.8921,28.6424,南昌市,象湖,颗粒物(PM10),51,52,90,33,62,52,,73,73,22,41,8,6,0.6,0.9
2024-02-13T1900,1296A,115.7423,28.7996,南昌市,武术学校,,33,28,25,23,21,28,,62,58,4,3,14,13,0.7,0.7
2024-02-13T1900,1298A,115.9314,28.6842,南昌市,省站,颗粒物(PM10),53,55,86,34,57,59,,73,73,14,29,12,8,0.7,0.7
2024-02-13T1900,3046A,115.9084,28.6062,南昌市,机电学校,颗粒物(PM10),60,69,86,36,56,42,,72,72,29,35,13,9,1.2,1.2
2024-02-13T1900,3690A,115.9721,28.7031,南昌市,外国语学校,,50,48,66,35,55,57,,68,68,13,28,6,6,0.6,0.7
2024-02-13T1900,1905A,106.056,30.8064,南充市,西山风景区,细颗粒物(PM2.5),99,76,74,74,77,123,,97,97,9,13,4,5,0.5,0.8
2024-02-13T1900,1906A,106.0789,30.8023,南充市,南充市委,细颗粒物(PM2.5),89,92,96,66,74,68,,90,90,46,32,6,5,0.9,0.7
2024-02-13T1900,1907A,106.1031,30.8217,南充市,南充炼油厂,细颗粒物(PM2.5),99,95,101,74,81,99,,99,99,26,32,6,6,0.6,0.7
2024-02-13T1900,1908A,106.1064,30.7856,南充市,高坪区监测站,细颗粒物(PM2.5),84,92,112,62,80,101,,95,95,24,34,8,7,0.6,0.9
2024-02-13T1900,1909A,106.0642,30.7636,南充市,嘉陵区环保局,细颗粒物(PM2.5),104,113,105,78,86,15,,84,84,95,46,5,4,1.8,1.2
2024-02-13T1900,1910A,106.1087,30.8388,南充市,市环境监测站,细颗粒物(PM2.5),84,85,94,62,72,131,,107,107,14,21,8,7,0.6,0.6
2024-02-13T1900,1151A,118.8086,32.1065,南京市,迈皋桥,,46,46,42,29,26,44,,62,60,26,15,4,4,0.5,0.3
2024-02-13T1900,1152A,118.7538,32.0551,南京市,草场门,,49,46,47,34,31,62,,70,70,31,25,2,2,0.7,0.6
2024-02-13T1900,1153A,118.7794,32.0745,南京市,山西路,,41,41,43,27,28,63,,65,65,22,21,3,4,0.6,0.6
2024-02-13T1900,1154A,118.7752,32.0023,南京市,中华门,,41,41,46,24,32,60,,72,71,22,16,7,7,0.4,0.5
2024-02-13T1900,1155A,118.8109,32.0309,南京市,瑞金路,,,,48,,32,19,,66,60,31,26,4,4,1.3,0.6
2024-02-13T1900,1156A,118.7997,32.0754,南京市,玄武湖,,40,40,51,21,26,65,,77,76,16,10,7,7,0.5,0.5
2024-02-13T1900,1157A,118.6414,32.0931,南京市,浦口,,39,39,57,10,18,64,,68,68,22,23,4,6,0.7,0.8
2024-02-13T1900,1158A,118.7356,31.9996,南京市,奥体中心,,39,39,49,24,31,69,,75,75,19,15,6,6,0.6,0.5
2024-02-13T1900,1159A,118.9125,32.1028,南京市,仙林大学城,,48,48,40,29,20,70,,77,76,16,14,5,5,0.8,0.6
2024-02-13T1900,3422A,118.8436,31.9198,南京市,江宁彩虹桥,,50,50,57,29,31,69,,80,80,15,11,4,4,0.6,0.5
2024-02-13T1900,3423A,119.0138,31.6494,南京市,溧水永阳,细颗粒物(PM2.5),60,53,45,43,37,72,,74,74,23,18,4,4,0.5,0.4
2024-02-13T1900,3424A,118.879,31.3302,南京市,高淳老职中,,40,40,43,21,32,74,,74,74,8,9,5,4,0.5,0.5
2024-02-13T1900,3427A,118.8554,32.3578,南京市,六合雄州,,,15,72,,34,69,,80,80,18,20,3,3,0.5,0.7
2024-02-13T1900,1401A,108.3103,22.7881,南宁市,二十一中,,49,49,46,34,37,84,,90,86,10,8,8,7,0.8,0.7
2024-02-13T1900,1402A,108.3141,22.8528,南宁市,北湖,颗粒物(PM10),52,54,44,30,29,72,,83,77,10,6,5,5,0.8,0.7
2024-02-13T1900,1403A,108.3206,22.8225,南宁市,市监测站,,46,46,44,30,26,79,,90,83,10,8,6,6,0.9,0.8
2024-02-13T1900,1404A,108.3829,22.8037,南宁市,大自然花园,颗粒物(PM10),53,56,48,23,27,84,,86,82,8,9,6,6,0.6,0.5
2024-02-13T1900,1405A,108.4394,22.7904,南宁市,仙葫,,45,45,44,19,32,79,,76,76,10,11,7,7,0.7,0.7
2024-02-13T1900,1406A,108.2397,22.8467,南宁市,区农职院,,43,43,46,30,27,80,,88,85,15,13,8,8,0.8,0.7
2024-02-13T1900,1407A,108.3275,22.735,南宁市,英华嘉园,,48,46,46,33,27,72,,77,74,14,11,6,6,0.7,0.6
2024-02-13T1900,1408A,108.2257,22.7757,南宁市,沙井镇街道办,,40,40,45,26,29,79,,85,85,8,9,6,6,0.6,0.6
2024-02-13T1900,3401A,108.4834,22.7618,南宁市,红星社区,,45,45,46,24,32,77,,75,75,8,11,9,9,0.7,0.7
2024-02-13T1900,2332A,118.1681,26.6369,南平市,南平市监测站,细颗粒物(PM2.5),62,60,55,44,41,53,,88,86,20,15,7,6,1.0,0.6
2024-02-13T1900,2333A,118.1825,26.6489,南平市,南平铝业有限公司,,38,38,41,25,29,60,,81,81,11,10,7,8,0.7,0.6
2024-02-13T1900,2334A,118.1756,26.6272,南平市,南平七中,细颗粒物(PM2.5),58,,43,41,32,58,,88,87,16,13,5,5,0.6,0.5
2024-02-13T1900,1168A,120.9098,31.9663,南通市,狼山街道,,40,38,60,28,35,55,,97,89,22,27,8,9,0.6,0.6
2024-02-13T1900,1169A,120.86,32.0005,南通市,虹桥,颗粒物(PM10),51,52,65,31,35,72,,92,88,34,20,5,6,0.5,0.4
2024-02-13T1900,1170A,120.87,32.02,南通市,城中,颗粒物(PM10),53,56,67,27,31,69,,99,93,38,20,5,5,0.7,0.7
2024-02-13T1900,1171A,120.94,31.93,南通市,星湖花园,,43,43,63,26,30,57,,91,85,34,22,6,7,0.5,0.4
2024-02-13T1900,1172A,120.81,32.0417,南通市,紫琅学院,,49,49,59,23,29,30,,89,79,81,31,9,8,0.4,0.5
2024-02-13T1900,3291A,121.067,32.062,南通市,通州监测站,颗粒物(PM10),54,58,66,34,37,87,,104,102,24,19,8,8,0.4,0.3
2024-02-13T1900,3432A,120.9348,31.9883,南通市,环境教育馆,细颗粒物(PM2.5),52,51,64,36,34,74,,101,97,30,22,7,8,0.3,0.3
2024-02-13T1900,2404A,112.5224,33.0122,南阳市,瓦房庄,细颗粒物(PM2.5),122,101,146,92,135,75,,90,90,28,29,14,11,0.8,0.9
2024-02-13T1900,2405A,112.5003,32.9735,南阳市,汉画馆,细颗粒物(PM2.5),113,120,149,85,124,76,,93,93,,30,14,9,0.8,0.9
2024-02-13T1900,2406A,112.5573,33.027,南阳市,气象站,细颗粒物(PM2.5),113,100,108,85,101,82,,95,95,31,28,14,11,0.8,0.8
2024-02-13T1900,2407A,112.5481,32.9689,南阳市,理工学院,细颗粒物(PM2.5),109,99,121,82,109,88,,97,97,18,27,11,8,0.6,0.7
2024-02-13T1900,4008A,112.5234,32.9922,南阳市,卧龙区政府,细颗粒物(PM2.5),112,100,142,84,121,72,,92,92,34,38,12,9,0.8,0.9
2024-02-13T1900,1234A,121.8358,29.911,宁波市,区环保大楼,,43,43,58,21,26,92,,103,102,9,4,6,6,0.3,0.3
2024-02-13T1900,1235A,121.56,29.82,宁波市,万里学院,,40,40,57,17,28,93,,96,92,8,11,7,7,0.6,0.4
2024-02-13T1900,1236A,121.713,29.9572,宁波市,龙赛医院,,44,44,51,24,27,102,,103,103,6,6,4,4,0.5,0.5
2024-02-13T1900,1239A,121.633,29.7733,宁波市,钱湖水厂,,44,44,53,26,29,95,,99,99,4,2,5,5,0.6,0.6
2024-02-13T1900,1240A,121.5856,29.8635,宁波市,太古小学,,39,39,50,24,30,100,,100,100,13,11,6,6,0.4,0.5
2024-02-13T1900,1241A,121.524,29.8674,宁波市,市环境监测中心,,49,43,50,34,27,84,,102,100,29,16,5,6,0.6,0.5
2024-02-13T1900,2871A,121.6147,29.9017,宁波市,万里国际学校,,37,37,55,23,29,106,,104,104,8,9,7,7,0.5,0.5
2024-02-13T1900,3710A,121.5594,29.8975,宁波市,白沙活动中心,,40,40,56,27,28,101,,102,102,8,8,6,7,0.3,0.4
2024-02-13T1900,2341A,119.5388,26.6612,宁德市,宁德市监测站,细颗粒物(PM2.5),57,52,47,40,35,87,,100,100,16,8,6,6,0.5,0.5
2024-02-13T1900,3209A,119.5231,26.6562,宁德市,宁德一中,"颗粒物(PM10),细颗粒物(PM2.5)",54,58,50,38,30,77,,102,100,13,10,6,5,1.0,0.5
2024-02-13T1900,2618A,98.8601,25.8567,怒江傈僳族自治州,州监测站,,29,24,23,11,15,90,,86,86,4,4,8,9,0.4,0.4
2024-02-13T1900,2619A,98.8546,25.8417,怒江傈僳族自治州,泸水一中,,25,23,26,11,21,80,,79,79,8,10,8,8,0.5,0.6
2024-02-13T1900,1888A,101.6891,26.571,攀枝花市,弄弄坪,,30,29,51,21,30,96,,95,95,14,31,14,48,0.7,2
2024-02-13T1900,1889A,101.5769,26.5928,攀枝花市,河门口,,29,22,30,12,17,91,,88,88,10,15,10,20,0.5,0.8
2024-02-13T1900,1890A,101.7169,26.585,攀枝花市,炳草岗,,30,20,33,13,20,93,,94,94,14,29,18,19,0.8,1
2024-02-13T1900,1891A,101.7369,26.5008,攀枝花市,仁和,,26,26,26,18,20,82,,94,94,14,13,10,7,0.6,0.5
2024-02-13T1900,2835A,101.7227,26.567,攀枝花市,四十中小,,30,30,31,20,21,81,,96,96,24,22,12,13,0.8,1
2024-02-13T1900,1604A,122.0303,41.1489,盘锦市,开发区,细颗粒物(PM2.5),99,87,98,74,80,100,,104,104,24,18,9,11,1.0,1
2024-02-13T1900,1605A,122.0485,41.0883,盘锦市,兴隆台,细颗粒物(PM2.5),92,94,106,68,74,108,,102,102,19,17,13,13,1.0,1
2024-02-13T1900,1606A,121.8297,41.1028,盘锦市,新生街道,细颗粒物(PM2.5),89,83,102,66,79,80,,87,87,26,22,10,11,0.9,1
2024-02-13T1900,1832A,113.3257,33.742,平顶山市,新华旅馆,颗粒物(PM10),77,104,140,52,86,90,,98,98,13,34,10,10,0.5,0.6
2024-02-13T1900,1833A,113.2919,33.737,平顶山市,规划设计院,细颗粒物(PM2.5),90,97,143,67,99,111,,116,116,14,31,13,13,0.8,0.8
2024-02-13T1900,1834A,113.182,33.774,平顶山市,平顶山工学院,,,,96,,63,92,,103,103,,14,5,8,0.7,0.7
2024-02-13T1900,3204A,113.3025,33.73,平顶山市,规划局,细颗粒物(PM2.5),94,95,139,70,104,83,,84,84,14,29,10,11,0.8,0.9
2024-02-13T1900,3594A,112.8867,33.9116,平顶山市,石龙区,细颗粒物(PM2.5),90,103,93,67,70,87,,108,108,22,18,10,10,0.9,0.7
2024-02-13T1900,2656A,106.6692,35.5461,平凉市,聚贤嘉苑,细颗粒物(PM2.5),57,59,62,40,34,109,,113,113,22,18,10,10,0.5,0.5
2024-02-13T1900,2657A,106.7021,35.5307,平凉市,博物馆,颗粒物(PM10),70,89,77,46,49,93,,109,109,38,27,20,16,0.8,0.8
2024-02-13T1900,2347A,114.0997,27.5002,萍乡市,武功山,,28,23,30,19,27,87,,88,88,6,7,10,9,0.3,0.4
2024-02-13T1900,2348A,113.8385,27.6434,萍乡市,中医院,细颗粒物(PM2.5),72,71,81,52,57,24,,27,27,31,34,7,8,1.2,1.3
2024-02-13T1900,2349A,113.8493,27.6253,萍乡市,市政府车库,细颗粒物(PM2.5),83,79,96,61,71,25,,34,33,29,30,8,18,1.0,1.2
2024-02-13T1900,2350A,113.8676,27.6435,萍乡市,市环保局,细颗粒物(PM2.5),63,64,67,45,50,34,,39,39,20,21,10,9,0.8,0.9
2024-02-13T1900,2351A,113.866,27.6198,萍乡市,安源区政府,颗粒物(PM10),53,55,73,33,51,45,,39,39,20,27,8,10,0.6,1
2024-02-13T1900,2319A,119.0141,25.4325,莆田市,荔城区仓后路,细颗粒物(PM2.5),57,60,55,40,41,109,,115,115,12,10,8,7,0.9,0.9
2024-02-13T1900,2320A,119.0015,25.4553,莆田市,莆田市监测站,,,52,42,34,30,103,,117,117,8,7,6,9,,0.4
2024-02-13T1900,2321A,119.1119,25.4561,莆田市,涵江区六中,颗粒物(PM10),56,62,46,31,30,114,,122,122,8,7,8,8,0.8,0.8
2024-02-13T1900,2322A,119.1013,25.3215,莆田市,秀屿区政府,细颗粒物(PM2.5),100,78,54,75,41,109,,117,117,17,8,8,6,0.8,0.7
2024-02-13T1900,2392A,115.0312,35.7636,濮阳市,环保局,细颗粒物(PM2.5),67,81,84,48,54,86,,99,99,28,9,7,8,0.6,0.5
2024-02-13T1900,2394A,115.0574,35.7609,濮阳市,油田运输公司,颗粒物(PM10),66,81,84,46,55,86,,100,100,24,10,11,10,0.9,0.8
2024-02-13T1900,2395A,115.0866,35.7754,濮阳市,油田物探公司,细颗粒物(PM2.5),94,111,94,70,61,81,,99,99,30,14,12,8,0.9,0.7
2024-02-13T1900,3021A,115,35.7668,濮阳市,濮水河管理处,,,82,96,51,64,68,,94,94,37,9,9,10,,0.8
2024-02-13T1900,2601A,100.98,22.7633,普洱市,市环保局,,45,34,45,31,36,91,,90,90,7,12,5,5,0.4,0.6
2024-02-13T1900,2602A,100.9817,22.8322,普洱市,普洱第二中学,,30,25,37,21,27,96,,96,96,6,12,5,6,0.4,0.7
2024-02-13T1900,2262A,131.0518,45.8751,七台河市,新一中,细颗粒物(PM2.5),80,88,62,59,43,116,,122,122,13,12,12,12,1.2,1
2024-02-13T1900,3345A,131.0577,45.7879,七台河市,中波台,颗粒物(PM10),65,79,57,46,38,102,,112,110,22,17,20,14,0.8,0.7
2024-02-13T1900,3637A,131.0176,45.7761,七台河市,人民广场,细颗粒物(PM2.5),92,109,70,68,48,96,,112,109,24,15,23,16,1.2,0.9
2024-02-13T1900,3684A,130.8781,45.8222,七台河市,新建矿广场,细颗粒物(PM2.5),80,83,57,59,40,102,,113,112,20,17,15,12,0.9,0.7
2024-02-13T1900,1779A,123.9305,47.3636,齐齐哈尔市,安居小区,,22,21,66,12,24,69,,73,73,6,9,7,8,0.4,0.5
2024-02-13T1900,1780A,123.9488,47.3386,齐齐哈尔市,中心广场,,22,21,76,8,28,68,,69,69,6,10,5,7,0.4,0.5
2024-02-13T1900,1781A,123.9483,47.3227,齐齐哈尔市,农牧车辆厂,,22,17,73,8,27,70,,72,72,4,9,7,9,0.3,0.5
2024-02-13T1900,1783A,123.945,47.2988,齐齐哈尔市,市环境监测站,,22,21,82,14,31,69,,72,72,6,10,2,5,0.4,0.6
2024-02-13T1900,3662A,123.6333,47.2075,齐齐哈尔市,富区青少年活动中心,,48,48,103,13,36,64,,68,68,11,19,12,25,0.5,1.1
2024-02-13T1900,2591A,107.9783,26.5747,黔东南苗族侗族自治州,市环境监测站,,,,37,,26,83,,105,89,,6,,7,0.6,0.4
2024-02-13T1900,2881A,107.8908,26.5311,黔东南苗族侗族自治州,凯里学院,,45,43,35,31,25,96,,115,96,4,3,4,5,0.5,0.5
2024-02-13T1900,2593A,107.5228,26.2403,黔南布依族苗族自治州,小围寨,,45,31,29,31,22,87,,104,94,5,5,5,6,0.3,0.3
2024-02-13T1900,3538A,107.5175,26.2978,黔南布依族苗族自治州,沙坝,细颗粒物(PM2.5),52,41,31,36,24,86,,98,97,4,4,4,5,0.7,0.6
2024-02-13T1900,2589A,104.9022,25.0925,黔西南布依族苗族自治州,场坝街,,28,20,31,18,24,88,,84,84,6,8,2,2,0.4,0.5
2024-02-13T1900,2590A,104.8811,25.0992,黔西南布依族苗族自治州,坪东大道,,27,17,37,15,26,85,,84,84,6,10,1,2,0.1,0.2
2024-02-13T1900,2502A,108.6236,21.9667,钦州市,市环保站,颗粒物(PM10),52,53,55,22,24,80,,80,74,15,13,8,7,0.6,0.7
2024-02-13T1900,2503A,108.6549,21.9481,钦州市,沙埠小学,颗粒物(PM10),55,60,51,28,35,87,,84,84,12,10,8,7,0.7,0.7
2024-02-13T1900,2504A,108.5989,21.7431,钦州市,港区一小,颗粒物(PM10),64,77,67,40,32,95,,90,90,16,13,7,11,0.7,0.8
2024-02-13T1900,3404A,108.5959,21.9633,钦州市,北职校,颗粒物(PM10),54,57,54,30,36,78,,79,79,17,13,10,8,0.8,0.7
2024-02-13T1900,1042A,119.5134,39.8207,秦皇岛市,北戴河环保局,细颗粒物(PM2.5),104,121,187,78,122,54,,68,68,61,53,10,15,0.9,1.5
2024-02-13T1900,1043A,119.7493,40.0116,秦皇岛市,第一关,细颗粒物(PM2.5),160,147,200,122,132,49,,80,76,59,46,16,21,1.1,1.7
2024-02-13T1900,1044A,119.5897,39.9499,秦皇岛市,监测站,细颗粒物(PM2.5),130,152,177,99,122,34,,87,79,75,46,11,20,1.2,1.8
2024-02-13T1900,1046A,119.5251,39.9041,秦皇岛市,建设大厦,细颗粒物(PM2.5),117,133,178,88,104,56,,100,96,46,29,9,19,1.2,1.8
2024-02-13T1900,3132A,119.610547,39.943889,秦皇岛市,文明里,细颗粒物(PM2.5),134,146,203,102,112,50,,69,67,54,53,8,16,1.0,1.7
2024-02-13T1900,1307A,120.6659,36.2403,青岛市,仰口,细颗粒物(PM2.5),85,90,77,63,50,89,,116,116,40,26,2,3,1.5,1.2
2024-02-13T1900,1310A,120.4134,36.0658,青岛市,市南区东部子站,,,95,104,58,60,,,90,90,,28,,8,,0.9
2024-02-13T1900,1311A,120.3664,36.1032,青岛市,四方区子站,细颗粒物(PM2.5),73,83,95,53,63,88,,98,98,39,30,5,6,1.0,1.1
2024-02-13T1900,1312A,120.2994,36.054,青岛市,市南区西部子站,细颗粒物(PM2.5),74,85,99,54,58,87,,84,84,22,27,6,7,1.1,1.1
2024-02-13T1900,1313A,120.4581,36.0858,青岛市,崂山区子站,颗粒物(PM10),74,97,106,53,59,88,,92,92,15,19,6,7,0.9,0.9
2024-02-13T1900,1314A,120.1983,35.9608,青岛市,黄岛区子站,,,,98,61,64,,,89,89,,24,,7,,0.9
2024-02-13T1900,1315A,120.3999,36.3083,青岛市,城阳区子站,颗粒物(PM10),59,68,81,29,38,106,,107,107,26,22,7,7,0.8,0.8
2024-02-13T1900,1966A,120.0405,35.8735,青岛市,黄岛区4号,细颗粒物(PM2.5),70,80,99,51,64,89,,88,88,26,22,5,7,1.0,1
2024-02-13T1900,3362A,120.5014,36.4034,青岛市,即墨2号,,,72,83,40,48,,,91,,38,25,12,10,1.0,1
2024-02-13T1900,3642A,120.3503,36.0736,青岛市,市北区南部,细颗粒物(PM2.5),70,87,106,51,59,92,,96,96,26,23,6,7,0.8,0.7
2024-02-13T1900,3643A,120.3948,36.1805,青岛市,李沧区北部,细颗粒物(PM2.5),92,92,94,68,65,103,,107,107,34,27,10,10,1.0,0.9
2024-02-13T1900,1702A,113.0426,23.691,清远市,环保大楼,,40,31,61,28,52,103,,107,107,6,11,2,4,0.9,0.9
2024-02-13T1900,1703A,113.0208,23.7106,清远市,凤城街办,,,40,69,26,50,100,,112,112,,26,6,6,0.5,0.7
2024-02-13T1900,3025A,113.0477,23.6344,清远市,技师学院,,,43,75,,53,103,,,,,15,6,6,0.5,0.6
2024-02-13T1900,3318A,112.9903,23.7403,清远市,清新太和,,36,36,51,16,31,95,,113,113,9,14,7,8,0.5,0.4
2024-02-13T1900,3455A,113.076,23.7198,清远市,清城东城,,41,41,52,23,35,107,,111,111,11,11,7,8,0.5,0.6
2024-02-13T1900,2661A,107.6325,35.7357,庆阳市,庆阳五中,细颗粒物(PM2.5),55,54,70,39,49,94,,101,101,16,15,12,13,0.7,0.8
2024-02-13T1900,2662A,107.6364,35.7067,庆阳市,市环保局,颗粒物(PM10),52,54,65,34,43,101,,104,104,9,12,4,12,0.6,0.6
2024-02-13T1900,1916A,103.7897,25.5035,曲靖市,环境监测站,,31,30,27,11,19,98,,99,99,7,5,2,2,0.6,0.7
2024-02-13T1900,1917A,103.8,25.5364,曲靖市,烟厂办公区,,32,14,30,9,17,102,,100,100,6,5,5,4,0.4,0.6
2024-02-13T1900,3376A,103.7947,25.462,曲靖市,南苑二区,,32,16,30,9,19,100,,95,95,6,6,4,4,0.5,0.6
2024-02-13T1900,3377A,103.7444,25.5261,曲靖市,曲靖师范学院,,31,21,30,10,24,97,,94,94,5,7,4,7,0.4,0.5
2024-02-13T1900,1264A,118.8692,28.9398,衢州市,环保大楼,细颗粒物(PM2.5),67,70,53,48,36,16,,59,48,49,22,5,6,0.9,0.6
