timepoint,stationcode,longitude,latitude,area,positionname,primarypollutant,aqi,pm10,pm10_24h,pm2_5,pm2_5_24h,o3,o3_24h,o3_8h,o3_8h_24h,no2,no2_24h,so2,so2_24h,co,co_24h
2024-02-13T0500,2566A,102.1879,31.914,阿坝藏族羌族自治州,州农科所,,19,19,22,12,10,14,,,,1,5,5,7,0.8,0.9
2024-02-13T0500,2568A,102.2502,31.8896,阿坝藏族羌族自治州,马师校,,15,6,10,5,6,45,,,,2,3,3,3,0.4,0.5
2024-02-13T0500,3994A,102.2165,31.9024,阿坝藏族羌族自治州,马尔康中学西区,,15,11,9,9,6,48,,,,2,2,5,5,0.4,0.4
2024-02-13T0500,2695A,80.292,41.1694,阿克苏地区,电视台,颗粒物(PM10),69,87,83,42,40,26,,,,51,36,8,9,1.6,1.1
2024-02-13T0500,2696A,80.2613,41.1551,阿克苏地区,艺术中心,细颗粒物(PM2.5),89,99,104,66,52,9,,,,57,38,9,11,2.9,1.4
2024-02-13T0500,2204A,105.6467,38.8363,阿拉善盟,西城区西花园,,25,19,30,8,16,78,,,,2,5,11,10,0.4,0.4
2024-02-13T0500,2205A,105.6985,38.8411,阿拉善盟,蒙二幼,,22,14,26,6,10,70,,,,6,7,4,5,0.6,0.6
2024-02-13T0500,2206A,105.724,38.8516,阿拉善盟,环保局新楼,,26,14,20,5,7,83,,,,3,5,6,6,0.5,0.5
2024-02-13T0500,2708A,88.1264,47.8517,阿勒泰地区,市站,,21,21,27,9,19,65,,,,8,19,4,4,0.4,0.3
2024-02-13T0500,2630A,80.1161,32.5,阿里地区,阿里监测站,,28,6,11,0,5,87,,,,1,8,5,15,0.4,0.5
2024-02-13T0500,3192A,80.0903,32.5028,阿里地区,阿里藏医院,,29,12,10,0,4,91,,,,1,5,4,8,0.4,0.5
2024-02-13T0500,2642A,109.0318,32.6537,安康市,香溪洞,细颗粒物(PM2.5),58,49,58,41,42,55,,,,5,7,8,9,0.6,0.6
2024-02-13T0500,2643A,109.0281,32.6939,安康市,安康市监测站,细颗粒物(PM2.5),74,77,80,54,56,19,,,,13,19,9,12,0.7,1
2024-02-13T0500,2644A,109.0072,32.6975,安康市,汉滨区检察院,细颗粒物(PM2.5),63,52,62,45,46,28,,,,6,9,7,10,0.5,0.6
2024-02-13T0500,2291A,117.0809,30.5177,安庆市,环科院,,48,44,68,33,43,37,,,,24,27,9,10,0.6,0.6
2024-02-13T0500,2292A,117.0331,30.5119,安庆市,马山宾馆,,46,46,69,31,44,42,,,,17,34,5,7,0.3,0.4
2024-02-13T0500,2294A,116.9896,30.6145,安庆市,安庆大学,颗粒物(PM10),54,57,65,30,40,41,,,,16,14,10,9,1.2,0.6
2024-02-13T0500,3173A,117.0598,30.5351,安庆市,市人大,细颗粒物(PM2.5),58,56,72,41,44,28,,,,32,27,6,8,0.6,0.6
2024-02-13T0500,3123A,105.9408,26.2431,安顺市,凤凰山,,38,30,30,26,25,70,,,,12,7,29,17,0.4,0.4
2024-02-13T0500,3124A,105.9439,26.2564,安顺市,金钟山,,35,30,33,24,25,78,,,,6,5,17,18,0.4,0.4
2024-02-13T0500,3125A,105.8983,26.2481,安顺市,娄家坡,,36,31,32,25,25,83,,,,3,4,12,13,0.6,0.6
2024-02-13T0500,1819A,114.3551,36.1017,安阳市,红庙街,细颗粒物(PM2.5),114,120,137,86,82,52,,,,15,15,13,12,0.3,0.7
2024-02-13T0500,1820A,114.361,36.0681,安阳市,银杏小区,细颗粒物(PM2.5),147,114,134,112,106,46,,,,16,12,8,12,1.1,1.1
2024-02-13T0500,3141A,114.3922,36.0878,安阳市,信访局,细颗粒物(PM2.5),140,124,143,107,98,40,,,,22,12,5,9,0.7,0.7
2024-02-13T0500,3669A,114.4705,36.0637,安阳市,左辅环卫站,细颗粒物(PM2.5),110,105,139,83,91,59,,,,10,11,6,9,0.9,0.9
2024-02-13T0500,3703A,114.2917,36.0949,安阳市,安钢职工学校,细颗粒物(PM2.5),127,113,151,96,92,24,,,,24,29,6,13,0.8,0.9
2024-02-13T0500,1748A,123.044,41.1196,鞍山市,深沟寺,细颗粒物(PM2.5),83,94,90,61,58,101,,,,9,9,12,11,0.7,0.6
2024-02-13T0500,1749A,123.011,41.0931,鞍山市,太阳城,细颗粒物(PM2.5),74,95,85,54,49,105,,,,8,9,12,13,0.7,0.6
2024-02-13T0500,1750A,123.0485,41.1442,鞍山市,太平,细颗粒物(PM2.5),84,98,101,62,62,107,,,,10,12,9,8,0.6,0.7
2024-02-13T0500,1751A,122.9642,41.0971,鞍山市,铁西三道街,细颗粒物(PM2.5),87,106,119,64,66,92,,,,21,33,18,24,0.9,0.8
2024-02-13T0500,1752A,122.9341,41.0833,鞍山市,铁西工业园区,细颗粒物(PM2.5),85,104,104,63,60,94,,,,15,17,14,14,1.2,1.1
2024-02-13T0500,1753A,123.022,41.0821,鞍山市,明达新区,细颗粒物(PM2.5),82,91,78,60,55,99,,,,8,12,13,18,0.7,0.7
2024-02-13T0500,2195A,107.4212,40.761,巴彦淖尔市,附二中,颗粒物(PM10),54,57,66,23,20,52,,,,5,6,7,3,0.4,0.4
2024-02-13T0500,2196A,107.37,40.7372,巴彦淖尔市,市环保大楼,,48,48,62,20,22,56,,,,3,4,4,4,0.3,0.3
2024-02-13T0500,1956A,86.1472,41.7538,巴音郭楞蒙古自治州,孔雀公园,颗粒物(PM10),92,134,97,28,30,94,,,,2,32,5,6,0.4,0.7
2024-02-13T0500,1957A,86.1972,41.7166,巴音郭楞蒙古自治州,棉纺厂,颗粒物(PM10),97,143,107,34,26,83,,,,9,20,3,3,0.4,0.5
2024-02-13T0500,1958A,86.2357,41.7173,巴音郭楞蒙古自治州,经济开发区,颗粒物(PM10),101,152,96,15,23,90,,,,6,19,5,5,0.4,0.4
2024-02-13T0500,2914A,106.7677,31.8794,巴中市,苏山坪,细颗粒物(PM2.5),59,51,50,42,36,84,,,,5,7,5,6,0.4,0.4
2024-02-13T0500,3182A,106.7656,31.8545,巴中市,丽阳花园,细颗粒物(PM2.5),77,74,70,56,54,16,,,,16,29,3,5,0.6,0.9
2024-02-13T0500,3183A,106.7418,31.8654,巴中市,圣泉水务公司,细颗粒物(PM2.5),58,52,54,41,44,34,,,,11,19,4,5,0.6,0.6
2024-02-13T0500,3616A,106.7616,31.8344,巴中市,市中心医院,细颗粒物(PM2.5),84,72,68,62,54,8,,,,22,27,4,5,0.8,0.9
2024-02-13T0500,2235A,122.7911,45.6077,白城市,洮北区环保局,颗粒物(PM10),67,83,143,26,38,77,,,,8,8,9,5,0.4,0.4
2024-02-13T0500,2236A,122.8738,45.5725,白城市,市环保局,颗粒物(PM10),61,72,129,36,41,60,,,,7,8,9,8,0.5,0.6
2024-02-13T0500,2231A,126.4219,41.9171,白山市,喜丰,颗粒物(PM10),78,105,87,48,46,98,,,,10,13,16,19,1.3,1.2
2024-02-13T0500,2232A,126.4077,41.9419,白山市,环保局,"颗粒物(PM10),细颗粒物(PM2.5)",83,115,105,61,60,64,,,,26,16,12,18,1.3,1.2
2024-02-13T0500,2647A,104.1724,36.5446,白银市,第三小学,细颗粒物(PM2.5),57,59,79,40,44,38,,,,25,33,34,55,0.8,0.9
2024-02-13T0500,2648A,104.1465,36.5482,白银市,动力公司,细颗粒物(PM2.5),57,46,64,40,43,35,,,,25,26,14,35,0.8,0.9
2024-02-13T0500,2512A,106.6103,23.9011,百色市,市监测站,细颗粒物(PM2.5),59,58,64,42,41,41,,,,12,11,13,18,0.7,0.7
2024-02-13T0500,2513A,106.6538,23.8859,百色市,市中心血站,细颗粒物(PM2.5),62,54,56,44,41,39,,,,15,11,14,24,0.6,0.6
2024-02-13T0500,3406A,106.6085,23.8798,百色市,祈福高中,细颗粒物(PM2.5),57,44,50,40,39,38,,,,12,11,9,20,0.7,0.8
2024-02-13T0500,2270A,117.396,32.939,蚌埠市,工人疗养院,,43,43,66,26,34,87,,,,4,5,6,7,0.5,0.5
2024-02-13T0500,2271A,117.3605,32.9427,蚌埠市,百货大楼,,45,45,70,30,37,85,,,,9,10,3,5,0.7,0.7
2024-02-13T0500,2273A,117.4185,32.8911,蚌埠市,蚌埠学院,,49,46,67,34,37,84,,,,6,8,5,6,0.6,0.6
2024-02-13T0500,2274A,117.3533,32.9673,蚌埠市,淮上区政府,,46,46,70,28,38,89,,,,7,8,5,6,0.6,0.7
2024-02-13T0500,2275A,117.3145,32.8977,蚌埠市,高新区,,41,41,67,28,39,73,,,,11,11,4,6,0.7,0.7
2024-02-13T0500,3715A,117.3092,32.9314,蚌埠市,蚌埠田家炳中学,,49,49,75,29,41,79,,,,11,13,13,12,0.5,0.5
2024-02-13T0500,1585A,109.8756,40.6532,包头市,市环境监测站,细颗粒物(PM2.5),84,90,103,62,70,15,,,,46,51,15,28,1.9,1.8
2024-02-13T0500,1587A,109.9991,40.5842,包头市,包头八中,细颗粒物(PM2.5),134,126,112,102,73,6,,,,61,47,26,31,2.6,1.7
2024-02-13T0500,1588A,109.8538,40.6821,包头市,青山宾馆,细颗粒物(PM2.5),80,78,106,59,75,27,,,,30,52,12,25,1.7,1.9
2024-02-13T0500,1589A,109.8642,40.6288,包头市,惠龙物流,"颗粒物(PM10),细颗粒物(PM2.5)",79,107,101,58,64,4,,,,63,44,24,27,2.0,1.3
2024-02-13T0500,1590A,110.0377,40.5546,包头市,东河鸿龙湾,细颗粒物(PM2.5),132,141,119,100,82,13,,,,61,48,10,18,2.1,1.6
2024-02-13T0500,3283A,109.9154,40.5685,包头市,滨河大厦,细颗粒物(PM2.5),88,103,97,65,65,6,,,,58,38,20,20,2.3,1.4
2024-02-13T0500,3419A,109.9447,40.6261,包头市,包头市委党校,颗粒物(PM10),65,80,85,46,51,30,,,,36,40,16,31,1.3,1.3
2024-02-13T0500,3683A,109.8331,40.6576,包头市,昆区政府,细颗粒物(PM2.5),90,93,107,67,89,24,,,,36,54,19,32,1.8,1.8
2024-02-13T0500,1930A,107.185,34.3063,宝鸡市,庙沟村,细颗粒物(PM2.5),72,65,91,52,55,73,,,,6,10,5,7,0.7,0.7
2024-02-13T0500,1931A,107.0708,34.3017,宝鸡市,竹园沟,细颗粒物(PM2.5),64,61,86,46,55,40,,,,14,20,4,6,0.6,0.7
2024-02-13T0500,1932A,107.1906,34.3672,宝鸡市,三陆医院,细颗粒物(PM2.5),87,86,108,64,72,48,,,,22,31,5,8,0.7,0.8
2024-02-13T0500,1933A,107.1431,34.3547,宝鸡市,监测站,细颗粒物(PM2.5),92,85,100,68,66,37,,,,18,22,3,5,0.6,0.7
2024-02-13T0500,1934A,107.1186,34.3739,宝鸡市,技工学校,细颗粒物(PM2.5),92,83,108,68,71,47,,,,16,26,6,9,0.7,0.8
2024-02-13T0500,1935A,107.3906,34.3528,宝鸡市,陈仓区环保局家属楼,细颗粒物(PM2.5),150,159,148,115,103,45,,,,45,43,69,32,1.6,1.1
2024-02-13T0500,1936A,107.2058,34.3497,宝鸡市,文理学院,细颗粒物(PM2.5),93,84,112,69,70,46,,,,25,27,7,9,0.7,0.7
2024-02-13T0500,1937A,107.2386,34.3622,宝鸡市,三迪小学,细颗粒物(PM2.5),92,75,119,68,74,45,,,,19,31,8,10,0.8,0.8
2024-02-13T0500,1051A,115.493,38.8632,保定市,游泳馆,细颗粒物(PM2.5),175,199,179,132,115,66,,,,23,34,8,10,1.1,1.1
2024-02-13T0500,1052A,115.5213,38.8959,保定市,华电二区,细颗粒物(PM2.5),169,140,133,128,112,52,,,,15,21,7,8,0.8,0.8
2024-02-13T0500,1053A,115.4713,38.9108,保定市,接待中心,细颗粒物(PM2.5),156,139,135,119,102,52,,,,14,17,8,9,1.0,0.9
2024-02-13T0500,1054A,115.4612,38.8416,保定市,地表水厂,细颗粒物(PM2.5),214,195,167,164,111,40,,,,52,47,6,7,1.6,1.4
2024-02-13T0500,3581A,115.31981,38.95208,保定市,满城区生态环境分局,细颗粒物(PM2.5),178,193,164,134,121,1,,,,47,42,5,9,2.2,1.3
2024-02-13T0500,3582A,115.47694,38.76408,保定市,清苑区第二中学,细颗粒物(PM2.5),203,231,178,153,107,44,,,,53,32,9,12,1.2,0.9
2024-02-13T0500,3583A,115.62909,39.02311,保定市,徐水物探局,细颗粒物(PM2.5),156,173,189,119,126,43,,,,26,34,6,9,1.0,0.9
2024-02-13T0500,4004A,115.4202,38.8656,保定市,双鹰农机,细颗粒物(PM2.5),158,165,131,120,96,47,,,,30,31,7,10,1.0,0.9
2024-02-13T0500,4034A,115.5150,38.8590,保定市,植保所站,细颗粒物(PM2.5),169,151,143,128,119,59,,,,26,41,8,7,0.9,1
2024-02-13T0500,2594A,99.1678,25.1081,保山市,市环境监测站,,34,34,46,16,26,63,,,,4,7,5,6,0.4,0.5
2024-02-13T0500,2595A,99.1711,25.1328,保山市,市环保局,,42,31,48,29,29,75,,,,2,4,6,7,0.4,0.5
2024-02-13T0500,1867A,109.1436,21.4086,北海市,海滩公园,颗粒物(PM10),51,52,60,22,31,93,,,,7,10,7,10,0.6,0.5
2024-02-13T0500,1868A,109.0981,21.4661,北海市,新市环保局,,49,49,56,27,30,99,,,,7,11,6,8,0.3,0.4
2024-02-13T0500,1869A,109.1778,21.5233,北海市,北海工业园,颗粒物(PM10),56,62,59,27,34,96,,,,8,9,7,9,0.4,0.4
2024-02-13T0500,3400A,109.1911,21.4415,北海市,龙潭自来水厂,颗粒物(PM10),51,51,56,29,35,92,,,,5,8,8,8,0.5,0.5
2024-02-13T0500,1001A,116.3621,39.8784,北京市,万寿西宫,细颗粒物(PM2.5),160,175,144,122,107,46,,,,46,46,5,5,1.0,0.8
2024-02-13T0500,1002A,116.2202,40.2915,北京市,定陵,细颗粒物(PM2.5),123,123,89,93,69,66,,,,12,13,2,4,0.7,0.6
2024-02-13T0500,1003A,116.4174,39.9289,北京市,东四,细颗粒物(PM2.5),185,195,159,139,117,44,,,,48,42,9,9,1.2,1
2024-02-13T0500,1004A,116.4072,39.8863,北京市,天坛,细颗粒物(PM2.5),163,160,140,124,108,16,,,,55,44,3,4,1.2,0.9
2024-02-13T0500,1005A,116.462,39.9365,北京市,农展馆,细颗粒物(PM2.5),178,188,154,134,112,32,,,,54,46,1,5,1.2,0.9
2024-02-13T0500,1006A,116.3392,39.9295,北京市,官园,细颗粒物(PM2.5),147,156,139,112,101,46,,,,50,37,5,6,1.2,0.9
2024-02-13T0500,1007A,116.2878,39.9611,北京市,海淀万柳,细颗粒物(PM2.5),114,112,115,86,81,21,,,,55,46,3,4,0.6,0.6
2024-02-13T0500,1008A,116.6636,40.135,北京市,顺义新城,细颗粒物(PM2.5),160,169,142,122,102,53,,,,33,25,3,4,0.9,0.7
2024-02-13T0500,1009A,116.6275,40.3275,北京市,怀柔镇,细颗粒物(PM2.5),120,123,106,91,77,62,,,,11,18,4,7,0.7,0.7
2024-02-13T0500,1010A,116.2296,40.217,北京市,昌平镇,细颗粒物(PM2.5),122,134,101,92,70,70,,,,33,25,3,3,0.6,0.5
2024-02-13T0500,1011A,116.3966,39.9821,北京市,奥体中心,细颗粒物(PM2.5),122,119,121,92,94,33,,,,50,47,6,8,0.8,0.8
2024-02-13T0500,1012A,116.184,39.9136,北京市,古城,细颗粒物(PM2.5),102,102,112,76,78,34,,,,22,30,3,3,0.7,0.8
2024-02-13T0500,3281A,115.9718,40.4529,北京市,延庆夏都,细颗粒物(PM2.5),117,108,92,88,69,17,,,,26,20,1,4,1.1,0.8
2024-02-13T0500,3417A,117.0709,40.1465,北京市,平谷新城,细颗粒物(PM2.5),165,177,161,125,115,62,,,,10,12,1,4,0.9,0.9
2024-02-13T0500,3418A,116.8336,40.4095,北京市,密云新城,细颗粒物(PM2.5),140,162,134,107,89,61,,,,19,21,3,4,0.8,0.7
2024-02-13T0500,3673A,116.6804,39.9081,北京市,通州东关,细颗粒物(PM2.5),198,206,196,148,144,41,,,,36,37,1,6,1.1,1
2024-02-13T0500,3674A,115.9577,39.7603,北京市,房山燕山,细颗粒物(PM2.5),107,97,79,80,64,60,,,,14,19,3,2,0.6,0.5
2024-02-13T0500,3675A,116.4672,39.7733,北京市,大兴旧宫,细颗粒物(PM2.5),179,187,155,135,119,10,,,,80,37,3,3,1.0,0.7
2024-02-13T0500,3694A,115.986,40.4563,北京市,延庆石河营,细颗粒物(PM2.5),117,107,87,88,66,14,,,,26,22,3,4,1.2,0.9
2024-02-13T0500,3695A,116.6151,40.3053,北京市,怀柔新城,细颗粒物(PM2.5),114,120,103,86,73,63,,,,14,16,3,4,0.7,0.6
2024-02-13T0500,3696A,116.2545,39.8768,北京市,丰台小屯,细颗粒物(PM2.5),128,135,135,97,92,22,,,,52,50,3,4,0.8,0.8
2024-02-13T0500,3697A,116.84,40.3844,北京市,密云镇,细颗粒物(PM2.5),166,163,145,126,111,48,,,,20,30,3,3,0.8,0.8
2024-02-13T0500,1761A,123.8275,41.3064,本溪市,大峪,细颗粒物(PM2.5),77,96,86,56,56,104,,,,12,16,10,10,0.9,1
2024-02-13T0500,1762A,123.7567,41.3325,本溪市,溪湖,细颗粒物(PM2.5),93,117,111,69,64,95,,,,15,19,21,27,1.1,1.2
2024-02-13T0500,1763A,123.7169,41.3094,本溪市,彩屯,细颗粒物(PM2.5),104,123,118,78,71,80,,,,33,41,31,41,2.8,2.9
2024-02-13T0500,1764A,123.7669,41.2864,本溪市,东明,细颗粒物(PM2.5),92,91,84,68,64,95,,,,13,15,12,18,0.5,0.5
2024-02-13T0500,1765A,123.7992,41.2664,本溪市,新立屯,"颗粒物(PM10),细颗粒物(PM2.5)",70,89,71,51,42,106,,,,12,11,12,13,0.6,0.5
2024-02-13T0500,1766A,123.8142,41.3472,本溪市,威宁,细颗粒物(PM2.5),77,98,92,56,54,89,,,,15,21,12,13,0.7,0.8
2024-02-13T0500,2587A,105.2864,27.3125,毕节市,八中,细颗粒物(PM2.5),78,66,60,57,51,39,,,,5,9,7,12,0.6,0.6
2024-02-13T0500,2588A,105.31,27.2944,毕节市,师专,细颗粒物(PM2.5),80,68,66,59,56,34,,,,10,17,6,13,0.7,0.8
2024-02-13T0500,3537A,105.3631,27.3533,毕节市,长征村,细颗粒物(PM2.5),119,115,73,90,57,60,,,,8,8,8,12,1.0,0.9
2024-02-13T0500,1629A,118.0018,37.3617,滨州市,第二水厂,颗粒物(PM10),71,92,118,51,64,67,,,,25,22,16,14,1.1,1.1
2024-02-13T0500,1630A,117.9776,37.393,滨州市,北中新校,细颗粒物(PM2.5),77,102,120,56,60,72,,,,24,21,16,15,1.0,1
2024-02-13T0500,3514A,117.9378,37.3956,滨州市,中海酒店,细颗粒物(PM2.5),77,79,105,56,63,80,,,,20,19,18,24,0.8,0.9
2024-02-13T0500,3515A,117.9378,37.3553,滨州市,开发区一中,细颗粒物(PM2.5),84,110,125,62,66,64,,,,27,19,21,22,0.7,0.8
2024-02-13T0500,4028A,117.9956,37.3753,滨州市,滨州市西街道办事处,细颗粒物(PM2.5),83,97,123,61,65,59,,,,28,22,19,18,1.0,0.9
2024-02-13T0500,2311A,115.8072,33.8399,亳州市,污水处理厂,细颗粒物(PM2.5),89,88,84,66,46,64,,,,10,9,7,7,0.7,0.6
2024-02-13T0500,2312A,115.7789,33.8518,亳州市,三国揽胜宫,细颗粒物(PM2.5),73,88,88,53,40,67,,,,11,9,8,8,0.7,0.7
2024-02-13T0500,3332A,115.7633,33.8034,亳州市,亳州学院,细颗粒物(PM2.5),72,81,85,52,43,69,,,,8,7,6,6,0.9,0.9
2024-02-13T0500,2693A,82.0485,44.8556,博尔塔拉蒙古自治州,市党校,,25,23,61,15,29,77,,,,8,13,8,10,0.4,0.5
2024-02-13T0500,2694A,82.0806,44.8969,博尔塔拉蒙古自治州,市环保局,,23,23,60,12,30,69,,,,11,20,6,10,0.4,0.7
2024-02-13T0500,1071A,116.8842,38.2991,沧州市,沧县城建局,细颗粒物(PM2.5),100,112,148,75,92,70,,,,12,23,10,10,1.2,1.3
2024-02-13T0500,1072A,116.8584,38.3254,沧州市,电视转播站,细颗粒物(PM2.5),100,109,140,75,88,70,,,,11,14,14,19,0.8,0.8
2024-02-13T0500,1073A,116.8709,38.3228,沧州市,市环保局,细颗粒物(PM2.5),99,119,142,74,89,68,,,,14,20,12,12,0.8,0.8
2024-02-13T0500,3324A,116.8136,38.3004,沧州市,河北水利电力学院,细颗粒物(PM2.5),107,124,152,80,87,66,,,,12,14,19,19,0.8,0.7
2024-02-13T0500,2622A,97.1806,31.1273,昌都市,昌都监测站,,14,12,24,4,12,43,,,,4,13,7,7,0.2,0.3
2024-02-13T0500,3719A,97.1714,31.1406,昌都市,昌都会议中心,,17,7,10,7,10,53,,,,3,5,4,4,0.2,0.3
2024-02-13T0500,2690A,88.1236,43.8886,昌吉回族自治州,天山天池,,24,14,19,8,9,74,,,,6,8,9,9,0.6,0.6
2024-02-13T0500,2692A,87.2717,44.0297,昌吉回族自治州,新区政务中心,细颗粒物(PM2.5),77,68,127,56,99,78,,,,11,17,6,6,0.9,1.5
2024-02-13T0500,3613A,87.3095,44.0142,昌吉回族自治州,亚心广场,细颗粒物(PM2.5),55,51,125,39,101,80,,,,13,17,6,8,0.8,1.3
2024-02-13T0500,1119A,125.3325,43.9166,长春市,食品厂,细颗粒物(PM2.5),89,96,88,66,53,102,,,,12,14,18,16,0.6,0.5
2024-02-13T0500,1120A,125.2863,43.9027,长春市,客车厂,细颗粒物(PM2.5),85,92,89,63,54,92,,,,16,15,21,18,0.8,0.7
2024-02-13T0500,1121A,125.2841,43.8463,长春市,邮电学院,细颗粒物(PM2.5),93,108,89,69,53,92,,,,22,19,28,22,0.7,0.6
2024-02-13T0500,1122A,125.3716,43.8772,长春市,劳动公园,细颗粒物(PM2.5),77,96,81,56,46,90,,,,13,18,10,11,0.7,0.6
2024-02-13T0500,1123A,125.3297,43.8805,长春市,园林处,细颗粒物(PM2.5),77,90,79,56,48,104,,,,13,11,16,14,0.9,0.8
2024-02-13T0500,1124A,125.4605,43.79,长春市,净月潭,细颗粒物(PM2.5),74,90,62,54,43,102,,,,7,5,8,8,0.6,0.5
2024-02-13T0500,1126A,125.3863,43.8447,长春市,经开区环卫处,细颗粒物(PM2.5),79,87,81,58,46,104,,,,6,8,8,9,0.6,0.5
2024-02-13T0500,1127A,125.245,43.7783,长春市,高新区管委会,细颗粒物(PM2.5),82,93,73,60,50,105,,,,8,8,19,15,1.0,0.7
2024-02-13T0500,1128A,125.1761,43.8325,长春市,岱山公园,细颗粒物(PM2.5),87,95,81,64,54,101,,,,11,11,12,10,0.7,0.7
2024-02-13T0500,1335A,113.0833,28.2325,长沙市,经开区环保局,颗粒物(PM10),51,52,63,32,39,83,,,,2,2,4,5,0.5,0.5
2024-02-13T0500,1336A,112.8872,28.2189,长沙市,高开区环保局,细颗粒物(PM2.5),55,51,65,39,50,66,,,,5,5,4,5,0.6,0.7
2024-02-13T0500,1337A,113.0792,28.2053,长沙市,马坡岭,细颗粒物(PM2.5),60,52,67,43,54,70,,,,2,3,6,7,0.6,0.5
2024-02-13T0500,1338A,112.9394,28.19,长沙市,湖南师范大学,细颗粒物(PM2.5),53,49,68,37,46,53,,,,6,8,5,7,0.7,0.8
2024-02-13T0500,1339A,113.0178,28.1322,长沙市,雨花区环保局,细颗粒物(PM2.5),54,49,59,38,44,59,,,,5,3,4,4,0.6,0.7
2024-02-13T0500,1340A,112.9792,28.2597,长沙市,伍家岭,细颗粒物(PM2.5),88,81,94,65,58,13,,,,17,16,5,6,0.7,0.8
2024-02-13T0500,1341A,113.0014,28.1944,长沙市,火车新站,颗粒物(PM10),53,56,72,36,43,45,,,,20,13,3,4,0.7,0.7
2024-02-13T0500,1343A,112.8908,28.1308,长沙市,湖南中医药大学,细颗粒物(PM2.5),67,62,83,48,57,35,,,,14,20,4,5,0.7,0.8
2024-02-13T0500,1344A,112.9581,28.3611,长沙市,沙坪,,48,41,51,33,40,43,,,,6,6,5,6,0.6,0.6
2024-02-13T0500,1727A,113.1147,36.1547,长治市,清华站,颗粒物(PM10),51,51,64,27,35,47,,,,18,21,17,22,0.7,0.8
2024-02-13T0500,1728A,113.1031,36.1989,长治市,监测站,细颗粒物(PM2.5),85,108,93,63,49,8,,,,46,34,25,28,1.2,0.9
2024-02-13T0500,1730A,113.0886,36.2125,长治市,审计局,细颗粒物(PM2.5),85,88,71,63,45,9,,,,36,25,22,31,1.2,1.1
2024-02-13T0500,1731A,113.0844,36.1856,长治市,长治八中,颗粒物(PM10),66,81,75,45,41,18,,,,40,28,19,23,1.2,1
2024-02-13T0500,2845A,113.1569,36.1911,长治市,德盛苑,细颗粒物(PM2.5),52,49,54,36,31,60,,,,26,17,21,22,1.0,0.9
2024-02-13T0500,3568A,113.06,36.0464,长治市,向阳小学,,45,45,71,23,36,91,,,,13,19,22,27,0.7,0.8
2024-02-13T0500,3569A,112.8792,36.3144,长治市,屯留一中,,39,39,61,27,40,46,,,,13,18,14,21,0.8,0.8
2024-02-13T0500,3570A,113.235,36.3489,长治市,潞城四中,细颗粒物(PM2.5),65,60,92,47,54,40,,,,18,33,8,19,0.7,1.1
2024-02-13T0500,1854A,111.6975,28.9703,常德市,市二中,细颗粒物(PM2.5),102,88,82,76,69,19,,,,12,15,6,8,0.9,0.8
2024-02-13T0500,1857A,111.7158,29.1456,常德市,白鹤山,颗粒物(PM10),64,78,103,42,57,27,,,,1,3,3,3,0.6,0.7
2024-02-13T0500,3138A,111.7153,29.0289,常德市,武陵区永安,细颗粒物(PM2.5),122,119,96,92,72,23,,,,12,11,7,8,1.3,1.2
2024-02-13T0500,3139A,111.6892,28.9881,常德市,鼎城区玉霞,细颗粒物(PM2.5),103,92,91,77,71,9,,,,14,17,7,9,1.0,0.9
2024-02-13T0500,3140A,111.6625,29.0531,常德市,武陵区长庚,细颗粒物(PM2.5),125,117,102,95,74,20,,,,10,14,5,6,1.2,1.1
2024-02-13T0500,1196A,119.9633,31.762,常州市,市监测站,颗粒物(PM10),62,73,78,38,45,82,,,,6,9,7,8,0.7,0.7
2024-02-13T0500,1200A,119.9468,31.7069,常州市,武进监测站,颗粒物(PM10),57,64,72,32,41,80,,,,8,10,4,7,0.6,0.7
2024-02-13T0500,1201A,119.9255,31.9087,常州市,安家,颗粒物(PM10),57,63,70,32,43,84,,,,8,11,7,8,0.7,0.8
2024-02-13T0500,3002A,119.9805,31.8174,常州市,行政中心,颗粒物(PM10),57,64,67,36,42,83,,,,8,11,8,11,0.8,1.1
2024-02-13T0500,3003A,120.0522,31.7748,常州市,经开区,颗粒物(PM10),58,65,72,36,44,81,,,,11,15,13,12,1.2,1.2
2024-02-13T0500,3010A,119.9025,31.7964,常州市,钟楼,颗粒物(PM10),57,63,68,35,42,78,,,,10,12,7,8,0.7,0.7
2024-02-13T0500,3429A,119.8598,31.7066,常州市,武进经发区,"颗粒物(PM10),细颗粒物(PM2.5)",59,68,77,42,47,84,,,,6,8,5,7,0.8,1
2024-02-13T0500,3430A,119.5826,31.7245,常州市,金坛城区,"颗粒物(PM10),细颗粒物(PM2.5)",64,77,80,46,45,68,,,,8,10,8,10,0.9,0.9
2024-02-13T0500,2220A,120.4318,41.5881,朝阳市,西梁,细颗粒物(PM2.5),108,137,130,81,70,100,,,,21,16,29,22,1.8,1.3
2024-02-13T0500,2221A,120.4521,41.5646,朝阳市,河畔小区,细颗粒物(PM2.5),104,131,125,78,71,97,,,,14,16,12,14,1.3,1.2
2024-02-13T0500,2222A,120.4176,41.5648,朝阳市,八里堡,细颗粒物(PM2.5),104,132,131,78,67,89,,,,24,18,26,21,2.3,1.4
2024-02-13T0500,2223A,120.3806,41.5969,朝阳市,农业园区,细颗粒物(PM2.5),132,142,130,100,78,96,,,,15,14,18,18,1.2,1
2024-02-13T0500,1705A,116.6367,23.6719,潮州市,西园路,细颗粒物(PM2.5),62,61,54,44,39,42,,,,5,8,4,4,0.3,0.4
2024-02-13T0500,3026A,116.6183,23.6608,潮州市,市政府,,49,44,51,34,33,47,,,,7,10,5,5,0.3,0.5
2024-02-13T0500,4036A,116.6461,23.6761,潮州市,金山,细颗粒物(PM2.5),54,43,51,38,41,40,,,,7,9,5,6,0.4,0.4
2024-02-13T0500,2472A,113.0073,25.9061,郴州市,马头岭,,31,29,38,12,14,98,,,,6,7,4,6,0.2,0.3
2024-02-13T0500,2473A,113.0116,25.8226,郴州市,市职中,,33,25,38,20,29,105,,,,4,6,5,5,0.3,0.4
2024-02-13T0500,2474A,113.0161,25.8001,郴州市,兴隆步行街,,35,34,40,19,29,110,,,,4,7,4,5,0.4,0.5
2024-02-13T0500,2475A,113.0383,25.8071,郴州市,市审计局,,34,23,43,19,31,108,,,,2,8,4,5,0.3,0.5
2024-02-13T0500,2476A,113.0348,25.7759,郴州市,市环保局,,34,30,43,22,32,108,,,,7,12,4,4,0.3,0.4
2024-02-13T0500,1431A,103.9728,30.7236,成都市,金泉两河,细颗粒物(PM2.5),127,,82,96,79,0,,,,39,29,3,2,1.1,0.9
2024-02-13T0500,1432A,104.176,30.6872,成都市,十里店,细颗粒物(PM2.5),132,107,90,100,82,22,,,,47,30,2,3,0.7,0.7
2024-02-13T0500,1433A,104.079,30.5706,成都市,三瓦窑,细颗粒物(PM2.5),114,111,98,86,75,0,,,,55,39,1,1,1.0,0.8
2024-02-13T0500,1434A,104.1114,30.63,成都市,沙河铺,细颗粒物(PM2.5),163,132,109,124,97,1,,,,41,36,2,4,1.4,1
2024-02-13T0500,1437A,104.0786,30.6531,成都市,君平街,细颗粒物(PM2.5),137,113,101,104,91,0,,,,67,49,6,6,1.2,1
2024-02-13T0500,1438A,103.613,31.0283,成都市,灵岩寺,细颗粒物(PM2.5),62,56,60,44,48,82,,,,13,13,3,3,0.8,0.8
2024-02-13T0500,2880A,104.0239,30.65639,成都市,大石西路,细颗粒物(PM2.5),128,109,102,97,90,0,,,,59,43,2,4,1.3,1.2
2024-02-13T0500,3136A,104.2725,30.5589,成都市,龙泉驿区区政府,细颗粒物(PM2.5),85,78,82,63,71,74,,,,6,13,2,2,0.7,0.8
2024-02-13T0500,3357A,104.0106,30.6931,成都市,金博路,细颗粒物(PM2.5),129,109,111,98,95,21,,,,31,40,3,2,0.9,0.9
2024-02-13T0500,3359A,104.0578,30.5225,成都市,华阳,细颗粒物(PM2.5),138,107,95,105,87,0,,,,28,24,1,2,1.4,1.1
2024-02-13T0500,3487A,104.2394,30.5319,成都市,车城东七路,细颗粒物(PM2.5),104,91,90,78,80,46,,,,15,16,1,2,0.7,0.7
2024-02-13T0500,3488A,104.3853,30.7453,成都市,青白江技师分院,细颗粒物(PM2.5),89,72,88,66,71,62,,,,13,19,5,8,0.8,0.9
2024-02-13T0500,3489A,104.0789,30.4072,成都市,科学城,细颗粒物(PM2.5),100,82,82,75,75,32,,,,8,9,3,4,0.8,0.8
2024-02-13T0500,4011A,103.8506,30.6947,成都市,光华大道三段,细颗粒物(PM2.5),120,99,111,91,89,19,,,,24,26,1,3,1.0,1.1
2024-02-13T0500,1062A,117.9531,40.9081,承德市,铁路,细颗粒物(PM2.5),124,123,99,94,67,8,,,,58,35,10,14,1.6,1.2
2024-02-13T0500,1063A,117.9392,40.9763,承德市,中国银行,细颗粒物(PM2.5),110,129,109,83,63,23,,,,36,34,8,12,1.4,1.1
2024-02-13T0500,1064A,117.9503,40.928,承德市,开发区,细颗粒物(PM2.5),99,124,85,74,54,18,,,,48,31,7,10,1.3,0.9
2024-02-13T0500,1065A,117.8051,40.9655,承德市,文化中心,细颗粒物(PM2.5),118,131,106,89,62,35,,,,34,34,6,21,1.0,1.2
2024-02-13T0500,1066A,117.9268,41.0026,承德市,离宫,细颗粒物(PM2.5),95,104,79,71,54,39,,,,21,17,7,10,1.1,0.7
2024-02-13T0500,2314A,117.47,30.6618,池州市,池州学院,,33,32,58,23,36,48,,,,17,17,4,7,0.6,0.7
2024-02-13T0500,3237A,117.4918,30.6617,池州市,展览馆,,46,37,64,32,39,20,,,,11,14,2,4,0.5,0.7
2024-02-13T0500,3333A,117.5627,30.695,池州市,第八中学,,30,30,58,19,33,58,,,,10,11,2,7,0.5,0.6
2024-02-13T0500,3334A,117.5038,30.6243,池州市,第十二中学,,36,31,59,25,36,35,,,,17,13,3,4,0.3,0.4
2024-02-13T0500,1744A,118.9233,42.2816,赤峰市,松山一中,,46,46,55,24,23,85,,,,10,14,8,12,0.7,0.7
2024-02-13T0500,1745A,118.9576,42.2728,赤峰市,哈达街,,48,48,56,18,30,83,,,,9,17,13,14,0.7,0.7
2024-02-13T0500,1746A,118.8788,42.2554,赤峰市,天义路,,32,32,40,18,19,85,,,,7,9,7,8,0.4,0.4
2024-02-13T0500,3058A,119.2658,42.0353,赤峰市,银河街,细颗粒物(PM2.5),75,89,86,55,42,81,,,,13,13,18,18,0.9,0.8
2024-02-13T0500,3286A,118.9359,42.3147,赤峰市,桥北物流园区,,49,49,48,30,29,86,,,,5,10,8,11,0.6,0.6
2024-02-13T0500,2521A,107.3476,22.4136,崇左市,市环保局江州分局,细颗粒物(PM2.5),74,82,88,54,65,21,,,,12,15,7,9,0.4,0.5
2024-02-13T0500,2522A,107.3702,22.3707,崇左市,城南新区,细颗粒物(PM2.5),53,37,62,37,57,34,,,,10,12,7,8,0.2,0.3
2024-02-13T0500,2298A,118.3093,32.3153,滁州市,老年大学,细颗粒物(PM2.5),58,59,81,41,54,43,,,,17,22,6,9,0.8,0.9
2024-02-13T0500,2299A,118.3244,32.2786,滁州市,人大宾馆,细颗粒物(PM2.5),72,73,76,52,46,55,,,,24,23,8,9,0.9,0.8
2024-02-13T0500,3207A,118.3118,32.3038,滁州市,市政府原办公楼,细颗粒物(PM2.5),60,58,71,43,44,52,,,,23,24,6,8,0.6,0.7
2024-02-13T0500,3331A,118.3267,32.2634,滁州市,图书馆,细颗粒物(PM2.5),68,65,69,49,41,56,,,,22,19,10,10,1.0,0.8
2024-02-13T0500,2605A,101.5482,25.0441,楚雄彝族自治州,州环境监测站,,42,33,34,29,29,41,,,,8,8,6,6,0.6,0.7
2024-02-13T0500,2606A,101.538,25.0492,楚雄彝族自治州,市经济开发区,,42,36,38,29,30,40,,,,7,9,6,7,0.6,0.7
2024-02-13T0500,2548A,107.5277,31.2827,达州市,达州职业技术学院,细颗粒物(PM2.5),69,73,56,50,38,22,,,,9,19,6,10,0.5,0.5
2024-02-13T0500,2549A,107.5086,31.2186,达州市,市环境监测站,细颗粒物(PM2.5),64,66,63,46,43,24,,,,17,38,7,11,0.7,0.9
2024-02-13T0500,2550A,107.4988,31.2132,达州市,凤凰小区,细颗粒物(PM2.5),67,58,64,48,45,29,,,,18,39,6,11,0.6,1
2024-02-13T0500,2551A,107.5082,31.1986,达州市,达县机关宾馆,细颗粒物(PM2.5),57,61,71,40,42,10,,,,26,44,4,8,0.8,1.1
2024-02-13T0500,2552A,107.4644,31.2124,达州市,市政中心,"颗粒物(PM10),细颗粒物(PM2.5)",67,83,71,48,47,14,,,,31,48,6,14,0.9,1.4
2024-02-13T0500,2614A,100.1542,25.7054,大理白族自治州,大理市环境监测站,,32,25,33,22,22,88,,,,4,4,7,7,0.5,0.6
2024-02-13T0500,2615A,100.2171,25.5811,大理白族自治州,大理古城,,40,,24,28,18,75,,,,7,7,6,6,0.6,0.6
2024-02-13T0500,1109A,121.612,38.9741,大连市,甘井子,细颗粒物(PM2.5),98,102,132,73,96,82,,,,19,22,10,9,0.8,0.8
2024-02-13T0500,1110A,121.565,38.9511,大连市,周水子,细颗粒物(PM2.5),94,101,146,70,149,70,,,,24,28,21,30,1.0,1.1
2024-02-13T0500,1111A,121.5637,38.8845,大连市,星海三站,细颗粒物(PM2.5),104,109,127,78,97,88,,,,14,19,6,8,1.2,1.2
2024-02-13T0500,1112A,121.6302,38.9117,大连市,青泥洼桥,细颗粒物(PM2.5),93,97,111,69,90,86,,,,20,19,15,15,1.0,1.1
2024-02-13T0500,1113A,121.6251,38.8638,大连市,傅家庄,细颗粒物(PM2.5),98,106,124,73,90,98,,,,11,12,12,13,1.0,1.1
2024-02-13T0500,1114A,121.5213,38.8661,大连市,七贤岭,细颗粒物(PM2.5),94,110,140,70,89,66,,,,18,25,12,12,0.8,1
2024-02-13T0500,1115A,121.2529,38.8061,大连市,旅顺,细颗粒物(PM2.5),89,97,110,66,79,77,,,,24,25,9,10,1.1,1.2
2024-02-13T0500,1116A,121.7485,39.1311,大连市,金州,细颗粒物(PM2.5),99,98,112,74,86,90,,,,27,22,19,14,1.1,1.2
2024-02-13T0500,1117A,121.7811,39.0496,大连市,开发区,细颗粒物(PM2.5),127,137,145,96,105,67,,,,32,26,5,8,1.2,1.2
2024-02-13T0500,1118A,121.9762,39.0631,大连市,双D港,细颗粒物(PM2.5),102,117,130,76,95,71,,,,16,19,6,7,1.1,1.2
2024-02-13T0500,1789A,124.81117,46.03138,大庆市,大同区,细颗粒物(PM2.5),119,126,148,90,64,77,,,,11,12,10,12,1.0,0.9
2024-02-13T0500,1790A,125.129,46.533,大庆市,龙凤区,颗粒物(PM10),81,111,105,58,44,80,,,,12,13,4,6,0.8,0.7
2024-02-13T0500,1791A,124.902,46.408,大庆市,红岗区,细颗粒物(PM2.5),107,108,152,80,50,84,,,,10,10,10,10,0.5,0.5
2024-02-13T0500,1792A,125.153,46.586,大庆市,萨尔图区,细颗粒物(PM2.5),113,131,147,85,59,75,,,,17,13,11,14,1.0,0.8
2024-02-13T0500,1793A,124.9042,46.6215,大庆市,让胡路区,颗粒物(PM10),89,127,175,62,51,78,,,,10,10,9,10,0.8,0.7
2024-02-13T0500,3481A,125.141,46.634,大庆市,萨区政府监测点,细颗粒物(PM2.5),109,132,127,82,59,89,,,,12,14,12,16,0.9,0.8
2024-02-13T0500,1723A,113.2994,40.0758,大同市,云冈宾馆,颗粒物(PM10),60,70,108,32,60,25,,,,40,40,16,15,1.0,1.2
2024-02-13T0500,1724A,113.3444,40.0917,大同市,大同大学,,46,46,76,23,39,52,,,,26,28,24,20,1.0,0.8
2024-02-13T0500,1725A,113.2661,40.1269,大同市,安家小村,,45,45,73,15,31,72,,,,5,14,20,24,0.6,1
2024-02-13T0500,1726A,113.2711,40.0844,大同市,教育学院,,50,50,97,22,46,44,,,,29,38,17,21,1.0,1.4
2024-02-13T0500,3282A,113.3397,40.0597,大同市,大同市卫生学校,颗粒物(PM10),63,76,93,41,59,22,,,,40,35,19,16,0.8,0.9
2024-02-13T0500,3565A,113.1367,40.1122,大同市,云冈站,,35,35,54,17,22,43,,,,14,15,30,30,0.5,0.5
2024-02-13T0500,3566A,113.1186,40.2556,大同市,图书馆,,40,40,58,6,28,43,,,,10,11,17,25,0.3,0.4
2024-02-13T0500,3567A,113.5931,40.0461,大同市,区一中,颗粒物(PM10),58,66,79,36,40,50,,,,12,15,26,29,0.5,0.7
2024-02-13T0500,3676A,113.2802,40.0995,大同市,第二人民医院,,46,46,91,27,41,59,,,,22,27,11,19,0.7,1.1
2024-02-13T0500,2269A,124.1069,50.4097,大兴安岭地区,科技局,,40,40,37,26,28,54,,,,10,9,9,10,0.5,0.5
2024-02-13T0500,3663A,124.1164,50.4278,大兴安岭地区,红旗社区,,19,19,35,10,23,58,,,,12,16,10,13,0.3,0.2
2024-02-13T0500,1600A,124.3303,40.0625,丹东市,江湾东路,细颗粒物(PM2.5),85,97,92,63,69,107,,,,3,8,13,19,0.7,1.2
2024-02-13T0500,1601A,124.4256,40.1503,丹东市,临江后街,细颗粒物(PM2.5),80,96,87,59,59,98,,,,8,12,11,14,1.1,1.2
2024-02-13T0500,1602A,124.3933,40.1461,丹东市,元宝山,细颗粒物(PM2.5),82,103,103,60,71,95,,,,12,16,13,15,1.1,1.1
2024-02-13T0500,1603A,124.3633,40.1092,丹东市,民主桥,细颗粒物(PM2.5),84,104,106,62,68,92,,,,7,16,12,15,1.1,1.2
2024-02-13T0500,3541A,109.5726,19.5167,儋州市,第一中学子站,,31,31,34,18,20,53,,,,4,3,5,5,0.6,0.6
2024-02-13T0500,3542A,109.5567,19.5187,儋州市,东坡学校子站,,34,34,34,15,19,54,,,,4,4,5,4,0.5,0.5
2024-02-13T0500,2616A,98.5842,24.428,德宏傣族景颇族自治州,德宏州监测站,细颗粒物(PM2.5),73,,57,53,47,3,,,,40,25,9,17,0.7,0.8
2024-02-13T0500,3677A,98.5881,24.4368,德宏傣族景颇族自治州,芒市人民政府综合楼,,47,47,56,32,40,36,,,,12,19,4,12,0.6,0.7
2024-02-13T0500,1901A,104.4239,31.1208,德阳市,东山公园,细颗粒物(PM2.5),104,87,75,78,69,71,,,,13,14,10,5,0.8,0.7
2024-02-13T0500,1902A,104.3826,31.1317,德阳市,西小区,细颗粒物(PM2.5),120,98,102,91,89,28,,,,25,45,4,4,0.8,1.1
2024-02-13T0500,1904A,104.3553,31.1091,德阳市,耐火材料厂,细颗粒物(PM2.5),107,81,90,80,82,37,,,,19,21,9,6,0.6,0.7
2024-02-13T0500,3639A,104.4019,31.1244,德阳市,市教育局,细颗粒物(PM2.5),102,80,80,76,73,26,,,,28,37,3,3,0.7,0.8
2024-02-13T0500,1622A,116.3032,37.4674,德州市,儿童乐园,细颗粒物(PM2.5),73,88,130,53,63,69,,,,10,10,14,13,1.0,1
2024-02-13T0500,1624A,116.2991,37.4451,德州市,监理站,颗粒物(PM10),71,91,127,51,64,69,,,,18,16,18,16,0.8,0.9
2024-02-13T0500,3066A,116.2721,37.4379,德州市,九衢泉纯净水厂,细颗粒物(PM2.5),78,97,131,57,69,63,,,,16,16,12,12,0.9,1
2024-02-13T0500,3371A,116.3728,37.4403,德州市,开发区人民医院,细颗粒物(PM2.5),73,90,130,53,62,64,,,,10,10,12,12,0.7,0.8
2024-02-13T0500,3372A,116.3572,37.4094,德州市,太阳城中学,细颗粒物(PM2.5),79,84,127,58,72,62,,,,5,9,10,11,0.9,0.9
2024-02-13T0500,3511A,116.5652,37.3319,德州市,陵城艺术中心,颗粒物(PM10),63,75,120,39,56,76,,,,10,13,10,13,0.7,0.8
2024-02-13T0500,2621A,99.7056,27.8317,迪庆藏族自治州,迪庆州站,,21,18,22,11,13,66,,,,6,7,8,8,0.3,0.3
2024-02-13T0500,3180A,99.7136,27.8094,迪庆藏族自治州,质量技术监督局,,23,,19,16,14,65,,,,6,7,8,8,0.5,0.5
2024-02-13T0500,2663A,104.6241,35.5734,定西市,东关小学,颗粒物(PM10),64,77,82,42,51,15,,,,12,16,10,19,1.2,1
2024-02-13T0500,2664A,104.6194,35.5934,定西市,供电公司,细颗粒物(PM2.5),85,76,78,63,56,19,,,,9,12,4,15,1.0,0.9
2024-02-13T0500,1389A,113.7547,23.0494,东莞市,莞城梨川,细颗粒物(PM2.5),78,72,55,57,39,39,,,,24,16,8,9,0.7,0.6
2024-02-13T0500,1390A,113.7944,23.0128,东莞市,东城石井,,36,36,41,23,30,49,,,,14,12,6,7,0.7,0.6
2024-02-13T0500,1391A,113.7383,22.9658,东莞市,南城西平,,43,43,47,26,31,65,,,,14,14,9,9,0.7,0.7
2024-02-13T0500,3319A,113.7338,23.0381,东莞市,万江金泰,细颗粒物(PM2.5),87,84,58,64,43,33,,,,18,12,7,9,0.9,0.8
2024-02-13T0500,3626A,113.7533,23.0202,东莞市,南城元岭,,47,47,49,27,33,50,,,,14,10,6,9,0.6,0.6
2024-02-13T0500,3627A,113.7875,23.0457,东莞市,东城主山,细颗粒物(PM2.5),65,67,50,47,36,32,,,,19,10,9,11,0.7,0.7
2024-02-13T0500,1666A,118.6614,37.4309,东营市,市环保局,细颗粒物(PM2.5),98,110,124,73,71,66,,,,23,24,21,21,1.3,0.9
2024-02-13T0500,3036A,118.6904,37.4338,东营市,开发区管委会,细颗粒物(PM2.5),98,100,116,73,67,69,,,,21,22,14,13,1.1,0.8
2024-02-13T0500,3365A,118.5719,37.565,东营市,垦利区民丰路,细颗粒物(PM2.5),85,107,129,63,70,69,,,,19,21,22,19,1.1,0.9
2024-02-13T0500,3498A,118.5055,37.8612,东营市,河口城区,细颗粒物(PM2.5),100,122,157,75,102,57,,,,18,25,8,19,1.1,1.2
2024-02-13T0500,3646A,118.4978,37.4623,东营市,胜利站,细颗粒物(PM2.5),94,117,138,70,68,62,,,,23,27,14,19,1.0,0.8
2024-02-13T0500,3734A,118.35,37.26,东营市,理想之城,细颗粒物(PM2.5),94,110,123,70,73,61,,,,20,23,10,13,1.1,0.8
2024-02-13T0500,1591A,110.0023,39.8129,鄂尔多斯市,综合楼,,41,41,53,17,18,66,,,,17,20,7,10,0.6,0.6
2024-02-13T0500,1592A,109.9486,39.8261,鄂尔多斯市,巴音孟克林场办事处,,41,41,47,19,18,64,,,,19,15,14,15,0.5,0.5
2024-02-13T0500,1593A,109.7736,39.5986,鄂尔多斯市,康泽苑,,34,34,43,17,20,48,,,,10,16,5,7,0.5,0.6
2024-02-13T0500,1594A,109.8119,39.5989,鄂尔多斯市,华泰汽车城,,34,34,46,14,22,29,,,,15,23,5,7,0.5,0.6
2024-02-13T0500,1595A,109.9734,39.7884,鄂尔多斯市,奥林花园,,46,46,53,17,19,52,,,,20,26,9,11,0.6,0.6
2024-02-13T0500,2436A,114.8938,30.3994,鄂州市,市政府,,42,42,60,22,39,67,,,,9,10,9,10,0.8,0.9
2024-02-13T0500,2437A,114.8989,30.3714,鄂州市,赵家坝,,38,38,55,26,40,70,,,,5,8,3,7,0.5,0.6
2024-02-13T0500,3654A,114.8094,30.4089,鄂州市,精准医疗中心,颗粒物(PM10),64,77,87,43,45,58,,,,22,22,49,29,2.4,2.4
2024-02-13T0500,2454A,109.4978,30.2981,恩施土家族苗族自治州,湖北民院,细颗粒物(PM2.5),64,69,64,46,44,26,,,,16,18,7,7,1.1,1.1
2024-02-13T0500,2455A,109.4707,30.2798,恩施土家族苗族自治州,州电力总公司,细颗粒物(PM2.5),74,73,70,54,55,11,,,,17,19,5,6,1.2,1.1
2024-02-13T0500,3549A,109.5061,30.3772,恩施土家族苗族自治州,龙凤新区,细颗粒物(PM2.5),57,44,46,40,42,10,,,,12,13,7,9,0.9,0.9
2024-02-13T0500,2499A,108.3411,21.6158,防城港市,沙万,,50,49,48,35,36,40,,,,44,22,4,7,0.5,0.5
2024-02-13T0500,2500A,108.3514,21.7731,防城港市,防城档案局,,49,44,52,34,37,57,,,,14,13,5,7,0.4,0.5
2024-02-13T0500,2501A,108.3506,21.6414,防城港市,大海花园,,47,47,48,29,29,62,,,,18,13,4,5,0.4,0.4
2024-02-13T0500,1371A,113.1294,23.0067,佛山市,湾梁,细颗粒物(PM2.5),55,51,52,39,47,46,,,,16,14,8,9,0.6,0.6
2024-02-13T0500,1372A,113.1083,23.0478,佛山市,华材职中,细颗粒物(PM2.5),55,53,57,39,52,7,,,,57,21,10,10,0.6,0.6
2024-02-13T0500,1373A,113.144,23.0453,佛山市,南海气象局,细颗粒物(PM2.5),59,53,61,42,51,47,,,,20,19,6,7,0.3,0.3
2024-02-13T0500,1374A,113.2881,22.8094,佛山市,顺德苏岗,,46,46,40,24,29,32,,,,24,15,8,9,0.4,0.4
2024-02-13T0500,1376A,112.8383,22.8678,佛山市,高明孔堂,,38,38,47,18,30,60,,,,6,6,4,5,0.3,0.3
2024-02-13T0500,1377A,112.8836,23.1588,佛山市,三水监测站,,48,44,50,33,44,24,,,,47,19,5,6,0.7,0.6
2024-02-13T0500,1378A,112.867,23.185,佛山市,三水云东海,,40,,41,28,37,40,,,,17,17,4,4,0.5,0.5
2024-02-13T0500,3625A,113.2544,22.7642,佛山市,容桂街道办,,34,34,42,22,26,48,,,,18,13,6,6,0.5,0.5
2024-02-13T0500,1282A,119.2681,26.0504,福州市,师大,细颗粒物(PM2.5),52,43,53,36,39,68,,,,4,6,6,6,0.4,0.4
2024-02-13T0500,1283A,119.2984,26.1028,福州市,五四北路,,49,38,52,34,41,61,,,,6,8,3,4,0.4,0.5
2024-02-13T0500,1284A,119.2648,26.0768,福州市,杨桥西路,,48,44,50,33,38,65,,,,7,10,3,4,0.4,0.5
2024-02-13T0500,1285A,119.317,26.0746,福州市,紫阳,细颗粒物(PM2.5),59,45,62,42,49,57,,,,6,11,6,7,0.6,0.7
2024-02-13T0500,3048A,119.5799,26.0936,福州市,九龙,,41,41,48,26,31,66,,,,8,8,3,4,0.6,0.7
2024-02-13T0500,3526A,119.5189,25.9664,福州市,吴航,颗粒物(PM10),56,62,51,39,33,31,,,,22,12,4,5,0.5,0.4
2024-02-13T0500,1755A,123.7977,41.8491,抚顺市,望花区,细颗粒物(PM2.5),79,86,77,58,54,100,,,,9,17,26,23,0.7,0.8
2024-02-13T0500,1756A,123.9161,41.8822,抚顺市,顺城区,细颗粒物(PM2.5),89,95,90,66,57,114,,,,5,16,13,12,0.6,0.7
2024-02-13T0500,1757A,124.0436,41.8611,抚顺市,东洲区,细颗粒物(PM2.5),90,97,78,67,55,109,,,,4,6,13,13,0.9,1
2024-02-13T0500,1758A,123.9247,41.8642,抚顺市,新抚区,细颗粒物(PM2.5),83,98,88,61,56,112,,,,9,17,13,12,0.7,0.8
2024-02-13T0500,1759A,124.0972,41.8961,抚顺市,大伙房水库,细颗粒物(PM2.5),82,94,77,60,51,114,,,,6,7,12,12,0.7,0.7
2024-02-13T0500,1760A,123.7086,41.8391,抚顺市,沈抚新城,细颗粒物(PM2.5),83,94,87,61,53,100,,,,13,17,18,18,1.1,1
2024-02-13T0500,2376A,116.2127,28.0814,抚州市,桐源党溪,,41,41,93,27,40,41,,,,5,6,16,6,0.4,0.1
2024-02-13T0500,2377A,116.3544,27.9831,抚州市,市站,,32,32,48,15,28,72,,,,5,13,10,10,0.2,0.3
2024-02-13T0500,2378A,116.3565,27.963,抚州市,血防站,,34,34,46,18,25,65,,,,2,6,3,4,0.6,0.7
2024-02-13T0500,2379A,116.3564,28.0007,抚州市,采茶剧团,,32,30,58,22,39,64,,,,2,6,4,5,0.8,0.8
2024-02-13T0500,2380A,116.385,27.9647,抚州市,医学分院,,31,31,42,13,21,67,,,,4,5,5,5,0.5,0.6
2024-02-13T0500,2207A,121.6094,41.998,阜新市,工业园区,细颗粒物(PM2.5),100,139,162,75,76,69,,,,20,19,15,17,1.5,1.3
2024-02-13T0500,2208A,121.6697,42.0279,阜新市,长青街,细颗粒物(PM2.5),175,166,162,132,100,72,,,,20,19,24,18,1.4,1.1
2024-02-13T0500,2209A,121.6673,42.0705,阜新市,农业园区,细颗粒物(PM2.5),147,166,173,112,98,76,,,,22,20,22,22,0.9,0.7
2024-02-13T0500,2210A,121.6717,42.0224,阜新市,东苑,细颗粒物(PM2.5),168,144,153,127,100,78,,,,20,20,25,18,1.5,1.4
2024-02-13T0500,2211A,121.6506,42.0498,阜新市,玉龙新城,细颗粒物(PM2.5),118,141,142,89,90,69,,,,18,17,17,20,1.2,1
2024-02-13T0500,2301A,115.8277,32.8929,阜阳市,市监测站,细颗粒物(PM2.5),64,52,95,46,67,62,,,,7,14,7,8,0.6,0.6
2024-02-13T0500,2303A,115.8554,32.8605,阜阳市,开发区,颗粒物(PM10),65,79,96,44,43,65,,,,8,10,6,6,0.4,0.5
2024-02-13T0500,2875A,115.784,32.8892,阜阳市,阜阳职业技术学院,细颗粒物(PM2.5),54,53,74,38,47,66,,,,15,14,5,7,0.6,0.7
2024-02-13T0500,3468A,115.7901,32.8613,阜阳市,市规划展馆,细颗粒物(PM2.5),68,70,89,49,52,70,,,,10,11,6,8,0.6,0.6
2024-02-13T0500,3469A,115.836,32.9183,阜阳市,枣园社区,细颗粒物(PM2.5),74,64,98,54,58,62,,,,11,16,5,7,0.5,0.5
2024-02-13T0500,2669A,102.9099,34.9841,甘南藏族自治州,州政府,,21,21,26,11,17,30,,,,8,11,16,13,0.6,0.6
2024-02-13T0500,3380A,102.8914,34.9617,甘南藏族自治州,甘肃民族师范学院,,24,24,23,7,10,32,,,,3,8,16,14,0.7,0.7
2024-02-13T0500,2570A,101.9603,30.0475,甘孜藏族自治州,水桥子,,16,,14,11,10,48,,,,3,6,10,10,0.2,0.3
2024-02-13T0500,3065A,101.9533,29.9972,甘孜藏族自治州,州环保局,,21,13,15,1,6,66,,,,1,4,8,8,0.2,0.3
2024-02-13T0500,3414A,115.8347,28.932,赣江新区,桑海产业园,细颗粒物(PM2.5),57,56,62,40,40,50,,,,12,18,7,5,0.5,0.7
2024-02-13T0500,2363A,114.9367,25.8664,赣州市,地委,细颗粒物(PM2.5),57,40,55,40,37,22,,,,15,20,10,10,0.9,1
2024-02-13T0500,2364A,114.9461,25.8481,赣州市,气象台,细颗粒物(PM2.5),57,,49,40,39,20,,,,10,22,9,8,0.5,0.6
2024-02-13T0500,2365A,114.9322,25.8333,赣州市,市图书馆,,50,42,61,35,36,15,,,,2,5,12,17,0.4,0.6
2024-02-13T0500,2366A,114.8905,25.8471,赣州市,华坚鞋城,细颗粒物(PM2.5),67,71,66,48,46,2,,,,24,21,5,5,0.8,0.8
2024-02-13T0500,3109A,115.0093,25.8613,赣州市,赣县区卫计委,,36,30,48,25,36,22,,,,10,15,6,7,0.6,0.7
2024-02-13T0500,2683A,106.2319,36.1417,固原市,马园,颗粒物(PM10),57,63,62,39,38,38,,,,18,19,5,7,0.8,0.7
2024-02-13T0500,2684A,106.2792,36.0022,固原市,监测站,细颗粒物(PM2.5),64,51,52,46,57,42,,,,26,23,7,10,1.2,1.2
2024-02-13T0500,2685A,106.2375,36.0211,固原市,新区,细颗粒物(PM2.5),59,61,50,42,36,28,,,,35,31,6,6,0.8,0.7
2024-02-13T0500,3522A,106.2177,35.9959,固原市,原州区十五小,,38,36,38,26,28,87,,,,6,9,8,9,0.5,0.5
2024-02-13T0500,2544A,106.6303,30.4576,广安市,市委,细颗粒物(PM2.5),117,100,130,88,110,3,,,,36,34,6,8,1.0,1.2
2024-02-13T0500,2545A,106.6271,30.4663,广安市,友谊中学,细颗粒物(PM2.5),102,84,101,76,89,16,,,,23,30,4,6,0.8,1
2024-02-13T0500,2547A,106.6388,30.4551,广安市,广电花园,细颗粒物(PM2.5),135,115,118,103,114,3,,,,26,35,5,6,1.2,1.3
2024-02-13T0500,2902A,106.6351,30.4865,广安市,北辰小学,细颗粒物(PM2.5),122,,106,92,96,24,,,,14,25,5,6,0.9,1.1
2024-02-13T0500,2523A,105.8945,32.4535,广元市,黑石坡,细颗粒物(PM2.5),98,,58,73,53,79,,,,8,12,5,7,0.5,0.6
2024-02-13T0500,2524A,105.821,32.4444,广元市,老城,细颗粒物(PM2.5),63,69,84,45,56,38,,,,12,25,1,9,0.9,1.3
2024-02-13T0500,2526A,105.8628,32.4287,广元市,监测站,细颗粒物(PM2.5),74,61,65,54,54,49,,,,5,16,3,7,0.8,1
2024-02-13T0500,3617A,105.8047,32.4166,广元市,经开区,细颗粒物(PM2.5),79,81,80,58,63,18,,,,24,27,5,11,0.9,1.1
2024-02-13T0500,1345A,113.2347,23.1423,广州市,广雅中学,颗粒物(PM10),51,52,54,33,39,13,,,,51,28,4,5,0.7,0.7
2024-02-13T0500,1346A,113.2612,23.105,广州市,市五中,"颗粒物(PM10),细颗粒物(PM2.5)",54,58,56,38,43,30,,,,38,27,5,6,0.7,0.6
2024-02-13T0500,1348A,113.3478,23.0916,广州市,广东商学院,"颗粒物(PM10),细颗粒物(PM2.5)",53,55,55,37,42,31,,,,27,18,5,5,0.5,0.5
2024-02-13T0500,1349A,113.4332,23.1047,广州市,市八十六中,细颗粒物(PM2.5),78,67,56,57,31,29,,,,28,17,5,6,0.4,0.4
2024-02-13T0500,1350A,113.3505,22.9483,广州市,番禺中学,"颗粒物(PM10),细颗粒物(PM2.5)",54,57,58,38,45,41,,,,31,23,4,5,0.6,0.6
2024-02-13T0500,1351A,113.2146,23.3916,广州市,花都师范,细颗粒物(PM2.5),69,70,66,50,51,41,,,,30,28,6,6,0.7,0.7
2024-02-13T0500,1352A,113.2597,23.1331,广州市,市监测站,,48,48,54,31,39,38,,,,31,26,5,6,0.6,0.6
2024-02-13T0500,1353A,113.5618,23.312,广州市,九龙镇镇龙,细颗粒物(PM2.5),77,68,62,56,50,5,,,,25,16,6,6,0.7,0.7
2024-02-13T0500,1354A,113.2765,23.1544,广州市,麓湖,,40,40,47,28,36,18,,,,43,25,5,5,0.5,0.5
2024-02-13T0500,1355A,113.443,23.3035,广州市,帽峰山森林公园,,32,32,38,18,28,67,,,,10,10,7,8,0.3,0.3
2024-02-13T0500,2846A,113.3221,23.1322,广州市,体育西,细颗粒物(PM2.5),57,56,51,40,37,27,,,,32,21,7,8,0.7,0.6
2024-02-13T0500,3298A,113.5717,23.5491,广州市,从化街口,细颗粒物(PM2.5),102,95,67,76,53,10,,,,24,14,4,5,0.6,0.5
2024-02-13T0500,3299A,113.3472,23.3692,广州市,白云竹料,细颗粒物(PM2.5),103,95,69,77,53,18,,,,23,15,6,6,0.7,0.6
2024-02-13T0500,3300A,113.2981,23.237,广州市,白云嘉禾,,44,44,51,28,36,53,,,,23,23,6,7,0.4,0.4
2024-02-13T0500,3301A,113.4256,23.1716,广州市,黄埔科学城,细颗粒物(PM2.5),54,48,53,38,43,29,,,,17,14,4,5,0.6,0.6
2024-02-13T0500,3302A,113.3942,23.0483,广州市,番禺大学城,细颗粒物(PM2.5),58,57,52,41,37,40,,,,25,16,8,8,0.6,0.5
2024-02-13T0500,3303A,113.4922,22.8168,广州市,南沙黄阁,,43,43,49,24,30,41,,,,22,16,4,5,0.6,0.6
2024-02-13T0500,3304A,113.5342,22.7896,广州市,南沙街,,40,39,42,28,26,39,,,,30,16,2,3,0.6,0.6
2024-02-13T0500,3443A,113.2902,23.5544,广州市,花都梯面,细颗粒物(PM2.5),65,56,44,47,33,19,,,,18,15,5,6,0.3,0.3
2024-02-13T0500,3445A,113.7858,23.7478,广州市,从化良口,,31,31,30,19,19,32,,,,5,5,7,7,0.3,0.3
2024-02-13T0500,3446A,113.8051,23.2614,广州市,增城荔城,细颗粒物(PM2.5),80,70,62,59,51,48,,,,8,10,8,7,0.6,0.6
2024-02-13T0500,2505A,109.568,23.1478,贵港市,德智高中,细颗粒物(PM2.5),65,56,69,47,66,68,,,,9,12,9,9,0.7,0.8
2024-02-13T0500,2506A,109.6047,23.0666,贵港市,江南子站,细颗粒物(PM2.5),64,58,95,46,78,69,,,,10,13,18,17,0.7,0.9
2024-02-13T0500,2507A,109.6014,23.0948,贵港市,贵城子站,细颗粒物(PM2.5),59,52,76,42,73,60,,,,12,16,19,12,0.5,0.9
2024-02-13T0500,2508A,109.5669,23.1065,贵港市,荷城子站,颗粒物(PM10),52,53,71,29,48,58,,,,9,12,12,11,0.9,1
2024-02-13T0500,3405A,109.5886,23.1172,贵港市,新世纪学校,细颗粒物(PM2.5),57,61,79,40,52,58,,,,12,18,12,9,0.8,0.9
2024-02-13T0500,1439A,106.6899,26.5998,贵阳市,马鞍山,,35,29,31,24,22,95,,,,7,10,11,11,0.5,0.4
2024-02-13T0500,1440A,106.6971,26.5694,贵阳市,市环保站,细颗粒物(PM2.5),53,,32,37,36,96,,,,8,17,12,12,0.4,0.5
2024-02-13T0500,1441A,106.6243,26.6266,贵阳市,鉴湖路,,36,36,38,24,20,101,,,,4,6,7,8,0.4,0.6
2024-02-13T0500,1442A,106.7487,26.6343,贵阳市,燕子冲,,41,41,36,27,25,65,,,,12,10,10,10,0.6,0.6
2024-02-13T0500,1443A,106.6555,26.4365,贵阳市,碧云窝,,44,44,37,19,20,96,,,,6,6,12,10,0.4,0.5
2024-02-13T0500,1444A,106.694,26.5161,贵阳市,中院村,,42,34,36,29,26,85,,,,10,12,20,18,0.3,0.5
2024-02-13T0500,1445A,106.7109,26.6027,贵阳市,红边门,,49,46,40,34,28,67,,,,20,20,15,11,0.7,0.7
2024-02-13T0500,1446A,106.7164,26.5699,贵阳市,新华路,,46,46,41,29,31,59,,,,21,22,20,16,0.6,0.6
2024-02-13T0500,1447A,106.674,26.5424,贵阳市,太慈桥,,35,29,32,24,19,94,,,,6,6,8,8,0.4,0.4
2024-02-13T0500,1862A,110.4144,25.3167,桂林市,电子科大尧山校区,细颗粒物(PM2.5),64,52,47,46,36,28,,,,5,5,4,4,0.3,0.3
2024-02-13T0500,1863A,110.2819,25.2697,桂林市,监测站,细颗粒物(PM2.5),102,108,83,76,71,42,,,,17,32,7,8,0.9,0.9
2024-02-13T0500,1864A,110.3089,25.2708,桂林市,龙隐路小学,细颗粒物(PM2.5),85,,66,63,59,69,,,,10,20,6,7,0.6,0.8
2024-02-13T0500,1865A,110.2869,25.2178,桂林市,八中,细颗粒物(PM2.5),62,56,56,44,47,58,,,,9,16,5,6,0.5,0.5
2024-02-13T0500,3403A,110.1764,25.2381,桂林市,创业大厦,细颗粒物(PM2.5),94,85,65,70,54,45,,,,10,10,9,8,0.6,0.6
2024-02-13T0500,3531A,110.296,25.1253,桂林市,旅游学院,,49,41,46,34,39,43,,,,10,11,5,6,0.5,0.6
2024-02-13T0500,2674A,100.2561,34.4714,果洛藏族自治州,玛沁县大武镇,,22,22,21,9,12,28,,,,9,12,10,14,0.4,0.4
2024-02-13T0500,1129A,126.5422,45.755,哈尔滨市,岭北,细颗粒物(PM2.5),98,100,87,73,55,81,,,,18,19,24,21,1.3,1.5
2024-02-13T0500,1130A,126.561,45.8167,哈尔滨市,松北商大,细颗粒物(PM2.5),87,94,79,64,49,106,,,,6,8,13,12,0.9,0.8
2024-02-13T0500,1131A,126.979,45.5419,哈尔滨市,阿城会宁,细颗粒物(PM2.5),87,86,57,64,39,100,,,,7,6,16,12,0.6,0.5
2024-02-13T0500,1132A,126.599,45.7222,哈尔滨市,南岗学府路,颗粒物(PM10),83,115,98,60,49,99,,,,11,13,11,14,0.8,0.8
2024-02-13T0500,1133A,126.689,45.7733,哈尔滨市,太平宏伟公园,细颗粒物(PM2.5),87,112,92,64,52,102,,,,10,10,6,6,0.7,0.7
2024-02-13T0500,1134A,126.635,45.7667,哈尔滨市,道外承德广场,细颗粒物(PM2.5),88,106,90,65,50,98,,,,12,16,9,11,0.4,0.5
2024-02-13T0500,1135A,126.685,45.7319,哈尔滨市,香坊红旗大街,细颗粒物(PM2.5),95,99,92,71,58,92,,,,13,16,18,16,0.9,0.9
2024-02-13T0500,1137A,126.593,45.7478,哈尔滨市,道里建国路,细颗粒物(PM2.5),92,101,90,68,55,97,,,,10,11,4,8,0.7,0.7
2024-02-13T0500,1138A,126.615,45.61,哈尔滨市,平房东轻厂,细颗粒物(PM2.5),79,83,82,58,50,103,,,,7,10,14,16,0.6,0.7
2024-02-13T0500,1139A,126.595,45.9855,哈尔滨市,呼兰师专,细颗粒物(PM2.5),105,108,89,79,60,91,,,,17,18,22,20,0.8,0.7
2024-02-13T0500,1140A,126.6206,45.6842,哈尔滨市,省农科院,细颗粒物(PM2.5),83,100,87,61,54,106,,,,4,8,5,9,0.8,0.8
2024-02-13T0500,2688A,93.5128,42.8172,哈密市,地区监测站,颗粒物(PM10),56,62,125,24,32,63,,,,10,19,6,5,0.2,0.4
2024-02-13T0500,2689A,93.4961,42.8328,哈密市,哈密师范学校,颗粒物(PM10),59,68,134,29,39,68,,,,8,19,9,8,0.3,0.5
2024-02-13T0500,2671A,100.9048,36.9639,海北藏族自治州,海晏县西海镇,,14,14,17,8,8,43,,,,2,3,13,14,0.6,0.3
2024-02-13T0500,3867A,102.0738,36.5056,海东市,平安区公安北苑,,36,36,32,17,17,36,,,,4,15,12,21,0.4,0.6
2024-02-13T0500,1410A,110.3232,20.0574,海口市,海南大学,,40,40,43,19,20,60,,,,7,4,9,9,0.4,0.3
2024-02-13T0500,1411A,110.283,20.0053,海口市,秀英海南医院,,41,41,50,20,27,50,,,,6,7,8,8,0.4,0.3
2024-02-13T0500,1412A,110.338,19.9969,海口市,海南师范大学,,38,38,46,23,23,46,,,,7,4,7,7,0.4,0.4
2024-02-13T0500,1413A,110.33,20.0356,海口市,龙华路环保局宿舍,,40,40,45,21,21,47,,,,10,6,7,8,0.4,0.3
2024-02-13T0500,3539A,110.5111,19.9736,海口市,桂林洋子站,,36,36,39,15,21,54,,,,3,3,6,6,0.3,0.3
2024-02-13T0500,2673A,100.6188,36.2866,海南藏族自治州,共和县恰卜恰镇,,26,26,23,7,11,34,,,,11,15,14,11,0.5,0.6
2024-02-13T0500,2676A,97.3731,37.3753,海西蒙古族藏族自治州,德令哈市,,26,,17,14,10,81,,,,3,4,12,12,0.4,0.4
2024-02-13T0500,1048A,114.5302,36.6116,邯郸市,东污水处理厂,细颗粒物(PM2.5),132,131,161,100,108,41,,,,17,18,6,13,0.8,1
2024-02-13T0500,1049A,114.4918,36.5713,邯郸市,矿院,细颗粒物(PM2.5),127,124,139,96,93,41,,,,10,15,5,8,0.9,0.9
2024-02-13T0500,1050A,114.484,36.6133,邯郸市,丛台公园,细颗粒物(PM2.5),117,129,127,88,79,42,,,,13,11,4,9,1.1,1
2024-02-13T0500,3458A,114.7895,36.5593,邯郸市,香泉濮院小区,细颗粒物(PM2.5),100,102,135,75,79,70,,,,5,8,8,10,0.7,0.7
2024-02-13T0500,3579A,114.50634,36.77178,邯郸市,永年区实验高中,细颗粒物(PM2.5),142,145,142,108,97,24,,,,46,28,15,19,1.8,1.1
2024-02-13T0500,3580A,114.20016,36.44293,邯郸市,峰峰矿区临水派出所,,39,39,92,27,53,78,,,,1,10,20,23,0.6,0.9
2024-02-13T0500,2634A,106.9893,33.1842,汉中市,汉川机床厂子校,细颗粒物(PM2.5),63,47,49,45,42,36,,,,11,8,4,6,0.7,0.6
2024-02-13T0500,2635A,107.0154,33.0706,汉中市,市监测站,细颗粒物(PM2.5),132,109,88,100,78,13,,,,32,29,9,19,1.9,1.6
2024-02-13T0500,2636A,107.0089,33.1138,汉中市,鑫源开发区,细颗粒物(PM2.5),100,86,77,75,74,31,,,,21,25,16,21,1.3,1.2
2024-02-13T0500,2637A,107.007,33.0323,汉中市,南郑大河坎水厂,细颗粒物(PM2.5),104,82,79,78,68,26,,,,16,16,8,15,1.3,1.1
2024-02-13T0500,1223A,120.2072,30.2111,杭州市,滨江,颗粒物(PM10),51,51,54,33,34,86,,,,8,10,4,6,0.3,0.3
2024-02-13T0500,1224A,120.0633,30.2747,杭州市,西溪,,46,45,47,32,31,9,,,,12,10,6,7,0.5,0.5
2024-02-13T0500,1226A,120.3461,30.3153,杭州市,下沙,颗粒物(PM10),56,61,65,35,39,89,,,,6,10,8,7,0.5,0.6
2024-02-13T0500,1227A,120.1269,30.2456,杭州市,卧龙桥,,49,44,51,34,36,24,,,,17,16,4,4,0.3,0.4
2024-02-13T0500,1228A,120.1903,30.2692,杭州市,浙江农大,颗粒物(PM10),51,52,56,35,37,80,,,,8,15,7,8,0.5,0.5
2024-02-13T0500,1230A,120.1197,30.3119,杭州市,和睦小学,细颗粒物(PM2.5),53,51,52,37,38,54,,,,12,14,6,6,0.5,0.5
2024-02-13T0500,1231A,120.3019,30.4183,杭州市,临平镇,,45,40,47,31,34,76,,,,7,10,5,6,0.3,0.4
2024-02-13T0500,1232A,120.2697,30.1819,杭州市,城厢镇,细颗粒物(PM2.5),57,56,58,40,40,81,,,,14,12,7,7,0.5,0.5
2024-02-13T0500,1233A,120.0883,30.1808,杭州市,云栖,,46,46,50,29,30,22,,,,15,15,7,7,0.5,0.5
2024-02-13T0500,3557A,119.9464,30.0494,杭州市,镇二中,,48,48,62,32,42,19,,,,13,13,6,7,0.6,0.6
2024-02-13T0500,3558A,119.7183,30.2367,杭州市,市府大楼,,42,37,51,29,35,42,,,,7,10,5,5,0.5,0.5
2024-02-13T0500,3656A,120.1556,30.2864,杭州市,消防大队,细颗粒物(PM2.5),57,56,59,40,42,66,,,,12,21,8,8,0.8,0.8
2024-02-13T0500,1270A,117.1959,31.7848,合肥市,明珠广场,,48,48,65,27,34,64,,,,12,12,7,8,0.6,0.6
2024-02-13T0500,1271A,117.3072,31.8764,合肥市,三里街,,42,41,67,29,36,67,,,,17,18,6,7,0.5,0.6
2024-02-13T0500,1272A,117.2588,31.8707,合肥市,琥珀山庄,,42,39,64,29,35,61,,,,11,7,5,6,0.7,0.8
2024-02-13T0500,1273A,117.1604,31.9052,合肥市,董铺水库,,48,48,73,29,35,65,,,,8,4,3,4,0.4,0.4
2024-02-13T0500,1274A,117.25,31.8571,合肥市,长江中路,,44,44,67,27,36,67,,,,14,13,7,8,0.7,0.7
2024-02-13T0500,1275A,117.266,31.9436,合肥市,庐阳区,,46,46,66,24,29,63,,,,17,14,5,6,0.6,0.6
2024-02-13T0500,1276A,117.336,31.8586,合肥市,瑶海区,,44,44,65,28,35,73,,,,10,11,5,6,0.5,0.5
2024-02-13T0500,1277A,117.3027,31.7964,合肥市,包河区,,45,39,61,31,37,74,,,,12,10,5,6,0.4,0.5
2024-02-13T0500,1278A,117.2776,31.7385,合肥市,滨湖新区,,44,44,69,29,37,75,,,,6,8,6,6,0.7,0.7
2024-02-13T0500,1279A,117.1318,31.8403,合肥市,高新区,,43,41,60,30,33,73,,,,12,10,5,5,0.6,0.7
2024-02-13T0500,3464A,117.3803,31.9147,合肥市,高教基地,,45,44,65,31,39,74,,,,3,4,4,5,0.4,0.5
2024-02-13T0500,3614A,79.924,37.0877,和田地区,地区环保局,,29,29,86,8,34,59,,,,14,27,10,13,0.6,0.9
2024-02-13T0500,3615A,79.9131,37.113,和田地区,市环保局,,31,31,69,18,36,50,,,,23,37,8,10,1.0,1.7
2024-02-13T0500,2516A,108.2011,24.715,河池市,东仁乐园,细颗粒物(PM2.5),60,59,54,43,39,34,,,,6,6,3,4,0.6,0.6
2024-02-13T0500,2517A,108.0497,24.6947,河池市,市环保站,细颗粒物(PM2.5),63,53,46,45,34,34,,,,14,11,7,8,0.6,0.5
2024-02-13T0500,2518A,108.0983,24.6989,河池市,市疾控中心,细颗粒物(PM2.5),59,46,47,42,36,40,,,,16,14,8,8,0.5,0.5
2024-02-13T0500,1696A,114.6778,23.7569,河源市,源西,细颗粒物(PM2.5),60,52,47,43,33,22,,,,26,19,4,5,0.6,0.6
2024-02-13T0500,1697A,114.6944,23.7586,河源市,东埔,细颗粒物(PM2.5),63,,62,45,48,23,,,,12,14,6,8,0.5,0.5
2024-02-13T0500,1698A,114.6892,23.7233,河源市,老城,细颗粒物(PM2.5),54,41,50,38,36,28,,,,10,8,5,6,0.6,0.5
2024-02-13T0500,1718A,115.4208,35.2464,菏泽市,气象局,细颗粒物(PM2.5),77,82,110,56,54,80,,,,7,8,4,5,0.5,0.6
2024-02-13T0500,1719A,115.4747,35.2375,菏泽市,市政协,细颗粒物(PM2.5),70,78,103,51,52,76,,,,6,6,5,5,0.4,0.5
2024-02-13T0500,3374A,115.5564,35.0891,菏泽市,定陶老年大学,细颗粒物(PM2.5),64,73,99,46,47,74,,,,11,12,6,6,0.3,0.4
2024-02-13T0500,3647A,115.4702,35.2706,菏泽市,菏泽医专,颗粒物(PM10),63,75,100,38,43,79,,,,12,13,6,7,0.4,0.5
2024-02-13T0500,2514A,111.5264,24.4172,贺州市,环保小区,细颗粒物(PM2.5),59,56,52,42,41,71,,,,8,9,9,9,0.5,0.5
2024-02-13T0500,2515A,111.5608,24.4078,贺州市,政协大楼,,46,38,55,32,38,67,,,,9,11,8,9,0.5,0.5
2024-02-13T0500,3534A,111.4744,24.4553,贺州市,西湾,细颗粒物(PM2.5),53,43,57,37,45,66,,,,9,10,8,9,0.5,0.5
2024-02-13T0500,2385A,114.17,35.9019,鹤壁市,市监测站,细颗粒物(PM2.5),94,96,143,70,85,33,,,,18,23,3,5,0.9,0.8
2024-02-13T0500,2386A,114.2956,35.7511,鹤壁市,市交警支队,细颗粒物(PM2.5),112,108,131,84,82,66,,,,7,11,9,11,0.6,0.6
2024-02-13T0500,2387A,114.2878,35.7306,鹤壁市,迎宾馆,细颗粒物(PM2.5),100,87,116,75,84,72,,,,11,16,5,11,0.7,0.7
2024-02-13T0500,3474A,114.2617,35.6822,鹤壁市,大新区,细颗粒物(PM2.5),110,111,139,83,87,60,,,,11,15,9,11,0.8,0.8
2024-02-13T0500,3596A,114.1572,35.9603,鹤壁市,南山宾馆,细颗粒物(PM2.5),87,94,110,64,72,81,,,,20,17,10,12,0.7,0.7
2024-02-13T0500,2244A,130.2537,47.3416,鹤岗市,哈啤分公司,细颗粒物(PM2.5),63,72,58,45,34,89,,,,11,16,19,20,1.1,0.9
2024-02-13T0500,2245A,130.2684,47.3086,鹤岗市,斯达机电,颗粒物(PM10),64,78,62,45,38,100,,,,13,19,15,18,0.7,0.6
2024-02-13T0500,2246A,130.3114,47.3388,鹤岗市,东山纸板厂,细颗粒物(PM2.5),118,126,82,89,47,34,,,,40,21,18,18,3.6,0.8
2024-02-13T0500,2247A,130.1097,47.3382,鹤岗市,五号水库,,46,46,39,28,28,72,,,,12,9,10,12,0.7,0.6
2024-02-13T0500,2263A,127.4833,50.2524,黑河市,交通局,,32,29,45,22,29,70,,,,5,8,8,9,0.4,0.5
2024-02-13T0500,2264A,127.5144,50.2341,黑河市,环保局,,40,30,44,28,31,68,,,,7,11,5,10,0.3,0.5
2024-02-13T0500,2265A,127.5291,50.2472,黑河市,大黑河岛,,,35,58,30,37,61,,,,58,64,11,15,,
2024-02-13T0500,1074A,115.6838,37.7541,衡水市,电机北厂,细颗粒物(PM2.5),108,122,145,81,76,69,,,,6,6,6,7,0.8,0.7
2024-02-13T0500,1075A,115.6303,37.7316,衡水市,市监测站,细颗粒物(PM2.5),107,134,128,80,72,63,,,,14,14,8,9,0.9,0.8
2024-02-13T0500,3188A,115.6683,37.7217,衡水市,市城管局,细颗粒物(PM2.5),102,117,138,76,82,64,,,,12,10,10,11,0.8,0.7
2024-02-13T0500,3459A,115.5989,37.5491,衡水市,地表水厂,细颗粒物(PM2.5),110,122,140,83,85,52,,,,18,15,5,7,0.9,0.8
2024-02-13T0500,2456A,112.5003,26.9167,衡阳市,原169医院,细颗粒物(PM2.5),58,42,73,41,63,73,,,,7,13,48,25,0.9,1.1
2024-02-13T0500,2457A,112.6194,26.9258,衡阳市,衡阳化工总厂,细颗粒物(PM2.5),53,53,81,37,60,62,,,,6,13,6,9,0.4,0.6
2024-02-13T0500,2458A,112.6211,26.8956,衡阳市,珠晖区环保局,细颗粒物(PM2.5),58,42,89,41,77,70,,,,8,14,7,9,0.5,0.7
2024-02-13T0500,2459A,112.6197,26.8733,衡阳市,市委党校,颗粒物(PM10),55,59,76,34,59,64,,,,10,8,9,11,0.6,0.8
2024-02-13T0500,2460A,112.6006,26.8919,衡阳市,市监测站,细颗粒物(PM2.5),64,57,109,46,92,62,,,,4,18,7,9,0.7,1
2024-02-13T0500,2461A,112.5664,26.9056,衡阳市,真空机电公司,,50,38,87,35,73,70,,,,9,17,7,10,0.5,1
2024-02-13T0500,3399A,112.6703,26.882,衡阳市,师范学院,,38,36,68,26,57,83,,,,2,4,9,10,0.5,0.7
2024-02-13T0500,2608A,103.3772,23.3993,红河哈尼族彝族自治州,污水处理厂,,49,47,40,34,32,72,,,,5,5,7,8,0.6,0.6
2024-02-13T0500,2609A,103.3861,23.35,红河哈尼族彝族自治州,监测站,细颗粒物(PM2.5),53,,38,37,32,79,,,,4,6,8,7,0.7,0.7
2024-02-13T0500,3038A,103.3758,23.368,红河哈尼族彝族自治州,州图书馆,,37,37,35,24,26,74,,,,4,5,6,6,0.7,0.7
2024-02-13T0500,1090A,111.6507,40.7517,呼和浩特市,呼市一监,细颗粒物(PM2.5),64,66,89,46,58,46,,,,25,30,10,16,0.7,0.8
2024-02-13T0500,1091A,111.6572,40.8033,呼和浩特市,小召,细颗粒物(PM2.5),77,68,110,56,66,11,,,,70,51,10,16,1.1,1
2024-02-13T0500,1094A,111.7516,40.8369,呼和浩特市,如意水处理厂,细颗粒物(PM2.5),60,,81,43,53,27,,,,44,47,12,18,0.7,0.9
2024-02-13T0500,1095A,111.7276,40.8062,呼和浩特市,二十九中,颗粒物(PM10),55,59,88,38,47,47,,,,31,38,13,18,0.8,0.8
2024-02-13T0500,1096A,111.5512,40.7866,呼和浩特市,工大金川校区,颗粒物(PM10),51,52,78,28,41,60,,,,15,31,8,13,0.5,0.7
2024-02-13T0500,1097A,111.717,40.7612,呼和浩特市,化肥厂生活区,颗粒物(PM10),61,71,89,41,52,50,,,,23,30,14,20,0.7,0.8
2024-02-13T0500,3698A,111.5968,40.8178,呼和浩特市,红旗小学,"颗粒物(PM10),细颗粒物(PM2.5)",54,58,81,38,46,32,,,,48,46,10,16,0.8,0.9
2024-02-13T0500,3699A,111.6518,40.8389,呼和浩特市,海东办,细颗粒物(PM2.5),58,63,93,41,57,21,,,,52,51,12,17,0.8,0.8
2024-02-13T0500,2192A,119.7594,49.2261,呼伦贝尔市,区环保局,,28,25,25,13,16,87,,,,5,9,4,5,0.3,0.3
2024-02-13T0500,3061A,119.7512,49.1577,呼伦贝尔市,国华电力东,,33,33,24,12,12,86,,,,4,5,4,5,0.3,0.3
2024-02-13T0500,1250A,120.0751,30.8669,湖州市,城西水厂,"颗粒物(PM10),细颗粒物(PM2.5)",57,64,69,40,44,71,,,,12,15,4,4,0.5,0.5
2024-02-13T0500,2873A,120.0875,30.8955,湖州市,仁皇山新区,细颗粒物(PM2.5),58,64,71,41,44,67,,,,15,17,6,6,0.6,0.6
2024-02-13T0500,2907A,120.1844,30.8596,湖州市,吴兴区站,颗粒物(PM10),55,60,68,36,43,70,,,,10,11,6,6,0.6,0.6
2024-02-13T0500,3562A,120.4148,30.8538,湖州市,南浔区站,颗粒物(PM10),54,57,71,33,43,87,,,,7,8,6,7,0.4,0.5
2024-02-13T0500,1607A,120.9092,40.7136,葫芦岛市,龙港区,细颗粒物(PM2.5),143,140,134,109,105,63,,,,23,17,15,9,1.0,0.9
2024-02-13T0500,1608A,120.8392,40.7514,葫芦岛市,化工街,细颗粒物(PM2.5),138,166,161,105,108,49,,,,11,16,9,12,1.8,1.6
2024-02-13T0500,1609A,120.8341,40.7073,葫芦岛市,新区,细颗粒物(PM2.5),128,120,139,97,111,55,,,,25,24,9,15,1.0,1
2024-02-13T0500,1610A,120.8695,40.7677,葫芦岛市,东城区,细颗粒物(PM2.5),160,158,155,122,131,44,,,,31,32,13,15,1.6,1.6
2024-02-13T0500,2482A,109.5981,27.5721,怀化市,林科所,细颗粒物(PM2.5),60,44,56,43,42,99,,,,4,4,3,4,0,0.2
2024-02-13T0500,2483A,109.9453,27.5444,怀化市,河西地税局,细颗粒物(PM2.5),52,46,67,36,58,101,,,,2,6,5,4,0.4,0.6
2024-02-13T0500,2484A,109.9781,27.5342,怀化市,市四医院,细颗粒物(PM2.5),53,53,97,37,80,82,,,,8,14,6,6,0.8,0.9
2024-02-13T0500,2485A,109.9972,27.5578,怀化市,监测楼,细颗粒物(PM2.5),117,88,125,88,112,29,,,,6,13,5,6,0.8,0.9
2024-02-13T0500,2486A,110.0394,27.583,怀化市,市委党校,细颗粒物(PM2.5),99,89,99,74,85,47,,,,7,8,7,7,0.6,0.7
2024-02-13T0500,1210A,119.036,33.5981,淮安市,钵池山,细颗粒物(PM2.5),59,58,77,42,51,64,,,,16,15,8,8,0.5,0.5
2024-02-13T0500,1211A,119.007,33.575,淮安市,北京南路,细颗粒物(PM2.5),62,63,83,44,55,65,,,,16,15,8,8,0.7,0.7
2024-02-13T0500,1212A,118.989,33.6067,淮安市,市监测站,细颗粒物(PM2.5),62,61,83,44,49,68,,,,14,14,8,8,0.6,0.9
2024-02-13T0500,1213A,119.135,33.5039,淮安市,楚州区监测站,细颗粒物(PM2.5),83,83,112,61,69,44,,,,27,25,7,9,0.6,0.6
2024-02-13T0500,1214A,119.0186,33.6297,淮安市,淮阴区监测站,细颗粒物(PM2.5),69,63,99,50,64,69,,,,17,20,6,6,0.5,0.5
2024-02-13T0500,3426A,118.8755,33.2894,淮安市,新华书店,细颗粒物(PM2.5),63,58,83,45,51,62,,,,17,18,6,7,0.4,0.5
2024-02-13T0500,2282A,116.8004,33.975,淮北市,监测站,细颗粒物(PM2.5),73,81,98,53,52,66,,,,15,16,8,8,0.6,0.6
2024-02-13T0500,2283A,116.8091,33.9007,淮北市,烈山区政府,细颗粒物(PM2.5),69,69,92,50,48,64,,,,18,15,7,8,0.4,0.4
2024-02-13T0500,3330A,116.8873,33.9836,淮北市,杜集区检察院,细颗粒物(PM2.5),69,68,84,50,44,78,,,,14,14,12,11,0.6,0.5
2024-02-13T0500,4017A,116.7923,33.9535,淮北市,市博物馆,细颗粒物(PM2.5),79,79,97,58,55,64,,,,22,20,9,9,0.8,0.8
2024-02-13T0500,2277A,116.8305,32.7727,淮南市,潘集区政府,,49,45,98,34,57,79,,,,6,11,2,6,0.4,0.5
2024-02-13T0500,2278A,117.0067,32.6524,淮南市,师范学院,,46,46,81,31,42,74,,,,7,11,6,7,0.3,0.4
2024-02-13T0500,2279A,116.8569,32.5951,淮南市,谢家集区政府,,36,33,79,25,46,79,,,,12,9,4,5,0.4,0.5
2024-02-13T0500,2280A,116.8281,32.633,淮南市,八公山区政府,,42,42,78,29,42,88,,,,4,9,2,3,0.4,0.5
2024-02-13T0500,2281A,116.6325,32.6201,淮南市,焦岗湖风景区管理处,,46,46,80,28,42,67,,,,7,10,3,3,0.1,0.2
2024-02-13T0500,2894A,117.0566,32.6531,淮南市,经济技术开发区消防队,颗粒物(PM10),65,80,83,38,42,64,,,,6,5,4,6,0.4,0.4
2024-02-13T0500,3329A,117.0108,32.5893,淮南市,山南新区,颗粒物(PM10),58,66,96,37,58,72,,,,10,10,4,6,0.4,0.4
2024-02-13T0500,2446A,114.9028,30.4742,黄冈市,职工中心,,44,44,66,30,41,75,,,,1,6,9,11,0.5,0.6
2024-02-13T0500,2929A,114.8858,30.4519,黄冈市,红卫路,,38,37,62,26,41,67,,,,3,5,7,9,0.6,0.7
2024-02-13T0500,3398A,114.9136,30.4445,黄冈市,市林业局,,40,37,59,28,41,72,,,,6,6,6,7,0.4,0.5
2024-02-13T0500,2672A,102.0199,35.5102,黄南藏族自治州,同仁县隆务镇,,28,28,27,6,12,50,,,,2,2,20,20,1.0,0.9
2024-02-13T0500,2295A,118.2903,29.6963,黄山市,延安路89号,,33,33,53,20,31,17,,,,4,6,5,6,0.4,0.3
2024-02-13T0500,2296A,118.327,29.7178,黄山市,黄山东路89号,细颗粒物(PM2.5),59,57,63,42,38,4,,,,16,16,4,5,0.7,0.7
2024-02-13T0500,2297A,118.1371,30.2756,黄山市,黄山区政府5号楼,颗粒物(PM10),51,52,51,31,32,22,,,,6,7,4,4,0.6,0.6
2024-02-13T0500,2423A,115.0601,30.2313,黄石市,沈家营,,45,45,71,30,47,41,,,,29,25,12,21,0.9,1.3
2024-02-13T0500,2424A,115.0817,30.2006,黄石市,陈家湾,细颗粒物(PM2.5),55,50,66,39,53,30,,,,29,23,14,14,0.8,0.9
2024-02-13T0500,2426A,114.8988,30.2019,黄石市,铁山,,38,38,66,22,41,74,,,,13,19,6,11,0.7,0.8
2024-02-13T0500,2427A,115.0307,30.2092,黄石市,团城山,颗粒物(PM10),55,59,95,28,41,47,,,,24,20,12,18,0.8,1
2024-02-13T0500,3149A,115.0235,30.1578,黄石市,笔架山北路,,40,40,56,21,37,63,,,,15,15,14,13,0.8,0.9
2024-02-13T0500,1392A,114.4183,23.0528,惠州市,河南岸金山湖子站,,48,48,47,32,36,49,,,,7,6,5,5,0.5,0.5
2024-02-13T0500,1393A,114.4053,23.0822,惠州市,下埔横江三路子站,细颗粒物(PM2.5),65,66,58,47,42,42,,,,16,14,5,6,0.6,0.6
2024-02-13T0500,1394A,114.4103,23.1142,惠州市,江北云山西路子站,细颗粒物(PM2.5),78,75,56,57,43,34,,,,11,6,8,9,0.6,0.5
2024-02-13T0500,1395A,114.4645,22.7833,惠州市,惠阳区承修路船湖子站,,49,49,44,29,26,60,,,,16,10,8,8,0.6,0.5
2024-02-13T0500,1396A,114.5317,22.7422,惠州市,大亚湾管委会子站,,47,47,43,26,23,85,,,,13,12,7,7,0.4,0.4
2024-02-13T0500,3314A,114.4338,22.8134,惠州市,惠阳秋长,,39,39,39,26,27,72,,,,6,5,7,8,0.4,0.4
2024-02-13T0500,3452A,114.6517,22.775,惠州市,大亚湾霞涌,,44,44,44,28,25,82,,,,6,9,7,8,0.4,0.5
2024-02-13T0500,2243A,130.9429,45.3039,鸡西市,第一中学,颗粒物(PM10),55,60,36,37,24,104,,,,8,7,12,9,0.4,0.3
2024-02-13T0500,3707A,131.0207,45.3073,鸡西市,欧美日汽修厂,细颗粒物(PM2.5),59,65,48,42,35,95,,,,8,14,10,15,0.3,1
2024-02-13T0500,3709A,130.9967,45.3106,鸡西市,市政设施管理处,细颗粒物(PM2.5),58,47,45,41,32,96,,,,12,19,5,5,0.7,0.7
2024-02-13T0500,2367A,114.9754,27.0803,吉安市,红声器材厂,,43,43,61,24,37,50,,,,6,12,7,11,0.9,0.9
2024-02-13T0500,2368A,114.9658,27.0999,吉安市,市森林工业局,,41,41,65,28,50,53,,,,6,14,6,8,0.2,0.6
2024-02-13T0500,2369A,114.99,27.1312,吉安市,市环境监测站,,42,42,63,25,42,57,,,,7,12,6,6,0.3,0.5
2024-02-13T0500,2370A,115.0093,27.0968,吉安市,青原区法院,,42,42,55,27,38,62,,,,8,16,8,9,0.4,0.6
2024-02-13T0500,1772A,126.54,43.8622,吉林市,哈达湾,细颗粒物(PM2.5),82,88,58,60,40,116,,,,6,8,6,6,0.7,0.7
2024-02-13T0500,1773A,126.5844,43.8358,吉林市,东局子,细颗粒物(PM2.5),82,92,60,60,41,110,,,,10,10,14,11,1.0,0.9
2024-02-13T0500,1774A,126.5052,43.8245,吉林市,电力学院,细颗粒物(PM2.5),82,84,54,60,40,114,,,,7,9,12,11,0.7,0.7
2024-02-13T0500,1775A,126.6133,43.8972,吉林市,江北,细颗粒物(PM2.5),83,97,61,61,40,107,,,,8,8,14,14,0.8,0.7
2024-02-13T0500,1776A,126.555,43.8306,吉林市,江南公园,细颗粒物(PM2.5),90,90,61,67,47,116,,,,6,8,8,8,0.7,0.6
2024-02-13T0500,2868A,126.4739,43.953,吉林市,九站,细颗粒物(PM2.5),83,88,57,61,39,119,,,,9,10,16,11,0.8,0.8
2024-02-13T0500,1299A,116.9862,36.6114,济南市,科干所,颗粒物(PM10),53,56,99,29,40,105,,,,3,3,8,9,0.8,0.8
2024-02-13T0500,1300A,116.9376,36.665,济南市,农科所,颗粒物(PM10),55,59,96,27,39,97,,,,12,13,8,8,0.6,0.7
2024-02-13T0500,1301A,117.1265,36.6734,济南市,开发区,,49,49,77,24,36,88,,,,4,5,7,8,0.7,0.7
2024-02-13T0500,1303A,117.0624,36.6868,济南市,省种子仓库,颗粒物(PM10),52,53,88,27,35,107,,,,1,4,6,7,0.7,0.8
2024-02-13T0500,1304A,116.9489,36.6447,济南市,机床二厂,颗粒物(PM10),56,61,97,29,38,107,,,,6,8,8,12,0.8,0.9
2024-02-13T0500,1305A,117.0495,36.663,济南市,市监测站,颗粒物(PM10),52,54,85,32,39,110,,,,8,10,14,14,0.6,0.6
2024-02-13T0500,1306A,116.7675,36.5484,济南市,长清党校,颗粒物(PM10),62,73,103,37,47,106,,,,12,13,9,10,0.8,0.8
2024-02-13T0500,1616A,117.6795,36.229,济南市,技术学院,细颗粒物(PM2.5),62,70,107,44,54,70,,,,35,27,14,15,1.1,1
2024-02-13T0500,1961A,117.532,36.6868,济南市,东山小学,颗粒物(PM10),58,66,98,34,42,99,,,,11,11,10,10,0.5,0.4
2024-02-13T0500,3059A,117.7161,36.2049,济南市,泰兴公司,细颗粒物(PM2.5),62,66,110,44,60,40,,,,19,23,9,13,1.1,1.1
2024-02-13T0500,3064A,117.6867,36.2171,济南市,莱芜战役纪念馆,颗粒物(PM10),73,95,112,41,53,48,,,,39,24,12,13,1.0,0.9
2024-02-13T0500,3494A,117.1673,36.9782,济南市,济阳区政府,颗粒物(PM10),61,71,106,37,46,82,,,,14,13,11,11,0.5,0.5
2024-02-13T0500,3495A,117.1171,36.63,济南市,锦屏中学,,44,44,80,22,35,107,,,,6,7,8,9,0.5,0.5
2024-02-13T0500,3682A,116.9814,36.6819,济南市,济南四建,,48,48,86,29,44,99,,,,10,14,10,12,0.6,0.7
2024-02-13T0500,1653A,116.6251,35.4302,济宁市,火炬城,颗粒物(PM10),64,78,91,41,42,68,,,,12,11,7,6,0.9,0.8
2024-02-13T0500,1655A,116.5491,35.4042,济宁市,电化厂,颗粒物(PM10),64,77,95,41,39,80,,,,8,9,7,6,0.7,0.6
2024-02-13T0500,3500A,116.5814,35.3707,济宁市,北湖一中,颗粒物(PM10),65,79,95,41,43,75,,,,10,17,10,8,0.5,0.6
2024-02-13T0500,3501A,116.8249,35.5593,济宁市,服务中心,颗粒物(PM10),68,86,111,40,44,75,,,,14,13,6,6,0.8,0.9
2024-02-13T0500,3678A,116.5907,35.4054,济宁市,市第七中学,颗粒物(PM10),63,76,102,44,40,68,,,,9,10,6,5,0.8,0.7
2024-02-13T0500,2255A,130.2751,46.8028,佳木斯市,佳纺,细颗粒物(PM2.5),68,70,62,49,39,108,,,,11,10,7,6,0.8,0.6
2024-02-13T0500,2256A,130.3995,46.8307,佳木斯市,发电厂,细颗粒物(PM2.5),64,71,56,46,37,108,,,,13,13,11,13,0.7,0.6
2024-02-13T0500,2257A,130.3258,46.7975,佳木斯市,环保局,细颗粒物(PM2.5),70,74,53,51,41,106,,,,9,9,10,9,0.8,0.6
2024-02-13T0500,2258A,130.3648,46.8032,佳木斯市,十一中,细颗粒物(PM2.5),70,73,60,51,40,108,,,,6,9,10,9,0.7,0.6
2024-02-13T0500,2259A,130.3794,46.7588,佳木斯市,四丰,,,67,48,41,31,120,,,,,6,1,1,0.3,0.3
2024-02-13T0500,1252A,120.7436,30.778,嘉兴市,清河小学,颗粒物(PM10),54,58,72,27,37,90,,,,2,8,6,7,0.5,0.6
2024-02-13T0500,1253A,120.726,30.7478,嘉兴市,嘉兴学院,颗粒物(PM10),54,58,70,29,39,95,,,,6,10,5,6,0.6,0.7
2024-02-13T0500,2872A,120.7846,30.7525,嘉兴市,南湖区残联,颗粒物(PM10),59,67,80,31,42,102,,,,2,6,6,8,0.5,0.6
2024-02-13T0500,3407A,120.6916,30.7739,嘉兴市,秀洲住建,颗粒物(PM10),55,60,69,32,41,86,,,,9,12,6,8,0.5,0.6
2024-02-13T0500,1945A,98.2908,39.7711,嘉峪关市,气象局,颗粒物(PM10),59,68,67,22,22,36,,,,19,17,8,17,0.5,0.4
2024-02-13T0500,2884A,98.2672,39.7978,嘉峪关市,酒钢宾馆,颗粒物(PM10),59,68,74,14,23,44,,,,8,13,4,22,0.4,0.6
2024-02-13T0500,3248A,98.2643,39.7724,嘉峪关市,雄关区,颗粒物(PM10),59,67,59,20,17,14,,,,39,22,9,12,0.7,0.5
2024-02-13T0500,1383A,113.1064,22.6058,江门市,北街,,45,44,49,31,38,34,,,,21,15,7,7,0.3,0.4
2024-02-13T0500,1384A,113.0731,22.5835,江门市,西区,细颗粒物(PM2.5),57,57,51,40,38,31,,,,23,17,7,8,0.3,0.2
2024-02-13T0500,1385A,113.0219,22.5311,江门市,圭峰西,,38,38,42,26,26,67,,,,12,14,6,6,0.4,0.4
2024-02-13T0500,1386A,113.0828,22.5947,江门市,东湖,,,56,50,50,38,30,,,,,15,6,6,0.5,0.5
2024-02-13T0500,3311A,113.1075,22.5647,江门市,江海富民,颗粒物(PM10),54,58,53,30,28,55,,,,15,15,6,7,0.4,0.4
2024-02-13T0500,3449A,113.05,22.4667,江门市,新会银湖,细颗粒物(PM2.5),54,50,46,38,31,29,,,,22,15,6,6,0.5,0.5
2024-02-13T0500,1828A,113.227,35.2125,焦作市,市环保局,细颗粒物(PM2.5),99,105,121,74,79,42,,,,17,19,6,10,1.1,1.1
2024-02-13T0500,3169A,113.2725,35.2067,焦作市,太极体育中心,细颗粒物(PM2.5),100,117,115,75,73,38,,,,23,24,8,11,1.1,0.9
2024-02-13T0500,3335A,113.3137,35.2641,焦作市,马村街道办,细颗粒物(PM2.5),87,81,99,64,62,54,,,,20,17,9,12,0.5,0.5
2024-02-13T0500,3336A,113.2465,35.2373,焦作市,焦作技师学院,细颗粒物(PM2.5),70,76,98,51,57,51,,,,19,23,12,17,0.9,1
2024-02-13T0500,3477A,113.1656,35.2539,焦作市,中站许衡医院,细颗粒物(PM2.5),73,87,94,53,49,89,,,,17,15,9,12,1.4,0.7
2024-02-13T0500,3981A,113.2449,35.1803,焦作市,原李万街道办,细颗粒物(PM2.5),98,132,113,73,59,39,,,,24,24,11,14,1.2,1
2024-02-13T0500,1708A,116.3701,23.5345,揭阳市,新兴,细颗粒物(PM2.5),69,63,60,50,50,43,,,,10,9,8,9,0.8,0.8
2024-02-13T0500,1709A,116.3264,23.5443,揭阳市,西马,细颗粒物(PM2.5),62,59,62,44,49,48,,,,8,8,8,9,0.5,0.6
2024-02-13T0500,1710A,116.3611,23.5626,揭阳市,东兴,细颗粒物(PM2.5),59,61,57,42,40,44,,,,12,9,7,8,0.6,0.6
2024-02-13T0500,1711A,116.4151,23.5294,揭阳市,渔湖,细颗粒物(PM2.5),57,49,65,40,46,51,,,,10,9,8,9,0.7,0.6
2024-02-13T0500,3320A,116.403,23.5699,揭阳市,曲溪,细颗粒物(PM2.5),53,54,65,37,45,58,,,,11,9,2,4,0.6,0.6
2024-02-13T0500,1944A,102.1692,38.5167,金昌市,天庆家园,,16,16,65,4,30,44,,,,18,26,7,25,0.5,0.7
2024-02-13T0500,3170A,102.1864,38.5253,金昌市,市委党校,,37,37,64,21,36,37,,,,20,24,5,25,0.6,0.8
2024-02-13T0500,4022A,102.1647,38.5371,金昌市,金川区人防中心,,19,10,42,4,28,58,,,,7,13,5,20,0.5,0.5
2024-02-13T0500,1262A,119.647,29.077,金华市,十五中,颗粒物(PM10),51,51,55,29,34,88,,,,8,10,4,4,0.5,0.5
2024-02-13T0500,1263A,119.686,29.1029,金华市,监测站,颗粒物(PM10),54,57,60,26,35,90,,,,8,8,3,4,0.4,0.4
2024-02-13T0500,3659A,119.656,29.1131,金华市,气象局,,45,45,55,27,34,93,,,,5,17,3,3,0.6,0.6
2024-02-13T0500,1767A,121.1115,41.0879,锦州市,南山,细颗粒物(PM2.5),170,160,159,129,132,63,,,,26,24,92,40,1.1,1.1
2024-02-13T0500,1768A,121.0533,40.8434,锦州市,开发区,细颗粒物(PM2.5),132,146,147,100,110,61,,,,26,26,16,14,1.1,1.1
2024-02-13T0500,1769A,121.1836,41.1119,锦州市,百股街道,细颗粒物(PM2.5),132,123,141,100,112,54,,,,20,19,13,20,0.9,1.2
2024-02-13T0500,1770A,121.1178,41.1222,锦州市,天安街道,细颗粒物(PM2.5),163,159,167,124,125,46,,,,33,24,35,30,1.2,1.2
2024-02-13T0500,1771A,121.1303,41.1386,锦州市,北湖公园,细颗粒物(PM2.5),160,129,136,122,124,59,,,,27,25,59,34,1.2,1.3
2024-02-13T0500,2160A,112.85,35.5051,晋城市,自来水公司,颗粒物(PM10),76,102,96,51,51,25,,,,30,26,19,16,2.0,1.6
2024-02-13T0500,2161A,112.8318,35.4936,晋城市,白云商贸,细颗粒物(PM2.5),70,74,109,51,50,47,,,,19,24,9,13,1.3,1.3
2024-02-13T0500,2162A,112.8508,35.4887,晋城市,市环保局,细颗粒物(PM2.5),67,77,119,48,57,20,,,,38,31,14,14,1.8,1.5
2024-02-13T0500,2163A,112.8676,35.4897,晋城市,技术学院,细颗粒物(PM2.5),67,78,99,48,46,30,,,,30,32,18,16,1.9,1.6
2024-02-13T0500,3620A,112.8271,35.4828,晋城市,泽州一中,颗粒物(PM10),70,90,97,48,42,50,,,,22,22,10,14,1.4,1.4
2024-02-13T0500,2171A,112.7532,37.6945,晋中市,锦纶小区,颗粒物(PM10),63,75,89,34,44,52,,,,14,19,15,19,0.6,0.7
2024-02-13T0500,2173A,112.7249,37.7067,晋中市,南都小区,细颗粒物(PM2.5),63,68,119,45,64,34,,,,25,30,14,18,0.7,0.8
2024-02-13T0500,2174A,112.6991,37.6982,晋中市,榆次区政府,颗粒物(PM10),71,92,93,49,51,7,,,,60,25,18,19,1.0,0.8
2024-02-13T0500,2865A,112.7195,37.6828,晋中市,榆次三中,颗粒物(PM10),58,66,94,34,43,47,,,,15,25,14,18,0.7,0.9
2024-02-13T0500,2439A,112.2014,31.0481,荆门市,竹园小学,细颗粒物(PM2.5),77,78,94,56,61,68,,,,12,20,10,11,0.8,0.8
2024-02-13T0500,2440A,112.1969,30.9891,荆门市,掇刀,细颗粒物(PM2.5),75,77,90,55,68,68,,,,12,17,11,11,0.8,0.8
2024-02-13T0500,2441A,112.2213,31.0386,荆门市,石化一小,细颗粒物(PM2.5),75,79,94,55,74,64,,,,15,20,16,19,0.8,0.8
2024-02-13T0500,3012A,112.1849,31.0362,荆门市,西山林语,细颗粒物(PM2.5),75,72,80,55,57,72,,,,11,13,14,15,0.7,0.6
2024-02-13T0500,3547A,112.1632,31.0138,荆门市,龙泉中学南校,细颗粒物(PM2.5),74,74,86,54,65,69,,,,15,17,10,10,0.6,0.6
2024-02-13T0500,1844A,112.2494,30.3197,荆州市,市图书馆,细颗粒物(PM2.5),70,53,71,51,59,55,,,,17,16,8,8,0.9,1
2024-02-13T0500,1845A,112.2008,30.3544,荆州市,市委党校,细颗粒物(PM2.5),68,59,73,49,60,54,,,,24,19,6,7,0.6,0.7
2024-02-13T0500,3194A,112.2747,30.3122,荆州市,管委会,细颗粒物(PM2.5),69,54,65,50,58,61,,,,13,14,9,10,0.7,0.8
2024-02-13T0500,3548A,112.1655,30.3364,荆州市,学苑路,细颗粒物(PM2.5),74,58,65,54,59,51,,,,19,17,7,7,1.0,1.1
2024-02-13T0500,2342A,117.3102,29.3867,景德镇市,王港中学,,25,25,45,14,36,18,,,,1,4,2,4,0,0
2024-02-13T0500,2343A,117.2117,29.2933,景德镇市,老干部活动中心,,24,24,46,13,30,45,,,,4,9,5,6,0.2,0.3
2024-02-13T0500,2344A,117.1894,29.2789,景德镇市,兽医站,,25,25,50,7,33,43,,,,7,9,4,6,0.4,0.5
2024-02-13T0500,2345A,117.1547,29.2617,景德镇市,台达陶瓷,,26,26,49,18,32,37,,,,7,11,4,4,0.4,0.5
2024-02-13T0500,2346A,117.2461,29.2956,景德镇市,陶研所,,25,25,36,13,24,34,,,,7,7,4,4,0.4,0.5
2024-02-13T0500,1803A,115.9872,29.6815,九江市,十里,细颗粒物(PM2.5),58,49,71,41,51,33,,,,22,24,9,10,0.8,0.8
2024-02-13T0500,1804A,115.9584,29.7046,九江市,茅山头,细颗粒物(PM2.5),127,109,85,96,67,0,,,,66,42,11,12,1.1,0.9
2024-02-13T0500,1805A,115.9877,29.7295,九江市,西园,细颗粒物(PM2.5),107,94,87,80,64,11,,,,56,38,7,9,0.1,0.7
2024-02-13T0500,1806A,116.0172,29.6547,九江市,五七二七厂,,35,30,50,24,34,57,,,,10,11,8,9,0.5,0.7
2024-02-13T0500,1808A,115.9114,29.6038,九江市,综合工业园,,45,33,61,31,46,64,,,,14,16,17,13,0.3,0.5
2024-02-13T0500,1809A,116.0721,29.7535,九江市,石化总厂,,42,42,70,29,50,78,,,,8,10,13,13,0.5,0.6
2024-02-13T0500,1810A,115.9773,29.5698,九江市,庐山气象台,,27,18,26,16,17,86,,,,2,2,6,9,0.8,0.7
2024-02-13T0500,3190A,116.0254,29.6994,九江市,外国语学校,,45,42,64,31,45,54,,,,23,25,9,9,0.6,0.7
2024-02-13T0500,2658A,98.5061,39.7443,酒泉市,仓门街子站,颗粒物(PM10),67,83,84,32,34,39,,,,12,17,5,14,0.4,0.7
2024-02-13T0500,2659A,98.4989,39.7256,酒泉市,油田生活基地,颗粒物(PM10),68,85,83,33,33,48,,,,9,13,7,14,0.4,0.6
2024-02-13T0500,2698A,76.0072,39.4467,喀什地区,巡警大队,颗粒物(PM10),74,97,84,35,34,13,,,,86,48,11,8,3.7,1.8
2024-02-13T0500,2699A,75.9755,39.4694,喀什地区,吾办,细颗粒物(PM2.5),83,98,103,61,57,9,,,,84,59,6,6,3.4,2.1
2024-02-13T0500,4027A,75.9483,39.4689,喀什地区,老干局,颗粒物(PM10),64,78,99,38,45,24,,,,49,40,6,7,2.9,2
2024-02-13T0500,1824A,114.3389,34.7781,开封市,肿瘤医院,细颗粒物(PM2.5),84,96,113,62,68,47,,,,12,12,3,3,0.6,0.7
2024-02-13T0500,1826A,114.2885,34.7965,开封市,世纪星幼儿园,细颗粒物(PM2.5),102,89,117,76,78,56,,,,8,8,5,7,0.5,0.6
2024-02-13T0500,3147A,114.3438,34.8106,开封市,龙亭公园,细颗粒物(PM2.5),85,94,113,63,71,37,,,,21,13,3,6,1.2,1.1
2024-02-13T0500,3210A,114.3644,34.7964,开封市,汴京公园,细颗粒物(PM2.5),89,97,121,66,76,45,,,,13,14,2,4,0.5,0.6
2024-02-13T0500,3473A,114.2485,34.8306,开封市,技师学院,细颗粒物(PM2.5),102,112,104,76,68,70,,,,9,6,4,3,0.8,0.8
2024-02-13T0500,3592A,114.4644,34.7556,开封市,祥符区生态环境局,细颗粒物(PM2.5),84,100,119,62,72,47,,,,15,14,4,5,0.4,0.6
2024-02-13T0500,1951A,84.895,45.6094,克拉玛依市,长征新村,,36,36,168,12,120,80,,,,16,30,9,12,0.4,1.2
2024-02-13T0500,1952A,84.8988,45.5893,克拉玛依市,南林小区,,35,27,172,24,131,80,,,,10,28,4,5,0.3,1.3
2024-02-13T0500,1954A,84.905,44.3396,克拉玛依市,独山子区,,27,14,35,9,27,86,,,,5,11,5,6,0.3,0.5
2024-02-13T0500,1955A,85.6979,46.098,克拉玛依市,乌尔禾区商贸楼,,33,33,97,4,68,55,,,,27,33,4,8,0.4,1
2024-02-13T0500,3612A,85.1045,45.6899,克拉玛依市,白碱滩区新站,,33,33,150,14,106,80,,,,8,24,9,12,0.2,1.1
2024-02-13T0500,2697A,76.1454,39.7142,克孜勒苏柯尔克孜自治州,市人民政府,颗粒物(PM10),55,59,48,7,15,95,,,,2,5,4,5,0.5,0.8
2024-02-13T0500,3665A,76.1658,39.7157,克孜勒苏柯尔克孜自治州,克州文化中心,,49,49,58,8,22,98,,,,1,16,5,6,0.2,0.8
2024-02-13T0500,1450A,102.8204,24.8886,昆明市,呈贡新区,,40,35,34,28,30,61,,,,5,6,6,6,0.9,0.8
2024-02-13T0500,1451A,102.6251,24.9608,昆明市,西山森林公园,,28,28,27,18,23,70,,,,5,5,6,6,1.0,1
2024-02-13T0500,1452A,102.7252,25.0902,昆明市,龙泉镇,,44,44,34,28,27,34,,,,17,10,12,11,0.7,0.6
2024-02-13T0500,1453A,102.7266,25.0375,昆明市,东风东路,,46,34,34,32,28,65,,,,8,10,11,10,0.7,0.8
2024-02-13T0500,1454A,102.6742,25.0669,昆明市,金鼎山,,39,36,39,27,26,33,,,,14,9,6,7,0.8,0.7
2024-02-13T0500,1455A,102.6644,25.0401,昆明市,碧鸡广场,,45,38,33,31,27,47,,,,10,8,8,8,0.8,0.8
2024-02-13T0500,3179A,102.7494,25.0119,昆明市,官渡区博物馆,,45,32,31,31,27,42,,,,8,8,7,8,0.8,0.7
2024-02-13T0500,3375A,102.8017,24.8336,昆明市,青年创业园,,43,37,33,30,28,39,,,,16,7,9,10,0.8,0.8
2024-02-13T0500,3550A,102.7997,24.9786,昆明市,昆明学院,,46,40,35,32,27,60,,,,4,4,7,8,0.8,0.7
2024-02-13T0500,3551A,102.5967,24.6736,昆明市,晋宁区生态环境分局,,49,41,46,34,27,54,,,,8,9,4,4,0.9,0.9
2024-02-13T0500,3552A,102.6678,24.9856,昆明市,云天化总部,,43,37,31,30,25,54,,,,7,6,6,6,0.9,0.9
2024-02-13T0500,1456A,91.1319,29.6514,拉萨市,八廓街,,20,11,21,6,14,62,,,,12,15,6,6,0.3,0.4
2024-02-13T0500,1457A,91.1221,29.6747,拉萨市,市环保局,,16,14,34,8,20,50,,,,14,18,6,7,0.6,0.8
2024-02-13T0500,1458A,91.0874,29.6475,拉萨市,区监测站,,20,10,15,7,9,64,,,,8,14,3,4,0.5,0.6
2024-02-13T0500,1459A,91.1774,29.6541,拉萨市,西藏大学,,21,13,18,5,10,66,,,,4,6,3,4,0.3,0.4
2024-02-13T0500,1460A,90.9798,29.6588,拉萨市,区辐射站,,19,9,18,6,11,59,,,,8,11,5,5,0.4,0.5
2024-02-13T0500,1461A,91.0834,29.6292,拉萨市,拉萨火车站,,15,14,15,8,9,47,,,,19,15,3,4,0.7,0.5
2024-02-13T0500,2520A,109.2203,23.7256,来宾市,来宾技工学校,细颗粒物(PM2.5),79,80,105,58,90,62,,,,10,18,12,11,0.7,0.9
2024-02-13T0500,3535A,109.1781,23.7297,来宾市,兴宾区政府,细颗粒物(PM2.5),60,68,91,43,71,71,,,,10,14,9,12,0.7,0.8
2024-02-13T0500,4002A,109.2416,23.7461,来宾市,中南小学,细颗粒物(PM2.5),114,119,148,86,117,23,,,,31,26,7,10,1.1,1.2
2024-02-13T0500,1476A,103.631,36.1031,兰州市,兰炼宾馆,细颗粒物(PM2.5),64,73,87,46,56,8,,,,42,50,36,25,0.9,1.3
2024-02-13T0500,1478A,103.8412,36.0726,兰州市,生物制品所,细颗粒物(PM2.5),68,59,81,49,54,17,,,,40,57,11,22,0.9,1.4
2024-02-13T0500,1479A,103.831,36.0464,兰州市,铁路设计院,细颗粒物(PM2.5),74,69,88,54,59,4,,,,63,72,17,29,1.2,2
2024-02-13T0500,3186A,103.7158,36.1058,兰州市,教育港,细颗粒物(PM2.5),58,54,71,41,51,11,,,,47,54,14,20,1.3,1.3
2024-02-13T0500,3241A,103.7439,36.0842,兰州市,百合公园,细颗粒物(PM2.5),73,62,77,53,56,12,,,,44,58,9,15,1.4,1.6
2024-02-13T0500,3242A,103.9611,35.998,兰州市,和平,细颗粒物(PM2.5),62,68,64,44,41,31,,,,37,31,20,22,1.4,1.3
2024-02-13T0500,3245A,103.6633,36.533,兰州新区,新区管委会,,35,35,39,20,26,36,,,,7,14,7,18,0.5,0.7
2024-02-13T0500,3246A,103.6975,36.4789,兰州新区,舟曲中学,,40,40,49,26,29,34,,,,16,17,9,22,0.7,0.8
2024-02-13T0500,1067A,116.6708,39.5111,廊坊市,药材公司,细颗粒物(PM2.5),201,228,208,151,134,25,,,,60,43,3,8,1.4,1
2024-02-13T0500,1068A,116.7214,39.5589,廊坊市,开发区,细颗粒物(PM2.5),208,200,185,158,135,17,,,,62,35,2,7,1.2,1
2024-02-13T0500,1070A,116.7244,39.5269,廊坊市,北华航天学院,细颗粒物(PM2.5),198,222,195,148,128,39,,,,42,36,3,7,1.1,1
2024-02-13T0500,2919A,116.7022,39.5453,廊坊市,河北工业大学,细颗粒物(PM2.5),216,217,189,166,137,32,,,,44,36,4,8,1.1,1
2024-02-13T0500,2535A,103.7723,29.5462,乐山市,花湖湾,细颗粒物(PM2.5),140,130,131,107,97,19,,,,22,22,77,30,0.8,0.7
2024-02-13T0500,2536A,103.7627,29.5844,乐山市,牛耳桥,细颗粒物(PM2.5),118,101,107,89,93,6,,,,22,34,4,6,0.9,1.1
2024-02-13T0500,2537A,103.7508,29.6006,乐山市,市第三水厂,细颗粒物(PM2.5),104,98,110,78,90,5,,,,25,35,3,6,1.0,1.2
2024-02-13T0500,2538A,103.7571,29.5664,乐山市,市监测站,细颗粒物(PM2.5),90,94,100,67,85,23,,,,21,26,83,13,1.1,0.8
2024-02-13T0500,3361A,103.7311,29.5628,乐山市,理工大学,细颗粒物(PM2.5),113,108,101,85,88,10,,,,30,24,37,11,1.1,0.9
2024-02-13T0500,2599A,100.2497,26.8802,丽江市,丽江古城,,27,19,24,12,15,85,,,,12,18,5,6,0.4,0.5
2024-02-13T0500,2600A,100.2203,26.8906,丽江市,市中心,,27,10,12,1,7,85,,,,4,13,7,8,0.4,0.5
2024-02-13T0500,1267A,119.914,28.4514,丽水市,监测站大楼,,42,41,45,29,30,40,,,,7,7,4,5,0.4,0.4
2024-02-13T0500,1268A,119.93,28.4586,丽水市,莲都小学,颗粒物(PM10),51,51,52,31,36,48,,,,12,7,3,4,0.4,0.4
2024-02-13T0500,1269A,119.879,28.4231,丽水市,余庄前,,37,37,45,25,30,24,,,,4,4,4,4,0.4,0.5
2024-02-13T0500,1173A,119.176,34.5885,连云港市,市环境监测站,细颗粒物(PM2.5),73,78,109,53,69,60,,,,19,19,7,8,0.7,0.7
2024-02-13T0500,3000A,119.3581,34.6972,连云港市,德源药业,细颗粒物(PM2.5),67,75,98,48,59,67,,,,11,10,6,7,0.5,0.5
2024-02-13T0500,3007A,119.178,34.844,连云港市,新城一中,细颗粒物(PM2.5),72,72,93,52,65,78,,,,16,18,10,11,0.8,0.7
2024-02-13T0500,3008A,119.3608,34.7519,连云港市,胡沟管理处,,48,48,80,29,40,84,,,,12,12,8,10,0.3,0.4
2024-02-13T0500,3009A,119.1478,34.5911,连云港市,矿山设计院,细颗粒物(PM2.5),64,73,113,46,65,63,,,,13,13,7,7,0.6,0.6
2024-02-13T0500,3434A,119.2413,34.6539,连云港市,工贸学校,颗粒物(PM10),59,68,98,40,53,87,,,,19,20,10,11,0.6,0.6
2024-02-13T0500,3664A,119.4172,34.7341,连云港市,连云街道,颗粒物(PM10),51,52,91,28,46,95,,,,4,7,4,5,0.7,0.8
2024-02-13T0500,2571A,102.3431,27.8099,凉山彝族自治州,青龙寺,,20,20,32,6,8,61,,,,4,5,4,5,0.7,0.8
2024-02-13T0500,2572A,102.2721,27.8415,凉山彝族自治州,邛海宾馆,,,18,31,,26,53,,,,8,9,11,9,0.9,0.9
2024-02-13T0500,2573A,102.2625,27.898,凉山彝族自治州,西昌市政府,,23,18,28,14,24,71,,,,6,7,10,11,0.9,0.9
2024-02-13T0500,2574A,102.2685,27.8851,凉山彝族自治州,凉山州政府,,25,21,28,17,23,50,,,,10,8,8,9,1.0,0.8
2024-02-13T0500,2575A,102.237,27.8914,凉山彝族自治州,长安,,22,18,30,14,23,69,,,,4,9,11,13,0.8,1.1
2024-02-13T0500,2212A,123.2,41.1953,辽阳市,宏伟区,细颗粒物(PM2.5),90,87,75,67,57,94,,,,6,7,15,17,0.9,0.9
2024-02-13T0500,2213A,123.1683,41.2495,辽阳市,新华园,细颗粒物(PM2.5),88,93,78,65,65,98,,,,7,8,15,17,1.0,1
2024-02-13T0500,2214A,123.2354,41.2639,辽阳市,滨河路,细颗粒物(PM2.5),100,81,71,75,64,84,,,,6,7,12,14,1.0,1
2024-02-13T0500,2215A,123.149,41.2991,辽阳市,铁西工业园,细颗粒物(PM2.5),93,87,75,69,61,100,,,,10,10,15,16,0.9,0.9
2024-02-13T0500,2227A,125.1358,42.8845,辽源市,环保局,细颗粒物(PM2.5),60,59,51,43,34,112,,,,6,10,11,12,0.9,0.8
2024-02-13T0500,3239A,125.0764,42.9078,辽源市,银鹰制药,细颗粒物(PM2.5),72,75,56,52,36,115,,,,4,7,9,8,0.8,0.7
2024-02-13T0500,1625A,115.9848,36.4372,聊城市,区政府,细颗粒物(PM2.5),70,80,116,51,55,78,,,,7,7,7,7,0.7,0.7
2024-02-13T0500,2878A,116.0072,36.4343,聊城市,聊大东校,细颗粒物(PM2.5),63,73,100,45,57,83,,,,11,13,8,8,0.8,0.9
2024-02-13T0500,3200A,115.9819,36.4978,聊城市,监控中心,颗粒物(PM10),67,83,113,39,52,85,,,,4,6,8,9,0.6,0.7
2024-02-13T0500,3513A,116.0445,36.4361,聊城市,九州社区,颗粒物(PM10),70,89,120,41,51,76,,,,14,14,3,6,0.6,0.6
2024-02-13T0500,4018A,116.0567,36.4608,聊城市,星美广场,颗粒物(PM10),74,97,128,47,52,78,,,,10,11,2,3,0.8,0.8
2024-02-13T0500,2632A,94.3681,29.6376,林芝市,林芝监测站,,,,11,8,7,74,,,,1,2,4,4,0.5,0.5
2024-02-13T0500,2633A,94.3616,29.6616,林芝市,林芝人民医院,,23,12,12,6,7,71,,,,3,3,10,9,0.4,0.4
2024-02-13T0500,2603A,100.0781,23.8982,临沧市,市环保局,细颗粒物(PM2.5),52,39,38,36,38,35,,,,8,8,6,7,0.4,0.5
2024-02-13T0500,2604A,100.0894,23.8822,临沧市,市气象局,细颗粒物(PM2.5),54,41,42,38,35,36,,,,8,9,6,7,0.5,0.6
2024-02-13T0500,1733A,111.5531,36.0783,临汾市,临钢医院,颗粒物(PM10),75,100,96,48,46,39,,,,19,14,11,10,1.0,0.9
2024-02-13T0500,1734A,111.5028,36.0714,临汾市,技工学校,细颗粒物(PM2.5),88,109,113,65,56,38,,,,22,22,12,14,0.8,0.9
2024-02-13T0500,1736A,111.5018,36.0855,临汾市,市委,颗粒物(PM10),82,114,108,57,50,42,,,,17,15,12,13,0.9,1
2024-02-13T0500,3018A,111.505,36.1014,临汾市,唐尧大酒店,颗粒物(PM10),79,108,103,55,48,35,,,,28,25,13,15,1.0,1
2024-02-13T0500,3668A,111.5036,36.0414,临汾市,城南,细颗粒物(PM2.5),103,114,110,77,55,25,,,,21,17,8,13,1.0,1.1
2024-02-13T0500,2667A,103.2069,35.5993,临夏回族自治州,环保局,颗粒物(PM10),56,62,53,25,24,8,,,,23,25,17,19,2.3,1.5
2024-02-13T0500,2668A,103.2417,35.6057,临夏回族自治州,建设大厦,,39,39,37,25,24,33,,,,6,16,13,15,0.8,0.8
2024-02-13T0500,1618A,118.3429,35.0532,临沂市,沂河小区,细颗粒物(PM2.5),89,83,99,66,62,49,,,,21,15,7,10,0.8,0.7
2024-02-13T0500,1619A,118.295,35.0583,临沂市,鲁南制药厂,细颗粒物(PM2.5),75,83,100,55,56,62,,,,24,16,11,11,1.3,1
2024-02-13T0500,1620A,118.2794,34.9976,临沂市,新光毛纺厂,细颗粒物(PM2.5),82,83,107,60,64,59,,,,25,21,8,11,0.9,0.9
2024-02-13T0500,1621A,118.3956,35.0888,临沂市,河东保险公司,细颗粒物(PM2.5),95,95,102,71,62,61,,,,64,22,9,9,1.1,1
2024-02-13T0500,3370A,118.3564,35.0215,临沂市,十里堡居委,细颗粒物(PM2.5),73,78,97,53,56,57,,,,38,21,6,8,1.1,1
2024-02-13T0500,3496A,118.3604,35.1084,临沂市,南坊新区,细颗粒物(PM2.5),83,92,102,61,54,62,,,,39,25,10,11,1.1,0.9
2024-02-13T0500,3860A,118.3920,35.0300,临沂市,皇山花园小区,细颗粒物(PM2.5),82,97,101,60,53,66,,,,52,15,13,11,0.9,0.9
2024-02-13T0500,1870A,109.4856,24.3895,柳州市,柳东小学,细颗粒物(PM2.5),78,65,59,57,53,66,,,,17,16,9,9,0.6,0.5
2024-02-13T0500,1871A,109.4157,24.3277,柳州市,环保监测站,细颗粒物(PM2.5),144,129,110,110,91,20,,,,33,23,9,11,0.9,0.7
2024-02-13T0500,1872A,109.389,24.341,柳州市,河西水厂,细颗粒物(PM2.5),199,221,124,149,81,17,,,,40,25,11,9,1.0,0.6
2024-02-13T0500,1873A,109.4311,24.2921,柳州市,市四中,细颗粒物(PM2.5),109,110,113,82,95,55,,,,19,22,9,11,0.7,0.6
2024-02-13T0500,1874A,109.4006,24.3631,柳州市,市九中,细颗粒物(PM2.5),135,112,99,103,77,18,,,,35,22,6,7,0.8,0.7
2024-02-13T0500,1875A,109.4958,24.3134,柳州市,古亭山,细颗粒物(PM2.5),104,86,70,78,57,35,,,,14,15,7,8,0.8,0.6
2024-02-13T0500,3402A,109.5422,24.3996,柳州市,市二中,细颗粒物(PM2.5),83,65,60,61,46,48,,,,22,16,8,9,0.8,0.7
2024-02-13T0500,2307A,116.5079,31.737,六安市,监测大楼,,33,26,51,23,39,89,,,,8,10,4,6,0.5,0.6
2024-02-13T0500,2308A,116.4738,31.7643,六安市,皖西学院,,34,34,57,20,35,92,,,,8,13,4,4,0.4,0.5
2024-02-13T0500,2309A,116.4996,31.7905,六安市,朝阳厂,,38,32,54,26,41,78,,,,6,9,5,5,0.4,0.5
2024-02-13T0500,2310A,116.5567,31.7886,六安市,开发区,颗粒物(PM10),52,53,73,32,43,77,,,,8,12,5,9,0.5,0.5
2024-02-13T0500,2577A,104.83,26.5917,六盘水市,黄土坡,细颗粒物(PM2.5),63,60,48,45,39,9,,,,43,20,24,18,1.5,0.9
2024-02-13T0500,2578A,104.89,26.5939,六盘水市,水钢,,30,22,35,21,26,79,,,,4,6,6,10,0.4,0.5
2024-02-13T0500,2579A,104.8475,26.5894,六盘水市,民中,细颗粒物(PM2.5),100,76,59,75,46,13,,,,36,22,17,18,1.5,0.9
2024-02-13T0500,2580A,104.9544,26.5506,六盘水市,双水,,40,36,36,28,26,59,,,,7,5,10,10,0.6,0.5
2024-02-13T0500,2336A,117.0217,25.1033,龙岩市,龙岩市监测站,,28,21,26,19,20,32,,,,10,7,3,4,0.3,0.3
2024-02-13T0500,2337A,117.0258,25.0661,龙岩市,闽西职业技术学院,,35,32,26,24,17,54,,,,4,4,1,3,0.4,0.4
2024-02-13T0500,2338A,117.0196,25.0306,龙岩市,龙岩学院,,28,20,25,19,19,53,,,,4,6,3,3,0.5,0.5
2024-02-13T0500,2885A,104.9339,33.3826,陇南市,滨江中学,细颗粒物(PM2.5),60,51,86,43,59,30,,,,24,31,18,18,1.3,1.6
2024-02-13T0500,3247A,104.955,33.371,陇南市,市总工会,,50,48,64,35,44,53,,,,12,14,9,10,0.7,0.8
2024-02-13T0500,2487A,111.9589,27.8901,娄底市,电视发射台,颗粒物(PM10),55,59,72,37,48,27,,,,18,19,8,12,1.4,1.5
2024-02-13T0500,2488A,111.9975,27.725,娄底市,市监测站,细颗粒物(PM2.5),188,164,126,141,100,2,,,,34,30,16,19,1.6,1.3
2024-02-13T0500,2489A,112.0194,27.7314,娄底市,市委党校,细颗粒物(PM2.5),125,121,113,95,91,12,,,,21,20,12,12,0.8,0.8
2024-02-13T0500,2490A,111.9561,27.7569,娄底市,涟钢,细颗粒物(PM2.5),133,120,116,101,91,13,,,,14,19,5,12,1.2,1.4
2024-02-13T0500,2491A,111.9892,27.7044,娄底市,市政府,细颗粒物(PM2.5),118,112,132,89,103,7,,,,12,16,7,9,0.8,0.9
2024-02-13T0500,1893A,105.4324,28.9634,泸州市,九狮山,细颗粒物(PM2.5),107,112,115,80,80,5,,,,16,11,4,6,0.5,0.5
2024-02-13T0500,1894A,105.4427,28.9063,泸州市,小市上码头,细颗粒物(PM2.5),120,116,104,91,85,8,,,,30,27,3,5,1.0,0.9
2024-02-13T0500,1895A,105.4241,28.8573,泸州市,兰田宪桥,细颗粒物(PM2.5),132,122,111,100,95,23,,,,15,19,4,5,0.7,0.8
2024-02-13T0500,1896A,105.4379,28.8833,泸州市,市环监站,细颗粒物(PM2.5),133,111,104,101,90,47,,,,16,16,3,5,0.8,0.8
2024-02-13T0500,3490A,105.3617,28.7703,泸州市,纳溪区环保局,细颗粒物(PM2.5),144,143,117,110,94,22,,,,12,21,4,6,0.8,1
2024-02-13T0500,2183A,111.1406,37.5211,吕梁市,环保局,颗粒物(PM10),52,54,95,31,36,24,,,,18,28,1,5,0.6,0.6
2024-02-13T0500,2185A,111.1297,37.5136,吕梁市,自来水公司,细颗粒物(PM2.5),73,70,86,53,45,16,,,,30,27,10,10,0.6,0.6
2024-02-13T0500,2867A,111.1283,37.51,吕梁市,马茂庄小学,细颗粒物(PM2.5),87,84,106,64,54,16,,,,28,29,7,8,0.5,0.5
2024-02-13T0500,1812A,112.3931,34.6516,洛阳市,市委党校,细颗粒物(PM2.5),137,118,123,104,89,28,,,,25,30,13,15,0.7,0.7
2024-02-13T0500,1814A,112.4657,34.6871,洛阳市,豫西宾馆,细颗粒物(PM2.5),125,146,145,95,84,19,,,,31,33,16,19,0.7,0.6
2024-02-13T0500,1815A,112.494,34.6886,洛阳市,河南林校,细颗粒物(PM2.5),117,122,117,88,72,18,,,,30,27,8,11,1.1,0.9
2024-02-13T0500,1816A,112.3844,34.623,洛阳市,开发区管委会,细颗粒物(PM2.5),102,93,99,76,68,35,,,,13,12,5,8,0.8,0.7
2024-02-13T0500,1817A,112.4267,34.6258,洛阳市,市委新办公区,细颗粒物(PM2.5),115,93,126,87,105,36,,,,13,22,5,8,0.9,0.8
2024-02-13T0500,3340A,112.6005,34.6326,洛阳市,伊滨,细颗粒物(PM2.5),119,123,135,90,84,39,,,,17,19,6,10,0.8,0.7
2024-02-13T0500,3341A,112.4951,34.6332,洛阳市,中移产业园,细颗粒物(PM2.5),113,96,112,85,82,39,,,,15,21,6,9,1.1,0.9
2024-02-13T0500,3593A,112.5736,34.8993,洛阳市,吉利监测站,细颗粒物(PM2.5),79,78,102,58,62,52,,,,16,20,6,7,0.6,0.6
2024-02-13T0500,3635A,112.3677,34.662,洛阳市,河科大西苑校区,细颗粒物(PM2.5),140,137,136,107,90,4,,,,51,31,20,13,0.3,0.2
2024-02-13T0500,3636A,112.4388,34.6781,洛阳市,英才小学,细颗粒物(PM2.5),132,136,146,100,97,17,,,,27,31,14,18,1.0,0.9
2024-02-13T0500,2399A,114.051,33.5699,漯河市,三五一五工厂,细颗粒物(PM2.5),70,61,96,51,63,49,,,,22,18,8,8,0.7,0.7
2024-02-13T0500,2400A,114.0055,33.5698,漯河市,漯河大学,细颗粒物(PM2.5),73,66,87,53,57,43,,,,29,14,7,7,0.7,0.8
2024-02-13T0500,2401A,114.0138,33.5828,漯河市,市水利局,细颗粒物(PM2.5),73,75,93,53,62,47,,,,24,13,9,10,0.7,0.7
2024-02-13T0500,2402A,114.0261,33.5698,漯河市,市广电局,细颗粒物(PM2.5),69,63,94,50,60,65,,,,13,14,4,5,0.9,0.9
2024-02-13T0500,3478A,113.9749,33.5664,漯河市,市图书馆,细颗粒物(PM2.5),67,64,86,48,57,67,,,,17,14,12,12,0.5,0.5
2024-02-13T0500,3479A,114.0967,33.5906,漯河市,召陵区卫健委,细颗粒物(PM2.5),65,69,96,47,60,70,,,,9,12,8,8,0.6,0.6
2024-02-13T0500,1798A,118.5092,31.6837,马鞍山市,湖东路四小,细颗粒物(PM2.5),67,63,76,48,47,57,,,,11,18,9,8,0.6,0.7
2024-02-13T0500,1799A,118.5024,31.6449,马鞍山市,开发区,细颗粒物(PM2.5),60,55,66,43,45,63,,,,14,20,6,6,0.4,0.5
2024-02-13T0500,1800A,118.5228,31.7231,马鞍山市,慈湖,细颗粒物(PM2.5),74,64,75,54,51,49,,,,20,23,6,6,0.3,0.3
2024-02-13T0500,1802A,118.6245,31.7241,马鞍山市,濮塘,颗粒物(PM10),51,51,62,31,38,66,,,,6,8,6,6,0.4,0.5
2024-02-13T0500,3633A,118.4918,31.6809,马鞍山市,雨山,细颗粒物(PM2.5),65,64,72,47,47,54,,,,20,20,9,9,0.3,0.4
2024-02-13T0500,1686A,111.0286,21.4688,茂名市,电白南海,颗粒物(PM10),52,53,70,24,30,97,,,,10,11,11,12,0.5,0.5
2024-02-13T0500,1687A,110.9294,21.6533,茂名市,茂石化七小,颗粒物(PM10),52,53,56,27,33,94,,,,9,11,12,12,0.5,0.6
2024-02-13T0500,1688A,110.9107,21.6687,茂名市,健康路,,48,48,54,19,33,94,,,,8,10,7,12,0.5,0.6
2024-02-13T0500,1689A,110.8592,21.6828,茂名市,高岭,颗粒物(PM10),51,51,61,34,38,93,,,,29,15,27,14,0.7,0.6
2024-02-13T0500,3450A,111.01,21.5165,茂名市,电白水东,,44,44,54,17,26,98,,,,6,8,8,9,0.6,0.6
2024-02-13T0500,2539A,104.0308,30.0478,眉山市,黑龙滩水库,细颗粒物(PM2.5),70,67,74,51,57,32,,,,3,6,1,2,0.6,0.7
2024-02-13T0500,2540A,103.8416,30.0874,眉山市,气象局,细颗粒物(PM2.5),113,90,90,85,82,17,,,,23,23,5,7,0.8,0.9
2024-02-13T0500,3137A,103.8578,30.0744,眉山市,市委党校,细颗粒物(PM2.5),113,97,104,85,85,9,,,,24,37,5,7,0.7,0.9
2024-02-13T0500,3148A,103.8291,30.0564,眉山市,区人社局,细颗粒物(PM2.5),117,,90,88,87,9,,,,42,43,8,11,0.8,0.8
2024-02-13T0500,1690A,116.1231,24.3284,梅州市,梅江月梅,细颗粒物(PM2.5),52,42,37,36,33,42,,,,6,6,10,10,0.6,0.6
2024-02-13T0500,1691A,116.0797,24.2719,梅州市,梅县新城,细颗粒物(PM2.5),52,51,52,36,41,40,,,,6,11,6,7,0.4,0.4
2024-02-13T0500,1692A,116.1248,24.2654,梅州市,环境监控中心,细颗粒物(PM2.5),70,57,52,51,43,27,,,,15,15,5,5,0.5,0.5
2024-02-13T0500,3315A,116.1233,24.2991,梅州市,梅龙,细颗粒物(PM2.5),60,,51,43,46,42,,,,8,13,6,7,0.5,0.5
2024-02-13T0500,1878A,104.7778,31.4741,绵阳市,富乐山,细颗粒物(PM2.5),87,74,69,64,58,40,,,,15,12,7,7,0.8,0.7
2024-02-13T0500,1879A,104.7563,31.4535,绵阳市,市人大,细颗粒物(PM2.5),94,98,88,70,63,24,,,,24,37,5,6,0.7,0.8
2024-02-13T0500,1880A,104.6697,31.4668,绵阳市,高新区自来水公司,细颗粒物(PM2.5),112,102,85,84,68,21,,,,20,27,7,7,0.7,0.7
2024-02-13T0500,1881A,104.7287,31.5075,绵阳市,三水厂,细颗粒物(PM2.5),107,89,83,80,70,16,,,,14,26,5,6,0.9,0.8
2024-02-13T0500,3491A,104.69,31.5322,绵阳市,西科大附属小学,细颗粒物(PM2.5),79,73,67,58,57,48,,,,12,17,7,8,0.6,0.6
2024-02-13T0500,3492A,104.5648,31.5343,绵阳市,安州区旅游局,细颗粒物(PM2.5),88,73,90,65,70,22,,,,20,30,6,6,0.8,1
2024-02-13T0500,1784A,129.61,44.561,牡丹江市,环保大楼,颗粒物(PM10),61,72,52,43,31,113,,,,9,15,13,13,0.6,0.6
2024-02-13T0500,1785A,129.6115,44.5782,牡丹江市,文化广场,细颗粒物(PM2.5),100,,62,75,48,104,,,,8,17,18,17,0.7,0.7
2024-02-13T0500,1786A,129.5904,44.5963,牡丹江市,第一医院,细颗粒物(PM2.5),82,72,53,60,43,99,,,,13,20,17,16,0.6,0.6
2024-02-13T0500,1787A,129.6364,44.6075,牡丹江市,机车工厂,颗粒物(PM10),70,90,55,46,35,98,,,,14,22,14,13,0.5,0.5
2024-02-13T0500,1788A,129.6386,44.5462,牡丹江市,第一中学,细颗粒物(PM2.5),64,71,46,46,31,110,,,,8,10,15,14,0.7,0.6
2024-02-13T0500,2531A,105.0703,29.61,内江市,市监测站,细颗粒物(PM2.5),140,,91,107,100,8,,,,27,35,8,9,1.1,1.1
2024-02-13T0500,2532A,105.0717,29.5947,内江市,东兴区政府,细颗粒物(PM2.5),149,,101,114,99,4,,,,29,35,10,10,1.1,1.2
2024-02-13T0500,2533A,105.0653,29.5817,内江市,内江二中,细颗粒物(PM2.5),160,,100,122,105,7,,,,27,36,7,8,1.1,1.2
2024-02-13T0500,2534A,105.0406,29.5822,内江市,内江日报社,细颗粒物(PM2.5),179,,113,135,110,7,,,,63,40,13,9,1.2,1.1
2024-02-13T0500,2628A,92.0657,31.4846,那曲市,那曲监测站,,13,11,35,6,22,39,,,,7,11,5,9,1.1,1.2
2024-02-13T0500,3128A,92.0506,31.4797,那曲市,那曲会议中心,,24,24,24,10,12,33,,,,8,10,6,7,0.7,0.6
2024-02-13T0500,1290A,115.8931,28.6843,南昌市,省外办,细颗粒物(PM2.5),77,78,138,56,98,3,,,,42,34,5,7,0.9,1.4
2024-02-13T0500,1291A,115.8886,28.7003,南昌市,省林业公司,细颗粒物(PM2.5),67,66,78,48,56,7,,,,45,36,4,5,0.9,0.9
2024-02-13T0500,1292A,115.8126,28.7442,南昌市,林科所,,32,,49,22,35,49,,,,7,8,8,9,0.6,0.6
2024-02-13T0500,1294A,115.8518,28.687,南昌市,建工学校,细颗粒物(PM2.5),68,72,88,49,58,22,,,,37,29,6,7,0.6,0.7
2024-02-13T0500,1295A,115.8921,28.6424,南昌市,象湖,细颗粒物(PM2.5),98,108,111,73,78,2,,,,55,39,5,7,1.2,1
2024-02-13T0500,1296A,115.7423,28.7996,南昌市,武术学校,,12,12,30,7,28,10,,,,1,4,11,12,0.7,0.7
2024-02-13T0500,1298A,115.9314,28.6842,南昌市,省站,细颗粒物(PM2.5),82,105,122,60,79,12,,,,36,31,7,9,0.7,0.9
2024-02-13T0500,3046A,115.9084,28.6062,南昌市,机电学校,细颗粒物(PM2.5),107,100,102,80,69,6,,,,47,33,8,9,1.2,1.2
2024-02-13T0500,3690A,115.9721,28.7031,南昌市,外国语学校,细颗粒物(PM2.5),88,71,86,65,75,16,,,,32,29,5,6,0.6,0.6
2024-02-13T0500,1905A,106.056,30.8064,南充市,西山风景区,细颗粒物(PM2.5),120,,70,91,73,81,,,,8,13,5,5,0.9,0.9
2024-02-13T0500,1906A,106.0789,30.8023,南充市,南充市委,细颗粒物(PM2.5),104,93,97,78,72,26,,,,12,32,4,6,0.5,0.7
2024-02-13T0500,1907A,106.1031,30.8217,南充市,南充炼油厂,细颗粒物(PM2.5),110,96,97,83,79,1,,,,32,33,4,6,0.7,0.7
2024-02-13T0500,1908A,106.1064,30.7856,南充市,高坪区监测站,细颗粒物(PM2.5),108,123,106,81,76,6,,,,29,35,6,8,0.7,0.9
2024-02-13T0500,1909A,106.0642,30.7636,南充市,嘉陵区环保局,细颗粒物(PM2.5),110,111,100,83,82,8,,,,35,41,2,4,0.9,1.1
2024-02-13T0500,1910A,106.1087,30.8388,南充市,市环境监测站,细颗粒物(PM2.5),98,89,90,73,69,32,,,,16,26,6,8,0.5,0.6
2024-02-13T0500,1151A,118.8086,32.1065,南京市,迈皋桥,,42,42,59,27,33,51,,,,10,14,4,4,0.3,0.4
2024-02-13T0500,1152A,118.7538,32.0551,南京市,草场门,,49,46,63,34,37,59,,,,22,23,2,3,0.5,0.6
2024-02-13T0500,1153A,118.7794,32.0745,南京市,山西路,,45,44,61,31,37,58,,,,18,21,3,4,0.5,0.6
2024-02-13T0500,1154A,118.7752,32.0023,南京市,中华门,细颗粒物(PM2.5),55,51,60,39,39,51,,,,18,14,7,7,0.6,0.6
2024-02-13T0500,1155A,118.8109,32.0309,南京市,瑞金路,,46,46,64,31,38,37,,,,21,23,4,4,0.5,0.6
2024-02-13T0500,1156A,118.7997,32.0754,南京市,玄武湖,颗粒物(PM10),51,52,69,27,32,68,,,,2,8,7,8,0.5,0.4
2024-02-13T0500,1157A,118.6414,32.0931,南京市,浦口,颗粒物(PM10),61,71,74,25,25,53,,,,25,22,8,8,0.8,0.8
2024-02-13T0500,1158A,118.7356,31.9996,南京市,奥体中心,细颗粒物(PM2.5),55,53,65,39,36,54,,,,18,14,5,6,0.5,0.6
2024-02-13T0500,1159A,118.9125,32.1028,南京市,仙林大学城,,39,39,57,24,27,59,,,,14,13,4,5,0.6,0.6
2024-02-13T0500,3422A,118.8436,31.9198,南京市,江宁彩虹桥,颗粒物(PM10),53,56,75,27,37,69,,,,6,11,3,4,0.4,0.5
2024-02-13T0500,3423A,119.0138,31.6494,南京市,溧水永阳,细颗粒物(PM2.5),54,41,57,38,45,55,,,,13,16,4,4,0.4,0.4
2024-02-13T0500,3424A,118.879,31.3302,南京市,高淳老职中,,42,38,53,29,36,69,,,,5,7,3,4,0.4,0.4
2024-02-13T0500,3427A,118.8554,32.3578,南京市,六合雄州,颗粒物(PM10),54,58,85,34,47,58,,,,18,20,2,3,0.7,0.7
2024-02-13T0500,1401A,108.3103,22.7881,南宁市,二十一中,细颗粒物(PM2.5),65,47,52,47,41,89,,,,6,11,7,8,0.6,0.6
2024-02-13T0500,1402A,108.3141,22.8528,南宁市,北湖,,49,47,47,34,36,84,,,,3,8,5,6,0.6,0.6
2024-02-13T0500,1403A,108.3206,22.8225,南宁市,市监测站,,44,44,50,29,34,90,,,,5,11,6,7,0.8,0.8
2024-02-13T0500,1404A,108.3829,22.8037,南宁市,大自然花园,颗粒物(PM10),55,59,50,32,40,85,,,,8,11,7,8,0.5,0.5
2024-02-13T0500,1405A,108.4394,22.7904,南宁市,仙葫,细颗粒物(PM2.5),57,51,51,40,44,71,,,,11,12,7,8,0.7,0.6
2024-02-13T0500,1406A,108.2397,22.8467,南宁市,区农职院,,43,,47,30,27,86,,,,11,12,8,9,0.6,0.6
2024-02-13T0500,1407A,108.3275,22.735,南宁市,英华嘉园,颗粒物(PM10),52,54,57,26,41,78,,,,7,13,6,7,0.5,0.5
2024-02-13T0500,1408A,108.2257,22.7757,南宁市,沙井镇街道办,,46,46,52,28,34,78,,,,15,12,6,7,0.5,0.6
2024-02-13T0500,3401A,108.4834,22.7618,南宁市,红星社区,颗粒物(PM10),56,61,52,34,40,48,,,,9,12,8,10,0.7,0.7
2024-02-13T0500,2332A,118.1681,26.6369,南平市,南平市监测站,细颗粒物(PM2.5),53,48,52,37,39,32,,,,11,13,4,6,0.3,0.7
2024-02-13T0500,2333A,118.1825,26.6489,南平市,南平铝业有限公司,,42,36,39,29,29,32,,,,9,8,6,7,0.6,0.5
2024-02-13T0500,2334A,118.1756,26.6272,南平市,南平七中,,43,34,42,30,30,38,,,,9,11,4,5,0.4,0.4
2024-02-13T0500,1168A,120.9098,31.9663,南通市,狼山街道,颗粒物(PM10),56,61,81,38,50,74,,,,16,35,8,9,0.6,0.6
2024-02-13T0500,1169A,120.86,32.0005,南通市,虹桥,颗粒物(PM10),59,68,84,37,48,89,,,,10,24,5,6,0.4,0.5
2024-02-13T0500,1170A,120.87,32.02,南通市,城中,颗粒物(PM10),61,72,85,35,43,92,,,,10,23,5,6,0.8,0.7
2024-02-13T0500,1171A,120.94,31.93,南通市,星湖花园,颗粒物(PM10),57,64,82,32,42,78,,,,19,24,7,8,0.4,0.5
2024-02-13T0500,1172A,120.81,32.0417,南通市,紫琅学院,颗粒物(PM10),57,64,78,31,41,78,,,,24,37,8,9,0.5,0.6
2024-02-13T0500,3291A,121.067,32.062,南通市,通州监测站,颗粒物(PM10),60,70,92,41,54,93,,,,12,26,7,9,0.2,0.3
2024-02-13T0500,3432A,120.9348,31.9883,南通市,环境教育馆,颗粒物(PM10),59,68,88,39,50,85,,,,18,29,7,8,0.3,0.4
2024-02-13T0500,2404A,112.5224,33.0122,南阳市,瓦房庄,细颗粒物(PM2.5),139,106,147,106,136,33,,,,14,26,9,11,0.8,0.8
2024-02-13T0500,2405A,112.5003,32.9735,南阳市,汉画馆,细颗粒物(PM2.5),147,121,149,112,125,24,,,,16,26,7,9,0.8,0.8
2024-02-13T0500,2406A,112.5573,33.027,南阳市,气象站,细颗粒物(PM2.5),138,,110,105,104,43,,,,17,28,9,11,0.8,0.7
2024-02-13T0500,2407A,112.5481,32.9689,南阳市,理工学院,细颗粒物(PM2.5),166,128,122,126,109,36,,,,23,25,6,8,0.7,0.7
2024-02-13T0500,4008A,112.5234,32.9922,南阳市,卧龙区政府,细颗粒物(PM2.5),114,100,139,86,118,44,,,,18,34,8,9,0.7,0.8
2024-02-13T0500,1234A,121.8358,29.911,宁波市,区环保大楼,颗粒物(PM10),55,59,90,31,39,103,,,,2,5,6,7,0.3,0.4
2024-02-13T0500,1235A,121.56,29.82,宁波市,万里学院,颗粒物(PM10),58,65,73,29,39,94,,,,11,13,7,7,0.4,0.5
2024-02-13T0500,1236A,121.713,29.9572,宁波市,龙赛医院,颗粒物(PM10),51,52,70,28,37,103,,,,5,7,4,4,0.5,0.5
2024-02-13T0500,1239A,121.633,29.7733,宁波市,钱湖水厂,颗粒物(PM10),52,54,72,30,37,87,,,,1,4,4,5,0.6,0.6
2024-02-13T0500,1240A,121.5856,29.8635,宁波市,太古小学,颗粒物(PM10),54,57,64,32,39,93,,,,9,11,6,7,0.5,0.5
2024-02-13T0500,1241A,121.524,29.8674,宁波市,市环境监测中心,颗粒物(PM10),55,59,67,26,36,98,,,,13,14,6,6,0.5,0.6
2024-02-13T0500,2871A,121.6147,29.9017,宁波市,万里国际学校,颗粒物(PM10),57,63,70,32,39,101,,,,8,12,7,8,0.5,0.6
2024-02-13T0500,3710A,121.5594,29.8975,宁波市,白沙活动中心,颗粒物(PM10),56,61,76,27,36,96,,,,7,10,6,7,0.5,0.6
2024-02-13T0500,2341A,119.5388,26.6612,宁德市,宁德市监测站,细颗粒物(PM2.5),52,,52,36,38,33,,,,14,8,5,7,0.5,0.6
2024-02-13T0500,3209A,119.5231,26.6562,宁德市,宁德一中,,40,40,51,25,32,51,,,,7,10,4,6,0.3,0.5
2024-02-13T0500,2618A,98.8601,25.8567,怒江傈僳族自治州,州监测站,,20,20,31,10,21,62,,,,3,4,9,10,0.4,0.5
2024-02-13T0500,2619A,98.8546,25.8417,怒江傈僳族自治州,泸水一中,,17,17,32,11,26,40,,,,8,10,8,9,0.5,0.6
2024-02-13T0500,1888A,101.6891,26.571,攀枝花市,弄弄坪,颗粒物(PM10),55,60,50,34,36,26,,,,50,28,56,31,1.6,1.9
2024-02-13T0500,1889A,101.5769,26.5928,攀枝花市,河门口,,33,33,39,14,25,24,,,,22,15,18,20,1.8,1
2024-02-13T0500,1890A,101.7169,26.585,攀枝花市,炳草岗,,41,41,43,25,30,8,,,,49,29,13,26,0.9,1.4
2024-02-13T0500,1891A,101.7369,26.5008,攀枝花市,仁和,,29,24,34,20,27,51,,,,10,14,6,10,0.5,0.9
2024-02-13T0500,2835A,101.7227,26.567,攀枝花市,四十中小,,32,32,40,20,29,55,,,,24,19,9,14,0.9,1
2024-02-13T0500,1604A,122.0303,41.1489,盘锦市,开发区,细颗粒物(PM2.5),108,94,107,81,80,82,,,,16,17,7,12,1.0,0.9
2024-02-13T0500,1605A,122.0485,41.0883,盘锦市,兴隆台,细颗粒物(PM2.5),100,109,119,75,75,83,,,,14,17,11,14,1.0,1
2024-02-13T0500,1606A,121.8297,41.1028,盘锦市,新生街道,细颗粒物(PM2.5),97,104,111,72,78,70,,,,22,19,9,11,0.9,0.9
2024-02-13T0500,1832A,113.3257,33.742,平顶山市,新华旅馆,细颗粒物(PM2.5),130,133,145,99,93,25,,,,48,30,10,10,0.6,0.6
2024-02-13T0500,1833A,113.2919,33.737,平顶山市,规划设计院,细颗粒物(PM2.5),124,151,145,94,104,16,,,,61,24,11,13,0.8,0.9
2024-02-13T0500,1834A,113.182,33.774,平顶山市,平顶山工学院,细颗粒物(PM2.5),85,85,101,63,70,78,,,,16,12,9,8,0.7,0.7
2024-02-13T0500,3204A,113.3025,33.73,平顶山市,规划局,细颗粒物(PM2.5),147,156,141,112,103,4,,,,63,23,10,11,1.0,0.8
2024-02-13T0500,3594A,112.8867,33.9116,平顶山市,石龙区,细颗粒物(PM2.5),103,87,101,77,79,70,,,,13,18,8,10,0.7,0.7
2024-02-13T0500,2656A,106.6692,35.5461,平凉市,聚贤嘉苑,,42,42,58,25,31,64,,,,15,17,4,10,0.5,0.5
2024-02-13T0500,2657A,106.7021,35.5307,平凉市,博物馆,细颗粒物(PM2.5),62,60,71,44,45,45,,,,23,23,8,18,1.2,0.7
2024-02-13T0500,2347A,114.0997,27.5002,萍乡市,武功山,,40,,32,28,25,36,,,,6,6,9,9,0.4,0.4
2024-02-13T0500,2348A,113.8385,27.6434,萍乡市,中医院,"颗粒物(PM10),细颗粒物(PM2.5)",59,68,84,42,58,20,,,,30,29,8,8,1.2,1.3
2024-02-13T0500,2349A,113.8493,27.6253,萍乡市,市政府车库,细颗粒物(PM2.5),100,97,100,75,72,5,,,,29,26,21,20,1.3,1.8
2024-02-13T0500,2350A,113.8676,27.6435,萍乡市,市环保局,细颗粒物(PM2.5),62,57,72,44,54,29,,,,26,17,10,9,0.8,0.9
2024-02-13T0500,2351A,113.866,27.6198,萍乡市,安源区政府,细颗粒物(PM2.5),67,66,78,48,50,15,,,,23,24,11,10,0.7,1.3
2024-02-13T0500,2319A,119.0141,25.4325,莆田市,荔城区仓后路,细颗粒物(PM2.5),73,75,55,53,42,65,,,,8,9,7,7,0.8,0.8
2024-02-13T0500,2320A,119.0015,25.4553,莆田市,莆田市监测站,,38,35,39,26,29,83,,,,5,6,8,9,0.4,0.4
2024-02-13T0500,2321A,119.1119,25.4561,莆田市,涵江区六中,,45,42,46,31,30,68,,,,10,5,7,8,0.8,0.8
2024-02-13T0500,2322A,119.1013,25.3215,莆田市,秀屿区政府,颗粒物(PM10),52,54,49,35,37,91,,,,4,5,5,6,0.7,0.7
2024-02-13T0500,2392A,115.0312,35.7636,濮阳市,环保局,细颗粒物(PM2.5),69,82,99,50,58,63,,,,5,7,6,7,0.4,0.4
2024-02-13T0500,2394A,115.0574,35.7609,濮阳市,油田运输公司,细颗粒物(PM2.5),72,76,102,52,62,62,,,,7,9,8,10,0.7,0.8
2024-02-13T0500,2395A,115.0866,35.7754,濮阳市,油田物探公司,细颗粒物(PM2.5),73,80,110,53,67,57,,,,11,13,6,8,0.6,0.7
2024-02-13T0500,3021A,115,35.7668,濮阳市,濮水河管理处,细颗粒物(PM2.5),73,82,112,53,68,64,,,,6,6,8,10,0.7,0.8
2024-02-13T0500,2601A,100.98,22.7633,普洱市,市环保局,细颗粒物(PM2.5),54,52,51,38,38,12,,,,21,12,5,5,0.7,0.7
2024-02-13T0500,2602A,100.9817,22.8322,普洱市,普洱第二中学,,43,32,42,30,30,21,,,,16,12,6,6,0.7,0.8
2024-02-13T0500,2262A,131.0518,45.8751,七台河市,新一中,细颗粒物(PM2.5),53,53,43,37,33,113,,,,10,11,12,12,0.9,0.9
2024-02-13T0500,3345A,131.0577,45.7879,七台河市,中波台,,45,42,41,31,27,106,,,,15,16,12,11,0.7,0.7
2024-02-13T0500,3637A,131.0176,45.7761,七台河市,人民广场,细颗粒物(PM2.5),58,48,43,41,34,108,,,,11,14,16,14,0.9,0.9
2024-02-13T0500,3684A,130.8781,45.8222,七台河市,新建矿广场,,50,46,47,35,40,105,,,,15,20,10,21,0.7,0.7
2024-02-13T0500,1779A,123.9305,47.3636,齐齐哈尔市,安居小区,颗粒物(PM10),71,92,92,47,16,47,,,,12,11,7,8,0.7,0.5
2024-02-13T0500,1780A,123.9488,47.3386,齐齐哈尔市,中心广场,颗粒物(PM10),77,104,100,49,24,51,,,,12,9,6,9,1.0,0.5
2024-02-13T0500,1781A,123.9483,47.3227,齐齐哈尔市,农牧车辆厂,颗粒物(PM10),81,112,95,41,19,50,,,,13,10,8,13,0.7,0.5
2024-02-13T0500,1783A,123.945,47.2988,齐齐哈尔市,市环境监测站,颗粒物(PM10),88,126,108,52,22,51,,,,15,7,4,5,0.8,0.5
2024-02-13T0500,3662A,123.6333,47.2075,齐齐哈尔市,富区青少年活动中心,颗粒物(PM10),68,86,132,44,22,48,,,,12,17,10,33,0.7,1.2
2024-02-13T0500,2591A,107.9783,26.5747,黔东南苗族侗族自治州,市环境监测站,,35,34,34,24,24,107,,,,5,7,7,7,0.4,0.4
2024-02-13T0500,2881A,107.8908,26.5311,黔东南苗族侗族自治州,凯里学院,,36,32,29,24,22,115,,,,3,3,6,6,0.5,0.5
2024-02-13T0500,2593A,107.5228,26.2403,黔南布依族苗族自治州,小围寨,,33,29,24,19,17,105,,,,6,5,6,6,0.2,0.3
2024-02-13T0500,3538A,107.5175,26.2978,黔南布依族苗族自治州,沙坝,,35,29,25,24,19,99,,,,4,3,5,5,0.6,0.6
2024-02-13T0500,2589A,104.9022,25.0925,黔西南布依族苗族自治州,场坝街,,39,,30,27,23,40,,,,9,6,2,2,0.5,0.5
2024-02-13T0500,2590A,104.8811,25.0992,黔西南布依族苗族自治州,坪东大道,,48,48,38,32,25,29,,,,12,9,1,2,0.2,0.2
2024-02-13T0500,2502A,108.6236,21.9667,钦州市,市环保站,颗粒物(PM10),56,61,68,27,34,85,,,,8,13,7,8,0.7,0.8
2024-02-13T0500,2503A,108.6549,21.9481,钦州市,沙埠小学,颗粒物(PM10),56,62,61,36,51,85,,,,8,10,8,8,0.7,0.7
2024-02-13T0500,2504A,108.5989,21.7431,钦州市,港区一小,颗粒物(PM10),52,53,73,33,39,74,,,,14,14,8,10,0.9,0.7
2024-02-13T0500,3404A,108.5959,21.9633,钦州市,北职校,细颗粒物(PM2.5),54,53,63,38,45,61,,,,13,11,7,9,0.7,0.7
2024-02-13T0500,1042A,119.5134,39.8207,秦皇岛市,北戴河环保局,细颗粒物(PM2.5),195,214,183,146,124,40,,,,52,47,14,16,1.7,1.4
2024-02-13T0500,1043A,119.7493,40.0116,秦皇岛市,第一关,细颗粒物(PM2.5),218,244,194,168,132,22,,,,56,44,14,20,1.9,1.6
2024-02-13T0500,1044A,119.5897,39.9499,秦皇岛市,监测站,细颗粒物(PM2.5),163,176,173,124,116,66,,,,32,45,18,17,2.3,1.7
2024-02-13T0500,1046A,119.5251,39.9041,秦皇岛市,建设大厦,细颗粒物(PM2.5),144,192,173,110,104,79,,,,23,31,20,14,2.4,1.5
2024-02-13T0500,3132A,119.610547,39.943889,秦皇岛市,文明里,细颗粒物(PM2.5),159,219,199,121,108,45,,,,48,51,13,14,2.0,1.6
2024-02-13T0500,1307A,120.6659,36.2403,青岛市,仰口,细颗粒物(PM2.5),62,70,104,44,64,99,,,,15,20,2,3,1.0,1.1
2024-02-13T0500,1310A,120.4134,36.0658,青岛市,市南区东部子站,颗粒物(PM10),78,105,141,44,89,85,,,,21,27,7,8,0.8,1
2024-02-13T0500,1311A,120.3664,36.1032,青岛市,四方区子站,细颗粒物(PM2.5),77,90,131,56,92,90,,,,22,30,6,7,1.1,1.3
2024-02-13T0500,1312A,120.2994,36.054,青岛市,市南区西部子站,细颗粒物(PM2.5),74,92,138,54,88,77,,,,30,27,7,8,1.0,1.2
2024-02-13T0500,1313A,120.4581,36.0858,青岛市,崂山区子站,颗粒物(PM10),71,92,143,46,89,81,,,,12,18,6,8,0.8,1
2024-02-13T0500,1314A,120.1983,35.9608,青岛市,黄岛区子站,细颗粒物(PM2.5),83,95,138,61,93,80,,,,23,24,6,7,0.8,1
2024-02-13T0500,1315A,120.3999,36.3083,青岛市,城阳区子站,颗粒物(PM10),64,78,121,37,53,91,,,,17,21,6,8,0.7,0.9
2024-02-13T0500,1966A,120.0405,35.8735,青岛市,黄岛区4号,细颗粒物(PM2.5),85,102,141,63,97,81,,,,17,20,7,8,0.9,1.1
2024-02-13T0500,3362A,120.5014,36.4034,青岛市,即墨2号,细颗粒物(PM2.5),67,80,125,48,70,88,,,,18,19,9,10,0.9,1
2024-02-13T0500,3642A,120.3503,36.0736,青岛市,市北区南部,颗粒物(PM10),79,108,155,56,90,88,,,,22,23,7,7,0.7,0.8
2024-02-13T0500,3643A,120.3948,36.1805,青岛市,李沧区北部,细颗粒物(PM2.5),83,83,132,61,92,95,,,,21,26,9,10,0.8,1
2024-02-13T0500,1702A,113.0426,23.691,清远市,环保大楼,细颗粒物(PM2.5),82,64,57,60,48,48,,,,7,11,4,4,0.9,0.9
2024-02-13T0500,1703A,113.0208,23.7106,清远市,凤城街办,细颗粒物(PM2.5),72,71,65,52,48,35,,,,21,25,6,7,0.6,0.7
2024-02-13T0500,3318A,112.9903,23.7403,清远市,清新太和,颗粒物(PM10),52,54,47,30,30,54,,,,16,14,8,8,0.5,0.4
2024-02-13T0500,3455A,113.076,23.7198,清远市,清城东城,细颗粒物(PM2.5),60,56,44,43,32,41,,,,11,11,8,9,0.6,0.6
2024-02-13T0500,2661A,107.6325,35.7357,庆阳市,庆阳五中,,49,46,80,34,54,90,,,,9,15,9,13,1.0,0.8
2024-02-13T0500,2662A,107.6364,35.7067,庆阳市,市环保局,,46,45,79,32,49,105,,,,4,14,4,19,0.5,0.6
2024-02-13T0500,1916A,103.7897,25.5035,曲靖市,环境监测站,,31,31,30,20,20,66,,,,5,5,2,2,0.8,0.7
2024-02-13T0500,1917A,103.8,25.5364,曲靖市,烟厂办公区,,37,37,32,20,18,64,,,,5,5,4,4,0.7,0.6
2024-02-13T0500,3376A,103.7947,25.462,曲靖市,南苑二区,,37,37,34,22,21,61,,,,6,6,4,4,0.7,0.7
2024-02-13T0500,3377A,103.7444,25.5261,曲靖市,曲靖师范学院,细颗粒物(PM2.5),57,49,34,40,28,53,,,,16,7,13,7,0.6,0.5
2024-02-13T0500,1264A,118.8692,28.9398,衢州市,环保大楼,"颗粒物(PM10),细颗粒物(PM2.5)",52,53,54,36,35,30,,,,16,16,5,6,0.5,0.6
2024-02-13T0500,1265A,118.8709,28.9666,衢州市,实验学校,颗粒物(PM10),51,51,53,33,35,28,,,,9,10,5,4,0.1,0.2
2024-02-13T0500,1266A,118.8621,28.9808,衢州市,衢州学院,,47,47,52,32,33,16,,,,21,13,5,6,0.1,0.2
2024-02-13T0500,1611A,118.5819,24.9117,泉州市,涂山街,细颗粒物(PM2.5),72,64,58,52,43,58,,,,8,9,2,3,0.7,0.7
2024-02-13T0500,1612A,118.5972,24.8978,泉州市,津头埔,细颗粒物(PM2.5),74,61,61,54,46,56,,,,11,13,4,4,0.7,0.7
2024-02-13T0500,1613A,118.6663,24.9424,泉州市,万安,细颗粒物(PM2.5),55,54,53,39,34,67,,,,7,9,3,3,0.3,0.4
2024-02-13T0500,3529A,118.6333,24.9264,泉州市,城华南路,细颗粒物(PM2.5),63,63,50,45,33,63,,,,4,4,3,4,0.5,0.5
2024-02-13T0500,2626A,88.8876,29.2718,日喀则市,日喀则监测站,,23,21,26,16,12,36,,,,13,17,5,6,0.7,0.7
2024-02-13T0500,3726A,88.8781,29.2426,日喀则市,林业技术推广中心,,12,12,13,8,6,38,,,,10,7,7,7,0.6,0.5
2024-02-13T0500,1659A,119.471,35.4209,日照市,监测站,细颗粒物(PM2.5),84,85,133,62,85,5,,,,48,50,9,14,1.6,1.3
2024-02-13T0500,1660A,119.523,35.4216,日照市,市政府广场,细颗粒物(PM2.5),77,97,136,56,77,40,,,,43,45,10,12,1.0,1
2024-02-13T0500,1661A,119.5587,35.4044,日照市,港务局,颗粒物(PM10),93,136,153,56,82,18,,,,69,54,6,9,0.7,0.8
2024-02-13T0500,3507A,119.5328,35.4625,日照市,职业技术学院,颗粒物(PM10),78,105,130,48,72,36,,,,55,40,8,10,1.1,1.2
2024-02-13T0500,3604A,119.3266,35.1044,日照市,岚山环保分局,细颗粒物(PM2.5),70,85,104,51,58,76,,,,24,23,18,15,0.9,0.7
2024-02-13T0500,1835A,111.1922,34.7752,三门峡市,市政府,细颗粒物(PM2.5),80,63,108,59,64,21,,,,30,38,10,18,1.0,1.1
2024-02-13T0500,1836A,111.1587,34.7942,三门峡市,开发区,细颗粒物(PM2.5),80,92,122,59,71,12,,,,43,26,8,17,1.0,1
2024-02-13T0500,3039A,111.1911,34.7829,三门峡市,三门峡市第一小学,细颗粒物(PM2.5),93,86,118,69,68,30,,,,30,32,5,11,1.2,1.1
2024-02-13T0500,3598A,111.1,34.7167,三门峡市,富达温泉假日酒店,细颗粒物(PM2.5),65,,108,47,62,39,,,,18,26,8,17,0.8,1.1
2024-02-13T0500,2324A,117.6211,26.2625,三明市,三钢,,29,,36,20,28,28,,,,6,10,5,7,0.2,0.4
2024-02-13T0500,2325A,117.635,26.2714,三明市,三明二中,,33,27,40,23,26,26,,,,10,12,5,7,0.5,0.6
2024-02-13T0500,2326A,117.6028,26.2378,三明市,三元区政府,,28,22,39,19,27,18,,,,8,15,6,13,1.1,1.3
2024-02-13T0500,1876A,109.5078,18.2489,三亚市,河东子站,,36,36,33,19,18,89,,,,3,4,4,4,0.4,0.4
2024-02-13T0500,1877A,109.4964,18.2681,三亚市,河西子站,,33,33,34,14,17,85,,,,2,4,3,4,0.5,0.6
2024-02-13T0500,3540A,109.7348,18.3443,三亚市,君悦子站,,35,35,44,18,19,74,,,,6,7,4,4,0.4,0.4
2024-02-13T0500,2624A,91.7608,29.2313,山南市,山南监测站,,17,13,22,3,10,52,,,,7,6,5,6,0.4,0.4
2024-02-13T0500,2625A,91.7706,29.2436,山南市,山南人民医院,,19,12,18,4,9,60,,,,7,5,4,4,0.2,0.2
2024-02-13T0500,1674A,116.6794,23.3667,汕头市,金平子站,细颗粒物(PM2.5),69,,51,50,37,77,,,,7,5,7,7,0.8,0.7
2024-02-13T0500,1675A,116.7244,23.3633,汕头市,龙湖子站,细颗粒物(PM2.5),54,49,47,38,32,77,,,,13,11,8,8,0.8,0.7
2024-02-13T0500,1676A,116.7258,23.2775,汕头市,濠江子站,细颗粒物(PM2.5),64,71,48,46,38,66,,,,13,9,9,9,0.8,0.7
2024-02-13T0500,1677A,116.7519,23.4714,汕头市,澄海子站,细颗粒物(PM2.5),73,,43,53,38,69,,,,14,11,8,8,0.5,0.4
2024-02-13T0500,1678A,116.6092,23.2539,汕头市,潮阳子站,细颗粒物(PM2.5),57,61,59,40,41,60,,,,11,9,9,10,1.1,1
2024-02-13T0500,3444A,116.454,23.2684,汕头市,潮南峡山,细颗粒物(PM2.5),119,127,76,90,52,61,,,,13,10,10,10,0.7,0.5
2024-02-13T0500,3624A,116.4069,23.2533,汕头市,潮南子站,细颗粒物(PM2.5),176,166,106,133,80,54,,,,8,6,10,10,0.8,0.7
2024-02-13T0500,1693A,115.3653,22.775,汕尾市,市环保局,细颗粒物(PM2.5),67,71,50,48,36,84,,,,7,6,8,8,0.6,0.5
2024-02-13T0500,1694A,115.3706,22.7898,汕尾市,市政府,细颗粒物(PM2.5),63,64,49,45,37,82,,,,6,5,6,6,0.6,0.5
2024-02-13T0500,1695A,115.3622,22.7925,汕尾市,新城中学,细颗粒物(PM2.5),69,67,59,50,43,81,,,,8,8,6,6,0.6,0.6
2024-02-13T0500,2645A,109.9154,33.8715,商洛市,监测站,细颗粒物(PM2.5),75,74,79,55,50,33,,,,8,14,6,9,0.6,0.7
2024-02-13T0500,3045A,109.9643,33.8471,商洛市,商州区中学,细颗粒物(PM2.5),69,61,66,50,43,36,,,,13,12,5,7,0.6,0.5
2024-02-13T0500,2408A,115.6702,34.4285,商丘市,环境监测站,细颗粒物(PM2.5),79,80,91,58,53,76,,,,7,7,11,11,0.5,0.5
2024-02-13T0500,2409A,115.6458,34.4045,商丘市,粮食局,细颗粒物(PM2.5),78,79,90,57,52,77,,,,4,4,13,12,0.7,0.6
2024-02-13T0500,2410A,115.6293,34.3948,商丘市,睢阳区环保局,细颗粒物(PM2.5),79,70,92,58,52,73,,,,5,7,12,11,0.5,0.5
2024-02-13T0500,3171A,115.6071,34.4465,商丘市,梁园区档案局,细颗粒物(PM2.5),82,84,95,60,53,72,,,,5,10,11,11,0.7,0.5
2024-02-13T0500,1141A,121.4,31.238,上海市,普陀,颗粒物(PM10),61,71,95,27,43,95,,,,15,19,6,9,0.6,0.7
2024-02-13T0500,1142A,121.478,31.2036,上海市,十五厂,颗粒物(PM10),59,68,93,37,48,90,,,,12,16,6,8,0.6,0.7
2024-02-13T0500,1143A,121.467,31.3008,上海市,虹口,颗粒物(PM10),63,76,97,34,48,97,,,,16,20,7,7,0.5,0.6
2024-02-13T0500,1144A,121.412,31.1654,上海市,徐汇上师大,颗粒物(PM10),62,73,94,31,51,99,,,,13,20,8,10,0.5,0.6
