timepoint,stationcode,longitude,latitude,area,positionname,primarypollutant,aqi,pm10,pm10_24h,pm2_5,pm2_5_24h,o3,o3_24h,o3_8h,o3_8h_24h,no2,no2_24h,so2,so2_24h,co,co_24h
2024-02-13T2200,2566A,102.1879,31.914,阿坝藏族羌族自治州,州农科所,,13,,20,9,11,22,,26,25,7,7,7,8,0.8,0.9
2024-02-13T2200,2568A,102.2502,31.8896,阿坝藏族羌族自治州,马师校,,18,16,10,12,6,44,,76,70,16,4,4,4,0.7,0.5
2024-02-13T2200,3994A,102.2165,31.9024,阿坝藏族羌族自治州,马尔康中学西区,,17,,10,11,7,54,,73,69,5,2,5,5,0.5,0.4
2024-02-13T2200,2695A,80.292,41.1694,阿克苏地区,电视台,颗粒物(PM10),78,105,93,44,43,70,,93,91,29,35,9,9,0.9,1.2
2024-02-13T2200,2696A,80.2613,41.1551,阿克苏地区,艺术中心,颗粒物(PM10),89,128,113,40,56,66,,95,92,29,35,9,10,0.6,1.6
2024-02-13T2200,2204A,105.6467,38.8363,阿拉善盟,西城区西花园,颗粒物(PM10),57,63,48,37,18,92,,92,92,2,4,11,11,0.4,0.4
2024-02-13T2200,2205A,105.6985,38.8411,阿拉善盟,蒙二幼,颗粒物(PM10),76,102,44,22,12,87,,88,88,5,7,4,5,0.5,0.5
2024-02-13T2200,2206A,105.724,38.8516,阿拉善盟,环保局新楼,颗粒物(PM10),67,84,34,25,12,95,,94,94,5,4,5,5,0.4,0.5
2024-02-13T2200,2708A,88.1264,47.8517,阿勒泰地区,市站,,17,16,22,7,12,54,,70,64,27,19,4,6,0.4,0.3
2024-02-13T2200,2630A,80.1161,32.5,阿里地区,阿里监测站,,25,6,5,2,3,80,,88,87,6,4,11,7,0.5,0.4
2024-02-13T2200,3192A,80.0903,32.5028,阿里地区,阿里藏医院,,28,8,8,1,2,89,,93,92,2,2,5,5,0.4,0.4
2024-02-13T2200,2642A,109.0318,32.6537,安康市,香溪洞,颗粒物(PM10),53,55,56,35,41,85,,86,86,6,7,8,10,0.5,0.6
2024-02-13T2200,2643A,109.0281,32.6939,安康市,安康市监测站,细颗粒物(PM2.5),143,146,82,109,57,9,,66,44,46,22,14,12,1.8,1
2024-02-13T2200,2644A,109.0072,32.6975,安康市,汉滨区检察院,细颗粒物(PM2.5),73,75,58,53,45,45,,78,70,17,10,9,10,0.7,0.6
2024-02-13T2200,2291A,117.0809,30.5177,安庆市,环科院,颗粒物(PM10),52,54,52,35,35,53,,81,73,27,28,11,10,0.6,0.7
2024-02-13T2200,2292A,117.0331,30.5119,安庆市,马山宾馆,颗粒物(PM10),55,59,54,38,38,44,,84,70,48,37,8,8,0.4,0.4
2024-02-13T2200,2294A,116.9896,30.6145,安庆市,安庆大学,,38,38,43,23,28,82,,96,92,15,13,8,9,0.4,0.8
2024-02-13T2200,3173A,117.0598,30.5351,安庆市,市人大,颗粒物(PM10),55,59,56,34,39,59,,88,78,24,28,8,8,0.6,0.6
2024-02-13T2200,3123A,105.9408,26.2431,安顺市,凤凰山,细颗粒物(PM2.5),58,46,32,41,28,85,,94,92,10,8,20,18,0.6,0.4
2024-02-13T2200,3124A,105.9439,26.2564,安顺市,金钟山,细颗粒物(PM2.5),54,46,35,38,27,87,,93,93,8,6,20,18,0.6,0.5
2024-02-13T2200,3125A,105.8983,26.2481,安顺市,娄家坡,,50,45,34,35,28,89,,93,92,5,4,15,14,0.7,0.6
2024-02-13T2200,1819A,114.3551,36.1017,安阳市,红庙街,细颗粒物(PM2.5),210,181,132,160,89,37,,107,95,50,19,11,12,0.6,0.4
2024-02-13T2200,1820A,114.361,36.0681,安阳市,银杏小区,细颗粒物(PM2.5),204,225,123,154,105,41,,108,97,41,14,12,11,1.3,1.1
2024-02-13T2200,3141A,114.3922,36.0878,安阳市,信访局,细颗粒物(PM2.5),142,144,123,108,98,61,,115,108,28,14,9,8,0.7,0.7
2024-02-13T2200,3669A,114.4705,36.0637,安阳市,左辅环卫站,细颗粒物(PM2.5),130,137,119,99,88,75,,103,97,15,12,11,9,0.9,0.9
2024-02-13T2200,3703A,114.2917,36.0949,安阳市,安钢职工学校,细颗粒物(PM2.5),179,,141,135,99,51,,107,100,34,32,22,11,0.8,0.8
2024-02-13T2200,1748A,123.044,41.1196,鞍山市,深沟寺,细颗粒物(PM2.5),95,102,99,71,65,107,,106,102,8,10,7,11,0.6,0.7
2024-02-13T2200,1749A,123.011,41.0931,鞍山市,太阳城,细颗粒物(PM2.5),92,108,94,68,55,100,,112,103,12,11,11,13,0.7,0.8
2024-02-13T2200,1750A,123.0485,41.1442,鞍山市,太平,细颗粒物(PM2.5),87,96,101,64,64,110,,112,104,11,13,5,8,0.6,0.6
2024-02-13T2200,1751A,122.9642,41.0971,鞍山市,铁西三道街,细颗粒物(PM2.5),104,115,109,78,67,86,,103,89,21,22,8,18,0.8,0.9
2024-02-13T2200,1752A,122.9341,41.0833,鞍山市,铁西工业园区,细颗粒物(PM2.5),84,93,102,62,63,96,,106,98,16,16,10,15,0.8,1.2
2024-02-13T2200,1753A,123.022,41.0821,鞍山市,明达新区,细颗粒物(PM2.5),109,91,92,82,86,99,,104,98,9,11,10,14,0.7,0.7
2024-02-13T2200,2195A,107.4212,40.761,巴彦淖尔市,附二中,颗粒物(PM10),397,497,114,94,34,69,,84,83,12,10,17,12,0.5,0.5
2024-02-13T2200,2196A,107.37,40.7372,巴彦淖尔市,市环保大楼,颗粒物(PM10),342,453,116,88,30,55,,80,76,16,6,19,7,0.5,0.4
2024-02-13T2200,1956A,86.1472,41.7538,巴音郭楞蒙古自治州,孔雀公园,颗粒物(PM10),61,71,92,16,26,68,,86,75,18,15,4,5,0.4,0.4
2024-02-13T2200,1957A,86.1972,41.7166,巴音郭楞蒙古自治州,棉纺厂,颗粒物(PM10),65,80,110,7,24,64,,85,81,18,17,2,3,0.3,0.4
2024-02-13T2200,1958A,86.2357,41.7173,巴音郭楞蒙古自治州,经济开发区,颗粒物(PM10),53,55,84,14,23,83,,90,89,6,9,4,4,0.3,0.4
2024-02-13T2200,2914A,106.7677,31.8794,巴中市,苏山坪,细颗粒物(PM2.5),57,50,54,40,41,104,,104,104,6,7,6,6,0.3,0.4
2024-02-13T2200,3182A,106.7656,31.8545,巴中市,丽阳花园,细颗粒物(PM2.5),122,120,75,92,58,6,,69,52,54,31,9,5,1.3,0.9
2024-02-13T2200,3183A,106.7418,31.8654,巴中市,圣泉水务公司,细颗粒物(PM2.5),98,83,58,73,47,25,,79,64,41,20,5,5,0.9,0.7
2024-02-13T2200,3616A,106.7616,31.8344,巴中市,市中心医院,细颗粒物(PM2.5),105,102,70,79,56,4,,79,54,55,28,5,5,1.2,0.9
2024-02-13T2200,2235A,122.7911,45.6077,白城市,洮北区环保局,,24,23,111,9,30,75,,115,98,4,8,6,8,0.2,0.4
2024-02-13T2200,2236A,122.8738,45.5725,白城市,市环保局,,36,36,97,16,34,71,,78,73,5,7,7,8,0.3,0.5
2024-02-13T2200,2231A,126.4219,41.9171,白山市,喜丰,细颗粒物(PM2.5),70,86,101,51,51,93,,101,96,12,11,18,17,1.3,1.3
2024-02-13T2200,2232A,126.4077,41.9419,白山市,环保局,细颗粒物(PM2.5),113,125,110,85,69,61,,105,88,31,20,21,14,1.8,1.3
2024-02-13T2200,2647A,104.1724,36.5446,白银市,第三小学,颗粒物(PM10),125,200,92,17,38,90,,94,94,3,25,5,49,0.2,0.8
2024-02-13T2200,2648A,104.1465,36.5482,白银市,动力公司,颗粒物(PM10),105,159,78,18,40,91,,96,96,8,22,5,30,0.4,0.8
2024-02-13T2200,2512A,106.6103,23.9011,百色市,市监测站,细颗粒物(PM2.5),67,76,66,48,43,60,,93,87,15,13,11,16,0.9,0.8
2024-02-13T2200,2513A,106.6538,23.8859,百色市,市中心血站,细颗粒物(PM2.5),60,52,54,43,42,78,,88,86,9,12,20,18,0.7,0.6
2024-02-13T2200,3406A,106.6085,23.8798,百色市,祈福高中,细颗粒物(PM2.5),68,58,53,49,43,70,,92,87,12,13,15,16,0.8,0.8
2024-02-13T2200,2270A,117.396,32.939,蚌埠市,工人疗养院,颗粒物(PM10),54,57,44,32,24,75,,94,90,11,7,8,7,0.6,0.5
2024-02-13T2200,2271A,117.3605,32.9427,蚌埠市,百货大楼,细颗粒物(PM2.5),60,68,48,43,27,66,,92,86,27,13,5,4,0.8,0.7
2024-02-13T2200,2273A,117.4185,32.8911,蚌埠市,蚌埠学院,细颗粒物(PM2.5),55,56,44,39,28,66,,91,84,12,8,7,6,0.7,0.6
2024-02-13T2200,2274A,117.3533,32.9673,蚌埠市,淮上区政府,细颗粒物(PM2.5),64,73,47,46,27,73,,92,88,17,10,8,6,0.6,0.6
2024-02-13T2200,2275A,117.3145,32.8977,蚌埠市,高新区,细颗粒物(PM2.5),54,53,45,38,30,78,,94,90,8,8,6,5,0.6,0.6
2024-02-13T2200,3715A,117.3092,32.9314,蚌埠市,蚌埠田家炳中学,颗粒物(PM10),55,60,54,36,30,80,,94,89,14,15,8,12,0.4,0.4
2024-02-13T2200,1585A,109.8756,40.6532,包头市,市环境监测站,颗粒物(PM10),79,107,103,38,63,73,,72,70,10,48,8,26,0.5,1.7
2024-02-13T2200,1587A,109.9991,40.5842,包头市,包头八中,颗粒物(PM10),90,129,128,24,81,74,,73,67,11,51,7,32,0.6,2
2024-02-13T2200,1588A,109.8538,40.6821,包头市,青山宾馆,颗粒物(PM10),70,90,103,24,67,73,,76,75,10,45,9,26,0.5,1.8
2024-02-13T2200,1589A,109.8642,40.6288,包头市,惠龙物流,颗粒物(PM10),74,98,100,46,59,73,,79,77,8,46,10,31,0.3,1.5
2024-02-13T2200,1590A,110.0377,40.5546,包头市,东河鸿龙湾,颗粒物(PM10),79,107,124,39,79,68,,82,71,17,47,9,20,0.5,1.5
2024-02-13T2200,3283A,109.9154,40.5685,包头市,滨河大厦,颗粒物(PM10),66,81,101,26,66,71,,83,78,12,41,10,25,0.6,1.5
2024-02-13T2200,3419A,109.9447,40.6261,包头市,包头市委党校,颗粒物(PM10),68,86,83,36,46,76,,79,77,5,36,9,27,0.4,1.3
2024-02-13T2200,3683A,109.8331,40.6576,包头市,昆区政府,颗粒物(PM10),70,90,105,37,82,71,,72,70,9,46,11,32,0.4,1.7
2024-02-13T2200,1930A,107.185,34.3063,宝鸡市,庙沟村,细颗粒物(PM2.5),105,110,85,79,62,101,,115,115,12,10,7,7,0.9,0.8
2024-02-13T2200,1931A,107.0708,34.3017,宝鸡市,竹园沟,细颗粒物(PM2.5),105,89,77,79,58,69,,112,102,22,19,5,6,0.8,0.7
2024-02-13T2200,1932A,107.1906,34.3672,宝鸡市,三陆医院,细颗粒物(PM2.5),189,170,103,142,80,40,,128,110,73,32,9,8,1.0,0.8
2024-02-13T2200,1933A,107.1431,34.3547,宝鸡市,监测站,细颗粒物(PM2.5),122,140,91,92,69,66,,119,109,30,22,6,5,0.9,0.7
2024-02-13T2200,1934A,107.1186,34.3739,宝鸡市,技工学校,细颗粒物(PM2.5),145,128,99,111,73,77,,122,114,31,26,11,9,0.9,0.8
2024-02-13T2200,1935A,107.3906,34.3528,宝鸡市,陈仓区环保局家属楼,细颗粒物(PM2.5),236,258,140,186,110,20,,133,110,93,44,20,32,1.5,1.2
2024-02-13T2200,1936A,107.2058,34.3497,宝鸡市,文理学院,细颗粒物(PM2.5),134,151,106,102,76,61,,127,114,49,30,12,10,0.9,0.8
2024-02-13T2200,1937A,107.2386,34.3622,宝鸡市,三迪小学,细颗粒物(PM2.5),142,153,113,108,82,52,,124,110,61,33,11,10,0.9,0.8
2024-02-13T2200,1051A,115.493,38.8632,保定市,游泳馆,细颗粒物(PM2.5),223,255,209,173,137,55,,128,112,60,34,11,10,1.5,1.2
2024-02-13T2200,1052A,115.5213,38.8959,保定市,华电二区,细颗粒物(PM2.5),268,244,154,218,129,79,,127,121,41,18,10,9,1.0,0.8
2024-02-13T2200,1053A,115.4713,38.9108,保定市,接待中心,细颗粒物(PM2.5),228,228,159,178,124,67,,117,108,35,18,8,9,1.3,1
2024-02-13T2200,1054A,115.4612,38.8416,保定市,地表水厂,细颗粒物(PM2.5),222,257,193,172,134,20,,124,98,115,46,8,8,1.7,1.5
2024-02-13T2200,3581A,115.31981,38.95208,保定市,满城区生态环境分局,细颗粒物(PM2.5),254,254,188,204,142,27,,130,96,79,44,12,9,1.6,1.4
2024-02-13T2200,3582A,115.47694,38.76408,保定市,清苑区第二中学,细颗粒物(PM2.5),185,222,202,139,126,100,,130,124,30,36,16,12,1.2,1.1
2024-02-13T2200,3583A,115.62909,39.02311,保定市,徐水物探局,细颗粒物(PM2.5),185,224,189,139,123,68,,120,109,45,26,7,9,1.1,1
2024-02-13T2200,4004A,115.4202,38.8656,保定市,双鹰农机,细颗粒物(PM2.5),188,184,155,141,117,95,,132,124,27,31,8,11,1.1,1
2024-02-13T2200,4034A,115.5150,38.8590,保定市,植保所站,细颗粒物(PM2.5),218,179,159,168,136,71,,124,108,60,37,7,7,1.0,0.9
2024-02-13T2200,2594A,99.1678,25.1081,保山市,市环境监测站,,36,33,30,25,20,76,,92,86,6,6,7,6,0.5,0.4
2024-02-13T2200,2595A,99.1711,25.1328,保山市,市环保局,,33,27,31,23,22,84,,95,91,3,4,7,7,0.4,0.5
2024-02-13T2200,1867A,109.1436,21.4086,北海市,海滩公园,颗粒物(PM10),52,53,59,22,25,86,,106,100,7,8,7,7,0.6,0.6
2024-02-13T2200,1868A,109.0981,21.4661,北海市,新市环保局,颗粒物(PM10),51,52,52,34,25,85,,101,98,9,9,6,6,0.2,0.3
2024-02-13T2200,1869A,109.1778,21.5233,北海市,北海工业园,颗粒物(PM10),52,53,59,27,30,90,,105,100,7,8,6,7,0.3,0.4
2024-02-13T2200,3400A,109.1911,21.4415,北海市,龙潭自来水厂,,50,50,53,27,27,87,,100,95,4,6,7,7,0.4,0.5
2024-02-13T2200,1001A,116.3621,39.8784,北京市,万寿西宫,细颗粒物(PM2.5),189,189,163,142,121,19,,123,98,128,57,5,5,1.5,1
2024-02-13T2200,1002A,116.2202,40.2915,北京市,定陵,细颗粒物(PM2.5),134,138,126,102,95,86,,110,108,16,16,3,4,0.8,0.7
2024-02-13T2200,1003A,116.4174,39.9289,北京市,东四,细颗粒物(PM2.5),192,205,178,144,125,19,,115,94,117,50,10,9,2.1,1.2
2024-02-13T2200,1004A,116.4072,39.8863,北京市,天坛,细颗粒物(PM2.5),182,184,160,137,119,33,,116,91,56,48,3,4,1.3,1.1
2024-02-13T2200,1005A,116.462,39.9365,北京市,农展馆,细颗粒物(PM2.5),172,185,176,130,122,63,,113,98,56,50,3,4,1.2,1
2024-02-13T2200,1006A,116.3392,39.9295,北京市,官园,细颗粒物(PM2.5),166,177,160,126,114,57,,129,111,72,46,6,6,1.3,1
2024-02-13T2200,1007A,116.2878,39.9611,北京市,海淀万柳,细颗粒物(PM2.5),150,171,139,115,98,33,,110,85,90,52,1,3,1.0,0.7
2024-02-13T2200,1008A,116.6636,40.135,北京市,顺义新城,细颗粒物(PM2.5),176,187,167,133,117,120,,136,134,25,24,3,3,0.9,0.8
2024-02-13T2200,1009A,116.6275,40.3275,北京市,怀柔镇,细颗粒物(PM2.5),158,172,139,120,100,85,,115,106,30,23,7,7,1.0,0.8
2024-02-13T2200,1011A,116.3966,39.9821,北京市,奥体中心,细颗粒物(PM2.5),143,162,137,109,103,16,,113,77,137,61,7,7,1.3,0.9
2024-02-13T2200,1012A,116.184,39.9136,北京市,古城,细颗粒物(PM2.5),149,167,135,114,94,41,,114,97,57,33,2,3,1.2,0.9
2024-02-13T2200,3281A,115.9718,40.4529,北京市,延庆夏都,细颗粒物(PM2.5),134,149,111,102,85,16,,87,66,58,26,2,4,1.2,1
2024-02-13T2200,3417A,117.0709,40.1465,北京市,平谷新城,细颗粒物(PM2.5),228,263,193,178,135,44,,125,104,40,17,3,4,1.8,1.1
2024-02-13T2200,3418A,116.8336,40.4095,北京市,密云新城,细颗粒物(PM2.5),176,208,166,133,110,81,,132,122,28,21,1,4,0.9,0.8
2024-02-13T2200,3672A,116.1541,39.8204,北京市,丰台云岗,细颗粒物(PM2.5),133,150,132,101,94,125,,137,137,17,22,3,3,0.7,0.6
2024-02-13T2200,3673A,116.6804,39.9081,北京市,通州东关,细颗粒物(PM2.5),172,191,191,130,135,63,,123,111,62,43,5,5,1.3,1
2024-02-13T2200,3674A,115.9577,39.7603,北京市,房山燕山,细颗粒物(PM2.5),143,132,105,109,85,105,,141,129,25,19,3,3,0.7,0.6
2024-02-13T2200,3675A,116.4672,39.7733,北京市,大兴旧宫,细颗粒物(PM2.5),170,177,168,129,125,89,,123,118,18,34,3,3,0.9,0.8
2024-02-13T2200,3694A,115.986,40.4563,北京市,延庆石河营,细颗粒物(PM2.5),132,140,106,100,82,27,,94,74,52,28,1,4,1.1,1
2024-02-13T2200,3695A,116.6151,40.3053,北京市,怀柔新城,细颗粒物(PM2.5),144,163,134,110,94,91,,122,118,21,20,2,3,0.8,0.7
2024-02-13T2200,3696A,116.2545,39.8768,北京市,丰台小屯,细颗粒物(PM2.5),172,201,156,130,107,16,,121,95,99,54,1,3,1.1,0.9
2024-02-13T2200,3697A,116.84,40.3844,北京市,密云镇,细颗粒物(PM2.5),223,221,179,173,135,66,,114,95,41,35,2,3,1.0,0.9
2024-02-13T2200,1761A,123.8275,41.3064,本溪市,大峪,细颗粒物(PM2.5),77,88,90,56,55,83,,105,91,19,17,10,9,1.0,1
2024-02-13T2200,1762A,123.7567,41.3325,本溪市,溪湖,细颗粒物(PM2.5),72,88,107,52,64,92,,99,97,18,17,18,22,1.4,1.1
2024-02-13T2200,1763A,123.7169,41.3094,本溪市,彩屯,细颗粒物(PM2.5),79,82,115,58,73,70,,83,77,50,36,40,33,3.0,2.7
2024-02-13T2200,1764A,123.7669,41.2864,本溪市,东明,细颗粒物(PM2.5),103,114,85,77,64,78,,98,91,28,18,13,14,0.9,0.6
2024-02-13T2200,1765A,123.7992,41.2664,本溪市,新立屯,细颗粒物(PM2.5),55,52,77,39,48,105,,111,110,13,13,11,12,0.5,0.6
2024-02-13T2200,1766A,123.8142,41.3472,本溪市,威宁,细颗粒物(PM2.5),73,74,90,53,55,59,,98,82,29,19,6,14,0.7,0.7
2024-02-13T2200,2587A,105.2864,27.3125,毕节市,八中,细颗粒物(PM2.5),125,109,61,95,52,30,,97,82,41,12,16,11,1.3,0.7
2024-02-13T2200,2588A,105.31,27.2944,毕节市,师专,细颗粒物(PM2.5),104,93,66,78,57,55,,101,95,34,16,16,11,1.0,0.8
2024-02-13T2200,3537A,105.3631,27.3533,毕节市,长征村,细颗粒物(PM2.5),64,60,77,46,60,100,,113,112,10,8,16,12,0.8,0.8
2024-02-13T2200,1629A,118.0018,37.3617,滨州市,第二水厂,细颗粒物(PM2.5),78,85,94,57,57,90,,121,112,24,23,11,14,1.0,1.1
2024-02-13T2200,1630A,117.9776,37.393,滨州市,北中新校,细颗粒物(PM2.5),97,138,97,72,54,46,,117,86,59,29,14,16,1.5,1
2024-02-13T2200,3514A,117.9378,37.3956,滨州市,中海酒店,细颗粒物(PM2.5),112,121,82,84,54,35,,117,89,70,26,16,20,1.1,0.9
2024-02-13T2200,3515A,117.9378,37.3553,滨州市,开发区一中,细颗粒物(PM2.5),84,90,97,62,61,95,,119,113,17,19,18,22,0.8,0.8
2024-02-13T2200,3516A,118.0917,37.694,滨州市,金海六路,细颗粒物(PM2.5),176,184,119,133,74,51,,119,93,52,25,22,38,1.2,0.9
2024-02-13T2200,4028A,117.9956,37.3753,滨州市,滨州市西街道办事处,细颗粒物(PM2.5),147,167,105,112,65,21,,113,83,71,30,17,19,1.6,1
2024-02-13T2200,2311A,115.8072,33.8399,亳州市,污水处理厂,细颗粒物(PM2.5),70,79,73,51,49,67,,97,89,14,11,9,7,0.7,0.7
2024-02-13T2200,2312A,115.7789,33.8518,亳州市,三国揽胜宫,颗粒物(PM10),63,75,79,41,43,74,,98,90,14,12,10,8,0.7,0.7
2024-02-13T2200,3332A,115.7633,33.8034,亳州市,亳州学院,细颗粒物(PM2.5),69,76,71,50,45,69,,98,90,10,8,9,7,1.0,1
2024-02-13T2200,2693A,82.0485,44.8556,博尔塔拉蒙古自治州,市党校,颗粒物(PM10),57,64,42,33,26,80,,83,83,13,16,9,13,0.6,0.6
2024-02-13T2200,2694A,82.0806,44.8969,博尔塔拉蒙古自治州,市环保局,颗粒物(PM10),52,53,45,25,25,72,,79,79,14,18,5,7,0.3,0.5
2024-02-13T2200,1071A,116.8842,38.2991,沧州市,沧县城建局,细颗粒物(PM2.5),237,202,131,187,88,41,,101,79,65,25,10,9,1.7,1.3
2024-02-13T2200,1072A,116.8584,38.3254,沧州市,电视转播站,细颗粒物(PM2.5),250,250,122,200,84,9,,108,90,83,18,17,16,1.5,0.9
2024-02-13T2200,1073A,116.8709,38.3228,沧州市,市环保局,细颗粒物(PM2.5),244,249,128,194,87,18,,100,76,72,26,12,12,1.3,0.9
2024-02-13T2200,3324A,116.8136,38.3004,沧州市,河北水利电力学院,细颗粒物(PM2.5),128,146,123,97,79,67,,106,100,31,16,18,19,0.9,0.8
2024-02-13T2200,2622A,97.1806,31.1273,昌都市,昌都监测站,细颗粒物(PM2.5),59,54,22,42,12,14,,69,59,58,15,10,7,1.4,0.4
2024-02-13T2200,3719A,97.1714,31.1406,昌都市,昌都会议中心,,19,,9,13,8,60,,80,76,11,5,5,4,0.4,0.3
2024-02-13T2200,2690A,88.1236,43.8886,昌吉回族自治州,天山天池,,25,,15,14,12,77,,85,81,4,6,8,8,0.6,0.6
2024-02-13T2200,2692A,87.2717,44.0297,昌吉回族自治州,新区政务中心,细颗粒物(PM2.5),58,54,67,41,52,77,,100,99,23,19,6,6,0.9,1.1
2024-02-13T2200,3613A,87.3095,44.0142,昌吉回族自治州,亚心广场,,,39,62,31,50,87,,102,101,17,13,,6,0.6,0.8
2024-02-13T2200,1119A,125.3325,43.9166,长春市,食品厂,颗粒物(PM10),102,153,115,25,66,49,,100,76,20,16,6,16,0.3,0.6
2024-02-13T2200,1120A,125.2863,43.9027,长春市,客车厂,颗粒物(PM10),99,148,112,17,62,48,,94,70,19,16,8,18,0.5,0.8
2024-02-13T2200,1121A,125.2841,43.8463,长春市,邮电学院,颗粒物(PM10),116,181,125,21,67,53,,98,78,17,21,9,23,0.4,0.8
2024-02-13T2200,1122A,125.3716,43.8772,长春市,劳动公园,颗粒物(PM10),93,135,113,19,57,51,,87,70,21,18,5,11,0.2,0.6
2024-02-13T2200,1123A,125.3297,43.8805,长春市,园林处,颗粒物(PM10),98,146,108,5,55,55,,102,80,13,15,13,16,0.3,0.9
2024-02-13T2200,1124A,125.4605,43.79,长春市,净月潭,颗粒物(PM10),101,152,102,10,55,56,,104,85,11,9,7,9,0.3,0.6
2024-02-13T2200,1126A,125.3863,43.8447,长春市,经开区环卫处,颗粒物(PM10),93,136,110,14,58,48,,103,76,22,13,21,13,0.3,0.7
2024-02-13T2200,1127A,125.245,43.7783,长春市,高新区管委会,颗粒物(PM10),121,192,112,23,67,51,,105,83,17,11,14,18,0.7,1
2024-02-13T2200,1128A,125.1761,43.8325,长春市,岱山公园,颗粒物(PM10),96,142,108,17,64,61,,98,81,10,12,4,10,0.4,0.8
2024-02-13T2200,1335A,113.0833,28.2325,长沙市,经开区环保局,颗粒物(PM10),55,59,50,37,32,67,,82,74,5,3,6,5,0.6,0.5
2024-02-13T2200,1336A,112.8872,28.2189,长沙市,高开区环保局,颗粒物(PM10),56,62,54,33,36,65,,76,69,10,7,7,5,0.6,0.7
2024-02-13T2200,1337A,113.0792,28.2053,长沙市,马坡岭,细颗粒物(PM2.5),62,66,58,44,44,57,,70,58,4,4,8,8,0.6,0.6
2024-02-13T2200,1338A,112.9394,28.19,长沙市,湖南师范大学,细颗粒物(PM2.5),58,56,55,41,40,54,,61,56,14,12,8,7,0.7,0.8
2024-02-13T2200,1339A,113.0178,28.1322,长沙市,雨花区环保局,颗粒物(PM10),58,65,53,37,36,60,,64,62,7,6,6,5,0.5,0.7
2024-02-13T2200,1340A,112.9792,28.2597,长沙市,伍家岭,细颗粒物(PM2.5),92,108,75,68,49,40,,41,38,22,21,8,6,0.6,0.7
2024-02-13T2200,1341A,113.0014,28.1944,长沙市,火车新站,,,78,59,58,38,,,53,45,20,19,,5,0.8,0.8
2024-02-13T2200,1342A,112.9844,28.1178,长沙市,天心区环保局,细颗粒物(PM2.5),63,71,55,45,34,56,,69,65,12,6,7,6,0.5,0.4
2024-02-13T2200,1343A,112.8908,28.1308,长沙市,湖南中医药大学,细颗粒物(PM2.5),92,108,65,68,47,36,,60,48,30,18,8,6,0.9,0.8
2024-02-13T2200,1344A,112.9581,28.3611,长沙市,沙坪,细颗粒物(PM2.5),54,44,42,38,34,38,,46,42,12,9,7,6,0.6,0.6
2024-02-13T2200,1727A,113.1147,36.1547,长治市,清华站,细颗粒物(PM2.5),149,151,74,114,50,45,,106,89,35,24,18,25,0.8,0.9
2024-02-13T2200,1728A,113.1031,36.1989,长治市,监测站,颗粒物(PM10),81,111,96,56,55,52,,99,79,36,37,28,29,1.8,1.1
2024-02-13T2200,1730A,113.0886,36.2125,长治市,审计局,细颗粒物(PM2.5),83,102,70,61,49,57,,100,86,32,27,27,30,1.5,1.1
2024-02-13T2200,1731A,113.0844,36.1856,长治市,长治八中,细颗粒物(PM2.5),112,156,77,84,44,25,,103,78,62,33,20,24,1.3,1.1
2024-02-13T2200,2845A,113.1569,36.1911,长治市,德盛苑,细颗粒物(PM2.5),55,57,61,39,43,96,,114,107,14,18,23,30,1.1,1.2
2024-02-13T2200,3568A,113.06,36.0464,长治市,向阳小学,细颗粒物(PM2.5),87,100,82,64,48,90,,106,103,21,23,30,28,1.0,1
2024-02-13T2200,3569A,112.8792,36.3144,长治市,屯留一中,细颗粒物(PM2.5),145,128,66,111,49,16,,98,75,61,23,40,25,1.1,0.8
2024-02-13T2200,3570A,113.235,36.3489,长治市,潞城四中,细颗粒物(PM2.5),110,94,95,83,68,68,,126,99,38,35,15,23,1.1,1.5
2024-02-13T2200,1854A,111.6975,28.9703,常德市,市二中,颗粒物(PM10),52,54,70,34,59,83,,88,88,10,15,8,7,0.6,0.8
2024-02-13T2200,1857A,111.7158,29.1456,常德市,白鹤山,细颗粒物(PM2.5),69,83,85,50,46,45,,62,60,4,3,3,3,0.6,0.6
2024-02-13T2200,3138A,111.7153,29.0289,常德市,武陵区永安,细颗粒物(PM2.5),63,66,81,45,60,69,,85,84,10,12,8,8,0.9,1.1
2024-02-13T2200,3139A,111.6892,28.9881,常德市,鼎城区玉霞,细颗粒物(PM2.5),62,64,81,44,63,67,,77,76,18,20,10,9,0.7,0.8
2024-02-13T2200,3140A,111.6625,29.0531,常德市,武陵区长庚,细颗粒物(PM2.5),74,80,92,54,63,42,,84,76,38,16,7,6,1.1,1
2024-02-13T2200,1196A,119.9633,31.762,常州市,市监测站,,48,48,60,27,34,78,,98,89,11,9,8,7,0.6,0.6
2024-02-13T2200,1200A,119.9468,31.7069,常州市,武进监测站,,44,44,56,26,30,77,,96,93,11,9,6,6,0.6,0.6
2024-02-13T2200,1201A,119.9255,31.9087,常州市,安家,细颗粒物(PM2.5),77,78,57,56,34,64,,95,86,20,11,9,8,0.8,0.7
2024-02-13T2200,3002A,119.9805,31.8174,常州市,行政中心,,41,41,54,24,30,76,,94,90,14,10,11,10,0.4,0.9
2024-02-13T2200,3003A,120.0522,31.7748,常州市,经开区,,45,45,56,29,31,77,,99,93,15,13,15,14,0.7,1.2
2024-02-13T2200,3010A,119.9025,31.7964,常州市,钟楼,颗粒物(PM10),51,51,54,32,32,71,,94,89,20,12,7,7,0.7,0.7
2024-02-13T2200,3429A,119.8598,31.7066,常州市,武进经发区,,45,44,57,31,36,75,,100,96,14,7,6,6,0.8,0.8
2024-02-13T2200,3430A,119.5826,31.7245,常州市,金坛城区,细颗粒物(PM2.5),60,58,63,43,41,72,,90,87,15,10,10,9,0.8,0.8
2024-02-13T2200,2220A,120.4318,41.5881,朝阳市,西梁,颗粒物(PM10),94,138,135,31,81,78,,117,108,10,14,24,25,0.6,1.4
2024-02-13T2200,2221A,120.4521,41.5646,朝阳市,河畔小区,颗粒物(PM10),111,171,135,80,83,76,,109,98,17,20,24,15,0.9,1.2
2024-02-13T2200,2222A,120.4176,41.5648,朝阳市,八里堡,颗粒物(PM10),104,158,140,48,79,75,,109,99,15,24,23,24,0.8,1.6
2024-02-13T2200,2223A,120.3806,41.5969,朝阳市,农业园区,颗粒物(PM10),89,127,131,33,94,68,,115,104,16,16,16,18,0.5,1.1
2024-02-13T2200,1705A,116.6367,23.6719,潮州市,西园路,细颗粒物(PM2.5),108,83,61,81,43,92,,110,106,20,9,6,4,0.6,0.4
2024-02-13T2200,3026A,116.6183,23.6608,潮州市,市政府,细颗粒物(PM2.5),74,85,57,54,38,98,,110,104,16,11,7,6,0.7,0.6
2024-02-13T2200,4036A,116.6461,23.6761,潮州市,金山,细颗粒物(PM2.5),87,72,55,64,42,89,,105,102,22,10,7,6,0.6,0.5
2024-02-13T2200,2472A,113.0073,25.9061,郴州市,马头岭,,34,34,34,18,11,81,,96,84,8,7,4,5,0.2,0.2
2024-02-13T2200,2473A,113.0116,25.8226,郴州市,市职中,,40,36,31,28,21,86,,101,88,5,4,6,6,0.4,0.3
2024-02-13T2200,2474A,113.0161,25.8001,郴州市,兴隆步行街,,34,34,33,21,20,90,,106,92,6,5,4,5,0.5,0.4
2024-02-13T2200,2475A,113.0383,25.8071,郴州市,市审计局,,40,37,30,28,19,80,,104,90,7,4,4,4,0.3,0.3
2024-02-13T2200,2476A,113.0348,25.7759,郴州市,市环保局,,39,39,31,21,22,89,,104,91,8,8,4,4,0.4,0.4
2024-02-13T2200,1431A,103.9728,30.7236,成都市,金泉两河,细颗粒物(PM2.5),104,,77,78,75,2,,106,82,78,31,1,3,1.4,1
2024-02-13T2200,1432A,104.176,30.6872,成都市,十里店,细颗粒物(PM2.5),113,99,92,85,83,66,,125,120,42,32,4,4,0.6,0.6
2024-02-13T2200,1433A,104.079,30.5706,成都市,三瓦窑,细颗粒物(PM2.5),110,104,102,83,79,42,,108,101,52,43,2,2,0.9,0.9
2024-02-13T2200,1434A,104.1114,30.63,成都市,沙河铺,细颗粒物(PM2.5),143,114,110,109,98,12,,108,92,65,39,2,3,1.0,1
2024-02-13T2200,1437A,104.0786,30.6531,成都市,君平街,细颗粒物(PM2.5),114,107,96,86,89,68,,114,108,57,54,6,7,0.9,1
2024-02-13T2200,1438A,103.613,31.0283,成都市,灵岩寺,细颗粒物(PM2.5),80,78,60,59,47,145,,138,138,16,15,6,5,0.8,0.8
2024-02-13T2200,2880A,104.0239,30.65639,成都市,大石西路,细颗粒物(PM2.5),133,128,97,101,85,27,,110,95,67,48,4,4,1.3,1.2
2024-02-13T2200,3136A,104.2725,30.5589,成都市,龙泉驿区区政府,细颗粒物(PM2.5),92,88,84,68,70,90,,121,117,17,13,3,3,0.8,0.8
2024-02-13T2200,3357A,104.0106,30.6931,成都市,金博路,细颗粒物(PM2.5),123,111,104,93,89,18,,104,86,73,41,1,3,1.0,0.9
2024-02-13T2200,3359A,104.0578,30.5225,成都市,华阳,细颗粒物(PM2.5),149,114,99,114,92,22,,106,90,46,25,2,2,1.1,1.1
2024-02-13T2200,3487A,104.2394,30.5319,成都市,车城东七路,细颗粒物(PM2.5),93,86,90,69,79,93,,125,121,23,17,3,2,0.8,0.7
2024-02-13T2200,3488A,104.3853,30.7453,成都市,青白江技师分院,细颗粒物(PM2.5),105,96,90,79,69,98,,131,127,19,21,8,8,0.9,0.9
2024-02-13T2200,3489A,104.0789,30.4072,成都市,科学城,细颗粒物(PM2.5),97,81,83,72,75,82,,122,118,18,9,4,4,0.9,0.8
2024-02-13T2200,4011A,103.8506,30.6947,成都市,光华大道三段,细颗粒物(PM2.5),147,150,101,112,79,39,,105,84,51,29,2,3,2.0,1.1
2024-02-13T2200,1062A,117.9531,40.9081,承德市,铁路,细颗粒物(PM2.5),165,175,129,125,90,32,,88,65,55,43,19,15,1.6,1.3
2024-02-13T2200,1063A,117.9392,40.9763,承德市,中国银行,细颗粒物(PM2.5),178,254,141,134,87,22,,96,60,63,36,12,12,1.8,1.3
2024-02-13T2200,1064A,117.9503,40.928,承德市,开发区,细颗粒物(PM2.5),143,161,114,109,72,22,,100,75,62,37,13,10,1.4,1.1
2024-02-13T2200,1065A,117.8051,40.9655,承德市,文化中心,细颗粒物(PM2.5),147,179,152,112,96,23,,89,65,58,40,19,23,1.4,1.3
2024-02-13T2200,1066A,117.9268,41.0026,承德市,离宫,细颗粒物(PM2.5),110,115,109,83,76,68,,103,92,22,19,10,9,0.9,0.9
2024-02-13T2200,2314A,117.47,30.6618,池州市,池州学院,颗粒物(PM10),51,52,44,35,30,61,,84,78,28,26,10,6,0.9,0.7
2024-02-13T2200,3237A,117.4918,30.6617,池州市,展览馆,细颗粒物(PM2.5),64,74,51,46,33,36,,78,63,31,17,7,4,1.1,0.7
2024-02-13T2200,3333A,117.5627,30.695,池州市,第八中学,细颗粒物(PM2.5),53,49,38,37,26,66,,90,85,15,13,13,10,1.0,0.5
2024-02-13T2200,3334A,117.5038,30.6243,池州市,第十二中学,,35,34,41,24,29,74,,88,85,9,13,4,4,0.3,0.4
2024-02-13T2200,1744A,118.9233,42.2816,赤峰市,松山一中,颗粒物(PM10),70,89,58,16,21,71,,85,74,10,14,8,10,0.5,0.7
2024-02-13T2200,1745A,118.9576,42.2728,赤峰市,哈达街,颗粒物(PM10),70,90,58,14,22,71,,82,70,9,14,11,13,0.5,0.7
2024-02-13T2200,1746A,118.8788,42.2554,赤峰市,天义路,颗粒物(PM10),56,61,44,16,18,68,,83,71,9,11,6,7,0.3,0.4
2024-02-13T2200,3058A,119.2658,42.0353,赤峰市,银河街,颗粒物(PM10),72,94,86,14,48,64,,88,73,9,15,12,17,0.4,0.8
2024-02-13T2200,3286A,118.9359,42.3147,赤峰市,桥北物流园区,颗粒物(PM10),63,76,51,7,23,77,,88,80,2,7,6,8,0.5,0.6
2024-02-13T2200,2521A,107.3476,22.4136,崇左市,市环保局江州分局,细颗粒物(PM2.5),138,141,87,105,59,34,,91,76,28,14,8,8,1.1,0.6
2024-02-13T2200,2522A,107.3702,22.3707,崇左市,城南新区,细颗粒物(PM2.5),93,,62,69,58,77,,98,93,13,13,7,7,0.5,0.4
2024-02-13T2200,2298A,118.3093,32.3153,滁州市,老年大学,,,370,76,,42,11,,66,44,70,31,14,11,2.2,1.1
2024-02-13T2200,2299A,118.3244,32.2786,滁州市,人大宾馆,细颗粒物(PM2.5),110,129,65,83,46,14,,61,44,54,33,7,9,1.1,0.9
2024-02-13T2200,3207A,118.3118,32.3038,滁州市,市政府原办公楼,细颗粒物(PM2.5),213,190,65,163,47,10,,64,46,74,32,10,9,1.5,0.9
2024-02-13T2200,3331A,118.3267,32.2634,滁州市,图书馆,细颗粒物(PM2.5),78,68,53,57,36,40,,69,61,36,23,11,12,0.9,0.9
2024-02-13T2200,2605A,101.5482,25.0441,楚雄彝族自治州,州环境监测站,,39,33,26,27,21,47,,96,86,29,9,8,6,0.7,0.6
2024-02-13T2200,2606A,101.538,25.0492,楚雄彝族自治州,市经济开发区,颗粒物(PM10),53,55,33,32,24,35,,90,77,48,12,8,7,0.9,0.6
2024-02-13T2200,2548A,107.5277,31.2827,达州市,达州职业技术学院,细颗粒物(PM2.5),92,96,67,68,44,26,,86,63,32,21,8,10,0.9,0.7
2024-02-13T2200,2549A,107.5086,31.2186,达州市,市环境监测站,细颗粒物(PM2.5),98,101,70,73,50,13,,70,53,63,39,9,10,1.2,1
2024-02-13T2200,2550A,107.4988,31.2132,达州市,凤凰小区,细颗粒物(PM2.5),104,100,71,78,52,9,,70,48,71,40,8,10,1.4,1
2024-02-13T2200,2551A,107.5082,31.1986,达州市,达县机关宾馆,细颗粒物(PM2.5),139,141,79,106,51,3,,57,30,62,44,5,7,1.4,1.2
2024-02-13T2200,2552A,107.4644,31.2124,达州市,市政中心,细颗粒物(PM2.5),125,130,84,95,57,5,,62,44,88,51,11,17,2.4,1.8
2024-02-13T2200,2614A,100.1542,25.7054,大理白族自治州,大理市环境监测站,,33,28,24,23,19,96,,95,95,7,5,8,7,0.4,0.5
2024-02-13T2200,2615A,100.2171,25.5811,大理白族自治州,大理古城,,30,,22,21,17,83,,96,92,16,9,6,6,0.4,0.5
2024-02-13T2200,1109A,121.612,38.9741,大连市,甘井子,细颗粒物(PM2.5),98,112,105,73,72,59,,84,71,27,24,7,8,0.8,0.8
2024-02-13T2200,1110A,121.565,38.9511,大连市,周水子,细颗粒物(PM2.5),110,126,108,83,88,66,,85,78,22,29,6,40,1.0,1
2024-02-13T2200,1111A,121.5637,38.8845,大连市,星海三站,细颗粒物(PM2.5),123,121,107,93,78,45,,86,64,43,27,8,8,0.9,1.2
2024-02-13T2200,1112A,121.6302,38.9117,大连市,青泥洼桥,细颗粒物(PM2.5),104,114,97,78,69,53,,95,68,38,27,12,16,1.0,1
2024-02-13T2200,1113A,121.6251,38.8638,大连市,傅家庄,细颗粒物(PM2.5),93,111,107,69,72,80,,97,88,15,14,14,13,0.9,1
2024-02-13T2200,1114A,121.5213,38.8661,大连市,七贤岭,细颗粒物(PM2.5),132,138,111,100,72,33,,75,63,39,26,9,10,0.8,0.8
2024-02-13T2200,1115A,121.2529,38.8061,大连市,旅顺,细颗粒物(PM2.5),87,98,91,64,62,80,,92,90,25,25,8,9,0.9,1
2024-02-13T2200,1116A,121.7485,39.1311,大连市,金州,细颗粒物(PM2.5),63,66,94,45,72,68,,94,85,24,26,8,14,1.7,1.3
2024-02-13T2200,1117A,121.7811,39.0496,大连市,开发区,细颗粒物(PM2.5),79,94,115,58,79,72,,80,79,26,28,4,6,1.0,1.1
2024-02-13T2200,1118A,121.9762,39.0631,大连市,双D港,细颗粒物(PM2.5),58,53,96,41,66,92,,95,92,13,15,6,7,0.9,1
2024-02-13T2200,1789A,124.81117,46.03138,大庆市,大同区,,22,13,106,10,58,69,,79,69,6,10,5,9,0.3,0.7
2024-02-13T2200,1790A,125.129,46.533,大庆市,龙凤区,,39,39,86,23,45,64,,80,67,14,14,7,7,0.4,0.6
2024-02-13T2200,1791A,124.902,46.408,大庆市,红岗区,,26,25,89,18,48,74,,84,78,6,9,5,8,0.3,0.4
2024-02-13T2200,1792A,125.153,46.586,大庆市,萨尔图区,,22,21,100,13,52,69,,75,70,7,13,9,12,0.4,0.7
2024-02-13T2200,1793A,124.9042,46.6215,大庆市,让胡路区,,34,34,95,22,46,69,,78,72,7,9,8,8,0.4,0.6
2024-02-13T2200,3481A,125.141,46.634,大庆市,萨区政府监测点,,24,21,94,13,48,75,,87,78,6,11,9,12,0.4,0.7
2024-02-13T2200,1723A,113.2994,40.0758,大同市,云冈宾馆,颗粒物(PM10),87,124,99,57,54,28,,88,70,54,40,18,18,2.2,1.1
2024-02-13T2200,1724A,113.3444,40.0917,大同市,大同大学,颗粒物(PM10),57,63,72,27,35,51,,86,78,28,30,18,26,0.7,0.9
2024-02-13T2200,1725A,113.2661,40.1269,大同市,安家小村,颗粒物(PM10),54,57,68,18,27,53,,85,78,22,16,16,25,0.7,1
2024-02-13T2200,1726A,113.2711,40.0844,大同市,教育学院,细颗粒物(PM2.5),89,124,94,66,43,24,,84,57,57,43,20,23,1.0,1.5
2024-02-13T2200,3282A,113.3397,40.0597,大同市,大同市卫生学校,细颗粒物(PM2.5),77,100,86,56,55,39,,91,77,39,34,22,21,1.7,0.9
2024-02-13T2200,3565A,113.1367,40.1122,大同市,云冈站,颗粒物(PM10),61,71,56,22,21,23,,89,65,37,21,36,33,0.4,0.5
2024-02-13T2200,3566A,113.1186,40.2556,大同市,图书馆,颗粒物(PM10),53,56,56,28,28,38,,81,67,11,12,13,25,0.3,0.4
2024-02-13T2200,3567A,113.5931,40.0461,大同市,区一中,细颗粒物(PM2.5),98,98,82,73,45,58,,90,79,19,19,46,37,0.9,0.9
2024-02-13T2200,3676A,113.2802,40.0995,大同市,第二人民医院,细颗粒物(PM2.5),75,79,85,55,38,42,,90,78,39,32,16,21,1.6,1.2
2024-02-13T2200,2269A,124.1069,50.4097,大兴安岭地区,科技局,,39,29,29,27,24,62,,67,62,9,9,9,10,0.5,0.5
2024-02-13T2200,3663A,124.1164,50.4278,大兴安岭地区,红旗社区,,29,29,21,19,17,58,,70,59,10,17,11,13,0.3,0.3
2024-02-13T2200,1600A,124.3303,40.0625,丹东市,江湾东路,颗粒物(PM10),67,84,102,47,62,98,,104,97,5,5,11,12,0.7,0.8
2024-02-13T2200,1601A,124.4256,40.1503,丹东市,临江后街,细颗粒物(PM2.5),92,120,104,68,57,86,,105,98,18,10,21,12,2.0,1.1
2024-02-13T2200,1602A,124.3933,40.1461,丹东市,元宝山,颗粒物(PM10),74,98,108,52,59,90,,97,92,17,15,15,13,1.4,1
2024-02-13T2200,1603A,124.3633,40.1092,丹东市,民主桥,颗粒物(PM10),78,105,112,55,64,90,,92,85,11,11,12,12,1.1,1.1
2024-02-13T2200,3541A,109.5726,19.5167,儋州市,第一中学子站,,33,33,32,14,17,78,,84,82,2,2,5,5,0.5,0.6
2024-02-13T2200,3542A,109.5567,19.5187,儋州市,东坡学校子站,,37,37,33,16,16,83,,89,87,3,3,4,4,0.4,0.5
2024-02-13T2200,2616A,98.5842,24.428,德宏傣族景颇族自治州,德宏州监测站,细颗粒物(PM2.5),58,46,47,41,35,64,,94,86,15,23,4,12,0.6,0.6
2024-02-13T2200,3677A,98.5881,24.4368,德宏傣族景颇族自治州,芒市人民政府综合楼,,45,45,47,24,32,58,,90,84,18,15,4,7,0.7,0.6
2024-02-13T2200,1901A,104.4239,31.1208,德阳市,东山公园,细颗粒物(PM2.5),93,77,73,69,67,116,,124,123,11,13,4,5,0.7,0.7
2024-02-13T2200,1902A,104.3826,31.1317,德阳市,西小区,细颗粒物(PM2.5),142,109,93,108,84,7,,108,89,92,41,4,4,1.5,1
2024-02-13T2200,1904A,104.3553,31.1091,德阳市,耐火材料厂,细颗粒物(PM2.5),119,104,87,90,78,70,,118,112,30,23,5,5,0.7,0.7
2024-02-13T2200,3639A,104.4019,31.1244,德阳市,市教育局,细颗粒物(PM2.5),122,98,79,92,70,1,,111,83,102,38,4,3,1.4,0.8
2024-02-13T2200,1622A,116.3032,37.4674,德州市,儿童乐园,细颗粒物(PM2.5),122,146,103,92,60,90,,116,110,28,13,16,14,1.3,1.1
2024-02-13T2200,1624A,116.2991,37.4451,德州市,监理站,细颗粒物(PM2.5),110,129,102,83,60,97,,118,112,29,20,17,17,1.0,0.9
2024-02-13T2200,3066A,116.2721,37.4379,德州市,九衢泉纯净水厂,细颗粒物(PM2.5),105,114,105,79,65,95,,113,108,27,20,17,14,1.1,1
2024-02-13T2200,3371A,116.3728,37.4403,德州市,开发区人民医院,细颗粒物(PM2.5),100,119,101,75,56,89,,116,113,27,13,13,13,0.9,0.8
2024-02-13T2200,3372A,116.3572,37.4094,德州市,太阳城中学,细颗粒物(PM2.5),125,128,99,95,66,94,,118,115,20,12,11,12,1.0,0.9
2024-02-13T2200,3511A,116.5652,37.3319,德州市,陵城艺术中心,细颗粒物(PM2.5),117,136,93,88,52,93,,112,109,21,13,17,14,1.0,0.8
2024-02-13T2200,2621A,99.7056,27.8317,迪庆藏族自治州,迪庆州站,,28,28,22,12,13,77,,87,84,9,8,8,8,0.5,0.4
2024-02-13T2200,3180A,99.7136,27.8094,迪庆藏族自治州,质量技术监督局,,30,,18,21,11,71,,86,80,9,8,8,8,0.4,0.5
2024-02-13T2200,2663A,104.6241,35.5734,定西市,东关小学,细颗粒物(PM2.5),78,72,82,57,53,63,,75,69,13,16,18,19,0.6,1.2
2024-02-13T2200,2664A,104.6194,35.5934,定西市,供电公司,细颗粒物(PM2.5),68,79,80,49,57,84,,89,88,1,10,11,14,0.4,0.9
2024-02-13T2200,1389A,113.7547,23.0494,东莞市,莞城梨川,,49,49,53,33,35,92,,122,114,22,17,8,8,0.6,0.6
2024-02-13T2200,1390A,113.7944,23.0128,东莞市,东城石井,,49,49,38,31,25,88,,111,95,17,12,7,7,0.6,0.6
2024-02-13T2200,1391A,113.7383,22.9658,东莞市,南城西平,颗粒物(PM10),56,62,44,32,25,82,,114,109,25,14,17,9,0.7,0.7
2024-02-13T2200,3319A,113.7338,23.0381,东莞市,万江金泰,细颗粒物(PM2.5),64,75,56,46,39,82,,110,106,20,12,9,8,0.9,0.8
2024-02-13T2200,3626A,113.7533,23.0202,东莞市,南城元岭,颗粒物(PM10),56,61,46,33,28,83,,118,111,20,10,7,7,0.8,0.7
2024-02-13T2200,3627A,113.7875,23.0457,东莞市,东城主山,颗粒物(PM10),51,52,47,31,31,89,,117,110,14,11,10,10,0.7,0.7
2024-02-13T2200,1666A,118.6614,37.4309,东营市,市环保局,细颗粒物(PM2.5),107,107,98,80,64,72,,130,119,33,24,21,22,0.8,1
2024-02-13T2200,3036A,118.6904,37.4338,东营市,开发区管委会,细颗粒物(PM2.5),100,91,90,75,62,70,,121,112,36,23,35,16,0.8,0.9
2024-02-13T2200,3365A,118.5719,37.565,东营市,垦利区民丰路,细颗粒物(PM2.5),128,134,103,97,66,73,,130,115,42,24,20,21,1.2,1
2024-02-13T2200,3498A,118.5055,37.8612,东营市,河口城区,细颗粒物(PM2.5),134,132,120,102,81,113,,143,134,19,20,14,15,1.0,1
2024-02-13T2200,3646A,118.4978,37.4623,东营市,胜利站,细颗粒物(PM2.5),160,182,118,122,67,50,,117,96,65,36,20,19,1.3,0.9
2024-02-13T2200,3734A,118.35,37.26,东营市,理想之城,细颗粒物(PM2.5),132,141,101,100,64,66,,116,95,41,26,15,14,0.9,0.9
2024-02-13T2200,1591A,110.0023,39.8129,鄂尔多斯市,综合楼,颗粒物(PM10),67,83,53,29,18,85,,82,81,15,20,6,8,0.7,0.6
2024-02-13T2200,1592A,109.9486,39.8261,鄂尔多斯市,巴音孟克林场办事处,颗粒物(PM10),67,83,49,36,20,74,,79,74,18,16,13,14,0.6,0.5
2024-02-13T2200,1593A,109.7736,39.5986,鄂尔多斯市,康泽苑,细颗粒物(PM2.5),94,92,45,70,23,57,,87,81,25,17,8,7,0.9,0.6
2024-02-13T2200,1594A,109.8119,39.5989,鄂尔多斯市,华泰汽车城,颗粒物(PM10),60,70,47,39,23,51,,87,82,30,21,8,8,0.8,0.6
2024-02-13T2200,1595A,109.9734,39.7884,鄂尔多斯市,奥林花园,颗粒物(PM10),68,85,52,29,21,82,,78,77,15,26,11,11,0.6,0.6
2024-02-13T2200,2436A,114.8938,30.3994,鄂州市,市政府,细颗粒物(PM2.5),55,47,43,39,27,67,,87,82,13,11,11,10,0.8,0.8
2024-02-13T2200,2437A,114.8989,30.3714,鄂州市,赵家坝,,47,47,38,26,28,68,,92,87,8,9,7,7,0.8,0.6
2024-02-13T2200,3654A,114.8094,30.4089,鄂州市,精准医疗中心,颗粒物(PM10),66,82,70,43,36,60,,93,81,31,24,45,35,3.6,2.4
2024-02-13T2200,2454A,109.4978,30.2981,恩施土家族苗族自治州,湖北民院,细颗粒物(PM2.5),87,75,61,64,42,45,,88,79,35,20,8,7,1.2,1.1
2024-02-13T2200,2455A,109.4707,30.2798,恩施土家族苗族自治州,州电力总公司,细颗粒物(PM2.5),117,108,70,88,54,15,,78,65,57,21,7,6,1.8,1.1
2024-02-13T2200,3549A,109.5061,30.3772,恩施土家族苗族自治州,龙凤新区,细颗粒物(PM2.5),72,57,45,52,43,31,,76,65,19,14,7,6,1.1,0.9
2024-02-13T2200,2499A,108.3411,21.6158,防城港市,沙万,,49,48,56,34,31,42,,73,64,48,26,8,5,0.5,0.6
2024-02-13T2200,2500A,108.3514,21.7731,防城港市,防城档案局,颗粒物(PM10),54,57,66,37,39,42,,74,67,17,18,4,9,0.5,0.6
2024-02-13T2200,2501A,108.3506,21.6414,防城港市,大海花园,细颗粒物(PM2.5),62,47,57,44,31,75,,79,76,13,16,3,5,0.4,0.4
2024-02-13T2200,1371A,113.1294,23.0067,佛山市,湾梁,颗粒物(PM10),58,66,50,32,35,87,,120,111,11,12,9,9,0.5,0.5
2024-02-13T2200,1372A,113.1083,23.0478,佛山市,华材职中,,48,48,50,32,32,76,,115,101,12,22,11,10,0.7,0.6
2024-02-13T2200,1373A,113.144,23.0453,佛山市,南海气象局,细颗粒物(PM2.5),55,52,52,39,38,74,,114,103,16,17,6,7,0.4,0.3
2024-02-13T2200,1374A,113.2881,22.8094,佛山市,顺德苏岗,细颗粒物(PM2.5),83,77,40,61,24,84,,119,108,10,13,10,9,0.4,0.4
2024-02-13T2200,1376A,112.8383,22.8678,佛山市,高明孔堂,,42,42,39,26,22,88,,116,110,8,6,4,4,0.3,0.3
2024-02-13T2200,1377A,112.8836,23.1588,佛山市,三水监测站,"颗粒物(PM10),细颗粒物(PM2.5)",59,68,51,42,35,78,,109,101,18,22,6,6,0.6,0.6
2024-02-13T2200,1378A,112.867,23.185,佛山市,三水云东海,颗粒物(PM10),56,61,36,28,29,58,,111,90,24,18,4,4,0.6,0.5
2024-02-13T2200,3625A,113.2544,22.7642,佛山市,容桂街道办,,46,46,39,31,21,77,,109,100,8,10,6,6,0.5,0.5
2024-02-13T2200,1282A,119.2681,26.0504,福州市,师大,细颗粒物(PM2.5),94,114,52,70,36,74,,113,105,18,6,10,7,0.6,0.4
2024-02-13T2200,1283A,119.2984,26.1028,福州市,五四北路,细颗粒物(PM2.5),83,94,52,61,36,69,,110,99,24,10,6,4,0.7,0.5
2024-02-13T2200,1284A,119.2648,26.0768,福州市,杨桥西路,细颗粒物(PM2.5),97,116,50,72,35,73,,115,106,23,10,6,4,0.6,0.5
2024-02-13T2200,1285A,119.317,26.0746,福州市,紫阳,细颗粒物(PM2.5),107,123,63,80,45,52,,108,95,37,12,9,7,0.7,0.6
2024-02-13T2200,3048A,119.5799,26.0936,福州市,九龙,,40,40,42,26,25,66,,113,99,8,8,2,3,0.4,0.5
2024-02-13T2200,3526A,119.5189,25.9664,福州市,吴航,颗粒物(PM10),54,57,52,32,31,67,,111,97,14,13,4,5,0.5,0.5
2024-02-13T2200,1755A,123.7977,41.8491,抚顺市,望花区,细颗粒物(PM2.5),138,152,91,105,65,43,,99,78,53,19,24,29,1.3,0.9
2024-02-13T2200,1756A,123.9161,41.8822,抚顺市,顺城区,细颗粒物(PM2.5),119,114,96,90,66,76,,116,105,26,12,10,14,0.9,0.8
2024-02-13T2200,1757A,124.0436,41.8611,抚顺市,东洲区,细颗粒物(PM2.5),88,85,91,65,63,108,,114,112,7,7,10,13,0.7,0.9
2024-02-13T2200,1758A,123.9247,41.8642,抚顺市,新抚区,细颗粒物(PM2.5),108,105,91,81,62,61,,119,95,40,16,11,15,1.1,0.8
2024-02-13T2200,1759A,124.0972,41.8961,抚顺市,大伙房水库,细颗粒物(PM2.5),85,89,93,63,60,97,,119,116,11,6,10,12,0.8,0.7
2024-02-13T2200,1760A,123.7086,41.8391,抚顺市,沈抚新城,细颗粒物(PM2.5),100,89,93,75,61,72,,110,100,37,16,15,18,1.3,1
2024-02-13T2200,2376A,116.2127,28.0814,抚州市,桐源党溪,细颗粒物(PM2.5),220,215,67,170,46,17,,56,37,15,10,5,8,0.7,0.4
2024-02-13T2200,2377A,116.3544,27.9831,抚州市,市站,细颗粒物(PM2.5),160,163,51,122,30,15,,66,32,41,17,4,7,1.0,0.5
2024-02-13T2200,2378A,116.3565,27.963,抚州市,血防站,细颗粒物(PM2.5),97,109,45,72,23,33,,62,52,31,10,5,3,0.7,0.6
2024-02-13T2200,2379A,116.3564,28.0007,抚州市,采茶剧团,细颗粒物(PM2.5),122,122,49,92,32,30,,62,49,19,8,7,5,1.1,0.9
2024-02-13T2200,2380A,116.385,27.9647,抚州市,医学分院,细颗粒物(PM2.5),114,131,43,86,23,30,,69,57,22,7,8,6,0.8,0.6
2024-02-13T2200,2207A,121.6094,41.998,阜新市,工业园区,颗粒物(PM10),70,89,143,11,78,64,,102,73,12,26,29,26,0.5,1.5
2024-02-13T2200,2208A,121.6697,42.0279,阜新市,长青街,颗粒物(PM10),60,70,143,12,103,64,,104,86,10,23,56,27,0.6,1.3
2024-02-13T2200,2209A,121.6673,42.0705,阜新市,农业园区,颗粒物(PM10),57,63,158,12,100,67,,110,96,10,22,10,35,0.7,1
2024-02-13T2200,2210A,121.6717,42.0224,阜新市,东苑,颗粒物(PM10),59,67,139,19,110,68,,111,95,11,25,51,29,0.5,1.3
2024-02-13T2200,2211A,121.6506,42.0498,阜新市,玉龙新城,颗粒物(PM10),56,61,135,7,84,70,,108,92,9,22,9,27,0.4,1
2024-02-13T2200,2301A,115.8277,32.8929,阜阳市,市监测站,细颗粒物(PM2.5),140,132,76,107,59,48,,75,66,27,15,10,8,0.5,0.6
2024-02-13T2200,2303A,115.8554,32.8605,阜阳市,开发区,颗粒物(PM10),83,116,72,54,39,46,,81,75,27,10,8,7,0.4,0.4
2024-02-13T2200,2875A,115.784,32.8892,阜阳市,阜阳职业技术学院,颗粒物(PM10),56,62,56,38,34,72,,85,78,16,15,7,7,0.6,0.6
2024-02-13T2200,3468A,115.7901,32.8613,阜阳市,市规划展馆,细颗粒物(PM2.5),69,75,71,50,44,68,,80,75,13,11,9,7,0.6,0.6
2024-02-13T2200,3469A,115.836,32.9183,阜阳市,枣园社区,细颗粒物(PM2.5),79,91,84,58,54,57,,82,72,20,19,9,7,0.5,0.5
2024-02-13T2200,2669A,102.9099,34.9841,甘南藏族自治州,州政府,颗粒物(PM10),53,55,24,26,16,24,,79,70,31,13,19,18,0.9,0.6
2024-02-13T2200,3380A,102.8914,34.9617,甘南藏族自治州,甘肃民族师范学院,,31,31,21,18,11,21,,74,64,29,9,19,18,1.0,0.7
2024-02-13T2200,2570A,101.9603,30.0475,甘孜藏族自治州,水桥子,,23,23,13,14,8,52,,76,71,12,6,10,10,0.4,0.3
2024-02-13T2200,3065A,101.9533,29.9972,甘孜藏族自治州,州环保局,,19,17,13,3,6,60,,89,76,4,3,8,8,0.3,0.2
2024-02-13T2200,3414A,115.8347,28.932,赣江新区,桑海产业园,细颗粒物(PM2.5),54,53,48,38,32,34,,71,57,20,19,5,6,0.5,0.6
2024-02-13T2200,2363A,114.9367,25.8664,赣州市,地委,颗粒物(PM10),78,106,51,34,30,23,,93,67,48,22,17,12,1.6,1.1
2024-02-13T2200,2364A,114.9461,25.8481,赣州市,气象台,颗粒物(PM10),59,68,43,35,31,38,,101,80,46,20,8,9,0.8,0.6
2024-02-13T2200,2365A,114.9322,25.8333,赣州市,市图书馆,颗粒物(PM10),63,76,56,38,31,28,,83,56,43,4,13,15,0.7,0.6
2024-02-13T2200,2366A,114.8905,25.8471,赣州市,华坚鞋城,颗粒物(PM10),53,55,59,35,36,42,,86,71,26,20,6,5,0.9,0.8
2024-02-13T2200,3109A,115.0093,25.8613,赣州市,赣县区卫计委,细颗粒物(PM2.5),99,101,42,74,29,17,,84,61,48,16,8,7,1.5,0.7
2024-02-13T2200,2683A,106.2319,36.1417,固原市,马园,颗粒物(PM10),66,82,61,24,34,63,,100,89,15,19,10,7,0.4,0.6
2024-02-13T2200,2684A,106.2792,36.0022,固原市,监测站,颗粒物(PM10),74,97,61,18,50,76,,100,90,16,22,8,9,0.3,1
2024-02-13T2200,2685A,106.2375,36.0211,固原市,新区,颗粒物(PM10),55,60,55,17,36,66,,94,84,13,27,9,7,0.3,0.7
2024-02-13T2200,3522A,106.2177,35.9959,固原市,原州区十五小,,50,50,43,23,30,64,,96,85,13,10,11,10,0.4,0.5
2024-02-13T2200,2544A,106.6303,30.4576,广安市,市委,细颗粒物(PM2.5),175,192,131,132,105,6,,94,70,85,38,8,8,2.0,1.2
2024-02-13T2200,2545A,106.6271,30.4663,广安市,友谊中学,细颗粒物(PM2.5),147,129,102,112,90,39,,103,93,48,29,6,6,1.2,1
2024-02-13T2200,2547A,106.6388,30.4551,广安市,广电花园,细颗粒物(PM2.5),175,159,117,132,107,7,,102,78,84,36,7,6,2.1,1.4
2024-02-13T2200,2902A,106.6351,30.4865,广安市,北辰小学,细颗粒物(PM2.5),179,156,113,135,103,55,,112,105,43,26,7,7,1.3,1.1
2024-02-13T2200,2523A,105.8945,32.4535,广元市,黑石坡,细颗粒物(PM2.5),97,,56,72,53,111,,116,116,14,13,8,7,0.7,0.6
2024-02-13T2200,2524A,105.821,32.4444,广元市,老城,细颗粒物(PM2.5),85,97,81,63,53,27,,87,73,57,28,5,12,1.5,1.3
2024-02-13T2200,2526A,105.8628,32.4287,广元市,监测站,细颗粒物(PM2.5),84,85,63,62,51,65,,92,89,20,18,5,8,0.8,0.9
2024-02-13T2200,3617A,105.8047,32.4166,广元市,经开区,细颗粒物(PM2.5),113,105,86,85,63,31,,93,79,55,30,7,23,1.2,1.2
2024-02-13T2200,1345A,113.2347,23.1423,广州市,广雅中学,,38,35,47,26,31,77,,108,97,16,26,5,5,0.7,0.7
2024-02-13T2200,1346A,113.2612,23.105,广州市,市五中,,45,45,48,28,32,84,,112,102,19,25,6,6,0.6,0.6
2024-02-13T2200,1348A,113.3478,23.0916,广州市,广东商学院,细颗粒物(PM2.5),73,80,49,53,33,74,,117,104,23,18,6,5,0.5,0.5
2024-02-13T2200,1349A,113.4332,23.1047,广州市,市八十六中,颗粒物(PM10),58,65,52,34,35,60,,125,104,36,20,6,6,0.4,0.4
2024-02-13T2200,1350A,113.3505,22.9483,广州市,番禺中学,细颗粒物(PM2.5),67,62,52,48,37,87,,122,109,21,22,5,5,0.6,0.6
2024-02-13T2200,1351A,113.2146,23.3916,广州市,花都师范,"颗粒物(PM10),细颗粒物(PM2.5)",57,63,62,40,41,68,,117,108,24,28,6,6,0.6,0.7
2024-02-13T2200,1352A,113.2597,23.1331,广州市,市监测站,,48,48,49,26,29,76,,113,99,22,24,5,6,0.6,0.6
2024-02-13T2200,1353A,113.5618,23.312,广州市,九龙镇镇龙,细颗粒物(PM2.5),67,75,59,48,44,60,,110,98,18,16,7,6,0.6,0.7
2024-02-13T2200,1354A,113.2765,23.1544,广州市,麓湖,,40,40,43,25,28,66,,117,102,22,24,5,5,0.5,0.5
2024-02-13T2200,1355A,113.443,23.3035,广州市,帽峰山森林公园,,40,40,39,24,25,96,,128,121,15,11,9,8,0.4,0.3
2024-02-13T2200,2846A,113.3221,23.1322,广州市,体育西,颗粒物(PM10),51,52,45,34,30,74,,121,106,24,19,7,8,0.7,0.6
2024-02-13T2200,3298A,113.5717,23.5491,广州市,从化街口,细颗粒物(PM2.5),93,96,70,69,53,44,,106,90,24,15,9,5,0.7,0.6
2024-02-13T2200,3299A,113.3472,23.3692,广州市,白云竹料,"颗粒物(PM10),细颗粒物(PM2.5)",70,89,71,51,50,63,,114,102,28,15,7,6,0.9,0.7
2024-02-13T2200,3300A,113.2981,23.237,广州市,白云嘉禾,颗粒物(PM10),55,60,47,31,28,77,,120,108,25,21,8,6,0.6,0.5
2024-02-13T2200,3301A,113.4256,23.1716,广州市,黄埔科学城,,43,43,49,26,36,78,,118,107,13,14,5,5,0.6,0.6
2024-02-13T2200,3302A,113.3942,23.0483,广州市,番禺大学城,颗粒物(PM10),58,66,49,30,28,97,,122,112,13,16,9,9,0.7,0.5
2024-02-13T2200,3303A,113.4922,22.8168,广州市,南沙黄阁,细颗粒物(PM2.5),57,58,51,40,32,73,,108,100,22,15,5,5,0.7,0.6
2024-02-13T2200,3304A,113.5342,22.7896,广州市,南沙街,颗粒物(PM10),51,51,42,30,25,70,,112,99,25,18,3,2,0.6,0.6
2024-02-13T2200,3443A,113.2902,23.5544,广州市,花都梯面,细颗粒物(PM2.5),85,89,46,63,33,33,,118,92,27,16,6,5,0.5,0.4
2024-02-13T2200,3445A,113.7858,23.7478,广州市,从化良口,,40,40,32,23,20,65,,101,93,7,5,8,7,0.4,0.4
2024-02-13T2200,3446A,113.8051,23.2614,广州市,增城荔城,细颗粒物(PM2.5),77,89,60,56,46,32,,116,92,25,10,7,7,0.7,0.6
2024-02-13T2200,2505A,109.568,23.1478,贵港市,德智高中,细颗粒物(PM2.5),110,88,79,83,71,47,,73,64,18,15,6,7,1.0,0.8
2024-02-13T2200,2506A,109.6047,23.0666,贵港市,江南子站,细颗粒物(PM2.5),144,200,85,110,57,16,,70,52,43,16,14,10,1.6,0.9
2024-02-13T2200,2507A,109.6014,23.0948,贵港市,贵城子站,细颗粒物(PM2.5),145,142,72,111,62,36,,65,53,24,16,11,10,0.9,0.7
2024-02-13T2200,2508A,109.5669,23.1065,贵港市,荷城子站,细颗粒物(PM2.5),104,107,73,78,48,44,,65,57,17,11,10,10,1.2,1
2024-02-13T2200,3405A,109.5886,23.1172,贵港市,新世纪学校,细颗粒物(PM2.5),100,102,79,75,50,50,,70,65,19,16,10,10,1.0,0.8
2024-02-13T2200,1439A,106.6899,26.5998,贵阳市,马鞍山,细颗粒物(PM2.5),55,44,37,39,25,65,,100,84,13,10,7,10,0.7,0.5
2024-02-13T2200,1440A,106.6971,26.5694,贵阳市,市环保站,细颗粒物(PM2.5),75,66,36,55,38,55,,103,81,37,18,21,14,0.7,0.5
2024-02-13T2200,1441A,106.6243,26.6266,贵阳市,鉴湖路,颗粒物(PM10),54,58,41,31,22,84,,100,98,12,7,11,9,0.8,0.6
2024-02-13T2200,1442A,106.7487,26.6343,贵阳市,燕子冲,细颗粒物(PM2.5),55,51,41,39,29,81,,105,96,14,12,14,14,0.7,0.6
2024-02-13T2200,1443A,106.6555,26.4365,贵阳市,碧云窝,"颗粒物(PM10),细颗粒物(PM2.5)",52,53,43,36,24,92,,103,101,9,7,14,12,0.6,0.5
2024-02-13T2200,1444A,106.694,26.5161,贵阳市,中院村,细颗粒物(PM2.5),85,75,42,63,32,67,,93,84,21,14,24,17,0.9,0.5
2024-02-13T2200,1445A,106.7109,26.6027,贵阳市,红边门,细颗粒物(PM2.5),77,73,48,56,37,30,,99,71,51,24,26,16,1.2,0.8
2024-02-13T2200,1446A,106.7164,26.5699,贵阳市,新华路,细颗粒物(PM2.5),70,61,46,51,34,65,,103,89,28,25,24,18,0.8,0.7
2024-02-13T2200,1447A,106.674,26.5424,贵阳市,太慈桥,,,,37,,23,88,,107,104,8,7,,9,,0.4
2024-02-13T2200,1862A,110.4144,25.3167,桂林市,电子科大尧山校区,,42,,42,29,38,33,,63,46,10,7,3,4,0.7,0.4
2024-02-13T2200,1863A,110.2819,25.2697,桂林市,监测站,细颗粒物(PM2.5),62,,66,44,58,4,,60,26,44,32,7,7,1.4,1.1
2024-02-13T2200,1864A,110.3089,25.2708,桂林市,龙隐路小学,,50,,50,35,54,22,,69,45,28,19,4,6,0.9,0.8
2024-02-13T2200,1865A,110.2869,25.2178,桂林市,八中,细颗粒物(PM2.5),52,36,41,36,37,13,,68,27,34,20,4,5,0.9,0.6
2024-02-13T2200,3403A,110.1764,25.2381,桂林市,创业大厦,,42,31,52,29,46,33,,60,45,11,12,11,8,0.6,0.6
2024-02-13T2200,3531A,110.296,25.1253,桂林市,旅游学院,,,29,39,27,34,15,,72,34,,13,4,5,,0.6
2024-02-13T2200,2674A,100.2561,34.4714,果洛藏族自治州,玛沁县大武镇,,37,37,25,19,12,53,,82,76,16,12,8,13,0.4,0.4
2024-02-13T2200,1129A,126.5422,45.755,哈尔滨市,岭北,,44,44,87,20,61,63,,77,57,16,19,7,21,1.3,1.7
2024-02-13T2200,1130A,126.561,45.8167,哈尔滨市,松北商大,颗粒物(PM10),51,51,88,20,56,61,,103,74,17,9,8,11,0.5,0.8
2024-02-13T2200,1131A,126.979,45.5419,哈尔滨市,阿城会宁,,41,41,91,17,63,69,,101,76,7,10,12,13,0.2,0.6
2024-02-13T2200,1132A,126.599,45.7222,哈尔滨市,南岗学府路,颗粒物(PM10),54,58,113,18,55,55,,99,73,31,15,19,13,0.5,0.8
2024-02-13T2200,1133A,126.689,45.7733,哈尔滨市,太平宏伟公园,,44,44,94,13,57,75,,102,82,8,10,11,7,0.2,0.6
2024-02-13T2200,1134A,126.635,45.7667,哈尔滨市,道外承德广场,,42,42,100,23,59,54,,94,,27,19,19,12,0.6,0.6
2024-02-13T2200,1135A,126.685,45.7319,哈尔滨市,香坊红旗大街,,43,43,97,23,66,62,,88,71,15,18,31,21,0.6,0.9
2024-02-13T2200,1136A,126.6411,45.7258,哈尔滨市,动力和平路,,48,48,91,17,59,68,,101,80,13,11,15,14,0.5,0.8
2024-02-13T2200,1137A,126.593,45.7478,哈尔滨市,道里建国路,细颗粒物(PM2.5),52,48,94,36,63,45,,96,67,33,14,1,5,0.4,0.7
2024-02-13T2200,1138A,126.615,45.61,哈尔滨市,平房东轻厂,颗粒物(PM10),63,75,99,29,60,58,,103,79,23,12,11,16,0.6,0.7
2024-02-13T2200,1139A,126.595,45.9855,哈尔滨市,呼兰师专,细颗粒物(PM2.5),122,172,112,92,78,59,,90,68,18,20,15,22,0.3,0.7
2024-02-13T2200,1140A,126.6206,45.6842,哈尔滨市,省农科院,颗粒物(PM10),53,56,103,25,62,59,,105,67,11,9,10,9,0.5,0.8
2024-02-13T2200,2688A,93.5128,42.8172,哈密市,地区监测站,颗粒物(PM10),64,78,80,25,25,46,,72,64,33,18,5,5,0.7,0.4
2024-02-13T2200,2689A,93.4961,42.8328,哈密市,哈密师范学校,,50,50,86,26,29,37,,76,66,44,17,9,8,0.5,0.4
2024-02-13T2200,2671A,100.9048,36.9639,海北藏族自治州,海晏县西海镇,,22,22,15,7,8,43,,77,69,6,3,13,13,0.4,0.4
2024-02-13T2200,3867A,102.0738,36.5056,海东市,平安区公安北苑,颗粒物(PM10),64,78,38,24,17,68,,73,73,14,16,20,20,0.5,0.5
2024-02-13T2200,1410A,110.3232,20.0574,海口市,海南大学,,47,47,41,24,18,95,,99,98,3,3,9,9,0.4,0.4
2024-02-13T2200,1411A,110.283,20.0053,海口市,秀英海南医院,,45,45,41,23,20,90,,96,92,2,4,8,8,0.4,0.3
2024-02-13T2200,1412A,110.338,19.9969,海口市,海南师范大学,,48,48,41,25,20,91,,95,91,2,4,7,7,0.4,0.4
2024-02-13T2200,1413A,110.33,20.0356,海口市,龙华路环保局宿舍,,45,45,43,24,20,94,,93,91,2,5,8,8,0.3,0.3
2024-02-13T2200,3539A,110.5111,19.9736,海口市,桂林洋子站,颗粒物(PM10),55,59,38,26,17,93,,95,92,2,2,6,6,0.3,0.3
2024-02-13T2200,2673A,100.6188,36.2866,海南藏族自治州,共和县恰卜恰镇,,32,32,23,1,11,49,,74,71,22,14,8,11,0.7,0.6
2024-02-13T2200,2676A,97.3731,37.3753,海西蒙古族藏族自治州,德令哈市,,26,22,16,18,10,71,,98,92,11,4,12,12,0.5,0.4
2024-02-13T2200,1048A,114.5302,36.6116,邯郸市,东污水处理厂,细颗粒物(PM2.5),216,238,147,166,105,43,,107,95,54,22,10,12,1.1,1.2
2024-02-13T2200,1049A,114.4918,36.5713,邯郸市,矿院,细颗粒物(PM2.5),224,189,128,174,92,24,,100,91,63,15,7,7,1.3,1
2024-02-13T2200,1050A,114.484,36.6133,邯郸市,丛台公园,细颗粒物(PM2.5),198,206,132,148,89,25,,114,94,59,15,10,10,1.2,1.3
2024-02-13T2200,3458A,114.7895,36.5593,邯郸市,香泉濮院小区,细颗粒物(PM2.5),138,144,114,105,77,85,,119,114,19,9,12,10,0.8,0.7
2024-02-13T2200,3579A,114.50634,36.77178,邯郸市,永年区实验高中,细颗粒物(PM2.5),229,251,165,179,118,39,,128,97,68,39,22,21,1.4,1.4
2024-02-13T2200,3580A,114.20016,36.44293,邯郸市,峰峰矿区临水派出所,细颗粒物(PM2.5),113,105,88,85,60,103,,116,116,9,10,17,23,0.6,1
2024-02-13T2200,2634A,106.9893,33.1842,汉中市,汉川机床厂子校,细颗粒物(PM2.5),53,40,49,37,40,62,,95,90,7,10,5,7,0.6,0.7
2024-02-13T2200,2635A,107.0154,33.0706,汉中市,市监测站,细颗粒物(PM2.5),149,120,89,114,78,47,,91,75,37,29,16,19,1.7,1.6
2024-02-13T2200,2636A,107.0089,33.1138,汉中市,鑫源开发区,细颗粒物(PM2.5),142,108,76,108,72,29,,91,80,50,23,14,25,1.6,1.2
2024-02-13T2200,2637A,107.007,33.0323,汉中市,南郑大河坎水厂,细颗粒物(PM2.5),137,113,78,104,66,50,,92,80,23,17,13,15,1.3,1.1
2024-02-13T2200,1223A,120.2072,30.2111,杭州市,滨江,,32,32,46,14,28,73,,88,80,12,11,5,5,0.2,0.3
2024-02-13T2200,1224A,120.0633,30.2747,杭州市,西溪,,,39,38,18,27,68,,95,84,7,10,6,6,,0.5
2024-02-13T2200,1226A,120.3461,30.3153,杭州市,下沙,,36,36,50,20,29,79,,101,91,8,8,6,7,0.5,0.5
2024-02-13T2200,1227A,120.1269,30.2456,杭州市,卧龙桥,,32,32,41,19,30,45,,89,72,12,14,4,4,0.3,0.3
2024-02-13T2200,1228A,120.1903,30.2692,杭州市,浙江农大,,44,44,46,26,32,59,,75,72,15,13,7,7,0.5,0.5
2024-02-13T2200,1230A,120.1197,30.3119,杭州市,和睦小学,,27,27,42,18,31,68,,80,74,12,14,7,6,0.4,0.5
2024-02-13T2200,1231A,120.3019,30.4183,杭州市,临平镇,,26,19,34,18,26,79,,93,84,6,8,6,6,0.2,0.3
2024-02-13T2200,1232A,120.2697,30.1819,杭州市,城厢镇,,46,44,51,32,34,62,,95,78,20,14,7,7,0.5,0.5
2024-02-13T2200,1233A,120.0883,30.1808,杭州市,云栖,,28,28,40,15,26,63,,84,73,8,15,8,7,0.5,0.5
2024-02-13T2200,3557A,119.9464,30.0494,杭州市,镇二中,,43,40,51,30,35,56,,84,75,11,13,7,7,0.6,0.6
2024-02-13T2200,3558A,119.7183,30.2367,杭州市,市府大楼,,27,27,42,18,29,84,,81,80,8,9,6,6,0.4,0.5
2024-02-13T2200,3656A,120.1556,30.2864,杭州市,消防大队,,30,28,46,21,34,64,,82,74,15,18,10,8,0.7,0.8
2024-02-13T2200,1270A,117.1959,31.7848,合肥市,明珠广场,颗粒物(PM10),52,53,43,31,23,80,,88,88,13,12,9,8,0.5,0.5
2024-02-13T2200,1271A,117.3072,31.8764,合肥市,三里街,颗粒物(PM10),51,51,46,31,26,66,,76,74,25,20,7,6,0.5,0.5
2024-02-13T2200,1272A,117.2588,31.8707,合肥市,琥珀山庄,,44,44,41,29,25,89,,88,88,4,10,5,5,0.6,0.7
2024-02-13T2200,1273A,117.1604,31.9052,合肥市,董铺水库,,46,46,41,24,23,86,,87,87,4,5,3,3,0.3,0.3
2024-02-13T2200,1274A,117.25,31.8571,合肥市,长江中路,,46,46,44,30,25,81,,85,85,13,14,10,7,0.7,0.7
2024-02-13T2200,1275A,117.266,31.9436,合肥市,庐阳区,,46,46,41,24,21,79,,77,77,13,15,6,6,0.5,0.5
2024-02-13T2200,1276A,117.336,31.8586,合肥市,瑶海区,,46,46,41,28,25,76,,83,82,13,11,6,6,0.4,0.5
2024-02-13T2200,1277A,117.3027,31.7964,合肥市,包河区,,44,44,38,29,26,84,,90,90,11,11,6,6,0.4,0.4
2024-02-13T2200,1278A,117.2776,31.7385,合肥市,滨湖新区,,48,48,43,31,30,81,,87,86,8,8,7,6,0.6,0.7
2024-02-13T2200,1279A,117.1318,31.8403,合肥市,高新区,,46,46,36,27,22,86,,88,88,10,10,6,5,0.6,0.6
2024-02-13T2200,3464A,117.3803,31.9147,合肥市,高教基地,,48,48,41,27,28,84,,93,92,7,5,5,4,0.4,0.4
2024-02-13T2200,3614A,79.924,37.0877,和田地区,地区环保局,颗粒物(PM10),273,401,113,92,26,51,,94,87,56,19,12,11,1.0,0.6
2024-02-13T2200,3615A,79.9131,37.113,和田地区,市环保局,颗粒物(PM10),219,363,104,57,30,23,,94,81,76,32,15,9,3.7,1.3
2024-02-13T2200,2516A,108.2011,24.715,河池市,东仁乐园,细颗粒物(PM2.5),143,151,77,109,57,30,,47,42,15,10,4,4,1.0,0.8
2024-02-13T2200,2517A,108.0497,24.6947,河池市,市环保站,细颗粒物(PM2.5),112,96,66,84,55,35,,59,54,22,18,8,8,1.0,0.7
2024-02-13T2200,2518A,108.0983,24.6989,河池市,市疾控中心,细颗粒物(PM2.5),110,,61,83,56,58,,74,68,18,17,9,9,0.8,0.7
2024-02-13T2200,1696A,114.6778,23.7569,河源市,源西,细颗粒物(PM2.5),88,84,47,65,33,43,,95,76,31,19,5,4,0.8,0.6
2024-02-13T2200,1697A,114.6944,23.7586,河源市,东埔,细颗粒物(PM2.5),77,93,58,56,43,67,,100,85,17,13,8,7,0.7,0.6
2024-02-13T2200,1698A,114.6892,23.7233,河源市,老城,细颗粒物(PM2.5),68,79,50,49,34,75,,102,89,10,8,7,6,0.7,0.6
2024-02-13T2200,1718A,115.4208,35.2464,菏泽市,气象局,"颗粒物(PM10),细颗粒物(PM2.5)",72,94,87,52,48,95,,119,114,19,9,6,5,0.6,0.6
2024-02-13T2200,1719A,115.4747,35.2375,菏泽市,市政协,细颗粒物(PM2.5),83,100,84,61,49,78,,110,100,22,10,7,6,0.6,0.5
2024-02-13T2200,3374A,115.5564,35.0891,菏泽市,定陶老年大学,细颗粒物(PM2.5),77,88,83,56,45,82,,110,103,17,13,8,7,0.4,0.4
2024-02-13T2200,3647A,115.4702,35.2706,菏泽市,菏泽医专,颗粒物(PM10),72,94,80,44,38,91,,114,111,23,16,10,8,0.5,0.5
2024-02-13T2200,2514A,111.5264,24.4172,贺州市,环保小区,细颗粒物(PM2.5),139,147,61,106,43,35,,85,64,24,11,11,9,1.0,0.6
2024-02-13T2200,2515A,111.5608,24.4078,贺州市,政协大楼,细颗粒物(PM2.5),124,116,60,94,37,39,,89,65,21,12,11,10,0.8,0.6
2024-02-13T2200,3534A,111.4744,24.4553,贺州市,西湾,细颗粒物(PM2.5),88,79,55,65,43,43,,86,74,19,11,10,10,0.8,0.5
2024-02-13T2200,2385A,114.17,35.9019,鹤壁市,市监测站,细颗粒物(PM2.5),217,214,125,167,92,55,,114,99,39,23,6,4,1.1,0.9
2024-02-13T2200,2386A,114.2956,35.7511,鹤壁市,市交警支队,细颗粒物(PM2.5),270,264,124,220,89,17,,110,89,56,15,14,12,1.1,0.7
2024-02-13T2200,2387A,114.2878,35.7306,鹤壁市,迎宾馆,细颗粒物(PM2.5),324,314,118,274,93,18,,114,95,70,21,12,9,1.5,0.8
2024-02-13T2200,3474A,114.2617,35.6822,鹤壁市,大新区,细颗粒物(PM2.5),145,142,124,111,90,52,,110,94,46,18,14,12,1.1,0.9
2024-02-13T2200,3596A,114.1572,35.9603,鹤壁市,南山宾馆,细颗粒物(PM2.5),134,137,106,102,78,68,,118,110,56,22,12,13,1.0,0.8
2024-02-13T2200,2244A,130.2537,47.3416,鹤岗市,哈啤分公司,,43,38,74,30,43,79,,85,85,6,19,15,21,0.2,0.9
2024-02-13T2200,2245A,130.2684,47.3086,鹤岗市,斯达机电,,48,48,77,27,48,84,,97,91,8,15,10,15,0.4,0.7
2024-02-13T2200,2246A,130.3114,47.3388,鹤岗市,东山纸板厂,,46,38,91,32,58,94,,106,101,6,25,12,20,0,1.1
2024-02-13T2200,2247A,130.1097,47.3382,鹤岗市,五号水库,,45,45,59,30,36,89,,103,96,7,11,9,11,0.5,0.7
2024-02-13T2200,2263A,127.4833,50.2524,黑河市,交通局,,35,,41,24,27,62,,73,69,14,9,8,8,0.3,0.4
2024-02-13T2200,2264A,127.5144,50.2341,黑河市,环保局,,30,,32,21,29,68,,71,71,10,13,4,8,0.2,0.4
2024-02-13T2200,2265A,127.5291,50.2472,黑河市,大黑河岛,,,81,50,64,33,69,,66,66,54,62,12,13,,
2024-02-13T2200,1074A,115.6838,37.7541,衡水市,电机北厂,细颗粒物(PM2.5),200,204,120,150,78,77,,117,113,22,8,9,7,0.8,0.8
2024-02-13T2200,1075A,115.6303,37.7316,衡水市,市监测站,细颗粒物(PM2.5),120,128,110,91,74,94,,111,110,14,15,10,9,0.8,0.9
2024-02-13T2200,3188A,115.6683,37.7217,衡水市,市城管局,细颗粒物(PM2.5),155,150,116,118,79,86,,107,104,20,13,13,12,0.7,0.7
2024-02-13T2200,3459A,115.5989,37.5491,衡水市,地表水厂,细颗粒物(PM2.5),128,130,116,97,79,86,,112,108,26,16,9,8,0.8,0.8
2024-02-13T2200,2456A,112.5003,26.9167,衡阳市,原169医院,,44,44,46,28,37,63,,90,81,20,11,16,23,0.7,0.9
2024-02-13T2200,2457A,112.6194,26.9258,衡阳市,衡阳化工总厂,细颗粒物(PM2.5),69,62,53,50,36,67,,80,77,10,11,16,11,0.4,0.4
2024-02-13T2200,2458A,112.6211,26.8956,衡阳市,珠晖区环保局,细颗粒物(PM2.5),60,67,54,43,40,60,,90,86,23,13,11,12,0.6,0.6
2024-02-13T2200,2459A,112.6197,26.8733,衡阳市,市委党校,颗粒物(PM10),51,51,45,33,30,73,,93,85,11,9,10,12,0.7,0.6
2024-02-13T2200,2460A,112.6006,26.8919,衡阳市,市监测站,细颗粒物(PM2.5),84,79,60,62,45,38,,80,75,31,12,23,11,1.1,0.8
2024-02-13T2200,2461A,112.5664,26.9056,衡阳市,真空机电公司,颗粒物(PM10),53,56,48,31,34,64,,82,80,18,13,11,9,0.9,0.8
2024-02-13T2200,3399A,112.6703,26.882,衡阳市,师范学院,,49,43,39,34,28,75,,94,86,8,5,10,10,0.6,0.5
2024-02-13T2200,2608A,103.3772,23.3993,红河哈尼族彝族自治州,污水处理厂,细颗粒物(PM2.5),58,43,39,41,31,77,,90,85,7,5,8,8,0.6,0.5
2024-02-13T2200,2609A,103.3861,23.35,红河哈尼族彝族自治州,监测站,细颗粒物(PM2.5),59,,38,42,34,75,,90,84,11,6,17,9,0.7,0.6
2024-02-13T2200,3038A,103.3758,23.368,红河哈尼族彝族自治州,州图书馆,,49,38,33,34,27,69,,84,79,8,5,6,6,0.6,0.6
2024-02-13T2200,1090A,111.6507,40.7517,呼和浩特市,呼市一监,颗粒物(PM10),62,73,82,18,51,72,,93,82,5,29,8,16,0.3,0.8
2024-02-13T2200,1091A,111.6572,40.8033,呼和浩特市,小召,颗粒物(PM10),65,80,99,18,59,66,,94,84,8,46,6,15,0.4,1
2024-02-13T2200,1094A,111.7516,40.8369,呼和浩特市,如意水处理厂,,34,34,78,17,49,65,,92,75,9,46,13,19,0.4,0.9
2024-02-13T2200,1095A,111.7276,40.8062,呼和浩特市,二十九中,颗粒物(PM10),91,132,84,67,46,23,,90,75,74,38,32,19,1.0,0.9
2024-02-13T2200,1096A,111.5512,40.7866,呼和浩特市,工大金川校区,颗粒物(PM10),61,72,76,17,37,68,,82,73,5,30,6,14,0.3,0.7
2024-02-13T2200,1097A,111.717,40.7612,呼和浩特市,化肥厂生活区,细颗粒物(PM2.5),180,199,88,136,51,19,,87,70,80,33,32,22,1.7,0.8
2024-02-13T2200,3698A,111.5968,40.8178,呼和浩特市,红旗小学,颗粒物(PM10),58,66,79,18,42,70,,85,78,10,47,8,16,0.4,0.8
2024-02-13T2200,3699A,111.6518,40.8389,呼和浩特市,海东办,颗粒物(PM10),60,70,85,16,50,71,,89,79,9,48,10,18,0.2,0.8
2024-02-13T2200,2192A,119.7594,49.2261,呼伦贝尔市,区环保局,,26,26,25,15,18,76,,84,80,8,7,4,4,0.3,0.3
2024-02-13T2200,3061A,119.7512,49.1577,呼伦贝尔市,国华电力东,,32,32,28,19,17,68,,84,79,9,5,4,4,0.2,0.3
2024-02-13T2200,1250A,120.0751,30.8669,湖州市,城西水厂,,36,36,51,20,31,86,,93,90,11,12,4,4,0.4,0.5
2024-02-13T2200,2873A,120.0875,30.8955,湖州市,仁皇山新区,,32,31,51,22,33,85,,90,86,9,14,6,6,0.4,0.6
2024-02-13T2200,2907A,120.1844,30.8596,湖州市,吴兴区站,,34,34,50,21,30,79,,91,84,9,10,6,6,0.4,0.5
2024-02-13T2200,3562A,120.4148,30.8538,湖州市,南浔区站,,29,29,51,19,30,89,,102,94,3,6,6,6,0.5,0.5
2024-02-13T2200,1607A,120.9092,40.7136,葫芦岛市,龙港区,细颗粒物(PM2.5),105,88,135,79,93,91,,95,95,18,19,9,13,0.7,1
2024-02-13T2200,1608A,120.8392,40.7514,葫芦岛市,化工街,细颗粒物(PM2.5),110,119,159,83,104,64,,81,76,16,19,13,13,1.5,1.8
2024-02-13T2200,1609A,120.8341,40.7073,葫芦岛市,新区,细颗粒物(PM2.5),110,92,128,83,95,77,,82,82,28,26,11,15,0.9,1.1
2024-02-13T2200,1610A,120.8695,40.7677,葫芦岛市,东城区,细颗粒物(PM2.5),142,,153,108,113,56,,78,72,44,39,13,21,1.1,1.6
2024-02-13T2200,2482A,109.5981,27.5721,怀化市,林科所,,26,26,45,16,33,70,,96,81,4,4,3,3,0.3,0.2
2024-02-13T2200,2483A,109.9453,27.5444,怀化市,河西地税局,,38,27,54,26,44,62,,91,76,5,5,4,4,0.5,0.5
2024-02-13T2200,2484A,109.9781,27.5342,怀化市,市四医院,,40,33,74,28,56,64,,91,80,5,8,6,6,0.8,0.7
2024-02-13T2200,2485A,109.9972,27.5578,怀化市,监测楼,,45,43,98,31,86,52,,76,68,5,7,7,6,0.6,0.8
2024-02-13T2200,2486A,110.0394,27.583,怀化市,市委党校,,45,39,74,31,61,54,,80,74,5,6,7,7,0.5,0.6
2024-02-13T2200,1210A,119.036,33.5981,淮安市,钵池山,细颗粒物(PM2.5),55,53,55,39,41,58,,86,75,22,18,10,9,0.5,0.5
2024-02-13T2200,1211A,119.007,33.575,淮安市,北京南路,细颗粒物(PM2.5),55,58,56,39,41,60,,93,80,22,17,9,8,0.7,0.7
2024-02-13T2200,1212A,118.989,33.6067,淮安市,市监测站,细颗粒物(PM2.5),64,56,59,46,40,63,,93,82,20,18,9,9,0.6,0.7
2024-02-13T2200,1213A,119.135,33.5039,淮安市,楚州区监测站,"颗粒物(PM10),细颗粒物(PM2.5)",69,88,74,50,53,34,,93,70,41,26,8,8,0.7,0.6
2024-02-13T2200,1214A,119.0186,33.6297,淮安市,淮阴区监测站,颗粒物(PM10),63,75,68,43,46,63,,90,82,26,22,8,7,0.4,0.5
2024-02-13T2200,3426A,118.8755,33.2894,淮安市,新华书店,细颗粒物(PM2.5),65,69,57,47,41,51,,84,66,26,20,8,7,0.4,0.5
2024-02-13T2200,2282A,116.8004,33.975,淮北市,监测站,细颗粒物(PM2.5),85,92,79,63,47,59,,92,81,28,19,11,8,0.8,0.7
2024-02-13T2200,2283A,116.8091,33.9007,淮北市,烈山区政府,细颗粒物(PM2.5),80,92,73,59,44,66,,101,94,26,18,14,8,0.4,0.4
2024-02-13T2200,3330A,116.8873,33.9836,淮北市,杜集区检察院,细颗粒物(PM2.5),68,66,67,49,39,83,,104,100,17,16,12,12,0.5,0.5
2024-02-13T2200,4017A,116.7923,33.9535,淮北市,市博物馆,细颗粒物(PM2.5),79,95,79,58,50,64,,94,84,26,21,14,10,0.6,0.8
2024-02-13T2200,2277A,116.8305,32.7727,淮南市,潘集区政府,细颗粒物(PM2.5),90,103,66,67,41,59,,85,72,19,10,5,4,0.5,0.4
2024-02-13T2200,2278A,117.0067,32.6524,淮南市,师范学院,颗粒物(PM10),65,79,54,33,32,71,,80,77,16,13,9,7,0.3,0.3
2024-02-13T2200,2279A,116.8569,32.5951,淮南市,谢家集区政府,颗粒物(PM10),70,89,48,42,31,60,,92,82,35,11,7,5,0.5,0.4
2024-02-13T2200,2280A,116.8281,32.633,淮南市,八公山区政府,颗粒物(PM10),54,57,49,35,29,81,,90,86,12,8,3,3,0.4,0.4
2024-02-13T2200,2281A,116.6325,32.6201,淮南市,焦岗湖风景区管理处,颗粒物(PM10),58,66,49,31,26,63,,74,70,13,9,3,3,0.2,0.1
2024-02-13T2200,2894A,117.0566,32.6531,淮南市,经济技术开发区消防队,颗粒物(PM10),65,79,58,44,31,63,,85,80,13,5,7,5,0.4,0.4
2024-02-13T2200,3329A,117.0108,32.5893,淮南市,山南新区,细颗粒物(PM2.5),94,79,59,70,39,76,,89,87,15,9,6,5,0.5,0.4
2024-02-13T2200,2446A,114.9028,30.4742,黄冈市,职工中心,,44,44,46,29,30,77,,96,92,6,6,10,12,0.5,0.5
2024-02-13T2200,2929A,114.8858,30.4519,黄冈市,红卫路,,40,39,44,28,29,69,,88,83,4,5,7,9,0.5,0.6
2024-02-13T2200,3398A,114.9136,30.4445,黄冈市,市林业局,,42,35,41,29,29,76,,96,91,8,7,6,7,0.3,0.4
2024-02-13T2200,2672A,102.0199,35.5102,黄南藏族自治州,同仁县隆务镇,,33,33,28,6,12,51,,72,66,2,2,20,21,1.0,1
2024-02-13T2200,2295A,118.2903,29.6963,黄山市,延安路89号,,35,35,44,11,24,56,,82,80,4,6,6,6,0.3,0.3
2024-02-13T2200,2296A,118.327,29.7178,黄山市,黄山东路89号,,33,33,52,19,30,57,,81,80,8,13,6,5,0.6,0.7
2024-02-13T2200,2297A,118.1371,30.2756,黄山市,黄山区政府5号楼,,48,45,46,33,31,57,,79,77,9,8,5,4,0.6,0.6
2024-02-13T2200,2423A,115.0601,30.2313,黄石市,沈家营,细颗粒物(PM2.5),54,56,50,38,33,52,,86,77,35,26,6,16,1.0,1.1
2024-02-13T2200,2424A,115.0817,30.2006,黄石市,陈家湾,细颗粒物(PM2.5),62,56,51,44,39,56,,90,81,29,23,18,16,1.0,0.8
2024-02-13T2200,2426A,114.8988,30.2019,黄石市,铁山,颗粒物(PM10),59,67,50,35,28,64,,100,85,26,17,15,10,0.6,0.7
2024-02-13T2200,2427A,115.0307,30.2092,黄石市,团城山,细颗粒物(PM2.5),64,57,58,46,28,48,,96,84,28,19,16,18,1.0,1
2024-02-13T2200,3149A,115.0235,30.1578,黄石市,笔架山北路,颗粒物(PM10),61,72,40,21,23,70,,101,90,19,17,15,14,0.7,0.8
2024-02-13T2200,1392A,114.4183,23.0528,惠州市,河南岸金山湖子站,细颗粒物(PM2.5),59,61,47,42,32,72,,100,94,12,6,5,5,0.5,0.5
2024-02-13T2200,1393A,114.4053,23.0822,惠州市,下埔横江三路子站,颗粒物(PM10),58,65,57,39,37,75,,106,96,16,14,6,5,0.6,0.6
2024-02-13T2200,1394A,114.4103,23.1142,惠州市,江北云山西路子站,,,71,55,40,36,,,111,104,11,7,10,9,,0.5
2024-02-13T2200,1395A,114.4645,22.7833,惠州市,惠阳区承修路船湖子站,颗粒物(PM10),51,51,45,29,27,98,,107,102,11,10,8,8,0.6,0.6
2024-02-13T2200,1396A,114.5317,22.7422,惠州市,大亚湾管委会子站,,45,45,45,25,25,103,,111,109,13,13,6,6,0.4,0.4
2024-02-13T2200,3314A,114.4338,22.8134,惠州市,惠阳秋长,,49,48,41,34,25,106,,115,109,7,5,8,7,0.5,0.4
2024-02-13T2200,3452A,114.6517,22.775,惠州市,大亚湾霞涌,细颗粒物(PM2.5),59,62,45,42,29,66,,111,102,15,9,8,8,0.4,0.5
2024-02-13T2200,2240A,130.9762,45.3001,鸡西市,环保局,颗粒物(PM10),68,85,73,44,42,80,,93,91,6,8,8,10,0.4,0.4
2024-02-13T2200,2243A,130.9429,45.3039,鸡西市,第一中学,颗粒物(PM10),63,75,72,37,42,89,,109,102,6,8,7,10,0.3,0.4
2024-02-13T2200,3707A,131.0207,45.3073,鸡西市,欧美日汽修厂,颗粒物(PM10),66,82,77,47,50,80,,91,87,10,12,6,12,0.3,0.7
2024-02-13T2200,3709A,130.9967,45.3106,鸡西市,市政设施管理处,颗粒物(PM10),69,87,73,42,48,90,,109,102,12,16,4,6,0.7,0.8
2024-02-13T2200,2367A,114.9754,27.0803,吉安市,红声器材厂,细颗粒物(PM2.5),78,85,55,57,31,30,,65,54,31,15,13,11,1.0,0.8
2024-02-13T2200,2368A,114.9658,27.0999,吉安市,市森林工业局,细颗粒物(PM2.5),79,75,54,58,39,40,,58,54,16,15,8,8,0.3,0.4
2024-02-13T2200,2369A,114.99,27.1312,吉安市,市环境监测站,细颗粒物(PM2.5),79,82,59,58,38,43,,62,54,19,16,8,7,0.5,0.5
2024-02-13T2200,2370A,115.0093,27.0968,吉安市,青原区法院,细颗粒物(PM2.5),94,97,54,70,35,19,,73,54,41,20,10,9,0.9,0.6
2024-02-13T2200,1772A,126.54,43.8622,吉林市,哈达湾,颗粒物(PM10),74,98,91,44,60,76,,115,102,10,9,3,6,0.8,0.8
2024-02-13T2200,1773A,126.5844,43.8358,吉林市,东局子,颗粒物(PM10),78,106,95,55,62,67,,109,91,20,13,9,13,0.8,1
2024-02-13T2200,1774A,126.5052,43.8245,吉林市,电力学院,"颗粒物(PM10),细颗粒物(PM2.5)",69,88,87,50,61,79,,115,104,10,9,9,12,0.8,0.8
2024-02-13T2200,1775A,126.6133,43.8972,吉林市,江北,颗粒物(PM10),81,111,102,54,64,65,,106,90,18,12,12,18,0.9,0.9
2024-02-13T2200,1776A,126.555,43.8306,吉林市,江南公园,细颗粒物(PM2.5),78,100,95,57,68,75,,115,100,15,10,8,8,0.7,0.7
2024-02-13T2200,2868A,126.4739,43.953,吉林市,九站,颗粒物(PM10),69,88,94,44,63,62,,121,98,23,12,9,15,0.7,0.9
2024-02-13T2200,1299A,116.9862,36.6114,济南市,科干所,细颗粒物(PM2.5),59,58,59,42,36,107,,116,113,9,5,10,10,0.9,0.8
2024-02-13T2200,1300A,116.9376,36.665,济南市,农科所,颗粒物(PM10),61,71,65,42,34,63,,111,96,37,15,16,10,0.8,0.7
2024-02-13T2200,1301A,117.1265,36.6734,济南市,开发区,细颗粒物(PM2.5),62,66,53,44,30,68,,103,95,28,8,10,8,1.0,0.7
2024-02-13T2200,1303A,117.0624,36.6868,济南市,省种子仓库,颗粒物(PM10),81,112,65,58,32,41,,118,96,52,10,10,8,1.1,0.8
2024-02-13T2200,1304A,116.9489,36.6447,济南市,机床二厂,颗粒物(PM10),64,78,67,44,35,87,,120,108,24,12,27,14,1.1,0.9
2024-02-13T2200,1305A,117.0495,36.663,济南市,市监测站,颗粒物(PM10),56,61,57,39,35,102,,118,104,20,15,15,15,0.7,0.6
2024-02-13T2200,1306A,116.7675,36.5484,济南市,长清党校,细颗粒物(PM2.5),70,81,74,51,45,113,,125,122,21,15,11,11,0.9,0.8
2024-02-13T2200,1616A,117.6795,36.229,济南市,技术学院,细颗粒物(PM2.5),92,102,79,68,47,75,,112,99,48,30,16,15,1.1,1.1
2024-02-13T2200,1961A,117.532,36.6868,济南市,东山小学,细颗粒物(PM2.5),70,78,66,51,38,89,,120,108,21,13,14,10,0.5,0.5
2024-02-13T2200,3059A,117.7161,36.2049,济南市,泰兴公司,,,,81,146,54,60,,109,88,45,27,26,15,1.2,1.2
2024-02-13T2200,3064A,117.6867,36.2171,济南市,莱芜战役纪念馆,细颗粒物(PM2.5),100,129,90,75,46,65,,104,92,34,25,16,14,1.0,1
2024-02-13T2200,3494A,117.1673,36.9782,济南市,济阳区政府,"颗粒物(PM10),细颗粒物(PM2.5)",64,78,74,46,39,90,,118,110,21,15,15,12,0.6,0.5
2024-02-13T2200,3495A,117.1171,36.63,济南市,锦屏中学,细颗粒物(PM2.5),53,54,54,37,32,92,,116,103,12,9,9,9,0.6,0.5
2024-02-13T2200,3682A,116.9814,36.6819,济南市,济南四建,,,78,57,54,40,,,110,101,38,21,20,14,0.9,0.8
2024-02-13T2200,1653A,116.6251,35.4302,济宁市,火炬城,颗粒物(PM10),65,80,79,44,45,73,,103,98,16,12,10,7,0.8,0.8
2024-02-13T2200,1655A,116.5491,35.4042,济宁市,电化厂,颗粒物(PM10),65,80,82,44,41,84,,110,105,16,12,7,7,0.6,0.7
2024-02-13T2200,3500A,116.5814,35.3707,济宁市,北湖一中,颗粒物(PM10),61,72,80,39,46,80,,104,101,11,11,11,10,0.7,0.6
2024-02-13T2200,3501A,116.8249,35.5593,济宁市,服务中心,细颗粒物(PM2.5),79,105,89,58,43,68,,105,95,23,16,8,7,0.7,0.8
2024-02-13T2200,3678A,116.5907,35.4054,济宁市,市第七中学,细颗粒物(PM2.5),70,72,85,51,44,72,,106,99,22,14,9,6,0.8,0.8
2024-02-13T2200,2255A,130.2751,46.8028,佳木斯市,佳纺,细颗粒物(PM2.5),59,58,82,42,55,83,,113,96,7,12,2,6,0.5,0.8
2024-02-13T2200,2256A,130.3995,46.8307,佳木斯市,发电厂,细颗粒物(PM2.5),52,47,77,36,52,85,,112,99,9,15,3,7,0.4,0.7
2024-02-13T2200,2257A,130.3258,46.7975,佳木斯市,环保局,颗粒物(PM10),54,57,78,36,57,79,,111,95,10,11,5,9,0.4,0.7
2024-02-13T2200,2258A,130.3648,46.8032,佳木斯市,十一中,颗粒物(PM10),56,62,81,37,58,70,,110,91,18,12,10,10,0.5,0.7
2024-02-13T2200,2259A,130.3794,46.7588,佳木斯市,四丰,,,54,72,35,45,,,120,,,,1,1,,0.3
2024-02-13T2200,1252A,120.7436,30.778,嘉兴市,清河小学,,40,40,52,18,25,69,,94,77,12,8,6,6,0.3,0.5
2024-02-13T2200,1253A,120.726,30.7478,嘉兴市,嘉兴学院,,41,41,53,20,27,73,,100,84,12,9,6,6,0.5,0.6
2024-02-13T2200,2872A,120.7846,30.7525,嘉兴市,南湖区残联,,45,45,61,24,28,78,,107,92,11,5,7,6,0.5,0.5
2024-02-13T2200,3407A,120.6916,30.7739,嘉兴市,秀洲住建,,39,39,51,23,28,67,,93,81,15,11,7,7,0.4,0.5
2024-02-13T2200,1945A,98.2908,39.7711,嘉峪关市,气象局,颗粒物(PM10),82,114,75,22,24,79,,84,84,7,24,3,39,0.5,1.1
2024-02-13T2200,2884A,98.2672,39.7978,嘉峪关市,酒钢宾馆,颗粒物(PM10),85,119,71,27,23,74,,84,82,22,16,90,40,1.6,0.8
2024-02-13T2200,3248A,98.2643,39.7724,嘉峪关市,雄关区,颗粒物(PM10),69,87,63,23,25,77,,82,81,10,27,9,32,0.1,0.7
2024-02-13T2200,1383A,113.1064,22.6058,江门市,北街,,48,38,43,33,29,83,,110,100,14,15,7,7,0.3,0.3
2024-02-13T2200,1384A,113.0731,22.5835,江门市,西区,颗粒物(PM10),55,59,53,37,36,92,,110,104,12,16,5,7,0.4,0.4
2024-02-13T2200,1385A,113.0219,22.5311,江门市,圭峰西,细颗粒物(PM2.5),53,40,43,37,27,91,,116,108,13,13,6,6,0.6,0.5
2024-02-13T2200,1386A,113.0828,22.5947,江门市,东湖,颗粒物(PM10),54,57,52,36,40,90,,108,102,11,15,6,7,0.5,0.5
2024-02-13T2200,3311A,113.1075,22.5647,江门市,江海富民,颗粒物(PM10),58,66,54,23,23,88,,115,106,13,13,6,7,0.4,0.4
2024-02-13T2200,3449A,113.05,22.4667,江门市,新会银湖,细颗粒物(PM2.5),97,,45,72,30,82,,116,105,15,15,5,6,0.6,0.5
2024-02-13T2200,1828A,113.227,35.2125,焦作市,市环保局,细颗粒物(PM2.5),140,166,123,107,89,79,,108,105,28,20,16,14,1.3,1.2
2024-02-13T2200,3169A,113.2725,35.2067,焦作市,太极体育中心,细颗粒物(PM2.5),118,129,128,89,89,108,,118,118,19,25,14,14,0.9,1.1
2024-02-13T2200,3335A,113.3137,35.2641,焦作市,马村街道办,细颗粒物(PM2.5),117,122,106,88,77,104,,117,115,14,18,15,15,0.6,0.7
2024-02-13T2200,3336A,113.2465,35.2373,焦作市,焦作技师学院,细颗粒物(PM2.5),122,124,102,92,71,83,,107,105,23,24,19,19,1.2,1.2
2024-02-13T2200,3477A,113.1656,35.2539,焦作市,中站许衡医院,细颗粒物(PM2.5),113,117,97,85,64,114,,120,120,10,16,16,14,0.7,0.9
2024-02-13T2200,3981A,113.2449,35.1803,焦作市,原李万街道办,细颗粒物(PM2.5),125,154,118,95,77,110,,116,116,23,26,19,18,1.0,1.2
2024-02-13T2200,1708A,116.3701,23.5345,揭阳市,新兴,细颗粒物(PM2.5),99,,65,74,50,77,,116,105,26,10,16,9,2.0,0.9
2024-02-13T2200,1709A,116.3264,23.5443,揭阳市,西马,细颗粒物(PM2.5),98,129,65,73,49,83,,116,107,18,9,12,9,1.2,0.6
2024-02-13T2200,1710A,116.3611,23.5626,揭阳市,东兴,细颗粒物(PM2.5),75,77,64,55,45,79,,116,106,23,10,16,8,1.9,0.7
2024-02-13T2200,1711A,116.4151,23.5294,揭阳市,渔湖,颗粒物(PM10),71,92,68,46,45,82,,117,106,22,10,19,10,2.3,0.8
2024-02-13T2200,3320A,116.403,23.5699,揭阳市,曲溪,细颗粒物(PM2.5),113,119,69,85,48,77,,118,103,20,11,8,5,0.9,0.7
2024-02-13T2200,1944A,102.1692,38.5167,金昌市,天庆家园,,41,41,59,7,19,91,,92,92,7,16,6,11,0.4,0.5
2024-02-13T2200,3170A,102.1864,38.5253,金昌市,市委党校,,48,48,65,11,26,89,,91,91,2,14,4,10,0.5,0.6
2024-02-13T2200,4022A,102.1647,38.5371,金昌市,金川区人防中心,,42,42,53,14,17,90,,92,92,4,7,5,7,0.5,0.5
2024-02-13T2200,1262A,119.647,29.077,金华市,十五中,细颗粒物(PM2.5),72,82,56,52,32,41,,89,61,17,12,4,4,0.6,0.5
2024-02-13T2200,1263A,119.686,29.1029,金华市,监测站,细颗粒物(PM2.5),72,78,58,52,32,46,,91,68,18,12,4,3,0.7,0.5
2024-02-13T2200,3659A,119.656,29.1131,金华市,气象局,细颗粒物(PM2.5),79,89,53,58,33,37,,90,61,19,13,4,3,1.0,0.6
2024-02-13T2200,1767A,121.1115,41.0879,锦州市,南山,细颗粒物(PM2.5),158,,157,120,123,62,,101,91,40,30,22,46,1.0,1.1
2024-02-13T2200,1768A,121.0533,40.8434,锦州市,开发区,细颗粒物(PM2.5),122,119,146,92,99,54,,78,73,54,32,17,18,1.0,1.2
2024-02-13T2200,1769A,121.1836,41.1119,锦州市,百股街道,细颗粒物(PM2.5),156,143,139,119,112,46,,87,75,39,22,47,30,1.3,1.2
2024-02-13T2200,1770A,121.1178,41.1222,锦州市,天安街道,细颗粒物(PM2.5),163,136,167,124,125,51,,83,66,36,36,28,35,1.3,1.4
2024-02-13T2200,1771A,121.1303,41.1386,锦州市,北湖公园,细颗粒物(PM2.5),166,,137,126,121,50,,79,66,35,35,21,34,1.4,1.4
2024-02-13T2200,2160A,112.85,35.5051,晋城市,自来水公司,细颗粒物(PM2.5),170,209,108,129,67,40,,116,104,55,29,12,18,1.3,1.7
2024-02-13T2200,2161A,112.8318,35.4936,晋城市,白云商贸,,,,114,,56,46,,108,96,39,25,10,16,1.2,1.3
2024-02-13T2200,2162A,112.8508,35.4887,晋城市,市环保局,细颗粒物(PM2.5),125,188,125,95,65,42,,111,98,49,33,12,17,1.3,1.6
2024-02-13T2200,2163A,112.8676,35.4897,晋城市,技术学院,细颗粒物(PM2.5),160,246,115,122,62,38,,111,101,63,36,11,17,1.3,1.7
2024-02-13T2200,3620A,112.8271,35.4828,晋城市,泽州一中,细颗粒物(PM2.5),107,113,99,80,55,95,,112,112,23,23,18,21,1.3,1.5
2024-02-13T2200,2171A,112.7532,37.6945,晋中市,锦纶小区,细颗粒物(PM2.5),83,102,83,61,44,57,,114,97,29,22,23,17,0.7,0.6
2024-02-13T2200,2173A,112.7249,37.7067,晋中市,南都小区,细颗粒物(PM2.5),183,201,105,138,60,22,,112,84,66,35,23,18,1.0,0.8
2024-02-13T2200,2174A,112.6991,37.6982,晋中市,榆次区政府,细颗粒物(PM2.5),133,147,90,101,52,29,,114,87,55,32,24,20,1.0,0.9
2024-02-13T2200,2865A,112.7195,37.6828,晋中市,榆次三中,颗粒物(PM10),86,122,86,61,42,40,,116,95,45,27,22,17,0.9,0.8
2024-02-13T2200,2439A,112.2014,31.0481,荆门市,竹园小学,颗粒物(PM10),73,96,84,50,55,73,,102,92,28,22,11,10,0.8,0.8
2024-02-13T2200,2440A,112.1969,30.9891,荆门市,掇刀,细颗粒物(PM2.5),72,84,80,52,55,89,,104,96,17,24,12,12,0.6,0.8
2024-02-13T2200,2441A,112.2213,31.0386,荆门市,石化一小,细颗粒物(PM2.5),72,73,83,52,57,99,,104,103,13,18,13,16,0.6,0.8
2024-02-13T2200,3012A,112.1849,31.0362,荆门市,西山林语,颗粒物(PM10),59,68,82,41,49,83,,102,96,22,16,18,21,0.5,0.7
2024-02-13T2200,3547A,112.1632,31.0138,荆门市,龙泉中学南校,细颗粒物(PM2.5),77,78,76,56,56,93,,107,105,16,20,8,10,0.4,0.6
2024-02-13T2200,1844A,112.2494,30.3197,荆州市,市图书馆,细颗粒物(PM2.5),59,46,61,42,51,75,,92,90,15,17,8,8,0.9,0.9
2024-02-13T2200,1845A,112.2008,30.3544,荆州市,市委党校,细颗粒物(PM2.5),78,,61,57,53,83,,100,98,24,20,6,6,0.6,0.6
2024-02-13T2200,3194A,112.2747,30.3122,荆州市,管委会,细颗粒物(PM2.5),62,50,55,44,49,80,,100,98,14,14,9,10,0.6,0.7
2024-02-13T2200,3548A,112.1655,30.3364,荆州市,学苑路,细颗粒物(PM2.5),68,82,56,49,50,62,,89,86,25,17,7,7,0.9,1
2024-02-13T2200,2342A,117.3102,29.3867,景德镇市,王港中学,,38,34,30,26,24,60,,78,66,2,3,2,3,0.3,0.1
2024-02-13T2200,2343A,117.2117,29.2933,景德镇市,老干部活动中心,,29,27,34,20,20,44,,66,54,10,8,6,6,0.2,0.2
2024-02-13T2200,2344A,117.1894,29.2789,景德镇市,兽医站,,35,35,38,22,25,53,,77,62,8,8,3,5,0.3,0.3
2024-02-13T2200,2345A,117.1547,29.2617,景德镇市,台达陶瓷,,43,34,36,30,22,47,,76,62,9,9,3,4,0.4,0.4
2024-02-13T2200,2346A,117.2461,29.2956,景德镇市,陶研所,,40,40,27,14,15,60,,72,61,8,7,4,4,0.2,0.4
2024-02-13T2200,1803A,115.9872,29.6815,九江市,十里,,50,41,46,35,35,66,,90,83,20,21,11,10,0.6,0.7
2024-02-13T2200,1804A,115.9584,29.7046,九江市,茅山头,细颗粒物(PM2.5),69,58,68,50,55,50,,85,78,39,41,12,12,0.7,0.8
2024-02-13T2200,1805A,115.9877,29.7295,九江市,西园,细颗粒物(PM2.5),55,52,69,39,50,62,,77,74,30,41,7,8,0.5,0.5
2024-02-13T2200,1806A,116.0172,29.6547,九江市,五七二七厂,,38,26,30,26,24,41,,75,67,15,12,8,8,0.6,0.6
2024-02-13T2200,1808A,115.9114,29.6038,九江市,综合工业园,,40,31,35,28,27,81,,99,94,14,14,11,12,0.6,0.4
2024-02-13T2200,1809A,116.0721,29.7535,九江市,石化总厂,,44,44,38,25,24,81,,96,94,15,10,9,11,0.6,0.6
2024-02-13T2200,1810A,115.9773,29.5698,九江市,庐山气象台,,28,23,20,14,17,88,,95,94,4,2,7,7,2.0,1.2
2024-02-13T2200,3190A,116.0254,29.6994,九江市,外国语学校,细颗粒物(PM2.5),57,50,46,40,32,65,,71,69,19,26,9,9,0.6,0.7
2024-02-13T2200,2658A,98.5061,39.7443,酒泉市,仓门街子站,颗粒物(PM10),81,112,69,24,31,80,,88,86,6,9,4,5,0.3,0.4
2024-02-13T2200,2659A,98.4989,39.7256,酒泉市,油田生活基地,颗粒物(PM10),79,107,68,20,28,84,,91,88,6,7,6,6,0.3,0.4
2024-02-13T2200,2698A,76.0072,39.4467,喀什地区,巡警大队,颗粒物(PM10),52,53,82,15,22,58,,94,90,46,40,9,8,1.1,1.4
2024-02-13T2200,2699A,75.9755,39.4694,喀什地区,吾办,颗粒物(PM10),56,62,110,17,39,47,,82,78,51,50,3,5,0.9,1.6
2024-02-13T2200,4027A,75.9483,39.4689,喀什地区,老干局,颗粒物(PM10),57,63,101,18,27,63,,91,88,36,35,8,7,1.0,1.4
2024-02-13T2200,1824A,114.3389,34.7781,开封市,肿瘤医院,细颗粒物(PM2.5),105,115,95,79,61,76,,102,96,22,13,2,2,0.7,0.7
2024-02-13T2200,1826A,114.2885,34.7965,开封市,世纪星幼儿园,细颗粒物(PM2.5),190,214,106,143,76,46,,107,94,43,12,13,6,0.9,0.6
2024-02-13T2200,3147A,114.3438,34.8106,开封市,龙亭公园,细颗粒物(PM2.5),173,238,105,131,65,30,,100,84,65,18,11,6,1.4,1
2024-02-13T2200,3210A,114.3644,34.7964,开封市,汴京公园,细颗粒物(PM2.5),219,211,114,169,74,11,,101,73,76,22,6,4,1.3,0.7
2024-02-13T2200,3473A,114.2485,34.8306,开封市,技师学院,细颗粒物(PM2.5),97,113,91,72,63,86,,109,106,15,7,5,4,0.8,0.8
2024-02-13T2200,3592A,114.4644,34.7556,开封市,祥符区生态环境局,细颗粒物(PM2.5),102,123,98,76,62,60,,103,89,30,17,7,5,0.6,0.5
2024-02-13T2200,1951A,84.895,45.6094,克拉玛依市,长征新村,,23,22,48,2,25,72,,83,77,16,17,9,9,0.3,0.4
2024-02-13T2200,1952A,84.8988,45.5893,克拉玛依市,南林小区,,32,25,50,22,40,74,,79,78,17,16,4,4,0.3,0.5
2024-02-13T2200,1954A,84.905,44.3396,克拉玛依市,独山子区,细颗粒物(PM2.5),69,79,26,50,20,79,,84,83,16,24,5,6,0.5,0.4
2024-02-13T2200,1955A,85.6979,46.098,克拉玛依市,乌尔禾区商贸楼,,23,23,28,14,14,72,,78,78,18,23,4,4,0.3,0.4
2024-02-13T2200,3612A,85.1045,45.6899,克拉玛依市,白碱滩区新站,,25,25,33,16,16,80,,81,81,11,9,9,9,0.2,0.3
2024-02-13T2200,2697A,76.1454,39.7142,克孜勒苏柯尔克孜自治州,市人民政府,,35,35,35,14,9,84,,95,88,8,4,4,4,0.6,1.1
2024-02-13T2200,3665A,76.1658,39.7157,克孜勒苏柯尔克孜自治州,克州文化中心,颗粒物(PM10),52,53,34,13,8,88,,98,90,6,3,5,5,0.3,0.2
2024-02-13T2200,1450A,102.8204,24.8886,昆明市,呈贡新区,,40,28,27,28,22,76,,94,89,8,6,6,5,0.6,0.7
2024-02-13T2200,1451A,102.6251,24.9608,昆明市,西山森林公园,,29,19,24,15,18,92,,98,96,5,6,7,7,0.8,1
2024-02-13T2200,1452A,102.7252,25.0902,昆明市,龙泉镇,,38,38,28,14,20,64,,96,88,17,11,12,12,0.5,0.6
2024-02-13T2200,1453A,102.7266,25.0375,昆明市,东风东路,,25,21,28,15,25,77,,91,86,12,11,6,9,0.5,0.6
2024-02-13T2200,1454A,102.6742,25.0669,昆明市,金鼎山,,28,24,31,16,21,88,,96,92,6,11,8,7,0.5,0.6
2024-02-13T2200,1455A,102.6644,25.0401,昆明市,碧鸡广场,,26,22,28,17,22,82,,94,89,9,9,9,10,0.6,0.7
2024-02-13T2200,3179A,102.7494,25.0119,昆明市,官渡区博物馆,,31,31,29,15,23,79,,90,85,6,11,8,8,0.7,0.6
2024-02-13T2200,3375A,102.8017,24.8336,昆明市,青年创业园,,25,23,27,16,22,78,,94,89,4,7,9,10,0.6,0.7
2024-02-13T2200,3550A,102.7997,24.9786,昆明市,昆明学院,,25,20,29,11,21,77,,91,86,3,5,8,8,0.5,0.7
2024-02-13T2200,3551A,102.5967,24.6736,昆明市,晋宁区生态环境分局,细颗粒物(PM2.5),67,72,39,48,24,68,,94,88,9,9,5,4,0.6,0.7
2024-02-13T2200,3552A,102.6678,24.9856,昆明市,云天化总部,,27,18,26,13,21,86,,95,92,4,7,6,7,0.7,0.8
2024-02-13T2200,1456A,91.1319,29.6514,拉萨市,八廓街,,27,27,15,13,9,75,,93,92,28,14,8,6,0.5,0.3
2024-02-13T2200,1457A,91.1221,29.6747,拉萨市,市环保局,,30,18,19,10,11,94,,98,98,10,14,7,6,0.7,0.7
2024-02-13T2200,1458A,91.0874,29.6475,拉萨市,区监测站,,27,19,15,8,7,84,,96,96,17,12,4,4,0.6,0.5
2024-02-13T2200,1459A,91.1774,29.6541,拉萨市,西藏大学,,27,24,13,12,7,84,,96,96,19,6,5,4,0.6,0.4
2024-02-13T2200,1460A,90.9798,29.6588,拉萨市,区辐射站,,32,26,15,22,9,77,,92,92,26,11,9,5,0.8,0.4
2024-02-13T2200,1461A,91.0834,29.6292,拉萨市,拉萨火车站,,29,14,13,6,7,91,,98,98,12,15,4,4,0.3,0.4
2024-02-13T2200,2520A,109.2203,23.7256,来宾市,来宾技工学校,细颗粒物(PM2.5),144,143,99,110,80,37,,62,57,25,18,10,10,1.2,0.9
2024-02-13T2200,3535A,109.1781,23.7297,来宾市,兴宾区政府,细颗粒物(PM2.5),143,138,81,109,60,42,,74,62,24,14,12,10,1.2,0.8
2024-02-13T2200,4002A,109.2416,23.7461,来宾市,中南小学,细颗粒物(PM2.5),261,303,119,211,91,7,,48,42,44,30,7,8,2.5,1.3
2024-02-13T2200,1476A,103.631,36.1031,兰州市,兰炼宾馆,颗粒物(PM10),103,155,79,38,47,75,,90,87,12,38,12,28,0.4,1
2024-02-13T2200,1478A,103.8412,36.0726,兰州市,生物制品所,颗粒物(PM10),107,164,81,44,52,78,,79,79,11,46,6,21,0.3,1.2
2024-02-13T2200,1479A,103.831,36.0464,兰州市,铁路设计院,颗粒物(PM10),100,150,84,44,54,72,,73,73,17,58,8,27,0.4,1.6
2024-02-13T2200,3186A,103.7158,36.1058,兰州市,教育港,颗粒物(PM10),114,177,75,40,49,68,,78,77,20,44,6,23,0.3,1.2
2024-02-13T2200,3241A,103.7439,36.0842,兰州市,百合公园,颗粒物(PM10),104,158,74,35,48,72,,69,69,11,45,4,17,0.5,1.4
2024-02-13T2200,3242A,103.9611,35.998,兰州市,和平,颗粒物(PM10),101,151,72,39,46,80,,87,87,9,29,17,27,0.4,1.3
2024-02-13T2200,3245A,103.6633,36.533,兰州新区,新区管委会,颗粒物(PM10),87,123,56,36,29,85,,88,88,6,12,5,15,0.3,0.7
2024-02-13T2200,3246A,103.6975,36.4789,兰州新区,舟曲中学,颗粒物(PM10),112,174,59,26,27,82,,89,89,6,16,7,15,0.4,0.7
2024-02-13T2200,1067A,116.6708,39.5111,廊坊市,药材公司,细颗粒物(PM2.5),213,245,248,163,161,99,,118,102,33,51,8,6,1.3,1.3
2024-02-13T2200,1068A,116.7214,39.5589,廊坊市,开发区,细颗粒物(PM2.5),283,277,215,233,164,70,,122,112,40,37,5,6,1.3,1.2
2024-02-13T2200,1070A,116.7244,39.5269,廊坊市,北华航天学院,细颗粒物(PM2.5),282,337,234,232,159,37,,125,102,70,42,6,6,1.5,1.3
2024-02-13T2200,2919A,116.7022,39.5453,廊坊市,河北工业大学,细颗粒物(PM2.5),299,319,231,249,170,20,,118,97,103,44,8,7,1.6,1.3
2024-02-13T2200,2535A,103.7723,29.5462,乐山市,花湖湾,细颗粒物(PM2.5),122,127,110,92,90,79,,108,106,30,22,8,42,0.6,0.8
2024-02-13T2200,2536A,103.7627,29.5844,乐山市,牛耳桥,细颗粒物(PM2.5),114,110,99,86,84,5,,89,70,81,35,6,6,1.5,1.1
2024-02-13T2200,2537A,103.7508,29.6006,乐山市,市第三水厂,细颗粒物(PM2.5),118,118,100,89,80,8,,89,71,78,38,5,5,1.4,1.1
2024-02-13T2200,2538A,103.7571,29.5664,乐山市,市监测站,细颗粒物(PM2.5),94,96,95,70,77,69,,100,98,34,27,8,22,0.7,0.9
2024-02-13T2200,3361A,103.7311,29.5628,乐山市,理工大学,细颗粒物(PM2.5),115,97,95,87,80,64,,111,108,38,24,6,17,1.0,1
2024-02-13T2200,2599A,100.2497,26.8802,丽江市,丽江古城,,31,31,23,16,14,79,,88,86,19,16,6,6,0.5,0.5
2024-02-13T2200,2600A,100.2203,26.8906,丽江市,市中心,,21,20,12,6,5,66,,86,81,27,11,8,8,0.5,0.5
2024-02-13T2200,1267A,119.914,28.4514,丽水市,监测站大楼,细颗粒物(PM2.5),79,62,48,58,33,26,,88,51,22,13,5,5,0.7,0.5
2024-02-13T2200,1268A,119.93,28.4586,丽水市,莲都小学,细颗粒物(PM2.5),117,112,54,88,33,12,,89,54,40,15,4,4,0.9,0.5
2024-02-13T2200,1269A,119.879,28.4231,丽水市,余庄前,,34,34,32,18,20,27,,93,65,9,6,4,4,0.5,0.5
2024-02-13T2200,1173A,119.176,34.5885,连云港市,市环境监测站,细颗粒物(PM2.5),85,88,82,63,56,65,,99,91,29,23,9,9,0.7,0.8
2024-02-13T2200,3000A,119.3581,34.6972,连云港市,德源药业,细颗粒物(PM2.5),79,75,75,58,51,78,,107,100,14,14,7,6,0.5,0.5
2024-02-13T2200,3007A,119.178,34.844,连云港市,新城一中,细颗粒物(PM2.5),113,101,82,85,62,35,,96,68,48,28,10,11,0.8,0.8
2024-02-13T2200,3008A,119.3608,34.7519,连云港市,胡沟管理处,颗粒物(PM10),53,56,68,36,41,87,,97,96,16,20,9,11,0.3,0.4
2024-02-13T2200,3009A,119.1478,34.5911,连云港市,矿山设计院,细颗粒物(PM2.5),77,78,85,56,54,72,,98,94,16,17,7,8,0.6,0.7
2024-02-13T2200,3434A,119.2413,34.6539,连云港市,工贸学校,细颗粒物(PM2.5),60,64,78,43,48,91,,117,114,23,22,11,11,0.6,0.7
2024-02-13T2200,3664A,119.4172,34.7341,连云港市,连云街道,颗粒物(PM10),63,76,99,44,52,95,,95,95,9,35,4,10,0.8,0.8
2024-02-13T2200,2571A,102.3431,27.8099,凉山彝族自治州,青龙寺,,24,24,22,5,6,74,,96,88,5,5,5,5,0.7,0.8
2024-02-13T2200,2572A,102.2721,27.8415,凉山彝族自治州,邛海宾馆,,49,,25,34,35,70,,98,94,13,9,10,11,0.7,0.8
2024-02-13T2200,2573A,102.2625,27.898,凉山彝族自治州,西昌市政府,,26,26,21,18,16,83,,102,99,9,7,11,12,0.9,0.9
2024-02-13T2200,2574A,102.2685,27.8851,凉山彝族自治州,凉山州政府,,23,22,22,16,16,72,,92,90,10,9,8,10,0.7,0.8
2024-02-13T2200,2575A,102.237,27.8914,凉山彝族自治州,长安,,28,24,25,14,17,88,,98,97,10,11,15,14,1.1,1.1
2024-02-13T2200,2212A,123.2,41.1953,辽阳市,宏伟区,细颗粒物(PM2.5),79,76,85,58,61,101,,98,98,8,8,12,15,0.9,0.9
2024-02-13T2200,2213A,123.1683,41.2495,辽阳市,新华园,细颗粒物(PM2.5),87,90,85,64,65,105,,102,101,11,10,13,17,1.0,1
2024-02-13T2200,2214A,123.2354,41.2639,辽阳市,滨河路,细颗粒物(PM2.5),88,73,77,65,72,100,,94,94,7,8,9,14,0.9,1
2024-02-13T2200,2215A,123.149,41.2991,辽阳市,铁西工业园,细颗粒物(PM2.5),87,79,84,64,66,112,,106,106,12,12,12,16,0.9,0.9
2024-02-13T2200,2227A,125.1358,42.8845,辽源市,环保局,细颗粒物(PM2.5),133,126,73,101,52,61,,121,98,37,14,13,12,1.7,1
2024-02-13T2200,3239A,125.0764,42.9078,辽源市,银鹰制药,细颗粒物(PM2.5),100,102,77,75,55,71,,124,100,18,8,9,10,1.1,0.9
2024-02-13T2200,1625A,115.9848,36.4372,聊城市,区政府,细颗粒物(PM2.5),80,94,90,59,51,96,,110,108,10,8,10,8,0.8,0.7
2024-02-13T2200,2878A,116.0072,36.4343,聊城市,聊大东校,细颗粒物(PM2.5),85,94,82,63,54,100,,120,118,16,12,14,9,0.7,0.8
2024-02-13T2200,3200A,115.9819,36.4978,聊城市,监控中心,细颗粒物(PM2.5),83,97,89,61,49,99,,113,111,12,8,11,9,0.8,0.7
2024-02-13T2200,3513A,116.0445,36.4361,聊城市,九州社区,"颗粒物(PM10),细颗粒物(PM2.5)",79,108,98,58,49,99,,116,114,16,14,8,6,0.7,0.6
2024-02-13T2200,4018A,116.0567,36.4608,聊城市,星美广场,"颗粒物(PM10),细颗粒物(PM2.5)",79,108,101,58,50,103,,114,113,13,11,3,3,0.8,0.8
2024-02-13T2200,2632A,94.3681,29.6376,林芝市,林芝监测站,,28,12,11,6,6,87,,87,87,2,2,5,4,0.5,0.5
2024-02-13T2200,2633A,94.3616,29.6616,林芝市,林芝人民医院,,27,13,12,8,7,84,,85,85,3,3,10,10,0.5,0.5
2024-02-13T2200,2603A,100.0781,23.8982,临沧市,市环保局,细颗粒物(PM2.5),53,,31,37,31,66,,91,87,9,8,6,6,0.4,0.3
2024-02-13T2200,2604A,100.0894,23.8822,临沧市,市气象局,细颗粒物(PM2.5),55,41,38,39,31,55,,88,79,13,8,7,7,0.4,0.4
2024-02-13T2200,1733A,111.5531,36.0783,临汾市,临钢医院,细颗粒物(PM2.5),104,113,92,78,49,50,,107,94,29,17,11,12,1.2,1
2024-02-13T2200,1734A,111.5028,36.0714,临汾市,技工学校,细颗粒物(PM2.5),144,206,110,110,63,25,,114,97,64,23,15,18,1.4,0.9
2024-02-13T2200,1736A,111.5018,36.0855,临汾市,市委,细颗粒物(PM2.5),122,178,109,92,56,36,,115,97,54,20,12,17,1.3,1.1
2024-02-13T2200,3018A,111.505,36.1014,临汾市,唐尧大酒店,细颗粒物(PM2.5),104,133,99,78,55,57,,113,101,37,29,13,17,1.0,1.1
2024-02-13T2200,3668A,111.5036,36.0414,临汾市,城南,细颗粒物(PM2.5),118,136,108,89,62,51,,112,99,23,20,15,15,1.0,1
2024-02-13T2200,2667A,103.2069,35.5993,临夏回族自治州,环保局,,45,44,51,31,24,66,,69,68,16,23,29,19,0.8,1.5
2024-02-13T2200,2668A,103.2417,35.6057,临夏回族自治州,建设大厦,细颗粒物(PM2.5),55,45,34,39,25,64,,74,73,22,14,24,16,0.9,0.8
2024-02-13T2200,1618A,118.3429,35.0532,临沂市,沂河小区,细颗粒物(PM2.5),82,83,83,60,60,75,,99,94,17,21,11,10,0.7,0.7
2024-02-13T2200,1619A,118.295,35.0583,临沂市,鲁南制药厂,细颗粒物(PM2.5),83,83,83,61,55,83,,106,100,18,22,12,12,1.0,1.1
2024-02-13T2200,1620A,118.2794,34.9976,临沂市,新光毛纺厂,细颗粒物(PM2.5),98,105,89,73,58,69,,102,93,31,27,13,12,0.9,0.9
2024-02-13T2200,1621A,118.3956,35.0888,临沂市,河东保险公司,细颗粒物(PM2.5),68,66,83,49,56,74,,107,97,20,23,11,11,0.9,1
2024-02-13T2200,3370A,118.3564,35.0215,临沂市,十里堡居委,细颗粒物(PM2.5),79,90,77,58,52,80,,109,102,25,25,12,9,1.0,1
2024-02-13T2200,3496A,118.3604,35.1084,临沂市,南坊新区,,,75,84,53,54,,,97,,33,31,10,12,0.9,1
2024-02-13T2200,3860A,118.3920,35.0300,临沂市,皇山花园小区,颗粒物(PM10),58,66,79,40,49,87,,109,104,12,19,12,15,0.9,0.9
2024-02-13T2200,1870A,109.4856,24.3895,柳州市,柳东小学,细颗粒物(PM2.5),83,61,75,61,71,46,,71,37,14,20,6,7,0.7,0.7
2024-02-13T2200,1871A,109.4157,24.3277,柳州市,环保监测站,细颗粒物(PM2.5),105,95,115,79,99,20,,56,44,21,25,7,9,0.9,0.9
2024-02-13T2200,1872A,109.389,24.341,柳州市,河西水厂,细颗粒物(PM2.5),93,90,126,69,85,13,,56,43,23,26,6,8,0.8,0.8
2024-02-13T2200,1873A,109.4311,24.2921,柳州市,市四中,细颗粒物(PM2.5),142,153,131,108,100,8,,54,38,43,28,7,10,1.1,0.8
2024-02-13T2200,1874A,109.4006,24.3631,柳州市,市九中,细颗粒物(PM2.5),83,87,100,61,82,23,,46,38,19,25,4,5,0.8,0.7
2024-02-13T2200,1875A,109.4958,24.3134,柳州市,古亭山,细颗粒物(PM2.5),112,88,94,84,92,7,,38,24,30,25,6,7,1.0,0.9
2024-02-13T2200,3402A,109.5422,24.3996,柳州市,市二中,细颗粒物(PM2.5),77,72,92,56,78,32,,51,35,18,25,6,7,0.9,0.9
2024-02-13T2200,2307A,116.5079,31.737,六安市,监测大楼,,49,34,31,34,25,87,,89,87,12,12,6,5,0.7,0.6
2024-02-13T2200,2308A,116.4738,31.7643,六安市,皖西学院,,49,44,35,34,22,90,,91,88,10,10,5,4,0.5,0.5
2024-02-13T2200,2309A,116.4996,31.7905,六安市,朝阳厂,细颗粒物(PM2.5),55,43,34,39,26,78,,82,82,14,9,6,6,0.5,0.4
2024-02-13T2200,2310A,116.5567,31.7886,六安市,开发区,颗粒物(PM10),67,84,49,38,29,68,,72,68,14,15,6,9,0.5,0.5
2024-02-13T2200,2577A,104.83,26.5917,六盘水市,黄土坡,细颗粒物(PM2.5),72,,45,52,35,56,,98,88,21,22,17,17,0.7,0.9
2024-02-13T2200,2578A,104.89,26.5939,六盘水市,水钢,,46,43,37,32,21,102,,107,107,6,8,11,10,0.6,0.5
2024-02-13T2200,2579A,104.8475,26.5894,六盘水市,民中,细颗粒物(PM2.5),89,77,64,66,48,20,,95,80,60,27,42,17,1.7,1
2024-02-13T2200,2580A,104.9544,26.5506,六盘水市,双水,细颗粒物(PM2.5),57,46,33,40,22,96,,106,106,8,6,10,9,0.6,0.5
2024-02-13T2200,2336A,117.0217,25.1033,龙岩市,龙岩市监测站,细颗粒物(PM2.5),53,51,30,37,21,46,,94,77,18,10,5,4,0.5,0.4
2024-02-13T2200,2337A,117.0258,25.0661,龙岩市,闽西职业技术学院,,34,34,30,18,18,57,,94,80,6,5,2,2,0.4,0.4
2024-02-13T2200,2338A,117.0196,25.0306,龙岩市,龙岩学院,,28,28,25,17,16,59,,92,81,5,5,5,3,0.5,0.5
2024-02-13T2200,2885A,104.9339,33.3826,陇南市,滨江中学,细颗粒物(PM2.5),110,143,72,83,49,7,,76,52,62,29,27,17,3.1,1.5
2024-02-13T2200,3247A,104.955,33.371,陇南市,市总工会,细颗粒物(PM2.5),129,146,58,98,40,46,,88,79,33,15,10,10,0.9,0.8
2024-02-13T2200,2487A,111.9589,27.8901,娄底市,电视发射台,,39,39,55,26,35,30,,67,55,20,18,7,9,0.7,1.1
2024-02-13T2200,2488A,111.9975,27.725,娄底市,市监测站,,41,41,104,26,77,78,,86,82,9,30,8,16,0.5,1.2
2024-02-13T2200,2489A,112.0194,27.7314,娄底市,市委党校,,,26,92,24,67,59,,68,61,,21,,13,0.4,0.7
2024-02-13T2200,2490A,111.9561,27.7569,娄底市,涟钢,,37,37,92,24,68,26,,74,64,49,19,58,16,1.4,1.2
2024-02-13T2200,2491A,111.9892,27.7044,娄底市,市政府,,32,32,102,20,76,73,,80,76,3,14,10,10,0.3,0.7
2024-02-13T2200,1893A,105.4324,28.9634,泸州市,九狮山,细颗粒物(PM2.5),129,144,118,98,83,37,,118,102,13,14,5,6,0.5,0.5
2024-02-13T2200,1894A,105.4427,28.9063,泸州市,小市上码头,细颗粒物(PM2.5),150,135,109,115,87,41,,109,101,61,29,8,5,1.3,0.9
2024-02-13T2200,1895A,105.4241,28.8573,泸州市,兰田宪桥,细颗粒物(PM2.5),143,121,116,109,99,32,,109,96,46,19,6,5,1.0,0.8
2024-02-13T2200,1896A,105.4379,28.8833,泸州市,市环监站,细颗粒物(PM2.5),156,129,111,119,98,76,,101,99,25,19,6,4,0.9,0.8
2024-02-13T2200,3490A,105.3617,28.7703,泸州市,纳溪区环保局,细颗粒物(PM2.5),156,139,123,119,98,28,,108,91,51,20,6,5,1.3,0.9
2024-02-13T2200,2183A,111.1406,37.5211,吕梁市,环保局,颗粒物(PM10),89,128,81,53,39,34,,87,68,41,31,6,6,0.6,0.6
2024-02-13T2200,2185A,111.1297,37.5136,吕梁市,自来水公司,细颗粒物(PM2.5),80,89,79,59,48,43,,85,73,30,28,11,11,0.7,0.7
2024-02-13T2200,2867A,111.1283,37.51,吕梁市,马茂庄小学,"颗粒物(PM10),细颗粒物(PM2.5)",102,153,98,76,56,27,,87,69,46,30,8,8,0.6,0.5
2024-02-13T2200,1812A,112.3931,34.6516,洛阳市,市委党校,细颗粒物(PM2.5),243,251,125,193,97,7,,89,71,83,36,19,13,1.2,0.8
2024-02-13T2200,1814A,112.4657,34.6871,洛阳市,豫西宾馆,细颗粒物(PM2.5),133,156,137,101,87,72,,96,86,33,33,16,15,0.6,0.6
2024-02-13T2200,1815A,112.494,34.6886,洛阳市,河南林校,细颗粒物(PM2.5),140,151,108,107,75,71,,93,84,30,27,11,9,1.1,0.9
2024-02-13T2200,1816A,112.3844,34.623,洛阳市,开发区管委会,细颗粒物(PM2.5),109,114,91,82,69,72,,102,99,24,13,9,6,0.9,0.8
2024-02-13T2200,1817A,112.4267,34.6258,洛阳市,市委新办公区,细颗粒物(PM2.5),310,283,127,260,113,6,,92,69,95,31,9,8,1.6,1
2024-02-13T2200,3340A,112.6005,34.6326,洛阳市,伊滨,细颗粒物(PM2.5),160,159,133,122,92,36,,98,88,30,20,8,10,0.9,0.8
2024-02-13T2200,3341A,112.4951,34.6332,洛阳市,中移产业园,细颗粒物(PM2.5),159,151,107,121,86,45,,104,94,52,23,16,9,1.3,1
2024-02-13T2200,3593A,112.5736,34.8993,洛阳市,吉利监测站,细颗粒物(PM2.5),127,146,95,96,68,55,,115,107,47,22,7,8,0.9,0.7
2024-02-13T2200,3635A,112.3677,34.662,洛阳市,河科大西苑校区,细颗粒物(PM2.5),265,309,137,215,96,6,,96,79,80,36,18,11,0.7,0.3
2024-02-13T2200,3636A,112.4388,34.6781,洛阳市,英才小学,细颗粒物(PM2.5),160,163,135,122,98,75,,95,86,36,30,13,12,0.9,0.9
2024-02-13T2200,2399A,114.051,33.5699,漯河市,三五一五工厂,细颗粒物(PM2.5),219,239,86,169,63,22,,102,85,62,20,12,9,1.1,0.7
2024-02-13T2200,2400A,114.0055,33.5698,漯河市,漯河大学,细颗粒物(PM2.5),178,158,79,134,56,29,,103,83,57,21,11,8,1.1,0.8
2024-02-13T2200,2401A,114.0138,33.5828,漯河市,市水利局,细颗粒物(PM2.5),265,285,90,215,64,22,,105,84,56,16,15,11,1.4,0.8
2024-02-13T2200,2402A,114.0261,33.5698,漯河市,市广电局,细颗粒物(PM2.5),295,347,96,245,65,9,,106,80,74,21,13,6,1.8,1
2024-02-13T2200,3478A,113.9749,33.5664,漯河市,市图书馆,细颗粒物(PM2.5),98,94,72,73,51,73,,103,96,21,15,11,12,0.6,0.5
2024-02-13T2200,3479A,114.0967,33.5906,漯河市,召陵区卫健委,细颗粒物(PM2.5),123,136,81,93,55,60,,102,89,21,12,11,8,0.8,0.7
2024-02-13T2200,1798A,118.5092,31.6837,马鞍山市,湖东路四小,细颗粒物(PM2.5),79,104,61,58,42,45,,68,57,30,21,10,9,0.7,0.7
2024-02-13T2200,1799A,118.5024,31.6449,马鞍山市,开发区,细颗粒物(PM2.5),59,63,52,42,39,42,,72,63,37,24,6,5,0.5,0.4
2024-02-13T2200,1800A,118.5228,31.7231,马鞍山市,慈湖,细颗粒物(PM2.5),64,66,62,46,43,58,,64,56,23,28,7,6,0.3,0.3
2024-02-13T2200,1802A,118.6245,31.7241,马鞍山市,濮塘,颗粒物(PM10),51,51,45,31,28,67,,74,74,10,8,6,6,0.4,0.4
2024-02-13T2200,3633A,118.4918,31.6809,马鞍山市,雨山,颗粒物(PM10),80,109,59,55,41,40,,70,56,41,25,10,9,0.5,0.4
2024-02-13T2200,1686A,111.0286,21.4688,茂名市,电白南海,,,61,62,27,25,,,108,108,15,11,10,11,0.5,0.5
2024-02-13T2200,1687A,110.9294,21.6533,茂名市,茂石化七小,细颗粒物(PM2.5),58,58,52,41,29,102,,101,99,12,10,10,11,0.6,0.6
2024-02-13T2200,1688A,110.9107,21.6687,茂名市,健康路,颗粒物(PM10),52,53,48,24,23,96,,95,93,11,8,7,7,0.6,0.6
2024-02-13T2200,1689A,110.8592,21.6828,茂名市,高岭,细颗粒物(PM2.5),55,56,51,39,30,100,,97,94,11,15,8,14,0.6,0.6
2024-02-13T2200,3450A,111.01,21.5165,茂名市,电白水东,颗粒物(PM10),52,53,47,29,23,115,,104,104,6,6,5,7,0.7,0.6
2024-02-13T2200,2539A,104.0308,30.0478,眉山市,黑龙滩水库,细颗粒物(PM2.5),73,70,70,53,52,86,,122,117,5,5,2,2,0.7,0.6
2024-02-13T2200,2540A,103.8416,30.0874,眉山市,气象局,细颗粒物(PM2.5),94,93,89,70,77,62,,109,105,26,21,7,9,0.8,0.8
2024-02-13T2200,3137A,103.8578,30.0744,眉山市,市委党校,细颗粒物(PM2.5),125,124,94,95,76,4,,97,75,95,34,10,8,1.5,0.8
2024-02-13T2200,3148A,103.8291,30.0564,眉山市,区人社局,细颗粒物(PM2.5),128,105,79,97,81,5,,97,82,102,42,10,11,1.5,0.8
2024-02-13T2200,1690A,116.1231,24.3284,梅州市,梅江月梅,细颗粒物(PM2.5),63,49,40,45,35,83,,104,99,10,7,10,10,0.7,0.6
2024-02-13T2200,1691A,116.0797,24.2719,梅州市,梅县新城,细颗粒物(PM2.5),135,,53,103,44,46,,107,90,31,11,7,6,0.8,0.5
2024-02-13T2200,1692A,116.1248,24.2654,梅州市,环境监控中心,细颗粒物(PM2.5),73,57,57,53,48,47,,102,85,28,15,6,5,0.7,0.5
2024-02-13T2200,3315A,116.1233,24.2991,梅州市,梅龙,细颗粒物(PM2.5),128,146,51,97,46,21,,100,82,43,13,8,6,1.3,0.6
2024-02-13T2200,1878A,104.7778,31.4741,绵阳市,富乐山,细颗粒物(PM2.5),77,66,67,56,56,99,,117,114,11,14,8,8,0.7,0.7
2024-02-13T2200,1879A,104.7563,31.4535,绵阳市,市人大,细颗粒物(PM2.5),124,112,88,94,64,4,,101,74,100,42,6,6,1.6,0.8
2024-02-13T2200,1880A,104.6697,31.4668,绵阳市,高新区自来水公司,细颗粒物(PM2.5),92,96,86,68,69,14,,109,88,69,29,8,8,0.9,0.7
2024-02-13T2200,1881A,104.7287,31.5075,绵阳市,三水厂,细颗粒物(PM2.5),108,94,81,81,69,7,,104,82,66,28,7,6,1.1,0.9
2024-02-13T2200,3491A,104.69,31.5322,绵阳市,西科大附属小学,细颗粒物(PM2.5),94,82,72,70,61,56,,117,110,46,19,8,8,0.6,0.6
2024-02-13T2200,3492A,104.5648,31.5343,绵阳市,安州区旅游局,细颗粒物(PM2.5),127,142,91,96,72,19,,111,84,72,33,5,6,1.4,1
2024-02-13T2200,1784A,129.61,44.561,牡丹江市,环保大楼,颗粒物(PM10),68,86,76,43,43,85,,115,99,16,12,10,12,0.6,0.6
2024-02-13T2200,1785A,129.6115,44.5782,牡丹江市,文化广场,颗粒物(PM10),100,149,81,56,55,59,,102,83,30,14,17,17,0.8,0.7
2024-02-13T2200,1786A,129.5904,44.5963,牡丹江市,第一医院,颗粒物(PM10),83,116,80,55,57,73,,102,89,17,13,16,18,0.6,0.7
2024-02-13T2200,1787A,129.6364,44.6075,牡丹江市,机车工厂,颗粒物(PM10),76,101,82,53,49,45,,102,79,38,17,11,14,0.4,0.5
2024-02-13T2200,1788A,129.6386,44.5462,牡丹江市,第一中学,颗粒物(PM10),73,95,76,35,40,83,,110,98,10,10,13,14,0.6,0.7
2024-02-13T2200,2531A,105.0703,29.61,内江市,市监测站,细颗粒物(PM2.5),150,120,97,115,104,56,,100,89,46,34,10,10,1.2,1.2
2024-02-13T2200,2532A,105.0717,29.5947,内江市,东兴区政府,细颗粒物(PM2.5),124,,100,94,98,74,,104,92,30,30,13,11,1.0,1.1
2024-02-13T2200,2533A,105.0653,29.5817,内江市,内江二中,细颗粒物(PM2.5),120,106,102,91,111,60,,106,95,49,32,7,8,1.4,1.2
2024-02-13T2200,2534A,105.0406,29.5822,内江市,内江日报社,细颗粒物(PM2.5),117,105,102,88,114,80,,104,97,28,40,11,10,1.0,1.1
2024-02-13T2200,2628A,92.0657,31.4846,那曲市,那曲监测站,,24,24,33,12,18,71,,81,80,6,10,6,7,0.8,1.1
2024-02-13T2200,3128A,92.0506,31.4797,那曲市,那曲会议中心,,27,24,23,6,11,85,,93,93,2,10,5,7,0.3,0.6
2024-02-13T2200,1290A,115.8931,28.6843,南昌市,省外办,细颗粒物(PM2.5),100,127,99,75,66,7,,58,38,44,33,7,6,1.1,1
2024-02-13T2200,1291A,115.8886,28.7003,南昌市,省林业公司,细颗粒物(PM2.5),70,80,63,51,44,26,,68,57,29,32,4,5,0.8,0.8
2024-02-13T2200,1292A,115.8126,28.7442,南昌市,林科所,细颗粒物(PM2.5),52,48,36,36,27,30,,71,57,20,10,7,8,0.4,0.5
2024-02-13T2200,1294A,115.8518,28.687,南昌市,建工学校,颗粒物(PM10),74,98,72,44,43,4,,74,52,58,31,7,7,0.8,0.6
2024-02-13T2200,1295A,115.8921,28.6424,南昌市,象湖,细颗粒物(PM2.5),149,133,88,114,61,4,,73,52,56,39,7,6,1.0,0.9
2024-02-13T2200,1296A,115.7423,28.7996,南昌市,武术学校,细颗粒物(PM2.5),55,,24,39,20,13,,62,33,6,3,14,13,0.8,0.7
2024-02-13T2200,1298A,115.9314,28.6842,南昌市,省站,细颗粒物(PM2.5),122,110,84,92,57,22,,73,57,31,27,10,9,0.8,0.7
2024-02-13T2200,3046A,115.9084,28.6062,南昌市,机电学校,细颗粒物(PM2.5),79,102,86,58,55,7,,72,51,51,34,11,9,1.3,1.2
2024-02-13T2200,3690A,115.9721,28.7031,南昌市,外国语学校,细颗粒物(PM2.5),85,95,65,63,54,14,,68,54,36,25,5,6,0.7,0.7
2024-02-13T2200,1905A,106.056,30.8064,南充市,西山风景区,细颗粒物(PM2.5),100,,75,75,77,122,,120,120,7,13,5,5,0.5,0.7
2024-02-13T2200,1906A,106.0789,30.8023,南充市,南充市委,细颗粒物(PM2.5),134,118,96,102,75,22,,90,71,63,31,7,5,1.2,0.7
2024-02-13T2200,1907A,106.1031,30.8217,南充市,南充炼油厂,细颗粒物(PM2.5),119,115,102,90,82,45,,99,87,53,32,6,5,0.8,0.7
2024-02-13T2200,1908A,106.1064,30.7856,南充市,高坪区监测站,细颗粒物(PM2.5),132,135,114,100,80,4,,95,74,75,35,8,7,1.6,0.9
2024-02-13T2200,1909A,106.0642,30.7636,南充市,嘉陵区环保局,细颗粒物(PM2.5),160,,99,122,86,2,,84,58,89,47,4,4,1.6,1.2
2024-02-13T2200,1910A,106.1087,30.8388,南充市,市环境监测站,细颗粒物(PM2.5),99,112,96,74,74,96,,119,118,19,19,8,7,0.6,0.6
2024-02-13T2200,1151A,118.8086,32.1065,南京市,迈皋桥,颗粒物(PM10),54,57,42,36,26,36,,62,52,26,16,4,4,0.5,0.4
2024-02-13T2200,1152A,118.7538,32.0551,南京市,草场门,颗粒物(PM10),59,68,47,41,30,43,,70,59,49,28,3,2,0.9,0.6
2024-02-13T2200,1153A,118.7794,32.0745,南京市,山西路,,46,46,41,31,27,68,,65,65,20,21,5,4,0.7,0.6
2024-02-13T2200,1154A,118.7752,32.0023,南京市,中华门,细颗粒物(PM2.5),64,58,45,46,32,58,,72,67,26,17,8,7,0.6,0.5
2024-02-13T2200,1155A,118.8109,32.0309,南京市,瑞金路,细颗粒物(PM2.5),94,90,51,70,32,2,,66,37,72,30,4,4,1.1,0.7
2024-02-13T2200,1156A,118.7997,32.0754,南京市,玄武湖,颗粒物(PM10),53,56,50,35,25,56,,77,69,16,10,8,7,0.6,0.5
2024-02-13T2200,1157A,118.6414,32.0931,南京市,浦口,颗粒物(PM10),55,59,57,27,18,55,,68,64,26,23,5,6,0.9,0.8
2024-02-13T2200,1158A,118.7356,31.9996,南京市,奥体中心,细颗粒物(PM2.5),62,68,49,44,32,60,,75,70,25,15,7,6,0.8,0.6
2024-02-13T2200,1159A,118.9125,32.1028,南京市,仙林大学城,"颗粒物(PM10),细颗粒物(PM2.5)",52,53,40,36,21,71,,77,74,19,14,7,5,0.8,0.6
2024-02-13T2200,3422A,118.8436,31.9198,南京市,江宁彩虹桥,颗粒物(PM10),63,76,57,41,31,72,,80,76,13,12,4,3,0.6,0.5
2024-02-13T2200,3423A,119.0138,31.6494,南京市,溧水永阳,细颗粒物(PM2.5),68,51,43,49,37,70,,74,74,18,17,3,4,0.5,0.5
2024-02-13T2200,3424A,118.879,31.3302,南京市,高淳老职中,细颗粒物(PM2.5),54,48,41,38,31,64,,74,73,8,8,5,4,0.5,0.5
2024-02-13T2200,3427A,118.8554,32.3578,南京市,六合雄州,,,63,72,,32,48,,80,69,28,21,5,3,0.5,0.6
2024-02-13T2200,1401A,108.3103,22.7881,南宁市,二十一中,,49,49,47,32,38,75,,90,84,11,8,8,7,0.8,0.7
2024-02-13T2200,1402A,108.3141,22.8528,南宁市,北湖,颗粒物(PM10),52,53,45,32,30,62,,83,73,14,7,6,5,0.7,0.7
2024-02-13T2200,1403A,108.3206,22.8225,南宁市,市监测站,,42,42,45,25,27,76,,90,80,9,8,7,6,0.8,0.8
2024-02-13T2200,1404A,108.3829,22.8037,南宁市,大自然花园,,44,44,48,23,27,81,,86,84,9,9,7,6,0.6,0.6
2024-02-13T2200,1405A,108.4394,22.7904,南宁市,仙葫,,39,39,45,27,32,75,,78,78,10,11,7,7,0.7,0.7
2024-02-13T2200,1406A,108.2397,22.8467,南宁市,区农职院,颗粒物(PM10),51,52,47,28,28,74,,88,81,15,13,9,8,0.8,0.7
2024-02-13T2200,1407A,108.3275,22.735,南宁市,英华嘉园,,46,46,48,30,28,63,,77,72,16,11,6,6,0.6,0.6
2024-02-13T2200,1408A,108.2257,22.7757,南宁市,沙井镇街道办,,43,43,49,27,30,66,,85,78,14,9,7,6,0.7,0.6
2024-02-13T2200,3401A,108.4834,22.7618,南宁市,红星社区,,45,45,46,25,31,71,,78,77,9,11,9,9,0.8,0.8
2024-02-13T2200,2332A,118.1681,26.6369,南平市,南平市监测站,细颗粒物(PM2.5),124,103,55,94,42,17,,88,62,36,15,8,6,1.2,0.6
2024-02-13T2200,2333A,118.1825,26.6489,南平市,南平铝业有限公司,细颗粒物(PM2.5),87,96,43,64,31,28,,81,61,22,11,8,8,0.9,0.6
2024-02-13T2200,2334A,118.1756,26.6272,南平市,南平七中,细颗粒物(PM2.5),67,73,43,48,32,40,,88,68,17,12,6,5,0.6,0.5
2024-02-13T2200,1168A,120.9098,31.9663,南通市,狼山街道,,48,39,54,33,33,33,,97,65,21,24,8,9,0.6,0.6
2024-02-13T2200,1169A,120.86,32.0005,南通市,虹桥,颗粒物(PM10),54,58,62,30,34,62,,92,78,34,20,6,6,0.5,0.4
2024-02-13T2200,1170A,120.87,32.02,南通市,城中,颗粒物(PM10),57,63,63,34,30,58,,99,78,37,21,6,5,0.8,0.7
2024-02-13T2200,1171A,120.94,31.93,南通市,星湖花园,颗粒物(PM10),51,51,59,27,28,43,,91,66,44,24,8,7,0.5,0.4
2024-02-13T2200,1172A,120.81,32.0417,南通市,紫琅学院,,45,45,55,27,28,69,,89,69,32,31,9,8,0.5,0.5
2024-02-13T2200,3291A,121.067,32.062,南通市,通州监测站,细颗粒物(PM2.5),70,66,63,51,36,63,,104,87,33,19,8,8,0.4,0.3
2024-02-13T2200,3432A,120.9348,31.9883,南通市,环境教育馆,细颗粒物(PM2.5),74,75,62,54,35,41,,101,76,40,24,8,7,0.4,0.3
2024-02-13T2200,2404A,112.5224,33.0122,南阳市,瓦房庄,细颗粒物(PM2.5),463,463,148,444,136,11,,90,71,69,29,18,12,1.6,0.9
2024-02-13T2200,2405A,112.5003,32.9735,南阳市,汉画馆,细颗粒物(PM2.5),221,218,153,171,124,11,,93,73,58,29,10,9,1.4,0.9
2024-02-13T2200,2406A,112.5573,33.027,南阳市,气象站,细颗粒物(PM2.5),185,147,106,139,98,46,,95,82,47,26,14,11,1.0,0.8
2024-02-13T2200,2407A,112.5481,32.9689,南阳市,理工学院,细颗粒物(PM2.5),147,132,117,112,105,54,,98,92,34,24,9,8,0.8,0.7
2024-02-13T2200,4008A,112.5234,32.9922,南阳市,卧龙区政府,细颗粒物(PM2.5),243,248,142,193,120,3,,92,65,84,37,12,10,1.6,0.9
2024-02-13T2200,1234A,121.8358,29.911,宁波市,区环保大楼,,41,41,52,18,24,79,,103,95,11,4,6,6,0.3,0.3
2024-02-13T2200,1235A,121.56,29.82,宁波市,万里学院,,37,37,52,21,26,72,,96,90,13,10,7,7,0.7,0.5
2024-02-13T2200,1236A,121.713,29.9572,宁波市,龙赛医院,,41,41,47,23,25,85,,103,98,9,6,5,4,0.4,0.5
2024-02-13T2200,1239A,121.633,29.7733,宁波市,钱湖水厂,,39,39,48,22,27,85,,99,94,4,2,5,5,0.5,0.6
2024-02-13T2200,1240A,121.5856,29.8635,宁波市,太古小学,,40,40,46,22,27,72,,100,93,22,12,6,6,0.5,0.5
2024-02-13T2200,1241A,121.524,29.8674,宁波市,市环境监测中心,细颗粒物(PM2.5),57,47,47,40,27,45,,102,85,41,18,6,6,0.7,0.5
2024-02-13T2200,2871A,121.6147,29.9017,宁波市,万里国际学校,,38,38,50,19,26,85,,104,101,10,8,7,7,0.5,0.5
2024-02-13T2200,3710A,121.5594,29.8975,宁波市,白沙活动中心,,50,50,50,29,27,62,,102,92,19,8,6,6,0.4,0.4
2024-02-13T2200,2341A,119.5388,26.6612,宁德市,宁德市监测站,细颗粒物(PM2.5),89,85,50,66,36,46,,100,85,19,10,7,6,0.8,0.5
2024-02-13T2200,3209A,119.5231,26.6562,宁德市,宁德一中,颗粒物(PM10),57,64,48,37,30,61,,102,86,12,10,6,6,0.8,0.5
2024-02-13T2200,2618A,98.8601,25.8567,怒江傈僳族自治州,州监测站,,45,35,22,31,15,52,,87,82,18,4,9,9,0.6,0.4
2024-02-13T2200,2619A,98.8546,25.8417,怒江傈僳族自治州,泸水一中,细颗粒物(PM2.5),69,60,26,50,19,34,,79,68,24,11,10,8,0.8,0.5
2024-02-13T2200,1888A,101.6891,26.571,攀枝花市,弄弄坪,,40,40,51,25,30,60,,96,88,20,31,11,48,0.8,2
2024-02-13T2200,1889A,101.5769,26.5928,攀枝花市,河门口,,35,35,30,17,17,55,,90,82,18,16,18,18,0.9,0.9
2024-02-13T2200,1890A,101.7169,26.585,攀枝花市,炳草岗,颗粒物(PM10),53,56,34,25,20,18,,96,83,56,30,14,19,1.2,1.1
2024-02-13T2200,1891A,101.7369,26.5008,攀枝花市,仁和,,32,32,25,20,19,42,,94,78,24,13,7,7,0.6,0.5
2024-02-13T2200,2835A,101.7227,26.567,攀枝花市,四十中小,,50,50,33,28,21,45,,96,82,45,25,12,14,1.0,1
2024-02-13T2200,1604A,122.0303,41.1489,盘锦市,开发区,细颗粒物(PM2.5),212,164,98,162,82,50,,104,94,50,21,11,11,1.9,1.1
2024-02-13T2200,1605A,122.0485,41.0883,盘锦市,兴隆台,细颗粒物(PM2.5),172,180,105,130,76,55,,103,94,38,19,14,13,1.4,1
2024-02-13T2200,1606A,121.8297,41.1028,盘锦市,新生街道,细颗粒物(PM2.5),92,75,96,68,73,77,,87,85,26,23,10,11,1.1,1
2024-02-13T2200,1832A,113.3257,33.742,平顶山市,新华旅馆,细颗粒物(PM2.5),183,219,133,138,80,21,,98,82,59,32,13,10,0.7,0.6
2024-02-13T2200,1833A,113.2919,33.737,平顶山市,规划设计院,细颗粒物(PM2.5),218,230,138,168,94,50,,116,106,51,30,13,13,1.2,0.8
2024-02-13T2200,1834A,113.182,33.774,平顶山市,平顶山工学院,细颗粒物(PM2.5),107,119,98,80,64,99,,106,103,14,15,8,8,0.8,0.8
2024-02-13T2200,3204A,113.3025,33.73,平顶山市,规划局,细颗粒物(PM2.5),324,371,142,274,107,30,,84,73,49,29,24,11,0.9,0.9
2024-02-13T2200,3594A,112.8867,33.9116,平顶山市,石龙区,细颗粒物(PM2.5),109,118,91,82,68,66,,108,94,27,18,9,10,0.8,0.7
2024-02-13T2200,2656A,106.6692,35.5461,平凉市,聚贤嘉苑,颗粒物(PM10),72,93,61,48,34,74,,113,105,23,18,10,9,0.8,0.5
2024-02-13T2200,2657A,106.7021,35.5307,平凉市,博物馆,细颗粒物(PM2.5),97,103,77,72,49,63,,109,96,35,26,17,14,0.9,0.8
2024-02-13T2200,2347A,114.0997,27.5002,萍乡市,武功山,细颗粒物(PM2.5),60,49,28,43,25,56,,88,81,10,7,10,9,0.5,0.4
2024-02-13T2200,2348A,113.8385,27.6434,萍乡市,中医院,,,75,78,64,54,,,27,23,40,34,8,8,1.3,1.3
2024-02-13T2200,2349A,113.8493,27.6253,萍乡市,市政府车库,细颗粒物(PM2.5),97,108,96,72,73,10,,34,24,42,30,8,17,1.5,1.2
2024-02-13T2200,2350A,113.8676,27.6435,萍乡市,市环保局,细颗粒物(PM2.5),79,76,68,58,51,27,,39,34,28,23,10,9,0.8,0.9
2024-02-13T2200,2351A,113.866,27.6198,萍乡市,安源区政府,细颗粒物(PM2.5),100,104,75,75,52,21,,39,35,30,27,10,10,1.2,1.1
2024-02-13T2200,2319A,119.0141,25.4325,莆田市,荔城区仓后路,细颗粒物(PM2.5),153,117,59,117,46,67,,115,106,24,10,8,7,1.0,0.9
2024-02-13T2200,2320A,119.0015,25.4553,莆田市,莆田市监测站,细颗粒物(PM2.5),70,57,43,51,31,73,,117,106,18,8,6,9,0.7,0.4
2024-02-13T2200,2321A,119.1119,25.4561,莆田市,涵江区六中,细颗粒物(PM2.5),188,156,54,141,37,74,,122,112,24,8,14,8,0.9,0.8
2024-02-13T2200,2322A,119.1013,25.3215,莆田市,秀屿区政府,,,,57,289,57,62,,117,101,36,12,17,8,0.8,0.7
2024-02-13T2200,2392A,115.0312,35.7636,濮阳市,环保局,细颗粒物(PM2.5),179,155,88,135,59,37,,99,84,62,15,12,8,1.0,0.5
2024-02-13T2200,2394A,115.0574,35.7609,濮阳市,油田运输公司,细颗粒物(PM2.5),204,227,92,154,60,21,,100,82,58,14,16,11,1.3,0.8
2024-02-13T2200,2395A,115.0866,35.7754,濮阳市,油田物探公司,细颗粒物(PM2.5),163,165,95,124,63,58,,99,89,33,15,11,8,0.9,0.7
2024-02-13T2200,3021A,115,35.7668,濮阳市,濮水河管理处,细颗粒物(PM2.5),119,131,93,90,62,65,,94,84,26,11,9,9,0.8,0.8
2024-02-13T2200,2601A,100.98,22.7633,普洱市,市环保局,细颗粒物(PM2.5),60,47,45,43,36,48,,90,79,10,12,5,5,0.5,0.6
2024-02-13T2200,2602A,100.9817,22.8322,普洱市,普洱第二中学,细颗粒物(PM2.5),54,39,35,38,26,35,,96,80,29,13,5,6,0.6,0.6
2024-02-13T2200,2262A,131.0518,45.8751,七台河市,新一中,,47,47,66,23,45,93,,122,113,8,12,9,12,0.8,1
2024-02-13T2200,3345A,131.0577,45.7879,七台河市,中波台,颗粒物(PM10),69,87,63,38,40,81,,112,99,18,18,14,15,0.6,0.7
2024-02-13T2200,3637A,131.0176,45.7761,七台河市,人民广场,颗粒物(PM10),66,82,79,27,49,86,,112,98,12,16,14,16,0.8,1
2024-02-13T2200,3684A,130.8781,45.8222,七台河市,新建矿广场,细颗粒物(PM2.5),55,51,61,39,42,84,,113,102,14,17,10,12,0.5,0.7
2024-02-13T2200,1779A,123.9305,47.3636,齐齐哈尔市,安居小区,,22,15,60,4,24,70,,74,72,4,8,6,7,0.3,0.5
2024-02-13T2200,1780A,123.9488,47.3386,齐齐哈尔市,中心广场,,22,16,67,6,26,68,,71,70,5,9,5,6,0.4,0.5
2024-02-13T2200,1781A,123.9483,47.3227,齐齐哈尔市,农牧车辆厂,,22,9,66,8,24,69,,73,72,2,8,7,8,0.3,0.5
2024-02-13T2200,1783A,123.945,47.2988,齐齐哈尔市,市环境监测站,,23,23,74,11,29,71,,74,73,4,10,2,4,0.4,0.5
2024-02-13T2200,3662A,123.6333,47.2075,齐齐哈尔市,富区青少年活动中心,,22,22,95,15,34,62,,69,66,8,17,16,19,0.4,0.9
2024-02-13T2200,2591A,107.9783,26.5747,黔东南苗族侗族自治州,市环境监测站,颗粒物(PM10),52,54,40,35,28,77,,105,86,9,7,6,6,0.6,0.5
2024-02-13T2200,2881A,107.8908,26.5311,黔东南苗族侗族自治州,凯里学院,,50,47,37,35,27,78,,115,93,7,4,5,5,0.6,0.5
2024-02-13T2200,2593A,107.5228,26.2403,黔南布依族苗族自治州,小围寨,,45,36,31,31,23,74,,104,87,6,5,6,6,0.4,0.3
2024-02-13T2200,3538A,107.5175,26.2978,黔南布依族苗族自治州,沙坝,,49,,32,34,25,74,,98,89,4,4,4,5,0.7,0.6
2024-02-13T2200,2589A,104.9022,25.0925,黔西南布依族苗族自治州,场坝街,细颗粒物(PM2.5),68,55,32,49,25,90,,89,89,8,9,2,2,0.6,0.5
2024-02-13T2200,2590A,104.8811,25.0992,黔西南布依族苗族自治州,坪东大道,细颗粒物(PM2.5),64,61,37,46,25,83,,86,86,8,10,3,2,0.3,0.2
2024-02-13T2200,2502A,108.6236,21.9667,钦州市,市环保站,颗粒物(PM10),71,92,56,48,25,63,,80,78,28,14,9,7,0.9,0.7
2024-02-13T2200,2503A,108.6549,21.9481,钦州市,沙埠小学,颗粒物(PM10),56,61,51,37,32,74,,86,84,16,10,8,7,0.8,0.7
2024-02-13T2200,2504A,108.5989,21.7431,钦州市,港区一小,颗粒物(PM10),67,83,67,29,33,28,,91,81,60,15,8,10,0.7,0.8
2024-02-13T2200,3404A,108.5959,21.9633,钦州市,北职校,颗粒物(PM10),66,82,54,31,36,76,,82,80,17,14,8,8,0.7,0.7
2024-02-13T2200,1042A,119.5134,39.8207,秦皇岛市,北戴河环保局,细颗粒物(PM2.5),117,138,177,88,116,41,,68,60,61,54,9,15,0.8,1.4
2024-02-13T2200,1043A,119.7493,40.0116,秦皇岛市,第一关,细颗粒物(PM2.5),170,161,194,129,131,4,,80,52,91,51,17,20,1.3,1.6
2024-02-13T2200,1044A,119.5897,39.9499,秦皇岛市,监测站,细颗粒物(PM2.5),170,168,169,129,118,16,,87,57,78,48,10,19,1.1,1.8
2024-02-13T2200,1046A,119.5251,39.9041,秦皇岛市,建设大厦,细颗粒物(PM2.5),178,187,172,134,103,32,,100,68,52,31,7,18,1.0,1.7
2024-02-13T2200,3132A,119.610547,39.943889,秦皇岛市,文明里,细颗粒物(PM2.5),134,174,192,102,107,23,,69,52,66,53,8,15,1.0,1.6
2024-02-13T2200,1307A,120.6659,36.2403,青岛市,仰口,细颗粒物(PM2.5),85,90,77,63,52,87,,116,103,23,27,1,2,1.2,1.3
2024-02-13T2200,1310A,120.4134,36.0658,青岛市,市南区东部子站,细颗粒物(PM2.5),77,83,98,56,57,93,,91,91,22,27,8,8,0.7,0.9
2024-02-13T2200,1311A,120.3664,36.1032,青岛市,四方区子站,细颗粒物(PM2.5),83,78,88,61,59,88,,98,96,33,30,6,6,0.8,1
2024-02-13T2200,1312A,120.2994,36.054,青岛市,市南区西部子站,"颗粒物(PM10),细颗粒物(PM2.5)",64,78,93,46,54,89,,87,87,24,27,6,7,1.0,1
2024-02-13T2200,1313A,120.4581,36.0858,青岛市,崂山区子站,细颗粒物(PM2.5),70,83,101,51,56,71,,92,84,26,19,6,7,0.8,0.9
2024-02-13T2200,1314A,120.1983,35.9608,青岛市,黄岛区子站,细颗粒物(PM2.5),92,100,93,68,61,69,,90,85,30,25,6,7,1.0,0.9
2024-02-13T2200,1315A,120.3999,36.3083,青岛市,城阳区子站,颗粒物(PM10),64,78,78,42,37,98,,108,105,24,22,6,7,0.8,0.8
