timepoint,stationcode,longitude,latitude,area,positionname,primarypollutant,aqi,pm10,pm10_24h,pm2_5,pm2_5_24h,o3,o3_24h,o3_8h,o3_8h_24h,no2,no2_24h,so2,so2_24h,co,co_24h
2025-11-08T1100,2566A,102.1879,31.914,阿坝藏族羌族自治州,州农科所,,,,,,,,,,,,,,,,
2025-11-08T1100,2568A,102.2502,31.8896,阿坝藏族羌族自治州,马师校,,,,21,,13,,,30,,,24,,7,,0.7
2025-11-08T1100,3994A,102.2165,31.9024,阿坝藏族羌族自治州,马尔康中学西区,,18,,17,12,14,24,,8,8,11,19,5,5,0.6,0.6
2025-11-08T1100,2695A,80.292,41.1694,阿克苏地区,电视台,颗粒物(PM10),110,169,182,45,48,23,,33,33,36,31,6,5,1.1,0.8
2025-11-08T1100,2696A,80.2613,41.1551,阿克苏地区,艺术中心,颗粒物(PM10),103,155,158,49,48,26,,40,40,33,28,5,4,0.8,0.6
2025-11-08T1100,2204A,105.6467,38.8363,阿拉善盟,西城区西花园,,,,,,,,,,,,,,,,
2025-11-08T1100,2205A,105.6985,38.8411,阿拉善盟,蒙二幼,颗粒物(PM10),142,234,106,58,28,77,,82,80,6,8,8,8,0.6,0.6
2025-11-08T1100,2206A,105.724,38.8516,阿拉善盟,环保局新楼,颗粒物(PM10),126,201,98,55,27,76,,84,79,5,6,8,8,0.5,0.6
2025-11-08T1100,2708A,88.1264,47.8517,阿勒泰地区,市站,,16,12,12,3,3,50,,61,59,20,7,4,4,0.1,0.1
2025-11-08T1100,2630A,80.1161,32.5,阿里地区,阿里监测站,,15,6,3,3,3,48,,42,42,13,13,11,10,0.5,0.4
2025-11-08T1100,3192A,80.0903,32.5028,阿里地区,阿里藏医院,,,,10,,4,49,,60,53,,7,,9,0.4,0.5
2025-11-08T1100,2642A,109.0318,32.6537,安康市,香溪洞,,,,,,,,,,,,,,,,
2025-11-08T1100,2644A,109.0072,32.6975,安康市,汉滨区检察院,,23,23,16,16,14,8,,4,4,15,21,5,4,0.7,0.7
2025-11-08T1100,4054A,109.0325,32.6913,安康市,市邮政管理局,,24,24,16,15,12,13,,5,5,17,24,4,3,0.8,0.7
2025-11-08T1100,2291A,117.0809,30.5177,安庆市,环科院,,14,6,16,3,11,44,,31,31,4,12,3,3,0.5,0.5
2025-11-08T1100,2292A,117.0331,30.5119,安庆市,马山宾馆,,12,8,17,3,10,38,,28,28,10,16,2,2,0.6,0.6
2025-11-08T1100,2294A,116.9896,30.6145,安庆市,安庆大学,,15,6,13,3,9,48,,32,32,8,9,5,4,0.5,0.4
2025-11-08T1100,3173A,117.0598,30.5351,安庆市,市人大,,14,6,17,3,9,42,,28,28,9,17,4,4,0.5,0.5
2025-11-08T1100,3122A,105.9606,26.2611,安顺市,伍家关,,,,31,6,11,60,,41,41,6,7,5,7,0.6,0.7
2025-11-08T1100,3123A,105.9408,26.2431,安顺市,凤凰山,,18,10,20,3,16,57,,40,40,8,8,6,7,0.4,0.4
2025-11-08T1100,3124A,105.9439,26.2564,安顺市,金钟山,,20,9,21,6,17,63,,44,44,6,6,7,8,0.5,0.6
2025-11-08T1100,3125A,105.8983,26.2481,安顺市,娄家坡,,17,9,21,6,19,53,,37,37,11,8,15,7,0.7,0.6
2025-11-08T1100,1818A,114.4839,36.0621,安阳市,棉研所,,,,,,,,,,,,,,,,
2025-11-08T1100,1819A,114.3551,36.1017,安阳市,红庙街,细颗粒物(PM2.5),92,91,39,68,48,24,,28,28,28,29,2,3,1.9,1.1
2025-11-08T1100,1820A,114.361,36.0681,安阳市,银杏小区,细颗粒物(PM2.5),103,90,38,77,50,24,,28,28,26,27,5,7,2.2,1.1
2025-11-08T1100,3141A,114.3922,36.0878,安阳市,信访局,细颗粒物(PM2.5),77,64,38,56,39,26,,28,28,21,24,1,3,1.7,0.9
2025-11-08T1100,3669A,114.4705,36.0637,安阳市,左辅环卫站,细颗粒物(PM2.5),77,94,66,56,42,37,,38,38,20,25,3,2,1.0,0.7
2025-11-08T1100,3703A,114.2917,36.0949,安阳市,安钢职工学校,细颗粒物(PM2.5),85,78,40,63,37,20,,21,21,25,26,5,2,2.5,1.3
2025-11-08T1100,1748A,123.044,41.1196,鞍山市,深沟寺,细颗粒物(PM2.5),63,67,96,45,68,67,,29,29,30,40,10,12,1.2,0.9
2025-11-08T1100,1749A,123.011,41.0931,鞍山市,太阳城,细颗粒物(PM2.5),90,84,88,67,63,52,,23,23,37,36,14,14,1.2,0.8
2025-11-08T1100,1750A,123.0485,41.1442,鞍山市,太平,细颗粒物(PM2.5),85,92,111,63,71,55,,23,23,33,39,16,13,1.8,1
2025-11-08T1100,1751A,122.9642,41.0971,鞍山市,铁西三道街,细颗粒物(PM2.5),145,155,124,111,85,31,,13,13,40,48,14,24,1.6,1.8
2025-11-08T1100,1753A,123.022,41.0821,鞍山市,明达新区,细颗粒物(PM2.5),80,78,88,59,65,64,,34,34,27,30,11,15,1.0,0.9
2025-11-08T1100,1754A,123.1289,41.0228,鞍山市,千山,,,,115,,65,,,47,,,35,,8,,0.6
2025-11-08T1100,4201A,122.9446,41.0826,鞍山市,兴盛南路290号,细颗粒物(PM2.5),148,150,123,113,86,32,,14,14,46,53,12,21,1.5,1.7
2025-11-08T1100,2195A,107.4212,40.761,巴彦淖尔市,附二中,颗粒物(PM10),62,73,88,27,27,62,,59,59,7,9,6,6,0.3,0.3
2025-11-08T1100,2196A,107.37,40.7372,巴彦淖尔市,市环保大楼,颗粒物(PM10),62,73,82,33,28,67,,59,59,7,11,9,7,0.3,0.3
2025-11-08T1100,1956A,86.1472,41.7538,巴音郭楞蒙古自治州,孔雀公园,颗粒物(PM10),66,82,91,32,24,8,,12,12,62,40,11,8,0.7,0.5
2025-11-08T1100,1957A,86.1972,41.7166,巴音郭楞蒙古自治州,棉纺厂,颗粒物(PM10),92,133,105,26,14,10,,30,28,58,31,6,5,1.2,0.7
2025-11-08T1100,1958A,86.2357,41.7173,巴音郭楞蒙古自治州,经济开发区,颗粒物(PM10),77,104,76,11,11,24,,43,36,35,20,5,5,0.6,0.5
2025-11-08T1100,2914A,106.7677,31.8794,巴中市,苏山坪,,,,,,,,,,,,,,,,
2025-11-08T1100,3181A,106.7768,31.8526,巴中市,市五中,,23,23,19,10,10,8,,4,4,25,16,9,8,1.0,0.9
2025-11-08T1100,3183A,106.7418,31.8654,巴中市,圣泉水务公司,,14,14,12,8,8,12,,18,12,16,16,9,9,0.8,0.8
2025-11-08T1100,3616A,106.7616,31.8344,巴中市,市中心医院,,20,20,14,13,10,8,,4,4,23,18,11,11,0.8,0.7
2025-11-08T1100,2235A,122.7911,45.6077,白城市,洮北区环保局,细颗粒物(PM2.5),176,,192,133,195,,,39,38,12,21,8,7,0.5,0.7
2025-11-08T1100,2236A,122.8738,45.5725,白城市,市环保局,细颗粒物(PM2.5),223,,202,173,203,38,,32,32,13,20,4,7,0.6,0.6
2025-11-08T1100,2231A,126.4219,41.9171,白山市,喜丰,颗粒物(PM10),65,80,67,43,33,7,,22,14,44,25,10,10,0.9,0.6
2025-11-08T1100,2232A,126.4077,41.9419,白山市,环保局,细颗粒物(PM2.5),57,52,47,40,38,16,,28,20,38,20,10,8,0.9,0.6
2025-11-08T1100,2647A,104.1724,36.5446,白银市,第三小学,颗粒物(PM10),91,132,119,22,49,70,,59,59,13,21,8,20,0.2,0.6
2025-11-08T1100,2648A,104.1465,36.5482,白银市,动力公司,颗粒物(PM10),88,126,125,26,60,74,,55,55,8,22,6,12,0.3,0.7
2025-11-08T1100,2512A,106.6103,23.9011,百色市,市监测站,,19,19,43,12,28,15,,13,10,20,19,9,10,0.8,0.8
2025-11-08T1100,2513A,106.6538,23.8859,百色市,市中心血站,,22,22,46,15,39,14,,15,12,22,25,6,9,0.8,0.9
2025-11-08T1100,3406A,106.6085,23.8798,百色市,祈福高中,,23,18,44,16,29,17,,11,9,18,24,7,8,0.8,0.8
2025-11-08T1100,2270A,117.396,32.939,蚌埠市,工人疗养院,,21,15,25,3,14,67,,67,67,14,14,3,3,0.5,0.4
2025-11-08T1100,2271A,117.3605,32.9427,蚌埠市,百货大楼,,23,10,17,9,17,71,,69,69,12,16,6,6,0.5,0.5
2025-11-08T1100,2273A,117.4185,32.8911,蚌埠市,蚌埠学院,,21,,16,8,17,67,,69,69,10,18,4,4,0.6,0.5
2025-11-08T1100,2274A,117.3533,32.9673,蚌埠市,淮上区政府,,24,9,20,8,18,74,,71,71,12,15,5,5,0.4,0.4
2025-11-08T1100,2275A,117.3145,32.8977,蚌埠市,高新区,,20,12,17,12,17,61,,62,62,18,22,6,6,0.6,0.5
2025-11-08T1100,3715A,117.3092,32.9314,蚌埠市,蚌埠田家炳中学,,22,19,22,8,16,68,,66,66,12,16,3,3,0.5,0.4
2025-11-08T1100,1585A,109.8756,40.6532,包头市,市环境监测站,颗粒物(PM10),115,179,75,38,19,45,,18,18,30,35,24,17,1.3,1.4
2025-11-08T1100,1587A,109.9991,40.5842,包头市,包头八中,颗粒物(PM10),123,196,79,67,22,56,,30,29,29,27,29,14,1.0,0.7
2025-11-08T1100,1588A,109.8538,40.6821,包头市,青山宾馆,颗粒物(PM10),95,139,62,33,22,58,,17,17,17,35,9,11,0.5,0.9
2025-11-08T1100,1589A,109.8642,40.6288,包头市,惠龙物流,颗粒物(PM10),125,199,86,51,22,57,,34,34,31,27,27,27,1.4,1
2025-11-08T1100,1590A,110.0377,40.5546,包头市,东河鸿龙湾,颗粒物(PM10),119,188,64,45,13,57,,39,39,23,20,19,8,0.7,0.5
2025-11-08T1100,3283A,109.9154,40.5685,包头市,滨河大厦,颗粒物(PM10),117,184,65,54,20,56,,41,41,20,18,17,12,0.4,0.4
2025-11-08T1100,3419A,109.9447,40.6261,包头市,包头市委党校,颗粒物(PM10),95,140,79,39,24,51,,26,23,32,27,27,18,1.5,1
2025-11-08T1100,3683A,109.8331,40.6576,包头市,昆区政府,颗粒物(PM10),104,158,74,54,25,36,,18,18,37,38,36,24,1.5,1.6
2025-11-08T1100,1930A,107.185,34.3063,宝鸡市,庙沟村,,,,,,,,,,,,,,,,
2025-11-08T1100,1931A,107.0708,34.3017,宝鸡市,竹园沟,颗粒物(PM10),51,51,46,28,23,47,,14,14,13,15,8,7,0.4,0.3
2025-11-08T1100,1932A,107.1906,34.3672,宝鸡市,三陆医院,颗粒物(PM10),60,70,82,28,35,24,,5,5,25,38,8,6,0.5,0.5
2025-11-08T1100,1933A,107.1431,34.3547,宝鸡市,监测站,,,,112,,28,,,44,,,24,,4,,0.4
2025-11-08T1100,1934A,107.1186,34.3739,宝鸡市,技工学校,颗粒物(PM10),56,61,79,28,35,34,,14,14,9,16,5,5,0.4,0.5
2025-11-08T1100,1936A,107.2058,34.3497,宝鸡市,文理学院,,,,72,31,26,21,,9,9,17,20,6,5,0.5,0.5
2025-11-08T1100,1937A,107.2386,34.3622,宝鸡市,三迪小学,颗粒物(PM10),66,81,81,35,35,21,,6,6,23,35,6,5,0.6,0.6
2025-11-08T1100,4308A,107.3898,34.3601,宝鸡市,陈仓区北开路21号,颗粒物(PM10),68,85,86,33,37,19,,5,5,18,31,9,8,0.5,0.6
2025-11-08T1100,1051A,115.493,38.8632,保定市,游泳馆,细颗粒物(PM2.5),75,63,54,55,43,20,,18,18,28,29,2,2,0.3,0.3
2025-11-08T1100,1052A,115.5213,38.8959,保定市,华电二区,细颗粒物(PM2.5),100,,45,75,45,25,,17,17,21,26,2,2,0.9,0.8
2025-11-08T1100,1053A,115.4713,38.9108,保定市,接待中心,细颗粒物(PM2.5),84,63,52,62,44,27,,20,20,17,24,1,1,0.6,0.6
2025-11-08T1100,1054A,115.4612,38.8416,保定市,地表水厂,细颗粒物(PM2.5),72,69,60,52,41,22,,18,18,25,30,3,4,0.7,0.6
2025-11-08T1100,3581A,115.31981,38.95208,保定市,满城区生态环境分局,,,63,52,44,42,26,,23,23,27,28,3,3,,0.6
2025-11-08T1100,3582A,115.47694,38.76408,保定市,清苑区第二中学,细颗粒物(PM2.5),69,79,53,50,34,21,,17,16,33,35,3,2,0.6,0.6
2025-11-08T1100,3583A,115.62909,39.02311,保定市,徐水物探局,细颗粒物(PM2.5),87,77,54,64,48,20,,11,11,27,31,5,4,0.8,0.7
2025-11-08T1100,4004A,115.4202,38.8656,保定市,双鹰农机,颗粒物(PM10),70,90,56,49,42,29,,24,24,29,34,1,2,0.8,0.8
2025-11-08T1100,4034A,115.5150,38.8590,保定市,植保所站,细颗粒物(PM2.5),73,62,66,53,47,24,,18,18,25,27,1,3,0.8,0.8
2025-11-08T1100,2594A,99.1678,25.1081,保山市,市环境监测站,,32,26,16,22,15,15,,12,9,15,8,7,5,0.7,0.6
2025-11-08T1100,2595A,99.1711,25.1328,保山市,市环保局,,24,24,18,15,15,21,,20,16,12,5,7,7,0.7,0.5
2025-11-08T1100,1866A,109.2262,21.588,北海市,牛尾岭水库,,,,,,,,,,,,,,,,
2025-11-08T1100,1867A,109.1436,21.4086,北海市,海滩公园,,19,18,24,12,11,59,,50,50,6,8,7,7,0.8,0.7
2025-11-08T1100,1868A,109.0981,21.4661,北海市,新市环保局,,24,24,23,12,15,60,,43,43,7,15,9,9,0.5,0.6
2025-11-08T1100,1869A,109.1778,21.5233,北海市,北海工业园,,32,32,31,17,19,45,,35,35,14,14,8,9,0.6,0.4
2025-11-08T1100,3400A,109.1911,21.4415,北海市,龙潭自来水厂,,21,21,21,14,16,55,,45,45,4,7,5,4,0.5,0.5
2025-11-08T1100,1001A,116.3621,39.8784,北京市,万寿西宫,细颗粒物(PM2.5),78,75,55,57,43,31,,27,25,29,33,2,2,0.7,0.8
2025-11-08T1100,1002A,116.2202,40.2915,北京市,定陵,,,,,,,,,,,,,,,,
2025-11-08T1100,1003A,116.4174,39.9289,北京市,东四,细颗粒物(PM2.5),72,66,54,52,42,33,,15,15,23,34,3,3,1.1,1.2
2025-11-08T1100,1004A,116.4072,39.8863,北京市,天坛,细颗粒物(PM2.5),72,58,51,52,42,27,,16,16,30,33,1,1,0.7,0.8
2025-11-08T1100,1005A,116.462,39.9365,北京市,农展馆,细颗粒物(PM2.5),74,59,50,54,38,30,,16,16,29,34,4,3,1.0,1
2025-11-08T1100,1006A,116.3392,39.9295,北京市,官园,细颗粒物(PM2.5),69,70,52,50,37,31,,28,26,24,28,2,1,0.7,0.8
2025-11-08T1100,1007A,116.2878,39.9611,北京市,海淀万柳,细颗粒物(PM2.5),72,63,48,52,40,30,,22,22,29,32,4,3,0.7,0.7
2025-11-08T1100,1008A,116.6636,40.135,北京市,顺义新城,细颗粒物(PM2.5),55,54,46,39,34,37,,25,25,29,25,5,4,0.6,0.7
2025-11-08T1100,1009A,116.6275,40.3275,北京市,怀柔镇,细颗粒物(PM2.5),54,52,34,38,29,44,,43,39,20,14,5,4,0.8,0.9
2025-11-08T1100,1010A,116.2296,40.217,北京市,昌平镇,细颗粒物(PM2.5),58,48,35,41,30,40,,18,18,22,22,5,4,0.6,0.7
2025-11-08T1100,1011A,116.3966,39.9821,北京市,奥体中心,细颗粒物(PM2.5),65,59,47,47,37,32,,12,12,29,42,4,4,0.8,0.8
2025-11-08T1100,3281A,115.9718,40.4529,北京市,延庆夏都,细颗粒物(PM2.5),57,48,36,40,30,32,,35,30,18,19,3,2,0.7,0.6
2025-11-08T1100,3418A,116.8336,40.4095,北京市,密云新城,,50,46,50,35,37,53,,23,23,18,29,3,2,0.6,0.8
2025-11-08T1100,3671A,116.088,39.9726,北京市,门头沟三家店,细颗粒物(PM2.5),52,45,39,36,28,36,,17,17,12,24,3,3,0.8,0.8
2025-11-08T1100,3672A,116.1541,39.8204,北京市,丰台云岗,细颗粒物(PM2.5),69,66,46,50,32,37,,28,28,19,21,4,3,0.6,0.7
2025-11-08T1100,3673A,116.6804,39.9081,北京市,通州东关,细颗粒物(PM2.5),65,60,54,47,39,34,,16,16,26,39,5,4,0.8,0.9
2025-11-08T1100,3674A,115.9577,39.7603,北京市,房山燕山,细颗粒物(PM2.5),72,66,45,52,35,40,,32,32,14,16,4,3,0.6,0.6
2025-11-08T1100,3675A,116.4672,39.7733,北京市,大兴旧宫,细颗粒物(PM2.5),70,71,57,51,39,33,,13,13,25,39,3,2,0.8,1
2025-11-08T1100,3694A,115.986,40.4563,北京市,延庆石河营,细颗粒物(PM2.5),55,46,34,39,28,30,,31,26,18,19,2,2,0.6,0.6
2025-11-08T1100,3695A,116.6151,40.3053,北京市,怀柔新城,细颗粒物(PM2.5),55,52,35,39,28,43,,41,36,17,11,5,3,0.7,0.7
2025-11-08T1100,3696A,116.2545,39.8768,北京市,丰台小屯,细颗粒物(PM2.5),69,65,48,50,36,36,,20,20,16,22,4,3,0.6,0.8
2025-11-08T1100,3697A,116.84,40.3844,北京市,密云镇,细颗粒物(PM2.5),55,52,49,39,37,55,,23,23,12,24,7,6,0.5,0.7
2025-11-08T1100,4182A,116.1942,39.9158,北京市,八角北路9号,"颗粒物(PM10),细颗粒物(PM2.5)",60,69,51,43,33,32,,19,19,20,30,1,1,0.8,0.8
2025-11-08T1100,4194A,117.0790,40.1518,北京市,洳河巡河路,细颗粒物(PM2.5),57,54,52,40,39,53,,20,20,11,22,6,4,0.6,0.7
2025-11-08T1100,1761A,123.8275,41.3064,本溪市,大峪,,34,34,141,18,105,83,,26,26,10,41,10,16,0.4,1.6
2025-11-08T1100,1762A,123.7567,41.3325,本溪市,溪湖,细颗粒物(PM2.5),97,,156,72,110,71,,32,32,26,42,17,12,1.4,1.5
2025-11-08T1100,1763A,123.7169,41.3094,本溪市,彩屯,颗粒物(PM10),55,60,141,38,109,46,,15,15,35,38,20,13,2.5,1.7
2025-11-08T1100,1764A,123.7669,41.2864,本溪市,东明,颗粒物(PM10),56,61,139,22,98,77,,28,28,12,44,9,19,0.5,1.9
2025-11-08T1100,1765A,123.7992,41.2664,本溪市,新立屯,,34,34,121,21,102,82,,36,36,12,41,8,14,0.5,1.5
2025-11-08T1100,1766A,123.8142,41.3472,本溪市,威宁,颗粒物(PM10),69,88,180,19,120,77,,19,19,20,50,14,10,0.7,1.6
2025-11-08T1100,2587A,105.2864,27.3125,毕节市,八中,,,,13,15,9,,,36,35,7,5,7,6,0.6,0.6
2025-11-08T1100,2588A,105.31,27.2944,毕节市,师专,,16,16,9,10,5,36,,41,40,8,6,7,7,0.7,0.6
2025-11-08T1100,4263A,105.3688,27.3598,毕节市,工业大道,,18,18,8,11,5,43,,51,47,6,5,8,8,0.7,0.7
2025-11-08T1100,1629A,118.0018,37.3617,滨州市,第二水厂,细颗粒物(PM2.5),122,127,95,92,63,11,,30,26,44,26,7,8,0.7,0.6
2025-11-08T1100,1630A,117.9776,37.393,滨州市,北中新校,细颗粒物(PM2.5),107,112,88,80,60,10,,24,20,44,28,9,7,0.3,0.3
2025-11-08T1100,3514A,117.9378,37.3956,滨州市,中海酒店,细颗粒物(PM2.5),117,107,87,88,67,21,,30,28,24,18,5,5,0.7,0.7
2025-11-08T1100,3515A,117.9378,37.3553,滨州市,开发区一中,细颗粒物(PM2.5),117,129,99,88,66,22,,36,32,33,21,7,8,0.9,0.8
2025-11-08T1100,3516A,118.0917,37.694,滨州市,金海六路,细颗粒物(PM2.5),79,88,80,58,55,22,,50,38,48,28,5,5,0.3,0.4
2025-11-08T1100,4028A,117.9956,37.3753,滨州市,滨州市西街道办事处,细颗粒物(PM2.5),125,119,84,95,70,13,,35,31,40,25,8,8,0.6,0.6
2025-11-08T1100,2311A,115.8072,33.8399,亳州市,污水处理厂,细颗粒物(PM2.5),120,94,49,91,47,29,,46,33,19,12,2,2,0.8,0.6
2025-11-08T1100,2312A,115.7789,33.8518,亳州市,三国揽胜宫,细颗粒物(PM2.5),98,82,40,73,41,27,,46,32,22,12,2,2,0.7,0.5
2025-11-08T1100,3332A,115.7633,33.8034,亳州市,亳州学院,细颗粒物(PM2.5),99,102,52,74,42,30,,51,36,22,13,4,4,0.8,0.7
2025-11-08T1100,2693A,82.0485,44.8556,博尔塔拉蒙古自治州,市党校,,20,20,24,6,7,44,,43,42,11,11,4,4,0.2,0.2
2025-11-08T1100,2694A,82.0806,44.8969,博尔塔拉蒙古自治州,市环保局,,49,49,46,15,15,43,,47,46,17,18,4,3,0.4,0.3
2025-11-08T1100,1071A,116.8842,38.2991,沧州市,沧县城建局,细颗粒物(PM2.5),84,101,74,62,53,22,,18,10,29,27,3,3,0.8,0.7
2025-11-08T1100,1072A,116.8584,38.3254,沧州市,电视转播站,细颗粒物(PM2.5),104,86,70,78,55,11,,11,4,31,25,6,5,0.7,0.6
2025-11-08T1100,1073A,116.8709,38.3228,沧州市,市环保局,细颗粒物(PM2.5),103,105,80,77,57,15,,12,6,35,29,5,6,0.6,0.5
2025-11-08T1100,3324A,116.8136,38.3004,沧州市,河北水利电力学院,细颗粒物(PM2.5),77,95,69,56,44,19,,21,14,33,29,8,9,0.6,0.5
2025-11-08T1100,2622A,97.1806,31.1273,昌都市,昌都监测站,,29,29,24,15,14,43,,36,36,14,15,2,3,0.5,0.3
2025-11-08T1100,3719A,97.1714,31.1406,昌都市,昌都会议中心,,18,18,14,9,7,50,,47,41,7,5,3,3,0.2,0.1
2025-11-08T1100,2690A,88.1236,43.8886,昌吉回族自治州,天山天池,,,,,,,,,,,,,,,,
2025-11-08T1100,2692A,87.2717,44.0297,昌吉回族自治州,新区政务中心,,36,36,26,21,13,20,,15,14,26,26,8,6,0.7,0.6
2025-11-08T1100,3613A,87.3095,44.0142,昌吉回族自治州,亚心广场,颗粒物(PM10),52,53,36,19,15,24,,18,18,21,26,8,7,0.7,0.6
2025-11-08T1100,1120A,125.2863,43.9027,长春市,客车厂,细颗粒物(PM2.5),193,,219,145,256,10,,34,24,40,35,10,10,0.9,0.9
2025-11-08T1100,1121A,125.2841,43.8463,长春市,邮电学院,细颗粒物(PM2.5),180,150,233,136,207,20,,37,29,41,32,8,10,0.9,0.8
2025-11-08T1100,1122A,125.3716,43.8772,长春市,劳动公园,细颗粒物(PM2.5),137,125,244,104,228,26,,30,24,35,36,11,14,0.9,1.1
2025-11-08T1100,1123A,125.3297,43.8805,长春市,园林处,细颗粒物(PM2.5),163,125,223,124,230,15,,34,23,31,31,6,9,0.9,1
2025-11-08T1100,1124A,125.4605,43.79,长春市,净月潭,细颗粒物(PM2.5),122,104,152,92,139,32,,38,33,19,19,6,7,0.7,0.7
2025-11-08T1100,1125A,125.7194,43.515,长春市,甩湾子,细颗粒物(PM2.5),78,,163,57,189,40,,31,31,13,17,6,7,0.6,0.8
2025-11-08T1100,1126A,125.3863,43.8447,长春市,经开区环卫处,细颗粒物(PM2.5),147,120,223,112,201,19,,18,18,34,36,8,9,0.8,0.9
2025-11-08T1100,1127A,125.245,43.7783,长春市,高新区管委会,细颗粒物(PM2.5),213,,165,163,173,26,,39,35,34,28,6,7,1.0,0.7
2025-11-08T1100,1128A,125.1761,43.8325,长春市,岱山公园,细颗粒物(PM2.5),232,200,190,182,198,10,,18,15,54,41,8,10,1.0,0.8
2025-11-08T1100,4281A,125.3346,43.9164,长春市,北亚泰大街1068号,细颗粒物(PM2.5),169,131,241,128,262,18,,21,18,47,38,8,10,0.8,0.9
2025-11-08T1100,1335A,113.0833,28.2325,长沙市,经开区环保局,,12,12,26,7,15,18,,12,12,12,20,4,4,0.6,0.6
2025-11-08T1100,1336A,112.8872,28.2189,长沙市,高开区环保局,,12,12,31,6,18,22,,20,20,19,23,5,5,0.5,0.5
2025-11-08T1100,1337A,113.0792,28.2053,长沙市,马坡岭,,10,10,25,6,16,20,,14,14,12,16,4,4,0.7,0.7
2025-11-08T1100,1338A,112.9394,28.19,长沙市,湖南师范大学,,8,6,25,3,14,24,,22,22,14,20,6,6,0.6,0.6
2025-11-08T1100,1339A,113.0178,28.1322,长沙市,雨花区环保局,,20,20,24,8,16,18,,15,15,13,15,5,6,0.7,0.7
2025-11-08T1100,1340A,112.9792,28.2597,长沙市,伍家岭,,12,12,28,7,23,21,,20,20,16,19,4,4,0.5,0.5
2025-11-08T1100,1341A,113.0014,28.1944,长沙市,火车新站,,20,20,25,7,15,22,,19,19,17,21,8,8,0.7,0.7
2025-11-08T1100,1342A,112.9844,28.1178,长沙市,天心区环保局,,17,17,26,6,15,24,,21,21,15,20,5,5,0.6,0.6
2025-11-08T1100,1343A,112.8908,28.1308,长沙市,湖南中医药大学,,8,,28,3,14,24,,20,20,12,18,4,4,0.7,0.7
2025-11-08T1100,1344A,112.9581,28.3611,长沙市,沙坪,,,,,,,,,,,,,,,,
2025-11-08T1100,1727A,113.1147,36.1547,长治市,清华站,,49,38,20,34,22,26,,20,19,28,26,10,8,1.0,1
2025-11-08T1100,1730A,113.0886,36.2125,长治市,审计局,细颗粒物(PM2.5),52,,18,36,24,23,,18,16,26,25,9,6,1.4,0.9
2025-11-08T1100,1731A,113.0844,36.1856,长治市,长治八中,,50,39,24,35,25,24,,16,16,20,22,10,6,1.2,0.9
2025-11-08T1100,2845A,113.1569,36.1911,长治市,德盛苑,细颗粒物(PM2.5),62,47,25,44,22,34,,27,22,20,18,8,4,1.3,1
2025-11-08T1100,3568A,113.06,36.0464,长治市,向阳小学,,47,47,38,32,26,34,,23,22,27,31,6,4,1.0,1.1
2025-11-08T1100,3569A,112.8792,36.3144,长治市,屯留一中,,28,28,28,16,24,39,,10,10,16,35,14,11,0.6,0.9
2025-11-08T1100,4189A,113.1131,36.19948,长治市,英华南巷50号,细颗粒物(PM2.5),58,,24,41,25,27,,21,19,23,22,7,4,1.3,1
2025-11-08T1100,4190A,113.2367,36.3344,长治市,学府街1号,细颗粒物(PM2.5),74,66,37,54,27,32,,23,23,25,32,7,5,1.7,1.4
2025-11-08T1100,1854A,111.6975,28.9703,常德市,市二中,,20,12,15,10,11,63,,53,53,9,11,5,4,0.7,0.7
2025-11-08T1100,1857A,111.7158,29.1456,常德市,白鹤山,,,,,,,,,,,,,,,,
2025-11-08T1100,3138A,111.7153,29.0289,常德市,武陵区永安,,19,13,16,9,9,60,,52,52,14,14,4,4,0.7,0.7
2025-11-08T1100,3139A,111.6892,28.9881,常德市,鼎城区玉霞,,21,13,20,10,11,65,,55,55,9,11,6,5,0.6,0.6
2025-11-08T1100,3140A,111.6625,29.0531,常德市,武陵区长庚,,18,10,18,9,11,56,,51,51,12,12,3,3,0.5,0.5
2025-11-08T1100,1196A,119.9633,31.762,常州市,市监测站,,,39,57,13,19,22,,44,32,20,36,,10,0.7,0.7
2025-11-08T1100,1200A,119.9468,31.7069,常州市,武进监测站,,34,34,48,9,16,22,,50,34,17,33,8,9,0.7,0.5
2025-11-08T1100,1201A,119.9255,31.9087,常州市,安家,,44,44,52,17,17,26,,33,23,21,32,9,9,0.8,0.5
2025-11-08T1100,3002A,119.9805,31.8174,常州市,行政中心,,25,23,27,17,21,23,,47,32,20,32,5,5,0.7,0.5
2025-11-08T1100,3003A,120.0522,31.7748,常州市,经开区,,24,24,40,14,17,25,,44,32,19,32,9,9,1.0,0.8
2025-11-08T1100,3010A,119.9025,31.7964,常州市,钟楼,,33,33,44,17,23,28,,44,31,24,36,8,8,0.9,0.7
2025-11-08T1100,3429A,119.8598,31.7066,常州市,武进经发区,,24,24,33,13,17,23,,42,30,22,35,7,7,0.8,0.7
2025-11-08T1100,3430A,119.5826,31.7245,常州市,金坛城区,,10,9,19,7,15,24,,35,24,18,22,5,5,0.7,0.5
2025-11-08T1100,2220A,120.4318,41.5881,朝阳市,西梁,颗粒物(PM10),58,66,36,37,15,54,,37,35,19,15,11,10,1.0,0.6
2025-11-08T1100,2221A,120.4521,41.5646,朝阳市,河畔小区,颗粒物(PM10),54,57,35,37,14,56,,43,42,18,15,8,9,0.8,0.4
2025-11-08T1100,2222A,120.4176,41.5648,朝阳市,八里堡,颗粒物(PM10),55,59,36,28,17,55,,36,34,23,17,16,12,1.1,0.4
2025-11-08T1100,2223A,120.3806,41.5969,朝阳市,农业园区,细颗粒物(PM2.5),52,44,32,36,20,59,,30,30,12,14,13,12,0.9,0.5
2025-11-08T1100,1705A,116.6367,23.6719,潮州市,西园路,,,,,,,,,,,,,,,,
2025-11-08T1100,3026A,116.6183,23.6608,潮州市,市政府,细颗粒物(PM2.5),55,53,41,39,24,85,,44,44,4,9,4,7,1.1,0.4
2025-11-08T1100,4036A,116.6461,23.6761,潮州市,金山,颗粒物(PM10),52,54,33,24,22,82,,36,36,7,8,2,3,0.4,0.4
2025-11-08T1100,2472A,113.0073,25.9061,郴州市,马头岭,,,,,,,,,,,,,,,,
2025-11-08T1100,2473A,113.0116,25.8226,郴州市,市职中,,5,6,30,3,24,9,,17,11,10,14,3,8,0.4,0.4
2025-11-08T1100,2475A,113.0383,25.8071,郴州市,市审计局,,12,12,31,3,24,5,,15,9,12,12,1,6,0.3,0.4
2025-11-08T1100,2476A,113.0348,25.7759,郴州市,市环保局,,16,16,37,3,25,7,,18,11,13,15,3,9,0.5,0.4
2025-11-08T1100,4252A,113.0138,25.8011,郴州市,好美居路49号,,,,30,0,24,14,,24,17,11,13,3,20,0.7,0.7
2025-11-08T1100,1431A,103.9728,30.7236,成都市,金泉两河,,48,48,26,3,9,16,,3,3,29,26,3,2,0.7,0.7
2025-11-08T1100,1432A,104.176,30.6872,成都市,十里店,,34,34,40,13,20,16,,6,6,35,39,4,3,0.9,0.8
2025-11-08T1100,1433A,104.079,30.5706,成都市,三瓦窑,,36,36,42,20,16,17,,4,4,35,40,6,5,0.8,0.8
2025-11-08T1100,1434A,104.1114,30.63,成都市,沙河铺,,37,37,35,14,23,7,,1,1,40,34,2,2,0.7,0.8
2025-11-08T1100,1437A,104.0786,30.6531,成都市,君平街,,20,20,34,11,17,7,,2,2,35,32,4,4,0.8,0.8
2025-11-08T1100,1438A,103.613,31.0283,成都市,灵岩寺,,,,,,,,,,,,,,,,
2025-11-08T1100,2880A,104.0239,30.65639,成都市,大石西路,,24,24,28,12,19,7,,2,2,38,31,4,4,0.9,0.9
2025-11-08T1100,3136A,104.2725,30.5589,成都市,龙泉驿区区政府,,25,24,15,17,9,16,,7,7,43,28,6,5,0.7,0.6
2025-11-08T1100,3357A,104.0106,30.6931,成都市,金博路,,19,19,23,3,13,12,,3,3,34,32,6,5,0.8,0.8
2025-11-08T1100,3359A,104.0578,30.5225,成都市,华阳,,34,34,29,22,20,19,,6,6,29,37,6,5,0.6,0.6
2025-11-08T1100,3488A,104.3880,30.7467,成都市,青石路225号,,24,24,38,8,13,32,,6,6,28,30,6,4,1.0,0.9
2025-11-08T1100,3489A,104.0789,30.4072,成都市,科学城,,27,27,22,17,14,19,,5,5,20,29,6,5,0.6,0.6
2025-11-08T1100,4011A,103.8506,30.6947,成都市,光华大道三段,颗粒物(PM10),55,60,31,9,15,16,,6,6,29,27,2,1,0.9,1
2025-11-08T1100,4224A,104.2433,30.5353,成都市,鲸龙路1057号,,35,35,23,23,14,29,,8,8,11,24,6,5,0.8,0.8
2025-11-08T1100,1062A,117.9531,40.9081,承德市,铁路,颗粒物(PM10),57,63,57,31,27,27,,30,23,33,27,7,4,0.8,0.4
2025-11-08T1100,1063A,117.9392,40.9763,承德市,中国银行,颗粒物(PM10),51,51,56,17,28,48,,29,26,16,17,9,4,0.5,0.4
2025-11-08T1100,1064A,117.9503,40.928,承德市,开发区,"颗粒物(PM10),细颗粒物(PM2.5)",59,67,60,42,31,36,,32,28,15,11,21,7,0.7,0.3
2025-11-08T1100,1066A,117.9268,41.0026,承德市,离宫,,,,,,,,,,,,,,,,
2025-11-08T1100,4274A,117.7994,40.9605,承德市,滨河大街98号,,26,26,41,14,26,48,,29,29,17,18,23,7,0.5,0.5
2025-11-08T1100,2314A,117.47,30.6618,池州市,池州学院,,16,7,16,6,11,51,,29,29,12,23,5,5,0.6,0.6
2025-11-08T1100,3237A,117.4918,30.6617,池州市,展览馆,,15,8,15,6,9,48,,27,27,13,21,4,4,0.6,0.6
2025-11-08T1100,3333A,117.5627,30.695,池州市,第八中学,,14,11,15,6,7,42,,28,28,16,21,6,6,0.7,0.7
2025-11-08T1100,3334A,117.5038,30.6243,池州市,第十二中学,,15,8,14,3,10,46,,29,29,17,23,4,4,0.8,0.9
2025-11-08T1100,1744A,118.9233,42.2816,赤峰市,松山一中,细颗粒物(PM2.5),68,77,48,49,30,35,,16,14,31,29,16,12,0.9,0.7
2025-11-08T1100,1745A,118.9576,42.2728,赤峰市,哈达街,细颗粒物(PM2.5),78,88,53,57,34,27,,16,15,38,33,26,39,0.9,0.6
2025-11-08T1100,1746A,118.8788,42.2554,赤峰市,天义路,细颗粒物(PM2.5),80,,34,59,37,44,,16,14,22,30,10,18,0.6,0.5
2025-11-08T1100,3058A,119.2658,42.0353,赤峰市,银河街,细颗粒物(PM2.5),62,63,53,44,35,41,,21,21,19,16,48,21,0.7,0.6
2025-11-08T1100,3286A,118.9359,42.3147,赤峰市,桥北物流园区,细颗粒物(PM2.5),112,,39,84,35,22,,20,16,39,20,30,12,1.2,0.6
2025-11-08T1100,2521A,107.3476,22.4136,崇左市,市环保局江州分局,,31,31,21,14,12,22,,22,20,8,8,1,1,0.8,0.8
2025-11-08T1100,4256A,107.3750,22.3736,崇左市,石景林东路7号,,36,36,21,24,16,32,,34,32,10,10,6,6,0.8,0.7
2025-11-08T1100,2298A,118.3093,32.3153,滁州市,老年大学,,20,16,28,13,25,64,,36,36,3,24,11,12,0.1,0.4
2025-11-08T1100,2299A,118.3244,32.2786,滁州市,人大宾馆,,20,12,22,11,27,63,,35,35,3,20,4,4,0.2,0.5
2025-11-08T1100,3207A,118.3118,32.3038,滁州市,市政府原办公楼,,29,,22,20,28,68,,41,41,9,26,5,6,0.4,0.6
2025-11-08T1100,3331A,118.3267,32.2634,滁州市,图书馆,,21,10,18,8,19,65,,37,37,7,23,7,7,0.3,0.5
2025-11-08T1100,2605A,101.5482,25.0441,楚雄彝族自治州,州环境监测站,,15,11,16,10,13,24,,4,4,6,10,6,9,0.7,0.7
2025-11-08T1100,2606A,101.538,25.0492,楚雄彝族自治州,市经济开发区,,19,19,18,11,11,23,,4,4,10,12,6,8,0.7,0.7
2025-11-08T1100,2548A,107.5277,31.2827,达州市,达州职业技术学院,,,,,,,,,,,,,,,,
2025-11-08T1100,2549A,107.5086,31.2186,达州市,市环境监测站,,21,21,12,3,2,10,,9,9,29,26,8,6,0.6,0.6
2025-11-08T1100,2550A,107.4988,31.2132,达州市,凤凰小区,,14,9,12,3,4,12,,14,14,27,25,6,6,0.6,0.6
2025-11-08T1100,2551A,107.5082,31.1986,达州市,达县机关宾馆,,16,7,10,3,5,6,,6,6,31,26,7,6,0.6,0.6
2025-11-08T1100,2552A,107.4644,31.2124,达州市,市政中心,,21,21,23,3,3,11,,11,11,27,24,8,7,0.7,0.6
2025-11-08T1100,2614A,100.1542,25.7054,大理白族自治州,大理市环境监测站,,18,14,11,12,12,28,,29,22,9,8,6,6,0.5,0.5
2025-11-08T1100,2615A,100.2171,25.5811,大理白族自治州,大理古城,,17,17,16,3,9,37,,25,25,7,11,7,7,0.6,0.6
2025-11-08T1100,1109A,121.612,38.9741,大连市,甘井子,颗粒物(PM10),59,67,108,41,76,51,,53,53,48,44,9,10,0.5,0.7
2025-11-08T1100,1110A,121.565,38.9511,大连市,周水子,细颗粒物(PM2.5),65,71,117,47,78,61,,38,38,40,49,6,7,0.6,0.9
2025-11-08T1100,1111A,121.5637,38.8845,大连市,星海三站,,50,50,88,25,68,86,,64,64,12,21,6,7,0.4,0.7
2025-11-08T1100,1112A,121.6302,38.9117,大连市,青泥洼桥,颗粒物(PM10),54,58,101,37,72,48,,44,44,47,41,12,13,0.8,0.9
2025-11-08T1100,1113A,121.6251,38.8638,大连市,傅家庄,,42,42,79,27,59,91,,75,75,15,31,10,12,0.4,0.8
2025-11-08T1100,1114A,121.5213,38.8661,大连市,七贤岭,颗粒物(PM10),51,52,97,26,66,84,,56,56,17,31,8,8,0.5,0.8
2025-11-08T1100,1115A,121.2529,38.8061,大连市,旅顺,,36,36,87,25,70,85,,74,74,12,22,8,9,0.4,0.7
2025-11-08T1100,1116A,121.7485,39.1311,大连市,金州,,,,96,55,72,21,,70,65,61,35,,13,0.6,0.8
2025-11-08T1100,1117A,121.7811,39.0496,大连市,开发区,细颗粒物(PM2.5),79,86,97,58,64,22,,42,39,69,44,5,6,0.8,0.8
2025-11-08T1100,1118A,121.9762,39.0631,大连市,双D港,,39,29,76,27,55,99,,72,72,10,24,10,12,0.5,0.7
2025-11-08T1100,1789A,124.81117,46.03138,大庆市,大同区,细颗粒物(PM2.5),178,155,82,134,64,27,,35,31,20,20,10,10,0.7,0.5
2025-11-08T1100,1790A,125.129,46.533,大庆市,龙凤区,细颗粒物(PM2.5),169,,75,128,55,,,35,30,23,22,6,5,0.9,0.7
2025-11-08T1100,1791A,124.902,46.408,大庆市,红岗区,细颗粒物(PM2.5),102,120,81,76,55,20,,,,24,20,6,8,0.7,0.4
2025-11-08T1100,1792A,125.153,46.586,大庆市,萨尔图区,细颗粒物(PM2.5),178,149,62,134,51,26,,40,33,27,17,6,6,0.7,0.4
2025-11-08T1100,1793A,124.9042,46.6215,大庆市,让胡路区,细颗粒物(PM2.5),178,149,56,134,45,21,,33,26,29,22,6,8,0.8,0.5
2025-11-08T1100,3481A,125.141,46.634,大庆市,萨区政府监测点,细颗粒物(PM2.5),163,154,48,124,36,22,,34,27,19,10,8,9,0.6,0.3
2025-11-08T1100,1721A,113.3819,40.1097,大同市,果树场,颗粒物(PM10),74,97,35,20,25,63,,46,46,15,29,8,8,0.3,0.7
2025-11-08T1100,1723A,113.2994,40.0758,大同市,云冈宾馆,颗粒物(PM10),79,108,37,31,24,58,,47,47,15,27,6,6,0.3,0.5
2025-11-08T1100,1724A,113.3444,40.0917,大同市,大同大学,颗粒物(PM10),81,111,39,39,24,60,,51,51,19,26,7,7,0.5,0.6
2025-11-08T1100,1725A,113.2661,40.1269,大同市,安家小村,颗粒物(PM10),75,100,39,40,22,58,,48,48,16,24,7,7,0.2,0.4
2025-11-08T1100,1726A,113.2711,40.0844,大同市,教育学院,颗粒物(PM10),84,118,47,34,23,58,,48,48,18,26,6,6,0.4,0.5
2025-11-08T1100,3282A,113.3397,40.0597,大同市,大同市卫生学校,颗粒物(PM10),87,124,44,40,23,59,,46,46,15,23,5,7,0.4,0.6
2025-11-08T1100,3565A,113.1367,40.1122,大同市,云冈站,颗粒物(PM10),84,118,40,32,22,59,,43,43,9,17,5,5,0.4,0.5
2025-11-08T1100,3566A,113.1186,40.2556,大同市,图书馆,颗粒物(PM10),73,95,39,43,25,72,,52,52,9,22,4,7,0.3,0.5
2025-11-08T1100,3567A,113.5931,40.0461,大同市,区一中,颗粒物(PM10),72,94,33,22,17,55,,40,40,15,24,29,10,0.4,0.6
2025-11-08T1100,4199A,113.2798,40.0997,大同市,魏都大道141号,颗粒物(PM10),86,121,49,30,26,61,,50,50,15,26,5,5,0.5,0.7
2025-11-08T1100,2269A,124.1069,50.4097,大兴安岭地区,科技局,颗粒物(PM10),80,109,33,3,11,51,,44,44,3,4,5,5,0.1,0.2
2025-11-08T1100,3663A,124.1164,50.4278,大兴安岭地区,红旗社区,,16,9,15,3,5,50,,46,46,9,10,6,8,0.3,0.3
2025-11-08T1100,1600A,124.3303,40.0625,丹东市,江湾东路,颗粒物(PM10),63,75,88,38,42,29,,12,10,32,32,14,14,1.3,1.6
2025-11-08T1100,1601A,124.4256,40.1503,丹东市,临江后街,细颗粒物(PM2.5),60,68,42,43,23,21,,25,18,32,27,10,9,0.8,0.6
2025-11-08T1100,1602A,124.3933,40.1461,丹东市,元宝山,细颗粒物(PM2.5),63,68,50,45,39,14,,26,18,42,25,11,10,1.1,0.8
2025-11-08T1100,1603A,124.3633,40.1092,丹东市,民主桥,颗粒物(PM10),64,77,60,45,32,11,,10,5,57,46,12,9,1.0,0.8
2025-11-08T1100,3541A,109.5726,19.5167,儋州市,第一中学子站,,14,14,13,7,6,35,,32,31,2,2,6,6,0.3,0.3
2025-11-08T1100,3542A,109.5567,19.5187,儋州市,东坡学校子站,,22,22,14,6,5,34,,31,30,4,4,2,2,0.3,0.3
2025-11-08T1100,2616A,98.5842,24.428,德宏傣族景颇族自治州,德宏州监测站,,47,47,29,27,19,14,,7,5,16,15,8,8,0.8,0.7
2025-11-08T1100,3677A,98.5881,24.4368,德宏傣族景颇族自治州,芒市人民政府综合楼,,45,37,34,31,16,8,,9,4,17,11,7,7,0.9,0.7
2025-11-08T1100,1901A,104.4239,31.1208,德阳市,东山公园,,41,41,17,20,12,19,,18,15,20,20,2,2,0.8,0.8
2025-11-08T1100,1902A,104.3826,31.1317,德阳市,西小区,颗粒物(PM10),56,62,38,25,16,20,,8,8,28,29,3,2,0.8,0.8
2025-11-08T1100,1904A,104.3553,31.1091,德阳市,耐火材料厂,颗粒物(PM10),55,60,38,14,16,20,,6,6,38,34,4,2,0.9,0.9
2025-11-08T1100,3639A,104.4019,31.1244,德阳市,市教育局,,47,47,25,16,9,14,,3,3,27,29,2,2,0.7,0.8
2025-11-08T1100,1622A,116.3032,37.4674,德州市,儿童乐园,,,83,88,68,67,47,,27,27,24,35,,10,0.7,0.9
2025-11-08T1100,1624A,116.2991,37.4451,德州市,监理站,细颗粒物(PM2.5),85,80,85,63,68,46,,40,37,26,34,11,13,0.7,0.7
2025-11-08T1100,3066A,116.2721,37.4379,德州市,九衢泉纯净水厂,细颗粒物(PM2.5),73,73,79,53,54,39,,28,25,27,36,9,11,0.8,0.9
2025-11-08T1100,3371A,116.3728,37.4403,德州市,开发区人民医院,细颗粒物(PM2.5),89,92,84,66,54,28,,17,14,34,42,12,13,0.8,0.9
2025-11-08T1100,3511A,116.5652,37.3319,德州市,陵城艺术中心,细颗粒物(PM2.5),107,134,91,80,70,26,,36,34,37,36,11,11,0.8,0.9
2025-11-08T1100,4292A,116.3525,37.4209,德州市,新河东路,细颗粒物(PM2.5),73,78,88,53,59,33,,27,25,35,41,7,9,0.8,0.9
2025-11-08T1100,2621A,99.7056,27.8317,迪庆藏族自治州,迪庆州站,,,,23,,13,,,79,,,10,,6,,0.4
2025-11-08T1100,3180A,99.7136,27.8094,迪庆藏族自治州,质量技术监督局,颗粒物(PM10),57,64,37,17,19,33,,28,24,31,19,8,8,0.7,0.6
2025-11-08T1100,4257A,104.6092,35.5962,定西市,将台街,颗粒物(PM10),65,79,84,36,36,46,,18,18,23,24,10,8,0.3,0.4
2025-11-08T1100,4309A,104.6159,35.5701,定西市,正龙路62号,颗粒物(PM10),77,104,91,42,36,36,,30,25,23,16,10,7,0.5,0.3
2025-11-08T1100,1389A,113.7547,23.0494,东莞市,莞城梨川,,40,40,46,24,24,117,,57,57,18,30,5,6,0.4,0.5
2025-11-08T1100,1390A,113.7944,23.0128,东莞市,东城石井,,33,33,38,19,21,104,,49,49,20,27,6,6,0.6,0.6
2025-11-08T1100,1391A,113.7383,22.9658,东莞市,南城西平,,,28,38,14,18,91,,61,61,13,26,6,7,,0.6
2025-11-08T1100,3319A,113.7338,23.0381,东莞市,万江金泰,,40,40,46,24,27,104,,56,56,19,25,5,5,0.7,0.6
2025-11-08T1100,3626A,113.7533,23.0202,东莞市,南城元岭,,39,39,43,19,23,107,,64,64,16,24,6,7,0.6,0.6
2025-11-08T1100,3627A,113.7875,23.0457,东莞市,东城主山,,39,39,50,20,24,121,,49,49,19,36,5,5,0.6,0.7
2025-11-08T1100,1666A,118.6614,37.4309,东营市,市环保局,细颗粒物(PM2.5),89,97,71,66,47,40,,54,49,35,23,14,7,0.8,0.8
2025-11-08T1100,3036A,118.6904,37.4338,东营市,开发区管委会,细颗粒物(PM2.5),104,98,70,78,57,43,,63,56,38,22,15,8,0.8,0.7
2025-11-08T1100,3365A,118.5719,37.565,东营市,垦利区民丰路,细颗粒物(PM2.5),77,88,82,56,55,42,,46,41,32,22,5,4,0.8,0.8
2025-11-08T1100,3498A,118.5055,37.8612,东营市,河口城区,细颗粒物(PM2.5),77,75,80,56,55,52,,59,52,28,28,7,7,0.8,0.8
2025-11-08T1100,3646A,118.4978,37.4623,东营市,胜利站,细颗粒物(PM2.5),83,67,51,61,48,44,,46,43,43,29,11,9,1.1,1.1
2025-11-08T1100,3734A,118.35,37.26,东营市,理想之城,细颗粒物(PM2.5),98,114,87,73,55,44,,36,33,37,32,6,3,0.8,0.8
2025-11-08T1100,1591A,110.0023,39.8129,鄂尔多斯市,综合楼,颗粒物(PM10),100,149,93,31,24,71,,68,68,5,9,6,7,0.3,0.3
2025-11-08T1100,1592A,109.9486,39.8261,鄂尔多斯市,巴音孟克林场办事处,颗粒物(PM10),115,180,114,41,30,74,,71,71,4,8,5,6,0.3,0.2
2025-11-08T1100,1593A,109.7736,39.5986,鄂尔多斯市,康泽苑,颗粒物(PM10),117,183,112,44,33,73,,63,62,7,10,5,6,0.3,0.3
2025-11-08T1100,1594A,109.8119,39.5989,鄂尔多斯市,华泰汽车城,颗粒物(PM10),120,190,111,44,31,78,,66,62,7,12,6,5,0.2,0.2
2025-11-08T1100,1595A,109.9734,39.7884,鄂尔多斯市,奥林花园,颗粒物(PM10),126,202,118,34,25,72,,58,58,11,20,6,9,0.4,0.4
2025-11-08T1100,2436A,114.8938,30.3994,鄂州市,市政府,,16,14,24,10,11,50,,33,33,17,23,8,9,0.5,0.6
2025-11-08T1100,2437A,114.8989,30.3714,鄂州市,赵家坝,,17,,25,9,13,53,,34,34,10,13,7,8,0.6,0.7
2025-11-08T1100,3654A,114.8094,30.4089,鄂州市,精准医疗中心,,20,20,26,12,14,52,,35,35,7,18,4,6,0.6,0.8
2025-11-08T1100,2454A,109.4978,30.2981,恩施土家族苗族自治州,湖北民院,,12,12,18,8,13,10,,12,12,17,16,6,6,0.8,0.7
2025-11-08T1100,2455A,109.4707,30.2798,恩施土家族苗族自治州,州电力总公司,,20,17,16,14,14,4,,11,7,17,17,5,5,0.6,0.5
2025-11-08T1100,3549A,109.5061,30.3772,恩施土家族苗族自治州,龙凤新区,,18,12,15,12,11,5,,4,3,12,13,6,6,0.6,0.5
2025-11-08T1100,2499A,108.3411,21.6158,防城港市,沙万,,48,48,35,27,26,23,,21,18,14,15,8,7,0.5,0.5
2025-11-08T1100,2500A,108.3514,21.7731,防城港市,防城档案局,,37,37,28,20,20,27,,28,23,12,10,8,7,0.7,0.8
2025-11-08T1100,2501A,108.3506,21.6414,防城港市,大海花园,,48,45,32,33,22,25,,26,22,15,12,12,7,0.9,0.8
2025-11-08T1100,1371A,113.1294,23.0067,佛山市,湾梁,,31,31,50,8,28,72,,20,20,20,49,6,7,0.8,1
2025-11-08T1100,1372A,113.1083,23.0478,佛山市,华材职中,,31,31,48,15,31,82,,26,26,10,44,6,7,0.5,0.8
2025-11-08T1100,1373A,113.144,23.0453,佛山市,南海气象局,,36,36,47,22,28,75,,21,21,15,37,7,7,0.6,0.9
2025-11-08T1100,1374A,113.2881,22.8094,佛山市,顺德苏岗,,33,33,49,14,27,76,,26,26,13,44,7,8,0.4,0.6
2025-11-08T1100,1376A,112.8383,22.8678,佛山市,高明孔堂,颗粒物(PM10),61,71,54,32,34,39,,7,7,53,45,5,4,0.7,0.7
2025-11-08T1100,1377A,112.8836,23.1588,佛山市,三水监测站,,39,39,43,27,32,48,,14,14,39,40,5,7,0.7,0.8
2025-11-08T1100,1378A,112.867,23.185,佛山市,三水云东海,颗粒物(PM10),56,61,50,25,36,43,,8,8,40,36,7,6,0.9,0.9
2025-11-08T1100,3625A,113.2544,22.7642,佛山市,容桂街道办,,36,36,42,22,26,71,,48,48,20,46,5,6,0.5,0.6
2025-11-08T1100,1280A,119.3903,26.0543,福州市,鼓山,,,,26,,14,,,70,,,7,,1,,0.3
2025-11-08T1100,1282A,119.2681,26.0504,福州市,师大,,35,35,42,12,20,82,,57,57,10,15,6,6,0.5,0.5
2025-11-08T1100,1283A,119.2984,26.1028,福州市,五四北路,,,,39,6,17,76,,59,59,8,14,4,4,0.4,0.5
2025-11-08T1100,1284A,119.2648,26.0768,福州市,杨桥西路,,25,22,38,9,17,79,,56,56,8,12,4,4,0.3,0.4
2025-11-08T1100,1285A,119.317,26.0746,福州市,紫阳,,40,40,46,10,18,69,,46,46,17,15,6,6,0.4,0.4
2025-11-08T1100,3048A,119.5799,26.0936,福州市,九龙,细颗粒物(PM2.5),62,45,38,44,20,93,,53,53,5,18,5,5,0.4,0.4
2025-11-08T1100,3526A,119.5189,25.9664,福州市,吴航,,28,18,33,8,15,88,,57,57,4,10,5,6,0.4,0.5
2025-11-08T1100,1755A,123.7977,41.8491,抚顺市,望花区,细颗粒物(PM2.5),211,169,137,161,115,3,,9,4,64,37,14,12,1.9,1.1
2025-11-08T1100,1756A,123.9161,41.8822,抚顺市,顺城区,细颗粒物(PM2.5),218,179,135,168,93,5,,12,6,55,37,11,11,1.4,1
2025-11-08T1100,1757A,124.0436,41.8611,抚顺市,东洲区,细颗粒物(PM2.5),209,183,127,159,121,12,,17,13,46,32,10,12,1.2,1.1
2025-11-08T1100,1758A,123.9247,41.8642,抚顺市,新抚区,细颗粒物(PM2.5),219,176,143,169,113,7,,10,5,52,36,9,11,1.6,1.2
2025-11-08T1100,1759A,124.0972,41.8961,抚顺市,大伙房水库,细颗粒物(PM2.5),212,183,147,162,134,15,,26,20,48,34,12,14,1.3,1.2
2025-11-08T1100,1760A,123.7086,41.8391,抚顺市,沈抚新城,细颗粒物(PM2.5),183,158,128,138,110,5,,13,7,59,38,10,10,2.2,0.9
2025-11-08T1100,2376A,116.2127,28.0814,抚州市,桐源党溪,,,,,,,,,,,,,,,,
2025-11-08T1100,2377A,116.3544,27.9831,抚州市,市站,,19,19,38,3,26,40,,47,42,8,11,5,7,0.9,0.8
2025-11-08T1100,2378A,116.3565,27.963,抚州市,血防站,,21,21,41,9,29,39,,48,43,9,12,2,3,0.8,0.8
2025-11-08T1100,2379A,116.3564,28.0007,抚州市,采茶剧团,,15,14,42,10,29,40,,42,38,4,9,2,5,0.7,0.8
2025-11-08T1100,2380A,116.385,27.9647,抚州市,医学分院,,20,20,46,11,28,39,,46,42,8,12,8,7,1.1,1.1
2025-11-08T1100,2207A,121.6094,41.998,阜新市,工业园区,细颗粒物(PM2.5),119,92,131,90,134,54,,49,39,19,22,13,12,0.7,0.7
2025-11-08T1100,2208A,121.6697,42.0279,阜新市,长青街,细颗粒物(PM2.5),94,87,136,70,138,45,,46,37,23,20,13,11,0.5,0.5
2025-11-08T1100,2209A,121.6673,42.0705,阜新市,农业园区,细颗粒物(PM2.5),119,106,142,90,138,50,,51,43,21,18,11,7,0.9,0.8
2025-11-08T1100,2210A,121.6717,42.0224,阜新市,东苑,细颗粒物(PM2.5),97,76,141,72,128,48,,52,41,24,23,23,18,0.7,0.8
2025-11-08T1100,2211A,121.6506,42.0498,阜新市,玉龙新城,细颗粒物(PM2.5),105,98,137,79,138,51,,47,39,21,20,14,10,0.7,0.7
2025-11-08T1100,2301A,115.8277,32.8929,阜阳市,市监测站,细颗粒物(PM2.5),100,87,32,75,25,36,,61,48,22,18,4,4,0.6,0.5
2025-11-08T1100,2303A,115.8554,32.8605,阜阳市,开发区,,,,22,,7,,,40,,,20,,3,,0.4
2025-11-08T1100,2875A,115.784,32.8892,阜阳市,阜阳职业技术学院,细颗粒物(PM2.5),107,95,45,80,25,43,,64,51,15,12,5,5,0.5,0.5
2025-11-08T1100,3468A,115.7901,32.8613,阜阳市,市规划展馆,细颗粒物(PM2.5),100,117,42,75,29,38,,64,48,14,11,4,4,0.7,0.6
2025-11-08T1100,3469A,115.836,32.9183,阜阳市,枣园社区,细颗粒物(PM2.5),97,92,32,72,27,41,,64,51,20,16,6,6,0.7,0.5
2025-11-08T1100,2669A,102.9099,34.9841,甘南藏族自治州,州政府,颗粒物(PM10),60,69,82,35,30,36,,32,26,18,14,3,3,0.5,0.4
2025-11-08T1100,3380A,102.8914,34.9617,甘南藏族自治州,甘肃民族师范学院,颗粒物(PM10),60,69,89,15,29,40,,29,22,16,16,10,9,0.6,0.5
2025-11-08T1100,2570A,101.9603,30.0475,甘孜藏族自治州,水桥子,,11,,7,6,5,23,,31,25,21,12,8,8,0.5,0.4
2025-11-08T1100,3065A,101.9533,29.9972,甘孜藏族自治州,州环保局,,13,,7,7,5,40,,32,29,12,10,6,5,0.5,0.6
2025-11-08T1100,3414A,115.8347,28.932,赣江新区,桑海产业园,,9,6,37,3,27,24,,32,22,12,17,7,9,0.9,0.9
2025-11-08T1100,2362A,114.9017,25.9149,赣州市,通天岩,,39,39,32,18,14,57,,18,18,14,8,24,21,1.5,1.1
2025-11-08T1100,2363A,114.9367,25.8664,赣州市,地委,,46,46,54,25,31,22,,9,9,19,38,6,6,0.9,1.1
2025-11-08T1100,2364A,114.9461,25.8481,赣州市,气象台,,43,43,57,24,27,25,,10,10,27,41,6,6,0.8,1
2025-11-08T1100,2365A,114.9322,25.8333,赣州市,市图书馆,,43,43,57,30,30,21,,7,7,21,42,3,5,0.7,1
2025-11-08T1100,2366A,114.8905,25.8471,赣州市,华坚鞋城,颗粒物(PM10),55,60,58,34,30,21,,12,12,49,41,8,8,0.8,0.8
2025-11-08T1100,3109A,115.0093,25.8613,赣州市,赣县区卫计委,颗粒物(PM10),54,57,50,34,37,30,,6,6,19,31,7,7,0.6,0.7
2025-11-08T1100,2683A,106.2319,36.1417,固原市,马园,,,,,,,,,,,,,,,,
2025-11-08T1100,2684A,106.2792,36.0022,固原市,监测站,颗粒物(PM10),70,90,68,32,25,44,,26,26,31,23,7,5,0.9,0.8
2025-11-08T1100,2685A,106.2375,36.0211,固原市,新区,颗粒物(PM10),63,75,71,24,27,61,,13,13,22,31,6,4,0.5,0.7
2025-11-08T1100,3522A,106.2177,35.9959,固原市,原州区十五小,颗粒物(PM10),62,73,77,27,29,66,,40,40,18,22,9,6,0.6,0.7
2025-11-08T1100,2543A,106.6308,30.5278,广安市,小平旧居,,,,,,,,,,,,,,,,
2025-11-08T1100,2544A,106.6303,30.4576,广安市,市委,,16,14,9,11,8,21,,17,15,16,13,3,3,0.7,0.7
2025-11-08T1100,2545A,106.6271,30.4663,广安市,友谊中学,,16,14,12,11,6,25,,23,21,14,12,5,5,0.7,0.6
2025-11-08T1100,2547A,106.6388,30.4551,广安市,广电花园,,18,15,9,12,7,17,,16,12,16,14,1,1,0.7,0.6
2025-11-08T1100,2902A,106.6351,30.4865,广安市,北辰小学,,16,13,11,11,7,20,,20,18,10,8,6,7,0.7,0.6
2025-11-08T1100,2523A,105.8945,32.4535,广元市,黑石坡,,,,,,,,,,,,,,,,
2025-11-08T1100,2524A,105.821,32.4444,广元市,老城,,37,37,46,23,17,60,,40,40,16,24,3,3,0.5,0.6
2025-11-08T1100,2526A,105.8628,32.4287,广元市,监测站,,25,23,27,17,18,49,,32,32,17,16,3,3,0.6,0.6
2025-11-08T1100,3617A,105.8047,32.4166,广元市,经开区,颗粒物(PM10),54,58,54,23,22,37,,15,15,19,26,2,2,0.5,0.5
2025-11-08T1100,1345A,113.2347,23.1423,广州市,广雅中学,,26,25,54,12,27,81,,30,30,14,42,6,6,0.3,0.8
2025-11-08T1100,1346A,113.2612,23.105,广州市,市五中,,29,21,49,10,29,92,,33,33,14,58,6,7,0.4,0.7
2025-11-08T1100,1348A,113.3478,23.0916,广州市,广东商学院,,25,24,54,12,34,79,,36,36,14,39,5,5,0.3,0.5
2025-11-08T1100,1349A,113.4332,23.1047,广州市,市八十六中,,28,23,39,12,24,88,,31,31,20,51,8,7,0.3,0.5
2025-11-08T1100,1350A,113.3505,22.9483,广州市,番禺中学,,33,33,51,13,31,88,,38,38,13,37,6,6,0.5,0.7
2025-11-08T1100,1351A,113.2146,23.3916,广州市,花都师范,,50,50,45,31,29,51,,12,12,48,39,8,5,0.8,0.9
2025-11-08T1100,1352A,113.2597,23.1331,广州市,市监测站,,25,25,51,11,28,76,,30,30,17,46,8,7,0.4,0.7
2025-11-08T1100,1353A,113.5618,23.312,广州市,九龙镇镇龙,,36,36,46,19,31,76,,24,24,13,27,6,6,0.5,0.6
2025-11-08T1100,1354A,113.2765,23.1544,广州市,麓湖,,25,24,42,14,28,78,,27,27,15,35,9,8,0.3,0.5
2025-11-08T1100,1355A,113.443,23.3035,广州市,帽峰山森林公园,,,,,,,,,,,,,,,,
2025-11-08T1100,2846A,113.3221,23.1322,广州市,体育西,,,27,54,,29,65,,26,26,18,44,8,8,0.4,0.6
2025-11-08T1100,3298A,113.5717,23.5491,广州市,从化街口,,49,46,49,34,34,47,,10,10,21,31,16,14,0.7,0.8
2025-11-08T1100,3299A,113.3472,23.3692,广州市,白云竹料,,36,36,46,22,31,70,,18,18,26,28,8,7,0.6,0.7
2025-11-08T1100,3300A,113.2981,23.237,广州市,白云嘉禾,,38,38,52,21,30,74,,22,22,32,44,11,7,0.6,0.7
2025-11-08T1100,3301A,113.4256,23.1716,广州市,黄埔科学城,,36,33,41,23,27,113,,43,43,21,30,7,6,0.6,0.6
2025-11-08T1100,3302A,113.3942,23.0483,广州市,番禺大学城,,36,36,55,11,25,94,,42,42,8,36,8,10,0.4,0.6
2025-11-08T1100,3303A,113.4922,22.8168,广州市,南沙黄阁,,30,30,41,15,19,90,,53,53,16,37,7,7,0.5,0.6
2025-11-08T1100,3304A,113.5342,22.7896,广州市,南沙街,,31,31,37,15,17,82,,52,52,15,31,6,6,0.5,0.6
2025-11-08T1100,3443A,113.2902,23.5544,广州市,花都梯面,,27,27,64,16,21,83,,20,20,12,20,4,4,0.5,0.6
2025-11-08T1100,3445A,113.7858,23.7478,广州市,从化良口,,28,21,18,19,14,40,,13,13,12,15,6,6,0.7,0.6
2025-11-08T1100,3446A,113.8051,23.2614,广州市,增城荔城,,30,30,35,18,26,90,,49,49,10,16,9,8,0.4,0.5
2025-11-08T1100,2505A,109.568,23.1478,贵港市,德智高中,,,,,,,,,,,,,,,,
2025-11-08T1100,2506A,109.6047,23.0666,贵港市,江南子站,,38,29,30,26,25,51,,38,38,12,16,7,6,0.8,0.8
2025-11-08T1100,2508A,109.5669,23.1065,贵港市,荷城子站,,25,22,30,17,17,53,,39,39,10,15,5,5,0.6,0.6
2025-11-08T1100,3405A,109.5886,23.1172,贵港市,新世纪学校,,25,19,34,17,21,59,,42,42,5,9,6,6,0.5,0.5
2025-11-08T1100,4260A,109.5933,23.0951,贵港市,中山路155-3号,,30,21,34,21,22,57,,40,40,8,16,4,5,0.5,0.5
2025-11-08T1100,1439A,106.6899,26.5998,贵阳市,马鞍山,,11,7,18,3,9,33,,24,24,11,12,3,4,0.5,0.5
2025-11-08T1100,1441A,106.6243,26.6266,贵阳市,鉴湖路,,27,27,29,7,10,33,,30,30,10,11,5,6,0.5,0.5
2025-11-08T1100,1442A,106.7487,26.6343,贵阳市,燕子冲,,18,14,19,12,19,34,,31,31,12,13,4,4,0.5,0.4
2025-11-08T1100,1443A,106.6555,26.4365,贵阳市,碧云窝,,22,22,30,3,11,28,,26,26,18,15,3,3,0.5,0.4
2025-11-08T1100,1445A,106.7109,26.6027,贵阳市,红边门,,13,9,22,9,13,26,,28,28,16,14,4,4,0.7,0.7
2025-11-08T1100,1446A,106.7164,26.5699,贵阳市,新华路,,17,17,30,9,15,32,,32,32,15,17,13,24,0.6,0.5
2025-11-08T1100,1447A,106.674,26.5424,贵阳市,太慈桥,,10,9,20,7,13,26,,21,21,15,17,2,4,0.3,0.3
2025-11-08T1100,1552A,106.805,26.3003,贵阳市,桐木岭,,17,17,24,9,15,35,,30,30,6,8,4,5,0.8,0.7
2025-11-08T1100,4230A,106.6882,26.5695,贵阳市,花果园大街66号,,12,,17,8,16,30,,24,24,10,14,1,2,0.7,0.7
2025-11-08T1100,4231A,106.6873,26.5169,贵阳市,漓江路57号,,18,,15,12,13,20,,22,22,18,13,6,7,0.7,0.6
2025-11-08T1100,1862A,110.4144,25.3167,桂林市,电子科大尧山校区,,,,,,,,,,,,,,,,
2025-11-08T1100,1864A,110.3089,25.2708,桂林市,龙隐路小学,,,,20,6,15,27,,19,19,,14,,5,0.5,0.5
2025-11-08T1100,1865A,110.2869,25.2178,桂林市,八中,,10,10,21,3,16,26,,16,16,10,17,6,6,0.6,0.6
2025-11-08T1100,3531A,110.296,25.1253,桂林市,旅游学院,,10,6,18,3,15,30,,16,16,12,17,4,4,0.4,0.4
2025-11-08T1100,4222A,110.1835,25.2444,桂林市,环湖路276号,,10,7,16,7,13,27,,26,26,14,15,7,5,0.5,0.5
2025-11-08T1100,4301A,110.2803,25.2773,桂林市,信义路13号,,9,7,18,3,11,28,,24,24,12,16,5,6,0.7,0.7
2025-11-08T1100,2674A,100.2561,34.4714,果洛藏族自治州,玛沁县大武镇,颗粒物(PM10),125,200,229,35,45,45,,37,34,18,9,20,15,0.6,0.4
2025-11-08T1100,1129A,126.5422,45.755,哈尔滨市,岭北,,,,,,,,,,,,,,,,
2025-11-08T1100,1130A,126.561,45.8167,哈尔滨市,松北商大,细颗粒物(PM2.5),79,,74,58,121,38,,24,24,22,26,6,7,0.6,0.7
2025-11-08T1100,1131A,126.979,45.5419,哈尔滨市,阿城会宁,,49,41,129,34,165,46,,28,28,12,39,13,13,0.2,0.9
2025-11-08T1100,1132A,126.599,45.7222,哈尔滨市,南岗学府路,细颗粒物(PM2.5),63,62,94,45,76,37,,22,22,19,24,9,11,0.6,0.7
2025-11-08T1100,1133A,126.689,45.7733,哈尔滨市,太平宏伟公园,细颗粒物(PM2.5),68,55,94,49,70,36,,22,22,20,28,8,9,0.7,0.8
2025-11-08T1100,1134A,126.635,45.7667,哈尔滨市,道外承德广场,细颗粒物(PM2.5),72,89,109,52,73,32,,24,24,31,30,10,9,0.6,0.8
2025-11-08T1100,1135A,126.685,45.7319,哈尔滨市,香坊红旗大街,细颗粒物(PM2.5),67,63,120,48,89,27,,26,23,24,33,13,13,0.5,0.7
2025-11-08T1100,1136A,126.6411,45.7258,哈尔滨市,动力和平路,细颗粒物(PM2.5),72,,96,52,88,33,,24,24,28,29,7,6,0.7,0.7
2025-11-08T1100,1137A,126.593,45.7478,哈尔滨市,道里建国路,细颗粒物(PM2.5),74,54,75,54,66,30,,26,23,31,29,18,12,0.5,0.9
2025-11-08T1100,1138A,126.615,45.61,哈尔滨市,平房东轻厂,细颗粒物(PM2.5),74,68,78,54,74,41,,31,31,16,34,7,9,0.6,0.7
2025-11-08T1100,1139A,126.595,45.9855,哈尔滨市,呼兰师专,细颗粒物(PM2.5),80,63,47,59,46,33,,34,33,27,20,9,8,0.6,0.5
2025-11-08T1100,1140A,126.6206,45.6842,哈尔滨市,省农科院,细颗粒物(PM2.5),68,82,125,49,99,26,,21,18,36,38,9,10,0.6,0.7
2025-11-08T1100,2688A,93.5128,42.8172,哈密市,地区监测站,颗粒物(PM10),54,57,28,30,13,22,,10,10,34,24,8,7,0.5,0.3
2025-11-08T1100,2689A,93.4961,42.8328,哈密市,哈密师范学校,,43,43,26,26,15,22,,5,5,37,25,4,4,0.6,0.5
2025-11-08T1100,2671A,100.9048,36.9639,海北藏族自治州,海晏县西海镇,颗粒物(PM10),67,84,126,29,35,70,,53,51,3,5,12,10,0.0,0.3
2025-11-08T1100,3867A,102.0738,36.5056,海东市,平安区公安北苑,细颗粒物(PM2.5),84,115,87,62,46,50,,31,30,10,15,8,11,0.7,0.7
2025-11-08T1100,1409A,110.576,19.9507,海口市,东寨港,,,,,,,,,,,,,,,,
2025-11-08T1100,1410A,110.3232,20.0574,海口市,海南大学,,19,19,18,9,8,42,,36,36,5,3,5,5,0.2,0.2
2025-11-08T1100,1411A,110.283,20.0053,海口市,秀英海南医院,,17,17,20,6,6,46,,39,39,4,5,6,6,0.2,0.2
2025-11-08T1100,1412A,110.338,19.9969,海口市,海南师范大学,,17,17,20,6,8,46,,38,38,4,5,5,5,0.4,0.4
2025-11-08T1100,1413A,110.33,20.0356,海口市,龙华路环保局宿舍,,22,22,20,10,8,45,,37,37,5,5,6,6,0.4,0.4
2025-11-08T1100,3539A,110.5111,19.9736,海口市,桂林洋子站,,17,17,14,10,4,43,,34,34,2,3,6,6,0.1,0.2
2025-11-08T1100,2673A,100.6188,36.2866,海南藏族自治州,共和县恰卜恰镇,颗粒物(PM10),73,96,143,41,49,59,,36,34,14,20,10,9,0.6,0.5
2025-11-08T1100,2676A,97.3731,37.3753,海西蒙古族藏族自治州,德令哈市,颗粒物(PM10),74,98,161,19,36,65,,62,59,5,5,14,14,0.4,0.4
2025-11-08T1100,1048A,114.5302,36.6116,邯郸市,东污水处理厂,细颗粒物(PM2.5),104,,44,78,68,21,,24,24,23,28,2,3,0.7,0.7
2025-11-08T1100,1049A,114.4918,36.5713,邯郸市,矿院,细颗粒物(PM2.5),85,,41,63,58,36,,30,30,26,31,4,4,0.7,0.7
2025-11-08T1100,1050A,114.484,36.6133,邯郸市,丛台公园,,,,45,,51,,,28,28,23,27,5,5,0.6,0.7
2025-11-08T1100,3458A,114.7895,36.5593,邯郸市,香泉濮院小区,细颗粒物(PM2.5),67,,46,48,44,31,,25,25,18,27,4,5,0.7,0.7
2025-11-08T1100,3579A,114.50634,36.77178,邯郸市,永年区实验高中,细颗粒物(PM2.5),62,68,44,44,34,22,,22,22,27,29,2,2,0.7,0.7
2025-11-08T1100,3580A,114.20016,36.44293,邯郸市,峰峰矿区临水派出所,细颗粒物(PM2.5),73,56,34,53,30,23,,23,23,22,22,4,3,1.4,0.7
2025-11-08T1100,2634A,106.9893,33.1842,汉中市,汉川机床厂子校,,,,,,,,,,,,,,,,
2025-11-08T1100,2635A,107.0154,33.0706,汉中市,市监测站,,50,50,32,24,20,32,,19,19,18,19,7,9,0.7,0.8
2025-11-08T1100,2636A,107.0089,33.1138,汉中市,鑫源开发区,,34,34,30,10,13,28,,23,23,11,23,6,7,0.5,0.7
2025-11-08T1100,2637A,107.007,33.0323,汉中市,南郑大河坎水厂,颗粒物(PM10),55,60,28,38,16,12,,5,5,20,21,11,7,1.0,0.8
2025-11-08T1100,1223A,120.2072,30.2111,杭州市,滨江,,38,38,41,19,22,6,,3,3,40,46,6,6,0.6,0.5
2025-11-08T1100,1224A,120.0633,30.2747,杭州市,西溪,,35,35,31,21,18,8,,1,1,29,28,7,7,0.6,0.6
2025-11-08T1100,1226A,120.3417,30.3150,杭州市,下沙,,32,24,24,22,42,14,,4,4,38,42,4,4,0.5,0.4
2025-11-08T1100,1227A,120.1269,30.2456,杭州市,卧龙桥,,29,26,28,20,22,17,,4,4,20,27,8,8,0.5,0.5
2025-11-08T1100,1228A,120.1903,30.2692,杭州市,浙江农大,,28,23,32,19,26,15,,4,4,28,34,7,7,0.3,0.3
2025-11-08T1100,1230A,120.1197,30.3119,杭州市,和睦小学,,29,27,29,20,19,18,,6,6,25,35,8,8,0.8,0.7
2025-11-08T1100,1231A,120.3019,30.4183,杭州市,临平镇,,29,29,38,19,30,22,,6,6,28,36,6,6,0.5,0.5
2025-11-08T1100,1232A,120.2753,30.1839,杭州市,城厢镇,,43,34,32,30,32,14,,4,4,37,49,6,6,0.4,0.3
2025-11-08T1100,1233A,120.0883,30.1808,杭州市,云栖,,35,26,27,24,23,5,,2,2,34,25,7,6,0.8,0.7
2025-11-08T1100,3557A,119.9464,30.0494,杭州市,镇二中,,37,37,26,15,11,22,,4,4,24,29,6,4,1.0,0.7
2025-11-08T1100,3558A,119.7183,30.2367,杭州市,市府大楼,,26,26,28,18,20,19,,11,10,20,21,8,8,0.5,0.5
2025-11-08T1100,3656A,120.1556,30.2864,杭州市,消防大队,,28,27,33,19,25,20,,6,6,30,44,9,8,0.6,0.5
2025-11-08T1100,1270A,117.1959,31.7848,合肥市,明珠广场,,29,29,14,19,10,46,,44,44,18,20,5,5,0.6,0.6
2025-11-08T1100,1271A,117.3072,31.8764,合肥市,三里街,,20,19,14,14,9,50,,45,45,18,26,5,4,0.3,0.3
2025-11-08T1100,1272A,117.2588,31.8707,合肥市,琥珀山庄,,23,17,12,16,14,57,,51,51,12,21,5,4,0.5,0.6
2025-11-08T1100,1273A,117.1604,31.9052,合肥市,董铺水库,,,,,,,,,,,,,,,,
2025-11-08T1100,1274A,117.25,31.8571,合肥市,长江中路,,28,24,17,19,13,53,,45,45,13,21,4,4,0.6,0.6
2025-11-08T1100,1275A,117.266,31.9436,合肥市,庐阳区,,20,19,12,12,8,62,,52,52,14,27,7,8,0.7,0.8
2025-11-08T1100,1276A,117.3453,31.8616,合肥市,瑶海区,,22,17,11,15,9,55,,47,47,16,29,6,6,0.6,0.7
2025-11-08T1100,1277A,117.3027,31.7964,合肥市,包河区,,28,22,11,19,10,49,,42,42,15,22,7,7,0.6,0.7
2025-11-08T1100,1278A,117.2776,31.7385,合肥市,滨湖新区,,32,,9,22,12,47,,43,43,20,20,5,5,0.5,0.6
2025-11-08T1100,1279A,117.1318,31.8403,合肥市,高新区,,33,,15,23,9,55,,52,52,15,22,4,4,0.7,0.7
2025-11-08T1100,3464A,117.3803,31.9147,合肥市,高教基地,,22,22,13,10,10,49,,43,43,18,19,6,6,0.4,0.5
2025-11-08T1100,3614A,79.924,37.0877,和田地区,地区环保局,颗粒物(PM10),157,263,264,65,88,54,,45,45,12,25,6,8,0.8,1.2
2025-11-08T1100,3615A,79.9131,37.113,和田地区,市环保局,颗粒物(PM10),154,257,278,62,81,53,,41,41,23,36,4,6,0.3,0.9
2025-11-08T1100,2516A,108.2011,24.715,河池市,东仁乐园,,,,,,,,,,,,,,,,
2025-11-08T1100,2517A,108.0497,24.6947,河池市,市环保站,,19,19,31,12,18,14,,12,10,20,15,7,7,0.9,0.8
2025-11-08T1100,2518A,108.0983,24.6989,河池市,市疾控中心,,16,16,30,10,23,8,,2,2,20,25,4,4,0.8,0.9
2025-11-08T1100,1696A,114.6778,23.7569,河源市,源西,,,,,,,,,,,,,,,,
2025-11-08T1100,1697A,114.6944,23.7586,河源市,东埔,,36,26,35,25,24,92,,42,42,10,25,6,7,0.5,0.7
2025-11-08T1100,1698A,114.6892,23.7233,河源市,老城,,44,44,36,20,25,95,,45,45,7,13,6,8,0.6,0.6
2025-11-08T1100,1718A,115.4208,35.2464,菏泽市,气象局,细颗粒物(PM2.5),70,72,59,51,50,53,,35,35,17,18,2,3,0.6,0.5
2025-11-08T1100,3374A,115.5564,35.0891,菏泽市,定陶老年大学,细颗粒物(PM2.5),89,83,64,66,52,41,,30,26,23,23,2,2,0.7,0.6
2025-11-08T1100,4184A,115.4797,35.24401,菏泽市,永昌路1号,,,,54,55,47,51,,38,35,20,21,2,2,0.5,0.5
2025-11-08T1100,4193A,115.4715,35.2800,菏泽市,长城路999号,细颗粒物(PM2.5),73,58,53,53,48,44,,30,27,20,21,3,3,0.7,0.6
2025-11-08T1100,2514A,111.5264,24.4172,贺州市,环保小区,,22,21,22,15,13,14,,12,12,15,19,5,5,0.9,0.8
2025-11-08T1100,2515A,111.5608,24.4078,贺州市,政协大楼,,26,20,23,18,17,10,,8,8,18,21,5,4,1.0,0.9
2025-11-08T1100,3534A,111.4744,24.4553,贺州市,西湾,,23,23,22,14,13,16,,12,12,11,13,4,5,0.8,0.7
2025-11-08T1100,2385A,114.17,35.9019,鹤壁市,市监测站,细颗粒物(PM2.5),108,83,53,81,45,26,,18,18,16,18,3,3,1.6,1.3
2025-11-08T1100,2386A,114.2956,35.7511,鹤壁市,市交警支队,细颗粒物(PM2.5),109,88,52,82,43,23,,25,24,26,27,6,4,1.4,1.1
2025-11-08T1100,2387A,114.2878,35.7306,鹤壁市,迎宾馆,细颗粒物(PM2.5),102,92,58,76,46,29,,30,28,19,22,5,4,1.5,1.1
2025-11-08T1100,3474A,114.2617,35.6822,鹤壁市,大新区,细颗粒物(PM2.5),109,,36,82,44,27,,24,21,20,20,4,3,2.0,1.3
2025-11-08T1100,3596A,114.1572,35.9603,鹤壁市,南山宾馆,细颗粒物(PM2.5),102,85,51,76,45,23,,17,17,24,25,2,3,1.1,0.9
2025-11-08T1100,2244A,130.2537,47.3416,鹤岗市,哈啤分公司,,41,41,25,24,15,41,,48,39,17,10,16,10,0.6,0.5
2025-11-08T1100,2245A,130.2684,47.3086,鹤岗市,斯达机电,,26,26,28,14,14,41,,47,44,17,13,18,12,0.6,0.5
2025-11-08T1100,2246A,130.3114,47.3388,鹤岗市,东山纸板厂,,27,27,65,9,13,43,,32,30,18,18,15,11,0.2,0.7
2025-11-08T1100,2247A,130.1097,47.3382,鹤岗市,五号水库,,,,,,,,,,,,,,,,
2025-11-08T1100,2263A,127.4833,50.2524,黑河市,交通局,,18,15,26,9,15,56,,48,48,12,19,4,7,0.3,0.4
2025-11-08T1100,2264A,127.5144,50.2341,黑河市,环保局,,16,14,19,9,13,50,,43,43,13,16,10,10,0.3,0.3
2025-11-08T1100,2265A,127.5291,50.2472,黑河市,大黑河岛,,,,,,,,,,,,,,,,
2025-11-08T1100,1074A,115.6838,37.7541,衡水市,电机北厂,细颗粒物(PM2.5),89,92,65,66,53,13,,3,3,22,37,5,9,0.6,0.6
2025-11-08T1100,1075A,115.6303,37.7316,衡水市,市监测站,颗粒物(PM10),59,68,53,38,45,19,,4,4,23,39,6,6,0.7,0.7
2025-11-08T1100,3188A,115.6683,37.7217,衡水市,市城管局,细颗粒物(PM2.5),69,60,59,50,48,18,,3,3,25,41,9,9,0.7,0.8
2025-11-08T1100,3459A,115.5989,37.5491,衡水市,地表水厂,细颗粒物(PM2.5),85,78,58,63,48,29,,7,7,23,40,4,4,0.6,0.6
2025-11-08T1100,2456A,112.5003,26.9167,衡阳市,原169医院,,,,,,,,,,,,,,,,
2025-11-08T1100,2457A,112.6194,26.9258,衡阳市,衡阳化工总厂,,,,28,1,19,23,,18,17,14,15,6,7,0.9,0.8
2025-11-08T1100,2458A,112.6211,26.8956,衡阳市,珠晖区环保局,,13,,25,9,21,18,,16,14,16,19,8,9,1.2,1.1
2025-11-08T1100,2459A,112.6197,26.8733,衡阳市,市委党校,,9,,25,3,16,20,,19,16,12,14,2,3,0.9,0.9
2025-11-08T1100,2460A,112.6006,26.8919,衡阳市,市监测站,,11,6,30,3,19,22,,18,17,15,18,4,5,1.1,1
2025-11-08T1100,2461A,112.5664,26.9056,衡阳市,真空机电公司,,11,6,27,3,21,21,,17,17,9,17,5,6,1.1,1.1
2025-11-08T1100,3399A,112.6703,26.882,衡阳市,师范学院,,10,6,27,3,18,23,,21,19,14,14,7,8,1.0,0.9
2025-11-08T1100,2608A,103.3772,23.3993,红河哈尼族彝族自治州,污水处理厂,,20,20,22,13,13,25,,20,17,10,10,5,6,0.3,0.3
2025-11-08T1100,2609A,103.3861,23.35,红河哈尼族彝族自治州,监测站,,34,34,22,17,14,17,,20,15,13,8,62,17,0.5,0.4
2025-11-08T1100,3038A,103.3758,23.368,红河哈尼族彝族自治州,州图书馆,,46,,21,32,22,18,,21,16,10,7,4,8,0.5,0.5
2025-11-08T1100,1090A,111.6507,40.7517,呼和浩特市,呼市一监,颗粒物(PM10),101,151,35,30,12,43,,22,22,11,16,7,5,0.6,0.5
2025-11-08T1100,1091A,111.6572,40.8033,呼和浩特市,小召,颗粒物(PM10),96,141,41,38,17,38,,21,21,27,24,13,7,0.6,0.4
2025-11-08T1100,1094A,111.7516,40.8369,呼和浩特市,如意水处理厂,颗粒物(PM10),61,71,25,29,15,30,,8,8,23,31,12,9,0.7,0.5
2025-11-08T1100,1095A,111.7276,40.8062,呼和浩特市,二十九中,颗粒物(PM10),75,100,39,31,15,40,,21,21,19,21,13,8,1.0,0.8
2025-11-08T1100,1096A,111.5512,40.7866,呼和浩特市,工大金川校区,,,71,37,33,14,,,5,5,22,29,11,7,0.7,0.5
2025-11-08T1100,1097A,111.717,40.7612,呼和浩特市,化肥厂生活区,颗粒物(PM10),67,83,22,29,13,46,,29,29,16,22,8,4,0.5,0.4
2025-11-08T1100,3698A,111.5968,40.8178,呼和浩特市,红旗小学,颗粒物(PM10),96,141,36,35,18,31,,7,7,28,35,10,5,0.8,0.6
2025-11-08T1100,3699A,111.6518,40.8389,呼和浩特市,海东办,颗粒物(PM10),85,119,36,28,15,34,,13,13,24,26,13,6,0.3,0.3
2025-11-08T1100,3061A,119.7512,49.1577,呼伦贝尔市,国华电力东,,23,23,31,12,8,51,,60,53,8,7,7,8,0.3,0.3
2025-11-08T1100,4279A,119.7569,49.2222,呼伦贝尔市,伊敏大街东7号,,30,24,22,21,14,50,,60,53,2,2,5,4,0.2,0.2
2025-11-08T1100,1250A,120.0751,30.8669,湖州市,城西水厂,,14,14,30,8,16,31,,30,23,24,28,7,7,0.4,0.3
2025-11-08T1100,2873A,120.0830,30.8929,湖州市,仁皇山新区,,23,17,30,16,29,25,,25,19,26,28,6,6,0.7,0.5
2025-11-08T1100,2907A,120.1844,30.8596,湖州市,吴兴区站,,20,20,27,14,21,12,,19,10,19,23,6,8,0.6,0.5
2025-11-08T1100,3562A,120.4148,30.8538,湖州市,南浔区站,,40,36,31,28,19,18,,38,20,31,28,9,9,0.6,0.5
2025-11-08T1100,1607A,120.9049,40.7211,葫芦岛市,龙港区,细颗粒物(PM2.5),70,72,71,51,33,46,,17,17,32,33,20,17,0.5,0.5
2025-11-08T1100,1608A,120.8392,40.7514,葫芦岛市,化工街,细颗粒物(PM2.5),62,63,61,44,32,46,,19,19,27,32,12,12,0.5,0.5
2025-11-08T1100,1609A,120.8341,40.7073,葫芦岛市,新区,细颗粒物(PM2.5),72,55,54,52,28,47,,25,25,32,32,10,10,0.6,0.7
2025-11-08T1100,1610A,120.8695,40.7677,葫芦岛市,东城区,细颗粒物(PM2.5),72,67,57,52,35,51,,18,18,29,39,10,12,0.7,0.7
2025-11-08T1100,2482A,109.5981,27.5721,怀化市,林科所,,,,,,,,,,,,,,,,
2025-11-08T1100,2483A,109.9453,27.5444,怀化市,河西地税局,,15,6,9,3,6,45,,30,30,9,11,4,3,0.5,0.5
2025-11-08T1100,2484A,109.9781,27.5342,怀化市,市四医院,,13,8,11,3,9,39,,29,29,7,7,7,8,0.5,0.5
2025-11-08T1100,2485A,109.9972,27.5578,怀化市,监测楼,,13,7,11,3,8,40,,29,29,9,9,2,2,0.3,0.3
2025-11-08T1100,2486A,110.0394,27.583,怀化市,市委党校,,15,,11,3,9,47,,34,34,8,8,8,8,0.3,0.3
2025-11-08T1100,1210A,119.036,33.5981,淮安市,钵池山,,23,,27,16,32,70,,72,72,20,22,7,7,0.4,0.5
2025-11-08T1100,1211A,119.007,33.575,淮安市,北京南路,,22,,30,15,30,70,,70,70,10,14,6,7,0.5,0.5
2025-11-08T1100,1212A,118.989,33.6067,淮安市,市监测站,,25,,24,12,20,77,,80,80,17,19,5,5,0.5,0.6
2025-11-08T1100,1213A,119.135,33.5039,淮安市,楚州区监测站,,23,,24,13,29,71,,67,67,13,17,7,8,0.5,0.6
2025-11-08T1100,3426A,118.8755,33.2894,淮安市,新华书店,,21,17,29,9,16,66,,58,58,17,21,6,7,0.5,0.7
2025-11-08T1100,4206A,119.0288,33.6319,淮安市,承德北路606号,,25,,32,17,30,66,,69,69,18,23,6,6,0.2,0.3
2025-11-08T1100,2282A,116.8004,33.975,淮北市,监测站,,33,33,26,20,22,67,,70,68,19,17,8,8,0.6,0.6
2025-11-08T1100,2283A,116.8091,33.9007,淮北市,烈山区政府,,38,34,30,26,24,72,,71,71,18,17,7,7,0.5,0.4
2025-11-08T1100,3330A,116.8873,33.9836,淮北市,杜集区检察院,,35,24,33,24,30,76,,70,70,11,12,3,3,0.4,0.4
2025-11-08T1100,4017A,116.7923,33.9535,淮北市,市博物馆,,31,31,26,20,19,67,,70,69,16,15,6,6,0.5,0.4
2025-11-08T1100,2277A,116.8305,32.7727,淮南市,潘集区政府,,36,,21,25,21,58,,60,60,13,13,3,4,0.6,0.6
2025-11-08T1100,2279A,116.8569,32.5951,淮南市,谢家集区政府,,19,,10,12,13,60,,58,58,14,15,6,6,0.5,0.5
2025-11-08T1100,2280A,116.8281,32.633,淮南市,八公山区政府,,25,22,24,17,19,57,,59,58,16,15,6,7,0.4,0.5
2025-11-08T1100,2281A,116.6325,32.6201,淮南市,焦岗湖风景区管理处,,,,,,,,,,,,,,,,
2025-11-08T1100,2894A,117.0566,32.6531,淮南市,经济技术开发区消防队,,19,13,14,3,6,60,,62,62,13,17,4,4,0.3,0.3
2025-11-08T1100,3329A,117.0108,32.5893,淮南市,山南新区,,21,,9,7,6,67,,68,68,14,17,3,3,0.3,0.4
2025-11-08T1100,4209A,117.0031,32.6445,淮南市,国庆中路369号,,,17,22,13,17,,,62,62,11,14,10,10,0.4,0.5
2025-11-08T1100,2446A,114.9028,30.4742,黄冈市,职工中心,,,15,18,11,14,57,,42,42,12,13,3,4,,0.7
2025-11-08T1100,2929A,114.8858,30.4519,黄冈市,红卫路,,,,20,,13,,,32,,,14,,5,,0.5
2025-11-08T1100,3398A,114.9136,30.4445,黄冈市,市林业局,,18,13,18,12,15,57,,40,40,10,14,3,4,0.4,0.5
2025-11-08T1100,2672A,102.0199,35.5102,黄南藏族自治州,同仁县隆务镇,颗粒物(PM10),106,161,118,55,33,37,,25,25,12,8,10,10,0.6,0.4
2025-11-08T1100,2295A,118.2903,29.6963,黄山市,延安路89号,,39,39,24,12,9,18,,5,5,16,13,4,3,0.6,0.5
2025-11-08T1100,2297A,118.1371,30.2756,黄山市,黄山区政府5号楼,,8,,18,3,10,25,,21,21,8,7,5,5,0.7,0.6
2025-11-08T1100,4210A,118.3354,29.7203,黄山市,滨江东路7-2号,,32,30,28,22,16,14,,5,5,18,12,4,3,0.6,0.5
2025-11-08T1100,2423A,115.0601,30.2313,黄石市,沈家营,,16,16,32,7,12,40,,28,28,5,6,8,8,0.5,0.4
2025-11-08T1100,2426A,114.8988,30.2019,黄石市,铁山,,28,28,31,10,17,38,,24,24,5,11,5,5,0.7,0.8
2025-11-08T1100,2427A,115.0307,30.2092,黄石市,团城山,,22,22,31,8,14,27,,17,17,11,12,10,7,0.7,0.6
2025-11-08T1100,3149A,115.0235,30.1578,黄石市,笔架山北路,,24,24,39,13,13,31,,22,22,13,9,5,4,0.8,0.7
2025-11-08T1100,4185A,115.0780,30.21118,黄石市,磁湖东路29号,,14,14,36,8,17,37,,26,26,6,10,7,8,0.5,0.5
2025-11-08T1100,1392A,114.4183,23.0528,惠州市,河南岸金山湖子站,,29,28,35,16,19,90,,68,68,10,14,10,9,0.6,0.6
2025-11-08T1100,1393A,114.4053,23.0822,惠州市,下埔横江三路子站,,36,30,37,14,18,115,,86,86,7,11,5,5,0.7,0.7
2025-11-08T1100,1394A,114.4103,23.1142,惠州市,江北云山西路子站,,,34,34,18,17,105,,74,74,,13,6,7,0.5,0.5
2025-11-08T1100,1395A,114.4645,22.7833,惠州市,惠阳区承修路船湖子站,,31,31,36,17,18,85,,72,71,14,15,10,10,0.7,0.7
2025-11-08T1100,1396A,114.5317,22.7422,惠州市,大亚湾管委会子站,,27,25,36,16,16,84,,69,69,9,12,12,12,0.5,0.5
2025-11-08T1100,3314A,114.4338,22.8134,惠州市,惠阳秋长,,30,27,34,15,16,93,,76,76,11,14,12,11,0.5,0.6
2025-11-08T1100,3452A,114.6517,22.775,惠州市,大亚湾霞涌,,28,22,32,19,15,73,,68,66,7,7,10,10,0.6,0.6
2025-11-08T1100,2240A,130.9762,45.3001,鸡西市,环保局,"颗粒物(PM10),细颗粒物(PM2.5)",72,93,36,52,20,26,,11,11,30,24,11,9,0.8,0.7
2025-11-08T1100,2243A,130.9429,45.3039,鸡西市,第一中学,细颗粒物(PM2.5),82,102,32,60,19,19,,15,9,34,20,10,8,0.7,0.6
2025-11-08T1100,3707A,131.0207,45.3073,鸡西市,欧美日汽修厂,颗粒物(PM10),76,101,57,54,29,32,,15,15,23,22,11,11,0.6,0.6
2025-11-08T1100,3709A,130.9967,45.3106,鸡西市,市政设施管理处,细颗粒物(PM2.5),85,89,43,63,26,40,,24,24,27,27,12,10,0.8,0.8
2025-11-08T1100,2367A,114.9754,27.0803,吉安市,红声器材厂,,20,20,40,7,22,31,,45,40,22,17,7,8,0.8,0.7
2025-11-08T1100,2368A,114.9658,27.0999,吉安市,市森林工业局,,,,36,4,23,28,,41,37,,15,6,8,0.7,0.6
2025-11-08T1100,2369A,114.99,27.1312,吉安市,市环境监测站,,23,23,40,15,25,29,,41,36,15,14,12,13,0.9,0.7
2025-11-08T1100,2370A,115.0093,27.0968,吉安市,青原区法院,,17,17,35,8,24,26,,44,37,18,16,8,9,0.8,0.7
2025-11-08T1100,1772A,126.54,43.8622,吉林市,哈达湾,细颗粒物(PM2.5),52,44,52,36,36,49,,46,46,24,23,8,9,0.6,0.5
2025-11-08T1100,1773A,126.5844,43.8358,吉林市,东局子,,48,43,47,33,31,59,,52,52,12,20,6,7,0.5,0.6
2025-11-08T1100,1774A,126.5052,43.8245,吉林市,电力学院,细颗粒物(PM2.5),68,,66,49,53,39,,30,30,32,28,9,13,0.7,0.7
2025-11-08T1100,1775A,126.6133,43.8972,吉林市,江北,,44,44,46,30,31,58,,36,36,13,35,4,5,0.5,0.6
2025-11-08T1100,1776A,126.555,43.8306,吉林市,江南公园,细颗粒物(PM2.5),55,40,44,39,37,51,,46,46,20,26,6,7,0.4,0.8
2025-11-08T1100,1778A,126.7061,43.7133,吉林市,丰满,细颗粒物(PM2.5),59,,21,42,23,89,,94,94,6,5,9,9,0.4,0.3
2025-11-08T1100,2868A,126.4739,43.953,吉林市,九站,细颗粒物(PM2.5),69,,59,50,40,39,,25,25,32,38,9,19,0.5,0.9
2025-11-08T1100,1299A,116.9862,36.6114,济南市,科干所,细颗粒物(PM2.5),68,73,132,49,81,32,,21,20,28,56,6,8,0.8,0.9
2025-11-08T1100,1300A,116.9376,36.665,济南市,农科所,,,76,123,54,75,,,14,,28,56,7,9,0.9,1
2025-11-08T1100,1301A,117.1265,36.6734,济南市,开发区,细颗粒物(PM2.5),119,105,125,90,94,15,,18,13,35,48,3,4,1.0,0.9
2025-11-08T1100,1303A,117.0624,36.6868,济南市,省种子仓库,细颗粒物(PM2.5),113,105,141,85,100,28,,20,16,28,47,5,7,0.9,0.9
2025-11-08T1100,1304A,116.9489,36.6447,济南市,机床二厂,细颗粒物(PM2.5),89,66,134,66,110,30,,13,12,25,53,7,9,0.5,0.6
2025-11-08T1100,1305A,117.0495,36.663,济南市,市监测站,细颗粒物(PM2.5),104,85,134,78,106,22,,16,12,31,47,3,3,1.1,1.1
2025-11-08T1100,1306A,116.7675,36.5484,济南市,长清党校,细颗粒物(PM2.5),77,93,124,56,68,62,,22,22,20,50,5,7,0.7,0.8
2025-11-08T1100,1616A,117.6795,36.229,济南市,技术学院,细颗粒物(PM2.5),85,68,93,63,78,73,,45,45,21,31,9,9,0.6,0.7
2025-11-08T1100,1961A,117.532,36.6868,济南市,东山小学,细颗粒物(PM2.5),150,171,145,115,104,12,,16,10,38,47,7,8,0.9,0.9
2025-11-08T1100,3059A,117.7161,36.2049,济南市,泰兴公司,细颗粒物(PM2.5),67,56,89,48,71,89,,42,42,16,31,10,9,0.5,0.6
2025-11-08T1100,3064A,117.6867,36.2171,济南市,莱芜战役纪念馆,细颗粒物(PM2.5),89,70,89,66,78,69,,41,41,21,29,11,10,0.6,0.7
2025-11-08T1100,3494A,117.1673,36.9782,济南市,济阳区政府,细颗粒物(PM2.5),113,115,102,85,72,31,,30,29,29,32,6,9,0.8,0.7
2025-11-08T1100,3495A,117.1171,36.63,济南市,锦屏中学,细颗粒物(PM2.5),92,122,111,68,78,15,,26,20,36,43,3,4,1.3,1.2
2025-11-08T1100,3682A,116.9814,36.6819,济南市,济南四建,细颗粒物(PM2.5),80,66,125,59,90,29,,14,12,15,36,4,6,1.0,1.1
2025-11-08T1100,1653A,116.6251,35.4302,济宁市,火炬城,细颗粒物(PM2.5),144,,95,110,88,34,,21,21,21,25,7,7,0.6,0.5
2025-11-08T1100,1655A,116.5491,35.4042,济宁市,电化厂,细颗粒物(PM2.5),128,120,114,97,85,36,,30,30,31,33,4,3,0.6,0.6
2025-11-08T1100,3500A,116.5814,35.3707,济宁市,北湖一中,细颗粒物(PM2.5),153,,83,117,92,32,,25,24,25,23,7,7,0.6,0.5
2025-11-08T1100,3501A,116.8249,35.5593,济宁市,服务中心,细颗粒物(PM2.5),110,,61,83,59,33,,19,17,19,21,6,6,0.7,0.6
2025-11-08T1100,3678A,116.5907,35.4054,济宁市,市第七中学,细颗粒物(PM2.5),132,,78,100,81,37,,24,24,25,28,9,9,0.7,0.6
2025-11-08T1100,2255A,130.2751,46.8028,佳木斯市,佳纺,细颗粒物(PM2.5),109,118,119,82,103,45,,17,17,23,36,4,6,0.8,1
2025-11-08T1100,2256A,130.3995,46.8307,佳木斯市,发电厂,细颗粒物(PM2.5),93,114,99,69,57,27,,14,14,33,27,35,9,0.8,0.7
2025-11-08T1100,2257A,130.3258,46.7975,佳木斯市,环保局,细颗粒物(PM2.5),123,103,82,93,77,54,,25,25,18,33,4,6,0.5,0.7
2025-11-08T1100,2258A,130.3648,46.8032,佳木斯市,十一中,,,,68,,67,32,,17,17,30,37,9,8,,0.7
2025-11-08T1100,2259A,130.3794,46.7588,佳木斯市,四丰,,,,,,,,,,,,,,,,
2025-11-08T1100,1252A,120.7436,30.778,嘉兴市,清河小学,,50,50,24,26,16,14,,19,12,38,29,8,8,0.5,0.4
2025-11-08T1100,1253A,120.726,30.7478,嘉兴市,嘉兴学院,细颗粒物(PM2.5),59,47,22,42,17,8,,29,12,41,29,5,5,0.6,0.4
2025-11-08T1100,2872A,120.7846,30.7525,嘉兴市,南湖区残联,细颗粒物(PM2.5),64,48,23,46,19,13,,32,17,40,28,6,6,0.8,0.6
2025-11-08T1100,3407A,120.6916,30.7739,嘉兴市,秀洲住建,,50,46,21,35,17,15,,31,15,38,30,9,9,0.6,0.5
2025-11-08T1100,1945A,98.2908,39.7711,嘉峪关市,气象局,颗粒物(PM10),355,464,435,119,99,56,,68,55,15,14,17,11,0.9,0.8
2025-11-08T1100,2884A,98.2672,39.7978,嘉峪关市,酒钢宾馆,颗粒物(PM10),373,478,465,114,103,49,,65,51,14,11,25,27,0.7,0.7
2025-11-08T1100,3248A,98.2643,39.7724,嘉峪关市,雄关区,颗粒物(PM10),203,352,334,92,87,,,61,45,22,20,25,20,2.4,1.4
2025-11-08T1100,1383A,113.1064,22.6058,江门市,北街,,43,43,47,8,29,76,,28,28,17,52,4,5,0.5,0.7
2025-11-08T1100,1384A,113.0731,22.5835,江门市,西区,,21,14,39,9,25,67,,22,22,18,50,5,5,0.6,0.8
2025-11-08T1100,1385A,113.0219,22.5311,江门市,圭峰西,,41,41,42,13,26,72,,29,29,18,44,5,5,0.4,0.5
2025-11-08T1100,1386A,113.0828,22.5947,江门市,东湖,,30,,43,21,30,64,,20,20,16,40,6,6,0.3,0.5
2025-11-08T1100,3311A,113.1075,22.5647,江门市,江海富民,颗粒物(PM10),55,59,69,28,37,72,,29,29,26,48,9,9,0.4,0.6
2025-11-08T1100,3449A,113.05,22.4667,江门市,新会银湖,,39,39,43,15,37,55,,16,16,15,49,5,5,0.6,0.7
2025-11-08T1100,1830A,113.1992,35.2590,焦作市,影视城,,,,19,,18,,,66,,,15,,10,,0.7
2025-11-08T1100,3335A,113.3137,35.2641,焦作市,马村街道办,细颗粒物(PM2.5),54,53,39,38,23,34,,33,29,17,16,3,4,0.7,0.7
2025-11-08T1100,3336A,113.2465,35.2373,焦作市,焦作技师学院,细颗粒物(PM2.5),52,47,28,36,21,28,,26,22,18,18,11,10,0.9,0.8
2025-11-08T1100,3477A,113.1656,35.2539,焦作市,中站许衡医院,,50,,39,35,31,35,,28,23,15,18,5,6,1.0,0.8
2025-11-08T1100,3981A,113.2449,35.1803,焦作市,原李万街道办,细颗粒物(PM2.5),70,82,38,51,19,30,,19,19,14,17,6,5,0.8,0.6
2025-11-08T1100,4264A,113.2340,35.2190,焦作市,新安路1731号,细颗粒物(PM2.5),72,67,38,52,26,35,,32,28,15,16,6,5,1.0,0.8
2025-11-08T1100,4295A,113.2722,35.2121,焦作市,人民路3066号,细颗粒物(PM2.5),67,52,37,48,24,28,,24,22,13,15,3,2,0.9,0.7
2025-11-08T1100,1708A,116.3701,23.5345,揭阳市,新兴,颗粒物(PM10),52,54,36,22,20,83,,50,50,13,14,10,8,0.5,0.5
2025-11-08T1100,1709A,116.3264,23.5443,揭阳市,西马,,39,39,43,17,20,85,,39,38,10,14,8,5,0.6,0.6
2025-11-08T1100,1710A,116.3611,23.5626,揭阳市,东兴,颗粒物(PM10),54,58,37,18,19,80,,43,43,12,13,11,7,0.3,0.4
2025-11-08T1100,1711A,116.4151,23.5294,揭阳市,渔湖,,43,43,36,23,15,85,,46,46,12,12,8,5,0.6,0.6
2025-11-08T1100,3320A,116.403,23.5699,揭阳市,曲溪,,48,42,39,33,20,91,,49,49,11,12,16,6,0.5,0.5
2025-11-08T1100,1944A,102.1692,38.5167,金昌市,天庆家园,颗粒物(PM10),167,283,212,72,46,61,,62,62,12,8,34,5,0.6,0.5
2025-11-08T1100,4022A,102.1647,38.5371,金昌市,金川区人防中心,颗粒物(PM10),151,252,189,71,49,64,,63,63,6,6,10,4,0.6,0.7
2025-11-08T1100,4239A,102.1930,38.5319,金昌市,长春路96号,颗粒物(PM10),150,249,185,65,44,64,,64,64,5,6,18,6,0.4,0.5
2025-11-08T1100,1262A,119.647,29.077,金华市,十五中,颗粒物(PM10),56,61,52,34,24,26,,5,5,42,49,3,3,0.6,0.5
2025-11-08T1100,1263A,119.686,29.1029,金华市,监测站,颗粒物(PM10),56,62,51,33,25,20,,6,6,51,48,3,2,0.6,0.5
2025-11-08T1100,3659A,119.656,29.1131,金华市,气象局,,,,45,,18,,,,,,29,,4,,0.5
2025-11-08T1100,1767A,121.1115,41.0879,锦州市,南山,细颗粒物(PM2.5),55,54,71,39,70,38,,42,36,33,25,13,13,0.7,0.8
2025-11-08T1100,1768A,121.0604,40.8428,锦州市,开发区,细颗粒物(PM2.5),68,56,84,49,64,37,,41,36,44,29,23,14,0.8,0.7
2025-11-08T1100,1769A,121.1836,41.1119,锦州市,百股街道,细颗粒物(PM2.5),70,72,90,51,70,40,,36,31,33,24,13,21,0.7,0.7
2025-11-08T1100,1770A,121.1178,41.1222,锦州市,天安街道,细颗粒物(PM2.5),63,57,69,45,59,45,,44,41,23,19,12,12,0.8,0.8
2025-11-08T1100,1771A,121.1303,41.1386,锦州市,北湖公园,颗粒物(PM10),65,79,72,45,57,40,,37,35,28,22,11,10,0.7,0.8
2025-11-08T1100,2160A,112.85,35.5051,晋城市,自来水公司,,44,44,40,17,22,39,,30,29,18,22,7,5,1.0,1.1
2025-11-08T1100,2161A,112.8318,35.4936,晋城市,白云商贸,,49,49,46,17,9,40,,31,31,21,24,2,1,0.8,0.8
2025-11-08T1100,2162A,112.8508,35.4887,晋城市,市环保局,,,,33,27,19,40,,32,32,,19,5,4,0.8,0.9
2025-11-08T1100,2163A,112.8676,35.4897,晋城市,技术学院,,47,47,36,27,19,34,,25,25,19,24,7,5,1.3,1.1
2025-11-08T1100,2165A,112.8453,35.546,晋城市,白马寺,细颗粒物(PM2.5),63,,30,45,24,49,,41,38,11,15,7,6,0.6,0.7
2025-11-08T1100,3620A,112.8271,35.4828,晋城市,泽州一中,颗粒物(PM10),52,53,32,27,21,47,,38,38,18,20,2,2,0.6,0.8
2025-11-08T1100,2173A,112.7249,37.7067,晋中市,南都小区,细颗粒物(PM2.5),89,110,69,66,49,29,,14,14,39,38,9,7,1.6,1
2025-11-08T1100,2174A,112.6991,37.6982,晋中市,榆次区政府,细颗粒物(PM2.5),122,110,65,92,60,26,,11,11,38,41,9,7,,1.4
2025-11-08T1100,2865A,112.7195,37.6828,晋中市,榆次三中,细颗粒物(PM2.5),104,114,62,78,45,26,,12,12,33,34,12,10,2.5,1
2025-11-08T1100,4200A,112.7478,37.6954,晋中市,迎宾街26号,细颗粒物(PM2.5),117,117,62,88,52,32,,16,16,31,32,10,8,1.5,1.1
2025-11-08T1100,2439A,112.2014,31.0481,荆门市,竹园小学,,33,28,20,23,18,60,,54,54,21,23,1,1,0.5,0.6
2025-11-08T1100,2440A,112.1969,30.9891,荆门市,掇刀,,38,38,21,23,22,67,,65,65,12,14,1,2,0.6,0.6
2025-11-08T1100,2441A,112.2213,31.0386,荆门市,石化一小,,38,31,26,26,21,58,,50,50,14,17,3,3,0.1,0.1
2025-11-08T1100,3012A,112.1849,31.0362,荆门市,西山林语,,30,30,21,19,17,61,,54,54,13,15,6,4,0.7,0.6
2025-11-08T1100,3547A,112.1632,31.0138,荆门市,龙泉中学南校,,20,18,10,11,11,64,,62,62,16,16,5,5,0.5,0.5
2025-11-08T1100,1844A,112.2494,30.3197,荆州市,市图书馆,,22,,16,15,12,64,,56,56,16,20,5,4,0.8,0.8
2025-11-08T1100,1845A,112.2008,30.3544,荆州市,市委党校,,19,,17,13,13,60,,52,52,16,21,6,5,0.7,0.7
2025-11-08T1100,3194A,112.2747,30.3122,荆州市,管委会,,19,14,18,12,13,59,,54,54,14,17,6,5,0.6,0.6
2025-11-08T1100,4268A,112.1722,30.3366,荆州市,学苑路85号,,25,25,26,15,17,72,,63,63,14,18,6,5,0.6,0.6
2025-11-08T1100,2342A,117.3102,29.3867,景德镇市,王港中学,,,,,,,,,,,,,,,,
2025-11-08T1100,2343A,117.2117,29.2933,景德镇市,老干部活动中心,,28,22,24,19,16,22,,21,20,8,7,6,4,0.9,0.7
2025-11-08T1100,2344A,117.1894,29.2789,景德镇市,兽医站,,,21,47,14,15,,,26,22,12,14,7,7,0.7,0.6
2025-11-08T1100,2346A,117.2461,29.2956,景德镇市,陶研所,,,107,24,,18,19,,21,21,,6,7,7,0.5,0.9
2025-11-08T1100,4289A,117.1542,29.2566,景德镇市,青少年活动中心,,25,21,31,17,19,24,,20,17,13,16,10,8,0.5,0.5
2025-11-08T1100,1803A,115.9872,29.6815,九江市,十里,,36,26,33,25,32,18,,20,17,25,26,4,5,1.2,1
2025-11-08T1100,1804A,115.9584,29.7046,九江市,茅山头,,32,30,33,22,27,10,,11,10,25,30,4,5,1.0,0.7
2025-11-08T1100,1805A,115.9877,29.7295,九江市,西园,,40,,33,28,22,20,,20,18,33,40,6,7,1.1,0.8
2025-11-08T1100,1808A,115.9114,29.6038,九江市,综合工业园,,33,23,38,23,27,16,,21,18,25,32,3,4,0.9,0.7
2025-11-08T1100,1809A,116.0721,29.7535,九江市,石化总厂,,30,28,33,21,24,15,,18,16,26,28,3,5,0.9,0.7
2025-11-08T1100,1810A,115.9773,29.5698,九江市,庐山气象台,,,,,,,,,,,,,,,,
2025-11-08T1100,3190A,116.0254,29.6994,九江市,外国语学校,,45,,35,31,25,14,,20,14,36,33,3,4,0.9,0.6
2025-11-08T1100,4253A,116.0102,29.6594,九江市,莲花大道8号,,45,35,38,31,37,16,,18,14,22,21,7,7,0.9,0.7
2025-11-08T1100,4240A,98.4958,39.7339,酒泉市,玉门东路5号,颗粒物(PM10),318,434,441,78,82,54,,59,53,15,9,12,10,0.3,0.3
2025-11-08T1100,4241A,98.5099,39.7506,酒泉市,北大街108号,颗粒物(PM10),226,368,410,59,77,60,,57,53,7,7,8,9,0.2,0.3
2025-11-08T1100,2698A,76.0072,39.4467,喀什地区,巡警大队,颗粒物(PM10),186,321,222,72,56,7,,37,24,60,51,15,7,1.0,0.9
2025-11-08T1100,2699A,75.9755,39.4694,喀什地区,吾办,颗粒物(PM10),245,381,235,161,72,7,,22,13,63,52,10,8,2.0,1.1
2025-11-08T1100,4027A,75.9483,39.4689,喀什地区,老干局,颗粒物(PM10),186,322,264,91,57,5,,20,10,62,56,5,5,1.5,1
2025-11-08T1100,1824A,114.3389,34.7781,开封市,肿瘤医院,细颗粒物(PM2.5),70,,33,51,39,41,,45,42,22,23,8,8,1.3,0.9
2025-11-08T1100,1826A,114.2885,34.7965,开封市,世纪星幼儿园,细颗粒物(PM2.5),73,54,30,53,42,40,,48,43,19,22,7,7,1.2,0.9
2025-11-08T1100,3147A,114.3438,34.8106,开封市,龙亭公园,细颗粒物(PM2.5),58,53,35,41,28,45,,41,39,16,20,8,7,1.1,0.8
2025-11-08T1100,3210A,114.3644,34.7964,开封市,汴京公园,细颗粒物(PM2.5),59,56,40,42,35,40,,34,33,18,22,8,8,1.2,0.9
2025-11-08T1100,3473A,114.2485,34.8306,开封市,技师学院,细颗粒物(PM2.5),80,,33,59,47,38,,38,33,15,21,7,6,1.4,1.1
2025-11-08T1100,3592A,114.4644,34.7556,开封市,祥符区生态环境局,细颗粒物(PM2.5),60,49,35,43,34,53,,42,41,18,25,6,6,1.2,1
2025-11-08T1100,1951A,84.895,45.6094,克拉玛依市,长征新村,,28,28,21,9,7,29,,36,33,27,17,2,2,0.4,0.3
2025-11-08T1100,1952A,84.8988,45.5893,克拉玛依市,南林小区,,,,20,,6,,,20,,,13,,3,,0.2
2025-11-08T1100,1954A,84.905,44.3396,克拉玛依市,独山子区,颗粒物(PM10),51,51,39,21,18,34,,36,30,24,19,5,5,0.5,0.5
2025-11-08T1100,1955A,85.6979,46.098,克拉玛依市,乌尔禾区商贸楼,,21,21,20,10,6,17,,30,24,26,16,5,5,0.4,0.3
2025-11-08T1100,3612A,85.1045,45.6899,克拉玛依市,白碱滩区新站,,17,10,26,10,11,52,,54,49,10,12,4,5,0.3,0.3
2025-11-08T1100,2697A,76.1454,39.7142,克孜勒苏柯尔克孜自治州,市人民政府,颗粒物(PM10),131,211,192,61,46,42,,52,50,18,27,14,15,0.1,0.2
2025-11-08T1100,3665A,76.1658,39.7157,克孜勒苏柯尔克孜自治州,克州文化中心,颗粒物(PM10),144,237,189,61,46,18,,54,43,38,19,17,16,1.0,0.5
2025-11-08T1100,1450A,102.8204,24.8886,昆明市,呈贡新区,,35,35,28,24,30,26,,7,7,21,26,4,4,0.7,0.8
2025-11-08T1100,1451A,102.6251,24.9608,昆明市,西山森林公园,,,,,,,,,,,,,,,,
2025-11-08T1100,1452A,102.7252,25.0902,昆明市,龙泉镇,,20,20,33,13,19,30,,7,7,10,21,3,3,0.5,0.6
2025-11-08T1100,1453A,102.7266,25.0375,昆明市,东风东路,,50,50,41,19,18,23,,9,6,26,26,4,3,0.6,0.6
2025-11-08T1100,1454A,102.6742,25.0669,昆明市,金鼎山,,22,19,35,15,18,36,,17,17,12,21,2,3,0.4,0.5
2025-11-08T1100,1455A,102.6644,25.0401,昆明市,碧鸡广场,,39,39,33,25,19,22,,12,11,26,27,2,3,0.7,0.6
2025-11-08T1100,3179A,102.7494,25.0119,昆明市,官渡区博物馆,,,30,37,17,14,19,,7,4,33,28,,3,0.7,0.7
2025-11-08T1100,3375A,102.8017,24.8336,昆明市,青年创业园,,35,35,29,24,17,31,,7,7,11,15,11,3,0.8,0.7
2025-11-08T1100,3550A,102.7997,24.9786,昆明市,昆明学院,,44,44,43,24,22,26,,11,11,24,28,2,2,0.6,0.6
2025-11-08T1100,3551A,102.5967,24.6736,昆明市,晋宁区生态环境分局,,13,10,33,9,19,35,,11,11,8,18,7,8,0.4,0.7
2025-11-08T1100,3552A,102.6678,24.9856,昆明市,云天化总部,,39,39,26,27,17,24,,16,10,25,19,5,6,0.7,0.7
2025-11-08T1100,1456A,91.1319,29.6514,拉萨市,八廓街,,20,20,19,10,12,52,,42,42,15,24,10,7,0.3,0.4
2025-11-08T1100,1457A,91.1221,29.6747,拉萨市,市环保局,,29,29,24,10,13,38,,28,28,19,18,10,8,0.5,0.6
2025-11-08T1100,1458A,91.0874,29.6475,拉萨市,区监测站,,17,14,16,8,9,54,,36,36,17,34,9,5,0.4,0.4
2025-11-08T1100,1459A,91.1774,29.6541,拉萨市,西藏大学,,20,20,16,6,9,42,,39,39,22,24,10,6,0.2,0.3
2025-11-08T1100,1460A,90.9798,29.6588,拉萨市,区辐射站,,43,43,26,20,13,29,,32,26,35,28,9,7,0.6,0.4
2025-11-08T1100,1461A,91.0834,29.6292,拉萨市,拉萨火车站,,31,31,18,10,10,30,,24,15,35,27,8,6,0.7,0.5
2025-11-08T1100,2520A,109.2203,23.7256,来宾市,来宾技工学校,,39,39,40,24,25,21,,18,17,11,12,12,10,1.0,0.9
2025-11-08T1100,3535A,109.1781,23.7297,来宾市,兴宾区政府,,50,48,35,35,28,25,,18,16,11,11,11,9,1.0,0.8
2025-11-08T1100,4002A,109.2416,23.7461,来宾市,中南小学,,37,37,39,23,23,22,,17,15,10,13,10,8,1.1,0.9
2025-11-08T1100,1477A,104.1373,35.9454,兰州市,榆中兰大校区,,,,,,,,,,,,,,,,
2025-11-08T1100,1479A,103.831,36.0464,兰州市,铁路设计院,,,,,,,,,,,,,,,,
2025-11-08T1100,3241A,103.7439,36.0842,兰州市,百合公园,颗粒物(PM10),75,99,104,48,47,37,,22,13,27,22,7,6,0.8,0.8
2025-11-08T1100,3242A,103.9611,35.998,兰州市,和平,颗粒物(PM10),88,126,122,54,48,50,,23,23,15,21,9,5,0.5,0.5
2025-11-08T1100,4236A,103.6293,36.0938,兰州市,庄浪东路808号,颗粒物(PM10),87,124,119,63,55,27,,21,21,42,36,13,10,0.6,0.5
2025-11-08T1100,4237A,103.7251,36.1043,兰州市,安宁西路88号,颗粒物(PM10),84,118,125,56,55,45,,30,23,20,18,10,5,0.5,0.4
2025-11-08T1100,4238A,103.8470,36.0676,兰州市,北滨河东路1号,颗粒物(PM10),72,94,113,46,45,47,,26,20,20,26,10,10,0.7,0.7
2025-11-08T1100,3245A,103.6633,36.533,兰州新区,新区管委会,颗粒物(PM10),113,175,135,39,61,66,,46,46,12,16,10,9,0.2,0.5
2025-11-08T1100,3246A,103.6975,36.4789,兰州新区,舟曲中学,颗粒物(PM10),88,125,129,27,61,82,,54,54,7,21,2,10,0.2,0.4
2025-11-08T1100,1067A,116.6708,39.5111,廊坊市,药材公司,细颗粒物(PM2.5),77,56,52,56,40,32,,12,12,28,44,2,2,0.7,0.8
2025-11-08T1100,1068A,116.7214,39.5589,廊坊市,开发区,细颗粒物(PM2.5),82,67,55,60,43,37,,10,10,25,42,1,3,0.6,0.7
2025-11-08T1100,1070A,116.7244,39.5269,廊坊市,北华航天学院,细颗粒物(PM2.5),72,66,59,52,40,35,,12,12,28,45,4,3,0.6,0.7
2025-11-08T1100,2919A,116.7022,39.5453,廊坊市,河北工业大学,细颗粒物(PM2.5),74,68,50,54,43,35,,10,10,22,41,4,3,0.6,0.7
2025-11-08T1100,2535A,103.7723,29.5462,乐山市,花湖湾,,,,,,,,,,,,,,,,
2025-11-08T1100,2536A,103.7627,29.5844,乐山市,牛耳桥,,16,16,14,9,10,11,,17,8,27,24,13,7,1.2,0.6
2025-11-08T1100,2537A,103.7508,29.6006,乐山市,市第三水厂,,,21,15,10,9,,,16,9,28,24,11,7,1.3,0.8
2025-11-08T1100,2538A,103.7571,29.5664,乐山市,市监测站,,22,22,14,11,9,8,,22,12,23,18,11,9,1.1,0.7
2025-11-08T1100,3361A,103.7311,29.5628,乐山市,理工大学,,26,26,14,10,9,7,,18,9,25,16,13,8,1.2,0.6
2025-11-08T1100,2598A,100.2143,26.8576,丽江市,西南郊,,20,20,18,6,8,52,,37,37,5,10,7,7,0.6,0.7
2025-11-08T1100,2599A,100.2497,26.8802,丽江市,丽江古城,,18,15,21,8,8,55,,35,35,11,13,9,10,0.5,0.6
2025-11-08T1100,2600A,100.2203,26.8906,丽江市,市中心,,18,17,11,6,6,56,,43,43,13,14,11,11,0.4,0.4
2025-11-08T1100,1267A,119.914,28.4514,丽水市,监测站大楼,,24,24,25,10,14,36,,9,9,24,19,7,4,0.6,0.6
2025-11-08T1100,1268A,119.93,28.4586,丽水市,莲都小学,,,40,26,16,9,,,3,3,21,21,4,4,0.6,0.4
2025-11-08T1100,1269A,119.879,28.4231,丽水市,余庄前,,34,34,22,22,12,25,,5,5,30,12,3,2,0.5,0.4
2025-11-08T1100,1173A,119.176,34.5885,连云港市,市环境监测站,,27,19,34,9,22,86,,94,92,15,10,6,7,0.5,0.5
2025-11-08T1100,3000A,119.3581,34.6972,连云港市,德源药业,,27,12,29,9,19,86,,87,87,11,11,4,5,0.4,0.5
2025-11-08T1100,3007A,119.178,34.844,连云港市,新城一中,,36,35,46,25,21,75,,108,99,28,15,7,5,0.9,0.6
2025-11-08T1100,3008A,119.3608,34.7519,连云港市,胡沟管理处,,32,9,30,7,18,100,,90,90,9,25,7,10,0.3,0.4
2025-11-08T1100,3009A,119.1478,34.5911,连云港市,矿山设计院,,28,14,34,14,24,88,,95,94,9,7,5,6,0.4,0.5
2025-11-08T1100,3434A,119.2413,34.6539,连云港市,工贸学校,,29,12,28,7,16,90,,91,91,11,13,8,8,0.6,0.7
2025-11-08T1100,3664A,119.4172,34.7341,连云港市,连云街道,,30,13,31,7,17,94,,101,101,24,17,6,6,0.2,0.3
2025-11-08T1100,2571A,102.3431,27.8099,凉山彝族自治州,青龙寺,,,,,,,,,,,,,,,,
2025-11-08T1100,2572A,102.2721,27.8415,凉山彝族自治州,邛海宾馆,,15,10,17,3,11,27,,18,18,30,53,8,6,0.6,0.5
2025-11-08T1100,2573A,102.2625,27.898,凉山彝族自治州,西昌市政府,,35,31,20,24,12,27,,16,15,22,15,11,11,0.9,0.8
2025-11-08T1100,2574A,102.2685,27.8851,凉山彝族自治州,凉山州政府,,20,20,20,14,13,26,,21,20,18,12,9,11,1.1,1
2025-11-08T1100,4229A,102.2342,27.8859,凉山彝族自治州,凯乐南路30号,,19,19,19,8,10,33,,21,19,20,16,9,9,0.7,0.8
2025-11-08T1100,2212A,123.2,41.1953,辽阳市,宏伟区,细颗粒物(PM2.5),108,,98,81,73,53,,31,31,33,32,9,10,1.2,0.7
2025-11-08T1100,2213A,123.1683,41.2495,辽阳市,新华园,细颗粒物(PM2.5),208,,100,158,72,6,,20,13,56,36,8,7,2.2,0.8
2025-11-08T1100,2214A,123.2354,41.2639,辽阳市,滨河路,细颗粒物(PM2.5),119,113,106,90,69,26,,18,18,48,36,8,8,1.1,0.6
2025-11-08T1100,2215A,123.149,41.2991,辽阳市,铁西工业园,细颗粒物(PM2.5),218,,110,168,104,6,,14,4,,33,,8,2.2,0.7
2025-11-08T1100,2227A,125.1358,42.8845,辽源市,环保局,细颗粒物(PM2.5),133,150,147,101,94,16,,16,14,43,32,10,7,1.4,0.8
2025-11-08T1100,3239A,125.0764,42.9078,辽源市,银鹰制药,细颗粒物(PM2.5),140,126,105,107,89,,,12,11,,11,8,6,1.3,0.8
2025-11-08T1100,1625A,115.9848,36.4372,聊城市,区政府,细颗粒物(PM2.5),83,81,95,61,67,58,,24,24,23,42,8,8,0.8,0.9
2025-11-08T1100,2878A,116.0072,36.4343,聊城市,聊大东校,细颗粒物(PM2.5),98,83,97,73,77,53,,19,19,19,40,7,7,0.7,0.9
2025-11-08T1100,3200A,115.9819,36.4978,聊城市,监控中心,细颗粒物(PM2.5),98,84,85,73,68,58,,24,24,16,39,8,8,0.8,0.9
2025-11-08T1100,3513A,116.0445,36.4361,聊城市,九州社区,细颗粒物(PM2.5),72,82,97,52,66,65,,28,28,13,32,1,2,0.5,0.6
2025-11-08T1100,4018A,116.0567,36.4608,聊城市,星美广场,,,,102,59,67,62,,24,24,14,34,3,3,0.6,0.7
2025-11-08T1100,2632A,94.3681,29.6376,林芝市,林芝监测站,,17,17,9,6,4,46,,63,52,10,3,3,4,0.3,0.3
2025-11-08T1100,2633A,94.3616,29.6616,林芝市,林芝人民医院,,17,17,11,3,5,44,,56,45,9,4,5,5,0.4,0.4
2025-11-08T1100,2603A,100.0781,23.8982,临沧市,市环保局,,21,21,18,10,26,21,,7,7,7,6,8,8,0.8,0.7
2025-11-08T1100,2604A,100.0894,23.8822,临沧市,市气象局,,22,22,17,12,13,20,,9,9,7,8,10,10,0.7,0.6
2025-11-08T1100,1733A,111.5531,36.0783,临汾市,临钢医院,颗粒物(PM10),51,51,48,30,37,23,,8,8,25,30,6,6,0.9,1.1
2025-11-08T1100,1734A,111.5028,36.0714,临汾市,技工学校,颗粒物(PM10),60,70,46,42,45,16,,4,4,25,33,6,6,1.2,1.1
2025-11-08T1100,1736A,111.5018,36.0855,临汾市,市委,细颗粒物(PM2.5),68,70,53,49,43,18,,6,6,25,30,6,4,1.3,1.2
2025-11-08T1100,3018A,111.505,36.1014,临汾市,唐尧大酒店,细颗粒物(PM2.5),77,65,54,56,43,18,,4,4,22,30,4,3,1.7,1.3
2025-11-08T1100,4244A,111.4879,36.0530,临汾市,启星学校,细颗粒物(PM2.5),57,62,40,40,34,16,,5,5,28,35,5,5,1.4,1.2
2025-11-08T1100,4271A,103.2464,35.6123,临夏回族自治州,滨河东路1号,颗粒物(PM10),93,135,97,64,48,27,,22,22,16,14,2,3,0.6,0.5
2025-11-08T1100,4310A,103.2093,35.5995,临夏回族自治州,新华街21号,,,,101,,50,,,50,,,10,,8,,0.5
2025-11-08T1100,1618A,118.3429,35.0532,临沂市,沂河小区,,28,19,45,19,31,67,,87,80,22,17,6,7,0.4,0.4
2025-11-08T1100,1619A,118.295,35.0583,临沂市,鲁南制药厂,细颗粒物(PM2.5),79,,40,58,36,74,,89,81,22,17,5,10,0.2,0.5
2025-11-08T1100,1620A,118.2794,34.9976,临沂市,新光毛纺厂,,23,14,28,14,48,71,,88,82,26,20,6,6,0.5,0.4
2025-11-08T1100,1621A,118.3956,35.0888,临沂市,河东保险公司,,,,45,,31,64,,87,79,25,18,6,6,0.7,0.6
2025-11-08T1100,3370A,118.3564,35.0215,临沂市,十里堡居委,,23,17,36,9,20,71,,88,82,24,18,7,8,0.6,0.6
2025-11-08T1100,3496A,118.3604,35.1084,临沂市,南坊新区,,23,17,42,14,31,71,,88,81,25,20,7,8,0.8,0.7
2025-11-08T1100,3860A,118.3920,35.0300,临沂市,皇山花园小区,,26,,37,18,25,70,,87,80,21,14,8,8,0.7,0.6
2025-11-08T1100,1870A,109.4856,24.3895,柳州市,柳东小学,,20,20,21,12,16,25,,23,21,6,8,5,5,0.4,0.5
2025-11-08T1100,1871A,109.4157,24.3277,柳州市,环保监测站,,29,29,31,12,14,19,,16,16,11,12,6,8,0.7,0.7
2025-11-08T1100,1872A,109.389,24.341,柳州市,河西水厂,,49,38,34,34,22,17,,16,14,16,14,6,7,0.6,0.5
2025-11-08T1100,1873A,109.4311,24.2921,柳州市,市四中,,30,30,31,14,20,23,,18,17,11,15,8,8,0.6,0.6
2025-11-08T1100,1874A,109.4006,24.3631,柳州市,市九中,,45,,33,31,24,27,,16,16,10,15,2,4,0.5,0.6
2025-11-08T1100,1875A,109.4958,24.3134,柳州市,古亭山,,16,16,27,11,16,32,,23,23,8,7,7,7,0.7,0.7
2025-11-08T1100,3402A,109.5422,24.3996,柳州市,市二中,,16,16,22,8,14,35,,25,25,9,12,6,7,0.7,0.7
2025-11-08T1100,2307A,116.5079,31.737,六安市,监测大楼,,42,,11,29,10,55,,54,54,10,13,3,3,0.4,0.4
2025-11-08T1100,2308A,116.4738,31.7643,六安市,皖西学院,,38,33,8,26,11,57,,56,56,10,10,2,2,0.4,0.4
2025-11-08T1100,2309A,116.4996,31.7905,六安市,朝阳厂,,35,,9,24,11,55,,56,56,13,16,3,4,0.4,0.4
2025-11-08T1100,2310A,116.5567,31.7886,六安市,开发区,,43,32,8,30,12,56,,56,56,10,13,1,2,0.4,0.5
2025-11-08T1100,2576A,104.8,26.5892,六盘水市,窑上,,31,31,40,12,17,25,,26,25,8,5,4,2,0.6,0.5
2025-11-08T1100,2577A,104.83,26.5917,六盘水市,黄土坡,,21,21,21,7,13,22,,24,24,12,10,11,5,0.7,0.6
2025-11-08T1100,2578A,104.89,26.5939,六盘水市,水钢,,43,43,31,14,14,25,,23,23,12,7,5,6,0.6,0.5
2025-11-08T1100,2579A,104.8475,26.5894,六盘水市,民中,,26,26,23,17,12,19,,20,19,13,9,8,4,0.4,0.3
2025-11-08T1100,2580A,104.9544,26.5506,六盘水市,双水,,22,22,25,14,15,29,,25,25,7,8,4,5,0.5,0.4
2025-11-08T1100,2335A,117.0189,25.1181,龙岩市,龙岩师专,,,,,,,,,,,,,,,,
2025-11-08T1100,2336A,117.0217,25.1033,龙岩市,龙岩市监测站,细颗粒物(PM2.5),52,48,31,36,24,46,,14,14,20,27,12,19,0.7,0.6
2025-11-08T1100,2337A,117.0258,25.0661,龙岩市,闽西职业技术学院,,43,41,37,30,20,35,,24,21,24,21,8,12,0.7,0.6
2025-11-08T1100,2338A,117.0196,25.0306,龙岩市,龙岩学院,细颗粒物(PM2.5),55,52,31,39,23,43,,17,17,19,16,9,7,0.5,0.4
2025-11-08T1100,2665A,105.0822,33.3261,陇南市,汉王镇固水子,,,,,,,,,,,,,,,,
2025-11-08T1100,2885A,104.9339,33.3826,陇南市,滨江中学,颗粒物(PM10),91,132,96,39,33,39,,30,28,11,11,7,6,0.5,0.5
2025-11-08T1100,3247A,104.955,33.371,陇南市,市总工会,颗粒物(PM10),78,105,96,46,38,41,,31,27,9,12,7,7,0.6,0.5
2025-11-08T1100,2487A,111.9589,27.8901,娄底市,电视发射台,,,,,,,,,,,,,,,,
2025-11-08T1100,2488A,111.9975,27.725,娄底市,市监测站,,11,11,28,3,19,27,,31,31,18,14,9,10,1.0,0.7
2025-11-08T1100,2489A,112.0194,27.7314,娄底市,市委党校,,13,13,24,3,22,27,,30,30,13,13,5,5,0.9,0.7
2025-11-08T1100,2490A,111.9561,27.7569,娄底市,涟钢,,,,37,0,26,31,,32,32,9,20,7,11,0.5,0.9
2025-11-08T1100,2491A,111.9892,27.7044,娄底市,市政府,,10,9,28,6,26,30,,31,31,14,14,8,9,1.0,1
2025-11-08T1100,1893A,105.4324,28.9634,泸州市,九狮山,,,,,,,,,,,,,,,,
2025-11-08T1100,1894A,105.4427,28.9063,泸州市,小市上码头,,16,16,27,8,18,22,,15,15,18,15,9,8,0.7,0.6
2025-11-08T1100,1895A,105.4241,28.8573,泸州市,兰田宪桥,,20,20,30,13,19,24,,19,18,19,11,8,6,0.8,0.5
2025-11-08T1100,1896A,105.4379,28.8833,泸州市,市环监站,,18,18,27,11,19,24,,19,18,22,17,7,6,0.7,0.5
2025-11-08T1100,4272A,105.3689,28.7783,泸州市,纳溪中医医院,,,,31,15,21,18,,22,17,24,20,7,5,0.8,0.6
2025-11-08T1100,2183A,111.1406,37.5211,吕梁市,环保局,颗粒物(PM10),62,74,45,33,29,41,,32,32,15,35,9,6,0.4,0.6
2025-11-08T1100,2185A,111.1297,37.5136,吕梁市,自来水公司,颗粒物(PM10),61,72,38,29,24,39,,30,30,16,26,4,2,0.2,0.4
2025-11-08T1100,2867A,111.1283,37.51,吕梁市,马茂庄小学,颗粒物(PM10),62,74,46,37,25,40,,18,18,18,40,4,2,0.4,0.6
2025-11-08T1100,1812A,112.3931,34.6516,洛阳市,市委党校,,43,38,29,30,28,35,,18,15,21,25,8,6,0.6,0.7
2025-11-08T1100,1815A,112.494,34.6886,洛阳市,河南林校,,,60,33,30,27,25,,12,11,,29,12,6,0.8,0.6
2025-11-08T1100,1816A,112.3844,34.623,洛阳市,开发区管委会,,28,28,30,17,23,46,,18,18,14,19,8,5,0.7,0.7
2025-11-08T1100,1817A,112.4267,34.6258,洛阳市,市委新办公区,,36,30,30,25,18,38,,21,20,18,23,8,6,0.6,0.7
2025-11-08T1100,3340A,112.6005,34.6326,洛阳市,伊滨,,35,35,22,24,13,31,,17,15,18,18,8,6,0.6,0.5
2025-11-08T1100,3341A,112.4951,34.6332,洛阳市,中移产业园,,38,37,31,26,24,35,,20,20,20,27,7,5,0.7,0.7
2025-11-08T1100,3593A,112.5736,34.8993,洛阳市,吉利监测站,细颗粒物(PM2.5),53,47,26,37,25,32,,19,19,20,25,7,5,0.9,0.6
2025-11-08T1100,3635A,112.3677,34.662,洛阳市,河科大西苑校区,,42,40,28,29,25,37,,16,14,16,25,9,7,0.8,0.8
2025-11-08T1100,3636A,112.4388,34.6781,洛阳市,英才小学,细颗粒物(PM2.5),70,65,43,51,42,20,,6,4,32,31,10,6,1.1,1
2025-11-08T1100,4214A,112.4600,34.6949,洛阳市,春都路1号院,,47,47,26,30,20,17,,8,4,24,23,9,6,1.0,0.9
2025-11-08T1100,2399A,114.051,33.5699,漯河市,三五一五工厂,,29,24,18,20,21,83,,68,68,10,15,6,6,0.7,0.7
2025-11-08T1100,2400A,114.0055,33.5698,漯河市,漯河大学,细颗粒物(PM2.5),55,40,32,39,35,82,,71,71,14,18,5,5,0.5,0.5
2025-11-08T1100,2401A,114.0138,33.5828,漯河市,市水利局,细颗粒物(PM2.5),55,,31,39,33,79,,68,68,14,18,6,6,0.7,0.7
2025-11-08T1100,2402A,114.0261,33.5698,漯河市,市广电局,,42,37,33,29,27,82,,69,69,9,15,4,3,0.6,0.6
2025-11-08T1100,3478A,113.9749,33.5664,漯河市,市图书馆,,25,25,29,15,18,74,,64,64,14,18,3,2,0.8,0.8
2025-11-08T1100,4250A,114.0892,33.5882,漯河市,韶山路11号,,31,31,25,19,27,81,,61,61,12,18,7,6,0.7,0.7
2025-11-08T1100,1798A,118.5092,31.6837,马鞍山市,湖东路四小,,28,23,18,19,15,38,,24,24,18,24,6,6,0.9,0.7
2025-11-08T1100,1799A,118.5024,31.6449,马鞍山市,开发区,,23,19,19,16,13,38,,18,18,20,27,3,3,0.5,0.5
2025-11-08T1100,1802A,118.6245,31.7241,马鞍山市,濮塘,,,,,,,,,,,,,,,,
2025-11-08T1100,3633A,118.4918,31.6809,马鞍山市,雨山,,22,18,16,15,13,39,,22,22,17,26,6,6,0.7,0.8
2025-11-08T1100,4191A,118.5274,31.72227,马鞍山市,慈湖高新区,,30,28,21,21,14,38,,19,19,18,28,4,4,0.6,0.6
2025-11-08T1100,1686A,111.0286,21.4688,茂名市,电白南海,,31,31,29,7,16,52,,45,45,17,14,7,7,0.6,0.6
2025-11-08T1100,1687A,110.9294,21.6533,茂名市,茂石化七小,,29,29,24,17,14,45,,39,38,13,13,9,9,0.8,0.8
2025-11-08T1100,1688A,110.9107,21.6687,茂名市,健康路,,18,17,16,12,12,54,,45,44,11,13,7,7,0.7,0.7
2025-11-08T1100,1689A,110.8592,21.6828,茂名市,高岭,,24,24,26,7,7,56,,45,45,18,16,8,12,0.6,0.6
2025-11-08T1100,3450A,111.01,21.5165,茂名市,电白水东,,19,19,15,7,10,59,,44,44,8,11,4,7,0.6,0.7
2025-11-08T1100,2539A,104.0308,30.0478,眉山市,黑龙滩水库,,,,,,,,,,,,,,,,
2025-11-08T1100,2540A,103.8416,30.0874,眉山市,气象局,,33,33,33,12,15,13,,5,4,28,29,13,9,0.6,0.6
2025-11-08T1100,3137A,103.8578,30.0744,眉山市,市委党校,颗粒物(PM10),51,51,26,24,13,8,,3,3,36,30,14,7,1.0,0.8
2025-11-08T1100,3148A,103.8291,30.0564,眉山市,区人社局,,50,50,37,27,13,10,,3,3,32,29,26,8,1.3,0.9
2025-11-08T1100,1690A,116.1231,24.3284,梅州市,梅江月梅,,47,47,37,30,24,88,,33,33,9,16,5,6,0.6,0.6
2025-11-08T1100,1691A,116.0797,24.2719,梅州市,梅县新城,颗粒物(PM10),51,52,38,32,25,100,,37,37,14,24,8,8,0.5,0.5
2025-11-08T1100,1692A,116.1248,24.2654,梅州市,环境监控中心,,49,49,33,16,21,97,,42,42,13,23,7,8,0.5,0.5
2025-11-08T1100,3315A,116.1233,24.2991,梅州市,梅龙,,36,36,32,23,21,78,,46,46,9,16,7,8,0.7,0.7
2025-11-08T1100,1878A,104.7778,31.4741,绵阳市,富乐山,,42,42,17,25,11,34,,13,13,14,14,9,8,0.5,0.6
2025-11-08T1100,1880A,104.6697,31.4668,绵阳市,高新区自来水公司,颗粒物(PM10),58,65,37,34,17,26,,5,5,24,23,9,9,0.5,0.7
2025-11-08T1100,1881A,104.7287,31.5075,绵阳市,三水厂,,47,47,29,22,14,29,,6,6,20,23,8,8,0.5,0.7
2025-11-08T1100,3491A,104.69,31.5322,绵阳市,西科大附属小学,颗粒物(PM10),58,65,32,25,13,32,,7,7,19,25,10,10,0.4,0.6
2025-11-08T1100,3492A,104.5648,31.5343,绵阳市,安州区旅游局,颗粒物(PM10),56,62,34,34,19,32,,8,8,14,22,9,9,0.6,0.7
2025-11-08T1100,4226A,104.7651,31.4531,绵阳市,绵阳市气象局,颗粒物(PM10),56,61,26,21,11,23,,9,9,21,25,6,7,0.6,0.8
2025-11-08T1100,1784A,129.61,44.561,牡丹江市,环保大楼,,36,36,30,22,20,30,,30,28,27,21,8,9,0.5,0.4
2025-11-08T1100,1785A,129.6115,44.5782,牡丹江市,文化广场,,39,39,45,24,32,28,,28,26,28,22,8,10,0.5,0.4
2025-11-08T1100,1786A,129.5904,44.5963,牡丹江市,第一医院,,46,46,36,30,31,36,,32,26,22,20,4,7,0.4,0.4
2025-11-08T1100,1787A,129.6364,44.6075,牡丹江市,机车工厂,,,48,66,30,31,29,,21,21,33,23,,21,0.4,0.4
2025-11-08T1100,1788A,129.6386,44.5462,牡丹江市,第一中学,,36,36,24,19,17,23,,27,26,31,20,5,4,0.5,0.4
2025-11-08T1100,2531A,105.0703,29.61,内江市,市监测站,,40,40,28,27,14,31,,25,22,22,16,5,4,0.8,0.8
2025-11-08T1100,2532A,105.0717,29.5947,内江市,东兴区政府,,39,39,20,21,10,18,,11,9,30,20,6,5,0.5,0.4
2025-11-08T1100,2533A,105.0653,29.5817,内江市,内江二中,,26,25,25,18,13,18,,12,11,31,23,6,4,0.8,0.7
2025-11-08T1100,2534A,105.0406,29.5822,内江市,内江日报社,,23,16,17,16,11,22,,9,8,25,20,5,4,0.6,0.5
2025-11-08T1100,2628A,92.0657,31.4846,那曲市,那曲监测站,,,148,44,,23,32,,32,32,50,26,16,10,1.3,1
2025-11-08T1100,4243A,92.0515,31.4787,那曲市,那曲市委宣传部,,37,37,26,16,15,30,,27,22,26,20,8,8,0.6,1
2025-11-08T1100,1290A,115.8931,28.6843,南昌市,省外办,,14,14,41,9,32,24,,30,24,20,19,4,4,1.1,1.1
2025-11-08T1100,1291A,115.8886,28.7003,南昌市,省林业公司,,10,7,35,3,27,26,,30,24,12,19,2,4,1.0,1
2025-11-08T1100,1292A,115.8126,28.7442,南昌市,林科所,,12,6,25,3,19,36,,39,32,8,16,2,3,0.7,0.8
2025-11-08T1100,1294A,115.8518,28.687,南昌市,建工学校,,12,12,39,7,28,27,,36,26,13,20,7,8,0.9,0.8
2025-11-08T1100,1295A,115.8921,28.6424,南昌市,象湖,,10,10,34,7,24,27,,35,28,13,18,7,8,0.9,0.8
2025-11-08T1100,1296A,115.7423,28.7996,南昌市,武术学校,,,,,,,,,,,,,,,,
2025-11-08T1100,3046A,115.9084,28.6062,南昌市,机电学校,,12,12,38,7,28,30,,37,31,12,16,6,7,0.7,0.6
2025-11-08T1100,3690A,115.9721,28.7031,南昌市,外国语学校,,20,,40,14,32,25,,30,25,16,26,7,9,0.7,0.7
2025-11-08T1100,4192A,115.9316,28.68677,南昌市,南京东路235号,,21,21,50,6,30,27,,33,28,21,25,5,6,0.8,0.8
2025-11-08T1100,1905A,106.056,30.8064,南充市,西山风景区,,,,,,,,,,,,,,,,
2025-11-08T1100,1906A,106.0789,30.8023,南充市,南充市委,,35,35,15,23,10,13,,4,4,21,19,5,4,0.6,0.5
2025-11-08T1100,1907A,106.1031,30.8217,南充市,南充炼油厂,,50,50,27,23,15,12,,7,7,16,16,6,6,0.4,0.4
2025-11-08T1100,4227A,106.1083,30.7884,南充市,梨树横街98号,,34,34,16,11,8,17,,8,8,13,17,5,4,0.5,0.5
2025-11-08T1100,4304A,106.1172,30.843,南充市,清泉寺北路188号,,29,29,19,13,6,16,,9,9,11,13,6,6,0.5,0.5
2025-11-08T1100,4305A,106.067,30.7616,南充市,同庆路1号,,36,36,19,17,9,16,,6,6,17,18,7,6,0.7,0.6
2025-11-08T1100,1151A,118.8086,32.1065,南京市,迈皋桥,,14,,15,9,12,43,,27,26,3,10,3,3,0.2,0.1
2025-11-08T1100,1152A,118.7538,32.0551,南京市,草场门,,12,9,11,7,12,36,,23,23,20,29,9,9,0.6,0.6
2025-11-08T1100,1153A,118.7794,32.0745,南京市,山西路,,12,12,14,7,9,38,,22,22,14,24,3,4,0.4,0.4
2025-11-08T1100,1154A,118.7752,32.0023,南京市,中华门,,12,12,16,7,11,31,,17,17,20,22,3,4,0.6,0.6
2025-11-08T1100,1155A,118.8109,32.0309,南京市,瑞金路,,28,,12,19,14,35,,23,22,17,21,4,4,0.7,0.6
2025-11-08T1100,1156A,118.7997,32.0754,南京市,玄武湖,,13,13,13,3,6,33,,20,19,15,15,4,4,0.6,0.5
2025-11-08T1100,1157A,118.6414,32.0931,南京市,浦口,,15,9,12,9,10,46,,34,34,14,24,6,6,0.6,0.6
2025-11-08T1100,1158A,118.7356,31.9996,南京市,奥体中心,,20,15,14,14,14,33,,24,21,24,27,5,5,0.7,0.6
2025-11-08T1100,1159A,118.9125,32.1028,南京市,仙林大学城,,14,14,17,7,10,32,,22,18,18,25,5,5,0.7,0.6
2025-11-08T1100,3422A,118.8436,31.9198,南京市,江宁彩虹桥,,11,,42,7,11,35,,28,24,21,21,4,5,0.6,0.5
2025-11-08T1100,3427A,118.8554,32.3578,南京市,六合雄州,,20,,26,10,17,62,,32,32,2,14,3,4,0.6,0.7
2025-11-08T1100,4249A,118.8708,31.3402,南京市,汶溪路181号,,21,21,11,3,10,39,,28,28,20,22,4,4,0.7,0.6
2025-11-08T1100,4312A,119.019,31.6512,南京市,中山西路1号,,14,14,14,3,10,28,,20,18,13,16,3,4,0.8,0.6
2025-11-08T1100,1401A,108.3103,22.7881,南宁市,二十一中,,34,34,32,19,24,27,,18,18,14,23,2,2,0.7,0.8
2025-11-08T1100,1402A,108.3141,22.8528,南宁市,北湖,,26,23,30,18,23,34,,6,6,13,29,5,6,0.7,0.8
2025-11-08T1100,1403A,108.3206,22.8225,南宁市,市监测站,,32,,32,22,24,20,,14,11,20,31,5,6,0.7,0.8
2025-11-08T1100,1404A,108.3829,22.8037,南宁市,大自然花园,,33,33,27,19,21,35,,25,25,14,17,5,5,0.6,0.7
2025-11-08T1100,1405A,108.4394,22.7904,南宁市,仙葫,,,,,,,,,,,,,,,,
2025-11-08T1100,1406A,108.2397,22.8467,南宁市,区农职院,,36,36,30,21,21,22,,8,8,24,28,5,4,0.8,0.8
2025-11-08T1100,1407A,108.3275,22.735,南宁市,英华嘉园,,40,34,31,28,28,24,,27,21,15,20,2,2,0.6,0.7
2025-11-08T1100,3401A,108.4834,22.7618,南宁市,红星社区,,32,31,26,22,19,40,,28,25,9,14,3,3,0.6,0.6
2025-11-08T1100,4221A,108.2177,22.7774,南宁市,乐贤路16号,,30,30,29,21,24,32,,10,10,19,30,3,3,0.6,0.7
2025-11-08T1100,2331A,118.0966,26.6761,南平市,茫荡山,,,,17,,,,,73,,,,,1,,0.3
2025-11-08T1100,2332A,118.1681,26.6369,南平市,南平市监测站,,20,13,28,11,21,62,,20,20,6,19,5,6,0.6,0.7
2025-11-08T1100,2333A,118.1825,26.6489,南平市,南平铝业有限公司,,20,20,25,8,18,64,,18,18,5,21,4,6,0.5,0.6
2025-11-08T1100,2334A,118.1756,26.6272,南平市,南平七中,,,33,25,12,17,64,,19,19,,15,,5,0.5,0.6
2025-11-08T1100,1168A,120.9098,31.9663,南通市,狼山街道,,35,32,26,24,16,23,,26,22,39,42,2,2,0.7,0.6
2025-11-08T1100,1169A,120.86,32.0005,南通市,虹桥,细颗粒物(PM2.5),55,41,24,39,18,15,,45,31,48,36,4,4,0.7,0.6
2025-11-08T1100,1170A,120.87,32.02,南通市,城中,颗粒物(PM10),51,52,32,25,17,13,,38,28,52,42,3,3,0.6,0.5
2025-11-08T1100,1171A,120.94,31.93,南通市,星湖花园,,40,40,28,22,17,28,,40,29,38,44,4,4,0.6,0.5
2025-11-08T1100,1172A,120.81,32.0417,南通市,紫琅学院,,46,40,28,32,18,13,,38,24,50,40,5,3,0.9,0.7
2025-11-08T1100,3291A,121.067,32.062,南通市,通州监测站,,35,24,19,24,19,31,,36,34,36,27,2,2,0.8,0.6
2025-11-08T1100,3432A,120.9348,31.9883,南通市,环境教育馆,,49,39,25,34,20,23,,36,25,41,42,4,4,0.5,0.5
2025-11-08T1100,2404A,112.5224,33.0122,南阳市,瓦房庄,,32,32,23,18,10,52,,50,48,18,14,5,5,0.7,0.7
2025-11-08T1100,2405A,112.5003,32.9735,南阳市,汉画馆,,36,36,21,23,13,52,,40,40,16,15,5,5,0.7,0.7
2025-11-08T1100,2406A,112.5573,33.027,南阳市,气象站,,29,29,16,14,7,59,,57,55,18,15,5,4,0.7,0.6
2025-11-08T1100,2407A,112.5481,32.9689,南阳市,理工学院,,31,31,22,17,9,60,,56,54,16,14,4,4,0.8,0.7
2025-11-08T1100,4008A,112.5234,32.9922,南阳市,卧龙区政府,,32,,10,22,16,50,,51,49,20,17,5,4,0.8,0.8
2025-11-08T1100,1234A,121.8358,29.911,宁波市,区环保大楼,,30,30,31,15,17,31,,6,6,43,58,6,6,0.7,0.7
2025-11-08T1100,1235A,121.56,29.82,宁波市,万里学院,,26,26,30,18,27,41,,21,21,33,45,8,7,0.8,0.7
2025-11-08T1100,1236A,121.713,29.9572,宁波市,龙赛医院,,36,36,37,17,19,26,,9,9,45,54,5,6,0.5,0.6
2025-11-08T1100,1239A,121.633,29.7733,宁波市,钱湖水厂,,30,30,19,18,14,42,,32,31,28,18,8,6,0.5,0.5
2025-11-08T1100,1240A,121.5856,29.8635,宁波市,太古小学,,30,30,37,15,19,41,,16,16,31,52,4,4,0.8,0.8
2025-11-08T1100,1241A,121.524,29.8674,宁波市,市环境监测中心,,30,30,33,14,20,26,,6,6,35,45,12,10,0.7,0.7
2025-11-08T1100,2871A,121.6147,29.9017,宁波市,万里国际学校,,25,25,29,17,27,44,,14,14,30,53,6,4,0.7,0.7
2025-11-08T1100,3710A,121.5594,29.8975,宁波市,白沙活动中心,,23,23,26,12,18,33,,12,12,38,55,8,5,0.5,0.5
2025-11-08T1100,2339A,119.5001,26.6946,宁德市,金涵水库,,,,27,,15,,,22,,,10,,2,,0.5
2025-11-08T1100,2341A,119.5388,26.6612,宁德市,宁德市监测站,,,80,36,40,21,55,,20,20,20,27,,7,0.7,0.6
2025-11-08T1100,3209A,119.5231,26.6562,宁德市,宁德一中,,38,38,36,25,25,67,,28,28,15,19,14,6,0.6,0.5
2025-11-08T1100,2618A,98.8601,25.8567,怒江傈僳族自治州,州监测站,,22,22,25,12,14,28,,18,18,5,9,7,7,0.4,0.4
2025-11-08T1100,2619A,98.8546,25.8417,怒江傈僳族自治州,泸水一中,,33,,21,23,12,16,,4,4,8,13,6,6,0.5,0.6
2025-11-08T1100,1888A,101.6891,26.571,攀枝花市,弄弄坪,颗粒物(PM10),64,78,53,41,26,17,,5,5,35,28,5,4,4.0,1.3
2025-11-08T1100,1889A,101.5769,26.5928,攀枝花市,河门口,,29,29,36,17,20,23,,7,7,14,19,19,19,0.9,1.2
2025-11-08T1100,1890A,101.7169,26.585,攀枝花市,炳草岗,颗粒物(PM10),57,64,55,39,32,16,,5,5,42,33,29,15,2.5,1.1
2025-11-08T1100,1891A,101.7369,26.5008,攀枝花市,仁和,,49,49,37,33,22,23,,6,6,32,17,35,12,3.6,1
2025-11-08T1100,2835A,101.7227,26.567,攀枝花市,四十中小,颗粒物(PM10),56,62,43,34,24,20,,5,5,37,25,26,33,2.1,1.3
2025-11-08T1100,1604A,122.0303,41.1489,盘锦市,开发区,细颗粒物(PM2.5),256,,157,206,161,51,,52,40,29,20,4,3,0.6,0.5
2025-11-08T1100,1605A,122.0485,41.0883,盘锦市,兴隆台,颗粒物(PM10),114,177,140,,127,49,,47,37,30,24,7,7,0.6,0.5
2025-11-08T1100,1606A,121.8297,41.1028,盘锦市,新生街道,细颗粒物(PM2.5),216,,166,166,161,,,39,33,27,26,16,8,1.0,0.7
2025-11-08T1100,1832A,113.3257,33.742,平顶山市,新华旅馆,细颗粒物(PM2.5),59,,16,42,25,64,,71,63,17,15,8,6,0.7,0.6
2025-11-08T1100,1833A,113.2919,33.737,平顶山市,规划设计院,,45,39,26,31,20,60,,67,59,22,20,5,4,0.8,0.7
2025-11-08T1100,1834A,113.182,33.774,平顶山市,平顶山工学院,,39,32,24,27,19,51,,60,55,16,19,8,5,0.6,0.5
2025-11-08T1100,3204A,113.3025,33.73,平顶山市,规划局,,50,48,25,35,22,63,,72,62,18,17,7,6,0.7,0.6
2025-11-08T1100,3594A,112.8867,33.9116,平顶山市,石龙区,,35,35,21,21,20,58,,54,50,16,21,5,5,0.7,0.8
2025-11-08T1100,2656A,106.6692,35.5461,平凉市,聚贤嘉苑,颗粒物(PM10),58,65,67,20,27,52,,19,19,16,24,5,4,0.3,0.4
2025-11-08T1100,2657A,106.7021,35.5307,平凉市,博物馆,颗粒物(PM10),60,69,66,26,31,58,,22,22,17,22,11,10,0.6,0.6
2025-11-08T1100,2347A,114.0997,27.5002,萍乡市,武功山,,,,,,,,,,,,,,,,
2025-11-08T1100,2348A,113.8385,27.6434,萍乡市,中医院,,18,12,36,12,23,6,,6,2,21,29,6,8,1.1,1.2
2025-11-08T1100,2349A,113.8493,27.6253,萍乡市,市政府车库,,10,10,34,3,30,8,,7,5,20,30,7,10,0.8,1.1
2025-11-08T1100,2350A,113.8676,27.6435,萍乡市,市环保局,,16,16,35,8,25,7,,9,5,16,25,7,10,0.8,0.9
2025-11-08T1100,2351A,113.866,27.6198,萍乡市,安源区政府,,12,,34,8,32,9,,9,5,16,26,9,15,0.7,1.1
2025-11-08T1100,2319A,119.0141,25.4325,莆田市,荔城区仓后路,,31,31,29,7,14,84,,59,59,5,8,4,4,0.3,0.4
2025-11-08T1100,2320A,119.0015,25.4553,莆田市,莆田市监测站,,33,33,22,8,12,85,,54,54,6,7,4,4,0.4,0.4
2025-11-08T1100,2321A,119.1119,25.4561,莆田市,涵江区六中,,27,21,30,8,14,86,,59,59,5,9,3,3,0.4,0.5
2025-11-08T1100,2322A,119.1013,25.3215,莆田市,秀屿区政府,,33,33,35,3,16,88,,60,60,7,12,5,5,0.5,0.5
2025-11-08T1100,2323A,118.981,25.4792,莆田市,东圳水库,,,,19,,15,,,69,,,7,,3,,1.0
2025-11-08T1100,2392A,115.0312,35.7636,濮阳市,环保局,细颗粒物(PM2.5),68,,28,49,43,35,,40,40,28,29,7,7,0.8,0.8
2025-11-08T1100,2394A,115.0574,35.7609,濮阳市,油田运输公司,细颗粒物(PM2.5),70,59,66,51,48,43,,43,43,23,25,9,9,1.0,1
2025-11-08T1100,3021A,115,35.7668,濮阳市,濮水河管理处,细颗粒物(PM2.5),57,61,51,40,31,34,,35,35,23,24,7,7,0.3,0.3
2025-11-08T1100,4216A,115.0924,35.7686,濮阳市,任丘路479号,,,,59,,50,33,,36,36,,30,,8,1.2,1.2
2025-11-08T1100,2601A,100.98,22.7633,普洱市,市环保局,,31,31,33,9,13,14,,5,5,8,8,5,5,0.8,0.7
2025-11-08T1100,2602A,100.9817,22.8322,普洱市,普洱第二中学,,30,30,25,21,12,11,,2,2,8,8,5,5,0.4,0.4
2025-11-08T1100,2262A,131.0518,45.8751,七台河市,新一中,,,,,,,,,,,,,,,,
2025-11-08T1100,3345A,131.0577,45.7879,七台河市,中波台,细颗粒物(PM2.5),83,80,117,61,112,46,,36,36,24,26,8,6,0.7,0.9
2025-11-08T1100,3637A,131.0176,45.7761,七台河市,人民广场,细颗粒物(PM2.5),69,67,142,50,116,62,,46,46,16,27,8,8,0.5,0.7
2025-11-08T1100,3684A,130.8781,45.8222,七台河市,新建矿广场,"颗粒物(PM10),细颗粒物(PM2.5)",65,80,102,47,68,45,,20,20,22,29,4,8,0.6,0.7
2025-11-08T1100,1779A,123.9305,47.3636,齐齐哈尔市,安居小区,细颗粒物(PM2.5),142,115,41,108,28,33,,44,38,22,15,6,5,0.7,0.4
2025-11-08T1100,1780A,123.9488,47.3386,齐齐哈尔市,中心广场,细颗粒物(PM2.5),140,,45,107,32,37,,46,42,24,18,6,6,0.6,0.4
2025-11-08T1100,1781A,123.9483,47.3227,齐齐哈尔市,农牧车辆厂,细颗粒物(PM2.5),89,119,45,66,21,32,,40,36,19,15,5,4,0.6,0.4
2025-11-08T1100,1783A,123.945,47.2988,齐齐哈尔市,市环境监测站,细颗粒物(PM2.5),117,135,46,88,28,35,,42,38,19,14,6,7,0.8,0.6
2025-11-08T1100,3662A,123.6333,47.2075,齐齐哈尔市,富区青少年活动中心,细颗粒物(PM2.5),213,,71,163,58,26,,33,32,19,20,5,6,0.9,0.7
2025-11-08T1100,2591A,107.9783,26.5747,黔东南苗族侗族自治州,市环境监测站,,10,,10,7,8,22,,25,24,8,5,3,3,0.7,0.6
2025-11-08T1100,2881A,107.8908,26.5311,黔东南苗族侗族自治州,凯里学院,,,,6,3,8,27,,23,23,9,8,3,3,0.6,0.5
2025-11-08T1100,2593A,107.5228,26.2403,黔南布依族苗族自治州,小围寨,,6,6,8,3,7,18,,12,12,8,6,5,4,0.6,0.5
2025-11-08T1100,3538A,107.5175,26.2978,黔南布依族苗族自治州,沙坝,,10,9,13,3,7,30,,22,22,8,8,4,4,0.8,0.7
2025-11-08T1100,2589A,104.9022,25.0925,黔西南布依族苗族自治州,场坝街,,13,13,23,6,13,28,,22,22,9,8,3,3,0.5,0.5
2025-11-08T1100,2590A,104.8811,25.0992,黔西南布依族苗族自治州,坪东大道,,,20,24,3,14,,,20,19,8,7,,2,0.5,0.5
2025-11-08T1100,2502A,108.6236,21.9667,钦州市,市环保站,,34,34,30,22,24,24,,27,21,14,15,4,3,0.5,0.7
2025-11-08T1100,2503A,108.6549,21.9481,钦州市,沙埠小学,,46,46,38,22,24,30,,27,23,8,10,7,5,0.5,0.5
2025-11-08T1100,2504A,108.5989,21.7431,钦州市,港区一小,,34,34,39,21,28,31,,23,20,15,25,5,5,0.6,0.8
2025-11-08T1100,3404A,108.5959,21.9633,钦州市,北职校,,40,40,30,22,26,27,,26,22,9,10,6,5,0.6,0.7
2025-11-08T1100,1043A,119.7493,40.0116,秦皇岛市,第一关,细颗粒物(PM2.5),115,118,50,87,32,26,,22,18,48,39,10,7,0.6,0.4
2025-11-08T1100,1044A,119.5897,39.9499,秦皇岛市,监测站,颗粒物(PM10),54,57,51,26,23,29,,26,20,46,32,11,8,0.9,0.4
2025-11-08T1100,1046A,119.5251,39.9041,秦皇岛市,建设大厦,颗粒物(PM10),56,62,48,26,26,34,,26,18,37,28,11,6,0.7,0.4
2025-11-08T1100,3132A,119.610547,39.943889,秦皇岛市,文明里,颗粒物(PM10),53,55,48,23,27,27,,27,22,42,24,13,10,0.7,0.3
2025-11-08T1100,4198A,119.5090,39.8253,秦皇岛市,北戴河轮滑馆,颗粒物(PM10),52,53,46,24,19,41,,29,24,21,15,5,4,0.7,0.4
2025-11-08T1100,1307A,120.6659,36.2403,青岛市,仰口,,,,,,,,,,,,,,,,
2025-11-08T1100,1310A,120.4134,36.0658,青岛市,市南区东部子站,,36,36,44,22,25,96,,84,78,4,6,7,7,0.3,0.4
2025-11-08T1100,1311A,120.3664,36.1032,青岛市,四方区子站,,28,24,38,19,34,83,,52,46,21,24,4,4,0.4,0.4
2025-11-08T1100,1312A,120.2994,36.054,青岛市,市南区西部子站,,39,27,42,27,26,87,,83,74,24,15,8,7,0.5,0.6
2025-11-08T1100,1313A,120.4581,36.0858,青岛市,崂山区子站,,36,36,44,17,22,96,,75,67,10,17,8,8,0.4,0.5
2025-11-08T1100,1315A,120.3999,36.3083,青岛市,城阳区子站,颗粒物(PM10),58,66,56,37,29,78,,80,79,15,12,4,4,0.7,0.6
2025-11-08T1100,3362A,120.5014,36.4034,青岛市,即墨2号,颗粒物(PM10),55,59,54,34,30,66,,81,70,19,16,4,4,0.6,0.5
2025-11-08T1100,3642A,120.3503,36.0736,青岛市,市北区南部,,37,37,42,17,26,86,,69,60,19,19,4,4,0.2,0.3
2025-11-08T1100,3643A,120.3948,36.1805,青岛市,李沧区北部,,36,36,55,22,36,79,,54,54,22,31,6,6,0.5,0.6
2025-11-08T1100,4290A,120.1969,35.9546,青岛市,珠江路669号,,41,41,40,24,28,74,,91,70,27,12,10,9,0.4,0.4
2025-11-08T1100,4291A,120.0424,35.8656,青岛市,黄岛区人民政府广场,,36,36,37,17,18,91,,100,96,28,12,6,5,0.6,0.7
2025-11-08T1100,1702A,113.0426,23.691,清远市,环保大楼,,,,,,,,,,,,,,,,
2025-11-08T1100,1703A,113.0208,23.7106,清远市,凤城街办,,43,34,36,30,26,34,,9,9,26,39,7,6,0.9,0.9
2025-11-08T1100,3025A,113.0477,23.6344,清远市,技师学院,,36,36,34,22,21,25,,8,8,29,33,6,6,0.5,0.5
2025-11-08T1100,3318A,112.9903,23.7403,清远市,清新太和,,45,40,36,31,26,48,,12,12,25,31,14,10,1.1,0.8
2025-11-08T1100,3455A,113.076,23.7198,清远市,清城东城,,21,21,33,13,20,30,,8,8,13,18,6,6,0.8,0.8
2025-11-08T1100,2661A,107.6325,35.7357,庆阳市,庆阳五中,颗粒物(PM10),65,80,54,23,25,56,,49,48,17,13,5,4,0.4,0.4
2025-11-08T1100,2662A,107.6364,35.7067,庆阳市,市环保局,颗粒物(PM10),65,80,54,23,21,67,,58,57,17,13,5,3,0.6,0.6
2025-11-08T1100,1916A,103.7897,25.5035,曲靖市,环境监测站,,,23,24,17,12,21,,15,10,16,12,6,5,,0
2025-11-08T1100,1917A,103.8,25.5364,曲靖市,烟厂办公区,,43,43,24,19,13,19,,18,10,22,14,3,4,0.5,0.3
2025-11-08T1100,3376A,103.7947,25.462,曲靖市,南苑二区,,32,32,23,7,10,29,,21,18,12,10,7,4,0.5,0.4
2025-11-08T1100,3377A,103.7444,25.5261,曲靖市,曲靖师范学院,,29,29,23,16,13,27,,12,9,10,11,2,2,0.4,0.3
2025-11-08T1100,1264A,118.8692,28.9398,衢州市,环保大楼,颗粒物(PM10),57,64,51,39,27,30,,7,7,30,36,5,5,0.6,0.6
2025-11-08T1100,1265A,118.8709,28.9666,衢州市,实验学校,细颗粒物(PM2.5),67,63,44,48,28,26,,6,6,32,33,7,7,0.6,0.5
2025-11-08T1100,1266A,118.8621,28.9808,衢州市,衢州学院,"颗粒物(PM10),细颗粒物(PM2.5)",55,59,46,39,26,29,,8,8,29,30,4,4,0.4,0.4
2025-11-08T1100,1611A,118.5819,24.9117,泉州市,涂山街,,28,26,37,13,19,89,,48,48,5,10,3,4,0.3,0.4
2025-11-08T1100,1612A,118.5972,24.8978,泉州市,津头埔,,28,18,33,10,18,88,,54,54,6,11,3,3,0.2,0.3
2025-11-08T1100,1613A,118.6663,24.9424,泉州市,万安,,29,24,34,10,15,91,,54,54,3,9,3,3,0.4,0.4
2025-11-08T1100,1614A,118.6117,24.9604,泉州市,清源山,,,,24,,14,,,88,,,6,,4,,0.4
2025-11-08T1100,3529A,118.6333,24.9264,泉州市,城华南路,,22,20,31,10,16,68,,40,40,5,10,3,4,0.3,0.3
2025-11-08T1100,2626A,88.8876,29.2718,日喀则市,日喀则监测站,颗粒物(PM10),51,52,35,21,17,39,,9,9,20,28,7,9,0.5,0.6
2025-11-08T1100,3726A,88.8781,29.2426,日喀则市,林业技术推广中心,,24,24,21,12,11,47,,22,22,18,16,6,6,0.4,0.4
2025-11-08T1100,1659A,119.471,35.4209,日照市,监测站,,42,41,40,29,24,59,,80,70,33,21,7,7,0.6,0.5
2025-11-08T1100,1660A,119.523,35.4216,日照市,市政府广场,,33,31,39,23,21,69,,91,82,20,10,9,8,0.8,0.7
2025-11-08T1100,1661A,119.5587,35.4044,日照市,港务局,,43,,34,30,26,80,,93,84,15,9,9,8,0.5,0.5
2025-11-08T1100,3507A,119.5328,35.4625,日照市,职业技术学院,,,39,38,27,22,,,88,83,18,12,7,5,0.8,0.8
2025-11-08T1100,3604A,119.3266,35.1044,日照市,岚山环保分局,细颗粒物(PM2.5),53,53,38,37,21,61,,102,88,38,20,25,9,2.9,0.9
2025-11-08T1100,1835A,111.1922,34.7752,三门峡市,市政府,,49,49,31,26,21,18,,11,10,28,32,11,7,0.5,0.7
2025-11-08T1100,1836A,111.1587,34.7942,三门峡市,开发区,,38,35,28,26,28,27,,17,17,21,24,7,5,0.3,0.5
2025-11-08T1100,1838A,111.143,34.7955,三门峡市,风景区,,38,38,21,24,16,30,,24,23,18,16,11,7,0.5,0.6
2025-11-08T1100,3039A,111.1911,34.7829,三门峡市,三门峡市第一小学,,44,44,33,20,18,21,,14,13,26,30,13,9,0.5,0.6
2025-11-08T1100,3598A,111.1,34.7167,三门峡市,富达温泉假日酒店,,41,41,41,23,25,30,,23,22,17,23,12,9,0.4,0.6
2025-11-08T1100,2324A,117.6211,26.2625,三明市,三钢,,28,23,28,19,19,56,,20,20,10,21,5,4,0.7,0.7
2025-11-08T1100,2325A,117.635,26.2714,三明市,三明二中,,30,25,27,21,19,53,,19,19,9,14,6,5,0.7,0.6
2025-11-08T1100,2326A,117.6028,26.2378,三明市,三元区政府,,32,,33,22,22,56,,15,15,14,24,11,4,1.1,1
2025-11-08T1100,2327A,117.7275,26.3108,三明市,洋溪,,,,22,,22,,,58,,,11,,13,,1.3
2025-11-08T1100,1876A,109.5078,18.2489,三亚市,河东子站,,20,20,19,8,9,38,,40,38,8,5,3,4,0.5,0.5
2025-11-08T1100,1877A,109.4964,18.2681,三亚市,河西子站,,17,17,23,7,8,46,,48,45,4,4,6,6,0.4,0.4
2025-11-08T1100,3540A,109.7348,18.3443,三亚市,君悦子站,,37,37,26,7,7,48,,46,46,2,4,4,4,0.4,0.4
2025-11-08T1100,2624A,91.7608,29.2313,山南市,山南监测站,,27,27,13,16,6,42,,29,28,13,14,5,5,0.4,0.4
2025-11-08T1100,2625A,91.7706,29.2436,山南市,山南人民医院,,20,20,12,9,6,48,,42,38,9,8,3,4,0.2,0.2
2025-11-08T1100,1674A,116.6794,23.3667,汕头市,金平子站,,28,25,31,14,17,88,,59,59,9,11,5,5,0.6,0.6
2025-11-08T1100,1675A,116.7244,23.3633,汕头市,龙湖子站,,27,,33,13,12,86,,58,58,6,8,9,8,0.6,0.6
2025-11-08T1100,1676A,116.7258,23.2775,汕头市,濠江子站,,34,34,32,23,20,88,,58,58,7,7,7,6,0.6,0.6
2025-11-08T1100,1677A,116.7519,23.4714,汕头市,澄海子站,,39,39,38,16,21,89,,49,49,7,12,9,7,0.5,0.6
2025-11-08T1100,1678A,116.6092,23.2539,汕头市,潮阳子站,,29,23,29,12,8,92,,65,65,8,7,7,5,0.4,0.4
2025-11-08T1100,3444A,116.454,23.2684,汕头市,潮南峡山,,29,25,33,14,16,92,,64,64,4,5,8,8,0.5,0.5
2025-11-08T1100,3624A,116.4069,23.2533,汕头市,潮南子站,,38,38,40,16,16,81,,60,60,11,9,6,5,0.6,0.6
2025-11-08T1100,1693A,115.3653,22.775,汕尾市,市环保局,,28,27,29,19,14,75,,65,63,6,6,5,5,0.5,0.5
2025-11-08T1100,1694A,115.3706,22.7898,汕尾市,市政府,,30,28,30,21,18,82,,66,63,9,9,7,7,0.5,0.4
2025-11-08T1100,1695A,115.3622,22.7925,汕尾市,新城中学,,26,26,29,18,13,80,,63,61,6,6,8,7,0.6,0.5
2025-11-08T1100,2645A,109.9154,33.8715,商洛市,监测站,,37,37,32,17,20,39,,29,28,20,20,3,2,0.6,0.6
2025-11-08T1100,3045A,109.9643,33.8471,商洛市,商州区中学,,44,44,34,24,23,39,,24,24,22,27,5,4,0.6,0.5
2025-11-08T1100,2408A,115.6702,34.4285,商丘市,环境监测站,细颗粒物(PM2.5),114,95,50,86,60,30,,32,29,23,17,3,2,0.6,0.5
2025-11-08T1100,2409A,115.6458,34.4045,商丘市,粮食局,细颗粒物(PM2.5),94,70,48,70,43,28,,32,29,23,16,2,2,0.7,0.6
2025-11-08T1100,2410A,115.6293,34.3948,商丘市,睢阳区环保局,细颗粒物(PM2.5),113,,44,85,54,29,,34,31,24,16,1,2,0.6,0.4
2025-11-08T1100,3171A,115.6071,34.4465,商丘市,梁园区档案局,细颗粒物(PM2.5),119,,41,90,54,28,,32,30,22,16,2,2,0.7,0.5
