timepoint,stationcode,longitude,latitude,area,positionname,primarypollutant,aqi,pm10,pm10_24h,pm2_5,pm2_5_24h,o3,o3_24h,o3_8h,o3_8h_24h,no2,no2_24h,so2,so2_24h,co,co_24h
2025-01-21T0700,2566A,102.1879,31.914,阿坝藏族羌族自治州,州农科所,,15,10,33,7,13,46,,,,8,14,5,7,0.9,0.9
2025-01-21T0700,2568A,102.2502,31.8896,阿坝藏族羌族自治州,马师校,,18,,21,12,14,32,,,,12,15,5,6,0.4,0.5
2025-01-21T0700,3994A,102.2165,31.9024,阿坝藏族羌族自治州,马尔康中学西区,,20,16,35,14,16,37,,,,11,14,4,4,0.3,0.4
2025-01-21T0700,2695A,80.292,41.1694,阿克苏地区,电视台,细颗粒物(PM2.5),83,95,104,61,68,62,,,,28,32,6,5,0.9,0.9
2025-01-21T0700,2696A,80.2613,41.1551,阿克苏地区,艺术中心,细颗粒物(PM2.5),94,104,107,70,65,42,,,,35,32,4,4,1.4,1.2
2025-01-21T0700,2204A,105.6467,38.8363,阿拉善盟,西城区西花园,,24,,29,14,18,76,,,,17,18,14,16,0.6,0.6
2025-01-21T0700,2205A,105.6985,38.8411,阿拉善盟,蒙二幼,,23,6,18,3,7,73,,,,13,13,2,2,0.2,0.3
2025-01-21T0700,2206A,105.724,38.8516,阿拉善盟,环保局新楼,,29,6,9,3,3,92,,,,4,5,12,12,0.5,0.5
2025-01-21T0700,2708A,88.1264,47.8517,阿勒泰地区,市站,,48,48,45,28,37,26,,,,44,46,11,10,0.5,0.6
2025-01-21T0700,2630A,80.1161,32.5,阿里地区,阿里监测站,,27,6,4,3,2,85,,,,2,2,10,8,0.6,0.6
2025-01-21T0700,3192A,80.0903,32.5028,阿里地区,阿里藏医院,,26,6,6,3,3,82,,,,1,4,6,7,0.5,0.6
2025-01-21T0700,2642A,109.0318,32.6537,安康市,香溪洞,细颗粒物(PM2.5),68,60,61,49,48,50,,,,14,16,12,10,0.8,0.8
2025-01-21T0700,2644A,109.0072,32.6975,安康市,汉滨区检察院,细颗粒物(PM2.5),73,61,73,53,51,23,,,,18,29,5,6,0.7,0.9
2025-01-21T0700,4054A,109.0325,32.6913,安康市,市邮政管理局,细颗粒物(PM2.5),74,72,88,54,60,11,,,,33,42,6,7,1.0,1.3
2025-01-21T0700,2291A,117.0809,30.5177,安庆市,环科院,细颗粒物(PM2.5),139,133,126,106,93,29,,,,69,44,10,13,1.2,1
2025-01-21T0700,2292A,117.0331,30.5119,安庆市,马山宾馆,细颗粒物(PM2.5),158,153,129,120,103,28,,,,65,43,11,13,1.3,1.1
2025-01-21T0700,2294A,116.9896,30.6145,安庆市,安庆大学,细颗粒物(PM2.5),135,130,140,103,101,18,,,,54,53,6,11,1.0,1.1
2025-01-21T0700,3173A,117.0598,30.5351,安庆市,市人大,细颗粒物(PM2.5),148,160,144,113,104,10,,,,86,50,8,12,1.2,1
2025-01-21T0700,3123A,105.9408,26.2431,安顺市,凤凰山,细颗粒物(PM2.5),67,63,67,48,53,103,,,,20,22,37,28,0.7,0.8
2025-01-21T0700,3124A,105.9439,26.2564,安顺市,金钟山,细颗粒物(PM2.5),64,59,62,46,52,107,,,,12,16,39,26,0.9,0.9
2025-01-21T0700,3125A,105.8983,26.2481,安顺市,娄家坡,细颗粒物(PM2.5),70,60,65,51,56,100,,,,15,18,33,26,0.8,0.9
2025-01-21T0700,1819A,114.3551,36.1017,安阳市,红庙街,细颗粒物(PM2.5),178,182,137,134,111,6,,,,63,46,10,11,2.6,1.5
2025-01-21T0700,1820A,114.361,36.0681,安阳市,银杏小区,细颗粒物(PM2.5),168,151,132,127,122,6,,,,55,50,5,11,1.3,1
2025-01-21T0700,3141A,114.3922,36.0878,安阳市,信访局,细颗粒物(PM2.5),209,197,154,159,124,6,,,,78,52,6,9,1.1,0.8
2025-01-21T0700,3669A,114.4705,36.0637,安阳市,左辅环卫站,细颗粒物(PM2.5),232,217,183,182,136,16,,,,61,43,9,12,1.2,1.1
2025-01-21T0700,3703A,114.2917,36.0949,安阳市,安钢职工学校,细颗粒物(PM2.5),209,166,146,159,144,7,,,,62,54,9,12,1.6,1.1
2025-01-21T0700,1748A,123.044,41.1196,鞍山市,深沟寺,细颗粒物(PM2.5),98,107,92,73,56,29,,,,39,50,12,19,1.1,1.7
2025-01-21T0700,1749A,123.011,41.0931,鞍山市,太阳城,细颗粒物(PM2.5),85,106,88,63,51,31,,,,37,42,7,14,1.0,1.6
2025-01-21T0700,1750A,123.0485,41.1442,鞍山市,太平,细颗粒物(PM2.5),97,114,141,72,89,17,,,,46,60,15,21,1.4,2.4
2025-01-21T0700,1751A,122.9642,41.0971,鞍山市,铁西三道街,细颗粒物(PM2.5),79,94,183,58,99,11,,,,58,76,23,27,2.0,2.8
2025-01-21T0700,1753A,123.022,41.0821,鞍山市,明达新区,颗粒物(PM10),88,125,98,63,56,35,,,,36,36,13,19,0.8,1.4
2025-01-21T0700,4201A,122.9446,41.0826,鞍山市,兴盛南路290号,颗粒物(PM10),72,93,162,51,102,22,,,,53,69,32,26,3.8,3
2025-01-21T0700,2195A,107.4212,40.761,巴彦淖尔市,附二中,颗粒物(PM10),61,71,107,35,45,23,,,,35,44,14,13,0.8,0.8
2025-01-21T0700,2196A,107.37,40.7372,巴彦淖尔市,市环保大楼,颗粒物(PM10),56,62,74,32,34,37,,,,22,35,8,8,0.5,0.7
2025-01-21T0700,1956A,86.1472,41.7538,巴音郭楞蒙古自治州,孔雀公园,细颗粒物(PM2.5),133,128,99,101,69,44,,,,33,42,4,5,1.3,1.1
2025-01-21T0700,1957A,86.1972,41.7166,巴音郭楞蒙古自治州,棉纺厂,细颗粒物(PM2.5),115,130,116,87,62,67,,,,28,50,3,4,1.1,1
2025-01-21T0700,1958A,86.2357,41.7173,巴音郭楞蒙古自治州,经济开发区,细颗粒物(PM2.5),83,94,82,61,55,82,,,,23,34,4,4,1.0,0.8
2025-01-21T0700,2914A,106.7677,31.8794,巴中市,苏山坪,细颗粒物(PM2.5),79,70,81,58,65,70,,,,12,17,3,4,0.6,0.6
2025-01-21T0700,3182A,106.7656,31.8545,巴中市,丽阳花园,细颗粒物(PM2.5),113,107,104,85,80,2,,,,28,36,4,4,1.0,1.1
2025-01-21T0700,3183A,106.7418,31.8654,巴中市,圣泉水务公司,细颗粒物(PM2.5),94,83,91,70,75,6,,,,33,38,4,4,0.9,0.9
2025-01-21T0700,3616A,106.7616,31.8344,巴中市,市中心医院,细颗粒物(PM2.5),130,113,107,99,92,2,,,,29,35,4,4,1.0,1
2025-01-21T0700,2235A,122.7911,45.6077,白城市,洮北区环保局,细颗粒物(PM2.5),148,,62,113,58,55,,,,23,19,8,7,0.8,0.5
2025-01-21T0700,2236A,122.8738,45.5725,白城市,市环保局,细颗粒物(PM2.5),159,129,74,121,64,50,,,,25,25,4,3,0.8,0.5
2025-01-21T0700,2231A,126.4219,41.9171,白山市,喜丰,颗粒物(PM10),69,87,83,47,45,24,,,,38,42,20,17,1.2,1.1
2025-01-21T0700,2232A,126.4077,41.9419,白山市,环保局,细颗粒物(PM2.5),79,86,77,58,43,12,,,,26,28,10,13,1.3,1.3
2025-01-21T0700,2647A,104.1724,36.5446,白银市,第三小学,细颗粒物(PM2.5),67,63,74,48,56,30,,,,37,41,32,61,1.2,1.2
2025-01-21T0700,2648A,104.1465,36.5482,白银市,动力公司,细颗粒物(PM2.5),58,42,60,41,48,41,,,,18,29,9,30,1.0,1.1
2025-01-21T0700,2512A,106.6103,23.9011,百色市,市监测站,细颗粒物(PM2.5),105,102,97,79,70,24,,,,37,32,14,18,1.0,1.1
2025-01-21T0700,2513A,106.6538,23.8859,百色市,市中心血站,细颗粒物(PM2.5),129,110,119,98,92,36,,,,40,40,28,24,1.0,1.1
2025-01-21T0700,3406A,106.6085,23.8798,百色市,祈福高中,细颗粒物(PM2.5),93,99,122,69,71,55,,,,28,43,12,14,0.8,0.9
2025-01-21T0700,2270A,117.396,32.939,蚌埠市,工人疗养院,细颗粒物(PM2.5),105,93,114,79,83,50,,,,44,54,10,12,1.0,0.9
2025-01-21T0700,2271A,117.3605,32.9427,蚌埠市,百货大楼,细颗粒物(PM2.5),97,95,108,72,79,40,,,,52,61,12,13,1.1,1
2025-01-21T0700,2273A,117.4185,32.8911,蚌埠市,蚌埠学院,细颗粒物(PM2.5),87,85,116,64,85,55,,,,34,47,13,14,0.8,0.7
2025-01-21T0700,2274A,117.3533,32.9673,蚌埠市,淮上区政府,细颗粒物(PM2.5),99,105,123,74,87,45,,,,38,57,12,15,1.0,0.9
2025-01-21T0700,2275A,117.3145,32.8977,蚌埠市,高新区,细颗粒物(PM2.5),108,102,124,81,92,54,,,,36,49,13,12,1.0,0.9
2025-01-21T0700,3715A,117.3092,32.9314,蚌埠市,蚌埠田家炳中学,细颗粒物(PM2.5),104,102,115,78,85,57,,,,34,54,16,16,1.1,1
2025-01-21T0700,1585A,109.8756,40.6532,包头市,市环境监测站,,37,37,101,13,51,18,,,,46,70,11,26,0.7,1.6
2025-01-21T0700,1587A,109.9991,40.5842,包头市,包头八中,颗粒物(PM10),56,61,115,38,65,9,,,,54,63,19,26,3.4,2.2
2025-01-21T0700,1588A,109.8538,40.6821,包头市,青山宾馆,,26,23,93,18,66,31,,,,28,62,8,22,0.6,1.8
2025-01-21T0700,1589A,109.8642,40.6288,包头市,惠龙物流,颗粒物(PM10),53,56,100,29,51,13,,,,56,69,14,27,1.1,1.8
2025-01-21T0700,1590A,110.0377,40.5546,包头市,东河鸿龙湾,细颗粒物(PM2.5),82,89,121,60,66,9,,,,55,61,12,25,2.4,2
2025-01-21T0700,3283A,109.9154,40.5685,包头市,滨河大厦,颗粒物(PM10),61,71,101,40,53,5,,,,75,71,21,26,1.8,2
2025-01-21T0700,3419A,109.9447,40.6261,包头市,包头市委党校,颗粒物(PM10),64,77,94,18,46,6,,,,70,70,18,24,1.0,2
2025-01-21T0700,3683A,109.8331,40.6576,包头市,昆区政府,,30,30,83,14,50,38,,,,29,60,11,26,0.7,1.8
2025-01-21T0700,1930A,107.185,34.3063,宝鸡市,庙沟村,细颗粒物(PM2.5),69,58,62,50,50,48,,,,31,30,6,7,0.8,0.8
2025-01-21T0700,1931A,107.0708,34.3017,宝鸡市,竹园沟,细颗粒物(PM2.5),57,42,60,40,48,27,,,,22,27,6,7,0.5,0.6
2025-01-21T0700,1932A,107.1906,34.3672,宝鸡市,三陆医院,细颗粒物(PM2.5),83,77,85,61,64,32,,,,42,42,6,7,0.8,0.8
2025-01-21T0700,1933A,107.1431,34.3547,宝鸡市,监测站,细颗粒物(PM2.5),73,65,89,53,58,17,,,,30,33,7,8,0.8,0.8
2025-01-21T0700,1934A,107.1186,34.3739,宝鸡市,技工学校,细颗粒物(PM2.5),90,71,85,67,62,25,,,,34,34,19,10,0.8,0.7
2025-01-21T0700,1935A,107.3906,34.3528,宝鸡市,陈仓区环保局家属楼,细颗粒物(PM2.5),117,112,118,88,88,14,,,,54,53,132,40,1.4,1
2025-01-21T0700,1936A,107.2058,34.3497,宝鸡市,文理学院,细颗粒物(PM2.5),82,81,80,60,57,31,,,,34,37,8,7,0.7,0.6
2025-01-21T0700,1937A,107.2386,34.3622,宝鸡市,三迪小学,细颗粒物(PM2.5),83,62,75,61,62,24,,,,43,48,8,8,0.8,0.8
2025-01-21T0700,1051A,115.493,38.8632,保定市,游泳馆,细颗粒物(PM2.5),112,109,126,84,88,5,,,,85,75,13,19,1.3,1.6
2025-01-21T0700,1052A,115.5213,38.8959,保定市,华电二区,细颗粒物(PM2.5),95,95,114,71,91,2,,,,69,67,3,11,0.9,1
2025-01-21T0700,1053A,115.4713,38.9108,保定市,接待中心,细颗粒物(PM2.5),85,91,120,63,87,6,,,,74,65,3,6,1.1,1.3
2025-01-21T0700,1054A,115.4612,38.8416,保定市,地表水厂,细颗粒物(PM2.5),105,108,144,79,88,12,,,,83,69,5,11,0.8,1.1
2025-01-21T0700,3581A,115.31981,38.95208,保定市,满城区生态环境分局,细颗粒物(PM2.5),83,114,145,61,93,9,,,,74,60,8,12,1.0,1.4
2025-01-21T0700,3582A,115.47694,38.76408,保定市,清苑区第二中学,细颗粒物(PM2.5),124,162,156,94,94,7,,,,91,78,11,16,0.9,1.2
2025-01-21T0700,3583A,115.62909,39.02311,保定市,徐水物探局,细颗粒物(PM2.5),79,85,128,58,92,1,,,,60,66,11,16,0.9,1.2
2025-01-21T0700,4004A,115.4202,38.8656,保定市,双鹰农机,细颗粒物(PM2.5),94,109,125,70,86,9,,,,77,62,3,9,1.1,1.4
2025-01-21T0700,4034A,115.5150,38.8590,保定市,植保所站,细颗粒物(PM2.5),109,141,131,82,91,3,,,,74,67,8,12,1.0,1.1
2025-01-21T0700,2594A,99.1678,25.1081,保山市,市环境监测站,,18,18,24,7,16,50,,,,5,9,5,5,0.5,0.5
2025-01-21T0700,2595A,99.1711,25.1328,保山市,市环保局,,36,,27,25,21,57,,,,3,7,6,6,0.3,0.4
2025-01-21T0700,1867A,109.1436,21.4086,北海市,海滩公园,细颗粒物(PM2.5),144,129,118,110,106,81,,,,34,29,14,13,1.5,1.4
2025-01-21T0700,1868A,109.0981,21.4661,北海市,新市环保局,细颗粒物(PM2.5),175,,123,132,115,99,,,,40,37,19,14,1.1,1
2025-01-21T0700,1869A,109.1778,21.5233,北海市,北海工业园,细颗粒物(PM2.5),153,,163,117,136,71,,,,27,41,27,18,1.1,1.3
2025-01-21T0700,3400A,109.1911,21.4415,北海市,龙潭自来水厂,细颗粒物(PM2.5),175,,117,132,124,28,,,,22,32,7,10,1.1,1
2025-01-21T0700,1001A,116.3621,39.8784,北京市,万寿西宫,,35,35,85,20,39,40,,,,31,57,6,8,0.4,0.7
2025-01-21T0700,1003A,116.4174,39.9289,北京市,东四,,32,32,70,18,41,39,,,,25,52,4,5,0.4,0.7
2025-01-21T0700,1004A,116.4072,39.8863,北京市,天坛,,28,28,72,16,46,51,,,,21,53,3,3,0.3,0.6
2025-01-21T0700,1005A,116.462,39.9365,北京市,农展馆,,32,32,76,17,41,51,,,,24,64,3,5,0.5,0.9
2025-01-21T0700,1006A,116.3392,39.9295,北京市,官园,细颗粒物(PM2.5),65,,77,47,45,30,,,,36,54,6,8,0.4,0.7
2025-01-21T0700,1007A,116.2878,39.9611,北京市,海淀万柳,颗粒物(PM10),51,51,66,27,33,4,,,,59,60,5,5,0.7,0.8
2025-01-21T0700,1008A,116.6636,40.135,北京市,顺义新城,,30,30,65,17,36,51,,,,16,52,1,4,0.2,0.5
2025-01-21T0700,1009A,116.6275,40.3275,北京市,怀柔镇,,41,41,49,25,27,25,,,,32,38,2,4,0.4,0.6
2025-01-21T0700,1010A,116.2296,40.217,北京市,昌平镇,,29,29,49,14,24,62,,,,12,38,2,3,0.5,0.6
2025-01-21T0700,1011A,116.3966,39.9821,北京市,奥体中心,,35,35,68,19,38,39,,,,29,55,4,7,0.4,0.7
2025-01-21T0700,3281A,115.9718,40.4529,北京市,延庆夏都,细颗粒物(PM2.5),58,64,73,41,43,4,,,,36,39,4,6,1.2,1
2025-01-21T0700,3417A,117.0709,40.1465,北京市,平谷新城,,46,46,97,31,63,32,,,,28,52,3,4,0.4,0.9
2025-01-21T0700,3418A,116.8336,40.4095,北京市,密云新城,,22,22,48,12,27,57,,,,6,29,1,3,0.2,0.4
2025-01-21T0700,3671A,116.088,39.9726,北京市,门头沟三家店,,47,47,64,26,27,22,,,,32,39,4,4,0.4,0.5
2025-01-21T0700,3672A,116.1541,39.8204,北京市,丰台云岗,,49,49,75,25,40,14,,,,53,57,5,6,0.4,0.5
2025-01-21T0700,3673A,116.6804,39.9081,北京市,通州东关,,47,47,94,27,59,6,,,,57,76,3,5,0.4,0.7
2025-01-21T0700,3674A,115.9577,39.7603,北京市,房山燕山,,45,44,58,31,41,25,,,,35,43,5,5,0.6,0.8
2025-01-21T0700,3675A,116.4672,39.7733,北京市,大兴旧宫,,31,31,90,15,50,28,,,,37,56,1,3,0.3,0.7
2025-01-21T0700,3694A,115.986,40.4563,北京市,延庆石河营,细颗粒物(PM2.5),64,70,74,46,45,4,,,,25,39,3,5,1.4,1
2025-01-21T0700,3695A,116.6151,40.3053,北京市,怀柔新城,,36,36,46,22,29,31,,,,19,30,2,3,0.4,0.4
2025-01-21T0700,3696A,116.2545,39.8768,北京市,丰台小屯,,44,44,78,23,42,8,,,,62,71,6,7,0.5,0.7
2025-01-21T0700,3697A,116.84,40.3844,北京市,密云镇,,19,19,60,10,31,59,,,,11,44,6,7,0.4,0.7
2025-01-21T0700,4182A,116.1942,39.91583,北京市,八角,颗粒物(PM10),53,56,76,28,38,4,,,,57,53,3,3,0.5,0.6
2025-01-21T0700,1761A,123.8275,41.3064,本溪市,大峪,颗粒物(PM10),74,98,105,49,60,8,,,,51,58,7,11,2.6,2.6
2025-01-21T0700,1762A,123.7567,41.3325,本溪市,溪湖,细颗粒物(PM2.5),87,117,133,64,74,6,,,,48,54,13,14,2.7,2.8
2025-01-21T0700,1763A,123.7169,41.3094,本溪市,彩屯,细颗粒物(PM2.5),99,109,106,74,75,6,,,,56,55,16,14,2.5,2.8
2025-01-21T0700,1764A,123.7669,41.2864,本溪市,东明,细颗粒物(PM2.5),82,107,114,60,65,4,,,,55,63,10,13,2.2,2.4
2025-01-21T0700,1765A,123.7992,41.2664,本溪市,新立屯,颗粒物(PM10),54,57,71,29,27,16,,,,62,64,11,10,2.4,2.1
2025-01-21T0700,1766A,123.8142,41.3472,本溪市,威宁,颗粒物(PM10),85,120,124,56,63,8,,,,40,44,4,6,2.0,2
2025-01-21T0700,2587A,105.2864,27.3125,毕节市,八中,细颗粒物(PM2.5),105,94,88,79,75,28,,,,26,23,9,10,1.2,1
2025-01-21T0700,2588A,105.31,27.2944,毕节市,师专,细颗粒物(PM2.5),113,98,83,85,72,39,,,,18,21,10,11,1.0,1
2025-01-21T0700,3537A,105.3631,27.3533,毕节市,长征村,细颗粒物(PM2.5),107,90,71,80,62,56,,,,14,14,18,13,1.0,0.9
2025-01-21T0700,1629A,118.0018,37.3617,滨州市,第二水厂,细颗粒物(PM2.5),147,163,99,112,64,8,,,,85,65,30,25,1.2,0.8
2025-01-21T0700,1630A,117.9776,37.393,滨州市,北中新校,细颗粒物(PM2.5),125,139,115,95,62,23,,,,70,73,26,25,0.8,0.7
2025-01-21T0700,3514A,117.9378,37.3956,滨州市,中海酒店,细颗粒物(PM2.5),117,124,96,88,67,29,,,,56,53,26,27,1.0,0.9
2025-01-21T0700,3515A,117.9378,37.3553,滨州市,开发区一中,细颗粒物(PM2.5),125,129,104,95,68,21,,,,79,72,34,29,1.0,0.8
2025-01-21T0700,3516A,118.0917,37.694,滨州市,金海六路,细颗粒物(PM2.5),117,124,97,88,64,5,,,,87,63,37,28,1.4,1.1
2025-01-21T0700,4028A,117.9956,37.3753,滨州市,滨州市西街道办事处,细颗粒物(PM2.5),128,132,100,97,69,4,,,,79,62,21,21,1.2,0.9
2025-01-21T0700,2311A,115.8072,33.8399,亳州市,污水处理厂,细颗粒物(PM2.5),176,161,137,133,100,28,,,,44,36,17,15,0.9,0.9
2025-01-21T0700,2312A,115.7789,33.8518,亳州市,三国揽胜宫,细颗粒物(PM2.5),192,161,143,144,100,27,,,,56,41,14,12,1.0,1
2025-01-21T0700,3332A,115.7633,33.8034,亳州市,亳州学院,细颗粒物(PM2.5),139,143,122,106,80,51,,,,35,32,9,10,1.0,0.9
2025-01-21T0700,2693A,82.0485,44.8556,博尔塔拉蒙古自治州,市党校,细颗粒物(PM2.5),95,116,117,71,74,44,,,,29,26,8,9,1.5,1.4
2025-01-21T0700,2694A,82.0806,44.8969,博尔塔拉蒙古自治州,市环保局,细颗粒物(PM2.5),93,121,132,69,69,45,,,,41,32,7,7,1.3,1.4
2025-01-21T0700,1071A,116.8842,38.2991,沧州市,沧县城建局,细颗粒物(PM2.5),158,156,107,120,77,9,,,,74,56,22,15,1.5,1
2025-01-21T0700,1072A,116.8584,38.3254,沧州市,电视转播站,细颗粒物(PM2.5),156,146,97,119,73,3,,,,80,57,17,15,1.4,1
2025-01-21T0700,1073A,116.8709,38.3228,沧州市,市环保局,细颗粒物(PM2.5),147,146,96,112,68,6,,,,67,48,19,15,1.1,0.8
2025-01-21T0700,3324A,116.8136,38.3004,沧州市,河北水利电力学院,细颗粒物(PM2.5),156,156,109,119,69,18,,,,56,49,30,22,1.1,0.8
2025-01-21T0700,2622A,97.1806,31.1273,昌都市,昌都监测站,,12,12,35,3,20,38,,,,6,21,6,7,0.8,1.3
2025-01-21T0700,3719A,97.1714,31.1406,昌都市,昌都会议中心,,15,12,18,6,8,45,,,,1,6,4,4,0.4,0.3
2025-01-21T0700,2690A,88.1236,43.8886,昌吉回族自治州,天山天池,,28,6,5,3,2,89,,,,2,2,7,6,0.5,0.5
2025-01-21T0700,2692A,87.2717,44.0297,昌吉回族自治州,新区政务中心,细颗粒物(PM2.5),242,255,322,192,261,13,,,,55,63,3,2,1.5,1.9
2025-01-21T0700,3613A,87.3095,44.0142,昌吉回族自治州,亚心广场,细颗粒物(PM2.5),267,256,309,217,273,30,,,,33,51,6,6,1.4,1.7
2025-01-21T0700,1119A,125.3325,43.9166,长春市,食品厂,细颗粒物(PM2.5),97,81,103,72,82,19,,,,51,55,12,13,0.9,1
2025-01-21T0700,1120A,125.2863,43.9027,长春市,客车厂,细颗粒物(PM2.5),102,,83,76,75,26,,,,48,48,13,15,0.8,0.8
2025-01-21T0700,1121A,125.2841,43.8463,长春市,邮电学院,细颗粒物(PM2.5),95,74,78,71,71,17,,,,60,37,21,12,1.0,0.9
2025-01-21T0700,1122A,125.3716,43.8772,长春市,劳动公园,细颗粒物(PM2.5),80,82,87,59,70,23,,,,56,49,16,11,0.9,0.9
2025-01-21T0700,1123A,125.3297,43.8805,长春市,园林处,细颗粒物(PM2.5),79,68,74,58,60,22,,,,51,40,16,18,0.7,0.7
2025-01-21T0700,1124A,125.4605,43.79,长春市,净月潭,细颗粒物(PM2.5),72,70,91,52,74,53,,,,17,16,7,8,0.7,0.6
2025-01-21T0700,1126A,125.3863,43.8447,长春市,经开区环卫处,细颗粒物(PM2.5),83,83,97,61,61,22,,,,45,47,11,12,1.2,1.1
2025-01-21T0700,1127A,125.245,43.7783,长春市,高新区管委会,细颗粒物(PM2.5),90,78,80,67,73,9,,,,62,43,9,9,1.2,1.2
2025-01-21T0700,1128A,125.1761,43.8325,长春市,岱山公园,细颗粒物(PM2.5),88,,79,65,65,27,,,,41,54,9,10,0.8,0.8
2025-01-21T0700,1335A,113.0833,28.2325,长沙市,经开区环保局,颗粒物(PM10),74,98,139,53,85,66,,,,30,55,8,6,0.6,0.9
2025-01-21T0700,1336A,112.8872,28.2189,长沙市,高开区环保局,细颗粒物(PM2.5),143,176,151,109,101,2,,,,100,67,6,7,1.4,1.1
2025-01-21T0700,1337A,113.0792,28.2053,长沙市,马坡岭,细颗粒物(PM2.5),160,165,151,122,108,2,,,,79,77,4,5,1.1,1
2025-01-21T0700,1338A,112.9394,28.19,长沙市,湖南师范大学,细颗粒物(PM2.5),107,113,130,80,91,22,,,,62,42,5,7,1.1,1
2025-01-21T0700,1339A,113.0178,28.1322,长沙市,雨花区环保局,细颗粒物(PM2.5),83,98,128,61,90,52,,,,48,65,6,7,0.8,1
2025-01-21T0700,1340A,112.9792,28.2597,长沙市,伍家岭,细颗粒物(PM2.5),158,158,159,120,108,0,,,,52,69,3,6,1.1,1
2025-01-21T0700,1341A,113.0014,28.1944,长沙市,火车新站,细颗粒物(PM2.5),132,165,165,100,117,5,,,,104,79,4,5,1.3,1.3
2025-01-21T0700,1342A,112.9844,28.1178,长沙市,天心区环保局,细颗粒物(PM2.5),103,108,129,77,96,41,,,,66,59,3,4,1.1,1.3
2025-01-21T0700,1343A,112.8908,28.1308,长沙市,湖南中医药大学,细颗粒物(PM2.5),128,146,143,97,105,2,,,,68,58,6,8,1.1,1.1
2025-01-21T0700,1344A,112.9581,28.3611,长沙市,沙坪,细颗粒物(PM2.5),79,69,92,58,87,73,,,,17,25,7,9,1.0,1.1
2025-01-21T0700,1727A,113.1147,36.1547,长治市,清华站,细颗粒物(PM2.5),83,107,67,61,39,2,,,,62,41,35,26,1.5,1.4
2025-01-21T0700,1730A,113.0886,36.2125,长治市,审计局,细颗粒物(PM2.5),83,81,80,61,55,3,,,,59,51,30,29,1.0,0.9
2025-01-21T0700,1731A,113.0844,36.1856,长治市,长治八中,细颗粒物(PM2.5),97,104,105,72,65,4,,,,61,49,28,25,1.1,1.1
2025-01-21T0700,2845A,113.1569,36.1911,长治市,德盛苑,细颗粒物(PM2.5),79,87,54,58,35,18,,,,62,30,40,19,1.1,1
2025-01-21T0700,3568A,113.06,36.0464,长治市,向阳小学,细颗粒物(PM2.5),99,105,74,74,43,7,,,,66,23,41,55,1.4,0.9
2025-01-21T0700,3569A,112.8792,36.3144,长治市,屯留一中,颗粒物(PM10),51,52,63,31,41,18,,,,61,63,15,26,0.8,1.1
2025-01-21T0700,4189A,113.1131,36.19948,长治市,英华南巷50号,细颗粒物(PM2.5),73,77,75,53,46,11,,,,59,51,27,26,0.9,1.2
2025-01-21T0700,4190A,113.2367,36.3344,长治市,学府街1号,细颗粒物(PM2.5),109,164,106,82,60,49,,,,56,48,44,21,4.1,1.7
2025-01-21T0700,1854A,111.6975,28.9703,常德市,市二中,细颗粒物(PM2.5),189,162,140,142,124,39,,,,18,33,3,5,0.9,0.8
2025-01-21T0700,3138A,111.7153,29.0289,常德市,武陵区永安,细颗粒物(PM2.5),192,187,142,144,112,43,,,,24,28,2,4,0.9,0.8
2025-01-21T0700,3139A,111.6892,28.9881,常德市,鼎城区玉霞,细颗粒物(PM2.5),176,175,162,133,121,8,,,,31,35,,9,1.0,0.9
2025-01-21T0700,3140A,111.6625,29.0531,常德市,武陵区长庚,细颗粒物(PM2.5),179,184,148,135,111,36,,,,28,28,1,4,0.9,0.7
2025-01-21T0700,1196A,119.9633,31.762,常州市,市监测站,细颗粒物(PM2.5),196,208,197,147,139,4,,,,112,102,11,14,1.9,1.3
2025-01-21T0700,1200A,119.9468,31.7069,常州市,武进监测站,细颗粒物(PM2.5),189,195,177,142,131,6,,,,110,88,12,14,1.4,1.3
2025-01-21T0700,1201A,119.9255,31.9087,常州市,安家,细颗粒物(PM2.5),178,181,185,134,138,4,,,,89,97,9,16,1.4,1.3
2025-01-21T0700,3002A,119.9805,31.8174,常州市,行政中心,细颗粒物(PM2.5),190,179,168,143,137,3,,,,96,87,16,20,1.2,1.2
2025-01-21T0700,3003A,120.0522,31.7748,常州市,经开区,细颗粒物(PM2.5),185,201,195,139,141,4,,,,93,96,11,15,1.1,1.1
2025-01-21T0700,3010A,119.9025,31.7964,常州市,钟楼,细颗粒物(PM2.5),195,199,178,146,132,4,,,,104,90,12,14,1.7,1.2
2025-01-21T0700,3429A,119.8598,31.7066,常州市,武进经发区,细颗粒物(PM2.5),212,213,187,162,136,11,,,,109,89,10,13,1.5,1.2
2025-01-21T0700,3430A,119.5826,31.7245,常州市,金坛城区,细颗粒物(PM2.5),229,229,159,179,121,2,,,,106,64,8,12,1.6,1.1
2025-01-21T0700,2220A,120.4318,41.5881,朝阳市,西梁,细颗粒物(PM2.5),93,76,80,69,56,10,,,,56,49,17,21,2.2,1.5
2025-01-21T0700,2221A,120.4521,41.5646,朝阳市,河畔小区,细颗粒物(PM2.5),74,81,89,54,61,9,,,,46,41,7,14,1.4,1.2
2025-01-21T0700,2222A,120.4176,41.5648,朝阳市,八里堡,细颗粒物(PM2.5),104,112,88,78,59,16,,,,44,42,9,18,1.9,1.4
2025-01-21T0700,2223A,120.3806,41.5969,朝阳市,农业园区,,49,,74,34,54,23,,,,38,38,8,19,0.9,1.2
2025-01-21T0700,1705A,116.6367,23.6719,潮州市,西园路,细颗粒物(PM2.5),53,46,52,37,34,41,,,,16,19,4,5,0.4,0.5
2025-01-21T0700,3026A,116.6183,23.6608,潮州市,市政府,,40,40,55,27,27,36,,,,25,22,3,4,0.5,0.5
2025-01-21T0700,4036A,116.6461,23.6761,潮州市,金山,,39,,44,27,29,36,,,,15,17,5,5,0.5,0.5
2025-01-21T0700,2472A,113.0073,25.9061,郴州市,马头岭,细颗粒物(PM2.5),60,67,77,43,40,56,,,,23,26,11,16,0.9,0.9
2025-01-21T0700,2473A,113.0116,25.8226,郴州市,市职中,细颗粒物(PM2.5),82,72,78,60,52,12,,,,31,30,6,10,0.9,0.8
2025-01-21T0700,2475A,113.0383,25.8071,郴州市,市审计局,细颗粒物(PM2.5),82,75,81,60,56,3,,,,48,43,5,9,1.4,1.4
2025-01-21T0700,2476A,113.0348,25.7759,郴州市,市环保局,细颗粒物(PM2.5),77,82,81,56,54,8,,,,56,48,14,16,0.8,0.9
2025-01-21T0700,1431A,103.9728,30.7236,成都市,金泉两河,细颗粒物(PM2.5),140,,95,107,74,3,,,,71,54,2,2,0.9,1
2025-01-21T0700,1432A,104.176,30.6872,成都市,十里店,细颗粒物(PM2.5),120,106,86,91,72,12,,,,60,38,2,2,0.6,0.6
2025-01-21T0700,1433A,104.079,30.5706,成都市,三瓦窑,细颗粒物(PM2.5),108,106,95,81,72,43,,,,44,48,3,2,0.7,0.7
2025-01-21T0700,1434A,104.1114,30.63,成都市,沙河铺,细颗粒物(PM2.5),108,97,89,81,73,30,,,,32,36,4,4,0.8,0.9
2025-01-21T0700,1437A,104.0786,30.6531,成都市,君平街,细颗粒物(PM2.5),122,93,83,92,78,64,,,,34,41,3,4,0.8,0.8
2025-01-21T0700,2880A,104.0239,30.65639,成都市,大石西路,细颗粒物(PM2.5),124,99,85,94,70,21,,,,64,44,4,4,1.2,1.2
2025-01-21T0700,3136A,104.2725,30.5589,成都市,龙泉驿区区政府,细颗粒物(PM2.5),104,92,85,78,68,51,,,,29,22,4,3,0.8,0.8
2025-01-21T0700,3357A,104.0106,30.6931,成都市,金博路,细颗粒物(PM2.5),107,107,86,80,65,1,,,,63,50,1,2,1.0,0.9
2025-01-21T0700,3359A,104.0578,30.5225,成都市,华阳,细颗粒物(PM2.5),110,95,87,83,73,19,,,,44,39,3,3,0.7,0.7
2025-01-21T0700,3488A,104.3853,30.7453,成都市,青白江技师分院,细颗粒物(PM2.5),139,,85,106,74,26,,,,41,26,4,4,0.8,0.7
2025-01-21T0700,3489A,104.0789,30.4072,成都市,科学城,细颗粒物(PM2.5),99,84,78,74,67,6,,,,28,21,4,4,0.8,0.8
2025-01-21T0700,4011A,103.8506,30.6947,成都市,光华大道三段,细颗粒物(PM2.5),123,114,100,93,77,0,,,,60,48,2,2,1.0,1
2025-01-21T0700,4224A,104.2433,30.5353,成都市,鲸龙路1057号,细颗粒物(PM2.5),115,116,95,87,72,2,,,,71,40,2,2,1.0,0.9
2025-01-21T0700,1062A,117.9531,40.9081,承德市,铁路,细颗粒物(PM2.5),64,73,73,46,45,5,,,,43,45,7,15,1.2,1.3
2025-01-21T0700,1063A,117.9392,40.9763,承德市,中国银行,颗粒物(PM10),62,74,79,40,43,3,,,,40,41,2,9,1.0,1.2
2025-01-21T0700,1064A,117.9503,40.928,承德市,开发区,细颗粒物(PM2.5),67,73,71,48,41,8,,,,42,42,6,12,1.2,1.3
2025-01-21T0700,1065A,117.8051,40.9655,承德市,文化中心,细颗粒物(PM2.5),89,109,106,66,56,5,,,,52,52,6,36,1.4,1.5
2025-01-21T0700,1066A,117.9268,41.0026,承德市,离宫,细颗粒物(PM2.5),69,62,63,50,47,14,,,,34,41,2,10,0.7,0.9
2025-01-21T0700,2314A,117.47,30.6618,池州市,池州学院,细颗粒物(PM2.5),134,120,139,102,110,16,,,,49,39,4,11,1.2,1.1
2025-01-21T0700,3237A,117.4918,30.6617,池州市,展览馆,细颗粒物(PM2.5),108,104,129,81,94,17,,,,43,39,4,9,1.1,1
2025-01-21T0700,3333A,117.5627,30.695,池州市,第八中学,细颗粒物(PM2.5),143,137,147,109,110,57,,,,29,32,5,11,1.1,1
2025-01-21T0700,3334A,117.5038,30.6243,池州市,第十二中学,细颗粒物(PM2.5),119,110,128,90,97,10,,,,52,48,2,8,1.7,1.4
2025-01-21T0700,1744A,118.9233,42.2816,赤峰市,松山一中,,43,40,41,30,18,16,,,,46,31,18,14,1.3,1
2025-01-21T0700,1745A,118.9576,42.2728,赤峰市,哈达街,,38,38,43,19,22,29,,,,33,35,9,13,1.0,0.9
2025-01-21T0700,1746A,118.8788,42.2554,赤峰市,天义路,,32,32,41,10,16,20,,,,30,26,8,11,0.8,0.6
2025-01-21T0700,3058A,119.2658,42.0353,赤峰市,银河街,,35,35,74,15,36,15,,,,44,32,20,22,1.5,1
2025-01-21T0700,3286A,118.9359,42.3147,赤峰市,桥北物流园区,,27,27,32,16,23,38,,,,31,32,8,11,0.5,0.6
2025-01-21T0700,2521A,107.3476,22.4136,崇左市,市环保局江州分局,细颗粒物(PM2.5),95,96,122,71,69,25,,,,30,38,4,6,1.0,1.1
2025-01-21T0700,2522A,107.3702,22.3707,崇左市,城南新区,细颗粒物(PM2.5),85,88,106,63,81,31,,,,39,39,5,8,0.9,1
2025-01-21T0700,2298A,118.3093,32.3153,滁州市,老年大学,细颗粒物(PM2.5),69,73,92,50,65,5,,,,49,56,3,5,0.8,0.8
2025-01-21T0700,2299A,118.3244,32.2786,滁州市,人大宾馆,细颗粒物(PM2.5),99,89,97,74,72,7,,,,66,63,8,10,1.1,1
2025-01-21T0700,3207A,118.3118,32.3038,滁州市,市政府原办公楼,细颗粒物(PM2.5),80,86,84,59,67,4,,,,58,55,5,7,0.7,0.7
2025-01-21T0700,3331A,118.3267,32.2634,滁州市,图书馆,细颗粒物(PM2.5),85,94,97,63,54,4,,,,70,59,8,9,1.0,0.9
2025-01-21T0700,2605A,101.5482,25.0441,楚雄彝族自治州,州环境监测站,,48,47,36,33,28,4,,,,27,23,10,9,0.7,0.7
2025-01-21T0700,2606A,101.538,25.0492,楚雄彝族自治州,市经济开发区,,48,36,38,33,28,8,,,,20,20,5,8,0.6,0.7
2025-01-21T0700,2548A,107.5277,31.2827,达州市,达州职业技术学院,细颗粒物(PM2.5),123,112,122,93,96,3,,,,22,32,5,7,0.8,1
2025-01-21T0700,2549A,107.5086,31.2186,达州市,市环境监测站,细颗粒物(PM2.5),117,107,124,88,91,4,,,,41,54,5,7,1.0,1.3
2025-01-21T0700,2550A,107.4988,31.2132,达州市,凤凰小区,细颗粒物(PM2.5),117,107,126,88,96,5,,,,40,53,7,10,0.9,1.2
2025-01-21T0700,2551A,107.5082,31.1986,达州市,达县机关宾馆,细颗粒物(PM2.5),122,114,138,92,96,3,,,,42,57,6,8,1.3,1.4
2025-01-21T0700,2552A,107.4644,31.2124,达州市,市政中心,细颗粒物(PM2.5),119,119,136,90,96,2,,,,48,63,3,8,0.9,1.5
2025-01-21T0700,2614A,100.1542,25.7054,大理白族自治州,大理市环境监测站,,21,19,21,8,14,67,,,,5,7,8,7,0.5,0.5
2025-01-21T0700,2615A,100.2171,25.5811,大理白族自治州,大理古城,,33,,23,23,16,53,,,,18,15,6,6,0.7,0.7
2025-01-21T0700,1109A,121.612,38.9741,大连市,甘井子,细颗粒物(PM2.5),99,75,47,74,32,23,,,,47,37,8,11,0.9,0.7
2025-01-21T0700,1110A,121.565,38.9511,大连市,周水子,细颗粒物(PM2.5),114,,45,86,36,25,,,,43,36,11,13,0.7,0.4
2025-01-21T0700,1111A,121.5637,38.8845,大连市,星海三站,细颗粒物(PM2.5),94,84,45,70,30,36,,,,36,26,10,14,1.0,0.6
2025-01-21T0700,1112A,121.6302,38.9117,大连市,青泥洼桥,细颗粒物(PM2.5),94,104,49,70,30,29,,,,33,23,15,16,1.0,0.7
2025-01-21T0700,1113A,121.6251,38.8638,大连市,傅家庄,细颗粒物(PM2.5),75,80,45,55,26,38,,,,14,15,13,13,0.9,0.7
2025-01-21T0700,1114A,121.5213,38.8661,大连市,七贤岭,细颗粒物(PM2.5),88,89,42,65,28,40,,,,31,24,9,10,0.8,0.7
2025-01-21T0700,1115A,121.2529,38.8061,大连市,旅顺,细颗粒物(PM2.5),105,103,43,79,31,29,,,,40,25,9,10,1.0,0.8
2025-01-21T0700,1116A,121.7485,39.1311,大连市,金州,细颗粒物(PM2.5),97,103,57,72,37,28,,,,44,35,11,12,1.2,0.9
2025-01-21T0700,1117A,121.7811,39.0496,大连市,开发区,细颗粒物(PM2.5),89,76,55,66,36,25,,,,50,45,13,15,0.7,0.6
2025-01-21T0700,1118A,121.9762,39.0631,大连市,双D港,细颗粒物(PM2.5),78,74,48,57,30,55,,,,27,29,10,12,0.9,0.8
2025-01-21T0700,1789A,124.81117,46.03138,大庆市,大同区,细颗粒物(PM2.5),212,185,183,162,156,40,,,,39,48,8,15,1.3,1.3
2025-01-21T0700,1790A,125.129,46.533,大庆市,龙凤区,细颗粒物(PM2.5),139,121,167,106,134,51,,,,45,44,8,9,1.1,1.2
2025-01-21T0700,1791A,124.902,46.408,大庆市,红岗区,细颗粒物(PM2.5),144,123,170,110,144,46,,,,39,41,9,9,1.0,1.3
2025-01-21T0700,1792A,125.153,46.586,大庆市,萨尔图区,细颗粒物(PM2.5),159,133,175,121,153,64,,,,33,45,7,8,0.9,1.1
2025-01-21T0700,1793A,124.9042,46.6215,大庆市,让胡路区,细颗粒物(PM2.5),169,145,153,128,134,50,,,,33,53,9,10,1.1,1.1
2025-01-21T0700,3481A,125.141,46.634,大庆市,萨区政府监测点,细颗粒物(PM2.5),163,150,174,124,143,58,,,,37,37,5,6,1.1,1.2
2025-01-21T0700,1723A,113.2994,40.0758,大同市,云冈宾馆,颗粒物(PM10),70,90,85,42,38,4,,,,52,48,30,25,1.7,1.4
2025-01-21T0700,1724A,113.3444,40.0917,大同市,大同大学,,50,50,63,30,32,13,,,,48,45,27,25,1.1,0.9
2025-01-21T0700,1725A,113.2661,40.1269,大同市,安家小村,颗粒物(PM10),69,88,84,45,34,9,,,,44,39,26,25,1.9,1.7
2025-01-21T0700,1726A,113.2711,40.0844,大同市,教育学院,颗粒物(PM10),71,92,84,42,39,6,,,,58,51,38,28,1.3,1.5
2025-01-21T0700,3282A,113.3397,40.0597,大同市,大同市卫生学校,细颗粒物(PM2.5),59,62,70,42,32,12,,,,52,48,27,24,1.9,1.2
2025-01-21T0700,3565A,113.1367,40.1122,大同市,云冈站,颗粒物(PM10),68,86,71,44,31,7,,,,51,44,42,32,1.3,0.8
2025-01-21T0700,3566A,113.1186,40.2556,大同市,图书馆,"颗粒物(PM10),细颗粒物(PM2.5)",60,70,64,43,40,13,,,,22,24,9,18,1.3,0.9
2025-01-21T0700,3567A,113.5931,40.0461,大同市,区一中,颗粒物(PM10),80,110,91,26,34,40,,,,26,43,13,30,0.9,1.1
2025-01-21T0700,4199A,113.2798,40.0997,大同市,魏都大道141号,颗粒物(PM10),85,120,102,49,47,7,,,,54,49,38,32,2.0,1.9
2025-01-21T0700,2269A,124.1069,50.4097,大兴安岭地区,科技局,细颗粒物(PM2.5),54,46,53,38,37,54,,,,14,14,7,9,0.5,0.5
2025-01-21T0700,3663A,124.1164,50.4278,大兴安岭地区,红旗社区,细颗粒物(PM2.5),70,51,49,51,41,11,,,,43,25,14,8,0.8,0.7
2025-01-21T0700,1600A,124.3303,40.0625,丹东市,江湾东路,细颗粒物(PM2.5),130,139,115,99,85,7,,,,52,42,22,16,2.7,1.8
2025-01-21T0700,1601A,124.4256,40.1503,丹东市,临江后街,细颗粒物(PM2.5),114,130,117,86,72,8,,,,63,35,33,14,1.8,1.3
2025-01-21T0700,1602A,124.3933,40.1461,丹东市,元宝山,细颗粒物(PM2.5),120,129,93,91,63,9,,,,55,31,13,13,2.2,1.4
2025-01-21T0700,1603A,124.3633,40.1092,丹东市,民主桥,细颗粒物(PM2.5),118,117,101,89,74,5,,,,69,46,12,14,1.7,1.4
2025-01-21T0700,3541A,109.5726,19.5167,儋州市,第一中学子站,,39,37,44,27,29,114,,,,10,13,5,6,0.5,0.5
2025-01-21T0700,3542A,109.5567,19.5187,儋州市,东坡学校子站,,46,39,45,32,32,103,,,,11,12,6,6,0.7,0.6
2025-01-21T0700,2616A,98.5842,24.428,德宏傣族景颇族自治州,德宏州监测站,细颗粒物(PM2.5),54,,49,38,34,11,,,,29,25,7,8,0.8,0.8
2025-01-21T0700,3677A,98.5881,24.4368,德宏傣族景颇族自治州,芒市人民政府综合楼,,36,36,46,23,26,14,,,,16,16,4,6,0.5,0.5
2025-01-21T0700,1901A,104.4239,31.1208,德阳市,东山公园,细颗粒物(PM2.5),134,105,94,102,81,44,,,,19,21,2,2,1.0,0.9
2025-01-21T0700,1902A,104.3826,31.1317,德阳市,西小区,细颗粒物(PM2.5),135,119,111,103,93,44,,,,23,42,3,2,0.9,0.9
2025-01-21T0700,1904A,104.3553,31.1091,德阳市,耐火材料厂,细颗粒物(PM2.5),140,107,101,107,92,10,,,,46,39,4,5,1.0,1
2025-01-21T0700,3639A,104.4019,31.1244,德阳市,市教育局,细颗粒物(PM2.5),134,104,94,102,86,41,,,,25,41,4,4,0.9,0.9
2025-01-21T0700,1622A,116.3032,37.4674,德州市,儿童乐园,细颗粒物(PM2.5),153,168,124,117,73,30,,,,62,46,23,17,1.4,1
2025-01-21T0700,1624A,116.2991,37.4451,德州市,监理站,细颗粒物(PM2.5),153,158,117,117,73,30,,,,60,52,29,24,1.4,1
2025-01-21T0700,3066A,116.2721,37.4379,德州市,九衢泉纯净水厂,细颗粒物(PM2.5),160,171,124,122,77,19,,,,68,54,25,21,1.3,0.9
2025-01-21T0700,3371A,116.3728,37.4403,德州市,开发区人民医院,细颗粒物(PM2.5),156,168,125,119,74,42,,,,48,47,22,20,1.3,1
2025-01-21T0700,3372A,116.3572,37.4094,德州市,太阳城中学,细颗粒物(PM2.5),160,161,128,122,83,39,,,,48,55,24,21,1.4,1
2025-01-21T0700,3511A,116.5652,37.3319,德州市,陵城艺术中心,细颗粒物(PM2.5),144,153,118,110,69,22,,,,61,45,19,19,1.3,1.1
2025-01-21T0700,2621A,99.7056,27.8317,迪庆藏族自治州,迪庆州站,,20,20,27,9,15,46,,,,8,13,8,8,0.4,0.6
2025-01-21T0700,3180A,99.7136,27.8094,迪庆藏族自治州,质量技术监督局,,33,23,24,23,14,45,,,,11,12,8,8,0.4,0.4
2025-01-21T0700,2663A,104.6241,35.5734,定西市,东关小学,细颗粒物(PM2.5),89,105,82,66,51,0,,,,25,26,15,21,1.7,1.3
2025-01-21T0700,2664A,104.6194,35.5934,定西市,供电公司,细颗粒物(PM2.5),93,111,80,69,48,2,,,,38,43,16,20,2.6,1.8
2025-01-21T0700,1389A,113.7547,23.0494,东莞市,莞城梨川,细颗粒物(PM2.5),70,86,80,51,46,29,,,,58,64,6,6,0.9,1.1
2025-01-21T0700,1390A,113.7944,23.0128,东莞市,东城石井,细颗粒物(PM2.5),69,77,62,50,39,7,,,,71,56,6,7,0.7,0.7
2025-01-21T0700,1391A,113.7383,22.9658,东莞市,南城西平,颗粒物(PM10),75,99,81,54,45,3,,,,100,80,4,3,0.9,0.8
2025-01-21T0700,3319A,113.7338,23.0381,东莞市,万江金泰,细颗粒物(PM2.5),68,84,79,49,44,12,,,,67,64,9,10,1.2,1.3
2025-01-21T0700,3626A,113.7533,23.0202,东莞市,南城元岭,细颗粒物(PM2.5),70,86,74,51,42,16,,,,71,63,7,8,0.9,0.9
2025-01-21T0700,3627A,113.7875,23.0457,东莞市,东城主山,"颗粒物(PM10),细颗粒物(PM2.5)",65,80,78,47,45,26,,,,56,64,8,9,0.8,0.9
2025-01-21T0700,1666A,118.6614,37.4309,东营市,市环保局,细颗粒物(PM2.5),107,129,91,80,56,5,,,,72,54,35,22,1.3,0.9
2025-01-21T0700,3036A,118.6904,37.4338,东营市,开发区管委会,细颗粒物(PM2.5),110,122,94,83,60,5,,,,82,66,26,20,1.4,1
2025-01-21T0700,3365A,118.5719,37.565,东营市,垦利区民丰路,细颗粒物(PM2.5),107,117,89,80,55,3,,,,85,63,39,25,1.1,0.8
2025-01-21T0700,3498A,118.5055,37.8612,东营市,河口城区,细颗粒物(PM2.5),102,129,101,76,62,10,,,,86,55,14,6,1.5,1.2
2025-01-21T0700,3646A,118.4978,37.4623,东营市,胜利站,细颗粒物(PM2.5),119,125,101,90,62,4,,,,88,66,36,33,1.8,1.3
2025-01-21T0700,3734A,118.35,37.26,东营市,理想之城,细颗粒物(PM2.5),100,129,97,75,61,7,,,,77,64,16,11,1.3,0.9
2025-01-21T0700,1591A,110.0023,39.8129,鄂尔多斯市,综合楼,颗粒物(PM10),52,53,49,31,23,35,,,,47,42,24,19,1.5,1.1
2025-01-21T0700,1592A,109.9486,39.8261,鄂尔多斯市,巴音孟克林场办事处,,46,46,45,27,22,43,,,,35,41,22,14,1.0,0.7
2025-01-21T0700,1593A,109.7736,39.5986,鄂尔多斯市,康泽苑,颗粒物(PM10),52,53,37,22,18,16,,,,34,34,6,8,0.7,0.6
2025-01-21T0700,1594A,109.8119,39.5989,鄂尔多斯市,华泰汽车城,,36,36,36,19,18,9,,,,37,40,6,8,0.6,0.6
2025-01-21T0700,1595A,109.9734,39.7884,鄂尔多斯市,奥林花园,,46,46,55,24,24,6,,,,70,54,12,11,1.2,0.9
2025-01-21T0700,2436A,114.8938,30.3994,鄂州市,市政府,细颗粒物(PM2.5),144,134,143,110,117,76,,,,59,68,25,17,1.3,1.5
2025-01-21T0700,3654A,114.8094,30.4089,鄂州市,精准医疗中心,细颗粒物(PM2.5),144,131,144,110,119,66,,,,52,56,28,27,1.2,1.5
2025-01-21T0700,2454A,109.4978,30.2981,恩施土家族苗族自治州,湖北民院,细颗粒物(PM2.5),115,,88,87,95,3,,,,46,46,7,8,1.0,1
2025-01-21T0700,2455A,109.4707,30.2798,恩施土家族苗族自治州,州电力总公司,细颗粒物(PM2.5),138,105,113,105,98,7,,,,14,30,8,8,1.2,1.3
2025-01-21T0700,3549A,109.5061,30.3772,恩施土家族苗族自治州,龙凤新区,细颗粒物(PM2.5),78,70,78,57,61,6,,,,18,23,6,6,0.9,1
2025-01-21T0700,2499A,108.3411,21.6158,防城港市,沙万,细颗粒物(PM2.5),189,,109,142,85,41,,,,56,36,24,15,2.0,1.3
2025-01-21T0700,2500A,108.3514,21.7731,防城港市,防城档案局,细颗粒物(PM2.5),113,140,127,85,78,22,,,,46,39,6,9,1.1,0.9
2025-01-21T0700,2501A,108.3506,21.6414,防城港市,大海花园,细颗粒物(PM2.5),158,130,107,120,92,48,,,,35,34,8,10,1.9,1.7
2025-01-21T0700,1371A,113.1294,23.0067,佛山市,湾梁,细颗粒物(PM2.5),92,107,81,68,43,4,,,,118,87,8,8,1.0,0.7
2025-01-21T0700,1372A,113.1083,23.0478,佛山市,华材职中,细颗粒物(PM2.5),102,114,91,76,57,2,,,,114,89,9,9,1.3,1.1
2025-01-21T0700,1373A,113.144,23.0453,佛山市,南海气象局,细颗粒物(PM2.5),85,97,74,63,50,2,,,,93,63,8,8,1.2,0.9
2025-01-21T0700,1374A,113.2881,22.8094,佛山市,顺德苏岗,细颗粒物(PM2.5),94,93,83,70,56,0,,,,94,72,9,10,1.0,0.9
2025-01-21T0700,1376A,112.8383,22.8678,佛山市,高明孔堂,"颗粒物(PM10),细颗粒物(PM2.5)",54,58,56,38,36,62,,,,19,26,6,9,0.7,0.7
2025-01-21T0700,1377A,112.8836,23.1588,佛山市,三水监测站,细颗粒物(PM2.5),80,95,79,59,50,2,,,,95,78,12,12,1.0,0.9
2025-01-21T0700,1378A,112.867,23.185,佛山市,三水云东海,细颗粒物(PM2.5),75,67,66,55,46,17,,,,66,65,10,11,0.9,0.9
2025-01-21T0700,3625A,113.2544,22.7642,佛山市,容桂街道办,细颗粒物(PM2.5),83,112,98,61,57,9,,,,81,83,8,10,1.0,1
2025-01-21T0700,1282A,119.2681,26.0504,福州市,师大,细颗粒物(PM2.5),60,50,47,43,37,80,,,,26,25,3,4,0.6,0.6
2025-01-21T0700,1283A,119.2984,26.1028,福州市,五四北路,细颗粒物(PM2.5),68,52,44,49,37,79,,,,30,27,1,2,0.7,0.6
2025-01-21T0700,1284A,119.2648,26.0768,福州市,杨桥西路,细颗粒物(PM2.5),59,52,48,42,35,91,,,,22,25,2,2,0.6,0.5
2025-01-21T0700,1285A,119.317,26.0746,福州市,紫阳,细颗粒物(PM2.5),68,51,51,49,40,84,,,,28,38,5,5,0.8,0.7
2025-01-21T0700,3048A,119.5799,26.0936,福州市,九龙,细颗粒物(PM2.5),73,,41,53,40,107,,,,12,14,4,3,0.8,0.7
2025-01-21T0700,3526A,119.5189,25.9664,福州市,吴航,细颗粒物(PM2.5),82,81,65,60,41,41,,,,57,32,5,3,0.9,0.6
2025-01-21T0700,1755A,123.7977,41.8491,抚顺市,望花区,细颗粒物(PM2.5),93,95,131,69,76,8,,,,51,55,5,9,1.4,1.4
2025-01-21T0700,1756A,123.9161,41.8822,抚顺市,顺城区,细颗粒物(PM2.5),102,106,104,76,67,12,,,,50,54,10,11,1.6,1.5
2025-01-21T0700,1757A,124.0436,41.8611,抚顺市,东洲区,细颗粒物(PM2.5),112,,82,84,55,18,,,,36,32,13,13,1.2,1.1
2025-01-21T0700,1758A,123.9247,41.8642,抚顺市,新抚区,细颗粒物(PM2.5),93,107,104,69,65,11,,,,39,49,5,8,1.4,1.4
2025-01-21T0700,1759A,124.0972,41.8961,抚顺市,大伙房水库,细颗粒物(PM2.5),72,57,59,52,47,13,,,,44,27,9,10,0.9,0.9
2025-01-21T0700,1760A,123.7086,41.8391,抚顺市,沈抚新城,细颗粒物(PM2.5),73,66,105,53,68,8,,,,48,53,4,10,1.5,1.8
2025-01-21T0700,2376A,116.2127,28.0814,抚州市,桐源党溪,细颗粒物(PM2.5),62,63,75,44,50,22,,,,12,8,3,3,0.6,0.5
2025-01-21T0700,2377A,116.3544,27.9831,抚州市,市站,细颗粒物(PM2.5),79,84,89,58,59,22,,,,47,39,10,18,1.1,1
2025-01-21T0700,2378A,116.3565,27.963,抚州市,血防站,细颗粒物(PM2.5),67,80,88,48,57,33,,,,33,30,5,8,1.1,1.2
2025-01-21T0700,2379A,116.3564,28.0007,抚州市,采茶剧团,细颗粒物(PM2.5),87,88,85,64,60,4,,,,47,33,6,8,1.9,1.9
2025-01-21T0700,2380A,116.385,27.9647,抚州市,医学分院,颗粒物(PM10),64,77,89,45,57,18,,,,44,32,5,8,1.1,1.1
2025-01-21T0700,2207A,121.6094,41.998,阜新市,工业园区,,39,39,100,18,50,32,,,,31,37,14,23,0.6,0.9
2025-01-21T0700,2208A,121.6697,42.0279,阜新市,长青街,,44,44,82,19,44,32,,,,23,33,6,18,0.5,1
2025-01-21T0700,2209A,121.6673,42.0705,阜新市,农业园区,,19,13,59,7,32,58,,,,7,17,14,26,0.1,0.4
2025-01-21T0700,2210A,121.6717,42.0224,阜新市,东苑,,36,36,92,13,55,36,,,,26,37,5,24,0.4,1.2
2025-01-21T0700,2211A,121.6506,42.0498,阜新市,玉龙新城,颗粒物(PM10),53,56,88,34,47,26,,,,34,37,8,18,0.9,1.2
2025-01-21T0700,2301A,115.8277,32.8929,阜阳市,市监测站,细颗粒物(PM2.5),158,142,146,120,120,22,,,,71,55,7,11,0.8,0.8
2025-01-21T0700,2303A,115.8554,32.8605,阜阳市,开发区,细颗粒物(PM2.5),139,172,165,106,105,16,,,,60,42,10,13,0.9,0.9
2025-01-21T0700,2875A,115.784,32.8892,阜阳市,阜阳职业技术学院,细颗粒物(PM2.5),132,125,131,100,99,66,,,,30,34,11,13,0.8,0.9
2025-01-21T0700,3468A,115.7901,32.8613,阜阳市,市规划展馆,细颗粒物(PM2.5),144,135,142,110,110,70,,,,27,34,10,11,0.8,0.9
2025-01-21T0700,3469A,115.836,32.9183,阜阳市,枣园社区,细颗粒物(PM2.5),173,142,148,131,114,20,,,,62,41,7,9,0.8,0.8
2025-01-21T0700,2669A,102.9099,34.9841,甘南藏族自治州,州政府,,41,41,51,28,29,6,,,,33,28,13,15,0.7,0.7
2025-01-21T0700,3380A,102.8914,34.9617,甘南藏族自治州,甘肃民族师范学院,,38,38,51,16,16,13,,,,36,31,4,7,0.4,0.5
2025-01-21T0700,2570A,101.9603,30.0475,甘孜藏族自治州,水桥子,,23,23,40,3,14,24,,,,26,18,2,3,0.5,0.5
2025-01-21T0700,3065A,101.9533,29.9972,甘孜藏族自治州,州环保局,,28,28,37,3,8,59,,,,4,8,4,4,0.3,0.4
2025-01-21T0700,3414A,115.8347,28.932,赣江新区,桑海产业园,细颗粒物(PM2.5),80,85,102,59,68,5,,,,74,62,14,14,0.8,0.8
2025-01-21T0700,2362A,114.9017,25.9149,赣州市,通天岩,,39,33,44,27,30,33,,,,14,15,6,10,0.6,0.5
2025-01-21T0700,2363A,114.9367,25.8664,赣州市,地委,颗粒物(PM10),54,57,60,28,33,33,,,,22,34,4,5,1.1,1.2
2025-01-21T0700,2364A,114.9461,25.8481,赣州市,气象台,颗粒物(PM10),57,64,74,25,31,31,,,,38,53,7,10,0.8,0.9
2025-01-21T0700,2365A,114.9322,25.8333,赣州市,市图书馆,颗粒物(PM10),56,62,68,36,37,20,,,,43,55,6,5,0.8,1
2025-01-21T0700,2366A,114.8905,25.8471,赣州市,华坚鞋城,颗粒物(PM10),65,80,75,38,40,14,,,,49,43,9,8,0.5,0.5
2025-01-21T0700,3109A,115.0093,25.8613,赣州市,赣县区卫计委,,,40,57,30,35,,,,,33,35,3,5,0.6,0.6
2025-01-21T0700,2683A,106.2319,36.1417,固原市,马园,颗粒物(PM10),64,78,66,45,35,8,,,,54,43,8,10,1.2,0.9
2025-01-21T0700,2684A,106.2792,36.0022,固原市,监测站,颗粒物(PM10),54,57,60,36,39,31,,,,38,38,11,12,1.4,1.1
2025-01-21T0700,2685A,106.2375,36.0211,固原市,新区,颗粒物(PM10),62,73,72,40,40,32,,,,39,53,6,7,0.7,1.2
2025-01-21T0700,3522A,106.2177,35.9959,固原市,原州区十五小,颗粒物(PM10),55,60,50,37,26,50,,,,28,19,7,8,0.8,0.6
2025-01-21T0700,2544A,106.6303,30.4576,广安市,市委,细颗粒物(PM2.5),139,122,132,106,103,44,,,,18,31,4,5,1.0,1.1
2025-01-21T0700,2545A,106.6271,30.4663,广安市,友谊中学,细颗粒物(PM2.5),135,123,128,103,102,34,,,,23,31,4,6,1.1,1.1
2025-01-21T0700,2547A,106.6388,30.4551,广安市,广电花园,细颗粒物(PM2.5),153,117,127,117,108,37,,,,19,32,3,4,1.1,1.2
2025-01-21T0700,2902A,106.6351,30.4865,广安市,北辰小学,细颗粒物(PM2.5),129,118,121,98,103,19,,,,23,26,5,6,1.1,1.1
2025-01-21T0700,2523A,105.8945,32.4535,广元市,黑石坡,细颗粒物(PM2.5),77,87,93,56,61,23,,,,15,18,5,4,0.6,0.7
2025-01-21T0700,2524A,105.821,32.4444,广元市,老城,细颗粒物(PM2.5),90,96,103,67,67,0,,,,41,42,1,2,0.7,0.8
2025-01-21T0700,2526A,105.8628,32.4287,广元市,监测站,细颗粒物(PM2.5),92,74,85,68,67,10,,,,30,38,5,7,0.6,1.1
2025-01-21T0700,3617A,105.8047,32.4166,广元市,经开区,细颗粒物(PM2.5),124,121,110,94,91,3,,,,35,42,6,7,1.3,1.2
2025-01-21T0700,1345A,113.2347,23.1423,广州市,广雅中学,颗粒物(PM10),90,130,99,63,53,3,,,,118,88,5,5,1.2,1.1
2025-01-21T0700,1346A,113.2612,23.105,广州市,市五中,细颗粒物(PM2.5),94,116,93,70,60,1,,,,117,77,6,5,1.1,1.1
2025-01-21T0700,1348A,113.3478,23.0916,广州市,广东商学院,细颗粒物(PM2.5),93,120,90,69,51,2,,,,107,80,7,6,1.3,0.9
2025-01-21T0700,1349A,113.4332,23.1047,广州市,市八十六中,细颗粒物(PM2.5),87,115,92,64,49,3,,,,106,95,5,6,1.1,0.9
2025-01-21T0700,1350A,113.3505,22.9483,广州市,番禺中学,细颗粒物(PM2.5),95,92,105,71,66,4,,,,113,82,4,6,1.1,1
2025-01-21T0700,1351A,113.2146,23.3916,广州市,花都师范,颗粒物(PM10),62,73,78,42,46,4,,,,84,60,6,7,0.8,0.8
2025-01-21T0700,1352A,113.2597,23.1331,广州市,市监测站,细颗粒物(PM2.5),74,88,77,54,49,12,,,,114,86,7,6,1.0,0.9
2025-01-21T0700,1353A,113.5618,23.312,广州市,九龙镇镇龙,颗粒物(PM10),55,60,73,36,38,1,,,,58,57,3,4,0.7,0.7
2025-01-21T0700,1354A,113.2765,23.1544,广州市,麓湖,细颗粒物(PM2.5),80,92,67,59,42,2,,,,110,76,6,5,1.3,0.9
2025-01-21T0700,1355A,113.443,23.3035,广州市,帽峰山森林公园,细颗粒物(PM2.5),60,59,36,43,23,43,,,,56,17,7,7,0.6,0.4
2025-01-21T0700,2846A,113.3221,23.1322,广州市,体育西,细颗粒物(PM2.5),78,92,79,57,48,6,,,,82,64,7,7,1.0,1
2025-01-21T0700,3298A,113.5717,23.5491,广州市,从化街口,颗粒物(PM10),54,58,69,37,44,2,,,,53,50,6,7,0.9,0.8
2025-01-21T0700,3299A,113.3472,23.3692,广州市,白云竹料,颗粒物(PM10),60,69,84,41,44,2,,,,68,60,6,7,0.8,0.8
2025-01-21T0700,3300A,113.2981,23.237,广州市,白云嘉禾,细颗粒物(PM2.5),77,102,88,56,44,3,,,,103,77,8,8,1.4,1.2
2025-01-21T0700,3301A,113.4256,23.1716,广州市,黄埔科学城,颗粒物(PM10),59,68,57,41,34,2,,,,72,54,6,6,0.9,0.8
2025-01-21T0700,3302A,113.3942,23.0483,广州市,番禺大学城,颗粒物(PM10),81,111,92,52,49,3,,,,114,84,15,14,1.3,1
2025-01-21T0700,3303A,113.4922,22.8168,广州市,南沙黄阁,细颗粒物(PM2.5),62,61,78,44,45,11,,,,85,64,4,7,0.9,0.9
2025-01-21T0700,3304A,113.5342,22.7896,广州市,南沙街,,49,47,68,34,40,28,,,,68,57,4,7,0.8,0.8
2025-01-21T0700,3443A,113.2902,23.5544,广州市,花都梯面,,41,41,44,28,29,4,,,,53,38,4,6,0.6,0.6
2025-01-21T0700,3445A,113.7858,23.7478,广州市,从化良口,,29,27,31,20,22,28,,,,24,19,5,6,0.6,0.5
2025-01-21T0700,3446A,113.8051,23.2614,广州市,增城荔城,,45,45,48,31,31,37,,,,25,24,5,6,0.7,0.7
2025-01-21T0700,2506A,109.6047,23.0666,贵港市,江南子站,细颗粒物(PM2.5),169,175,146,128,91,9,,,,63,57,9,9,1.6,1.4
2025-01-21T0700,2507A,109.6014,23.0948,贵港市,贵城子站,细颗粒物(PM2.5),133,126,113,101,78,35,,,,61,52,24,12,1.5,1.1
2025-01-21T0700,2508A,109.5669,23.1065,贵港市,荷城子站,细颗粒物(PM2.5),125,132,103,95,62,20,,,,64,45,14,12,1.1,1
2025-01-21T0700,3405A,109.5886,23.1172,贵港市,新世纪学校,细颗粒物(PM2.5),108,117,98,81,60,40,,,,57,38,9,6,1.0,1
2025-01-21T0700,1439A,106.6899,26.5998,贵阳市,马鞍山,细颗粒物(PM2.5),73,70,83,53,59,19,,,,29,36,6,13,1.0,1.1
2025-01-21T0700,1441A,106.6243,26.6266,贵阳市,鉴湖路,细颗粒物(PM2.5),77,83,86,56,63,51,,,,35,40,12,16,0.9,0.9
2025-01-21T0700,1442A,106.7487,26.6343,贵阳市,燕子冲,细颗粒物(PM2.5),79,61,77,58,64,42,,,,22,29,17,19,0.8,0.9
2025-01-21T0700,1443A,106.6555,26.4365,贵阳市,碧云窝,细颗粒物(PM2.5),77,85,99,56,67,49,,,,34,44,31,34,0.9,1
2025-01-21T0700,1445A,106.7109,26.6027,贵阳市,红边门,细颗粒物(PM2.5),92,83,99,68,79,33,,,,42,49,42,42,1.1,1.2
2025-01-21T0700,1446A,106.7164,26.5699,贵阳市,新华路,细颗粒物(PM2.5),100,88,104,75,72,41,,,,33,53,16,19,1.1,1.1
2025-01-21T0700,1447A,106.674,26.5424,贵阳市,太慈桥,细颗粒物(PM2.5),85,85,86,63,63,9,,,,45,45,14,21,0.9,0.9
2025-01-21T0700,4230A,106.6882,26.5695,贵阳市,花果园大街66号,细颗粒物(PM2.5),97,88,93,72,74,25,,,,65,57,23,19,1.2,1.2
2025-01-21T0700,4231A,106.6873,26.5169,贵阳市,漓江路57号,细颗粒物(PM2.5),113,107,94,85,72,7,,,,75,56,47,32,1.2,1
2025-01-21T0700,1862A,110.4144,25.3167,桂林市,电子科大尧山校区,细颗粒物(PM2.5),65,60,60,47,44,48,,,,15,14,4,9,0.7,0.7
2025-01-21T0700,1863A,110.2819,25.2697,桂林市,监测站,细颗粒物(PM2.5),90,92,85,67,59,26,,,,54,36,16,16,1.5,1.2
2025-01-21T0700,1864A,110.3089,25.2708,桂林市,龙隐路小学,细颗粒物(PM2.5),84,82,73,62,56,44,,,,40,26,14,20,1.4,1.1
2025-01-21T0700,1865A,110.2869,25.2178,桂林市,八中,细颗粒物(PM2.5),93,80,84,69,61,29,,,,48,35,10,15,1.0,0.9
2025-01-21T0700,3403A,110.1764,25.2381,桂林市,创业大厦,细颗粒物(PM2.5),89,85,86,66,61,10,,,,62,43,22,18,1.0,0.9
2025-01-21T0700,3531A,110.296,25.1253,桂林市,旅游学院,细颗粒物(PM2.5),85,80,83,63,61,28,,,,37,38,6,10,1.2,1.1
2025-01-21T0700,2674A,100.2561,34.4714,果洛藏族自治州,玛沁县大武镇,,32,32,39,14,18,28,,,,4,7,19,15,0.5,0.5
2025-01-21T0700,1129A,126.5422,45.755,哈尔滨市,岭北,细颗粒物(PM2.5),231,208,271,181,239,23,,,,80,85,21,18,1.2,1.9
2025-01-21T0700,1130A,126.561,45.8167,哈尔滨市,松北商大,细颗粒物(PM2.5),212,182,266,162,220,28,,,,60,77,3,9,1.6,2
2025-01-21T0700,1131A,126.979,45.5419,哈尔滨市,阿城会宁,细颗粒物(PM2.5),266,233,227,216,215,7,,,,59,61,15,12,2.0,1.9
2025-01-21T0700,1132A,126.599,45.7222,哈尔滨市,南岗学府路,细颗粒物(PM2.5),214,232,282,164,211,9,,,,81,90,2,10,1.6,1.9
2025-01-21T0700,1133A,126.689,45.7733,哈尔滨市,太平宏伟公园,细颗粒物(PM2.5),216,190,286,166,219,3,,,,77,83,2,7,1.4,1.7
2025-01-21T0700,1134A,126.635,45.7667,哈尔滨市,道外承德广场,细颗粒物(PM2.5),228,231,329,178,241,6,,,,76,87,8,12,1.7,1.9
2025-01-21T0700,1135A,126.685,45.7319,哈尔滨市,香坊红旗大街,细颗粒物(PM2.5),244,200,296,194,259,10,,,,72,79,33,38,1.8,2.2
2025-01-21T0700,1136A,126.6411,45.7258,哈尔滨市,动力和平路,细颗粒物(PM2.5),224,225,271,174,229,4,,,,71,79,16,18,1.7,2
2025-01-21T0700,1137A,126.593,45.7478,哈尔滨市,道里建国路,细颗粒物(PM2.5),234,234,281,184,236,5,,,,80,95,25,23,1.5,1.9
2025-01-21T0700,1138A,126.615,45.61,哈尔滨市,平房东轻厂,细颗粒物(PM2.5),227,212,233,177,205,9,,,,70,74,5,9,1.4,1.6
2025-01-21T0700,1139A,126.595,45.9855,哈尔滨市,呼兰师专,细颗粒物(PM2.5),142,125,215,108,192,47,,,,44,53,8,9,1.0,1.5
2025-01-21T0700,1140A,126.6206,45.6842,哈尔滨市,省农科院,细颗粒物(PM2.5),276,302,296,226,240,7,,,,84,85,12,15,2.4,2.2
2025-01-21T0700,2688A,93.5128,42.8172,哈密市,地区监测站,颗粒物(PM10),97,144,114,41,34,25,,,,38,32,3,5,1.0,0.6
2025-01-21T0700,2689A,93.4961,42.8328,哈密市,哈密师范学校,颗粒物(PM10),102,153,102,41,41,18,,,,47,35,4,6,0.7,0.7
2025-01-21T0700,2671A,100.9048,36.9639,海北藏族自治州,海晏县西海镇,,33,33,19,19,10,52,,,,3,3,15,11,0.6,0.4
2025-01-21T0700,3867A,102.0738,36.5056,海东市,平安区公安北苑,颗粒物(PM10),52,54,52,35,32,30,,,,17,32,10,19,0.9,1
2025-01-21T0700,1409A,110.576,19.9507,海口市,东寨港,细颗粒物(PM2.5),68,,42,49,48,52,,,,13,9,12,14,0.5,0.4
2025-01-21T0700,1410A,110.3232,20.0574,海口市,海南大学,,46,46,51,28,32,99,,,,19,21,5,6,0.5,0.5
2025-01-21T0700,1411A,110.283,20.0053,海口市,秀英海南医院,,,52,59,24,37,100,,,,21,28,,5,0.4,0.5
2025-01-21T0700,1412A,110.338,19.9969,海口市,海南师范大学,颗粒物(PM10),51,52,54,24,34,112,,,,15,17,5,6,0.5,0.5
2025-01-21T0700,1413A,110.33,20.0356,海口市,龙华路环保局宿舍,,39,37,51,27,32,107,,,,17,20,6,7,0.5,0.5
2025-01-21T0700,3539A,110.5111,19.9736,海口市,桂林洋子站,,46,46,55,30,35,94,,,,11,15,5,6,0.4,0.5
2025-01-21T0700,2673A,100.6188,36.2866,海南藏族自治州,共和县恰卜恰镇,,29,29,40,9,19,17,,,,28,25,12,13,0.6,0.6
2025-01-21T0700,2676A,97.3731,37.3753,海西蒙古族藏族自治州,德令哈市,,26,26,40,18,13,45,,,,13,11,18,16,0.6,0.5
2025-01-21T0700,1048A,114.5302,36.6116,邯郸市,东污水处理厂,细颗粒物(PM2.5),201,224,140,151,113,1,,,,91,52,15,13,1.5,1.2
2025-01-21T0700,1049A,114.4918,36.5713,邯郸市,矿院,细颗粒物(PM2.5),206,212,156,156,109,1,,,,82,62,4,8,1.3,1.1
2025-01-21T0700,1050A,114.484,36.6133,邯郸市,丛台公园,细颗粒物(PM2.5),192,194,148,144,105,3,,,,76,56,11,10,1.6,1.1
2025-01-21T0700,3458A,114.7895,36.5593,邯郸市,香泉濮院小区,细颗粒物(PM2.5),222,231,180,172,118,30,,,,60,37,11,14,1.3,1.2
2025-01-21T0700,3579A,114.50634,36.77178,邯郸市,永年区实验高中,细颗粒物(PM2.5),147,186,160,112,93,6,,,,67,55,15,17,2.6,1.5
2025-01-21T0700,3580A,114.20016,36.44293,邯郸市,峰峰矿区临水派出所,细颗粒物(PM2.5),120,130,123,91,92,24,,,,52,36,50,30,2.4,1.4
2025-01-21T0700,2634A,106.9893,33.1842,汉中市,汉川机床厂子校,细颗粒物(PM2.5),68,50,59,49,56,37,,,,8,10,5,6,1.0,1.1
2025-01-21T0700,2635A,107.0154,33.0706,汉中市,市监测站,细颗粒物(PM2.5),144,116,109,110,97,9,,,,46,50,6,8,2.1,2
2025-01-21T0700,2636A,107.0089,33.1138,汉中市,鑫源开发区,细颗粒物(PM2.5),183,,106,138,100,10,,,,46,45,6,9,1.8,1.6
2025-01-21T0700,2637A,107.007,33.0323,汉中市,南郑大河坎水厂,细颗粒物(PM2.5),109,94,105,82,87,14,,,,30,34,5,7,1.6,1.7
2025-01-21T0700,1223A,120.2072,30.2111,杭州市,滨江,细颗粒物(PM2.5),127,125,133,96,99,21,,,,67,65,6,9,0.9,0.9
2025-01-21T0700,1224A,120.0633,30.2747,杭州市,西溪,细颗粒物(PM2.5),98,99,118,73,91,3,,,,48,48,6,8,0.9,0.9
2025-01-21T0700,1226A,120.3461,30.3153,杭州市,下沙,细颗粒物(PM2.5),195,199,164,146,112,1,,,,114,92,9,11,1.3,1.1
2025-01-21T0700,1227A,120.1269,30.2456,杭州市,卧龙桥,细颗粒物(PM2.5),129,120,107,98,83,30,,,,39,41,6,8,0.8,0.7
2025-01-21T0700,1228A,120.1903,30.2692,杭州市,浙江农大,细颗粒物(PM2.5),148,154,159,113,111,4,,,,76,70,7,10,1.1,1
2025-01-21T0700,1230A,120.1197,30.3119,杭州市,和睦小学,细颗粒物(PM2.5),135,138,128,103,92,4,,,,80,67,6,9,1.2,1.1
2025-01-21T0700,1231A,120.3019,30.4183,杭州市,临平镇,细颗粒物(PM2.5),207,193,145,157,109,2,,,,105,56,7,10,1.2,1.1
2025-01-21T0700,1232A,120.2697,30.1819,杭州市,城厢镇,细颗粒物(PM2.5),137,137,141,104,94,12,,,,78,66,5,8,1.2,1.2
2025-01-21T0700,1233A,120.0883,30.1808,杭州市,云栖,细颗粒物(PM2.5),129,131,117,98,83,33,,,,43,42,5,7,0.9,0.8
2025-01-21T0700,3557A,119.9464,30.0494,杭州市,镇二中,细颗粒物(PM2.5),139,106,121,106,100,21,,,,53,59,6,8,1.0,1.1
2025-01-21T0700,3558A,119.7183,30.2367,杭州市,市府大楼,细颗粒物(PM2.5),138,119,115,105,89,51,,,,36,35,7,9,1.1,1.1
2025-01-21T0700,3656A,120.1556,30.2864,杭州市,消防大队,细颗粒物(PM2.5),140,133,140,107,103,32,,,,60,59,9,12,0.9,0.9
2025-01-21T0700,1270A,117.1959,31.7848,合肥市,明珠广场,细颗粒物(PM2.5),122,112,131,92,97,22,,,,74,77,12,12,1.0,1
2025-01-21T0700,1271A,117.3072,31.8764,合肥市,三里街,细颗粒物(PM2.5),117,124,136,88,93,14,,,,80,76,12,11,0.9,0.8
2025-01-21T0700,1272A,117.2588,31.8707,合肥市,琥珀山庄,细颗粒物(PM2.5),124,117,129,94,97,39,,,,58,70,13,11,0.9,0.9
2025-01-21T0700,1273A,117.1604,31.9052,合肥市,董铺水库,细颗粒物(PM2.5),94,112,135,70,84,19,,,,68,62,9,7,0.8,0.7
2025-01-21T0700,1274A,117.25,31.8571,合肥市,长江中路,细颗粒物(PM2.5),119,117,128,90,95,45,,,,54,64,15,12,1.1,1.1
2025-01-21T0700,1275A,117.266,31.9436,合肥市,庐阳区,细颗粒物(PM2.5),113,129,144,85,91,4,,,,88,88,8,9,1.1,0.9
2025-01-21T0700,1276A,117.336,31.8586,合肥市,瑶海区,细颗粒物(PM2.5),115,114,142,87,94,24,,,,83,78,12,11,0.9,0.9
2025-01-21T0700,1277A,117.3027,31.7964,合肥市,包河区,细颗粒物(PM2.5),119,127,137,90,96,3,,,,100,82,16,11,1.1,1
2025-01-21T0700,1278A,117.2776,31.7385,合肥市,滨湖新区,细颗粒物(PM2.5),107,127,140,80,86,54,,,,39,48,17,15,0.8,0.7
2025-01-21T0700,1279A,117.1318,31.8403,合肥市,高新区,细颗粒物(PM2.5),117,114,127,88,90,65,,,,47,67,12,12,1.1,1
2025-01-21T0700,3464A,117.3803,31.9147,合肥市,高教基地,细颗粒物(PM2.5),102,101,126,76,78,2,,,,61,71,7,11,0.7,0.7
2025-01-21T0700,3614A,79.924,37.0877,和田地区,地区环保局,颗粒物(PM10),80,110,124,45,45,39,,,,15,15,16,20,0.9,0.6
2025-01-21T0700,3615A,79.9131,37.113,和田地区,市环保局,"颗粒物(PM10),细颗粒物(PM2.5)",84,117,130,62,55,30,,,,26,40,7,11,1.7,2.8
2025-01-21T0700,2516A,108.2011,24.715,河池市,东仁乐园,细颗粒物(PM2.5),93,95,120,69,71,22,,,,52,52,8,10,0.9,0.9
2025-01-21T0700,2517A,108.0497,24.6947,河池市,市环保站,细颗粒物(PM2.5),83,70,80,61,57,27,,,,34,34,12,14,0.9,0.9
2025-01-21T0700,2518A,108.0983,24.6989,河池市,市疾控中心,细颗粒物(PM2.5),95,83,91,71,62,11,,,,52,50,7,9,0.9,0.9
2025-01-21T0700,1696A,114.6778,23.7569,河源市,源西,,42,39,45,29,27,18,,,,47,40,5,6,0.6,0.6
2025-01-21T0700,1697A,114.6944,23.7586,河源市,东埔,,42,41,60,29,31,16,,,,43,44,3,5,0.4,0.5
2025-01-21T0700,1698A,114.6892,23.7233,河源市,老城,,39,32,40,27,26,29,,,,29,26,3,4,0.5,0.7
2025-01-21T0700,1718A,115.4208,35.2464,菏泽市,气象局,细颗粒物(PM2.5),149,155,149,114,95,56,,,,42,45,10,12,0.8,0.9
2025-01-21T0700,3374A,115.5564,35.0891,菏泽市,定陶老年大学,细颗粒物(PM2.5),147,149,136,112,92,36,,,,50,43,15,17,0.8,0.7
2025-01-21T0700,4184A,115.4797,35.24401,菏泽市,永昌路1号,细颗粒物(PM2.5),156,167,147,119,95,39,,,,58,51,12,14,0.7,0.6
2025-01-21T0700,4193A,115.4715,35.2800,菏泽市,长城路999号,细颗粒物(PM2.5),138,147,131,105,81,49,,,,49,44,10,11,1.1,1.1
2025-01-21T0700,2514A,111.5264,24.4172,贺州市,环保小区,细颗粒物(PM2.5),87,72,94,64,73,32,,,,28,33,7,8,1.1,1.1
2025-01-21T0700,2515A,111.5608,24.4078,贺州市,政协大楼,细颗粒物(PM2.5),82,81,95,60,59,5,,,,49,44,5,8,0.9,1
2025-01-21T0700,3534A,111.4744,24.4553,贺州市,西湾,细颗粒物(PM2.5),103,100,100,77,67,15,,,,30,33,7,8,0.9,0.9
2025-01-21T0700,2385A,114.17,35.9019,鹤壁市,市监测站,细颗粒物(PM2.5),115,139,146,87,94,36,,,,20,31,9,9,0.8,1.1
2025-01-21T0700,2386A,114.2956,35.7511,鹤壁市,市交警支队,细颗粒物(PM2.5),226,214,166,176,116,2,,,,91,57,3,6,1.3,1
2025-01-21T0700,2387A,114.2878,35.7306,鹤壁市,迎宾馆,细颗粒物(PM2.5),139,158,159,106,98,7,,,,61,53,9,8,1.0,0.9
2025-01-21T0700,3474A,114.2617,35.6822,鹤壁市,大新区,细颗粒物(PM2.5),209,186,144,159,125,2,,,,83,71,7,12,1.0,0.8
2025-01-21T0700,3596A,114.1572,35.9603,鹤壁市,南山宾馆,细颗粒物(PM2.5),135,125,139,103,109,69,,,,21,33,33,35,0.9,1
2025-01-21T0700,2244A,130.2537,47.3416,鹤岗市,哈啤分公司,细颗粒物(PM2.5),59,51,53,42,44,36,,,,21,22,15,17,0.8,0.9
2025-01-21T0700,2245A,130.2684,47.3086,鹤岗市,斯达机电,,50,40,59,35,48,42,,,,20,28,26,19,0.6,0.7
2025-01-21T0700,2246A,130.3114,47.3388,鹤岗市,东山纸板厂,细颗粒物(PM2.5),84,,70,62,64,16,,,,43,41,15,18,2.2,1.6
2025-01-21T0700,2247A,130.1097,47.3382,鹤岗市,五号水库,,33,29,32,23,20,57,,,,13,13,7,8,0.4,0.3
2025-01-21T0700,2263A,127.4833,50.2524,黑河市,交通局,,50,50,49,32,33,29,,,,22,28,8,9,0.7,0.8
2025-01-21T0700,2264A,127.5144,50.2341,黑河市,环保局,细颗粒物(PM2.5),57,56,42,40,32,25,,,,27,23,9,10,0.5,0.6
2025-01-21T0700,2265A,127.5291,50.2472,黑河市,大黑河岛,,,48,43,38,34,5,,,,9,13,1,2,,
2025-01-21T0700,1074A,115.6838,37.7541,衡水市,电机北厂,细颗粒物(PM2.5),163,194,131,124,81,2,,,,78,35,18,14,1.1,0.8
2025-01-21T0700,1075A,115.6303,37.7316,衡水市,市监测站,细颗粒物(PM2.5),155,150,115,118,76,21,,,,55,45,13,17,1.0,0.8
2025-01-21T0700,3188A,115.6683,37.7217,衡水市,市城管局,细颗粒物(PM2.5),163,165,120,124,75,21,,,,58,42,16,15,1.1,0.8
2025-01-21T0700,3459A,115.5989,37.5491,衡水市,地表水厂,细颗粒物(PM2.5),170,156,118,129,87,19,,,,58,59,20,18,1.3,0.9
2025-01-21T0700,2456A,112.5003,26.9167,衡阳市,原169医院,细颗粒物(PM2.5),89,99,81,66,66,32,,,,21,36,9,29,0.8,0.9
2025-01-21T0700,2457A,112.6194,26.9258,衡阳市,衡阳化工总厂,细颗粒物(PM2.5),128,102,115,97,91,5,,,,55,44,5,8,1.1,1.1
2025-01-21T0700,2458A,112.6211,26.8956,衡阳市,珠晖区环保局,细颗粒物(PM2.5),134,122,113,102,90,4,,,,65,57,7,10,1.5,1.4
2025-01-21T0700,2459A,112.6197,26.8733,衡阳市,市委党校,细颗粒物(PM2.5),123,143,121,93,85,13,,,,61,49,13,13,2.6,1.5
2025-01-21T0700,2460A,112.6006,26.8919,衡阳市,市监测站,细颗粒物(PM2.5),99,117,130,74,104,15,,,,53,49,8,10,1.2,1.3
2025-01-21T0700,2461A,112.5664,26.9056,衡阳市,真空机电公司,细颗粒物(PM2.5),104,107,128,78,83,37,,,,45,46,5,8,1.1,1.2
2025-01-21T0700,3399A,112.6703,26.882,衡阳市,师范学院,细颗粒物(PM2.5),156,162,128,119,98,1,,,,71,42,11,12,2.1,1
2025-01-21T0700,2608A,103.3772,23.3993,红河哈尼族彝族自治州,污水处理厂,细颗粒物(PM2.5),75,60,46,55,44,85,,,,7,10,7,7,0.5,0.5
2025-01-21T0700,2609A,103.3861,23.35,红河哈尼族彝族自治州,监测站,细颗粒物(PM2.5),77,75,49,56,47,88,,,,7,9,8,8,0.6,0.6
2025-01-21T0700,3038A,103.3758,23.368,红河哈尼族彝族自治州,州图书馆,细颗粒物(PM2.5),68,56,42,49,39,82,,,,8,9,8,8,0.5,0.5
2025-01-21T0700,1090A,111.6507,40.7517,呼和浩特市,呼市一监,细颗粒物(PM2.5),55,56,93,39,52,11,,,,56,53,10,15,1.3,1.1
2025-01-21T0700,1091A,111.6572,40.8033,呼和浩特市,小召,,36,36,87,22,42,18,,,,57,65,10,16,1.1,1.1
2025-01-21T0700,1094A,111.7516,40.8369,呼和浩特市,如意水处理厂,,47,47,86,25,41,4,,,,64,64,12,16,1.2,1.1
2025-01-21T0700,1095A,111.7276,40.8062,呼和浩特市,二十九中,,46,46,84,24,41,15,,,,49,58,12,15,1.2,1
2025-01-21T0700,1096A,111.5512,40.7866,呼和浩特市,工大金川校区,,44,44,88,24,45,3,,,,75,66,7,16,0.8,1
2025-01-21T0700,1097A,111.717,40.7612,呼和浩特市,化肥厂生活区,,50,50,94,24,47,24,,,,48,61,11,15,1.4,1.3
2025-01-21T0700,3698A,111.5968,40.8178,呼和浩特市,红旗小学,,45,41,95,31,50,2,,,,68,67,9,15,0.9,1.1
2025-01-21T0700,3699A,111.6518,40.8389,呼和浩特市,海东办,,49,41,98,34,58,3,,,,62,62,5,11,1.0,1.2
2025-01-21T0700,2192A,119.7594,49.2261,呼伦贝尔市,区环保局,,29,24,28,20,21,62,,,,16,18,7,7,0.6,0.5
2025-01-21T0700,3061A,119.7512,49.1577,呼伦贝尔市,国华电力东,,32,32,29,22,18,48,,,,24,14,5,5,0.4,0.4
2025-01-21T0700,1250A,120.0751,30.8669,湖州市,城西水厂,细颗粒物(PM2.5),193,184,155,145,117,14,,,,105,91,9,11,1.0,1
2025-01-21T0700,2873A,120.0875,30.8955,湖州市,仁皇山新区,细颗粒物(PM2.5),202,181,154,152,122,29,,,,86,66,10,12,1.1,1.1
2025-01-21T0700,2907A,120.1844,30.8596,湖州市,吴兴区站,细颗粒物(PM2.5),196,183,193,147,139,17,,,,81,61,9,10,0.8,0.8
2025-01-21T0700,3562A,120.4148,30.8538,湖州市,南浔区站,细颗粒物(PM2.5),196,168,159,147,128,31,,,,60,50,11,14,0.9,0.9
2025-01-21T0700,1607A,120.9092,40.7136,葫芦岛市,龙港区,,45,45,104,21,78,46,,,,35,54,126,95,1.2,1.4
2025-01-21T0700,1608A,120.8392,40.7514,葫芦岛市,化工街,,29,29,102,12,57,41,,,,31,49,6,28,0.7,1.4
2025-01-21T0700,1609A,120.8341,40.7073,葫芦岛市,新区,,30,30,90,11,67,45,,,,29,58,16,20,0.7,1.3
2025-01-21T0700,1610A,120.8695,40.7677,葫芦岛市,东城区,,22,22,102,13,70,52,,,,20,49,28,32,0.6,1.5
2025-01-21T0700,2482A,109.5981,27.5721,怀化市,林科所,细颗粒物(PM2.5),78,71,69,57,54,14,,,,35,28,5,8,1.6,1.6
2025-01-21T0700,2483A,109.9453,27.5444,怀化市,河西地税局,细颗粒物(PM2.5),104,86,93,78,78,12,,,,22,26,3,5,0.9,0.9
2025-01-21T0700,2484A,109.9781,27.5342,怀化市,市四医院,细颗粒物(PM2.5),110,100,103,83,74,8,,,,46,34,2,5,1.5,1.4
2025-01-21T0700,2485A,109.9972,27.5578,怀化市,监测楼,颗粒物(PM10),121,192,109,75,73,4,,,,35,31,1,6,1.1,1.2
2025-01-21T0700,2486A,110.0394,27.583,怀化市,市委党校,细颗粒物(PM2.5),119,122,99,90,73,2,,,,49,35,7,9,1.4,1.2
2025-01-21T0700,1210A,119.036,33.5981,淮安市,钵池山,细颗粒物(PM2.5),148,141,137,113,119,43,,,,41,50,9,11,1.6,1.1
2025-01-21T0700,1211A,119.007,33.575,淮安市,北京南路,细颗粒物(PM2.5),133,132,145,101,117,43,,,,39,63,10,12,1.3,1.3
2025-01-21T0700,1212A,118.989,33.6067,淮安市,市监测站,细颗粒物(PM2.5),160,141,138,122,117,48,,,,43,48,10,12,1.3,1.2
2025-01-21T0700,1213A,119.135,33.5039,淮安市,楚州区监测站,细颗粒物(PM2.5),99,103,150,74,113,18,,,,51,55,8,11,0.9,1
2025-01-21T0700,1214A,119.0186,33.6297,淮安市,淮阴区监测站,细颗粒物(PM2.5),155,163,164,118,122,42,,,,48,68,9,12,1.5,1.2
2025-01-21T0700,3426A,118.8755,33.2894,淮安市,新华书店,细颗粒物(PM2.5),166,152,180,126,149,12,,,,61,62,9,14,1.1,1.2
2025-01-21T0700,2282A,116.8004,33.975,淮北市,监测站,细颗粒物(PM2.5),119,124,146,90,105,47,,,,42,43,12,14,0.8,1
2025-01-21T0700,2283A,116.8091,33.9007,淮北市,烈山区政府,细颗粒物(PM2.5),128,123,141,97,103,56,,,,41,45,10,15,0.9,1
2025-01-21T0700,3330A,116.8873,33.9836,淮北市,杜集区检察院,细颗粒物(PM2.5),173,142,148,131,118,54,,,,26,32,8,12,0.9,1
2025-01-21T0700,4017A,116.7923,33.9535,淮北市,市博物馆,细颗粒物(PM2.5),115,133,155,87,122,52,,,,39,47,13,15,0.9,1
2025-01-21T0700,2277A,116.8305,32.7727,淮南市,潘集区政府,细颗粒物(PM2.5),149,143,163,114,122,28,,,,40,53,10,15,0.8,0.8
2025-01-21T0700,2279A,116.8569,32.5951,淮南市,谢家集区政府,细颗粒物(PM2.5),117,117,131,88,95,41,,,,36,47,17,14,1.0,0.9
2025-01-21T0700,2280A,116.8281,32.633,淮南市,八公山区政府,细颗粒物(PM2.5),113,117,115,85,80,44,,,,43,33,15,14,0.8,0.7
2025-01-21T0700,2894A,117.0566,32.6531,淮南市,经济技术开发区消防队,细颗粒物(PM2.5),95,120,144,71,97,47,,,,29,39,12,13,0.8,0.8
2025-01-21T0700,3329A,117.0108,32.5893,淮南市,山南新区,细颗粒物(PM2.5),110,120,140,83,107,47,,,,33,37,14,14,0.9,0.9
2025-01-21T0700,4209A,117.0031,32.6445,淮南市,国庆中路369号,细颗粒物(PM2.5),102,108,131,76,88,47,,,,33,47,18,17,0.8,0.8
2025-01-21T0700,2446A,114.9028,30.4742,黄冈市,职工中心,细颗粒物(PM2.5),120,118,134,91,102,87,,,,26,37,10,13,0.6,0.7
2025-01-21T0700,2929A,114.8858,30.4519,黄冈市,红卫路,细颗粒物(PM2.5),125,118,134,95,102,91,,,,26,38,8,11,0.9,1.1
2025-01-21T0700,3398A,114.9136,30.4445,黄冈市,市林业局,细颗粒物(PM2.5),130,112,129,99,104,92,,,,23,35,12,14,0.8,0.9
2025-01-21T0700,2672A,102.0199,35.5102,黄南藏族自治州,同仁县隆务镇,,24,24,36,9,17,53,,,,1,4,9,6,0.4,0.5
2025-01-21T0700,2295A,118.2903,29.6963,黄山市,延安路89号,,38,38,61,24,33,14,,,,21,20,4,5,0.4,0.5
2025-01-21T0700,2296A,118.327,29.7178,黄山市,黄山东路89号,细颗粒物(PM2.5),55,57,73,39,46,7,,,,20,24,5,7,0.6,0.7
2025-01-21T0700,2297A,118.1371,30.2756,黄山市,黄山区政府5号楼,细颗粒物(PM2.5),57,55,62,40,45,26,,,,12,13,7,8,0.7,0.7
2025-01-21T0700,2423A,115.0601,30.2313,黄石市,沈家营,细颗粒物(PM2.5),138,136,157,105,103,51,,,,46,63,13,17,1.0,1
2025-01-21T0700,2426A,114.8988,30.2019,黄石市,铁山,细颗粒物(PM2.5),132,101,113,100,100,106,,,,28,40,17,17,0.8,0.8
2025-01-21T0700,2427A,115.0307,30.2092,黄石市,团城山,细颗粒物(PM2.5),143,136,125,109,100,55,,,,45,45,15,15,1.0,1
2025-01-21T0700,3149A,115.0235,30.1578,黄石市,笔架山北路,细颗粒物(PM2.5),134,114,126,102,106,70,,,,36,38,17,17,1.3,1.2
2025-01-21T0700,4185A,115.0780,30.21118,黄石市,磁湖东路29号,细颗粒物(PM2.5),155,135,139,118,111,35,,,,68,63,7,27,1.2,1.3
2025-01-21T0700,1392A,114.4183,23.0528,惠州市,河南岸金山湖子站,颗粒物(PM10),52,54,57,34,35,24,,,,31,30,6,7,0.7,0.7
2025-01-21T0700,1393A,114.4053,23.0822,惠州市,下埔横江三路子站,细颗粒物(PM2.5),64,76,71,46,41,19,,,,45,42,5,7,0.7,0.7
2025-01-21T0700,1394A,114.4103,23.1142,惠州市,江北云山西路子站,颗粒物(PM10),60,70,66,40,36,26,,,,42,43,6,8,0.9,0.9
2025-01-21T0700,1395A,114.4645,22.7833,惠州市,惠阳区承修路船湖子站,颗粒物(PM10),60,70,67,30,30,34,,,,40,30,8,9,0.6,0.6
2025-01-21T0700,1396A,114.5317,22.7422,惠州市,大亚湾管委会子站,,41,41,58,21,30,5,,,,77,51,10,11,0.7,0.7
2025-01-21T0700,3314A,114.4338,22.8134,惠州市,惠阳秋长,,41,41,62,26,33,41,,,,35,39,15,16,0.6,0.7
2025-01-21T0700,3452A,114.6517,22.775,惠州市,大亚湾霞涌,,39,37,44,27,30,78,,,,24,28,6,8,0.4,0.4
2025-01-21T0700,2240A,130.9762,45.3001,鸡西市,环保局,细颗粒物(PM2.5),150,141,109,115,85,11,,,,47,34,12,11,1.5,1.1
2025-01-21T0700,2243A,130.9429,45.3039,鸡西市,第一中学,细颗粒物(PM2.5),134,130,93,102,76,7,,,,53,31,8,9,1.1,0.7
2025-01-21T0700,3707A,131.0207,45.3073,鸡西市,欧美日汽修厂,细颗粒物(PM2.5),138,165,148,105,107,10,,,,45,38,7,16,0.6,1
2025-01-21T0700,3709A,130.9967,45.3106,鸡西市,市政设施管理处,细颗粒物(PM2.5),132,138,119,100,91,20,,,,49,40,18,12,1.2,1
2025-01-21T0700,2367A,114.9754,27.0803,吉安市,红声器材厂,细颗粒物(PM2.5),75,84,78,55,50,26,,,,28,25,9,12,0.8,0.7
2025-01-21T0700,2368A,114.9658,27.0999,吉安市,市森林工业局,,,81,77,57,49,38,,,,,28,13,16,0.6,0.7
2025-01-21T0700,2369A,114.99,27.1312,吉安市,市环境监测站,细颗粒物(PM2.5),75,74,77,55,54,34,,,,31,32,14,16,0.8,0.6
2025-01-21T0700,2370A,115.0093,27.0968,吉安市,青原区法院,细颗粒物(PM2.5),77,82,82,56,52,42,,,,39,44,12,12,0.6,0.6
2025-01-21T0700,1772A,126.54,43.8622,吉林市,哈达湾,细颗粒物(PM2.5),75,81,148,55,118,37,,,,49,61,11,22,1.1,1.6
2025-01-21T0700,1773A,126.5844,43.8358,吉林市,东局子,细颗粒物(PM2.5),69,62,118,50,89,44,,,,36,40,6,9,0.7,1.2
2025-01-21T0700,1774A,126.5052,43.8245,吉林市,电力学院,细颗粒物(PM2.5),133,108,163,101,141,10,,,,50,57,11,16,1.5,1.9
2025-01-21T0700,1775A,126.6133,43.8972,吉林市,江北,细颗粒物(PM2.5),78,76,142,57,114,50,,,,26,59,10,18,1.0,1.6
2025-01-21T0700,1776A,126.555,43.8306,吉林市,江南公园,细颗粒物(PM2.5),75,62,136,55,113,43,,,,33,56,7,11,0.7,1.8
2025-01-21T0700,2868A,126.4739,43.953,吉林市,九站,细颗粒物(PM2.5),199,177,198,149,164,10,,,,70,71,41,26,1.9,1.9
2025-01-21T0700,1299A,116.9862,36.6114,济南市,科干所,细颗粒物(PM2.5),113,129,88,85,51,108,,,,25,31,14,14,0.9,0.8
2025-01-21T0700,1300A,116.9376,36.665,济南市,农科所,细颗粒物(PM2.5),102,122,107,76,54,77,,,,39,47,15,17,0.9,0.9
2025-01-21T0700,1301A,117.1265,36.6734,济南市,开发区,细颗粒物(PM2.5),119,112,82,90,56,100,,,,27,44,13,12,0.9,0.9
2025-01-21T0700,1303A,117.0624,36.6868,济南市,省种子仓库,细颗粒物(PM2.5),117,168,115,88,57,7,,,,90,69,14,11,2.8,1.3
2025-01-21T0700,1304A,116.9489,36.6447,济南市,机床二厂,细颗粒物(PM2.5),110,125,107,83,56,79,,,,40,40,24,30,1.1,1.1
2025-01-21T0700,1305A,117.0495,36.663,济南市,市监测站,细颗粒物(PM2.5),110,125,87,83,50,81,,,,50,42,4,7,1.0,0.9
2025-01-21T0700,1306A,116.7675,36.5484,济南市,长清党校,细颗粒物(PM2.5),125,134,95,95,60,103,,,,33,35,15,12,1.0,0.9
2025-01-21T0700,1616A,117.6795,36.229,济南市,技术学院,细颗粒物(PM2.5),160,156,116,122,80,5,,,,81,66,22,25,2.1,1.4
2025-01-21T0700,1961A,117.532,36.6868,济南市,东山小学,细颗粒物(PM2.5),98,103,81,73,46,49,,,,37,31,11,12,1.1,0.9
2025-01-21T0700,3059A,117.7161,36.2049,济南市,泰兴公司,细颗粒物(PM2.5),153,163,132,117,82,8,,,,70,62,18,22,2.3,1.5
2025-01-21T0700,3064A,117.6867,36.2171,济南市,莱芜战役纪念馆,细颗粒物(PM2.5),144,156,126,110,77,10,,,,79,67,18,20,2.1,1.4
2025-01-21T0700,3494A,117.1673,36.9782,济南市,济阳区政府,细颗粒物(PM2.5),129,139,108,98,61,37,,,,42,52,24,22,1.4,1.2
2025-01-21T0700,3682A,116.9814,36.6819,济南市,济南四建,细颗粒物(PM2.5),95,112,88,71,50,72,,,,46,48,15,17,0.8,0.7
2025-01-21T0700,1653A,116.6251,35.4302,济宁市,火炬城,细颗粒物(PM2.5),134,164,122,102,77,68,,,,33,44,18,18,1.2,1.2
2025-01-21T0700,1655A,116.5491,35.4042,济宁市,电化厂,细颗粒物(PM2.5),160,178,153,122,97,66,,,,43,51,17,18,1.3,1.2
2025-01-21T0700,3500A,116.5814,35.3707,济宁市,北湖一中,细颗粒物(PM2.5),180,169,133,136,103,51,,,,48,59,12,15,1.9,1.7
2025-01-21T0700,3501A,116.8249,35.5593,济宁市,服务中心,细颗粒物(PM2.5),163,178,154,124,96,7,,,,91,62,18,19,1.8,1.5
2025-01-21T0700,3678A,116.5907,35.4054,济宁市,市第七中学,细颗粒物(PM2.5),188,166,127,141,98,54,,,,47,50,11,12,1.6,1.5
2025-01-21T0700,2255A,130.2751,46.8028,佳木斯市,佳纺,细颗粒物(PM2.5),134,121,185,102,156,18,,,,58,70,5,11,1.2,1.8
2025-01-21T0700,2256A,130.3995,46.8307,佳木斯市,发电厂,细颗粒物(PM2.5),125,96,129,95,122,36,,,,33,42,6,10,1.3,1.3
2025-01-21T0700,2257A,130.3258,46.7975,佳木斯市,环保局,细颗粒物(PM2.5),224,178,181,174,168,7,,,,64,71,10,13,2.0,2.2
2025-01-21T0700,2258A,130.3648,46.8032,佳木斯市,十一中,细颗粒物(PM2.5),124,,127,94,131,37,,,,37,65,7,10,1.0,1.4
2025-01-21T0700,2259A,130.3794,46.7588,佳木斯市,四丰,"颗粒物(PM10),细颗粒物(PM2.5)",94,138,138,70,87,24,,,,44,41,1,1,1.4,1.5
2025-01-21T0700,1252A,120.7436,30.778,嘉兴市,清河小学,细颗粒物(PM2.5),180,140,143,136,125,10,,,,67,63,5,10,1.2,1.1
2025-01-21T0700,1253A,120.726,30.7478,嘉兴市,嘉兴学院,细颗粒物(PM2.5),175,180,172,132,126,22,,,,44,44,8,10,1.2,1.2
2025-01-21T0700,2872A,120.7846,30.7525,嘉兴市,南湖区残联,细颗粒物(PM2.5),165,174,171,125,125,33,,,,57,58,11,13,1.2,1.1
2025-01-21T0700,3407A,120.6916,30.7739,嘉兴市,秀洲住建,细颗粒物(PM2.5),182,165,169,137,134,4,,,,73,79,7,9,0.9,0.9
2025-01-21T0700,1945A,98.2908,39.7711,嘉峪关市,气象局,颗粒物(PM10),73,95,80,36,23,37,,,,28,19,28,8,1.2,0.8
2025-01-21T0700,2884A,98.2672,39.7978,嘉峪关市,酒钢宾馆,颗粒物(PM10),79,107,97,44,28,29,,,,40,25,3,20,0.7,0.7
2025-01-21T0700,3248A,98.2643,39.7724,嘉峪关市,雄关区,颗粒物(PM10),77,104,68,37,24,29,,,,38,27,1,4,0.6,0.5
2025-01-21T0700,1383A,113.1064,22.6058,江门市,北街,细颗粒物(PM2.5),97,,75,72,65,5,,,,78,69,2,4,1.1,0.9
2025-01-21T0700,1384A,113.0731,22.5835,江门市,西区,细颗粒物(PM2.5),100,114,113,75,66,20,,,,70,81,6,8,0.9,0.9
2025-01-21T0700,1385A,113.0219,22.5311,江门市,圭峰西,细颗粒物(PM2.5),60,,73,43,54,58,,,,32,54,5,7,0.7,0.7
2025-01-21T0700,1386A,113.0828,22.5947,江门市,东湖,细颗粒物(PM2.5),94,97,108,70,61,11,,,,63,76,4,7,0.8,0.9
2025-01-21T0700,3311A,113.1075,22.5647,江门市,江海富民,细颗粒物(PM2.5),85,101,108,63,61,5,,,,75,74,5,8,1.0,0.9
2025-01-21T0700,3449A,113.05,22.4667,江门市,新会银湖,细颗粒物(PM2.5),98,74,82,73,70,4,,,,50,60,6,8,0.8,0.8
2025-01-21T0700,1828A,113.227,35.2125,焦作市,市环保局,细颗粒物(PM2.5),132,150,143,100,94,8,,,,67,53,19,18,1.4,1.3
2025-01-21T0700,3169A,113.2725,35.2067,焦作市,太极体育中心,细颗粒物(PM2.5),130,157,138,99,88,1,,,,86,60,20,20,1.7,1.3
2025-01-21T0700,3335A,113.3137,35.2641,焦作市,马村街道办,细颗粒物(PM2.5),105,114,122,79,80,30,,,,39,38,26,17,1.5,1.4
2025-01-21T0700,3336A,113.2465,35.2373,焦作市,焦作技师学院,细颗粒物(PM2.5),89,109,121,66,78,22,,,,48,42,15,17,1.6,1.4
2025-01-21T0700,3477A,113.1656,35.2539,焦作市,中站许衡医院,细颗粒物(PM2.5),100,86,104,75,75,64,,,,32,43,20,23,1.4,1.4
2025-01-21T0700,3981A,113.2449,35.1803,焦作市,原李万街道办,细颗粒物(PM2.5),122,122,136,92,89,4,,,,79,54,28,26,,1.2
2025-01-21T0700,1708A,116.3701,23.5345,揭阳市,新兴,细颗粒物(PM2.5),63,56,65,45,42,28,,,,40,26,5,6,0.8,0.8
2025-01-21T0700,1709A,116.3264,23.5443,揭阳市,西马,细颗粒物(PM2.5),63,64,68,45,37,19,,,,49,32,8,8,0.8,0.8
2025-01-21T0700,1710A,116.3611,23.5626,揭阳市,东兴,颗粒物(PM10),64,77,74,38,37,22,,,,47,32,6,8,0.8,0.7
2025-01-21T0700,1711A,116.4151,23.5294,揭阳市,渔湖,"颗粒物(PM10),细颗粒物(PM2.5)",60,69,67,43,37,4,,,,60,28,6,8,0.8,0.6
2025-01-21T0700,3320A,116.403,23.5699,揭阳市,曲溪,颗粒物(PM10),58,66,67,35,41,24,,,,57,35,2,2,0.8,0.7
2025-01-21T0700,1944A,102.1692,38.5167,金昌市,天庆家园,,36,33,69,25,44,36,,,,27,33,17,37,1.3,1.2
2025-01-21T0700,4022A,102.1647,38.5371,金昌市,金川区人防中心,,34,34,64,17,35,57,,,,12,22,12,26,0.7,0.8
2025-01-21T0700,4239A,102.1930,38.5319,金昌市,长春路96号,,33,33,48,23,35,72,,,,17,29,28,33,0.9,0.9
2025-01-21T0700,1262A,119.647,29.077,金华市,十五中,细颗粒物(PM2.5),104,115,100,78,64,38,,,,55,50,4,5,0.6,0.7
2025-01-21T0700,1263A,119.686,29.1029,金华市,监测站,细颗粒物(PM2.5),109,123,103,82,68,19,,,,63,62,5,7,0.7,0.7
2025-01-21T0700,3659A,119.656,29.1131,金华市,气象局,细颗粒物(PM2.5),110,119,114,83,78,5,,,,78,69,4,6,0.8,0.9
2025-01-21T0700,1767A,121.1115,41.0879,锦州市,南山,,18,16,67,8,52,57,,,,17,38,6,13,0.7,1.4
2025-01-21T0700,1769A,121.1836,41.1119,锦州市,百股街道,,47,47,81,24,66,40,,,,30,46,26,23,0.8,1
2025-01-21T0700,1770A,121.1178,41.1222,锦州市,天安街道,,22,22,69,15,47,55,,,,16,37,8,14,0.6,1.1
2025-01-21T0700,1771A,121.1303,41.1386,锦州市,北湖公园,,21,20,66,11,48,66,,,,12,38,5,12,0.4,1
2025-01-21T0700,2160A,112.85,35.5051,晋城市,自来水公司,细颗粒物(PM2.5),92,106,81,68,53,4,,,,57,53,31,24,2.4,1.6
2025-01-21T0700,2161A,112.8318,35.4936,晋城市,白云商贸,颗粒物(PM10),78,105,83,48,36,12,,,,55,48,19,15,2.3,1.4
2025-01-21T0700,2163A,112.8676,35.4897,晋城市,技术学院,细颗粒物(PM2.5),100,143,95,75,57,6,,,,67,65,32,22,2.4,1.5
2025-01-21T0700,3620A,112.8271,35.4828,晋城市,泽州一中,细颗粒物(PM2.5),89,88,75,66,43,19,,,,52,45,26,15,2.2,1.2
2025-01-21T0700,2173A,112.7249,37.7067,晋中市,南都小区,颗粒物(PM10),77,104,110,55,56,5,,,,62,60,21,26,1.1,1.1
2025-01-21T0700,2174A,112.6991,37.6982,晋中市,榆次区政府,颗粒物(PM10),71,92,108,45,53,18,,,,42,55,20,26,1.2,1.3
2025-01-21T0700,2865A,112.7195,37.6828,晋中市,榆次三中,"颗粒物(PM10),细颗粒物(PM2.5)",64,78,95,46,46,20,,,,36,49,15,25,0.9,1.1
2025-01-21T0700,4200A,112.7478,37.6954,晋中市,榆次一中,"颗粒物(PM10),细颗粒物(PM2.5)",70,90,100,51,49,24,,,,37,46,19,24,0.8,0.9
2025-01-21T0700,2439A,112.2014,31.0481,荆门市,竹园小学,细颗粒物(PM2.5),183,146,156,138,121,8,,,,91,43,7,10,1.6,1.1
2025-01-21T0700,2440A,112.1969,30.9891,荆门市,掇刀,细颗粒物(PM2.5),176,164,178,133,135,47,,,,69,65,13,17,1.1,1
2025-01-21T0700,2441A,112.2213,31.0386,荆门市,石化一小,细颗粒物(PM2.5),216,238,177,166,127,4,,,,96,53,12,13,1.6,1.1
2025-01-21T0700,3012A,112.1849,31.0362,荆门市,西山林语,细颗粒物(PM2.5),149,124,143,114,115,111,,,,18,24,5,6,0.7,0.6
2025-01-21T0700,3547A,112.1632,31.0138,荆门市,龙泉中学南校,细颗粒物(PM2.5),170,165,165,129,128,117,,,,30,30,22,16,0.9,0.9
2025-01-21T0700,1844A,112.2494,30.3197,荆州市,市图书馆,细颗粒物(PM2.5),234,187,146,184,150,10,,,,94,72,6,8,1.5,1.3
2025-01-21T0700,1845A,112.2008,30.3544,荆州市,市委党校,细颗粒物(PM2.5),252,209,164,202,154,11,,,,74,64,9,10,1.3,1
2025-01-21T0700,3194A,112.2747,30.3122,荆州市,管委会,细颗粒物(PM2.5),256,208,169,206,168,20,,,,94,71,8,10,1.4,1.2
2025-01-21T0700,3548A,112.1655,30.3364,荆州市,学苑路,细颗粒物(PM2.5),252,,156,202,152,27,,,,50,52,6,10,1.5,1.4
2025-01-21T0700,2343A,117.2117,29.2933,景德镇市,老干部活动中心,,40,39,62,28,39,13,,,,31,39,4,4,0.5,0.6
2025-01-21T0700,2344A,117.1894,29.2789,景德镇市,兽医站,,46,46,65,24,33,28,,,,28,46,4,4,0.8,0.9
2025-01-21T0700,2345A,117.1547,29.2617,景德镇市,台达陶瓷,,36,36,66,18,36,52,,,,17,46,2,25,0.3,0.6
2025-01-21T0700,2346A,117.2461,29.2956,景德镇市,陶研所,细颗粒物(PM2.5),52,36,56,36,60,13,,,,30,38,9,5,0.6,0.7
2025-01-21T0700,1803A,115.9872,29.6815,九江市,十里,细颗粒物(PM2.5),94,107,121,70,84,9,,,,71,65,7,10,1.2,1.2
2025-01-21T0700,1804A,115.9584,29.7046,九江市,茅山头,细颗粒物(PM2.5),97,109,118,72,80,20,,,,68,70,6,8,1.1,1.2
2025-01-21T0700,1805A,115.9877,29.7295,九江市,西园,细颗粒物(PM2.5),119,118,122,90,92,3,,,,119,92,11,14,0.9,1.3
2025-01-21T0700,1808A,115.9114,29.6038,九江市,综合工业园,细颗粒物(PM2.5),102,,104,76,89,41,,,,35,54,6,9,0.7,0.8
2025-01-21T0700,1809A,116.0721,29.7535,九江市,石化总厂,细颗粒物(PM2.5),125,108,114,95,96,49,,,,44,64,12,15,1.4,1.4
2025-01-21T0700,1810A,115.9773,29.5698,九江市,庐山气象台,,31,6,26,6,18,98,,,,3,8,7,7,0.6,0.9
2025-01-21T0700,3190A,116.0254,29.6994,九江市,外国语学校,细颗粒物(PM2.5),129,127,127,98,90,45,,,,49,33,9,15,0.6,0.7
2025-01-21T0700,4253A,116.0102,29.6594,九江市,莲花大道8号,细颗粒物(PM2.5),119,121,105,90,76,42,,,,46,33,11,12,1.2,0.6
2025-01-21T0700,2658A,98.5061,39.7443,酒泉市,仓门街子站,颗粒物(PM10),80,110,101,30,27,25,,,,28,19,20,18,0.7,0.6
2025-01-21T0700,4240A,98.4958,39.7339,酒泉市,玉门东路5号,颗粒物(PM10),89,127,110,33,26,15,,,,29,20,17,24,0.8,0.6
2025-01-21T0700,2698A,76.0072,39.4467,喀什地区,巡警大队,细颗粒物(PM2.5),115,150,168,87,86,6,,,,95,75,11,12,5.6,3.4
2025-01-21T0700,2699A,75.9755,39.4694,喀什地区,吾办,细颗粒物(PM2.5),165,,156,125,110,7,,,,90,80,1,5,4.8,2.8
2025-01-21T0700,4027A,75.9483,39.4689,喀什地区,老干局,颗粒物(PM10),122,193,187,87,93,8,,,,55,65,4,8,5.3,3.7
2025-01-21T0700,1824A,114.3389,34.7781,开封市,肿瘤医院,细颗粒物(PM2.5),226,226,187,176,146,20,,,,68,51,8,10,1.4,1.1
2025-01-21T0700,1826A,114.2885,34.7965,开封市,世纪星幼儿园,细颗粒物(PM2.5),235,,159,185,157,52,,,,37,43,10,11,1.0,0.9
2025-01-21T0700,3147A,114.3438,34.8106,开封市,龙亭公园,细颗粒物(PM2.5),228,204,183,178,157,35,,,,58,56,10,10,1.4,1.1
2025-01-21T0700,3210A,114.3644,34.7964,开封市,汴京公园,细颗粒物(PM2.5),235,227,220,185,174,38,,,,58,74,13,11,1.3,1.2
2025-01-21T0700,3473A,114.2485,34.8306,开封市,技师学院,细颗粒物(PM2.5),163,195,154,124,105,61,,,,42,47,7,8,1.3,1.3
2025-01-21T0700,3592A,114.4644,34.7556,开封市,祥符区生态环境局,细颗粒物(PM2.5),216,192,203,166,163,32,,,,50,56,8,9,0.9,1
2025-01-21T0700,1951A,84.895,45.6094,克拉玛依市,长征新村,细颗粒物(PM2.5),118,112,138,89,94,65,,,,29,41,8,10,1.0,1.1
2025-01-21T0700,1952A,84.8988,45.5893,克拉玛依市,南林小区,细颗粒物(PM2.5),133,122,134,101,103,64,,,,14,22,3,6,1.1,1.2
2025-01-21T0700,1954A,84.905,44.3396,克拉玛依市,独山子区,细颗粒物(PM2.5),189,175,156,142,144,60,,,,37,39,4,7,1.7,1.3
2025-01-21T0700,1955A,85.6979,46.098,克拉玛依市,乌尔禾区商贸楼,细颗粒物(PM2.5),149,,110,114,110,78,,,,24,31,6,6,1.2,1.2
2025-01-21T0700,3612A,85.1045,45.6899,克拉玛依市,白碱滩区新站,细颗粒物(PM2.5),129,131,131,98,95,61,,,,20,28,6,8,1.1,1.1
2025-01-21T0700,2697A,76.1454,39.7142,克孜勒苏柯尔克孜自治州,市人民政府,细颗粒物(PM2.5),80,94,104,59,65,61,,,,20,24,4,6,1.4,1.4
2025-01-21T0700,3665A,76.1658,39.7157,克孜勒苏柯尔克孜自治州,克州文化中心,细颗粒物(PM2.5),72,74,98,52,64,72,,,,29,35,9,11,0.9,1.2
2025-01-21T0700,1450A,102.8204,24.8886,昆明市,呈贡新区,细颗粒物(PM2.5),54,50,41,38,37,4,,,,51,26,8,4,0.7,0.5
2025-01-21T0700,1452A,102.7252,25.0902,昆明市,龙泉镇,细颗粒物(PM2.5),53,52,49,37,40,3,,,,30,24,6,6,0.9,0.8
2025-01-21T0700,1453A,102.7266,25.0375,昆明市,东风东路,细颗粒物(PM2.5),54,46,54,38,42,44,,,,18,23,6,7,0.6,0.6
2025-01-21T0700,1454A,102.6742,25.0669,昆明市,金鼎山,细颗粒物(PM2.5),62,52,51,44,38,8,,,,40,21,8,9,0.8,0.6
2025-01-21T0700,1455A,102.6644,25.0401,昆明市,碧鸡广场,细颗粒物(PM2.5),62,56,55,44,40,19,,,,36,22,6,6,0.6,0.6
2025-01-21T0700,3179A,102.7494,25.0119,昆明市,官渡区博物馆,细颗粒物(PM2.5),54,42,52,38,41,39,,,,17,25,7,7,0.6,0.6
2025-01-21T0700,3375A,102.8017,24.8336,昆明市,青年创业园,,46,46,44,31,32,2,,,,37,22,9,6,0.6,0.5
2025-01-21T0700,3550A,102.7997,24.9786,昆明市,昆明学院,细颗粒物(PM2.5),69,79,63,50,43,11,,,,44,32,9,9,0.5,0.4
2025-01-21T0700,3551A,102.5967,24.6736,昆明市,晋宁区生态环境分局,颗粒物(PM10),71,92,57,41,37,21,,,,31,23,3,4,0.9,0.7
2025-01-21T0700,3552A,102.6678,24.9856,昆明市,云天化总部,细颗粒物(PM2.5),62,59,53,44,40,13,,,,41,22,6,7,0.7,0.6
2025-01-21T0700,1456A,91.1319,29.6514,拉萨市,八廓街,,20,17,27,6,17,61,,,,12,25,5,7,0.4,0.7
2025-01-21T0700,1457A,91.1221,29.6747,拉萨市,市环保局,,37,37,41,19,27,18,,,,38,34,6,7,1.6,1.5
2025-01-21T0700,1458A,91.0874,29.6475,拉萨市,区监测站,,18,18,19,10,11,56,,,,20,31,6,6,0.6,0.7
2025-01-21T0700,1459A,91.1774,29.6541,拉萨市,西藏大学,,21,20,22,7,10,66,,,,5,16,5,6,0.4,0.5
2025-01-21T0700,1460A,90.9798,29.6588,拉萨市,区辐射站,,26,26,35,6,22,46,,,,24,34,6,9,0.6,1
2025-01-21T0700,1461A,91.0834,29.6292,拉萨市,拉萨火车站,,31,31,18,16,11,20,,,,54,24,4,4,1.0,0.8
2025-01-21T0700,2520A,109.2203,23.7256,来宾市,来宾技工学校,细颗粒物(PM2.5),147,136,135,112,100,15,,,,44,48,32,24,1.2,1.3
2025-01-21T0700,3535A,109.1781,23.7297,来宾市,兴宾区政府,细颗粒物(PM2.5),144,127,105,110,88,65,,,,20,24,7,10,1.1,1.1
2025-01-21T0700,4002A,109.2416,23.7461,来宾市,中南小学,细颗粒物(PM2.5),142,157,153,108,98,6,,,,57,56,16,18,1.5,1.5
2025-01-21T0700,1479A,103.831,36.0464,兰州市,铁路设计院,细颗粒物(PM2.5),89,103,109,66,77,3,,,,81,100,18,24,2.3,2.7
2025-01-21T0700,3241A,103.7439,36.0842,兰州市,百合公园,细颗粒物(PM2.5),98,112,109,73,73,6,,,,71,83,16,21,2.1,2
2025-01-21T0700,3242A,103.9611,35.998,兰州市,和平,细颗粒物(PM2.5),84,88,85,62,56,15,,,,70,55,25,24,2.0,1.5
2025-01-21T0700,4236A,103.6293,36.0938,兰州市,庄浪东路808号,细颗粒物(PM2.5),75,95,104,55,68,10,,,,64,79,16,20,1.3,1.4
2025-01-21T0700,4237A,103.7251,36.1043,兰州市,安宁西路88号,细颗粒物(PM2.5),89,103,119,66,69,1,,,,76,80,21,29,1.3,1.5
2025-01-21T0700,3245A,103.6633,36.533,兰州新区,新区管委会,,42,42,58,22,42,36,,,,19,28,11,24,0.7,0.9
2025-01-21T0700,3246A,103.6975,36.4789,兰州新区,舟曲中学,,50,50,56,32,42,36,,,,27,40,10,27,0.8,1
2025-01-21T0700,1067A,116.6708,39.5111,廊坊市,药材公司,细颗粒物(PM2.5),79,77,132,58,94,2,,,,75,69,9,13,0.8,1.1
2025-01-21T0700,1068A,116.7214,39.5589,廊坊市,开发区,细颗粒物(PM2.5),78,92,129,57,81,6,,,,81,76,9,12,0.9,1.1
2025-01-21T0700,1070A,116.7244,39.5269,廊坊市,北华航天学院,细颗粒物(PM2.5),77,100,141,56,89,3,,,,69,68,9,12,1.3,1.2
2025-01-21T0700,2919A,116.7022,39.5453,廊坊市,河北工业大学,细颗粒物(PM2.5),75,96,126,55,85,2,,,,76,72,12,16,0.9,1.1
2025-01-21T0700,2535A,103.7723,29.5462,乐山市,花湖湾,细颗粒物(PM2.5),135,120,94,103,79,67,,,,19,17,6,6,0.8,0.7
2025-01-21T0700,2536A,103.7627,29.5844,乐山市,牛耳桥,细颗粒物(PM2.5),139,115,97,106,88,48,,,,22,31,5,5,0.7,0.7
2025-01-21T0700,2537A,103.7508,29.6006,乐山市,市第三水厂,细颗粒物(PM2.5),118,110,94,89,75,34,,,,26,34,4,4,0.9,0.9
2025-01-21T0700,2538A,103.7571,29.5664,乐山市,市监测站,细颗粒物(PM2.5),103,99,86,77,66,58,,,,14,21,4,5,0.7,0.7
2025-01-21T0700,3361A,103.7311,29.5628,乐山市,理工大学,细颗粒物(PM2.5),129,110,93,98,82,55,,,,17,23,8,9,0.9,0.9
2025-01-21T0700,2599A,100.2497,26.8802,丽江市,丽江古城,细颗粒物(PM2.5),53,40,43,37,30,64,,,,16,13,9,10,1.0,1
2025-01-21T0700,2600A,100.2203,26.8906,丽江市,市中心,细颗粒物(PM2.5),68,,38,49,33,48,,,,20,14,6,8,0.7,0.6
2025-01-21T0700,1267A,119.914,28.4514,丽水市,监测站大楼,细颗粒物(PM2.5),55,45,50,39,44,25,,,,31,31,4,5,0.5,0.5
2025-01-21T0700,1268A,119.93,28.4586,丽水市,莲都小学,,44,44,54,29,35,32,,,,33,27,5,6,0.6,0.6
2025-01-21T0700,1269A,119.879,28.4231,丽水市,余庄前,细颗粒物(PM2.5),58,49,50,41,37,11,,,,24,23,3,4,0.4,0.4
2025-01-21T0700,1173A,119.176,34.5885,连云港市,市环境监测站,颗粒物(PM10),57,63,66,36,39,61,,,,18,29,8,10,0.7,0.9
2025-01-21T0700,3000A,119.3581,34.6972,连云港市,德源药业,颗粒物(PM10),62,73,57,36,28,64,,,,26,31,8,8,0.4,0.5
2025-01-21T0700,3007A,119.178,34.844,连云港市,新城一中,细颗粒物(PM2.5),74,74,80,54,50,31,,,,61,63,10,13,0.6,0.9
2025-01-21T0700,3008A,119.3608,34.7519,连云港市,胡沟管理处,细颗粒物(PM2.5),58,58,59,41,34,14,,,,52,55,6,9,0.8,0.7
2025-01-21T0700,3009A,119.1478,34.5911,连云港市,矿山设计院,颗粒物(PM10),59,68,74,41,41,48,,,,27,35,8,10,0.8,0.9
2025-01-21T0700,3434A,119.2413,34.6539,连云港市,工贸学校,细颗粒物(PM2.5),87,91,71,64,45,91,,,,14,23,12,13,0.9,0.9
2025-01-21T0700,3664A,119.4172,34.7341,连云港市,连云街道,细颗粒物(PM2.5),98,126,73,73,44,2,,,,73,49,12,13,1.2,1
2025-01-21T0700,2571A,102.3431,27.8099,凉山彝族自治州,青龙寺,,49,49,46,21,18,38,,,,9,7,6,6,0.9,0.8
2025-01-21T0700,2572A,102.2721,27.8415,凉山彝族自治州,邛海宾馆,,49,48,48,34,32,32,,,,23,15,11,8,1.2,0.9
2025-01-21T0700,2573A,102.2625,27.898,凉山彝族自治州,西昌市政府,,48,38,41,33,30,39,,,,16,14,9,9,1.0,0.9
2025-01-21T0700,2574A,102.2685,27.8851,凉山彝族自治州,凉山州政府,细颗粒物(PM2.5),52,50,46,36,32,32,,,,23,16,10,8,1.0,0.8
2025-01-21T0700,2575A,102.237,27.8914,凉山彝族自治州,长安,细颗粒物(PM2.5),54,49,49,38,34,23,,,,31,24,9,10,1.2,0.9
2025-01-21T0700,2212A,123.2,41.1953,辽阳市,宏伟区,细颗粒物(PM2.5),129,121,106,98,83,15,,,,56,50,14,18,1.2,1.4
2025-01-21T0700,2213A,123.1683,41.2495,辽阳市,新华园,细颗粒物(PM2.5),100,108,127,75,84,14,,,,62,63,18,31,1.2,1.8
2025-01-21T0700,2214A,123.2354,41.2639,辽阳市,滨河路,细颗粒物(PM2.5),140,126,76,107,61,9,,,,65,41,11,12,1.5,1
2025-01-21T0700,2215A,123.149,41.2991,辽阳市,铁西工业园,细颗粒物(PM2.5),114,108,151,86,113,2,,,,56,58,8,11,1.2,2
2025-01-21T0700,2227A,125.1358,42.8845,辽源市,环保局,细颗粒物(PM2.5),94,90,88,70,64,7,,,,46,46,13,13,1.8,1.5
2025-01-21T0700,3239A,125.0764,42.9078,辽源市,银鹰制药,细颗粒物(PM2.5),98,86,82,73,67,3,,,,50,46,9,9,1.7,1.5
2025-01-21T0700,1625A,115.9848,36.4372,聊城市,区政府,细颗粒物(PM2.5),169,180,137,128,84,61,,,,36,39,22,21,1.3,1.1
2025-01-21T0700,2878A,116.0072,36.4343,聊城市,聊大东校,细颗粒物(PM2.5),196,188,146,147,93,59,,,,39,47,18,18,1.4,1.2
2025-01-21T0700,3200A,115.9819,36.4978,聊城市,监控中心,细颗粒物(PM2.5),170,169,132,129,84,61,,,,39,48,22,21,1.4,1.3
2025-01-21T0700,3513A,116.0445,36.4361,聊城市,九州社区,细颗粒物(PM2.5),172,155,120,130,82,61,,,,35,42,17,18,1.1,0.9
2025-01-21T0700,4018A,116.0567,36.4608,聊城市,星美广场,细颗粒物(PM2.5),180,165,130,136,84,57,,,,30,37,20,20,1.1,0.9
2025-01-21T0700,2632A,94.3681,29.6376,林芝市,林芝监测站,,14,7,14,7,7,43,,,,2,5,6,6,0.2,0.2
2025-01-21T0700,2633A,94.3616,29.6616,林芝市,林芝人民医院,,13,13,18,8,8,37,,,,2,5,6,6,0.1,0.2
2025-01-21T0700,2603A,100.0781,23.8982,临沧市,市环保局,,22,22,34,9,23,28,,,,12,14,8,10,0.5,0.5
2025-01-21T0700,2604A,100.0894,23.8822,临沧市,市气象局,,38,26,34,26,28,27,,,,15,16,8,8,0.6,0.6
2025-01-21T0700,1733A,111.5531,36.0783,临汾市,临钢医院,细颗粒物(PM2.5),75,96,121,55,73,10,,,,53,44,20,15,1.6,1.6
2025-01-21T0700,1734A,111.5028,36.0714,临汾市,技工学校,细颗粒物(PM2.5),83,95,133,61,85,3,,,,59,55,21,17,1.9,1.7
2025-01-21T0700,1736A,111.5018,36.0855,临汾市,市委,细颗粒物(PM2.5),78,104,139,57,81,4,,,,62,56,23,17,1.6,1.3
2025-01-21T0700,3018A,111.505,36.1014,临汾市,唐尧大酒店,细颗粒物(PM2.5),90,112,137,67,83,4,,,,60,58,26,18,1.9,1.4
2025-01-21T0700,4244A,111.4879,36.0530,临汾市,启星学校,细颗粒物(PM2.5),80,96,133,59,85,1,,,,60,54,17,13,1.9,1.8
2025-01-21T0700,2667A,103.2069,35.5993,临夏回族自治州,环保局,颗粒物(PM10),84,118,140,57,71,11,,,,29,40,12,16,2.4,2.1
2025-01-21T0700,2668A,103.2417,35.6057,临夏回族自治州,建设大厦,颗粒物(PM10),69,87,105,46,38,34,,,,13,26,17,18,1.5,1.3
2025-01-21T0700,1618A,118.3429,35.0532,临沂市,沂河小区,细颗粒物(PM2.5),112,107,142,84,101,9,,,,59,65,17,24,0.9,1.2
2025-01-21T0700,1619A,118.295,35.0583,临沂市,鲁南制药厂,细颗粒物(PM2.5),129,134,150,98,98,5,,,,90,65,17,30,1.1,1.1
2025-01-21T0700,1620A,118.2794,34.9976,临沂市,新光毛纺厂,细颗粒物(PM2.5),112,114,138,84,95,7,,,,115,67,21,28,0.9,1.2
2025-01-21T0700,1621A,118.3956,35.0888,临沂市,河东保险公司,细颗粒物(PM2.5),102,107,141,76,93,2,,,,67,76,6,19,0.7,1
2025-01-21T0700,3370A,118.3564,35.0215,临沂市,十里堡居委,细颗粒物(PM2.5),104,110,134,78,93,13,,,,45,56,23,25,0.9,1.2
2025-01-21T0700,3496A,118.3604,35.1084,临沂市,南坊新区,细颗粒物(PM2.5),104,107,135,78,94,7,,,,63,66,16,18,0.9,1.1
2025-01-21T0700,3860A,118.3920,35.0300,临沂市,皇山花园小区,细颗粒物(PM2.5),88,102,135,65,86,8,,,,59,70,15,19,1.1,1.3
2025-01-21T0700,1870A,109.4856,24.3895,柳州市,柳东小学,细颗粒物(PM2.5),133,101,109,101,87,77,,,,28,28,19,15,0.9,0.9
2025-01-21T0700,1871A,109.4157,24.3277,柳州市,环保监测站,细颗粒物(PM2.5),138,168,157,105,101,20,,,,48,59,17,21,1.3,1.5
2025-01-21T0700,1872A,109.389,24.341,柳州市,河西水厂,细颗粒物(PM2.5),118,150,165,89,96,18,,,,48,64,24,23,1.3,1.5
2025-01-21T0700,1873A,109.4311,24.2921,柳州市,市四中,细颗粒物(PM2.5),132,122,146,100,95,27,,,,46,64,17,20,1.6,2.2
2025-01-21T0700,1874A,109.4006,24.3631,柳州市,市九中,细颗粒物(PM2.5),137,154,146,104,99,18,,,,47,55,19,17,1.2,1.4
2025-01-21T0700,1875A,109.4958,24.3134,柳州市,古亭山,细颗粒物(PM2.5),109,101,86,82,60,18,,,,65,62,24,22,1.1,1.1
2025-01-21T0700,3402A,109.5422,24.3996,柳州市,市二中,细颗粒物(PM2.5),163,,101,124,85,3,,,,64,48,10,11,1.3,1.1
2025-01-21T0700,2307A,116.5079,31.737,六安市,监测大楼,细颗粒物(PM2.5),108,95,104,81,83,63,,,,31,34,6,9,0.7,0.8
2025-01-21T0700,2308A,116.4738,31.7643,六安市,皖西学院,细颗粒物(PM2.5),110,94,104,83,76,68,,,,33,33,6,8,0.9,0.8
2025-01-21T0700,2309A,116.4996,31.7905,六安市,朝阳厂,细颗粒物(PM2.5),103,90,98,77,77,71,,,,33,32,4,6,0.7,0.7
2025-01-21T0700,2310A,116.5567,31.7886,六安市,开发区,细颗粒物(PM2.5),135,146,136,103,90,37,,,,47,39,5,7,1.1,1
2025-01-21T0700,2577A,104.83,26.5917,六盘水市,黄土坡,细颗粒物(PM2.5),70,51,107,51,77,97,,,,14,25,8,14,0.8,1
2025-01-21T0700,2578A,104.89,26.5939,六盘水市,水钢,细颗粒物(PM2.5),87,73,115,64,88,99,,,,12,20,5,10,0.7,0.8
2025-01-21T0700,2579A,104.8475,26.5894,六盘水市,民中,细颗粒物(PM2.5),64,53,96,46,78,94,,,,14,25,9,13,0.8,1
2025-01-21T0700,2580A,104.9544,26.5506,六盘水市,双水,细颗粒物(PM2.5),73,61,92,53,67,98,,,,14,20,8,13,0.7,0.8
2025-01-21T0700,2336A,117.0217,25.1033,龙岩市,龙岩市监测站,,43,40,43,30,28,28,,,,38,37,5,5,0.6,0.7
2025-01-21T0700,2337A,117.0258,25.0661,龙岩市,闽西职业技术学院,,39,39,49,24,24,21,,,,38,36,1,3,0.7,0.7
2025-01-21T0700,2338A,117.0196,25.0306,龙岩市,龙岩学院,,40,39,35,28,23,33,,,,25,21,1,4,0.4,0.4
2025-01-21T0700,2885A,104.9339,33.3826,陇南市,滨江中学,颗粒物(PM10),53,55,91,32,58,30,,,,29,52,20,55,0.9,2.3
2025-01-21T0700,3247A,104.955,33.371,陇南市,市总工会,细颗粒物(PM2.5),52,44,61,36,42,42,,,,25,32,12,22,0.5,0.7
2025-01-21T0700,2487A,111.9589,27.8901,娄底市,电视发射台,细颗粒物(PM2.5),84,66,61,62,54,97,,,,16,16,7,10,0.7,0.8
2025-01-21T0700,2488A,111.9975,27.725,娄底市,市监测站,细颗粒物(PM2.5),130,131,142,99,102,27,,,,52,56,26,24,1.9,1.9
2025-01-21T0700,2489A,112.0194,27.7314,娄底市,市委党校,细颗粒物(PM2.5),128,127,134,97,94,10,,,,49,52,29,32,1.4,1.8
2025-01-21T0700,2490A,111.9561,27.7569,娄底市,涟钢,细颗粒物(PM2.5),119,114,132,90,93,38,,,,26,37,7,23,1.0,1.4
2025-01-21T0700,2491A,111.9892,27.7044,娄底市,市政府,细颗粒物(PM2.5),117,102,120,88,88,15,,,,26,45,6,10,0.9,1.2
2025-01-21T0700,1894A,105.4427,28.9063,泸州市,小市上码头,细颗粒物(PM2.5),173,159,146,131,118,50,,,,32,32,4,3,1.3,1.1
2025-01-21T0700,1895A,105.4241,28.8573,泸州市,兰田宪桥,细颗粒物(PM2.5),202,167,141,152,121,31,,,,32,30,4,3,1.1,1.1
2025-01-21T0700,1896A,105.4379,28.8833,泸州市,市环监站,细颗粒物(PM2.5),190,165,131,143,113,34,,,,30,32,6,6,0.9,0.9
2025-01-21T0700,3490A,105.3617,28.7703,泸州市,纳溪区环保局,细颗粒物(PM2.5),170,138,112,129,95,3,,,,38,35,5,5,1.3,1.1
2025-01-21T0700,2183A,111.1406,37.5211,吕梁市,环保局,颗粒物(PM10),70,90,76,25,29,2,,,,49,52,2,6,0.4,0.6
2025-01-21T0700,2185A,111.1297,37.5136,吕梁市,自来水公司,颗粒物(PM10),71,91,103,40,37,3,,,,46,49,20,14,0.6,0.8
2025-01-21T0700,2867A,111.1283,37.51,吕梁市,马茂庄小学,颗粒物(PM10),70,89,111,31,36,2,,,,49,54,28,19,0.6,0.9
2025-01-21T0700,1812A,112.3931,34.6516,洛阳市,市委党校,细颗粒物(PM2.5),145,128,152,111,99,19,,,,44,70,7,14,1.2,1.5
2025-01-21T0700,1815A,112.494,34.6886,洛阳市,河南林校,细颗粒物(PM2.5),188,141,141,141,134,5,,,,59,68,7,11,1.3,1.4
2025-01-21T0700,1816A,112.3844,34.623,洛阳市,开发区管委会,细颗粒物(PM2.5),150,138,140,115,111,23,,,,42,45,8,10,1.0,1
2025-01-21T0700,1817A,112.4267,34.6258,洛阳市,市委新办公区,细颗粒物(PM2.5),128,130,143,97,93,25,,,,35,56,5,10,0.9,1.1
2025-01-21T0700,3340A,112.6005,34.6326,洛阳市,伊滨,细颗粒物(PM2.5),150,,164,115,99,6,,,,52,56,5,10,1.1,0.8
2025-01-21T0700,3341A,112.4951,34.6332,洛阳市,中移产业园,细颗粒物(PM2.5),109,93,114,82,92,25,,,,32,53,3,10,0.9,1.1
2025-01-21T0700,3593A,112.5736,34.8993,洛阳市,吉利监测站,细颗粒物(PM2.5),93,104,134,69,85,42,,,,29,50,5,10,0.8,0.9
2025-01-21T0700,3635A,112.3677,34.662,洛阳市,河科大西苑校区,细颗粒物(PM2.5),198,206,160,148,108,5,,,,64,61,29,18,1.5,1.3
2025-01-21T0700,3636A,112.4388,34.6781,洛阳市,英才小学,细颗粒物(PM2.5),185,208,169,139,108,0,,,,74,78,32,22,1.7,1.4
2025-01-21T0700,4214A,112.4600,34.6949,洛阳市,春都路1号院,细颗粒物(PM2.5),122,140,159,92,96,10,,,,81,88,8,12,1.4,1.5
2025-01-21T0700,2399A,114.051,33.5699,漯河市,三五一五工厂,细颗粒物(PM2.5),249,203,172,199,154,46,,,,46,45,13,14,1.2,1.1
2025-01-21T0700,2400A,114.0055,33.5698,漯河市,漯河大学,细颗粒物(PM2.5),211,180,151,161,123,40,,,,60,45,11,13,1.0,1
2025-01-21T0700,2401A,114.0138,33.5828,漯河市,市水利局,细颗粒物(PM2.5),213,193,161,163,128,48,,,,40,35,11,13,1.0,1
2025-01-21T0700,2402A,114.0261,33.5698,漯河市,市广电局,细颗粒物(PM2.5),217,203,163,167,127,47,,,,47,41,13,14,1.0,0.9
2025-01-21T0700,3478A,113.9749,33.5664,漯河市,市图书馆,细颗粒物(PM2.5),228,204,166,178,135,56,,,,54,49,13,12,0.9,0.8
2025-01-21T0700,3479A,114.0967,33.5906,漯河市,召陵区卫健委,细颗粒物(PM2.5),225,198,175,175,139,35,,,,58,43,15,11,0.9,0.9
2025-01-21T0700,1798A,118.5092,31.6837,马鞍山市,湖东路四小,细颗粒物(PM2.5),117,141,123,88,66,38,,,,61,62,12,13,1.1,1.2
2025-01-21T0700,1799A,118.5024,31.6449,马鞍山市,开发区,细颗粒物(PM2.5),147,163,149,112,95,49,,,,47,57,10,13,1.0,1.1
2025-01-21T0700,1802A,118.6245,31.7241,马鞍山市,濮塘,细颗粒物(PM2.5),117,101,102,88,77,50,,,,38,33,6,13,0.7,0.7
2025-01-21T0700,3633A,118.4918,31.6809,马鞍山市,雨山,细颗粒物(PM2.5),133,133,120,101,80,43,,,,42,56,8,14,1.1,1.3
2025-01-21T0700,4191A,118.5274,31.72227,马鞍山市,慈湖高新区,细颗粒物(PM2.5),130,106,99,99,72,36,,,,54,44,10,13,1.1,1.1
2025-01-21T0700,1686A,111.0286,21.4688,茂名市,电白南海,细颗粒物(PM2.5),77,83,81,56,45,80,,,,26,28,16,12,0.9,0.8
2025-01-21T0700,1687A,110.9294,21.6533,茂名市,茂石化七小,细颗粒物(PM2.5),83,92,95,61,47,74,,,,30,30,22,17,0.7,0.8
2025-01-21T0700,1688A,110.9107,21.6687,茂名市,健康路,细颗粒物(PM2.5),89,88,85,66,54,100,,,,31,31,37,16,0.9,0.9
2025-01-21T0700,1689A,110.8592,21.6828,茂名市,高岭,"颗粒物(PM10),细颗粒物(PM2.5)",98,146,130,73,66,31,,,,50,38,17,21,0.9,1.1
2025-01-21T0700,3450A,111.01,21.5165,茂名市,电白水东,细颗粒物(PM2.5),73,85,81,53,44,95,,,,24,23,33,19,0.9,0.8
2025-01-21T0700,2539A,104.0308,30.0478,眉山市,黑龙滩水库,细颗粒物(PM2.5),95,100,85,71,61,81,,,,5,6,5,4,0.7,0.6
2025-01-21T0700,2540A,103.8416,30.0874,眉山市,气象局,细颗粒物(PM2.5),125,129,121,95,88,5,,,,31,33,2,1,1.0,1
2025-01-21T0700,3137A,103.8578,30.0744,眉山市,市委党校,细颗粒物(PM2.5),107,97,92,80,75,18,,,,33,40,6,6,0.7,0.8
2025-01-21T0700,3148A,103.8291,30.0564,眉山市,区人社局,细颗粒物(PM2.5),122,,73,92,78,4,,,,43,45,8,7,1.0,0.9
2025-01-21T0700,1690A,116.1231,24.3284,梅州市,梅江月梅,,42,42,48,23,31,26,,,,26,34,8,9,0.8,0.9
2025-01-21T0700,1691A,116.0797,24.2719,梅州市,梅县新城,,39,38,53,27,35,16,,,,33,41,4,5,0.6,0.7
2025-01-21T0700,1692A,116.1248,24.2654,梅州市,环境监控中心,,42,38,52,29,34,15,,,,36,41,15,17,0.4,0.4
2025-01-21T0700,3315A,116.1233,24.2991,梅州市,梅龙,,33,,41,23,30,32,,,,22,33,6,9,0.5,0.7
2025-01-21T0700,1878A,104.7778,31.4741,绵阳市,富乐山,细颗粒物(PM2.5),107,96,94,80,75,35,,,,14,22,2,2,1.2,1.2
2025-01-21T0700,1880A,104.6697,31.4668,绵阳市,高新区自来水公司,细颗粒物(PM2.5),104,103,121,78,85,7,,,,44,43,3,5,0.9,1
2025-01-21T0700,1881A,104.7287,31.5075,绵阳市,三水厂,细颗粒物(PM2.5),145,138,125,111,98,2,,,,44,43,5,5,1.5,1.5
2025-01-21T0700,3491A,104.69,31.5322,绵阳市,西科大附属小学,细颗粒物(PM2.5),144,140,126,110,99,6,,,,39,41,5,5,1.3,1.4
2025-01-21T0700,3492A,104.5648,31.5343,绵阳市,安州区旅游局,细颗粒物(PM2.5),140,117,129,107,112,29,,,,22,37,6,9,1.0,1.2
2025-01-21T0700,4226A,104.7651,31.4531,绵阳市,绵阳市气象局,,,,107,75,74,44,,,,19,32,3,2,0.7,0.8
2025-01-21T0700,1784A,129.61,44.561,牡丹江市,环保大楼,细颗粒物(PM2.5),78,88,104,57,68,7,,,,50,49,6,9,0.8,1
2025-01-21T0700,1785A,129.6115,44.5782,牡丹江市,文化广场,细颗粒物(PM2.5),94,107,115,70,69,11,,,,52,50,8,12,1.5,1.5
2025-01-21T0700,1786A,129.5904,44.5963,牡丹江市,第一医院,细颗粒物(PM2.5),152,125,112,116,92,12,,,,48,45,12,13,1.1,1.1
2025-01-21T0700,1787A,129.6364,44.6075,牡丹江市,机车工厂,细颗粒物(PM2.5),70,85,104,51,66,14,,,,38,37,7,10,1.0,1.1
2025-01-21T0700,1788A,129.6386,44.5462,牡丹江市,第一中学,细颗粒物(PM2.5),55,42,77,39,62,13,,,,34,37,7,8,0.9,1
2025-01-21T0700,2531A,105.0703,29.61,内江市,市监测站,细颗粒物(PM2.5),138,111,97,105,99,34,,,,24,37,6,7,1.0,1.1
2025-01-21T0700,2532A,105.0717,29.5947,内江市,东兴区政府,细颗粒物(PM2.5),130,,88,99,87,40,,,,27,33,4,4,1.0,1.1
2025-01-21T0700,2533A,105.0653,29.5817,内江市,内江二中,细颗粒物(PM2.5),148,,104,113,92,13,,,,42,39,8,9,1.1,1.1
2025-01-21T0700,2534A,105.0406,29.5822,内江市,内江日报社,细颗粒物(PM2.5),139,111,97,106,92,24,,,,33,42,10,10,1.1,1.1
2025-01-21T0700,2628A,92.0657,31.4846,那曲市,那曲监测站,,33,,47,23,40,37,,,,11,12,6,10,1.6,1.4
2025-01-21T0700,3128A,92.0506,31.4797,那曲市,那曲会议中心,,32,32,43,13,19,35,,,,17,12,3,4,1.2,1
2025-01-21T0700,1290A,115.8931,28.6843,南昌市,省外办,细颗粒物(PM2.5),125,119,132,95,98,48,,,,46,63,10,9,1.0,1.1
2025-01-21T0700,1291A,115.8886,28.7003,南昌市,省林业公司,细颗粒物(PM2.5),119,114,122,90,84,53,,,,64,69,14,12,1.0,0.8
2025-01-21T0700,1292A,115.8126,28.7442,南昌市,林科所,细颗粒物(PM2.5),83,85,98,61,67,38,,,,82,59,10,11,0.5,0.6
2025-01-21T0700,1294A,115.8518,28.687,南昌市,建工学校,细颗粒物(PM2.5),108,129,128,81,84,28,,,,96,82,14,14,1.3,1.2
2025-01-21T0700,1295A,115.8921,28.6424,南昌市,象湖,细颗粒物(PM2.5),122,110,130,92,92,50,,,,68,80,11,10,1.5,1.4
2025-01-21T0700,1296A,115.7423,28.7996,南昌市,武术学校,,46,,49,32,43,22,,,,13,18,2,3,0.4,0.5
2025-01-21T0700,3046A,115.9084,28.6062,南昌市,机电学校,细颗粒物(PM2.5),125,159,151,95,88,24,,,,88,76,17,15,1.1,1
2025-01-21T0700,3690A,115.9721,28.7031,南昌市,外国语学校,细颗粒物(PM2.5),105,126,119,79,72,29,,,,66,56,8,11,0.8,0.7
2025-01-21T0700,4192A,115.9316,28.68677,南昌市,南京东路235号,细颗粒物(PM2.5),127,132,130,96,88,45,,,,64,59,8,8,0.9,0.8
2025-01-21T0700,1905A,106.056,30.8064,南充市,西山风景区,细颗粒物(PM2.5),108,97,78,81,70,51,,,,11,15,1,2,1.0,1
2025-01-21T0700,1906A,106.0789,30.8023,南充市,南充市委,细颗粒物(PM2.5),102,92,99,76,79,19,,,,19,30,3,3,0.7,0.8
2025-01-21T0700,1907A,106.1031,30.8217,南充市,南充炼油厂,细颗粒物(PM2.5),117,104,105,88,82,19,,,,36,37,4,4,0.9,0.9
2025-01-21T0700,1909A,106.0642,30.7636,南充市,嘉陵区环保局,细颗粒物(PM2.5),113,106,88,85,76,31,,,,31,44,3,3,0.8,0.9
2025-01-21T0700,1910A,106.1087,30.8388,南充市,市环境监测站,细颗粒物(PM2.5),97,95,103,72,74,18,,,,30,26,6,5,0.8,0.8
2025-01-21T0700,4227A,106.1083,30.7884,南充市,梨树横街98号,细颗粒物(PM2.5),95,94,109,71,79,6,,,,39,43,7,8,1.0,0.9
2025-01-21T0700,1151A,118.8086,32.1065,南京市,迈皋桥,细颗粒物(PM2.5),134,127,101,102,71,12,,,,94,86,11,20,0.9,1.1
2025-01-21T0700,1152A,118.7538,32.0551,南京市,草场门,细颗粒物(PM2.5),117,122,100,88,66,3,,,,97,80,12,11,1.0,0.9
2025-01-21T0700,1153A,118.7794,32.0745,南京市,山西路,细颗粒物(PM2.5),117,124,107,88,70,26,,,,106,84,6,8,0.8,0.8
2025-01-21T0700,1154A,118.7752,32.0023,南京市,中华门,细颗粒物(PM2.5),132,134,102,100,71,8,,,,99,75,17,14,1.1,0.9
2025-01-21T0700,1155A,118.8109,32.0309,南京市,瑞金路,细颗粒物(PM2.5),128,129,105,97,72,3,,,,90,80,4,6,1.0,1.5
2025-01-21T0700,1156A,118.7997,32.0754,南京市,玄武湖,细颗粒物(PM2.5),122,120,104,92,65,2,,,,49,45,9,10,1.1,1.2
2025-01-21T0700,1157A,118.6414,32.0931,南京市,浦口,细颗粒物(PM2.5),108,116,100,81,61,46,,,,29,37,12,11,1.0,0.9
2025-01-21T0700,1158A,118.7356,31.9996,南京市,奥体中心,细颗粒物(PM2.5),132,134,106,100,70,6,,,,100,80,11,10,1.0,0.9
2025-01-21T0700,1159A,118.9125,32.1028,南京市,仙林大学城,细颗粒物(PM2.5),170,178,121,129,84,9,,,,98,73,11,14,1.2,1.2
2025-01-21T0700,3422A,118.8436,31.9198,南京市,江宁彩虹桥,细颗粒物(PM2.5),185,186,123,139,75,9,,,,117,72,8,7,1.4,1
2025-01-21T0700,3423A,119.0138,31.6494,南京市,溧水永阳,细颗粒物(PM2.5),115,88,86,87,82,2,,,,59,56,3,5,1.1,1.2
2025-01-21T0700,3424A,118.879,31.3302,南京市,高淳老职中,细颗粒物(PM2.5),152,118,114,116,114,50,,,,144,26,5,5,0.3,0.5
2025-01-21T0700,3427A,118.8554,32.3578,南京市,六合雄州,细颗粒物(PM2.5),186,194,128,140,99,2,,,,84,44,6,11,1.1,0.9
2025-01-21T0700,1401A,108.3103,22.7881,南宁市,二十一中,细颗粒物(PM2.5),119,115,121,90,88,5,,,,92,85,4,5,1.2,1.2
2025-01-21T0700,1402A,108.3141,22.8528,南宁市,北湖,细颗粒物(PM2.5),125,102,118,95,83,4,,,,77,84,11,10,1.1,1.2
2025-01-21T0700,1403A,108.3206,22.8225,南宁市,市监测站,细颗粒物(PM2.5),107,100,126,80,80,32,,,,60,80,14,14,1.2,1.3
2025-01-21T0700,1404A,108.3829,22.8037,南宁市,大自然花园,细颗粒物(PM2.5),109,94,90,82,67,72,,,,34,53,9,8,1.1,1.1
2025-01-21T0700,1405A,108.4394,22.7904,南宁市,仙葫,细颗粒物(PM2.5),130,,109,99,82,2,,,,72,66,4,6,0.9,0.9
2025-01-21T0700,1406A,108.2397,22.8467,南宁市,区农职院,细颗粒物(PM2.5),82,80,92,60,60,41,,,,38,48,10,11,0.7,0.8
2025-01-21T0700,1407A,108.3275,22.735,南宁市,英华嘉园,细颗粒物(PM2.5),140,120,119,107,78,5,,,,91,90,8,10,1.2,1.1
2025-01-21T0700,3401A,108.4834,22.7618,南宁市,红星社区,细颗粒物(PM2.5),112,101,101,84,71,7,,,,66,62,10,11,1.2,1.1
2025-01-21T0700,4221A,108.2177,22.7774,南宁市,乐贤路16号,细颗粒物(PM2.5),117,126,130,88,79,3,,,,67,70,5,7,1.1,1
2025-01-21T0700,2332A,118.1681,26.6369,南平市,南平市监测站,,49,47,43,34,28,22,,,,23,27,8,5,0.4,0.6
2025-01-21T0700,2333A,118.1825,26.6489,南平市,南平铝业有限公司,,48,34,38,33,28,19,,,,28,31,6,7,0.7,0.8
2025-01-21T0700,2334A,118.1756,26.6272,南平市,南平七中,,42,29,36,29,27,26,,,,20,24,6,7,0.7,0.7
2025-01-21T0700,1168A,120.9098,31.9663,南通市,狼山街道,细颗粒物(PM2.5),97,94,141,72,114,12,,,,38,53,4,7,1.0,1.1
2025-01-21T0700,1169A,120.86,32.0005,南通市,虹桥,细颗粒物(PM2.5),88,86,138,65,112,44,,,,32,50,6,8,0.8,1
2025-01-21T0700,1170A,120.87,32.02,南通市,城中,细颗粒物(PM2.5),97,99,155,72,111,47,,,,35,50,7,9,1.0,1.1
2025-01-21T0700,1171A,120.94,31.93,南通市,星湖花园,细颗粒物(PM2.5),83,85,140,61,106,23,,,,39,61,4,8,0.9,1.1
2025-01-21T0700,1172A,120.81,32.0417,南通市,紫琅学院,细颗粒物(PM2.5),85,83,146,63,110,33,,,,43,53,3,5,1.0,1.2
2025-01-21T0700,3291A,121.067,32.062,南通市,通州监测站,细颗粒物(PM2.5),92,97,137,68,103,65,,,,24,42,4,7,0.8,1.1
2025-01-21T0700,3432A,120.9348,31.9883,南通市,环境教育馆,,,100,143,73,113,5,,,,54,63,4,7,,1.1
2025-01-21T0700,2404A,112.5224,33.0122,南阳市,瓦房庄,细颗粒物(PM2.5),142,137,164,108,128,19,,,,49,57,6,9,1.1,1.3
2025-01-21T0700,2405A,112.5003,32.9735,南阳市,汉画馆,细颗粒物(PM2.5),159,150,158,121,116,4,,,,56,63,5,7,1.3,1.4
2025-01-21T0700,2406A,112.5573,33.027,南阳市,气象站,细颗粒物(PM2.5),110,138,169,83,112,54,,,,36,49,9,9,1.0,1.1
2025-01-21T0700,2407A,112.5481,32.9689,南阳市,理工学院,细颗粒物(PM2.5),153,143,160,117,130,17,,,,62,70,6,9,1.0,1.2
2025-01-21T0700,4008A,112.5234,32.9922,南阳市,卧龙区政府,细颗粒物(PM2.5),145,149,161,111,117,10,,,,61,73,5,8,1.2,1.3
2025-01-21T0700,1234A,121.8358,29.911,宁波市,区环保大楼,细颗粒物(PM2.5),159,142,163,121,125,25,,,,75,93,7,11,1.4,1.5
2025-01-21T0700,1235A,121.56,29.82,宁波市,万里学院,细颗粒物(PM2.5),143,143,147,109,108,3,,,,81,77,5,8,1.1,1.1
2025-01-21T0700,1236A,121.713,29.9572,宁波市,龙赛医院,细颗粒物(PM2.5),175,174,179,132,128,12,,,,83,92,12,11,1.2,1.1
2025-01-21T0700,1239A,121.633,29.7733,宁波市,钱湖水厂,细颗粒物(PM2.5),160,154,140,122,103,48,,,,29,43,4,7,1.2,1.1
2025-01-21T0700,1240A,121.5856,29.8635,宁波市,太古小学,细颗粒物(PM2.5),147,152,160,112,118,2,,,,85,75,8,11,1.2,1.3
2025-01-21T0700,1241A,121.524,29.8674,宁波市,市环境监测中心,细颗粒物(PM2.5),117,132,168,88,113,13,,,,80,68,9,9,1.0,1.2
2025-01-21T0700,2871A,121.6147,29.9017,宁波市,万里国际学校,细颗粒物(PM2.5),145,154,155,111,114,2,,,,88,87,7,9,1.1,1.1
2025-01-21T0700,3710A,121.5594,29.8975,宁波市,白沙活动中心,细颗粒物(PM2.5),137,141,153,104,117,4,,,,88,73,6,8,1.1,1
2025-01-21T0700,2341A,119.5388,26.6612,宁德市,宁德市监测站,细颗粒物(PM2.5),82,,47,60,42,92,,,,12,12,4,4,0.6,0.5
2025-01-21T0700,3209A,119.5231,26.6562,宁德市,宁德一中,细颗粒物(PM2.5),82,60,48,60,41,93,,,,18,16,3,3,0.6,0.5
2025-01-21T0700,2618A,98.8601,25.8567,怒江傈僳族自治州,州监测站,,30,30,37,17,22,34,,,,9,12,3,4,0.4,0.5
2025-01-21T0700,2619A,98.8546,25.8417,怒江傈僳族自治州,泸水一中,,20,14,32,14,24,23,,,,12,18,7,8,0.4,0.5
2025-01-21T0700,1888A,101.6891,26.571,攀枝花市,弄弄坪,细颗粒物(PM2.5),80,91,83,59,58,8,,,,48,42,37,29,2.7,1.5
2025-01-21T0700,1889A,101.5769,26.5928,攀枝花市,河门口,细颗粒物(PM2.5),68,70,81,49,56,22,,,,36,37,12,22,1.3,1.7
2025-01-21T0700,1890A,101.7169,26.585,攀枝花市,炳草岗,细颗粒物(PM2.5),97,85,87,72,58,2,,,,48,49,15,18,1.1,1
2025-01-21T0700,1891A,101.7369,26.5008,攀枝花市,仁和,细颗粒物(PM2.5),70,68,67,51,50,6,,,,38,28,9,13,1.5,0.9
2025-01-21T0700,2835A,101.7227,26.567,攀枝花市,四十中小,细颗粒物(PM2.5),87,98,92,64,60,7,,,,56,49,17,28,1.5,1.5
2025-01-21T0700,1604A,122.0303,41.1489,盘锦市,开发区,,31,31,75,17,54,51,,,,20,43,6,15,0.7,1.2
2025-01-21T0700,1605A,122.0485,41.0883,盘锦市,兴隆台,,24,24,78,11,51,57,,,,17,46,11,18,0.5,1.1
2025-01-21T0700,1606A,121.8297,41.1028,盘锦市,新生街道,,45,45,60,30,40,18,,,,56,44,10,12,0.9,0.9
2025-01-21T0700,1832A,113.3257,33.742,平顶山市,新华旅馆,细颗粒物(PM2.5),189,295,177,142,103,2,,,,94,62,6,11,1.0,1
2025-01-21T0700,1833A,113.2919,33.737,平顶山市,规划设计院,细颗粒物(PM2.5),204,243,193,154,122,8,,,,71,57,8,11,1.0,0.9
2025-01-21T0700,1834A,113.182,33.774,平顶山市,平顶山工学院,细颗粒物(PM2.5),170,241,185,129,102,42,,,,39,32,14,14,1.0,0.8
2025-01-21T0700,3204A,113.3025,33.73,平顶山市,规划局,细颗粒物(PM2.5),210,207,167,160,121,3,,,,86,62,9,13,0.8,0.6
2025-01-21T0700,3594A,112.8867,33.9116,平顶山市,石龙区,细颗粒物(PM2.5),104,116,143,78,91,57,,,,30,39,7,11,0.8,0.9
2025-01-21T0700,2656A,106.6692,35.5461,平凉市,聚贤嘉苑,颗粒物(PM10),51,52,62,34,34,37,,,,43,43,14,13,0.7,0.7
2025-01-21T0700,2657A,106.7021,35.5307,平凉市,博物馆,颗粒物(PM10),57,63,76,37,43,44,,,,45,49,17,25,0.9,1
2025-01-21T0700,2347A,114.0997,27.5002,萍乡市,武功山,,35,27,46,24,29,49,,,,13,14,9,11,0.8,0.8
2025-01-21T0700,2348A,113.8385,27.6434,萍乡市,中医院,细颗粒物(PM2.5),95,119,101,71,57,50,,,,35,40,19,14,2.4,1.7
2025-01-21T0700,2349A,113.8493,27.6253,萍乡市,市政府车库,细颗粒物(PM2.5),92,82,89,68,67,32,,,,32,39,11,16,1.5,2.1
2025-01-21T0700,2350A,113.8676,27.6435,萍乡市,市环保局,细颗粒物(PM2.5),105,112,101,79,68,49,,,,46,43,20,17,1.3,1.6
2025-01-21T0700,2351A,113.866,27.6198,萍乡市,安源区政府,细颗粒物(PM2.5),99,99,96,74,62,26,,,,35,36,14,13,1.4,1.6
2025-01-21T0700,2319A,119.0141,25.4325,莆田市,荔城区仓后路,细颗粒物(PM2.5),77,,51,56,40,130,,,,14,18,3,2,0.7,0.7
2025-01-21T0700,2320A,119.0015,25.4553,莆田市,莆田市监测站,细颗粒物(PM2.5),64,50,44,46,33,124,,,,13,15,5,4,0.4,0.4
2025-01-21T0700,2321A,119.1119,25.4561,莆田市,涵江区六中,细颗粒物(PM2.5),77,57,52,56,38,120,,,,25,18,4,4,0.6,0.4
2025-01-21T0700,2322A,119.1013,25.3215,莆田市,秀屿区政府,细颗粒物(PM2.5),78,,46,57,42,140,,,,18,19,4,3,0.6,0.4
2025-01-21T0700,2392A,115.0312,35.7636,濮阳市,环保局,细颗粒物(PM2.5),147,127,116,112,89,41,,,,40,38,10,12,1.0,1
2025-01-21T0700,2394A,115.0574,35.7609,濮阳市,油田运输公司,细颗粒物(PM2.5),155,149,140,118,91,28,,,,46,41,8,11,0.9,1
2025-01-21T0700,3021A,115,35.7668,濮阳市,濮水河管理处,细颗粒物(PM2.5),149,152,148,114,90,26,,,,46,43,6,11,1.1,1.1
2025-01-21T0700,4216A,115.0924,35.7686,濮阳市,任丘路479号,细颗粒物(PM2.5),144,158,157,110,92,38,,,,32,35,9,18,1.1,1
2025-01-21T0700,2601A,100.98,22.7633,普洱市,市环保局,,31,31,44,3,12,14,,,,9,9,5,4,0.6,0.6
2025-01-21T0700,2602A,100.9817,22.8322,普洱市,普洱第二中学,,29,29,41,11,12,4,,,,23,16,4,5,0.5,0.5
2025-01-21T0700,2262A,131.0518,45.8751,七台河市,新一中,,50,50,101,25,83,66,,,,24,28,14,13,2.0,2
2025-01-21T0700,3345A,131.0577,45.7879,七台河市,中波台,细颗粒物(PM2.5),94,85,140,70,121,57,,,,21,44,4,7,1.1,1.3
2025-01-21T0700,3637A,131.0176,45.7761,七台河市,人民广场,细颗粒物(PM2.5),112,111,184,84,128,54,,,,32,51,6,8,1.2,1.4
2025-01-21T0700,3684A,130.8781,45.8222,七台河市,新建矿广场,细颗粒物(PM2.5),118,110,149,89,115,14,,,,76,66,4,5,0.9,1
2025-01-21T0700,1779A,123.9305,47.3636,齐齐哈尔市,安居小区,细颗粒物(PM2.5),105,,112,79,108,53,,,,26,42,13,15,0.7,0.8
2025-01-21T0700,1780A,123.9488,47.3386,齐齐哈尔市,中心广场,细颗粒物(PM2.5),110,103,139,83,110,49,,,,32,41,4,5,0.8,1
2025-01-21T0700,1781A,123.9483,47.3227,齐齐哈尔市,农牧车辆厂,细颗粒物(PM2.5),114,,114,86,94,55,,,,24,37,7,8,0.6,0.7
2025-01-21T0700,1783A,123.945,47.2988,齐齐哈尔市,市环境监测站,细颗粒物(PM2.5),125,107,133,95,110,63,,,,26,38,3,4,0.8,1
2025-01-21T0700,3662A,123.6333,47.2075,齐齐哈尔市,富区青少年活动中心,细颗粒物(PM2.5),80,77,120,59,88,57,,,,16,26,8,9,0.8,1
2025-01-21T0700,2591A,107.9783,26.5747,黔东南苗族侗族自治州,市环境监测站,细颗粒物(PM2.5),89,84,79,66,63,15,,,,30,37,8,9,1.1,1.1
2025-01-21T0700,2881A,107.8908,26.5311,黔东南苗族侗族自治州,凯里学院,细颗粒物(PM2.5),74,58,63,54,48,8,,,,30,20,4,6,0.9,0.9
2025-01-21T0700,2593A,107.5228,26.2403,黔南布依族苗族自治州,小围寨,细颗粒物(PM2.5),70,58,52,51,43,21,,,,28,19,10,12,0.8,0.7
2025-01-21T0700,3538A,107.5175,26.2978,黔南布依族苗族自治州,沙坝,细颗粒物(PM2.5),73,63,63,53,49,19,,,,20,22,7,11,0.8,0.8
2025-01-21T0700,2589A,104.9022,25.0925,黔西南布依族苗族自治州,场坝街,细颗粒物(PM2.5),74,66,94,54,76,109,,,,11,21,5,7,0.5,0.7
2025-01-21T0700,2590A,104.8811,25.0992,黔西南布依族苗族自治州,坪东大道,细颗粒物(PM2.5),90,,81,67,74,111,,,,12,25,5,6,0.4,0.7
2025-01-21T0700,2502A,108.6236,21.9667,钦州市,市环保站,细颗粒物(PM2.5),195,207,172,146,102,64,,,,39,55,14,13,1.3,1.3
2025-01-21T0700,2503A,108.6549,21.9481,钦州市,沙埠小学,细颗粒物(PM2.5),185,151,143,139,101,53,,,,38,52,11,10,1.2,1.2
2025-01-21T0700,2504A,108.5989,21.7431,钦州市,港区一小,细颗粒物(PM2.5),170,165,167,129,103,27,,,,83,70,11,19,1.4,1.4
2025-01-21T0700,3404A,108.5959,21.9633,钦州市,北职校,细颗粒物(PM2.5),203,165,156,153,113,34,,,,50,49,10,12,1.3,1.2
2025-01-21T0700,1042A,119.5134,39.8207,秦皇岛市,北戴河环保局,细颗粒物(PM2.5),69,76,101,50,46,27,,,,32,62,5,10,0.5,1.1
2025-01-21T0700,1043A,119.7493,40.0116,秦皇岛市,第一关,细颗粒物(PM2.5),64,74,100,46,60,22,,,,49,69,8,12,0.6,1.1
2025-01-21T0700,1044A,119.5897,39.9499,秦皇岛市,监测站,细颗粒物(PM2.5),85,109,92,63,52,3,,,,73,70,10,13,1.2,1.2
2025-01-21T0700,1046A,119.5251,39.9041,秦皇岛市,建设大厦,细颗粒物(PM2.5),84,96,100,62,55,2,,,,75,69,13,15,1.1,1.2
2025-01-21T0700,3132A,119.610547,39.943889,秦皇岛市,文明里,颗粒物(PM10),84,117,119,52,45,2,,,,73,71,13,15,0.8,1
2025-01-21T0700,1307A,120.6659,36.2403,青岛市,仰口,细颗粒物(PM2.5),64,57,49,46,37,66,,,,16,20,5,6,0.8,0.5
2025-01-21T0700,1310A,120.4134,36.0658,青岛市,市南区东部子站,,48,48,55,31,29,23,,,,42,35,10,13,0.6,0.7
2025-01-21T0700,1311A,120.3664,36.1032,青岛市,四方区子站,,45,41,49,31,34,47,,,,37,39,11,15,0.8,0.9
2025-01-21T0700,1312A,120.2994,36.054,青岛市,市南区西部子站,,34,34,48,15,27,53,,,,36,33,5,10,0.5,0.6
2025-01-21T0700,1313A,120.4581,36.0858,青岛市,崂山区子站,,39,39,42,27,24,41,,,,35,36,9,11,0.6,0.8
2025-01-21T0700,1314A,120.1983,35.9608,青岛市,黄岛区子站,,36,36,41,22,25,61,,,,25,29,7,9,0.7,0.7
2025-01-21T0700,1315A,120.3999,36.3083,青岛市,城阳区子站,颗粒物(PM10),51,51,67,24,33,46,,,,46,53,10,12,0.9,0.9
2025-01-21T0700,1966A,120.0405,35.8735,青岛市,黄岛区4号,,41,41,46,24,27,51,,,,38,40,12,14,0.9,0.9
2025-01-21T0700,3362A,120.5014,36.4034,青岛市,即墨2号,细颗粒物(PM2.5),77,67,91,56,60,60,,,,29,55,13,17,1.1,1.2
2025-01-21T0700,3642A,120.3503,36.0736,青岛市,市北区南部,,46,46,57,17,28,50,,,,25,34,6,11,0.8,0.9
2025-01-21T0700,3643A,120.3948,36.1805,青岛市,李沧区北部,,44,44,67,29,45,40,,,,51,52,12,14,1.1,1
2025-01-21T0700,1702A,113.0426,23.691,清远市,环保大楼,细颗粒物(PM2.5),55,50,46,39,36,34,,,,36,28,9,8,0.8,0.8
2025-01-21T0700,1703A,113.0208,23.7106,清远市,凤城街办,颗粒物(PM10),51,51,57,33,34,44,,,,31,34,9,8,0.9,0.9
2025-01-21T0700,3025A,113.0477,23.6344,清远市,技师学院,颗粒物(PM10),60,69,69,36,36,12,,,,52,42,10,10,1.1,1
2025-01-21T0700,3318A,112.9903,23.7403,清远市,清新太和,,42,42,52,26,30,73,,,,18,24,10,10,0.7,0.7
2025-01-21T0700,3455A,113.076,23.7198,清远市,清城东城,,50,50,50,32,31,31,,,,30,20,14,13,1.0,1
2025-01-21T0700,2661A,107.6325,35.7357,庆阳市,庆阳五中,细颗粒物(PM2.5),84,77,68,62,50,72,,,,16,25,7,11,0.9,1
2025-01-21T0700,2662A,107.6364,35.7067,庆阳市,市环保局,细颗粒物(PM2.5),72,66,56,52,36,82,,,,17,18,4,6,0.6,0.5
2025-01-21T0700,1916A,103.7897,25.5035,曲靖市,环境监测站,细颗粒物(PM2.5),62,64,60,44,41,45,,,,17,21,8,10,0.8,0.9
2025-01-21T0700,1917A,103.8,25.5364,曲靖市,烟厂办公区,颗粒物(PM10),56,61,59,39,38,48,,,,14,18,4,4,0.5,0.5
2025-01-21T0700,3376A,103.7947,25.462,曲靖市,南苑二区,细颗粒物(PM2.5),59,56,61,42,42,51,,,,14,18,6,9,0.7,0.8
2025-01-21T0700,3377A,103.7444,25.5261,曲靖市,曲靖师范学院,细颗粒物(PM2.5),63,59,50,45,39,51,,,,15,17,6,7,0.4,0.4
2025-01-21T0700,1264A,118.8692,28.9398,衢州市,环保大楼,细颗粒物(PM2.5),79,84,94,58,60,22,,,,48,50,5,6,0.7,0.7
2025-01-21T0700,1265A,118.8709,28.9666,衢州市,实验学校,细颗粒物(PM2.5),93,88,78,69,55,10,,,,65,50,4,5,0.5,0.5
2025-01-21T0700,1266A,118.8621,28.9808,衢州市,衢州学院,细颗粒物(PM2.5),93,88,72,69,51,8,,,,80,55,4,5,0.6,0.5
2025-01-21T0700,1611A,118.5819,24.9117,泉州市,涂山街,细颗粒物(PM2.5),57,54,46,40,33,78,,,,25,18,4,5,0.6,0.5
2025-01-21T0700,1612A,118.5972,24.8978,泉州市,津头埔,细颗粒物(PM2.5),59,53,45,42,36,74,,,,27,21,2,3,0.7,0.6
2025-01-21T0700,1613A,118.6663,24.9424,泉州市,万安,细颗粒物(PM2.5),64,53,48,46,35,142,,,,22,19,5,4,0.6,0.6
2025-01-21T0700,3529A,118.6333,24.9264,泉州市,城华南路,"颗粒物(PM10),细颗粒物(PM2.5)",55,59,51,39,30,135,,,,17,20,5,4,0.7,0.7
2025-01-21T0700,2626A,88.8876,29.2718,日喀则市,日喀则监测站,,22,8,37,6,19,70,,,,21,31,6,5,0.5,0.8
2025-01-21T0700,3726A,88.8781,29.2426,日喀则市,林业技术推广中心,,27,8,26,3,7,84,,,,3,6,6,7,0.7,0.7
2025-01-21T0700,1659A,119.471,35.4209,日照市,监测站,细颗粒物(PM2.5),73,78,69,53,40,2,,,,55,57,13,13,1.6,1.1
2025-01-21T0700,1660A,119.523,35.4216,日照市,市政府广场,细颗粒物(PM2.5),75,88,57,55,29,6,,,,68,51,11,8,1.6,0.9
2025-01-21T0700,1661A,119.5587,35.4044,日照市,港务局,细颗粒物(PM2.5),79,88,56,58,29,5,,,,80,53,22,17,1.7,1
2025-01-21T0700,3507A,119.5328,35.4625,日照市,职业技术学院,细颗粒物(PM2.5),67,78,44,48,21,10,,,,57,38,8,7,1.8,0.8
2025-01-21T0700,3604A,119.3266,35.1044,日照市,岚山环保分局,细颗粒物(PM2.5),78,90,69,57,36,36,,,,52,44,13,18,1.7,1.5
2025-01-21T0700,1835A,111.1922,34.7752,三门峡市,市政府,细颗粒物(PM2.5),74,55,85,54,71,14,,,,60,69,15,16,1.2,1.2
2025-01-21T0700,1836A,111.1587,34.7942,三门峡市,开发区,细颗粒物(PM2.5),82,108,134,60,77,52,,,,25,42,9,11,1.1,1.5
2025-01-21T0700,1838A,111.143,34.7955,三门峡市,风景区,细颗粒物(PM2.5),79,86,101,58,69,42,,,,33,38,12,15,1.1,1.4
2025-01-21T0700,3039A,111.1911,34.7829,三门峡市,三门峡市第一小学,细颗粒物(PM2.5),67,60,99,48,65,66,,,,16,41,12,13,0.8,1.5
2025-01-21T0700,3598A,111.1,34.7167,三门峡市,富达温泉假日酒店,细颗粒物(PM2.5),63,69,105,45,74,33,,,,43,65,15,25,1.0,1.2
2025-01-21T0700,2324A,117.6211,26.2625,三明市,三钢,,43,,35,30,27,17,,,,33,28,3,4,0.8,0.6
