timepoint,stationcode,longitude,latitude,area,positionname,primarypollutant,aqi,pm10,pm10_24h,pm2_5,pm2_5_24h,o3,o3_24h,o3_8h,o3_8h_24h,no2,no2_24h,so2,so2_24h,co,co_24h
2025-01-21T2100,2566A,102.1879,31.914,阿坝藏族羌族自治州,州农科所,,32,32,28,7,11,58,,78,77,19,12,5,6,0.9,0.9
2025-01-21T2100,2568A,102.2502,31.8896,阿坝藏族羌族自治州,马师校,,43,43,21,21,13,41,,63,61,17,14,6,6,0.5,0.4
2025-01-21T2100,3994A,102.2165,31.9024,阿坝藏族羌族自治州,马尔康中学西区,,48,38,23,33,14,47,,75,69,18,12,5,4,0.5,0.4
2025-01-21T2100,2695A,80.292,41.1694,阿克苏地区,电视台,"颗粒物(PM10),细颗粒物(PM2.5)",84,118,104,62,71,33,,70,64,62,35,1,5,0.9,0.9
2025-01-21T2100,2696A,80.2613,41.1551,阿克苏地区,艺术中心,细颗粒物(PM2.5),102,123,115,76,71,27,,67,59,54,36,4,4,1.3,1.3
2025-01-21T2100,2204A,105.6467,38.8363,阿拉善盟,西城区西花园,颗粒物(PM10),51,52,35,31,23,50,,75,66,44,23,21,17,1.0,0.7
2025-01-21T2100,2205A,105.6985,38.8411,阿拉善盟,蒙二幼,,32,32,27,12,12,70,,78,67,17,16,2,3,0.3,0.3
2025-01-21T2100,2206A,105.724,38.8516,阿拉善盟,环保局新楼,,27,10,14,6,7,85,,93,74,8,7,6,10,0.4,0.5
2025-01-21T2100,2708A,88.1264,47.8517,阿勒泰地区,市站,,25,25,39,13,30,49,,56,56,24,41,14,15,0.5,0.5
2025-01-21T2100,2630A,80.1161,32.5,阿里地区,阿里监测站,,28,,7,3,3,89,,94,94,1,3,9,8,0.6,0.6
2025-01-21T2100,3192A,80.0903,32.5028,阿里地区,阿里藏医院,,26,6,10,3,4,83,,83,83,1,4,6,7,0.5,0.6
2025-01-21T2100,2642A,109.0318,32.6537,安康市,香溪洞,细颗粒物(PM2.5),77,76,65,56,52,66,,67,67,19,17,10,11,0.9,0.8
2025-01-21T2100,2644A,109.0072,32.6975,安康市,汉滨区检察院,细颗粒物(PM2.5),122,126,79,92,61,24,,59,54,49,30,7,6,1.3,0.9
2025-01-21T2100,4054A,109.0325,32.6913,安康市,市邮政管理局,细颗粒物(PM2.5),107,114,91,80,66,12,,66,47,63,44,8,7,1.4,1.2
2025-01-21T2100,2291A,117.0809,30.5177,安庆市,环科院,细颗粒物(PM2.5),130,120,127,99,94,73,,107,107,59,54,13,12,1.2,1.1
2025-01-21T2100,2292A,117.0331,30.5119,安庆市,马山宾馆,细颗粒物(PM2.5),145,120,136,111,109,74,,103,103,52,60,14,13,1.3,1.2
2025-01-21T2100,2294A,116.9896,30.6145,安庆市,安庆大学,细颗粒物(PM2.5),112,120,134,84,97,70,,110,104,52,48,10,16,0.8,1
2025-01-21T2100,3173A,117.0598,30.5351,安庆市,市人大,细颗粒物(PM2.5),139,130,143,106,104,62,,111,98,66,61,13,12,1.2,1.1
2025-01-21T2100,3122A,105.9606,26.2611,安顺市,伍家关,细颗粒物(PM2.5),73,63,66,53,52,131,,142,140,14,13,13,21,0.9,0.9
2025-01-21T2100,3123A,105.9408,26.2431,安顺市,凤凰山,细颗粒物(PM2.5),77,74,70,56,54,126,,128,127,13,20,20,26,0.7,0.7
2025-01-21T2100,3124A,105.9439,26.2564,安顺市,金钟山,细颗粒物(PM2.5),69,67,67,50,51,124,,127,127,14,15,19,25,0.9,0.9
2025-01-21T2100,3125A,105.8983,26.2481,安顺市,娄家坡,细颗粒物(PM2.5),79,68,64,58,55,117,,130,126,17,15,20,16,0.9,0.8
2025-01-21T2100,1818A,114.4839,36.0621,安阳市,棉研所,细颗粒物(PM2.5),228,252,237,178,178,44,,61,60,61,60,16,16,1.2,1.4
2025-01-21T2100,1819A,114.3551,36.1017,安阳市,红庙街,细颗粒物(PM2.5),205,224,174,155,140,46,,75,74,60,58,12,16,1.1,1.8
2025-01-21T2100,1820A,114.361,36.0681,安阳市,银杏小区,细颗粒物(PM2.5),218,,167,168,150,48,,73,72,62,59,12,14,1.3,1.4
2025-01-21T2100,3141A,114.3922,36.0878,安阳市,信访局,细颗粒物(PM2.5),213,226,197,163,152,52,,73,72,62,64,11,12,1.0,1.1
2025-01-21T2100,3669A,114.4705,36.0637,安阳市,左辅环卫站,细颗粒物(PM2.5),222,235,228,172,169,56,,71,70,52,57,14,15,1.3,1.4
2025-01-21T2100,3703A,114.2917,36.0949,安阳市,安钢职工学校,细颗粒物(PM2.5),196,236,190,147,162,39,,75,72,82,69,20,16,1.4,1.6
2025-01-21T2100,1748A,123.044,41.1196,鞍山市,深沟寺,细颗粒物(PM2.5),59,64,76,42,50,45,,74,68,21,30,9,14,0.7,1
2025-01-21T2100,1749A,123.011,41.0931,鞍山市,太阳城,,49,49,70,28,37,55,,70,64,19,28,6,9,0.7,1.1
2025-01-21T2100,1750A,123.0485,41.1442,鞍山市,太平,颗粒物(PM10),62,73,99,42,61,43,,69,58,32,41,12,15,0.8,1.4
2025-01-21T2100,1751A,122.9642,41.0971,鞍山市,铁西三道街,颗粒物(PM10),55,59,102,28,63,43,,64,60,33,46,13,20,1.1,1.8
2025-01-21T2100,1753A,123.022,41.0821,鞍山市,明达新区,颗粒物(PM10),55,59,80,37,37,52,,72,66,25,27,11,14,0.5,0.8
2025-01-21T2100,1754A,123.1289,41.0228,鞍山市,千山,,,,68,,37,,,40,,,30,,7,,0.8
2025-01-21T2100,4201A,122.9446,41.0826,鞍山市,兴盛南路290号,颗粒物(PM10),62,74,102,38,56,35,,66,57,44,45,25,24,2.2,2.3
2025-01-21T2100,2195A,107.4212,40.761,巴彦淖尔市,附二中,细颗粒物(PM2.5),128,194,127,97,54,3,,52,39,99,50,24,21,2.0,1
2025-01-21T2100,2196A,107.37,40.7372,巴彦淖尔市,市环保大楼,细颗粒物(PM2.5),100,148,94,75,50,4,,52,37,86,45,15,15,1.5,0.9
2025-01-21T2100,1956A,86.1472,41.7538,巴音郭楞蒙古自治州,孔雀公园,细颗粒物(PM2.5),99,102,97,74,72,45,,70,68,45,33,4,6,1.0,1
2025-01-21T2100,1957A,86.1972,41.7166,巴音郭楞蒙古自治州,棉纺厂,颗粒物(PM10),82,113,117,47,66,40,,63,61,52,45,4,4,0.9,1
2025-01-21T2100,1958A,86.2357,41.7173,巴音郭楞蒙古自治州,经济开发区,细颗粒物(PM2.5),74,89,83,54,55,44,,81,63,54,30,5,5,0.9,0.9
2025-01-21T2100,2914A,106.7677,31.8794,巴中市,苏山坪,细颗粒物(PM2.5),165,146,95,125,79,45,,71,44,28,22,5,4,0.9,0.8
2025-01-21T2100,3182A,106.7656,31.8545,巴中市,丽阳花园,细颗粒物(PM2.5),220,215,122,170,95,5,,23,20,46,42,4,4,1.7,1.2
2025-01-21T2100,3183A,106.7418,31.8654,巴中市,圣泉水务公司,细颗粒物(PM2.5),227,217,109,177,90,5,,20,15,58,46,5,4,1.7,1.1
2025-01-21T2100,3616A,106.7616,31.8344,巴中市,市中心医院,细颗粒物(PM2.5),156,181,124,119,103,4,,19,17,53,43,4,4,1.5,1.1
2025-01-21T2100,2235A,122.7911,45.6077,白城市,洮北区环保局,细颗粒物(PM2.5),80,,80,59,78,68,,67,67,17,19,7,7,0.5,0.6
2025-01-21T2100,2236A,122.8738,45.5725,白城市,市环保局,细颗粒物(PM2.5),83,68,93,61,86,68,,71,71,18,25,4,4,0.5,0.6
2025-01-21T2100,2231A,126.4219,41.9171,白山市,喜丰,颗粒物(PM10),57,64,91,33,51,66,,67,67,23,40,15,20,0.8,1.2
2025-01-21T2100,2232A,126.4077,41.9419,白山市,环保局,细颗粒物(PM2.5),64,73,84,46,52,64,,66,66,12,25,14,12,0.9,1.2
2025-01-21T2100,2647A,104.1724,36.5446,白银市,第三小学,颗粒物(PM10),56,62,74,39,55,72,,90,90,28,38,14,107,0.8,1.3
2025-01-21T2100,2648A,104.1465,36.5482,白银市,动力公司,颗粒物(PM10),56,62,62,38,48,91,,109,101,18,23,10,77,0.9,1.1
2025-01-21T2100,2512A,106.6103,23.9011,百色市,市监测站,细颗粒物(PM2.5),87,118,104,64,77,149,,130,130,25,33,26,17,1.2,1.2
2025-01-21T2100,2513A,106.6538,23.8859,百色市,市中心血站,细颗粒物(PM2.5),93,120,116,69,85,157,,140,140,25,37,30,16,1.1,1
2025-01-21T2100,3406A,106.6085,23.8798,百色市,祈福高中,颗粒物(PM10),97,144,125,66,73,136,,132,132,32,44,27,12,1.2,0.9
2025-01-21T2100,2270A,117.396,32.939,蚌埠市,工人疗养院,细颗粒物(PM2.5),172,165,108,130,82,62,,106,99,76,49,17,12,1.0,0.9
2025-01-21T2100,2271A,117.3605,32.9427,蚌埠市,百货大楼,细颗粒物(PM2.5),172,162,110,130,82,53,,100,88,94,61,17,12,1.1,1.1
2025-01-21T2100,2273A,117.4185,32.8911,蚌埠市,蚌埠学院,细颗粒物(PM2.5),213,207,106,163,79,75,,112,102,73,43,21,14,1.1,0.8
2025-01-21T2100,2274A,117.3533,32.9673,蚌埠市,淮上区政府,细颗粒物(PM2.5),190,180,125,143,92,64,,98,92,61,52,17,15,1.1,0.9
2025-01-21T2100,2275A,117.3145,32.8977,蚌埠市,高新区,细颗粒物(PM2.5),189,173,111,142,87,90,,109,103,57,47,18,12,1.1,0.9
2025-01-21T2100,3715A,117.3092,32.9314,蚌埠市,蚌埠田家炳中学,细颗粒物(PM2.5),180,158,117,136,85,106,,107,102,48,48,16,15,0.9,1
2025-01-21T2100,1585A,109.8756,40.6532,包头市,市环境监测站,颗粒物(PM10),84,117,85,54,44,9,,47,39,91,63,24,26,2.2,1.5
2025-01-21T2100,1587A,109.9991,40.5842,包头市,包头八中,细颗粒物(PM2.5),125,190,113,95,66,9,,46,40,87,62,20,24,1.8,2.1
2025-01-21T2100,1588A,109.8538,40.6821,包头市,青山宾馆,细颗粒物(PM2.5),109,124,70,82,44,7,,46,34,84,53,18,17,2.0,1.2
2025-01-21T2100,1589A,109.8642,40.6288,包头市,惠龙物流,细颗粒物(PM2.5),94,113,84,70,48,9,,56,48,101,65,24,24,2.4,1.8
2025-01-21T2100,1590A,110.0377,40.5546,包头市,东河鸿龙湾,细颗粒物(PM2.5),128,165,135,97,82,7,,50,45,100,64,19,23,2.0,1.9
2025-01-21T2100,3283A,109.9154,40.5685,包头市,滨河大厦,,,,96,,53,6,,62,54,100,68,19,22,1.8,1.7
2025-01-21T2100,3419A,109.9447,40.6261,包头市,包头市委党校,细颗粒物(PM2.5),85,115,92,63,46,7,,47,40,86,69,20,27,1.6,1.9
2025-01-21T2100,3683A,109.8331,40.6576,包头市,昆区政府,细颗粒物(PM2.5),74,90,62,54,37,11,,46,37,77,51,20,19,1.7,1.2
2025-01-21T2100,1930A,107.185,34.3063,宝鸡市,庙沟村,细颗粒物(PM2.5),179,137,84,135,79,109,,125,125,51,33,13,9,0.9,0.8
2025-01-21T2100,1931A,107.0708,34.3017,宝鸡市,竹园沟,细颗粒物(PM2.5),150,130,80,115,72,72,,114,110,36,28,8,8,0.9,0.6
2025-01-21T2100,1932A,107.1906,34.3672,宝鸡市,三陆医院,细颗粒物(PM2.5),260,219,110,210,93,45,,123,113,99,52,12,9,1.4,0.9
2025-01-21T2100,1933A,107.1431,34.3547,宝鸡市,监测站,细颗粒物(PM2.5),218,180,101,168,81,48,,112,108,51,34,10,9,1.4,0.9
2025-01-21T2100,1934A,107.1186,34.3739,宝鸡市,技工学校,细颗粒物(PM2.5),201,169,107,151,85,72,,112,112,48,34,11,11,1.1,0.8
2025-01-21T2100,1935A,107.3906,34.3528,宝鸡市,陈仓区环保局家属楼,细颗粒物(PM2.5),251,216,144,201,118,26,,107,101,113,58,15,39,1.9,1.2
2025-01-21T2100,1936A,107.2058,34.3497,宝鸡市,文理学院,细颗粒物(PM2.5),179,155,102,135,83,58,,124,119,65,40,8,9,1.0,0.8
2025-01-21T2100,1937A,107.2386,34.3622,宝鸡市,三迪小学,细颗粒物(PM2.5),227,,97,177,86,38,,105,100,97,54,12,10,1.4,0.9
2025-01-21T2100,1051A,115.493,38.8632,保定市,游泳馆,细颗粒物(PM2.5),84,80,101,62,69,37,,57,56,42,66,10,13,0.9,1.2
2025-01-21T2100,1052A,115.5213,38.8959,保定市,华电二区,细颗粒物(PM2.5),110,,94,83,78,72,,68,68,36,58,6,6,0.7,0.8
2025-01-21T2100,1053A,115.4713,38.9108,保定市,接待中心,颗粒物(PM10),71,92,94,49,64,43,,59,56,32,55,3,4,0.8,1
2025-01-21T2100,1054A,115.4612,38.8416,保定市,地表水厂,颗粒物(PM10),80,110,112,58,66,44,,68,66,37,59,5,5,0.4,0.8
2025-01-21T2100,3581A,115.31981,38.95208,保定市,满城区生态环境分局,细颗粒物(PM2.5),104,129,109,78,62,12,,64,48,85,54,11,9,1.0,1.1
2025-01-21T2100,3582A,115.47694,38.76408,保定市,清苑区第二中学,颗粒物(PM10),88,126,135,64,76,19,,50,44,56,73,8,11,0.6,0.9
2025-01-21T2100,3583A,115.62909,39.02311,保定市,徐水物探局,颗粒物(PM10),53,56,86,34,58,37,,52,48,36,51,11,12,0.4,0.8
2025-01-21T2100,4004A,115.4202,38.8656,保定市,双鹰农机,细颗粒物(PM2.5),69,68,98,50,63,49,,68,66,32,53,2,4,0.8,1.1
2025-01-21T2100,4034A,115.5150,38.8590,保定市,植保所站,颗粒物(PM10),75,99,106,54,68,24,,53,50,51,59,6,7,0.6,0.9
2025-01-21T2100,2594A,99.1678,25.1081,保山市,市环境监测站,,45,39,27,31,16,61,,79,76,13,8,6,5,0.4,0.5
2025-01-21T2100,2595A,99.1711,25.1328,保山市,市环保局,,46,,28,32,22,65,,81,78,5,6,6,6,0.3,0.3
2025-01-21T2100,1866A,109.2262,21.588,北海市,牛尾岭水库,,,,84,59,94,28,,75,74,,12,5,16,0.4,0.9
2025-01-21T2100,1867A,109.1436,21.4086,北海市,海滩公园,细颗粒物(PM2.5),62,48,97,44,86,129,,166,160,20,25,6,10,1.3,1.4
2025-01-21T2100,1868A,109.0981,21.4661,北海市,新市环保局,细颗粒物(PM2.5),73,65,90,53,87,109,,157,153,37,32,7,11,0.7,0.8
2025-01-21T2100,1869A,109.1778,21.5233,北海市,北海工业园,细颗粒物(PM2.5),62,58,136,44,104,104,,175,165,24,32,7,13,0.6,1
2025-01-21T2100,3400A,109.1911,21.4415,北海市,龙潭自来水厂,细颗粒物(PM2.5),63,61,97,45,109,60,,162,143,34,24,5,8,0.8,0.9
2025-01-21T2100,1001A,116.3621,39.8784,北京市,万寿西宫,细颗粒物(PM2.5),82,94,56,60,30,30,,70,61,62,46,11,8,1.0,0.5
2025-01-21T2100,1002A,116.2202,40.2915,北京市,定陵,,,,,,,,,,,,,,,,
2025-01-21T2100,1003A,116.4174,39.9289,北京市,东四,细颗粒物(PM2.5),88,100,50,65,29,34,,62,57,38,37,8,5,1.0,0.6
2025-01-21T2100,1004A,116.4072,39.8863,北京市,天坛,细颗粒物(PM2.5),73,78,48,53,31,30,,70,62,34,37,3,3,0.7,0.5
2025-01-21T2100,1005A,116.462,39.9365,北京市,农展馆,细颗粒物(PM2.5),64,76,50,46,28,28,,75,66,62,45,6,4,1.1,0.7
2025-01-21T2100,1006A,116.3392,39.9295,北京市,官园,细颗粒物(PM2.5),75,90,54,55,33,36,,65,59,48,41,10,7,0.9,0.5
2025-01-21T2100,1007A,116.2878,39.9611,北京市,海淀万柳,,45,45,44,30,24,5,,54,35,71,49,5,5,1.0,0.9
2025-01-21T2100,1008A,116.6636,40.135,北京市,顺义新城,,37,37,39,21,21,44,,79,69,32,27,2,2,0.3,0.3
2025-01-21T2100,1009A,116.6275,40.3275,北京市,怀柔镇,,23,23,34,15,21,55,,71,65,13,22,2,3,0.4,0.4
2025-01-21T2100,1010A,116.2296,40.217,北京市,昌平镇,,24,24,35,14,18,48,,67,60,23,21,1,2,0.7,0.6
2025-01-21T2100,1011A,116.3966,39.9821,北京市,奥体中心,颗粒物(PM10),63,76,49,37,26,31,,60,53,50,40,6,6,0.8,0.6
2025-01-21T2100,3281A,115.9718,40.4529,北京市,延庆夏都,,28,28,58,14,35,39,,52,50,25,32,4,5,0.4,0.9
2025-01-21T2100,3417A,117.0709,40.1465,北京市,平谷新城,颗粒物(PM10),52,53,57,34,39,9,,68,54,46,30,2,2,0.8,0.7
2025-01-21T2100,3418A,116.8336,40.4095,北京市,密云新城,,21,14,27,7,15,66,,69,66,4,11,5,2,0.4,0.3
2025-01-21T2100,3671A,116.088,39.9726,北京市,门头沟三家店,,43,43,46,25,23,9,,60,44,43,32,3,4,0.5,0.4
2025-01-21T2100,3672A,116.1541,39.8204,北京市,丰台云岗,颗粒物(PM10),57,64,49,32,26,34,,68,58,43,42,7,5,0.4,0.4
2025-01-21T2100,3673A,116.6804,39.9081,北京市,通州东关,颗粒物(PM10),84,118,66,55,38,23,,62,52,34,52,10,4,0.9,0.5
2025-01-21T2100,3674A,115.9577,39.7603,北京市,房山燕山,,41,41,41,22,28,51,,64,62,20,34,3,3,0.4,0.5
2025-01-21T2100,3675A,116.4672,39.7733,北京市,大兴旧宫,细颗粒物(PM2.5),73,87,59,53,34,36,,60,54,32,38,1,2,0.7,0.5
2025-01-21T2100,3694A,115.986,40.4563,北京市,延庆石河营,,27,27,57,15,36,43,,54,49,21,31,3,4,0.5,0.9
2025-01-21T2100,3695A,116.6151,40.3053,北京市,怀柔新城,,19,19,31,12,19,60,,66,64,4,15,1,2,0.2,0.3
2025-01-21T2100,3696A,116.2545,39.8768,北京市,丰台小屯,细颗粒物(PM2.5),67,82,53,48,28,8,,59,45,78,55,7,6,0.8,0.6
2025-01-21T2100,3697A,116.84,40.3844,北京市,密云镇,,30,30,32,16,18,47,,75,68,24,22,7,6,0.4,0.4
2025-01-21T2100,4182A,116.1942,39.91583,北京市,八角,颗粒物(PM10),107,163,66,49,29,6,,60,49,76,44,3,2,1.2,0.5
2025-01-21T2100,1761A,123.8275,41.3064,本溪市,大峪,颗粒物(PM10),51,51,83,31,47,46,,56,53,27,47,9,10,0.7,1.7
2025-01-21T2100,1762A,123.7567,41.3325,本溪市,溪湖,颗粒物(PM10),57,64,98,28,50,41,,61,52,28,42,12,12,0.7,2.2
2025-01-21T2100,1763A,123.7169,41.3094,本溪市,彩屯,,,54,85,41,60,,,59,57,34,45,12,13,0.9,2.1
2025-01-21T2100,1764A,123.7669,41.2864,本溪市,东明,细颗粒物(PM2.5),67,73,80,48,53,34,,54,49,38,51,10,12,1.1,1.7
2025-01-21T2100,1765A,123.7992,41.2664,本溪市,新立屯,颗粒物(PM10),56,61,61,33,27,18,,62,47,62,52,4,9,0.9,1.5
2025-01-21T2100,1766A,123.8142,41.3472,本溪市,威宁,细颗粒物(PM2.5),67,79,102,48,53,11,,53,39,57,41,4,5,1.0,1.6
2025-01-21T2100,2587A,105.2864,27.3125,毕节市,八中,细颗粒物(PM2.5),124,114,109,94,89,71,,79,79,,26,12,11,0.9,1.1
2025-01-21T2100,2588A,105.31,27.2944,毕节市,师专,细颗粒物(PM2.5),130,115,107,99,94,77,,79,79,21,23,12,15,0.9,1
2025-01-21T2100,3537A,105.3631,27.3533,毕节市,长征村,细颗粒物(PM2.5),132,113,95,100,84,90,,96,96,18,17,16,20,0.9,1
2025-01-21T2100,1629A,118.0018,37.3617,滨州市,第二水厂,,39,39,135,17,88,44,,72,61,21,71,10,26,0.3,1
2025-01-21T2100,1630A,117.9776,37.393,滨州市,北中新校,,41,41,144,19,83,47,,58,56,26,73,7,23,0,0.8
2025-01-21T2100,3514A,117.9378,37.3956,滨州市,中海酒店,,27,27,121,14,84,55,,67,65,16,55,8,24,0.2,0.9
2025-01-21T2100,3515A,117.9378,37.3553,滨州市,开发区一中,,44,44,127,14,82,48,,63,60,27,73,7,27,0.3,0.8
2025-01-21T2100,3516A,118.0917,37.694,滨州市,金海六路,,32,32,114,17,74,54,,58,57,22,62,7,28,0.3,1.1
2025-01-21T2100,4028A,117.9956,37.3753,滨州市,滨州市西街道办事处,,36,36,125,22,90,45,,61,54,23,66,6,20,0,0.9
2025-01-21T2100,2311A,115.8072,33.8399,亳州市,污水处理厂,细颗粒物(PM2.5),209,209,158,159,120,46,,99,90,53,40,16,15,1.3,0.9
2025-01-21T2100,2312A,115.7789,33.8518,亳州市,三国揽胜宫,细颗粒物(PM2.5),226,205,171,176,128,54,,109,100,56,44,14,13,1.5,1
2025-01-21T2100,3332A,115.7633,33.8034,亳州市,亳州学院,细颗粒物(PM2.5),178,186,144,134,98,60,,98,90,44,37,11,9,1.2,1
2025-01-21T2100,2693A,82.0485,44.8556,博尔塔拉蒙古自治州,市党校,细颗粒物(PM2.5),102,100,105,76,69,72,,84,84,33,26,9,8,1.3,1.4
2025-01-21T2100,2694A,82.0806,44.8969,博尔塔拉蒙古自治州,市环保局,颗粒物(PM10),77,103,110,49,57,78,,83,83,25,30,7,7,1.4,1.3
2025-01-21T2100,1071A,116.8842,38.2991,沧州市,沧县城建局,"颗粒物(PM10),细颗粒物(PM2.5)",54,57,123,38,89,33,,51,50,39,57,4,16,0.4,1
2025-01-21T2100,1072A,116.8584,38.3254,沧州市,电视转播站,,49,49,113,22,82,36,,52,52,41,62,4,15,0.6,1.2
2025-01-21T2100,1073A,116.8709,38.3228,沧州市,市环保局,颗粒物(PM10),53,55,111,33,80,30,,54,54,36,56,4,15,0.3,0.8
2025-01-21T2100,3324A,116.8136,38.3004,沧州市,河北水利电力学院,,36,29,124,25,77,52,,55,55,18,48,9,22,0.3,0.9
2025-01-21T2100,2622A,97.1806,31.1273,昌都市,昌都监测站,细颗粒物(PM2.5),107,100,39,80,24,8,,69,53,81,26,11,7,3.1,1.4
2025-01-21T2100,3719A,97.1714,31.1406,昌都市,昌都会议中心,,25,21,20,17,9,59,,80,80,10,6,4,4,0.6,0.5
2025-01-21T2100,2690A,88.1236,43.8886,昌吉回族自治州,天山天池,,25,6,5,3,2,77,,91,86,2,2,7,6,0.5,0.5
2025-01-21T2100,2692A,87.2717,44.0297,昌吉回族自治州,新区政务中心,细颗粒物(PM2.5),274,270,326,224,275,26,,37,37,67,61,1,2,1.9,2
2025-01-21T2100,3613A,87.3095,44.0142,昌吉回族自治州,亚心广场,细颗粒物(PM2.5),301,285,325,251,286,39,,56,56,52,44,5,6,1.7,1.8
2025-01-21T2100,1119A,125.3325,43.9166,长春市,食品厂,细颗粒物(PM2.5),155,122,97,118,83,60,,60,60,30,41,7,11,0.9,0.9
2025-01-21T2100,1120A,125.2863,43.9027,长春市,客车厂,细颗粒物(PM2.5),169,,91,128,90,56,,63,62,35,36,8,12,0.9,0.8
2025-01-21T2100,1121A,125.2841,43.8463,长春市,邮电学院,细颗粒物(PM2.5),165,,93,125,87,70,,71,71,27,34,11,14,1.0,1
2025-01-21T2100,1122A,125.3716,43.8772,长春市,劳动公园,细颗粒物(PM2.5),369,,92,319,76,71,,74,74,27,38,8,10,0.9,1
2025-01-21T2100,1123A,125.3297,43.8805,长春市,园林处,细颗粒物(PM2.5),149,126,86,114,76,64,,67,67,22,30,10,13,0.8,0.7
2025-01-21T2100,1124A,125.4605,43.79,长春市,净月潭,细颗粒物(PM2.5),338,,93,288,117,66,,69,69,24,19,8,8,0.8,0.7
2025-01-21T2100,1125A,125.7194,43.515,长春市,甩湾子,,,,,,,,,,,,,,,,
2025-01-21T2100,1126A,125.3863,43.8447,长春市,经开区环卫处,细颗粒物(PM2.5),145,150,102,111,70,57,,63,62,33,36,18,15,1.3,1.2
2025-01-21T2100,1127A,125.245,43.7783,长春市,高新区管委会,细颗粒物(PM2.5),155,,78,118,79,59,,70,70,32,33,9,9,1.1,1
2025-01-21T2100,1128A,125.1761,43.8325,长春市,岱山公园,细颗粒物(PM2.5),158,,81,120,79,56,,68,67,39,38,7,8,0.9,0.8
2025-01-21T2100,1335A,113.0833,28.2325,长沙市,经开区环保局,细颗粒物(PM2.5),103,130,111,77,65,46,,140,132,104,52,6,6,1.3,0.8
2025-01-21T2100,1336A,112.8872,28.2189,长沙市,高开区环保局,细颗粒物(PM2.5),109,128,141,82,89,75,,141,134,68,73,8,7,1.6,1.3
2025-01-21T2100,1337A,113.0792,28.2053,长沙市,马坡岭,细颗粒物(PM2.5),129,168,134,98,95,5,,138,114,126,71,7,6,1.5,0.9
2025-01-21T2100,1338A,112.9394,28.19,长沙市,湖南师范大学,细颗粒物(PM2.5),79,91,108,58,74,99,,139,136,49,44,9,7,1.1,1
2025-01-21T2100,1339A,113.0178,28.1322,长沙市,雨花区环保局,细颗粒物(PM2.5),98,105,105,73,70,82,,140,133,66,54,8,8,1.3,1
2025-01-21T2100,1340A,112.9792,28.2597,长沙市,伍家岭,细颗粒物(PM2.5),145,202,151,111,97,10,,126,101,106,70,8,6,1.5,1.1
2025-01-21T2100,1341A,113.0014,28.1944,长沙市,火车新站,细颗粒物(PM2.5),199,187,154,149,109,21,,131,115,139,86,5,5,2.4,1.5
2025-01-21T2100,1342A,112.9844,28.1178,长沙市,天心区环保局,,,144,108,73,80,86,,144,133,105,59,5,4,,1.3
2025-01-21T2100,1343A,112.8908,28.1308,长沙市,湖南中医药大学,细颗粒物(PM2.5),138,132,130,105,89,5,,130,104,113,64,10,8,1.4,1.1
2025-01-21T2100,1344A,112.9581,28.3611,长沙市,沙坪,细颗粒物(PM2.5),69,51,67,50,61,128,,134,134,19,22,9,8,1.1,1.1
2025-01-21T2100,1727A,113.1147,36.1547,长治市,清华站,细颗粒物(PM2.5),85,85,91,63,58,68,,49,49,30,54,21,31,1.1,1.4
2025-01-21T2100,1730A,113.0886,36.2125,长治市,审计局,细颗粒物(PM2.5),94,96,100,70,71,82,,64,64,26,55,17,36,0.9,1.2
2025-01-21T2100,1731A,113.0844,36.1856,长治市,长治八中,细颗粒物(PM2.5),92,112,119,68,81,50,,53,53,43,54,17,30,1.3,1.3
2025-01-21T2100,2845A,113.1569,36.1911,长治市,德盛苑,细颗粒物(PM2.5),79,83,83,58,55,54,,51,51,43,47,20,31,1.3,1.4
2025-01-21T2100,3568A,113.06,36.0464,长治市,向阳小学,细颗粒物(PM2.5),94,100,98,70,66,68,,48,48,34,43,33,40,2.0,1.4
2025-01-21T2100,3569A,112.8792,36.3144,长治市,屯留一中,细颗粒物(PM2.5),80,93,70,59,45,62,,60,60,57,66,22,28,1.1,1.1
2025-01-21T2100,4189A,113.1131,36.19948,长治市,英华南巷50号,细颗粒物(PM2.5),98,95,91,73,63,71,,66,66,43,57,19,32,1.1,1.4
2025-01-21T2100,4190A,113.2367,36.3344,长治市,学府街1号,细颗粒物(PM2.5),124,99,126,94,71,80,,82,82,33,52,,32,1.0,1.9
2025-01-21T2100,1854A,111.6975,28.9703,常德市,市二中,细颗粒物(PM2.5),192,173,149,144,126,112,,132,130,26,28,10,7,1.0,0.8
2025-01-21T2100,1857A,111.7158,29.1456,常德市,白鹤山,,,,,,,,,,,,,,,,
2025-01-21T2100,3138A,111.7153,29.0289,常德市,武陵区永安,细颗粒物(PM2.5),148,145,157,113,123,142,,153,153,18,30,8,5,0.7,0.9
2025-01-21T2100,3139A,111.6892,28.9881,常德市,鼎城区玉霞,细颗粒物(PM2.5),183,186,172,138,126,100,,138,135,37,34,13,12,1.0,1
2025-01-21T2100,3140A,111.6625,29.0531,常德市,武陵区长庚,细颗粒物(PM2.5),254,,178,204,139,128,,95,,30,32,6,4,0.8,0.8
2025-01-21T2100,1196A,119.9633,31.762,常州市,市监测站,细颗粒物(PM2.5),163,171,200,124,140,14,,132,103,139,99,15,13,1.2,1.3
2025-01-21T2100,1200A,119.9468,31.7069,常州市,武进监测站,细颗粒物(PM2.5),162,155,182,123,131,34,,137,110,98,84,15,13,1.4,1.2
2025-01-21T2100,1201A,119.9255,31.9087,常州市,安家,细颗粒物(PM2.5),182,179,184,137,135,18,,116,92,119,88,14,12,1.3,1.4
2025-01-21T2100,3002A,119.9805,31.8174,常州市,行政中心,细颗粒物(PM2.5),155,143,167,118,134,20,,119,96,109,81,20,18,1.2,1.2
2025-01-21T2100,3003A,120.0522,31.7748,常州市,经开区,细颗粒物(PM2.5),163,167,192,124,133,9,,124,95,133,89,17,14,1.2,1.1
2025-01-21T2100,3010A,119.9025,31.7964,常州市,钟楼,细颗粒物(PM2.5),160,153,184,122,132,29,,131,106,103,83,13,13,1.1,1.3
2025-01-21T2100,3429A,119.8598,31.7066,常州市,武进经发区,,,,194,,146,55,,136,117,95,88,11,11,,1.3
2025-01-21T2100,3430A,119.5826,31.7245,常州市,金坛城区,细颗粒物(PM2.5),166,158,179,126,139,78,,139,126,59,65,11,11,1.1,1.1
2025-01-21T2100,2220A,120.4318,41.5881,朝阳市,西梁,细颗粒物(PM2.5),117,98,67,88,50,12,,63,50,75,45,21,15,1.8,1.3
2025-01-21T2100,2221A,120.4521,41.5646,朝阳市,河畔小区,细颗粒物(PM2.5),67,,70,48,46,32,,66,61,39,34,10,9,1.1,1.1
2025-01-21T2100,2222A,120.4176,41.5648,朝阳市,八里堡,细颗粒物(PM2.5),92,117,80,68,53,23,,70,56,61,40,17,13,1.5,1.3
2025-01-21T2100,2223A,120.3806,41.5969,朝阳市,农业园区,细颗粒物(PM2.5),60,51,59,43,40,36,,77,61,38,27,13,11,0.8,0.8
2025-01-21T2100,1705A,116.6367,23.6719,潮州市,西园路,细颗粒物(PM2.5),90,94,63,67,45,146,,142,142,19,19,6,5,0.6,0.5
2025-01-21T2100,3026A,116.6183,23.6608,潮州市,市政府,细颗粒物(PM2.5),75,80,61,55,37,145,,140,140,19,22,5,4,0.6,0.5
2025-01-21T2100,4036A,116.6461,23.6761,潮州市,金山,细颗粒物(PM2.5),82,67,50,60,39,134,,130,130,16,17,7,6,0.6,0.5
2025-01-21T2100,2472A,113.0073,25.9061,郴州市,马头岭,颗粒物(PM10),78,105,74,48,40,94,,115,115,36,28,20,20,1.0,0.9
2025-01-21T2100,2473A,113.0116,25.8226,郴州市,市职中,"颗粒物(PM10),细颗粒物(PM2.5)",93,136,80,69,52,9,,102,76,70,35,13,16,1.1,0.9
2025-01-21T2100,2474A,113.0161,25.8001,郴州市,兴隆步行街,,,,,,,,,,,,,,,,
2025-01-21T2100,2475A,113.0383,25.8071,郴州市,市审计局,细颗粒物(PM2.5),105,126,85,79,58,8,,98,75,74,47,14,15,1.8,1.4
2025-01-21T2100,2476A,113.0348,25.7759,郴州市,市环保局,细颗粒物(PM2.5),75,91,84,55,55,27,,86,79,68,57,17,18,0.9,0.9
2025-01-21T2100,1431A,103.9728,30.7236,成都市,金泉两河,细颗粒物(PM2.5),178,143,118,134,99,31,,66,63,43,60,3,3,0.8,1.1
2025-01-21T2100,1432A,104.176,30.6872,成都市,十里店,细颗粒物(PM2.5),159,157,109,121,87,27,,70,69,47,48,2,2,0.8,0.7
2025-01-21T2100,1433A,104.079,30.5706,成都市,三瓦窑,细颗粒物(PM2.5),142,138,114,108,87,55,,81,79,40,58,1,2,0.8,0.8
2025-01-21T2100,1434A,104.1114,30.63,成都市,沙河铺,细颗粒物(PM2.5),162,147,109,123,91,35,,74,70,52,44,4,4,1.0,0.9
2025-01-21T2100,1437A,104.0786,30.6531,成都市,君平街,,,143,107,,97,28,,72,68,,51,4,4,,0.9
2025-01-21T2100,1438A,103.613,31.0283,成都市,灵岩寺,,,,,,,,,,,,,,,,
2025-01-21T2100,2880A,104.0239,30.65639,成都市,大石西路,细颗粒物(PM2.5),142,138,107,108,90,33,,60,58,46,57,4,3,0.8,1.2
2025-01-21T2100,3136A,104.2725,30.5589,成都市,龙泉驿区区政府,细颗粒物(PM2.5),178,163,103,134,82,42,,86,81,44,27,3,3,1.1,0.8
2025-01-21T2100,3357A,104.0106,30.6931,成都市,金博路,细颗粒物(PM2.5),144,140,110,110,82,27,,67,63,45,58,2,2,0.9,1
2025-01-21T2100,3359A,104.0578,30.5225,成都市,华阳,,,,103,,87,37,,83,80,,42,3,2,,0.8
2025-01-21T2100,3488A,104.3853,30.7453,成都市,青白江技师分院,细颗粒物(PM2.5),169,147,102,128,88,32,,89,78,50,32,5,5,0.9,0.8
2025-01-21T2100,3489A,104.0789,30.4072,成都市,科学城,细颗粒物(PM2.5),119,112,93,90,79,31,,66,63,29,24,4,4,0.9,0.9
2025-01-21T2100,4011A,103.8506,30.6947,成都市,光华大道三段,细颗粒物(PM2.5),158,149,119,120,95,33,,82,76,38,50,2,2,0.8,1
2025-01-21T2100,4224A,104.2433,30.5353,成都市,鲸龙路1057号,细颗粒物(PM2.5),142,148,119,108,88,34,,86,81,70,49,2,2,1.2,1
2025-01-21T2100,1062A,117.9531,40.9081,承德市,铁路,颗粒物(PM10),56,61,61,33,38,16,,61,48,44,34,12,10,0.8,1
2025-01-21T2100,1063A,117.9392,40.9763,承德市,中国银行,颗粒物(PM10),54,58,71,32,38,10,,60,44,44,34,3,4,0.6,0.9
2025-01-21T2100,1064A,117.9503,40.928,承德市,开发区,,45,45,63,28,40,14,,67,55,47,34,7,8,0.7,1
2025-01-21T2100,1065A,117.8051,40.9655,承德市,文化中心,颗粒物(PM10),60,70,69,26,34,10,,68,49,52,38,8,7,0.7,0.8
2025-01-21T2100,1066A,117.9268,41.0026,承德市,离宫,细颗粒物(PM2.5),57,,49,40,40,39,,66,58,22,27,3,5,0.3,0.5
2025-01-21T2100,2314A,117.47,30.6618,池州市,池州学院,细颗粒物(PM2.5),158,151,130,120,106,94,,101,97,43,40,12,8,1.0,1.2
2025-01-21T2100,3237A,117.4918,30.6617,池州市,展览馆,细颗粒物(PM2.5),135,141,122,103,93,70,,93,88,55,44,8,7,1.1,1.1
2025-01-21T2100,3333A,117.5627,30.695,池州市,第八中学,细颗粒物(PM2.5),152,153,134,116,102,100,,96,95,37,36,8,8,0.8,1.1
2025-01-21T2100,3334A,117.5038,30.6243,池州市,第十二中学,细颗粒物(PM2.5),134,128,117,102,92,104,,107,106,34,48,7,6,1.0,1.4
2025-01-21T2100,1744A,118.9233,42.2816,赤峰市,松山一中,,26,26,26,11,14,53,,62,56,16,24,9,11,0.7,0.8
2025-01-21T2100,1745A,118.9576,42.2728,赤峰市,哈达街,,32,30,34,22,13,45,,63,58,33,25,12,9,0.8,0.8
2025-01-21T2100,1746A,118.8788,42.2554,赤峰市,天义路,,36,36,32,14,11,42,,58,52,23,20,9,9,0.4,0.5
2025-01-21T2100,3058A,119.2658,42.0353,赤峰市,银河街,,45,45,42,26,20,43,,57,52,22,23,20,18,0.7,0.7
2025-01-21T2100,3286A,118.9359,42.3147,赤峰市,桥北物流园区,,32,32,19,19,17,25,,59,49,42,25,11,8,0.6,0.4
2025-01-21T2100,2521A,107.3476,22.4136,崇左市,市环保局江州分局,细颗粒物(PM2.5),144,184,131,110,76,68,,157,142,62,39,7,7,1.7,1.1
2025-01-21T2100,2522A,107.3702,22.3707,崇左市,城南新区,细颗粒物(PM2.5),93,98,101,69,80,123,,167,164,29,36,8,8,1.0,1
2025-01-21T2100,2298A,118.3093,32.3153,滁州市,老年大学,细颗粒物(PM2.5),144,139,104,110,76,90,,98,96,64,65,11,6,1.0,0.9
2025-01-21T2100,2299A,118.3244,32.2786,滁州市,人大宾馆,细颗粒物(PM2.5),148,138,114,113,94,98,,96,96,61,72,14,12,1.0,1
2025-01-21T2100,3207A,118.3118,32.3038,滁州市,市政府原办公楼,,,,95,,76,,,33,,,63,,8,,0.7
2025-01-21T2100,3331A,118.3267,32.2634,滁州市,图书馆,细颗粒物(PM2.5),123,140,114,93,77,92,,92,91,54,69,11,11,0.8,1
2025-01-21T2100,2605A,101.5482,25.0441,楚雄彝族自治州,州环境监测站,,32,30,37,22,29,69,,76,75,6,21,7,8,0.6,0.7
2025-01-21T2100,2606A,101.538,25.0492,楚雄彝族自治州,市经济开发区,,43,43,38,26,29,57,,74,72,18,19,6,6,0.8,0.7
2025-01-21T2100,2548A,107.5277,31.2827,达州市,达州职业技术学院,细颗粒物(PM2.5),230,239,141,180,111,6,,28,15,24,29,6,7,1.4,1
2025-01-21T2100,2549A,107.5086,31.2186,达州市,市环境监测站,细颗粒物(PM2.5),192,201,138,144,101,5,,21,13,72,61,9,7,2.0,1.4
2025-01-21T2100,2550A,107.4988,31.2132,达州市,凤凰小区,细颗粒物(PM2.5),195,212,139,146,104,7,,23,14,75,60,13,10,2.4,1.4
2025-01-21T2100,2551A,107.5082,31.1986,达州市,达县机关宾馆,细颗粒物(PM2.5),211,212,150,161,106,5,,18,10,72,61,11,8,2.1,1.6
2025-01-21T2100,2552A,107.4644,31.2124,达州市,市政中心,细颗粒物(PM2.5),175,223,156,132,108,3,,11,7,95,71,10,6,2.7,1.6
2025-01-21T2100,2614A,100.1542,25.7054,大理白族自治州,大理市环境监测站,,46,,32,32,23,76,,91,91,6,7,7,7,0.6,0.5
2025-01-21T2100,2615A,100.2171,25.5811,大理白族自治州,大理古城,细颗粒物(PM2.5),72,52,23,52,18,66,,91,82,22,15,6,6,0.9,0.7
2025-01-21T2100,1109A,121.612,38.9741,大连市,甘井子,,46,46,58,25,38,46,,48,48,33,35,12,11,0.5,0.7
2025-01-21T2100,1110A,121.565,38.9511,大连市,周水子,,41,41,55,26,43,49,,60,58,41,35,11,13,0.8,0.6
2025-01-21T2100,1111A,121.5637,38.8845,大连市,星海三站,,42,42,55,21,36,60,,65,64,24,27,12,12,0.7,0.7
2025-01-21T2100,1112A,121.6302,38.9117,大连市,青泥洼桥,,38,38,59,23,38,61,,53,53,15,24,14,15,0.6,0.8
2025-01-21T2100,1113A,121.6251,38.8638,大连市,傅家庄,,38,38,58,23,35,66,,60,60,17,18,14,14,0.5,0.8
2025-01-21T2100,1114A,121.5213,38.8661,大连市,七贤岭,,31,31,54,19,35,71,,70,70,17,25,10,10,0.7,0.8
2025-01-21T2100,1115A,121.2529,38.8061,大连市,旅顺,,29,24,49,20,37,69,,71,71,11,21,8,10,0.6,0.8
2025-01-21T2100,1116A,121.7485,39.1311,大连市,金州,,39,38,58,27,40,70,,71,71,21,29,11,12,0.7,0.9
2025-01-21T2100,1117A,121.7811,39.0496,大连市,开发区,,44,44,59,28,40,66,,65,65,21,36,15,15,0.4,0.6
2025-01-21T2100,1118A,121.9762,39.0631,大连市,双D港,颗粒物(PM10),53,55,57,31,40,72,,76,76,24,27,14,12,0.9,0.9
2025-01-21T2100,1789A,124.81117,46.03138,大庆市,大同区,细颗粒物(PM2.5),74,63,150,54,133,61,,67,67,15,38,7,10,0.6,1.1
2025-01-21T2100,1790A,125.129,46.533,大庆市,龙凤区,细颗粒物(PM2.5),59,59,121,42,95,56,,74,70,30,37,7,10,0.8,1.1
2025-01-21T2100,1791A,124.902,46.408,大庆市,红岗区,细颗粒物(PM2.5),57,52,129,40,106,68,,73,73,13,37,6,9,0.5,1.1
2025-01-21T2100,1792A,125.153,46.586,大庆市,萨尔图区,细颗粒物(PM2.5),77,63,133,56,116,41,,82,72,51,36,6,7,0.6,0.9
2025-01-21T2100,1793A,124.9042,46.6215,大庆市,让胡路区,,,52,128,48,114,61,,71,,26,38,7,9,,0.9
2025-01-21T2100,3481A,125.141,46.634,大庆市,萨区政府监测点,细颗粒物(PM2.5),64,66,140,46,109,39,,83,75,42,31,4,6,0.6,1
2025-01-21T2100,1721A,113.3819,40.1097,大同市,果树场,,,,,,,,,,,,,,,,
2025-01-21T2100,1723A,113.2994,40.0758,大同市,云冈宾馆,颗粒物(PM10),54,58,80,34,37,40,,64,62,38,43,10,19,0.6,1.2
2025-01-21T2100,1724A,113.3444,40.0917,大同市,大同大学,,43,42,53,30,28,50,,67,65,28,38,5,18,0.4,0.8
2025-01-21T2100,1725A,113.2661,40.1269,大同市,安家小村,细颗粒物(PM2.5),67,65,72,48,37,40,,59,52,36,40,10,21,0.4,1.2
2025-01-21T2100,1726A,113.2711,40.0844,大同市,教育学院,颗粒物(PM10),53,56,78,25,37,40,,52,50,34,49,8,21,0.5,1
2025-01-21T2100,3282A,113.3397,40.0597,大同市,大同市卫生学校,颗粒物(PM10),51,51,59,20,30,58,,62,62,19,41,7,20,0.7,1.3
2025-01-21T2100,3565A,113.1367,40.1122,大同市,云冈站,颗粒物(PM10),53,55,72,28,35,8,,62,54,60,43,28,31,0.7,0.9
2025-01-21T2100,3566A,113.1186,40.2556,大同市,图书馆,颗粒物(PM10),56,62,66,25,39,35,,58,52,16,25,8,18,0.6,1
2025-01-21T2100,3567A,113.5931,40.0461,大同市,区一中,颗粒物(PM10),54,58,74,24,29,39,,54,51,32,36,14,18,1.0,1
2025-01-21T2100,4199A,113.2798,40.0997,大同市,魏都大道141号,颗粒物(PM10),54,58,95,28,41,40,,54,52,43,49,14,26,0.8,1.5
2025-01-21T2100,2269A,124.1069,50.4097,大兴安岭地区,科技局,细颗粒物(PM2.5),74,76,52,54,38,46,,60,52,21,16,8,8,0.7,0.5
2025-01-21T2100,3663A,124.1164,50.4278,大兴安岭地区,红旗社区,细颗粒物(PM2.5),119,122,52,90,46,4,,45,28,54,29,17,8,1.2,0.8
2025-01-21T2100,1600A,124.3303,40.0625,丹东市,江湾东路,颗粒物(PM10),59,68,136,36,94,50,,44,43,32,46,13,18,1.0,2.1
2025-01-21T2100,1601A,124.4256,40.1503,丹东市,临江后街,"颗粒物(PM10),细颗粒物(PM2.5)",60,70,129,43,83,36,,40,37,45,45,16,17,1.0,1.4
2025-01-21T2100,1602A,124.3933,40.1461,丹东市,元宝山,,47,47,110,31,77,53,,49,49,20,32,12,13,0.8,1.5
2025-01-21T2100,1603A,124.3633,40.1092,丹东市,民主桥,颗粒物(PM10),60,70,120,26,86,54,,37,37,27,57,13,15,0.8,1.6
2025-01-21T2100,3541A,109.5726,19.5167,儋州市,第一中学子站,,37,37,36,22,25,117,,128,126,11,10,5,5,0.6,0.5
2025-01-21T2100,3542A,109.5567,19.5187,儋州市,东坡学校子站,,,41,40,27,27,126,,135,132,10,9,,6,0.6,0.6
2025-01-21T2100,2616A,98.5842,24.428,德宏傣族景颇族自治州,德宏州监测站,颗粒物(PM10),62,74,51,41,34,48,,83,80,32,25,7,7,1.0,0.8
2025-01-21T2100,3677A,98.5881,24.4368,德宏傣族景颇族自治州,芒市人民政府综合楼,颗粒物(PM10),66,82,50,44,27,50,,74,72,18,16,7,6,0.7,0.5
2025-01-21T2100,1901A,104.4239,31.1208,德阳市,东山公园,细颗粒物(PM2.5),137,122,110,104,96,35,,76,68,46,24,2,3,1.0,1
2025-01-21T2100,1902A,104.3826,31.1317,德阳市,西小区,细颗粒物(PM2.5),189,149,130,142,109,25,,59,54,44,46,3,3,1.0,1
2025-01-21T2100,1904A,104.3553,31.1091,德阳市,耐火材料厂,细颗粒物(PM2.5),175,144,120,132,111,22,,64,56,42,44,5,5,0.9,1
2025-01-21T2100,3639A,104.4019,31.1244,德阳市,市教育局,细颗粒物(PM2.5),145,130,110,111,101,28,,66,58,51,44,5,5,1.0,0.9
2025-01-21T2100,1622A,116.3032,37.4674,德州市,儿童乐园,细颗粒物(PM2.5),100,122,174,75,115,35,,67,60,44,60,12,21,1.1,1.4
2025-01-21T2100,1624A,116.2991,37.4451,德州市,监理站,细颗粒物(PM2.5),94,117,163,70,113,40,,79,64,36,57,18,28,0.9,1.3
2025-01-21T2100,3066A,116.2721,37.4379,德州市,九衢泉纯净水厂,细颗粒物(PM2.5),98,117,171,73,113,40,,71,64,33,59,17,25,0.8,1.2
2025-01-21T2100,3371A,116.3728,37.4403,德州市,开发区人民医院,细颗粒物(PM2.5),94,112,169,70,111,37,,72,64,44,59,15,23,0.9,1.2
2025-01-21T2100,3372A,116.3572,37.4094,德州市,太阳城中学,细颗粒物(PM2.5),100,107,166,75,119,39,,76,66,33,62,13,23,0.9,1.2
2025-01-21T2100,3511A,116.5652,37.3319,德州市,陵城艺术中心,细颗粒物(PM2.5),98,112,165,73,114,31,,73,62,38,57,15,24,0.9,1.3
2025-01-21T2100,2621A,99.7056,27.8317,迪庆藏族自治州,迪庆州站,颗粒物(PM10),53,56,31,28,17,61,,84,78,26,14,9,8,0.9,0.6
2025-01-21T2100,3180A,99.7136,27.8094,迪庆藏族自治州,质量技术监督局,,23,18,25,11,16,73,,85,81,7,14,8,8,0.4,0.5
2025-01-21T2100,2663A,104.6241,35.5734,定西市,东关小学,细颗粒物(PM2.5),115,106,95,87,61,33,,69,65,40,28,33,24,1.6,1.5
2025-01-21T2100,2664A,104.6194,35.5934,定西市,供电公司,,,,91,,59,,,23,,,39,,21,,2.0
2025-01-21T2100,1389A,113.7547,23.0494,东莞市,莞城梨川,细颗粒物(PM2.5),72,88,82,52,48,90,,151,142,52,62,6,6,1.1,1
2025-01-21T2100,1390A,113.7944,23.0128,东莞市,东城石井,细颗粒物(PM2.5),62,70,65,44,41,100,,149,141,33,54,6,7,0.6,0.6
2025-01-21T2100,1391A,113.7383,22.9658,东莞市,南城西平,颗粒物(PM10),60,69,78,35,42,113,,169,164,42,76,5,3,0.7,0.8
2025-01-21T2100,3319A,113.7338,23.0381,东莞市,万江金泰,细颗粒物(PM2.5),83,104,84,61,48,83,,153,141,63,64,5,8,1.0,1.1
2025-01-21T2100,3626A,113.7533,23.0202,东莞市,南城元岭,,,,76,,43,,,147,147,,62,,8,,0.9
2025-01-21T2100,3627A,113.7875,23.0457,东莞市,东城主山,细颗粒物(PM2.5),78,94,80,57,46,78,,130,123,56,59,8,9,1.1,0.9
2025-01-21T2100,1666A,118.6614,37.4309,东营市,市环保局,,22,22,99,9,63,65,,63,63,6,52,3,23,0.4,1
2025-01-21T2100,3036A,118.6904,37.4338,东营市,开发区管委会,,21,21,102,9,69,63,,59,59,16,61,3,22,0.4,1.1
2025-01-21T2100,3365A,118.5719,37.565,东营市,垦利区民丰路,,19,19,91,7,59,32,,34,34,24,59,11,25,0.2,0.8
2025-01-21T2100,3498A,118.5055,37.8612,东营市,河口城区,,29,29,97,10,54,46,,57,57,30,56,3,8,0.7,1.2
2025-01-21T2100,3646A,118.4978,37.4623,东营市,胜利站,,34,34,114,9,68,51,,52,51,19,65,7,33,0.7,1.4
2025-01-21T2100,3734A,118.35,37.26,东营市,理想之城,,24,24,103,12,63,62,,65,64,17,62,3,15,0.4,1
2025-01-21T2100,1591A,110.0023,39.8129,鄂尔多斯市,综合楼,细颗粒物(PM2.5),110,156,100,83,40,9,,31,26,86,61,39,26,1.9,1.4
2025-01-21T2100,1592A,109.9486,39.8261,鄂尔多斯市,巴音孟克林场办事处,细颗粒物(PM2.5),98,134,79,73,36,10,,39,29,81,57,24,18,1.6,0.9
2025-01-21T2100,1593A,109.7736,39.5986,鄂尔多斯市,康泽苑,颗粒物(PM10),73,95,51,48,27,10,,54,46,73,44,12,10,1.1,0.8
2025-01-21T2100,1594A,109.8119,39.5989,鄂尔多斯市,华泰汽车城,颗粒物(PM10),74,97,50,48,25,6,,52,46,80,46,14,11,1.2,0.7
2025-01-21T2100,1595A,109.9734,39.7884,鄂尔多斯市,奥林花园,颗粒物(PM10),97,144,79,68,36,6,,52,39,82,62,17,14,1.5,1.1
2025-01-21T2100,2436A,114.8938,30.3994,鄂州市,市政府,细颗粒物(PM2.5),109,111,125,82,95,93,,136,131,63,57,18,18,1.4,1.4
2025-01-21T2100,2437A,114.8989,30.3714,鄂州市,赵家坝,细颗粒物(PM2.5),98,93,115,73,92,95,,144,137,43,14,14,12,1.7,1.4
2025-01-21T2100,3654A,114.8094,30.4089,鄂州市,精准医疗中心,细颗粒物(PM2.5),107,101,128,80,103,37,,141,127,119,56,16,29,1.2,1.5
2025-01-21T2100,2454A,109.4978,30.2981,恩施土家族苗族自治州,湖北民院,细颗粒物(PM2.5),176,,92,133,101,14,,65,60,78,54,8,8,1.4,1.1
2025-01-21T2100,2455A,109.4707,30.2798,恩施土家族苗族自治州,州电力总公司,细颗粒物(PM2.5),173,166,120,131,106,12,,72,66,98,44,9,8,1.7,1.4
2025-01-21T2100,3549A,109.5061,30.3772,恩施土家族苗族自治州,龙凤新区,细颗粒物(PM2.5),137,135,85,104,67,27,,67,62,37,25,6,6,1.8,1.1
2025-01-21T2100,2499A,108.3411,21.6158,防城港市,沙万,颗粒物(PM10),103,156,101,45,76,97,,,,37,29,8,11,0.4,1.2
2025-01-21T2100,2500A,108.3514,21.7731,防城港市,防城档案局,细颗粒物(PM2.5),88,120,119,65,75,40,,132,116,50,41,8,11,1.1,1.1
2025-01-21T2100,2501A,108.3506,21.6414,防城港市,大海花园,,,70,95,54,87,,,97,96,29,32,5,9,0.8,1.8
2025-01-21T2100,1371A,113.1294,23.0067,佛山市,湾梁,颗粒物(PM10),73,95,93,44,50,71,,141,137,91,95,7,8,0.7,0.8
2025-01-21T2100,1372A,113.1083,23.0478,佛山市,华材职中,,,90,114,68,71,,,166,166,,98,,9,,1.1
2025-01-21T2100,1373A,113.144,23.0453,佛山市,南海气象局,细颗粒物(PM2.5),74,79,86,54,58,89,,130,128,59,71,8,9,0.9,1
2025-01-21T2100,1374A,113.2881,22.8094,佛山市,顺德苏岗,颗粒物(PM10),65,80,81,46,55,81,,142,138,49,70,8,10,0.7,0.8
2025-01-21T2100,1376A,112.8383,22.8678,佛山市,高明孔堂,颗粒物(PM10),56,62,65,35,43,122,,157,157,28,33,7,8,0.7,0.7
2025-01-21T2100,1377A,112.8836,23.1588,佛山市,三水监测站,细颗粒物(PM2.5),112,134,98,84,64,12,,100,93,156,91,11,11,1.2,1
2025-01-21T2100,1378A,112.867,23.185,佛山市,三水云东海,细颗粒物(PM2.5),75,76,81,55,59,95,,140,136,66,85,10,11,1.0,0.9
2025-01-21T2100,3625A,113.2544,22.7642,佛山市,容桂街道办,颗粒物(PM10),79,107,96,53,53,66,,145,140,70,76,9,9,0.8,0.8
2025-01-21T2100,1280A,119.3903,26.0543,福州市,鼓山,,,,59,,51,,,156,,,13,,4,,0.9
2025-01-21T2100,1282A,119.2681,26.0504,福州市,师大,细颗粒物(PM2.5),77,60,57,56,48,142,,157,152,21,25,5,5,0.7,0.6
2025-01-21T2100,1283A,119.2984,26.1028,福州市,五四北路,细颗粒物(PM2.5),80,64,55,59,52,143,,146,142,23,29,3,2,0.7,0.6
2025-01-21T2100,1284A,119.2648,26.0768,福州市,杨桥西路,细颗粒物(PM2.5),79,64,57,58,48,146,,155,148,20,24,3,2,0.6,0.6
2025-01-21T2100,1285A,119.317,26.0746,福州市,紫阳,细颗粒物(PM2.5),82,61,57,60,54,136,,142,141,26,33,6,5,0.6,0.7
2025-01-21T2100,3048A,119.5799,26.0936,福州市,九龙,细颗粒物(PM2.5),65,,53,47,57,136,,154,151,19,16,5,5,0.7,0.8
2025-01-21T2100,3526A,119.5189,25.9664,福州市,吴航,细颗粒物(PM2.5),57,56,76,40,54,153,,161,158,16,31,2,4,0.5,0.8
2025-01-21T2100,1755A,123.7977,41.8491,抚顺市,望花区,颗粒物(PM10),51,52,110,31,59,50,,64,62,20,41,8,8,0.7,1.2
2025-01-21T2100,1756A,123.9161,41.8822,抚顺市,顺城区,,,,97,,57,22,,66,60,57,47,8,9,1.1,1.3
2025-01-21T2100,1757A,124.0436,41.8611,抚顺市,东洲区,,45,45,74,26,45,53,,59,58,11,27,12,12,0.6,1
2025-01-21T2100,1758A,123.9247,41.8642,抚顺市,新抚区,,48,48,89,30,54,42,,65,62,25,37,6,6,0.8,1.2
2025-01-21T2100,1759A,124.0972,41.8961,抚顺市,大伙房水库,,47,47,58,27,44,52,,65,60,17,28,9,10,0.6,0.8
2025-01-21T2100,1760A,123.7086,41.8391,抚顺市,沈抚新城,,41,41,86,24,54,46,,63,60,24,39,5,5,0.6,1.3
2025-01-21T2100,2376A,116.2127,28.0814,抚州市,桐源党溪,细颗粒物(PM2.5),80,92,76,59,49,61,,106,100,3,10,2,9,0.6,0.6
2025-01-21T2100,2377A,116.3544,27.9831,抚州市,市站,细颗粒物(PM2.5),77,89,82,56,55,80,,112,108,37,39,18,15,0.8,0.9
2025-01-21T2100,2378A,116.3565,27.963,抚州市,血防站,细颗粒物(PM2.5),69,82,81,50,50,89,,114,113,27,32,10,8,1.2,1.2
2025-01-21T2100,2379A,116.3564,28.0007,抚州市,采茶剧团,细颗粒物(PM2.5),75,85,80,55,54,60,,97,92,32,34,8,8,1.8,1.8
2025-01-21T2100,2380A,116.385,27.9647,抚州市,医学分院,颗粒物(PM10),66,82,82,40,55,74,,94,89,23,31,6,9,0.9,1
2025-01-21T2100,2207A,121.6094,41.998,阜新市,工业园区,细颗粒物(PM2.5),152,180,76,116,39,22,,70,51,53,31,29,16,1.6,0.8
2025-01-21T2100,2208A,121.6697,42.0279,阜新市,长青街,细颗粒物(PM2.5),63,74,49,45,28,16,,67,54,44,23,9,8,0.9,0.6
2025-01-21T2100,2209A,121.6673,42.0705,阜新市,农业园区,,25,25,36,9,15,61,,68,67,10,11,10,11,0.6,0.2
2025-01-21T2100,2210A,121.6717,42.0224,阜新市,东苑,细颗粒物(PM2.5),148,,55,113,36,15,,65,50,67,28,34,10,1.7,0.5
2025-01-21T2100,2211A,121.6506,42.0498,阜新市,玉龙新城,颗粒物(PM10),102,154,73,58,35,12,,68,45,54,32,11,10,1.5,1
2025-01-21T2100,2301A,115.8277,32.8929,阜阳市,市监测站,细颗粒物(PM2.5),203,177,149,153,126,58,,100,94,57,51,14,11,1.0,0.9
2025-01-21T2100,2303A,115.8554,32.8605,阜阳市,开发区,细颗粒物(PM2.5),173,226,177,131,113,58,,112,102,61,46,16,13,1.1,0.9
2025-01-21T2100,2875A,115.784,32.8892,阜阳市,阜阳职业技术学院,细颗粒物(PM2.5),180,177,131,136,103,63,,101,97,49,35,14,12,1.1,0.9
2025-01-21T2100,3468A,115.7901,32.8613,阜阳市,市规划展馆,细颗粒物(PM2.5),160,166,140,122,111,86,,117,114,43,34,14,12,1.1,1
2025-01-21T2100,3469A,115.836,32.9183,阜阳市,枣园社区,细颗粒物(PM2.5),160,166,148,122,117,69,,108,103,46,41,11,9,1.0,0.9
2025-01-21T2100,2669A,102.9099,34.9841,甘南藏族自治州,州政府,颗粒物(PM10),55,60,50,37,26,31,,67,64,38,25,19,15,0.9,0.6
2025-01-21T2100,3380A,102.8914,34.9617,甘南藏族自治州,甘肃民族师范学院,,,,52,,16,,,72,72,,29,,9,,0.5
2025-01-21T2100,2570A,101.9603,30.0475,甘孜藏族自治州,水桥子,,44,44,32,29,12,33,,76,71,32,19,3,3,0.8,0.6
2025-01-21T2100,3065A,101.9533,29.9972,甘孜藏族自治州,州环保局,,34,34,29,18,7,60,,78,73,12,7,4,4,0.6,0.4
2025-01-21T2100,3414A,115.8347,28.932,赣江新区,桑海产业园,细颗粒物(PM2.5),88,117,95,65,61,14,,125,106,99,65,14,14,0.8,0.7
2025-01-21T2100,2362A,114.9017,25.9149,赣州市,通天岩,颗粒物(PM10),51,52,47,9,26,85,,139,121,18,15,10,9,0.7,0.6
2025-01-21T2100,2363A,114.9367,25.8664,赣州市,地委,颗粒物(PM10),62,73,64,39,36,41,,129,107,76,39,5,4,1.5,1.2
2025-01-21T2100,2364A,114.9461,25.8481,赣州市,气象台,颗粒物(PM10),78,105,75,37,33,43,,128,109,90,55,10,10,1.1,0.9
2025-01-21T2100,2365A,114.9322,25.8333,赣州市,市图书馆,颗粒物(PM10),64,77,68,45,39,70,,133,122,58,52,4,6,1.0,1
2025-01-21T2100,2366A,114.8905,25.8471,赣州市,华坚鞋城,颗粒物(PM10),71,92,76,48,42,25,,126,103,85,45,7,9,0.8,0.6
2025-01-21T2100,3109A,115.0093,25.8613,赣州市,赣县区卫计委,细颗粒物(PM2.5),88,105,62,65,39,44,,117,94,54,37,5,5,1.0,0.7
2025-01-21T2100,2683A,106.2319,36.1417,固原市,马园,颗粒物(PM10),102,154,98,53,48,47,,82,77,48,44,30,11,1.2,1
2025-01-21T2100,2684A,106.2792,36.0022,固原市,监测站,颗粒物(PM10),100,150,73,54,41,60,,92,86,43,34,26,12,1.0,1
2025-01-21T2100,2685A,106.2375,36.0211,固原市,新区,颗粒物(PM10),95,140,83,52,47,57,,86,82,43,45,21,9,0.9,1.1
2025-01-21T2100,3522A,106.2177,35.9959,固原市,原州区十五小,,,103,60,60,35,68,,90,85,,21,26,10,1.1,0.8
2025-01-21T2100,2543A,106.6308,30.5278,广安市,小平旧居,,,,,,,,,,,,,,,,
2025-01-21T2100,2544A,106.6303,30.4576,广安市,市委,细颗粒物(PM2.5),172,169,142,130,112,24,,37,32,39,30,5,4,1.4,1.1
2025-01-21T2100,2545A,106.6271,30.4663,广安市,友谊中学,细颗粒物(PM2.5),193,171,137,145,115,36,,32,32,31,32,6,5,1.2,1.1
2025-01-21T2100,2547A,106.6388,30.4551,广安市,广电花园,细颗粒物(PM2.5),163,165,134,124,114,16,,27,25,35,33,3,3,1.4,1.2
2025-01-21T2100,2902A,106.6351,30.4865,广安市,北辰小学,细颗粒物(PM2.5),178,163,132,134,111,27,,33,29,33,29,7,6,1.4,1.2
2025-01-21T2100,2523A,105.8945,32.4535,广元市,黑石坡,细颗粒物(PM2.5),100,125,104,75,66,41,,55,55,32,23,2,4,0.9,0.7
2025-01-21T2100,2524A,105.821,32.4444,广元市,老城,细颗粒物(PM2.5),108,131,117,81,77,1,,38,33,71,47,1,5,0.9,1
2025-01-21T2100,2526A,105.8628,32.4287,广元市,监测站,细颗粒物(PM2.5),110,99,92,83,71,48,,51,51,31,42,8,10,0.9,1.2
2025-01-21T2100,3617A,105.8047,32.4166,广元市,经开区,细颗粒物(PM2.5),137,125,122,104,100,5,,37,35,79,46,6,10,1.5,1.4
2025-01-21T2100,1345A,113.2347,23.1423,广州市,广雅中学,细颗粒物(PM2.5),73,88,113,53,61,99,,154,153,62,91,7,7,1.0,1.1
2025-01-21T2100,1346A,113.2612,23.105,广州市,市五中,细颗粒物(PM2.5),82,98,108,60,68,101,,157,152,53,83,6,6,1.1,1.2
2025-01-21T2100,1348A,113.3478,23.0916,广州市,广东商学院,细颗粒物(PM2.5),89,100,104,66,61,61,,153,141,93,86,7,7,1.0,1
2025-01-21T2100,1349A,113.4332,23.1047,广州市,市八十六中,二氧化氮,89,102,105,54,57,5,,122,103,178,103,8,8,1.0,1
2025-01-21T2100,1350A,113.3505,22.9483,广州市,番禺中学,细颗粒物(PM2.5),92,118,107,68,68,73,,167,158,90,81,4,5,1.1,1
2025-01-21T2100,1351A,113.2146,23.3916,广州市,花都师范,细颗粒物(PM2.5),73,89,99,53,59,92,,157,149,51,68,6,7,0.7,0.8
2025-01-21T2100,1352A,113.2597,23.1331,广州市,市监测站,,,94,92,51,54,84,,167,155,81,95,,8,1.1,1
2025-01-21T2100,1353A,113.5618,23.312,广州市,九龙镇镇龙,颗粒物(PM10),75,100,75,52,42,6,,132,107,126,59,4,4,0.8,0.7
2025-01-21T2100,1354A,113.2765,23.1544,广州市,麓湖,二氧化氮,62,62,81,41,52,21,,151,132,123,84,4,5,1.1,1
2025-01-21T2100,1355A,113.443,23.3035,广州市,帽峰山森林公园,,44,34,46,12,28,138,,162,160,16,28,6,7,0.5,0.5
2025-01-21T2100,2846A,113.3221,23.1322,广州市,体育西,细颗粒物(PM2.5),92,114,95,68,58,56,,145,135,44,68,10,8,1.2,1
2025-01-21T2100,3298A,113.5717,23.5491,广州市,从化街口,细颗粒物(PM2.5),65,72,69,47,45,52,,142,128,59,50,7,7,0.9,0.9
2025-01-21T2100,3299A,113.3472,23.3692,广州市,白云竹料,细颗粒物(PM2.5),69,84,88,50,50,76,,164,155,54,58,7,7,1.0,0.8
2025-01-21T2100,3300A,113.2981,23.237,广州市,白云嘉禾,颗粒物(PM10),65,79,102,35,52,31,,148,135,119,83,9,9,1.6,1.4
2025-01-21T2100,3301A,113.4256,23.1716,广州市,黄埔科学城,颗粒物(PM10),54,58,69,33,41,66,,135,125,53,62,7,8,1.0,0.9
2025-01-21T2100,3302A,113.3942,23.0483,广州市,番禺大学城,颗粒物(PM10),68,85,100,46,52,97,,154,148,62,87,14,15,1.1,1.2
2025-01-21T2100,3303A,113.4922,22.8168,广州市,南沙黄阁,颗粒物(PM10),56,61,74,22,43,91,,172,164,44,62,5,5,0.6,0.8
2025-01-21T2100,3304A,113.5342,22.7896,广州市,南沙街,颗粒物(PM10),60,70,65,27,39,80,,172,159,48,54,5,6,0.7,0.8
2025-01-21T2100,3443A,113.2902,23.5544,广州市,花都梯面,颗粒物(PM10),56,61,55,37,35,74,,138,121,37,50,4,6,0.8,0.7
2025-01-21T2100,3445A,113.7858,23.7478,广州市,从化良口,,36,36,31,24,23,108,,133,130,16,19,6,6,0.6,0.6
2025-01-21T2100,3446A,113.8051,23.2614,广州市,增城荔城,,,82,52,45,35,65,,144,131,39,25,5,10,,0.7
2025-01-21T2100,2505A,109.568,23.1478,贵港市,德智高中,,,,,,,,,,,,,,,,
2025-01-21T2100,2506A,109.6047,23.0666,贵港市,江南子站,细颗粒物(PM2.5),140,188,144,107,93,90,,170,162,67,50,11,11,1.6,1.4
2025-01-21T2100,2507A,109.6014,23.0948,贵港市,贵城子站,细颗粒物(PM2.5),138,160,122,105,85,99,,159,153,49,45,16,17,1.3,1.2
2025-01-21T2100,2508A,109.5669,23.1065,贵港市,荷城子站,细颗粒物(PM2.5),134,163,114,102,74,77,,150,137,64,46,14,16,1.3,1.1
2025-01-21T2100,3405A,109.5886,23.1172,贵港市,新世纪学校,细颗粒物(PM2.5),129,149,114,98,72,111,,171,157,49,41,9,10,1.2,1
2025-01-21T2100,1439A,106.6899,26.5998,贵阳市,马鞍山,细颗粒物(PM2.5),62,66,77,44,51,102,,119,116,23,30,11,9,0.6,1
2025-01-21T2100,1441A,106.6243,26.6266,贵阳市,鉴湖路,细颗粒物(PM2.5),67,73,79,48,55,108,,122,120,21,33,9,13,0.6,0.8
2025-01-21T2100,1442A,106.7487,26.6343,贵阳市,燕子冲,细颗粒物(PM2.5),77,61,70,56,56,113,,130,127,23,27,14,18,0.7,0.8
2025-01-21T2100,1443A,106.6555,26.4365,贵阳市,碧云窝,颗粒物(PM10),63,75,91,44,61,117,,135,131,21,34,21,28,0.7,0.9
2025-01-21T2100,1445A,106.7109,26.6027,贵阳市,红边门,细颗粒物(PM2.5),83,78,91,61,78,100,,119,116,37,46,16,35,0.9,1.1
2025-01-21T2100,1446A,106.7164,26.5699,贵阳市,新华路,,,,92,,62,,,98,,,41,,51,,1.1
2025-01-21T2100,1447A,106.674,26.5424,贵阳市,太慈桥,细颗粒物(PM2.5),70,70,82,51,57,108,,129,126,24,38,21,17,0.6,0.8
2025-01-21T2100,1552A,106.805,26.3003,贵阳市,桐木岭,细颗粒物(PM2.5),79,78,78,58,52,119,,129,125,3,2,15,10,0.9,0.8
2025-01-21T2100,4230A,106.6882,26.5695,贵阳市,花果园大街66号,细颗粒物(PM2.5),82,78,87,60,66,87,,111,107,51,58,13,16,1.0,1.1
2025-01-21T2100,4231A,106.6873,26.5169,贵阳市,漓江路57号,细颗粒物(PM2.5),79,75,90,58,67,92,,115,110,29,50,31,31,0.7,0.9
2025-01-21T2100,1862A,110.4144,25.3167,桂林市,电子科大尧山校区,细颗粒物(PM2.5),87,104,68,64,48,98,,132,126,21,15,9,7,0.9,0.7
2025-01-21T2100,1863A,110.2819,25.2697,桂林市,监测站,细颗粒物(PM2.5),176,160,96,133,71,14,,103,90,116,44,13,14,2.7,1.4
2025-01-21T2100,1864A,110.3089,25.2708,桂林市,龙隐路小学,细颗粒物(PM2.5),113,115,83,85,64,53,,123,115,79,35,14,18,1.6,1.2
2025-01-21T2100,1865A,110.2869,25.2178,桂林市,八中,细颗粒物(PM2.5),138,157,92,105,69,29,,112,96,80,40,14,13,1.5,1
2025-01-21T2100,3403A,110.1764,25.2381,桂林市,创业大厦,细颗粒物(PM2.5),110,129,95,83,71,60,,110,110,67,50,19,21,1.0,1
2025-01-21T2100,3531A,110.296,25.1253,桂林市,旅游学院,细颗粒物(PM2.5),147,149,93,112,70,52,,114,106,77,45,13,10,1.4,1.2
2025-01-21T2100,2674A,100.2561,34.4714,果洛藏族自治州,玛沁县大武镇,,,92,59,39,23,,,89,89,14,8,16,15,0.8,0.5
2025-01-21T2100,1129A,126.5422,45.755,哈尔滨市,岭北,细颗粒物(PM2.5),223,193,204,173,181,36,,57,54,72,76,15,21,1.7,1.4
2025-01-21T2100,1130A,126.561,45.8167,哈尔滨市,松北商大,细颗粒物(PM2.5),193,161,184,145,150,33,,56,44,69,62,6,11,1.5,1.5
2025-01-21T2100,1131A,126.979,45.5419,哈尔滨市,阿城会宁,,,,234,,217,,,50,50,,61,,18,,2.1
2025-01-21T2100,1132A,126.599,45.7222,哈尔滨市,南岗学府路,细颗粒物(PM2.5),180,165,221,136,161,25,,39,35,77,79,4,7,1.3,1.6
2025-01-21T2100,1133A,126.689,45.7733,哈尔滨市,太平宏伟公园,细颗粒物(PM2.5),188,167,210,141,159,40,,46,45,51,71,9,7,1.0,1.3
2025-01-21T2100,1134A,126.635,45.7667,哈尔滨市,道外承德广场,细颗粒物(PM2.5),218,200,251,168,184,35,,41,40,54,73,9,10,1.4,1.6
2025-01-21T2100,1135A,126.685,45.7319,哈尔滨市,香坊红旗大街,细颗粒物(PM2.5),163,132,225,124,195,40,,44,44,47,68,4,24,1.1,1.8
2025-01-21T2100,1136A,126.6411,45.7258,哈尔滨市,动力和平路,细颗粒物(PM2.5),170,130,214,129,187,20,,31,30,66,72,5,15,1.2,1.7
2025-01-21T2100,1137A,126.593,45.7478,哈尔滨市,道里建国路,细颗粒物(PM2.5),208,167,216,158,177,29,,30,30,72,82,18,27,1.1,1.5
2025-01-21T2100,1138A,126.615,45.61,哈尔滨市,平房东轻厂,细颗粒物(PM2.5),236,211,207,186,179,23,,54,40,68,67,18,10,1.1,1.3
2025-01-21T2100,1139A,126.595,45.9855,哈尔滨市,呼兰师专,细颗粒物(PM2.5),168,135,142,127,130,47,,60,57,40,43,12,10,1.2,1.1
2025-01-21T2100,1140A,126.6206,45.6842,哈尔滨市,省农科院,细颗粒物(PM2.5),258,236,258,208,208,8,,42,30,98,78,17,15,2.0,2
2025-01-21T2100,2688A,93.5128,42.8172,哈密市,地区监测站,颗粒物(PM10),93,136,109,37,33,32,,62,58,43,30,3,5,0.5,0.5
2025-01-21T2100,2689A,93.4961,42.8328,哈密市,哈密师范学校,颗粒物(PM10),86,122,88,33,36,13,,62,54,60,36,8,7,0.8,0.5
2025-01-21T2100,2671A,100.9048,36.9639,海北藏族自治州,海晏县西海镇,,24,24,24,13,11,62,,88,86,4,4,9,14,0.3,0.4
2025-01-21T2100,3867A,102.0738,36.5056,海东市,平安区公安北苑,,,79,64,46,41,65,,76,76,,36,45,23,1.1,1.2
2025-01-21T2100,1409A,110.576,19.9507,海口市,东寨港,,40,40,34,17,36,120,,126,125,6,9,16,14,0.3,0.4
2025-01-21T2100,1410A,110.3232,20.0574,海口市,海南大学,,46,46,42,22,25,143,,154,151,12,18,5,5,0.5,0.5
2025-01-21T2100,1411A,110.283,20.0053,海口市,秀英海南医院,,47,47,47,22,26,138,,152,146,13,20,3,4,0.4,0.4
2025-01-21T2100,1412A,110.338,19.9969,海口市,海南师范大学,,47,47,45,22,25,143,,158,154,10,14,6,6,0.4,0.5
2025-01-21T2100,1413A,110.33,20.0356,海口市,龙华路环保局宿舍,,46,46,43,24,25,143,,156,153,13,16,6,6,0.4,0.4
2025-01-21T2100,3539A,110.5111,19.9736,海口市,桂林洋子站,,44,44,43,20,25,137,,147,144,9,11,5,5,0.4,0.4
2025-01-21T2100,2673A,100.6188,36.2866,海南藏族自治州,共和县恰卜恰镇,颗粒物(PM10),63,75,40,28,33,11,,87,71,51,26,17,14,1.1,0.7
2025-01-21T2100,2676A,97.3731,37.3753,海西蒙古族藏族自治州,德令哈市,颗粒物(PM10),72,94,39,21,14,42,,72,68,18,9,17,16,0.5,0.5
2025-01-21T2100,1048A,114.5302,36.6116,邯郸市,东污水处理厂,细颗粒物(PM2.5),125,125,168,95,136,22,,62,54,64,62,9,14,1.0,1.3
2025-01-21T2100,1049A,114.4918,36.5713,邯郸市,矿院,细颗粒物(PM2.5),178,,184,134,135,21,,56,46,,73,6,8,0.9,1.2
2025-01-21T2100,1050A,114.484,36.6133,邯郸市,丛台公园,细颗粒物(PM2.5),98,128,173,73,119,22,,64,57,67,62,7,11,0.8,1.2
2025-01-21T2100,3458A,114.7895,36.5593,邯郸市,香泉濮院小区,细颗粒物(PM2.5),182,227,239,137,159,26,,77,73,72,54,13,16,1.2,1.3
2025-01-21T2100,3579A,114.50634,36.77178,邯郸市,永年区实验高中,细颗粒物(PM2.5),99,134,172,74,104,24,,71,54,64,62,11,16,1.0,1.5
2025-01-21T2100,3580A,114.20016,36.44293,邯郸市,峰峰矿区临水派出所,细颗粒物(PM2.5),103,108,143,77,106,39,,88,81,44,42,14,33,0.9,1.6
2025-01-21T2100,2634A,106.9893,33.1842,汉中市,汉川机床厂子校,细颗粒物(PM2.5),89,66,66,66,62,43,,69,67,11,13,6,6,1.1,1.1
2025-01-21T2100,2635A,107.0154,33.0706,汉中市,市监测站,细颗粒物(PM2.5),118,114,116,89,103,21,,69,64,62,46,8,7,1.9,2
2025-01-21T2100,2636A,107.0089,33.1138,汉中市,鑫源开发区,细颗粒物(PM2.5),120,102,114,91,107,33,,71,68,51,45,7,7,1.2,1.5
2025-01-21T2100,2637A,107.007,33.0323,汉中市,南郑大河坎水厂,细颗粒物(PM2.5),179,161,115,135,95,16,,71,65,63,32,8,7,2.2,1.7
2025-01-21T2100,1223A,120.2072,30.2111,杭州市,滨江,细颗粒物(PM2.5),176,166,146,133,112,96,,106,106,53,72,8,8,1.0,1
2025-01-21T2100,1224A,120.0633,30.2747,杭州市,西溪,细颗粒物(PM2.5),204,190,125,154,100,112,,118,118,47,52,8,7,1.1,0.9
2025-01-21T2100,1226A,120.3461,30.3153,杭州市,下沙,细颗粒物(PM2.5),160,158,173,122,127,93,,123,123,52,96,10,10,0.9,1.2
2025-01-21T2100,1227A,120.1269,30.2456,杭州市,卧龙桥,细颗粒物(PM2.5),143,131,116,109,96,58,,110,94,55,45,6,7,0.9,0.8
2025-01-21T2100,1228A,120.1903,30.2692,杭州市,浙江农大,细颗粒物(PM2.5),176,180,163,133,119,106,,114,114,44,70,10,9,1.0,1
2025-01-21T2100,1230A,120.1197,30.3119,杭州市,和睦小学,细颗粒物(PM2.5),162,166,139,123,104,114,,111,111,54,72,9,8,1.1,1.1
2025-01-21T2100,1231A,120.3019,30.4183,杭州市,临平镇,细颗粒物(PM2.5),162,153,166,123,129,107,,137,137,42,72,8,9,1.0,1.1
2025-01-21T2100,1232A,120.2697,30.1819,杭州市,城厢镇,细颗粒物(PM2.5),166,189,162,126,114,93,,110,109,52,71,7,7,1.3,1.3
2025-01-21T2100,1233A,120.0883,30.1808,杭州市,云栖,细颗粒物(PM2.5),140,147,127,107,94,50,,111,93,66,45,6,7,0.9,0.8
2025-01-21T2100,3557A,119.9464,30.0494,杭州市,镇二中,细颗粒物(PM2.5),193,174,120,145,112,96,,106,103,58,59,9,8,1.1,1.1
2025-01-21T2100,3558A,119.7183,30.2367,杭州市,市府大楼,细颗粒物(PM2.5),153,148,122,117,104,44,,119,99,73,41,10,9,1.1,1.1
2025-01-21T2100,3656A,120.1556,30.2864,杭州市,消防大队,细颗粒物(PM2.5),179,174,151,135,115,117,,117,117,50,64,12,11,0.8,0.8
2025-01-21T2100,1270A,117.1959,31.7848,合肥市,明珠广场,细颗粒物(PM2.5),110,102,104,83,80,82,,119,111,50,62,15,13,0.8,0.9
2025-01-21T2100,1271A,117.3072,31.8764,合肥市,三里街,细颗粒物(PM2.5),138,144,120,105,82,36,,104,89,94,72,11,12,1.1,0.8
2025-01-21T2100,1272A,117.2588,31.8707,合肥市,琥珀山庄,细颗粒物(PM2.5),168,129,110,127,89,75,,110,98,54,66,11,12,1.1,0.8
2025-01-21T2100,1273A,117.1604,31.9052,合肥市,董铺水库,细颗粒物(PM2.5),138,153,122,105,73,66,,111,102,57,59,11,8,1.1,0.7
2025-01-21T2100,1274A,117.25,31.8571,合肥市,长江中路,细颗粒物(PM2.5),137,129,111,104,83,84,,111,107,55,53,12,13,1.1,1
2025-01-21T2100,1275A,117.266,31.9436,合肥市,庐阳区,细颗粒物(PM2.5),160,173,135,122,88,43,,98,88,90,75,11,11,1.2,0.9
2025-01-21T2100,1276A,117.336,31.8586,合肥市,瑶海区,细颗粒物(PM2.5),153,153,119,117,83,56,,105,96,85,70,12,13,1.1,0.8
2025-01-21T2100,1277A,117.3027,31.7964,合肥市,包河区,细颗粒物(PM2.5),153,173,125,117,84,8,,117,84,127,78,12,12,1.1,1
2025-01-21T2100,1278A,117.2776,31.7385,合肥市,滨湖新区,细颗粒物(PM2.5),100,117,113,75,70,84,,125,116,40,36,14,15,0.7,0.7
2025-01-21T2100,1279A,117.1318,31.8403,合肥市,高新区,细颗粒物(PM2.5),100,100,104,75,75,79,,120,111,53,51,21,13,0.9,1
2025-01-21T2100,3464A,117.3803,31.9147,合肥市,高教基地,细颗粒物(PM2.5),183,142,122,138,83,72,,109,99,49,74,14,12,1.0,0.8
2025-01-21T2100,3614A,79.924,37.0877,和田地区,地区环保局,颗粒物(PM10),85,119,119,25,48,51,,96,93,25,16,14,19,0.5,0.6
2025-01-21T2100,3615A,79.9131,37.113,和田地区,市环保局,颗粒物(PM10),74,98,119,38,54,72,,98,98,8,30,4,8,0.6,2.1
2025-01-21T2100,2516A,108.2011,24.715,河池市,东仁乐园,细颗粒物(PM2.5),110,111,119,83,74,31,,117,109,72,51,8,10,1.1,0.9
2025-01-21T2100,2517A,108.0497,24.6947,河池市,市环保站,细颗粒物(PM2.5),87,68,84,64,62,79,,113,112,24,34,9,12,1.0,0.9
2025-01-21T2100,2518A,108.0983,24.6989,河池市,市疾控中心,细颗粒物(PM2.5),108,117,91,81,65,14,,116,103,94,49,7,9,1.1,0.9
2025-01-21T2100,1696A,114.6778,23.7569,河源市,源西,颗粒物(PM10),63,76,48,43,31,38,,100,80,53,39,5,5,0.9,0.6
2025-01-21T2100,1697A,114.6944,23.7586,河源市,东埔,颗粒物(PM10),68,85,56,41,32,51,,112,96,56,44,5,4,1.0,0.6
2025-01-21T2100,1698A,114.6892,23.7233,河源市,老城,,40,40,42,26,31,74,,109,103,20,25,4,4,0.6,0.6
2025-01-21T2100,1718A,115.4208,35.2464,菏泽市,气象局,细颗粒物(PM2.5),263,301,184,213,129,61,,98,94,58,47,30,13,1.3,0.9
2025-01-21T2100,3374A,115.5564,35.0891,菏泽市,定陶老年大学,细颗粒物(PM2.5),255,,170,205,130,55,,100,93,75,48,21,17,1.3,0.8
2025-01-21T2100,4184A,115.4797,35.24401,菏泽市,永昌路1号,细颗粒物(PM2.5),276,307,197,226,140,64,,94,91,60,58,21,15,1.4,0.9
2025-01-21T2100,4193A,115.4715,35.2800,菏泽市,长城路999号,细颗粒物(PM2.5),267,299,184,217,128,53,,83,81,58,52,19,12,1.7,1.3
2025-01-21T2100,2514A,111.5264,24.4172,贺州市,环保小区,细颗粒物(PM2.5),72,89,85,52,71,81,,132,129,49,31,10,8,1.2,1.1
2025-01-21T2100,2515A,111.5608,24.4078,贺州市,政协大楼,"颗粒物(PM10),细颗粒物(PM2.5)",69,87,83,50,52,96,,124,124,24,36,10,7,0.9,0.9
2025-01-21T2100,3534A,111.4744,24.4553,贺州市,西湾,颗粒物(PM10),71,92,99,43,68,64,,126,117,45,34,10,8,0.9,0.9
2025-01-21T2100,2385A,114.17,35.9019,鹤壁市,市监测站,细颗粒物(PM2.5),214,239,180,164,118,46,,74,71,53,39,15,15,1.3,1.4
2025-01-21T2100,2386A,114.2956,35.7511,鹤壁市,市交警支队,细颗粒物(PM2.5),217,232,204,167,144,58,,58,58,55,64,16,13,1.2,1.4
2025-01-21T2100,2387A,114.2878,35.7306,鹤壁市,迎宾馆,细颗粒物(PM2.5),180,231,197,136,120,59,,67,66,62,63,10,14,1.1,1.3
2025-01-21T2100,3474A,114.2617,35.6822,鹤壁市,大新区,细颗粒物(PM2.5),219,207,176,169,146,61,,69,68,56,75,15,18,1.0,1.2
2025-01-21T2100,3596A,114.1572,35.9603,鹤壁市,南山宾馆,细颗粒物(PM2.5),208,223,172,158,130,55,,86,83,51,38,15,38,1.5,1.5
2025-01-21T2100,2244A,130.2537,47.3416,鹤岗市,哈啤分公司,颗粒物(PM10),57,63,55,36,45,51,,46,33,14,22,15,16,0.9,0.8
2025-01-21T2100,2245A,130.2684,47.3086,鹤岗市,斯达机电,细颗粒物(PM2.5),77,80,62,56,48,34,,50,40,35,30,17,19,0.8,0.8
2025-01-21T2100,2246A,130.3114,47.3388,鹤岗市,东山纸板厂,颗粒物(PM10),160,269,73,8,48,12,,49,33,48,35,15,16,1.9,1.5
2025-01-21T2100,2247A,130.1097,47.3382,鹤岗市,五号水库,,45,36,36,31,21,52,,72,64,15,13,7,9,0.4,0.4
2025-01-21T2100,2263A,127.4833,50.2524,黑河市,交通局,,35,35,51,20,33,38,,46,42,20,27,7,9,0.6,0.8
2025-01-21T2100,2264A,127.5144,50.2341,黑河市,环保局,,49,47,47,34,34,34,,41,31,24,29,6,10,0.6,0.7
2025-01-21T2100,2265A,127.5291,50.2472,黑河市,大黑河岛,,,,43,24,31,5,,6,5,9,11,1,2,,
2025-01-21T2100,1074A,115.6838,37.7541,衡水市,电机北厂,细颗粒物(PM2.5),90,105,202,67,109,40,,59,53,26,47,17,19,0.7,1
2025-01-21T2100,1075A,115.6303,37.7316,衡水市,市监测站,颗粒物(PM10),76,101,143,52,103,45,,63,57,33,54,16,18,0.8,1
2025-01-21T2100,3188A,115.6683,37.7217,衡水市,市城管局,,,99,156,57,104,33,,62,55,39,54,,18,0.9,1.1
2025-01-21T2100,3459A,115.5989,37.5491,衡水市,地表水厂,细颗粒物(PM2.5),78,96,147,57,116,42,,70,69,27,63,11,18,0.8,1.1
2025-01-21T2100,2456A,112.5003,26.9167,衡阳市,原169医院,细颗粒物(PM2.5),83,83,87,61,68,75,,93,93,29,37,11,29,0.9,1
2025-01-21T2100,2457A,112.6194,26.9258,衡阳市,衡阳化工总厂,细颗粒物(PM2.5),107,121,105,80,83,68,,133,124,57,35,8,8,1.1,1.1
2025-01-21T2100,2458A,112.6211,26.8956,衡阳市,珠晖区环保局,,,106,115,71,86,,,127,127,78,56,10,10,,1.4
2025-01-21T2100,2459A,112.6197,26.8733,衡阳市,市委党校,细颗粒物(PM2.5),95,101,115,71,81,80,,142,136,52,44,12,14,1.2,1.5
2025-01-21T2100,2460A,112.6006,26.8919,衡阳市,市监测站,细颗粒物(PM2.5),160,180,129,122,100,37,,123,99,76,48,11,10,2.2,1.4
2025-01-21T2100,2461A,112.5664,26.9056,衡阳市,真空机电公司,细颗粒物(PM2.5),99,117,125,74,81,29,,121,108,102,52,8,9,1.7,1.5
2025-01-21T2100,3399A,112.6703,26.882,衡阳市,师范学院,颗粒物(PM10),87,124,128,63,100,40,,132,115,60,45,11,12,1.0,1.1
2025-01-21T2100,2608A,103.3772,23.3993,红河哈尼族彝族自治州,污水处理厂,细颗粒物(PM2.5),99,96,69,74,64,88,,114,106,12,10,7,6,0.6,0.6
2025-01-21T2100,2609A,103.3861,23.35,红河哈尼族彝族自治州,监测站,细颗粒物(PM2.5),98,90,72,73,66,105,,115,109,10,10,9,8,0.6,0.6
2025-01-21T2100,3038A,103.3758,23.368,红河哈尼族彝族自治州,州图书馆,细颗粒物(PM2.5),109,,65,82,60,97,,106,102,10,9,8,8,0.6,0.6
2025-01-21T2100,1090A,111.6507,40.7517,呼和浩特市,呼市一监,颗粒物(PM10),73,95,63,52,38,9,,76,60,79,49,12,10,1.2,1
2025-01-21T2100,1091A,111.6572,40.8033,呼和浩特市,小召,颗粒物(PM10),52,53,52,27,25,10,,68,52,86,59,11,11,0.9,1
2025-01-21T2100,1094A,111.7516,40.8369,呼和浩特市,如意水处理厂,颗粒物(PM10),59,67,54,30,26,8,,62,48,74,59,11,12,0.9,1
2025-01-21T2100,1095A,111.7276,40.8062,呼和浩特市,二十九中,细颗粒物(PM2.5),65,65,53,47,29,9,,63,52,75,53,4,9,0.9,1
2025-01-21T2100,1096A,111.5512,40.7866,呼和浩特市,工大金川校区,,44,44,55,13,26,40,,56,50,44,59,7,8,0.5,0.7
2025-01-21T2100,1097A,111.717,40.7612,呼和浩特市,化肥厂生活区,颗粒物(PM10),72,94,57,48,28,22,,76,61,74,52,14,10,1.2,1.1
2025-01-21T2100,3698A,111.5968,40.8178,呼和浩特市,红旗小学,,36,36,57,16,31,44,,64,54,43,58,5,9,0.6,0.9
2025-01-21T2100,3699A,111.6518,40.8389,呼和浩特市,海东办,,37,34,61,20,39,12,,53,40,74,56,4,5,0.6,1
2025-01-21T2100,2192A,119.7594,49.2261,呼伦贝尔市,区环保局,细颗粒物(PM2.5),98,90,33,73,27,8,,66,27,66,27,11,8,1.1,0.6
2025-01-21T2100,3061A,119.7512,49.1577,呼伦贝尔市,国华电力东,,46,40,36,32,24,61,,68,66,11,14,4,5,0.3,0.4
2025-01-21T2100,1250A,120.0751,30.8669,湖州市,城西水厂,细颗粒物(PM2.5),165,164,157,125,124,138,,125,125,42,83,12,10,1.0,0.9
2025-01-21T2100,2873A,120.0875,30.8955,湖州市,仁皇山新区,细颗粒物(PM2.5),152,139,156,116,127,112,,112,112,66,73,11,10,1.0,1
2025-01-21T2100,2907A,120.1844,30.8596,湖州市,吴兴区站,细颗粒物(PM2.5),165,157,159,125,130,121,,130,130,40,62,10,9,0.7,0.7
2025-01-21T2100,3562A,120.4148,30.8538,湖州市,南浔区站,细颗粒物(PM2.5),139,149,144,106,120,128,,142,142,44,52,13,11,0.8,0.8
2025-01-21T2100,1607A,120.9092,40.7136,葫芦岛市,龙港区,,,,77,,48,,,46,,,46,,58,,1.1
2025-01-21T2100,1608A,120.8392,40.7514,葫芦岛市,化工街,细颗粒物(PM2.5),160,205,70,122,35,12,,62,41,77,39,29,11,2.5,1
2025-01-21T2100,1609A,120.8341,40.7073,葫芦岛市,新区,,,,65,,42,,,42,,,41,,14,,0.9
2025-01-21T2100,1610A,120.8695,40.7677,葫芦岛市,东城区,细颗粒物(PM2.5),124,148,76,94,52,11,,70,44,70,35,45,24,1.5,0.9
2025-01-21T2100,2482A,109.5981,27.5721,怀化市,林科所,细颗粒物(PM2.5),67,80,77,48,62,77,,85,85,17,34,8,8,1.5,1.7
2025-01-21T2100,2483A,109.9453,27.5444,怀化市,河西地税局,细颗粒物(PM2.5),170,164,107,129,88,24,,62,54,43,34,5,4,1.3,1
2025-01-21T2100,2484A,109.9781,27.5342,怀化市,市四医院,细颗粒物(PM2.5),170,174,117,129,86,26,,72,65,73,45,19,6,2.5,1.7
2025-01-21T2100,2485A,109.9972,27.5578,怀化市,监测楼,细颗粒物(PM2.5),166,184,133,126,84,11,,68,56,64,40,3,5,2.0,1.4
2025-01-21T2100,2486A,110.0394,27.583,怀化市,市委党校,细颗粒物(PM2.5),120,119,118,91,82,40,,77,74,48,40,9,8,1.4,1.3
2025-01-21T2100,1210A,119.036,33.5981,淮安市,钵池山,细颗粒物(PM2.5),192,175,142,144,120,64,,99,92,71,52,14,12,1.4,1.3
2025-01-21T2100,1211A,119.007,33.575,淮安市,北京南路,细颗粒物(PM2.5),182,178,142,137,115,65,,94,84,60,58,14,12,1.5,1.3
2025-01-21T2100,1212A,118.989,33.6067,淮安市,市监测站,细颗粒物(PM2.5),195,163,142,146,122,88,,102,100,53,49,14,12,1.5,1.3
2025-01-21T2100,1213A,119.135,33.5039,淮安市,楚州区监测站,细颗粒物(PM2.5),202,200,146,152,112,66,,97,89,61,55,13,11,1.5,1.1
2025-01-21T2100,1214A,119.0186,33.6297,淮安市,淮阴区监测站,细颗粒物(PM2.5),185,185,168,139,125,76,,95,88,69,63,14,12,1.4,1.3
2025-01-21T2100,3426A,118.8755,33.2894,淮安市,新华书店,细颗粒物(PM2.5),169,156,164,128,140,73,,98,94,52,56,11,12,1.1,1.2
2025-01-21T2100,2282A,116.8004,33.975,淮北市,监测站,细颗粒物(PM2.5),148,156,136,113,101,80,,86,74,38,41,10,13,0.9,0.9
2025-01-21T2100,2283A,116.8091,33.9007,淮北市,烈山区政府,细颗粒物(PM2.5),145,145,135,111,105,98,,95,95,39,44,10,13,0.9,1
2025-01-21T2100,3330A,116.8873,33.9836,淮北市,杜集区检察院,细颗粒物(PM2.5),159,144,136,121,115,99,,101,101,25,28,7,9,0.9,0.9
2025-01-21T2100,4017A,116.7923,33.9535,淮北市,市博物馆,细颗粒物(PM2.5),175,150,144,132,123,88,,86,86,34,43,10,14,1.0,1
2025-01-21T2100,2277A,116.8305,32.7727,淮南市,潘集区政府,细颗粒物(PM2.5),226,211,160,176,126,52,,110,98,58,46,18,15,1.2,0.9
2025-01-21T2100,2279A,116.8569,32.5951,淮南市,谢家集区政府,细颗粒物(PM2.5),212,199,126,162,96,67,,112,105,47,41,18,14,1.1,0.9
2025-01-21T2100,2280A,116.8281,32.633,淮南市,八公山区政府,细颗粒物(PM2.5),206,194,121,156,88,72,,116,110,42,31,15,14,1.0,0.7
2025-01-21T2100,2281A,116.6325,32.6201,淮南市,焦岗湖风景区管理处,细颗粒物(PM2.5),125,126,110,95,76,31,,71,60,38,26,8,7,0.7,0.5
2025-01-21T2100,2894A,117.0566,32.6531,淮南市,经济技术开发区消防队,细颗粒物(PM2.5),202,196,135,152,94,43,,114,100,61,32,14,12,1.1,0.8
2025-01-21T2100,3329A,117.0108,32.5893,淮南市,山南新区,细颗粒物(PM2.5),276,250,143,226,119,65,,123,109,51,33,20,15,1.2,0.9
2025-01-21T2100,4209A,117.0031,32.6445,淮南市,国庆中路369号,细颗粒物(PM2.5),163,175,124,124,87,60,,111,100,70,43,15,16,1.0,0.8
2025-01-21T2100,2446A,114.9028,30.4742,黄冈市,职工中心,细颗粒物(PM2.5),99,103,118,74,90,109,,138,136,39,33,12,12,0.5,0.6
2025-01-21T2100,2929A,114.8858,30.4519,黄冈市,红卫路,细颗粒物(PM2.5),99,104,122,74,92,94,,138,132,47,36,10,10,0.9,1
2025-01-21T2100,3398A,114.9136,30.4445,黄冈市,市林业局,细颗粒物(PM2.5),105,95,114,79,92,89,,136,130,57,33,13,14,0.8,0.9
2025-01-21T2100,2672A,102.0199,35.5102,黄南藏族自治州,同仁县隆务镇,颗粒物(PM10),64,78,40,18,15,58,,70,68,2,4,9,9,0.5,0.5
2025-01-21T2100,2295A,118.2903,29.6963,黄山市,延安路89号,细颗粒物(PM2.5),77,74,56,56,33,53,,114,106,34,20,5,5,0.6,0.5
2025-01-21T2100,2296A,118.327,29.7178,黄山市,黄山东路89号,,,,68,,44,,,41,,,22,,6,,0.7
2025-01-21T2100,2297A,118.1371,30.2756,黄山市,黄山区政府5号楼,细颗粒物(PM2.5),84,91,58,62,43,36,,104,87,24,12,8,8,0.9,0.7
2025-01-21T2100,2423A,115.0601,30.2313,黄石市,沈家营,颗粒物(PM10),70,89,129,50,88,64,,124,117,68,58,12,15,1.0,1.1
2025-01-21T2100,2426A,114.8988,30.2019,黄石市,铁山,细颗粒物(PM2.5),70,66,92,51,83,132,,153,149,21,27,12,17,0.6,0.7
2025-01-21T2100,2427A,115.0307,30.2092,黄石市,团城山,颗粒物(PM10),62,74,109,35,83,136,,142,142,19,37,12,14,0.8,1
2025-01-21T2100,3149A,115.0235,30.1578,黄石市,笔架山北路,颗粒物(PM10),66,81,105,44,88,127,,154,148,27,32,15,15,0.9,1.1
2025-01-21T2100,4185A,115.0780,30.21118,黄石市,磁湖东路29号,细颗粒物(PM2.5),68,79,115,49,93,117,,125,125,39,56,172,38,0.9,1.2
2025-01-21T2100,1392A,114.4183,23.0528,惠州市,河南岸金山湖子站,颗粒物(PM10),58,66,59,37,36,99,,122,118,29,29,8,8,0.7,0.7
2025-01-21T2100,1393A,114.4053,23.0822,惠州市,下埔横江三路子站,颗粒物(PM10),61,72,72,39,42,107,,134,131,33,38,7,7,0.6,0.7
2025-01-21T2100,1394A,114.4103,23.1142,惠州市,江北云山西路子站,颗粒物(PM10),57,63,68,34,38,123,,142,142,27,40,8,8,0.9,0.9
2025-01-21T2100,1395A,114.4645,22.7833,惠州市,惠阳区承修路船湖子站,颗粒物(PM10),63,75,59,36,26,132,,136,135,15,24,8,8,0.6,0.5
2025-01-21T2100,1396A,114.5317,22.7422,惠州市,大亚湾管委会子站,颗粒物(PM10),61,72,52,41,27,143,,147,147,23,41,6,10,0.7,0.7
2025-01-21T2100,3314A,114.4338,22.8134,惠州市,惠阳秋长,颗粒物(PM10),60,70,59,32,32,162,,169,169,17,36,17,16,0.7,0.7
2025-01-21T2100,3452A,114.6517,22.775,惠州市,大亚湾霞涌,颗粒物(PM10),53,56,40,36,27,134,,143,143,15,21,6,7,0.4,0.4
2025-01-21T2100,2240A,130.9762,45.3001,鸡西市,环保局,细颗粒物(PM2.5),130,125,125,99,96,8,,43,33,57,40,10,10,1.5,1.2
2025-01-21T2100,2243A,130.9429,45.3039,鸡西市,第一中学,细颗粒物(PM2.5),142,116,118,108,97,13,,42,35,42,42,4,10,1.3,1
2025-01-21T2100,3707A,131.0207,45.3073,鸡西市,欧美日汽修厂,细颗粒物(PM2.5),226,306,164,176,113,12,,61,48,52,35,18,13,1.4,0.8
2025-01-21T2100,3709A,130.9967,45.3106,鸡西市,市政设施管理处,,,135,130,,99,18,,50,42,50,38,14,13,,1
2025-01-21T2100,2367A,114.9754,27.0803,吉安市,红声器材厂,细颗粒物(PM2.5),75,92,76,55,48,69,,129,118,44,26,12,11,0.8,0.7
2025-01-21T2100,2368A,114.9658,27.0999,吉安市,市森林工业局,细颗粒物(PM2.5),87,103,80,64,52,35,,112,98,106,41,14,15,0.4,0.6
2025-01-21T2100,2369A,114.99,27.1312,吉安市,市环境监测站,细颗粒物(PM2.5),84,103,81,62,56,57,,133,122,68,35,13,15,0.6,0.6
2025-01-21T2100,2370A,115.0093,27.0968,吉安市,青原区法院,细颗粒物(PM2.5),90,122,86,67,54,57,,127,110,62,49,12,12,0.8,0.7
2025-01-21T2100,1772A,126.54,43.8622,吉林市,哈达湾,细颗粒物(PM2.5),209,174,111,159,83,74,,70,70,30,42,9,11,1.4,1.2
2025-01-21T2100,1773A,126.5844,43.8358,吉林市,东局子,细颗粒物(PM2.5),205,206,83,155,62,,,70,67,,27,7,7,0.9,0.8
2025-01-21T2100,1774A,126.5052,43.8245,吉林市,电力学院,细颗粒物(PM2.5),206,192,112,156,102,60,,69,66,31,41,8,12,1.4,1.4
2025-01-21T2100,1775A,126.6133,43.8972,吉林市,江北,细颗粒物(PM2.5),213,218,93,163,70,61,,67,65,33,38,10,11,1.2,1
2025-01-21T2100,1776A,126.555,43.8306,吉林市,江南公园,细颗粒物(PM2.5),231,218,84,181,76,55,,64,62,42,39,6,8,1.0,0.8
2025-01-21T2100,1778A,126.7061,43.7133,吉林市,丰满,,,,,,,,,,,,,,,,
2025-01-21T2100,2868A,126.4739,43.953,吉林市,九站,细颗粒物(PM2.5),209,176,149,159,125,66,,65,63,27,52,7,18,1.4,1.6
2025-01-21T2100,1299A,116.9862,36.6114,济南市,科干所,细颗粒物(PM2.5),185,212,142,139,92,37,,105,67,91,50,31,18,1.5,1.1
2025-01-21T2100,1300A,116.9376,36.665,济南市,农科所,细颗粒物(PM2.5),168,239,152,127,86,24,,75,63,90,62,33,21,1.5,1.1
2025-01-21T2100,1301A,117.1265,36.6734,济南市,开发区,细颗粒物(PM2.5),185,230,138,139,97,28,,95,68,88,56,28,19,1.6,1.1
2025-01-21T2100,1303A,117.0624,36.6868,济南市,省种子仓库,细颗粒物(PM2.5),240,229,182,190,104,13,,66,63,77,84,27,19,1.6,1.7
2025-01-21T2100,1304A,116.9489,36.6447,济南市,机床二厂,细颗粒物(PM2.5),196,252,153,147,95,26,,79,68,90,59,36,26,1.7,1.3
2025-01-21T2100,1305A,117.0495,36.663,济南市,市监测站,细颗粒物(PM2.5),185,239,147,139,92,21,,90,66,102,65,32,17,1.7,1.2
2025-01-21T2100,1306A,116.7675,36.5484,济南市,长清党校,细颗粒物(PM2.5),192,234,149,144,101,41,,100,74,93,51,31,17,1.5,1.1
2025-01-21T2100,1616A,117.6795,36.229,济南市,技术学院,细颗粒物(PM2.5),199,215,162,149,121,23,,78,67,108,81,28,29,1.7,2
2025-01-21T2100,1961A,117.532,36.6868,济南市,东山小学,细颗粒物(PM2.5),153,205,144,117,90,35,,85,73,70,46,20,20,1.5,1.2
2025-01-21T2100,3059A,117.7161,36.2049,济南市,泰兴公司,细颗粒物(PM2.5),178,205,169,134,112,47,,71,63,68,73,28,24,1.5,1.8
2025-01-21T2100,3064A,117.6867,36.2171,济南市,莱芜战役纪念馆,细颗粒物(PM2.5),185,205,165,139,111,43,,75,69,83,80,25,24,1.5,1.9
2025-01-21T2100,3494A,117.1673,36.9782,济南市,济阳区政府,细颗粒物(PM2.5),108,125,153,81,101,36,,68,59,26,58,15,26,1.0,1.3
2025-01-21T2100,3495A,117.1171,36.63,济南市,锦屏中学,细颗粒物(PM2.5),168,193,134,127,94,43,,105,72,81,45,28,17,1.3,0.9
2025-01-21T2100,3682A,116.9814,36.6819,济南市,济南四建,,,,128,,80,,,53,,,70,,20,,0.9
2025-01-21T2100,1653A,116.6251,35.4302,济宁市,火炬城,细颗粒物(PM2.5),153,186,138,117,95,16,,100,85,105,43,18,19,1.6,1.2
2025-01-21T2100,1655A,116.5491,35.4042,济宁市,电化厂,细颗粒物(PM2.5),170,202,173,129,112,62,,97,89,72,52,22,19,1.5,1.2
2025-01-21T2100,3500A,116.5814,35.3707,济宁市,北湖一中,细颗粒物(PM2.5),168,160,151,127,120,65,,100,93,74,60,17,15,1.8,1.7
2025-01-21T2100,3501A,116.8249,35.5593,济宁市,服务中心,细颗粒物(PM2.5),229,259,182,179,126,10,,91,70,119,74,31,21,1.8,1.6
2025-01-21T2100,3678A,116.5907,35.4054,济宁市,市第七中学,细颗粒物(PM2.5),180,165,142,136,121,62,,98,90,63,50,14,13,1.7,1.5
2025-01-21T2100,2255A,130.2751,46.8028,佳木斯市,佳纺,细颗粒物(PM2.5),133,114,133,101,115,,,51,42,60,53,19,8,1.9,1.4
2025-01-21T2100,2256A,130.3995,46.8307,佳木斯市,发电厂,细颗粒物(PM2.5),80,61,81,59,83,58,,59,58,14,25,8,8,0.9,1.1
2025-01-21T2100,2257A,130.3258,46.7975,佳木斯市,环保局,细颗粒物(PM2.5),125,111,156,95,144,8,,32,22,67,59,16,12,1.8,1.8
2025-01-21T2100,2258A,130.3648,46.8032,佳木斯市,十一中,细颗粒物(PM2.5),122,97,88,92,89,14,,45,30,80,48,10,8,1.6,1.1
2025-01-21T2100,2259A,130.3794,46.7588,佳木斯市,四丰,细颗粒物(PM2.5),97,107,141,72,91,27,,38,31,40,43,1,1,1.5,1.4
2025-01-21T2100,1252A,120.7436,30.778,嘉兴市,清河小学,细颗粒物(PM2.5),130,119,138,99,126,102,,142,137,43,56,5,6,0.8,1.1
2025-01-21T2100,1253A,120.726,30.7478,嘉兴市,嘉兴学院,细颗粒物(PM2.5),142,141,168,108,126,108,,142,136,37,43,11,10,1.0,1.2
2025-01-21T2100,2872A,120.7846,30.7525,嘉兴市,南湖区残联,,,149,176,,133,103,,148,140,44,58,12,13,1.0,1.1
2025-01-21T2100,3407A,120.6916,30.7739,嘉兴市,秀洲住建,细颗粒物(PM2.5),147,141,164,112,131,108,,147,142,45,66,10,9,0.7,0.9
2025-01-21T2100,1945A,98.2908,39.7711,嘉峪关市,气象局,颗粒物(PM10),76,102,96,41,32,51,,73,70,30,18,18,15,0.7,0.8
2025-01-21T2100,2884A,98.2672,39.7978,嘉峪关市,酒钢宾馆,颗粒物(PM10),70,90,107,34,34,64,,69,69,25,26,19,25,0.8,0.7
2025-01-21T2100,3248A,98.2643,39.7724,嘉峪关市,雄关区,颗粒物(PM10),69,88,80,40,30,60,,72,72,32,27,14,7,0.5,0.5
2025-01-21T2100,1383A,113.1064,22.6058,江门市,北街,颗粒物(PM10),54,58,72,28,57,79,,142,134,44,56,4,4,0.7,0.9
2025-01-21T2100,1384A,113.0731,22.5835,江门市,西区,颗粒物(PM10),60,70,103,22,54,79,,145,135,46,65,7,7,0.6,0.9
2025-01-21T2100,1385A,113.0219,22.5311,江门市,圭峰西,,33,30,60,23,45,75,,147,134,45,40,4,6,0.6,0.6
2025-01-21T2100,1386A,113.0828,22.5947,江门市,东湖,,48,47,87,33,55,82,,151,141,43,59,6,6,0.5,0.8
2025-01-21T2100,3311A,113.1075,22.5647,江门市,江海富民,颗粒物(PM10),60,70,97,32,55,75,,139,128,49,55,7,6,0.9,0.9
2025-01-21T2100,3449A,113.05,22.4667,江门市,新会银湖,,44,44,69,29,57,67,,147,129,55,46,7,7,0.6,0.7
2025-01-21T2100,1828A,113.227,35.2125,焦作市,市环保局,细颗粒物(PM2.5),207,235,181,157,122,42,,60,55,63,62,18,21,1.4,1.4
2025-01-21T2100,1830A,113.1992,35.2590,焦作市,影视城,细颗粒物(PM2.5),192,181,123,144,89,50,,89,74,53,35,23,20,1.8,1.2
2025-01-21T2100,3169A,113.2725,35.2067,焦作市,太极体育中心,细颗粒物(PM2.5),199,241,179,149,122,41,,55,50,68,73,25,24,1.7,1.8
2025-01-21T2100,3335A,113.3137,35.2641,焦作市,马村街道办,细颗粒物(PM2.5),210,215,153,160,114,31,,62,52,67,47,20,22,1.9,1.6
2025-01-21T2100,3336A,113.2465,35.2373,焦作市,焦作技师学院,细颗粒物(PM2.5),201,242,159,151,104,37,,64,57,64,51,25,20,1.9,1.7
2025-01-21T2100,3477A,113.1656,35.2539,焦作市,中站许衡医院,细颗粒物(PM2.5),170,180,131,129,93,26,,74,63,81,47,27,24,2.2,1.7
2025-01-21T2100,3981A,113.2449,35.1803,焦作市,原李万街道办,细颗粒物(PM2.5),203,228,179,153,123,42,,60,56,61,68,26,29,1.5,1.5
2025-01-21T2100,1708A,116.3701,23.5345,揭阳市,新兴,细颗粒物(PM2.5),77,77,64,56,43,149,,140,140,15,28,6,7,0.8,0.8
2025-01-21T2100,1709A,116.3264,23.5443,揭阳市,西马,颗粒物(PM10),72,94,68,51,39,156,,150,150,18,31,8,8,0.8,0.8
2025-01-21T2100,1710A,116.3611,23.5626,揭阳市,东兴,颗粒物(PM10),72,93,69,51,34,151,,148,148,16,32,8,8,0.8,0.7
2025-01-21T2100,1711A,116.4151,23.5294,揭阳市,渔湖,细颗粒物(PM2.5),67,78,66,48,36,155,,157,157,15,30,6,7,0.6,0.6
2025-01-21T2100,3320A,116.403,23.5699,揭阳市,曲溪,细颗粒物(PM2.5),78,97,68,57,39,154,,154,154,23,36,4,3,0.9,0.8
2025-01-21T2100,1944A,102.1692,38.5167,金昌市,天庆家园,颗粒物(PM10),63,75,57,43,36,48,,82,73,30,26,16,26,0.3,1.1
2025-01-21T2100,4022A,102.1647,38.5371,金昌市,金川区人防中心,细颗粒物(PM2.5),79,87,59,58,30,63,,84,79,15,16,13,19,0.1,0.6
2025-01-21T2100,4239A,102.1930,38.5319,金昌市,长春路96号,颗粒物(PM10),57,63,47,33,30,58,,95,89,29,21,16,27,1.1,0.7
2025-01-21T2100,1262A,119.647,29.077,金华市,十五中,细颗粒物(PM2.5),85,104,104,63,69,91,,123,111,48,48,5,5,0.6,0.7
2025-01-21T2100,1263A,119.686,29.1029,金华市,监测站,细颗粒物(PM2.5),92,104,113,68,76,54,,116,100,67,62,7,7,0.7,0.7
2025-01-21T2100,3659A,119.656,29.1131,金华市,气象局,细颗粒物(PM2.5),94,107,114,70,80,43,,117,94,75,67,6,5,0.9,0.8
2025-01-21T2100,1767A,121.1115,41.0879,锦州市,南山,细颗粒物(PM2.5),83,62,48,61,37,45,,74,62,36,27,9,10,0.9,1
2025-01-21T2100,1768A,121.0533,40.8434,锦州市,开发区,,,,,,,,,,,,,,,,
2025-01-21T2100,1769A,121.1836,41.1119,锦州市,百股街道,细颗粒物(PM2.5),89,79,56,66,40,41,,73,63,33,28,15,19,0.8,0.7
2025-01-21T2100,1770A,121.1178,41.1222,锦州市,天安街道,细颗粒物(PM2.5),78,71,53,57,33,21,,60,50,52,27,13,10,1.1,0.8
2025-01-21T2100,1771A,121.1303,41.1386,锦州市,北湖公园,细颗粒物(PM2.5),80,91,46,59,30,20,,76,62,57,22,8,7,1.2,0.7
2025-01-21T2100,2160A,112.85,35.5051,晋城市,自来水公司,细颗粒物(PM2.5),113,119,99,85,67,46,,83,83,63,54,19,27,1.5,2
2025-01-21T2100,2161A,112.8318,35.4936,晋城市,白云商贸,细颗粒物(PM2.5),107,121,94,80,49,30,,89,87,74,50,18,18,1.6,1.6
2025-01-21T2100,2162A,112.8508,35.4887,晋城市,市环保局,细颗粒物(PM2.5),122,172,120,92,70,33,,87,83,80,57,18,25,1.6,2
2025-01-21T2100,2163A,112.8676,35.4897,晋城市,技术学院,细颗粒物(PM2.5),134,142,104,102,69,57,,97,97,66,61,19,25,1.5,1.8
2025-01-21T2100,2165A,112.8453,35.546,晋城市,白马寺,细颗粒物(PM2.5),94,105,80,70,53,49,,53,53,22,28,26,34,1.3,1.9
2025-01-21T2100,3620A,112.8271,35.4828,晋城市,泽州一中,细颗粒物(PM2.5),113,105,81,85,56,72,,92,92,46,45,22,19,1.4,1.4
2025-01-21T2100,2173A,112.7249,37.7067,晋中市,南都小区,颗粒物(PM10),71,91,119,50,56,52,,60,60,41,59,9,21,0.6,1.1
2025-01-21T2100,2174A,112.6991,37.6982,晋中市,榆次区政府,颗粒物(PM10),71,92,112,51,51,49,,55,55,42,53,10,21,0.6,1.2
2025-01-21T2100,2865A,112.7195,37.6828,晋中市,榆次三中,颗粒物(PM10),73,95,114,34,48,59,,59,59,32,48,10,20,0.6,1.1
2025-01-21T2100,4200A,112.7478,37.6954,晋中市,榆次一中,颗粒物(PM10),73,95,112,34,53,60,,62,62,34,46,8,19,0.4,0.9
2025-01-21T2100,2439A,112.2014,31.0481,荆门市,竹园小学,细颗粒物(PM2.5),178,178,166,134,126,80,,151,138,55,52,9,10,1.3,1.2
2025-01-21T2100,2440A,112.1969,30.9891,荆门市,掇刀,细颗粒物(PM2.5),196,207,179,147,132,106,,157,151,56,66,26,17,1.2,1.1
2025-01-21T2100,2441A,112.2213,31.0386,荆门市,石化一小,细颗粒物(PM2.5),210,213,195,160,138,79,,149,138,61,64,18,14,1.2,1.2
2025-01-21T2100,3012A,112.1849,31.0362,荆门市,西山林语,细颗粒物(PM2.5),189,184,142,142,113,117,,157,148,40,25,2,7,1.0,0.7
2025-01-21T2100,3547A,112.1632,31.0138,荆门市,龙泉中学南校,,,,170,,133,,,128,,,29,,18,,0.9
2025-01-21T2100,1844A,112.2494,30.3197,荆州市,市图书馆,细颗粒物(PM2.5),178,156,147,134,156,82,,148,,70,78,11,9,1.3,1.4
2025-01-21T2100,1845A,112.2008,30.3544,荆州市,市委党校,细颗粒物(PM2.5),183,168,177,138,169,72,,134,130,69,70,10,10,1.0,1.1
2025-01-21T2100,3194A,112.2747,30.3122,荆州市,管委会,细颗粒物(PM2.5),178,154,179,134,176,75,,160,152,88,76,11,11,1.1,1.2
2025-01-21T2100,3548A,112.1655,30.3364,荆州市,学苑路,细颗粒物(PM2.5),188,142,166,141,164,80,,149,145,68,58,12,11,1.5,1.5
2025-01-21T2100,2342A,117.3102,29.3867,景德镇市,王港中学,,,,,,,,,,,,,,,,
2025-01-21T2100,2343A,117.2117,29.2933,景德镇市,老干部活动中心,细颗粒物(PM2.5),87,115,63,64,39,11,,105,86,77,40,5,5,1.0,0.6
2025-01-21T2100,2344A,117.1894,29.2789,景德镇市,兽医站,颗粒物(PM10),87,124,69,61,35,24,,108,90,91,48,6,6,1.4,1
2025-01-21T2100,2345A,117.1547,29.2617,景德镇市,台达陶瓷,,,,62,,35,38,,110,84,63,42,7,19,0.9,0.7
2025-01-21T2100,2346A,117.2461,29.2956,景德镇市,陶研所,细颗粒物(PM2.5),89,92,55,66,49,40,,106,94,51,37,4,6,0.8,0.7
2025-01-21T2100,1803A,115.9872,29.6815,九江市,十里,细颗粒物(PM2.5),83,94,115,61,82,93,,120,120,44,63,11,11,0.9,1.3
2025-01-21T2100,1804A,115.9584,29.7046,九江市,茅山头,细颗粒物(PM2.5),113,107,107,85,71,100,,115,115,53,72,11,8,1.3,1.3
2025-01-21T2100,1805A,115.9877,29.7295,九江市,西园,细颗粒物(PM2.5),98,92,119,73,90,93,,105,105,36,90,16,17,1.0,1.1
2025-01-21T2100,1808A,115.9114,29.6038,九江市,综合工业园,细颗粒物(PM2.5),98,111,92,73,78,37,,99,83,83,56,10,10,0.9,0.8
2025-01-21T2100,1809A,116.0721,29.7535,九江市,石化总厂,细颗粒物(PM2.5),87,85,105,64,89,79,,102,102,43,65,16,18,1.1,1.4
2025-01-21T2100,1810A,115.9773,29.5698,九江市,庐山气象台,,37,28,16,15,11,118,,121,120,6,6,6,7,1.1,0.9
2025-01-21T2100,3190A,116.0254,29.6994,九江市,外国语学校,细颗粒物(PM2.5),94,89,119,70,85,124,,130,130,18,34,16,17,0.4,0.6
2025-01-21T2100,4253A,116.0102,29.6594,九江市,莲花大道8号,细颗粒物(PM2.5),93,102,104,69,75,105,,114,113,29,43,13,19,0.6,0.7
2025-01-21T2100,2658A,98.5061,39.7443,酒泉市,仓门街子站,颗粒物(PM10),73,95,124,42,36,67,,78,78,21,23,42,31,0.9,0.8
2025-01-21T2100,4240A,98.4958,39.7339,酒泉市,玉门东路5号,颗粒物(PM10),80,110,129,44,36,47,,71,69,34,25,57,42,1.1,0.9
2025-01-21T2100,2698A,76.0072,39.4467,喀什地区,巡警大队,细颗粒物(PM2.5),90,113,163,67,82,47,,69,69,73,79,15,14,1.7,3.3
2025-01-21T2100,2699A,75.9755,39.4694,喀什地区,吾办,细颗粒物(PM2.5),103,94,107,77,101,53,,66,66,62,78,3,4,1.1,2.7
2025-01-21T2100,4027A,75.9483,39.4689,喀什地区,老干局,,,,190,,93,64,,72,72,,67,8,8,,4
2025-01-21T2100,1824A,114.3389,34.7781,开封市,肿瘤医院,细颗粒物(PM2.5),252,277,224,202,156,64,,94,90,46,48,13,9,1.7,1.3
2025-01-21T2100,1826A,114.2885,34.7965,开封市,世纪星幼儿园,细颗粒物(PM2.5),289,244,200,239,197,58,,85,83,51,44,16,12,1.5,1.1
2025-01-21T2100,3147A,114.3438,34.8106,开封市,龙亭公园,细颗粒物(PM2.5),262,277,221,212,190,61,,97,90,57,53,17,11,,1.2
2025-01-21T2100,3210A,114.3644,34.7964,开封市,汴京公园,细颗粒物(PM2.5),269,285,252,219,204,61,,94,89,56,70,14,11,1.7,1.3
2025-01-21T2100,3473A,114.2485,34.8306,开封市,技师学院,细颗粒物(PM2.5),216,,189,166,136,51,,84,81,67,49,15,10,2.2,1.5
2025-01-21T2100,3592A,114.4644,34.7556,开封市,祥符区生态环境局,细颗粒物(PM2.5),267,279,234,217,193,54,,88,80,44,52,10,10,1.6,1.1
2025-01-21T2100,1951A,84.895,45.6094,克拉玛依市,长征新村,细颗粒物(PM2.5),107,106,118,80,80,74,,84,83,33,34,8,9,1.1,1
2025-01-21T2100,1952A,84.8988,45.5893,克拉玛依市,南林小区,细颗粒物(PM2.5),117,106,117,88,92,78,,86,86,15,17,3,5,1.1,1.1
2025-01-21T2100,1954A,84.905,44.3396,克拉玛依市,独山子区,细颗粒物(PM2.5),269,239,173,219,159,39,,81,71,75,44,4,6,1.7,1.4
2025-01-21T2100,1955A,85.6979,46.098,克拉玛依市,乌尔禾区商贸楼,细颗粒物(PM2.5),112,90,117,84,110,94,,90,90,25,26,6,6,1.2,1.2
2025-01-21T2100,3612A,85.1045,45.6899,克拉玛依市,白碱滩区新站,细颗粒物(PM2.5),119,121,123,90,92,78,,74,74,19,28,6,9,1.4,1.2
2025-01-21T2100,2697A,76.1454,39.7142,克孜勒苏柯尔克孜自治州,市人民政府,细颗粒物(PM2.5),80,108,105,59,62,53,,86,86,60,25,7,6,1.4,1.4
2025-01-21T2100,3665A,76.1658,39.7157,克孜勒苏柯尔克孜自治州,克州文化中心,细颗粒物(PM2.5),80,101,92,59,60,62,,81,81,56,36,12,11,1.1,1
2025-01-21T2100,1450A,102.8204,24.8886,昆明市,呈贡新区,,39,32,40,27,29,59,,79,77,19,28,4,5,0.5,0.5
2025-01-21T2100,1451A,102.6251,24.9608,昆明市,西山森林公园,,,,,,,,,,,,,,,,
2025-01-21T2100,1452A,102.7252,25.0902,昆明市,龙泉镇,颗粒物(PM10),52,53,42,21,31,6,,80,69,66,27,6,6,1.1,0.9
2025-01-21T2100,1453A,102.7266,25.0375,昆明市,东风东路,,30,28,40,21,32,66,,76,75,17,21,7,7,0.5,0.5
2025-01-21T2100,1454A,102.6742,25.0669,昆明市,金鼎山,,,34,46,29,29,39,,74,68,,22,,9,0.6,0.6
2025-01-21T2100,1455A,102.6644,25.0401,昆明市,碧鸡广场,,35,34,43,24,31,44,,78,73,36,22,5,6,0.5,0.5
2025-01-21T2100,3179A,102.7494,25.0119,昆明市,官渡区博物馆,,,28,41,17,30,,,82,82,14,21,7,7,0.4,0.5
2025-01-21T2100,3375A,102.8017,24.8336,昆明市,青年创业园,,31,31,37,21,26,52,,87,83,25,22,6,8,0.5,0.5
2025-01-21T2100,3550A,102.7997,24.9786,昆明市,昆明学院,,28,28,51,18,33,69,,83,81,14,28,9,10,0.3,0.4
2025-01-21T2100,3551A,102.5967,24.6736,昆明市,晋宁区生态环境分局,,39,39,51,19,32,74,,85,85,12,20,4,4,0.6,0.7
2025-01-21T2100,3552A,102.6678,24.9856,昆明市,云天化总部,,26,20,38,14,30,82,,88,88,4,19,6,7,0.4,0.5
2025-01-21T2100,1456A,91.1319,29.6514,拉萨市,八廓街,,28,24,29,19,17,85,,98,98,19,24,8,7,0.5,0.7
2025-01-21T2100,1457A,91.1221,29.6747,拉萨市,市环保局,,40,40,48,19,28,70,,95,94,28,35,8,7,1.1,1.5
2025-01-21T2100,1458A,91.0874,29.6475,拉萨市,区监测站,,28,12,24,6,12,88,,102,102,18,29,6,6,0.5,0.7
2025-01-21T2100,1459A,91.1774,29.6541,拉萨市,西藏大学,,27,18,29,9,11,85,,100,100,19,14,7,6,0.6,0.5
2025-01-21T2100,1460A,90.9798,29.6588,拉萨市,区辐射站,,27,27,40,17,23,81,,91,91,25,32,9,9,0.7,1
2025-01-21T2100,1461A,91.0834,29.6292,拉萨市,拉萨火车站,,35,12,24,8,11,109,,107,107,4,26,4,4,0.4,0.8
2025-01-21T2100,2520A,109.2203,23.7256,来宾市,来宾技工学校,细颗粒物(PM2.5),195,193,156,146,121,85,,144,139,56,50,14,18,1.6,1.4
2025-01-21T2100,3535A,109.1781,23.7297,来宾市,兴宾区政府,细颗粒物(PM2.5),162,170,143,123,111,104,,164,161,56,28,13,12,1.4,1.2
2025-01-21T2100,4002A,109.2416,23.7461,来宾市,中南小学,细颗粒物(PM2.5),168,181,168,127,114,74,,143,137,63,55,18,18,1.9,1.6
2025-01-21T2100,1477A,104.1373,35.9454,兰州市,榆中兰大校区,,,,,,,,,,,,,,,,
2025-01-21T2100,1478A,103.8412,36.0726,兰州市,生物制品所,,,,,,,,,,,,,,,,
2025-01-21T2100,1479A,103.831,36.0464,兰州市,铁路设计院,细颗粒物(PM2.5),108,108,104,81,70,4,,38,35,122,94,22,24,1.8,2.2
2025-01-21T2100,3241A,103.7439,36.0842,兰州市,百合公园,颗粒物(PM10),69,87,104,49,70,7,,58,50,106,78,19,24,1.3,1.8
2025-01-21T2100,3242A,103.9611,35.998,兰州市,和平,细颗粒物(PM2.5),72,79,86,52,59,74,,81,81,30,51,17,25,0.9,1.5
2025-01-21T2100,4236A,103.6293,36.0938,兰州市,庄浪东路808号,细颗粒物(PM2.5),73,68,95,53,65,27,,68,63,82,74,17,24,1.0,1.4
2025-01-21T2100,4237A,103.7251,36.1043,兰州市,安宁西路88号,细颗粒物(PM2.5),89,102,112,66,68,21,,85,71,76,72,30,34,1.1,1.4
2025-01-21T2100,3245A,103.6633,36.533,兰州新区,新区管委会,细颗粒物(PM2.5),89,77,59,66,43,83,,94,93,16,23,19,21,0.8,0.8
2025-01-21T2100,3246A,103.6975,36.4789,兰州新区,舟曲中学,颗粒物(PM10),66,81,72,39,44,71,,98,91,37,35,25,24,0.8,1
2025-01-21T2100,1067A,116.6708,39.5111,廊坊市,药材公司,颗粒物(PM10),57,64,111,31,76,33,,51,43,35,62,7,11,0.5,1
2025-01-21T2100,1068A,116.7214,39.5589,廊坊市,开发区,颗粒物(PM10),55,60,104,27,65,42,,59,55,38,66,8,11,0.5,1
2025-01-21T2100,1070A,116.7244,39.5269,廊坊市,北华航天学院,颗粒物(PM10),63,76,117,26,72,39,,53,50,27,56,7,11,0.7,1.1
2025-01-21T2100,2919A,116.7022,39.5453,廊坊市,河北工业大学,颗粒物(PM10),54,58,102,28,68,37,,54,50,37,64,11,14,0.6,1
2025-01-21T2100,2535A,103.7723,29.5462,乐山市,花湖湾,细颗粒物(PM2.5),186,169,124,140,104,42,,77,63,46,27,6,6,1.0,0.8
2025-01-21T2100,2536A,103.7627,29.5844,乐山市,牛耳桥,细颗粒物(PM2.5),196,167,126,147,114,31,,48,46,51,35,6,5,0.8,0.7
2025-01-21T2100,2537A,103.7508,29.6006,乐山市,市第三水厂,细颗粒物(PM2.5),179,167,119,135,96,35,,53,50,52,39,5,4,1.0,1
2025-01-21T2100,2538A,103.7571,29.5664,乐山市,市监测站,细颗粒物(PM2.5),138,139,104,105,78,36,,56,55,42,27,6,5,0.8,0.8
2025-01-21T2100,3361A,103.7311,29.5628,乐山市,理工大学,细颗粒物(PM2.5),211,192,120,161,104,14,,52,48,61,32,10,9,1.2,1
2025-01-21T2100,2598A,100.2143,26.8576,丽江市,西南郊,颗粒物(PM10),51,51,54,29,43,80,,104,91,15,13,8,16,0.8,0.9
2025-01-21T2100,2599A,100.2497,26.8802,丽江市,丽江古城,,40,39,55,28,41,80,,97,95,15,14,12,10,1.0,1.1
2025-01-21T2100,2600A,100.2203,26.8906,丽江市,市中心,,42,35,42,29,39,75,,86,83,16,15,9,8,0.7,0.7
2025-01-21T2100,1267A,119.914,28.4514,丽水市,监测站大楼,细颗粒物(PM2.5),83,,54,61,52,103,,122,122,27,30,8,6,0.6,0.5
2025-01-21T2100,1268A,119.93,28.4586,丽水市,莲都小学,细颗粒物(PM2.5),63,62,62,45,42,110,,133,133,23,28,8,7,0.7,0.7
2025-01-21T2100,1269A,119.879,28.4231,丽水市,余庄前,细颗粒物(PM2.5),79,78,59,58,46,98,,124,121,22,25,4,4,0.6,0.5
2025-01-21T2100,1173A,119.176,34.5885,连云港市,市环境监测站,细颗粒物(PM2.5),153,149,95,117,69,77,,100,95,43,28,15,11,1.3,0.9
2025-01-21T2100,3000A,119.3581,34.6972,连云港市,德源药业,细颗粒物(PM2.5),134,144,98,102,64,51,,93,76,68,36,8,9,0.5,0.6
2025-01-21T2100,3007A,119.178,34.844,连云港市,新城一中,细颗粒物(PM2.5),122,111,90,92,68,22,,47,44,78,73,8,11,0.9,0.8
2025-01-21T2100,3008A,119.3608,34.7519,连云港市,胡沟管理处,细颗粒物(PM2.5),132,117,78,100,55,37,,41,41,89,63,43,17,1.1,0.9
2025-01-21T2100,3009A,119.1478,34.5911,连云港市,矿山设计院,细颗粒物(PM2.5),163,171,106,124,72,58,,98,87,53,34,13,10,1.4,1
2025-01-21T2100,3434A,119.2413,34.6539,连云港市,工贸学校,细颗粒物(PM2.5),155,156,113,118,83,95,,110,108,38,24,19,14,1.4,1
2025-01-21T2100,3664A,119.4172,34.7341,连云港市,连云街道,细颗粒物(PM2.5),137,186,121,104,69,57,,19,19,59,72,17,14,1.1,1.2
2025-01-21T2100,2571A,102.3431,27.8099,凉山彝族自治州,青龙寺,,35,35,46,15,19,72,,95,93,7,8,7,8,0.8,0.9
2025-01-21T2100,2572A,102.2721,27.8415,凉山彝族自治州,邛海宾馆,,45,45,47,30,32,71,,89,88,17,17,8,10,0.6,0.8
2025-01-21T2100,2573A,102.2625,27.898,凉山彝族自治州,西昌市政府,,46,45,43,32,33,72,,88,88,9,15,9,11,0.7,0.9
2025-01-21T2100,2574A,102.2685,27.8851,凉山彝族自治州,凉山州政府,细颗粒物(PM2.5),55,52,47,39,34,63,,90,88,15,17,8,10,0.7,0.9
2025-01-21T2100,2575A,102.237,27.8914,凉山彝族自治州,长安,,49,49,55,32,38,70,,89,89,16,28,10,13,0.8,1.1
2025-01-21T2100,2212A,123.2,41.1953,辽阳市,宏伟区,颗粒物(PM10),56,62,83,39,72,44,,70,64,27,36,15,11,0.6,1.1
2025-01-21T2100,2213A,123.1683,41.2495,辽阳市,新华园,颗粒物(PM10),59,67,84,38,60,35,,58,53,38,48,16,24,0.8,1.1
2025-01-21T2100,2214A,123.2354,41.2639,辽阳市,滨河路,颗粒物(PM10),65,80,69,44,54,27,,65,56,42,37,7,9,0.8,0.9
2025-01-21T2100,2215A,123.149,41.2991,辽阳市,铁西工业园,细颗粒物(PM2.5),79,98,123,58,92,10,,58,40,53,47,8,9,1.1,1.5
2025-01-21T2100,2227A,125.1358,42.8845,辽源市,环保局,细颗粒物(PM2.5),87,92,88,64,66,61,,68,65,21,34,14,12,1.1,1.4
2025-01-21T2100,3239A,125.0764,42.9078,辽源市,银鹰制药,细颗粒物(PM2.5),74,66,75,54,62,41,,64,57,24,35,5,7,1.2,1.3
2025-01-21T2100,1625A,115.9848,36.4372,聊城市,区政府,细颗粒物(PM2.5),205,226,187,155,130,59,,86,83,55,43,34,24,1.5,1.3
2025-01-21T2100,2878A,116.0072,36.4343,聊城市,聊大东校,细颗粒物(PM2.5),214,239,197,164,143,56,,86,82,60,48,33,20,1.6,1.4
2025-01-21T2100,3200A,115.9819,36.4978,聊城市,监控中心,细颗粒物(PM2.5),218,238,190,168,137,59,,82,78,61,52,27,23,1.5,1.4
2025-01-21T2100,3513A,116.0445,36.4361,聊城市,九州社区,细颗粒物(PM2.5),203,196,160,153,126,59,,93,88,55,44,34,21,1.2,1.1
2025-01-21T2100,4018A,116.0567,36.4608,聊城市,星美广场,细颗粒物(PM2.5),218,219,181,168,135,47,,84,77,52,39,35,22,1.3,1.1
2025-01-21T2100,2632A,94.3681,29.6376,林芝市,林芝监测站,,36,36,17,13,9,74,,74,74,2,5,6,6,0.2,0.2
2025-01-21T2100,2633A,94.3616,29.6616,林芝市,林芝人民医院,,46,46,21,15,9,51,,66,64,8,5,6,6,0.3,0.2
2025-01-21T2100,2603A,100.0781,23.8982,临沧市,市环保局,细颗粒物(PM2.5),53,46,35,37,22,67,,93,90,15,14,13,10,0.7,0.6
2025-01-21T2100,2604A,100.0894,23.8822,临沧市,市气象局,,42,42,36,28,30,67,,92,89,14,15,8,8,0.5,0.6
2025-01-21T2100,1733A,111.5531,36.0783,临汾市,临钢医院,细颗粒物(PM2.5),134,126,116,102,70,4,,24,14,84,57,31,23,2.2,1.7
2025-01-21T2100,1734A,111.5028,36.0714,临汾市,技工学校,细颗粒物(PM2.5),150,194,137,115,81,4,,19,14,86,63,41,25,2.0,1.9
2025-01-21T2100,1736A,111.5018,36.0855,临汾市,市委,细颗粒物(PM2.5),134,209,147,102,77,6,,18,14,91,66,40,24,1.4,1.5
2025-01-21T2100,3018A,111.505,36.1014,临汾市,唐尧大酒店,细颗粒物(PM2.5),134,181,141,102,79,7,,16,11,90,68,40,25,1.7,1.7
2025-01-21T2100,4244A,111.4879,36.0530,临汾市,启星学校,细颗粒物(PM2.5),142,181,132,108,81,3,,19,13,92,65,40,21,2.2,2.1
2025-01-21T2100,2667A,103.2069,35.5993,临夏回族自治州,环保局,颗粒物(PM10),102,154,138,68,69,36,,78,75,44,37,25,19,1.8,2
2025-01-21T2100,2668A,103.2417,35.6057,临夏回族自治州,建设大厦,颗粒物(PM10),107,163,108,72,43,34,,85,79,49,25,26,21,1.8,1.4
2025-01-21T2100,1618A,118.3429,35.0532,临沂市,沂河小区,细颗粒物(PM2.5),198,193,157,148,119,46,,84,78,71,63,23,24,1.1,1.1
2025-01-21T2100,1619A,118.295,35.0583,临沂市,鲁南制药厂,细颗粒物(PM2.5),188,197,162,141,117,59,,87,82,62,65,27,32,1.0,1.1
2025-01-21T2100,1620A,118.2794,34.9976,临沂市,新光毛纺厂,细颗粒物(PM2.5),176,168,146,133,109,49,,83,78,62,66,24,27,1.1,1.1
2025-01-21T2100,1621A,118.3956,35.0888,临沂市,河东保险公司,细颗粒物(PM2.5),207,217,150,157,105,8,,83,70,113,70,25,20,1.2,0.9
2025-01-21T2100,3370A,118.3564,35.0215,临沂市,十里堡居委,细颗粒物(PM2.5),192,183,146,144,106,56,,90,87,57,53,20,26,1.2,1.2
2025-01-21T2100,3496A,118.3604,35.1084,临沂市,南坊新区,细颗粒物(PM2.5),199,190,148,149,108,44,,88,83,76,65,18,20,1.0,1
2025-01-21T2100,3860A,118.3920,35.0300,临沂市,皇山花园小区,细颗粒物(PM2.5),172,195,146,130,96,29,,86,75,90,67,25,20,1.2,1.2
2025-01-21T2100,1870A,109.4856,24.3895,柳州市,柳东小学,细颗粒物(PM2.5),84,101,111,62,93,81,,140,136,58,31,15,16,1.0,1
2025-01-21T2100,1871A,109.4157,24.3277,柳州市,环保监测站,细颗粒物(PM2.5),94,134,140,70,93,65,,132,127,68,51,13,16,1.3,1.4
2025-01-21T2100,1872A,109.389,24.341,柳州市,河西水厂,细颗粒物(PM2.5),102,120,150,76,89,59,,137,131,84,56,15,19,1.6,1.2
2025-01-21T2100,1873A,109.4311,24.2921,柳州市,市四中,细颗粒物(PM2.5),114,164,135,86,86,44,,133,122,92,59,15,15,2.3,1.9
2025-01-21T2100,1874A,109.4006,24.3631,柳州市,市九中,细颗粒物(PM2.5),87,,122,64,90,87,,131,127,44,46,11,13,1.2,1.2
2025-01-21T2100,1875A,109.4958,24.3134,柳州市,古亭山,细颗粒物(PM2.5),65,66,85,47,61,86,,138,135,54,63,16,23,1.1,1.1
2025-01-21T2100,3402A,109.5422,24.3996,柳州市,市二中,细颗粒物(PM2.5),128,115,106,97,91,64,,115,112,64,52,15,12,1.3,1.2
2025-01-21T2100,2307A,116.5079,31.737,六安市,监测大楼,细颗粒物(PM2.5),130,106,106,99,91,110,,118,118,31,34,10,9,0.8,0.8
2025-01-21T2100,2308A,116.4738,31.7643,六安市,皖西学院,细颗粒物(PM2.5),129,133,110,98,84,114,,124,124,34,34,10,9,0.9,0.9
2025-01-21T2100,2309A,116.4996,31.7905,六安市,朝阳厂,细颗粒物(PM2.5),113,98,97,85,81,101,,118,116,41,34,6,6,0.8,0.8
2025-01-21T2100,2310A,116.5567,31.7886,六安市,开发区,细颗粒物(PM2.5),110,123,129,83,88,108,,120,119,31,35,9,8,1.0,1
2025-01-21T2100,2576A,104.8,26.5892,六盘水市,窑上,细颗粒物(PM2.5),69,62,86,50,55,70,,80,73,15,14,4,5,0.8,0.8
2025-01-21T2100,2577A,104.83,26.5917,六盘水市,黄土坡,细颗粒物(PM2.5),85,,72,63,59,74,,91,77,26,20,9,9,1.0,0.9
2025-01-21T2100,2578A,104.89,26.5939,六盘水市,水钢,细颗粒物(PM2.5),109,82,85,82,73,96,,100,88,15,16,4,6,0.7,0.7
2025-01-21T2100,2579A,104.8475,26.5894,六盘水市,民中,细颗粒物(PM2.5),89,70,67,66,60,73,,90,76,24,21,10,10,1.1,0.9
2025-01-21T2100,2580A,104.9544,26.5506,六盘水市,双水,细颗粒物(PM2.5),78,68,78,57,61,98,,101,90,13,16,7,10,0.7,0.7
2025-01-21T2100,2335A,117.0189,25.1181,龙岩市,龙岩师专,,,,,,,,,,,,,,,,
2025-01-21T2100,2336A,117.0217,25.1033,龙岩市,龙岩市监测站,细颗粒物(PM2.5),52,,40,36,27,122,,123,123,30,30,7,5,0.6,0.6
2025-01-21T2100,2337A,117.0258,25.0661,龙岩市,闽西职业技术学院,细颗粒物(PM2.5),54,47,45,38,25,120,,117,117,20,28,5,3,0.7,0.7
2025-01-21T2100,2338A,117.0196,25.0306,龙岩市,龙岩学院,,37,37,39,22,26,80,,118,112,18,22,5,4,0.4,0.4
2025-01-21T2100,2665A,105.0822,33.3261,陇南市,汉王镇固水子,,,,,,,,,,,,,,,,
2025-01-21T2100,2885A,104.9339,33.3826,陇南市,滨江中学,细颗粒物(PM2.5),74,92,83,54,48,34,,69,66,46,40,14,27,1.4,1.8
2025-01-21T2100,3247A,104.955,33.371,陇南市,市总工会,细颗粒物(PM2.5),94,101,63,70,44,46,,76,74,38,27,8,11,0.7,0.7
2025-01-21T2100,2487A,111.9589,27.8901,娄底市,电视发射台,细颗粒物(PM2.5),74,55,67,54,60,116,,140,138,15,18,9,10,0.8,0.8
2025-01-21T2100,2488A,111.9975,27.725,娄底市,市监测站,细颗粒物(PM2.5),147,160,142,112,104,58,,121,115,70,55,16,20,1.7,1.7
2025-01-21T2100,2489A,112.0194,27.7314,娄底市,市委党校,细颗粒物(PM2.5),103,111,124,77,87,106,,125,124,34,46,28,29,1.1,1.4
2025-01-21T2100,2490A,111.9561,27.7569,娄底市,涟钢,细颗粒物(PM2.5),139,170,136,106,96,32,,116,103,66,38,17,23,1.3,1.5
2025-01-21T2100,2491A,111.9892,27.7044,娄底市,市政府,细颗粒物(PM2.5),156,181,123,119,92,12,,124,104,94,43,10,11,1.6,1.1
2025-01-21T2100,1893A,105.4324,28.9634,泸州市,九狮山,,,,,,,,,,,,,,,,
2025-01-21T2100,1894A,105.4427,28.9063,泸州市,小市上码头,细颗粒物(PM2.5),200,188,174,150,140,21,,53,47,66,39,5,5,1.3,1.2
2025-01-21T2100,1895A,105.4241,28.8573,泸州市,兰田宪桥,细颗粒物(PM2.5),226,198,172,176,148,34,,45,45,38,39,5,5,1.3,1.2
2025-01-21T2100,1896A,105.4379,28.8833,泸州市,市环监站,细颗粒物(PM2.5),196,174,160,147,137,20,,40,37,58,42,7,7,1.1,1
2025-01-21T2100,3490A,105.3617,28.7703,泸州市,纳溪区环保局,,,,148,,127,6,,32,31,,46,6,5,1.4,1.3
2025-01-21T2100,2183A,111.1406,37.5211,吕梁市,环保局,,,,84,,31,,,21,,,50,,6,,0.6
2025-01-21T2100,2185A,111.1297,37.5136,吕梁市,自来水公司,颗粒物(PM10),82,113,112,58,41,6,,33,18,64,51,10,16,0.8,0.8
2025-01-21T2100,2867A,111.1283,37.51,吕梁市,马茂庄小学,颗粒物(PM10),87,124,113,53,39,3,,32,16,69,53,13,19,0.9,0.7
2025-01-21T2100,1812A,112.3931,34.6516,洛阳市,市委党校,细颗粒物(PM2.5),182,195,167,137,118,55,,49,49,61,70,20,16,2.2,1.7
2025-01-21T2100,1815A,112.494,34.6886,洛阳市,河南林校,细颗粒物(PM2.5),237,200,164,187,156,46,,46,46,63,71,19,12,2.0,1.6
2025-01-21T2100,1816A,112.3844,34.623,洛阳市,开发区管委会,细颗粒物(PM2.5),254,238,180,204,152,63,,57,57,50,58,23,14,2.0,1.2
2025-01-21T2100,1817A,112.4267,34.6258,洛阳市,市委新办公区,细颗粒物(PM2.5),210,256,174,160,119,49,,51,51,64,60,20,12,1.9,1.3
2025-01-21T2100,3340A,112.6005,34.6326,洛阳市,伊滨,细颗粒物(PM2.5),218,239,220,168,123,51,,51,51,52,57,14,10,1.4,1
2025-01-21T2100,3341A,112.4951,34.6332,洛阳市,中移产业园,细颗粒物(PM2.5),204,195,142,154,113,51,,56,56,61,59,21,12,2.0,1.3
2025-01-21T2100,3593A,112.5736,34.8993,洛阳市,吉利监测站,细颗粒物(PM2.5),219,239,150,169,100,53,,61,61,62,50,19,12,1.8,1.1
2025-01-21T2100,3635A,112.3677,34.662,洛阳市,河科大西苑校区,细颗粒物(PM2.5),178,202,196,134,132,63,,55,55,53,67,22,22,2.0,1.6
2025-01-21T2100,3636A,112.4388,34.6781,洛阳市,英才小学,细颗粒物(PM2.5),185,214,200,139,131,42,,49,49,76,78,24,24,2.0,1.7
2025-01-21T2100,4214A,112.4600,34.6949,洛阳市,春都路1号院,细颗粒物(PM2.5),173,209,189,131,117,51,,43,43,66,90,18,14,2.3,1.8
2025-01-21T2100,2399A,114.051,33.5699,漯河市,三五一五工厂,细颗粒物(PM2.5),264,234,189,214,178,,,116,116,32,46,8,12,0.9,1.1
2025-01-21T2100,2400A,114.0055,33.5698,漯河市,漯河大学,细颗粒物(PM2.5),221,214,166,171,138,83,,124,117,36,42,10,11,1.0,1
2025-01-21T2100,2401A,114.0138,33.5828,漯河市,市水利局,细颗粒物(PM2.5),230,239,183,180,144,76,,117,111,31,36,11,12,1.0,1
2025-01-21T2100,2402A,114.0261,33.5698,漯河市,市广电局,细颗粒物(PM2.5),220,230,181,170,145,80,,119,112,32,41,12,13,1.0,0.9
2025-01-21T2100,3478A,113.9749,33.5664,漯河市,市图书馆,细颗粒物(PM2.5),211,212,183,161,150,88,,123,118,43,50,10,12,0.9,0.9
2025-01-21T2100,3479A,114.0967,33.5906,漯河市,召陵区卫健委,细颗粒物(PM2.5),225,244,189,175,156,51,,104,95,48,42,6,9,1.0,0.9
2025-01-21T2100,1798A,118.5092,31.6837,马鞍山市,湖东路四小,细颗粒物(PM2.5),135,138,128,103,82,123,,128,128,41,52,6,8,0.8,1
2025-01-21T2100,1799A,118.5024,31.6449,马鞍山市,开发区,细颗粒物(PM2.5),144,143,146,110,105,101,,131,128,47,49,9,11,0.8,0.9
2025-01-21T2100,1802A,118.6245,31.7241,马鞍山市,濮塘,细颗粒物(PM2.5),153,142,113,117,93,146,,145,145,35,35,9,9,0.7,0.7
2025-01-21T2100,3633A,118.4918,31.6809,马鞍山市,雨山,细颗粒物(PM2.5),147,146,126,112,92,120,,126,126,40,47,9,11,1.0,1.1
2025-01-21T2100,4191A,118.5274,31.72227,马鞍山市,慈湖高新区,,,122,109,,97,130,,128,128,30,42,9,10,1.0,1
2025-01-21T2100,1686A,111.0286,21.4688,茂名市,电白南海,颗粒物(PM10),51,51,76,22,42,136,,147,145,22,26,7,11,0.4,0.7
2025-01-21T2100,1687A,110.9294,21.6533,茂名市,茂石化七小,颗粒物(PM10),56,61,82,19,38,142,,156,154,19,24,9,15,0.5,0.6
2025-01-21T2100,1688A,110.9107,21.6687,茂名市,健康路,颗粒物(PM10),53,56,75,36,46,145,,161,158,20,28,8,14,0.7,0.8
2025-01-21T2100,1689A,110.8592,21.6828,茂名市,高岭,颗粒物(PM10),63,75,110,27,51,133,,158,153,26,34,7,16,0.6,0.8
2025-01-21T2100,3450A,111.01,21.5165,茂名市,电白水东,,,53,74,19,38,135,,141,141,,21,8,19,0.7,0.8
2025-01-21T2100,2539A,104.0308,30.0478,眉山市,黑龙滩水库,细颗粒物(PM2.5),122,118,100,92,74,64,,95,88,9,7,3,4,0.7,1
2025-01-21T2100,2540A,103.8416,30.0874,眉山市,气象局,细颗粒物(PM2.5),233,228,152,183,113,27,,64,60,66,44,4,2,1.4,1.1
2025-01-21T2100,3137A,103.8578,30.0744,眉山市,市委党校,细颗粒物(PM2.5),168,151,116,127,93,26,,69,64,70,50,7,7,1.1,0.9
2025-01-21T2100,3148A,103.8291,30.0564,眉山市,区人社局,细颗粒物(PM2.5),223,,96,173,102,31,,68,62,72,56,11,9,1.2,1.1
2025-01-21T2100,1690A,116.1231,24.3284,梅州市,梅江月梅,细颗粒物(PM2.5),67,59,47,48,33,74,,119,110,24,30,9,9,1.0,0.9
2025-01-21T2100,1691A,116.0797,24.2719,梅州市,梅县新城,,,105,55,68,35,15,,97,74,80,39,6,5,,0.7
2025-01-21T2100,1692A,116.1248,24.2654,梅州市,环境监控中心,细颗粒物(PM2.5),52,52,49,36,33,49,,109,93,48,38,6,13,0.6,0.5
2025-01-21T2100,3315A,116.1233,24.2991,梅州市,梅龙,颗粒物(PM10),69,88,41,49,29,13,,103,80,83,34,7,8,1.8,0.7
2025-01-21T2100,1878A,104.7778,31.4741,绵阳市,富乐山,细颗粒物(PM2.5),118,110,96,89,80,36,,60,58,38,22,2,2,1.2,1.2
2025-01-21T2100,1880A,104.6697,31.4668,绵阳市,高新区自来水公司,细颗粒物(PM2.5),132,132,124,100,86,20,,46,43,53,47,3,5,0.9,1
2025-01-21T2100,1881A,104.7287,31.5075,绵阳市,三水厂,细颗粒物(PM2.5),124,126,129,94,101,8,,53,47,65,45,3,5,,1.5
2025-01-21T2100,3491A,104.69,31.5322,绵阳市,西科大附属小学,细颗粒物(PM2.5),158,150,128,120,99,11,,49,48,53,40,5,5,1.3,1.3
2025-01-21T2100,3492A,104.5648,31.5343,绵阳市,安州区旅游局,细颗粒物(PM2.5),160,126,136,122,117,39,,48,41,30,35,7,7,1.1,1.2
2025-01-21T2100,4226A,104.7651,31.4531,绵阳市,绵阳市气象局,细颗粒物(PM2.5),114,110,86,86,76,25,,52,49,55,35,2,2,0.8,0.8
2025-01-21T2100,1784A,129.61,44.561,牡丹江市,环保大楼,细颗粒物(PM2.5),138,167,120,105,77,11,,36,24,80,60,10,11,1.6,1.1
2025-01-21T2100,1785A,129.6115,44.5782,牡丹江市,文化广场,细颗粒物(PM2.5),198,258,143,148,84,,,16,,76,63,12,14,2.0,1.6
2025-01-21T2100,1786A,129.5904,44.5963,牡丹江市,第一医院,细颗粒物(PM2.5),192,185,141,144,110,11,,26,16,75,57,11,13,1.8,1.3
2025-01-21T2100,1787A,129.6364,44.6075,牡丹江市,机车工厂,细颗粒物(PM2.5),118,135,116,89,71,12,,36,20,57,47,10,13,1.4,1.2
2025-01-21T2100,1788A,129.6386,44.5462,牡丹江市,第一中学,细颗粒物(PM2.5),162,144,91,123,69,5,,35,22,54,44,8,10,1.7,1.1
2025-01-21T2100,2531A,105.0703,29.61,内江市,市监测站,细颗粒物(PM2.5),135,112,103,103,105,34,,49,49,51,35,8,7,1.2,1.1
2025-01-21T2100,2532A,105.0717,29.5947,内江市,东兴区政府,细颗粒物(PM2.5),115,,92,87,93,51,,53,53,38,36,5,4,1.1,1.1
2025-01-21T2100,2533A,105.0653,29.5817,内江市,内江二中,细颗粒物(PM2.5),125,112,109,95,101,55,,54,54,34,42,10,9,1.1,1.1
2025-01-21T2100,2534A,105.0406,29.5822,内江市,内江日报社,细颗粒物(PM2.5),127,116,107,96,100,50,,50,50,40,41,10,10,,1.1
2025-01-21T2100,2628A,92.0657,31.4846,那曲市,那曲监测站,,30,22,44,21,37,58,,88,86,11,13,13,10,1.6,1.5
2025-01-21T2100,3128A,92.0506,31.4797,那曲市,那曲会议中心,,23,23,36,9,16,72,,91,90,8,11,3,4,0.7,1
2025-01-21T2100,1290A,115.8931,28.6843,南昌市,省外办,细颗粒物(PM2.5),113,136,133,85,93,15,,102,72,109,65,7,10,1.1,1.2
2025-01-21T2100,1291A,115.8886,28.7003,南昌市,省林业公司,细颗粒物(PM2.5),100,134,120,75,80,22,,111,94,114,70,10,12,0.8,0.9
2025-01-21T2100,1292A,115.8126,28.7442,南昌市,林科所,细颗粒物(PM2.5),67,68,88,48,63,82,,136,128,58,58,8,11,1.1,0.7
2025-01-21T2100,1294A,115.8518,28.687,南昌市,建工学校,细颗粒物(PM2.5),99,141,129,74,78,58,,122,110,87,81,13,14,1.3,1.4
2025-01-21T2100,1295A,115.8921,28.6424,南昌市,象湖,细颗粒物(PM2.5),134,176,128,102,88,6,,126,97,150,86,10,10,2.1,1.5
2025-01-21T2100,1296A,115.7423,28.7996,南昌市,武术学校,细颗粒物(PM2.5),130,,51,99,45,60,,105,90,21,21,3,3,0.7,0.6
2025-01-21T2100,3046A,115.9084,28.6062,南昌市,机电学校,细颗粒物(PM2.5),117,169,140,88,83,16,,123,93,120,76,15,15,1.0,1
2025-01-21T2100,3690A,115.9721,28.7031,南昌市,外国语学校,颗粒物(PM10),90,130,111,65,72,28,,127,107,89,52,9,10,0.8,0.7
2025-01-21T2100,4192A,115.9316,28.68677,南昌市,南京东路235号,细颗粒物(PM2.5),104,151,126,78,83,41,,116,100,84,57,6,9,0.9,0.9
2025-01-21T2100,1905A,106.056,30.8064,南充市,西山风景区,细颗粒物(PM2.5),115,92,85,87,80,78,,66,62,9,14,2,2,1.1,1
2025-01-21T2100,1906A,106.0789,30.8023,南充市,南充市委,细颗粒物(PM2.5),148,140,109,113,89,6,,41,36,,33,,3,1.2,0.9
2025-01-21T2100,1907A,106.1031,30.8217,南充市,南充炼油厂,细颗粒物(PM2.5),160,154,113,122,92,10,,52,45,72,41,4,4,1.2,0.9
2025-01-21T2100,1909A,106.0642,30.7636,南充市,嘉陵区环保局,细颗粒物(PM2.5),140,136,114,107,87,4,,39,34,78,53,4,3,1.3,1
2025-01-21T2100,1910A,106.1087,30.8388,南充市,市环境监测站,细颗粒物(PM2.5),148,146,111,113,83,24,,54,51,52,27,5,5,1.0,0.8
2025-01-21T2100,4227A,106.1083,30.7884,南充市,梨树横街98号,细颗粒物(PM2.5),139,145,120,106,88,15,,9,,70,49,8,8,1.3,1.1
2025-01-21T2100,1151A,118.8086,32.1065,南京市,迈皋桥,细颗粒物(PM2.5),110,105,113,83,82,98,,124,122,63,83,11,13,0.7,0.9
2025-01-21T2100,1152A,118.7538,32.0551,南京市,草场门,细颗粒物(PM2.5),94,95,115,70,82,91,,108,107,44,78,9,11,0.7,1
2025-01-21T2100,1153A,118.7794,32.0745,南京市,山西路,细颗粒物(PM2.5),98,102,122,73,88,120,,129,129,26,77,5,7,0.6,0.8
2025-01-21T2100,1154A,118.7752,32.0023,南京市,中华门,细颗粒物(PM2.5),98,100,123,73,90,99,,115,115,42,75,11,15,0.8,1
2025-01-21T2100,1155A,118.8109,32.0309,南京市,瑞金路,细颗粒物(PM2.5),104,107,124,78,90,96,,111,111,36,70,4,4,0.7,1.1
2025-01-21T2100,1156A,118.7997,32.0754,南京市,玄武湖,细颗粒物(PM2.5),107,96,122,80,85,112,,124,124,17,42,10,10,0.8,1.1
2025-01-21T2100,1157A,118.6414,32.0931,南京市,浦口,细颗粒物(PM2.5),92,105,122,68,80,101,,105,105,28,50,9,11,0.8,1
2025-01-21T2100,1158A,118.7356,31.9996,南京市,奥体中心,细颗粒物(PM2.5),98,106,127,73,89,112,,130,130,41,79,9,10,0.7,1
2025-01-21T2100,1159A,118.9125,32.1028,南京市,仙林大学城,细颗粒物(PM2.5),128,122,133,97,99,101,,132,131,42,65,10,11,0.9,1
2025-01-21T2100,3422A,118.8436,31.9198,南京市,江宁彩虹桥,细颗粒物(PM2.5),94,82,155,70,99,98,,125,124,31,70,4,6,0.8,1.1
2025-01-21T2100,3423A,119.0138,31.6494,南京市,溧水永阳,细颗粒物(PM2.5),169,134,103,128,102,129,,139,139,32,53,4,4,1.0,1.1
2025-01-21T2100,3424A,118.879,31.3302,南京市,高淳老职中,,,,123,,121,105,,129,123,25,59,6,7,1.5,0.8
2025-01-21T2100,3427A,118.8554,32.3578,南京市,六合雄州,,,,152,126,118,34,,105,94,56,53,8,8,0.9,1
2025-01-21T2100,1401A,108.3103,22.7881,南宁市,二十一中,臭氧1小时,93,63,110,48,83,194,,197,197,32,66,14,7,0.8,1.2
2025-01-21T2100,1402A,108.3141,22.8528,南宁市,北湖,臭氧1小时,73,67,108,50,79,178,,176,176,29,65,11,11,0.7,1
2025-01-21T2100,1403A,108.3206,22.8225,南宁市,市监测站,臭氧1小时,85,73,110,53,75,188,,184,184,28,61,16,16,0.9,1.2
2025-01-21T2100,1404A,108.3829,22.8037,南宁市,大自然花园,臭氧1小时,74,49,89,43,70,179,,182,182,21,42,12,9,0.9,1.1
2025-01-21T2100,1405A,108.4394,22.7904,南宁市,仙葫,,,,106,,84,,,168,168,,56,,6,,0.9
2025-01-21T2100,1406A,108.2397,22.8467,南宁市,区农职院,,,71,89,45,57,176,,183,183,,41,,12,0.7,0.8
2025-01-21T2100,1407A,108.3275,22.735,南宁市,英华嘉园,细颗粒物(PM2.5),77,69,111,56,83,155,,173,173,40,70,16,11,0.9,1.1
2025-01-21T2100,3401A,108.4834,22.7618,南宁市,红星社区,细颗粒物(PM2.5),59,44,100,42,69,150,,176,174,27,57,20,12,0.9,1
2025-01-21T2100,4221A,108.2177,22.7774,南宁市,乐贤路16号,颗粒物(PM10),77,104,121,49,72,134,,168,166,54,62,15,9,0.7,1
2025-01-21T2100,2331A,118.0966,26.6761,南平市,茫荡山,,,,,,,,,,,,,,,,
2025-01-21T2100,2332A,118.1681,26.6369,南平市,南平市监测站,细颗粒物(PM2.5),84,77,54,62,42,45,,128,102,52,28,6,6,1.6,0.6
2025-01-21T2100,2333A,118.1825,26.6489,南平市,南平铝业有限公司,细颗粒物(PM2.5),78,62,47,57,40,78,,130,117,36,31,9,6,0.8,0.7
2025-01-21T2100,2334A,118.1756,26.6272,南平市,南平七中,细颗粒物(PM2.5),68,70,48,49,36,67,,127,109,39,28,7,7,1.1,0.8
2025-01-21T2100,1168A,120.9098,31.9663,南通市,狼山街道,细颗粒物(PM2.5),90,85,117,67,89,89,,93,93,24,54,8,9,0.7,1.2
2025-01-21T2100,1169A,120.86,32.0005,南通市,虹桥,细颗粒物(PM2.5),99,96,107,74,85,92,,90,90,30,50,8,10,0.7,1
2025-01-21T2100,1170A,120.87,32.02,南通市,城中,细颗粒物(PM2.5),102,110,124,76,84,85,,89,89,40,54,10,11,0.8,1.1
2025-01-21T2100,1171A,120.94,31.93,南通市,星湖花园,细颗粒物(PM2.5),79,74,110,58,82,77,,89,89,32,53,7,9,0.7,1
2025-01-21T2100,1172A,120.81,32.0417,南通市,紫琅学院,细颗粒物(PM2.5),100,102,114,75,82,76,,59,59,42,67,6,7,1.3,1.2
2025-01-21T2100,3291A,121.067,32.062,南通市,通州监测站,细颗粒物(PM2.5),52,51,100,36,74,69,,123,107,30,33,4,6,0.6,0.9
2025-01-21T2100,3432A,120.9348,31.9883,南通市,环境教育馆,细颗粒物(PM2.5),120,112,114,91,90,54,,88,87,50,68,6,9,,1
2025-01-21T2100,2404A,112.5224,33.0122,南阳市,瓦房庄,细颗粒物(PM2.5),166,160,171,126,133,110,,117,116,37,57,11,9,1.2,1.3
2025-01-21T2100,2405A,112.5003,32.9735,南阳市,汉画馆,细颗粒物(PM2.5),155,148,159,118,119,98,,116,116,45,58,8,7,1.3,1.4
2025-01-21T2100,2406A,112.5573,33.027,南阳市,气象站,细颗粒物(PM2.5),170,185,170,129,115,115,,136,136,36,45,11,9,1.1,1.1
2025-01-21T2100,2407A,112.5481,32.9689,南阳市,理工学院,细颗粒物(PM2.5),156,150,154,119,127,108,,137,137,39,64,10,9,0.9,1.1
2025-01-21T2100,4008A,112.5234,32.9922,南阳市,卧龙区政府,细颗粒物(PM2.5),155,153,163,118,123,111,,112,111,41,71,10,8,1.0,1.3
2025-01-21T2100,1234A,121.8358,29.911,宁波市,区环保大楼,细颗粒物(PM2.5),152,149,144,116,111,29,,132,105,131,77,10,9,1.2,1.4
2025-01-21T2100,1235A,121.56,29.82,宁波市,万里学院,细颗粒物(PM2.5),132,135,150,100,113,112,,149,146,41,72,6,7,1.0,1.1
2025-01-21T2100,1236A,121.713,29.9572,宁波市,龙赛医院,细颗粒物(PM2.5),114,119,167,86,123,99,,124,124,62,82,11,12,0.9,1
2025-01-21T2100,1239A,121.633,29.7733,宁波市,钱湖水厂,细颗粒物(PM2.5),123,129,142,93,113,103,,163,155,28,35,6,6,,1.1
2025-01-21T2100,1240A,121.5856,29.8635,宁波市,太古小学,细颗粒物(PM2.5),123,124,153,93,116,123,,140,137,31,66,10,10,1.0,1.2
2025-01-21T2100,1241A,121.524,29.8674,宁波市,市环境监测中心,细颗粒物(PM2.5),134,137,162,102,114,123,,144,142,36,63,9,9,1.0,1.1
2025-01-21T2100,2871A,121.6147,29.9017,宁波市,万里国际学校,细颗粒物(PM2.5),110,138,162,83,112,152,,145,145,21,76,10,9,0.9,1.1
2025-01-21T2100,3710A,121.5594,29.8975,宁波市,白沙活动中心,细颗粒物(PM2.5),122,115,154,92,118,134,,136,134,28,67,8,8,0.8,1
2025-01-21T2100,2339A,119.5001,26.6946,宁德市,金涵水库,,,,,,,,,,,,,,,,
2025-01-21T2100,2341A,119.5388,26.6612,宁德市,宁德市监测站,细颗粒物(PM2.5),78,70,64,57,62,106,,144,136,13,13,4,5,0.5,0.6
2025-01-21T2100,3209A,119.5231,26.6562,宁德市,宁德一中,细颗粒物(PM2.5),73,64,64,53,60,100,,150,140,21,18,3,4,0.6,0.6
2025-01-21T2100,2618A,98.8601,25.8567,怒江傈僳族自治州,州监测站,,46,46,38,24,23,54,,80,78,23,13,5,4,0.6,0.5
2025-01-21T2100,2619A,98.8546,25.8417,怒江傈僳族自治州,泸水一中,,50,50,31,23,24,18,,66,59,44,18,9,8,1.1,0.5
2025-01-21T2100,1888A,101.6891,26.571,攀枝花市,弄弄坪,细颗粒物(PM2.5),59,65,83,42,55,66,,96,96,34,44,25,35,1.2,1.9
2025-01-21T2100,1889A,101.5769,26.5928,攀枝花市,河门口,细颗粒物(PM2.5),70,82,69,51,47,69,,104,104,33,33,14,17,1.1,1.3
2025-01-21T2100,1890A,101.7169,26.585,攀枝花市,炳草岗,颗粒物(PM10),55,59,80,34,53,41,,93,91,52,48,15,18,0.8,1.2
2025-01-21T2100,1891A,101.7369,26.5008,攀枝花市,仁和,细颗粒物(PM2.5),69,78,68,50,48,51,,102,97,29,30,11,18,0.9,1.3
2025-01-21T2100,2835A,101.7227,26.567,攀枝花市,四十中小,细颗粒物(PM2.5),82,101,94,60,60,28,,85,71,69,51,24,30,1.4,1.6
2025-01-21T2100,1604A,122.0303,41.1489,盘锦市,开发区,颗粒物(PM10),63,75,51,40,35,38,,70,63,33,30,14,9,1.0,1
2025-01-21T2100,1605A,122.0485,41.0883,盘锦市,兴隆台,颗粒物(PM10),61,71,49,41,30,34,,68,60,40,35,25,12,0.8,0.8
2025-01-21T2100,1606A,121.8297,41.1028,盘锦市,新生街道,颗粒物(PM10),57,64,50,37,32,35,,74,60,42,38,15,11,0.8,0.9
2025-01-21T2100,1832A,113.3257,33.742,平顶山市,新华旅馆,细颗粒物(PM2.5),242,288,229,192,145,73,,80,80,47,78,10,9,1.0,1
2025-01-21T2100,1833A,113.2919,33.737,平顶山市,规划设计院,细颗粒物(PM2.5),251,294,250,201,161,82,,88,88,39,69,10,9,1.0,1.1
2025-01-21T2100,1834A,113.182,33.774,平顶山市,平顶山工学院,细颗粒物(PM2.5),233,324,235,183,133,85,,93,93,34,40,12,13,1.0,0.9
2025-01-21T2100,3204A,113.3025,33.73,平顶山市,规划局,细颗粒物(PM2.5),242,283,214,192,160,77,,96,96,47,78,8,10,1.4,0.9
2025-01-21T2100,3594A,112.8867,33.9116,平顶山市,石龙区,细颗粒物(PM2.5),234,245,180,184,129,79,,95,93,41,43,15,13,1.3,1.1
2025-01-21T2100,2656A,106.6692,35.5461,平凉市,聚贤嘉苑,细颗粒物(PM2.5),85,95,66,63,41,50,,108,96,65,42,16,15,0.9,0.8
2025-01-21T2100,2657A,106.7021,35.5307,平凉市,博物馆,细颗粒物(PM2.5),94,108,83,70,50,63,,102,94,64,53,26,24,1.2,1.1
2025-01-21T2100,2347A,114.0997,27.5002,萍乡市,武功山,细颗粒物(PM2.5),68,64,45,49,32,93,,123,118,19,15,9,10,1.1,0.9
2025-01-21T2100,2348A,113.8385,27.6434,萍乡市,中医院,细颗粒物(PM2.5),114,164,110,86,65,23,,128,107,82,37,12,15,1.6,1.6
2025-01-21T2100,2349A,113.8493,27.6253,萍乡市,市政府车库,细颗粒物(PM2.5),119,152,99,90,76,9,,126,104,98,41,14,17,3.8,2.2
2025-01-21T2100,2350A,113.8676,27.6435,萍乡市,市环保局,细颗粒物(PM2.5),83,99,102,61,74,54,,121,112,73,43,16,17,1.5,1.4
2025-01-21T2100,2351A,113.866,27.6198,萍乡市,安源区政府,细颗粒物(PM2.5),135,145,108,103,70,48,,118,106,55,38,14,16,1.8,1.7
2025-01-21T2100,2319A,119.0141,25.4325,莆田市,荔城区仓后路,细颗粒物(PM2.5),65,55,56,47,48,135,,153,152,17,16,2,3,0.8,0.7
2025-01-21T2100,2320A,119.0015,25.4553,莆田市,莆田市监测站,细颗粒物(PM2.5),60,,52,43,42,149,,158,158,15,17,4,5,0.4,0.4
2025-01-21T2100,2321A,119.1119,25.4561,莆田市,涵江区六中,,,,59,41,50,144,,162,160,15,20,3,4,0.5,0.5
2025-01-21T2100,2322A,119.1013,25.3215,莆田市,秀屿区政府,细颗粒物(PM2.5),100,,56,75,55,141,,165,159,23,20,9,3,0.6,0.5
2025-01-21T2100,2323A,118.981,25.4792,莆田市,东圳水库,,,,,,,,,,,,,,,,
2025-01-21T2100,2392A,115.0312,35.7636,濮阳市,环保局,细颗粒物(PM2.5),225,211,153,175,132,56,,92,88,56,44,15,12,1.4,1.1
2025-01-21T2100,2394A,115.0574,35.7609,濮阳市,油田运输公司,细颗粒物(PM2.5),232,232,177,182,139,53,,89,85,57,45,12,11,1.4,1.1
