timepoint,stationcode,longitude,latitude,area,positionname,primarypollutant,aqi,pm10,pm10_24h,pm2_5,pm2_5_24h,o3,o3_24h,o3_8h,o3_8h_24h,no2,no2_24h,so2,so2_24h,co,co_24h
2024-03-12T1300,2566A,102.1879,31.914,阿坝藏族羌族自治州,州农科所,,,,,7,6,32,,20,20,8,11,9,9,1.6,1.5
2024-03-12T1300,2568A,102.2502,31.8896,阿坝藏族羌族自治州,马师校,,30,9,14,9,13,94,,58,58,7,15,4,4,0.6,0.5
2024-03-12T1300,3994A,102.2165,31.9024,阿坝藏族羌族自治州,马尔康中学西区,,,20,15,4,7,99,,67,67,4,9,,4,,0.5
2024-03-12T1300,2695A,80.292,41.1694,阿克苏地区,电视台,颗粒物(PM10),127,203,209,60,61,56,,46,45,38,40,9,7,1.2,1.2
2024-03-12T1300,2696A,80.2613,41.1551,阿克苏地区,艺术中心,颗粒物(PM10),122,194,198,57,58,75,,52,52,31,45,9,10,1.3,1.8
2024-03-12T1300,2204A,105.6467,38.8363,阿拉善盟,西城区西花园,,34,32,32,14,13,106,,81,75,7,10,11,9,0.8,0.8
2024-03-12T1300,2205A,105.6985,38.8411,阿拉善盟,蒙二幼,,32,29,30,11,9,101,,86,86,9,11,7,5,0.4,0.4
2024-03-12T1300,2206A,105.724,38.8516,阿拉善盟,环保局新楼,,,,19,,7,105,,104,104,7,6,7,6,0.5,0.5
2024-03-12T1300,2708A,88.1264,47.8517,阿勒泰地区,市站,,29,18,46,13,11,90,,76,72,20,24,12,6,0.4,0.4
2024-03-12T1300,2630A,80.1161,32.5,阿里地区,阿里监测站,,32,6,5,4,3,100,,91,87,4,4,11,9,0.5,0.5
2024-03-12T1300,3192A,80.0903,32.5028,阿里地区,阿里藏医院,,33,6,8,4,3,105,,99,93,2,3,7,9,0.3,0.3
2024-03-12T1300,2642A,109.0318,32.6537,安康市,香溪洞,颗粒物(PM10),60,70,46,26,19,100,,64,64,13,12,9,8,0.7,0.7
2024-03-12T1300,2643A,109.0281,32.6939,安康市,安康市监测站,颗粒物(PM10),53,56,48,25,26,93,,41,41,15,27,18,10,0.7,0.9
2024-03-12T1300,2644A,109.0072,32.6975,安康市,汉滨区检察院,颗粒物(PM10),52,54,39,26,24,90,,42,42,17,19,14,9,0.6,0.6
2024-03-12T1300,2291A,117.0809,30.5177,安庆市,环科院,细颗粒物(PM2.5),73,89,100,53,60,145,,88,88,17,33,10,11,0.8,0.9
2024-03-12T1300,2292A,117.0331,30.5119,安庆市,马山宾馆,颗粒物(PM10),76,102,103,49,61,149,,84,84,19,41,11,12,0.8,0.9
2024-03-12T1300,2294A,116.9896,30.6145,安庆市,安庆大学,颗粒物(PM10),72,93,107,51,63,145,,99,99,18,29,12,19,0.6,0.8
2024-03-12T1300,3173A,117.0598,30.5351,安庆市,市人大,颗粒物(PM10),75,100,103,54,63,146,,92,92,14,27,10,11,0.8,0.9
2024-03-12T1300,3123A,105.9408,26.2431,安顺市,凤凰山,,32,24,25,22,20,94,,78,78,8,13,12,19,0.7,0.7
2024-03-12T1300,3124A,105.9439,26.2564,安顺市,金钟山,,32,30,27,22,18,96,,86,82,7,10,9,13,0.6,0.5
2024-03-12T1300,3125A,105.8983,26.2481,安顺市,娄家坡,,45,32,24,31,19,95,,78,78,6,10,10,17,0.7,0.7
2024-03-12T1300,1819A,114.3551,36.1017,安阳市,红庙街,颗粒物(PM10),64,78,142,42,74,118,,85,85,11,27,4,6,0.7,0.9
2024-03-12T1300,1820A,114.361,36.0681,安阳市,银杏小区,细颗粒物(PM2.5),59,52,127,42,82,117,,87,87,5,18,7,8,0.5,0.8
2024-03-12T1300,3141A,114.3922,36.0878,安阳市,信访局,颗粒物(PM10),68,86,148,42,88,120,,91,91,9,23,5,7,0.5,0.7
2024-03-12T1300,3669A,114.4705,36.0637,安阳市,左辅环卫站,细颗粒物(PM2.5),64,64,150,46,80,118,,86,86,7,21,6,7,0.5,0.7
2024-03-12T1300,3703A,114.2917,36.0949,安阳市,安钢职工学校,细颗粒物(PM2.5),62,62,160,44,75,117,,92,92,10,24,7,11,0.6,0.9
2024-03-12T1300,1748A,123.044,41.1196,鞍山市,深沟寺,,35,35,94,18,63,103,,64,64,9,44,8,9,0.4,0.9
2024-03-12T1300,1749A,123.011,41.0931,鞍山市,太阳城,,45,45,83,23,56,106,,52,52,17,41,16,14,1.2,1.3
2024-03-12T1300,1750A,123.0485,41.1442,鞍山市,太平,,32,30,115,16,82,102,,48,48,11,51,6,8,0.4,1.1
2024-03-12T1300,1751A,122.9642,41.0971,鞍山市,铁西三道街,,39,39,102,16,73,108,,48,48,13,52,12,15,0.4,1.3
2024-03-12T1300,1752A,122.9341,41.0833,鞍山市,铁西工业园区,颗粒物(PM10),52,53,118,17,87,107,,52,52,14,55,10,15,0.5,1.4
2024-03-12T1300,1753A,123.022,41.0821,鞍山市,明达新区,颗粒物(PM10),54,57,80,24,56,94,,44,44,21,44,18,15,1.1,1.1
2024-03-12T1300,2195A,107.4212,40.761,巴彦淖尔市,附二中,,45,45,66,16,31,88,,57,57,9,18,6,21,0.3,0.5
2024-03-12T1300,2196A,107.37,40.7372,巴彦淖尔市,市环保大楼,,47,47,54,13,30,91,,57,55,7,13,4,7,0.4,0.4
2024-03-12T1300,1956A,86.1472,41.7538,巴音郭楞蒙古自治州,孔雀公园,颗粒物(PM10),139,227,230,49,60,97,,70,62,11,27,5,8,0.3,0.5
2024-03-12T1300,1957A,86.1972,41.7166,巴音郭楞蒙古自治州,棉纺厂,颗粒物(PM10),141,232,271,33,64,102,,56,55,5,31,3,4,0.3,0.5
2024-03-12T1300,1958A,86.2357,41.7173,巴音郭楞蒙古自治州,经济开发区,颗粒物(PM10),124,198,226,49,57,108,,93,93,5,12,5,7,0.3,0.4
2024-03-12T1300,2914A,106.7677,31.8794,巴中市,苏山坪,,49,49,40,27,24,72,,93,68,20,13,4,5,0.4,0.4
2024-03-12T1300,3182A,106.7656,31.8545,巴中市,丽阳花园,"颗粒物(PM10),细颗粒物(PM2.5)",53,56,52,37,34,61,,30,30,32,38,6,5,0.7,0.7
2024-03-12T1300,3183A,106.7418,31.8654,巴中市,圣泉水务公司,,45,45,43,27,28,62,,46,46,24,33,6,5,0.5,0.6
2024-03-12T1300,3616A,106.7616,31.8344,巴中市,市中心医院,,50,50,52,31,34,58,,23,23,27,35,6,6,0.6,0.6
2024-03-12T1300,2235A,122.7911,45.6077,白城市,洮北区环保局,,33,33,40,8,17,104,,91,91,8,11,6,6,0.4,0.4
2024-03-12T1300,2236A,122.8738,45.5725,白城市,市环保局,,,52,43,10,18,,,82,82,4,15,6,7,0.4,0.5
2024-03-12T1300,2231A,126.4219,41.9171,白山市,喜丰,,32,25,43,12,27,100,,67,67,7,18,10,16,0.7,0.9
2024-03-12T1300,2232A,126.4077,41.9419,白山市,环保局,,30,27,56,15,30,94,,62,62,8,20,8,10,0.7,0.8
2024-03-12T1300,2647A,104.1724,36.5446,白银市,第三小学,颗粒物(PM10),88,126,105,55,33,66,,70,64,41,25,138,98,1.1,0.8
2024-03-12T1300,2648A,104.1465,36.5482,白银市,动力公司,颗粒物(PM10),82,114,92,44,32,98,,72,72,30,23,121,51,1.3,0.7
2024-03-12T1300,2512A,106.6103,23.9011,百色市,市监测站,颗粒物(PM10),90,130,61,52,31,86,,28,28,33,32,32,14,1.0,0.8
2024-03-12T1300,2513A,106.6538,23.8859,百色市,市中心血站,颗粒物(PM10),94,137,57,46,38,94,,32,32,17,26,23,17,0.9,0.9
2024-03-12T1300,3406A,106.6085,23.8798,百色市,祈福高中,细颗粒物(PM2.5),87,103,60,64,39,84,,27,27,24,29,36,14,1.2,1
2024-03-12T1300,2270A,117.396,32.939,蚌埠市,工人疗养院,细颗粒物(PM2.5),100,122,124,75,61,132,,100,100,12,25,8,9,0.7,0.6
2024-03-12T1300,2271A,117.3605,32.9427,蚌埠市,百货大楼,细颗粒物(PM2.5),97,117,125,72,62,131,,103,103,11,29,6,6,0.8,0.8
2024-03-12T1300,2273A,117.4185,32.8911,蚌埠市,蚌埠学院,细颗粒物(PM2.5),89,95,124,66,62,125,,97,97,13,25,8,8,0.6,0.6
2024-03-12T1300,2274A,117.3533,32.9673,蚌埠市,淮上区政府,细颗粒物(PM2.5),105,122,125,79,66,128,,92,92,11,27,8,8,0.6,0.6
2024-03-12T1300,2275A,117.3145,32.8977,蚌埠市,高新区,细颗粒物(PM2.5),95,97,126,71,66,134,,109,109,13,37,7,8,0.7,0.6
2024-03-12T1300,3715A,117.3092,32.9314,蚌埠市,蚌埠田家炳中学,细颗粒物(PM2.5),95,121,135,71,61,131,,104,104,18,51,8,11,0.6,0.6
2024-03-12T1300,1585A,109.8756,40.6532,包头市,市环境监测站,,31,31,37,9,18,93,,49,49,11,21,14,12,0.3,0.5
2024-03-12T1300,1587A,109.9991,40.5842,包头市,包头八中,,33,33,44,17,18,83,,40,40,12,25,11,14,0.7,0.9
2024-03-12T1300,1588A,109.8538,40.6821,包头市,青山宾馆,,28,27,31,18,15,89,,47,47,15,22,27,12,0.7,0.7
2024-03-12T1300,1589A,109.8642,40.6288,包头市,惠龙物流,,29,26,37,7,16,92,,51,51,14,22,12,13,0.5,0.5
2024-03-12T1300,1590A,110.0377,40.5546,包头市,东河鸿龙湾,,27,21,36,11,16,85,,46,46,14,25,11,11,0.4,0.5
2024-03-12T1300,3283A,109.9154,40.5685,包头市,滨河大厦,,,28,30,17,15,89,,36,36,,26,12,10,,0.5
2024-03-12T1300,3419A,109.9447,40.6261,包头市,包头市委党校,,,,30,,15,,,42,42,10,20,,13,0.3,0.4
2024-03-12T1300,3683A,109.8331,40.6576,包头市,昆区政府,,38,38,36,18,16,87,,51,47,18,22,30,12,0.7,0.6
2024-03-12T1300,1930A,107.185,34.3063,宝鸡市,庙沟村,,49,49,56,18,24,74,,49,40,13,16,10,9,0.3,0.7
2024-03-12T1300,1931A,107.0708,34.3017,宝鸡市,竹园沟,颗粒物(PM10),58,66,50,20,22,89,,52,52,22,23,7,5,0.4,0.3
2024-03-12T1300,1932A,107.1906,34.3672,宝鸡市,三陆医院,颗粒物(PM10),58,66,81,20,33,86,,36,36,22,39,8,16,0.4,0.4
2024-03-12T1300,1933A,107.1431,34.3547,宝鸡市,监测站,颗粒物(PM10),51,52,65,26,29,85,,42,42,18,29,7,5,0.4,0.5
2024-03-12T1300,1934A,107.1186,34.3739,宝鸡市,技工学校,,49,49,77,14,33,88,,46,46,24,31,8,8,0.5,0.5
2024-03-12T1300,1935A,107.3906,34.3528,宝鸡市,陈仓区环保局家属楼,,50,50,92,18,42,87,,43,43,26,49,10,10,0.5,0.5
2024-03-12T1300,1936A,107.2058,34.3497,宝鸡市,文理学院,颗粒物(PM10),53,55,74,26,34,87,,44,44,21,33,8,7,0.4,0.4
2024-03-12T1300,1937A,107.2386,34.3622,宝鸡市,三迪小学,颗粒物(PM10),52,54,81,23,35,84,,41,41,26,44,10,10,0.5,0.5
2024-03-12T1300,1051A,115.493,38.8632,保定市,游泳馆,颗粒物(PM10),62,73,117,40,62,117,,73,73,5,22,5,6,0.1,0.3
2024-03-12T1300,1052A,115.5213,38.8959,保定市,华电二区,细颗粒物(PM2.5),58,61,92,41,64,111,,75,75,9,24,5,5,0.1,0.4
2024-03-12T1300,1053A,115.4713,38.9108,保定市,接待中心,颗粒物(PM10),59,67,96,31,56,113,,73,73,2,18,7,6,0.3,0.4
2024-03-12T1300,1054A,115.4612,38.8416,保定市,地表水厂,颗粒物(PM10),72,94,135,24,62,115,,62,62,5,30,6,7,0.5,0.7
2024-03-12T1300,3581A,115.31981,38.95208,保定市,满城区生态环境分局,颗粒物(PM10),64,78,106,34,57,115,,63,63,13,24,7,7,0.2,0.5
2024-03-12T1300,3582A,115.47694,38.76408,保定市,清苑区第二中学,颗粒物(PM10),63,76,124,33,57,117,,66,66,12,32,10,10,0.3,0.5
2024-03-12T1300,3583A,115.62909,39.02311,保定市,徐水物探局,颗粒物(PM10),65,80,120,29,58,112,,68,68,10,27,5,6,0.4,0.5
2024-03-12T1300,4004A,115.4202,38.8656,保定市,双鹰农机,颗粒物(PM10),62,74,101,26,56,114,,64,64,11,26,8,8,0.5,0.6
2024-03-12T1300,4034A,115.5150,38.8590,保定市,植保所站,颗粒物(PM10),68,86,103,31,66,118,,76,76,6,22,4,4,0.3,0.5
2024-03-12T1300,2594A,99.1678,25.1081,保山市,市环境监测站,,,,57,,39,158,,112,98,,12,,6,0.7,0.7
2024-03-12T1300,2595A,99.1711,25.1328,保山市,市环保局,颗粒物(PM10),74,97,62,49,39,162,,124,108,6,9,9,8,0.7,0.6
2024-03-12T1300,1867A,109.1436,21.4086,北海市,海滩公园,,33,33,27,20,16,70,,60,48,10,12,13,12,0.6,0.6
2024-03-12T1300,1868A,109.0981,21.4661,北海市,新市环保局,细颗粒物(PM2.5),52,48,29,36,23,56,,56,38,20,16,10,9,0.8,0.7
2024-03-12T1300,1869A,109.1778,21.5233,北海市,北海工业园,颗粒物(PM10),63,75,39,24,23,69,,54,38,13,17,12,12,0.7,0.8
2024-03-12T1300,3400A,109.1911,21.4415,北海市,龙潭自来水厂,,50,50,34,34,27,76,,37,37,9,12,16,13,0.7,0.7
2024-03-12T1300,1001A,116.3621,39.8784,北京市,万寿西宫,,26,15,51,8,30,82,,62,62,17,26,3,3,0.2,0.4
2024-03-12T1300,1002A,116.2202,40.2915,北京市,定陵,,29,11,12,9,7,91,,77,77,6,6,1,1,0.1,0.1
2024-03-12T1300,1003A,116.4174,39.9289,北京市,东四,,25,13,37,7,20,79,,58,58,11,21,1,1,0.3,0.4
2024-03-12T1300,1004A,116.4072,39.8863,北京市,天坛,,27,12,51,7,34,85,,59,59,16,22,1,2,0.2,0.4
2024-03-12T1300,1005A,116.462,39.9365,北京市,农展馆,,25,11,32,5,18,77,,68,68,2,20,2,3,0.2,0.3
2024-03-12T1300,1006A,116.3392,39.9295,北京市,官园,,29,14,40,7,22,90,,69,69,12,18,2,3,0.3,0.5
2024-03-12T1300,1007A,116.2878,39.9611,北京市,海淀万柳,,26,13,30,7,16,82,,61,61,10,19,1,2,0.3,0.4
2024-03-12T1300,1008A,116.6636,40.135,北京市,顺义新城,,27,12,37,6,20,86,,68,68,11,18,1,2,0.2,0.3
2024-03-12T1300,1009A,116.6275,40.3275,北京市,怀柔镇,,29,14,12,8,6,90,,73,73,10,11,3,3,0.2,0.2
2024-03-12T1300,1010A,116.2296,40.217,北京市,昌平镇,,30,12,16,5,7,96,,80,80,5,7,3,2,0.2,0.2
2024-03-12T1300,1011A,116.3966,39.9821,北京市,奥体中心,,24,10,26,6,16,76,,62,62,6,19,3,3,0.2,0.3
2024-03-12T1300,1012A,116.184,39.9136,北京市,古城,,35,35,48,17,24,91,,55,55,11,21,3,3,0.3,0.4
2024-03-12T1300,3281A,115.9718,40.4529,北京市,延庆夏都,,26,20,19,13,11,83,,53,53,5,10,3,3,0.2,0.2
2024-03-12T1300,3417A,117.0709,40.1465,北京市,平谷新城,,31,8,48,4,29,99,,89,89,11,18,3,3,0.1,0.4
2024-03-12T1300,3418A,116.8336,40.4095,北京市,密云新城,,30,12,10,6,5,94,,86,86,1,2,1,1,0.2,0.2
2024-03-12T1300,3672A,116.1541,39.8204,北京市,丰台云岗,,37,37,69,21,39,92,,63,63,11,20,1,3,0.2,0.4
2024-03-12T1300,3673A,116.6804,39.9081,北京市,通州东关,,31,11,61,6,36,97,,64,64,10,24,1,4,0.2,0.5
2024-03-12T1300,3674A,115.9577,39.7603,北京市,房山燕山,,48,48,37,29,23,102,,73,73,14,14,3,2,0.2,0.3
2024-03-12T1300,3675A,116.4672,39.7733,北京市,大兴旧宫,,29,20,67,12,40,90,,59,59,11,21,1,2,0.2,0.5
2024-03-12T1300,3694A,115.986,40.4563,北京市,延庆石河营,,27,21,19,13,10,86,,49,49,3,13,1,3,0.3,0.2
2024-03-12T1300,3695A,116.6151,40.3053,北京市,怀柔新城,,29,13,11,8,6,90,,81,79,10,8,3,3,0.0,0
2024-03-12T1300,3696A,116.2545,39.8768,北京市,丰台小屯,,29,22,60,9,33,90,,56,56,13,25,3,3,0.3,0.5
2024-03-12T1300,3697A,116.84,40.3844,北京市,密云镇,,28,13,11,8,5,89,,65,65,2,8,2,2,0.2,0.2
2024-03-12T1300,1761A,123.8275,41.3064,本溪市,大峪,,30,29,58,21,44,84,,33,33,22,37,11,8,0.9,1
2024-03-12T1300,1762A,123.7567,41.3325,本溪市,溪湖,,31,31,91,14,60,94,,35,35,12,34,8,6,0.4,1.3
2024-03-12T1300,1763A,123.7169,41.3094,本溪市,彩屯,,29,23,92,16,72,91,,33,33,23,42,10,11,0.5,1.4
2024-03-12T1300,1764A,123.7669,41.2864,本溪市,东明,颗粒物(PM10),57,63,76,24,73,87,,33,33,20,45,15,12,0.9,1.3
2024-03-12T1300,1765A,123.7992,41.2664,本溪市,新立屯,颗粒物(PM10),61,72,44,39,36,87,,43,43,28,42,20,10,1.3,1.1
2024-03-12T1300,1766A,123.8142,41.3472,本溪市,威宁,颗粒物(PM10),51,51,62,20,45,78,,29,29,18,44,9,6,0.6,1
2024-03-12T1300,2587A,105.2864,27.3125,毕节市,八中,细颗粒物(PM2.5),58,54,43,41,30,90,,50,50,14,20,17,12,0.7,0.7
2024-03-12T1300,2588A,105.31,27.2944,毕节市,师专,"颗粒物(PM10),细颗粒物(PM2.5)",53,55,45,37,30,87,,44,44,15,24,19,13,0.7,0.7
2024-03-12T1300,3537A,105.3631,27.3533,毕节市,长征村,细颗粒物(PM2.5),74,69,40,54,29,104,,77,61,9,13,9,12,0.7,0.6
2024-03-12T1300,1629A,118.0018,37.3617,滨州市,第二水厂,,48,48,155,27,96,102,,73,73,16,29,5,9,0.5,0.9
2024-03-12T1300,1630A,117.9776,37.393,滨州市,北中新校,颗粒物(PM10),53,56,156,22,97,103,,62,62,16,32,9,12,0.4,0.8
2024-03-12T1300,3514A,117.9378,37.3956,滨州市,中海酒店,颗粒物(PM10),51,51,147,34,104,100,,60,60,16,24,10,13,0.4,0.8
2024-03-12T1300,3515A,117.9378,37.3553,滨州市,开发区一中,,,48,146,24,91,102,,65,65,6,13,10,14,,0.7
2024-03-12T1300,3516A,118.0917,37.694,滨州市,金海六路,颗粒物(PM10),52,54,139,24,91,111,,62,62,12,30,9,11,0.7,0.9
2024-03-12T1300,4028A,117.9956,37.3753,滨州市,滨州市西街道办事处,颗粒物(PM10),52,53,150,34,104,100,,69,69,18,32,11,14,0.6,1
2024-03-12T1300,2311A,115.8072,33.8399,亳州市,污水处理厂,颗粒物(PM10),85,119,132,59,53,129,,88,88,13,25,11,11,0.6,0.5
2024-03-12T1300,2312A,115.7789,33.8518,亳州市,三国揽胜宫,颗粒物(PM10),97,143,140,54,51,126,,91,91,20,26,12,12,0.7,0.6
2024-03-12T1300,3332A,115.7633,33.8034,亳州市,亳州学院,颗粒物(PM10),87,124,140,56,53,128,,94,94,12,17,11,11,0.9,0.8
2024-03-12T1300,2693A,82.0485,44.8556,博尔塔拉蒙古自治州,市党校,细颗粒物(PM2.5),63,70,60,45,25,86,,54,50,23,15,21,12,0.6,0.4
2024-03-12T1300,2694A,82.0806,44.8969,博尔塔拉蒙古自治州,市环保局,,,66,72,36,24,106,,52,52,14,24,10,11,,0.9
2024-03-12T1300,1071A,116.8842,38.2991,沧州市,沧县城建局,细颗粒物(PM2.5),72,63,142,52,106,117,,80,80,13,32,8,9,0.7,0.8
2024-03-12T1300,1072A,116.8584,38.3254,沧州市,电视转播站,细颗粒物(PM2.5),73,79,139,53,98,108,,66,66,12,33,10,11,0.2,0.4
2024-03-12T1300,1073A,116.8709,38.3228,沧州市,市环保局,颗粒物(PM10),66,81,137,41,98,110,,68,68,16,33,10,10,0.5,0.7
2024-03-12T1300,3324A,116.8136,38.3004,沧州市,河北水利电力学院,颗粒物(PM10),64,78,148,45,101,114,,69,69,15,29,9,12,0.3,0.7
2024-03-12T1300,2622A,97.1806,31.1273,昌都市,昌都监测站,,30,15,18,8,7,93,,62,62,6,11,8,8,0.6,0.7
2024-03-12T1300,3719A,97.1714,31.1406,昌都市,昌都会议中心,,32,9,10,9,6,101,,80,80,6,5,6,6,0.6,0.4
2024-03-12T1300,2690A,88.1236,43.8886,昌吉回族自治州,天山天池,,34,1,29,0,11,108,,91,91,5,8,10,10,0.5,0.6
2024-03-12T1300,2692A,87.2717,44.0297,昌吉回族自治州,新区政务中心,颗粒物(PM10),61,72,63,35,31,46,,19,19,38,41,9,8,1.2,1
2024-03-12T1300,3613A,87.3095,44.0142,昌吉回族自治州,亚心广场,颗粒物(PM10),63,75,70,36,30,47,,20,20,39,43,8,8,1.2,1.3
2024-03-12T1300,1119A,125.3325,43.9166,长春市,食品厂,颗粒物(PM10),52,53,63,31,36,90,,50,50,18,49,6,11,0.3,0.5
2024-03-12T1300,1120A,125.2863,43.9027,长春市,客车厂,,48,48,54,24,34,86,,51,51,17,48,6,9,0.4,0.6
2024-03-12T1300,1121A,125.2841,43.8463,长春市,邮电学院,,45,45,58,24,38,91,,49,49,14,43,8,11,0.4,0.5
2024-03-12T1300,1122A,125.3716,43.8772,长春市,劳动公园,,48,48,51,24,32,98,,51,51,11,39,3,6,0.2,0.5
2024-03-12T1300,1123A,125.3297,43.8805,长春市,园林处,颗粒物(PM10),53,56,46,28,26,90,,48,48,12,42,6,12,0.4,0.6
2024-03-12T1300,1124A,125.4605,43.79,长春市,净月潭,,45,45,35,23,21,88,,57,57,12,14,6,6,0.3,0.4
2024-03-12T1300,1126A,125.3863,43.8447,长春市,经开区环卫处,颗粒物(PM10),52,54,57,22,30,88,,44,44,16,43,5,5,0.4,0.5
2024-03-12T1300,1127A,125.245,43.7783,长春市,高新区管委会,,42,42,58,19,37,96,,53,53,12,40,9,9,0.4,0.6
2024-03-12T1300,1128A,125.1761,43.8325,长春市,岱山公园,,32,32,65,20,42,90,,50,50,9,47,7,10,0.4,0.6
2024-03-12T1300,1335A,113.0833,28.2325,长沙市,经开区环保局,颗粒物(PM10),56,62,83,32,45,128,,75,75,14,42,7,6,0.5,0.6
2024-03-12T1300,1336A,112.8872,28.2189,长沙市,高开区环保局,颗粒物(PM10),58,66,81,38,46,111,,67,67,15,31,8,7,0.8,0.9
2024-03-12T1300,1337A,113.0792,28.2053,长沙市,马坡岭,颗粒物(PM10),56,62,90,38,50,109,,60,60,17,47,9,7,0.5,0.6
2024-03-12T1300,1338A,112.9394,28.19,长沙市,湖南师范大学,颗粒物(PM10),62,74,88,31,49,120,,56,56,17,39,8,6,0.7,1
2024-03-12T1300,1339A,113.0178,28.1322,长沙市,雨花区环保局,颗粒物(PM10),59,68,83,37,47,116,,50,50,16,31,8,7,0.5,0.7
2024-03-12T1300,1340A,112.9792,28.2597,长沙市,伍家岭,颗粒物(PM10),68,86,98,46,47,99,,37,37,30,52,9,6,0.9,1
2024-03-12T1300,1341A,113.0014,28.1944,长沙市,火车新站,颗粒物(PM10),59,68,98,36,59,111,,35,35,17,58,6,5,0.8,1.1
2024-03-12T1300,1342A,112.9844,28.1178,长沙市,天心区环保局,颗粒物(PM10),61,72,79,32,40,119,,67,67,14,37,7,6,0.0,0.4
2024-03-12T1300,1343A,112.8908,28.1308,长沙市,湖南中医药大学,颗粒物(PM10),56,61,89,37,46,116,,51,51,18,47,12,6,0.5,0.6
2024-03-12T1300,1344A,112.9581,28.3611,长沙市,沙坪,,47,47,54,30,36,74,,46,46,24,23,6,6,0.6,0.5
2024-03-12T1300,1727A,113.1147,36.1547,长治市,清华站,,41,41,70,5,20,92,,47,47,18,30,10,17,0.4,0.7
2024-03-12T1300,1728A,113.1031,36.1989,长治市,监测站,,37,37,63,7,22,100,,52,52,16,27,12,18,0.2,1
2024-03-12T1300,1730A,113.0886,36.2125,长治市,审计局,,32,32,59,14,22,97,,50,50,14,25,13,22,0.3,0.5
2024-03-12T1300,1731A,113.0844,36.1856,长治市,长治八中,,32,31,74,20,27,101,,47,47,16,34,7,13,0.3,0.5
2024-03-12T1300,2845A,113.1569,36.1911,长治市,德盛苑,,37,37,57,14,20,96,,64,64,15,22,10,15,0.5,0.7
2024-03-12T1300,3568A,113.06,36.0464,长治市,向阳小学,,43,43,88,19,32,107,,62,62,19,35,11,16,0.4,0.5
2024-03-12T1300,3569A,112.8792,36.3144,长治市,屯留一中,,39,39,55,16,23,104,,69,69,9,23,15,14,0.4,0.5
2024-03-12T1300,3570A,113.235,36.3489,长治市,潞城四中,颗粒物(PM10),51,51,74,17,21,102,,55,55,16,28,7,9,0.3,0.4
2024-03-12T1300,1854A,111.6975,28.9703,常德市,市二中,细颗粒物(PM2.5),69,56,55,50,35,126,,61,61,14,19,10,8,0.7,0.7
2024-03-12T1300,1857A,111.7158,29.1456,常德市,白鹤山,细颗粒物(PM2.5),73,91,74,53,34,98,,47,47,8,9,6,4,0.6,0.5
2024-03-12T1300,3138A,111.7153,29.0289,常德市,武陵区永安,细颗粒物(PM2.5),64,64,64,46,36,130,,57,57,13,26,10,8,0.8,0.8
2024-03-12T1300,3139A,111.6892,28.9881,常德市,鼎城区玉霞,细颗粒物(PM2.5),62,58,60,44,36,124,,49,49,14,34,12,10,0.7,0.7
2024-03-12T1300,3140A,111.6625,29.0531,常德市,武陵区长庚,细颗粒物(PM2.5),64,63,62,46,35,132,,60,60,12,24,9,7,0.6,0.7
2024-03-12T1300,1196A,119.9633,31.762,常州市,市监测站,细颗粒物(PM2.5),115,160,126,87,72,144,,95,95,19,40,10,11,0.8,1
2024-03-12T1300,1200A,119.9468,31.7069,常州市,武进监测站,细颗粒物(PM2.5),114,144,115,86,75,143,,84,84,20,43,10,10,0.7,0.9
2024-03-12T1300,1201A,119.9255,31.9087,常州市,安家,细颗粒物(PM2.5),119,143,125,90,80,133,,78,78,20,59,10,15,0.8,0.9
2024-03-12T1300,3002A,119.9805,31.8174,常州市,行政中心,细颗粒物(PM2.5),120,146,106,91,69,138,,88,88,20,38,11,12,1.2,1.3
2024-03-12T1300,3003A,120.0522,31.7748,常州市,经开区,细颗粒物(PM2.5),114,148,118,86,70,141,,86,86,18,39,7,10,0.6,0.7
2024-03-12T1300,3010A,119.9025,31.7964,常州市,钟楼,细颗粒物(PM2.5),125,148,114,95,77,139,,79,79,21,42,10,12,0.9,0.9
2024-03-12T1300,3429A,119.8598,31.7066,常州市,武进经发区,细颗粒物(PM2.5),133,152,111,101,74,147,,81,81,23,38,10,11,0.8,0.9
2024-03-12T1300,3430A,119.5826,31.7245,常州市,金坛城区,细颗粒物(PM2.5),137,156,114,104,70,153,,90,90,16,26,11,12,0.9,1
2024-03-12T1300,2220A,120.4318,41.5881,朝阳市,西梁,,34,19,53,8,22,106,,66,66,7,28,8,11,0.4,0.7
2024-03-12T1300,2221A,120.4521,41.5646,朝阳市,河畔小区,,31,25,51,6,22,99,,66,66,7,22,5,8,0.5,0.7
2024-03-12T1300,2222A,120.4176,41.5648,朝阳市,八里堡,,33,15,59,12,29,104,,57,57,7,33,7,11,0.4,0.8
2024-03-12T1300,2223A,120.3806,41.5969,朝阳市,农业园区,,32,18,51,9,24,102,,64,64,6,26,6,10,0.3,0.5
2024-03-12T1300,1705A,116.6367,23.6719,潮州市,西园路,,36,19,13,9,12,115,,65,65,14,13,6,5,0.5,0.6
2024-03-12T1300,3026A,116.6183,23.6608,潮州市,市政府,,41,41,19,11,11,124,,74,74,16,17,7,8,0.8,0.9
2024-03-12T1300,4036A,116.6461,23.6761,潮州市,金山,,37,28,13,13,9,116,,58,58,13,12,8,6,0.6,0.8
2024-03-12T1300,2472A,113.0073,25.9061,郴州市,马头岭,,33,33,39,10,16,95,,44,44,14,22,5,4,0.7,0.7
2024-03-12T1300,2473A,113.0116,25.8226,郴州市,市职中,,33,29,41,23,29,103,,40,40,9,17,14,8,0.6,0.7
2024-03-12T1300,2474A,113.0161,25.8001,郴州市,兴隆步行街,,42,42,51,25,32,97,,36,36,16,29,15,6,0.6,0.8
2024-03-12T1300,2475A,113.0383,25.8071,郴州市,市审计局,,38,37,41,26,25,90,,38,38,18,26,16,6,0.7,0.8
2024-03-12T1300,2476A,113.0348,25.7759,郴州市,市环保局,,36,36,45,16,28,100,,45,45,13,26,8,5,0.6,0.7
2024-03-12T1300,1431A,103.9728,30.7236,成都市,金泉两河,细颗粒物(PM2.5),75,91,69,55,46,27,,49,37,62,38,6,4,0.8,0.7
2024-03-12T1300,1432A,104.176,30.6872,成都市,十里店,颗粒物(PM10),76,101,80,49,49,19,,22,21,72,49,5,3,0.8,0.7
2024-03-12T1300,1433A,104.079,30.5706,成都市,三瓦窑,颗粒物(PM10),66,81,68,39,38,46,,12,12,55,61,5,3,1.1,0.9
2024-03-12T1300,1434A,104.1114,30.63,成都市,沙河铺,细颗粒物(PM2.5),69,85,71,50,43,28,,21,21,63,49,4,3,0.8,0.8
2024-03-12T1300,1437A,104.0786,30.6531,成都市,君平街,,,,79,47,45,40,,38,38,,57,,6,0.7,0.7
2024-03-12T1300,1438A,103.613,31.0283,成都市,灵岩寺,,35,35,38,22,26,92,,114,99,21,18,5,8,0.6,0.7
2024-03-12T1300,2880A,104.0239,30.65639,成都市,大石西路,细颗粒物(PM2.5),73,84,73,53,46,54,,32,32,50,48,8,4,0.7,0.8
2024-03-12T1300,3136A,104.2725,30.5589,成都市,龙泉驿区区政府,细颗粒物(PM2.5),100,105,55,75,40,40,,51,29,57,29,6,3,1.0,0.7
2024-03-12T1300,3357A,104.0106,30.6931,成都市,金博路,颗粒物(PM10),61,71,91,38,52,50,,25,25,42,45,9,3,0.8,0.8
2024-03-12T1300,3359A,104.0578,30.5225,成都市,华阳,细颗粒物(PM2.5),79,92,62,58,40,27,,4,4,67,64,4,3,1.2,1.3
2024-03-12T1300,3487A,104.2394,30.5319,成都市,车城东七路,细颗粒物(PM2.5),107,109,124,80,44,36,,37,22,71,42,7,4,1.1,0.9
2024-03-12T1300,3488A,104.3853,30.7453,成都市,青白江技师分院,"颗粒物(PM10),细颗粒物(PM2.5)",78,106,67,57,34,18,,12,3,63,50,7,5,1.0,0.8
2024-03-12T1300,3489A,104.0789,30.4072,成都市,科学城,细颗粒物(PM2.5),110,127,53,83,35,25,,13,6,76,45,6,3,1.1,0.8
2024-03-12T1300,4011A,103.8506,30.6947,成都市,光华大道三段,细颗粒物(PM2.5),75,76,69,55,46,34,,33,21,57,43,7,4,1.0,1
2024-03-12T1300,1062A,117.9531,40.9081,承德市,铁路,,28,14,43,3,15,87,,53,53,13,20,8,9,0.2,0.4
2024-03-12T1300,1063A,117.9392,40.9763,承德市,中国银行,,29,17,37,3,12,90,,53,53,13,21,8,8,0.2,0.4
2024-03-12T1300,1064A,117.9503,40.928,承德市,开发区,,29,29,46,12,20,87,,46,46,14,24,6,7,0.3,0.4
2024-03-12T1300,1065A,117.8051,40.9655,承德市,文化中心,,30,21,60,3,17,93,,53,53,9,29,7,6,0.2,0.4
2024-03-12T1300,1066A,117.9268,41.0026,承德市,离宫,,25,18,34,8,18,80,,56,56,10,11,3,3,0.3,0.3
2024-03-12T1300,2314A,117.47,30.6618,池州市,池州学院,细颗粒物(PM2.5),72,86,83,52,50,140,,103,95,20,22,9,11,0.7,0.8
2024-03-12T1300,3237A,117.4918,30.6617,池州市,展览馆,颗粒物(PM10),70,90,83,46,46,148,,110,104,18,20,8,8,0.6,0.7
2024-03-12T1300,3333A,117.5627,30.695,池州市,第八中学,细颗粒物(PM2.5),87,103,77,64,43,143,,102,96,16,20,7,8,0.5,0.7
2024-03-12T1300,3334A,117.5038,30.6243,池州市,第十二中学,"颗粒物(PM10),细颗粒物(PM2.5)",77,104,80,56,45,148,,105,99,18,21,7,7,0.5,0.7
2024-03-12T1300,1744A,118.9233,42.2816,赤峰市,松山一中,,29,14,35,7,13,90,,56,56,9,28,10,12,0.5,0.7
2024-03-12T1300,1745A,118.9576,42.2728,赤峰市,哈达街,,28,20,31,8,14,88,,61,61,14,24,11,10,0.5,0.6
2024-03-12T1300,1746A,118.8788,42.2554,赤峰市,天义路,,28,26,28,2,12,87,,64,64,8,20,8,7,0.3,0.5
2024-03-12T1300,3286A,118.9359,42.3147,赤峰市,桥北物流园区,,31,16,24,10,15,97,,73,73,6,22,10,8,0.4,0.6
2024-03-12T1300,2521A,107.3476,22.4136,崇左市,市环保局江州分局,,35,35,32,23,18,105,,39,39,6,13,9,7,0.8,0.7
2024-03-12T1300,2522A,107.3702,22.3707,崇左市,城南新区,,35,30,31,24,19,90,,33,33,9,19,8,7,0.6,0.7
2024-03-12T1300,2298A,118.3093,32.3153,滁州市,老年大学,细颗粒物(PM2.5),97,107,96,72,54,141,,98,98,16,26,13,12,0.6,0.5
2024-03-12T1300,2299A,118.3244,32.2786,滁州市,人大宾馆,细颗粒物(PM2.5),107,119,99,80,53,138,,93,93,16,28,,10,,0.7
2024-03-12T1300,3207A,118.3118,32.3038,滁州市,市政府原办公楼,细颗粒物(PM2.5),90,95,89,67,51,140,,101,101,16,25,12,8,0.6,0.6
2024-03-12T1300,3331A,118.3267,32.2634,滁州市,图书馆,细颗粒物(PM2.5),97,130,98,72,53,140,,97,97,16,23,9,11,0.8,0.8
2024-03-12T1300,2605A,101.5482,25.0441,楚雄彝族自治州,州环境监测站,颗粒物(PM10),53,56,43,34,33,135,,65,65,6,23,7,8,0.8,0.8
2024-03-12T1300,2606A,101.538,25.0492,楚雄彝族自治州,市经济开发区,细颗粒物(PM2.5),55,53,45,39,34,123,,57,57,8,23,6,8,0.8,0.8
2024-03-12T1300,2548A,107.5277,31.2827,达州市,达州职业技术学院,颗粒物(PM10),57,63,75,33,36,78,,36,36,23,41,12,10,0.7,0.9
2024-03-12T1300,2549A,107.5086,31.2186,达州市,市环境监测站,颗粒物(PM10),59,68,70,29,36,56,,32,32,40,48,10,9,0.8,0.9
2024-03-12T1300,2550A,107.4988,31.2132,达州市,凤凰小区,颗粒物(PM10),64,78,71,41,41,53,,34,34,42,49,9,9,0.9,0.9
2024-03-12T1300,2551A,107.5082,31.1986,达州市,达县机关宾馆,颗粒物(PM10),59,68,70,41,42,60,,33,33,40,55,6,7,0.6,0.8
2024-03-12T1300,2552A,107.4644,31.2124,达州市,市政中心,颗粒物(PM10),60,70,74,34,41,54,,28,28,48,58,16,11,0.8,0.9
2024-03-12T1300,2614A,100.1542,25.7054,大理白族自治州,大理市环境监测站,颗粒物(PM10),55,59,42,36,29,153,,103,99,8,23,7,8,0.7,0.6
2024-03-12T1300,2615A,100.2171,25.5811,大理白族自治州,大理古城,细颗粒物(PM2.5),55,58,41,39,34,148,,147,139,6,9,6,8,0.6,0.6
2024-03-12T1300,1109A,121.612,38.9741,大连市,甘井子,,34,30,89,11,62,106,,60,60,11,27,11,8,0.4,0.7
2024-03-12T1300,1110A,121.565,38.9511,大连市,周水子,,33,33,92,15,69,94,,62,62,13,29,14,10,0,0.7
2024-03-12T1300,1111A,121.5637,38.8845,大连市,星海三站,,,32,78,16,59,,,66,66,12,31,,9,0.6,1
2024-03-12T1300,1112A,121.6302,38.9117,大连市,青泥洼桥,,30,27,82,14,61,93,,60,60,26,42,16,14,0.7,1.2
2024-03-12T1300,1113A,121.6251,38.8638,大连市,傅家庄,,30,19,76,12,54,96,,68,68,12,28,15,14,0.7,1
2024-03-12T1300,1114A,121.5213,38.8661,大连市,七贤岭,,28,21,83,9,60,88,,71,71,9,28,15,16,0.5,0.9
2024-03-12T1300,1115A,121.2529,38.8061,大连市,旅顺,,,21,88,11,70,,,60,60,7,24,9,10,,1.2
2024-03-12T1300,1116A,121.7485,39.1311,大连市,金州,,32,29,81,15,66,100,,71,71,12,26,14,13,0.4,0.9
2024-03-12T1300,1117A,121.7811,39.0496,大连市,开发区,,44,44,70,18,48,86,,77,63,19,28,16,7,0.6,0.8
2024-03-12T1300,1118A,121.9762,39.0631,大连市,双D港,,37,37,67,17,46,104,,80,80,10,18,14,10,0.6,0.8
2024-03-12T1300,1789A,124.81117,46.03138,大庆市,大同区,,,33,45,28,41,,,64,64,8,19,6,10,0.3,0.5
2024-03-12T1300,1790A,125.129,46.533,大庆市,龙凤区,,30,26,52,10,34,93,,68,68,8,33,2,7,0.3,0.5
2024-03-12T1300,1791A,124.902,46.408,大庆市,红岗区,,29,23,33,17,21,92,,72,72,5,24,4,7,0.3,0.4
2024-03-12T1300,1792A,125.153,46.586,大庆市,萨尔图区,,27,23,38,12,23,86,,67,67,9,32,8,10,0.4,0.6
2024-03-12T1300,1793A,124.9042,46.6215,大庆市,让胡路区,,30,20,46,11,28,94,,77,77,5,24,6,9,0.4,0.6
2024-03-12T1300,3481A,125.141,46.634,大庆市,萨区政府监测点,,30,27,36,10,26,95,,54,54,9,40,8,9,0.4,0.6
2024-03-12T1300,1723A,113.2994,40.0758,大同市,云冈宾馆,颗粒物(PM10),54,57,39,28,17,91,,53,53,19,20,13,9,0.6,0.9
2024-03-12T1300,1724A,113.3444,40.0917,大同市,大同大学,,46,46,30,25,18,90,,58,58,12,13,17,13,0.5,0.5
2024-03-12T1300,1725A,113.2661,40.1269,大同市,安家小村,颗粒物(PM10),65,79,39,36,19,81,,45,45,23,18,26,16,0.5,0.8
2024-03-12T1300,1726A,113.2711,40.0844,大同市,教育学院,颗粒物(PM10),64,77,39,27,18,80,,42,42,19,18,15,12,0.5,0.7
2024-03-12T1300,3282A,113.3397,40.0597,大同市,大同市卫生学校,颗粒物(PM10),55,59,36,24,17,92,,59,59,15,17,12,9,0.5,0.6
2024-03-12T1300,3565A,113.1367,40.1122,大同市,云冈站,颗粒物(PM10),63,75,36,30,15,79,,42,42,20,27,17,17,0.6,0.5
2024-03-12T1300,3566A,113.1186,40.2556,大同市,图书馆,,29,7,26,5,14,92,,54,54,9,12,10,11,0.4,0.5
2024-03-12T1300,3567A,113.5931,40.0461,大同市,区一中,,38,38,29,17,10,87,,56,56,9,11,8,4,0.5,0.5
2024-03-12T1300,3676A,113.2802,40.0995,大同市,第二人民医院,颗粒物(PM10),61,72,42,31,19,86,,54,54,24,22,19,12,0.6,0.8
2024-03-12T1300,2269A,124.1069,50.4097,大兴安岭地区,科技局,,28,,21,13,18,89,,68,68,4,6,7,7,0.4,0.4
2024-03-12T1300,3663A,124.1164,50.4278,大兴安岭地区,红旗社区,,29,,25,8,20,92,,51,51,6,20,8,11,0.3,0.4
2024-03-12T1300,1600A,124.3303,40.0625,丹东市,江湾东路,,31,19,31,9,27,98,,72,72,8,17,10,11,0.4,0.7
2024-03-12T1300,1601A,124.4256,40.1503,丹东市,临江后街,,29,16,30,5,23,92,,71,71,7,15,7,8,0.3,0.7
2024-03-12T1300,1602A,124.3933,40.1461,丹东市,元宝山,,28,14,25,6,22,88,,69,69,5,14,7,7,0.3,0.5
2024-03-12T1300,1603A,124.3633,40.1092,丹东市,民主桥,,28,24,29,8,20,89,,69,69,8,18,8,10,0.3,0.5
2024-03-12T1300,3541A,109.5726,19.5167,儋州市,第一中学子站,,23,9,14,4,7,71,,61,61,6,8,6,7,0.8,0.7
2024-03-12T1300,3542A,109.5567,19.5187,儋州市,东坡学校子站,,23,10,12,4,7,73,,60,60,4,6,7,7,0.8,0.8
2024-03-12T1300,2616A,98.5842,24.428,德宏傣族景颇族自治州,德宏州监测站,颗粒物(PM10),73,96,93,50,62,131,,41,41,22,37,20,22,0.8,0.8
2024-03-12T1300,3677A,98.5881,24.4368,德宏傣族景颇族自治州,芒市人民政府综合楼,细颗粒物(PM2.5),99,100,80,74,60,116,,70,58,31,23,18,13,0.9,0.8
2024-03-12T1300,1901A,104.4239,31.1208,德阳市,东山公园,细颗粒物(PM2.5),63,64,67,45,56,24,,75,47,63,36,2,3,0.8,0.7
2024-03-12T1300,1902A,104.3826,31.1317,德阳市,西小区,细颗粒物(PM2.5),87,79,81,64,68,40,,25,25,36,48,4,3,0.8,0.9
2024-03-12T1300,1904A,104.3553,31.1091,德阳市,耐火材料厂,细颗粒物(PM2.5),83,73,79,61,66,21,,44,25,35,38,9,6,0.5,0.6
2024-03-12T1300,3639A,104.4019,31.1244,德阳市,市教育局,细颗粒物(PM2.5),77,75,75,56,62,36,,28,28,39,52,2,3,0.8,0.8
2024-03-12T1300,1622A,116.3032,37.4674,德州市,儿童乐园,细颗粒物(PM2.5),73,88,148,53,87,108,,58,58,16,31,10,12,0.6,0.8
2024-03-12T1300,1624A,116.2991,37.4451,德州市,监理站,细颗粒物(PM2.5),70,85,143,51,83,122,,73,73,17,42,10,12,0.5,0.7
2024-03-12T1300,3066A,116.2721,37.4379,德州市,九衢泉纯净水厂,颗粒物(PM10),73,95,145,44,78,116,,66,66,22,32,7,10,0.5,0.7
2024-03-12T1300,3371A,116.3728,37.4403,德州市,开发区人民医院,颗粒物(PM10),71,92,150,48,81,122,,68,68,16,38,10,12,0.5,0.8
2024-03-12T1300,3372A,116.3572,37.4094,德州市,太阳城中学,细颗粒物(PM2.5),79,102,138,58,84,121,,71,71,14,20,9,11,0.8,0.9
2024-03-12T1300,3511A,116.5652,37.3319,德州市,陵城艺术中心,颗粒物(PM10),64,78,143,39,84,119,,79,79,12,20,9,11,0.6,0.8
2024-03-12T1300,2621A,99.7056,27.8317,迪庆藏族自治州,迪庆州站,,,,33,,19,,,124,124,11,10,4,4,0.5,0.4
2024-03-12T1300,3180A,99.7136,27.8094,迪庆藏族自治州,质量技术监督局,,42,42,27,29,13,116,,119,119,11,9,6,6,0.5,0.6
2024-03-12T1300,2663A,104.6241,35.5734,定西市,东关小学,,50,50,69,24,31,107,,41,41,8,24,10,14,0.4,0.7
2024-03-12T1300,2664A,104.6194,35.5934,定西市,供电公司,,,56,65,20,35,102,,23,23,,32,12,21,0.4,0.7
2024-03-12T1300,1389A,113.7547,23.0494,东莞市,莞城梨川,,43,30,26,20,21,135,,60,60,16,35,8,7,0.6,0.9
2024-03-12T1300,1390A,113.7944,23.0128,东莞市,东城石井,,46,33,26,22,16,145,,60,60,18,24,8,7,0.7,0.9
2024-03-12T1300,1391A,113.7383,22.9658,东莞市,南城西平,,47,32,28,18,17,148,,56,56,17,40,8,8,0.8,1
2024-03-12T1300,3319A,113.7338,23.0381,东莞市,万江金泰,,,30,27,19,18,87,,46,46,,33,9,9,0.5,0.9
2024-03-12T1300,3626A,113.7533,23.0202,东莞市,南城元岭,,,34,28,22,18,126,,59,59,,31,8,8,,1.1
2024-03-12T1300,3627A,113.7875,23.0457,东莞市,东城主山,,43,32,26,19,19,137,,61,61,14,33,8,7,0.7,1
2024-03-12T1300,1666A,118.6614,37.4309,东营市,市环保局,,48,48,124,27,83,116,,82,82,12,22,7,10,0.3,0.5
2024-03-12T1300,3036A,118.6904,37.4338,东营市,开发区管委会,颗粒物(PM10),56,62,120,34,82,105,,80,80,15,28,3,4,0.3,0.6
2024-03-12T1300,3365A,118.5719,37.565,东营市,垦利区民丰路,细颗粒物(PM2.5),58,61,120,41,82,117,,81,81,19,24,11,12,0.7,0.9
2024-03-12T1300,3498A,118.5055,37.8612,东营市,河口城区,细颗粒物(PM2.5),93,114,153,69,108,133,,79,79,15,23,11,8,1.0,0.9
2024-03-12T1300,3646A,118.4978,37.4623,东营市,胜利站,颗粒物(PM10),57,63,154,24,89,110,,73,73,15,29,9,11,0.5,0.9
2024-03-12T1300,3734A,118.35,37.26,东营市,理想之城,颗粒物(PM10),56,61,136,31,83,115,,74,74,35,33,6,6,0.5,0.8
2024-03-12T1300,1591A,110.0023,39.8129,鄂尔多斯市,综合楼,,,31,46,7,11,89,,76,76,16,23,9,7,,0.4
2024-03-12T1300,1592A,109.9486,39.8261,鄂尔多斯市,巴音孟克林场办事处,,34,34,49,17,17,79,,69,69,16,24,12,10,0.4,0.4
2024-03-12T1300,1593A,109.7736,39.5986,鄂尔多斯市,康泽苑,,32,19,36,9,10,101,,57,57,7,13,6,6,0.4,0.5
2024-03-12T1300,1594A,109.8119,39.5989,鄂尔多斯市,华泰汽车城,,32,22,39,12,16,100,,47,47,8,17,8,7,0.4,0.5
2024-03-12T1300,1595A,109.9734,39.7884,鄂尔多斯市,奥林花园,,28,24,43,9,13,89,,56,56,12,24,7,8,0.4,0.5
2024-03-12T1300,2436A,114.8938,30.3994,鄂州市,市政府,颗粒物(PM10),64,77,100,39,64,127,,64,64,17,46,10,12,0.7,0.8
2024-03-12T1300,2437A,114.8989,30.3714,鄂州市,赵家坝,颗粒物(PM10),68,85,90,48,61,144,,72,72,18,31,7,8,0.6,0.7
2024-03-12T1300,3654A,114.8094,30.4089,鄂州市,精准医疗中心,颗粒物(PM10),77,103,118,43,59,143,,69,69,16,46,24,10,0.6,0.8
2024-03-12T1300,2454A,109.4978,30.2981,恩施土家族苗族自治州,湖北民院,,,55,74,40,46,,,22,22,12,25,7,7,1.1,1.1
2024-03-12T1300,2455A,109.4707,30.2798,恩施土家族苗族自治州,州电力总公司,颗粒物(PM10),56,62,58,38,47,80,,26,26,15,30,7,7,1.0,1.1
2024-03-12T1300,3549A,109.5061,30.3772,恩施土家族苗族自治州,龙凤新区,细颗粒物(PM2.5),67,54,48,48,41,68,,30,30,24,21,6,6,0.8,0.9
2024-03-12T1300,2499A,108.3411,21.6158,防城港市,沙万,,46,46,37,24,27,54,,40,40,27,21,8,7,0.9,0.9
2024-03-12T1300,2500A,108.3514,21.7731,防城港市,防城档案局,,41,41,64,22,29,58,,41,41,19,24,9,6,0.9,0.9
2024-03-12T1300,2501A,108.3506,21.6414,防城港市,大海花园,,,52,33,26,17,42,,38,35,26,17,,8,1.3,1.1
2024-03-12T1300,1371A,113.1294,23.0067,佛山市,湾梁,,41,41,31,19,16,101,,35,35,19,34,7,8,0.7,1
2024-03-12T1300,1372A,113.1083,23.0478,佛山市,华材职中,,29,29,37,16,19,90,,29,29,17,43,7,5,0.5,0.9
2024-03-12T1300,1373A,113.144,23.0453,佛山市,南海气象局,,34,34,32,16,16,96,,33,33,20,41,8,7,0.4,0.8
2024-03-12T1300,1374A,113.2881,22.8094,佛山市,顺德苏岗,,44,31,23,24,16,140,,47,47,26,37,6,4,0.5,0.8
2024-03-12T1300,1376A,112.8383,22.8678,佛山市,高明孔堂,,45,36,32,31,21,96,,35,35,36,31,6,6,0.7,0.9
2024-03-12T1300,1377A,112.8836,23.1588,佛山市,三水监测站,,36,36,38,22,25,99,,37,37,23,40,7,8,0.6,1
2024-03-12T1300,1378A,112.867,23.185,佛山市,三水云东海,,34,26,31,18,19,106,,39,39,25,26,7,5,0.6,0.8
2024-03-12T1300,3625A,113.2544,22.7642,佛山市,容桂街道办,,37,36,27,14,18,118,,46,46,29,49,8,6,0.5,0.8
2024-03-12T1300,1282A,119.2681,26.0504,福州市,师大,,35,32,17,14,10,111,,70,70,11,18,3,3,0.6,0.7
2024-03-12T1300,1283A,119.2984,26.1028,福州市,五四北路,,36,32,19,25,14,115,,60,60,11,35,3,3,0.6,0.8
2024-03-12T1300,1284A,119.2648,26.0768,福州市,杨桥西路,颗粒物(PM10),52,54,18,21,7,114,,78,78,9,12,3,3,0.6,0.7
2024-03-12T1300,1285A,119.317,26.0746,福州市,紫阳,,,43,20,19,12,,,52,52,10,25,,2,0.7,0.8
2024-03-12T1300,3048A,119.5799,26.0936,福州市,九龙,,,51,20,16,11,119,,70,70,12,30,3,3,,0.7
2024-03-12T1300,3526A,119.5189,25.9664,福州市,吴航,,38,38,23,19,13,106,,55,55,17,30,5,4,0.7,0.8
2024-03-12T1300,1755A,123.7977,41.8491,抚顺市,望花区,颗粒物(PM10),57,63,96,25,82,85,,37,37,27,39,10,16,0.6,1.1
2024-03-12T1300,1756A,123.9161,41.8822,抚顺市,顺城区,颗粒物(PM10),59,68,98,36,84,87,,45,45,35,44,8,5,0.8,1
2024-03-12T1300,1757A,124.0436,41.8611,抚顺市,东洲区,细颗粒物(PM2.5),57,60,65,40,57,89,,57,57,23,16,11,6,0.9,0.7
2024-03-12T1300,1758A,123.9247,41.8642,抚顺市,新抚区,颗粒物(PM10),71,92,85,36,72,93,,54,54,33,36,8,6,0.7,1
2024-03-12T1300,1759A,124.0972,41.8961,抚顺市,大伙房水库,,50,50,43,35,37,95,,64,64,21,13,8,5,0.9,0.6
2024-03-12T1300,1760A,123.7086,41.8391,抚顺市,沈抚新城,,49,49,96,18,75,96,,35,35,15,36,7,7,0.4,1.3
2024-03-12T1300,2376A,116.2127,28.0814,抚州市,桐源党溪,,49,49,52,30,32,104,,44,44,5,9,29,7,0.5,0.5
2024-03-12T1300,2377A,116.3544,27.9831,抚州市,市站,颗粒物(PM10),52,53,58,30,36,117,,59,59,15,18,5,9,0.7,0.8
2024-03-12T1300,2378A,116.3565,27.963,抚州市,血防站,颗粒物(PM10),52,53,58,27,35,131,,52,,15,22,6,10,0.7,0.7
2024-03-12T1300,2379A,116.3564,28.0007,抚州市,采茶剧团,,47,47,58,27,38,122,,61,61,14,21,5,8,1.0,1
2024-03-12T1300,2380A,116.385,27.9647,抚州市,医学分院,颗粒物(PM10),51,51,57,23,29,116,,60,60,18,22,10,12,1.0,0.9
2024-03-12T1300,2207A,121.6094,41.998,阜新市,工业园区,,31,31,73,5,24,98,,71,71,12,32,5,10,0.8,1
2024-03-12T1300,2208A,121.6697,42.0279,阜新市,长青街,,32,24,58,4,27,102,,74,74,11,31,4,6,0.5,0.7
2024-03-12T1300,2209A,121.6673,42.0705,阜新市,农业园区,,31,29,37,5,14,99,,84,84,7,12,5,7,0.5,0.6
2024-03-12T1300,2210A,121.6717,42.0224,阜新市,东苑,,38,38,70,2,31,92,,67,67,9,34,7,12,0.4,1
2024-03-12T1300,2211A,121.6506,42.0498,阜新市,玉龙新城,,35,35,55,4,18,96,,66,66,7,36,8,10,0.5,0.7
2024-03-12T1300,2301A,115.8277,32.8929,阜阳市,市监测站,细颗粒物(PM2.5),78,84,113,57,52,119,,80,80,12,27,9,9,0.5,0.5
2024-03-12T1300,2303A,115.8554,32.8605,阜阳市,开发区,细颗粒物(PM2.5),78,98,143,57,48,118,,82,82,18,29,7,8,0.4,0.4
2024-03-12T1300,2875A,115.784,32.8892,阜阳市,阜阳职业技术学院,细颗粒物(PM2.5),74,83,119,54,52,121,,86,86,13,27,7,8,0.5,0.5
2024-03-12T1300,3468A,115.7901,32.8613,阜阳市,市规划展馆,颗粒物(PM10),82,113,123,58,51,123,,92,92,16,24,8,9,0.5,0.5
2024-03-12T1300,3469A,115.836,32.9183,阜阳市,枣园社区,颗粒物(PM10),77,103,120,55,46,122,,78,78,13,24,8,11,0.5,0.5
2024-03-12T1300,2669A,102.9099,34.9841,甘南藏族自治州,州政府,,38,36,54,26,29,83,,30,30,18,41,18,15,0.6,0.8
2024-03-12T1300,3380A,102.8914,34.9617,甘南藏族自治州,甘肃民族师范学院,颗粒物(PM10),55,60,56,36,22,96,,35,35,13,42,9,10,0.6,0.7
2024-03-12T1300,2570A,101.9603,30.0475,甘孜藏族自治州,水桥子,,30,7,22,7,11,96,,43,43,5,23,11,11,0.4,0.4
2024-03-12T1300,3065A,101.9533,29.9972,甘孜藏族自治州,州环保局,,30,22,25,5,5,95,,53,53,9,20,8,8,0.4,0.4
2024-03-12T1300,3414A,115.8347,28.932,赣江新区,桑海产业园,颗粒物(PM10),60,70,78,38,41,121,,52,52,16,34,11,9,0.5,0.6
2024-03-12T1300,2363A,114.9367,25.8664,赣州市,地委,,35,32,36,24,21,40,,13,13,19,25,18,16,1.0,1
2024-03-12T1300,2364A,114.9461,25.8481,赣州市,气象台,,,25,33,,23,50,,18,18,,27,5,8,1.0,0.9
2024-03-12T1300,2365A,114.9322,25.8333,赣州市,市图书馆,,,30,37,22,20,41,,18,18,,34,4,6,0.6,0.6
2024-03-12T1300,2366A,114.8905,25.8471,赣州市,华坚鞋城,,35,28,36,24,21,34,,13,13,14,25,8,10,0.8,0.9
2024-03-12T1300,3109A,115.0093,25.8613,赣州市,赣县区卫计委,细颗粒物(PM2.5),54,53,32,38,21,45,,24,24,22,23,7,6,0.7,0.7
2024-03-12T1300,2683A,106.2319,36.1417,固原市,马园,颗粒物(PM10),74,98,106,21,28,93,,70,70,18,32,5,5,0.5,1
2024-03-12T1300,2684A,106.2792,36.0022,固原市,监测站,颗粒物(PM10),68,85,88,24,31,99,,84,84,14,19,7,8,0.3,0.4
2024-03-12T1300,2685A,106.2375,36.0211,固原市,新区,颗粒物(PM10),68,85,90,21,25,97,,82,82,14,23,8,8,0.4,0.4
2024-03-12T1300,3522A,106.2177,35.9959,固原市,原州区十五小,颗粒物(PM10),70,89,91,26,26,108,,96,96,13,15,9,9,0.3,0.3
2024-03-12T1300,2544A,106.6303,30.4576,广安市,市委,细颗粒物(PM2.5),72,81,69,52,42,42,,75,51,27,25,4,5,0.8,0.7
2024-03-12T1300,2545A,106.6271,30.4663,广安市,友谊中学,细颗粒物(PM2.5),70,80,61,51,44,42,,77,48,42,30,4,5,1.1,0.8
2024-03-12T1300,2547A,106.6388,30.4551,广安市,广电花园,细颗粒物(PM2.5),82,77,62,60,46,43,,74,50,34,29,5,6,1.0,0.8
2024-03-12T1300,2902A,106.6351,30.4865,广安市,北辰小学,颗粒物(PM10),82,114,71,55,44,29,,73,39,50,24,7,8,1.0,0.8
2024-03-12T1300,2523A,105.8945,32.4535,广元市,黑石坡,,45,45,38,17,16,39,,86,57,51,19,5,4,0.7,0.5
2024-03-12T1300,2524A,105.821,32.4444,广元市,老城,颗粒物(PM10),60,70,51,35,23,26,,18,18,58,52,4,4,1.1,0.9
2024-03-12T1300,2526A,105.8628,32.4287,广元市,监测站,,38,37,41,26,24,30,,45,30,52,23,8,6,0.9,0.6
2024-03-12T1300,3617A,105.8047,32.4166,广元市,经开区,颗粒物(PM10),63,75,57,44,36,30,,19,19,48,39,9,8,0.8,0.7
2024-03-12T1300,1345A,113.2347,23.1423,广州市,广雅中学,,29,26,27,15,21,90,,34,34,21,47,5,6,0.9,1.3
2024-03-12T1300,1346A,113.2612,23.105,广州市,市五中,,32,32,32,19,23,96,,42,42,22,43,6,6,0.6,1
2024-03-12T1300,1348A,113.3478,23.0916,广州市,广东商学院,,35,35,26,22,21,105,,53,53,26,37,7,5,0.5,0.8
2024-03-12T1300,1349A,113.4332,23.1047,广州市,市八十六中,,44,44,26,22,16,116,,45,45,25,39,6,5,0.5,0.8
2024-03-12T1300,1350A,113.3505,22.9483,广州市,番禺中学,,47,47,27,14,17,117,,54,54,26,44,8,5,0.7,0.9
2024-03-12T1300,1351A,113.2146,23.3916,广州市,花都师范,,32,24,22,15,14,102,,55,55,19,28,6,5,0.5,0.7
2024-03-12T1300,1352A,113.2597,23.1331,广州市,市监测站,,31,31,33,20,20,98,,41,41,23,43,5,5,0.7,1
2024-03-12T1300,1353A,113.5618,23.312,广州市,九龙镇镇龙,,32,22,19,17,14,100,,42,42,8,22,6,5,0.6,0.8
2024-03-12T1300,1354A,113.2765,23.1544,广州市,麓湖,,33,29,22,16,13,103,,44,44,17,28,6,5,0.6,0.9
2024-03-12T1300,1355A,113.443,23.3035,广州市,帽峰山森林公园,,38,17,9,8,7,121,,70,70,6,8,7,7,0.5,0.7
2024-03-12T1300,2846A,113.3221,23.1322,广州市,体育西,,31,30,24,18,19,99,,53,53,22,36,6,6,0.4,0.7
2024-03-12T1300,3298A,113.5717,23.5491,广州市,从化街口,,30,18,22,13,16,95,,43,43,8,24,5,5,0.6,0.9
2024-03-12T1300,3299A,113.3472,23.3692,广州市,白云竹料,,31,29,28,17,18,99,,43,43,11,26,6,6,0.6,0.9
2024-03-12T1300,3300A,113.2981,23.237,广州市,白云嘉禾,,31,23,31,12,15,99,,41,41,19,41,7,7,0.6,1
2024-03-12T1300,3301A,113.4256,23.1716,广州市,黄埔科学城,,35,22,14,18,11,109,,57,57,18,27,5,5,0.7,0.9
2024-03-12T1300,3302A,113.3942,23.0483,广州市,番禺大学城,,43,,21,30,15,116,,52,52,23,40,10,4,0.7,1
2024-03-12T1300,3303A,113.4922,22.8168,广州市,南沙黄阁,,46,38,33,25,19,147,,57,57,27,45,6,8,0.8,1.1
2024-03-12T1300,3304A,113.5342,22.7896,广州市,南沙街,,45,43,27,18,15,141,,56,56,17,39,5,6,0.7,0.9
2024-03-12T1300,3443A,113.2902,23.5544,广州市,花都梯面,,35,23,12,15,10,109,,74,74,13,14,6,6,0.6,0.7
2024-03-12T1300,3445A,113.7858,23.7478,广州市,从化良口,,33,7,10,7,7,105,,64,64,4,9,4,4,0.5,0.8
2024-03-12T1300,3446A,113.8051,23.2614,广州市,增城荔城,,40,31,14,20,11,127,,76,76,9,12,6,6,0.7,0.7
2024-03-12T1300,2505A,109.568,23.1478,贵港市,德智高中,,31,31,30,16,21,93,,52,52,10,16,6,5,0.7,0.8
2024-03-12T1300,2506A,109.6047,23.0666,贵港市,江南子站,,32,19,57,15,35,100,,34,34,7,31,8,7,0.7,1
2024-03-12T1300,2507A,109.6014,23.0948,贵港市,贵城子站,,30,26,36,14,27,94,,42,42,10,26,9,9,0.7,0.9
2024-03-12T1300,2508A,109.5669,23.1065,贵港市,荷城子站,,30,29,40,12,22,94,,42,42,8,25,11,10,1.0,1.2
2024-03-12T1300,3405A,109.5886,23.1172,贵港市,新世纪学校,,32,27,39,17,23,102,,48,48,7,22,9,9,0.9,1.1
2024-03-12T1300,1439A,106.6899,26.5998,贵阳市,马鞍山,,32,29,47,5,24,100,,53,53,9,32,12,10,0.6,0.6
2024-03-12T1300,1440A,106.6971,26.5694,贵阳市,市环保站,,,,79,,46,97,,40,40,13,58,7,17,,1.2
2024-03-12T1300,1441A,106.6243,26.6266,贵阳市,鉴湖路,,48,48,52,9,24,108,,88,88,8,19,6,9,0.4,0.5
2024-03-12T1300,1442A,106.7487,26.6343,贵阳市,燕子冲,,34,34,43,9,28,107,,63,63,12,27,8,11,0.5,0.7
2024-03-12T1300,1443A,106.6555,26.4365,贵阳市,碧云窝,,44,44,55,5,28,106,,59,59,9,19,8,11,0.5,0.6
2024-03-12T1300,1444A,106.694,26.5161,贵阳市,中院村,,34,34,68,17,40,102,,48,48,10,43,11,23,0.4,0.8
2024-03-12T1300,1445A,106.7109,26.6027,贵阳市,红边门,,46,46,67,22,42,95,,44,44,13,55,4,31,0.4,1
2024-03-12T1300,1446A,106.7164,26.5699,贵阳市,新华路,,34,34,67,17,35,101,,54,54,11,50,9,22,0.5,1
2024-03-12T1300,1447A,106.674,26.5424,贵阳市,太慈桥,,34,34,49,9,29,96,,52,52,11,31,9,10,0.4,0.5
2024-03-12T1300,1862A,110.4144,25.3167,桂林市,电子科大尧山校区,,,41,39,26,22,93,,59,59,7,7,7,6,,0.4
2024-03-12T1300,1863A,110.2819,25.2697,桂林市,监测站,细颗粒物(PM2.5),58,64,57,41,34,108,,45,45,10,29,10,10,0.6,0.8
2024-03-12T1300,1864A,110.3089,25.2708,桂林市,龙隐路小学,颗粒物(PM10),59,68,50,37,31,101,,48,48,14,21,8,8,0.6,0.7
2024-03-12T1300,1865A,110.2869,25.2178,桂林市,八中,颗粒物(PM10),52,54,48,31,33,100,,42,42,12,25,6,6,0.7,0.8
2024-03-12T1300,3403A,110.1764,25.2381,桂林市,创业大厦,颗粒物(PM10),54,58,58,36,38,100,,36,36,10,28,10,15,0.6,0.8
2024-03-12T1300,3531A,110.296,25.1253,桂林市,旅游学院,,32,24,34,22,25,93,,38,38,6,18,9,7,0.6,0.7
2024-03-12T1300,2674A,100.2561,34.4714,果洛藏族自治州,玛沁县大武镇,,33,15,23,12,18,104,,67,67,4,9,8,10,0.4,0.5
2024-03-12T1300,1129A,126.5422,45.755,哈尔滨市,岭北,,35,20,37,17,31,111,,89,89,14,23,16,17,0.3,0.7
2024-03-12T1300,1130A,126.561,45.8167,哈尔滨市,松北商大,,30,22,40,17,27,96,,69,69,16,36,16,8,0.4,0.6
2024-03-12T1300,1131A,126.979,45.5419,哈尔滨市,阿城会宁,颗粒物(PM10),53,56,58,36,47,94,,71,71,20,27,16,16,0.4,0.5
2024-03-12T1300,1132A,126.599,45.7222,哈尔滨市,南岗学府路,,38,38,61,18,32,95,,65,65,13,33,10,13,0.3,0.5
2024-03-12T1300,1133A,126.689,45.7733,哈尔滨市,太平宏伟公园,,36,36,56,18,39,95,,54,54,10,38,13,11,0.5,0.7
2024-03-12T1300,1134A,126.635,45.7667,哈尔滨市,道外承德广场,,,40,45,12,28,96,,57,57,16,40,,13,0.4,0.9
2024-03-12T1300,1135A,126.685,45.7319,哈尔滨市,香坊红旗大街,,39,39,51,24,36,95,,54,54,17,41,14,13,0.6,0.8
2024-03-12T1300,1136A,126.6411,45.7258,哈尔滨市,动力和平路,,31,27,48,21,32,99,,64,64,13,38,6,11,0.4,0.6
2024-03-12T1300,1137A,126.593,45.7478,哈尔滨市,道里建国路,,46,37,50,32,42,89,,58,58,20,42,3,6,0.2,0.4
2024-03-12T1300,1138A,126.615,45.61,哈尔滨市,平房东轻厂,,38,38,44,23,37,94,,59,59,11,45,6,9,0.2,0.5
2024-03-12T1300,1139A,126.595,45.9855,哈尔滨市,呼兰师专,,40,40,54,20,46,86,,62,62,17,37,12,17,0.4,0.6
2024-03-12T1300,1140A,126.6206,45.6842,哈尔滨市,省农科院,,42,29,63,29,45,100,,62,62,9,48,9,15,0.3,0.7
2024-03-12T1300,2688A,93.5128,42.8172,哈密市,地区监测站,颗粒物(PM10),77,104,182,38,49,115,,91,91,12,21,3,4,0.3,0.4
2024-03-12T1300,2689A,93.4961,42.8328,哈密市,哈密师范学校,颗粒物(PM10),71,91,186,46,46,111,,89,89,17,30,7,8,0.4,0.6
2024-03-12T1300,2671A,100.9048,36.9639,海北藏族自治州,海晏县西海镇,,,33,32,26,14,97,,64,64,,10,,15,0.6,0.5
2024-03-12T1300,3867A,102.0738,36.5056,海东市,平安区公安北苑,颗粒物(PM10),55,59,54,35,22,72,,60,40,28,21,29,14,0.9,0.4
2024-03-12T1300,1410A,110.3232,20.0574,海口市,海南大学,,33,25,16,12,9,104,,75,75,7,10,8,8,0.5,0.5
2024-03-12T1300,1411A,110.283,20.0053,海口市,秀英海南医院,,30,23,14,10,8,93,,73,73,6,10,9,9,0.6,0.5
2024-03-12T1300,1412A,110.338,19.9969,海口市,海南师范大学,,29,23,15,13,10,92,,70,70,8,9,8,7,0.6,0.6
2024-03-12T1300,1413A,110.33,20.0356,海口市,龙华路环保局宿舍,,31,24,15,12,8,97,,70,70,7,10,8,8,0.5,0.5
2024-03-12T1300,3539A,110.5111,19.9736,海口市,桂林洋子站,,33,18,17,11,9,104,,71,71,6,8,7,7,0.5,0.5
2024-03-12T1300,2673A,100.6188,36.2866,海南藏族自治州,共和县恰卜恰镇,,49,,35,34,16,96,,63,53,9,20,15,13,0.5,0.5
2024-03-12T1300,2676A,97.3731,37.3753,海西蒙古族藏族自治州,德令哈市,颗粒物(PM10),53,55,30,5,10,99,,97,96,11,7,13,12,0.6,0.5
2024-03-12T1300,1048A,114.5302,36.6116,邯郸市,东污水处理厂,细颗粒物(PM2.5),67,62,137,48,78,106,,82,82,7,19,5,5,0.4,0.7
2024-03-12T1300,1049A,114.4918,36.5713,邯郸市,矿院,细颗粒物(PM2.5),62,70,121,44,65,98,,82,82,11,17,5,5,0.5,0.6
2024-03-12T1300,1050A,114.484,36.6133,邯郸市,丛台公园,"颗粒物(PM10),细颗粒物(PM2.5)",55,60,120,39,71,111,,85,85,11,18,7,6,0.6,0.8
2024-03-12T1300,3458A,114.7895,36.5593,邯郸市,香泉濮院小区,细颗粒物(PM2.5),63,65,136,45,74,115,,82,82,11,18,8,8,0.4,0.5
2024-03-12T1300,3579A,114.50634,36.77178,邯郸市,永年区实验高中,"颗粒物(PM10),细颗粒物(PM2.5)",58,66,140,41,81,120,,85,85,9,28,5,7,0.3,0.7
2024-03-12T1300,3580A,114.20016,36.44293,邯郸市,峰峰矿区临水派出所,,49,48,106,34,55,119,,103,103,6,13,9,10,0.4,0.6
2024-03-12T1300,2634A,106.9893,33.1842,汉中市,汉川机床厂子校,,,,41,,27,76,,44,44,11,11,5,4,0.5,0.6
2024-03-12T1300,2635A,107.0154,33.0706,汉中市,市监测站,颗粒物(PM10),52,54,61,29,41,86,,36,36,15,33,8,9,0.7,1
2024-03-12T1300,2636A,107.0089,33.1138,汉中市,鑫源开发区,,45,45,65,25,42,88,,36,36,15,36,8,11,0.6,0.9
2024-03-12T1300,2637A,107.007,33.0323,汉中市,南郑大河坎水厂,颗粒物(PM10),51,51,53,28,36,86,,33,33,14,25,10,9,0.6,0.7
2024-03-12T1300,1223A,120.2072,30.2111,杭州市,滨江,"颗粒物(PM10),细颗粒物(PM2.5)",70,90,69,51,37,144,,71,71,27,46,8,5,0.9,0.8
2024-03-12T1300,1224A,120.0633,30.2747,杭州市,西溪,,,106,48,71,30,143,,47,47,21,32,,8,0.8,0.8
2024-03-12T1300,1226A,120.3461,30.3153,杭州市,下沙,细颗粒物(PM2.5),89,121,96,66,50,134,,73,73,27,38,10,7,0.8,0.7
2024-03-12T1300,1227A,120.1269,30.2456,杭州市,卧龙桥,细颗粒物(PM2.5),82,83,48,60,34,151,,62,62,24,30,10,5,0.8,0.7
2024-03-12T1300,1228A,120.1903,30.2692,杭州市,浙江农大,细颗粒物(PM2.5),82,87,67,60,40,134,,62,62,23,43,10,6,0.9,0.7
2024-03-12T1300,1230A,120.1197,30.3119,杭州市,和睦小学,细颗粒物(PM2.5),93,118,71,69,42,134,,61,61,28,54,10,7,0.8,0.8
2024-03-12T1300,1231A,120.3019,30.4183,杭州市,临平镇,细颗粒物(PM2.5),102,132,83,76,58,135,,68,68,19,51,10,6,0.7,0.7
2024-03-12T1300,1232A,120.2697,30.1819,杭州市,城厢镇,细颗粒物(PM2.5),79,87,70,58,49,139,,50,50,30,45,12,9,0.8,0.8
2024-03-12T1300,1233A,120.0883,30.1808,杭州市,云栖,"颗粒物(PM10),细颗粒物(PM2.5)",63,75,52,45,33,147,,67,67,15,25,10,8,0.7,0.7
2024-03-12T1300,3557A,119.9464,30.0494,杭州市,镇二中,"颗粒物(PM10),细颗粒物(PM2.5)",52,53,53,36,43,128,,66,66,20,40,9,8,0.7,0.9
2024-03-12T1300,3558A,119.7183,30.2367,杭州市,市府大楼,颗粒物(PM10),56,61,55,37,39,139,,76,76,18,31,7,6,0.6,0.7
2024-03-12T1300,3656A,120.1556,30.2864,杭州市,消防大队,细颗粒物(PM2.5),87,96,67,64,48,145,,69,69,24,46,14,10,0.9,0.8
2024-03-12T1300,1270A,117.1959,31.7848,合肥市,明珠广场,颗粒物(PM10),64,78,101,34,45,121,,81,81,17,46,13,12,0.7,0.8
2024-03-12T1300,1271A,117.3072,31.8764,合肥市,三里街,"颗粒物(PM10),细颗粒物(PM2.5)",73,95,121,53,59,119,,75,75,18,61,8,8,0.7,0.9
2024-03-12T1300,1272A,117.2588,31.8707,合肥市,琥珀山庄,颗粒物(PM10),68,85,107,39,49,121,,78,78,19,55,6,5,0.4,0.7
2024-03-12T1300,1273A,117.1604,31.9052,合肥市,董铺水库,颗粒物(PM10),73,96,103,31,41,116,,77,77,8,31,4,4,0.5,0.5
2024-03-12T1300,1274A,117.25,31.8571,合肥市,长江中路,颗粒物(PM10),69,88,102,49,55,119,,89,89,12,38,8,8,0.7,0.8
2024-03-12T1300,1275A,117.266,31.9436,合肥市,庐阳区,颗粒物(PM10),76,102,111,51,47,118,,79,79,15,36,5,5,0.6,0.6
2024-03-12T1300,1276A,117.336,31.8586,合肥市,瑶海区,颗粒物(PM10),71,92,120,43,52,115,,75,75,10,64,7,7,0.6,0.7
2024-03-12T1300,1277A,117.3027,31.7964,合肥市,包河区,颗粒物(PM10),64,78,104,34,48,112,,70,70,17,62,6,7,0.3,0.4
2024-03-12T1300,1278A,117.2776,31.7385,合肥市,滨湖新区,颗粒物(PM10),67,83,101,34,49,118,,71,71,20,55,6,7,0.5,0.6
2024-03-12T1300,1279A,117.1318,31.8403,合肥市,高新区,颗粒物(PM10),65,80,99,34,47,116,,90,90,13,31,5,6,0.7,0.7
2024-03-12T1300,3464A,117.3803,31.9147,合肥市,高教基地,细颗粒物(PM2.5),74,92,106,54,50,130,,80,80,18,54,5,5,0.5,0.5
2024-03-12T1300,3614A,79.924,37.0877,和田地区,地区环保局,颗粒物(PM10),393,494,531,110,118,98,,74,74,8,21,8,10,0.7,0.9
2024-03-12T1300,3615A,79.9131,37.113,和田地区,市环保局,颗粒物(PM10),463,563,550,107,101,95,,54,54,9,30,7,9,0.5,1
2024-03-12T1300,2516A,108.2011,24.715,河池市,东仁乐园,颗粒物(PM10),54,57,44,30,26,46,,12,12,9,11,5,5,0.7,0.6
2024-03-12T1300,2517A,108.0497,24.6947,河池市,市环保站,,,56,47,37,35,87,,31,31,17,20,,9,0.6,0.6
2024-03-12T1300,2518A,108.0983,24.6989,河池市,市疾控中心,颗粒物(PM10),52,53,49,30,34,79,,23,23,22,29,12,9,0.7,0.7
2024-03-12T1300,1696A,114.6778,23.7569,河源市,源西,,,29,16,8,10,95,,54,54,,18,4,4,0.6,0.7
2024-03-12T1300,1697A,114.6944,23.7586,河源市,东埔,,47,47,22,10,11,100,,56,56,4,12,6,6,0.6,0.7
2024-03-12T1300,1698A,114.6892,23.7233,河源市,老城,,33,33,18,13,16,99,,45,45,4,17,6,5,0.4,0.7
2024-03-12T1300,1718A,115.4208,35.2464,菏泽市,气象局,颗粒物(PM10),72,94,149,47,73,122,,80,80,19,26,9,9,0.6,0.7
2024-03-12T1300,1719A,115.4747,35.2375,菏泽市,市政协,颗粒物(PM10),71,91,149,41,72,112,,71,71,15,28,5,8,0.5,0.6
2024-03-12T1300,3374A,115.5564,35.0891,菏泽市,定陶老年大学,细颗粒物(PM2.5),77,100,143,56,68,123,,80,80,14,27,8,8,0.6,0.7
2024-03-12T1300,3647A,115.4702,35.2706,菏泽市,菏泽医专,颗粒物(PM10),71,92,151,41,69,114,,71,71,15,26,6,8,0.5,0.7
2024-03-12T1300,2514A,111.5264,24.4172,贺州市,环保小区,,46,46,44,28,27,90,,36,36,15,20,7,7,0.7,0.8
2024-03-12T1300,2515A,111.5608,24.4078,贺州市,政协大楼,,41,41,45,21,20,99,,34,34,15,26,7,7,0.6,0.7
2024-03-12T1300,3534A,111.4744,24.4553,贺州市,西湾,,34,32,42,15,22,108,,39,39,9,17,8,7,0.7,0.8
2024-03-12T1300,2385A,114.17,35.9019,鹤壁市,市监测站,颗粒物(PM10),54,58,140,36,75,116,,86,86,8,24,9,10,0.3,0.7
2024-03-12T1300,2386A,114.2956,35.7511,鹤壁市,市交警支队,颗粒物(PM10),58,66,133,35,71,117,,86,86,12,26,7,11,0.4,0.7
2024-03-12T1300,2387A,114.2878,35.7306,鹤壁市,迎宾馆,细颗粒物(PM2.5),60,64,128,43,65,120,,86,86,19,32,9,10,0.6,0.8
2024-03-12T1300,3474A,114.2617,35.6822,鹤壁市,大新区,细颗粒物(PM2.5),70,63,144,51,75,123,,88,88,11,32,9,12,0.5,0.8
2024-03-12T1300,3596A,114.1572,35.9603,鹤壁市,南山宾馆,颗粒物(PM10),54,57,155,36,77,112,,86,86,13,24,14,17,0.6,0.9
2024-03-12T1300,2244A,130.2537,47.3416,鹤岗市,哈啤分公司,,25,15,24,9,20,77,,72,72,11,9,14,14,0.5,0.5
2024-03-12T1300,2245A,130.2684,47.3086,鹤岗市,斯达机电,,26,26,26,17,21,80,,73,72,12,13,11,12,0.5,0.5
2024-03-12T1300,2246A,130.3114,47.3388,鹤岗市,东山纸板厂,,48,43,40,33,23,82,,63,63,10,17,15,16,0.3,0.5
2024-03-12T1300,2247A,130.1097,47.3382,鹤岗市,五号水库,,,15,20,14,14,97,,78,78,5,7,,8,0.5,0.4
2024-03-12T1300,2263A,127.4833,50.2524,黑河市,交通局,,26,17,21,16,16,82,,62,62,8,9,6,7,0.3,0.5
2024-03-12T1300,2264A,127.5144,50.2341,黑河市,环保局,,27,,31,15,26,85,,55,55,6,16,6,7,0.5,0.6
2024-03-12T1300,2265A,127.5291,50.2472,黑河市,大黑河岛,二氧化氮,113,24,23,16,18,24,,41,26,330,327,4,7,0.6,0.6
2024-03-12T1300,1074A,115.6838,37.7541,衡水市,电机北厂,颗粒物(PM10),60,69,116,37,74,115,,61,61,8,20,3,5,0.5,0.6
2024-03-12T1300,1075A,115.6303,37.7316,衡水市,市监测站,颗粒物(PM10),59,68,108,33,68,113,,69,69,13,22,9,11,0.5,0.7
2024-03-12T1300,3188A,115.6683,37.7217,衡水市,市城管局,,,74,118,52,79,110,,69,69,,23,5,7,0.5,0.6
2024-03-12T1300,3459A,115.5989,37.5491,衡水市,地表水厂,细颗粒物(PM2.5),73,75,116,53,72,117,,73,73,12,23,4,5,0.4,0.6
2024-03-12T1300,2456A,112.5003,26.9167,衡阳市,原169医院,颗粒物(PM10),61,71,59,32,32,94,,38,38,26,32,31,16,1.2,0.9
2024-03-12T1300,2457A,112.6194,26.9258,衡阳市,衡阳化工总厂,,,75,69,36,42,104,,40,40,10,26,,8,0.7,0.7
2024-03-12T1300,2458A,112.6211,26.8956,衡阳市,珠晖区环保局,颗粒物(PM10),58,66,67,36,44,109,,46,46,8,28,8,8,0.8,0.9
2024-03-12T1300,2459A,112.6197,26.8733,衡阳市,市委党校,颗粒物(PM10),52,54,69,32,43,108,,48,48,12,20,8,7,0.8,0.9
2024-03-12T1300,2460A,112.6006,26.8919,衡阳市,市监测站,,,,71,51,47,112,,43,43,11,30,,8,0.7,0.9
2024-03-12T1300,2461A,112.5664,26.9056,衡阳市,真空机电公司,细颗粒物(PM2.5),62,71,72,44,46,93,,36,36,23,39,15,11,0.9,1.1
2024-03-12T1300,3399A,112.6703,26.882,衡阳市,师范学院,,,54,62,36,39,98,,52,52,,20,10,9,0.7,0.7
2024-03-12T1300,2608A,103.3772,23.3993,红河哈尼族彝族自治州,污水处理厂,,37,37,39,19,29,85,,76,76,7,9,5,7,0.8,0.9
2024-03-12T1300,2609A,103.3861,23.35,红河哈尼族彝族自治州,监测站,,48,36,40,33,33,83,,79,76,6,8,6,8,0.9,0.9
2024-03-12T1300,3038A,103.3758,23.368,红河哈尼族彝族自治州,州图书馆,,,43,35,19,25,78,,78,76,6,8,,6,0.8,0.8
2024-03-12T1300,1090A,111.6507,40.7517,呼和浩特市,呼市一监,,30,24,30,14,17,95,,55,55,7,17,12,9,0.4,0.4
2024-03-12T1300,1091A,111.6572,40.8033,呼和浩特市,小召,颗粒物(PM10),54,58,35,16,16,96,,65,65,14,22,12,9,0.4,0.4
2024-03-12T1300,1094A,111.7516,40.8369,呼和浩特市,如意水处理厂,,,,27,,13,84,,53,53,13,25,14,10,0.4,0.4
2024-03-12T1300,1095A,111.7276,40.8062,呼和浩特市,二十九中,,,33,32,23,17,85,,58,58,11,21,13,10,,0.5
2024-03-12T1300,1096A,111.5512,40.7866,呼和浩特市,工大金川校区,,35,35,33,13,11,90,,49,49,5,19,7,6,0.5,0.5
2024-03-12T1300,1097A,111.717,40.7612,呼和浩特市,化肥厂生活区,,31,31,35,13,17,92,,62,62,9,18,10,11,0.3,0.4
2024-03-12T1300,3698A,111.5968,40.8178,呼和浩特市,红旗小学,,48,48,22,13,10,90,,55,54,11,18,9,7,0.4,0.3
2024-03-12T1300,3699A,111.6518,40.8389,呼和浩特市,海东办,,,44,31,16,15,,,43,43,13,29,11,11,0.4,0.4
2024-03-12T1300,2192A,119.7594,49.2261,呼伦贝尔市,区环保局,,30,18,21,12,15,96,,93,90,7,11,4,4,0.4,0.4
2024-03-12T1300,3061A,119.7512,49.1577,呼伦贝尔市,国华电力东,,31,21,16,9,15,97,,95,93,4,6,4,4,0.2,0.3
2024-03-12T1300,1250A,120.0751,30.8669,湖州市,城西水厂,细颗粒物(PM2.5),117,149,85,88,52,136,,61,61,42,83,8,6,0.8,0.7
2024-03-12T1300,2873A,120.0875,30.8955,湖州市,仁皇山新区,细颗粒物(PM2.5),130,148,89,99,58,136,,58,58,32,66,10,9,0.9,0.8
2024-03-12T1300,2907A,120.1844,30.8596,湖州市,吴兴区站,细颗粒物(PM2.5),128,182,88,97,55,158,,79,79,31,67,9,9,0.8,0.7
2024-03-12T1300,3562A,120.4148,30.8538,湖州市,南浔区站,细颗粒物(PM2.5),123,149,100,93,62,122,,74,74,39,56,11,10,1.1,0.9
2024-03-12T1300,1607A,120.9092,40.7136,葫芦岛市,龙港区,颗粒物(PM10),53,55,88,10,44,92,,71,71,14,38,8,33,0.2,0.5
2024-03-12T1300,1608A,120.8392,40.7514,葫芦岛市,化工街,,30,17,61,2,23,94,,69,69,4,26,10,16,0.6,0.7
2024-03-12T1300,1609A,120.8341,40.7073,葫芦岛市,新区,,35,35,58,12,26,100,,78,78,11,29,7,14,0.3,0.5
2024-03-12T1300,1610A,120.8695,40.7677,葫芦岛市,东城区,,36,36,54,8,25,101,,64,64,8,34,6,13,0.5,0.8
2024-03-12T1300,2482A,109.5981,27.5721,怀化市,林科所,,48,48,43,25,23,117,,56,56,4,4,5,5,0.7,0.8
2024-03-12T1300,2483A,109.9453,27.5444,怀化市,河西地税局,,48,48,50,31,32,104,,42,42,12,16,5,5,0.7,0.7
2024-03-12T1300,2484A,109.9781,27.5342,怀化市,市四医院,,50,50,72,26,38,110,,44,44,12,32,5,5,0.6,0.7
2024-03-12T1300,2485A,109.9972,27.5578,怀化市,监测楼,,47,47,63,28,35,95,,47,47,10,29,7,7,0.6,0.9
2024-03-12T1300,2486A,110.0394,27.583,怀化市,市委党校,,46,39,62,32,35,105,,40,40,10,25,6,7,0.6,0.7
2024-03-12T1300,1210A,119.036,33.5981,淮安市,钵池山,细颗粒物(PM2.5),99,90,111,74,82,101,,79,79,13,25,8,10,0.7,0.8
2024-03-12T1300,1211A,119.007,33.575,淮安市,北京南路,细颗粒物(PM2.5),105,97,114,79,80,112,,93,93,13,26,8,10,0.7,0.9
2024-03-12T1300,1212A,118.989,33.6067,淮安市,市监测站,细颗粒物(PM2.5),94,92,120,70,81,114,,88,88,15,27,7,10,0.6,0.7
2024-03-12T1300,1213A,119.135,33.5039,淮安市,楚州区监测站,细颗粒物(PM2.5),94,103,130,70,80,108,,92,92,14,28,7,8,0.7,0.8
2024-03-12T1300,1214A,119.0186,33.6297,淮安市,淮阴区监测站,细颗粒物(PM2.5),110,110,137,83,84,110,,83,83,,30,5,7,0.6,0.6
2024-03-12T1300,3426A,118.8755,33.2894,淮安市,新华书店,细颗粒物(PM2.5),103,109,119,77,76,118,,99,99,20,27,7,8,0.9,0.9
2024-03-12T1300,2282A,116.8004,33.975,淮北市,监测站,颗粒物(PM10),79,107,138,52,57,119,,83,83,15,25,9,9,0.7,0.7
2024-03-12T1300,2283A,116.8091,33.9007,淮北市,烈山区政府,颗粒物(PM10),79,107,140,43,61,119,,81,81,17,40,8,9,0.4,0.5
2024-03-12T1300,3330A,116.8873,33.9836,淮北市,杜集区检察院,颗粒物(PM10),76,102,148,43,70,122,,84,84,16,25,10,11,0.7,0.7
2024-03-12T1300,4017A,116.7923,33.9535,淮北市,市博物馆,,,94,137,54,63,116,,83,83,11,20,,6,0.6,0.8
2024-03-12T1300,2277A,116.8305,32.7727,淮南市,潘集区政府,细颗粒物(PM2.5),98,108,133,73,65,127,,86,86,15,26,5,6,0.4,0.4
2024-03-12T1300,2278A,117.0067,32.6524,淮南市,师范学院,细颗粒物(PM2.5),102,113,130,76,62,125,,84,84,15,31,9,12,0.6,0.5
2024-03-12T1300,2279A,116.8569,32.5951,淮南市,谢家集区政府,颗粒物(PM10),88,125,117,58,57,133,,99,99,17,24,5,7,0.4,0.4
2024-03-12T1300,2280A,116.8281,32.633,淮南市,八公山区政府,细颗粒物(PM2.5),82,106,121,60,53,127,,94,94,16,19,9,8,0.5,0.5
2024-03-12T1300,2281A,116.6325,32.6201,淮南市,焦岗湖风景区管理处,颗粒物(PM10),78,106,86,48,31,119,,87,87,16,24,5,3,0.2,0.2
2024-03-12T1300,2894A,117.0566,32.6531,淮南市,经济技术开发区消防队,颗粒物(PM10),88,126,128,63,57,123,,85,85,17,32,7,7,0.5,0.5
2024-03-12T1300,3329A,117.0108,32.5893,淮南市,山南新区,颗粒物(PM10),90,129,139,63,59,123,,97,97,19,37,6,7,0.6,0.6
2024-03-12T1300,2446A,114.9028,30.4742,黄冈市,职工中心,颗粒物(PM10),66,82,104,44,62,140,,89,89,11,21,11,11,0.4,0.6
2024-03-12T1300,2929A,114.8858,30.4519,黄冈市,红卫路,颗粒物(PM10),60,69,92,38,60,142,,95,95,13,25,8,8,0.4,0.6
2024-03-12T1300,3398A,114.9136,30.4445,黄冈市,市林业局,细颗粒物(PM2.5),72,71,91,52,60,143,,93,93,9,23,6,7,0.3,0.5
2024-03-12T1300,2672A,102.0199,35.5102,黄南藏族自治州,同仁县隆务镇,,32,32,38,20,20,74,,62,55,8,7,12,11,0.5,0.6
2024-03-12T1300,2295A,118.2903,29.6963,黄山市,延安路89号,颗粒物(PM10),63,76,68,37,41,133,,67,67,6,11,8,6,0.5,0.6
2024-03-12T1300,2296A,118.327,29.7178,黄山市,黄山东路89号,颗粒物(PM10),62,74,61,31,38,125,,51,51,10,17,7,5,0.6,0.7
2024-03-12T1300,2297A,118.1371,30.2756,黄山市,黄山区政府5号楼,颗粒物(PM10),81,111,58,44,32,144,,62,62,13,13,8,5,0.5,0.6
2024-03-12T1300,2423A,115.0601,30.2313,黄石市,沈家营,颗粒物(PM10),71,91,89,33,50,156,,89,89,18,41,8,11,0.5,0.7
2024-03-12T1300,2424A,115.0817,30.2006,黄石市,陈家湾,"颗粒物(PM10),细颗粒物(PM2.5)",64,77,83,46,55,136,,63,63,21,34,14,14,0.7,1
2024-03-12T1300,2426A,114.8988,30.2019,黄石市,铁山,颗粒物(PM10),59,68,93,33,49,152,,86,86,14,26,10,10,0.9,1
2024-03-12T1300,2427A,115.0307,30.2092,黄石市,团城山,颗粒物(PM10),78,106,93,28,50,153,,74,74,14,39,12,16,0.6,0.8
2024-03-12T1300,3149A,115.0235,30.1578,黄石市,笔架山北路,,,,91,,55,,,74,74,9,37,,11,,0.8
2024-03-12T1300,1392A,114.4183,23.0528,惠州市,河南岸金山湖子站,,30,22,15,15,10,93,,65,65,7,13,5,5,0.6,0.7
2024-03-12T1300,1393A,114.4053,23.0822,惠州市,下埔横江三路子站,,35,22,14,14,10,112,,77,77,8,14,6,6,0.5,0.6
2024-03-12T1300,1394A,114.4103,23.1142,惠州市,江北云山西路子站,,,20,13,12,9,105,,73,73,4,9,9,9,,0.8
2024-03-12T1300,1395A,114.4645,22.7833,惠州市,惠阳区承修路船湖子站,,34,21,13,13,9,108,,62,62,17,19,9,8,0.6,0.7
2024-03-12T1300,1396A,114.5317,22.7422,惠州市,大亚湾管委会子站,,33,15,12,10,8,104,,69,69,11,16,9,7,0.6,0.7
2024-03-12T1300,3314A,114.4338,22.8134,惠州市,惠阳秋长,,40,24,14,14,8,128,,76,76,17,20,8,7,0.7,0.7
2024-03-12T1300,3452A,114.6517,22.775,惠州市,大亚湾霞涌,,34,20,12,17,9,106,,74,74,8,7,9,7,0.9,0.6
2024-03-12T1300,2240A,130.9762,45.3001,鸡西市,环保局,,26,26,60,18,43,75,,76,67,6,15,6,8,0.3,0.4
2024-03-12T1300,2243A,130.9429,45.3039,鸡西市,第一中学,,30,16,59,9,42,94,,90,85,6,15,6,10,0.1,0.3
2024-03-12T1300,3707A,131.0207,45.3073,鸡西市,欧美日汽修厂,,26,26,70,11,53,78,,63,60,11,25,5,9,0.3,0.6
2024-03-12T1300,3709A,130.9967,45.3106,鸡西市,市政设施管理处,,31,31,70,9,50,97,,69,69,12,25,4,4,0.4,0.7
2024-03-12T1300,2367A,114.9754,27.0803,吉安市,红声器材厂,,47,47,50,27,27,95,,42,42,16,12,10,8,0.6,0.6
2024-03-12T1300,2368A,114.9658,27.0999,吉安市,市森林工业局,,48,48,50,31,31,96,,42,42,17,20,10,10,0.4,0.6
2024-03-12T1300,2369A,114.99,27.1312,吉安市,市环境监测站,,,39,45,26,28,,,41,41,17,21,13,12,0.5,0.6
2024-03-12T1300,2370A,115.0093,27.0968,吉安市,青原区法院,,36,36,41,24,29,105,,45,45,14,20,11,11,0.8,0.9
2024-03-12T1300,1772A,126.54,43.8622,吉林市,哈达湾,,32,27,36,18,25,102,,75,75,10,21,4,8,0.6,0.7
2024-03-12T1300,1773A,126.5844,43.8358,吉林市,东局子,,32,32,45,20,30,99,,73,73,9,22,5,9,0.5,0.7
2024-03-12T1300,1774A,126.5052,43.8245,吉林市,电力学院,,33,27,38,17,26,104,,73,73,6,20,6,11,0.5,0.7
2024-03-12T1300,1775A,126.6133,43.8972,吉林市,江北,,33,33,43,17,26,104,,75,75,14,24,10,12,0.6,0.8
2024-03-12T1300,1776A,126.555,43.8306,吉林市,江南公园,,36,32,48,25,35,102,,74,74,8,22,5,8,0.5,0.7
2024-03-12T1300,2868A,126.4739,43.953,吉林市,九站,,38,38,41,21,28,103,,76,76,14,31,7,11,0.6,0.6
2024-03-12T1300,1299A,116.9862,36.6114,济南市,科干所,颗粒物(PM10),52,53,133,29,71,99,,70,68,18,28,7,9,0.5,0.8
2024-03-12T1300,1300A,116.9376,36.665,济南市,农科所,颗粒物(PM10),62,73,160,34,86,101,,62,62,18,38,7,11,0.7,1
2024-03-12T1300,1301A,117.1265,36.6734,济南市,开发区,颗粒物(PM10),55,59,157,27,91,104,,61,61,16,33,8,11,0.5,0.9
2024-03-12T1300,1303A,117.0624,36.6868,济南市,省种子仓库,颗粒物(PM10),59,68,170,29,95,106,,62,62,14,36,6,10,0.3,0.6
2024-03-12T1300,1304A,116.9489,36.6447,济南市,机床二厂,颗粒物(PM10),58,66,151,27,94,111,,70,70,12,31,6,10,0.5,0.9
2024-03-12T1300,1305A,117.0495,36.663,济南市,市监测站,颗粒物(PM10),52,54,152,27,82,109,,70,70,20,37,9,14,0.6,0.9
2024-03-12T1300,1306A,116.7675,36.5484,济南市,长清党校,颗粒物(PM10),53,56,152,22,78,109,,68,68,22,39,5,8,0.4,0.8
2024-03-12T1300,1616A,117.6795,36.229,济南市,技术学院,,44,44,138,24,81,108,,89,89,17,34,8,12,0.6,1
2024-03-12T1300,1961A,117.532,36.6868,济南市,东山小学,,,54,167,29,94,114,,72,72,15,36,,11,0.4,0.8
2024-03-12T1300,3059A,117.7161,36.2049,济南市,泰兴公司,,44,44,136,29,84,108,,83,83,14,26,10,12,0.5,0.9
2024-03-12T1300,3064A,117.6867,36.2171,济南市,莱芜战役纪念馆,,48,48,146,29,85,102,,84,84,17,28,8,11,0.5,0.9
2024-03-12T1300,3494A,117.1673,36.9782,济南市,济阳区政府,颗粒物(PM10),61,71,149,42,96,115,,73,73,12,31,9,12,0.6,0.9
2024-03-12T1300,3495A,117.1171,36.63,济南市,锦屏中学,颗粒物(PM10),56,61,130,29,74,100,,80,80,15,20,8,10,0.4,0.7
2024-03-12T1300,3682A,116.9814,36.6819,济南市,济南四建,颗粒物(PM10),56,61,150,32,88,100,,59,59,19,39,9,13,0.4,0.8
2024-03-12T1300,1653A,116.6251,35.4302,济宁市,火炬城,,50,50,98,27,50,111,,84,84,10,21,4,6,0.5,0.7
2024-03-12T1300,1655A,116.5491,35.4042,济宁市,电化厂,颗粒物(PM10),58,66,120,29,52,114,,87,87,8,19,4,7,0.5,0.7
2024-03-12T1300,3500A,116.5814,35.3707,济宁市,北湖一中,颗粒物(PM10),56,61,105,31,56,110,,84,83,9,20,7,11,0.4,0.6
2024-03-12T1300,3501A,116.8249,35.5593,济宁市,服务中心,颗粒物(PM10),59,68,122,21,52,115,,89,89,9,21,4,6,0.5,0.8
2024-03-12T1300,3678A,116.5907,35.4054,济宁市,市第七中学,颗粒物(PM10),60,70,107,31,51,109,,84,84,9,19,3,6,0.6,0.8
2024-03-12T1300,2255A,130.2751,46.8028,佳木斯市,佳纺,,31,17,40,13,32,97,,70,70,4,29,3,5,0.3,0.5
2024-03-12T1300,2256A,130.3995,46.8307,佳木斯市,发电厂,,31,24,31,18,25,97,,68,68,7,20,4,4,0.4,0.5
2024-03-12T1300,2257A,130.3258,46.7975,佳木斯市,环保局,,30,,43,20,32,96,,68,68,8,31,4,7,0.2,0.5
2024-03-12T1300,2258A,130.3648,46.8032,佳木斯市,十一中,,28,18,34,1,27,89,,63,63,6,26,5,8,0.4,0.6
2024-03-12T1300,2259A,130.3794,46.7588,佳木斯市,四丰,,36,,23,10,14,115,,99,99,3,12,1,1,0.3,0.4
2024-03-12T1300,1945A,98.2908,39.7711,嘉峪关市,气象局,颗粒物(PM10),144,237,145,48,36,74,,87,86,39,19,115,12,2.5,0.6
2024-03-12T1300,2884A,98.2672,39.7978,嘉峪关市,酒钢宾馆,颗粒物(PM10),120,190,152,41,36,90,,85,85,14,15,107,25,1.2,0.6
2024-03-12T1300,3248A,98.2643,39.7724,嘉峪关市,雄关区,颗粒物(PM10),99,148,109,37,30,84,,86,86,23,18,76,9,1.7,0.5
2024-03-12T1300,1383A,113.1064,22.6058,江门市,北街,颗粒物(PM10),52,53,38,22,26,116,,40,40,34,46,9,8,0.6,1
2024-03-12T1300,1384A,113.0731,22.5835,江门市,西区,,37,36,37,18,22,118,,42,42,33,48,9,8,0.5,0.9
2024-03-12T1300,1385A,113.0219,22.5311,江门市,圭峰西,,44,44,29,27,22,98,,41,41,35,39,8,7,0.6,1
2024-03-12T1300,1386A,113.0828,22.5947,江门市,东湖,,37,36,37,22,24,116,,41,41,30,38,10,7,0.5,0.9
2024-03-12T1300,3311A,113.1075,22.5647,江门市,江海富民,,39,34,48,24,28,124,,42,42,32,53,8,7,0.5,0.9
2024-03-12T1300,3449A,113.05,22.4667,江门市,新会银湖,,42,42,36,27,28,129,,44,44,30,36,8,7,0.7,1
2024-03-12T1300,1828A,113.227,35.2125,焦作市,市环保局,,,81,106,54,41,,,69,69,,23,8,8,0.8,0.6
2024-03-12T1300,3169A,113.2725,35.2067,焦作市,太极体育中心,颗粒物(PM10),84,118,122,55,48,116,,83,83,12,19,7,9,0.9,0.9
2024-03-12T1300,3335A,113.3137,35.2641,焦作市,马村街道办,细颗粒物(PM2.5),80,76,133,59,47,126,,78,78,11,23,9,10,0.4,0.5
2024-03-12T1300,3336A,113.2465,35.2373,焦作市,焦作技师学院,,,95,104,58,42,,,70,70,14,22,8,6,0.8,0.7
2024-03-12T1300,3477A,113.1656,35.2539,焦作市,中站许衡医院,颗粒物(PM10),79,107,100,48,36,127,,69,69,13,21,11,9,0.6,0.5
2024-03-12T1300,3981A,113.2449,35.1803,焦作市,原李万街道办,,,71,113,46,42,120,,86,86,,20,8,10,0.9,0.9
2024-03-12T1300,1708A,116.3701,23.5345,揭阳市,新兴,,36,36,25,8,20,107,,63,63,9,24,11,9,0.6,1
2024-03-12T1300,1709A,116.3264,23.5443,揭阳市,西马,,38,36,25,6,14,120,,70,70,9,23,11,9,0.5,0.8
2024-03-12T1300,1710A,116.3611,23.5626,揭阳市,东兴,,37,32,34,13,21,118,,55,55,9,28,12,9,0.7,1.3
2024-03-12T1300,1711A,116.4151,23.5294,揭阳市,渔湖,,35,33,31,12,14,111,,53,53,10,29,10,8,0.4,0.8
2024-03-12T1300,3320A,116.403,23.5699,揭阳市,曲溪,,40,40,35,24,22,123,,53,53,13,30,9,5,0.6,1.1
2024-03-12T1300,1944A,102.1692,38.5167,金昌市,天庆家园,颗粒物(PM10),60,70,97,9,20,81,,70,70,12,17,6,22,0.2,0.3
2024-03-12T1300,3170A,102.1864,38.5253,金昌市,市委党校,颗粒物(PM10),64,78,128,21,38,84,,76,76,6,11,6,65,0.6,0.6
2024-03-12T1300,4022A,102.1647,38.5371,金昌市,金川区人防中心,颗粒物(PM10),61,71,94,22,26,82,,75,75,9,11,8,32,0.6,0.6
2024-03-12T1300,1262A,119.647,29.077,金华市,十五中,,,,75,,50,136,,60,60,24,39,8,10,0.8,0.9
2024-03-12T1300,1263A,119.686,29.1029,金华市,监测站,颗粒物(PM10),60,69,76,34,45,129,,53,53,29,38,8,6,0.8,0.8
2024-03-12T1300,3659A,119.656,29.1131,金华市,气象局,颗粒物(PM10),59,67,82,41,55,128,,60,60,24,37,8,8,0.8,0.8
2024-03-12T1300,1767A,121.1115,41.0879,锦州市,南山,,34,34,55,5,25,106,,73,73,10,25,12,15,0.3,0.6
2024-03-12T1300,1768A,121.0533,40.8434,锦州市,开发区,颗粒物(PM10),51,51,78,16,36,90,,64,64,30,38,18,25,0.6,0.8
2024-03-12T1300,1769A,121.1836,41.1119,锦州市,百股街道,,34,29,70,7,39,108,,68,68,5,21,3,10,0.3,0.7
2024-03-12T1300,1770A,121.1178,41.1222,锦州市,天安街道,,32,16,62,2,25,102,,60,60,8,32,9,13,0.6,0.9
2024-03-12T1300,1771A,121.1303,41.1386,锦州市,北湖公园,,32,12,46,4,23,100,,74,74,9,22,12,16,0.4,0.6
2024-03-12T1300,2160A,112.85,35.5051,晋城市,自来水公司,颗粒物(PM10),60,69,78,34,24,112,,62,62,17,30,10,10,0.9,1
2024-03-12T1300,2161A,112.8318,35.4936,晋城市,白云商贸,颗粒物(PM10),65,79,82,27,21,111,,60,60,19,33,12,9,0.8,0.8
2024-03-12T1300,2162A,112.8508,35.4887,晋城市,市环保局,颗粒物(PM10),60,69,88,29,24,110,,56,56,19,34,11,8,0.8,0.9
2024-03-12T1300,2163A,112.8676,35.4897,晋城市,技术学院,颗粒物(PM10),68,85,83,29,22,109,,57,57,22,38,9,7,0.6,0.5
2024-03-12T1300,3620A,112.8271,35.4828,晋城市,泽州一中,颗粒物(PM10),70,90,84,46,26,109,,62,62,23,27,14,11,0.7,0.8
2024-03-12T1300,2171A,112.7532,37.6945,晋中市,锦纶小区,,34,34,52,19,16,97,,52,52,13,23,9,9,0.5,0.5
2024-03-12T1300,2173A,112.7249,37.7067,晋中市,南都小区,,34,34,55,17,20,100,,57,57,13,22,8,10,0.4,0.3
2024-03-12T1300,2174A,112.6991,37.6982,晋中市,榆次区政府,,31,29,47,19,23,97,,54,54,13,23,8,10,0.4,0.3
2024-03-12T1300,2865A,112.7195,37.6828,晋中市,榆次三中,,39,39,57,12,14,97,,47,47,11,23,8,10,0.5,0.5
2024-03-12T1300,2439A,112.2014,31.0481,荆门市,竹园小学,颗粒物(PM10),79,108,88,39,44,128,,88,85,12,20,12,10,0.5,0.5
2024-03-12T1300,2440A,112.1969,30.9891,荆门市,掇刀,,,99,84,42,45,,,93,93,10,19,12,11,0.5,0.6
2024-03-12T1300,2441A,112.2213,31.0386,荆门市,石化一小,,,114,87,45,45,131,,85,83,16,25,17,16,,0.5
2024-03-12T1300,3012A,112.1849,31.0362,荆门市,西山林语,颗粒物(PM10),71,92,76,34,36,131,,104,104,14,17,12,11,0.5,0.6
2024-03-12T1300,3547A,112.1632,31.0138,荆门市,龙泉中学南校,颗粒物(PM10),75,99,85,43,43,129,,104,104,11,15,18,12,0.4,0.5
2024-03-12T1300,1844A,112.2494,30.3197,荆州市,市图书馆,细颗粒物(PM2.5),82,85,72,60,48,128,,74,72,13,21,16,10,0.7,0.6
2024-03-12T1300,1845A,112.2008,30.3544,荆州市,市委党校,细颗粒物(PM2.5),82,86,68,60,48,116,,65,59,21,26,17,9,0.7,0.7
2024-03-12T1300,3194A,112.2747,30.3122,荆州市,管委会,细颗粒物(PM2.5),83,76,67,61,49,126,,80,72,15,24,16,12,0.8,0.7
2024-03-12T1300,3548A,112.1655,30.3364,荆州市,学苑路,细颗粒物(PM2.5),84,81,65,62,50,120,,68,67,17,24,18,10,0.8,0.7
2024-03-12T1300,2342A,117.3102,29.3867,景德镇市,王港中学,颗粒物(PM10),53,55,51,33,30,142,,73,73,7,6,10,6,0.6,0.5
2024-03-12T1300,2343A,117.2117,29.2933,景德镇市,老干部活动中心,细颗粒物(PM2.5),54,54,64,38,41,107,,48,48,10,26,7,5,0.6,0.6
2024-03-12T1300,2344A,117.1894,29.2789,景德镇市,兽医站,颗粒物(PM10),57,64,67,35,36,132,,60,60,15,30,11,10,0.6,0.7
2024-03-12T1300,2345A,117.1547,29.2617,景德镇市,台达陶瓷,颗粒物(PM10),59,67,86,31,40,119,,49,49,20,42,18,23,0.9,0.9
2024-03-12T1300,2346A,117.2461,29.2956,景德镇市,陶研所,颗粒物(PM10),54,57,54,34,32,115,,46,46,14,21,10,6,0.7,0.6
2024-03-12T1300,1803A,115.9872,29.6815,九江市,十里,颗粒物(PM10),54,57,75,22,41,150,,73,73,15,40,12,11,0.7,0.8
2024-03-12T1300,1804A,115.9584,29.7046,九江市,茅山头,,50,50,80,23,43,136,,62,62,26,52,16,12,0.7,0.8
2024-03-12T1300,1805A,115.9877,29.7295,九江市,西园,颗粒物(PM10),57,64,82,34,46,137,,56,56,30,56,10,10,0.9,0.9
2024-03-12T1300,1806A,116.0172,29.6547,九江市,五七二七厂,,46,46,64,25,31,137,,104,94,14,18,9,11,0.6,0.6
2024-03-12T1300,1808A,115.9114,29.6038,九江市,综合工业园,颗粒物(PM10),53,56,82,27,47,140,,71,71,19,51,13,14,0.5,0.7
2024-03-12T1300,1809A,116.0721,29.7535,九江市,石化总厂,颗粒物(PM10),67,84,97,27,45,135,,62,59,24,35,12,16,0.8,0.8
2024-03-12T1300,1810A,115.9773,29.5698,九江市,庐山气象台,,38,38,49,26,30,120,,120,115,10,8,7,7,1.0,0.8
2024-03-12T1300,3190A,116.0254,29.6994,九江市,外国语学校,颗粒物(PM10),52,53,69,27,42,138,,77,77,20,39,11,13,0.7,0.8
2024-03-12T1300,2658A,98.5061,39.7443,酒泉市,仓门街子站,颗粒物(PM10),103,156,197,37,42,95,,78,78,5,17,6,9,0.2,0.5
2024-03-12T1300,2659A,98.4989,39.7256,酒泉市,油田生活基地,颗粒物(PM10),107,163,189,35,40,96,,78,78,5,15,7,11,0.3,0.4
2024-03-12T1300,2698A,76.0072,39.4467,喀什地区,巡警大队,颗粒物(PM10),92,133,204,28,51,57,,27,21,29,45,6,5,0.6,1.2
2024-03-12T1300,2699A,75.9755,39.4694,喀什地区,吾办,颗粒物(PM10),97,143,194,55,67,49,,17,17,35,52,6,5,0.8,1.3
2024-03-12T1300,4027A,75.9483,39.4689,喀什地区,老干局,颗粒物(PM10),117,183,219,44,51,58,,25,25,28,40,,4,0.7,1.5
2024-03-12T1300,1824A,114.3389,34.7781,开封市,肿瘤医院,细颗粒物(PM2.5),95,98,147,71,80,111,,80,80,13,20,5,6,0.7,0.7
2024-03-12T1300,1826A,114.2885,34.7965,开封市,世纪星幼儿园,细颗粒物(PM2.5),90,81,136,67,65,123,,92,92,13,20,9,9,0.4,0.5
2024-03-12T1300,3147A,114.3438,34.8106,开封市,龙亭公园,细颗粒物(PM2.5),85,118,147,63,75,112,,81,81,12,25,8,8,0.5,0.6
2024-03-12T1300,3210A,114.3644,34.7964,开封市,汴京公园,,,118,158,72,72,119,,84,84,,26,5,5,0.5,0.5
2024-03-12T1300,3473A,114.2485,34.8306,开封市,技师学院,细颗粒物(PM2.5),82,86,134,60,73,117,,86,86,9,23,8,8,0.8,0.9
2024-03-12T1300,3592A,114.4644,34.7556,开封市,祥符区生态环境局,细颗粒物(PM2.5),93,111,176,69,74,115,,72,72,13,33,6,9,0.5,0.8
2024-03-12T1300,1951A,84.895,45.6094,克拉玛依市,长征新村,细颗粒物(PM2.5),57,50,59,40,32,81,,78,70,28,29,10,9,0.5,0.5
2024-03-12T1300,1952A,84.8988,45.5893,克拉玛依市,南林小区,,45,45,62,26,40,82,,82,72,30,34,8,7,0.2,0.4
2024-03-12T1300,1954A,84.905,44.3396,克拉玛依市,独山子区,细颗粒物(PM2.5),103,137,68,77,35,94,,84,70,35,27,25,14,0.9,0.7
2024-03-12T1300,1955A,85.6979,46.098,克拉玛依市,乌尔禾区商贸楼,,49,41,51,34,33,101,,61,58,22,28,10,8,0.4,0.6
2024-03-12T1300,3612A,85.1045,45.6899,克拉玛依市,白碱滩区新站,,38,38,54,26,33,105,,93,91,14,19,12,12,0.5,0.5
2024-03-12T1300,2697A,76.1454,39.7142,克孜勒苏柯尔克孜自治州,市人民政府,颗粒物(PM10),69,87,137,30,42,79,,74,68,6,11,5,5,0.5,0.5
2024-03-12T1300,3665A,76.1658,39.7157,克孜勒苏柯尔克孜自治州,克州文化中心,颗粒物(PM10),89,128,148,35,45,88,,77,71,8,12,6,6,0.4,0.5
2024-03-12T1300,1450A,102.8204,24.8886,昆明市,呈贡新区,细颗粒物(PM2.5),72,60,50,52,42,137,,84,84,11,33,6,7,1.0,1
2024-03-12T1300,1451A,102.6251,24.9608,昆明市,西山森林公园,细颗粒物(PM2.5),75,59,43,55,33,157,,120,120,9,10,10,10,1.4,1.3
2024-03-12T1300,1452A,102.7252,25.0902,昆明市,龙泉镇,细颗粒物(PM2.5),68,61,48,49,33,149,,67,67,14,40,7,6,0.8,0.9
2024-03-12T1300,1453A,102.7266,25.0375,昆明市,东风东路,,,78,43,60,36,144,,91,91,,22,9,9,0.8,0.9
2024-03-12T1300,1454A,102.6742,25.0669,昆明市,金鼎山,细颗粒物(PM2.5),60,68,63,43,33,149,,77,77,16,37,3,4,0.8,1
2024-03-12T1300,1455A,102.6644,25.0401,昆明市,碧鸡广场,细颗粒物(PM2.5),83,71,57,61,42,149,,85,85,15,31,10,10,1.0,1
2024-03-12T1300,3179A,102.7494,25.0119,昆明市,官渡区博物馆,细颗粒物(PM2.5),69,74,59,50,37,140,,83,83,14,30,11,10,0.9,1
2024-03-12T1300,3375A,102.8017,24.8336,昆明市,青年创业园,细颗粒物(PM2.5),77,69,51,56,35,152,,106,106,7,20,10,13,0.8,0.8
2024-03-12T1300,3550A,102.7997,24.9786,昆明市,昆明学院,细颗粒物(PM2.5),74,74,63,54,39,132,,60,60,13,41,9,10,0.8,0.9
2024-03-12T1300,3551A,102.5967,24.6736,昆明市,晋宁区生态环境分局,细颗粒物(PM2.5),67,53,53,48,39,142,,94,94,9,15,5,8,1.0,1
2024-03-12T1300,3552A,102.6678,24.9856,昆明市,云天化总部,细颗粒物(PM2.5),67,70,53,48,35,158,,91,91,11,22,10,8,0.9,1
2024-03-12T1300,1456A,91.1319,29.6514,拉萨市,八廓街,,41,17,28,8,13,129,,100,100,12,15,6,7,0.4,0.5
2024-03-12T1300,1457A,91.1221,29.6747,拉萨市,市环保局,,41,21,33,7,14,129,,96,83,8,14,6,7,0.4,0.5
2024-03-12T1300,1458A,91.0874,29.6475,拉萨市,区监测站,,40,13,17,8,9,127,,104,103,5,10,5,5,0.2,0.3
2024-03-12T1300,1459A,91.1774,29.6541,拉萨市,西藏大学,,40,15,29,8,12,128,,95,93,5,10,7,10,0.2,0.3
2024-03-12T1300,1460A,90.9798,29.6588,拉萨市,区辐射站,,,16,37,7,14,122,,99,99,,11,5,5,,0.3
2024-03-12T1300,1461A,91.0834,29.6292,拉萨市,拉萨火车站,,40,33,42,16,23,128,,114,111,6,9,3,3,0.1,0.1
2024-03-12T1300,2520A,109.2203,23.7256,来宾市,来宾技工学校,颗粒物(PM10),55,59,69,36,40,93,,34,34,12,23,9,14,0.8,0.9
2024-03-12T1300,3535A,109.1781,23.7297,来宾市,兴宾区政府,细颗粒物(PM2.5),75,70,56,55,37,109,,51,51,13,16,6,5,0.8,0.8
2024-03-12T1300,4002A,109.2416,23.7461,来宾市,中南小学,颗粒物(PM10),51,51,69,31,41,100,,40,40,11,32,8,7,0.9,1
2024-03-12T1300,1476A,103.631,36.1031,兰州市,兰炼宾馆,颗粒物(PM10),85,119,92,59,40,108,,42,42,66,45,33,17,1.1,0.7
2024-03-12T1300,1478A,103.8412,36.0726,兰州市,生物制品所,颗粒物(PM10),91,132,106,63,43,40,,17,17,79,59,32,16,1.4,0.8
2024-03-12T1300,1479A,103.831,36.0464,兰州市,铁路设计院,颗粒物(PM10),94,137,96,63,49,30,,15,15,86,68,31,15,1.9,1.1
2024-03-12T1300,3186A,103.7158,36.1058,兰州市,教育港,,,118,93,49,36,,,18,,46,47,40,14,1.0,0.7
2024-03-12T1300,3241A,103.7439,36.0842,兰州市,百合公园,颗粒物(PM10),81,112,85,41,33,80,,27,27,55,57,31,9,1.1,0.9
2024-03-12T1300,3242A,103.9611,35.998,兰州市,和平,颗粒物(PM10),96,142,76,56,35,60,,58,47,45,34,36,15,1.1,0.6
2024-03-12T1300,3245A,103.6633,36.533,兰州新区,新区管委会,颗粒物(PM10),70,90,80,33,33,78,,48,48,26,17,32,20,0.7,0.5
2024-03-12T1300,3246A,103.6975,36.4789,兰州新区,舟曲中学,颗粒物(PM10),96,141,101,41,30,71,,45,33,24,22,61,17,0.6,0.5
2024-03-12T1300,1067A,116.6708,39.5111,廊坊市,药材公司,颗粒物(PM10),60,70,137,39,80,108,,76,76,19,36,3,7,0.6,0.9
2024-03-12T1300,1068A,116.7214,39.5589,廊坊市,开发区,颗粒物(PM10),66,81,126,44,80,104,,78,78,20,33,3,7,0.4,0.8
2024-03-12T1300,1070A,116.7244,39.5269,廊坊市,北华航天学院,颗粒物(PM10),61,72,133,41,79,109,,83,83,11,25,2,6,0.4,0.8
2024-03-12T1300,2919A,116.7022,39.5453,廊坊市,河北工业大学,细颗粒物(PM2.5),64,73,125,46,80,110,,85,85,17,28,4,7,0.4,0.8
2024-03-12T1300,2535A,103.7723,29.5462,乐山市,花湖湾,细颗粒物(PM2.5),89,99,68,66,39,54,,19,14,39,37,14,6,0.7,0.6
2024-03-12T1300,2536A,103.7627,29.5844,乐山市,牛耳桥,细颗粒物(PM2.5),93,97,48,69,37,47,,11,11,45,51,16,6,0.9,0.9
2024-03-12T1300,2537A,103.7508,29.6006,乐山市,市第三水厂,细颗粒物(PM2.5),82,92,58,60,38,54,,14,14,44,59,18,6,0.9,1
2024-03-12T1300,2538A,103.7571,29.5664,乐山市,市监测站,细颗粒物(PM2.5),82,92,51,60,36,51,,21,20,42,38,14,6,1.2,1.1
2024-03-12T1300,3361A,103.7311,29.5628,乐山市,理工大学,细颗粒物(PM2.5),79,87,55,58,38,51,,24,17,41,31,17,8,0.8,0.7
2024-03-12T1300,2600A,100.2203,26.8906,丽江市,市中心,,49,49,36,25,17,125,,114,114,12,15,2,3,0.7,0.7
2024-03-12T1300,1267A,119.914,28.4514,丽水市,监测站大楼,,49,49,40,27,31,108,,63,63,16,28,4,4,0.7,0.7
2024-03-12T1300,1268A,119.93,28.4586,丽水市,莲都小学,颗粒物(PM10),51,51,42,31,32,109,,68,68,15,28,4,3,0.6,0.5
2024-03-12T1300,1269A,119.879,28.4231,丽水市,余庄前,,42,42,40,25,28,109,,53,53,11,19,5,4,0.6,0.6
2024-03-12T1300,3000A,119.3581,34.6972,连云港市,德源药业,细颗粒物(PM2.5),62,56,123,44,82,107,,81,81,12,29,5,8,0.5,0.9
2024-03-12T1300,3007A,119.178,34.844,连云港市,新城一中,细颗粒物(PM2.5),113,113,128,85,99,110,,74,74,29,42,13,12,1.3,1
2024-03-12T1300,3008A,119.3608,34.7519,连云港市,胡沟管理处,细颗粒物(PM2.5),92,100,110,68,80,107,,76,75,14,32,10,12,0.7,1.1
2024-03-12T1300,3009A,119.1478,34.5911,连云港市,矿山设计院,细颗粒物(PM2.5),94,110,136,70,86,106,,75,75,19,34,10,8,1.3,1
2024-03-12T1300,3434A,119.2413,34.6539,连云港市,工贸学校,细颗粒物(PM2.5),85,84,141,63,95,117,,86,86,18,28,10,12,1.0,1.2
2024-03-12T1300,3664A,119.4172,34.7341,连云港市,连云街道,细颗粒物(PM2.5),98,103,159,73,98,112,,76,76,28,52,4,8,0.7,1
2024-03-12T1300,2571A,102.3431,27.8099,凉山彝族自治州,青龙寺,颗粒物(PM10),51,51,33,8,4,132,,93,93,4,7,5,5,0.8,0.8
2024-03-12T1300,2572A,102.2721,27.8415,凉山彝族自治州,邛海宾馆,细颗粒物(PM2.5),67,54,38,48,21,131,,80,80,7,15,8,11,0.6,0.9
2024-03-12T1300,2573A,102.2625,27.898,凉山彝族自治州,西昌市政府,,48,48,37,32,22,128,,76,76,6,15,10,12,0.7,0.9
2024-03-12T1300,2574A,102.2685,27.8851,凉山彝族自治州,凉山州政府,颗粒物(PM10),51,51,44,30,24,126,,69,69,5,16,8,10,0.8,1
2024-03-12T1300,2575A,102.237,27.8914,凉山彝族自治州,长安,颗粒物(PM10),53,56,42,32,24,134,,65,65,8,19,11,15,0.9,1.1
2024-03-12T1300,2212A,123.2,41.1953,辽阳市,宏伟区,颗粒物(PM10),57,63,72,25,62,92,,50,50,11,34,10,13,0.5,1
2024-03-12T1300,2213A,123.1683,41.2495,辽阳市,新华园,,,91,94,21,87,91,,42,42,10,46,14,18,,2
2024-03-12T1300,2214A,123.2354,41.2639,辽阳市,滨河路,,40,40,72,24,75,89,,44,44,10,41,8,10,0.5,1.1
2024-03-12T1300,2215A,123.149,41.2991,辽阳市,铁西工业园,,33,27,94,11,85,103,,48,48,10,48,12,13,0.4,1.2
2024-03-12T1300,2227A,125.1358,42.8845,辽源市,环保局,,32,25,35,13,23,101,,51,51,5,20,7,8,0.5,0.7
2024-03-12T1300,3239A,125.0764,42.9078,辽源市,银鹰制药,,34,25,33,12,24,106,,55,55,7,20,5,7,0.4,0.6
2024-03-12T1300,1625A,115.9848,36.4372,聊城市,区政府,颗粒物(PM10),65,80,146,39,77,111,,74,74,12,21,7,9,0.7,0.9
2024-03-12T1300,2878A,116.0072,36.4343,聊城市,聊大东校,"颗粒物(PM10),细颗粒物(PM2.5)",65,79,131,47,81,116,,82,82,14,24,9,10,0.7,0.9
2024-03-12T1300,3200A,115.9819,36.4978,聊城市,监控中心,细颗粒物(PM2.5),73,90,144,53,83,126,,83,83,10,20,12,9,1.0,0.9
2024-03-12T1300,3513A,116.0445,36.4361,聊城市,九州社区,颗粒物(PM10),66,81,147,33,75,116,,75,75,10,23,8,11,0.6,0.8
2024-03-12T1300,4018A,116.0567,36.4608,聊城市,星美广场,颗粒物(PM10),70,90,154,46,81,114,,69,69,12,28,9,14,1.0,1.1
2024-03-12T1300,2632A,94.3681,29.6376,林芝市,林芝监测站,,33,20,14,14,6,103,,110,104,4,3,5,5,0.5,0.4
2024-03-12T1300,2633A,94.3616,29.6616,林芝市,林芝人民医院,,30,19,18,11,9,94,,102,96,9,6,6,5,0.6,0.5
2024-03-12T1300,2603A,100.0781,23.8982,临沧市,市环保局,细颗粒物(PM2.5),62,63,46,44,40,136,,80,80,12,12,7,11,0.6,0.5
2024-03-12T1300,2604A,100.0894,23.8822,临沧市,市气象局,细颗粒物(PM2.5),75,82,55,55,44,132,,76,76,16,15,8,9,0.7,0.6
2024-03-12T1300,1733A,111.5531,36.0783,临汾市,临钢医院,,33,30,70,13,23,103,,58,58,9,19,9,10,0.5,0.5
2024-03-12T1300,1734A,111.5028,36.0714,临汾市,技工学校,,35,35,61,9,27,101,,57,57,11,22,9,9,0.3,0.2
2024-03-12T1300,1736A,111.5018,36.0855,临汾市,市委,,33,30,66,12,17,105,,56,56,8,19,6,6,0.6,0.6
2024-03-12T1300,3018A,111.505,36.1014,临汾市,唐尧大酒店,,34,34,65,14,20,104,,51,51,8,22,8,8,0.5,0.5
2024-03-12T1300,3668A,111.5036,36.0414,临汾市,城南,,48,48,65,9,27,103,,52,52,6,22,8,8,0.4,0.4
2024-03-12T1300,2667A,103.2069,35.5993,临夏回族自治州,环保局,颗粒物(PM10),92,134,95,42,42,69,,29,29,31,28,16,9,0.9,1
2024-03-12T1300,2668A,103.2417,35.6057,临夏回族自治州,建设大厦,颗粒物(PM10),75,100,77,46,38,76,,38,38,18,21,15,4,0.6,0.6
2024-03-12T1300,1618A,118.3429,35.0532,临沂市,沂河小区,"颗粒物(PM10),细颗粒物(PM2.5)",54,58,139,38,87,111,,97,94,12,22,4,8,0.5,0.8
2024-03-12T1300,1619A,118.295,35.0583,临沂市,鲁南制药厂,颗粒物(PM10),57,63,144,30,77,118,,101,99,14,26,4,8,0.3,0.6
2024-03-12T1300,1620A,118.2794,34.9976,临沂市,新光毛纺厂,颗粒物(PM10),53,56,139,32,79,109,,100,95,10,29,3,8,0.7,1
2024-03-12T1300,1621A,118.3956,35.0888,临沂市,河东保险公司,颗粒物(PM10),52,53,133,33,80,114,,94,93,17,28,4,8,0.5,0.7
2024-03-12T1300,3370A,118.3564,35.0215,临沂市,十里堡居委,颗粒物(PM10),53,56,131,29,70,117,,101,99,18,27,3,7,0.5,0.8
2024-03-12T1300,3496A,118.3604,35.1084,临沂市,南坊新区,颗粒物(PM10),51,51,128,22,76,116,,97,96,12,24,6,9,0.4,0.7
2024-03-12T1300,3860A,118.3920,35.0300,临沂市,皇山花园小区,颗粒物(PM10),56,61,138,35,76,116,,96,96,13,24,6,10,0.6,1
2024-03-12T1300,1870A,109.4856,24.3895,柳州市,柳东小学,,43,36,52,30,39,105,,54,54,13,26,8,10,0.6,0.6
2024-03-12T1300,1871A,109.4157,24.3277,柳州市,环保监测站,,46,46,61,28,38,112,,45,45,13,31,14,8,0.8,1
2024-03-12T1300,1872A,109.389,24.341,柳州市,河西水厂,,49,49,71,30,39,105,,39,39,11,31,17,12,0.9,1.1
2024-03-12T1300,1873A,109.4311,24.2921,柳州市,市四中,,47,47,68,28,39,108,,43,43,14,33,10,8,0.7,1.1
2024-03-12T1300,1874A,109.4006,24.3631,柳州市,市九中,,42,42,73,25,43,97,,38,38,12,39,17,9,0.6,0.9
2024-03-12T1300,1875A,109.4958,24.3134,柳州市,古亭山,,37,37,40,23,25,100,,37,37,13,31,8,6,0.8,0.8
2024-03-12T1300,3402A,109.5422,24.3996,柳州市,市二中,,48,48,50,24,34,106,,43,43,12,26,10,9,0.8,0.9
2024-03-12T1300,2307A,116.5079,31.737,六安市,监测大楼,细颗粒物(PM2.5),77,85,92,56,47,131,,102,100,18,29,6,6,0.6,0.6
2024-03-12T1300,2308A,116.4738,31.7643,六安市,皖西学院,细颗粒物(PM2.5),88,95,96,65,46,135,,98,98,11,26,4,5,0.6,0.6
2024-03-12T1300,2309A,116.4996,31.7905,六安市,朝阳厂,细颗粒物(PM2.5),77,82,91,56,49,132,,96,95,13,26,6,6,0.6,0.6
2024-03-12T1300,2310A,116.5567,31.7886,六安市,开发区,颗粒物(PM10),76,101,109,48,45,130,,91,91,14,36,6,6,0.5,0.6
2024-03-12T1300,2577A,104.83,26.5917,六盘水市,黄土坡,,36,36,34,22,16,102,,75,75,11,16,11,11,0.9,0.8
2024-03-12T1300,2578A,104.89,26.5939,六盘水市,水钢,,35,35,31,17,16,108,,103,95,6,7,7,8,0.6,0.6
2024-03-12T1300,2579A,104.8475,26.5894,六盘水市,民中,,34,34,34,22,19,100,,62,62,8,21,10,12,0.8,1
2024-03-12T1300,2580A,104.9544,26.5506,六盘水市,双水,,,,29,,13,107,,106,98,7,7,8,7,,0.9
2024-03-12T1300,2336A,117.0217,25.1033,龙岩市,龙岩市监测站,,39,39,23,9,22,108,,65,65,10,20,6,8,0.4,0.6
2024-03-12T1300,2337A,117.0258,25.0661,龙岩市,闽西职业技术学院,,34,26,22,7,19,107,,63,63,8,22,6,8,0.4,0.7
2024-03-12T1300,2338A,117.0196,25.0306,龙岩市,龙岩学院,,33,27,20,7,19,105,,60,60,9,18,7,7,0.6,0.7
2024-03-12T1300,2885A,104.9339,33.3826,陇南市,滨江中学,颗粒物(PM10),63,75,69,21,25,70,,30,30,19,28,10,11,0.8,1.2
2024-03-12T1300,3247A,104.955,33.371,陇南市,市总工会,颗粒物(PM10),56,61,51,23,16,82,,54,41,20,19,10,8,0.7,0.6
2024-03-12T1300,2487A,111.9589,27.8901,娄底市,电视发射台,颗粒物(PM10),73,96,69,49,38,93,,49,49,25,17,16,7,0.3,0.9
2024-03-12T1300,2488A,111.9975,27.725,娄底市,市监测站,,,56,85,35,52,121,,50,50,12,36,8,9,,0.9
2024-03-12T1300,2489A,112.0194,27.7314,娄底市,市委党校,细颗粒物(PM2.5),57,41,74,40,47,107,,48,48,12,27,10,8,0.4,0.7
2024-03-12T1300,2490A,111.9561,27.7569,娄底市,涟钢,颗粒物(PM10),59,67,95,33,55,77,,35,35,41,39,50,24,2.6,1.6
2024-03-12T1300,2491A,111.9892,27.7044,娄底市,市政府,,48,48,75,31,44,112,,51,51,6,16,8,7,0.4,0.6
2024-03-12T1300,1893A,105.4324,28.9634,泸州市,九狮山,细颗粒物(PM2.5),89,103,73,66,45,84,,54,54,36,21,14,7,0.4,0.2
2024-03-12T1300,1894A,105.4427,28.9063,泸州市,小市上码头,细颗粒物(PM2.5),108,111,80,81,62,75,,35,32,44,32,14,9,0.8,0.7
2024-03-12T1300,1895A,105.4241,28.8573,泸州市,兰田宪桥,细颗粒物(PM2.5),108,124,81,81,62,95,,,,26,26,14,9,0.7,0.6
2024-03-12T1300,1896A,105.4379,28.8833,泸州市,市环监站,细颗粒物(PM2.5),105,107,78,79,58,78,,63,50,42,33,15,11,0.8,0.6
2024-03-12T1300,3490A,105.3617,28.7703,泸州市,纳溪区环保局,细颗粒物(PM2.5),94,105,81,70,56,103,,38,38,28,35,15,6,0.9,0.8
2024-03-12T1300,2183A,111.1406,37.5211,吕梁市,环保局,颗粒物(PM10),55,60,69,18,16,79,,43,43,22,35,9,4,0.8,0.3
2024-03-12T1300,2185A,111.1297,37.5136,吕梁市,自来水公司,颗粒物(PM10),61,71,72,20,19,78,,35,35,21,30,9,8,0.9,0.5
2024-03-12T1300,2867A,111.1283,37.51,吕梁市,马茂庄小学,颗粒物(PM10),57,63,92,19,19,80,,41,41,22,39,5,4,0.9,0.6
2024-03-12T1300,1812A,112.3931,34.6516,洛阳市,市委党校,细颗粒物(PM2.5),95,110,136,71,62,136,,56,56,17,47,10,13,0.5,0.8
2024-03-12T1300,1814A,112.4657,34.6871,洛阳市,豫西宾馆,颗粒物(PM10),91,131,142,58,48,142,,75,75,12,39,11,13,0.4,0.4
2024-03-12T1300,1815A,112.494,34.6886,洛阳市,河南林校,细颗粒物(PM2.5),102,105,133,76,56,141,,71,71,13,41,10,14,0.5,0.4
2024-03-12T1300,1816A,112.3844,34.623,洛阳市,开发区管委会,细颗粒物(PM2.5),113,133,136,85,56,146,,55,55,,32,8,6,0.7,0.6
2024-03-12T1300,1817A,112.4267,34.6258,洛阳市,市委新办公区,颗粒物(PM10),85,120,140,57,52,133,,62,62,15,32,8,6,0.4,0.3
2024-03-12T1300,3340A,112.6005,34.6326,洛阳市,伊滨,颗粒物(PM10),88,126,131,43,47,144,,68,68,18,32,7,5,0.7,0.6
2024-03-12T1300,3341A,112.4951,34.6332,洛阳市,中移产业园,细颗粒物(PM2.5),87,109,124,64,49,143,,68,68,19,35,9,9,0.4,0.4
2024-03-12T1300,3593A,112.5736,34.8993,洛阳市,吉利监测站,细颗粒物(PM2.5),90,112,117,67,40,131,,69,69,19,40,11,10,0.7,0.6
2024-03-12T1300,3635A,112.3677,34.662,洛阳市,河科大西苑校区,颗粒物(PM10),85,120,152,61,59,129,,46,46,11,44,6,11,0.5,0.5
2024-03-12T1300,3636A,112.4388,34.6781,洛阳市,英才小学,颗粒物(PM10),85,119,132,53,49,140,,64,64,17,43,8,8,0.6,0.6
2024-03-12T1300,2399A,114.051,33.5699,漯河市,三五一五工厂,细颗粒物(PM2.5),128,120,146,97,63,128,,78,78,14,21,12,12,0.6,0.5
2024-03-12T1300,2400A,114.0055,33.5698,漯河市,漯河大学,细颗粒物(PM2.5),107,127,134,80,58,129,,80,80,12,16,8,9,0.6,0.5
2024-03-12T1300,2401A,114.0138,33.5828,漯河市,市水利局,细颗粒物(PM2.5),110,122,143,83,59,127,,78,78,14,21,8,9,0.7,0.5
2024-03-12T1300,2402A,114.0261,33.5698,漯河市,市广电局,细颗粒物(PM2.5),112,125,139,84,59,129,,81,81,10,18,6,6,0.7,0.6
2024-03-12T1300,3478A,113.9749,33.5664,漯河市,市图书馆,细颗粒物(PM2.5),129,156,134,98,58,135,,85,85,14,19,11,12,0.8,0.6
2024-03-12T1300,3479A,114.0967,33.5906,漯河市,召陵区卫健委,细颗粒物(PM2.5),147,165,140,112,55,131,,75,75,13,25,7,6,0.7,0.6
2024-03-12T1300,1798A,118.5092,31.6837,马鞍山市,湖东路四小,颗粒物(PM10),98,145,111,65,56,137,,80,80,22,35,12,13,1.0,0.9
2024-03-12T1300,1799A,118.5024,31.6449,马鞍山市,开发区,细颗粒物(PM2.5),98,108,99,73,67,137,,75,75,24,43,12,8,1.4,1.2
2024-03-12T1300,1800A,118.5228,31.7231,马鞍山市,慈湖,细颗粒物(PM2.5),114,124,105,86,74,139,,62,62,26,52,14,17,1.3,1.5
2024-03-12T1300,1802A,118.6245,31.7241,马鞍山市,濮塘,颗粒物(PM10),87,123,101,56,50,136,,76,76,19,26,11,9,0.9,0.8
2024-03-12T1300,3633A,118.4918,31.6809,马鞍山市,雨山,颗粒物(PM10),90,129,106,66,58,138,,78,78,21,39,14,15,0.8,0.7
2024-03-12T1300,1686A,111.0286,21.4688,茂名市,电白南海,,31,31,27,12,13,95,,46,46,11,19,8,9,0.7,0.7
2024-03-12T1300,1687A,110.9294,21.6533,茂名市,茂石化七小,,36,27,28,19,21,114,,61,61,10,21,9,12,0.6,0.8
2024-03-12T1300,1688A,110.9107,21.6687,茂名市,健康路,,35,,25,22,20,111,,52,52,9,20,10,16,0.6,0.8
2024-03-12T1300,1689A,110.8592,21.6828,茂名市,高岭,,35,27,39,14,25,110,,42,42,14,24,16,19,0.7,1
2024-03-12T1300,3450A,111.01,21.5165,茂名市,电白水东,,34,24,16,14,13,106,,55,55,11,18,7,8,0.6,0.7
2024-03-12T1300,2539A,104.0308,30.0478,眉山市,黑龙滩水库,颗粒物(PM10),65,80,44,38,27,28,,62,36,46,12,6,6,0.7,0.5
2024-03-12T1300,2540A,103.8416,30.0874,眉山市,气象局,细颗粒物(PM2.5),100,96,72,75,38,22,,18,13,61,49,16,10,0.9,0.7
2024-03-12T1300,3137A,103.8578,30.0744,眉山市,市委党校,细颗粒物(PM2.5),98,107,66,73,39,17,,17,13,70,55,20,10,0.8,0.6
2024-03-12T1300,3148A,103.8291,30.0564,眉山市,区人社局,细颗粒物(PM2.5),100,,49,75,43,20,,17,16,69,61,22,14,1.0,0.8
2024-03-12T1300,1690A,116.1231,24.3284,梅州市,梅江月梅,,30,22,12,11,10,96,,50,50,9,17,10,10,0.5,0.7
2024-03-12T1300,1691A,116.0797,24.2719,梅州市,梅县新城,,32,24,14,11,12,101,,48,48,10,24,6,5,0.6,0.8
2024-03-12T1300,1692A,116.1248,24.2654,梅州市,环境监控中心,,29,28,20,15,17,91,,49,49,12,26,7,6,0.5,0.7
2024-03-12T1300,3315A,116.1233,24.2991,梅州市,梅龙,,,22,15,12,13,96,,48,48,4,18,7,7,,0.8
2024-03-12T1300,1878A,104.7778,31.4741,绵阳市,富乐山,细颗粒物(PM2.5),69,77,60,50,44,28,,38,19,52,33,7,7,1.0,0.8
2024-03-12T1300,1879A,104.7563,31.4535,绵阳市,市人大,细颗粒物(PM2.5),74,90,83,54,52,24,,18,18,59,60,6,6,1.0,0.9
2024-03-12T1300,1880A,104.6697,31.4668,绵阳市,高新区自来水公司,细颗粒物(PM2.5),72,87,90,52,52,21,,36,25,56,53,9,9,0.9,0.9
2024-03-12T1300,1881A,104.7287,31.5075,绵阳市,三水厂,,,102,86,59,61,9,,10,10,66,58,12,12,,1
2024-03-12T1300,3491A,104.69,31.5322,绵阳市,西科大附属小学,细颗粒物(PM2.5),60,66,72,43,48,23,,31,25,47,50,7,9,1.0,0.9
2024-03-12T1300,3492A,104.5648,31.5343,绵阳市,安州区旅游局,颗粒物(PM10),59,68,79,35,50,18,,32,17,52,44,8,7,1.0,1.1
2024-03-12T1300,1784A,129.61,44.561,牡丹江市,环保大楼,,32,29,36,13,25,101,,82,82,8,17,7,8,0.3,0.4
2024-03-12T1300,1785A,129.6115,44.5782,牡丹江市,文化广场,,36,,40,25,30,93,,69,69,8,21,9,10,0.5,0.5
2024-03-12T1300,1786A,129.5904,44.5963,牡丹江市,第一医院,,30,20,40,18,35,93,,67,67,9,18,7,9,0.5,0.6
2024-03-12T1300,1787A,129.6364,44.6075,牡丹江市,机车工厂,,41,41,48,21,38,95,,66,66,8,17,8,25,0.3,0.5
2024-03-12T1300,1788A,129.6386,44.5462,牡丹江市,第一中学,,30,18,40,11,28,96,,81,81,9,17,8,10,0.4,0.5
2024-03-12T1300,2531A,105.0703,29.61,内江市,市监测站,细颗粒物(PM2.5),64,46,66,46,52,120,,74,58,24,33,12,9,0.6,0.6
2024-03-12T1300,2532A,105.0717,29.5947,内江市,东兴区政府,颗粒物(PM10),55,60,64,38,42,114,,78,52,24,30,12,11,0.5,0.5
2024-03-12T1300,2533A,105.0653,29.5817,内江市,内江二中,细颗粒物(PM2.5),64,57,61,46,45,119,,62,50,24,34,8,7,0.7,0.8
2024-03-12T1300,2534A,105.0406,29.5822,内江市,内江日报社,细颗粒物(PM2.5),58,,53,41,40,118,,73,68,20,35,10,11,0.7,0.8
2024-03-12T1300,2628A,92.0657,31.4846,那曲市,那曲监测站,,35,21,23,4,9,111,,89,89,4,6,6,6,0.4,0.6
2024-03-12T1300,3128A,92.0506,31.4797,那曲市,那曲会议中心,,36,22,30,5,6,113,,97,97,3,4,6,6,0.3,0.3
2024-03-12T1300,1290A,115.8931,28.6843,南昌市,省外办,细颗粒物(PM2.5),67,82,95,48,59,117,,54,54,22,36,11,13,0.8,0.8
2024-03-12T1300,1291A,115.8886,28.7003,南昌市,省林业公司,颗粒物(PM10),65,80,88,46,55,120,,50,50,45,36,10,14,0.8,0.8
2024-03-12T1300,1292A,115.8126,28.7442,南昌市,林科所,颗粒物(PM10),74,97,79,48,47,122,,67,67,29,51,15,13,0.7,0.5
2024-03-12T1300,1294A,115.8518,28.687,南昌市,建工学校,细颗粒物(PM2.5),72,64,93,52,49,120,,53,53,17,40,10,11,0.7,0.8
2024-03-12T1300,1295A,115.8921,28.6424,南昌市,象湖,颗粒物(PM10),62,74,82,43,55,118,,51,51,21,37,11,11,0.8,0.8
2024-03-12T1300,1296A,115.7423,28.7996,南昌市,武术学校,细颗粒物(PM2.5),53,,32,37,27,110,,55,55,18,7,17,12,0.5,0.5
2024-03-12T1300,1298A,115.9314,28.6842,南昌市,省站,细颗粒物(PM2.5),78,86,102,57,59,129,,60,60,19,33,13,15,0.9,0.9
2024-03-12T1300,3046A,115.9084,28.6062,南昌市,机电学校,颗粒物(PM10),63,75,90,39,54,123,,56,56,16,30,11,12,0.6,0.7
2024-03-12T1300,3690A,115.9721,28.7031,南昌市,外国语学校,细颗粒物(PM2.5),73,85,91,53,54,125,,60,60,20,32,9,9,0.6,0.6
2024-03-12T1300,1905A,106.056,30.8064,南充市,西山风景区,细颗粒物(PM2.5),54,43,59,38,37,58,,92,72,20,14,5,7,0.7,0.6
2024-03-12T1300,1906A,106.0789,30.8023,南充市,南充市委,颗粒物(PM10),70,89,77,39,33,43,,46,42,45,42,8,8,0.8,0.7
2024-03-12T1300,1907A,106.1031,30.8217,南充市,南充炼油厂,细颗粒物(PM2.5),78,98,80,57,45,40,,54,39,46,38,6,9,0.6,0.5
2024-03-12T1300,1908A,106.1064,30.7856,南充市,高坪区监测站,细颗粒物(PM2.5),77,90,69,56,42,45,,47,41,43,47,6,8,0.5,0.5
2024-03-12T1300,1909A,106.0642,30.7636,南充市,嘉陵区环保局,颗粒物(PM10),70,89,73,48,42,41,,52,47,44,47,8,8,0.7,0.8
2024-03-12T1300,1910A,106.1087,30.8388,南充市,市环境监测站,"颗粒物(PM10),细颗粒物(PM2.5)",69,87,77,50,44,43,,67,50,39,26,6,8,0.6,0.5
2024-03-12T1300,1151A,118.8086,32.1065,南京市,迈皋桥,"颗粒物(PM10),细颗粒物(PM2.5)",73,96,98,53,48,132,,77,77,18,61,4,4,0.5,0.6
2024-03-12T1300,1152A,118.7538,32.0551,南京市,草场门,细颗粒物(PM2.5),82,90,94,60,58,135,,75,75,13,50,2,3,0.4,0.6
2024-03-12T1300,1153A,118.7794,32.0745,南京市,山西路,细颗粒物(PM2.5),79,97,102,58,55,136,,82,82,16,48,4,4,0.4,0.5
2024-03-12T1300,1154A,118.7752,32.0023,南京市,中华门,颗粒物(PM10),78,105,97,53,51,131,,73,73,16,54,6,7,0.6,0.7
2024-03-12T1300,1155A,118.8109,32.0309,南京市,瑞金路,颗粒物(PM10),78,105,104,51,50,131,,72,72,15,61,12,11,0.4,0.7
2024-03-12T1300,1156A,118.7997,32.0754,南京市,玄武湖,,,0,94,,46,,,52,52,28,70,11,9,0.2,0.4
2024-03-12T1300,1157A,118.6414,32.0931,南京市,浦口,颗粒物(PM10),89,128,101,47,43,122,,94,94,13,27,6,7,0.6,0.6
2024-03-12T1300,1158A,118.7356,31.9996,南京市,奥体中心,细颗粒物(PM2.5),79,103,101,58,50,141,,80,80,12,53,10,9,0.6,0.7
2024-03-12T1300,1159A,118.9125,32.1028,南京市,仙林大学城,颗粒物(PM10),67,83,93,39,48,124,,77,77,11,58,7,7,0.6,0.7
2024-03-12T1300,3422A,118.8436,31.9198,南京市,江宁彩虹桥,颗粒物(PM10),97,143,115,58,49,149,,78,78,13,53,4,7,0.3,0.5
2024-03-12T1300,3423A,119.0138,31.6494,南京市,溧水永阳,细颗粒物(PM2.5),117,110,99,88,64,144,,74,74,12,28,4,4,0.7,1
2024-03-12T1300,3424A,118.879,31.3302,南京市,高淳老职中,,,,91,,54,127,,77,77,,22,7,6,,0.6
2024-03-12T1300,3427A,118.8554,32.3578,南京市,六合雄州,颗粒物(PM10),75,99,87,39,38,122,,92,92,12,22,8,8,0.6,0.5
2024-03-12T1300,1401A,108.3103,22.7881,南宁市,二十一中,,,36,52,28,36,95,,27,27,14,38,,6,0.8,1.1
2024-03-12T1300,1402A,108.3141,22.8528,南宁市,北湖,,37,37,53,21,39,90,,28,28,15,42,7,11,0.9,1.1
2024-03-12T1300,1403A,108.3206,22.8225,南宁市,市监测站,颗粒物(PM10),57,63,49,22,31,93,,29,29,17,43,8,9,0.9,1.1
2024-03-12T1300,1404A,108.3829,22.8037,南宁市,大自然花园,,,32,40,28,31,87,,36,34,19,27,,6,0.8,0.8
2024-03-12T1300,1405A,108.4394,22.7904,南宁市,仙葫,,43,43,51,27,35,98,,39,39,16,36,10,10,0.7,0.7
2024-03-12T1300,1406A,108.2397,22.8467,南宁市,区农职院,,47,47,43,17,22,98,,32,32,19,33,7,9,0.7,0.8
2024-03-12T1300,1407A,108.3275,22.735,南宁市,英华嘉园,,48,48,65,24,43,91,,30,30,14,46,7,8,0.7,0.9
2024-03-12T1300,1408A,108.2257,22.7757,南宁市,沙井镇街道办,,40,40,65,28,36,92,,26,26,17,39,7,8,0.8,0.9
2024-03-12T1300,3401A,108.4834,22.7618,南宁市,红星社区,,43,43,37,24,34,99,,34,34,8,26,9,8,0.9,0.9
2024-03-12T1300,2332A,118.1681,26.6369,南平市,南平市监测站,,,27,20,14,16,93,,46,46,,18,6,6,0.7,0.7
2024-03-12T1300,2333A,118.1825,26.6489,南平市,南平铝业有限公司,颗粒物(PM10),51,52,21,18,17,92,,47,47,10,18,7,6,0.7,0.8
2024-03-12T1300,2334A,118.1756,26.6272,南平市,南平七中,,39,39,20,22,17,104,,53,53,11,20,4,4,0.6,0.8
2024-03-12T1300,1168A,120.9098,31.9663,南通市,狼山街道,细颗粒物(PM2.5),90,91,107,67,80,97,,88,88,13,62,8,10,0.5,0.9
2024-03-12T1300,1169A,120.86,32.0005,南通市,虹桥,细颗粒物(PM2.5),89,87,122,66,86,86,,84,84,12,84,3,10,0.6,0.9
2024-03-12T1300,1170A,120.87,32.02,南通市,城中,细颗粒物(PM2.5),78,93,134,57,78,86,,85,85,15,77,4,9,0.6,0.9
2024-03-12T1300,1171A,120.94,31.93,南通市,星湖花园,细颗粒物(PM2.5),75,83,117,55,74,86,,72,72,17,80,5,9,0.5,0.8
2024-03-12T1300,1172A,120.81,32.0417,南通市,紫琅学院,细颗粒物(PM2.5),90,91,123,67,77,93,,85,85,15,89,7,12,0.6,0.8
2024-03-12T1300,3291A,121.067,32.062,南通市,通州监测站,细颗粒物(PM2.5),73,80,124,53,83,92,,86,86,13,64,7,9,0.6,0.9
2024-03-12T1300,3432A,120.9348,31.9883,南通市,环境教育馆,细颗粒物(PM2.5),93,85,118,69,82,94,,86,86,17,70,6,10,0.4,0.7
2024-03-12T1300,2404A,112.5224,33.0122,南阳市,瓦房庄,颗粒物(PM10),84,117,99,60,40,131,,91,91,16,27,8,8,0.6,0.5
2024-03-12T1300,2405A,112.5003,32.9735,南阳市,汉画馆,细颗粒物(PM2.5),83,109,103,61,43,131,,92,92,20,28,8,8,0.5,0.5
2024-03-12T1300,2406A,112.5573,33.027,南阳市,气象站,细颗粒物(PM2.5),85,114,100,63,35,128,,86,86,22,32,8,7,0.7,0.5
2024-03-12T1300,2407A,112.5481,32.9689,南阳市,理工学院,颗粒物(PM10),86,122,104,56,38,128,,88,88,15,24,9,9,0.5,0.4
2024-03-12T1300,4008A,112.5234,32.9922,南阳市,卧龙区政府,,,120,107,57,37,125,,86,86,,28,7,9,0.5,0.7
2024-03-12T1300,1234A,121.8358,29.911,宁波市,区环保大楼,细颗粒物(PM2.5),117,126,73,88,53,112,,74,74,48,50,10,7,1.0,0.9
2024-03-12T1300,1235A,121.56,29.82,宁波市,万里学院,细颗粒物(PM2.5),78,81,62,57,47,144,,58,58,22,57,12,9,0.8,0.8
2024-03-12T1300,1236A,121.713,29.9572,宁波市,龙赛医院,颗粒物(PM10),79,108,76,51,37,136,,61,61,32,65,12,8,0.8,0.7
2024-03-12T1300,1239A,121.633,29.7733,宁波市,钱湖水厂,细颗粒物(PM2.5),82,74,50,60,34,148,,64,64,18,31,9,6,0.8,0.7
2024-03-12T1300,1240A,121.5856,29.8635,宁波市,太古小学,细颗粒物(PM2.5),79,68,58,58,44,138,,56,56,18,53,11,8,0.8,1.1
2024-03-12T1300,1241A,121.524,29.8674,宁波市,市环境监测中心,颗粒物(PM10),68,86,60,47,36,147,,59,59,23,59,10,8,0.8,0.9
2024-03-12T1300,2871A,121.6147,29.9017,宁波市,万里国际学校,细颗粒物(PM2.5),102,84,62,76,54,151,,66,66,26,63,11,8,0.9,0.9
2024-03-12T1300,3710A,121.5594,29.8975,宁波市,白沙活动中心,细颗粒物(PM2.5),74,90,64,54,39,140,,57,57,22,58,10,7,0.5,0.7
2024-03-12T1300,2341A,119.5388,26.6612,宁德市,宁德市监测站,颗粒物(PM10),65,79,29,20,22,98,,56,56,15,30,6,6,0.5,0.9
2024-03-12T1300,3209A,119.5231,26.6562,宁德市,宁德一中,颗粒物(PM10),52,54,29,25,20,101,,63,63,17,23,6,5,0.6,0.8
2024-03-12T1300,2618A,98.8601,25.8567,怒江傈僳族自治州,州监测站,细颗粒物(PM2.5),55,56,49,39,32,95,,73,66,11,17,8,7,0.6,0.6
2024-03-12T1300,2619A,98.8546,25.8417,怒江傈僳族自治州,泸水一中,细颗粒物(PM2.5),65,58,50,47,34,93,,53,51,16,27,7,7,0.8,0.7
2024-03-12T1300,1888A,101.6891,26.571,攀枝花市,弄弄坪,细颗粒物(PM2.5),84,,78,62,46,128,,39,39,27,47,37,39,2.7,2.7
2024-03-12T1300,1889A,101.5769,26.5928,攀枝花市,河门口,细颗粒物(PM2.5),70,81,78,51,44,129,,58,58,20,28,10,18,0.7,1.4
2024-03-12T1300,1890A,101.7169,26.585,攀枝花市,炳草岗,颗粒物(PM10),62,73,73,43,34,128,,36,36,41,51,38,28,2.6,1.7
2024-03-12T1300,1891A,101.7369,26.5008,攀枝花市,仁和,细颗粒物(PM2.5),68,51,62,49,35,155,,63,63,12,26,10,16,1.1,1.8
2024-03-12T1300,2835A,101.7227,26.567,攀枝花市,四十中小,颗粒物(PM10),72,94,73,50,31,137,,41,41,30,54,23,28,1.8,2
2024-03-12T1300,1604A,122.0303,41.1489,盘锦市,开发区,,50,50,106,9,68,108,,60,60,12,39,8,12,0.4,0.9
2024-03-12T1300,1605A,122.0485,41.0883,盘锦市,兴隆台,,,39,101,22,70,105,,55,55,,35,8,10,0.4,0.9
2024-03-12T1300,1606A,121.8297,41.1028,盘锦市,新生街道,,45,45,86,11,55,99,,57,57,18,50,6,12,0.3,0.8
2024-03-12T1300,1832A,113.3257,33.742,平顶山市,新华旅馆,颗粒物(PM10),82,114,146,48,43,128,,91,91,22,34,9,9,0.3,0.2
2024-03-12T1300,1833A,113.2919,33.737,平顶山市,规划设计院,细颗粒物(PM2.5),97,121,142,72,56,121,,90,90,22,36,8,7,0.7,0.7
2024-03-12T1300,1834A,113.182,33.774,平顶山市,平顶山工学院,颗粒物(PM10),90,129,143,66,48,132,,92,92,10,17,7,8,0.6,0.5
2024-03-12T1300,3204A,113.3025,33.73,平顶山市,规划局,,,124,165,54,60,,,90,90,13,31,10,9,0.5,0.5
2024-03-12T1300,3594A,112.8867,33.9116,平顶山市,石龙区,颗粒物(PM10),79,108,151,56,43,135,,89,89,15,27,9,10,0.7,0.5
2024-03-12T1300,2656A,106.6692,35.5461,平凉市,聚贤嘉苑,颗粒物(PM10),66,81,86,20,23,116,,62,62,10,24,13,8,0.3,0.4
2024-03-12T1300,2657A,106.7021,35.5307,平凉市,博物馆,颗粒物(PM10),53,56,90,21,28,116,,63,63,16,32,6,10,0.2,0.4
2024-03-12T1300,2347A,114.0997,27.5002,萍乡市,武功山,,33,11,37,10,20,104,,68,68,5,9,4,4,0.3,0.5
2024-03-12T1300,2348A,113.8385,27.6434,萍乡市,中医院,,40,40,66,22,36,122,,64,64,22,30,3,3,1.0,0.8
2024-03-12T1300,2349A,113.8493,27.6253,萍乡市,市政府车库,细颗粒物(PM2.5),54,55,64,38,41,123,,67,67,24,22,12,6,2.3,0.9
2024-03-12T1300,2350A,113.8676,27.6435,萍乡市,市环保局,,,59,69,39,42,117,,46,46,18,31,8,7,,1.1
2024-03-12T1300,2351A,113.866,27.6198,萍乡市,安源区政府,颗粒物(PM10),80,109,68,35,40,121,,56,56,31,22,8,5,2.6,1.1
2024-03-12T1300,2319A,119.0141,25.4325,莆田市,荔城区仓后路,颗粒物(PM10),52,53,42,13,36,120,,67,67,13,27,5,5,0.6,1
2024-03-12T1300,2320A,119.0015,25.4553,莆田市,莆田市监测站,,48,48,34,11,25,123,,83,83,16,25,6,6,0.5,0.7
2024-03-12T1300,2321A,119.1119,25.4561,莆田市,涵江区六中,,44,44,27,11,20,120,,75,75,13,27,6,5,0.7,0.8
2024-03-12T1300,2322A,119.1013,25.3215,莆田市,秀屿区政府,,39,36,29,11,27,123,,83,83,18,29,10,6,0.8,1
2024-03-12T1300,2392A,115.0312,35.7636,濮阳市,环保局,颗粒物(PM10),63,75,113,41,68,120,,84,84,12,22,10,11,0.3,0.7
2024-03-12T1300,2394A,115.0574,35.7609,濮阳市,油田运输公司,颗粒物(PM10),64,78,133,45,69,123,,85,85,10,19,10,11,0.3,0.5
2024-03-12T1300,2395A,115.0866,35.7754,濮阳市,油田物探公司,颗粒物(PM10),62,73,134,36,70,116,,76,76,10,21,8,8,0.3,0.5
2024-03-12T1300,3021A,115,35.7668,濮阳市,濮水河管理处,颗粒物(PM10),52,53,117,31,66,117,,77,77,11,20,8,9,0.4,0.6
2024-03-12T1300,2601A,100.98,22.7633,普洱市,市环保局,细颗粒物(PM2.5),82,67,68,60,49,102,,81,77,9,12,8,8,0.6,0.5
2024-03-12T1300,2602A,100.9817,22.8322,普洱市,普洱第二中学,细颗粒物(PM2.5),57,57,64,40,42,107,,56,56,10,31,6,6,1.0,0.9
2024-03-12T1300,2262A,131.0518,45.8751,七台河市,新一中,,34,11,61,8,50,107,,98,94,6,18,8,11,0.8,1
2024-03-12T1300,3345A,131.0577,45.7879,七台河市,中波台,,31,,68,15,56,98,,83,83,17,32,9,12,0.5,0.8
2024-03-12T1300,3637A,131.0176,45.7761,七台河市,人民广场,,31,,79,19,61,97,,83,83,16,32,14,12,0.6,0.9
2024-03-12T1300,3684A,130.8781,45.8222,七台河市,新建矿广场,,40,,63,28,58,104,,88,88,14,24,10,14,0.4,0.8
2024-03-12T1300,1779A,123.9305,47.3636,齐齐哈尔市,安居小区,,33,33,35,12,22,95,,76,76,10,22,7,9,0.4,0.5
2024-03-12T1300,1780A,123.9488,47.3386,齐齐哈尔市,中心广场,,36,36,32,7,19,88,,72,72,8,17,5,7,0.2,0.4
2024-03-12T1300,1781A,123.9483,47.3227,齐齐哈尔市,农牧车辆厂,,44,44,35,19,13,89,,69,69,7,16,7,10,0.3,0.4
2024-03-12T1300,1783A,123.945,47.2988,齐齐哈尔市,市环境监测站,,32,32,31,14,16,94,,77,77,5,14,2,5,0.3,0.4
2024-03-12T1300,3662A,123.6333,47.2075,齐齐哈尔市,富区青少年活动中心,,50,50,49,5,21,93,,72,72,10,19,8,15,0.7,0.8
2024-03-12T1300,2591A,107.9783,26.5747,黔东南苗族侗族自治州,市环境监测站,,48,45,43,33,33,73,,30,30,31,34,7,6,0.8,0.9
2024-03-12T1300,2881A,107.8908,26.5311,黔东南苗族侗族自治州,凯里学院,,34,31,39,22,29,107,,37,37,7,18,5,4,0.6,0.7
2024-03-12T1300,2593A,107.5228,26.2403,黔南布依族苗族自治州,小围寨,,34,22,34,17,27,106,,48,48,8,18,3,6,0.5,0.6
2024-03-12T1300,3538A,107.5175,26.2978,黔南布依族苗族自治州,沙坝,,33,31,41,14,29,104,,42,42,6,14,4,5,0.5,0.5
2024-03-12T1300,2589A,104.9022,25.0925,黔西南布依族苗族自治州,场坝街,,28,19,29,7,19,88,,53,53,7,23,2,3,0.5,0.6
2024-03-12T1300,2590A,104.8811,25.0992,黔西南布依族苗族自治州,坪东大道,,27,,28,17,16,86,,49,49,7,29,3,2,0.6,0.6
2024-03-12T1300,2502A,108.6236,21.9667,钦州市,市环保站,颗粒物(PM10),57,63,66,22,29,53,,30,30,23,39,10,11,0.9,1.8
2024-03-12T1300,2503A,108.6549,21.9481,钦州市,沙埠小学,,,55,64,21,33,,,32,32,15,31,11,10,0.8,0.9
2024-03-12T1300,2504A,108.5989,21.7431,钦州市,港区一小,颗粒物(PM10),54,58,74,21,26,52,,22,22,27,46,12,8,0.9,1.1
2024-03-12T1300,3404A,108.5959,21.9633,钦州市,北职校,颗粒物(PM10),53,56,64,32,34,47,,30,30,26,29,12,12,0.9,1.3
2024-03-12T1300,1042A,119.5134,39.8207,秦皇岛市,北戴河环保局,,30,29,103,14,67,93,,68,68,18,46,8,10,0.1,0.5
2024-03-12T1300,1043A,119.7493,40.0116,秦皇岛市,第一关,,30,30,94,15,62,94,,70,70,17,56,7,10,0.3,0.5
2024-03-12T1300,1044A,119.5897,39.9499,秦皇岛市,监测站,,34,34,101,13,63,93,,74,74,20,45,6,10,0.3,0.6
2024-03-12T1300,1046A,119.5251,39.9041,秦皇岛市,建设大厦,,32,26,99,7,57,101,,54,54,12,54,2,6,0.2,0.5
2024-03-12T1300,3132A,119.610547,39.943889,秦皇岛市,文明里,,36,36,107,5,55,95,,72,72,22,46,4,8,0.4,0.6
2024-03-12T1300,1307A,120.6659,36.2403,青岛市,仰口,,34,34,75,19,55,90,,72,72,9,18,3,4,0.2,0.4
2024-03-12T1300,1310A,120.4134,36.0658,青岛市,市南区东部子站,,48,48,97,19,60,98,,65,65,6,31,7,8,0.6,0.9
2024-03-12T1300,1311A,120.3664,36.1032,青岛市,四方区子站,,41,41,94,22,69,102,,64,64,16,39,4,5,0.6,0.9
2024-03-12T1300,1312A,120.2994,36.054,青岛市,市南区西部子站,,36,36,86,15,58,99,,62,62,11,34,6,7,0.6,0.9
2024-03-12T1300,1313A,120.4581,36.0858,青岛市,崂山区子站,,46,46,89,14,54,100,,69,69,9,25,6,7,0.5,0.7
2024-03-12T1300,1314A,120.1983,35.9608,青岛市,黄岛区子站,,41,41,98,20,69,95,,61,61,18,37,6,7,0.6,1
2024-03-12T1300,1315A,120.3999,36.3083,青岛市,城阳区子站,,32,31,89,10,47,101,,65,65,8,35,6,9,0.6,0.9
2024-03-12T1300,1966A,120.0405,35.8735,青岛市,黄岛区4号,颗粒物(PM10),51,51,91,31,67,106,,71,71,24,38,9,8,0.6,0.8
2024-03-12T1300,3362A,120.5014,36.4034,青岛市,即墨2号,,30,27,94,11,61,95,,65,65,13,30,4,6,0.5,0.8
2024-03-12T1300,3642A,120.3503,36.0736,青岛市,市北区南部,颗粒物(PM10),75,99,93,17,56,98,,58,58,23,37,8,7,0.6,0.9
2024-03-12T1300,3643A,120.3948,36.1805,青岛市,李沧区北部,,39,39,95,22,67,103,,68,68,10,46,7,8,0.6,1
2024-03-12T1300,1702A,113.0426,23.691,清远市,环保大楼,,28,18,15,18,11,89,,44,44,6,16,5,4,0.7,0.8
2024-03-12T1300,1703A,113.0208,23.7106,清远市,凤城街办,,32,24,23,15,13,100,,41,41,9,24,5,4,0.5,0.8
2024-03-12T1300,3025A,113.0477,23.6344,清远市,技师学院,,,22,23,12,12,95,,48,48,10,25,,7,0.4,0.6
2024-03-12T1300,3318A,112.9903,23.7403,清远市,清新太和,,33,28,18,17,10,103,,51,51,12,14,7,6,0.6,0.7
2024-03-12T1300,3455A,113.076,23.7198,清远市,清城东城,,33,33,15,14,9,95,,52,52,8,14,6,5,0.6,0.9
2024-03-12T1300,2661A,107.6325,35.7357,庆阳市,庆阳五中,颗粒物(PM10),63,76,81,19,24,104,,89,86,6,7,4,6,0.3,0.3
2024-03-12T1300,2662A,107.6364,35.7067,庆阳市,市环保局,颗粒物(PM10),54,58,71,16,17,104,,94,91,6,8,6,7,0.2,0.2
2024-03-12T1300,1916A,103.7897,25.5035,曲靖市,环境监测站,细颗粒物(PM2.5),53,44,38,37,21,148,,86,86,9,15,6,9,0.8,0.7
2024-03-12T1300,1917A,103.8,25.5364,曲靖市,烟厂办公区,颗粒物(PM10),51,52,37,28,20,146,,88,88,10,13,4,4,0.7,0.7
2024-03-12T1300,3376A,103.7947,25.462,曲靖市,南苑二区,,,,42,,21,136,,88,88,10,15,6,12,0.7,0.8
2024-03-12T1300,3377A,103.7444,25.5261,曲靖市,曲靖师范学院,细颗粒物(PM2.5),73,57,42,53,28,142,,70,70,14,21,8,16,1.0,0.9
2024-03-12T1300,1264A,118.8692,28.9398,衢州市,环保大楼,,49,49,62,33,46,125,,66,66,12,19,8,9,0.5,0.8
2024-03-12T1300,1265A,118.8709,28.9666,衢州市,实验学校,颗粒物(PM10),53,55,70,34,52,129,,70,70,12,19,9,10,0.8,1
2024-03-12T1300,1266A,118.8621,28.9808,衢州市,衢州学院,,48,47,70,33,55,122,,63,63,17,24,8,9,0.5,0.6
2024-03-12T1300,1611A,118.5819,24.9117,泉州市,涂山街,,42,42,29,17,21,116,,73,73,9,31,2,2,0.3,0.8
2024-03-12T1300,1612A,118.5972,24.8978,泉州市,津头埔,,34,33,20,13,20,107,,65,65,14,33,3,3,0.4,0.9
2024-03-12T1300,1613A,118.6663,24.9424,泉州市,万安,,42,42,21,10,19,119,,81,81,8,28,2,3,0.4,0.7
2024-03-12T1300,3529A,118.6333,24.9264,泉州市,城华南路,,36,23,20,11,17,113,,73,73,11,35,3,3,0.4,0.7
2024-03-12T1300,2626A,88.8876,29.2718,日喀则市,日喀则监测站,,40,10,25,6,8,127,,112,107,5,6,5,5,0.4,0.4
2024-03-12T1300,3726A,88.8781,29.2426,日喀则市,林业技术推广中心,,,,22,,6,117,,113,110,,4,7,7,,0.5
2024-03-12T1300,1659A,119.471,35.4209,日照市,监测站,,38,36,118,26,76,113,,88,82,19,38,8,11,0.5,0.9
2024-03-12T1300,1660A,119.523,35.4216,日照市,市政府广场,,45,39,117,31,74,108,,78,78,13,30,7,9,0.6,1
2024-03-12T1300,1661A,119.5587,35.4044,日照市,港务局,,44,44,120,25,68,117,,89,85,16,36,7,9,0.5,0.8
2024-03-12T1300,3507A,119.5328,35.4625,日照市,职业技术学院,,41,41,120,24,67,106,,74,74,19,37,7,9,0.5,0.9
2024-03-12T1300,3604A,119.3266,35.1044,日照市,岚山环保分局,细颗粒物(PM2.5),70,80,123,51,73,116,,95,86,19,38,8,12,0.8,1.6
2024-03-12T1300,1835A,111.1922,34.7752,三门峡市,市政府,"颗粒物(PM10),细颗粒物(PM2.5)",80,110,105,59,38,123,,63,63,21,41,11,10,0.7,0.7
2024-03-12T1300,1836A,111.1587,34.7942,三门峡市,开发区,"颗粒物(PM10),细颗粒物(PM2.5)",103,155,118,77,41,114,,53,53,21,34,10,8,0.7,0.7
2024-03-12T1300,3039A,111.1911,34.7829,三门峡市,三门峡市第一小学,细颗粒物(PM2.5),88,103,106,65,33,123,,67,67,21,32,10,9,0.7,0.6
2024-03-12T1300,3598A,111.1,34.7167,三门峡市,富达温泉假日酒店,细颗粒物(PM2.5),90,107,110,67,41,124,,50,50,16,35,9,10,0.6,0.7
2024-03-12T1300,2324A,117.6211,26.2625,三明市,三钢,,46,44,23,32,21,96,,56,56,8,22,6,6,0.4,0.9
2024-03-12T1300,2325A,117.635,26.2714,三明市,三明二中,,45,45,21,23,17,97,,59,59,12,22,7,5,0.6,0.8
2024-03-12T1300,2326A,117.6028,26.2378,三明市,三元区政府,,42,36,31,29,19,94,,60,60,11,22,9,6,0.8,0.9
2024-03-12T1300,1876A,109.5078,18.2489,三亚市,河东子站,,30,14,25,6,12,93,,63,63,6,7,4,4,0.6,0.6
2024-03-12T1300,1877A,109.4964,18.2681,三亚市,河西子站,,,13,25,5,11,90,,56,56,7,11,,3,0.6,0.6
2024-03-12T1300,3540A,109.7348,18.3443,三亚市,君悦子站,,32,16,30,6,10,101,,74,74,7,10,4,4,0.6,0.6
2024-03-12T1300,2624A,91.7608,29.2313,山南市,山南监测站,,34,18,26,11,13,106,,89,78,7,6,6,6,0.3,0.3
2024-03-12T1300,1674A,116.6794,23.3667,汕头市,金平子站,,33,25,24,6,16,103,,61,61,10,29,5,8,0.7,1
2024-03-12T1300,1675A,116.7244,23.3633,汕头市,龙湖子站,,35,18,24,13,24,109,,66,66,10,35,5,7,0.8,1.3
2024-03-12T1300,1676A,116.7258,23.2775,汕头市,濠江子站,,32,25,22,6,23,102,,62,62,8,26,5,6,0.6,1.2
