timepoint,stationcode,longitude,latitude,area,positionname,primarypollutant,aqi,pm10,pm10_24h,pm2_5,pm2_5_24h,o3,o3_24h,o3_8h,o3_8h_24h,no2,no2_24h,so2,so2_24h,co,co_24h
2024-09-26T2000,2566A,102.1879,31.914,阿坝藏族羌族自治州,州农科所,颗粒物(PM10),56,62,23,13,12,28,,54,51,52,17,14,9,0.0,0
2024-09-26T2000,2568A,102.2502,31.8896,阿坝藏族羌族自治州,马师校,,40,31,20,28,13,32,,68,65,23,9,4,4,0.3,0.3
2024-09-26T2000,3994A,102.2165,31.9024,阿坝藏族羌族自治州,马尔康中学西区,,,36,22,28,18,39,,58,,,8,,6,0.4,0.4
2024-09-26T2000,2695A,80.292,41.1694,阿克苏地区,电视台,颗粒物(PM10),104,158,176,47,55,109,,111,111,13,33,4,3,0.4,0.7
2024-09-26T2000,2696A,80.2613,41.1551,阿克苏地区,艺术中心,颗粒物(PM10),93,135,154,48,53,93,,106,106,20,34,5,4,0.6,1
2024-09-26T2000,2204A,105.6467,38.8363,阿拉善盟,西城区西花园,,49,49,64,26,27,90,,127,122,21,12,10,10,0.7,0.7
2024-09-26T2000,2205A,105.6985,38.8411,阿拉善盟,蒙二幼,颗粒物(PM10),54,57,65,22,21,84,,113,110,18,10,6,7,0.5,0.5
2024-09-26T2000,2206A,105.724,38.8516,阿拉善盟,环保局新楼,,40,40,58,16,19,101,,112,111,9,8,9,10,0.4,0.5
2024-09-26T2000,2708A,88.1264,47.8517,阿勒泰地区,市站,,23,23,34,3,7,59,,67,67,17,17,7,8,0.4,0.5
2024-09-26T2000,2630A,80.1161,32.5,阿里地区,阿里监测站,,35,8,13,3,5,110,,104,104,5,14,8,8,0.3,0.4
2024-09-26T2000,3192A,80.0903,32.5028,阿里地区,阿里藏医院,,35,12,15,3,5,109,,102,102,4,10,6,6,0.2,0.3
2024-09-26T2000,2642A,109.0318,32.6537,安康市,香溪洞,颗粒物(PM10),57,64,109,33,26,146,,152,152,7,14,10,10,0.4,0.4
2024-09-26T2000,2643A,109.0281,32.6939,安康市,安康市监测站,颗粒物(PM10),56,62,44,28,25,134,,146,146,12,16,10,16,1.5,0.7
2024-09-26T2000,2291A,117.0809,30.5177,安庆市,环科院,细颗粒物(PM2.5),78,76,55,57,40,138,,169,166,22,17,11,10,1.2,0.9
2024-09-26T2000,2292A,117.0331,30.5119,安庆市,马山宾馆,细颗粒物(PM2.5),80,65,54,59,40,149,,170,169,21,18,12,12,1.1,0.9
2024-09-26T2000,2294A,116.9896,30.6145,安庆市,安庆大学,细颗粒物(PM2.5),79,76,56,58,40,148,,164,164,15,13,10,9,0.8,0.6
2024-09-26T2000,3173A,117.0598,30.5351,安庆市,市人大,细颗粒物(PM2.5),79,70,55,58,40,141,,165,164,20,16,11,11,1.0,0.9
2024-09-26T2000,3123A,105.9408,26.2431,安顺市,凤凰山,,40,36,47,28,34,115,,129,128,13,9,6,7,0.5,0.5
2024-09-26T2000,3124A,105.9439,26.2564,安顺市,金钟山,,38,36,46,25,34,119,,130,130,10,8,7,9,0.6,0.6
2024-09-26T2000,3125A,105.8983,26.2481,安顺市,娄家坡,,46,38,33,32,27,120,,127,127,9,7,7,7,0.6,0.6
2024-09-26T2000,1819A,114.3551,36.1017,安阳市,红庙街,细颗粒物(PM2.5),88,100,118,65,83,142,,210,205,32,28,9,12,0.6,0.9
2024-09-26T2000,1820A,114.361,36.0681,安阳市,银杏小区,颗粒物(PM10),74,98,113,39,53,160,,205,203,22,19,7,9,0.7,0.9
2024-09-26T2000,3141A,114.3922,36.0878,安阳市,信访局,颗粒物(PM10),87,123,129,50,64,159,,212,210,32,29,8,9,0.8,1
2024-09-26T2000,3669A,114.4705,36.0637,安阳市,左辅环卫站,颗粒物(PM10),102,153,172,73,90,144,,200,196,36,28,8,10,0.7,0.8
2024-09-26T2000,3703A,114.2917,36.0949,安阳市,安钢职工学校,细颗粒物(PM2.5),89,126,125,66,92,152,,198,196,27,29,11,17,0.7,1.4
2024-09-26T2000,1748A,123.044,41.1196,鞍山市,深沟寺,,33,33,40,17,24,52,,86,82,29,28,7,5,1.0,0.8
2024-09-26T2000,1749A,123.011,41.0931,鞍山市,太阳城,,27,27,37,15,24,68,,92,91,25,25,11,7,0.8,0.6
2024-09-26T2000,1750A,123.0485,41.1442,鞍山市,太平,,47,47,52,23,32,51,,90,86,44,34,18,9,1.1,0.9
2024-09-26T2000,1751A,122.9642,41.0971,鞍山市,铁西三道街,,44,44,63,24,38,46,,86,80,54,37,21,9,2.3,1.2
2024-09-26T2000,1752A,122.9341,41.0833,鞍山市,铁西工业园区,颗粒物(PM10),53,55,61,33,36,33,,88,81,56,39,8,14,0.7,1.4
2024-09-26T2000,1753A,123.022,41.0821,鞍山市,明达新区,,31,31,35,18,24,55,,85,82,29,26,10,7,0.7,0.6
2024-09-26T2000,2195A,107.4212,40.761,巴彦淖尔市,附二中,颗粒物(PM10),95,140,50,25,19,33,,118,109,87,19,9,10,0.7,0.6
2024-09-26T2000,2196A,107.37,40.7372,巴彦淖尔市,市环保大楼,颗粒物(PM10),61,72,38,21,15,84,,116,115,36,14,10,5,0.5,0.4
2024-09-26T2000,1956A,86.1472,41.7538,巴音郭楞蒙古自治州,孔雀公园,颗粒物(PM10),98,146,101,38,27,76,,89,89,26,44,8,11,0.3,0.6
2024-09-26T2000,1957A,86.1972,41.7166,巴音郭楞蒙古自治州,棉纺厂,颗粒物(PM10),106,162,100,42,29,81,,100,99,23,29,6,7,0.3,0.3
2024-09-26T2000,1958A,86.2357,41.7173,巴音郭楞蒙古自治州,经济开发区,,,,118,,31,74,,102,100,,16,8,8,0.4,0.3
2024-09-26T2000,2914A,106.7677,31.8794,巴中市,苏山坪,细颗粒物(PM2.5),72,69,48,52,36,136,,142,142,13,11,5,4,0.6,0.5
2024-09-26T2000,3182A,106.7656,31.8545,巴中市,丽阳花园,细颗粒物(PM2.5),89,84,54,66,42,83,,139,136,38,25,6,6,1.0,0.7
2024-09-26T2000,3183A,106.7418,31.8654,巴中市,圣泉水务公司,细颗粒物(PM2.5),89,85,49,66,39,73,,143,138,50,23,4,4,1.0,0.7
2024-09-26T2000,3616A,106.7616,31.8344,巴中市,市中心医院,细颗粒物(PM2.5),89,84,60,66,44,91,,138,136,34,26,6,5,0.8,0.7
2024-09-26T2000,2235A,122.7911,45.6077,白城市,洮北区环保局,,,,23,,16,49,,90,80,30,16,,5,0.4,0.4
2024-09-26T2000,2236A,122.8738,45.5725,白城市,市环保局,,27,27,30,16,12,23,,84,71,48,29,5,5,0.3,0.3
2024-09-26T2000,2231A,126.4219,41.9171,白山市,喜丰,颗粒物(PM10),58,65,23,17,7,29,,93,76,34,14,6,6,0.6,0.6
2024-09-26T2000,2232A,126.4077,41.9419,白山市,环保局,,48,48,23,18,8,29,,79,68,27,12,8,8,0.8,0.7
2024-09-26T2000,2647A,104.1724,36.5446,白银市,第三小学,颗粒物(PM10),53,56,26,32,15,95,,98,98,51,21,7,14,1.1,0.9
2024-09-26T2000,2648A,104.1465,36.5482,白银市,动力公司,,38,38,23,11,11,62,,99,97,43,17,5,10,0.4,0.6
2024-09-26T2000,2512A,106.6103,23.9011,百色市,市监测站,,,,58,,36,110,,146,144,15,15,23,12,,0.7
2024-09-26T2000,2513A,106.6538,23.8859,百色市,市中心血站,"颗粒物(PM10),细颗粒物(PM2.5)",59,68,69,42,44,115,,128,127,17,21,19,15,0.8,0.7
2024-09-26T2000,3406A,106.6085,23.8798,百色市,祈福高中,颗粒物(PM10),62,73,75,36,38,104,,144,142,16,27,14,12,0.9,0.8
2024-09-26T2000,2270A,117.396,32.939,蚌埠市,工人疗养院,颗粒物(PM10),52,53,55,25,23,130,,117,117,8,18,6,6,0.4,0.4
2024-09-26T2000,2271A,117.3605,32.9427,蚌埠市,百货大楼,颗粒物(PM10),51,52,49,20,18,122,,109,109,11,18,7,7,0.4,0.4
2024-09-26T2000,2273A,117.4185,32.8911,蚌埠市,蚌埠学院,颗粒物(PM10),51,51,50,27,28,94,,106,106,40,37,10,10,0.5,0.4
2024-09-26T2000,2274A,117.3533,32.9673,蚌埠市,淮上区政府,颗粒物(PM10),57,63,51,32,27,100,,107,107,18,24,6,6,0.4,0.4
2024-09-26T2000,2275A,117.3145,32.8977,蚌埠市,高新区,,44,44,45,21,24,114,,106,106,27,31,10,9,0.4,0.4
2024-09-26T2000,3715A,117.3092,32.9314,蚌埠市,蚌埠田家炳中学,,48,48,59,21,25,132,,110,110,6,30,6,6,0.3,0.3
2024-09-26T2000,1585A,109.8756,40.6532,包头市,市环境监测站,颗粒物(PM10),56,62,46,16,20,71,,111,105,48,48,7,12,0.6,0.8
2024-09-26T2000,1587A,109.9991,40.5842,包头市,包头八中,,42,42,59,13,24,77,,110,107,33,45,6,11,0.7,1
2024-09-26T2000,1588A,109.8538,40.6821,包头市,青山宾馆,,38,38,39,10,18,86,,116,114,38,43,8,11,0.8,0.8
2024-09-26T2000,1589A,109.8642,40.6288,包头市,惠龙物流,颗粒物(PM10),53,56,49,13,19,76,,111,109,36,47,8,13,0.8,1.1
2024-09-26T2000,1590A,110.0377,40.5546,包头市,东河鸿龙湾,,49,49,50,24,18,73,,113,109,28,36,11,15,0.7,0.8
2024-09-26T2000,3283A,109.9154,40.5685,包头市,滨河大厦,颗粒物(PM10),56,62,45,20,20,74,,109,107,35,49,10,14,0.5,0.8
2024-09-26T2000,3419A,109.9447,40.6261,包头市,包头市委党校,,29,29,48,10,18,85,,113,111,33,50,10,16,0.5,0.9
2024-09-26T2000,3683A,109.8331,40.6576,包头市,昆区政府,,47,47,42,13,20,80,,113,109,37,46,8,13,0.6,0.7
2024-09-26T2000,1930A,107.185,34.3063,宝鸡市,庙沟村,,39,39,40,22,27,104,,130,130,26,11,9,9,0.4,0.3
2024-09-26T2000,1931A,107.0708,34.3017,宝鸡市,竹园沟,,43,43,36,26,23,91,,134,133,19,14,7,7,0.6,0.5
2024-09-26T2000,1932A,107.1906,34.3672,宝鸡市,三陆医院,颗粒物(PM10),67,83,56,34,32,131,,147,147,35,30,7,7,0.7,0.6
2024-09-26T2000,1933A,107.1431,34.3547,宝鸡市,监测站,颗粒物(PM10),54,57,44,35,28,97,,139,139,24,17,7,6,0.6,0.6
2024-09-26T2000,1934A,107.1186,34.3739,宝鸡市,技工学校,细颗粒物(PM2.5),58,45,50,41,31,125,,144,144,32,21,8,8,0.7,0.6
2024-09-26T2000,1935A,107.3906,34.3528,宝鸡市,陈仓区环保局家属楼,细颗粒物(PM2.5),65,62,80,47,39,132,,157,157,38,29,10,10,0.7,0.7
2024-09-26T2000,1936A,107.2058,34.3497,宝鸡市,文理学院,,,48,50,12,23,144,,151,151,,19,8,8,0.6,0.5
2024-09-26T2000,1937A,107.2386,34.3622,宝鸡市,三迪小学,细颗粒物(PM2.5),55,51,56,39,34,134,,146,146,33,29,8,9,0.7,0.6
2024-09-26T2000,1051A,115.493,38.8632,保定市,游泳馆,细颗粒物(PM2.5),80,75,63,59,44,116,,144,144,16,27,3,3,0.5,0.4
2024-09-26T2000,1052A,115.5213,38.8959,保定市,华电二区,细颗粒物(PM2.5),67,58,57,48,35,102,,135,135,24,34,3,3,0.7,0.4
2024-09-26T2000,1053A,115.4713,38.9108,保定市,接待中心,颗粒物(PM10),70,90,60,45,37,83,,133,131,43,36,2,3,0.5,0.3
2024-09-26T2000,1054A,115.4612,38.8416,保定市,地表水厂,细颗粒物(PM2.5),77,80,69,56,40,106,,138,137,28,23,3,3,0.4,0.3
2024-09-26T2000,3581A,115.31981,38.95208,保定市,满城区生态环境分局,细颗粒物(PM2.5),98,122,70,73,35,79,,141,139,39,31,4,4,1.0,0.5
2024-09-26T2000,3582A,115.47694,38.76408,保定市,清苑区第二中学,细颗粒物(PM2.5),80,89,81,59,47,77,,137,131,54,29,1,2,0.7,0.5
2024-09-26T2000,3583A,115.62909,39.02311,保定市,徐水物探局,颗粒物(PM10),68,86,57,48,32,79,,134,131,36,33,5,5,0.5,0.5
2024-09-26T2000,4004A,115.4202,38.8656,保定市,双鹰农机,颗粒物(PM10),72,94,73,43,33,107,,147,146,25,33,2,2,0.7,0.5
2024-09-26T2000,4034A,115.5150,38.8590,保定市,植保所站,细颗粒物(PM2.5),70,84,65,51,42,112,,151,150,26,30,2,4,0.6,0.4
2024-09-26T2000,2594A,99.1678,25.1081,保山市,市环境监测站,,26,18,32,18,17,48,,69,67,13,10,4,5,0.5,0.4
2024-09-26T2000,2595A,99.1711,25.1328,保山市,市环保局,,27,27,38,7,11,53,,74,72,11,8,6,6,0.5,0.4
2024-09-26T2000,1867A,109.1436,21.4086,北海市,海滩公园,,42,37,44,20,26,133,,127,127,4,11,5,6,0.6,0.7
2024-09-26T2000,1868A,109.0981,21.4661,北海市,新市环保局,,42,35,35,29,26,126,,122,122,10,11,4,5,0.8,0.8
2024-09-26T2000,1869A,109.1778,21.5233,北海市,北海工业园,,42,30,47,29,31,119,,119,119,11,18,6,6,0.7,0.7
2024-09-26T2000,3400A,109.1911,21.4415,北海市,龙潭自来水厂,,43,31,44,30,40,112,,120,120,11,14,5,6,0.7,0.8
2024-09-26T2000,1001A,116.3621,39.8784,北京市,万寿西宫,颗粒物(PM10),53,56,37,30,22,70,,83,83,33,32,1,2,0.8,0.7
2024-09-26T2000,1002A,116.2202,40.2915,北京市,定陵,,26,23,21,18,16,16,,38,38,10,12,1,1,0.6,0.5
2024-09-26T2000,1003A,116.4174,39.9289,北京市,东四,,45,45,38,25,21,97,,94,94,17,30,3,3,0.7,0.7
2024-09-26T2000,1004A,116.4072,39.8863,北京市,天坛,,33,33,31,19,19,42,,78,76,18,26,3,3,0.5,0.6
2024-09-26T2000,1005A,116.462,39.9365,北京市,农展馆,,38,38,33,20,18,75,,82,82,21,34,6,5,0.6,0.6
2024-09-26T2000,1006A,116.3392,39.9295,北京市,官园,颗粒物(PM10),53,56,38,32,21,78,,86,86,26,30,6,6,0.8,0.7
2024-09-26T2000,1007A,116.2878,39.9611,北京市,海淀万柳,颗粒物(PM10),55,60,29,31,15,45,,69,69,38,38,3,3,0.6,0.4
2024-09-26T2000,1008A,116.6636,40.135,北京市,顺义新城,,35,35,18,19,9,45,,74,71,28,22,1,2,0.5,0.4
2024-09-26T2000,1009A,116.6275,40.3275,北京市,怀柔镇,,31,31,13,19,7,46,,72,70,17,16,3,2,0.6,0.4
2024-09-26T2000,1010A,116.2296,40.217,北京市,昌平镇,,45,45,23,22,11,30,,45,45,20,22,3,3,0.7,0.5
2024-09-26T2000,1011A,116.3966,39.9821,北京市,奥体中心,,40,40,28,21,16,36,,62,62,50,40,3,3,0.8,0.6
2024-09-26T2000,1012A,116.184,39.9136,北京市,古城,颗粒物(PM10),73,95,53,50,26,51,,61,61,43,37,3,3,0.8,0.6
2024-09-26T2000,3281A,115.9718,40.4529,北京市,延庆夏都,颗粒物(PM10),54,57,27,35,17,69,,90,86,20,11,1,2,0.7,0.4
2024-09-26T2000,3417A,117.0709,40.1465,北京市,平谷新城,,35,33,21,24,14,43,,88,84,23,9,2,2,0.8,0.4
2024-09-26T2000,3418A,116.8336,40.4095,北京市,密云新城,,37,37,13,14,7,27,,75,69,17,11,3,3,0.5,0.4
2024-09-26T2000,3671A,116.088,39.9726,北京市,门头沟三家店,颗粒物(PM10),57,64,36,36,18,12,,81,74,60,24,6,6,1.0,0.5
2024-09-26T2000,3672A,116.1541,39.8204,北京市,丰台云岗,细颗粒物(PM2.5),63,66,41,45,24,55,,51,51,22,30,4,4,0.6,0.5
2024-09-26T2000,3673A,116.6804,39.9081,北京市,通州东关,,45,45,42,20,24,52,,94,91,58,34,2,2,0.8,0.6
2024-09-26T2000,3674A,115.9577,39.7603,北京市,房山燕山,颗粒物(PM10),63,75,39,43,24,64,,92,92,18,15,3,3,0.6,0.5
2024-09-26T2000,3675A,116.4672,39.7733,北京市,大兴旧宫,,32,32,32,17,21,50,,89,85,27,27,3,2,0.6,0.6
2024-09-26T2000,3694A,115.986,40.4563,北京市,延庆石河营,"颗粒物(PM10),细颗粒物(PM2.5)",53,55,26,37,17,68,,87,83,19,11,3,3,0.6,0.4
2024-09-26T2000,3695A,116.6151,40.3053,北京市,怀柔新城,,28,28,16,19,11,57,,74,74,11,10,3,3,0.5,0.4
2024-09-26T2000,3696A,116.2545,39.8768,北京市,丰台小屯,颗粒物(PM10),53,56,46,31,21,48,,61,61,33,34,3,2,0.7,0.7
2024-09-26T2000,3697A,116.84,40.3844,北京市,密云镇,,43,43,17,20,9,34,,74,71,42,22,3,3,0.6,0.4
2024-09-26T2000,1761A,123.8275,41.3064,本溪市,大峪,,17,12,19,3,13,53,,83,80,11,21,8,9,0.5,0.7
2024-09-26T2000,1762A,123.7567,41.3325,本溪市,溪湖,颗粒物(PM10),56,62,30,22,11,16,,88,78,55,21,8,8,0.7,0.7
2024-09-26T2000,1763A,123.7169,41.3094,本溪市,彩屯,,31,31,22,17,15,13,,75,64,48,30,8,9,0.7,0.7
2024-09-26T2000,1764A,123.7669,41.2864,本溪市,东明,颗粒物(PM10),51,52,28,28,15,13,,86,75,66,32,5,5,1.3,0.8
2024-09-26T2000,1765A,123.7992,41.2664,本溪市,新立屯,,29,25,16,11,9,10,,84,66,58,26,4,5,0.4,0.5
2024-09-26T2000,1766A,123.8142,41.3472,本溪市,威宁,颗粒物(PM10),54,58,26,16,14,10,,81,70,56,26,8,8,0.5,0.6
2024-09-26T2000,2587A,105.2864,27.3125,毕节市,八中,,30,29,60,21,56,57,,90,88,13,15,6,7,0.7,0.7
2024-09-26T2000,2588A,105.31,27.2944,毕节市,师专,,36,32,71,25,56,55,,100,98,22,20,7,10,0.8,0.7
2024-09-26T2000,3537A,105.3631,27.3533,毕节市,长征村,细颗粒物(PM2.5),102,94,104,76,85,59,,102,99,9,10,8,11,0.9,0.8
2024-09-26T2000,1629A,118.0018,37.3617,滨州市,第二水厂,,41,41,56,19,33,86,,118,115,15,17,5,7,0.3,0.6
2024-09-26T2000,1630A,117.9776,37.393,滨州市,北中新校,,32,27,60,9,32,100,,124,122,9,14,28,9,0.6,0.8
2024-09-26T2000,3514A,117.9378,37.3956,滨州市,中海酒店,,,22,53,,34,101,,126,124,15,20,11,6,0.5,0.6
2024-09-26T2000,3515A,117.9378,37.3553,滨州市,开发区一中,,31,31,60,7,33,90,,130,121,21,23,7,10,0.6,0.7
2024-09-26T2000,3516A,118.0917,37.694,滨州市,金海六路,,37,37,47,9,28,87,,114,111,13,15,6,4,0.5,0.6
2024-09-26T2000,4028A,117.9956,37.3753,滨州市,滨州市西街道办事处,,32,24,52,12,38,100,,130,127,10,17,6,7,0.3,0.9
2024-09-26T2000,2311A,115.8072,33.8399,亳州市,污水处理厂,颗粒物(PM10),60,69,61,37,38,108,,133,132,26,27,6,10,0.7,0.6
2024-09-26T2000,2312A,115.7789,33.8518,亳州市,三国揽胜宫,,48,48,51,33,35,111,,128,128,21,20,6,8,0.7,0.6
2024-09-26T2000,3332A,115.7633,33.8034,亳州市,亳州学院,颗粒物(PM10),57,63,58,20,39,134,,138,138,14,16,5,6,0.7,0.6
2024-09-26T2000,2693A,82.0485,44.8556,博尔塔拉蒙古自治州,市党校,,25,25,25,12,10,65,,85,85,32,8,4,4,0.2,0.3
2024-09-26T2000,2694A,82.0806,44.8969,博尔塔拉蒙古自治州,市环保局,,32,32,27,13,10,74,,80,80,12,9,4,5,0.3,0.2
2024-09-26T2000,1071A,116.8842,38.2991,沧州市,沧县城建局,,33,33,62,17,44,79,,106,105,28,26,4,4,0.4,0.6
2024-09-26T2000,1072A,116.8584,38.3254,沧州市,电视转播站,,32,32,55,9,39,91,,114,114,24,23,4,3,0.4,0.5
2024-09-26T2000,1073A,116.8709,38.3228,沧州市,市环保局,,32,32,61,22,44,81,,109,108,22,21,4,4,0.4,0.5
2024-09-26T2000,3324A,116.8136,38.3004,沧州市,河北水利电力学院,,40,29,66,28,47,92,,113,113,20,19,4,5,0.3,0.4
2024-09-26T2000,2622A,97.1806,31.1273,昌都市,昌都监测站,,15,14,12,8,6,46,,74,74,28,14,6,6,0.4,0.4
2024-09-26T2000,3719A,97.1714,31.1406,昌都市,昌都会议中心,,24,15,10,7,6,74,,84,84,3,5,7,8,0.2,0.1
2024-09-26T2000,2690A,88.1236,43.8886,昌吉回族自治州,天山天池,,18,9,17,9,8,57,,67,60,9,6,5,5,0.5,0.5
2024-09-26T2000,2692A,87.2717,44.0297,昌吉回族自治州,新区政务中心,,24,24,27,9,12,72,,72,72,10,17,7,6,0.5,0.5
2024-09-26T2000,3613A,87.3095,44.0142,昌吉回族自治州,亚心广场,,,29,31,3,7,72,,71,71,,24,5,4,,0.5
2024-09-26T2000,1119A,125.3325,43.9166,长春市,食品厂,颗粒物(PM10),67,84,84,32,32,7,,92,73,76,44,6,6,0.9,1
2024-09-26T2000,1120A,125.2863,43.9027,长春市,客车厂,颗粒物(PM10),68,85,61,31,33,7,,80,64,86,43,7,7,0.9,0.9
2024-09-26T2000,1121A,125.2841,43.8463,长春市,邮电学院,,38,38,45,26,23,22,,85,74,42,31,7,8,0.5,0.6
2024-09-26T2000,1122A,125.3716,43.8772,长春市,劳动公园,颗粒物(PM10),64,78,53,42,27,11,,89,75,74,35,8,9,0.6,0.5
2024-09-26T2000,1123A,125.3297,43.8805,长春市,园林处,颗粒物(PM10),57,64,48,21,23,20,,86,76,65,36,6,5,0.7,0.8
2024-09-26T2000,1124A,125.4605,43.79,长春市,净月潭,,24,24,17,9,10,70,,88,84,7,11,6,6,0.3,0.3
2024-09-26T2000,1126A,125.3863,43.8447,长春市,经开区环卫处,颗粒物(PM10),56,61,44,24,17,4,,83,69,72,32,8,8,0.7,0.6
2024-09-26T2000,1127A,125.245,43.7783,长春市,高新区管委会,颗粒物(PM10),68,86,37,17,18,5,,78,64,67,36,5,5,0.7,0.5
2024-09-26T2000,1128A,125.1761,43.8325,长春市,岱山公园,,41,40,45,20,20,7,,78,66,82,43,4,5,0.7,0.5
2024-09-26T2000,1335A,113.0833,28.2325,长沙市,经开区环保局,颗粒物(PM10),63,76,81,40,60,158,,206,190,22,27,2,3,0.5,0.6
2024-09-26T2000,1336A,112.8872,28.2189,长沙市,高开区环保局,细颗粒物(PM2.5),87,90,85,64,58,152,,195,192,15,32,6,6,0.6,0.6
2024-09-26T2000,1337A,113.0792,28.2053,长沙市,马坡岭,颗粒物(PM10),68,86,90,44,62,159,,196,193,11,22,5,6,0.6,0.7
2024-09-26T2000,1338A,112.9394,28.19,长沙市,湖南师范大学,细颗粒物(PM2.5),97,102,85,72,54,138,,201,194,19,20,8,8,0.8,0.6
2024-09-26T2000,1339A,113.0178,28.1322,长沙市,雨花区环保局,细颗粒物(PM2.5),83,101,87,61,58,140,,199,194,19,32,8,8,0.7,0.7
2024-09-26T2000,1340A,112.9792,28.2597,长沙市,伍家岭,细颗粒物(PM2.5),77,98,88,56,58,146,,184,180,15,27,5,5,0.9,0.9
2024-09-26T2000,1341A,113.0014,28.1944,长沙市,火车新站,"颗粒物(PM10),细颗粒物(PM2.5)",79,108,83,58,53,145,,180,177,14,23,6,6,0.7,0.7
2024-09-26T2000,1342A,112.9844,28.1178,长沙市,天心区环保局,颗粒物(PM10),77,104,99,50,45,139,,198,194,22,40,6,5,0.6,0.6
2024-09-26T2000,1343A,112.8908,28.1308,长沙市,湖南中医药大学,细颗粒物(PM2.5),102,104,92,76,61,143,,210,203,24,42,7,6,0.9,0.8
2024-09-26T2000,1344A,112.9581,28.3611,长沙市,沙坪,细颗粒物(PM2.5),75,79,67,55,44,137,,181,178,12,9,8,10,0.5,0.5
2024-09-26T2000,1727A,113.1147,36.1547,长治市,清华站,细颗粒物(PM2.5),94,76,64,70,57,167,,165,165,22,21,10,11,1.3,1.6
2024-09-26T2000,1728A,113.1031,36.1989,长治市,监测站,细颗粒物(PM2.5),92,83,72,68,51,149,,156,156,25,28,11,14,1.3,1.6
2024-09-26T2000,1730A,113.0886,36.2125,长治市,审计局,细颗粒物(PM2.5),92,78,69,68,60,162,,163,163,23,28,9,11,1.0,1.2
2024-09-26T2000,1731A,113.0844,36.1856,长治市,长治八中,颗粒物(PM10),73,95,86,52,42,149,,164,163,26,26,10,11,1.4,1.5
2024-09-26T2000,2845A,113.1569,36.1911,长治市,德盛苑,细颗粒物(PM2.5),83,73,59,61,46,173,,167,167,14,19,6,7,1.1,1.3
2024-09-26T2000,3568A,113.06,36.0464,长治市,向阳小学,细颗粒物(PM2.5),93,108,87,69,61,125,,175,165,30,25,8,9,0.5,1
2024-09-26T2000,3569A,112.8792,36.3144,长治市,屯留一中,细颗粒物(PM2.5),107,103,92,80,73,139,,159,152,27,33,21,16,2.0,2.2
2024-09-26T2000,3570A,113.235,36.3489,长治市,潞城四中,细颗粒物(PM2.5),115,,79,87,78,170,,184,182,17,17,6,8,1.3,1.3
2024-09-26T2000,1854A,111.6975,28.9703,常德市,市二中,细颗粒物(PM2.5),118,130,120,89,89,134,,161,161,24,33,14,12,1.0,1
2024-09-26T2000,3138A,111.7153,29.0289,常德市,武陵区永安,细颗粒物(PM2.5),168,172,122,127,94,139,,174,174,30,28,15,14,0.9,0.8
2024-09-26T2000,3139A,111.6892,28.9881,常德市,鼎城区玉霞,细颗粒物(PM2.5),143,153,130,109,94,115,,172,170,31,33,13,13,1.0,1
2024-09-26T2000,3140A,111.6625,29.0531,常德市,武陵区长庚,细颗粒物(PM2.5),233,,127,183,102,150,,178,178,25,24,14,16,0.9,0.8
2024-09-26T2000,1196A,119.9633,31.762,常州市,市监测站,,23,23,62,16,30,49,,72,69,35,29,8,8,0.5,0.7
2024-09-26T2000,1200A,119.9468,31.7069,常州市,武进监测站,,26,26,59,15,30,56,,69,68,24,24,6,7,0.8,0.9
2024-09-26T2000,1201A,119.9255,31.9087,常州市,安家,,24,17,44,9,28,75,,67,67,14,27,9,9,0.4,0.5
2024-09-26T2000,3002A,119.9805,31.8174,常州市,行政中心,,23,23,59,12,24,66,,73,73,21,25,13,13,0.6,0.6
2024-09-26T2000,3003A,120.0522,31.7748,常州市,经开区,,18,18,48,6,30,57,,67,66,33,39,7,7,0.5,0.5
2024-09-26T2000,3010A,119.9025,31.7964,常州市,钟楼,,25,24,50,17,26,63,,71,70,19,24,8,9,0.6,0.7
2024-09-26T2000,3429A,119.8598,31.7066,常州市,武进经发区,,19,19,59,8,28,46,,63,63,34,43,8,8,0.7,0.8
2024-09-26T2000,3430A,119.5826,31.7245,常州市,金坛城区,,21,21,46,10,29,60,,78,54,20,26,8,9,0.6,0.8
2024-09-26T2000,2220A,120.4318,41.5881,朝阳市,西梁,细颗粒物(PM2.5),84,74,36,62,18,9,,90,81,69,24,10,9,1.3,0.7
2024-09-26T2000,2221A,120.4521,41.5646,朝阳市,河畔小区,,21,,26,12,12,67,,95,93,19,15,7,8,0.6,0.6
2024-09-26T2000,2222A,120.4176,41.5648,朝阳市,八里堡,颗粒物(PM10),71,92,40,23,14,7,,92,79,82,30,9,10,1.2,0.8
2024-09-26T2000,2223A,120.3806,41.5969,朝阳市,农业园区,,33,27,27,23,16,22,,88,76,47,19,7,8,0.5,0.5
2024-09-26T2000,1705A,116.6367,23.6719,潮州市,西园路,,,,24,8,14,73,,106,105,16,11,2,3,0.6,0.3
2024-09-26T2000,3026A,116.6183,23.6608,潮州市,市政府,,35,32,32,24,14,90,,124,120,16,16,4,8,0.6,0.5
2024-09-26T2000,4036A,116.6461,23.6761,潮州市,金山,,29,18,24,12,10,92,,121,121,11,8,6,6,0.7,0.7
2024-09-26T2000,2472A,113.0073,25.9061,郴州市,马头岭,,34,34,34,13,12,31,,52,51,14,12,7,7,0.4,0.5
2024-09-26T2000,2473A,113.0116,25.8226,郴州市,市职中,,39,39,32,27,27,26,,56,55,25,16,4,5,0.7,0.7
2024-09-26T2000,2474A,113.0161,25.8001,郴州市,兴隆步行街,,49,48,37,34,26,42,,55,55,20,15,6,4,0.8,0.7
2024-09-26T2000,2475A,113.0383,25.8071,郴州市,市审计局,,49,41,34,34,29,36,,52,52,13,11,5,4,0.7,0.6
2024-09-26T2000,2476A,113.0348,25.7759,郴州市,市环保局,,45,45,43,26,35,32,,50,50,17,13,5,6,0.7,0.8
2024-09-26T2000,1431A,103.9728,30.7236,成都市,金泉两河,细颗粒物(PM2.5),62,58,62,44,30,130,,116,116,16,25,3,4,0.7,0.8
2024-09-26T2000,1432A,104.176,30.6872,成都市,十里店,细颗粒物(PM2.5),65,56,82,47,57,125,,155,155,15,31,4,4,0.7,0.8
2024-09-26T2000,1433A,104.079,30.5706,成都市,三瓦窑,细颗粒物(PM2.5),55,53,74,39,58,122,,154,154,23,38,2,4,0.6,0.7
2024-09-26T2000,1434A,104.1114,30.63,成都市,沙河铺,颗粒物(PM10),56,62,77,39,57,106,,159,156,20,28,3,4,0.7,0.8
2024-09-26T2000,1437A,104.0786,30.6531,成都市,君平街,细颗粒物(PM2.5),59,53,73,42,55,135,,168,167,20,28,2,4,0.9,0.9
2024-09-26T2000,2880A,104.0239,30.65639,成都市,大石西路,颗粒物(PM10),52,53,72,28,51,115,,166,164,24,31,4,4,0.7,0.8
2024-09-26T2000,3136A,104.2725,30.5589,成都市,龙泉驿区区政府,细颗粒物(PM2.5),55,51,60,39,47,105,,153,147,17,15,3,3,0.7,0.7
2024-09-26T2000,3357A,104.0106,30.6931,成都市,金博路,,44,44,69,28,46,106,,151,150,24,28,1,2,0.7,0.8
2024-09-26T2000,3359A,104.0578,30.5225,成都市,华阳,细颗粒物(PM2.5),58,48,74,41,54,119,,156,154,17,20,4,4,0.7,0.8
2024-09-26T2000,3487A,104.2394,30.5319,成都市,车城东七路,,44,44,71,28,55,129,,163,159,14,12,4,4,0.6,0.7
2024-09-26T2000,3488A,104.3853,30.7453,成都市,青白江技师分院,细颗粒物(PM2.5),75,56,64,55,53,98,,168,162,44,45,2,3,0.7,0.8
2024-09-26T2000,3489A,104.0789,30.4072,成都市,科学城,,46,38,70,30,56,147,,172,170,16,20,5,5,0.7,0.8
2024-09-26T2000,4011A,103.8506,30.6947,成都市,光华大道三段,,46,42,60,22,40,147,,149,149,19,21,4,4,0.6,0.7
2024-09-26T2000,1062A,117.9531,40.9081,承德市,铁路,,49,49,19,16,7,17,,69,63,38,21,8,8,0.4,0.3
2024-09-26T2000,1063A,117.9392,40.9763,承德市,中国银行,,40,40,20,12,7,21,,76,68,30,19,4,5,0.5,0.3
2024-09-26T2000,1064A,117.9503,40.928,承德市,开发区,,39,39,25,14,13,22,,71,66,37,21,7,7,0.4,0.3
2024-09-26T2000,1065A,117.8051,40.9655,承德市,文化中心,颗粒物(PM10),56,61,38,23,11,12,,55,52,39,26,12,14,0.6,0.5
2024-09-26T2000,1066A,117.9268,41.0026,承德市,离宫,,49,,17,34,19,26,,57,53,9,10,3,2,0.5,0.3
2024-09-26T2000,2314A,117.47,30.6618,池州市,池州学院,细颗粒物(PM2.5),89,98,72,66,47,90,,158,149,33,26,13,11,0.9,1.1
2024-09-26T2000,3237A,117.4918,30.6617,池州市,展览馆,细颗粒物(PM2.5),79,95,69,58,39,101,,153,149,26,23,7,8,1.1,1.2
2024-09-26T2000,3333A,117.5627,30.695,池州市,第八中学,细颗粒物(PM2.5),77,97,66,56,42,106,,148,146,24,25,6,6,0.9,1
2024-09-26T2000,3334A,117.5038,30.6243,池州市,第十二中学,细颗粒物(PM2.5),78,83,60,57,42,109,,155,153,18,22,6,6,1.1,1
2024-09-26T2000,1744A,118.9233,42.2816,赤峰市,松山一中,,33,33,26,12,10,50,,74,72,38,30,14,11,0.7,0.5
2024-09-26T2000,1745A,118.9576,42.2728,赤峰市,哈达街,,36,36,20,13,8,75,,89,88,17,16,18,9,0.6,0.4
2024-09-26T2000,1746A,118.8788,42.2554,赤峰市,天义路,,18,18,21,3,11,56,,87,84,28,21,7,7,0.4,0.3
2024-09-26T2000,3058A,119.2658,42.0353,赤峰市,银河街,颗粒物(PM10),53,56,38,27,17,44,,93,88,36,20,18,19,0.8,0.6
2024-09-26T2000,3286A,118.9359,42.3147,赤峰市,桥北物流园区,颗粒物(PM10),62,74,27,29,15,9,,81,72,75,32,28,11,1.0,0.6
2024-09-26T2000,2521A,107.3476,22.4136,崇左市,市环保局江州分局,,43,43,45,27,25,70,,109,103,10,11,3,3,0.8,0.8
2024-09-26T2000,2522A,107.3702,22.3707,崇左市,城南新区,,,32,35,21,23,77,,108,103,9,12,,3,0.8,0.8
2024-09-26T2000,2298A,118.3093,32.3153,滁州市,老年大学,,38,38,40,16,23,103,,99,99,15,19,9,9,0.3,0.3
2024-09-26T2000,2299A,118.3244,32.2786,滁州市,人大宾馆,,38,38,44,18,29,94,,89,89,19,22,6,6,0.3,0.4
2024-09-26T2000,3207A,118.3118,32.3038,滁州市,市政府原办公楼,,36,36,38,23,29,92,,90,90,20,22,6,6,0.4,0.4
2024-09-26T2000,3331A,118.3267,32.2634,滁州市,图书馆,,33,33,44,13,25,100,,93,93,12,18,5,5,0.3,0.4
2024-09-26T2000,2605A,101.5482,25.0441,楚雄彝族自治州,州环境监测站,,36,27,34,25,29,51,,77,74,19,22,10,21,0.7,0.7
2024-09-26T2000,2606A,101.538,25.0492,楚雄彝族自治州,市经济开发区,,32,29,34,22,26,48,,76,73,21,19,7,26,0.6,0.7
2024-09-26T2000,2548A,107.5277,31.2827,达州市,达州职业技术学院,细颗粒物(PM2.5),70,82,75,51,46,58,,143,132,70,42,7,7,1.0,0.8
2024-09-26T2000,2549A,107.5086,31.2186,达州市,市环境监测站,颗粒物(PM10),69,88,85,46,47,62,,155,144,79,43,8,9,1.0,0.9
2024-09-26T2000,2550A,107.4988,31.2132,达州市,凤凰小区,细颗粒物(PM2.5),67,80,74,48,51,106,,169,161,43,36,8,10,0.9,0.8
2024-09-26T2000,2551A,107.5082,31.1986,达州市,达县机关宾馆,颗粒物(PM10),75,100,87,53,48,46,,156,140,95,54,6,7,0.8,0.6
2024-09-26T2000,2552A,107.4644,31.2124,达州市,市政中心,"颗粒物(PM10),细颗粒物(PM2.5)",67,84,87,48,54,104,,165,156,55,43,9,14,0.8,1
2024-09-26T2000,2614A,100.1542,25.7054,大理白族自治州,大理市环境监测站,,23,21,23,16,16,60,,68,67,8,5,7,6,0.6,0.6
2024-09-26T2000,2615A,100.2171,25.5811,大理白族自治州,大理古城,,36,32,24,25,17,47,,82,76,18,11,8,7,0.5,0.4
2024-09-26T2000,1109A,121.612,38.9741,大连市,甘井子,,34,27,46,9,21,107,,104,104,21,23,7,9,0.3,0.6
2024-09-26T2000,1110A,121.565,38.9511,大连市,周水子,,26,23,34,10,22,82,,92,91,36,28,8,8,0.7,1
2024-09-26T2000,1111A,121.5637,38.8845,大连市,星海三站,,33,22,37,8,20,104,,103,103,13,14,6,7,0.2,0.5
2024-09-26T2000,1112A,121.6302,38.9117,大连市,青泥洼桥,,28,23,53,12,25,89,,94,94,32,26,7,8,0.1,0.4
2024-09-26T2000,1113A,121.6251,38.8638,大连市,傅家庄,,26,22,30,8,27,81,,87,87,21,20,6,8,0.3,0.5
2024-09-26T2000,1114A,121.5213,38.8661,大连市,七贤岭,,34,24,45,7,20,108,,110,110,14,14,6,8,0.5,0.7
2024-09-26T2000,1115A,121.2529,38.8061,大连市,旅顺,,30,23,24,11,16,95,,115,114,19,14,6,7,0.4,0.5
2024-09-26T2000,1116A,121.7485,39.1311,大连市,金州,,31,25,40,15,26,98,,102,102,17,19,6,8,0.5,0.9
2024-09-26T2000,1117A,121.7811,39.0496,大连市,开发区,,32,31,54,16,27,102,,98,98,16,19,2,5,0.5,0.7
2024-09-26T2000,1118A,121.9762,39.0631,大连市,双D港,,36,25,42,12,28,114,,116,116,20,21,8,8,0.6,0.8
2024-09-26T2000,1789A,124.81117,46.03138,大庆市,大同区,"颗粒物(PM10),细颗粒物(PM2.5)",57,63,35,40,24,41,,87,76,47,19,4,4,0.9,0.5
2024-09-26T2000,1790A,125.129,46.533,大庆市,龙凤区,,,,44,,24,20,,89,72,52,36,5,3,0.9,0.6
2024-09-26T2000,1791A,124.902,46.408,大庆市,红岗区,,43,43,30,29,20,63,,97,92,23,19,7,6,0.6,0.4
2024-09-26T2000,1792A,125.153,46.586,大庆市,萨尔图区,,43,43,39,18,20,44,,88,75,42,32,6,5,0.4,0.4
2024-09-26T2000,1793A,124.9042,46.6215,大庆市,让胡路区,,36,36,43,22,25,70,,94,89,22,28,32,6,0.3,0.4
2024-09-26T2000,3481A,125.141,46.634,大庆市,萨区政府监测点,,25,25,26,16,14,71,,92,89,17,27,6,6,0.2,0.5
2024-09-26T2000,1721A,113.3819,40.1097,大同市,果树场,颗粒物(PM10),69,88,50,47,21,42,,108,98,52,29,7,8,0.8,0.6
2024-09-26T2000,1723A,113.2994,40.0758,大同市,云冈宾馆,细颗粒物(PM2.5),69,80,54,50,24,95,,122,121,31,31,11,13,0.9,0.9
2024-09-26T2000,1724A,113.3444,40.0917,大同市,大同大学,细颗粒物(PM2.5),64,63,39,46,20,90,,119,118,30,25,8,13,0.7,0.6
2024-09-26T2000,1725A,113.2661,40.1269,大同市,安家小村,颗粒物(PM10),74,97,61,36,22,94,,119,119,30,35,12,14,0.8,1.3
2024-09-26T2000,1726A,113.2711,40.0844,大同市,教育学院,颗粒物(PM10),70,90,64,48,26,86,,114,114,39,41,10,12,0.8,1
2024-09-26T2000,3282A,113.3397,40.0597,大同市,大同市卫生学校,颗粒物(PM10),66,81,42,44,20,92,,119,118,28,28,8,13,0.7,0.6
2024-09-26T2000,3565A,113.1367,40.1122,大同市,云冈站,颗粒物(PM10),71,92,73,49,28,97,,115,115,26,26,12,12,0.7,0.5
2024-09-26T2000,3566A,113.1186,40.2556,大同市,图书馆,"颗粒物(PM10),细颗粒物(PM2.5)",68,86,44,49,23,89,,114,113,32,21,27,13,1.2,0.6
2024-09-26T2000,3567A,113.5931,40.0461,大同市,区一中,颗粒物(PM10),57,64,26,29,10,51,,112,106,63,15,8,9,0.8,0.6
2024-09-26T2000,3676A,113.2802,40.0995,大同市,第二人民医院,颗粒物(PM10),67,84,59,44,25,99,,124,124,26,32,15,16,0.7,1
2024-09-26T2000,2269A,124.1069,50.4097,大兴安岭地区,科技局,,48,48,23,25,18,76,,82,82,14,7,6,6,0.4,0.3
2024-09-26T2000,3663A,124.1164,50.4278,大兴安岭地区,红旗社区,,31,31,23,21,14,54,,80,77,21,14,14,8,0.4,0.4
2024-09-26T2000,1600A,124.3303,40.0625,丹东市,江湾东路,,19,19,30,9,20,57,,81,72,22,15,10,9,0.7,0.9
2024-09-26T2000,1601A,124.4256,40.1503,丹东市,临江后街,,33,33,32,16,19,33,,90,81,43,14,6,7,0.9,0.9
2024-09-26T2000,1602A,124.3933,40.1461,丹东市,元宝山,,22,15,25,8,15,69,,83,82,10,9,4,4,0.5,0.8
2024-09-26T2000,1603A,124.3633,40.1092,丹东市,民主桥,,29,29,29,14,17,28,,82,64,48,19,5,5,0.7,0.9
2024-09-26T2000,3541A,109.5726,19.5167,儋州市,第一中学子站,,35,35,28,17,17,92,,90,90,4,6,5,6,0.7,0.6
2024-09-26T2000,3542A,109.5567,19.5187,儋州市,东坡学校子站,,32,26,27,17,17,100,,96,96,6,6,6,5,0.6,0.6
2024-09-26T2000,2616A,98.5842,24.428,德宏傣族景颇族自治州,德宏州监测站,,36,36,31,12,14,24,,43,43,29,14,14,13,0.8,0.7
2024-09-26T2000,3677A,98.5881,24.4368,德宏傣族景颇族自治州,芒市人民政府综合楼,,25,20,22,17,17,35,,54,54,22,12,10,9,0.8,0.8
2024-09-26T2000,1901A,104.4239,31.1208,德阳市,东山公园,颗粒物(PM10),51,51,64,31,39,154,,180,180,23,21,3,4,0.7,0.7
2024-09-26T2000,1902A,104.3826,31.1317,德阳市,西小区,颗粒物(PM10),54,57,77,36,52,130,,174,174,29,40,2,6,0.8,0.8
2024-09-26T2000,1904A,104.3553,31.1091,德阳市,耐火材料厂,细颗粒物(PM2.5),65,73,94,47,55,99,,178,170,45,42,4,8,0.7,0.8
2024-09-26T2000,3639A,104.4019,31.1244,德阳市,市教育局,颗粒物(PM10),56,61,74,32,41,133,,178,175,31,36,1,2,0.7,0.8
2024-09-26T2000,1622A,116.3032,37.4674,德州市,儿童乐园,,,,107,,67,107,,171,157,41,32,9,12,0.8,0.7
2024-09-26T2000,1624A,116.2991,37.4451,德州市,监理站,细颗粒物(PM2.5),52,46,90,36,71,124,,182,169,30,25,9,13,0.6,0.6
2024-09-26T2000,3066A,116.2721,37.4379,德州市,九衢泉纯净水厂,,46,46,85,29,52,107,,170,152,33,26,8,12,0.8,0.7
2024-09-26T2000,3371A,116.3728,37.4403,德州市,开发区人民医院,颗粒物(PM10),51,51,90,31,52,78,,171,152,51,26,8,12,0.8,0.7
2024-09-26T2000,3372A,116.3572,37.4094,德州市,太阳城中学,,44,44,87,27,51,71,,169,146,58,31,7,11,0.7,0.7
2024-09-26T2000,3511A,116.5652,37.3319,德州市,陵城艺术中心,,36,36,82,14,56,82,,155,136,37,28,9,12,0.6,0.7
2024-09-26T2000,2621A,99.7056,27.8317,迪庆藏族自治州,迪庆州站,,18,15,17,12,10,49,,59,59,13,10,8,12,0.5,0.4
2024-09-26T2000,3180A,99.7136,27.8094,迪庆藏族自治州,质量技术监督局,,17,17,14,6,8,41,,55,54,21,10,6,7,0.6,0.4
2024-09-26T2000,2663A,104.6241,35.5734,定西市,东关小学,,38,35,21,26,19,66,,87,84,17,11,6,6,0.0,0
2024-09-26T2000,2664A,104.6194,35.5934,定西市,供电公司,,39,39,29,18,18,73,,59,,11,12,6,6,0.3,0.2
2024-09-26T2000,1389A,113.7547,23.0494,东莞市,莞城梨川,,49,49,52,28,33,106,,177,173,29,36,6,6,0.9,0.9
2024-09-26T2000,1390A,113.7944,23.0128,东莞市,东城石井,,44,44,45,28,28,108,,189,177,21,27,5,5,0.8,0.9
2024-09-26T2000,1391A,113.7383,22.9658,东莞市,南城西平,,43,43,43,26,27,111,,186,176,49,35,7,6,1.0,1
2024-09-26T2000,3319A,113.7338,23.0381,东莞市,万江金泰,,48,48,52,26,32,111,,189,184,29,38,8,9,0.7,0.8
2024-09-26T2000,3626A,113.7533,23.0202,东莞市,南城元岭,,48,48,47,23,32,120,,179,173,21,35,8,7,0.9,0.9
2024-09-26T2000,3627A,113.7875,23.0457,东莞市,东城主山,,46,46,50,30,32,123,,201,196,26,36,7,7,0.7,0.8
2024-09-26T2000,1666A,118.6614,37.4309,东营市,市环保局,,36,12,27,3,15,115,,124,124,12,10,2,3,0.2,0.3
2024-09-26T2000,3036A,118.6904,37.4338,东营市,开发区管委会,,36,18,35,3,20,113,,123,122,19,13,3,3,0.2,0.3
2024-09-26T2000,3365A,118.5719,37.565,东营市,垦利区民丰路,,23,19,29,7,18,73,,100,96,21,10,10,10,0.3,0.5
2024-09-26T2000,3498A,118.5055,37.8612,东营市,河口城区,,30,22,31,7,16,96,,112,111,16,15,5,7,0.2,0.3
2024-09-26T2000,3646A,118.4978,37.4623,东营市,胜利站,,32,17,33,7,19,100,,114,113,13,9,6,7,0.1,0.2
2024-09-26T2000,3734A,118.35,37.26,东营市,理想之城,,26,14,32,14,24,83,,111,108,34,15,2,3,0.1,0.3
2024-09-26T2000,1591A,110.0023,39.8129,鄂尔多斯市,综合楼,颗粒物(PM10),51,51,63,17,18,113,,116,116,21,35,14,18,0.7,0.7
2024-09-26T2000,1592A,109.9486,39.8261,鄂尔多斯市,巴音孟克林场办事处,颗粒物(PM10),53,56,62,19,22,103,,109,109,29,39,8,12,0.6,0.7
2024-09-26T2000,1593A,109.7736,39.5986,鄂尔多斯市,康泽苑,,39,31,49,22,16,124,,123,123,15,29,8,10,0.6,0.5
2024-09-26T2000,1594A,109.8119,39.5989,鄂尔多斯市,华泰汽车城,,39,34,50,27,19,112,,112,112,13,34,9,10,0.6,0.5
2024-09-26T2000,1595A,109.9734,39.7884,鄂尔多斯市,奥林花园,颗粒物(PM10),60,70,59,29,22,81,,100,100,39,44,8,9,0.7,0.8
2024-09-26T2000,2436A,114.8938,30.3994,鄂州市,市政府,颗粒物(PM10),60,70,67,41,36,119,,182,176,44,30,14,16,1.2,1.3
2024-09-26T2000,2437A,114.8989,30.3714,鄂州市,赵家坝,细颗粒物(PM2.5),70,76,72,51,35,114,,181,173,38,30,11,14,0.8,0.9
2024-09-26T2000,3654A,114.8094,30.4089,鄂州市,精准医疗中心,细颗粒物(PM2.5),72,85,66,52,39,137,,187,183,28,30,9,12,0.8,1
2024-09-26T2000,2454A,109.4978,30.2981,恩施土家族苗族自治州,湖北民院,细颗粒物(PM2.5),67,56,64,48,50,68,,153,144,40,23,10,10,0.9,0.7
2024-09-26T2000,2455A,109.4707,30.2798,恩施土家族苗族自治州,州电力总公司,,,58,64,35,48,106,,149,146,28,31,,9,,1.1
2024-09-26T2000,3549A,109.5061,30.3772,恩施土家族苗族自治州,龙凤新区,,47,47,52,26,38,81,,146,141,22,17,7,6,0.9,0.8
2024-09-26T2000,2499A,108.3411,21.6158,防城港市,沙万,,36,35,39,25,25,92,,115,114,16,16,8,14,0.8,0.9
2024-09-26T2000,2500A,108.3514,21.7731,防城港市,防城档案局,,46,44,55,32,29,83,,109,109,12,14,17,9,0.8,0.8
2024-09-26T2000,2501A,108.3506,21.6414,防城港市,大海花园,,34,34,37,23,23,96,,118,116,10,12,6,11,1.0,1.1
2024-09-26T2000,1371A,113.1294,23.0067,佛山市,湾梁,,30,27,48,15,26,94,,141,136,22,41,7,10,0.8,0.9
2024-09-26T2000,1372A,113.1083,23.0478,佛山市,华材职中,,32,31,53,22,31,68,,126,119,36,50,8,10,0.6,0.7
2024-09-26T2000,1373A,113.144,23.0453,佛山市,南海气象局,,35,31,47,24,31,84,,136,131,18,36,7,11,0.6,0.8
2024-09-26T2000,1374A,113.2881,22.8094,佛山市,顺德苏岗,,37,37,37,19,27,87,,149,137,24,29,8,8,0.8,0.9
2024-09-26T2000,1376A,112.8383,22.8678,佛山市,高明孔堂,,36,36,40,16,22,58,,112,100,16,17,5,6,0.5,0.6
2024-09-26T2000,1377A,112.8836,23.1588,佛山市,三水监测站,,,31,46,10,29,34,,123,107,47,40,8,9,,0.7
2024-09-26T2000,1378A,112.867,23.185,佛山市,三水云东海,,38,38,41,13,29,25,,116,100,34,29,8,9,0.9,0.9
2024-09-26T2000,3625A,113.2544,22.7642,佛山市,容桂街道办,,39,39,36,24,29,57,,141,129,56,37,7,8,0.9,0.8
2024-09-26T2000,1282A,119.2681,26.0504,福州市,师大,,,25,13,7,3,52,,73,70,17,11,2,2,,0.6
2024-09-26T2000,1283A,119.2984,26.1028,福州市,五四北路,,20,6,10,3,4,62,,75,75,10,10,3,3,0.3,0.5
2024-09-26T2000,1284A,119.2648,26.0768,福州市,杨桥西路,,18,16,13,3,4,57,,81,78,12,11,3,3,0.3,0.5
2024-09-26T2000,1285A,119.317,26.0746,福州市,紫阳,,20,20,14,3,5,58,,63,63,16,17,3,3,0.4,0.5
2024-09-26T2000,3048A,119.5799,26.0936,福州市,九龙,,19,15,12,3,1,59,,80,76,6,4,6,6,0.4,0.4
2024-09-26T2000,3526A,119.5189,25.9664,福州市,吴航,,20,8,8,3,5,64,,78,77,6,12,6,6,0.3,0.5
2024-09-26T2000,1755A,123.7977,41.8491,抚顺市,望花区,,38,38,26,22,12,29,,70,66,39,22,9,9,0.5,0.5
2024-09-26T2000,1756A,123.9161,41.8822,抚顺市,顺城区,颗粒物(PM10),54,57,24,37,14,9,,74,63,52,22,5,5,0.7,0.5
2024-09-26T2000,1757A,124.0436,41.8611,抚顺市,东洲区,,28,28,18,17,13,46,,83,79,19,14,6,6,0.5,0.4
2024-09-26T2000,1758A,123.9247,41.8642,抚顺市,新抚区,,29,21,19,17,15,6,,18,,58,26,3,3,0.6,0.4
2024-09-26T2000,1759A,124.0972,41.8961,抚顺市,大伙房水库,,30,,12,21,9,58,,88,87,18,10,6,6,0.5,0.4
2024-09-26T2000,1760A,123.7086,41.8391,抚顺市,沈抚新城,,28,24,21,19,13,22,,84,76,43,21,7,7,0.3,0.3
2024-09-26T2000,2376A,116.2127,28.0814,抚州市,桐源党溪,颗粒物(PM10),56,61,49,27,30,66,,98,93,1,12,6,9,0.7,0.7
2024-09-26T2000,2377A,116.3544,27.9831,抚州市,市站,,28,28,45,17,27,59,,79,74,9,17,2,4,1.0,1
2024-09-26T2000,2378A,116.3565,27.963,抚州市,血防站,,39,28,44,27,37,58,,77,73,12,18,1,5,1.0,1
2024-09-26T2000,2379A,116.3564,28.0007,抚州市,采茶剧团,,30,30,46,21,33,57,,82,77,5,12,4,7,0.6,0.6
2024-09-26T2000,2380A,116.385,27.9647,抚州市,医学分院,,29,29,44,20,25,63,,78,74,9,16,4,5,0.7,0.8
2024-09-26T2000,2207A,121.6094,41.998,阜新市,工业园区,颗粒物(PM10),80,109,47,14,15,7,,90,79,74,29,19,21,0.9,0.6
2024-09-26T2000,2208A,121.6697,42.0279,阜新市,长青街,,50,50,38,23,15,31,,87,79,36,24,14,23,0.7,0.7
2024-09-26T2000,2209A,121.6673,42.0705,阜新市,农业园区,,31,31,33,19,17,54,,85,82,32,20,39,94,0.4,0.4
2024-09-26T2000,2210A,121.6717,42.0224,阜新市,东苑,,43,43,48,29,18,33,,86,79,51,28,26,31,0.7,0.7
2024-09-26T2000,2211A,121.6506,42.0498,阜新市,玉龙新城,颗粒物(PM10),67,83,41,32,13,9,,91,74,59,28,11,25,0.8,0.9
2024-09-26T2000,2301A,115.8277,32.8929,阜阳市,市监测站,,42,42,59,15,32,71,,124,110,18,25,8,8,0.5,0.5
2024-09-26T2000,2303A,115.8554,32.8605,阜阳市,开发区,颗粒物(PM10),54,58,68,19,36,65,,118,107,22,23,8,8,0.5,0.6
2024-09-26T2000,2875A,115.784,32.8892,阜阳市,阜阳职业技术学院,颗粒物(PM10),51,51,54,17,27,79,,120,112,15,20,8,7,0.4,0.5
2024-09-26T2000,3468A,115.7901,32.8613,阜阳市,市规划展馆,,32,32,53,15,32,77,,124,115,21,20,8,8,0.3,0.4
2024-09-26T2000,3469A,115.836,32.9183,阜阳市,枣园社区,,25,18,63,13,37,79,,112,105,16,25,8,10,0.5,0.5
2024-09-26T2000,2669A,102.9099,34.9841,甘南藏族自治州,州政府,颗粒物(PM10),56,61,35,19,16,17,,89,83,56,18,14,11,0.5,0.3
2024-09-26T2000,3380A,102.8914,34.9617,甘南藏族自治州,甘肃民族师范学院,颗粒物(PM10),73,95,39,22,13,8,,85,78,57,25,5,4,0.4,0.4
2024-09-26T2000,2570A,101.9603,30.0475,甘孜藏族自治州,水桥子,,18,17,19,3,7,8,,47,44,35,20,5,6,0.4,0.3
2024-09-26T2000,3065A,101.9533,29.9972,甘孜藏族自治州,州环保局,,16,9,19,7,5,14,,51,49,32,20,2,3,0.3,0.2
2024-09-26T2000,3414A,115.8347,28.932,赣江新区,桑海产业园,颗粒物(PM10),60,70,53,41,28,120,,146,140,23,27,13,13,0.6,0.5
2024-09-26T2000,2362A,114.9017,25.9149,赣州市,通天岩,,26,23,24,18,11,49,,93,88,3,3,5,5,0.3,0.3
2024-09-26T2000,2363A,114.9367,25.8664,赣州市,地委,,22,,21,15,15,61,,79,76,7,9,1,5,1.0,1
2024-09-26T2000,2364A,114.9461,25.8481,赣州市,气象台,,25,,25,17,16,56,,80,78,8,8,14,13,0.4,0.5
2024-09-26T2000,2365A,114.9322,25.8333,赣州市,市图书馆,,20,20,25,14,12,59,,88,84,6,9,5,5,0.7,0.6
2024-09-26T2000,2366A,114.8905,25.8471,赣州市,华坚鞋城,,21,21,27,13,13,53,,76,73,8,11,2,3,0.5,0.5
2024-09-26T2000,3109A,115.0093,25.8613,赣州市,赣县区卫计委,,18,16,24,10,14,55,,83,79,6,13,7,6,0.6,0.7
2024-09-26T2000,2683A,106.2319,36.1417,固原市,马园,颗粒物(PM10),54,58,22,21,7,50,,107,95,52,16,6,6,0.7,0.7
2024-09-26T2000,2684A,106.2792,36.0022,固原市,监测站,,36,36,16,11,7,89,,108,106,16,13,3,3,0.3,0.2
2024-09-26T2000,2685A,106.2375,36.0211,固原市,新区,,35,35,18,10,8,86,,104,102,18,11,5,5,0.5,0.4
2024-09-26T2000,3522A,106.2177,35.9959,固原市,原州区十五小,,28,28,16,12,8,89,,107,105,15,8,5,5,0.6,0.5
2024-09-26T2000,2544A,106.6303,30.4576,广安市,市委,细颗粒物(PM2.5),85,118,99,63,65,153,,211,209,43,22,3,5,1.0,0.7
2024-09-26T2000,2545A,106.6271,30.4663,广安市,友谊中学,细颗粒物(PM2.5),77,88,85,56,59,156,,210,209,51,23,5,7,1.0,0.8
2024-09-26T2000,2547A,106.6388,30.4551,广安市,广电花园,细颗粒物(PM2.5),83,92,90,61,58,145,,208,204,44,22,4,5,1.0,0.7
2024-09-26T2000,2902A,106.6351,30.4865,广安市,北辰小学,颗粒物(PM10),73,96,98,50,61,147,,208,206,44,21,7,10,0.9,0.7
2024-09-26T2000,2523A,105.8945,32.4535,广元市,黑石坡,,,,27,,22,,,86,,,16,,8,,0.5
2024-09-26T2000,2524A,105.821,32.4444,广元市,老城,颗粒物(PM10),55,59,38,35,21,104,,141,141,26,37,3,6,1.3,1.2
2024-09-26T2000,2526A,105.8628,32.4287,广元市,监测站,细颗粒物(PM2.5),65,50,35,47,24,102,,49,,17,18,3,4,0.6,0.8
2024-09-26T2000,3617A,105.8047,32.4166,广元市,经开区,细颗粒物(PM2.5),73,69,58,53,39,114,,142,142,16,34,5,14,0.8,1
2024-09-26T2000,1345A,113.2347,23.1423,广州市,广雅中学,,23,23,49,14,30,64,,146,134,31,49,6,8,1.0,1
2024-09-26T2000,1346A,113.2612,23.105,广州市,市五中,,27,27,52,18,35,83,,158,150,17,34,5,7,0.6,0.8
2024-09-26T2000,1348A,113.3478,23.0916,广州市,广东商学院,,42,42,62,22,34,57,,159,148,56,55,6,6,0.8,0.9
2024-09-26T2000,1349A,113.4332,23.1047,广州市,市八十六中,,32,32,55,19,32,87,,161,154,26,50,4,4,0.6,0.7
2024-09-26T2000,1350A,113.3505,22.9483,广州市,番禺中学,,34,34,48,23,29,102,,162,157,33,39,6,6,0.8,0.9
2024-09-26T2000,1351A,113.2146,23.3916,广州市,花都师范,,,22,39,13,23,84,,121,112,12,24,6,5,,1
2024-09-26T2000,1352A,113.2597,23.1331,广州市,市监测站,,30,30,62,8,33,57,,135,,37,28,5,6,0.6,0.7
2024-09-26T2000,1353A,113.5618,23.312,广州市,九龙镇镇龙,,46,45,44,32,27,70,,136,132,32,31,6,7,0.8,0.8
2024-09-26T2000,1354A,113.2765,23.1544,广州市,麓湖,,26,26,50,15,31,50,,151,134,27,39,6,6,0.6,0.8
2024-09-26T2000,1355A,113.443,23.3035,广州市,帽峰山森林公园,,27,25,27,15,18,84,,146,139,10,10,6,6,0.7,0.5
2024-09-26T2000,2846A,113.3221,23.1322,广州市,体育西,,37,37,54,21,30,71,,152,142,27,45,6,7,0.7,0.9
2024-09-26T2000,3298A,113.5717,23.5491,广州市,从化街口,,,,44,,27,36,,110,102,30,27,8,8,0.8,0.9
2024-09-26T2000,3299A,113.3472,23.3692,广州市,白云竹料,颗粒物(PM10),57,63,55,35,33,57,,124,118,27,35,5,6,0.8,0.5
2024-09-26T2000,3300A,113.2981,23.237,广州市,白云嘉禾,颗粒物(PM10),55,59,72,25,33,38,,150,132,55,49,10,8,1.0,1.1
2024-09-26T2000,3301A,113.4256,23.1716,广州市,黄埔科学城,,42,42,44,27,28,44,,152,142,44,30,4,4,0.8,0.8
2024-09-26T2000,3302A,113.3942,23.0483,广州市,番禺大学城,,30,26,50,17,28,94,,161,154,23,43,8,8,0.4,0.5
2024-09-26T2000,3303A,113.4922,22.8168,广州市,南沙黄阁,,,102,46,17,34,54,,181,159,,43,5,5,,0.8
2024-09-26T2000,3304A,113.5342,22.7896,广州市,南沙街,颗粒物(PM10),56,61,43,24,32,110,,183,172,33,36,6,7,0.9,0.9
2024-09-26T2000,3443A,113.2902,23.5544,广州市,花都梯面,,32,32,30,16,17,17,,94,81,23,18,5,6,0.8,0.8
2024-09-26T2000,3445A,113.7858,23.7478,广州市,从化良口,,21,21,21,13,13,37,,87,78,10,10,7,7,0.8,0.8
2024-09-26T2000,3446A,113.8051,23.2614,广州市,增城荔城,,46,46,40,31,29,84,,166,155,20,16,6,6,0.7,0.6
2024-09-26T2000,2506A,109.6047,23.0666,贵港市,江南子站,,48,48,33,30,40,54,,109,106,26,17,7,9,1.0,0.8
2024-09-26T2000,2507A,109.6014,23.0948,贵港市,贵城子站,,35,34,50,24,33,54,,97,95,20,17,7,9,0.8,0.8
2024-09-26T2000,2508A,109.5669,23.1065,贵港市,荷城子站,,34,34,37,17,22,63,,91,90,11,14,9,12,0.7,0.7
2024-09-26T2000,3405A,109.5886,23.1172,贵港市,新世纪学校,,31,31,38,15,23,57,,90,88,13,13,6,9,0.8,0.8
2024-09-26T2000,1439A,106.6899,26.5998,贵阳市,马鞍山,,32,29,35,22,18,87,,145,138,14,17,6,7,0.5,0.7
2024-09-26T2000,1440A,106.6971,26.5694,贵阳市,市环保站,细颗粒物(PM2.5),77,90,51,56,33,86,,157,148,37,26,6,7,0.7,0.5
2024-09-26T2000,1441A,106.6243,26.6266,贵阳市,鉴湖路,颗粒物(PM10),51,51,44,24,23,93,,144,141,23,16,7,8,0.6,0.4
2024-09-26T2000,1442A,106.7487,26.6343,贵阳市,燕子冲,细颗粒物(PM2.5),58,,33,41,28,113,,155,154,13,21,7,7,0.5,0.5
2024-09-26T2000,1443A,106.6555,26.4365,贵阳市,碧云窝,细颗粒物(PM2.5),52,51,45,36,25,99,,140,136,16,13,5,7,0.4,0.4
2024-09-26T2000,1444A,106.694,26.5161,贵阳市,中院村,,48,48,49,31,29,85,,141,136,26,29,7,8,0.6,0.6
2024-09-26T2000,1445A,106.7109,26.6027,贵阳市,红边门,细颗粒物(PM2.5),64,63,49,46,33,77,,150,142,42,28,6,6,0.6,0.5
2024-09-26T2000,1446A,106.7164,26.5699,贵阳市,新华路,细颗粒物(PM2.5),67,70,43,48,29,91,,153,145,30,26,7,8,0.4,0.5
2024-09-26T2000,1447A,106.674,26.5424,贵阳市,太慈桥,,44,44,40,24,24,71,,151,140,40,21,9,5,0.6,0.4
2024-09-26T2000,1862A,110.4144,25.3167,桂林市,电子科大尧山校区,,41,41,49,27,32,77,,115,110,6,8,4,6,0.7,0.7
2024-09-26T2000,1863A,110.2819,25.2697,桂林市,监测站,,43,,56,30,43,59,,122,113,11,12,11,15,0.8,0.8
2024-09-26T2000,1864A,110.3089,25.2708,桂林市,龙隐路小学,,42,29,50,29,40,64,,131,118,11,10,8,15,0.7,0.6
2024-09-26T2000,1865A,110.2869,25.2178,桂林市,八中,,40,30,47,28,36,53,,110,100,13,12,12,12,0.5,0.5
2024-09-26T2000,3403A,110.1764,25.2381,桂林市,创业大厦,,32,24,47,22,38,54,,97,92,10,14,6,10,0.5,0.6
2024-09-26T2000,3531A,110.296,25.1253,桂林市,旅游学院,,27,27,34,17,28,63,,102,95,9,10,8,9,0.4,0.4
2024-09-26T2000,2674A,100.2561,34.4714,果洛藏族自治州,玛沁县大武镇,颗粒物(PM10),57,63,23,24,11,60,,96,94,17,6,10,9,0.5,0.4
2024-09-26T2000,1129A,126.5422,45.755,哈尔滨市,岭北,,29,15,28,13,21,6,,6,6,58,32,8,8,0.7,0.9
2024-09-26T2000,1130A,126.561,45.8167,哈尔滨市,松北商大,,26,26,50,13,20,21,,78,66,48,29,7,8,0.5,0.6
2024-09-26T2000,1131A,126.979,45.5419,哈尔滨市,阿城会宁,颗粒物(PM10),85,120,32,46,18,1,,80,66,63,23,12,12,0.8,0.6
2024-09-26T2000,1132A,126.599,45.7222,哈尔滨市,南岗学府路,"颗粒物(PM10),细颗粒物(PM2.5)",83,116,73,61,34,7,,82,68,60,38,6,6,1.6,1
2024-09-26T2000,1133A,126.689,45.7733,哈尔滨市,太平宏伟公园,颗粒物(PM10),70,90,77,28,28,3,,74,60,76,43,7,7,0.9,0.7
2024-09-26T2000,1134A,126.635,45.7667,哈尔滨市,道外承德广场,"颗粒物(PM10),细颗粒物(PM2.5)",73,95,54,53,25,7,,74,60,79,50,8,7,1.0,0.8
2024-09-26T2000,1135A,126.685,45.7319,哈尔滨市,香坊红旗大街,颗粒物(PM10),74,97,72,31,36,6,,77,62,82,49,9,14,1.3,1
2024-09-26T2000,1136A,126.6411,45.7258,哈尔滨市,动力和平路,颗粒物(PM10),52,53,59,8,37,14,,79,67,76,44,8,9,1.2,0.8
2024-09-26T2000,1137A,126.593,45.7478,哈尔滨市,道里建国路,颗粒物(PM10),58,65,50,21,25,5,,82,68,87,45,14,16,1.4,0.7
2024-09-26T2000,1138A,126.615,45.61,哈尔滨市,平房东轻厂,颗粒物(PM10),68,86,49,14,19,7,,72,56,89,55,10,7,0.8,0.6
2024-09-26T2000,1139A,126.595,45.9855,哈尔滨市,呼兰师专,颗粒物(PM10),110,170,31,68,21,11,,71,57,76,32,6,6,1.1,0.7
2024-09-26T2000,1140A,126.6206,45.6842,哈尔滨市,省农科院,颗粒物(PM10),81,112,82,40,33,6,,72,57,101,58,6,7,1.1,0.9
2024-09-26T2000,2688A,93.5128,42.8172,哈密市,地区监测站,颗粒物(PM10),66,82,87,22,25,64,,115,112,49,38,5,6,0.3,0.3
2024-09-26T2000,2689A,93.4961,42.8328,哈密市,哈密师范学校,颗粒物(PM10),79,108,67,31,24,58,,116,112,39,36,4,5,0.7,0.6
2024-09-26T2000,2671A,100.9048,36.9639,海北藏族自治州,海晏县西海镇,,22,17,23,11,15,68,,97,96,9,8,10,14,0.3,0.4
2024-09-26T2000,3867A,102.0738,36.5056,海东市,平安区公安北苑,颗粒物(PM10),62,73,43,19,14,91,,114,114,31,12,19,11,0.6,0.5
2024-09-26T2000,1410A,110.3232,20.0574,海口市,海南大学,,26,22,29,18,20,70,,116,109,23,21,3,3,0.4,0.5
2024-09-26T2000,1411A,110.283,20.0053,海口市,秀英海南医院,,,,29,,20,79,,119,113,,18,5,5,0.5,0.5
2024-09-26T2000,1412A,110.338,19.9969,海口市,海南师范大学,,29,24,27,20,18,79,,112,106,18,17,6,6,0.4,0.5
2024-09-26T2000,1413A,110.33,20.0356,海口市,龙华路环保局宿舍,,,24,26,18,18,79,,96,,,16,4,4,0.4,0.5
2024-09-26T2000,3539A,110.5111,19.9736,海口市,桂林洋子站,,28,23,33,15,20,88,,110,108,10,13,6,6,0.4,0.4
2024-09-26T2000,2673A,100.6188,36.2866,海南藏族自治州,共和县恰卜恰镇,,36,36,36,6,14,42,,90,85,54,11,12,12,0.5,0.6
2024-09-26T2000,2676A,97.3731,37.3753,海西蒙古族藏族自治州,德令哈市,,34,34,34,20,16,61,,102,98,30,7,9,10,0.6,0.4
2024-09-26T2000,1048A,114.5302,36.6116,邯郸市,东污水处理厂,细颗粒物(PM2.5),100,122,126,75,97,134,,165,165,35,30,4,4,0.7,0.7
2024-09-26T2000,1049A,114.4918,36.5713,邯郸市,矿院,细颗粒物(PM2.5),98,112,139,73,100,133,,166,166,26,22,5,5,0.6,0.6
2024-09-26T2000,1050A,114.484,36.6133,邯郸市,丛台公园,细颗粒物(PM2.5),104,118,132,78,91,125,,166,166,43,24,6,5,0.6,0.7
2024-09-26T2000,3458A,114.7895,36.5593,邯郸市,香泉濮院小区,颗粒物(PM10),89,128,148,63,93,145,,180,180,28,33,4,5,0.4,0.7
2024-09-26T2000,3579A,114.50634,36.77178,邯郸市,永年区实验高中,细颗粒物(PM2.5),113,169,152,85,90,117,,180,174,47,37,5,5,0.9,0.9
2024-09-26T2000,3580A,114.20016,36.44293,邯郸市,峰峰矿区临水派出所,细颗粒物(PM2.5),84,114,121,62,68,155,,183,182,23,15,5,6,0.8,0.9
2024-09-26T2000,2634A,106.9893,33.1842,汉中市,汉川机床厂子校,,39,39,39,24,26,79,,134,128,9,10,5,6,0.5,0.5
2024-09-26T2000,2635A,107.0154,33.0706,汉中市,市监测站,颗粒物(PM10),52,53,62,29,39,78,,143,137,39,20,8,10,1.0,0.7
2024-09-26T2000,2636A,107.0089,33.1138,汉中市,鑫源开发区,,,47,54,26,34,82,,141,135,36,26,10,13,,0.6
2024-09-26T2000,2637A,107.007,33.0323,汉中市,南郑大河坎水厂,,49,49,52,27,36,71,,142,134,48,16,9,9,0.8,0.7
2024-09-26T2000,1223A,120.2072,30.2111,杭州市,滨江,,,53,67,31,37,35,,64,59,21,31,5,5,,0.9
2024-09-26T2000,1224A,120.0633,30.2747,杭州市,西溪,,47,47,63,29,43,18,,61,50,30,32,6,6,0.9,0.9
2024-09-26T2000,1226A,120.3461,30.3153,杭州市,下沙,,41,34,61,15,35,22,,76,71,82,46,6,6,0.7,0.9
2024-09-26T2000,1227A,120.1269,30.2456,杭州市,卧龙桥,细颗粒物(PM2.5),67,,51,48,45,38,,63,58,29,25,5,5,0.8,0.7
2024-09-26T2000,1228A,120.1903,30.2692,杭州市,浙江农大,,36,36,57,23,42,28,,54,49,51,40,8,8,0.7,0.7
2024-09-26T2000,1230A,120.1197,30.3119,杭州市,和睦小学,,49,49,63,31,39,36,,72,65,46,40,5,6,0.9,0.9
2024-09-26T2000,1231A,120.3019,30.4183,杭州市,临平镇,,32,32,83,8,32,46,,81,78,38,27,5,5,0.8,0.9
2024-09-26T2000,1232A,120.2697,30.1819,杭州市,城厢镇,,36,36,57,16,43,38,,70,62,52,36,6,6,0.8,0.9
2024-09-26T2000,1233A,120.0883,30.1808,杭州市,云栖,,34,34,51,23,36,4,,47,35,34,28,7,7,0.9,0.9
2024-09-26T2000,3557A,119.9464,30.0494,杭州市,镇二中,,42,41,69,29,47,44,,92,80,38,33,8,8,1.0,0.9
2024-09-26T2000,3558A,119.7183,30.2367,杭州市,市府大楼,,33,31,68,23,47,46,,115,94,30,26,6,6,0.8,0.9
2024-09-26T2000,3656A,120.1556,30.2864,杭州市,消防大队,细颗粒物(PM2.5),53,50,65,37,44,39,,69,62,40,34,8,8,1.0,0.9
2024-09-26T2000,1270A,117.1959,31.7848,合肥市,明珠广场,,22,22,64,7,34,66,,141,128,20,48,6,8,0.8,1
2024-09-26T2000,1271A,117.3072,31.8764,合肥市,三里街,,25,22,53,17,28,63,,116,105,17,35,7,9,0.5,0.6
2024-09-26T2000,1272A,117.2588,31.8707,合肥市,琥珀山庄,,23,19,54,16,38,72,,132,118,18,45,7,8,0.5,0.7
2024-09-26T2000,1273A,117.1604,31.9052,合肥市,董铺水库,,25,24,63,17,33,71,,120,112,12,28,3,4,0.5,0.5
2024-09-26T2000,1274A,117.25,31.8571,合肥市,长江中路,,22,22,69,15,38,70,,130,116,16,44,7,9,0.6,0.8
2024-09-26T2000,1275A,117.266,31.9436,合肥市,庐阳区,,24,24,71,14,36,71,,125,113,18,46,5,6,0.6,0.6
2024-09-26T2000,1276A,117.336,31.8586,合肥市,瑶海区,,21,17,60,11,34,67,,120,108,20,40,3,6,0.5,0.7
2024-09-26T2000,1277A,117.3027,31.7964,合肥市,包河区,,22,22,62,12,36,44,,126,111,38,79,1,12,0.6,0.8
2024-09-26T2000,1278A,117.2776,31.7385,合肥市,滨湖新区,,20,19,56,12,29,62,,136,126,20,41,6,7,0.6,0.7
2024-09-26T2000,1279A,117.1318,31.8403,合肥市,高新区,,22,19,59,12,39,68,,131,124,15,46,8,9,0.8,0.9
2024-09-26T2000,3464A,117.3803,31.9147,合肥市,高教基地,,26,20,51,18,35,66,,114,104,14,26,3,5,0.5,0.4
2024-09-26T2000,3614A,79.924,37.0877,和田地区,地区环保局,颗粒物(PM10),134,218,314,63,105,94,,96,96,9,18,6,9,0.5,0.7
2024-09-26T2000,3615A,79.9131,37.113,和田地区,市环保局,颗粒物(PM10),120,189,322,61,96,92,,98,98,9,27,7,8,0.3,0.6
2024-09-26T2000,2516A,108.2011,24.715,河池市,东仁乐园,细颗粒物(PM2.5),53,53,55,37,40,75,,108,105,11,14,6,6,0.7,0.7
2024-09-26T2000,2517A,108.0497,24.6947,河池市,市环保站,,,,33,,33,91,,,,7,18,11,10,1.0,0.7
2024-09-26T2000,2518A,108.0983,24.6989,河池市,市疾控中心,细颗粒物(PM2.5),57,42,64,40,46,83,,113,110,15,20,17,12,0.7,0.7
2024-09-26T2000,1696A,114.6778,23.7569,河源市,源西,,36,,31,25,24,34,,96,90,27,19,4,4,0.8,0.8
2024-09-26T2000,1697A,114.6944,23.7586,河源市,东埔,,29,,29,20,18,60,,107,104,14,25,2,3,0.8,0.8
2024-09-26T2000,1698A,114.6892,23.7233,河源市,老城,,27,27,33,18,21,62,,115,112,6,17,2,3,0.7,0.7
2024-09-26T2000,1718A,115.4208,35.2464,菏泽市,气象局,颗粒物(PM10),113,176,119,78,56,170,,232,225,34,35,9,9,0.6,0.5
2024-09-26T2000,1719A,115.4747,35.2375,菏泽市,市政协,颗粒物(PM10),109,168,108,73,52,161,,221,214,34,37,10,10,0.6,0.5
2024-09-26T2000,3374A,115.5564,35.0891,菏泽市,定陶老年大学,颗粒物(PM10),109,168,86,70,41,144,,196,176,36,25,12,11,0.6,0.5
2024-09-26T2000,3647A,115.4702,35.2706,菏泽市,菏泽医专,细颗粒物(PM2.5),127,182,120,96,65,148,,233,225,40,42,13,13,0.8,0.7
2024-09-26T2000,2514A,111.5264,24.4172,贺州市,环保小区,,31,31,33,14,20,38,,74,70,25,17,6,4,0.8,0.9
2024-09-26T2000,2515A,111.5608,24.4078,贺州市,政协大楼,颗粒物(PM10),53,55,39,27,21,25,,79,72,34,20,8,6,0.9,0.8
2024-09-26T2000,3534A,111.4744,24.4553,贺州市,西湾,,26,26,28,18,20,25,,70,64,27,13,5,4,0.9,0.7
2024-09-26T2000,2385A,114.17,35.9019,鹤壁市,市监测站,细颗粒物(PM2.5),117,118,121,88,85,137,,205,199,38,24,7,11,1.4,1.5
2024-09-26T2000,2386A,114.2956,35.7511,鹤壁市,市交警支队,细颗粒物(PM2.5),113,136,129,85,79,137,,198,193,55,33,10,10,0.7,1.3
2024-09-26T2000,2387A,114.2878,35.7306,鹤壁市,迎宾馆,细颗粒物(PM2.5),117,142,148,88,93,148,,204,200,53,33,8,13,0.8,1.3
2024-09-26T2000,3474A,114.2617,35.6822,鹤壁市,大新区,细颗粒物(PM2.5),84,93,108,62,74,147,,198,195,44,28,11,15,0.8,1.2
2024-09-26T2000,3596A,114.1572,35.9603,鹤壁市,南山宾馆,细颗粒物(PM2.5),107,132,135,80,86,145,,205,200,26,20,5,9,0.8,1.4
2024-09-26T2000,2244A,130.2537,47.3416,鹤岗市,哈啤分公司,,32,,15,22,16,37,,67,55,6,6,14,14,0.7,0.6
2024-09-26T2000,2245A,130.2684,47.3086,鹤岗市,斯达机电,,32,32,20,21,14,35,,67,56,21,9,13,13,0.2,0.3
2024-09-26T2000,2246A,130.3114,47.3388,鹤岗市,东山纸板厂,颗粒物(PM10),63,75,27,17,14,5,,66,47,28,8,17,17,0.7,0.3
2024-09-26T2000,2247A,130.1097,47.3382,鹤岗市,五号水库,,13,9,11,9,6,33,,73,58,7,4,6,13,0.4,0.4
2024-09-26T2000,2263A,127.4833,50.2524,黑河市,交通局,,38,37,27,26,18,45,,73,67,20,12,8,8,0.5,0.4
2024-09-26T2000,2264A,127.5144,50.2341,黑河市,环保局,,30,27,24,21,18,63,,74,74,12,10,4,7,0.4,0.4
2024-09-26T2000,2265A,127.5291,50.2472,黑河市,大黑河岛,,,,,25,19,60,,69,68,15,11,1,2,0.2,0.1
2024-09-26T2000,1074A,115.6838,37.7541,衡水市,电机北厂,细颗粒物(PM2.5),75,81,104,55,79,98,,166,160,25,23,6,8,0.6,0.5
2024-09-26T2000,1075A,115.6303,37.7316,衡水市,市监测站,细颗粒物(PM2.5),72,75,98,52,68,96,,173,162,33,22,6,9,0.7,0.6
2024-09-26T2000,3188A,115.6683,37.7217,衡水市,市城管局,细颗粒物(PM2.5),67,75,99,48,69,117,,176,170,24,21,8,11,0.7,0.6
2024-09-26T2000,3459A,115.5989,37.5491,衡水市,地表水厂,细颗粒物(PM2.5),65,60,93,47,59,77,,164,147,34,27,6,7,0.6,0.6
2024-09-26T2000,2456A,112.5003,26.9167,衡阳市,原169医院,细颗粒物(PM2.5),63,63,62,45,47,52,,90,86,13,15,5,13,0.9,0.8
2024-09-26T2000,2457A,112.6194,26.9258,衡阳市,衡阳化工总厂,细颗粒物(PM2.5),70,60,64,51,53,71,,106,104,15,12,8,12,0.8,0.8
2024-09-26T2000,2458A,112.6211,26.8956,衡阳市,珠晖区环保局,,,42,54,,53,76,,99,99,11,10,8,11,0.6,0.9
2024-09-26T2000,2459A,112.6197,26.8733,衡阳市,市委党校,细颗粒物(PM2.5),114,,52,86,44,70,,97,95,16,10,9,10,0.8,0.8
2024-09-26T2000,2460A,112.6006,26.8919,衡阳市,市监测站,细颗粒物(PM2.5),52,44,53,36,40,77,,102,102,9,11,7,14,0.8,1
2024-09-26T2000,2461A,112.5664,26.9056,衡阳市,真空机电公司,细颗粒物(PM2.5),54,47,65,38,46,73,,98,96,12,15,7,20,0.9,1.1
2024-09-26T2000,3399A,112.6703,26.882,衡阳市,师范学院,颗粒物(PM10),51,52,55,35,31,72,,92,91,11,13,8,9,0.8,0.8
2024-09-26T2000,2608A,103.3772,23.3993,红河哈尼族彝族自治州,污水处理厂,,38,32,28,26,26,64,,87,82,7,8,5,9,0.5,0.5
2024-09-26T2000,2609A,103.3861,23.35,红河哈尼族彝族自治州,监测站,细颗粒物(PM2.5),55,44,36,39,28,71,,93,88,6,6,8,9,0.5,0.5
2024-09-26T2000,3038A,103.3758,23.368,红河哈尼族彝族自治州,州图书馆,,36,36,31,21,19,67,,86,81,6,6,6,7,0.4,0.4
2024-09-26T2000,1090A,111.6507,40.7517,呼和浩特市,呼市一监,颗粒物(PM10),59,68,42,24,13,70,,126,122,32,29,7,7,0.5,0.6
2024-09-26T2000,1091A,111.6572,40.8033,呼和浩特市,小召,颗粒物(PM10),57,63,41,14,18,79,,124,120,34,36,7,7,0.6,0.5
2024-09-26T2000,1094A,111.7516,40.8369,呼和浩特市,如意水处理厂,,37,37,40,13,15,86,,125,122,28,34,7,7,0.5,0.5
2024-09-26T2000,1095A,111.7276,40.8062,呼和浩特市,二十九中,,49,49,40,12,17,96,,128,127,26,34,6,6,0.6,0.6
2024-09-26T2000,1096A,111.5512,40.7866,呼和浩特市,工大金川校区,颗粒物(PM10),83,116,51,21,20,66,,109,105,41,44,6,4,0.7,0.5
2024-09-26T2000,1097A,111.717,40.7612,呼和浩特市,化肥厂生活区,,47,47,45,13,15,71,,124,119,40,32,9,9,0.6,0.7
2024-09-26T2000,3698A,111.5968,40.8178,呼和浩特市,红旗小学,颗粒物(PM10),78,105,50,20,21,47,,125,118,69,45,6,5,0.6,0.5
2024-09-26T2000,3699A,111.6518,40.8389,呼和浩特市,海东办,颗粒物(PM10),58,66,47,16,20,81,,129,125,34,43,6,6,0.5,0.5
2024-09-26T2000,2192A,119.7594,49.2261,呼伦贝尔市,区环保局,,44,44,46,24,33,56,,84,79,28,23,4,4,0.4,0.5
2024-09-26T2000,3061A,119.7512,49.1577,呼伦贝尔市,国华电力东,,37,37,41,22,29,57,,92,86,15,10,4,4,0.3,0.4
2024-09-26T2000,1250A,120.0751,30.8669,湖州市,城西水厂,,28,15,55,10,42,42,,78,78,55,43,5,5,0.3,0.5
2024-09-26T2000,2873A,120.0875,30.8955,湖州市,仁皇山新区,,21,10,50,6,39,67,,89,89,24,27,6,7,0.6,0.8
2024-09-26T2000,2907A,120.1844,30.8596,湖州市,吴兴区站,,20,20,46,9,32,58,,90,86,32,21,6,6,0.6,0.7
2024-09-26T2000,3562A,120.4148,30.8538,湖州市,南浔区站,,15,14,34,6,28,46,,78,76,27,25,6,7,0.5,0.7
2024-09-26T2000,1607A,120.9092,40.7136,葫芦岛市,龙港区,,30,,40,14,18,96,,100,100,13,34,14,38,0.4,0.8
2024-09-26T2000,1608A,120.8392,40.7514,葫芦岛市,化工街,,39,39,54,14,20,71,,100,97,31,34,17,87,0.5,0.5
2024-09-26T2000,1609A,120.8341,40.7073,葫芦岛市,新区,,24,24,38,16,22,71,,104,102,29,39,10,17,0.6,0.5
2024-09-26T2000,1610A,120.8695,40.7677,葫芦岛市,东城区,,29,29,47,19,19,72,,100,98,26,31,12,61,0.3,0.4
2024-09-26T2000,2482A,109.5981,27.5721,怀化市,林科所,,38,38,44,15,25,104,,144,137,13,21,4,7,0.6,0.6
2024-09-26T2000,2483A,109.9453,27.5444,怀化市,河西地税局,颗粒物(PM10),65,79,52,46,34,71,,147,135,35,18,8,9,0.8,0.7
2024-09-26T2000,2484A,109.9781,27.5342,怀化市,市四医院,颗粒物(PM10),63,75,70,42,40,85,,141,134,13,22,17,12,0.7,0.6
2024-09-26T2000,2485A,109.9972,27.5578,怀化市,监测楼,细颗粒物(PM2.5),69,78,62,50,37,88,,146,138,24,22,16,10,0.6,0.6
2024-09-26T2000,2486A,110.0394,27.583,怀化市,市委党校,颗粒物(PM10),56,61,65,36,40,88,,139,132,18,24,13,18,0.7,0.6
2024-09-26T2000,1210A,119.036,33.5981,淮安市,钵池山,,48,48,30,27,19,121,,152,150,24,19,5,5,0.6,0.5
2024-09-26T2000,1211A,119.007,33.575,淮安市,北京南路,颗粒物(PM10),56,61,33,26,19,123,,153,151,25,17,7,7,0.6,0.4
2024-09-26T2000,1212A,118.989,33.6067,淮安市,市监测站,,49,46,30,34,19,154,,166,166,23,24,7,7,0.5,0.5
2024-09-26T2000,1213A,119.135,33.5039,淮安市,楚州区监测站,颗粒物(PM10),53,56,36,28,14,124,,141,140,23,19,6,6,0.6,0.7
2024-09-26T2000,1214A,119.0186,33.6297,淮安市,淮阴区监测站,颗粒物(PM10),54,58,36,25,18,119,,157,154,38,27,3,4,0.5,0.4
2024-09-26T2000,3426A,118.8755,33.2894,淮安市,新华书店,,40,40,27,21,11,121,,141,140,21,19,8,7,0.7,0.6
2024-09-26T2000,2282A,116.8004,33.975,淮北市,监测站,颗粒物(PM10),54,57,51,31,29,146,,152,152,19,17,7,7,0.6,0.6
2024-09-26T2000,2283A,116.8091,33.9007,淮北市,烈山区政府,颗粒物(PM10),54,58,53,30,28,161,,162,162,13,15,6,6,0.5,0.5
2024-09-26T2000,3330A,116.8873,33.9836,淮北市,杜集区检察院,颗粒物(PM10),59,68,60,30,39,164,,171,171,7,11,8,8,0.7,0.7
2024-09-26T2000,4017A,116.7923,33.9535,淮北市,市博物馆,臭氧1小时,59,57,44,31,28,167,,162,162,15,16,6,6,0.8,0.7
2024-09-26T2000,2277A,116.8305,32.7727,淮南市,潘集区政府,,45,45,64,21,41,62,,73,72,18,28,6,7,0.4,0.4
2024-09-26T2000,2278A,117.0067,32.6524,淮南市,师范学院,,32,32,65,17,41,88,,86,86,12,22,7,8,0.4,0.5
2024-09-26T2000,2279A,116.8569,32.5951,淮南市,谢家集区政府,,37,37,58,22,38,64,,88,84,24,24,7,9,0.2,0.4
2024-09-26T2000,2280A,116.8281,32.633,淮南市,八公山区政府,颗粒物(PM10),51,52,66,26,39,66,,89,87,26,19,12,11,0.3,0.4
2024-09-26T2000,2281A,116.6325,32.6201,淮南市,焦岗湖风景区管理处,,38,38,63,8,25,59,,96,88,15,20,5,5,0.0,0.1
2024-09-26T2000,2894A,117.0566,32.6531,淮南市,经济技术开发区消防队,,44,44,55,12,19,80,,83,83,19,29,5,6,0.4,0.3
2024-09-26T2000,3329A,117.0108,32.5893,淮南市,山南新区,,45,45,55,6,26,78,,92,90,23,19,4,6,0.5,0.6
2024-09-26T2000,2446A,114.9028,30.4742,黄冈市,职工中心,颗粒物(PM10),60,70,71,42,45,155,,192,185,21,16,10,10,0.7,0.7
2024-09-26T2000,2929A,114.8858,30.4519,黄冈市,红卫路,细颗粒物(PM2.5),64,69,66,46,41,140,,178,175,26,28,9,11,0.9,0.9
2024-09-26T2000,3398A,114.9136,30.4445,黄冈市,市林业局,颗粒物(PM10),72,93,89,26,36,149,,193,189,32,28,10,11,0.7,0.7
2024-09-26T2000,2672A,102.0199,35.5102,黄南藏族自治州,同仁县隆务镇,,47,47,29,20,9,72,,88,88,5,6,10,8,0.4,0.3
2024-09-26T2000,2295A,118.2903,29.6963,黄山市,延安路89号,颗粒物(PM10),73,96,50,45,18,35,,82,74,12,11,6,6,0.7,0.4
2024-09-26T2000,2296A,118.327,29.7178,黄山市,黄山东路89号,细颗粒物(PM2.5),53,41,39,37,19,55,,91,84,12,11,5,5,0.6,0.4
2024-09-26T2000,2297A,118.1371,30.2756,黄山市,黄山区政府5号楼,"颗粒物(PM10),细颗粒物(PM2.5)",54,57,36,38,23,47,,80,73,10,8,7,6,0.6,0.5
2024-09-26T2000,2423A,115.0601,30.2313,黄石市,沈家营,细颗粒物(PM2.5),57,55,57,40,29,104,,178,168,48,26,39,21,0.7,0.7
2024-09-26T2000,2424A,115.0817,30.2006,黄石市,陈家湾,颗粒物(PM10),56,62,49,32,26,162,,180,176,14,14,13,11,0.9,0.9
2024-09-26T2000,2426A,114.8988,30.2019,黄石市,铁山,,,53,52,35,33,140,,194,187,,18,17,12,0.5,0.7
2024-09-26T2000,2427A,115.0307,30.2092,黄石市,团城山,颗粒物(PM10),52,53,49,30,24,153,,188,184,20,16,11,13,0.8,0.7
2024-09-26T2000,3149A,115.0235,30.1578,黄石市,笔架山北路,,,,43,,24,142,,186,182,,12,,12,0.9,0.8
2024-09-26T2000,1392A,114.4183,23.0528,惠州市,河南岸金山湖子站,颗粒物(PM10),53,56,38,36,26,144,,188,188,26,19,5,4,0.8,0.6
2024-09-26T2000,1393A,114.4053,23.0822,惠州市,下埔横江三路子站,,49,49,41,34,24,142,,207,205,22,17,4,4,0.9,0.8
2024-09-26T2000,1394A,114.4103,23.1142,惠州市,江北云山西路子站,,45,45,39,26,18,120,,201,198,33,17,7,6,0.9,0.7
2024-09-26T2000,1395A,114.4645,22.7833,惠州市,惠阳区承修路船湖子站,细颗粒物(PM2.5),65,77,38,47,22,132,,164,164,33,28,6,6,1.0,0.8
2024-09-26T2000,1396A,114.5317,22.7422,惠州市,大亚湾管委会子站,,46,46,31,24,16,94,,153,151,48,29,7,7,0.8,0.7
2024-09-26T2000,3314A,114.4338,22.8134,惠州市,惠阳秋长,细颗粒物(PM2.5),64,61,41,46,24,149,,172,172,30,30,6,6,0.8,0.8
2024-09-26T2000,3452A,114.6517,22.775,惠州市,大亚湾霞涌,,34,34,21,11,14,62,,136,129,16,12,4,4,0.7,0.7
2024-09-26T2000,2240A,130.9762,45.3001,鸡西市,环保局,,18,18,16,3,7,48,,65,57,11,6,5,5,0.2,0.1
2024-09-26T2000,2243A,130.9429,45.3039,鸡西市,第一中学,,18,16,16,12,7,51,,69,66,10,5,4,4,0.1,0.1
2024-09-26T2000,3707A,131.0207,45.3073,鸡西市,欧美日汽修厂,,32,32,17,3,10,41,,68,62,22,15,4,6,0.1,0.1
2024-09-26T2000,3709A,130.9967,45.3106,鸡西市,市政设施管理处,,28,28,21,9,9,41,,62,55,18,15,6,6,0.2,0.2
2024-09-26T2000,2367A,114.9754,27.0803,吉安市,红声器材厂,,35,35,34,20,20,57,,76,76,22,15,10,9,0.6,0.7
2024-09-26T2000,2368A,114.9658,27.0999,吉安市,市森林工业局,,41,41,34,26,26,55,,76,76,23,19,23,12,0.7,0.7
2024-09-26T2000,2369A,114.99,27.1312,吉安市,市环境监测站,,36,36,29,20,18,76,,84,84,12,13,47,18,0.8,0.7
2024-09-26T2000,2370A,115.0093,27.0968,吉安市,青原区法院,,38,38,31,23,22,53,,78,77,22,15,17,14,0.8,0.8
2024-09-26T2000,1772A,126.54,43.8622,吉林市,哈达湾,,32,28,25,22,14,63,,88,86,31,23,6,6,0.6,0.6
2024-09-26T2000,1773A,126.5844,43.8358,吉林市,东局子,,50,50,23,25,13,28,,95,80,45,21,4,4,0.7,0.6
2024-09-26T2000,1774A,126.5052,43.8245,吉林市,电力学院,颗粒物(PM10),57,64,30,36,18,37,,88,82,41,18,5,3,0.8,0.6
2024-09-26T2000,1775A,126.6133,43.8972,吉林市,江北,"颗粒物(PM10),细颗粒物(PM2.5)",58,66,29,41,17,16,,86,75,45,17,6,6,1.0,0.6
2024-09-26T2000,1776A,126.555,43.8306,吉林市,江南公园,颗粒物(PM10),52,54,33,31,18,32,,86,79,56,22,6,6,0.9,0.7
2024-09-26T2000,1778A,126.7061,43.7133,吉林市,丰满,,17,14,8,11,6,54,,86,82,5,4,5,5,0.7,0.7
2024-09-26T2000,2868A,126.4739,43.953,吉林市,九站,颗粒物(PM10),53,56,44,33,22,38,,82,78,40,27,14,15,0.9,0.7
2024-09-26T2000,1299A,116.9862,36.6114,济南市,科干所,颗粒物(PM10),79,107,123,46,57,118,,209,202,51,57,10,10,1.0,1
2024-09-26T2000,1300A,116.9376,36.665,济南市,农科所,颗粒物(PM10),78,105,148,46,71,104,,203,195,55,75,9,9,0.8,0.9
2024-09-26T2000,1301A,117.1265,36.6734,济南市,开发区,颗粒物(PM10),69,88,115,37,55,97,,215,196,44,55,9,9,0.7,0.8
2024-09-26T2000,1303A,117.0624,36.6868,济南市,省种子仓库,颗粒物(PM10),71,92,138,34,68,97,,214,199,39,61,10,9,0.5,0.7
2024-09-26T2000,1305A,117.0495,36.663,济南市,市监测站,颗粒物(PM10),70,90,117,39,65,106,,216,204,48,65,12,9,0.8,1
2024-09-26T2000,1306A,116.7675,36.5484,济南市,长清党校,颗粒物(PM10),84,117,104,56,52,156,,213,211,40,44,13,9,0.9,0.9
2024-09-26T2000,1616A,117.6795,36.229,济南市,技术学院,细颗粒物(PM2.5),92,114,95,68,54,149,,219,207,30,37,12,12,1.1,0.9
2024-09-26T2000,1961A,117.532,36.6868,济南市,东山小学,颗粒物(PM10),61,71,128,27,62,86,,220,194,39,49,5,8,0.4,0.8
2024-09-26T2000,3059A,117.7161,36.2049,济南市,泰兴公司,细颗粒物(PM2.5),77,95,82,56,46,152,,209,200,31,48,10,11,0.8,0.7
2024-09-26T2000,3064A,117.6867,36.2171,济南市,莱芜战役纪念馆,细颗粒物(PM2.5),79,105,87,58,47,144,,210,200,34,37,5,6,1.0,0.8
2024-09-26T2000,3494A,117.1673,36.9782,济南市,济阳区政府,,46,46,99,7,60,108,,198,183,17,20,11,13,0.4,0.8
2024-09-26T2000,3495A,117.1171,36.63,济南市,锦屏中学,"颗粒物(PM10),细颗粒物(PM2.5)",70,90,78,51,48,110,,221,208,41,32,6,7,0.9,0.7
2024-09-26T2000,3682A,116.9814,36.6819,济南市,济南四建,颗粒物(PM10),69,88,124,37,61,100,,202,193,51,74,10,9,0.8,1
2024-09-26T2000,1653A,116.6251,35.4302,济宁市,火炬城,颗粒物(PM10),70,90,81,44,44,136,,211,206,24,34,11,12,1.1,0.9
2024-09-26T2000,1655A,116.5491,35.4042,济宁市,电化厂,颗粒物(PM10),60,69,97,29,40,147,,185,183,25,50,13,15,0.7,0.3
2024-09-26T2000,3500A,116.5814,35.3707,济宁市,北湖一中,颗粒物(PM10),55,59,71,19,44,123,,187,180,33,37,6,5,0.7,0.6
2024-09-26T2000,3501A,116.8249,35.5593,济宁市,服务中心,细颗粒物(PM2.5),94,127,100,70,54,124,,199,191,49,54,10,10,1.0,0.7
2024-09-26T2000,3678A,116.5907,35.4054,济宁市,市第七中学,颗粒物(PM10),59,67,78,39,46,126,,202,196,37,41,9,11,1.0,0.9
2024-09-26T2000,2255A,130.2751,46.8028,佳木斯市,佳纺,,48,48,14,19,6,13,,60,42,38,13,5,4,0.7,0.5
2024-09-26T2000,2256A,130.3995,46.8307,佳木斯市,发电厂,,16,15,6,11,6,27,,65,53,12,5,5,5,0.6,0.6
2024-09-26T2000,2257A,130.3258,46.7975,佳木斯市,环保局,,36,36,11,14,6,3,,65,47,55,13,9,8,0.9,0.5
2024-09-26T2000,2258A,130.3648,46.8032,佳木斯市,十一中,,33,33,11,16,6,10,,70,54,59,15,8,7,1.0,0.5
2024-09-26T2000,2259A,130.3794,46.7588,佳木斯市,四丰,,24,24,10,9,4,35,,56,48,18,15,1,1,0.3,0.3
2024-09-26T2000,1252A,120.7436,30.778,嘉兴市,清河小学,,21,13,28,7,16,37,,74,66,42,29,4,4,0.7,0.8
2024-09-26T2000,1253A,120.726,30.7478,嘉兴市,嘉兴学院,,19,19,35,7,30,48,,71,67,30,26,3,3,0.4,0.5
2024-09-26T2000,2872A,120.7846,30.7525,嘉兴市,南湖区残联,,19,19,29,3,21,53,,80,74,37,31,5,5,0.4,0.6
2024-09-26T2000,3407A,120.6916,30.7739,嘉兴市,秀洲住建,,30,18,27,10,17,13,,65,54,59,38,5,5,0.7,0.8
2024-09-26T2000,1945A,98.2908,39.7711,嘉峪关市,气象局,颗粒物(PM10),57,63,57,27,18,73,,109,106,34,19,6,9,0.2,0.2
2024-09-26T2000,2884A,98.2672,39.7978,嘉峪关市,酒钢宾馆,颗粒物(PM10),60,70,59,22,19,61,,113,107,51,17,8,12,0.5,0.3
2024-09-26T2000,3248A,98.2643,39.7724,嘉峪关市,雄关区,颗粒物(PM10),51,52,51,25,19,80,,104,102,28,21,10,9,0.7,0.3
2024-09-26T2000,1383A,113.1064,22.6058,江门市,北街,,28,27,40,17,27,88,,118,116,14,20,4,5,0.9,1
2024-09-26T2000,1384A,113.0731,22.5835,江门市,西区,,46,46,45,32,25,51,,112,105,54,31,6,6,0.9,0.7
2024-09-26T2000,1385A,113.0219,22.5311,江门市,圭峰西,,32,22,36,22,25,90,,106,103,10,12,3,4,0.8,0.8
2024-09-26T2000,1386A,113.0828,22.5947,江门市,东湖,,35,32,40,24,23,80,,108,106,23,21,4,5,0.8,0.7
2024-09-26T2000,3311A,113.1075,22.5647,江门市,江海富民,,49,49,48,24,31,97,,123,120,25,21,6,7,0.9,0.8
2024-09-26T2000,3449A,113.05,22.4667,江门市,新会银湖,,35,35,37,13,28,65,,109,101,16,17,4,5,0.9,1
2024-09-26T2000,1828A,113.227,35.2125,焦作市,市环保局,细颗粒物(PM2.5),103,143,146,77,91,155,,190,190,31,27,9,14,0.8,1.1
2024-09-26T2000,1830A,113.1992,35.2590,焦作市,影视城,细颗粒物(PM2.5),107,104,105,80,72,190,,200,200,24,22,12,11,2.5,1.9
2024-09-26T2000,3169A,113.2725,35.2067,焦作市,太极体育中心,颗粒物(PM10),108,166,156,68,75,146,,183,183,32,27,8,15,0.8,1.3
2024-09-26T2000,3335A,113.3137,35.2641,焦作市,马村街道办,细颗粒物(PM2.5),110,133,126,83,97,139,,184,182,38,31,8,11,1.0,1.1
2024-09-26T2000,3336A,113.2465,35.2373,焦作市,焦作技师学院,细颗粒物(PM2.5),113,130,140,85,91,152,,189,189,33,28,7,12,1.0,1.2
2024-09-26T2000,3477A,113.1656,35.2539,焦作市,中站许衡医院,细颗粒物(PM2.5),82,105,107,60,71,177,,201,201,39,31,10,10,0.8,1
2024-09-26T2000,3981A,113.2449,35.1803,焦作市,原李万街道办,细颗粒物(PM2.5),94,123,136,70,95,150,,188,188,30,27,13,15,0.9,1.1
2024-09-26T2000,1708A,116.3701,23.5345,揭阳市,新兴,,36,36,30,16,14,92,,102,101,18,13,5,5,0.9,0.7
2024-09-26T2000,1709A,116.3264,23.5443,揭阳市,西马,,32,31,31,15,15,101,,103,103,10,11,6,6,0.7,0.5
2024-09-26T2000,1710A,116.3611,23.5626,揭阳市,东兴,,35,35,32,16,12,91,,110,110,16,11,7,4,0.9,0.8
2024-09-26T2000,1711A,116.4151,23.5294,揭阳市,渔湖,颗粒物(PM10),52,53,28,18,12,96,,115,113,16,13,5,5,0.8,0.6
2024-09-26T2000,3320A,116.403,23.5699,揭阳市,曲溪,,33,30,30,23,14,85,,118,116,19,16,5,4,0.6,0.6
2024-09-26T2000,1944A,102.1692,38.5167,金昌市,天庆家园,细颗粒物(PM2.5),53,,29,37,25,49,,104,98,57,21,15,21,0.8,0.5
2024-09-26T2000,3170A,102.1864,38.5253,金昌市,市委党校,颗粒物(PM10),54,58,51,22,22,59,,99,96,47,20,28,21,0.8,0.6
2024-09-26T2000,4022A,102.1647,38.5371,金昌市,金川区人防中心,颗粒物(PM10),76,102,45,33,21,34,,97,89,74,19,41,21,0.8,0.6
2024-09-26T2000,1262A,119.647,29.077,金华市,十五中,颗粒物(PM10),62,73,56,37,29,66,,139,126,32,31,2,2,0.7,0.7
2024-09-26T2000,1263A,119.686,29.1029,金华市,监测站,细颗粒物(PM2.5),60,68,56,43,34,63,,141,125,34,37,2,2,0.7,0.7
2024-09-26T2000,3659A,119.656,29.1131,金华市,气象局,,,62,58,40,25,57,,145,131,,42,5,5,,0.5
2024-09-26T2000,1767A,121.1115,41.0879,锦州市,南山,,40,,30,28,22,58,,95,92,51,30,10,9,0.5,0.6
2024-09-26T2000,1768A,121.0533,40.8434,锦州市,开发区,颗粒物(PM10),57,64,56,18,24,27,,80,68,76,41,21,31,0.8,0.9
2024-09-26T2000,1769A,121.1836,41.1119,锦州市,百股街道,,23,19,26,9,11,71,,93,91,23,25,8,13,0.5,0.5
2024-09-26T2000,1770A,121.1178,41.1222,锦州市,天安街道,细颗粒物(PM2.5),55,,38,39,21,70,,92,90,32,35,11,12,0.6,0.6
2024-09-26T2000,1771A,121.1303,41.1386,锦州市,北湖公园,,32,26,48,22,16,90,,98,98,25,22,10,10,0.6,0.5
2024-09-26T2000,2160A,112.85,35.5051,晋城市,自来水公司,臭氧1小时,101,135,118,75,73,202,,209,209,25,28,10,11,1.1,1.2
2024-09-26T2000,2161A,112.8318,35.4936,晋城市,白云商贸,臭氧1小时,97,121,124,66,75,197,,205,205,28,28,9,10,1.1,1.2
2024-09-26T2000,2162A,112.8508,35.4887,晋城市,市环保局,臭氧1小时,101,110,113,63,70,201,,205,205,,34,10,9,1.0,1.1
2024-09-26T2000,2163A,112.8676,35.4897,晋城市,技术学院,臭氧1小时,100,120,114,70,67,200,,206,206,29,35,11,10,1.1,1.1
2024-09-26T2000,3620A,112.8271,35.4828,晋城市,泽州一中,细颗粒物(PM2.5),100,108,120,75,82,193,,198,198,30,34,12,13,1.1,1.2
2024-09-26T2000,2171A,112.7532,37.6945,晋中市,锦纶小区,细颗粒物(PM2.5),70,68,118,51,80,71,,146,96,34,25,7,9,0.8,0.8
2024-09-26T2000,2173A,112.7249,37.7067,晋中市,南都小区,细颗粒物(PM2.5),84,65,115,62,77,66,,140,94,36,32,5,6,0.8,0.8
2024-09-26T2000,2174A,112.6991,37.6982,晋中市,榆次区政府,颗粒物(PM10),54,58,122,37,70,43,,143,87,57,32,12,8,0.6,0.8
2024-09-26T2000,2865A,112.7195,37.6828,晋中市,榆次三中,细颗粒物(PM2.5),62,66,117,44,72,57,,144,95,39,26,8,9,0.9,0.8
2024-09-26T2000,2439A,112.2014,31.0481,荆门市,竹园小学,"颗粒物(PM10),细颗粒物(PM2.5)",65,79,93,47,54,168,,212,207,29,32,14,14,0.9,0.9
2024-09-26T2000,2440A,112.1969,30.9891,荆门市,掇刀,细颗粒物(PM2.5),87,103,93,64,62,139,,220,209,55,37,17,18,0.8,0.8
2024-09-26T2000,2441A,112.2213,31.0386,荆门市,石化一小,臭氧1小时,89,81,99,47,60,191,,212,210,19,39,19,20,0.6,0.7
2024-09-26T2000,3012A,112.1849,31.0362,荆门市,西山林语,臭氧1小时,65,59,84,40,55,172,,218,213,20,20,10,12,0.7,0.7
2024-09-26T2000,3547A,112.1632,31.0138,荆门市,龙泉中学南校,细颗粒物(PM2.5),68,77,96,49,62,156,,225,217,31,34,11,13,0.7,0.8
2024-09-26T2000,1844A,112.2494,30.3197,荆州市,市图书馆,细颗粒物(PM2.5),58,62,87,41,70,150,,211,204,35,40,11,23,0.9,0.9
2024-09-26T2000,1845A,112.2008,30.3544,荆州市,市委党校,颗粒物(PM10),59,67,98,40,76,155,,218,210,33,44,10,16,0.8,0.8
2024-09-26T2000,3194A,112.2747,30.3122,荆州市,管委会,颗粒物(PM10),57,64,85,39,72,143,,208,199,39,40,11,26,0.9,0.9
2024-09-26T2000,3548A,112.1655,30.3364,荆州市,学苑路,细颗粒物(PM2.5),58,63,113,41,81,163,,229,221,30,37,6,14,0.9,0.8
2024-09-26T2000,2343A,117.2117,29.2933,景德镇市,老干部活动中心,,46,32,36,32,24,59,,83,74,14,18,8,8,0.6,0.5
2024-09-26T2000,2344A,117.1894,29.2789,景德镇市,兽医站,颗粒物(PM10),52,54,46,30,23,60,,86,72,11,18,6,10,0.8,0.7
2024-09-26T2000,2345A,117.1547,29.2617,景德镇市,台达陶瓷,细颗粒物(PM2.5),68,68,49,49,29,22,,84,66,55,26,51,31,0.8,0.6
2024-09-26T2000,2346A,117.2461,29.2956,景德镇市,陶研所,,36,36,38,22,22,47,,88,73,14,17,6,6,0.5,0.5
2024-09-26T2000,1803A,115.9872,29.6815,九江市,十里,颗粒物(PM10),58,66,65,37,34,159,,162,161,19,25,19,14,0.8,0.8
2024-09-26T2000,1804A,115.9584,29.7046,九江市,茅山头,颗粒物(PM10),62,73,54,43,33,129,,149,147,28,22,10,11,1.0,0.9
2024-09-26T2000,1805A,115.9877,29.7295,九江市,西园,颗粒物(PM10),56,61,49,35,32,153,,168,168,20,20,13,12,0.7,0.7
2024-09-26T2000,1806A,116.0172,29.6547,九江市,五七二七厂,臭氧1小时,54,48,48,36,37,163,,156,156,15,19,10,14,0.8,0.9
2024-09-26T2000,1808A,115.9114,29.6038,九江市,综合工业园,颗粒物(PM10),57,64,62,30,41,142,,167,162,38,43,16,20,0.6,0.9
2024-09-26T2000,1809A,116.0721,29.7535,九江市,石化总厂,细颗粒物(PM2.5),67,75,60,48,35,128,,150,148,33,25,12,11,0.9,0.7
2024-09-26T2000,1810A,115.9773,29.5698,九江市,庐山气象台,臭氧1小时,55,40,36,31,29,164,,162,158,5,5,8,10,0.6,1
2024-09-26T2000,3190A,116.0254,29.6994,九江市,外国语学校,颗粒物(PM10),59,67,56,38,35,128,,165,161,25,20,18,16,0.9,0.6
2024-09-26T2000,2658A,98.5061,39.7443,酒泉市,仓门街子站,颗粒物(PM10),62,73,54,26,22,73,,97,95,23,16,60,29,0.8,0.4
2024-09-26T2000,2659A,98.4989,39.7256,酒泉市,油田生活基地,,,,59,,26,78,,102,100,,17,,17,0.5,0.3
2024-09-26T2000,2698A,76.0072,39.4467,喀什地区,巡警大队,颗粒物(PM10),82,113,357,21,82,104,,100,100,13,40,5,6,0.4,0.8
2024-09-26T2000,2699A,75.9755,39.4694,喀什地区,吾办,颗粒物(PM10),84,117,338,31,113,104,,99,99,18,33,7,7,0.4,0.7
2024-09-26T2000,4027A,75.9483,39.4689,喀什地区,老干局,颗粒物(PM10),96,142,394,26,84,94,,98,98,10,27,5,5,0.4,0.6
2024-09-26T2000,1824A,114.3389,34.7781,开封市,肿瘤医院,细颗粒物(PM2.5),124,155,155,94,106,164,,201,200,28,31,8,10,0.7,0.7
2024-09-26T2000,1826A,114.2885,34.7965,开封市,世纪星幼儿园,颗粒物(PM10),102,153,136,56,65,174,,199,199,24,27,10,9,0.9,0.9
2024-09-26T2000,3147A,114.3438,34.8106,开封市,龙亭公园,颗粒物(PM10),98,145,145,70,87,158,,192,191,29,33,8,8,1.0,1
2024-09-26T2000,3210A,114.3644,34.7964,开封市,汴京公园,细颗粒物(PM2.5),135,191,167,103,104,142,,190,187,34,32,9,9,0.9,0.8
2024-09-26T2000,3473A,114.2485,34.8306,开封市,技师学院,颗粒物(PM10),105,160,149,60,68,146,,187,184,,36,,17,0.9,0.9
2024-09-26T2000,3592A,114.4644,34.7556,开封市,祥符区生态环境局,颗粒物(PM10),111,171,150,76,76,130,,189,185,50,48,19,11,2.6,0.8
2024-09-26T2000,1951A,84.895,45.6094,克拉玛依市,长征新村,,19,19,19,8,6,48,,73,66,23,12,6,6,0.4,0.3
2024-09-26T2000,1952A,84.8988,45.5893,克拉玛依市,南林小区,,20,20,15,3,9,36,,71,63,28,14,8,8,0.7,0.6
2024-09-26T2000,1954A,84.905,44.3396,克拉玛依市,独山子区,,20,18,19,13,12,64,,83,69,11,14,8,8,0.3,0.4
2024-09-26T2000,1955A,85.6979,46.098,克拉玛依市,乌尔禾区商贸楼,,25,13,24,3,5,78,,70,70,4,10,3,15,0.2,0.2
2024-09-26T2000,3612A,85.1045,45.6899,克拉玛依市,白碱滩区新站,,24,24,25,3,6,58,,77,62,19,11,7,8,0.3,0.3
2024-09-26T2000,2697A,76.1454,39.7142,克孜勒苏柯尔克孜自治州,市人民政府,颗粒物(PM10),75,100,305,33,100,125,,120,120,7,12,4,7,0.5,0.5
2024-09-26T2000,3665A,76.1658,39.7157,克孜勒苏柯尔克孜自治州,克州文化中心,,,111,300,40,102,125,,119,119,,12,8,12,0.4,0.5
2024-09-26T2000,1450A,102.8204,24.8886,昆明市,呈贡新区,,38,38,43,23,26,91,,111,110,15,32,6,6,0.5,0.6
2024-09-26T2000,1452A,102.7252,25.0902,昆明市,龙泉镇,,40,40,35,18,19,107,,126,126,16,18,7,7,0.7,0.8
2024-09-26T2000,1453A,102.7266,25.0375,昆明市,东风东路,,36,32,36,25,25,94,,114,113,18,17,6,7,0.4,0.5
2024-09-26T2000,1454A,102.6742,25.0669,昆明市,金鼎山,,32,32,31,12,21,97,,109,109,21,18,4,5,0.5,0.5
2024-09-26T2000,1455A,102.6644,25.0401,昆明市,碧鸡广场,,41,41,40,20,25,80,,116,114,31,23,7,8,0.7,0.7
2024-09-26T2000,3179A,102.7494,25.0119,昆明市,官渡区博物馆,,36,36,41,17,21,99,,122,121,13,26,6,7,0.6,0.7
2024-09-26T2000,3375A,102.8017,24.8336,昆明市,青年创业园,,,28,31,21,21,88,,112,110,17,22,4,5,,0.6
2024-09-26T2000,3550A,102.7997,24.9786,昆明市,昆明学院,,33,33,50,14,28,96,,113,112,20,33,6,7,0.5,0.6
2024-09-26T2000,3551A,102.5967,24.6736,昆明市,晋宁区生态环境分局,,42,32,44,29,33,86,,113,112,12,16,2,3,0.6,0.8
2024-09-26T2000,3552A,102.6678,24.9856,昆明市,云天化总部,,37,37,35,22,25,98,,120,120,14,14,5,6,0.7,0.5
2024-09-26T2000,1456A,91.1319,29.6514,拉萨市,八廓街,,24,16,10,8,7,76,,95,93,19,12,6,6,0.4,0.3
2024-09-26T2000,1457A,91.1221,29.6747,拉萨市,市环保局,,27,13,8,8,6,84,,98,96,10,10,8,7,0.5,0.5
2024-09-26T2000,1458A,91.0874,29.6475,拉萨市,区监测站,,23,7,8,7,6,73,,91,89,18,12,5,5,0.2,0.2
2024-09-26T2000,1459A,91.1774,29.6541,拉萨市,西藏大学,,23,19,9,14,6,72,,92,90,18,10,5,5,0.6,0.5
2024-09-26T2000,1460A,90.9798,29.6588,拉萨市,区辐射站,,24,14,10,3,6,76,,88,87,18,14,8,8,0.2,0.2
2024-09-26T2000,1461A,91.0834,29.6292,拉萨市,拉萨火车站,,26,8,7,6,5,81,,92,91,10,8,5,5,0.2,0.2
2024-09-26T2000,2520A,109.2203,23.7256,来宾市,来宾技工学校,,29,29,37,20,23,63,,72,71,11,15,6,29,0.8,0.8
2024-09-26T2000,3535A,109.1781,23.7297,来宾市,兴宾区政府,,20,19,28,14,19,50,,78,75,7,12,6,14,0.7,0.7
2024-09-26T2000,4002A,109.2416,23.7461,来宾市,中南小学,,33,26,35,23,22,69,,75,75,11,16,9,19,0.8,0.8
2024-09-26T2000,1476A,103.631,36.1031,兰州市,兰炼宾馆,"颗粒物(PM10),细颗粒物(PM2.5)",72,93,38,52,25,63,,141,139,87,26,9,14,0.9,0.4
2024-09-26T2000,1478A,103.8412,36.0726,兰州市,生物制品所,颗粒物(PM10),61,72,35,30,24,17,,99,93,82,38,12,13,1.3,0.6
2024-09-26T2000,1479A,103.831,36.0464,兰州市,铁路设计院,颗粒物(PM10),83,116,40,56,26,3,,90,80,132,47,15,12,2.2,0.7
2024-09-26T2000,3186A,103.7158,36.1058,兰州市,教育港,颗粒物(PM10),83,116,41,42,30,32,,143,138,110,30,13,12,1.5,0.6
2024-09-26T2000,3241A,103.7439,36.0842,兰州市,百合公园,颗粒物(PM10),66,81,37,35,18,36,,129,125,90,34,13,11,1.1,0.5
2024-09-26T2000,3242A,103.9611,35.998,兰州市,和平,,44,44,32,22,14,66,,102,101,15,22,9,14,0.2,0.5
2024-09-26T2000,3245A,103.6633,36.533,兰州新区,新区管委会,,41,41,29,24,17,68,,106,103,32,20,5,13,0.4,0.4
2024-09-26T2000,3246A,103.6975,36.4789,兰州新区,舟曲中学,,35,35,22,16,13,68,,109,105,43,14,6,18,0.2,0.4
2024-09-26T2000,1067A,116.6708,39.5111,廊坊市,药材公司,颗粒物(PM10),67,84,52,32,29,80,,101,101,24,25,4,5,0.7,0.7
2024-09-26T2000,1068A,116.7214,39.5589,廊坊市,开发区,颗粒物(PM10),54,58,53,30,25,75,,105,104,24,29,3,3,0.6,0.6
2024-09-26T2000,1070A,116.7244,39.5269,廊坊市,北华航天学院,颗粒物(PM10),63,75,58,23,27,81,,113,112,32,29,4,3,0.6,0.6
2024-09-26T2000,2919A,116.7022,39.5453,廊坊市,河北工业大学,颗粒物(PM10),59,67,53,27,28,111,,112,112,19,29,7,4,0.6,0.6
2024-09-26T2000,2535A,103.7723,29.5462,乐山市,花湖湾,颗粒物(PM10),65,79,65,40,40,100,,133,131,19,18,4,3,0.8,1
2024-09-26T2000,2536A,103.7627,29.5844,乐山市,牛耳桥,细颗粒物(PM2.5),55,56,59,39,50,90,,140,137,37,25,5,5,0.8,0.9
2024-09-26T2000,2537A,103.7508,29.6006,乐山市,市第三水厂,颗粒物(PM10),52,54,61,32,47,110,,150,148,25,25,4,4,0.7,0.8
2024-09-26T2000,2538A,103.7571,29.5664,乐山市,市监测站,细颗粒物(PM2.5),53,52,67,37,51,110,,142,142,21,18,4,5,0.9,1.1
2024-09-26T2000,3361A,103.7311,29.5628,乐山市,理工大学,,,,64,,51,105,,152,151,17,19,3,4,,1
2024-09-26T2000,2599A,100.2497,26.8802,丽江市,丽江古城,,32,23,18,22,15,42,,66,64,16,11,10,9,0.8,0.7
2024-09-26T2000,2600A,100.2203,26.8906,丽江市,市中心,,19,16,14,13,10,41,,64,62,21,10,7,6,0.8,0.7
2024-09-26T2000,1267A,119.914,28.4514,丽水市,监测站大楼,,29,29,37,16,19,39,,71,62,20,21,4,4,0.6,0.6
2024-09-26T2000,1268A,119.93,28.4586,丽水市,莲都小学,,33,33,39,22,21,46,,72,63,20,24,4,4,0.6,0.6
2024-09-26T2000,1269A,119.879,28.4231,丽水市,余庄前,,34,34,41,14,21,14,,74,58,17,12,4,3,0.5,0.5
2024-09-26T2000,1173A,119.176,34.5885,连云港市,市环境监测站,臭氧1小时,98,61,46,41,25,198,,219,218,16,24,6,7,0.4,0.4
2024-09-26T2000,3000A,119.3581,34.6972,连云港市,德源药业,细颗粒物(PM2.5),55,58,49,39,25,154,,210,202,21,30,8,6,0.4,0.4
2024-09-26T2000,3007A,119.178,34.844,连云港市,新城一中,臭氧1小时,102,56,53,25,27,203,,214,214,28,35,6,7,0.6,0.7
2024-09-26T2000,3008A,119.3608,34.7519,连云港市,胡沟管理处,,,,39,,21,151,,199,194,33,21,10,9,0.6,0.5
2024-09-26T2000,3009A,119.1478,34.5911,连云港市,矿山设计院,臭氧1小时,85,66,50,44,28,188,,216,214,18,21,6,7,0.8,0.7
2024-09-26T2000,3434A,119.2413,34.6539,连云港市,工贸学校,臭氧1小时,79,36,38,25,24,183,,216,212,15,17,8,8,0.8,0.8
2024-09-26T2000,3664A,119.4172,34.7341,连云港市,连云街道,臭氧1小时,54,32,39,18,23,163,,208,199,14,19,5,6,0.4,0.4
2024-09-26T2000,2571A,102.3431,27.8099,凉山彝族自治州,青龙寺,,19,19,25,8,11,51,,91,91,9,8,5,6,0.6,0.7
2024-09-26T2000,2572A,102.2721,27.8415,凉山彝族自治州,邛海宾馆,,23,23,35,14,21,73,,88,88,12,16,9,11,0.6,0.8
2024-09-26T2000,2573A,102.2625,27.898,凉山彝族自治州,西昌市政府,,17,15,23,8,16,54,,79,79,16,13,14,11,1.3,0.7
2024-09-26T2000,2574A,102.2685,27.8851,凉山彝族自治州,凉山州政府,,23,19,32,14,18,71,,88,88,15,18,15,11,1.1,0.8
2024-09-26T2000,2575A,102.237,27.8914,凉山彝族自治州,长安,,31,31,22,13,12,58,,79,79,23,18,24,12,2.0,1
2024-09-26T2000,2212A,123.2,41.1953,辽阳市,宏伟区,,43,43,32,14,18,24,,87,80,52,23,10,11,0.7,0.7
2024-09-26T2000,2213A,123.1683,41.2495,辽阳市,新华园,,50,50,40,16,23,44,,80,76,44,26,10,12,0.6,0.8
2024-09-26T2000,2214A,123.2354,41.2639,辽阳市,滨河路,细颗粒物(PM2.5),57,47,28,40,22,17,,93,77,57,24,10,12,0.6,0.7
2024-09-26T2000,2215A,123.149,41.2991,辽阳市,铁西工业园,颗粒物(PM10),78,106,34,39,20,5,,70,58,58,24,10,11,0.8,0.9
2024-09-26T2000,2227A,125.1358,42.8845,辽源市,环保局,,44,44,24,26,11,8,,75,64,46,20,7,7,1.1,0.7
2024-09-26T2000,3239A,125.0764,42.9078,辽源市,银鹰制药,颗粒物(PM10),68,85,28,45,16,5,,72,64,50,23,7,8,0.8,0.6
2024-09-26T2000,1625A,115.9848,36.4372,聊城市,区政府,细颗粒物(PM2.5),107,143,138,80,70,168,,177,177,35,51,13,16,0.9,0.8
2024-09-26T2000,2878A,116.0072,36.4343,聊城市,聊大东校,细颗粒物(PM2.5),107,134,140,80,80,166,,186,186,39,43,12,18,0.9,1
2024-09-26T2000,3513A,116.0445,36.4361,聊城市,九州社区,细颗粒物(PM2.5),113,154,131,85,66,141,,182,182,49,49,7,9,0.6,0.7
2024-09-26T2000,4018A,116.0567,36.4608,聊城市,星美广场,细颗粒物(PM2.5),112,114,119,84,70,130,,178,178,54,50,11,15,0.8,0.7
2024-09-26T2000,2632A,94.3681,29.6376,林芝市,林芝监测站,,20,9,5,6,4,61,,69,69,4,3,10,10,0.2,0.2
2024-09-26T2000,2633A,94.3616,29.6616,林芝市,林芝人民医院,,19,7,7,3,4,60,,69,69,5,6,8,8,0.1,0.2
2024-09-26T2000,2603A,100.0781,23.8982,临沧市,市环保局,,40,,25,28,20,52,,62,61,10,11,4,5,0.5,0.5
2024-09-26T2000,2604A,100.0894,23.8822,临沧市,市气象局,,20,20,28,14,24,56,,61,61,8,11,4,5,0.5,0.5
2024-09-26T2000,1733A,111.5531,36.0783,临汾市,临钢医院,细颗粒物(PM2.5),113,142,104,85,38,80,,98,98,31,41,5,9,1.2,0.9
2024-09-26T2000,1734A,111.5028,36.0714,临汾市,技工学校,细颗粒物(PM2.5),118,147,90,89,43,103,,114,114,37,44,7,9,,0.9
2024-09-26T2000,1736A,111.5018,36.0855,临汾市,市委,细颗粒物(PM2.5),119,132,88,90,44,106,,119,119,24,34,8,9,1.2,0.9
2024-09-26T2000,3018A,111.505,36.1014,临汾市,唐尧大酒店,细颗粒物(PM2.5),117,107,79,88,42,95,,108,108,26,35,6,7,1.1,0.8
2024-09-26T2000,3668A,111.5036,36.0414,临汾市,城南,细颗粒物(PM2.5),115,122,107,87,53,100,,115,115,27,40,7,8,1.3,1
2024-09-26T2000,2667A,103.2069,35.5993,临夏回族自治州,环保局,,37,37,31,13,15,51,,95,91,34,15,10,9,0.6,0.4
2024-09-26T2000,2668A,103.2417,35.6057,临夏回族自治州,建设大厦,颗粒物(PM10),69,87,37,21,16,45,,97,93,41,12,12,10,0.5,0.3
2024-09-26T2000,1618A,118.3429,35.0532,临沂市,沂河小区,臭氧1小时,100,112,82,56,40,200,,224,224,25,28,14,19,0.8,0.6
2024-09-26T2000,1619A,118.295,35.0583,临沂市,鲁南制药厂,臭氧1小时,106,102,76,40,32,212,,233,233,25,23,13,15,0.8,0.7
2024-09-26T2000,1620A,118.2794,34.9976,临沂市,新光毛纺厂,臭氧1小时,77,100,85,43,35,181,,217,217,52,30,16,17,0.9,0.8
2024-09-26T2000,1621A,118.3956,35.0888,临沂市,河东保险公司,细颗粒物(PM2.5),95,117,79,71,47,169,,235,231,56,46,11,10,1.0,0.9
2024-09-26T2000,3370A,118.3564,35.0215,临沂市,十里堡居委,臭氧1小时,101,102,67,63,41,202,,228,228,27,28,17,16,1.2,0.9
2024-09-26T2000,3496A,118.3604,35.1084,临沂市,南坊新区,臭氧1小时,95,114,81,63,44,196,,244,242,31,29,13,11,1.0,0.8
2024-09-26T2000,3860A,118.3920,35.0300,临沂市,皇山花园小区,细颗粒物(PM2.5),94,110,84,70,54,180,,221,220,36,35,14,11,0.9,0.7
2024-09-26T2000,1870A,109.4856,24.3895,柳州市,柳东小学,,21,20,23,14,16,65,,78,77,7,11,7,8,0.7,0.8
2024-09-26T2000,1871A,109.4157,24.3277,柳州市,环保监测站,,24,23,27,13,15,74,,81,81,11,10,8,8,0.8,0.8
2024-09-26T2000,1872A,109.389,24.341,柳州市,河西水厂,,46,46,32,23,18,70,,80,80,11,11,7,7,1.0,1.1
2024-09-26T2000,1873A,109.4311,24.2921,柳州市,市四中,,29,29,25,20,19,79,,85,85,14,12,6,6,0.7,0.7
2024-09-26T2000,1874A,109.4006,24.3631,柳州市,市九中,,,38,28,13,17,70,,86,86,17,11,4,5,,1
2024-09-26T2000,1875A,109.4958,24.3134,柳州市,古亭山,,20,18,24,14,16,49,,72,69,21,20,7,7,1.0,1
2024-09-26T2000,3402A,109.5422,24.3996,柳州市,市二中,,22,22,27,13,17,61,,80,79,14,18,7,9,0.7,0.7
2024-09-26T2000,2307A,116.5079,31.737,六安市,监测大楼,细颗粒物(PM2.5),79,,49,58,38,142,,154,154,17,21,7,6,0.8,0.6
2024-09-26T2000,2308A,116.4738,31.7643,六安市,皖西学院,细颗粒物(PM2.5),67,66,63,48,35,152,,160,160,19,22,7,6,0.7,0.5
2024-09-26T2000,2309A,116.4996,31.7905,六安市,朝阳厂,,,,56,,38,139,,154,154,,25,1,2,,0.5
2024-09-26T2000,2310A,116.5567,31.7886,六安市,开发区,颗粒物(PM10),64,77,57,37,30,126,,156,156,26,23,6,4,0.7,0.6
2024-09-26T2000,2577A,104.83,26.5917,六盘水市,黄土坡,,33,30,39,23,34,58,,94,90,31,19,8,7,1.2,0.7
2024-09-26T2000,2578A,104.89,26.5939,六盘水市,水钢,,38,38,50,17,32,62,,98,93,29,19,9,8,0.7,0.8
2024-09-26T2000,2579A,104.8475,26.5894,六盘水市,民中,,39,34,37,27,30,36,,94,84,60,22,9,7,1.6,0.7
2024-09-26T2000,2580A,104.9544,26.5506,六盘水市,双水,,29,29,44,15,31,74,,105,101,16,14,6,8,0.4,0.5
2024-09-26T2000,2336A,117.0217,25.1033,龙岩市,龙岩市监测站,,19,18,20,9,8,14,,64,57,38,17,4,5,0.6,0.5
2024-09-26T2000,2337A,117.0258,25.0661,龙岩市,闽西职业技术学院,,13,13,26,8,13,26,,65,56,22,15,6,10,0.5,0.5
2024-09-26T2000,2338A,117.0196,25.0306,龙岩市,龙岩学院,,11,10,17,7,6,35,,64,59,4,9,3,3,0.3,0.4
2024-09-26T2000,2885A,104.9339,33.3826,陇南市,滨江中学,,50,50,39,20,14,82,,86,86,6,9,7,8,0.5,0.5
2024-09-26T2000,3247A,104.955,33.371,陇南市,市总工会,,41,41,30,8,6,87,,88,88,4,5,8,8,0.5,0.4
2024-09-26T2000,2487A,111.9589,27.8901,娄底市,电视发射台,颗粒物(PM10),60,69,64,41,43,114,,146,137,11,8,5,5,0.8,0.8
2024-09-26T2000,2488A,111.9975,27.725,娄底市,市监测站,细颗粒物(PM2.5),88,68,81,65,55,151,,170,166,12,21,10,10,0.7,0.8
2024-09-26T2000,2489A,112.0194,27.7314,娄底市,市委党校,细颗粒物(PM2.5),82,83,81,60,54,139,,156,152,12,15,9,8,0.7,0.7
2024-09-26T2000,2490A,111.9561,27.7569,娄底市,涟钢,,,,77,61,55,116,,134,130,27,23,5,7,,1
2024-09-26T2000,2491A,111.9892,27.7044,娄底市,市政府,细颗粒物(PM2.5),87,78,77,64,56,132,,167,162,17,16,9,8,0.6,0.7
2024-09-26T2000,1893A,105.4324,28.9634,泸州市,九狮山,颗粒物(PM10),61,72,81,37,55,78,,143,139,31,23,5,5,0.4,0.7
2024-09-26T2000,1894A,105.4427,28.9063,泸州市,小市上码头,,48,45,81,33,64,126,,163,163,17,28,7,6,0.6,0.8
2024-09-26T2000,1895A,105.4241,28.8573,泸州市,兰田宪桥,细颗粒物(PM2.5),55,48,69,39,65,104,,158,156,19,20,6,4,0.6,0.7
2024-09-26T2000,1896A,105.4379,28.8833,泸州市,市环监站,,48,44,75,33,63,116,,160,160,21,22,5,6,0.6,0.7
2024-09-26T2000,3490A,105.3617,28.7703,泸州市,纳溪区环保局,细颗粒物(PM2.5),64,66,67,46,50,96,,148,144,25,24,9,5,0.7,0.8
2024-09-26T2000,2183A,111.1406,37.5211,吕梁市,环保局,细颗粒物(PM2.5),53,42,49,37,20,55,,88,88,39,29,4,4,0.7,0.5
2024-09-26T2000,2185A,111.1297,37.5136,吕梁市,自来水公司,,36,30,53,25,20,86,,94,94,22,28,2,3,0.6,0.6
2024-09-26T2000,2867A,111.1283,37.51,吕梁市,马茂庄小学,细颗粒物(PM2.5),64,52,61,46,21,85,,93,93,30,33,2,3,0.7,0.5
2024-09-26T2000,1812A,112.3931,34.6516,洛阳市,市委党校,颗粒物(PM10),89,128,149,65,85,174,,184,184,25,29,8,10,0.9,0.9
2024-09-26T2000,1814A,112.4657,34.6871,洛阳市,豫西宾馆,,,129,137,,78,165,,178,178,25,22,11,12,0.9,0.8
2024-09-26T2000,1815A,112.494,34.6886,洛阳市,河南林校,细颗粒物(PM2.5),117,135,140,88,92,167,,184,184,23,26,8,10,1.0,0.9
2024-09-26T2000,1816A,112.3844,34.623,洛阳市,开发区管委会,细颗粒物(PM2.5),95,108,137,71,92,174,,191,191,21,25,3,4,0.7,0.7
2024-09-26T2000,1817A,112.4267,34.6258,洛阳市,市委新办公区,细颗粒物(PM2.5),88,114,141,65,88,157,,177,177,24,20,4,7,0.7,1.1
2024-09-26T2000,3340A,112.6005,34.6326,洛阳市,伊滨,细颗粒物(PM2.5),84,76,112,62,82,164,,181,181,23,26,9,10,0.9,1
2024-09-26T2000,3341A,112.4951,34.6332,洛阳市,中移产业园,细颗粒物(PM2.5),89,126,144,66,88,162,,188,188,28,28,4,7,0.9,0.9
2024-09-26T2000,3593A,112.5736,34.8993,洛阳市,吉利监测站,颗粒物(PM10),81,111,142,40,86,153,,182,182,24,30,7,8,0.7,0.9
2024-09-26T2000,3635A,112.3677,34.662,洛阳市,河科大西苑校区,颗粒物(PM10),88,126,148,50,64,176,,189,189,29,30,6,9,1.0,0.9
2024-09-26T2000,3636A,112.4388,34.6781,洛阳市,英才小学,颗粒物(PM10),91,131,154,67,72,168,,184,184,28,25,5,8,0.9,0.8
2024-09-26T2000,2399A,114.051,33.5699,漯河市,三五一五工厂,颗粒物(PM10),86,122,98,32,43,111,,150,141,22,28,8,9,0.6,0.6
2024-09-26T2000,2400A,114.0055,33.5698,漯河市,漯河大学,颗粒物(PM10),68,85,86,34,45,118,,155,145,21,23,5,8,0.7,0.6
2024-09-26T2000,2401A,114.0138,33.5828,漯河市,市水利局,颗粒物(PM10),80,110,97,34,45,100,,151,139,27,22,6,8,0.6,0.6
2024-09-26T2000,2402A,114.0261,33.5698,漯河市,市广电局,颗粒物(PM10),80,110,89,30,46,113,,153,144,20,21,10,12,0.7,0.7
2024-09-26T2000,3478A,113.9749,33.5664,漯河市,市图书馆,颗粒物(PM10),59,68,82,28,44,130,,160,152,18,25,9,8,0.6,0.7
2024-09-26T2000,3479A,114.0967,33.5906,漯河市,召陵区卫健委,颗粒物(PM10),82,113,112,33,50,90,,150,134,27,32,8,11,0.5,0.6
2024-09-26T2000,1798A,118.5092,31.6837,马鞍山市,湖东路四小,,22,16,50,15,35,57,,89,72,21,25,6,7,0.7,0.9
2024-09-26T2000,1799A,118.5024,31.6449,马鞍山市,开发区,,18,18,56,10,35,51,,89,71,21,37,6,7,0.8,1
2024-09-26T2000,1800A,118.5228,31.7231,马鞍山市,慈湖,,28,28,52,16,33,62,,79,69,14,31,7,8,0.7,1.1
2024-09-26T2000,1802A,118.6245,31.7241,马鞍山市,濮塘,,23,19,36,16,32,59,,74,66,11,14,8,8,0.7,0.9
2024-09-26T2000,3633A,118.4918,31.6809,马鞍山市,雨山,,18,12,46,12,30,55,,87,70,15,20,7,9,0.9,1.1
2024-09-26T2000,1686A,111.0286,21.4688,茂名市,电白南海,,,41,35,,14,102,,111,111,10,10,10,11,0.7,0.6
2024-09-26T2000,1687A,110.9294,21.6533,茂名市,茂石化七小,,48,48,33,31,20,99,,100,100,12,13,23,11,0.9,0.8
2024-09-26T2000,1688A,110.9107,21.6687,茂名市,健康路,,35,34,23,24,14,89,,104,101,12,10,13,15,1.0,0.9
2024-09-26T2000,1689A,110.8592,21.6828,茂名市,高岭,,46,46,41,29,25,65,,98,93,28,19,35,14,0.8,0.9
2024-09-26T2000,3450A,111.01,21.5165,茂名市,电白水东,,34,24,23,22,17,108,,102,102,7,11,7,8,0.9,0.8
2024-09-26T2000,2539A,104.0308,30.0478,眉山市,黑龙滩水库,细颗粒物(PM2.5),52,49,56,36,41,118,,146,143,4,4,4,4,0.5,0.8
2024-09-26T2000,2540A,103.8416,30.0874,眉山市,气象局,细颗粒物(PM2.5),55,43,71,39,62,118,,151,151,27,38,7,7,0.6,0.7
2024-09-26T2000,3137A,103.8578,30.0744,眉山市,市委党校,细颗粒物(PM2.5),55,53,76,39,55,109,,147,146,40,32,7,8,0.8,0.8
2024-09-26T2000,3148A,103.8291,30.0564,眉山市,区人社局,细颗粒物(PM2.5),62,46,66,44,52,106,,151,148,32,33,11,10,0.7,0.7
2024-09-26T2000,1690A,116.1231,24.3284,梅州市,梅江月梅,,38,,30,26,10,38,,85,79,16,11,6,6,0.4,0.4
2024-09-26T2000,1691A,116.0797,24.2719,梅州市,梅县新城,,22,22,25,12,13,48,,80,77,11,15,4,4,0.6,0.6
2024-09-26T2000,1692A,116.1248,24.2654,梅州市,环境监控中心,,18,18,27,10,12,45,,76,72,20,18,4,5,0.6,0.5
2024-09-26T2000,3315A,116.1233,24.2991,梅州市,梅龙,,22,22,28,13,15,52,,86,81,12,14,8,9,0.6,0.6
2024-09-26T2000,1878A,104.7778,31.4741,绵阳市,富乐山,细颗粒物(PM2.5),77,64,57,56,43,137,,167,167,23,23,3,4,0.7,0.7
2024-09-26T2000,1879A,104.7563,31.4535,绵阳市,市人大,细颗粒物(PM2.5),65,66,71,47,42,136,,170,170,34,35,8,10,0.8,0.7
2024-09-26T2000,1880A,104.6697,31.4668,绵阳市,高新区自来水公司,颗粒物(PM10),65,80,71,46,40,115,,162,162,41,38,4,7,0.9,0.8
2024-09-26T2000,1881A,104.7287,31.5075,绵阳市,三水厂,细颗粒物(PM2.5),69,65,69,50,47,121,,159,159,34,40,7,8,0.8,0.8
2024-09-26T2000,3491A,104.69,31.5322,绵阳市,西科大附属小学,"颗粒物(PM10),细颗粒物(PM2.5)",60,70,68,43,40,120,,161,161,42,35,4,7,0.7,0.7
2024-09-26T2000,3492A,104.5648,31.5343,绵阳市,安州区旅游局,细颗粒物(PM2.5),67,62,64,48,46,143,,184,184,38,21,3,10,0.9,0.7
2024-09-26T2000,1784A,129.61,44.561,牡丹江市,环保大楼,,36,36,20,22,16,10,,75,61,46,16,7,7,0.6,0.4
2024-09-26T2000,1785A,129.6115,44.5782,牡丹江市,文化广场,颗粒物(PM10),67,83,28,30,19,19,,71,62,49,18,9,8,0.8,0.4
2024-09-26T2000,1786A,129.5904,44.5963,牡丹江市,第一医院,,42,42,26,26,21,32,,72,62,31,18,7,6,0.6,0.4
2024-09-26T2000,1787A,129.6364,44.6075,牡丹江市,机车工厂,颗粒物(PM10),51,51,31,30,20,19,,72,62,27,17,84,13,0.4,0.4
2024-09-26T2000,1788A,129.6386,44.5462,牡丹江市,第一中学,,38,38,24,25,13,23,,82,67,18,12,6,6,0.3,0.3
2024-09-26T2000,2531A,105.0703,29.61,内江市,市监测站,细颗粒物(PM2.5),68,,55,49,59,147,,173,170,24,23,4,4,0.7,0.8
2024-09-26T2000,2532A,105.0717,29.5947,内江市,东兴区政府,细颗粒物(PM2.5),67,68,57,48,58,151,,175,173,25,23,4,5,0.6,0.9
2024-09-26T2000,2533A,105.0653,29.5817,内江市,内江二中,细颗粒物(PM2.5),65,64,68,47,71,141,,170,168,25,20,8,8,0.7,0.8
2024-09-26T2000,2534A,105.0406,29.5822,内江市,内江日报社,细颗粒物(PM2.5),60,55,70,43,60,128,,169,164,39,30,7,6,0.7,0.8
2024-09-26T2000,2628A,92.0657,31.4846,那曲市,那曲监测站,,49,49,59,13,23,51,,66,65,10,11,9,7,0.5,0.6
2024-09-26T2000,3128A,92.0506,31.4797,那曲市,那曲会议中心,颗粒物(PM10),51,51,62,10,23,71,,75,75,9,18,3,4,0.4,0.5
2024-09-26T2000,1290A,115.8931,28.6843,南昌市,省外办,颗粒物(PM10),62,73,60,41,36,97,,138,127,22,29,11,10,0.8,0.8
2024-09-26T2000,1291A,115.8886,28.7003,南昌市,省林业公司,细颗粒物(PM2.5),58,63,63,41,32,99,,150,137,23,29,10,8,0.8,0.8
2024-09-26T2000,1292A,115.8126,28.7442,南昌市,林科所,颗粒物(PM10),51,51,45,24,25,91,,163,146,46,25,5,6,0.3,0.5
2024-09-26T2000,1294A,115.8518,28.687,南昌市,建工学校,颗粒物(PM10),59,68,59,33,30,99,,144,134,23,28,11,9,0.7,0.7
2024-09-26T2000,1295A,115.8921,28.6424,南昌市,象湖,细颗粒物(PM2.5),57,50,51,40,32,87,,159,143,36,27,13,9,1.0,0.9
2024-09-26T2000,1296A,115.7423,28.7996,南昌市,武术学校,,42,42,27,22,23,65,,123,100,12,18,2,3,0.6,0.5
2024-09-26T2000,1298A,115.9314,28.6842,南昌市,省站,细颗粒物(PM2.5),54,53,50,38,35,91,,136,123,22,31,11,11,0.8,0.7
2024-09-26T2000,3046A,115.9084,28.6062,南昌市,机电学校,颗粒物(PM10),64,77,69,41,34,88,,149,135,20,31,12,10,0.8,0.8
2024-09-26T2000,3690A,115.9721,28.7031,南昌市,外国语学校,,48,48,55,20,29,117,,141,133,13,21,6,8,0.7,0.7
2024-09-26T2000,1905A,106.056,30.8064,南充市,西山风景区,细颗粒物(PM2.5),54,45,53,38,50,159,,163,163,8,9,1,4,0.6,0.8
2024-09-26T2000,1906A,106.0789,30.8023,南充市,南充市委,细颗粒物(PM2.5),62,62,73,44,59,144,,162,162,22,17,3,5,0.6,0.6
2024-09-26T2000,1907A,106.1031,30.8217,南充市,南充炼油厂,细颗粒物(PM2.5),68,64,77,49,58,133,,176,176,33,17,3,5,0.6,0.5
2024-09-26T2000,1908A,106.1064,30.7856,南充市,高坪区监测站,细颗粒物(PM2.5),67,62,77,48,55,127,,167,167,38,21,6,9,0.6,0.6
2024-09-26T2000,1909A,106.0642,30.7636,南充市,嘉陵区环保局,细颗粒物(PM2.5),62,69,73,44,54,109,,150,150,45,18,3,4,0.8,0.7
2024-09-26T2000,1910A,106.1087,30.8388,南充市,市环境监测站,细颗粒物(PM2.5),60,64,77,43,53,132,,169,169,35,23,4,6,0.6,0.5
2024-09-26T2000,1151A,118.8086,32.1065,南京市,迈皋桥,,32,32,31,19,20,34,,59,53,25,24,4,4,0.4,0.4
2024-09-26T2000,1152A,118.7538,32.0551,南京市,草场门,,35,29,40,24,22,21,,55,48,51,38,5,6,0.5,0.4
2024-09-26T2000,1153A,118.7794,32.0745,南京市,山西路,,41,41,47,19,25,53,,65,65,38,34,5,4,0.6,0.5
2024-09-26T2000,1154A,118.7752,32.0023,南京市,中华门,,32,29,40,22,25,12,,52,43,57,37,4,5,0.6,0.6
2024-09-26T2000,1155A,118.8109,32.0309,南京市,瑞金路,,31,31,41,17,25,24,,55,42,44,25,5,8,0.5,0.4
2024-09-26T2000,1156A,118.7997,32.0754,南京市,玄武湖,,38,38,42,22,20,23,,48,45,54,51,6,6,0.3,0.3
2024-09-26T2000,1157A,118.6414,32.0931,南京市,浦口,,25,23,33,17,21,28,,50,42,25,24,4,5,0.8,0.7
2024-09-26T2000,1158A,118.7356,31.9996,南京市,奥体中心,,35,24,44,24,34,36,,61,56,35,32,5,6,0.7,0.6
2024-09-26T2000,1159A,118.9125,32.1028,南京市,仙林大学城,,36,36,42,12,21,59,,58,56,33,34,6,7,0.5,0.6
2024-09-26T2000,3422A,118.8436,31.9198,南京市,江宁彩虹桥,,20,20,43,14,26,32,,55,53,35,30,4,4,0.6,0.7
2024-09-26T2000,3423A,119.0138,31.6494,南京市,溧水永阳,,23,19,36,16,24,48,,59,56,21,30,3,4,0.7,0.8
2024-09-26T2000,3424A,118.879,31.3302,南京市,高淳老职中,,23,18,34,16,35,57,,99,88,20,21,4,7,0.7,0.9
2024-09-26T2000,3427A,118.8554,32.3578,南京市,六合雄州,,33,33,38,17,20,90,,94,94,11,16,8,7,0.4,0.4
2024-09-26T2000,1401A,108.3103,22.7881,南宁市,二十一中,,41,41,42,26,31,70,,103,101,16,16,4,5,1.0,1
2024-09-26T2000,1402A,108.3141,22.8528,南宁市,北湖,,46,46,47,28,40,63,,101,97,19,22,9,5,0.9,0.9
2024-09-26T2000,1403A,108.3206,22.8225,南宁市,市监测站,,45,45,43,27,33,49,,100,94,33,20,10,6,0.8,1
2024-09-26T2000,1404A,108.3829,22.8037,南宁市,大自然花园,,38,33,40,26,33,58,,101,98,19,17,5,5,0.7,0.8
2024-09-26T2000,1405A,108.4394,22.7904,南宁市,仙葫,,36,30,38,25,31,68,,101,97,12,15,7,7,1.0,1
2024-09-26T2000,1406A,108.2397,22.8467,南宁市,区农职院,,47,47,53,27,39,54,,98,96,23,21,7,11,1.0,1
2024-09-26T2000,1407A,108.3275,22.735,南宁市,英华嘉园,,40,40,42,25,32,63,,94,91,25,17,5,5,0.8,1
2024-09-26T2000,1408A,108.2257,22.7757,南宁市,沙井镇街道办,颗粒物(PM10),55,59,60,24,37,36,,88,87,57,35,2,2,0.8,0.8
2024-09-26T2000,3401A,108.4834,22.7618,南宁市,红星社区,,,41,37,,29,60,,98,94,14,15,9,8,0.8,0.9
2024-09-26T2000,2332A,118.1681,26.6369,南平市,南平市监测站,,,,16,12,9,43,,55,54,8,13,,5,0.5,0.5
2024-09-26T2000,2333A,118.1825,26.6489,南平市,南平铝业有限公司,,16,12,18,3,8,49,,58,58,5,12,4,4,0.6,0.6
2024-09-26T2000,2334A,118.1756,26.6272,南平市,南平七中,,14,,21,8,9,42,,55,54,9,13,9,3,0.8,0.8
2024-09-26T2000,1168A,120.9098,31.9663,南通市,狼山街道,,26,12,9,3,5,83,,88,88,10,11,6,6,0.5,0.5
2024-09-26T2000,1169A,120.86,32.0005,南通市,虹桥,,26,16,15,7,6,81,,82,82,10,12,6,6,0.5,0.6
2024-09-26T2000,1170A,120.87,32.02,南通市,城中,,24,19,17,9,6,75,,82,81,13,15,6,6,0.6,0.7
2024-09-26T2000,1171A,120.94,31.93,南通市,星湖花园,,27,6,9,3,4,85,,88,88,13,17,5,5,0.3,0.4
2024-09-26T2000,1172A,120.81,32.0417,南通市,紫琅学院,,25,9,9,3,5,78,,84,83,15,18,7,7,0.3,0.5
2024-09-26T2000,3291A,121.067,32.062,南通市,通州监测站,,30,12,10,3,4,93,,95,95,9,9,3,3,0.5,0.7
2024-09-26T2000,3432A,120.9348,31.9883,南通市,环境教育馆,,26,17,18,3,5,81,,88,88,16,19,3,3,0.5,0.5
2024-09-26T2000,2404A,112.5224,33.0122,南阳市,瓦房庄,颗粒物(PM10),71,91,92,36,41,166,,198,194,17,19,5,6,0.6,0.6
2024-09-26T2000,2405A,112.5003,32.9735,南阳市,汉画馆,颗粒物(PM10),73,96,87,33,44,166,,193,191,19,20,7,7,0.6,0.5
2024-09-26T2000,2406A,112.5573,33.027,南阳市,气象站,颗粒物(PM10),76,101,100,29,31,159,,197,193,21,23,7,12,0.6,0.7
2024-09-26T2000,2407A,112.5481,32.9689,南阳市,理工学院,颗粒物(PM10),72,93,86,32,37,158,,192,188,20,19,7,9,0.6,0.6
2024-09-26T2000,4008A,112.5234,32.9922,南阳市,卧龙区政府,颗粒物(PM10),74,98,93,34,38,158,,193,189,22,20,5,6,0.7,0.7
2024-09-26T2000,1234A,121.8358,29.911,宁波市,区环保大楼,,32,18,42,9,23,25,,77,61,63,49,7,6,0.6,0.7
2024-09-26T2000,1235A,121.56,29.82,宁波市,万里学院,,25,25,36,10,37,54,,108,99,37,36,6,7,0.6,0.8
2024-09-26T2000,1236A,121.713,29.9572,宁波市,龙赛医院,,24,24,40,7,26,49,,95,87,45,39,9,8,0.5,0.8
2024-09-26T2000,1239A,121.633,29.7733,宁波市,钱湖水厂,,13,13,39,6,26,38,,89,76,22,26,8,8,0.6,0.8
2024-09-26T2000,1240A,121.5856,29.8635,宁波市,太古小学,,24,12,41,8,26,75,,103,98,25,32,7,8,0.7,1
2024-09-26T2000,1241A,121.524,29.8674,宁波市,市环境监测中心,,24,21,34,9,22,74,,108,103,24,39,5,11,0.6,0.8
2024-09-26T2000,2871A,121.6147,29.9017,宁波市,万里国际学校,,21,11,31,10,28,66,,106,100,36,30,8,8,0.5,0.7
2024-09-26T2000,3710A,121.5594,29.8975,宁波市,白沙活动中心,,21,11,62,7,21,66,,104,99,36,30,8,9,0.4,0.6
2024-09-26T2000,2341A,119.5388,26.6612,宁德市,宁德市监测站,,18,18,13,9,9,44,,60,60,13,16,6,6,0.5,0.7
2024-09-26T2000,3209A,119.5231,26.6562,宁德市,宁德一中,,16,16,16,3,8,43,,64,63,4,7,5,5,0.4,0.5
2024-09-26T2000,2618A,98.8601,25.8567,怒江傈僳族自治州,州监测站,,38,36,27,26,19,36,,53,52,16,10,5,6,0.6,0.5
2024-09-26T2000,2619A,98.8546,25.8417,怒江傈僳族自治州,泸水一中,,31,31,23,19,17,34,,51,50,16,14,6,6,0.5,0.4
2024-09-26T2000,1888A,101.6891,26.571,攀枝花市,弄弄坪,颗粒物(PM10),56,62,36,36,19,43,,70,68,43,22,9,10,0.7,0.8
2024-09-26T2000,1889A,101.5769,26.5928,攀枝花市,河门口,,42,42,29,28,20,46,,68,62,36,21,21,13,1.5,1.2
2024-09-26T2000,1890A,101.7169,26.585,攀枝花市,炳草岗,细颗粒物(PM2.5),77,70,35,56,24,40,,66,63,56,28,13,10,1.2,0.9
2024-09-26T2000,1891A,101.7369,26.5008,攀枝花市,仁和,细颗粒物(PM2.5),54,44,28,38,22,38,,78,72,19,14,5,5,0.7,0.5
2024-09-26T2000,2835A,101.7227,26.567,攀枝花市,四十中小,,35,28,26,24,18,52,,66,66,32,20,6,8,0.9,1
2024-09-26T2000,1604A,122.0303,41.1489,盘锦市,开发区,,42,42,34,17,31,69,,104,98,32,28,30,20,0.3,0.4
2024-09-26T2000,1605A,122.0485,41.0883,盘锦市,兴隆台,,36,36,28,14,21,62,,101,94,52,33,5,7,0.4,0.4
2024-09-26T2000,1606A,121.8297,41.1028,盘锦市,新生街道,,22,22,25,15,21,54,,114,101,34,29,9,9,0.4,0.5
2024-09-26T2000,1832A,113.3257,33.742,平顶山市,新华旅馆,颗粒物(PM10),85,120,116,52,50,139,,179,175,28,41,6,8,0.5,0.7
2024-09-26T2000,1833A,113.2919,33.737,平顶山市,规划设计院,颗粒物(PM10),71,92,105,50,52,153,,188,184,25,43,7,8,0.7,0.6
2024-09-26T2000,1834A,113.182,33.774,平顶山市,平顶山工学院,,,88,103,48,56,151,,193,191,,32,,10,0.5,0.6
2024-09-26T2000,3204A,113.3025,33.73,平顶山市,规划局,颗粒物(PM10),81,112,123,25,55,149,,184,180,24,38,6,6,0.8,0.8
2024-09-26T2000,3594A,112.8867,33.9116,平顶山市,石龙区,颗粒物(PM10),89,128,173,52,54,143,,195,191,31,72,10,17,0.6,0.9
2024-09-26T2000,2656A,106.6692,35.5461,平凉市,聚贤嘉苑,,39,39,29,15,11,116,,112,112,26,29,12,9,0.3,0.3
2024-09-26T2000,2657A,106.7021,35.5307,平凉市,博物馆,,40,40,42,12,13,122,,117,117,18,22,9,9,0.4,0.2
2024-09-26T2000,2347A,114.0997,27.5002,萍乡市,武功山,,35,35,32,15,9,52,,90,84,6,5,8,9,0.5,0.5
2024-09-26T2000,2348A,113.8385,27.6434,萍乡市,中医院,颗粒物(PM10),68,85,60,44,35,88,,128,125,24,18,9,15,1.0,1
2024-09-26T2000,2349A,113.8493,27.6253,萍乡市,市政府车库,细颗粒物(PM2.5),74,60,46,54,38,80,,124,122,20,14,10,13,0.9,0.8
2024-09-26T2000,2350A,113.8676,27.6435,萍乡市,市环保局,细颗粒物(PM2.5),64,70,57,46,38,100,,118,117,13,15,7,10,0.7,0.8
2024-09-26T2000,2351A,113.866,27.6198,萍乡市,安源区政府,颗粒物(PM10),66,81,48,42,27,94,,126,126,24,17,6,7,0.6,0.5
2024-09-26T2000,2319A,119.0141,25.4325,莆田市,荔城区仓后路,,26,24,20,7,7,82,,86,84,12,14,7,8,0.7,0.6
2024-09-26T2000,2320A,119.0015,25.4553,莆田市,莆田市监测站,,24,16,18,9,4,76,,85,83,9,8,7,6,0.6,0.6
2024-09-26T2000,2321A,119.1119,25.4561,莆田市,涵江区六中,,25,20,18,3,9,80,,86,84,9,13,8,8,0.6,0.7
2024-09-26T2000,2322A,119.1013,25.3215,莆田市,秀屿区政府,,26,13,17,3,4,81,,90,86,7,9,7,8,0.6,0.7
2024-09-26T2000,2392A,115.0312,35.7636,濮阳市,环保局,细颗粒物(PM2.5),128,103,118,97,109,176,,188,188,34,33,17,14,0.9,0.7
2024-09-26T2000,2394A,115.0574,35.7609,濮阳市,油田运输公司,细颗粒物(PM2.5),120,138,152,91,103,170,,194,194,31,33,13,10,0.9,0.7
2024-09-26T2000,2395A,115.0866,35.7754,濮阳市,油田物探公司,细颗粒物(PM2.5),135,172,173,103,114,162,,196,194,33,35,12,8,0.8,0.7
2024-09-26T2000,3021A,115,35.7668,濮阳市,濮水河管理处,细颗粒物(PM2.5),127,127,140,96,112,162,,165,165,27,30,13,9,0.7,0.6
2024-09-26T2000,2601A,100.98,22.7633,普洱市,市环保局,,28,28,29,15,16,45,,67,64,7,6,4,4,0.5,0.5
2024-09-26T2000,2602A,100.9817,22.8322,普洱市,普洱第二中学,,33,33,33,23,15,47,,74,69,9,9,8,9,0.5,0.6
2024-09-26T2000,2262A,131.0518,45.8751,七台河市,新一中,,17,11,9,8,6,54,,75,68,8,6,8,8,1.1,1.1
2024-09-26T2000,3345A,131.0577,45.7879,七台河市,中波台,,19,14,7,3,5,19,,72,52,38,15,6,6,0.4,0.3
2024-09-26T2000,3637A,131.0176,45.7761,七台河市,人民广场,,38,38,11,20,9,7,,65,52,39,15,8,8,0.5,0.3
2024-09-26T2000,3684A,130.8781,45.8222,七台河市,新建矿广场,,39,,21,27,14,25,,58,48,22,14,7,5,0.5,0.4
2024-09-26T2000,1779A,123.9305,47.3636,齐齐哈尔市,安居小区,,29,29,43,12,23,67,,85,77,25,32,10,10,0.5,0.6
2024-09-26T2000,1780A,123.9488,47.3386,齐齐哈尔市,中心广场,,39,39,42,13,10,65,,85,78,25,32,2,2,0.4,0.5
2024-09-26T2000,1781A,123.9483,47.3227,齐齐哈尔市,农牧车辆厂,,29,29,44,7,13,77,,86,83,12,25,8,8,0.2,0.3
2024-09-26T2000,1783A,123.945,47.2988,齐齐哈尔市,市环境监测站,,30,30,36,14,23,80,,92,90,10,23,8,8,0.3,0.4
2024-09-26T2000,3662A,123.6333,47.2075,齐齐哈尔市,富区青少年活动中心,,29,29,45,3,18,66,,80,78,10,17,5,6,0.4,0.6
2024-09-26T2000,2591A,107.9783,26.5747,黔东南苗族侗族自治州,市环境监测站,,43,40,38,30,29,75,,121,116,42,28,5,4,0.6,0.5
2024-09-26T2000,2881A,107.8908,26.5311,黔东南苗族侗族自治州,凯里学院,,43,39,29,30,22,97,,139,136,16,18,4,3,0.8,0.8
2024-09-26T2000,2593A,107.5228,26.2403,黔南布依族苗族自治州,小围寨,细颗粒物(PM2.5),67,48,28,48,22,102,,138,136,10,14,6,5,0.7,0.6
2024-09-26T2000,3538A,107.5175,26.2978,黔南布依族苗族自治州,沙坝,,39,39,31,22,20,91,,126,123,15,13,4,4,0.6,0.6
2024-09-26T2000,2589A,104.9022,25.0925,黔西南布依族苗族自治州,场坝街,细颗粒物(PM2.5),58,63,38,41,25,96,,99,99,12,10,4,5,0.4,0.4
2024-09-26T2000,2590A,104.8811,25.0992,黔西南布依族苗族自治州,坪东大道,细颗粒物(PM2.5),54,38,37,38,28,91,,96,95,7,13,8,8,0.4,0.4
2024-09-26T2000,2502A,108.6236,21.9667,钦州市,市环保站,颗粒物(PM10),62,73,64,41,33,100,,112,112,31,26,16,9,1.3,0.9
2024-09-26T2000,2503A,108.6549,21.9481,钦州市,沙埠小学,颗粒物(PM10),64,78,73,44,39,112,,121,121,27,31,13,7,1.4,1.2
2024-09-26T2000,2504A,108.5989,21.7431,钦州市,港区一小,颗粒物(PM10),57,63,88,29,40,87,,147,145,30,34,11,9,1.0,1
2024-09-26T2000,3404A,108.5959,21.9633,钦州市,北职校,颗粒物(PM10),78,105,69,45,44,91,,112,111,32,25,14,7,1.4,1.1
2024-09-26T2000,1042A,119.5134,39.8207,秦皇岛市,北戴河环保局,,32,23,21,9,7,100,,98,98,9,27,2,2,0.3,0.3
2024-09-26T2000,1043A,119.7493,40.0116,秦皇岛市,第一关,颗粒物(PM10),52,54,32,27,21,0,,94,82,97,49,3,3,0.5,0.3
2024-09-26T2000,1044A,119.5897,39.9499,秦皇岛市,监测站,,32,28,25,22,18,68,,92,90,28,24,3,3,0.5,0.3
2024-09-26T2000,1046A,119.5251,39.9041,秦皇岛市,建设大厦,,31,31,30,13,10,82,,98,96,19,23,3,2,0.3,0.3
2024-09-26T2000,3132A,119.610547,39.943889,秦皇岛市,文明里,,36,36,28,8,8,80,,98,98,26,22,2,2,0.5,0.4
2024-09-26T2000,1307A,120.6659,36.2403,青岛市,仰口,,31,27,42,13,29,97,,142,128,7,9,7,8,0.5,0.6
2024-09-26T2000,1310A,120.4134,36.0658,青岛市,市南区东部子站,臭氧1小时,84,51,74,27,32,187,,207,207,14,35,6,8,0.6,0.7
2024-09-26T2000,1311A,120.3664,36.1032,青岛市,四方区子站,,,,76,,41,187,,196,194,24,42,10,11,0.6,0.8
2024-09-26T2000,1312A,120.2994,36.054,青岛市,市南区西部子站,"颗粒物(PM10),臭氧1小时",54,58,66,29,28,163,,194,192,16,20,9,10,0.7,0.8
2024-09-26T2000,1313A,120.4581,36.0858,青岛市,崂山区子站,臭氧1小时,59,56,64,31,32,167,,213,209,30,32,9,10,0.7,0.7
2024-09-26T2000,1314A,120.1983,35.9608,青岛市,黄岛区子站,,47,44,70,27,37,150,,188,183,18,32,9,11,0.5,0.6
2024-09-26T2000,1315A,120.3999,36.3083,青岛市,城阳区子站,,41,41,63,15,33,94,,155,133,32,33,9,10,0.6,0.7
2024-09-26T2000,1966A,120.0405,35.8735,青岛市,黄岛区4号,"颗粒物(PM10),臭氧1小时",63,75,76,41,42,170,,219,215,26,28,7,9,0.7,0.7
2024-09-26T2000,3362A,120.5014,36.4034,青岛市,即墨2号,,46,46,65,11,29,85,,140,117,19,23,7,9,0.4,0.6
2024-09-26T2000,3642A,120.3503,36.0736,青岛市,市北区南部,臭氧1小时,58,56,58,29,34,166,,197,194,21,35,7,10,0.6,0.6
2024-09-26T2000,3643A,120.3948,36.1805,青岛市,李沧区北部,,41,41,82,19,43,102,,184,169,35,45,10,10,0.7,0.8
2024-09-26T2000,1702A,113.0426,23.691,清远市,环保大楼,,50,50,38,15,17,34,,78,72,33,16,6,6,1.2,1
2024-09-26T2000,1703A,113.0208,23.7106,清远市,凤城街办,,28,28,24,16,15,20,,76,66,33,14,6,7,1.2,0.9
2024-09-26T2000,3025A,113.0477,23.6344,清远市,技师学院,,20,20,34,11,18,50,,86,81,17,21,8,7,0.8,0.9
2024-09-26T2000,3318A,112.9903,23.7403,清远市,清新太和,,,16,22,9,12,48,,65,61,,10,,2,0.7,0.7
2024-09-26T2000,3455A,113.076,23.7198,清远市,清城东城,,36,36,27,21,14,36,,83,77,13,7,3,2,0.8,0.8
2024-09-26T2000,2661A,107.6325,35.7357,庆阳市,庆阳五中,细颗粒物(PM2.5),63,69,65,45,36,162,,148,126,13,11,7,8,0.6,0.5
2024-09-26T2000,2662A,107.6364,35.7067,庆阳市,市环保局,"颗粒物(PM10),臭氧1小时",58,66,59,40,34,166,,145,126,13,12,8,7,0.5,0.5
2024-09-26T2000,1916A,103.7897,25.5035,曲靖市,环境监测站,颗粒物(PM10),54,58,44,19,23,97,,113,113,16,12,10,6,0.8,0.8
2024-09-26T2000,1917A,103.8,25.5364,曲靖市,烟厂办公区,颗粒物(PM10),52,53,44,26,22,104,,115,115,13,10,4,4,0.4,0.5
2024-09-26T2000,3376A,103.7947,25.462,曲靖市,南苑二区,,47,47,41,24,27,101,,115,115,15,11,10,12,0.4,0.5
2024-09-26T2000,3377A,103.7444,25.5261,曲靖市,曲靖师范学院,颗粒物(PM10),52,53,34,28,24,112,,121,121,12,10,7,9,0.6,0.6
2024-09-26T2000,1264A,118.8692,28.9398,衢州市,环保大楼,细颗粒物(PM2.5),62,58,48,44,33,93,,136,125,25,23,3,3,0.8,0.7
2024-09-26T2000,1265A,118.8709,28.9666,衢州市,实验学校,细颗粒物(PM2.5),62,53,50,44,39,83,,135,120,22,20,5,6,0.8,0.8
2024-09-26T2000,1266A,118.8621,28.9808,衢州市,衢州学院,颗粒物(PM10),55,60,55,37,31,92,,135,118,24,23,7,8,0.8,0.7
2024-09-26T2000,1611A,118.5819,24.9117,泉州市,涂山街,,26,18,17,10,11,82,,106,96,9,11,2,2,0.6,0.7
2024-09-26T2000,1612A,118.5972,24.8978,泉州市,津头埔,,27,22,18,8,11,84,,102,92,8,11,3,4,0.6,0.7
2024-09-26T2000,1613A,118.6663,24.9424,泉州市,万安,,27,19,18,7,10,86,,104,93,7,11,4,3,0.6,0.7
2024-09-26T2000,3529A,118.6333,24.9264,泉州市,城华南路,,25,13,13,7,12,78,,102,91,10,9,4,3,0.3,0.4
2024-09-26T2000,2626A,88.8876,29.2718,日喀则市,日喀则监测站,,25,12,6,6,3,79,,98,95,9,5,5,5,0.4,0.3
2024-09-26T2000,3726A,88.8781,29.2426,日喀则市,林业技术推广中心,,26,7,6,3,1,81,,96,94,6,7,6,6,0.5,0.4
2024-09-26T2000,1659A,119.471,35.4209,日照市,监测站,细颗粒物(PM2.5),57,56,52,40,34,129,,212,202,48,41,10,11,0.8,0.7
2024-09-26T2000,1660A,119.523,35.4216,日照市,市政府广场,臭氧1小时,101,51,52,39,32,201,,231,231,16,19,11,12,0.6,0.6
2024-09-26T2000,1661A,119.5587,35.4044,日照市,港务局,臭氧1小时,100,48,46,35,32,200,,231,230,11,13,7,8,0.4,0.4
2024-09-26T2000,3507A,119.5328,35.4625,日照市,职业技术学院,,,63,53,39,30,174,,223,220,22,17,,10,0.7,0.7
2024-09-26T2000,3604A,119.3266,35.1044,日照市,岚山环保分局,臭氧1小时,85,61,51,37,30,188,,213,213,27,27,12,21,0.7,1.3
2024-09-26T2000,1835A,111.1922,34.7752,三门峡市,市政府,臭氧1小时,90,78,101,44,62,192,,204,204,19,20,12,16,0.9,1
2024-09-26T2000,1836A,111.1587,34.7942,三门峡市,开发区,臭氧1小时,78,104,126,44,67,182,,190,190,19,19,11,14,0.6,0.7
2024-09-26T2000,1838A,111.143,34.7955,三门峡市,风景区,臭氧1小时,101,72,103,42,53,201,,209,209,18,18,11,14,0.9,1
2024-09-26T2000,3039A,111.1911,34.7829,三门峡市,三门峡市第一小学,臭氧1小时,82,73,102,42,61,185,,197,197,18,18,10,13,0.8,0.9
2024-09-26T2000,3598A,111.1,34.7167,三门峡市,富达温泉假日酒店,臭氧1小时,92,116,126,53,70,193,,196,196,24,24,15,18,0.9,1
2024-09-26T2000,2324A,117.6211,26.2625,三明市,三钢,,30,30,22,11,13,7,,49,44,29,14,6,9,0.7,0.8
2024-09-26T2000,2325A,117.635,26.2714,三明市,三明二中,,20,20,22,14,12,18,,52,47,24,13,4,5,1.2,1
2024-09-26T2000,2326A,117.6028,26.2378,三明市,三元区政府,,,,25,,16,12,,53,47,20,15,,4,,0.7
2024-09-26T2000,1876A,109.5078,18.2489,三亚市,河东子站,,19,13,12,3,6,59,,73,67,5,8,4,4,0.2,0.3
2024-09-26T2000,1877A,109.4964,18.2681,三亚市,河西子站,,20,6,11,3,5,61,,72,68,3,8,3,4,0.3,0.4
