timepoint,stationcode,longitude,latitude,area,positionname,primarypollutant,aqi,pm10,pm10_24h,pm2_5,pm2_5_24h,o3,o3_24h,o3_8h,o3_8h_24h,no2,no2_24h,so2,so2_24h,co,co_24h
2024-09-26T1800,2566A,102.1879,31.914,阿坝藏族羌族自治州,州农科所,,17,10,21,3,11,46,,53,53,33,15,10,8,0,0
2024-09-26T1800,2568A,102.2502,31.8896,阿坝藏族羌族自治州,马师校,,25,15,20,15,12,77,,65,65,3,8,4,4,0.2,0.3
2024-09-26T1800,3994A,102.2165,31.9024,阿坝藏族羌族自治州,马尔康中学西区,,,15,22,13,18,71,,58,58,5,8,,6,0.3,0.4
2024-09-26T1800,2695A,80.292,41.1694,阿克苏地区,电视台,颗粒物(PM10),100,149,179,40,56,127,,94,94,7,33,7,3,0.3,0.7
2024-09-26T1800,2696A,80.2613,41.1551,阿克苏地区,艺术中心,颗粒物(PM10),95,140,157,38,53,122,,89,89,2,34,3,4,0.4,1
2024-09-26T1800,2204A,105.6467,38.8363,阿拉善盟,西城区西花园,,42,41,64,29,27,126,,127,127,8,13,10,10,0.7,0.7
2024-09-26T1800,2205A,105.6985,38.8411,阿拉善盟,蒙二幼,,45,45,65,18,21,112,,113,113,10,10,6,7,0.4,0.5
2024-09-26T1800,2206A,105.724,38.8516,阿拉善盟,环保局新楼,,42,42,58,17,19,107,,112,112,8,8,9,10,0.4,0.5
2024-09-26T1800,2708A,88.1264,47.8517,阿勒泰地区,市站,,27,27,34,3,7,66,,64,64,15,17,8,8,0.4,0.5
2024-09-26T1800,2630A,80.1161,32.5,阿里地区,阿里监测站,,34,7,13,3,6,108,,93,93,4,14,8,8,0.3,0.4
2024-09-26T1800,3192A,80.0903,32.5028,阿里地区,阿里藏医院,,34,8,15,3,5,106,,93,93,4,10,6,6,0.2,0.3
2024-09-26T1800,2642A,109.0318,32.6537,安康市,香溪洞,颗粒物(PM10),266,396,106,27,24,142,,144,144,11,13,8,10,0.3,0.4
2024-09-26T1800,2643A,109.0281,32.6939,安康市,安康市监测站,,50,50,44,26,26,130,,139,139,12,18,11,16,0.7,0.7
2024-09-26T1800,2291A,117.0809,30.5177,安庆市,环科院,臭氧1小时,67,69,54,42,38,173,,166,166,17,17,10,10,1.0,0.9
2024-09-26T1800,2292A,117.0331,30.5119,安庆市,马山宾馆,臭氧1小时,68,60,53,44,39,174,,169,169,17,18,11,12,0.9,0.8
2024-09-26T1800,2294A,116.9896,30.6145,安庆市,安庆大学,细颗粒物(PM2.5),65,70,54,47,38,168,,158,158,13,13,10,9,0.7,0.5
2024-09-26T1800,3173A,117.0598,30.5351,安庆市,市人大,细颗粒物(PM2.5),63,64,53,45,39,166,,164,164,16,17,10,11,0.9,0.8
2024-09-26T1800,3123A,105.9408,26.2431,安顺市,凤凰山,,40,36,55,28,43,128,,127,127,8,10,6,8,0.5,0.6
2024-09-26T1800,3124A,105.9439,26.2564,安顺市,金钟山,,41,35,52,26,41,130,,127,127,7,8,7,9,0.6,0.7
2024-09-26T1800,3125A,105.8983,26.2481,安顺市,娄家坡,,41,30,39,25,32,130,,124,124,8,8,6,7,0.5,0.6
2024-09-26T1800,1819A,114.3551,36.1017,安阳市,红庙街,臭氧1小时,105,88,120,50,83,210,,205,205,15,28,10,12,0.5,0.9
2024-09-26T1800,1820A,114.361,36.0681,安阳市,银杏小区,臭氧1小时,104,109,114,33,54,207,,200,200,16,20,9,9,0.6,0.9
2024-09-26T1800,3141A,114.3922,36.0878,安阳市,信访局,臭氧1小时,105,88,130,42,65,210,,207,207,23,30,9,9,0.7,1
2024-09-26T1800,3669A,114.4705,36.0637,安阳市,左辅环卫站,颗粒物(PM10),105,159,173,49,90,192,,197,197,25,28,9,10,0.7,0.8
2024-09-26T1800,3703A,114.2917,36.0949,安阳市,安钢职工学校,臭氧1小时,101,89,125,46,92,201,,194,194,18,30,11,17,0.7,1.4
2024-09-26T1800,1748A,123.044,41.1196,鞍山市,深沟寺,,24,21,42,8,26,75,,86,86,20,27,4,5,0.5,0.8
2024-09-26T1800,1749A,123.011,41.0931,鞍山市,太阳城,,29,15,40,10,26,91,,91,91,18,25,6,7,0.4,0.6
2024-09-26T1800,1750A,123.0485,41.1442,鞍山市,太平,,25,24,56,12,35,80,,89,89,39,35,8,8,0.7,0.9
2024-09-26T1800,1751A,122.9642,41.0971,鞍山市,铁西三道街,,25,24,66,9,42,80,,86,86,36,37,12,8,1.0,1.1
2024-09-26T1800,1752A,122.9341,41.0833,鞍山市,铁西工业园区,,29,27,63,12,38,92,,88,88,29,39,8,14,0.5,1.4
2024-09-26T1800,1753A,123.022,41.0821,鞍山市,明达新区,,26,15,37,9,26,83,,85,85,20,26,5,6,0.4,0.6
2024-09-26T1800,2195A,107.4212,40.761,巴彦淖尔市,附二中,颗粒物(PM10),57,64,45,15,19,122,,118,118,12,16,8,10,0.7,0.5
2024-09-26T1800,2196A,107.37,40.7372,巴彦淖尔市,市环保大楼,,36,36,36,7,15,104,,111,111,13,14,4,5,0.4,0.4
2024-09-26T1800,1956A,86.1472,41.7538,巴音郭楞蒙古自治州,孔雀公园,颗粒物(PM10),98,145,96,38,25,104,,78,78,5,44,8,11,0.2,0.7
2024-09-26T1800,1957A,86.1972,41.7166,巴音郭楞蒙古自治州,棉纺厂,颗粒物(PM10),99,147,92,38,27,112,,91,91,9,29,6,7,0.2,0.3
2024-09-26T1800,1958A,86.2357,41.7173,巴音郭楞蒙古自治州,经济开发区,颗粒物(PM10),102,154,113,39,30,108,,98,98,7,15,8,8,0.3,0.3
2024-09-26T1800,2914A,106.7677,31.8794,巴中市,苏山坪,细颗粒物(PM2.5),57,53,46,40,34,147,,134,134,8,11,4,4,0.5,0.5
2024-09-26T1800,3182A,106.7656,31.8545,巴中市,丽阳花园,细颗粒物(PM2.5),62,54,53,44,41,148,,130,130,14,25,6,6,0.7,0.7
2024-09-26T1800,3183A,106.7418,31.8654,巴中市,圣泉水务公司,细颗粒物(PM2.5),63,57,47,45,37,154,,137,137,10,23,4,4,0.7,0.7
2024-09-26T1800,3616A,106.7616,31.8344,巴中市,市中心医院,细颗粒物(PM2.5),60,56,57,43,42,148,,129,129,11,28,6,5,0.6,0.7
2024-09-26T1800,2235A,122.7911,45.6077,白城市,洮北区环保局,,26,26,24,10,16,67,,90,89,20,16,6,6,0.3,0.4
2024-09-26T1800,2236A,122.8738,45.5725,白城市,市环保局,,21,12,31,8,12,66,,84,84,16,30,5,5,0.2,0.3
2024-09-26T1800,2231A,126.4219,41.9171,白山市,喜丰,,37,37,21,3,7,62,,93,91,20,13,6,6,0.5,0.6
2024-09-26T1800,2232A,126.4077,41.9419,白山市,环保局,,26,26,23,3,8,63,,79,77,10,11,6,8,0.7,0.7
2024-09-26T1800,2647A,104.1724,36.5446,白银市,第三小学,,33,28,24,14,13,105,,93,93,11,19,6,14,0.6,0.9
2024-09-26T1800,2648A,104.1465,36.5482,白银市,动力公司,,37,37,21,6,11,110,,95,95,8,15,6,10,0.3,0.6
2024-09-26T1800,2512A,106.6103,23.9011,百色市,市监测站,颗粒物(PM10),56,62,58,36,36,156,,143,143,13,16,21,12,0.7,0.7
2024-09-26T1800,2513A,106.6538,23.8859,百色市,市中心血站,颗粒物(PM10),63,75,69,43,44,150,,125,125,15,21,17,16,0.7,0.7
2024-09-26T1800,3406A,106.6085,23.8798,百色市,祈福高中,颗粒物(PM10),66,82,76,34,37,144,,140,140,20,29,15,11,0.8,0.8
2024-09-26T1800,2270A,117.396,32.939,蚌埠市,工人疗养院,,40,34,57,10,24,126,,106,106,5,20,5,6,0.3,0.4
2024-09-26T1800,2271A,117.3605,32.9427,蚌埠市,百货大楼,,37,37,50,14,18,118,,101,101,7,19,6,7,0.4,0.4
2024-09-26T1800,2273A,117.4185,32.8911,蚌埠市,蚌埠学院,,41,41,51,17,28,111,,101,101,18,37,7,10,0.4,0.4
2024-09-26T1800,2274A,117.3533,32.9673,蚌埠市,淮上区政府,,40,39,51,20,27,126,,102,102,8,24,7,6,0.3,0.4
2024-09-26T1800,2275A,117.3145,32.8977,蚌埠市,高新区,,35,29,46,12,24,112,,96,96,14,32,7,9,0.4,0.4
2024-09-26T1800,3715A,117.3092,32.9314,蚌埠市,蚌埠田家炳中学,,43,43,61,13,26,114,,98,98,13,33,6,6,0.3,0.4
2024-09-26T1800,1585A,109.8756,40.6532,包头市,市环境监测站,,36,36,44,17,19,102,,111,111,39,47,7,12,0.7,0.8
2024-09-26T1800,1587A,109.9991,40.5842,包头市,包头八中,,40,40,59,6,24,108,,109,109,25,47,3,11,0.5,1
2024-09-26T1800,1588A,109.8538,40.6821,包头市,青山宾馆,,38,38,37,12,17,116,,113,113,26,45,8,11,0.7,0.8
2024-09-26T1800,1589A,109.8642,40.6288,包头市,惠龙物流,颗粒物(PM10),52,53,48,18,19,118,,110,110,23,48,6,13,0.8,1.1
2024-09-26T1800,1590A,110.0377,40.5546,包头市,东河鸿龙湾,,36,36,49,6,18,114,,110,110,15,37,10,15,0.5,0.8
2024-09-26T1800,3283A,109.9154,40.5685,包头市,滨河大厦,,35,29,42,10,19,109,,108,108,29,50,9,14,0.5,0.8
2024-09-26T1800,3419A,109.9447,40.6261,包头市,包头市委党校,,37,37,49,16,19,113,,111,111,25,52,7,17,0.4,0.9
2024-09-26T1800,3683A,109.8331,40.6576,包头市,昆区政府,,44,44,41,14,19,111,,110,110,30,47,7,13,0.6,0.7
2024-09-26T1800,1930A,107.185,34.3063,宝鸡市,庙沟村,,47,34,40,23,27,148,,124,124,9,10,9,9,0.4,0.3
2024-09-26T1800,1931A,107.0708,34.3017,宝鸡市,竹园沟,,50,42,36,23,23,158,,132,132,14,14,8,7,0.6,0.5
2024-09-26T1800,1932A,107.1906,34.3672,宝鸡市,三陆医院,臭氧1小时,58,54,55,29,33,166,,132,132,28,30,7,7,0.7,0.6
2024-09-26T1800,1933A,107.1431,34.3547,宝鸡市,监测站,臭氧1小时,64,53,45,32,28,171,,129,129,17,18,7,6,0.6,0.6
2024-09-26T1800,1934A,107.1186,34.3739,宝鸡市,技工学校,臭氧1小时,59,43,50,32,31,167,,131,131,25,22,8,8,0.6,0.6
2024-09-26T1800,1935A,107.3906,34.3528,宝鸡市,陈仓区环保局家属楼,臭氧1小时,63,59,84,30,41,170,,147,147,21,31,10,10,0.6,0.7
2024-09-26T1800,1936A,107.2058,34.3497,宝鸡市,文理学院,臭氧1小时,72,58,51,16,25,177,,135,135,14,19,9,8,0.6,0.5
2024-09-26T1800,1937A,107.2386,34.3622,宝鸡市,三迪小学,臭氧1小时,63,62,58,42,36,170,,134,134,27,30,9,9,0.6,0.6
2024-09-26T1800,1051A,115.493,38.8632,保定市,游泳馆,细颗粒物(PM2.5),69,72,60,50,40,141,,135,135,14,27,3,2,0.4,0.4
2024-09-26T1800,1052A,115.5213,38.8959,保定市,华电二区,细颗粒物(PM2.5),63,59,56,45,32,132,,127,127,17,35,3,3,0.7,0.3
2024-09-26T1800,1053A,115.4713,38.9108,保定市,接待中心,颗粒物(PM10),68,86,57,42,34,132,,125,125,21,36,2,3,0.5,0.3
2024-09-26T1800,1054A,115.4612,38.8416,保定市,地表水厂,细颗粒物(PM2.5),65,58,68,47,38,132,,133,133,20,22,2,3,0.4,0.2
2024-09-26T1800,3581A,115.31981,38.95208,保定市,满城区生态环境分局,细颗粒物(PM2.5),77,100,66,56,31,142,,134,134,27,31,4,4,0.8,0.5
2024-09-26T1800,3582A,115.47694,38.76408,保定市,清苑区第二中学,细颗粒物(PM2.5),67,76,77,48,45,129,,135,135,17,28,1,2,0.6,0.5
2024-09-26T1800,3583A,115.62909,39.02311,保定市,徐水物探局,颗粒物(PM10),59,68,54,39,29,124,,131,131,22,33,6,5,0.4,0.4
2024-09-26T1800,4004A,115.4202,38.8656,保定市,双鹰农机,颗粒物(PM10),66,82,69,46,31,138,,142,142,28,32,1,2,0.7,0.5
2024-09-26T1800,4034A,115.5150,38.8590,保定市,植保所站,细颗粒物(PM2.5),69,64,61,50,39,148,,142,142,16,30,3,4,0.5,0.4
2024-09-26T1800,2594A,99.1678,25.1081,保山市,市环境监测站,,33,33,32,14,18,63,,68,68,8,10,4,5,0.4,0.4
2024-09-26T1800,2595A,99.1711,25.1328,保山市,市环保局,,35,35,37,10,11,68,,72,72,5,7,5,6,0.5,0.4
2024-09-26T1800,1867A,109.1436,21.4086,北海市,海滩公园,,41,40,44,22,27,130,,120,120,6,11,5,6,0.7,0.7
2024-09-26T1800,1868A,109.0981,21.4661,北海市,新市环保局,,41,35,35,27,26,129,,114,114,7,11,4,5,0.7,0.8
2024-09-26T1800,1869A,109.1778,21.5233,北海市,北海工业园,,42,32,48,29,31,128,,113,113,10,18,6,6,0.6,0.7
2024-09-26T1800,3400A,109.1911,21.4415,北海市,龙潭自来水厂,,39,34,44,25,41,122,,116,116,8,14,5,6,0.7,0.8
2024-09-26T1800,1001A,116.3621,39.8784,北京市,万寿西宫,,45,45,34,24,20,93,,79,79,22,31,1,2,0.7,0.7
2024-09-26T1800,1002A,116.2202,40.2915,北京市,定陵,,30,29,19,21,15,23,,34,34,13,12,1,1,0.7,0.4
2024-09-26T1800,1003A,116.4174,39.9289,北京市,东四,,42,42,34,23,20,96,,84,84,19,30,3,3,0.7,0.7
2024-09-26T1800,1004A,116.4072,39.8863,北京市,天坛,,33,33,29,18,18,76,,76,76,16,26,3,3,0.5,0.6
2024-09-26T1800,1005A,116.462,39.9365,北京市,农展馆,,34,34,30,18,17,82,,73,73,22,34,6,5,0.6,0.6
2024-09-26T1800,1006A,116.3392,39.9295,北京市,官园,,48,48,34,27,19,97,,78,78,19,30,6,6,0.7,0.7
2024-09-26T1800,1007A,116.2878,39.9611,北京市,海淀万柳,,50,50,25,27,13,80,,62,62,24,37,3,3,0.5,0.4
2024-09-26T1800,1008A,116.6636,40.135,北京市,顺义新城,,26,26,16,14,8,71,,72,72,22,21,1,2,0.6,0.3
2024-09-26T1800,1009A,116.6275,40.3275,北京市,怀柔镇,,24,24,11,13,6,64,,70,70,17,17,1,2,0.5,0.4
2024-09-26T1800,1010A,116.2296,40.217,北京市,昌平镇,,46,46,20,22,10,42,,41,41,21,22,3,3,0.7,0.4
2024-09-26T1800,1011A,116.3966,39.9821,北京市,奥体中心,,44,44,25,24,15,50,,62,62,64,37,3,3,0.7,0.6
2024-09-26T1800,1012A,116.184,39.9136,北京市,古城,颗粒物(PM10),69,88,47,43,23,62,,58,58,38,36,3,3,0.8,0.6
2024-09-26T1800,3281A,115.9718,40.4529,北京市,延庆夏都,,49,49,23,30,14,79,,90,90,17,11,1,2,0.6,0.4
2024-09-26T1800,3417A,117.0709,40.1465,北京市,平谷新城,,36,33,19,25,13,93,,87,87,13,8,3,2,0.8,0.4
2024-09-26T1800,3418A,116.8336,40.4095,北京市,密云新城,,35,35,10,21,6,63,,75,75,18,10,1,3,0.5,0.3
2024-09-26T1800,3671A,116.088,39.9726,北京市,门头沟三家店,颗粒物(PM10),54,57,32,34,16,89,,78,78,25,24,7,6,0.9,0.5
2024-09-26T1800,3672A,116.1541,39.8204,北京市,丰台云岗,,50,50,36,30,21,46,,48,48,32,31,4,4,0.6,0.5
2024-09-26T1800,3673A,116.6804,39.9081,北京市,通州东关,,34,34,40,16,23,105,,90,90,16,34,2,2,0.7,0.6
2024-09-26T1800,3674A,115.9577,39.7603,北京市,房山燕山,细颗粒物(PM2.5),58,63,33,41,21,109,,83,83,18,15,3,3,0.6,0.4
2024-09-26T1800,3675A,116.4672,39.7733,北京市,大兴旧宫,,28,28,30,15,20,89,,89,89,15,26,3,2,0.6,0.6
2024-09-26T1800,3694A,115.986,40.4563,北京市,延庆石河营,,50,50,22,32,14,77,,87,87,18,10,3,3,0.6,0.4
2024-09-26T1800,3695A,116.6151,40.3053,北京市,怀柔新城,,28,28,14,16,10,71,,71,71,10,11,3,3,0.5,0.3
2024-09-26T1800,3696A,116.2545,39.8768,北京市,丰台小屯,,49,49,42,26,19,66,,59,59,25,34,3,2,0.7,0.7
2024-09-26T1800,3697A,116.84,40.3844,北京市,密云镇,,29,29,14,16,7,70,,74,74,15,21,3,3,0.5,0.4
2024-09-26T1800,1761A,123.8275,41.3064,本溪市,大峪,,24,9,22,7,15,76,,82,82,12,22,9,9,0.4,0.7
2024-09-26T1800,1762A,123.7567,41.3325,本溪市,溪湖,,26,20,29,7,12,82,,88,88,13,19,7,8,0.6,0.8
2024-09-26T1800,1763A,123.7169,41.3094,本溪市,彩屯,,22,22,23,14,16,58,,75,75,34,29,9,9,0.6,0.7
2024-09-26T1800,1764A,123.7669,41.2864,本溪市,东明,,25,24,27,11,15,80,,86,86,22,29,5,5,0.6,0.8
2024-09-26T1800,1765A,123.7992,41.2664,本溪市,新立屯,,34,34,16,9,9,16,,84,81,60,23,4,5,0.5,0.5
2024-09-26T1800,1766A,123.8142,41.3472,本溪市,威宁,,18,16,25,8,16,56,,81,81,32,24,8,8,0.4,0.6
2024-09-26T1800,2587A,105.2864,27.3125,毕节市,八中,,27,26,64,18,59,84,,86,86,11,15,6,7,0.5,0.7
2024-09-26T1800,2588A,105.31,27.2944,毕节市,师专,,46,42,74,32,58,87,,98,97,18,19,8,10,0.7,0.7
2024-09-26T1800,3537A,105.3631,27.3533,毕节市,长征村,细颗粒物(PM2.5),109,100,103,82,84,94,,99,99,9,9,10,11,0.8,0.8
2024-09-26T1800,1629A,118.0018,37.3617,滨州市,第二水厂,,34,19,61,3,36,107,,118,118,9,18,10,8,0.4,0.7
2024-09-26T1800,1630A,117.9776,37.393,滨州市,北中新校,,36,29,66,7,35,115,,124,124,9,14,11,8,0.6,0.8
2024-09-26T1800,3514A,117.9378,37.3956,滨州市,中海酒店,,38,22,59,12,34,119,,125,125,12,21,10,6,0.4,0.6
2024-09-26T1800,3515A,117.9378,37.3553,滨州市,开发区一中,,36,27,67,3,36,114,,130,130,15,23,14,11,0.6,0.7
2024-09-26T1800,3516A,118.0917,37.694,滨州市,金海六路,,34,19,53,3,32,108,,114,114,8,16,4,4,0.5,0.7
2024-09-26T1800,4028A,117.9956,37.3753,滨州市,滨州市西街道办事处,,,,59,,41,117,,130,130,,19,12,8,0.5,0.9
2024-09-26T1800,2311A,115.8072,33.8399,亳州市,污水处理厂,,46,46,61,25,38,140,,129,129,17,27,4,11,0.5,0.6
2024-09-26T1800,2312A,115.7789,33.8518,亳州市,三国揽胜宫,,43,40,51,24,35,136,,123,123,16,20,4,8,0.6,0.6
2024-09-26T1800,3332A,115.7633,33.8034,亳州市,亳州学院,,46,42,58,11,41,147,,130,130,13,17,4,6,0.6,0.6
2024-09-26T1800,2693A,82.0485,44.8556,博尔塔拉蒙古自治州,市党校,,28,20,27,3,10,88,,81,81,7,7,4,5,0.2,0.3
2024-09-26T1800,2694A,82.0806,44.8969,博尔塔拉蒙古自治州,市环保局,,26,26,27,8,11,80,,75,75,9,9,4,5,0.2,0.2
2024-09-26T1800,1071A,116.8842,38.2991,沧州市,沧县城建局,,33,23,70,11,49,104,,105,105,18,27,4,4,0.4,0.6
2024-09-26T1800,1072A,116.8584,38.3254,沧州市,电视转播站,,36,31,61,14,44,113,,112,112,18,24,4,3,0.4,0.6
2024-09-26T1800,1073A,116.8709,38.3228,沧州市,市环保局,,33,33,68,22,48,105,,108,108,16,22,4,4,0.3,0.5
2024-09-26T1800,3324A,116.8136,38.3004,沧州市,河北水利电力学院,,37,34,74,21,51,118,,111,111,16,20,4,5,0.2,0.5
2024-09-26T1800,2622A,97.1806,31.1273,昌都市,昌都监测站,,26,13,13,3,6,82,,68,68,10,15,6,7,0.3,0.4
2024-09-26T1800,3719A,97.1714,31.1406,昌都市,昌都会议中心,,27,9,10,3,6,86,,75,75,6,6,8,8,0.1,0.1
2024-09-26T1800,2690A,88.1236,43.8886,昌吉回族自治州,天山天池,,19,14,17,12,8,60,,67,58,10,6,5,5,0.6,0.5
2024-09-26T1800,2692A,87.2717,44.0297,昌吉回族自治州,新区政务中心,,25,25,26,10,12,76,,68,68,8,18,7,6,0.6,0.5
2024-09-26T1800,3613A,87.3095,44.0142,昌吉回族自治州,亚心广场,,31,31,33,9,8,74,,68,66,12,24,5,4,0.6,0.5
2024-09-26T1800,1119A,125.3325,43.9166,长春市,食品厂,,42,42,83,22,31,63,,92,89,31,44,4,6,0.5,1
2024-09-26T1800,1120A,125.2863,43.9027,长春市,客车厂,,33,25,61,23,33,40,,80,80,56,42,6,7,0.5,0.9
2024-09-26T1800,1121A,125.2841,43.8463,长春市,邮电学院,,26,26,44,18,23,70,,85,85,12,32,7,8,0.3,0.6
2024-09-26T1800,1122A,125.3716,43.8772,长春市,劳动公园,,22,21,51,13,26,70,,89,89,28,34,8,9,0.2,0.5
2024-09-26T1800,1123A,125.3297,43.8805,长春市,园林处,,26,26,46,13,23,75,,86,86,25,35,4,5,0.4,0.8
2024-09-26T1800,1124A,125.4605,43.79,长春市,净月潭,,21,15,17,9,10,65,,88,88,7,11,6,6,0.3,0.3
2024-09-26T1800,1126A,125.3863,43.8447,长春市,经开区环卫处,,28,28,43,12,16,50,,83,83,38,30,8,8,0.4,0.6
2024-09-26T1800,1127A,125.245,43.7783,长春市,高新区管委会,,30,30,34,14,19,47,,78,78,39,34,5,5,0.4,0.5
2024-09-26T1800,1128A,125.1761,43.8325,长春市,岱山公园,,30,30,45,19,20,57,,78,78,38,43,4,5,0.4,0.5
2024-09-26T1800,1335A,113.0833,28.2325,长沙市,经开区环保局,细颗粒物(PM2.5),83,92,80,61,61,168,,206,189,19,27,3,3,0.6,0.6
2024-09-26T1800,1336A,112.8872,28.2189,长沙市,高开区环保局,,,88,84,55,56,182,,193,193,12,31,6,6,,0.6
2024-09-26T1800,1337A,113.0792,28.2053,长沙市,马坡岭,细颗粒物(PM2.5),79,96,89,58,63,174,,193,193,10,23,6,6,0.7,0.7
2024-09-26T1800,1338A,112.9394,28.19,长沙市,湖南师范大学,颗粒物(PM10),77,104,82,52,52,179,,200,200,15,20,8,8,0.7,0.6
2024-09-26T1800,1339A,113.0178,28.1322,长沙市,雨花区环保局,细颗粒物(PM2.5),80,90,86,59,57,181,,195,195,14,32,8,8,0.7,0.7
2024-09-26T1800,1340A,112.9792,28.2597,长沙市,伍家岭,细颗粒物(PM2.5),94,92,87,70,57,170,,184,184,14,27,5,5,1.0,0.9
2024-09-26T1800,1341A,113.0014,28.1944,长沙市,火车新站,细颗粒物(PM2.5),79,89,81,58,51,170,,179,179,13,24,6,6,0.8,0.7
2024-09-26T1800,1342A,112.9844,28.1178,长沙市,天心区环保局,臭氧1小时,90,96,98,41,44,192,,193,193,18,41,6,5,0.5,0.6
2024-09-26T1800,1343A,112.8908,28.1308,长沙市,湖南中医药大学,臭氧1小时,110,95,91,61,60,219,,207,207,18,43,9,6,0.8,0.8
2024-09-26T1800,1344A,112.9581,28.3611,长沙市,沙坪,,,83,65,67,43,164,,178,178,8,9,,10,0.5,0.5
2024-09-26T1800,1727A,113.1147,36.1547,长治市,清华站,细颗粒物(PM2.5),79,72,60,58,53,149,,164,164,26,23,10,11,1.2,1.5
2024-09-26T1800,1728A,113.1031,36.1989,长治市,监测站,细颗粒物(PM2.5),79,74,69,58,47,156,,151,151,21,29,11,14,1.0,1.6
2024-09-26T1800,1730A,113.0886,36.2125,长治市,审计局,细颗粒物(PM2.5),77,71,65,56,56,160,,156,156,24,30,8,12,0.7,1.2
2024-09-26T1800,1731A,113.0844,36.1856,长治市,长治八中,细颗粒物(PM2.5),75,87,81,55,38,159,,162,162,22,27,10,10,1.2,1.5
2024-09-26T1800,2845A,113.1569,36.1911,长治市,德盛苑,细颗粒物(PM2.5),77,66,54,56,41,160,,161,161,17,19,6,7,1.2,1.3
2024-09-26T1800,3568A,113.06,36.0464,长治市,向阳小学,细颗粒物(PM2.5),107,108,83,80,59,152,,175,175,25,24,10,10,1.3,1
2024-09-26T1800,3569A,112.8792,36.3144,长治市,屯留一中,细颗粒物(PM2.5),118,104,87,89,68,140,,159,159,31,33,18,16,2.3,2.1
2024-09-26T1800,3570A,113.235,36.3489,长治市,潞城四中,细颗粒物(PM2.5),105,81,76,79,72,176,,182,182,16,20,7,8,0.8,1.2
2024-09-26T1800,1854A,111.6975,28.9703,常德市,市二中,细颗粒物(PM2.5),134,126,120,102,90,176,,151,151,27,33,16,12,1.0,1
2024-09-26T1800,3138A,111.7153,29.0289,常德市,武陵区永安,细颗粒物(PM2.5),120,108,117,91,92,188,,166,166,21,28,14,14,0.7,0.8
2024-09-26T1800,3139A,111.6892,28.9881,常德市,鼎城区玉霞,细颗粒物(PM2.5),133,128,127,101,92,194,,164,164,22,32,14,13,0.9,0.9
2024-09-26T1800,3140A,111.6625,29.0531,常德市,武陵区长庚,,,103,124,,92,188,,169,169,18,24,13,16,0.8,0.8
2024-09-26T1800,1196A,119.9633,31.762,常州市,市监测站,,21,16,67,10,32,65,,70,70,28,29,8,8,0.6,0.7
2024-09-26T1800,1200A,119.9468,31.7069,常州市,武进监测站,,31,31,62,20,32,65,,69,68,27,24,6,7,1.0,0.9
2024-09-26T1800,1201A,119.9255,31.9087,常州市,安家,,25,17,46,8,30,80,,60,60,12,29,7,9,0.4,0.6
2024-09-26T1800,3002A,119.9805,31.8174,常州市,行政中心,,21,20,63,10,26,67,,71,71,23,26,12,13,0.4,0.6
2024-09-26T1800,3003A,120.0522,31.7748,常州市,经开区,,19,16,51,10,31,60,,67,67,30,39,6,7,0.4,0.6
2024-09-26T1800,3010A,119.9025,31.7964,常州市,钟楼,,22,21,52,9,27,68,,68,68,24,24,9,9,0.6,0.7
2024-09-26T1800,3429A,119.8598,31.7066,常州市,武进经发区,,20,18,63,8,30,62,,62,62,33,44,8,8,0.7,0.9
2024-09-26T1800,3430A,119.5826,31.7245,常州市,金坛城区,,20,20,48,12,31,51,,78,55,30,25,7,9,0.7,0.8
2024-09-26T1800,2220A,120.4318,41.5881,朝阳市,西梁,,28,13,34,7,16,87,,90,90,15,23,8,9,0.5,0.6
2024-09-26T1800,2221A,120.4521,41.5646,朝阳市,河畔小区,,25,23,27,10,12,79,,92,92,16,16,8,8,0.6,0.6
2024-09-26T1800,2222A,120.4176,41.5648,朝阳市,八里堡,,39,39,38,12,14,75,,92,92,31,28,8,10,0.6,0.8
2024-09-26T1800,2223A,120.3806,41.5969,朝阳市,农业园区,,24,24,27,16,16,64,,88,88,21,18,9,8,0.5,0.5
2024-09-26T1800,1705A,116.6367,23.6719,潮州市,西园路,,30,17,23,17,17,96,,103,103,12,11,3,3,0.5,0.3
2024-09-26T1800,3026A,116.6183,23.6608,潮州市,市政府,,35,35,33,17,13,108,,123,123,12,16,4,8,0.5,0.5
2024-09-26T1800,4036A,116.6461,23.6761,潮州市,金山,,35,28,25,6,10,112,,116,116,9,9,6,7,0.7,0.7
2024-09-26T1800,2472A,113.0073,25.9061,郴州市,马头岭,,36,36,33,12,12,53,,50,50,9,11,7,7,0.3,0.5
2024-09-26T1800,2473A,113.0116,25.8226,郴州市,市职中,,38,31,32,26,27,58,,56,56,15,15,4,5,0.6,0.7
2024-09-26T1800,2474A,113.0161,25.8001,郴州市,兴隆步行街,,36,31,36,25,25,52,,52,52,16,15,4,4,0.7,0.7
2024-09-26T1800,2475A,113.0383,25.8071,郴州市,市审计局,,32,27,33,22,29,50,,50,50,10,12,3,4,0.6,0.6
2024-09-26T1800,2476A,113.0348,25.7759,郴州市,市环保局,,46,41,41,32,35,47,,48,48,15,13,6,6,0.7,0.7
2024-09-26T1800,1431A,103.9728,30.7236,成都市,金泉两河,颗粒物(PM10),54,58,63,31,28,81,,101,101,7,26,3,4,0.6,0.8
2024-09-26T1800,1432A,104.176,30.6872,成都市,十里店,细颗粒物(PM2.5),65,63,86,47,59,144,,146,146,8,32,4,4,0.6,0.8
2024-09-26T1800,1433A,104.079,30.5706,成都市,三瓦窑,细颗粒物(PM2.5),65,48,76,47,58,160,,145,145,11,38,3,4,0.5,0.7
2024-09-26T1800,1434A,104.1114,30.63,成都市,沙河铺,颗粒物(PM10),56,61,79,37,58,141,,152,152,13,28,3,4,0.7,0.8
2024-09-26T1800,1437A,104.0786,30.6531,成都市,君平街,细颗粒物(PM2.5),69,64,75,50,55,163,,159,159,13,29,2,4,0.6,0.9
2024-09-26T1800,2880A,104.0239,30.65639,成都市,大石西路,臭氧1小时,60,51,74,37,53,168,,156,156,12,31,4,4,0.6,0.8
2024-09-26T1800,3136A,104.2725,30.5589,成都市,龙泉驿区区政府,,47,31,61,22,48,149,,153,153,10,15,2,4,0.6,0.7
2024-09-26T1800,3357A,104.0106,30.6931,成都市,金博路,,45,44,71,31,46,124,,146,146,9,29,1,2,0.6,0.8
2024-09-26T1800,3359A,104.0578,30.5225,成都市,华阳,细颗粒物(PM2.5),55,44,76,39,56,153,,151,151,6,20,4,4,0.7,0.8
2024-09-26T1800,3487A,104.2394,30.5319,成都市,车城东七路,臭氧1小时,52,28,75,20,57,161,,160,160,6,12,4,4,0.4,0.7
2024-09-26T1800,3488A,104.3853,30.7453,成都市,青白江技师分院,臭氧1小时,64,51,66,27,52,171,,166,166,14,45,2,3,0.6,0.8
2024-09-26T1800,3489A,104.0789,30.4072,成都市,科学城,臭氧1小时,60,30,72,25,57,168,,167,167,5,20,5,5,0.6,0.8
2024-09-26T1800,4011A,103.8506,30.6947,成都市,光华大道三段,,40,40,61,25,40,108,,141,141,33,20,3,4,0.5,0.7
2024-09-26T1800,1062A,117.9531,40.9081,承德市,铁路,,35,35,18,11,7,41,,69,69,51,20,9,8,0.4,0.2
2024-09-26T1800,1063A,117.9392,40.9763,承德市,中国银行,,46,46,20,15,7,51,,76,76,33,18,5,5,0.4,0.2
2024-09-26T1800,1064A,117.9503,40.928,承德市,开发区,,30,30,24,14,12,50,,70,70,25,20,7,7,0.4,0.3
2024-09-26T1800,1065A,117.8051,40.9655,承德市,文化中心,,48,48,36,23,10,35,,54,54,32,26,14,13,0.9,0.5
2024-09-26T1800,1066A,117.9268,41.0026,承德市,离宫,,33,31,16,23,18,29,,57,57,5,10,1,2,0.4,0.3
2024-09-26T1800,2314A,117.47,30.6618,池州市,池州学院,细颗粒物(PM2.5),63,68,69,45,45,127,,158,154,26,25,11,11,0.9,1
2024-09-26T1800,3237A,117.4918,30.6617,池州市,展览馆,颗粒物(PM10),64,78,65,43,38,129,,153,153,24,22,7,8,1.0,1.1
2024-09-26T1800,3333A,117.5627,30.695,池州市,第八中学,细颗粒物(PM2.5),68,71,64,49,40,122,,148,148,28,25,6,7,0.9,1
2024-09-26T1800,3334A,117.5038,30.6243,池州市,第十二中学,细颗粒物(PM2.5),65,73,58,47,40,137,,153,153,18,23,6,6,1.0,1
2024-09-26T1800,1744A,118.9233,42.2816,赤峰市,松山一中,,23,21,26,7,10,71,,72,72,29,30,12,10,0.6,0.5
2024-09-26T1800,1745A,118.9576,42.2728,赤峰市,哈达街,,27,21,19,13,8,85,,87,87,19,17,12,9,0.6,0.4
2024-09-26T1800,1746A,118.8788,42.2554,赤峰市,天义路,,26,10,23,3,11,81,,84,84,17,23,6,7,0.2,0.3
2024-09-26T1800,3058A,119.2658,42.0353,赤峰市,银河街,,27,27,36,14,16,81,,92,92,20,20,18,19,0.6,0.6
2024-09-26T1800,3286A,118.9359,42.3147,赤峰市,桥北物流园区,,29,29,24,17,14,58,,81,78,53,31,24,10,1.2,0.6
2024-09-26T1800,2521A,107.3476,22.4136,崇左市,市环保局江州分局,,40,40,45,25,25,95,,109,107,7,11,3,3,0.8,0.8
2024-09-26T1800,2522A,107.3702,22.3707,崇左市,城南新区,,32,29,36,22,24,94,,108,108,6,12,3,3,0.8,0.8
2024-09-26T1800,2298A,118.3093,32.3153,滁州市,老年大学,,35,33,41,16,23,111,,89,89,13,20,9,9,0.3,0.3
2024-09-26T1800,2299A,118.3244,32.2786,滁州市,人大宾馆,,41,41,45,17,29,99,,80,80,21,23,6,6,0.3,0.4
2024-09-26T1800,3207A,118.3118,32.3038,滁州市,市政府原办公楼,,33,33,38,21,29,98,,81,81,18,23,6,6,0.4,0.4
2024-09-26T1800,3331A,118.3267,32.2634,滁州市,图书馆,,37,37,44,12,26,104,,84,84,10,18,5,5,0.3,0.4
2024-09-26T1800,2605A,101.5482,25.0441,楚雄彝族自治州,州环境监测站,,24,19,34,15,29,76,,77,77,8,21,10,20,0.6,0.7
2024-09-26T1800,2606A,101.538,25.0492,楚雄彝族自治州,市经济开发区,,24,24,35,16,26,72,,76,76,11,19,7,26,0.6,0.7
2024-09-26T1800,2548A,107.5277,31.2827,达州市,达州职业技术学院,颗粒物(PM10),61,72,73,40,44,138,,143,143,23,41,6,7,0.8,0.8
2024-09-26T1800,2549A,107.5086,31.2186,达州市,市环境监测站,颗粒物(PM10),60,69,84,36,46,147,,152,152,29,42,7,9,0.6,0.8
2024-09-26T1800,2550A,107.4988,31.2132,达州市,凤凰小区,细颗粒物(PM2.5),58,61,73,41,50,160,,168,168,18,35,9,10,0.7,0.8
2024-09-26T1800,2551A,107.5082,31.1986,达州市,达县机关宾馆,细颗粒物(PM2.5),55,58,87,39,46,146,,156,156,33,54,6,7,0.5,0.6
2024-09-26T1800,2552A,107.4644,31.2124,达州市,市政中心,颗粒物(PM10),57,63,86,39,53,156,,164,164,27,44,16,17,1.0,1.1
2024-09-26T1800,2614A,100.1542,25.7054,大理白族自治州,大理市环境监测站,,25,23,24,17,16,64,,68,68,8,6,6,6,0.6,0.6
2024-09-26T1800,2615A,100.2171,25.5811,大理白族自治州,大理古城,,32,22,25,22,18,74,,82,82,8,12,7,7,0.4,0.4
2024-09-26T1800,1109A,121.612,38.9741,大连市,甘井子,,32,25,51,7,25,100,,100,100,19,24,7,9,0.3,0.6
2024-09-26T1800,1110A,121.565,38.9511,大连市,周水子,,27,22,37,7,25,86,,91,91,26,28,8,8,0.7,1
2024-09-26T1800,1111A,121.5637,38.8845,大连市,星海三站,,32,20,42,7,23,100,,98,98,10,15,6,7,0.2,0.5
2024-09-26T1800,1112A,121.6302,38.9117,大连市,青泥洼桥,,29,19,60,9,30,92,,92,92,20,27,7,8,0.1,0.5
2024-09-26T1800,1113A,121.6251,38.8638,大连市,傅家庄,,27,20,35,7,32,85,,85,85,14,21,6,8,0.3,0.6
2024-09-26T1800,1114A,121.5213,38.8661,大连市,七贤岭,,34,23,52,6,24,107,,110,110,11,15,7,8,0.5,0.7
2024-09-26T1800,1115A,121.2529,38.8061,大连市,旅顺,,37,20,25,10,17,117,,115,115,13,14,6,7,0.4,0.5
2024-09-26T1800,1116A,121.7485,39.1311,大连市,金州,,31,18,44,11,29,97,,98,98,20,20,6,8,0.4,1
2024-09-26T1800,1117A,121.7811,39.0496,大连市,开发区,,30,27,58,10,31,93,,95,95,14,20,4,5,0.4,0.8
2024-09-26T1800,1118A,121.9762,39.0631,大连市,双D港,,37,32,45,12,31,116,,111,111,20,21,7,8,0.6,0.8
2024-09-26T1800,1789A,124.81117,46.03138,大庆市,大同区,,46,46,32,21,23,71,,87,86,24,17,3,4,0.5,0.4
2024-09-26T1800,1790A,125.129,46.533,大庆市,龙凤区,,,,43,,23,52,,89,88,44,34,4,3,1.8,0.5
2024-09-26T1800,1791A,124.902,46.408,大庆市,红岗区,,30,30,30,20,20,84,,97,97,15,20,6,6,0.4,0.4
2024-09-26T1800,1792A,125.153,46.586,大庆市,萨尔图区,,40,40,39,11,21,44,,88,86,53,32,6,5,0.4,0.4
2024-09-26T1800,1793A,124.9042,46.6215,大庆市,让胡路区,,40,40,45,24,25,72,,94,94,35,29,5,5,0.4,0.4
2024-09-26T1800,3481A,125.141,46.634,大庆市,萨区政府监测点,,32,32,26,10,13,72,,92,90,25,27,7,6,0.3,0.5
2024-09-26T1800,1721A,113.3819,40.1097,大同市,果树场,颗粒物(PM10),73,95,44,46,18,96,,105,105,34,28,8,8,0.7,0.6
2024-09-26T1800,1723A,113.2994,40.0758,大同市,云冈宾馆,颗粒物(PM10),60,69,50,34,21,131,,117,117,18,32,9,13,0.8,0.9
2024-09-26T1800,1724A,113.3444,40.0917,大同市,大同大学,颗粒物(PM10),56,62,35,36,18,122,,114,114,19,26,10,13,1.1,0.6
2024-09-26T1800,1725A,113.2661,40.1269,大同市,安家小村,颗粒物(PM10),66,82,55,40,20,130,,115,115,17,36,12,14,0.7,1.3
2024-09-26T1800,1726A,113.2711,40.0844,大同市,教育学院,颗粒物(PM10),66,82,59,39,24,120,,109,109,28,42,9,12,0.7,0.9
2024-09-26T1800,3282A,113.3397,40.0597,大同市,大同市卫生学校,颗粒物(PM10),64,77,38,38,17,120,,114,114,19,28,9,13,0.7,0.6
2024-09-26T1800,3565A,113.1367,40.1122,大同市,云冈站,颗粒物(PM10),74,97,68,36,24,120,,110,110,25,26,11,12,0.6,0.5
2024-09-26T1800,3566A,113.1186,40.2556,大同市,图书馆,颗粒物(PM10),69,88,39,40,19,120,,111,111,25,20,12,12,0.7,0.6
2024-09-26T1800,3567A,113.5931,40.0461,大同市,区一中,颗粒物(PM10),51,52,22,24,8,100,,112,112,23,12,9,9,0.7,0.6
2024-09-26T1800,3676A,113.2802,40.0995,大同市,第二人民医院,细颗粒物(PM2.5),59,65,54,42,22,133,,118,118,16,33,12,15,0.6,1
2024-09-26T1800,2269A,124.1069,50.4097,大兴安岭地区,科技局,,42,42,21,23,17,80,,81,81,8,7,6,6,0.4,0.3
2024-09-26T1800,3663A,124.1164,50.4278,大兴安岭地区,红旗社区,,31,31,22,15,13,73,,79,79,19,14,20,7,0.4,0.4
2024-09-26T1800,1600A,124.3303,40.0625,丹东市,江湾东路,,17,17,32,10,21,52,,81,80,34,15,9,9,0.8,0.9
2024-09-26T1800,1601A,124.4256,40.1503,丹东市,临江后街,,25,22,33,11,19,79,,90,90,17,13,7,7,0.7,0.9
2024-09-26T1800,1602A,124.3933,40.1461,丹东市,元宝山,,26,17,26,11,16,81,,81,81,8,9,4,4,0.6,0.8
2024-09-26T1800,1603A,124.3633,40.1092,丹东市,民主桥,,30,22,30,12,18,35,,82,79,60,18,5,5,0.8,0.9
2024-09-26T1800,3541A,109.5726,19.5167,儋州市,第一中学子站,,35,19,28,13,17,110,,81,81,4,6,6,6,0.6,0.6
2024-09-26T1800,3542A,109.5567,19.5187,儋州市,东坡学校子站,,37,14,27,12,17,118,,86,86,6,6,7,5,0.6,0.6
2024-09-26T1800,2616A,98.5842,24.428,德宏傣族景颇族自治州,德宏州监测站,,28,28,31,11,14,43,,40,40,16,13,7,12,0.7,0.7
2024-09-26T1800,3677A,98.5881,24.4368,德宏傣族景颇族自治州,芒市人民政府综合楼,,18,18,22,3,17,51,,50,50,14,11,8,9,0.8,0.8
2024-09-26T1800,1901A,104.4239,31.1208,德阳市,东山公园,臭氧1小时,67,47,64,27,38,173,,174,174,15,21,3,5,0.6,0.7
2024-09-26T1800,1902A,104.3826,31.1317,德阳市,西小区,臭氧1小时,62,53,77,36,51,169,,167,167,21,40,3,6,0.7,0.8
2024-09-26T1800,1904A,104.3553,31.1091,德阳市,耐火材料厂,臭氧1小时,58,57,95,33,55,166,,174,174,24,42,2,8,0.6,0.8
2024-09-26T1800,3639A,104.4019,31.1244,德阳市,市教育局,臭氧1小时,62,60,73,29,41,169,,172,172,18,39,1,2,0.7,0.7
2024-09-26T1800,1622A,116.3032,37.4674,德州市,儿童乐园,,,63,110,36,67,141,,171,171,32,32,,13,0.7,0.7
2024-09-26T1800,1624A,116.2991,37.4451,德州市,监理站,细颗粒物(PM2.5),55,51,94,39,72,154,,182,182,27,26,9,13,0.5,0.6
2024-09-26T1800,3066A,116.2721,37.4379,德州市,九衢泉纯净水厂,细颗粒物(PM2.5),55,58,88,39,52,113,,170,167,42,26,8,12,0.7,0.7
2024-09-26T1800,3371A,116.3728,37.4403,德州市,开发区人民医院,,46,46,94,27,53,142,,171,171,22,27,8,12,0.7,0.7
2024-09-26T1800,3372A,116.3572,37.4094,德州市,太阳城中学,,44,44,92,27,52,119,,169,167,35,32,7,11,0.6,0.7
2024-09-26T1800,3511A,116.5652,37.3319,德州市,陵城艺术中心,,46,46,90,17,58,105,,155,154,34,29,10,12,0.7,0.8
2024-09-26T1800,2621A,99.7056,27.8317,迪庆藏族自治州,迪庆州站,,19,17,17,11,10,58,,58,58,11,10,8,12,0.5,0.4
2024-09-26T1800,3180A,99.7136,27.8094,迪庆藏族自治州,质量技术监督局,,16,16,14,3,8,51,,55,55,13,10,6,7,0.5,0.4
2024-09-26T1800,2663A,104.6241,35.5734,定西市,东关小学,,33,28,20,23,18,86,,87,87,5,11,6,6,0,0
2024-09-26T1800,2664A,104.6194,35.5934,定西市,供电公司,,27,25,28,12,19,85,,59,,6,11,4,6,0.3,0.2
2024-09-26T1800,1389A,113.7547,23.0494,东莞市,莞城梨川,,50,34,53,20,33,160,,170,170,24,36,6,6,0.8,0.9
2024-09-26T1800,1390A,113.7944,23.0128,东莞市,东城石井,,47,39,44,27,28,148,,187,187,18,27,7,5,0.8,0.9
2024-09-26T1800,1391A,113.7383,22.9658,东莞市,南城西平,臭氧1小时,78,44,43,28,28,182,,183,183,35,33,8,6,0.9,1
2024-09-26T1800,3319A,113.7338,23.0381,东莞市,万江金泰,臭氧1小时,65,35,53,21,33,172,,181,181,23,38,10,9,0.7,0.8
2024-09-26T1800,3626A,113.7533,23.0202,东莞市,南城元岭,臭氧1小时,70,43,48,23,33,176,,176,176,21,35,10,7,0.8,0.9
2024-09-26T1800,3627A,113.7875,23.0457,东莞市,东城主山,,,35,50,22,32,180,,198,198,,36,7,7,,0.8
2024-09-26T1800,1666A,118.6614,37.4309,东营市,市环保局,,40,12,31,3,17,125,,123,123,8,10,2,4,0.1,0.3
2024-09-26T1800,3036A,118.6904,37.4338,东营市,开发区管委会,,39,15,40,9,24,123,,122,122,13,12,2,4,0.2,0.3
2024-09-26T1800,3365A,118.5719,37.565,东营市,垦利区民丰路,,32,14,35,7,21,102,,100,100,10,11,10,10,0.3,0.5
2024-09-26T1800,3498A,118.5055,37.8612,东营市,河口城区,,35,27,36,3,20,109,,112,112,12,16,5,7,0.1,0.4
2024-09-26T1800,3646A,118.4978,37.4623,东营市,胜利站,,36,6,36,3,22,114,,113,113,9,10,6,7,0.0,0.3
2024-09-26T1800,3734A,118.35,37.26,东营市,理想之城,,35,19,38,9,27,111,,111,111,15,15,2,4,0.0,0.3
2024-09-26T1800,1591A,110.0023,39.8129,鄂尔多斯市,综合楼,,48,48,64,14,17,130,,106,106,19,37,13,18,0.7,0.7
2024-09-26T1800,1592A,109.9486,39.8261,鄂尔多斯市,巴音孟克林场办事处,颗粒物(PM10),51,51,63,22,21,125,,100,100,18,41,8,12,0.5,0.7
2024-09-26T1800,1593A,109.7736,39.5986,鄂尔多斯市,康泽苑,,,,48,,15,127,,105,105,14,30,,10,0.5,0.5
2024-09-26T1800,1594A,109.8119,39.5989,鄂尔多斯市,华泰汽车城,,37,29,50,19,18,118,,96,96,13,36,9,10,0.4,0.5
2024-09-26T1800,1595A,109.9734,39.7884,鄂尔多斯市,奥林花园,,37,36,57,22,22,118,,93,93,16,45,8,9,0.6,0.8
2024-09-26T1800,2436A,114.8938,30.3994,鄂州市,市政府,臭氧1小时,77,55,67,30,36,181,,181,181,17,30,14,16,1.1,1.3
2024-09-26T1800,2437A,114.8989,30.3714,鄂州市,赵家坝,臭氧1小时,60,57,71,28,35,168,,181,181,22,30,12,15,0.7,0.9
2024-09-26T1800,3654A,114.8094,30.4089,鄂州市,精准医疗中心,臭氧1小时,70,56,64,30,37,176,,186,186,20,29,7,12,0.7,1
2024-09-26T1800,2454A,109.4978,30.2981,恩施土家族苗族自治州,湖北民院,,47,45,65,26,51,148,,150,150,16,22,10,10,0.6,0.7
2024-09-26T1800,2455A,109.4707,30.2798,恩施土家族苗族自治州,州电力总公司,,45,39,64,31,48,144,,144,144,21,32,10,9,0.9,1.1
2024-09-26T1800,3549A,109.5061,30.3772,恩施土家族苗族自治州,龙凤新区,,46,46,53,26,38,146,,144,144,14,17,6,6,0.7,0.8
2024-09-26T1800,2499A,108.3411,21.6158,防城港市,沙万,,42,42,40,26,25,110,,114,114,10,16,7,14,0.8,0.9
2024-09-26T1800,2500A,108.3514,21.7731,防城港市,防城档案局,,40,32,56,28,29,97,,106,106,9,14,11,9,0.8,0.8
2024-09-26T1800,2501A,108.3506,21.6414,防城港市,大海花园,,34,32,38,22,23,108,,116,116,8,12,6,11,1.0,1.1
2024-09-26T1800,1371A,113.1294,23.0067,佛山市,湾梁,,43,27,50,16,27,137,,137,137,20,42,8,10,0.7,0.9
2024-09-26T1800,1372A,113.1083,23.0478,佛山市,华材职中,,36,36,54,25,32,114,,126,126,34,51,8,10,0.5,0.7
2024-09-26T1800,1373A,113.144,23.0453,佛山市,南海气象局,,40,29,49,25,31,126,,134,134,15,37,8,11,0.6,0.8
2024-09-26T1800,1374A,113.2881,22.8094,佛山市,顺德苏岗,,41,32,36,14,27,130,,149,149,15,29,8,8,0.7,0.9
2024-09-26T1800,1376A,112.8383,22.8678,佛山市,高明孔堂,,30,,42,16,23,93,,112,112,12,18,5,6,0.5,0.6
2024-09-26T1800,1377A,112.8836,23.1588,佛山市,三水监测站,,31,19,44,12,31,97,,123,123,16,41,8,9,0.6,0.8
2024-09-26T1800,1378A,112.867,23.185,佛山市,三水云东海,,23,20,42,9,30,71,,116,116,14,29,8,9,0.7,0.9
2024-09-26T1800,3625A,113.2544,22.7642,佛山市,容桂街道办,,42,29,36,17,29,132,,141,141,17,36,7,8,0.7,0.8
2024-09-26T1800,1282A,119.2681,26.0504,福州市,师大,,21,11,12,3,3,65,,72,72,13,11,2,2,0.5,0.6
2024-09-26T1800,1283A,119.2984,26.1028,福州市,五四北路,,23,12,11,3,4,71,,72,72,11,10,3,3,0.3,0.5
2024-09-26T1800,1284A,119.2648,26.0768,福州市,杨桥西路,,23,19,13,3,5,71,,81,80,14,11,3,3,0.3,0.6
2024-09-26T1800,1285A,119.317,26.0746,福州市,紫阳,,18,16,14,3,5,56,,61,61,25,17,3,3,0.4,0.5
2024-09-26T1800,3048A,119.5799,26.0936,福州市,九龙,,22,16,12,3,1,69,,80,80,6,4,5,6,0.3,0.4
2024-09-26T1800,3526A,119.5189,25.9664,福州市,吴航,,22,8,8,3,5,70,,78,78,7,13,6,6,0.4,0.5
2024-09-26T1800,1755A,123.7977,41.8491,抚顺市,望花区,,19,19,26,7,13,57,,70,70,31,22,9,9,0.4,0.5
2024-09-26T1800,1756A,123.9161,41.8822,抚顺市,顺城区,,29,29,23,17,14,42,,74,74,49,21,6,5,0.5,0.5
2024-09-26T1800,1757A,124.0436,41.8611,抚顺市,东洲区,,24,,18,14,13,74,,80,80,13,14,6,6,0.4,0.4
2024-09-26T1800,1758A,123.9247,41.8642,抚顺市,新抚区,,,,21,12,15,62,,18,,25,25,5,3,1.7,0.4
2024-09-26T1800,1759A,124.0972,41.8961,抚顺市,大伙房水库,,30,19,12,9,8,93,,84,84,4,10,6,6,0.4,0.4
2024-09-26T1800,1760A,123.7086,41.8391,抚顺市,沈抚新城,,23,15,21,9,13,73,,84,84,17,22,7,7,0.1,0.3
2024-09-26T1800,2376A,116.2127,28.0814,抚州市,桐源党溪,,50,50,48,33,30,81,,98,98,8,12,6,10,0.8,0.7
2024-09-26T1800,2377A,116.3544,27.9831,抚州市,市站,,,,47,25,28,70,,79,78,11,17,1,4,1.0,1
2024-09-26T1800,2378A,116.3565,27.963,抚州市,血防站,,49,,45,34,38,70,,77,77,15,18,2,5,1.1,1
2024-09-26T1800,2379A,116.3564,28.0007,抚州市,采茶剧团,,36,34,47,25,33,70,,82,82,10,12,5,7,0.6,0.6
2024-09-26T1800,2380A,116.385,27.9647,抚州市,医学分院,,36,36,44,20,25,70,,78,78,13,16,4,5,0.8,0.8
2024-09-26T1800,2207A,121.6094,41.998,阜新市,工业园区,颗粒物(PM10),55,59,44,15,15,68,,90,90,39,30,17,20,0.5,0.6
2024-09-26T1800,2208A,121.6697,42.0279,阜新市,长青街,,27,27,38,16,15,70,,87,85,14,25,16,23,0.5,0.7
2024-09-26T1800,2209A,121.6673,42.0705,阜新市,农业园区,,22,17,31,14,16,69,,85,85,12,19,15,92,0.2,0.4
2024-09-26T1800,2210A,121.6717,42.0224,阜新市,东苑,,31,31,48,12,18,68,,86,86,32,29,9,32,0.6,0.7
2024-09-26T1800,2211A,121.6506,42.0498,阜新市,玉龙新城,,37,37,40,18,12,44,,91,90,54,27,33,25,0.6,0.9
2024-09-26T1800,2301A,115.8277,32.8929,阜阳市,市监测站,,34,34,62,10,33,106,,124,120,8,26,7,8,0.4,0.5
2024-09-26T1800,2303A,115.8554,32.8605,阜阳市,开发区,,42,42,71,9,37,102,,118,118,12,23,6,8,0.5,0.6
2024-09-26T1800,2875A,115.784,32.8892,阜阳市,阜阳职业技术学院,,33,30,55,14,28,104,,120,120,10,20,6,7,0.3,0.5
2024-09-26T1800,3468A,115.7901,32.8613,阜阳市,市规划展馆,,34,28,56,9,33,108,,124,124,12,20,6,8,0.3,0.5
2024-09-26T1800,3469A,115.836,32.9183,阜阳市,枣园社区,,32,18,64,8,38,100,,112,112,12,26,7,10,0.4,0.5
2024-09-26T1800,2669A,102.9099,34.9841,甘南藏族自治州,州政府,,31,11,34,8,17,99,,88,88,2,17,12,11,0.2,0.3
2024-09-26T1800,3380A,102.8914,34.9617,甘南藏族自治州,甘肃民族师范学院,,30,13,38,3,13,93,,84,84,6,24,4,4,0.3,0.4
2024-09-26T1800,2570A,101.9603,30.0475,甘孜藏族自治州,水桥子,,14,14,20,7,7,34,,46,46,24,18,5,6,0.3,0.3
2024-09-26T1800,3065A,101.9533,29.9972,甘孜藏族自治州,州环保局,,20,12,20,3,5,61,,50,50,12,19,3,3,0.2,0.2
2024-09-26T1800,3414A,115.8347,28.932,赣江新区,桑海产业园,,44,44,51,25,27,122,,146,146,18,28,12,13,0.4,0.5
2024-09-26T1800,2362A,114.9017,25.9149,赣州市,通天岩,,28,28,24,13,11,68,,93,93,3,3,5,4,0.3,0.3
2024-09-26T1800,2363A,114.9367,25.8664,赣州市,地委,,23,23,23,12,16,69,,79,79,6,10,6,5,1.1,1
2024-09-26T1800,2364A,114.9461,25.8481,赣州市,气象台,,24,24,26,15,17,64,,80,80,9,9,15,13,0.5,0.5
2024-09-26T1800,2365A,114.9322,25.8333,赣州市,市图书馆,,28,28,25,14,13,71,,86,86,8,11,4,5,0.7,0.6
2024-09-26T1800,2366A,114.8905,25.8471,赣州市,华坚鞋城,,22,22,28,14,14,63,,74,74,9,12,2,3,0.5,0.5
2024-09-26T1800,3109A,115.0093,25.8613,赣州市,赣县区卫计委,,23,20,24,16,15,67,,82,82,8,14,8,6,0.6,0.7
2024-09-26T1800,2683A,106.2319,36.1417,固原市,马园,,34,24,20,7,7,106,,107,107,11,14,6,6,0.6,0.7
2024-09-26T1800,2684A,106.2792,36.0022,固原市,监测站,,35,21,16,8,7,112,,106,106,10,13,3,3,0.2,0.2
2024-09-26T1800,2685A,106.2375,36.0211,固原市,新区,,33,28,17,8,8,104,,104,104,11,11,5,5,0.4,0.4
2024-09-26T1800,3522A,106.2177,35.9959,固原市,原州区十五小,,35,16,15,7,8,110,,106,106,5,8,5,5,0.5,0.5
2024-09-26T1800,2544A,106.6303,30.4576,广安市,市委,臭氧1小时,118,66,97,49,64,236,,200,200,12,21,3,5,0.6,0.7
2024-09-26T1800,2545A,106.6271,30.4663,广安市,友谊中学,臭氧1小时,115,60,84,42,58,229,,199,199,17,22,5,7,0.7,0.8
2024-09-26T1800,2547A,106.6388,30.4551,广安市,广电花园,臭氧1小时,114,64,88,47,57,228,,198,198,17,20,4,5,0.6,0.7
2024-09-26T1800,2902A,106.6351,30.4865,广安市,北辰小学,臭氧1小时,112,74,96,45,60,224,,196,196,13,20,7,10,0.6,0.7
2024-09-26T1800,2524A,105.821,32.4444,广元市,老城,,46,39,37,22,20,147,,125,125,7,40,3,6,1.0,1.2
2024-09-26T1800,2526A,105.8628,32.4287,广元市,监测站,,46,38,33,31,23,146,,49,,8,18,2,4,0.5,0.8
2024-09-26T1800,3617A,105.8047,32.4166,广元市,经开区,细颗粒物(PM2.5),60,61,55,43,36,152,,127,127,6,37,4,14,0.7,1
2024-09-26T1800,1345A,113.2347,23.1423,广州市,广雅中学,,35,27,51,17,31,111,,146,146,24,52,6,8,0.9,1
2024-09-26T1800,1346A,113.2612,23.105,广州市,市五中,,40,27,54,19,36,127,,158,158,13,35,5,7,0.6,0.8
2024-09-26T1800,1348A,113.3478,23.0916,广州市,广东商学院,,42,33,63,19,35,132,,159,159,22,55,5,6,0.7,0.9
2024-09-26T1800,1349A,113.4332,23.1047,广州市,市八十六中,,43,32,56,20,33,137,,161,161,20,51,4,4,0.6,0.7
2024-09-26T1800,1350A,113.3505,22.9483,广州市,番禺中学,,49,32,49,24,30,154,,158,158,22,39,6,6,0.7,0.9
2024-09-26T1800,1351A,113.2146,23.3916,广州市,花都师范,,,18,39,11,23,98,,121,121,7,25,,5,1.0,1
2024-09-26T1800,1352A,113.2597,23.1331,广州市,市监测站,,,34,69,11,39,,,135,,,26,8,7,0.5,0.7
2024-09-26T1800,1353A,113.5618,23.312,广州市,九龙镇镇龙,,39,38,44,27,28,123,,134,134,16,32,7,7,0.7,0.8
2024-09-26T1800,1354A,113.2765,23.1544,广州市,麓湖,,35,27,52,16,32,111,,151,151,17,41,6,6,0.5,0.8
2024-09-26T1800,1355A,113.443,23.3035,广州市,帽峰山森林公园,,39,32,28,23,19,124,,146,146,11,10,6,6,0.7,0.4
2024-09-26T1800,2846A,113.3221,23.1322,广州市,体育西,,37,31,55,17,31,116,,152,152,16,45,6,7,0.7,0.9
2024-09-26T1800,3298A,113.5717,23.5491,广州市,从化街口,,,24,44,18,27,112,,109,109,13,27,,8,0.8,0.9
2024-09-26T1800,3299A,113.3472,23.3692,广州市,白云竹料,,35,35,56,17,34,101,,121,121,17,36,6,5,0.7,0.5
2024-09-26T1800,3300A,113.2981,23.237,广州市,白云嘉禾,,34,34,73,15,34,104,,150,144,23,51,7,8,0.8,1.1
2024-09-26T1800,3301A,113.4256,23.1716,广州市,黄埔科学城,,38,28,44,18,28,120,,150,150,17,30,7,3,0.7,0.8
2024-09-26T1800,3302A,113.3942,23.0483,广州市,番禺大学城,,48,30,51,17,29,153,,161,161,18,44,8,8,0.3,0.5
2024-09-26T1800,3303A,113.4922,22.8168,广州市,南沙黄阁,,49,47,42,14,34,154,,181,181,32,41,5,5,0.6,0.8
2024-09-26T1800,3304A,113.5342,22.7896,广州市,南沙街,臭氧1小时,82,48,40,20,31,185,,183,183,26,34,7,7,0.8,0.9
2024-09-26T1800,3443A,113.2902,23.5544,广州市,花都梯面,,28,22,30,14,17,88,,94,94,7,17,6,6,0.7,0.8
2024-09-26T1800,3445A,113.7858,23.7478,广州市,从化良口,,28,23,20,18,12,87,,87,87,8,10,7,7,0.9,0.8
2024-09-26T1800,3446A,113.8051,23.2614,广州市,增城荔城,,48,45,39,33,28,149,,166,166,15,16,6,6,0.6,0.6
2024-09-26T1800,2506A,109.6047,23.0666,贵港市,江南子站,,41,39,31,26,41,130,,103,103,10,17,7,9,0.8,0.8
2024-09-26T1800,2507A,109.6014,23.0948,贵港市,贵城子站,,41,41,51,17,34,100,,94,94,9,17,7,9,0.7,0.8
2024-09-26T1800,2508A,109.5669,23.1065,贵港市,荷城子站,,31,31,38,14,22,86,,90,89,10,14,9,12,0.6,0.7
2024-09-26T1800,3405A,109.5886,23.1172,贵港市,新世纪学校,,26,24,39,13,24,81,,89,89,5,13,7,9,0.7,0.8
2024-09-26T1800,1439A,106.6899,26.5998,贵阳市,马鞍山,,,29,35,17,18,136,,142,142,11,16,7,7,,0.7
2024-09-26T1800,1440A,106.6971,26.5694,贵阳市,市环保站,颗粒物(PM10),53,56,49,29,32,155,,157,157,28,25,6,6,0.5,0.5
2024-09-26T1800,1441A,106.6243,26.6266,贵阳市,鉴湖路,,45,41,44,27,23,142,,143,143,11,14,8,8,0.5,0.4
2024-09-26T1800,1442A,106.7487,26.6343,贵阳市,燕子冲,,,,33,,28,146,,153,153,18,20,7,7,,0.5
2024-09-26T1800,1443A,106.6555,26.4365,贵阳市,碧云窝,,41,41,49,24,25,120,,140,140,11,15,6,7,0.4,0.4
2024-09-26T1800,1444A,106.694,26.5161,贵阳市,中院村,,46,46,49,24,29,138,,141,141,15,29,8,8,0.6,0.6
2024-09-26T1800,1445A,106.7109,26.6027,贵阳市,红边门,颗粒物(PM10),52,53,48,31,33,154,,149,149,25,26,6,7,0.4,0.5
2024-09-26T1800,1446A,106.7164,26.5699,贵阳市,新华路,颗粒物(PM10),51,51,41,24,27,150,,153,153,27,25,8,8,0.4,0.5
2024-09-26T1800,1447A,106.674,26.5424,贵阳市,太慈桥,颗粒物(PM10),51,51,40,27,24,124,,151,151,33,20,8,5,0.5,0.4
2024-09-26T1800,1862A,110.4144,25.3167,桂林市,电子科大尧山校区,,39,34,48,27,32,114,,115,115,5,8,3,6,0.6,0.7
2024-09-26T1800,1863A,110.2819,25.2697,桂林市,监测站,细颗粒物(PM2.5),53,43,56,37,44,114,,122,122,8,12,8,15,0.7,0.8
2024-09-26T1800,1864A,110.3089,25.2708,桂林市,龙隐路小学,,50,42,49,35,40,110,,131,131,10,10,7,15,0.6,0.6
2024-09-26T1800,1865A,110.2869,25.2178,桂林市,八中,,41,41,48,28,37,96,,110,110,10,12,7,12,0.4,0.5
2024-09-26T1800,3403A,110.1764,25.2381,桂林市,创业大厦,,35,34,49,24,39,92,,96,96,7,14,6,10,0.6,0.6
2024-09-26T1800,3531A,110.296,25.1253,桂林市,旅游学院,,26,22,36,17,30,82,,102,102,7,10,17,9,0.4,0.4
2024-09-26T1800,2674A,100.2561,34.4714,果洛藏族自治州,玛沁县大武镇,,31,19,21,7,11,98,,94,94,1,6,8,8,0.4,0.4
2024-09-26T1800,1129A,126.5422,45.755,哈尔滨市,岭北,,13,9,30,6,23,6,,6,6,25,31,6,8,0.7,0.9
2024-09-26T1800,1130A,126.561,45.8167,哈尔滨市,松北商大,,,,52,10,25,51,,78,78,28,31,8,8,0.5,0.6
2024-09-26T1800,1131A,126.979,45.5419,哈尔滨市,阿城会宁,,23,23,29,8,18,66,,80,80,20,21,11,12,0.5,0.6
2024-09-26T1800,1132A,126.599,45.7222,哈尔滨市,南岗学府路,,35,35,71,10,32,58,,82,82,31,37,7,6,0.5,0.9
2024-09-26T1800,1133A,126.689,45.7733,哈尔滨市,太平宏伟公园,,34,34,76,18,29,42,,74,74,41,40,6,7,0.5,0.7
2024-09-26T1800,1134A,126.635,45.7667,哈尔滨市,道外承德广场,,36,36,52,21,23,46,,74,74,45,47,6,7,0.6,0.7
2024-09-26T1800,1135A,126.685,45.7319,哈尔滨市,香坊红旗大街,,,,71,11,39,53,,77,77,34,47,10,14,0.7,1
2024-09-26T1800,1136A,126.6411,45.7258,哈尔滨市,动力和平路,,21,21,60,8,40,53,,79,79,34,42,8,8,0.5,0.8
2024-09-26T1800,1137A,126.593,45.7478,哈尔滨市,道里建国路,,27,27,51,11,26,62,,82,82,29,45,13,15,0.3,0.7
2024-09-26T1800,1138A,126.615,45.61,哈尔滨市,平房东轻厂,,48,48,47,15,19,33,,72,67,61,56,7,7,0.5,0.6
2024-09-26T1800,1139A,126.595,45.9855,哈尔滨市,呼兰师专,,23,23,24,14,18,48,,71,70,41,28,6,6,0.6,0.6
2024-09-26T1800,1140A,126.6206,45.6842,哈尔滨市,省农科院,,50,50,82,14,35,28,,72,72,63,58,4,6,0.6,0.9
2024-09-26T1800,2688A,93.5128,42.8172,哈密市,地区监测站,,44,44,86,15,25,113,,110,110,7,38,4,7,0.2,0.3
2024-09-26T1800,2689A,93.4961,42.8328,哈密市,哈密师范学校,,38,27,66,18,23,121,,110,110,5,36,4,6,0.2,0.6
2024-09-26T1800,2671A,100.9048,36.9639,海北藏族自治州,海晏县西海镇,,32,14,23,13,15,102,,95,95,2,8,10,14,0.3,0.4
2024-09-26T1800,3867A,102.0738,36.5056,海东市,平安区公安北苑,颗粒物(PM10),55,59,40,13,14,124,,108,108,12,12,10,11,0.5,0.4
2024-09-26T1800,1410A,110.3232,20.0574,海口市,海南大学,,33,19,29,14,20,104,,116,116,14,20,3,3,0.4,0.5
2024-09-26T1800,1411A,110.283,20.0053,海口市,秀英海南医院,,,25,29,20,20,109,,119,119,,18,5,5,0.5,0.5
2024-09-26T1800,1412A,110.338,19.9969,海口市,海南师范大学,,,18,27,13,18,102,,112,112,,17,6,6,0.4,0.5
2024-09-26T1800,3539A,110.5111,19.9736,海口市,桂林洋子站,,33,13,34,8,21,103,,109,109,5,14,6,6,0.3,0.4
2024-09-26T1800,2673A,100.6188,36.2866,海南藏族自治州,共和县恰卜恰镇,,30,23,38,7,15,95,,88,88,3,9,9,12,0.4,0.5
2024-09-26T1800,2676A,97.3731,37.3753,海西蒙古族藏族自治州,德令哈市,,34,31,35,11,15,106,,101,101,6,6,9,10,0.4,0.4
2024-09-26T1800,1048A,114.5302,36.6116,邯郸市,东污水处理厂,"颗粒物(PM10),细颗粒物(PM2.5)",73,96,127,53,99,172,,157,157,28,30,5,4,0.5,0.7
2024-09-26T1800,1049A,114.4918,36.5713,邯郸市,矿院,细颗粒物(PM2.5),77,90,142,56,102,179,,158,158,18,23,7,5,0.4,0.6
2024-09-26T1800,1050A,114.484,36.6133,邯郸市,丛台公园,臭氧1小时,73,83,134,50,92,178,,157,157,18,24,6,5,0.5,0.7
2024-09-26T1800,3458A,114.7895,36.5593,邯郸市,香泉濮院小区,臭氧1小时,93,83,151,46,96,194,,169,169,19,35,7,5,0.4,0.7
2024-09-26T1800,3579A,114.50634,36.77178,邯郸市,永年区实验高中,,,126,155,58,92,176,,180,180,38,37,,5,0.7,0.9
2024-09-26T1800,3580A,114.20016,36.44293,邯郸市,峰峰矿区临水派出所,颗粒物(PM10),81,112,123,56,70,173,,183,182,24,15,5,6,0.8,0.9
2024-09-26T1800,2634A,106.9893,33.1842,汉中市,汉川机床厂子校,,42,34,38,24,26,132,,134,134,7,10,5,6,0.5,0.5
2024-09-26T1800,2635A,107.0154,33.0706,汉中市,市监测站,,46,34,63,25,39,146,,141,141,6,20,8,10,0.6,0.7
2024-09-26T1800,2636A,107.0089,33.1138,汉中市,鑫源开发区,,45,37,53,22,34,144,,139,139,9,25,10,13,0.4,0.6
2024-09-26T1800,2637A,107.007,33.0323,汉中市,南郑大河坎水厂,,45,33,52,23,36,144,,141,141,8,15,9,9,0.6,0.7
2024-09-26T1800,1223A,120.2072,30.2111,杭州市,滨江,,,21,71,14,39,55,,64,64,,32,,5,0.8,0.9
2024-09-26T1800,1224A,120.0633,30.2747,杭州市,西溪,,46,46,64,30,43,54,,61,61,30,32,5,6,0.9,0.9
2024-09-26T1800,1226A,120.3461,30.3153,杭州市,下沙,,31,31,64,11,38,86,,74,74,41,45,6,6,0.6,1
2024-09-26T1800,1227A,120.1269,30.2456,杭州市,卧龙桥,,39,33,52,27,43,49,,63,61,27,25,6,5,0.7,0.7
2024-09-26T1800,1228A,120.1903,30.2692,杭州市,浙江农大,,28,28,59,14,44,41,,54,54,46,39,8,8,0.6,0.7
2024-09-26T1800,1230A,120.1197,30.3119,杭州市,和睦小学,,40,40,63,26,39,65,,72,72,37,38,5,6,0.8,0.8
2024-09-26T1800,1231A,120.3019,30.4183,杭州市,临平镇,,28,28,88,8,35,78,,79,79,28,26,5,5,0.7,1
2024-09-26T1800,1232A,120.2697,30.1819,杭州市,城厢镇,,30,30,63,14,47,40,,70,66,56,36,6,6,0.8,0.9
2024-09-26T1800,1233A,120.0883,30.1808,杭州市,云栖,,26,26,51,16,37,29,,47,45,28,27,7,7,0.7,0.9
2024-09-26T1800,3557A,119.9464,30.0494,杭州市,镇二中,,48,44,70,33,48,67,,92,92,38,32,8,8,1.0,0.9
2024-09-26T1800,3558A,119.7183,30.2367,杭州市,市府大楼,,33,29,73,23,50,77,,115,112,30,25,6,6,0.9,0.9
2024-09-26T1800,3656A,120.1556,30.2864,杭州市,消防大队,,32,32,66,20,44,55,,69,69,33,33,8,8,0.8,0.9
2024-09-26T1800,1270A,117.1959,31.7848,合肥市,明珠广场,细颗粒物(PM2.5),55,51,67,39,35,128,,141,141,21,49,6,9,1.1,1
2024-09-26T1800,1271A,117.3072,31.8764,合肥市,三里街,,27,27,55,17,30,83,,116,116,15,36,7,10,0.5,0.6
2024-09-26T1800,1272A,117.2588,31.8707,合肥市,琥珀山庄,,42,31,57,29,39,98,,132,132,17,45,7,8,0.6,0.7
2024-09-26T1800,1273A,117.1604,31.9052,合肥市,董铺水库,,32,31,64,22,33,97,,120,120,12,30,3,4,0.5,0.5
2024-09-26T1800,1274A,117.25,31.8571,合肥市,长江中路,,48,48,72,31,40,100,,130,130,18,44,7,9,0.7,0.8
2024-09-26T1800,1275A,117.266,31.9436,合肥市,庐阳区,,34,34,74,17,37,92,,125,125,16,48,4,6,0.6,0.6
2024-09-26T1800,1276A,117.336,31.8586,合肥市,瑶海区,,39,39,65,17,36,86,,120,120,18,41,3,6,0.6,0.7
2024-09-26T1800,1277A,117.3027,31.7964,合肥市,包河区,,41,41,65,22,38,96,,126,122,22,80,1,13,0.9,0.8
2024-09-26T1800,1278A,117.2776,31.7385,合肥市,滨湖新区,细颗粒物(PM2.5),55,58,59,39,30,140,,136,136,13,41,6,7,0.9,0.7
2024-09-26T1800,1279A,117.1318,31.8403,合肥市,高新区,,48,48,61,32,40,120,,131,131,19,46,8,9,1.0,0.9
2024-09-26T1800,3464A,117.3803,31.9147,合肥市,高教基地,,26,26,53,16,36,82,,114,114,11,26,4,5,0.4,0.4
2024-09-26T1800,3614A,79.924,37.0877,和田地区,地区环保局,,,,316,,105,107,,88,88,6,17,,9,0.5,0.7
2024-09-26T1800,3615A,79.9131,37.113,和田地区,市环保局,颗粒物(PM10),143,236,333,82,99,110,,90,90,5,28,7,8,0.3,0.6
2024-09-26T1800,2516A,108.2011,24.715,河池市,东仁乐园,细颗粒物(PM2.5),55,55,55,39,39,106,,106,106,6,14,7,6,0.7,0.7
2024-09-26T1800,2517A,108.0497,24.6947,河池市,市环保站,,,,32,,32,,,,,,17,,11,,0.6
2024-09-26T1800,2518A,108.0983,24.6989,河池市,市疾控中心,,44,44,63,28,45,114,,110,110,8,20,18,13,0.6,0.7
2024-09-26T1800,1696A,114.6778,23.7569,河源市,源西,,39,,32,27,23,71,,96,96,10,20,4,4,0.7,0.8
2024-09-26T1800,1697A,114.6944,23.7586,河源市,东埔,,25,23,30,16,18,80,,105,105,11,26,2,3,0.7,0.8
2024-09-26T1800,1698A,114.6892,23.7233,河源市,老城,,26,19,34,18,20,81,,113,113,6,17,2,3,0.7,0.7
2024-09-26T1800,1718A,115.4208,35.2464,菏泽市,气象局,臭氧1小时,109,153,114,68,54,217,,229,229,29,36,10,9,0.6,0.5
2024-09-26T1800,1719A,115.4747,35.2375,菏泽市,市政协,臭氧1小时,110,144,103,61,50,219,,220,220,29,37,9,10,0.5,0.5
2024-09-26T1800,3374A,115.5564,35.0891,菏泽市,定陶老年大学,颗粒物(PM10),57,63,81,29,39,155,,196,189,16,25,8,11,0.5,0.5
2024-09-26T1800,3647A,115.4702,35.2706,菏泽市,菏泽医专,臭氧1小时,109,147,115,67,61,217,,230,230,30,43,12,13,0.8,0.7
2024-09-26T1800,2514A,111.5264,24.4172,贺州市,环保小区,,,,34,,21,72,,72,72,,17,6,4,0.7,0.9
2024-09-26T1800,2515A,111.5608,24.4078,贺州市,政协大楼,,24,24,40,11,21,73,,79,79,14,20,6,6,0.7,0.8
2024-09-26T1800,3534A,111.4744,24.4553,贺州市,西湾,,21,20,28,12,21,65,,70,70,6,13,4,4,0.6,0.6
2024-09-26T1800,2385A,114.17,35.9019,鹤壁市,市监测站,细颗粒物(PM2.5),107,120,122,80,84,202,,202,202,36,24,11,12,1.9,1.5
2024-09-26T1800,2386A,114.2956,35.7511,鹤壁市,市交警支队,臭氧1小时,95,116,129,59,79,196,,197,197,30,33,7,9,0.7,1.3
2024-09-26T1800,2387A,114.2878,35.7306,鹤壁市,迎宾馆,臭氧1小时,105,114,148,66,93,210,,202,202,29,32,9,13,0.8,1.3
2024-09-26T1800,3474A,114.2617,35.6822,鹤壁市,大新区,臭氧1小时,105,92,109,53,75,210,,196,196,25,28,12,15,0.7,1.2
2024-09-26T1800,3596A,114.1572,35.9603,鹤壁市,南山宾馆,"细颗粒物(PM2.5),臭氧1小时",98,124,136,73,86,198,,203,203,26,20,8,9,0.9,1.4
2024-09-26T1800,2244A,130.2537,47.3416,鹤岗市,哈啤分公司,,33,26,15,23,16,25,,67,63,6,6,14,14,0.8,0.6
2024-09-26T1800,2245A,130.2684,47.3086,鹤岗市,斯达机电,,26,26,20,15,14,41,,67,65,29,8,13,12,0.2,0.3
2024-09-26T1800,2246A,130.3114,47.3388,鹤岗市,东山纸板厂,,47,47,20,16,13,33,,66,62,22,6,16,17,0.4,0.3
2024-09-26T1800,2247A,130.1097,47.3382,鹤岗市,五号水库,,12,,12,8,6,37,,73,67,8,4,7,14,0.4,0.5
2024-09-26T1800,2263A,127.4833,50.2524,黑河市,交通局,,45,42,25,31,18,54,,73,73,30,11,7,8,0.6,0.4
2024-09-26T1800,2264A,127.5144,50.2341,黑河市,环保局,,31,31,23,20,18,74,,72,72,16,9,4,7,0.5,0.4
2024-09-26T1800,2265A,127.5291,50.2472,黑河市,大黑河岛,,,,,23,18,69,,69,69,18,11,2,2,0.1,0.2
2024-09-26T1800,1074A,115.6838,37.7541,衡水市,电机北厂,颗粒物(PM10),57,64,106,38,80,150,,163,163,12,24,6,9,0.5,0.5
2024-09-26T1800,1075A,115.6303,37.7316,衡水市,市监测站,颗粒物(PM10),62,74,101,34,68,142,,173,170,20,23,7,10,0.6,0.6
2024-09-26T1800,3188A,115.6683,37.7217,衡水市,市城管局,细颗粒物(PM2.5),68,69,103,49,71,167,,176,176,13,22,8,11,0.5,0.6
2024-09-26T1800,3459A,115.5989,37.5491,衡水市,地表水厂,细颗粒物(PM2.5),59,60,95,42,58,141,,164,164,11,27,5,7,0.5,0.6
2024-09-26T1800,2456A,112.5003,26.9167,衡阳市,原169医院,颗粒物(PM10),57,63,68,38,49,91,,89,89,12,16,4,14,0.9,0.8
2024-09-26T1800,2457A,112.6194,26.9258,衡阳市,衡阳化工总厂,颗粒物(PM10),54,57,68,34,56,89,,104,104,10,13,8,12,0.7,0.8
2024-09-26T1800,2458A,112.6211,26.8956,衡阳市,珠晖区环保局,,,48,58,,54,89,,97,96,12,10,8,11,0.6,0.9
2024-09-26T1800,2459A,112.6197,26.8733,衡阳市,市委党校,细颗粒物(PM2.5),94,,55,70,44,95,,95,95,10,10,8,11,0.8,0.8
2024-09-26T1800,2460A,112.6006,26.8919,衡阳市,市监测站,,45,39,56,31,43,95,,98,98,7,11,7,14,0.8,1
2024-09-26T1800,2461A,112.5664,26.9056,衡阳市,真空机电公司,细颗粒物(PM2.5),52,49,69,36,48,88,,98,96,10,16,7,20,0.9,1.1
2024-09-26T1800,3399A,112.6703,26.882,衡阳市,师范学院,,41,41,59,28,32,90,,89,89,14,14,8,10,0.8,0.9
2024-09-26T1800,2608A,103.3772,23.3993,红河哈尼族彝族自治州,污水处理厂,,43,,28,30,26,69,,87,87,7,8,4,9,0.4,0.5
2024-09-26T1800,2609A,103.3861,23.35,红河哈尼族彝族自治州,监测站,,40,30,35,28,27,73,,93,93,8,6,13,9,0.5,0.5
2024-09-26T1800,3038A,103.3758,23.368,红河哈尼族彝族自治州,州图书馆,,22,22,30,15,19,67,,86,86,6,6,6,7,0.3,0.4
2024-09-26T1800,1090A,111.6507,40.7517,呼和浩特市,呼市一监,,48,48,42,16,13,130,,126,126,12,30,7,7,0.5,0.6
2024-09-26T1800,1091A,111.6572,40.8033,呼和浩特市,小召,颗粒物(PM10),51,51,39,22,18,128,,123,123,24,37,8,7,0.7,0.5
2024-09-26T1800,1094A,111.7516,40.8369,呼和浩特市,如意水处理厂,颗粒物(PM10),55,60,38,26,14,136,,122,122,17,34,9,7,0.6,0.5
2024-09-26T1800,1095A,111.7276,40.8062,呼和浩特市,二十九中,颗粒物(PM10),55,59,37,24,17,140,,125,125,22,35,7,6,0.7,0.6
2024-09-26T1800,1096A,111.5512,40.7866,呼和浩特市,工大金川校区,颗粒物(PM10),68,86,46,32,19,100,,109,109,44,43,6,4,0.7,0.5
2024-09-26T1800,1097A,111.717,40.7612,呼和浩特市,化肥厂生活区,,45,45,44,16,15,126,,124,124,17,33,10,9,0.6,0.7
2024-09-26T1800,3698A,111.5968,40.8178,呼和浩特市,红旗小学,颗粒物(PM10),64,78,48,25,20,135,,124,124,31,47,8,5,0.7,0.5
2024-09-26T1800,3699A,111.6518,40.8389,呼和浩特市,海东办,颗粒物(PM10),56,61,45,27,20,140,,126,126,21,45,7,6,0.6,0.5
2024-09-26T1800,2192A,119.7594,49.2261,呼伦贝尔市,区环保局,,32,32,49,13,35,69,,84,84,29,25,4,5,0.5,0.6
2024-09-26T1800,3061A,119.7512,49.1577,呼伦贝尔市,国华电力东,,26,26,45,16,31,70,,92,92,25,12,4,3,0.4,0.4
2024-09-26T1800,1250A,120.0751,30.8669,湖州市,城西水厂,,31,12,59,8,45,99,,74,74,23,42,5,5,0.3,0.6
2024-09-26T1800,2873A,120.0875,30.8955,湖州市,仁皇山新区,,30,13,54,8,42,96,,76,76,21,27,7,7,0.6,0.8
2024-09-26T1800,2907A,120.1844,30.8596,湖州市,吴兴区站,,27,18,50,9,35,84,,90,89,28,20,6,6,0.7,0.8
2024-09-26T1800,3562A,120.4148,30.8538,湖州市,南浔区站,,23,13,38,6,31,73,,78,78,29,24,8,8,0.6,0.7
2024-09-26T1800,1607A,120.9092,40.7136,葫芦岛市,龙港区,,32,18,40,9,18,102,,98,98,10,35,13,38,0.4,0.8
2024-09-26T1800,1608A,120.8392,40.7514,葫芦岛市,化工街,,30,22,55,7,20,93,,100,99,20,35,16,87,0.4,0.5
2024-09-26T1800,1609A,120.8341,40.7073,葫芦岛市,新区,,33,32,40,3,22,105,,102,102,15,40,10,19,0.4,0.5
2024-09-26T1800,1610A,120.8695,40.7677,葫芦岛市,东城区,,30,,47,11,19,94,,100,100,20,32,12,61,0.2,0.4
2024-09-26T1800,2482A,109.5981,27.5721,怀化市,林科所,,42,34,44,19,25,133,,144,144,11,21,5,7,0.6,0.6
2024-09-26T1800,2483A,109.9453,27.5444,怀化市,河西地税局,,46,45,51,32,33,137,,147,147,16,18,9,9,0.6,0.7
2024-09-26T1800,2484A,109.9781,27.5342,怀化市,市四医院,,45,45,68,30,38,133,,141,141,3,22,8,12,0.6,0.6
2024-09-26T1800,2485A,109.9972,27.5578,怀化市,监测楼,,44,40,61,28,36,138,,146,146,9,22,8,10,0.5,0.6
2024-09-26T1800,2486A,110.0394,27.583,怀化市,市委党校,,45,45,66,26,39,127,,138,138,9,24,9,18,0.5,0.6
2024-09-26T1800,1210A,119.036,33.5981,淮安市,钵池山,,48,36,28,21,18,152,,149,149,9,19,5,5,0.6,0.5
2024-09-26T1800,1211A,119.007,33.575,淮安市,北京南路,,47,39,30,22,18,150,,150,150,13,17,6,7,0.5,0.4
2024-09-26T1800,1212A,118.989,33.6067,淮安市,市监测站,臭氧1小时,55,44,28,24,17,164,,162,162,21,24,7,7,0.5,0.5
2024-09-26T1800,1213A,119.135,33.5039,淮安市,楚州区监测站,颗粒物(PM10),52,54,33,25,13,140,,141,140,13,19,6,6,0.6,0.7
2024-09-26T1800,1214A,119.0186,33.6297,淮安市,淮阴区监测站,颗粒物(PM10),51,51,33,21,17,151,,156,156,25,26,2,4,0.5,0.4
2024-09-26T1800,3426A,118.8755,33.2894,淮安市,新华书店,,44,37,28,17,12,140,,140,140,17,19,7,7,0.7,0.6
2024-09-26T1800,2282A,116.8004,33.975,淮北市,监测站,臭氧1小时,53,50,50,22,28,162,,145,145,14,17,7,7,0.6,0.6
2024-09-26T1800,2283A,116.8091,33.9007,淮北市,烈山区政府,臭氧1小时,67,61,51,27,28,173,,155,155,15,15,6,6,0.5,0.5
2024-09-26T1800,3330A,116.8873,33.9836,淮北市,杜集区检察院,臭氧1小时,80,49,60,23,38,184,,163,163,3,12,9,8,0.6,0.7
2024-09-26T1800,4017A,116.7923,33.9535,淮北市,市博物馆,臭氧1小时,73,48,44,24,28,178,,154,154,12,16,6,6,0.7,0.7
2024-09-26T1800,2277A,116.8305,32.7727,淮南市,潘集区政府,,39,39,65,11,42,66,,70,70,16,28,6,7,0.3,0.4
2024-09-26T1800,2278A,117.0067,32.6524,淮南市,师范学院,,32,32,68,13,44,84,,85,85,9,23,7,8,0.4,0.5
2024-09-26T1800,2279A,116.8569,32.5951,淮南市,谢家集区政府,,26,26,59,12,39,77,,88,88,14,24,6,10,0.2,0.4
2024-09-26T1800,2280A,116.8281,32.633,淮南市,八公山区政府,,31,31,68,13,40,79,,87,87,10,19,10,11,0.2,0.4
2024-09-26T1800,2281A,116.6325,32.6201,淮南市,焦岗湖风景区管理处,,25,16,64,6,28,78,,96,96,7,19,5,5,0.0,0.1
2024-09-26T1800,2894A,117.0566,32.6531,淮南市,经济技术开发区消防队,,,25,56,,21,75,,82,82,16,30,4,6,0.3,0.3
2024-09-26T1800,3329A,117.0108,32.5893,淮南市,山南新区,,34,34,58,3,28,83,,92,92,16,19,4,6,0.4,0.6
2024-09-26T1800,2446A,114.9028,30.4742,黄冈市,职工中心,臭氧1小时,80,64,70,35,45,184,,192,192,14,16,10,10,0.6,0.7
2024-09-26T1800,2929A,114.8858,30.4519,黄冈市,红卫路,臭氧1小时,73,65,66,36,40,178,,176,176,23,28,10,11,0.7,0.9
2024-09-26T1800,3398A,114.9136,30.4445,黄冈市,市林业局,臭氧1小时,87,70,88,18,36,189,,191,191,22,28,10,11,0.6,0.8
2024-09-26T1800,2672A,102.0199,35.5102,黄南藏族自治州,同仁县隆务镇,,37,37,30,9,9,95,,84,84,12,6,9,8,0.4,0.3
2024-09-26T1800,2295A,118.2903,29.6963,黄山市,延安路89号,颗粒物(PM10),56,62,46,29,14,60,,82,82,10,11,6,6,0.5,0.4
2024-09-26T1800,2296A,118.327,29.7178,黄山市,黄山东路89号,颗粒物(PM10),53,55,38,27,18,76,,91,89,10,11,4,5,0.6,0.4
2024-09-26T1800,2297A,118.1371,30.2756,黄山市,黄山区政府5号楼,,37,37,35,19,23,68,,80,80,9,8,7,6,0.5,0.5
2024-09-26T1800,2423A,115.0601,30.2313,黄石市,沈家营,臭氧1小时,65,41,57,28,28,172,,178,178,15,25,12,19,0.6,0.7
2024-09-26T1800,2424A,115.0817,30.2006,黄石市,陈家湾,臭氧1小时,53,46,49,31,26,162,,180,180,25,15,12,11,0.9,0.9
2024-09-26T1800,2426A,114.8988,30.2019,黄石市,铁山,臭氧1小时,82,51,52,31,32,185,,194,194,8,18,16,11,0.6,0.7
2024-09-26T1800,2427A,115.0307,30.2092,黄石市,团城山,臭氧1小时,75,41,50,23,24,180,,188,188,13,15,11,12,0.6,0.7
2024-09-26T1800,3149A,115.0235,30.1578,黄石市,笔架山北路,臭氧1小时,73,45,44,22,24,178,,186,186,8,12,10,12,0.7,0.8
2024-09-26T1800,1392A,114.4183,23.0528,惠州市,河南岸金山湖子站,臭氧1小时,103,61,35,45,24,206,,181,181,24,18,5,4,0.8,0.6
2024-09-26T1800,1393A,114.4053,23.0822,惠州市,下埔横江三路子站,臭氧1小时,116,54,39,34,22,232,,196,196,16,17,4,4,0.8,0.8
2024-09-26T1800,1394A,114.4103,23.1142,惠州市,江北云山西路子站,臭氧1小时,114,49,37,30,17,227,,191,191,14,16,5,6,0.7,0.7
2024-09-26T1800,1395A,114.4645,22.7833,惠州市,惠阳区承修路船湖子站,臭氧1小时,78,44,34,30,19,182,,152,152,22,28,6,6,0.8,0.8
2024-09-26T1800,1396A,114.5317,22.7422,惠州市,大亚湾管委会子站,臭氧1小时,83,38,29,28,15,186,,145,145,22,28,7,7,0.7,0.7
2024-09-26T1800,3314A,114.4338,22.8134,惠州市,惠阳秋长,臭氧1小时,82,48,38,36,21,185,,164,164,25,30,5,6,0.6,0.8
2024-09-26T1800,3452A,114.6517,22.775,惠州市,大亚湾霞涌,臭氧1小时,53,,20,18,14,162,,135,135,8,12,4,4,0.6,0.7
2024-09-26T1800,2240A,130.9762,45.3001,鸡西市,环保局,,17,17,17,3,8,52,,65,63,12,5,5,5,0.2,0.1
2024-09-26T1800,2243A,130.9429,45.3039,鸡西市,第一中学,,21,10,17,8,7,67,,69,69,4,5,4,4,0.1,0.1
2024-09-26T1800,3707A,131.0207,45.3073,鸡西市,欧美日汽修厂,,26,26,18,14,10,59,,68,67,14,14,4,6,0.2,0.1
2024-09-26T1800,3709A,130.9967,45.3106,鸡西市,市政设施管理处,,24,24,22,9,9,47,,62,59,21,15,6,6,0.3,0.2
2024-09-26T1800,2367A,114.9754,27.0803,吉安市,红声器材厂,,38,38,35,23,20,75,,76,76,14,14,10,9,0.5,0.7
2024-09-26T1800,2368A,114.9658,27.0999,吉安市,市森林工业局,,40,39,33,28,26,72,,76,76,20,19,27,11,0.7,0.6
2024-09-26T1800,2369A,114.99,27.1312,吉安市,市环境监测站,,36,36,30,22,18,74,,81,81,17,13,33,15,0.7,0.7
2024-09-26T1800,2370A,115.0093,27.0968,吉安市,青原区法院,,36,36,31,21,23,75,,75,75,14,15,13,13,0.7,0.8
2024-09-26T1800,1772A,126.54,43.8622,吉林市,哈达湾,,25,18,26,13,15,80,,87,87,24,23,5,6,0.5,0.6
2024-09-26T1800,1773A,126.5844,43.8358,吉林市,东局子,,25,24,21,17,12,74,,95,95,25,19,4,4,0.6,0.6
2024-09-26T1800,1774A,126.5052,43.8245,吉林市,电力学院,,33,32,30,23,17,72,,87,87,22,18,5,3,0.6,0.6
2024-09-26T1800,1775A,126.6133,43.8972,吉林市,江北,颗粒物(PM10),58,66,28,37,16,56,,86,86,24,17,6,6,0.8,0.6
2024-09-26T1800,1776A,126.555,43.8306,吉林市,江南公园,,32,30,34,22,18,77,,86,86,24,21,6,6,0.6,0.7
2024-09-26T1800,1778A,126.7061,43.7133,吉林市,丰满,,26,10,8,6,6,83,,86,86,5,4,5,5,0.6,0.7
2024-09-26T1800,2868A,126.4739,43.953,吉林市,九站,,35,35,42,19,22,58,,80,80,38,25,21,14,0.6,0.7
2024-09-26T1800,1299A,116.9862,36.6114,济南市,科干所,臭氧1小时,95,134,120,59,56,196,,206,206,39,56,12,9,1.1,1
2024-09-26T1800,1300A,116.9376,36.665,济南市,农科所,颗粒物(PM10),84,117,147,61,70,184,,200,200,41,76,12,9,0.8,0.9
2024-09-26T1800,1301A,117.1265,36.6734,济南市,开发区,颗粒物(PM10),75,100,114,46,55,179,,215,215,35,55,12,8,0.8,0.8
2024-09-26T1800,1303A,117.0624,36.6868,济南市,省种子仓库,颗粒物(PM10),80,110,138,48,68,176,,214,214,33,61,11,9,0.6,0.7
2024-09-26T1800,1305A,117.0495,36.663,济南市,市监测站,细颗粒物(PM2.5),80,103,117,59,64,183,,216,216,44,65,13,9,1.0,1
2024-09-26T1800,1306A,116.7675,36.5484,济南市,长清党校,臭氧1小时,109,137,102,68,50,217,,205,205,33,44,12,9,0.9,0.9
2024-09-26T1800,1616A,117.6795,36.229,济南市,技术学院,臭氧1小时,102,112,93,63,52,204,,219,219,25,37,13,12,1.0,0.9
2024-09-26T1800,1961A,117.532,36.6868,济南市,东山小学,颗粒物(PM10),59,68,131,27,63,166,,220,220,29,51,4,8,0.5,0.8
2024-09-26T1800,3059A,117.7161,36.2049,济南市,泰兴公司,臭氧1小时,99,105,81,51,44,199,,209,209,26,49,12,11,0.7,0.6
2024-09-26T1800,3064A,117.6867,36.2171,济南市,莱芜战役纪念馆,臭氧1小时,92,112,86,51,45,193,,210,210,36,37,8,6,0.8,0.8
2024-09-26T1800,3494A,117.1673,36.9782,济南市,济阳区政府,颗粒物(PM10),63,76,101,24,61,150,,198,198,28,20,13,13,0.7,0.8
2024-09-26T1800,3495A,117.1171,36.63,济南市,锦屏中学,臭氧1小时,97,98,76,54,46,197,,221,221,34,32,11,7,0.8,0.7
2024-09-26T1800,3682A,116.9814,36.6819,济南市,济南四建,颗粒物(PM10),74,97,123,44,61,175,,200,200,42,74,10,8,0.9,1
2024-09-26T1800,1653A,116.6251,35.4302,济宁市,火炬城,臭氧1小时,106,68,78,31,44,212,,206,206,18,34,12,11,0.7,0.9
2024-09-26T1800,1655A,116.5491,35.4042,济宁市,电化厂,颗粒物(PM10),64,77,99,27,40,163,,183,183,31,51,14,15,0.8,0.3
2024-09-26T1800,3500A,116.5814,35.3707,济宁市,北湖一中,颗粒物(PM10),54,57,71,31,44,159,,187,183,32,37,6,5,0.6,0.6
2024-09-26T1800,3501A,116.8249,35.5593,济宁市,服务中心,臭氧1小时,70,84,98,47,51,176,,196,196,38,53,12,10,0.7,0.7
2024-09-26T1800,3678A,116.5907,35.4054,济宁市,市第七中学,臭氧1小时,83,37,78,29,46,186,,200,200,18,41,10,11,0.7,0.9
2024-09-26T1800,2255A,130.2751,46.8028,佳木斯市,佳纺,,24,23,12,12,6,12,,60,54,48,10,5,4,0.8,0.5
2024-09-26T1800,2256A,130.3995,46.8307,佳木斯市,发电厂,,18,,7,12,6,42,,65,62,6,5,5,6,0.6,0.6
2024-09-26T1800,2257A,130.3258,46.7975,佳木斯市,环保局,,16,12,9,7,6,32,,65,62,32,9,7,8,0.6,0.5
2024-09-26T1800,2258A,130.3648,46.8032,佳木斯市,十一中,,16,16,10,3,6,50,,70,66,22,12,6,7,0.5,0.5
2024-09-26T1800,2259A,130.3794,46.7588,佳木斯市,四丰,,20,20,9,3,4,32,,56,52,34,15,1,1,0.4,0.3
2024-09-26T1800,1252A,120.7436,30.778,嘉兴市,清河小学,,22,9,33,6,19,68,,74,74,28,29,4,4,0.6,0.8
2024-09-26T1800,1253A,120.726,30.7478,嘉兴市,嘉兴学院,,21,16,39,3,33,67,,71,71,24,26,3,3,0.4,0.6
2024-09-26T1800,2872A,120.7846,30.7525,嘉兴市,南湖区残联,,23,18,33,3,26,73,,80,80,33,31,5,5,0.4,0.6
2024-09-26T1800,3407A,120.6916,30.7739,嘉兴市,秀洲住建,,23,14,31,9,19,44,,65,65,46,39,5,5,0.6,0.8
2024-09-26T1800,1945A,98.2908,39.7711,嘉峪关市,气象局,,41,41,58,14,18,109,,108,108,5,18,8,9,0.1,0.2
2024-09-26T1800,2884A,98.2672,39.7978,嘉峪关市,酒钢宾馆,,41,41,59,12,20,113,,113,113,7,16,9,12,0.3,0.3
2024-09-26T1800,3248A,98.2643,39.7724,嘉峪关市,雄关区,,40,40,51,12,20,107,,103,103,6,20,10,9,0.3,0.3
2024-09-26T1800,1383A,113.1064,22.6058,江门市,北街,,39,30,41,17,28,123,,116,116,14,21,5,5,0.8,1
2024-09-26T1800,1384A,113.0731,22.5835,江门市,西区,,41,41,45,22,25,113,,111,111,22,29,6,6,0.6,0.7
2024-09-26T1800,1385A,113.0219,22.5311,江门市,圭峰西,,32,28,36,18,24,100,,106,106,9,13,4,4,0.7,0.8
2024-09-26T1800,1386A,113.0828,22.5947,江门市,东湖,,34,29,40,22,24,108,,107,107,15,21,5,5,0.6,0.7
2024-09-26T1800,3311A,113.1075,22.5647,江门市,江海富民,,40,38,46,22,31,126,,121,121,17,21,6,7,0.7,0.7
2024-09-26T1800,3449A,113.05,22.4667,江门市,新会银湖,,36,36,35,20,27,95,,109,109,8,16,5,4,0.9,1
2024-09-26T1800,1828A,113.227,35.2125,焦作市,市环保局,臭氧1小时,100,111,145,61,91,200,,182,182,24,27,9,14,0.7,1.1
2024-09-26T1800,1830A,113.1992,35.2590,焦作市,影视城,臭氧1小时,109,103,104,76,70,218,,184,184,27,21,12,12,3.0,1.7
2024-09-26T1800,3169A,113.2725,35.2067,焦作市,太极体育中心,颗粒物(PM10),91,131,154,56,74,189,,178,178,26,26,10,15,0.7,1.3
2024-09-26T1800,3335A,113.3137,35.2641,焦作市,马村街道办,细颗粒物(PM2.5),94,108,128,70,98,190,,181,181,27,31,10,11,0.7,1.1
2024-09-26T1800,3336A,113.2465,35.2373,焦作市,焦作技师学院,臭氧1小时,99,110,137,58,90,199,,184,184,21,28,6,13,0.8,1.2
2024-09-26T1800,3477A,113.1656,35.2539,焦作市,中站许衡医院,臭氧1小时,106,101,107,53,70,212,,194,194,29,30,10,11,0.8,1
2024-09-26T1800,3981A,113.2449,35.1803,焦作市,原李万街道办,臭氧1小时,95,86,137,57,94,196,,184,184,24,28,13,15,0.9,1.1
2024-09-26T1800,1708A,116.3701,23.5345,揭阳市,新兴,,48,48,28,16,14,111,,100,100,13,12,5,5,0.8,0.7
2024-09-26T1800,1709A,116.3264,23.5443,揭阳市,西马,颗粒物(PM10),52,53,29,26,15,120,,98,98,10,11,6,6,0.6,0.5
2024-09-26T1800,1710A,116.3611,23.5626,揭阳市,东兴,,39,39,31,12,12,122,,106,106,9,10,4,4,1.0,0.8
2024-09-26T1800,1711A,116.4151,23.5294,揭阳市,渔湖,,44,44,27,17,12,122,,112,112,10,13,4,5,0.7,0.6
2024-09-26T1800,3320A,116.403,23.5699,揭阳市,曲溪,,42,40,30,10,14,132,,115,115,10,16,2,4,0.7,0.5
2024-09-26T1800,1944A,102.1692,38.5167,金昌市,天庆家园,,34,,32,10,25,106,,103,103,13,19,48,20,0.5,0.5
2024-09-26T1800,3170A,102.1864,38.5253,金昌市,市委党校,,33,23,53,8,22,103,,97,97,10,18,26,18,0.6,0.6
2024-09-26T1800,4022A,102.1647,38.5371,金昌市,金川区人防中心,,31,31,44,10,21,99,,95,95,11,16,16,18,0.6,0.6
2024-09-26T1800,1262A,119.647,29.077,金华市,十五中,颗粒物(PM10),51,52,54,27,28,106,,139,139,22,31,2,2,0.7,0.7
2024-09-26T1800,1263A,119.686,29.1029,金华市,监测站,颗粒物(PM10),51,51,54,30,32,108,,141,141,24,38,2,3,0.7,0.7
2024-09-26T1800,3659A,119.656,29.1131,金华市,气象局,,,,55,,23,114,,145,145,19,43,5,5,0.4,0.6
2024-09-26T1800,1767A,121.1115,41.0879,锦州市,南山,,32,32,30,22,21,88,,92,92,26,30,10,10,0.4,0.6
2024-09-26T1800,1768A,121.0533,40.8434,锦州市,开发区,颗粒物(PM10),62,74,52,12,24,45,,80,80,66,37,7,31,0.6,0.9
2024-09-26T1800,1769A,121.1836,41.1119,锦州市,百股街道,,37,37,27,7,11,87,,91,91,22,26,11,18,0.5,0.5
2024-09-26T1800,1770A,121.1178,41.1222,锦州市,天安街道,,44,44,38,13,21,84,,89,89,26,38,11,13,0.5,0.6
2024-09-26T1800,1771A,121.1303,41.1386,锦州市,北湖公园,颗粒物(PM10),53,56,52,16,17,92,,96,96,28,24,12,10,0.5,0.6
2024-09-26T1800,2160A,112.85,35.5051,晋城市,自来水公司,臭氧1小时,105,81,114,51,71,209,,202,202,20,28,9,11,0.8,1.2
2024-09-26T1800,2161A,112.8318,35.4936,晋城市,白云商贸,臭氧1小时,104,95,123,46,74,208,,200,200,23,28,9,10,0.9,1.2
2024-09-26T1800,2162A,112.8508,35.4887,晋城市,市环保局,臭氧1小时,103,80,112,48,69,205,,199,199,24,34,9,10,0.8,1.1
2024-09-26T1800,2163A,112.8676,35.4897,晋城市,技术学院,臭氧1小时,103,89,113,44,66,206,,199,199,26,35,9,10,0.8,1.1
2024-09-26T1800,3620A,112.8271,35.4828,晋城市,泽州一中,臭氧1小时,100,108,119,56,81,200,,194,194,28,34,10,13,0.9,1.2
2024-09-26T1800,2171A,112.7532,37.6945,晋中市,锦纶小区,细颗粒物(PM2.5),73,61,127,53,83,98,,146,102,20,28,7,10,0.7,0.9
2024-09-26T1800,2173A,112.7249,37.7067,晋中市,南都小区,细颗粒物(PM2.5),84,,124,62,80,98,,140,98,23,34,4,7,0.7,0.8
2024-09-26T1800,2174A,112.6991,37.6982,晋中市,榆次区政府,颗粒物(PM10),57,63,133,39,73,98,,143,93,22,33,5,8,0.7,0.8
2024-09-26T1800,2865A,112.7195,37.6828,晋中市,榆次三中,细颗粒物(PM2.5),62,53,125,44,75,99,,144,100,20,28,7,9,0.8,0.8
2024-09-26T1800,2439A,112.2014,31.0481,荆门市,竹园小学,臭氧1小时,107,56,95,32,56,213,,209,209,20,32,14,14,,1
2024-09-26T1800,2440A,112.1969,30.9891,荆门市,掇刀,臭氧1小时,108,61,93,37,62,216,,220,220,22,38,14,18,0.7,0.8
2024-09-26T1800,2441A,112.2213,31.0386,荆门市,石化一小,臭氧1小时,107,63,101,40,62,213,,208,208,20,41,24,20,0.6,0.7
2024-09-26T1800,3012A,112.1849,31.0362,荆门市,西山林语,臭氧1小时,111,60,86,31,56,221,,217,217,16,21,13,12,0.7,0.7
2024-09-26T1800,3547A,112.1632,31.0138,荆门市,龙泉中学南校,臭氧1小时,111,73,97,27,62,222,,224,224,18,35,15,13,0.7,0.8
2024-09-26T1800,1844A,112.2494,30.3197,荆州市,市图书馆,臭氧1小时,100,58,88,35,71,200,,210,210,21,40,11,26,0.8,0.9
2024-09-26T1800,1845A,112.2008,30.3544,荆州市,市委党校,臭氧1小时,106,54,99,33,77,211,,218,218,15,45,9,18,0.7,0.8
2024-09-26T1800,3194A,112.2747,30.3122,荆州市,管委会,臭氧1小时,95,48,86,36,73,196,,208,208,20,39,10,30,0.8,0.8
2024-09-26T1800,3548A,112.1655,30.3364,荆州市,学苑路,臭氧1小时,113,60,114,37,83,225,,229,229,20,37,6,17,0.8,0.8
2024-09-26T1800,2343A,117.2117,29.2933,景德镇市,老干部活动中心,,42,34,38,29,24,62,,83,82,13,18,10,8,0.6,0.5
2024-09-26T1800,2344A,117.1894,29.2789,景德镇市,兽医站,,48,48,46,23,23,55,,86,82,24,21,18,12,0.8,0.7
2024-09-26T1800,2345A,117.1547,29.2617,景德镇市,台达陶瓷,,49,48,49,34,28,61,,84,82,23,25,16,31,0.6,0.5
2024-09-26T1800,2346A,117.2461,29.2956,景德镇市,陶研所,,33,33,38,20,22,58,,88,86,12,17,7,6,0.4,0.5
2024-09-26T1800,1803A,115.9872,29.6815,九江市,十里,颗粒物(PM10),55,59,64,30,33,150,,162,162,20,25,9,13,0.7,0.8
2024-09-26T1800,1804A,115.9584,29.7046,九江市,茅山头,,42,40,54,16,32,134,,149,149,22,21,10,11,0.8,0.9
2024-09-26T1800,1805A,115.9877,29.7295,九江市,西园,,50,40,48,24,31,159,,164,164,15,20,12,12,0.7,0.7
2024-09-26T1800,1806A,116.0172,29.6547,九江市,五七二七厂,,46,46,47,31,36,117,,155,155,54,18,12,14,0.9,0.9
2024-09-26T1800,1808A,115.9114,29.6038,九江市,综合工业园,颗粒物(PM10),52,54,63,29,43,154,,167,167,29,44,20,20,0.8,0.9
2024-09-26T1800,1809A,116.0721,29.7535,九江市,石化总厂,颗粒物(PM10),52,54,58,34,34,148,,150,150,29,25,11,11,0.8,0.7
2024-09-26T1800,1810A,115.9773,29.5698,九江市,庐山气象台,,49,42,36,31,28,156,,162,156,8,5,8,10,0.7,1
2024-09-26T1800,3190A,116.0254,29.6994,九江市,外国语学校,,49,47,55,23,34,155,,165,165,20,22,9,17,0.8,0.6
2024-09-26T1800,2658A,98.5061,39.7443,酒泉市,仓门街子站,,46,46,57,12,23,102,,94,94,6,17,21,37,0.3,0.4
2024-09-26T1800,2659A,98.4989,39.7256,酒泉市,油田生活基地,,48,48,63,17,27,105,,98,98,8,18,10,17,0.3,0.3
2024-09-26T1800,2698A,76.0072,39.4467,喀什地区,巡警大队,颗粒物(PM10),86,121,386,29,88,113,,76,76,7,40,5,6,0.4,0.8
2024-09-26T1800,2699A,75.9755,39.4694,喀什地区,吾办,颗粒物(PM10),90,130,370,40,123,113,,82,82,13,33,6,6,0.4,0.7
2024-09-26T1800,4027A,75.9483,39.4689,喀什地区,老干局,颗粒物(PM10),103,155,424,35,91,112,,84,84,7,29,5,5,0.4,0.6
2024-09-26T1800,1824A,114.3389,34.7781,开封市,肿瘤医院,细颗粒物(PM2.5),103,126,153,77,106,202,,197,197,22,31,9,10,0.6,0.7
2024-09-26T1800,1826A,114.2885,34.7965,开封市,世纪星幼儿园,臭氧1小时,97,127,133,48,65,197,,193,193,19,27,9,9,0.9,0.9
2024-09-26T1800,3147A,114.3438,34.8106,开封市,龙亭公园,颗粒物(PM10),87,123,144,51,88,187,,189,189,26,34,8,8,0.9,1
2024-09-26T1800,3210A,114.3644,34.7964,开封市,汴京公园,颗粒物(PM10),109,168,161,65,104,189,,186,186,24,32,9,9,0.7,0.8
2024-09-26T1800,3473A,114.2485,34.8306,开封市,技师学院,颗粒物(PM10),91,132,147,42,68,181,,183,183,28,37,11,17,0.8,0.9
2024-09-26T1800,3592A,114.4644,34.7556,开封市,祥符区生态环境局,颗粒物(PM10),97,144,147,54,75,185,,181,181,23,50,10,11,0.7,0.8
2024-09-26T1800,1951A,84.895,45.6094,克拉玛依市,长征新村,,21,12,19,10,6,66,,73,72,14,12,7,6,0.3,0.3
2024-09-26T1800,1952A,84.8988,45.5893,克拉玛依市,南林小区,,20,16,15,3,10,62,,71,70,12,13,8,8,0.5,0.5
2024-09-26T1800,1954A,84.905,44.3396,克拉玛依市,独山子区,,19,14,20,11,12,60,,83,74,11,14,7,8,0.3,0.4
2024-09-26T1800,1955A,85.6979,46.098,克拉玛依市,乌尔禾区商贸楼,,24,23,26,9,5,76,,68,68,4,11,3,16,0.2,0.2
2024-09-26T1800,3612A,85.1045,45.6899,克拉玛依市,白碱滩区新站,,19,14,25,3,6,59,,77,61,14,11,8,8,0.3,0.2
2024-09-26T1800,2697A,76.1454,39.7142,克孜勒苏柯尔克孜自治州,市人民政府,颗粒物(PM10),68,85,328,30,107,132,,100,100,1,12,3,7,0.4,0.5
2024-09-26T1800,3665A,76.1658,39.7157,克孜勒苏柯尔克孜自治州,克州文化中心,,,71,323,26,110,126,,101,101,,12,8,12,0.4,0.5
2024-09-26T1800,1450A,102.8204,24.8886,昆明市,呈贡新区,,,25,43,15,26,109,,107,107,7,31,,6,0.4,0.6
2024-09-26T1800,1452A,102.7252,25.0902,昆明市,龙泉镇,,38,35,36,16,19,120,,121,121,11,17,7,7,0.6,0.8
2024-09-26T1800,1453A,102.7266,25.0375,昆明市,东风东路,,35,26,35,22,24,110,,110,110,14,17,6,7,0.4,0.4
2024-09-26T1800,1454A,102.6742,25.0669,昆明市,金鼎山,,36,32,32,11,21,114,,86,86,14,18,5,16,0.5,0.5
2024-09-26T1800,1455A,102.6644,25.0401,昆明市,碧鸡广场,,34,26,40,12,26,107,,114,114,16,23,7,8,0.7,0.7
2024-09-26T1800,3179A,102.7494,25.0119,昆明市,官渡区博物馆,,39,26,41,16,20,123,,118,118,8,26,6,7,0.5,0.7
2024-09-26T1800,3375A,102.8017,24.8336,昆明市,青年创业园,,,25,31,18,21,110,,110,110,,21,5,5,0.5,0.6
2024-09-26T1800,3550A,102.7997,24.9786,昆明市,昆明学院,,37,24,50,10,29,116,,110,110,9,33,6,7,0.4,0.6
2024-09-26T1800,3551A,102.5967,24.6736,昆明市,晋宁区生态环境分局,,35,15,46,14,32,112,,111,111,8,17,2,3,0.6,0.8
2024-09-26T1800,3552A,102.6678,24.9856,昆明市,云天化总部,,36,23,35,13,25,115,,117,117,11,14,5,6,0.6,0.5
2024-09-26T1800,1456A,91.1319,29.6514,拉萨市,八廓街,,29,9,9,6,7,92,,94,94,12,11,7,6,0.3,0.3
2024-09-26T1800,1457A,91.1221,29.6747,拉萨市,市环保局,,30,7,8,6,6,96,,97,97,9,10,8,7,0.5,0.5
2024-09-26T1800,1458A,91.0874,29.6475,拉萨市,区监测站,,29,8,8,6,6,90,,90,90,11,12,5,5,0.2,0.2
2024-09-26T1800,1459A,91.1774,29.6541,拉萨市,西藏大学,,28,10,8,6,6,88,,91,91,10,9,5,5,0.5,0.5
2024-09-26T1800,1460A,90.9798,29.6588,拉萨市,区辐射站,,26,14,10,7,6,83,,86,86,17,14,8,8,0.2,0.2
2024-09-26T1800,1461A,91.0834,29.6292,拉萨市,拉萨火车站,,30,8,7,3,5,93,,90,90,6,8,5,5,0.2,0.2
2024-09-26T1800,2520A,109.2203,23.7256,来宾市,来宾技工学校,,26,22,36,18,23,74,,69,69,11,15,6,29,0.8,0.8
2024-09-26T1800,3535A,109.1781,23.7297,来宾市,兴宾区政府,,25,22,29,17,19,71,,77,77,7,12,12,17,0.7,0.7
2024-09-26T1800,4002A,109.2416,23.7461,来宾市,中南小学,,,24,35,20,23,80,,72,72,,16,8,19,0.8,0.9
2024-09-26T1800,1476A,103.631,36.1031,兰州市,兰炼宾馆,臭氧1小时,69,57,34,30,23,175,,133,133,28,21,11,14,0.5,0.4
2024-09-26T1800,1478A,103.8412,36.0726,兰州市,生物制品所,,43,43,34,22,24,109,,96,96,30,34,24,12,1.0,0.5
2024-09-26T1800,1479A,103.831,36.0464,兰州市,铁路设计院,颗粒物(PM10),55,60,35,29,25,83,,90,90,71,40,23,11,1.4,0.6
2024-09-26T1800,3186A,103.7158,36.1058,兰州市,教育港,颗粒物(PM10),54,57,38,32,30,159,,137,137,27,24,11,12,0.6,0.5
2024-09-26T1800,3241A,103.7439,36.0842,兰州市,百合公园,,45,42,34,17,17,144,,128,128,25,29,13,10,0.8,0.4
2024-09-26T1800,3242A,103.9611,35.998,兰州市,和平,,41,41,32,15,14,107,,101,101,18,22,13,14,0.3,0.5
2024-09-26T1800,3245A,103.6633,36.533,兰州新区,新区管委会,,,35,29,18,17,113,,105,105,,19,,13,0.3,0.4
2024-09-26T1800,3246A,103.6975,36.4789,兰州新区,舟曲中学,,36,24,21,14,12,115,,105,105,7,13,8,18,0.2,0.4
2024-09-26T1800,1067A,116.6708,39.5111,廊坊市,药材公司,颗粒物(PM10),55,60,48,32,27,106,,99,99,22,26,4,4,0.7,0.7
2024-09-26T1800,1068A,116.7214,39.5589,廊坊市,开发区,颗粒物(PM10),53,55,52,16,24,111,,101,101,19,30,4,3,0.7,0.6
2024-09-26T1800,1070A,116.7244,39.5269,廊坊市,北华航天学院,颗粒物(PM10),55,59,58,30,26,126,,108,108,16,32,4,3,0.6,0.6
2024-09-26T1800,2919A,116.7022,39.5453,廊坊市,河北工业大学,颗粒物(PM10),57,63,50,28,27,123,,104,104,18,30,4,3,0.6,0.5
2024-09-26T1800,2535A,103.7723,29.5462,乐山市,花湖湾,,42,38,64,20,42,132,,126,126,6,17,2,3,0.7,1
2024-09-26T1800,2536A,103.7627,29.5844,乐山市,牛耳桥,,45,45,60,31,50,142,,136,136,16,24,4,5,0.7,0.9
2024-09-26T1800,2537A,103.7508,29.6006,乐山市,市第三水厂,颗粒物(PM10),51,51,61,26,48,152,,141,141,13,25,3,5,0.7,0.8
2024-09-26T1800,2538A,103.7571,29.5664,乐山市,市监测站,,49,44,68,34,52,138,,135,135,8,18,3,5,0.8,1.1
2024-09-26T1800,3361A,103.7311,29.5628,乐山市,理工大学,,46,42,64,32,51,145,,142,142,6,19,2,3,0.7,1
2024-09-26T1800,2599A,100.2497,26.8802,丽江市,丽江古城,,25,17,19,17,15,67,,65,65,11,11,9,9,0.7,0.7
2024-09-26T1800,2600A,100.2203,26.8906,丽江市,市中心,,20,,14,12,11,62,,64,64,11,10,7,6,0.7,0.7
2024-09-26T1800,1267A,119.914,28.4514,丽水市,监测站大楼,,31,31,38,16,21,62,,71,70,17,21,4,4,0.6,0.6
2024-09-26T1800,1268A,119.93,28.4586,丽水市,莲都小学,,34,34,40,22,21,66,,72,69,17,23,4,5,0.6,0.6
2024-09-26T1800,1269A,119.879,28.4231,丽水市,余庄前,,,31,41,17,22,51,,74,73,19,12,,3,0.5,0.6
2024-09-26T1800,1173A,119.176,34.5885,连云港市,市环境监测站,臭氧1小时,103,58,43,34,23,206,,214,214,16,24,7,7,0.5,0.4
2024-09-26T1800,3000A,119.3581,34.6972,连云港市,德源药业,臭氧1小时,109,61,46,31,23,217,,210,210,19,29,6,6,0.4,0.4
2024-09-26T1800,3007A,119.178,34.844,连云港市,新城一中,臭氧1小时,108,59,51,29,25,216,,213,213,27,35,6,7,0.6,0.6
2024-09-26T1800,3008A,119.3608,34.7519,连云港市,胡沟管理处,臭氧1小时,104,53,38,31,20,207,,198,198,17,22,,9,0.5,0.5
2024-09-26T1800,3009A,119.1478,34.5911,连云港市,矿山设计院,臭氧1小时,97,63,47,39,25,197,,212,212,17,21,6,6,0.7,0.7
2024-09-26T1800,3434A,119.2413,34.6539,连云港市,工贸学校,臭氧1小时,97,44,36,29,22,197,,215,215,18,17,8,8,0.8,0.8
2024-09-26T1800,3664A,119.4172,34.7341,连云港市,连云街道,臭氧1小时,104,46,37,27,22,207,,208,208,21,18,6,6,0.5,0.4
2024-09-26T1800,2571A,102.3431,27.8099,凉山彝族自治州,青龙寺,,32,21,24,12,11,102,,84,84,5,8,8,6,0.7,0.7
2024-09-26T1800,2572A,102.2721,27.8415,凉山彝族自治州,邛海宾馆,,26,23,35,14,21,83,,77,77,12,16,19,11,0.6,0.8
2024-09-26T1800,2573A,102.2625,27.898,凉山彝族自治州,西昌市政府,,27,20,22,9,16,84,,71,71,8,13,11,10,1.0,0.7
2024-09-26T1800,2574A,102.2685,27.8851,凉山彝族自治州,凉山州政府,,28,16,32,10,18,89,,79,79,10,17,13,10,0.8,0.7
2024-09-26T1800,2575A,102.237,27.8914,凉山彝族自治州,长安,,27,17,20,10,12,85,,69,69,6,19,9,11,0.7,0.9
2024-09-26T1800,2212A,123.2,41.1953,辽阳市,宏伟区,,24,20,30,10,19,76,,86,86,19,21,11,11,0.4,0.7
2024-09-26T1800,2213A,123.1683,41.2495,辽阳市,新华园,,24,24,40,12,24,74,,80,80,24,26,9,13,0.5,0.8
2024-09-26T1800,2214A,123.2354,41.2639,辽阳市,滨河路,,25,25,27,16,22,78,,93,93,20,22,10,13,0.4,0.7
2024-09-26T1800,2215A,123.149,41.2991,辽阳市,铁西工业园,,34,34,32,13,20,35,,70,70,39,22,9,11,0.7,0.9
2024-09-26T1800,2227A,125.1358,42.8845,辽源市,环保局,,24,20,23,8,11,46,,75,75,48,19,8,7,0.9,0.7
2024-09-26T1800,3239A,125.0764,42.9078,辽源市,银鹰制药,,27,27,24,15,14,31,,69,69,52,22,5,10,0.6,0.6
2024-09-26T1800,1625A,115.9848,36.4372,聊城市,区政府,细颗粒物(PM2.5),93,134,134,69,66,184,,158,158,40,51,17,16,1.0,0.8
2024-09-26T1800,2878A,116.0072,36.4343,聊城市,聊大东校,臭氧1小时,102,124,142,73,80,204,,177,177,33,45,15,19,0.8,1.1
2024-09-26T1800,3200A,115.9819,36.4978,聊城市,监控中心,细颗粒物(PM2.5),107,129,137,80,85,169,,164,164,41,59,11,14,0.7,0.6
2024-09-26T1800,3513A,116.0445,36.4361,聊城市,九州社区,臭氧1小时,99,124,127,73,63,199,,166,166,35,50,9,9,0.6,0.7
2024-09-26T1800,4018A,116.0567,36.4608,聊城市,星美广场,臭氧1小时,93,117,118,64,67,194,,164,164,30,50,12,15,0.8,0.7
2024-09-26T1800,2632A,94.3681,29.6376,林芝市,林芝监测站,,23,7,5,3,4,71,,62,62,2,3,10,9,0.2,0.2
2024-09-26T1800,2633A,94.3616,29.6616,林芝市,林芝人民医院,,23,6,7,3,4,71,,63,63,4,6,8,8,0.2,0.2
2024-09-26T1800,2603A,100.0781,23.8982,临沧市,市环保局,,23,23,25,10,21,59,,60,60,10,11,4,5,0.5,0.5
2024-09-26T1800,2604A,100.0894,23.8822,临沧市,市气象局,,32,,28,22,24,59,,58,58,8,11,4,5,0.5,0.5
2024-09-26T1800,1733A,111.5531,36.0783,临汾市,临钢医院,颗粒物(PM10),80,109,100,56,33,104,,86,86,27,41,6,9,1.2,0.9
2024-09-26T1800,1734A,111.5028,36.0714,临汾市,技工学校,细颗粒物(PM2.5),75,84,84,55,39,122,,104,104,22,43,6,9,0.9,0.8
2024-09-26T1800,1736A,111.5018,36.0855,临汾市,市委,细颗粒物(PM2.5),77,87,83,56,38,127,,110,110,17,34,7,9,1.0,0.9
2024-09-26T1800,3018A,111.505,36.1014,临汾市,唐尧大酒店,细颗粒物(PM2.5),83,88,75,61,38,114,,99,99,21,35,5,7,0.9,0.8
2024-09-26T1800,3668A,111.5036,36.0414,临汾市,城南,细颗粒物(PM2.5),90,106,104,67,48,123,,107,107,28,40,6,8,1.0,1
2024-09-26T1800,2667A,103.2069,35.5993,临夏回族自治州,环保局,,30,26,32,12,16,94,,93,93,14,13,10,9,0.4,0.4
2024-09-26T1800,2668A,103.2417,35.6057,临夏回族自治州,建设大厦,,33,33,37,15,16,101,,94,94,12,11,12,10,0.3,0.3
2024-09-26T1800,1618A,118.3429,35.0532,临沂市,沂河小区,臭氧1小时,116,92,80,44,39,232,,215,215,23,29,11,18,0.8,0.6
2024-09-26T1800,1619A,118.295,35.0583,临沂市,鲁南制药厂,臭氧1小时,119,90,76,30,31,237,,223,223,20,24,11,14,0.9,0.7
2024-09-26T1800,1620A,118.2794,34.9976,临沂市,新光毛纺厂,臭氧1小时,111,85,83,26,35,222,,210,210,26,29,10,16,0.9,0.8
2024-09-26T1800,1621A,118.3956,35.0888,临沂市,河东保险公司,臭氧1小时,123,80,79,46,45,246,,228,228,38,47,13,10,1.1,0.9
2024-09-26T1800,3370A,118.3564,35.0215,临沂市,十里堡居委,臭氧1小时,116,85,65,41,40,232,,219,219,21,28,13,16,1.0,0.9
2024-09-26T1800,3496A,118.3604,35.1084,临沂市,南坊新区,臭氧1小时,127,85,79,39,43,253,,237,237,21,30,12,11,1.0,0.8
2024-09-26T1800,3860A,118.3920,35.0300,临沂市,皇山花园小区,臭氧1小时,116,85,85,50,53,232,,213,213,27,36,12,11,0.8,0.7
2024-09-26T1800,1870A,109.4856,24.3895,柳州市,柳东小学,,23,16,25,12,17,73,,77,77,9,11,7,8,0.7,0.8
2024-09-26T1800,1871A,109.4157,24.3277,柳州市,环保监测站,,25,,29,17,17,80,,79,79,9,10,7,8,0.8,0.8
2024-09-26T1800,1872A,109.389,24.341,柳州市,河西水厂,,,16,31,12,18,84,,75,75,,11,7,8,1.0,1.1
2024-09-26T1800,1873A,109.4311,24.2921,柳州市,市四中,,35,35,26,17,19,84,,82,82,8,12,6,6,0.6,0.7
2024-09-26T1800,1874A,109.4006,24.3631,柳州市,市九中,,,25,29,15,18,86,,83,83,13,11,,5,1.0,1
2024-09-26T1800,1875A,109.4958,24.3134,柳州市,古亭山,,29,29,25,14,17,64,,72,72,16,19,7,7,0.9,1
2024-09-26T1800,3402A,109.5422,24.3996,柳州市,市二中,,24,18,28,9,18,75,,78,78,10,18,8,10,0.6,0.7
2024-09-26T1800,2307A,116.5079,31.737,六安市,监测大楼,,48,37,49,30,37,152,,150,150,10,22,6,6,0.6,0.6
2024-09-26T1800,2308A,116.4738,31.7643,六安市,皖西学院,,50,47,63,28,33,159,,153,153,9,23,6,6,0.6,0.4
2024-09-26T1800,2309A,116.4996,31.7905,六安市,朝阳厂,,47,,55,28,37,150,,146,146,10,25,2,2,0.6,0.5
2024-09-26T1800,2310A,116.5567,31.7886,六安市,开发区,,45,42,56,29,29,141,,150,150,20,23,3,3,0.6,0.5
2024-09-26T1800,2577A,104.83,26.5917,六盘水市,黄土坡,,29,,40,18,34,90,,94,94,22,17,8,7,1.0,0.7
2024-09-26T1800,2578A,104.89,26.5939,六盘水市,水钢,,29,29,50,20,35,92,,98,98,20,19,7,9,0.8,0.9
2024-09-26T1800,2579A,104.8475,26.5894,六盘水市,民中,,26,25,37,17,30,81,,94,94,33,18,8,7,1.0,0.6
2024-09-26T1800,2580A,104.9544,26.5506,六盘水市,双水,,33,22,45,12,32,104,,105,105,9,14,6,8,0.4,0.5
2024-09-26T1800,2336A,117.0217,25.1033,龙岩市,龙岩市监测站,,16,8,20,3,8,51,,64,64,9,16,4,5,0.5,0.5
2024-09-26T1800,2337A,117.0258,25.0661,龙岩市,闽西职业技术学院,,17,17,28,3,13,54,,65,65,6,15,3,10,0.5,0.5
2024-09-26T1800,2338A,117.0196,25.0306,龙岩市,龙岩学院,,22,22,17,3,6,54,,64,64,5,9,1,3,0.4,0.4
2024-09-26T1800,2885A,104.9339,33.3826,陇南市,滨江中学,,42,42,39,16,14,79,,84,83,4,10,7,8,0.5,0.5
2024-09-26T1800,3247A,104.955,33.371,陇南市,市总工会,,29,29,29,10,6,81,,85,85,5,5,8,8,0.4,0.4
2024-09-26T1800,2487A,111.9589,27.8901,娄底市,电视发射台,颗粒物(PM10),58,66,63,38,42,118,,146,146,7,8,5,5,0.7,0.8
2024-09-26T1800,2488A,111.9975,27.725,娄底市,市监测站,细颗粒物(PM2.5),54,54,80,38,54,161,,168,168,7,21,8,10,0.6,0.8
2024-09-26T1800,2489A,112.0194,27.7314,娄底市,市委党校,细颗粒物(PM2.5),67,74,80,48,53,148,,150,150,7,15,7,8,0.6,0.7
2024-09-26T1800,2490A,111.9561,27.7569,娄底市,涟钢,,,,77,48,54,127,,132,130,19,23,8,8,,1
2024-09-26T1800,2491A,111.9892,27.7044,娄底市,市政府,细颗粒物(PM2.5),58,52,76,41,55,157,,161,161,9,16,9,8,0.5,0.7
2024-09-26T1800,1893A,105.4324,28.9634,泸州市,九狮山,,46,46,82,31,57,141,,140,140,16,22,6,5,1.4,0.6
2024-09-26T1800,1894A,105.4427,28.9063,泸州市,小市上码头,细颗粒物(PM2.5),54,43,83,38,66,151,,156,156,15,29,7,5,0.6,0.8
2024-09-26T1800,1895A,105.4241,28.8573,泸州市,兰田宪桥,,46,45,70,32,67,141,,152,152,15,20,5,4,0.5,0.8
2024-09-26T1800,1896A,105.4379,28.8833,泸州市,市环监站,,46,39,78,30,66,147,,155,154,12,23,4,6,0.5,0.8
2024-09-26T1800,3490A,105.3617,28.7703,泸州市,纳溪区环保局,,49,41,69,34,52,130,,147,147,18,25,5,5,0.6,0.8
2024-09-26T1800,2183A,111.1406,37.5211,吕梁市,环保局,,38,28,53,26,20,107,,82,82,15,31,5,4,0.6,0.6
2024-09-26T1800,2185A,111.1297,37.5136,吕梁市,自来水公司,,38,,56,26,20,113,,81,81,16,29,2,3,0.6,0.6
2024-09-26T1800,2867A,111.1283,37.51,吕梁市,马茂庄小学,,35,35,64,22,21,109,,81,81,22,36,2,3,0.5,0.5
2024-09-26T1800,1812A,112.3931,34.6516,洛阳市,市委党校,臭氧1小时,92,105,150,55,85,193,,171,171,21,29,9,11,0.8,0.9
2024-09-26T1800,1814A,112.4657,34.6871,洛阳市,豫西宾馆,臭氧1小时,85,103,138,49,78,188,,169,169,16,22,10,13,0.8,0.8
2024-09-26T1800,1815A,112.494,34.6886,洛阳市,河南林校,臭氧1小时,95,97,140,47,91,196,,175,175,18,26,8,10,0.8,0.9
2024-09-26T1800,1816A,112.3844,34.623,洛阳市,开发区管委会,臭氧1小时,102,97,138,50,92,203,,180,180,18,25,4,5,0.6,0.7
2024-09-26T1800,1817A,112.4267,34.6258,洛阳市,市委新办公区,臭氧1小时,89,94,142,55,89,191,,169,169,17,21,6,7,0.5,1.1
2024-09-26T1800,3340A,112.6005,34.6326,洛阳市,伊滨,臭氧1小时,90,65,115,54,83,192,,171,171,16,26,10,10,0.8,1
2024-09-26T1800,3341A,112.4951,34.6332,洛阳市,中移产业园,臭氧1小时,97,100,145,53,88,197,,179,179,19,28,6,7,0.8,0.9
2024-09-26T1800,3593A,112.5736,34.8993,洛阳市,吉利监测站,臭氧1小时,92,88,146,31,89,193,,174,174,14,31,7,8,0.6,0.9
2024-09-26T1800,3635A,112.3677,34.662,洛阳市,河科大西苑校区,臭氧1小时,100,107,150,44,64,200,,178,178,21,30,6,9,0.8,0.9
2024-09-26T1800,3636A,112.4388,34.6781,洛阳市,英才小学,臭氧1小时,95,111,155,56,73,196,,174,174,18,25,5,8,0.8,0.8
2024-09-26T1800,2399A,114.051,33.5699,漯河市,三五一五工厂,颗粒物(PM10),53,56,102,22,45,134,,150,150,10,29,6,9,0.5,0.6
2024-09-26T1800,2400A,114.0055,33.5698,漯河市,漯河大学,颗粒物(PM10),51,51,89,19,45,140,,155,153,11,24,5,8,0.6,0.6
2024-09-26T1800,2401A,114.0138,33.5828,漯河市,市水利局,颗粒物(PM10),59,68,100,19,45,135,,151,151,9,22,5,8,0.4,0.6
2024-09-26T1800,2402A,114.0261,33.5698,漯河市,市广电局,颗粒物(PM10),52,54,90,22,46,139,,153,153,9,22,9,12,0.6,0.7
2024-09-26T1800,3478A,113.9749,33.5664,漯河市,市图书馆,颗粒物(PM10),53,55,84,24,45,150,,160,160,12,26,7,7,0.6,0.7
2024-09-26T1800,3479A,114.0967,33.5906,漯河市,召陵区卫健委,颗粒物(PM10),81,112,114,26,51,122,,150,150,13,33,6,11,0.4,0.6
2024-09-26T1800,1798A,118.5092,31.6837,马鞍山市,湖东路四小,,23,,52,16,37,67,,89,84,20,25,6,8,0.7,0.9
2024-09-26T1800,1799A,118.5024,31.6449,马鞍山市,开发区,,20,15,60,9,37,61,,89,84,19,39,6,7,0.8,1.1
2024-09-26T1800,1800A,118.5228,31.7231,马鞍山市,慈湖,,28,28,55,18,34,64,,79,77,16,34,7,8,0.7,1.1
2024-09-26T1800,1802A,118.6245,31.7241,马鞍山市,濮塘,,26,,38,18,33,62,,74,72,14,14,8,8,0.8,1
2024-09-26T1800,3633A,118.4918,31.6809,马鞍山市,雨山,,21,14,50,13,32,67,,87,82,14,21,8,9,0.9,1.1
2024-09-26T1800,1686A,111.0286,21.4688,茂名市,电白南海,,38,34,33,17,13,119,,109,109,7,10,11,10,0.7,0.6
2024-09-26T1800,1687A,110.9294,21.6533,茂名市,茂石化七小,,31,29,33,17,20,99,,100,100,8,13,9,11,0.7,0.8
2024-09-26T1800,1688A,110.9107,21.6687,茂名市,健康路,,32,24,23,9,14,100,,104,104,6,10,13,16,0.8,0.9
2024-09-26T1800,1689A,110.8592,21.6828,茂名市,高岭,,36,36,40,24,25,94,,98,98,11,19,12,12,0.7,0.9
2024-09-26T1800,3450A,111.01,21.5165,茂名市,电白水东,,37,24,22,24,17,118,,97,97,7,11,7,9,0.9,0.8
2024-09-26T1800,2539A,104.0308,30.0478,眉山市,黑龙滩水库,,43,34,58,18,42,136,,141,141,4,4,3,4,0.4,0.8
2024-09-26T1800,2540A,103.8416,30.0874,眉山市,气象局,,47,28,73,27,63,150,,141,141,10,38,7,7,0.5,0.7
2024-09-26T1800,3137A,103.8578,30.0744,眉山市,市委党校,,46,34,78,22,56,146,,137,137,12,32,6,8,0.6,0.8
2024-09-26T1800,3148A,103.8291,30.0564,眉山市,区人社局,,47,25,67,19,53,148,,142,142,12,32,10,9,0.5,0.7
2024-09-26T1800,1690A,116.1231,24.3284,梅州市,梅江月梅,,30,30,29,8,8,60,,84,84,8,11,6,6,0.4,0.4
2024-09-26T1800,1691A,116.0797,24.2719,梅州市,梅县新城,,22,21,26,13,13,70,,79,79,10,16,4,4,0.6,0.6
2024-09-26T1800,1692A,116.1248,24.2654,梅州市,环境监控中心,,27,27,27,12,12,70,,75,74,11,19,4,5,0.6,0.5
2024-09-26T1800,3315A,116.1233,24.2991,梅州市,梅龙,,21,19,28,14,15,66,,86,86,9,14,8,9,0.7,0.6
2024-09-26T1800,1878A,104.7778,31.4741,绵阳市,富乐山,,,66,55,52,41,164,,155,155,,23,,4,0.7,0.7
2024-09-26T1800,1879A,104.7563,31.4535,绵阳市,市人大,臭氧1小时,75,59,70,38,42,180,,155,155,13,35,10,10,0.6,0.7
2024-09-26T1800,1880A,104.6697,31.4668,绵阳市,高新区自来水公司,臭氧1小时,63,58,70,39,39,170,,148,148,13,38,4,7,0.8,0.8
2024-09-26T1800,1881A,104.7287,31.5075,绵阳市,三水厂,细颗粒物(PM2.5),62,60,68,44,46,158,,146,146,22,41,7,8,0.7,0.8
2024-09-26T1800,3491A,104.69,31.5322,绵阳市,西科大附属小学,细颗粒物(PM2.5),63,65,68,45,40,168,,144,144,12,35,4,7,0.6,0.7
2024-09-26T1800,3492A,104.5648,31.5343,绵阳市,安州区旅游局,臭氧1小时,99,54,64,48,45,199,,169,169,17,20,4,10,0.8,0.7
2024-09-26T1800,1784A,129.61,44.561,牡丹江市,环保大楼,,23,23,19,14,16,46,,75,75,33,13,7,7,0.5,0.4
2024-09-26T1800,1785A,129.6115,44.5782,牡丹江市,文化广场,,42,31,25,29,19,49,,71,71,31,15,8,8,0.4,0.4
2024-09-26T1800,1786A,129.5904,44.5963,牡丹江市,第一医院,,49,36,24,34,20,43,,72,72,34,16,6,6,0.4,0.4
2024-09-26T1800,1787A,129.6364,44.6075,牡丹江市,机车工厂,,49,39,29,34,19,59,,72,72,12,16,14,9,0.3,0.4
2024-09-26T1800,1788A,129.6386,44.5462,牡丹江市,第一中学,,32,32,23,17,12,58,,82,82,22,11,6,6,0.3,0.3
2024-09-26T1800,2531A,105.0703,29.61,内江市,市监测站,臭氧1小时,67,,58,44,59,173,,169,169,20,22,3,4,0.6,0.8
2024-09-26T1800,2532A,105.0717,29.5947,内江市,东兴区政府,臭氧1小时,77,39,57,39,58,181,,169,169,17,23,4,4,0.5,0.9
2024-09-26T1800,2533A,105.0653,29.5817,内江市,内江二中,臭氧1小时,77,47,69,34,73,181,,165,165,14,19,8,8,0.6,0.8
2024-09-26T1800,2534A,105.0406,29.5822,内江市,内江日报社,臭氧1小时,69,46,71,34,61,175,,166,166,19,29,7,6,0.6,0.8
2024-09-26T1800,2628A,92.0657,31.4846,那曲市,那曲监测站,,40,40,58,9,22,66,,64,64,6,11,7,7,0.4,0.6
2024-09-26T1800,3128A,92.0506,31.4797,那曲市,那曲会议中心,颗粒物(PM10),52,54,60,6,23,79,,70,70,3,18,2,4,0.3,0.5
2024-09-26T1800,1290A,115.8931,28.6843,南昌市,省外办,颗粒物(PM10),54,58,58,31,35,124,,138,138,14,29,8,10,0.8,0.8
2024-09-26T1800,1291A,115.8886,28.7003,南昌市,省林业公司,,48,48,62,24,31,133,,150,150,14,29,6,8,0.7,0.8
2024-09-26T1800,1292A,115.8126,28.7442,南昌市,林科所,,47,46,44,24,25,148,,163,163,21,24,5,6,0.2,0.5
2024-09-26T1800,1294A,115.8518,28.687,南昌市,建工学校,,42,41,58,25,30,132,,144,144,16,28,8,9,0.6,0.7
2024-09-26T1800,1295A,115.8921,28.6424,南昌市,象湖,,43,43,50,27,31,135,,159,159,20,26,8,9,0.9,0.9
2024-09-26T1800,1296A,115.7423,28.7996,南昌市,武术学校,,45,35,26,31,23,75,,123,118,13,18,3,3,0.6,0.5
2024-09-26T1800,1298A,115.9314,28.6842,南昌市,省站,,37,35,49,24,35,117,,136,134,21,31,9,11,0.7,0.7
2024-09-26T1800,3046A,115.9084,28.6062,南昌市,机电学校,颗粒物(PM10),51,52,68,29,33,129,,149,149,11,31,9,10,0.8,0.8
2024-09-26T1800,3690A,115.9721,28.7031,南昌市,外国语学校,,47,47,55,18,29,126,,141,141,10,21,7,8,0.6,0.7
2024-09-26T1800,1905A,106.056,30.8064,南充市,西山风景区,臭氧1小时,65,,53,35,49,172,,149,149,6,9,2,4,0.6,0.7
2024-09-26T1800,1906A,106.0789,30.8023,南充市,南充市委,臭氧1小时,60,64,72,42,58,168,,152,152,13,18,3,5,0.5,0.6
2024-09-26T1800,1907A,106.1031,30.8217,南充市,南充炼油厂,臭氧1小时,79,57,78,38,57,183,,168,168,10,17,3,5,0.4,0.5
2024-09-26T1800,1908A,106.1064,30.7856,南充市,高坪区监测站,臭氧1小时,67,48,77,37,55,173,,157,157,16,21,6,9,0.5,0.6
2024-09-26T1800,1909A,106.0642,30.7636,南充市,嘉陵区环保局,"细颗粒物(PM2.5),臭氧1小时",52,47,73,36,54,161,,144,144,15,18,2,4,0.5,0.7
2024-09-26T1800,1910A,106.1087,30.8388,南充市,市环境监测站,臭氧1小时,70,51,77,37,53,176,,161,161,14,24,4,6,0.4,0.5
2024-09-26T1800,1151A,118.8086,32.1065,南京市,迈皋桥,,28,28,31,14,20,43,,59,58,24,24,4,4,0.5,0.4
2024-09-26T1800,1152A,118.7538,32.0551,南京市,草场门,,29,29,40,17,22,37,,55,54,41,36,6,6,0.5,0.3
2024-09-26T1800,1153A,118.7794,32.0745,南京市,山西路,,34,34,47,22,25,67,,60,60,31,33,5,4,0.6,0.5
2024-09-26T1800,1154A,118.7752,32.0023,南京市,中华门,,27,27,42,14,24,39,,52,52,41,34,4,5,0.5,0.5
2024-09-26T1800,1155A,118.8109,32.0309,南京市,瑞金路,,,41,42,24,25,33,,55,47,56,23,4,8,,0.4
2024-09-26T1800,1156A,118.7997,32.0754,南京市,玄武湖,,33,33,42,10,19,54,,48,48,30,50,6,6,0.2,0.3
2024-09-26T1800,1157A,118.6414,32.0931,南京市,浦口,,36,36,34,15,21,38,,50,49,42,22,5,5,0.8,0.7
2024-09-26T1800,1158A,118.7356,31.9996,南京市,奥体中心,,,19,46,19,35,48,,61,61,,31,5,6,0.5,0.6
2024-09-26T1800,1159A,118.9125,32.1028,南京市,仙林大学城,,31,31,41,17,21,52,,58,58,34,33,7,7,0.6,0.6
2024-09-26T1800,3422A,118.8436,31.9198,南京市,江宁彩虹桥,,19,11,46,9,27,59,,55,52,12,30,4,4,0.5,0.7
2024-09-26T1800,3423A,119.0138,31.6494,南京市,溧水永阳,,20,17,38,12,24,62,,59,59,12,30,3,4,0.7,0.8
2024-09-26T1800,3424A,118.879,31.3302,南京市,高淳老职中,,23,,34,14,36,72,,99,98,19,20,4,7,0.7,0.9
2024-09-26T1800,3427A,118.8554,32.3578,南京市,六合雄州,,31,17,40,13,21,97,,87,87,12,16,7,7,0.3,0.4
2024-09-26T1800,1401A,108.3103,22.7881,南宁市,二十一中,,36,32,44,25,32,98,,102,102,16,16,4,5,1.0,1
2024-09-26T1800,1402A,108.3141,22.8528,南宁市,北湖,,42,42,50,24,42,85,,101,101,22,22,3,5,0.8,0.9
2024-09-26T1800,1403A,108.3206,22.8225,南宁市,市监测站,,36,36,45,22,35,86,,100,100,25,19,5,6,0.7,1
2024-09-26T1800,1404A,108.3829,22.8037,南宁市,大自然花园,,32,26,42,22,34,95,,99,99,14,17,5,5,0.7,0.8
2024-09-26T1800,1405A,108.4394,22.7904,南宁市,仙葫,,35,35,39,16,32,94,,101,101,11,15,6,7,0.9,1
2024-09-26T1800,1406A,108.2397,22.8467,南宁市,区农职院,,41,41,55,22,41,94,,96,96,19,21,4,11,1.0,1
2024-09-26T1800,1407A,108.3275,22.735,南宁市,英华嘉园,,,,44,,33,91,,93,93,,17,5,5,1.1,1
2024-09-26T1800,1408A,108.2257,22.7757,南宁市,沙井镇街道办,,37,37,62,22,39,90,,82,82,29,34,2,2,0.8,0.8
2024-09-26T1800,3401A,108.4834,22.7618,南宁市,红星社区,,,,39,,30,93,,98,98,14,16,7,8,,0.9
2024-09-26T1800,2332A,118.1681,26.6369,南平市,南平市监测站,,20,,16,14,8,49,,55,55,8,12,4,5,0.4,0.5
2024-09-26T1800,2333A,118.1825,26.6489,南平市,南平铝业有限公司,,17,13,16,3,8,53,,55,55,6,13,4,4,0.5,0.6
2024-09-26T1800,2334A,118.1756,26.6272,南平市,南平七中,,32,32,22,10,9,43,,55,55,10,13,9,3,1.0,0.8
2024-09-26T1800,1168A,120.9098,31.9663,南通市,狼山街道,,28,7,10,3,6,88,,86,86,7,12,6,6,0.5,0.5
2024-09-26T1800,1169A,120.86,32.0005,南通市,虹桥,,27,14,17,3,7,86,,81,81,8,13,6,6,0.5,0.6
2024-09-26T1800,1170A,120.87,32.02,南通市,城中,,27,15,18,3,7,84,,81,81,10,16,6,6,0.6,0.7
2024-09-26T1800,1171A,120.94,31.93,南通市,星湖花园,,29,7,10,3,5,90,,86,86,12,17,5,5,0.3,0.4
2024-09-26T1800,1172A,120.81,32.0417,南通市,紫琅学院,,28,8,10,3,5,87,,83,83,9,18,7,7,0.3,0.5
2024-09-26T1800,3291A,121.067,32.062,南通市,通州监测站,,31,9,10,3,4,99,,93,93,8,9,3,3,0.5,0.7
2024-09-26T1800,3432A,120.9348,31.9883,南通市,环境教育馆,,29,12,18,3,6,91,,87,87,9,19,3,3,0.4,0.5
2024-09-26T1800,2404A,112.5224,33.0122,南阳市,瓦房庄,臭氧1小时,99,85,92,36,42,199,,194,194,16,20,5,7,0.6,0.6
2024-09-26T1800,2405A,112.5003,32.9735,南阳市,汉画馆,臭氧1小时,92,84,86,38,45,193,,189,189,17,20,7,7,0.6,0.5
2024-09-26T1800,2406A,112.5573,33.027,南阳市,气象站,臭氧1小时,101,90,98,29,31,202,,194,194,17,24,8,12,0.6,0.7
2024-09-26T1800,2407A,112.5481,32.9689,南阳市,理工学院,臭氧1小时,97,81,85,29,37,197,,189,189,16,20,7,9,0.5,0.6
2024-09-26T1800,4008A,112.5234,32.9922,南阳市,卧龙区政府,臭氧1小时,93,85,93,32,38,194,,190,190,17,22,5,6,0.7,0.7
2024-09-26T1800,1234A,121.8358,29.911,宁波市,区环保大楼,,21,12,47,3,25,64,,77,75,41,48,7,6,0.5,0.8
2024-09-26T1800,1235A,121.56,29.82,宁波市,万里学院,,28,18,39,3,40,89,,108,108,21,36,8,6,0.6,0.8
2024-09-26T1800,1236A,121.713,29.9572,宁波市,龙赛医院,,27,24,42,7,29,86,,95,95,25,39,8,8,0.5,0.8
2024-09-26T1800,1239A,121.633,29.7733,宁波市,钱湖水厂,,21,10,43,3,29,66,,89,89,17,27,8,8,0.6,0.8
2024-09-26T1800,1240A,121.5856,29.8635,宁波市,太古小学,,26,7,46,6,29,82,,103,103,21,33,10,8,0.7,1
2024-09-26T1800,1241A,121.524,29.8674,宁波市,市环境监测中心,,30,18,37,8,25,94,,108,106,16,41,7,12,0.6,0.9
2024-09-26T1800,2871A,121.6147,29.9017,宁波市,万里国际学校,,28,,34,9,30,87,,106,106,21,30,9,8,0.5,0.8
2024-09-26T1800,3710A,121.5594,29.8975,宁波市,白沙活动中心,,30,6,69,3,24,94,,104,104,20,30,10,9,0.3,0.6
2024-09-26T1800,2341A,119.5388,26.6612,宁德市,宁德市监测站,,18,13,12,12,8,49,,57,57,20,16,6,6,0.7,0.7
2024-09-26T1800,3209A,119.5231,26.6562,宁德市,宁德一中,,25,25,16,8,9,55,,64,64,7,7,5,5,0.4,0.5
2024-09-26T1800,2618A,98.8601,25.8567,怒江傈僳族自治州,州监测站,,29,29,27,15,18,54,,53,53,8,10,5,6,0.6,0.5
2024-09-26T1800,2619A,98.8546,25.8417,怒江傈僳族自治州,泸水一中,,48,48,23,25,16,48,,51,51,18,14,8,6,0.5,0.4
2024-09-26T1800,1888A,101.6891,26.571,攀枝花市,弄弄坪,,48,48,36,33,18,68,,69,69,30,21,9,11,0.6,0.8
2024-09-26T1800,1889A,101.5769,26.5928,攀枝花市,河门口,,33,33,30,23,21,67,,68,61,31,19,21,12,2.2,1.1
2024-09-26T1800,1890A,101.7169,26.585,攀枝花市,炳草岗,细颗粒物(PM2.5),60,,34,43,22,71,,64,64,29,27,11,10,0.7,0.8
2024-09-26T1800,1891A,101.7369,26.5008,攀枝花市,仁和,细颗粒物(PM2.5),62,50,28,44,22,80,,78,78,19,13,7,6,0.7,0.5
2024-09-26T1800,2835A,101.7227,26.567,攀枝花市,四十中小,,32,22,27,22,18,66,,64,64,28,18,5,8,0.8,1
2024-09-26T1800,1604A,122.0303,41.1489,盘锦市,开发区,,36,36,32,18,30,88,,104,104,24,28,40,18,0.2,0.4
2024-09-26T1800,1605A,122.0485,41.0883,盘锦市,兴隆台,,27,27,27,10,21,80,,101,101,38,32,6,7,0.3,0.4
2024-09-26T1800,1606A,121.8297,41.1028,盘锦市,新生街道,,32,16,24,10,21,102,,114,112,13,29,8,8,0.3,0.5
2024-09-26T1800,1832A,113.3257,33.742,平顶山市,新华旅馆,颗粒物(PM10),63,76,117,41,50,151,,179,179,28,41,6,8,0.6,0.7
2024-09-26T1800,1833A,113.2919,33.737,平顶山市,规划设计院,臭氧1小时,64,61,105,35,51,171,,188,186,18,44,7,8,0.6,0.6
2024-09-26T1800,1834A,113.182,33.774,平顶山市,平顶山工学院,臭氧1小时,83,79,103,39,54,186,,189,189,16,32,7,10,0.5,0.6
2024-09-26T1800,3204A,113.3025,33.73,平顶山市,规划局,颗粒物(PM10),65,80,126,37,57,166,,182,182,18,39,5,6,0.7,0.8
2024-09-26T1800,3594A,112.8867,33.9116,平顶山市,石龙区,臭氧1小时,97,101,174,39,53,197,,191,191,20,72,11,17,0.6,0.9
2024-09-26T1800,2656A,106.6692,35.5461,平凉市,聚贤嘉苑,,34,30,29,12,11,108,,99,99,18,29,11,9,0.2,0.3
2024-09-26T1800,2657A,106.7021,35.5307,平凉市,博物馆,,37,32,43,10,14,116,,107,107,10,23,8,9,0.2,0.2
2024-09-26T1800,2347A,114.0997,27.5002,萍乡市,武功山,,28,28,32,7,9,73,,90,90,7,5,9,9,0.5,0.5
2024-09-26T1800,2348A,113.8385,27.6434,萍乡市,中医院,颗粒物(PM10),51,51,58,30,33,122,,125,125,14,18,9,15,0.8,1
2024-09-26T1800,2349A,113.8493,27.6253,萍乡市,市政府车库,,48,48,44,10,37,120,,122,122,12,13,13,14,0.8,0.8
2024-09-26T1800,2350A,113.8676,27.6435,萍乡市,市环保局,,42,42,56,23,37,115,,115,115,9,16,6,10,0.6,0.8
2024-09-26T1800,2351A,113.866,27.6198,萍乡市,安源区政府,颗粒物(PM10),52,54,46,29,25,121,,121,121,17,16,8,8,0.5,0.5
2024-09-26T1800,2319A,119.0141,25.4325,莆田市,荔城区仓后路,,25,21,21,3,7,78,,86,86,16,15,8,8,0.6,0.6
2024-09-26T1800,2320A,119.0015,25.4553,莆田市,莆田市监测站,,27,14,18,6,4,84,,84,84,11,8,6,6,0.6,0.6
2024-09-26T1800,2321A,119.1119,25.4561,莆田市,涵江区六中,,26,21,18,7,9,83,,85,85,12,14,8,8,0.8,0.7
2024-09-26T1800,2322A,119.1013,25.3215,莆田市,秀屿区政府,,27,17,19,3,5,85,,90,90,9,10,9,8,0.6,0.7
2024-09-26T1800,2392A,115.0312,35.7636,濮阳市,环保局,细颗粒物(PM2.5),122,118,118,92,107,199,,176,176,35,33,14,13,0.8,0.7
2024-09-26T1800,2394A,115.0574,35.7609,濮阳市,油田运输公司,细颗粒物(PM2.5),105,136,152,79,100,201,,185,185,32,33,11,9,0.7,0.7
2024-09-26T1800,2395A,115.0866,35.7754,濮阳市,油田物探公司,细颗粒物(PM2.5),112,142,172,84,112,202,,188,188,31,35,10,8,0.7,0.7
2024-09-26T1800,3021A,115,35.7668,濮阳市,濮水河管理处,细颗粒物(PM2.5),115,110,138,87,110,180,,153,153,29,30,11,9,0.6,0.6
2024-09-26T1800,2601A,100.98,22.7633,普洱市,市环保局,,27,27,29,6,16,58,,67,67,5,6,4,4,0.4,0.5
2024-09-26T1800,2602A,100.9817,22.8322,普洱市,普洱第二中学,,29,29,33,13,14,67,,74,74,4,10,8,9,0.4,0.6
2024-09-26T1800,2262A,131.0518,45.8751,七台河市,新一中,,18,13,9,9,7,57,,75,73,12,6,7,8,1.2,1.1
2024-09-26T1800,3345A,131.0577,45.7879,七台河市,中波台,,15,,7,7,5,48,,72,60,10,14,6,6,0.3,0.3
2024-09-26T1800,3637A,131.0176,45.7761,七台河市,人民广场,,17,12,10,3,9,53,,65,64,11,13,7,8,0.3,0.3
2024-09-26T1800,3684A,130.8781,45.8222,七台河市,新建矿广场,颗粒物(PM10),51,51,20,21,13,39,,58,55,20,13,5,5,0.6,0.4
2024-09-26T1800,1779A,123.9305,47.3636,齐齐哈尔市,安居小区,,43,43,44,21,24,51,,85,83,43,34,11,10,0.8,0.6
2024-09-26T1800,1780A,123.9488,47.3386,齐齐哈尔市,中心广场,,,,43,28,8,58,,85,83,35,34,3,2,0.5,0.6
2024-09-26T1800,1781A,123.9483,47.3227,齐齐哈尔市,农牧车辆厂,,36,36,48,10,13,72,,86,85,19,28,8,8,0.4,0.4
2024-09-26T1800,1783A,123.945,47.2988,齐齐哈尔市,市环境监测站,,31,31,38,19,24,80,,92,92,17,27,8,8,0.3,0.4
2024-09-26T1800,3662A,123.6333,47.2075,齐齐哈尔市,富区青少年活动中心,,28,28,49,18,19,74,,79,79,19,18,5,6,0.5,0.6
2024-09-26T1800,2591A,107.9783,26.5747,黔东南苗族侗族自治州,市环境监测站,,36,34,37,25,29,113,,119,119,21,28,5,4,0.5,0.5
2024-09-26T1800,2881A,107.8908,26.5311,黔东南苗族侗族自治州,凯里学院,,42,27,29,25,21,133,,137,137,12,19,4,3,0.6,0.8
2024-09-26T1800,2593A,107.5228,26.2403,黔南布依族苗族自治州,小围寨,,45,17,26,17,21,144,,133,133,4,14,5,5,0.6,0.6
2024-09-26T1800,3538A,107.5175,26.2978,黔南布依族苗族自治州,沙坝,,39,39,31,14,20,122,,122,122,5,13,3,4,0.5,0.6
2024-09-26T1800,2589A,104.9022,25.0925,黔西南布依族苗族自治州,场坝街,,30,20,37,16,25,95,,99,99,6,10,2,5,0.3,0.4
2024-09-26T1800,2590A,104.8811,25.0992,黔西南布依族苗族自治州,坪东大道,,28,26,37,18,28,89,,96,96,6,14,7,8,0.3,0.4
2024-09-26T1800,2502A,108.6236,21.9667,钦州市,市环保站,颗粒物(PM10),62,73,63,39,32,140,,103,103,17,26,11,8,1.1,0.9
2024-09-26T1800,2503A,108.6549,21.9481,钦州市,沙埠小学,细颗粒物(PM2.5),64,47,71,46,38,153,,110,110,15,30,9,7,1.4,1.2
2024-09-26T1800,2504A,108.5989,21.7431,钦州市,港区一小,颗粒物(PM10),57,64,88,34,40,139,,143,143,22,35,17,8,1.0,1
2024-09-26T1800,3404A,108.5959,21.9633,钦州市,北职校,细颗粒物(PM2.5),74,,66,54,41,141,,108,108,16,25,10,6,1.2,1
2024-09-26T1800,1042A,119.5134,39.8207,秦皇岛市,北戴河环保局,,32,20,21,7,6,101,,92,92,10,27,3,3,0.3,0.3
2024-09-26T1800,1043A,119.7493,40.0116,秦皇岛市,第一关,,32,,31,22,21,101,,94,94,14,47,2,3,0.3,0.3
2024-09-26T1800,1044A,119.5897,39.9499,秦皇岛市,监测站,,29,22,25,16,18,92,,92,92,15,25,3,3,0.3,0.3
2024-09-26T1800,1046A,119.5251,39.9041,秦皇岛市,建设大厦,,31,28,30,8,9,99,,96,96,6,25,3,2,0.2,0.3
2024-09-26T1800,3132A,119.610547,39.943889,秦皇岛市,文明里,,33,33,28,9,8,99,,97,97,14,22,3,2,0.4,0.4
2024-09-26T1800,1307A,120.6659,36.2403,青岛市,仰口,,40,29,43,20,30,126,,142,142,5,9,7,8,0.6,0.6
2024-09-26T1800,1310A,120.4134,36.0658,青岛市,市南区东部子站,臭氧1小时,105,63,71,31,30,209,,197,197,21,35,7,8,0.6,0.7
2024-09-26T1800,1311A,120.3664,36.1032,青岛市,四方区子站,臭氧1小时,101,78,72,41,38,202,,192,192,37,41,12,11,0.8,0.7
2024-09-26T1800,1312A,120.2994,36.054,青岛市,市南区西部子站,臭氧1小时,103,58,63,22,26,205,,191,191,12,20,9,10,0.8,0.8
2024-09-26T1800,1313A,120.4581,36.0858,青岛市,崂山区子站,臭氧1小时,107,56,63,29,31,214,,209,209,17,32,10,10,0.7,0.7
2024-09-26T1800,1314A,120.1983,35.9608,青岛市,黄岛区子站,臭氧1小时,113,68,67,39,36,226,,186,186,18,32,10,11,0.6,0.6
2024-09-26T1800,1315A,120.3999,36.3083,青岛市,城阳区子站,,38,34,64,12,33,120,,155,153,27,35,9,10,0.6,0.8
2024-09-26T1800,1966A,120.0405,35.8735,青岛市,黄岛区4号,臭氧1小时,115,70,72,44,40,230,,214,214,21,26,8,9,0.7,0.7
2024-09-26T1800,3362A,120.5014,36.4034,青岛市,即墨2号,,34,30,67,9,30,107,,140,133,24,24,8,10,0.5,0.6
2024-09-26T1800,3642A,120.3503,36.0736,青岛市,市北区南部,臭氧1小时,104,60,57,34,33,208,,190,190,17,36,8,10,0.6,0.6
2024-09-26T1800,3643A,120.3948,36.1805,青岛市,李沧区北部,臭氧1小时,87,100,79,44,42,189,,184,184,52,44,11,10,0.9,0.8
2024-09-26T1800,1702A,113.0426,23.691,清远市,环保大楼,,22,21,39,11,18,69,,78,78,16,16,8,6,1.0,1
2024-09-26T1800,1703A,113.0208,23.7106,清远市,凤城街办,,22,15,25,10,15,70,,76,76,8,13,7,7,0.8,0.9
2024-09-26T1800,3025A,113.0477,23.6344,清远市,技师学院,,22,11,36,7,19,70,,84,84,3,22,6,7,0.7,0.9
2024-09-26T1800,3318A,112.9903,23.7403,清远市,清新太和,,21,21,23,10,12,45,,65,65,6,10,2,2,0.7,0.7
2024-09-26T1800,3455A,113.076,23.7198,清远市,清城东城,,32,32,27,16,14,80,,82,82,7,7,3,2,0.8,0.8
2024-09-26T1800,2661A,107.6325,35.7357,庆阳市,庆阳五中,,36,30,63,12,34,114,,148,118,8,12,6,8,0.3,0.4
2024-09-26T1800,2662A,107.6364,35.7067,庆阳市,市环保局,,37,29,57,12,32,118,,145,117,8,12,6,7,0.3,0.5
2024-09-26T1800,1916A,103.7897,25.5035,曲靖市,环境监测站,,42,42,43,19,23,124,,112,112,11,12,4,6,0.7,0.8
2024-09-26T1800,1917A,103.8,25.5364,曲靖市,烟厂办公区,,41,32,44,14,22,129,,112,112,9,10,4,4,0.3,0.5
2024-09-26T1800,3376A,103.7947,25.462,曲靖市,南苑二区,,41,29,42,20,28,129,,112,112,10,11,8,12,0.3,0.5
2024-09-26T1800,3377A,103.7444,25.5261,曲靖市,曲靖师范学院,,41,40,35,20,25,129,,115,115,6,11,6,9,0.5,0.6
2024-09-26T1800,1264A,118.8692,28.9398,衢州市,环保大楼,,36,30,46,23,31,113,,136,134,16,24,3,3,0.7,0.7
2024-09-26T1800,1265A,118.8709,28.9666,衢州市,实验学校,,33,28,49,22,37,104,,135,132,14,21,6,6,0.7,0.7
2024-09-26T1800,1266A,118.8621,28.9808,衢州市,衢州学院,,32,30,52,17,29,100,,135,130,18,24,7,8,0.7,0.7
2024-09-26T1800,1611A,118.5819,24.9117,泉州市,涂山街,,24,16,18,6,12,75,,106,105,12,12,2,2,0.6,0.7
2024-09-26T1800,1612A,118.5972,24.8978,泉州市,津头埔,,23,16,19,3,12,72,,102,100,10,13,3,4,0.6,0.7
2024-09-26T1800,1613A,118.6663,24.9424,泉州市,万安,,24,13,19,3,11,74,,104,103,6,12,2,3,0.6,0.7
2024-09-26T1800,3529A,118.6333,24.9264,泉州市,城华南路,,24,,13,15,13,75,,102,101,8,10,3,3,0.3,0.4
2024-09-26T1800,2626A,88.8876,29.2718,日喀则市,日喀则监测站,,30,8,6,3,3,96,,97,97,4,6,4,5,0.3,0.3
2024-09-26T1800,3726A,88.8781,29.2426,日喀则市,林业技术推广中心,,30,7,6,3,1,93,,96,96,8,7,6,6,0.5,0.4
2024-09-26T1800,1659A,119.471,35.4209,日照市,监测站,臭氧1小时,112,63,50,39,32,224,,212,212,23,40,12,11,0.7,0.7
2024-09-26T1800,1660A,119.523,35.4216,日照市,市政府广场,臭氧1小时,123,61,50,38,30,246,,227,227,18,18,12,11,0.6,0.6
2024-09-26T1800,1661A,119.5587,35.4044,日照市,港务局,臭氧1小时,119,63,44,38,30,238,,230,230,13,13,5,9,0.4,0.4
2024-09-26T1800,3507A,119.5328,35.4625,日照市,职业技术学院,臭氧1小时,120,61,50,39,28,240,,222,222,18,17,10,10,0.7,0.6
2024-09-26T1800,3604A,119.3266,35.1044,日照市,岚山环保分局,臭氧1小时,111,66,48,42,28,221,,210,210,33,26,14,21,0.7,1.3
2024-09-26T1800,1835A,111.1922,34.7752,三门峡市,市政府,臭氧1小时,109,109,100,52,62,217,,194,194,22,21,15,16,1.0,1
2024-09-26T1800,1836A,111.1587,34.7942,三门峡市,开发区,臭氧1小时,102,118,125,53,67,204,,179,179,21,19,14,14,0.7,0.7
2024-09-26T1800,1838A,111.143,34.7955,三门峡市,风景区,臭氧1小时,112,109,102,58,53,224,,198,198,20,19,14,14,0.9,1
2024-09-26T1800,3039A,111.1911,34.7829,三门峡市,三门峡市第一小学,臭氧1小时,105,111,101,52,62,210,,186,186,19,19,12,13,0.8,0.9
2024-09-26T1800,3598A,111.1,34.7167,三门峡市,富达温泉假日酒店,臭氧1小时,109,129,123,53,69,217,,184,184,23,24,15,18,0.9,1
2024-09-26T1800,2324A,117.6211,26.2625,三明市,三钢,,26,26,22,12,13,44,,49,49,17,14,11,10,0.9,0.9
2024-09-26T1800,2325A,117.635,26.2714,三明市,三明二中,,30,30,20,16,12,41,,52,52,21,11,3,5,1.0,1
2024-09-26T1800,2326A,117.6028,26.2378,三明市,三元区政府,,14,14,25,9,16,41,,53,53,20,15,2,4,0.6,0.6
2024-09-26T1800,1876A,109.5078,18.2489,三亚市,河东子站,,18,8,11,3,6,56,,73,72,6,8,4,4,0.1,0.3
2024-09-26T1800,1877A,109.4964,18.2681,三亚市,河西子站,,20,8,11,3,5,64,,72,72,4,8,3,4,0.3,0.4
2024-09-26T1800,3540A,109.7348,18.3443,三亚市,君悦子站,,19,7,14,3,5,59,,70,68,4,10,3,3,0.3,0.3
2024-09-26T1800,2624A,91.7608,29.2313,山南市,山南监测站,,26,22,6,11,5,81,,83,83,7,5,8,8,0.3,0.3
2024-09-26T1800,2625A,91.7706,29.2436,山南市,山南人民医院,,25,16,12,8,7,80,,82,82,10,9,8,8,0.3,0.3
2024-09-26T1800,1674A,116.6794,23.3667,汕头市,金平子站,细颗粒物(PM2.5),52,,32,36,18,155,,132,132,8,13,5,6,0.9,0.9
2024-09-26T1800,1675A,116.7244,23.3633,汕头市,龙湖子站,细颗粒物(PM2.5),54,,27,38,15,137,,130,130,4,10,7,8,0.5,0.7
2024-09-26T1800,1676A,116.7258,23.2775,汕头市,濠江子站,细颗粒物(PM2.5),67,,27,48,19,146,,131,131,14,13,7,7,0.8,0.9
2024-09-26T1800,1677A,116.7519,23.4714,汕头市,澄海子站,,43,31,31,23,17,136,,131,131,7,16,5,9,0.9,0.9
2024-09-26T1800,1678A,116.6092,23.2539,汕头市,潮阳子站,,39,26,22,12,3,122,,120,120,3,7,6,6,0.5,0.6
2024-09-26T1800,3444A,116.454,23.2684,汕头市,潮南峡山,,33,24,23,15,13,105,,98,98,6,7,6,6,0.5,0.4
2024-09-26T1800,3624A,116.4069,23.2533,汕头市,潮南子站,,32,31,36,10,18,100,,100,100,9,17,5,6,0.6,0.7
2024-09-26T1800,1693A,115.3653,22.775,汕尾市,市环保局,,46,25,19,11,10,145,,131,131,7,8,7,7,0.8,0.7
2024-09-26T1800,1694A,115.3706,22.7898,汕尾市,市政府,,41,13,17,9,9,129,,117,117,7,10,7,7,0.6,0.5
2024-09-26T1800,1695A,115.3622,22.7925,汕尾市,新城中学,,41,16,23,9,10,130,,120,120,6,9,6,6,0.8,0.8
2024-09-26T1800,2645A,109.9154,33.8715,商洛市,监测站,颗粒物(PM10),58,65,47,28,25,156,,152,152,16,26,6,6,0.4,0.5
2024-09-26T1800,3045A,109.9643,33.8471,商洛市,商州区中学,颗粒物(PM10),61,72,60,23,25,155,,149,149,17,32,7,9,0.7,0.7
2024-09-26T1800,2408A,115.6702,34.4285,商丘市,环境监测站,,,,63,,40,133,,139,139,18,29,,6,0.5,0.5
2024-09-26T1800,2409A,115.6458,34.4045,商丘市,粮食局,颗粒物(PM10),53,56,60,28,39,144,,146,146,11,18,5,5,0.7,0.7
2024-09-26T1800,2410A,115.6293,34.3948,商丘市,睢阳区环保局,颗粒物(PM10),53,55,61,25,34,146,,143,143,12,26,3,5,0.5,0.5
2024-09-26T1800,3171A,115.6071,34.4465,商丘市,梁园区档案局,,46,46,68,27,37,124,,122,122,12,37,4,5,0.6,0.6
2024-09-26T1800,1141A,121.4,31.238,上海市,普陀,,20,10,18,7,17,62,,73,73,25,40,5,6,0.7,0.8
2024-09-26T1800,1142A,121.478,31.2036,上海市,十五厂,,19,14,19,10,14,60,,76,76,38,50,8,9,0.5,0.5
2024-09-26T1800,1143A,121.467,31.3008,上海市,虹口,,23,12,17,9,15,71,,74,74,19,43,8,9,0.4,0.5
