timepoint,stationcode,longitude,latitude,area,positionname,primarypollutant,aqi,pm10,pm10_24h,pm2_5,pm2_5_24h,o3,o3_24h,o3_8h,o3_8h_24h,no2,no2_24h,so2,so2_24h,co,co_24h
2022-07-28T12:00:00,1001A,116.3621,39.8784,北京市,万寿西宫,,23,9,13,6,10,107,73,79,68,13,12,3,3,0.5,0.6
2022-07-28T12:00:00,1002A,116.2202,40.2915,北京市,定陵(对照点),,,4,10,,6,106,61,70,54,3,3,3,3,0.3,0.4
2022-07-28T12:00:00,1003A,116.4174,39.9289,北京市,东四,,25,9,14,5,10,119,77,105,79,19,16,1,2,0.4,0.4
2022-07-28T12:00:00,1004A,116.4072,39.8863,北京市,天坛,,20,8,15,4,10,101,61,82,61,19,16,3,3,0.5,0.5
2022-07-28T12:00:00,1005A,116.462,39.9365,北京市,农展馆,,,5,16,9,12,115,55,89,80,2,12,12,4,0.5,0.5
2022-07-28T12:00:00,1006A,116.3392,39.9295,北京市,官园,,25,10,14,6,11,128,78,83,74,15,15,2,2,0.4,0.5
2022-07-28T12:00:00,1007A,116.2878,39.9611,北京市,海淀万柳,,15,12,14,7,9,106,47,64,51,2,18,2,2,0.4,0.4
2022-07-28T12:00:00,1008A,116.6636,40.135,北京市,顺义新城,,19,5,15,2,9,97,60,76,66,3,5,3,3,0.3,0.4
2022-07-28T12:00:00,1009A,116.6275,40.3275,北京市,怀柔镇,,16,6,13,5,9,104,51,86,56,18,8,3,3,0.3,0.4
2022-07-28T12:00:00,1010A,116.2296,40.217,北京市,昌平镇,,15,8,15,5,12,99,48,58,39,10,11,3,2,0.3,0.4
2022-07-28T12:00:00,1011A,116.3966,39.9821,北京市,奥体中心,,21,10,19,6,11,103,65,82,63,16,18,3,3,0.5,0.5
2022-07-28T12:00:00,1012A,116.184,39.9136,北京市,古城,,21,11,14,6,11,98,67,61,61,18,19,3,3,0.4,0.4
2022-07-28T12:00:00,1015A,117.1444,39.1661,天津市,勤俭道,,20,18,29,12,20,160,63,70,68,14,15,7,8,0.6,0.6
2022-07-28T12:00:00,1017A,117.237,39.1082,天津市,大直沽八号路,,,18,27,15,20,144,58,67,63,,12,8,8,0.6,0.6
2022-07-28T12:00:00,1018A,117.202,39.0927,天津市,前进道,,22,17,25,15,17,162,63,75,69,19,15,5,6,0.8,0.8
2022-07-28T12:00:00,1019A,117.1837,39.2133,天津市,淮河道,,20,18,26,12,17,158,63,72,69,18,16,7,7,0.6,0.6
2022-07-28T12:00:00,1021A,117.307,39.0877,天津市,跃进路,,,,30,,15,158,56,69,61,19,17,6,7,0.5,0.5
2022-07-28T12:00:00,1023A,117.707,39.0343,天津市,第四大街,,45,45,33,31,19,96,22,76,31,31,18,5,5,0.9,0.7
2022-07-28T12:00:00,1024A,117.457,38.8394,天津市,永明路,,38,38,22,23,16,124,34,92,45,32,10,7,6,2.0,0.6
2022-07-28T12:00:00,1026A,117.764,39.1587,天津市,汉北路,颗粒物(PM10),54,58,34,36,21,117,31,91,34,20,9,6,6,1.0,0.8
2022-07-28T12:00:00,1027A,117.157,38.9194,天津市,团泊洼(对照点),,20,20,20,10,12,139,63,69,65,19,14,5,6,0.9,0.8
2022-07-28T12:00:00,1029A,114.4422,38.0444,石家庄市,职工医院,,,20,18,8,18,125,125,104,104,5,15,,5,0.1,0.3
2022-07-28T12:00:00,1030A,114.6063,38.0266,石家庄市,高新区,,,16,28,9,19,122,,99,99,,17,3,3,0.3,0.4
2022-07-28T12:00:00,1031A,114.4898,38.1328,石家庄市,西北水源,,38,13,25,7,20,121,121,102,102,5,11,3,3,0.4,0.5
2022-07-28T12:00:00,1032A,114.4586,38.0058,石家庄市,西南高教,,39,26,24,7,13,123,123,101,101,5,14,3,3,0.4,0.6
2022-07-28T12:00:00,1033A,114.5331,38.0178,石家庄市,世纪公园,,37,19,30,17,24,118,118,98,95,6,10,4,3,0.3,0.4
2022-07-28T12:00:00,1034A,114.509,38.0457,石家庄市,人民会堂,,40,14,21,13,19,125,125,107,107,8,15,3,4,0.4,0.6
2022-07-28T12:00:00,1035A,114.3524,37.8911,石家庄市,封龙山(对照点),,38,8,17,7,15,122,120,114,101,8,8,5,5,0.4,0.5
2022-07-28T12:00:00,1037A,118.131,39.6363,唐山市,雷达站,颗粒物(PM10),54,57,42,29,17,136,68,81,60,15,8,1,2,0.6,0.5
2022-07-28T12:00:00,1038A,118.1725,39.6334,唐山市,物资局,,,47,37,35,26,132,66,75,57,12,8,,5,0.6,0.5
2022-07-28T12:00:00,1040A,118.1705,39.6506,唐山市,十二中,,41,41,33,22,14,130,70,72,55,18,15,3,3,0.6,0.7
2022-07-28T12:00:00,1041A,118.1869,39.622,唐山市,小山,细颗粒物(PM2.5),57,35,29,40,25,129,62,73,50,18,11,3,4,0.6,0.5
2022-07-28T12:00:00,1042A,119.5134,39.8207,秦皇岛市,北戴河环保局,,23,21,28,6,6,124,72,94,86,11,6,3,2,0.3,0.3
2022-07-28T12:00:00,1043A,119.7493,40.0116,秦皇岛市,第一关,,,16,29,2,13,125,,86,47,19,22,,3,0.4,0.6
2022-07-28T12:00:00,1044A,119.5897,39.9499,秦皇岛市,监测站,,24,18,25,11,19,115,74,91,66,9,10,4,5,0.1,0.2
2022-07-28T12:00:00,1046A,119.5251,39.9041,秦皇岛市,建设大厦,,29,24,23,20,12,126,70,61,59,12,14,3,2,0.5,0.5
2022-07-28T12:00:00,1047A,114.5129,36.61763,邯郸市,环保局,,,,,,,,,,,,,,,,
2022-07-28T12:00:00,1048A,114.5302,36.6116,邯郸市,东污水处理厂,,40,13,28,5,18,175,126,104,100,2,5,3,4,0.7,0.8
2022-07-28T12:00:00,1049A,114.4918,36.5713,邯郸市,矿院,,,9,25,1,12,182,128,104,100,6,8,,3,0.5,0.8
2022-07-28T12:00:00,1050A,114.484,36.6133,邯郸市,丛台公园,,39,24,37,7,15,173,123,104,95,6,8,4,4,0.4,0.6
2022-07-28T12:00:00,1051A,115.493,38.8632,保定市,游泳馆,,37,14,23,0,11,119,117,117,94,10,13,3,2,0.1,0.3
2022-07-28T12:00:00,1052A,115.5213,38.8959,保定市,华电二区,,37,7,21,4,12,117,117,111,90,2,5,4,4,0.3,0.4
2022-07-28T12:00:00,1053A,115.4713,38.9108,保定市,接待中心,,36,6,17,10,15,119,113,119,92,7,10,4,5,0.6,0.6
2022-07-28T12:00:00,1054A,115.4612,38.8416,保定市,地表水厂,,,14,27,10,14,122,,120,92,3,7,,4,0.3,0.4
2022-07-28T12:00:00,1055A,115.4323,38.8697,保定市,胶片厂,,39,4,12,0,10,124,122,124,99,11,11,4,4,0.4,0.4
2022-07-28T12:00:00,1056A,115.5086,38.8639,保定市,监测站,,40,6,19,6,19,127,127,124,98,6,8,6,7,0.2,0.3
2022-07-28T12:00:00,1057A,114.8883,40.8336,张家口市,人民公园,,41,23,22,3,7,129,129,73,73,11,12,6,6,0.3,0.4
2022-07-28T12:00:00,1059A,114.8687,40.8042,张家口市,五金库,,40,22,19,12,12,127,127,70,67,14,16,8,7,0.3,0.3
2022-07-28T12:00:00,1060A,114.8902,40.762,张家口市,世纪豪园,,40,29,26,12,14,131,126,84,77,13,16,6,6,0.2,0.2
2022-07-28T12:00:00,1061A,114.8916,40.8661,张家口市,北泵房(对照点),,40,21,25,5,17,126,126,65,65,5,7,5,5,0.5,0.6
2022-07-28T12:00:00,1062A,117.9531,40.9081,承德市,铁路,,26,12,19,13,19,122,82,81,63,10,27,4,4,0.3,0.5
2022-07-28T12:00:00,1063A,117.9392,40.9763,承德市,中国银行,,26,7,9,5,14,132,81,83,68,5,9,7,6,0.2,0.4
2022-07-28T12:00:00,1064A,117.9503,40.928,承德市,开发区,,28,18,28,8,17,134,88,74,74,8,15,2,4,0.4,0.6
2022-07-28T12:00:00,1065A,117.8051,40.9655,承德市,文化中心,,22,12,14,2,20,131,69,86,75,12,10,5,6,0.5,0.6
2022-07-28T12:00:00,1066A,117.9268,41.0026,承德市,离宫(对照点),,21,9,18,12,17,131,65,51,51,3,6,2,1,0.3,0.4
2022-07-28T12:00:00,1067A,116.6708,39.5111,廊坊市,药材公司,,21,13,15,7,14,122,67,94,76,22,17,5,5,0.3,0.4
2022-07-28T12:00:00,1068A,116.7214,39.5589,廊坊市,开发区,,20,2,12,1,10,112,63,93,76,19,17,6,7,0.4,0.4
2022-07-28T12:00:00,1070A,116.7244,39.5269,廊坊市,北华航天学院,,22,22,26,6,18,129,66,95,77,20,16,5,6,0.3,0.4
2022-07-28T12:00:00,1071A,116.8842,38.2991,沧州市,沧县城建局,,25,25,36,16,21,159,61,55,55,13,13,6,7,0.4,0.3
2022-07-28T12:00:00,1072A,116.8584,38.3254,沧州市,电视转播站,,29,29,32,7,16,162,65,61,61,15,13,11,8,0.4,0.3
2022-07-28T12:00:00,1073A,116.8709,38.3228,沧州市,市环保局,,28,20,32,19,18,160,63,57,56,14,10,5,6,0.2,0.2
2022-07-28T12:00:00,1074A,115.6838,37.7541,衡水市,电机北厂,,30,14,22,12,16,170,95,84,84,9,10,5,5,0.4,0.5
2022-07-28T12:00:00,1075A,115.6303,37.7316,衡水市,市监测站,,26,15,34,5,12,182,82,87,85,8,8,4,5,0.5,0.6
2022-07-28T12:00:00,1077A,114.4704,37.0886,邢台市,达活泉,,39,10,26,7,15,155,124,106,96,2,3,6,7,0.3,0.4
2022-07-28T12:00:00,1078A,114.5062,37.0349,邢台市,邢师高专,,,,25,,14,141,118,106,92,6,6,4,6,,0.3
2022-07-28T12:00:00,1079A,114.5237,37.0851,邢台市,路桥公司,,37,2,28,9,18,152,116,97,90,2,3,4,4,0.4,0.5
2022-07-28T12:00:00,1080A,114.4725,37.0719,邢台市,市环保局,,38,12,34,7,15,153,119,103,93,5,5,6,5,0.3,0.4
2022-07-28T12:00:00,1081A,112.5139,37.8873,太原市,尖草坪,,35,28,25,13,13,111,111,48,48,19,25,16,6,0.7,0.5
2022-07-28T12:00:00,1083A,112.434,38.0108,太原市,上兰(对照点),,,,,,,,,,,,,,,,
2022-07-28T12:00:00,1084A,112.469,37.7124,太原市,晋源,,44,44,26,25,19,111,100,33,33,17,29,14,11,0.6,0.5
2022-07-28T12:00:00,1085A,112.5583,37.7394,太原市,小店,,44,44,35,26,20,107,98,36,36,27,40,12,8,0.7,0.8
2022-07-28T12:00:00,1086A,112.5369,37.8692,太原市,桃园,,41,41,28,19,13,109,104,47,47,33,29,36,11,1.5,0.8
2022-07-28T12:00:00,1087A,112.57,37.8195,太原市,坞城,,37,37,24,20,15,114,111,60,51,26,21,30,11,1.5,0.6
2022-07-28T12:00:00,1088A,112.549,37.9854,太原市,南寨,,,50,37,17,12,104,,28,28,21,25,5,4,0.4,0.4
2022-07-28T12:00:00,1089A,112.4701,37.782,太原市,金胜,,,,,,,,,,,,,,,,
2022-07-28T12:00:00,1090A,111.6507,40.7517,呼和浩特市,呼市一监,,,,32,,15,94,,90,,,17,,6,,0.4
2022-07-28T12:00:00,1091A,111.6572,40.8033,呼和浩特市,小召,,39,34,32,12,14,143,122,87,87,21,20,7,6,0.4,0.4
2022-07-28T12:00:00,1094A,111.7516,40.8369,呼和浩特市,如意水处理厂,,42,33,33,13,15,149,134,81,78,16,22,8,8,0.3,0.4
2022-07-28T12:00:00,1095A,111.7276,40.8062,呼和浩特市,二十九中,,38,23,30,14,15,134,120,76,76,20,20,8,8,0.5,0.4
2022-07-28T12:00:00,1096A,111.5512,40.7866,呼和浩特市,工大金川校区,,39,35,34,20,15,142,122,78,78,16,21,10,6,0.6,0.5
2022-07-28T12:00:00,1097A,111.717,40.7612,呼和浩特市,化肥厂生活区,,40,39,35,18,17,132,125,74,74,15,18,8,6,0.4,0.5
2022-07-28T12:00:00,1098A,123.6836,41.9339,沈阳市,森林路(对照点),,,,,,,,,,,,,,,,
2022-07-28T12:00:00,1099A,123.505,41.7406,沈阳市,浑南东路,,41,41,55,28,34,184,119,54,54,10,28,6,8,0.8,0.9
2022-07-28T12:00:00,1100A,123.4231,41.6989,沈阳市,新秀街,,,42,51,28,27,173,105,43,34,,27,7,12,,0.8
2022-07-28T12:00:00,1102A,123.5903,41.8411,沈阳市,东陵路,,38,38,49,18,27,167,96,51,51,5,18,8,11,0.6,0.9
2022-07-28T12:00:00,1103A,123.4264,41.8467,沈阳市,陵东街,,46,46,45,26,28,170,110,66,49,16,25,7,6,0.9,0.9
2022-07-28T12:00:00,1104A,123.4114,41.7653,沈阳市,文化路,,40,40,51,23,31,186,115,66,64,12,21,6,11,0.6,0.8
2022-07-28T12:00:00,1105A,123.4678,41.7867,沈阳市,小河沿,,44,44,48,23,28,165,108,48,48,14,22,8,7,0.8,1
2022-07-28T12:00:00,1106A,123.4017,41.7972,沈阳市,太原街,,40,40,47,23,30,184,116,61,61,9,22,4,8,0.5,0.7
2022-07-28T12:00:00,1108A,123.3783,41.9228,沈阳市,京沈街,,46,46,59,31,33,204,124,72,56,16,26,10,12,0.8,0.9
2022-07-28T12:00:00,1109A,121.612,38.9741,大连市,甘井子,,27,18,24,12,12,106,84,101,87,8,11,4,4,0.6,0.6
2022-07-28T12:00:00,1110A,121.565,38.9511,大连市,周水子,,26,22,23,10,10,104,81,96,80,3,6,5,6,0.5,0.5
2022-07-28T12:00:00,1111A,121.5637,38.8845,大连市,星海三站,,,,,,,,,,,,,,,,
2022-07-28T12:00:00,1112A,121.6302,38.9117,大连市,青泥洼桥,,,21,20,21,15,118,,113,92,3,4,,6,0.5,0.6
2022-07-28T12:00:00,1113A,121.6251,38.8638,大连市,傅家庄,,34,24,18,15,12,124,106,117,100,1,2,7,8,0.6,0.5
2022-07-28T12:00:00,1114A,121.5213,38.8661,大连市,七贤岭,,,28,22,18,15,186,,177,153,5,4,7,7,1.0,0.8
2022-07-28T12:00:00,1115A,121.2529,38.8061,大连市,旅顺,,30,15,15,14,13,114,94,114,82,6,5,6,6,0.6,0.6
2022-07-28T12:00:00,1116A,121.7485,39.1311,大连市,金州,,26,16,16,15,14,106,83,96,90,6,6,5,5,0.4,0.4
2022-07-28T12:00:00,1117A,121.7811,39.0496,大连市,开发区,,33,21,19,12,13,122,104,115,105,8,9,10,9,0.7,0.7
2022-07-28T12:00:00,1118A,121.9762,39.0631,大连市,双D港,,35,24,16,23,13,119,110,109,106,11,11,8,8,0.5,0.5
2022-07-28T12:00:00,1119A,125.3325,43.9166,长春市,食品厂,,,39,48,7,19,125,88,46,46,13,29,4,3,,0.5
2022-07-28T12:00:00,1120A,125.2863,43.9027,长春市,客车厂,,,,45,,17,134,100,59,59,13,28,4,3,0.4,0.7
2022-07-28T12:00:00,1121A,125.2841,43.8463,长春市,邮电学院,,35,35,43,12,19,124,88,48,48,8,18,4,4,0.3,0.4
2022-07-28T12:00:00,1122A,125.3716,43.8772,长春市,劳动公园,,31,6,48,11,29,114,98,54,54,10,24,3,2,0.2,0.3
2022-07-28T12:00:00,1123A,125.3297,43.8805,长春市,园林处,,38,38,41,14,19,128,98,52,52,14,20,3,3,0.4,0.5
2022-07-28T12:00:00,1124A,125.4605,43.79,长春市,净月潭,,26,23,30,10,13,110,82,50,50,2,6,4,4,0.2,0.3
2022-07-28T12:00:00,1125A,125.7194,43.515,长春市,甩湾子(对照点),,,,,,,,,,,,,,,,
2022-07-28T12:00:00,1126A,125.3863,43.8447,长春市,经开区环卫处,细颗粒物(PM2.5),87,33,35,64,25,120,84,44,44,13,18,3,3,0.4,0.5
2022-07-28T12:00:00,1127A,125.245,43.7783,长春市,高新区管委会,,23,16,40,9,17,104,72,48,48,5,19,4,3,0.4,0.4
2022-07-28T12:00:00,1128A,125.1761,43.8325,长春市,岱山公园,,35,35,54,16,21,112,90,52,52,10,32,5,4,0.4,0.5
2022-07-28T12:00:00,1129A,126.5422,45.755,哈尔滨市,岭北(对照点),,35,11,33,9,22,161,111,77,77,7,19,5,6,0.4,0.6
2022-07-28T12:00:00,1130A,126.561,45.8167,哈尔滨市,松北商大,,30,11,54,11,19,155,96,58,58,11,30,5,5,0.7,0.9
2022-07-28T12:00:00,1131A,126.979,45.5419,哈尔滨市,阿城会宁,,25,18,50,15,22,133,77,58,58,4,14,10,10,0.5,0.5
2022-07-28T12:00:00,1132A,126.599,45.7222,哈尔滨市,南岗学府路,,36,25,45,10,22,166,115,66,66,9,21,13,12,0.4,0.6
2022-07-28T12:00:00,1133A,126.689,45.7733,哈尔滨市,太平宏伟公园,,,,68,16,21,167,109,69,69,9,26,8,8,0.6,0.6
2022-07-28T12:00:00,1134A,126.635,45.7667,哈尔滨市,道外承德广场,,,,48,12,25,164,,55,55,16,26,8,8,0.4,0.6
2022-07-28T12:00:00,1135A,126.685,45.7319,哈尔滨市,香坊红旗大街,,,96,53,15,19,164,101,62,62,,26,8,12,,0.6
2022-07-28T12:00:00,1136A,126.6411,45.7258,哈尔滨市,动力和平路,,,35,54,,,156,108,67,67,13,24,12,10,0.6,0.7
2022-07-28T12:00:00,1137A,126.593,45.7478,哈尔滨市,道里建国路,,,27,53,15,24,165,114,65,65,12,29,8,13,,2.2
2022-07-28T12:00:00,1138A,126.615,45.61,哈尔滨市,平房东轻厂,,30,24,44,12,18,144,93,67,67,5,13,3,2,0.6,0.6
2022-07-28T12:00:00,1139A,126.595,45.9855,哈尔滨市,呼兰师专,,46,44,61,15,22,221,146,71,71,17,23,9,7,0.7,0.8
2022-07-28T12:00:00,1140A,126.6206,45.6842,哈尔滨市,省农科院,,35,24,50,10,17,153,112,68,68,5,20,10,20,0.8,0.6
2022-07-28T12:00:00,1141A,121.4,31.238,上海市,普陀,臭氧1小时,116,48,45,29,26,306,231,120,115,17,21,9,5,0.6,0.5
2022-07-28T12:00:00,1142A,121.478,31.2036,上海市,十五厂,,,,49,,29,257,166,91,84,18,26,,2,,0.9
2022-07-28T12:00:00,1143A,121.467,31.3008,上海市,虹口,臭氧1小时,103,53,51,26,26,262,206,111,102,15,23,3,4,0.5,0.5
2022-07-28T12:00:00,1144A,121.412,31.1654,上海市,徐汇上师大,臭氧1小时,110,52,46,33,27,290,219,103,103,20,28,9,5,0.6,0.6
2022-07-28T12:00:00,1145A,121.536,31.2659,上海市,杨浦四漂,臭氧1小时,80,39,41,28,31,249,184,110,101,8,20,4,4,0.5,0.6
2022-07-28T12:00:00,1146A,120.978,31.0935,上海市,青浦淀山湖(对照点),,,,,,,,,,,,,,,,
2022-07-28T12:00:00,1147A,121.425,31.2261,上海市,静安监测站,臭氧1小时,93,58,50,34,30,272,194,99,97,21,30,3,3,0.4,0.4
2022-07-28T12:00:00,1148A,121.703,31.1907,上海市,浦东川沙,,48,25,40,24,28,205,151,96,83,12,20,4,4,0.3,0.3
2022-07-28T12:00:00,1149A,121.533,31.2284,上海市,浦东新区监测站,,,52,52,35,31,270,,116,81,13,22,5,5,0.5,0.6
2022-07-28T12:00:00,1150A,121.577,31.2071,上海市,浦东张江,,48,33,36,24,28,229,153,85,84,15,25,5,4,0.8,0.8
2022-07-28T12:00:00,1151A,118.8086,32.1065,南京市,迈皋桥,,48,35,43,14,20,262,152,89,89,8,25,1,2,0.4,0.5
2022-07-28T12:00:00,1152A,118.7538,32.0551,南京市,草场门,臭氧1小时,75,34,39,19,21,272,180,101,101,11,24,2,4,0.6,0.7
2022-07-28T12:00:00,1153A,118.7794,32.0745,南京市,山西路,臭氧1小时,104,53,47,27,29,290,208,129,113,6,19,5,4,0.3,0.4
2022-07-28T12:00:00,1154A,118.7752,32.0023,南京市,中华门,臭氧1小时,68,36,45,14,18,273,174,101,101,7,24,3,4,0.8,0.8
2022-07-28T12:00:00,1155A,118.8109,32.0309,南京市,瑞金路,臭氧1小时,87,42,38,22,23,280,189,107,107,6,15,5,4,0.5,0.5
2022-07-28T12:00:00,1156A,118.7997,32.0754,南京市,玄武湖,臭氧1小时,85,32,39,15,21,280,188,103,103,12,27,4,4,0.7,0.8
2022-07-28T12:00:00,1157A,118.6414,32.0931,南京市,浦口,臭氧1小时,73,46,40,19,19,273,178,81,81,14,22,4,4,0.6,0.6
2022-07-28T12:00:00,1158A,118.7356,31.9996,南京市,奥体中心,臭氧1小时,89,44,47,19,24,295,191,116,112,12,23,4,5,0.4,0.6
2022-07-28T12:00:00,1159A,118.9125,32.1028,南京市,仙林大学城,臭氧1小时,65,41,37,22,21,241,172,104,104,4,15,5,6,0.7,0.7
2022-07-28T12:00:00,1160A,120.561,31.2472,苏州市,上方山(对照点),臭氧1小时,113,60,53,29,26,266,226,115,115,17,21,8,7,0.6,0.6
2022-07-28T12:00:00,1161A,120.628,31.2864,苏州市,南门,,,,,,,,,,,,,,,,
2022-07-28T12:00:00,1162A,120.591,31.3019,苏州市,彩香,臭氧1小时,118,38,37,32,28,270,235,115,115,13,15,5,5,0.6,0.6
2022-07-28T12:00:00,1163A,120.596,31.3264,苏州市,轧钢厂,臭氧1小时,115,39,47,23,24,263,229,115,115,17,20,,6,0.5,0.5
2022-07-28T12:00:00,1164A,120.613,31.2703,苏州市,吴中区,臭氧1小时,118,50,41,32,28,280,236,120,120,19,23,5,5,0.5,0.6
2022-07-28T12:00:00,1165A,120.543,31.2994,苏州市,苏州新区,臭氧1小时,118,50,39,41,31,278,236,124,124,16,19,8,7,0.7,0.7
2022-07-28T12:00:00,1166A,120.669,31.3097,苏州市,苏州工业园区,臭氧1小时,100,56,41,29,25,244,200,107,107,15,20,6,5,0.7,0.7
2022-07-28T12:00:00,1167A,120.641,31.3708,苏州市,相城区,臭氧1小时,102,51,41,32,29,266,204,112,106,14,22,5,5,0.5,0.6
2022-07-28T12:00:00,1168A,120.9098,31.9663,南通市,狼山街道,臭氧1小时,134,53,40,39,23,268,268,127,118,28,21,17,11,1.3,0.9
2022-07-28T12:00:00,1169A,120.86,32.0005,南通市,虹桥,臭氧1小时,145,70,42,53,33,290,290,131,131,36,24,17,12,1.1,0.9
2022-07-28T12:00:00,1170A,120.87,32.02,南通市,城中,,,66,39,44,31,190,,117,94,,20,11,7,1.4,0.8
2022-07-28T12:00:00,1171A,120.94,31.93,南通市,星湖花园,臭氧1小时,124,64,39,34,25,251,248,122,120,18,19,14,10,1.2,1
2022-07-28T12:00:00,1172A,120.81,32.0417,南通市,紫琅学院,臭氧1小时,137,72,40,41,24,274,274,127,123,23,14,11,4,1.4,0.9
2022-07-28T12:00:00,1173A,119.176,34.5885,连云港市,市环境监测站,,46,46,36,31,26,148,132,89,89,5,8,3,1,0.5,0.6
2022-07-28T12:00:00,1177A,117.179,34.2761,徐州市,黄河新村,,36,36,47,11,28,192,82,101,70,20,19,8,6,0.7,0.7
2022-07-28T12:00:00,1178A,117.1918,34.2384,徐州市,淮塔,,25,22,52,17,33,191,72,86,62,16,17,5,5,0.5,0.5
2022-07-28T12:00:00,1180A,117.256,34.2153,徐州市,新城区,,32,32,59,5,32,184,69,64,64,20,22,6,6,0.5,0.6
2022-07-28T12:00:00,1181A,117.244,34.2911,徐州市,桃园路,,31,31,57,7,25,188,78,81,61,28,19,11,10,0.8,0.9
2022-07-28T12:00:00,1182A,117.2933,34.2778,徐州市,农科院,,39,39,44,9,22,159,49,76,53,47,24,4,3,0.4,0.5
2022-07-28T12:00:00,1186A,119.389,32.3761,扬州市,邗江监测站,臭氧1小时,114,61,49,27,28,228,228,80,80,16,14,9,6,0.8,0.8
2022-07-28T12:00:00,1188A,120.269,31.4867,无锡市,雪浪,臭氧1小时,92,46,29,36,20,197,193,129,129,1,3,11,10,0.7,0.7
2022-07-28T12:00:00,1189A,120.275,31.6219,无锡市,黄巷,臭氧1小时,117,63,41,29,21,296,234,134,134,16,23,9,9,0.7,0.8
2022-07-28T12:00:00,1190A,120.294,31.56,无锡市,曹张,臭氧1小时,115,47,31,34,19,233,229,133,133,11,14,7,7,0.8,0.8
2022-07-28T12:00:00,1191A,120.242,31.5031,无锡市,漆塘,臭氧1小时,101,51,24,40,19,210,201,135,135,7,7,6,5,0.7,0.8
2022-07-28T12:00:00,1192A,120.3489,31.5863,无锡市,东亭,臭氧1小时,123,70,46,39,29,290,245,116,116,17,26,12,12,0.6,0.7
2022-07-28T12:00:00,1193A,120.354,31.5475,无锡市,旺庄,臭氧1小时,125,56,39,36,23,290,249,128,128,16,26,12,14,0.8,0.9
2022-07-28T12:00:00,1194A,120.245,31.5631,无锡市,荣巷,臭氧1小时,101,48,24,36,20,208,202,130,130,4,4,14,12,0.7,0.7
2022-07-28T12:00:00,1195A,120.299,31.6817,无锡市,堰桥,臭氧1小时,132,73,48,36,26,296,264,118,118,22,21,10,9,0.8,1
2022-07-28T12:00:00,1196A,119.9633,31.762,常州市,市监测站,臭氧1小时,97,56,38,17,17,289,197,121,121,13,19,7,8,0.4,0.6
2022-07-28T12:00:00,1200A,119.9468,31.7069,常州市,武进监测站,臭氧1小时,102,49,34,39,25,296,203,125,125,9,15,8,9,0.7,0.8
2022-07-28T12:00:00,1201A,119.9255,31.9087,常州市,安家,臭氧1小时,144,53,33,42,29,288,288,126,126,18,21,8,8,1.4,0.8
2022-07-28T12:00:00,1203A,119.6707,32.1875,镇江市,新区办事处,臭氧1小时,133,51,38,34,27,265,265,124,124,29,26,6,7,0.9,0.8
2022-07-28T12:00:00,1204A,119.4974,32.1968,镇江市,职教中心,臭氧1小时,124,48,41,40,23,248,248,111,111,25,27,7,5,0.9,0.7
2022-07-28T12:00:00,1205A,119.4303,32.1328,镇江市,丹徒区监测站,,,,41,,27,220,187,94,94,9,22,6,8,0.6,0.7
2022-07-28T12:00:00,1206A,119.905,32.4878,泰州市,公园路,臭氧1小时,84,48,41,29,31,187,187,106,106,11,10,8,7,0.8,0.8
2022-07-28T12:00:00,1207A,119.9189,32.4625,泰州市,莲花,臭氧1小时,85,42,39,29,35,188,188,102,102,12,12,11,9,1.0,0.9
2022-07-28T12:00:00,1209A,119.888,32.4639,泰州市,留学生创业园,,,,41,,32,210,210,109,109,,12,,8,0.9,0.8
2022-07-28T12:00:00,1210A,119.036,33.5981,淮安市,钵池山,臭氧1小时,57,48,40,28,25,165,165,81,81,8,15,9,8,1.1,0.8
2022-07-28T12:00:00,1211A,119.007,33.575,淮安市,北京南路,臭氧1小时,72,68,46,34,27,177,177,84,84,10,18,6,6,0.9,0.6
2022-07-28T12:00:00,1212A,118.989,33.6067,淮安市,市监测站,臭氧1小时,63,61,49,25,23,170,170,88,88,13,21,7,6,1.2,0.9
2022-07-28T12:00:00,1213A,119.135,33.5039,淮安市,楚州区监测站,,,,45,,26,151,151,73,73,8,15,7,7,1.1,0.7
2022-07-28T12:00:00,1214A,119.0186,33.6297,淮安市,淮阴区监测站,颗粒物(PM10),56,61,48,30,28,162,162,80,80,8,15,8,7,0.9,0.7
2022-07-28T12:00:00,1215A,120.118,33.4022,盐城市,盐城电厂,臭氧1小时,82,66,40,28,23,185,185,131,131,11,10,5,5,0.4,0.4
2022-07-28T12:00:00,1216A,120.156,33.3942,盐城市,市监测站,臭氧1小时,74,44,34,39,20,179,179,122,122,8,9,4,3,0.5,0.4
2022-07-28T12:00:00,1218A,120.2144,33.38,盐城市,开发区管委会,臭氧1小时,80,45,28,38,24,184,184,119,119,12,14,8,7,0.5,0.4
2022-07-28T12:00:00,1220A,118.293,33.9528,宿迁市,宿迁学院,,45,26,48,22,31,157,142,92,92,4,15,4,4,0.6,0.7
2022-07-28T12:00:00,1221A,118.2442,33.9592,宿迁市,宿迁中学,,44,28,41,27,29,144,138,99,88,6,10,2,2,0.7,0.7
2022-07-28T12:00:00,1223A,120.2072,30.2111,杭州市,滨江,臭氧1小时,101,41,38,24,21,269,202,106,103,18,17,4,5,0.6,0.5
2022-07-28T12:00:00,1224A,120.0633,30.2747,杭州市,西溪,臭氧1小时,54,37,35,25,20,244,163,77,77,12,12,8,8,0.7,0.6
2022-07-28T12:00:00,1225A,119.026,29.635,杭州市,千岛湖(对照点),,,,,,,,,,,,,,,,
2022-07-28T12:00:00,1226A,120.3461,30.3153,杭州市,下沙,臭氧1小时,97,59,47,29,24,302,197,106,95,13,20,5,5,0.5,0.5
2022-07-28T12:00:00,1227A,120.1269,30.2456,杭州市,卧龙桥,臭氧1小时,53,39,36,19,20,280,162,66,66,11,13,4,4,0.7,0.7
2022-07-28T12:00:00,1228A,120.1903,30.2692,杭州市,浙江农大,臭氧1小时,103,38,34,22,21,285,205,106,98,15,15,4,4,0.8,0.7
2022-07-28T12:00:00,1229A,120.157,30.2897,杭州市,朝晖五区,,,,,,,,,,,,,,,,
2022-07-28T12:00:00,1230A,120.1197,30.3119,杭州市,和睦小学,臭氧1小时,65,39,43,28,25,303,172,92,92,13,19,6,6,0.7,0.6
2022-07-28T12:00:00,1231A,120.3019,30.4183,杭州市,临平镇,臭氧1小时,104,57,44,50,22,294,207,102,93,21,19,,3,0.8,0.6
2022-07-28T12:00:00,1232A,120.2697,30.1819,杭州市,城厢镇,臭氧1小时,65,47,44,35,29,273,172,94,88,20,21,6,6,0.7,0.6
2022-07-28T12:00:00,1233A,120.0883,30.1808,杭州市,云栖,臭氧1小时,79,36,35,23,19,246,183,65,65,18,14,7,6,0.6,0.5
2022-07-28T12:00:00,1234A,121.8358,29.911,宁波市,区环保大楼,,32,24,23,17,15,148,100,59,59,9,15,8,8,0.5,0.6
2022-07-28T12:00:00,1235A,121.56,29.82,宁波市,万里学院,,29,24,39,9,22,177,91,68,56,3,20,9,13,0.5,0.7
2022-07-28T12:00:00,1236A,121.713,29.9572,宁波市,龙赛医院,,34,15,29,10,18,215,108,59,59,3,18,5,6,0.3,0.5
2022-07-28T12:00:00,1239A,121.633,29.7733,宁波市,钱湖水厂,,31,15,22,13,17,136,98,56,56,8,12,9,7,0.5,0.6
2022-07-28T12:00:00,1240A,121.5856,29.8635,宁波市,太古小学,,,,30,,20,180,113,63,54,,17,9,9,0.6,0.7
2022-07-28T12:00:00,1241A,121.524,29.8674,宁波市,市环境监测中心,,,16,35,8,18,195,85,76,45,9,24,3,7,,0.7
2022-07-28T12:00:00,1242A,120.634,28.0089,温州市,瓯海,,,55,37,36,20,173,173,92,92,17,14,6,6,,0.4
2022-07-28T12:00:00,1243A,120.6748,27.9939,温州市,南浦,,,,37,35,19,166,166,94,94,,8,5,4,0.5,0.5
2022-07-28T12:00:00,1244A,120.76,27.9747,温州市,龙湾,颗粒物(PM10),55,59,41,30,16,157,151,93,93,10,11,6,6,0.5,0.4
2022-07-28T12:00:00,1245A,120.6709,28.0167,温州市,市站,臭氧1小时,67,56,33,29,20,173,173,87,87,13,15,5,5,0.5,0.5
2022-07-28T12:00:00,1246A,120.598,30.0911,绍兴市,袍江站,,,,,,,,,,,,,,,,
2022-07-28T12:00:00,1247A,120.6053,29.9928,绍兴市,城东开发委,臭氧1小时,57,40,37,23,22,243,165,89,83,10,12,5,5,0.5,0.5
2022-07-28T12:00:00,1250A,120.0751,30.8669,湖州市,城西水厂,臭氧1小时,101,51,39,32,20,240,202,83,83,23,27,5,5,0.6,0.5
2022-07-28T12:00:00,1252A,120.7436,30.778,嘉兴市,清河小学,臭氧1小时,70,28,44,17,27,266,176,106,106,11,21,5,5,0.5,0.6
2022-07-28T12:00:00,1253A,120.726,30.7478,嘉兴市,嘉兴学院,臭氧1小时,58,39,45,20,32,262,166,98,98,11,20,4,4,0.4,0.5
2022-07-28T12:00:00,1255A,121.273,28.6459,台州市,黄岩环保大楼,,38,25,23,16,10,120,120,68,68,8,11,5,6,0.3,0.4
2022-07-28T12:00:00,1256A,121.419,28.6542,台州市,台州环保大楼,,40,30,28,24,15,132,128,82,82,11,11,4,4,0.4,0.4
2022-07-28T12:00:00,1257A,121.377,28.5773,台州市,路桥田洋王,,,29,27,20,13,106,104,76,76,9,14,5,5,,0.4
2022-07-28T12:00:00,1258A,122.122,30.0203,舟山市,定海檀枫,,,16,19,9,11,100,78,49,49,9,12,2,3,,0.3
2022-07-28T12:00:00,1259A,122.3094,29.9558,舟山市,普陀东港,,20,16,23,14,16,83,60,48,48,15,17,3,3,0.4,0.4
2022-07-28T12:00:00,1260A,122.19,29.9944,舟山市,临城新区,,24,16,17,7,10,100,75,54,54,13,14,3,4,0.3,0.3
2022-07-28T12:00:00,1261A,119.649,29.1131,金华市,四中(停运161031),,,,,,,,,,,,,,,,
2022-07-28T12:00:00,1262A,119.647,29.077,金华市,十五中,臭氧1小时,79,61,47,31,28,183,183,99,99,15,17,4,6,0.5,0.4
2022-07-28T12:00:00,1263A,119.686,29.1029,金华市,监测站,臭氧1小时,58,43,50,38,29,191,166,90,90,8,18,4,14,0.6,0.6
2022-07-28T12:00:00,1264A,118.8692,28.9398,衢州市,环保大楼,,50,39,43,34,28,169,159,78,78,12,17,6,8,0.5,0.4
2022-07-28T12:00:00,1265A,118.8709,28.9666,衢州市,实验学校,,,37,35,28,18,159,146,69,68,,17,8,7,0.4,0.3
2022-07-28T12:00:00,1266A,118.8621,28.9808,衢州市,衢州学院,臭氧1小时,80,44,42,23,26,184,184,79,79,11,18,7,3,0.6,0.4
2022-07-28T12:00:00,1267A,119.914,28.4514,丽水市,监测站大楼,,44,44,37,26,22,138,138,58,58,8,14,5,6,0.5,0.4
2022-07-28T12:00:00,1268A,119.93,28.4586,丽水市,莲都小学,颗粒物(PM10),52,54,44,30,20,144,141,58,58,8,14,6,6,0.5,0.4
2022-07-28T12:00:00,1269A,119.879,28.4231,丽水市,余庄前,臭氧1小时,55,42,38,22,17,164,164,57,57,12,13,7,6,0.5,0.4
2022-07-28T12:00:00,1270A,117.1959,31.7848,合肥市,明珠广场,臭氧1小时,63,63,51,41,26,202,170,106,106,20,36,8,7,0.9,0.8
2022-07-28T12:00:00,1271A,117.3072,31.8764,合肥市,三里街,颗粒物(PM10),56,61,47,31,14,154,154,85,85,20,34,11,10,0.8,0.6
2022-07-28T12:00:00,1272A,117.2588,31.8707,合肥市,琥珀山庄,臭氧1小时,82,56,42,36,23,189,185,108,108,11,22,8,8,0.9,0.7
2022-07-28T12:00:00,1273A,117.1604,31.9052,合肥市,董铺水库(对照点),臭氧1小时,62,66,43,27,16,179,169,87,87,11,21,6,6,0.8,0.6
2022-07-28T12:00:00,1274A,117.25,31.8571,合肥市,长江中路,臭氧1小时,74,58,53,39,27,192,179,105,105,10,22,8,7,0.8,0.7
2022-07-28T12:00:00,1275A,117.266,31.9436,合肥市,庐阳区,,,69,49,39,23,178,178,85,85,11,29,13,6,,0.9
2022-07-28T12:00:00,1276A,117.336,31.8586,合肥市,瑶海区,颗粒物(PM10),57,63,50,32,18,156,154,87,87,12,33,11,10,0.7,0.6
2022-07-28T12:00:00,1277A,117.3027,31.7964,合肥市,包河区,颗粒物(PM10),52,53,58,31,24,171,155,77,77,10,40,12,13,0.7,0.6
2022-07-28T12:00:00,1278A,117.2776,31.7385,合肥市,滨湖新区,,,66,47,39,22,166,165,102,102,8,20,12,9,,0.6
2022-07-28T12:00:00,1279A,117.1318,31.8403,合肥市,高新区,臭氧1小时,68,56,50,39,27,218,174,105,105,14,28,3,3,0.9,0.8
2022-07-28T12:00:00,1280A,119.3903,26.0543,福州市,鼓山(对照点),,,,,,,,,,,,,,,,
2022-07-28T12:00:00,1282A,119.2681,26.0504,福州市,师大,颗粒物(PM10),53,56,50,29,23,198,160,78,78,9,16,3,4,0.4,0.3
2022-07-28T12:00:00,1283A,119.2984,26.1028,福州市,五四北路,,48,44,40,33,29,208,152,75,75,13,17,4,3,0.4,0.3
2022-07-28T12:00:00,1284A,119.2648,26.0768,福州市,杨桥西路,,50,47,50,28,24,198,157,71,71,7,17,4,4,0.4,0.3
2022-07-28T12:00:00,1285A,119.317,26.0746,福州市,紫阳,,50,50,51,29,23,196,149,70,70,8,16,4,4,0.4,0.4
2022-07-28T12:00:00,1286A,118.1608,24.8169,厦门市,溪东(对照点),,,,,,,,,,,,,,,,
2022-07-28T12:00:00,1287A,118.1514,24.4767,厦门市,洪文,颗粒物(PM10),58,66,54,34,27,159,159,61,61,20,31,5,5,0.4,0.4
2022-07-28T12:00:00,1288A,118.0661,24.4444,厦门市,鼓浪屿,细颗粒物(PM2.5),65,71,58,47,39,138,138,41,41,30,34,8,10,0.9,0.9
2022-07-28T12:00:00,1290A,115.8931,28.6843,南昌市,省外办,臭氧1小时,70,62,62,25,28,182,176,94,84,12,23,9,9,0.6,0.6
2022-07-28T12:00:00,1291A,115.8886,28.7003,南昌市,省林业公司,臭氧1小时,84,53,64,27,28,188,187,74,74,15,44,9,8,0.6,0.7
2022-07-28T12:00:00,1292A,115.8126,28.7442,南昌市,林科所,臭氧1小时,75,61,44,36,30,180,180,95,93,3,16,9,7,0.8,0.7
2022-07-28T12:00:00,1294A,115.8518,28.687,南昌市,建工学校,臭氧1小时,59,56,62,26,33,174,167,81,81,10,25,4,5,0.6,0.7
2022-07-28T12:00:00,1295A,115.8921,28.6424,南昌市,象湖,臭氧1小时,90,71,68,38,26,192,192,92,92,12,24,14,6,0.7,0.7
2022-07-28T12:00:00,1296A,115.7423,28.7996,南昌市,武术学校(对照点),,42,42,34,21,25,129,129,55,55,5,5,10,9,0.7,0.6
2022-07-28T12:00:00,1298A,115.9314,28.6842,南昌市,省站,臭氧1小时,82,73,67,42,35,185,185,68,68,6,22,13,9,0.7,0.8
2022-07-28T12:00:00,1299A,116.9862,36.6114,济南市,科干所,,31,19,38,15,20,199,99,108,86,10,17,2,4,0.6,0.7
2022-07-28T12:00:00,1300A,116.9376,36.665,济南市,农科所,,27,12,38,5,16,208,84,68,68,13,23,4,6,0.3,0.5
2022-07-28T12:00:00,1301A,117.1265,36.6734,济南市,开发区,,29,17,46,12,22,217,92,77,77,14,30,2,4,0.5,0.7
2022-07-28T12:00:00,1303A,117.0624,36.6868,济南市,省种子仓库,,28,22,48,13,21,210,89,74,74,8,25,1,4,0.5,0.6
2022-07-28T12:00:00,1304A,116.9489,36.6447,济南市,机床二厂,,34,34,49,5,17,219,97,84,82,8,20,3,6,0.4,0.6
2022-07-28T12:00:00,1305A,117.0495,36.663,济南市,市监测站,,30,15,41,10,19,219,96,100,80,9,21,4,7,0.6,0.8
2022-07-28T12:00:00,1306A,116.7675,36.5484,济南市,长清党校,,31,22,40,17,21,244,99,90,90,10,19,5,7,0.7,0.7
2022-07-28T12:00:00,1307A,120.6659,36.2403,青岛市,仰口(对照点),,,,,,,,,,,,,,,,
2022-07-28T12:00:00,1308A,120.3905,36.1851,青岛市,李沧区子站,,,,,,,,,,,,,,,,
2022-07-28T12:00:00,1309A,120.3471,36.0699,青岛市,市北区子站,,,,,,,,,,,,,,,,
2022-07-28T12:00:00,1310A,120.4134,36.0658,青岛市,市南区东部子站,,,12,12,7,6,122,97,102,97,,7,,6,0.5,0.4
2022-07-28T12:00:00,1311A,120.3664,36.1032,青岛市,四方区子站,,36,29,15,22,6,118,115,101,101,9,13,4,5,0.7,0.5
2022-07-28T12:00:00,1312A,120.2994,36.054,青岛市,市南区西部子站,,26,22,15,10,5,146,81,107,100,24,12,9,6,0.5,0.4
2022-07-28T12:00:00,1313A,120.4581,36.0858,青岛市,崂山区子站,,35,12,15,9,4,130,109,111,106,13,10,5,5,0.4,0.2
2022-07-28T12:00:00,1314A,120.1983,35.9608,青岛市,黄岛区子站,,33,31,13,20,10,123,103,113,112,10,12,4,4,0.6,0.5
2022-07-28T12:00:00,1315A,120.3999,36.3083,青岛市,城阳区子站,,47,32,16,18,7,148,148,97,97,14,12,5,4,0.8,0.6
2022-07-28T12:00:00,1316A,113.69031,34.76122,郑州市,烟厂,,35,21,29,6,22,161,112,86,73,8,14,4,4,0.6,0.5
2022-07-28T12:00:00,1317A,113.65724,34.77134,郑州市,郑纺机,,,24,30,,,163,103,81,71,,14,,5,0.6,0.4
2022-07-28T12:00:00,1318A,113.67526,34.80246,郑州市,银行学校,,33,25,29,6,9,143,104,83,74,12,14,4,3,0.7,0.5
2022-07-28T12:00:00,1319A,113.56746,34.81334,郑州市,供水公司,,34,15,28,11,13,156,108,79,61,6,8,5,5,0.5,0.3
2022-07-28T12:00:00,1320A,113.7329,34.7178,郑州市,经开区管委,,34,17,24,8,15,148,108,84,77,10,16,2,2,0.6,0.5
2022-07-28T12:00:00,1321A,113.73961,34.77172,郑州市,四十七中,,36,7,27,4,10,152,113,87,76,8,18,5,4,0.2,0.1
2022-07-28T12:00:00,1322A,113.60532,34.74838,郑州市,市监测站,,,13,35,,15,166,,68,65,,20,4,4,0.7,0.5
2022-07-28T12:00:00,1323A,113.64164,34.7525,郑州市,河医大,,30,20,32,11,15,160,93,80,60,22,20,4,3,0.9,0.6
2022-07-28T12:00:00,1324A,113.51488,34.91089,郑州市,岗李水库(对照点),,,,,,,,,,,,,,,,
2022-07-28T12:00:00,1325A,114.3677,30.5584,武汉市,东湖梨园,,,41,44,10,20,203,72,41,36,15,22,,8,,0.8
2022-07-28T12:00:00,1326A,114.2529,30.558,武汉市,汉阳月湖,,30,30,38,9,17,162,74,46,46,19,36,6,6,0.6,0.7
2022-07-28T12:00:00,1327A,114.282,30.6189,武汉市,汉口花桥,,38,38,45,12,23,182,69,56,44,18,29,7,8,0.6,0.7
2022-07-28T12:00:00,1328A,114.3025,30.5332,武汉市,武昌紫阳,,,43,37,2,18,164,68,42,42,18,27,4,4,,0.7
2022-07-28T12:00:00,1329A,114.3646,30.6217,武汉市,青山钢花,,25,25,49,14,27,214,67,40,40,19,33,4,6,0.7,0.9
2022-07-28T12:00:00,1330A,114.1566,30.4825,武汉市,沌口新区,,36,36,44,18,22,167,79,50,50,21,34,6,8,0.7,0.8
2022-07-28T12:00:00,1331A,114.3014,30.5944,武汉市,汉口江滩,,36,36,43,13,20,207,68,34,34,14,49,6,7,0.6,0.7
2022-07-28T12:00:00,1333A,114.135,30.6319,武汉市,吴家山,,25,25,53,10,25,188,79,43,43,10,31,3,4,0.7,0.8
2022-07-28T12:00:00,1334A,113.8454,30.2917,武汉市,沉湖七壕(对照点),,21,18,32,5,4,142,66,38,38,12,17,7,7,0.7,0.7
2022-07-28T12:00:00,1335A,113.0833,28.2325,长沙市,经开区环保局,臭氧1小时,68,40,38,32,31,174,174,82,82,12,18,5,6,0.7,0.6
2022-07-28T12:00:00,1336A,112.8872,28.2189,长沙市,高开区环保局,,45,16,25,26,20,150,144,81,81,17,16,11,9,0.2,0.2
2022-07-28T12:00:00,1337A,113.0792,28.2053,长沙市,马坡岭,臭氧1小时,67,50,46,33,26,173,173,85,85,10,19,12,10,0.7,0.6
2022-07-28T12:00:00,1338A,112.9394,28.19,长沙市,湖南师范大学,颗粒物(PM10),53,55,37,22,17,156,150,86,86,5,9,5,5,0.3,0.4
2022-07-28T12:00:00,1339A,113.0178,28.1322,长沙市,雨花区环保局,,49,45,35,21,26,156,156,80,80,5,18,9,7,0.3,0.3
2022-07-28T12:00:00,1340A,112.9792,28.2597,长沙市,伍家岭,,,31,34,28,20,165,165,86,86,9,18,,4,0.7,0.7
2022-07-28T12:00:00,1341A,113.0014,28.1944,长沙市,火车新站,,47,28,33,28,23,150,150,78,78,5,16,6,7,0.4,0.4
2022-07-28T12:00:00,1342A,112.9844,28.1178,长沙市,天心区环保局,,44,39,39,27,24,148,140,71,71,4,14,4,4,0.5,0.5
2022-07-28T12:00:00,1343A,112.8908,28.1308,长沙市,湖南中医药大学,,48,30,48,33,23,145,134,78,78,2,27,5,4,0.5,0.4
2022-07-28T12:00:00,1344A,112.9581,28.3611,长沙市,沙坪(对照点),,39,29,17,18,16,156,123,74,74,5,12,5,5,0.5,0.5
2022-07-28T12:00:00,1345A,113.2347,23.1423,广州市,广雅中学,,,68,44,43,23,243,159,57,57,,24,4,5,,0.7
2022-07-28T12:00:00,1346A,113.2612,23.105,广州市,市五中,臭氧1小时,65,56,41,42,24,255,172,68,68,16,21,7,6,0.7,0.7
2022-07-28T12:00:00,1348A,113.3478,23.0916,广州市,广东商学院,臭氧1小时,55,57,37,33,21,243,164,68,68,17,25,4,5,0.7,0.6
2022-07-28T12:00:00,1349A,113.4332,23.1047,广州市,市八十六中,臭氧1小时,83,62,42,42,20,250,186,71,71,18,31,5,5,0.6,0.6
2022-07-28T12:00:00,1350A,113.3505,22.9483,广州市,番禺中学,臭氧1小时,55,53,32,29,18,229,164,70,70,13,17,9,9,0.8,0.7
2022-07-28T12:00:00,1351A,113.2146,23.3916,广州市,花都师范,细颗粒物(PM2.5),65,68,48,47,29,218,164,60,60,17,26,9,6,0.7,0.7
2022-07-28T12:00:00,1352A,113.2597,23.1331,广州市,市监测站,颗粒物(PM10),61,72,41,42,23,246,164,68,68,12,17,4,4,0.7,0.7
2022-07-28T12:00:00,1353A,113.5618,23.312,广州市,九龙镇镇龙,颗粒物(PM10),61,72,68,33,32,248,154,43,43,17,38,7,7,0.8,0.8
2022-07-28T12:00:00,1354A,113.2765,23.1544,广州市,麓湖,臭氧1小时,67,42,29,34,22,242,173,66,66,12,18,5,4,0.7,0.7
2022-07-28T12:00:00,1355A,113.443,23.3035,广州市,帽峰山森林公园(对照点),臭氧1小时,63,52,38,35,22,254,170,57,57,15,27,5,6,0.8,0.8
2022-07-28T12:00:00,1356A,114.1063,22.5545,深圳市,通心岭子站,,47,38,19,20,9,149,149,68,68,14,17,4,3,0.8,0.6
2022-07-28T12:00:00,1357A,114.117,22.5625,深圳市,洪湖,臭氧1小时,67,44,25,28,12,173,173,76,76,14,18,9,9,0.7,0.6
2022-07-28T12:00:00,1358A,113.987,22.5417,深圳市,华侨城,细颗粒物(PM2.5),57,41,23,40,12,118,102,57,57,18,18,9,6,0.8,0.7
2022-07-28T12:00:00,1359A,113.9181,22.5171,深圳市,南海子站,颗粒物(PM10),52,54,28,21,13,133,114,56,56,26,26,4,5,0.7,0.7
2022-07-28T12:00:00,1360A,114.2458,22.5689,深圳市,盐田,臭氧1小时,65,33,15,21,11,172,172,59,59,13,29,4,4,0.8,0.7
2022-07-28T12:00:00,1361A,114.2283,22.7244,深圳市,龙岗,臭氧1小时,105,67,32,33,13,210,210,75,75,8,30,5,5,0.5,0.4
2022-07-28T12:00:00,1362A,113.8953,22.5861,深圳市,西乡,,,,,,,,,,,,,,,,
2022-07-28T12:00:00,1363A,114.494,22.5422,深圳市,南澳,,,,20,,7,115,,40,16,,14,,6,,0.7
2022-07-28T12:00:00,1364A,114.41,22.6342,深圳市,葵涌,,29,29,18,12,7,94,90,38,38,23,17,8,8,0.5,0.4
2022-07-28T12:00:00,1365A,114.297,22.5978,深圳市,梅沙,,29,25,16,12,8,115,92,28,28,26,27,6,6,0.4,0.3
2022-07-28T12:00:00,1366A,114.0678,22.738,深圳市,观澜,臭氧1小时,99,87,46,42,17,199,199,84,84,18,23,7,7,0.5,0.5
2022-07-28T12:00:00,1367A,113.5814,22.2618,珠海市,吉大,,36,24,11,18,8,113,113,58,58,9,5,8,7,0.6,0.5
2022-07-28T12:00:00,1368A,113.4881,22.2335,珠海市,前山,,41,23,15,14,10,131,131,62,62,12,11,8,9,0.3,0.3
2022-07-28T12:00:00,1369A,113.628,22.4251,珠海市,唐家,,43,26,11,30,11,128,128,60,60,5,6,6,6,0.4,0.4
2022-07-28T12:00:00,1370A,113.299,22.2281,珠海市,斗门,,38,28,17,12,7,121,120,64,64,5,5,5,5,0.4,0.4
2022-07-28T12:00:00,1371A,113.1294,23.0067,佛山市,湾梁,,46,46,37,28,20,196,91,61,61,12,14,6,5,0.4,0.4
2022-07-28T12:00:00,1372A,113.1083,23.0478,佛山市,华材职中,,48,48,37,30,22,181,137,60,60,12,16,7,6,0.4,0.3
2022-07-28T12:00:00,1373A,113.144,23.0453,佛山市,南海气象局,颗粒物(PM10),52,54,40,32,24,198,146,71,71,12,16,8,5,0.6,0.6
2022-07-28T12:00:00,1374A,113.2881,22.8094,佛山市,顺德苏岗,,46,30,18,22,13,180,146,64,64,11,14,5,5,0.6,0.6
2022-07-28T12:00:00,1375A,113.2544,22.7642,佛山市,容桂街道办,,,,,,,,,,,,,,,,
2022-07-28T12:00:00,1376A,112.8383,22.8678,佛山市,高明孔堂,,47,47,28,7,5,124,120,65,65,10,9,5,6,0.6,0.5
2022-07-28T12:00:00,1377A,112.8836,23.1588,佛山市,三水监测站,颗粒物(PM10),52,53,47,34,30,153,126,54,54,13,26,8,9,0.5,0.5
2022-07-28T12:00:00,1378A,112.867,23.185,佛山市,三水云东海,,,52,48,,30,156,119,52,52,13,21,,9,0.5,0.5
2022-07-28T12:00:00,1379A,113.3769,22.5211,中山市,华柏园,,44,37,25,21,13,141,140,67,67,5,6,2,3,0.4,0.5
2022-07-28T12:00:00,1380A,113.3881,22.5497,中山市,张溪,颗粒物(PM10),52,53,33,33,14,148,148,71,71,9,9,2,2,0.6,0.6
2022-07-28T12:00:00,1381A,113.4075,22.5111,中山市,紫马岭,,47,44,25,20,12,149,149,69,69,8,10,6,6,0.7,0.7
2022-07-28T12:00:00,1382A,113.4411,22.4853,中山市,长江旅游区(对照点),,47,42,19,30,19,148,148,57,57,10,7,3,3,0.6,0.4
2022-07-28T12:00:00,1383A,113.1064,22.6058,江门市,北街,,46,45,26,18,13,173,146,72,72,7,8,5,5,0.6,0.6
2022-07-28T12:00:00,1384A,113.0731,22.5835,江门市,西区,,47,31,26,16,15,148,148,70,70,10,11,6,6,0.5,0.4
2022-07-28T12:00:00,1385A,113.0219,22.5311,江门市,圭峰西,,42,42,26,25,15,128,122,62,62,7,9,4,4,0.4,0.4
2022-07-28T12:00:00,1386A,113.0828,22.5947,江门市,东湖,,47,44,28,27,15,151,149,75,75,9,10,6,6,0.5,0.4
2022-07-28T12:00:00,1387A,113.7875,23.0457,东莞市,东城主山,,,,,,,,,,,,,,,,
2022-07-28T12:00:00,1388A,113.7533,23.0202,东莞市,南城元岭,,,,,,,,,,,,,,,,
2022-07-28T12:00:00,1389A,113.7547,23.0494,东莞市,莞城梨川,臭氧1小时,90,80,44,28,22,275,192,83,83,16,20,8,8,0.4,0.6
2022-07-28T12:00:00,1390A,113.7944,23.0128,东莞市,东城石井,臭氧1小时,118,50,33,40,20,279,236,77,77,20,22,7,6,0.6,0.6
2022-07-28T12:00:00,1391A,113.7383,22.9658,东莞市,南城西平,臭氧1小时,108,48,34,48,26,232,216,81,81,19,19,8,6,0.9,0.8
2022-07-28T12:00:00,1392A,114.4183,23.0528,惠州市,河南岸金山湖子站,臭氧1小时,88,59,48,29,17,227,190,68,68,20,21,3,3,0.5,0.5
2022-07-28T12:00:00,1393A,114.4053,23.0822,惠州市,下埔横江三路子站,臭氧1小时,100,79,42,33,18,222,200,74,74,16,22,3,4,0.5,0.4
2022-07-28T12:00:00,1394A,114.4103,23.1142,惠州市,江北云山西路子站,臭氧1小时,108,67,49,33,26,252,215,74,74,12,21,5,6,0.4,0.3
2022-07-28T12:00:00,1395A,114.4645,22.7833,惠州市,惠阳区承修路船湖子站,臭氧1小时,112,60,29,26,14,223,223,78,78,16,21,5,5,0.5,0.4
2022-07-28T12:00:00,1396A,114.5317,22.7422,惠州市,大亚湾管委会子站,颗粒物(PM10),54,58,24,17,10,146,146,53,53,21,23,6,6,0.4,0.3
2022-07-28T12:00:00,1397A,112.4267,23.0706,肇庆市,睦岗子站,,46,44,47,32,31,136,116,56,56,10,22,10,11,0.5,0.5
2022-07-28T12:00:00,1398A,112.4645,23.0475,肇庆市,城中子站,,50,50,42,29,27,130,122,66,66,17,22,13,14,0.6,0.6
2022-07-28T12:00:00,1399A,112.5544,23.1522,肇庆市,坑口子站,,,44,41,27,30,140,,62,53,5,10,10,10,0.5,0.4
2022-07-28T12:00:00,1400A,112.4753,23.1,肇庆市,七星岩子站(对照点),,,,,,,,,,,,,,,,
2022-07-28T12:00:00,1401A,108.3103,22.7881,南宁市,二十一中,,,14,29,12,18,99,,34,34,10,15,10,6,0.6,0.6
2022-07-28T12:00:00,1402A,108.3141,22.8528,南宁市,北湖,,,38,32,18,15,109,101,31,31,,13,8,6,0.5,0.6
2022-07-28T12:00:00,1403A,108.3206,22.8225,南宁市,市监测站,,41,41,31,20,16,106,94,42,42,30,19,9,6,0.5,0.5
2022-07-28T12:00:00,1404A,108.3829,22.8037,南宁市,大自然花园,,,,25,,15,61,,64,,,11,,8,,0.6
2022-07-28T12:00:00,1405A,108.4394,22.7904,南宁市,仙葫(对照点),,44,44,26,19,14,102,102,44,44,10,10,9,8,0.5,0.5
2022-07-28T12:00:00,1406A,108.2397,22.8467,南宁市,区农职院,,33,24,29,17,15,124,104,39,39,12,17,11,9,0.4,0.5
2022-07-28T12:00:00,1407A,108.3275,22.735,南宁市,英华嘉园,,40,40,42,17,15,103,103,42,42,13,22,9,7,0.5,0.5
2022-07-28T12:00:00,1408A,108.2257,22.7757,南宁市,沙井镇街道办,,33,33,37,18,17,106,92,42,42,10,18,12,9,0.5,0.6
2022-07-28T12:00:00,1409A,110.576,19.9507,海口市,东寨港(对照点),,,77,19,19,10,89,83,27,27,,,2,5,0.2,0.3
2022-07-28T12:00:00,1410A,110.3232,20.0574,海口市,海南大学,,22,22,18,10,15,101,66,53,37,2,5,7,6,0.5,0.4
2022-07-28T12:00:00,1411A,110.283,20.0053,海口市,秀英海南医院,,,,,,,,,,,,,,,,
2022-07-28T12:00:00,1412A,110.338,19.9969,海口市,海南师范大学,,,,24,14,11,113,91,36,36,,9,4,3,0.4,0.4
2022-07-28T12:00:00,1413A,110.33,20.0356,海口市,龙华路环保局宿舍,,30,25,20,11,8,123,93,42,42,6,7,3,3,0.5,0.4
2022-07-28T12:00:00,1414A,106.3787,29.8279,重庆市,缙云山(对照点),,41,41,20,18,12,114,114,108,72,19,12,5,6,0.4,0.3
2022-07-28T12:00:00,1416A,106.4213,29.8253,重庆市,天生,,47,47,32,21,16,147,147,46,46,16,26,5,6,0.7,0.7
2022-07-28T12:00:00,1417A,106.6263,29.7228,重庆市,两路,,43,43,26,24,14,116,116,42,42,40,41,9,7,0.9,0.7
2022-07-28T12:00:00,1418A,106.2953,29.5983,重庆市,虎溪,,43,43,32,30,15,129,129,57,57,16,35,6,8,0.6,0.5
2022-07-28T12:00:00,1419A,106.5777,29.5102,重庆市,南坪,,46,37,33,24,14,147,147,73,73,18,23,7,6,0.7,0.7
2022-07-28T12:00:00,1420A,106.6556,29.6277,重庆市,唐家沱,,45,10,15,4,6,144,144,45,45,30,32,8,6,0.8,0.7
2022-07-28T12:00:00,1421A,106.6349,29.4906,重庆市,茶园,,45,43,41,25,15,141,141,50,50,17,46,7,6,0.6,0.6
2022-07-28T12:00:00,1422A,106.3754,29.4572,重庆市,白市驿,颗粒物(PM10),60,70,22,30,10,132,132,132,132,14,16,6,4,0.7,0.7
2022-07-28T12:00:00,1425A,106.6205,29.7166,重庆市,空港,,49,49,26,23,12,113,113,51,42,34,29,8,7,0.9,0.8
2022-07-28T12:00:00,1426A,106.4782,29.4875,重庆市,新山村,,44,44,35,27,18,114,114,50,50,25,43,8,9,0.6,0.6
2022-07-28T12:00:00,1427A,106.5616,29.6453,重庆市,礼嘉,,39,39,28,19,9,112,112,33,33,39,53,11,7,0.7,0.6
2022-07-28T12:00:00,1428A,106.4522,29.7091,重庆市,蔡家,,42,42,27,24,15,131,131,48,43,23,25,7,4,0.8,0.6
2022-07-28T12:00:00,1429A,106.5093,29.3917,重庆市,鱼新街,,46,46,39,25,15,110,110,34,34,25,28,9,8,1.0,0.9
2022-07-28T12:00:00,1431A,103.9728,30.7236,成都市,金泉两河,,48,26,24,19,13,153,153,47,47,13,18,4,2,0.3,0.4
2022-07-28T12:00:00,1432A,104.1419,30.6764,成都市,十里店,,42,31,24,19,13,132,132,56,56,22,25,3,2,0.5,0.5
2022-07-28T12:00:00,1433A,104.0594,30.5767,成都市,三瓦窑,,41,33,26,19,16,130,130,49,49,33,32,3,2,0.4,0.4
2022-07-28T12:00:00,1434A,104.1122,30.6306,成都市,沙河铺,,41,33,24,19,13,129,129,39,39,25,23,4,2,0.5,0.5
2022-07-28T12:00:00,1437A,104.0431,30.6556,成都市,君平街,,44,42,23,22,15,139,139,68,57,23,23,6,5,0.5,0.5
2022-07-28T12:00:00,1438A,103.6202,31.0201,成都市,灵岩寺(对照点),,33,33,17,18,11,102,63,57,49,11,3,7,11,0.7,0.6
2022-07-28T12:00:00,1439A,106.6899,26.5998,贵阳市,马鞍山,,13,9,18,5,8,89,41,36,24,15,10,5,4,0.7,0.6
2022-07-28T12:00:00,1440A,106.6971,26.5694,贵阳市,市环保站,,22,22,21,11,13,78,49,32,23,20,18,8,4,0.3,0.4
2022-07-28T12:00:00,1441A,106.6243,26.6266,贵阳市,鉴湖路,,29,29,22,12,9,80,52,45,39,11,9,4,4,0.7,0.5
2022-07-28T12:00:00,1442A,106.7487,26.6343,贵阳市,燕子冲,,32,27,24,22,15,80,33,32,19,17,10,8,6,0.8,0.6
2022-07-28T12:00:00,1443A,106.6555,26.4365,贵阳市,碧云窝,,29,29,30,12,8,78,61,49,34,9,8,6,4,0.3,0.4
2022-07-28T12:00:00,1444A,106.694,26.5161,贵阳市,中院村,,,36,27,17,8,73,62,42,28,6,11,4,2,,0.5
2022-07-28T12:00:00,1445A,106.7109,26.6027,贵阳市,红边门,,35,31,25,24,16,81,41,42,27,26,19,6,5,0.5,0.4
2022-07-28T12:00:00,1446A,106.7164,26.5699,贵阳市,新华路,,20,17,18,14,14,82,46,39,25,12,13,8,5,0.4,0.3
2022-07-28T12:00:00,1447A,106.674,26.5424,贵阳市,太慈桥,,27,27,25,7,9,80,59,27,27,8,11,8,6,0.4,0.4
2022-07-28T12:00:00,1450A,102.8204,24.8886,昆明市,呈贡新区,,23,10,21,6,8,84,72,55,55,13,15,6,9,0.5,0.4
2022-07-28T12:00:00,1451A,102.6251,24.9608,昆明市,西山森林公园(对照点),,19,5,11,1,6,91,60,70,70,7,9,6,7,0.4,0.4
2022-07-28T12:00:00,1452A,102.7252,25.0902,昆明市,龙泉镇,,24,24,16,11,7,78,64,47,47,18,17,18,8,0.3,0.2
2022-07-28T12:00:00,1453A,102.7266,25.0375,昆明市,东风东路,,20,7,20,7,9,85,63,51,51,24,16,4,5,0.4,0.3
2022-07-28T12:00:00,1454A,102.6742,25.0669,昆明市,金鼎山,,22,16,18,11,10,76,69,47,47,14,13,4,8,0.4,0.4
2022-07-28T12:00:00,1455A,102.6644,25.0401,昆明市,碧鸡广场,,25,15,19,6,10,79,79,55,55,11,17,5,7,0.5,0.4
2022-07-28T12:00:00,1456A,91.1319,29.6514,拉萨市,八廓街,,,,15,9,7,149,127,112,93,9,11,7,8,0.1,0.1
2022-07-28T12:00:00,1457A,91.1221,29.6747,拉萨市,市环保局,,40,19,15,9,6,152,127,108,92,13,14,8,8,0.2,0.2
2022-07-28T12:00:00,1458A,91.0874,29.6475,拉萨市,区监测站,,40,12,10,3,2,160,127,124,103,13,13,8,8,0.2,0.1
2022-07-28T12:00:00,1459A,91.1774,29.6541,拉萨市,西藏大学,,41,14,12,4,6,160,129,119,99,11,11,9,11,0.4,0.4
2022-07-28T12:00:00,1460A,90.9798,29.6588,拉萨市,区辐射站,,37,20,13,10,6,140,116,106,106,14,13,9,8,0.2,0.1
2022-07-28T12:00:00,1461A,91.0834,29.6292,拉萨市,拉萨火车站,,35,22,16,1,5,148,110,115,98,15,12,10,9,0.2,0.2
2022-07-28T12:00:00,1462A,108.882,34.2749,西安市,高压开关厂,,42,42,36,19,14,139,132,51,51,23,29,9,6,0.5,0.4
2022-07-28T12:00:00,1463A,108.993,34.2629,西安市,兴庆小区,,43,32,27,12,12,136,135,66,62,23,22,6,4,0.6,0.6
2022-07-28T12:00:00,1464A,109.06,34.2572,西安市,纺织城,,42,33,31,14,14,139,133,46,46,17,30,6,5,0.4,0.4
2022-07-28T12:00:00,1465A,108.9356,34.2173,西安市,小寨,,41,28,24,12,10,135,131,65,65,17,22,6,3,0.4,0.4
2022-07-28T12:00:00,1466A,108.954,34.2713,西安市,市人民体育场,,,49,30,20,12,136,,62,54,18,20,,4,0.2,0.2
2022-07-28T12:00:00,1467A,108.8922,34.2322,西安市,高新西区,,40,30,32,15,15,133,127,52,52,17,25,8,6,0.6,0.6
2022-07-28T12:00:00,1468A,108.935,34.3474,西安市,经开区,颗粒物(PM10),51,52,34,22,15,139,134,49,49,24,26,3,2,0.4,0.3
2022-07-28T12:00:00,1469A,108.906,34.1546,西安市,长安区,,,31,23,14,12,137,,46,46,9,16,,5,0.3,0.4
2022-07-28T12:00:00,1470A,109.2,34.6575,西安市,阎良区,,,,,,,,,,,,,,,,
2022-07-28T12:00:00,1471A,109.2186,34.3731,西安市,临潼区,颗粒物(PM10),71,92,47,30,17,145,130,75,50,25,23,4,4,0.4,0.4
2022-07-28T12:00:00,1472A,108.869,34.378,西安市,草滩(对照点),颗粒物(PM10),61,71,38,31,15,121,88,27,27,37,29,8,10,0.9,0.8
2022-07-28T12:00:00,1473A,108.985,34.1978,西安市,曲江文化产业集团,,,45,29,15,12,134,,53,46,20,27,,5,0.6,0.6
2022-07-28T12:00:00,1474A,109.051,34.3213,西安市,广运潭,,46,46,30,17,11,135,127,53,53,24,23,6,5,0.6,0.6
2022-07-28T12:00:00,1476A,103.631,36.1031,兰州市,兰炼宾馆,臭氧1小时,75,53,42,22,21,180,180,60,60,31,26,49,20,0.8,0.4
2022-07-28T12:00:00,1477A,104.1373,35.9454,兰州市,榆中兰大校区(对照点),,,,,,,,,,,,,,,,
2022-07-28T12:00:00,1478A,103.8412,36.0726,兰州市,生物制品所,臭氧1小时,57,38,45,27,24,165,165,55,55,22,31,25,9,1.0,0.8
2022-07-28T12:00:00,1479A,103.831,36.0464,兰州市,铁路设计院,颗粒物(PM10),57,64,50,20,17,168,163,59,59,28,34,30,15,0.6,0.7
2022-07-28T12:00:00,1480A,101.748,36.6428,西宁市,市环境监测站,,,,,,,,,,,,,,,,
2022-07-28T12:00:00,1482A,101.834,36.5819,西宁市,四陆医院,,,,,,,,,,,,,,,,
2022-07-28T12:00:00,1483A,101.524,36.6867,西宁市,第五水厂(对照点),,,,,,,,,,,,,,,,
2022-07-28T12:00:00,1484A,105.9512,38.6016,银川市,贺兰山马莲口(对照点),,41,41,29,22,13,157,120,117,107,17,10,25,13,0.3,0.3
2022-07-28T12:00:00,1488A,106.2328,38.4975,银川市,贺兰山东路,,41,40,33,18,14,144,131,72,72,13,30,15,11,0.4,0.5
2022-07-28T12:00:00,1489A,106.1358,38.5036,银川市,学院路,,,,53,,19,146,122,46,46,13,35,,11,0.6,0.6
2022-07-28T12:00:00,1490A,87.5801,43.8303,乌鲁木齐市,监测站,,46,46,50,16,15,139,85,65,65,32,40,6,6,0.4,0.5
2022-07-28T12:00:00,1491A,87.6046,43.768,乌鲁木齐市,收费所,,36,36,52,19,20,136,74,47,47,41,39,11,8,0.5,0.4
2022-07-28T12:00:00,1492A,87.4754,43.9469,乌鲁木齐市,新疆农科院农场(对照点),,36,36,95,1,25,130,107,47,47,10,40,13,8,0.6,0.8
2022-07-28T12:00:00,1493A,87.5525,43.8711,乌鲁木齐市,铁路局,,33,32,54,11,18,156,105,66,66,18,34,5,4,0.5,0.6
2022-07-28T12:00:00,1494A,87.6432,43.831,乌鲁木齐市,三十一中学,,44,44,54,11,11,146,95,72,72,20,21,7,5,0.4,0.4
2022-07-28T12:00:00,1496A,87.7216,44.1747,乌鲁木齐市,米东区环保局,颗粒物(PM10),61,71,65,21,19,165,73,38,38,24,24,20,7,0.6,0.5
2022-07-28T12:00:00,1508A,112.9433,27.8614,湘潭市,板塘,,,60,47,31,24,144,144,65,65,19,23,19,9,,0.7
2022-07-28T12:00:00,1511A,112.9118,27.8403,湘潭市,市监测站,颗粒物(PM10),51,51,36,34,28,142,142,81,81,14,17,21,12,1.1,0.7
2022-07-28T12:00:00,1512A,112.8937,27.8728,湘潭市,江麓,,,41,44,43,20,122,122,62,62,,17,9,26,0.7,1.1
2022-07-28T12:00:00,1513A,112.9227,27.8159,湘潭市,岳塘,,48,48,45,28,26,137,131,70,70,7,12,24,23,0.7,0.8
2022-07-28T12:00:00,1514A,112.9074,27.9119,湘潭市,科大,颗粒物(PM10),52,54,48,28,23,137,137,71,71,9,23,11,10,0.5,0.6
2022-07-28T12:00:00,1515A,113.135,27.8244,株洲市,天台山庄,,39,31,28,27,24,135,120,71,71,8,14,5,6,0.4,0.5
2022-07-28T12:00:00,1518A,113.095,27.8867,株洲市,株冶医院,细颗粒物(PM2.5),73,39,38,53,28,150,134,74,74,10,24,8,8,0.5,0.6
2022-07-28T12:00:00,1519A,113.167,27.8667,株洲市,市四中,,40,36,38,17,33,134,125,70,70,6,20,5,4,0.4,0.3
2022-07-28T12:00:00,1520A,113.143,27.8381,株洲市,火车站,,48,48,38,28,24,143,131,77,77,11,19,6,7,0.3,0.4
2022-07-28T12:00:00,1524A,113.13,27.8528,株洲市,市监测站,,43,34,38,30,29,140,134,78,78,7,15,7,5,0.5,0.6
2022-07-28T12:00:00,1552A,106.805,26.3003,贵阳市,桐木岭(对照点),,,,,,,,,,,,,,,,
2022-07-28T12:00:00,1559A,113.251,27.8336,株洲市,大京风景区(对照点),,39,36,22,25,21,124,124,55,55,5,7,7,5,0.5,0.5
2022-07-28T12:00:00,1562A,113.0048,27.9153,湘潭市,昭山,,49,46,42,27,26,155,155,65,65,9,27,17,8,0.9,0.5
2022-07-28T12:00:00,1564A,112.4876,27.9164,湘潭市,韶山(对照点),,40,40,32,13,12,124,124,64,64,10,13,13,6,0.7,0.6
2022-07-28T12:00:00,1585A,109.8756,40.6532,包头市,市环境监测站,,42,42,39,17,16,151,126,96,73,10,18,8,18,0.5,0.6
2022-07-28T12:00:00,1587A,109.9991,40.5842,包头市,包头八中,,44,44,40,17,17,168,130,115,86,11,19,13,19,0.5,0.6
2022-07-28T12:00:00,1588A,109.8538,40.6821,包头市,青山宾馆,,39,35,36,12,16,149,123,111,67,12,24,10,13,0.5,0.6
2022-07-28T12:00:00,1589A,109.8642,40.6288,包头市,惠龙物流,,42,36,39,6,16,170,133,110,86,10,17,10,16,0.4,0.5
2022-07-28T12:00:00,1590A,110.0377,40.5546,包头市,东河鸿龙湾,,,,37,,13,164,,106,74,8,13,105,12,0.4,0.5
2022-07-28T12:00:00,1591A,110.0023,39.8129,鄂尔多斯市,综合楼,,39,34,37,9,10,152,122,89,89,17,18,13,9,0.8,0.6
2022-07-28T12:00:00,1592A,109.9486,39.8261,鄂尔多斯市,巴音孟克林场办事处,,36,36,42,12,13,118,99,85,85,18,16,12,9,0.8,0.7
2022-07-28T12:00:00,1593A,109.7736,39.5986,鄂尔多斯市,康泽苑,,46,27,37,7,13,165,147,81,81,6,12,5,7,0.5,0.6
2022-07-28T12:00:00,1594A,109.8119,39.5989,鄂尔多斯市,华泰汽车城,,46,31,37,14,16,154,146,74,73,3,12,7,9,0.7,0.7
2022-07-28T12:00:00,1595A,109.9734,39.7884,鄂尔多斯市,奥林花园,,39,39,46,12,14,145,120,70,70,16,21,12,6,1.1,1
2022-07-28T12:00:00,1596A,122.2414,40.6592,营口市,学府南路,,,,,,,,,,,,,,,,
2022-07-28T12:00:00,1597A,122.2703,40.7094,营口市,大庆路,,46,46,50,18,23,189,87,92,63,17,20,14,8,0.8,1.1
2022-07-28T12:00:00,1598A,122.215,40.6511,营口市,镜湖西路,,35,35,37,14,19,154,90,98,76,19,21,5,5,1.3,1.1
2022-07-28T12:00:00,1599A,122.167,40.6655,营口市,西炮台,,30,25,35,12,18,205,96,84,76,14,17,12,14,1.4,1.4
2022-07-28T12:00:00,1600A,124.3303,40.0625,丹东市,江湾东路,,31,31,37,16,22,135,88,66,66,7,11,8,9,0.5,0.6
2022-07-28T12:00:00,1601A,124.4256,40.1503,丹东市,临江后街,,30,27,26,16,15,134,94,75,75,3,7,12,12,0.6,0.6
2022-07-28T12:00:00,1602A,124.3933,40.1461,丹东市,元宝山,,38,38,28,18,17,125,93,72,72,8,10,5,5,0.5,0.6
2022-07-28T12:00:00,1603A,124.3633,40.1092,丹东市,民主桥,,38,38,33,18,18,130,86,68,68,7,13,4,6,0.7,0.8
2022-07-28T12:00:00,1604A,122.0303,41.1489,盘锦市,开发区,,40,40,51,24,27,166,85,64,64,17,27,4,6,0.7,1
2022-07-28T12:00:00,1605A,122.0485,41.0883,盘锦市,兴隆台,,46,46,49,23,25,168,75,57,57,17,29,4,6,0.7,0.9
2022-07-28T12:00:00,1606A,121.8297,41.1028,盘锦市,新生街道,,49,49,29,23,19,137,80,56,56,13,9,5,5,0.9,0.7
2022-07-28T12:00:00,1607A,120.9092,40.7136,葫芦岛市,龙港区,,37,8,29,7,28,128,117,84,74,5,10,4,4,0.5,0.6
2022-07-28T12:00:00,1608A,120.8392,40.7514,葫芦岛市,化工街,,,38,33,17,27,131,100,79,56,,12,17,6,0.5,0.6
2022-07-28T12:00:00,1609A,120.8341,40.7073,葫芦岛市,新区,,35,12,29,11,26,137,110,97,77,3,7,3,4,0.6,0.6
2022-07-28T12:00:00,1610A,120.8695,40.7677,葫芦岛市,东城区,,32,22,34,13,33,123,101,58,58,6,16,6,6,0.4,0.4
2022-07-28T12:00:00,1611A,118.5819,24.9117,泉州市,涂山街,颗粒物(PM10),56,61,48,31,22,162,160,70,70,13,24,8,10,0.6,0.5
2022-07-28T12:00:00,1612A,118.5972,24.8978,泉州市,津头埔,颗粒物(PM10),53,56,44,27,21,146,144,65,65,16,28,8,8,0.3,0.3
2022-07-28T12:00:00,1613A,118.6663,24.9424,泉州市,万安,颗粒物(PM10),54,57,45,32,23,151,143,66,66,6,16,8,9,0.5,0.5
2022-07-28T12:00:00,1614A,118.6117,24.9604,泉州市,清源山(对照点),,,,,,,,,,,,,,,,
2022-07-28T12:00:00,1616A,117.6795,36.229,济南市,技术学院,,32,7,30,13,19,175,102,78,76,8,19,6,5,0.5,0.7
2022-07-28T12:00:00,1618A,118.3429,35.0532,临沂市,沂河小区,,46,44,43,32,28,164,144,87,87,9,20,10,12,0.4,0.4
2022-07-28T12:00:00,1619A,118.295,35.0583,临沂市,鲁南制药厂,细颗粒物(PM2.5),70,63,36,51,25,168,143,92,92,13,20,14,10,0.7,0.5
2022-07-28T12:00:00,1620A,118.2794,34.9976,临沂市,新光毛纺厂,细颗粒物(PM2.5),59,58,45,42,26,196,139,88,88,16,28,24,10,0.6,0.5
2022-07-28T12:00:00,1621A,118.3956,35.0888,临沂市,河东保险公司,细颗粒物(PM2.5),54,46,37,38,21,151,151,76,76,7,26,8,6,0.5,0.5
2022-07-28T12:00:00,1622A,116.3032,37.4674,德州市,儿童乐园,,,,32,13,24,163,,76,76,5,13,5,6,0.4,0.4
2022-07-28T12:00:00,1624A,116.2991,37.4451,德州市,监理站,,35,13,29,13,20,169,112,92,92,8,13,6,6,0.3,0.4
2022-07-28T12:00:00,1625A,115.9848,36.4372,聊城市,区政府,,24,12,34,9,21,185,76,124,77,6,10,8,10,0.8,1
2022-07-28T12:00:00,1628A,118.0062,37.3803,滨州市,市环保局,细颗粒物(PM2.5),93,103,45,69,30,167,129,92,78,19,13,13,9,0.8,0.3
2022-07-28T12:00:00,1629A,118.0018,37.3617,滨州市,第二水厂,细颗粒物(PM2.5),80,71,37,59,28,160,126,85,79,24,15,6,6,1.3,0.7
2022-07-28T12:00:00,1630A,117.9776,37.393,滨州市,北中新校,细颗粒物(PM2.5),79,76,35,58,26,159,109,87,71,20,14,15,11,0.8,0.4
2022-07-28T12:00:00,1631A,118.0414,36.8103,淄博市,人民公园,,26,22,45,12,25,176,83,69,49,15,22,8,9,0.3,0.7
2022-07-28T12:00:00,1632A,118.0253,36.8406,淄博市,东风化工厂,,,,,,,,,,,,,,,,
2022-07-28T12:00:00,1633A,117.8525,36.4847,淄博市,双山,,,11,36,,21,167,92,75,75,11,19,8,8,0.4,0.4
2022-07-28T12:00:00,1634A,117.9592,36.6331,淄博市,气象站,,30,23,49,9,25,190,95,73,73,13,23,10,14,0.1,0.4
2022-07-28T12:00:00,1635A,118.3092,36.8194,淄博市,莆田园,,33,19,39,7,27,158,103,68,56,10,22,10,9,0.3,1.2
2022-07-28T12:00:00,1636A,117.8661,36.805,淄博市,三金集团,,,,,,,,,,,,,,,,
2022-07-28T12:00:00,1637A,117.558,34.8438,枣庄市,市中区政府,,33,29,54,7,29,180,105,128,86,20,23,21,11,0.4,0.5
2022-07-28T12:00:00,1638A,117.2852,34.7837,枣庄市,薛城环保局,,,22,49,12,30,188,80,109,79,16,15,10,9,,0.4
2022-07-28T12:00:00,1639A,117.5852,34.7745,枣庄市,峄城区政府,,,36,62,12,43,190,83,97,74,15,16,,6,,0.5
2022-07-28T12:00:00,1640A,117.7276,34.5578,枣庄市,台儿庄区环保局,,33,29,60,17,35,155,105,76,76,12,14,13,11,0.5,0.7
2022-07-28T12:00:00,1641A,117.4518,35.0992,枣庄市,山亭区环保局,,35,24,33,17,23,156,112,127,106,13,11,17,12,0.6,0.6
2022-07-28T12:00:00,1642A,121.2514,37.5639,烟台市,开发区,,15,12,13,7,7,104,46,76,45,1,6,5,5,0.5,0.5
2022-07-28T12:00:00,1643A,121.3719,37.5433,烟台市,轴承厂,,29,14,13,4,9,109,91,88,88,2,3,5,5,0.2,0.1
2022-07-28T12:00:00,1644A,121.3181,37.5436,烟台市,西郊化工站,,28,14,11,5,5,99,89,86,85,4,5,6,6,0.2,0.3
2022-07-28T12:00:00,1645A,121.4478,37.4822,烟台市,莱山环保局,,26,9,8,3,4,110,83,80,76,2,2,7,6,0.4,0.4
2022-07-28T12:00:00,1646A,121.2611,37.4967,烟台市,福山环保局,,26,17,17,9,6,91,81,71,66,7,11,4,6,0.5,0.5
2022-07-28T12:00:00,1648A,119.12,36.7019,潍坊市,仲裁委,,,,,,,,,,,,,,,,
2022-07-28T12:00:00,1650A,119.1437,36.7023,潍坊市,环保局,,42,31,27,22,18,132,132,87,83,4,8,6,6,0.5,0.4
2022-07-28T12:00:00,1652A,119.1936,36.7729,潍坊市,寒亭监测站,,,,,,,,,,,,,,,,
2022-07-28T12:00:00,1653A,116.6251,35.4302,济宁市,火炬城,,24,24,37,14,19,197,76,87,76,10,9,7,7,0.6,0.5
2022-07-28T12:00:00,1655A,116.5491,35.4042,济宁市,电化厂,,,19,36,,28,206,74,91,77,6,6,8,6,0.8,0.7
2022-07-28T12:00:00,1656A,117.1437,36.1937,泰安市,监测站,,25,14,32,12,21,164,80,98,72,9,13,5,6,0.2,0.4
2022-07-28T12:00:00,1657A,117.0885,36.2017,泰安市,人口学校,,24,12,31,13,16,179,74,114,78,12,13,6,8,0.3,0.5
2022-07-28T12:00:00,1658A,117.1089,36.1758,泰安市,电力学校,,30,14,31,21,20,165,68,83,66,6,12,6,8,0.2,0.4
2022-07-28T12:00:00,1659A,119.471,35.4209,日照市,监测站,,48,44,34,33,27,145,125,96,78,25,28,7,5,1.1,0.7
2022-07-28T12:00:00,1660A,119.523,35.4216,日照市,市政府广场,,44,44,36,28,23,122,115,107,81,12,24,8,7,0.7,0.7
2022-07-28T12:00:00,1661A,119.5587,35.4044,日照市,港务局,,33,22,29,16,16,147,104,125,89,11,18,4,4,0.6,0.7
2022-07-28T12:00:00,1662A,122.1214,37.4236,威海市,华夏技校,,31,19,14,12,11,97,97,87,81,5,6,5,4,0.4,0.3
2022-07-28T12:00:00,1663A,122.0508,37.5236,威海市,山大分校,,36,17,14,10,10,113,113,96,96,7,8,3,3,0.3,0.3
2022-07-28T12:00:00,1664A,122.1067,37.5072,威海市,市监测站,,33,15,16,22,17,104,104,87,82,4,10,4,4,0.3,0.3
2022-07-28T12:00:00,1665A,118.5019,37.4658,东营市,西城阳光环保公司,,,,,,,,,,,,,,,,
2022-07-28T12:00:00,1666A,118.6614,37.4309,东营市,市环保局,,44,44,21,27,14,137,137,91,83,9,6,11,12,0.6,0.4
2022-07-28T12:00:00,1669A,113.5824,24.7733,韶关市,市八中,,,56,59,,38,171,170,104,104,13,21,6,8,0.6,0.6
2022-07-28T12:00:00,1670A,113.5556,24.8082,韶关市,碧湖山庄,,,,,,,,,,,,,,,,
2022-07-28T12:00:00,1671A,113.5917,24.7972,韶关市,园林处,颗粒物(PM10),53,55,55,30,38,153,138,83,83,8,15,6,6,0.4,0.5
2022-07-28T12:00:00,1672A,113.6735,24.7791,韶关市,韶关学院,臭氧1小时,83,78,62,45,38,186,186,92,92,17,16,18,14,1.0,0.8
2022-07-28T12:00:00,1673A,113.5971,24.6863,韶关市,曲江监测站,,,,57,,35,169,,86,86,8,19,10,11,0.6,0.6
2022-07-28T12:00:00,1674A,116.6794,23.3667,汕头市,金平子站,,,,25,,14,158,158,63,63,15,13,,8,0.7,0.6
2022-07-28T12:00:00,1675A,116.7244,23.3633,汕头市,龙湖子站,颗粒物(PM10),60,69,30,24,8,152,152,73,73,16,15,11,10,0.9,0.7
2022-07-28T12:00:00,1676A,116.7258,23.2775,汕头市,濠江子站,颗粒物(PM10),51,51,22,19,11,113,113,62,62,10,10,14,11,0.7,0.5
2022-07-28T12:00:00,1677A,116.7519,23.4714,汕头市,澄海子站,,49,49,33,20,16,148,148,70,70,13,16,6,8,0.7,0.8
2022-07-28T12:00:00,1678A,116.6092,23.2539,汕头市,潮阳子站,,,43,25,,18,122,122,70,70,6,7,11,10,0.5,0.4
2022-07-28T12:00:00,1679A,116.4069,23.2533,汕头市,潮南子站,,,,,,,,,,,,,,,,
2022-07-28T12:00:00,1680A,110.3539,21.2706,湛江市,湛江影剧院,,30,20,34,12,18,154,95,51,51,5,11,6,14,0.5,0.5
2022-07-28T12:00:00,1681A,110.3928,21.2228,湛江市,市环境监测站,,28,22,33,15,19,133,88,52,47,10,13,6,14,0.5,0.5
2022-07-28T12:00:00,1682A,110.4019,21.1997,湛江市,环保局宿舍,,27,16,29,14,17,116,85,58,48,6,10,5,11,0.5,0.5
2022-07-28T12:00:00,1683A,110.4111,21.2028,湛江市,霞山游泳场,,33,33,29,17,16,114,103,60,54,10,11,8,9,0.6,0.5
2022-07-28T12:00:00,1684A,110.3316,21.2679,湛江市,麻章区环保局,,29,23,31,20,19,105,83,44,44,6,10,5,11,0.5,0.5
2022-07-28T12:00:00,1685A,110.4558,21.2567,湛江市,坡头区环保局,,33,29,28,23,21,138,101,57,51,7,11,7,8,0.5,0.5
2022-07-28T12:00:00,1686A,111.0286,21.4688,茂名市,电白南海,颗粒物(PM10),53,56,31,34,17,104,104,64,64,5,7,8,5,0.5,0.5
2022-07-28T12:00:00,1687A,110.9294,21.6533,茂名市,茂石化七小,颗粒物(PM10),65,80,35,36,16,108,91,65,60,7,9,9,7,0.5,0.5
2022-07-28T12:00:00,1688A,110.9107,21.6687,茂名市,健康路,,41,41,33,23,18,128,103,73,68,3,5,7,9,0.6,0.6
2022-07-28T12:00:00,1689A,110.8592,21.6828,茂名市,高岭,,39,36,33,27,26,120,93,65,56,4,10,8,13,0.6,0.6
2022-07-28T12:00:00,1690A,116.1231,24.3284,梅州市,梅江月梅,,50,49,41,27,21,160,160,76,76,8,12,4,4,0.5,0.6
2022-07-28T12:00:00,1691A,116.0797,24.2719,梅州市,梅县新城,,,,42,,24,121,112,51,50,,17,4,5,0.6,0.6
2022-07-28T12:00:00,1692A,116.1248,24.2654,梅州市,环境监控中心,细颗粒物(PM2.5),60,42,39,43,23,144,144,71,71,8,14,5,6,0.6,0.7
2022-07-28T12:00:00,1693A,115.3653,22.775,汕尾市,市环保局,,50,26,14,12,7,158,158,60,60,19,8,8,6,0.7,0.5
2022-07-28T12:00:00,1694A,115.3706,22.7898,汕尾市,市政府,臭氧1小时,52,29,11,22,7,161,161,69,69,12,6,9,6,0.8,0.7
2022-07-28T12:00:00,1695A,115.3622,22.7925,汕尾市,新城中学,臭氧1小时,53,18,16,12,7,162,162,69,69,11,5,7,6,0.6,0.5
2022-07-28T12:00:00,1696A,114.6778,23.7569,河源市,源西(对照点),臭氧1小时,77,66,48,28,25,185,181,84,84,9,16,4,4,0.6,0.6
2022-07-28T12:00:00,1697A,114.6944,23.7586,河源市,东埔,臭氧1小时,90,51,47,26,24,194,192,93,93,14,16,5,5,0.6,0.6
2022-07-28T12:00:00,1698A,114.6892,23.7233,河源市,老城,臭氧1小时,92,54,50,33,24,204,193,90,90,13,18,2,2,0.6,0.6
2022-07-28T12:00:00,1699A,111.9797,21.8593,阳江市,鸳鸯湖(对照点),,,,,,,,,,,,,,,,
2022-07-28T12:00:00,1700A,111.9508,21.8536,阳江市,南恩路,,,,,,,,,,,,,,,,
2022-07-28T12:00:00,1701A,111.9491,21.8658,阳江市,马南垌,细颗粒物(PM2.5),55,56,26,39,18,112,102,54,54,7,7,5,6,0.7,0.5
2022-07-28T12:00:00,1702A,113.0426,23.691,清远市,环保大楼(对照点),臭氧1小时,70,60,58,45,38,188,176,115,80,9,15,5,5,0.7,0.6
2022-07-28T12:00:00,1703A,113.0208,23.7106,清远市,凤城街办,颗粒物(PM10),56,61,51,39,35,150,149,92,65,11,16,5,5,0.9,0.8
2022-07-28T12:00:00,1705A,116.6367,23.6719,潮州市,西园路(对照点),,,69,40,32,21,154,154,78,78,,13,,7,0.9,0.8
2022-07-28T12:00:00,1706A,116.6447,23.6706,潮州市,档案局,臭氧1小时,69,59,40,32,20,175,175,76,76,12,14,13,10,0.8,0.8
2022-07-28T12:00:00,1708A,116.3701,23.5345,揭阳市,新兴,,,66,32,25,18,141,141,79,79,5,6,6,6,,0.6
2022-07-28T12:00:00,1709A,116.3264,23.5443,揭阳市,西马,,45,40,33,31,17,142,142,76,76,5,5,8,7,0.5,0.5
2022-07-28T12:00:00,1710A,116.3611,23.5626,揭阳市,东兴,,48,39,41,15,16,151,151,80,80,8,11,4,6,0.7,0.7
2022-07-28T12:00:00,1711A,116.4151,23.5294,揭阳市,渔湖,"颗粒物(PM10),细颗粒物(PM2.5)",52,53,40,36,21,151,151,75,75,11,14,5,7,0.7,0.7
2022-07-28T12:00:00,1712A,112.0392,22.9169,云浮市,新市府(对照点),,,,,,,,,,,,,,,,
2022-07-28T12:00:00,1713A,112.0369,22.9394,云浮市,市监测站,,,,,,,,,,,,,,,,
2022-07-28T12:00:00,1714A,112.0539,22.9539,云浮市,牧羊,颗粒物(PM10),72,93,59,45,27,123,112,44,44,14,18,27,21,0.6,0.6
2022-07-28T12:00:00,1715A,102.575,24.3711,玉溪市,东风水库,,15,12,18,5,9,69,47,27,27,9,13,4,4,0.5,0.6
2022-07-28T12:00:00,1718A,115.4208,35.2464,菏泽市,气象局,,31,17,23,20,17,198,97,93,82,10,7,4,4,0.5,0.4
2022-07-28T12:00:00,1719A,115.4747,35.2375,菏泽市,市政协,,34,23,29,13,14,209,107,90,86,8,8,6,6,0.2,0.2
2022-07-28T12:00:00,1720A,115.455,35.27,菏泽市,菏泽学院,,,,,,,,,,,,,,,,
2022-07-28T12:00:00,1721A,113.3819,40.1097,大同市,果树场(对照点),,,,,,,,,,,,,,,,
2022-07-28T12:00:00,1723A,113.2994,40.0758,大同市,云冈宾馆,颗粒物(PM10),58,65,42,21,15,121,121,67,67,34,24,38,18,1.2,0.5
2022-07-28T12:00:00,1724A,113.3444,40.0917,大同市,大同大学,颗粒物(PM10),54,57,31,23,14,125,124,71,70,25,19,16,14,0.9,0.4
2022-07-28T12:00:00,1725A,113.2661,40.1269,大同市,安家小村,颗粒物(PM10),62,73,41,23,17,128,128,80,80,25,18,26,16,0.7,0.5
2022-07-28T12:00:00,1726A,113.2711,40.0844,大同市,教育学院,颗粒物(PM10),61,72,43,25,16,127,127,77,68,21,22,58,22,0.6,0.5
2022-07-28T12:00:00,1727A,113.1147,36.1547,长治市,清华站,颗粒物(PM10),78,106,37,24,14,125,125,72,72,10,13,9,9,0.6,0.7
2022-07-28T12:00:00,1728A,113.1031,36.1989,长治市,监测站,,41,35,32,22,15,133,131,71,71,12,16,9,9,0.8,0.7
2022-07-28T12:00:00,1730A,113.0886,36.2125,长治市,审计局,,49,36,25,22,17,159,154,90,90,14,16,9,9,1.0,0.8
2022-07-28T12:00:00,1731A,113.0844,36.1856,长治市,长治八中,,46,28,26,32,17,138,137,78,78,12,15,13,10,1.2,0.9
2022-07-28T12:00:00,1733A,111.5531,36.0783,临汾市,临钢医院,,43,27,24,22,17,135,135,62,62,12,19,2,2,0.5,0.5
2022-07-28T12:00:00,1734A,111.5028,36.0714,临汾市,技工学校,,48,47,22,33,20,138,138,69,65,12,16,9,7,0.8,0.7
2022-07-28T12:00:00,1735A,111.5169,36.0822,临汾市,工商学校,,,,,,,,,,,,,,,,
2022-07-28T12:00:00,1736A,111.5018,36.0855,临汾市,市委,,46,45,28,32,23,136,136,66,62,13,17,8,6,0.8,0.7
2022-07-28T12:00:00,1738A,113.5758,37.8572,阳泉市,市中心,,38,18,27,6,12,120,120,59,59,12,26,8,9,0.6,0.7
2022-07-28T12:00:00,1739A,113.4894,37.8731,阳泉市,赛鱼,,,,23,7,12,96,,35,35,17,30,11,10,,0.6
2022-07-28T12:00:00,1740A,113.5819,37.8486,阳泉市,南庄,,39,15,20,18,18,123,123,54,54,10,20,9,9,0.6,0.7
2022-07-28T12:00:00,1741A,113.6292,37.8531,阳泉市,白羊墅,,,,,,,,,,,,,,,,
2022-07-28T12:00:00,1742A,113.5614,37.8703,阳泉市,平坦,颗粒物(PM10),56,61,30,5,10,118,118,60,60,15,30,9,9,0.6,0.7
2022-07-28T12:00:00,1743A,113.5158,37.8392,阳泉市,大阳泉,,35,8,12,10,10,111,111,65,65,13,17,6,6,0.5,0.6
2022-07-28T12:00:00,1744A,118.9233,42.2816,赤峰市,松山一中,,29,7,14,2,6,121,92,91,89,17,15,8,8,0.6,0.7
2022-07-28T12:00:00,1745A,118.9576,42.2728,赤峰市,哈达街,,29,16,15,5,6,134,90,91,90,24,15,10,9,0.4,0.4
2022-07-28T12:00:00,1746A,118.8788,42.2554,赤峰市,天义路,,25,5,12,2,6,116,79,90,87,21,15,10,10,0.3,0.3
2022-07-28T12:00:00,1748A,123.044,41.1196,鞍山市,深沟寺,,31,28,26,18,17,126,99,88,88,5,7,6,6,0.5,0.6
2022-07-28T12:00:00,1749A,123.011,41.0931,鞍山市,太阳城,,30,25,24,18,17,122,93,84,81,8,9,6,6,0.7,0.7
2022-07-28T12:00:00,1750A,123.0485,41.1442,鞍山市,太平,,32,32,28,20,18,130,98,90,90,8,11,5,5,0.7,0.7
2022-07-28T12:00:00,1751A,122.9642,41.0971,鞍山市,铁西三道街,,,,34,,17,97,,103,,,16,,5,,0.8
2022-07-28T12:00:00,1752A,122.9341,41.0833,鞍山市,铁西工业园区,,35,35,39,19,19,141,96,83,83,5,16,6,7,0.8,0.9
2022-07-28T12:00:00,1753A,123.022,41.0821,鞍山市,明达新区,,31,29,27,20,19,126,97,91,91,6,7,4,4,0.4,0.5
2022-07-28T12:00:00,1754A,123.1289,41.0228,鞍山市,千山(对照点),,,,,,,,,,,,,,,,
2022-07-28T12:00:00,1755A,123.7977,41.8491,抚顺市,望花区,,36,36,49,20,25,172,100,59,59,6,18,3,5,0.4,0.7
2022-07-28T12:00:00,1756A,123.9161,41.8822,抚顺市,顺城区,,34,34,39,19,18,168,97,62,60,12,19,7,8,0.6,0.7
2022-07-28T12:00:00,1757A,124.0436,41.8611,抚顺市,东洲区,,32,32,30,19,17,141,94,64,62,4,5,8,8,0.3,0.4
2022-07-28T12:00:00,1758A,123.9247,41.8642,抚顺市,新抚区,,,,41,23,22,169,,54,54,,17,,4,,0.7
2022-07-28T12:00:00,1759A,124.0972,41.8961,抚顺市,大伙房水库,,30,25,24,15,15,125,95,62,62,4,5,6,5,0.3,0.4
2022-07-28T12:00:00,1760A,123.7086,41.8391,抚顺市,沈抚新城,,33,28,45,23,27,192,102,60,60,5,19,3,5,0.5,0.8
2022-07-28T12:00:00,1761A,123.8275,41.3064,本溪市,大峪,,29,29,40,14,22,117,88,56,56,6,13,5,5,0.6,0.7
2022-07-28T12:00:00,1762A,123.7567,41.3325,本溪市,溪湖,,44,44,62,18,27,119,96,53,53,5,18,6,6,0.9,1.1
2022-07-28T12:00:00,1763A,123.7169,41.3094,本溪市,彩屯,,40,40,48,17,30,111,78,39,39,18,20,5,4,0.7,1
2022-07-28T12:00:00,1764A,123.7669,41.2864,本溪市,东明,,39,39,52,19,26,121,93,58,58,8,19,5,5,0.5,0.6
2022-07-28T12:00:00,1765A,123.7992,41.2664,本溪市,新立屯,,31,28,43,18,24,122,97,60,60,3,16,3,3,0.6,0.7
2022-07-28T12:00:00,1766A,123.8142,41.3472,本溪市,威宁,,29,29,45,12,20,112,88,54,54,3,11,8,8,0.5,0.6
2022-07-28T12:00:00,1767A,121.1115,41.0879,锦州市,南山,,19,19,28,13,21,116,49,61,41,21,15,5,6,0.8,0.8
2022-07-28T12:00:00,1768A,121.0533,40.8434,锦州市,开发区,,36,21,34,14,27,136,113,66,66,8,17,4,4,1.0,0.9
2022-07-28T12:00:00,1769A,121.1836,41.1119,锦州市,百股街道,,25,17,23,17,23,126,65,78,53,9,9,5,5,0.7,0.6
2022-07-28T12:00:00,1770A,121.1178,41.1222,锦州市,天安街道,,19,13,30,10,20,123,60,82,52,15,14,5,5,0.8,0.7
2022-07-28T12:00:00,1771A,121.1303,41.1386,锦州市,北湖公园,,20,14,24,6,19,114,61,81,54,9,11,3,4,0.6,0.6
2022-07-28T12:00:00,1772A,126.54,43.8622,吉林市,哈达湾,,27,14,21,8,11,130,86,79,67,5,7,5,5,0.6,0.6
2022-07-28T12:00:00,1773A,126.5844,43.8358,吉林市,东局子,,,19,22,12,12,123,74,74,62,6,9,8,7,,0.6
2022-07-28T12:00:00,1774A,126.5052,43.8245,吉林市,电力学院,,24,24,28,12,14,118,70,49,49,8,11,7,7,0.5,0.5
2022-07-28T12:00:00,1775A,126.6133,43.8972,吉林市,江北,,,24,22,13,13,113,77,56,56,,13,6,6,0.5,0.7
2022-07-28T12:00:00,1776A,126.555,43.8306,吉林市,江南公园,,23,17,20,11,11,120,73,75,64,9,11,6,4,0.5,0.5
2022-07-28T12:00:00,1778A,126.7061,43.7133,吉林市,丰满(对照点),,,,,,,,,,,,,,,,
2022-07-28T12:00:00,1779A,123.9305,47.3636,齐齐哈尔市,安居小区,,43,36,53,30,21,113,81,86,66,19,18,5,5,0.6,0.6
2022-07-28T12:00:00,1780A,123.9488,47.3386,齐齐哈尔市,中心广场,,,42,42,24,20,107,76,80,66,,14,,4,0.5,0.5
2022-07-28T12:00:00,1781A,123.9483,47.3227,齐齐哈尔市,农牧车辆厂,,36,36,50,25,19,112,84,90,73,5,5,3,3,0.5,0.5
2022-07-28T12:00:00,1783A,123.945,47.2988,齐齐哈尔市,市环境监测站,,36,36,41,19,17,115,90,88,76,10,10,6,6,0.4,0.5
2022-07-28T12:00:00,1784A,129.61,44.561,牡丹江市,环保大楼,,28,20,26,13,11,137,87,60,60,5,13,4,4,0.6,0.7
2022-07-28T12:00:00,1785A,129.6115,44.5782,牡丹江市,文化广场,,,,28,,12,126,80,46,46,11,18,2,3,0.5,0.5
2022-07-28T12:00:00,1786A,129.5904,44.5963,牡丹江市,第一医院,,22,19,15,6,8,104,70,44,44,6,14,3,3,0.7,0.8
2022-07-28T12:00:00,1787A,129.6364,44.6075,牡丹江市,机车工厂,,28,20,34,4,11,122,87,55,55,5,11,3,3,0.4,0.4
2022-07-28T12:00:00,1788A,129.6386,44.5462,牡丹江市,第一中学,,33,33,29,10,14,127,76,52,52,5,11,3,3,0.4,0.5
2022-07-28T12:00:00,1789A,124.81117,46.03138,大庆市,大同区,,33,30,42,23,24,135,91,63,63,8,12,4,4,0.4,0.5
2022-07-28T12:00:00,1790A,125.129,46.533,大庆市,龙凤区,,29,29,31,13,10,127,92,87,69,23,12,5,5,0.4,0.3
2022-07-28T12:00:00,1791A,124.902,46.408,大庆市,红岗区,,28,16,18,8,11,124,88,72,65,10,8,2,3,0.4,0.5
2022-07-28T12:00:00,1792A,125.153,46.586,大庆市,萨尔图区,,30,29,44,21,25,122,83,86,71,22,13,3,4,0.5,0.5
2022-07-28T12:00:00,1793A,124.9042,46.6215,大庆市,让胡路区,,27,23,28,15,11,126,84,86,67,11,10,4,4,0.3,0.3
2022-07-28T12:00:00,1794A,118.3606,31.3519,芜湖市,监测站,,,45,34,,26,197,127,84,84,14,20,10,11,0.6,0.6
2022-07-28T12:00:00,1795A,118.3714,31.4134,芜湖市,科创中心,颗粒物(PM10),51,52,38,29,22,236,145,92,92,18,22,7,8,0.6,0.7
2022-07-28T12:00:00,1796A,118.3673,31.3131,芜湖市,四水厂,颗粒物(PM10),53,56,40,31,23,202,137,89,89,17,16,8,9,0.5,0.5
2022-07-28T12:00:00,1797A,118.4022,31.3839,芜湖市,济民医院(对照点),,,,,,,,,,,,,,,,
2022-07-28T12:00:00,1798A,118.5092,31.6837,马鞍山市,湖东路四小,臭氧1小时,70,42,40,22,23,308,176,109,109,10,17,2,6,0.9,1.2
2022-07-28T12:00:00,1799A,118.5024,31.6449,马鞍山市,开发区,臭氧1小时,70,51,34,24,19,235,176,90,90,13,23,9,10,0.8,0.9
2022-07-28T12:00:00,1800A,118.5228,31.7231,马鞍山市,慈湖,臭氧1小时,70,39,47,30,26,272,176,102,102,5,18,4,8,0.8,1.1
2022-07-28T12:00:00,1801A,118.48,31.6928,马鞍山市,马钢动力厂,,,,,,,,,,,,,,,,
2022-07-28T12:00:00,1802A,118.6245,31.7241,马鞍山市,濮塘(对照点),,45,26,29,21,20,258,141,93,93,1,9,3,4,0.6,0.7
2022-07-28T12:00:00,1803A,115.9872,29.6815,九江市,十里,细颗粒物(PM2.5),55,56,47,39,31,233,161,68,68,12,27,8,8,0.9,0.9
2022-07-28T12:00:00,1804A,115.9584,29.7046,九江市,茅山头,,47,47,47,26,30,238,149,56,56,19,29,6,6,0.7,0.8
2022-07-28T12:00:00,1805A,115.9877,29.7295,九江市,西园,颗粒物(PM10),59,67,47,30,23,231,147,66,66,33,34,8,10,0.9,1
2022-07-28T12:00:00,1806A,116.0172,29.6547,九江市,五七二七厂,细颗粒物(PM2.5),58,58,43,41,29,188,148,72,72,3,11,4,5,0.8,0.8
2022-07-28T12:00:00,1808A,115.9114,29.6038,九江市,综合工业园,,42,37,49,29,27,166,129,57,57,5,31,8,6,0.7,0.6
2022-07-28T12:00:00,1809A,116.0721,29.7535,九江市,石化总厂,,,60,46,,24,185,148,59,59,,29,,6,0.8,0.8
2022-07-28T12:00:00,1810A,115.9773,29.5698,九江市,庐山气象台(对照点),,32,29,31,22,28,156,91,156,107,4,5,11,8,0.3,0.6
2022-07-28T12:00:00,1811A,112.3628,34.6692,洛阳市,中信二小,,,,,,,,,,,,,,,,
2022-07-28T12:00:00,1812A,112.3931,34.6516,洛阳市,市委党校,,40,37,24,23,20,128,128,46,46,8,17,5,3,0.7,0.6
2022-07-28T12:00:00,1814A,112.4657,34.6871,洛阳市,豫西宾馆,,,32,35,21,18,114,,39,33,,17,2,3,0.6,0.6
2022-07-28T12:00:00,1815A,112.494,34.6886,洛阳市,河南林校,,38,27,21,16,10,120,120,42,42,3,12,2,2,0.4,0.3
2022-07-28T12:00:00,1816A,112.3844,34.623,洛阳市,开发区管委会,,40,34,43,22,19,127,127,54,54,4,11,7,5,0.7,0.7
2022-07-28T12:00:00,1817A,112.4267,34.6258,洛阳市,市委新办公区,,36,31,26,20,15,115,115,50,50,4,11,6,4,0.5,0.5
2022-07-28T12:00:00,1818A,114.4839,36.0621,安阳市,棉研所(对照点),,,,,,,,,,,,,,,,
2022-07-28T12:00:00,1819A,114.3551,36.1017,安阳市,红庙街,,41,24,28,15,14,167,131,109,100,13,13,7,3,0.6,0.5
2022-07-28T12:00:00,1820A,114.361,36.0681,安阳市,银杏小区,,,31,24,,14,172,143,116,109,6,5,6,3,0.6,0.5
2022-07-28T12:00:00,1824A,114.3389,34.7781,开封市,肿瘤医院,,32,27,25,19,14,143,100,88,88,6,7,2,2,0.6,0.5
2022-07-28T12:00:00,1826A,114.2885,34.7965,开封市,世纪星幼儿园,,30,17,27,8,13,135,96,83,83,10,9,4,4,0.8,0.7
2022-07-28T12:00:00,1828A,113.227,35.2125,焦作市,市环保局,,33,28,41,14,20,143,104,47,47,6,11,5,4,0.7,0.6
2022-07-28T12:00:00,1829A,113.2464,35.1764,焦作市,高新区政府（停运20220628）,,,,,,,,,,,,,,,,
2022-07-28T12:00:00,1830A,113.1992,35.2590,焦作市,影视城(对照点),,,,,,,,,,,,,,,,
2022-07-28T12:00:00,1832A,113.3257,33.742,平顶山市,新华旅馆,,33,33,26,18,12,130,86,74,49,11,14,17,7,0.4,0.3
2022-07-28T12:00:00,1833A,113.2919,33.737,平顶山市,规划设计院,,36,36,28,22,18,126,83,71,49,14,12,9,3,0.7,0.6
2022-07-28T12:00:00,1834A,113.182,33.774,平顶山市,平顶山工学院,,44,44,31,26,17,125,72,51,45,18,15,11,7,0.6,0.5
2022-07-28T12:00:00,1835A,111.1922,34.7752,三门峡市,市政府,,41,41,35,23,34,120,120,45,45,10,24,6,5,0.6,0.6
2022-07-28T12:00:00,1836A,111.1587,34.7942,三门峡市,开发区,颗粒物(PM10),64,77,47,23,24,115,115,56,54,6,12,4,3,0.8,0.6
2022-07-28T12:00:00,1838A,111.143,34.7955,三门峡市,风景区(对照点),,,,,,,,,,,,,,,,
2022-07-28T12:00:00,1839A,111.3009,30.7157,宜昌市,四零三,,,,,,,,,,,,,,,,
2022-07-28T12:00:00,1840A,111.2992,30.6981,宜昌市,白龙岗,,24,24,18,5,4,133,72,32,32,20,15,8,8,0.5,0.4
2022-07-28T12:00:00,1841A,111.3549,30.6465,宜昌市,伍家岗,,31,27,18,7,6,138,99,39,33,15,19,2,1,0.4,0.4
2022-07-28T12:00:00,1842A,111.2628,30.6961,宜昌市,点军区,,,24,19,9,4,119,65,28,28,,10,,4,0.4,0.4
2022-07-28T12:00:00,1843A,111.3275,30.7819,宜昌市,夷陵区,,30,26,20,5,2,132,93,36,36,15,13,4,4,0.5,0.4
2022-07-28T12:00:00,1844A,112.2494,30.3197,荆州市,市图书馆,,,17,26,6,14,201,,77,77,7,14,7,8,0.5,0.5
2022-07-28T12:00:00,1845A,112.2008,30.3544,荆州市,市委党校,,29,17,25,8,13,187,90,77,77,4,11,6,7,0.6,0.5
2022-07-28T12:00:00,1847A,113.1094,29.3578,岳阳市,南湖风景区,,37,19,35,10,28,153,117,66,64,11,15,9,8,0.4,0.6
2022-07-28T12:00:00,1848A,113.1493,29.4251,岳阳市,城陵矶,,26,26,37,18,25,150,83,54,54,9,19,9,12,0.6,0.6
2022-07-28T12:00:00,1849A,113.1497,29.3575,岳阳市,开发区,,35,24,39,3,34,147,112,64,64,11,17,9,7,0.5,0.6
2022-07-28T12:00:00,1850A,113.2621,29.4758,岳阳市,云溪区,,38,38,38,19,26,151,99,64,64,8,17,8,14,0.6,0.6
2022-07-28T12:00:00,1851A,112.9943,29.4402,岳阳市,君山区,,30,26,29,14,24,143,96,67,59,5,8,7,7,0.4,0.5
2022-07-28T12:00:00,1852A,113.2117,29.355,岳阳市,金凤水库(对照点),,35,31,33,22,22,142,111,78,58,10,12,5,4,0.6,0.7
2022-07-28T12:00:00,1854A,111.6975,28.9703,常德市,市二中,,19,13,19,8,15,146,58,41,41,5,11,6,8,0.4,0.4
2022-07-28T12:00:00,1857A,111.7158,29.1456,常德市,白鹤山(对照点),,22,19,27,8,16,159,68,53,53,3,5,5,4,0.4,0.4
2022-07-28T12:00:00,1858A,110.5319,29.1217,张家界市,永定新区,,23,19,18,10,17,110,73,40,40,5,6,3,3,0.0,0
2022-07-28T12:00:00,1859A,110.4697,29.1242,张家界市,电业局,,20,9,14,0,8,124,63,47,41,3,6,3,3,0.1,0.1
2022-07-28T12:00:00,1860A,110.5594,29.3547,张家界市,未央路,,21,12,18,6,7,89,67,40,40,3,5,2,2,0.2,0.2
2022-07-28T12:00:00,1861A,110.4417,29.315,张家界市,袁家界(对照点),,27,14,12,3,8,107,86,77,77,5,5,5,5,0.6,0.6
2022-07-28T12:00:00,1862A,110.4144,25.3167,桂林市,电子科大尧山校区(对照点),,35,14,40,24,39,108,105,55,55,5,7,8,22,0.6,0.6
2022-07-28T12:00:00,1863A,110.2819,25.2697,桂林市,监测站,,33,33,36,13,16,99,90,78,56,6,13,6,9,0.5,0.5
2022-07-28T12:00:00,1864A,110.3089,25.2708,桂林市,龙隐路小学,,27,20,33,17,19,99,86,65,58,4,12,6,13,0.3,0.3
2022-07-28T12:00:00,1865A,110.2869,25.2178,桂林市,八中,,32,32,31,12,18,100,82,56,49,5,12,7,8,0.4,0.5
2022-07-28T12:00:00,1866A,109.2262,21.588,北海市,牛尾岭水库(对照点),颗粒物(PM10),71,92,22,17,11,58,57,24,24,2,8,5,4,0.4,0.4
2022-07-28T12:00:00,1867A,109.1436,21.4086,北海市,海滩公园,,22,19,13,5,4,68,68,48,48,3,2,5,4,0.5,0.5
2022-07-28T12:00:00,1868A,109.0981,21.4661,北海市,新市环保局,,24,19,9,5,4,76,76,47,47,4,2,5,4,0.5,0.4
2022-07-28T12:00:00,1869A,109.1778,21.5233,北海市,北海工业园,,23,18,13,10,6,71,71,43,43,4,2,5,4,0.4,0.4
2022-07-28T12:00:00,1870A,109.4856,24.3895,柳州市,柳东小学,,39,21,33,17,26,125,122,90,55,6,9,6,6,0.6,0.6
2022-07-28T12:00:00,1871A,109.4157,24.3277,柳州市,环保监测站,,36,23,32,14,19,116,114,68,61,8,12,6,6,0.5,0.5
2022-07-28T12:00:00,1872A,109.389,24.341,柳州市,河西水厂,,,21,36,,18,119,,56,50,11,13,,8,0.6,0.6
2022-07-28T12:00:00,1873A,109.4311,24.2921,柳州市,市四中,,36,35,44,20,24,118,113,57,57,7,13,8,7,0.6,0.8
2022-07-28T12:00:00,1874A,109.4006,24.3631,柳州市,市九中,,39,39,42,14,20,121,121,70,58,9,11,8,8,0.7,0.7
2022-07-28T12:00:00,1875A,109.4958,24.3134,柳州市,古亭山,,37,31,34,19,17,117,117,55,55,9,14,6,5,0.6,0.6
2022-07-28T12:00:00,1876A,109.5078,18.2489,三亚市,河东子站,,12,5,13,6,6,40,37,22,22,6,7,2,3,0.4,0.4
2022-07-28T12:00:00,1877A,109.4964,18.2681,三亚市,河西子站,,12,5,11,3,4,39,38,25,19,3,6,4,4,0.3,0.3
2022-07-28T12:00:00,1878A,104.7778,31.4741,绵阳市,富乐山,,32,31,21,14,12,100,100,32,32,10,13,9,10,0.5,0.5
2022-07-28T12:00:00,1879A,104.7563,31.4535,绵阳市,市人大,,31,29,27,18,15,98,98,32,32,10,20,2,3,0.5,0.5
2022-07-28T12:00:00,1880A,104.6697,31.4668,绵阳市,高新区自来水公司,,39,39,29,26,18,110,110,38,38,19,21,7,8,0.6,0.5
2022-07-28T12:00:00,1881A,104.7287,31.5075,绵阳市,三水厂,,32,30,26,18,16,101,101,32,32,10,22,4,4,0.5,0.6
2022-07-28T12:00:00,1882A,104.563,28.793,宜宾市,石马中学(对照点),,41,21,31,15,18,129,129,45,40,11,12,4,4,0.5,0.5
2022-07-28T12:00:00,1883A,104.6201,28.7728,宜宾市,市委,,40,22,28,14,17,126,126,64,54,12,19,7,6,0.5,0.6
2022-07-28T12:00:00,1884A,104.6055,28.793,宜宾市,宜宾四中,,43,41,35,18,21,135,135,73,58,12,15,9,8,0.6,0.6
2022-07-28T12:00:00,1885A,104.639,28.7562,宜宾市,市政府,,41,33,31,14,20,130,130,82,65,12,16,8,7,0.6,0.7
2022-07-28T12:00:00,1886A,104.5742,28.7199,宜宾市,黄金嘴,,42,18,28,13,17,132,132,56,56,6,14,7,7,0.4,0.5
2022-07-28T12:00:00,1888A,101.6891,26.571,攀枝花市,弄弄坪,,43,36,28,30,17,93,46,50,15,26,23,34,12,2.2,1.6
2022-07-28T12:00:00,1889A,101.5769,26.5928,攀枝花市,河门口,,19,12,14,7,7,96,58,46,34,8,14,8,11,0.7,1
2022-07-28T12:00:00,1890A,101.7169,26.585,攀枝花市,炳草岗,细颗粒物(PM2.5),72,42,35,52,22,94,35,31,13,34,28,39,22,2.2,1.4
2022-07-28T12:00:00,1891A,101.7369,26.5008,攀枝花市,仁和,,38,38,24,23,13,78,48,25,25,17,14,25,15,1.3,0.7
2022-07-28T12:00:00,1893A,105.4324,28.9634,泸州市,九狮山(对照点),,34,34,20,7,16,100,83,37,37,16,21,9,9,0.6,0.6
2022-07-28T12:00:00,1894A,105.4427,28.9063,泸州市,小市上码头,,40,30,37,17,22,138,126,69,69,12,18,14,12,0.6,0.6
2022-07-28T12:00:00,1895A,105.4241,28.8573,泸州市,兰田宪桥,,37,25,28,12,14,137,118,60,60,9,14,12,8,0.3,0.3
2022-07-28T12:00:00,1896A,105.4379,28.8833,泸州市,市环监站,,40,23,31,19,22,136,125,71,70,12,18,7,4,0.5,0.5
2022-07-28T12:00:00,1897A,104.7547,29.3628,自贡市,大塘山(对照点),,,,,,,,,,,,,,,,
2022-07-28T12:00:00,1900A,104.7692,29.3411,自贡市,春华路,,,,,,,,,,,,,,,,
2022-07-28T12:00:00,1901A,104.4239,31.1208,德阳市,东山公园,,44,27,22,8,8,138,138,62,62,10,15,13,14,0.5,0.6
2022-07-28T12:00:00,1902A,104.3826,31.1317,德阳市,西小区,,42,42,35,10,9,134,134,48,48,16,22,4,4,0.4,0.3
2022-07-28T12:00:00,1903A,104.4053,31.1167,德阳市,市检察院,,,,,,,,,,,,,,,,
2022-07-28T12:00:00,1904A,104.3553,31.1091,德阳市,耐火材料厂,颗粒物(PM10),51,51,25,17,9,146,146,53,53,40,25,8,6,0.6,0.6
2022-07-28T12:00:00,1905A,106.056,30.8064,南充市,西山风景区(对照点),,35,24,22,19,11,109,109,65,65,17,15,2,4,0.8,0.7
2022-07-28T12:00:00,1906A,106.0789,30.8023,南充市,南充市委,,37,34,23,17,9,117,117,83,83,8,9,1,3,0.4,0.4
2022-07-28T12:00:00,1907A,106.1031,30.8217,南充市,南充炼油厂,,39,24,22,15,9,122,122,68,57,8,9,6,6,0.4,0.4
2022-07-28T12:00:00,1908A,106.1064,30.7856,南充市,高坪区监测站,,35,18,15,15,13,111,111,67,59,7,13,1,3,0.4,0.4
2022-07-28T12:00:00,1909A,106.0642,30.7636,南充市,嘉陵区环保局,,36,32,18,16,15,114,114,73,61,3,10,6,5,0.3,0.3
2022-07-28T12:00:00,1910A,106.1087,30.8388,南充市,市环境监测站,,36,34,24,11,13,113,113,56,56,6,19,5,4,0.3,0.3
2022-07-28T12:00:00,1911A,106.9222,27.6869,遵义市,丁字口,,22,15,21,15,15,118,45,32,32,7,9,7,6,0.6,0.6
2022-07-28T12:00:00,1912A,106.9242,27.7019,遵义市,凤凰山,,,14,20,9,14,112,30,41,29,11,11,10,5,,0.7
2022-07-28T12:00:00,1913A,106.8906,27.6486,遵义市,忠庄,,12,11,17,7,7,101,37,28,28,16,14,1,1,0.4,0.4
2022-07-28T12:00:00,1914A,106.9231,27.6506,遵义市,舟水桥,,20,20,26,7,9,112,42,26,26,20,19,3,2,0.4,0.5
2022-07-28T12:00:00,1915A,106.9178,27.72,遵义市,干田坝,,18,10,19,12,11,119,42,34,24,11,11,5,5,0.6,0.6
2022-07-28T12:00:00,1916A,103.7897,25.5035,曲靖市,环境监测站,,22,11,23,15,15,97,70,58,58,14,21,4,5,0.5,0.6
2022-07-28T12:00:00,1917A,103.8,25.5364,曲靖市,烟厂办公区,,24,18,9,11,9,76,76,60,60,9,12,7,6,0.7,0.7
2022-07-28T12:00:00,1918A,108.7197,34.3956,咸阳市,气象站(对照点),,47,47,51,24,17,136,126,42,42,23,29,5,5,0.9,0.9
2022-07-28T12:00:00,1919A,108.673,34.3155,咸阳市,实验中学,颗粒物(PM10),59,67,43,27,13,134,126,42,36,29,29,4,3,0.4,0.4
2022-07-28T12:00:00,1920A,108.7233,34.3617,咸阳市,师范学院,颗粒物(PM10),58,65,42,25,17,134,113,34,34,33,32,5,4,0.6,0.6
2022-07-28T12:00:00,1922A,109.0656,35.0994,铜川市,党校(对照点),,28,25,23,11,8,70,63,28,28,56,28,3,4,1.0,0.7
2022-07-28T12:00:00,1923A,109.0697,35.0697,铜川市,王益区政府,,,,27,,10,104,,39,39,,27,7,4,1.1,0.6
2022-07-28T12:00:00,1924A,108.9344,34.9058,铜川市,新区管委会,,40,38,29,23,13,125,125,58,58,15,17,6,5,0.6,0.5
2022-07-28T12:00:00,1925A,108.9589,34.8731,铜川市,新区兰芝公司,,,,,,,,,,,,,,,,
2022-07-28T12:00:00,1926A,109.4131,36.6275,延安市,枣园(对照点),,36,20,18,8,7,136,113,41,41,10,14,4,4,0.5,0.5
2022-07-28T12:00:00,1927A,109.4761,36.6028,延安市,延大医附院,,,30,22,15,9,127,,29,29,,18,3,3,0.4,0.3
2022-07-28T12:00:00,1928A,109.4824,36.5767,延安市,市监测站,,,,,,,,,,,,,,,,
2022-07-28T12:00:00,1929A,109.5056,36.6106,延安市,百米大道,,47,47,33,9,11,119,104,37,37,21,21,5,5,0.7,0.6
2022-07-28T12:00:00,1930A,107.185,34.3063,宝鸡市,庙沟村(对照点),,34,34,16,9,6,105,84,66,61,15,12,4,4,0.3,0.2
2022-07-28T12:00:00,1931A,107.0708,34.3017,宝鸡市,竹园沟,,,43,19,18,7,117,114,73,70,10,11,,4,0.3,0.3
2022-07-28T12:00:00,1932A,107.1906,34.3672,宝鸡市,三陆医院,,48,48,28,7,9,126,110,42,42,13,18,5,7,0.3,0.3
2022-07-28T12:00:00,1933A,107.1431,34.3547,宝鸡市,监测站,,37,37,21,13,10,123,115,56,56,16,17,5,5,0.3,0.3
2022-07-28T12:00:00,1934A,107.1186,34.3739,宝鸡市,技工学校,,,,25,,9,70,,77,,,13,,4,,0.2
2022-07-28T12:00:00,1935A,107.3906,34.3528,宝鸡市,陈仓区环保局家属楼,,,,18,8,11,139,108,45,45,11,18,6,5,0.3,0.3
2022-07-28T12:00:00,1936A,107.2058,34.3497,宝鸡市,文理学院,,38,38,24,11,9,129,113,55,55,17,19,7,7,0.3,0.2
2022-07-28T12:00:00,1937A,107.2386,34.3622,宝鸡市,三迪小学,,37,37,26,12,9,126,105,48,48,21,22,5,5,0.3,0.3
2022-07-28T12:00:00,1938A,109.5293,34.5101,渭南市,农科所(对照点),,,,,,,,,,,,,,,,
2022-07-28T12:00:00,1939A,109.4974,34.4877,渭南市,日报社,,46,29,24,18,16,147,147,72,72,14,23,7,7,0.4,0.4
2022-07-28T12:00:00,1940A,109.4636,34.493,渭南市,体育馆,,49,34,20,22,16,155,155,73,73,15,22,7,5,0.4,0.3
2022-07-28T12:00:00,1941A,109.4259,34.5023,渭南市,高新一小,颗粒物(PM10),54,57,37,33,20,137,129,65,53,14,26,10,5,0.5,0.4
2022-07-28T12:00:00,1943A,102.1725,38.5339,金昌市,新川苑,,,,31,,10,129,129,99,99,25,21,40,14,,0.6
2022-07-28T12:00:00,1944A,102.1692,38.5167,金昌市,天庆家园,,42,32,30,4,5,134,134,98,98,13,20,20,9,0.5,0.6
2022-07-28T12:00:00,1945A,98.2908,39.7711,嘉峪关市,气象局,,46,46,29,9,8,152,120,116,85,8,17,7,7,0.5,0.5
2022-07-28T12:00:00,1947A,106.3394,38.817,石嘴山市,沙湖旅游区(对照点),颗粒物(PM10),65,80,55,29,22,174,156,80,80,21,19,42,32,0.8,0.5
2022-07-28T12:00:00,1948A,106.3668,39.0145,石嘴山市,大武口朝阳西街,颗粒物(PM10),65,80,50,29,16,160,160,71,70,23,27,60,27,2.0,1
2022-07-28T12:00:00,1949A,106.7704,39.2282,石嘴山市,惠农南大街,颗粒物(PM10),57,63,38,23,13,151,132,73,71,20,18,38,12,0.9,0.4
2022-07-28T12:00:00,1950A,106.7099,39.1325,石嘴山市,红果子镇惠新街,颗粒物(PM10),67,83,62,23,15,155,145,74,74,15,15,29,14,1.0,0.5
2022-07-28T12:00:00,1951A,84.895,45.6094,克拉玛依市,长征新村,,,,18,,5,133,94,111,95,,8,7,8,0.2,0.2
2022-07-28T12:00:00,1952A,84.8988,45.5893,克拉玛依市,南林小区,,33,15,23,12,12,123,104,113,75,10,19,9,9,0.4,0.5
2022-07-28T12:00:00,1953A,85.1186,45.6886,克拉玛依市,白碱滩区,,,,,,,,,,,,,,,,
2022-07-28T12:00:00,1954A,84.905,44.3396,克拉玛依市,独山子区,,33,33,33,10,19,162,98,81,69,10,11,16,10,0.6,0.6
2022-07-28T12:00:00,1955A,85.6979,46.098,克拉玛依市,乌尔禾区商贸楼,,31,31,22,9,7,118,90,92,66,6,5,12,12,0.2,0.2
2022-07-28T12:00:00,1956A,86.1472,41.7538,巴音郭楞州,孔雀公园,颗粒物(PM10),58,66,78,10,18,120,107,102,89,22,21,5,4,0.3,0.2
2022-07-28T12:00:00,1957A,86.1972,41.7166,巴音郭楞州,棉纺厂,颗粒物(PM10),69,88,96,16,27,130,110,92,92,10,18,4,4,0.2,0.2
2022-07-28T12:00:00,1958A,86.2357,41.7173,巴音郭楞州,经济开发区,,49,49,71,4,21,128,117,106,106,5,8,5,5,0.3,0.2
2022-07-28T12:00:00,1959A,118.746,36.881,寿光市,监测站,,,,,,,,,,,,,,,,
2022-07-28T12:00:00,1960A,118.780,36.864,寿光市,世纪学校,,,,,,,,,,,,,,,,
2022-07-28T12:00:00,1961A,117.532,36.6868,济南市,东山小学,,24,22,55,10,20,199,75,57,57,8,26,2,4,0.5,0.6
2022-07-28T12:00:00,1962A,117.541,36.710,章丘市,明水开发区,,,,,,,,,,,,,,,,
2022-07-28T12:00:00,1963A,120.610,36.440,即墨市,环保局子站,,,,,,,,,,,,,,,,
2022-07-28T12:00:00,1964A,120.470,36.390,即墨市,开发区子站,,,,,,,,,,,,,,,,
2022-07-28T12:00:00,1965A,120.005,35.878,胶南市,JN子站,,,,,,,,,,,,,,,,
2022-07-28T12:00:00,1966A,120.0405,35.8735,青岛市,黄岛区4号,,33,9,16,12,7,136,103,100,100,6,7,4,4,0.5,0.6
2022-07-28T12:00:00,1967A,120.008,36.283,胶州市,胶州环保局,,,,,,,,,,,,,,,,
2022-07-28T12:00:00,1968A,120.014,36.253,胶州市,胶州一中,,,,,,,,,,,,,,,,
2022-07-28T12:00:00,1969A,120.537,36.865,莱西市,环保局子站,,,,,,,,,,,,,,,,
2022-07-28T12:00:00,1970A,120.515,36.885,莱西市,人民广场子站,,,,,,,,,,,,,,,,
2022-07-28T12:00:00,1971A,119.952,36.792,平度市,1号,,,,,,,,,,,,,,,,
2022-07-28T12:00:00,1972A,119.976,36.799,平度市,2号,,,,,,,,,,,,,,,,
2022-07-28T12:00:00,1973A,120.747,37.825,蓬莱市,蓬莱环保局,,,,,,,,,,,,,,,,
2022-07-28T12:00:00,1974A,120.773,37.809,蓬莱市,蓬莱博物馆,,,,,,,,,,,,,,,,
2022-07-28T12:00:00,1975A,120.399,37.374,招远市,招远环保局,,,,,,,,,,,,,,,,
2022-07-28T12:00:00,1976A,120.394,37.364,招远市,招远教育局,,,,,,,,,,,,,,,,
2022-07-28T12:00:00,1977A,119.941,37.177,莱州市,莱州环保局,,,,,,,,,,,,,,,,
2022-07-28T12:00:00,1978A,119.959,37.180,莱州市,莱州外经委,,,,,,,,,,,,,,,,
2022-07-28T12:00:00,1979A,122.471,37.154,荣成市,荣成市环保局办公楼,,,,,,,,,,,,,,,,
2022-07-28T12:00:00,1980A,122.410,37.161,荣成市,山东成山轮胎公司,,,,,,,,,,,,,,,,
2022-07-28T12:00:00,1981A,122.038,37.197,文登市,文登市环保局,,,,,,,,,,,,,,,,
2022-07-28T12:00:00,1982A,122.0693,37.2174,威海市,文登开发区,,,22,13,9,6,96,96,86,78,10,10,4,4,,0
2022-07-28T12:00:00,1983A,121.531,36.913,乳山市,乳山市环保局,,,,,,,,,,,,,,,,
2022-07-28T12:00:00,1984A,121.544,36.907,乳山市,乳山市气象局,,,,,,,,,,,,,,,,
2022-07-28T12:00:00,1985A,120.636,31.155,吴江市,吴江市环保局,,,,,,,,,,,,,,,,
2022-07-28T12:00:00,1986A,120.635,31.170,吴江市,教师进修学校,,,,,,,,,,,,,,,,
2022-07-28T12:00:00,1987A,120.658,31.172,吴江市,吴江开发区,,,,,,,,,,,,,,,,
2022-07-28T12:00:00,1988A,120.953,31.388,昆山市,昆山实验小学,,,,,,,,,,,,,,,,
2022-07-28T12:00:00,1989A,120.999,31.381,昆山市,震川中学,,,,,,,,,,,,,,,,
2022-07-28T12:00:00,1990A,120.758,31.670,常熟市,海虞子站,,,,,,,,,,,,,,,,
2022-07-28T12:00:00,1991A,120.721,31.671,常熟市,兴福子站,,,,,,,,,,,,,,,,
2022-07-28T12:00:00,1992A,120.734,31.656,常熟市,菱塘子站,,,,,,,,,,,,,,,,
2022-07-28T12:00:00,1993A,120.526,31.874,张家港市,张家港市监测站,,,,,,,,,,,,,,,,
2022-07-28T12:00:00,1994A,120.550,31.882,张家港市,城北小学,,,,,,,,,,,,,,,,
2022-07-28T12:00:00,1995A,121.115,31.453,太仓市,太仓市监测站,,,,,,,,,,,,,,,,
2022-07-28T12:00:00,1996A,121.140,31.422,太仓市,科教新城实小,,,,,,,,,,,,,,,,
2022-07-28T12:00:00,1997A,119.146,31.955,句容市,消防指挥中心,,,,,,,,,,,,,,,,
2022-07-28T12:00:00,1998A,119.180,31.955,句容市,房家坝,,,,,,,,,,,,,,,,
2022-07-28T12:00:00,1999A,120.268,31.920,江阴市,虹桥邮政,,,,,,,,,,,,,,,,
2022-07-28T12:00:00,2000A,120.237,31.909,江阴市,五星公园,,,,,,,,,,,,,,,,
2022-07-28T12:00:00,2001A,120.302,31.920,江阴市,第二实验小学,,,,,,,,,,,,,,,,
2022-07-28T12:00:00,2002A,119.818,31.354,宜兴市,宜兴市环保局,,,,,,,,,,,,,,,,
2022-07-28T12:00:00,2003A,119.794,31.371,宜兴市,宜园,,,,,,,,,,,,,,,,
2022-07-28T12:00:00,2004A,119.579,31.751,金坛市,金坛市环境监测站,,,,,,,,,,,,,,,,
2022-07-28T12:00:00,2005A,119.579,31.737,金坛市,金坛市自来水公司,,,,,,,,,,,,,,,,
2022-07-28T12:00:00,2006A,119.460,31.400,溧阳市,溧阳市东门子站,,,,,,,,,,,,,,,,
2022-07-28T12:00:00,2007A,119.438,31.317,溧阳市,燕山子站,,,,,,,,,,,,,,,,
2022-07-28T12:00:00,2008A,121.173,31.896,海门市,海门市监测站,,,,,,,,,,,,,,,,
2022-07-28T12:00:00,2009A,121.1518,31.89708,海门市,社会福利院,,,,,,,,,,,,,,,,
2022-07-28T12:00:00,2010A,119.7183,30.2366,临安市,市政府,,,,,,,,,,,,,,,,
2022-07-28T12:00:00,2011A,119.6942,30.2311,临安市,四中,,,,,,,,,,,,,,,,
2022-07-28T12:00:00,2012A,119.954,30.054,富阳市,监测站,,,,,,,,,,,,,,,,
2022-07-28T12:00:00,2013A,119.946,30.049,富阳市,富春二小,,,,,,,,,,,,,,,,
2022-07-28T12:00:00,2014A,120.091,29.305,义乌市,江东,,,,,,,,,,,,,,,,
2022-07-28T12:00:00,2015A,120.040,29.334,义乌市,北苑,,,,,,,,,,,,,,,,
2022-07-28T12:00:00,2016A,120.251,29.719,诸暨市,图书馆,,,,,,,,,,,,,,,,
2022-07-28T12:00:00,2017A,120.209,29.732,诸暨市,富林印务,,,,,,,,,,,,,,,,
2022-07-28T12:00:00,2018A,121.989,39.625,瓦房店市,抱龙山庄,,,,,,,,,,,,,,,,
2022-07-28T12:00:00,2019A,122.011,39.617,瓦房店市,东山公园,,,,,,,,,,,,,,,,
2022-07-28T12:00:00,2031A,113.1817,27.9958,株洲市,云田中学,细颗粒物(PM2.5),54,48,37,38,22,154,154,70,70,8,12,10,8,0.7,0.5
2022-07-28T12:00:00,2054A,114.1099,32.1059,信阳市,平桥分局,,25,12,24,8,15,119,78,72,72,5,10,6,6,0.6,0.6
2022-07-28T12:00:00,2064A,113.9956,32.1271,信阳市,南湾水厂,,24,11,21,5,11,134,76,71,71,4,5,5,5,0.4,0.5
2022-07-28T12:00:00,2065A,114.0775,32.1195,信阳市,市酿酒公司,,25,5,17,4,10,131,78,69,69,5,8,7,8,0.5,0.5
2022-07-28T12:00:00,2066A,114.0609,32.1399,信阳市,审计局,,26,8,20,5,10,127,83,73,73,6,10,7,7,0.6,0.6
2022-07-28T12:00:00,2067A,114.6613,33.6128,周口市,市环境监测站,,26,15,19,7,8,139,82,94,73,9,8,4,5,0.3,0.3
2022-07-28T12:00:00,2068A,114.6758,33.6347,周口市,周口师范,,,17,18,4,7,140,82,98,73,6,5,,2,,0.4
2022-07-28T12:00:00,2069A,114.6546,33.5979,周口市,市运管处,,24,11,14,4,8,135,75,91,66,11,8,2,3,0.6,0.5
2022-07-28T12:00:00,2070A,114.6369,33.6406,周口市,川汇区环保局,,26,13,17,8,10,144,81,98,75,7,5,6,4,0.6,0.4
2022-07-28T12:00:00,2075A,117.6336,24.4674,漳州市,九湖(对照点),,,,,,,,,,,,,,,,
2022-07-28T12:00:00,2160A,112.85,35.5051,晋城市,自来水公司,,,29,34,27,16,131,120,76,76,,16,6,4,1.0,0.7
2022-07-28T12:00:00,2161A,112.8318,35.4936,晋城市,白云商贸,,42,29,26,9,12,139,134,80,80,8,15,6,4,1.2,0.9
2022-07-28T12:00:00,2162A,112.8508,35.4887,晋城市,市环保局,,41,20,21,22,20,136,129,80,80,10,17,5,3,1.1,0.8
2022-07-28T12:00:00,2163A,112.8676,35.4897,晋城市,技术学院,,39,20,19,14,11,125,122,80,80,10,15,4,3,0.9,0.6
2022-07-28T12:00:00,2164A,112.8271,35.4828,晋城市,泽州一中,,,,,,,,,,,,,,,,
2022-07-28T12:00:00,2165A,112.8453,35.546,晋城市,白马寺 (对照点),,,,,,,,,,,,,,,,
2022-07-28T12:00:00,2166A,112.4397,39.3522,朔州市,平朔,,44,44,36,15,12,129,129,96,58,14,24,11,8,0.6,0.5
2022-07-28T12:00:00,2167A,112.4575,39.3617,朔州市,朔唯,颗粒物(PM10),51,51,42,18,13,125,125,97,60,15,28,11,8,0.6,0.5
2022-07-28T12:00:00,2168A,112.4258,39.3197,朔州市,区政府,颗粒物(PM10),51,52,39,18,12,128,128,98,70,21,24,13,10,0.3,0.3
2022-07-28T12:00:00,2169A,112.4072,39.3278,朔州市,市环保局,颗粒物(PM10),59,68,41,22,11,130,118,96,56,25,26,11,7,0.6,0.4
2022-07-28T12:00:00,2170A,112.4272,39.3681,朔州市,市二中,,50,50,41,17,12,126,126,89,56,16,26,9,5,0.6,0.6
2022-07-28T12:00:00,2171A,112.7532,37.6945,晋中市,锦纶小区,细颗粒物(PM2.5),60,68,45,43,25,111,111,50,50,17,26,12,8,0.8,0.6
2022-07-28T12:00:00,2173A,112.7249,37.7067,晋中市,南都小区,细颗粒物(PM2.5),58,64,40,41,24,110,110,49,49,22,25,10,7,0.7,0.5
2022-07-28T12:00:00,2174A,112.6991,37.6982,晋中市,榆次区政府,,46,42,42,32,28,101,99,46,46,20,21,9,6,0.7,0.7
2022-07-28T12:00:00,2175A,110.9956,35.0147,运城市,运城中学,,,44,27,29,22,130,130,69,61,8,11,,7,1.3,0.9
2022-07-28T12:00:00,2176A,111.0233,35.0611,运城市,禹都开发区,,,,,,,,,,,,,,,,
2022-07-28T12:00:00,2178A,110.9686,35.0303,运城市,地区技校,,42,39,31,27,15,133,133,56,56,7,16,13,8,1.2,0.7
2022-07-28T12:00:00,2179A,111.0414,35.1147,运城市,空港新区,,43,33,29,30,16,137,137,64,64,6,13,17,10,0.9,0.6
2022-07-28T12:00:00,2181A,112.7383,38.4519,忻州市,开发区,,,54,34,48,30,127,,46,27,16,19,11,9,0.8,0.7
2022-07-28T12:00:00,2182A,112.7003,38.4928,忻州市,会展中心,,48,48,28,9,14,108,97,52,52,10,18,9,7,0.5,0.5
2022-07-28T12:00:00,2183A,111.1406,37.5211,吕梁市,环保局,,41,41,27,8,8,109,95,36,36,23,29,3,3,0.4,0.3
2022-07-28T12:00:00,2185A,111.1297,37.5136,吕梁市,自来水公司,,40,40,28,8,26,107,102,36,36,13,24,1,2,0.3,0.3
2022-07-28T12:00:00,2186A,106.8288,39.6778,乌海市,聚英学校,,,,,,,,,,,,,,,,
2022-07-28T12:00:00,2187A,106.8174,39.6973,乌海市,市林业局,颗粒物(PM10),65,80,57,26,19,184,129,102,81,26,22,38,26,0.6,0.6
2022-07-28T12:00:00,2188A,106.7907,39.6667,乌海市,中海勃湾学校,颗粒物(PM10),56,62,49,15,19,192,141,80,78,18,28,27,23,0.4,0.6
2022-07-28T12:00:00,2191A,122.2532,43.6801,通辽市,艺术职业学校,,19,18,39,7,18,119,59,93,67,12,12,4,5,0.2,0.3
2022-07-28T12:00:00,2192A,119.7594,49.2261,呼伦贝尔市,区环保局,,34,22,23,12,16,114,106,99,73,6,10,5,4,0.3,0.3
2022-07-28T12:00:00,2194A,107.5936,40.916,巴彦淖尔市,秋林养殖基地(对照点),,,,,,,,,,,,,,,,
2022-07-28T12:00:00,2195A,107.4212,40.761,巴彦淖尔市,附二中,,41,41,76,15,22,129,129,106,82,11,10,13,10,0.6,0.5
2022-07-28T12:00:00,2196A,107.37,40.7372,巴彦淖尔市,市环保大楼,颗粒物(PM10),58,66,94,16,25,132,132,112,89,13,10,12,4,0.7,0.5
2022-07-28T12:00:00,2197A,113.1306,40.9923,乌兰察布市,集宁新区,,,29,44,16,27,133,133,101,71,10,18,6,11,,0.4
2022-07-28T12:00:00,2200A,122.0392,46.0656,兴安盟,胜华新制药厂,,,22,27,12,15,105,,66,49,,13,5,3,1.0,0.3
2022-07-28T12:00:00,2201A,121.9504,46.0741,兴安盟,科右前旗环保局,,23,23,21,16,17,114,72,62,56,24,14,5,3,2.1,0.4
2022-07-28T12:00:00,2202A,116.1042,43.9317,锡林郭勒盟,市环保监测站,,40,18,18,2,5,126,126,115,101,4,8,11,11,0.2,0.2
2022-07-28T12:00:00,2203A,116.0781,43.9311,锡林郭勒盟,市政府,,41,16,15,2,5,132,131,118,104,4,7,14,9,0.3,0.2
2022-07-28T12:00:00,2204A,105.6467,38.8363,阿拉善盟,西城区西花园(对照点),,44,22,24,15,10,140,140,125,125,5,8,4,4,0.3,0.3
2022-07-28T12:00:00,2205A,105.6985,38.8411,阿拉善盟,蒙二幼,,45,37,27,16,16,141,141,126,126,5,7,8,8,0.4,0.2
2022-07-28T12:00:00,2206A,105.724,38.8516,阿拉善盟,环保局新楼,,44,25,21,18,14,140,140,131,131,8,7,8,7,0.4,0.3
2022-07-28T12:00:00,2207A,121.6094,41.998,阜新市,工业园区,,21,21,38,10,18,115,61,69,66,11,15,3,10,0.5,0.6
2022-07-28T12:00:00,2208A,121.6697,42.0279,阜新市,长青街,,28,22,33,19,20,125,53,95,65,16,11,6,8,0.4,0.5
2022-07-28T12:00:00,2209A,121.6673,42.0705,阜新市,农业园区,,24,24,32,10,15,111,47,67,63,9,8,6,9,0.6,0.7
2022-07-28T12:00:00,2210A,121.6717,42.0224,阜新市,东苑,颗粒物(PM10),51,51,45,19,19,121,46,76,68,17,12,9,10,0.5,0.6
2022-07-28T12:00:00,2211A,121.6506,42.0498,阜新市,玉龙新城,,22,22,31,10,15,118,62,61,60,11,15,5,6,0.5,0.6
2022-07-28T12:00:00,2212A,123.2,41.1953,辽阳市,宏伟区,,,49,26,18,14,122,86,82,71,7,6,6,5,,0.4
2022-07-28T12:00:00,2213A,123.1683,41.2495,辽阳市,新华园,,40,40,34,22,18,125,94,83,70,12,13,5,6,0.5,0.6
2022-07-28T12:00:00,2214A,123.2354,41.2639,辽阳市,滨河路,,34,34,39,21,26,122,84,67,57,10,14,7,9,0.5,0.6
2022-07-28T12:00:00,2215A,123.149,41.2991,辽阳市,铁西工业园,,39,39,38,24,25,142,88,69,63,17,17,4,4,0.6,0.7
2022-07-28T12:00:00,2216A,123.8139,42.3022,铁岭市,汇工街西,,49,49,52,22,25,182,107,70,70,7,14,6,7,0.5,0.6
2022-07-28T12:00:00,2217A,123.8649,42.2923,铁岭市,水上乐园,,39,39,44,18,24,171,94,61,61,12,21,5,5,0.4,0.5
2022-07-28T12:00:00,2218A,123.8486,42.2867,铁岭市,银州路东段,,29,29,37,19,23,145,86,52,52,10,19,5,4,0.5,0.5
2022-07-28T12:00:00,2219A,123.7153,42.2217,铁岭市,金沙江路北,,45,45,45,21,24,179,107,68,68,15,24,5,5,0.7,0.8
2022-07-28T12:00:00,2220A,120.4318,41.5881,朝阳市,西梁,,23,13,32,10,14,114,71,95,51,8,11,5,7,0.7,0.7
2022-07-28T12:00:00,2221A,120.4521,41.5646,朝阳市,河畔小区,,31,31,39,8,14,120,78,100,60,10,8,6,7,0.5,0.5
2022-07-28T12:00:00,2222A,120.4176,41.5648,朝阳市,八里堡,,25,23,35,13,16,116,77,84,61,12,12,5,5,0.7,0.7
2022-07-28T12:00:00,2223A,120.3806,41.5969,朝阳市,农业园区,,26,26,29,10,15,111,62,50,50,8,13,6,6,0.5,0.5
2022-07-28T12:00:00,2225A,124.4002,43.1713,四平市,一商场,,39,39,43,23,26,140,106,68,68,6,16,1,4,0.4,0.6
2022-07-28T12:00:00,2226A,124.388,43.193,四平市,境园,,40,35,39,28,26,130,98,62,62,4,14,6,8,0.6,0.7
2022-07-28T12:00:00,2227A,125.1358,42.8845,辽源市,环保局,,33,33,26,19,17,100,86,54,48,5,14,7,9,0.5,0.6
2022-07-28T12:00:00,2229A,125.9358,41.7173,通化市,光明,,36,36,28,12,12,95,72,32,32,5,14,8,10,0.5,0.6
2022-07-28T12:00:00,2230A,125.9446,41.7325,通化市,铁路,,27,26,28,7,12,106,84,39,39,8,18,7,11,0.6,0.6
2022-07-28T12:00:00,2231A,126.4219,41.9171,白山市,喜丰,,37,37,40,7,12,116,81,34,34,4,15,7,13,0.7,0.8
2022-07-28T12:00:00,2232A,126.4077,41.9419,白山市,环保局,,,36,34,12,11,122,94,33,33,8,14,,16,,0.5
2022-07-28T12:00:00,2233A,124.8006,45.1214,松原市,江南,,33,6,23,10,23,144,104,82,82,6,15,4,5,0.5,0.6
2022-07-28T12:00:00,2234A,124.7965,45.1722,松原市,江北,,,21,33,2,17,152,,73,71,7,11,1,2,0.6,0.6
2022-07-28T12:00:00,2235A,122.7911,45.6077,白城市,洮北区环保局,,30,29,39,15,18,129,94,80,78,8,8,2,4,0.3,0.3
2022-07-28T12:00:00,2236A,122.8738,45.5725,白城市,市环保局,,30,25,44,12,17,120,94,86,82,7,10,4,5,0.3,0.3
2022-07-28T12:00:00,2237A,129.47,42.8883,延边朝鲜族自治州,妇幼医院,,30,30,27,16,11,92,78,45,45,3,12,8,10,0.4,0.4
2022-07-28T12:00:00,2238A,129.5055,42.9108,延边朝鲜族自治州,延边医院,,,,,,,,,,,,,,,,
2022-07-28T12:00:00,2239A,129.3964,42.8881,延边朝鲜族自治州,朝阳川镇医院,,28,28,28,12,10,92,74,44,44,3,13,7,9,0.4,0.4
2022-07-28T12:00:00,2240A,130.9762,45.3001,鸡西市,环保局,,37,37,37,19,18,113,76,34,34,15,19,3,4,0.2,0.2
2022-07-28T12:00:00,2243A,130.9429,45.3039,鸡西市,第一中学,,38,38,45,11,15,125,74,38,38,4,16,4,4,0.3,0.4
2022-07-28T12:00:00,2244A,130.2537,47.3416,鹤岗市,哈啤分公司,,35,22,19,4,8,126,109,68,68,9,13,6,6,0.3,0.3
2022-07-28T12:00:00,2245A,130.2684,47.3086,鹤岗市,斯达机电,,31,16,26,4,8,134,97,64,64,4,10,7,7,0.4,0.3
2022-07-28T12:00:00,2246A,130.3114,47.3388,鹤岗市,东山纸板厂,,28,19,33,18,17,111,88,52,52,7,15,7,7,0.3,0.4
2022-07-28T12:00:00,2247A,130.1097,47.3382,鹤岗市,五号水库(对照点),,31,23,10,6,6,107,98,56,56,13,13,7,4,0.1,0.1
2022-07-28T12:00:00,2248A,131.1511,46.6937,双鸭山市,双合村,,28,22,29,6,14,136,89,58,58,6,18,5,7,0.3,0.8
2022-07-28T12:00:00,2249A,131.1652,46.6191,双鸭山市,南小市,,,,30,17,12,137,86,47,47,,19,,4,0.2,0.2
2022-07-28T12:00:00,2250A,131.1524,46.6554,双鸭山市,环保局,,26,9,21,6,9,141,81,56,56,5,13,4,4,0.0,0.4
2022-07-28T12:00:00,2251A,131.12,46.5656,双鸭山市,苗圃(对照点),,32,13,24,6,14,142,100,55,55,4,5,2,3,0.5,0.5
2022-07-28T12:00:00,2252A,128.5159,47.4311,伊春市,环保局,,,35,29,30,24,104,100,31,31,10,17,,5,0.1,0.5
2022-07-28T12:00:00,2253A,128.9102,47.7412,伊春市,电力嘉园,,30,10,16,4,9,112,94,26,26,6,10,10,7,0.6,0.7
2022-07-28T12:00:00,2254A,129.5029,48.471,伊春市,汤旺河国家公园(对照点),,24,24,22,12,17,104,53,28,28,2,2,5,6,0.3,0.4
2022-07-28T12:00:00,2255A,130.2751,46.8028,佳木斯市,佳纺,,28,27,43,19,22,172,82,60,60,4,26,5,9,0.5,0.5
2022-07-28T12:00:00,2256A,130.3995,46.8307,佳木斯市,发电厂,,45,45,47,17,21,154,90,45,45,6,23,5,3,0.4,0.4
2022-07-28T12:00:00,2257A,130.3258,46.7975,佳木斯市,环保局,颗粒物(PM10),51,52,51,24,25,158,76,31,31,7,29,2,2,0.5,0.6
2022-07-28T12:00:00,2258A,130.3648,46.8032,佳木斯市,十一中,,,43,51,24,25,149,90,35,35,,32,5,5,0.4,0.5
2022-07-28T12:00:00,2259A,130.3794,46.7588,佳木斯市,四丰(对照点),,30,30,32,21,20,148,76,66,48,6,18,1,1,0.4,0.4
2022-07-28T12:00:00,2262A,131.0518,45.8751,七台河市,新一中(对照点),,,15,18,13,12,130,,49,49,6,19,5,7,0.7,0.7
2022-07-28T12:00:00,2263A,127.4833,50.2524,黑河市,交通局,,,,35,,9,84,60,55,50,14,15,4,5,0.7,0.7
2022-07-28T12:00:00,2264A,127.5144,50.2341,黑河市,环保局,,29,29,18,8,10,102,66,60,52,8,8,5,5,0.6,0.5
2022-07-28T12:00:00,2265A,127.5291,50.2472,黑河市,大黑河岛(对照点),,25,2,2,12,9,105,78,61,51,4,5,8,9,1.2,0.7
2022-07-28T12:00:00,2266A,126.9785,46.6365,绥化市,人和东街,,49,49,40,18,22,212,120,80,80,6,12,6,6,0.3,0.4
2022-07-28T12:00:00,2267A,126.964,46.6528,绥化市,党政办公中心,,39,33,36,18,22,213,124,86,86,7,12,8,8,0.4,0.4
2022-07-28T12:00:00,2269A,124.1069,50.4097,大兴安岭地区,科技局,,,7,9,2,9,90,70,72,54,4,7,,4,0.3,0.3
2022-07-28T12:00:00,2270A,117.396,32.939,蚌埠市,工人疗养院,臭氧1小时,67,43,34,38,21,173,173,83,83,12,24,12,10,0.5,0.4
2022-07-28T12:00:00,2271A,117.3605,32.9427,蚌埠市,百货大楼,臭氧1小时,69,32,32,31,19,175,175,80,80,13,34,12,11,0.6,0.5
2022-07-28T12:00:00,2273A,117.4185,32.8911,蚌埠市,蚌埠学院,颗粒物(PM10),53,56,30,29,18,156,156,81,81,14,13,15,11,0.6,0.4
2022-07-28T12:00:00,2274A,117.3533,32.9673,蚌埠市,淮上区政府,,,,34,,16,155,155,87,87,7,12,11,9,0.5,0.3
2022-07-28T12:00:00,2275A,117.3145,32.8977,蚌埠市,高新区,臭氧1小时,68,48,31,36,23,174,174,101,101,14,13,10,7,0.8,0.5
2022-07-28T12:00:00,2277A,116.8305,32.7727,淮南市,潘集区政府,,34,34,30,21,17,159,67,62,62,11,11,6,8,0.2,0.2
2022-07-28T12:00:00,2278A,117.0067,32.6524,淮南市,师范学院,颗粒物(PM10),53,56,39,31,20,159,129,76,74,7,6,11,8,0.3,0.3
2022-07-28T12:00:00,2279A,116.8569,32.5951,淮南市,谢家集区政府,,,,27,,15,159,104,80,72,14,13,10,15,0.4,0.3
2022-07-28T12:00:00,2280A,116.8281,32.633,淮南市,八公山区政府,,40,40,28,26,18,181,84,66,64,10,13,1,6,0.3,0.4
2022-07-28T12:00:00,2281A,116.6325,32.6201,淮南市,焦岗湖风景区管理处(对照点),,,26,30,2,10,163,72,54,54,10,19,10,9,,0.3
2022-07-28T12:00:00,2282A,116.8004,33.975,淮北市,监测站,,29,29,37,11,21,169,65,81,65,11,12,7,5,0.8,0.6
2022-07-28T12:00:00,2283A,116.8091,33.9007,淮北市,烈山区政府,,33,9,32,23,27,184,71,80,80,7,14,7,6,0.8,0.6
2022-07-28T12:00:00,2284A,116.7856,33.9477,淮北市,职业技术学院,,24,24,35,8,20,170,62,76,63,7,10,7,5,0.8,0.6
2022-07-28T12:00:00,2285A,117.8177,30.9412,铜陵市,市第四中学,颗粒物(PM10),65,79,62,33,33,207,139,119,64,13,27,3,4,0.7,0.7
2022-07-28T12:00:00,2286A,117.8059,30.9273,铜陵市,市公路局,,,66,65,21,34,183,124,107,59,12,28,,3,1.0,0.8
2022-07-28T12:00:00,2287A,117.7807,30.9413,铜陵市,市新民污水厂,颗粒物(PM10),51,51,56,28,28,192,130,50,50,16,32,8,9,0.7,0.6
2022-07-28T12:00:00,2288A,117.7439,30.8792,铜陵市,市第九中学,"颗粒物(PM10),细颗粒物(PM2.5)",54,57,69,38,31,197,162,58,58,17,52,8,9,1.1,1
2022-07-28T12:00:00,2289A,117.846,30.9413,铜陵市,车站新区,,,66,62,36,34,173,,72,35,,28,11,9,1.1,0.8
2022-07-28T12:00:00,2290A,117.8483,30.97,铜陵市,市职教基地,颗粒物(PM10),63,76,58,40,28,191,122,68,68,13,14,4,5,1.0,1.1
2022-07-28T12:00:00,2291A,117.0809,30.5177,安庆市,环科院,颗粒物(PM10),53,56,43,36,26,221,159,108,67,14,25,4,5,0.7,0.7
2022-07-28T12:00:00,2292A,117.0331,30.5119,安庆市,马山宾馆,臭氧1小时,53,45,39,35,27,167,162,77,77,10,20,6,5,0.8,0.8
2022-07-28T12:00:00,2294A,116.9896,30.6145,安庆市,安庆大学,细颗粒物(PM2.5),54,49,34,38,21,173,156,80,80,8,17,5,5,0.6,0.5
2022-07-28T12:00:00,2295A,118.2903,29.6963,黄山市,延安路89号,,46,39,36,28,18,145,145,56,56,4,5,6,6,0.3,0.3
2022-07-28T12:00:00,2296A,118.327,29.7178,黄山市,黄山东路89号,,40,29,28,18,15,133,126,53,53,3,6,5,5,0.5,0.5
2022-07-28T12:00:00,2297A,118.1371,30.2756,黄山市,黄山区政府5号楼,,33,32,30,15,11,110,103,40,40,3,4,6,6,0.4,0.4
2022-07-28T12:00:00,2298A,118.3093,32.3153,滁州市,老年大学,臭氧1小时,101,53,33,27,19,206,201,116,116,12,17,8,5,0.4,0.2
2022-07-28T12:00:00,2299A,118.3244,32.2786,滁州市,人大宾馆,臭氧1小时,83,46,28,22,16,186,186,103,103,13,19,7,6,0.5,0.4
2022-07-28T12:00:00,2301A,115.8277,32.8929,阜阳市,市监测站,,,10,18,3,9,154,,92,72,6,8,7,8,0.3,0.5
2022-07-28T12:00:00,2303A,115.8554,32.8605,阜阳市,开发区,,23,5,18,7,10,157,71,74,67,11,13,8,8,0.3,0.4
2022-07-28T12:00:00,2306A,116.989,33.6306,宿州市,火车站,,,,,,,,,,,,,,,,
2022-07-28T12:00:00,2307A,116.5079,31.737,六安市,监测大楼,,43,43,27,16,13,142,102,83,57,3,10,8,7,0.6,0.5
2022-07-28T12:00:00,2308A,116.4738,31.7643,六安市,皖西学院,,33,33,24,17,12,165,95,89,60,2,7,13,12,0.3,0.3
2022-07-28T12:00:00,2309A,116.4996,31.7905,六安市,朝阳厂,,35,35,26,20,15,131,83,72,42,1,11,10,10,0.4,0.5
2022-07-28T12:00:00,2310A,116.5567,31.7886,六安市,开发区,,44,44,22,22,13,136,99,58,53,2,8,8,8,0.4,0.3
2022-07-28T12:00:00,2311A,115.8072,33.8399,亳州市,污水处理厂,,20,10,14,1,8,124,62,100,56,12,8,6,6,0.4,0.4
2022-07-28T12:00:00,2312A,115.7789,33.8518,亳州市,三国揽胜宫,,20,14,20,0,8,121,64,104,61,7,5,6,6,0.4,0.4
2022-07-28T12:00:00,2314A,117.47,30.6618,池州市,池州学院,,,59,54,36,34,217,141,89,76,,12,6,7,0.5,0.8
2022-07-28T12:00:00,2315A,117.4974,30.6539,池州市,平天湖(对照点),,,,,,,,,,,,,,,,
2022-07-28T12:00:00,2316A,118.7581,30.9454,宣城市,鳌峰子站,,43,43,31,28,19,145,106,83,83,10,13,4,6,0.4,0.4
2022-07-28T12:00:00,2317A,118.7385,30.9743,宣城市,敬亭山子站,,46,40,31,24,18,149,145,71,71,14,16,8,10,0.3,0.3
2022-07-28T12:00:00,2318A,118.7173,30.9427,宣城市,开发区子站,,48,41,30,33,20,140,109,73,72,8,13,5,9,0.4,0.3
2022-07-28T12:00:00,2319A,119.0141,25.4325,莆田市,荔城区仓后路,颗粒物(PM10),56,62,55,32,35,167,132,61,61,12,21,4,5,0.6,0.7
2022-07-28T12:00:00,2320A,119.0015,25.4553,莆田市,莆田市监测站,,47,46,48,32,32,180,148,64,64,8,15,6,7,0.7,0.8
2022-07-28T12:00:00,2321A,119.1119,25.4561,莆田市,涵江区六中,,48,48,42,30,22,151,132,61,61,9,18,6,7,0.6,0.6
2022-07-28T12:00:00,2322A,119.1013,25.3215,莆田市,秀屿区政府,,50,50,29,25,16,122,122,67,67,2,7,5,5,0.7,0.6
2022-07-28T12:00:00,2323A,118.981,25.4792,莆田市,东圳水库(对照点),,,,,,,,,,,,,,,,
2022-07-28T12:00:00,2324A,117.6211,26.2625,三明市,三钢,颗粒物(PM10),52,53,58,34,32,152,146,74,74,12,21,11,8,1.1,0.9
2022-07-28T12:00:00,2325A,117.635,26.2714,三明市,三明二中,颗粒物(PM10),64,78,56,41,35,161,146,62,62,14,32,9,15,0.8,1.6
2022-07-28T12:00:00,2326A,117.6028,26.2378,三明市,三元区政府,颗粒物(PM10),54,58,52,33,30,154,154,68,68,12,22,7,7,0.7,0.8
2022-07-28T12:00:00,2327A,117.7275,26.3108,三明市,洋溪(对照点),,,,,,,,,,,,,,,,
2022-07-28T12:00:00,2331A,118.0966,26.6761,南平市,茫荡山(对照点),,,,,,,,,,,,,,,,
2022-07-28T12:00:00,2332A,118.1681,26.6369,南平市,南平市监测站,,45,36,36,31,25,144,137,79,79,6,7,6,7,0.4,0.3
2022-07-28T12:00:00,2333A,118.1825,26.6489,南平市,南平铝业有限公司,,42,42,39,27,26,134,133,82,82,4,8,4,5,0.5,0.5
2022-07-28T12:00:00,2334A,118.1756,26.6272,南平市,南平七中,,42,42,36,26,28,137,129,83,80,4,6,5,6,0.5,0.4
2022-07-28T12:00:00,2335A,117.0189,25.1181,龙岩市,龙岩师专(对照点),,,,,,,,,,,,,,,,
2022-07-28T12:00:00,2336A,117.0217,25.1033,龙岩市,龙岩市监测站,颗粒物(PM10),57,64,45,29,22,150,150,53,53,15,23,6,6,0.7,0.6
2022-07-28T12:00:00,2337A,117.0258,25.0661,龙岩市,闽西职业技术学院,颗粒物(PM10),59,68,55,23,22,141,141,46,46,13,26,7,12,0.6,0.6
2022-07-28T12:00:00,2338A,117.0196,25.0306,龙岩市,龙岩学院,颗粒物(PM10),58,65,43,27,19,140,140,39,39,11,25,5,5,0.5,0.5
2022-07-28T12:00:00,2339A,119.5001,26.6946,宁德市,金涵水库(对照点),颗粒物(PM10),57,64,42,26,22,190,114,68,68,7,14,4,5,0.4,0.6
2022-07-28T12:00:00,2341A,119.5388,26.6612,宁德市,宁德市监测站,颗粒物(PM10),53,55,42,33,24,169,104,73,70,6,11,5,7,0.6,0.7
2022-07-28T12:00:00,2342A,117.3102,29.3867,景德镇市,王港中学(对照点),,50,43,56,22,37,170,160,112,112,4,6,6,5,0.4,0.5
2022-07-28T12:00:00,2343A,117.2117,29.2933,景德镇市,老干部活动中心,细颗粒物(PM2.5),57,60,72,40,40,189,142,68,68,8,14,13,8,0.6,0.5
2022-07-28T12:00:00,2344A,117.1894,29.2789,景德镇市,兽医站,,,55,56,28,35,177,,60,60,,12,16,7,,0.6
2022-07-28T12:00:00,2345A,117.1547,29.2617,景德镇市,台达陶瓷,,,,,,,,,,,,,,,,
2022-07-28T12:00:00,2346A,117.2461,29.2956,景德镇市,陶研所,细颗粒物(PM2.5),53,43,53,37,36,160,130,63,63,2,9,16,8,0.5,0.5
2022-07-28T12:00:00,2347A,114.0997,27.5002,萍乡市,武功山(对照点),,13,7,11,6,11,48,41,26,26,5,6,22,19,0.2,0.3
2022-07-28T12:00:00,2348A,113.8385,27.6434,萍乡市,中医院,,33,24,27,23,20,103,100,54,54,8,16,9,10,0.4,0.5
2022-07-28T12:00:00,2349A,113.8493,27.6253,萍乡市,市政府车库,,32,27,30,14,21,108,101,61,61,8,15,9,9,0.4,0.4
2022-07-28T12:00:00,2350A,113.8676,27.6435,萍乡市,市环保局,,,28,32,,24,107,104,56,56,6,18,7,12,0.3,0.5
2022-07-28T12:00:00,2351A,113.866,27.6198,萍乡市,安源区政府,,31,24,32,16,24,104,98,50,50,4,15,9,9,0.2,0.3
2022-07-28T12:00:00,2352A,115.0861,27.9317,新余市,北岗(对照点),细颗粒物(PM2.5),53,50,44,37,31,185,108,45,45,4,10,12,9,1.2,1.1
2022-07-28T12:00:00,2353A,114.9886,27.8431,新余市,飞宇,颗粒物(PM10),58,66,55,36,30,132,106,52,52,6,18,8,11,0.6,1
2022-07-28T12:00:00,2354A,114.9231,27.8246,新余市,第二水厂,细颗粒物(PM2.5),57,55,56,40,28,143,115,61,61,10,20,6,8,1.3,1.4
2022-07-28T12:00:00,2355A,114.9308,27.8036,新余市,市气象局,颗粒物(PM10),53,56,59,33,32,132,117,59,59,6,18,10,17,0.8,1
2022-07-28T12:00:00,2357A,116.9822,28.1136,鹰潭市,龙虎山(对照点),,37,35,41,19,22,144,116,60,60,4,6,2,2,0.5,0.4
2022-07-28T12:00:00,2358A,117.0564,28.2642,鹰潭市,新监测站,细颗粒物(PM2.5),53,49,55,37,29,209,138,98,98,1,4,6,11,0.5,0.5
2022-07-28T12:00:00,2359A,117.0311,28.2475,鹰潭市,财苑宾馆,颗粒物(PM10),69,88,53,33,27,139,131,80,80,4,7,2,5,0.5,0.5
2022-07-28T12:00:00,2360A,117.0222,28.2264,鹰潭市,体育馆,,43,43,49,28,27,140,124,70,70,2,5,2,2,0.5,0.3
2022-07-28T12:00:00,2361A,117.0017,28.2131,鹰潭市,三川水表,,,52,54,,25,133,118,53,53,2,3,,2,0.5,0.6
2022-07-28T12:00:00,2362A,114.9017,25.9149,赣州市,通天岩(对照点),"颗粒物(PM10),细颗粒物(PM2.5)",55,60,57,39,39,175,150,98,98,6,15,5,8,0.5,0.5
2022-07-28T12:00:00,2363A,114.9367,25.8664,赣州市,地委,颗粒物(PM10),60,70,55,40,35,184,161,119,99,11,14,11,12,1.0,1
2022-07-28T12:00:00,2364A,114.9461,25.8481,赣州市,气象台,,,51,49,40,37,195,,127,123,,10,7,9,0.8,0.8
2022-07-28T12:00:00,2365A,114.9322,25.8333,赣州市,市图书馆,臭氧1小时,63,53,50,39,35,199,170,138,138,12,15,5,7,0.9,1
2022-07-28T12:00:00,2366A,114.8905,25.8471,赣州市,华坚鞋城,臭氧1小时,63,71,61,41,38,185,170,116,116,14,16,5,10,0.8,0.8
2022-07-28T12:00:00,2367A,114.9754,27.0803,吉安市,红声器材厂,,,60,56,39,34,171,171,98,98,,10,7,6,0.5,0.5
2022-07-28T12:00:00,2368A,114.9658,27.0999,吉安市,市森林工业局,细颗粒物(PM2.5),67,59,58,48,42,164,148,102,102,8,11,7,10,0.5,0.5
2022-07-28T12:00:00,2369A,114.99,27.1312,吉安市,市环境监测站,颗粒物(PM10),56,62,53,38,34,170,150,103,103,8,10,6,12,0.8,0.6
2022-07-28T12:00:00,2370A,115.0093,27.0968,吉安市,青原区法院,细颗粒物(PM2.5),62,62,52,44,34,177,160,105,105,7,8,10,14,0.5,0.5
2022-07-28T12:00:00,2371A,114.3408,27.8064,宜春市,槟榔水业(对照点),,,,,,,,,,,,,,,,
2022-07-28T12:00:00,2373A,114.3956,27.7844,宜春市,市石油公司,颗粒物(PM10),56,62,50,32,28,148,100,56,56,12,16,9,9,0.6,1
2022-07-28T12:00:00,2374A,114.3703,27.7914,宜春市,市气象局,颗粒物(PM10),54,58,47,31,27,156,104,62,62,9,13,7,8,0.7,0.8
2022-07-28T12:00:00,2375A,114.4013,27.8074,宜春市,市广电局,颗粒物(PM10),56,62,48,28,30,162,115,68,68,7,12,3,12,1.2,0.9
2022-07-28T12:00:00,2376A,116.2127,28.0814,抚州市,桐源党溪(对照点),,,25,46,15,33,111,,25,25,2,9,5,2,1.1,1
