timepoint,stationcode,longitude,latitude,area,positionname,primarypollutant,aqi,pm10,pm10_24h,pm2_5,pm2_5_24h,o3,o3_24h,o3_8h,o3_8h_24h,no2,no2_24h,so2,so2_24h,co,co_24h
2022-07-28T01:00:00,1001A,116.3621,39.8784,北京市,万寿西宫,,24,1,28,6,18,108,74,74,74,8,12,3,3,0.4,0.7
2022-07-28T01:00:00,1002A,116.2202,40.2915,北京市,定陵(对照点),,20,3,15,2,9,130,62,62,62,2,4,3,3,0.3,0.5
2022-07-28T01:00:00,1003A,116.4174,39.9289,北京市,东四,,33,5,24,3,16,129,105,105,105,8,17,1,2,0.3,0.5
2022-07-28T01:00:00,1004A,116.4072,39.8863,北京市,天坛,,26,4,29,2,19,101,82,82,82,8,15,3,3,0.3,0.6
2022-07-28T01:00:00,1005A,116.462,39.9365,北京市,农展馆,,,5,28,3,20,118,88,88,88,9,15,,3,0.5,0.7
2022-07-28T01:00:00,1006A,116.3392,39.9295,北京市,官园,,23,9,22,7,17,143,73,73,73,11,15,2,2,0.4,0.7
2022-07-28T01:00:00,1007A,116.2878,39.9611,北京市,海淀万柳,,17,14,22,10,15,119,54,54,54,20,17,3,2,0.3,0.4
2022-07-28T01:00:00,1008A,116.6636,40.135,北京市,顺义新城,,23,6,28,3,16,97,73,73,73,5,7,3,3,0.3,0.5
2022-07-28T01:00:00,1009A,116.6275,40.3275,北京市,怀柔镇,,27,4,18,2,13,120,86,86,86,3,6,3,3,0.3,0.5
2022-07-28T01:00:00,1010A,116.2296,40.217,北京市,昌平镇,,17,5,22,3,18,127,53,53,53,6,10,1,1,0.3,0.5
2022-07-28T01:00:00,1011A,116.3966,39.9821,北京市,奥体中心,,26,8,30,5,16,124,82,82,82,13,18,3,3,0.3,0.6
2022-07-28T01:00:00,1012A,116.184,39.9136,北京市,古城,,19,11,20,8,15,125,60,60,60,17,19,3,3,0.3,0.5
2022-07-28T01:00:00,1015A,117.1444,39.1661,天津市,勤俭道,细颗粒物(PM2.5),52,51,37,36,25,160,70,70,70,11,17,8,8,0.7,0.6
2022-07-28T01:00:00,1017A,117.237,39.1082,天津市,大直沽八号路,细颗粒物(PM2.5),64,62,31,46,19,144,67,67,67,8,12,8,8,0.7,0.6
2022-07-28T01:00:00,1018A,117.202,39.0927,天津市,前进道,细颗粒物(PM2.5),54,54,32,38,20,162,75,75,75,12,15,5,6,0.8,0.9
2022-07-28T01:00:00,1019A,117.1837,39.2133,天津市,淮河道,"颗粒物(PM10),细颗粒物(PM2.5)",52,54,37,36,24,158,70,70,70,17,16,7,7,0.8,0.7
2022-07-28T01:00:00,1021A,117.307,39.0877,天津市,跃进路,颗粒物(PM10),62,73,33,19,17,158,69,69,69,16,18,6,7,0.6,0.5
2022-07-28T01:00:00,1023A,117.707,39.0343,天津市,第四大街,,37,37,25,17,14,105,71,71,71,14,15,5,5,0.8,0.6
2022-07-28T01:00:00,1024A,117.457,38.8394,天津市,永明路,,29,12,21,9,15,124,92,92,92,4,4,6,6,0.5,0.5
2022-07-28T01:00:00,1026A,117.764,39.1587,天津市,汉北路,,29,27,22,16,14,118,91,91,91,4,4,6,6,0.7,0.7
2022-07-28T01:00:00,1027A,117.157,38.9194,天津市,团泊洼(对照点),,22,21,35,14,20,139,69,69,69,19,15,6,8,0.9,0.8
2022-07-28T01:00:00,1029A,114.4422,38.0444,石家庄市,职工医院,,21,13,38,11,30,114,65,65,65,20,30,6,6,0.4,0.4
2022-07-28T01:00:00,1030A,114.6063,38.0266,石家庄市,高新区,,21,21,55,14,31,122,63,63,63,28,35,3,2,0.5,0.5
2022-07-28T01:00:00,1031A,114.4898,38.1328,石家庄市,西北水源,,21,21,51,11,32,116,58,58,58,16,25,3,3,0.6,0.6
2022-07-28T01:00:00,1032A,114.4586,38.0058,石家庄市,西南高教,,20,17,41,11,24,107,63,63,63,20,29,3,3,0.7,0.7
2022-07-28T01:00:00,1033A,114.5331,38.0178,石家庄市,世纪公园,,24,24,50,13,36,109,53,53,53,18,17,3,3,0.5,0.5
2022-07-28T01:00:00,1034A,114.509,38.0457,石家庄市,人民会堂,,20,13,40,10,30,120,62,62,62,25,24,4,5,0.7,0.7
2022-07-28T01:00:00,1035A,114.3524,37.8911,石家庄市,封龙山(对照点),,36,12,35,13,21,159,114,114,114,5,8,6,5,0.6,0.6
2022-07-28T01:00:00,1037A,118.131,39.6363,唐山市,雷达站,,39,39,41,17,15,136,81,81,81,5,8,1,3,0.4,0.6
2022-07-28T01:00:00,1038A,118.1725,39.6334,唐山市,物资局,,45,37,38,31,26,132,75,75,75,6,8,4,6,0.7,0.6
2022-07-28T01:00:00,1040A,118.1705,39.6506,唐山市,十二中,,27,27,34,9,16,130,71,71,71,11,15,3,4,1.0,0.7
2022-07-28T01:00:00,1041A,118.1869,39.622,唐山市,小山,,32,30,27,22,23,129,73,73,73,6,9,4,5,0.6,0.5
2022-07-28T01:00:00,1042A,119.5134,39.8207,秦皇岛市,北戴河环保局,,30,28,31,6,8,124,94,94,94,4,9,1,2,0.3,0.3
2022-07-28T01:00:00,1043A,119.7493,40.0116,秦皇岛市,第一关,,40,40,28,9,13,125,86,86,86,20,21,3,3,0.4,0.6
2022-07-28T01:00:00,1044A,119.5897,39.9499,秦皇岛市,监测站,,42,42,22,29,18,115,91,91,91,10,9,4,5,0.2,0.2
2022-07-28T01:00:00,1046A,119.5251,39.9041,秦皇岛市,建设大厦,,27,27,22,13,10,126,48,48,48,33,15,1,2,0.5,0.5
2022-07-28T01:00:00,1047A,114.5129,36.61763,邯郸市,环保局,,,,,,,,,,,,,,,,
2022-07-28T01:00:00,1048A,114.5302,36.6116,邯郸市,东污水处理厂,,33,11,46,17,34,175,104,104,104,1,12,3,5,0.8,0.8
2022-07-28T01:00:00,1049A,114.4918,36.5713,邯郸市,矿院,,32,11,46,0,25,182,102,102,102,6,15,3,3,0.8,0.9
2022-07-28T01:00:00,1050A,114.484,36.6133,邯郸市,丛台公园,,32,18,56,2,28,173,102,102,102,5,12,3,4,0.7,0.7
2022-07-28T01:00:00,1051A,115.493,38.8632,保定市,游泳馆,,37,30,44,1,35,117,117,117,117,8,20,3,3,0.1,0.4
2022-07-28T01:00:00,1052A,115.5213,38.8959,保定市,华电二区,,35,10,56,6,29,110,110,110,110,1,20,4,4,0.2,0.5
2022-07-28T01:00:00,1053A,115.4713,38.9108,保定市,接待中心,,38,11,46,22,27,119,119,119,119,4,21,4,5,0.5,0.8
2022-07-28T01:00:00,1054A,115.4612,38.8416,保定市,地表水厂,,38,14,66,7,32,120,120,120,120,2,18,4,5,0.2,0.5
2022-07-28T01:00:00,1055A,115.4323,38.8697,保定市,胶片厂,,39,9,43,0,37,124,124,124,124,5,18,3,5,0.4,0.5
2022-07-28T01:00:00,1056A,115.5086,38.8639,保定市,监测站,,39,12,47,19,35,124,124,124,124,3,18,7,8,0.2,0.4
2022-07-28T01:00:00,1057A,114.8883,40.8336,张家口市,人民公园,,22,22,31,1,12,127,69,69,69,9,14,6,6,0.3,0.4
2022-07-28T01:00:00,1059A,114.8687,40.8042,张家口市,五金库,,22,10,26,10,17,123,70,70,70,11,18,7,7,0.3,0.4
2022-07-28T01:00:00,1060A,114.8902,40.762,张家口市,世纪豪园,,32,14,27,22,19,131,84,84,84,15,15,7,6,0.1,0.2
2022-07-28T01:00:00,1061A,114.8916,40.8661,张家口市,北泵房(对照点),,20,19,33,11,21,126,64,64,64,5,9,5,5,0.5,0.6
2022-07-28T01:00:00,1062A,117.9531,40.9081,承德市,铁路,,26,17,36,11,30,122,81,81,81,20,24,6,4,0.7,0.6
2022-07-28T01:00:00,1063A,117.9392,40.9763,承德市,中国银行,,26,2,22,12,24,132,83,83,83,9,11,6,5,0.4,0.5
2022-07-28T01:00:00,1064A,117.9503,40.928,承德市,开发区,,24,24,45,12,27,134,67,67,67,28,15,5,4,0.9,0.7
2022-07-28T01:00:00,1065A,117.8051,40.9655,承德市,文化中心,,25,7,28,12,27,131,80,80,80,16,10,7,6,0.6,0.6
2022-07-28T01:00:00,1066A,117.9268,41.0026,承德市,离宫(对照点),,19,14,30,13,24,131,43,43,43,7,8,1,1,0.3,0.5
2022-07-28T01:00:00,1067A,116.6708,39.5111,廊坊市,药材公司,,30,6,24,10,19,131,93,93,93,14,17,5,5,0.3,0.5
2022-07-28T01:00:00,1068A,116.7214,39.5589,廊坊市,开发区,,30,8,23,3,16,118,93,93,93,16,19,7,8,0.3,0.5
2022-07-28T01:00:00,1070A,116.7244,39.5269,廊坊市,北华航天学院,,30,20,35,12,26,129,95,95,95,14,16,6,6,0.3,0.5
2022-07-28T01:00:00,1071A,116.8842,38.2991,沧州市,沧县城建局,,27,27,42,14,22,159,55,55,55,11,14,8,7,0.2,0.3
2022-07-28T01:00:00,1072A,116.8584,38.3254,沧州市,电视转播站,,29,29,38,13,21,162,51,51,51,18,13,9,8,0.2,0.3
2022-07-28T01:00:00,1073A,116.8709,38.3228,沧州市,市环保局,,25,25,40,9,21,160,57,57,57,12,10,9,6,0.1,0.2
2022-07-28T01:00:00,1074A,115.6838,37.7541,衡水市,电机北厂,,48,34,46,33,32,170,65,65,65,11,20,5,6,0.5,0.6
2022-07-28T01:00:00,1075A,115.6303,37.7316,衡水市,市监测站,颗粒物(PM10),57,63,67,14,27,182,73,73,73,9,17,5,6,0.5,0.6
2022-07-28T01:00:00,1077A,114.4704,37.0886,邢台市,达活泉,,34,4,36,6,22,155,106,106,106,2,5,6,7,0.3,0.5
2022-07-28T01:00:00,1078A,114.5062,37.0349,邢台市,邢师高专,,34,7,39,2,24,141,106,106,106,4,8,6,6,0.2,0.4
2022-07-28T01:00:00,1079A,114.5237,37.0851,邢台市,路桥公司,,31,12,40,13,20,152,97,97,97,2,5,4,4,0.3,0.5
2022-07-28T01:00:00,1080A,114.4725,37.0719,邢台市,市环保局,,33,22,49,2,24,153,103,103,103,2,7,5,5,0.3,0.5
2022-07-28T01:00:00,1081A,112.5139,37.8873,太原市,尖草坪,,21,21,33,10,19,99,43,43,43,27,24,4,5,0.4,0.6
2022-07-28T01:00:00,1083A,112.434,38.0108,太原市,上兰(对照点),,,,,,,,,,,,,,,,
2022-07-28T01:00:00,1084A,112.469,37.7124,太原市,晋源,,21,16,28,13,19,111,17,17,17,41,25,11,10,0.4,0.6
2022-07-28T01:00:00,1085A,112.5583,37.7394,太原市,小店,,31,31,37,15,22,107,22,22,22,56,35,7,7,0.7,0.8
2022-07-28T01:00:00,1086A,112.5369,37.8692,太原市,桃园,,22,22,36,8,20,109,36,36,36,37,28,6,7,0.5,0.8
2022-07-28T01:00:00,1087A,112.57,37.8195,太原市,坞城,,26,24,34,18,25,114,60,60,60,25,21,8,6,0.5,0.6
2022-07-28T01:00:00,1088A,112.549,37.9854,太原市,南寨,,27,27,32,10,16,104,5,5,5,31,25,3,4,0.4,0.5
2022-07-28T01:00:00,1089A,112.4701,37.782,太原市,金胜,,,,,,,,,,,,,,,,
2022-07-28T01:00:00,1090A,111.6507,40.7517,呼和浩特市,呼市一监,,41,41,27,10,13,141,62,62,62,27,16,5,6,0.4,0.4
2022-07-28T01:00:00,1091A,111.6572,40.8033,呼和浩特市,小召,,27,27,28,8,13,143,60,60,60,45,20,5,6,0.4,0.4
2022-07-28T01:00:00,1094A,111.7516,40.8369,呼和浩特市,如意水处理厂,,26,20,31,7,15,149,81,81,81,30,23,7,8,0.4,0.4
2022-07-28T01:00:00,1095A,111.7276,40.8062,呼和浩特市,二十九中,,24,13,28,6,15,134,74,74,74,32,21,7,9,0.4,0.5
2022-07-28T01:00:00,1096A,111.5512,40.7866,呼和浩特市,工大金川校区,,22,16,30,9,14,142,68,68,68,28,18,6,6,0.4,0.4
2022-07-28T01:00:00,1097A,111.717,40.7612,呼和浩特市,化肥厂生活区,,22,22,33,9,16,132,65,65,65,36,18,5,7,0.4,0.5
2022-07-28T01:00:00,1098A,123.6836,41.9339,沈阳市,森林路(对照点),,,,,,,,,,,,,,,,
2022-07-28T01:00:00,1099A,123.505,41.7406,沈阳市,浑南东路,颗粒物(PM10),58,66,55,34,34,184,7,7,7,52,29,8,10,0.9,0.9
2022-07-28T01:00:00,1100A,123.4231,41.6989,沈阳市,新秀街,颗粒物(PM10),53,56,53,22,29,173,41,41,41,33,31,26,11,0.7,0.9
2022-07-28T01:00:00,1102A,123.5903,41.8411,沈阳市,东陵路,,47,47,59,26,33,167,28,28,28,22,18,10,11,0.7,1
2022-07-28T01:00:00,1103A,123.4264,41.8467,沈阳市,陵东街,,32,32,51,17,30,170,66,66,66,18,24,4,7,0.7,1
2022-07-28T01:00:00,1104A,123.4114,41.7653,沈阳市,文化路,,48,48,56,25,38,186,65,65,65,25,26,12,17,0.6,0.9
2022-07-28T01:00:00,1105A,123.4678,41.7867,沈阳市,小河沿,,36,36,49,21,28,165,47,47,47,20,23,9,8,0.7,1
2022-07-28T01:00:00,1106A,123.4017,41.7972,沈阳市,太原街,,37,37,52,24,33,184,59,59,59,33,29,6,14,0.6,0.7
2022-07-28T01:00:00,1108A,123.3783,41.9228,沈阳市,京沈街,,49,49,65,23,38,204,72,72,72,24,32,8,11,0.6,0.9
2022-07-28T01:00:00,1109A,121.612,38.9741,大连市,甘井子,,30,28,22,16,10,107,94,94,94,14,11,4,4,0.6,0.6
2022-07-28T01:00:00,1110A,121.565,38.9511,大连市,周水子,,28,27,22,15,9,89,88,88,88,6,7,8,6,0.7,0.5
2022-07-28T01:00:00,1111A,121.5637,38.8845,大连市,星海三站,,,,,,,,,,,,,,,,
2022-07-28T01:00:00,1112A,121.6302,38.9117,大连市,青泥洼桥,,35,26,16,18,12,112,111,111,111,5,4,6,6,0.6,0.6
2022-07-28T01:00:00,1113A,121.6251,38.8638,大连市,傅家庄,,35,20,16,14,11,120,110,110,110,3,2,7,9,0.6,0.5
2022-07-28T01:00:00,1114A,121.5213,38.8661,大连市,七贤岭,臭氧1小时,70,21,19,20,13,176,176,176,176,3,4,7,7,0.8,0.8
2022-07-28T01:00:00,1115A,121.2529,38.8061,大连市,旅顺,,36,15,15,23,14,114,114,114,114,4,4,5,6,0.7,0.6
2022-07-28T01:00:00,1116A,121.7485,39.1311,大连市,金州,,29,22,19,20,16,107,84,84,84,6,6,5,5,0.5,0.5
2022-07-28T01:00:00,1117A,121.7811,39.0496,大连市,开发区,,33,18,20,21,13,113,104,104,104,7,9,9,8,0.8,0.8
2022-07-28T01:00:00,1118A,121.9762,39.0631,大连市,双D港,,30,12,15,18,12,128,93,93,93,10,11,8,8,0.5,0.5
2022-07-28T01:00:00,1119A,125.3325,43.9166,长春市,食品厂,颗粒物(PM10),69,88,58,22,30,126,9,9,9,53,33,3,3,0.7,0.5
2022-07-28T01:00:00,1120A,125.2863,43.9027,长春市,客车厂,颗粒物(PM10),64,77,52,30,22,134,13,13,13,62,35,2,3,0.9,0.7
2022-07-28T01:00:00,1121A,125.2841,43.8463,长春市,邮电学院,颗粒物(PM10),60,70,45,28,24,124,12,12,12,38,18,4,4,0.5,0.5
2022-07-28T01:00:00,1122A,125.3716,43.8772,长春市,劳动公园,细颗粒物(PM2.5),58,58,57,41,35,114,37,37,37,28,31,3,2,0.3,0.6
2022-07-28T01:00:00,1123A,125.3297,43.8805,长春市,园林处,,45,45,46,23,22,128,34,34,34,37,23,3,3,0.6,0.6
2022-07-28T01:00:00,1124A,125.4605,43.79,长春市,净月潭,,35,35,35,16,18,123,27,27,27,7,5,3,4,0.3,0.3
2022-07-28T01:00:00,1125A,125.7194,43.515,长春市,甩湾子(对照点),,,,,,,,,,,,,,,,
2022-07-28T01:00:00,1126A,125.3863,43.8447,长春市,经开区环卫处,,34,34,41,19,20,120,40,40,40,23,17,3,3,0.5,0.5
2022-07-28T01:00:00,1127A,125.245,43.7783,长春市,高新区管委会,颗粒物(PM10),52,53,45,21,24,104,23,23,23,36,23,3,4,0.4,0.5
2022-07-28T01:00:00,1128A,125.1761,43.8325,长春市,岱山公园,颗粒物(PM10),85,120,62,27,24,112,1,1,1,62,37,5,4,0.6,0.5
2022-07-28T01:00:00,1129A,126.5422,45.755,哈尔滨市,岭北(对照点),细颗粒物(PM2.5),52,49,38,36,27,168,26,26,26,39,18,4,6,0.9,0.7
2022-07-28T01:00:00,1130A,126.561,45.8167,哈尔滨市,松北商大,颗粒物(PM10),75,100,57,24,22,159,9,9,9,65,25,5,5,1.0,0.9
2022-07-28T01:00:00,1131A,126.979,45.5419,哈尔滨市,阿城会宁,,48,48,55,24,24,157,49,49,49,14,13,10,10,0.5,0.6
2022-07-28T01:00:00,1132A,126.599,45.7222,哈尔滨市,南岗学府路,颗粒物(PM10),64,77,48,36,26,168,23,23,23,51,17,18,11,1.0,0.6
2022-07-28T01:00:00,1133A,126.689,45.7733,哈尔滨市,太平宏伟公园,,,43,79,22,23,178,,,,48,25,,9,0.3,0.5
2022-07-28T01:00:00,1134A,126.635,45.7667,哈尔滨市,道外承德广场,细颗粒物(PM2.5),69,29,58,50,31,164,44,44,44,31,28,8,9,1.1,0.6
2022-07-28T01:00:00,1135A,126.685,45.7319,哈尔滨市,香坊红旗大街,颗粒物(PM10),55,60,62,22,22,170,36,36,36,40,30,19,12,1.0,0.7
2022-07-28T01:00:00,1136A,126.6411,45.7258,哈尔滨市,动力和平路,,,81,66,,,165,30,30,30,48,27,13,9,0.8,0.8
2022-07-28T01:00:00,1137A,126.593,45.7478,哈尔滨市,道里建国路,颗粒物(PM10),73,96,55,32,26,168,25,25,25,64,26,22,12,5.1,1.5
2022-07-28T01:00:00,1138A,126.615,45.61,哈尔滨市,平房东轻厂,颗粒物(PM10),67,83,55,25,21,149,37,37,37,28,13,2,3,0.7,0.7
2022-07-28T01:00:00,1139A,126.595,45.9855,哈尔滨市,呼兰师专,颗粒物(PM10),58,66,62,23,24,221,44,44,44,32,20,6,7,0.9,0.8
2022-07-28T01:00:00,1140A,126.6206,45.6842,哈尔滨市,省农科院,颗粒物(PM10),75,100,55,28,20,163,10,10,10,53,20,12,20,0.6,0.7
2022-07-28T01:00:00,1141A,121.4,31.238,上海市,普陀,,42,34,38,29,21,306,120,120,120,17,23,5,4,0.5,0.5
2022-07-28T01:00:00,1142A,121.478,31.2036,上海市,十五厂,,37,37,47,20,27,257,91,91,91,28,36,3,2,0.9,0.7
2022-07-28T01:00:00,1143A,121.467,31.3008,上海市,虹口,颗粒物(PM10),54,58,42,34,20,262,111,111,111,15,29,4,4,0.4,0.4
2022-07-28T01:00:00,1144A,121.412,31.1654,上海市,徐汇上师大,,34,34,37,14,22,290,93,93,93,26,31,6,3,0.6,0.5
2022-07-28T01:00:00,1145A,121.536,31.2659,上海市,杨浦四漂,细颗粒物(PM2.5),52,44,37,36,27,249,110,110,110,14,40,2,4,0.6,0.6
2022-07-28T01:00:00,1146A,120.978,31.0935,上海市,青浦淀山湖(对照点),,,,,,,,,,,,,,,,
2022-07-28T01:00:00,1147A,121.425,31.2261,上海市,静安监测站,,44,44,42,25,24,272,99,99,99,29,31,3,3,0.3,0.4
2022-07-28T01:00:00,1148A,121.703,31.1907,上海市,浦东川沙,,45,36,45,31,29,205,96,96,96,16,28,4,3,0.3,0.4
2022-07-28T01:00:00,1149A,121.533,31.2284,上海市,浦东新区监测站,颗粒物(PM10),52,54,48,31,30,270,116,116,116,15,35,5,5,0.6,0.7
2022-07-28T01:00:00,1150A,121.577,31.2071,上海市,浦东张江,,48,39,38,33,28,229,85,85,85,23,37,4,5,0.8,0.9
2022-07-28T01:00:00,1151A,118.8086,32.1065,南京市,迈皋桥,,44,44,40,22,19,262,63,63,63,34,24,3,2,0.5,0.5
2022-07-28T01:00:00,1152A,118.7538,32.0551,南京市,草场门,,44,44,37,22,19,272,98,98,98,24,27,2,6,0.6,0.7
2022-07-28T01:00:00,1153A,118.7794,32.0745,南京市,山西路,,46,46,44,29,27,290,129,129,129,14,22,5,6,0.4,0.5
2022-07-28T01:00:00,1154A,118.7752,32.0023,南京市,中华门,颗粒物(PM10),51,51,43,19,17,273,98,98,98,35,27,4,6,0.8,1.1
2022-07-28T01:00:00,1155A,118.8109,32.0309,南京市,瑞金路,,41,41,34,27,22,280,91,91,91,23,18,4,6,0.5,0.5
2022-07-28T01:00:00,1156A,118.7997,32.0754,南京市,玄武湖,,42,42,36,24,20,280,100,100,100,25,30,5,4,0.8,0.9
2022-07-28T01:00:00,1157A,118.6414,32.0931,南京市,浦口,,36,36,34,12,17,273,48,48,48,22,13,4,5,0.5,0.6
2022-07-28T01:00:00,1158A,118.7356,31.9996,南京市,奥体中心,颗粒物(PM10),51,51,43,27,21,295,116,116,116,26,28,6,7,0.5,0.7
2022-07-28T01:00:00,1159A,118.9125,32.1028,南京市,仙林大学城,颗粒物(PM10),53,56,28,27,15,241,94,94,94,19,18,6,6,0.7,0.6
2022-07-28T01:00:00,1160A,120.561,31.2472,苏州市,上方山(对照点),,38,38,46,24,22,266,106,106,106,15,19,6,7,0.5,0.6
2022-07-28T01:00:00,1161A,120.628,31.2864,苏州市,南门,,,,,,,,,,,,,,,,
2022-07-28T01:00:00,1162A,120.591,31.3019,苏州市,彩香,,33,18,31,22,26,270,105,105,105,12,13,5,5,0.5,0.6
2022-07-28T01:00:00,1163A,120.596,31.3264,苏州市,轧钢厂,,34,34,40,17,19,263,102,102,102,16,18,6,6,0.3,0.5
2022-07-28T01:00:00,1164A,120.613,31.2703,苏州市,吴中区,,35,25,34,19,23,280,112,112,112,16,20,5,5,0.5,0.6
2022-07-28T01:00:00,1165A,120.543,31.2994,苏州市,苏州新区,,38,30,32,23,28,278,120,120,120,14,19,7,8,0.6,0.8
2022-07-28T01:00:00,1166A,120.669,31.3097,苏州市,苏州工业园区,,33,22,34,18,18,244,104,104,104,17,18,5,6,0.6,0.8
2022-07-28T01:00:00,1167A,120.641,31.3708,苏州市,相城区,,35,29,35,23,25,266,112,112,112,12,16,5,5,0.4,0.7
2022-07-28T01:00:00,1168A,120.9098,31.9663,南通市,狼山街道,,40,27,36,14,18,245,127,127,127,12,19,7,11,0.6,0.9
2022-07-28T01:00:00,1169A,120.86,32.0005,南通市,虹桥,,41,26,36,24,30,252,129,129,129,13,23,9,12,0.7,0.8
2022-07-28T01:00:00,1170A,120.87,32.02,南通市,城中,,37,35,34,23,30,190,117,117,117,15,18,7,8,0.7,0.8
2022-07-28T01:00:00,1171A,120.94,31.93,南通市,星湖花园,,39,32,33,24,21,251,122,122,122,7,19,6,10,0.6,1
2022-07-28T01:00:00,1172A,120.81,32.0417,南通市,紫琅学院,,42,42,36,19,21,188,127,127,127,5,11,3,5,0.9,0.9
2022-07-28T01:00:00,1173A,119.176,34.5885,连云港市,市环境监测站,,45,39,39,31,24,148,85,85,85,10,11,1,1,0.7,0.7
2022-07-28T01:00:00,1177A,117.179,34.2761,徐州市,黄河新村,细颗粒物(PM2.5),52,44,51,36,32,192,101,101,101,15,19,6,7,0.8,0.7
2022-07-28T01:00:00,1178A,117.1918,34.2384,徐州市,淮塔,细颗粒物(PM2.5),67,60,57,48,36,191,86,86,86,14,18,5,5,0.6,0.5
2022-07-28T01:00:00,1180A,117.256,34.2153,徐州市,新城区,细颗粒物(PM2.5),70,76,62,51,34,184,58,58,58,38,19,5,6,0.7,0.7
2022-07-28T01:00:00,1181A,117.244,34.2911,徐州市,桃园路,颗粒物(PM10),70,90,64,46,28,188,81,81,81,20,17,12,11,1.0,0.9
2022-07-28T01:00:00,1182A,117.2933,34.2778,徐州市,农科院,颗粒物(PM10),52,53,49,31,26,159,76,76,76,28,25,3,3,0.5,0.6
2022-07-28T01:00:00,1186A,119.389,32.3761,扬州市,邗江监测站,细颗粒物(PM2.5),52,51,28,36,17,159,74,74,74,12,7,6,6,0.8,0.7
2022-07-28T01:00:00,1188A,120.269,31.4867,无锡市,雪浪,,36,14,24,9,16,188,113,113,113,2,4,9,12,0.6,0.8
2022-07-28T01:00:00,1189A,120.275,31.6219,无锡市,黄巷,,36,16,41,5,22,296,115,115,115,14,26,7,10,0.6,0.9
2022-07-28T01:00:00,1190A,120.294,31.56,无锡市,曹张,,37,13,31,9,18,233,117,117,117,8,16,4,7,0.7,0.9
2022-07-28T01:00:00,1191A,120.242,31.5031,无锡市,漆塘,,35,12,24,9,16,210,110,110,110,5,10,4,7,0.6,1
2022-07-28T01:00:00,1192A,120.3489,31.5863,无锡市,东亭,,36,14,40,14,24,290,114,114,114,7,19,7,10,0.5,0.8
2022-07-28T01:00:00,1193A,120.354,31.5475,无锡市,旺庄,,37,14,33,9,19,290,116,116,116,13,20,10,12,0.7,1
2022-07-28T01:00:00,1194A,120.245,31.5631,无锡市,荣巷,,35,2,24,14,20,208,110,110,110,2,6,11,13,0.6,0.8
2022-07-28T01:00:00,1195A,120.299,31.6817,无锡市,堰桥,,35,14,43,7,25,296,109,109,109,6,14,5,9,0.7,1.1
2022-07-28T01:00:00,1196A,119.9633,31.762,常州市,市监测站,,33,24,38,9,16,289,103,103,103,14,18,6,9,0.4,0.7
2022-07-28T01:00:00,1200A,119.9468,31.7069,常州市,武进监测站,,33,26,35,17,25,296,104,104,104,11,15,10,9,0.6,0.9
2022-07-28T01:00:00,1201A,119.9255,31.9087,常州市,安家,,30,21,36,17,33,256,94,94,94,14,19,8,8,0.6,0.7
2022-07-28T01:00:00,1203A,119.6707,32.1875,镇江市,新区办事处,细颗粒物(PM2.5),58,58,30,41,20,186,69,69,69,24,27,9,6,0.8,0.7
2022-07-28T01:00:00,1204A,119.4974,32.1968,镇江市,职教中心,,,49,31,,17,201,40,40,40,43,24,4,2,0.6,0.6
2022-07-28T01:00:00,1205A,119.4303,32.1328,镇江市,丹徒区监测站,颗粒物(PM10),53,55,36,31,21,220,71,71,71,28,23,6,7,0.7,0.8
2022-07-28T01:00:00,1206A,119.905,32.4878,泰州市,公园路,细颗粒物(PM2.5),58,48,30,41,24,118,79,79,79,9,8,6,7,0.9,0.7
2022-07-28T01:00:00,1207A,119.9189,32.4625,泰州市,莲花,细颗粒物(PM2.5),58,51,29,41,29,125,76,76,76,10,11,8,10,0.9,0.7
2022-07-28T01:00:00,1209A,119.888,32.4639,泰州市,留学生创业园,细颗粒物(PM2.5),77,60,34,56,26,131,89,89,89,11,12,7,8,0.9,0.7
2022-07-28T01:00:00,1210A,119.036,33.5981,淮安市,钵池山,,44,44,34,29,20,140,42,42,42,34,13,8,8,0.8,0.8
2022-07-28T01:00:00,1211A,119.007,33.575,淮安市,北京南路,,44,44,38,27,21,149,50,50,50,28,15,6,6,0.6,0.5
2022-07-28T01:00:00,1212A,118.989,33.6067,淮安市,市监测站,,41,41,40,22,18,137,45,45,45,36,18,6,6,0.9,0.8
2022-07-28T01:00:00,1213A,119.135,33.5039,淮安市,楚州区监测站,,46,46,39,29,23,143,53,53,53,25,17,7,7,0.6,0.6
2022-07-28T01:00:00,1214A,119.0186,33.6297,淮安市,淮阴区监测站,"颗粒物(PM10),细颗粒物(PM2.5)",54,58,39,38,23,131,40,40,40,34,15,7,7,0.8,0.7
2022-07-28T01:00:00,1215A,120.118,33.4022,盐城市,盐城电厂,,44,44,34,28,19,143,90,90,90,10,11,5,5,0.3,0.4
2022-07-28T01:00:00,1216A,120.156,33.3942,盐城市,市监测站,,31,31,28,12,16,145,74,74,74,12,9,3,3,0.4,0.5
2022-07-28T01:00:00,1218A,120.2144,33.38,盐城市,开发区管委会,,38,26,21,26,20,144,56,56,56,23,14,7,7,0.4,0.4
2022-07-28T01:00:00,1220A,118.293,33.9528,宿迁市,宿迁学院,颗粒物(PM10),58,66,42,29,27,157,69,69,69,27,13,4,5,0.7,0.7
2022-07-28T01:00:00,1221A,118.2442,33.9592,宿迁市,宿迁中学,,48,48,38,25,25,144,99,99,99,13,9,2,2,0.7,0.8
2022-07-28T01:00:00,1223A,120.2072,30.2111,杭州市,滨江,,34,24,43,11,22,269,106,106,106,12,25,4,5,0.4,0.5
2022-07-28T01:00:00,1224A,120.0633,30.2747,杭州市,西溪,,23,23,40,10,23,244,57,57,57,10,17,8,8,0.6,0.6
2022-07-28T01:00:00,1225A,119.026,29.635,杭州市,千岛湖(对照点),,,,,,,,,,,,,,,,
2022-07-28T01:00:00,1226A,120.3461,30.3153,杭州市,下沙,,32,25,54,12,26,302,101,101,101,13,28,4,6,0.4,0.5
2022-07-28T01:00:00,1227A,120.1269,30.2456,杭州市,卧龙桥,,20,17,39,9,21,280,64,64,64,10,17,4,5,0.5,0.7
2022-07-28T01:00:00,1228A,120.1903,30.2692,杭州市,浙江农大,,34,15,40,10,23,285,106,106,106,11,22,4,4,0.6,0.7
2022-07-28T01:00:00,1229A,120.157,30.2897,杭州市,朝晖五区,,,,,,,,,,,,,,,,
2022-07-28T01:00:00,1230A,120.1197,30.3119,杭州市,和睦小学,,32,32,50,15,28,303,82,82,82,20,26,5,6,0.6,0.7
2022-07-28T01:00:00,1231A,120.3019,30.4183,杭州市,临平镇,,32,23,51,10,24,294,102,102,102,16,27,4,4,0.5,0.7
2022-07-28T01:00:00,1232A,120.2697,30.1819,杭州市,城厢镇,,30,27,49,14,31,273,94,94,94,15,26,6,6,0.5,0.7
2022-07-28T01:00:00,1233A,120.0883,30.1808,杭州市,云栖,,18,18,39,8,20,246,56,56,56,13,17,6,7,0.4,0.6
2022-07-28T01:00:00,1234A,121.8358,29.911,宁波市,区环保大楼,,22,22,26,13,17,161,31,31,31,26,20,9,8,0.6,0.7
2022-07-28T01:00:00,1235A,121.56,29.82,宁波市,万里学院,,35,34,41,24,25,177,68,68,68,17,24,10,12,0.7,0.8
2022-07-28T01:00:00,1236A,121.713,29.9572,宁波市,龙赛医院,,32,31,34,22,20,215,47,47,47,19,22,7,7,0.7,0.6
2022-07-28T01:00:00,1239A,121.633,29.7733,宁波市,钱湖水厂,,16,16,25,10,20,136,50,50,50,12,12,7,7,0.6,0.6
2022-07-28T01:00:00,1240A,121.5856,29.8635,宁波市,太古小学,,32,32,30,22,25,180,63,63,63,17,20,10,9,0.7,0.8
2022-07-28T01:00:00,1241A,121.524,29.8674,宁波市,市环境监测中心,,33,33,38,16,20,195,76,76,76,16,25,4,8,0.6,0.7
2022-07-28T01:00:00,1242A,120.634,28.0089,温州市,瓯海,,30,30,40,16,22,164,86,86,86,7,15,5,6,0.4,0.5
2022-07-28T01:00:00,1243A,120.6748,27.9939,温州市,南浦,,32,32,42,15,21,149,80,80,80,5,9,4,5,0.5,0.5
2022-07-28T01:00:00,1244A,120.76,27.9747,温州市,龙湾,,35,35,37,12,16,113,74,74,74,8,11,5,6,0.4,0.4
2022-07-28T01:00:00,1245A,120.6709,28.0167,温州市,市站,,29,26,34,20,20,156,74,74,74,13,16,5,5,0.5,0.5
2022-07-28T01:00:00,1246A,120.598,30.0911,绍兴市,袍江站,,,,,,,,,,,,,,,,
2022-07-28T01:00:00,1247A,120.6053,29.9928,绍兴市,城东开发委,,28,21,47,10,27,243,89,89,89,6,17,5,5,0.4,0.6
2022-07-28T01:00:00,1250A,120.0751,30.8669,湖州市,城西水厂,,21,18,34,14,12,240,54,54,54,41,24,4,5,0.5,0.5
2022-07-28T01:00:00,1252A,120.7436,30.778,嘉兴市,清河小学,,49,43,38,34,20,266,93,93,93,20,21,4,6,0.5,0.7
2022-07-28T01:00:00,1253A,120.726,30.7478,嘉兴市,嘉兴学院,,46,41,37,32,24,262,89,89,89,19,24,3,4,0.5,0.5
2022-07-28T01:00:00,1255A,121.273,28.6459,台州市,黄岩环保大楼,,23,23,24,5,13,123,55,55,55,8,10,5,6,0.3,0.3
2022-07-28T01:00:00,1256A,121.419,28.6542,台州市,台州环保大楼,,25,25,30,9,16,136,44,44,44,11,11,4,4,0.4,0.4
2022-07-28T01:00:00,1257A,121.377,28.5773,台州市,路桥田洋王,,24,24,29,9,15,114,49,49,49,16,14,5,5,0.5,0.4
2022-07-28T01:00:00,1258A,122.122,30.0203,舟山市,定海檀枫,,18,18,24,12,14,100,40,40,40,16,12,3,2,0.2,0.3
2022-07-28T01:00:00,1259A,122.3094,29.9558,舟山市,普陀东港,,23,20,27,16,16,83,44,44,44,17,16,3,3,0.3,0.4
2022-07-28T01:00:00,1260A,122.19,29.9944,舟山市,临城新区,,15,15,25,9,13,100,48,48,48,15,14,6,4,0.3,0.3
2022-07-28T01:00:00,1261A,119.649,29.1131,金华市,四中(停运161031),,,,,,,,,,,,,,,,
2022-07-28T01:00:00,1262A,119.647,29.077,金华市,十五中,,47,47,48,29,31,201,66,66,66,29,18,12,7,0.4,0.5
2022-07-28T01:00:00,1263A,119.686,29.1029,金华市,监测站,,47,47,53,24,31,193,69,69,69,29,19,47,13,0.6,0.6
2022-07-28T01:00:00,1264A,118.8692,28.9398,衢州市,环保大楼,,38,38,51,24,30,169,57,57,57,18,20,5,7,0.4,0.5
2022-07-28T01:00:00,1265A,118.8709,28.9666,衢州市,实验学校,,33,33,39,16,21,159,69,69,69,17,21,7,7,0.3,0.3
2022-07-28T01:00:00,1266A,118.8621,28.9808,衢州市,衢州学院,,43,43,44,27,29,174,68,68,68,21,22,3,3,0.4,0.4
2022-07-28T01:00:00,1267A,119.914,28.4514,丽水市,监测站大楼,,34,34,40,19,23,135,21,21,21,26,15,5,7,0.4,0.5
2022-07-28T01:00:00,1268A,119.93,28.4586,丽水市,莲都小学,,27,27,44,10,23,144,46,46,46,11,11,6,6,0.4,0.4
2022-07-28T01:00:00,1269A,119.879,28.4231,丽水市,余庄前,,35,35,37,17,20,171,6,6,6,16,12,5,5,0.4,0.4
2022-07-28T01:00:00,1270A,117.1959,31.7848,合肥市,明珠广场,颗粒物(PM10),52,53,40,22,20,202,98,98,98,32,34,8,6,0.7,0.7
2022-07-28T01:00:00,1271A,117.3072,31.8764,合肥市,三里街,,48,48,35,19,10,148,40,40,40,57,26,10,10,0.6,0.6
2022-07-28T01:00:00,1272A,117.2588,31.8707,合肥市,琥珀山庄,,44,44,30,24,17,189,96,96,96,24,18,8,7,0.7,0.7
2022-07-28T01:00:00,1273A,117.1604,31.9052,合肥市,董铺水库(对照点),,39,39,35,12,12,179,32,32,32,32,17,6,6,0.6,0.6
2022-07-28T01:00:00,1274A,117.25,31.8571,合肥市,长江中路,颗粒物(PM10),53,56,40,31,21,192,86,86,86,29,18,8,6,0.6,0.6
2022-07-28T01:00:00,1275A,117.266,31.9436,合肥市,庐阳区,,39,39,37,22,19,159,32,32,32,39,24,5,6,0.8,0.7
2022-07-28T01:00:00,1276A,117.336,31.8586,合肥市,瑶海区,,44,44,42,18,14,156,43,43,43,62,30,9,9,0.5,0.4
2022-07-28T01:00:00,1277A,117.3027,31.7964,合肥市,包河区,颗粒物(PM10),65,80,37,24,16,171,11,11,11,83,34,14,13,0.7,0.5
2022-07-28T01:00:00,1278A,117.2776,31.7385,合肥市,滨湖新区,,36,36,35,19,14,166,88,88,88,22,20,9,9,0.5,0.6
2022-07-28T01:00:00,1279A,117.1318,31.8403,合肥市,高新区,颗粒物(PM10),51,51,36,22,19,218,70,70,70,38,21,3,3,0.8,0.7
2022-07-28T01:00:00,1280A,119.3903,26.0543,福州市,鼓山(对照点),,,,,,,,,,,,,,,,
2022-07-28T01:00:00,1282A,119.2681,26.0504,福州市,师大,,50,50,57,21,24,198,59,59,59,22,20,3,4,0.3,0.3
2022-07-28T01:00:00,1283A,119.2984,26.1028,福州市,五四北路,,32,31,47,22,35,208,74,74,74,13,20,3,4,0.3,0.4
2022-07-28T01:00:00,1284A,119.2648,26.0768,福州市,杨桥西路,,48,48,59,20,25,198,48,48,48,20,20,3,4,0.3,0.3
2022-07-28T01:00:00,1285A,119.317,26.0746,福州市,紫阳,颗粒物(PM10),54,58,61,18,25,196,46,46,46,26,21,4,5,0.4,0.5
2022-07-28T01:00:00,1286A,118.1608,24.8169,厦门市,溪东(对照点),,,,,,,,,,,,,,,,
2022-07-28T01:00:00,1287A,118.1514,24.4767,厦门市,洪文,颗粒物(PM10),59,67,38,30,17,114,48,48,48,30,22,5,4,0.5,0.3
2022-07-28T01:00:00,1288A,118.0661,24.4444,厦门市,鼓浪屿,颗粒物(PM10),53,55,39,35,23,123,28,28,28,34,26,4,6,0.8,0.7
2022-07-28T01:00:00,1290A,115.8931,28.6843,南昌市,省外办,颗粒物(PM10),60,69,58,29,24,182,78,78,78,35,15,7,8,0.7,0.5
2022-07-28T01:00:00,1291A,115.8886,28.7003,南昌市,省林业公司,颗粒物(PM10),60,70,56,31,24,188,30,30,30,86,26,6,6,0.8,0.7
2022-07-28T01:00:00,1292A,115.8126,28.7442,南昌市,林科所,,49,36,44,34,28,155,95,95,95,16,10,6,5,0.8,0.7
2022-07-28T01:00:00,1294A,115.8518,28.687,南昌市,建工学校,细颗粒物(PM2.5),68,70,62,49,27,174,55,55,55,35,15,4,5,0.8,0.6
2022-07-28T01:00:00,1295A,115.8921,28.6424,南昌市,象湖,颗粒物(PM10),59,68,62,26,23,176,34,34,34,61,16,5,4,0.8,0.7
2022-07-28T01:00:00,1296A,115.7423,28.7996,南昌市,武术学校(对照点),,42,37,34,29,24,68,27,27,27,5,5,7,12,0.7,0.7
2022-07-28T01:00:00,1298A,115.9314,28.6842,南昌市,省站,颗粒物(PM10),52,54,56,32,30,174,28,28,28,42,9,7,8,0.9,0.7
2022-07-28T01:00:00,1299A,116.9862,36.6114,济南市,科干所,颗粒物(PM10),56,61,42,32,20,199,106,106,106,22,23,4,4,0.9,0.8
2022-07-28T01:00:00,1300A,116.9376,36.665,济南市,农科所,,46,46,45,22,18,208,62,62,62,33,29,7,7,1.0,0.6
2022-07-28T01:00:00,1301A,117.1265,36.6734,济南市,开发区,颗粒物(PM10),66,81,44,27,18,217,48,48,48,60,32,5,5,0.9,0.8
2022-07-28T01:00:00,1303A,117.0624,36.6868,济南市,省种子仓库,颗粒物(PM10),64,78,52,34,20,210,49,49,49,48,34,6,5,0.9,0.7
2022-07-28T01:00:00,1304A,116.9489,36.6447,济南市,机床二厂,颗粒物(PM10),64,78,57,32,18,219,84,84,84,30,26,7,6,1.0,0.7
2022-07-28T01:00:00,1305A,117.0495,36.663,济南市,市监测站,颗粒物(PM10),57,63,46,28,19,219,100,100,100,22,29,8,8,1.0,0.8
2022-07-28T01:00:00,1306A,116.7675,36.5484,济南市,长清党校,颗粒物(PM10),55,59,46,24,24,244,83,83,83,37,24,6,8,0.7,0.7
2022-07-28T01:00:00,1307A,120.6659,36.2403,青岛市,仰口(对照点),,,,,,,,,,,,,,,,
2022-07-28T01:00:00,1308A,120.3905,36.1851,青岛市,李沧区子站,,,,,,,,,,,,,,,,
2022-07-28T01:00:00,1309A,120.3471,36.0699,青岛市,市北区子站,,,,,,,,,,,,,,,,
2022-07-28T01:00:00,1310A,120.4134,36.0658,青岛市,市南区东部子站,,32,14,10,7,5,109,100,100,100,4,9,6,6,0.3,0.4
2022-07-28T01:00:00,1311A,120.3664,36.1032,青岛市,四方区子站,,30,12,10,0,3,100,94,94,94,4,16,5,5,0.4,0.5
2022-07-28T01:00:00,1312A,120.2994,36.054,青岛市,市南区西部子站,,34,12,12,5,3,146,106,106,106,6,13,6,6,0.3,0.4
2022-07-28T01:00:00,1313A,120.4581,36.0858,青岛市,崂山区子站,,35,17,14,0,2,117,111,111,111,7,11,5,5,0.1,0.2
2022-07-28T01:00:00,1314A,120.1983,35.9608,青岛市,黄岛区子站,,32,9,10,2,7,123,102,102,102,10,21,4,4,0.4,0.5
2022-07-28T01:00:00,1315A,120.3999,36.3083,青岛市,城阳区子站,,17,11,10,6,6,107,53,53,53,20,7,4,4,0.6,0.5
2022-07-28T01:00:00,1316A,113.69031,34.76122,郑州市,烟厂,,27,6,46,4,39,161,86,86,86,11,15,4,4,0.4,0.6
2022-07-28T01:00:00,1317A,113.65724,34.77134,郑州市,郑纺机,,,1,49,,,163,81,81,81,12,14,5,6,0.4,0.4
2022-07-28T01:00:00,1318A,113.67526,34.80246,郑州市,银行学校,,26,11,44,4,27,143,83,83,83,12,14,3,3,0.3,0.5
2022-07-28T01:00:00,1319A,113.56746,34.81334,郑州市,供水公司,,25,12,46,6,25,156,79,79,79,7,8,5,5,0.2,0.4
2022-07-28T01:00:00,1320A,113.7329,34.7178,郑州市,经开区管委,,27,15,43,7,29,148,84,84,84,15,17,2,2,0.4,0.5
2022-07-28T01:00:00,1321A,113.73961,34.77172,郑州市,四十七中,,28,10,47,2,19,152,87,87,87,11,20,4,4,0.0,0.2
2022-07-28T01:00:00,1322A,113.60532,34.74838,郑州市,市监测站,,41,41,51,14,28,166,68,68,68,21,21,4,3,0.5,0.6
2022-07-28T01:00:00,1323A,113.64164,34.7525,郑州市,河医大,,25,23,48,12,26,160,80,80,80,11,19,3,3,0.5,0.7
2022-07-28T01:00:00,1324A,113.51488,34.91089,郑州市,岗李水库(对照点),,,,,,,,,,,,,,,,
2022-07-28T01:00:00,1325A,114.3677,30.5584,武汉市,东湖梨园,,22,22,39,12,21,203,41,41,41,24,15,7,8,0.8,0.9
2022-07-28T01:00:00,1326A,114.2529,30.558,武汉市,汉阳月湖,,33,30,40,12,18,166,21,21,21,65,30,6,6,0.7,0.8
2022-07-28T01:00:00,1327A,114.282,30.6189,武汉市,汉口花桥,,33,33,43,22,25,182,56,56,56,31,25,7,8,0.6,0.8
2022-07-28T01:00:00,1328A,114.3025,30.5332,武汉市,武昌紫阳,,27,20,37,12,19,164,25,25,25,54,25,3,4,0.7,0.8
2022-07-28T01:00:00,1329A,114.3646,30.6217,武汉市,青山钢花,,34,34,47,19,27,214,35,35,35,45,29,4,7,0.8,1
2022-07-28T01:00:00,1330A,114.1566,30.4825,武汉市,沌口新区,,36,36,46,18,21,173,20,20,20,63,31,6,8,0.8,0.9
2022-07-28T01:00:00,1331A,114.3014,30.5944,武汉市,汉口江滩,,36,25,42,12,20,207,25,25,25,71,39,7,7,0.7,0.8
2022-07-28T01:00:00,1333A,114.135,30.6319,武汉市,吴家山,颗粒物(PM10),55,60,46,29,23,188,37,37,37,49,23,4,4,0.9,0.9
2022-07-28T01:00:00,1334A,113.8454,30.2917,武汉市,沉湖七壕(对照点),,48,48,40,2,21,142,31,31,31,25,17,7,9,0.7,1
2022-07-28T01:00:00,1335A,113.0833,28.2325,长沙市,经开区环保局,颗粒物(PM10),53,56,34,36,29,146,38,38,38,42,15,5,7,0.7,0.6
2022-07-28T01:00:00,1336A,112.8872,28.2189,长沙市,高开区环保局,,40,40,24,18,19,150,81,81,81,23,14,10,11,0.2,0.2
2022-07-28T01:00:00,1337A,113.0792,28.2053,长沙市,马坡岭,颗粒物(PM10),62,74,45,30,28,171,34,34,34,35,19,9,12,0.7,0.7
2022-07-28T01:00:00,1338A,112.9394,28.19,长沙市,湖南师范大学,,40,40,38,19,18,156,57,57,57,16,10,4,6,0.4,0.4
2022-07-28T01:00:00,1339A,113.0178,28.1322,长沙市,雨花区环保局,颗粒物(PM10),56,62,28,34,26,156,28,28,28,60,15,7,8,0.3,0.4
2022-07-28T01:00:00,1340A,112.9792,28.2597,长沙市,伍家岭,,34,34,36,20,22,163,5,5,5,66,20,4,5,0.8,0.7
2022-07-28T01:00:00,1341A,113.0014,28.1944,长沙市,火车新站,,40,36,32,28,26,143,31,31,31,51,17,8,9,0.5,0.3
2022-07-28T01:00:00,1342A,112.9844,28.1178,长沙市,天心区环保局,,39,32,34,27,16,148,40,40,40,41,10,4,3,0.6,0.5
2022-07-28T01:00:00,1343A,112.8908,28.1308,长沙市,湖南中医药大学,颗粒物(PM10),64,77,46,24,23,145,1,1,1,69,29,4,5,0.6,0.3
2022-07-28T01:00:00,1344A,112.9581,28.3611,长沙市,沙坪(对照点),,32,19,16,22,19,156,48,48,48,19,14,5,6,0.6,0.6
2022-07-28T01:00:00,1345A,113.2347,23.1423,广州市,广雅中学,,33,33,44,12,22,243,37,37,37,33,21,7,5,1.0,0.7
2022-07-28T01:00:00,1346A,113.2612,23.105,广州市,市五中,,38,38,40,19,24,255,32,32,32,35,19,7,6,0.9,0.7
2022-07-28T01:00:00,1348A,113.3478,23.0916,广州市,广东商学院,,33,33,37,15,21,243,21,21,21,44,23,5,5,0.7,0.7
2022-07-28T01:00:00,1349A,113.4332,23.1047,广州市,市八十六中,,31,31,41,11,19,250,24,24,24,43,28,5,5,0.6,0.5
2022-07-28T01:00:00,1350A,113.3505,22.9483,广州市,番禺中学,,28,28,32,14,17,229,34,34,34,26,16,11,9,0.8,0.7
2022-07-28T01:00:00,1351A,113.2146,23.3916,广州市,花都师范,,35,35,46,16,28,218,45,45,45,38,24,5,6,0.8,0.7
2022-07-28T01:00:00,1352A,113.2597,23.1331,广州市,市监测站,,41,41,37,17,22,246,37,37,37,34,15,5,4,0.9,0.7
2022-07-28T01:00:00,1353A,113.5618,23.312,广州市,九龙镇镇龙,颗粒物(PM10),66,82,62,38,27,248,20,20,20,52,35,7,7,0.9,0.8
2022-07-28T01:00:00,1354A,113.2765,23.1544,广州市,麓湖,,19,15,36,13,23,242,38,38,38,32,16,6,4,0.8,0.7
2022-07-28T01:00:00,1355A,113.443,23.3035,广州市,帽峰山森林公园(对照点),,32,32,37,14,21,254,41,41,41,39,24,7,6,0.9,0.8
2022-07-28T01:00:00,1356A,114.1063,22.5545,深圳市,通心岭子站,,13,13,15,8,8,132,39,39,39,17,15,3,3,0.6,0.6
2022-07-28T01:00:00,1357A,114.117,22.5625,深圳市,洪湖,,24,24,21,7,11,149,37,37,37,22,16,8,8,0.5,0.5
2022-07-28T01:00:00,1358A,113.987,22.5417,深圳市,华侨城,,20,20,19,3,7,118,33,33,33,23,17,6,5,0.6,0.6
2022-07-28T01:00:00,1359A,113.9181,22.5171,深圳市,南海子站,,13,7,22,9,10,133,29,29,29,22,23,4,4,0.6,0.6
2022-07-28T01:00:00,1360A,114.2458,22.5689,深圳市,盐田,,18,17,11,10,11,132,20,20,20,35,29,4,4,0.7,0.6
2022-07-28T01:00:00,1361A,114.2283,22.7244,深圳市,龙岗,,41,31,28,15,12,203,6,6,6,81,31,6,5,0.4,0.4
2022-07-28T01:00:00,1362A,113.8953,22.5861,深圳市,西乡,,,,,,,,,,,,,,,,
2022-07-28T01:00:00,1363A,114.494,22.5422,深圳市,南澳,,13,12,17,1,5,115,40,40,40,14,10,2,7,0.7,0.7
2022-07-28T01:00:00,1364A,114.41,22.6342,深圳市,葵涌,颗粒物(PM10),53,56,14,28,6,94,14,14,14,28,13,7,8,0.5,0.4
2022-07-28T01:00:00,1365A,114.297,22.5978,深圳市,梅沙,,14,14,13,6,7,115,20,20,20,27,17,6,6,0.3,0.3
2022-07-28T01:00:00,1366A,114.0678,22.738,深圳市,观澜,,33,33,38,9,14,192,28,28,28,30,21,7,7,0.5,0.4
2022-07-28T01:00:00,1367A,113.5814,22.2618,珠海市,吉大,,15,9,9,5,6,72,47,47,47,5,3,7,7,0.4,0.4
2022-07-28T01:00:00,1368A,113.4881,22.2335,珠海市,前山,,15,11,15,8,10,103,45,45,45,9,11,8,9,0.2,0.2
2022-07-28T01:00:00,1369A,113.628,22.4251,珠海市,唐家,,16,9,9,9,7,99,49,49,49,11,4,6,6,0.4,0.3
2022-07-28T01:00:00,1370A,113.299,22.2281,珠海市,斗门,,15,14,13,5,6,121,46,46,46,4,6,6,5,0.4,0.4
2022-07-28T01:00:00,1371A,113.1294,23.0067,佛山市,湾梁,,31,31,36,16,20,196,40,40,40,18,13,5,5,0.4,0.4
2022-07-28T01:00:00,1372A,113.1083,23.0478,佛山市,华材职中,,36,36,36,16,21,181,40,40,40,18,13,5,5,0.4,0.3
2022-07-28T01:00:00,1373A,113.144,23.0453,佛山市,南海气象局,,35,35,37,21,23,198,47,47,47,19,14,6,5,0.7,0.6
2022-07-28T01:00:00,1374A,113.2881,22.8094,佛山市,顺德苏岗,,18,17,18,12,14,180,35,35,35,18,12,6,5,0.7,0.6
2022-07-28T01:00:00,1375A,113.2544,22.7642,佛山市,容桂街道办,,,,,,,,,,,,,,,,
2022-07-28T01:00:00,1376A,112.8383,22.8678,佛山市,高明孔堂,,27,27,24,3,9,124,50,50,50,9,9,6,5,0.5,0.5
2022-07-28T01:00:00,1377A,112.8836,23.1588,佛山市,三水监测站,颗粒物(PM10),51,51,43,25,29,153,22,22,22,49,26,12,9,0.6,0.5
2022-07-28T01:00:00,1378A,112.867,23.185,佛山市,三水云东海,颗粒物(PM10),54,58,40,29,28,156,39,39,39,36,18,11,6,0.5,0.4
2022-07-28T01:00:00,1379A,113.3769,22.5211,中山市,华柏园,,16,4,22,8,13,141,49,49,49,5,5,3,3,0.5,0.5
2022-07-28T01:00:00,1380A,113.3881,22.5497,中山市,张溪,,17,14,28,11,10,143,53,53,53,7,7,2,3,0.6,0.6
2022-07-28T01:00:00,1381A,113.4075,22.5111,中山市,紫马岭,,16,16,22,9,11,134,50,50,50,8,8,6,6,0.7,0.6
2022-07-28T01:00:00,1382A,113.4411,22.4853,中山市,长江旅游区(对照点),,19,14,17,13,17,100,53,53,53,5,6,3,3,0.4,0.4
2022-07-28T01:00:00,1383A,113.1064,22.6058,江门市,北街,,20,20,27,9,15,173,39,39,39,12,9,5,5,0.5,0.6
2022-07-28T01:00:00,1384A,113.0731,22.5835,江门市,西区,,23,23,28,14,16,133,40,40,40,15,11,6,6,0.4,0.4
2022-07-28T01:00:00,1385A,113.0219,22.5311,江门市,圭峰西,,23,23,26,9,16,128,40,40,40,10,9,3,4,0.4,0.4
2022-07-28T01:00:00,1386A,113.0828,22.5947,江门市,东湖,,21,21,28,8,16,151,41,41,41,14,10,6,6,0.4,0.5
2022-07-28T01:00:00,1387A,113.7875,23.0457,东莞市,东城主山,,,,,,,,,,,,,,,,
2022-07-28T01:00:00,1388A,113.7533,23.0202,东莞市,南城元岭,,,,,,,,,,,,,,,,
2022-07-28T01:00:00,1389A,113.7547,23.0494,东莞市,莞城梨川,,,,31,,18,275,,,,20,18,7,8,0.4,0.7
2022-07-28T01:00:00,1390A,113.7944,23.0128,东莞市,东城石井,,19,19,25,8,16,279,60,60,60,21,19,6,6,0.5,0.5
2022-07-28T01:00:00,1391A,113.7383,22.9658,东莞市,南城西平,,19,16,26,11,17,232,59,59,59,16,17,7,5,0.8,0.6
2022-07-28T01:00:00,1392A,114.4183,23.0528,惠州市,河南岸金山湖子站,,34,34,40,14,12,227,46,46,46,20,19,3,3,0.4,0.4
2022-07-28T01:00:00,1393A,114.4053,23.0822,惠州市,下埔横江三路子站,,,25,36,,16,222,53,53,53,20,18,3,3,0.4,0.4
2022-07-28T01:00:00,1394A,114.4103,23.1142,惠州市,江北云山西路子站,,26,8,41,18,21,252,66,66,66,16,16,8,6,0.3,0.3
2022-07-28T01:00:00,1395A,114.4645,22.7833,惠州市,惠阳区承修路船湖子站,,18,17,23,12,10,188,56,56,56,20,13,5,5,0.4,0.4
2022-07-28T01:00:00,1396A,114.5317,22.7422,惠州市,大亚湾管委会子站,,18,18,18,8,9,118,48,48,48,21,15,6,6,0.3,0.3
2022-07-28T01:00:00,1397A,112.4267,23.0706,肇庆市,睦岗子站,颗粒物(PM10),53,56,45,31,30,136,31,31,31,46,17,11,11,0.6,0.5
2022-07-28T01:00:00,1398A,112.4645,23.0475,肇庆市,城中子站,,44,44,40,25,26,130,59,59,59,22,18,13,13,0.6,0.6
2022-07-28T01:00:00,1399A,112.5544,23.1522,肇庆市,坑口子站,,40,33,42,28,30,140,62,62,62,10,7,11,10,0.4,0.4
2022-07-28T01:00:00,1400A,112.4753,23.1,肇庆市,七星岩子站(对照点),,,,,,,,,,,,,,,,
2022-07-28T01:00:00,1401A,108.3103,22.7881,南宁市,二十一中,,33,33,30,20,18,99,19,19,19,18,14,7,6,0.6,0.6
2022-07-28T01:00:00,1402A,108.3141,22.8528,南宁市,北湖,,25,25,29,9,15,109,24,24,24,14,13,6,5,0.6,0.5
2022-07-28T01:00:00,1403A,108.3206,22.8225,南宁市,市监测站,,24,24,30,13,16,106,22,22,22,16,18,8,7,0.6,0.6
2022-07-28T01:00:00,1404A,108.3829,22.8037,南宁市,大自然花园,,18,16,24,12,14,117,22,22,22,15,11,9,8,0.6,0.6
2022-07-28T01:00:00,1405A,108.4394,22.7904,南宁市,仙葫(对照点),,24,24,24,14,15,92,25,25,25,11,8,9,8,0.6,0.5
2022-07-28T01:00:00,1406A,108.2397,22.8467,南宁市,区农职院,,25,25,28,11,14,124,22,22,22,20,17,8,9,0.6,0.5
2022-07-28T01:00:00,1407A,108.3275,22.735,南宁市,英华嘉园,,30,30,40,15,15,82,4,4,4,32,23,11,7,0.6,0.5
2022-07-28T01:00:00,1408A,108.2257,22.7757,南宁市,沙井镇街道办,,36,36,35,15,16,106,17,17,17,25,18,8,8,0.7,0.6
2022-07-28T01:00:00,1409A,110.576,19.9507,海口市,东寨港(对照点),,,0,19,10,9,89,9,9,9,,,5,5,0.3,0.3
2022-07-28T01:00:00,1410A,110.3232,20.0574,海口市,海南大学,,17,8,18,6,15,101,53,53,53,1,4,5,6,0.4,0.4
2022-07-28T01:00:00,1411A,110.283,20.0053,海口市,秀英海南医院,,,,,,,,,,,,,,,,
2022-07-28T01:00:00,1412A,110.338,19.9969,海口市,海南师范大学,,22,22,26,11,11,113,21,21,21,8,9,2,3,0.3,0.5
2022-07-28T01:00:00,1413A,110.33,20.0356,海口市,龙华路环保局宿舍,,10,3,22,4,9,123,31,31,31,4,7,2,3,0.4,0.4
2022-07-28T01:00:00,1414A,106.3787,29.8279,重庆市,缙云山(对照点),,34,11,15,10,8,114,108,108,108,6,10,5,4,0.2,0.2
2022-07-28T01:00:00,1416A,106.4213,29.8253,重庆市,天生,,41,41,28,16,15,115,26,26,26,33,17,6,5,0.7,0.6
2022-07-28T01:00:00,1417A,106.6263,29.7228,重庆市,两路,,29,22,27,9,14,100,36,36,36,58,29,10,6,0.8,0.6
2022-07-28T01:00:00,1418A,106.2953,29.5983,重庆市,虎溪,,31,31,29,12,13,120,39,39,39,52,29,5,5,0.5,0.5
2022-07-28T01:00:00,1419A,106.5777,29.5102,重庆市,南坪,,36,36,32,9,12,118,45,45,45,40,19,7,4,0.9,0.6
2022-07-28T01:00:00,1420A,106.6556,29.6277,重庆市,唐家沱,,31,22,20,5,8,110,14,14,14,62,26,6,6,0.7,0.7
2022-07-28T01:00:00,1421A,106.6349,29.4906,重庆市,茶园,颗粒物(PM10),52,53,38,16,13,122,17,17,17,75,36,6,6,0.6,0.5
2022-07-28T01:00:00,1422A,106.3754,29.4572,重庆市,白市驿,,,,23,,11,87,,85,,,15,,4,,0.7
2022-07-28T01:00:00,1425A,106.6205,29.7166,重庆市,空港,,22,22,27,11,12,100,47,47,47,40,18,8,6,0.8,0.6
2022-07-28T01:00:00,1426A,106.4782,29.4875,重庆市,新山村,,38,38,29,21,14,107,27,27,27,67,36,9,5,0.7,0.5
2022-07-28T01:00:00,1427A,106.5616,29.6453,重庆市,礼嘉,,41,37,21,7,9,95,9,9,9,81,35,6,6,0.6,0.4
2022-07-28T01:00:00,1428A,106.4522,29.7091,重庆市,蔡家,,22,22,25,13,13,97,48,48,48,24,17,4,4,0.6,0.6
2022-07-28T01:00:00,1429A,106.5093,29.3917,重庆市,鱼新街,,50,50,30,23,15,90,23,23,23,38,24,6,5,0.9,0.8
2022-07-28T01:00:00,1431A,103.9728,30.7236,成都市,金泉两河,,31,31,33,16,22,120,12,12,12,25,16,2,3,0.4,0.5
2022-07-28T01:00:00,1432A,104.1419,30.6764,成都市,十里店,,26,26,32,15,19,107,48,48,48,27,17,2,2,0.5,0.5
2022-07-28T01:00:00,1433A,104.0594,30.5767,成都市,三瓦窑,,29,24,32,17,20,114,16,16,16,58,29,1,2,0.4,0.4
2022-07-28T01:00:00,1434A,104.1122,30.6306,成都市,沙河铺,,24,24,30,14,20,103,32,32,32,24,19,2,2,0.5,0.5
2022-07-28T01:00:00,1437A,104.0431,30.6556,成都市,君平街,,22,16,29,12,20,110,68,68,68,16,18,5,6,0.5,0.5
2022-07-28T01:00:00,1438A,103.6202,31.0201,成都市,灵岩寺(对照点),,18,13,25,8,19,102,57,57,57,2,3,17,13,0.6,0.6
2022-07-28T01:00:00,1439A,106.6899,26.5998,贵阳市,马鞍山,,12,12,20,5,9,89,36,36,36,12,8,4,5,0.6,0.6
2022-07-28T01:00:00,1440A,106.6971,26.5694,贵阳市,市环保站,,18,14,24,12,13,78,27,27,27,22,14,3,4,0.3,0.4
2022-07-28T01:00:00,1441A,106.6243,26.6266,贵阳市,鉴湖路,,15,7,24,5,11,80,45,45,45,8,7,4,4,0.5,0.5
2022-07-28T01:00:00,1442A,106.7487,26.6343,贵阳市,燕子冲,,25,14,27,17,18,80,32,32,32,10,7,5,6,0.6,0.6
2022-07-28T01:00:00,1443A,106.6555,26.4365,贵阳市,碧云窝,,24,24,31,7,9,78,49,49,49,8,6,4,4,0.3,0.4
2022-07-28T01:00:00,1444A,106.694,26.5161,贵阳市,中院村,,22,22,27,5,9,73,42,42,42,11,10,1,1,0.5,0.5
2022-07-28T01:00:00,1445A,106.7109,26.6027,贵阳市,红边门,,14,14,27,7,18,81,37,37,37,24,18,5,4,0.4,0.4
2022-07-28T01:00:00,1446A,106.7164,26.5699,贵阳市,新华路,,25,5,19,17,13,82,36,36,36,20,8,4,4,0.4,0.3
2022-07-28T01:00:00,1447A,106.674,26.5424,贵阳市,太慈桥,,24,24,26,5,9,80,27,27,27,18,7,5,6,0.3,0.4
2022-07-28T01:00:00,1450A,102.8204,24.8886,昆明市,呈贡新区,,38,38,21,9,9,84,18,18,18,33,12,13,10,0.5,0.5
2022-07-28T01:00:00,1451A,102.6251,24.9608,昆明市,西山森林公园(对照点),,15,14,14,0,9,79,48,48,48,7,10,8,8,0.4,0.4
2022-07-28T01:00:00,1452A,102.7252,25.0902,昆明市,龙泉镇,,23,23,20,9,8,78,21,21,21,33,22,7,8,0.2,0.3
2022-07-28T01:00:00,1453A,102.7266,25.0375,昆明市,东风东路,,20,20,21,11,11,85,25,25,25,24,17,6,6,0.3,0.3
2022-07-28T01:00:00,1454A,102.6742,25.0669,昆明市,金鼎山,,34,34,24,20,13,76,22,22,22,22,16,8,9,0.4,0.4
2022-07-28T01:00:00,1455A,102.6644,25.0401,昆明市,碧鸡广场,,42,42,26,17,11,76,18,18,18,32,22,7,10,0.4,0.5
2022-07-28T01:00:00,1456A,91.1319,29.6514,拉萨市,八廓街,,,,12,5,7,149,111,111,111,13,9,8,7,0.1,0.1
2022-07-28T01:00:00,1457A,91.1221,29.6747,拉萨市,市环保局,,34,11,11,4,5,152,108,108,108,14,12,8,7,0.2,0.1
2022-07-28T01:00:00,1458A,91.0874,29.6475,拉萨市,区监测站,,39,12,9,4,2,160,124,124,124,9,12,8,8,0.1,0.2
2022-07-28T01:00:00,1459A,91.1774,29.6541,拉萨市,西藏大学,,38,10,12,3,7,160,119,119,119,10,11,9,8,0.3,0.4
2022-07-28T01:00:00,1460A,90.9798,29.6588,拉萨市,区辐射站,,33,15,13,8,6,140,104,104,104,13,14,8,8,0.1,0.2
2022-07-28T01:00:00,1461A,91.0834,29.6292,拉萨市,拉萨火车站,,36,17,14,10,5,148,114,114,114,10,11,7,9,0.2,0.2
2022-07-28T01:00:00,1462A,108.882,34.2749,西安市,高压开关厂,,29,29,30,16,14,139,43,43,43,40,19,6,5,0.5,0.4
2022-07-28T01:00:00,1463A,108.993,34.2629,西安市,兴庆小区,,24,24,27,11,18,136,66,66,66,22,17,4,4,0.5,0.6
2022-07-28T01:00:00,1464A,109.06,34.2572,西安市,纺织城,,32,32,30,15,18,139,8,8,8,57,21,5,5,0.4,0.4
2022-07-28T01:00:00,1465A,108.9356,34.2173,西安市,小寨,,24,24,28,10,13,135,57,57,57,27,18,2,2,0.5,0.5
2022-07-28T01:00:00,1466A,108.954,34.2713,西安市,市人民体育场,,29,29,29,11,14,136,62,62,62,26,15,3,4,0.2,0.2
2022-07-28T01:00:00,1467A,108.8922,34.2322,西安市,高新西区,,44,44,28,14,18,133,45,45,45,39,16,6,6,0.7,0.6
2022-07-28T01:00:00,1468A,108.935,34.3474,西安市,经开区,,37,37,27,16,15,139,33,33,33,40,14,2,2,0.4,0.3
2022-07-28T01:00:00,1469A,108.906,34.1546,西安市,长安区,,24,24,28,12,16,137,37,37,37,22,13,5,5,0.4,0.4
2022-07-28T01:00:00,1470A,109.2,34.6575,西安市,阎良区,,,,,,,,,,,,,,,,
2022-07-28T01:00:00,1471A,109.2186,34.3731,西安市,临潼区,,31,31,32,14,17,145,75,75,75,19,14,2,2,0.4,0.3
2022-07-28T01:00:00,1472A,108.869,34.378,西安市,草滩(对照点),,41,41,26,15,11,121,4,4,4,45,19,7,10,0.8,0.6
2022-07-28T01:00:00,1473A,108.985,34.1978,西安市,曲江文化产业集团,,25,25,30,14,16,134,53,53,53,28,17,4,5,0.6,0.6
2022-07-28T01:00:00,1474A,109.051,34.3213,西安市,广运潭,,31,31,28,12,13,135,36,36,36,33,15,5,5,0.6,0.6
2022-07-28T01:00:00,1476A,103.631,36.1031,兰州市,兰炼宾馆,,41,41,28,18,19,153,52,52,52,32,12,4,5,0.3,0.3
2022-07-28T01:00:00,1477A,104.1373,35.9454,兰州市,榆中兰大校区(对照点),,,,,,,,,,,,,,,,
2022-07-28T01:00:00,1478A,103.8412,36.0726,兰州市,生物制品所,颗粒物(PM10),53,55,32,28,18,158,9,9,9,59,14,5,6,0.7,0.7
2022-07-28T01:00:00,1479A,103.831,36.0464,兰州市,铁路设计院,颗粒物(PM10),58,66,33,17,15,168,45,45,45,46,16,10,5,0.8,0.5
2022-07-28T01:00:00,1480A,101.748,36.6428,西宁市,市环境监测站,,,,,,,,,,,,,,,,
2022-07-28T01:00:00,1482A,101.834,36.5819,西宁市,四陆医院,,,,,,,,,,,,,,,,
2022-07-28T01:00:00,1483A,101.524,36.6867,西宁市,第五水厂(对照点),,,,,,,,,,,,,,,,
2022-07-28T01:00:00,1484A,105.9512,38.6016,银川市,贺兰山马莲口(对照点),,33,22,22,16,12,157,103,103,103,10,10,8,9,0.2,0.2
2022-07-28T01:00:00,1488A,106.2328,38.4975,银川市,贺兰山东路,,38,35,21,18,10,144,29,29,29,75,19,9,9,0.8,0.4
2022-07-28T01:00:00,1489A,106.1358,38.5036,银川市,学院路,颗粒物(PM10),53,55,38,31,15,146,36,36,36,52,21,8,9,0.7,0.5
2022-07-28T01:00:00,1490A,87.5801,43.8303,乌鲁木齐市,监测站,颗粒物(PM10),53,55,54,18,15,139,6,6,6,98,49,5,5,0.6,0.5
2022-07-28T01:00:00,1491A,87.6046,43.768,乌鲁木齐市,收费所,颗粒物(PM10),72,93,69,41,22,136,3,3,3,89,46,7,8,0.5,0.5
2022-07-28T01:00:00,1492A,87.4754,43.9469,乌鲁木齐市,新疆农科院农场(对照点),颗粒物(PM10),110,170,132,59,34,130,1,1,1,86,46,7,8,0.9,0.8
2022-07-28T01:00:00,1493A,87.5525,43.8711,乌鲁木齐市,铁路局,颗粒物(PM10),56,61,61,31,20,156,3,3,3,94,49,3,5,0.9,0.8
2022-07-28T01:00:00,1494A,87.6432,43.831,乌鲁木齐市,三十一中学,颗粒物(PM10),54,57,62,3,14,146,27,27,27,59,27,5,6,0.4,0.4
2022-07-28T01:00:00,1496A,87.7216,44.1747,乌鲁木齐市,米东区环保局,颗粒物(PM10),59,67,83,18,21,165,24,24,24,47,30,5,7,0.6,0.5
2022-07-28T01:00:00,1508A,112.9433,27.8614,湘潭市,板塘,颗粒物(PM10),53,55,44,26,24,131,24,24,24,62,21,7,8,0.8,0.7
2022-07-28T01:00:00,1511A,112.9118,27.8403,湘潭市,市监测站,,45,27,34,31,26,137,70,70,70,24,16,13,15,0.6,0.6
2022-07-28T01:00:00,1512A,112.8937,27.8728,湘潭市,江麓,颗粒物(PM10),53,55,46,19,20,114,40,40,40,38,20,28,38,1.1,1.4
2022-07-28T01:00:00,1513A,112.9227,27.8159,湘潭市,岳塘,,50,50,41,24,24,137,60,60,60,21,10,26,23,0.7,0.7
2022-07-28T01:00:00,1514A,112.9074,27.9119,湘潭市,科大,颗粒物(PM10),55,60,46,24,18,124,18,18,18,62,20,9,13,0.5,0.6
2022-07-28T01:00:00,1515A,113.135,27.8244,株洲市,天台山庄,,30,30,26,20,27,135,58,58,58,17,12,6,7,0.5,0.5
2022-07-28T01:00:00,1518A,113.095,27.8867,株洲市,株冶医院,颗粒物(PM10),57,63,31,18,16,150,25,25,25,46,16,8,8,0.7,0.5
2022-07-28T01:00:00,1519A,113.167,27.8667,株洲市,市四中,细颗粒物(PM2.5),78,46,35,57,24,134,64,64,64,16,18,5,6,0.0,0.6
2022-07-28T01:00:00,1520A,113.143,27.8381,株洲市,火车站,,41,41,34,23,21,143,48,48,48,27,19,7,8,0.5,0.5
2022-07-28T01:00:00,1524A,113.13,27.8528,株洲市,市监测站,,41,41,37,26,27,140,63,63,63,17,14,4,4,0.6,0.6
2022-07-28T01:00:00,1552A,106.805,26.3003,贵阳市,桐木岭(对照点),,,,,,,,,,,,,,,,
2022-07-28T01:00:00,1559A,113.251,27.8336,株洲市,大京风景区(对照点),,28,13,20,19,20,106,21,21,21,7,6,3,5,0.5,0.6
2022-07-28T01:00:00,1562A,113.0048,27.9153,湘潭市,昭山,,41,41,36,28,23,132,10,10,10,56,22,8,8,0.6,0.5
2022-07-28T01:00:00,1564A,112.4876,27.9164,湘潭市,韶山(对照点),,36,36,29,5,11,104,44,44,44,14,13,6,8,0.8,0.6
2022-07-28T01:00:00,1585A,109.8756,40.6532,包头市,市环境监测站,,38,38,37,11,16,151,96,96,96,17,16,51,12,1.2,0.7
2022-07-28T01:00:00,1587A,109.9991,40.5842,包头市,包头八中,,43,43,40,12,18,168,115,115,115,11,18,12,18,0.4,0.6
2022-07-28T01:00:00,1588A,109.8538,40.6821,包头市,青山宾馆,,35,28,34,7,16,149,111,111,111,12,22,13,11,0.5,0.7
2022-07-28T01:00:00,1589A,109.8642,40.6288,包头市,惠龙物流,,39,39,39,13,17,170,108,108,108,15,17,16,14,0.5,0.6
2022-07-28T01:00:00,1590A,110.0377,40.5546,包头市,东河鸿龙湾,,34,34,36,2,14,164,106,106,106,9,12,8,8,0.4,0.5
2022-07-28T01:00:00,1591A,110.0023,39.8129,鄂尔多斯市,综合楼,,40,40,40,11,15,152,77,77,77,21,21,8,10,0.6,0.8
2022-07-28T01:00:00,1592A,109.9486,39.8261,鄂尔多斯市,巴音孟克林场办事处,,46,46,41,12,16,118,62,62,62,25,17,5,7,0.7,0.7
2022-07-28T01:00:00,1593A,109.7736,39.5986,鄂尔多斯市,康泽苑,颗粒物(PM10),53,56,30,19,11,165,79,79,79,20,15,10,6,0.7,0.6
2022-07-28T01:00:00,1594A,109.8119,39.5989,鄂尔多斯市,华泰汽车城,颗粒物(PM10),51,51,33,22,15,154,74,74,74,21,18,12,8,0.8,0.7
2022-07-28T01:00:00,1595A,109.9734,39.7884,鄂尔多斯市,奥林花园,颗粒物(PM10),53,56,48,19,19,145,67,67,67,26,25,5,6,1.0,1.1
2022-07-28T01:00:00,1596A,122.2414,40.6592,营口市,学府南路,,,,,,,,,,,,,,,,
2022-07-28T01:00:00,1597A,122.2703,40.7094,营口市,大庆路,,36,36,55,13,32,189,91,91,91,13,21,4,8,0.9,1.3
2022-07-28T01:00:00,1598A,122.215,40.6511,营口市,镜湖西路,,30,26,40,9,23,156,95,95,95,13,21,4,5,0.3,0.9
2022-07-28T01:00:00,1599A,122.167,40.6655,营口市,西炮台,,24,22,39,11,20,205,76,76,76,16,17,12,14,1.0,1.4
2022-07-28T01:00:00,1600A,124.3303,40.0625,丹东市,江湾东路,,45,45,41,23,25,135,48,48,48,12,11,8,9,0.6,0.6
2022-07-28T01:00:00,1601A,124.4256,40.1503,丹东市,临江后街,,24,24,30,14,19,134,51,51,51,6,8,12,12,0.6,0.7
2022-07-28T01:00:00,1602A,124.3933,40.1461,丹东市,元宝山,,28,28,34,16,22,125,38,38,38,12,11,4,4,0.6,0.6
2022-07-28T01:00:00,1603A,124.3633,40.1092,丹东市,民主桥,,31,31,37,16,21,130,30,30,30,22,14,4,8,0.8,0.8
2022-07-28T01:00:00,1604A,122.0303,41.1489,盘锦市,开发区,,33,31,46,23,28,166,60,60,60,36,21,5,5,0.8,0.9
2022-07-28T01:00:00,1605A,122.0485,41.0883,盘锦市,兴隆台,,39,39,43,22,27,168,52,52,52,41,25,4,4,0.7,0.8
2022-07-28T01:00:00,1606A,121.8297,41.1028,盘锦市,新生街道,,24,24,28,13,18,137,49,49,49,7,10,5,5,0.6,0.6
2022-07-28T01:00:00,1607A,120.9092,40.7136,葫芦岛市,龙港区,细颗粒物(PM2.5),74,33,30,54,28,128,84,84,84,7,10,4,5,0.6,0.5
2022-07-28T01:00:00,1608A,120.8392,40.7514,葫芦岛市,化工街,,49,39,37,34,25,131,79,79,79,17,17,5,5,0.5,0.5
2022-07-28T01:00:00,1609A,120.8341,40.7073,葫芦岛市,新区,,33,28,35,23,27,137,97,97,97,3,14,3,4,0.6,0.6
2022-07-28T01:00:00,1610A,120.8695,40.7677,葫芦岛市,东城区,细颗粒物(PM2.5),108,58,43,81,34,123,50,50,50,38,20,6,10,0.5,0.4
2022-07-28T01:00:00,1611A,118.5819,24.9117,泉州市,涂山街,,47,47,39,15,18,162,27,27,27,32,23,8,10,0.5,0.5
2022-07-28T01:00:00,1612A,118.5972,24.8978,泉州市,津头埔,,43,43,38,16,18,146,30,30,30,29,29,10,8,0.4,0.3
2022-07-28T01:00:00,1613A,118.6663,24.9424,泉州市,万安,,39,39,41,14,19,154,32,32,32,16,16,10,8,0.5,0.5
2022-07-28T01:00:00,1614A,118.6117,24.9604,泉州市,清源山(对照点),,,,,,,,,,,,,,,,
2022-07-28T01:00:00,1616A,117.6795,36.229,济南市,技术学院,,34,34,29,23,16,175,78,78,78,24,18,4,5,0.6,0.6
2022-07-28T01:00:00,1618A,118.3429,35.0532,临沂市,沂河小区,,43,39,26,30,14,164,79,79,79,25,16,7,6,0.4,0.4
2022-07-28T01:00:00,1619A,118.295,35.0583,临沂市,鲁南制药厂,,48,27,19,33,15,168,82,82,82,32,16,6,5,0.6,0.5
2022-07-28T01:00:00,1620A,118.2794,34.9976,临沂市,新光毛纺厂,,31,31,25,17,13,196,72,72,72,36,21,5,6,0.4,0.5
2022-07-28T01:00:00,1621A,118.3956,35.0888,临沂市,河东保险公司,,39,39,20,16,12,146,44,44,44,45,17,6,5,0.4,0.4
2022-07-28T01:00:00,1622A,116.3032,37.4674,德州市,儿童乐园,,50,46,42,35,28,163,74,74,74,16,16,7,8,0.4,0.5
2022-07-28T01:00:00,1624A,116.2991,37.4451,德州市,监理站,,40,40,39,22,21,169,86,86,86,16,16,8,8,0.4,0.4
2022-07-28T01:00:00,1625A,115.9848,36.4372,聊城市,区政府,,39,7,51,0,31,185,122,122,122,6,17,9,11,0.8,1.1
2022-07-28T01:00:00,1628A,118.0062,37.3803,滨州市,市环保局,,43,38,29,30,22,167,90,90,90,13,10,18,6,0.2,0.2
2022-07-28T01:00:00,1629A,118.0018,37.3617,滨州市,第二水厂,,36,26,28,25,19,160,85,85,85,12,11,6,8,0.6,0.6
2022-07-28T01:00:00,1630A,117.9776,37.393,滨州市,北中新校,,34,34,27,17,17,159,79,79,79,11,10,10,10,0.3,0.3
2022-07-28T01:00:00,1631A,118.0414,36.8103,淄博市,人民公园,细颗粒物(PM2.5),55,48,38,39,23,176,69,69,69,21,18,18,9,0.6,0.5
2022-07-28T01:00:00,1632A,118.0253,36.8406,淄博市,东风化工厂,,,,,,,,,,,,,,,,
2022-07-28T01:00:00,1633A,117.8525,36.4847,淄博市,双山,颗粒物(PM10),53,56,35,26,17,167,29,29,29,33,21,12,9,0.6,0.4
2022-07-28T01:00:00,1634A,117.9592,36.6331,淄博市,气象站,颗粒物(PM10),67,84,44,34,22,190,39,39,39,37,22,15,15,0.7,0.4
2022-07-28T01:00:00,1635A,118.3092,36.8194,淄博市,莆田园,,49,46,27,34,23,158,56,56,56,32,17,9,7,0.4,0.4
2022-07-28T01:00:00,1636A,117.8661,36.805,淄博市,三金集团,,,,,,,,,,,,,,,,
2022-07-28T01:00:00,1637A,117.558,34.8438,枣庄市,市中区政府,颗粒物(PM10),53,56,53,24,27,180,128,128,128,19,20,11,12,0.5,0.5
2022-07-28T01:00:00,1638A,117.2852,34.7837,枣庄市,薛城环保局,颗粒物(PM10),52,54,57,31,34,188,109,109,109,17,13,8,15,0.4,0.5
2022-07-28T01:00:00,1639A,117.5852,34.7745,枣庄市,峄城区政府,细颗粒物(PM2.5),73,78,64,53,40,190,97,97,97,20,17,6,9,0.6,0.6
2022-07-28T01:00:00,1640A,117.7276,34.5578,枣庄市,台儿庄区环保局,颗粒物(PM10),56,61,54,39,31,155,71,71,71,30,13,12,11,0.7,0.7
2022-07-28T01:00:00,1641A,117.4518,35.0992,枣庄市,山亭区环保局,细颗粒物(PM2.5),55,58,37,39,25,156,127,127,127,12,11,11,11,0.6,0.6
2022-07-28T01:00:00,1642A,121.2514,37.5639,烟台市,开发区,,24,5,17,2,8,104,76,76,76,6,6,6,6,0.5,0.5
2022-07-28T01:00:00,1643A,121.3719,37.5433,烟台市,轴承厂,,26,5,16,10,10,109,83,83,83,1,4,5,5,0.1,0.2
2022-07-28T01:00:00,1644A,121.3181,37.5436,烟台市,西郊化工站,,27,0,16,0,6,99,84,84,84,2,8,6,8,0.3,0.3
2022-07-28T01:00:00,1645A,121.4478,37.4822,烟台市,莱山环保局,,25,0,10,1,6,110,78,78,78,2,2,6,6,0.4,0.4
2022-07-28T01:00:00,1646A,121.2611,37.4967,烟台市,福山环保局,,23,9,23,5,9,91,71,71,71,9,14,9,9,0.4,0.5
2022-07-28T01:00:00,1648A,119.12,36.7019,潍坊市,仲裁委,,,,,,,,,,,,,,,,
2022-07-28T01:00:00,1650A,119.1437,36.7023,潍坊市,环保局,,26,14,23,5,15,129,82,82,82,7,7,7,5,0.5,0.4
2022-07-28T01:00:00,1652A,119.1936,36.7729,潍坊市,寒亭监测站,,,,,,,,,,,,,,,,
2022-07-28T01:00:00,1653A,116.6251,35.4302,济宁市,火炬城,颗粒物(PM10),57,64,46,19,27,197,87,87,87,17,11,7,9,0.5,0.6
2022-07-28T01:00:00,1655A,116.5491,35.4042,济宁市,电化厂,颗粒物(PM10),55,60,45,9,27,206,91,91,91,10,8,5,9,0.6,0.8
2022-07-28T01:00:00,1656A,117.1437,36.1937,泰安市,监测站,,46,46,36,32,20,164,96,96,96,19,11,7,7,0.5,0.5
2022-07-28T01:00:00,1657A,117.0885,36.2017,泰安市,人口学校,,44,44,35,22,16,179,114,114,114,14,12,10,9,0.8,0.5
2022-07-28T01:00:00,1658A,117.1089,36.1758,泰安市,电力学校,细颗粒物(PM2.5),53,44,35,37,19,165,83,83,83,20,9,8,9,0.6,0.4
2022-07-28T01:00:00,1659A,119.471,35.4209,日照市,监测站,,35,22,24,24,17,145,96,96,96,14,19,4,4,0.5,0.6
2022-07-28T01:00:00,1660A,119.523,35.4216,日照市,市政府广场,,34,22,27,10,16,122,107,107,107,10,22,5,6,0.5,0.6
2022-07-28T01:00:00,1661A,119.5587,35.4044,日照市,港务局,,40,12,25,12,13,147,125,125,125,8,19,4,4,0.6,0.7
2022-07-28T01:00:00,1662A,122.1214,37.4236,威海市,华夏技校,,28,7,14,7,11,93,87,87,87,4,8,5,4,0.3,0.3
2022-07-28T01:00:00,1663A,122.0508,37.5236,威海市,山大分校,,30,7,16,7,11,106,94,94,94,7,11,3,3,0.2,0.3
2022-07-28T01:00:00,1664A,122.1067,37.5072,威海市,市监测站,,27,10,17,10,16,94,86,86,86,5,16,4,4,0.2,0.3
2022-07-28T01:00:00,1665A,118.5019,37.4658,东营市,西城阳光环保公司,,,,,,,,,,,,,,,,
2022-07-28T01:00:00,1666A,118.6614,37.4309,东营市,市环保局,,29,17,16,7,10,110,91,91,91,1,4,6,8,0.3,0.3
2022-07-28T01:00:00,1669A,113.5824,24.7733,韶关市,市八中,细颗粒物(PM2.5),57,58,66,40,35,167,84,84,84,24,22,6,10,0.6,0.7
2022-07-28T01:00:00,1670A,113.5556,24.8082,韶关市,碧湖山庄,,,,,,,,,,,,,,,,
2022-07-28T01:00:00,1671A,113.5917,24.7972,韶关市,园林处,细颗粒物(PM2.5),59,44,57,42,41,155,79,79,79,18,15,6,6,0.6,0.5
2022-07-28T01:00:00,1672A,113.6735,24.7791,韶关市,韶关学院,颗粒物(PM10),54,58,63,37,39,171,89,89,89,17,14,9,12,0.7,0.7
2022-07-28T01:00:00,1673A,113.5971,24.6863,韶关市,曲江监测站,颗粒物(PM10),56,61,59,32,36,169,72,72,72,28,19,11,11,0.6,0.6
2022-07-28T01:00:00,1674A,116.6794,23.3667,汕头市,金平子站,,25,25,21,14,11,107,47,47,47,14,10,6,7,0.6,0.6
2022-07-28T01:00:00,1675A,116.7244,23.3633,汕头市,龙湖子站,,21,21,23,3,6,100,42,42,42,18,11,8,9,0.6,0.6
2022-07-28T01:00:00,1676A,116.7258,23.2775,汕头市,濠江子站,,16,15,16,11,5,78,41,41,41,12,8,10,10,0.5,0.5
2022-07-28T01:00:00,1677A,116.7519,23.4714,汕头市,澄海子站,,47,47,34,15,16,126,31,31,31,22,17,6,8,0.7,0.8
2022-07-28T01:00:00,1678A,116.6092,23.2539,汕头市,潮阳子站,,29,29,18,15,9,94,58,58,58,8,5,10,10,0.4,0.4
2022-07-28T01:00:00,1679A,116.4069,23.2533,汕头市,潮南子站,,,,,,,,,,,,,,,,
2022-07-28T01:00:00,1680A,110.3539,21.2706,湛江市,湛江影剧院,,36,36,35,17,17,154,37,37,37,16,10,11,10,0.6,0.5
2022-07-28T01:00:00,1681A,110.3928,21.2228,湛江市,市环境监测站,,33,33,31,22,17,133,52,52,52,11,12,13,7,0.6,0.5
2022-07-28T01:00:00,1682A,110.4019,21.1997,湛江市,环保局宿舍,,27,27,29,18,16,116,58,58,58,7,10,4,5,0.5,0.5
2022-07-28T01:00:00,1683A,110.4111,21.2028,湛江市,霞山游泳场,,32,32,28,12,17,114,60,60,60,8,13,10,6,0.6,0.5
2022-07-28T01:00:00,1684A,110.3316,21.2679,湛江市,麻章区环保局,,32,24,32,22,19,105,29,29,29,19,9,10,7,0.5,0.5
2022-07-28T01:00:00,1685A,110.4558,21.2567,湛江市,坡头区环保局,,28,23,29,19,21,138,57,57,57,12,11,6,6,0.5,0.5
2022-07-28T01:00:00,1686A,111.0286,21.4688,茂名市,电白南海,,19,19,28,12,15,100,60,60,60,5,6,4,4,0.4,0.5
2022-07-28T01:00:00,1687A,110.9294,21.6533,茂名市,茂石化七小,,31,31,34,12,18,108,65,65,65,9,8,6,5,0.5,0.5
2022-07-28T01:00:00,1688A,110.9107,21.6687,茂名市,健康路,,23,19,32,13,17,128,73,73,73,2,4,9,8,0.5,0.6
2022-07-28T01:00:00,1689A,110.8592,21.6828,茂名市,高岭,,28,22,32,19,24,120,65,65,65,11,7,7,9,0.5,0.6
2022-07-28T01:00:00,1690A,116.1231,24.3284,梅州市,梅江月梅,,49,49,39,21,21,119,42,42,42,24,12,5,4,0.6,0.6
2022-07-28T01:00:00,1691A,116.0797,24.2719,梅州市,梅县新城,,36,36,38,25,24,121,51,51,51,17,14,5,5,0.7,0.6
2022-07-28T01:00:00,1692A,116.1248,24.2654,梅州市,环境监控中心,,46,46,36,22,20,115,50,50,50,22,14,5,5,0.8,0.6
2022-07-28T01:00:00,1693A,115.3653,22.775,汕尾市,市环保局,,18,14,12,5,6,75,55,55,55,5,6,6,6,0.5,0.5
2022-07-28T01:00:00,1694A,115.3706,22.7898,汕尾市,市政府,,19,10,9,2,6,83,59,59,59,5,4,6,6,0.6,0.6
2022-07-28T01:00:00,1695A,115.3622,22.7925,汕尾市,新城中学,,19,10,15,8,6,84,59,59,59,4,3,6,6,0.5,0.5
2022-07-28T01:00:00,1696A,114.6778,23.7569,河源市,源西(对照点),颗粒物(PM10),51,52,38,22,21,185,71,71,71,23,12,3,4,0.6,0.5
2022-07-28T01:00:00,1697A,114.6944,23.7586,河源市,东埔,,50,50,38,22,20,194,81,81,81,22,14,4,4,0.6,0.5
2022-07-28T01:00:00,1698A,114.6892,23.7233,河源市,老城,颗粒物(PM10),60,69,40,19,18,204,60,60,60,33,15,2,2,0.6,0.6
2022-07-28T01:00:00,1699A,111.9797,21.8593,阳江市,鸳鸯湖(对照点),,,,,,,,,,,,,,,,
2022-07-28T01:00:00,1700A,111.9508,21.8536,阳江市,南恩路,,,,,,,,,,,,,,,,
2022-07-28T01:00:00,1701A,111.9491,21.8658,阳江市,马南垌,,15,14,24,7,15,112,45,45,45,3,5,5,5,0.4,0.5
2022-07-28T01:00:00,1702A,113.0426,23.691,清远市,环保大楼(对照点),细颗粒物(PM2.5),59,65,50,42,33,188,115,115,115,16,13,4,5,0.6,0.6
2022-07-28T01:00:00,1703A,113.0208,23.7106,清远市,凤城街办,细颗粒物(PM2.5),59,61,47,42,32,150,92,92,92,15,15,3,3,0.8,0.8
2022-07-28T01:00:00,1705A,116.6367,23.6719,潮州市,西园路(对照点),,37,37,36,18,17,138,58,58,58,13,14,5,7,0.8,0.8
2022-07-28T01:00:00,1706A,116.6447,23.6706,潮州市,档案局,,30,30,36,21,16,160,50,50,50,15,15,7,10,0.7,0.7
2022-07-28T01:00:00,1708A,116.3701,23.5345,揭阳市,新兴,,23,21,33,16,18,126,52,52,52,7,6,7,6,0.7,0.6
2022-07-28T01:00:00,1709A,116.3264,23.5443,揭阳市,西马,,40,40,31,13,16,117,57,57,57,5,5,8,7,0.5,0.4
2022-07-28T01:00:00,1710A,116.3611,23.5626,揭阳市,东兴,颗粒物(PM10),57,64,38,22,16,120,32,32,32,27,10,15,6,0.9,0.7
2022-07-28T01:00:00,1711A,116.4151,23.5294,揭阳市,渔湖,,45,40,39,31,21,123,27,27,27,24,12,15,7,0.8,0.6
2022-07-28T01:00:00,1712A,112.0392,22.9169,云浮市,新市府(对照点),,,,,,,,,,,,,,,,
2022-07-28T01:00:00,1713A,112.0369,22.9394,云浮市,市监测站,,,,,,,,,,,,,,,,
2022-07-28T01:00:00,1714A,112.0539,22.9539,云浮市,牧羊,,49,49,53,19,27,123,36,36,36,18,14,10,11,0.6,0.5
2022-07-28T01:00:00,1715A,102.575,24.3711,玉溪市,东风水库,,30,30,16,10,8,69,26,26,26,17,13,4,4,0.5,0.7
2022-07-28T01:00:00,1718A,115.4208,35.2464,菏泽市,气象局,,26,0,53,2,34,198,83,83,83,12,12,4,4,0.3,0.4
2022-07-28T01:00:00,1719A,115.4747,35.2375,菏泽市,市政协,,26,11,57,2,30,209,81,81,81,12,12,7,8,0.1,0.2
2022-07-28T01:00:00,1720A,115.455,35.27,菏泽市,菏泽学院,,,,,,,,,,,,,,,,
2022-07-28T01:00:00,1721A,113.3819,40.1097,大同市,果树场(对照点),,,,,,,,,,,,,,,,
2022-07-28T01:00:00,1723A,113.2994,40.0758,大同市,云冈宾馆,,32,32,66,6,24,115,60,60,60,32,31,22,14,0.4,0.9
2022-07-28T01:00:00,1724A,113.3444,40.0917,大同市,大同大学,,21,20,46,8,23,125,65,65,65,32,24,13,21,0.3,0.5
2022-07-28T01:00:00,1725A,113.2661,40.1269,大同市,安家小村,,32,32,46,16,21,128,74,74,74,26,26,10,19,0.4,0.7
2022-07-28T01:00:00,1726A,113.2711,40.0844,大同市,教育学院,,35,35,64,4,25,108,77,77,77,24,30,18,20,0.4,0.9
2022-07-28T01:00:00,1727A,113.1147,36.1547,长治市,清华站,,23,23,39,14,26,125,54,54,54,20,13,9,9,0.6,0.9
2022-07-28T01:00:00,1728A,113.1031,36.1989,长治市,监测站,,22,21,43,9,24,133,70,70,70,16,15,9,9,0.6,0.8
2022-07-28T01:00:00,1730A,113.0886,36.2125,长治市,审计局,,27,18,34,9,30,159,84,84,84,15,17,9,9,0.6,0.8
2022-07-28T01:00:00,1731A,113.0844,36.1856,长治市,长治八中,,23,19,38,15,30,138,71,71,71,15,16,10,10,0.8,1.1
2022-07-28T01:00:00,1733A,111.5531,36.0783,临汾市,临钢医院,,19,9,18,7,15,129,58,58,58,26,15,2,2,0.4,0.4
2022-07-28T01:00:00,1734A,111.5028,36.0714,临汾市,技工学校,,22,6,15,11,17,124,69,69,69,16,11,2,2,0.5,0.7
2022-07-28T01:00:00,1735A,111.5169,36.0822,临汾市,工商学校,,,,,,,,,,,,,,,,
2022-07-28T01:00:00,1736A,111.5018,36.0855,临汾市,市委,,22,22,24,12,21,127,66,66,66,17,12,5,2,0.5,0.6
2022-07-28T01:00:00,1738A,113.5758,37.8572,阳泉市,市中心,,29,29,55,4,23,112,11,11,11,58,31,9,21,0.6,0.9
2022-07-28T01:00:00,1739A,113.4894,37.8731,阳泉市,赛鱼,,27,12,40,7,17,97,11,11,11,53,25,8,10,0.5,0.7
2022-07-28T01:00:00,1740A,113.5819,37.8486,阳泉市,南庄,,28,11,51,19,29,113,47,47,47,22,23,8,23,0.6,0.9
2022-07-28T01:00:00,1741A,113.6292,37.8531,阳泉市,白羊墅,,,,,,,,,,,,,,,,
2022-07-28T01:00:00,1742A,113.5614,37.8703,阳泉市,平坦,,33,29,52,6,18,118,11,11,11,66,32,9,16,0.7,1
2022-07-28T01:00:00,1743A,113.5158,37.8392,阳泉市,大阳泉,,19,7,27,5,19,115,60,60,60,22,15,5,7,0.5,0.7
2022-07-28T01:00:00,1744A,118.9233,42.2816,赤峰市,松山一中,,26,9,29,2,11,124,82,82,82,11,17,8,9,0.6,0.7
2022-07-28T01:00:00,1745A,118.9576,42.2728,赤峰市,哈达街,,27,5,27,6,11,134,84,84,84,9,18,9,11,0.3,0.5
2022-07-28T01:00:00,1746A,118.8788,42.2554,赤峰市,天义路,,27,5,23,2,12,117,85,85,85,9,17,10,10,0.3,0.4
2022-07-28T01:00:00,1748A,123.044,41.1196,鞍山市,深沟寺,,23,23,32,14,21,139,67,67,67,7,9,6,6,0.6,0.6
2022-07-28T01:00:00,1749A,123.011,41.0931,鞍山市,太阳城,,27,19,33,14,22,131,84,84,84,7,12,5,6,0.7,1
2022-07-28T01:00:00,1750A,123.0485,41.1442,鞍山市,太平,,25,20,35,14,22,142,79,79,79,6,13,4,5,0.6,0.8
2022-07-28T01:00:00,1751A,122.9642,41.0971,鞍山市,铁西三道街,,29,29,51,13,24,149,87,87,87,14,23,5,7,0.9,1.1
2022-07-28T01:00:00,1752A,122.9341,41.0833,鞍山市,铁西工业园区,,39,39,49,15,25,146,37,37,37,33,22,6,7,0.9,1.2
2022-07-28T01:00:00,1753A,123.022,41.0821,鞍山市,明达新区,,28,24,36,15,23,134,89,89,89,6,11,4,4,0.4,0.7
2022-07-28T01:00:00,1754A,123.1289,41.0228,鞍山市,千山(对照点),,,,,,,,,,,,,,,,
2022-07-28T01:00:00,1755A,123.7977,41.8491,抚顺市,望花区,,39,39,58,16,31,172,49,49,49,18,22,4,5,0.4,0.8
2022-07-28T01:00:00,1756A,123.9161,41.8822,抚顺市,顺城区,,20,18,44,9,28,168,62,62,62,15,22,7,8,0.5,0.8
2022-07-28T01:00:00,1757A,124.0436,41.8611,抚顺市,东洲区,,38,38,32,10,20,141,64,64,64,5,7,7,8,0.3,0.5
2022-07-28T01:00:00,1758A,123.9247,41.8642,抚顺市,新抚区,,30,30,45,18,23,169,49,49,49,23,18,5,4,0.6,0.8
2022-07-28T01:00:00,1759A,124.0972,41.8961,抚顺市,大伙房水库,,23,23,28,16,20,125,59,59,59,8,7,5,5,0.5,0.6
2022-07-28T01:00:00,1760A,123.7086,41.8391,抚顺市,沈抚新城,,29,29,56,17,36,192,44,44,44,20,23,6,5,0.6,1
2022-07-28T01:00:00,1761A,123.8275,41.3064,本溪市,大峪,,48,48,38,26,21,117,19,19,19,22,15,5,5,0.8,0.8
2022-07-28T01:00:00,1762A,123.7567,41.3325,本溪市,溪湖,颗粒物(PM10),70,90,55,34,26,119,22,22,22,24,20,5,6,1.1,1.1
2022-07-28T01:00:00,1763A,123.7169,41.3094,本溪市,彩屯,细颗粒物(PM2.5),54,50,51,38,31,111,18,18,18,16,22,4,5,1.1,1.1
2022-07-28T01:00:00,1764A,123.7669,41.2864,本溪市,东明,颗粒物(PM10),52,53,52,29,24,121,30,30,30,25,23,5,5,0.6,0.7
2022-07-28T01:00:00,1765A,123.7992,41.2664,本溪市,新立屯,,38,38,45,25,24,122,45,45,45,22,16,2,3,0.7,0.8
2022-07-28T01:00:00,1766A,123.8142,41.3472,本溪市,威宁,颗粒物(PM10),51,52,47,22,20,114,12,12,12,19,14,8,8,0.6,0.6
2022-07-28T01:00:00,1767A,121.1115,41.0879,锦州市,南山,细颗粒物(PM2.5),59,49,34,42,26,116,49,49,49,25,17,5,12,0.7,0.8
2022-07-28T01:00:00,1768A,121.0533,40.8434,锦州市,开发区,,35,19,42,24,31,136,65,65,65,27,24,3,11,0.8,0.8
2022-07-28T01:00:00,1769A,121.1836,41.1119,锦州市,百股街道,,35,26,30,24,26,126,78,78,78,10,11,4,21,0.6,0.7
2022-07-28T01:00:00,1770A,121.1178,41.1222,锦州市,天安街道,,48,31,38,33,26,123,80,80,80,17,17,5,11,0.7,0.8
2022-07-28T01:00:00,1771A,121.1303,41.1386,锦州市,北湖公园,,38,18,34,26,27,114,81,81,81,9,16,3,13,0.5,0.7
2022-07-28T01:00:00,1772A,126.54,43.8622,吉林市,哈达湾,,25,19,28,8,16,130,79,79,79,5,9,5,5,0.5,0.6
2022-07-28T01:00:00,1773A,126.5844,43.8358,吉林市,东局子,,24,19,27,10,18,123,74,74,74,5,10,7,8,0.5,0.7
2022-07-28T01:00:00,1774A,126.5052,43.8245,吉林市,电力学院,,22,22,34,9,19,118,41,41,41,17,11,7,7,0.5,0.6
2022-07-28T01:00:00,1775A,126.6133,43.8972,吉林市,江北,,23,23,29,11,18,113,36,36,36,30,12,6,6,0.7,0.8
2022-07-28T01:00:00,1776A,126.555,43.8306,吉林市,江南公园,,24,17,26,9,18,120,75,75,75,7,13,4,4,0.5,0.6
2022-07-28T01:00:00,1778A,126.7061,43.7133,吉林市,丰满(对照点),,,,,,,,,,,,,,,,
2022-07-28T01:00:00,1779A,123.9305,47.3636,齐齐哈尔市,安居小区,,42,42,50,24,18,113,86,86,86,11,17,5,5,0.6,0.6
2022-07-28T01:00:00,1780A,123.9488,47.3386,齐齐哈尔市,中心广场,,42,42,36,24,17,107,80,80,80,8,13,4,4,0.4,0.4
2022-07-28T01:00:00,1781A,123.9483,47.3227,齐齐哈尔市,农牧车辆厂,,48,48,45,21,14,112,90,90,90,4,4,3,3,0.5,0.5
2022-07-28T01:00:00,1783A,123.945,47.2988,齐齐哈尔市,市环境监测站,,34,34,39,16,15,115,88,88,88,8,9,7,6,0.5,0.4
2022-07-28T01:00:00,1784A,129.61,44.561,牡丹江市,环保大楼,,24,24,28,8,14,137,48,48,48,14,12,4,5,0.6,0.7
2022-07-28T01:00:00,1785A,129.6115,44.5782,牡丹江市,文化广场,,29,29,36,12,16,126,39,39,39,19,19,2,3,0.4,0.6
2022-07-28T01:00:00,1786A,129.5904,44.5963,牡丹江市,第一医院,,13,7,23,9,11,114,27,27,27,11,15,3,4,0.7,0.8
2022-07-28T01:00:00,1787A,129.6364,44.6075,牡丹江市,机车工厂,,23,23,36,10,12,122,23,23,23,17,12,3,3,0.4,0.5
2022-07-28T01:00:00,1788A,129.6386,44.5462,牡丹江市,第一中学,,25,21,32,17,13,127,31,31,31,17,13,3,4,0.5,0.5
2022-07-28T01:00:00,1789A,124.81117,46.03138,大庆市,大同区,,41,41,42,24,23,135,55,55,55,16,9,4,4,0.5,0.5
2022-07-28T01:00:00,1790A,125.129,46.533,大庆市,龙凤区,,28,28,31,9,12,127,87,87,87,6,10,5,4,0.2,0.2
2022-07-28T01:00:00,1791A,124.902,46.408,大庆市,红岗区,,23,19,24,9,13,124,72,72,72,5,7,3,3,0.5,0.5
2022-07-28T01:00:00,1792A,125.153,46.586,大庆市,萨尔图区,,37,37,44,24,26,122,82,82,82,12,11,4,5,0.4,0.5
2022-07-28T01:00:00,1793A,124.9042,46.6215,大庆市,让胡路区,,32,32,31,11,12,126,86,86,86,5,8,4,4,0.3,0.3
2022-07-28T01:00:00,1794A,118.3606,31.3519,芜湖市,监测站,,35,32,32,24,20,197,60,60,60,24,26,12,11,0.6,0.6
2022-07-28T01:00:00,1795A,118.3714,31.4134,芜湖市,科创中心,,37,37,36,19,19,236,65,65,65,22,25,10,8,0.5,0.7
2022-07-28T01:00:00,1796A,118.3673,31.3131,芜湖市,四水厂,,38,38,35,18,20,202,63,63,63,19,17,9,8,0.5,0.6
2022-07-28T01:00:00,1797A,118.4022,31.3839,芜湖市,济民医院(对照点),,,,,,,,,,,,,,,,
2022-07-28T01:00:00,1798A,118.5092,31.6837,马鞍山市,湖东路四小,,42,42,41,26,23,308,84,84,84,16,23,2,8,0.9,1.3
2022-07-28T01:00:00,1799A,118.5024,31.6449,马鞍山市,开发区,,40,40,33,28,23,235,62,62,62,31,26,8,11,0.9,1
2022-07-28T01:00:00,1800A,118.5228,31.7231,马鞍山市,慈湖,颗粒物(PM10),52,54,53,30,32,272,73,73,73,21,21,6,11,0.8,1.2
2022-07-28T01:00:00,1801A,118.48,31.6928,马鞍山市,马钢动力厂,,,,,,,,,,,,,,,,
2022-07-28T01:00:00,1802A,118.6245,31.7241,马鞍山市,濮塘(对照点),,46,29,26,32,17,258,62,62,62,12,7,2,4,0.6,0.7
2022-07-28T01:00:00,1803A,115.9872,29.6815,九江市,十里,,48,48,37,32,24,233,50,50,50,23,25,10,13,0.9,1
2022-07-28T01:00:00,1804A,115.9584,29.7046,九江市,茅山头,,47,47,36,28,21,238,5,5,5,52,24,5,10,0.7,0.8
2022-07-28T01:00:00,1805A,115.9877,29.7295,九江市,西园,,39,39,42,24,21,231,51,51,51,17,28,8,12,0.9,1.1
2022-07-28T01:00:00,1806A,116.0172,29.6547,九江市,五七二七厂,,42,42,36,25,23,188,51,51,51,15,11,5,6,0.7,1
2022-07-28T01:00:00,1808A,115.9114,29.6038,九江市,综合工业园,颗粒物(PM10),54,58,35,29,20,178,9,9,9,61,25,7,7,0.6,0.6
2022-07-28T01:00:00,1809A,116.0721,29.7535,九江市,石化总厂,,42,42,40,19,21,185,59,59,59,15,26,4,8,0.6,0.9
2022-07-28T01:00:00,1810A,115.9773,29.5698,九江市,庐山气象台(对照点),细颗粒物(PM2.5),55,36,29,39,26,156,156,156,156,3,4,5,8,0.7,0.6
2022-07-28T01:00:00,1811A,112.3628,34.6692,洛阳市,中信二小,,,,,,,,,,,,,,,,
2022-07-28T01:00:00,1812A,112.3931,34.6516,洛阳市,市委党校,,19,19,36,6,30,122,45,45,45,18,14,2,4,0.5,0.6
2022-07-28T01:00:00,1814A,112.4657,34.6871,洛阳市,豫西宾馆,,32,32,51,14,27,114,39,39,39,15,13,3,2,0.6,0.6
2022-07-28T01:00:00,1815A,112.494,34.6886,洛阳市,河南林校,,15,15,32,4,18,108,36,36,36,16,9,2,2,0.3,0.3
2022-07-28T01:00:00,1816A,112.3844,34.623,洛阳市,开发区管委会,颗粒物(PM10),53,55,47,9,28,119,27,27,27,20,11,5,5,0.7,0.5
2022-07-28T01:00:00,1817A,112.4267,34.6258,洛阳市,市委新办公区,,19,19,39,10,24,111,34,34,34,17,11,4,4,0.4,0.5
2022-07-28T01:00:00,1818A,114.4839,36.0621,安阳市,棉研所(对照点),,,,,,,,,,,,,,,,
2022-07-28T01:00:00,1819A,114.3551,36.1017,安阳市,红庙街,,35,11,48,3,26,167,109,109,109,11,21,2,5,0.4,0.6
2022-07-28T01:00:00,1820A,114.361,36.0681,安阳市,银杏小区,,37,5,47,14,25,172,116,116,116,3,11,2,3,0.5,0.6
2022-07-28T01:00:00,1824A,114.3389,34.7781,开封市,肿瘤医院,,25,8,46,1,25,145,80,80,80,10,9,3,3,0.4,0.5
2022-07-28T01:00:00,1826A,114.2885,34.7965,开封市,世纪星幼儿园,,25,0,44,5,23,135,79,79,79,10,9,4,4,0.6,0.7
2022-07-28T01:00:00,1828A,113.227,35.2125,焦作市,市环保局,,35,35,54,24,26,143,44,44,44,12,9,3,4,0.5,0.6
2022-07-28T01:00:00,1829A,113.2464,35.1764,焦作市,高新区政府（停运20220628）,,,,,,,,,,,,,,,,
2022-07-28T01:00:00,1830A,113.1992,35.2590,焦作市,影视城(对照点),,,,,,,,,,,,,,,,
2022-07-28T01:00:00,1832A,113.3257,33.742,平顶山市,新华旅馆,,26,26,30,10,13,130,70,70,70,13,14,5,9,0.3,0.3
2022-07-28T01:00:00,1833A,113.2919,33.737,平顶山市,规划设计院,,,14,31,,12,126,71,71,71,8,11,3,3,0.6,0.5
2022-07-28T01:00:00,1834A,113.182,33.774,平顶山市,平顶山工学院,,19,19,37,11,18,125,51,51,51,22,18,17,6,0.5,0.4
2022-07-28T01:00:00,1835A,111.1922,34.7752,三门峡市,市政府,,39,29,27,27,30,116,28,28,28,28,18,5,5,0.5,0.6
2022-07-28T01:00:00,1836A,111.1587,34.7942,三门峡市,开发区,,44,44,44,13,27,117,56,56,56,6,12,2,3,0.5,0.6
2022-07-28T01:00:00,1838A,111.143,34.7955,三门峡市,风景区(对照点),,,,,,,,,,,,,,,,
2022-07-28T01:00:00,1839A,111.3009,30.7157,宜昌市,四零三,,,,,,,,,,,,,,,,
2022-07-28T01:00:00,1840A,111.2992,30.6981,宜昌市,白龙岗,,14,14,15,2,4,133,30,30,30,11,13,8,8,0.4,0.4
2022-07-28T01:00:00,1841A,111.3549,30.6465,宜昌市,伍家岗,,22,22,16,5,6,138,39,39,39,14,18,1,1,0.4,0.4
2022-07-28T01:00:00,1842A,111.2628,30.6961,宜昌市,点军区,,20,20,18,0,4,119,24,24,24,9,10,4,4,0.4,0.4
2022-07-28T01:00:00,1843A,111.3275,30.7819,宜昌市,夷陵区,,20,20,16,2,2,132,28,28,28,11,12,3,4,0.4,0.4
2022-07-28T01:00:00,1844A,112.2494,30.3197,荆州市,市图书馆,,20,20,25,10,14,201,38,38,38,19,14,10,8,0.5,0.5
2022-07-28T01:00:00,1845A,112.2008,30.3544,荆州市,市委党校,,25,25,25,7,13,187,32,32,32,17,10,8,7,0.5,0.5
2022-07-28T01:00:00,1847A,113.1094,29.3578,岳阳市,南湖风景区,,49,47,35,34,27,153,66,66,66,26,14,10,8,0.6,0.6
2022-07-28T01:00:00,1848A,113.1493,29.4251,岳阳市,城陵矶,颗粒物(PM10),58,66,38,35,26,150,44,44,44,33,16,11,11,0.7,0.7
2022-07-28T01:00:00,1849A,113.1497,29.3575,岳阳市,开发区,细颗粒物(PM2.5),77,65,35,56,32,147,41,41,41,32,16,6,7,0.6,0.7
2022-07-28T01:00:00,1850A,113.2621,29.4758,岳阳市,云溪区,细颗粒物(PM2.5),57,48,38,40,24,151,40,40,40,20,15,12,14,0.8,0.7
2022-07-28T01:00:00,1851A,112.9943,29.4402,岳阳市,君山区,细颗粒物(PM2.5),53,47,33,37,27,151,57,57,57,21,10,5,6,0.6,0.6
2022-07-28T01:00:00,1852A,113.2117,29.355,岳阳市,金凤水库(对照点),,40,35,34,28,22,142,78,78,78,12,11,4,4,0.7,0.8
2022-07-28T01:00:00,1854A,111.6975,28.9703,常德市,市二中,,26,22,25,18,20,146,39,39,39,10,13,29,8,0.4,0.4
2022-07-28T01:00:00,1857A,111.7158,29.1456,常德市,白鹤山(对照点),,26,15,35,18,21,159,47,47,47,5,6,3,5,0.4,0.5
2022-07-28T01:00:00,1858A,110.5319,29.1217,张家界市,永定新区,,17,17,24,11,26,110,38,38,38,4,9,3,3,0,0.2
2022-07-28T01:00:00,1859A,110.4697,29.1242,张家界市,电业局,,13,13,24,2,12,124,41,41,41,3,8,3,4,0.1,0.2
2022-07-28T01:00:00,1860A,110.5594,29.3547,张家界市,未央路,,13,13,24,6,14,90,28,28,28,4,6,2,2,0.2,0.2
2022-07-28T01:00:00,1861A,110.4417,29.315,张家界市,袁家界(对照点),,24,5,20,9,14,107,75,75,75,4,5,5,5,0.6,0.7
2022-07-28T01:00:00,1862A,110.4144,25.3167,桂林市,电子科大尧山校区(对照点),细颗粒物(PM2.5),68,42,35,49,29,109,30,30,30,9,7,12,12,0.6,0.6
2022-07-28T01:00:00,1863A,110.2819,25.2697,桂林市,监测站,,37,37,36,14,18,101,74,74,74,12,13,6,9,0.7,0.5
2022-07-28T01:00:00,1864A,110.3089,25.2708,桂林市,龙隐路小学,,29,28,35,20,18,99,65,65,65,10,14,18,13,0.3,0.3
2022-07-28T01:00:00,1865A,110.2869,25.2178,桂林市,八中,,33,33,30,22,17,100,55,55,55,16,13,8,8,0.5,0.5
2022-07-28T01:00:00,1866A,109.2262,21.588,北海市,牛尾岭水库(对照点),,18,17,16,12,11,60,11,11,11,15,8,5,4,0.4,0.4
2022-07-28T01:00:00,1867A,109.1436,21.4086,北海市,海滩公园,,14,10,15,2,4,68,42,42,42,2,2,4,4,0.5,0.5
2022-07-28T01:00:00,1868A,109.0981,21.4661,北海市,新市环保局,,12,2,9,5,5,66,38,38,38,2,2,3,3,0.4,0.4
2022-07-28T01:00:00,1869A,109.1778,21.5233,北海市,北海工业园,,,6,12,5,7,63,21,21,21,,2,4,4,0.4,0.3
2022-07-28T01:00:00,1870A,109.4856,24.3895,柳州市,柳东小学,,38,34,32,26,24,125,90,90,90,10,7,5,6,0.6,0.6
2022-07-28T01:00:00,1871A,109.4157,24.3277,柳州市,环保监测站,,46,46,33,26,18,116,67,67,67,21,13,7,6,0.6,0.6
2022-07-28T01:00:00,1872A,109.389,24.341,柳州市,河西水厂,细颗粒物(PM2.5),55,53,36,39,22,119,56,56,56,28,13,9,8,0.6,0.5
2022-07-28T01:00:00,1873A,109.4311,24.2921,柳州市,市四中,颗粒物(PM10),56,61,42,30,24,118,51,51,51,29,12,8,7,0.8,0.9
2022-07-28T01:00:00,1874A,109.4006,24.3631,柳州市,市九中,颗粒物(PM10),54,58,41,21,20,119,70,70,70,15,9,8,7,0.7,0.6
2022-07-28T01:00:00,1875A,109.4958,24.3134,柳州市,古亭山,,33,33,34,18,17,109,45,45,45,25,13,5,5,0.6,0.6
2022-07-28T01:00:00,1876A,109.5078,18.2489,三亚市,河东子站,,11,11,10,6,5,36,22,22,22,6,7,2,3,0.4,0.4
2022-07-28T01:00:00,1877A,109.4964,18.2681,三亚市,河西子站,,9,8,11,6,4,36,25,25,25,5,7,4,6,0.2,0.3
2022-07-28T01:00:00,1878A,104.7778,31.4741,绵阳市,富乐山,,29,29,26,16,16,121,27,27,27,15,13,11,10,0.5,0.5
2022-07-28T01:00:00,1879A,104.7563,31.4535,绵阳市,市人大,,34,34,31,14,17,106,26,26,26,32,17,5,3,0.6,0.5
2022-07-28T01:00:00,1880A,104.6697,31.4668,绵阳市,高新区自来水公司,,38,38,29,24,19,129,22,22,22,34,17,10,7,0.6,0.5
2022-07-28T01:00:00,1881A,104.7287,31.5075,绵阳市,三水厂,,34,34,35,21,22,124,11,11,11,35,22,5,4,0.6,0.6
2022-07-28T01:00:00,1882A,104.563,28.793,宜宾市,石马中学(对照点),,37,37,28,20,12,109,45,45,45,14,8,4,5,0.6,0.5
2022-07-28T01:00:00,1883A,104.6201,28.7728,宜宾市,市委,,32,32,27,20,14,112,64,64,64,24,16,5,8,0.6,0.5
2022-07-28T01:00:00,1884A,104.6055,28.793,宜宾市,宜宾四中,,36,36,37,22,19,123,73,73,73,14,14,8,10,0.6,0.5
2022-07-28T01:00:00,1885A,104.639,28.7562,宜宾市,市政府,,32,29,26,22,16,123,82,82,82,18,15,7,8,0.7,0.6
2022-07-28T01:00:00,1886A,104.5742,28.7199,宜宾市,黄金嘴,,37,37,25,22,14,123,40,40,40,30,12,6,7,0.6,0.4
2022-07-28T01:00:00,1888A,101.6891,26.571,攀枝花市,弄弄坪,,16,11,23,2,15,93,50,50,50,10,17,5,13,0.8,1.2
2022-07-28T01:00:00,1889A,101.5769,26.5928,攀枝花市,河门口,,15,5,15,2,7,96,46,46,46,11,14,6,11,0.7,1
2022-07-28T01:00:00,1890A,101.7169,26.585,攀枝花市,炳草岗,,21,21,24,7,11,94,31,31,31,23,24,10,19,0.7,1.1
2022-07-28T01:00:00,1891A,101.7369,26.5008,攀枝花市,仁和,,23,23,27,10,15,78,18,18,18,21,18,14,20,1.3,1
2022-07-28T01:00:00,1893A,105.4324,28.9634,泸州市,九狮山(对照点),,25,18,18,17,16,100,32,32,32,22,21,10,8,0.7,0.6
2022-07-28T01:00:00,1894A,105.4427,28.9063,泸州市,小市上码头,,44,44,35,29,20,138,67,67,67,16,15,12,10,0.7,0.6
2022-07-28T01:00:00,1895A,105.4241,28.8573,泸州市,兰田宪桥,,39,39,28,17,15,137,51,51,51,14,15,5,7,0.3,0.3
2022-07-28T01:00:00,1896A,105.4379,28.8833,泸州市,市环监站,,49,42,28,34,19,136,65,65,65,15,17,3,4,0.5,0.5
2022-07-28T01:00:00,1897A,104.7547,29.3628,自贡市,大塘山(对照点),,,,,,,,,,,,,,,,
2022-07-28T01:00:00,1900A,104.7692,29.3411,自贡市,春华路,,,,,,,,,,,,,,,,
2022-07-28T01:00:00,1901A,104.4239,31.1208,德阳市,东山公园,,22,22,26,11,13,114,27,27,27,14,12,12,11,0.6,0.6
2022-07-28T01:00:00,1902A,104.3826,31.1317,德阳市,西小区,,46,46,36,12,12,103,41,41,41,23,16,5,4,0.3,0.4
2022-07-28T01:00:00,1903A,104.4053,31.1167,德阳市,市检察院,,,,,,,,,,,,,,,,
2022-07-28T01:00:00,1904A,104.3553,31.1091,德阳市,耐火材料厂,,27,27,28,10,13,102,31,31,31,28,19,5,7,0.6,0.6
2022-07-28T01:00:00,1905A,106.056,30.8064,南充市,西山风景区(对照点),,20,18,24,9,12,102,64,64,64,14,14,4,4,0.7,0.7
2022-07-28T01:00:00,1906A,106.0789,30.8023,南充市,南充市委,,29,29,27,2,12,108,76,76,76,5,8,4,3,0.4,0.4
2022-07-28T01:00:00,1907A,106.1031,30.8217,南充市,南充炼油厂,,22,12,25,12,11,113,68,68,68,7,8,6,6,0.4,0.3
2022-07-28T01:00:00,1908A,106.1064,30.7856,南充市,高坪区监测站,,25,12,18,17,13,106,67,67,67,11,10,3,4,0.4,0.4
2022-07-28T01:00:00,1909A,106.0642,30.7636,南充市,嘉陵区环保局,,23,16,19,13,13,106,71,71,71,11,8,6,4,0.3,0.3
2022-07-28T01:00:00,1910A,106.1087,30.8388,南充市,市环境监测站,,18,14,25,12,15,101,45,45,45,29,17,3,4,0.3,0.3
2022-07-28T01:00:00,1911A,106.9222,27.6869,遵义市,丁字口,,23,23,21,12,16,118,25,25,25,15,8,6,6,0.6,0.6
2022-07-28T01:00:00,1912A,106.9242,27.7019,遵义市,凤凰山,,16,16,24,10,17,112,41,41,41,13,9,5,5,0.7,0.7
2022-07-28T01:00:00,1913A,106.8906,27.6486,遵义市,忠庄,,32,32,19,4,8,101,23,23,23,17,12,1,2,0.3,0.4
2022-07-28T01:00:00,1914A,106.9231,27.6506,遵义市,舟水桥,,28,28,29,9,11,112,19,19,19,19,16,2,2,0.4,0.5
2022-07-28T01:00:00,1915A,106.9178,27.72,遵义市,干田坝,,16,12,22,11,12,119,34,34,34,10,9,5,5,0.6,0.6
2022-07-28T01:00:00,1916A,103.7897,25.5035,曲靖市,环境监测站,,27,27,23,9,12,97,48,48,48,13,20,5,6,0.4,0.5
2022-07-28T01:00:00,1917A,103.8,25.5364,曲靖市,烟厂办公区,,13,11,24,9,12,64,40,40,40,10,12,4,6,0.5,0.6
2022-07-28T01:00:00,1918A,108.7197,34.3956,咸阳市,气象站(对照点),颗粒物(PM10),61,71,34,20,12,136,4,4,4,79,14,5,5,0.9,0.8
2022-07-28T01:00:00,1919A,108.673,34.3155,咸阳市,实验中学,,40,40,25,14,13,134,42,42,42,31,16,3,3,0.4,0.3
2022-07-28T01:00:00,1920A,108.7233,34.3617,咸阳市,师范学院,颗粒物(PM10),51,52,28,18,13,134,31,31,31,42,14,4,4,0.6,0.5
2022-07-28T01:00:00,1922A,109.0656,35.0994,铜川市,党校(对照点),,39,39,20,9,9,77,2,2,2,29,20,3,4,0.6,0.7
2022-07-28T01:00:00,1923A,109.0697,35.0697,铜川市,王益区政府,,24,24,22,9,10,111,1,1,1,33,19,4,4,0.5,0.6
2022-07-28T01:00:00,1924A,108.9344,34.9058,铜川市,新区管委会,,22,22,23,10,12,125,31,31,31,12,16,4,4,0.5,0.5
2022-07-28T01:00:00,1925A,108.9589,34.8731,铜川市,新区兰芝公司,,,,,,,,,,,,,,,,
2022-07-28T01:00:00,1926A,109.4131,36.6275,延安市,枣园(对照点),,18,18,17,8,7,136,6,6,6,21,14,4,3,0.5,0.5
2022-07-28T01:00:00,1927A,109.4761,36.6028,延安市,延大医附院,,40,40,19,10,12,127,4,4,4,28,17,4,3,0.3,0.3
2022-07-28T01:00:00,1928A,109.4824,36.5767,延安市,市监测站,,,,,,,,,,,,,,,,
2022-07-28T01:00:00,1929A,109.5056,36.6106,延安市,百米大道,颗粒物(PM10),54,58,26,13,10,119,5,5,5,30,19,5,5,0.6,0.6
2022-07-28T01:00:00,1930A,107.185,34.3063,宝鸡市,庙沟村(对照点),,26,26,18,4,10,105,65,65,65,22,7,4,4,0.2,0.3
2022-07-28T01:00:00,1931A,107.0708,34.3017,宝鸡市,竹园沟,,21,12,20,6,11,117,67,67,67,14,10,4,4,0.3,0.4
2022-07-28T01:00:00,1932A,107.1906,34.3672,宝鸡市,三陆医院,,41,41,25,10,11,126,22,22,22,23,12,8,6,0.4,0.3
2022-07-28T01:00:00,1933A,107.1431,34.3547,宝鸡市,监测站,,15,15,23,10,12,123,41,41,41,16,16,5,6,0.3,0.4
2022-07-28T01:00:00,1934A,107.1186,34.3739,宝鸡市,技工学校,,22,22,25,11,11,124,35,35,35,15,12,4,4,0.2,0.3
2022-07-28T01:00:00,1935A,107.3906,34.3528,宝鸡市,陈仓区环保局家属楼,,34,34,23,14,13,139,28,28,28,39,14,5,5,0.3,0.3
2022-07-28T01:00:00,1936A,107.2058,34.3497,宝鸡市,文理学院,,29,29,25,8,14,129,47,47,47,20,17,7,7,0.2,0.3
2022-07-28T01:00:00,1937A,107.2386,34.3622,宝鸡市,三迪小学,,26,26,23,11,8,126,36,36,36,27,19,5,5,0.3,0.3
2022-07-28T01:00:00,1938A,109.5293,34.5101,渭南市,农科所(对照点),,,,,,,,,,,,,,,,
2022-07-28T01:00:00,1939A,109.4974,34.4877,渭南市,日报社,,27,27,24,12,18,112,44,44,44,33,20,7,6,0.4,0.4
2022-07-28T01:00:00,1940A,109.4636,34.493,渭南市,体育馆,,21,14,18,14,17,148,67,67,67,19,15,3,4,0.3,0.4
2022-07-28T01:00:00,1941A,109.4259,34.5023,渭南市,高新一小,,36,36,29,17,15,137,65,65,65,24,15,4,5,0.3,0.4
2022-07-28T01:00:00,1943A,102.1725,38.5339,金昌市,新川苑,颗粒物(PM10),51,51,28,13,9,129,58,58,58,43,21,12,12,0.8,0.6
2022-07-28T01:00:00,1944A,102.1692,38.5167,金昌市,天庆家园,,31,31,33,8,7,132,85,85,85,24,21,11,11,0.5,0.6
2022-07-28T01:00:00,1945A,98.2908,39.7711,嘉峪关市,气象局,,37,22,58,7,12,152,116,116,116,12,13,3,6,0.5,0.4
2022-07-28T01:00:00,1947A,106.3394,38.817,石嘴山市,沙湖旅游区(对照点),,42,42,38,23,10,174,70,70,70,26,14,27,27,0.3,0.3
2022-07-28T01:00:00,1948A,106.3668,39.0145,石嘴山市,大武口朝阳西街,,45,45,44,15,14,158,71,71,71,31,21,15,12,0.9,0.8
2022-07-28T01:00:00,1949A,106.7704,39.2282,石嘴山市,惠农南大街,,35,35,39,12,13,151,73,73,73,16,19,9,13,0.3,0.5
2022-07-28T01:00:00,1950A,106.7099,39.1325,石嘴山市,红果子镇惠新街,颗粒物(PM10),59,67,55,25,13,155,41,41,41,38,16,24,16,0.4,0.4
2022-07-28T01:00:00,1951A,84.895,45.6094,克拉玛依市,长征新村,,35,17,18,3,5,133,111,111,111,3,9,7,8,0.1,0.2
2022-07-28T01:00:00,1952A,84.8988,45.5893,克拉玛依市,南林小区,,36,11,24,19,13,123,113,113,113,8,22,8,9,0.4,0.5
2022-07-28T01:00:00,1953A,85.1186,45.6886,克拉玛依市,白碱滩区,,,,,,,,,,,,,,,,
2022-07-28T01:00:00,1954A,84.905,44.3396,克拉玛依市,独山子区,,38,38,36,14,21,162,69,69,69,22,13,9,10,0.8,0.6
2022-07-28T01:00:00,1955A,85.6979,46.098,克拉玛依市,乌尔禾区商贸楼,,29,22,20,12,8,118,92,92,92,6,7,12,12,0.2,0.2
2022-07-28T01:00:00,1956A,86.1472,41.7538,巴音郭楞州,孔雀公园,颗粒物(PM10),75,100,103,22,28,120,96,96,96,14,43,3,4,0.2,0.3
2022-07-28T01:00:00,1957A,86.1972,41.7166,巴音郭楞州,棉纺厂,颗粒物(PM10),77,103,135,29,34,130,75,75,75,28,29,4,4,0.2,0.3
2022-07-28T01:00:00,1958A,86.2357,41.7173,巴音郭楞州,经济开发区,颗粒物(PM10),57,64,169,21,36,128,104,104,104,4,14,4,4,0.2,0.2
2022-07-28T01:00:00,1959A,118.746,36.881,寿光市,监测站,,,,,,,,,,,,,,,,
2022-07-28T01:00:00,1960A,118.780,36.864,寿光市,世纪学校,,,,,,,,,,,,,,,,
2022-07-28T01:00:00,1961A,117.532,36.6868,济南市,东山小学,颗粒物(PM10),58,66,50,17,15,199,41,41,41,36,28,5,5,0.5,0.5
2022-07-28T01:00:00,1962A,117.541,36.710,章丘市,明水开发区,,,,,,,,,,,,,,,,
2022-07-28T01:00:00,1963A,120.610,36.440,即墨市,环保局子站,,,,,,,,,,,,,,,,
2022-07-28T01:00:00,1964A,120.470,36.390,即墨市,开发区子站,,,,,,,,,,,,,,,,
2022-07-28T01:00:00,1965A,120.005,35.878,胶南市,JN子站,,,,,,,,,,,,,,,,
2022-07-28T01:00:00,1966A,120.0405,35.8735,青岛市,黄岛区4号,,29,7,12,5,5,136,91,91,91,2,12,3,4,0.5,0.5
2022-07-28T01:00:00,1967A,120.008,36.283,胶州市,胶州环保局,,,,,,,,,,,,,,,,
2022-07-28T01:00:00,1968A,120.014,36.253,胶州市,胶州一中,,,,,,,,,,,,,,,,
2022-07-28T01:00:00,1969A,120.537,36.865,莱西市,环保局子站,,,,,,,,,,,,,,,,
2022-07-28T01:00:00,1970A,120.515,36.885,莱西市,人民广场子站,,,,,,,,,,,,,,,,
2022-07-28T01:00:00,1971A,119.952,36.792,平度市,1号,,,,,,,,,,,,,,,,
2022-07-28T01:00:00,1972A,119.976,36.799,平度市,2号,,,,,,,,,,,,,,,,
2022-07-28T01:00:00,1973A,120.747,37.825,蓬莱市,蓬莱环保局,,,,,,,,,,,,,,,,
2022-07-28T01:00:00,1974A,120.773,37.809,蓬莱市,蓬莱博物馆,,,,,,,,,,,,,,,,
2022-07-28T01:00:00,1975A,120.399,37.374,招远市,招远环保局,,,,,,,,,,,,,,,,
2022-07-28T01:00:00,1976A,120.394,37.364,招远市,招远教育局,,,,,,,,,,,,,,,,
2022-07-28T01:00:00,1977A,119.941,37.177,莱州市,莱州环保局,,,,,,,,,,,,,,,,
2022-07-28T01:00:00,1978A,119.959,37.180,莱州市,莱州外经委,,,,,,,,,,,,,,,,
2022-07-28T01:00:00,1979A,122.471,37.154,荣成市,荣成市环保局办公楼,,,,,,,,,,,,,,,,
2022-07-28T01:00:00,1980A,122.410,37.161,荣成市,山东成山轮胎公司,,,,,,,,,,,,,,,,
2022-07-28T01:00:00,1981A,122.038,37.197,文登市,文登市环保局,,,,,,,,,,,,,,,,
2022-07-28T01:00:00,1982A,122.0693,37.2174,威海市,文登开发区,,27,14,12,5,6,96,86,86,86,7,10,4,4,0.0,0.1
2022-07-28T01:00:00,1983A,121.531,36.913,乳山市,乳山市环保局,,,,,,,,,,,,,,,,
2022-07-28T01:00:00,1984A,121.544,36.907,乳山市,乳山市气象局,,,,,,,,,,,,,,,,
2022-07-28T01:00:00,1985A,120.636,31.155,吴江市,吴江市环保局,,,,,,,,,,,,,,,,
2022-07-28T01:00:00,1986A,120.635,31.170,吴江市,教师进修学校,,,,,,,,,,,,,,,,
2022-07-28T01:00:00,1987A,120.658,31.172,吴江市,吴江开发区,,,,,,,,,,,,,,,,
2022-07-28T01:00:00,1988A,120.953,31.388,昆山市,昆山实验小学,,,,,,,,,,,,,,,,
2022-07-28T01:00:00,1989A,120.999,31.381,昆山市,震川中学,,,,,,,,,,,,,,,,
2022-07-28T01:00:00,1990A,120.758,31.670,常熟市,海虞子站,,,,,,,,,,,,,,,,
2022-07-28T01:00:00,1991A,120.721,31.671,常熟市,兴福子站,,,,,,,,,,,,,,,,
2022-07-28T01:00:00,1992A,120.734,31.656,常熟市,菱塘子站,,,,,,,,,,,,,,,,
2022-07-28T01:00:00,1993A,120.526,31.874,张家港市,张家港市监测站,,,,,,,,,,,,,,,,
2022-07-28T01:00:00,1994A,120.550,31.882,张家港市,城北小学,,,,,,,,,,,,,,,,
2022-07-28T01:00:00,1995A,121.115,31.453,太仓市,太仓市监测站,,,,,,,,,,,,,,,,
2022-07-28T01:00:00,1996A,121.140,31.422,太仓市,科教新城实小,,,,,,,,,,,,,,,,
2022-07-28T01:00:00,1997A,119.146,31.955,句容市,消防指挥中心,,,,,,,,,,,,,,,,
2022-07-28T01:00:00,1998A,119.180,31.955,句容市,房家坝,,,,,,,,,,,,,,,,
2022-07-28T01:00:00,1999A,120.268,31.920,江阴市,虹桥邮政,,,,,,,,,,,,,,,,
2022-07-28T01:00:00,2000A,120.237,31.909,江阴市,五星公园,,,,,,,,,,,,,,,,
2022-07-28T01:00:00,2001A,120.302,31.920,江阴市,第二实验小学,,,,,,,,,,,,,,,,
2022-07-28T01:00:00,2002A,119.818,31.354,宜兴市,宜兴市环保局,,,,,,,,,,,,,,,,
2022-07-28T01:00:00,2003A,119.794,31.371,宜兴市,宜园,,,,,,,,,,,,,,,,
2022-07-28T01:00:00,2004A,119.579,31.751,金坛市,金坛市环境监测站,,,,,,,,,,,,,,,,
2022-07-28T01:00:00,2005A,119.579,31.737,金坛市,金坛市自来水公司,,,,,,,,,,,,,,,,
2022-07-28T01:00:00,2006A,119.460,31.400,溧阳市,溧阳市东门子站,,,,,,,,,,,,,,,,
2022-07-28T01:00:00,2007A,119.438,31.317,溧阳市,燕山子站,,,,,,,,,,,,,,,,
2022-07-28T01:00:00,2008A,121.173,31.896,海门市,海门市监测站,,,,,,,,,,,,,,,,
2022-07-28T01:00:00,2009A,121.1518,31.89708,海门市,社会福利院,,,,,,,,,,,,,,,,
2022-07-28T01:00:00,2010A,119.7183,30.2366,临安市,市政府,,,,,,,,,,,,,,,,
2022-07-28T01:00:00,2011A,119.6942,30.2311,临安市,四中,,,,,,,,,,,,,,,,
2022-07-28T01:00:00,2012A,119.954,30.054,富阳市,监测站,,,,,,,,,,,,,,,,
2022-07-28T01:00:00,2013A,119.946,30.049,富阳市,富春二小,,,,,,,,,,,,,,,,
2022-07-28T01:00:00,2014A,120.091,29.305,义乌市,江东,,,,,,,,,,,,,,,,
2022-07-28T01:00:00,2015A,120.040,29.334,义乌市,北苑,,,,,,,,,,,,,,,,
2022-07-28T01:00:00,2016A,120.251,29.719,诸暨市,图书馆,,,,,,,,,,,,,,,,
2022-07-28T01:00:00,2017A,120.209,29.732,诸暨市,富林印务,,,,,,,,,,,,,,,,
2022-07-28T01:00:00,2018A,121.989,39.625,瓦房店市,抱龙山庄,,,,,,,,,,,,,,,,
2022-07-28T01:00:00,2019A,122.011,39.617,瓦房店市,东山公园,,,,,,,,,,,,,,,,
2022-07-28T01:00:00,2031A,113.1817,27.9958,株洲市,云田中学,,,27,34,2,25,144,,,,6,10,,5,0.5,0.4
2022-07-28T01:00:00,2054A,114.1099,32.1059,信阳市,平桥分局,,36,31,31,25,13,119,26,26,26,15,12,6,9,0.6,0.6
2022-07-28T01:00:00,2064A,113.9956,32.1271,信阳市,南湾水厂,,31,31,24,12,10,134,49,49,49,6,7,5,5,0.5,0.5
2022-07-28T01:00:00,2065A,114.0775,32.1195,信阳市,市酿酒公司,,21,21,18,12,10,131,45,45,45,13,10,8,8,0.5,0.5
2022-07-28T01:00:00,2066A,114.0609,32.1399,信阳市,审计局,,26,26,23,12,11,127,36,36,36,15,12,8,7,0.6,0.6
2022-07-28T01:00:00,2067A,114.6613,33.6128,周口市,市环境监测站,,,,27,5,11,139,94,94,94,4,11,4,7,0.3,0.4
2022-07-28T01:00:00,2068A,114.6758,33.6347,周口市,周口师范,,31,9,28,3,11,140,98,98,98,2,8,1,4,0.3,0.4
2022-07-28T01:00:00,2069A,114.6546,33.5979,周口市,市运管处,,29,1,24,4,12,135,91,91,91,5,14,2,5,0.4,0.5
2022-07-28T01:00:00,2070A,114.6369,33.6406,周口市,川汇区环保局,,31,15,28,7,13,144,98,98,98,3,9,4,6,0.3,0.4
2022-07-28T01:00:00,2075A,117.6336,24.4674,漳州市,九湖(对照点),,,,,,,,,,,,,,,,
2022-07-28T01:00:00,2160A,112.85,35.5051,晋城市,自来水公司,,39,32,48,27,24,131,41,41,41,23,15,4,3,0.6,0.6
2022-07-28T01:00:00,2161A,112.8318,35.4936,晋城市,白云商贸,,25,25,37,5,21,139,43,43,43,23,13,3,2,0.8,0.7
2022-07-28T01:00:00,2162A,112.8508,35.4887,晋城市,市环保局,,25,21,38,17,28,136,45,45,45,26,16,3,2,0.7,0.6
2022-07-28T01:00:00,2163A,112.8676,35.4897,晋城市,技术学院,,18,12,31,12,20,126,35,35,35,31,15,2,3,0.6,0.5
2022-07-28T01:00:00,2164A,112.8271,35.4828,晋城市,泽州一中,,,,,,,,,,,,,,,,
2022-07-28T01:00:00,2165A,112.8453,35.546,晋城市,白马寺 (对照点),,,,,,,,,,,,,,,,
2022-07-28T01:00:00,2166A,112.4397,39.3522,朔州市,平朔,,30,29,35,8,21,124,96,96,96,13,19,6,7,0.4,0.6
2022-07-28T01:00:00,2167A,112.4575,39.3617,朔州市,朔唯,,31,24,39,8,21,125,97,97,97,14,24,5,6,0.4,0.7
2022-07-28T01:00:00,2168A,112.4258,39.3197,朔州市,区政府,,31,28,40,9,19,120,98,98,98,14,20,8,10,0.1,0.6
2022-07-28T01:00:00,2169A,112.4072,39.3278,朔州市,市环保局,,30,29,37,7,17,130,96,96,96,12,21,5,7,0.3,0.5
2022-07-28T01:00:00,2170A,112.4272,39.3681,朔州市,市二中,,28,23,45,8,25,125,89,89,89,15,21,4,4,0.5,0.7
2022-07-28T01:00:00,2171A,112.7532,37.6945,晋中市,锦纶小区,颗粒物(PM10),53,56,37,30,23,124,37,37,37,32,22,8,7,1.0,0.5
2022-07-28T01:00:00,2173A,112.7249,37.7067,晋中市,南都小区,,47,47,39,27,24,118,42,42,42,31,20,7,6,0.6,0.5
2022-07-28T01:00:00,2174A,112.6991,37.6982,晋中市,榆次区政府,颗粒物(PM10),52,54,41,35,26,115,26,26,26,29,18,5,8,0.9,0.7
2022-07-28T01:00:00,2175A,110.9956,35.0147,运城市,运城中学,,35,24,30,24,22,104,69,69,69,7,7,6,5,1.0,0.7
2022-07-28T01:00:00,2176A,111.0233,35.0611,运城市,禹都开发区,,,,,,,,,,,,,,,,
2022-07-28T01:00:00,2178A,110.9686,35.0303,运城市,地区技校,,27,27,27,11,12,118,54,54,54,15,6,5,5,0.6,0.5
2022-07-28T01:00:00,2179A,111.0414,35.1147,运城市,空港新区,,25,25,31,10,13,126,49,49,49,13,10,8,7,0.4,0.4
2022-07-28T01:00:00,2181A,112.7383,38.4519,忻州市,开发区,,48,29,25,33,28,127,46,46,46,23,16,7,8,0.6,0.6
2022-07-28T01:00:00,2182A,112.7003,38.4928,忻州市,会展中心,,26,26,26,14,16,108,28,28,28,29,20,6,6,0.5,0.5
2022-07-28T01:00:00,2183A,111.1406,37.5211,吕梁市,环保局,,30,30,20,7,10,109,1,1,1,50,21,3,3,0.3,0.4
2022-07-28T01:00:00,2185A,111.1297,37.5136,吕梁市,自来水公司,,32,26,23,22,68,107,4,4,4,41,18,1,2,0.3,0.5
2022-07-28T01:00:00,2186A,106.8288,39.6778,乌海市,聚英学校,,,,,,,,,,,,,,,,
2022-07-28T01:00:00,2187A,106.8174,39.6973,乌海市,市林业局,颗粒物(PM10),69,87,43,24,19,184,96,96,96,31,13,38,14,0.8,0.6
2022-07-28T01:00:00,2188A,106.7907,39.6667,乌海市,中海勃湾学校,颗粒物(PM10),67,84,42,26,16,206,57,57,57,64,20,36,19,0.7,0.4
2022-07-28T01:00:00,2191A,122.2532,43.6801,通辽市,艺术职业学校,颗粒物(PM10),65,80,42,38,22,119,89,89,89,13,12,6,7,0.4,0.3
2022-07-28T01:00:00,2192A,119.7594,49.2261,呼伦贝尔市,区环保局,,31,12,22,9,16,114,99,99,99,4,9,4,4,0.2,0.3
2022-07-28T01:00:00,2194A,107.5936,40.916,巴彦淖尔市,秋林养殖基地(对照点),,,,,,,,,,,,,,,,
2022-07-28T01:00:00,2195A,107.4212,40.761,巴彦淖尔市,附二中,颗粒物(PM10),76,102,100,21,25,122,106,106,106,9,8,5,5,0.6,0.5
2022-07-28T01:00:00,2196A,107.37,40.7372,巴彦淖尔市,市环保大楼,颗粒物(PM10),95,139,93,30,29,127,112,112,112,12,9,5,3,0.7,0.4
2022-07-28T01:00:00,2197A,113.1306,40.9923,乌兰察布市,集宁新区,,32,23,47,15,27,125,101,101,101,11,18,8,11,0.2,0.5
2022-07-28T01:00:00,2200A,122.0392,46.0656,兴安盟,胜华新制药厂,,26,26,29,15,18,105,65,65,65,13,8,2,3,0.1,0.3
2022-07-28T01:00:00,2201A,121.9504,46.0741,兴安盟,科右前旗环保局,,28,18,24,19,20,114,62,62,62,7,9,3,4,0.2,0.3
2022-07-28T01:00:00,2202A,116.1042,43.9317,锡林郭勒盟,市环保监测站,,36,11,18,3,8,126,115,115,115,3,6,11,11,0.2,0.2
2022-07-28T01:00:00,2203A,116.0781,43.9311,锡林郭勒盟,市政府,,37,8,16,2,6,132,118,118,118,4,6,9,8,0.2,0.3
2022-07-28T01:00:00,2204A,105.6467,38.8363,阿拉善盟,西城区西花园(对照点),,32,30,24,6,11,137,102,102,102,7,8,3,3,0.3,0.4
2022-07-28T01:00:00,2205A,105.6985,38.8411,阿拉善盟,蒙二幼,,36,27,22,25,18,134,108,108,108,4,6,6,7,0.2,0.2
2022-07-28T01:00:00,2206A,105.724,38.8516,阿拉善盟,环保局新楼,,36,26,20,14,13,135,115,115,115,5,7,7,6,0.3,0.3
2022-07-28T01:00:00,2207A,121.6094,41.998,阜新市,工业园区,颗粒物(PM10),66,81,53,28,24,115,63,63,63,27,17,37,14,0.7,0.6
2022-07-28T01:00:00,2208A,121.6697,42.0279,阜新市,长青街,细颗粒物(PM2.5),52,38,36,36,24,125,95,95,95,13,10,10,11,0.6,0.5
2022-07-28T01:00:00,2209A,121.6673,42.0705,阜新市,农业园区,颗粒物(PM10),62,74,37,30,19,111,55,55,55,14,9,22,12,0.9,0.7
2022-07-28T01:00:00,2210A,121.6717,42.0224,阜新市,东苑,颗粒物(PM10),71,92,50,19,26,121,54,54,54,25,12,10,14,0.7,0.6
2022-07-28T01:00:00,2211A,121.6506,42.0498,阜新市,玉龙新城,颗粒物(PM10),52,54,37,23,15,118,28,28,28,29,14,7,7,0.7,0.6
2022-07-28T01:00:00,2212A,123.2,41.1953,辽阳市,宏伟区,,25,17,29,10,17,122,79,79,79,10,8,6,6,0.4,0.5
2022-07-28T01:00:00,2213A,123.1683,41.2495,辽阳市,新华园,,26,20,46,13,24,138,82,82,82,15,15,9,6,0.5,0.6
2022-07-28T01:00:00,2214A,123.2354,41.2639,辽阳市,滨河路,,29,10,40,20,29,122,67,67,67,14,13,7,9,0.5,0.6
2022-07-28T01:00:00,2215A,123.149,41.2991,辽阳市,铁西工业园,,36,36,45,22,32,148,69,69,69,23,19,4,5,0.6,0.8
2022-07-28T01:00:00,2216A,123.8139,42.3022,铁岭市,汇工街西,,34,34,59,20,32,187,38,38,38,24,16,6,8,0.6,0.7
2022-07-28T01:00:00,2217A,123.8649,42.2923,铁岭市,水上乐园,,43,43,48,27,27,171,32,32,32,24,21,5,5,0.4,0.5
2022-07-28T01:00:00,2218A,123.8486,42.2867,铁岭市,银州路东段,,36,36,46,22,30,145,18,18,18,35,21,4,4,0.5,0.6
2022-07-28T01:00:00,2219A,123.7153,42.2217,铁岭市,金沙江路北,,39,39,51,22,28,179,32,32,32,24,27,5,7,0.7,0.9
2022-07-28T01:00:00,2220A,120.4318,41.5881,朝阳市,西梁,,38,38,31,15,14,114,95,95,95,7,11,6,7,0.7,0.7
2022-07-28T01:00:00,2221A,120.4521,41.5646,朝阳市,河畔小区,,31,25,26,18,13,120,99,99,99,6,6,7,7,0.5,0.5
2022-07-28T01:00:00,2222A,120.4176,41.5648,朝阳市,八里堡,,35,35,33,12,14,116,84,84,84,12,12,4,5,0.7,0.7
2022-07-28T01:00:00,2223A,120.3806,41.5969,朝阳市,农业园区,,29,19,31,20,13,111,18,18,18,31,15,6,8,0.6,0.6
2022-07-28T01:00:00,2225A,124.4002,43.1713,四平市,一商场,,49,49,49,29,28,140,59,59,59,5,22,3,4,0.4,0.7
2022-07-28T01:00:00,2226A,124.388,43.193,四平市,境园,颗粒物(PM10),56,62,41,33,27,130,21,21,21,21,14,8,7,0.6,0.7
2022-07-28T01:00:00,2227A,125.1358,42.8845,辽源市,环保局,,32,25,34,22,23,104,51,51,51,14,13,6,7,0.5,0.6
2022-07-28T01:00:00,2229A,125.9358,41.7173,通化市,光明,,24,24,35,6,19,95,18,18,18,14,14,8,10,0.5,0.7
2022-07-28T01:00:00,2230A,125.9446,41.7325,通化市,铁路,,17,17,38,11,20,106,23,23,23,17,19,10,11,0.6,0.7
2022-07-28T01:00:00,2231A,126.4219,41.9171,白山市,喜丰,,45,45,48,10,19,116,8,8,8,19,15,19,13,0.8,0.8
2022-07-28T01:00:00,2232A,126.4077,41.9419,白山市,环保局,,31,31,38,12,18,122,15,15,15,14,12,7,14,0.5,0.6
2022-07-28T01:00:00,2233A,124.8006,45.1214,松原市,江南,,39,33,28,27,21,144,79,79,79,10,10,3,4,0.4,0.5
2022-07-28T01:00:00,2234A,124.7965,45.1722,松原市,江北,,36,36,32,24,14,152,73,73,73,11,10,1,2,0.5,0.5
2022-07-28T01:00:00,2235A,122.7911,45.6077,白城市,洮北区环保局,,39,39,35,16,17,129,79,79,79,8,8,3,6,0.3,0.2
2022-07-28T01:00:00,2236A,122.8738,45.5725,白城市,市环保局,,44,44,41,21,13,120,86,86,86,8,9,5,5,0.3,0.3
2022-07-28T01:00:00,2237A,129.47,42.8883,延边朝鲜族自治州,妇幼医院,,19,19,36,4,20,92,24,24,24,15,13,12,9,0.4,0.5
2022-07-28T01:00:00,2238A,129.5055,42.9108,延边朝鲜族自治州,延边医院,,,,,,,,,,,,,,,,
2022-07-28T01:00:00,2239A,129.3964,42.8881,延边朝鲜族自治州,朝阳川镇医院,,26,26,38,8,16,100,7,7,7,26,14,8,8,0.3,0.4
2022-07-28T01:00:00,2240A,130.9762,45.3001,鸡西市,环保局,,29,29,40,14,20,113,13,13,13,18,20,2,3,0.2,0.3
2022-07-28T01:00:00,2243A,130.9429,45.3039,鸡西市,第一中学,,41,41,42,13,19,125,18,18,18,20,16,3,3,0.3,0.4
2022-07-28T01:00:00,2244A,130.2537,47.3416,鹤岗市,哈啤分公司,,33,33,14,10,6,126,40,40,40,16,12,6,6,0.4,0.3
2022-07-28T01:00:00,2245A,130.2684,47.3086,鹤岗市,斯达机电,,30,30,22,11,7,134,53,53,53,20,10,8,6,0.4,0.3
2022-07-28T01:00:00,2246A,130.3114,47.3388,鹤岗市,东山纸板厂,,,,44,26,15,111,5,5,5,29,14,8,8,0.6,0.4
2022-07-28T01:00:00,2247A,130.1097,47.3382,鹤岗市,五号水库(对照点),,10,10,8,5,5,106,14,14,14,10,12,3,4,0.1,0.1
2022-07-28T01:00:00,2248A,131.1511,46.6937,双鸭山市,双合村,,38,38,41,26,19,136,21,21,21,21,22,10,10,1.6,1.4
2022-07-28T01:00:00,2249A,131.1652,46.6191,双鸭山市,南小市,,19,19,27,10,12,137,26,26,26,20,19,4,5,0.1,0.1
2022-07-28T01:00:00,2250A,131.1524,46.6554,双鸭山市,环保局,,15,15,21,9,9,141,36,36,36,9,15,4,4,0.3,0.5
2022-07-28T01:00:00,2251A,131.12,46.5656,双鸭山市,苗圃(对照点),,30,27,24,21,12,142,22,22,22,4,6,3,4,0.5,0.5
2022-07-28T01:00:00,2252A,128.5159,47.4311,伊春市,环保局,,39,24,23,27,18,104,17,17,17,14,17,4,6,0.3,0.5
2022-07-28T01:00:00,2253A,128.9102,47.7412,伊春市,电力嘉园,,16,12,14,11,8,112,20,20,20,8,10,7,6,0.4,0.6
2022-07-28T01:00:00,2254A,129.5029,48.471,伊春市,汤旺河国家公园(对照点),,23,16,16,16,13,105,0,0,0,2,2,5,6,0.4,0.4
2022-07-28T01:00:00,2255A,130.2751,46.8028,佳木斯市,佳纺,,,41,34,19,14,172,,,,43,21,,7,,0.4
2022-07-28T01:00:00,2256A,130.3995,46.8307,佳木斯市,发电厂,颗粒物(PM10),58,66,41,27,17,154,6,6,6,46,20,3,3,0.5,0.4
2022-07-28T01:00:00,2257A,130.3258,46.7975,佳木斯市,环保局,颗粒物(PM10),55,60,38,23,16,158,27,27,27,36,22,1,3,0.5,0.5
2022-07-28T01:00:00,2258A,130.3648,46.8032,佳木斯市,十一中,颗粒物(PM10),66,81,45,36,20,149,9,9,9,49,28,5,5,0.6,0.5
2022-07-28T01:00:00,2259A,130.3794,46.7588,佳木斯市,四丰(对照点),,29,29,27,18,16,148,64,64,64,17,18,1,1,0.3,0.3
2022-07-28T01:00:00,2262A,131.0518,45.8751,七台河市,新一中(对照点),,23,23,16,14,12,130,7,7,7,33,17,7,7,0.8,0.7
2022-07-28T01:00:00,2263A,127.4833,50.2524,黑河市,交通局,,30,30,42,5,8,84,55,55,55,7,17,5,6,0.4,0.5
2022-07-28T01:00:00,2264A,127.5144,50.2341,黑河市,环保局,,19,16,19,10,9,102,60,60,60,5,12,5,5,0.4,0.4
2022-07-28T01:00:00,2265A,127.5291,50.2472,黑河市,大黑河岛(对照点),,20,2,7,8,11,105,61,61,61,4,6,8,10,0.7,0.7
2022-07-28T01:00:00,2266A,126.9785,46.6365,绥化市,人和东街,,35,24,44,24,26,212,63,63,63,16,15,5,7,0.4,0.4
2022-07-28T01:00:00,2267A,126.964,46.6528,绥化市,党政办公中心,,30,30,40,20,26,213,75,75,75,15,13,6,8,0.4,0.5
2022-07-28T01:00:00,2269A,124.1069,50.4097,大兴安岭地区,科技局,,,,9,,11,76,,71,,,6,,3,,0.3
2022-07-28T01:00:00,2270A,117.396,32.939,蚌埠市,工人疗养院,,35,28,26,24,20,139,37,37,37,65,17,14,11,0.4,0.4
2022-07-28T01:00:00,2271A,117.3605,32.9427,蚌埠市,百货大楼,,44,44,29,20,17,148,27,27,27,76,20,15,11,0.7,0.5
2022-07-28T01:00:00,2273A,117.4185,32.8911,蚌埠市,蚌埠学院,,25,24,25,14,16,154,78,78,78,9,13,9,11,0.3,0.4
2022-07-28T01:00:00,2274A,117.3533,32.9673,蚌埠市,淮上区政府,,34,34,31,17,16,145,69,69,69,21,10,9,10,0.3,0.3
2022-07-28T01:00:00,2275A,117.3145,32.8977,蚌埠市,高新区,,27,22,29,12,21,168,86,86,86,12,14,6,9,0.5,0.6
2022-07-28T01:00:00,2277A,116.8305,32.7727,淮南市,潘集区政府,,31,31,28,9,15,159,62,62,62,12,10,11,8,0.2,0.2
2022-07-28T01:00:00,2278A,117.0067,32.6524,淮南市,师范学院,,31,31,33,19,18,159,75,75,75,5,5,8,9,0.4,0.3
2022-07-28T01:00:00,2279A,116.8569,32.5951,淮南市,谢家集区政府,,30,30,23,20,12,159,79,79,79,13,12,16,11,0.4,0.2
2022-07-28T01:00:00,2280A,116.8281,32.633,淮南市,八公山区政府,,30,30,24,15,17,181,66,66,66,15,11,4,7,0.6,0.3
2022-07-28T01:00:00,2281A,116.6325,32.6201,淮南市,焦岗湖风景区管理处(对照点),,33,33,25,13,9,163,52,52,52,23,15,8,9,0.3,0.3
2022-07-28T01:00:00,2282A,116.8004,33.975,淮北市,监测站,,45,41,36,31,23,169,80,80,80,14,11,6,6,0.5,0.6
2022-07-28T01:00:00,2283A,116.8091,33.9007,淮北市,烈山区政府,细颗粒物(PM2.5),58,57,35,41,29,184,59,59,59,28,16,6,6,0.6,0.6
2022-07-28T01:00:00,2284A,116.7856,33.9477,淮北市,职业技术学院,,48,48,38,30,23,170,68,68,68,17,10,3,6,0.5,0.6
2022-07-28T01:00:00,2285A,117.8177,30.9412,铜陵市,市第四中学,颗粒物(PM10),53,56,39,30,21,207,119,119,119,4,20,3,9,0.4,0.6
2022-07-28T01:00:00,2286A,117.8059,30.9273,铜陵市,市公路局,,50,50,46,29,20,183,107,107,107,10,20,3,8,0.6,0.8
2022-07-28T01:00:00,2287A,117.7807,30.9413,铜陵市,市新民污水厂,颗粒物(PM10),55,60,43,26,21,192,43,43,43,54,25,6,14,0.6,0.6
2022-07-28T01:00:00,2288A,117.7439,30.8792,铜陵市,市第九中学,,,95,56,26,22,197,9,9,9,88,46,9,10,0.9,0.9
2022-07-28T01:00:00,2289A,117.846,30.9413,铜陵市,车站新区,,,,31,,11,52,,25,,,26,,8,,0.6
2022-07-28T01:00:00,2290A,117.8483,30.97,铜陵市,市职教基地,颗粒物(PM10),59,67,42,31,15,191,54,54,54,16,15,4,8,1.0,1
2022-07-28T01:00:00,2291A,117.0809,30.5177,安庆市,环科院,,35,32,33,24,18,221,106,106,106,9,15,5,6,0.7,0.7
2022-07-28T01:00:00,2292A,117.0331,30.5119,安庆市,马山宾馆,,42,38,32,29,18,182,72,72,72,22,18,5,7,0.8,0.7
2022-07-28T01:00:00,2294A,116.9896,30.6145,安庆市,安庆大学,,36,36,29,19,15,173,34,34,34,22,18,6,5,0.4,0.5
2022-07-28T01:00:00,2295A,118.2903,29.6963,黄山市,延安路89号,,28,28,33,18,14,132,8,8,8,10,5,5,6,0.3,0.3
2022-07-28T01:00:00,2296A,118.327,29.7178,黄山市,黄山东路89号,,29,29,25,16,12,133,29,29,29,6,6,5,5,0.5,0.4
2022-07-28T01:00:00,2297A,118.1371,30.2756,黄山市,黄山区政府5号楼,,26,26,26,6,8,110,14,14,14,5,4,6,5,0.4,0.3
2022-07-28T01:00:00,2298A,118.3093,32.3153,滁州市,老年大学,,30,30,22,20,14,169,90,90,90,14,13,3,4,0.2,0.2
2022-07-28T01:00:00,2299A,118.3244,32.2786,滁州市,人大宾馆,,26,20,16,18,9,166,77,77,77,19,14,5,6,0.4,0.3
2022-07-28T01:00:00,2301A,115.8277,32.8929,阜阳市,市监测站,,31,31,14,14,6,154,92,92,92,9,8,11,8,0.6,0.5
2022-07-28T01:00:00,2303A,115.8554,32.8605,阜阳市,开发区,,34,34,16,19,9,157,74,74,74,15,12,8,8,0.5,0.4
2022-07-28T01:00:00,2306A,116.989,33.6306,宿州市,火车站,,,,,,,,,,,,,,,,
2022-07-28T01:00:00,2307A,116.5079,31.737,六安市,监测大楼,,26,20,20,13,11,147,83,83,83,3,9,5,7,0.4,0.4
2022-07-28T01:00:00,2308A,116.4738,31.7643,六安市,皖西学院,,33,33,19,12,10,165,89,89,89,5,8,10,13,0.2,0.2
2022-07-28T01:00:00,2309A,116.4996,31.7905,六安市,朝阳厂,,23,11,23,11,12,170,72,72,72,4,8,9,10,0.4,0.4
2022-07-28T01:00:00,2310A,116.5567,31.7886,六安市,开发区,,19,17,17,11,11,136,58,58,58,7,8,7,9,0.3,0.3
2022-07-28T01:00:00,2311A,115.8072,33.8399,亳州市,污水处理厂,,32,31,15,17,10,124,100,100,100,10,9,7,7,0.5,0.4
2022-07-28T01:00:00,2312A,115.7789,33.8518,亳州市,三国揽胜宫,,33,24,23,16,6,121,104,104,104,6,5,7,7,0.5,0.5
2022-07-28T01:00:00,2314A,117.47,30.6618,池州市,池州学院,细颗粒物(PM2.5),52,47,44,36,25,217,89,89,89,12,14,6,8,0.8,0.7
2022-07-28T01:00:00,2315A,117.4974,30.6539,池州市,平天湖(对照点),,,,,,,,,,,,,,,,
2022-07-28T01:00:00,2316A,118.7581,30.9454,宣城市,鳌峰子站,,27,27,28,13,14,145,82,82,82,12,14,6,6,0.3,0.4
2022-07-28T01:00:00,2317A,118.7385,30.9743,宣城市,敬亭山子站,,22,22,30,14,14,149,52,52,52,19,17,8,10,0.2,0.3
2022-07-28T01:00:00,2318A,118.7173,30.9427,宣城市,开发区子站,,23,19,28,15,16,140,73,73,73,13,14,6,8,0.3,0.3
2022-07-28T01:00:00,2319A,119.0141,25.4325,莆田市,荔城区仓后路,颗粒物(PM10),55,59,58,15,36,167,27,27,27,26,24,5,5,0.7,0.7
2022-07-28T01:00:00,2320A,119.0015,25.4553,莆田市,莆田市监测站,颗粒物(PM10),52,53,50,30,32,180,25,25,25,20,18,6,6,0.7,0.8
2022-07-28T01:00:00,2321A,119.1119,25.4561,莆田市,涵江区六中,,30,30,42,12,21,151,45,45,45,15,20,7,8,0.5,0.5
2022-07-28T01:00:00,2322A,119.1013,25.3215,莆田市,秀屿区政府,,29,29,29,4,13,107,38,38,38,9,10,5,6,0.6,0.6
2022-07-28T01:00:00,2323A,118.981,25.4792,莆田市,东圳水库(对照点),,,,,,,,,,,,,,,,
2022-07-28T01:00:00,2324A,117.6211,26.2625,三明市,三钢,颗粒物(PM10),52,54,59,30,33,153,31,31,31,24,21,5,7,0.7,0.6
2022-07-28T01:00:00,2325A,117.635,26.2714,三明市,三明二中,,43,43,52,28,36,161,24,24,24,39,26,10,12,1.5,1.2
2022-07-28T01:00:00,2326A,117.6028,26.2378,三明市,三元区政府,颗粒物(PM10),54,58,53,20,30,151,15,15,15,28,21,7,7,0.8,0.7
2022-07-28T01:00:00,2327A,117.7275,26.3108,三明市,洋溪(对照点),,,,,,,,,,,,,,,,
2022-07-28T01:00:00,2331A,118.0966,26.6761,南平市,茫荡山(对照点),,,,,,,,,,,,,,,,
2022-07-28T01:00:00,2332A,118.1681,26.6369,南平市,南平市监测站,,36,36,38,19,27,144,76,76,76,8,7,7,7,0.3,0.3
2022-07-28T01:00:00,2333A,118.1825,26.6489,南平市,南平铝业有限公司,,33,33,42,21,29,136,70,70,70,10,8,6,5,0.5,0.5
2022-07-28T01:00:00,2334A,118.1756,26.6272,南平市,南平七中,,39,33,39,27,31,137,83,83,83,7,6,5,6,0.4,0.4
2022-07-28T01:00:00,2335A,117.0189,25.1181,龙岩市,龙岩师专(对照点),,,,,,,,,,,,,,,,
2022-07-28T01:00:00,2336A,117.0217,25.1033,龙岩市,龙岩市监测站,,37,37,50,18,26,135,6,6,6,28,23,6,9,0.6,0.6
2022-07-28T01:00:00,2337A,117.0258,25.0661,龙岩市,闽西职业技术学院,,50,50,54,20,27,120,3,3,3,40,24,13,7,0.6,0.6
2022-07-28T01:00:00,2338A,117.0196,25.0306,龙岩市,龙岩学院,,41,41,40,15,23,116,8,8,8,33,15,4,5,0.5,0.5
2022-07-28T01:00:00,2339A,119.5001,26.6946,宁德市,金涵水库(对照点),,36,36,47,22,20,190,36,36,36,13,13,4,5,0.5,0.6
2022-07-28T01:00:00,2341A,119.5388,26.6612,宁德市,宁德市监测站,,33,33,44,20,24,169,73,73,73,13,13,6,8,0.6,0.8
2022-07-28T01:00:00,2342A,117.3102,29.3867,景德镇市,王港中学(对照点),细颗粒物(PM2.5),58,56,47,41,28,170,55,55,55,9,12,5,5,0.6,0.5
2022-07-28T01:00:00,2343A,117.2117,29.2933,景德镇市,老干部活动中心,颗粒物(PM10),73,96,48,40,27,189,24,24,24,26,12,6,8,0.5,0.5
2022-07-28T01:00:00,2344A,117.1894,29.2789,景德镇市,兽医站,颗粒物(PM10),52,53,40,35,25,177,42,42,42,21,10,5,6,0.7,0.6
2022-07-28T01:00:00,2345A,117.1547,29.2617,景德镇市,台达陶瓷,,,,,,,,,,,,,,,,
2022-07-28T01:00:00,2346A,117.2461,29.2956,景德镇市,陶研所,颗粒物(PM10),53,56,38,34,23,160,29,29,29,16,8,6,7,0.6,0.5
2022-07-28T01:00:00,2347A,114.0997,27.5002,萍乡市,武功山(对照点),,15,10,10,10,9,48,21,21,21,7,6,18,19,0.2,0.3
2022-07-28T01:00:00,2348A,113.8385,27.6434,萍乡市,中医院,,26,25,24,18,19,103,46,46,46,16,16,7,10,0.4,0.5
2022-07-28T01:00:00,2349A,113.8493,27.6253,萍乡市,市政府车库,,29,29,33,16,24,108,33,33,33,21,20,10,11,0.4,0.6
2022-07-28T01:00:00,2350A,113.8676,27.6435,萍乡市,市环保局,,46,46,34,26,24,107,11,11,11,42,20,31,14,0.9,0.7
2022-07-28T01:00:00,2351A,113.866,27.6198,萍乡市,安源区政府,,40,32,32,28,24,107,32,32,32,21,16,10,10,0.2,0.5
2022-07-28T01:00:00,2352A,115.0861,27.9317,新余市,北岗(对照点),,45,44,44,31,29,185,16,16,16,9,10,8,10,1.2,0.9
2022-07-28T01:00:00,2353A,114.9886,27.8431,新余市,飞宇,颗粒物(PM10),57,63,52,29,27,132,7,7,7,27,18,11,10,1.1,0.9
2022-07-28T01:00:00,2354A,114.9231,27.8246,新余市,第二水厂,颗粒物(PM10),59,67,52,31,26,143,8,8,8,39,20,8,8,1.8,1.3
2022-07-28T01:00:00,2355A,114.9308,27.8036,新余市,市气象局,颗粒物(PM10),64,78,55,36,29,132,7,7,7,34,18,10,11,2.4,0.7
2022-07-28T01:00:00,2357A,116.9822,28.1136,鹰潭市,龙虎山(对照点),,34,34,41,23,23,144,43,43,43,6,6,3,2,0.4,0.5
2022-07-28T01:00:00,2358A,117.0564,28.2642,鹰潭市,新监测站,颗粒物(PM10),52,53,56,32,29,157,46,46,46,1,7,2,10,0.4,0.5
2022-07-28T01:00:00,2359A,117.0311,28.2475,鹰潭市,财苑宾馆,,49,25,56,34,24,143,39,39,39,12,10,3,11,0.4,0.6
2022-07-28T01:00:00,2360A,117.0222,28.2264,鹰潭市,体育馆,,42,42,54,27,29,140,44,44,44,7,8,3,6,0.4,0.3
2022-07-28T01:00:00,2361A,117.0017,28.2131,鹰潭市,三川水表,,48,48,55,29,26,137,38,38,38,2,3,1,3,0.6,0.6
2022-07-28T01:00:00,2362A,114.9017,25.9149,赣州市,通天岩(对照点),"颗粒物(PM10),细颗粒物(PM2.5)",59,67,56,42,38,185,57,57,57,24,14,11,9,0.6,0.5
2022-07-28T01:00:00,2363A,114.9367,25.8664,赣州市,地委,,49,45,54,34,35,189,119,119,119,10,13,15,12,1.0,1
2022-07-28T01:00:00,2364A,114.9461,25.8481,赣州市,气象台,,49,43,50,34,36,195,126,126,126,9,9,12,8,0.8,0.8
2022-07-28T01:00:00,2365A,114.9322,25.8333,赣州市,市图书馆,,50,50,49,34,36,199,136,136,136,12,14,11,6,1.0,1.1
2022-07-28T01:00:00,2366A,114.8905,25.8471,赣州市,华坚鞋城,颗粒物(PM10),58,65,60,40,36,202,111,111,111,15,15,8,7,0.8,0.8
2022-07-28T01:00:00,2367A,114.9754,27.0803,吉安市,红声器材厂,颗粒物(PM10),57,64,57,38,36,173,81,81,81,7,11,12,6,0.5,0.5
2022-07-28T01:00:00,2368A,114.9658,27.0999,吉安市,市森林工业局,细颗粒物(PM2.5),63,74,62,45,43,164,80,80,80,8,13,14,9,0.5,0.6
2022-07-28T01:00:00,2369A,114.99,27.1312,吉安市,市环境监测站,颗粒物(PM10),58,65,55,40,35,170,74,74,74,10,11,20,12,0.7,0.6
2022-07-28T01:00:00,2370A,115.0093,27.0968,吉安市,青原区法院,颗粒物(PM10),56,62,54,39,34,179,80,80,80,6,7,17,14,0.6,0.5
2022-07-28T01:00:00,2371A,114.3408,27.8064,宜春市,槟榔水业(对照点),,,,,,,,,,,,,,,,
2022-07-28T01:00:00,2373A,114.3956,27.7844,宜春市,市石油公司,,49,49,45,26,26,148,28,28,28,19,16,4,7,1.0,1.5
2022-07-28T01:00:00,2374A,114.3703,27.7914,宜春市,市气象局,,45,45,44,30,24,156,42,42,42,14,14,5,6,0.8,0.8
2022-07-28T01:00:00,2375A,114.4013,27.8074,宜春市,市广电局,,50,39,43,35,26,162,49,49,49,12,12,11,7,0.7,0.9
2022-07-28T01:00:00,2376A,116.2127,28.0814,抚州市,桐源党溪(对照点),细颗粒物(PM2.5),59,52,51,42,34,112,21,21,21,10,10,1,2,0.9,1
