timepoint,stationcode,longitude,latitude,area,positionname,primarypollutant,aqi,pm10,pm10_24h,pm2_5,pm2_5_24h,o3,o3_24h,o3_8h,o3_8h_24h,no2,no2_24h,so2,so2_24h,co,co_24h
2025-07-29T1000,2566A,102.1879,31.914,阿坝藏族羌族自治州,州农科所,,16,,17,11,10,37,,30,28,3,5,14,13,1.1,1
2025-07-29T1000,2568A,102.2502,31.8896,阿坝藏族羌族自治州,马师校,,19,,11,13,14,29,,17,17,4,8,7,7,0.6,0.6
2025-07-29T1000,3994A,102.2165,31.9024,阿坝藏族羌族自治州,马尔康中学西区,,10,9,16,7,15,32,,23,22,3,4,7,7,0.7,0.7
2025-07-29T1000,2695A,80.292,41.1694,阿克苏地区,电视台,,35,35,56,12,29,60,,78,76,9,10,2,3,0.7,0.7
2025-07-29T1000,2696A,80.2613,41.1551,阿克苏地区,艺术中心,,35,35,59,16,36,62,,86,83,2,9,3,3,0.5,0.5
2025-07-29T1000,2204A,105.6467,38.8363,阿拉善盟,西城区西花园,,47,47,50,14,17,94,,80,78,11,11,11,10,1.1,1
2025-07-29T1000,2205A,105.6985,38.8411,阿拉善盟,蒙二幼,,49,49,48,19,19,122,,106,105,12,10,11,10,0.7,0.5
2025-07-29T1000,2206A,105.724,38.8516,阿拉善盟,环保局新楼,,,44,31,21,17,116,,116,113,,5,,9,0.6,0.5
2025-07-29T1000,2708A,88.1264,47.8517,阿勒泰地区,市站,颗粒物(PM10),62,74,51,11,12,31,,78,65,41,16,3,2,0.7,0.5
2025-07-29T1000,2630A,80.1161,32.5,阿里地区,阿里监测站,,28,6,6,3,2,88,,90,90,12,8,5,6,0.2,0.1
2025-07-29T1000,3192A,80.0903,32.5028,阿里地区,阿里藏医院,,30,12,8,3,2,94,,96,96,7,3,7,7,0.2,0.1
2025-07-29T1000,2642A,109.0318,32.6537,安康市,香溪洞,,25,25,19,12,12,76,,55,54,6,4,7,6,0.4,0.3
2025-07-29T1000,2644A,109.0072,32.6975,安康市,汉滨区检察院,,23,15,18,8,10,71,,38,38,6,5,6,5,0.3,0.2
2025-07-29T1000,4054A,109.0325,32.6913,安康市,市邮政管理局,,29,29,20,13,12,72,,39,39,11,7,7,5,0.7,0.6
2025-07-29T1000,2291A,117.0809,30.5177,安庆市,环科院,,29,,18,20,15,52,,30,29,6,6,4,4,0.6,0.6
2025-07-29T1000,2292A,117.0331,30.5119,安庆市,马山宾馆,,30,23,20,21,13,49,,33,31,6,5,3,3,0.4,0.4
2025-07-29T1000,2294A,116.9896,30.6145,安庆市,安庆大学,,26,21,18,18,13,55,,39,37,6,6,5,4,0.4,0.3
2025-07-29T1000,3173A,117.0598,30.5351,安庆市,市人大,,26,26,21,18,14,54,,32,31,9,9,4,4,0.5,0.4
2025-07-29T1000,3122A,105.9606,26.2611,安顺市,伍家关,,28,18,25,16,15,87,,36,36,8,16,5,6,0.6,0.7
2025-07-29T1000,3123A,105.9408,26.2431,安顺市,凤凰山,,30,28,32,13,20,95,,38,38,9,17,8,11,0.4,0.5
2025-07-29T1000,3124A,105.9439,26.2564,安顺市,金钟山,,30,24,27,16,21,94,,58,57,7,9,8,10,0.5,0.5
2025-07-29T1000,3125A,105.8983,26.2481,安顺市,娄家坡,,27,22,25,17,19,86,,,,7,7,8,12,0.4,0.4
2025-07-29T1000,1818A,114.4839,36.0621,安阳市,棉研所,,,,,,,,,,,,,,,,
2025-07-29T1000,1819A,114.3551,36.1017,安阳市,红庙街,,,49,35,18,14,83,,57,57,,8,,4,0.5,0.5
2025-07-29T1000,1820A,114.361,36.0681,安阳市,银杏小区,,47,47,35,22,20,78,,46,46,7,8,5,4,0.4,0.4
2025-07-29T1000,3141A,114.3922,36.0878,安阳市,信访局,,43,43,36,16,18,88,,58,54,9,13,6,5,0.3,0.3
2025-07-29T1000,3669A,114.4705,36.0637,安阳市,左辅环卫站,,36,36,34,19,16,65,,35,35,9,12,8,7,0.5,0.5
2025-07-29T1000,3703A,114.2917,36.0949,安阳市,安钢职工学校,颗粒物(PM10),51,51,37,20,21,91,,64,64,13,9,9,6,0.7,0.5
2025-07-29T1000,1748A,123.044,41.1196,鞍山市,深沟寺,,,28,30,11,16,66,,85,80,,13,11,8,,0.8
2025-07-29T1000,1749A,123.011,41.0931,鞍山市,太阳城,,25,25,29,12,16,66,,85,79,14,13,10,8,0.8,0.8
2025-07-29T1000,1750A,123.0485,41.1442,鞍山市,太平,,27,27,32,9,13,73,,90,84,12,13,12,10,0.9,1
2025-07-29T1000,1751A,122.9642,41.0971,鞍山市,铁西三道街,,35,35,35,14,20,64,,67,65,13,18,10,8,0.9,1.1
2025-07-29T1000,1753A,123.022,41.0821,鞍山市,明达新区,,24,24,28,8,14,59,,83,76,13,11,13,10,0.9,0.7
2025-07-29T1000,1754A,123.1289,41.0228,鞍山市,千山,,,,,,,,,,,,,,,,
2025-07-29T1000,4201A,122.9446,41.0826,鞍山市,兴盛南路290号,,24,24,30,10,16,62,,70,69,15,19,8,8,0.6,0.7
2025-07-29T1000,2195A,107.4212,40.761,巴彦淖尔市,附二中,,38,17,29,9,14,119,,82,82,9,7,7,7,0.5,0.5
2025-07-29T1000,2196A,107.37,40.7372,巴彦淖尔市,市环保大楼,,,35,42,10,12,92,,74,74,8,8,6,6,,0.4
2025-07-29T1000,1956A,86.1472,41.7538,巴音郭楞蒙古自治州,孔雀公园,颗粒物(PM10),80,110,62,48,25,62,,82,76,20,13,5,4,0.3,0.2
2025-07-29T1000,1957A,86.1972,41.7166,巴音郭楞蒙古自治州,棉纺厂,颗粒物(PM10),90,130,78,39,20,76,,90,89,5,8,4,5,0.2,0.2
2025-07-29T1000,1958A,86.2357,41.7173,巴音郭楞蒙古自治州,经济开发区,颗粒物(PM10),80,110,59,34,19,84,,98,95,5,5,3,5,0.1,0.1
2025-07-29T1000,2914A,106.7677,31.8794,巴中市,苏山坪,,26,26,19,15,13,62,,58,53,9,6,4,4,0.5,0.4
2025-07-29T1000,3181A,106.7768,31.8526,巴中市,市五中,,23,22,21,16,14,69,,32,32,12,9,9,9,0.6,0.5
2025-07-29T1000,3183A,106.7418,31.8654,巴中市,圣泉水务公司,,25,18,18,17,18,62,,45,42,4,5,7,7,0.6,0.6
2025-07-29T1000,3616A,106.7616,31.8344,巴中市,市中心医院,,23,23,18,15,13,64,,36,36,13,10,9,9,0.5,0.4
2025-07-29T1000,2235A,122.7911,45.6077,白城市,洮北区环保局,,,8,11,6,7,95,,99,99,3,3,,4,,0.3
2025-07-29T1000,2236A,122.8738,45.5725,白城市,市环保局,,29,6,12,3,5,91,,95,95,3,4,4,3,0.3,0.4
2025-07-29T1000,2231A,126.4219,41.9171,白山市,喜丰,,42,42,35,16,12,51,,21,21,15,14,6,5,0.9,1
2025-07-29T1000,2232A,126.4077,41.9419,白山市,环保局,,27,27,29,18,14,67,,22,22,11,13,6,6,0.8,1
2025-07-29T1000,2647A,104.1724,36.5446,白银市,第三小学,,39,39,39,22,25,75,,68,67,16,15,56,43,1.3,0.9
2025-07-29T1000,2648A,104.1465,36.5482,白银市,动力公司,,39,32,37,27,23,72,,55,55,17,18,24,31,1.4,0.9
2025-07-29T1000,2512A,106.6103,23.9011,百色市,市监测站,,32,32,33,14,20,38,,17,17,6,10,5,5,0.6,0.6
2025-07-29T1000,2513A,106.6538,23.8859,百色市,市中心血站,,39,39,53,24,39,46,,14,14,16,23,3,5,0.6,0.7
2025-07-29T1000,3406A,106.6085,23.8798,百色市,祈福高中,,,16,57,15,32,,,9,8,9,16,4,5,,0.8
2025-07-29T1000,2270A,117.396,32.939,蚌埠市,工人疗养院,颗粒物(PM10),68,85,22,8,4,36,,14,14,5,6,5,4,0.3,0.2
2025-07-29T1000,2271A,117.3605,32.9427,蚌埠市,百货大楼,,,23,17,13,4,,,10,10,4,6,6,6,0.3,0.3
2025-07-29T1000,2273A,117.4185,32.8911,蚌埠市,蚌埠学院,,24,24,14,12,5,39,,16,16,3,9,6,6,0.3,0.3
2025-07-29T1000,2274A,117.3533,32.9673,蚌埠市,淮上区政府,,27,27,17,8,6,35,,18,18,7,7,6,5,0.4,0.4
2025-07-29T1000,2275A,117.3145,32.8977,蚌埠市,高新区,,27,27,17,10,4,31,,16,16,7,9,6,5,0.4,0.3
2025-07-29T1000,3715A,117.3092,32.9314,蚌埠市,蚌埠田家炳中学,,34,34,22,11,9,30,,15,15,5,7,5,6,0.2,0.1
2025-07-29T1000,1585A,109.8756,40.6532,包头市,市环境监测站,,30,,23,14,15,95,,55,55,7,15,5,4,0.5,0.6
2025-07-29T1000,1587A,109.9991,40.5842,包头市,包头八中,,,,34,,18,,,106,,,13,,4,,0.7
2025-07-29T1000,1588A,109.8538,40.6821,包头市,青山宾馆,,29,20,22,3,16,90,,48,48,11,16,4,3,0.5,0.6
2025-07-29T1000,1589A,109.8642,40.6288,包头市,惠龙物流,,,,25,,15,91,,57,57,5,9,,3,0.5,0.6
2025-07-29T1000,1590A,110.0377,40.5546,包头市,东河鸿龙湾,,29,21,22,20,16,90,,51,51,11,14,6,2,0.7,0.6
2025-07-29T1000,3283A,109.9154,40.5685,包头市,滨河大厦,,,26,23,19,17,90,,42,42,9,15,6,2,,0.6
2025-07-29T1000,3419A,109.9447,40.6261,包头市,包头市委党校,,31,13,24,6,14,99,,55,55,6,12,5,4,0.4,0.5
2025-07-29T1000,3683A,109.8331,40.6576,包头市,昆区政府,,30,20,26,3,18,93,,61,61,7,14,2,2,0.6,0.8
2025-07-29T1000,1930A,107.185,34.3063,宝鸡市,庙沟村,,26,24,24,13,16,82,,80,75,12,8,4,4,0.4,0.4
2025-07-29T1000,1931A,107.0708,34.3017,宝鸡市,竹园沟,,32,32,25,16,17,80,,51,51,18,10,8,8,0.6,0.6
2025-07-29T1000,1932A,107.1906,34.3672,宝鸡市,三陆医院,,,72,37,,28,71,,40,37,,20,,8,0.7,0.6
2025-07-29T1000,1933A,107.1431,34.3547,宝鸡市,监测站,,37,37,33,20,19,79,,61,61,11,11,8,8,0.5,0.4
2025-07-29T1000,1934A,107.1186,34.3739,宝鸡市,技工学校,,40,40,32,20,19,79,,59,58,8,10,6,7,0.6,0.5
2025-07-29T1000,1936A,107.2058,34.3497,宝鸡市,文理学院,,44,44,34,17,17,78,,63,61,18,12,8,7,0.5,0.4
2025-07-29T1000,1937A,107.2386,34.3622,宝鸡市,三迪小学,颗粒物(PM10),51,52,34,21,19,82,,58,56,19,16,9,8,0.5,0.5
2025-07-29T1000,4308A,107.3898,34.3601,宝鸡市,陈仓区北开路21号,,29,29,25,15,17,92,,56,56,13,13,9,8,0.3,0.3
2025-07-29T1000,1051A,115.493,38.8632,保定市,游泳馆,,28,13,26,3,13,89,,93,91,3,4,2,2,0,0
2025-07-29T1000,1052A,115.5213,38.8959,保定市,华电二区,,28,19,28,7,14,89,,94,92,7,9,1,3,0.0,0.2
2025-07-29T1000,1053A,115.4713,38.9108,保定市,接待中心,,,15,27,,13,83,,89,87,1,3,3,3,0.4,0.3
2025-07-29T1000,1054A,115.4612,38.8416,保定市,地表水厂,,28,14,33,3,12,88,,89,87,3,4,2,2,0.0,0
2025-07-29T1000,3581A,115.31981,38.95208,保定市,满城区生态环境分局,,,7,24,,13,82,,84,84,8,7,2,2,0.2,0.1
2025-07-29T1000,3582A,115.47694,38.76408,保定市,清苑区第二中学,,31,,32,17,23,98,,89,89,1,4,4,4,0.3,0.3
2025-07-29T1000,3583A,115.62909,39.02311,保定市,徐水物探局,,,14,22,,12,86,,96,91,4,5,4,5,0.3,0.3
2025-07-29T1000,4004A,115.4202,38.8656,保定市,双鹰农机,,28,25,27,8,16,87,,87,87,5,6,2,2,0.1,0.2
2025-07-29T1000,4034A,115.5150,38.8590,保定市,植保所站,,33,9,26,6,16,104,,108,106,6,8,3,3,0.1,0.1
2025-07-29T1000,2594A,99.1678,25.1081,保山市,市环境监测站,,46,,20,32,15,26,,20,20,16,7,7,8,0.6,0.4
2025-07-29T1000,2595A,99.1711,25.1328,保山市,市环保局,,26,26,20,10,10,28,,28,26,9,4,8,9,0.5,0.4
2025-07-29T1000,1866A,109.2262,21.588,北海市,牛尾岭水库,,33,10,7,7,3,105,,75,75,4,3,3,2,0.5,0.4
2025-07-29T1000,1867A,109.1436,21.4086,北海市,海滩公园,,33,33,29,3,3,80,,66,66,4,3,2,2,0.6,0.5
2025-07-29T1000,1868A,109.0981,21.4661,北海市,新市环保局,,25,22,11,17,8,76,,59,59,6,4,3,2,0.4,0.3
2025-07-29T1000,1869A,109.1778,21.5233,北海市,北海工业园,,33,33,13,12,5,72,,58,58,9,5,5,3,0.5,0.4
2025-07-29T1000,3400A,109.1911,21.4415,北海市,龙潭自来水厂,,,,11,34,8,,,60,60,5,3,,6,0.5,0.4
2025-07-29T1000,1001A,116.3621,39.8784,北京市,万寿西宫,,20,6,14,3,11,64,,86,78,17,13,2,2,0.5,0.5
2025-07-29T1000,1002A,116.2202,40.2915,北京市,定陵,,17,6,10,3,8,54,,56,50,2,3,10,9,0.4,0.4
2025-07-29T1000,1003A,116.4174,39.9289,北京市,东四,,23,6,15,3,11,71,,92,86,16,15,3,3,0.6,0.5
2025-07-29T1000,1004A,116.4072,39.8863,北京市,天坛,,22,6,16,3,12,68,,76,74,10,13,4,4,0.5,0.5
2025-07-29T1000,1005A,116.462,39.9365,北京市,农展馆,,19,,14,3,11,60,,76,70,12,10,2,2,0.5,0.5
2025-07-29T1000,1006A,116.3392,39.9295,北京市,官园,,21,6,16,3,12,67,,90,82,15,11,3,3,0.3,0.3
2025-07-29T1000,1007A,116.2878,39.9611,北京市,海淀万柳,,19,6,12,3,8,59,,75,69,18,12,2,2,0.3,0.3
2025-07-29T1000,1008A,116.6636,40.135,北京市,顺义新城,,,,,,,,,,,,,,,,
2025-07-29T1000,1009A,116.6275,40.3275,北京市,怀柔镇,,24,6,8,3,6,74,,85,78,9,6,3,3,0.4,0.4
2025-07-29T1000,1010A,116.2296,40.217,北京市,昌平镇,,18,6,12,3,9,56,,49,45,15,10,3,3,0.5,0.5
2025-07-29T1000,1011A,116.3966,39.9821,北京市,奥体中心,,20,6,10,3,7,64,,78,73,10,9,3,3,0.3,0.3
2025-07-29T1000,3281A,115.9718,40.4529,北京市,延庆夏都,,19,6,9,3,4,59,,67,62,6,3,2,2,0.6,0.6
2025-07-29T1000,3418A,116.8336,40.4095,北京市,密云新城,,24,6,10,3,5,75,,72,68,2,1,3,3,0.4,0.4
2025-07-29T1000,3671A,116.088,39.9726,北京市,门头沟三家店,,22,6,10,3,7,70,,74,73,2,5,2,2,0.4,0.4
2025-07-29T1000,3672A,116.1541,39.8204,北京市,丰台云岗,,23,6,15,3,12,71,,81,74,2,6,2,2,0.5,0.5
2025-07-29T1000,3673A,116.6804,39.9081,北京市,通州东关,,26,,15,3,13,81,,86,82,11,8,4,4,0.5,0.5
2025-07-29T1000,3674A,115.9577,39.7603,北京市,房山燕山,,24,6,15,3,12,75,,87,79,3,6,3,3,0.3,0.4
2025-07-29T1000,3675A,116.4672,39.7733,北京市,大兴旧宫,,28,6,14,3,10,89,,82,79,7,10,1,1,0.5,0.6
2025-07-29T1000,3694A,115.986,40.4563,北京市,延庆石河营,,16,7,11,3,7,49,,52,48,5,3,2,2,0.4,0.4
2025-07-29T1000,3695A,116.6151,40.3053,北京市,怀柔新城,,22,6,10,3,6,70,,74,68,5,2,1,1,0.6,0.6
2025-07-29T1000,3696A,116.2545,39.8768,北京市,丰台小屯,,17,6,13,3,10,54,,74,68,1,4,1,1,0.4,0.5
2025-07-29T1000,3697A,116.84,40.3844,北京市,密云镇,,24,6,9,3,6,75,,75,70,7,5,3,3,0.7,0.6
2025-07-29T1000,4182A,116.1942,39.9158,北京市,八角北路9号,,22,6,13,3,8,70,,86,81,5,8,2,2,0.1,0.2
2025-07-29T1000,4194A,117.0790,40.1518,北京市,洳河巡河路,,25,,14,3,12,77,,86,80,5,4,2,2,0.3,0.4
2025-07-29T1000,1761A,123.8275,41.3064,本溪市,大峪,,,15,34,9,14,77,,33,33,4,15,,6,0.2,0.7
2025-07-29T1000,1762A,123.7567,41.3325,本溪市,溪湖,,25,25,34,9,14,60,,40,40,8,10,7,5,1.3,1.2
2025-07-29T1000,1763A,123.7169,41.3094,本溪市,彩屯,,,,33,,18,51,,21,21,19,20,15,8,2.2,1.3
2025-07-29T1000,1764A,123.7669,41.2864,本溪市,东明,,25,25,41,13,18,71,,49,49,6,17,4,4,0.4,0.8
2025-07-29T1000,1765A,123.7992,41.2664,本溪市,新立屯,,23,22,27,11,14,71,,59,59,6,12,4,4,0.6,0.8
2025-07-29T1000,1766A,123.8142,41.3472,本溪市,威宁,,25,25,31,7,16,67,,26,26,5,12,8,8,0.3,0.8
2025-07-29T1000,2587A,105.2864,27.3125,毕节市,八中,,,32,27,24,19,,,11,11,14,12,6,5,0.7,0.5
2025-07-29T1000,2588A,105.31,27.2944,毕节市,师专,,43,43,40,20,19,40,,13,13,21,18,5,6,0.6,0.5
2025-07-29T1000,4263A,105.3688,27.3598,毕节市,工业大道,,39,39,31,25,18,44,,11,11,17,17,7,6,0.7,0.6
2025-07-29T1000,1629A,118.0018,37.3617,滨州市,第二水厂,,,27,21,12,14,,,21,21,8,10,,5,0.7,0.5
2025-07-29T1000,1630A,117.9776,37.393,滨州市,北中新校,,22,22,23,14,11,56,,27,27,10,13,5,3,0.4,0.3
2025-07-29T1000,3514A,117.9378,37.3956,滨州市,中海酒店,,28,22,20,19,15,59,,29,29,3,5,11,9,0.7,0.6
2025-07-29T1000,3515A,117.9378,37.3553,滨州市,开发区一中,,,,22,,9,73,,34,34,,12,10,14,,0.4
2025-07-29T1000,3516A,118.0917,37.694,滨州市,金海六路,,24,24,21,7,8,51,,19,19,4,14,14,11,0.2,0.2
2025-07-29T1000,4028A,117.9956,37.3753,滨州市,滨州市西街道办事处,,,24,16,19,13,62,,31,31,,9,,4,0.3,0.2
2025-07-29T1000,2311A,115.8072,33.8399,亳州市,污水处理厂,,18,18,12,10,7,35,,23,23,8,6,1,4,0.5,0.4
2025-07-29T1000,2312A,115.7789,33.8518,亳州市,三国揽胜宫,,24,24,20,3,5,39,,27,27,6,4,4,6,0.5,0.5
2025-07-29T1000,3332A,115.7633,33.8034,亳州市,亳州学院,,16,16,11,10,8,34,,25,25,8,5,2,3,0.4,0.4
2025-07-29T1000,2693A,82.0485,44.8556,博尔塔拉蒙古自治州,市党校,,,,81,,32,49,,60,56,33,12,8,4,0.6,0.3
2025-07-29T1000,2694A,82.0806,44.8969,博尔塔拉蒙古自治州,市环保局,一氧化碳,104,50,88,16,25,40,,47,46,11,9,6,6,12.0,2.9
2025-07-29T1000,1071A,116.8842,38.2991,沧州市,沧县城建局,,,29,40,15,13,50,,68,58,10,12,,2,,0.6
2025-07-29T1000,1072A,116.8584,38.3254,沧州市,电视转播站,,42,42,36,14,19,54,,70,62,9,12,5,6,0.1,0.2
2025-07-29T1000,1073A,116.8709,38.3228,沧州市,市环保局,,41,41,39,16,18,58,,69,60,6,8,1,2,0.2,0.3
2025-07-29T1000,3324A,116.8136,38.3004,沧州市,河北水利电力学院,,28,27,31,19,21,62,,76,66,6,8,3,4,0.2,0.3
2025-07-29T1000,2622A,97.1806,31.1273,昌都市,昌都监测站,,14,,11,8,7,44,,60,53,15,6,4,4,0.5,0.3
2025-07-29T1000,3719A,97.1714,31.1406,昌都市,昌都会议中心,,19,19,12,12,7,47,,65,58,14,6,5,5,0.2,0.1
2025-07-29T1000,2690A,88.1236,43.8886,昌吉回族自治州,天山天池,,35,35,55,13,14,49,,61,56,7,8,4,6,0.6,0.7
2025-07-29T1000,2692A,87.2717,44.0297,昌吉回族自治州,新区政务中心,颗粒物(PM10),63,75,62,27,20,18,,68,53,39,11,7,8,0.6,0.3
2025-07-29T1000,3613A,87.3095,44.0142,昌吉回族自治州,亚心广场,颗粒物(PM10),89,127,84,29,28,10,,64,46,63,19,8,9,0.7,0.3
2025-07-29T1000,1120A,125.2863,43.9027,长春市,客车厂,,25,21,25,16,15,80,,63,63,10,14,3,3,0.5,0.4
2025-07-29T1000,1121A,125.2841,43.8463,长春市,邮电学院,,,,22,18,13,,,52,52,7,8,4,4,0.5,0.5
2025-07-29T1000,1122A,125.3716,43.8772,长春市,劳动公园,,29,26,28,20,14,70,,55,55,12,13,5,6,0.5,0.6
2025-07-29T1000,1123A,125.3297,43.8805,长春市,园林处,,25,21,25,11,13,79,,58,58,7,9,3,3,0.4,0.4
2025-07-29T1000,1124A,125.4605,43.79,长春市,净月潭,,22,22,25,9,12,59,,46,46,4,3,4,4,0.5,0.4
2025-07-29T1000,1125A,125.7194,43.515,长春市,甩湾子,,21,21,18,10,12,50,,50,50,6,8,3,2,0.6,0.6
2025-07-29T1000,1126A,125.3863,43.8447,长春市,经开区环卫处,,22,22,23,10,11,64,,48,48,9,10,8,8,0.5,0.4
2025-07-29T1000,1127A,125.245,43.7783,长春市,高新区管委会,,,26,20,13,13,77,,51,51,5,8,3,2,,0.5
2025-07-29T1000,1128A,125.1761,43.8325,长春市,岱山公园,,23,15,25,14,13,73,,51,51,12,20,3,2,0.4,0.4
2025-07-29T1000,4281A,125.3346,43.9164,长春市,北亚泰大街1068号,,25,18,27,8,14,78,,56,56,12,15,6,5,0.6,0.5
2025-07-29T1000,1335A,113.0833,28.2325,长沙市,经开区环保局,,40,37,28,28,15,45,,35,28,16,11,5,4,0.5,0.4
2025-07-29T1000,1336A,112.8872,28.2189,长沙市,高开区环保局,,42,38,33,29,17,48,,38,37,10,8,4,4,0.5,0.4
2025-07-29T1000,1337A,113.0792,28.2053,长沙市,马坡岭,,35,31,27,24,15,51,,41,35,14,9,5,4,0.4,0.4
2025-07-29T1000,1338A,112.9394,28.19,长沙市,湖南师范大学,,49,40,30,34,18,52,,46,42,7,5,2,2,0.5,0.5
2025-07-29T1000,1339A,113.0178,28.1322,长沙市,雨花区环保局,,,37,30,13,12,,,39,31,18,9,,4,0.7,0.7
2025-07-29T1000,1340A,112.9792,28.2597,长沙市,伍家岭,,38,38,30,22,15,52,,35,31,10,10,2,2,0.3,0.2
2025-07-29T1000,1341A,113.0014,28.1944,长沙市,火车新站,,,29,31,,13,53,,39,37,11,8,4,4,0.6,0.6
2025-07-29T1000,1342A,112.9844,28.1178,长沙市,天心区环保局,,42,40,29,29,17,42,,45,40,15,9,1,3,0.4,0.4
2025-07-29T1000,1343A,112.8908,28.1308,长沙市,湖南中医药大学,,43,43,32,27,18,51,,37,37,8,10,3,3,0.7,0.7
2025-07-29T1000,1344A,112.9581,28.3611,长沙市,沙坪,,43,43,36,25,17,41,,27,27,13,10,2,2,0.5,0.5
2025-07-29T1000,1727A,113.1147,36.1547,长治市,清华站,,,31,23,27,13,,,81,78,6,6,,6,0.6,0.5
2025-07-29T1000,1730A,113.0886,36.2125,长治市,审计局,,42,35,22,29,13,116,,89,89,10,8,5,4,0.6,0.6
2025-07-29T1000,1731A,113.0844,36.1856,长治市,长治八中,,48,40,28,33,19,120,,88,88,6,6,7,7,0.6,0.5
2025-07-29T1000,2845A,113.1569,36.1911,长治市,德盛苑,,42,38,24,29,12,106,,80,80,7,6,6,6,0.9,0.7
2025-07-29T1000,3568A,113.06,36.0464,长治市,向阳小学,颗粒物(PM10),59,67,54,30,18,100,,68,68,2,4,6,6,0.7,0.6
2025-07-29T1000,3569A,112.8792,36.3144,长治市,屯留一中,,46,,38,32,26,111,,74,74,6,8,8,9,0.1,0.3
2025-07-29T1000,4189A,113.1131,36.19948,长治市,英华南巷50号,,40,40,25,27,15,111,,87,87,7,6,6,6,0.8,0.7
2025-07-29T1000,4190A,113.2367,36.3344,长治市,学府街1号,,48,,29,33,20,115,,88,88,11,12,5,4,0.6,0.4
2025-07-29T1000,1854A,111.6975,28.9703,常德市,市二中,,32,27,23,22,19,75,,48,48,8,9,4,4,0.5,0.5
2025-07-29T1000,1857A,111.7158,29.1456,常德市,白鹤山,,,,,,,,,,,,,,,,
2025-07-29T1000,3138A,111.7153,29.0289,常德市,武陵区永安,,,46,26,16,13,80,,62,62,,7,6,3,,0.3
2025-07-29T1000,3139A,111.6892,28.9881,常德市,鼎城区玉霞,,32,32,25,21,18,71,,46,46,8,9,4,3,0.4,0.4
2025-07-29T1000,3140A,111.6625,29.0531,常德市,武陵区长庚,,35,35,24,19,15,80,,52,52,7,7,5,3,0.5,0.4
2025-07-29T1000,1196A,119.9633,31.762,常州市,市监测站,,17,14,24,6,9,52,,25,25,5,13,11,8,0.4,0.5
2025-07-29T1000,1200A,119.9468,31.7069,常州市,武进监测站,,23,23,22,12,10,50,,24,24,4,11,13,12,0.8,1
2025-07-29T1000,1201A,119.9255,31.9087,常州市,安家,,24,24,22,9,10,50,,22,22,10,13,11,7,0.9,0.8
2025-07-29T1000,3002A,119.9805,31.8174,常州市,行政中心,,22,22,21,11,9,48,,21,21,7,13,9,10,0.3,0.4
2025-07-29T1000,3003A,120.0522,31.7748,常州市,经开区,,24,24,29,6,6,52,,23,23,6,12,6,5,0.3,0.3
2025-07-29T1000,3010A,119.9025,31.7964,常州市,钟楼,,19,19,25,3,8,53,,27,27,7,12,9,7,0.4,0.5
2025-07-29T1000,3429A,119.8598,31.7066,常州市,武进经发区,,18,18,26,8,11,51,,23,23,5,10,9,7,0.7,0.8
2025-07-29T1000,3430A,119.5826,31.7245,常州市,金坛城区,,21,21,22,9,12,56,,22,22,8,13,9,7,0.4,0.4
2025-07-29T1000,2220A,120.4318,41.5881,朝阳市,西梁,,25,,26,16,18,80,,77,77,11,10,4,6,0.7,0.8
2025-07-29T1000,2221A,120.4521,41.5646,朝阳市,河畔小区,,27,13,22,3,13,86,,90,88,15,10,7,5,0.7,0.7
2025-07-29T1000,2222A,120.4176,41.5648,朝阳市,八里堡,,29,16,26,10,17,90,,75,75,13,10,2,3,0.6,0.7
2025-07-29T1000,2223A,120.3806,41.5969,朝阳市,农业园区,,,,25,,19,,,75,72,5,11,7,5,0.5,0.7
2025-07-29T1000,1705A,116.6367,23.6719,潮州市,西园路,颗粒物(PM10),53,56,25,10,16,23,,26,22,25,9,8,3,0.8,0.4
2025-07-29T1000,3026A,116.6183,23.6608,潮州市,市政府,颗粒物(PM10),80,109,37,18,13,28,,27,23,44,15,36,11,1.1,0.7
2025-07-29T1000,4036A,116.6461,23.6761,潮州市,金山,,,28,24,10,16,,,32,27,11,8,7,5,0.8,0.7
2025-07-29T1000,2472A,113.0073,25.9061,郴州市,马头岭,,28,28,22,11,7,33,,9,9,8,8,5,5,0.5,0.4
2025-07-29T1000,2473A,113.0116,25.8226,郴州市,市职中,,38,26,19,26,13,36,,,,6,7,6,5,0.7,0.6
2025-07-29T1000,2475A,113.0383,25.8071,郴州市,市审计局,,35,,22,24,15,48,,20,20,5,8,5,4,0.4,0.3
2025-07-29T1000,2476A,113.0348,25.7759,郴州市,市环保局,,36,36,26,21,16,50,,19,19,7,11,11,6,0.6,0.3
2025-07-29T1000,4252A,113.0138,25.8011,郴州市,好美居路49号,,32,29,22,22,14,47,,22,22,7,10,3,2,0.7,0.6
2025-07-29T1000,1431A,103.9728,30.7236,成都市,金泉两河,,,57,28,15,15,98,,27,27,,18,9,3,,0.5
2025-07-29T1000,1432A,104.176,30.6872,成都市,十里店,颗粒物(PM10),62,73,39,30,19,98,,44,44,34,23,9,5,0.7,0.5
2025-07-29T1000,1433A,104.079,30.5706,成都市,三瓦窑,,40,40,31,26,22,91,,24,24,36,32,5,3,0.5,0.4
2025-07-29T1000,1434A,104.1114,30.63,成都市,沙河铺,颗粒物(PM10),53,56,33,30,19,70,,45,44,32,16,7,6,0.7,0.5
2025-07-29T1000,1437A,104.0786,30.6531,成都市,君平街,,,44,37,21,19,,,,,30,19,10,6,0.7,0.5
2025-07-29T1000,1438A,103.613,31.0283,成都市,灵岩寺,,,,,,,,,,,,,,,,
2025-07-29T1000,2880A,104.0239,30.65639,成都市,大石西路,,33,33,29,16,22,66,,38,38,33,18,8,4,0.7,0.5
2025-07-29T1000,3136A,104.2725,30.5589,成都市,龙泉驿区区政府,,41,41,22,14,12,106,,74,74,27,14,5,4,0.8,0.6
2025-07-29T1000,3357A,104.0106,30.6931,成都市,金博路,,43,43,25,26,14,78,,30,30,32,22,10,5,0.9,0.7
2025-07-29T1000,3359A,104.0578,30.5225,成都市,华阳,,42,41,30,29,23,89,,42,39,33,16,3,3,0.8,0.6
2025-07-29T1000,3488A,104.3853,30.7453,成都市,青白江技师分院,细颗粒物(PM2.5),62,58,34,44,19,92,,42,42,30,23,8,6,0.8,0.6
2025-07-29T1000,3489A,104.0789,30.4072,成都市,科学城,,39,39,27,24,20,69,,42,41,27,13,2,2,0.7,0.6
2025-07-29T1000,4011A,103.8506,30.6947,成都市,光华大道三段,,,32,30,3,18,,,55,53,19,18,7,6,0.7,0.6
2025-07-29T1000,4224A,104.2433,30.5353,成都市,鲸龙路1057号,细颗粒物(PM2.5),55,48,33,39,23,109,,59,59,20,26,8,6,0.8,0.7
2025-07-29T1000,1062A,117.9531,40.9081,承德市,铁路,,21,21,17,3,8,33,,59,52,27,9,2,2,0.4,0.3
2025-07-29T1000,1063A,117.9392,40.9763,承德市,中国银行,,,26,19,16,10,47,,54,52,18,8,1,2,,0.3
2025-07-29T1000,1064A,117.9503,40.928,承德市,开发区,,21,21,24,3,8,53,,72,67,22,8,5,5,0.6,0.4
2025-07-29T1000,1066A,117.9268,41.0026,承德市,离宫,,16,16,20,10,10,48,,38,36,6,5,1,2,0.4,0.3
2025-07-29T1000,4274A,117.7994,40.9605,承德市,滨河大街98号,,20,11,15,3,7,61,,56,54,7,5,3,2,0.3,0.3
2025-07-29T1000,2314A,117.47,30.6618,池州市,池州学院,,20,20,21,13,13,53,,25,25,6,9,4,5,0.4,0.4
2025-07-29T1000,3237A,117.4918,30.6617,池州市,展览馆,,22,22,20,11,11,54,,25,25,6,8,4,4,0.4,0.6
2025-07-29T1000,3333A,117.5627,30.695,池州市,第八中学,,21,21,23,10,11,53,,25,25,4,7,5,5,0.4,0.5
2025-07-29T1000,3334A,117.5038,30.6243,池州市,第十二中学,,26,26,24,13,13,55,,26,26,10,10,3,3,0.8,0.8
2025-07-29T1000,1744A,118.9233,42.2816,赤峰市,松山一中,,25,12,14,7,10,77,,78,78,12,17,4,7,0.5,0.6
2025-07-29T1000,1745A,118.9576,42.2728,赤峰市,哈达街,,21,11,19,3,10,67,,63,63,13,17,17,18,0.5,0.6
2025-07-29T1000,1746A,118.8788,42.2554,赤峰市,天义路,,22,10,11,6,9,70,,75,75,10,10,10,11,0.5,0.4
2025-07-29T1000,3058A,119.2658,42.0353,赤峰市,银河街,,24,12,15,6,12,74,,56,56,11,10,33,22,0.7,0.7
2025-07-29T1000,3286A,118.9359,42.3147,赤峰市,桥北物流园区,,17,12,17,8,10,54,,51,51,16,17,9,12,0.7,0.7
2025-07-29T1000,2521A,107.3476,22.4136,崇左市,市环保局江州分局,颗粒物(PM10),54,58,32,30,18,68,,48,48,8,7,8,7,0.5,0.4
2025-07-29T1000,4256A,107.3750,22.3736,崇左市,石景林东路7号,,46,46,28,27,18,75,,53,53,8,8,6,4,0.6,0.6
2025-07-29T1000,2298A,118.3093,32.3153,滁州市,老年大学,,32,31,23,22,10,42,,18,18,11,9,7,9,0.5,0.3
2025-07-29T1000,2299A,118.3244,32.2786,滁州市,人大宾馆,,25,23,11,17,12,44,,17,17,7,8,7,5,0.5,0.2
2025-07-29T1000,3207A,118.3118,32.3038,滁州市,市政府原办公楼,,38,36,18,26,14,43,,15,15,9,10,5,5,0.6,0.3
2025-07-29T1000,3331A,118.3267,32.2634,滁州市,图书馆,,38,31,14,26,9,51,,22,22,13,12,13,11,0.5,0.3
2025-07-29T1000,2605A,101.5482,25.0441,楚雄彝族自治州,州环境监测站,,26,22,20,18,14,23,,8,8,17,13,8,8,0.7,0.6
2025-07-29T1000,2606A,101.538,25.0492,楚雄彝族自治州,市经济开发区,,42,42,31,18,15,27,,10,10,16,13,7,7,0.8,0.7
2025-07-29T1000,2548A,107.5277,31.2827,达州市,达州职业技术学院,,44,44,30,9,6,74,,22,22,10,18,18,8,0.6,0.5
2025-07-29T1000,2549A,107.5086,31.2186,达州市,市环境监测站,,46,46,29,14,5,52,,18,18,34,23,11,6,0.3,0.3
2025-07-29T1000,2550A,107.4988,31.2132,达州市,凤凰小区,,39,39,26,17,10,67,,24,24,21,20,13,7,0.4,0.4
2025-07-29T1000,2551A,107.5082,31.1986,达州市,达县机关宾馆,,36,36,29,3,7,55,,14,14,22,32,10,5,0.3,0.4
2025-07-29T1000,2552A,107.4644,31.2124,达州市,市政中心,,38,38,30,19,8,61,,24,24,27,20,8,4,0.4,0.3
2025-07-29T1000,2614A,100.1542,25.7054,大理白族自治州,大理市环境监测站,,15,14,14,9,18,46,,54,48,8,9,4,5,0.4,0.5
2025-07-29T1000,2615A,100.2171,25.5811,大理白族自治州,大理古城,,22,22,17,11,10,53,,42,42,10,10,5,4,0.7,0.6
2025-07-29T1000,1109A,121.612,38.9741,大连市,甘井子,,21,15,16,8,9,67,,42,42,12,17,12,14,0.1,0.2
2025-07-29T1000,1110A,121.565,38.9511,大连市,周水子,,20,15,16,6,7,61,,35,35,10,12,8,8,0.2,0.2
2025-07-29T1000,1111A,121.5637,38.8845,大连市,星海三站,,,13,16,8,6,,,39,35,,7,6,6,0.2,0.2
2025-07-29T1000,1112A,121.6302,38.9117,大连市,青泥洼桥,,23,13,12,7,7,73,,47,47,8,12,7,7,0.4,0.4
2025-07-29T1000,1113A,121.6251,38.8638,大连市,傅家庄,,15,13,14,8,9,47,,37,35,11,13,8,8,0.1,0.1
2025-07-29T1000,1114A,121.5213,38.8661,大连市,七贤岭,,20,12,16,7,8,63,,38,38,8,12,9,9,0.2,0.2
2025-07-29T1000,1115A,121.2529,38.8061,大连市,旅顺,,16,16,12,10,11,39,,30,28,11,15,4,4,0.2,0.2
2025-07-29T1000,1116A,121.7485,39.1311,大连市,金州,,21,12,17,6,8,67,,44,44,11,15,8,8,0.1,0.2
2025-07-29T1000,1117A,121.7811,39.0496,大连市,开发区,,18,14,19,8,8,56,,36,36,13,18,7,7,0.2,0.2
2025-07-29T1000,1118A,121.9762,39.0631,大连市,双D港,,17,17,13,9,7,35,,25,25,18,12,8,7,0.3,0.3
2025-07-29T1000,1789A,124.81117,46.03138,大庆市,大同区,,20,20,21,10,9,30,,57,52,17,9,8,8,0.9,0.7
2025-07-29T1000,1790A,125.129,46.533,大庆市,龙凤区,,17,17,18,11,9,47,,51,51,20,14,5,6,0.7,0.6
2025-07-29T1000,1791A,124.902,46.408,大庆市,红岗区,,19,18,18,10,11,58,,59,59,12,9,7,7,0.7,0.6
2025-07-29T1000,1792A,125.153,46.586,大庆市,萨尔图区,,22,22,29,11,7,47,,56,55,19,10,10,11,0.5,0.3
2025-07-29T1000,1793A,124.9042,46.6215,大庆市,让胡路区,,24,24,26,15,14,71,,61,61,18,11,4,7,0.4,0.3
2025-07-29T1000,3481A,125.141,46.634,大庆市,萨区政府监测点,,23,23,22,3,3,56,,63,63,15,7,6,7,0.4,0.3
2025-07-29T1000,1721A,113.3819,40.1097,大同市,果树场,,25,14,19,12,16,79,,56,56,18,15,8,7,0.3,0.5
2025-07-29T1000,1723A,113.2994,40.0758,大同市,云冈宾馆,,30,19,27,12,14,96,,67,67,11,13,7,6,0.6,0.6
2025-07-29T1000,1724A,113.3444,40.0917,大同市,大同大学,,31,25,24,19,15,97,,62,62,12,16,10,10,0.4,0.6
2025-07-29T1000,1725A,113.2661,40.1269,大同市,安家小村,,29,18,28,3,6,90,,60,60,7,14,6,6,0.6,0.9
2025-07-29T1000,1726A,113.2711,40.0844,大同市,教育学院,,32,32,27,9,14,95,,63,63,10,15,8,8,0.5,0.6
2025-07-29T1000,3282A,113.3397,40.0597,大同市,大同市卫生学校,,35,25,26,24,14,92,,68,68,16,15,7,6,0.6,0.7
2025-07-29T1000,3565A,113.1367,40.1122,大同市,云冈站,,31,11,25,3,12,97,,61,61,6,9,4,3,0.5,0.7
2025-07-29T1000,3566A,113.1186,40.2556,大同市,图书馆,,30,18,36,3,11,93,,53,53,6,9,8,7,0.8,1
2025-07-29T1000,3567A,113.5931,40.0461,大同市,区一中,,37,37,18,19,12,96,,84,84,12,9,11,8,0.7,0.5
2025-07-29T1000,4199A,113.2798,40.0997,大同市,魏都大道141号,,,,27,,14,,,60,58,,14,9,8,0.6,0.8
2025-07-29T1000,2269A,124.1069,50.4097,大兴安岭地区,科技局,,21,14,20,3,7,65,,60,56,4,4,4,4,0.4,0.4
2025-07-29T1000,3663A,124.1164,50.4278,大兴安岭地区,红旗社区,,20,,6,3,4,64,,65,59,5,5,4,4,0.3,0.3
2025-07-29T1000,1600A,124.3303,40.0625,丹东市,江湾东路,,30,30,68,19,22,66,,45,45,9,11,3,3,0.6,0.5
2025-07-29T1000,1601A,124.4256,40.1503,丹东市,临江后街,,38,38,60,15,25,66,,33,33,7,11,6,6,0.6,0.7
2025-07-29T1000,1602A,124.3933,40.1461,丹东市,元宝山,,,20,33,12,21,59,,34,34,9,13,,4,0.5,0.6
2025-07-29T1000,1603A,124.3633,40.1092,丹东市,民主桥,,26,26,40,13,21,62,,37,37,5,12,3,3,0.8,1
2025-07-29T1000,3541A,109.5726,19.5167,儋州市,第一中学子站,,12,12,10,6,5,34,,27,27,2,3,4,4,0.4,0.4
2025-07-29T1000,3542A,109.5567,19.5187,儋州市,东坡学校子站,,12,10,10,3,5,36,,27,27,2,3,6,6,0.5,0.5
2025-07-29T1000,2616A,98.5842,24.428,德宏傣族景颇族自治州,德宏州监测站,,23,23,22,9,14,13,,15,13,9,12,13,15,0.7,0.7
2025-07-29T1000,3677A,98.5881,24.4368,德宏傣族景颇族自治州,芒市人民政府综合楼,,25,25,30,11,13,17,,17,16,9,11,15,14,0.7,0.7
2025-07-29T1000,1901A,104.4239,31.1208,德阳市,东山公园,,41,41,31,23,20,86,,69,63,16,11,2,2,0.9,0.8
2025-07-29T1000,1902A,104.3826,31.1317,德阳市,西小区,,45,45,37,22,24,88,,59,59,24,18,8,10,1.0,1
2025-07-29T1000,1904A,104.3553,31.1091,德阳市,耐火材料厂,,,,37,,27,93,,58,58,,19,6,7,0.7,0.6
2025-07-29T1000,3639A,104.4019,31.1244,德阳市,市教育局,,40,40,36,21,22,82,,57,57,18,12,3,3,0.9,0.8
2025-07-29T1000,1622A,116.3032,37.4674,德州市,儿童乐园,,29,29,38,9,18,66,,68,55,4,9,8,9,0.4,0.6
2025-07-29T1000,1624A,116.2991,37.4451,德州市,监理站,,21,17,32,7,20,67,,65,54,4,10,13,12,0.2,0.4
2025-07-29T1000,3066A,116.2721,37.4379,德州市,九衢泉纯净水厂,,,,42,,24,,,44,40,8,18,,6,0.5,0.6
2025-07-29T1000,3371A,116.3728,37.4403,德州市,开发区人民医院,,27,27,32,14,19,64,,56,47,10,13,10,9,0.8,0.9
2025-07-29T1000,3511A,116.5652,37.3319,德州市,陵城艺术中心,,29,29,31,7,11,52,,45,36,10,14,8,9,0.5,0.5
2025-07-29T1000,4292A,116.3525,37.4209,德州市,新河东路,,29,29,37,12,21,72,,59,54,8,13,10,10,0.9,0.9
2025-07-29T1000,2621A,99.7056,27.8317,迪庆藏族自治州,迪庆州站,,33,33,22,17,13,39,,27,24,11,8,8,8,0.5,0.4
2025-07-29T1000,3180A,99.7136,27.8094,迪庆藏族自治州,质量技术监督局,,32,32,20,11,10,40,,41,37,18,12,6,6,0.5,0.4
2025-07-29T1000,4257A,104.6092,35.5962,定西市,将台街,,31,31,27,13,13,87,,59,57,17,8,9,8,0.6,0.4
2025-07-29T1000,4309A,104.6159,35.5701,定西市,正龙路62号,,28,21,23,9,13,87,,64,63,10,7,7,5,0.3,0.3
2025-07-29T1000,1389A,113.7547,23.0494,东莞市,莞城梨川,细颗粒物(PM2.5),92,72,43,68,35,62,,26,26,43,30,9,9,0.7,0.7
2025-07-29T1000,1390A,113.7944,23.0128,东莞市,东城石井,细颗粒物(PM2.5),73,82,40,53,24,63,,20,20,42,33,10,4,0.8,0.7
2025-07-29T1000,1391A,113.7383,22.9658,东莞市,南城西平,细颗粒物(PM2.5),60,52,36,43,23,67,,36,36,38,26,3,3,1.0,0.8
2025-07-29T1000,3319A,113.7338,23.0381,东莞市,万江金泰,,,84,42,60,29,50,,14,14,47,32,,5,,1
2025-07-29T1000,3626A,113.7533,23.0202,东莞市,南城元岭,,,80,40,64,28,58,,23,23,,32,,6,0.8,0.7
2025-07-29T1000,3627A,113.7875,23.0457,东莞市,东城主山,细颗粒物(PM2.5),73,84,59,53,31,36,,26,20,71,33,7,5,0.8,0.7
2025-07-29T1000,1666A,118.6614,37.4309,东营市,市环保局,,21,19,16,7,6,65,,31,31,14,14,11,9,0.5,0.3
2025-07-29T1000,3036A,118.6904,37.4338,东营市,开发区管委会,,28,28,21,9,4,69,,36,36,12,12,9,9,0.4,0.4
2025-07-29T1000,3365A,118.5719,37.565,东营市,垦利区民丰路,,36,36,18,9,5,69,,29,29,13,11,12,9,0.6,0.5
2025-07-29T1000,3498A,118.5055,37.8612,东营市,河口城区,,25,24,15,3,3,80,,41,41,14,13,8,8,0.8,0.5
2025-07-29T1000,3646A,118.4978,37.4623,东营市,胜利站,,47,47,24,7,4,72,,32,32,18,17,5,4,0.5,0.4
2025-07-29T1000,3734A,118.35,37.26,东营市,理想之城,,27,27,17,14,7,70,,30,30,9,9,10,6,0.5,0.3
2025-07-29T1000,1591A,110.0023,39.8129,鄂尔多斯市,综合楼,,34,14,21,7,9,107,,94,90,13,13,4,3,0.6,0.6
2025-07-29T1000,1592A,109.9486,39.8261,鄂尔多斯市,巴音孟克林场办事处,,,17,25,3,14,108,,81,81,10,12,3,3,,0.4
2025-07-29T1000,1593A,109.7736,39.5986,鄂尔多斯市,康泽苑,,32,19,25,3,6,101,,71,71,5,7,6,6,0.3,0.4
2025-07-29T1000,1594A,109.8119,39.5989,鄂尔多斯市,华泰汽车城,,30,17,23,7,10,96,,61,61,8,10,4,4,0.6,0.6
2025-07-29T1000,1595A,109.9734,39.7884,鄂尔多斯市,奥林花园,,35,24,23,14,18,111,,72,72,13,13,5,6,0.7,0.7
2025-07-29T1000,2436A,114.8938,30.3994,鄂州市,市政府,,25,25,19,12,5,76,,42,42,12,13,5,4,0.7,0.6
2025-07-29T1000,2437A,114.8989,30.3714,鄂州市,赵家坝,,24,24,18,3,4,69,,41,41,8,10,4,4,0.7,0.7
2025-07-29T1000,3654A,114.8094,30.4089,鄂州市,精准医疗中心,,25,25,21,7,4,77,,24,24,12,17,7,4,1.0,0.6
2025-07-29T1000,2454A,109.4978,30.2981,恩施土家族苗族自治州,湖北民院,,20,14,18,3,8,62,,53,49,4,4,5,5,0.3,0.3
2025-07-29T1000,2455A,109.4707,30.2798,恩施土家族苗族自治州,州电力总公司,,26,26,17,7,11,64,,50,47,7,8,9,8,0.3,0.3
2025-07-29T1000,3549A,109.5061,30.3772,恩施土家族苗族自治州,龙凤新区,,25,10,14,3,8,78,,51,51,3,4,4,4,0.4,0.4
2025-07-29T1000,2499A,108.3411,21.6158,防城港市,沙万,,48,48,26,27,14,30,,35,33,28,12,4,3,0.5,0.3
2025-07-29T1000,2500A,108.3514,21.7731,防城港市,防城档案局,,26,25,23,18,13,37,,31,31,16,8,3,4,0.8,0.7
2025-07-29T1000,2501A,108.3506,21.6414,防城港市,大海花园,,30,30,21,18,10,43,,38,38,19,8,5,5,0.6,0.5
2025-07-29T1000,1371A,113.1294,23.0067,佛山市,湾梁,颗粒物(PM10),60,70,45,32,37,50,,26,26,28,25,5,5,0.9,0.9
2025-07-29T1000,1372A,113.1083,23.0478,佛山市,华材职中,,,,44,30,30,64,,28,28,,23,,8,0.8,0.8
2025-07-29T1000,1373A,113.144,23.0453,佛山市,南海气象局,颗粒物(PM10),56,61,44,29,27,57,,26,26,24,23,3,4,0.9,0.9
2025-07-29T1000,1374A,113.2881,22.8094,佛山市,顺德苏岗,,40,40,40,27,23,63,,29,29,22,29,6,6,1.0,0.9
2025-07-29T1000,1376A,112.8383,22.8678,佛山市,高明孔堂,,48,48,33,24,21,55,,39,39,21,13,13,8,1.0,0.8
2025-07-29T1000,1377A,112.8836,23.1588,佛山市,三水监测站,,41,41,39,25,27,36,,8,8,29,33,5,6,0.8,0.8
2025-07-29T1000,1378A,112.867,23.185,佛山市,三水云东海,细颗粒物(PM2.5),53,54,43,37,33,42,,9,9,31,30,1,2,0.7,0.7
2025-07-29T1000,3625A,113.2544,22.7642,佛山市,容桂街道办,,,,27,36,26,,,30,30,20,25,7,6,0.7,0.7
2025-07-29T1000,1280A,119.3903,26.0543,福州市,鼓山,,,,,,,,,,,,,,,,
2025-07-29T1000,1282A,119.2681,26.0504,福州市,师大,,16,,19,9,5,50,,24,24,6,13,4,4,0.3,0.3
2025-07-29T1000,1283A,119.2984,26.1028,福州市,五四北路,,15,14,19,3,5,48,,26,26,6,14,4,3,0.3,0.4
2025-07-29T1000,1284A,119.2648,26.0768,福州市,杨桥西路,,17,10,19,3,6,53,,26,26,5,12,4,3,0.2,0.3
2025-07-29T1000,1285A,119.317,26.0746,福州市,紫阳,,20,20,21,3,7,37,,24,23,8,13,5,5,0.2,0.2
2025-07-29T1000,3048A,119.5799,26.0936,福州市,九龙,,14,8,22,3,7,42,,26,24,4,6,5,4,0.3,0.3
2025-07-29T1000,3526A,119.5189,25.9664,福州市,吴航,,22,22,26,10,9,36,,20,19,11,10,7,5,0.5,0.5
2025-07-29T1000,1755A,123.7977,41.8491,抚顺市,望花区,,30,28,37,11,19,94,,51,51,12,22,4,5,0.5,0.8
2025-07-29T1000,1756A,123.9161,41.8822,抚顺市,顺城区,,41,41,30,11,13,93,,52,52,15,17,5,4,0.8,0.9
2025-07-29T1000,1757A,124.0436,41.8611,抚顺市,东洲区,,,34,17,11,13,,,56,56,11,10,8,7,0.6,0.7
2025-07-29T1000,1758A,123.9247,41.8642,抚顺市,新抚区,,41,41,35,11,16,90,,42,42,11,14,5,4,0.8,0.9
2025-07-29T1000,1759A,124.0972,41.8961,抚顺市,大伙房水库,,30,19,19,11,15,93,,56,56,11,10,8,7,0.6,0.8
2025-07-29T1000,1760A,123.7086,41.8391,抚顺市,沈抚新城,,34,34,28,8,17,87,,55,55,10,18,6,5,0.6,1
2025-07-29T1000,2376A,116.2127,28.0814,抚州市,桐源党溪,,22,22,25,12,10,41,,23,23,3,3,5,4,0.7,0.6
2025-07-29T1000,2377A,116.3544,27.9831,抚州市,市站,,36,36,22,18,10,39,,26,25,7,4,4,4,0.6,0.5
2025-07-29T1000,2378A,116.3565,27.963,抚州市,血防站,,29,29,22,14,9,43,,29,29,6,4,5,4,0.5,0.5
2025-07-29T1000,2379A,116.3564,28.0007,抚州市,采茶剧团,,30,30,23,14,7,51,,32,32,3,3,4,3,0.6,0.6
2025-07-29T1000,2380A,116.385,27.9647,抚州市,医学分院,,31,31,27,16,11,45,,28,28,2,3,3,4,0.5,0.5
2025-07-29T1000,2207A,121.6094,41.998,阜新市,工业园区,,30,26,29,21,16,69,,71,71,14,13,11,6,0.6,0.5
2025-07-29T1000,2208A,121.6697,42.0279,阜新市,长青街,,23,19,24,16,17,61,,63,62,12,12,12,8,0.6,0.5
2025-07-29T1000,2209A,121.6673,42.0705,阜新市,农业园区,,22,11,31,9,14,68,,75,72,10,10,3,3,0.7,0.8
2025-07-29T1000,2210A,121.6717,42.0224,阜新市,东苑,,23,23,29,15,16,60,,74,68,19,16,17,10,0.6,0.6
2025-07-29T1000,2211A,121.6506,42.0498,阜新市,玉龙新城,,19,11,29,11,15,58,,64,64,13,17,5,3,0.6,0.6
2025-07-29T1000,2301A,115.8277,32.8929,阜阳市,市监测站,,21,21,20,11,10,48,,25,25,8,9,3,3,0.2,0.2
2025-07-29T1000,2303A,115.8554,32.8605,阜阳市,开发区,,19,19,17,10,7,53,,26,26,8,10,6,6,0.2,0.2
2025-07-29T1000,2875A,115.784,32.8892,阜阳市,阜阳职业技术学院,,17,17,18,6,9,21,,14,13,15,8,4,4,0.5,0.4
2025-07-29T1000,3468A,115.7901,32.8613,阜阳市,市规划展馆,,34,34,22,13,12,38,,17,17,7,7,2,3,0.4,0.4
2025-07-29T1000,3469A,115.836,32.9183,阜阳市,枣园社区,,30,30,18,13,10,48,,24,24,10,9,4,3,0.4,0.3
2025-07-29T1000,2669A,102.9099,34.9841,甘南藏族自治州,州政府,,32,26,23,22,18,50,,44,44,19,11,3,3,0.3,0.3
2025-07-29T1000,3380A,102.8914,34.9617,甘南藏族自治州,甘肃民族师范学院,,31,31,32,14,14,57,,40,40,12,8,9,9,0.7,0.7
2025-07-29T1000,2570A,101.9603,30.0475,甘孜藏族自治州,水桥子,,31,31,16,14,8,30,,18,18,18,15,8,6,0.5,0.4
2025-07-29T1000,3065A,101.9533,29.9972,甘孜藏族自治州,州环保局,,18,16,17,3,5,55,,33,33,9,14,6,6,0.4,0.3
2025-07-29T1000,3414A,115.8347,28.932,赣江新区,桑海产业园,,28,22,21,8,12,87,,76,76,6,7,6,7,0.4,0.4
2025-07-29T1000,2362A,114.9017,25.9149,赣州市,通天岩,,,42,30,29,15,,,7,7,,5,,20,,0.9
2025-07-29T1000,2363A,114.9367,25.8664,赣州市,地委,,23,23,24,16,13,51,,42,42,7,7,7,5,1.3,1
2025-07-29T1000,2364A,114.9461,25.8481,赣州市,气象台,,20,20,23,13,11,58,,48,48,8,5,8,8,0.8,0.8
2025-07-29T1000,2365A,114.9322,25.8333,赣州市,市图书馆,,30,22,20,21,15,58,,38,38,7,6,4,4,0.9,0.8
2025-07-29T1000,2366A,114.8905,25.8471,赣州市,华坚鞋城,,29,29,25,9,13,56,,33,32,12,9,4,4,0.6,0.5
2025-07-29T1000,3109A,115.0093,25.8613,赣州市,赣县区卫计委,,33,33,22,16,13,53,,28,28,5,6,5,4,0.5,0.5
2025-07-29T1000,2683A,106.2319,36.1417,固原市,马园,,25,13,29,6,11,77,,47,47,13,21,7,11,0.5,0.5
2025-07-29T1000,2684A,106.2792,36.0022,固原市,监测站,,30,25,26,6,10,94,,35,35,5,19,6,6,0.2,0.2
2025-07-29T1000,2685A,106.2375,36.0211,固原市,新区,,28,23,22,9,10,89,,38,38,6,13,6,6,0.4,0.4
2025-07-29T1000,3522A,106.2177,35.9959,固原市,原州区十五小,,31,19,20,10,11,97,,67,67,4,9,12,11,0.4,0.4
2025-07-29T1000,2543A,106.6308,30.5278,广安市,小平旧居,,,,,,,,,,,,,,,,
2025-07-29T1000,2544A,106.6303,30.4576,广安市,市委,,,36,28,14,14,,,35,31,16,14,11,9,0.5,0.4
2025-07-29T1000,2545A,106.6271,30.4663,广安市,友谊中学,,34,24,24,16,15,107,,48,48,22,14,8,5,0.9,0.7
2025-07-29T1000,2547A,106.6388,30.4551,广安市,广电花园,,,,40,16,14,98,,41,41,18,14,3,1,0.7,0.6
2025-07-29T1000,2902A,106.6351,30.4865,广安市,北辰小学,,42,42,27,13,14,113,,53,53,14,11,8,5,0.7,0.6
2025-07-29T1000,2523A,105.8945,32.4535,广元市,黑石坡,,39,39,27,10,12,47,,44,37,16,9,11,9,0.7,0.5
2025-07-29T1000,2524A,105.821,32.4444,广元市,老城,,21,16,20,9,10,66,,32,32,18,24,12,10,1.0,0.8
2025-07-29T1000,2526A,105.8628,32.4287,广元市,监测站,,18,14,19,12,11,54,,31,31,19,12,16,13,1.0,0.8
2025-07-29T1000,3617A,105.8047,32.4166,广元市,经开区,"颗粒物(PM10),细颗粒物(PM2.5)",57,63,39,40,24,56,,20,20,22,22,36,10,1.4,0.8
2025-07-29T1000,1345A,113.2347,23.1423,广州市,广雅中学,颗粒物(PM10),54,58,52,36,35,47,,14,14,33,35,5,3,0.6,0.7
2025-07-29T1000,1346A,113.2612,23.105,广州市,市五中,细颗粒物(PM2.5),62,52,46,44,36,52,,19,19,28,26,8,6,1.0,0.9
2025-07-29T1000,1348A,113.3478,23.0916,广州市,广东商学院,颗粒物(PM10),51,52,41,34,30,72,,38,38,40,37,3,2,0.9,0.9
2025-07-29T1000,1349A,113.4332,23.1047,广州市,市八十六中,,,44,40,31,26,,,29,,51,52,,3,0.4,0.6
2025-07-29T1000,1350A,113.3505,22.9483,广州市,番禺中学,,48,48,34,30,23,56,,27,27,23,20,7,5,0.5,0.5
2025-07-29T1000,1351A,113.2146,23.3916,广州市,花都师范,颗粒物(PM10),56,62,37,39,24,66,,15,15,15,35,7,5,0.6,0.7
2025-07-29T1000,1352A,113.2597,23.1331,广州市,市监测站,颗粒物(PM10),51,51,49,33,30,56,,22,22,27,30,7,6,0.6,0.6
2025-07-29T1000,1353A,113.5618,23.312,广州市,九龙镇镇龙,细颗粒物(PM2.5),57,57,33,40,19,54,,11,11,21,19,8,6,0.6,0.6
2025-07-29T1000,1354A,113.2765,23.1544,广州市,麓湖,颗粒物(PM10),52,53,47,35,30,44,,11,11,25,30,3,3,0.7,0.7
2025-07-29T1000,1355A,113.443,23.3035,广州市,帽峰山森林公园,,,,34,,13,,,,,,20,,8,,0.6
2025-07-29T1000,2846A,113.3221,23.1322,广州市,体育西,细颗粒物(PM2.5),53,47,46,37,31,63,,14,14,27,40,6,6,0.8,0.8
2025-07-29T1000,3298A,113.5717,23.5491,广州市,从化街口,颗粒物(PM10),56,62,27,39,17,36,,14,14,14,15,9,6,0.8,0.8
2025-07-29T1000,3299A,113.3472,23.3692,广州市,白云竹料,,42,42,29,27,21,52,,20,20,29,20,4,3,0.6,0.5
2025-07-29T1000,3300A,113.2981,23.237,广州市,白云嘉禾,颗粒物(PM10),52,53,47,34,33,54,,12,12,32,35,7,7,0.7,0.7
2025-07-29T1000,3301A,113.4256,23.1716,广州市,黄埔科学城,细颗粒物(PM2.5),57,54,43,40,30,66,,14,14,22,22,4,2,0.5,0.5
2025-07-29T1000,3302A,113.3942,23.0483,广州市,番禺大学城,,46,38,37,32,24,41,,17,16,32,31,9,8,0.6,0.6
2025-07-29T1000,3303A,113.4922,22.8168,广州市,南沙黄阁,,40,31,43,28,29,76,,29,29,16,28,6,6,0.7,0.7
2025-07-29T1000,3304A,113.5342,22.7896,广州市,南沙街,,33,33,33,22,23,83,,30,30,15,21,4,4,0.5,0.5
2025-07-29T1000,3443A,113.2902,23.5544,广州市,花都梯面,,26,24,24,18,15,53,,14,14,10,18,5,5,0.6,0.6
2025-07-29T1000,3445A,113.7858,23.7478,广州市,从化良口,,19,19,18,12,13,31,,12,12,8,10,4,4,0.6,0.6
2025-07-29T1000,3446A,113.8051,23.2614,广州市,增城荔城,,49,49,26,32,16,74,,21,21,9,12,7,7,0.5,0.4
2025-07-29T1000,2505A,109.568,23.1478,贵港市,德智高中,,,,,,,,,,,,,,,,
2025-07-29T1000,2506A,109.6047,23.0666,贵港市,江南子站,,44,44,35,22,28,83,,46,46,8,11,8,7,0.9,0.7
2025-07-29T1000,2508A,109.5669,23.1065,贵港市,荷城子站,颗粒物(PM10),51,51,39,29,24,71,,40,40,17,15,12,8,0.5,0.6
2025-07-29T1000,3405A,109.5886,23.1172,贵港市,新世纪学校,颗粒物(PM10),53,56,39,33,28,73,,48,48,23,12,5,3,0.6,0.6
2025-07-29T1000,4260A,109.5933,23.0951,贵港市,中山路155-3号,,49,49,41,30,28,84,,46,46,16,12,7,4,0.8,0.6
2025-07-29T1000,1439A,106.6899,26.5998,贵阳市,马鞍山,颗粒物(PM10),91,132,23,7,4,22,,11,10,21,9,4,4,0.7,0.6
2025-07-29T1000,1441A,106.6243,26.6266,贵阳市,鉴湖路,,44,44,35,9,10,42,,24,21,27,15,8,7,0.5,0.3
2025-07-29T1000,1442A,106.7487,26.6343,贵阳市,燕子冲,,42,36,17,29,23,27,,19,14,18,12,5,6,0.4,0.4
2025-07-29T1000,1443A,106.6555,26.4365,贵阳市,碧云窝,颗粒物(PM10),51,51,38,17,13,46,,15,15,20,13,11,5,0.3,0.1
2025-07-29T1000,1445A,106.7109,26.6027,贵阳市,红边门,,,36,23,17,15,,,26,19,,16,10,7,0.5,0.2
2025-07-29T1000,1446A,106.7164,26.5699,贵阳市,新华路,,44,44,29,24,15,41,,35,31,26,15,14,17,0.8,0.4
2025-07-29T1000,1447A,106.674,26.5424,贵阳市,太慈桥,,46,46,18,17,11,42,,13,13,31,16,9,5,0.3,0.2
2025-07-29T1000,1552A,106.805,26.3003,贵阳市,桐木岭,,35,34,30,24,18,63,,29,29,18,10,7,6,0.9,0.7
2025-07-29T1000,4230A,106.6882,26.5695,贵阳市,花果园大街66号,,35,31,15,24,20,33,,27,20,35,16,6,4,0.5,0.3
2025-07-29T1000,4231A,106.6873,26.5169,贵阳市,漓江路57号,,41,41,22,17,13,41,,16,16,28,16,6,3,0.5,0.4
2025-07-29T1000,1862A,110.4144,25.3167,桂林市,电子科大尧山校区,,,,,,,,,,,,,,,,
2025-07-29T1000,1864A,110.3089,25.2708,桂林市,龙隐路小学,,36,36,23,13,10,44,,17,17,9,10,11,11,0.3,0.3
2025-07-29T1000,1865A,110.2869,25.2178,桂林市,八中,,41,41,26,18,14,46,,12,12,14,16,8,9,0.5,0.5
2025-07-29T1000,3531A,110.296,25.1253,桂林市,旅游学院,,39,39,20,24,11,39,,10,10,12,14,4,4,0.4,0.4
2025-07-29T1000,4222A,110.1835,25.2444,桂林市,环湖路276号,细颗粒物(PM2.5),64,66,31,46,17,30,,9,9,16,16,30,15,0.5,0.4
2025-07-29T1000,4301A,110.2803,25.2773,桂林市,信义路13号,,40,40,28,22,16,48,,16,16,10,13,9,13,0.6,0.5
2025-07-29T1000,2674A,100.2561,34.4714,果洛藏族自治州,玛沁县大武镇,颗粒物(PM10),500,901,64,6,12,42,,50,43,,4,,15,0.4,0.3
2025-07-29T1000,1129A,126.5422,45.755,哈尔滨市,岭北,,39,39,17,26,11,101,,84,84,12,18,8,8,0.8,0.7
2025-07-29T1000,1130A,126.561,45.8167,哈尔滨市,松北商大,,33,33,34,12,6,78,,43,43,10,20,6,6,0.6,0.5
2025-07-29T1000,1131A,126.979,45.5419,哈尔滨市,阿城会宁,,43,43,26,15,10,70,,32,32,6,21,6,7,0.6,0.5
2025-07-29T1000,1132A,126.599,45.7222,哈尔滨市,南岗学府路,,36,36,33,14,8,78,,37,37,12,24,8,8,0.7,0.6
2025-07-29T1000,1133A,126.689,45.7733,哈尔滨市,太平宏伟公园,,34,34,30,16,7,67,,43,43,9,20,6,8,0.8,0.5
2025-07-29T1000,1134A,126.635,45.7667,哈尔滨市,道外承德广场,,40,40,38,13,10,66,,49,49,13,19,7,8,1.0,1.1
2025-07-29T1000,1135A,126.685,45.7319,哈尔滨市,香坊红旗大街,,29,29,31,17,14,64,,41,41,17,25,11,13,0.8,0.7
2025-07-29T1000,1136A,126.6411,45.7258,哈尔滨市,动力和平路,,,47,36,,3,72,,43,43,,22,7,9,,0.7
2025-07-29T1000,1137A,126.593,45.7478,哈尔滨市,道里建国路,颗粒物(PM10),51,51,32,12,11,72,,39,39,15,26,6,8,1.8,2.1
2025-07-29T1000,1138A,126.615,45.61,哈尔滨市,平房东轻厂,,34,34,29,8,9,71,,48,48,8,22,6,7,0.5,0.5
2025-07-29T1000,1139A,126.595,45.9855,哈尔滨市,呼兰师专,,40,40,31,6,8,87,,42,42,11,24,10,9,0.9,0.6
2025-07-29T1000,1140A,126.6206,45.6842,哈尔滨市,省农科院,,,49,49,12,14,,,18,18,,44,8,10,0.7,0.6
2025-07-29T1000,2688A,93.5128,42.8172,哈密市,地区监测站,颗粒物(PM10),118,185,78,65,30,51,,55,54,54,33,6,5,0.5,0.2
2025-07-29T1000,2689A,93.4961,42.8328,哈密市,哈密师范学校,颗粒物(PM10),98,146,76,36,25,25,,34,34,66,49,10,9,0.7,0.5
2025-07-29T1000,2671A,100.9048,36.9639,海北藏族自治州,海晏县西海镇,,28,24,23,19,16,75,,53,53,10,7,6,9,0.5,0.4
2025-07-29T1000,3867A,102.0738,36.5056,海东市,平安区公安北苑,颗粒物(PM10),53,55,44,20,16,80,,74,70,14,6,28,14,1.4,0.7
2025-07-29T1000,1409A,110.576,19.9507,海口市,东寨港,,20,20,15,10,9,42,,15,15,5,6,1,3,0.4,0.4
2025-07-29T1000,1410A,110.3232,20.0574,海口市,海南大学,,17,17,16,6,6,48,,32,32,6,7,4,3,0.4,0.4
2025-07-29T1000,1411A,110.283,20.0053,海口市,秀英海南医院,,50,50,20,12,11,47,,28,28,10,10,8,6,0.3,0.3
2025-07-29T1000,1412A,110.338,19.9969,海口市,海南师范大学,,17,17,16,7,7,48,,30,30,16,24,5,4,0.3,0.3
2025-07-29T1000,1413A,110.33,20.0356,海口市,龙华路环保局宿舍,,15,13,14,6,6,48,,34,34,8,8,7,6,0.3,0.2
2025-07-29T1000,3539A,110.5111,19.9736,海口市,桂林洋子站,,,20,18,10,7,42,,16,16,,8,5,4,0.2,0.2
2025-07-29T1000,2673A,100.6188,36.2866,海南藏族自治州,共和县恰卜恰镇,,35,19,25,17,13,110,,84,84,4,8,12,11,0.5,0.5
2025-07-29T1000,2676A,97.3731,37.3753,海西蒙古族藏族自治州,德令哈市,,34,,19,19,15,107,,110,108,5,2,17,19,0.5,0.5
2025-07-29T1000,1048A,114.5302,36.6116,邯郸市,东污水处理厂,,,40,30,3,4,89,,64,64,7,7,,4,0.5,0.3
2025-07-29T1000,1049A,114.4918,36.5713,邯郸市,矿院,,28,26,23,7,8,89,,60,60,8,8,7,6,0.5,0.3
2025-07-29T1000,1050A,114.484,36.6133,邯郸市,丛台公园,,30,25,21,15,9,96,,71,70,10,9,7,6,0.4,0.3
2025-07-29T1000,3458A,114.7895,36.5593,邯郸市,香泉濮院小区,,,3,36,,2,75,,57,54,6,8,2,2,0.2,0.3
2025-07-29T1000,3579A,114.50634,36.77178,邯郸市,永年区实验高中,,,58,36,43,20,,,72,,15,9,,4,0.6,0.3
2025-07-29T1000,3580A,114.20016,36.44293,邯郸市,峰峰矿区临水派出所,,43,42,38,3,3,135,,100,100,9,6,9,4,0.6,0.2
2025-07-29T1000,2634A,106.9893,33.1842,汉中市,汉川机床厂子校,,28,24,21,13,12,89,,41,41,9,12,4,3,0.4,0.4
2025-07-29T1000,2635A,107.0154,33.0706,汉中市,市监测站,,36,36,27,20,15,72,,38,38,10,8,8,7,0.6,0.5
2025-07-29T1000,2636A,107.0089,33.1138,汉中市,鑫源开发区,,34,34,24,10,13,72,,39,39,8,12,6,7,0.4,0.5
2025-07-29T1000,2637A,107.007,33.0323,汉中市,南郑大河坎水厂,,45,45,23,17,14,61,,27,27,17,11,10,7,0.6,0.4
2025-07-29T1000,1223A,120.2072,30.2111,杭州市,滨江,,20,20,24,8,10,39,,18,18,11,16,7,6,0.3,0.4
2025-07-29T1000,1224A,120.0633,30.2747,杭州市,西溪,,22,22,15,12,10,22,,12,12,15,12,4,4,0.4,0.4
2025-07-29T1000,1226A,120.3417,30.3150,杭州市,下沙,,20,20,18,8,9,43,,18,18,12,14,6,5,0.3,0.2
2025-07-29T1000,1227A,120.1269,30.2456,杭州市,卧龙桥,,22,22,18,11,9,22,,10,10,6,6,7,7,0.5,0.5
2025-07-29T1000,1228A,120.1903,30.2692,杭州市,浙江农大,,26,26,16,11,10,27,,14,14,17,15,6,4,0.5,0.4
2025-07-29T1000,1230A,120.1197,30.3119,杭州市,和睦小学,,18,18,18,11,10,33,,14,14,7,10,4,5,0.4,0.4
2025-07-29T1000,1231A,120.3019,30.4183,杭州市,临平镇,,21,21,34,9,9,42,,21,21,6,6,7,6,0.3,0.3
2025-07-29T1000,1232A,120.2753,30.1839,杭州市,城厢镇,,19,19,21,10,11,41,,18,18,4,8,8,6,0.4,0.5
2025-07-29T1000,1233A,120.0883,30.1808,杭州市,云栖,,19,19,19,6,6,34,,19,19,11,11,9,8,0.4,0.4
2025-07-29T1000,3557A,119.9464,30.0494,杭州市,镇二中,,25,25,19,16,14,24,,11,11,21,13,4,3,0.5,0.5
2025-07-29T1000,3558A,119.7183,30.2367,杭州市,市府大楼,,,21,17,14,10,,,13,12,10,10,7,6,0.4,0.4
2025-07-29T1000,3656A,120.1556,30.2864,杭州市,消防大队,,24,24,19,10,11,34,,19,19,15,15,6,7,0.6,0.6
2025-07-29T1000,1270A,117.1959,31.7848,合肥市,明珠广场,,24,24,17,12,8,37,,17,17,11,14,6,7,0.4,0.4
2025-07-29T1000,1271A,117.3072,31.8764,合肥市,三里街,,31,31,16,14,7,25,,15,13,15,12,6,5,0.4,0.4
2025-07-29T1000,1272A,117.2588,31.8707,合肥市,琥珀山庄,,,39,22,20,13,32,,20,18,13,10,,8,0.7,0.6
2025-07-29T1000,1273A,117.1604,31.9052,合肥市,董铺水库,,36,36,20,14,7,29,,22,18,10,9,4,4,0.3,0.3
2025-07-29T1000,1274A,117.25,31.8571,合肥市,长江中路,,41,41,21,19,10,30,,19,16,14,10,7,6,0.5,0.5
2025-07-29T1000,1275A,117.266,31.9436,合肥市,庐阳区,,34,34,20,14,6,30,,20,16,10,8,10,9,0.6,0.5
2025-07-29T1000,1276A,117.3453,31.8616,合肥市,瑶海区,,34,34,16,10,5,30,,18,15,12,11,8,7,0.6,0.5
2025-07-29T1000,1277A,117.3027,31.7964,合肥市,包河区,,,36,19,17,9,,,12,10,13,23,,6,0.6,0.6
2025-07-29T1000,1278A,117.2776,31.7385,合肥市,滨湖新区,,25,22,18,17,13,38,,18,18,6,10,8,8,0.4,0.4
2025-07-29T1000,1279A,117.1318,31.8403,合肥市,高新区,,27,27,18,15,9,37,,24,22,14,12,6,6,0.4,0.4
2025-07-29T1000,3464A,117.3803,31.9147,合肥市,高教基地,,38,29,18,26,14,31,,17,15,10,10,7,6,0.4,0.3
2025-07-29T1000,3614A,79.924,37.0877,和田地区,地区环保局,颗粒物(PM10),245,381,275,114,96,62,,60,60,12,12,5,4,0.6,0.6
2025-07-29T1000,3615A,79.9131,37.113,和田地区,市环保局,颗粒物(PM10),179,308,235,94,80,49,,60,60,22,21,3,3,0.1,0.1
2025-07-29T1000,2516A,108.2011,24.715,河池市,东仁乐园,,,,,,,,,,,,,,,,
2025-07-29T1000,2517A,108.0497,24.6947,河池市,市环保站,,40,40,28,15,15,55,,23,23,7,12,5,4,0.7,0.7
2025-07-29T1000,2518A,108.0983,24.6989,河池市,市疾控中心,,32,32,25,14,14,51,,10,10,10,16,5,4,0.7,0.7
2025-07-29T1000,1696A,114.6778,23.7569,河源市,源西,,32,27,24,22,16,31,,20,20,4,4,12,12,0.5,0.4
2025-07-29T1000,1697A,114.6944,23.7586,河源市,东埔,,40,40,31,21,16,33,,23,23,17,16,4,4,0.8,0.6
2025-07-29T1000,1698A,114.6892,23.7233,河源市,老城,,,36,25,,16,33,,20,20,14,13,4,4,0.6,0.5
2025-07-29T1000,1718A,115.4208,35.2464,菏泽市,气象局,,23,19,25,16,14,58,,34,34,6,8,4,3,0.2,0.2
2025-07-29T1000,3374A,115.5564,35.0891,菏泽市,定陶老年大学,,19,19,19,7,8,44,,26,26,7,10,3,2,0.2,0.2
2025-07-29T1000,4184A,115.4797,35.24401,菏泽市,永昌路1号,,36,36,29,17,14,58,,32,32,8,11,6,6,0.1,0.1
2025-07-29T1000,4193A,115.4715,35.2800,菏泽市,长城路999号,,,,22,,7,63,,34,34,7,9,,7,,0.4
2025-07-29T1000,2514A,111.5264,24.4172,贺州市,环保小区,,38,38,32,14,17,33,,17,17,14,12,12,11,1.0,0.9
2025-07-29T1000,2515A,111.5608,24.4078,贺州市,政协大楼,,27,27,24,17,13,42,,16,16,6,9,15,13,0.6,0.6
2025-07-29T1000,3534A,111.4744,24.4553,贺州市,西湾,,31,31,26,18,14,38,,12,12,8,12,9,8,0.4,0.4
2025-07-29T1000,2385A,114.17,35.9019,鹤壁市,市监测站,,39,37,31,27,23,86,,72,69,12,7,7,5,0.6,0.5
2025-07-29T1000,2386A,114.2956,35.7511,鹤壁市,市交警支队,,29,22,30,20,25,66,,42,41,11,14,6,7,0.2,0.5
2025-07-29T1000,2387A,114.2878,35.7306,鹤壁市,迎宾馆,,36,36,37,20,23,70,,46,41,12,16,5,6,0.6,0.6
2025-07-29T1000,3474A,114.2617,35.6822,鹤壁市,大新区,,44,44,36,17,18,72,,41,41,6,12,9,7,0.5,0.4
2025-07-29T1000,3596A,114.1572,35.9603,鹤壁市,南山宾馆,,35,28,38,19,16,109,,77,77,10,9,6,4,0.6,0.5
2025-07-29T1000,2244A,130.2537,47.3416,鹤岗市,哈啤分公司,,25,22,17,12,6,80,,46,46,8,5,12,12,0.7,0.6
2025-07-29T1000,2245A,130.2684,47.3086,鹤岗市,斯达机电,,,,25,5,9,76,,40,40,,8,12,12,,0.5
2025-07-29T1000,2246A,130.3114,47.3388,鹤岗市,东山纸板厂,,27,22,44,7,10,84,,38,38,8,11,13,14,0.9,0.9
2025-07-29T1000,2247A,130.1097,47.3382,鹤岗市,五号水库,,26,10,8,3,5,82,,39,39,14,7,9,9,0.2,0.1
2025-07-29T1000,2263A,127.4833,50.2524,黑河市,交通局,,,,25,,10,14,,26,24,,11,,6,0.4,0.4
2025-07-29T1000,2264A,127.5144,50.2341,黑河市,环保局,,23,22,28,16,11,18,,22,20,13,10,5,4,0.4,0.4
2025-07-29T1000,2265A,127.5291,50.2472,黑河市,大黑河岛,,,,7,10,8,11,,16,14,10,8,30,30,,
2025-07-29T1000,1074A,115.6838,37.7541,衡水市,电机北厂,,,41,37,23,21,62,,87,76,10,8,,6,0.3,0.4
2025-07-29T1000,1075A,115.6303,37.7316,衡水市,市监测站,,26,26,44,3,17,52,,66,57,9,10,6,5,0.3,0.3
2025-07-29T1000,3188A,115.6683,37.7217,衡水市,市城管局,,30,30,39,12,22,53,,78,63,6,10,14,10,0.6,0.5
2025-07-29T1000,3459A,115.5989,37.5491,衡水市,地表水厂,,30,30,45,3,12,52,,51,47,21,14,10,8,0.2,0.2
2025-07-29T1000,2456A,112.5003,26.9167,衡阳市,原169医院,,25,25,24,10,10,47,,46,45,14,6,3,3,0.5,0.5
2025-07-29T1000,2457A,112.6194,26.9258,衡阳市,衡阳化工总厂,,24,12,24,9,12,74,,47,47,7,7,2,4,0.7,0.7
2025-07-29T1000,2458A,112.6211,26.8956,衡阳市,珠晖区环保局,,22,16,24,11,12,70,,55,53,10,8,5,6,0.5,0.6
2025-07-29T1000,2459A,112.6197,26.8733,衡阳市,市委党校,,31,31,18,16,13,55,,56,53,13,8,14,9,0.8,0.6
2025-07-29T1000,2460A,112.6006,26.8919,衡阳市,市监测站,,21,,24,10,12,67,,53,53,6,8,2,3,0.5,0.7
2025-07-29T1000,2461A,112.5664,26.9056,衡阳市,真空机电公司,,,,24,,14,,,68,,,6,,4,,0.7
2025-07-29T1000,3399A,112.6703,26.882,衡阳市,师范学院,颗粒物(PM10),55,60,25,26,14,33,,44,40,16,8,6,6,1.2,0.8
2025-07-29T1000,2608A,103.3772,23.3993,红河哈尼族彝族自治州,污水处理厂,,,,31,,24,,,67,,,14,,15,,0.3
2025-07-29T1000,2609A,103.3861,23.35,红河哈尼族彝族自治州,监测站,,33,33,34,20,23,67,,36,36,8,9,35,15,0.4,0.3
2025-07-29T1000,3038A,103.3758,23.368,红河哈尼族彝族自治州,州图书馆,,,31,26,17,23,,,44,40,10,8,,8,0.4,0.3
2025-07-29T1000,1090A,111.6507,40.7517,呼和浩特市,呼市一监,,,,20,,13,,,98,,,9,,8,,0.6
2025-07-29T1000,1091A,111.6572,40.8033,呼和浩特市,小召,,25,9,18,7,18,77,,47,46,11,17,8,8,0.4,0.7
2025-07-29T1000,1094A,111.7516,40.8369,呼和浩特市,如意水处理厂,,26,15,29,10,20,83,,54,54,11,15,4,4,0.2,0.4
2025-07-29T1000,1095A,111.7276,40.8062,呼和浩特市,二十九中,,,24,24,14,20,,,62,61,13,12,5,6,0.7,0.8
2025-07-29T1000,1096A,111.5512,40.7866,呼和浩特市,工大金川校区,,40,,29,28,21,75,,36,36,11,18,5,4,0.6,0.7
2025-07-29T1000,1097A,111.717,40.7612,呼和浩特市,化肥厂生活区,,43,35,29,30,19,83,,66,66,11,13,7,7,0.4,0.5
2025-07-29T1000,3698A,111.5968,40.8178,呼和浩特市,红旗小学,,,17,22,3,16,91,,41,41,4,19,2,4,,0.3
2025-07-29T1000,3699A,111.6518,40.8389,呼和浩特市,海东办,,30,9,21,3,18,93,,53,53,5,16,4,4,0.4,0.6
2025-07-29T1000,2192A,119.7594,49.2261,呼伦贝尔市,区环保局,,21,13,19,9,13,67,,53,53,9,14,6,6,0.2,0.2
2025-07-29T1000,3061A,119.7512,49.1577,呼伦贝尔市,国华电力东,,,,13,9,7,68,,56,56,4,7,,8,0.3,0.3
2025-07-29T1000,1250A,120.0751,30.8669,湖州市,城西水厂,,20,20,25,12,13,54,,32,32,6,8,7,6,0.4,0.4
2025-07-29T1000,2873A,120.0830,30.8929,湖州市,仁皇山新区,,18,18,22,12,12,48,,20,20,4,9,6,4,0.4,0.4
2025-07-29T1000,2907A,120.1844,30.8596,湖州市,吴兴区站,,21,21,22,13,12,42,,16,16,4,6,6,6,0.5,0.4
2025-07-29T1000,3562A,120.4148,30.8538,湖州市,南浔区站,,19,19,20,9,12,44,,21,21,6,8,8,7,0.5,0.5
2025-07-29T1000,1607A,120.9049,40.7211,葫芦岛市,龙港区,,,51,41,8,15,82,,75,70,,7,,2,0.5,0.5
2025-07-29T1000,1608A,120.8392,40.7514,葫芦岛市,化工街,,30,12,19,7,14,95,,75,75,14,13,8,8,0.6,0.6
2025-07-29T1000,1609A,120.8341,40.7073,葫芦岛市,新区,,31,31,28,9,21,83,,74,72,11,6,2,2,0.8,0.8
2025-07-29T1000,1610A,120.8695,40.7677,葫芦岛市,东城区,,35,35,24,6,20,91,,93,92,16,11,4,3,0.7,0.7
2025-07-29T1000,2482A,109.5981,27.5721,怀化市,林科所,,33,33,23,9,6,67,,29,29,10,6,4,4,0.1,0.2
2025-07-29T1000,2483A,109.9453,27.5444,怀化市,河西地税局,,36,36,25,16,14,72,,18,18,10,10,6,4,0.3,0.2
2025-07-29T1000,2484A,109.9781,27.5342,怀化市,市四医院,,36,33,30,25,17,69,,19,19,6,11,14,9,0.4,0.4
2025-07-29T1000,2485A,109.9972,27.5578,怀化市,监测楼,颗粒物(PM10),53,55,31,20,16,67,,26,26,9,8,18,7,0.2,0.2
2025-07-29T1000,2486A,110.0394,27.583,怀化市,市委党校,,,61,33,55,18,61,,18,18,9,9,,11,,0.4
2025-07-29T1000,1210A,119.036,33.5981,淮安市,钵池山,,,31,13,10,10,,,22,22,5,8,9,7,0.5,0.5
2025-07-29T1000,1211A,119.007,33.575,淮安市,北京南路,,17,17,16,9,9,41,,25,25,5,6,8,7,0.5,0.5
2025-07-29T1000,1212A,118.989,33.6067,淮安市,市监测站,,19,19,15,12,9,41,,26,26,5,5,11,8,0.5,0.5
2025-07-29T1000,1213A,119.135,33.5039,淮安市,楚州区监测站,,27,27,21,11,8,40,,22,22,1,4,9,7,0.5,0.5
2025-07-29T1000,3426A,118.8755,33.2894,淮安市,新华书店,,18,18,13,9,8,44,,26,26,4,5,10,8,0.4,0.4
2025-07-29T1000,4206A,119.0288,33.6319,淮安市,承德北路606号,,22,22,19,7,10,41,,23,23,4,7,7,5,0.3,0.3
2025-07-29T1000,2282A,116.8004,33.975,淮北市,监测站,,35,35,20,15,10,34,,24,24,6,4,6,6,0.6,0.5
2025-07-29T1000,2283A,116.8091,33.9007,淮北市,烈山区政府,,40,40,25,10,5,39,,23,23,6,5,8,7,0.5,0.5
2025-07-29T1000,3330A,116.8873,33.9836,淮北市,杜集区检察院,,32,24,17,22,9,34,,23,23,5,4,6,7,0.6,0.3
2025-07-29T1000,4017A,116.7923,33.9535,淮北市,市博物馆,,39,39,20,22,9,34,,24,24,6,4,8,8,0.5,0.4
2025-07-29T1000,2277A,116.8305,32.7727,淮南市,潘集区政府,,40,40,24,10,9,34,,19,19,9,8,2,3,0.4,0.3
2025-07-29T1000,2279A,116.8569,32.5951,淮南市,谢家集区政府,,30,30,22,15,6,34,,20,20,8,7,6,7,0.2,0.1
2025-07-29T1000,2280A,116.8281,32.633,淮南市,八公山区政府,,,,22,,7,36,,19,19,,9,5,8,,0.2
2025-07-29T1000,2281A,116.6325,32.6201,淮南市,焦岗湖风景区管理处,,,,,,,,,,,,,,,,
2025-07-29T1000,2894A,117.0566,32.6531,淮南市,经济技术开发区消防队,,35,35,14,3,4,35,,21,21,9,11,8,8,0.2,0.2
2025-07-29T1000,3329A,117.0108,32.5893,淮南市,山南新区,,20,20,13,7,7,25,,14,14,7,8,9,9,0.4,0.3
2025-07-29T1000,4209A,117.0031,32.6445,淮南市,国庆中路369号,,22,22,20,12,12,31,,16,16,7,9,13,13,0.3,0.2
2025-07-29T1000,2446A,114.9028,30.4742,黄冈市,职工中心,,,,21,,11,86,,35,35,,4,,6,0.4,0.5
2025-07-29T1000,2929A,114.8858,30.4519,黄冈市,红卫路,,28,16,16,13,14,88,,52,52,1,3,7,7,0.4,0.4
2025-07-29T1000,3398A,114.9136,30.4445,黄冈市,市林业局,,30,29,19,10,9,96,,52,52,5,3,7,6,0.4,0.4
2025-07-29T1000,2672A,102.0199,35.5102,黄南藏族自治州,同仁县隆务镇,,19,13,29,13,12,53,,55,52,12,12,7,7,0.3,0.2
2025-07-29T1000,2295A,118.2903,29.6963,黄山市,延安路89号,,14,12,12,3,10,43,,20,20,2,4,3,3,0.3,0.4
2025-07-29T1000,2297A,118.1371,30.2756,黄山市,黄山区政府5号楼,,22,22,15,7,6,44,,21,21,2,3,4,4,0.3,0.3
2025-07-29T1000,4210A,118.3354,29.7203,黄山市,滨江东路7-2号,,16,16,16,8,5,39,,42,42,2,4,2,2,0.3,0.4
2025-07-29T1000,2423A,115.0601,30.2313,黄石市,沈家营,,31,31,29,11,7,60,,22,22,18,12,22,18,0.6,0.5
2025-07-29T1000,2426A,114.8988,30.2019,黄石市,铁山,,29,29,21,3,7,69,,31,31,6,8,12,8,0.2,0.4
2025-07-29T1000,2427A,115.0307,30.2092,黄石市,团城山,,28,28,22,9,3,53,,30,30,24,9,12,8,0.9,0.6
2025-07-29T1000,3149A,115.0235,30.1578,黄石市,笔架山北路,,,,19,,2,69,,31,31,7,12,,7,,0.4
2025-07-29T1000,4185A,115.0780,30.21118,黄石市,磁湖东路29号,,43,43,34,17,11,50,,25,25,17,15,12,8,0.4,0.4
2025-07-29T1000,1392A,114.4183,23.0528,惠州市,河南岸金山湖子站,细颗粒物(PM2.5),52,47,42,36,28,83,,41,41,28,24,8,7,0.8,0.7
2025-07-29T1000,1393A,114.4053,23.0822,惠州市,下埔横江三路子站,细颗粒物(PM2.5),54,50,47,38,33,80,,42,42,23,21,4,4,0.7,0.6
2025-07-29T1000,1394A,114.4103,23.1142,惠州市,江北云山西路子站,,,,45,39,28,87,,41,41,24,23,8,8,0.8,0.7
2025-07-29T1000,1395A,114.4645,22.7833,惠州市,惠阳区承修路船湖子站,细颗粒物(PM2.5),57,55,40,40,28,107,,50,50,22,22,8,7,0.6,0.5
2025-07-29T1000,1396A,114.5317,22.7422,惠州市,大亚湾管委会子站,细颗粒物(PM2.5),53,52,33,37,19,87,,32,32,28,28,8,8,0.7,0.7
2025-07-29T1000,3314A,114.4338,22.8134,惠州市,惠阳秋长,,48,48,40,33,27,86,,42,42,26,25,10,13,0.6,0.5
2025-07-29T1000,3452A,114.6517,22.775,惠州市,大亚湾霞涌,,36,27,20,25,12,82,,42,42,24,16,6,6,0.9,0.8
2025-07-29T1000,2240A,130.9762,45.3001,鸡西市,环保局,,18,15,24,7,10,57,,52,48,11,12,5,6,0.4,0.4
2025-07-29T1000,2243A,130.9429,45.3039,鸡西市,第一中学,,,,21,24,14,,,,,14,15,10,10,0.3,0.3
2025-07-29T1000,3707A,131.0207,45.3073,鸡西市,欧美日汽修厂,,20,20,23,7,12,61,,43,43,6,12,7,8,0.3,0.3
2025-07-29T1000,3709A,130.9967,45.3106,鸡西市,市政设施管理处,,21,21,24,3,9,52,,40,40,12,16,5,5,0.5,0.5
2025-07-29T1000,2367A,114.9754,27.0803,吉安市,红声器材厂,,32,32,33,15,15,34,,41,37,8,5,9,8,0.6,0.5
2025-07-29T1000,2368A,114.9658,27.0999,吉安市,市森林工业局,,27,27,27,10,14,25,,39,34,6,3,8,8,0.7,0.5
2025-07-29T1000,2369A,114.99,27.1312,吉安市,市环境监测站,,18,18,25,11,13,36,,32,28,6,3,15,15,0.7,0.6
2025-07-29T1000,2370A,115.0093,27.0968,吉安市,青原区法院,,30,30,28,14,15,34,,34,31,15,8,8,7,0.7,0.7
2025-07-29T1000,1772A,126.54,43.8622,吉林市,哈达湾,,24,14,17,14,14,75,,58,58,7,9,6,9,0.5,0.5
2025-07-29T1000,1773A,126.5844,43.8358,吉林市,东局子,,22,20,25,12,12,69,,51,51,8,6,5,5,0.4,0.4
2025-07-29T1000,1774A,126.5052,43.8245,吉林市,电力学院,,20,13,25,6,18,64,,48,48,7,10,5,8,0.9,0.8
2025-07-29T1000,1775A,126.6133,43.8972,吉林市,江北,,21,20,19,9,10,65,,45,45,7,4,3,3,0.7,0.7
2025-07-29T1000,1776A,126.555,43.8306,吉林市,江南公园,,25,20,22,15,16,80,,61,61,6,10,2,3,0.3,0.7
2025-07-29T1000,1778A,126.7061,43.7133,吉林市,丰满,,26,13,15,12,14,83,,71,71,3,4,4,4,0.6,0.6
2025-07-29T1000,2868A,126.4739,43.953,吉林市,九站,,21,21,25,14,16,63,,50,50,14,12,1,6,0.5,0.5
2025-07-29T1000,1299A,116.9862,36.6114,济南市,科干所,,22,,20,15,12,42,,30,30,5,12,6,6,0.3,0.4
2025-07-29T1000,1300A,116.9376,36.665,济南市,农科所,,17,17,25,3,9,36,,22,22,9,16,8,8,0.2,0.3
2025-07-29T1000,1301A,117.1265,36.6734,济南市,开发区,,18,12,18,12,12,40,,29,29,6,10,8,8,0.5,0.6
2025-07-29T1000,1303A,117.0624,36.6868,济南市,省种子仓库,,22,22,28,9,10,48,,37,37,4,12,5,6,0.4,0.5
2025-07-29T1000,1304A,116.9489,36.6447,济南市,机床二厂,,22,22,31,3,8,42,,27,27,7,15,10,10,0.2,0.3
2025-07-29T1000,1305A,117.0495,36.663,济南市,市监测站,,17,17,25,3,10,37,,29,28,10,16,9,9,0.4,0.5
2025-07-29T1000,1306A,116.7675,36.5484,济南市,长清党校,,,17,18,,14,40,,32,,8,11,,6,0.4,0.4
2025-07-29T1000,1616A,117.6795,36.229,济南市,技术学院,,17,17,14,9,8,33,,24,24,7,9,9,8,0.5,0.6
2025-07-29T1000,1961A,117.532,36.6868,济南市,东山小学,,27,27,20,12,7,42,,29,29,5,7,7,7,0.3,0.2
2025-07-29T1000,3059A,117.7161,36.2049,济南市,泰兴公司,,22,22,19,14,8,32,,15,15,3,11,8,9,0.4,0.5
2025-07-29T1000,3064A,117.6867,36.2171,济南市,莱芜战役纪念馆,,24,24,19,14,9,32,,18,18,9,12,7,6,0.8,0.9
2025-07-29T1000,3494A,117.1673,36.9782,济南市,济阳区政府,,27,27,39,3,11,54,,31,31,5,13,1,4,0.2,0.3
2025-07-29T1000,3495A,117.1171,36.63,济南市,锦屏中学,,18,17,17,12,7,44,,34,34,5,9,5,6,0.6,0.7
2025-07-29T1000,3682A,116.9814,36.6819,济南市,济南四建,,17,17,25,10,13,42,,28,28,5,12,6,7,0.4,0.5
2025-07-29T1000,1653A,116.6251,35.4302,济宁市,火炬城,,29,29,25,9,8,23,,16,16,8,8,4,5,0.5,0.5
2025-07-29T1000,1655A,116.5491,35.4042,济宁市,电化厂,,28,28,26,9,10,24,,22,21,7,6,5,6,0.6,0.5
2025-07-29T1000,3500A,116.5814,35.3707,济宁市,北湖一中,,25,25,26,16,10,20,,18,16,6,9,2,6,0.3,0.3
2025-07-29T1000,3501A,116.8249,35.5593,济宁市,服务中心,,29,29,25,9,7,28,,16,16,6,8,2,2,0.4,0.3
2025-07-29T1000,3678A,116.5907,35.4054,济宁市,市第七中学,,26,26,26,3,4,19,,16,15,6,6,9,9,0.3,0.3
2025-07-29T1000,2255A,130.2751,46.8028,佳木斯市,佳纺,细颗粒物(PM2.5),62,72,25,44,9,81,,20,20,15,22,9,8,0.7,0.5
2025-07-29T1000,2256A,130.3995,46.8307,佳木斯市,发电厂,,27,16,22,13,7,84,,28,28,17,19,14,7,0.6,0.3
2025-07-29T1000,2257A,130.3258,46.7975,佳木斯市,环保局,,34,34,24,16,10,79,,22,22,22,25,11,10,0.6,0.5
2025-07-29T1000,2258A,130.3648,46.8032,佳木斯市,十一中,,26,18,19,14,9,82,,26,26,15,16,7,5,0.5,0.4
2025-07-29T1000,2259A,130.3794,46.7588,佳木斯市,四丰,,,,,,,,,,,12,20,,17,0.5,0.5
2025-07-29T1000,1252A,120.7436,30.778,嘉兴市,清河小学,,17,17,26,7,8,43,,22,22,9,9,10,10,0.6,0.5
2025-07-29T1000,1253A,120.726,30.7478,嘉兴市,嘉兴学院,,19,19,19,8,8,38,,21,21,13,10,5,5,0.3,0.3
2025-07-29T1000,2872A,120.7846,30.7525,嘉兴市,南湖区残联,,29,29,23,7,9,38,,23,23,11,10,7,6,0.2,0.3
2025-07-29T1000,3407A,120.6916,30.7739,嘉兴市,秀洲住建,,17,17,22,6,9,43,,22,22,9,9,6,5,0.4,0.4
2025-07-29T1000,1945A,98.2908,39.7711,嘉峪关市,气象局,颗粒物(PM10),176,302,538,85,134,95,,92,88,11,11,26,13,0.9,0.9
2025-07-29T1000,2884A,98.2672,39.7978,嘉峪关市,酒钢宾馆,颗粒物(PM10),156,261,529,73,140,112,,99,98,10,12,25,24,0.3,1
2025-07-29T1000,3248A,98.2643,39.7724,嘉峪关市,雄关区,颗粒物(PM10),141,232,430,52,118,88,,88,84,14,12,16,11,0.5,0.5
2025-07-29T1000,1383A,113.1064,22.6058,江门市,北街,,45,42,32,31,24,49,,31,31,14,14,2,3,0.6,0.6
2025-07-29T1000,1384A,113.0731,22.5835,江门市,西区,,49,,34,34,25,59,,42,42,12,16,6,6,0.5,0.5
2025-07-29T1000,1385A,113.0219,22.5311,江门市,圭峰西,,,54,35,28,25,54,,44,44,,8,,4,0.5,0.4
2025-07-29T1000,1386A,113.0828,22.5947,江门市,东湖,,36,36,34,22,22,52,,33,33,14,15,6,6,0.5,0.5
2025-07-29T1000,3311A,113.1075,22.5647,江门市,江海富民,,46,46,43,16,20,55,,53,51,12,12,8,8,0.3,0.3
2025-07-29T1000,3449A,113.05,22.4667,江门市,新会银湖,,29,27,32,20,25,56,,37,36,4,12,2,3,0.3,0.3
2025-07-29T1000,1830A,113.1992,35.2590,焦作市,影视城,,,,,,,,,,,,,,,,
2025-07-29T1000,3335A,113.3137,35.2641,焦作市,马村街道办,,37,33,43,24,28,118,,77,77,12,13,13,7,0.8,0.6
2025-07-29T1000,3336A,113.2465,35.2373,焦作市,焦作技师学院,,43,43,36,12,12,121,,81,81,9,8,1,2,0.8,0.8
2025-07-29T1000,3477A,113.1656,35.2539,焦作市,中站许衡医院,,40,34,33,17,22,126,,88,88,11,12,9,7,0.6,0.5
2025-07-29T1000,3981A,113.2449,35.1803,焦作市,原李万街道办,,,36,44,14,12,125,,72,72,9,13,,8,0.7,0.7
2025-07-29T1000,4264A,113.2340,35.2190,焦作市,新安路1731号,,40,35,35,16,17,125,,86,86,6,6,4,4,0.3,0.3
2025-07-29T1000,4295A,113.2722,35.2121,焦作市,人民路3066号,,47,47,43,20,22,114,,69,69,5,8,3,3,0.5,0.4
2025-07-29T1000,1708A,116.3701,23.5345,揭阳市,新兴,,16,15,20,10,14,50,,30,30,9,9,4,4,0.7,0.6
2025-07-29T1000,1709A,116.3264,23.5443,揭阳市,西马,,19,,21,13,11,44,,22,22,11,11,3,2,0.4,0.4
2025-07-29T1000,1710A,116.3611,23.5626,揭阳市,东兴,,40,40,26,10,10,38,,23,22,11,10,2,2,0.4,0.3
2025-07-29T1000,1711A,116.4151,23.5294,揭阳市,渔湖,,20,17,22,14,9,38,,27,24,8,6,7,8,0.7,0.6
2025-07-29T1000,3320A,116.403,23.5699,揭阳市,曲溪,,22,,16,15,10,41,,27,25,12,11,4,5,0.5,0.5
2025-07-29T1000,1944A,102.1692,38.5167,金昌市,天庆家园,颗粒物(PM10),124,197,181,79,53,,,85,85,14,9,17,19,0.8,0.9
2025-07-29T1000,4022A,102.1647,38.5371,金昌市,金川区人防中心,颗粒物(PM10),137,223,202,63,55,104,,77,77,11,8,11,12,0.7,0.6
2025-07-29T1000,4239A,102.1930,38.5319,金昌市,长春路96号,颗粒物(PM10),108,165,187,62,50,101,,85,85,9,7,12,13,1.2,0.7
2025-07-29T1000,1262A,119.647,29.077,金华市,十五中,,,29,20,10,10,37,,16,16,16,24,,1,0.2,0.3
2025-07-29T1000,1263A,119.686,29.1029,金华市,监测站,,31,31,24,11,10,34,,9,9,8,17,3,3,0.2,0.4
2025-07-29T1000,3659A,119.656,29.1131,金华市,气象局,,27,27,19,6,5,25,,13,13,16,20,3,4,0.4,0.4
2025-07-29T1000,1767A,121.1115,41.0879,锦州市,南山,,,,27,8,18,76,,65,64,6,8,2,2,0.6,0.6
2025-07-29T1000,1768A,121.0604,40.8428,锦州市,开发区,颗粒物(PM10),56,62,40,14,12,83,,68,68,18,14,8,3,0.7,0.7
2025-07-29T1000,1769A,121.1836,41.1119,锦州市,百股街道,,30,20,27,3,12,95,,83,80,7,8,4,4,0.6,0.7
2025-07-29T1000,1770A,121.1178,41.1222,锦州市,天安街道,,30,,30,12,16,96,,74,74,8,12,12,6,0.9,0.8
2025-07-29T1000,1771A,121.1303,41.1386,锦州市,北湖公园,,,40,33,9,19,,,68,64,7,10,8,4,,0.7
2025-07-29T1000,2160A,112.85,35.5051,晋城市,自来水公司,,48,48,46,17,17,115,,88,88,11,9,1,1,0.5,0.4
2025-07-29T1000,2161A,112.8318,35.4936,晋城市,白云商贸,,35,30,31,12,12,110,,83,83,10,9,2,2,0.5,0.4
2025-07-29T1000,2162A,112.8508,35.4887,晋城市,市环保局,,,45,50,19,17,,,74,70,9,9,4,4,0.4,0.3
2025-07-29T1000,2163A,112.8676,35.4897,晋城市,技术学院,,32,28,35,14,14,101,,72,72,8,8,2,3,0.6,0.5
2025-07-29T1000,2165A,112.8453,35.546,晋城市,白马寺,,,,24,,19,104,,94,92,4,3,,6,,0.5
2025-07-29T1000,3620A,112.8271,35.4828,晋城市,泽州一中,,39,39,34,19,17,112,,80,80,7,6,4,4,0.4,0.3
2025-07-29T1000,2173A,112.7249,37.7067,晋中市,南都小区,,32,13,35,3,18,101,,88,88,12,9,5,5,0.5,0.6
2025-07-29T1000,2174A,112.6991,37.6982,晋中市,榆次区政府,,,14,35,8,15,100,,82,82,,7,,10,0.6,0.8
2025-07-29T1000,2865A,112.7195,37.6828,晋中市,榆次三中,,32,24,31,3,14,100,,87,87,13,8,10,10,0.4,0.6
2025-07-29T1000,4200A,112.7478,37.6954,晋中市,迎宾街26号,,32,24,30,7,14,102,,89,89,12,8,7,7,0.5,0.5
2025-07-29T1000,2439A,112.2014,31.0481,荆门市,竹园小学,,32,32,32,15,16,85,,64,64,9,9,1,1,0.2,0.4
2025-07-29T1000,2440A,112.1969,30.9891,荆门市,掇刀,,39,39,27,14,15,91,,76,75,10,9,9,9,0.5,0.6
2025-07-29T1000,2441A,112.2213,31.0386,荆门市,石化一小,,30,24,33,21,17,91,,65,65,8,9,7,6,1.3,1.2
2025-07-29T1000,3012A,112.1849,31.0362,荆门市,西山林语,,29,17,26,14,17,92,,82,80,4,4,6,8,0.0,0.5
2025-07-29T1000,3547A,112.1632,31.0138,荆门市,龙泉中学南校,,27,18,22,12,15,84,,78,76,7,7,4,4,0.6,0.7
2025-07-29T1000,1844A,112.2494,30.3197,荆州市,市图书馆,,26,,16,17,11,82,,51,51,6,8,2,2,0.5,0.5
2025-07-29T1000,1845A,112.2008,30.3544,荆州市,市委党校,,28,22,19,15,15,89,,49,49,10,12,8,8,0.5,0.5
2025-07-29T1000,3194A,112.2747,30.3122,荆州市,管委会,,26,19,16,12,13,81,,40,40,9,13,7,6,0.6,0.6
2025-07-29T1000,4268A,112.1722,30.3366,荆州市,学苑路85号,,30,,16,20,15,96,,52,52,10,7,8,5,0.4,0.3
2025-07-29T1000,2342A,117.3102,29.3867,景德镇市,王港中学,,,,,,,,,,,,,,,,
2025-07-29T1000,2343A,117.2117,29.2933,景德镇市,老干部活动中心,,15,6,14,3,5,46,,27,27,4,9,7,7,0.4,0.4
2025-07-29T1000,2344A,117.1894,29.2789,景德镇市,兽医站,,22,22,18,3,6,50,,32,32,4,5,4,3,0.4,0.4
2025-07-29T1000,2346A,117.2461,29.2956,景德镇市,陶研所,,,,16,,6,,,16,16,3,5,4,4,0.6,0.5
2025-07-29T1000,4289A,117.1542,29.2566,景德镇市,青少年活动中心,,19,,9,13,9,48,,32,32,4,6,2,4,0.2,0.3
2025-07-29T1000,1803A,115.9872,29.6815,九江市,十里,,23,17,14,16,15,62,,52,50,10,8,4,5,0.8,0.6
2025-07-29T1000,1804A,115.9584,29.7046,九江市,茅山头,,20,20,20,9,11,63,,50,50,6,6,3,4,0.4,0.3
2025-07-29T1000,1805A,115.9877,29.7295,九江市,西园,,24,18,16,11,7,75,,53,53,8,12,5,5,0.7,0.6
2025-07-29T1000,1808A,115.9114,29.6038,九江市,综合工业园,,26,26,18,15,11,68,,54,54,14,10,6,6,0.7,0.7
2025-07-29T1000,1809A,116.0721,29.7535,九江市,石化总厂,,23,20,21,16,20,58,,44,44,9,11,9,8,0.6,0.6
2025-07-29T1000,1810A,115.9773,29.5698,九江市,庐山气象台,,17,10,10,6,4,53,,61,57,5,4,6,6,1.0,0.9
2025-07-29T1000,3190A,116.0254,29.6994,九江市,外国语学校,,19,16,16,8,12,60,,49,49,9,8,12,11,0.4,0.4
2025-07-29T1000,4253A,116.0102,29.6594,九江市,莲花大道8号,,,23,11,11,11,,,46,44,4,2,4,4,0.6,0.5
2025-07-29T1000,4240A,98.4958,39.7339,酒泉市,玉门东路5号,颗粒物(PM10),223,366,178,90,126,77,,78,71,18,13,45,24,0.3,0.4
2025-07-29T1000,4241A,98.5099,39.7506,酒泉市,北大街108号,颗粒物(PM10),233,373,258,85,112,92,,81,80,6,7,43,13,0.3,0.4
2025-07-29T1000,2698A,76.0072,39.4467,喀什地区,巡警大队,颗粒物(PM10),126,202,98,49,25,19,,49,35,47,26,5,5,0.8,0.5
2025-07-29T1000,2699A,75.9755,39.4694,喀什地区,吾办,颗粒物(PM10),124,197,114,61,41,35,,39,31,37,29,5,6,0.9,0.7
2025-07-29T1000,4027A,75.9483,39.4689,喀什地区,老干局,颗粒物(PM10),77,103,104,30,30,39,,33,32,20,24,5,5,0.4,0.4
2025-07-29T1000,1824A,114.3389,34.7781,开封市,肿瘤医院,,25,19,31,15,14,78,,40,40,14,17,3,4,0.5,0.5
2025-07-29T1000,1826A,114.2885,34.7965,开封市,世纪星幼儿园,,30,30,31,11,19,79,,47,46,6,8,4,4,0.8,0.8
2025-07-29T1000,3147A,114.3438,34.8106,开封市,龙亭公园,,26,26,31,3,15,78,,43,43,4,12,4,3,0.4,0.4
2025-07-29T1000,3210A,114.3644,34.7964,开封市,汴京公园,,,34,34,11,16,,,41,36,8,11,4,4,,0.4
2025-07-29T1000,3473A,114.2485,34.8306,开封市,技师学院,,,32,29,,20,82,,50,50,4,10,5,4,0.6,0.7
2025-07-29T1000,3592A,114.4644,34.7556,开封市,祥符区生态环境局,,26,26,28,15,20,64,,32,32,10,21,5,4,0.3,0.3
2025-07-29T1000,1951A,84.895,45.6094,克拉玛依市,长征新村,颗粒物(PM10),54,57,49,12,18,71,,82,75,20,13,4,5,0.3,0.2
2025-07-29T1000,1952A,84.8988,45.5893,克拉玛依市,南林小区,,45,45,54,11,22,35,,75,67,30,22,3,1,0.1,0.2
2025-07-29T1000,1954A,84.905,44.3396,克拉玛依市,独山子区,,49,49,62,12,22,98,,87,87,7,6,8,8,0.5,0.5
2025-07-29T1000,1955A,85.6979,46.098,克拉玛依市,乌尔禾区商贸楼,,34,34,47,11,13,61,,95,83,14,6,6,6,0.5,0.4
2025-07-29T1000,3612A,85.1045,45.6899,克拉玛依市,白碱滩区新站,颗粒物(PM10),110,170,79,36,28,49,,76,67,28,10,10,10,0.4,0.3
2025-07-29T1000,2697A,76.1454,39.7142,克孜勒苏柯尔克孜自治州,市人民政府,颗粒物(PM10),62,73,60,32,33,79,,71,71,14,15,4,6,0.0,0.2
2025-07-29T1000,3665A,76.1658,39.7157,克孜勒苏柯尔克孜自治州,克州文化中心,颗粒物(PM10),83,115,71,48,33,48,,67,60,31,15,6,6,0.5,0.4
2025-07-29T1000,1450A,102.8204,24.8886,昆明市,呈贡新区,细颗粒物(PM2.5),68,,32,49,29,62,,14,14,26,33,17,6,1.0,0.5
2025-07-29T1000,1451A,102.6251,24.9608,昆明市,西山森林公园,,,,,,,,,,,,,,,,
2025-07-29T1000,1452A,102.7252,25.0902,昆明市,龙泉镇,,34,34,31,3,25,57,,14,14,16,22,2,2,0.4,0.3
2025-07-29T1000,1453A,102.7266,25.0375,昆明市,东风东路,,37,37,33,17,20,59,,32,32,22,24,6,4,0.6,0.5
2025-07-29T1000,1454A,102.6742,25.0669,昆明市,金鼎山,,33,33,30,16,11,57,,33,33,18,17,4,2,0.6,0.4
2025-07-29T1000,1455A,102.6644,25.0401,昆明市,碧鸡广场,,34,34,30,3,7,63,,30,30,19,24,9,8,0.6,0.5
2025-07-29T1000,3179A,102.7494,25.0119,昆明市,官渡区博物馆,,,23,34,12,16,67,,11,11,,36,4,2,,0.5
2025-07-29T1000,3375A,102.8017,24.8336,昆明市,青年创业园,细颗粒物(PM2.5),69,71,31,50,20,62,,14,14,20,28,24,9,1.1,0.7
2025-07-29T1000,3550A,102.7997,24.9786,昆明市,昆明学院,细颗粒物(PM2.5),70,81,48,51,29,48,,9,9,30,32,21,8,0.9,0.4
2025-07-29T1000,3551A,102.5967,24.6736,昆明市,晋宁区生态环境分局,颗粒物(PM10),54,57,34,29,17,76,,39,39,11,10,6,2,0.7,0.5
2025-07-29T1000,3552A,102.6678,24.9856,昆明市,云天化总部,,46,46,37,28,21,66,,38,38,20,26,7,6,0.8,0.5
2025-07-29T1000,1456A,91.1319,29.6514,拉萨市,八廓街,,17,7,9,6,7,52,,55,54,10,10,5,6,0.4,0.3
2025-07-29T1000,1457A,91.1221,29.6747,拉萨市,市环保局,,15,7,8,3,7,46,,46,43,12,12,7,6,0.3,0.3
2025-07-29T1000,1458A,91.0874,29.6475,拉萨市,区监测站,,13,7,7,6,6,40,,44,43,16,15,3,3,0.3,0.3
2025-07-29T1000,1459A,91.1774,29.6541,拉萨市,西藏大学,,15,8,8,3,6,46,,49,46,11,12,5,5,0.5,0.5
2025-07-29T1000,1460A,90.9798,29.6588,拉萨市,区辐射站,,,9,10,7,6,27,,39,39,,18,,4,0.5,0.4
2025-07-29T1000,1461A,91.0834,29.6292,拉萨市,拉萨火车站,,11,6,6,3,5,35,,46,45,17,12,4,4,0.4,0.3
2025-07-29T1000,2520A,109.2203,23.7256,来宾市,来宾技工学校,,39,39,43,15,25,68,,41,41,8,12,8,9,0.7,0.6
2025-07-29T1000,3535A,109.1781,23.7297,来宾市,兴宾区政府,,22,22,33,13,25,66,,26,26,6,10,6,6,1.0,0.9
2025-07-29T1000,4002A,109.2416,23.7461,来宾市,中南小学,,31,31,34,20,22,74,,47,47,8,11,8,6,0.4,0.4
2025-07-29T1000,1477A,104.1373,35.9454,兰州市,榆中兰大校区,,,,,,,,,,,,,,,,
2025-07-29T1000,1479A,103.831,36.0464,兰州市,铁路设计院,,,63,50,27,26,30,,17,16,,36,11,11,0.9,0.6
2025-07-29T1000,3241A,103.7439,36.0842,兰州市,百合公园,,40,40,42,17,24,29,,17,17,35,29,3,4,0.6,0.6
2025-07-29T1000,3242A,103.9611,35.998,兰州市,和平,颗粒物(PM10),55,60,36,26,19,58,,48,46,18,12,19,13,1.2,0.7
2025-07-29T1000,4236A,103.6293,36.0938,兰州市,庄浪东路808号,颗粒物(PM10),55,60,40,30,25,77,,40,40,47,27,11,14,0.4,0.4
2025-07-29T1000,4237A,103.7251,36.1043,兰州市,安宁西路88号,,45,45,41,28,26,45,,32,32,31,18,5,6,0.5,0.4
2025-07-29T1000,4238A,103.8470,36.0676,兰州市,北滨河东路1号,,39,38,37,27,25,36,,14,14,42,35,10,9,1.1,0.7
2025-07-29T1000,3245A,103.6633,36.533,兰州新区,新区管委会,,31,31,34,19,17,68,,54,48,17,12,33,13,0.7,0.4
2025-07-29T1000,3246A,103.6975,36.4789,兰州新区,舟曲中学,,,,,,,,,,,,,,,,
2025-07-29T1000,1067A,116.6708,39.5111,廊坊市,药材公司,,,,23,,13,74,,104,94,,7,5,2,,0.3
2025-07-29T1000,1068A,116.7214,39.5589,廊坊市,开发区,,24,10,26,3,13,74,,90,82,8,9,1,1,0.2,0.3
2025-07-29T1000,1070A,116.7244,39.5269,廊坊市,北华航天学院,,38,38,39,3,8,78,,104,95,7,7,3,4,0.3,0.4
2025-07-29T1000,2919A,116.7022,39.5453,廊坊市,河北工业大学,,28,28,36,3,12,76,,98,90,10,8,3,4,0.2,0.3
2025-07-29T1000,2535A,103.7723,29.5462,乐山市,花湖湾,,38,35,30,26,23,52,,31,31,20,15,6,6,1.2,1.1
2025-07-29T1000,2536A,103.7627,29.5844,乐山市,牛耳桥,,37,37,28,21,19,66,,31,31,21,18,5,4,0.8,0.7
2025-07-29T1000,2537A,103.7508,29.6006,乐山市,市第三水厂,,,33,29,23,24,,,26,26,22,18,,3,0.7,0.7
2025-07-29T1000,2538A,103.7571,29.5664,乐山市,市监测站,,40,40,32,23,20,64,,47,46,16,14,7,5,0.9,0.8
2025-07-29T1000,3361A,103.7311,29.5628,乐山市,理工大学,,33,33,30,23,21,65,,33,33,18,15,9,6,1.0,0.8
2025-07-29T1000,2598A,100.2143,26.8576,丽江市,西南郊,一氧化碳,51,20,18,11,10,60,,60,60,13,13,7,27,5.1,1.2
2025-07-29T1000,2599A,100.2497,26.8802,丽江市,丽江古城,,21,21,22,6,9,54,,30,30,13,14,9,9,0.5,0.5
2025-07-29T1000,2600A,100.2203,26.8906,丽江市,市中心,,16,14,15,8,10,50,,30,30,13,13,9,9,0.5,0.4
2025-07-29T1000,1267A,119.914,28.4514,丽水市,监测站大楼,,33,33,19,3,5,19,,5,5,13,12,5,4,0.3,0.3
2025-07-29T1000,1268A,119.93,28.4586,丽水市,莲都小学,,,30,20,8,4,20,,5,5,,12,,3,0.3,0.2
2025-07-29T1000,1269A,119.879,28.4231,丽水市,余庄前,,25,25,21,14,6,15,,3,3,12,7,4,3,0.5,0.5
2025-07-29T1000,1173A,119.176,34.5885,连云港市,市环境监测站,,17,17,18,7,5,45,,31,31,4,5,3,2,0.4,0.4
2025-07-29T1000,3000A,119.3581,34.6972,连云港市,德源药业,,17,17,18,3,2,39,,25,25,8,9,4,5,0.5,0.5
2025-07-29T1000,3007A,119.178,34.844,连云港市,新城一中,,22,22,16,3,6,40,,24,24,9,8,5,5,0.5,0.6
2025-07-29T1000,3008A,119.3608,34.7519,连云港市,胡沟管理处,,,12,13,3,4,,,29,29,,14,6,7,0.7,0.6
2025-07-29T1000,3009A,119.1478,34.5911,连云港市,矿山设计院,,15,12,18,9,6,47,,34,34,7,7,3,3,0.4,0.5
2025-07-29T1000,3434A,119.2413,34.6539,连云港市,工贸学校,,16,16,18,8,9,44,,33,33,7,7,6,6,0.5,0.5
2025-07-29T1000,3664A,119.4172,34.7341,连云港市,连云街道,,19,19,19,8,8,44,,35,35,4,4,3,2,0.5,0.5
2025-07-29T1000,2571A,102.3431,27.8099,凉山彝族自治州,青龙寺,,,17,16,6,6,46,,40,38,6,7,9,10,,0.9
2025-07-29T1000,2572A,102.2721,27.8415,凉山彝族自治州,邛海宾馆,,25,25,27,14,12,59,,37,37,10,23,10,13,0.6,0.8
2025-07-29T1000,2573A,102.2625,27.898,凉山彝族自治州,西昌市政府,,26,23,25,18,15,50,,47,44,19,10,11,9,0.7,0.6
2025-07-29T1000,2574A,102.2685,27.8851,凉山彝族自治州,凉山州政府,,,27,23,16,15,59,,50,49,17,17,,12,,0.9
2025-07-29T1000,4229A,102.2342,27.8859,凉山彝族自治州,凯乐南路30号,,33,33,26,13,12,55,,40,39,20,18,22,13,1.0,0.9
2025-07-29T1000,2212A,123.2,41.1953,辽阳市,宏伟区,颗粒物(PM10),58,66,31,8,12,68,,74,72,11,11,3,3,0.6,0.7
2025-07-29T1000,2213A,123.1683,41.2495,辽阳市,新华园,,,43,31,9,14,72,,73,73,,13,,7,0.3,0.4
2025-07-29T1000,2214A,123.2354,41.2639,辽阳市,滨河路,,49,49,28,20,15,63,,59,59,13,12,3,2,0.5,0.6
2025-07-29T1000,2215A,123.149,41.2991,辽阳市,铁西工业园,,40,40,34,9,12,64,,59,59,13,15,6,5,1.0,1
2025-07-29T1000,2227A,125.1358,42.8845,辽源市,环保局,,,25,24,10,10,97,,58,58,2,7,5,5,,0.5
2025-07-29T1000,3239A,125.0764,42.9078,辽源市,银鹰制药,,33,17,18,12,14,103,,59,59,4,14,7,7,0.5,0.7
2025-07-29T1000,1625A,115.9848,36.4372,聊城市,区政府,,20,20,24,9,15,48,,44,34,5,8,7,7,0.6,0.7
2025-07-29T1000,2878A,116.0072,36.4343,聊城市,聊大东校,,,,27,,18,52,,44,36,,11,,6,0.6,0.7
2025-07-29T1000,3200A,115.9819,36.4978,聊城市,监控中心,,18,18,20,12,12,51,,44,37,5,10,6,7,0.5,0.6
2025-07-29T1000,3513A,116.0445,36.4361,聊城市,九州社区,,28,28,31,7,14,50,,,,6,8,8,4,0.2,0.3
2025-07-29T1000,4018A,116.0567,36.4608,聊城市,星美广场,,26,26,36,8,17,46,,39,34,6,14,2,2,0.5,0.6
2025-07-29T1000,2632A,94.3681,29.6376,林芝市,林芝监测站,,10,10,7,6,4,26,,30,27,10,4,4,4,0.4,0.4
2025-07-29T1000,2633A,94.3616,29.6616,林芝市,林芝人民医院,,16,16,8,6,3,26,,26,25,7,4,3,3,0.1,0.2
2025-07-29T1000,2603A,100.0781,23.8982,临沧市,市环保局,,27,27,19,3,13,33,,13,13,7,7,6,4,0.4,0.3
2025-07-29T1000,2604A,100.0894,23.8822,临沧市,市气象局,,23,23,18,16,14,33,,15,15,8,7,9,9,0.4,0.4
2025-07-29T1000,1733A,111.5531,36.0783,临汾市,临钢医院,,44,44,40,14,12,104,,71,71,10,12,4,4,0.8,0.6
2025-07-29T1000,1734A,111.5028,36.0714,临汾市,技工学校,,40,40,37,25,23,122,,79,79,9,11,7,6,0.6,0.5
2025-07-29T1000,1736A,111.5018,36.0855,临汾市,市委,,50,50,48,19,14,128,,86,86,10,11,7,6,0.8,0.6
2025-07-29T1000,3018A,111.505,36.1014,临汾市,唐尧大酒店,颗粒物(PM10),57,64,50,24,14,116,,72,72,10,12,4,4,0.8,0.6
2025-07-29T1000,4244A,111.4879,36.0530,临汾市,启星学校,,,48,38,29,24,,,67,60,9,13,8,6,0.5,0.3
2025-07-29T1000,4271A,103.2464,35.6123,临夏回族自治州,滨河东路1号,颗粒物(PM10),53,55,39,16,16,40,,23,22,22,11,6,6,0.4,0.3
2025-07-29T1000,4310A,103.2093,35.5995,临夏回族自治州,新华街21号,,44,44,41,19,19,49,,34,32,20,12,6,6,0.4,0.3
2025-07-29T1000,1618A,118.3429,35.0532,临沂市,沂河小区,,19,19,20,10,10,45,,28,28,8,8,8,8,0.2,0.2
2025-07-29T1000,1619A,118.295,35.0583,临沂市,鲁南制药厂,,17,17,13,9,10,41,,29,29,9,8,10,9,0.4,0.4
2025-07-29T1000,1620A,118.2794,34.9976,临沂市,新光毛纺厂,,,9,9,8,8,,,24,24,,10,10,8,0.3,0.3
2025-07-29T1000,1621A,118.3956,35.0888,临沂市,河东保险公司,,19,19,16,3,2,52,,27,27,7,8,6,6,0.4,0.4
2025-07-29T1000,3370A,118.3564,35.0215,临沂市,十里堡居委,,17,17,11,7,5,46,,28,28,5,6,9,10,0.2,0.2
2025-07-29T1000,3496A,118.3604,35.1084,临沂市,南坊新区,,22,22,17,3,1,52,,27,27,9,8,10,10,0.2,0.2
2025-07-29T1000,3860A,118.3920,35.0300,临沂市,皇山花园小区,,19,19,13,10,8,51,,31,31,8,8,12,11,0.2,0.3
2025-07-29T1000,1870A,109.4856,24.3895,柳州市,柳东小学,,,,21,,12,56,,26,26,,5,,7,0.6,0.5
2025-07-29T1000,1871A,109.4157,24.3277,柳州市,环保监测站,颗粒物(PM10),53,55,26,18,16,48,,32,31,17,8,27,13,1.0,0.6
2025-07-29T1000,1872A,109.389,24.341,柳州市,河西水厂,,,,39,,16,,,12,,,18,,21,,0.9
2025-07-29T1000,1873A,109.4311,24.2921,柳州市,市四中,颗粒物(PM10),59,67,27,21,14,41,,26,26,25,12,6,6,2.4,1.2
2025-07-29T1000,1874A,109.4006,24.3631,柳州市,市九中,颗粒物(PM10),63,76,35,24,16,52,,27,27,16,10,12,6,0.8,0.4
2025-07-29T1000,1875A,109.4958,24.3134,柳州市,古亭山,颗粒物(PM10),51,52,22,15,11,54,,15,15,9,11,15,8,0.8,0.6
2025-07-29T1000,3402A,109.5422,24.3996,柳州市,市二中,,45,45,23,25,12,62,,18,18,9,12,11,7,0.8,0.7
2025-07-29T1000,2307A,116.5079,31.737,六安市,监测大楼,,21,21,16,9,10,38,,29,28,4,4,7,7,0.2,0.2
2025-07-29T1000,2308A,116.4738,31.7643,六安市,皖西学院,,23,23,18,8,9,40,,34,32,6,6,2,3,0.3,0.2
2025-07-29T1000,2309A,116.4996,31.7905,六安市,朝阳厂,,20,20,15,12,9,36,,25,24,10,9,5,5,0.3,0.3
2025-07-29T1000,2310A,116.5567,31.7886,六安市,开发区,,19,,8,13,10,38,,21,21,5,7,4,4,0.3,0.3
2025-07-29T1000,2576A,104.8,26.5892,六盘水市,窑上,,41,41,34,8,10,67,,25,25,11,6,3,3,0.5,0.5
2025-07-29T1000,2577A,104.83,26.5917,六盘水市,黄土坡,,31,31,25,13,14,75,,30,30,19,16,13,12,0.5,0.4
2025-07-29T1000,2578A,104.89,26.5939,六盘水市,水钢,,44,44,58,25,31,67,,27,27,28,24,32,12,2.0,0.9
2025-07-29T1000,2579A,104.8475,26.5894,六盘水市,民中,,35,35,31,17,17,64,,30,30,26,23,12,13,0.5,0.7
2025-07-29T1000,2580A,104.9544,26.5506,六盘水市,双水,,,,35,42,20,,,14,13,20,20,10,8,1.0,0.6
2025-07-29T1000,2335A,117.0189,25.1181,龙岩市,龙岩师专,,,,,,,,,,,,,,,,
2025-07-29T1000,2336A,117.0217,25.1033,龙岩市,龙岩市监测站,,18,18,16,3,4,46,,36,35,9,9,4,4,0.5,0.5
2025-07-29T1000,2337A,117.0258,25.0661,龙岩市,闽西职业技术学院,,19,19,16,7,5,33,,25,22,11,7,3,3,0.6,0.6
2025-07-29T1000,2338A,117.0196,25.0306,龙岩市,龙岩学院,,,,17,,5,27,,31,28,9,7,,3,0.4,0.3
2025-07-29T1000,2665A,105.0822,33.3261,陇南市,汉王镇固水子,,,,,,,,,,,,,,,,
2025-07-29T1000,2885A,104.9339,33.3826,陇南市,滨江中学,,40,40,34,11,14,50,,56,52,7,3,7,6,0.5,0.4
2025-07-29T1000,3247A,104.955,33.371,陇南市,市总工会,,49,49,29,15,15,57,,62,59,8,3,5,5,0.4,0.3
2025-07-29T1000,2487A,111.9589,27.8901,娄底市,电视发射台,,,29,29,14,11,,,24,23,5,4,7,6,0.3,0.3
2025-07-29T1000,2488A,111.9975,27.725,娄底市,市监测站,,,50,32,31,19,72,,37,37,16,15,,9,,0.8
2025-07-29T1000,2489A,112.0194,27.7314,娄底市,市委党校,,40,40,28,23,19,75,,39,39,18,16,18,16,1.2,0.8
2025-07-29T1000,2490A,111.9561,27.7569,娄底市,涟钢,,27,27,28,11,18,60,,35,35,9,12,11,11,1.1,1.3
2025-07-29T1000,2491A,111.9892,27.7044,娄底市,市政府,,36,36,24,16,16,74,,37,37,9,4,5,4,0.8,0.6
2025-07-29T1000,1893A,105.4324,28.9634,泸州市,九狮山,,36,34,30,25,21,68,,33,33,12,11,4,4,0.3,0.3
2025-07-29T1000,1894A,105.4427,28.9063,泸州市,小市上码头,,26,26,26,12,12,39,,23,23,17,9,9,5,0.5,0.4
2025-07-29T1000,1895A,105.4241,28.8573,泸州市,兰田宪桥,,31,31,23,11,11,51,,24,24,26,12,7,7,0.3,0.3
2025-07-29T1000,1896A,105.4379,28.8833,泸州市,市环监站,,33,33,24,18,15,48,,20,20,31,19,18,13,0.4,0.3
2025-07-29T1000,4272A,105.3689,28.7783,泸州市,纳溪中医医院,,,41,25,19,13,60,,25,25,25,15,3,3,,0.2
2025-07-29T1000,2183A,111.1406,37.5211,吕梁市,环保局,,25,12,35,3,19,79,,92,90,13,16,6,3,0.5,0.7
2025-07-29T1000,2185A,111.1297,37.5136,吕梁市,自来水公司,,,29,35,3,20,76,,84,82,13,14,2,2,,0.6
2025-07-29T1000,2867A,111.1283,37.51,吕梁市,马茂庄小学,,25,19,39,3,17,77,,87,85,12,14,8,5,0.3,0.6
2025-07-29T1000,1812A,112.3931,34.6516,洛阳市,市委党校,,37,35,29,16,14,118,,67,67,9,10,12,8,0.5,0.5
2025-07-29T1000,1815A,112.494,34.6886,洛阳市,河南林校,,44,44,40,20,20,131,,68,68,14,14,14,8,0.5,1.8
2025-07-29T1000,1816A,112.3844,34.623,洛阳市,开发区管委会,,40,35,27,19,18,128,,69,69,8,8,15,11,0.6,0.5
2025-07-29T1000,1817A,112.4267,34.6258,洛阳市,市委新办公区,,37,28,27,20,18,117,,65,65,12,10,14,9,0.5,0.4
2025-07-29T1000,3340A,112.6005,34.6326,洛阳市,伊滨,,,,28,,19,110,,43,43,15,14,,4,0.6,0.6
2025-07-29T1000,3341A,112.4951,34.6332,洛阳市,中移产业园,,43,43,39,22,18,111,,57,57,13,13,8,7,0.7,0.7
2025-07-29T1000,3593A,112.5736,34.8993,洛阳市,吉利监测站,,47,47,46,26,24,128,,57,57,10,13,15,8,0.5,0.4
2025-07-29T1000,3635A,112.3677,34.662,洛阳市,河科大西苑校区,,40,40,32,21,15,118,,60,60,8,8,12,9,0.4,0.4
2025-07-29T1000,3636A,112.4388,34.6781,洛阳市,英才小学,颗粒物(PM10),52,54,37,21,19,118,,73,73,12,10,13,9,0.6,0.5
2025-07-29T1000,4214A,112.4600,34.6949,洛阳市,春都路1号院,,42,42,34,19,14,122,,59,59,14,13,12,6,0.5,0.5
2025-07-29T1000,2399A,114.051,33.5699,漯河市,三五一五工厂,,,27,26,13,13,72,,49,49,,10,,6,0.4,0.3
2025-07-29T1000,2400A,114.0055,33.5698,漯河市,漯河大学,,38,38,26,12,8,66,,45,45,13,13,4,5,0.5,0.4
2025-07-29T1000,2401A,114.0138,33.5828,漯河市,市水利局,,23,22,23,14,10,71,,45,45,6,7,6,6,0.7,0.6
2025-07-29T1000,2402A,114.0261,33.5698,漯河市,市广电局,,26,22,20,18,15,69,,47,47,9,8,4,4,0.4,0.3
2025-07-29T1000,3478A,113.9749,33.5664,漯河市,市图书馆,,,21,23,3,12,,,47,44,8,7,,7,0.4,0.3
2025-07-29T1000,4250A,114.0892,33.5882,漯河市,韶山路11号,,22,21,29,10,11,68,,45,45,7,12,2,3,0.6,0.5
2025-07-29T1000,1798A,118.5092,31.6837,马鞍山市,湖东路四小,,,,25,,13,47,,16,16,,9,,7,0.5,0.4
2025-07-29T1000,1799A,118.5024,31.6449,马鞍山市,开发区,,45,45,27,15,15,48,,22,22,6,10,7,7,0.7,0.7
2025-07-29T1000,1802A,118.6245,31.7241,马鞍山市,濮塘,,25,23,21,17,10,42,,16,16,6,8,7,7,0.7,0.6
2025-07-29T1000,3633A,118.4918,31.6809,马鞍山市,雨山,,26,26,23,14,12,43,,17,17,9,11,8,7,0.5,0.5
2025-07-29T1000,4191A,118.5274,31.72227,马鞍山市,慈湖高新区,,32,32,23,16,13,45,,17,17,7,10,6,6,0.5,0.5
2025-07-29T1000,1686A,111.0286,21.4688,茂名市,电白南海,,25,24,24,17,15,27,,29,27,10,8,4,7,0.3,0.2
2025-07-29T1000,1687A,110.9294,21.6533,茂名市,茂石化七小,,24,24,23,12,10,20,,30,29,14,7,4,7,0.7,0.5
2025-07-29T1000,1688A,110.9107,21.6687,茂名市,健康路,,17,17,19,9,12,18,,33,29,14,8,5,10,0.6,0.6
2025-07-29T1000,1689A,110.8592,21.6828,茂名市,高岭,,31,31,28,9,8,16,,25,22,21,13,23,13,0.7,0.6
2025-07-29T1000,3450A,111.01,21.5165,茂名市,电白水东,,25,17,19,17,11,32,,34,34,12,10,9,9,0.6,0.5
2025-07-29T1000,2539A,104.0308,30.0478,眉山市,黑龙滩水库,,26,20,19,18,17,76,,39,39,11,8,3,2,0.2,0.2
2025-07-29T1000,2540A,103.8416,30.0874,眉山市,气象局,,46,46,34,27,18,78,,31,31,27,30,3,3,0.6,0.6
2025-07-29T1000,3137A,103.8578,30.0744,眉山市,市委党校,颗粒物(PM10),53,56,28,22,15,49,,33,33,46,25,10,9,0.7,0.6
2025-07-29T1000,3148A,103.8291,30.0564,眉山市,区人社局,,47,47,36,19,13,75,,48,48,36,26,14,13,0.8,0.7
2025-07-29T1000,1690A,116.1231,24.3284,梅州市,梅江月梅,,,27,17,9,9,,,33,28,12,10,9,9,0.6,0.5
2025-07-29T1000,1691A,116.0797,24.2719,梅州市,梅县新城,,29,29,17,6,12,29,,37,34,9,8,7,6,0.5,0.5
2025-07-29T1000,1692A,116.1248,24.2654,梅州市,环境监控中心,,28,28,19,8,12,31,,35,31,9,12,5,5,0.5,0.5
2025-07-29T1000,3315A,116.1233,24.2991,梅州市,梅龙,,25,24,14,17,7,37,,38,34,13,10,8,7,0.7,0.6
2025-07-29T1000,1878A,104.7778,31.4741,绵阳市,富乐山,,39,32,31,27,22,82,,51,51,13,12,9,8,0.6,0.5
2025-07-29T1000,1880A,104.6697,31.4668,绵阳市,高新区自来水公司,,,37,40,19,19,,,45,42,16,20,8,8,0.7,0.5
2025-07-29T1000,1881A,104.7287,31.5075,绵阳市,三水厂,,,,39,,25,,,29,29,,20,7,6,0.5,0.5
2025-07-29T1000,3491A,104.69,31.5322,绵阳市,西科大附属小学,,35,35,43,19,24,84,,44,44,12,24,8,8,0.5,0.4
2025-07-29T1000,3492A,104.5648,31.5343,绵阳市,安州区旅游局,,36,36,35,22,21,72,,54,54,7,11,5,4,0.7,0.6
2025-07-29T1000,4226A,104.7651,31.4531,绵阳市,绵阳市气象局,,38,36,36,26,22,64,,39,39,23,17,8,6,0.6,0.6
2025-07-29T1000,1784A,129.61,44.561,牡丹江市,环保大楼,,,17,19,6,13,73,,28,28,12,16,,3,0.4,0.3
2025-07-29T1000,1785A,129.6115,44.5782,牡丹江市,文化广场,,,,17,12,17,76,,28,28,,19,,7,0.6,0.5
2025-07-29T1000,1786A,129.5904,44.5963,牡丹江市,第一医院,,24,9,20,7,14,75,,32,32,14,16,6,7,0.5,0.5
2025-07-29T1000,1787A,129.6364,44.6075,牡丹江市,机车工厂,,22,18,22,7,9,70,,26,26,14,15,5,5,0.5,0.4
2025-07-29T1000,1788A,129.6386,44.5462,牡丹江市,第一中学,,22,10,18,3,8,68,,27,27,10,15,5,5,0.3,0.2
2025-07-29T1000,2531A,105.0703,29.61,内江市,市监测站,,35,30,25,22,22,110,,52,52,20,15,5,4,0.8,0.7
2025-07-29T1000,2532A,105.0717,29.5947,内江市,东兴区政府,,34,,22,17,16,108,,60,60,16,12,7,7,0.7,0.6
2025-07-29T1000,2533A,105.0653,29.5817,内江市,内江二中,,39,39,33,25,26,102,,56,56,16,14,4,4,0.7,0.6
2025-07-29T1000,2534A,105.0406,29.5822,内江市,内江日报社,,33,,26,22,24,103,,54,54,13,15,8,8,0.6,0.5
2025-07-29T1000,2628A,92.0657,31.4846,那曲市,那曲监测站,,23,23,15,11,7,59,,50,50,12,12,9,8,0.4,0.4
2025-07-29T1000,4243A,92.0515,31.4787,那曲市,那曲市委宣传部,,19,14,10,8,6,59,,50,50,7,8,5,6,0.3,0.4
2025-07-29T1000,1290A,115.8931,28.6843,南昌市,省外办,,19,18,25,9,17,60,,46,46,7,8,5,6,0.6,0.7
2025-07-29T1000,1291A,115.8886,28.7003,南昌市,省林业公司,,,12,23,7,12,,,40,39,8,11,1,1,0.4,0.5
2025-07-29T1000,1292A,115.8126,28.7442,南昌市,林科所,,21,14,15,7,8,66,,53,52,10,10,8,7,0.2,0.5
2025-07-29T1000,1294A,115.8518,28.687,南昌市,建工学校,,21,16,25,3,20,65,,52,52,8,12,7,8,0.4,0.5
2025-07-29T1000,1295A,115.8921,28.6424,南昌市,象湖,,21,10,17,7,10,66,,60,59,5,6,6,7,0.4,0.5
2025-07-29T1000,1296A,115.7423,28.7996,南昌市,武术学校,,33,,17,23,12,63,,34,34,4,4,8,8,0.6,0.5
2025-07-29T1000,3046A,115.9084,28.6062,南昌市,机电学校,,21,11,26,7,12,67,,60,60,7,9,4,4,0.5,0.6
2025-07-29T1000,3690A,115.9721,28.7031,南昌市,外国语学校,,20,18,23,7,11,64,,56,56,2,5,4,5,0.5,0.6
2025-07-29T1000,4192A,115.9316,28.68677,南昌市,南京东路235号,,22,22,26,3,10,61,,61,59,7,9,3,3,0.5,0.6
2025-07-29T1000,1905A,106.056,30.8064,南充市,西山风景区,,,,,,,,,,,,,,,,
2025-07-29T1000,1906A,106.0789,30.8023,南充市,南充市委,,49,49,36,32,24,96,,44,44,18,13,4,4,0.6,0.4
2025-07-29T1000,1907A,106.1031,30.8217,南充市,南充炼油厂,颗粒物(PM10),51,51,40,23,20,72,,32,29,20,12,4,4,0.5,0.4
2025-07-29T1000,4227A,106.1083,30.7884,南充市,梨树横街98号,,44,44,36,21,20,96,,42,42,14,14,2,3,0.3,0.3
2025-07-29T1000,4304A,106.1172,30.843,南充市,清泉寺北路188号,,45,44,34,31,40,74,,30,30,10,11,2,2,0.3,0.3
2025-07-29T1000,4305A,106.067,30.7616,南充市,同庆路1号,颗粒物(PM10),52,54,36,29,22,85,,39,39,23,16,3,3,0.6,0.4
2025-07-29T1000,1151A,118.8086,32.1065,南京市,迈皋桥,,20,20,16,7,8,39,,17,17,8,15,4,4,0.3,0.2
2025-07-29T1000,1152A,118.7538,32.0551,南京市,草场门,,39,39,23,7,11,34,,14,14,8,10,9,9,0.6,0.5
2025-07-29T1000,1153A,118.7794,32.0745,南京市,山西路,,24,24,20,9,4,38,,17,17,2,7,5,4,0.5,0.4
2025-07-29T1000,1154A,118.7752,32.0023,南京市,中华门,,22,22,15,12,7,30,,11,11,6,8,10,9,0.7,0.7
2025-07-29T1000,1155A,118.8109,32.0309,南京市,瑞金路,,24,24,16,12,10,40,,16,16,12,10,7,6,0.2,0.3
2025-07-29T1000,1156A,118.7997,32.0754,南京市,玄武湖,,37,37,20,6,2,32,,14,14,8,10,7,6,0.6,0.5
2025-07-29T1000,1157A,118.6414,32.0931,南京市,浦口,,33,33,23,16,8,40,,19,19,10,13,5,5,0.3,0.3
2025-07-29T1000,1158A,118.7356,31.9996,南京市,奥体中心,,26,26,19,17,11,40,,18,18,16,13,5,4,0.5,0.4
2025-07-29T1000,1159A,118.9125,32.1028,南京市,仙林大学城,,29,29,22,7,4,41,,17,17,4,7,8,8,0.6,0.6
2025-07-29T1000,3422A,118.8436,31.9198,南京市,江宁彩虹桥,,29,29,24,14,8,39,,13,13,9,13,4,4,0.6,0.6
2025-07-29T1000,3427A,118.8554,32.3578,南京市,六合雄州,,27,27,19,15,6,30,,14,14,15,12,7,4,0.7,0.5
2025-07-29T1000,4249A,118.8708,31.3402,南京市,汶溪路181号,,24,24,18,12,10,43,,21,21,12,14,5,6,0.4,0.4
2025-07-29T1000,4312A,119.019,31.6512,南京市,中山西路1号,,28,24,16,19,11,39,,16,16,8,10,3,4,0.7,0.5
2025-07-29T1000,1401A,108.3103,22.7881,南宁市,二十一中,,19,,35,11,23,59,,41,41,17,12,4,4,0.5,0.6
2025-07-29T1000,1402A,108.3141,22.8528,南宁市,北湖,,21,,41,13,29,65,,44,44,17,13,3,4,0.5,0.6
2025-07-29T1000,1403A,108.3206,22.8225,南宁市,市监测站,,19,,38,13,24,51,,45,45,28,14,3,5,0.5,0.5
2025-07-29T1000,1404A,108.3829,22.8037,南宁市,大自然花园,,19,,37,12,26,59,,44,44,10,11,4,5,0.4,0.5
2025-07-29T1000,1405A,108.4394,22.7904,南宁市,仙葫,,21,,34,10,23,66,,45,45,17,11,4,4,0.7,0.8
2025-07-29T1000,1406A,108.2397,22.8467,南宁市,区农职院,,19,8,38,6,21,58,,43,43,14,13,4,5,0.6,0.8
2025-07-29T1000,1407A,108.3275,22.735,南宁市,英华嘉园,,18,,35,11,19,57,,41,41,17,16,1,2,0.4,0.5
2025-07-29T1000,3401A,108.4834,22.7618,南宁市,红星社区,,23,,37,12,23,72,,47,47,9,8,2,2,0.5,0.6
2025-07-29T1000,4221A,108.2177,22.7774,南宁市,乐贤路16号,,18,,39,12,20,49,,45,45,32,18,3,4,0.6,0.7
2025-07-29T1000,2331A,118.0966,26.6761,南平市,茫荡山,,,,,,,,,,,,,,,,
2025-07-29T1000,2332A,118.1681,26.6369,南平市,南平市监测站,,14,9,12,3,6,42,,32,32,4,5,5,4,0.5,0.5
2025-07-29T1000,2333A,118.1825,26.6489,南平市,南平铝业有限公司,,13,10,14,7,4,41,,34,34,6,5,5,5,0.3,0.4
2025-07-29T1000,2334A,118.1756,26.6272,南平市,南平七中,,17,17,16,3,5,42,,24,24,3,4,2,2,0.5,0.5
2025-07-29T1000,1168A,120.9098,31.9663,南通市,狼山街道,,,,20,,7,,,28,28,4,5,7,4,0.5,0.4
2025-07-29T1000,1169A,120.86,32.0005,南通市,虹桥,,17,10,16,8,8,52,,32,32,6,7,6,3,0.5,0.5
2025-07-29T1000,1170A,120.87,32.02,南通市,城中,,15,15,23,3,7,47,,28,28,7,6,8,4,0.3,0.3
2025-07-29T1000,1171A,120.94,31.93,南通市,星湖花园,,16,10,16,7,8,51,,34,34,5,6,7,3,0.7,0.5
2025-07-29T1000,1172A,120.81,32.0417,南通市,紫琅学院,,21,21,18,3,5,51,,28,28,7,8,5,3,0.6,0.6
2025-07-29T1000,3291A,121.067,32.062,南通市,通州监测站,,18,9,15,3,5,57,,41,41,3,4,4,2,0.5,0.6
2025-07-29T1000,3432A,120.9348,31.9883,南通市,环境教育馆,,19,19,22,3,5,60,,36,36,4,7,8,3,0.3,0.2
2025-07-29T1000,2404A,112.5224,33.0122,南阳市,瓦房庄,,35,35,29,13,11,96,,71,71,8,8,7,6,0.5,0.4
2025-07-29T1000,2405A,112.5003,32.9735,南阳市,汉画馆,,34,34,28,8,5,99,,66,66,8,9,7,7,0.4,0.4
2025-07-29T1000,2406A,112.5573,33.027,南阳市,气象站,,36,36,26,9,11,101,,68,68,5,8,7,7,0.4,0.3
2025-07-29T1000,2407A,112.5481,32.9689,南阳市,理工学院,,32,32,25,3,6,100,,70,70,6,7,7,7,0.4,0.4
2025-07-29T1000,4008A,112.5234,32.9922,南阳市,卧龙区政府,,31,12,13,7,10,97,,70,70,9,9,6,6,0.5,0.4
2025-07-29T1000,1234A,121.8358,29.911,宁波市,区环保大楼,,26,26,35,7,10,30,,23,23,7,11,4,3,0.3,0.6
2025-07-29T1000,1235A,121.56,29.82,宁波市,万里学院,,23,23,19,8,9,34,,23,23,11,12,6,4,0.4,0.4
2025-07-29T1000,1236A,121.713,29.9572,宁波市,龙赛医院,,29,29,28,17,27,40,,30,30,7,9,7,8,0.4,0.4
2025-07-29T1000,1239A,121.633,29.7733,宁波市,钱湖水厂,,,18,19,11,7,,,24,24,7,8,6,5,0.3,0.3
2025-07-29T1000,1240A,121.5856,29.8635,宁波市,太古小学,,23,23,24,8,8,37,,26,26,7,8,4,2,0.4,0.4
2025-07-29T1000,1241A,121.524,29.8674,宁波市,市环境监测中心,,20,20,19,3,6,30,,21,21,9,13,6,6,0.3,0.4
2025-07-29T1000,2871A,121.6147,29.9017,宁波市,万里国际学校,,,20,17,8,8,,,24,24,6,9,,5,0.4,0.4
2025-07-29T1000,3710A,121.5594,29.8975,宁波市,白沙活动中心,,14,14,15,7,5,36,,26,26,5,8,4,4,0.3,0.4
2025-07-29T1000,2339A,119.5001,26.6946,宁德市,金涵水库,,,,,,,,,,,,,,,,
2025-07-29T1000,2341A,119.5388,26.6612,宁德市,宁德市监测站,,,32,17,7,8,,,16,14,12,9,5,6,0.5,0.5
2025-07-29T1000,3209A,119.5231,26.6562,宁德市,宁德一中,,,25,17,3,8,,,20,20,12,6,,6,0.2,0.2
2025-07-29T1000,2618A,98.8601,25.8567,怒江傈僳族自治州,州监测站,,26,24,26,18,15,24,,18,18,6,10,6,5,0.3,0.4
2025-07-29T1000,2619A,98.8546,25.8417,怒江傈僳族自治州,泸水一中,,16,12,26,11,12,12,,6,6,9,12,6,6,0.5,0.5
2025-07-29T1000,1888A,101.6891,26.571,攀枝花市,弄弄坪,,34,34,33,11,13,38,,30,27,17,21,14,16,1.0,1.5
2025-07-29T1000,1889A,101.5769,26.5928,攀枝花市,河门口,,33,33,24,17,10,39,,25,22,13,10,11,6,0.5,0.4
2025-07-29T1000,1890A,101.7169,26.585,攀枝花市,炳草岗,,43,43,34,21,16,37,,20,20,32,23,20,10,2.1,1.1
2025-07-29T1000,1891A,101.7369,26.5008,攀枝花市,仁和,,32,32,23,20,13,45,,21,21,15,11,15,8,1.3,0.8
2025-07-29T1000,2835A,101.7227,26.567,攀枝花市,四十中小,,,,20,,10,,,113,,,20,,17,,1.6
2025-07-29T1000,1604A,122.0303,41.1489,盘锦市,开发区,,25,25,24,7,14,67,,57,52,8,9,11,11,0.0,0
2025-07-29T1000,1605A,122.0485,41.0883,盘锦市,兴隆台,,24,24,25,6,13,56,,58,51,7,8,4,5,0.4,0.4
2025-07-29T1000,1606A,121.8297,41.1028,盘锦市,新生街道,,29,17,20,11,12,92,,77,74,8,9,3,3,0.4,0.4
2025-07-29T1000,1832A,113.3257,33.742,平顶山市,新华旅馆,,35,35,27,23,14,109,,72,72,13,12,7,7,0.6,0.5
2025-07-29T1000,1833A,113.2919,33.737,平顶山市,规划设计院,,45,45,34,22,18,116,,50,50,15,15,10,8,0.7,0.6
2025-07-29T1000,1834A,113.182,33.774,平顶山市,平顶山工学院,,37,31,26,19,13,116,,58,58,11,13,10,7,0.3,0.2
2025-07-29T1000,3204A,113.3025,33.73,平顶山市,规划局,,44,44,36,19,13,118,,48,48,12,13,6,5,0.5,0.4
2025-07-29T1000,3594A,112.8867,33.9116,平顶山市,石龙区,,,34,40,18,17,115,,39,39,10,17,,11,,0.6
2025-07-29T1000,2656A,106.6692,35.5461,平凉市,聚贤嘉苑,,37,37,41,14,12,78,,39,39,10,19,7,9,0.7,0.7
2025-07-29T1000,2657A,106.7021,35.5307,平凉市,博物馆,,34,34,40,14,14,79,,38,38,13,18,7,7,0.6,0.5
2025-07-29T1000,2347A,114.0997,27.5002,萍乡市,武功山,,13,6,3,3,6,41,,14,14,3,3,10,10,0.3,0.3
2025-07-29T1000,2348A,113.8385,27.6434,萍乡市,中医院,,26,26,21,14,9,38,,32,28,15,14,9,9,1.2,1.3
2025-07-29T1000,2349A,113.8493,27.6253,萍乡市,市政府车库,,39,,17,27,16,38,,26,24,12,12,21,14,0.8,1.1
2025-07-29T1000,2350A,113.8676,27.6435,萍乡市,市环保局,,45,,22,31,16,43,,34,31,14,13,12,10,0.8,0.9
2025-07-29T1000,2351A,113.866,27.6198,萍乡市,安源区政府,,25,25,21,17,13,41,,24,23,8,8,15,14,0.7,0.9
2025-07-29T1000,2319A,119.0141,25.4325,莆田市,荔城区仓后路,,34,34,31,3,12,49,,34,34,6,8,5,5,0.5,0.5
2025-07-29T1000,2320A,119.0015,25.4553,莆田市,莆田市监测站,,,12,22,3,8,,,32,31,7,6,,4,0.4,0.4
2025-07-29T1000,2321A,119.1119,25.4561,莆田市,涵江区六中,,18,18,18,3,10,50,,38,38,6,10,3,3,0.4,0.4
2025-07-29T1000,2322A,119.1013,25.3215,莆田市,秀屿区政府,,17,14,25,3,14,53,,56,54,6,10,3,3,0.5,0.5
2025-07-29T1000,2323A,118.981,25.4792,莆田市,东圳水库,,,,,,,,,,,,,,,,
2025-07-29T1000,2392A,115.0312,35.7636,濮阳市,环保局,,24,24,27,11,14,71,,43,38,6,7,4,4,0.4,0.2
2025-07-29T1000,2394A,115.0574,35.7609,濮阳市,油田运输公司,,30,30,30,12,13,57,,42,36,7,9,3,3,0.4,0.4
2025-07-29T1000,3021A,115,35.7668,濮阳市,濮水河管理处,,,27,23,16,16,,,42,34,9,10,4,2,0.3,0.3
2025-07-29T1000,4216A,115.0924,35.7686,濮阳市,任丘路479号,,32,32,33,16,16,56,,40,36,7,8,5,5,0.4,0.4
2025-07-29T1000,2601A,100.98,22.7633,普洱市,市环保局,,31,31,28,3,14,32,,16,16,10,7,4,4,0.7,0.6
2025-07-29T1000,2602A,100.9817,22.8322,普洱市,普洱第二中学,,35,35,26,7,13,36,,15,15,6,9,5,5,0.6,0.5
2025-07-29T1000,2262A,131.0518,45.8751,七台河市,新一中,,26,16,17,16,10,81,,56,56,8,12,10,9,1.0,0.9
2025-07-29T1000,3345A,131.0577,45.7879,七台河市,中波台,,22,22,15,7,7,53,,37,37,14,14,8,8,0.6,0.6
2025-07-29T1000,3637A,131.0176,45.7761,七台河市,人民广场,,22,22,27,11,16,61,,46,46,10,13,11,12,0.6,0.6
2025-07-29T1000,3684A,130.8781,45.8222,七台河市,新建矿广场,,,,25,12,9,,,42,42,18,21,,12,0.8,0.5
2025-07-29T1000,1779A,123.9305,47.3636,齐齐哈尔市,安居小区,,25,24,18,3,6,80,,89,84,19,12,2,2,0.7,0.5
2025-07-29T1000,1780A,123.9488,47.3386,齐齐哈尔市,中心广场,,30,12,14,3,2,93,,93,90,9,8,8,8,0.5,0.5
2025-07-29T1000,1781A,123.9483,47.3227,齐齐哈尔市,农牧车辆厂,,28,19,20,6,6,88,,85,82,9,8,7,6,0.3,0.3
2025-07-29T1000,1783A,123.945,47.2988,齐齐哈尔市,市环境监测站,,,,13,9,4,,,90,86,8,8,,5,0.5,0.4
2025-07-29T1000,3662A,123.6333,47.2075,齐齐哈尔市,富区青少年活动中心,,17,,13,7,9,54,,89,80,15,10,5,4,0.4,0.3
2025-07-29T1000,2591A,107.9783,26.5747,黔东南苗族侗族自治州,市环境监测站,,24,24,19,14,14,48,,16,16,11,11,4,2,0.7,0.5
2025-07-29T1000,2881A,107.8908,26.5311,黔东南苗族侗族自治州,凯里学院,,27,27,15,14,12,52,,15,15,11,11,3,2,0.6,0.4
2025-07-29T1000,2593A,107.5228,26.2403,黔南布依族苗族自治州,小围寨,,22,22,13,9,7,19,,4,4,13,10,1,2,0.5,0.4
2025-07-29T1000,3538A,107.5175,26.2978,黔南布依族苗族自治州,沙坝,,24,24,15,3,1,20,,12,12,16,9,4,4,0.5,0.3
2025-07-29T1000,2589A,104.9022,25.0925,黔西南布依族苗族自治州,场坝街,,25,25,25,14,13,44,,31,30,20,13,10,10,0.5,0.4
2025-07-29T1000,2590A,104.8811,25.0992,黔西南布依族苗族自治州,坪东大道,,21,21,22,6,12,40,,29,29,16,15,12,3,0.4,0.4
2025-07-29T1000,2502A,108.6236,21.9667,钦州市,市环保站,,28,24,21,19,10,66,,47,47,9,10,2,5,0.5,0.6
2025-07-29T1000,2503A,108.6549,21.9481,钦州市,沙埠小学,,,,29,,20,,,36,35,9,12,2,6,,0.9
2025-07-29T1000,2504A,108.5989,21.7431,钦州市,港区一小,,27,21,30,13,11,84,,38,38,6,14,2,7,0.6,0.6
2025-07-29T1000,3404A,108.5959,21.9633,钦州市,北职校,,39,38,24,27,13,50,,42,42,9,6,3,5,0.6,0.5
2025-07-29T1000,1043A,119.7493,40.0116,秦皇岛市,第一关,,32,16,24,7,13,100,,69,69,8,8,5,5,0.3,0.3
2025-07-29T1000,1044A,119.5897,39.9499,秦皇岛市,监测站,,,,26,,6,,,,,,8,,4,,0.4
2025-07-29T1000,1046A,119.5251,39.9041,秦皇岛市,建设大厦,,,,27,,10,105,,84,84,,6,,5,0.4,0.4
2025-07-29T1000,3132A,119.610547,39.943889,秦皇岛市,文明里,,33,,21,3,12,104,,92,92,11,4,4,5,0.3,0.3
2025-07-29T1000,4198A,119.5090,39.8253,秦皇岛市,北戴河轮滑馆,,33,20,29,7,14,103,,91,91,7,5,2,3,0.3,0.3
2025-07-29T1000,1307A,120.6659,36.2403,青岛市,仰口,,16,13,17,3,7,49,,42,42,5,5,9,9,0.4,0.6
2025-07-29T1000,1310A,120.4134,36.0658,青岛市,市南区东部子站,,,,19,,11,,,36,34,2,4,7,6,,0.2
2025-07-29T1000,1311A,120.3664,36.1032,青岛市,四方区子站,,20,17,12,14,9,43,,44,41,2,3,7,7,0.2,0.2
2025-07-29T1000,1312A,120.2994,36.054,青岛市,市南区西部子站,,27,27,19,10,10,27,,42,36,14,10,9,8,0.5,0.6
2025-07-29T1000,1313A,120.4581,36.0858,青岛市,崂山区子站,,34,34,29,7,10,32,,32,31,9,8,8,7,0.2,0.2
2025-07-29T1000,1315A,120.3999,36.3083,青岛市,城阳区子站,,16,14,13,3,7,51,,51,46,5,6,8,7,0.3,0.3
2025-07-29T1000,1966A,120.0405,35.8735,青岛市,黄岛区4号,,22,22,18,7,5,45,,47,44,3,7,13,10,0.3,0.4
2025-07-29T1000,3362A,120.5014,36.4034,青岛市,即墨2号,,18,18,13,8,8,48,,49,44,6,4,4,4,0.2,0.2
2025-07-29T1000,3642A,120.3503,36.0736,青岛市,市北区南部,,,14,17,7,6,,,46,42,6,8,8,7,0.4,0.4
2025-07-29T1000,3643A,120.3948,36.1805,青岛市,李沧区北部,,14,14,8,9,8,38,,42,38,2,4,7,6,0.2,0.2
2025-07-29T1000,4290A,120.1969,35.9546,青岛市,珠江路669号,,18,,13,12,10,31,,37,32,3,6,6,6,0.4,0.4
2025-07-29T1000,1702A,113.0426,23.691,清远市,环保大楼,,44,44,40,16,18,60,,30,30,12,13,8,7,0.8,0.7
2025-07-29T1000,1703A,113.0208,23.7106,清远市,凤城街办,,23,22,25,16,14,45,,21,21,11,15,6,5,0.5,0.6
2025-07-29T1000,3025A,113.0477,23.6344,清远市,技师学院,,24,24,27,16,17,48,,20,20,9,22,8,10,0.5,0.5
2025-07-29T1000,3318A,112.9903,23.7403,清远市,清新太和,,28,21,26,19,14,40,,25,25,17,14,6,6,0.5,0.6
2025-07-29T1000,3455A,113.076,23.7198,清远市,清城东城,,26,26,22,18,12,40,,19,19,9,9,6,5,0.7,0.7
2025-07-29T1000,2661A,107.6325,35.7357,庆阳市,庆阳五中,,35,33,28,16,13,111,,103,103,7,8,7,7,0.5,0.5
2025-07-29T1000,2662A,107.6364,35.7067,庆阳市,市环保局,,37,36,29,17,12,116,,102,102,9,6,13,12,0.6,0.6
2025-07-29T1000,1916A,103.7897,25.5035,曲靖市,环境监测站,,44,44,35,15,17,47,,20,20,23,18,9,10,0.7,0.6
2025-07-29T1000,1917A,103.8,25.5364,曲靖市,烟厂办公区,颗粒物(PM10),52,54,36,25,20,43,,16,15,23,17,5,6,1.1,0.8
2025-07-29T1000,3376A,103.7947,25.462,曲靖市,南苑二区,,31,31,29,18,17,66,,31,31,10,10,4,6,0.7,0.7
2025-07-29T1000,3377A,103.7444,25.5261,曲靖市,曲靖师范学院,细颗粒物(PM2.5),52,47,37,36,22,40,,15,15,18,15,8,9,0.7,0.5
2025-07-29T1000,1264A,118.8692,28.9398,衢州市,环保大楼,,,,22,,11,43,,16,16,,13,1,1,0.4,0.4
2025-07-29T1000,1265A,118.8709,28.9666,衢州市,实验学校,,20,20,20,13,10,48,,21,21,7,13,3,4,0.2,0.3
2025-07-29T1000,1266A,118.8621,28.9808,衢州市,衢州学院,,22,22,19,10,8,48,,22,22,4,11,2,2,0.3,0.4
2025-07-29T1000,1611A,118.5819,24.9117,泉州市,涂山街,,23,,20,16,17,56,,42,42,12,15,2,2,0.6,0.7
2025-07-29T1000,1612A,118.5972,24.8978,泉州市,津头埔,,20,18,23,9,19,62,,49,49,11,12,2,2,0.5,0.5
2025-07-29T1000,1613A,118.6663,24.9424,泉州市,万安,,22,22,26,8,17,61,,35,35,11,14,2,2,0.4,0.4
2025-07-29T1000,1614A,118.6117,24.9604,泉州市,清源山,,,,,,,,,,,,,,,,
2025-07-29T1000,3529A,118.6333,24.9264,泉州市,城华南路,,19,16,22,10,19,60,,40,39,14,12,4,3,0.5,0.5
2025-07-29T1000,2626A,88.8876,29.2718,日喀则市,日喀则监测站,,14,6,3,3,0,42,,47,46,9,4,9,11,0.4,0.5
2025-07-29T1000,3726A,88.8781,29.2426,日喀则市,林业技术推广中心,,13,7,6,3,1,40,,39,39,4,3,8,8,0.4,0.4
2025-07-29T1000,1659A,119.471,35.4209,日照市,监测站,,16,9,11,6,7,49,,31,31,6,8,9,8,0.3,0.3
2025-07-29T1000,1660A,119.523,35.4216,日照市,市政府广场,,22,22,15,3,3,41,,38,37,3,3,5,4,0.5,0.5
2025-07-29T1000,1661A,119.5587,35.4044,日照市,港务局,,19,19,16,11,14,41,,40,37,4,3,9,10,0.6,0.5
2025-07-29T1000,3507A,119.5328,35.4625,日照市,职业技术学院,,14,14,14,3,4,39,,38,36,10,8,6,6,0.5,0.4
2025-07-29T1000,3604A,119.3266,35.1044,日照市,岚山环保分局,,,14,15,3,4,,,33,32,3,5,13,10,0.5,0.4
2025-07-29T1000,1835A,111.1922,34.7752,三门峡市,市政府,,48,48,32,16,17,100,,84,84,6,7,6,5,0.5,0.4
2025-07-29T1000,1836A,111.1587,34.7942,三门峡市,开发区,,32,26,36,18,23,101,,79,79,9,13,9,6,0.4,0.3
2025-07-29T1000,1838A,111.143,34.7955,三门峡市,风景区,,32,29,42,6,26,102,,81,81,5,7,5,5,0.5,0.4
2025-07-29T1000,3039A,111.1911,34.7829,三门峡市,三门峡市第一小学,,39,39,35,15,17,97,,80,80,9,10,8,9,0.4,0.4
2025-07-29T1000,3598A,111.1,34.7167,三门峡市,富达温泉假日酒店,,33,32,33,15,18,105,,80,80,7,8,15,10,0.6,0.5
2025-07-29T1000,2324A,117.6211,26.2625,三明市,三钢,,18,15,20,12,9,43,,20,20,8,12,4,3,0.5,1.1
2025-07-29T1000,2325A,117.635,26.2714,三明市,三明二中,,,18,29,,7,43,,20,20,5,9,3,3,0.4,0.7
2025-07-29T1000,2326A,117.6028,26.2378,三明市,三元区政府,,20,20,21,10,9,43,,13,13,8,12,4,4,0.4,0.6
2025-07-29T1000,2327A,117.7275,26.3108,三明市,洋溪,,,,,,,,,,,,,,,,
2025-07-29T1000,1876A,109.5078,18.2489,三亚市,河东子站,,19,19,17,10,7,28,,30,28,14,8,2,2,0.5,0.5
2025-07-29T1000,1877A,109.4964,18.2681,三亚市,河西子站,,,10,16,3,6,35,,34,33,,3,,2,0.3,0.3
2025-07-29T1000,3540A,109.7348,18.3443,三亚市,君悦子站,,19,19,15,9,5,37,,37,36,8,6,1,1,0.5,0.5
2025-07-29T1000,2624A,91.7608,29.2313,山南市,山南监测站,,20,19,5,14,2,31,,39,39,21,13,2,11,0.4,0.4
2025-07-29T1000,2625A,91.7706,29.2436,山南市,山南人民医院,,,,9,,4,,,47,47,,8,,4,,0.2
2025-07-29T1000,1674A,116.6794,23.3667,汕头市,金平子站,,23,,15,16,11,51,,47,47,11,10,2,2,0.8,0.6
2025-07-29T1000,1675A,116.7244,23.3633,汕头市,龙湖子站,,19,18,18,13,11,46,,48,47,14,11,7,6,0.8,0.6
2025-07-29T1000,1676A,116.7258,23.2775,汕头市,濠江子站,,20,20,18,14,12,50,,43,43,9,8,4,5,0.7,0.7
2025-07-29T1000,1677A,116.7519,23.4714,汕头市,澄海子站,,32,32,26,17,16,41,,37,34,17,12,6,3,1.0,0.8
2025-07-29T1000,1678A,116.6092,23.2539,汕头市,潮阳子站,,17,9,17,8,11,54,,43,43,8,7,4,4,0.5,0.5
2025-07-29T1000,3444A,116.454,23.2684,汕头市,潮南峡山,,17,7,16,6,12,53,,42,42,10,8,7,5,0.8,0.7
2025-07-29T1000,3624A,116.4069,23.2533,汕头市,潮南子站,,17,11,18,8,12,52,,45,45,8,8,3,4,0.6,0.6
2025-07-29T1000,1693A,115.3653,22.775,汕尾市,市环保局,,31,31,23,21,13,92,,78,73,14,9,3,3,0.7,0.6
2025-07-29T1000,1694A,115.3706,22.7898,汕尾市,市政府,,29,29,22,14,11,91,,74,69,14,10,5,4,0.6,0.5
2025-07-29T1000,1695A,115.3622,22.7925,汕尾市,新城中学,,33,28,28,23,16,96,,74,71,15,11,6,5,0.6,0.5
2025-07-29T1000,2645A,109.9154,33.8715,商洛市,监测站,,35,35,25,15,16,66,,18,18,8,12,6,5,0.5,0.4
2025-07-29T1000,3045A,109.9643,33.8471,商洛市,商州区中学,,36,36,31,13,12,63,,23,23,10,13,5,6,0.4,0.3
2025-07-29T1000,2408A,115.6702,34.4285,商丘市,环境监测站,,24,24,22,13,11,43,,23,23,7,7,3,3,0.4,0.4
2025-07-29T1000,2409A,115.6458,34.4045,商丘市,粮食局,,31,31,22,15,8,41,,27,27,5,4,2,2,0.4,0.3
2025-07-29T1000,2410A,115.6293,34.3948,商丘市,睢阳区环保局,,,,25,,10,46,,26,26,10,8,4,4,0.3,0.2
2025-07-29T1000,3171A,115.6071,34.4465,商丘市,梁园区档案局,,31,31,22,12,10,40,,29,29,8,6,2,2,0.4,0.3
2025-07-29T1000,1141A,121.4,31.238,上海市,普陀,,20,20,23,6,8,40,,29,29,10,9,10,6,0.3,0.3
2025-07-29T1000,1142A,121.478,31.2036,上海市,十五厂,,20,20,26,8,11,46,,30,30,12,11,9,9,0.6,0.6
2025-07-29T1000,1143A,121.467,31.3008,上海市,虹口,,47,47,28,23,11,42,,28,28,9,8,11,10,0.6,0.6
2025-07-29T1000,1147A,121.425,31.2261,上海市,静安监测站,,17,17,24,8,10,43,,30,30,8,9,6,4,0.6,0.6
2025-07-29T1000,1148A,121.703,31.1907,上海市,浦东川沙,,18,18,26,10,9,49,,35,35,4,7,10,9,0.5,0.5
2025-07-29T1000,1149A,121.533,31.2284,上海市,浦东新区监测站,,19,19,24,9,8,46,,28,28,7,8,9,8,0.7,0.6
2025-07-29T1000,1150A,121.577,31.2071,上海市,浦东张江,,19,19,26,11,11,47,,34,34,8,8,7,7,0.5,0.5
2025-07-29T1000,3265A,121.4316,31.3322,上海市,宝山庙行,,16,16,26,7,8,44,,28,28,6,12,8,7,0.3,0.3
2025-07-29T1000,3266A,121.8791,31.4662,上海市,崇明上实东滩,,20,19,22,9,9,63,,47,47,4,4,5,4,0.4,0.4
2025-07-29T1000,3268A,121.3162,31.2838,上海市,嘉定南翔,,17,17,23,9,10,39,,24,24,3,7,9,7,0.3,0.2
2025-07-29T1000,3269A,121.3359,30.7456,上海市,金山新城,,16,16,24,9,11,38,,24,24,7,7,5,4,0.3,0.4
2025-07-29T1000,3270A,121.4996,31.0739,上海市,闵行浦江,,19,19,26,7,10,42,,28,28,3,6,6,5,0.7,0.7
2025-07-29T1000,3271A,121.2886,31.1663,上海市,青浦徐泾,,20,20,28,10,12,38,,26,26,8,8,10,7,0.4,0.4
2025-07-29T1000,3272A,121.2186,31.0378,上海市,松江图书馆,,16,13,18,11,10,42,,27,27,8,10,8,7,0.5,0.5
2025-07-29T1000,3273A,121.3902,31.2059,上海市,长宁仙霞,,20,20,23,6,8,41,,29,29,10,10,9,7,0.5,0.5
2025-07-29T1000,3274A,121.7965,31.0507,上海市,浦东惠南,,17,17,22,3,9,43,,32,32,3,7,10,10,0.6,0.5
2025-07-29T1000,3544A,121.4891,30.925,上海市,奉贤南桥新城,,18,18,26,7,11,44,,28,28,7,10,4,3,0.6,0.6
2025-07-29T1000,4183A,121.4174,31.16637,上海市,冠生园路458号,,20,20,23,8,10,38,,28,28,11,10,4,3,0.7,0.6
2025-07-29T1000,4205A,121.5419,31.2683,上海市,宁武路151号,,26,26,26,7,8,45,,28,28,10,13,7,7,0.4,0.4
2025-07-29T1000,2381A,118.005,28.4572,上饶市,百草园,,,,,,,,,,,,,,,,
2025-07-29T1000,2382A,117.9756,28.4436,上饶市,市监测站,,19,19,18,3,5,55,,32,32,3,5,5,4,0.3,0.4
2025-07-29T1000,2383A,117.9519,28.4628,上饶市,凤凰光学,,18,18,20,7,8,49,,26,26,4,8,10,11,0.9,0.8
2025-07-29T1000,3685A,117.897,28.4315,上饶市,双创科技城,,21,21,17,14,10,54,,34,34,8,12,6,6,0.4,0.4
2025-07-29T1000,4211A,118.1904,28.4448,上饶市,裕丰大道,,,14,12,8,8,,,17,16,4,6,6,5,0.7,0.7
2025-07-29T1000,1669A,113.5824,24.7733,韶关市,市八中,,30,30,26,10,13,46,,19,19,10,10,13,10,0.6,0.6
2025-07-29T1000,1671A,113.5917,24.7972,韶关市,园林处,,24,24,17,13,11,45,,17,17,9,10,8,9,0.4,0.4
2025-07-29T1000,1673A,113.5971,24.6863,韶关市,曲江监测站,,27,27,28,15,16,41,,18,18,14,16,3,4,1.0,0.8
2025-07-29T1000,2809A,113.6668,24.7756,韶关市,大学路288号,,32,32,25,13,15,56,,25,25,9,11,7,9,0.6,0.6
2025-07-29T1000,3622A,113.5556,24.8082,韶关市,碧湖山庄,,,21,28,10,15,,,11,9,9,9,,7,0.7,0.7
2025-07-29T1000,2462A,111.5239,27.3033,邵阳市,市水土所,,,,,,,,,,,,,,,,
2025-07-29T1000,2464A,111.5283,27.2442,邵阳市,市化工厂,,36,30,26,25,15,74,,32,32,8,10,8,7,0.6,0.6
2025-07-29T1000,2466A,111.4328,27.2272,邵阳市,市环保局,,46,46,30,15,15,47,,28,28,14,11,6,5,0.7,0.7
2025-07-29T1000,4218A,111.4460,27.2472,邵阳市,北塔二期4-26地块,,47,47,30,22,15,50,,27,27,12,11,7,5,0.7,0.7
2025-07-29T1000,4219A,111.4739,27.2282,邵阳市,邵水西路287号,,43,43,27,13,14,69,,44,44,12,11,7,6,0.5,0.5
2025-07-29T1000,1247A,120.6053,29.9928,绍兴市,城东开发委,,,22,22,7,10,,,16,16,5,8,6,5,0.4,0.4
2025-07-29T1000,2921A,120.5483,30.0003,绍兴市,树下王站,,,18,19,10,9,,,20,20,7,8,6,5,0.3,0.3
2025-07-29T1000,3408A,120.5683,29.9361,绍兴市,绍兴中专,,24,24,29,11,10,36,,16,16,8,10,5,9,0.2,0.2
2025-07-29T1000,3409A,120.4906,30.0861,绍兴市,柯桥区政府,,24,24,21,12,10,48,,22,22,12,12,4,5,0.4,0.4
2025-07-29T1000,3410A,120.8752,30.0249,绍兴市,重华小学,,18,18,22,9,11,38,,20,20,6,10,7,6,0.3,0.3
2025-07-29T1000,3411A,120.8369,30.0137,绍兴市,上虞中学,,16,16,20,9,12,41,,23,23,5,8,9,8,0.4,0.4
2025-07-29T1000,3560A,120.4722,30.0415,绍兴市,柯桥妇保,,31,31,28,12,11,47,,22,22,12,11,5,3,0.4,0.4
2025-07-29T1000,3658A,120.6153,30.0764,绍兴市,袍江中学,,19,19,25,6,11,46,,24,24,8,13,5,6,0.4,0.4
2025-07-29T1000,1356A,114.1063,22.5545,深圳市,通心岭子站,,,30,36,16,23,,,23,22,17,18,6,6,0.7,0.7
