timepoint,stationcode,longitude,latitude,area,positionname,primarypollutant,aqi,pm10,pm10_24h,pm2_5,pm2_5_24h,o3,o3_24h,o3_8h,o3_8h_24h,no2,no2_24h,so2,so2_24h,co,co_24h
2025-12-25T0500,2566A,102.1879,31.914,阿坝藏族羌族自治州,州农科所,,,,,,,,,,,,,,,,
2025-12-25T0500,2568A,102.2502,31.8896,阿坝藏族羌族自治州,马师校,,16,15,30,11,22,28,28,,,8,15,5,5,0.5,0.6
2025-12-25T0500,3994A,102.2165,31.9024,阿坝藏族羌族自治州,马尔康中学西区,,23,17,31,16,14,34,34,,,9,13,5,6,0.6,0.7
2025-12-25T0500,2695A,80.292,41.1694,阿克苏地区,电视台,颗粒物(PM10),57,63,105,29,52,54,54,,,19,37,4,4,0.4,0.8
2025-12-25T0500,2696A,80.2613,41.1551,阿克苏地区,艺术中心,细颗粒物(PM2.5),63,60,106,45,58,52,52,,,14,25,5,4,1.0,1
2025-12-25T0500,2204A,105.6467,38.8363,阿拉善盟,西城区西花园,,,,,,,,,,,,,,,,
2025-12-25T0500,2205A,105.6985,38.8411,阿拉善盟,蒙二幼,,,6,31,3,10,71,71,,,,8,9,9,0.6,0.7
2025-12-25T0500,2206A,105.724,38.8516,阿拉善盟,环保局新楼,,23,6,25,3,11,72,72,,,2,4,8,8,0.5,0.5
2025-12-25T0500,2708A,88.1264,47.8517,阿勒泰地区,市站,,20,10,12,3,9,63,63,,,6,34,2,4,0.5,0.5
2025-12-25T0500,2630A,80.1161,32.5,阿里地区,阿里监测站,,14,,3,3,3,42,42,,,20,11,10,9,0.4,0.4
2025-12-25T0500,3192A,80.0903,32.5028,阿里地区,阿里藏医院,,20,14,15,11,12,61,61,,,11,11,16,13,0.5,0.5
2025-12-25T0500,2642A,109.0318,32.6537,安康市,香溪洞,,,,,,,,,,,,,,,,
2025-12-25T0500,2644A,109.0072,32.6975,安康市,汉滨区检察院,,45,45,61,24,32,4,4,,,16,23,3,4,0.2,0.5
2025-12-25T0500,4054A,109.0325,32.6913,安康市,市邮政管理局,,,51,63,27,38,4,4,,,,24,4,5,0.5,0.8
2025-12-25T0500,2291A,117.0809,30.5177,安庆市,环科院,细颗粒物(PM2.5),85,82,72,63,59,42,42,,,8,14,5,4,0.4,0.6
2025-12-25T0500,2292A,117.0331,30.5119,安庆市,马山宾馆,细颗粒物(PM2.5),87,85,70,64,57,44,44,,,14,20,4,4,0.6,0.7
2025-12-25T0500,2294A,116.9896,30.6145,安庆市,安庆大学,细颗粒物(PM2.5),78,91,72,57,46,40,40,,,17,17,3,3,0.6,0.6
2025-12-25T0500,3173A,117.0598,30.5351,安庆市,市人大,细颗粒物(PM2.5),84,90,76,62,60,43,43,,,14,21,4,4,0.5,0.5
2025-12-25T0500,3122A,105.9606,26.2611,安顺市,伍家关,,39,39,29,19,18,51,51,,,9,10,10,10,0.5,0.6
2025-12-25T0500,3123A,105.9408,26.2431,安顺市,凤凰山,,42,42,33,26,23,52,52,,,12,13,10,11,0.6,0.6
2025-12-25T0500,3124A,105.9439,26.2564,安顺市,金钟山,,40,40,31,28,26,51,51,,,11,10,10,12,0.5,0.6
2025-12-25T0500,3125A,105.8983,26.2481,安顺市,娄家坡,,42,42,35,28,27,54,54,,,9,13,12,20,0.6,0.7
2025-12-25T0500,1818A,114.4839,36.0621,安阳市,棉研所,,,,,,,,,,,,,,,,
2025-12-25T0500,1819A,114.3551,36.1017,安阳市,红庙街,颗粒物(PM10),59,68,85,33,59,29,29,,,23,36,7,6,0.7,0.9
2025-12-25T0500,1820A,114.361,36.0681,安阳市,银杏小区,颗粒物(PM10),53,56,90,35,63,30,30,,,24,35,7,5,0.8,1
2025-12-25T0500,3141A,114.3922,36.0878,安阳市,信访局,颗粒物(PM10),62,74,94,40,64,32,32,,,23,39,6,5,0.8,1.1
2025-12-25T0500,3669A,114.4705,36.0637,安阳市,左辅环卫站,颗粒物(PM10),65,79,108,35,69,34,34,,,22,35,3,3,0.7,0.9
2025-12-25T0500,3703A,114.2917,36.0949,安阳市,安钢职工学校,颗粒物(PM10),73,96,94,50,66,14,14,,,38,37,8,5,1.1,0.8
2025-12-25T0500,1748A,123.044,41.1196,鞍山市,深沟寺,,30,30,58,16,36,42,42,,,13,39,8,10,0.6,0.9
2025-12-25T0500,1749A,123.011,41.0931,鞍山市,太阳城,,31,31,48,18,30,46,46,,,11,33,11,13,0.5,0.8
2025-12-25T0500,1750A,123.0485,41.1442,鞍山市,太平,,28,28,82,17,38,43,43,,,13,44,16,15,0.9,1.2
2025-12-25T0500,1751A,122.9642,41.0971,鞍山市,铁西三道街,,34,34,80,19,44,25,25,,,30,50,29,29,2.1,1.6
2025-12-25T0500,1753A,123.022,41.0821,鞍山市,明达新区,,24,24,48,13,28,50,50,,,12,30,10,15,0.3,0.5
2025-12-25T0500,1754A,123.1289,41.0228,鞍山市,千山,,,,14,,11,,,33,,,26,,3,,0.6
2025-12-25T0500,4201A,122.9446,41.0826,鞍山市,兴盛南路290号,,35,35,105,16,64,38,38,,,24,55,20,24,1.5,1.8
2025-12-25T0500,2195A,107.4212,40.761,巴彦淖尔市,附二中,,26,26,42,9,19,38,38,,,19,18,3,5,0.1,0.3
2025-12-25T0500,2196A,107.37,40.7372,巴彦淖尔市,市环保大楼,,25,18,33,17,18,46,46,,,7,14,4,4,0.3,0.3
2025-12-25T0500,1956A,86.1472,41.7538,巴音郭楞蒙古自治州,孔雀公园,颗粒物(PM10),65,80,90,40,30,6,6,,,57,48,8,9,1.3,0.8
2025-12-25T0500,1957A,86.1972,41.7166,巴音郭楞蒙古自治州,棉纺厂,颗粒物(PM10),67,84,94,11,17,15,15,,,39,34,5,6,0.7,0.6
2025-12-25T0500,1958A,86.2357,41.7173,巴音郭楞蒙古自治州,经济开发区,颗粒物(PM10),58,66,72,14,14,35,35,,,10,27,5,6,0.3,0.5
2025-12-25T0500,2914A,106.7677,31.8794,巴中市,苏山坪,,,,,,,,,,,,,,,,
2025-12-25T0500,3181A,106.7768,31.8526,巴中市,市五中,颗粒物(PM10),54,58,59,30,34,1,1,,,14,19,5,5,1.1,0.8
2025-12-25T0500,3183A,106.7418,31.8654,巴中市,圣泉水务公司,,46,46,54,27,33,5,5,,,12,23,5,5,0.4,0.6
2025-12-25T0500,3616A,106.7616,31.8344,巴中市,市中心医院,,46,46,52,26,33,0,0,,,14,21,5,6,0.8,0.8
2025-12-25T0500,2235A,122.7911,45.6077,白城市,洮北区环保局,,29,22,26,20,17,40,40,,,12,17,8,6,0.2,0.2
2025-12-25T0500,2236A,122.8738,45.5725,白城市,市环保局,,25,19,21,17,22,23,23,,,25,15,4,6,0.3,0.3
2025-12-25T0500,2231A,126.4219,41.9171,白山市,喜丰,细颗粒物(PM2.5),53,46,39,37,23,19,19,,,26,26,7,11,0.9,0.8
2025-12-25T0500,2232A,126.4077,41.9419,白山市,环保局,,43,36,27,30,25,24,24,,,18,23,10,11,1.1,1.1
2025-12-25T0500,2647A,104.1724,36.5446,白银市,第三小学,,36,36,32,20,15,28,28,,,29,15,8,8,1.0,0.8
2025-12-25T0500,2648A,104.1465,36.5482,白银市,动力公司,,32,32,30,15,14,35,35,,,15,11,2,3,1.5,0.7
2025-12-25T0500,2512A,106.6103,23.9011,百色市,市监测站,,13,13,16,8,8,12,12,,,12,13,6,6,0.6,0.6
2025-12-25T0500,2513A,106.6538,23.8859,百色市,市中心血站,,17,17,21,8,11,5,5,,,24,23,7,6,0.7,0.7
2025-12-25T0500,3406A,106.6085,23.8798,百色市,祈福高中,,12,12,20,8,11,8,8,,,14,17,5,5,0.6,0.6
2025-12-25T0500,2270A,117.396,32.939,蚌埠市,工人疗养院,细颗粒物(PM2.5),92,94,98,68,65,20,20,,,39,29,6,6,0.6,0.6
2025-12-25T0500,2271A,117.3605,32.9427,蚌埠市,百货大楼,细颗粒物(PM2.5),88,80,98,65,63,15,15,,,41,32,5,5,0.6,0.6
2025-12-25T0500,2273A,117.4185,32.8911,蚌埠市,蚌埠学院,细颗粒物(PM2.5),84,85,83,62,64,14,14,,,41,30,4,4,0.6,0.6
2025-12-25T0500,2274A,117.3533,32.9673,蚌埠市,淮上区政府,细颗粒物(PM2.5),94,92,91,70,68,10,10,,,48,35,3,2,0.6,0.6
2025-12-25T0500,2275A,117.3145,32.8977,蚌埠市,高新区,细颗粒物(PM2.5),103,95,89,77,68,12,12,,,41,37,6,7,0.6,0.6
2025-12-25T0500,3715A,117.3092,32.9314,蚌埠市,蚌埠田家炳中学,细颗粒物(PM2.5),109,105,98,82,66,7,7,,,54,40,7,6,0.7,0.7
2025-12-25T0500,1585A,109.8756,40.6532,包头市,市环境监测站,细颗粒物(PM2.5),55,51,47,39,18,29,29,,,24,18,8,7,0.9,0.8
2025-12-25T0500,1587A,109.9991,40.5842,包头市,包头八中,,21,21,35,8,12,40,40,,,13,17,5,6,0.6,0.6
2025-12-25T0500,1588A,109.8538,40.6821,包头市,青山宾馆,颗粒物(PM10),51,52,49,17,28,31,31,,,22,22,9,10,0.7,0.9
2025-12-25T0500,1589A,109.8642,40.6288,包头市,惠龙物流,,48,43,37,33,17,26,26,,,28,15,10,10,1.3,0.7
2025-12-25T0500,1590A,110.0377,40.5546,包头市,东河鸿龙湾,,21,11,35,3,11,11,11,,,41,19,5,7,0.8,0.7
2025-12-25T0500,3283A,109.9154,40.5685,包头市,滨河大厦,,18,13,44,3,22,2,2,,,35,17,5,8,0.7,0.8
2025-12-25T0500,3419A,109.9447,40.6261,包头市,包头市委党校,,25,25,37,17,11,23,23,,,32,18,6,8,0.5,0.5
2025-12-25T0500,3683A,109.8331,40.6576,包头市,昆区政府,,32,32,41,14,20,41,41,,,18,17,12,10,0.6,0.7
2025-12-25T0500,1930A,107.185,34.3063,宝鸡市,庙沟村,,,,,,,,,,,,,,,,
2025-12-25T0500,1931A,107.0708,34.3017,宝鸡市,竹园沟,,25,25,54,11,22,42,42,,,8,12,5,6,0.3,0.3
2025-12-25T0500,1932A,107.1906,34.3672,宝鸡市,三陆医院,,38,38,91,15,35,28,28,,,23,36,4,5,0.3,0.4
2025-12-25T0500,1933A,107.1431,34.3547,宝鸡市,监测站,,27,27,74,16,31,28,28,,,16,27,3,4,0.4,0.4
2025-12-25T0500,1934A,107.1186,34.3739,宝鸡市,技工学校,,29,,80,20,29,37,37,,,6,20,4,6,0.5,0.4
2025-12-25T0500,1936A,107.2058,34.3497,宝鸡市,文理学院,,42,42,79,18,30,34,34,,,19,31,6,5,0.3,0.4
2025-12-25T0500,1937A,107.2386,34.3622,宝鸡市,三迪小学,,42,42,90,21,40,26,26,,,22,37,4,5,0.5,0.6
2025-12-25T0500,4308A,107.3898,34.3601,宝鸡市,陈仓区北开路21号,二氧化硫,59,40,95,25,40,81,81,,,18,28,212,41,0.8,0.7
2025-12-25T0500,1051A,115.493,38.8632,保定市,游泳馆,,20,16,57,3,32,63,63,,,2,27,1,5,0.2,0.5
2025-12-25T0500,1052A,115.5213,38.8959,保定市,华电二区,,20,19,49,14,41,48,48,,,10,24,3,3,0.3,0.6
2025-12-25T0500,1053A,115.4713,38.9108,保定市,接待中心,,25,25,58,3,33,62,62,,,4,27,3,3,0,0.3
2025-12-25T0500,1054A,115.4612,38.8416,保定市,地表水厂,,,16,67,3,36,54,54,,,,32,1,4,0.2,0.6
2025-12-25T0500,3581A,115.31981,38.95208,保定市,满城区生态环境分局,,,,,,,47,47,,,22,13,3,3,0.1,0
2025-12-25T0500,3582A,115.47694,38.76408,保定市,清苑区第二中学,,36,36,86,13,43,37,37,,,19,28,1,5,0.2,0.6
2025-12-25T0500,3583A,115.62909,39.02311,保定市,徐水物探局,,28,28,61,11,34,28,28,,,31,38,2,5,0.3,0.6
2025-12-25T0500,4004A,115.4202,38.8656,保定市,双鹰农机,,20,,70,9,36,61,61,,,6,23,5,5,0.2,0.5
2025-12-25T0500,4034A,115.5150,38.8590,保定市,植保所站,,18,18,59,9,38,56,56,,,10,34,3,3,0.3,0.6
2025-12-25T0500,2594A,99.1678,25.1081,保山市,市环境监测站,,15,12,20,10,14,33,33,,,4,7,7,4,0.4,0.3
2025-12-25T0500,2595A,99.1711,25.1328,保山市,市环保局,,16,16,24,11,18,43,43,,,3,4,4,4,0.2,0.4
2025-12-25T0500,1866A,109.2262,21.588,北海市,牛尾岭水库,,18,18,22,3,14,30,30,,,8,11,3,6,0.5,0.6
2025-12-25T0500,1867A,109.1436,21.4086,北海市,海滩公园,,24,24,30,3,14,26,26,,,10,12,6,8,0.7,0.9
2025-12-25T0500,1868A,109.0981,21.4661,北海市,新市环保局,,13,12,24,9,16,27,27,,,9,13,4,7,0.6,0.6
2025-12-25T0500,1869A,109.1778,21.5233,北海市,北海工业园,,15,15,33,3,19,24,24,,,8,14,5,9,0.7,0.8
2025-12-25T0500,3400A,109.1911,21.4415,北海市,龙潭自来水厂,,12,12,26,6,17,25,25,,,8,10,5,7,0.9,0.8
2025-12-25T0500,1001A,116.3621,39.8784,北京市,万寿西宫,,15,12,18,3,6,48,48,,,8,23,2,2,0.3,0.4
2025-12-25T0500,1002A,116.2202,40.2915,北京市,定陵,,,,,,,,,,,,,,,,
2025-12-25T0500,1003A,116.4174,39.9289,北京市,东四,,13,10,15,3,6,40,40,,,9,18,2,2,0.2,0.4
2025-12-25T0500,1004A,116.4072,39.8863,北京市,天坛,,15,11,17,3,7,47,47,,,9,19,3,2,0.3,0.4
2025-12-25T0500,1005A,116.462,39.9365,北京市,农展馆,,16,8,15,3,4,49,49,,,9,18,5,4,0.4,0.5
2025-12-25T0500,1006A,116.3392,39.9295,北京市,官园,,14,11,18,3,7,43,43,,,12,21,3,3,0.4,0.5
2025-12-25T0500,1007A,116.2878,39.9611,北京市,海淀万柳,,14,11,18,3,7,43,43,,,15,26,3,2,0.2,0.3
2025-12-25T0500,1008A,116.6636,40.135,北京市,顺义新城,,17,8,16,3,6,53,53,,,1,11,5,4,0.1,0.2
2025-12-25T0500,1009A,116.6275,40.3275,北京市,怀柔镇,,18,6,10,3,5,55,55,,,2,8,6,6,0.3,0.3
2025-12-25T0500,1010A,116.2296,40.217,北京市,昌平镇,,15,10,16,3,7,46,46,,,12,15,5,4,0.2,0.3
2025-12-25T0500,1011A,116.3966,39.9821,北京市,奥体中心,,15,11,16,3,6,45,45,,,13,26,4,4,0.3,0.4
2025-12-25T0500,3281A,115.9718,40.4529,北京市,延庆夏都,,14,8,15,3,8,43,43,,,8,12,2,2,0.3,0.4
2025-12-25T0500,3418A,116.8336,40.4095,北京市,密云新城,,20,6,14,3,7,62,62,,,5,15,3,3,0.4,0.4
2025-12-25T0500,3671A,116.088,39.9726,北京市,门头沟三家店,,17,11,18,3,5,54,54,,,2,6,5,4,0.3,0.3
2025-12-25T0500,3672A,116.1541,39.8204,北京市,丰台云岗,,17,11,16,3,6,53,53,,,4,12,2,2,0.2,0.3
2025-12-25T0500,3673A,116.6804,39.9081,北京市,通州东关,,17,17,24,3,8,48,48,,,3,18,3,4,0.2,0.3
2025-12-25T0500,3674A,115.9577,39.7603,北京市,房山燕山,,17,9,21,3,7,53,53,,,8,16,3,3,0.3,0.3
2025-12-25T0500,3675A,116.4672,39.7733,北京市,大兴旧宫,,14,11,19,3,6,44,44,,,10,24,2,3,0.3,0.5
2025-12-25T0500,3694A,115.986,40.4563,北京市,延庆石河营,,10,8,15,3,8,26,26,,,19,16,3,3,0.4,0.4
2025-12-25T0500,3695A,116.6151,40.3053,北京市,怀柔新城,,18,6,10,3,5,55,55,,,2,8,4,4,0.3,0.3
2025-12-25T0500,3696A,116.2545,39.8768,北京市,丰台小屯,,15,12,21,3,7,48,48,,,7,23,4,3,0.3,0.4
2025-12-25T0500,3697A,116.84,40.3844,北京市,密云镇,,19,7,15,3,7,60,60,,,6,18,2,2,0.2,0.3
2025-12-25T0500,4182A,116.1942,39.9158,北京市,八角北路9号,,16,11,18,3,5,49,49,,,2,14,2,2,0.0,0.2
2025-12-25T0500,4194A,117.0790,40.1518,北京市,洳河巡河路,,18,6,15,3,8,57,57,,,2,11,2,2,0.3,0.4
2025-12-25T0500,1761A,123.8275,41.3064,本溪市,大峪,,30,30,65,18,41,41,41,,,15,30,8,10,0.6,1
2025-12-25T0500,1762A,123.7567,41.3325,本溪市,溪湖,,48,48,70,24,42,42,42,,,20,37,8,9,0.5,1.1
2025-12-25T0500,1763A,123.7169,41.3094,本溪市,彩屯,,45,45,72,29,53,34,34,,,27,38,8,8,0.7,1.3
2025-12-25T0500,1764A,123.7669,41.2864,本溪市,东明,,24,24,59,15,45,41,41,,,14,36,8,8,0.7,1.3
2025-12-25T0500,1765A,123.7992,41.2664,本溪市,新立屯,,26,26,48,14,33,40,40,,,9,33,8,8,0.7,1.1
2025-12-25T0500,1766A,123.8142,41.3472,本溪市,威宁,颗粒物(PM10),60,69,76,37,50,12,12,,,33,33,5,6,1.1,1.3
2025-12-25T0500,2587A,105.2864,27.3125,毕节市,八中,,40,40,41,21,26,58,58,,,6,7,8,8,0.5,0.6
2025-12-25T0500,2588A,105.31,27.2944,毕节市,师专,,34,34,43,18,23,60,60,,,7,10,7,8,0.5,0.6
2025-12-25T0500,4263A,105.3688,27.3598,毕节市,工业大道,,44,44,52,23,30,57,57,,,4,5,9,9,0.5,0.6
2025-12-25T0500,1629A,118.0018,37.3617,滨州市,第二水厂,,22,22,55,3,30,37,37,,,16,37,10,12,0.6,0.8
2025-12-25T0500,1630A,117.9776,37.393,滨州市,北中新校,,14,14,51,7,27,35,35,,,22,38,3,9,0.3,0.5
2025-12-25T0500,3514A,117.9378,37.3956,滨州市,中海酒店,,17,17,54,3,35,45,45,,,18,39,5,11,0.4,0.8
2025-12-25T0500,3515A,117.9378,37.3553,滨州市,开发区一中,,17,17,64,3,33,44,44,,,12,36,7,13,0.4,0.8
2025-12-25T0500,3516A,118.0917,37.694,滨州市,金海六路,,18,12,47,3,17,56,56,,,6,35,4,13,0.3,0.5
2025-12-25T0500,4028A,117.9956,37.3753,滨州市,滨州市西街道办事处,,14,14,51,3,33,40,40,,,19,35,8,12,0.2,0.5
2025-12-25T0500,2311A,115.8072,33.8399,亳州市,污水处理厂,细颗粒物(PM2.5),90,83,85,67,70,19,19,,,42,40,5,6,0.7,0.7
2025-12-25T0500,2312A,115.7789,33.8518,亳州市,三国揽胜宫,细颗粒物(PM2.5),89,95,100,66,66,16,16,,,52,43,5,6,0.5,0.7
2025-12-25T0500,3332A,115.7633,33.8034,亳州市,亳州学院,细颗粒物(PM2.5),94,88,86,70,68,24,24,,,40,39,5,4,0.5,0.7
2025-12-25T0500,2693A,82.0485,44.8556,博尔塔拉蒙古自治州,市党校,颗粒物(PM10),61,71,65,28,31,38,38,,,17,17,2,3,0.7,0.7
2025-12-25T0500,2694A,82.0806,44.8969,博尔塔拉蒙古自治州,市环保局,颗粒物(PM10),58,65,58,26,27,37,37,,,16,19,6,6,0.6,0.6
2025-12-25T0500,1071A,116.8842,38.2991,沧州市,沧县城建局,,,22,48,13,27,39,39,,,,33,3,3,0.1,0.4
2025-12-25T0500,1072A,116.8584,38.3254,沧州市,电视转播站,,28,28,49,3,22,40,40,,,16,33,3,4,0.4,0.7
2025-12-25T0500,1073A,116.8709,38.3228,沧州市,市环保局,,25,25,52,11,32,35,35,,,10,27,2,3,0.1,0.3
2025-12-25T0500,3324A,116.8136,38.3004,沧州市,河北水利电力学院,,22,22,44,11,20,43,43,,,12,32,5,8,0.1,0.4
2025-12-25T0500,2622A,97.1806,31.1273,昌都市,昌都监测站,,20,20,53,3,18,50,50,,,2,22,3,5,0.4,0.8
2025-12-25T0500,3719A,97.1714,31.1406,昌都市,昌都会议中心,,15,9,17,6,10,45,45,,,2,5,1,1,0.3,0.4
2025-12-25T0500,2690A,88.1236,43.8886,昌吉回族自治州,天山天池,,,,,,,,,,,,,,,,
2025-12-25T0500,2692A,87.2717,44.0297,昌吉回族自治州,新区政务中心,细颗粒物(PM2.5),82,95,64,60,42,5,5,,,47,37,6,6,1.2,1
2025-12-25T0500,3613A,87.3095,44.0142,昌吉回族自治州,亚心广场,细颗粒物(PM2.5),79,78,61,58,46,7,7,,,48,31,6,6,1.0,0.9
2025-12-25T0500,1120A,125.2863,43.9027,长春市,客车厂,,17,17,47,10,47,44,44,,,9,38,7,12,0.2,0.6
2025-12-25T0500,1121A,125.2841,43.8463,长春市,邮电学院,,20,15,51,14,40,41,41,,,8,28,8,13,0.3,0.6
2025-12-25T0500,1122A,125.3716,43.8772,长春市,劳动公园,,22,22,47,11,32,37,37,,,14,35,10,10,0.2,0.5
2025-12-25T0500,1123A,125.3297,43.8805,长春市,园林处,,29,29,45,20,36,34,34,,,14,34,10,8,0.3,0.5
2025-12-25T0500,1124A,125.4605,43.79,长春市,净月潭,,25,,57,17,42,38,38,,,11,31,7,7,0.2,0.6
2025-12-25T0500,1125A,125.7194,43.515,长春市,甩湾子,,15,11,78,7,71,48,48,,,4,18,5,5,0.5,1.4
2025-12-25T0500,1126A,125.3863,43.8447,长春市,经开区环卫处,,18,18,63,8,41,41,41,,,15,43,9,7,0.2,0.7
2025-12-25T0500,1127A,125.245,43.7783,长春市,高新区管委会,,14,14,55,7,46,44,44,,,10,38,6,7,0.1,0.6
2025-12-25T0500,1128A,125.1761,43.8325,长春市,岱山公园,,15,15,59,9,53,37,37,,,15,34,7,8,0.2,0.6
2025-12-25T0500,4281A,125.3346,43.9164,长春市,北亚泰大街1068号,,,,45,15,40,34,34,,,,41,19,17,0.4,0.7
2025-12-25T0500,1335A,113.0833,28.2325,长沙市,经开区环保局,细颗粒物(PM2.5),92,82,68,68,69,23,23,,,20,26,4,4,0.7,0.7
2025-12-25T0500,1336A,112.8872,28.2189,长沙市,高开区环保局,细颗粒物(PM2.5),90,77,78,67,71,25,25,,,8,14,4,4,0.5,0.7
2025-12-25T0500,1337A,113.0792,28.2053,长沙市,马坡岭,细颗粒物(PM2.5),87,78,74,64,56,25,25,,,19,22,5,4,0.5,0.7
2025-12-25T0500,1338A,112.9394,28.19,长沙市,湖南师范大学,细颗粒物(PM2.5),78,78,81,57,58,27,27,,,14,18,4,3,0.5,0.6
2025-12-25T0500,1339A,113.0178,28.1322,长沙市,雨花区环保局,细颗粒物(PM2.5),89,79,68,66,65,17,17,,,19,22,7,6,0.6,0.6
2025-12-25T0500,1340A,112.9792,28.2597,长沙市,伍家岭,细颗粒物(PM2.5),78,82,77,57,57,20,20,,,17,22,6,5,0.7,0.8
2025-12-25T0500,1341A,113.0014,28.1944,长沙市,火车新站,细颗粒物(PM2.5),85,84,79,63,62,19,19,,,22,25,8,7,0.6,0.7
2025-12-25T0500,1342A,112.9844,28.1178,长沙市,天心区环保局,细颗粒物(PM2.5),92,83,75,68,63,23,23,,,22,25,7,6,0.5,0.5
2025-12-25T0500,1343A,112.8908,28.1308,长沙市,湖南中医药大学,细颗粒物(PM2.5),88,79,80,65,67,29,29,,,13,18,5,5,0.7,0.8
2025-12-25T0500,1344A,112.9581,28.3611,长沙市,沙坪,,,,,,,,,,,,,,,,
2025-12-25T0500,1727A,113.1147,36.1547,长治市,清华站,,39,39,83,22,28,16,16,,,31,26,13,16,0.8,0.8
2025-12-25T0500,1730A,113.0886,36.2125,长治市,审计局,,36,36,76,19,27,25,25,,,35,30,29,18,0.5,0.6
2025-12-25T0500,1731A,113.0844,36.1856,长治市,长治八中,细颗粒物(PM2.5),54,46,94,38,38,21,21,,,28,21,22,16,0.6,0.7
2025-12-25T0500,2845A,113.1569,36.1911,长治市,德盛苑,,39,30,82,27,31,35,35,,,18,19,19,16,0.7,0.8
2025-12-25T0500,3568A,113.06,36.0464,长治市,向阳小学,颗粒物(PM10),55,59,105,18,31,19,19,,,37,29,13,15,0.6,0.7
2025-12-25T0500,3569A,112.8792,36.3144,长治市,屯留一中,,48,48,82,13,25,16,16,,,37,27,15,17,0.6,0.6
2025-12-25T0500,4189A,113.1131,36.19948,长治市,英华南巷50号,,,40,88,27,33,23,23,,,,24,21,14,0.8,1
2025-12-25T0500,4190A,113.2367,36.3344,长治市,学府街1号,,33,33,89,17,32,29,29,,,25,27,9,28,0.9,1
2025-12-25T0500,1854A,111.6975,28.9703,常德市,市二中,细颗粒物(PM2.5),60,67,76,43,46,40,40,,,16,18,8,6,0.4,0.6
2025-12-25T0500,1857A,111.7158,29.1456,常德市,白鹤山,,,,,,,,,,,,,,,,
2025-12-25T0500,3138A,111.7153,29.0289,常德市,武陵区永安,颗粒物(PM10),59,67,81,41,44,35,35,,,18,20,5,5,0.6,0.7
2025-12-25T0500,3139A,111.6892,28.9881,常德市,鼎城区玉霞,细颗粒物(PM2.5),63,68,74,45,45,31,31,,,20,21,8,8,0.6,0.7
2025-12-25T0500,3140A,111.6625,29.0531,常德市,武陵区长庚,细颗粒物(PM2.5),67,77,81,48,44,30,30,,,17,18,5,5,0.5,0.7
2025-12-25T0500,1196A,119.9633,31.762,常州市,市监测站,,49,44,86,34,66,44,44,,,23,37,6,6,0.4,0.6
2025-12-25T0500,1200A,119.9468,31.7069,常州市,武进监测站,,46,42,88,32,62,42,42,,,17,35,10,9,0.4,0.6
2025-12-25T0500,1201A,119.9255,31.9087,常州市,安家,颗粒物(PM10),51,51,94,32,65,25,25,,,34,41,11,10,0.7,0.9
2025-12-25T0500,3002A,119.9805,31.8174,常州市,行政中心,颗粒物(PM10),52,53,90,35,63,43,43,,,22,36,6,6,0.4,0.6
2025-12-25T0500,3003A,120.0522,31.7748,常州市,经开区,,50,46,91,35,60,45,45,,,20,32,4,3,0.9,1
2025-12-25T0500,3010A,119.9025,31.7964,常州市,钟楼,,50,50,84,32,67,30,30,,,27,35,7,6,0.3,0.4
2025-12-25T0500,3429A,119.8598,31.7066,常州市,武进经发区,,45,45,85,31,67,39,39,,,22,37,7,7,0.5,0.8
2025-12-25T0500,3430A,119.5826,31.7245,常州市,金坛城区,细颗粒物(PM2.5),78,78,91,57,73,26,26,,,23,30,6,6,0.6,0.8
2025-12-25T0500,2220A,120.4318,41.5881,朝阳市,西梁,,16,14,48,3,21,49,49,,,6,19,18,12,0.3,0.7
2025-12-25T0500,2221A,120.4521,41.5646,朝阳市,河畔小区,,17,8,38,3,15,52,52,,,7,15,8,10,0.3,0.5
2025-12-25T0500,2222A,120.4176,41.5648,朝阳市,八里堡,,16,14,44,8,19,51,51,,,6,19,7,11,0.2,0.6
2025-12-25T0500,2223A,120.3806,41.5969,朝阳市,农业园区,,17,10,39,7,25,52,52,,,4,18,8,11,0.3,0.6
2025-12-25T0500,1705A,116.6367,23.6719,潮州市,西园路,,,,,,,,,,,,,,,,
2025-12-25T0500,3026A,116.6183,23.6608,潮州市,市政府,,,44,48,36,32,32,32,,,6,14,,9,0.6,0.7
2025-12-25T0500,4036A,116.6461,23.6761,潮州市,金山,细颗粒物(PM2.5),54,44,45,38,32,30,30,,,9,15,3,5,0.5,0.4
2025-12-25T0500,2472A,113.0073,25.9061,郴州市,马头岭,,,,,,,,,,,,,,,,
2025-12-25T0500,2473A,113.0116,25.8226,郴州市,市职中,,43,39,24,30,22,35,35,,,12,16,2,3,0.6,0.8
2025-12-25T0500,2475A,113.0383,25.8071,郴州市,市审计局,,48,45,27,33,20,41,41,,,9,12,2,2,0.8,1
2025-12-25T0500,2476A,113.0348,25.7759,郴州市,市环保局,细颗粒物(PM2.5),54,50,28,38,22,32,32,,,13,17,1,2,0.4,0.6
2025-12-25T0500,4252A,113.0138,25.8011,郴州市,好美居路49号,,,50,24,43,26,42,42,,,,15,1,2,0.2,0.4
2025-12-25T0500,1431A,103.9728,30.7236,成都市,金泉两河,细颗粒物(PM2.5),89,114,99,66,44,1,1,,,52,54,3,3,1.0,0.7
2025-12-25T0500,1432A,104.176,30.6872,成都市,十里店,颗粒物(PM10),66,82,85,42,38,4,4,,,58,54,4,4,0.5,0.5
2025-12-25T0500,1433A,104.079,30.5706,成都市,三瓦窑,细颗粒物(PM2.5),72,87,91,52,44,1,1,,,43,59,5,5,0.8,0.8
2025-12-25T0500,1434A,104.1114,30.63,成都市,沙河铺,细颗粒物(PM2.5),68,84,79,49,36,1,1,,,60,59,4,4,0.6,0.6
2025-12-25T0500,1437A,104.0786,30.6531,成都市,君平街,细颗粒物(PM2.5),105,118,98,79,50,2,2,,,,60,5,5,0.8,0.7
2025-12-25T0500,1438A,103.613,31.0283,成都市,灵岩寺,,,,,,,,,,,,,,,,
2025-12-25T0500,2880A,104.0239,30.65639,成都市,大石西路,细颗粒物(PM2.5),87,105,92,64,44,1,1,,,57,57,4,4,0.8,0.7
2025-12-25T0500,3136A,104.2725,30.5589,成都市,龙泉驿区区政府,颗粒物(PM10),54,58,65,36,29,21,21,,,23,32,6,6,0.4,0.4
2025-12-25T0500,3357A,104.0106,30.6931,成都市,金博路,细颗粒物(PM2.5),67,82,85,48,36,1,1,,,66,61,5,5,0.7,0.5
2025-12-25T0500,3359A,104.0578,30.5225,成都市,华阳,细颗粒物(PM2.5),73,78,88,53,41,2,2,,,53,62,3,3,0.8,0.8
2025-12-25T0500,3488A,104.3880,30.7467,成都市,青石路225号,颗粒物(PM10),71,91,94,50,47,1,1,,,56,47,3,5,0.5,0.4
2025-12-25T0500,3489A,104.0789,30.4072,成都市,科学城,颗粒物(PM10),57,64,77,31,34,2,2,,,34,45,6,6,0.6,0.6
2025-12-25T0500,4011A,103.8506,30.6947,成都市,光华大道三段,细颗粒物(PM2.5),94,108,101,70,57,3,3,,,41,50,3,4,0.9,0.8
2025-12-25T0500,4224A,104.2433,30.5353,成都市,鲸龙路1057号,细颗粒物(PM2.5),69,83,90,50,43,16,16,,,40,52,6,6,0.6,0.7
2025-12-25T0500,1062A,117.9531,40.9081,承德市,铁路,,17,17,35,7,12,50,50,,,4,14,3,5,0.2,0.4
2025-12-25T0500,1063A,117.9392,40.9763,承德市,中国银行,,22,22,27,13,10,33,33,,,7,9,2,3,0.2,0.3
2025-12-25T0500,1064A,117.9503,40.928,承德市,开发区,,23,19,40,16,18,55,55,,,5,16,4,6,0.1,0.3
2025-12-25T0500,1066A,117.9268,41.0026,承德市,离宫,,,,,,,,,,,,,,,,
2025-12-25T0500,4274A,117.7994,40.9605,承德市,滨河大街98号,,16,6,43,3,22,50,50,,,4,15,4,12,0.2,0.7
2025-12-25T0500,2314A,117.47,30.6618,池州市,池州学院,细颗粒物(PM2.5),99,88,62,74,55,19,19,,,28,27,4,3,0.5,0.5
2025-12-25T0500,3237A,117.4918,30.6617,池州市,展览馆,细颗粒物(PM2.5),99,96,71,74,61,22,22,,,27,30,2,2,0.7,0.7
2025-12-25T0500,3333A,117.5627,30.695,池州市,第八中学,细颗粒物(PM2.5),103,105,70,77,54,28,28,,,30,33,4,4,1.0,1
2025-12-25T0500,3334A,117.5038,30.6243,池州市,第十二中学,细颗粒物(PM2.5),88,77,57,65,50,27,27,,,28,30,3,2,0.9,1
2025-12-25T0500,1744A,118.9233,42.2816,赤峰市,松山一中,,15,13,20,6,5,46,46,,,10,16,4,5,0.4,0.5
2025-12-25T0500,1745A,118.9576,42.2728,赤峰市,哈达街,,16,8,10,7,7,49,49,,,7,17,6,9,0.3,0.3
2025-12-25T0500,1746A,118.8788,42.2554,赤峰市,天义路,,15,,19,10,11,47,47,,,6,14,11,7,0.5,0.5
2025-12-25T0500,3058A,119.2658,42.0353,赤峰市,银河街,,17,7,50,3,21,54,54,,,1,13,9,21,0.4,0.7
2025-12-25T0500,3286A,118.9359,42.3147,赤峰市,桥北物流园区,,17,14,15,6,10,52,52,,,4,13,5,5,0.5,0.5
2025-12-25T0500,2521A,107.3476,22.4136,崇左市,市环保局江州分局,,8,8,12,3,7,23,23,,,9,9,9,6,0.6,0.6
2025-12-25T0500,4256A,107.3750,22.3736,崇左市,石景林东路7号,,9,,13,3,8,27,27,,,8,12,8,7,0.5,0.7
2025-12-25T0500,2298A,118.3093,32.3153,滁州市,老年大学,细颗粒物(PM2.5),109,102,92,82,73,32,32,,,22,26,20,18,0.7,0.7
2025-12-25T0500,2299A,118.3244,32.2786,滁州市,人大宾馆,细颗粒物(PM2.5),122,109,93,92,79,37,37,,,16,25,5,5,0.7,0.7
2025-12-25T0500,3207A,118.3118,32.3038,滁州市,市政府原办公楼,细颗粒物(PM2.5),110,109,94,83,72,35,35,,,23,27,4,4,0.5,0.5
2025-12-25T0500,3331A,118.3267,32.2634,滁州市,图书馆,细颗粒物(PM2.5),114,106,88,86,71,40,40,,,17,24,8,8,0.6,0.6
2025-12-25T0500,2605A,101.5482,25.0441,楚雄彝族自治州,州环境监测站,,29,23,25,20,19,0,0,,,22,14,7,6,0.5,0.6
2025-12-25T0500,2606A,101.538,25.0492,楚雄彝族自治州,市经济开发区,,30,24,27,21,19,0,0,,,21,16,6,6,0.4,0.5
2025-12-25T0500,2548A,107.5277,31.2827,达州市,达州职业技术学院,,,,,,,,,,,,,,,,
2025-12-25T0500,2549A,107.5086,31.2186,达州市,市环境监测站,,46,46,46,29,28,1,1,,,19,30,6,15,0.4,0.4
2025-12-25T0500,2550A,107.4988,31.2132,达州市,凤凰小区,,45,44,47,31,29,5,5,,,15,26,6,15,0.4,0.4
2025-12-25T0500,2551A,107.5082,31.1986,达州市,达县机关宾馆,细颗粒物(PM2.5),67,,47,48,34,5,5,,,15,29,4,12,0.5,0.6
2025-12-25T0500,2552A,107.4644,31.2124,达州市,市政中心,颗粒物(PM10),55,60,59,36,26,4,4,,,17,26,6,14,0.5,0.6
2025-12-25T0500,2614A,100.1542,25.7054,大理白族自治州,大理市环境监测站,,36,,18,25,23,51,51,,,6,8,6,6,0.6,0.6
2025-12-25T0500,2615A,100.2171,25.5811,大理白族自治州,大理古城,,36,,22,25,16,62,62,,,5,13,8,8,0.7,0.8
2025-12-25T0500,1109A,121.612,38.9741,大连市,甘井子,,34,34,31,22,14,44,44,,,17,29,8,10,0.3,0.4
2025-12-25T0500,1110A,121.565,38.9511,大连市,周水子,,45,45,33,21,14,42,42,,,17,29,5,5,0.4,0.4
2025-12-25T0500,1111A,121.5637,38.8845,大连市,星海三站,,48,48,30,26,14,37,37,,,17,19,8,8,0.5,0.5
2025-12-25T0500,1112A,121.6302,38.9117,大连市,青泥洼桥,颗粒物(PM10),52,54,30,25,13,38,38,,,16,26,8,10,0.5,0.6
2025-12-25T0500,1113A,121.6251,38.8638,大连市,傅家庄,颗粒物(PM10),52,53,30,27,12,34,34,,,17,21,10,10,0.4,0.4
2025-12-25T0500,1114A,121.5213,38.8661,大连市,七贤岭,,40,40,28,23,10,40,40,,,17,16,8,8,0.4,0.5
2025-12-25T0500,1115A,121.2529,38.8061,大连市,旅顺,,28,28,22,18,12,43,43,,,10,11,8,8,0.3,0.3
2025-12-25T0500,1116A,121.7485,39.1311,大连市,金州,,26,26,32,11,18,49,49,,,5,19,9,11,0.3,0.5
2025-12-25T0500,1117A,121.7811,39.0496,大连市,开发区,,35,35,32,21,17,42,42,,,12,21,9,9,0.4,0.5
2025-12-25T0500,1118A,121.9762,39.0631,大连市,双D港,颗粒物(PM10),60,69,32,25,14,41,41,,,22,16,11,13,0.5,0.4
2025-12-25T0500,1789A,124.81117,46.03138,大庆市,大同区,,16,13,51,11,25,45,45,,,4,25,6,7,0.2,0.8
2025-12-25T0500,1790A,125.129,46.533,大庆市,龙凤区,,25,25,38,13,28,37,37,,,9,23,5,8,0.4,0.6
2025-12-25T0500,1791A,124.902,46.408,大庆市,红岗区,,26,23,35,18,20,36,36,,,12,34,9,12,0.5,0.7
2025-12-25T0500,1792A,125.153,46.586,大庆市,萨尔图区,,17,17,35,9,22,44,44,,,12,37,12,9,0.6,0.8
2025-12-25T0500,1793A,124.9042,46.6215,大庆市,让胡路区,,29,,31,20,28,43,43,,,5,24,8,9,0.3,0.5
2025-12-25T0500,3481A,125.141,46.634,大庆市,萨区政府监测点,,16,16,29,3,14,33,33,,,14,29,16,11,0.5,0.7
2025-12-25T0500,1721A,113.3819,40.1097,大同市,果树场,,16,10,41,6,23,51,51,,,12,19,10,11,0.4,0.6
2025-12-25T0500,1723A,113.2994,40.0758,大同市,云冈宾馆,,20,20,33,8,13,38,38,,,19,19,7,11,0.6,0.7
2025-12-25T0500,1724A,113.3444,40.0917,大同市,大同大学,,25,17,35,13,15,15,15,,,49,22,10,12,0.8,0.8
2025-12-25T0500,1725A,113.2661,40.1269,大同市,安家小村,,17,17,42,9,16,43,43,,,14,20,10,11,0.5,0.8
2025-12-25T0500,1726A,113.2711,40.0844,大同市,教育学院,,22,22,40,9,15,31,31,,,23,22,9,12,0.6,0.7
2025-12-25T0500,3282A,113.3397,40.0597,大同市,大同市卫生学校,,14,12,36,3,12,42,42,,,17,24,5,11,0.7,0.7
2025-12-25T0500,3565A,113.1367,40.1122,大同市,云冈站,,22,22,43,13,15,15,15,,,21,24,9,16,0.5,0.5
2025-12-25T0500,3566A,113.1186,40.2556,大同市,图书馆,,27,27,40,14,22,20,20,,,14,15,3,5,0.7,0.7
2025-12-25T0500,3567A,113.5931,40.0461,大同市,区一中,,20,6,38,3,11,61,61,,,9,18,8,13,0.4,0.7
2025-12-25T0500,4199A,113.2798,40.0997,大同市,魏都大道141号,,21,21,46,14,16,37,37,,,19,22,7,9,0.8,0.9
2025-12-25T0500,2269A,124.1069,50.4097,大兴安岭地区,科技局,,26,19,17,18,18,37,37,,,1,3,5,5,0.2,0.2
2025-12-25T0500,3663A,124.1164,50.4278,大兴安岭地区,红旗社区,,14,6,14,3,10,42,42,,,1,9,2,5,0.2,0.3
2025-12-25T0500,1600A,124.3303,40.0625,丹东市,江湾东路,,32,32,30,20,16,47,47,,,14,13,11,10,0.9,0.6
2025-12-25T0500,1601A,124.4256,40.1503,丹东市,临江后街,,27,27,26,13,13,52,52,,,9,16,7,9,0.8,0.8
2025-12-25T0500,1602A,124.3933,40.1461,丹东市,元宝山,,,26,29,16,14,48,48,,,,13,9,10,0.8,0.6
2025-12-25T0500,1603A,124.3633,40.1092,丹东市,民主桥,,32,32,29,20,13,48,48,,,14,16,9,8,0.9,0.6
2025-12-25T0500,3541A,109.5726,19.5167,儋州市,第一中学子站,,47,47,32,22,15,58,58,,,2,3,4,3,0.4,0.4
2025-12-25T0500,3542A,109.5567,19.5187,儋州市,东坡学校子站,,31,31,30,20,14,64,64,,,3,3,4,5,0.4,0.4
2025-12-25T0500,2616A,98.5842,24.428,德宏傣族景颇族自治州,德宏州监测站,颗粒物(PM10),51,51,41,34,32,4,4,,,26,22,6,7,0.6,0.6
2025-12-25T0500,3677A,98.5881,24.4368,德宏傣族景颇族自治州,芒市人民政府综合楼,,35,33,45,24,28,16,16,,,12,17,7,8,0.6,0.7
2025-12-25T0500,1901A,104.4239,31.1208,德阳市,东山公园,颗粒物(PM10),70,90,64,39,31,5,5,,,53,22,3,2,0.6,0.6
2025-12-25T0500,1902A,104.3826,31.1317,德阳市,西小区,,,76,91,35,37,3,3,,,,44,3,3,0.6,0.6
2025-12-25T0500,1904A,104.3553,31.1091,德阳市,耐火材料厂,颗粒物(PM10),58,65,99,40,50,13,13,,,40,47,3,3,0.7,0.8
2025-12-25T0500,3639A,104.4019,31.1244,德阳市,市教育局,颗粒物(PM10),54,58,61,36,34,0,0,,,50,48,2,3,0.6,0.7
2025-12-25T0500,1622A,116.3032,37.4674,德州市,儿童乐园,,19,19,70,3,43,46,46,,,20,45,9,12,0.7,1
2025-12-25T0500,1624A,116.2991,37.4451,德州市,监理站,,16,9,62,3,37,51,51,,,20,42,12,13,0.4,0.7
2025-12-25T0500,3066A,116.2721,37.4379,德州市,九衢泉纯净水厂,,15,14,74,3,48,48,48,,,18,48,8,14,0.2,0.6
2025-12-25T0500,3371A,116.3728,37.4403,德州市,开发区人民医院,,17,17,62,3,34,46,46,,,23,48,10,12,0.6,0.8
2025-12-25T0500,3511A,116.5652,37.3319,德州市,陵城艺术中心,,14,14,75,3,47,36,36,,,20,54,8,12,0.5,1
2025-12-25T0500,4292A,116.3525,37.4209,德州市,新河东路,,19,19,62,12,39,47,47,,,22,55,10,12,0.8,1
2025-12-25T0500,2621A,99.7056,27.8317,迪庆藏族自治州,迪庆州站,,21,17,24,10,16,66,66,,,4,9,5,5,0.3,0.4
2025-12-25T0500,3180A,99.7136,27.8094,迪庆藏族自治州,质量技术监督局,,22,15,26,3,18,70,70,,,4,11,8,9,0.3,0.4
2025-12-25T0500,4257A,104.6092,35.5962,定西市,将台街,,48,34,59,33,37,24,24,,,24,26,8,11,0.5,0.6
2025-12-25T0500,4309A,104.6159,35.5701,定西市,正龙路62号,,45,45,63,22,35,41,41,,,6,11,3,8,0.5,0.6
2025-12-25T0500,1389A,113.7547,23.0494,东莞市,莞城梨川,,16,16,59,10,37,16,16,,,18,35,4,6,0.9,0.8
2025-12-25T0500,1390A,113.7944,23.0128,东莞市,东城石井,,27,27,52,16,35,16,16,,,25,38,9,9,1.0,0.8
2025-12-25T0500,1391A,113.7383,22.9658,东莞市,南城西平,,28,28,66,14,40,9,9,,,32,59,9,10,0.9,0.8
2025-12-25T0500,3319A,113.7338,23.0381,东莞市,万江金泰,,19,19,63,8,42,16,16,,,19,36,6,7,0.9,0.9
2025-12-25T0500,3626A,113.7533,23.0202,东莞市,南城元岭,,15,,55,10,36,20,20,,,20,39,8,9,0.9,0.8
2025-12-25T0500,3627A,113.7875,23.0457,东莞市,东城主山,,26,26,66,14,42,15,15,,,23,49,5,7,0.8,0.7
2025-12-25T0500,1666A,118.6614,37.4309,东营市,市环保局,,16,7,44,3,15,51,51,,,14,31,6,10,0.4,0.6
2025-12-25T0500,3036A,118.6904,37.4338,东营市,开发区管委会,,18,11,46,3,14,57,57,,,8,22,8,11,0.5,0.6
2025-12-25T0500,3365A,118.5719,37.565,东营市,垦利区民丰路,,16,9,42,3,14,51,51,,,12,28,5,8,0.7,0.7
2025-12-25T0500,3498A,118.5055,37.8612,东营市,河口城区,,19,9,38,3,10,60,60,,,15,24,5,6,0.4,0.5
2025-12-25T0500,3646A,118.4978,37.4623,东营市,胜利站,,15,13,45,3,18,48,48,,,11,35,8,10,0.3,0.5
2025-12-25T0500,3734A,118.35,37.26,东营市,理想之城,,17,17,47,7,19,46,46,,,14,32,5,7,0.5,0.6
2025-12-25T0500,1591A,110.0023,39.8129,鄂尔多斯市,综合楼,,17,17,25,3,9,49,49,,,13,17,6,7,0.5,0.5
2025-12-25T0500,1592A,109.9486,39.8261,鄂尔多斯市,巴音孟克林场办事处,,17,17,35,7,11,40,40,,,20,19,6,6,0.3,0.3
2025-12-25T0500,1593A,109.7736,39.5986,鄂尔多斯市,康泽苑,,13,9,32,9,13,38,38,,,12,10,4,5,0.3,0.3
2025-12-25T0500,1594A,109.8119,39.5989,鄂尔多斯市,华泰汽车城,,12,12,33,7,12,26,26,,,24,13,3,3,0.3,0.3
2025-12-25T0500,1595A,109.9734,39.7884,鄂尔多斯市,奥林花园,,27,27,37,3,6,30,30,,,25,18,2,3,0.3,0.3
2025-12-25T0500,2436A,114.8938,30.3994,鄂州市,市政府,细颗粒物(PM2.5),109,,69,82,71,17,17,,,24,23,4,4,0.7,0.7
2025-12-25T0500,2437A,114.8989,30.3714,鄂州市,赵家坝,细颗粒物(PM2.5),103,79,73,77,69,22,22,,,14,13,6,6,0.9,1
2025-12-25T0500,3654A,114.8094,30.4089,鄂州市,精准医疗中心,细颗粒物(PM2.5),113,89,77,85,73,21,21,,,17,16,4,5,1.5,1.1
2025-12-25T0500,2454A,109.4978,30.2981,恩施土家族苗族自治州,湖北民院,,32,25,30,22,26,30,30,,,6,17,5,6,0.6,0.8
2025-12-25T0500,2455A,109.4707,30.2798,恩施土家族苗族自治州,州电力总公司,,38,34,33,26,27,6,6,,,13,22,6,6,0.8,0.9
2025-12-25T0500,3549A,109.5061,30.3772,恩施土家族苗族自治州,龙凤新区,,42,37,37,29,26,7,7,,,6,10,6,6,0.5,0.6
2025-12-25T0500,2499A,108.3411,21.6158,防城港市,沙万,,15,15,35,10,22,27,27,,,8,15,5,6,0.5,0.6
2025-12-25T0500,2500A,108.3514,21.7731,防城港市,防城档案局,,23,23,33,3,16,24,24,,,8,13,4,4,0.6,0.7
2025-12-25T0500,2501A,108.3506,21.6414,防城港市,大海花园,,9,6,26,6,17,27,27,,,8,13,5,6,0.7,0.7
2025-12-25T0500,1371A,113.1294,23.0067,佛山市,湾梁,,12,12,75,3,32,16,16,,,20,48,6,8,0.7,0.8
2025-12-25T0500,1372A,113.1083,23.0478,佛山市,华材职中,,20,17,82,14,47,17,17,,,21,57,6,7,0.8,0.9
2025-12-25T0500,1373A,113.144,23.0453,佛山市,南海气象局,,26,,68,18,40,15,15,,,20,53,6,8,0.7,0.8
2025-12-25T0500,1374A,113.2881,22.8094,佛山市,顺德苏岗,,22,22,60,3,35,16,16,,,20,47,6,8,0.8,0.8
2025-12-25T0500,1376A,112.8383,22.8678,佛山市,高明孔堂,,19,19,67,13,43,22,22,,,20,40,6,6,0.7,0.7
2025-12-25T0500,1377A,112.8836,23.1588,佛山市,三水监测站,,8,6,81,3,35,25,25,,,12,41,3,6,0.8,0.9
2025-12-25T0500,1378A,112.867,23.185,佛山市,三水云东海,,9,8,74,3,39,23,23,,,18,34,4,8,0.7,0.8
2025-12-25T0500,3625A,113.2544,22.7642,佛山市,容桂街道办,,22,22,62,7,35,17,17,,,20,48,5,7,0.8,0.8
2025-12-25T0500,1280A,119.3903,26.0543,福州市,鼓山,,,,27,,20,,,50,,,19,,2,,0.4
2025-12-25T0500,1282A,119.2681,26.0504,福州市,师大,,22,,40,15,14,32,32,,,26,34,6,7,0.5,0.5
2025-12-25T0500,1283A,119.2984,26.1028,福州市,五四北路,,,18,34,18,30,34,34,,,,28,4,4,0.6,0.6
2025-12-25T0500,1284A,119.2648,26.0768,福州市,杨桥西路,,12,,37,8,30,34,34,,,18,26,4,4,0.6,0.6
2025-12-25T0500,1285A,119.317,26.0746,福州市,紫阳,,15,,43,10,36,29,29,,,21,30,6,7,0.6,0.5
2025-12-25T0500,3048A,119.5799,26.0936,福州市,九龙,,12,6,34,3,28,24,24,,,23,24,4,5,0.6,0.6
2025-12-25T0500,3526A,119.5189,25.9664,福州市,吴航,,11,6,37,3,19,30,30,,,22,29,3,4,0.6,0.6
2025-12-25T0500,1755A,123.7977,41.8491,抚顺市,望花区,细颗粒物(PM2.5),54,,70,38,51,25,25,,,31,32,4,5,0.8,1
2025-12-25T0500,1756A,123.9161,41.8822,抚顺市,顺城区,,24,24,73,11,50,41,41,,,16,39,8,9,0.4,0.9
2025-12-25T0500,1757A,124.0436,41.8611,抚顺市,东洲区,,37,37,81,9,60,42,42,,,8,37,8,12,0.6,1.1
2025-12-25T0500,1758A,123.9247,41.8642,抚顺市,新抚区,,17,17,72,11,52,43,43,,,12,39,8,10,0.6,1.1
2025-12-25T0500,1759A,124.0972,41.8961,抚顺市,大伙房水库,,26,26,69,3,46,48,48,,,6,32,9,11,0.5,0.9
2025-12-25T0500,1760A,123.7086,41.8391,抚顺市,沈抚新城,细颗粒物(PM2.5),90,76,96,67,81,14,14,,,48,49,11,9,0.7,1.3
2025-12-25T0500,2376A,116.2127,28.0814,抚州市,桐源党溪,,,,,,,,,,,,,,,,
2025-12-25T0500,2377A,116.3544,27.9831,抚州市,市站,,24,24,24,16,16,71,71,,,6,15,7,6,0.7,1.1
2025-12-25T0500,2378A,116.3565,27.963,抚州市,血防站,,32,32,28,18,16,74,74,,,8,18,3,3,0.6,1.1
2025-12-25T0500,2379A,116.3564,28.0007,抚州市,采茶剧团,,31,31,46,19,18,68,68,,,2,11,3,3,0.7,1.1
2025-12-25T0500,2380A,116.385,27.9647,抚州市,医学分院,,27,27,29,14,14,68,68,,,5,14,4,4,0.6,1
2025-12-25T0500,2207A,121.6094,41.998,阜新市,工业园区,,23,23,55,3,22,54,54,,,3,18,8,13,0.2,0.4
2025-12-25T0500,2208A,121.6697,42.0279,阜新市,长青街,,18,6,23,3,14,56,56,,,4,16,6,9,0.3,0.5
2025-12-25T0500,2209A,121.6673,42.0705,阜新市,农业园区,,16,6,27,3,10,51,51,,,4,10,6,7,0.2,0.4
2025-12-25T0500,2210A,121.6717,42.0224,阜新市,东苑,,18,13,38,7,18,56,56,,,3,17,2,8,0.4,0.7
2025-12-25T0500,2211A,121.6506,42.0498,阜新市,玉龙新城,,17,9,37,3,15,53,53,,,5,21,6,10,0.3,0.5
2025-12-25T0500,2301A,115.8277,32.8929,阜阳市,市监测站,细颗粒物(PM2.5),100,99,106,75,80,22,22,,,37,40,4,4,0.6,0.7
2025-12-25T0500,2303A,115.8554,32.8605,阜阳市,开发区,细颗粒物(PM2.5),88,85,99,65,63,25,25,,,34,37,4,5,0.7,0.8
2025-12-25T0500,2875A,115.784,32.8892,阜阳市,阜阳职业技术学院,细颗粒物(PM2.5),107,102,99,80,75,11,11,,,41,35,6,6,0.6,0.7
2025-12-25T0500,3468A,115.7901,32.8613,阜阳市,市规划展馆,细颗粒物(PM2.5),104,98,100,78,77,20,20,,,39,38,7,7,0.3,0.4
2025-12-25T0500,3469A,115.836,32.9183,阜阳市,枣园社区,细颗粒物(PM2.5),102,101,107,76,82,23,23,,,39,39,6,7,0.6,0.6
2025-12-25T0500,2669A,102.9099,34.9841,甘南藏族自治州,州政府,,43,39,54,30,36,27,27,,,29,20,6,7,0.6,0.6
2025-12-25T0500,3380A,102.8914,34.9617,甘南藏族自治州,甘肃民族师范学院,颗粒物(PM10),54,58,66,19,27,18,18,,,29,24,3,5,0.8,0.4
2025-12-25T0500,2570A,101.9603,30.0475,甘孜藏族自治州,水桥子,,25,6,17,3,9,77,77,,,3,11,7,7,0.3,0.3
2025-12-25T0500,3065A,101.9533,29.9972,甘孜藏族自治州,州环保局,,25,9,18,3,6,80,80,,,3,12,5,6,0.3,0.4
2025-12-25T0500,3414A,115.8347,28.932,赣江新区,桑海产业园,,48,48,35,31,28,43,43,,,8,13,7,6,0.6,0.8
2025-12-25T0500,2362A,114.9017,25.9149,赣州市,通天岩,,14,13,36,3,24,26,26,,,8,15,16,16,1.4,1.4
2025-12-25T0500,2363A,114.9367,25.8664,赣州市,地委,,18,18,44,3,23,27,27,,,12,19,5,6,0.8,1
2025-12-25T0500,2364A,114.9461,25.8481,赣州市,气象台,,31,31,49,6,20,33,33,,,9,22,3,4,0.8,0.9
2025-12-25T0500,2365A,114.9322,25.8333,赣州市,市图书馆,,10,10,32,7,20,26,26,,,14,23,4,4,0.7,0.9
2025-12-25T0500,2366A,114.8905,25.8471,赣州市,华坚鞋城,,10,10,33,3,20,25,25,,,14,22,5,5,0.5,0.6
2025-12-25T0500,3109A,115.0093,25.8613,赣州市,赣县区卫计委,,10,,22,7,22,28,28,,,7,17,7,7,0.6,0.7
2025-12-25T0500,2683A,106.2319,36.1417,固原市,马园,,,,,,,,,,,,,,,,
2025-12-25T0500,2684A,106.2792,36.0022,固原市,监测站,,28,28,62,18,26,37,37,,,17,22,4,5,1.0,0.8
2025-12-25T0500,2685A,106.2375,36.0211,固原市,新区,,26,26,59,8,18,2,2,,,45,28,2,3,1.3,0.8
2025-12-25T0500,3522A,106.2177,35.9959,固原市,原州区十五小,,20,20,56,9,20,64,64,,,7,15,2,3,0.5,0.5
2025-12-25T0500,2543A,106.6308,30.5278,广安市,小平旧居,,,,,,,,,,,,,,,,
2025-12-25T0500,2544A,106.6303,30.4576,广安市,市委,,50,38,51,35,37,11,11,,,12,22,2,2,0.7,0.8
2025-12-25T0500,2545A,106.6271,30.4663,广安市,友谊中学,,49,41,46,34,36,18,18,,,10,17,3,3,0.7,0.8
2025-12-25T0500,2547A,106.6388,30.4551,广安市,广电花园,细颗粒物(PM2.5),53,,42,37,39,8,8,,,14,21,3,3,0.5,0.6
2025-12-25T0500,2902A,106.6351,30.4865,广安市,北辰小学,细颗粒物(PM2.5),53,,46,37,36,12,12,,,9,14,6,9,0.7,0.7
2025-12-25T0500,2523A,105.8945,32.4535,广元市,黑石坡,,,,,,,,,,,,,,,,
2025-12-25T0500,2524A,105.821,32.4444,广元市,老城,颗粒物(PM10),57,64,49,25,21,5,5,,,45,35,5,3,1.1,0.8
2025-12-25T0500,2526A,105.8628,32.4287,广元市,监测站,颗粒物(PM10),56,62,61,34,24,3,3,,,42,29,11,5,1.3,0.8
2025-12-25T0500,3617A,105.8047,32.4166,广元市,经开区,颗粒物(PM10),57,64,63,27,24,0,0,,,41,36,3,3,0.7,0.6
2025-12-25T0500,1345A,113.2347,23.1423,广州市,广雅中学,,8,6,65,3,34,14,14,,,14,43,2,4,0.8,0.9
2025-12-25T0500,1346A,113.2612,23.105,广州市,市五中,,10,6,61,3,36,19,19,,,19,50,6,7,0.7,0.7
2025-12-25T0500,1348A,113.3478,23.0916,广州市,广东商学院,,10,6,60,3,37,14,14,,,14,41,5,7,1.0,0.9
2025-12-25T0500,1349A,113.4332,23.1047,广州市,市八十六中,,11,6,59,3,35,14,14,,,15,57,7,9,1.1,1.1
2025-12-25T0500,1350A,113.3505,22.9483,广州市,番禺中学,,12,8,68,3,39,16,16,,,23,45,4,7,0.9,1
2025-12-25T0500,1351A,113.2146,23.3916,广州市,花都师范,,9,6,52,3,29,17,17,,,17,36,5,7,0.7,0.7
2025-12-25T0500,1352A,113.2597,23.1331,广州市,市监测站,,9,6,61,3,35,16,16,,,16,46,3,4,0.9,0.8
2025-12-25T0500,1353A,113.5618,23.312,广州市,九龙镇镇龙,,9,6,52,3,31,14,14,,,18,29,6,7,0.8,0.7
2025-12-25T0500,1354A,113.2765,23.1544,广州市,麓湖,,11,6,52,3,35,14,14,,,21,41,8,8,0.6,0.5
2025-12-25T0500,1355A,113.443,23.3035,广州市,帽峰山森林公园,,,,,,,,,,,,,,,,
2025-12-25T0500,2846A,113.3221,23.1322,广州市,体育西,,10,6,58,3,35,12,12,,,19,41,4,6,0.7,0.7
2025-12-25T0500,3298A,113.5717,23.5491,广州市,从化街口,,8,6,45,3,34,14,14,,,14,24,7,10,0.8,0.8
2025-12-25T0500,3299A,113.3472,23.3692,广州市,白云竹料,,8,6,48,3,30,19,19,,,15,27,3,4,0.8,0.7
2025-12-25T0500,3300A,113.2981,23.237,广州市,白云嘉禾,,9,6,62,3,35,15,15,,,18,39,4,6,0.8,0.9
2025-12-25T0500,3301A,113.4256,23.1716,广州市,黄埔科学城,,11,6,54,3,35,17,17,,,16,36,7,7,1.1,1
2025-12-25T0500,3302A,113.3942,23.0483,广州市,番禺大学城,,26,26,84,3,38,16,16,,,17,47,8,13,0.8,0.8
2025-12-25T0500,3303A,113.4922,22.8168,广州市,南沙黄阁,,28,28,63,9,33,21,21,,,23,49,6,9,1.1,1.1
2025-12-25T0500,3304A,113.5342,22.7896,广州市,南沙街,,39,39,58,10,31,19,19,,,20,44,6,7,0.8,0.6
2025-12-25T0500,3443A,113.2902,23.5544,广州市,花都梯面,,8,6,38,3,25,18,18,,,14,22,4,8,0.8,0.7
2025-12-25T0500,3445A,113.7858,23.7478,广州市,从化良口,,9,6,33,3,26,12,12,,,16,16,7,9,0.9,0.9
2025-12-25T0500,3446A,113.8051,23.2614,广州市,增城荔城,,10,10,45,7,36,23,23,,,14,24,5,7,0.8,0.7
2025-12-25T0500,2505A,109.568,23.1478,贵港市,德智高中,,,,,,,,,,,,,,,,
2025-12-25T0500,2506A,109.6047,23.0666,贵港市,江南子站,,19,19,9,3,3,41,41,,,9,13,4,4,0.6,0.8
2025-12-25T0500,2508A,109.5669,23.1065,贵港市,荷城子站,,20,17,6,14,2,39,39,,,9,12,3,3,0.9,1
2025-12-25T0500,3405A,109.5886,23.1172,贵港市,新世纪学校,,17,17,7,10,6,40,40,,,12,14,1,2,0.6,0.8
2025-12-25T0500,4260A,109.5933,23.0951,贵港市,中山路155-3号,,33,33,8,6,9,44,44,,,10,13,3,2,0.6,0.7
2025-12-25T0500,1439A,106.6899,26.5998,贵阳市,马鞍山,,36,36,24,24,16,33,33,,,8,12,3,5,0.5,0.6
2025-12-25T0500,1441A,106.6243,26.6266,贵阳市,鉴湖路,,46,46,35,22,14,39,39,,,12,16,2,3,0.7,0.6
2025-12-25T0500,1442A,106.7487,26.6343,贵阳市,燕子冲,细颗粒物(PM2.5),55,51,26,39,22,36,36,,,9,11,6,6,0.6,0.6
2025-12-25T0500,1443A,106.6555,26.4365,贵阳市,碧云窝,,48,48,36,24,15,38,38,,,9,14,5,6,0.3,0.4
2025-12-25T0500,1445A,106.7109,26.6027,贵阳市,红边门,,45,41,29,31,18,37,37,,,7,12,5,7,0.1,0.2
2025-12-25T0500,1446A,106.7164,26.5699,贵阳市,新华路,颗粒物(PM10),51,51,35,34,18,37,37,,,11,13,5,5,0.5,0.5
2025-12-25T0500,1447A,106.674,26.5424,贵阳市,太慈桥,,41,41,30,27,17,37,37,,,12,16,5,3,0.3,0.4
2025-12-25T0500,1552A,106.805,26.3003,贵阳市,桐木岭,颗粒物(PM10),51,51,32,34,19,43,43,,,1,3,4,4,0.9,0.9
2025-12-25T0500,4230A,106.6882,26.5695,贵阳市,花果园大街66号,,29,29,22,19,14,24,24,,,10,15,2,2,0.4,0.5
2025-12-25T0500,4231A,106.6873,26.5169,贵阳市,漓江路57号,,44,44,28,24,16,38,38,,,12,16,5,6,0.6,0.7
2025-12-25T0500,1862A,110.4144,25.3167,桂林市,电子科大尧山校区,,,,,,,,,,,,,,,,
2025-12-25T0500,1864A,110.3089,25.2708,桂林市,龙隐路小学,,33,25,18,23,13,55,55,,,9,12,6,6,0.4,0.5
2025-12-25T0500,1865A,110.2869,25.2178,桂林市,八中,,33,33,17,22,14,53,53,,,11,16,7,6,0.3,0.5
2025-12-25T0500,3531A,110.296,25.1253,桂林市,旅游学院,,42,,11,29,13,58,58,,,8,15,4,3,0.4,0.6
2025-12-25T0500,4222A,110.1835,25.2444,桂林市,环湖路276号,,45,31,16,31,17,47,47,,,7,10,5,5,0.3,0.4
2025-12-25T0500,4301A,110.2803,25.2773,桂林市,信义路13号,,30,29,18,21,14,54,54,,,9,13,4,4,0.4,0.6
2025-12-25T0500,2674A,100.2561,34.4714,果洛藏族自治州,玛沁县大武镇,,38,38,51,3,6,39,39,,,3,4,13,15,0.4,0.4
2025-12-25T0500,1129A,126.5422,45.755,哈尔滨市,岭北,,,,,,,,,,,,,,,,
2025-12-25T0500,1130A,126.561,45.8167,哈尔滨市,松北商大,细颗粒物(PM2.5),120,108,63,91,53,6,6,,,57,48,7,7,1.4,0.9
2025-12-25T0500,1132A,126.599,45.7222,哈尔滨市,南岗学府路,细颗粒物(PM2.5),104,102,72,78,53,3,3,,,51,39,10,10,1.0,0.8
2025-12-25T0500,1133A,126.689,45.7733,哈尔滨市,太平宏伟公园,细颗粒物(PM2.5),114,112,83,86,67,12,12,,,,44,8,14,1.5,1.2
2025-12-25T0500,1134A,126.635,45.7667,哈尔滨市,道外承德广场,细颗粒物(PM2.5),129,127,81,98,51,7,7,,,,44,7,13,1.3,0.9
2025-12-25T0500,1136A,126.6411,45.7258,哈尔滨市,动力和平路,细颗粒物(PM2.5),107,105,71,80,56,5,5,,,55,44,16,14,1.1,0.9
2025-12-25T0500,1137A,126.593,45.7478,哈尔滨市,道里建国路,细颗粒物(PM2.5),124,,68,94,60,6,6,,,52,39,17,9,0.9,0.6
2025-12-25T0500,1138A,126.615,45.61,哈尔滨市,平房东轻厂,细颗粒物(PM2.5),110,108,94,83,76,1,1,,,59,48,12,11,1.5,1.1
2025-12-25T0500,1139A,126.595,45.9855,哈尔滨市,呼兰师专,,,,80,75,81,20,20,,,,37,10,10,1.1,1.1
2025-12-25T0500,1140A,126.6206,45.6842,哈尔滨市,省农科院,细颗粒物(PM2.5),94,88,92,70,78,5,5,,,59,55,17,16,1.0,1
2025-12-25T0500,4282A,126.6769,45.7379,哈尔滨市,华山路1号,细颗粒物(PM2.5),119,114,73,90,55,9,9,,,58,44,50,19,1.3,1.1
2025-12-25T0500,4283A,126.9717,45.5356,哈尔滨市,解放大街52号,细颗粒物(PM2.5),92,87,96,68,88,13,13,,,37,36,8,11,1.1,1.1
2025-12-25T0500,2688A,93.5128,42.8172,哈密市,地区监测站,颗粒物(PM10),52,54,44,24,29,22,22,,,32,36,5,6,1.0,0.5
2025-12-25T0500,2689A,93.4961,42.8328,哈密市,哈密师范学校,,44,44,46,20,21,12,12,,,36,36,9,8,0.7,0.7
2025-12-25T0500,2671A,100.9048,36.9639,海北藏族自治州,海晏县西海镇,细颗粒物(PM2.5),62,51,59,44,44,43,43,,,15,16,12,12,0.8,0.8
2025-12-25T0500,3867A,102.0738,36.5056,海东市,平安区公安北苑,细颗粒物(PM2.5),67,56,72,48,48,36,36,,,7,19,9,20,0.8,0.9
2025-12-25T0500,1409A,110.576,19.9507,海口市,东寨港,,,,,,,,,,,,,,,,
2025-12-25T0500,1410A,110.3232,20.0574,海口市,海南大学,,37,37,36,19,17,93,93,,,8,7,6,5,0.3,0.3
2025-12-25T0500,1411A,110.283,20.0053,海口市,秀英海南医院,,31,31,31,21,16,87,87,,,9,8,7,7,0.3,0.3
2025-12-25T0500,1412A,110.338,19.9969,海口市,海南师范大学,,32,30,32,20,16,100,100,,,7,8,6,5,0.4,0.4
2025-12-25T0500,1413A,110.33,20.0356,海口市,龙华路环保局宿舍,,32,31,33,20,17,100,100,,,7,8,8,7,0.6,0.6
2025-12-25T0500,3539A,110.5111,19.9736,海口市,桂林洋子站,,34,34,36,19,17,100,100,,,7,8,7,7,0.3,0.3
2025-12-25T0500,2673A,100.6188,36.2866,海南藏族自治州,共和县恰卜恰镇,,37,37,47,21,25,45,45,,,7,20,11,12,0.6,0.6
2025-12-25T0500,2676A,97.3731,37.3753,海西蒙古族藏族自治州,德令哈市,,23,17,34,9,13,71,71,,,1,4,14,11,0.2,0.6
2025-12-25T0500,1048A,114.5302,36.6116,邯郸市,东污水处理厂,,50,,85,35,74,22,22,,,36,42,6,7,0.6,1
2025-12-25T0500,1049A,114.4918,36.5713,邯郸市,矿院,,49,41,84,34,78,34,34,,,30,44,5,6,0.5,0.9
2025-12-25T0500,1050A,114.484,36.6133,邯郸市,丛台公园,,46,46,88,31,67,38,38,,,24,37,11,14,0.5,1
2025-12-25T0500,3458A,114.7895,36.5593,邯郸市,香泉濮院小区,颗粒物(PM10),66,81,103,47,80,16,16,,,41,42,5,7,0.8,1
2025-12-25T0500,3579A,114.50634,36.77178,邯郸市,永年区实验高中,颗粒物(PM10),51,51,112,18,60,15,15,,,46,55,4,8,0.6,1.5
2025-12-25T0500,3580A,114.20016,36.44293,邯郸市,峰峰矿区临水派出所,,23,23,62,12,59,50,50,,,11,25,3,10,0.5,1
2025-12-25T0500,2634A,106.9893,33.1842,汉中市,汉川机床厂子校,,,,,,,,,,,,,,,,
2025-12-25T0500,2635A,107.0154,33.0706,汉中市,市监测站,细颗粒物(PM2.5),72,75,78,52,48,5,5,,,31,32,5,9,1.2,1
2025-12-25T0500,2636A,107.0089,33.1138,汉中市,鑫源开发区,细颗粒物(PM2.5),72,76,77,52,49,19,19,,,34,30,6,6,1.0,0.8
2025-12-25T0500,2637A,107.007,33.0323,汉中市,南郑大河坎水厂,细颗粒物(PM2.5),68,55,84,49,48,1,1,,,19,27,4,6,0.9,1
2025-12-25T0500,1223A,120.2072,30.2111,杭州市,滨江,细颗粒物(PM2.5),92,81,34,68,28,19,19,,,27,31,8,8,0.7,0.7
2025-12-25T0500,1224A,120.0633,30.2747,杭州市,西溪,颗粒物(PM10),67,83,36,47,21,20,20,,,30,33,8,8,1.2,1.1
2025-12-25T0500,1226A,120.3417,30.3150,杭州市,下沙,细颗粒物(PM2.5),110,94,57,83,46,14,14,,,32,36,6,6,1.0,1
2025-12-25T0500,1227A,120.1269,30.2456,杭州市,卧龙桥,,,90,34,54,23,18,18,,,,28,9,8,0.8,0.7
2025-12-25T0500,1228A,120.1903,30.2692,杭州市,浙江农大,细颗粒物(PM2.5),133,,36,101,36,16,16,,,35,38,2,2,0.7,0.7
2025-12-25T0500,1230A,120.1197,30.3119,杭州市,和睦小学,颗粒物(PM10),80,109,44,54,25,10,10,,,30,34,4,4,0.8,0.8
2025-12-25T0500,1231A,120.3019,30.4183,杭州市,临平镇,细颗粒物(PM2.5),109,90,51,82,51,15,15,,,22,26,6,6,1.1,1
2025-12-25T0500,1232A,120.2753,30.1839,杭州市,城厢镇,细颗粒物(PM2.5),92,68,38,68,32,22,22,,,23,28,8,7,0.9,0.9
2025-12-25T0500,1233A,120.0883,30.1808,杭州市,云栖,细颗粒物(PM2.5),87,,26,64,23,20,20,,,24,26,4,4,1.0,0.9
2025-12-25T0500,3557A,119.9464,30.0494,杭州市,镇二中,细颗粒物(PM2.5),65,57,16,47,14,34,34,,,22,29,5,4,1.0,1
2025-12-25T0500,3558A,119.7183,30.2367,杭州市,市府大楼,细颗粒物(PM2.5),65,68,25,47,14,30,30,,,15,21,9,9,0.7,0.8
2025-12-25T0500,3656A,120.1556,30.2864,杭州市,消防大队,细颗粒物(PM2.5),132,,61,100,46,19,19,,,28,31,5,5,0.8,0.9
2025-12-25T0500,1270A,117.1959,31.7848,合肥市,明珠广场,细颗粒物(PM2.5),98,92,89,73,65,17,17,,,30,29,6,6,0.9,1
2025-12-25T0500,1271A,117.3072,31.8764,合肥市,三里街,细颗粒物(PM2.5),92,95,87,68,62,14,14,,,33,29,5,5,0.8,0.8
2025-12-25T0500,1272A,117.2588,31.8707,合肥市,琥珀山庄,细颗粒物(PM2.5),92,88,92,68,63,14,14,,,33,29,7,8,0.9,1
2025-12-25T0500,1273A,117.1604,31.9052,合肥市,董铺水库,,,,,,,,,,,,,,,,
2025-12-25T0500,1274A,117.25,31.8571,合肥市,长江中路,细颗粒物(PM2.5),92,88,90,68,66,12,12,,,32,27,7,7,0.8,0.8
2025-12-25T0500,1275A,117.266,31.9436,合肥市,庐阳区,细颗粒物(PM2.5),83,95,91,61,60,16,16,,,28,29,8,9,0.8,0.8
2025-12-25T0500,1276A,117.3453,31.8616,合肥市,瑶海区,细颗粒物(PM2.5),92,92,91,68,64,23,23,,,31,33,5,5,0.6,0.7
2025-12-25T0500,1277A,117.3027,31.7964,合肥市,包河区,细颗粒物(PM2.5),89,90,87,66,65,18,18,,,39,39,6,7,0.8,0.9
2025-12-25T0500,1278A,117.2776,31.7385,合肥市,滨湖新区,细颗粒物(PM2.5),100,90,91,75,70,21,21,,,36,35,4,5,0.9,0.9
2025-12-25T0500,1279A,117.1318,31.8403,合肥市,高新区,细颗粒物(PM2.5),94,100,86,70,63,17,17,,,38,29,5,5,0.8,0.9
2025-12-25T0500,3464A,117.3803,31.9147,合肥市,高教基地,细颗粒物(PM2.5),89,85,89,66,65,22,22,,,23,24,5,6,0.7,0.8
2025-12-25T0500,3614A,79.924,37.0877,和田地区,地区环保局,细颗粒物(PM2.5),109,119,75,82,43,21,21,,,36,24,1,3,0.3,0.4
2025-12-25T0500,3615A,79.9131,37.113,和田地区,市环保局,颗粒物(PM10),85,120,71,28,29,37,37,,,28,29,3,2,0.9,0.7
2025-12-25T0500,2516A,108.2011,24.715,河池市,东仁乐园,,,,,,,,,,,,,,,,
2025-12-25T0500,2517A,108.0497,24.6947,河池市,市环保站,,18,18,7,10,8,53,53,,,7,10,2,2,0.6,0.8
2025-12-25T0500,2518A,108.0983,24.6989,河池市,市疾控中心,,,,,,,,,,,,,,,,
2025-12-25T0500,1696A,114.6778,23.7569,河源市,源西,,,,,,,,,,,,,,,,
2025-12-25T0500,1697A,114.6944,23.7586,河源市,东埔,,23,,34,16,34,18,18,,,16,21,5,7,0.9,0.8
2025-12-25T0500,1698A,114.6892,23.7233,河源市,老城,,10,8,38,3,24,17,17,,,14,17,5,7,1.0,0.8
2025-12-25T0500,1718A,115.4208,35.2464,菏泽市,气象局,细颗粒物(PM2.5),112,123,102,84,69,22,22,,,46,39,5,4,0.7,0.7
2025-12-25T0500,3374A,115.5564,35.0891,菏泽市,定陶老年大学,细颗粒物(PM2.5),104,97,86,78,64,15,15,,,,43,4,5,0.5,0.6
2025-12-25T0500,4184A,115.4797,35.24401,菏泽市,永昌路1号,细颗粒物(PM2.5),120,123,100,91,75,23,23,,,48,47,9,8,0.9,0.8
2025-12-25T0500,4193A,115.4715,35.2800,菏泽市,长城路999号,细颗粒物(PM2.5),114,135,103,86,72,18,18,,,49,42,4,5,0.9,0.8
2025-12-25T0500,2514A,111.5264,24.4172,贺州市,环保小区,,24,24,9,14,8,46,46,,,13,16,5,4,0.7,0.9
2025-12-25T0500,2515A,111.5608,24.4078,贺州市,政协大楼,,38,,9,26,8,41,41,,,7,12,6,7,0.7,0.8
2025-12-25T0500,3534A,111.4744,24.4553,贺州市,西湾,,26,24,9,18,4,43,43,,,9,10,5,6,0.4,0.7
2025-12-25T0500,2385A,114.17,35.9019,鹤壁市,市监测站,,38,38,77,26,58,39,39,,,16,22,7,7,0.9,0.8
2025-12-25T0500,2386A,114.2956,35.7511,鹤壁市,市交警支队,细颗粒物(PM2.5),79,92,90,58,59,14,14,,,36,39,8,6,1.2,0.8
2025-12-25T0500,2387A,114.2878,35.7306,鹤壁市,迎宾馆,细颗粒物(PM2.5),78,95,87,57,56,23,23,,,26,30,7,8,1.3,0.9
2025-12-25T0500,3474A,114.2617,35.6822,鹤壁市,大新区,颗粒物(PM10),61,71,78,33,54,35,35,,,25,30,10,8,1.1,0.9
2025-12-25T0500,3596A,114.1572,35.9603,鹤壁市,南山宾馆,颗粒物(PM10),51,52,78,24,49,42,42,,,16,18,8,8,1.0,0.6
2025-12-25T0500,2244A,130.2537,47.3416,鹤岗市,哈啤分公司,,32,,30,22,27,50,50,,,5,14,6,8,0.4,0.5
2025-12-25T0500,2245A,130.2684,47.3086,鹤岗市,斯达机电,,33,33,45,22,20,51,51,,,8,18,6,8,0.4,0.5
2025-12-25T0500,2246A,130.3114,47.3388,鹤岗市,东山纸板厂,,36,32,46,25,42,51,51,,,4,29,6,10,0.5,1.2
2025-12-25T0500,2247A,130.1097,47.3382,鹤岗市,五号水库,,,,,,,,,,,,,,,,
2025-12-25T0500,2263A,127.4833,50.2524,黑河市,交通局,,19,13,32,13,26,44,44,,,2,21,4,6,0.3,0.5
2025-12-25T0500,2264A,127.5144,50.2341,黑河市,环保局,,18,14,38,12,30,41,41,,,6,26,4,9,0.3,0.6
2025-12-25T0500,2265A,127.5291,50.2472,黑河市,大黑河岛,,,,,,,,,,,,,,,,
2025-12-25T0500,1074A,115.6838,37.7541,衡水市,电机北厂,,21,21,96,9,67,41,41,,,15,39,7,7,0.2,0.7
2025-12-25T0500,1075A,115.6303,37.7316,衡水市,市监测站,,15,14,90,6,64,45,45,,,12,39,4,6,0.3,0.7
2025-12-25T0500,3188A,115.6683,37.7217,衡水市,市城管局,,32,32,89,19,62,44,44,,,14,39,6,9,0.3,0.7
2025-12-25T0500,3459A,115.5989,37.5491,衡水市,地表水厂,,28,28,89,7,71,32,32,,,20,38,2,6,0.3,0.7
2025-12-25T0500,2456A,112.5003,26.9167,衡阳市,原169医院,,,,,,,,,,,,,,,,
2025-12-25T0500,2457A,112.6194,26.9258,衡阳市,衡阳化工总厂,细颗粒物(PM2.5),64,51,38,46,41,29,29,,,15,17,6,5,0.8,0.9
2025-12-25T0500,2458A,112.6211,26.8956,衡阳市,珠晖区环保局,细颗粒物(PM2.5),68,,40,49,42,27,27,,,15,19,4,3,1.0,1.1
2025-12-25T0500,2459A,112.6197,26.8733,衡阳市,市委党校,细颗粒物(PM2.5),59,46,37,42,35,31,31,,,16,17,5,4,0.9,1
2025-12-25T0500,2460A,112.6006,26.8919,衡阳市,市监测站,细颗粒物(PM2.5),69,62,54,50,41,40,40,,,13,16,6,5,0.6,0.8
2025-12-25T0500,2461A,112.5664,26.9056,衡阳市,真空机电公司,细颗粒物(PM2.5),73,69,50,53,45,38,38,,,12,15,6,6,0.8,0.9
2025-12-25T0500,3399A,112.6703,26.882,衡阳市,师范学院,细颗粒物(PM2.5),60,58,47,43,37,32,32,,,17,18,2,2,0.8,0.9
2025-12-25T0500,2608A,103.3772,23.3993,红河哈尼族彝族自治州,污水处理厂,,36,34,36,25,28,16,16,,,12,12,8,7,0.5,0.3
2025-12-25T0500,2609A,103.3861,23.35,红河哈尼族彝族自治州,监测站,,46,38,35,32,31,22,22,,,9,8,11,9,0.5,0.3
2025-12-25T0500,3038A,103.3758,23.368,红河哈尼族彝族自治州,州图书馆,,39,,24,27,19,20,20,,,9,8,9,6,0.5,0.3
2025-12-25T0500,1090A,111.6507,40.7517,呼和浩特市,呼市一监,,19,19,39,10,15,28,28,,,24,18,4,4,0.3,0.4
2025-12-25T0500,1091A,111.6572,40.8033,呼和浩特市,小召,,13,7,32,3,10,39,39,,,20,22,6,6,0.3,0.4
2025-12-25T0500,1094A,111.7516,40.8369,呼和浩特市,如意水处理厂,,,12,26,3,10,42,42,,,,18,8,8,0.4,0.6
2025-12-25T0500,1095A,111.7276,40.8062,呼和浩特市,二十九中,,15,6,31,3,7,46,46,,,12,17,9,10,0.9,0.9
2025-12-25T0500,1096A,111.5512,40.7866,呼和浩特市,工大金川校区,,,,,,,,,,,,,,,,
2025-12-25T0500,1097A,111.717,40.7612,呼和浩特市,化肥厂生活区,,14,14,36,6,14,34,34,,,21,21,5,6,0.3,0.4
2025-12-25T0500,3698A,111.5968,40.8178,呼和浩特市,红旗小学,,,,,,,,,,,,,,,,
2025-12-25T0500,3699A,111.6518,40.8389,呼和浩特市,海东办,,11,7,18,3,6,34,34,,,22,16,4,4,0.2,0.3
2025-12-25T0500,3061A,119.7512,49.1577,呼伦贝尔市,国华电力东,,29,25,29,20,22,43,43,,,14,22,7,7,0.1,0.2
2025-12-25T0500,4279A,119.7569,49.2222,呼伦贝尔市,伊敏大街东7号,,29,29,27,19,21,37,37,,,3,7,9,7,0.9,0.9
2025-12-25T0500,1250A,120.0751,30.8669,湖州市,城西水厂,颗粒物(PM10),66,81,71,44,39,37,37,,,31,38,9,8,0.6,0.6
2025-12-25T0500,2873A,120.0830,30.8929,湖州市,仁皇山新区,细颗粒物(PM2.5),87,79,71,64,63,37,37,,,27,35,8,8,0.3,0.5
2025-12-25T0500,2907A,120.1844,30.8596,湖州市,吴兴区站,细颗粒物(PM2.5),84,83,76,62,53,26,26,,,27,36,6,6,0.8,0.9
2025-12-25T0500,3562A,120.4148,30.8538,湖州市,南浔区站,细颗粒物(PM2.5),79,76,81,58,58,23,23,,,34,42,6,5,1.0,1
2025-12-25T0500,1607A,120.9049,40.7211,葫芦岛市,龙港区,,15,15,53,3,31,46,46,,,7,28,12,26,0.4,0.8
2025-12-25T0500,1608A,120.8392,40.7514,葫芦岛市,化工街,,15,12,51,3,25,47,47,,,10,34,13,28,0.3,0.6
2025-12-25T0500,1609A,120.8341,40.7073,葫芦岛市,新区,,18,18,38,3,20,48,48,,,8,29,10,14,0.4,0.6
2025-12-25T0500,1610A,120.8695,40.7677,葫芦岛市,东城区,,15,7,42,3,28,47,47,,,8,31,10,23,0.6,0.8
2025-12-25T0500,2482A,109.5981,27.5721,怀化市,林科所,,,,,,,,,,,,,,,,
2025-12-25T0500,2483A,109.9453,27.5444,怀化市,河西地税局,细颗粒物(PM2.5),57,54,50,40,41,29,29,,,15,15,11,6,0.6,0.6
2025-12-25T0500,2484A,109.9781,27.5342,怀化市,市四医院,细颗粒物(PM2.5),59,66,55,42,35,23,23,,,15,12,22,13,0.5,0.5
2025-12-25T0500,2485A,109.9972,27.5578,怀化市,监测楼,颗粒物(PM10),54,57,46,34,30,11,11,,,22,18,7,5,0.2,0.2
2025-12-25T0500,2486A,110.0394,27.583,怀化市,市委党校,细颗粒物(PM2.5),52,47,44,36,34,11,11,,,18,12,10,9,0.1,0.2
2025-12-25T0500,1210A,119.036,33.5981,淮安市,钵池山,细颗粒物(PM2.5),95,107,87,71,64,32,32,,,34,36,9,7,0.6,0.8
2025-12-25T0500,1211A,119.007,33.575,淮安市,北京南路,细颗粒物(PM2.5),99,105,89,74,64,17,17,,,37,32,13,7,0.7,0.8
2025-12-25T0500,1212A,118.989,33.6067,淮安市,市监测站,细颗粒物(PM2.5),117,102,86,88,71,12,12,,,47,40,12,9,0.7,0.8
2025-12-25T0500,1213A,119.135,33.5039,淮安市,楚州区监测站,细颗粒物(PM2.5),94,98,75,70,62,28,28,,,27,31,8,9,0.7,0.9
2025-12-25T0500,3426A,118.8755,33.2894,淮安市,新华书店,细颗粒物(PM2.5),109,110,103,82,76,32,32,,,28,29,13,10,0.9,1
2025-12-25T0500,4206A,119.0288,33.6319,淮安市,承德北路606号,细颗粒物(PM2.5),98,127,101,73,63,20,20,,,42,38,16,8,0.7,0.8
2025-12-25T0500,2282A,116.8004,33.975,淮北市,监测站,细颗粒物(PM2.5),103,91,92,77,61,21,21,,,41,34,9,9,0.9,0.8
2025-12-25T0500,2283A,116.8091,33.9007,淮北市,烈山区政府,细颗粒物(PM2.5),92,82,84,68,66,30,30,,,38,36,10,10,0.6,0.6
2025-12-25T0500,3330A,116.8873,33.9836,淮北市,杜集区检察院,细颗粒物(PM2.5),98,87,92,73,65,3,3,,,51,37,6,6,0.7,0.7
2025-12-25T0500,4017A,116.7923,33.9535,淮北市,市博物馆,细颗粒物(PM2.5),98,99,91,73,61,32,32,,,32,33,11,11,0.5,0.6
2025-12-25T0500,2277A,116.8305,32.7727,淮南市,潘集区政府,细颗粒物(PM2.5),104,89,87,78,67,15,15,,,37,28,5,5,0.7,0.6
2025-12-25T0500,2279A,116.8569,32.5951,淮南市,谢家集区政府,细颗粒物(PM2.5),84,90,83,62,54,12,12,,,39,30,8,9,0.6,0.6
2025-12-25T0500,2280A,116.8281,32.633,淮南市,八公山区政府,细颗粒物(PM2.5),92,91,81,68,57,16,16,,,31,25,6,5,0.6,0.6
2025-12-25T0500,2281A,116.6325,32.6201,淮南市,焦岗湖风景区管理处,,,,,,,,,,,,,,,,
2025-12-25T0500,2894A,117.0566,32.6531,淮南市,经济技术开发区消防队,细颗粒物(PM2.5),100,100,98,75,66,12,12,,,44,34,5,5,0.6,0.6
2025-12-25T0500,3329A,117.0108,32.5893,淮南市,山南新区,细颗粒物(PM2.5),82,102,91,60,52,13,13,,,40,30,2,3,0.6,0.6
2025-12-25T0500,4209A,117.0031,32.6445,淮南市,国庆中路369号,细颗粒物(PM2.5),99,86,81,74,62,0,0,,,50,35,4,5,0.8,0.8
2025-12-25T0500,2446A,114.9028,30.4742,黄冈市,职工中心,细颗粒物(PM2.5),87,83,73,64,54,23,23,,,16,18,7,6,0.7,0.7
2025-12-25T0500,2929A,114.8858,30.4519,黄冈市,红卫路,细颗粒物(PM2.5),92,80,69,68,57,18,18,,,22,19,5,6,0.7,0.7
2025-12-25T0500,3398A,114.9136,30.4445,黄冈市,市林业局,细颗粒物(PM2.5),83,85,69,61,62,25,25,,,18,18,4,4,0.8,0.8
2025-12-25T0500,2672A,102.0199,35.5102,黄南藏族自治州,同仁县隆务镇,,42,42,53,28,33,52,52,,,1,4,8,10,0.3,0.4
2025-12-25T0500,2295A,118.2903,29.6963,黄山市,延安路89号,,22,22,8,14,9,41,41,,,13,21,3,3,0.6,0.7
2025-12-25T0500,2297A,118.1371,30.2756,黄山市,黄山区政府5号楼,细颗粒物(PM2.5),92,107,29,68,25,28,28,,,23,20,5,5,0.6,0.6
2025-12-25T0500,4210A,118.3354,29.7203,黄山市,滨江东路7-2号,,40,34,22,28,15,38,38,,,13,21,3,3,0.6,0.7
2025-12-25T0500,2423A,115.0601,30.2313,黄石市,沈家营,细颗粒物(PM2.5),75,80,78,55,50,16,16,,,1,8,4,5,1.0,1
2025-12-25T0500,2426A,114.8988,30.2019,黄石市,铁山,,,,73,,72,,,13,,,20,,4,,0.5
2025-12-25T0500,2427A,115.0307,30.2092,黄石市,团城山,细颗粒物(PM2.5),88,77,77,65,64,25,25,,,10,16,6,6,0.6,0.8
2025-12-25T0500,3149A,115.0235,30.1578,黄石市,笔架山北路,细颗粒物(PM2.5),78,91,94,57,60,23,23,,,14,22,7,7,0.9,1
2025-12-25T0500,4185A,115.0780,30.21118,黄石市,磁湖东路29号,细颗粒物(PM2.5),88,76,73,65,63,21,21,,,8,16,5,5,0.9,0.9
2025-12-25T0500,1392A,114.4183,23.0528,惠州市,河南岸金山湖子站,,30,30,54,18,35,30,30,,,13,31,4,4,0.7,0.7
2025-12-25T0500,1393A,114.4053,23.0822,惠州市,下埔横江三路子站,,30,30,59,18,36,30,30,,,11,34,6,7,0.8,0.9
2025-12-25T0500,1394A,114.4103,23.1142,惠州市,江北云山西路子站,,,,,,,,,,,,,,,,
2025-12-25T0500,1395A,114.4645,22.7833,惠州市,惠阳区承修路船湖子站,,49,49,48,30,28,41,41,,,11,25,7,7,0.8,0.7
2025-12-25T0500,1396A,114.5317,22.7422,惠州市,大亚湾管委会子站,,47,47,50,27,25,47,47,,,9,29,6,6,0.7,0.6
2025-12-25T0500,3314A,114.4338,22.8134,惠州市,惠阳秋长,,46,46,57,28,31,40,40,,,13,35,14,15,0.7,0.6
2025-12-25T0500,3452A,114.6517,22.775,惠州市,大亚湾霞涌,颗粒物(PM10),59,68,38,39,25,41,41,,,12,24,4,4,0.8,0.6
2025-12-25T0500,2240A,130.9762,45.3001,鸡西市,环保局,,33,33,31,23,24,49,49,,,8,14,6,7,0.1,0.2
2025-12-25T0500,2243A,130.9429,45.3039,鸡西市,第一中学,,43,38,27,30,21,46,46,,,12,11,4,4,0.4,0.4
2025-12-25T0500,3707A,131.0207,45.3073,鸡西市,欧美日汽修厂,,49,35,52,34,40,26,26,,,27,26,8,12,0.5,0.5
2025-12-25T0500,3709A,130.9967,45.3106,鸡西市,市政设施管理处,,41,41,37,24,28,19,19,,,35,27,9,9,0.2,0.4
2025-12-25T0500,2367A,114.9754,27.0803,吉安市,红声器材厂,,26,26,20,12,11,17,17,,,24,24,4,5,0.9,1
2025-12-25T0500,2368A,114.9658,27.0999,吉安市,市森林工业局,,23,23,20,14,13,2,2,,,26,25,8,9,0.7,0.7
2025-12-25T0500,2369A,114.99,27.1312,吉安市,市环境监测站,,22,22,20,11,12,14,14,,,19,22,10,10,0.7,0.7
2025-12-25T0500,2370A,115.0093,27.0968,吉安市,青原区法院,,20,20,20,9,12,20,20,,,18,23,8,9,0.8,0.9
2025-12-25T0500,1772A,126.54,43.8622,吉林市,哈达湾,,32,32,52,21,34,43,43,,,11,28,7,8,0.7,1
2025-12-25T0500,1773A,126.5844,43.8358,吉林市,东局子,,39,39,59,16,46,39,39,,,14,37,3,8,0.6,1.2
2025-12-25T0500,1774A,126.5052,43.8245,吉林市,电力学院,,32,26,94,22,64,43,43,,,12,36,9,11,0.6,1.2
2025-12-25T0500,1775A,126.6133,43.8972,吉林市,江北,,21,21,83,14,56,44,44,,,11,36,6,8,0.8,1.3
2025-12-25T0500,1776A,126.555,43.8306,吉林市,江南公园,,33,,55,23,46,41,41,,,13,35,7,9,0.8,1.1
2025-12-25T0500,1778A,126.7061,43.7133,吉林市,丰满,细颗粒物(PM2.5),52,36,43,36,34,34,34,,,16,14,7,7,0.7,0.7
2025-12-25T0500,2868A,126.4739,43.953,吉林市,九站,,,,72,30,59,36,36,,,19,39,,7,0.8,1.2
2025-12-25T0500,1299A,116.9862,36.6114,济南市,科干所,,24,24,69,10,43,37,37,,,20,43,3,8,0.5,1
2025-12-25T0500,1300A,116.9376,36.665,济南市,农科所,,27,27,82,3,52,32,32,,,22,48,3,4,0.6,1
2025-12-25T0500,1301A,117.1265,36.6734,济南市,开发区,,22,22,74,10,53,36,36,,,25,46,2,4,0.5,0.9
2025-12-25T0500,1303A,117.0624,36.6868,济南市,省种子仓库,,31,31,96,9,61,38,38,,,26,49,4,7,0.4,1
2025-12-25T0500,1304A,116.9489,36.6447,济南市,机床二厂,,22,22,90,7,64,31,31,,,20,41,5,22,0.4,1
2025-12-25T0500,1305A,117.0495,36.663,济南市,市监测站,,27,27,73,7,49,33,33,,,21,40,5,5,0.4,0.9
2025-12-25T0500,1306A,116.7675,36.5484,济南市,长清党校,,24,24,82,3,61,35,35,,,23,38,5,5,0.5,0.8
2025-12-25T0500,1616A,117.6795,36.229,济南市,技术学院,,15,12,70,7,50,45,45,,,19,44,3,6,0.3,1
2025-12-25T0500,1961A,117.532,36.6868,济南市,东山小学,,29,29,81,10,51,36,36,,,23,46,4,4,0.7,0.9
2025-12-25T0500,3059A,117.7161,36.2049,济南市,泰兴公司,,18,17,88,3,63,55,55,,,15,47,3,6,0.3,1
2025-12-25T0500,3064A,117.6867,36.2171,济南市,莱芜战役纪念馆,,19,19,84,8,62,52,52,,,16,41,5,9,0,0.7
2025-12-25T0500,3494A,117.1673,36.9782,济南市,济阳区政府,,29,29,74,3,53,31,31,,,29,47,4,6,0.3,0.7
2025-12-25T0500,3495A,117.1171,36.63,济南市,锦屏中学,,17,17,53,3,36,43,43,,,20,34,2,3,0.5,0.8
2025-12-25T0500,3682A,116.9814,36.6819,济南市,济南四建,,24,24,78,10,55,28,28,,,23,42,4,8,0.7,1.2
2025-12-25T0500,1653A,116.6251,35.4302,济宁市,火炬城,细颗粒物(PM2.5),122,97,74,92,63,8,8,,,49,33,5,6,0.7,0.6
2025-12-25T0500,1655A,116.5491,35.4042,济宁市,电化厂,细颗粒物(PM2.5),117,144,112,88,69,7,7,,,62,49,9,9,0.7,0.6
2025-12-25T0500,3500A,116.5814,35.3707,济宁市,北湖一中,细颗粒物(PM2.5),124,97,65,94,63,9,9,,,51,36,7,7,0.9,0.7
2025-12-25T0500,3501A,116.8249,35.5593,济宁市,服务中心,细颗粒物(PM2.5),103,115,92,77,57,2,2,,,54,47,14,11,1.0,0.9
2025-12-25T0500,3678A,116.5907,35.4054,济宁市,市第七中学,细颗粒物(PM2.5),110,95,74,83,55,11,11,,,51,36,,10,0.8,0.7
2025-12-25T0500,2255A,130.2751,46.8028,佳木斯市,佳纺,,38,30,47,26,38,27,27,,,25,20,12,6,0.3,0.4
2025-12-25T0500,2257A,130.3258,46.7975,佳木斯市,环保局,,33,26,41,23,34,36,36,,,20,24,1,3,0.7,0.7
2025-12-25T0500,2259A,130.3794,46.7588,佳木斯市,四丰,,,,,,,,,,,,,,,,
2025-12-25T0500,4285A,130.363,46.806,佳木斯市,顺和街,,30,26,34,21,31,34,34,,,18,19,9,6,0.6,0.6
2025-12-25T0500,4286A,130.3952,46.8268,佳木斯市,长安路196号,,30,26,37,21,30,43,43,,,11,20,4,6,0.3,0.4
2025-12-25T0500,1252A,120.7436,30.778,嘉兴市,清河小学,细颗粒物(PM2.5),65,67,68,47,57,29,29,,,24,41,6,5,0.7,0.7
2025-12-25T0500,1253A,120.726,30.7478,嘉兴市,嘉兴学院,,,68,81,49,56,29,29,,,,43,7,6,0.8,0.9
2025-12-25T0500,2872A,120.7846,30.7525,嘉兴市,南湖区残联,细颗粒物(PM2.5),70,60,59,51,55,35,35,,,22,38,4,3,0.5,0.7
2025-12-25T0500,3407A,120.6916,30.7739,嘉兴市,秀洲住建,细颗粒物(PM2.5),74,72,74,54,66,33,33,,,21,36,6,6,0.6,0.8
2025-12-25T0500,1945A,98.2908,39.7711,嘉峪关市,气象局,,48,48,47,27,24,58,58,,,16,31,21,12,0.6,0.7
2025-12-25T0500,2884A,98.2672,39.7978,嘉峪关市,酒钢宾馆,颗粒物(PM10),51,51,61,27,27,47,47,,,18,23,20,23,0.6,0.8
2025-12-25T0500,3248A,98.2643,39.7724,嘉峪关市,雄关区,,45,45,42,29,28,55,55,,,20,34,40,18,0.6,0.7
2025-12-25T0500,1383A,113.1064,22.6058,江门市,北街,,26,26,63,6,36,20,20,,,17,42,7,10,0.7,0.7
2025-12-25T0500,1384A,113.0731,22.5835,江门市,西区,,12,12,61,3,32,21,21,,,22,44,6,9,0.6,0.6
2025-12-25T0500,1385A,113.0219,22.5311,江门市,圭峰西,,22,22,55,7,36,26,26,,,13,34,6,7,0.8,0.7
2025-12-25T0500,1386A,113.0828,22.5947,江门市,东湖,,26,,60,18,36,22,22,,,22,43,6,8,0.6,0.6
2025-12-25T0500,3311A,113.1075,22.5647,江门市,江海富民,,35,35,72,16,37,22,22,,,17,44,6,8,0.8,0.7
2025-12-25T0500,3449A,113.05,22.4667,江门市,新会银湖,,22,22,56,10,30,24,24,,,14,30,6,7,0.6,0.5
2025-12-25T0500,1830A,113.1992,35.2590,焦作市,影视城,,,,114,,45,,,40,,,26,,3,,0.8
2025-12-25T0500,3335A,113.3137,35.2641,焦作市,马村街道办,细颗粒物(PM2.5),110,150,126,83,67,15,15,,,32,26,7,8,0.9,0.9
2025-12-25T0500,3336A,113.2465,35.2373,焦作市,焦作技师学院,细颗粒物(PM2.5),98,116,123,73,57,16,16,,,33,31,10,10,0.9,0.9
2025-12-25T0500,3477A,113.1656,35.2539,焦作市,中站许衡医院,,34,34,106,20,49,49,49,,,12,25,6,8,0.6,0.9
2025-12-25T0500,3981A,113.2449,35.1803,焦作市,原李万街道办,细颗粒物(PM2.5),119,170,130,90,57,22,22,,,28,26,13,8,1.2,0.8
2025-12-25T0500,4264A,113.2340,35.2190,焦作市,新安路1731号,颗粒物(PM10),92,134,124,63,60,24,24,,,25,27,15,9,0.9,1
2025-12-25T0500,4295A,113.2722,35.2121,焦作市,人民路3066号,颗粒物(PM10),101,152,137,71,56,14,14,,,33,27,16,7,1.1,0.7
2025-12-25T0500,1708A,116.3701,23.5345,揭阳市,新兴,细颗粒物(PM2.5),52,46,58,36,41,32,32,,,13,32,6,12,0.7,0.7
2025-12-25T0500,1709A,116.3264,23.5443,揭阳市,西马,,50,50,62,25,33,33,33,,,11,27,4,8,0.7,0.7
2025-12-25T0500,1710A,116.3611,23.5626,揭阳市,东兴,,48,48,61,27,35,30,30,,,14,28,7,14,0.8,0.8
2025-12-25T0500,1711A,116.4151,23.5294,揭阳市,渔湖,,40,37,57,28,25,32,32,,,14,29,3,9,0.8,0.8
2025-12-25T0500,3320A,116.403,23.5699,揭阳市,曲溪,,42,42,58,23,30,34,34,,,13,26,1,12,0.6,0.7
2025-12-25T0500,1944A,102.1692,38.5167,金昌市,天庆家园,颗粒物(PM10),58,66,60,28,28,46,46,,,16,18,5,10,0.8,0.7
2025-12-25T0500,4022A,102.1647,38.5371,金昌市,金川区人防中心,颗粒物(PM10),52,54,58,26,29,38,38,,,15,14,10,9,0.6,0.6
2025-12-25T0500,4239A,102.1930,38.5319,金昌市,长春路96号,颗粒物(PM10),56,61,59,25,24,42,42,,,15,15,12,15,0.8,0.6
2025-12-25T0500,1262A,119.647,29.077,金华市,十五中,,13,9,19,9,15,28,28,,,22,39,3,3,0.6,1
2025-12-25T0500,1263A,119.686,29.1029,金华市,监测站,,10,9,20,7,12,17,17,,,20,34,2,3,0.6,0.6
2025-12-25T0500,3659A,119.656,29.1131,金华市,气象局,,12,6,17,6,11,24,24,,,23,38,2,2,1.1,1
2025-12-25T0500,1767A,121.1115,41.0879,锦州市,南山,,20,6,39,3,28,62,62,,,2,26,7,13,0.4,0.7
2025-12-25T0500,1768A,121.0604,40.8428,锦州市,开发区,,17,13,58,11,27,52,52,,,5,29,10,18,0.5,0.9
2025-12-25T0500,1769A,121.1836,41.1119,锦州市,百股街道,,17,8,46,3,32,53,53,,,5,28,6,13,0.5,0.9
2025-12-25T0500,1770A,121.1178,41.1222,锦州市,天安街道,,20,13,41,3,26,61,61,,,5,26,8,16,0.3,0.7
2025-12-25T0500,1771A,121.1303,41.1386,锦州市,北湖公园,,17,10,40,3,24,54,54,,,3,22,6,14,0.3,0.6
2025-12-25T0500,2160A,112.85,35.5051,晋城市,自来水公司,,43,43,92,12,26,43,43,,,17,21,6,8,0.7,1
2025-12-25T0500,2161A,112.8318,35.4936,晋城市,白云商贸,颗粒物(PM10),52,53,103,3,14,40,40,,,10,15,3,5,0.5,0.7
2025-12-25T0500,2162A,112.8508,35.4887,晋城市,市环保局,颗粒物(PM10),52,53,103,9,23,40,40,,,9,15,5,7,0.5,0.8
2025-12-25T0500,2163A,112.8676,35.4897,晋城市,技术学院,,44,44,101,9,22,36,36,,,22,26,7,9,0.7,0.9
2025-12-25T0500,2165A,112.8453,35.546,晋城市,白马寺,,36,36,85,22,31,56,56,,,11,15,10,10,0.5,0.7
2025-12-25T0500,3620A,112.8271,35.4828,晋城市,泽州一中,,43,43,100,3,18,49,49,,,16,20,4,5,0.4,0.6
2025-12-25T0500,2173A,112.7249,37.7067,晋中市,南都小区,,,33,85,8,29,54,54,,,,25,7,16,0.3,0.6
2025-12-25T0500,2174A,112.6991,37.6982,晋中市,榆次区政府,,27,27,87,10,32,59,59,,,14,30,11,16,0.4,0.7
2025-12-25T0500,2865A,112.7195,37.6828,晋中市,榆次三中,,,22,78,3,19,61,61,,,,23,7,13,0.3,0.7
2025-12-25T0500,4200A,112.7478,37.6954,晋中市,迎宾街26号,,22,22,81,7,22,56,56,,,12,27,8,15,0.3,0.5
2025-12-25T0500,2439A,112.2014,31.0481,荆门市,竹园小学,颗粒物(PM10),79,108,98,49,46,6,6,,,42,29,2,2,0.3,0.1
2025-12-25T0500,2440A,112.1969,30.9891,荆门市,掇刀,颗粒物(PM10),84,117,99,50,48,47,47,,,16,20,2,4,0.5,0.6
2025-12-25T0500,2441A,112.2213,31.0386,荆门市,石化一小,颗粒物(PM10),87,123,116,55,54,11,11,,,38,36,8,9,0.1,0.1
2025-12-25T0500,3012A,112.1849,31.0362,荆门市,西山林语,颗粒物(PM10),71,92,92,40,40,30,30,,,16,22,5,5,0.6,0.6
2025-12-25T0500,3547A,112.1632,31.0138,荆门市,龙泉中学南校,颗粒物(PM10),84,118,96,37,44,58,58,,,14,17,10,8,0.4,0.5
2025-12-25T0500,1844A,112.2494,30.3197,荆州市,市图书馆,细颗粒物(PM2.5),75,80,70,55,53,26,26,,,32,28,10,8,0.7,0.6
2025-12-25T0500,1845A,112.2008,30.3544,荆州市,市委党校,细颗粒物(PM2.5),77,79,80,56,51,26,26,,,26,31,4,5,0.7,0.8
2025-12-25T0500,3194A,112.2747,30.3122,荆州市,管委会,细颗粒物(PM2.5),72,85,70,52,54,13,13,,,40,29,7,6,0.9,0.8
2025-12-25T0500,4268A,112.1722,30.3366,荆州市,学苑路85号,细颗粒物(PM2.5),70,80,70,51,46,23,23,,,26,29,5,6,0.9,0.9
2025-12-25T0500,2342A,117.3102,29.3867,景德镇市,王港中学,,,,,,,,,,,,,,,,
2025-12-25T0500,2343A,117.2117,29.2933,景德镇市,老干部活动中心,,25,18,8,17,8,32,32,,,7,14,6,6,0.5,0.7
2025-12-25T0500,2344A,117.1894,29.2789,景德镇市,兽医站,,16,16,14,11,6,36,36,,,11,16,6,6,0.4,0.5
2025-12-25T0500,2346A,117.2461,29.2956,景德镇市,陶研所,,26,,6,18,8,32,32,,,9,17,5,4,0.6,0.7
2025-12-25T0500,4289A,117.1542,29.2566,景德镇市,青少年活动中心,,18,12,6,12,8,35,35,,,13,19,3,3,0.5,0.6
2025-12-25T0500,1803A,115.9872,29.6815,九江市,十里,细颗粒物(PM2.5),54,49,38,38,33,38,38,,,17,21,4,4,0.5,0.5
2025-12-25T0500,1804A,115.9584,29.7046,九江市,茅山头,颗粒物(PM10),54,58,45,35,38,33,33,,,13,14,4,4,0.7,0.7
2025-12-25T0500,1805A,115.9877,29.7295,九江市,西园,颗粒物(PM10),54,57,43,37,31,34,34,,,27,27,3,3,0.6,0.6
2025-12-25T0500,1808A,115.9114,29.6038,九江市,综合工业园,细颗粒物(PM2.5),65,55,38,47,38,41,41,,,17,18,3,3,0.9,0.9
2025-12-25T0500,1809A,116.0721,29.7535,九江市,石化总厂,细颗粒物(PM2.5),78,65,46,57,40,32,32,,,24,18,6,6,0.5,0.6
2025-12-25T0500,1810A,115.9773,29.5698,九江市,庐山气象台,,,,,,,,,,,,,,,,
2025-12-25T0500,3190A,116.0254,29.6994,九江市,外国语学校,细颗粒物(PM2.5),52,40,32,36,32,32,32,,,25,25,7,7,0.6,0.6
2025-12-25T0500,4253A,116.0102,29.6594,九江市,莲花大道8号,细颗粒物(PM2.5),60,51,39,43,37,31,31,,,19,22,3,3,0.4,0.5
2025-12-25T0500,4240A,98.4958,39.7339,酒泉市,玉门东路5号,,41,41,46,22,25,40,40,,,12,17,10,10,0.6,0.5
2025-12-25T0500,4241A,98.5099,39.7506,酒泉市,北大街108号,颗粒物(PM10),54,58,54,25,23,41,41,,,24,23,10,10,0.8,0.6
2025-12-25T0500,2698A,76.0072,39.4467,喀什地区,巡警大队,细颗粒物(PM2.5),58,64,97,41,54,49,49,,,22,29,3,3,0.8,1
2025-12-25T0500,2699A,75.9755,39.4694,喀什地区,吾办,细颗粒物(PM2.5),65,73,113,47,68,51,51,,,16,28,4,3,0.9,1.3
2025-12-25T0500,4027A,75.9483,39.4689,喀什地区,老干局,颗粒物(PM10),59,68,105,37,56,50,50,,,12,22,1,2,1.0,1.1
2025-12-25T0500,1824A,114.3389,34.7781,开封市,肿瘤医院,细颗粒物(PM2.5),104,126,115,78,66,18,18,,,38,41,4,5,1.1,0.9
2025-12-25T0500,1826A,114.2885,34.7965,开封市,世纪星幼儿园,细颗粒物(PM2.5),123,113,121,93,79,23,23,,,35,44,4,4,0.6,0.8
2025-12-25T0500,3147A,114.3438,34.8106,开封市,龙亭公园,细颗粒物(PM2.5),127,123,120,96,77,16,16,,,45,46,4,4,0.9,0.9
2025-12-25T0500,3210A,114.3644,34.7964,开封市,汴京公园,细颗粒物(PM2.5),119,158,132,90,71,15,15,,,45,46,4,6,0.8,0.8
2025-12-25T0500,3473A,114.2485,34.8306,开封市,技师学院,细颗粒物(PM2.5),128,142,139,97,83,3,3,,,59,50,6,6,0.8,0.8
2025-12-25T0500,3592A,114.4644,34.7556,开封市,祥符区生态环境局,细颗粒物(PM2.5),118,148,119,89,75,19,19,,,47,50,6,5,0.6,0.6
2025-12-25T0500,1951A,84.895,45.6094,克拉玛依市,长征新村,颗粒物(PM10),55,59,69,35,53,40,40,,,30,36,5,5,0.6,0.7
2025-12-25T0500,1952A,84.8988,45.5893,克拉玛依市,南林小区,细颗粒物(PM2.5),63,68,72,45,42,29,29,,,17,24,3,6,1.1,1.2
2025-12-25T0500,1954A,84.905,44.3396,克拉玛依市,独山子区,细颗粒物(PM2.5),69,,47,50,31,49,49,,,14,28,5,5,0.5,0.6
2025-12-25T0500,1955A,85.6979,46.098,克拉玛依市,乌尔禾区商贸楼,细颗粒物(PM2.5),85,,42,63,45,32,32,,,24,18,5,4,0.8,0.7
2025-12-25T0500,3612A,85.1045,45.6899,克拉玛依市,白碱滩区新站,细颗粒物(PM2.5),88,92,92,65,60,13,13,,,37,38,6,7,0.8,0.8
2025-12-25T0500,2697A,76.1454,39.7142,克孜勒苏柯尔克孜自治州,市人民政府,颗粒物(PM10),71,91,96,45,50,52,52,,,14,16,5,5,0.6,0.5
2025-12-25T0500,3665A,76.1658,39.7157,克孜勒苏柯尔克孜自治州,克州文化中心,颗粒物(PM10),72,94,97,41,52,55,55,,,12,20,8,8,0.7,0.9
2025-12-25T0500,1450A,102.8204,24.8886,昆明市,呈贡新区,细颗粒物(PM2.5),52,46,35,36,23,21,21,,,14,17,4,3,0.8,0.5
2025-12-25T0500,1451A,102.6251,24.9608,昆明市,西山森林公园,,,,,,,,,,,,,,,,
2025-12-25T0500,1452A,102.7252,25.0902,昆明市,龙泉镇,,40,34,35,28,22,36,36,,,9,20,2,3,0.5,0.5
2025-12-25T0500,1453A,102.7266,25.0375,昆明市,东风东路,,48,41,34,33,24,34,34,,,17,25,3,4,0.5,0.5
2025-12-25T0500,1454A,102.6742,25.0669,昆明市,金鼎山,,48,,34,33,21,41,41,,,6,19,2,3,0.4,0.5
2025-12-25T0500,1455A,102.6644,25.0401,昆明市,碧鸡广场,,48,48,41,31,24,36,36,,,10,25,3,4,0.5,0.5
2025-12-25T0500,3179A,102.7494,25.0119,昆明市,官渡区博物馆,,50,50,31,26,18,33,33,,,14,19,2,3,0.4,0.4
2025-12-25T0500,3375A,102.8017,24.8336,昆明市,青年创业园,细颗粒物(PM2.5),52,45,31,36,28,21,21,,,9,8,2,3,0.7,0.5
2025-12-25T0500,3550A,102.7997,24.9786,昆明市,昆明学院,,49,49,35,32,21,32,32,,,11,15,1,2,0.5,0.4
2025-12-25T0500,3551A,102.5967,24.6736,昆明市,晋宁区生态环境分局,细颗粒物(PM2.5),62,62,38,44,22,20,20,,,16,17,2,2,0.6,0.5
2025-12-25T0500,3552A,102.6678,24.9856,昆明市,云天化总部,,49,47,29,34,21,30,30,,,14,16,5,6,0.5,0.3
2025-12-25T0500,1456A,91.1319,29.6514,拉萨市,八廓街,,17,15,28,6,19,54,54,,,12,21,15,13,0.4,0.6
2025-12-25T0500,1457A,91.1221,29.6747,拉萨市,市环保局,,39,39,47,23,32,33,33,,,20,27,8,7,0.8,1
2025-12-25T0500,1458A,91.0874,29.6475,拉萨市,区监测站,,18,18,25,7,16,42,42,,,21,34,13,8,0.8,0.9
2025-12-25T0500,1459A,91.1774,29.6541,拉萨市,西藏大学,,17,17,20,11,10,52,52,,,12,19,14,11,0.6,0.7
2025-12-25T0500,1460A,90.9798,29.6588,拉萨市,区辐射站,,14,14,52,6,31,33,33,,,26,39,4,6,0.6,0.8
2025-12-25T0500,1461A,91.0834,29.6292,拉萨市,拉萨火车站,,24,24,26,16,17,23,23,,,36,41,7,7,1.1,1
2025-12-25T0500,2520A,109.2203,23.7256,来宾市,来宾技工学校,,13,13,7,3,2,40,40,,,4,7,5,5,0.5,0.7
2025-12-25T0500,3535A,109.1781,23.7297,来宾市,兴宾区政府,,20,15,8,14,4,42,42,,,8,9,4,4,0.7,0.9
2025-12-25T0500,4002A,109.2416,23.7461,来宾市,中南小学,,22,17,9,15,4,40,40,,,5,8,2,3,0.5,0.6
2025-12-25T0500,1477A,104.1373,35.9454,兰州市,榆中兰大校区,,,,,,,,,,,,,,,,
2025-12-25T0500,1479A,103.831,36.0464,兰州市,铁路设计院,,,,,,,,,,,,,,,,
2025-12-25T0500,3241A,103.7439,36.0842,兰州市,百合公园,,43,43,54,23,30,10,10,,,45,39,8,11,0.7,0.8
2025-12-25T0500,3242A,103.9611,35.998,兰州市,和平,,33,33,48,23,28,24,24,,,25,18,4,8,1.0,0.8
2025-12-25T0500,4236A,103.6293,36.0938,兰州市,庄浪东路808号,,48,46,62,33,36,23,23,,,33,32,9,12,0.7,0.6
2025-12-25T0500,4237A,103.7251,36.1043,兰州市,安宁西路88号,颗粒物(PM10),53,55,63,28,32,16,16,,,50,32,4,9,0.4,0.6
2025-12-25T0500,4238A,103.8470,36.0676,兰州市,北滨河东路1号,颗粒物(PM10),53,55,56,29,33,7,7,,,58,46,7,11,0.9,0.9
2025-12-25T0500,3245A,103.6633,36.533,兰州新区,新区管委会,,46,46,56,24,30,28,28,,,19,18,8,16,0.6,0.5
2025-12-25T0500,3246A,103.6975,36.4789,兰州新区,舟曲中学,颗粒物(PM10),64,77,53,39,24,22,22,,,40,24,5,12,0.6,0.4
2025-12-25T0500,1067A,116.6708,39.5111,廊坊市,药材公司,,17,9,27,3,12,53,53,,,5,21,2,2,0.3,0.5
2025-12-25T0500,1068A,116.7214,39.5589,廊坊市,开发区,,17,6,26,3,9,53,53,,,7,23,3,3,0.2,0.3
2025-12-25T0500,1070A,116.7244,39.5269,廊坊市,北华航天学院,,17,11,31,3,9,53,53,,,7,24,2,2,0.2,0.4
2025-12-25T0500,2919A,116.7022,39.5453,廊坊市,河北工业大学,,16,11,28,3,11,50,50,,,9,26,2,2,0.2,0.4
2025-12-25T0500,2535A,103.7723,29.5462,乐山市,花湖湾,,,,,,,,,,,,,,,,
2025-12-25T0500,2536A,103.7627,29.5844,乐山市,牛耳桥,细颗粒物(PM2.5),87,95,90,64,53,2,2,,,32,39,8,8,0.8,0.8
2025-12-25T0500,2537A,103.7508,29.6006,乐山市,市第三水厂,细颗粒物(PM2.5),92,94,89,68,51,1,1,,,40,42,6,7,0.8,0.8
2025-12-25T0500,2538A,103.7571,29.5664,乐山市,市监测站,细颗粒物(PM2.5),84,104,94,62,50,0,0,,,35,36,8,9,0.9,0.8
2025-12-25T0500,3361A,103.7311,29.5628,乐山市,理工大学,细颗粒物(PM2.5),83,100,94,61,53,0,0,,,34,39,5,5,0.8,0.7
2025-12-25T0500,2598A,100.2143,26.8576,丽江市,西南郊,,,,,,,,,,,,,,,,
2025-12-25T0500,2599A,100.2497,26.8802,丽江市,丽江古城,,27,27,25,13,12,35,35,,,14,12,8,8,0.5,0.5
2025-12-25T0500,2600A,100.2203,26.8906,丽江市,市中心,,13,10,15,7,12,39,39,,,9,13,6,6,0.3,0.3
2025-12-25T0500,1267A,119.914,28.4514,丽水市,监测站大楼,,,,30,8,30,33,33,,,,34,5,5,0.7,0.8
2025-12-25T0500,1268A,119.93,28.4586,丽水市,莲都小学,,,6,42,3,24,38,38,,,,32,4,4,0.5,0.6
2025-12-25T0500,1269A,119.879,28.4231,丽水市,余庄前,,11,6,35,3,26,34,34,,,14,27,4,4,0.5,0.6
2025-12-25T0500,1173A,119.176,34.5885,连云港市,市环境监测站,细颗粒物(PM2.5),110,107,79,83,52,4,4,,,55,46,13,12,0.8,0.8
2025-12-25T0500,3000A,119.3581,34.6972,连云港市,德源药业,细颗粒物(PM2.5),104,114,91,78,56,6,6,,,53,51,9,7,1.1,0.9
2025-12-25T0500,3007A,119.178,34.844,连云港市,新城一中,细颗粒物(PM2.5),107,98,81,80,61,11,11,,,51,46,14,14,1.3,1.2
2025-12-25T0500,3008A,119.3608,34.7519,连云港市,胡沟管理处,细颗粒物(PM2.5),92,97,75,68,46,22,22,,,41,28,13,10,1.4,1.1
2025-12-25T0500,3009A,119.1478,34.5911,连云港市,矿山设计院,细颗粒物(PM2.5),100,117,84,75,48,2,2,,,54,46,12,13,1.2,1.1
2025-12-25T0500,3434A,119.2413,34.6539,连云港市,工贸学校,细颗粒物(PM2.5),105,105,73,79,54,4,4,,,53,37,10,11,1.2,1.1
2025-12-25T0500,3664A,119.4172,34.7341,连云港市,连云街道,细颗粒物(PM2.5),80,103,81,59,48,12,12,,,56,43,12,9,1.3,1.1
2025-12-25T0500,2571A,102.3431,27.8099,凉山彝族自治州,青龙寺,,,,,,,,,,,,,,,,
2025-12-25T0500,2572A,102.2721,27.8415,凉山彝族自治州,邛海宾馆,,19,18,33,13,25,45,45,,,11,16,8,7,0.5,0.6
2025-12-25T0500,2573A,102.2625,27.898,凉山彝族自治州,西昌市政府,,22,22,51,3,43,46,46,,,4,17,5,7,0.4,0.7
2025-12-25T0500,2574A,102.2685,27.8851,凉山彝族自治州,凉山州政府,,50,,63,35,41,39,39,,,8,19,7,9,0.5,0.8
2025-12-25T0500,4229A,102.2342,27.8859,凉山彝族自治州,凯乐南路30号,,16,15,48,8,32,49,49,,,10,21,10,10,0.9,1
2025-12-25T0500,2212A,123.2,41.1953,辽阳市,宏伟区,,50,,64,35,45,46,46,,,11,32,8,15,0.6,1
2025-12-25T0500,2213A,123.1683,41.2495,辽阳市,新华园,,34,34,75,16,55,44,44,,,12,40,12,15,0.7,1.3
2025-12-25T0500,2214A,123.2354,41.2639,辽阳市,滨河路,,46,38,81,32,56,23,23,,,24,45,5,14,0.9,1.2
2025-12-25T0500,2215A,123.149,41.2991,辽阳市,铁西工业园,,38,31,80,26,60,24,24,,,20,43,8,10,0.8,1.3
2025-12-25T0500,2227A,125.1358,42.8845,辽源市,环保局,颗粒物(PM10),65,79,114,3,57,47,47,,,8,34,6,5,0.3,1.3
2025-12-25T0500,3239A,125.0764,42.9078,辽源市,银鹰制药,,30,30,75,17,55,43,43,,,11,36,10,5,0.4,1.1
2025-12-25T0500,1625A,115.9848,36.4372,聊城市,区政府,,31,31,85,12,60,45,45,,,24,52,9,10,0.5,1
2025-12-25T0500,2878A,116.0072,36.4343,聊城市,聊大东校,,29,29,88,11,68,46,46,,,23,46,8,8,0.6,1.1
2025-12-25T0500,3200A,115.9819,36.4978,聊城市,监控中心,,47,47,95,27,76,28,28,,,28,41,10,11,0.7,1.3
2025-12-25T0500,3513A,116.0445,36.4361,聊城市,九州社区,,48,48,91,16,66,40,40,,,23,32,4,2,0.4,0.8
2025-12-25T0500,4018A,116.0567,36.4608,聊城市,星美广场,,50,50,99,14,67,32,32,,,28,39,4,4,0.4,0.9
2025-12-25T0500,2632A,94.3681,29.6376,林芝市,林芝监测站,,23,6,19,3,7,71,71,,,1,6,4,5,0.3,0.3
2025-12-25T0500,2633A,94.3616,29.6616,林芝市,林芝人民医院,,,,28,,9,,,62,,,6,,4,,0.3
2025-12-25T0500,2603A,100.0781,23.8982,临沧市,市环保局,细颗粒物(PM2.5),52,,35,36,45,19,19,,,5,10,5,7,0.5,0.6
2025-12-25T0500,2604A,100.0894,23.8822,临沧市,市气象局,,35,33,36,24,25,14,14,,,11,13,6,6,0.3,0.4
2025-12-25T0500,1733A,111.5531,36.0783,临汾市,临钢医院,颗粒物(PM10),52,54,108,19,31,12,12,,,36,23,8,9,0.5,0.6
2025-12-25T0500,1734A,111.5028,36.0714,临汾市,技工学校,,24,24,105,3,30,46,46,,,16,24,3,6,0.3,0.6
2025-12-25T0500,1736A,111.5018,36.0855,临汾市,市委,,20,16,114,3,23,63,63,,,10,26,5,10,0.6,0.9
2025-12-25T0500,3018A,111.505,36.1014,临汾市,唐尧大酒店,,23,23,104,3,24,57,57,,,11,27,1,5,0.4,0.7
2025-12-25T0500,4244A,111.4879,36.0530,临汾市,启星学校,,39,39,97,17,28,36,36,,,26,32,6,8,0.9,1
2025-12-25T0500,4271A,103.2464,35.6123,临夏回族自治州,滨河东路1号,细颗粒物(PM2.5),82,112,121,60,61,16,16,,,20,25,3,5,1.3,1.1
2025-12-25T0500,4310A,103.2093,35.5995,临夏回族自治州,新华街21号,细颗粒物(PM2.5),73,83,101,53,57,21,21,,,21,23,5,10,1.3,1.1
2025-12-25T0500,1618A,118.3429,35.0532,临沂市,沂河小区,细颗粒物(PM2.5),73,66,97,53,72,26,26,,,44,48,11,12,0.7,0.8
2025-12-25T0500,1619A,118.295,35.0583,临沂市,鲁南制药厂,细颗粒物(PM2.5),87,97,109,64,71,4,4,,,69,57,18,16,0.8,0.8
2025-12-25T0500,1620A,118.2794,34.9976,临沂市,新光毛纺厂,细颗粒物(PM2.5),89,88,108,66,74,0,0,,,62,54,10,14,0.8,0.8
2025-12-25T0500,1621A,118.3956,35.0888,临沂市,河东保险公司,细颗粒物(PM2.5),59,66,95,42,61,25,25,,,37,44,9,10,0.8,0.8
2025-12-25T0500,3370A,118.3564,35.0215,临沂市,十里堡居委,细颗粒物(PM2.5),55,56,89,39,52,26,26,,,47,48,12,11,0.7,0.8
2025-12-25T0500,3496A,118.3604,35.1084,临沂市,南坊新区,细颗粒物(PM2.5),64,70,92,46,65,25,25,,,44,51,11,11,0.7,0.8
2025-12-25T0500,3860A,118.3920,35.0300,临沂市,皇山花园小区,颗粒物(PM10),57,63,90,38,57,34,34,,,36,47,13,13,0.7,0.9
2025-12-25T0500,1870A,109.4856,24.3895,柳州市,柳东小学,,28,23,9,19,7,38,38,,,5,7,7,6,0.7,0.8
2025-12-25T0500,1871A,109.4157,24.3277,柳州市,环保监测站,,28,27,13,19,9,36,36,,,12,13,6,6,0.5,0.8
2025-12-25T0500,1872A,109.389,24.341,柳州市,河西水厂,,39,39,16,25,13,24,24,,,28,25,10,8,1.9,1.3
2025-12-25T0500,1873A,109.4311,24.2921,柳州市,市四中,,19,19,13,9,7,40,40,,,8,13,8,8,0.5,0.5
2025-12-25T0500,1874A,109.4006,24.3631,柳州市,市九中,,,,10,,6,,,19,,,16,,9,,0.6
2025-12-25T0500,1875A,109.4958,24.3134,柳州市,古亭山,,17,17,9,8,3,38,38,,,8,10,8,8,0.8,0.9
2025-12-25T0500,3402A,109.5422,24.3996,柳州市,市二中,,36,,9,25,6,32,32,,,8,13,7,7,0.8,0.9
2025-12-25T0500,2307A,116.5079,31.737,六安市,监测大楼,细颗粒物(PM2.5),103,103,86,77,67,13,13,,,32,31,3,3,0.6,0.5
2025-12-25T0500,2308A,116.4738,31.7643,六安市,皖西学院,细颗粒物(PM2.5),99,98,91,74,67,10,10,,,39,34,2,2,0.7,0.6
2025-12-25T0500,2309A,116.4996,31.7905,六安市,朝阳厂,细颗粒物(PM2.5),95,93,83,71,63,6,6,,,34,33,3,3,0.7,0.6
2025-12-25T0500,2310A,116.5567,31.7886,六安市,开发区,细颗粒物(PM2.5),89,102,96,66,64,3,3,,,38,34,1,1,0.7,0.6
2025-12-25T0500,2576A,104.8,26.5892,六盘水市,窑上,,40,39,41,28,31,60,60,,,6,9,2,2,0.3,0.4
2025-12-25T0500,2577A,104.83,26.5917,六盘水市,黄土坡,,26,26,29,17,22,56,56,,,9,13,4,6,0.4,0.6
2025-12-25T0500,2578A,104.89,26.5939,六盘水市,水钢,,45,,34,31,26,49,49,,,18,17,6,6,0.5,0.6
2025-12-25T0500,2579A,104.8475,26.5894,六盘水市,民中,,,24,31,17,21,57,57,,,7,14,,3,0.4,0.5
2025-12-25T0500,2580A,104.9544,26.5506,六盘水市,双水,,31,31,35,18,25,60,60,,,6,10,3,3,0.2,0.6
2025-12-25T0500,2335A,117.0189,25.1181,龙岩市,龙岩师专,,,,,,,,,,,,,,,,
2025-12-25T0500,2336A,117.0217,25.1033,龙岩市,龙岩市监测站,,8,6,31,3,22,25,25,,,9,18,10,13,0.5,0.6
2025-12-25T0500,2337A,117.0258,25.0661,龙岩市,闽西职业技术学院,,10,6,34,3,23,29,29,,,7,19,4,9,0.6,0.7
2025-12-25T0500,2338A,117.0196,25.0306,龙岩市,龙岩学院,,9,6,30,3,23,28,28,,,6,14,6,8,0.6,0.6
2025-12-25T0500,2665A,105.0822,33.3261,陇南市,汉王镇固水子,,,,,,,,,,,,,,,,
2025-12-25T0500,2885A,104.9339,33.3826,陇南市,滨江中学,,50,50,59,29,29,23,23,,,35,35,14,11,1.2,1
2025-12-25T0500,3247A,104.955,33.371,陇南市,市总工会,,47,47,61,17,20,50,50,,,10,20,4,4,0.6,0.7
2025-12-25T0500,2487A,111.9589,27.8901,娄底市,电视发射台,,,,,,,,,,,,,,,,
2025-12-25T0500,2488A,111.9975,27.725,娄底市,市监测站,颗粒物(PM10),55,60,52,33,38,56,56,,,12,20,9,8,0.5,0.8
2025-12-25T0500,2489A,112.0194,27.7314,娄底市,市委党校,颗粒物(PM10),54,57,65,31,43,54,54,,,12,19,8,6,0.2,0.4
2025-12-25T0500,2490A,111.9561,27.7569,娄底市,涟钢,颗粒物(PM10),54,57,54,34,34,51,51,,,12,15,8,6,0.2,0.4
2025-12-25T0500,2491A,111.9892,27.7044,娄底市,市政府,颗粒物(PM10),53,55,44,30,31,60,60,,,10,13,7,5,2.4,1.1
2025-12-25T0500,1893A,105.4324,28.9634,泸州市,九狮山,,,,,,,,,,,,,,,,
2025-12-25T0500,1894A,105.4427,28.9063,泸州市,小市上码头,颗粒物(PM10),59,68,63,33,35,0,0,,,31,28,9,9,0.6,0.6
2025-12-25T0500,1895A,105.4241,28.8573,泸州市,兰田宪桥,细颗粒物(PM2.5),52,46,45,36,35,11,11,,,17,22,7,7,0.7,0.8
2025-12-25T0500,1896A,105.4379,28.8833,泸州市,市环监站,颗粒物(PM10),58,66,60,40,36,9,9,,,21,25,10,10,0.5,0.7
2025-12-25T0500,4272A,105.3689,28.7783,泸州市,纳溪中医医院,细颗粒物(PM2.5),57,51,63,40,43,0,0,,,15,19,7,7,0.7,0.8
2025-12-25T0500,2183A,111.1406,37.5211,吕梁市,环保局,,,104,92,30,27,3,3,,,,32,4,5,0.6,0.5
2025-12-25T0500,2185A,111.1297,37.5136,吕梁市,自来水公司,颗粒物(PM10),93,135,102,44,28,2,2,,,42,31,8,7,1.0,0.8
2025-12-25T0500,2867A,111.1283,37.51,吕梁市,马茂庄小学,颗粒物(PM10),78,106,96,33,25,0,0,,,38,35,5,7,0.7,0.7
2025-12-25T0500,1812A,112.3931,34.6516,洛阳市,市委党校,,49,49,110,24,39,27,27,,,26,27,8,12,0.6,0.7
2025-12-25T0500,1815A,112.494,34.6886,洛阳市,河南林校,颗粒物(PM10),58,66,125,30,48,1,1,,,51,39,5,9,0.7,0.9
2025-12-25T0500,1816A,112.3844,34.623,洛阳市,开发区管委会,,47,47,108,20,42,32,32,,,14,15,7,9,0.5,0.6
2025-12-25T0500,1817A,112.4267,34.6258,洛阳市,市委新办公区,颗粒物(PM10),54,58,112,28,46,33,33,,,18,24,7,10,0.4,0.6
2025-12-25T0500,3340A,112.6005,34.6326,洛阳市,伊滨,颗粒物(PM10),59,68,118,25,46,25,25,,,16,19,6,8,0.5,0.6
2025-12-25T0500,3341A,112.4951,34.6332,洛阳市,中移产业园,颗粒物(PM10),51,51,105,24,39,34,34,,,22,28,9,11,0.4,0.6
2025-12-25T0500,3593A,112.5736,34.8993,洛阳市,吉利监测站,颗粒物(PM10),54,58,105,26,31,10,10,,,38,29,6,8,0.7,0.8
2025-12-25T0500,3635A,112.3677,34.662,洛阳市,河科大西苑校区,,,55,122,25,36,20,20,,,,22,8,12,0.7,0.8
2025-12-25T0500,3636A,112.4388,34.6781,洛阳市,英才小学,颗粒物(PM10),61,71,123,40,53,5,5,,,60,44,12,14,0.8,1
2025-12-25T0500,4214A,112.4600,34.6949,洛阳市,春都路1号院,颗粒物(PM10),61,72,137,26,41,9,9,,,46,36,7,10,0.9,1
2025-12-25T0500,2399A,114.051,33.5699,漯河市,三五一五工厂,细颗粒物(PM2.5),132,157,102,100,70,16,16,,,53,38,7,7,0.6,0.6
2025-12-25T0500,2400A,114.0055,33.5698,漯河市,漯河大学,细颗粒物(PM2.5),113,127,93,85,67,16,16,,,52,38,6,6,0.7,0.8
2025-12-25T0500,2401A,114.0138,33.5828,漯河市,市水利局,细颗粒物(PM2.5),110,134,93,83,67,11,11,,,48,37,7,7,0.6,0.8
2025-12-25T0500,2402A,114.0261,33.5698,漯河市,市广电局,细颗粒物(PM2.5),112,137,92,84,67,15,15,,,50,37,6,6,0.5,0.7
2025-12-25T0500,3478A,113.9749,33.5664,漯河市,市图书馆,细颗粒物(PM2.5),105,132,103,79,73,17,17,,,43,33,4,4,0.8,0.8
2025-12-25T0500,4250A,114.0892,33.5882,漯河市,韶山路11号,细颗粒物(PM2.5),127,149,99,96,66,0,0,,,65,40,9,8,0.8,0.7
2025-12-25T0500,1798A,118.5092,31.6837,马鞍山市,湖东路四小,细颗粒物(PM2.5),114,130,97,86,75,24,24,,,34,35,9,7,1.0,0.9
2025-12-25T0500,1799A,118.5024,31.6449,马鞍山市,开发区,细颗粒物(PM2.5),125,132,97,95,72,9,9,,,49,38,18,8,2.2,1.3
2025-12-25T0500,1802A,118.6245,31.7241,马鞍山市,濮塘,,,,,,,,,,,,,,,,
2025-12-25T0500,3633A,118.4918,31.6809,马鞍山市,雨山,细颗粒物(PM2.5),119,134,105,90,76,9,9,,,51,42,27,13,2.4,1.4
2025-12-25T0500,4191A,118.5274,31.72227,马鞍山市,慈湖高新区,细颗粒物(PM2.5),119,124,103,90,80,23,23,,,32,33,5,6,0.7,0.8
2025-12-25T0500,1686A,111.0286,21.4688,茂名市,电白南海,,42,36,40,29,26,30,30,,,13,16,10,11,1.2,1
2025-12-25T0500,1687A,110.9294,21.6533,茂名市,茂石化七小,,34,34,43,12,20,28,28,,,14,18,7,8,0.6,0.6
2025-12-25T0500,1688A,110.9107,21.6687,茂名市,健康路,,34,34,34,7,17,30,30,,,11,18,15,16,0.9,0.5
2025-12-25T0500,1689A,110.8592,21.6828,茂名市,高岭,,39,39,49,9,17,28,28,,,14,21,10,11,0.7,0.6
2025-12-25T0500,3450A,111.01,21.5165,茂名市,电白水东,,36,36,34,19,19,28,28,,,12,15,8,9,1.0,0.9
2025-12-25T0500,2539A,104.0308,30.0478,眉山市,黑龙滩水库,,,,,,,,,,,,,,,,
2025-12-25T0500,2540A,103.8416,30.0874,眉山市,气象局,细颗粒物(PM2.5),77,88,91,56,50,4,4,,,37,40,8,10,0.7,0.7
2025-12-25T0500,3137A,103.8578,30.0744,眉山市,市委党校,,,83,80,41,37,1,1,,,45,38,,8,0.6,0.6
2025-12-25T0500,3148A,103.8291,30.0564,眉山市,区人社局,颗粒物(PM10),72,94,90,48,40,2,2,,,46,42,5,6,0.7,0.6
2025-12-25T0500,1690A,116.1231,24.3284,梅州市,梅江月梅,,12,,37,8,27,22,22,,,13,21,5,7,0.7,0.6
2025-12-25T0500,1691A,116.0797,24.2719,梅州市,梅县新城,,10,10,46,3,34,24,24,,,13,27,7,9,0.8,0.8
2025-12-25T0500,1692A,116.1248,24.2654,梅州市,环境监控中心,,,,42,10,29,23,23,,,11,27,5,10,0.6,0.6
2025-12-25T0500,3315A,116.1233,24.2991,梅州市,梅龙,,8,7,40,3,27,23,23,,,10,23,7,9,0.7,0.7
2025-12-25T0500,1878A,104.7778,31.4741,绵阳市,富乐山,细颗粒物(PM2.5),63,74,59,45,31,0,0,,,36,32,10,10,0.6,0.5
2025-12-25T0500,1880A,104.6697,31.4668,绵阳市,高新区自来水公司,细颗粒物(PM2.5),89,125,93,66,41,0,0,,,34,44,10,8,0.8,0.6
2025-12-25T0500,1881A,104.7287,31.5075,绵阳市,三水厂,颗粒物(PM10),86,121,82,63,39,1,1,,,27,40,8,7,0.8,0.5
2025-12-25T0500,3491A,104.69,31.5322,绵阳市,西科大附属小学,颗粒物(PM10),91,131,99,65,43,2,2,,,31,40,8,8,0.9,0.6
2025-12-25T0500,3492A,104.5648,31.5343,绵阳市,安州区旅游局,,,87,86,51,47,3,3,,,26,40,14,13,,0.7
2025-12-25T0500,4226A,104.7651,31.4531,绵阳市,绵阳市气象局,颗粒物(PM10),67,84,67,30,26,0,0,,,32,35,7,9,1.1,0.8
2025-12-25T0500,1784A,129.61,44.561,牡丹江市,环保大楼,,43,31,42,30,31,17,17,,,32,33,7,9,0.3,0.4
2025-12-25T0500,1785A,129.6115,44.5782,牡丹江市,文化广场,,48,36,53,33,44,18,18,,,32,37,4,6,0.7,0.8
2025-12-25T0500,1787A,129.6364,44.6075,牡丹江市,机车工厂,颗粒物(PM10),59,68,64,34,40,7,7,,,41,36,5,32,0.6,0.6
2025-12-25T0500,1788A,129.6386,44.5462,牡丹江市,第一中学,,15,12,33,10,30,25,25,,,14,22,4,5,0.5,0.5
2025-12-25T0500,4287A,129.5992,44.5964,牡丹江市,东晓云街98号,细颗粒物(PM2.5),68,63,68,49,56,15,15,,,27,30,4,7,1.0,0.9
2025-12-25T0500,2531A,105.0703,29.61,内江市,市监测站,细颗粒物(PM2.5),53,46,53,37,32,19,19,,,21,22,5,5,0.7,0.6
2025-12-25T0500,2532A,105.0717,29.5947,内江市,东兴区政府,,40,40,48,27,27,1,1,,,27,27,4,5,0.5,0.5
2025-12-25T0500,2533A,105.0653,29.5817,内江市,内江二中,颗粒物(PM10),53,55,62,33,32,0,0,,,27,26,4,4,0.7,0.7
2025-12-25T0500,2534A,105.0406,29.5822,内江市,内江日报社,,46,45,47,32,29,2,2,,,30,28,3,3,0.6,0.5
2025-12-25T0500,2628A,92.0657,31.4846,那曲市,那曲监测站,,28,27,62,19,41,34,34,,,21,32,8,15,1.5,1.8
2025-12-25T0500,4243A,92.0515,31.4787,那曲市,那曲市委宣传部,,25,25,36,14,21,14,14,,,23,19,6,9,1.4,1.4
2025-12-25T0500,1290A,115.8931,28.6843,南昌市,省外办,细颗粒物(PM2.5),52,46,31,36,29,48,48,,,21,23,7,6,0.9,1.1
2025-12-25T0500,1291A,115.8886,28.7003,南昌市,省林业公司,,49,36,20,34,27,41,41,,,12,15,4,3,0.6,0.6
2025-12-25T0500,1292A,115.8126,28.7442,南昌市,林科所,颗粒物(PM10),51,51,23,29,20,37,37,,,12,20,5,4,0.6,0.6
2025-12-25T0500,1294A,115.8518,28.687,南昌市,建工学校,细颗粒物(PM2.5),55,,34,39,28,40,40,,,19,24,11,10,0.9,1
2025-12-25T0500,1295A,115.8921,28.6424,南昌市,象湖,细颗粒物(PM2.5),52,,24,36,25,41,41,,,20,20,8,8,0.7,0.8
2025-12-25T0500,1296A,115.7423,28.7996,南昌市,武术学校,,,,,,,,,,,,,,,,
2025-12-25T0500,3046A,115.9084,28.6062,南昌市,机电学校,细颗粒物(PM2.5),52,51,32,36,28,44,44,,,15,18,4,3,0.5,0.6
2025-12-25T0500,3690A,115.9721,28.7031,南昌市,外国语学校,,49,49,32,33,35,37,37,,,21,22,10,9,0.5,0.6
2025-12-25T0500,4192A,115.9316,28.68677,南昌市,南京东路235号,,49,36,32,34,30,46,46,,,22,25,4,4,0.6,0.8
2025-12-25T0500,1905A,106.056,30.8064,南充市,西山风景区,,,,,,,,,,,,,,,,
2025-12-25T0500,1906A,106.0789,30.8023,南充市,南充市委,,38,38,43,25,28,0,0,,,19,23,5,5,0.5,0.5
2025-12-25T0500,1907A,106.1031,30.8217,南充市,南充炼油厂,,49,40,47,34,33,4,4,,,18,17,5,6,0.5,0.5
2025-12-25T0500,4227A,106.1083,30.7884,南充市,梨树横街98号,,48,39,42,33,25,5,5,,,22,21,5,6,0.5,0.5
2025-12-25T0500,4304A,106.1172,30.843,南充市,清泉寺北路188号,,26,26,35,14,23,9,9,,,15,16,6,6,0.6,0.6
2025-12-25T0500,4305A,106.067,30.7616,南充市,同庆路1号,,35,28,42,24,23,1,1,,,23,23,6,6,0.4,0.5
2025-12-25T0500,1151A,118.8086,32.1065,南京市,迈皋桥,细颗粒物(PM2.5),89,97,90,66,63,38,38,,,15,19,4,4,0.4,0.4
2025-12-25T0500,1152A,118.7538,32.0551,南京市,草场门,细颗粒物(PM2.5),83,88,90,61,63,23,23,,,33,33,7,7,0.6,0.8
2025-12-25T0500,1153A,118.7794,32.0745,南京市,山西路,细颗粒物(PM2.5),85,102,103,63,68,29,29,,,33,38,4,4,0.7,0.8
2025-12-25T0500,1154A,118.7752,32.0023,南京市,中华门,细颗粒物(PM2.5),92,95,91,68,66,21,21,,,21,23,4,5,0.9,1
2025-12-25T0500,1155A,118.8109,32.0309,南京市,瑞金路,细颗粒物(PM2.5),98,112,98,73,70,18,18,,,25,36,4,4,1.2,0.8
2025-12-25T0500,1156A,118.7997,32.0754,南京市,玄武湖,细颗粒物(PM2.5),94,114,92,70,69,17,17,,,19,18,4,4,1.6,1.1
2025-12-25T0500,1157A,118.6414,32.0931,南京市,浦口,细颗粒物(PM2.5),113,113,100,85,71,30,30,,,28,28,8,7,0.7,0.6
2025-12-25T0500,1158A,118.7356,31.9996,南京市,奥体中心,细颗粒物(PM2.5),100,104,91,75,67,30,30,,,40,42,6,6,0.7,0.7
2025-12-25T0500,1159A,118.9125,32.1028,南京市,仙林大学城,细颗粒物(PM2.5),98,100,92,73,69,11,11,,,40,34,7,6,0.9,0.9
2025-12-25T0500,3422A,118.8436,31.9198,南京市,江宁彩虹桥,细颗粒物(PM2.5),100,110,95,75,66,23,23,,,28,30,5,4,1.4,1
2025-12-25T0500,3427A,118.8554,32.3578,南京市,六合雄州,细颗粒物(PM2.5),92,99,97,68,69,29,29,,,28,31,6,7,0.5,0.6
2025-12-25T0500,4249A,118.8708,31.3402,南京市,汶溪路181号,细颗粒物(PM2.5),113,112,78,85,72,18,18,,,37,37,4,4,0.8,0.8
2025-12-25T0500,4312A,119.019,31.6512,南京市,中山西路1号,细颗粒物(PM2.5),97,75,74,72,73,23,23,,,30,34,4,4,0.8,0.8
2025-12-25T0500,1401A,108.3103,22.7881,南宁市,二十一中,,9,,6,3,9,27,27,,,10,16,3,3,0.7,0.7
2025-12-25T0500,1402A,108.3141,22.8528,南宁市,北湖,,13,,12,9,9,29,29,,,8,16,8,8,0.7,0.8
2025-12-25T0500,1403A,108.3206,22.8225,南宁市,市监测站,,15,12,12,10,12,24,24,,,6,14,5,5,0.7,0.7
2025-12-25T0500,1404A,108.3829,22.8037,南宁市,大自然花园,,13,13,11,9,11,35,35,,,9,14,5,5,0.5,0.7
2025-12-25T0500,1405A,108.4394,22.7904,南宁市,仙葫,,,,,,,,,,,,,,,,
2025-12-25T0500,1406A,108.2397,22.8467,南宁市,区农职院,,8,7,13,3,9,25,25,,,11,14,7,6,0.6,0.7
2025-12-25T0500,1407A,108.3275,22.735,南宁市,英华嘉园,,10,6,7,3,7,31,31,,,9,14,2,2,0.6,0.6
2025-12-25T0500,3401A,108.4834,22.7618,南宁市,红星社区,,12,10,7,8,6,31,31,,,7,7,4,4,0.7,0.8
2025-12-25T0500,4221A,108.2177,22.7774,南宁市,乐贤路16号,,15,15,14,9,12,22,22,,,10,15,6,7,0.6,0.7
2025-12-25T0500,2331A,118.0966,26.6761,南平市,茫荡山,,,,18,,14,,,68,,,,,1,,0.3
2025-12-25T0500,2332A,118.1681,26.6369,南平市,南平市监测站,,8,,25,3,21,12,12,,,15,18,2,7,0.5,0.5
2025-12-25T0500,2333A,118.1825,26.6489,南平市,南平铝业有限公司,,7,6,24,3,19,12,12,,,13,14,4,7,0.7,0.7
2025-12-25T0500,2334A,118.1756,26.6272,南平市,南平七中,,,,29,0,20,10,10,,,14,17,4,10,0.7,0.7
2025-12-25T0500,1168A,120.9098,31.9663,南通市,狼山街道,,49,49,65,30,43,51,51,,,10,14,4,3,0.6,0.7
2025-12-25T0500,1169A,120.86,32.0005,南通市,虹桥,,44,44,60,27,45,50,50,,,14,20,4,3,0.5,0.7
2025-12-25T0500,1170A,120.87,32.02,南通市,城中,颗粒物(PM10),53,56,70,26,43,47,47,,,13,18,6,5,0.4,0.5
2025-12-25T0500,1171A,120.94,31.93,南通市,星湖花园,,50,50,65,31,42,53,53,,,11,16,4,3,0.5,0.6
2025-12-25T0500,1172A,120.81,32.0417,南通市,紫琅学院,,46,46,74,27,46,50,50,,,16,20,4,4,0.3,0.6
2025-12-25T0500,3291A,121.067,32.062,南通市,通州监测站,,44,44,57,27,43,54,54,,,15,19,2,3,0.5,0.7
2025-12-25T0500,3432A,120.9348,31.9883,南通市,环境教育馆,颗粒物(PM10),51,51,66,30,47,52,52,,,12,17,4,4,0.4,0.5
2025-12-25T0500,2404A,112.5224,33.0122,南阳市,瓦房庄,细颗粒物(PM2.5),94,127,130,70,59,4,4,,,32,29,6,8,0.9,0.8
2025-12-25T0500,2405A,112.5003,32.9735,南阳市,汉画馆,细颗粒物(PM2.5),103,133,132,77,61,1,1,,,34,33,6,7,0.9,0.8
2025-12-25T0500,2406A,112.5573,33.027,南阳市,气象站,颗粒物(PM10),98,146,154,63,57,12,12,,,26,29,4,7,0.9,0.8
2025-12-25T0500,2407A,112.5481,32.9689,南阳市,理工学院,细颗粒物(PM2.5),104,143,125,78,50,2,2,,,38,34,6,7,0.9,0.8
2025-12-25T0500,4008A,112.5234,32.9922,南阳市,卧龙区政府,颗粒物(PM10),110,169,142,77,58,2,2,,,42,36,6,7,0.9,0.8
2025-12-25T0500,1234A,121.8358,29.911,宁波市,区环保大楼,细颗粒物(PM2.5),59,64,39,42,22,25,25,,,32,35,5,5,0.9,0.8
2025-12-25T0500,1235A,121.56,29.82,宁波市,万里学院,细颗粒物(PM2.5),80,70,45,59,32,22,22,,,32,34,5,5,1.1,1
2025-12-25T0500,1236A,121.713,29.9572,宁波市,龙赛医院,细颗粒物(PM2.5),77,,35,56,32,15,15,,,36,34,4,5,0.7,0.6
2025-12-25T0500,1239A,121.633,29.7733,宁波市,钱湖水厂,细颗粒物(PM2.5),65,53,33,47,28,31,31,,,26,33,5,5,0.8,0.7
2025-12-25T0500,1240A,121.5856,29.8635,宁波市,太古小学,细颗粒物(PM2.5),58,56,35,41,24,31,31,,,23,27,2,2,0.6,0.6
2025-12-25T0500,1241A,121.524,29.8674,宁波市,市环境监测中心,颗粒物(PM10),53,55,37,30,19,16,16,,,31,29,5,4,0.7,0.8
2025-12-25T0500,2871A,121.6147,29.9017,宁波市,万里国际学校,细颗粒物(PM2.5),88,79,48,65,29,28,28,,,29,33,3,3,0.6,0.6
2025-12-25T0500,3710A,121.5594,29.8975,宁波市,白沙活动中心,细颗粒物(PM2.5),53,51,36,37,23,26,26,,,31,33,4,4,0.9,0.8
2025-12-25T0500,2339A,119.5001,26.6946,宁德市,金涵水库,,,,51,,35,,,30,,,13,,2,,0.5
2025-12-25T0500,2341A,119.5388,26.6612,宁德市,宁德市监测站,,12,,36,8,33,18,18,,,23,23,6,6,0.7,0.7
2025-12-25T0500,3209A,119.5231,26.6562,宁德市,宁德一中,,26,,36,18,30,21,21,,,25,24,4,5,0.5,0.5
2025-12-25T0500,2618A,98.8601,25.8567,怒江傈僳族自治州,州监测站,,30,29,36,21,24,21,21,,,11,13,6,7,0.4,0.5
2025-12-25T0500,2619A,98.8546,25.8417,怒江傈僳族自治州,泸水一中,,18,18,28,11,21,14,14,,,12,20,5,5,0.5,0.6
2025-12-25T0500,1888A,101.6891,26.571,攀枝花市,弄弄坪,,47,47,52,26,29,39,39,,,15,23,12,18,0.8,1
2025-12-25T0500,1889A,101.5769,26.5928,攀枝花市,河门口,,49,49,48,32,33,40,40,,,15,20,16,19,1.4,1.2
2025-12-25T0500,1890A,101.7169,26.585,攀枝花市,炳草岗,颗粒物(PM10),52,54,54,26,32,35,35,,,16,27,15,17,0.8,1.3
2025-12-25T0500,1891A,101.7369,26.5008,攀枝花市,仁和,细颗粒物(PM2.5),55,57,53,39,35,8,8,,,23,23,11,15,0.8,1.3
2025-12-25T0500,2835A,101.7227,26.567,攀枝花市,四十中小,,46,46,51,28,33,40,40,,,14,21,17,23,0.8,1.2
2025-12-25T0500,1604A,122.0303,41.1489,盘锦市,开发区,,15,15,42,3,27,48,48,,,3,22,3,6,0.4,0.8
2025-12-25T0500,1605A,122.0485,41.0883,盘锦市,兴隆台,,18,18,38,7,22,45,45,,,8,30,7,8,0.4,0.7
2025-12-25T0500,1606A,121.8297,41.1028,盘锦市,新生街道,,15,10,29,3,19,45,45,,,12,32,4,6,0.2,0.4
2025-12-25T0500,1832A,113.3257,33.742,平顶山市,新华旅馆,颗粒物(PM10),77,104,134,47,53,35,35,,,27,33,10,10,0.6,0.6
2025-12-25T0500,1833A,113.2919,33.737,平顶山市,规划设计院,颗粒物(PM10),83,115,144,36,47,31,31,,,26,29,10,9,0.6,0.7
2025-12-25T0500,1834A,113.182,33.774,平顶山市,平顶山工学院,颗粒物(PM10),63,75,123,27,39,39,39,,,19,21,13,11,0.3,0.3
2025-12-25T0500,3204A,113.3025,33.73,平顶山市,规划局,颗粒物(PM10),74,97,143,41,51,37,37,,,23,29,12,10,0.7,0.7
2025-12-25T0500,3594A,112.8867,33.9116,平顶山市,石龙区,颗粒物(PM10),64,77,129,23,31,56,56,,,16,22,7,7,0.3,0.3
2025-12-25T0500,2656A,106.6692,35.5461,平凉市,聚贤嘉苑,,23,23,51,11,23,41,41,,,18,23,4,9,0.4,0.4
2025-12-25T0500,2657A,106.7021,35.5307,平凉市,博物馆,,37,37,49,16,21,41,41,,,18,19,7,9,0.5,0.5
2025-12-25T0500,2347A,114.0997,27.5002,萍乡市,武功山,,,,,,,,,,,,,,,,
2025-12-25T0500,2348A,113.8385,27.6434,萍乡市,中医院,颗粒物(PM10),51,52,38,34,27,16,16,,,24,26,6,5,1.2,1.3
2025-12-25T0500,2349A,113.8493,27.6253,萍乡市,市政府车库,细颗粒物(PM2.5),55,43,34,39,25,20,20,,,15,19,8,7,0.7,0.8
2025-12-25T0500,2350A,113.8676,27.6435,萍乡市,市环保局,,40,31,27,28,24,24,24,,,17,22,12,19,0.4,0.8
2025-12-25T0500,2351A,113.866,27.6198,萍乡市,安源区政府,细颗粒物(PM2.5),64,69,41,46,31,14,14,,,22,23,12,10,1.0,1
2025-12-25T0500,2319A,119.0141,25.4325,莆田市,荔城区仓后路,,22,,42,15,32,37,37,,,15,20,2,3,0.7,0.7
2025-12-25T0500,2320A,119.0015,25.4553,莆田市,莆田市监测站,,16,,35,11,28,40,40,,,13,17,4,4,0.6,0.5
2025-12-25T0500,2321A,119.1119,25.4561,莆田市,涵江区六中,,18,18,38,6,28,34,34,,,18,22,3,4,0.6,0.6
2025-12-25T0500,2322A,119.1013,25.3215,莆田市,秀屿区政府,,13,12,42,6,35,41,41,,,18,25,3,4,0.7,0.7
2025-12-25T0500,2323A,118.981,25.4792,莆田市,东圳水库,,,,28,,23,,,65,,,2,,4,,0.6
2025-12-25T0500,2392A,115.0312,35.7636,濮阳市,环保局,细颗粒物(PM2.5),79,87,72,58,61,18,18,,,38,34,8,7,1.0,0.9
2025-12-25T0500,2394A,115.0574,35.7609,濮阳市,油田运输公司,细颗粒物(PM2.5),83,96,93,61,64,16,16,,,44,41,9,9,1.3,1.1
2025-12-25T0500,3021A,115,35.7668,濮阳市,濮水河管理处,细颗粒物(PM2.5),93,,90,69,65,17,17,,,39,42,6,6,1.0,0.9
2025-12-25T0500,4216A,115.0924,35.7686,濮阳市,任丘路479号,细颗粒物(PM2.5),85,100,97,63,70,14,14,,,42,40,7,6,1.2,1.2
2025-12-25T0500,2601A,100.98,22.7633,普洱市,市环保局,,38,38,41,10,11,19,19,,,4,9,4,4,0.3,0.4
2025-12-25T0500,2602A,100.9817,22.8322,普洱市,普洱第二中学,,24,24,38,14,17,5,5,,,18,17,4,4,0.3,0.3
2025-12-25T0500,2262A,131.0518,45.8751,七台河市,新一中,,,,,,,,,,,,,,,,
2025-12-25T0500,3345A,131.0577,45.7879,七台河市,中波台,细颗粒物(PM2.5),67,54,48,48,28,37,37,,,20,24,7,8,0.4,0.3
2025-12-25T0500,3637A,131.0176,45.7761,七台河市,人民广场,细颗粒物(PM2.5),82,71,44,60,33,32,32,,,30,27,6,7,0.6,0.5
2025-12-25T0500,3684A,130.8781,45.8222,七台河市,新建矿广场,颗粒物(PM10),59,68,46,32,26,26,26,,,24,18,9,9,0.5,0.4
2025-12-25T0500,1779A,123.9305,47.3636,齐齐哈尔市,安居小区,,19,15,28,13,26,40,40,,,11,19,2,4,0.5,0.6
2025-12-25T0500,1780A,123.9488,47.3386,齐齐哈尔市,中心广场,,13,12,19,7,11,41,41,,,2,10,7,7,0.6,0.7
2025-12-25T0500,1781A,123.9483,47.3227,齐齐哈尔市,农牧车辆厂,,17,17,25,7,14,34,34,,,6,17,5,6,0.6,0.7
2025-12-25T0500,1783A,123.945,47.2988,齐齐哈尔市,市环境监测站,,15,15,28,3,16,42,42,,,5,15,6,7,0.5,0.6
2025-12-25T0500,3662A,123.6333,47.2075,齐齐哈尔市,富区青少年活动中心,,19,19,29,7,18,40,40,,,14,21,5,8,0.5,0.7
2025-12-25T0500,2591A,107.9783,26.5747,黔东南苗族侗族自治州,市环境监测站,细颗粒物(PM2.5),54,45,41,38,37,44,44,,,7,10,5,5,0.6,0.6
2025-12-25T0500,2881A,107.8908,26.5311,黔东南苗族侗族自治州,凯里学院,细颗粒物(PM2.5),53,48,39,37,31,43,43,,,9,12,3,4,0.5,0.5
2025-12-25T0500,2593A,107.5228,26.2403,黔南布依族苗族自治州,小围寨,,45,34,27,31,23,38,38,,,8,6,3,4,0.7,0.7
2025-12-25T0500,3538A,107.5175,26.2978,黔南布依族苗族自治州,沙坝,细颗粒物(PM2.5),52,36,31,36,25,44,44,,,8,8,4,5,0.3,0.6
2025-12-25T0500,2589A,104.9022,25.0925,黔西南布依族苗族自治州,场坝街,细颗粒物(PM2.5),65,50,53,47,44,36,36,,,10,15,4,4,0.5,0.7
2025-12-25T0500,2590A,104.8811,25.0992,黔西南布依族苗族自治州,坪东大道,细颗粒物(PM2.5),55,49,50,39,39,33,33,,,10,12,7,8,0.2,0.3
2025-12-25T0500,2502A,108.6236,21.9667,钦州市,市环保站,,17,17,29,3,11,33,33,,,10,17,2,3,0.6,0.9
2025-12-25T0500,2503A,108.6549,21.9481,钦州市,沙埠小学,,13,13,28,3,13,37,37,,,10,16,3,5,0.6,0.7
2025-12-25T0500,2504A,108.5989,21.7431,钦州市,港区一小,,45,45,46,21,20,23,23,,,23,28,8,8,0.5,0.6
2025-12-25T0500,3404A,108.5959,21.9633,钦州市,北职校,,11,10,24,3,14,33,33,,,4,11,5,7,0.6,0.8
2025-12-25T0500,1043A,119.7493,40.0116,秦皇岛市,第一关,,25,,36,17,26,51,51,,,13,38,6,9,0.3,0.4
2025-12-25T0500,1044A,119.5897,39.9499,秦皇岛市,监测站,,32,32,46,3,16,55,55,,,11,33,8,9,0.4,0.6
2025-12-25T0500,1046A,119.5251,39.9041,秦皇岛市,建设大厦,,36,,47,25,30,51,51,,,7,28,6,8,0.3,0.5
2025-12-25T0500,3132A,119.610547,39.943889,秦皇岛市,文明里,,28,28,40,12,15,52,52,,,2,17,9,11,0.2,0.4
2025-12-25T0500,4198A,119.5090,39.8253,秦皇岛市,北戴河轮滑馆,,30,30,40,9,14,53,53,,,6,20,5,6,0.3,0.5
2025-12-25T0500,1307A,120.6659,36.2403,青岛市,仰口,,,,,,,,,,,,,,,,
2025-12-25T0500,1310A,120.4134,36.0658,青岛市,市南区东部子站,颗粒物(PM10),51,51,59,27,24,17,17,,,40,33,11,9,0.8,0.7
2025-12-25T0500,1311A,120.3664,36.1032,青岛市,四方区子站,颗粒物(PM10),54,58,64,24,28,24,24,,,34,30,5,4,0.8,0.8
2025-12-25T0500,1312A,120.2994,36.054,青岛市,市南区西部子站,,44,44,56,12,25,15,15,,,29,28,5,4,0.7,0.6
2025-12-25T0500,1313A,120.4581,36.0858,青岛市,崂山区子站,颗粒物(PM10),51,51,51,29,21,16,16,,,47,31,11,10,0.9,0.7
2025-12-25T0500,1315A,120.3999,36.3083,青岛市,城阳区子站,颗粒物(PM10),53,56,60,32,26,14,14,,,49,34,8,8,0.9,0.8
2025-12-25T0500,3362A,120.5014,36.4034,青岛市,即墨2号,颗粒物(PM10),59,67,54,40,25,10,10,,,46,25,10,8,1.0,0.7
2025-12-25T0500,3642A,120.3503,36.0736,青岛市,市北区南部,颗粒物(PM10),61,71,64,22,24,18,18,,,32,30,7,7,0.6,0.6
2025-12-25T0500,3643A,120.3948,36.1805,青岛市,李沧区北部,,49,48,55,34,31,8,8,,,47,35,15,15,1.0,0.9
2025-12-25T0500,4290A,120.1969,35.9546,青岛市,珠江路669号,,46,46,67,29,33,24,24,,,34,47,10,11,0.7,0.6
2025-12-25T0500,4291A,120.0424,35.8656,青岛市,黄岛区人民政府广场,,48,48,71,22,34,27,27,,,39,39,10,8,0.8,0.8
2025-12-25T0500,1702A,113.0426,23.691,清远市,环保大楼,,,,,,,,,,,,,,,,
2025-12-25T0500,1703A,113.0208,23.7106,清远市,凤城街办,,8,6,36,3,25,25,25,,,14,23,6,10,0.8,0.8
2025-12-25T0500,3025A,113.0477,23.6344,清远市,技师学院,,8,6,41,3,25,23,23,,,16,27,4,9,0.7,0.7
2025-12-25T0500,3318A,112.9903,23.7403,清远市,清新太和,,9,6,36,3,24,27,27,,,12,22,9,13,0.8,0.7
2025-12-25T0500,3455A,113.076,23.7198,清远市,清城东城,,8,6,32,3,21,23,23,,,15,18,5,7,0.8,0.7
2025-12-25T0500,2661A,107.6325,35.7357,庆阳市,庆阳五中,,41,41,74,18,29,65,65,,,10,13,5,5,0.5,0.4
2025-12-25T0500,2662A,107.6364,35.7067,庆阳市,市环保局,,43,43,75,16,20,56,56,,,10,9,3,3,0.7,0.5
2025-12-25T0500,1916A,103.7897,25.5035,曲靖市,环境监测站,,44,44,43,22,22,45,45,,,17,18,23,7,0.4,0.5
2025-12-25T0500,1917A,103.8,25.5364,曲靖市,烟厂办公区,,36,36,43,16,24,47,47,,,18,19,17,6,0.7,0.7
2025-12-25T0500,3376A,103.7947,25.462,曲靖市,南苑二区,,33,33,38,23,21,49,49,,,11,14,14,6,0.5,0.5
2025-12-25T0500,3377A,103.7444,25.5261,曲靖市,曲靖师范学院,,31,31,37,20,28,62,62,,,6,12,3,3,0.4,0.6
2025-12-25T0500,1264A,118.8692,28.9398,衢州市,环保大楼,,10,6,28,3,20,22,22,,,19,31,4,4,0.7,0.8
2025-12-25T0500,1265A,118.8709,28.9666,衢州市,实验学校,,10,7,25,6,19,21,21,,,17,30,4,5,1.0,0.8
2025-12-25T0500,1266A,118.8621,28.9808,衢州市,衢州学院,,10,8,27,6,20,20,20,,,20,30,3,3,0.7,0.7
2025-12-25T0500,1611A,118.5819,24.9117,泉州市,涂山街,,30,,42,21,33,37,37,,,20,23,4,4,0.8,0.7
2025-12-25T0500,1612A,118.5972,24.8978,泉州市,津头埔,,38,,41,26,35,34,34,,,21,24,5,5,0.8,0.7
2025-12-25T0500,1613A,118.6663,24.9424,泉州市,万安,,30,22,47,21,31,37,37,,,22,23,4,4,0.6,0.6
2025-12-25T0500,1614A,118.6117,24.9604,泉州市,清源山,,,,36,,24,,,77,,,14,,4,,0.5
2025-12-25T0500,3529A,118.6333,24.9264,泉州市,城华南路,,26,22,43,18,26,34,34,,,24,24,5,5,0.7,0.6
2025-12-25T0500,2626A,88.8876,29.2718,日喀则市,日喀则监测站,,21,7,21,6,10,66,66,,,2,12,9,12,0.2,0.3
2025-12-25T0500,3726A,88.8781,29.2426,日喀则市,林业技术推广中心,,20,11,18,3,4,61,61,,,3,4,9,10,0.2,0.2
2025-12-25T0500,1659A,119.471,35.4209,日照市,监测站,,39,39,72,16,44,36,36,,,25,38,8,9,0.7,0.8
2025-12-25T0500,1660A,119.523,35.4216,日照市,市政府广场,,39,39,68,17,39,36,36,,,26,31,10,11,0.8,0.9
2025-12-25T0500,1661A,119.5587,35.4044,日照市,港务局,,41,41,70,20,45,35,35,,,25,28,9,9,0.6,0.7
2025-12-25T0500,3507A,119.5328,35.4625,日照市,职业技术学院,,,36,68,12,34,34,34,,,,30,8,8,0.7,0.8
2025-12-25T0500,3604A,119.3266,35.1044,日照市,岚山环保分局,颗粒物(PM10),59,68,87,35,55,31,31,,,34,38,12,18,0.8,1.2
2025-12-25T0500,1835A,111.1922,34.7752,三门峡市,市政府,颗粒物(PM10),62,73,105,33,39,2,2,,,45,35,10,12,0.7,0.5
2025-12-25T0500,1836A,111.1587,34.7942,三门峡市,开发区,颗粒物(PM10),77,104,130,35,37,10,10,,,38,32,7,9,0.6,0.5
2025-12-25T0500,1838A,111.143,34.7955,三门峡市,风景区,,,,116,,35,,,38,,,25,,10,,0.6
2025-12-25T0500,3039A,111.1911,34.7829,三门峡市,三门峡市第一小学,颗粒物(PM10),69,87,120,30,35,2,2,,,47,34,8,9,0.9,0.6
2025-12-25T0500,3598A,111.1,34.7167,三门峡市,富达温泉假日酒店,颗粒物(PM10),58,65,111,27,40,24,24,,,30,35,16,19,0.6,0.7
2025-12-25T0500,2324A,117.6211,26.2625,三明市,三钢,,8,6,41,3,29,16,16,,,13,20,4,8,0.8,0.9
2025-12-25T0500,2325A,117.635,26.2714,三明市,三明二中,,,0,37,,28,14,14,,,11,17,7,10,0.7,0.8
2025-12-25T0500,2326A,117.6028,26.2378,三明市,三元区政府,,,,40,9,28,14,14,,,13,20,6,11,0.7,1.2
2025-12-25T0500,2327A,117.7275,26.3108,三明市,洋溪,,,,36,,35,,,39,,,15,,17,,1.6
2025-12-25T0500,1876A,109.5078,18.2489,三亚市,河东子站,,21,21,27,10,10,52,52,,,8,9,4,4,0.5,0.5
2025-12-25T0500,1877A,109.4964,18.2681,三亚市,河西子站,,25,25,30,11,12,46,46,,,8,9,4,4,0.4,0.3
2025-12-25T0500,3540A,109.7348,18.3443,三亚市,君悦子站,,18,11,34,11,12,57,57,,,7,6,5,5,0.5,0.6
2025-12-25T0500,2624A,91.7608,29.2313,山南市,山南监测站,,15,15,35,3,17,46,46,,,12,18,5,6,0.2,0.4
2025-12-25T0500,2625A,91.7706,29.2436,山南市,山南人民医院,,19,19,34,6,17,34,34,,,15,18,5,6,0.4,0.5
2025-12-25T0500,1674A,116.6794,23.3667,汕头市,金平子站,细颗粒物(PM2.5),70,,39,51,28,59,59,,,16,20,4,6,0.7,0.7
2025-12-25T0500,1675A,116.7244,23.3633,汕头市,龙湖子站,细颗粒物(PM2.5),53,46,35,37,20,56,56,,,14,15,9,10,0.7,0.6
2025-12-25T0500,1676A,116.7258,23.2775,汕头市,濠江子站,细颗粒物(PM2.5),57,47,35,40,23,57,57,,,16,16,6,7,0.7,0.6
2025-12-25T0500,1677A,116.7519,23.4714,汕头市,澄海子站,细颗粒物(PM2.5),62,,42,44,31,48,48,,,19,20,9,8,0.7,0.7
2025-12-25T0500,1678A,116.6092,23.2539,汕头市,潮阳子站,细颗粒物(PM2.5),54,43,30,38,18,57,57,,,14,14,5,6,0.6,0.5
2025-12-25T0500,3444A,116.454,23.2684,汕头市,潮南峡山,颗粒物(PM10),51,51,38,34,20,51,51,,,10,12,8,8,0.7,0.6
2025-12-25T0500,3624A,116.4069,23.2533,汕头市,潮南子站,颗粒物(PM10),61,71,49,39,22,54,54,,,13,17,6,7,0.6,0.6
2025-12-25T0500,1693A,115.3653,22.775,汕尾市,市环保局,,49,34,37,34,25,49,49,,,12,14,7,7,0.7,0.6
2025-12-25T0500,1694A,115.3706,22.7898,汕尾市,市政府,细颗粒物(PM2.5),54,,38,38,26,47,47,,,15,17,7,8,0.6,0.6
2025-12-25T0500,1695A,115.3622,22.7925,汕尾市,新城中学,,48,38,40,33,24,46,46,,,15,16,5,5,0.6,0.6
2025-12-25T0500,2645A,109.9154,33.8715,商洛市,监测站,颗粒物(PM10),62,74,89,25,31,34,34,,,24,20,7,5,0.4,0.4
2025-12-25T0500,3045A,109.9643,33.8471,商洛市,商州区中学,颗粒物(PM10),57,63,98,24,30,27,27,,,29,27,5,5,0.6,0.6
2025-12-25T0500,2408A,115.6702,34.4285,商丘市,环境监测站,细颗粒物(PM2.5),104,88,80,78,73,24,24,,,39,39,3,4,0.7,0.8
2025-12-25T0500,2409A,115.6458,34.4045,商丘市,粮食局,细颗粒物(PM2.5),95,78,72,71,63,22,22,,,41,38,4,5,0.4,0.5
2025-12-25T0500,2410A,115.6293,34.3948,商丘市,睢阳区环保局,细颗粒物(PM2.5),105,86,77,79,62,12,12,,,49,36,6,5,0.5,0.6
2025-12-25T0500,3171A,115.6071,34.4465,商丘市,梁园区档案局,细颗粒物(PM2.5),113,87,75,85,68,7,7,,,63,42,5,5,0.7,0.8
2025-12-25T0500,1141A,121.4,31.238,上海市,普陀,,21,18,50,14,39,66,66,,,14,36,5,5,0.6,0.8
2025-12-25T0500,1142A,121.478,31.2036,上海市,十五厂,,20,18,47,14,37,64,64,,,13,30,6,5,0.7,0.9
2025-12-25T0500,1143A,121.467,31.3008,上海市,虹口,,25,20,51,17,37,52,52,,,16,31,12,10,0.7,0.7
2025-12-25T0500,1147A,121.425,31.2261,上海市,静安监测站,,21,18,46,14,37,67,67,,,8,28,6,6,0.3,0.6
2025-12-25T0500,1148A,121.703,31.1907,上海市,浦东川沙,,20,18,46,13,33,63,63,,,15,30,6,7,0.3,0.6
2025-12-25T0500,1149A,121.533,31.2284,上海市,浦东新区监测站,,29,,44,20,34,68,68,,,8,23,6,6,0.4,0.7
2025-12-25T0500,1150A,121.577,31.2071,上海市,浦东张江,,21,16,41,12,32,66,66,,,10,24,6,6,0.2,0.4
2025-12-25T0500,3265A,121.4316,31.3322,上海市,宝山庙行,,20,16,48,13,36,62,62,,,13,29,5,5,0.6,0.7
2025-12-25T0500,3266A,121.8791,31.4662,上海市,崇明上实东滩,,21,13,37,6,23,66,66,,,4,9,4,4,0.2,0.5
2025-12-25T0500,3268A,121.3162,31.2838,上海市,嘉定南翔,,,20,48,19,43,48,48,,,,30,7,7,0.4,0.6
2025-12-25T0500,3269A,121.3359,30.7456,上海市,金山新城,细颗粒物(PM2.5),74,,52,54,52,32,32,,,24,40,6,6,0.7,0.8
2025-12-25T0500,3270A,121.4996,31.0739,上海市,闵行浦江,,20,18,44,14,36,64,64,,,12,33,6,6,0.5,0.8
2025-12-25T0500,3271A,121.2886,31.1663,上海市,青浦徐泾,,28,21,51,19,43,49,49,,,16,37,4,4,0.4,0.6
2025-12-25T0500,3272A,121.2186,31.0378,上海市,松江图书馆,,25,19,55,17,43,57,57,,,10,36,6,6,0.5,0.8
2025-12-25T0500,3273A,121.3902,31.2059,上海市,长宁仙霞,,25,18,47,17,38,59,59,,,16,34,6,6,0.3,0.4
2025-12-25T0500,3274A,121.7965,31.0507,上海市,浦东惠南,,19,17,39,11,30,60,60,,,17,32,4,3,0.5,0.7
2025-12-25T0500,3544A,121.4891,30.925,上海市,奉贤南桥新城,,33,27,51,23,45,52,52,,,20,42,6,6,0.4,0.7
2025-12-25T0500,4183A,121.4174,31.16637,上海市,冠生园路458号,,25,21,49,17,40,66,66,,,17,33,6,5,0.5,0.6
2025-12-25T0500,4205A,121.5419,31.2683,上海市,宁武路151号,,20,16,42,10,32,62,62,,,15,28,5,5,0.4,0.7
2025-12-25T0500,2381A,118.005,28.4572,上饶市,百草园,,,,,,,,,,,,,,,,
2025-12-25T0500,2382A,117.9756,28.4436,上饶市,市监测站,,11,9,32,6,19,9,9,,,22,26,10,21,0.6,0.8
2025-12-25T0500,2383A,117.9519,28.4628,上饶市,凤凰光学,,12,11,33,6,19,7,7,,,24,27,12,16,0.8,1
2025-12-25T0500,3685A,117.897,28.4315,上饶市,双创科技城,,23,17,31,16,27,15,15,,,29,32,7,20,0.8,0.9
2025-12-25T0500,4211A,118.1904,28.4448,上饶市,裕丰大道,,15,15,40,10,28,22,22,,,21,33,5,13,0.6,0.8
