timepoint,stationcode,longitude,latitude,area,positionname,primarypollutant,aqi,pm10,pm10_24h,pm2_5,pm2_5_24h,o3,o3_24h,o3_8h,o3_8h_24h,no2,no2_24h,so2,so2_24h,co,co_24h
2025-12-25T1400,2566A,102.1879,31.914,阿坝藏族羌族自治州,州农科所,,,,,,,,,,,,,,,,
2025-12-25T1400,2568A,102.2502,31.8896,阿坝藏族羌族自治州,马师校,,19,19,30,12,21,54,54,30,30,11,16,5,5,0.6,0.7
2025-12-25T1400,3994A,102.2165,31.9024,阿坝藏族羌族自治州,马尔康中学西区,,22,22,31,14,14,58,58,36,36,6,13,5,6,0.6,0.7
2025-12-25T1400,2695A,80.292,41.1694,阿克苏地区,电视台,颗粒物(PM10),65,79,82,44,42,24,24,39,29,50,37,4,4,0.8,0.7
2025-12-25T1400,2696A,80.2613,41.1551,阿克苏地区,艺术中心,细颗粒物(PM2.5),90,105,82,67,50,40,40,50,45,23,21,3,4,0.7,0.9
2025-12-25T1400,2204A,105.6467,38.8363,阿拉善盟,西城区西花园,,,,,,,,,,,,,,,,
2025-12-25T1400,2205A,105.6985,38.8411,阿拉善盟,蒙二幼,,24,12,20,3,9,76,76,67,63,6,11,9,9,0.4,0.8
2025-12-25T1400,2206A,105.724,38.8516,阿拉善盟,环保局新楼,,21,13,14,7,6,65,65,72,67,7,5,8,8,0.5,0.5
2025-12-25T1400,2708A,88.1264,47.8517,阿勒泰地区,市站,,24,16,12,3,8,31,31,58,37,48,36,7,4,0.6,0.5
2025-12-25T1400,2630A,80.1161,32.5,阿里地区,阿里监测站,,25,6,3,3,3,77,77,64,64,7,12,9,10,0.3,0.4
2025-12-25T1400,3192A,80.0903,32.5028,阿里地区,阿里藏医院,,25,20,17,7,10,79,79,61,61,9,12,12,12,0.5,0.5
2025-12-25T1400,2642A,109.0318,32.6537,安康市,香溪洞,,,,,,,,,,,,,,,,
2025-12-25T1400,2644A,109.0072,32.6975,安康市,汉滨区检察院,颗粒物(PM10),62,74,60,43,30,24,24,12,12,19,22,4,4,0.4,0.3
2025-12-25T1400,4054A,109.0325,32.6913,安康市,市邮政管理局,颗粒物(PM10),66,82,65,44,36,21,21,10,10,17,23,4,5,0.8,0.7
2025-12-25T1400,2291A,117.0809,30.5177,安庆市,环科院,,,97,88,64,65,90,90,54,54,,13,6,5,0.4,0.6
2025-12-25T1400,2292A,117.0331,30.5119,安庆市,马山宾馆,细颗粒物(PM2.5),82,88,89,60,66,94,94,56,56,12,19,7,5,0.5,0.6
2025-12-25T1400,2294A,116.9896,30.6145,安庆市,安庆大学,细颗粒物(PM2.5),77,85,85,56,45,95,95,58,58,13,17,6,3,0.6,0.6
2025-12-25T1400,3173A,117.0598,30.5351,安庆市,市人大,,,90,91,57,65,91,91,33,,9,21,,5,0.5,0.6
2025-12-25T1400,3122A,105.9606,26.2611,安顺市,伍家关,颗粒物(PM10),52,54,36,23,19,46,46,50,45,12,11,16,12,0.6,0.6
2025-12-25T1400,3123A,105.9408,26.2431,安顺市,凤凰山,细颗粒物(PM2.5),54,51,39,38,26,50,50,53,49,13,13,16,13,0.6,0.6
2025-12-25T1400,3124A,105.9439,26.2564,安顺市,金钟山,细颗粒物(PM2.5),54,48,36,38,29,50,50,52,49,10,11,14,13,0.6,0.6
2025-12-25T1400,3125A,105.8983,26.2481,安顺市,娄家坡,,,,39,,27,45,45,55,47,12,12,13,16,0.8,0.7
2025-12-25T1400,1818A,114.4839,36.0621,安阳市,棉研所,,,,,,,,,,,,,,,,
2025-12-25T1400,1819A,114.3551,36.1017,安阳市,红庙街,,43,39,73,30,47,54,54,37,37,14,35,4,5,0.4,0.7
2025-12-25T1400,1820A,114.361,36.0681,安阳市,银杏小区,,43,43,76,28,50,54,54,36,36,15,34,4,5,0.4,0.7
2025-12-25T1400,3141A,114.3922,36.0878,安阳市,信访局,,48,48,79,31,50,58,58,39,39,14,37,4,5,0.5,0.8
2025-12-25T1400,3669A,114.4705,36.0637,安阳市,左辅环卫站,,49,49,89,22,52,60,60,41,41,12,32,2,3,0.5,0.7
2025-12-25T1400,3703A,114.2917,36.0949,安阳市,安钢职工学校,颗粒物(PM10),53,55,82,33,53,47,47,30,30,18,38,4,6,0.2,0.7
2025-12-25T1400,1748A,123.044,41.1196,鞍山市,深沟寺,,20,20,48,9,33,51,51,48,48,10,32,14,11,0.5,0.8
2025-12-25T1400,1749A,123.011,41.0931,鞍山市,太阳城,,20,20,41,11,27,53,53,52,52,9,26,13,13,0.7,0.7
2025-12-25T1400,1750A,123.0485,41.1442,鞍山市,太平,,19,19,65,9,37,50,50,45,45,10,36,16,14,0.9,1.3
2025-12-25T1400,1751A,122.9642,41.0971,鞍山市,铁西三道街,,20,20,66,9,40,49,49,41,41,10,41,11,28,0.4,1.5
2025-12-25T1400,1753A,123.022,41.0821,鞍山市,明达新区,,,19,41,10,26,52,52,50,50,,27,15,15,0.5,0.5
2025-12-25T1400,1754A,123.1289,41.0228,鞍山市,千山,,,,16,,16,,,36,,,28,,5,,0.5
2025-12-25T1400,4201A,122.9446,41.0826,鞍山市,兴盛南路290号,,25,25,80,10,52,52,52,47,47,17,43,12,18,0.5,1.6
2025-12-25T1400,2195A,107.4212,40.761,巴彦淖尔市,附二中,,38,38,35,16,15,47,47,30,26,9,20,7,4,0.2,0.2
2025-12-25T1400,2196A,107.37,40.7372,巴彦淖尔市,市环保大楼,,32,32,30,7,14,54,54,43,33,8,14,9,4,0.4,0.4
2025-12-25T1400,1956A,86.1472,41.7538,巴音郭楞蒙古自治州,孔雀公园,颗粒物(PM10),61,71,73,30,28,39,39,40,40,22,35,7,8,0.6,0.6
2025-12-25T1400,1957A,86.1972,41.7166,巴音郭楞蒙古自治州,棉纺厂,,,,94,,18,,,38,38,21,30,7,6,,0.6
2025-12-25T1400,1958A,86.2357,41.7173,巴音郭楞蒙古自治州,经济开发区,颗粒物(PM10),55,59,69,8,14,47,47,36,35,16,25,8,6,0.4,0.5
2025-12-25T1400,2914A,106.7677,31.8794,巴中市,苏山坪,,,,,,,,,,,,,,,,
2025-12-25T1400,3181A,106.7768,31.8526,巴中市,市五中,,37,37,57,23,34,53,53,13,13,15,18,5,5,0.7,0.9
2025-12-25T1400,3183A,106.7418,31.8654,巴中市,圣泉水务公司,,45,45,53,23,33,59,59,20,20,14,19,5,5,0.4,0.6
2025-12-25T1400,3616A,106.7616,31.8344,巴中市,市中心医院,,34,34,50,21,32,53,53,15,15,12,18,6,6,0.6,0.8
2025-12-25T1400,2235A,122.7911,45.6077,白城市,洮北区环保局,,28,28,29,15,22,48,48,38,38,10,18,6,7,0.1,0.2
2025-12-25T1400,2236A,122.8738,45.5725,白城市,市环保局,,20,14,18,14,18,50,50,35,35,4,14,9,6,0.3,0.3
2025-12-25T1400,2231A,126.4219,41.9171,白山市,喜丰,,27,27,40,7,24,56,56,44,44,4,23,12,10,0.5,0.7
2025-12-25T1400,2232A,126.4077,41.9419,白山市,环保局,,17,12,30,10,29,54,54,41,41,5,18,11,11,0.4,1
2025-12-25T1400,2647A,104.1724,36.5446,白银市,第三小学,颗粒物(PM10),65,80,43,38,23,58,58,34,34,44,27,46,20,1.0,1.1
2025-12-25T1400,2648A,104.1465,36.5482,白银市,动力公司,细颗粒物(PM2.5),65,74,37,47,20,74,74,44,44,22,17,23,9,1.1,1.1
2025-12-25T1400,2512A,106.6103,23.9011,百色市,市监测站,,16,16,16,11,11,49,49,26,26,10,14,6,6,0.5,0.7
2025-12-25T1400,2513A,106.6538,23.8859,百色市,市中心血站,,,21,23,10,15,56,56,23,23,,23,7,8,0.6,0.8
2025-12-25T1400,3406A,106.6085,23.8798,百色市,祈福高中,,22,22,20,11,11,46,46,22,22,11,17,5,5,0.5,0.6
2025-12-25T1400,2270A,117.396,32.939,蚌埠市,工人疗养院,,48,48,96,24,63,67,67,41,41,14,30,6,6,0.4,0.6
2025-12-25T1400,2271A,117.3605,32.9427,蚌埠市,百货大楼,,40,40,94,28,61,66,66,40,40,14,33,5,5,0.4,0.6
2025-12-25T1400,2273A,117.4185,32.8911,蚌埠市,蚌埠学院,,39,39,81,25,61,68,68,42,42,13,30,5,5,0.3,0.6
2025-12-25T1400,2274A,117.3533,32.9673,蚌埠市,淮上区政府,,46,46,91,29,68,70,70,37,37,10,38,3,3,0.3,0.6
2025-12-25T1400,2275A,117.3145,32.8977,蚌埠市,高新区,,46,46,90,24,66,59,59,32,32,13,40,8,8,0.2,0.5
2025-12-25T1400,3715A,117.3092,32.9314,蚌埠市,蚌埠田家炳中学,,42,42,99,22,65,65,65,33,33,18,43,6,6,0.4,0.6
2025-12-25T1400,1585A,109.8756,40.6532,包头市,市环境监测站,颗粒物(PM10),55,59,39,29,21,66,66,32,32,35,22,50,10,2.8,1
2025-12-25T1400,1587A,109.9991,40.5842,包头市,包头八中,,,32,24,8,12,56,56,32,22,13,21,,5,0.4,0.6
2025-12-25T1400,1588A,109.8538,40.6821,包头市,青山宾馆,颗粒物(PM10),76,101,47,37,31,55,55,29,26,46,27,72,16,2.9,1.1
2025-12-25T1400,1589A,109.8642,40.6288,包头市,惠龙物流,,45,45,34,25,21,60,60,31,25,15,23,32,12,0.8,1
2025-12-25T1400,1590A,110.0377,40.5546,包头市,东河鸿龙湾,,23,23,19,3,6,56,56,32,32,13,20,9,6,0.4,0.6
2025-12-25T1400,3283A,109.9154,40.5685,包头市,滨河大厦,,38,38,24,16,13,58,58,22,22,4,18,7,5,0.5,0.7
2025-12-25T1400,3419A,109.9447,40.6261,包头市,包头市委党校,,48,48,27,23,11,53,53,31,24,21,21,57,11,1.5,0.6
2025-12-25T1400,3683A,109.8331,40.6576,包头市,昆区政府,颗粒物(PM10),65,79,36,23,23,62,62,41,33,34,23,51,16,2.2,1
2025-12-25T1400,1930A,107.185,34.3063,宝鸡市,庙沟村,,,,,,,,,,,,,,,,
2025-12-25T1400,1931A,107.0708,34.3017,宝鸡市,竹园沟,,,56,38,16,19,,,40,29,9,12,7,6,0.3,0.3
2025-12-25T1400,1932A,107.1906,34.3672,宝鸡市,三陆医院,颗粒物(PM10),65,79,67,28,31,62,62,29,29,24,37,8,5,0.3,0.4
2025-12-25T1400,1933A,107.1431,34.3547,宝鸡市,监测站,颗粒物(PM10),64,78,55,27,28,63,63,33,33,17,26,6,4,0.4,0.5
2025-12-25T1400,1934A,107.1186,34.3739,宝鸡市,技工学校,颗粒物(PM10),72,94,58,22,25,62,62,34,34,20,21,5,6,0.3,0.5
2025-12-25T1400,1936A,107.2058,34.3497,宝鸡市,文理学院,颗粒物(PM10),52,53,54,29,26,66,66,36,36,20,30,8,5,0.4,0.4
2025-12-25T1400,1937A,107.2386,34.3622,宝鸡市,三迪小学,颗粒物(PM10),77,104,63,31,34,61,61,31,31,26,36,9,4,0.4,0.6
2025-12-25T1400,4308A,107.3898,34.3601,宝鸡市,陈仓区北开路21号,颗粒物(PM10),68,86,66,25,35,64,64,52,42,22,30,7,45,0.6,0.8
2025-12-25T1400,1051A,115.493,38.8632,保定市,游泳馆,,25,25,39,6,14,55,55,56,45,4,12,2,3,0.2,0.3
2025-12-25T1400,1052A,115.5213,38.8959,保定市,华电二区,,,30,35,12,27,44,44,53,40,,13,,3,0.4,0.4
2025-12-25T1400,1053A,115.4713,38.9108,保定市,接待中心,,,38,42,15,16,49,49,54,43,,16,1,3,0.2,0.2
2025-12-25T1400,1054A,115.4612,38.8416,保定市,地表水厂,,22,22,46,9,17,52,52,47,39,13,23,2,2,0.3,0.4
2025-12-25T1400,3581A,115.31981,38.95208,保定市,满城区生态环境分局,,,,31,,12,,,46,,,19,,3,,0.1
2025-12-25T1400,3582A,115.47694,38.76408,保定市,清苑区第二中学,,20,20,56,3,21,55,55,45,41,7,17,1,3,0.2,0.3
2025-12-25T1400,3583A,115.62909,39.02311,保定市,徐水物探局,,39,39,40,17,18,51,51,36,36,29,28,3,3,0.4,0.4
2025-12-25T1400,4004A,115.4202,38.8656,保定市,双鹰农机,,29,29,37,8,18,57,57,53,48,12,12,6,5,0.2,0.3
2025-12-25T1400,4034A,115.5150,38.8590,保定市,植保所站,,27,27,43,12,24,51,51,52,41,14,20,3,3,0.4,0.4
2025-12-25T1400,2594A,99.1678,25.1081,保山市,市环境监测站,,27,27,23,13,18,78,78,37,37,8,9,2,4,0.2,0.4
2025-12-25T1400,2595A,99.1711,25.1328,保山市,市环保局,,33,33,27,18,17,81,81,44,42,7,6,4,4,0.3,0.3
2025-12-25T1400,1866A,109.2262,21.588,北海市,牛尾岭水库,,,,21,,11,,,43,,,10,,4,,0.6
2025-12-25T1400,1867A,109.1436,21.4086,北海市,海滩公园,,25,25,26,15,12,55,55,39,39,9,12,6,7,0.5,0.8
2025-12-25T1400,1868A,109.0981,21.4661,北海市,新市环保局,,27,27,20,17,15,58,58,40,40,8,11,3,5,0.6,0.7
2025-12-25T1400,1869A,109.1778,21.5233,北海市,北海工业园,,31,31,26,20,15,56,56,38,38,8,11,5,6,0.6,0.8
2025-12-25T1400,3400A,109.1911,21.4415,北海市,龙潭自来水厂,,31,31,23,3,13,56,56,39,39,8,10,6,6,0.8,0.9
2025-12-25T1400,1001A,116.3621,39.8784,北京市,万寿西宫,,23,23,16,7,4,42,42,49,46,19,8,2,2,0.4,0.3
2025-12-25T1400,1002A,116.2202,40.2915,北京市,定陵,,,,,,,,,,,,,,,,
2025-12-25T1400,1003A,116.4174,39.9289,北京市,东四,,23,23,14,9,5,44,44,43,41,12,7,3,2,0.3,0.3
2025-12-25T1400,1004A,116.4072,39.8863,北京市,天坛,,21,21,15,9,5,45,45,49,47,15,7,3,3,0.3,0.3
2025-12-25T1400,1005A,116.462,39.9365,北京市,农展馆,,26,26,13,16,4,44,44,51,46,12,7,5,4,0.5,0.4
2025-12-25T1400,1006A,116.3392,39.9295,北京市,官园,,24,24,15,8,5,43,43,43,43,14,9,4,3,0.5,0.4
2025-12-25T1400,1007A,116.2878,39.9611,北京市,海淀万柳,,19,19,14,8,5,45,45,40,40,17,14,2,2,0.2,0.2
2025-12-25T1400,1008A,116.6636,40.135,北京市,顺义新城,,17,15,13,7,5,52,52,52,51,3,3,5,4,0.2,0.1
2025-12-25T1400,1009A,116.6275,40.3275,北京市,怀柔镇,,17,11,8,3,4,54,54,52,49,3,4,7,6,0.3,0.3
2025-12-25T1400,1010A,116.2296,40.217,北京市,昌平镇,,17,12,11,7,5,54,54,49,48,4,9,5,4,0.3,0.2
2025-12-25T1400,1011A,116.3966,39.9821,北京市,奥体中心,,21,21,13,10,5,44,44,48,45,19,10,5,4,0.4,0.3
2025-12-25T1400,3281A,115.9718,40.4529,北京市,延庆夏都,,18,9,8,3,4,57,57,49,49,4,5,3,2,0.3,0.3
2025-12-25T1400,3418A,116.8336,40.4095,北京市,密云新城,,19,8,11,3,5,59,59,60,56,11,10,3,3,0.4,0.4
2025-12-25T1400,3671A,116.088,39.9726,北京市,门头沟三家店,,19,15,14,3,5,60,60,54,54,2,2,4,5,0.3,0.3
2025-12-25T1400,3672A,116.1541,39.8204,北京市,丰台云岗,,27,27,14,11,4,49,49,52,44,11,6,2,2,0.3,0.3
2025-12-25T1400,3673A,116.6804,39.9081,北京市,通州东关,,21,21,21,10,6,50,50,50,48,3,4,3,3,0.3,0.3
2025-12-25T1400,3674A,115.9577,39.7603,北京市,房山燕山,,42,42,21,16,6,42,42,54,44,16,10,3,3,0.2,0.3
2025-12-25T1400,3675A,116.4672,39.7733,北京市,大兴旧宫,,20,20,16,3,4,49,49,44,44,10,9,2,2,0.4,0.3
2025-12-25T1400,3694A,115.986,40.4563,北京市,延庆石河营,,17,9,9,3,4,54,54,45,45,4,8,3,3,0.3,0.3
2025-12-25T1400,3695A,116.6151,40.3053,北京市,怀柔新城,,17,12,9,3,5,52,52,53,47,7,6,4,4,0.4,0.3
2025-12-25T1400,3696A,116.2545,39.8768,北京市,丰台小屯,,23,23,16,8,5,39,39,43,38,16,11,4,3,0.3,0.3
2025-12-25T1400,3697A,116.84,40.3844,北京市,密云镇,,18,9,12,3,4,57,57,58,55,9,10,3,2,0.3,0.3
2025-12-25T1400,4182A,116.1942,39.9158,北京市,八角北路9号,,30,30,17,7,4,41,41,44,34,7,7,2,2,0.3,0.1
2025-12-25T1400,4194A,117.0790,40.1518,北京市,洳河巡河路,,17,10,12,6,6,52,52,56,51,4,5,3,2,0.2,0.3
2025-12-25T1400,1761A,123.8275,41.3064,本溪市,大峪,,17,12,44,6,29,52,52,47,47,8,24,11,9,0.4,0.7
2025-12-25T1400,1762A,123.7567,41.3325,本溪市,溪湖,,28,28,56,8,33,54,54,47,47,8,30,11,9,0.3,0.8
2025-12-25T1400,1763A,123.7169,41.3094,本溪市,彩屯,,20,20,50,6,34,52,52,42,42,12,31,9,8,0.5,0.9
2025-12-25T1400,1764A,123.7669,41.2864,本溪市,东明,,21,21,38,3,30,47,47,43,43,8,28,10,8,0.7,1
2025-12-25T1400,1765A,123.7992,41.2664,本溪市,新立屯,,17,17,33,9,23,42,42,38,38,7,25,10,7,0.6,0.9
2025-12-25T1400,1766A,123.8142,41.3472,本溪市,威宁,,16,7,61,6,44,51,51,33,33,2,33,7,6,0.4,1.1
2025-12-25T1400,2587A,105.2864,27.3125,毕节市,八中,细颗粒物(PM2.5),58,58,48,41,31,46,46,56,51,9,7,9,8,0.7,0.6
2025-12-25T1400,2588A,105.31,27.2944,毕节市,师专,颗粒物(PM10),55,59,49,36,27,45,45,57,50,12,10,8,8,0.6,0.6
2025-12-25T1400,4263A,105.3688,27.3598,毕节市,工业大道,颗粒物(PM10),56,62,57,38,32,41,41,55,47,16,7,9,9,0.6,0.5
2025-12-25T1400,1629A,118.0018,37.3617,滨州市,第二水厂,,19,,36,7,15,58,58,50,50,8,26,8,10,0.3,0.6
2025-12-25T1400,1630A,117.9776,37.393,滨州市,北中新校,,20,7,33,3,15,62,62,51,51,9,29,4,6,0.1,0.3
2025-12-25T1400,3514A,117.9378,37.3956,滨州市,中海酒店,,21,7,32,3,21,67,67,58,58,9,28,5,8,0.4,0.6
2025-12-25T1400,3515A,117.9378,37.3553,滨州市,开发区一中,,21,7,40,3,17,65,65,56,56,5,25,7,11,0.3,0.5
2025-12-25T1400,3516A,118.0917,37.694,滨州市,金海六路,,,0,32,,12,71,71,66,66,5,22,6,6,0.3,0.4
2025-12-25T1400,4028A,117.9956,37.3753,滨州市,滨州市西街道办事处,,20,,31,7,20,63,63,54,54,10,27,7,9,0,0.3
2025-12-25T1400,2311A,115.8072,33.8399,亳州市,污水处理厂,细颗粒物(PM2.5),75,80,90,55,72,69,69,36,36,19,39,6,7,0.6,0.7
2025-12-25T1400,2312A,115.7789,33.8518,亳州市,三国揽胜宫,颗粒物(PM10),77,103,106,51,70,66,66,36,36,23,45,3,5,0.4,0.6
2025-12-25T1400,3332A,115.7633,33.8034,亳州市,亳州学院,细颗粒物(PM2.5),109,,90,82,72,66,66,43,43,17,40,5,4,,0.6
2025-12-25T1400,2693A,82.0485,44.8556,博尔塔拉蒙古自治州,市党校,颗粒物(PM10),61,72,63,38,32,34,34,39,31,26,19,6,3,0.9,0.8
2025-12-25T1400,2694A,82.0806,44.8969,博尔塔拉蒙古自治州,市环保局,颗粒物(PM10),62,74,62,34,29,48,48,38,32,19,22,9,7,0.8,0.6
2025-12-25T1400,1071A,116.8842,38.2991,沧州市,沧县城建局,,18,14,39,9,23,55,55,48,48,14,23,3,3,0.1,0.2
2025-12-25T1400,1072A,116.8584,38.3254,沧州市,电视转播站,,27,27,43,12,16,53,53,42,42,17,26,4,3,0.4,0.5
2025-12-25T1400,1073A,116.8709,38.3228,沧州市,市环保局,,33,33,45,22,28,43,43,37,37,10,19,2,2,0.1,0.2
2025-12-25T1400,3324A,116.8136,38.3004,沧州市,河北水利电力学院,,23,22,35,16,16,48,48,45,45,16,23,7,6,0.2,0.2
2025-12-25T1400,2622A,97.1806,31.1273,昌都市,昌都监测站,,39,39,50,8,18,65,65,46,46,13,21,4,4,0.6,0.8
2025-12-25T1400,3719A,97.1714,31.1406,昌都市,昌都会议中心,,20,18,17,9,10,62,62,44,43,7,4,1,1,0.5,0.4
2025-12-25T1400,2690A,88.1236,43.8886,昌吉回族自治州,天山天池,,,,,,,,,,,,,,,,
2025-12-25T1400,2692A,87.2717,44.0297,昌吉回族自治州,新区政务中心,,,86,64,44,40,21,21,8,8,49,44,,6,1.5,1.1
2025-12-25T1400,3613A,87.3095,44.0142,昌吉回族自治州,亚心广场,颗粒物(PM10),57,63,52,39,35,35,35,14,14,42,37,9,7,0.9,0.9
2025-12-25T1400,1120A,125.2863,43.9027,长春市,客车厂,,36,,40,25,41,47,47,38,36,8,30,7,10,0.3,0.5
2025-12-25T1400,1121A,125.2841,43.8463,长春市,邮电学院,,19,14,42,13,36,46,46,39,39,6,21,8,12,0.3,0.5
2025-12-25T1400,1122A,125.3716,43.8772,长春市,劳动公园,,18,18,40,11,28,44,44,36,36,8,29,10,11,0.2,0.4
2025-12-25T1400,1123A,125.3297,43.8805,长春市,园林处,,22,,37,15,34,44,44,37,37,5,25,7,8,0.3,0.5
2025-12-25T1400,1124A,125.4605,43.79,长春市,净月潭,,23,23,42,16,34,44,44,36,36,7,28,9,7,0.3,0.5
2025-12-25T1400,1125A,125.7194,43.515,长春市,甩湾子,,,,53,,52,,,44,,,16,,5,,1.1
2025-12-25T1400,1126A,125.3863,43.8447,长春市,经开区环卫处,,22,22,46,11,31,44,44,37,36,12,35,11,11,0.3,0.5
2025-12-25T1400,1127A,125.245,43.7783,长春市,高新区管委会,,15,12,41,10,34,48,48,40,37,6,31,6,6,0.2,0.4
2025-12-25T1400,1128A,125.1761,43.8325,长春市,岱山公园,,21,21,50,13,45,45,45,37,37,6,28,8,8,0.2,0.5
2025-12-25T1400,4281A,125.3346,43.9164,长春市,北亚泰大街1068号,,22,17,38,15,36,46,46,37,37,7,31,7,15,0.4,0.6
2025-12-25T1400,1335A,113.0833,28.2325,长沙市,经开区环保局,颗粒物(PM10),58,65,72,27,59,80,80,48,48,12,23,5,4,0.4,0.7
2025-12-25T1400,1336A,112.8872,28.2189,长沙市,高开区环保局,颗粒物(PM10),58,66,77,28,61,63,63,40,40,8,12,6,5,0.5,0.6
2025-12-25T1400,1337A,113.0792,28.2053,长沙市,马坡岭,颗粒物(PM10),57,64,75,29,53,84,84,49,49,21,23,6,5,0.3,0.6
2025-12-25T1400,1338A,112.9394,28.19,长沙市,湖南师范大学,颗粒物(PM10),58,66,78,25,54,76,76,48,48,12,17,5,4,0.4,0.5
2025-12-25T1400,1339A,113.0178,28.1322,长沙市,雨花区环保局,颗粒物(PM10),59,68,69,14,55,80,80,43,43,10,21,8,7,0.4,0.6
2025-12-25T1400,1340A,112.9792,28.2597,长沙市,伍家岭,颗粒物(PM10),57,64,79,30,55,71,71,40,40,16,22,7,6,0.6,0.7
2025-12-25T1400,1341A,113.0014,28.1944,长沙市,火车新站,颗粒物(PM10),60,69,80,31,60,81,81,42,42,15,25,8,8,0.4,0.7
2025-12-25T1400,1342A,112.9844,28.1178,长沙市,天心区环保局,颗粒物(PM10),58,66,76,38,60,74,74,50,50,19,24,8,7,0.4,0.5
2025-12-25T1400,1343A,112.8908,28.1308,长沙市,湖南中医药大学,颗粒物(PM10),60,69,78,34,60,73,73,48,48,14,17,7,5,0.5,0.7
2025-12-25T1400,1344A,112.9581,28.3611,长沙市,沙坪,,,,,,,,,,,,,,,,
2025-12-25T1400,1727A,113.1147,36.1547,长治市,清华站,,33,33,53,14,19,56,56,28,28,17,24,12,15,0.5,0.7
2025-12-25T1400,1730A,113.0886,36.2125,长治市,审计局,,20,20,47,12,17,58,58,36,36,16,27,15,17,0.4,0.5
2025-12-25T1400,1731A,113.0844,36.1856,长治市,长治八中,,35,35,58,18,29,59,59,28,28,10,20,12,16,0.4,0.6
2025-12-25T1400,2845A,113.1569,36.1911,长治市,德盛苑,,33,33,47,9,21,59,59,38,38,12,18,11,16,0.4,0.6
2025-12-25T1400,3568A,113.06,36.0464,长治市,向阳小学,颗粒物(PM10),52,53,74,7,23,63,63,41,41,15,29,10,15,0.5,0.7
2025-12-25T1400,3569A,112.8792,36.3144,长治市,屯留一中,,20,13,47,3,16,61,61,36,36,11,26,10,14,0.4,0.5
2025-12-25T1400,4189A,113.1131,36.19948,长治市,英华南巷50号,,28,27,57,19,23,60,60,30,30,10,22,10,14,0.6,0.9
2025-12-25T1400,4190A,113.2367,36.3344,长治市,学府街1号,,36,36,48,15,20,59,59,37,37,15,25,14,16,0.6,0.7
2025-12-25T1400,1854A,111.6975,28.9703,常德市,市二中,颗粒物(PM10),71,91,80,33,46,86,86,58,58,10,17,7,7,0.3,0.5
2025-12-25T1400,1857A,111.7158,29.1456,常德市,白鹤山,,,,,,,,,,,,,,,,
2025-12-25T1400,3138A,111.7153,29.0289,常德市,武陵区永安,颗粒物(PM10),78,105,85,33,43,83,83,54,54,10,18,6,5,0.5,0.7
2025-12-25T1400,3139A,111.6892,28.9881,常德市,鼎城区玉霞,,,92,80,32,45,85,85,47,47,,21,9,9,0.5,0.7
2025-12-25T1400,3140A,111.6625,29.0531,常德市,武陵区长庚,颗粒物(PM10),74,98,86,32,46,82,82,50,50,11,16,6,6,0.4,0.6
2025-12-25T1400,1196A,119.9633,31.762,常州市,市监测站,,48,48,76,30,58,73,73,51,51,22,36,7,7,0.4,0.6
2025-12-25T1400,1200A,119.9468,31.7069,常州市,武进监测站,,48,40,78,33,58,73,73,48,48,14,34,9,10,0.5,0.7
2025-12-25T1400,1201A,119.9255,31.9087,常州市,安家,,44,44,80,24,56,57,57,34,34,19,41,11,11,0.7,0.9
2025-12-25T1400,3002A,119.9805,31.8174,常州市,行政中心,颗粒物(PM10),54,58,86,33,56,72,72,47,47,19,36,7,7,0.5,0.6
2025-12-25T1400,3003A,120.0522,31.7748,常州市,经开区,,40,40,79,17,52,73,73,49,49,13,33,3,4,0.5,1
2025-12-25T1400,3010A,119.9025,31.7964,常州市,钟楼,颗粒物(PM10),51,52,78,26,59,67,67,42,42,20,35,8,7,0.2,0.5
2025-12-25T1400,3429A,119.8598,31.7066,常州市,武进经发区,颗粒物(PM10),54,58,83,35,60,73,73,49,49,18,34,9,8,0.5,0.8
2025-12-25T1400,3430A,119.5826,31.7245,常州市,金坛城区,细颗粒物(PM2.5),59,63,93,42,71,74,74,47,47,17,29,9,7,0.5,0.8
2025-12-25T1400,2220A,120.4318,41.5881,朝阳市,西梁,颗粒物(PM10),57,63,39,3,14,55,55,48,47,4,13,5,9,0.3,0.4
2025-12-25T1400,2221A,120.4521,41.5646,朝阳市,河畔小区,颗粒物(PM10),56,62,33,9,10,55,55,48,47,6,12,7,9,0.3,0.4
2025-12-25T1400,2222A,120.4176,41.5648,朝阳市,八里堡,颗粒物(PM10),80,110,41,17,14,55,55,50,49,5,13,6,9,0.3,0.4
2025-12-25T1400,2223A,120.3806,41.5969,朝阳市,农业园区,,47,47,25,12,14,57,57,52,51,2,9,7,9,0.3,0.4
2025-12-25T1400,1705A,116.6367,23.6719,潮州市,西园路,,,,,,,,,,,,,,,,
2025-12-25T1400,3026A,116.6183,23.6608,潮州市,市政府,,14,14,28,3,20,30,30,45,28,6,10,5,7,0.6,0.6
2025-12-25T1400,4036A,116.6461,23.6761,潮州市,金山,,11,11,31,6,22,27,27,41,27,11,12,3,4,0.6,0.5
2025-12-25T1400,2472A,113.0073,25.9061,郴州市,马头岭,,,,,,,,,,,,,,,,
2025-12-25T1400,2473A,113.0116,25.8226,郴州市,市职中,细颗粒物(PM2.5),77,60,38,56,33,16,16,28,15,19,16,3,2,0.7,0.7
2025-12-25T1400,2475A,113.0383,25.8071,郴州市,市审计局,细颗粒物(PM2.5),82,76,43,60,33,21,21,34,22,16,13,3,2,0.9,0.9
2025-12-25T1400,2476A,113.0348,25.7759,郴州市,市环保局,细颗粒物(PM2.5),83,75,43,61,35,14,14,25,15,22,18,2,2,0.5,0.5
2025-12-25T1400,4252A,113.0138,25.8011,郴州市,好美居路49号,细颗粒物(PM2.5),104,83,43,78,42,23,23,36,23,20,16,1,2,0.3,0.3
2025-12-25T1400,1431A,103.9728,30.7236,成都市,金泉两河,颗粒物(PM10),79,108,119,33,65,56,56,16,16,48,56,4,4,0.5,0.9
2025-12-25T1400,1432A,104.176,30.6872,成都市,十里店,颗粒物(PM10),57,63,91,28,43,59,59,19,19,41,58,4,4,0.3,0.6
2025-12-25T1400,1433A,104.079,30.5706,成都市,三瓦窑,细颗粒物(PM2.5),78,89,97,57,53,45,45,18,18,49,56,5,5,0.8,0.9
2025-12-25T1400,1434A,104.1114,30.63,成都市,沙河铺,细颗粒物(PM2.5),69,72,85,50,49,49,49,13,13,52,63,4,4,0.5,0.7
2025-12-25T1400,1437A,104.0786,30.6531,成都市,君平街,颗粒物(PM10),65,79,111,43,62,50,50,16,16,50,65,6,5,0.6,0.9
2025-12-25T1400,1438A,103.613,31.0283,成都市,灵岩寺,,,,,,,,,,,,,,,,
2025-12-25T1400,2880A,104.0239,30.65639,成都市,大石西路,颗粒物(PM10),69,87,104,43,59,38,38,10,10,64,62,6,5,0.7,0.8
2025-12-25T1400,3136A,104.2725,30.5589,成都市,龙泉驿区区政府,颗粒物(PM10),58,66,67,29,32,53,53,34,34,18,32,7,6,0.3,0.4
2025-12-25T1400,3357A,104.0106,30.6931,成都市,金博路,颗粒物(PM10),76,101,101,45,50,34,34,10,10,72,66,6,5,0.6,0.7
2025-12-25T1400,3359A,104.0578,30.5225,成都市,华阳,颗粒物(PM10),78,105,94,51,50,45,45,16,16,46,60,5,4,0.6,0.8
2025-12-25T1400,3488A,104.3880,30.7467,成都市,青石路225号,颗粒物(PM10),64,78,96,42,51,68,68,24,24,30,50,7,5,0.4,0.5
2025-12-25T1400,3489A,104.0789,30.4072,成都市,科学城,细颗粒物(PM2.5),78,85,83,57,41,55,55,24,24,22,44,7,6,0.5,0.6
2025-12-25T1400,4011A,103.8506,30.6947,成都市,光华大道三段,细颗粒物(PM2.5),94,107,118,70,75,48,48,18,18,65,52,6,4,0.8,1
2025-12-25T1400,4224A,104.2433,30.5353,成都市,鲸龙路1057号,颗粒物(PM10),59,68,90,36,49,54,54,27,27,28,48,6,6,0.5,0.7
2025-12-25T1400,1062A,117.9531,40.9081,承德市,铁路,,18,6,23,3,7,55,55,50,48,5,7,4,5,0.2,0.3
2025-12-25T1400,1063A,117.9392,40.9763,承德市,中国银行,,18,,22,3,7,57,57,41,41,1,5,3,3,0.2,0.3
2025-12-25T1400,1064A,117.9503,40.928,承德市,开发区,,25,25,35,9,16,57,57,56,54,6,8,3,5,0.1,0.2
2025-12-25T1400,1066A,117.9268,41.0026,承德市,离宫,,,,,,,,,,,,,,,,
2025-12-25T1400,4274A,117.7994,40.9605,承德市,滨河大街98号,,18,8,22,3,10,55,55,48,48,4,6,12,6,0.2,0.3
2025-12-25T1400,2314A,117.47,30.6618,池州市,池州学院,细颗粒物(PM2.5),82,77,85,60,73,89,89,52,52,14,27,6,4,0.4,0.6
2025-12-25T1400,3237A,117.4918,30.6617,池州市,展览馆,细颗粒物(PM2.5),72,82,94,52,75,90,90,61,61,20,30,4,2,0.6,0.7
2025-12-25T1400,3333A,117.5627,30.695,池州市,第八中学,细颗粒物(PM2.5),83,87,92,61,69,87,87,53,53,22,33,6,4,0.9,1
2025-12-25T1400,3334A,117.5038,30.6243,池州市,第十二中学,细颗粒物(PM2.5),92,96,82,68,67,86,86,52,52,23,31,5,3,0.9,1
2025-12-25T1400,1744A,118.9233,42.2816,赤峰市,松山一中,,30,30,23,3,7,57,57,45,45,5,12,4,5,0.4,0.5
2025-12-25T1400,1745A,118.9576,42.2728,赤峰市,哈达街,,28,28,14,7,8,57,57,47,46,9,13,5,7,0.3,0.3
2025-12-25T1400,1746A,118.8788,42.2554,赤峰市,天义路,,20,20,19,3,11,62,62,48,48,5,10,5,7,0.6,0.6
2025-12-25T1400,3058A,119.2658,42.0353,赤峰市,银河街,颗粒物(PM10),62,73,36,7,11,62,62,54,54,2,6,11,11,0.5,0.5
2025-12-25T1400,3286A,118.9359,42.3147,赤峰市,桥北物流园区,,19,,18,9,9,60,60,48,46,4,9,4,5,0.4,0.5
2025-12-25T1400,2521A,107.3476,22.4136,崇左市,市环保局江州分局,,21,21,11,10,5,51,51,41,41,7,8,8,7,0.4,0.6
2025-12-25T1400,4256A,107.3750,22.3736,崇左市,石景林东路7号,,26,26,12,7,6,56,56,41,41,8,10,7,7,0.4,0.6
2025-12-25T1400,2298A,118.3093,32.3153,滁州市,老年大学,颗粒物(PM10),56,61,100,33,76,67,67,40,40,16,27,20,19,0.5,0.7
2025-12-25T1400,2299A,118.3244,32.2786,滁州市,人大宾馆,颗粒物(PM10),56,61,100,38,83,64,64,43,43,15,24,8,6,0.6,0.8
2025-12-25T1400,3207A,118.3118,32.3038,滁州市,市政府原办公楼,细颗粒物(PM2.5),63,60,99,45,75,69,69,43,43,15,29,6,5,0.4,0.6
2025-12-25T1400,3331A,118.3267,32.2634,滁州市,图书馆,颗粒物(PM10),63,75,99,31,75,66,66,46,46,18,24,10,9,0.4,0.6
2025-12-25T1400,2605A,101.5482,25.0441,楚雄彝族自治州,州环境监测站,,40,39,30,28,24,28,28,14,14,9,17,8,7,0.8,0.6
2025-12-25T1400,2606A,101.538,25.0492,楚雄彝族自治州,市经济开发区,细颗粒物(PM2.5),54,44,34,38,26,32,32,12,12,12,20,9,7,0.7,0.6
2025-12-25T1400,2548A,107.5277,31.2827,达州市,达州职业技术学院,,,,,,,,,,,,,,,,
2025-12-25T1400,2549A,107.5086,31.2186,达州市,市环境监测站,,,54,48,29,30,29,29,10,10,22,26,7,10,,0.4
2025-12-25T1400,2550A,107.4988,31.2132,达州市,凤凰小区,颗粒物(PM10),51,51,48,29,31,33,33,15,15,17,22,5,10,0.3,0.4
2025-12-25T1400,2551A,107.5082,31.1986,达州市,达县机关宾馆,,48,48,48,24,34,26,26,12,12,23,24,4,7,0.5,0.6
2025-12-25T1400,2552A,107.4644,31.2124,达州市,市政中心,颗粒物(PM10),53,56,61,27,31,36,36,14,14,14,22,7,9,0.4,0.6
2025-12-25T1400,2614A,100.1542,25.7054,大理白族自治州,大理市环境监测站,,25,23,21,17,22,52,52,47,39,11,11,6,6,0.7,0.6
2025-12-25T1400,2615A,100.2171,25.5811,大理白族自治州,大理古城,,30,28,22,10,17,93,93,61,53,7,14,8,8,0.8,0.8
2025-12-25T1400,1109A,121.612,38.9741,大连市,甘井子,,26,26,31,8,14,57,57,55,55,8,25,8,10,0.3,0.4
2025-12-25T1400,1110A,121.565,38.9511,大连市,周水子,,29,29,34,7,14,52,52,54,54,12,25,1,4,0.3,0.4
2025-12-25T1400,1111A,121.5637,38.8845,大连市,星海三站,,30,30,33,11,14,51,51,51,51,12,17,7,8,0.4,0.5
2025-12-25T1400,1112A,121.6302,38.9117,大连市,青泥洼桥,,18,18,30,7,13,49,49,50,50,10,20,8,9,0.4,0.6
2025-12-25T1400,1113A,121.6251,38.8638,大连市,傅家庄,,27,27,32,7,12,46,46,46,46,9,17,9,10,0.3,0.4
2025-12-25T1400,1114A,121.5213,38.8661,大连市,七贤岭,,33,33,29,7,11,52,52,51,51,9,15,7,8,0.3,0.5
2025-12-25T1400,1115A,121.2529,38.8061,大连市,旅顺,,18,13,21,3,11,57,57,54,54,3,9,8,8,0.2,0.3
2025-12-25T1400,1116A,121.7485,39.1311,大连市,金州,,18,18,30,8,16,55,55,52,52,4,16,8,10,0.2,0.4
2025-12-25T1400,1117A,121.7811,39.0496,大连市,开发区,,16,16,30,8,16,50,50,48,48,6,17,8,9,0.4,0.5
2025-12-25T1400,1118A,121.9762,39.0631,大连市,双D港,,22,22,31,8,13,57,57,53,53,5,14,11,12,0.2,0.4
2025-12-25T1400,1789A,124.81117,46.03138,大庆市,大同区,,20,20,47,10,20,45,45,41,41,3,21,6,6,0.2,0.5
2025-12-25T1400,1790A,125.129,46.533,大庆市,龙凤区,,,30,32,18,23,41,41,35,33,7,18,5,7,,0.5
2025-12-25T1400,1791A,124.902,46.408,大庆市,红岗区,,18,18,32,9,21,39,39,32,32,7,28,6,11,0.5,0.7
2025-12-25T1400,1792A,125.153,46.586,大庆市,萨尔图区,,22,,26,15,15,44,44,40,36,11,29,8,10,0.6,0.7
2025-12-25T1400,1793A,124.9042,46.6215,大庆市,让胡路区,,30,22,27,21,25,43,43,42,38,2,18,8,9,0.3,0.4
2025-12-25T1400,3481A,125.141,46.634,大庆市,萨区政府监测点,,,21,24,14,11,43,43,34,34,5,23,,11,0.4,0.6
2025-12-25T1400,1721A,113.3819,40.1097,大同市,果树场,,24,24,26,7,15,55,55,40,32,16,20,11,12,0.3,0.5
2025-12-25T1400,1723A,113.2994,40.0758,大同市,云冈宾馆,,31,31,25,12,10,49,49,38,31,15,17,9,7,0.4,0.6
2025-12-25T1400,1724A,113.3444,40.0917,大同市,大同大学,,31,31,24,16,12,51,51,32,30,16,22,6,7,0.4,0.8
2025-12-25T1400,1725A,113.2661,40.1269,大同市,安家小村,,19,,33,13,14,56,56,35,27,9,18,7,9,0.4,1.1
2025-12-25T1400,1726A,113.2711,40.0844,大同市,教育学院,,31,31,25,15,11,47,47,32,30,16,20,7,6,0.3,0.5
2025-12-25T1400,3282A,113.3397,40.0597,大同市,大同市卫生学校,,28,28,25,10,9,48,48,38,28,20,22,9,6,0.4,0.7
2025-12-25T1400,3565A,113.1367,40.1122,大同市,云冈站,,20,10,27,3,10,62,62,30,30,2,21,4,10,0.2,0.5
2025-12-25T1400,3566A,113.1186,40.2556,大同市,图书馆,,,23,31,6,20,60,60,34,34,4,13,,5,,0.6
2025-12-25T1400,3567A,113.5931,40.0461,大同市,区一中,,36,36,22,3,9,59,59,52,39,14,15,21,10,0.4,0.5
2025-12-25T1400,4199A,113.2798,40.0997,大同市,魏都大道141号,,18,18,29,11,13,56,56,37,33,11,19,5,6,0.4,0.7
2025-12-25T1400,2269A,124.1069,50.4097,大兴安岭地区,科技局,,,,18,,18,47,47,43,43,1,2,5,5,0.2,0.2
2025-12-25T1400,3663A,124.1164,50.4278,大兴安岭地区,红旗社区,,17,7,7,3,5,52,52,48,48,2,3,2,3,0.2,0.2
2025-12-25T1400,1600A,124.3303,40.0625,丹东市,江湾东路,,19,19,26,12,16,48,48,49,46,3,12,9,10,0.4,0.7
2025-12-25T1400,1601A,124.4256,40.1503,丹东市,临江后街,,24,24,26,9,13,46,46,49,47,8,14,8,8,0.7,0.8
2025-12-25T1400,1602A,124.3933,40.1461,丹东市,元宝山,,17,17,24,11,14,50,50,49,49,6,12,10,9,0.5,0.7
2025-12-25T1400,1603A,124.3633,40.1092,丹东市,民主桥,,27,27,29,6,13,48,48,48,47,7,15,8,8,0.4,0.6
2025-12-25T1400,3541A,109.5726,19.5167,儋州市,第一中学子站,,18,18,37,10,18,31,31,52,23,6,5,4,3,0.7,0.5
2025-12-25T1400,3542A,109.5567,19.5187,儋州市,东坡学校子站,,26,26,34,10,17,37,37,59,27,7,5,6,4,0.8,0.5
2025-12-25T1400,2616A,98.5842,24.428,德宏傣族景颇族自治州,德宏州监测站,,40,35,42,28,32,75,75,28,28,12,20,10,7,0.5,0.6
2025-12-25T1400,3677A,98.5881,24.4368,德宏傣族景颇族自治州,芒市人民政府综合楼,颗粒物(PM10),52,53,45,34,28,69,69,26,26,10,14,9,8,0.5,0.6
2025-12-25T1400,1901A,104.4239,31.1208,德阳市,东山公园,颗粒物(PM10),53,56,74,25,38,68,68,23,23,11,31,3,3,0.4,0.6
2025-12-25T1400,1902A,104.3826,31.1317,德阳市,西小区,颗粒物(PM10),65,79,94,34,43,54,54,18,18,16,42,3,4,0.5,0.7
2025-12-25T1400,1904A,104.3553,31.1091,德阳市,耐火材料厂,颗粒物(PM10),53,55,97,35,54,64,64,21,21,16,43,2,4,0.6,0.8
2025-12-25T1400,3639A,104.4019,31.1244,德阳市,市教育局,,,62,68,21,38,66,66,19,19,14,46,3,3,,0.7
2025-12-25T1400,1622A,116.3032,37.4674,德州市,儿童乐园,,24,24,52,7,26,58,58,46,46,17,35,10,11,0.7,0.9
2025-12-25T1400,1624A,116.2991,37.4451,德州市,监理站,,22,7,44,3,23,68,68,57,57,14,32,11,12,0.4,0.6
2025-12-25T1400,3066A,116.2721,37.4379,德州市,九衢泉纯净水厂,,20,9,39,7,26,61,61,52,52,13,36,12,11,0.2,0.3
2025-12-25T1400,3371A,116.3728,37.4403,德州市,开发区人民医院,,20,14,45,3,22,61,61,51,51,20,38,10,10,0.6,0.7
2025-12-25T1400,3511A,116.5652,37.3319,德州市,陵城艺术中心,,17,12,61,3,26,53,53,40,40,16,40,12,10,0.6,0.8
2025-12-25T1400,4292A,116.3525,37.4209,德州市,新河东路,,19,17,48,3,26,58,58,51,51,16,43,15,11,0.7,0.8
2025-12-25T1400,2621A,99.7056,27.8317,迪庆藏族自治州,迪庆州站,,22,12,20,8,13,69,69,65,65,5,7,5,5,0.2,0.3
2025-12-25T1400,3180A,99.7136,27.8094,迪庆藏族自治州,质量技术监督局,,24,21,21,6,13,74,74,70,68,5,7,9,8,0.3,0.3
2025-12-25T1400,4257A,104.6092,35.5962,定西市,将台街,,33,29,51,23,33,88,88,40,40,5,24,8,11,0.1,0.5
2025-12-25T1400,4309A,104.6159,35.5701,定西市,正龙路62号,,43,43,52,21,30,85,85,48,48,2,10,4,7,0.2,0.5
2025-12-25T1400,1389A,113.7547,23.0494,东莞市,莞城梨川,,11,6,36,3,21,33,33,18,18,10,27,3,4,0.8,0.8
2025-12-25T1400,1390A,113.7944,23.0128,东莞市,东城石井,,11,6,31,3,20,35,35,21,18,11,28,8,8,0.9,0.9
2025-12-25T1400,1391A,113.7383,22.9658,东莞市,南城西平,,10,6,42,3,24,31,31,15,15,16,46,8,9,0.9,0.9
2025-12-25T1400,3319A,113.7338,23.0381,东莞市,万江金泰,,10,6,39,3,24,32,32,18,16,9,27,5,7,0.9,0.9
2025-12-25T1400,3626A,113.7533,23.0202,东莞市,南城元岭,,12,6,33,3,21,36,36,22,20,13,29,7,8,0.8,0.9
2025-12-25T1400,3627A,113.7875,23.0457,东莞市,东城主山,,11,6,43,3,25,34,34,19,18,13,40,5,6,0.7,0.7
2025-12-25T1400,1666A,118.6614,37.4309,东营市,市环保局,,21,7,37,3,13,67,67,59,59,11,27,6,9,0.4,0.6
2025-12-25T1400,3036A,118.6904,37.4338,东营市,开发区管委会,,37,37,36,3,13,72,72,64,64,6,19,7,10,0.5,0.6
2025-12-25T1400,3365A,118.5719,37.565,东营市,垦利区民丰路,,22,6,29,3,11,70,70,62,62,6,22,3,7,0.8,0.8
2025-12-25T1400,3498A,118.5055,37.8612,东营市,河口城区,,22,6,28,3,7,70,70,70,70,14,21,4,5,0.4,0.5
2025-12-25T1400,3646A,118.4978,37.4623,东营市,胜利站,,21,11,36,3,15,67,67,58,58,10,29,8,10,0.2,0.5
2025-12-25T1400,3734A,118.35,37.26,东营市,理想之城,,20,7,34,3,17,64,64,55,55,14,26,4,6,0.4,0.6
2025-12-25T1400,1591A,110.0023,39.8129,鄂尔多斯市,综合楼,,20,17,19,3,8,61,61,39,39,10,20,7,7,0.3,0.5
2025-12-25T1400,1592A,109.9486,39.8261,鄂尔多斯市,巴音孟克林场办事处,,22,17,26,9,10,69,69,41,41,6,22,6,7,0.3,0.4
2025-12-25T1400,1593A,109.7736,39.5986,鄂尔多斯市,康泽苑,,24,24,17,9,9,69,69,41,41,8,12,7,5,0.3,0.3
2025-12-25T1400,1594A,109.8119,39.5989,鄂尔多斯市,华泰汽车城,,24,24,23,9,10,69,69,35,35,8,14,4,3,0.3,0.3
2025-12-25T1400,1595A,109.9734,39.7884,鄂尔多斯市,奥林花园,,22,22,31,3,6,66,66,29,29,8,24,4,4,0.3,0.4
2025-12-25T1400,2436A,114.8938,30.3994,鄂州市,市政府,细颗粒物(PM2.5),58,55,72,41,69,62,62,37,37,18,22,5,4,0.5,0.7
2025-12-25T1400,2437A,114.8989,30.3714,鄂州市,赵家坝,颗粒物(PM10),56,62,76,34,67,76,76,44,44,10,13,8,6,0.4,0.9
2025-12-25T1400,3654A,114.8094,30.4089,鄂州市,精准医疗中心,细颗粒物(PM2.5),57,58,80,40,73,83,83,43,43,9,15,4,5,0.5,1
2025-12-25T1400,2454A,109.4978,30.2981,恩施土家族苗族自治州,湖北民院,,46,46,33,26,30,73,73,38,38,7,12,6,5,0.5,0.7
2025-12-25T1400,2455A,109.4707,30.2798,恩施土家族苗族自治州,州电力总公司,,48,48,39,24,30,66,66,25,25,12,20,6,6,0.6,0.9
2025-12-25T1400,3549A,109.5061,30.3772,恩施土家族苗族自治州,龙凤新区,,46,46,43,29,30,60,60,24,24,5,8,6,6,0.4,0.6
2025-12-25T1400,2499A,108.3411,21.6158,防城港市,沙万,,26,26,24,11,15,55,55,37,37,8,11,6,6,0.3,0.5
2025-12-25T1400,2500A,108.3514,21.7731,防城港市,防城档案局,,37,37,28,3,8,56,56,33,33,8,10,4,4,0.5,0.7
2025-12-25T1400,2501A,108.3506,21.6414,防城港市,大海花园,,,21,18,11,12,59,59,37,37,10,11,5,5,,0.7
2025-12-25T1400,1371A,113.1294,23.0067,佛山市,湾梁,,24,24,47,3,19,21,21,18,15,18,29,7,7,0.8,0.7
2025-12-25T1400,1372A,113.1083,23.0478,佛山市,华材职中,,17,17,49,6,26,23,23,17,16,20,33,6,6,0.9,0.8
2025-12-25T1400,1373A,113.144,23.0453,佛山市,南海气象局,,22,22,40,9,27,21,21,17,14,19,29,8,8,0.8,0.8
2025-12-25T1400,1374A,113.2881,22.8094,佛山市,顺德苏岗,,9,6,37,3,19,25,25,15,12,18,33,6,6,0.9,0.8
2025-12-25T1400,1376A,112.8383,22.8678,佛山市,高明孔堂,,21,21,41,7,24,26,26,26,19,16,24,7,6,0.7,0.7
2025-12-25T1400,1377A,112.8836,23.1588,佛山市,三水监测站,,19,19,40,3,13,29,29,25,23,15,26,4,4,0.8,0.8
2025-12-25T1400,1378A,112.867,23.185,佛山市,三水云东海,,16,16,37,10,14,28,28,23,22,21,24,4,6,0.6,0.7
2025-12-25T1400,3625A,113.2544,22.7642,佛山市,容桂街道办,,24,24,40,7,21,26,26,17,13,18,34,6,6,0.8,0.8
2025-12-25T1400,1280A,119.3903,26.0543,福州市,鼓山,,,,11,,14,,,43,,,15,,1,,0.3
2025-12-25T1400,1282A,119.2681,26.0504,福州市,师大,,15,6,27,3,10,9,9,32,10,30,34,6,6,0.6,0.5
2025-12-25T1400,1283A,119.2984,26.1028,福州市,五四北路,,,,25,0,24,15,15,33,14,24,29,4,4,0.7,0.7
2025-12-25T1400,1284A,119.2648,26.0768,福州市,杨桥西路,,10,6,24,3,23,13,13,34,13,19,25,4,4,0.7,0.6
2025-12-25T1400,1285A,119.317,26.0746,福州市,紫阳,,13,6,27,3,26,11,11,29,11,25,28,6,7,0.7,0.6
2025-12-25T1400,3048A,119.5799,26.0936,福州市,九龙,,12,6,22,3,19,28,28,28,16,24,25,6,4,0.6,0.6
2025-12-25T1400,3526A,119.5189,25.9664,福州市,吴航,,12,6,19,3,10,38,38,31,21,21,25,4,3,0.5,0.6
2025-12-25T1400,1755A,123.7977,41.8491,抚顺市,望花区,,20,20,54,10,39,55,55,34,34,8,31,6,5,0.4,0.9
2025-12-25T1400,1756A,123.9161,41.8822,抚顺市,顺城区,,23,23,56,6,40,54,54,37,37,6,34,8,9,0.4,0.8
2025-12-25T1400,1757A,124.0436,41.8611,抚顺市,东洲区,,20,20,62,7,46,46,46,33,33,5,33,8,16,0.6,1
2025-12-25T1400,1758A,123.9247,41.8642,抚顺市,新抚区,,21,21,54,7,38,49,49,40,40,9,33,10,9,0.5,0.9
2025-12-25T1400,1759A,124.0972,41.8961,抚顺市,大伙房水库,,17,16,52,8,30,52,52,42,42,3,27,11,11,0.5,0.8
2025-12-25T1400,1760A,123.7086,41.8391,抚顺市,沈抚新城,,17,15,69,10,59,54,54,37,37,5,41,8,9,0.4,0.8
2025-12-25T1400,2376A,116.2127,28.0814,抚州市,桐源党溪,,,,,,,,,,,,,,,,
2025-12-25T1400,2377A,116.3544,27.9831,抚州市,市站,颗粒物(PM10),52,54,33,34,21,79,79,58,58,12,14,4,5,0.8,1
2025-12-25T1400,2378A,116.3565,27.963,抚州市,血防站,,,50,36,33,20,83,83,60,60,14,17,4,3,,0.9
2025-12-25T1400,2379A,116.3564,28.0007,抚州市,采茶剧团,,50,50,54,27,23,81,81,58,58,6,9,4,3,0.9,0.9
2025-12-25T1400,2380A,116.385,27.9647,抚州市,医学分院,,47,47,36,28,18,80,80,59,59,7,13,6,4,0.8,0.9
2025-12-25T1400,2207A,121.6094,41.998,阜新市,工业园区,,47,47,32,3,11,52,52,50,46,3,10,9,9,0.2,0.3
2025-12-25T1400,2208A,121.6697,42.0279,阜新市,长青街,,32,32,16,3,8,54,54,54,50,4,8,7,7,0.3,0.4
2025-12-25T1400,2209A,121.6673,42.0705,阜新市,农业园区,,35,35,19,3,7,48,48,49,47,4,7,6,6,0.2,0.3
2025-12-25T1400,2210A,121.6717,42.0224,阜新市,东苑,颗粒物(PM10),51,51,27,7,11,53,53,54,50,2,7,4,4,0.4,0.4
2025-12-25T1400,2211A,121.6506,42.0498,阜新市,玉龙新城,,40,40,30,3,9,50,50,50,46,4,14,8,8,0.3,0.4
2025-12-25T1400,2301A,115.8277,32.8929,阜阳市,市监测站,细颗粒物(PM2.5),64,70,102,46,76,67,67,42,42,17,39,7,5,0.4,0.6
2025-12-25T1400,2303A,115.8554,32.8605,阜阳市,开发区,细颗粒物(PM2.5),68,49,95,49,60,69,69,40,40,17,37,7,5,0.6,0.8
2025-12-25T1400,2875A,115.784,32.8892,阜阳市,阜阳职业技术学院,细颗粒物(PM2.5),55,53,93,39,72,70,70,46,46,15,34,8,7,0.4,0.6
2025-12-25T1400,3468A,115.7901,32.8613,阜阳市,市规划展馆,颗粒物(PM10),65,79,98,39,72,71,71,46,46,17,37,8,8,0.1,0.3
2025-12-25T1400,3469A,115.836,32.9183,阜阳市,枣园社区,颗粒物(PM10),66,81,104,47,76,69,69,40,40,18,39,7,7,0.4,0.6
2025-12-25T1400,2669A,102.9099,34.9841,甘南藏族自治州,州政府,,33,33,45,16,32,75,75,37,37,9,21,10,7,0.4,0.6
2025-12-25T1400,3380A,102.8914,34.9617,甘南藏族自治州,甘肃民族师范学院,,36,36,54,9,20,56,56,26,26,10,23,10,6,0.8,0.6
2025-12-25T1400,2570A,101.9603,30.0475,甘孜藏族自治州,水桥子,,23,6,16,3,8,72,72,74,68,8,7,8,7,0.3,0.3
2025-12-25T1400,3065A,101.9533,29.9972,甘孜藏族自治州,州环保局,,23,17,18,7,7,71,71,76,73,12,9,6,5,0.3,0.3
2025-12-25T1400,3414A,115.8347,28.932,赣江新区,桑海产业园,颗粒物(PM10),67,83,53,46,39,90,90,56,56,10,12,10,7,0.8,0.8
2025-12-25T1400,2362A,114.9017,25.9149,赣州市,通天岩,,28,22,18,12,10,88,88,59,59,4,11,13,16,0.5,1.2
2025-12-25T1400,2363A,114.9367,25.8664,赣州市,地委,,46,46,30,13,10,79,79,48,48,8,16,7,6,0.6,0.8
2025-12-25T1400,2364A,114.9461,25.8481,赣州市,气象台,,44,44,34,12,8,85,85,54,54,8,18,3,3,0.5,0.8
2025-12-25T1400,2365A,114.9322,25.8333,赣州市,市图书馆,,27,27,14,14,9,75,75,46,46,13,20,4,4,0.5,0.8
2025-12-25T1400,2366A,114.8905,25.8471,赣州市,华坚鞋城,,28,28,18,15,9,75,75,43,43,8,19,4,4,0.1,0.5
2025-12-25T1400,3109A,115.0093,25.8613,赣州市,赣县区卫计委,,28,,8,17,9,89,89,59,59,6,12,8,7,0.3,0.6
2025-12-25T1400,2683A,106.2319,36.1417,固原市,马园,,,,,,,,,,,,,,,,
2025-12-25T1400,2684A,106.2792,36.0022,固原市,监测站,,23,21,43,12,20,72,72,49,49,7,22,4,5,0.4,0.7
2025-12-25T1400,2685A,106.2375,36.0211,固原市,新区,,30,30,47,7,14,70,70,37,37,9,32,4,3,0.5,1
2025-12-25T1400,3522A,106.2177,35.9959,固原市,原州区十五小,,26,26,38,11,15,66,66,55,55,8,16,2,3,0.4,0.5
2025-12-25T1400,2543A,106.6308,30.5278,广安市,小平旧居,,,,,,,,,,,,,,,,
2025-12-25T1400,2544A,106.6303,30.4576,广安市,市委,细颗粒物(PM2.5),57,47,49,40,37,23,23,15,15,14,20,2,2,0.7,0.8
2025-12-25T1400,2545A,106.6271,30.4663,广安市,友谊中学,细颗粒物(PM2.5),53,39,45,37,36,34,34,22,22,11,16,2,3,0.6,0.8
2025-12-25T1400,2547A,106.6388,30.4551,广安市,广电花园,细颗粒物(PM2.5),52,37,40,36,38,20,20,12,12,14,20,3,3,0.6,0.6
2025-12-25T1400,2902A,106.6351,30.4865,广安市,北辰小学,,48,39,43,33,36,29,29,19,19,10,13,6,6,0.7,0.7
2025-12-25T1400,2523A,105.8945,32.4535,广元市,黑石坡,,,,,,,,,,,,,,,,
2025-12-25T1400,2524A,105.821,32.4444,广元市,老城,,50,50,55,26,26,67,67,23,23,22,44,9,5,0.8,1
2025-12-25T1400,2526A,105.8628,32.4287,广元市,监测站,,44,44,66,25,29,62,62,20,20,24,35,6,7,0.7,1
2025-12-25T1400,3617A,105.8047,32.4166,广元市,经开区,颗粒物(PM10),52,53,70,25,30,57,57,17,17,27,42,11,7,0.6,0.7
2025-12-25T1400,1345A,113.2347,23.1423,广州市,广雅中学,,20,20,40,9,20,17,17,15,11,16,29,3,3,0.9,0.9
2025-12-25T1400,1346A,113.2612,23.105,广州市,市五中,,12,12,36,7,21,27,27,20,16,20,36,7,7,0.7,0.7
2025-12-25T1400,1348A,113.3478,23.0916,广州市,广东商学院,,9,9,32,3,19,24,24,15,13,11,24,6,6,0.9,0.9
2025-12-25T1400,1349A,113.4332,23.1047,广州市,市八十六中,,10,10,32,3,18,30,30,17,14,12,33,6,7,1.0,1
2025-12-25T1400,1350A,113.3505,22.9483,广州市,番禺中学,,13,13,40,6,22,30,30,18,16,20,31,4,5,0.9,0.9
2025-12-25T1400,1351A,113.2146,23.3916,广州市,花都师范,,10,10,24,3,12,22,22,18,17,15,20,6,6,0.8,0.7
2025-12-25T1400,1352A,113.2597,23.1331,广州市,市监测站,,14,14,36,6,19,24,24,17,14,16,31,4,4,1.0,0.9
2025-12-25T1400,1353A,113.5618,23.312,广州市,九龙镇镇龙,,10,6,29,3,17,29,29,17,15,14,20,5,7,0.7,0.7
2025-12-25T1400,1354A,113.2765,23.1544,广州市,麓湖,,12,12,31,7,20,26,26,15,15,15,30,9,8,0.8,0.6
2025-12-25T1400,1355A,113.443,23.3035,广州市,帽峰山森林公园,,,,,,,,,,,,,,,,
2025-12-25T1400,2846A,113.3221,23.1322,广州市,体育西,,14,14,36,9,21,23,23,12,12,15,27,6,5,0.8,0.7
2025-12-25T1400,3298A,113.5717,23.5491,广州市,从化街口,,10,6,24,3,17,30,30,17,17,13,19,8,10,0.7,0.8
2025-12-25T1400,3299A,113.3472,23.3692,广州市,白云竹料,,9,7,24,3,15,28,28,20,19,13,18,4,4,0.8,0.8
2025-12-25T1400,3300A,113.2981,23.237,广州市,白云嘉禾,,11,11,35,3,18,27,27,15,15,16,29,6,5,0.9,0.9
2025-12-25T1400,3301A,113.4256,23.1716,广州市,黄埔科学城,,,8,30,3,18,30,30,20,17,13,26,,7,1.1,1.1
2025-12-25T1400,3302A,113.3942,23.0483,广州市,番禺大学城,,,19,52,3,19,26,26,16,14,,28,112,14,0.8,0.8
2025-12-25T1400,3303A,113.4922,22.8168,广州市,南沙黄阁,,19,19,38,6,16,24,24,20,12,23,38,6,7,1.1,1.1
2025-12-25T1400,3304A,113.5342,22.7896,广州市,南沙街,,14,14,35,6,15,17,17,15,8,20,34,7,6,0.8,0.7
2025-12-25T1400,3443A,113.2902,23.5544,广州市,花都梯面,,8,8,20,3,13,21,21,19,19,12,15,5,6,0.8,0.8
2025-12-25T1400,3445A,113.7858,23.7478,广州市,从化良口,,16,6,19,3,15,51,51,24,24,10,15,6,9,0.7,0.9
2025-12-25T1400,3446A,113.8051,23.2614,广州市,增城荔城,,11,6,24,3,21,34,34,24,18,11,20,4,5,0.7,0.7
2025-12-25T1400,2505A,109.568,23.1478,贵港市,德智高中,,,,,,,,,,,,,,,,
2025-12-25T1400,2506A,109.6047,23.0666,贵港市,江南子站,,34,34,16,9,4,70,70,54,54,10,11,4,4,0.4,0.6
2025-12-25T1400,2508A,109.5669,23.1065,贵港市,荷城子站,,29,29,14,19,8,64,64,47,47,10,11,3,3,0.7,0.9
2025-12-25T1400,3405A,109.5886,23.1172,贵港市,新世纪学校,,34,34,16,17,12,71,71,53,53,10,13,1,1,0.4,0.6
2025-12-25T1400,4260A,109.5933,23.0951,贵港市,中山路155-3号,,30,30,14,10,7,71,71,57,57,9,12,3,2,0.5,0.6
2025-12-25T1400,1439A,106.6899,26.5998,贵阳市,马鞍山,,,31,30,,19,53,53,36,36,9,11,,5,0.4,0.6
2025-12-25T1400,1441A,106.6243,26.6266,贵阳市,鉴湖路,,,39,37,9,15,59,59,44,44,,15,3,3,0.3,0.5
2025-12-25T1400,1442A,106.7487,26.6343,贵阳市,燕子冲,,35,31,31,24,25,67,67,48,48,8,10,9,6,0.5,0.6
2025-12-25T1400,1443A,106.6555,26.4365,贵阳市,碧云窝,,39,39,40,14,19,55,55,40,40,14,14,8,6,0.2,0.4
2025-12-25T1400,1445A,106.7109,26.6027,贵阳市,红边门,,39,39,34,19,22,66,66,47,47,7,11,8,7,0,0.1
2025-12-25T1400,1446A,106.7164,26.5699,贵阳市,新华路,,,,41,,20,63,63,45,45,11,13,6,6,0.3,0.5
2025-12-25T1400,1447A,106.674,26.5424,贵阳市,太慈桥,,31,31,34,12,18,62,62,46,46,12,16,6,4,0.2,0.3
2025-12-25T1400,1552A,106.805,26.3003,贵阳市,桐木岭,,,56,38,22,23,,,53,53,,3,12,6,,0.8
2025-12-25T1400,4230A,106.6882,26.5695,贵阳市,花果园大街66号,,19,19,24,11,15,38,38,27,27,10,15,4,3,0.2,0.4
2025-12-25T1400,4231A,106.6873,26.5169,贵阳市,漓江路57号,,39,39,34,17,20,63,63,46,46,12,16,6,6,0.5,0.6
2025-12-25T1400,1862A,110.4144,25.3167,桂林市,电子科大尧山校区,,,,,,,,,,,,,,,,
2025-12-25T1400,1864A,110.3089,25.2708,桂林市,龙隐路小学,颗粒物(PM10),55,60,30,19,19,80,80,62,62,8,11,7,6,0.3,0.5
2025-12-25T1400,1865A,110.2869,25.2178,桂林市,八中,颗粒物(PM10),56,61,29,21,19,72,72,54,54,14,14,8,7,0.2,0.4
2025-12-25T1400,3531A,110.296,25.1253,桂林市,旅游学院,,,56,26,14,17,86,86,67,67,9,12,,4,0.4,0.5
2025-12-25T1400,4222A,110.1835,25.2444,桂林市,环湖路276号,颗粒物(PM10),57,63,32,24,24,68,68,56,56,8,9,6,5,0.3,0.4
2025-12-25T1400,4301A,110.2803,25.2773,桂林市,信义路13号,颗粒物(PM10),57,63,32,21,19,76,76,60,60,10,12,5,4,0.3,0.5
2025-12-25T1400,2674A,100.2561,34.4714,果洛藏族自治州,玛沁县大武镇,,31,31,45,6,8,77,77,45,45,3,5,11,14,0.4,0.4
2025-12-25T1400,1129A,126.5422,45.755,哈尔滨市,岭北,,,,,,,,,,,,,,,,
2025-12-25T1400,1130A,126.561,45.8167,哈尔滨市,松北商大,,,28,55,15,44,36,36,31,31,,44,20,8,0.5,0.9
2025-12-25T1400,1132A,126.599,45.7222,哈尔滨市,南岗学府路,,27,27,56,8,39,35,35,26,26,9,36,16,17,0.4,0.7
2025-12-25T1400,1133A,126.689,45.7733,哈尔滨市,太平宏伟公园,,32,32,67,16,56,41,41,32,32,7,37,21,20,0.7,1.1
2025-12-25T1400,1134A,126.635,45.7667,哈尔滨市,道外承德广场,,42,42,69,16,42,37,37,32,32,12,36,22,14,0.5,0.8
2025-12-25T1400,1136A,126.6411,45.7258,哈尔滨市,动力和平路,,23,23,55,9,38,39,39,32,32,8,38,12,18,0.5,0.8
2025-12-25T1400,1137A,126.593,45.7478,哈尔滨市,道里建国路,,26,19,56,18,51,35,35,31,31,11,36,11,15,0,0.6
2025-12-25T1400,1138A,126.615,45.61,哈尔滨市,平房东轻厂,,35,,80,24,68,34,34,24,24,12,47,7,13,0.5,1
2025-12-25T1400,1139A,126.595,45.9855,哈尔滨市,呼兰师专,,,29,77,17,79,33,33,28,28,6,36,,11,0.6,1.2
2025-12-25T1400,1140A,126.6206,45.6842,哈尔滨市,省农科院,,25,25,71,14,56,40,40,33,33,8,46,11,19,0.4,0.9
2025-12-25T1400,4282A,126.6769,45.7379,哈尔滨市,华山路1号,,17,17,51,9,39,39,39,32,32,10,36,18,26,0.4,0.9
2025-12-25T1400,4283A,126.9717,45.5356,哈尔滨市,解放大街52号,,39,39,96,8,84,36,36,24,24,19,42,15,10,0.7,1.2
2025-12-25T1400,2688A,93.5128,42.8172,哈密市,地区监测站,"颗粒物(PM10),细颗粒物(PM2.5)",53,55,48,37,28,52,52,38,38,19,30,8,6,0.2,0.5
2025-12-25T1400,2689A,93.4961,42.8328,哈密市,哈密师范学校,颗粒物(PM10),53,56,47,30,23,32,32,23,23,28,34,16,10,0.4,0.7
2025-12-25T1400,2671A,100.9048,36.9639,海北藏族自治州,海晏县西海镇,,44,44,53,29,40,88,88,59,59,6,17,11,12,0.6,0.7
2025-12-25T1400,3867A,102.0738,36.5056,海东市,平安区公安北苑,颗粒物(PM10),65,80,67,40,46,71,71,33,32,22,22,41,21,1.4,1
2025-12-25T1400,1409A,110.576,19.9507,海口市,东寨港,,,,,,,,,,,,,,,,
2025-12-25T1400,1410A,110.3232,20.0574,海口市,海南大学,,22,22,33,10,17,47,47,73,31,10,9,7,6,0.6,0.4
2025-12-25T1400,1411A,110.283,20.0053,海口市,秀英海南医院,,23,23,30,13,17,47,47,70,29,11,11,9,7,0.5,0.4
2025-12-25T1400,1412A,110.338,19.9969,海口市,海南师范大学,,25,25,29,11,17,48,48,80,34,12,10,8,6,0.6,0.5
2025-12-25T1400,1413A,110.33,20.0356,海口市,龙华路环保局宿舍,,24,24,30,11,17,48,48,77,32,12,11,10,8,0.8,0.7
2025-12-25T1400,3539A,110.5111,19.9736,海口市,桂林洋子站,,19,19,33,10,18,46,46,76,33,16,11,10,8,0.6,0.4
2025-12-25T1400,2673A,100.6188,36.2866,海南藏族自治州,共和县恰卜恰镇,,42,42,47,29,26,84,84,51,51,9,20,16,12,0.7,0.6
2025-12-25T1400,2676A,97.3731,37.3753,海西蒙古族藏族自治州,德令哈市,,30,30,32,3,12,71,71,71,66,13,6,16,12,0.4,0.4
2025-12-25T1400,1048A,114.5302,36.6116,邯郸市,东污水处理厂,,28,,60,19,49,60,60,39,39,9,35,3,5,0.4,0.7
2025-12-25T1400,1049A,114.4918,36.5713,邯郸市,矿院,,32,,57,22,48,62,62,39,39,16,38,4,5,0.3,0.6
2025-12-25T1400,1050A,114.484,36.6133,邯郸市,丛台公园,,25,,62,17,45,63,63,48,48,12,31,6,11,0.3,0.6
2025-12-25T1400,3458A,114.7895,36.5593,邯郸市,香泉濮院小区,,28,,76,19,57,64,64,46,46,7,35,2,5,0.3,0.8
2025-12-25T1400,3579A,114.50634,36.77178,邯郸市,永年区实验高中,,29,29,82,3,39,58,58,33,33,12,47,3,6,0.3,0.9
2025-12-25T1400,3580A,114.20016,36.44293,邯郸市,峰峰矿区临水派出所,,,,49,27,44,60,60,43,40,,22,6,6,0.6,0.7
2025-12-25T1400,2634A,106.9893,33.1842,汉中市,汉川机床厂子校,,,,,,,,,,,,,,,,
2025-12-25T1400,2635A,107.0154,33.0706,汉中市,市监测站,,,,75,22,48,63,63,23,23,13,32,5,5,0.3,1
2025-12-25T1400,2636A,107.0089,33.1138,汉中市,鑫源开发区,颗粒物(PM10),53,56,79,20,49,71,71,30,30,11,31,5,6,0.4,0.9
2025-12-25T1400,2637A,107.007,33.0323,汉中市,南郑大河坎水厂,颗粒物(PM10),55,60,80,22,48,73,73,27,27,11,23,6,5,0.4,0.8
2025-12-25T1400,1223A,120.2072,30.2111,杭州市,滨江,,45,45,51,29,41,72,72,48,48,19,28,10,8,0.5,0.7
2025-12-25T1400,1224A,120.0633,30.2747,杭州市,西溪,,48,48,50,20,28,81,81,54,54,18,31,9,8,0.9,1.1
2025-12-25T1400,1226A,120.3417,30.3150,杭州市,下沙,,46,46,67,31,55,76,76,47,47,19,34,8,6,0.6,0.9
2025-12-25T1400,1227A,120.1269,30.2456,杭州市,卧龙桥,,45,45,50,27,32,78,78,54,54,14,25,10,9,0.5,0.7
2025-12-25T1400,1228A,120.1903,30.2692,杭州市,浙江农大,,42,41,50,29,51,74,74,47,47,27,38,5,2,0.4,0.6
2025-12-25T1400,1230A,120.1197,30.3119,杭州市,和睦小学,,46,46,59,30,34,65,65,53,53,19,31,6,4,0.6,0.8
2025-12-25T1400,1231A,120.3019,30.4183,杭州市,临平镇,,48,48,65,30,60,82,82,53,53,10,25,8,6,0.5,1
2025-12-25T1400,1232A,120.2753,30.1839,杭州市,城厢镇,颗粒物(PM10),51,52,50,27,43,81,81,53,53,14,25,9,8,0.6,0.9
2025-12-25T1400,1233A,120.0883,30.1808,杭州市,云栖,,50,50,39,29,36,82,82,54,54,13,22,6,4,0.7,0.9
2025-12-25T1400,3557A,119.9464,30.0494,杭州市,镇二中,,,43,33,36,29,71,71,48,48,20,27,6,5,,1
2025-12-25T1400,3558A,119.7183,30.2367,杭州市,市府大楼,颗粒物(PM10),51,51,41,35,28,81,81,60,60,12,16,11,9,0.6,0.8
2025-12-25T1400,3656A,120.1556,30.2864,杭州市,消防大队,,47,47,74,32,60,76,76,52,52,13,28,7,5,0.7,0.8
2025-12-25T1400,1270A,117.1959,31.7848,合肥市,明珠广场,颗粒物(PM10),62,73,93,41,67,70,70,36,36,20,31,8,6,0.8,1
2025-12-25T1400,1271A,117.3072,31.8764,合肥市,三里街,细颗粒物(PM2.5),62,70,92,44,64,70,70,34,34,17,32,7,6,0.7,0.8
2025-12-25T1400,1272A,117.2588,31.8707,合肥市,琥珀山庄,细颗粒物(PM2.5),62,68,96,44,66,72,72,34,34,17,31,10,8,0.8,1
2025-12-25T1400,1273A,117.1604,31.9052,合肥市,董铺水库,,,,,,,,,,,,,,,,
2025-12-25T1400,1274A,117.25,31.8571,合肥市,长江中路,颗粒物(PM10),63,75,94,42,66,71,71,33,33,17,29,10,8,0.7,0.8
2025-12-25T1400,1275A,117.266,31.9436,合肥市,庐阳区,"颗粒物(PM10),细颗粒物(PM2.5)",62,73,93,44,61,74,74,38,38,27,30,12,10,0.7,0.8
2025-12-25T1400,1276A,117.3453,31.8616,合肥市,瑶海区,颗粒物(PM10),62,73,95,39,65,74,74,37,37,20,36,7,6,0.5,0.7
2025-12-25T1400,1277A,117.3027,31.7964,合肥市,包河区,细颗粒物(PM2.5),67,70,91,48,68,64,64,37,37,27,42,8,7,0.7,0.9
2025-12-25T1400,1278A,117.2776,31.7385,合肥市,滨湖新区,细颗粒物(PM2.5),64,73,96,46,72,72,72,37,37,21,38,6,5,0.8,1
2025-12-25T1400,1279A,117.1318,31.8403,合肥市,高新区,颗粒物(PM10),58,66,90,40,64,75,75,40,40,16,31,5,5,0.6,0.8
2025-12-25T1400,3464A,117.3803,31.9147,合肥市,高教基地,"颗粒物(PM10),细颗粒物(PM2.5)",62,73,92,44,64,71,71,39,39,19,26,8,7,0.7,0.8
2025-12-25T1400,3614A,79.924,37.0877,和田地区,地区环保局,颗粒物(PM10),85,119,95,60,56,61,61,33,33,14,26,1,2,0.5,0.4
2025-12-25T1400,3615A,79.9131,37.113,和田地区,市环保局,颗粒物(PM10),98,146,83,69,38,66,66,35,35,15,29,3,2,0.6,0.9
2025-12-25T1400,2516A,108.2011,24.715,河池市,东仁乐园,,,,,,,,,,,,,,,,
2025-12-25T1400,2517A,108.0497,24.6947,河池市,市环保站,颗粒物(PM10),54,57,18,11,8,74,74,62,62,8,9,3,2,0.5,0.7
2025-12-25T1400,2518A,108.0983,24.6989,河池市,市疾控中心,,,,,,,,,,,,,,,,
2025-12-25T1400,1696A,114.6778,23.7569,河源市,源西,,,,,,,,,,,,,,,,
2025-12-25T1400,1697A,114.6944,23.7586,河源市,东埔,,20,,21,11,24,64,64,38,38,8,18,5,5,0.6,0.8
2025-12-25T1400,1698A,114.6892,23.7233,河源市,老城,,21,9,24,3,14,65,65,38,38,6,13,6,6,0.6,0.8
2025-12-25T1400,1718A,115.4208,35.2464,菏泽市,气象局,,22,22,85,12,57,69,69,45,45,10,35,3,4,0.2,0.6
2025-12-25T1400,3374A,115.5564,35.0891,菏泽市,定陶老年大学,,27,27,78,7,54,66,66,38,38,8,46,3,4,0.2,0.5
2025-12-25T1400,4184A,115.4797,35.24401,菏泽市,永昌路1号,,24,24,79,12,57,56,56,39,39,13,43,6,7,0.2,0.7
2025-12-25T1400,4193A,115.4715,35.2800,菏泽市,长城路999号,,22,22,88,3,56,66,66,39,39,8,38,3,5,0.3,0.7
2025-12-25T1400,2514A,111.5264,24.4172,贺州市,环保小区,,39,39,21,25,16,61,61,52,52,17,16,4,4,0.6,0.8
2025-12-25T1400,2515A,111.5608,24.4078,贺州市,政协大楼,,40,34,20,28,16,57,57,43,43,14,12,7,7,0.6,0.8
2025-12-25T1400,3534A,111.4744,24.4553,贺州市,西湾,,41,41,21,24,13,61,61,50,50,9,10,7,6,0.4,0.5
2025-12-25T1400,2385A,114.17,35.9019,鹤壁市,市监测站,,46,46,70,30,54,51,51,34,34,20,23,5,6,0.5,0.8
2025-12-25T1400,2386A,114.2956,35.7511,鹤壁市,市交警支队,,42,42,95,18,56,46,46,28,28,19,41,10,7,0.6,0.8
2025-12-25T1400,2387A,114.2878,35.7306,鹤壁市,迎宾馆,颗粒物(PM10),57,63,87,34,56,56,56,35,35,16,33,4,9,0.7,0.9
2025-12-25T1400,3474A,114.2617,35.6822,鹤壁市,大新区,颗粒物(PM10),64,78,77,27,50,57,57,43,43,24,32,6,8,0.5,0.9
2025-12-25T1400,3596A,114.1572,35.9603,鹤壁市,南山宾馆,颗粒物(PM10),54,58,76,29,45,55,55,45,45,18,19,6,8,0.4,0.7
2025-12-25T1400,2244A,130.2537,47.3416,鹤岗市,哈啤分公司,,20,15,28,14,25,49,49,51,47,3,12,7,8,0.3,0.4
2025-12-25T1400,2245A,130.2684,47.3086,鹤岗市,斯达机电,,16,12,34,7,19,50,50,54,48,5,14,6,7,0.4,0.4
2025-12-25T1400,2246A,130.3114,47.3388,鹤岗市,东山纸板厂,,16,10,35,7,32,50,50,51,47,2,19,6,8,0.4,0.8
2025-12-25T1400,2247A,130.1097,47.3382,鹤岗市,五号水库,,,,,,,,,,,,,,,,
2025-12-25T1400,2263A,127.4833,50.2524,黑河市,交通局,,26,19,26,18,21,47,47,43,43,5,14,4,6,0.3,0.4
2025-12-25T1400,2264A,127.5144,50.2341,黑河市,环保局,,,,26,,21,35,35,41,38,14,16,15,8,0.4,0.4
2025-12-25T1400,2265A,127.5291,50.2472,黑河市,大黑河岛,,,,,,,,,,,,,,,,
2025-12-25T1400,1074A,115.6838,37.7541,衡水市,电机北厂,,17,12,68,3,43,52,52,40,40,13,33,6,7,0.2,0.5
2025-12-25T1400,1075A,115.6303,37.7316,衡水市,市监测站,,22,22,60,3,36,54,54,46,46,13,31,4,5,0.3,0.5
2025-12-25T1400,3188A,115.6683,37.7217,衡水市,市城管局,,30,30,66,3,41,53,53,43,43,14,32,5,8,0.4,0.5
2025-12-25T1400,3459A,115.5989,37.5491,衡水市,地表水厂,,19,12,59,3,40,59,59,42,42,6,31,2,4,0.2,0.5
2025-12-25T1400,2456A,112.5003,26.9167,衡阳市,原169医院,,,,,,,,,,,,,,,,
2025-12-25T1400,2457A,112.6194,26.9258,衡阳市,衡阳化工总厂,颗粒物(PM10),53,56,48,36,46,77,77,42,42,11,18,6,6,0.8,0.9
2025-12-25T1400,2458A,112.6211,26.8956,衡阳市,珠晖区环保局,细颗粒物(PM2.5),59,46,49,42,50,67,67,35,35,11,19,3,3,0.9,1
2025-12-25T1400,2459A,112.6197,26.8733,衡阳市,市委党校,,,59,47,,43,75,75,43,43,10,17,6,5,0.9,1
2025-12-25T1400,2460A,112.6006,26.8919,衡阳市,市监测站,颗粒物(PM10),60,69,67,41,48,76,76,46,46,14,17,7,6,0.6,0.7
2025-12-25T1400,2461A,112.5664,26.9056,衡阳市,真空机电公司,颗粒物(PM10),54,57,62,33,46,74,74,49,49,12,14,12,7,0.7,0.8
2025-12-25T1400,3399A,112.6703,26.882,衡阳市,师范学院,颗粒物(PM10),56,61,58,26,42,77,77,46,46,14,18,2,2,0.8,0.8
2025-12-25T1400,2608A,103.3772,23.3993,红河哈尼族彝族自治州,污水处理厂,细颗粒物(PM2.5),88,67,39,65,31,41,41,23,23,14,15,14,11,0.5,0.5
2025-12-25T1400,2609A,103.3861,23.35,红河哈尼族彝族自治州,监测站,细颗粒物(PM2.5),57,55,36,40,31,37,37,31,24,14,9,37,16,0.5,0.4
2025-12-25T1400,3038A,103.3758,23.368,红河哈尼族彝族自治州,州图书馆,,50,50,26,13,18,42,42,29,22,11,10,23,16,0.5,0.4
2025-12-25T1400,1090A,111.6507,40.7517,呼和浩特市,呼市一监,,29,29,21,19,9,41,41,38,29,14,13,9,4,0.4,0.3
2025-12-25T1400,1091A,111.6572,40.8033,呼和浩特市,小召,,44,44,20,26,8,43,43,39,34,24,18,18,6,0.5,0.3
2025-12-25T1400,1094A,111.7516,40.8369,呼和浩特市,如意水处理厂,,22,22,17,11,7,53,53,37,32,12,14,13,9,0.3,0.5
2025-12-25T1400,1095A,111.7276,40.8062,呼和浩特市,二十九中,,27,27,16,15,6,52,52,43,35,11,12,13,10,1.1,1
2025-12-25T1400,1096A,111.5512,40.7866,呼和浩特市,工大金川校区,,,,,,,,,,,,,,,,
2025-12-25T1400,1097A,111.717,40.7612,呼和浩特市,化肥厂生活区,,28,28,21,15,10,50,50,37,30,13,17,9,6,0.5,0.4
2025-12-25T1400,3698A,111.5968,40.8178,呼和浩特市,红旗小学,,,,,,,,,,,,,,,,
2025-12-25T1400,3699A,111.6518,40.8389,呼和浩特市,海东办,,36,36,16,20,7,46,46,37,25,17,18,18,5,0.4,0.3
2025-12-25T1400,3061A,119.7512,49.1577,呼伦贝尔市,国华电力东,,20,20,28,11,23,48,48,39,37,17,20,8,7,0.2,0.2
2025-12-25T1400,4279A,119.7569,49.2222,呼伦贝尔市,伊敏大街东7号,,,,27,,20,42,42,37,37,8,6,10,8,0.2,0.9
2025-12-25T1400,1250A,120.0751,30.8669,湖州市,城西水厂,颗粒物(PM10),53,55,72,29,39,87,87,63,63,22,36,11,9,0.4,0.6
2025-12-25T1400,2873A,120.0830,30.8929,湖州市,仁皇山新区,颗粒物(PM10),53,55,72,35,61,93,93,67,67,19,33,11,9,0.1,0.3
2025-12-25T1400,2907A,120.1844,30.8596,湖州市,吴兴区站,细颗粒物(PM2.5),62,61,77,44,54,91,91,61,61,14,33,8,6,0.5,0.8
2025-12-25T1400,3562A,120.4148,30.8538,湖州市,南浔区站,细颗粒物(PM2.5),65,68,77,47,55,75,75,60,60,30,39,8,6,0.9,1
2025-12-25T1400,1607A,120.9049,40.7211,葫芦岛市,龙港区,,26,26,38,3,21,54,54,41,41,4,22,9,16,0.4,0.7
2025-12-25T1400,1608A,120.8392,40.7514,葫芦岛市,化工街,,17,17,32,3,15,53,53,41,41,5,24,10,23,0.2,0.4
2025-12-25T1400,1609A,120.8341,40.7073,葫芦岛市,新区,,,37,29,6,15,56,56,46,46,,24,,11,0.4,0.5
2025-12-25T1400,1610A,120.8695,40.7677,葫芦岛市,东城区,,33,33,28,3,20,54,54,42,42,6,24,7,17,0.5,0.7
2025-12-25T1400,2482A,109.5981,27.5721,怀化市,林科所,,,,,,,,,,,,,,,,
2025-12-25T1400,2483A,109.9453,27.5444,怀化市,河西地税局,,,103,59,51,43,,,36,36,14,15,9,8,0.4,0.6
2025-12-25T1400,2484A,109.9781,27.5342,怀化市,市四医院,颗粒物(PM10),65,79,65,26,39,77,77,42,42,9,11,11,16,0.4,0.5
2025-12-25T1400,2485A,109.9972,27.5578,怀化市,监测楼,颗粒物(PM10),65,79,58,28,35,74,74,36,36,16,20,5,10,0.1,0.3
2025-12-25T1400,2486A,110.0394,27.583,怀化市,市委党校,颗粒物(PM10),63,75,58,29,40,78,78,43,43,9,14,10,18,0.0,0.1
2025-12-25T1400,1210A,119.036,33.5981,淮安市,钵池山,,42,,76,29,59,68,68,43,43,9,34,6,7,0.1,0.6
2025-12-25T1400,1211A,119.007,33.575,淮安市,北京南路,,33,,79,23,57,61,61,37,37,7,32,6,8,0.4,0.7
2025-12-25T1400,1212A,118.989,33.6067,淮安市,市监测站,,20,14,75,3,58,64,64,39,39,11,39,8,9,0.3,0.7
2025-12-25T1400,1213A,119.135,33.5039,淮安市,楚州区监测站,,20,15,74,3,49,61,61,40,40,6,29,8,10,0.3,0.7
2025-12-25T1400,3426A,118.8755,33.2894,淮安市,新华书店,,28,28,93,11,65,62,62,41,41,10,28,8,10,0.4,0.9
2025-12-25T1400,4206A,119.0288,33.6319,淮安市,承德北路606号,,39,,88,27,58,67,67,41,41,8,38,7,9,0.3,0.7
2025-12-25T1400,2282A,116.8004,33.975,淮北市,监测站,颗粒物(PM10),61,71,96,22,62,64,64,34,34,19,36,8,10,0.5,0.8
2025-12-25T1400,2283A,116.8091,33.9007,淮北市,烈山区政府,,31,31,84,19,63,67,67,39,39,16,35,9,10,0.3,0.6
2025-12-25T1400,3330A,116.8873,33.9836,淮北市,杜集区检察院,颗粒物(PM10),51,51,90,23,66,68,68,34,34,15,39,6,7,0.3,0.7
2025-12-25T1400,4017A,116.7923,33.9535,淮北市,市博物馆,,49,49,91,20,59,66,66,38,38,15,33,10,12,0.3,0.5
2025-12-25T1400,2277A,116.8305,32.7727,淮南市,潘集区政府,细颗粒物(PM2.5),62,57,89,44,69,65,65,41,41,14,29,8,6,0.4,0.6
2025-12-25T1400,2279A,116.8569,32.5951,淮南市,谢家集区政府,颗粒物(PM10),59,67,87,25,56,59,59,35,35,22,32,11,9,0.5,0.6
2025-12-25T1400,2280A,116.8281,32.633,淮南市,八公山区政府,颗粒物(PM10),55,60,82,30,57,66,66,37,37,21,27,10,6,0.5,0.6
2025-12-25T1400,2281A,116.6325,32.6201,淮南市,焦岗湖风景区管理处,,,,,,,,,,,,,,,,
2025-12-25T1400,2894A,117.0566,32.6531,淮南市,经济技术开发区消防队,,,,100,,70,63,63,32,32,,35,7,5,,0.6
2025-12-25T1400,3329A,117.0108,32.5893,淮南市,山南新区,颗粒物(PM10),55,59,90,35,52,67,67,40,40,15,31,4,3,0.3,0.6
2025-12-25T1400,4209A,117.0031,32.6445,淮南市,国庆中路369号,颗粒物(PM10),51,52,81,28,63,54,54,26,26,21,36,5,5,0.6,0.8
2025-12-25T1400,2446A,114.9028,30.4742,黄冈市,职工中心,颗粒物(PM10),54,58,76,35,55,79,79,43,43,14,17,8,6,0.5,0.6
2025-12-25T1400,2929A,114.8858,30.4519,黄冈市,红卫路,颗粒物(PM10),58,65,72,34,57,78,78,42,42,11,18,7,6,0.5,0.7
2025-12-25T1400,3398A,114.9136,30.4445,黄冈市,市林业局,颗粒物(PM10),51,51,72,35,57,80,80,44,44,12,18,5,4,0.6,0.7
2025-12-25T1400,2672A,102.0199,35.5102,黄南藏族自治州,同仁县隆务镇,,49,42,47,34,31,68,68,53,53,8,4,10,9,0.5,0.4
2025-12-25T1400,2295A,118.2903,29.6963,黄山市,延安路89号,,46,46,27,31,22,90,90,58,58,12,17,5,4,0.5,0.6
2025-12-25T1400,2297A,118.1371,30.2756,黄山市,黄山区政府5号楼,颗粒物(PM10),62,73,58,40,44,91,91,52,52,15,20,7,6,0.4,0.6
2025-12-25T1400,4210A,118.3354,29.7203,黄山市,滨江东路7-2号,细颗粒物(PM2.5),74,61,43,54,33,84,84,54,54,13,18,5,4,0.5,0.6
2025-12-25T1400,2423A,115.0601,30.2313,黄石市,沈家营,颗粒物(PM10),59,67,79,27,50,54,54,30,30,8,8,6,5,0.9,1
2025-12-25T1400,2426A,114.8988,30.2019,黄石市,铁山,颗粒物(PM10),51,51,68,31,65,79,79,,,6,18,4,4,0.6,0.5
2025-12-25T1400,2427A,115.0307,30.2092,黄石市,团城山,颗粒物(PM10),61,72,81,32,62,84,84,46,46,6,14,6,6,0.4,0.6
2025-12-25T1400,3149A,115.0235,30.1578,黄石市,笔架山北路,颗粒物(PM10),68,85,97,26,58,76,76,43,43,12,19,6,7,0.8,0.9
2025-12-25T1400,4185A,115.0780,30.21118,黄石市,磁湖东路29号,"颗粒物(PM10),细颗粒物(PM2.5)",52,53,76,36,63,71,71,39,39,8,15,8,6,0.7,0.9
2025-12-25T1400,1392A,114.4183,23.0528,惠州市,河南岸金山湖子站,,20,8,36,3,21,61,61,34,34,12,25,4,4,0.5,0.7
2025-12-25T1400,1393A,114.4053,23.0822,惠州市,下埔横江三路子站,,16,9,38,6,21,50,50,32,32,9,25,6,6,0.7,0.8
2025-12-25T1400,1394A,114.4103,23.1142,惠州市,江北云山西路子站,,,,,,,,,,,,,,,,
2025-12-25T1400,1395A,114.4645,22.7833,惠州市,惠阳区承修路船湖子站,,24,10,35,3,18,74,74,38,38,9,20,6,6,0.6,0.7
2025-12-25T1400,1396A,114.5317,22.7422,惠州市,大亚湾管委会子站,,22,9,38,3,18,68,68,41,36,6,24,6,6,0.6,0.6
2025-12-25T1400,3314A,114.4338,22.8134,惠州市,惠阳秋长,,,19,45,3,21,82,82,42,42,,29,12,14,0.6,0.6
2025-12-25T1400,3452A,114.6517,22.775,惠州市,大亚湾霞涌,,22,13,32,3,18,68,68,37,37,8,20,3,4,0.7,0.7
2025-12-25T1400,2240A,130.9762,45.3001,鸡西市,环保局,,32,23,32,22,26,49,49,42,42,7,16,6,7,0.1,0.2
2025-12-25T1400,2243A,130.9429,45.3039,鸡西市,第一中学,,27,27,31,18,24,52,52,44,44,7,14,4,4,0.3,0.4
2025-12-25T1400,3707A,131.0207,45.3073,鸡西市,欧美日汽修厂,,38,38,64,3,52,55,55,30,30,8,33,7,14,0.3,0.7
2025-12-25T1400,3709A,130.9967,45.3106,鸡西市,市政设施管理处,,34,34,44,10,32,46,46,25,25,11,35,9,10,0,0.4
2025-12-25T1400,2367A,114.9754,27.0803,吉安市,红声器材厂,,,45,25,23,14,85,85,53,53,15,23,7,5,,0.9
2025-12-25T1400,2368A,114.9658,27.0999,吉安市,市森林工业局,颗粒物(PM10),51,52,35,20,16,84,84,49,49,13,23,9,9,0.4,0.6
2025-12-25T1400,2369A,114.99,27.1312,吉安市,市环境监测站,,45,45,25,20,15,84,84,52,52,7,18,12,10,0.4,0.6
2025-12-25T1400,2370A,115.0093,27.0968,吉安市,青原区法院,,44,44,24,27,15,79,79,46,46,11,20,10,9,0.6,0.8
2025-12-25T1400,1772A,126.54,43.8622,吉林市,哈达湾,,31,31,43,17,27,44,44,39,39,5,22,6,9,0.7,0.9
2025-12-25T1400,1773A,126.5844,43.8358,吉林市,东局子,,27,27,51,9,36,45,45,39,39,7,31,5,5,0.5,1
2025-12-25T1400,1774A,126.5052,43.8245,吉林市,电力学院,,21,21,72,12,50,48,48,43,43,4,28,10,11,0.5,1
2025-12-25T1400,1775A,126.6133,43.8972,吉林市,江北,,,25,62,12,43,45,45,40,40,,31,4,8,0.6,1.2
2025-12-25T1400,1776A,126.555,43.8306,吉林市,江南公园,,20,,41,14,35,46,46,40,40,4,27,9,9,0.7,1
2025-12-25T1400,1778A,126.7061,43.7133,吉林市,丰满,,,,41,,31,,,40,,,13,,8,,0.7
2025-12-25T1400,2868A,126.4739,43.953,吉林市,九站,,23,16,43,16,38,46,46,41,41,8,31,14,7,0.7,1
2025-12-25T1400,1299A,116.9862,36.6114,济南市,科干所,,18,17,39,3,22,55,55,47,47,13,34,6,6,0.6,0.7
2025-12-25T1400,1300A,116.9376,36.665,济南市,农科所,,19,17,55,3,27,58,58,46,46,14,40,3,4,0.5,0.8
2025-12-25T1400,1301A,117.1265,36.6734,济南市,开发区,,20,17,42,7,25,62,62,50,50,12,36,4,3,0.5,0.7
2025-12-25T1400,1303A,117.0624,36.6868,济南市,省种子仓库,,20,19,55,3,28,62,62,53,53,12,40,9,7,0.3,0.6
2025-12-25T1400,1304A,116.9489,36.6447,济南市,机床二厂,,18,12,63,7,38,57,57,46,46,9,34,7,20,0.4,0.8
2025-12-25T1400,1305A,117.0495,36.663,济南市,市监测站,,19,17,44,3,24,59,59,49,49,9,32,5,4,0.4,0.6
2025-12-25T1400,1306A,116.7675,36.5484,济南市,长清党校,,18,17,52,7,32,56,56,46,46,13,33,5,5,0.5,0.7
2025-12-25T1400,1616A,117.6795,36.229,济南市,技术学院,,19,7,41,3,27,59,59,53,53,18,35,6,5,0.3,0.5
2025-12-25T1400,1961A,117.532,36.6868,济南市,东山小学,,21,17,52,7,28,66,66,56,56,8,37,5,4,0.7,0.8
2025-12-25T1400,3059A,117.7161,36.2049,济南市,泰兴公司,,20,14,58,7,38,64,64,56,56,10,38,4,5,0.4,0.7
2025-12-25T1400,3064A,117.6867,36.2171,济南市,莱芜战役纪念馆,,21,19,49,9,35,65,65,58,58,14,32,8,8,0,0.2
2025-12-25T1400,3494A,117.1673,36.9782,济南市,济阳区政府,,20,17,54,3,30,61,61,49,49,11,40,5,6,0.2,0.5
2025-12-25T1400,3495A,117.1171,36.63,济南市,锦屏中学,,21,12,31,3,17,65,65,56,56,11,27,2,3,0.5,0.7
2025-12-25T1400,3682A,116.9814,36.6819,济南市,济南四建,,17,12,48,7,28,54,54,42,42,12,36,5,7,0.6,0.9
2025-12-25T1400,1653A,116.6251,35.4302,济宁市,火炬城,,24,24,65,7,51,62,62,40,40,8,31,5,6,0.1,0.4
2025-12-25T1400,1655A,116.5491,35.4042,济宁市,电化厂,,,,94,,54,63,63,35,35,13,46,5,8,,0.4
2025-12-25T1400,3500A,116.5814,35.3707,济宁市,北湖一中,,25,25,58,11,52,62,62,40,40,12,34,4,6,0.3,0.6
2025-12-25T1400,3501A,116.8249,35.5593,济宁市,服务中心,,30,30,84,7,46,55,55,37,37,26,44,8,11,0.5,0.8
2025-12-25T1400,3678A,116.5907,35.4054,济宁市,市第七中学,,38,38,64,3,44,66,66,44,44,11,33,5,9,0.3,0.5
2025-12-25T1400,2255A,130.2751,46.8028,佳木斯市,佳纺,,33,29,47,23,38,40,40,32,32,14,24,4,7,0.2,0.4
2025-12-25T1400,2257A,130.3258,46.7975,佳木斯市,环保局,,,105,45,39,37,43,43,36,30,,28,7,4,,0.7
2025-12-25T1400,2259A,130.3794,46.7588,佳木斯市,四丰,,,,,,,,,,,,,,,,
2025-12-25T1400,4285A,130.363,46.806,佳木斯市,顺和街,,40,31,34,28,29,40,40,35,34,9,21,6,7,0.2,0.5
2025-12-25T1400,4286A,130.3952,46.8268,佳木斯市,长安路196号,,18,12,34,12,30,48,48,41,41,4,19,5,6,0,0.4
2025-12-25T1400,1252A,120.7436,30.778,嘉兴市,清河小学,颗粒物(PM10),60,70,70,37,54,72,72,54,54,23,36,7,5,0.6,0.7
2025-12-25T1400,1253A,120.726,30.7478,嘉兴市,嘉兴学院,颗粒物(PM10),59,67,78,41,55,73,73,56,56,18,38,8,7,0.4,0.8
2025-12-25T1400,2872A,120.7846,30.7525,嘉兴市,南湖区残联,细颗粒物(PM2.5),53,52,61,37,52,81,81,62,62,20,35,6,4,0.5,0.6
2025-12-25T1400,3407A,120.6916,30.7739,嘉兴市,秀洲住建,"颗粒物(PM10),细颗粒物(PM2.5)",60,70,78,43,62,80,80,58,58,20,32,8,7,0.5,0.7
2025-12-25T1400,1945A,98.2908,39.7711,嘉峪关市,气象局,颗粒物(PM10),52,53,48,27,25,76,76,57,57,21,28,27,16,0.4,0.6
2025-12-25T1400,2884A,98.2672,39.7978,嘉峪关市,酒钢宾馆,颗粒物(PM10),54,58,57,31,26,80,80,59,59,16,19,47,23,0.6,0.7
2025-12-25T1400,3248A,98.2643,39.7724,嘉峪关市,雄关区,,40,40,43,21,28,73,73,56,56,26,29,33,21,0.5,0.7
2025-12-25T1400,1383A,113.1064,22.6058,江门市,北街,,30,30,43,9,22,24,24,22,14,23,29,7,8,0.8,0.7
2025-12-25T1400,1384A,113.0731,22.5835,江门市,西区,,19,19,38,3,19,24,24,24,13,24,33,6,7,0.7,0.6
2025-12-25T1400,1385A,113.0219,22.5311,江门市,圭峰西,,21,21,39,9,24,25,25,32,18,19,23,6,6,0.8,0.8
2025-12-25T1400,1386A,113.0828,22.5947,江门市,东湖,,16,16,37,8,24,25,25,24,15,27,31,6,7,0.7,0.6
2025-12-25T1400,3311A,113.1075,22.5647,江门市,江海富民,,27,27,52,8,26,26,26,24,15,22,30,6,7,0.6,0.7
2025-12-25T1400,3449A,113.05,22.4667,江门市,新会银湖,,20,20,37,9,19,22,22,27,14,21,24,6,6,0.7,0.6
2025-12-25T1400,1830A,113.1992,35.2590,焦作市,影视城,,,,75,,32,,,46,,,21,,3,,0.6
2025-12-25T1400,3335A,113.3137,35.2641,焦作市,马村街道办,细颗粒物(PM2.5),94,100,120,70,66,56,56,38,38,26,26,11,8,0.6,0.9
2025-12-25T1400,3336A,113.2465,35.2373,焦作市,焦作技师学院,细颗粒物(PM2.5),70,69,106,51,54,54,54,28,28,25,31,10,9,0.6,0.8
2025-12-25T1400,3477A,113.1656,35.2539,焦作市,中站许衡医院,细颗粒物(PM2.5),65,60,77,47,41,58,58,46,44,22,24,8,8,0.8,0.8
2025-12-25T1400,3981A,113.2449,35.1803,焦作市,原李万街道办,颗粒物(PM10),58,65,117,36,60,60,60,30,30,20,27,8,9,0.5,0.8
2025-12-25T1400,4264A,113.2340,35.2190,焦作市,新安路1731号,颗粒物(PM10),64,78,108,43,57,58,58,31,31,20,27,9,9,0.8,1
2025-12-25T1400,4295A,113.2722,35.2121,焦作市,人民路3066号,颗粒物(PM10),72,93,133,40,59,57,57,28,28,22,29,8,8,0.4,0.7
2025-12-25T1400,1708A,116.3701,23.5345,揭阳市,新兴,,22,22,37,13,28,39,39,41,30,14,20,6,8,0.7,0.7
2025-12-25T1400,1709A,116.3264,23.5443,揭阳市,西马,,26,26,40,3,16,39,39,40,29,14,17,3,5,0.7,0.7
2025-12-25T1400,1710A,116.3611,23.5626,揭阳市,东兴,,,35,41,7,20,38,38,36,29,15,20,,9,0.7,0.8
2025-12-25T1400,1711A,116.4151,23.5294,揭阳市,渔湖,颗粒物(PM10),57,64,37,6,19,41,41,41,31,14,18,3,5,0.8,0.8
2025-12-25T1400,3320A,116.403,23.5699,揭阳市,曲溪,,17,17,39,6,20,45,45,43,34,13,18,1,5,0.6,0.7
2025-12-25T1400,1944A,102.1692,38.5167,金昌市,天庆家园,颗粒物(PM10),80,110,82,50,40,75,75,47,47,21,21,113,20,0.7,0.8
2025-12-25T1400,4022A,102.1647,38.5371,金昌市,金川区人防中心,颗粒物(PM10),74,97,76,40,42,65,65,40,39,16,19,64,19,0.5,0.7
2025-12-25T1400,4239A,102.1930,38.5319,金昌市,长春路96号,颗粒物(PM10),57,64,63,31,27,67,67,56,56,11,15,36,21,0.7,0.6
2025-12-25T1400,1262A,119.647,29.077,金华市,十五中,细颗粒物(PM2.5),54,47,19,38,16,69,69,39,39,21,33,4,3,0.4,0.8
2025-12-25T1400,1263A,119.686,29.1029,金华市,监测站,,43,43,22,28,15,71,71,39,39,9,24,2,2,0.3,0.5
2025-12-25T1400,3659A,119.656,29.1131,金华市,气象局,,44,44,17,29,13,72,72,39,39,16,33,2,2,0.9,1.1
2025-12-25T1400,1767A,121.1115,41.0879,锦州市,南山,,27,27,28,7,21,63,63,58,58,3,17,9,12,0.4,0.6
2025-12-25T1400,1768A,121.0604,40.8428,锦州市,开发区,,,,47,11,25,54,54,45,42,9,23,10,18,0.4,0.8
2025-12-25T1400,1769A,121.1836,41.1119,锦州市,百股街道,,22,22,37,7,24,58,58,51,51,3,20,5,9,0.4,0.7
2025-12-25T1400,1770A,121.1178,41.1222,锦州市,天安街道,,21,21,29,3,18,62,62,57,57,4,17,10,12,0.4,0.6
2025-12-25T1400,1771A,121.1303,41.1386,锦州市,北湖公园,,18,16,29,3,16,57,57,52,52,3,14,6,10,0.4,0.5
2025-12-25T1400,2160A,112.85,35.5051,晋城市,自来水公司,,30,30,57,9,15,61,61,42,42,9,18,3,6,0.5,0.7
2025-12-25T1400,2161A,112.8318,35.4936,晋城市,白云商贸,,,17,61,,3,61,61,44,44,4,12,1,3,0.3,0.4
2025-12-25T1400,2162A,112.8508,35.4887,晋城市,市环保局,,31,31,56,3,11,63,63,41,41,4,12,3,5,0.4,0.6
2025-12-25T1400,2163A,112.8676,35.4897,晋城市,技术学院,,22,22,61,3,10,55,55,32,32,13,23,4,7,0.5,0.7
2025-12-25T1400,2165A,112.8453,35.546,晋城市,白马寺,,21,21,45,7,18,67,67,59,59,5,11,7,9,0.3,0.4
2025-12-25T1400,3620A,112.8271,35.4828,晋城市,泽州一中,,20,19,54,3,8,62,62,52,52,14,17,3,5,0.4,0.4
2025-12-25T1400,2173A,112.7249,37.7067,晋中市,南都小区,,39,39,51,16,21,58,58,48,38,21,22,12,12,0.5,0.5
2025-12-25T1400,2174A,112.6991,37.6982,晋中市,榆次区政府,,31,31,51,17,19,57,57,49,33,23,26,12,12,0.5,0.7
2025-12-25T1400,2865A,112.7195,37.6828,晋中市,榆次三中,,34,34,46,12,11,57,57,47,29,17,19,12,11,0.6,0.6
2025-12-25T1400,4200A,112.7478,37.6954,晋中市,迎宾街26号,,41,41,45,14,12,58,58,35,35,18,25,13,11,0.5,0.4
2025-12-25T1400,2439A,112.2014,31.0481,荆门市,竹园小学,颗粒物(PM10),74,98,98,38,45,77,77,39,39,18,31,1,2,0,0.2
2025-12-25T1400,2440A,112.1969,30.9891,荆门市,掇刀,颗粒物(PM10),78,106,103,41,48,76,76,47,47,16,21,7,4,0.4,0.6
2025-12-25T1400,2441A,112.2213,31.0386,荆门市,石化一小,,,116,121,40,55,75,75,38,38,19,37,,9,0,0.1
2025-12-25T1400,3012A,112.1849,31.0362,荆门市,西山林语,颗粒物(PM10),76,101,95,27,39,76,76,44,44,16,22,10,6,0.4,0.6
2025-12-25T1400,3547A,112.1632,31.0138,荆门市,龙泉中学南校,颗粒物(PM10),79,108,103,45,44,81,81,61,61,19,18,12,9,0.4,0.5
2025-12-25T1400,1844A,112.2494,30.3197,荆州市,市图书馆,细颗粒物(PM2.5),68,84,74,49,53,85,85,51,51,13,26,8,8,0.5,0.6
2025-12-25T1400,1845A,112.2008,30.3544,荆州市,市委党校,细颗粒物(PM2.5),74,90,84,54,54,73,73,42,42,15,29,6,5,0.6,0.7
2025-12-25T1400,3194A,112.2747,30.3122,荆州市,管委会,细颗粒物(PM2.5),70,79,73,51,54,81,81,43,43,14,29,7,6,0.7,0.8
2025-12-25T1400,4268A,112.1722,30.3366,荆州市,学苑路85号,颗粒物(PM10),65,79,73,40,47,87,87,48,48,14,28,7,6,0.7,0.9
2025-12-25T1400,2342A,117.3102,29.3867,景德镇市,王港中学,,,,,,,,,,,,,,,,
2025-12-25T1400,2343A,117.2117,29.2933,景德镇市,老干部活动中心,细颗粒物(PM2.5),59,52,21,42,21,77,77,47,47,7,13,7,6,0.4,0.6
2025-12-25T1400,2344A,117.1894,29.2789,景德镇市,兽医站,颗粒物(PM10),57,64,27,30,14,82,82,52,52,7,15,8,6,0.3,0.5
2025-12-25T1400,2346A,117.2461,29.2956,景德镇市,陶研所,细颗粒物(PM2.5),59,45,17,42,20,81,81,52,52,4,15,4,4,0.5,0.7
2025-12-25T1400,4289A,117.1542,29.2566,景德镇市,青少年活动中心,颗粒物(PM10),55,60,20,32,17,88,88,54,54,8,17,4,3,0.4,0.6
2025-12-25T1400,1803A,115.9872,29.6815,九江市,十里,细颗粒物(PM2.5),59,58,47,42,38,99,99,56,56,10,19,6,4,0.5,0.5
2025-12-25T1400,1804A,115.9584,29.7046,九江市,茅山头,细颗粒物(PM2.5),74,60,55,54,42,91,91,51,51,7,14,6,4,0.7,0.7
2025-12-25T1400,1805A,115.9877,29.7295,九江市,西园,细颗粒物(PM2.5),65,59,52,47,37,97,97,56,56,18,26,5,3,0.6,0.6
2025-12-25T1400,1808A,115.9114,29.6038,九江市,综合工业园,细颗粒物(PM2.5),82,,45,60,45,97,97,62,62,18,19,3,3,0.8,0.9
2025-12-25T1400,1809A,116.0721,29.7535,九江市,石化总厂,,,70,56,48,46,94,94,57,57,17,19,5,6,,0.6
2025-12-25T1400,1810A,115.9773,29.5698,九江市,庐山气象台,,,,,,,,,,,,,,,,
2025-12-25T1400,3190A,116.0254,29.6994,九江市,外国语学校,,,53,45,43,37,85,85,49,49,,26,8,7,0.6,0.6
2025-12-25T1400,4253A,116.0102,29.6594,九江市,莲花大道8号,细颗粒物(PM2.5),77,67,50,56,42,87,87,52,52,17,21,5,3,0.5,0.5
2025-12-25T1400,4240A,98.4958,39.7339,酒泉市,玉门东路5号,,,,54,,30,,,54,,,18,,17,,0.6
2025-12-25T1400,4241A,98.5099,39.7506,酒泉市,北大街108号,,,66,59,26,25,68,68,46,45,24,24,,17,0.7,0.7
2025-12-25T1400,2698A,76.0072,39.4467,喀什地区,巡警大队,颗粒物(PM10),59,68,83,37,46,71,71,68,68,14,20,3,3,0.5,0.7
2025-12-25T1400,2699A,75.9755,39.4694,喀什地区,吾办,细颗粒物(PM2.5),63,69,90,45,53,67,67,64,64,12,17,2,3,0.5,0.8
2025-12-25T1400,4027A,75.9483,39.4689,喀什地区,老干局,颗粒物(PM10),63,75,97,35,48,71,71,66,66,10,17,2,2,0.6,0.9
2025-12-25T1400,1824A,114.3389,34.7781,开封市,肿瘤医院,颗粒物(PM10),67,84,115,41,63,53,53,33,33,26,41,9,5,0.8,0.9
2025-12-25T1400,1826A,114.2885,34.7965,开封市,世纪星幼儿园,细颗粒物(PM2.5),62,72,123,44,74,57,57,16,,23,42,6,4,0.3,0.7
2025-12-25T1400,3147A,114.3438,34.8106,开封市,龙亭公园,颗粒物(PM10),63,75,121,36,71,56,56,31,31,23,46,6,4,0.6,0.8
2025-12-25T1400,3210A,114.3644,34.7964,开封市,汴京公园,颗粒物(PM10),60,70,133,41,67,56,56,31,31,26,46,8,5,0.5,0.7
2025-12-25T1400,3473A,114.2485,34.8306,开封市,技师学院,颗粒物(PM10),60,69,141,40,76,56,56,28,28,22,48,7,7,0.4,0.7
2025-12-25T1400,3592A,114.4644,34.7556,开封市,祥符区生态环境局,细颗粒物(PM2.5),62,,114,44,70,60,60,31,31,21,49,5,7,0.3,0.6
2025-12-25T1400,1951A,84.895,45.6094,克拉玛依市,长征新村,细颗粒物(PM2.5),78,68,63,57,52,34,34,34,29,36,37,5,5,0.8,0.7
2025-12-25T1400,1952A,84.8988,45.5893,克拉玛依市,南林小区,细颗粒物(PM2.5),58,58,67,41,43,36,36,32,32,18,23,4,3,1.0,1
2025-12-25T1400,1954A,84.905,44.3396,克拉玛依市,独山子区,颗粒物(PM10),73,95,67,50,41,25,25,36,34,33,31,5,5,0.9,0.7
2025-12-25T1400,1955A,85.6979,46.098,克拉玛依市,乌尔禾区商贸楼,,,,43,54,48,34,34,33,28,,20,6,4,0.8,0.7
2025-12-25T1400,3612A,85.1045,45.6899,克拉玛依市,白碱滩区新站,细颗粒物(PM2.5),70,80,90,51,60,33,33,10,10,28,40,8,7,0.7,0.8
2025-12-25T1400,2697A,76.1454,39.7142,克孜勒苏柯尔克孜自治州,市人民政府,细颗粒物(PM2.5),78,101,92,57,50,58,58,56,56,14,14,5,5,0.5,0.5
2025-12-25T1400,3665A,76.1658,39.7157,克孜勒苏柯尔克孜自治州,克州文化中心,细颗粒物(PM2.5),74,91,87,54,48,58,58,50,50,13,15,8,8,0.7,0.8
2025-12-25T1400,1450A,102.8204,24.8886,昆明市,呈贡新区,,36,34,36,25,26,41,41,38,38,13,17,1,3,0.6,0.6
2025-12-25T1400,1451A,102.6251,24.9608,昆明市,西山森林公园,,,,,,,,,,,,,,,,
2025-12-25T1400,1452A,102.7252,25.0902,昆明市,龙泉镇,,28,22,36,19,24,35,35,42,42,16,16,2,2,0.6,0.5
2025-12-25T1400,1453A,102.7266,25.0375,昆明市,东风东路,颗粒物(PM10),53,56,38,24,25,34,34,37,37,24,24,3,3,0.6,0.5
2025-12-25T1400,1454A,102.6742,25.0669,昆明市,金鼎山,,36,36,35,24,25,37,37,42,41,16,18,2,3,0.5,0.4
2025-12-25T1400,1455A,102.6644,25.0401,昆明市,碧鸡广场,,36,36,42,21,26,34,34,38,38,21,24,2,3,0.6,0.5
2025-12-25T1400,3179A,102.7494,25.0119,昆明市,官渡区博物馆,,30,29,36,21,20,34,34,34,34,20,21,2,2,0.5,0.4
2025-12-25T1400,3375A,102.8017,24.8336,昆明市,青年创业园,,35,32,33,24,31,38,38,37,37,10,9,2,2,0.7,0.6
2025-12-25T1400,3550A,102.7997,24.9786,昆明市,昆明学院,,33,33,36,21,23,36,36,36,36,14,14,1,2,0.5,0.4
2025-12-25T1400,3551A,102.5967,24.6736,昆明市,晋宁区生态环境分局,,25,,38,17,23,38,38,27,27,12,17,1,2,0.5,0.5
2025-12-25T1400,3552A,102.6678,24.9856,昆明市,云天化总部,,29,29,32,18,22,34,34,36,36,19,18,4,5,0.5,0.4
2025-12-25T1400,1456A,91.1319,29.6514,拉萨市,八廓街,,24,20,22,11,14,75,75,58,58,10,18,12,13,0.4,0.6
2025-12-25T1400,1457A,91.1221,29.6747,拉萨市,市环保局,,24,24,40,10,26,74,74,45,45,12,25,13,8,0.4,0.9
2025-12-25T1400,1458A,91.0874,29.6475,拉萨市,区监测站,,22,19,20,7,12,69,69,49,49,12,29,16,11,0.6,0.8
2025-12-25T1400,1459A,91.1774,29.6541,拉萨市,西藏大学,,23,15,18,3,9,71,71,55,55,10,18,19,12,0.5,0.7
2025-12-25T1400,1460A,90.9798,29.6588,拉萨市,区辐射站,,41,41,41,13,24,69,69,37,33,29,36,13,7,0.5,0.8
2025-12-25T1400,1461A,91.0834,29.6292,拉萨市,拉萨火车站,,21,21,24,6,15,67,67,33,33,13,35,17,8,0.5,0.9
2025-12-25T1400,2520A,109.2203,23.7256,来宾市,来宾技工学校,,49,49,17,9,4,74,74,54,54,6,6,7,5,0.3,0.5
2025-12-25T1400,3535A,109.1781,23.7297,来宾市,兴宾区政府,,,,14,,8,77,77,58,58,,9,5,4,0.3,0.7
2025-12-25T1400,4002A,109.2416,23.7461,来宾市,中南小学,,44,44,18,10,9,78,78,55,55,5,7,5,3,0.3,0.5
2025-12-25T1400,1477A,104.1373,35.9454,兰州市,榆中兰大校区,,,,,,,,,,,,,,,,
2025-12-25T1400,1479A,103.831,36.0464,兰州市,铁路设计院,,,,,,,,,,,,,,,,
2025-12-25T1400,3241A,103.7439,36.0842,兰州市,百合公园,颗粒物(PM10),56,62,50,29,28,41,41,18,18,58,43,17,9,1.0,0.7
2025-12-25T1400,3242A,103.9611,35.998,兰州市,和平,,49,49,54,31,36,73,73,39,39,15,22,13,7,1.1,0.9
2025-12-25T1400,4236A,103.6293,36.0938,兰州市,庄浪东路808号,颗粒物(PM10),67,83,64,45,36,60,60,27,27,51,36,21,13,1.1,0.7
2025-12-25T1400,4237A,103.7251,36.1043,兰州市,安宁西路88号,颗粒物(PM10),58,66,63,32,30,59,59,28,28,51,37,16,7,1.0,0.5
2025-12-25T1400,4238A,103.8470,36.0676,兰州市,北滨河东路1号,,49,49,56,26,31,60,60,21,21,39,51,26,12,1.3,1
2025-12-25T1400,3245A,103.6633,36.533,兰州新区,新区管委会,颗粒物(PM10),52,54,58,34,33,70,70,35,35,14,21,18,12,0.5,0.6
2025-12-25T1400,3246A,103.6975,36.4789,兰州新区,舟曲中学,"颗粒物(PM10),细颗粒物(PM2.5)",55,59,56,39,26,84,84,41,41,13,26,14,8,0.4,0.5
2025-12-25T1400,1067A,116.6708,39.5111,廊坊市,药材公司,,17,,17,3,6,54,54,52,49,6,8,1,2,0.4,0.4
2025-12-25T1400,1068A,116.7214,39.5589,廊坊市,开发区,,17,9,18,3,5,52,52,52,50,12,10,2,2,0.2,0.2
2025-12-25T1400,1070A,116.7244,39.5269,廊坊市,北华航天学院,,17,13,22,6,5,52,52,52,48,11,11,1,2,0.3,0.2
2025-12-25T1400,2919A,116.7022,39.5453,廊坊市,河北工业大学,,16,15,21,3,7,50,50,51,49,11,12,2,2,0.2,0.2
2025-12-25T1400,2535A,103.7723,29.5462,乐山市,花湖湾,,,,,,,,,,,,,,,,
2025-12-25T1400,2536A,103.7627,29.5844,乐山市,牛耳桥,细颗粒物(PM2.5),89,85,98,66,64,40,40,12,12,20,38,9,9,0.7,0.8
2025-12-25T1400,2537A,103.7508,29.6006,乐山市,市第三水厂,,,82,97,57,61,40,40,11,11,19,43,8,7,,0.9
2025-12-25T1400,2538A,103.7571,29.5664,乐山市,市监测站,细颗粒物(PM2.5),88,94,103,65,61,32,32,9,9,18,36,9,9,0.8,0.9
2025-12-25T1400,3361A,103.7311,29.5628,乐山市,理工大学,细颗粒物(PM2.5),89,95,100,66,60,37,37,10,10,21,38,8,6,0.8,0.8
2025-12-25T1400,2598A,100.2143,26.8576,丽江市,西南郊,,,,,,,,,,,,,,,,
2025-12-25T1400,2599A,100.2497,26.8802,丽江市,丽江古城,,29,29,28,20,15,73,73,51,51,10,13,10,9,0.5,0.5
2025-12-25T1400,2600A,100.2203,26.8906,丽江市,市中心,,29,29,17,10,12,72,72,48,48,10,14,8,6,0.4,0.4
2025-12-25T1400,1267A,119.914,28.4514,丽水市,监测站大楼,,,49,20,33,19,67,67,50,50,,30,5,5,0.5,0.7
2025-12-25T1400,1268A,119.93,28.4586,丽水市,莲都小学,"颗粒物(PM10),细颗粒物(PM2.5)",54,57,24,38,16,68,68,56,56,17,27,4,4,0.5,0.6
2025-12-25T1400,1269A,119.879,28.4231,丽水市,余庄前,,50,50,22,35,16,73,73,47,47,13,23,4,4,0.4,0.5
2025-12-25T1400,1173A,119.176,34.5885,连云港市,市环境监测站,,20,19,61,9,37,61,61,42,42,6,41,12,12,0.6,0.7
2025-12-25T1400,3000A,119.3581,34.6972,连云港市,德源药业,颗粒物(PM10),73,95,94,9,37,58,58,48,48,19,45,6,7,0.5,0.8
2025-12-25T1400,3007A,119.178,34.844,连云港市,新城一中,,41,41,71,3,42,66,66,46,46,10,41,14,13,0.9,1.1
2025-12-25T1400,3008A,119.3608,34.7519,连云港市,胡沟管理处,,20,17,55,3,30,62,62,53,53,12,23,6,10,0.8,1
2025-12-25T1400,3009A,119.1478,34.5911,连云港市,矿山设计院,,,,65,,33,64,64,45,45,,42,,12,0.7,1
2025-12-25T1400,3434A,119.2413,34.6539,连云港市,工贸学校,,19,10,48,6,33,58,58,38,38,9,32,11,11,0.8,1
2025-12-25T1400,3664A,119.4172,34.7341,连云港市,连云街道,,18,16,58,3,30,55,55,42,42,20,39,7,9,0.7,1
2025-12-25T1400,2571A,102.3431,27.8099,凉山彝族自治州,青龙寺,,,,,,,,,,,,,,,,
2025-12-25T1400,2572A,102.2721,27.8415,凉山彝族自治州,邛海宾馆,,18,17,28,12,21,55,55,43,43,8,14,7,7,0.5,0.6
2025-12-25T1400,2573A,102.2625,27.898,凉山彝族自治州,西昌市政府,,21,21,47,9,38,52,52,46,46,10,13,6,6,0.5,0.6
2025-12-25T1400,2574A,102.2685,27.8851,凉山彝族自治州,凉山州政府,,29,,55,20,40,51,51,41,41,12,16,8,8,0.6,0.7
2025-12-25T1400,4229A,102.2342,27.8859,凉山彝族自治州,凯乐南路30号,,21,21,43,12,28,55,55,47,46,14,18,8,9,0.4,0.9
2025-12-25T1400,2212A,123.2,41.1953,辽阳市,宏伟区,,29,21,47,20,43,58,58,52,52,4,25,6,12,0.4,0.8
2025-12-25T1400,2213A,123.1683,41.2495,辽阳市,新华园,,18,14,55,10,44,55,55,47,47,6,32,7,11,0.5,1.1
2025-12-25T1400,2214A,123.2354,41.2639,辽阳市,滨河路,,19,14,70,13,52,50,50,42,42,4,37,6,7,0.3,1.1
2025-12-25T1400,2215A,123.149,41.2991,辽阳市,铁西工业园,,18,,56,12,49,50,50,37,37,6,36,7,8,0.5,1
2025-12-25T1400,2227A,125.1358,42.8845,辽源市,环保局,颗粒物(PM10),59,67,104,10,39,52,52,48,48,7,25,5,4,0.3,1
2025-12-25T1400,3239A,125.0764,42.9078,辽源市,银鹰制药,,19,19,54,12,38,51,51,44,44,7,29,4,6,0.3,0.7
2025-12-25T1400,1625A,115.9848,36.4372,聊城市,区政府,,19,19,58,7,36,57,57,49,49,20,42,13,10,0.5,0.7
2025-12-25T1400,2878A,116.0072,36.4343,聊城市,聊大东校,,22,22,61,12,40,57,57,52,52,23,40,13,9,0.8,0.8
2025-12-25T1400,3200A,115.9819,36.4978,聊城市,监控中心,,22,22,56,12,38,61,61,43,43,12,31,15,12,0.7,0.9
2025-12-25T1400,3513A,116.0445,36.4361,聊城市,九州社区,,29,29,73,8,43,63,63,54,54,15,30,6,3,0.4,0.5
2025-12-25T1400,4018A,116.0567,36.4608,聊城市,星美广场,,27,27,73,9,39,57,57,50,50,12,32,7,4,0.4,0.6
2025-12-25T1400,2632A,94.3681,29.6376,林芝市,林芝监测站,,23,16,21,3,7,71,71,69,54,2,5,4,4,0.3,0.3
2025-12-25T1400,2633A,94.3616,29.6616,林芝市,林芝人民医院,,23,17,29,3,9,71,71,64,54,4,5,4,4,0.3,0.3
2025-12-25T1400,2603A,100.0781,23.8982,临沧市,市环保局,,35,26,33,24,44,71,71,30,30,2,10,6,7,0.4,0.6
2025-12-25T1400,2604A,100.0894,23.8822,临沧市,市气象局,,31,31,36,21,25,68,68,30,30,3,12,6,6,0.2,0.4
2025-12-25T1400,1733A,111.5531,36.0783,临汾市,临钢医院,,20,8,58,7,19,63,63,35,35,11,24,5,7,0.4,0.5
2025-12-25T1400,1734A,111.5028,36.0714,临汾市,技工学校,,24,24,51,7,19,60,60,41,41,12,20,4,5,0.4,0.4
2025-12-25T1400,1736A,111.5018,36.0855,临汾市,市委,,24,24,56,3,10,64,64,46,46,14,21,6,8,0.7,0.8
2025-12-25T1400,3018A,111.505,36.1014,临汾市,唐尧大酒店,,30,30,64,12,11,64,64,44,44,12,23,2,3,0.2,0.5
2025-12-25T1400,4244A,111.4879,36.0530,临汾市,启星学校,,31,31,48,14,19,62,62,41,41,17,28,8,8,0.8,0.8
2025-12-25T1400,4271A,103.2464,35.6123,临夏回族自治州,滨河东路1号,颗粒物(PM10),75,100,107,47,55,60,60,25,25,20,27,8,5,0.7,1
2025-12-25T1400,4310A,103.2093,35.5995,临夏回族自治州,新华街21号,颗粒物(PM10),63,75,86,41,52,63,63,24,24,23,24,11,9,0.8,1
2025-12-25T1400,1618A,118.3429,35.0532,临沂市,沂河小区,,26,22,79,18,61,60,60,43,43,18,45,9,12,0.4,0.7
2025-12-25T1400,1619A,118.295,35.0583,临沂市,鲁南制药厂,,22,17,94,15,60,64,64,41,41,19,54,10,16,0.3,0.7
2025-12-25T1400,1620A,118.2794,34.9976,临沂市,新光毛纺厂,,29,24,97,20,65,56,56,31,31,16,53,10,13,0.3,0.8
2025-12-25T1400,1621A,118.3956,35.0888,临沂市,河东保险公司,,21,14,77,3,49,67,67,45,45,9,40,9,9,0.4,0.7
2025-12-25T1400,3370A,118.3564,35.0215,临沂市,十里堡居委,,,,75,,42,64,64,46,46,18,46,9,11,0.4,0.8
2025-12-25T1400,3496A,118.3604,35.1084,临沂市,南坊新区,,20,14,76,3,51,64,64,44,44,17,46,10,11,0.3,0.7
2025-12-25T1400,3860A,118.3920,35.0300,临沂市,皇山花园小区,,21,14,75,3,47,67,67,49,49,13,45,10,13,0.4,0.8
2025-12-25T1400,1870A,109.4856,24.3895,柳州市,柳东小学,,40,40,20,20,13,75,75,53,53,4,6,8,7,0.5,0.7
2025-12-25T1400,1871A,109.4157,24.3277,柳州市,环保监测站,,35,33,24,24,15,67,67,51,51,8,11,6,6,0.3,0.5
2025-12-25T1400,1872A,109.389,24.341,柳州市,河西水厂,,39,39,28,20,19,67,67,46,46,16,26,9,10,0.8,1.3
2025-12-25T1400,1873A,109.4311,24.2921,柳州市,市四中,,49,49,27,16,9,68,68,52,52,8,10,9,8,0.3,0.5
2025-12-25T1400,1874A,109.4006,24.3631,柳州市,市九中,,,,22,,13,67,67,40,,9,14,9,9,0.4,0.5
2025-12-25T1400,1875A,109.4958,24.3134,柳州市,古亭山,颗粒物(PM10),56,62,21,3,5,74,74,51,51,7,9,9,8,0.5,0.8
2025-12-25T1400,3402A,109.5422,24.3996,柳州市,市二中,,40,40,18,16,14,73,73,47,47,9,12,8,7,0.5,0.8
2025-12-25T1400,2307A,116.5079,31.737,六安市,监测大楼,细颗粒物(PM2.5),60,68,88,43,69,76,76,37,37,19,31,6,4,0.4,0.6
2025-12-25T1400,2308A,116.4738,31.7643,六安市,皖西学院,细颗粒物(PM2.5),69,75,95,50,69,84,84,38,38,15,36,5,3,0.5,0.6
2025-12-25T1400,2309A,116.4996,31.7905,六安市,朝阳厂,细颗粒物(PM2.5),68,72,83,49,64,77,77,39,39,19,34,6,3,0.6,0.7
2025-12-25T1400,2310A,116.5567,31.7886,六安市,开发区,颗粒物(PM10),69,87,98,43,64,79,79,38,38,21,35,5,2,0.5,0.6
2025-12-25T1400,2576A,104.8,26.5892,六盘水市,窑上,,,,43,28,29,66,66,62,62,10,8,5,2,0.3,0.3
2025-12-25T1400,2577A,104.83,26.5917,六盘水市,黄土坡,,40,40,33,21,23,60,60,58,54,14,13,11,6,0.5,0.5
2025-12-25T1400,2578A,104.89,26.5939,六盘水市,水钢,,31,31,36,21,25,57,57,52,52,11,18,14,10,0.5,0.7
2025-12-25T1400,2579A,104.8475,26.5894,六盘水市,民中,,42,34,32,29,22,54,54,57,48,14,14,7,4,0.4,0.5
2025-12-25T1400,2580A,104.9544,26.5506,六盘水市,双水,,31,31,39,3,25,57,57,57,55,6,9,3,3,0.3,0.3
2025-12-25T1400,2335A,117.0189,25.1181,龙岩市,龙岩师专,,,,,,,,,,,,,,,,
2025-12-25T1400,2336A,117.0217,25.1033,龙岩市,龙岩市监测站,,10,6,17,3,12,30,30,28,24,10,13,9,10,0.5,0.5
2025-12-25T1400,2337A,117.0258,25.0661,龙岩市,闽西职业技术学院,,11,8,19,3,13,35,35,32,26,8,15,5,6,0.7,0.6
2025-12-25T1400,2338A,117.0196,25.0306,龙岩市,龙岩学院,,11,9,19,3,15,34,34,31,25,8,10,6,7,0.7,0.6
2025-12-25T1400,2665A,105.0822,33.3261,陇南市,汉王镇固水子,,,,,,,,,,,,,,,,
2025-12-25T1400,2885A,104.9339,33.3826,陇南市,滨江中学,,,49,59,14,29,69,69,38,38,13,33,6,12,,1.1
2025-12-25T1400,3247A,104.955,33.371,陇南市,市总工会,颗粒物(PM10),52,53,61,22,21,70,70,44,38,12,20,3,5,0.6,0.7
2025-12-25T1400,2487A,111.9589,27.8901,娄底市,电视发射台,,,,,,,,,,,,,,,,
2025-12-25T1400,2488A,111.9975,27.725,娄底市,市监测站,颗粒物(PM10),67,83,62,31,36,93,93,75,75,8,17,6,9,0.6,0.7
2025-12-25T1400,2489A,112.0194,27.7314,娄底市,市委党校,颗粒物(PM10),68,85,75,29,37,80,80,65,65,12,17,6,7,0.2,0.3
2025-12-25T1400,2490A,111.9561,27.7569,娄底市,涟钢,颗粒物(PM10),72,94,62,38,32,78,78,65,65,13,15,9,7,1.4,0.5
2025-12-25T1400,2491A,111.9892,27.7044,娄底市,市政府,颗粒物(PM10),69,88,58,36,34,88,88,73,73,15,13,5,6,3.1,2.2
2025-12-25T1400,1893A,105.4324,28.9634,泸州市,九狮山,,,,,,,,,,,,,,,,
2025-12-25T1400,1894A,105.4427,28.9063,泸州市,小市上码头,,,96,68,63,38,22,22,8,5,26,29,12,9,,0.6
2025-12-25T1400,1895A,105.4241,28.8573,泸州市,兰田宪桥,细颗粒物(PM2.5),82,84,54,60,41,14,14,8,5,28,23,8,7,0.9,0.7
2025-12-25T1400,1896A,105.4379,28.8833,泸州市,市环监站,细颗粒物(PM2.5),84,91,68,62,41,20,20,10,7,23,26,10,10,0.7,0.6
2025-12-25T1400,4272A,105.3689,28.7783,泸州市,纳溪中医医院,细颗粒物(PM2.5),80,85,69,59,48,28,28,7,7,19,19,9,8,0.7,0.8
2025-12-25T1400,2183A,111.1406,37.5211,吕梁市,环保局,,44,44,79,24,25,37,37,22,22,27,32,8,5,0.5,0.6
2025-12-25T1400,2185A,111.1297,37.5136,吕梁市,自来水公司,颗粒物(PM10),51,52,93,18,29,34,34,19,19,30,32,9,7,0.7,0.8
2025-12-25T1400,2867A,111.1283,37.51,吕梁市,马茂庄小学,颗粒物(PM10),55,60,80,22,24,33,33,15,15,26,35,10,6,1.0,0.8
2025-12-25T1400,1812A,112.3931,34.6516,洛阳市,市委党校,,42,42,79,19,30,65,65,35,35,16,26,10,10,0.5,0.7
2025-12-25T1400,1815A,112.494,34.6886,洛阳市,河南林校,,49,49,96,13,39,65,65,29,29,16,38,9,8,0.6,0.8
2025-12-25T1400,1816A,112.3844,34.623,洛阳市,开发区管委会,,47,47,79,20,34,64,64,41,41,8,13,10,9,0.6,0.6
2025-12-25T1400,1817A,112.4267,34.6258,洛阳市,市委新办公区,,39,39,86,25,40,62,62,38,38,16,21,10,10,0.4,0.5
2025-12-25T1400,3340A,112.6005,34.6326,洛阳市,伊滨,,40,40,95,20,39,64,64,36,36,11,18,9,8,0.5,0.5
2025-12-25T1400,3341A,112.4951,34.6332,洛阳市,中移产业园,,44,44,83,22,34,63,63,33,33,20,28,11,11,0.4,0.5
2025-12-25T1400,3593A,112.5736,34.8993,洛阳市,吉利监测站,颗粒物(PM10),52,53,82,23,30,62,62,29,29,20,33,10,8,0.6,0.8
2025-12-25T1400,3635A,112.3677,34.662,洛阳市,河科大西苑校区,,47,47,86,21,30,65,65,33,33,12,22,10,10,0.7,0.8
2025-12-25T1400,3636A,112.4388,34.6781,洛阳市,英才小学,,45,45,93,28,46,66,66,30,30,20,44,10,13,0.5,0.8
2025-12-25T1400,4214A,112.4600,34.6949,洛阳市,春都路1号院,,50,50,105,22,34,62,62,28,28,18,37,10,10,0.7,0.9
2025-12-25T1400,2399A,114.051,33.5699,漯河市,三五一五工厂,,,130,122,,76,57,57,29,29,26,44,10,8,,0.6
2025-12-25T1400,2400A,114.0055,33.5698,漯河市,漯河大学,细颗粒物(PM2.5),79,100,108,58,71,65,65,32,32,26,44,10,7,0.8,0.8
2025-12-25T1400,2401A,114.0138,33.5828,漯河市,市水利局,细颗粒物(PM2.5),85,90,109,63,73,48,48,24,24,28,41,9,8,0.6,0.7
2025-12-25T1400,2402A,114.0261,33.5698,漯河市,市广电局,细颗粒物(PM2.5),84,100,111,62,72,66,66,32,32,24,42,10,7,0.5,0.6
2025-12-25T1400,3478A,113.9749,33.5664,漯河市,市图书馆,细颗粒物(PM2.5),97,111,118,72,77,57,57,28,28,24,36,8,5,0.8,0.8
2025-12-25T1400,4250A,114.0892,33.5882,漯河市,韶山路11号,细颗粒物(PM2.5),92,115,119,68,74,58,58,23,23,25,46,11,9,0.7,0.8
2025-12-25T1400,1798A,118.5092,31.6837,马鞍山市,湖东路四小,"颗粒物(PM10),细颗粒物(PM2.5)",73,96,118,53,82,78,78,41,41,21,37,10,11,0.7,1.1
2025-12-25T1400,1799A,118.5024,31.6449,马鞍山市,开发区,,,,119,,89,77,77,40,40,22,42,,13,0.9,1.6
2025-12-25T1400,1802A,118.6245,31.7241,马鞍山市,濮塘,,,,,,,,,,,,,,,,
2025-12-25T1400,3633A,118.4918,31.6809,马鞍山市,雨山,颗粒物(PM10),75,99,127,52,85,78,78,37,37,20,45,13,21,0.9,1.8
2025-12-25T1400,4191A,118.5274,31.72227,马鞍山市,慈湖高新区,细颗粒物(PM2.5),79,89,117,58,85,80,80,42,42,19,35,8,6,0.6,0.7
2025-12-25T1400,1686A,111.0286,21.4688,茂名市,电白南海,,48,48,42,19,24,44,44,30,30,15,16,11,10,1.1,1.1
2025-12-25T1400,1687A,110.9294,21.6533,茂名市,茂石化七小,,31,31,40,9,17,35,35,30,30,16,18,7,8,0.7,0.6
2025-12-25T1400,1688A,110.9107,21.6687,茂名市,健康路,,29,29,33,14,15,38,38,33,33,11,15,9,13,0.8,0.6
2025-12-25T1400,1689A,110.8592,21.6828,茂名市,高岭,,31,31,46,9,14,34,34,30,30,17,19,12,12,0.7,0.6
2025-12-25T1400,3450A,111.01,21.5165,茂名市,电白水东,,41,41,35,17,18,38,38,30,29,15,15,9,8,1.0,0.9
2025-12-25T1400,2539A,104.0308,30.0478,眉山市,黑龙滩水库,,,,,,,,,,,,,,,,
2025-12-25T1400,2540A,103.8416,30.0874,眉山市,气象局,细颗粒物(PM2.5),62,67,102,44,58,50,50,14,14,25,42,10,10,0.7,0.8
2025-12-25T1400,3137A,103.8578,30.0744,眉山市,市委党校,颗粒物(PM10),63,75,86,39,42,45,45,12,12,22,42,7,8,0.5,0.7
2025-12-25T1400,3148A,103.8291,30.0564,眉山市,区人社局,颗粒物(PM10),59,67,96,34,48,49,49,13,13,21,44,6,7,0.6,0.8
2025-12-25T1400,1690A,116.1231,24.3284,梅州市,梅江月梅,,10,,23,7,20,31,31,25,25,14,18,5,6,0.7,0.7
2025-12-25T1400,1691A,116.0797,24.2719,梅州市,梅县新城,,11,6,33,3,23,33,33,26,25,16,23,7,8,0.8,0.8
2025-12-25T1400,1692A,116.1248,24.2654,梅州市,环境监控中心,,12,,28,8,22,30,30,24,23,14,24,5,6,0.6,0.6
2025-12-25T1400,3315A,116.1233,24.2991,梅州市,梅龙,,10,6,28,3,18,30,30,24,24,12,20,7,8,0.7,0.8
2025-12-25T1400,1878A,104.7778,31.4741,绵阳市,富乐山,颗粒物(PM10),51,51,63,25,36,66,66,24,24,9,34,11,11,0.4,0.5
2025-12-25T1400,1880A,104.6697,31.4668,绵阳市,高新区自来水公司,,49,49,97,24,46,69,69,24,24,12,38,8,9,0.5,0.7
2025-12-25T1400,1881A,104.7287,31.5075,绵阳市,三水厂,颗粒物(PM10),59,67,96,39,50,70,70,24,24,12,34,7,8,0.3,0.7
2025-12-25T1400,3491A,104.69,31.5322,绵阳市,西科大附属小学,,50,50,99,24,47,67,67,24,24,13,36,8,8,0.1,0.6
2025-12-25T1400,3492A,104.5648,31.5343,绵阳市,安州区旅游局,,36,36,91,24,52,59,59,28,28,21,39,13,14,0.5,0.8
2025-12-25T1400,4226A,104.7651,31.4531,绵阳市,绵阳市气象局,,,,78,,40,64,64,22,22,9,37,5,8,0.4,0.9
2025-12-25T1400,1784A,129.61,44.561,牡丹江市,环保大楼,颗粒物(PM10),72,93,50,42,35,50,50,27,27,20,36,11,10,0.6,0.5
2025-12-25T1400,1785A,129.6115,44.5782,牡丹江市,文化广场,,,,70,,51,44,44,22,22,21,42,6,6,1.1,1
2025-12-25T1400,1787A,129.6364,44.6075,牡丹江市,机车工厂,细颗粒物(PM2.5),68,67,79,49,42,47,47,23,23,22,38,6,26,0.7,0.7
2025-12-25T1400,1788A,129.6386,44.5462,牡丹江市,第一中学,颗粒物(PM10),57,64,39,37,33,50,50,26,26,16,25,7,6,0.5,0.5
2025-12-25T1400,4287A,129.5992,44.5964,牡丹江市,东晓云街98号,细颗粒物(PM2.5),84,94,75,62,65,46,46,21,21,19,34,7,8,1.3,1.1
2025-12-25T1400,2531A,105.0703,29.61,内江市,市监测站,细颗粒物(PM2.5),59,53,51,42,35,47,47,27,27,17,23,5,5,0.7,0.7
2025-12-25T1400,2532A,105.0717,29.5947,内江市,东兴区政府,细颗粒物(PM2.5),52,46,49,36,30,37,37,15,15,18,27,5,5,0.6,0.5
2025-12-25T1400,2533A,105.0653,29.5817,内江市,内江二中,细颗粒物(PM2.5),59,54,58,42,35,35,35,13,13,18,26,4,4,0.9,0.7
2025-12-25T1400,2534A,105.0406,29.5822,内江市,内江日报社,细颗粒物(PM2.5),62,,50,44,34,38,38,15,15,16,29,2,3,0.6,0.5
2025-12-25T1400,2628A,92.0657,31.4846,那曲市,那曲监测站,,46,46,66,30,43,77,77,40,40,17,33,8,14,0.7,1.8
2025-12-25T1400,4243A,92.0515,31.4787,那曲市,那曲市委宣传部,,23,6,33,3,21,73,73,33,33,8,20,12,10,0.4,1.4
2025-12-25T1400,1290A,115.8931,28.6843,南昌市,省外办,细颗粒物(PM2.5),79,78,48,58,42,100,100,65,65,20,22,8,7,0.9,1
2025-12-25T1400,1291A,115.8886,28.7003,南昌市,省林业公司,细颗粒物(PM2.5),73,75,38,53,38,96,96,63,63,6,12,5,4,0.6,0.6
2025-12-25T1400,1292A,115.8126,28.7442,南昌市,林科所,颗粒物(PM10),63,75,42,41,33,83,83,53,53,16,19,7,5,0.6,0.6
2025-12-25T1400,1294A,115.8518,28.687,南昌市,建工学校,细颗粒物(PM2.5),74,80,49,54,38,81,81,51,51,18,23,13,11,0.9,0.9
2025-12-25T1400,1295A,115.8921,28.6424,南昌市,象湖,细颗粒物(PM2.5),70,68,39,51,36,84,84,54,54,20,20,10,8,0.7,0.7
2025-12-25T1400,1296A,115.7423,28.7996,南昌市,武术学校,,,,,,,,,,,,,,,,
2025-12-25T1400,3046A,115.9084,28.6062,南昌市,机电学校,细颗粒物(PM2.5),85,88,46,63,41,65,65,44,43,16,17,6,4,0.6,0.6
2025-12-25T1400,3690A,115.9721,28.7031,南昌市,外国语学校,细颗粒物(PM2.5),70,84,51,51,41,83,83,52,52,16,22,11,10,0.5,0.6
2025-12-25T1400,4192A,115.9316,28.68677,南昌市,南京东路235号,细颗粒物(PM2.5),75,70,47,55,41,92,92,59,59,24,25,7,5,0.6,0.7
2025-12-25T1400,1905A,106.056,30.8064,南充市,西山风景区,,,,,,,,,,,,,,,,
2025-12-25T1400,1906A,106.0789,30.8023,南充市,南充市委,,50,46,43,35,29,21,21,7,7,18,23,4,5,0.6,0.6
2025-12-25T1400,1907A,106.1031,30.8217,南充市,南充炼油厂,细颗粒物(PM2.5),52,45,46,36,33,20,20,8,8,14,20,6,6,0.6,0.6
2025-12-25T1400,4227A,106.1083,30.7884,南充市,梨树横街98号,,43,40,41,30,25,20,20,11,11,13,21,5,6,0.5,0.5
2025-12-25T1400,4304A,106.1172,30.843,南充市,清泉寺北路188号,,36,28,31,25,21,22,22,11,11,14,17,5,5,0.5,0.6
2025-12-25T1400,4305A,106.067,30.7616,南充市,同庆路1号,,39,33,41,27,25,24,24,8,8,19,24,6,6,1.6,0.6
2025-12-25T1400,1151A,118.8086,32.1065,南京市,迈皋桥,,41,41,98,14,68,80,80,54,54,4,21,4,4,0.2,0.3
2025-12-25T1400,1152A,118.7538,32.0551,南京市,草场门,颗粒物(PM10),51,51,103,14,68,57,57,35,35,19,35,9,8,0.6,0.8
2025-12-25T1400,1153A,118.7794,32.0745,南京市,山西路,颗粒物(PM10),51,51,115,14,72,74,74,45,45,18,40,4,4,0.4,0.8
2025-12-25T1400,1154A,118.7752,32.0023,南京市,中华门,颗粒物(PM10),53,56,103,27,72,64,64,40,40,15,24,5,5,0.9,1
2025-12-25T1400,1155A,118.8109,32.0309,南京市,瑞金路,颗粒物(PM10),53,56,109,29,75,62,62,40,40,19,34,4,4,0.5,0.9
2025-12-25T1400,1156A,118.7997,32.0754,南京市,玄武湖,颗粒物(PM10),52,54,106,14,74,67,67,38,38,16,19,4,4,0.6,1.1
2025-12-25T1400,1157A,118.6414,32.0931,南京市,浦口,细颗粒物(PM2.5),77,64,111,56,79,64,64,48,48,16,27,8,8,0.4,0.6
2025-12-25T1400,1158A,118.7356,31.9996,南京市,奥体中心,颗粒物(PM10),55,60,102,34,72,73,73,48,48,16,41,5,6,0.5,0.7
2025-12-25T1400,1159A,118.9125,32.1028,南京市,仙林大学城,,46,46,101,12,71,60,60,34,34,13,36,7,7,0.5,0.9
2025-12-25T1400,3422A,118.8436,31.9198,南京市,江宁彩虹桥,颗粒物(PM10),67,84,109,34,71,81,81,51,51,18,32,6,5,0.6,1
2025-12-25T1400,3427A,118.8554,32.3578,南京市,六合雄州,,,,109,,74,63,63,37,37,,33,,7,0.1,0.5
2025-12-25T1400,4249A,118.8708,31.3402,南京市,汶溪路181号,细颗粒物(PM2.5),100,95,97,75,85,80,80,46,46,26,38,7,5,0.6,0.8
2025-12-25T1400,4312A,119.019,31.6512,南京市,中山西路1号,细颗粒物(PM2.5),88,70,84,65,80,72,72,39,39,26,36,4,4,0.6,0.8
2025-12-25T1400,1401A,108.3103,22.7881,南宁市,二十一中,,33,33,10,3,6,60,60,37,37,11,14,3,3,0.5,0.7
2025-12-25T1400,1402A,108.3141,22.8528,南宁市,北湖,,20,15,16,7,9,64,64,40,40,10,13,4,7,0.6,0.8
2025-12-25T1400,1403A,108.3206,22.8225,南宁市,市监测站,,28,23,14,19,12,56,56,33,33,9,12,6,6,0.5,0.7
2025-12-25T1400,1404A,108.3829,22.8037,南宁市,大自然花园,,24,24,12,10,9,70,70,48,48,8,12,5,5,0.4,0.6
2025-12-25T1400,1405A,108.4394,22.7904,南宁市,仙葫,,,,,,,,,,,,,,,,
2025-12-25T1400,1406A,108.2397,22.8467,南宁市,区农职院,,22,22,16,10,7,69,69,43,43,9,13,7,6,0.5,0.6
2025-12-25T1400,1407A,108.3275,22.735,南宁市,英华嘉园,,31,31,12,3,5,65,65,41,41,11,13,3,3,0.4,0.6
2025-12-25T1400,3401A,108.4834,22.7618,南宁市,红星社区,,,,9,,6,69,69,51,51,,7,4,4,0.5,0.7
2025-12-25T1400,4221A,108.2177,22.7774,南宁市,乐贤路16号,,26,26,16,7,10,65,65,40,40,11,13,10,7,0.4,0.6
2025-12-25T1400,2331A,118.0966,26.6761,南平市,茫荡山,,,,14,,8,,,44,,,,,1,,
2025-12-25T1400,2332A,118.1681,26.6369,南平市,南平市监测站,,11,,13,3,11,34,34,17,17,13,17,3,3,0.6,0.5
2025-12-25T1400,2333A,118.1825,26.6489,南平市,南平铝业有限公司,,14,14,14,3,9,36,36,17,17,12,13,4,4,0.7,0.7
2025-12-25T1400,2334A,118.1756,26.6272,南平市,南平七中,,12,12,16,3,10,36,36,16,16,15,16,4,6,0.6,0.7
2025-12-25T1400,1168A,120.9098,31.9663,南通市,狼山街道,,33,33,59,19,37,64,64,55,55,10,13,4,4,0.6,0.6
2025-12-25T1400,1169A,120.86,32.0005,南通市,虹桥,,35,35,56,18,38,61,61,49,49,17,21,4,4,0.5,0.6
2025-12-25T1400,1170A,120.87,32.02,南通市,城中,,36,36,66,16,38,63,63,51,51,14,18,5,5,0.3,0.5
2025-12-25T1400,1171A,120.94,31.93,南通市,星湖花园,,46,46,61,17,37,64,64,56,56,12,15,5,4,0.5,0.6
2025-12-25T1400,1172A,120.81,32.0417,南通市,紫琅学院,,,,68,,42,67,67,51,51,,20,4,5,0.4,0.5
2025-12-25T1400,3291A,121.067,32.062,南通市,通州监测站,,31,31,53,14,36,71,71,58,58,15,19,4,3,0.4,0.6
2025-12-25T1400,3432A,120.9348,31.9883,南通市,环境教育馆,,,41,61,18,40,70,70,56,56,14,16,,5,0.4,0.5
2025-12-25T1400,2404A,112.5224,33.0122,南阳市,瓦房庄,,42,42,109,16,52,65,65,51,51,10,28,8,7,0.4,0.8
2025-12-25T1400,2405A,112.5003,32.9735,南阳市,汉画馆,,45,45,114,18,60,64,64,34,34,10,33,8,6,0.5,0.8
2025-12-25T1400,2406A,112.5573,33.027,南阳市,气象站,,45,45,128,19,50,67,67,50,50,10,27,7,6,0.5,0.8
2025-12-25T1400,2407A,112.5481,32.9689,南阳市,理工学院,,41,41,111,11,49,66,66,36,36,12,35,8,6,0.5,0.8
2025-12-25T1400,4008A,112.5234,32.9922,南阳市,卧龙区政府,,36,36,121,17,54,65,65,44,44,13,36,7,6,0.5,0.7
2025-12-25T1400,1234A,121.8358,29.911,宁波市,区环保大楼,,37,37,42,16,24,64,64,55,55,25,29,7,5,0.6,0.7
2025-12-25T1400,1235A,121.56,29.82,宁波市,万里学院,,,,47,,35,72,72,55,55,15,29,,5,0.5,1
2025-12-25T1400,1236A,121.713,29.9572,宁波市,龙赛医院,,35,34,36,24,33,62,62,50,50,21,30,4,4,0.4,0.5
2025-12-25T1400,1239A,121.633,29.7733,宁波市,钱湖水厂,,38,38,37,23,30,74,74,57,57,18,28,6,5,0.5,0.7
2025-12-25T1400,1240A,121.5856,29.8635,宁波市,太古小学,,38,38,39,23,27,76,76,59,59,13,23,2,2,0.4,0.6
2025-12-25T1400,1241A,121.524,29.8674,宁波市,市环境监测中心,,36,36,40,15,21,74,74,55,55,12,25,5,4,0.4,0.7
2025-12-25T1400,2871A,121.6147,29.9017,宁波市,万里国际学校,,41,41,49,22,32,75,75,60,60,16,27,4,3,0.4,0.5
2025-12-25T1400,3710A,121.5594,29.8975,宁波市,白沙活动中心,,39,39,39,20,25,73,73,57,57,18,28,5,4,0.7,0.8
2025-12-25T1400,2339A,119.5001,26.6946,宁德市,金涵水库,,,,36,,26,,,31,,,15,,2,,0.6
2025-12-25T1400,2341A,119.5388,26.6612,宁德市,宁德市监测站,,14,,26,3,28,42,42,19,17,15,24,6,6,0.6,0.7
2025-12-25T1400,3209A,119.5231,26.6562,宁德市,宁德一中,,15,,26,10,29,42,42,21,17,19,26,4,4,0.4,0.5
2025-12-25T1400,2618A,98.8601,25.8567,怒江傈僳族自治州,州监测站,,22,22,35,15,23,65,65,36,36,7,13,7,6,0.4,0.4
2025-12-25T1400,2619A,98.8546,25.8417,怒江傈僳族自治州,泸水一中,,38,28,28,26,22,58,58,26,26,6,20,5,5,0.3,0.6
2025-12-25T1400,1888A,101.6891,26.571,攀枝花市,弄弄坪,,19,15,48,13,26,43,43,40,36,14,21,13,16,0.7,0.8
2025-12-25T1400,1889A,101.5769,26.5928,攀枝花市,河门口,,27,27,46,15,28,49,49,40,40,11,19,17,20,0.9,1.2
2025-12-25T1400,1890A,101.7169,26.585,攀枝花市,炳草岗,,31,31,47,15,27,26,26,35,31,26,24,18,14,0.8,0.9
2025-12-25T1400,1891A,101.7369,26.5008,攀枝花市,仁和,,20,20,48,13,32,44,44,33,33,14,22,7,12,0.7,0.9
2025-12-25T1400,2835A,101.7227,26.567,攀枝花市,四十中小,,34,34,45,18,28,41,41,41,37,12,17,18,21,0.7,0.9
2025-12-25T1400,1604A,122.0303,41.1489,盘锦市,开发区,,21,21,37,3,23,50,50,48,48,2,17,4,5,0.4,0.7
2025-12-25T1400,1605A,122.0485,41.0883,盘锦市,兴隆台,,18,18,31,6,19,48,48,44,44,5,23,7,8,0.4,0.6
2025-12-25T1400,1606A,121.8297,41.1028,盘锦市,新生街道,,20,20,26,3,17,49,49,41,41,6,27,6,5,0.2,0.4
2025-12-25T1400,1832A,113.3257,33.742,平顶山市,新华旅馆,,50,50,108,25,41,70,70,48,48,15,27,10,11,0.4,0.5
2025-12-25T1400,1833A,113.2919,33.737,平顶山市,规划设计院,颗粒物(PM10),58,65,113,28,40,72,72,48,48,17,25,9,9,0.4,0.5
2025-12-25T1400,1834A,113.182,33.774,平顶山市,平顶山工学院,,,,95,,32,74,74,50,50,13,20,13,12,0.5,0.3
2025-12-25T1400,3204A,113.3025,33.73,平顶山市,规划局,颗粒物(PM10),57,63,113,28,42,72,72,49,49,17,24,9,10,0.5,0.6
2025-12-25T1400,3594A,112.8867,33.9116,平顶山市,石龙区,,47,47,100,16,26,77,77,55,55,14,20,8,7,0.3,0.3
2025-12-25T1400,2656A,106.6692,35.5461,平凉市,聚贤嘉苑,,45,45,40,19,19,65,65,44,44,13,23,10,6,0.5,0.4
2025-12-25T1400,2657A,106.7021,35.5307,平凉市,博物馆,,,,43,17,19,68,68,44,44,13,21,12,9,0.5,0.5
2025-12-25T1400,2347A,114.0997,27.5002,萍乡市,武功山,,,,,,,,,,,,,,,,
2025-12-25T1400,2348A,113.8385,27.6434,萍乡市,中医院,,50,48,46,35,32,73,73,33,33,13,26,4,4,1.0,1.2
2025-12-25T1400,2349A,113.8493,27.6253,萍乡市,市政府车库,细颗粒物(PM2.5),52,37,41,36,29,71,71,31,31,8,20,6,7,0.9,0.9
2025-12-25T1400,2350A,113.8676,27.6435,萍乡市,市环保局,,42,38,31,29,27,79,79,34,34,11,22,12,13,0.8,0.7
2025-12-25T1400,2351A,113.866,27.6198,萍乡市,安源区政府,,40,33,49,28,38,68,68,29,29,13,23,8,10,0.7,1
2025-12-25T1400,2319A,119.0141,25.4325,莆田市,荔城区仓后路,,11,10,31,3,25,22,22,36,18,21,23,2,2,0.7,0.7
2025-12-25T1400,2320A,119.0015,25.4553,莆田市,莆田市监测站,,10,6,28,3,22,22,22,39,18,20,21,4,4,0.7,0.6
2025-12-25T1400,2321A,119.1119,25.4561,莆田市,涵江区六中,,12,12,26,3,19,27,27,38,18,21,21,4,3,0.6,0.6
2025-12-25T1400,2322A,119.1013,25.3215,莆田市,秀屿区政府,,14,6,30,3,26,42,42,40,24,18,24,5,4,0.8,0.7
2025-12-25T1400,2323A,118.981,25.4792,莆田市,东圳水库,,,,25,,23,,,64,,,2,,4,,0.6
2025-12-25T1400,2392A,115.0312,35.7636,濮阳市,环保局,,19,11,59,3,43,60,60,42,42,10,31,7,7,0.5,0.8
2025-12-25T1400,2394A,115.0574,35.7609,濮阳市,油田运输公司,,29,29,73,3,46,63,63,43,43,10,36,7,8,0.7,1
2025-12-25T1400,3021A,115,35.7668,濮阳市,濮水河管理处,,20,15,66,3,46,62,62,46,46,8,33,6,6,0.4,0.8
2025-12-25T1400,4216A,115.0924,35.7686,濮阳市,任丘路479号,,,,85,,56,59,59,37,37,9,37,6,6,0.5,1.1
2025-12-25T1400,2601A,100.98,22.7633,普洱市,市环保局,,41,41,44,15,11,73,73,35,35,6,10,5,4,0.3,0.4
2025-12-25T1400,2602A,100.9817,22.8322,普洱市,普洱第二中学,,34,34,38,11,16,72,72,33,33,5,17,5,4,0.3,0.4
2025-12-25T1400,2262A,131.0518,45.8751,七台河市,新一中,,,,,,,,,,,,,,,,
2025-12-25T1400,3345A,131.0577,45.7879,七台河市,中波台,,,51,58,21,39,54,54,36,36,7,28,7,9,,0.4
2025-12-25T1400,3637A,131.0176,45.7761,七台河市,人民广场,,39,39,61,19,43,51,51,36,36,14,30,8,8,0.4,0.5
2025-12-25T1400,3684A,130.8781,45.8222,七台河市,新建矿广场,,48,48,62,31,30,48,48,32,32,10,21,8,9,0.4,0.5
2025-12-25T1400,1779A,123.9305,47.3636,齐齐哈尔市,安居小区,,30,,31,21,28,48,48,38,38,6,17,1,3,0.5,0.6
2025-12-25T1400,1780A,123.9488,47.3386,齐齐哈尔市,中心广场,,14,6,20,3,12,44,44,41,38,3,7,6,7,0.6,0.6
2025-12-25T1400,1781A,123.9483,47.3227,齐齐哈尔市,农牧车辆厂,,,17,23,13,11,38,38,34,32,,11,4,6,0.5,0.6
2025-12-25T1400,1783A,123.945,47.2988,齐齐哈尔市,市环境监测站,,20,20,22,3,11,45,45,42,40,4,9,5,7,0.5,0.5
2025-12-25T1400,3662A,123.6333,47.2075,齐齐哈尔市,富区青少年活动中心,,,13,26,7,15,47,47,41,41,,17,5,7,0.5,0.6
2025-12-25T1400,2591A,107.9783,26.5747,黔东南苗族侗族自治州,市环境监测站,,37,37,44,23,36,68,68,49,49,8,10,5,5,0.4,0.5
2025-12-25T1400,2881A,107.8908,26.5311,黔东南苗族侗族自治州,凯里学院,颗粒物(PM10),59,68,51,23,34,67,67,46,46,12,13,5,4,0.5,0.5
2025-12-25T1400,2593A,107.5228,26.2403,黔南布依族苗族自治州,小围寨,,,,38,,29,61,61,42,42,5,6,7,4,0.5,0.7
2025-12-25T1400,3538A,107.5175,26.2978,黔南布依族苗族自治州,沙坝,颗粒物(PM10),53,56,42,27,31,66,66,43,43,8,9,5,5,0.2,0.4
2025-12-25T1400,2589A,104.9022,25.0925,黔西南布依族苗族自治州,场坝街,,39,38,52,27,41,59,59,47,47,12,14,4,4,0.5,0.6
2025-12-25T1400,2590A,104.8811,25.0992,黔西南布依族苗族自治州,坪东大道,,,32,48,22,39,59,59,47,47,9,12,8,7,,0.3
2025-12-25T1400,2502A,108.6236,21.9667,钦州市,市环保站,,31,31,26,9,8,67,67,46,46,10,13,2,2,0.6,0.9
2025-12-25T1400,2503A,108.6549,21.9481,钦州市,沙埠小学,,43,43,25,3,5,70,70,51,51,12,13,4,3,0.5,0.7
2025-12-25T1400,2504A,108.5989,21.7431,钦州市,港区一小,,28,28,42,14,17,62,62,39,39,12,24,6,8,0.4,0.6
2025-12-25T1400,3404A,108.5959,21.9633,钦州市,北职校,,21,19,18,14,9,66,66,48,48,4,6,6,6,0.5,0.7
2025-12-25T1400,1043A,119.7493,40.0116,秦皇岛市,第一关,,,,33,,26,64,64,39,39,,36,6,8,,0.4
2025-12-25T1400,1044A,119.5897,39.9499,秦皇岛市,监测站,,22,15,39,7,15,69,69,56,56,6,23,6,8,0.4,0.5
2025-12-25T1400,1046A,119.5251,39.9041,秦皇岛市,建设大厦,,26,22,37,18,28,63,63,46,46,5,21,4,7,0.2,0.4
2025-12-25T1400,3132A,119.610547,39.943889,秦皇岛市,文明里,,,13,32,3,15,63,63,52,52,,11,8,10,0.2,0.3
2025-12-25T1400,4198A,119.5090,39.8253,秦皇岛市,北戴河轮滑馆,,21,11,34,3,14,65,65,56,56,4,15,4,5,0.3,0.4
2025-12-25T1400,1307A,120.6659,36.2403,青岛市,仰口,,,,,,,,,,,,,,,,
2025-12-25T1400,1310A,120.4134,36.0658,青岛市,市南区东部子站,,31,31,45,12,18,56,56,48,48,10,25,7,10,0.5,0.6
2025-12-25T1400,1311A,120.3664,36.1032,青岛市,四方区子站,,31,31,50,17,23,67,67,57,57,4,24,2,4,0.5,0.7
2025-12-25T1400,1312A,120.2994,36.054,青岛市,市南区西部子站,,19,19,39,12,18,54,54,45,45,6,21,2,4,0.3,0.5
2025-12-25T1400,1313A,120.4581,36.0858,青岛市,崂山区子站,,22,22,41,12,18,56,56,47,47,13,28,9,10,0.4,0.6
2025-12-25T1400,1315A,120.3999,36.3083,青岛市,城阳区子站,,20,19,51,12,23,64,64,48,48,7,31,6,8,0.4,0.7
2025-12-25T1400,3362A,120.5014,36.4034,青岛市,即墨2号,,28,28,45,9,23,52,52,48,48,3,24,6,8,0.4,0.7
2025-12-25T1400,3642A,120.3503,36.0736,青岛市,市北区南部,,34,34,47,7,18,53,53,44,44,7,24,8,7,0.4,0.5
2025-12-25T1400,3643A,120.3948,36.1805,青岛市,李沧区北部,,27,27,44,17,26,51,51,37,37,8,30,14,15,0.6,0.8
2025-12-25T1400,4290A,120.1969,35.9546,青岛市,珠江路669号,,22,22,48,10,23,65,65,53,53,9,33,10,11,0.4,0.5
2025-12-25T1400,4291A,120.0424,35.8656,青岛市,黄岛区人民政府广场,,25,22,52,3,23,79,79,62,62,6,30,7,8,0.6,0.7
2025-12-25T1400,1702A,113.0426,23.691,清远市,环保大楼,,,,,,,,,,,,,,,,
2025-12-25T1400,1703A,113.0208,23.7106,清远市,凤城街办,,12,12,15,7,9,25,25,25,24,17,16,6,8,0.8,0.8
2025-12-25T1400,3025A,113.0477,23.6344,清远市,技师学院,,9,9,17,6,10,24,24,24,21,18,21,5,6,0.8,0.7
2025-12-25T1400,3318A,112.9903,23.7403,清远市,清新太和,,17,17,18,10,11,27,27,,,12,13,9,12,0.7,0.7
2025-12-25T1400,3455A,113.076,23.7198,清远市,清城东城,,9,7,13,3,9,22,22,24,22,17,15,5,6,0.8,0.7
2025-12-25T1400,2661A,107.6325,35.7357,庆阳市,庆阳五中,颗粒物(PM10),55,59,55,23,23,82,82,62,62,14,16,8,7,0.4,0.5
2025-12-25T1400,2662A,107.6364,35.7067,庆阳市,市环保局,颗粒物(PM10),52,53,55,23,18,84,84,65,65,9,10,3,3,0.2,0.5
2025-12-25T1400,1916A,103.7897,25.5035,曲靖市,环境监测站,,26,,43,18,23,47,47,47,47,12,16,5,8,0.3,0.4
2025-12-25T1400,1917A,103.8,25.5364,曲靖市,烟厂办公区,,30,30,45,16,23,46,46,47,47,13,17,4,8,0.6,0.7
2025-12-25T1400,3376A,103.7947,25.462,曲靖市,南苑二区,,28,28,41,14,24,52,52,53,53,9,13,4,7,0.4,0.6
2025-12-25T1400,3377A,103.7444,25.5261,曲靖市,曲靖师范学院,,39,34,40,27,30,47,47,53,46,12,12,4,3,0.5,0.6
2025-12-25T1400,1264A,118.8692,28.9398,衢州市,环保大楼,细颗粒物(PM2.5),59,58,18,42,14,78,78,45,45,16,26,4,4,0.6,0.7
2025-12-25T1400,1265A,118.8709,28.9666,衢州市,实验学校,,,53,14,46,12,77,77,43,43,12,24,4,4,,0.9
2025-12-25T1400,1266A,118.8621,28.9808,衢州市,衢州学院,细颗粒物(PM2.5),59,56,16,42,13,77,77,46,46,15,25,3,3,0.6,0.7
2025-12-25T1400,1611A,118.5819,24.9117,泉州市,涂山街,,12,8,28,3,25,24,24,37,21,23,23,3,4,0.8,0.8
2025-12-25T1400,1612A,118.5972,24.8978,泉州市,津头埔,,12,6,27,3,28,24,24,32,19,23,24,3,4,0.8,0.8
2025-12-25T1400,1613A,118.6663,24.9424,泉州市,万安,,11,11,33,3,25,31,31,36,23,22,23,3,4,0.7,0.7
2025-12-25T1400,1614A,118.6117,24.9604,泉州市,清源山,,,,35,,24,,,62,,,19,,3,,0.6
2025-12-25T1400,3529A,118.6333,24.9264,泉州市,城华南路,,13,6,30,3,19,27,27,34,19,25,27,4,5,0.7,0.7
2025-12-25T1400,2626A,88.8876,29.2718,日喀则市,日喀则监测站,,25,14,22,3,9,79,79,60,43,3,14,9,12,0.2,0.3
2025-12-25T1400,3726A,88.8781,29.2426,日喀则市,林业技术推广中心,,25,18,17,3,4,77,77,72,56,6,5,9,9,0.3,0.2
2025-12-25T1400,1659A,119.471,35.4209,日照市,监测站,,21,17,52,7,30,67,67,54,54,11,30,7,8,0.5,0.7
2025-12-25T1400,1660A,119.523,35.4216,日照市,市政府广场,,21,14,50,3,26,66,66,54,54,10,25,10,10,0.7,0.9
2025-12-25T1400,1661A,119.5587,35.4044,日照市,港务局,,21,19,54,12,34,67,67,54,54,9,24,8,9,0.4,0.6
2025-12-25T1400,3507A,119.5328,35.4625,日照市,职业技术学院,,,17,52,,23,69,69,56,56,10,25,7,8,0.5,0.7
2025-12-25T1400,3604A,119.3266,35.1044,日照市,岚山环保分局,,22,19,66,3,39,70,70,49,49,6,31,9,13,0.6,0.9
2025-12-25T1400,1835A,111.1922,34.7752,三门峡市,市政府,,28,28,82,19,34,69,69,32,32,12,34,10,10,0.2,0.5
2025-12-25T1400,1836A,111.1587,34.7942,三门峡市,开发区,,44,44,107,16,34,62,62,24,24,14,34,11,9,0.3,0.5
2025-12-25T1400,1838A,111.143,34.7955,三门峡市,风景区,,,,95,,34,,,38,,,32,,10,,0.7
2025-12-25T1400,3039A,111.1911,34.7829,三门峡市,三门峡市第一小学,,30,30,96,12,32,65,65,29,29,14,34,10,9,0.4,0.7
2025-12-25T1400,3598A,111.1,34.7167,三门峡市,富达温泉假日酒店,,23,20,88,13,33,71,71,41,41,19,32,16,19,0.3,0.7
2025-12-25T1400,2324A,117.6211,26.2625,三明市,三钢,,10,,26,7,18,14,14,17,10,13,18,4,7,0.8,1
2025-12-25T1400,2325A,117.635,26.2714,三明市,三明二中,,8,8,23,3,18,14,14,17,10,12,15,7,9,0.8,0.8
2025-12-25T1400,2326A,117.6028,26.2378,三明市,三元区政府,,17,17,24,6,18,6,6,18,6,17,17,7,7,0.8,0.9
2025-12-25T1400,2327A,117.7275,26.3108,三明市,洋溪,,,,24,,19,,,39,,,15,,16,,1.7
2025-12-25T1400,1876A,109.5078,18.2489,三亚市,河东子站,,29,16,24,11,11,90,90,71,71,7,9,5,4,0.5,0.5
2025-12-25T1400,1877A,109.4964,18.2681,三亚市,河西子站,,31,20,28,13,12,97,97,68,68,5,8,4,4,0.3,0.4
2025-12-25T1400,3540A,109.7348,18.3443,三亚市,君悦子站,,29,29,33,17,13,86,86,71,71,6,6,5,5,0.6,0.6
2025-12-25T1400,2624A,91.7608,29.2313,山南市,山南监测站,,26,26,26,6,10,67,67,42,34,7,15,6,6,0.3,0.3
2025-12-25T1400,2625A,91.7706,29.2436,山南市,山南人民医院,,19,18,29,3,11,59,59,33,33,7,15,5,6,0.3,0.5
2025-12-25T1400,1674A,116.6794,23.3667,汕头市,金平子站,,24,24,35,3,20,30,30,51,29,19,17,6,5,0.9,0.7
2025-12-25T1400,1675A,116.7244,23.3633,汕头市,龙湖子站,,20,20,32,6,17,32,32,50,29,17,14,10,9,0.8,0.7
2025-12-25T1400,1676A,116.7258,23.2775,汕头市,濠江子站,,27,27,32,10,21,30,30,51,27,21,16,8,7,0.9,0.7
2025-12-25T1400,1677A,116.7519,23.4714,汕头市,澄海子站,,22,22,30,3,20,32,32,47,30,16,15,5,6,0.8,0.7
2025-12-25T1400,1678A,116.6092,23.2539,汕头市,潮阳子站,,14,14,27,3,14,38,38,57,34,17,13,8,6,0.8,0.7
2025-12-25T1400,3444A,116.454,23.2684,汕头市,潮南峡山,,,10,28,3,15,,,52,35,12,11,8,8,,0.7
2025-12-25T1400,3624A,116.4069,23.2533,汕头市,潮南子站,,,17,37,3,16,37,37,52,32,,14,5,6,0.7,0.6
2025-12-25T1400,1693A,115.3653,22.775,汕尾市,市环保局,,17,9,28,3,17,54,54,55,39,7,11,6,6,0.7,0.6
2025-12-25T1400,1694A,115.3706,22.7898,汕尾市,市政府,,,1,29,,18,58,58,55,41,8,13,6,7,0.6,0.6
2025-12-25T1400,1695A,115.3622,22.7925,汕尾市,新城中学,,18,6,30,3,15,56,56,53,40,7,12,4,5,0.7,0.6
2025-12-25T1400,2645A,109.9154,33.8715,商洛市,监测站,,46,46,85,14,29,86,86,47,47,10,20,5,5,0.3,0.4
2025-12-25T1400,3045A,109.9643,33.8471,商洛市,商州区中学,颗粒物(PM10),56,61,88,9,29,89,89,40,40,8,28,5,5,0.5,0.7
2025-12-25T1400,2408A,115.6702,34.4285,商丘市,环境监测站,颗粒物(PM10),58,66,79,40,71,63,63,35,35,16,40,3,3,0.4,0.7
