timepoint,stationcode,longitude,latitude,area,positionname,primarypollutant,aqi,pm10,pm10_24h,pm2_5,pm2_5_24h,o3,o3_24h,o3_8h,o3_8h_24h,no2,no2_24h,so2,so2_24h,co,co_24h
2025-12-25T1200,2566A,102.1879,31.914,阿坝藏族羌族自治州,州农科所,,,,,,,,,,,,,,,,
2025-12-25T1200,2568A,102.2502,31.8896,阿坝藏族羌族自治州,马师校,,25,19,30,17,21,41,41,26,24,14,16,5,5,0.7,0.7
2025-12-25T1200,3994A,102.2165,31.9024,阿坝藏族羌族自治州,马尔康中学西区,,32,32,32,7,14,44,44,31,30,12,13,6,6,0.7,0.7
2025-12-25T1200,2695A,80.292,41.1694,阿克苏地区,电视台,颗粒物(PM10),66,81,86,32,43,19,19,39,37,50,36,5,4,0.8,0.7
2025-12-25T1200,2696A,80.2613,41.1551,阿克苏地区,艺术中心,,,,85,,50,37,37,50,50,20,21,4,4,0.8,0.9
2025-12-25T1200,2204A,105.6467,38.8363,阿拉善盟,西城区西花园,,,,,,,,,,,,,,,,
2025-12-25T1200,2205A,105.6985,38.8411,阿拉善盟,蒙二幼,,,,21,,9,66,66,67,61,12,11,,9,0.7,0.8
2025-12-25T1200,2206A,105.724,38.8516,阿拉善盟,环保局新楼,,20,20,15,11,7,60,60,72,69,14,5,9,8,0.6,0.5
2025-12-25T1200,2708A,88.1264,47.8517,阿勒泰地区,市站,,32,13,12,3,8,13,13,58,45,64,35,4,4,0.7,0.5
2025-12-25T1200,2630A,80.1161,32.5,阿里地区,阿里监测站,,20,6,3,3,3,62,62,58,58,16,12,11,10,0.5,0.4
2025-12-25T1200,3192A,80.0903,32.5028,阿里地区,阿里藏医院,,21,14,17,10,11,65,65,57,57,8,12,23,12,0.4,0.5
2025-12-25T1200,2642A,109.0318,32.6537,安康市,香溪洞,,,,,,,,,,,,,,,,
2025-12-25T1200,2644A,109.0072,32.6975,安康市,汉滨区检察院,颗粒物(PM10),57,63,60,38,30,14,14,8,8,18,22,4,4,0.4,0.4
2025-12-25T1200,4054A,109.0325,32.6913,安康市,市邮政管理局,颗粒物(PM10),58,66,65,37,36,12,12,7,7,17,23,4,5,0.7,0.7
2025-12-25T1200,2291A,117.0809,30.5177,安庆市,环科院,细颗粒物(PM2.5),103,105,84,77,64,75,75,43,43,8,13,7,5,0.5,0.6
2025-12-25T1200,2292A,117.0331,30.5119,安庆市,马山宾馆,细颗粒物(PM2.5),105,107,85,79,64,74,74,44,44,14,20,8,5,0.7,0.7
2025-12-25T1200,2294A,116.9896,30.6145,安庆市,安庆大学,细颗粒物(PM2.5),97,99,83,72,46,77,77,45,45,13,17,6,3,0.7,0.6
2025-12-25T1200,3173A,117.0598,30.5351,安庆市,市人大,细颗粒物(PM2.5),102,107,89,76,65,,,33,,,22,7,5,0.6,0.6
2025-12-25T1200,3122A,105.9606,26.2611,安顺市,伍家关,,41,41,34,21,19,50,50,50,46,10,11,11,11,0.5,0.6
2025-12-25T1200,3123A,105.9408,26.2431,安顺市,凤凰山,,45,45,38,29,26,52,52,53,50,13,13,14,12,0.6,0.6
2025-12-25T1200,3124A,105.9439,26.2564,安顺市,金钟山,,45,41,35,31,28,53,53,52,49,10,11,12,13,0.5,0.6
2025-12-25T1200,3125A,105.8983,26.2481,安顺市,娄家坡,,,43,38,25,27,,,55,50,13,12,17,16,0.6,0.7
2025-12-25T1200,1818A,114.4839,36.0621,安阳市,棉研所,,,,,,,,,,,,,,,,
2025-12-25T1200,1819A,114.3551,36.1017,安阳市,红庙街,,37,37,74,25,48,49,49,31,31,14,35,4,5,0.3,0.7
2025-12-25T1200,1820A,114.361,36.0681,安阳市,银杏小区,,45,36,78,31,52,48,48,30,30,17,35,4,5,0.4,0.8
2025-12-25T1200,3141A,114.3922,36.0878,安阳市,信访局,,50,43,81,35,53,51,51,33,33,16,37,5,5,0.5,0.8
2025-12-25T1200,3669A,114.4705,36.0637,安阳市,左辅环卫站,颗粒物(PM10),57,64,92,33,55,53,53,35,35,15,32,2,3,0.5,0.7
2025-12-25T1200,3703A,114.2917,36.0949,安阳市,安钢职工学校,,35,35,83,24,54,45,45,23,23,14,38,3,6,0.1,0.7
2025-12-25T1200,1748A,123.044,41.1196,鞍山市,深沟寺,,21,21,50,9,34,51,51,45,45,8,33,11,11,0.5,0.8
2025-12-25T1200,1749A,123.011,41.0931,鞍山市,太阳城,,20,20,42,11,28,54,54,50,50,6,27,12,13,0.5,0.7
2025-12-25T1200,1750A,123.0485,41.1442,鞍山市,太平,,18,18,66,8,37,50,50,43,43,7,37,10,15,0.9,1.3
2025-12-25T1200,1751A,122.9642,41.0971,鞍山市,铁西三道街,,22,22,69,11,41,46,46,35,35,10,43,14,30,0.7,1.6
2025-12-25T1200,1753A,123.022,41.0821,鞍山市,明达新区,,18,18,42,9,26,54,54,48,48,11,27,12,15,0.3,0.5
2025-12-25T1200,1754A,123.1289,41.0228,鞍山市,千山,,,,16,,16,,,36,,,29,,4,,0.5
2025-12-25T1200,4201A,122.9446,41.0826,鞍山市,兴盛南路290号,,24,24,84,9,54,53,53,45,45,14,46,10,20,0.6,1.7
2025-12-25T1200,2195A,107.4212,40.761,巴彦淖尔市,附二中,,36,36,36,14,16,36,36,30,24,20,19,4,4,0.3,0.2
2025-12-25T1200,2196A,107.37,40.7372,巴彦淖尔市,市环保大楼,,30,30,30,8,15,38,38,43,31,18,14,4,4,0.4,0.4
2025-12-25T1200,1956A,86.1472,41.7538,巴音郭楞蒙古自治州,孔雀公园,颗粒物(PM10),69,88,76,16,28,37,37,34,34,28,38,8,9,0.6,0.7
2025-12-25T1200,1957A,86.1972,41.7166,巴音郭楞蒙古自治州,棉纺厂,颗粒物(PM10),67,84,96,19,17,34,34,33,33,30,30,8,6,0.6,0.6
2025-12-25T1200,1958A,86.2357,41.7173,巴音郭楞蒙古自治州,经济开发区,颗粒物(PM10),65,79,70,9,14,25,25,36,32,36,26,5,6,0.5,0.5
2025-12-25T1200,2914A,106.7677,31.8794,巴中市,苏山坪,,,,,,,,,,,,,,,,
2025-12-25T1200,3181A,106.7768,31.8526,巴中市,市五中,,46,46,59,30,34,14,14,4,4,18,18,5,5,0.9,0.9
2025-12-25T1200,3183A,106.7418,31.8654,巴中市,圣泉水务公司,颗粒物(PM10),52,53,53,29,33,18,18,9,9,22,20,5,5,0.7,0.6
2025-12-25T1200,3616A,106.7616,31.8344,巴中市,市中心医院,,42,36,51,29,33,18,18,4,4,15,19,6,6,0.8,0.8
2025-12-25T1200,2235A,122.7911,45.6077,白城市,洮北区环保局,细颗粒物(PM2.5),52,,28,36,22,44,44,38,36,13,18,8,7,0.4,0.2
2025-12-25T1200,2236A,122.8738,45.5725,白城市,市环保局,,20,17,19,14,19,47,47,30,27,6,15,8,5,0.4,0.3
2025-12-25T1200,2231A,126.4219,41.9171,白山市,喜丰,,33,33,40,10,25,52,52,35,35,7,24,13,10,0.5,0.7
2025-12-25T1200,2232A,126.4077,41.9419,白山市,环保局,,,,31,,29,52,52,32,32,5,19,12,11,0.4,1
2025-12-25T1200,2647A,104.1724,36.5446,白银市,第三小学,,,51,40,49,21,45,45,34,27,,23,40,18,1.3,1.1
2025-12-25T1200,2648A,104.1465,36.5482,白银市,动力公司,颗粒物(PM10),51,52,33,29,17,60,60,41,36,21,15,35,7,1.2,1
2025-12-25T1200,2512A,106.6103,23.9011,百色市,市监测站,,21,21,16,13,11,37,37,16,16,13,15,7,6,0.5,0.7
2025-12-25T1200,2513A,106.6538,23.8859,百色市,市中心血站,,,24,23,16,15,,,8,8,13,23,7,8,,0.8
2025-12-25T1200,3406A,106.6085,23.8798,百色市,祈福高中,,18,,20,12,11,37,37,12,12,13,18,6,5,0.5,0.6
2025-12-25T1200,2270A,117.396,32.939,蚌埠市,工人疗养院,细颗粒物(PM2.5),63,73,99,45,66,55,55,30,30,20,31,7,6,0.5,0.6
2025-12-25T1200,2271A,117.3605,32.9427,蚌埠市,百货大楼,"颗粒物(PM10),细颗粒物(PM2.5)",53,55,98,37,64,55,55,28,28,20,34,6,5,0.5,0.6
2025-12-25T1200,2273A,117.4185,32.8911,蚌埠市,蚌埠学院,"颗粒物(PM10),细颗粒物(PM2.5)",53,56,84,37,64,52,52,32,32,21,31,7,5,0.4,0.6
2025-12-25T1200,2274A,117.3533,32.9673,蚌埠市,淮上区政府,,,,95,,72,57,57,20,20,,39,,3,,0.6
2025-12-25T1200,2275A,117.3145,32.8977,蚌埠市,高新区,颗粒物(PM10),53,56,92,34,69,50,50,20,20,18,41,9,8,0.3,0.6
2025-12-25T1200,3715A,117.3092,32.9314,蚌埠市,蚌埠田家炳中学,细颗粒物(PM2.5),62,64,103,44,68,55,55,19,19,20,44,6,7,0.5,0.7
2025-12-25T1200,1585A,109.8756,40.6532,包头市,市环境监测站,,46,46,36,23,19,42,42,32,26,32,20,25,7,1.8,0.8
2025-12-25T1200,1587A,109.9991,40.5842,包头市,包头八中,,,48,24,20,12,,,32,19,36,20,7,5,0.9,0.6
2025-12-25T1200,1588A,109.8538,40.6821,包头市,青山宾馆,细颗粒物(PM2.5),100,81,40,75,28,32,32,29,22,50,24,44,10,3.3,0.9
2025-12-25T1200,1589A,109.8642,40.6288,包头市,惠龙物流,,50,50,32,34,20,37,37,31,17,39,22,21,9,1.6,0.9
2025-12-25T1200,1590A,110.0377,40.5546,包头市,东河鸿龙湾,,42,42,18,18,5,42,42,25,18,24,18,8,6,0.5,0.6
2025-12-25T1200,3283A,109.9154,40.5685,包头市,滨河大厦,,40,40,23,24,13,36,36,15,9,23,17,8,5,0.9,0.7
2025-12-25T1200,3419A,109.9447,40.6261,包头市,包头市委党校,,31,31,27,10,10,42,42,31,18,27,20,19,7,1.1,0.5
2025-12-25T1200,3683A,109.8331,40.6576,包头市,昆区政府,细颗粒物(PM2.5),69,59,32,50,20,33,33,41,30,48,20,46,10,2.5,0.8
2025-12-25T1200,1930A,107.185,34.3063,宝鸡市,庙沟村,,,,,,,,,,,,,,,,
2025-12-25T1200,1931A,107.0708,34.3017,宝鸡市,竹园沟,,,,41,17,20,48,48,40,31,,12,6,6,,0.3
2025-12-25T1200,1932A,107.1906,34.3672,宝鸡市,三陆医院,,45,45,72,20,31,38,38,22,21,27,37,6,5,0.4,0.4
2025-12-25T1200,1933A,107.1431,34.3547,宝鸡市,监测站,颗粒物(PM10),55,59,59,23,29,44,44,24,24,20,27,6,4,0.5,0.5
2025-12-25T1200,1934A,107.1186,34.3739,宝鸡市,技工学校,颗粒物(PM10),77,103,61,22,25,39,39,34,29,22,20,7,6,0.5,0.5
2025-12-25T1200,1936A,107.2058,34.3497,宝鸡市,文理学院,,48,48,59,21,26,46,46,29,28,21,30,6,5,0.4,0.4
2025-12-25T1200,1937A,107.2386,34.3622,宝鸡市,三迪小学,,49,49,67,24,34,40,40,22,22,25,36,5,4,0.6,0.6
2025-12-25T1200,4308A,107.3898,34.3601,宝鸡市,陈仓区北开路21号,,,27,71,27,36,40,40,52,43,,29,7,45,1.2,0.8
2025-12-25T1200,1051A,115.493,38.8632,保定市,游泳馆,,27,27,42,3,17,50,50,56,46,7,13,2,3,0.2,0.3
2025-12-25T1200,1052A,115.5213,38.8959,保定市,华电二区,,,27,37,6,30,,,53,42,10,14,2,3,0.4,0.4
2025-12-25T1200,1053A,115.4713,38.9108,保定市,接待中心,,32,32,44,10,19,45,45,54,46,15,17,1,3,0.1,0.2
2025-12-25T1200,1054A,115.4612,38.8416,保定市,地表水厂,,24,24,49,6,20,47,47,47,38,15,24,2,3,0.3,0.4
2025-12-25T1200,3581A,115.31981,38.95208,保定市,满城区生态环境分局,,,,31,,12,,,46,,,19,,3,,0.1
2025-12-25T1200,3582A,115.47694,38.76408,保定市,清苑区第二中学,,28,28,61,3,24,49,49,45,35,9,19,1,3,0.2,0.4
2025-12-25T1200,3583A,115.62909,39.02311,保定市,徐水物探局,,,31,44,13,21,47,47,34,30,17,30,2,4,,0.4
2025-12-25T1200,4004A,115.4202,38.8656,保定市,双鹰农机,,30,30,40,9,21,52,52,53,48,15,14,5,5,0.2,0.3
2025-12-25T1200,4034A,115.5150,38.8590,保定市,植保所站,,29,29,45,11,27,48,48,52,41,13,21,2,3,0.4,0.4
2025-12-25T1200,2594A,99.1678,25.1081,保山市,市环境监测站,,,,20,,16,34,34,34,27,,8,,4,1.0,0.4
2025-12-25T1200,2595A,99.1711,25.1328,保山市,市环保局,颗粒物(PM10),51,51,26,31,16,33,33,44,35,28,5,5,4,0.6,0.3
2025-12-25T1200,1866A,109.2262,21.588,北海市,牛尾岭水库,,36,36,22,15,11,41,41,33,33,10,10,4,4,0.5,0.6
2025-12-25T1200,1867A,109.1436,21.4086,北海市,海滩公园,,27,27,26,17,12,43,43,33,33,10,12,6,7,0.5,0.8
2025-12-25T1200,1868A,109.0981,21.4661,北海市,新市环保局,,35,,20,24,15,44,44,34,34,8,12,4,5,0.6,0.6
2025-12-25T1200,1869A,109.1778,21.5233,北海市,北海工业园,,28,28,26,17,15,42,42,32,32,9,11,5,6,0.6,0.8
2025-12-25T1200,3400A,109.1911,21.4415,北海市,龙潭自来水厂,,23,22,23,16,14,43,43,33,33,8,10,5,6,0.9,0.8
2025-12-25T1200,1001A,116.3621,39.8784,北京市,万寿西宫,,20,20,17,3,5,48,48,49,47,9,10,3,2,0.4,0.3
2025-12-25T1200,1002A,116.2202,40.2915,北京市,定陵,,,,,,,,,,,,,,,,
2025-12-25T1200,1003A,116.4174,39.9289,北京市,东四,,21,21,15,8,6,43,43,43,40,10,9,3,2,0.4,0.3
2025-12-25T1200,1004A,116.4072,39.8863,北京市,天坛,,16,15,16,6,6,49,49,49,46,8,9,4,3,0.3,0.3
2025-12-25T1200,1005A,116.462,39.9365,北京市,农展馆,,21,21,14,10,4,38,38,51,47,13,9,5,4,0.5,0.4
2025-12-25T1200,1006A,116.3392,39.9295,北京市,官园,,19,19,17,3,6,45,45,43,42,10,11,4,3,0.4,0.4
2025-12-25T1200,1007A,116.2878,39.9611,北京市,海淀万柳,,16,16,15,7,6,45,45,40,38,14,16,3,2,0.3,0.2
2025-12-25T1200,1008A,116.6636,40.135,北京市,顺义新城,,17,12,14,3,5,54,54,52,52,1,4,4,4,0.2,0.2
2025-12-25T1200,1009A,116.6275,40.3275,北京市,怀柔镇,,18,9,9,3,4,55,55,52,48,2,6,7,6,0.3,0.3
2025-12-25T1200,1010A,116.2296,40.217,北京市,昌平镇,,14,12,14,7,6,43,43,49,47,7,9,5,4,0.3,0.3
2025-12-25T1200,1011A,116.3966,39.9821,北京市,奥体中心,,16,16,14,7,6,47,47,48,46,11,12,5,4,0.4,0.3
2025-12-25T1200,3281A,115.9718,40.4529,北京市,延庆夏都,,17,11,10,3,5,53,53,47,46,4,6,3,2,0.3,0.3
2025-12-25T1200,3418A,116.8336,40.4095,北京市,密云新城,,19,8,12,3,6,58,58,60,56,7,11,3,3,0.4,0.4
2025-12-25T1200,3671A,116.088,39.9726,北京市,门头沟三家店,,18,16,16,3,5,56,56,54,52,2,2,5,5,0.3,0.3
2025-12-25T1200,3672A,116.1541,39.8204,北京市,丰台云岗,,17,17,15,3,4,49,49,52,45,8,6,2,2,0.3,0.3
2025-12-25T1200,3673A,116.6804,39.9081,北京市,通州东关,,22,22,22,9,6,52,52,50,48,2,6,3,3,0.3,0.3
2025-12-25T1200,3674A,115.9577,39.7603,北京市,房山燕山,,,,19,,6,,,48,,,11,,3,,0.3
2025-12-25T1200,3675A,116.4672,39.7733,北京市,大兴旧宫,,21,21,17,3,5,46,46,44,43,12,12,2,2,0.4,0.4
2025-12-25T1200,3694A,115.986,40.4563,北京市,延庆石河营,,15,13,11,7,6,47,47,41,41,9,9,1,3,0.4,0.3
2025-12-25T1200,3695A,116.6151,40.3053,北京市,怀柔新城,,17,10,10,6,5,53,53,53,48,6,7,4,4,0.4,0.3
2025-12-25T1200,3696A,116.2545,39.8768,北京市,丰台小屯,,15,15,17,6,6,45,45,43,39,8,12,4,3,0.3,0.3
2025-12-25T1200,3697A,116.84,40.3844,北京市,密云镇,,19,9,13,3,5,58,58,58,56,7,11,2,2,0.3,0.3
2025-12-25T1200,4182A,116.1942,39.9158,北京市,八角北路9号,,18,18,18,6,5,36,36,44,36,5,8,3,2,0.1,0.1
2025-12-25T1200,4194A,117.0790,40.1518,北京市,洳河巡河路,,17,9,13,6,6,53,53,56,52,3,6,2,2,0.2,0.3
2025-12-25T1200,1761A,123.8275,41.3064,本溪市,大峪,,17,12,48,6,30,52,52,44,44,6,25,11,9,0.4,0.8
2025-12-25T1200,1762A,123.7567,41.3325,本溪市,溪湖,,30,30,58,9,34,54,54,44,44,7,31,10,9,0.3,0.8
2025-12-25T1200,1763A,123.7169,41.3094,本溪市,彩屯,,24,24,53,8,37,52,52,38,38,11,32,10,8,0.5,1
2025-12-25T1200,1764A,123.7669,41.2864,本溪市,东明,,15,13,41,7,31,45,45,41,41,11,29,10,8,0.7,1
2025-12-25T1200,1765A,123.7992,41.2664,本溪市,新立屯,,24,24,37,9,25,41,41,38,38,7,26,9,8,0.6,0.9
2025-12-25T1200,1766A,123.8142,41.3472,本溪市,威宁,,16,14,67,7,47,50,50,23,23,2,35,5,6,0.4,1.1
2025-12-25T1200,2587A,105.2864,27.3125,毕节市,八中,"颗粒物(PM10),细颗粒物(PM2.5)",53,56,46,37,29,48,48,56,54,10,7,9,8,0.7,0.6
2025-12-25T1200,2588A,105.31,27.2944,毕节市,师专,颗粒物(PM10),52,53,47,32,26,48,48,57,54,14,10,9,8,0.6,0.6
2025-12-25T1200,4263A,105.3688,27.3598,毕节市,工业大道,颗粒物(PM10),56,62,56,35,32,39,39,55,50,20,7,10,9,0.6,0.5
2025-12-25T1200,1629A,118.0018,37.3617,滨州市,第二水厂,,19,9,42,3,19,58,58,46,46,8,28,7,11,0.3,0.6
2025-12-25T1200,1630A,117.9776,37.393,滨州市,北中新校,,19,12,38,3,18,59,59,45,45,12,30,3,6,0.1,0.4
2025-12-25T1200,3514A,117.9378,37.3956,滨州市,中海酒店,,22,7,38,7,24,68,68,52,52,9,30,4,9,0.4,0.6
2025-12-25T1200,3515A,117.9378,37.3553,滨州市,开发区一中,,20,19,46,9,21,64,64,51,51,5,27,8,11,0.3,0.6
2025-12-25T1200,3516A,118.0917,37.694,滨州市,金海六路,,23,6,36,3,13,72,72,62,62,2,24,6,7,0.2,0.4
2025-12-25T1200,4028A,117.9956,37.3753,滨州市,滨州市西街道办事处,,20,,36,7,23,64,64,50,50,10,28,6,9,0,0.3
2025-12-25T1200,2311A,115.8072,33.8399,亳州市,污水处理厂,细颗粒物(PM2.5),117,109,90,88,72,51,51,25,25,27,40,10,7,0.8,0.7
2025-12-25T1200,2312A,115.7789,33.8518,亳州市,三国揽胜宫,细颗粒物(PM2.5),103,141,105,77,70,50,50,24,24,34,45,7,6,0.7,0.6
2025-12-25T1200,3332A,115.7633,33.8034,亳州市,亳州学院,细颗粒物(PM2.5),113,107,91,85,71,46,46,31,31,,41,6,4,0.8,0.6
2025-12-25T1200,2693A,82.0485,44.8556,博尔塔拉蒙古自治州,市党校,颗粒物(PM10),58,65,63,38,32,30,30,39,32,21,19,3,3,0.8,0.8
2025-12-25T1200,2694A,82.0806,44.8969,博尔塔拉蒙古自治州,市环保局,颗粒物(PM10),57,64,60,29,28,30,30,38,32,22,21,7,7,0.7,0.6
2025-12-25T1200,1071A,116.8842,38.2991,沧州市,沧县城建局,,20,20,40,7,23,52,52,44,44,14,24,3,3,0.1,0.3
2025-12-25T1200,1072A,116.8584,38.3254,沧州市,电视转播站,,29,29,44,9,17,50,50,40,40,17,26,2,3,0.4,0.5
2025-12-25T1200,1073A,116.8709,38.3228,沧州市,市环保局,,33,33,46,17,28,41,41,35,35,11,20,2,3,0.2,0.2
2025-12-25T1200,3324A,116.8136,38.3004,沧州市,河北水利电力学院,,22,22,36,7,16,46,46,44,44,15,24,6,7,0.2,0.3
2025-12-25T1200,2622A,97.1806,31.1273,昌都市,昌都监测站,,46,42,49,32,18,52,52,45,42,17,21,4,4,0.8,0.8
2025-12-25T1200,3719A,97.1714,31.1406,昌都市,昌都会议中心,,24,24,17,14,10,47,47,44,38,11,4,1,1,0.6,0.4
2025-12-25T1200,2690A,88.1236,43.8886,昌吉回族自治州,天山天池,,,,,,,,,,,,,,,,
2025-12-25T1200,2692A,87.2717,44.0297,昌吉回族自治州,新区政务中心,颗粒物(PM10),51,52,64,26,41,13,13,5,5,49,42,7,6,1.2,1
2025-12-25T1200,3613A,87.3095,44.0142,昌吉回族自治州,亚心广场,细颗粒物(PM2.5),55,53,54,39,37,19,19,8,8,44,36,9,7,1.2,0.9
2025-12-25T1200,1120A,125.2863,43.9027,长春市,客车厂,,28,23,40,19,42,44,44,38,35,9,31,8,10,0.3,0.5
2025-12-25T1200,1121A,125.2841,43.8463,长春市,邮电学院,,20,15,43,14,36,43,43,38,37,7,22,10,12,0.4,0.5
2025-12-25T1200,1122A,125.3716,43.8772,长春市,劳动公园,,25,25,41,15,29,42,42,36,34,10,30,10,11,0.3,0.4
2025-12-25T1200,1123A,125.3297,43.8805,长春市,园林处,,29,,38,20,35,41,41,35,34,7,26,12,9,0.3,0.5
2025-12-25T1200,1124A,125.4605,43.79,长春市,净月潭,,25,25,46,17,36,40,40,35,35,9,29,10,8,0.3,0.5
2025-12-25T1200,1125A,125.7194,43.515,长春市,甩湾子,,33,33,56,19,52,42,42,44,43,12,16,7,5,0.6,1.1
2025-12-25T1200,1126A,125.3863,43.8447,长春市,经开区环卫处,,27,27,48,13,33,42,42,37,34,12,37,15,11,0.3,0.5
2025-12-25T1200,1127A,125.245,43.7783,长春市,高新区管委会,,25,25,43,16,36,43,43,40,36,10,32,6,7,0.2,0.4
2025-12-25T1200,1128A,125.1761,43.8325,长春市,岱山公园,,28,28,52,17,47,43,43,35,35,7,29,8,8,0.2,0.5
2025-12-25T1200,4281A,125.3346,43.9164,长春市,北亚泰大街1068号,,32,26,38,22,37,43,43,34,34,9,33,8,16,0.5,0.6
2025-12-25T1200,1335A,113.0833,28.2325,长沙市,经开区环保局,颗粒物(PM10),63,76,73,30,63,71,71,34,34,14,25,5,4,0.5,0.7
2025-12-25T1200,1336A,112.8872,28.2189,长沙市,高开区环保局,颗粒物(PM10),59,68,79,37,66,50,50,31,31,7,12,6,4,0.5,0.6
2025-12-25T1200,1337A,113.0792,28.2053,长沙市,马坡岭,颗粒物(PM10),63,76,77,31,56,74,74,35,35,17,23,6,5,0.3,0.6
2025-12-25T1200,1338A,112.9394,28.19,长沙市,湖南师范大学,颗粒物(PM10),65,79,81,40,57,56,56,37,37,14,18,5,3,0.5,0.6
2025-12-25T1200,1339A,113.0178,28.1322,长沙市,雨花区环保局,颗粒物(PM10),63,76,70,31,60,54,54,30,30,15,21,8,7,0.5,0.6
2025-12-25T1200,1340A,112.9792,28.2597,长沙市,伍家岭,细颗粒物(PM2.5),63,74,81,45,58,48,48,28,28,19,22,7,5,0.7,0.8
2025-12-25T1200,1341A,113.0014,28.1944,长沙市,火车新站,细颗粒物(PM2.5),67,82,81,48,63,50,50,30,30,22,26,9,8,0.6,0.7
2025-12-25T1200,1342A,112.9844,28.1178,长沙市,天心区环保局,颗粒物(PM10),65,80,77,41,63,65,65,38,38,20,24,8,7,0.4,0.5
2025-12-25T1200,1343A,112.8908,28.1308,长沙市,湖南中医药大学,颗粒物(PM10),63,75,81,43,63,58,58,38,38,14,17,6,5,0.6,0.7
2025-12-25T1200,1344A,112.9581,28.3611,长沙市,沙坪,,,,,,,,,,,,,,,,
2025-12-25T1200,1727A,113.1147,36.1547,长治市,清华站,颗粒物(PM10),52,54,60,17,22,49,49,22,17,19,25,17,16,0.6,0.7
2025-12-25T1200,1730A,113.0886,36.2125,长治市,审计局,颗粒物(PM10),51,52,54,17,20,45,45,29,27,23,28,20,18,0.5,0.5
2025-12-25T1200,1731A,113.0844,36.1856,长治市,长治八中,颗粒物(PM10),51,52,63,33,31,44,44,24,19,19,20,16,16,0.5,0.6
2025-12-25T1200,2845A,113.1569,36.1911,长治市,德盛苑,,49,49,54,22,24,44,44,34,32,22,19,17,18,0.5,0.7
2025-12-25T1200,3568A,113.06,36.0464,长治市,向阳小学,,,,82,11,25,51,51,28,28,23,29,15,16,,0.7
2025-12-25T1200,3569A,112.8792,36.3144,长治市,屯留一中,,29,29,54,3,18,52,52,25,25,18,26,12,15,0.5,0.5
2025-12-25T1200,4189A,113.1131,36.19948,长治市,英华南巷50号,颗粒物(PM10),52,54,64,22,26,47,47,25,21,18,23,18,15,0.8,0.9
2025-12-25T1200,4190A,113.2367,36.3344,长治市,学府街1号,颗粒物(PM10),51,51,55,26,21,49,49,30,27,22,25,24,17,1.1,0.7
2025-12-25T1200,1854A,111.6975,28.9703,常德市,市二中,颗粒物(PM10),75,99,79,42,47,71,71,46,46,11,18,9,7,0.4,0.5
2025-12-25T1200,1857A,111.7158,29.1456,常德市,白鹤山,,,,,,,,,,,,,,,,
2025-12-25T1200,3138A,111.7153,29.0289,常德市,武陵区永安,颗粒物(PM10),75,99,84,41,44,67,67,43,43,12,19,8,5,0.6,0.7
2025-12-25T1200,3139A,111.6892,28.9881,常德市,鼎城区玉霞,,,98,79,41,46,69,69,32,32,8,22,12,8,,0.7
2025-12-25T1200,3140A,111.6625,29.0531,常德市,武陵区长庚,颗粒物(PM10),74,97,86,41,47,68,68,37,37,11,17,8,6,0.5,0.6
2025-12-25T1200,1196A,119.9633,31.762,常州市,市监测站,细颗粒物(PM2.5),65,64,79,47,61,69,69,43,43,26,37,10,7,0.6,0.6
2025-12-25T1200,1200A,119.9468,31.7069,常州市,武进监测站,细颗粒物(PM2.5),73,63,81,53,60,67,67,40,40,20,35,12,10,0.7,0.7
2025-12-25T1200,1201A,119.9255,31.9087,常州市,安家,细颗粒物(PM2.5),69,65,83,50,59,53,53,25,25,26,43,15,11,0.9,0.9
2025-12-25T1200,3002A,119.9805,31.8174,常州市,行政中心,颗粒物(PM10),64,78,88,44,58,67,67,39,39,23,37,9,6,0.6,0.6
2025-12-25T1200,3003A,120.0522,31.7748,常州市,经开区,,,,83,,55,65,65,39,39,,34,,4,1.1,1
2025-12-25T1200,3010A,119.9025,31.7964,常州市,钟楼,细颗粒物(PM2.5),68,71,80,49,62,62,62,33,33,24,36,11,7,0.5,0.5
2025-12-25T1200,3429A,119.8598,31.7066,常州市,武进经发区,细颗粒物(PM2.5),70,86,85,51,63,69,69,39,39,20,36,13,8,0.6,0.8
2025-12-25T1200,3430A,119.5826,31.7245,常州市,金坛城区,细颗粒物(PM2.5),87,92,95,64,73,70,70,35,35,18,30,10,7,0.7,0.8
2025-12-25T1200,2220A,120.4318,41.5881,朝阳市,西梁,,25,25,39,3,15,52,52,48,46,4,14,5,10,0.3,0.5
2025-12-25T1200,2221A,120.4521,41.5646,朝阳市,河畔小区,,27,27,32,6,11,52,52,48,46,7,13,7,10,0.3,0.4
2025-12-25T1200,2222A,120.4176,41.5648,朝阳市,八里堡,,41,41,37,11,14,51,51,50,48,7,14,7,10,0.3,0.4
2025-12-25T1200,2223A,120.3806,41.5969,朝阳市,农业园区,,36,36,25,13,14,54,54,52,50,2,10,7,9,0.3,0.4
2025-12-25T1200,1705A,116.6367,23.6719,潮州市,西园路,,,,,,,,,,,,,,,,
2025-12-25T1200,3026A,116.6183,23.6608,潮州市,市政府,,18,18,33,3,22,33,33,45,28,4,10,5,7,0.6,0.6
2025-12-25T1200,4036A,116.6461,23.6761,潮州市,金山,,21,21,34,3,24,30,30,41,27,8,12,2,4,0.6,0.5
2025-12-25T1200,2472A,113.0073,25.9061,郴州市,马头岭,,,,,,,,,,,,,,,,
2025-12-25T1200,2473A,113.0116,25.8226,郴州市,市职中,细颗粒物(PM2.5),75,62,34,55,29,12,12,28,20,18,16,2,2,0.7,0.7
2025-12-25T1200,2475A,113.0383,25.8071,郴州市,市审计局,细颗粒物(PM2.5),70,64,38,51,29,15,15,34,26,18,12,2,2,0.9,0.9
2025-12-25T1200,2476A,113.0348,25.7759,郴州市,市环保局,细颗粒物(PM2.5),72,60,39,52,30,11,11,25,19,22,17,2,2,0.5,0.5
2025-12-25T1200,4252A,113.0138,25.8011,郴州市,好美居路49号,细颗粒物(PM2.5),83,61,37,61,37,18,18,36,27,19,15,3,2,0.3,0.3
2025-12-25T1200,1431A,103.9728,30.7236,成都市,金泉两河,颗粒物(PM10),108,166,116,77,62,20,20,5,5,72,55,8,4,0.8,0.9
2025-12-25T1200,1432A,104.176,30.6872,成都市,十里店,颗粒物(PM10),76,101,92,55,43,22,22,8,8,64,57,5,4,0.6,0.6
2025-12-25T1200,1433A,104.079,30.5706,成都市,三瓦窑,细颗粒物(PM2.5),82,94,97,60,52,27,27,7,7,47,58,5,5,0.8,0.9
2025-12-25T1200,1434A,104.1114,30.63,成都市,沙河铺,细颗粒物(PM2.5),93,110,85,69,46,18,18,4,4,68,63,4,4,0.6,0.7
2025-12-25T1200,1437A,104.0786,30.6531,成都市,君平街,细颗粒物(PM2.5),87,114,111,64,61,23,23,7,7,66,65,6,5,0.9,0.9
2025-12-25T1200,1438A,103.613,31.0283,成都市,灵岩寺,,,,,,,,,,,,,,,,
2025-12-25T1200,2880A,104.0239,30.65639,成都市,大石西路,,,,103,,57,10,10,3,3,,61,,4,1.0,0.8
2025-12-25T1200,3136A,104.2725,30.5589,成都市,龙泉驿区区政府,颗粒物(PM10),53,56,68,27,32,51,51,27,27,14,32,7,6,0.4,0.4
2025-12-25T1200,3357A,104.0106,30.6931,成都市,金博路,颗粒物(PM10),89,128,98,62,48,14,14,4,4,76,64,6,5,0.8,0.7
2025-12-25T1200,3359A,104.0578,30.5225,成都市,华阳,细颗粒物(PM2.5),77,102,93,56,49,22,22,6,6,55,61,5,4,0.7,0.8
2025-12-25T1200,3488A,104.3880,30.7467,成都市,青石路225号,颗粒物(PM10),69,87,98,41,51,33,33,9,9,46,50,6,6,0.5,0.5
2025-12-25T1200,3489A,104.0789,30.4072,成都市,科学城,细颗粒物(PM2.5),72,84,81,52,39,38,38,10,10,29,44,9,6,0.7,0.6
2025-12-25T1200,4011A,103.8506,30.6947,成都市,光华大道三段,细颗粒物(PM2.5),112,129,115,84,73,23,23,7,7,65,51,6,4,1.0,1
2025-12-25T1200,4224A,104.2433,30.5353,成都市,鲸龙路1057号,颗粒物(PM10),56,62,92,35,49,50,50,16,16,30,51,7,6,0.6,0.7
2025-12-25T1200,1062A,117.9531,40.9081,承德市,铁路,,18,6,25,3,8,55,55,50,47,3,8,4,5,0.2,0.3
2025-12-25T1200,1063A,117.9392,40.9763,承德市,中国银行,,17,16,25,3,8,54,54,39,35,1,6,3,3,0.2,0.3
2025-12-25T1200,1064A,117.9503,40.928,承德市,开发区,,26,26,36,10,17,56,56,56,54,6,10,4,6,0.2,0.2
2025-12-25T1200,1066A,117.9268,41.0026,承德市,离宫,,,,,,,,,,,,,,,,
2025-12-25T1200,4274A,117.7994,40.9605,承德市,滨河大街98号,,18,18,30,3,15,53,53,48,48,4,9,5,11,0.2,0.4
2025-12-25T1200,2314A,117.47,30.6618,池州市,池州学院,细颗粒物(PM2.5),115,106,82,87,71,72,72,35,35,16,28,6,4,0.5,0.6
2025-12-25T1200,3237A,117.4918,30.6617,池州市,展览馆,细颗粒物(PM2.5),103,110,91,77,74,79,79,39,39,17,31,5,2,0.7,0.7
2025-12-25T1200,3333A,117.5627,30.695,池州市,第八中学,细颗粒物(PM2.5),113,116,88,85,67,70,70,40,40,24,33,6,4,1.0,1.1
2025-12-25T1200,3334A,117.5038,30.6243,池州市,第十二中学,细颗粒物(PM2.5),108,118,76,81,64,76,76,38,38,24,31,6,3,0.9,1
2025-12-25T1200,1744A,118.9233,42.2816,赤峰市,松山一中,,27,27,24,8,8,52,52,45,42,5,13,4,5,0.5,0.5
2025-12-25T1200,1745A,118.9576,42.2728,赤峰市,哈达街,,23,23,12,11,8,51,51,47,44,11,14,6,8,0.3,0.3
2025-12-25T1200,1746A,118.8788,42.2554,赤峰市,天义路,,22,22,19,8,12,55,55,47,45,6,10,5,7,0.6,0.6
2025-12-25T1200,3058A,119.2658,42.0353,赤峰市,银河街,颗粒物(PM10),59,67,39,17,15,56,56,52,52,4,7,13,13,0.5,0.5
2025-12-25T1200,3286A,118.9359,42.3147,赤峰市,桥北物流园区,,18,,19,9,10,56,56,48,43,3,10,5,5,0.4,0.5
2025-12-25T1200,2521A,107.3476,22.4136,崇左市,市环保局江州分局,,,22,10,9,5,,,35,35,8,8,8,6,0.4,0.6
2025-12-25T1200,4256A,107.3750,22.3736,崇左市,石景林东路7号,,21,21,10,7,6,46,46,35,35,9,11,7,7,0.4,0.6
2025-12-25T1200,2298A,118.3093,32.3153,滁州市,老年大学,细颗粒物(PM2.5),92,98,101,68,78,52,52,31,31,23,27,19,19,0.7,0.7
2025-12-25T1200,2299A,118.3244,32.2786,滁州市,人大宾馆,细颗粒物(PM2.5),109,97,102,82,86,50,50,36,36,23,24,9,6,0.8,0.8
2025-12-25T1200,3207A,118.3118,32.3038,滁州市,市政府原办公楼,细颗粒物(PM2.5),93,93,101,69,77,54,54,36,36,25,29,7,4,0.6,0.6
2025-12-25T1200,3331A,118.3267,32.2634,滁州市,图书馆,细颗粒物(PM2.5),92,104,99,68,77,52,52,40,40,24,24,12,8,0.7,0.7
2025-12-25T1200,2605A,101.5482,25.0441,楚雄彝族自治州,州环境监测站,,49,40,28,34,22,20,20,8,8,12,17,10,7,0.8,0.6
2025-12-25T1200,2606A,101.538,25.0492,楚雄彝族自治州,市经济开发区,细颗粒物(PM2.5),65,60,31,47,24,20,20,5,5,16,19,10,7,0.8,0.6
2025-12-25T1200,2548A,107.5277,31.2827,达州市,达州职业技术学院,,,,,,,,,,,,,,,,
2025-12-25T1200,2549A,107.5086,31.2186,达州市,市环境监测站,,42,42,46,24,29,16,16,5,5,19,27,8,11,0.3,0.4
2025-12-25T1200,2550A,107.4988,31.2132,达州市,凤凰小区,,41,41,47,24,30,23,23,8,8,12,22,6,11,0.3,0.4
2025-12-25T1200,2551A,107.5082,31.1986,达州市,达县机关宾馆,,34,34,47,21,34,20,20,6,6,15,25,5,8,0.5,0.6
2025-12-25T1200,2552A,107.4644,31.2124,达州市,市政中心,颗粒物(PM10),52,53,61,29,31,20,20,7,7,14,23,7,10,0.5,0.6
2025-12-25T1200,2614A,100.1542,25.7054,大理白族自治州,大理市环境监测站,,33,25,21,23,21,43,43,47,38,14,10,6,6,0.7,0.6
2025-12-25T1200,2615A,100.2171,25.5811,大理白族自治州,大理古城,,30,30,22,11,17,54,54,61,55,8,14,8,8,0.8,0.8
2025-12-25T1200,1109A,121.612,38.9741,大连市,甘井子,,27,27,30,6,14,57,57,52,52,7,26,7,10,0.3,0.4
2025-12-25T1200,1110A,121.565,38.9511,大连市,周水子,,28,28,34,7,14,55,55,52,52,8,26,2,4,0.3,0.4
2025-12-25T1200,1111A,121.5637,38.8845,大连市,星海三站,,27,27,32,7,14,52,52,49,49,10,18,8,8,0.4,0.5
2025-12-25T1200,1112A,121.6302,38.9117,大连市,青泥洼桥,,17,17,30,6,13,51,51,48,48,7,21,8,9,0.4,0.6
2025-12-25T1200,1113A,121.6251,38.8638,大连市,傅家庄,,26,26,31,6,12,47,47,44,44,7,17,9,10,0.3,0.4
2025-12-25T1200,1114A,121.5213,38.8661,大连市,七贤岭,,26,26,29,6,11,52,52,49,49,7,16,6,8,0.3,0.5
2025-12-25T1200,1115A,121.2529,38.8061,大连市,旅顺,,18,15,21,6,11,55,55,51,51,4,10,8,8,0.2,0.3
2025-12-25T1200,1116A,121.7485,39.1311,大连市,金州,,17,17,30,6,16,54,54,50,50,3,17,8,10,0.2,0.4
2025-12-25T1200,1117A,121.7811,39.0496,大连市,开发区,,22,22,31,7,16,50,50,46,46,5,18,8,9,0.3,0.5
2025-12-25T1200,1118A,121.9762,39.0631,大连市,双D港,,,19,30,6,13,,,50,50,,14,10,12,0.2,0.4
2025-12-25T1200,1789A,124.81117,46.03138,大庆市,大同区,,22,22,47,13,21,44,44,41,41,3,22,6,6,0.2,0.6
2025-12-25T1200,1790A,125.129,46.533,大庆市,龙凤区,,41,41,32,15,23,40,40,35,32,8,19,6,7,0.4,0.5
2025-12-25T1200,1791A,124.902,46.408,大庆市,红岗区,,25,20,33,17,20,37,37,32,31,8,30,8,12,0.5,0.7
2025-12-25T1200,1792A,125.153,46.586,大庆市,萨尔图区,,23,23,27,10,16,41,41,40,36,14,30,13,10,0.7,0.7
2025-12-25T1200,1793A,124.9042,46.6215,大庆市,让胡路区,,21,21,28,14,26,41,41,42,38,4,19,8,9,0.3,0.4
2025-12-25T1200,3481A,125.141,46.634,大庆市,萨区政府监测点,,,16,24,12,11,43,43,34,32,,24,10,11,0.4,0.6
2025-12-25T1200,1721A,113.3819,40.1097,大同市,果树场,,31,31,27,17,15,47,47,40,28,21,19,16,11,0.7,0.5
2025-12-25T1200,1723A,113.2994,40.0758,大同市,云冈宾馆,,34,34,22,12,9,45,45,38,27,16,16,8,7,0.5,0.6
2025-12-25T1200,1724A,113.3444,40.0917,大同市,大同大学,,43,43,25,18,12,44,44,32,22,19,21,6,7,0.7,0.8
2025-12-25T1200,1725A,113.2661,40.1269,大同市,安家小村,颗粒物(PM10),63,76,34,15,14,43,43,35,22,18,18,12,10,1.4,1.2
2025-12-25T1200,1726A,113.2711,40.0844,大同市,教育学院,,30,30,26,8,11,44,44,32,25,15,20,6,6,0.3,0.5
2025-12-25T1200,3282A,113.3397,40.0597,大同市,大同市卫生学校,,48,48,25,16,9,36,36,38,26,30,21,8,6,0.6,0.7
2025-12-25T1200,3565A,113.1367,40.1122,大同市,云冈站,,28,28,28,12,11,49,49,19,19,4,21,6,10,0.3,0.5
2025-12-25T1200,3566A,113.1186,40.2556,大同市,图书馆,,,60,34,25,20,,,22,21,6,13,5,5,0.4,0.6
2025-12-25T1200,3567A,113.5931,40.0461,大同市,区一中,,,,24,13,9,48,48,52,39,,15,,9,0.7,0.5
2025-12-25T1200,4199A,113.2798,40.0997,大同市,魏都大道141号,,48,48,34,3,14,52,52,37,26,12,20,5,6,0.5,0.6
2025-12-25T1200,2269A,124.1069,50.4097,大兴安岭地区,科技局,,,,18,,17,,,39,,,2,,5,,0.2
2025-12-25T1200,3663A,124.1164,50.4278,大兴安岭地区,红旗社区,,16,6,7,3,5,51,51,46,46,2,3,2,3,0.2,0.2
2025-12-25T1200,1600A,124.3303,40.0625,丹东市,江湾东路,,21,21,27,13,16,48,48,49,46,6,12,11,10,0.6,0.7
2025-12-25T1200,1601A,124.4256,40.1503,丹东市,临江后街,,20,20,26,7,13,50,50,49,48,4,15,5,8,0.6,0.8
2025-12-25T1200,1602A,124.3933,40.1461,丹东市,元宝山,,17,16,25,10,14,52,52,49,49,5,12,8,9,0.5,0.6
2025-12-25T1200,1603A,124.3633,40.1092,丹东市,民主桥,,27,27,30,7,13,50,50,48,47,7,15,8,8,0.5,0.6
2025-12-25T1200,3541A,109.5726,19.5167,儋州市,第一中学子站,,18,18,37,9,18,26,26,52,29,6,5,4,3,0.7,0.5
2025-12-25T1200,3542A,109.5567,19.5187,儋州市,东坡学校子站,,35,35,33,9,17,32,32,59,34,6,5,5,4,0.7,0.5
2025-12-25T1200,2616A,98.5842,24.428,德宏傣族景颇族自治州,德宏州监测站,细颗粒物(PM2.5),55,51,42,39,33,45,45,12,12,14,21,8,7,0.6,0.6
2025-12-25T1200,3677A,98.5881,24.4368,德宏傣族景颇族自治州,芒市人民政府综合楼,细颗粒物(PM2.5),68,59,46,49,27,37,37,17,14,19,14,8,8,0.7,0.6
2025-12-25T1200,1901A,104.4239,31.1208,德阳市,东山公园,颗粒物(PM10),66,82,74,39,37,38,38,12,9,23,31,4,3,0.6,0.6
2025-12-25T1200,1902A,104.3826,31.1317,德阳市,西小区,颗粒物(PM10),84,117,95,49,43,26,26,6,6,34,43,4,4,0.7,0.7
2025-12-25T1200,1904A,104.3553,31.1091,德阳市,耐火材料厂,颗粒物(PM10),68,86,100,46,54,31,31,9,9,33,45,4,4,0.7,0.8
2025-12-25T1200,3639A,104.4019,31.1244,德阳市,市教育局,,,95,68,40,38,,,2,2,33,47,,3,0.6,0.7
2025-12-25T1200,1622A,116.3032,37.4674,德州市,儿童乐园,,27,27,54,3,28,54,54,42,42,17,36,11,11,0.7,0.9
2025-12-25T1200,1624A,116.2991,37.4451,德州市,监理站,,21,9,45,3,23,65,65,54,54,12,32,11,12,0.4,0.6
2025-12-25T1200,3066A,116.2721,37.4379,德州市,九衢泉纯净水厂,,19,17,42,3,28,58,58,48,48,14,37,8,11,0.2,0.4
2025-12-25T1200,3371A,116.3728,37.4403,德州市,开发区人民医院,,19,14,48,3,24,59,59,46,46,17,40,10,11,0.5,0.7
2025-12-25T1200,3511A,116.5652,37.3319,德州市,陵城艺术中心,,17,12,66,3,30,52,52,36,36,15,43,11,10,0.5,0.8
2025-12-25T1200,4292A,116.3525,37.4209,德州市,新河东路,,,12,50,7,27,47,47,48,48,,46,10,11,0.5,0.9
2025-12-25T1200,2621A,99.7056,27.8317,迪庆藏族自治州,迪庆州站,,22,21,20,11,13,68,68,65,64,6,7,5,5,0.3,0.3
2025-12-25T1200,3180A,99.7136,27.8094,迪庆藏族自治州,质量技术监督局,,33,33,21,13,13,72,72,70,67,8,7,8,8,0.3,0.3
2025-12-25T1200,4257A,104.6092,35.5962,定西市,将台街,,42,41,52,29,34,56,56,24,24,20,25,14,11,0.5,0.5
2025-12-25T1200,4309A,104.6159,35.5701,定西市,正龙路62号,,40,37,54,28,31,65,65,39,38,10,10,9,7,0.5,0.5
2025-12-25T1200,1389A,113.7547,23.0494,东莞市,莞城梨川,,8,6,39,3,23,20,20,18,14,11,28,3,5,0.8,0.8
2025-12-25T1200,1390A,113.7944,23.0128,东莞市,东城石井,,9,6,34,3,22,22,22,21,14,13,29,7,9,0.9,0.9
2025-12-25T1200,1391A,113.7383,22.9658,东莞市,南城西平,,9,6,45,3,26,20,20,12,10,14,48,7,9,0.9,0.8
2025-12-25T1200,3319A,113.7338,23.0381,东莞市,万江金泰,,9,6,42,3,27,19,19,18,13,10,28,5,7,0.9,0.9
2025-12-25T1200,3626A,113.7533,23.0202,东莞市,南城元岭,,8,6,35,3,23,22,22,22,16,14,30,7,8,0.8,0.8
2025-12-25T1200,3627A,113.7875,23.0457,东莞市,东城主山,,7,6,46,3,28,22,22,19,15,14,40,4,6,0.7,0.7
2025-12-25T1200,1666A,118.6614,37.4309,东营市,市环保局,,21,7,40,3,14,66,66,55,55,11,28,6,10,0.4,0.6
2025-12-25T1200,3036A,118.6904,37.4338,东营市,开发区管委会,,23,16,39,3,14,71,71,61,61,7,20,8,11,0.5,0.6
2025-12-25T1200,3365A,118.5719,37.565,东营市,垦利区民丰路,,22,7,33,3,12,69,69,57,57,6,23,3,7,0.8,0.7
2025-12-25T1200,3498A,118.5055,37.8612,东营市,河口城区,,22,12,32,3,8,70,70,67,67,14,21,4,5,0.4,0.5
2025-12-25T1200,3646A,118.4978,37.4623,东营市,胜利站,,21,15,39,3,16,65,65,53,53,10,30,9,10,0.2,0.5
2025-12-25T1200,3734A,118.35,37.26,东营市,理想之城,,20,9,37,3,18,62,62,50,50,13,27,4,7,0.4,0.6
2025-12-25T1200,1591A,110.0023,39.8129,鄂尔多斯市,综合楼,,,19,20,9,8,47,47,38,34,17,20,,7,0.5,0.5
2025-12-25T1200,1592A,109.9486,39.8261,鄂尔多斯市,巴音孟克林场办事处,,22,22,27,7,10,49,49,35,35,15,23,10,7,0.4,0.4
2025-12-25T1200,1593A,109.7736,39.5986,鄂尔多斯市,康泽苑,,29,29,18,14,10,51,51,40,33,13,12,6,5,0.4,0.3
2025-12-25T1200,1594A,109.8119,39.5989,鄂尔多斯市,华泰汽车城,,24,24,23,7,10,48,48,35,24,13,14,4,3,0.3,0.3
2025-12-25T1200,1595A,109.9734,39.7884,鄂尔多斯市,奥林花园,,15,14,32,7,6,45,45,26,20,16,24,4,4,0.3,0.4
2025-12-25T1200,2436A,114.8938,30.3994,鄂州市,市政府,细颗粒物(PM2.5),75,63,73,55,72,57,57,26,26,19,23,7,4,0.6,0.7
2025-12-25T1200,2437A,114.8989,30.3714,鄂州市,赵家坝,细颗粒物(PM2.5),73,81,77,53,70,56,56,28,28,14,14,8,6,0.5,1
2025-12-25T1200,3654A,114.8094,30.4089,鄂州市,精准医疗中心,细颗粒物(PM2.5),93,76,81,69,76,60,60,28,28,13,15,4,5,0.7,1
2025-12-25T1200,2454A,109.4978,30.2981,恩施土家族苗族自治州,湖北民院,,42,42,32,28,29,54,54,27,27,6,13,5,5,0.6,0.7
2025-12-25T1200,2455A,109.4707,30.2798,恩施土家族苗族自治州,州电力总公司,颗粒物(PM10),51,52,38,30,30,38,38,12,12,14,21,6,6,0.7,0.9
2025-12-25T1200,3549A,109.5061,30.3772,恩施土家族苗族自治州,龙凤新区,,45,45,43,29,30,36,36,12,12,7,9,6,6,0.5,0.6
2025-12-25T1200,2499A,108.3411,21.6158,防城港市,沙万,,34,34,27,11,17,40,40,32,32,8,12,6,6,0.4,0.6
2025-12-25T1200,2500A,108.3514,21.7731,防城港市,防城档案局,,34,34,28,3,9,36,36,27,27,9,10,4,4,0.6,0.7
2025-12-25T1200,2501A,108.3506,21.6414,防城港市,大海花园,,,31,20,7,13,,,30,30,7,11,5,6,0.6,0.8
2025-12-25T1200,1371A,113.1294,23.0067,佛山市,湾梁,,,19,51,,21,17,17,18,14,19,30,7,7,0.7,0.7
2025-12-25T1200,1372A,113.1083,23.0478,佛山市,华材职中,,22,22,53,7,30,18,18,17,15,21,36,7,7,0.9,0.8
2025-12-25T1200,1373A,113.144,23.0453,佛山市,南海气象局,,16,16,46,9,30,16,16,17,13,19,32,8,8,0.8,0.8
2025-12-25T1200,1374A,113.2881,22.8094,佛山市,顺德苏岗,,9,8,41,3,21,13,13,15,10,18,34,5,6,0.9,0.8
2025-12-25T1200,1376A,112.8383,22.8678,佛山市,高明孔堂,,19,19,46,7,29,20,20,26,18,18,27,8,6,0.8,0.7
2025-12-25T1200,1377A,112.8836,23.1588,佛山市,三水监测站,,19,19,44,3,16,24,24,25,22,15,27,4,5,0.8,0.8
2025-12-25T1200,1378A,112.867,23.185,佛山市,三水云东海,,17,17,44,8,18,22,22,23,21,23,26,4,6,0.6,0.8
2025-12-25T1200,3625A,113.2544,22.7642,佛山市,容桂街道办,,13,12,43,9,24,14,14,17,11,18,35,5,6,0.9,0.8
2025-12-25T1200,1280A,119.3903,26.0543,福州市,鼓山,,,,14,,15,,,46,,,16,,1,,0.3
2025-12-25T1200,1282A,119.2681,26.0504,福州市,师大,,14,6,32,3,10,8,8,32,15,28,34,6,6,0.7,0.5
2025-12-25T1200,1283A,119.2984,26.1028,福州市,五四北路,,,,28,,26,10,10,33,19,,29,4,4,,0.7
2025-12-25T1200,1284A,119.2648,26.0768,福州市,杨桥西路,,10,6,28,3,26,10,10,34,18,19,26,4,4,0.7,0.6
2025-12-25T1200,1285A,119.317,26.0746,福州市,紫阳,,13,9,32,3,30,8,8,29,15,25,29,6,7,0.8,0.6
2025-12-25T1200,3048A,119.5799,26.0936,福州市,九龙,,14,9,25,3,22,15,15,28,16,28,25,6,4,0.6,0.6
2025-12-25T1200,3526A,119.5189,25.9664,福州市,吴航,,12,6,25,3,13,26,26,31,20,23,25,4,3,0.5,0.6
2025-12-25T1200,1755A,123.7977,41.8491,抚顺市,望花区,,,21,61,10,42,53,53,28,24,,32,7,5,,1
2025-12-25T1200,1756A,123.9161,41.8822,抚顺市,顺城区,,18,18,60,7,43,52,52,32,32,6,36,8,9,0.4,0.8
2025-12-25T1200,1757A,124.0436,41.8611,抚顺市,东洲区,,16,16,66,8,49,44,44,31,31,6,34,6,16,0.6,1
2025-12-25T1200,1758A,123.9247,41.8642,抚顺市,新抚区,,18,18,59,8,41,48,48,38,38,9,35,9,9,0.5,1
2025-12-25T1200,1759A,124.0972,41.8961,抚顺市,大伙房水库,,16,12,57,3,35,49,49,41,41,3,29,11,11,0.5,0.8
2025-12-25T1200,1760A,123.7086,41.8391,抚顺市,沈抚新城,,19,18,81,13,68,52,52,28,28,5,45,8,10,0.4,1.1
2025-12-25T1200,2376A,116.2127,28.0814,抚州市,桐源党溪,,,,,,,,,,,,,,,,
2025-12-25T1200,2377A,116.3544,27.9831,抚州市,市站,颗粒物(PM10),55,59,30,35,20,68,68,56,56,12,14,5,5,0.8,1
2025-12-25T1200,2378A,116.3565,27.963,抚州市,血防站,颗粒物(PM10),54,57,34,34,18,70,70,57,56,15,18,5,3,0.8,1
2025-12-25T1200,2379A,116.3564,28.0007,抚州市,采茶剧团,颗粒物(PM10),55,60,52,34,22,69,69,54,54,6,10,4,3,0.9,1
2025-12-25T1200,2380A,116.385,27.9647,抚州市,医学分院,颗粒物(PM10),53,56,34,33,17,69,69,56,56,8,13,4,4,0.8,0.9
2025-12-25T1200,2207A,121.6094,41.998,阜新市,工业园区,,33,33,30,6,12,51,51,50,46,3,11,9,10,0.2,0.3
2025-12-25T1200,2208A,121.6697,42.0279,阜新市,长青街,,25,25,14,3,9,53,53,54,51,3,9,7,8,0.3,0.4
2025-12-25T1200,2209A,121.6673,42.0705,阜新市,农业园区,,22,22,18,3,8,48,48,49,48,4,7,7,6,0.2,0.3
2025-12-25T1200,2210A,121.6717,42.0224,阜新市,东苑,,43,43,26,7,12,52,52,54,51,2,8,4,5,0.4,0.4
2025-12-25T1200,2211A,121.6506,42.0498,阜新市,玉龙新城,,48,48,30,3,10,48,48,50,46,4,14,7,8,0.3,0.4
2025-12-25T1200,2301A,115.8277,32.8929,阜阳市,市监测站,细颗粒物(PM2.5),97,89,104,72,78,54,54,32,32,26,40,8,5,0.6,0.6
2025-12-25T1200,2303A,115.8554,32.8605,阜阳市,开发区,细颗粒物(PM2.5),89,84,98,66,61,53,53,30,30,26,38,8,5,0.8,0.8
2025-12-25T1200,2875A,115.784,32.8892,阜阳市,阜阳职业技术学院,细颗粒物(PM2.5),73,68,96,53,73,59,59,32,32,20,35,9,7,0.6,0.6
2025-12-25T1200,3468A,115.7901,32.8613,阜阳市,市规划展馆,细颗粒物(PM2.5),83,97,99,61,75,62,62,34,34,22,38,10,7,0.2,0.3
2025-12-25T1200,3469A,115.836,32.9183,阜阳市,枣园社区,细颗粒物(PM2.5),92,109,105,68,78,55,55,29,29,26,40,10,7,0.6,0.6
2025-12-25T1200,2669A,102.9099,34.9841,甘南藏族自治州,州政府,细颗粒物(PM2.5),52,48,46,36,33,57,57,25,25,21,21,9,7,0.8,0.6
2025-12-25T1200,3380A,102.8914,34.9617,甘南藏族自治州,甘肃民族师范学院,颗粒物(PM10),51,52,54,22,21,38,38,19,18,21,23,19,6,1.0,0.6
2025-12-25T1200,2570A,101.9603,30.0475,甘孜藏族自治州,水桥子,,23,,15,8,8,71,71,74,70,11,7,8,7,0.3,0.3
2025-12-25T1200,3065A,101.9533,29.9972,甘孜藏族自治州,州环保局,,23,19,18,3,6,73,73,76,75,12,9,5,5,0.3,0.3
2025-12-25T1200,3414A,115.8347,28.932,赣江新区,桑海产业园,细颗粒物(PM2.5),84,95,49,62,36,73,73,44,44,12,12,10,7,0.8,0.8
2025-12-25T1200,2362A,114.9017,25.9149,赣州市,通天岩,,20,20,20,12,13,63,63,46,46,5,12,14,16,0.8,1.3
2025-12-25T1200,2363A,114.9367,25.8664,赣州市,地委,,46,46,31,13,12,56,56,37,37,10,16,6,6,0.6,0.9
2025-12-25T1200,2364A,114.9461,25.8481,赣州市,气象台,,39,39,36,11,10,64,64,42,42,12,19,3,3,0.6,0.8
2025-12-25T1200,2365A,114.9322,25.8333,赣州市,市图书馆,,21,21,15,14,10,52,52,35,35,15,20,4,4,0.6,0.8
2025-12-25T1200,2366A,114.8905,25.8471,赣州市,华坚鞋城,,22,22,20,8,10,48,48,31,31,12,19,4,4,0.3,0.5
2025-12-25T1200,3109A,115.0093,25.8613,赣州市,赣县区卫计委,,24,16,9,12,11,74,74,45,45,8,13,8,7,0.4,0.6
2025-12-25T1200,2683A,106.2319,36.1417,固原市,马园,,,,,,,,,,,,,,,,
2025-12-25T1200,2684A,106.2792,36.0022,固原市,监测站,,20,19,45,11,20,63,63,41,41,8,22,4,5,0.4,0.7
2025-12-25T1200,2685A,106.2375,36.0211,固原市,新区,,21,17,50,3,14,67,67,20,20,8,32,3,3,0.5,1
2025-12-25T1200,3522A,106.2177,35.9959,固原市,原州区十五小,,,23,40,9,16,64,64,55,54,12,16,,3,0.4,0.5
2025-12-25T1200,2543A,106.6308,30.5278,广安市,小平旧居,,,,,,,,,,,,,,,,
2025-12-25T1200,2544A,106.6303,30.4576,广安市,市委,,48,43,50,33,37,18,18,12,12,14,21,2,2,0.8,0.8
2025-12-25T1200,2545A,106.6271,30.4663,广安市,友谊中学,,,,46,,37,,,18,18,12,16,,3,0.8,0.8
2025-12-25T1200,2547A,106.6388,30.4551,广安市,广电花园,,48,40,41,33,38,13,13,10,10,15,20,3,3,0.6,0.6
2025-12-25T1200,2902A,106.6351,30.4865,广安市,北辰小学,,46,40,44,32,37,22,22,15,15,10,13,6,7,0.7,0.7
2025-12-25T1200,2523A,105.8945,32.4535,广元市,黑石坡,,,,,,,,,,,,,,,,
2025-12-25T1200,2524A,105.821,32.4444,广元市,老城,细颗粒物(PM2.5),68,53,52,49,25,34,34,11,11,47,42,14,4,2.7,1
2025-12-25T1200,2526A,105.8628,32.4287,广元市,监测站,颗粒物(PM10),53,55,65,35,28,29,29,9,9,40,33,8,7,1.1,1
2025-12-25T1200,3617A,105.8047,32.4166,广元市,经开区,颗粒物(PM10),66,82,69,42,29,24,24,5,5,39,40,25,6,0.9,0.7
2025-12-25T1200,1345A,113.2347,23.1423,广州市,广雅中学,,17,17,44,7,23,14,14,15,10,15,30,4,3,0.9,0.9
2025-12-25T1200,1346A,113.2612,23.105,广州市,市五中,,10,10,40,6,23,20,20,20,14,19,37,7,7,0.7,0.7
2025-12-25T1200,1348A,113.3478,23.0916,广州市,广东商学院,,10,9,36,3,21,15,15,15,10,12,26,5,6,1.0,0.9
2025-12-25T1200,1349A,113.4332,23.1047,广州市,市八十六中,,11,8,35,3,20,18,18,17,10,12,35,6,8,1.1,1
2025-12-25T1200,1350A,113.3505,22.9483,广州市,番禺中学,,11,11,43,3,24,18,18,18,12,20,32,4,5,0.9,0.9
2025-12-25T1200,1351A,113.2146,23.3916,广州市,花都师范,,10,10,28,3,15,17,17,18,16,17,20,6,6,0.7,0.7
2025-12-25T1200,1352A,113.2597,23.1331,广州市,市监测站,,12,12,41,3,22,18,18,17,12,15,32,4,4,1.0,0.8
2025-12-25T1200,1353A,113.5618,23.312,广州市,九龙镇镇龙,,8,6,32,3,19,19,19,17,12,16,21,5,7,0.8,0.7
2025-12-25T1200,1354A,113.2765,23.1544,广州市,麓湖,,8,8,36,3,23,18,18,14,12,16,31,9,8,0.7,0.6
2025-12-25T1200,1355A,113.443,23.3035,广州市,帽峰山森林公园,,,,,,,,,,,,,,,,
2025-12-25T1200,2846A,113.3221,23.1322,广州市,体育西,,12,12,39,7,23,15,15,12,9,16,28,5,5,0.8,0.7
2025-12-25T1200,3298A,113.5717,23.5491,广州市,从化街口,,8,6,27,3,20,20,20,17,13,14,20,7,10,0.8,0.8
2025-12-25T1200,3299A,113.3472,23.3692,广州市,白云竹料,,8,6,26,3,16,21,21,20,17,13,19,4,4,0.8,0.7
2025-12-25T1200,3300A,113.2981,23.237,广州市,白云嘉禾,,12,12,40,3,21,18,18,15,13,16,30,6,5,0.9,0.8
2025-12-25T1200,3301A,113.4256,23.1716,广州市,黄埔科学城,,11,6,34,3,21,22,22,20,14,14,28,6,7,1.1,1
2025-12-25T1200,3302A,113.3942,23.0483,广州市,番禺大学城,,18,18,56,3,22,18,18,16,12,12,29,7,11,0.8,0.8
2025-12-25T1200,3303A,113.4922,22.8168,广州市,南沙黄阁,,13,13,41,3,17,12,12,20,12,24,39,7,7,1.2,1
2025-12-25T1200,3304A,113.5342,22.7896,广州市,南沙街,,14,14,37,3,17,10,10,15,8,20,35,7,6,0.8,0.6
2025-12-25T1200,3443A,113.2902,23.5544,广州市,花都梯面,,8,7,23,3,15,18,18,18,18,12,16,5,6,0.8,0.8
2025-12-25T1200,3445A,113.7858,23.7478,广州市,从化良口,,9,6,21,3,17,27,27,17,16,12,15,7,9,0.9,0.9
2025-12-25T1200,3446A,113.8051,23.2614,广州市,增城荔城,,8,6,27,3,22,19,19,24,16,12,20,5,5,0.8,0.7
2025-12-25T1200,2505A,109.568,23.1478,贵港市,德智高中,,,,,,,,,,,,,,,,
2025-12-25T1200,2506A,109.6047,23.0666,贵港市,江南子站,,34,34,14,3,4,54,54,48,48,9,11,4,4,0.5,0.7
2025-12-25T1200,2508A,109.5669,23.1065,贵港市,荷城子站,,29,29,12,19,6,47,47,42,42,11,12,3,3,0.7,1
2025-12-25T1200,3405A,109.5886,23.1172,贵港市,新世纪学校,,34,34,13,21,11,53,53,47,47,11,14,1,1,0.5,0.7
2025-12-25T1200,4260A,109.5933,23.0951,贵港市,中山路155-3号,,26,26,12,10,8,56,56,51,51,9,12,2,2,0.5,0.6
2025-12-25T1200,1439A,106.6899,26.5998,贵阳市,马鞍山,,,,29,,18,,,34,31,9,12,4,5,,0.6
2025-12-25T1200,1441A,106.6243,26.6266,贵阳市,鉴湖路,,,31,37,7,15,,,40,39,19,15,,3,0.4,0.5
2025-12-25T1200,1442A,106.7487,26.6343,贵阳市,燕子冲,,28,22,30,19,25,58,58,41,41,9,11,7,6,0.5,0.6
2025-12-25T1200,1443A,106.6555,26.4365,贵阳市,碧云窝,,39,39,40,12,19,50,50,38,36,14,13,7,6,0.2,0.4
2025-12-25T1200,1445A,106.7109,26.6027,贵阳市,红边门,,29,29,33,17,21,54,54,40,40,12,12,9,7,0.0,0.2
2025-12-25T1200,1446A,106.7164,26.5699,贵阳市,新华路,,41,41,40,9,21,56,56,38,38,12,13,6,5,0.5,0.5
2025-12-25T1200,1447A,106.674,26.5424,贵阳市,太慈桥,,34,34,34,9,19,58,58,40,40,13,16,6,4,0.2,0.4
2025-12-25T1200,1552A,106.805,26.3003,贵阳市,桐木岭,,46,46,36,24,22,70,70,48,48,1,3,17,5,0.6,0.8
2025-12-25T1200,4230A,106.6882,26.5695,贵阳市,花果园大街66号,,22,22,23,10,15,32,32,24,24,13,15,3,3,0.3,0.4
2025-12-25T1200,4231A,106.6873,26.5169,贵阳市,漓江路57号,,34,34,33,14,19,59,59,40,40,12,16,6,6,0.5,0.7
2025-12-25T1200,1862A,110.4144,25.3167,桂林市,电子科大尧山校区,,,,,,,,,,,,,,,,
2025-12-25T1200,1864A,110.3089,25.2708,桂林市,龙隐路小学,,49,49,27,18,18,65,65,56,56,8,11,8,6,0.3,0.5
2025-12-25T1200,1865A,110.2869,25.2178,桂林市,八中,,,,24,17,18,56,56,50,50,14,15,,6,,0.4
2025-12-25T1200,3531A,110.296,25.1253,桂林市,旅游学院,,46,46,21,17,16,72,72,61,61,9,12,5,3,0.5,0.5
2025-12-25T1200,4222A,110.1835,25.2444,桂林市,环湖路276号,颗粒物(PM10),56,61,28,22,22,60,60,51,51,8,10,6,5,0.3,0.4
2025-12-25T1200,4301A,110.2803,25.2773,桂林市,信义路13号,颗粒物(PM10),53,56,27,19,18,64,64,55,55,11,12,6,4,0.3,0.5
2025-12-25T1200,2674A,100.2561,34.4714,果洛藏族自治州,玛沁县大武镇,颗粒物(PM10),55,59,47,11,7,50,50,41,36,14,4,17,15,0.7,0.4
2025-12-25T1200,1129A,126.5422,45.755,哈尔滨市,岭北,,,,,,,,,,,,,,,,
2025-12-25T1200,1130A,126.561,45.8167,哈尔滨市,松北商大,,46,40,58,32,46,36,36,24,24,15,43,9,7,0.7,0.9
2025-12-25T1200,1132A,126.599,45.7222,哈尔滨市,南岗学府路,,41,41,62,23,43,29,29,19,19,20,37,45,16,0.5,0.7
2025-12-25T1200,1133A,126.689,45.7733,哈尔滨市,太平宏伟公园,,49,49,72,32,59,39,39,26,26,15,38,36,19,1.0,1.1
2025-12-25T1200,1134A,126.635,45.7667,哈尔滨市,道外承德广场,颗粒物(PM10),54,58,73,31,44,38,38,25,25,15,37,16,13,0.7,0.8
2025-12-25T1200,1136A,126.6411,45.7258,哈尔滨市,动力和平路,,43,43,60,25,43,38,38,24,24,14,39,22,17,0.7,0.8
2025-12-25T1200,1137A,126.593,45.7478,哈尔滨市,道里建国路,,49,46,60,34,54,36,36,24,24,16,37,30,14,0.2,0.6
2025-12-25T1200,1138A,126.615,45.61,哈尔滨市,平房东轻厂,细颗粒物(PM2.5),54,43,85,38,71,34,34,16,16,16,49,12,13,0.6,1.1
2025-12-25T1200,1139A,126.595,45.9855,哈尔滨市,呼兰师专,细颗粒物(PM2.5),58,,80,41,82,37,37,24,24,9,37,11,11,0.8,1.2
2025-12-25T1200,1140A,126.6206,45.6842,哈尔滨市,省农科院,,40,39,78,28,61,38,38,24,24,16,48,22,19,0.5,0.9
2025-12-25T1200,4282A,126.6769,45.7379,哈尔滨市,华山路1号,,45,36,56,31,43,37,37,26,26,17,38,20,26,0.6,0.9
2025-12-25T1200,4283A,126.9717,45.5356,哈尔滨市,解放大街52号,颗粒物(PM10),52,53,100,23,90,36,36,17,17,23,42,17,10,0.8,1.2
2025-12-25T1200,2688A,93.5128,42.8172,哈密市,地区监测站,细颗粒物(PM2.5),62,,47,44,29,44,44,32,32,20,30,6,6,0.3,0.5
2025-12-25T1200,2689A,93.4961,42.8328,哈密市,哈密师范学校,,46,46,48,30,22,26,26,18,18,30,34,13,9,0.4,0.7
2025-12-25T1200,2671A,100.9048,36.9639,海北藏族自治州,海晏县西海镇,细颗粒物(PM2.5),57,45,53,40,41,76,76,48,48,10,17,15,12,0.8,0.7
2025-12-25T1200,3867A,102.0738,36.5056,海东市,平安区公安北苑,细颗粒物(PM2.5),77,72,67,56,45,33,33,33,25,39,21,28,20,2.3,1
2025-12-25T1200,1409A,110.576,19.9507,海口市,东寨港,,,,,,,,,,,,,,,,
2025-12-25T1200,1410A,110.3232,20.0574,海口市,海南大学,,14,14,33,6,17,42,42,73,40,9,9,6,6,0.6,0.4
2025-12-25T1200,1411A,110.283,20.0053,海口市,秀英海南医院,,,30,30,7,17,41,41,70,39,,11,,7,0.5,0.4
2025-12-25T1200,1412A,110.338,19.9969,海口市,海南师范大学,,24,24,30,8,17,45,45,80,46,11,10,6,6,0.6,0.5
2025-12-25T1200,1413A,110.33,20.0356,海口市,龙华路环保局宿舍,,23,23,31,7,18,44,44,77,43,11,10,8,8,0.7,0.7
2025-12-25T1200,3539A,110.5111,19.9736,海口市,桂林洋子站,,19,19,34,10,18,44,44,76,46,13,10,9,8,0.5,0.4
2025-12-25T1200,2673A,100.6188,36.2866,海南藏族自治州,共和县恰卜恰镇,颗粒物(PM10),57,63,47,34,26,73,73,42,42,8,20,13,12,0.7,0.6
2025-12-25T1200,2676A,97.3731,37.3753,海西蒙古族藏族自治州,德令哈市,,36,36,33,11,12,63,63,71,67,13,5,14,12,0.4,0.5
2025-12-25T1200,1048A,114.5302,36.6116,邯郸市,东污水处理厂,,29,,66,20,55,56,56,29,29,9,37,3,6,0.4,0.8
2025-12-25T1200,1049A,114.4918,36.5713,邯郸市,矿院,,28,26,62,19,53,54,54,33,32,18,40,2,5,0.3,0.7
2025-12-25T1200,1050A,114.484,36.6133,邯郸市,丛台公园,,32,,68,22,49,57,57,42,42,14,32,7,12,0.3,0.7
2025-12-25T1200,3458A,114.7895,36.5593,邯郸市,香泉濮院小区,,19,,84,11,62,60,60,35,35,6,37,2,6,0.3,0.8
2025-12-25T1200,3579A,114.50634,36.77178,邯郸市,永年区实验高中,,42,42,89,8,44,48,48,22,22,17,51,3,6,0.3,1
2025-12-25T1200,3580A,114.20016,36.44293,邯郸市,峰峰矿区临水派出所,,,,51,,46,,,43,37,15,22,,7,0.6,0.7
2025-12-25T1200,2634A,106.9893,33.1842,汉中市,汉川机床厂子校,,,,,,,,,,,,,,,,
2025-12-25T1200,2635A,107.0154,33.0706,汉中市,市监测站,颗粒物(PM10),59,67,76,40,48,28,28,10,10,28,32,8,6,1.1,1
2025-12-25T1200,2636A,107.0089,33.1138,汉中市,鑫源开发区,颗粒物(PM10),68,85,80,32,50,42,42,18,18,24,31,11,7,0.8,0.9
2025-12-25T1200,2637A,107.007,33.0323,汉中市,南郑大河坎水厂,颗粒物(PM10),67,84,82,39,49,35,35,12,12,23,24,9,5,1.0,0.9
2025-12-25T1200,1223A,120.2072,30.2111,杭州市,滨江,细颗粒物(PM2.5),52,50,48,36,39,62,62,36,36,19,29,10,8,0.5,0.7
2025-12-25T1200,1224A,120.0633,30.2747,杭州市,西溪,颗粒物(PM10),52,53,48,24,28,69,69,39,39,19,32,9,8,1.0,1.1
2025-12-25T1200,1226A,120.3417,30.3150,杭州市,下沙,,50,49,67,35,55,63,63,33,33,19,34,8,6,0.8,1
2025-12-25T1200,1227A,120.1269,30.2456,杭州市,卧龙桥,,49,49,48,30,31,66,66,40,40,15,26,10,8,0.6,0.7
2025-12-25T1200,1228A,120.1903,30.2692,杭州市,浙江农大,,50,44,49,35,50,59,59,34,34,28,38,4,2,0.5,0.7
2025-12-25T1200,1230A,120.1197,30.3119,杭州市,和睦小学,颗粒物(PM10),51,52,58,34,32,40,40,43,43,21,32,6,4,0.6,0.8
2025-12-25T1200,1231A,120.3019,30.4183,杭州市,临平镇,,,,64,,60,68,68,35,35,11,26,8,6,0.5,1
2025-12-25T1200,1232A,120.2753,30.1839,杭州市,城厢镇,"颗粒物(PM10),细颗粒物(PM2.5)",53,56,48,37,42,66,66,40,40,16,26,9,7,0.7,0.9
2025-12-25T1200,1233A,120.0883,30.1808,杭州市,云栖,细颗粒物(PM2.5),52,49,36,36,35,71,71,39,39,13,23,5,4,0.8,0.9
2025-12-25T1200,3557A,119.9464,30.0494,杭州市,镇二中,,,41,30,39,26,62,62,37,37,,27,6,5,0.9,1
2025-12-25T1200,3558A,119.7183,30.2367,杭州市,市府大楼,细颗粒物(PM2.5),55,50,38,39,26,69,69,47,47,11,17,11,9,0.7,0.8
2025-12-25T1200,3656A,120.1556,30.2864,杭州市,消防大队,细颗粒物(PM2.5),57,53,74,40,59,63,63,38,38,16,29,7,5,0.7,0.8
2025-12-25T1200,1270A,117.1959,31.7848,合肥市,明珠广场,细颗粒物(PM2.5),92,95,94,68,68,49,49,25,24,31,31,9,6,1.0,1
2025-12-25T1200,1271A,117.3072,31.8764,合肥市,三里街,细颗粒物(PM2.5),98,105,93,73,65,49,49,22,20,31,32,8,6,0.9,0.8
2025-12-25T1200,1272A,117.2588,31.8707,合肥市,琥珀山庄,细颗粒物(PM2.5),100,102,97,75,68,50,50,21,20,29,31,11,8,1.1,1
2025-12-25T1200,1273A,117.1604,31.9052,合肥市,董铺水库,,,,,,,,,,,,,,,,
2025-12-25T1200,1274A,117.25,31.8571,合肥市,长江中路,细颗粒物(PM2.5),102,97,95,76,68,49,49,19,18,28,30,10,8,0.9,0.9
2025-12-25T1200,1275A,117.266,31.9436,合肥市,庐阳区,细颗粒物(PM2.5),89,95,95,66,62,60,60,24,24,36,30,13,10,0.9,0.8
2025-12-25T1200,1276A,117.3453,31.8616,合肥市,瑶海区,细颗粒物(PM2.5),95,100,97,71,67,56,56,25,24,32,36,8,5,0.8,0.7
2025-12-25T1200,1277A,117.3027,31.7964,合肥市,包河区,细颗粒物(PM2.5),94,107,93,70,70,48,48,24,24,40,42,8,7,1.0,0.9
2025-12-25T1200,1278A,117.2776,31.7385,合肥市,滨湖新区,细颗粒物(PM2.5),104,95,97,78,74,52,52,26,24,34,38,6,5,1.0,1
2025-12-25T1200,1279A,117.1318,31.8403,合肥市,高新区,细颗粒物(PM2.5),88,85,92,65,66,60,60,26,26,23,32,8,5,0.7,0.8
2025-12-25T1200,3464A,117.3803,31.9147,合肥市,高教基地,细颗粒物(PM2.5),89,95,94,66,66,57,57,26,26,26,26,9,6,0.8,0.8
2025-12-25T1200,3614A,79.924,37.0877,和田地区,地区环保局,细颗粒物(PM2.5),114,132,89,86,52,35,35,27,24,27,25,3,2,0.5,0.4
2025-12-25T1200,3615A,79.9131,37.113,和田地区,市环保局,细颗粒物(PM2.5),87,110,80,64,34,37,37,34,28,30,29,2,2,1.2,0.8
2025-12-25T1200,2516A,108.2011,24.715,河池市,东仁乐园,,,,,,,,,,,,,,,,
2025-12-25T1200,2517A,108.0497,24.6947,河池市,市环保站,,45,45,14,9,8,67,67,58,58,8,9,2,2,0.5,0.7
2025-12-25T1200,2518A,108.0983,24.6989,河池市,市疾控中心,,,,,,,,,,,,,,,,
2025-12-25T1200,1696A,114.6778,23.7569,河源市,源西,,,,,,,,,,,,,,,,
2025-12-25T1200,1697A,114.6944,23.7586,河源市,东埔,,18,,22,12,26,56,56,26,26,8,19,5,6,0.6,0.8
2025-12-25T1200,1698A,114.6892,23.7233,河源市,老城,,18,6,27,3,16,56,56,26,26,7,14,6,6,0.7,0.8
2025-12-25T1200,1718A,115.4208,35.2464,菏泽市,气象局,,28,28,90,13,61,60,60,34,34,13,37,1,4,0.3,0.6
2025-12-25T1200,3374A,115.5564,35.0891,菏泽市,定陶老年大学,,,,81,,58,60,60,23,23,,46,,4,0.3,0.5
2025-12-25T1200,4184A,115.4797,35.24401,菏泽市,永昌路1号,,,33,85,18,61,50,50,30,30,,46,7,8,0.3,0.7
2025-12-25T1200,4193A,115.4715,35.2800,菏泽市,长城路999号,,38,38,94,8,61,55,55,27,27,13,40,6,5,0.4,0.7
2025-12-25T1200,2514A,111.5264,24.4172,贺州市,环保小区,,44,44,18,28,14,58,58,48,48,15,16,5,4,0.7,0.8
2025-12-25T1200,2515A,111.5608,24.4078,贺州市,政协大楼,,33,33,19,23,14,47,47,39,39,13,12,8,7,0.6,0.8
2025-12-25T1200,3534A,111.4744,24.4553,贺州市,西湾,,42,40,19,29,11,52,52,46,46,10,10,6,6,0.4,0.5
2025-12-25T1200,2385A,114.17,35.9019,鹤壁市,市监测站,,45,42,71,31,54,45,45,31,31,21,23,6,6,0.6,0.8
2025-12-25T1200,2386A,114.2956,35.7511,鹤壁市,市交警支队,颗粒物(PM10),134,218,96,38,58,39,39,20,20,,42,15,7,0.5,0.8
2025-12-25T1200,2387A,114.2878,35.7306,鹤壁市,迎宾馆,,,58,88,23,57,49,49,26,26,,33,,9,0.5,0.9
2025-12-25T1200,3474A,114.2617,35.6822,鹤壁市,大新区,颗粒物(PM10),52,53,78,30,51,51,51,37,37,24,32,7,8,0.6,0.9
2025-12-25T1200,3596A,114.1572,35.9603,鹤壁市,南山宾馆,颗粒物(PM10),56,62,75,36,45,49,49,42,42,18,19,5,8,0.4,0.7
2025-12-25T1200,2244A,130.2537,47.3416,鹤岗市,哈啤分公司,,15,9,29,9,26,48,48,51,48,4,13,6,8,0.3,0.4
2025-12-25T1200,2245A,130.2684,47.3086,鹤岗市,斯达机电,,20,20,36,7,20,51,51,54,48,5,16,5,7,0.4,0.4
2025-12-25T1200,2246A,130.3114,47.3388,鹤岗市,东山纸板厂,,16,14,36,7,35,51,51,51,47,2,21,6,8,0.6,0.9
2025-12-25T1200,2247A,130.1097,47.3382,鹤岗市,五号水库,,,,,,,,,,,,,,,,
2025-12-25T1200,2263A,127.4833,50.2524,黑河市,交通局,,20,20,28,12,22,45,45,43,43,7,16,4,6,0.3,0.4
2025-12-25T1200,2264A,127.5144,50.2341,黑河市,环保局,,,36,28,17,23,35,35,41,39,,17,,7,0.3,0.4
2025-12-25T1200,2265A,127.5291,50.2472,黑河市,大黑河岛,,,,,,,,,,,,,,,,
2025-12-25T1200,1074A,115.6838,37.7541,衡水市,电机北厂,,15,14,70,10,46,48,48,37,37,14,33,6,7,0.3,0.5
2025-12-25T1200,1075A,115.6303,37.7316,衡水市,市监测站,,16,12,62,3,39,49,49,44,44,16,31,4,6,0.3,0.5
2025-12-25T1200,3188A,115.6683,37.7217,衡水市,市城管局,,,28,69,3,44,50,50,39,39,,32,5,8,0.3,0.5
2025-12-25T1200,3459A,115.5989,37.5491,衡水市,地表水厂,,18,14,62,3,44,57,57,34,34,7,32,2,4,0.3,0.5
2025-12-25T1200,2456A,112.5003,26.9167,衡阳市,原169医院,,,,,,,,,,,,,,,,
2025-12-25T1200,2457A,112.6194,26.9258,衡阳市,衡阳化工总厂,细颗粒物(PM2.5),67,63,47,48,47,50,50,32,31,15,18,8,6,0.8,0.9
2025-12-25T1200,2458A,112.6211,26.8956,衡阳市,珠晖区环保局,细颗粒物(PM2.5),70,52,50,51,50,43,43,27,27,15,19,5,3,1.0,1.1
2025-12-25T1200,2459A,112.6197,26.8733,衡阳市,市委党校,,,,46,,43,52,52,33,33,11,17,6,5,0.9,1
2025-12-25T1200,2460A,112.6006,26.8919,衡阳市,市监测站,细颗粒物(PM2.5),64,68,64,46,48,53,53,37,37,16,17,9,6,0.7,0.7
2025-12-25T1200,2461A,112.5664,26.9056,衡阳市,真空机电公司,颗粒物(PM10),57,63,62,39,48,57,57,41,41,12,14,7,6,0.7,0.8
2025-12-25T1200,3399A,112.6703,26.882,衡阳市,师范学院,细颗粒物(PM2.5),62,60,58,44,43,54,54,36,36,15,18,2,2,0.8,0.9
2025-12-25T1200,2608A,103.3772,23.3993,红河哈尼族彝族自治州,污水处理厂,,,,35,,27,28,28,23,16,,14,,11,0.6,0.4
2025-12-25T1200,2609A,103.3861,23.35,红河哈尼族彝族自治州,监测站,,49,47,34,34,29,20,20,31,21,17,8,51,15,0.6,0.4
2025-12-25T1200,3038A,103.3758,23.368,红河哈尼族彝族自治州,州图书馆,,34,34,23,19,18,18,18,29,17,17,9,47,15,0.6,0.4
2025-12-25T1200,1090A,111.6507,40.7517,呼和浩特市,呼市一监,,22,22,25,15,10,39,39,38,26,12,14,8,4,0.4,0.3
2025-12-25T1200,1091A,111.6572,40.8033,呼和浩特市,小召,颗粒物(PM10),52,53,25,23,8,41,41,39,30,25,19,9,6,0.5,0.3
2025-12-25T1200,1094A,111.7516,40.8369,呼和浩特市,如意水处理厂,,,30,17,16,7,44,44,37,29,14,13,12,8,,0.5
2025-12-25T1200,1095A,111.7276,40.8062,呼和浩特市,二十九中,,30,30,19,19,6,43,43,43,32,16,12,12,9,1.1,0.9
2025-12-25T1200,1096A,111.5512,40.7866,呼和浩特市,工大金川校区,,,,,,,,,,,,,,,,
2025-12-25T1200,1097A,111.717,40.7612,呼和浩特市,化肥厂生活区,,29,29,24,16,10,43,43,37,26,16,18,10,5,0.5,0.4
2025-12-25T1200,3698A,111.5968,40.8178,呼和浩特市,红旗小学,,,,,,,,,,,,,,,,
2025-12-25T1200,3699A,111.6518,40.8389,呼和浩特市,海东办,,44,44,15,18,6,36,36,37,21,26,17,7,4,0.5,0.3
2025-12-25T1200,3061A,119.7512,49.1577,呼伦贝尔市,国华电力东,,22,20,29,15,23,43,43,39,36,20,21,9,7,0.2,0.2
2025-12-25T1200,4279A,119.7569,49.2222,呼伦贝尔市,伊敏大街东7号,,,17,27,13,20,39,39,37,35,8,6,10,8,,0.9
2025-12-25T1200,1250A,120.0751,30.8669,湖州市,城西水厂,颗粒物(PM10),54,58,73,31,40,77,77,51,51,22,37,11,9,0.5,0.6
2025-12-25T1200,2873A,120.0830,30.8929,湖州市,仁皇山新区,细颗粒物(PM2.5),57,60,74,40,63,79,79,53,53,19,34,11,8,0.2,0.4
2025-12-25T1200,2907A,120.1844,30.8596,湖州市,吴兴区站,细颗粒物(PM2.5),65,65,78,47,54,72,72,45,45,17,34,8,6,0.8,0.9
2025-12-25T1200,3562A,120.4148,30.8538,湖州市,南浔区站,细颗粒物(PM2.5),57,55,78,40,56,64,64,49,49,28,40,8,6,0.9,1
2025-12-25T1200,1607A,120.9049,40.7211,葫芦岛市,龙港区,,17,16,39,3,21,53,53,38,38,5,23,9,17,0.5,0.7
2025-12-25T1200,1608A,120.8392,40.7514,葫芦岛市,化工街,,17,12,34,7,17,53,53,40,39,5,26,9,24,0.3,0.4
2025-12-25T1200,1609A,120.8341,40.7073,葫芦岛市,新区,,23,23,29,7,16,55,55,44,44,7,23,8,11,0.4,0.5
2025-12-25T1200,1610A,120.8695,40.7677,葫芦岛市,东城区,,23,23,29,3,20,53,53,41,39,6,26,8,18,0.5,0.7
2025-12-25T1200,2482A,109.5981,27.5721,怀化市,林科所,,,,,,,,,,,,,,,,
2025-12-25T1200,2483A,109.9453,27.5444,怀化市,河西地税局,颗粒物(PM10),52,53,56,29,43,54,54,30,30,14,15,8,8,0.5,0.6
2025-12-25T1200,2484A,109.9781,27.5342,怀化市,市四医院,颗粒物(PM10),64,77,64,36,40,58,58,34,31,9,11,11,16,0.5,0.5
2025-12-25T1200,2485A,109.9972,27.5578,怀化市,监测楼,颗粒物(PM10),63,76,56,34,35,54,54,21,21,17,20,5,10,0.2,0.3
2025-12-25T1200,2486A,110.0394,27.583,怀化市,市委党校,颗粒物(PM10),60,70,55,34,40,55,55,26,26,10,14,10,17,0.1,0.2
2025-12-25T1200,1210A,119.036,33.5981,淮安市,钵池山,,49,,83,34,63,59,59,32,32,11,36,6,7,0.2,0.6
2025-12-25T1200,1211A,119.007,33.575,淮安市,北京南路,,39,,85,27,61,56,56,25,25,7,33,6,8,0.4,0.7
2025-12-25T1200,1212A,118.989,33.6067,淮安市,市监测站,,19,14,82,7,64,58,58,26,26,11,40,8,10,0.3,0.7
2025-12-25T1200,1213A,119.135,33.5039,淮安市,楚州区监测站,,20,20,81,8,55,55,55,31,31,7,30,9,10,0.4,0.8
2025-12-25T1200,3426A,118.8755,33.2894,淮安市,新华书店,,37,37,100,13,71,51,51,32,32,12,30,8,11,0.5,1
2025-12-25T1200,4206A,119.0288,33.6319,淮安市,承德北路606号,,46,,96,32,62,60,60,27,27,8,39,7,9,0.4,0.8
2025-12-25T1200,2282A,116.8004,33.975,淮北市,监测站,颗粒物(PM10),85,119,97,57,64,47,47,26,24,33,36,11,10,0.8,0.8
2025-12-25T1200,2283A,116.8091,33.9007,淮北市,烈山区政府,颗粒物(PM10),62,74,86,43,65,57,57,30,30,26,36,12,10,0.5,0.6
2025-12-25T1200,3330A,116.8873,33.9836,淮北市,杜集区检察院,细颗粒物(PM2.5),73,65,93,53,68,53,53,19,19,26,40,9,7,0.5,0.7
2025-12-25T1200,4017A,116.7923,33.9535,淮北市,市博物馆,颗粒物(PM10),75,100,94,54,62,50,50,29,29,27,33,14,12,0.5,0.6
2025-12-25T1200,2277A,116.8305,32.7727,淮南市,潘集区政府,细颗粒物(PM2.5),83,78,91,61,70,52,52,28,28,20,30,8,6,0.6,0.6
2025-12-25T1200,2279A,116.8569,32.5951,淮南市,谢家集区政府,细颗粒物(PM2.5),65,72,89,47,58,48,48,23,23,26,32,11,9,0.6,0.6
2025-12-25T1200,2280A,116.8281,32.633,淮南市,八公山区政府,细颗粒物(PM2.5),70,71,83,51,59,49,49,26,26,26,27,11,6,0.6,0.6
2025-12-25T1200,2281A,116.6325,32.6201,淮南市,焦岗湖风景区管理处,,,,,,,,,,,,,,,,
2025-12-25T1200,2894A,117.0566,32.6531,淮南市,经济技术开发区消防队,,,94,101,56,70,,,19,19,29,34,9,5,0.5,0.6
2025-12-25T1200,3329A,117.0108,32.5893,淮南市,山南新区,细颗粒物(PM2.5),78,97,92,57,53,50,50,28,28,24,31,5,3,0.5,0.6
2025-12-25T1200,4209A,117.0031,32.6445,淮南市,国庆中路369号,细颗粒物(PM2.5),72,53,84,52,66,38,38,14,14,29,36,8,5,0.8,0.8
2025-12-25T1200,2446A,114.9028,30.4742,黄冈市,职工中心,细颗粒物(PM2.5),59,63,77,42,56,61,61,29,29,15,17,8,6,0.6,0.7
2025-12-25T1200,2929A,114.8858,30.4519,黄冈市,红卫路,,,,73,,59,62,62,26,26,,19,7,6,,0.7
2025-12-25T1200,3398A,114.9136,30.4445,黄冈市,市林业局,细颗粒物(PM2.5),64,56,73,46,60,61,61,31,31,17,18,5,4,0.6,0.7
2025-12-25T1200,2672A,102.0199,35.5102,黄南藏族自治州,同仁县隆务镇,,46,36,48,32,31,58,58,52,49,6,4,10,9,0.4,0.4
2025-12-25T1200,2295A,118.2903,29.6963,黄山市,延安路89号,细颗粒物(PM2.5),65,59,24,47,21,73,73,45,45,13,18,4,4,0.5,0.7
2025-12-25T1200,2297A,118.1371,30.2756,黄山市,黄山区政府5号楼,细颗粒物(PM2.5),77,82,53,56,42,77,77,37,37,17,20,7,5,0.5,0.6
2025-12-25T1200,4210A,118.3354,29.7203,黄山市,滨江东路7-2号,细颗粒物(PM2.5),68,72,41,49,31,74,74,42,42,15,19,5,3,0.6,0.7
2025-12-25T1200,2423A,115.0601,30.2313,黄石市,沈家营,,,,80,,52,42,42,20,20,12,8,5,5,0.9,1
2025-12-25T1200,2426A,114.8988,30.2019,黄石市,铁山,,,,73,,72,,,,,,20,,4,,0.5
2025-12-25T1200,2427A,115.0307,30.2092,黄石市,团城山,颗粒物(PM10),66,81,81,43,65,70,70,32,32,9,15,7,6,0.5,0.7
2025-12-25T1200,3149A,115.0235,30.1578,黄石市,笔架山北路,颗粒物(PM10),73,95,97,39,61,58,58,30,30,14,20,7,7,0.8,1
2025-12-25T1200,4185A,115.0780,30.21118,黄石市,磁湖东路29号,颗粒物(PM10),59,68,77,38,65,61,61,26,26,8,15,7,6,0.7,0.9
2025-12-25T1200,1392A,114.4183,23.0528,惠州市,河南岸金山湖子站,,16,7,40,3,24,50,50,29,26,12,26,4,4,0.6,0.7
2025-12-25T1200,1393A,114.4053,23.0822,惠州市,下埔横江三路子站,,16,7,42,3,24,51,51,30,26,8,26,6,7,0.7,0.8
2025-12-25T1200,1394A,114.4103,23.1142,惠州市,江北云山西路子站,,,,,,,,,,,,,,,,
2025-12-25T1200,1395A,114.4645,22.7833,惠州市,惠阳区承修路船湖子站,,16,9,38,3,20,49,49,38,30,10,21,6,7,0.7,0.7
2025-12-25T1200,1396A,114.5317,22.7422,惠州市,大亚湾管委会子站,,13,6,40,3,19,41,41,41,31,8,24,6,6,0.7,0.6
2025-12-25T1200,3314A,114.4338,22.8134,惠州市,惠阳秋长,,,17,48,3,23,59,59,34,33,9,29,,14,0.6,0.6
2025-12-25T1200,3452A,114.6517,22.775,惠州市,大亚湾霞涌,,13,6,35,3,20,40,40,37,31,11,21,4,4,0.8,0.7
2025-12-25T1200,2240A,130.9762,45.3001,鸡西市,环保局,,50,38,32,35,26,48,48,42,40,8,16,6,7,0.1,0.2
2025-12-25T1200,2243A,130.9429,45.3039,鸡西市,第一中学,细颗粒物(PM2.5),54,,30,38,24,48,48,42,41,9,14,4,4,0.3,0.4
2025-12-25T1200,3707A,131.0207,45.3073,鸡西市,欧美日汽修厂,,,37,62,28,50,50,50,20,19,12,33,,14,,0.6
2025-12-25T1200,3709A,130.9967,45.3106,鸡西市,市政设施管理处,颗粒物(PM10),56,62,42,18,32,41,41,17,17,16,35,10,10,0.0,0.4
2025-12-25T1200,2367A,114.9754,27.0803,吉安市,红声器材厂,,,,22,,12,69,69,36,36,,23,6,5,0.6,0.9
2025-12-25T1200,2368A,114.9658,27.0999,吉安市,市森林工业局,颗粒物(PM10),89,127,29,24,15,65,65,32,32,15,23,10,9,0.5,0.6
2025-12-25T1200,2369A,114.99,27.1312,吉安市,市环境监测站,,44,44,23,26,14,69,69,37,37,9,20,12,10,0.5,0.6
2025-12-25T1200,2370A,115.0093,27.0968,吉安市,青原区法院,颗粒物(PM10),51,51,22,30,14,61,61,34,34,12,21,9,9,0.6,0.8
2025-12-25T1200,1772A,126.54,43.8622,吉林市,哈达湾,,36,36,44,21,28,43,43,38,38,7,23,6,9,0.7,0.9
2025-12-25T1200,1773A,126.5844,43.8358,吉林市,东局子,,35,35,52,13,37,43,43,38,38,9,32,6,6,0.6,1
2025-12-25T1200,1774A,126.5052,43.8245,吉林市,电力学院,,31,31,74,18,51,46,46,42,42,6,30,10,11,0.6,1.1
2025-12-25T1200,1775A,126.6133,43.8972,吉林市,江北,,,22,64,14,43,,,40,40,7,31,9,8,,1.2
2025-12-25T1200,1776A,126.555,43.8306,吉林市,江南公园,,29,23,42,20,36,43,43,39,39,8,28,14,9,0.7,1
2025-12-25T1200,1778A,126.7061,43.7133,吉林市,丰满,,45,45,42,27,31,36,36,35,34,8,13,6,8,0.6,0.7
2025-12-25T1200,2868A,126.4739,43.953,吉林市,九站,,28,,44,19,39,44,44,39,39,7,31,11,6,0.7,1
2025-12-25T1200,1299A,116.9862,36.6114,济南市,科干所,,19,19,44,3,25,56,56,42,42,13,36,4,6,0.5,0.8
2025-12-25T1200,1300A,116.9376,36.665,济南市,农科所,,20,20,59,3,32,54,54,40,40,16,42,4,4,0.5,0.9
2025-12-25T1200,1301A,117.1265,36.6734,济南市,开发区,,20,15,50,7,31,61,61,44,44,13,40,4,3,0.5,0.7
2025-12-25T1200,1303A,117.0624,36.6868,济南市,省种子仓库,,20,14,63,3,34,64,64,46,46,9,43,5,7,0.3,0.7
2025-12-25T1200,1304A,116.9489,36.6447,济南市,机床二厂,,22,22,67,3,42,52,52,40,40,12,36,8,21,0.4,0.8
2025-12-25T1200,1305A,117.0495,36.663,济南市,市监测站,,19,12,48,3,27,59,59,43,43,9,34,5,5,0.4,0.7
2025-12-25T1200,1306A,116.7675,36.5484,济南市,长清党校,,17,15,60,3,39,54,54,41,41,15,35,6,5,0.5,0.7
2025-12-25T1200,1616A,117.6795,36.229,济南市,技术学院,,20,7,47,3,32,63,63,50,50,14,36,4,6,0.3,0.8
2025-12-25T1200,1961A,117.532,36.6868,济南市,东山小学,,20,20,58,3,32,64,64,50,50,10,40,6,4,0.7,0.8
2025-12-25T1200,3059A,117.7161,36.2049,济南市,泰兴公司,,,19,66,3,44,56,56,54,54,,41,4,6,,0.9
2025-12-25T1200,3064A,117.6867,36.2171,济南市,莱芜战役纪念馆,,22,14,56,11,40,68,68,55,55,12,34,7,8,0,0.5
2025-12-25T1200,3494A,117.1673,36.9782,济南市,济阳区政府,,20,20,59,3,34,56,56,40,40,13,43,6,6,0.2,0.5
2025-12-25T1200,3495A,117.1171,36.63,济南市,锦屏中学,,20,10,34,3,20,61,61,50,50,13,28,2,3,0.5,0.7
2025-12-25T1200,3682A,116.9814,36.6819,济南市,济南四建,,19,19,53,3,32,48,48,36,36,15,38,5,8,0.6,1
2025-12-25T1200,1653A,116.6251,35.4302,济宁市,火炬城,,24,24,68,7,54,55,55,30,30,12,31,5,6,0.1,0.5
2025-12-25T1200,1655A,116.5491,35.4042,济宁市,电化厂,,,40,97,12,56,,,20,20,19,46,5,8,0.1,0.4
2025-12-25T1200,3500A,116.5814,35.3707,济宁市,北湖一中,,23,23,60,16,56,52,52,28,28,17,34,4,6,0.3,0.6
2025-12-25T1200,3501A,116.8249,35.5593,济宁市,服务中心,,47,47,89,6,49,52,52,25,25,32,46,8,11,0.6,0.8
2025-12-25T1200,3678A,116.5907,35.4054,济宁市,市第七中学,,39,39,67,3,47,58,58,31,31,14,34,5,9,0.3,0.6
2025-12-25T1200,2255A,130.2751,46.8028,佳木斯市,佳纺,细颗粒物(PM2.5),52,39,47,36,39,41,41,31,29,15,23,10,7,0.3,0.4
2025-12-25T1200,2257A,130.3258,46.7975,佳木斯市,环保局,,,,41,,35,,,36,28,16,27,3,3,0.6,0.7
2025-12-25T1200,2259A,130.3794,46.7588,佳木斯市,四丰,,,,,,,,,,,,,,,,
2025-12-25T1200,4285A,130.363,46.806,佳木斯市,顺和街,,30,24,34,21,28,36,36,35,32,14,21,10,7,0.3,0.6
2025-12-25T1200,4286A,130.3952,46.8268,佳木斯市,长安路196号,,32,,35,22,30,46,46,40,39,8,20,5,6,0.3,0.4
2025-12-25T1200,1252A,120.7436,30.778,嘉兴市,清河小学,,48,48,71,28,56,66,66,43,43,18,38,7,5,0.6,0.7
2025-12-25T1200,1253A,120.726,30.7478,嘉兴市,嘉兴学院,,,49,79,30,56,64,64,46,46,14,40,,7,,0.9
2025-12-25T1200,2872A,120.7846,30.7525,嘉兴市,南湖区残联,,39,38,61,27,54,72,72,52,52,16,36,6,4,0.4,0.7
2025-12-25T1200,3407A,120.6916,30.7739,嘉兴市,秀洲住建,颗粒物(PM10),55,60,77,38,63,67,67,48,48,18,33,8,6,0.5,0.8
2025-12-25T1200,1945A,98.2908,39.7711,嘉峪关市,气象局,,36,36,48,17,25,50,50,55,55,37,27,19,15,0.9,0.6
2025-12-25T1200,2884A,98.2672,39.7978,嘉峪关市,酒钢宾馆,,29,29,59,14,27,61,61,52,52,20,19,29,22,0.6,0.8
2025-12-25T1200,3248A,98.2643,39.7724,嘉峪关市,雄关区,,25,25,43,16,28,60,60,52,52,27,29,25,20,0.8,0.7
2025-12-25T1200,1383A,113.1064,22.6058,江门市,北街,,24,24,45,8,25,14,14,22,13,23,29,7,8,0.8,0.7
2025-12-25T1200,1384A,113.0731,22.5835,江门市,西区,,20,20,42,3,22,14,14,24,12,25,34,6,8,0.7,0.6
2025-12-25T1200,1385A,113.0219,22.5311,江门市,圭峰西,,13,10,41,9,25,19,19,32,18,18,24,5,6,0.8,0.7
2025-12-25T1200,1386A,113.0828,22.5947,江门市,东湖,,14,14,41,7,27,16,16,24,14,27,32,6,7,0.7,0.6
2025-12-25T1200,3311A,113.1075,22.5647,江门市,江海富民,,,35,57,9,28,16,16,24,14,,31,6,7,,0.7
2025-12-25T1200,3449A,113.05,22.4667,江门市,新会银湖,,18,18,41,9,20,13,13,27,14,22,24,6,6,0.7,0.6
2025-12-25T1200,1830A,113.1992,35.2590,焦作市,影视城,,,,81,,33,,,45,,,21,,3,,0.6
2025-12-25T1200,3335A,113.3137,35.2641,焦作市,马村街道办,,,121,125,59,67,48,48,29,28,28,26,8,8,,0.9
2025-12-25T1200,3336A,113.2465,35.2373,焦作市,焦作技师学院,细颗粒物(PM2.5),79,90,112,58,55,38,38,24,20,30,32,10,10,0.7,0.9
2025-12-25T1200,3477A,113.1656,35.2539,焦作市,中站许衡医院,颗粒物(PM10),68,86,83,45,41,46,46,46,42,27,23,9,8,1.0,0.8
2025-12-25T1200,3981A,113.2449,35.1803,焦作市,原李万街道办,颗粒物(PM10),63,76,124,36,61,46,46,22,21,22,27,10,9,0.6,0.8
2025-12-25T1200,4264A,113.2340,35.2190,焦作市,新安路1731号,细颗粒物(PM2.5),70,79,114,51,57,44,44,28,23,24,27,8,9,0.9,1
2025-12-25T1200,4295A,113.2722,35.2121,焦作市,人民路3066号,颗粒物(PM10),67,83,138,42,60,44,44,22,18,24,29,7,8,0.4,0.7
2025-12-25T1200,1708A,116.3701,23.5345,揭阳市,新兴,,23,23,40,14,30,35,35,41,28,13,21,6,8,0.7,0.7
2025-12-25T1200,1709A,116.3264,23.5443,揭阳市,西马,,20,20,44,3,18,33,33,40,28,15,18,4,6,0.8,0.7
2025-12-25T1200,1710A,116.3611,23.5626,揭阳市,东兴,,34,34,45,8,23,34,34,36,26,15,21,7,10,0.8,0.8
2025-12-25T1200,1711A,116.4151,23.5294,揭阳市,渔湖,,21,21,40,7,21,36,36,41,28,14,19,3,5,0.8,0.8
2025-12-25T1200,3320A,116.403,23.5699,揭阳市,曲溪,,22,22,42,3,23,40,40,43,31,14,19,1,6,0.6,0.7
2025-12-25T1200,1944A,102.1692,38.5167,金昌市,天庆家园,颗粒物(PM10),91,132,76,62,37,63,63,47,40,26,20,54,12,0.9,0.8
2025-12-25T1200,4022A,102.1647,38.5371,金昌市,金川区人防中心,细颗粒物(PM2.5),82,107,71,60,39,57,57,40,33,20,18,61,13,0.7,0.7
2025-12-25T1200,4239A,102.1930,38.5319,金昌市,长春路96号,颗粒物(PM10),66,82,61,40,26,60,60,51,51,12,14,41,16,0.7,0.6
2025-12-25T1200,1262A,119.647,29.077,金华市,十五中,,50,47,16,35,13,54,54,30,30,23,34,4,3,0.4,0.8
2025-12-25T1200,1263A,119.686,29.1029,金华市,监测站,,49,48,20,34,13,56,56,26,26,9,26,1,2,0.3,0.6
2025-12-25T1200,3659A,119.656,29.1131,金华市,气象局,细颗粒物(PM2.5),52,45,14,36,11,62,62,27,27,14,35,2,2,1.0,1.1
2025-12-25T1200,1767A,121.1115,41.0879,锦州市,南山,,19,19,30,6,22,60,60,58,57,4,19,11,12,0.5,0.6
2025-12-25T1200,1768A,121.0604,40.8428,锦州市,开发区,,,,45,12,25,,,45,41,6,23,8,17,,0.8
2025-12-25T1200,1769A,121.1836,41.1119,锦州市,百股街道,,18,15,38,3,25,55,55,50,50,3,22,7,10,0.4,0.8
2025-12-25T1200,1770A,121.1178,41.1222,锦州市,天安街道,,19,18,31,6,20,59,59,57,57,5,18,12,13,0.4,0.6
2025-12-25T1200,1771A,121.1303,41.1386,锦州市,北湖公园,,29,29,31,3,19,55,55,52,52,3,16,9,12,0.3,0.5
2025-12-25T1200,2160A,112.85,35.5051,晋城市,自来水公司,,36,36,60,3,16,58,58,39,37,10,19,4,7,0.5,0.7
2025-12-25T1200,2161A,112.8318,35.4936,晋城市,白云商贸,,,33,68,,4,60,60,39,39,5,12,2,3,0.3,0.5
2025-12-25T1200,2162A,112.8508,35.4887,晋城市,市环保局,,35,35,63,7,14,60,60,36,35,4,12,3,5,0.4,0.6
2025-12-25T1200,2163A,112.8676,35.4897,晋城市,技术学院,,21,21,70,3,13,54,54,30,28,12,24,5,7,0.5,0.8
2025-12-25T1200,2165A,112.8453,35.546,晋城市,白马寺,,27,27,50,11,20,62,62,56,56,10,11,7,9,0.3,0.4
2025-12-25T1200,3620A,112.8271,35.4828,晋城市,泽州一中,,,33,64,,9,62,62,48,47,,17,3,5,0.3,0.4
2025-12-25T1200,2173A,112.7249,37.7067,晋中市,南都小区,,44,44,58,15,24,52,52,48,37,22,23,16,14,0.7,0.6
2025-12-25T1200,2174A,112.6991,37.6982,晋中市,榆次区政府,,48,48,59,19,22,48,48,49,34,24,27,17,14,0.6,0.7
2025-12-25T1200,2865A,112.7195,37.6828,晋中市,榆次三中,,46,46,51,19,13,47,47,47,30,20,20,19,12,1.0,0.6
2025-12-25T1200,4200A,112.7478,37.6954,晋中市,迎宾街26号,颗粒物(PM10),58,66,54,19,15,46,46,33,33,22,26,20,14,0.8,0.5
2025-12-25T1200,2439A,112.2014,31.0481,荆门市,竹园小学,颗粒物(PM10),76,102,98,43,46,59,59,23,23,20,31,8,2,0,0.2
2025-12-25T1200,2440A,112.1969,30.9891,荆门市,掇刀,颗粒物(PM10),80,109,102,44,49,61,61,43,40,17,21,7,4,0.5,0.6
2025-12-25T1200,2441A,112.2213,31.0386,荆门市,石化一小,颗粒物(PM10),88,125,119,43,56,53,53,24,24,24,37,11,9,0,0.1
2025-12-25T1200,3012A,112.1849,31.0362,荆门市,西山林语,颗粒物(PM10),77,103,93,33,40,60,60,32,32,19,23,8,5,0.5,0.6
2025-12-25T1200,3547A,112.1632,31.0138,荆门市,龙泉中学南校,颗粒物(PM10),80,110,101,43,44,69,69,55,55,18,18,11,8,0.5,0.5
2025-12-25T1200,1844A,112.2494,30.3197,荆州市,市图书馆,细颗粒物(PM2.5),75,94,72,55,53,65,65,38,38,14,27,9,8,0.6,0.6
2025-12-25T1200,1845A,112.2008,30.3544,荆州市,市委党校,细颗粒物(PM2.5),79,101,82,58,53,58,58,31,31,16,30,7,5,0.7,0.7
2025-12-25T1200,3194A,112.2747,30.3122,荆州市,管委会,细颗粒物(PM2.5),80,88,73,59,54,60,60,28,28,14,30,8,6,0.8,0.8
2025-12-25T1200,4268A,112.1722,30.3366,荆州市,学苑路85号,颗粒物(PM10),72,94,72,49,47,66,66,32,32,16,29,7,6,0.8,0.9
2025-12-25T1200,2342A,117.3102,29.3867,景德镇市,王港中学,,,,,,,,,,,,,,,,
2025-12-25T1200,2343A,117.2117,29.2933,景德镇市,老干部活动中心,细颗粒物(PM2.5),74,54,18,54,18,58,58,37,37,8,13,6,6,0.5,0.6
2025-12-25T1200,2344A,117.1894,29.2789,景德镇市,兽医站,颗粒物(PM10),53,56,23,31,12,62,62,41,41,9,16,7,6,0.4,0.5
2025-12-25T1200,2346A,117.2461,29.2956,景德镇市,陶研所,细颗粒物(PM2.5),65,47,14,47,18,64,64,40,40,10,16,4,4,0.5,0.7
2025-12-25T1200,4289A,117.1542,29.2566,景德镇市,青少年活动中心,颗粒物(PM10),54,58,16,34,14,65,65,43,43,11,18,3,3,0.5,0.6
2025-12-25T1200,1803A,115.9872,29.6815,九江市,十里,细颗粒物(PM2.5),65,59,45,47,37,81,81,42,42,11,20,7,4,0.5,0.5
2025-12-25T1200,1804A,115.9584,29.7046,九江市,茅山头,细颗粒物(PM2.5),72,57,53,52,41,75,75,37,37,9,14,6,4,0.8,0.7
2025-12-25T1200,1805A,115.9877,29.7295,九江市,西园,细颗粒物(PM2.5),67,66,50,48,35,82,82,40,40,18,26,6,3,0.6,0.6
2025-12-25T1200,1808A,115.9114,29.6038,九江市,综合工业园,,,,42,,43,79,79,47,47,20,19,4,3,0.8,0.9
2025-12-25T1200,1809A,116.0721,29.7535,九江市,石化总厂,细颗粒物(PM2.5),73,71,53,53,44,77,77,41,41,16,19,7,6,0.6,0.6
2025-12-25T1200,1810A,115.9773,29.5698,九江市,庐山气象台,,,,,,,,,,,,,,,,
2025-12-25T1200,3190A,116.0254,29.6994,九江市,外国语学校,,,57,41,44,35,72,72,32,31,20,26,,7,,0.6
2025-12-25T1200,4253A,116.0102,29.6594,九江市,莲花大道8号,细颗粒物(PM2.5),75,65,47,55,40,71,71,38,38,19,21,6,3,0.5,0.5
2025-12-25T1200,4240A,98.4958,39.7339,酒泉市,玉门东路5号,颗粒物(PM10),58,66,58,27,30,51,51,42,36,23,18,38,16,0.8,0.6
2025-12-25T1200,4241A,98.5099,39.7506,酒泉市,北大街108号,,,,61,,26,,,46,37,28,24,48,16,,0.7
2025-12-25T1200,2698A,76.0072,39.4467,喀什地区,巡警大队,颗粒物(PM10),60,69,92,34,51,67,67,63,63,18,23,3,3,0.5,0.8
2025-12-25T1200,2699A,75.9755,39.4694,喀什地区,吾办,颗粒物(PM10),67,83,103,42,62,62,62,62,61,15,20,1,3,0.6,0.9
2025-12-25T1200,4027A,75.9483,39.4689,喀什地区,老干局,颗粒物(PM10),66,81,104,36,52,68,68,62,61,13,19,2,2,0.7,1
2025-12-25T1200,1824A,114.3389,34.7781,开封市,肿瘤医院,细颗粒物(PM2.5),58,58,116,41,64,46,46,24,24,22,41,6,5,0.8,0.9
2025-12-25T1200,1826A,114.2885,34.7965,开封市,世纪星幼儿园,细颗粒物(PM2.5),64,,122,46,75,47,47,16,,20,43,5,4,0.5,0.7
2025-12-25T1200,3147A,114.3438,34.8106,开封市,龙亭公园,颗粒物(PM10),57,64,123,39,73,46,46,21,21,22,47,6,4,0.7,0.8
2025-12-25T1200,3210A,114.3644,34.7964,开封市,汴京公园,颗粒物(PM10),69,88,135,47,68,44,44,21,21,27,47,8,5,0.5,0.7
2025-12-25T1200,3473A,114.2485,34.8306,开封市,技师学院,细颗粒物(PM2.5),65,70,141,47,78,40,40,16,16,28,49,7,7,0.5,0.7
2025-12-25T1200,3592A,114.4644,34.7556,开封市,祥符区生态环境局,细颗粒物(PM2.5),73,56,119,53,72,44,44,21,21,28,50,11,7,0.4,0.6
2025-12-25T1200,1951A,84.895,45.6094,克拉玛依市,长征新村,细颗粒物(PM2.5),89,75,64,66,52,24,24,34,30,41,36,6,5,0.8,0.7
2025-12-25T1200,1952A,84.8988,45.5893,克拉玛依市,南林小区,细颗粒物(PM2.5),62,61,67,44,42,29,29,31,29,21,23,4,4,0.9,1.1
2025-12-25T1200,1954A,84.905,44.3396,克拉玛依市,独山子区,细颗粒物(PM2.5),69,66,61,50,39,46,46,36,36,18,30,5,5,0.7,0.7
2025-12-25T1200,1955A,85.6979,46.098,克拉玛依市,乌尔禾区商贸楼,细颗粒物(PM2.5),65,52,44,47,48,26,26,33,28,22,20,4,4,0.7,0.7
2025-12-25T1200,3612A,85.1045,45.6899,克拉玛依市,白碱滩区新站,细颗粒物(PM2.5),104,116,91,78,61,12,12,8,4,35,40,7,7,0.8,0.8
2025-12-25T1200,2697A,76.1454,39.7142,克孜勒苏柯尔克孜自治州,市人民政府,细颗粒物(PM2.5),78,99,94,57,50,58,58,55,55,14,15,5,5,0.5,0.5
2025-12-25T1200,3665A,76.1658,39.7157,克孜勒苏柯尔克孜自治州,克州文化中心,细颗粒物(PM2.5),78,93,88,57,49,55,55,50,50,14,15,8,8,0.8,0.8
2025-12-25T1200,1450A,102.8204,24.8886,昆明市,呈贡新区,,32,27,35,22,25,42,42,34,34,15,17,2,3,0.7,0.6
2025-12-25T1200,1451A,102.6251,24.9608,昆明市,西山森林公园,,,,,,,,,,,,,,,,
2025-12-25T1200,1452A,102.7252,25.0902,昆明市,龙泉镇,,25,25,35,17,23,43,43,42,42,12,16,2,2,0.5,0.5
2025-12-25T1200,1453A,102.7266,25.0375,昆明市,东风东路,,50,50,37,25,25,31,31,37,37,29,24,3,3,0.6,0.5
2025-12-25T1200,1454A,102.6742,25.0669,昆明市,金鼎山,,29,29,33,20,23,41,41,42,42,16,17,2,3,0.5,0.4
2025-12-25T1200,1455A,102.6644,25.0401,昆明市,碧鸡广场,,34,34,41,20,25,35,35,38,38,21,23,2,3,0.5,0.5
2025-12-25T1200,3179A,102.7494,25.0119,昆明市,官渡区博物馆,,32,31,34,22,20,33,33,34,34,24,21,2,2,0.5,0.4
2025-12-25T1200,3375A,102.8017,24.8336,昆明市,青年创业园,,35,32,31,24,30,36,36,33,33,11,8,2,2,0.6,0.6
2025-12-25T1200,3550A,102.7997,24.9786,昆明市,昆明学院,,21,21,36,14,22,35,35,36,36,13,14,2,2,0.5,0.4
2025-12-25T1200,3551A,102.5967,24.6736,昆明市,晋宁区生态环境分局,,15,15,42,9,23,33,33,22,22,12,16,1,2,0.5,0.5
2025-12-25T1200,3552A,102.6678,24.9856,昆明市,云天化总部,,35,35,31,21,22,34,34,35,35,22,17,4,5,0.5,0.4
2025-12-25T1200,1456A,91.1319,29.6514,拉萨市,八廓街,,21,21,23,13,14,61,61,55,54,12,18,12,13,0.5,0.6
2025-12-25T1200,1457A,91.1221,29.6747,拉萨市,市环保局,,26,26,40,13,27,55,55,36,36,14,25,12,8,0.4,0.9
2025-12-25T1200,1458A,91.0874,29.6475,拉萨市,区监测站,,17,17,20,8,12,54,54,44,44,16,29,14,10,0.7,0.8
2025-12-25T1200,1459A,91.1774,29.6541,拉萨市,西藏大学,,19,15,18,3,9,60,60,54,52,10,18,17,12,0.5,0.7
2025-12-25T1200,1460A,90.9798,29.6588,拉萨市,区辐射站,颗粒物(PM10),54,58,43,30,26,48,48,37,24,35,36,13,6,0.7,0.8
2025-12-25T1200,1461A,91.0834,29.6292,拉萨市,拉萨火车站,,29,29,24,11,16,49,49,23,23,23,35,16,8,0.6,0.9
2025-12-25T1200,2520A,109.2203,23.7256,来宾市,来宾技工学校,,39,39,14,7,3,64,64,46,46,6,6,5,5,0.4,0.6
2025-12-25T1200,3535A,109.1781,23.7297,来宾市,兴宾区政府,,,30,13,19,8,,,49,49,7,9,4,4,0.5,0.8
2025-12-25T1200,4002A,109.2416,23.7461,来宾市,中南小学,,42,42,15,13,8,66,66,46,46,5,7,4,3,0.3,0.5
2025-12-25T1200,1477A,104.1373,35.9454,兰州市,榆中兰大校区,,,,,,,,,,,,,,,,
2025-12-25T1200,1479A,103.831,36.0464,兰州市,铁路设计院,,,,,,,,,,,,,,,,
2025-12-25T1200,3241A,103.7439,36.0842,兰州市,百合公园,颗粒物(PM10),53,56,49,29,29,27,27,13,11,53,40,10,9,1.0,0.7
2025-12-25T1200,3242A,103.9611,35.998,兰州市,和平,细颗粒物(PM2.5),90,99,53,67,35,47,47,32,27,29,21,16,7,1.5,0.9
2025-12-25T1200,4236A,103.6293,36.0938,兰州市,庄浪东路808号,颗粒物(PM10),74,97,61,42,35,38,38,25,17,52,33,25,13,1.1,0.7
2025-12-25T1200,4237A,103.7251,36.1043,兰州市,安宁西路88号,颗粒物(PM10),58,65,61,35,30,44,44,22,17,45,34,14,7,0.8,0.5
2025-12-25T1200,4238A,103.8470,36.0676,兰州市,北滨河东路1号,颗粒物(PM10),59,67,54,39,31,29,29,9,9,48,49,28,11,2.3,0.9
2025-12-25T1200,3245A,103.6633,36.533,兰州新区,新区管委会,细颗粒物(PM2.5),55,51,58,39,32,57,57,27,26,18,21,18,11,0.5,0.6
2025-12-25T1200,3246A,103.6975,36.4789,兰州新区,舟曲中学,颗粒物(PM10),54,57,56,28,26,68,68,30,26,13,26,15,9,0.5,0.5
2025-12-25T1200,1067A,116.6708,39.5111,廊坊市,药材公司,,17,,19,3,6,52,52,52,49,8,9,2,2,0.4,0.4
2025-12-25T1200,1068A,116.7214,39.5589,廊坊市,开发区,,17,8,19,3,6,54,54,52,50,10,12,3,2,0.2,0.2
2025-12-25T1200,1070A,116.7244,39.5269,廊坊市,北华航天学院,,17,14,23,6,6,52,52,52,48,10,12,2,2,0.3,0.3
2025-12-25T1200,2919A,116.7022,39.5453,廊坊市,河北工业大学,,18,18,23,6,8,50,50,51,49,10,13,2,2,0.2,0.2
2025-12-25T1200,2535A,103.7723,29.5462,乐山市,花湖湾,,,,,,,,,,,,,,,,
2025-12-25T1200,2536A,103.7627,29.5844,乐山市,牛耳桥,细颗粒物(PM2.5),107,102,96,80,62,12,12,4,4,29,39,11,9,1.0,0.8
2025-12-25T1200,2537A,103.7508,29.6006,乐山市,市第三水厂,细颗粒物(PM2.5),102,120,96,76,59,9,9,2,2,34,43,,7,1.3,0.9
2025-12-25T1200,2538A,103.7571,29.5664,乐山市,市监测站,细颗粒物(PM2.5),112,123,102,84,59,10,10,2,2,29,36,14,9,1.2,0.8
2025-12-25T1200,3361A,103.7311,29.5628,乐山市,理工大学,细颗粒物(PM2.5),95,105,98,71,58,14,14,3,3,27,38,6,5,0.9,0.8
2025-12-25T1200,2598A,100.2143,26.8576,丽江市,西南郊,,,,,,,,,,,,,,,,
2025-12-25T1200,2599A,100.2497,26.8802,丽江市,丽江古城,,38,37,27,26,14,68,68,42,41,10,13,11,8,0.5,0.5
2025-12-25T1200,2600A,100.2203,26.8906,丽江市,市中心,,27,27,16,15,12,61,61,43,41,14,14,9,6,0.4,0.4
2025-12-25T1200,1267A,119.914,28.4514,丽水市,监测站大楼,,,34,21,29,22,65,65,40,40,,30,5,5,0.5,0.7
2025-12-25T1200,1268A,119.93,28.4586,丽水市,莲都小学,细颗粒物(PM2.5),53,54,27,37,18,65,65,48,48,15,28,4,4,0.4,0.6
2025-12-25T1200,1269A,119.879,28.4231,丽水市,余庄前,,43,43,24,30,18,67,67,36,36,11,24,4,4,0.4,0.5
2025-12-25T1200,1173A,119.176,34.5885,连云港市,市环境监测站,,27,27,66,7,40,56,56,26,26,8,43,12,12,0.6,0.7
2025-12-25T1200,3000A,119.3581,34.6972,连云港市,德源药业,颗粒物(PM10),60,70,93,7,40,61,61,36,36,15,46,6,8,0.5,0.9
2025-12-25T1200,3007A,119.178,34.844,连云港市,新城一中,,44,44,74,3,45,61,61,33,33,8,43,10,13,0.9,1.1
2025-12-25T1200,3008A,119.3608,34.7519,连云港市,胡沟管理处,,22,22,59,3,32,60,60,44,44,11,24,7,10,0.8,1.1
2025-12-25T1200,3009A,119.1478,34.5911,连云港市,矿山设计院,,,24,69,3,36,58,58,30,30,8,43,,12,0.8,1
2025-12-25T1200,3434A,119.2413,34.6539,连云港市,工贸学校,,18,11,54,3,38,55,55,25,25,7,34,10,11,0.7,1
2025-12-25T1200,3664A,119.4172,34.7341,连云港市,连云街道,,18,18,62,6,33,52,52,33,33,20,40,9,9,0.8,1.1
2025-12-25T1200,2571A,102.3431,27.8099,凉山彝族自治州,青龙寺,,,,,,,,,,,,,,,,
2025-12-25T1200,2572A,102.2721,27.8415,凉山彝族自治州,邛海宾馆,,20,17,29,14,22,48,48,42,38,9,15,6,7,0.5,0.6
2025-12-25T1200,2573A,102.2625,27.898,凉山彝族自治州,西昌市政府,,27,27,48,11,39,50,50,44,44,9,14,7,6,0.5,0.7
2025-12-25T1200,2574A,102.2685,27.8851,凉山彝族自治州,凉山州政府,,33,,57,23,40,46,46,38,38,11,16,8,8,0.6,0.7
2025-12-25T1200,4229A,102.2342,27.8859,凉山彝族自治州,凯乐南路30号,,,25,44,12,29,49,49,47,44,18,19,10,9,,1
2025-12-25T1200,2212A,123.2,41.1953,辽阳市,宏伟区,,32,25,49,22,44,54,54,50,50,5,26,6,13,0.5,0.8
2025-12-25T1200,2213A,123.1683,41.2495,辽阳市,新华园,,17,15,57,10,45,52,52,44,44,7,33,8,11,0.6,1.1
2025-12-25T1200,2214A,123.2354,41.2639,辽阳市,滨河路,,22,18,73,15,53,47,47,35,35,5,39,6,8,0.4,1.1
2025-12-25T1200,2215A,123.149,41.2991,辽阳市,铁西工业园,,20,,59,14,51,48,48,30,30,7,37,7,8,0.5,1.1
2025-12-25T1200,2227A,125.1358,42.8845,辽源市,环保局,颗粒物(PM10),61,71,103,10,41,51,51,47,47,6,26,4,4,0.4,1
2025-12-25T1200,3239A,125.0764,42.9078,辽源市,银鹰制药,,26,26,59,3,41,50,50,42,42,6,29,4,6,0.3,0.7
2025-12-25T1200,1625A,115.9848,36.4372,聊城市,区政府,,18,16,64,3,41,57,57,46,46,17,45,10,10,0.4,0.8
2025-12-25T1200,2878A,116.0072,36.4343,聊城市,聊大东校,,19,14,67,13,46,60,60,48,48,16,41,9,9,0.7,0.9
2025-12-25T1200,3200A,115.9819,36.4978,聊城市,监控中心,,19,19,71,12,51,55,55,35,35,12,37,16,12,0.8,1
2025-12-25T1200,3513A,116.0445,36.4361,聊城市,九州社区,,21,21,80,3,49,66,66,46,46,10,31,2,3,0.3,0.6
2025-12-25T1200,4018A,116.0567,36.4608,聊城市,星美广场,,20,20,80,3,46,60,60,43,43,8,34,2,4,0.3,0.6
2025-12-25T1200,2632A,94.3681,29.6376,林芝市,林芝监测站,,,,21,5,7,,,69,54,5,5,,5,0.3,0.3
2025-12-25T1200,2633A,94.3616,29.6616,林芝市,林芝人民医院,,37,37,26,13,9,54,54,64,52,16,5,4,4,0.6,0.3
2025-12-25T1200,2603A,100.0781,23.8982,临沧市,市环保局,,40,33,33,28,44,41,41,18,18,11,10,10,7,0.6,0.6
2025-12-25T1200,2604A,100.0894,23.8822,临沧市,市气象局,,44,44,36,24,25,41,41,17,17,14,12,8,6,0.4,0.4
2025-12-25T1200,1733A,111.5531,36.0783,临汾市,临钢医院,,18,9,72,7,22,55,55,22,22,12,25,5,7,0.4,0.5
2025-12-25T1200,1734A,111.5028,36.0714,临汾市,技工学校,,18,16,64,3,22,57,57,39,39,10,22,4,5,0.3,0.4
2025-12-25T1200,1736A,111.5018,36.0855,临汾市,市委,,30,30,68,7,13,60,60,46,46,14,23,6,8,0.7,0.8
2025-12-25T1200,3018A,111.505,36.1014,临汾市,唐尧大酒店,,,,71,,15,57,57,42,42,,24,2,4,0.3,0.5
2025-12-25T1200,4244A,111.4879,36.0530,临汾市,启星学校,,22,16,59,15,22,60,60,36,36,13,29,6,8,0.7,0.9
2025-12-25T1200,4271A,103.2464,35.6123,临夏回族自治州,滨河东路1号,颗粒物(PM10),90,129,110,56,56,30,30,16,16,27,26,5,5,1.0,1.1
2025-12-25T1200,4310A,103.2093,35.5995,临夏回族自治州,新华街21号,细颗粒物(PM2.5),115,121,88,87,53,27,27,23,16,34,24,9,9,1.5,1
2025-12-25T1200,1618A,118.3429,35.0532,临沂市,沂河小区,,29,24,85,20,65,53,53,35,35,20,46,10,12,0.4,0.7
2025-12-25T1200,1619A,118.295,35.0583,临沂市,鲁南制药厂,,24,24,100,16,64,61,61,27,27,18,55,10,16,0.2,0.7
2025-12-25T1200,1620A,118.2794,34.9976,临沂市,新光毛纺厂,,26,19,102,18,69,53,53,17,17,13,54,10,14,0.3,0.8
2025-12-25T1200,1621A,118.3956,35.0888,临沂市,河东保险公司,,18,17,83,9,53,57,57,35,35,10,41,9,9,0.5,0.8
2025-12-25T1200,3370A,118.3564,35.0215,临沂市,十里堡居委,,19,19,77,3,44,55,55,35,35,23,47,9,12,0.4,0.8
2025-12-25T1200,3496A,118.3604,35.1084,临沂市,南坊新区,,22,22,82,9,55,56,56,35,35,18,47,10,11,0.4,0.7
2025-12-25T1200,3860A,118.3920,35.0300,临沂市,皇山花园小区,,,19,81,12,52,54,54,40,40,18,44,12,13,,0.8
2025-12-25T1200,1870A,109.4856,24.3895,柳州市,柳东小学,,37,37,17,24,13,55,55,44,44,4,6,7,6,0.5,0.7
2025-12-25T1200,1871A,109.4157,24.3277,柳州市,环保监测站,,37,37,22,18,14,57,57,44,44,8,11,6,6,0.3,0.6
2025-12-25T1200,1872A,109.389,24.341,柳州市,河西水厂,,45,45,25,17,18,57,57,34,34,16,27,10,10,0.7,1.4
2025-12-25T1200,1873A,109.4311,24.2921,柳州市,市四中,,48,48,23,13,8,57,57,46,46,8,10,9,8,0.4,0.5
2025-12-25T1200,1874A,109.4006,24.3631,柳州市,市九中,,,36,20,28,12,55,55,40,,10,14,,9,0.4,0.5
2025-12-25T1200,1875A,109.4958,24.3134,柳州市,古亭山,,39,39,17,6,5,53,53,43,43,8,9,8,8,0.6,0.8
2025-12-25T1200,3402A,109.5422,24.3996,柳州市,市二中,,39,39,15,19,12,56,56,38,38,11,12,7,7,0.6,0.8
2025-12-25T1200,2307A,116.5079,31.737,六安市,监测大楼,细颗粒物(PM2.5),79,81,89,58,71,51,51,22,22,27,32,6,3,0.5,0.6
2025-12-25T1200,2308A,116.4738,31.7643,六安市,皖西学院,,,,95,,70,55,55,18,18,25,36,,2,,0.6
2025-12-25T1200,2309A,116.4996,31.7905,六安市,朝阳厂,细颗粒物(PM2.5),85,71,84,63,64,54,54,20,20,24,34,6,3,0.6,0.7
2025-12-25T1200,2310A,116.5567,31.7886,六安市,开发区,细颗粒物(PM2.5),77,90,100,56,66,58,58,20,20,28,36,5,1,0.5,0.6
2025-12-25T1200,2576A,104.8,26.5892,六盘水市,窑上,,44,44,42,17,29,68,68,61,61,9,8,3,2,0.3,0.3
2025-12-25T1200,2577A,104.83,26.5917,六盘水市,黄土坡,,39,39,31,24,22,58,58,58,54,14,13,10,6,0.5,0.5
2025-12-25T1200,2578A,104.89,26.5939,六盘水市,水钢,,32,32,35,16,25,57,57,52,49,15,18,17,9,0.7,0.6
2025-12-25T1200,2579A,104.8475,26.5894,六盘水市,民中,,36,36,31,22,22,52,52,57,48,15,14,6,4,0.5,0.5
2025-12-25T1200,2580A,104.9544,26.5506,六盘水市,双水,,,,39,,25,56,56,57,56,,9,,3,0.3,0.4
2025-12-25T1200,2335A,117.0189,25.1181,龙岩市,龙岩师专,,,,,,,,,,,,,,,,
2025-12-25T1200,2336A,117.0217,25.1033,龙岩市,龙岩市监测站,,9,6,20,3,14,26,26,28,23,10,14,10,10,0.5,0.5
2025-12-25T1200,2337A,117.0258,25.0661,龙岩市,闽西职业技术学院,,10,6,22,3,14,31,31,32,25,7,15,6,6,0.7,0.6
2025-12-25T1200,2338A,117.0196,25.0306,龙岩市,龙岩学院,,12,12,21,3,16,31,31,31,23,8,11,6,7,0.6,0.6
2025-12-25T1200,2665A,105.0822,33.3261,陇南市,汉王镇固水子,,,,,,,,,,,,,,,,
2025-12-25T1200,2885A,104.9339,33.3826,陇南市,滨江中学,,,56,59,24,30,,,27,27,27,33,11,12,0.8,1
2025-12-25T1200,3247A,104.955,33.371,陇南市,市总工会,颗粒物(PM10),57,63,62,30,21,46,46,44,33,26,20,9,5,0.8,0.7
2025-12-25T1200,2487A,111.9589,27.8901,娄底市,电视发射台,,,,,,,,,,,,,,,,
2025-12-25T1200,2488A,111.9975,27.725,娄底市,市监测站,颗粒物(PM10),66,81,59,31,38,85,85,67,67,8,18,5,9,0.5,0.7
2025-12-25T1200,2489A,112.0194,27.7314,娄底市,市委党校,颗粒物(PM10),90,130,74,29,38,72,72,59,59,14,17,7,7,0.2,0.3
2025-12-25T1200,2490A,111.9561,27.7569,娄底市,涟钢,,,58,59,3,32,70,70,58,58,,16,7,7,,0.5
2025-12-25T1200,2491A,111.9892,27.7044,娄底市,市政府,颗粒物(PM10),69,88,54,40,34,80,80,67,67,12,13,5,6,4.4,2
2025-12-25T1200,1893A,105.4324,28.9634,泸州市,九狮山,,,,,,,,,,,,,,,,
2025-12-25T1200,1894A,105.4427,28.9063,泸州市,小市上码头,,,89,67,54,37,,,8,0,28,30,10,9,0.8,0.6
2025-12-25T1200,1895A,105.4241,28.8573,泸州市,兰田宪桥,细颗粒物(PM2.5),79,81,52,58,40,5,5,8,4,25,23,8,7,0.9,0.7
2025-12-25T1200,1896A,105.4379,28.8833,泸州市,市环监站,细颗粒物(PM2.5),80,91,65,59,39,6,6,10,5,22,26,10,10,0.7,0.6
2025-12-25T1200,4272A,105.3689,28.7783,泸州市,纳溪中医医院,细颗粒物(PM2.5),87,82,67,64,48,7,7,1,1,20,19,9,8,0.9,0.8
2025-12-25T1200,2183A,111.1406,37.5211,吕梁市,环保局,颗粒物(PM10),60,70,84,8,25,42,42,12,12,14,31,6,5,0.6,0.6
2025-12-25T1200,2185A,111.1297,37.5136,吕梁市,自来水公司,颗粒物(PM10),64,78,97,13,29,36,36,10,10,21,31,8,7,0.8,0.8
2025-12-25T1200,2867A,111.1283,37.51,吕梁市,马茂庄小学,颗粒物(PM10),63,76,85,18,25,29,29,7,7,23,34,8,6,1.1,0.8
2025-12-25T1200,1812A,112.3931,34.6516,洛阳市,市委党校,颗粒物(PM10),53,55,87,24,33,54,54,25,25,19,27,12,11,0.6,0.7
2025-12-25T1200,1815A,112.494,34.6886,洛阳市,河南林校,颗粒物(PM10),60,70,104,28,41,47,47,13,13,25,38,13,9,0.8,0.8
2025-12-25T1200,1816A,112.3844,34.623,洛阳市,开发区管委会,颗粒物(PM10),52,54,87,25,36,53,53,34,32,11,14,11,9,0.7,0.6
2025-12-25T1200,1817A,112.4267,34.6258,洛阳市,市委新办公区,颗粒物(PM10),53,55,94,32,42,48,48,32,30,20,22,12,10,0.5,0.5
2025-12-25T1200,3340A,112.6005,34.6326,洛阳市,伊滨,颗粒物(PM10),59,67,103,23,42,49,49,27,27,16,19,12,8,0.6,0.5
2025-12-25T1200,3341A,112.4951,34.6332,洛阳市,中移产业园,颗粒物(PM10),55,60,90,31,36,45,45,30,25,26,29,13,11,0.6,0.6
2025-12-25T1200,3593A,112.5736,34.8993,洛阳市,吉利监测站,颗粒物(PM10),54,58,87,34,30,41,41,18,18,33,32,10,8,0.7,0.8
2025-12-25T1200,3635A,112.3677,34.662,洛阳市,河科大西苑校区,颗粒物(PM10),56,62,94,28,31,54,54,22,22,14,22,12,11,0.8,0.8
2025-12-25T1200,3636A,112.4388,34.6781,洛阳市,英才小学,"颗粒物(PM10),细颗粒物(PM2.5)",53,56,100,37,48,50,50,15,15,25,44,14,14,0.7,0.9
2025-12-25T1200,4214A,112.4600,34.6949,洛阳市,春都路1号院,颗粒物(PM10),62,74,114,31,36,43,43,14,14,28,38,15,10,1.0,1
2025-12-25T1200,2399A,114.051,33.5699,漯河市,三五一五工厂,细颗粒物(PM2.5),113,163,119,85,74,37,37,19,19,35,43,11,7,0.7,0.6
2025-12-25T1200,2400A,114.0055,33.5698,漯河市,漯河大学,颗粒物(PM10),87,124,106,44,70,48,48,21,21,33,43,10,6,0.8,0.8
2025-12-25T1200,2401A,114.0138,33.5828,漯河市,市水利局,细颗粒物(PM2.5),104,122,107,78,72,33,33,15,15,35,40,10,7,0.7,0.7
2025-12-25T1200,2402A,114.0261,33.5698,漯河市,市广电局,细颗粒物(PM2.5),108,125,107,81,71,46,46,20,20,32,41,11,7,0.6,0.6
2025-12-25T1200,3478A,113.9749,33.5664,漯河市,市图书馆,细颗粒物(PM2.5),113,142,117,85,78,42,42,19,19,30,36,8,5,0.9,0.8
2025-12-25T1200,4250A,114.0892,33.5882,漯河市,韶山路11号,细颗粒物(PM2.5),117,148,115,88,73,37,37,10,10,36,45,12,9,0.9,0.8
2025-12-25T1200,1798A,118.5092,31.6837,马鞍山市,湖东路四小,细颗粒物(PM2.5),115,135,117,87,84,65,65,27,27,25,38,10,11,0.8,1.1
2025-12-25T1200,1799A,118.5024,31.6449,马鞍山市,开发区,,,,116,,87,59,59,18,18,29,44,,12,1.2,1.6
2025-12-25T1200,1802A,118.6245,31.7241,马鞍山市,濮塘,,,,,,,,,,,,,,,,
2025-12-25T1200,3633A,118.4918,31.6809,马鞍山市,雨山,细颗粒物(PM2.5),112,135,127,84,86,61,61,21,21,31,47,18,21,1.5,1.9
2025-12-25T1200,4191A,118.5274,31.72227,马鞍山市,慈湖高新区,细颗粒物(PM2.5),113,128,119,85,87,66,66,27,27,24,36,9,6,0.7,0.8
2025-12-25T1200,1686A,111.0286,21.4688,茂名市,电白南海,,44,44,41,22,24,33,33,30,27,14,16,11,10,1.1,1
2025-12-25T1200,1687A,110.9294,21.6533,茂名市,茂石化七小,,39,39,39,17,17,32,32,29,29,16,18,7,8,0.7,0.6
2025-12-25T1200,1688A,110.9107,21.6687,茂名市,健康路,,31,31,32,9,15,34,34,31,31,10,15,10,13,0.7,0.6
2025-12-25T1200,1689A,110.8592,21.6828,茂名市,高岭,,39,39,46,12,14,31,31,29,29,17,19,15,12,0.8,0.6
2025-12-25T1200,3450A,111.01,21.5165,茂名市,电白水东,,44,44,34,17,18,30,30,30,26,15,15,10,8,1.0,0.9
2025-12-25T1200,2539A,104.0308,30.0478,眉山市,黑龙滩水库,,,,,,,,,,,,,,,,
2025-12-25T1200,2540A,103.8416,30.0874,眉山市,气象局,细颗粒物(PM2.5),94,109,100,70,56,11,11,6,6,50,41,12,10,0.9,0.7
2025-12-25T1200,3137A,103.8578,30.0744,眉山市,市委党校,颗粒物(PM10),73,95,85,48,41,14,14,3,3,41,41,8,8,0.7,0.6
2025-12-25T1200,3148A,103.8291,30.0564,眉山市,区人社局,细颗粒物(PM2.5),85,109,94,63,47,12,12,4,4,47,43,9,7,0.9,0.7
2025-12-25T1200,1690A,116.1231,24.3284,梅州市,梅江月梅,,10,,26,7,21,26,26,24,22,13,18,5,6,0.7,0.7
2025-12-25T1200,1691A,116.0797,24.2719,梅州市,梅县新城,,9,6,36,3,25,26,26,26,23,14,23,7,8,0.8,0.8
2025-12-25T1200,1692A,116.1248,24.2654,梅州市,环境监控中心,,13,,31,9,24,24,24,24,22,14,24,4,6,0.6,0.6
2025-12-25T1200,3315A,116.1233,24.2991,梅州市,梅龙,,8,7,31,3,20,25,25,24,22,11,20,7,8,0.7,0.8
2025-12-25T1200,1878A,104.7778,31.4741,绵阳市,富乐山,,,62,63,40,36,,,2,2,15,34,11,11,0.5,0.5
2025-12-25T1200,1880A,104.6697,31.4668,绵阳市,高新区自来水公司,颗粒物(PM10),54,58,99,24,47,38,38,9,9,30,41,9,9,0.6,0.7
2025-12-25T1200,1881A,104.7287,31.5075,绵阳市,三水厂,细颗粒物(PM2.5),87,116,98,64,50,45,45,8,8,23,35,8,8,0.5,0.7
2025-12-25T1200,3491A,104.69,31.5322,绵阳市,西科大附属小学,颗粒物(PM10),52,54,102,26,48,38,38,8,8,28,38,8,8,0.4,0.7
2025-12-25T1200,3492A,104.5648,31.5343,绵阳市,安州区旅游局,,47,47,93,27,52,50,50,14,14,23,39,14,14,0.4,0.8
2025-12-25T1200,4226A,104.7651,31.4531,绵阳市,绵阳市气象局,,,54,75,52,37,33,33,5,5,,37,8,8,,0.9
2025-12-25T1200,1784A,129.61,44.561,牡丹江市,环保大楼,细颗粒物(PM2.5),68,84,46,49,34,28,28,20,20,40,35,16,9,0.9,0.4
2025-12-25T1200,1785A,129.6115,44.5782,牡丹江市,文化广场,细颗粒物(PM2.5),107,145,67,80,49,,,13,13,52,40,,6,1.6,0.9
2025-12-25T1200,1787A,129.6364,44.6075,牡丹江市,机车工厂,颗粒物(PM10),86,122,75,43,39,24,24,15,15,37,36,33,26,0.8,0.6
2025-12-25T1200,1788A,129.6386,44.5462,牡丹江市,第一中学,细颗粒物(PM2.5),79,63,36,58,32,32,32,20,20,28,24,11,6,0.7,0.5
2025-12-25T1200,4287A,129.5992,44.5964,牡丹江市,东晓云街98号,细颗粒物(PM2.5),99,103,70,74,62,16,16,17,17,47,33,12,8,2.6,1.1
2025-12-25T1200,2531A,105.0703,29.61,内江市,市监测站,细颗粒物(PM2.5),59,51,50,42,34,36,36,20,20,22,23,5,5,0.8,0.7
2025-12-25T1200,2532A,105.0717,29.5947,内江市,东兴区政府,,50,47,48,35,29,25,25,7,7,27,27,6,5,0.5,0.5
2025-12-25T1200,2533A,105.0653,29.5817,内江市,内江二中,颗粒物(PM10),64,78,59,40,34,20,20,5,5,26,26,5,4,0.7,0.7
2025-12-25T1200,2534A,105.0406,29.5822,内江市,内江日报社,细颗粒物(PM2.5),63,54,49,45,32,23,23,7,7,24,29,3,3,0.6,0.5
2025-12-25T1200,2628A,92.0657,31.4846,那曲市,那曲监测站,细颗粒物(PM2.5),84,90,65,62,42,48,48,30,30,30,33,17,15,1.2,1.7
2025-12-25T1200,4243A,92.0515,31.4787,那曲市,那曲市委宣传部,细颗粒物(PM2.5),53,53,33,37,20,40,40,21,21,24,20,21,9,1.4,1.4
2025-12-25T1200,1290A,115.8931,28.6843,南昌市,省外办,细颗粒物(PM2.5),89,83,44,66,39,84,84,52,52,21,23,8,7,0.9,1
2025-12-25T1200,1291A,115.8886,28.7003,南昌市,省林业公司,细颗粒物(PM2.5),70,66,33,51,36,83,83,50,50,6,13,5,3,0.6,0.6
2025-12-25T1200,1292A,115.8126,28.7442,南昌市,林科所,细颗粒物(PM2.5),70,75,38,51,31,68,68,42,42,15,19,7,5,0.6,0.6
2025-12-25T1200,1294A,115.8518,28.687,南昌市,建工学校,细颗粒物(PM2.5),72,73,45,52,36,68,68,41,41,18,23,13,11,0.9,0.9
2025-12-25T1200,1295A,115.8921,28.6424,南昌市,象湖,细颗粒物(PM2.5),67,58,35,48,33,67,67,43,43,19,20,9,8,0.7,0.8
2025-12-25T1200,1296A,115.7423,28.7996,南昌市,武术学校,,,,,,,,,,,,,,,,
2025-12-25T1200,3046A,115.9084,28.6062,南昌市,机电学校,,,,44,58,38,35,35,44,37,12,17,,4,0.5,0.6
2025-12-25T1200,3690A,115.9721,28.7031,南昌市,外国语学校,细颗粒物(PM2.5),79,84,46,58,39,66,66,40,40,18,22,10,9,0.6,0.6
2025-12-25T1200,4192A,115.9316,28.68677,南昌市,南京东路235号,细颗粒物(PM2.5),82,74,43,60,38,74,74,47,47,26,25,6,5,0.7,0.7
2025-12-25T1200,1905A,106.056,30.8064,南充市,西山风景区,,,,,,,,,,,,,,,,
2025-12-25T1200,1906A,106.0789,30.8023,南充市,南充市委,,,45,43,34,29,9,9,2,2,,23,4,5,,0.6
2025-12-25T1200,1907A,106.1031,30.8217,南充市,南充炼油厂,,46,44,45,32,32,12,12,4,4,15,20,6,6,0.6,0.6
2025-12-25T1200,4227A,106.1083,30.7884,南充市,梨树横街98号,,39,34,42,27,25,12,12,8,8,17,21,5,6,0.5,0.5
2025-12-25T1200,4304A,106.1172,30.843,南充市,清泉寺北路188号,,33,31,31,23,21,14,14,10,8,11,17,5,6,0.5,0.6
2025-12-25T1200,4305A,106.067,30.7616,南充市,同庆路1号,,49,44,42,34,25,11,11,4,4,23,24,6,6,0.9,0.5
2025-12-25T1200,1151A,118.8086,32.1065,南京市,迈皋桥,细颗粒物(PM2.5),89,104,101,66,71,73,73,42,42,21,22,7,4,0.1,0.4
2025-12-25T1200,1152A,118.7538,32.0551,南京市,草场门,细颗粒物(PM2.5),98,117,105,73,70,48,48,27,27,33,36,15,8,1.2,0.8
2025-12-25T1200,1153A,118.7794,32.0745,南京市,山西路,细颗粒物(PM2.5),98,117,117,73,75,66,66,35,35,35,41,4,4,0.9,0.8
2025-12-25T1200,1154A,118.7752,32.0023,南京市,中华门,细颗粒物(PM2.5),107,124,104,80,74,59,59,30,30,21,24,6,5,1.3,1
2025-12-25T1200,1155A,118.8109,32.0309,南京市,瑞金路,细颗粒物(PM2.5),98,112,111,73,76,57,57,30,30,31,35,4,4,0.8,0.9
2025-12-25T1200,1156A,118.7997,32.0754,南京市,玄武湖,细颗粒物(PM2.5),99,120,107,74,77,56,56,28,28,19,19,4,4,1.0,1.1
2025-12-25T1200,1157A,118.6414,32.0931,南京市,浦口,,,,112,,79,57,57,38,38,,28,,7,0.6,0.7
2025-12-25T1200,1158A,118.7356,31.9996,南京市,奥体中心,,,123,103,,73,59,59,36,36,25,43,,6,,0.7
2025-12-25T1200,1159A,118.9125,32.1028,南京市,仙林大学城,细颗粒物(PM2.5),79,97,104,58,75,54,54,22,22,22,37,10,7,0.8,0.9
2025-12-25T1200,3422A,118.8436,31.9198,南京市,江宁彩虹桥,细颗粒物(PM2.5),104,136,109,78,73,74,74,37,37,25,33,7,4,0.9,1
2025-12-25T1200,3427A,118.8554,32.3578,南京市,六合雄州,,,,107,,73,,,27,27,22,33,,7,0.3,0.6
2025-12-25T1200,4249A,118.8708,31.3402,南京市,汶溪路181号,细颗粒物(PM2.5),114,99,95,86,84,70,70,30,30,25,38,5,5,0.7,0.8
2025-12-25T1200,4312A,119.019,31.6512,南京市,中山西路1号,细颗粒物(PM2.5),114,95,84,86,80,67,67,25,25,29,36,4,4,0.8,0.8
2025-12-25T1200,1401A,108.3103,22.7881,南宁市,二十一中,,24,24,9,3,7,48,48,29,29,12,15,4,3,0.6,0.7
2025-12-25T1200,1402A,108.3141,22.8528,南宁市,北湖,,25,25,16,11,10,51,51,31,31,12,14,4,8,0.6,0.8
2025-12-25T1200,1403A,108.3206,22.8225,南宁市,市监测站,,24,24,13,16,11,44,44,25,25,9,12,7,6,0.6,0.7
2025-12-25T1200,1404A,108.3829,22.8037,南宁市,大自然花园,,21,18,12,10,9,65,65,40,40,8,13,5,5,0.4,0.6
2025-12-25T1200,1405A,108.4394,22.7904,南宁市,仙葫,,,,,,,,,,,,,,,,
2025-12-25T1200,1406A,108.2397,22.8467,南宁市,区农职院,,24,24,15,9,7,52,52,32,32,10,14,7,6,0.5,0.7
2025-12-25T1200,1407A,108.3275,22.735,南宁市,英华嘉园,,20,20,10,8,6,54,54,34,34,12,14,4,2,0.4,0.6
2025-12-25T1200,3401A,108.4834,22.7618,南宁市,红星社区,,,17,8,6,6,,,41,41,4,7,4,4,0.5,0.7
2025-12-25T1200,4221A,108.2177,22.7774,南宁市,乐贤路16号,,19,19,15,6,10,51,51,31,31,11,14,8,6,0.4,0.7
2025-12-25T1200,2331A,118.0966,26.6761,南平市,茫荡山,,,,14,,9,,,50,,,,,1,,
2025-12-25T1200,2332A,118.1681,26.6369,南平市,南平市监测站,,,,15,,12,22,22,14,11,14,17,3,3,,0.5
2025-12-25T1200,2333A,118.1825,26.6489,南平市,南平铝业有限公司,,8,6,16,3,11,25,25,14,11,12,13,4,4,0.7,0.7
2025-12-25T1200,2334A,118.1756,26.6272,南平市,南平七中,,8,6,18,3,11,22,22,13,10,16,15,5,6,0.7,0.7
2025-12-25T1200,1168A,120.9098,31.9663,南通市,狼山街道,"颗粒物(PM10),细颗粒物(PM2.5)",57,64,61,40,38,61,61,52,52,13,14,6,4,0.7,0.6
2025-12-25T1200,1169A,120.86,32.0005,南通市,虹桥,"颗粒物(PM10),细颗粒物(PM2.5)",54,57,58,38,40,58,58,48,46,19,21,6,4,0.6,0.6
2025-12-25T1200,1170A,120.87,32.02,南通市,城中,颗粒物(PM10),61,72,69,37,40,57,57,47,47,18,18,7,5,0.5,0.5
2025-12-25T1200,1171A,120.94,31.93,南通市,星湖花园,颗粒物(PM10),60,70,63,42,39,61,61,53,53,13,15,6,4,0.6,0.6
2025-12-25T1200,1172A,120.81,32.0417,南通市,紫琅学院,,,,71,,42,,,48,47,16,20,6,5,0.5,0.5
2025-12-25T1200,3291A,121.067,32.062,南通市,通州监测站,细颗粒物(PM2.5),55,58,55,39,39,65,65,54,54,18,19,5,3,0.6,0.6
2025-12-25T1200,3432A,120.9348,31.9883,南通市,环境教育馆,,,,63,,42,,,52,52,15,16,7,5,0.5,0.5
2025-12-25T1200,2404A,112.5224,33.0122,南阳市,瓦房庄,颗粒物(PM10),51,51,116,18,56,59,59,34,34,12,29,8,7,0.5,0.8
2025-12-25T1200,2405A,112.5003,32.9735,南阳市,汉画馆,颗粒物(PM10),54,57,121,32,62,54,54,18,18,14,34,7,6,0.5,0.8
2025-12-25T1200,2406A,112.5573,33.027,南阳市,气象站,颗粒物(PM10),51,51,136,14,52,64,64,35,35,8,28,6,6,0.6,0.8
2025-12-25T1200,2407A,112.5481,32.9689,南阳市,理工学院,颗粒物(PM10),51,52,117,24,52,56,56,20,20,14,36,7,7,0.5,0.8
2025-12-25T1200,4008A,112.5234,32.9922,南阳市,卧龙区政府,,43,43,129,24,57,60,60,28,28,15,37,7,6,0.5,0.8
2025-12-25T1200,1234A,121.8358,29.911,宁波市,区环保大楼,,44,44,41,25,24,57,57,46,46,24,30,6,5,0.7,0.7
2025-12-25T1200,1235A,121.56,29.82,宁波市,万里学院,,,38,47,27,35,,,41,41,17,30,5,5,0.8,1
2025-12-25T1200,1236A,121.713,29.9572,宁波市,龙赛医院,,38,34,36,26,33,55,55,40,40,22,31,5,4,0.5,0.5
2025-12-25T1200,1239A,121.633,29.7733,宁波市,钱湖水厂,,37,37,37,24,31,67,67,46,46,16,29,6,5,0.6,0.7
2025-12-25T1200,1240A,121.5856,29.8635,宁波市,太古小学,,37,37,39,24,27,66,66,47,47,13,24,2,2,0.6,0.6
2025-12-25T1200,1241A,121.524,29.8674,宁波市,市环境监测中心,,38,38,39,17,21,63,63,42,42,12,26,5,4,0.5,0.7
2025-12-25T1200,2871A,121.6147,29.9017,宁波市,万里国际学校,,41,41,50,23,32,68,68,48,48,15,28,4,3,0.4,0.5
2025-12-25T1200,3710A,121.5594,29.8975,宁波市,白沙活动中心,,39,39,38,20,25,63,63,46,46,18,30,5,4,0.7,0.8
2025-12-25T1200,2339A,119.5001,26.6946,宁德市,金涵水库,,,,40,,28,,,32,,,15,,2,,0.6
2025-12-25T1200,2341A,119.5388,26.6612,宁德市,宁德市监测站,,15,15,30,3,30,20,20,19,12,26,24,6,6,0.6,0.7
2025-12-25T1200,3209A,119.5231,26.6562,宁德市,宁德一中,,16,,29,11,30,20,20,21,13,30,26,4,4,0.5,0.5
2025-12-25T1200,2618A,98.8601,25.8567,怒江傈僳族自治州,州监测站,,31,31,35,17,23,41,41,26,26,9,13,7,6,0.4,0.5
2025-12-25T1200,2619A,98.8546,25.8417,怒江傈僳族自治州,泸水一中,,48,36,28,33,21,32,32,15,15,10,20,5,5,0.4,0.6
2025-12-25T1200,1888A,101.6891,26.571,攀枝花市,弄弄坪,,30,30,50,14,27,34,34,40,36,19,22,9,17,0.7,0.9
2025-12-25T1200,1889A,101.5769,26.5928,攀枝花市,河门口,,34,34,46,18,29,39,39,39,38,16,19,14,20,1.1,1.2
2025-12-25T1200,1890A,101.7169,26.585,攀枝花市,炳草岗,,38,38,48,16,27,23,23,35,34,29,24,13,14,0.8,0.9
2025-12-25T1200,1891A,101.7369,26.5008,攀枝花市,仁和,,24,24,50,15,33,41,41,24,24,16,23,11,14,0.7,1
2025-12-25T1200,2835A,101.7227,26.567,攀枝花市,四十中小,,37,37,46,19,30,38,38,41,37,15,18,16,21,0.7,0.9
2025-12-25T1200,1604A,122.0303,41.1489,盘锦市,开发区,,21,21,39,7,23,51,51,48,48,3,18,4,5,0.4,0.7
2025-12-25T1200,1605A,122.0485,41.0883,盘锦市,兴隆台,,18,18,32,8,19,48,48,44,44,7,24,7,8,0.4,0.6
2025-12-25T1200,1606A,121.8297,41.1028,盘锦市,新生街道,,19,19,26,3,17,48,48,39,39,7,28,7,6,0.2,0.4
2025-12-25T1200,1832A,113.3257,33.742,平顶山市,新华旅馆,颗粒物(PM10),62,74,117,33,44,55,55,40,40,24,28,11,11,0.6,0.5
2025-12-25T1200,1833A,113.2919,33.737,平顶山市,规划设计院,颗粒物(PM10),65,80,121,38,42,61,61,38,38,22,26,10,10,0.6,0.6
2025-12-25T1200,1834A,113.182,33.774,平顶山市,平顶山工学院,,,62,100,34,34,65,65,40,40,17,20,,12,,0.3
2025-12-25T1200,3204A,113.3025,33.73,平顶山市,规划局,,,83,122,39,45,,,39,39,18,25,11,10,0.6,0.6
2025-12-25T1200,3594A,112.8867,33.9116,平顶山市,石龙区,颗粒物(PM10),54,58,107,19,27,70,70,50,49,14,19,9,7,0.4,0.3
2025-12-25T1200,2656A,106.6692,35.5461,平凉市,聚贤嘉苑,,44,44,40,26,19,54,54,39,39,19,22,10,6,0.6,0.4
2025-12-25T1200,2657A,106.7021,35.5307,平凉市,博物馆,,,,43,21,19,54,54,38,37,21,20,,9,,0.5
2025-12-25T1200,2347A,114.0997,27.5002,萍乡市,武功山,,,,,,,,,,,,,,,,
2025-12-25T1200,2348A,113.8385,27.6434,萍乡市,中医院,,45,42,46,31,31,36,36,20,20,17,27,4,5,0.9,1.3
2025-12-25T1200,2349A,113.8493,27.6253,萍乡市,市政府车库,,39,39,40,26,28,36,36,20,20,11,20,7,8,1.0,0.9
2025-12-25T1200,2350A,113.8676,27.6435,萍乡市,市环保局,,42,40,30,29,27,37,37,22,22,14,22,10,14,0.4,0.7
2025-12-25T1200,2351A,113.866,27.6198,萍乡市,安源区政府,,36,,49,25,38,34,34,17,17,18,24,9,11,1.6,1
2025-12-25T1200,2319A,119.0141,25.4325,莆田市,荔城区仓后路,,,11,35,3,27,12,12,36,22,22,22,,2,,0.7
2025-12-25T1200,2320A,119.0015,25.4553,莆田市,莆田市监测站,,13,11,32,3,25,12,12,39,22,25,21,4,4,0.7,0.6
2025-12-25T1200,2321A,119.1119,25.4561,莆田市,涵江区六中,,13,8,29,3,22,15,15,38,20,26,20,4,3,0.7,0.6
2025-12-25T1200,2322A,119.1013,25.3215,莆田市,秀屿区政府,,12,10,34,3,29,24,24,40,25,23,24,3,4,0.8,0.7
2025-12-25T1200,2323A,118.981,25.4792,莆田市,东圳水库,,,,27,,25,,,67,,,2,,4,,0.6
2025-12-25T1200,2392A,115.0312,35.7636,濮阳市,环保局,,22,22,64,3,47,55,55,32,32,11,32,7,7,0.5,0.8
2025-12-25T1200,2394A,115.0574,35.7609,濮阳市,油田运输公司,,24,24,78,9,51,57,57,32,32,10,37,7,8,0.7,1
2025-12-25T1200,3021A,115,35.7668,濮阳市,濮水河管理处,,19,,71,10,51,58,58,36,36,7,34,6,6,0.4,0.8
2025-12-25T1200,4216A,115.0924,35.7686,濮阳市,任丘路479号,,,18,84,3,56,,,25,25,11,37,,6,0.6,1.1
2025-12-25T1200,2601A,100.98,22.7633,普洱市,市环保局,,50,50,44,17,10,56,56,23,23,16,10,4,4,0.4,0.4
2025-12-25T1200,2602A,100.9817,22.8322,普洱市,普洱第二中学,,40,40,38,13,16,54,54,17,17,10,17,5,4,0.3,0.4
2025-12-25T1200,2262A,131.0518,45.8751,七台河市,新一中,,,,,,,,,,,,,,,,
2025-12-25T1200,3345A,131.0577,45.7879,七台河市,中波台,,,69,57,39,38,,,31,30,12,27,,9,0.3,0.4
2025-12-25T1200,3637A,131.0176,45.7761,七台河市,人民广场,颗粒物(PM10),74,98,60,39,43,46,46,33,32,19,30,11,7,0.5,0.5
2025-12-25T1200,3684A,130.8781,45.8222,七台河市,新建矿广场,细颗粒物(PM2.5),58,46,60,41,28,51,51,27,27,7,21,12,9,0.2,0.5
2025-12-25T1200,1779A,123.9305,47.3636,齐齐哈尔市,安居小区,,30,30,33,6,28,45,45,38,36,8,17,2,4,0.5,0.6
2025-12-25T1200,1780A,123.9488,47.3386,齐齐哈尔市,中心广场,,20,,21,14,13,41,41,41,38,4,8,4,7,0.6,0.6
2025-12-25T1200,1781A,123.9483,47.3227,齐齐哈尔市,农牧车辆厂,,,19,23,17,12,,,34,31,,11,,6,,0.6
2025-12-25T1200,1783A,123.945,47.2988,齐齐哈尔市,市环境监测站,,29,29,22,12,12,43,43,42,39,5,9,6,7,0.5,0.5
2025-12-25T1200,3662A,123.6333,47.2075,齐齐哈尔市,富区青少年活动中心,,,32,26,7,14,45,45,41,39,11,17,,7,0.6,0.6
2025-12-25T1200,2591A,107.9783,26.5747,黔东南苗族侗族自治州,市环境监测站,,36,36,45,24,39,59,59,46,44,11,10,5,5,0.5,0.6
2025-12-25T1200,2881A,107.8908,26.5311,黔东南苗族侗族自治州,凯里学院,颗粒物(PM10),59,68,50,24,36,57,57,44,41,13,13,5,4,0.5,0.5
2025-12-25T1200,2593A,107.5228,26.2403,黔南布依族苗族自治州,小围寨,,,46,36,22,28,49,49,36,36,6,6,,4,,0.7
2025-12-25T1200,3538A,107.5175,26.2978,黔南布依族苗族自治州,沙坝,颗粒物(PM10),53,56,40,27,31,54,54,39,38,10,9,6,5,0.2,0.4
2025-12-25T1200,2589A,104.9022,25.0925,黔西南布依族苗族自治州,场坝街,,49,36,53,34,42,52,52,42,42,12,14,3,4,0.5,0.6
2025-12-25T1200,2590A,104.8811,25.0992,黔西南布依族苗族自治州,坪东大道,,,,50,43,40,54,54,40,40,8,12,,7,0.2,0.3
2025-12-25T1200,2502A,108.6236,21.9667,钦州市,市环保站,,29,29,26,14,8,54,54,38,38,12,14,2,2,0.6,1
2025-12-25T1200,2503A,108.6549,21.9481,钦州市,沙埠小学,,35,35,24,3,6,59,59,43,43,13,13,3,3,0.5,0.7
2025-12-25T1200,2504A,108.5989,21.7431,钦州市,港区一小,,,,43,17,18,49,49,30,30,,26,6,8,0.4,0.6
2025-12-25T1200,3404A,108.5959,21.9633,钦州市,北职校,,23,23,18,14,10,54,54,40,40,4,7,6,6,0.5,0.7
2025-12-25T1200,1043A,119.7493,40.0116,秦皇岛市,第一关,,,,34,8,26,60,60,39,34,,36,,8,0.2,0.4
2025-12-25T1200,1044A,119.5897,39.9499,秦皇岛市,监测站,,21,18,40,6,15,65,65,52,52,7,24,6,9,0.4,0.5
2025-12-25T1200,1046A,119.5251,39.9041,秦皇岛市,建设大厦,,26,,38,18,28,56,56,44,43,8,22,5,7,0.3,0.4
2025-12-25T1200,3132A,119.610547,39.943889,秦皇岛市,文明里,,,10,33,3,15,60,60,49,49,,11,8,10,0.2,0.3
2025-12-25T1200,4198A,119.5090,39.8253,秦皇岛市,北戴河轮滑馆,,19,6,35,3,14,60,60,52,52,4,16,4,5,0.3,0.4
2025-12-25T1200,1307A,120.6659,36.2403,青岛市,仰口,,,,,,,,,,,,,,,,
2025-12-25T1200,1310A,120.4134,36.0658,青岛市,市南区东部子站,,31,31,46,9,19,56,56,40,40,9,26,8,10,0.5,0.7
2025-12-25T1200,1311A,120.3664,36.1032,青岛市,四方区子站,,,41,53,17,23,66,66,48,48,,25,3,5,0.4,0.7
2025-12-25T1200,1312A,120.2994,36.054,青岛市,市南区西部子站,,22,22,41,15,19,48,48,38,38,7,22,3,4,0.4,0.6
2025-12-25T1200,1313A,120.4581,36.0858,青岛市,崂山区子站,,29,29,43,12,19,59,59,38,38,10,29,10,11,0.5,0.6
2025-12-25T1200,1315A,120.3999,36.3083,青岛市,城阳区子站,,31,31,52,12,23,61,61,37,37,7,32,6,8,0.5,0.7
2025-12-25T1200,3362A,120.5014,36.4034,青岛市,即墨2号,,,27,45,13,22,,,37,37,8,24,6,8,0.4,0.7
2025-12-25T1200,3642A,120.3503,36.0736,青岛市,市北区南部,,34,34,51,12,18,47,47,38,38,12,25,8,7,0.3,0.5
2025-12-25T1200,3643A,120.3948,36.1805,青岛市,李沧区北部,,36,36,46,17,26,48,48,28,28,7,31,14,15,0.6,0.8
2025-12-25T1200,4290A,120.1969,35.9546,青岛市,珠江路669号,,31,31,51,10,24,57,57,45,45,10,36,11,11,0.4,0.5
2025-12-25T1200,4291A,120.0424,35.8656,青岛市,黄岛区人民政府广场,,29,29,55,7,24,71,71,50,50,10,31,7,8,0.6,0.7
2025-12-25T1200,1702A,113.0426,23.691,清远市,环保大楼,,,,,,,,,,,,,,,,
2025-12-25T1200,1703A,113.0208,23.7106,清远市,凤城街办,,9,9,18,3,12,24,24,25,24,18,16,6,8,0.8,0.8
2025-12-25T1200,3025A,113.0477,23.6344,清远市,技师学院,,10,9,21,3,12,21,21,24,20,19,21,5,6,0.8,0.7
2025-12-25T1200,3318A,112.9903,23.7403,清远市,清新太和,,11,11,22,6,14,26,26,,,13,14,10,13,0.8,0.7
2025-12-25T1200,3455A,113.076,23.7198,清远市,清城东城,,,6,16,3,11,,,24,23,19,15,6,6,0.8,0.7
2025-12-25T1200,2661A,107.6325,35.7357,庆阳市,庆阳五中,颗粒物(PM10),59,67,55,26,23,76,76,60,58,14,16,8,6,0.5,0.5
2025-12-25T1200,2662A,107.6364,35.7067,庆阳市,市环保局,颗粒物(PM10),59,67,56,29,17,73,73,59,59,13,10,6,3,0.3,0.5
2025-12-25T1200,1916A,103.7897,25.5035,曲靖市,环境监测站,,19,19,44,11,23,49,49,47,47,10,16,3,8,0.2,0.4
2025-12-25T1200,1917A,103.8,25.5364,曲靖市,烟厂办公区,,30,30,44,14,22,48,48,47,46,12,17,4,8,0.5,0.7
2025-12-25T1200,3376A,103.7947,25.462,曲靖市,南苑二区,,28,28,39,17,23,52,52,53,53,9,13,7,7,0.4,0.6
2025-12-25T1200,3377A,103.7444,25.5261,曲靖市,曲靖师范学院,,47,47,38,28,29,44,44,53,50,15,12,10,3,0.6,0.6
2025-12-25T1200,1264A,118.8692,28.9398,衢州市,环保大楼,细颗粒物(PM2.5),62,56,15,44,12,64,64,33,33,17,27,4,4,0.6,0.7
2025-12-25T1200,1265A,118.8709,28.9666,衢州市,实验学校,,,53,13,47,11,,,29,29,,26,4,5,0.9,0.9
2025-12-25T1200,1266A,118.8621,28.9808,衢州市,衢州学院,细颗粒物(PM2.5),63,56,14,45,11,63,63,34,34,16,26,4,3,0.7,0.7
2025-12-25T1200,1611A,118.5819,24.9117,泉州市,涂山街,,12,9,29,3,26,17,17,37,24,23,21,3,4,0.9,0.7
2025-12-25T1200,1612A,118.5972,24.8978,泉州市,津头埔,,12,,29,3,29,15,15,32,22,24,23,3,4,0.9,0.8
2025-12-25T1200,1613A,118.6663,24.9424,泉州市,万安,,13,9,35,3,26,20,20,36,26,25,22,3,4,0.7,0.6
2025-12-25T1200,1614A,118.6117,24.9604,泉州市,清源山,,,,35,,25,,,69,,,17,,3,,0.6
2025-12-25T1200,3529A,118.6333,24.9264,泉州市,城华南路,,15,6,32,3,20,15,15,34,22,29,26,4,5,0.8,0.7
2025-12-25T1200,2626A,88.8876,29.2718,日喀则市,日喀则监测站,,32,32,22,8,9,51,51,60,40,10,14,9,12,0.3,0.3
2025-12-25T1200,3726A,88.8781,29.2426,日喀则市,林业技术推广中心,,42,42,16,28,4,62,62,72,53,14,5,10,9,0.4,0.2
2025-12-25T1200,1659A,119.471,35.4209,日照市,监测站,,20,19,55,7,32,63,63,47,47,10,31,7,8,0.5,0.7
2025-12-25T1200,1660A,119.523,35.4216,日照市,市政府广场,,20,14,53,3,27,62,62,48,48,10,26,10,10,0.7,0.9
2025-12-25T1200,1661A,119.5587,35.4044,日照市,港务局,,24,24,56,10,34,62,62,47,47,9,24,8,9,0.4,0.6
2025-12-25T1200,3507A,119.5328,35.4625,日照市,职业技术学院,,24,24,54,3,24,63,63,48,48,10,26,7,8,0.5,0.7
2025-12-25T1200,3604A,119.3266,35.1044,日照市,岚山环保分局,,,17,68,10,40,60,60,39,39,,33,10,14,0.6,0.9
2025-12-25T1200,1835A,111.1922,34.7752,三门峡市,市政府,,37,37,90,19,36,63,63,16,16,13,35,9,11,0.2,0.5
2025-12-25T1200,1836A,111.1587,34.7942,三门峡市,开发区,颗粒物(PM10),58,66,116,24,36,38,38,12,12,29,35,13,10,0.5,0.6
2025-12-25T1200,1838A,111.143,34.7955,三门峡市,风景区,,,,102,,35,,,39,,,32,,10,,0.7
2025-12-25T1200,3039A,111.1911,34.7829,三门峡市,三门峡市第一小学,,48,48,105,14,35,55,55,14,14,18,35,9,9,0.4,0.7
2025-12-25T1200,3598A,111.1,34.7167,三门峡市,富达温泉假日酒店,,36,36,99,16,36,63,63,30,30,22,33,21,19,0.4,0.7
2025-12-25T1200,2324A,117.6211,26.2625,三明市,三钢,,,,29,7,20,10,10,17,11,,18,4,7,0.8,1
2025-12-25T1200,2325A,117.635,26.2714,三明市,三明二中,,8,,25,3,20,10,10,17,10,11,15,7,9,0.8,0.8
2025-12-25T1200,2326A,117.6028,26.2378,三明市,三元区政府,,11,11,28,6,21,6,6,18,8,17,18,7,9,0.8,1
2025-12-25T1200,2327A,117.7275,26.3108,三明市,洋溪,,,,26,,21,,,41,,,15,,16,,1.7
2025-12-25T1200,1876A,109.5078,18.2489,三亚市,河东子站,,26,12,25,11,11,82,82,62,62,7,9,4,4,0.5,0.5
2025-12-25T1200,1877A,109.4964,18.2681,三亚市,河西子站,,26,25,29,12,12,82,82,57,57,5,8,4,4,0.3,0.4
2025-12-25T1200,3540A,109.7348,18.3443,三亚市,君悦子站,,25,24,34,11,12,80,80,65,65,5,5,4,5,0.5,0.6
2025-12-25T1200,2624A,91.7608,29.2313,山南市,山南监测站,颗粒物(PM10),61,71,28,32,12,44,44,42,28,20,15,6,6,0.4,0.3
2025-12-25T1200,2625A,91.7706,29.2436,山南市,山南人民医院,,35,35,29,14,12,42,42,33,27,16,15,6,6,0.5,0.5
2025-12-25T1200,1674A,116.6794,23.3667,汕头市,金平子站,,37,37,36,3,22,32,32,51,33,17,16,6,5,0.9,0.7
2025-12-25T1200,1675A,116.7244,23.3633,汕头市,龙湖子站,,25,25,33,6,18,32,32,50,33,16,14,9,9,0.8,0.6
2025-12-25T1200,1676A,116.7258,23.2775,汕头市,濠江子站,,34,34,32,8,22,30,30,51,32,20,15,7,7,0.9,0.7
2025-12-25T1200,1677A,116.7519,23.4714,汕头市,澄海子站,,18,18,33,3,22,32,32,47,32,14,15,6,6,0.8,0.7
2025-12-25T1200,1678A,116.6092,23.2539,汕头市,潮阳子站,,24,24,29,3,16,37,37,57,37,15,13,7,6,1.6,0.6
2025-12-25T1200,3444A,116.454,23.2684,汕头市,潮南峡山,,13,10,31,3,17,40,40,52,36,12,11,8,8,0.8,0.7
2025-12-25T1200,3624A,116.4069,23.2533,汕头市,潮南子站,,12,12,39,3,17,34,34,52,34,14,14,5,6,0.7,0.6
2025-12-25T1200,1693A,115.3653,22.775,汕尾市,市环保局,,14,14,32,3,20,42,42,55,37,7,12,6,7,0.7,0.6
2025-12-25T1200,1694A,115.3706,22.7898,汕尾市,市政府,,,20,33,,20,44,44,55,38,9,14,6,7,0.7,0.6
2025-12-25T1200,1695A,115.3622,22.7925,汕尾市,新城中学,,20,20,34,3,18,42,42,53,38,7,13,4,5,0.7,0.6
