timepoint,stationcode,longitude,latitude,area,positionname,primarypollutant,aqi,pm10,pm10_24h,pm2_5,pm2_5_24h,o3,o3_24h,o3_8h,o3_8h_24h,no2,no2_24h,so2,so2_24h,co,co_24h
2024-07-03T0400,2566A,102.1879,31.914,阿坝藏族羌族自治州,州农科所,,19,19,28,6,10,42,,,,7,13,4,4,0,0
2024-07-03T0400,2568A,102.2502,31.8896,阿坝藏族羌族自治州,马师校,,19,,18,13,17,26,,,,14,16,5,5,0.4,0.4
2024-07-03T0400,3994A,102.2165,31.9024,阿坝藏族羌族自治州,马尔康中学西区,,16,16,19,11,12,35,,,,4,8,5,5,0.2,0.2
2024-07-03T0400,2695A,80.292,41.1694,阿克苏地区,电视台,,28,11,65,9,15,87,,,,8,10,12,11,0.3,0.3
2024-07-03T0400,2696A,80.2613,41.1551,阿克苏地区,艺术中心,,34,34,63,18,18,58,,,,15,12,4,4,0.4,0.3
2024-07-03T0400,2204A,105.6467,38.8363,阿拉善盟,西城区西花园,,40,15,25,8,13,128,,,,6,9,8,9,0.5,0.6
2024-07-03T0400,2205A,105.6985,38.8411,阿拉善盟,蒙二幼,,38,7,21,3,9,120,,,,3,6,9,10,0,0.1
2024-07-03T0400,2206A,105.724,38.8516,阿拉善盟,环保局新楼,,42,6,14,3,8,133,,,,3,6,12,12,0.4,0.4
2024-07-03T0400,2708A,88.1264,47.8517,阿勒泰地区,市站,,23,10,17,3,6,73,,,,4,12,6,6,0.6,0.6
2024-07-03T0400,2630A,80.1161,32.5,阿里地区,阿里监测站,,39,12,14,9,7,123,,,,5,7,7,7,0.4,0.4
2024-07-03T0400,3192A,80.0903,32.5028,阿里地区,阿里藏医院,,41,14,14,6,6,130,,,,3,3,8,8,0.4,0.4
2024-07-03T0400,2642A,109.0318,32.6537,安康市,香溪洞,,25,18,24,17,12,52,,,,10,5,7,7,0.6,0.6
2024-07-03T0400,2643A,109.0281,32.6939,安康市,安康市监测站,,33,33,28,10,11,21,,,,14,8,12,7,0.4,0.4
2024-07-03T0400,2644A,109.0072,32.6975,安康市,汉滨区检察院,,30,30,23,19,13,26,,,,7,6,6,7,0.5,0.5
2024-07-03T0400,2291A,117.0809,30.5177,安庆市,环科院,,16,,8,9,7,50,,,,17,13,4,4,0.6,0.6
2024-07-03T0400,2292A,117.0331,30.5119,安庆市,马山宾馆,,15,10,9,10,8,45,,,,27,16,6,7,0.6,0.7
2024-07-03T0400,2294A,116.9896,30.6145,安庆市,安庆大学,,23,9,9,3,8,71,,,,9,12,7,7,0.5,0.6
2024-07-03T0400,3173A,117.0598,30.5351,安庆市,市人大,,20,8,10,6,7,62,,,,7,9,7,6,0.4,0.5
2024-07-03T0400,3122A,105.9606,26.2611,安顺市,伍家关,,,,,,,,,,,,,,,,
2024-07-03T0400,3123A,105.9408,26.2431,安顺市,凤凰山,,25,13,20,9,14,78,,,,2,9,6,9,0.4,0.4
2024-07-03T0400,3124A,105.9439,26.2564,安顺市,金钟山,,25,14,20,11,39,78,,,,2,6,4,7,0.4,0.5
2024-07-03T0400,3125A,105.8983,26.2481,安顺市,娄家坡,,25,14,25,10,13,80,,,,2,6,5,6,0.4,0.4
2024-07-03T0400,1818A,114.4839,36.0621,安阳市,棉研所,,,,,,,,,,,,,,,,
2024-07-03T0400,1819A,114.3551,36.1017,安阳市,红庙街,,,,32,29,29,105,,,,2,2,3,2,0.6,0.5
2024-07-03T0400,1820A,114.361,36.0681,安阳市,银杏小区,,33,24,30,22,22,104,,,,2,2,6,6,0.6,0.7
2024-07-03T0400,3141A,114.3922,36.0878,安阳市,信访局,,38,30,31,26,22,101,,,,3,2,3,3,0.9,0.9
2024-07-03T0400,3669A,114.4705,36.0637,安阳市,左辅环卫站,细颗粒物(PM2.5),57,,37,40,33,75,,,,5,5,2,2,0.6,0.7
2024-07-03T0400,3703A,114.2917,36.0949,安阳市,安钢职工学校,细颗粒物(PM2.5),74,,39,54,51,100,,,,9,10,4,4,0.6,0.6
2024-07-03T0400,1748A,123.044,41.1196,鞍山市,深沟寺,,22,22,49,11,26,45,,,,12,27,4,5,0.6,0.7
2024-07-03T0400,1749A,123.011,41.0931,鞍山市,太阳城,,17,11,33,7,22,54,,,,8,20,5,6,0.9,1
2024-07-03T0400,1750A,123.0485,41.1442,鞍山市,太平,,29,29,70,12,32,49,,,,11,32,4,6,0.9,0.9
2024-07-03T0400,1751A,122.9642,41.0971,鞍山市,铁西三道街,,25,23,54,17,35,39,,,,23,31,4,5,1.3,1.1
2024-07-03T0400,1752A,122.9341,41.0833,鞍山市,铁西工业园区,,20,19,70,14,46,31,,,,28,45,4,10,1.6,1.9
2024-07-03T0400,1753A,123.022,41.0821,鞍山市,明达新区,,18,,25,8,20,56,,,,6,14,5,6,0.5,0.7
2024-07-03T0400,1754A,123.1289,41.0228,鞍山市,千山,,,,,,,,,,,,,,,,
2024-07-03T0400,2195A,107.4212,40.761,巴彦淖尔市,附二中,,48,48,40,20,18,70,,,,19,11,4,4,0.6,0.5
2024-07-03T0400,2196A,107.37,40.7372,巴彦淖尔市,市环保大楼,颗粒物(PM10),56,61,43,17,12,37,,,,40,16,4,5,0.5,0.5
2024-07-03T0400,1956A,86.1472,41.7538,巴音郭楞蒙古自治州,孔雀公园,,30,30,49,6,18,44,,,,15,12,2,4,0.3,0.2
2024-07-03T0400,1957A,86.1972,41.7166,巴音郭楞蒙古自治州,棉纺厂,,22,,38,13,15,70,,,,26,14,4,4,0.2,0.1
2024-07-03T0400,1958A,86.2357,41.7173,巴音郭楞蒙古自治州,经济开发区,,32,,31,9,17,100,,,,9,7,3,3,0.2,0.2
2024-07-03T0400,2914A,106.7677,31.8794,巴中市,苏山坪,,33,28,22,19,15,104,,,,5,6,8,4,0.4,0.4
2024-07-03T0400,3182A,106.7656,31.8545,巴中市,丽阳花园,,29,26,29,20,20,52,,,,16,18,6,6,0.5,0.5
2024-07-03T0400,3183A,106.7418,31.8654,巴中市,圣泉水务公司,,29,27,26,20,17,51,,,,17,19,5,5,0.5,0.5
2024-07-03T0400,3616A,106.7616,31.8344,巴中市,市中心医院,,39,39,28,24,18,48,,,,17,16,7,6,0.5,0.5
2024-07-03T0400,2235A,122.7911,45.6077,白城市,洮北区环保局,,49,49,39,32,26,64,,,,17,15,6,4,0.1,0.1
2024-07-03T0400,2236A,122.8738,45.5725,白城市,市环保局,,40,36,34,28,26,86,,,,14,13,5,4,0.4,0.3
2024-07-03T0400,2231A,126.4219,41.9171,白山市,喜丰,,23,14,37,3,14,71,,,,4,9,8,9,1.2,1.1
2024-07-03T0400,2232A,126.4077,41.9419,白山市,环保局,,25,20,34,8,16,79,,,,2,7,9,10,1.0,0.9
2024-07-03T0400,2647A,104.1724,36.5446,白银市,第三小学,,40,40,37,25,20,40,,,,32,23,22,17,0.8,0.8
2024-07-03T0400,2648A,104.1465,36.5482,白银市,动力公司,,32,30,31,22,16,52,,,,16,14,10,13,0.6,0.5
2024-07-03T0400,2512A,106.6103,23.9011,百色市,市监测站,,18,18,22,10,11,31,,,,8,10,12,10,0.8,0.8
2024-07-03T0400,2513A,106.6538,23.8859,百色市,市中心血站,,18,18,25,11,16,34,,,,8,12,7,11,0.7,0.8
2024-07-03T0400,3406A,106.6085,23.8798,百色市,祈福高中,,25,24,23,17,13,30,,,,8,9,15,12,0.9,0.9
2024-07-03T0400,2270A,117.396,32.939,蚌埠市,工人疗养院,颗粒物(PM10),57,63,39,35,18,68,,,,7,4,7,7,0.7,0.5
2024-07-03T0400,2271A,117.3605,32.9427,蚌埠市,百货大楼,细颗粒物(PM2.5),78,68,41,57,28,65,,,,11,6,5,5,0.8,0.6
2024-07-03T0400,2273A,117.4185,32.8911,蚌埠市,蚌埠学院,细颗粒物(PM2.5),64,53,27,46,23,57,,,,12,5,6,6,0.7,0.5
2024-07-03T0400,2274A,117.3533,32.9673,蚌埠市,淮上区政府,,,,34,47,30,79,,,,4,4,,6,0.7,0.5
2024-07-03T0400,2275A,117.3145,32.8977,蚌埠市,高新区,细颗粒物(PM2.5),67,58,32,48,25,50,,,,17,8,7,6,0.7,0.5
2024-07-03T0400,3715A,117.3092,32.9314,蚌埠市,蚌埠田家炳中学,颗粒物(PM10),62,74,40,40,23,64,,,,13,7,6,6,0.6,0.4
2024-07-03T0400,1585A,109.8756,40.6532,包头市,市环境监测站,,43,43,38,18,20,51,,,,31,31,17,12,0.7,0.9
2024-07-03T0400,1587A,109.9991,40.5842,包头市,包头八中,,48,37,38,33,22,85,,,,16,19,22,20,0.5,0.6
2024-07-03T0400,1588A,109.8538,40.6821,包头市,青山宾馆,,48,41,33,33,20,25,,,,36,28,17,17,0.8,1
2024-07-03T0400,1589A,109.8642,40.6288,包头市,惠龙物流,,33,33,37,12,12,78,,,,19,23,22,19,0.5,0.7
2024-07-03T0400,1590A,110.0377,40.5546,包头市,东河鸿龙湾,,42,42,32,24,15,69,,,,20,14,13,12,0.7,0.8
2024-07-03T0400,3283A,109.9154,40.5685,包头市,滨河大厦,,36,33,29,25,16,64,,,,23,19,10,13,0.7,0.8
2024-07-03T0400,3419A,109.9447,40.6261,包头市,包头市委党校,,41,41,31,17,17,38,,,,41,25,16,19,0.9,0.7
2024-07-03T0400,3683A,109.8331,40.6576,包头市,昆区政府,,43,40,36,30,25,66,,,,26,25,26,17,0.8,0.8
2024-07-03T0400,1930A,107.185,34.3063,宝鸡市,庙沟村,颗粒物(PM10),73,96,32,10,15,79,,,,2,11,9,10,0.3,0.4
2024-07-03T0400,1931A,107.0708,34.3017,宝鸡市,竹园沟,,,34,31,6,13,58,,,,,15,9,8,0.2,0.4
2024-07-03T0400,1932A,107.1906,34.3672,宝鸡市,三陆医院,颗粒物(PM10),54,58,41,25,19,40,,,,32,26,9,10,0.6,0.5
2024-07-03T0400,1933A,107.1431,34.3547,宝鸡市,监测站,,35,35,32,16,18,60,,,,14,21,8,9,0.4,0.4
2024-07-03T0400,1934A,107.1186,34.3739,宝鸡市,技工学校,,40,40,37,28,20,50,,,,19,18,7,8,0.5,0.5
2024-07-03T0400,1935A,107.3906,34.3528,宝鸡市,陈仓区环保局家属楼,,38,38,33,24,19,47,,,,29,24,6,10,0.4,0.5
2024-07-03T0400,1936A,107.2058,34.3497,宝鸡市,文理学院,,39,39,34,17,15,63,,,,16,22,8,8,0.5,0.5
2024-07-03T0400,1937A,107.2386,34.3622,宝鸡市,三迪小学,细颗粒物(PM2.5),53,40,38,37,18,44,,,,27,25,7,8,0.5,0.5
2024-07-03T0400,1051A,115.493,38.8632,保定市,游泳馆,,41,41,38,28,31,58,,,,5,4,9,9,0.2,0.3
2024-07-03T0400,1052A,115.5213,38.8959,保定市,华电二区,,36,36,33,21,22,61,,,,7,5,8,6,0.3,0.4
2024-07-03T0400,1053A,115.4713,38.9108,保定市,接待中心,,48,48,41,32,32,54,,,,5,5,3,3,0.3,0.4
2024-07-03T0400,1054A,115.4612,38.8416,保定市,地表水厂,细颗粒物(PM2.5),55,48,50,39,36,55,,,,7,7,3,2,0.5,0.5
2024-07-03T0400,3581A,115.31981,38.95208,保定市,满城区生态环境分局,,44,44,36,29,28,51,,,,2,4,1,2,0.3,0.4
2024-07-03T0400,3582A,115.47694,38.76408,保定市,清苑区第二中学,,49,45,42,34,30,60,,,,7,11,5,5,0.3,0.4
2024-07-03T0400,3583A,115.62909,39.02311,保定市,徐水物探局,,35,30,30,24,25,57,,,,6,6,4,4,0.2,0.2
2024-07-03T0400,4004A,115.4202,38.8656,保定市,双鹰农机,,36,33,35,25,29,53,,,,14,10,3,4,0.1,0.2
2024-07-03T0400,4034A,115.5150,38.8590,保定市,植保所站,,49,36,33,34,33,64,,,,8,7,2,2,0.1,0.2
2024-07-03T0400,2594A,99.1678,25.1081,保山市,市环境监测站,,,,15,,9,,,23,,,9,,5,,0.5
2024-07-03T0400,2595A,99.1711,25.1328,保山市,市环保局,,19,19,19,11,10,26,,,,6,7,5,5,0.4,0.5
2024-07-03T0400,1866A,109.2262,21.588,北海市,牛尾岭水库,,,,,,,,,,,,,,,,
2024-07-03T0400,1867A,109.1436,21.4086,北海市,海滩公园,,37,37,42,7,5,41,,,,7,4,3,3,0.6,0.6
2024-07-03T0400,1868A,109.0981,21.4661,北海市,新市环保局,,15,15,21,7,7,48,,,,3,4,4,4,0.5,0.5
2024-07-03T0400,1869A,109.1778,21.5233,北海市,北海工业园,,31,31,30,20,13,27,,,,12,8,4,4,0.5,0.5
2024-07-03T0400,3400A,109.1911,21.4415,北海市,龙潭自来水厂,,29,25,21,20,9,41,,,,6,3,5,5,0.5,0.5
2024-07-03T0400,1001A,116.3621,39.8784,北京市,万寿西宫,,41,41,32,28,23,47,,,,21,18,3,3,0.4,0.6
2024-07-03T0400,1002A,116.2202,40.2915,北京市,定陵,,23,19,30,16,23,0,,,,11,12,3,3,0.3,0.4
2024-07-03T0400,1003A,116.4174,39.9289,北京市,东四,,48,38,30,33,24,38,,,,24,18,3,4,0.7,0.6
2024-07-03T0400,1004A,116.4072,39.8863,北京市,天坛,,45,45,52,29,23,9,,,,14,19,3,3,0.4,0.5
2024-07-03T0400,1005A,116.462,39.9365,北京市,农展馆,,22,19,27,15,20,56,,,,19,19,3,3,0.3,0.4
2024-07-03T0400,1006A,116.3392,39.9295,北京市,官园,,38,37,32,26,23,53,,,,20,21,3,3,0.2,0.4
2024-07-03T0400,1007A,116.2878,39.9611,北京市,海淀万柳,,38,32,32,26,26,35,,,,19,19,5,5,0.3,0.3
2024-07-03T0400,1008A,116.6636,40.135,北京市,顺义新城,,26,17,24,13,16,83,,,,6,9,3,3,0.3,0.4
2024-07-03T0400,1009A,116.6275,40.3275,北京市,怀柔镇,,22,22,28,15,19,67,,,,1,4,1,2,0.1,0.2
2024-07-03T0400,1010A,116.2296,40.217,北京市,昌平镇,,39,38,37,27,26,3,,,,45,17,3,3,0.4,0.4
2024-07-03T0400,1011A,116.3966,39.9821,北京市,奥体中心,,26,23,31,18,22,38,,,,31,27,5,5,0.3,0.4
2024-07-03T0400,1012A,116.184,39.9136,北京市,古城,,32,30,32,22,24,2,,,,49,20,2,1,0.4,0.5
2024-07-03T0400,3281A,115.9718,40.4529,北京市,延庆夏都,,35,35,25,23,18,15,,,,27,10,1,3,0.3,0.3
2024-07-03T0400,3417A,117.0709,40.1465,北京市,平谷新城,,23,19,30,13,21,71,,,,6,12,3,3,0.3,0.4
2024-07-03T0400,3418A,116.8336,40.4095,北京市,密云新城,,25,20,27,14,18,77,,,,4,7,3,3,0.2,0.3
2024-07-03T0400,3671A,116.088,39.9726,北京市,门头沟三家店,,,,,,,,,,,,,,,,
2024-07-03T0400,3672A,116.1541,39.8204,北京市,丰台云岗,,27,27,33,17,22,7,,,,24,13,1,2,0.4,0.5
2024-07-03T0400,3673A,116.6804,39.9081,北京市,通州东关,,26,18,28,13,20,82,,,,9,13,3,3,0.3,0.4
2024-07-03T0400,3674A,115.9577,39.7603,北京市,房山燕山,,28,23,28,19,24,31,,,,4,7,1,2,0.4,0.4
2024-07-03T0400,3675A,116.4672,39.7733,北京市,大兴旧宫,,48,43,30,33,23,19,,,,26,21,3,3,0.5,0.6
2024-07-03T0400,3694A,115.986,40.4563,北京市,延庆石河营,,25,22,24,17,18,4,,,,22,8,3,3,0.2,0.3
2024-07-03T0400,3695A,116.6151,40.3053,北京市,怀柔新城,,23,20,28,15,20,71,,,,6,7,3,3,0.4,0.4
2024-07-03T0400,3696A,116.2545,39.8768,北京市,丰台小屯,,42,36,30,29,23,5,,,,33,11,3,3,0.4,0.5
2024-07-03T0400,3697A,116.84,40.3844,北京市,密云镇,,25,20,28,14,19,79,,,,5,10,3,3,0.3,0.3
2024-07-03T0400,1761A,123.8275,41.3064,本溪市,大峪,,35,,33,3,14,109,,,,1,15,8,9,0.5,0.7
2024-07-03T0400,1762A,123.7567,41.3325,本溪市,溪湖,,28,9,36,3,14,89,,,,6,18,5,6,0.5,0.7
2024-07-03T0400,1763A,123.7169,41.3094,本溪市,彩屯,,22,14,29,8,17,70,,,,22,24,7,8,1.4,0.8
2024-07-03T0400,1764A,123.7669,41.2864,本溪市,东明,,33,6,41,3,16,105,,,,6,24,6,7,0.5,0.7
2024-07-03T0400,1765A,123.7992,41.2664,本溪市,新立屯,,,,26,2,9,106,,,,1,14,4,5,0.5,0.7
2024-07-03T0400,1766A,123.8142,41.3472,本溪市,威宁,,29,,33,3,17,90,,,,6,16,7,8,0.6,0.7
2024-07-03T0400,2587A,105.2864,27.3125,毕节市,八中,,25,25,22,12,11,77,,,,7,14,5,6,0.3,0.4
2024-07-03T0400,2588A,105.31,27.2944,毕节市,师专,,22,22,20,14,12,56,,,,15,12,4,6,0.4,0.4
2024-07-03T0400,3537A,105.3631,27.3533,毕节市,长征村,,28,16,19,11,13,89,,,,6,9,6,6,0.3,0.3
2024-07-03T0400,1629A,118.0018,37.3617,滨州市,第二水厂,,45,31,34,31,36,87,,,,4,8,3,1,0.4,0.5
2024-07-03T0400,1630A,117.9776,37.393,滨州市,北中新校,,36,36,40,24,32,85,,,,2,6,3,3,0.4,0.5
2024-07-03T0400,3514A,117.9378,37.3956,滨州市,中海酒店,,49,36,41,34,35,91,,,,7,11,3,3,0.3,0.4
2024-07-03T0400,3515A,117.9378,37.3553,滨州市,开发区一中,,42,34,42,29,37,81,,,,6,10,5,5,0.5,0.7
2024-07-03T0400,3516A,118.0917,37.694,滨州市,金海六路,,45,34,37,31,27,78,,,,9,9,4,5,0.4,0.5
2024-07-03T0400,4028A,117.9956,37.3753,滨州市,滨州市西街道办事处,,49,,32,34,36,90,,,,3,7,2,2,0.5,0.6
2024-07-03T0400,2311A,115.8072,33.8399,亳州市,污水处理厂,,35,,20,24,21,94,,,,10,5,2,2,0.7,0.6
2024-07-03T0400,2312A,115.7789,33.8518,亳州市,三国揽胜宫,,32,23,24,18,20,101,,,,6,6,3,2,0.6,0.5
2024-07-03T0400,3332A,115.7633,33.8034,亳州市,亳州学院,,39,33,23,27,21,105,,,,12,6,3,3,0.8,0.8
2024-07-03T0400,2693A,82.0485,44.8556,博尔塔拉蒙古自治州,市党校,,25,11,19,10,8,79,,,,8,9,10,10,0.2,0.3
2024-07-03T0400,2694A,82.0806,44.8969,博尔塔拉蒙古自治州,市环保局,,28,14,22,3,10,88,,,,10,14,7,7,0.3,0.3
2024-07-03T0400,1071A,116.8842,38.2991,沧州市,沧县城建局,,48,40,46,33,35,52,,,,16,13,2,2,0.3,0.5
2024-07-03T0400,1072A,116.8584,38.3254,沧州市,电视转播站,,47,47,50,27,31,52,,,,22,22,3,3,0.3,0.5
2024-07-03T0400,1073A,116.8709,38.3228,沧州市,市环保局,,45,43,42,31,35,56,,,,12,13,3,3,0.3,0.4
2024-07-03T0400,3324A,116.8136,38.3004,沧州市,河北水利电力学院,,46,,34,32,40,53,,,,11,10,3,3,0.2,0.6
2024-07-03T0400,2622A,97.1806,31.1273,昌都市,昌都监测站,,16,6,16,3,7,50,,,,7,12,7,7,0.3,0.4
2024-07-03T0400,3719A,97.1714,31.1406,昌都市,昌都会议中心,,20,6,12,3,7,61,,,,3,6,5,6,0.3,0.3
2024-07-03T0400,2690A,88.1236,43.8886,昌吉回族自治州,天山天池,,,0,13,,6,95,,,,5,8,2,4,0.5,0.6
2024-07-03T0400,2692A,87.2717,44.0297,昌吉回族自治州,新区政务中心,,15,12,24,10,9,33,,,,14,9,7,8,0.7,0.5
2024-07-03T0400,3613A,87.3095,44.0142,昌吉回族自治州,亚心广场,,18,12,22,7,4,57,,,,10,6,5,7,0.3,0.2
2024-07-03T0400,1119A,125.3325,43.9166,长春市,食品厂,,29,28,56,20,33,60,,,,18,30,6,8,0.6,0.7
2024-07-03T0400,1120A,125.2863,43.9027,长春市,客车厂,,31,31,59,13,32,61,,,,21,33,3,5,0.4,0.5
2024-07-03T0400,1121A,125.2841,43.8463,长春市,邮电学院,,30,30,50,12,28,68,,,,16,28,6,9,0.3,0.4
2024-07-03T0400,1122A,125.3716,43.8772,长春市,劳动公园,,30,30,60,14,29,64,,,,22,35,4,8,0.5,0.6
2024-07-03T0400,1123A,125.3297,43.8805,长春市,园林处,,32,32,52,22,32,59,,,,20,33,4,8,0.3,0.4
2024-07-03T0400,1124A,125.4605,43.79,长春市,净月潭,,27,20,36,11,22,86,,,,9,15,4,6,0.4,0.4
2024-07-03T0400,1125A,125.7194,43.515,长春市,甩湾子,,,,,,,,,,,,,,,,
2024-07-03T0400,1126A,125.3863,43.8447,长春市,经开区环卫处,,26,26,53,14,29,76,,,,21,37,4,6,0.4,0.5
2024-07-03T0400,1127A,125.245,43.7783,长春市,高新区管委会,,31,16,54,8,27,97,,,,10,27,4,6,0.3,0.4
2024-07-03T0400,1128A,125.1761,43.8325,长春市,岱山公园,,25,20,48,14,31,80,,,,14,29,3,5,0.3,0.5
2024-07-03T0400,1335A,113.0833,28.2325,长沙市,经开区环保局,,25,25,28,17,25,56,,,,7,9,4,4,0.5,0.5
2024-07-03T0400,1336A,112.8872,28.2189,长沙市,高开区环保局,,30,30,25,12,11,62,,,,9,8,7,5,0.7,0.7
2024-07-03T0400,1337A,113.0792,28.2053,长沙市,马坡岭,,30,30,30,20,14,52,,,,9,9,8,7,0.6,0.6
2024-07-03T0400,1338A,112.9394,28.19,长沙市,湖南师范大学,,18,16,27,10,18,56,,,,8,7,6,6,0.6,0.6
2024-07-03T0400,1339A,113.0178,28.1322,长沙市,雨花区环保局,,23,23,25,10,13,47,,,,11,6,3,3,0.6,0.6
2024-07-03T0400,1340A,112.9792,28.2597,长沙市,伍家岭,,20,20,26,9,8,52,,,,9,6,2,1,0.5,0.6
2024-07-03T0400,1341A,113.0014,28.1944,长沙市,火车新站,,20,20,26,14,15,48,,,,16,7,3,2,0.5,0.5
2024-07-03T0400,1342A,112.9844,28.1178,长沙市,天心区环保局,,16,16,25,9,17,50,,,,10,7,3,2,0.4,0.4
2024-07-03T0400,1343A,112.8908,28.1308,长沙市,湖南中医药大学,,22,22,24,11,10,52,,,,8,7,6,6,0.4,0.4
2024-07-03T0400,1344A,112.9581,28.3611,长沙市,沙坪,,,36,23,8,15,41,,,,9,6,,5,3.4,0.6
2024-07-03T0400,1727A,113.1147,36.1547,长治市,清华站,,40,28,18,27,14,128,,,,7,10,9,9,0.5,0.6
2024-07-03T0400,1728A,113.1031,36.1989,长治市,监测站,,40,38,26,19,13,125,,,,13,13,4,4,0.7,0.8
2024-07-03T0400,1730A,113.0886,36.2125,长治市,审计局,,42,29,20,29,14,117,,,,14,17,2,3,0.4,0.5
2024-07-03T0400,1731A,113.0844,36.1856,长治市,长治八中,,39,37,23,26,16,122,,,,7,10,2,3,0.8,0.8
2024-07-03T0400,2845A,113.1569,36.1911,长治市,德盛苑,,40,,19,27,14,128,,,,4,6,7,7,0.8,0.7
2024-07-03T0400,3568A,113.06,36.0464,长治市,向阳小学,细颗粒物(PM2.5),64,69,47,46,36,134,,,,11,11,5,6,0.9,0.9
2024-07-03T0400,3569A,112.8792,36.3144,长治市,屯留一中,细颗粒物(PM2.5),70,52,37,51,31,113,,,,8,12,7,10,0.5,0.6
2024-07-03T0400,3570A,113.235,36.3489,长治市,潞城四中,,50,35,21,35,20,132,,,,6,7,7,7,0.6,0.6
2024-07-03T0400,1854A,111.6975,28.9703,常德市,市二中,,36,36,24,19,15,39,,,,11,9,6,9,0.7,0.6
2024-07-03T0400,1857A,111.7158,29.1456,常德市,白鹤山,,,,,,,,,,,,,,,,
2024-07-03T0400,3138A,111.7153,29.0289,常德市,武陵区永安,,33,29,24,23,16,55,,,,8,4,12,7,0.4,0.4
2024-07-03T0400,3139A,111.6892,28.9881,常德市,鼎城区玉霞,,36,36,24,25,17,50,,,,6,4,5,4,0.6,0.5
2024-07-03T0400,3140A,111.6625,29.0531,常德市,武陵区长庚,,32,28,25,22,16,54,,,,8,4,9,8,0.7,0.6
2024-07-03T0400,1196A,119.9633,31.762,常州市,市监测站,,23,,14,16,12,61,,,,18,14,12,7,0.9,0.8
2024-07-03T0400,1200A,119.9468,31.7069,常州市,武进监测站,,20,18,18,12,13,63,,,,8,6,7,5,0.9,0.7
2024-07-03T0400,1201A,119.9255,31.9087,常州市,安家,,43,43,25,17,13,28,,,,26,14,11,9,0.7,0.6
2024-07-03T0400,3002A,119.9805,31.8174,常州市,行政中心,,28,28,21,11,11,56,,,,6,7,6,8,0.9,0.8
2024-07-03T0400,3003A,120.0522,31.7748,常州市,经开区,,20,20,21,13,14,60,,,,12,10,6,4,0.6,0.5
2024-07-03T0400,3010A,119.9025,31.7964,常州市,钟楼,颗粒物(PM10),57,63,27,20,14,42,,,,23,13,6,4,0.8,0.5
2024-07-03T0400,3429A,119.8598,31.7066,常州市,武进经发区,,24,24,16,15,10,57,,,,12,9,13,8,0.5,0.4
2024-07-03T0400,3430A,119.5826,31.7245,常州市,金坛城区,,20,18,24,12,18,63,,,,9,8,11,7,0.7,0.6
2024-07-03T0400,2220A,120.4318,41.5881,朝阳市,西梁,,39,30,54,22,34,123,,,,3,19,8,11,0.6,0.7
2024-07-03T0400,2221A,120.4521,41.5646,朝阳市,河畔小区,,44,25,56,22,34,138,,,,4,13,6,11,0.5,0.6
2024-07-03T0400,2222A,120.4176,41.5648,朝阳市,八里堡,,41,25,52,24,37,131,,,,3,15,6,9,0.7,0.8
2024-07-03T0400,2223A,120.3806,41.5969,朝阳市,农业园区,,40,,46,25,38,126,,,,9,16,7,8,0.5,0.5
2024-07-03T0400,1705A,116.6367,23.6719,潮州市,西园路,,21,21,20,9,10,9,,,,16,10,3,2,0.5,0.5
2024-07-03T0400,3026A,116.6183,23.6608,潮州市,市政府,,15,15,23,7,8,19,,,,7,5,7,5,0.6,0.6
2024-07-03T0400,4036A,116.6461,23.6761,潮州市,金山,,31,31,22,11,9,4,,,,15,8,6,6,0.6,0.6
2024-07-03T0400,2472A,113.0073,25.9061,郴州市,马头岭,,20,20,20,12,10,42,,,,3,7,8,8,0.4,0.5
2024-07-03T0400,2473A,113.0116,25.8226,郴州市,市职中,,16,16,18,11,12,43,,,,3,10,9,9,0.4,0.5
2024-07-03T0400,2474A,113.0161,25.8001,郴州市,兴隆步行街,,14,14,22,3,11,43,,,,3,7,8,9,0.5,0.6
2024-07-03T0400,2475A,113.0383,25.8071,郴州市,市审计局,,15,14,17,10,14,38,,,,6,9,5,6,0.3,0.4
2024-07-03T0400,2476A,113.0348,25.7759,郴州市,市环保局,,18,18,22,7,16,44,,,,3,11,5,5,0.3,0.5
2024-07-03T0400,1431A,103.9728,30.7236,成都市,金泉两河,,31,10,28,3,16,99,,,,2,14,1,2,0.4,0.4
2024-07-03T0400,1432A,104.176,30.6872,成都市,十里店,,33,12,25,10,13,103,,,,6,16,3,4,0.3,0.4
2024-07-03T0400,1433A,104.079,30.5706,成都市,三瓦窑,,,23,31,11,18,109,,,,,18,1,3,0.3,0.4
2024-07-03T0400,1434A,104.1114,30.63,成都市,沙河铺,,29,19,27,3,13,90,,,,4,16,2,3,0.3,0.4
2024-07-03T0400,1437A,104.0786,30.6531,成都市,君平街,,37,,33,3,14,118,,,,3,19,2,4,0.3,0.4
2024-07-03T0400,1438A,103.613,31.0283,成都市,灵岩寺,,,,,,,,,,,,,,,,
2024-07-03T0400,2880A,104.0239,30.65639,成都市,大石西路,,33,13,29,3,14,105,,,,3,20,4,6,0.3,0.4
2024-07-03T0400,3136A,104.2725,30.5589,成都市,龙泉驿区区政府,,38,9,17,9,10,120,,,,3,10,2,4,0.3,0.4
2024-07-03T0400,3357A,104.0106,30.6931,成都市,金博路,,27,7,23,3,11,85,,,,2,13,3,2,0.6,0.6
2024-07-03T0400,3359A,104.0578,30.5225,成都市,华阳,,33,14,24,9,18,103,,,,2,8,3,3,0.4,0.5
2024-07-03T0400,3487A,104.2394,30.5319,成都市,车城东七路,,38,24,28,14,18,120,,,,4,10,2,4,0.4,0.4
2024-07-03T0400,3488A,104.3853,30.7453,成都市,青白江技师分院,,30,,20,21,7,90,,,,10,14,5,6,0.5,0.5
2024-07-03T0400,3489A,104.0789,30.4072,成都市,科学城,,37,20,27,16,19,116,,,,5,13,2,4,0.4,0.4
2024-07-03T0400,4011A,103.8506,30.6947,成都市,光华大道三段,,32,,30,22,15,90,,,,2,9,2,4,0.4,0.4
2024-07-03T0400,1062A,117.9531,40.9081,承德市,铁路,,22,22,32,10,16,68,,,,15,27,18,8,0.5,0.4
2024-07-03T0400,1063A,117.9392,40.9763,承德市,中国银行,,26,21,33,18,17,68,,,,10,17,6,6,0.2,0.3
2024-07-03T0400,1064A,117.9503,40.928,承德市,开发区,,35,35,36,19,21,65,,,,13,19,10,7,0.3,0.4
2024-07-03T0400,1065A,117.8051,40.9655,承德市,文化中心,,23,19,36,16,17,64,,,,11,16,15,11,0.2,0.3
2024-07-03T0400,1066A,117.9268,41.0026,承德市,离宫,,33,,32,23,22,47,,,,6,10,3,3,0.2,0.3
2024-07-03T0400,2314A,117.47,30.6618,池州市,池州学院,,18,18,9,8,4,57,,,,7,6,11,5,0.8,0.5
2024-07-03T0400,3237A,117.4918,30.6617,池州市,展览馆,,18,18,9,7,4,50,,,,5,5,6,3,0.6,0.5
2024-07-03T0400,3333A,117.5627,30.695,池州市,第八中学,,18,18,11,6,4,47,,,,5,7,4,3,0.6,0.4
2024-07-03T0400,3334A,117.5038,30.6243,池州市,第十二中学,,18,18,8,3,3,38,,,,8,7,4,4,1.0,0.6
2024-07-03T0400,1744A,118.9233,42.2816,赤峰市,松山一中,,29,14,39,10,16,90,,,,14,25,10,10,0.3,0.4
2024-07-03T0400,1745A,118.9576,42.2728,赤峰市,哈达街,,24,13,30,6,16,76,,,,9,16,9,10,0.4,0.5
2024-07-03T0400,1746A,118.8788,42.2554,赤峰市,天义路,,30,12,18,11,18,94,,,,12,21,5,6,0.3,0.4
2024-07-03T0400,3058A,119.2658,42.0353,赤峰市,银河街,,36,21,39,14,28,115,,,,9,15,10,13,0.4,0.4
2024-07-03T0400,3286A,118.9359,42.3147,赤峰市,桥北物流园区,,24,24,29,7,20,64,,,,7,18,6,6,0.6,0.6
2024-07-03T0400,2521A,107.3476,22.4136,崇左市,市环保局江州分局,,23,23,24,3,9,21,,,,9,10,5,5,0.6,0.7
2024-07-03T0400,2522A,107.3702,22.3707,崇左市,城南新区,,17,17,15,3,10,19,,,,8,9,5,4,0.7,0.7
2024-07-03T0400,2298A,118.3093,32.3153,滁州市,老年大学,,23,23,18,15,15,71,,,,5,5,7,7,0.6,0.6
2024-07-03T0400,2299A,118.3244,32.2786,滁州市,人大宾馆,,42,,17,29,20,62,,,,10,9,6,6,0.6,0.5
2024-07-03T0400,3207A,118.3118,32.3038,滁州市,市政府原办公楼,,30,21,19,21,18,72,,,,6,7,8,8,0.7,0.6
2024-07-03T0400,3331A,118.3267,32.2634,滁州市,图书馆,,43,,21,30,18,60,,,,12,6,8,8,0.8,0.8
2024-07-03T0400,2605A,101.5482,25.0441,楚雄彝族自治州,州环境监测站,,10,8,13,3,7,30,,,,2,6,2,4,0.4,0.5
2024-07-03T0400,2606A,101.538,25.0492,楚雄彝族自治州,市经济开发区,,8,8,16,3,6,25,,,,3,8,4,5,0.5,0.6
2024-07-03T0400,2548A,107.5277,31.2827,达州市,达州职业技术学院,,45,45,33,19,10,7,,,,35,24,14,10,0.3,0.3
2024-07-03T0400,2549A,107.5086,31.2186,达州市,市环境监测站,,37,37,30,19,10,23,,,,29,25,12,6,0.6,0.6
2024-07-03T0400,2550A,107.4988,31.2132,达州市,凤凰小区,,31,31,24,19,14,29,,,,28,23,14,8,0.5,0.4
2024-07-03T0400,2551A,107.5082,31.1986,达州市,达县机关宾馆,,36,36,28,22,14,35,,,,30,26,15,6,0.2,0.1
2024-07-03T0400,2552A,107.4644,31.2124,达州市,市政中心,,36,36,33,17,13,25,,,,29,25,8,8,0.6,0.6
2024-07-03T0400,2614A,100.1542,25.7054,大理白族自治州,大理市环境监测站,,12,,5,6,9,38,,,,2,5,4,4,0.4,0.5
2024-07-03T0400,2615A,100.2171,25.5811,大理白族自治州,大理古城,,6,6,12,3,7,19,,,,6,9,5,5,0.6,0.6
2024-07-03T0400,1109A,121.612,38.9741,大连市,甘井子,,37,12,17,12,9,118,,,,7,14,7,8,0.5,0.5
2024-07-03T0400,1110A,121.565,38.9511,大连市,周水子,,42,10,15,10,10,132,,,,8,16,2,6,0.5,0.5
2024-07-03T0400,1111A,121.5637,38.8845,大连市,星海三站,,42,13,14,9,6,134,,,,2,5,7,6,0.6,0.6
2024-07-03T0400,1112A,121.6302,38.9117,大连市,青泥洼桥,,37,23,15,10,9,118,,,,5,9,8,8,0.6,0.7
2024-07-03T0400,1113A,121.6251,38.8638,大连市,傅家庄,,42,11,11,10,7,133,,,,5,6,6,6,0.6,0.6
2024-07-03T0400,1114A,121.5213,38.8661,大连市,七贤岭,,35,14,12,10,6,112,,,,5,7,5,5,0.5,0.5
2024-07-03T0400,1115A,121.2529,38.8061,大连市,旅顺,,37,,9,21,7,118,,,,7,7,8,7,0.6,0.5
2024-07-03T0400,1116A,121.7485,39.1311,大连市,金州,,39,11,11,10,8,123,,,,4,4,12,8,0.4,0.3
2024-07-03T0400,1117A,121.7811,39.0496,大连市,开发区,,40,12,18,12,10,128,,,,4,8,4,4,0.6,0.5
2024-07-03T0400,1118A,121.9762,39.0631,大连市,双D港,,41,12,17,8,9,130,,,,8,8,6,5,0.7,0.6
2024-07-03T0400,1789A,124.81117,46.03138,大庆市,大同区,,48,33,39,33,28,88,,,,11,11,5,5,0.3,0.3
2024-07-03T0400,1790A,125.129,46.533,大庆市,龙凤区,,46,42,47,32,26,99,,,,9,18,5,5,0.4,0.5
2024-07-03T0400,1791A,124.902,46.408,大庆市,红岗区,,45,36,31,31,23,93,,,,11,11,7,8,0.5,0.4
2024-07-03T0400,1792A,125.153,46.586,大庆市,萨尔图区,,43,37,37,30,22,94,,,,8,13,8,7,0.3,0.3
2024-07-03T0400,1793A,124.9042,46.6215,大庆市,让胡路区,,45,45,48,8,16,61,,,,31,22,8,7,0.2,0.2
2024-07-03T0400,3481A,125.141,46.634,大庆市,萨区政府监测点,,40,38,38,28,20,86,,,,15,15,10,7,0.2,0.3
2024-07-03T0400,1721A,113.3819,40.1097,大同市,果树场,,,,,,,,,,,,,,,,
2024-07-03T0400,1723A,113.2994,40.0758,大同市,云冈宾馆,,45,45,30,27,21,52,,,,23,15,12,7,0.5,0.5
2024-07-03T0400,1724A,113.3444,40.0917,大同市,大同大学,,39,39,24,24,18,44,,,,28,12,14,10,0.5,0.5
2024-07-03T0400,1725A,113.2661,40.1269,大同市,安家小村,颗粒物(PM10),53,56,30,26,16,31,,,,29,14,12,12,0.5,0.4
2024-07-03T0400,1726A,113.2711,40.0844,大同市,教育学院,,46,46,30,22,20,44,,,,29,18,19,9,0.6,0.5
2024-07-03T0400,3282A,113.3397,40.0597,大同市,大同市卫生学校,颗粒物(PM10),54,57,29,28,20,48,,,,31,13,15,10,0.7,0.7
2024-07-03T0400,3565A,113.1367,40.1122,大同市,云冈站,颗粒物(PM10),61,72,29,31,18,19,,,,30,14,10,8,0.8,0.8
2024-07-03T0400,3566A,113.1186,40.2556,大同市,图书馆,,36,33,27,25,18,41,,,,14,13,9,8,0.3,0.4
2024-07-03T0400,3567A,113.5931,40.0461,大同市,区一中,,26,18,23,13,12,81,,,,7,9,6,8,0.4,0.5
2024-07-03T0400,3676A,113.2802,40.0995,大同市,第二人民医院,,48,48,27,29,18,28,,,,37,13,15,9,0.5,0.5
2024-07-03T0400,2269A,124.1069,50.4097,大兴安岭地区,科技局,细颗粒物(PM2.5),64,66,69,46,47,22,,,,14,12,9,9,0.5,0.5
2024-07-03T0400,3663A,124.1164,50.4278,大兴安岭地区,红旗社区,细颗粒物(PM2.5),78,,58,57,59,13,,,,9,10,10,10,0.6,0.7
2024-07-03T0400,1600A,124.3303,40.0625,丹东市,江湾东路,,32,11,19,3,9,100,,,,3,7,4,5,0.4,0.4
2024-07-03T0400,1601A,124.4256,40.1503,丹东市,临江后街,,32,6,13,3,7,101,,,,2,6,8,8,0.6,0.6
2024-07-03T0400,1602A,124.3933,40.1461,丹东市,元宝山,,32,,13,3,8,101,,,,3,6,6,7,0.5,0.5
2024-07-03T0400,1603A,124.3633,40.1092,丹东市,民主桥,,30,13,20,3,11,94,,,,1,9,4,5,0.5,0.5
2024-07-03T0400,3541A,109.5726,19.5167,儋州市,第一中学子站,,17,17,15,10,8,46,,,,4,2,5,6,0.4,0.4
2024-07-03T0400,3542A,109.5567,19.5187,儋州市,东坡学校子站,,19,19,16,6,7,38,,,,11,5,7,6,0.6,0.5
2024-07-03T0400,2616A,98.5842,24.428,德宏傣族景颇族自治州,德宏州监测站,,13,13,14,3,7,11,,,,7,11,2,3,0.7,0.8
2024-07-03T0400,3677A,98.5881,24.4368,德宏傣族景颇族自治州,芒市人民政府综合楼,,10,10,15,3,6,9,,,,5,8,2,5,0.6,0.7
2024-07-03T0400,1901A,104.4239,31.1208,德阳市,东山公园,,28,28,37,17,15,89,,,,8,16,3,8,0.4,0.5
2024-07-03T0400,1902A,104.3826,31.1317,德阳市,西小区,,30,28,36,18,19,95,,,,9,26,2,8,0.5,0.5
2024-07-03T0400,1904A,104.3553,31.1091,德阳市,耐火材料厂,,33,23,38,11,20,104,,,,4,23,3,9,0.4,0.5
2024-07-03T0400,3639A,104.4019,31.1244,德阳市,市教育局,,29,29,36,19,18,86,,,,23,23,4,6,0.4,0.5
2024-07-03T0400,1622A,116.3032,37.4674,德州市,儿童乐园,细颗粒物(PM2.5),52,39,44,36,41,79,,,,10,10,8,7,0.5,0.7
2024-07-03T0400,1624A,116.2991,37.4451,德州市,监理站,细颗粒物(PM2.5),62,,36,44,44,81,,,,15,15,9,9,0.6,0.7
2024-07-03T0400,3066A,116.2721,37.4379,德州市,九衢泉纯净水厂,,49,34,42,34,40,53,,,,16,16,7,5,0.6,0.7
2024-07-03T0400,3371A,116.3728,37.4403,德州市,开发区人民医院,,42,39,43,29,36,74,,,,10,14,9,9,0.5,0.6
2024-07-03T0400,3372A,116.3572,37.4094,德州市,太阳城中学,,49,,38,34,39,70,,,,11,14,9,7,0.5,0.7
2024-07-03T0400,3511A,116.5652,37.3319,德州市,陵城艺术中心,,45,41,50,31,40,70,,,,8,10,6,4,0.6,0.7
2024-07-03T0400,2621A,99.7056,27.8317,迪庆藏族自治州,迪庆州站,,15,15,19,6,8,29,,,,8,10,10,10,0.4,0.3
2024-07-03T0400,3180A,99.7136,27.8094,迪庆藏族自治州,质量技术监督局,,14,14,16,8,8,38,,,,5,8,8,9,0.3,0.4
2024-07-03T0400,2663A,104.6241,35.5734,定西市,东关小学,颗粒物(PM10),53,55,41,26,17,26,,,,32,15,5,5,0.3,0.2
2024-07-03T0400,2664A,104.6194,35.5934,定西市,供电公司,,39,35,30,27,19,40,,,,28,20,4,4,0.3,0.3
2024-07-03T0400,1389A,113.7547,23.0494,东莞市,莞城梨川,,20,20,24,7,10,18,,,,20,12,6,8,0.6,0.7
2024-07-03T0400,1390A,113.7944,23.0128,东莞市,东城石井,,27,27,22,8,9,8,,,,16,11,2,2,0.5,0.5
2024-07-03T0400,1391A,113.7383,22.9658,东莞市,南城西平,,16,16,21,6,8,23,,,,16,8,2,2,0.6,0.5
2024-07-03T0400,3319A,113.7338,23.0381,东莞市,万江金泰,,20,20,22,8,9,11,,,,21,9,5,5,0.6,0.6
2024-07-03T0400,3626A,113.7533,23.0202,东莞市,南城元岭,,20,20,22,8,9,9,,,,21,10,7,6,0.6,0.6
2024-07-03T0400,3627A,113.7875,23.0457,东莞市,东城主山,,21,21,21,8,9,12,,,,18,8,9,9,0.6,0.6
2024-07-03T0400,1666A,118.6614,37.4309,东营市,市环保局,细颗粒物(PM2.5),55,53,31,39,26,76,,,,9,8,8,8,1.0,1
2024-07-03T0400,3036A,118.6904,37.4338,东营市,开发区管委会,细颗粒物(PM2.5),64,54,31,46,26,76,,,,14,10,5,6,0.6,0.7
2024-07-03T0400,3365A,118.5719,37.565,东营市,垦利区民丰路,细颗粒物(PM2.5),52,41,32,36,27,78,,,,12,8,10,10,0.6,0.6
2024-07-03T0400,3498A,118.5055,37.8612,东营市,河口城区,,39,34,33,27,27,73,,,,6,9,6,6,0.7,0.8
2024-07-03T0400,3646A,118.4978,37.4623,东营市,胜利站,,49,36,29,34,25,83,,,,6,7,6,6,0.8,0.8
2024-07-03T0400,3734A,118.35,37.26,东营市,理想之城,细颗粒物(PM2.5),55,41,29,39,27,71,,,,6,7,3,3,0.5,0.5
2024-07-03T0400,1591A,110.0023,39.8129,鄂尔多斯市,综合楼,颗粒物(PM10),58,66,51,27,16,68,,,,32,31,14,17,0.8,0.7
2024-07-03T0400,1592A,109.9486,39.8261,鄂尔多斯市,巴音孟克林场办事处,颗粒物(PM10),59,68,43,27,16,57,,,,32,26,10,9,0.8,0.7
2024-07-03T0400,1593A,109.7736,39.5986,鄂尔多斯市,康泽苑,,46,46,33,27,15,64,,,,14,12,8,9,0.5,0.5
2024-07-03T0400,1594A,109.8119,39.5989,鄂尔多斯市,华泰汽车城,,46,46,31,29,17,32,,,,28,20,8,9,0.7,0.6
2024-07-03T0400,1595A,109.9734,39.7884,鄂尔多斯市,奥林花园,颗粒物(PM10),53,56,37,34,18,17,,,,56,29,5,6,0.7,0.6
2024-07-03T0400,2436A,114.8938,30.3994,鄂州市,市政府,颗粒物(PM10),54,58,35,20,14,46,,,,12,9,5,5,0.6,0.6
2024-07-03T0400,2437A,114.8989,30.3714,鄂州市,赵家坝,,41,41,25,25,14,37,,,,14,9,8,7,0.6,0.7
2024-07-03T0400,3654A,114.8094,30.4089,鄂州市,精准医疗中心,颗粒物(PM10),51,52,27,32,14,28,,,,29,9,7,6,0.8,0.7
2024-07-03T0400,2454A,109.4978,30.2981,恩施土家族苗族自治州,湖北民院,,20,19,25,14,15,34,,,,9,8,6,6,0.8,0.8
2024-07-03T0400,2455A,109.4707,30.2798,恩施土家族苗族自治州,州电力总公司,,38,30,24,26,15,18,,,,22,16,9,8,0.7,0.7
2024-07-03T0400,3549A,109.5061,30.3772,恩施土家族苗族自治州,龙凤新区,,22,22,25,15,13,23,,,,11,12,7,7,0.6,0.7
2024-07-03T0400,2499A,108.3411,21.6158,防城港市,沙万,,16,16,18,3,5,13,,,,8,6,10,10,0.7,0.6
2024-07-03T0400,2500A,108.3514,21.7731,防城港市,防城档案局,颗粒物(PM10),51,51,26,10,8,2,,,,19,13,4,4,0.6,0.5
2024-07-03T0400,2501A,108.3506,21.6414,防城港市,大海花园,,17,17,20,3,4,7,,,,16,11,8,6,0.6,0.5
2024-07-03T0400,1371A,113.1294,23.0067,佛山市,湾梁,,17,17,22,9,10,22,,,,15,13,6,6,0.3,0.3
2024-07-03T0400,1372A,113.1083,23.0478,佛山市,华材职中,,15,,18,10,11,27,,,,13,13,4,5,0.4,0.4
2024-07-03T0400,1373A,113.144,23.0453,佛山市,南海气象局,,17,17,24,10,10,22,,,,13,10,6,6,0.4,0.4
2024-07-03T0400,1374A,113.2881,22.8094,佛山市,顺德苏岗,,27,27,19,3,8,27,,,,7,7,6,6,0.3,0.3
2024-07-03T0400,1376A,112.8383,22.8678,佛山市,高明孔堂,,22,22,24,8,10,31,,,,9,8,6,6,0.6,0.6
2024-07-03T0400,1377A,112.8836,23.1588,佛山市,三水监测站,,13,12,21,9,11,17,,,,21,23,4,4,0.8,0.7
2024-07-03T0400,1378A,112.867,23.185,佛山市,三水云东海,,19,19,19,9,11,18,,,,21,19,4,5,0.6,0.6
2024-07-03T0400,3625A,113.2544,22.7642,佛山市,容桂街道办,,10,,15,7,10,24,,,,13,14,5,6,0.4,0.4
2024-07-03T0400,1280A,119.3903,26.0543,福州市,鼓山,,,,,,,,,,,,,,,,
2024-07-03T0400,1282A,119.2681,26.0504,福州市,师大,,25,25,26,8,8,27,,,,6,6,3,3,0.3,0.3
2024-07-03T0400,1283A,119.2984,26.1028,福州市,五四北路,,21,21,26,6,8,31,,,,8,7,3,3,0.2,0.3
2024-07-03T0400,1284A,119.2648,26.0768,福州市,杨桥西路,,24,24,27,3,7,28,,,,6,7,3,3,0.4,0.4
2024-07-03T0400,1285A,119.317,26.0746,福州市,紫阳,,20,20,25,8,8,21,,,,11,10,2,2,0.4,0.4
2024-07-03T0400,3048A,119.5799,26.0936,福州市,九龙,,18,18,24,8,6,14,,,,11,4,4,4,0.2,0.2
2024-07-03T0400,3526A,119.5189,25.9664,福州市,吴航,,20,20,20,9,9,14,,,,7,3,4,4,0.4,0.5
2024-07-03T0400,1755A,123.7977,41.8491,抚顺市,望花区,,21,,38,3,24,67,,,,8,19,2,4,0.2,0.4
2024-07-03T0400,1756A,123.9161,41.8822,抚顺市,顺城区,,,0,37,,23,66,,,,6,15,5,7,0.4,0.5
2024-07-03T0400,1757A,124.0436,41.8611,抚顺市,东洲区,,20,16,47,3,21,62,,,,6,11,4,5,0.4,0.5
2024-07-03T0400,1758A,123.9247,41.8642,抚顺市,新抚区,,18,7,34,3,21,57,,,,5,17,3,4,0.3,0.5
2024-07-03T0400,1759A,124.0972,41.8961,抚顺市,大伙房水库,,19,6,28,3,22,58,,,,3,9,7,8,0.5,0.6
2024-07-03T0400,1760A,123.7086,41.8391,抚顺市,沈抚新城,,18,7,39,3,26,56,,,,14,18,8,8,1.6,0.7
2024-07-03T0400,2376A,116.2127,28.0814,抚州市,桐源党溪,,28,28,24,6,11,13,,,,5,6,5,5,0.3,0.4
2024-07-03T0400,2377A,116.3544,27.9831,抚州市,市站,,20,20,22,8,10,26,,,,9,7,4,4,0.9,1
2024-07-03T0400,2378A,116.3565,27.963,抚州市,血防站,,24,24,23,8,10,16,,,,11,9,4,4,0.8,0.9
2024-07-03T0400,2379A,116.3564,28.0007,抚州市,采茶剧团,,16,16,20,8,10,14,,,,8,9,3,3,0.8,0.9
2024-07-03T0400,2380A,116.385,27.9647,抚州市,医学分院,,32,32,23,10,10,13,,,,11,9,18,5,0.9,1
2024-07-03T0400,2207A,121.6094,41.998,阜新市,工业园区,,33,13,44,10,29,104,,,,8,20,6,8,0.5,0.7
2024-07-03T0400,2208A,121.6697,42.0279,阜新市,长青街,,30,16,41,11,25,96,,,,9,17,4,7,0.5,0.8
2024-07-03T0400,2209A,121.6673,42.0705,阜新市,农业园区,,31,16,50,12,29,97,,,,9,15,5,6,0.6,1.1
2024-07-03T0400,2210A,121.6717,42.0224,阜新市,东苑,,30,,42,9,29,94,,,,6,18,5,10,0.5,0.8
2024-07-03T0400,2211A,121.6506,42.0498,阜新市,玉龙新城,,32,14,42,9,28,102,,,,8,18,4,5,0.4,0.7
2024-07-03T0400,2301A,115.8277,32.8929,阜阳市,市监测站,,38,38,27,21,18,91,,,,12,10,4,5,0.6,0.5
2024-07-03T0400,2303A,115.8554,32.8605,阜阳市,开发区,,42,42,28,27,16,79,,,,17,12,4,4,0.5,0.4
2024-07-03T0400,2875A,115.784,32.8892,阜阳市,阜阳职业技术学院,,38,38,23,25,18,93,,,,10,9,5,6,0.5,0.4
2024-07-03T0400,3468A,115.7901,32.8613,阜阳市,市规划展馆,细颗粒物(PM2.5),60,,29,43,28,85,,,,12,11,3,3,0.7,0.6
2024-07-03T0400,3469A,115.836,32.9183,阜阳市,枣园社区,颗粒物(PM10),54,58,30,34,24,92,,,,12,11,2,2,0.6,0.5
2024-07-03T0400,2669A,102.9099,34.9841,甘南藏族自治州,州政府,,27,27,23,12,17,60,,,,5,12,7,7,1.0,1
2024-07-03T0400,3380A,102.8914,34.9617,甘南藏族自治州,甘肃民族师范学院,,28,28,24,11,12,22,,,,32,21,3,3,0.5,0.6
2024-07-03T0400,2570A,101.9603,30.0475,甘孜藏族自治州,水桥子,,12,6,11,3,6,38,,,,13,12,4,4,0.2,0.2
2024-07-03T0400,3065A,101.9533,29.9972,甘孜藏族自治州,州环保局,,13,13,14,3,6,40,,,,17,17,2,2,0.2,0.2
2024-07-03T0400,3414A,115.8347,28.932,赣江新区,桑海产业园,,29,29,11,20,5,25,,,,28,20,12,9,0.7,0.5
2024-07-03T0400,2362A,114.9017,25.9149,赣州市,通天岩,,,,,,,,,,,,,,,,
2024-07-03T0400,2363A,114.9367,25.8664,赣州市,地委,,19,19,19,7,9,8,,,,14,5,8,8,0.7,1
2024-07-03T0400,2364A,114.9461,25.8481,赣州市,气象台,,23,23,18,9,10,6,,,,17,10,4,3,0.4,0.4
2024-07-03T0400,2365A,114.9322,25.8333,赣州市,市图书馆,,29,29,19,10,7,8,,,,17,10,9,20,0.8,0.9
2024-07-03T0400,2366A,114.8905,25.8471,赣州市,华坚鞋城,,24,24,21,11,9,20,,,,13,12,48,24,0.6,0.7
2024-07-03T0400,3109A,115.0093,25.8613,赣州市,赣县区卫计委,,21,21,19,11,8,19,,,,16,11,8,7,0.7,0.7
2024-07-03T0400,2683A,106.2319,36.1417,固原市,马园,,28,28,27,14,12,47,,,,28,26,6,5,0.8,0.7
2024-07-03T0400,2684A,106.2792,36.0022,固原市,监测站,,25,25,25,12,13,59,,,,29,20,5,5,0.3,0.3
2024-07-03T0400,2685A,106.2375,36.0211,固原市,新区,,30,16,22,10,11,93,,,,6,11,5,6,0.4,0.4
2024-07-03T0400,3522A,106.2177,35.9959,固原市,原州区十五小,,34,16,17,8,11,106,,,,3,6,5,5,0.6,0.5
2024-07-03T0400,2543A,106.6308,30.5278,广安市,小平旧居,,,,,,,,,,,,,,,,
2024-07-03T0400,2544A,106.6303,30.4576,广安市,市委,,29,29,30,18,20,79,,,,10,14,8,9,0.4,0.4
2024-07-03T0400,2545A,106.6271,30.4663,广安市,友谊中学,,28,28,28,16,17,77,,,,14,17,7,8,0.5,0.5
2024-07-03T0400,2547A,106.6388,30.4551,广安市,广电花园,,29,27,29,20,20,85,,,,9,14,6,7,0.4,0.5
2024-07-03T0400,2902A,106.6351,30.4865,广安市,北辰小学,,30,30,34,17,18,90,,,,9,14,8,8,0.3,0.4
2024-07-03T0400,2523A,105.8945,32.4535,广元市,黑石坡,,17,11,14,7,9,53,,,,13,10,12,12,0.3,0.3
2024-07-03T0400,2524A,105.821,32.4444,广元市,老城,,32,32,22,8,11,85,,,,9,16,10,6,0.5,0.4
2024-07-03T0400,2526A,105.8628,32.4287,广元市,监测站,,28,26,23,15,12,89,,,,8,12,10,7,0.4,0.4
2024-07-03T0400,3617A,105.8047,32.4166,广元市,经开区,,27,15,29,10,17,85,,,,9,14,4,6,0.5,0.5
2024-07-03T0400,1345A,113.2347,23.1423,广州市,广雅中学,,22,22,20,6,13,30,,,,12,17,3,4,0.8,0.8
2024-07-03T0400,1346A,113.2612,23.105,广州市,市五中,,19,19,26,8,13,31,,,,10,11,5,5,0.5,0.6
2024-07-03T0400,1348A,113.3478,23.0916,广州市,广东商学院,,16,16,24,6,12,28,,,,14,16,3,3,0.5,0.5
2024-07-03T0400,1349A,113.4332,23.1047,广州市,市八十六中,,16,16,25,6,11,13,,,,27,28,3,2,0.5,0.6
2024-07-03T0400,1350A,113.3505,22.9483,广州市,番禺中学,,16,16,23,3,12,24,,,,16,14,6,6,0.6,0.6
2024-07-03T0400,1351A,113.2146,23.3916,广州市,花都师范,,20,20,27,9,13,20,,,,20,27,6,6,0.6,0.6
2024-07-03T0400,1352A,113.2597,23.1331,广州市,市监测站,,13,13,25,7,12,28,,,,13,13,4,4,0.5,0.5
2024-07-03T0400,1353A,113.5618,23.312,广州市,九龙镇镇龙,,28,28,24,13,13,2,,,,24,20,6,7,0.6,0.5
2024-07-03T0400,1354A,113.2765,23.1544,广州市,麓湖,,16,16,24,3,11,30,,,,12,16,2,3,0.4,0.4
2024-07-03T0400,1355A,113.443,23.3035,广州市,帽峰山森林公园,,17,17,18,3,8,17,,,,20,15,4,4,0.6,0.6
2024-07-03T0400,2846A,113.3221,23.1322,广州市,体育西,,18,18,26,6,12,26,,,,13,16,4,4,0.5,0.6
2024-07-03T0400,3298A,113.5717,23.5491,广州市,从化街口,,27,27,21,12,10,5,,,,21,15,4,4,0.5,0.6
2024-07-03T0400,3299A,113.3472,23.3692,广州市,白云竹料,,22,22,27,9,13,16,,,,26,25,4,4,0.5,0.6
2024-07-03T0400,3300A,113.2981,23.237,广州市,白云嘉禾,,15,15,27,3,12,25,,,,21,28,5,5,0.6,0.7
2024-07-03T0400,3301A,113.4256,23.1716,广州市,黄埔科学城,,26,21,27,18,22,10,,,,28,24,5,5,0.5,0.6
2024-07-03T0400,3302A,113.3942,23.0483,广州市,番禺大学城,,22,22,22,3,10,28,,,,10,14,4,4,0.5,0.5
2024-07-03T0400,3303A,113.4922,22.8168,广州市,南沙黄阁,,15,15,27,3,11,32,,,,9,11,5,5,0.5,0.6
2024-07-03T0400,3304A,113.5342,22.7896,广州市,南沙街,,19,19,24,3,11,23,,,,14,12,4,5,0.6,0.6
2024-07-03T0400,3443A,113.2902,23.5544,广州市,花都梯面,,25,25,25,7,10,23,,,,16,16,4,4,0.5,0.6
2024-07-03T0400,3445A,113.7858,23.7478,广州市,从化良口,,23,23,14,3,7,4,,,,14,9,5,4,0.5,0.5
2024-07-03T0400,3446A,113.8051,23.2614,广州市,增城荔城,,27,27,25,12,13,13,,,,23,15,7,5,0.7,0.7
2024-07-03T0400,2505A,109.568,23.1478,贵港市,德智高中,,,,,,,,,,,,,,,,
2024-07-03T0400,2506A,109.6047,23.0666,贵港市,江南子站,,27,27,12,12,7,8,,,,20,11,9,7,0.7,0.7
2024-07-03T0400,2507A,109.6014,23.0948,贵港市,贵城子站,,26,25,20,18,9,16,,,,18,13,8,7,0.5,0.5
2024-07-03T0400,2508A,109.5669,23.1065,贵港市,荷城子站,,22,22,11,3,3,26,,,,11,8,12,10,0.5,0.5
2024-07-03T0400,3405A,109.5886,23.1172,贵港市,新世纪学校,,27,27,13,10,8,22,,,,13,9,15,13,0.5,0.5
2024-07-03T0400,1439A,106.6899,26.5998,贵阳市,马鞍山,,20,19,17,3,7,62,,,,3,9,5,4,0.5,0.5
2024-07-03T0400,1440A,106.6971,26.5694,贵阳市,市环保站,,23,22,34,16,20,41,,,,23,35,4,4,0.3,0.4
2024-07-03T0400,1441A,106.6243,26.6266,贵阳市,鉴湖路,,19,19,22,9,10,57,,,,5,9,4,3,0.4,0.4
2024-07-03T0400,1442A,106.7487,26.6343,贵阳市,燕子冲,,18,7,15,3,11,57,,,,7,11,5,7,0.5,0.5
2024-07-03T0400,1443A,106.6555,26.4365,贵阳市,碧云窝,,19,19,27,3,7,54,,,,6,12,6,5,0.4,0.5
2024-07-03T0400,1444A,106.694,26.5161,贵阳市,中院村,,19,19,26,7,11,52,,,,7,16,5,4,0.5,0.5
2024-07-03T0400,1445A,106.7109,26.6027,贵阳市,红边门,,28,,25,19,21,57,,,,10,22,4,3,0.5,0.5
2024-07-03T0400,1446A,106.7164,26.5699,贵阳市,新华路,,18,17,22,12,15,53,,,,14,18,4,6,0.5,0.5
2024-07-03T0400,1447A,106.674,26.5424,贵阳市,太慈桥,,15,14,18,9,10,48,,,,7,14,5,6,0.5,0.4
2024-07-03T0400,1552A,106.805,26.3003,贵阳市,桐木岭,,,,,,,,,,,,,,,,
2024-07-03T0400,1862A,110.4144,25.3167,桂林市,电子科大尧山校区,,25,25,11,6,5,9,,,,4,4,4,4,0.4,0.3
2024-07-03T0400,1863A,110.2819,25.2697,桂林市,监测站,,26,26,15,14,9,13,,,,22,10,10,9,0.8,0.7
2024-07-03T0400,1864A,110.3089,25.2708,桂林市,龙隐路小学,,32,32,14,12,10,15,,,,20,9,8,6,0.6,0.5
2024-07-03T0400,1865A,110.2869,25.2178,桂林市,八中,,30,30,13,14,4,9,,,,23,11,10,6,0.7,0.5
2024-07-03T0400,3403A,110.1764,25.2381,桂林市,创业大厦,,24,24,8,7,5,3,,,,19,8,11,8,0.6,0.4
2024-07-03T0400,3531A,110.296,25.1253,桂林市,旅游学院,,8,,7,3,3,12,,,,11,7,5,7,0.4,0.3
2024-07-03T0400,2674A,100.2561,34.4714,果洛藏族自治州,玛沁县大武镇,,26,13,23,11,12,82,,,,6,11,13,13,0.4,0.4
2024-07-03T0400,1129A,126.5422,45.755,哈尔滨市,岭北,细颗粒物(PM2.5),54,50,46,38,29,72,,,,28,29,3,12,0.5,0.7
2024-07-03T0400,1130A,126.561,45.8167,哈尔滨市,松北商大,,41,41,43,24,23,62,,,,27,26,6,6,0.6,0.6
2024-07-03T0400,1131A,126.979,45.5419,哈尔滨市,阿城会宁,颗粒物(PM10),57,63,54,39,31,47,,,,41,27,10,6,0.6,0.6
2024-07-03T0400,1132A,126.599,45.7222,哈尔滨市,南岗学府路,,47,47,53,30,26,79,,,,18,27,8,10,0.5,0.6
2024-07-03T0400,1133A,126.689,45.7733,哈尔滨市,太平宏伟公园,颗粒物(PM10),53,55,78,30,30,63,,,,37,43,7,8,0.5,0.5
2024-07-03T0400,1134A,126.635,45.7667,哈尔滨市,道外承德广场,,49,49,59,31,26,63,,,,32,40,7,7,0.6,0.5
2024-07-03T0400,1135A,126.685,45.7319,哈尔滨市,香坊红旗大街,细颗粒物(PM2.5),55,51,62,39,35,77,,,,21,35,5,11,0.5,0.6
2024-07-03T0400,1136A,126.6411,45.7258,哈尔滨市,动力和平路,,49,48,52,34,28,79,,,,20,34,6,9,0.5,0.5
2024-07-03T0400,1137A,126.593,45.7478,哈尔滨市,道里建国路,,50,49,51,35,29,69,,,,27,34,13,13,0.6,0.6
2024-07-03T0400,1138A,126.615,45.61,哈尔滨市,平房东轻厂,颗粒物(PM10),56,61,52,26,26,49,,,,44,35,14,12,0.4,0.3
2024-07-03T0400,1139A,126.595,45.9855,哈尔滨市,呼兰师专,,38,38,44,26,29,60,,,,22,24,9,10,0.4,0.4
2024-07-03T0400,1140A,126.6206,45.6842,哈尔滨市,省农科院,"颗粒物(PM10),细颗粒物(PM2.5)",52,53,53,36,28,59,,,,39,32,8,8,0.6,0.5
2024-07-03T0400,2688A,93.5128,42.8172,哈密市,地区监测站,颗粒物(PM10),78,105,43,29,16,124,,,,6,10,3,4,0.2,0.2
2024-07-03T0400,2689A,93.4961,42.8328,哈密市,哈密师范学校,颗粒物(PM10),73,95,45,14,12,126,,,,4,12,7,4,0.2,0.4
2024-07-03T0400,2671A,100.9048,36.9639,海北藏族自治州,海晏县西海镇,,35,14,19,12,18,112,,,,6,8,13,14,0.4,0.4
2024-07-03T0400,3867A,102.0738,36.5056,海东市,平安区公安北苑,,23,23,24,13,13,67,,,,22,19,10,9,0.7,0.4
2024-07-03T0400,1409A,110.576,19.9507,海口市,东寨港,,,,,,,,,,,,,,,,
2024-07-03T0400,1410A,110.3232,20.0574,海口市,海南大学,,22,22,21,8,10,46,,,,4,6,6,6,0.3,0.4
2024-07-03T0400,1411A,110.283,20.0053,海口市,秀英海南医院,,22,22,23,8,12,44,,,,5,9,6,6,0.2,0.2
2024-07-03T0400,1412A,110.338,19.9969,海口市,海南师范大学,,21,21,21,10,11,41,,,,4,6,6,6,0.3,0.4
2024-07-03T0400,1413A,110.33,20.0356,海口市,龙华路环保局宿舍,,23,23,21,8,10,42,,,,3,6,7,7,0.2,0.3
2024-07-03T0400,3539A,110.5111,19.9736,海口市,桂林洋子站,,21,21,24,9,12,42,,,,3,4,6,6,0.2,0.3
2024-07-03T0400,2673A,100.6188,36.2866,海南藏族自治州,共和县恰卜恰镇,,37,17,18,10,10,118,,,,5,9,8,7,0.6,0.6
2024-07-03T0400,2676A,97.3731,37.3753,海西蒙古族藏族自治州,德令哈市,,35,,16,18,11,109,,,,6,9,12,14,0.6,0.6
2024-07-03T0400,1048A,114.5302,36.6116,邯郸市,东污水处理厂,细颗粒物(PM2.5),52,41,40,36,31,70,,,,6,5,1,1,0.5,0.4
2024-07-03T0400,1049A,114.4918,36.5713,邯郸市,矿院,颗粒物(PM10),53,56,46,34,31,76,,,,11,9,4,4,0.6,0.6
2024-07-03T0400,1050A,114.484,36.6133,邯郸市,丛台公园,细颗粒物(PM2.5),53,44,39,37,29,77,,,,6,6,5,4,0.5,0.5
2024-07-03T0400,3458A,114.7895,36.5593,邯郸市,香泉濮院小区,,45,,28,31,31,75,,,,5,5,2,1,0.4,0.4
2024-07-03T0400,3579A,114.50634,36.77178,邯郸市,永年区实验高中,细颗粒物(PM2.5),64,52,47,46,34,69,,,,7,5,2,2,0.5,0.7
2024-07-03T0400,3580A,114.20016,36.44293,邯郸市,峰峰矿区临水派出所,细颗粒物(PM2.5),57,45,37,40,26,86,,,,5,4,3,2,0.7,0.6
2024-07-03T0400,2634A,106.9893,33.1842,汉中市,汉川机床厂子校,,,27,27,,11,33,,,,14,10,4,4,0.6,0.5
2024-07-03T0400,2635A,107.0154,33.0706,汉中市,市监测站,,36,36,31,20,15,42,,,,16,11,8,7,1.2,0.7
2024-07-03T0400,2636A,107.0089,33.1138,汉中市,鑫源开发区,,34,34,31,20,18,55,,,,16,13,11,10,0.9,0.5
2024-07-03T0400,2637A,107.007,33.0323,汉中市,南郑大河坎水厂,,33,33,30,20,18,19,,,,16,11,8,8,0.6,0.5
2024-07-03T0400,1223A,120.2072,30.2111,杭州市,滨江,,32,32,19,15,12,1,,,,45,21,4,3,0.8,0.7
2024-07-03T0400,1224A,120.0633,30.2747,杭州市,西溪,,14,14,17,7,12,2,,,,10,10,5,5,0.6,0.6
2024-07-03T0400,1226A,120.3461,30.3153,杭州市,下沙,,31,31,29,12,11,6,,,,37,21,5,5,0.6,0.5
2024-07-03T0400,1227A,120.1269,30.2456,杭州市,卧龙桥,,18,18,18,7,10,3,,,,5,7,4,4,0.5,0.6
2024-07-03T0400,1228A,120.1903,30.2692,杭州市,浙江农大,,23,21,19,16,11,1,,,,43,25,7,7,0.5,0.4
2024-07-03T0400,1230A,120.1197,30.3119,杭州市,和睦小学,,20,19,15,6,9,6,,,,40,18,4,4,0.7,0.5
2024-07-03T0400,1231A,120.3019,30.4183,杭州市,临平镇,,30,30,16,16,9,20,,,,26,21,5,4,0.7,0.6
2024-07-03T0400,1232A,120.2697,30.1819,杭州市,城厢镇,,40,40,24,21,12,3,,,,45,23,4,3,0.7,0.6
2024-07-03T0400,1233A,120.0883,30.1808,杭州市,云栖,,26,26,18,3,6,3,,,,7,7,7,7,0.5,0.6
2024-07-03T0400,3557A,119.9464,30.0494,杭州市,镇二中,,13,13,15,8,12,5,,,,24,13,6,6,0.6,0.6
2024-07-03T0400,3558A,119.7183,30.2367,杭州市,市府大楼,,12,12,16,8,9,12,,,,11,11,6,6,0.6,0.6
2024-07-03T0400,3656A,120.1556,30.2864,杭州市,消防大队,,29,29,18,17,12,4,,,,38,19,7,6,0.8,0.8
2024-07-03T0400,1270A,117.1959,31.7848,合肥市,明珠广场,,29,29,20,17,15,65,,,,14,13,8,8,0.4,0.3
2024-07-03T0400,1271A,117.3072,31.8764,合肥市,三里街,,20,,15,14,12,55,,,,27,15,6,6,0.5,0.4
2024-07-03T0400,1272A,117.2588,31.8707,合肥市,琥珀山庄,,21,17,21,12,12,65,,,,8,9,5,4,0.6,0.5
2024-07-03T0400,1273A,117.1604,31.9052,合肥市,董铺水库,,,,21,,26,,,,,,2,,3,,0.4
2024-07-03T0400,1274A,117.25,31.8571,合肥市,长江中路,,25,24,23,17,15,73,,,,10,7,5,5,0.7,0.6
2024-07-03T0400,1275A,117.266,31.9436,合肥市,庐阳区,,28,24,22,19,15,74,,,,13,7,4,4,0.5,0.4
2024-07-03T0400,1276A,117.336,31.8586,合肥市,瑶海区,,18,17,15,12,10,56,,,,15,10,8,7,0.3,0.2
2024-07-03T0400,1277A,117.3027,31.7964,合肥市,包河区,,19,19,14,9,7,50,,,,17,12,6,6,0.4,0.3
2024-07-03T0400,1278A,117.2776,31.7385,合肥市,滨湖新区,,23,17,12,14,10,73,,,,6,11,7,8,0.6,0.5
2024-07-03T0400,1279A,117.1318,31.8403,合肥市,高新区,,26,,15,18,12,78,,,,7,7,7,7,0.6,0.5
2024-07-03T0400,3464A,117.3803,31.9147,合肥市,高教基地,,21,21,17,13,10,38,,,,5,7,6,6,0.4,0.4
2024-07-03T0400,3614A,79.924,37.0877,和田地区,地区环保局,颗粒物(PM10),122,194,170,69,50,50,,,,22,9,8,7,0.6,0.4
2024-07-03T0400,3615A,79.9131,37.113,和田地区,市环保局,颗粒物(PM10),97,144,172,44,41,45,,,,12,9,7,6,0.7,0.6
2024-07-03T0400,2516A,108.2011,24.715,河池市,东仁乐园,,16,12,21,11,21,35,,,,9,6,3,4,0.6,0.8
2024-07-03T0400,2517A,108.0497,24.6947,河池市,市环保站,,11,6,14,3,4,34,,,,6,8,6,7,0.4,0.5
2024-07-03T0400,2518A,108.0983,24.6989,河池市,市疾控中心,,10,,14,3,4,32,,,,6,10,6,8,0.4,0.5
2024-07-03T0400,1696A,114.6778,23.7569,河源市,源西,颗粒物(PM10),52,54,24,28,24,5,,,,24,13,4,4,0.5,0.5
2024-07-03T0400,1697A,114.6944,23.7586,河源市,东埔,,15,12,21,10,11,25,,,,11,12,6,6,0.5,0.5
2024-07-03T0400,1698A,114.6892,23.7233,河源市,老城,,32,32,22,9,7,15,,,,10,8,5,5,0.5,0.5
2024-07-03T0400,1718A,115.4208,35.2464,菏泽市,气象局,,40,32,35,28,30,89,,,,12,8,4,3,0.3,0.4
2024-07-03T0400,1719A,115.4747,35.2375,菏泽市,市政协,,,,27,28,30,84,,,,7,5,3,3,,0.3
2024-07-03T0400,3374A,115.5564,35.0891,菏泽市,定陶老年大学,,35,34,29,24,21,57,,,,12,8,2,3,0.5,0.5
2024-07-03T0400,3647A,115.4702,35.2706,菏泽市,菏泽医专,,40,40,31,27,30,83,,,,24,7,6,3,0.4,0.4
2024-07-03T0400,2514A,111.5264,24.4172,贺州市,环保小区,,24,24,21,12,10,32,,,,11,14,8,7,0.5,0.6
2024-07-03T0400,2515A,111.5608,24.4078,贺州市,政协大楼,,25,25,24,13,13,35,,,,11,15,9,9,0.5,0.6
2024-07-03T0400,3534A,111.4744,24.4553,贺州市,西湾,,22,22,21,9,11,28,,,,17,16,8,8,0.6,0.6
2024-07-03T0400,2385A,114.17,35.9019,鹤壁市,市监测站,细颗粒物(PM2.5),57,51,41,40,35,92,,,,6,8,6,6,0.6,0.8
2024-07-03T0400,2386A,114.2956,35.7511,鹤壁市,市交警支队,,50,48,41,35,37,93,,,,9,7,6,6,0.6,0.7
2024-07-03T0400,2387A,114.2878,35.7306,鹤壁市,迎宾馆,细颗粒物(PM2.5),64,50,37,46,39,94,,,,14,14,5,5,0.5,0.6
2024-07-03T0400,3474A,114.2617,35.6822,鹤壁市,大新区,细颗粒物(PM2.5),57,44,33,40,27,73,,,,15,12,5,5,0.4,0.5
2024-07-03T0400,3596A,114.1572,35.9603,鹤壁市,南山宾馆,细颗粒物(PM2.5),72,,37,52,42,89,,,,10,9,5,7,0.3,0.5
2024-07-03T0400,2244A,130.2537,47.3416,鹤岗市,哈啤分公司,,43,34,36,30,28,40,,,,7,7,13,13,0.8,0.7
2024-07-03T0400,2245A,130.2684,47.3086,鹤岗市,斯达机电,,42,35,38,29,26,72,,,,6,12,12,12,0.3,0.3
2024-07-03T0400,2246A,130.3114,47.3388,鹤岗市,东山纸板厂,,43,42,42,30,26,0,,,,25,15,16,16,1.2,0.5
2024-07-03T0400,2247A,130.1097,47.3382,鹤岗市,五号水库,,32,29,32,22,21,46,,,,5,6,9,9,0.2,0.2
2024-07-03T0400,2263A,127.4833,50.2524,黑河市,交通局,细颗粒物(PM2.5),59,59,66,42,40,65,,,,10,14,6,8,0.5,0.6
2024-07-03T0400,2264A,127.5144,50.2341,黑河市,环保局,细颗粒物(PM2.5),60,61,60,43,42,80,,,,11,10,5,6,0.7,0.7
2024-07-03T0400,2265A,127.5291,50.2472,黑河市,大黑河岛,,,,58,58,59,,,,,11,13,1,3,,
2024-07-03T0400,1074A,115.6838,37.7541,衡水市,电机北厂,,47,47,48,26,32,86,,,,6,8,2,2,0.3,0.3
2024-07-03T0400,1075A,115.6303,37.7316,衡水市,市监测站,,27,27,34,16,30,59,,,,7,10,4,4,0.4,0.5
2024-07-03T0400,3188A,115.6683,37.7217,衡水市,市城管局,,45,,35,31,31,80,,,,6,7,5,3,0.3,0.5
2024-07-03T0400,3459A,115.5989,37.5491,衡水市,地表水厂,,39,32,36,27,26,11,,,,33,10,6,7,0.3,0.3
2024-07-03T0400,2456A,112.5003,26.9167,衡阳市,原169医院,,28,28,17,10,9,24,,,,12,10,5,5,0.8,0.7
2024-07-03T0400,2457A,112.6194,26.9258,衡阳市,衡阳化工总厂,,,19,17,,,32,,,,8,10,6,5,0.6,0.6
2024-07-03T0400,2458A,112.6211,26.8956,衡阳市,珠晖区环保局,,,28,15,,,12,,,,21,10,5,5,0.8,0.7
2024-07-03T0400,2459A,112.6197,26.8733,衡阳市,市委党校,,20,20,16,7,4,40,,,,9,10,7,7,0.7,0.7
2024-07-03T0400,2460A,112.6006,26.8919,衡阳市,市监测站,,15,15,16,9,10,33,,,,13,8,6,6,0.7,0.6
2024-07-03T0400,2461A,112.5664,26.9056,衡阳市,真空机电公司,,19,19,14,11,8,35,,,,14,8,6,6,0.8,0.7
2024-07-03T0400,3399A,112.6703,26.882,衡阳市,师范学院,,23,23,19,9,8,27,,,,11,9,8,8,0.7,0.7
2024-07-03T0400,2608A,103.3772,23.3993,红河哈尼族彝族自治州,污水处理厂,,12,12,17,7,9,23,,,,5,8,5,6,0.3,0.4
2024-07-03T0400,2609A,103.3861,23.35,红河哈尼族彝族自治州,监测站,,13,,10,9,7,24,,,,4,6,5,7,0.4,0.4
2024-07-03T0400,3038A,103.3758,23.368,红河哈尼族彝族自治州,州图书馆,,15,,13,10,6,25,,,,4,5,1,3,0.3,0.4
2024-07-03T0400,1090A,111.6507,40.7517,呼和浩特市,呼市一监,,49,,22,34,18,84,,,,11,11,7,7,0.9,0.5
2024-07-03T0400,1091A,111.6572,40.8033,呼和浩特市,小召,,38,,22,26,17,92,,,,16,13,5,6,0.9,0.7
2024-07-03T0400,1094A,111.7516,40.8369,呼和浩特市,如意水处理厂,,41,41,25,26,15,76,,,,17,15,5,5,0.7,0.5
2024-07-03T0400,1095A,111.7276,40.8062,呼和浩特市,二十九中,细颗粒物(PM2.5),65,,27,47,18,74,,,,19,17,3,3,1.0,0.6
2024-07-03T0400,1096A,111.5512,40.7866,呼和浩特市,工大金川校区,,30,18,28,12,15,96,,,,15,17,4,5,0.5,0.5
2024-07-03T0400,1097A,111.717,40.7612,呼和浩特市,化肥厂生活区,细颗粒物(PM2.5),60,59,39,43,22,84,,,,11,12,8,8,0.8,0.4
2024-07-03T0400,3698A,111.5968,40.8178,呼和浩特市,红旗小学,,29,12,25,10,16,92,,,,20,18,3,3,0.4,0.4
2024-07-03T0400,3699A,111.6518,40.8389,呼和浩特市,海东办,,30,,21,12,16,96,,,,17,15,3,3,0.4,0.4
2024-07-03T0400,2192A,119.7594,49.2261,呼伦贝尔市,区环保局,细颗粒物(PM2.5),69,70,52,50,46,44,,,,20,15,4,5,0.5,0.5
2024-07-03T0400,3061A,119.7512,49.1577,呼伦贝尔市,国华电力东,细颗粒物(PM2.5),67,69,49,48,38,50,,,,14,6,4,5,0.5,0.4
2024-07-03T0400,1250A,120.0751,30.8669,湖州市,城西水厂,,17,17,7,10,4,37,,,,33,15,3,3,0.6,0.5
2024-07-03T0400,2873A,120.0875,30.8955,湖州市,仁皇山新区,,23,21,9,16,6,42,,,,32,19,4,5,0.8,0.7
2024-07-03T0400,2907A,120.1844,30.8596,湖州市,吴兴区站,,16,13,11,9,6,49,,,,7,14,6,5,0.6,0.6
2024-07-03T0400,3562A,120.4148,30.8538,湖州市,南浔区站,,18,15,15,12,12,38,,,,8,12,2,2,0.6,0.6
2024-07-03T0400,1607A,120.9092,40.7136,葫芦岛市,龙港区,,42,19,56,18,49,132,,,,2,17,5,22,0.5,0.8
2024-07-03T0400,1608A,120.8392,40.7514,葫芦岛市,化工街,,44,,40,14,30,138,,,,10,20,12,14,0.6,0.8
2024-07-03T0400,1609A,120.8341,40.7073,葫芦岛市,新区,,44,,45,22,40,139,,,,13,22,4,6,0.6,0.8
2024-07-03T0400,1610A,120.8695,40.7677,葫芦岛市,东城区,,48,16,38,13,39,152,,,,2,13,6,11,0.6,0.7
2024-07-03T0400,2482A,109.5981,27.5721,怀化市,林科所,,19,19,13,8,6,41,,,,11,4,6,7,0.8,0.7
2024-07-03T0400,2483A,109.9453,27.5444,怀化市,河西地税局,,27,27,20,12,11,11,,,,8,9,2,4,0.8,0.8
2024-07-03T0400,2484A,109.9781,27.5342,怀化市,市四医院,,27,27,17,15,12,27,,,,13,7,2,2,0.8,0.7
2024-07-03T0400,2485A,109.9972,27.5578,怀化市,监测楼,,31,31,19,17,11,20,,,,9,6,16,11,0.6,0.6
2024-07-03T0400,2486A,110.0394,27.583,怀化市,市委党校,,24,24,17,14,9,14,,,,12,8,9,5,0.6,0.6
2024-07-03T0400,1210A,119.036,33.5981,淮安市,钵池山,细颗粒物(PM2.5),52,41,21,36,15,91,,,,13,12,8,7,0.8,0.8
2024-07-03T0400,1211A,119.007,33.575,淮安市,北京南路,细颗粒物(PM2.5),68,,24,49,18,78,,,,13,12,6,8,0.7,0.8
2024-07-03T0400,1212A,118.989,33.6067,淮安市,市监测站,细颗粒物(PM2.5),62,56,24,44,20,77,,,,15,12,5,6,0.7,0.8
2024-07-03T0400,1213A,119.135,33.5039,淮安市,楚州区监测站,,37,37,24,24,15,82,,,,13,12,4,4,0.6,0.5
2024-07-03T0400,1214A,119.0186,33.6297,淮安市,淮阴区监测站,细颗粒物(PM2.5),59,61,24,42,17,87,,,,13,14,6,6,0.7,0.6
2024-07-03T0400,3426A,118.8755,33.2894,淮安市,新华书店,,30,,21,20,17,93,,,,10,10,6,5,0.6,0.6
2024-07-03T0400,2282A,116.8004,33.975,淮北市,监测站,,38,28,24,26,23,98,,,,9,3,5,5,0.8,0.6
2024-07-03T0400,2283A,116.8091,33.9007,淮北市,烈山区政府,颗粒物(PM10),51,51,26,29,19,66,,,,21,5,4,4,0.8,0.7
2024-07-03T0400,3330A,116.8873,33.9836,淮北市,杜集区检察院,细颗粒物(PM2.5),52,47,46,36,27,87,,,,9,6,5,5,0.8,0.7
2024-07-03T0400,4017A,116.7923,33.9535,淮北市,市博物馆,,40,29,29,28,22,97,,,,3,2,4,4,0.9,0.8
2024-07-03T0400,2277A,116.8305,32.7727,淮南市,潘集区政府,,48,,28,33,22,93,,,,6,6,3,3,0.4,0.3
2024-07-03T0400,2278A,117.0067,32.6524,淮南市,师范学院,细颗粒物(PM2.5),58,57,35,41,28,83,,,,7,6,5,6,0.4,0.3
2024-07-03T0400,2279A,116.8569,32.5951,淮南市,谢家集区政府,,33,33,19,22,9,77,,,,5,6,5,5,0.3,0.3
2024-07-03T0400,2280A,116.8281,32.633,淮南市,八公山区政府,细颗粒物(PM2.5),65,67,32,47,24,56,,,,11,4,3,3,0.4,0.3
2024-07-03T0400,2281A,116.6325,32.6201,淮南市,焦岗湖风景区管理处,,49,49,20,23,10,26,,,,20,8,3,3,0.4,0.3
2024-07-03T0400,2894A,117.0566,32.6531,淮南市,经济技术开发区消防队,细颗粒物(PM2.5),58,57,27,41,17,71,,,,6,6,4,5,0.4,0.3
2024-07-03T0400,3329A,117.0108,32.5893,淮南市,山南新区,,35,35,26,10,11,64,,,,5,5,1,3,0.5,0.4
2024-07-03T0400,2446A,114.9028,30.4742,黄冈市,职工中心,,42,42,29,29,20,59,,,,15,13,12,8,0.5,0.6
2024-07-03T0400,2929A,114.8858,30.4519,黄冈市,红卫路,,46,44,29,32,21,55,,,,25,16,11,8,0.5,0.5
2024-07-03T0400,3398A,114.9136,30.4445,黄冈市,市林业局,,50,45,29,35,20,50,,,,19,12,9,6,0.5,0.5
2024-07-03T0400,2672A,102.0199,35.5102,黄南藏族自治州,同仁县隆务镇,,30,15,20,3,9,93,,,,2,2,10,9,0.1,0.2
2024-07-03T0400,2295A,118.2903,29.6963,黄山市,延安路89号,,18,18,21,3,8,35,,,,6,5,5,5,0.4,0.4
2024-07-03T0400,2296A,118.327,29.7178,黄山市,黄山东路89号,,9,9,13,3,5,26,,,,4,6,4,4,0.4,0.4
2024-07-03T0400,2297A,118.1371,30.2756,黄山市,黄山区政府5号楼,,7,6,11,3,6,20,,,,6,6,6,6,0.4,0.3
2024-07-03T0400,2423A,115.0601,30.2313,黄石市,沈家营,颗粒物(PM10),51,51,28,20,11,12,,,,40,15,21,7,0.8,0.6
2024-07-03T0400,2424A,115.0817,30.2006,黄石市,陈家湾,颗粒物(PM10),59,68,30,26,12,27,,,,19,11,5,5,0.9,0.6
2024-07-03T0400,2426A,114.8988,30.2019,黄石市,铁山,,33,33,31,15,12,40,,,,29,11,13,11,0.4,0.7
2024-07-03T0400,2427A,115.0307,30.2092,黄石市,团城山,,46,46,28,16,10,13,,,,46,8,18,7,0.8,0.6
2024-07-03T0400,3149A,115.0235,30.1578,黄石市,笔架山北路,颗粒物(PM10),55,60,33,26,10,27,,,,23,9,11,7,1.2,0.7
2024-07-03T0400,1392A,114.4183,23.0528,惠州市,河南岸金山湖子站,,23,23,20,9,9,16,,,,10,5,5,4,0.4,0.4
2024-07-03T0400,1393A,114.4053,23.0822,惠州市,下埔横江三路子站,,15,15,21,8,10,26,,,,7,7,6,6,0.4,0.5
2024-07-03T0400,1394A,114.4103,23.1142,惠州市,江北云山西路子站,,17,17,19,7,7,19,,,,6,5,8,8,0.4,0.4
2024-07-03T0400,1395A,114.4645,22.7833,惠州市,惠阳区承修路船湖子站,,10,10,18,3,8,23,,,,7,8,1,1,0.4,0.5
2024-07-03T0400,1396A,114.5317,22.7422,惠州市,大亚湾管委会子站,,19,19,19,3,6,11,,,,22,8,5,5,0.5,0.5
2024-07-03T0400,3314A,114.4338,22.8134,惠州市,惠阳秋长,,9,7,15,3,8,27,,,,3,4,4,4,0.6,0.6
2024-07-03T0400,3452A,114.6517,22.775,惠州市,大亚湾霞涌,,8,6,18,3,5,24,,,,6,6,3,3,0.4,0.4
2024-07-03T0400,2240A,130.9762,45.3001,鸡西市,环保局,细颗粒物(PM2.5),77,86,71,56,49,16,,,,26,19,7,7,0.6,0.5
2024-07-03T0400,2243A,130.9429,45.3039,鸡西市,第一中学,颗粒物(PM10),66,81,72,44,43,0,,,,51,15,8,8,0.6,0.5
2024-07-03T0400,3707A,131.0207,45.3073,鸡西市,欧美日汽修厂,细颗粒物(PM2.5),72,88,84,52,50,14,,,,23,19,6,8,0.5,0.4
2024-07-03T0400,3709A,130.9967,45.3106,鸡西市,市政设施管理处,细颗粒物(PM2.5),68,79,77,49,46,6,,,,13,13,7,7,0.5,0.4
2024-07-03T0400,2367A,114.9754,27.0803,吉安市,红声器材厂,,,22,21,3,9,32,,,,,9,16,14,0.3,0.4
2024-07-03T0400,2368A,114.9658,27.0999,吉安市,市森林工业局,,18,18,18,10,9,25,,,,16,12,13,12,0.5,0.4
2024-07-03T0400,2369A,114.99,27.1312,吉安市,市环境监测站,,28,28,21,8,7,31,,,,9,7,14,13,0.6,0.7
2024-07-03T0400,2370A,115.0093,27.0968,吉安市,青原区法院,,16,16,20,3,10,33,,,,8,11,20,12,0.4,0.4
2024-07-03T0400,1772A,126.54,43.8622,吉林市,哈达湾,,30,20,37,10,27,96,,,,6,17,4,4,0.4,0.5
2024-07-03T0400,1773A,126.5844,43.8358,吉林市,东局子,,31,13,35,12,27,99,,,,5,17,4,4,0.5,0.6
2024-07-03T0400,1774A,126.5052,43.8245,吉林市,电力学院,,35,35,44,19,28,68,,,,10,19,6,7,0.5,0.6
2024-07-03T0400,1775A,126.6133,43.8972,吉林市,江北,,22,20,36,12,25,70,,,,6,10,7,8,0.7,0.7
2024-07-03T0400,1776A,126.555,43.8306,吉林市,江南公园,,30,21,40,11,29,96,,,,7,21,3,3,0.5,0.6
2024-07-03T0400,1778A,126.7061,43.7133,吉林市,丰满,,,,,,,,,,,,,,,,
2024-07-03T0400,2868A,126.4739,43.953,吉林市,九站,,29,29,45,13,29,64,,,,12,20,6,7,0.5,0.6
2024-07-03T0400,1299A,116.9862,36.6114,济南市,科干所,,46,34,30,32,26,93,,,,12,18,6,6,0.4,0.6
2024-07-03T0400,1300A,116.9376,36.665,济南市,农科所,,42,34,32,29,24,69,,,,16,18,7,7,0.4,0.5
2024-07-03T0400,1301A,117.1265,36.6734,济南市,开发区,,49,34,27,34,22,95,,,,7,16,7,7,0.5,0.7
2024-07-03T0400,1303A,117.0624,36.6868,济南市,省种子仓库,细颗粒物(PM2.5),52,41,34,36,31,96,,,,10,13,5,5,0.5,0.7
2024-07-03T0400,1304A,116.9489,36.6447,济南市,机床二厂,,35,32,30,24,22,92,,,,10,13,8,8,0.3,0.4
2024-07-03T0400,1305A,117.0495,36.663,济南市,市监测站,,42,32,30,29,27,97,,,,11,18,10,10,0.4,0.6
2024-07-03T0400,1306A,116.7675,36.5484,济南市,长清党校,,46,46,36,32,34,87,,,,10,11,7,7,0.6,0.7
2024-07-03T0400,1616A,117.6795,36.229,济南市,技术学院,,28,27,18,19,16,72,,,,9,8,9,8,1.7,0.9
2024-07-03T0400,1961A,117.532,36.6868,济南市,东山小学,,42,37,31,29,22,87,,,,13,17,5,5,0.5,0.7
2024-07-03T0400,3059A,117.7161,36.2049,济南市,泰兴公司,,28,22,17,19,14,68,,,,12,12,7,8,0.6,0.6
2024-07-03T0400,3064A,117.6867,36.2171,济南市,莱芜战役纪念馆,,25,22,20,17,12,57,,,,9,9,6,7,0.9,0.7
2024-07-03T0400,3494A,117.1673,36.9782,济南市,济阳区政府,细颗粒物(PM2.5),53,39,38,37,31,98,,,,5,10,4,4,0.3,0.5
2024-07-03T0400,3495A,117.1171,36.63,济南市,锦屏中学,,49,39,29,34,23,100,,,,11,16,8,8,0.4,0.6
2024-07-03T0400,3682A,116.9814,36.6819,济南市,济南四建,,42,34,29,29,30,87,,,,9,15,7,7,0.6,0.8
2024-07-03T0400,1653A,116.6251,35.4302,济宁市,火炬城,,45,31,34,31,27,99,,,,6,11,8,9,0.7,0.8
2024-07-03T0400,1655A,116.5491,35.4042,济宁市,电化厂,,42,36,39,29,30,102,,,,7,11,5,5,0.6,0.7
2024-07-03T0400,3500A,116.5814,35.3707,济宁市,北湖一中,,39,28,33,27,25,95,,,,10,12,5,5,0.7,0.8
2024-07-03T0400,3501A,116.8249,35.5593,济宁市,服务中心,,45,,30,31,30,86,,,,8,12,2,3,0.6,0.7
2024-07-03T0400,3678A,116.5907,35.4054,济宁市,市第七中学,,45,,32,31,28,102,,,,9,13,4,4,0.6,0.7
2024-07-03T0400,2255A,130.2751,46.8028,佳木斯市,佳纺,颗粒物(PM10),58,65,52,38,33,19,,,,29,18,5,6,0.5,0.5
2024-07-03T0400,2256A,130.3995,46.8307,佳木斯市,发电厂,细颗粒物(PM2.5),54,52,49,38,35,30,,,,26,16,8,5,0.7,0.6
2024-07-03T0400,2257A,130.3258,46.7975,佳木斯市,环保局,细颗粒物(PM2.5),59,58,49,42,35,20,,,,36,15,6,6,0.7,0.6
2024-07-03T0400,2258A,130.3648,46.8032,佳木斯市,十一中,细颗粒物(PM2.5),64,53,50,46,39,26,,,,40,24,8,7,0.7,0.6
2024-07-03T0400,2259A,130.3794,46.7588,佳木斯市,四丰,,38,38,46,25,27,61,,,,6,6,1,1,0.7,0.7
2024-07-03T0400,1252A,120.7436,30.778,嘉兴市,清河小学,,18,18,13,10,6,43,,,,11,9,5,5,0.6,0.5
2024-07-03T0400,1253A,120.726,30.7478,嘉兴市,嘉兴学院,,15,15,15,10,7,24,,,,18,13,2,2,0.6,0.5
2024-07-03T0400,2872A,120.7846,30.7525,嘉兴市,南湖区残联,,16,16,14,11,9,49,,,,9,7,4,4,0.5,0.5
2024-07-03T0400,3407A,120.6916,30.7739,嘉兴市,秀洲住建,,22,22,12,13,13,9,,,,27,13,3,3,0.7,0.6
2024-07-03T0400,1945A,98.2908,39.7711,嘉峪关市,气象局,,35,27,34,12,11,110,,,,3,15,4,6,0.3,0.4
2024-07-03T0400,2884A,98.2672,39.7978,嘉峪关市,酒钢宾馆,,48,48,37,14,12,116,,,,6,14,15,11,0.4,0.4
2024-07-03T0400,3248A,98.2643,39.7724,嘉峪关市,雄关区,,34,30,29,23,17,106,,,,5,17,7,8,0.4,0.5
2024-07-03T0400,1383A,113.1064,22.6058,江门市,北街,,15,15,23,6,10,28,,,,8,6,3,3,0.5,0.5
2024-07-03T0400,1384A,113.0731,22.5835,江门市,西区,,24,24,22,6,10,32,,,,5,7,4,5,0.3,0.4
2024-07-03T0400,1385A,113.0219,22.5311,江门市,圭峰西,,12,12,20,6,9,29,,,,8,7,4,3,0.5,0.5
2024-07-03T0400,1386A,113.0828,22.5947,江门市,东湖,,14,14,21,3,9,33,,,,7,8,5,5,0.4,0.4
2024-07-03T0400,3311A,113.1075,22.5647,江门市,江海富民,,34,34,33,11,13,29,,,,10,8,6,5,0.5,0.5
2024-07-03T0400,3449A,113.05,22.4667,江门市,新会银湖,,8,7,19,3,8,17,,,,15,9,4,4,0.6,0.6
2024-07-03T0400,1828A,113.227,35.2125,焦作市,市环保局,细颗粒物(PM2.5),54,42,28,38,22,91,,,,6,4,4,2,0.6,0.5
2024-07-03T0400,1830A,113.1992,35.2590,焦作市,影视城,,,,,,,,,,,,,,,,
2024-07-03T0400,3169A,113.2725,35.2067,焦作市,太极体育中心,,49,49,35,32,23,88,,,,6,4,3,2,0.5,0.4
2024-07-03T0400,3335A,113.3137,35.2641,焦作市,马村街道办,细颗粒物(PM2.5),59,47,29,42,26,95,,,,4,6,2,3,0.5,0.5
2024-07-03T0400,3336A,113.2465,35.2373,焦作市,焦作技师学院,细颗粒物(PM2.5),62,52,29,44,23,90,,,,8,5,3,2,0.7,0.6
2024-07-03T0400,3477A,113.1656,35.2539,焦作市,中站许衡医院,细颗粒物(PM2.5),78,75,30,57,30,80,,,,11,8,9,6,0.7,0.6
2024-07-03T0400,3981A,113.2449,35.1803,焦作市,原李万街道办,细颗粒物(PM2.5),52,41,33,36,20,85,,,,8,6,6,5,0.6,0.5
2024-07-03T0400,1708A,116.3701,23.5345,揭阳市,新兴,,30,30,29,6,9,17,,,,13,8,4,3,0.5,0.5
2024-07-03T0400,1709A,116.3264,23.5443,揭阳市,西马,,22,22,24,3,8,25,,,,3,4,2,2,0.6,0.6
2024-07-03T0400,1710A,116.3611,23.5626,揭阳市,东兴,,41,41,33,8,8,15,,,,12,5,1,1,0.7,0.7
2024-07-03T0400,1711A,116.4151,23.5294,揭阳市,渔湖,,24,24,33,6,8,17,,,,14,9,2,2,0.5,0.5
2024-07-03T0400,3320A,116.403,23.5699,揭阳市,曲溪,,27,27,18,11,9,9,,,,16,7,4,3,0.6,0.5
2024-07-03T0400,1944A,102.1692,38.5167,金昌市,天庆家园,,40,,33,28,23,65,,,,14,16,15,10,0.4,0.6
2024-07-03T0400,3170A,102.1864,38.5253,金昌市,市委党校,颗粒物(PM10),52,53,50,22,19,51,,,,23,16,11,17,0.7,0.7
2024-07-03T0400,4022A,102.1647,38.5371,金昌市,金川区人防中心,,29,20,43,20,21,83,,,,10,15,19,19,0.5,0.5
2024-07-03T0400,1262A,119.647,29.077,金华市,十五中,,29,29,24,10,12,17,,,,23,17,2,3,0.6,0.6
2024-07-03T0400,1263A,119.686,29.1029,金华市,监测站,,34,34,22,14,10,8,,,,26,14,3,3,0.5,0.4
2024-07-03T0400,3659A,119.656,29.1131,金华市,气象局,,32,32,25,9,7,5,,,,30,19,5,6,0.4,0.5
2024-07-03T0400,1767A,121.1115,41.0879,锦州市,南山,,45,,43,20,39,144,,,,3,19,4,7,0.6,0.7
2024-07-03T0400,1768A,121.0533,40.8434,锦州市,开发区,,,,47,15,43,141,,,,6,19,7,11,0.8,0.9
2024-07-03T0400,1769A,121.1836,41.1119,锦州市,百股街道,,43,23,43,17,31,136,,,,5,19,8,14,0.7,0.9
2024-07-03T0400,1770A,121.1178,41.1222,锦州市,天安街道,,42,,46,29,44,122,,,,8,21,4,6,0.6,0.8
2024-07-03T0400,1771A,121.1303,41.1386,锦州市,北湖公园,,42,22,47,13,43,133,,,,4,16,5,7,0.5,0.7
2024-07-03T0400,2160A,112.85,35.5051,晋城市,自来水公司,细颗粒物(PM2.5),58,,31,41,23,121,,,,7,11,4,7,0.7,0.9
2024-07-03T0400,2161A,112.8318,35.4936,晋城市,白云商贸,颗粒物(PM10),60,70,39,34,21,118,,,,9,12,5,8,0.7,1
2024-07-03T0400,2162A,112.8508,35.4887,晋城市,市环保局,颗粒物(PM10),52,53,37,34,23,119,,,,7,11,5,7,0.7,0.9
2024-07-03T0400,2163A,112.8676,35.4897,晋城市,技术学院,细颗粒物(PM2.5),52,38,32,36,23,116,,,,10,13,5,6,0.9,1
2024-07-03T0400,2165A,112.8453,35.546,晋城市,白马寺,,,,,,,,,,,,,,,,
2024-07-03T0400,3620A,112.8271,35.4828,晋城市,泽州一中,细颗粒物(PM2.5),55,,30,39,22,116,,,,8,11,7,9,1.1,1.1
2024-07-03T0400,2171A,112.7532,37.6945,晋中市,锦纶小区,,49,46,23,34,13,48,,,,29,13,8,7,0.6,0.4
2024-07-03T0400,2173A,112.7249,37.7067,晋中市,南都小区,,48,48,30,24,18,56,,,,24,14,8,6,0.6,0.5
2024-07-03T0400,2174A,112.6991,37.6982,晋中市,榆次区政府,颗粒物(PM10),52,53,25,31,20,60,,,,22,15,6,6,0.4,0.4
2024-07-03T0400,2865A,112.7195,37.6828,晋中市,榆次三中,颗粒物(PM10),52,53,24,24,10,57,,,,25,12,7,6,0.7,0.5
2024-07-03T0400,2439A,112.2014,31.0481,荆门市,竹园小学,细颗粒物(PM2.5),52,44,37,36,20,78,,,,13,12,10,9,0.5,0.6
2024-07-03T0400,2440A,112.1969,30.9891,荆门市,掇刀,,40,34,34,28,19,90,,,,10,15,8,7,0.6,0.6
2024-07-03T0400,2441A,112.2213,31.0386,荆门市,石化一小,,40,40,36,13,13,78,,,,14,12,19,14,0.6,0.5
2024-07-03T0400,3012A,112.1849,31.0362,荆门市,西山林语,细颗粒物(PM2.5),62,,27,44,23,66,,,,11,8,9,9,0.5,0.5
2024-07-03T0400,3547A,112.1632,31.0138,荆门市,龙泉中学南校,,36,32,26,25,18,56,,,,12,11,9,8,0.6,0.6
2024-07-03T0400,1844A,112.2494,30.3197,荆州市,市图书馆,,33,33,25,19,18,79,,,,16,11,6,6,0.6,0.6
2024-07-03T0400,1845A,112.2008,30.3544,荆州市,市委党校,,30,30,24,16,20,78,,,,20,12,6,7,0.6,0.6
2024-07-03T0400,3194A,112.2747,30.3122,荆州市,管委会,,36,36,26,16,20,75,,,,23,12,5,6,0.5,0.5
2024-07-03T0400,3548A,112.1655,30.3364,荆州市,学苑路,,43,,26,30,23,64,,,,21,13,6,7,0.7,0.6
2024-07-03T0400,2342A,117.3102,29.3867,景德镇市,王港中学,,,,,,,,,,,,,,,,
2024-07-03T0400,2343A,117.2117,29.2933,景德镇市,老干部活动中心,,9,9,14,3,7,27,,,,10,10,7,7,0.4,0.4
2024-07-03T0400,2344A,117.1894,29.2789,景德镇市,兽医站,,14,14,20,8,8,23,,,,10,10,5,6,0.5,0.4
2024-07-03T0400,2345A,117.1547,29.2617,景德镇市,台达陶瓷,,18,18,19,9,11,15,,,,19,18,13,19,0.4,0.4
2024-07-03T0400,2346A,117.2461,29.2956,景德镇市,陶研所,,12,12,16,3,7,33,,,,7,9,4,4,0.4,0.4
2024-07-03T0400,1803A,115.9872,29.6815,九江市,十里,,18,10,17,6,9,56,,,,10,16,9,10,0.6,0.7
2024-07-03T0400,1804A,115.9584,29.7046,九江市,茅山头,,20,12,10,8,7,62,,,,7,13,14,10,0.5,0.6
2024-07-03T0400,1805A,115.9877,29.7295,九江市,西园,,,,10,,7,,,71,,,12,,10,,0.8
2024-07-03T0400,1806A,116.0172,29.6547,九江市,五七二七厂,,7,7,8,3,3,17,,,,8,8,9,8,0.7,0.7
2024-07-03T0400,1808A,115.9114,29.6038,九江市,综合工业园,,18,15,8,3,3,37,,,,35,16,12,9,0.8,0.8
2024-07-03T0400,1809A,116.0721,29.7535,九江市,石化总厂,,21,11,12,9,9,66,,,,4,10,8,10,0.7,0.7
2024-07-03T0400,1810A,115.9773,29.5698,九江市,庐山气象台,,22,7,11,6,7,69,,,,2,2,11,12,0.5,0.9
2024-07-03T0400,3190A,116.0254,29.6994,九江市,外国语学校,,25,8,7,6,6,80,,,,10,15,16,9,0.7,0.7
2024-07-03T0400,2658A,98.5061,39.7443,酒泉市,仓门街子站,,29,24,36,10,15,92,,,,4,10,9,13,0.2,0.3
2024-07-03T0400,2659A,98.4989,39.7256,酒泉市,油田生活基地,,34,34,35,19,15,76,,,,17,11,9,16,0.2,0.2
2024-07-03T0400,2698A,76.0072,39.4467,喀什地区,巡警大队,颗粒物(PM10),53,56,43,15,9,94,,,,15,15,3,3,0.3,0.3
2024-07-03T0400,2699A,75.9755,39.4694,喀什地区,吾办,颗粒物(PM10),53,56,43,15,14,94,,,,13,14,2,3,0.3,0.3
2024-07-03T0400,4027A,75.9483,39.4689,喀什地区,老干局,颗粒物(PM10),58,66,50,10,12,94,,,,11,16,3,4,0.3,0.3
2024-07-03T0400,1824A,114.3389,34.7781,开封市,肿瘤医院,,40,40,29,27,18,72,,,,14,6,3,3,0.9,0.9
2024-07-03T0400,1826A,114.2885,34.7965,开封市,世纪星幼儿园,,48,35,27,33,21,87,,,,11,6,3,3,0.4,0.5
2024-07-03T0400,3147A,114.3438,34.8106,开封市,龙亭公园,,43,34,28,30,30,76,,,,13,10,2,3,0.6,0.5
2024-07-03T0400,3210A,114.3644,34.7964,开封市,汴京公园,细颗粒物(PM2.5),64,,28,46,27,69,,,,17,7,3,3,0.8,0.7
2024-07-03T0400,3473A,114.2485,34.8306,开封市,技师学院,,33,28,26,23,19,95,,,,8,7,5,3,0.8,0.8
2024-07-03T0400,3592A,114.4644,34.7556,开封市,祥符区生态环境局,,49,48,28,34,22,45,,,,29,16,2,2,0.6,0.7
2024-07-03T0400,1951A,84.895,45.6094,克拉玛依市,长征新村,,34,34,19,9,5,96,,,,3,6,9,9,0.1,0.2
2024-07-03T0400,1952A,84.8988,45.5893,克拉玛依市,南林小区,,32,30,18,12,12,100,,,,1,7,4,3,0.1,0.1
2024-07-03T0400,1954A,84.905,44.3396,克拉玛依市,独山子区,,33,16,14,6,5,104,,,,5,9,5,6,0.3,0.3
2024-07-03T0400,1955A,85.6979,46.098,克拉玛依市,乌尔禾区商贸楼,,12,11,14,7,5,38,,,,11,6,4,4,0.2,0.2
2024-07-03T0400,3612A,85.1045,45.6899,克拉玛依市,白碱滩区新站,,32,32,24,16,14,32,,,,19,7,5,6,0.4,0.3
2024-07-03T0400,2697A,76.1454,39.7142,克孜勒苏柯尔克孜自治州,市人民政府,,46,46,37,32,16,113,,,,5,6,32,13,0.2,0.2
2024-07-03T0400,3665A,76.1658,39.7157,克孜勒苏柯尔克孜自治州,克州文化中心,,40,39,28,18,15,128,,,,2,3,10,13,0.2,0.2
2024-07-03T0400,1450A,102.8204,24.8886,昆明市,呈贡新区,,13,11,17,9,10,19,,,,19,14,8,6,0.6,0.5
2024-07-03T0400,1451A,102.6251,24.9608,昆明市,西山森林公园,,,,,,,,,,,,,,,,
2024-07-03T0400,1452A,102.7252,25.0902,昆明市,龙泉镇,,9,8,16,3,8,26,,,,10,13,6,6,0.6,0.6
2024-07-03T0400,1453A,102.7266,25.0375,昆明市,东风东路,,14,14,21,7,10,15,,,,15,16,3,2,0.4,0.5
2024-07-03T0400,1454A,102.6742,25.0669,昆明市,金鼎山,,12,12,21,3,7,23,,,,13,15,8,9,0.4,0.5
2024-07-03T0400,1455A,102.6644,25.0401,昆明市,碧鸡广场,,13,13,18,6,8,9,,,,22,15,4,3,0.3,0.3
2024-07-03T0400,3179A,102.7494,25.0119,昆明市,官渡区博物馆,,12,12,19,3,8,19,,,,8,15,12,9,0.6,0.5
2024-07-03T0400,3375A,102.8017,24.8336,昆明市,青年创业园,,14,14,15,8,10,11,,,,17,14,13,8,0.6,0.4
2024-07-03T0400,3550A,102.7997,24.9786,昆明市,昆明学院,,24,24,26,8,13,23,,,,11,17,7,5,0.5,0.5
2024-07-03T0400,3551A,102.5967,24.6736,昆明市,晋宁区生态环境分局,,13,13,13,3,7,22,,,,12,10,5,6,0.9,0.8
2024-07-03T0400,3552A,102.6678,24.9856,昆明市,云天化总部,,13,13,18,8,11,18,,,,11,12,2,2,0.5,0.6
2024-07-03T0400,1456A,91.1319,29.6514,拉萨市,八廓街,,29,7,9,6,6,92,,,,8,13,6,6,0.1,0.2
2024-07-03T0400,1457A,91.1221,29.6747,拉萨市,市环保局,,29,7,13,6,6,92,,,,8,13,8,9,0.1,0.4
2024-07-03T0400,1458A,91.0874,29.6475,拉萨市,区监测站,,29,8,7,7,6,91,,,,5,12,6,7,0.3,0.3
2024-07-03T0400,1459A,91.1774,29.6541,拉萨市,西藏大学,,28,8,7,3,6,89,,,,6,8,7,9,0.2,0.2
2024-07-03T0400,1460A,90.9798,29.6588,拉萨市,区辐射站,,30,6,9,3,5,93,,,,3,11,7,7,0.2,0.3
2024-07-03T0400,1461A,91.0834,29.6292,拉萨市,拉萨火车站,,29,8,7,3,6,92,,,,5,8,8,9,0.2,0.2
2024-07-03T0400,2520A,109.2203,23.7256,来宾市,来宾技工学校,,18,18,8,3,5,17,,,,9,7,6,6,0.7,0.7
2024-07-03T0400,3535A,109.1781,23.7297,来宾市,兴宾区政府,,16,16,9,3,5,12,,,,12,9,5,5,0.7,0.7
2024-07-03T0400,4002A,109.2416,23.7461,来宾市,中南小学,,17,17,11,3,4,12,,,,13,11,4,5,0.8,0.7
2024-07-03T0400,1476A,103.631,36.1031,兰州市,兰炼宾馆,,35,23,40,22,24,109,,,,12,22,16,17,0.3,0.4
2024-07-03T0400,1477A,104.1373,35.9454,兰州市,榆中兰大校区,,,,,,,,,,,,,,,,
2024-07-03T0400,1478A,103.8412,36.0726,兰州市,生物制品所,,48,48,42,28,26,6,,,,64,41,10,13,0.4,0.5
2024-07-03T0400,1479A,103.831,36.0464,兰州市,铁路设计院,,42,42,37,23,23,58,,,,40,49,7,9,0.4,0.5
2024-07-03T0400,3186A,103.7158,36.1058,兰州市,教育港,,38,38,41,26,22,79,,,,26,24,21,15,0.4,0.4
2024-07-03T0400,3241A,103.7439,36.0842,兰州市,百合公园,,39,39,36,25,19,23,,,,58,32,9,12,0.5,0.4
2024-07-03T0400,3242A,103.9611,35.998,兰州市,和平,,31,28,31,12,15,99,,,,11,16,6,10,0.3,0.3
2024-07-03T0400,3245A,103.6633,36.533,兰州新区,新区管委会,,35,35,37,15,19,62,,,,20,16,6,12,0.4,0.4
2024-07-03T0400,3246A,103.6975,36.4789,兰州新区,舟曲中学,,31,23,31,10,17,98,,,,8,16,12,11,0.4,0.5
2024-07-03T0400,1067A,116.6708,39.5111,廊坊市,药材公司,,42,33,37,29,27,24,,,,29,21,3,3,0.4,0.4
2024-07-03T0400,1068A,116.7214,39.5589,廊坊市,开发区,,48,42,44,33,30,41,,,,16,20,3,2,0.3,0.4
2024-07-03T0400,1070A,116.7244,39.5269,廊坊市,北华航天学院,,48,41,44,33,26,37,,,,16,18,3,3,0.4,0.4
2024-07-03T0400,2919A,116.7022,39.5453,廊坊市,河北工业大学,,44,44,46,30,26,42,,,,13,16,3,3,0.3,0.4
2024-07-03T0400,2535A,103.7723,29.5462,乐山市,花湖湾,,32,,22,22,20,84,,,,13,15,4,5,0.3,0.4
2024-07-03T0400,2536A,103.7627,29.5844,乐山市,牛耳桥,,33,27,26,23,19,78,,,,17,20,6,4,0.6,0.6
2024-07-03T0400,2537A,103.7508,29.6006,乐山市,市第三水厂,,35,,22,24,18,79,,,,17,17,5,4,0.4,0.4
2024-07-03T0400,2538A,103.7571,29.5664,乐山市,市监测站,,29,23,27,14,15,92,,,,9,12,2,3,0.7,0.8
2024-07-03T0400,3361A,103.7311,29.5628,乐山市,理工大学,,30,20,28,15,17,95,,,,7,13,4,6,0.4,0.5
2024-07-03T0400,2598A,100.2143,26.8576,丽江市,西南郊,,,,,,,,,,,,,,,,
2024-07-03T0400,2599A,100.2497,26.8802,丽江市,丽江古城,,16,14,19,11,14,28,,,,11,11,7,7,0.6,0.6
2024-07-03T0400,2600A,100.2203,26.8906,丽江市,市中心,,12,,17,8,11,27,,,,9,13,10,10,0.6,0.6
2024-07-03T0400,1267A,119.914,28.4514,丽水市,监测站大楼,,25,25,21,3,9,5,,,,26,12,5,3,0.5,0.4
2024-07-03T0400,1268A,119.93,28.4586,丽水市,莲都小学,,23,23,23,9,5,3,,,,29,12,4,3,0.5,0.4
2024-07-03T0400,1269A,119.879,28.4231,丽水市,余庄前,,22,22,18,14,11,3,,,,10,8,3,2,0.5,0.5
2024-07-03T0400,1173A,119.176,34.5885,连云港市,市环境监测站,细颗粒物(PM2.5),70,,26,51,23,82,,,,12,13,6,7,0.6,0.5
2024-07-03T0400,3000A,119.3581,34.6972,连云港市,德源药业,细颗粒物(PM2.5),52,36,18,36,16,80,,,,7,7,5,4,0.7,0.5
2024-07-03T0400,3007A,119.178,34.844,连云港市,新城一中,细颗粒物(PM2.5),55,43,20,39,16,73,,,,11,9,10,5,0.8,0.7
2024-07-03T0400,3008A,119.3608,34.7519,连云港市,胡沟管理处,细颗粒物(PM2.5),52,36,21,36,18,74,,,,7,7,6,6,0.9,0.7
2024-07-03T0400,3009A,119.1478,34.5911,连云港市,矿山设计院,细颗粒物(PM2.5),62,53,26,44,19,74,,,,12,11,1,3,0.6,0.5
2024-07-03T0400,3434A,119.2413,34.6539,连云港市,工贸学校,,50,44,22,35,16,85,,,,8,7,8,7,0.9,0.8
2024-07-03T0400,3664A,119.4172,34.7341,连云港市,连云街道,,44,44,20,29,14,98,,,,6,8,2,2,0.9,0.8
2024-07-03T0400,2571A,102.3431,27.8099,凉山彝族自治州,青龙寺,,18,18,16,9,7,16,,,,5,5,3,2,0.5,0.4
2024-07-03T0400,2572A,102.2721,27.8415,凉山彝族自治州,邛海宾馆,,18,17,18,12,10,15,,,,16,12,8,9,0.7,0.7
2024-07-03T0400,2573A,102.2625,27.898,凉山彝族自治州,西昌市政府,,18,17,18,12,8,24,,,,10,9,6,8,0.7,0.7
2024-07-03T0400,2574A,102.2685,27.8851,凉山彝族自治州,凉山州政府,,17,17,20,9,11,29,,,,12,12,7,8,0.9,0.9
2024-07-03T0400,2575A,102.237,27.8914,凉山彝族自治州,长安,,20,20,22,12,11,20,,,,26,17,8,11,0.6,0.6
2024-07-03T0400,2212A,123.2,41.1953,辽阳市,宏伟区,,16,16,58,3,25,38,,,,9,23,8,10,0.7,1
2024-07-03T0400,2213A,123.1683,41.2495,辽阳市,新华园,,18,18,49,11,27,50,,,,8,26,7,15,0.7,1
2024-07-03T0400,2214A,123.2354,41.2639,辽阳市,滨河路,,15,13,46,8,24,45,,,,9,26,8,11,0.8,1.1
2024-07-03T0400,2215A,123.149,41.2991,辽阳市,铁西工业园,,17,17,46,8,24,47,,,,9,20,11,17,0.9,1.2
2024-07-03T0400,2227A,125.1358,42.8845,辽源市,环保局,,30,8,28,3,19,93,,,,1,15,6,8,0.5,0.6
2024-07-03T0400,3239A,125.0764,42.9078,辽源市,银鹰制药,,27,6,35,3,22,86,,,,7,22,7,11,0.9,0.9
2024-07-03T0400,1625A,115.9848,36.4372,聊城市,区政府,细颗粒物(PM2.5),52,42,39,36,33,75,,,,17,13,8,7,0.5,0.5
2024-07-03T0400,2878A,116.0072,36.4343,聊城市,聊大东校,细颗粒物(PM2.5),62,45,38,44,39,74,,,,17,10,6,5,0.5,0.7
2024-07-03T0400,3200A,115.9819,36.4978,聊城市,监控中心,,49,48,40,34,30,54,,,,28,14,7,7,0.6,0.6
2024-07-03T0400,3513A,116.0445,36.4361,聊城市,九州社区,细颗粒物(PM2.5),58,51,46,41,36,69,,,,24,15,6,4,0.5,0.6
2024-07-03T0400,4018A,116.0567,36.4608,聊城市,星美广场,"颗粒物(PM10),细颗粒物(PM2.5)",57,64,51,40,34,72,,,,18,11,6,7,0.4,0.4
2024-07-03T0400,2632A,94.3681,29.6376,林芝市,林芝监测站,,18,,4,3,4,57,,,,1,2,7,7,0.2,0.3
2024-07-03T0400,2633A,94.3616,29.6616,林芝市,林芝人民医院,,,,7,,4,,,65,,,4,,9,,0.3
2024-07-03T0400,2603A,100.0781,23.8982,临沧市,市环保局,,17,17,17,11,15,20,,,,7,10,4,4,0.3,0.4
2024-07-03T0400,2604A,100.0894,23.8822,临沧市,市气象局,,19,,15,13,13,17,,,,8,12,2,4,0.4,0.5
2024-07-03T0400,1733A,111.5531,36.0783,临汾市,临钢医院,,43,43,66,27,28,79,,,,13,17,4,6,0.7,0.9
2024-07-03T0400,1734A,111.5028,36.0714,临汾市,技工学校,,48,48,60,32,37,84,,,,16,20,6,8,0.6,0.8
2024-07-03T0400,1736A,111.5018,36.0855,临汾市,市委,颗粒物(PM10),56,62,67,25,31,95,,,,13,16,6,8,0.7,0.9
2024-07-03T0400,3018A,111.505,36.1014,临汾市,唐尧大酒店,,50,50,53,25,25,92,,,,12,14,4,5,0.8,0.9
2024-07-03T0400,3668A,111.5036,36.0414,临汾市,城南,细颗粒物(PM2.5),58,55,63,41,42,66,,,,21,18,5,6,0.9,0.9
2024-07-03T0400,2667A,103.2069,35.5993,临夏回族自治州,环保局,,44,44,45,29,24,19,,,,21,15,7,7,0.5,0.4
2024-07-03T0400,2668A,103.2417,35.6057,临夏回族自治州,建设大厦,,32,32,31,17,15,39,,,,7,12,10,10,0.3,0.3
2024-07-03T0400,1618A,118.3429,35.0532,临沂市,沂河小区,,39,27,22,27,17,117,,,,12,15,7,8,0.5,0.4
2024-07-03T0400,1619A,118.295,35.0583,临沂市,鲁南制药厂,,37,22,21,16,13,116,,,,4,7,8,9,0.6,0.5
2024-07-03T0400,1620A,118.2794,34.9976,临沂市,新光毛纺厂,,42,,17,29,16,104,,,,14,12,5,4,0.9,0.7
2024-07-03T0400,1621A,118.3956,35.0888,临沂市,河东保险公司,,33,22,19,21,14,105,,,,5,6,4,5,0.6,0.5
2024-07-03T0400,3370A,118.3564,35.0215,临沂市,十里堡居委,,35,,14,24,15,112,,,,7,8,8,8,0.8,0.6
2024-07-03T0400,3496A,118.3604,35.1084,临沂市,南坊新区,,36,27,29,12,13,115,,,,8,11,6,7,0.8,0.7
2024-07-03T0400,3860A,118.3920,35.0300,临沂市,皇山花园小区,,34,22,19,22,17,107,,,,11,13,7,8,0.7,0.6
2024-07-03T0400,1870A,109.4856,24.3895,柳州市,柳东小学,,13,13,8,3,4,21,,,,11,9,11,7,0.5,0.5
2024-07-03T0400,1871A,109.4157,24.3277,柳州市,环保监测站,,18,18,16,3,6,27,,,,7,8,7,6,0.5,0.5
2024-07-03T0400,1872A,109.389,24.341,柳州市,河西水厂,,11,11,9,6,5,26,,,,8,7,6,6,0.5,0.5
2024-07-03T0400,1873A,109.4311,24.2921,柳州市,市四中,,16,16,9,3,3,28,,,,10,8,5,5,0.5,0.4
2024-07-03T0400,1874A,109.4006,24.3631,柳州市,市九中,,17,17,13,7,5,29,,,,11,12,4,4,0.5,0.5
2024-07-03T0400,1875A,109.4958,24.3134,柳州市,古亭山,,19,19,9,7,4,15,,,,13,12,6,5,0.4,0.3
2024-07-03T0400,3402A,109.5422,24.3996,柳州市,市二中,,18,18,6,3,2,12,,,,18,9,5,5,0.4,0.3
2024-07-03T0400,2307A,116.5079,31.737,六安市,监测大楼,,21,21,14,12,13,42,,,,6,6,4,5,0.4,0.4
2024-07-03T0400,2308A,116.4738,31.7643,六安市,皖西学院,,35,32,19,24,13,28,,,,15,6,4,4,0.5,0.3
2024-07-03T0400,2309A,116.4996,31.7905,六安市,朝阳厂,,35,,12,24,14,34,,,,8,4,7,8,0.4,0.3
2024-07-03T0400,2310A,116.5567,31.7886,六安市,开发区,,23,,14,16,14,40,,,,4,6,4,4,0.6,0.5
2024-07-03T0400,2576A,104.8,26.5892,六盘水市,窑上,,,,,,,,,,,,,,,,
2024-07-03T0400,2577A,104.83,26.5917,六盘水市,黄土坡,,26,17,15,6,3,82,,,,5,8,4,7,0.3,0.3
2024-07-03T0400,2578A,104.89,26.5939,六盘水市,水钢,,28,17,23,13,10,87,,,,3,12,8,14,0.2,0.7
2024-07-03T0400,2579A,104.8475,26.5894,六盘水市,民中,,27,14,14,9,6,85,,,,3,9,6,7,0.3,0.4
2024-07-03T0400,2580A,104.9544,26.5506,六盘水市,双水,,28,17,20,17,10,87,,,,4,10,6,9,0.2,0.5
2024-07-03T0400,2335A,117.0189,25.1181,龙岩市,龙岩师专,,,,,,,,,,,,,,,,
2024-07-03T0400,2336A,117.0217,25.1033,龙岩市,龙岩市监测站,,18,17,19,12,9,20,,,,12,9,6,5,0.4,0.4
2024-07-03T0400,2337A,117.0258,25.0661,龙岩市,闽西职业技术学院,,31,31,20,16,9,9,,,,18,10,15,7,0.4,0.4
2024-07-03T0400,2338A,117.0196,25.0306,龙岩市,龙岩学院,,17,17,15,7,8,15,,,,7,4,3,5,0.4,0.4
2024-07-03T0400,2665A,105.0822,33.3261,陇南市,汉王镇固水子,,,,,,,,,,,,,,,,
2024-07-03T0400,2885A,104.9339,33.3826,陇南市,滨江中学,,29,25,30,13,12,91,,,,5,9,8,9,0.7,0.7
2024-07-03T0400,3247A,104.955,33.371,陇南市,市总工会,,31,20,28,15,10,98,,,,3,5,5,5,0.6,0.6
2024-07-03T0400,2487A,111.9589,27.8901,娄底市,电视发射台,,26,26,22,12,10,10,,,,4,4,6,5,0.9,0.8
2024-07-03T0400,2488A,111.9975,27.725,娄底市,市监测站,,25,,23,17,20,56,,,,3,6,6,7,0.3,0.7
2024-07-03T0400,2489A,112.0194,27.7314,娄底市,市委党校,,18,17,20,12,12,47,,,,3,8,5,6,0.6,0.7
2024-07-03T0400,2490A,111.9561,27.7569,娄底市,涟钢,,33,33,31,17,18,28,,,,21,17,12,13,1.0,1.2
2024-07-03T0400,2491A,111.9892,27.7044,娄底市,市政府,,19,15,17,13,13,56,,,,5,6,6,7,0.5,0.6
2024-07-03T0400,1893A,105.4324,28.9634,泸州市,九狮山,,49,49,28,29,16,32,,,,18,16,5,5,0.5,0.2
2024-07-03T0400,1894A,105.4427,28.9063,泸州市,小市上码头,颗粒物(PM10),55,59,34,32,15,77,,,,19,13,7,6,0.4,0.3
2024-07-03T0400,1895A,105.4241,28.8573,泸州市,兰田宪桥,细颗粒物(PM2.5),57,51,30,40,19,23,,,,22,16,5,5,0.4,0.3
2024-07-03T0400,1896A,105.4379,28.8833,泸州市,市环监站,细颗粒物(PM2.5),60,65,31,43,19,80,,,,15,16,9,8,0.6,0.5
2024-07-03T0400,3490A,105.3617,28.7703,泸州市,纳溪区环保局,,48,48,31,29,12,22,,,,29,19,4,9,0.4,0.3
2024-07-03T0400,2183A,111.1406,37.5211,吕梁市,环保局,颗粒物(PM10),60,70,45,29,24,37,,,,35,20,3,3,0.6,0.6
2024-07-03T0400,2185A,111.1297,37.5136,吕梁市,自来水公司,颗粒物(PM10),58,66,42,31,25,45,,,,30,17,2,3,0.6,0.6
2024-07-03T0400,2867A,111.1283,37.51,吕梁市,马茂庄小学,,45,44,45,31,24,65,,,,24,22,4,6,0.7,0.7
2024-07-03T0400,1812A,112.3931,34.6516,洛阳市,市委党校,,42,38,26,29,19,92,,,,8,6,2,3,0.8,0.7
2024-07-03T0400,1814A,112.4657,34.6871,洛阳市,豫西宾馆,,41,41,32,28,19,98,,,,10,11,1,3,0.6,0.5
2024-07-03T0400,1815A,112.494,34.6886,洛阳市,河南林校,,46,,20,32,18,96,,,,9,10,3,2,0.6,0.5
2024-07-03T0400,1816A,112.3844,34.623,洛阳市,开发区管委会,,46,38,27,32,20,95,,,,7,8,3,5,0.5,0.4
2024-07-03T0400,1817A,112.4267,34.6258,洛阳市,市委新办公区,细颗粒物(PM2.5),54,41,25,38,23,102,,,,5,5,4,5,0.5,0.4
2024-07-03T0400,3340A,112.6005,34.6326,洛阳市,伊滨,细颗粒物(PM2.5),54,,25,38,21,84,,,,12,9,4,5,0.5,0.3
2024-07-03T0400,3341A,112.4951,34.6332,洛阳市,中移产业园,,48,34,25,33,21,90,,,,7,7,3,4,0.8,0.7
2024-07-03T0400,3593A,112.5736,34.8993,洛阳市,吉利监测站,细颗粒物(PM2.5),62,,28,44,22,87,,,,16,10,1,2,0.2,0.2
2024-07-03T0400,3635A,112.3677,34.662,洛阳市,河科大西苑校区,,33,32,25,23,15,99,,,,7,7,4,4,0.6,0.6
2024-07-03T0400,3636A,112.4388,34.6781,洛阳市,英才小学,,48,43,28,33,22,96,,,,4,5,2,2,0.6,0.5
2024-07-03T0400,2399A,114.051,33.5699,漯河市,三五一五工厂,,40,37,21,28,17,79,,,,19,8,8,6,0.6,0.4
2024-07-03T0400,2400A,114.0055,33.5698,漯河市,漯河大学,细颗粒物(PM2.5),52,,20,36,19,93,,,,10,8,5,5,0.7,0.6
2024-07-03T0400,2401A,114.0138,33.5828,漯河市,市水利局,,45,,21,31,17,93,,,,9,8,7,7,0.6,0.4
2024-07-03T0400,2402A,114.0261,33.5698,漯河市,市广电局,,34,34,24,23,14,87,,,,8,5,1,1,0.7,0.6
2024-07-03T0400,3478A,113.9749,33.5664,漯河市,市图书馆,,48,40,20,33,17,88,,,,9,4,7,7,0.6,0.5
2024-07-03T0400,3479A,114.0967,33.5906,漯河市,召陵区卫健委,细颗粒物(PM2.5),58,42,26,41,22,77,,,,13,9,5,5,0.5,0.4
2024-07-03T0400,1798A,118.5092,31.6837,马鞍山市,湖东路四小,,39,36,22,27,17,41,,,,23,16,9,8,1.3,0.8
2024-07-03T0400,1799A,118.5024,31.6449,马鞍山市,开发区,,35,35,21,18,14,18,,,,37,19,10,9,1.3,0.9
2024-07-03T0400,1800A,118.5228,31.7231,马鞍山市,慈湖,,46,46,26,25,14,37,,,,30,26,10,11,1.4,1.2
2024-07-03T0400,1802A,118.6245,31.7241,马鞍山市,濮塘,,20,20,15,10,13,29,,,,12,14,3,3,1.1,0.9
2024-07-03T0400,3633A,118.4918,31.6809,马鞍山市,雨山,,45,45,25,22,14,36,,,,25,17,6,7,1.3,0.8
2024-07-03T0400,1686A,111.0286,21.4688,茂名市,电白南海,,20,17,21,14,13,58,,,,2,3,4,4,0.4,0.3
2024-07-03T0400,1687A,110.9294,21.6533,茂名市,茂石化七小,,25,19,23,17,15,54,,,,2,4,7,8,0.5,0.6
2024-07-03T0400,1688A,110.9107,21.6687,茂名市,健康路,,19,17,22,3,9,60,,,,4,6,7,9,0.4,0.4
2024-07-03T0400,1689A,110.8592,21.6828,茂名市,高岭,,22,22,32,14,17,55,,,,3,8,6,9,0.6,0.6
2024-07-03T0400,3450A,111.01,21.5165,茂名市,电白水东,,19,12,16,12,10,58,,,,3,5,3,3,0.4,0.5
2024-07-03T0400,2539A,104.0308,30.0478,眉山市,黑龙滩水库,,43,43,30,30,24,114,,,,4,7,6,6,0.3,0.3
2024-07-03T0400,2540A,103.8416,30.0874,眉山市,气象局,,26,,21,14,15,81,,,,11,21,7,9,0.3,0.4
2024-07-03T0400,3137A,103.8578,30.0744,眉山市,市委党校,,27,19,23,9,11,84,,,,12,19,6,9,0.4,0.4
2024-07-03T0400,3148A,103.8291,30.0564,眉山市,区人社局,,30,22,33,9,11,93,,,,12,23,17,11,0.4,0.4
2024-07-03T0400,1690A,116.1231,24.3284,梅州市,梅江月梅,,32,32,22,9,8,5,,,,11,6,8,8,0.4,0.4
2024-07-03T0400,1691A,116.0797,24.2719,梅州市,梅县新城,,21,21,19,6,9,7,,,,12,9,4,4,0.4,0.4
2024-07-03T0400,1692A,116.1248,24.2654,梅州市,环境监控中心,,30,30,25,7,9,6,,,,18,14,4,4,0.3,0.3
2024-07-03T0400,3315A,116.1233,24.2991,梅州市,梅龙,,19,19,15,10,8,3,,,,16,8,7,9,0.5,0.5
2024-07-03T0400,1878A,104.7778,31.4741,绵阳市,富乐山,,24,22,26,14,18,75,,,,5,10,7,8,0.4,0.4
2024-07-03T0400,1879A,104.7563,31.4535,绵阳市,市人大,,28,20,31,16,18,89,,,,6,20,12,10,0.4,0.4
2024-07-03T0400,1880A,104.6697,31.4668,绵阳市,高新区自来水公司,,29,24,29,17,17,91,,,,10,18,5,6,0.5,0.5
2024-07-03T0400,1881A,104.7287,31.5075,绵阳市,三水厂,,25,,35,17,19,76,,,,8,19,6,7,0.5,0.5
2024-07-03T0400,3491A,104.69,31.5322,绵阳市,西科大附属小学,,33,33,37,20,19,76,,,,9,16,5,6,0.5,0.5
2024-07-03T0400,3492A,104.5648,31.5343,绵阳市,安州区旅游局,,28,28,25,17,21,81,,,,7,14,8,6,0.4,0.6
2024-07-03T0400,1784A,129.61,44.561,牡丹江市,环保大楼,细颗粒物(PM2.5),74,61,62,54,44,31,,,,19,15,8,7,0.5,0.5
2024-07-03T0400,1785A,129.6115,44.5782,牡丹江市,文化广场,细颗粒物(PM2.5),72,59,72,52,52,29,,,,18,22,8,7,0.5,0.6
2024-07-03T0400,1786A,129.5904,44.5963,牡丹江市,第一医院,细颗粒物(PM2.5),70,59,62,51,53,40,,,,12,16,5,5,0.6,0.6
2024-07-03T0400,1787A,129.6364,44.6075,牡丹江市,机车工厂,细颗粒物(PM2.5),72,71,66,52,54,21,,,,16,15,2,4,0.5,0.5
2024-07-03T0400,1788A,129.6386,44.5462,牡丹江市,第一中学,颗粒物(PM10),63,75,69,34,35,29,,,,20,17,4,4,0.5,0.5
2024-07-03T0400,2531A,105.0703,29.61,内江市,市监测站,,39,,21,27,21,82,,,,11,17,7,7,0.4,0.5
2024-07-03T0400,2532A,105.0717,29.5947,内江市,东兴区政府,,35,35,23,18,11,82,,,,14,13,9,8,0.4,0.4
2024-07-03T0400,2533A,105.0653,29.5817,内江市,内江二中,,28,,19,19,13,81,,,,17,13,11,10,0.5,0.5
2024-07-03T0400,2534A,105.0406,29.5822,内江市,内江日报社,,33,28,24,23,16,74,,,,18,18,7,9,0.4,0.5
2024-07-03T0400,2628A,92.0657,31.4846,那曲市,那曲监测站,,35,,19,3,7,112,,,,5,6,6,6,0.5,0.5
2024-07-03T0400,3128A,92.0506,31.4797,那曲市,那曲会议中心,,35,6,14,3,7,111,,,,1,6,3,3,0.3,0.4
2024-07-03T0400,1290A,115.8931,28.6843,南昌市,省外办,,22,22,21,14,12,12,,,,28,19,5,6,0.6,0.5
2024-07-03T0400,1291A,115.8886,28.7003,南昌市,省林业公司,,20,19,14,14,9,20,,,,28,19,6,5,0.5,0.5
2024-07-03T0400,1292A,115.8126,28.7442,南昌市,林科所,,17,17,8,9,5,11,,,,32,26,10,8,0.8,0.6
2024-07-03T0400,1294A,115.8518,28.687,南昌市,建工学校,,25,25,16,13,9,21,,,,27,17,8,7,0.6,0.5
2024-07-03T0400,1295A,115.8921,28.6424,南昌市,象湖,,20,17,13,14,7,4,,,,36,18,5,5,0.8,0.6
2024-07-03T0400,1296A,115.7423,28.7996,南昌市,武术学校,,19,,14,13,11,12,,,,4,3,16,17,0.7,0.5
2024-07-03T0400,1298A,115.9314,28.6842,南昌市,省站,,29,20,18,20,9,14,,,,15,9,6,5,0.8,0.7
2024-07-03T0400,3046A,115.9084,28.6062,南昌市,机电学校,,29,29,20,14,8,6,,,,25,16,6,7,0.9,0.8
2024-07-03T0400,3690A,115.9721,28.7031,南昌市,外国语学校,,29,29,16,14,9,22,,,,21,12,6,5,0.6,0.5
2024-07-03T0400,1905A,106.056,30.8064,南充市,西山风景区,,38,27,23,26,20,59,,,,7,8,5,5,0.5,0.5
2024-07-03T0400,1906A,106.0789,30.8023,南充市,南充市委,,39,38,34,27,23,88,,,,9,11,6,6,0.4,0.4
2024-07-03T0400,1907A,106.1031,30.8217,南充市,南充炼油厂,,40,35,36,28,22,82,,,,12,13,8,8,0.3,0.3
2024-07-03T0400,1908A,106.1064,30.7856,南充市,高坪区监测站,,38,38,38,11,16,87,,,,10,17,6,7,0.2,0.2
2024-07-03T0400,1909A,106.0642,30.7636,南充市,嘉陵区环保局,,35,30,35,24,20,81,,,,17,15,6,5,0.3,0.3
2024-07-03T0400,1910A,106.1087,30.8388,南充市,市环境监测站,,48,48,36,29,23,75,,,,15,16,8,7,0.5,0.5
2024-07-03T0400,1151A,118.8086,32.1065,南京市,迈皋桥,,28,27,17,19,10,33,,,,35,22,6,5,1.0,0.6
2024-07-03T0400,1152A,118.7538,32.0551,南京市,草场门,,32,22,16,22,15,26,,,,50,21,6,5,1.2,0.9
2024-07-03T0400,1153A,118.7794,32.0745,南京市,山西路,,27,27,17,17,10,41,,,,25,13,4,4,0.9,0.6
2024-07-03T0400,1154A,118.7752,32.0023,南京市,中华门,,25,17,12,17,9,29,,,,23,17,5,6,1.2,0.6
2024-07-03T0400,1155A,118.8109,32.0309,南京市,瑞金路,,27,27,16,17,11,24,,,,13,12,12,10,1.0,0.5
2024-07-03T0400,1156A,118.7997,32.0754,南京市,玄武湖,,36,36,21,13,11,29,,,,7,6,2,2,1.1,0.6
2024-07-03T0400,1157A,118.6414,32.0931,南京市,浦口,,19,19,14,8,8,59,,,,5,8,8,6,0.8,0.7
2024-07-03T0400,1158A,118.7356,31.9996,南京市,奥体中心,,32,30,18,22,14,28,,,,22,19,6,6,1.2,0.5
2024-07-03T0400,1159A,118.9125,32.1028,南京市,仙林大学城,,29,29,16,19,9,42,,,,20,17,10,7,1.5,0.7
2024-07-03T0400,3422A,118.8436,31.9198,南京市,江宁彩虹桥,,23,23,16,12,9,25,,,,20,14,4,4,0.9,0.8
2024-07-03T0400,3423A,119.0138,31.6494,南京市,溧水永阳,,18,12,9,9,10,57,,,,8,9,4,4,0.5,0.5
2024-07-03T0400,3424A,118.879,31.3302,南京市,高淳老职中,,21,,13,8,10,66,,,,7,8,4,5,0.7,0.7
2024-07-03T0400,3427A,118.8554,32.3578,南京市,六合雄州,,23,23,28,16,15,45,,,,10,8,8,8,0.7,0.8
2024-07-03T0400,1401A,108.3103,22.7881,南宁市,二十一中,,14,14,11,3,6,15,,,,14,16,3,3,0.7,0.6
2024-07-03T0400,1402A,108.3141,22.8528,南宁市,北湖,,18,18,12,3,7,7,,,,19,16,2,3,0.7,0.6
2024-07-03T0400,1403A,108.3206,22.8225,南宁市,市监测站,,15,,10,10,8,17,,,,11,16,3,3,0.7,0.7
2024-07-03T0400,1404A,108.3829,22.8037,南宁市,大自然花园,,14,14,11,3,5,14,,,,13,12,4,4,0.4,0.4
2024-07-03T0400,1405A,108.4394,22.7904,南宁市,仙葫,,16,16,7,6,4,23,,,,24,16,5,5,0.3,0.3
2024-07-03T0400,1406A,108.2397,22.8467,南宁市,区农职院,,20,20,12,8,6,2,,,,21,17,5,6,0.7,0.6
2024-07-03T0400,1407A,108.3275,22.735,南宁市,英华嘉园,,18,15,14,12,7,14,,,,12,17,5,5,0.5,0.5
2024-07-03T0400,1408A,108.2257,22.7757,南宁市,沙井镇街道办,,21,21,15,6,6,4,,,,26,22,2,2,0.6,0.5
2024-07-03T0400,3401A,108.4834,22.7618,南宁市,红星社区,,13,13,10,3,4,15,,,,10,8,5,4,0.7,0.7
2024-07-03T0400,2331A,118.0966,26.6761,南平市,茫荡山,,,,,,,,,,,,,,,,
2024-07-03T0400,2332A,118.1681,26.6369,南平市,南平市监测站,,14,14,12,3,4,8,,,,13,9,4,4,0.4,0.3
2024-07-03T0400,2333A,118.1825,26.6489,南平市,南平铝业有限公司,,15,15,16,6,5,5,,,,13,9,4,5,0.7,0.7
2024-07-03T0400,2334A,118.1756,26.6272,南平市,南平七中,,21,21,15,11,6,7,,,,12,7,4,4,0.4,0.4
2024-07-03T0400,1168A,120.9098,31.9663,南通市,狼山街道,,17,17,16,8,5,36,,,,19,18,7,7,0.7,0.7
2024-07-03T0400,1169A,120.86,32.0005,南通市,虹桥,,31,31,22,13,6,37,,,,30,29,8,7,1.3,0.9
2024-07-03T0400,1170A,120.87,32.02,南通市,城中,,41,41,30,16,9,37,,,,31,29,10,8,1.2,0.7
2024-07-03T0400,1171A,120.94,31.93,南通市,星湖花园,,18,12,13,11,6,55,,,,27,23,11,6,0.6,0.5
2024-07-03T0400,1172A,120.81,32.0417,南通市,紫琅学院,,20,20,18,14,8,31,,,,34,30,8,8,1.1,0.8
2024-07-03T0400,3291A,121.067,32.062,南通市,通州监测站,,34,34,30,17,11,34,,,,32,15,13,13,1.1,0.9
2024-07-03T0400,3432A,120.9348,31.9883,南通市,环境教育馆,,27,27,26,16,10,46,,,,30,27,12,10,0.9,0.7
2024-07-03T0400,2404A,112.5224,33.0122,南阳市,瓦房庄,,29,26,23,20,14,79,,,,22,17,2,3,0.6,0.6
2024-07-03T0400,2405A,112.5003,32.9735,南阳市,汉画馆,,36,30,28,25,23,75,,,,25,20,4,3,0.6,0.6
2024-07-03T0400,2406A,112.5573,33.027,南阳市,气象站,,22,22,17,14,10,63,,,,26,17,5,4,0.3,0.3
2024-07-03T0400,2407A,112.5481,32.9689,南阳市,理工学院,,29,27,24,20,15,60,,,,30,18,3,3,0.4,0.3
2024-07-03T0400,4008A,112.5234,32.9922,南阳市,卧龙区政府,,33,28,23,23,16,70,,,,24,18,4,4,0.5,0.6
2024-07-03T0400,1234A,121.8358,29.911,宁波市,区环保大楼,颗粒物(PM10),51,52,38,16,17,2,,,,49,20,10,7,0.8,0.7
2024-07-03T0400,1235A,121.56,29.82,宁波市,万里学院,,28,28,29,10,16,37,,,,16,11,7,6,0.4,0.5
2024-07-03T0400,1236A,121.713,29.9572,宁波市,龙赛医院,,30,30,27,9,10,10,,,,48,17,7,6,0.3,0.2
2024-07-03T0400,1239A,121.633,29.7733,宁波市,钱湖水厂,,24,24,24,3,12,30,,,,7,7,5,5,0.6,0.5
2024-07-03T0400,1240A,121.5856,29.8635,宁波市,太古小学,,,,17,3,15,21,,,,21,9,4,5,0.8,0.6
2024-07-03T0400,1241A,121.524,29.8674,宁波市,市环境监测中心,,25,25,26,11,13,12,,,,36,14,5,4,0.8,0.6
2024-07-03T0400,2871A,121.6147,29.9017,宁波市,万里国际学校,,31,31,24,7,15,3,,,,58,17,8,5,0.5,0.3
2024-07-03T0400,3710A,121.5594,29.8975,宁波市,白沙活动中心,,27,27,26,12,12,24,,,,29,11,9,8,0.4,0.3
2024-07-03T0400,2339A,119.5001,26.6946,宁德市,金涵水库,,,,,,,,,,,,,,,,
2024-07-03T0400,2341A,119.5388,26.6612,宁德市,宁德市监测站,,22,22,27,11,12,30,,,,8,12,5,6,0.4,0.9
2024-07-03T0400,3209A,119.5231,26.6562,宁德市,宁德一中,,26,26,25,16,10,31,,,,6,8,6,6,0.6,0.8
2024-07-03T0400,2618A,98.8601,25.8567,怒江傈僳族自治州,州监测站,,12,11,12,8,10,30,,,,3,5,11,10,0.5,0.5
2024-07-03T0400,2619A,98.8546,25.8417,怒江傈僳族自治州,泸水一中,,9,9,8,3,5,18,,,,8,8,5,5,0.4,0.4
2024-07-03T0400,1888A,101.6891,26.571,攀枝花市,弄弄坪,颗粒物(PM10),55,60,55,18,16,15,,,,27,24,12,18,0.7,0.8
2024-07-03T0400,1889A,101.5769,26.5928,攀枝花市,河门口,,32,32,31,15,15,14,,,,26,23,10,20,1.4,1.4
2024-07-03T0400,1890A,101.7169,26.585,攀枝花市,炳草岗,,36,36,40,11,14,25,,,,16,21,18,17,0.8,0.8
2024-07-03T0400,1891A,101.7369,26.5008,攀枝花市,仁和,,14,14,16,3,8,14,,,,10,12,6,8,0.4,0.5
2024-07-03T0400,2835A,101.7227,26.567,攀枝花市,四十中小,,30,30,39,14,18,23,,,,20,19,21,26,0.8,0.9
2024-07-03T0400,1604A,122.0303,41.1489,盘锦市,开发区,,,,62,20,60,91,,,,9,20,4,9,0.4,0.4
2024-07-03T0400,1605A,122.0485,41.0883,盘锦市,兴隆台,,28,,52,10,41,89,,,,13,28,4,5,0.3,0.5
2024-07-03T0400,1606A,121.8297,41.1028,盘锦市,新生街道,,33,,42,12,46,104,,,,11,18,2,3,0.2,0.3
2024-07-03T0400,1832A,113.3257,33.742,平顶山市,新华旅馆,,48,46,27,33,21,72,,,,18,9,6,5,0.6,0.6
2024-07-03T0400,1833A,113.2919,33.737,平顶山市,规划设计院,,48,35,22,33,17,84,,,,13,11,11,5,0.7,0.7
2024-07-03T0400,1834A,113.182,33.774,平顶山市,平顶山工学院,颗粒物(PM10),54,58,23,34,13,86,,,,15,9,10,3,0.8,0.8
2024-07-03T0400,3204A,113.3025,33.73,平顶山市,规划局,,48,41,21,33,19,79,,,,15,12,9,4,0.3,0.3
2024-07-03T0400,3594A,112.8867,33.9116,平顶山市,石龙区,细颗粒物(PM2.5),57,59,28,40,21,63,,,,14,8,6,7,0.6,0.4
2024-07-03T0400,2656A,106.6692,35.5461,平凉市,聚贤嘉苑,,43,43,40,20,20,51,,,,33,29,8,8,0.3,0.3
2024-07-03T0400,2657A,106.7021,35.5307,平凉市,博物馆,,43,43,41,25,19,54,,,,32,29,3,20,0.8,0.8
2024-07-03T0400,2347A,114.0997,27.5002,萍乡市,武功山,,7,,3,3,3,17,,,,3,3,8,8,0.7,0.7
2024-07-03T0400,2348A,113.8385,27.6434,萍乡市,中医院,颗粒物(PM10),51,51,22,25,15,27,,,,12,11,10,7,1.3,1
2024-07-03T0400,2349A,113.8493,27.6253,萍乡市,市政府车库,,30,26,14,21,14,36,,,,13,8,12,10,1.6,0.7
2024-07-03T0400,2350A,113.8676,27.6435,萍乡市,市环保局,,35,35,21,23,15,36,,,,8,10,14,14,1.1,0.7
2024-07-03T0400,2351A,113.866,27.6198,萍乡市,安源区政府,,38,38,18,18,7,22,,,,25,9,14,8,1.3,0.5
2024-07-03T0400,2319A,119.0141,25.4325,莆田市,荔城区仓后路,,21,21,23,3,6,23,,,,11,9,7,7,0.5,0.5
2024-07-03T0400,2320A,119.0015,25.4553,莆田市,莆田市监测站,,17,17,24,7,7,18,,,,6,8,9,9,0.4,0.4
2024-07-03T0400,2321A,119.1119,25.4561,莆田市,涵江区六中,,15,15,22,3,5,9,,,,20,9,11,11,0.5,0.5
2024-07-03T0400,2322A,119.1013,25.3215,莆田市,秀屿区政府,,15,15,17,6,4,14,,,,14,5,14,11,0.5,0.5
2024-07-03T0400,2323A,118.981,25.4792,莆田市,东圳水库,,,,,,,,,,,,,,,,
2024-07-03T0400,2392A,115.0312,35.7636,濮阳市,环保局,,33,,22,23,26,89,,,,8,8,7,7,0.5,0.5
2024-07-03T0400,2394A,115.0574,35.7609,濮阳市,油田运输公司,,35,29,29,24,26,90,,,,7,7,4,4,0.5,0.6
2024-07-03T0400,2395A,115.0866,35.7754,濮阳市,油田物探公司,细颗粒物(PM2.5),57,,29,40,32,84,,,,9,7,6,6,0.7,0.8
2024-07-03T0400,3021A,115,35.7668,濮阳市,濮水河管理处,,49,,24,34,32,62,,,,12,9,5,5,0.6,0.6
2024-07-03T0400,2601A,100.98,22.7633,普洱市,市环保局,,23,18,18,16,13,18,,,,6,6,5,4,0.4,0.4
2024-07-03T0400,2602A,100.9817,22.8322,普洱市,普洱第二中学,,16,16,16,6,11,12,,,,5,8,6,7,0.5,0.6
2024-07-03T0400,2262A,131.0518,45.8751,七台河市,新一中,细颗粒物(PM2.5),54,42,49,38,38,46,,,,6,10,11,10,0.6,0.4
2024-07-03T0400,3345A,131.0577,45.7879,七台河市,中波台,,48,42,60,33,34,32,,,,15,22,12,12,0.5,0.4
2024-07-03T0400,3637A,131.0176,45.7761,七台河市,人民广场,细颗粒物(PM2.5),52,38,65,36,39,35,,,,11,20,13,14,0.4,0.4
2024-07-03T0400,3684A,130.8781,45.8222,七台河市,新建矿广场,细颗粒物(PM2.5),63,61,88,45,38,8,,,,40,25,10,7,0.4,0.3
2024-07-03T0400,1779A,123.9305,47.3636,齐齐哈尔市,安居小区,细颗粒物(PM2.5),54,48,58,38,38,28,,,,52,33,6,6,0.4,0.6
2024-07-03T0400,1780A,123.9488,47.3386,齐齐哈尔市,中心广场,颗粒物(PM10),59,67,57,31,32,64,,,,30,25,10,10,0.4,0.4
2024-07-03T0400,1781A,123.9483,47.3227,齐齐哈尔市,农牧车辆厂,颗粒物(PM10),51,51,53,32,25,62,,,,29,21,8,8,0.4,0.3
2024-07-03T0400,1783A,123.945,47.2988,齐齐哈尔市,市环境监测站,,48,36,42,33,31,77,,,,20,16,5,6,0.3,0.3
2024-07-03T0400,3662A,123.6333,47.2075,齐齐哈尔市,富区青少年活动中心,,47,47,44,25,21,34,,,,52,19,4,4,0.4,0.5
2024-07-03T0400,2591A,107.9783,26.5747,黔东南苗族侗族自治州,市环境监测站,,20,12,20,10,13,62,,,,1,16,3,3,0.4,0.6
2024-07-03T0400,2881A,107.8908,26.5311,黔东南苗族侗族自治州,凯里学院,,12,8,19,8,11,31,,,,12,9,3,3,0.3,0.4
2024-07-03T0400,2593A,107.5228,26.2403,黔南布依族苗族自治州,小围寨,,14,6,11,3,5,42,,,,2,3,5,5,0.4,0.5
2024-07-03T0400,3538A,107.5175,26.2978,黔南布依族苗族自治州,沙坝,,13,6,12,3,6,39,,,,3,8,3,3,0.4,0.5
2024-07-03T0400,2589A,104.9022,25.0925,黔西南布依族苗族自治州,场坝街,,20,14,13,6,7,62,,,,3,7,2,7,0.3,0.3
2024-07-03T0400,2590A,104.8811,25.0992,黔西南布依族苗族自治州,坪东大道,,20,11,12,9,7,61,,,,2,6,4,6,0.1,0.2
2024-07-03T0400,2502A,108.6236,21.9667,钦州市,市环保站,,14,14,15,3,3,7,,,,14,12,7,7,0.7,0.6
2024-07-03T0400,2503A,108.6549,21.9481,钦州市,沙埠小学,,12,12,21,3,8,8,,,,10,11,5,6,0.5,0.6
2024-07-03T0400,2504A,108.5989,21.7431,钦州市,港区一小,,37,37,26,19,8,4,,,,17,12,8,7,0.5,0.5
2024-07-03T0400,3404A,108.5959,21.9633,钦州市,北职校,,33,27,19,23,9,4,,,,15,12,14,8,0.6,0.6
2024-07-03T0400,1042A,119.5134,39.8207,秦皇岛市,北戴河环保局,,38,38,49,14,23,117,,,,6,10,3,3,0.3,0.4
2024-07-03T0400,1043A,119.7493,40.0116,秦皇岛市,第一关,,38,30,43,21,27,119,,,,6,11,3,3,0.3,0.4
2024-07-03T0400,1044A,119.5897,39.9499,秦皇岛市,监测站,,38,38,46,21,27,113,,,,3,9,4,4,0.4,0.5
2024-07-03T0400,1046A,119.5251,39.9041,秦皇岛市,建设大厦,,43,43,50,27,27,110,,,,3,9,3,3,0.2,0.3
2024-07-03T0400,3132A,119.610547,39.943889,秦皇岛市,文明里,,,,,,,,,,,,,,,,
2024-07-03T0400,1307A,120.6659,36.2403,青岛市,仰口,,37,,10,7,9,117,,,,3,3,4,4,0.5,0.3
2024-07-03T0400,1310A,120.4134,36.0658,青岛市,市南区东部子站,,25,17,11,7,4,77,,,,11,8,6,7,0.9,0.5
2024-07-03T0400,1311A,120.3664,36.1032,青岛市,四方区子站,,22,,7,12,6,70,,,,16,13,10,10,0.9,0.6
2024-07-03T0400,1312A,120.2994,36.054,青岛市,市南区西部子站,,23,9,9,7,3,71,,,,8,5,7,7,1.0,0.6
2024-07-03T0400,1313A,120.4581,36.0858,青岛市,崂山区子站,,26,,14,12,6,82,,,,12,12,7,8,0.9,0.5
2024-07-03T0400,1314A,120.1983,35.9608,青岛市,黄岛区子站,,23,12,5,10,6,71,,,,23,18,6,6,0.9,0.6
2024-07-03T0400,1315A,120.3999,36.3083,青岛市,城阳区子站,,25,17,6,17,8,79,,,,15,11,8,7,0.9,0.5
2024-07-03T0400,1966A,120.0405,35.8735,青岛市,黄岛区4号,,22,14,9,9,2,68,,,,22,13,9,9,0.7,0.5
2024-07-03T0400,3362A,120.5014,36.4034,青岛市,即墨2号,,29,,9,18,6,91,,,,13,10,7,7,0.8,0.5
2024-07-03T0400,3642A,120.3503,36.0736,青岛市,市北区南部,,25,15,11,9,4,80,,,,14,11,6,5,0.9,0.5
2024-07-03T0400,3643A,120.3948,36.1805,青岛市,李沧区北部,,28,,4,19,12,82,,,,15,15,10,10,0.7,0.4
2024-07-03T0400,1702A,113.0426,23.691,清远市,环保大楼,,21,21,15,10,10,10,,,,23,14,8,5,0.6,0.7
2024-07-03T0400,1703A,113.0208,23.7106,清远市,凤城街办,,28,28,22,13,10,6,,,,21,13,3,4,0.4,0.4
2024-07-03T0400,3025A,113.0477,23.6344,清远市,技师学院,,26,26,26,14,12,16,,,,28,20,6,5,0.5,0.6
2024-07-03T0400,3318A,112.9903,23.7403,清远市,清新太和,,16,,32,11,11,11,,,,17,12,5,6,0.6,0.6
2024-07-03T0400,3455A,113.076,23.7198,清远市,清城东城,,24,24,20,8,7,5,,,,11,7,5,5,0.4,0.4
2024-07-03T0400,2661A,107.6325,35.7357,庆阳市,庆阳五中,,40,31,37,15,19,125,,,,13,13,6,4,0.3,0.4
2024-07-03T0400,2662A,107.6364,35.7067,庆阳市,市环保局,,45,27,32,13,17,143,,,,6,11,8,8,0.4,0.4
2024-07-03T0400,1916A,103.7897,25.5035,曲靖市,环境监测站,,11,11,30,3,14,25,,,,8,10,3,2,0.2,0.4
2024-07-03T0400,1917A,103.8,25.5364,曲靖市,烟厂办公区,,13,12,25,9,16,32,,,,8,9,4,4,0.3,0.4
2024-07-03T0400,3376A,103.7947,25.462,曲靖市,南苑二区,,10,10,23,3,15,30,,,,6,9,3,4,0.4,0.6
2024-07-03T0400,3377A,103.7444,25.5261,曲靖市,曲靖师范学院,,10,6,20,3,15,31,,,,8,11,3,5,0.5,0.6
2024-07-03T0400,1264A,118.8692,28.9398,衢州市,环保大楼,,20,20,14,10,8,15,,,,12,11,7,7,0.3,0.3
2024-07-03T0400,1265A,118.8709,28.9666,衢州市,实验学校,,28,28,17,12,10,10,,,,21,11,5,6,0.2,0.2
2024-07-03T0400,1266A,118.8621,28.9808,衢州市,衢州学院,,34,34,18,14,9,11,,,,21,12,6,3,0.5,0.4
2024-07-03T0400,1611A,118.5819,24.9117,泉州市,涂山街,,37,37,25,22,8,6,,,,25,8,12,4,0.8,0.7
2024-07-03T0400,1612A,118.5972,24.8978,泉州市,津头埔,,25,25,23,10,8,5,,,,26,11,7,2,0.6,0.6
2024-07-03T0400,1613A,118.6663,24.9424,泉州市,万安,,20,20,20,6,7,3,,,,21,6,4,2,0.6,0.5
2024-07-03T0400,1614A,118.6117,24.9604,泉州市,清源山,,,,,,,,,,,,,,,,
2024-07-03T0400,3529A,118.6333,24.9264,泉州市,城华南路,,25,25,19,9,6,5,,,,25,10,8,2,0.4,0.4
2024-07-03T0400,2626A,88.8876,29.2718,日喀则市,日喀则监测站,,43,,5,3,4,136,,,,4,5,5,5,0.4,0.4
2024-07-03T0400,3726A,88.8781,29.2426,日喀则市,林业技术推广中心,,33,6,4,3,1,104,,,,6,7,6,6,0.5,0.5
2024-07-03T0400,1659A,119.471,35.4209,日照市,监测站,,42,31,12,29,10,74,,,,20,16,9,9,0.5,0.3
2024-07-03T0400,1660A,119.523,35.4216,日照市,市政府广场,,35,29,14,24,8,81,,,,10,9,8,8,0.6,0.5
2024-07-03T0400,1661A,119.5587,35.4044,日照市,港务局,,41,41,19,17,7,79,,,,14,12,8,9,0.7,0.5
2024-07-03T0400,3507A,119.5328,35.4625,日照市,职业技术学院,,39,29,13,27,9,82,,,,13,13,8,8,0.8,0.6
2024-07-03T0400,3604A,119.3266,35.1044,日照市,岚山环保分局,,49,48,23,34,16,32,,,,50,17,14,11,2.1,1.2
2024-07-03T0400,1835A,111.1922,34.7752,三门峡市,市政府,,40,40,40,28,19,100,,,,10,15,8,10,0.7,0.6
2024-07-03T0400,1836A,111.1587,34.7942,三门峡市,开发区,颗粒物(PM10),53,56,34,35,19,114,,,,12,15,11,13,0.6,0.4
2024-07-03T0400,1838A,111.143,34.7955,三门峡市,风景区,,,,,,,,,,,,,,,,
2024-07-03T0400,3039A,111.1911,34.7829,三门峡市,三门峡市第一小学,,37,37,35,25,17,108,,,,8,13,8,10,0.7,0.6
2024-07-03T0400,3598A,111.1,34.7167,三门峡市,富达温泉假日酒店,细颗粒物(PM2.5),74,55,43,54,27,96,,,,10,17,12,15,0.7,0.6
2024-07-03T0400,2324A,117.6211,26.2625,三明市,三钢,,23,22,25,16,13,2,,,,16,16,6,16,1.0,1.6
2024-07-03T0400,2325A,117.635,26.2714,三明市,三明二中,,10,9,20,6,8,3,,,,14,14,6,10,1.0,0.9
2024-07-03T0400,2326A,117.6028,26.2378,三明市,三元区政府,,36,28,24,25,12,1,,,,13,12,3,3,0.5,0.4
2024-07-03T0400,2327A,117.7275,26.3108,三明市,洋溪,,,,,,,,,,,,,,,,
2024-07-03T0400,1876A,109.5078,18.2489,三亚市,河东子站,,17,17,21,10,12,54,,,,4,3,3,2,0.4,0.4
2024-07-03T0400,1877A,109.4964,18.2681,三亚市,河西子站,,17,15,19,6,8,53,,,,3,3,3,3,0.4,0.3
2024-07-03T0400,3540A,109.7348,18.3443,三亚市,君悦子站,,22,22,24,6,10,54,,,,3,6,3,3,0.5,0.6
2024-07-03T0400,2624A,91.7608,29.2313,山南市,山南监测站,,22,6,8,3,3,70,,,,4,6,6,6,0.2,0.2
2024-07-03T0400,2625A,91.7706,29.2436,山南市,山南人民医院,,24,8,11,3,5,76,,,,9,10,8,7,0.2,0.2
2024-07-03T0400,1674A,116.6794,23.3667,汕头市,金平子站,,7,6,16,3,6,20,,,,8,6,6,6,0.6,0.7
2024-07-03T0400,1675A,116.7244,23.3633,汕头市,龙湖子站,,8,8,16,3,4,16,,,,9,9,5,5,0.6,0.7
2024-07-03T0400,1676A,116.7258,23.2775,汕头市,濠江子站,,7,7,15,3,5,14,,,,14,10,5,5,0.5,0.5
2024-07-03T0400,1677A,116.7519,23.4714,汕头市,澄海子站,,10,10,18,6,7,20,,,,8,8,5,5,0.7,0.7
2024-07-03T0400,1678A,116.6092,23.2539,汕头市,潮阳子站,,10,10,18,3,6,18,,,,7,4,4,4,0.5,0.6
2024-07-03T0400,3444A,116.454,23.2684,汕头市,潮南峡山,,13,13,19,3,7,21,,,,2,2,4,4,0.5,0.6
2024-07-03T0400,3624A,116.4069,23.2533,汕头市,潮南子站,,9,8,20,3,5,28,,,,1,2,6,6,0.5,0.6
2024-07-03T0400,1693A,115.3653,22.775,汕尾市,市环保局,,13,13,17,3,6,24,,,,8,6,5,5,0.5,0.5
2024-07-03T0400,1694A,115.3706,22.7898,汕尾市,市政府,,17,17,15,3,5,27,,,,3,2,6,6,0.6,0.7
2024-07-03T0400,1695A,115.3622,22.7925,汕尾市,新城中学,,19,19,17,3,6,29,,,,5,3,4,4,0.6,0.6
2024-07-03T0400,2645A,109.9154,33.8715,商洛市,监测站,,38,38,28,14,16,34,,,,17,11,6,7,0.6,0.6
2024-07-03T0400,3045A,109.9643,33.8471,商洛市,商州区中学,,29,29,37,18,14,58,,,,16,14,7,7,0.6,0.6
2024-07-03T0400,2408A,115.6702,34.4285,商丘市,环境监测站,,39,39,29,26,23,54,,,,18,8,8,8,0.8,0.7
2024-07-03T0400,2409A,115.6458,34.4045,商丘市,粮食局,,46,46,32,26,23,74,,,,17,9,6,5,0.6,0.5
2024-07-03T0400,2410A,115.6293,34.3948,商丘市,睢阳区环保局,,42,34,33,29,27,75,,,,15,9,5,5,0.6,0.6
2024-07-03T0400,3171A,115.6071,34.4465,商丘市,梁园区档案局,,40,40,38,28,24,55,,,,16,10,8,7,0.6,0.6
2024-07-03T0400,1141A,121.4,31.238,上海市,普陀,,21,9,17,6,14,65,,,,14,15,4,5,0.4,0.3
2024-07-03T0400,1142A,121.478,31.2036,上海市,十五厂,,24,6,17,3,11,74,,,,12,16,6,7,0.5,0.4
2024-07-03T0400,1143A,121.467,31.3008,上海市,虹口,,20,10,18,10,16,63,,,,15,16,5,5,0.6,0.6
2024-07-03T0400,1144A,121.412,31.1654,上海市,徐汇上师大,,20,10,17,3,13,64,,,,21,19,6,6,0.7,0.7
2024-07-03T0400,1145A,121.536,31.2659,上海市,杨浦四漂,,24,7,17,6,12,76,,,,12,15,6,6,0.8,0.7
2024-07-03T0400,1147A,121.425,31.2261,上海市,静安监测站,,19,14,18,10,14,59,,,,21,16,6,6,0.6,0.6
2024-07-03T0400,1148A,121.703,31.1907,上海市,浦东川沙,,18,18,22,11,16,38,,,,26,20,6,6,0.7,0.7
2024-07-03T0400,1149A,121.533,31.2284,上海市,浦东新区监测站,,20,9,16,6,11,63,,,,21,18,5,4,0.7,0.6
2024-07-03T0400,1150A,121.577,31.2071,上海市,浦东张江,,22,,17,15,14,52,,,,24,19,5,5,0.8,0.8
2024-07-03T0400,3265A,121.4316,31.3322,上海市,宝山庙行,,20,13,19,8,13,62,,,,17,16,8,8,0.7,0.7
2024-07-03T0400,3266A,121.8791,31.4662,上海市,崇明上实东滩,,15,15,15,9,8,40,,,,28,15,9,8,0.7,0.6
2024-07-03T0400,3268A,121.3162,31.2838,上海市,嘉定南翔,,17,14,18,7,15,54,,,,18,21,4,5,0.6,0.5
2024-07-03T0400,3269A,121.3359,30.7456,上海市,金山新城,,18,13,16,12,12,54,,,,10,13,6,7,0.4,0.4
2024-07-03T0400,3270A,121.4996,31.0739,上海市,闵行浦江,,25,25,20,12,13,18,,,,50,20,8,8,0.5,0.4
2024-07-03T0400,3271A,121.2886,31.1663,上海市,青浦徐泾,,15,15,16,7,13,41,,,,24,16,5,5,0.6,0.5
2024-07-03T0400,3272A,121.2186,31.0378,上海市,松江图书馆,,19,13,15,8,12,60,,,,14,14,6,6,0.7,0.6
2024-07-03T0400,3273A,121.3902,31.2059,上海市,长宁仙霞,,20,10,19,8,11,62,,,,20,21,6,6,0.5,0.5
2024-07-03T0400,3274A,121.7965,31.0507,上海市,浦东惠南,,15,14,22,10,15,40,,,,25,18,12,9,0.6,0.5
2024-07-03T0400,3544A,121.4891,30.925,上海市,奉贤南桥新城,,16,14,13,6,10,49,,,,21,15,5,5,0.6,0.5
2024-07-03T0400,2381A,118.005,28.4572,上饶市,百草园,,38,38,27,18,16,5,,,,9,8,5,6,1.0,0.9
2024-07-03T0400,2382A,117.9756,28.4436,上饶市,市监测站,,33,33,31,18,15,8,,,,17,11,6,8,0.6,0.6
2024-07-03T0400,2383A,117.9519,28.4628,上饶市,凤凰光学,,27,27,27,11,14,7,,,,18,12,13,16,0.8,0.8
2024-07-03T0400,3413A,118.1953,28.4401,上饶市,广丰区教体局,,32,32,22,14,10,16,,,,7,5,10,10,0.5,0.5
2024-07-03T0400,3685A,117.897,28.4315,上饶市,双创科技城,,28,28,32,17,13,6,,,,18,13,17,15,0.6,0.6
2024-07-03T0400,1669A,113.5824,24.7733,韶关市,市八中,,20,20,14,8,7,28,,,,10,7,14,10,0.6,0.5
2024-07-03T0400,1671A,113.5917,24.7972,韶关市,园林处,,32,32,18,20,12,29,,,,16,8,8,7,0.6,0.6
2024-07-03T0400,1672A,113.6735,24.7791,韶关市,韶关学院,,14,14,15,9,11,23,,,,8,9,7,9,0.3,0.4
2024-07-03T0400,1673A,113.5971,24.6863,韶关市,曲江监测站,,22,22,19,10,8,27,,,,10,9,8,7,0.5,0.5
2024-07-03T0400,3622A,113.5556,24.8082,韶关市,碧湖山庄,,23,22,18,16,8,34,,,,13,8,19,11,0.4,0.3
2024-07-03T0400,2462A,111.5239,27.3033,邵阳市,市水土所,,21,21,15,7,8,12,,,,2,2,5,6,0.7,0.6
2024-07-03T0400,2463A,111.4733,27.2317,邵阳市,市一中,,23,11,11,9,8,72,,,,3,4,6,7,0.4,0.4
2024-07-03T0400,2464A,111.5283,27.2442,邵阳市,市化工厂,,26,,15,18,10,66,,,,3,3,9,7,0.4,0.5
2024-07-03T0400,2465A,111.4503,27.2537,邵阳市,市罐头厂,,20,6,14,3,7,63,,,,4,4,5,5,0.3,0.4
2024-07-03T0400,2466A,111.4328,27.2272,邵阳市,市环保局,,24,,15,12,9,74,,,,2,4,4,5,0.5,0.4
2024-07-03T0400,1247A,120.6053,29.9928,绍兴市,城东开发委,,18,18,15,6,8,15,,,,14,12,5,5,0.6,0.6
2024-07-03T0400,2921A,120.5483,30.0003,绍兴市,树下王站,,15,15,14,8,10,12,,,,13,8,3,3,0.5,0.5
2024-07-03T0400,3408A,120.5683,29.9361,绍兴市,绍兴中专,,9,9,12,6,8,14,,,,12,10,2,1,0.5,0.6
2024-07-03T0400,3409A,120.4906,30.0861,绍兴市,柯桥区政府,,36,36,28,15,13,6,,,,32,11,6,5,0.6,0.5
2024-07-03T0400,3410A,120.8752,30.0249,绍兴市,重华小学,,31,31,17,12,9,11,,,,24,9,8,8,0.8,0.7
2024-07-03T0400,3411A,120.8369,30.0137,绍兴市,上虞中学,,35,35,17,15,8,0,,,,32,14,12,8,0.6,0.5
2024-07-03T0400,3560A,120.4722,30.0415,绍兴市,柯桥妇保,,21,21,17,8,8,8,,,,20,16,6,6,0.7,0.7
2024-07-03T0400,3658A,120.6153,30.0764,绍兴市,袍江中学,,28,28,27,12,9,22,,,,28,17,9,9,0.7,0.6
2024-07-03T0400,1356A,114.1063,22.5545,深圳市,通心岭子站,,,11,18,3,8,49,,,,,6,5,5,0.4,0.4
2024-07-03T0400,1357A,114.117,22.5625,深圳市,洪湖,,11,11,20,3,9,19,,,,11,8,6,6,0.4,0.4
2024-07-03T0400,1358A,113.987,22.5417,深圳市,华侨城,,13,13,21,3,8,13,,,,12,8,5,5,0.5,0.5
2024-07-03T0400,1359A,113.9181,22.5171,深圳市,南海子站,,10,10,26,3,12,23,,,,9,11,5,5,0.4,0.5
2024-07-03T0400,1360A,114.2458,22.5689,深圳市,盐田,,18,18,20,3,7,14,,,,13,10,6,5,0.4,0.5
2024-07-03T0400,1361A,114.2283,22.7244,深圳市,龙岗,,8,8,17,3,7,23,,,,7,9,4,4,0.6,0.5
2024-07-03T0400,1363A,114.494,22.5422,深圳市,南澳,,13,13,21,3,8,9,,,,2,2,7,7,0.2,0.3
2024-07-03T0400,1364A,114.41,22.6342,深圳市,葵涌,,8,8,16,3,6,16,,,,12,9,5,5,0.5,0.6
2024-07-03T0400,1365A,114.297,22.5978,深圳市,梅沙,,5,6,14,3,6,14,,,,4,7,4,4,0.4,0.5
2024-07-03T0400,1366A,114.0678,22.738,深圳市,观澜,,18,18,26,3,8,14,,,,12,11,8,8,0.5,0.5
2024-07-03T0400,3305A,114.0731,22.559,深圳市,莲花,,13,13,19,3,8,16,,,,10,8,5,5,0.4,0.4
2024-07-03T0400,3306A,114.0261,22.6198,深圳市,民治,,7,7,18,3,8,14,,,,14,12,5,5,0.6,0.6
2024-07-03T0400,3307A,114.1871,22.6451,深圳市,横岗,,11,11,18,6,10,17,,,,16,14,3,3,0.4,0.4
2024-07-03T0400,3447A,114.3551,22.7151,深圳市,坪山,,16,16,18,6,8,17,,,,10,8,4,4,0.3,0.4
2024-07-03T0400,3623A,113.8953,22.5861,深圳市,西乡,,11,11,24,3,7,25,,,,6,10,6,6,0.4,0.5
2024-07-03T0400,1098A,123.6836,41.9339,沈阳市,森林路,,,,,,,,,,,,,,,,
2024-07-03T0400,1099A,123.505,41.7406,沈阳市,浑南东路,,,,54,11,29,59,,,,10,25,2,5,0.9,0.9
2024-07-03T0400,1100A,123.4231,41.6989,沈阳市,新秀街,,17,,36,11,29,54,,,,10,27,4,9,0.8,0.9
2024-07-03T0400,1102A,123.5903,41.8411,沈阳市,东陵路,,18,13,39,8,23,57,,,,12,19,8,9,0.5,0.7
2024-07-03T0400,1103A,123.4264,41.8467,沈阳市,陵东街,,14,8,38,6,26,44,,,,15,36,4,6,0.6,0.9
2024-07-03T0400,1104A,123.4114,41.7653,沈阳市,文化路,,18,12,43,11,31,56,,,,12,26,4,7,0.7,0.8
2024-07-03T0400,1105A,123.4678,41.7867,沈阳市,小河沿,,14,9,39,7,26,42,,,,15,29,5,8,1.2,1
2024-07-03T0400,1106A,123.4017,41.7972,沈阳市,太原街,,19,14,39,8,29,58,,,,10,24,4,6,0.8,0.8
2024-07-03T0400,1108A,123.3783,41.9228,沈阳市,京沈街,,21,6,47,3,30,67,,,,9,27,5,7,0.6,0.8
2024-07-03T0400,2897A,123.2444,41.7347,沈阳市,沈辽西路,,16,11,48,10,28,50,,,,9,29,5,7,0.8,1
2024-07-03T0400,2900A,123.5953,41.9086,沈阳市,裕农路,,20,,27,8,23,61,,,,6,12,5,6,0.6,0.7
2024-07-03T0400,2428A,111.0419,32.395,十堰市,武当山,,32,19,17,11,10,102,,,,2,2,12,12,0.7,0.7
2024-07-03T0400,2429A,110.78,32.6494,十堰市,滨河新村,,36,36,24,24,17,18,,,,32,14,7,6,1.0,0.5
2024-07-03T0400,2430A,110.7258,32.6389,十堰市,刘家沟,,46,40,28,32,15,28,,,,11,9,6,5,0.6,0.5
2024-07-03T0400,2431A,110.8839,32.5714,十堰市,铁二处,,24,24,18,14,16,34,,,,4,4,5,5,0.6,0.6
2024-07-03T0400,3545A,110.8054,32.8401,十堰市,郧阳区金沙路,,22,20,18,14,12,69,,,,10,8,6,7,0.5,0.5
2024-07-03T0400,2709A,86.0497,44.2967,石河子市,艾青诗歌馆,,25,10,16,3,15,78,,,,10,10,5,5,0.5,0.5
2024-07-03T0400,3442A,86.047,44.2331,石河子市,南区管委会,,,,26,,9,,,76,,,3,,6,,0.3
2024-07-03T0400,4051A,86.0791,44.3017,石河子市,世纪广场,,22,6,24,3,8,70,,,,8,6,7,7,0.5,0.6
2024-07-03T0400,1029A,114.4422,38.0444,石家庄市,职工医院,,50,47,33,35,31,83,,,,5,5,34,4,0.4,0.3
2024-07-03T0400,1030A,114.6063,38.0266,石家庄市,高新区,细颗粒物(PM2.5),59,,38,42,40,69,,,,11,6,2,2,0.4,0.5
2024-07-03T0400,1031A,114.4898,38.1328,石家庄市,西北水源,,43,43,40,27,31,71,,,,6,5,5,5,0.3,0.3
2024-07-03T0400,1032A,114.4586,38.0058,石家庄市,西南高教,颗粒物(PM10),64,77,49,44,30,75,,,,7,8,44,4,0.4,0.4
2024-07-03T0400,1033A,114.5331,38.0178,石家庄市,世纪公园,颗粒物(PM10),58,66,52,36,31,52,,,,17,10,3,3,0.4,0.5
2024-07-03T0400,1034A,114.509,38.0457,石家庄市,人民会堂,细颗粒物(PM2.5),62,45,43,44,36,76,,,,15,8,8,3,0.3,0.3
