timepoint,stationcode,longitude,latitude,area,positionname,primarypollutant,aqi,pm10,pm10_24h,pm2_5,pm2_5_24h,o3,o3_24h,o3_8h,o3_8h_24h,no2,no2_24h,so2,so2_24h,co,co_24h
2026-05-02T1400,2568A,102.2503,31.8896,阿坝藏族羌族自治州,马师校,颗粒物(PM10),53,54,27,12,6,123,123,96,96,2,3,6,6,0.2,0.3
2026-05-02T1400,3994A,102.2174,31.9016,阿坝藏族羌族自治州,马尔康中学西区,,46,46,21,14,7,115,115,90,90,4,5,5,4,0.2,0.3
2026-05-02T1400,2695A,80.2899,41.1684,阿克苏地区,电视台,颗粒物(PM10),169,287,401,104,145,104,104,88,88,3,8,3,3,0.2,0.2
2026-05-02T1400,2696A,80.2592,41.1541,阿克苏地区,艺术中心,细颗粒物(PM2.5),131,190,219,94,109,108,108,97,95,6,10,4,4,0.3,0.4
2026-05-02T1400,2205A,105.699,38.8409,阿拉善盟,蒙二幼,,33,19,55,3,18,104,104,98,97,4,5,10,10,0.4,0.4
2026-05-02T1400,2206A,105.7198,38.8508,阿拉善盟,环保局新楼,,31,19,52,8,21,98,98,96,91,4,5,9,9,0.5,0.5
2026-05-02T1400,2708A,88.1266,47.8515,阿勒泰地区,市站,,33,21,21,3,3,103,103,92,92,6,11,5,5,0.1,0.1
2026-05-02T1400,4166A,88.1198,47.7931,阿勒泰地区,阿勒泰路33号,,33,20,20,3,2,104,104,87,87,2,5,4,3,0.1,0.1
2026-05-02T1400,2630A,80.1171,32.4999,阿里地区,阿里监测站,,39,22,16,7,6,123,123,122,120,2,4,8,8,0.3,0.3
2026-05-02T1400,3192A,80.0906,32.5029,阿里地区,阿里藏医院,,40,18,15,3,4,126,126,124,119,2,4,11,11,0.4,0.3
2026-05-02T1400,2644A,109.0088,32.6974,安康市,汉滨区检察院,,20,10,40,6,26,63,63,37,37,4,12,6,6,0.4,0.4
2026-05-02T1400,4054A,109.0324,32.6913,安康市,市邮政管理局,,22,10,40,6,27,70,70,49,49,3,10,4,9,0.5,0.6
2026-05-02T1400,2291A,117.0806,30.5181,安庆市,环科院,,42,NA,31,29,20,42,42,34,34,19,54,6,7,0.5,0.4
2026-05-02T1400,2292A,117.0331,30.5118,安庆市,马山宾馆,,39,28,28,27,19,51,51,29,29,11,47,9,6,0.6,0.3
2026-05-02T1400,2294A,116.9897,30.6146,安庆市,安庆大学,,25,22,30,17,16,54,54,35,35,11,20,4,4,0.8,0.5
2026-05-02T1400,3173A,117.0598,30.5351,安庆市,市人大,,38,26,31,26,20,51,51,36,36,11,38,14,7,0.6,0.4
2026-05-02T1400,3123A,105.9408,26.2431,安顺市,凤凰山,,25,NA,33,17,24,76,76,86,71,9,7,12,7,0.6,0.6
2026-05-02T1400,3124A,105.9443,26.2567,安顺市,金钟山,,22,NA,29,14,24,69,69,76,64,6,5,10,6,0.6,0.6
2026-05-02T1400,3125A,105.8983,26.248,安顺市,娄家坡,,22,20,31,15,24,69,69,65,64,9,5,6,5,0.6,0.6
2026-05-02T1400,1819A,114.3552,36.1017,安阳市,红庙街,,31,26,48,20,17,98,98,87,87,11,12,4,3,0.3,0.4
2026-05-02T1400,1820A,114.361,36.0681,安阳市,银杏小区,,30,27,39,14,19,95,95,87,87,9,9,6,5,0.3,0.3
2026-05-02T1400,3141A,114.3921,36.0879,安阳市,信访局,,33,32,37,12,19,104,104,94,94,7,8,2,2,0.4,0.4
2026-05-02T1400,3669A,114.4706,36.0634,安阳市,左辅环卫站,,33,28,34,12,16,104,104,83,83,8,9,1,2,0.5,0.5
2026-05-02T1400,4117A,114.2918,36.0769,安阳市,钢三路198号,,39,39,41,26,17,97,97,79,79,9,9,2,2,0.5,0.4
2026-05-02T1400,1748A,123.0441,41.1201,鞍山市,深沟寺,,35,31,30,7,9,110,110,90,90,9,14,7,8,0.5,0.5
2026-05-02T1400,1749A,123.011,41.0931,鞍山市,太阳城,,34,27,24,11,10,107,107,87,87,8,14,8,9,0.5,0.5
2026-05-02T1400,1750A,123.0483,41.1445,鞍山市,太平,,49,49,40,9,13,109,109,86,86,11,19,8,8,0.7,0.8
2026-05-02T1400,1751A,122.964,41.0968,鞍山市,铁西三道街,颗粒物(PM10),57,59,59,13,23,104,104,72,72,16,38,6,9,0.5,0.8
2026-05-02T1400,1753A,123.0219,41.0822,鞍山市,明达新区,颗粒物(PM10),96,114,38,8,10,108,108,90,90,10,15,7,8,0.5,0.8
2026-05-02T1400,4201A,122.944647,41.082639,鞍山市,兴盛南路290号,,46,46,87,20,27,108,108,76,76,16,40,8,9,0.4,0.7
2026-05-02T1400,2195A,107.4206,40.7609,巴彦淖尔市,附二中,,36,36,40,14,13,91,91,86,86,4,7,8,10,0.3,0.4
2026-05-02T1400,2196A,107.37,40.7372,巴彦淖尔市,市环保大楼,,30,29,36,6,13,94,94,91,91,4,6,6,8,0.3,0.4
2026-05-02T1400,1956A,86.1476,41.7529,巴音郭楞蒙古自治州,孔雀公园,颗粒物(PM10),55,56,101,20,30,108,108,75,75,4,22,3,4,0.2,0.2
2026-05-02T1400,1957A,86.1971,41.7166,巴音郭楞蒙古自治州,棉纺厂,颗粒物(PM10),71,79,120,24,35,108,108,82,82,4,25,/,/,/,/
2026-05-02T1400,1958A,86.236,41.7172,巴音郭楞蒙古自治州,经济开发区,颗粒物(PM10),58,61,89,13,32,106,106,90,90,1,6,8,9,0.2,0.2
2026-05-02T1400,3181A,106.776805,31.852614,巴中市,市五中,NA,NA,23,25,12,15,92,92,48,48,NA,11,5,8,0.3,0.7
2026-05-02T1400,3183A,106.7419,31.8654,巴中市,圣泉水务公司,,32,31,20,12,13,102,102,60,60,3,10,6,6,0.5,0.8
2026-05-02T1400,3616A,106.7617,31.8343,巴中市,市中心医院,,30,25,25,13,16,96,96,51,51,5,13,5,5,0.3,0.5
2026-05-02T1400,2235A,122.7909,45.608,白城市,洮北区环保局,,33,21,23,3,6,103,103,95,95,5,5,3,4,0.3,0.3
2026-05-02T1400,2236A,122.8741,45.5725,白城市,市环保局,,32,12,19,3,7,102,102,94,94,7,9,2,3,0.2,0.3
2026-05-02T1400,2231A,126.4219,41.9172,白山市,喜丰,,34,23,58,3,14,106,106,80,80,3,22,6,8,0.8,0.9
2026-05-02T1400,2232A,126.4082,41.9416,白山市,环保局,,33,14,33,3,10,104,104,80,80,6,13,9,10,0.7,0.8
2026-05-02T1400,2647A,104.1727,36.5448,白银市,第三小学,颗粒物(PM10),55,56,55,15,18,111,111,100,100,1,3,6,6,0.3,0.3
2026-05-02T1400,2648A,104.1467,36.5482,白银市,动力公司,颗粒物(PM10),53,54,50,27,20,112,112,101,101,2,3,5,6,0.2,0.3
2026-05-02T1400,2512A,106.6102,23.901,百色市,市监测站,细颗粒物(PM2.5),52,49,50,36,32,80,80,54,54,11,17,10,13,0.8,0.8
2026-05-02T1400,2513A,106.6524,23.8842,百色市,市中心血站,细颗粒物(PM2.5),62,53,52,41,40,85,85,81,62,13,14,12,16,0.9,0.9
2026-05-02T1400,4133A,106.6273,23.8798,百色市,龙景西路,细颗粒物(PM2.5),88,72,56,54,42,68,68,68,47,18,17,14,17,0.8,0.6
2026-05-02T1400,2270A,117.396,32.9389,蚌埠市,工人疗养院,细颗粒物(PM2.5),56,55,43,38,16,72,72,101,76,28,24,6,6,0.6,0.5
2026-05-02T1400,2271A,117.3606,32.9428,蚌埠市,百货大楼,细颗粒物(PM2.5),54,44,36,37,17,72,72,103,78,21,15,6,7,0.6,0.5
2026-05-02T1400,2273A,117.4183,32.8909,蚌埠市,蚌埠学院,,49,46,34,34,18,65,65,104,76,20,15,5,6,0.6,0.5
2026-05-02T1400,2274A,117.3534,32.9672,蚌埠市,淮上区政府,,49,48,40,34,17,73,73,102,61,26,26,6,7,0.5,0.4
2026-05-02T1400,2275A,117.3143,32.8977,蚌埠市,高新区,细颗粒物(PM2.5),62,41,34,41,16,64,64,102,75,24,15,7,8,0.6,0.4
2026-05-02T1400,3715A,117.3091,32.9314,蚌埠市,蚌埠田家炳中学,细颗粒物(PM2.5),54,50,42,37,17,64,64,106,76,26,17,6,7,0.5,0.4
2026-05-02T1400,1585A,109.8761,40.6533,包头市,市环境监测站,,41,41,53,7,25,98,98,94,94,8,9,5,7,0.3,0.4
2026-05-02T1400,1587A,109.9992,40.5843,包头市,包头八中,,30,21,46,12,16,95,95,90,88,4,8,8,9,0.3,0.4
2026-05-02T1400,1589A,109.8641,40.6288,包头市,惠龙物流,,29,NA,41,17,15,91,91,88,88,4,8,5,7,0.3,0.4
2026-05-02T1400,1590A,110.0376,40.5546,包头市,东河鸿龙湾,,30,12,41,3,14,93,93,89,86,8,11,11,12,0.3,0.4
2026-05-02T1400,3283A,109.9154,40.5684,包头市,滨河大厦,,30,19,37,7,16,94,94,88,88,4,9,8,9,0.3,0.4
2026-05-02T1400,3419A,109.9449,40.6259,包头市,包头市委党校,,30,11,35,7,14,94,94,89,89,4,8,5,6,0.3,0.4
2026-05-02T1400,3683A,109.8332,40.6577,包头市,昆区政府,,31,12,42,6,15,98,98,93,92,4,8,2,3,0.4,0.6
2026-05-02T1400,1931A,107.0802,34.3129,宝鸡市,竹园沟,颗粒物(PM10),60,64,35,18,28,106,106,68,68,5,6,8,8,0.5,0.6
2026-05-02T1400,1933A,107.1429,34.3549,宝鸡市,监测站,颗粒物(PM10),68,74,32,17,16,111,111,65,65,7,10,5,6,0.3,0.3
2026-05-02T1400,1934A,107.1172,34.3759,宝鸡市,技工学校,颗粒物(PM10),70,77,33,16,18,116,116,65,65,7,8,4,4,0.3,0.5
2026-05-02T1400,1936A,107.2025,34.3518,宝鸡市,文理学院,颗粒物(PM10),59,62,32,14,16,110,110,70,70,7,11,5,5,0.3,0.4
2026-05-02T1400,1937A,107.2396,34.3626,宝鸡市,三迪小学,颗粒物(PM10),70,77,34,20,17,118,118,66,66,6,13,5,5,0.3,0.5
2026-05-02T1400,4155A,107.1721,34.3558,宝鸡市,滨河北路,,49,49,25,12,15,105,105,62,62,7,9,7,7,0.3,0.5
2026-05-02T1400,4308A,107.3898,34.3601,宝鸡市,陈仓区北开路21号,颗粒物(PM10),65,71,38,17,18,106,106,69,69,8,13,7,8,0.3,0.4
2026-05-02T1400,1051A,115.4803,38.8568,保定市,游泳馆,,43,34,77,8,41,135,135,109,109,6,18,3,6,0.0,0.3
2026-05-02T1400,1052A,115.509,38.8895,保定市,华电二区,,41,30,64,11,38,130,130,100,100,4,16,1,3,0.3,0.5
2026-05-02T1400,1053A,115.4588,38.9037,保定市,接待中心,,40,24,72,12,37,128,128,104,104,2,15,3,3,0.2,0.4
2026-05-02T1400,1054A,115.4484,38.8344,保定市,地表水厂,,42,42,84,11,34,134,134,108,108,5,16,1,4,0.0,0.3
2026-05-02T1400,3581A,115.3136,38.9511,保定市,满城区生态环境分局,,43,29,98,11,33,135,135,112,112,1,14,2,5,0.1,0.3
2026-05-02T1400,3582A,115.4709,38.7628,保定市,清苑区第二中学,颗粒物(PM10),80,92,97,3,35,134,134,105,105,1,20,6,8,0.1,0.4
2026-05-02T1400,3583A,115.6231,39.0223,保定市,徐水物探局,,43,33,98,13,43,136,136,104,104,6,22,1,4,0.3,0.4
2026-05-02T1400,4004A,115.4199,38.8665,保定市,双鹰农机,,43,32,78,15,40,136,136,113,113,4,15,3,3,0.1,0.3
2026-05-02T1400,4034A,115.515,38.8589,保定市,植保所站,,45,42,82,9,37,142,142,112,112,4,18,3,3,0.2,0.4
2026-05-02T1400,2594A,99.1589,25.1137,保山市,市环境监测站,,32,14,15,14,11,101,101,86,86,5,7,6,6,0.3,0.3
2026-05-02T1400,2595A,99.1616,25.1381,保山市,市环保局,,32,14,19,12,16,102,102,87,87,3,5,7,7,0.2,0.3
2026-05-02T1400,1867A,109.1435,21.4085,北海市,海滩公园,,47,47,37,10,12,104,104,101,89,6,7,6,7,1.0,0.7
2026-05-02T1400,1868A,109.0983,21.466,北海市,新市环保局,,32,32,23,11,14,101,101,103,92,6,7,5,5,0.6,0.6
2026-05-02T1400,1869A,109.1775,21.5232,北海市,北海工业园,,30,30,29,17,18,95,95,108,89,2,5,6,6,0.8,0.8
2026-05-02T1400,3400A,109.1844,21.4396,北海市,龙潭自来水厂,,34,24,23,11,11,107,107,107,92,5,6,9,8,0.9,0.9
2026-05-02T1400,1001A,116.3611,39.8786,北京市,万寿西宫,,37,37,64,9,24,98,98,88,88,5,23,3,7,0.2,0.5
2026-05-02T1400,1003A,116.4174,39.9289,北京市,东四,,41,41,67,10,29,97,97,92,92,5,23,2,7,0,0.2
2026-05-02T1400,1004A,116.4073,39.8858,北京市,天坛,,47,47,60,10,24,94,94,82,82,5,22,4,7,0.2,0.5
2026-05-02T1400,1005A,116.4622,39.9364,北京市,农展馆,,37,37,65,11,26,94,94,83,83,1,22,3,7,0.3,0.6
2026-05-02T1400,1006A,116.3399,39.9293,北京市,官园,,37,37,68,9,27,88,88,83,83,8,26,1,6,0.2,0.5
2026-05-02T1400,1007A,116.2879,39.9613,北京市,海淀万柳,,47,47,70,8,28,77,77,65,65,4,30,4,7,0.3,0.6
2026-05-02T1400,1008A,116.6635,40.1349,北京市,顺义新城,NA,NA,NA,78,NA,30,NA,NA,159,89,NA,20,NA,6,NA,0.6
2026-05-02T1400,1009A,116.6275,40.327,北京市,怀柔镇,,28,18,67,6,28,89,89,99,99,3,10,4,7,0.2,0.5
2026-05-02T1400,1010A,116.2295,40.217,北京市,昌平镇,,24,23,67,3,28,74,74,92,90,16,18,3,6,0.4,0.7
2026-05-02T1400,1011A,116.3968,39.982,北京市,奥体中心,,37,37,63,8,27,82,82,77,77,9,27,3,7,0.2,0.5
2026-05-02T1400,3418A,116.8336,40.4095,北京市,密云新城,,29,19,69,3,30,90,90,105,105,1,8,3,5,0.1,0.4
2026-05-02T1400,3671A,116.0879,39.9725,北京市,门头沟三家店,,29,25,70,17,42,91,91,81,81,5,23,3,5,0.2,0.5
2026-05-02T1400,3672A,116.1507,39.8246,北京市,丰台云岗,颗粒物(PM10),52,52,75,17,33,100,100,87,87,9,24,2,5,0.4,0.6
2026-05-02T1400,3674A,115.9578,39.7602,北京市,房山燕山,,45,45,83,17,40,96,96,81,81,10,21,4,6,0.4,0.6
2026-05-02T1400,3675A,116.4669,39.7734,北京市,大兴旧宫,,50,50,59,23,27,111,111,80,80,5,25,1,3,0.3,0.6
2026-05-02T1400,3694A,115.9859,40.4562,北京市,延庆石河营,,23,6,75,3,33,72,72,86,84,2,9,1,2,0.3,0.7
2026-05-02T1400,3695A,116.6151,40.3052,北京市,怀柔新城,,29,19,65,3,30,92,92,100,100,3,10,4,7,0.3,0.6
2026-05-02T1400,3696A,116.2542,39.8764,北京市,丰台小屯,,30,30,67,8,28,86,86,74,74,3,22,2,5,0.3,0.6
2026-05-02T1400,3697A,116.8399,40.3843,北京市,密云镇,,28,16,71,6,29,89,89,92,92,4,18,4,6,0.3,0.6
2026-05-02T1400,4057A,115.9423,40.4431,北京市,延庆百泉,,24,6,72,3,32,76,76,107,90,5,12,1,2,0.3,0.6
2026-05-02T1400,4058A,116.6598,39.9164,北京市,通州新华,颗粒物(PM10),71,79,83,16,28,87,87,75,75,9,30,5,8,0.4,0.6
2026-05-02T1400,4182A,116.1942,39.9158,北京市,石景山八角,,29,26,74,8,28,91,91,83,83,4,30,5,7,0.3,0.5
2026-05-02T1400,4194A,117.078628,40.151726,北京市,平谷新城,颗粒物(PM10),57,59,68,25,29,133,133,98,98,8,14,5,6,0.6,0.7
2026-05-02T1400,1761A,123.8274146,41.31234549,本溪市,大峪,,34,24,28,9,9,106,106,73,73,11,19,14,8,1.0,0.6
2026-05-02T1400,1763A,123.7169,41.3094,本溪市,彩屯,,36,36,51,3,20,107,107,65,65,8,28,12,20,0.7,1.3
2026-05-02T1400,1764A,123.7672166,41.28649327,本溪市,东明,,46,46,53,3,13,106,106,62,62,14,31,13,9,1.1,1
2026-05-02T1400,1765A,123.799345,41.266614,本溪市,新立屯,,36,36,37,3,3,108,108,69,69,11,22,14,9,1.2,0.8
2026-05-02T1400,1766A,123.829144,41.336777,本溪市,威宁,,35,32,48,7,11,109,109,72,72,12,23,13,8,1.0,0.7
2026-05-02T1400,2587A,105.287,27.3133,毕节市,八中,,24,8,22,3,14,76,76,72,72,5,7,8,8,0.5,0.6
2026-05-02T1400,2588A,105.3079,27.2987,毕节市,师专,,23,6,17,3,11,71,71,68,68,6,7,9,9,0.4,0.5
2026-05-02T1400,4263A,105.3688,27.3598,毕节市,工业大道,,25,6,16,3,15,79,79,72,72,3,5,10,10,/,/
2026-05-02T1400,1629A,117.9961,37.3604,滨州市,第二水厂,,46,46,65,18,25,92,92,92,92,16,25,7,9,0.5,0.6
2026-05-02T1400,1630A,117.9789,37.3931,滨州市,北中新校,颗粒物(PM10),56,58,53,18,20,108,108,104,104,19,22,10,12,0.4,0.4
2026-05-02T1400,3514A,117.9379,37.3959,滨州市,中海酒店,,36,34,45,19,21,114,114,103,103,19,23,9,11,0.3,0.4
2026-05-02T1400,3515A,117.9381509,37.35547456,滨州市,开发区一中,颗粒物(PM10),53,53,62,24,24,94,94,95,95,21,26,12,13,0.5,0.5
2026-05-02T1400,3516A,118.0914,37.6938,滨州市,金海六路,,39,24,63,12,34,122,122,89,89,6,19,8,9,0.3,0.4
2026-05-02T1400,4028A,117.9955,37.3752,滨州市,滨州市西街道办事处,,33,31,58,17,23,103,103,100,100,17,22,6,7,0.6,0.6
2026-05-02T1400,2311A,115.8071,33.8399,亳州市,污水处理厂,,34,25,28,20,16,106,106,86,83,7,9,6,6,0.2,0.1
2026-05-02T1400,2312A,115.7789,33.8519,亳州市,三国揽胜宫,,32,32,34,21,14,98,98,90,80,5,8,6,6,0.2,0.1
2026-05-02T1400,3332A,115.7631,33.803,亳州市,亳州学院,,32,NA,19,21,14,101,101,99,86,6,9,4,5,0.2,0.1
2026-05-02T1400,2693A,82.0482,44.8553,博尔塔拉蒙古自治州,市党校,,45,45,57,18,13,120,120,83,83,5,6,4,3,0.4,0.4
2026-05-02T1400,2694A,82.0805,44.8966,博尔塔拉蒙古自治州,市环保局,,38,38,55,22,26,111,111,72,72,11,17,4,3,0.3,0.3
2026-05-02T1400,1071A,116.8733,38.2922,沧州市,沧县城建局,,42,32,64,20,29,132,132,97,97,8,20,2,7,0.5,0.7
2026-05-02T1400,1072A,116.8462,38.3189,沧州市,电视转播站,,41,29,62,18,32,130,130,98,98,6,16,6,9,0.2,0.3
2026-05-02T1400,1073A,116.8588,38.3161,沧州市,市环保局,,44,26,69,18,28,138,138,108,108,4,15,5,8,0.3,0.5
2026-05-02T1400,3324A,116.8011,38.294,沧州市,河北水利电力学院,,40,24,58,15,33,125,125,95,95,5,17,8,11,0.1,0.3
2026-05-02T1400,2622A,97.1813,31.1289,昌都市,昌都监测站,,33,25,12,3,5,104,104,85,85,6,5,13,13,0.6,0.6
2026-05-02T1400,3719A,97.1707,31.1428,昌都市,昌都会议中心,,35,22,11,8,8,110,110,88,88,3,4,8,7,0.4,0.4
2026-05-02T1400,2692A,87.2722,44.0298,昌吉回族自治州,新区政务中心,,50,50,36,6,12,118,118,79,79,11,16,13,7,0.5,0.5
2026-05-02T1400,3613A,87.3069,44.0093,昌吉回族自治州,亚心广场,颗粒物(PM10),53,53,55,12,13,126,126,90,90,7,13,10,6,0.4,0.4
2026-05-02T1400,4164A,87.2057,43.9289,昌吉回族自治州,财政所,颗粒物(PM10),80,92,59,20,13,118,118,100,100,12,11,10,8,0.5,0.4
2026-05-02T1400,1120A,125.2874,43.9024,长春市,客车厂,,27,25,35,6,17,84,84,75,75,9,23,6,7,0.2,0.3
2026-05-02T1400,1121A,125.2943,43.8508,长春市,邮电学院,,29,26,35,7,15,91,91,81,81,6,20,6,7,0.3,0.4
2026-05-02T1400,1122A,125.3648,43.8745,长春市,劳动公园,,30,24,35,7,14,93,93,82,82,7,18,6,7,0.3,0.4
2026-05-02T1400,1123A,125.3233,43.8781,长春市,园林处,,29,22,30,7,14,92,92,82,82,6,15,6,7,0.3,0.3
2026-05-02T1400,1124A,125.4604,43.7904,长春市,净月潭,,30,21,25,7,12,95,95,81,81,6,11,4,5,0.3,0.3
2026-05-02T1400,1126A,125.38,43.8422,长春市,经开区环卫处,,30,23,37,6,13,94,94,84,84,6,21,5,5,0.3,0.4
2026-05-02T1400,1127A,125.234,43.7761,长春市,高新区管委会,,30,21,47,3,15,93,93,43,NA,3,21,7,8,0.2,0.3
2026-05-02T1400,1128A,125.1695,43.83,长春市,岱山公园,,32,24,38,3,15,101,101,90,90,3,22,4,5,0.2,0.3
2026-05-02T1400,4281A,125.334645,43.916281,长春市,北亚泰大街1068号,,29,23,39,11,18,92,92,82,82,8,24,5,6,0.2,0.2
2026-05-02T1400,1335A,113.082,28.2421,长沙市,经开区环保局,细颗粒物(PM2.5),72,51,32,46,21,72,72,81,81,15,11,4,5,0.7,0.5
2026-05-02T1400,1336A,112.8873,28.2202,长沙市,高开区环保局,细颗粒物(PM2.5),72,52,30,46,21,55,55,83,80,11,11,7,9,0.5,0.5
2026-05-02T1400,1337A,113.0785,28.2012,长沙市,马坡岭,细颗粒物(PM2.5),66,44,31,43,22,77,77,83,83,11,9,6,7,0.9,0.7
2026-05-02T1400,1338A,112.9448,28.1894,长沙市,湖南师范大学,细颗粒物(PM2.5),54,45,36,37,20,65,65,82,82,13,14,8,8,0.4,0.4
2026-05-02T1400,1339A,113.0177,28.1322,长沙市,雨花区环保局,细颗粒物(PM2.5),56,44,32,38,19,87,87,93,93,5,8,5,6,0.7,0.6
2026-05-02T1400,1340A,112.9795,28.2593,长沙市,伍家岭,细颗粒物(PM2.5),70,52,34,45,21,59,59,74,72,7,11,6,7,0.7,0.7
2026-05-02T1400,1341A,113.002,28.1944,长沙市,火车新站,细颗粒物(PM2.5),66,59,34,43,22,75,75,80,80,8,12,5,7,0.6,0.4
2026-05-02T1400,1342A,112.9846,28.1177,长沙市,天心区环保局,细颗粒物(PM2.5),56,44,32,38,21,88,88,93,93,9,13,6,8,0.6,0.5
2026-05-02T1400,1343A,112.8906,28.1307,长沙市,湖南中医药大学,细颗粒物(PM2.5),74,47,31,47,21,70,70,84,84,9,16,7,8,0.8,0.7
2026-05-02T1400,1727A,113.1146,36.1547,长治市,清华站,,39,20,19,14,10,122,122,103,103,10,11,9,8,0.4,0.4
2026-05-02T1400,1730A,113.0887,36.2126,长治市,审计局,,38,19,19,12,11,120,120,100,100,7,7,8,8,0.3,0.3
2026-05-02T1400,1731A,113.0845,36.1856,长治市,长治八中,,35,20,25,16,10,111,111,97,92,14,11,10,9,0.4,0.4
2026-05-02T1400,2845A,113.1561,36.1912,长治市,德盛苑,,40,26,18,17,11,126,126,106,106,10,10,11,8,0.4,0.4
2026-05-02T1400,3568A,113.0603,36.0464,长治市,向阳小学,,45,45,50,12,11,125,125,107,107,14,14,10,8,0.6,0.5
2026-05-02T1400,3569A,112.8788,36.315,长治市,屯留一中,,35,14,17,12,8,111,111,79,79,8,11,8,7,0.8,0.7
2026-05-02T1400,4189A,113.113092,36.199482,长治市,英华南巷50号,,39,19,23,10,10,123,123,106,106,5,7,8,7,0.5,0.5
2026-05-02T1400,4190A,113.23666,36.33435,长治市,学府街1号,,42,37,31,29,12,122,122,96,96,14,12,11,4,0.7,0.5
2026-05-02T1400,1854A,111.696,28.9725,常德市,市二中,,30,NA,34,21,26,91,91,75,75,5,13,8,13,0.9,0.8
2026-05-02T1400,3138A,111.7152,29.0288,常德市,武陵区永安,,29,NA,36,20,23,90,90,81,81,1,4,5,7,0.7,0.7
2026-05-02T1400,3139A,111.6891,28.9881,常德市,鼎城区玉霞,,30,22,36,21,26,89,89,74,74,5,14,8,12,0.9,0.9
2026-05-02T1400,3140A,111.6651,29.0526,常德市,武陵区长庚,,32,24,35,22,26,90,90,79,79,5,8,7,10,0.8,0.8
2026-05-02T1400,1196A,119.9524,31.7586,常州市,市监测站,颗粒物(PM10),70,77,46,30,20,96,96,109,105,23,20,7,7,0.7,0.7
2026-05-02T1400,1200A,119.9351,31.703,常州市,武进监测站,颗粒物(PM10),70,78,42,36,19,93,93,111,102,21,16,22,4,0.6,0.5
2026-05-02T1400,3002A,119.9701,31.813,常州市,行政中心,,50,36,42,35,22,88,88,107,102,24,19,6,8,0.2,0.4
2026-05-02T1400,3003A,120.0434,31.7726,常州市,经开区,颗粒物(PM10),66,72,47,29,19,98,98,109,106,17,19,9,8,0.7,0.8
2026-05-02T1400,3010A,119.8919,31.7892,常州市,钟楼,,49,49,39,30,20,101,101,129,115,25,20,10,9,0.3,0.3
2026-05-02T1400,3429A,119.8595,31.706,常州市,武进经发区,颗粒物(PM10),53,54,40,29,24,77,77,114,97,33,23,6,10,0.7,0.6
2026-05-02T1400,3430A,119.5812,31.7256,常州市,金坛城区,,38,NA,29,26,23,70,70,110,83,20,14,6,9,0.7,0.7
2026-05-02T1400,4089A,119.9551,31.863,常州市,崇义南街5-H号,,45,45,42,30,21,91,91,106,106,21,19,7,8,0.6,0.6
2026-05-02T1400,2220A,120.4318,41.588,朝阳市,西梁,,40,40,44,13,12,87,87,64,64,12,25,7,9,0.3,0.5
2026-05-02T1400,2221A,120.452,41.565,朝阳市,河畔小区,,42,42,32,12,10,93,93,70,70,11,21,9,8,0.3,0.4
2026-05-02T1400,2222A,120.4176,41.5648,朝阳市,八里堡,颗粒物(PM10),70,78,48,12,15,90,90,64,64,12,30,8,9,0.4,0.5
2026-05-02T1400,3026A,116.6179,23.6608,潮州市,市政府,颗粒物(PM10),57,59,40,25,22,154,154,117,117,12,10,9,7,0.6,0.5
2026-05-02T1400,4036A,116.646,23.676,潮州市,金山,臭氧1小时(O3_1h),63,38,32,27,19,170,170,110,110,9,7,6,4,0.4,0.4
2026-05-02T1400,2473A,113.0116,25.8228,郴州市,市职中,,29,19,18,16,15,92,92,118,103,7,8,6,6,0.4,0.4
2026-05-02T1400,2475A,113.0381,25.8074,郴州市,市审计局,,26,17,19,14,15,83,83,104,91,4,7,2,3,/,/
2026-05-02T1400,2476A,113.0348,25.7757,郴州市,市环保局,,30,27,20,15,16,96,96,122,106,4,7,6,6,0.3,0.4
2026-05-02T1400,4252A,113.0138,25.8011,郴州市,好美居路49号,,29,23,24,10,13,92,92,118,104,5,8,8,7,/,/
2026-05-02T1400,1431A,103.9727,30.7242,成都市,金泉两河,NA,NA,NA,32,6,19,106,106,53,53,4,12,3,3,0.3,0.4
2026-05-02T1400,1432A,104.1423,30.6765,成都市,十里店,,35,NA,33,9,21,112,112,68,68,3,11,4,4,0.5,0.6
2026-05-02T1400,1433A,104.0594,30.5765,成都市,三瓦窑,,35,NA,35,11,22,109,109,60,60,8,15,3,3,0.3,0.4
2026-05-02T1400,1434A,104.1122,30.6306,成都市,沙河铺,,32,20,39,10,21,101,101,53,53,8,17,3,2,0.4,0.6
2026-05-02T1400,2880A,104.0219,30.6561,成都市,大石西路,,31,19,36,7,22,99,99,52,52,7,15,4,4,0.4,0.6
2026-05-02T1400,3136A,104.2724,30.559,成都市,龙泉驿区区政府,,34,19,31,10,23,107,107,61,61,6,12,8,7,0.5,0.6
2026-05-02T1400,3357A,104.0028,30.6891,成都市,金博路,,34,NA,24,6,19,107,107,53,53,3,13,5,5,0.5,0.6
2026-05-02T1400,3359A,104.056,30.5228,成都市,华阳,,35,17,34,7,19,109,109,67,67,5,15,6,5,0.2,0.4
2026-05-02T1400,3488A,104.387954,30.746684,成都市,青石路225号,,36,NA,38,10,26,114,114,62,62,7,17,6,6,0.4,0.6
2026-05-02T1400,3489A,104.0788,30.4054,成都市,科学城,,34,6,36,3,21,106,106,66,66,4,11,6,6,0.4,0.5
2026-05-02T1400,4011A,103.8505,30.6946,成都市,光华大道三段,,34,NA,30,3,18,108,108,53,53,1,9,3,3,0.4,0.5
2026-05-02T1400,4144A,104.3257,30.6406,成都市,八角井街185号,,33,NA,41,12,24,104,104,58,58,6,13,6,5,0.6,0.6
2026-05-02T1400,4224A,104.2433276,30.53529463,成都市,鲸龙路1057号,,35,12,33,3,20,112,112,63,63,4,13,7,7,0.5,0.6
2026-05-02T1400,1062A,117.9531,40.908,承德市,铁路,NA,NA,38,50,18,17,85,85,94,94,11,19,3,4,NA,0.4
2026-05-02T1400,1063A,117.9397,40.9763,承德市,中国银行,,28,28,48,17,16,80,80,80,80,7,11,2,3,0.3,0.4
2026-05-02T1400,4073A,117.9462,40.95,承德市,杏林街1号,,29,26,49,20,21,89,89,95,95,7,10,2,3,0.3,0.4
2026-05-02T1400,4274A,117.7994,40.9605,承德市,滨河大街98号,,32,32,49,9,20,95,95,91,91,6,11,1,7,0.2,0.5
2026-05-02T1400,2314A,117.4698,30.6617,池州市,池州学院,,47,47,30,26,18,43,43,46,41,34,27,4,4,0.9,1
2026-05-02T1400,3237A,117.4918,30.6617,池州市,展览馆,,47,47,35,27,16,52,52,41,41,26,23,4,3,0.7,0.9
2026-05-02T1400,3333A,117.5626,30.695,池州市,第八中学,,40,40,31,24,16,39,39,61,44,42,28,10,6,0.8,0.7
2026-05-02T1400,3334A,117.5037,30.6242,池州市,第十二中学,,32,32,32,22,21,71,71,48,48,18,30,8,7,0.7,1.3
2026-05-02T1400,1744A,118.9229,42.2816,赤峰市,松山一中,,25,21,35,12,12,78,78,60,60,13,28,6,11,0.5,0.6
2026-05-02T1400,1745A,118.9588,42.2733,赤峰市,哈达街,,25,22,27,9,12,77,77,58,58,10,26,6,18,0.4,0.5
2026-05-02T1400,1746A,118.8792,42.2551,赤峰市,天义路,,24,16,17,12,10,76,76,57,57,10,23,5,9,0.4,0.5
2026-05-02T1400,3058A,119.2656,42.0356,赤峰市,银河街,,35,35,37,12,12,81,81,57,57,8,19,7,18,0.4,0.5
2026-05-02T1400,3286A,118.9359,42.3146,赤峰市,桥北物流园区,,23,15,23,15,10,73,73,56,56,2,16,3,4,0.4,0.4
2026-05-02T1400,2521A,107.3473,22.4137,崇左市,市环保局江州分局,颗粒物(PM10),51,51,41,35,29,98,98,88,83,5,8,2,3,0.3,0.4
2026-05-02T1400,4256A,107.375,22.3736,崇左市,石景林东路7号,,37,37,36,25,30,99,99,78,78,6,11,3,4,0.7,0.6
2026-05-02T1400,3207A,118.31131,32.3033,滁州市,市政府原办公楼,细颗粒物(PM2.5),76,NA,34,48,30,70,70,108,81,31,20,7,8,0.7,0.5
2026-05-02T1400,3331A,118.3268,32.2633,滁州市,图书馆,,49,45,31,34,17,56,56,104,76,34,22,11,11,0.9,0.7
2026-05-02T1400,4101A,118.3196,32.3335,滁州市,银山路666号,,50,44,35,35,22,74,74,106,80,24,22,9,10,0.5,0.4
2026-05-02T1400,4102A,118.3426,32.2979,滁州市,黄山路555号,颗粒物(PM10),63,67,49,41,23,67,67,112,82,31,17,8,9,1.0,0.8
2026-05-02T1400,2606A,101.5379,25.0492,楚雄彝族自治州,市经济开发区,,27,NA,18,17,12,86,86,76,74,4,6,1,2,0.4,0.4
2026-05-02T1400,4153A,101.5536,25.0343,楚雄彝族自治州,团结路562号,,28,7,13,3,11,87,87,77,77,3,4,4,4,0.2,0.3
2026-05-02T1400,2549A,107.5087,31.2186,达州市,市环境监测站,,22,14,33,3,12,70,70,39,39,11,26,5,7,0.2,0.3
2026-05-02T1400,2550A,107.4988,31.2132,达州市,凤凰小区,,24,12,30,3,12,75,75,42,42,7,22,4,7,0.2,0.3
2026-05-02T1400,2551A,107.5081,31.1987,达州市,达县机关宾馆,,25,14,31,3,15,77,77,39,39,10,33,4,6,0.3,0.4
2026-05-02T1400,2552A,107.4644,31.2124,达州市,市政中心,,25,20,32,3,10,79,79,49,45,6,20,4,6,0.3,0.3
2026-05-02T1400,2614A,100.2168,25.5818,大理白族自治州,大理市环境监测站,,34,7,11,7,8,106,106,97,97,8,8,4,4,0.5,0.5
2026-05-02T1400,2615A,100.1542,25.7055,大理白族自治州,大理古城,,30,9,15,9,13,96,96,83,83,7,9,5,5,0.8,0.8
2026-05-02T1400,1109A,121.6119,38.974,大连市,甘井子,颗粒物(PM10),85,98,47,49,24,100,100,87,87,35,37,12,12,0.5,0.5
2026-05-02T1400,1110A,121.565,38.9509,大连市,周水子,细颗粒物(PM2.5),110,110,71,70,25,141,141,83,83,30,44,12,7,0.9,0.8
2026-05-02T1400,1111A,121.5637,38.8849,大连市,星海三站,颗粒物(PM10),72,80,47,39,22,101,101,78,78,40,23,9,6,0.6,0.5
2026-05-02T1400,1112A,121.6301,38.9117,大连市,青泥洼桥,细颗粒物(PM2.5),108,126,53,68,22,142,142,113,113,29,26,11,7,0.8,0.5
2026-05-02T1400,1113A,121.6248,38.8643,大连市,傅家庄,细颗粒物(PM2.5),105,113,41,65,18,105,105,85,85,34,20,10,9,0.6,0.5
2026-05-02T1400,1114A,121.5117,38.8636,大连市,七贤岭,颗粒物(PM10),103,126,40,57,19,85,85,70,70,40,22,9,7,0.6,0.4
2026-05-02T1400,1116A,121.7507,39.1339,大连市,金州,细颗粒物(PM2.5),121,132,45,83,21,154,154,121,121,18,17,11,10,0.6,0.5
2026-05-02T1400,1117A,121.7811,39.0495,大连市,开发区,细颗粒物(PM2.5),106,84,62,66,24,144,144,105,105,33,34,12,14,0.4,0.4
2026-05-02T1400,1118A,121.9762,39.0631,大连市,双D港,NA,NA,NA,53,38,17,113,113,97,97,8,13,5,7,0.7,0.6
2026-05-02T1400,4082A,121.2548,38.8188,大连市,旅顺,细颗粒物(PM2.5),103,117,58,63,26,101,101,81,81,38,23,10,8,0.7,0.5
2026-05-02T1400,1789A,124.8085,46.0381,大庆市,大同区,,49,49,28,8,10,103,103,95,95,2,4,3,2,0.3,0.3
2026-05-02T1400,1790A,125.1166,46.5255,大庆市,龙凤区,,28,23,34,3,12,89,89,79,79,5,9,5,4,0.2,0.2
2026-05-02T1400,1791A,124.8894,46.4007,大庆市,红岗区,,29,19,28,7,16,91,91,82,82,2,5,10,10,0.2,0.3
2026-05-02T1400,1792A,125.1391,46.578,大庆市,萨尔图区,,29,22,28,12,9,90,90,81,81,11,10,6,7,0.2,0.2
2026-05-02T1400,1793A,124.9026,46.6217,大庆市,让胡路区,,29,19,28,7,10,92,92,81,81,3,4,1,1,0.3,0.3
2026-05-02T1400,3481A,125.127,46.6277,大庆市,萨区政府监测点,,30,23,25,3,9,95,95,82,82,2,4,8,8,0.2,0.3
2026-05-02T1400,1723A,113.2926,40.0759,大同市,云冈宾馆,,26,7,55,3,25,83,83,94,82,9,17,4,8,0.6,0.7
2026-05-02T1400,1724A,113.3437,40.0921,大同市,大同大学,,25,6,70,3,27,77,77,99,76,9,17,3,5,0.4,0.6
2026-05-02T1400,1725A,113.2637,40.129,大同市,安家小村,,27,NA,63,3,24,85,85,95,78,6,15,6,8,0.2,0.3
2026-05-02T1400,3282A,113.3399,40.0586,大同市,大同市卫生学校,NA,NA,8,62,8,25,74,74,102,NA,NA,21,4,8,0.4,0.5
2026-05-02T1400,3565A,113.1371,40.1122,大同市,云冈站,,26,7,68,7,19,82,82,80,80,6,16,4,8,0.3,0.4
2026-05-02T1400,3566A,113.1186,40.2556,大同市,图书馆,,26,20,56,9,15,82,82,80,80,5,11,5,7,0.5,0.5
2026-05-02T1400,3567A,113.5931,40.0459,大同市,区一中,,29,16,50,3,21,90,90,108,86,4,13,1,3,0.2,0.4
2026-05-02T1400,4199A,113.2798248,40.09972476,大同市,魏都大道141号,,26,8,70,3,22,81,81,86,79,8,17,7,10,0.4,0.6
2026-05-02T1400,2269A,124.1068,50.4091,大兴安岭地区,科技局,,27,21,17,8,6,84,84,80,80,1,2,6,5,0.3,0.3
2026-05-02T1400,3663A,124.117,50.4279,大兴安岭地区,红旗社区,,29,NA,5,3,5,90,90,87,87,3,5,6,6,0.3,0.2
2026-05-02T1400,1600A,124.33,40.0625,丹东市,江湾东路,颗粒物(PM10),65,70,67,41,38,143,143,104,104,13,18,7,7,0.5,0.7
2026-05-02T1400,1601A,124.4242,40.1513,丹东市,临江后街,颗粒物(PM10),56,58,60,36,40,129,129,91,91,12,17,9,8,0.5,0.6
2026-05-02T1400,1602A,124.3935,40.1461,丹东市,元宝山,,50,50,60,32,41,130,130,83,83,12,23,8,8,0.6,0.7
2026-05-02T1400,1603A,124.3634,40.1093,丹东市,民主桥,颗粒物(PM10),68,74,72,41,46,128,128,97,97,12,26,9,9,0.5,0.8
2026-05-02T1400,3541A,109.5726195,19.51688767,儋州市,第一中学子站,,22,19,27,12,15,68,68,61,61,3,6,4,4,0.4,0.5
2026-05-02T1400,3542A,109.5567,19.5187,儋州市,东坡学校子站,,25,21,25,13,16,77,77,69,69,2,6,5,4,0.4,0.5
2026-05-02T1400,2616A,98.5611,24.4273,德宏傣族景颇族自治州,德宏州监测站,,26,NA,11,13,15,81,81,61,61,5,6,8,8,0.9,1.1
2026-05-02T1400,3677A,98.5887,24.4366,德宏傣族景颇族自治州,芒市人民政府综合楼,,33,33,42,9,16,88,88,67,67,7,8,4,3,0.8,0.9
2026-05-02T1400,1901A,104.424,31.1209,德阳市,东山公园,,33,12,27,3,22,105,105,56,56,3,12,2,3,0.4,0.5
2026-05-02T1400,1902A,104.3827,31.1318,德阳市,西小区,,30,20,42,3,24,95,95,54,54,11,18,4,4,0.4,0.5
2026-05-02T1400,1904A,104.3553,31.1091,德阳市,耐火材料厂,,35,16,39,3,26,110,110,63,63,10,17,2,2,0.3,0.4
2026-05-02T1400,4145A,104.4144,31.1495,德阳市,市林业局,,37,13,34,3,23,116,116,63,63,5,18,3,3,0.3,0.5
2026-05-02T1400,1622A,116.3034,37.4675,德州市,儿童乐园,,42,29,57,7,14,132,132,116,116,5,11,8,8,0.5,0.5
2026-05-02T1400,1624A,116.2992,37.4449,德州市,监理站,,41,17,48,7,14,131,131,110,110,4,11,11,11,0.3,0.4
2026-05-02T1400,3066A,116.2722,37.438,德州市,九衢泉纯净水厂,,41,24,52,6,14,130,130,97,97,8,18,8,6,0.6,0.6
2026-05-02T1400,3371A,116.3693,37.44,德州市,开发区人民医院,,38,31,53,12,14,120,120,110,104,11,15,11,11,0.5,0.5
2026-05-02T1400,3511A,116.5687,37.3331,德州市,陵城艺术中心,,44,44,43,18,14,117,117,101,98,13,14,14,11,0.7,0.7
2026-05-02T1400,4292A,116.352738,37.420875,德州市,新河东路,,38,17,49,10,14,119,119,105,97,7,14,10,10,0.6,0.7
2026-05-02T1400,2621A,99.7054,27.8319,迪庆藏族自治州,迪庆州站,,30,12,15,6,6,95,95,91,91,8,8,8,7,0.3,0.2
2026-05-02T1400,3180A,99.7122,27.8129,迪庆藏族自治州,质量技术监督局,,31,12,12,3,6,98,98,97,95,9,7,8,8,0.3,0.3
2026-05-02T1400,4257A,104.6092,35.5962,定西市,将台街,颗粒物(PM10),58,60,60,13,16,128,128,113,113,3,5,4,3,0.1,0
2026-05-02T1400,4309A,104.6159,35.5701,定西市,正龙路62号,颗粒物(PM10),56,58,61,14,16,120,120,108,108,5,8,3,2,0.2,0.2
2026-05-02T1400,4071A,114.9883,38.5232,定州市,交通局,,45,45,102,13,34,137,137,118,118,6,17,3,4,0.3,0.5
2026-05-02T1400,4072A,115.0045,38.5136,定州市,第五中学,,42,39,102,7,36,133,133,112,112,6,19,3,4,0.2,0.4
2026-05-02T1400,1390A,113.7943,23.0132,东莞市,东城石井,,37,24,28,10,15,118,118,93,93,8,16,5,5,0.6,0.7
2026-05-02T1400,1391A,113.7384,22.9659,东莞市,南城西平,,37,24,27,11,13,116,116,93,93,6,14,5,4,0.4,0.5
2026-05-02T1400,3319A,113.7283,23.041,东莞市,万江金泰,,36,27,31,14,26,113,113,84,84,8,15,6,6,0.2,0.3
2026-05-02T1400,4129A,113.8666,23.1062,东莞市,裕兴路,,46,46,36,20,16,122,122,95,95,12,12,8,7,0.7,0.6
2026-05-02T1400,4130A,114.0076,22.9739,东莞市,教育路1号,,40,25,31,9,15,128,128,101,101,7,11,4,5,0.5,0.5
2026-05-02T1400,4131A,113.7981,22.8124,东莞市,长怡路1号,,35,31,35,13,15,110,110,94,94,15,17,7,6,0.7,0.7
2026-05-02T1400,1666A,118.6612,37.4313,东营市,市环保局,,36,9,60,3,27,114,114,89,89,8,21,9,15,0.2,0.5
2026-05-02T1400,3036A,118.6903,37.4337,东营市,开发区管委会,,37,21,65,3,27,116,116,92,92,13,26,7,12,0.3,0.6
2026-05-02T1400,3365A,118.5721,37.5654,东营市,垦利区民丰路,,42,31,56,3,26,132,132,104,104,10,22,12,15,0.4,0.6
2026-05-02T1400,3498A,118.5063,37.8606,东营市,河口城区,,47,46,65,23,28,150,150,106,106,9,15,13,12,0.7,0.8
2026-05-02T1400,3646A,118.4979,37.4623,东营市,胜利站,,35,30,52,3,32,109,109,82,82,12,27,5,10,0.6,0.8
2026-05-02T1400,3734A,118.5753,37.4405,东营市,理想之城,,34,27,66,3,32,106,106,82,82,15,28,6,10,0.4,0.6
2026-05-02T1400,1591A,110.0024,39.8127,鄂尔多斯市,综合楼,,31,31,43,16,18,96,96,86,82,8,12,6,5,0.4,0.5
2026-05-02T1400,1592A,109.9485,39.8259,鄂尔多斯市,巴音孟克林场办事处,,31,17,32,11,16,98,98,86,82,6,10,4,5,0.1,0.2
2026-05-02T1400,1593A,109.7734,39.5987,鄂尔多斯市,康泽苑,,31,31,37,10,13,99,99,88,86,6,7,9,9,0.3,0.3
2026-05-02T1400,1594A,109.8121,39.5987,鄂尔多斯市,华泰汽车城,,34,34,38,10,17,96,96,83,81,6,7,6,6,0.4,0.4
2026-05-02T1400,1595A,109.9734,39.7884,鄂尔多斯市,奥林花园,NA,NA,24,42,NA,13,95,95,86,82,9,12,5,5,0.3,0.3
2026-05-02T1400,2436A,114.894,30.3989,鄂州市,市政府,,22,22,26,15,13,60,60,85,66,30,20,8,10,0.5,0.4
2026-05-02T1400,2437A,114.8986,30.3714,鄂州市,赵家坝,,42,42,28,16,13,58,58,78,61,15,8,10,13,0.8,0.8
2026-05-02T1400,3654A,114.8093,30.4091,鄂州市,精准医疗中心,,30,24,33,21,18,56,56,63,53,11,21,4,13,0.7,1.3
2026-05-02T1400,2454A,109.4978,30.2979,恩施土家族苗族自治州,湖北民院,,22,NA,31,15,26,46,46,49,48,14,17,7,8,0.5,0.5
2026-05-02T1400,3549A,109.5061,30.3771,恩施土家族苗族自治州,龙凤新区,,18,NA,49,12,23,47,47,38,38,12,13,7,7,0.5,0.5
2026-05-02T1400,2499A,108.3411,21.6159,防城港市,沙万,,30,26,33,18,18,95,95,82,76,11,19,6,6,0.6,0.6
2026-05-02T1400,2500A,108.3515,21.7733,防城港市,防城档案局,,27,26,31,16,23,85,85,78,68,4,9,6,8,0.5,0.6
2026-05-02T1400,2501A,108.3506,21.6414,防城港市,大海花园,,33,23,30,20,21,103,103,86,85,7,15,8,10,0.6,0.8
2026-05-02T1400,1371A,113.1293,23.0065,佛山市,湾梁,NA,NA,NA,27,NA,20,NA,NA,144,74,NA,14,NA,NA,NA,NA
2026-05-02T1400,1372A,113.1082,23.0477,佛山市,华材职中,,34,34,29,15,19,107,107,83,83,8,15,4,4,0.4,0.4
2026-05-02T1400,1373A,113.1439,23.045,佛山市,南海气象局,,39,39,33,19,20,104,104,77,77,12,18,/,/,/,/
2026-05-02T1400,1374A,113.2879,22.8094,佛山市,顺德苏岗,,31,NA,16,17,15,99,99,84,84,7,11,/,/,0.6,0.6
2026-05-02T1400,1376A,112.8384,22.8678,佛山市,高明孔堂,,28,19,28,14,15,88,88,73,73,5,11,/,/,/,/
2026-05-02T1400,1377A,112.8835,23.1584,佛山市,三水监测站,,44,44,30,25,19,93,93,54,54,22,26,4,4,0.6,0.5
2026-05-02T1400,1378A,112.8668,23.185,佛山市,三水云东海,颗粒物(PM10),52,52,43,29,20,98,98,64,59,15,19,/,/,/,/
2026-05-02T1400,3625A,113.2568,22.7629,佛山市,容桂街道办,,30,19,22,17,17,93,93,81,81,11,16,/,/,/,/
2026-05-02T1400,1282A,119.2681,26.0506,福州市,师大,,50,50,33,14,14,150,150,126,126,10,11,4,4,0.4,0.4
2026-05-02T1400,1283A,119.2983,26.1028,福州市,五四北路,,44,31,30,18,14,140,140,119,119,11,16,4,4,0.3,0.3
2026-05-02T1400,1284A,119.2648,26.0769,福州市,杨桥西路,,47,42,30,19,13,148,148,122,122,10,11,4,4,/,/
2026-05-02T1400,3048A,119.5799,26.0937,福州市,九龙,,45,41,30,17,14,142,142,117,117,8,11,6,6,0.4,0.3
2026-05-02T1400,3526A,119.5188,25.9666,福州市,吴航,,44,31,27,16,19,140,140,119,119,9,15,7,6,0.4,0.3
2026-05-02T1400,4104A,119.3106,26.0648,福州市,路通桥巷6号,,47,45,27,13,16,148,148,124,124,7,11,/,/,/,/
2026-05-02T1400,1755A,123.7974,41.8494,抚顺市,望花区,,40,37,48,17,20,127,127,81,81,15,26,13,12,0.6,0.8
2026-05-02T1400,1756A,123.9161,41.8827,抚顺市,顺城区,,39,22,42,7,22,124,124,81,81,10,28,12,13,0.4,0.6
2026-05-02T1400,1757A,124.0437,41.8615,抚顺市,东洲区,,39,36,33,9,11,122,122,82,82,12,16,12,11,0.7,0.6
2026-05-02T1400,1758A,123.9246,41.8638,抚顺市,新抚区,,42,40,51,10,22,132,132,84,84,12,29,11,10,0.5,0.6
2026-05-02T1400,1759A,124.0972,41.8961,抚顺市,大伙房水库,,40,39,34,6,10,126,126,85,85,9,15,13,9,0.6,0.5
2026-05-02T1400,1760A,123.708,41.8386,抚顺市,沈抚新城,颗粒物(PM10),52,52,63,18,20,122,122,74,74,19,36,15,14,0.7,0.9
2026-05-02T1400,2377A,116.3544,27.9833,抚州市,市站,,29,29,23,9,12,91,91,70,70,4,8,3,4,0.6,0.6
2026-05-02T1400,2378A,116.3562,27.9631,抚州市,血防站,,33,33,23,13,10,98,98,73,73,5,9,6,7,0.6,0.5
2026-05-02T1400,2379A,116.3561,28.0007,抚州市,采茶剧团,,29,27,25,16,12,92,92,70,70,5,9,11,10,0.6,0.6
2026-05-02T1400,2380A,116.3854,27.9648,抚州市,医学分院,,31,28,22,15,8,97,97,74,74,5,8,6,6,1.1,0.9
2026-05-02T1400,2207A,121.6095,41.9978,阜新市,工业园区,颗粒物(PM10),51,51,67,3,24,88,88,50,50,9,30,7,12,0.3,0.4
2026-05-02T1400,2208A,121.6567,42.0188,阜新市,长青街,,29,29,42,6,16,87,87,48,48,9,29,4,11,0.3,0.4
2026-05-02T1400,2209A,121.6672,42.07,阜新市,农业园区,颗粒物(PM10),62,66,39,3,7,85,85,68,68,8,14,5,9,0.3,0.4
2026-05-02T1400,2211A,121.6343,42.0455,阜新市,玉龙新城,,36,36,66,3,17,90,90,50,50,8,37,7,10,0.3,0.5
2026-05-02T1400,2301A,115.8276,32.8929,阜阳市,市监测站,,43,NA,39,30,20,98,98,88,76,8,15,6,7,0.5,0.5
2026-05-02T1400,2303A,115.8551,32.8606,阜阳市,开发区,,45,34,43,31,21,101,101,82,72,11,19,4,5,0.5,0.5
2026-05-02T1400,2875A,115.783962,32.889217,阜阳市,阜阳职业技术学院,,43,37,35,30,19,94,94,95,77,9,14,7,8,0.5,0.4
2026-05-02T1400,3468A,115.79,32.8614,阜阳市,市规划展馆,颗粒物(PM10),52,52,34,33,19,91,91,97,76,9,12,8,9,0.7,0.6
2026-05-02T1400,3469A,115.835101,32.918568,阜阳市,枣园社区,,49,34,41,34,23,92,92,85,70,12,17,6,8,0.7,0.5
2026-05-02T1400,2669A,102.9097,34.9841,甘南藏族自治州,州政府,颗粒物(PM10),52,52,22,16,8,107,107,101,101,3,5,4,5,0.2,0.2
2026-05-02T1400,3380A,102.8915,34.9618,甘南藏族自治州,甘肃民族师范学院,,38,36,18,9,8,121,121,114,114,2,3,3,3,0.2,0.3
2026-05-02T1400,2570A,101.96,30.048,甘孜藏族自治州,水桥子,,24,6,6,3,3,74,74,76,68,2,4,6,6,0.2,0.2
2026-05-02T1400,3065A,101.9534,29.9976,甘孜藏族自治州,州环保局,,26,8,9,3,5,81,81,80,75,5,7,8,8,0.2,0.2
2026-05-02T1400,2363A,114.9368,25.8663,赣州市,地委,,30,28,25,15,10,96,96,86,86,1,5,2,2,0.7,0.6
2026-05-02T1400,2364A,114.946,25.8483,赣州市,气象台,,29,20,20,20,13,92,92,84,84,5,6,5,5,0.5,0.6
2026-05-02T1400,2365A,114.932,25.8332,赣州市,市图书馆,,32,32,19,16,11,92,92,83,83,4,7,4,4,0.4,0.3
2026-05-02T1400,2366A,114.8905,25.8472,赣州市,华坚鞋城,,29,28,22,17,12,90,90,82,82,6,8,7,8,0.5,0.4
2026-05-02T1400,3109A,115.0094,25.8614,赣州市,赣县区卫计委,,40,40,27,16,10,88,88,81,79,8,12,2,3,0.3,0.3
2026-05-02T1400,2684A,106.2753,36.0057,固原市,监测站,颗粒物(PM10),65,71,70,11,22,116,116,102,102,5,7,6,6,0.3,0.2
2026-05-02T1400,2685A,106.2384,36.0189,固原市,新区,颗粒物(PM10),61,65,66,10,22,115,115,100,100,4,5,5,6,0.3,0.4
2026-05-02T1400,2544A,106.6307,30.4577,广安市,市委,NA,NA,NA,28,NA,21,NA,NA,82,65,NA,8,NA,7,NA,0.4
2026-05-02T1400,2545A,106.6266,30.4662,广安市,友谊中学,,30,14,28,8,18,93,93,67,67,4,6,7,7,1.7,0.6
2026-05-02T1400,2547A,106.6386,30.4551,广安市,广电花园,,30,19,27,12,24,93,93,64,64,7,10,6,6,0.4,0.4
2026-05-02T1400,2902A,106.6347,30.4868,广安市,北辰小学,,29,22,29,13,23,91,91,66,66,5,7,4,6,0.3,0.4
2026-05-02T1400,2524A,105.8211,32.4444,广元市,老城,颗粒物(PM10),51,51,33,9,8,113,113,77,77,5,16,1,2,0.3,0.5
2026-05-02T1400,2526A,105.8629,32.429,广元市,监测站,颗粒物(PM10),65,70,43,16,11,110,110,76,76,5,16,1,4,0.3,0.5
2026-05-02T1400,3617A,105.8047,32.4167,广元市,经开区,颗粒物(PM10),57,59,28,17,13,107,107,71,71,7,16,2,3,0.3,0.5
2026-05-02T1400,1345A,113.2346,23.1423,广州市,广雅中学,,34,34,30,17,15,100,100,73,73,13,20,2,2,0.8,0.7
2026-05-02T1400,1346A,113.2611,23.105,广州市,市五中,,38,37,34,23,19,120,120,86,86,14,21,3,4,/,/
2026-05-02T1400,1348A,113.3477,23.0916,广州市,广东商学院,NA,NA,29,27,8,11,99,99,73,73,10,19,5,5,NA,0.8
2026-05-02T1400,1349A,113.4332,23.105,广州市,市八十六中,,33,27,27,13,11,105,105,76,76,14,25,6,7,/,/
2026-05-02T1400,1350A,113.3506,22.9488,广州市,番禺中学,,36,36,28,16,15,103,103,78,78,8,16,4,4,0.5,0.5
2026-05-02T1400,1351A,113.2147,23.3918,广州市,花都师范,颗粒物(PM10),58,61,43,29,23,86,86,61,61,32,24,7,7,0.8,0.8
2026-05-02T1400,1352A,113.2599,23.1329,广州市,市监测站,,35,NA,22,24,19,94,94,69,69,10,14,2,2,/,/
2026-05-02T1400,1353A,113.5618,23.3119,广州市,九龙镇镇龙,,39,39,40,22,23,98,98,76,76,18,21,7,7,0.5,0.5
2026-05-02T1400,1354A,113.2764,23.1544,广州市,麓湖,,34,34,30,20,18,101,101,77,77,14,19,5,4,0.3,0.3
2026-05-02T1400,2846A,113.3209,23.1323,广州市,体育西,,38,38,34,17,15,104,104,72,72,16,26,5,6,0.6,0.6
2026-05-02T1400,3298A,113.5718,23.5493,广州市,从化街口,,47,47,37,27,22,111,111,80,80,13,14,5,5,0.6,0.6
2026-05-02T1400,3299A,113.3463,23.369,广州市,白云竹料,,48,48,38,24,19,88,88,69,69,22,20,4,4,0.6,0.7
2026-05-02T1400,3300A,113.2981,23.2365,广州市,白云嘉禾,,43,43,38,20,20,92,92,66,66,21,26,8,9,/,/
2026-05-02T1400,3301A,113.4256,23.1716,广州市,黄埔科学城,,31,31,34,16,20,78,78,60,60,16,18,4,5,0.6,0.7
2026-05-02T1400,3302A,113.3942,23.0485,广州市,番禺大学城,,37,28,31,13,14,116,116,86,86,12,21,7,7,0.3,0.4
2026-05-02T1400,3303A,113.4923,22.8169,广州市,南沙黄阁,,35,28,26,18,15,109,109,92,92,12,17,6,6,/,/
2026-05-02T1400,3304A,113.534,22.7893,广州市,南沙街,,34,28,27,14,13,106,106,90,90,14,19,6,6,0.5,0.5
2026-05-02T1400,3443A,113.2905,23.5541,广州市,花都梯面,NA,NA,NA,38,30,21,87,87,74,74,24,18,8,8,/,/
2026-05-02T1400,3445A,113.786,23.7479,广州市,从化良口,,39,36,23,27,17,107,107,65,65,8,11,5,5,/,/
2026-05-02T1400,3446A,113.805,23.2614,广州市,增城荔城,,46,46,32,24,20,133,133,101,101,11,13,6,7,0.5,0.5
2026-05-02T1400,2506A,109.604387,23.066791,贵港市,江南子站,,31,31,45,21,29,85,85,78,78,5,14,8,13,0.7,0.7
2026-05-02T1400,2508A,109.5669,23.1065,贵港市,荷城子站,,36,36,38,25,28,74,74,74,73,11,14,5,8,0.8,0.8
2026-05-02T1400,3405A,109.5886,23.1172,贵港市,新世纪学校,,39,36,39,27,33,79,79,79,79,15,16,/,/,0.5,0.5
2026-05-02T1400,4260A,109.5933,23.095,贵港市,中山路155-3号,,43,43,45,23,30,83,83,83,80,10,13,/,/,0.5,0.5
2026-05-02T1400,1439A,106.6863,26.6035,贵阳市,马鞍山,,21,12,25,3,18,66,66,79,61,10,10,3,4,/,/
2026-05-02T1400,1441A,106.6241,26.6266,贵阳市,鉴湖路,,24,24,37,8,18,70,70,84,68,10,8,6,7,0.5,0.7
2026-05-02T1400,1442A,106.7468,26.6344,贵阳市,燕子冲,,22,22,33,3,18,63,63,78,58,11,9,8,8,0.8,0.7
2026-05-02T1400,1443A,106.6556,26.4362,贵阳市,碧云窝,,34,34,37,8,17,70,70,86,68,10,7,6,6,/,/
2026-05-02T1400,1445A,106.6963,26.6063,贵阳市,红边门,,23,12,32,6,19,71,71,78,64,10,11,4,5,/,/
2026-05-02T1400,1446A,106.7162383,26.56964667,贵阳市,新华路,,24,24,36,8,19,72,72,84,67,14,12,2,7,0.5,0.5
2026-05-02T1400,1447A,106.6742,26.542,贵阳市,太慈桥,,18,17,29,3,20,56,56,71,58,10,9,4,4,/,/
2026-05-02T1400,4230A,106.688212,26.56952,贵阳市,花果园大街66号,,21,9,17,3,17,66,66,82,65,11,9,2,3,/,/
2026-05-02T1400,4231A,106.687268,26.516892,贵阳市,漓江路57号,,21,12,24,3,18,65,65,77,63,13,10,5,6,0.6,0.6
2026-05-02T1400,1864A,110.3091,25.2705,桂林市,龙隐路小学,,49,49,33,34,24,51,51,86,69,15,9,4,5,0.7,0.5
2026-05-02T1400,1865A,110.2849361,25.22909545,桂林市,八中,,50,50,33,30,18,60,60,82,72,15,9,4,5,0.7,0.6
2026-05-02T1400,3531A,110.296,25.1254,桂林市,旅游学院,细颗粒物(PM2.5),68,NA,37,44,26,72,72,87,77,13,10,7,9,0.4,0.4
2026-05-02T1400,4222A,110.1835,25.2444,桂林市,环湖路276号,,40,34,29,28,22,80,80,84,82,8,7,3,4,0.6,0.5
2026-05-02T1400,4301A,110.2803,25.2773,桂林市,信义路13号,细颗粒物(PM2.5),62,41,34,41,22,51,51,90,76,23,10,4,5,1.0,0.7
2026-05-02T1400,2674A,100.2262,34.4854,果洛藏族自治州,玛沁县大武镇,颗粒物(PM10),53,53,46,13,16,128,128,108,108,2,2,17,18,0.3,0.3
2026-05-02T1400,1130A,126.5557,45.8109,哈尔滨市,松北商大,,28,27,30,6,18,87,87,81,81,3,11,4,5,0.3,0.6
2026-05-02T1400,1132A,126.6162,45.719,哈尔滨市,南岗学府路,,30,19,39,3,13,96,96,85,85,5,14,5,6,0.1,0.2
2026-05-02T1400,1133A,126.6894,45.7733,哈尔滨市,太平宏伟公园,,31,25,32,8,14,97,97,87,87,7,15,4,5,0.6,0.6
2026-05-02T1400,1134A,126.6361,45.7672,哈尔滨市,道外承德广场,,44,44,49,8,11,98,98,85,85,9,17,6,7,0.7,0.6
2026-05-02T1400,1136A,126.644,45.7261,哈尔滨市,动力和平路,,31,24,35,3,12,98,98,87,87,5,15,2,6,0.1,0.2
2026-05-02T1400,1137A,126.5933,45.7479,哈尔滨市,道里建国路,,31,11,29,3,17,97,97,86,86,5,15,8,9,0,0
2026-05-02T1400,1138A,126.6127,45.6119,哈尔滨市,平房东轻厂,,28,6,30,3,12,87,87,88,88,6,19,9,11,0.3,0.4
2026-05-02T1400,1139A,126.5875,45.9827,哈尔滨市,呼兰师专,,27,25,34,7,10,85,85,78,78,5,16,9,10,0.4,0.4
2026-05-02T1400,1140A,126.6299,45.6799,哈尔滨市,省农科院,颗粒物(PM10),54,55,49,11,15,86,86,84,84,9,14,5,7,0.3,0.3
2026-05-02T1400,4282A,126.6769,45.7379,哈尔滨市,华山路1号,,31,17,31,7,14,97,97,88,88,2,12,3,2,0.4,0.5
2026-05-02T1400,4283A,126.9717,45.5356,哈尔滨市,解放大街52号,,32,23,45,3,10,101,101,91,91,7,17,5,7,0.3,0.4
2026-05-02T1400,2688A,93.5124,42.8176,哈密市,地区监测站,,37,28,35,10,23,117,117,93,93,5,12,17,12,0.2,0.1
2026-05-02T1400,2689A,93.5014,42.8312,哈密市,哈密师范学校,,39,36,42,6,17,122,122,90,90,5,15,12,11,0.1,0.1
2026-05-02T1400,2671A,100.9016,36.9464,海北藏族自治州,海晏县西海镇,,41,30,19,12,12,131,131,111,111,1,1,7,8,0.3,0.4
2026-05-02T1400,3867A,102.074,36.5056,海东市,平安区公安局北苑,,40,21,26,8,11,128,128,101,101,4,12,7,8,0.5,0.5
2026-05-02T1400,4163A,102.0984,36.5119,海东市,滨河路,,34,13,14,11,13,107,107,77,77,9,24,5,6,0.6,0.6
2026-05-02T1400,1410A,110.3189,20.0596,海口市,海南大学,,29,17,22,11,13,90,90,86,86,3,5,5,5,0.4,0.4
2026-05-02T1400,1411A,110.2827,20.0051,海口市,秀英海南医院,,28,17,19,11,15,88,88,74,74,4,10,6,6,0.3,0.4
2026-05-02T1400,1412A,110.3391,19.9979,海口市,海南师范大学,,29,18,22,12,15,90,90,80,80,3,6,3,3,0.5,0.5
2026-05-02T1400,1413A,110.3303,20.0359,海口市,龙华路环保局宿舍,NA,NA,22,22,12,15,90,90,83,83,4,6,/,/,NA,0.4
2026-05-02T1400,3539A,110.5111,19.9737,海口市,桂林洋子站,,25,18,27,10,15,80,80,71,71,4,6,/,/,/,/
2026-05-02T1400,4134A,110.1952,20.0451,海口市,长滨二路9号,,26,18,18,11,14,83,83,77,77,7,4,/,/,/,/
2026-05-02T1400,2673A,100.6158,36.2985,海南藏族自治州,共和县恰卜恰镇,,44,32,54,16,21,140,140,135,135,1,4,10,11,0.2,0.2
2026-05-02T1400,2676A,97.373,37.376,海西蒙古族藏族自治州,德令哈市,臭氧1小时(O3_1h),62,35,60,13,20,169,169,159,154,2,3,15,16,0.3,0.4
2026-05-02T1400,1049A,114.492,36.5712,邯郸市,矿院,,39,18,32,3,18,122,122,99,99,1,5,6,5,0.3,0.4
2026-05-02T1400,1050A,114.4839,36.6136,邯郸市,丛台公园,,37,9,24,6,12,118,118,105,102,1,4,5,6,0.3,0.4
2026-05-02T1400,3458A,114.7893,36.5592,邯郸市,香泉濮院小区,,38,18,37,8,17,120,120,98,98,5,8,3,2,0.2,0.3
2026-05-02T1400,3580A,114.1998,36.4439,邯郸市,峰峰矿区临水派出所,NA,NA,NA,0,NA,1,NA,NA,NA,NA,3,4,3,3,NA,0
2026-05-02T1400,4068A,114.5209,36.7697,邯郸市,建安街268号,,37,23,35,3,11,116,116,100,100,5,7,2,2,0.4,0.3
2026-05-02T1400,4069A,114.5488,36.6177,邯郸市,丛台东路558号,NA,NA,NA,32,NA,10,NA,NA,92,91,NA,6,NA,3,NA,0.4
2026-05-02T1400,2635A,107.0155,33.0707,汉中市,市监测站,颗粒物(PM10),60,64,35,16,20,103,103,71,71,6,10,4,4,0.3,0.5
2026-05-02T1400,2636A,107.0083,33.114,汉中市,鑫源开发区,颗粒物(PM10),70,78,37,11,22,106,106,65,65,5,12,4,5,0.1,0.4
2026-05-02T1400,2637A,107.0072,33.0323,汉中市,南郑大河坎水厂,颗粒物(PM10),63,68,35,13,18,99,99,65,65,4,11,3,3,0.3,0.4
2026-05-02T1400,1223A,120.2073,30.2111,杭州市,滨江,,40,40,45,21,24,93,93,98,98,22,18,8,9,0.5,0.4
2026-05-02T1400,1224A,120.0625,30.2737,杭州市,西溪,,29,29,47,17,26,60,60,69,69,11,14,5,6,0.7,0.6
2026-05-02T1400,1226A,120.3417,30.315,杭州市,下沙,,31,28,44,15,24,97,97,104,104,16,22,9,10,0.6,0.5
2026-05-02T1400,1227A,120.1252,30.2465,杭州市,卧龙桥,,35,35,39,21,24,56,56,76,76,27,20,8,8,0.5,0.4
2026-05-02T1400,1228A,120.1902,30.2691,杭州市,浙江农大,,32,32,52,20,29,92,92,92,92,18,29,9,9,0.3,0.3
2026-05-02T1400,1230A,120.1195,30.3121,杭州市,和睦小学,,28,28,40,18,29,87,87,92,92,26,26,6,8,0.5,0.5
2026-05-02T1400,1231A,120.3076,30.4146,杭州市,临平镇,,34,31,44,13,24,108,108,112,112,21,22,7,8,0.4,0.5
2026-05-02T1400,1232A,120.2753,30.1839,杭州市,城厢镇,,31,31,41,14,23,87,87,97,97,19,21,6,8,0.5,0.5
2026-05-02T1400,1233A,120.0883,30.1808,杭州市,云栖,,36,36,45,22,24,36,36,56,56,45,29,7,7,0.8,0.6
2026-05-02T1400,3557A,119.9463,30.0496,杭州市,镇二中,,38,35,40,26,25,89,89,74,74,28,24,6,7,0.7,0.6
2026-05-02T1400,3558A,119.7184,30.2367,杭州市,市府大楼,,43,40,40,30,28,63,63,57,57,25,22,8,8,0.6,0.5
2026-05-02T1400,3656A,120.1554,30.2863,杭州市,消防大队,,31,31,47,19,28,78,78,87,87,26,21,6,6,0.6,0.5
2026-05-02T1400,1270A,117.1957,31.7845,合肥市,明珠广场,,35,27,30,24,15,82,82,93,78,14,16,8,9,0.6,0.5
2026-05-02T1400,1271A,117.307,31.8765,合肥市,三里街,,39,31,38,27,17,69,69,73,62,22,29,6,8,0.6,0.5
2026-05-02T1400,1272A,117.2587,31.8703,合肥市,琥珀山庄,,38,27,34,26,16,73,73,87,78,20,20,7,9,0.7,0.7
2026-05-02T1400,1275A,117.2593,31.9376,合肥市,庐阳区,,40,31,34,28,14,71,71,89,83,19,22,6,7,0.8,0.7
2026-05-02T1400,1276A,117.345251,31.861615,合肥市,瑶海区,,36,36,40,23,16,76,76,75,68,23,32,8,8,0.5,0.5
2026-05-02T1400,1277A,117.3033,31.7967,合肥市,包河区,,32,27,34,22,17,75,75,84,74,18,13,10,11,0.5,0.5
2026-05-02T1400,1278A,117.278,31.7392,合肥市,滨湖新区,,33,27,29,23,14,75,75,97,80,20,13,6,7,0.4,0.4
2026-05-02T1400,1279A,117.1324,31.8395,合肥市,高新区,,33,29,33,23,15,88,88,96,82,13,17,6,7,0.5,0.5
2026-05-02T1400,3464A,117.3802,31.9148,合肥市,高教基地,,36,36,34,25,14,60,60,81,62,22,16,9,10,0.6,0.5
2026-05-02T1400,4098A,117.2518,31.8404,合肥市,中国科学技术大学,,30,29,32,21,14,85,85,92,80,10,15,7,9,0.6,0.6
2026-05-02T1400,3614A,79.9241,37.0878,和田地区,地区环保局,颗粒物(PM10),500,647,496,127,115,111,111,105,96,4,7,2,2,0.1,0.2
2026-05-02T1400,3615A,79.9132,37.1137,和田地区,市环保局,颗粒物(PM10),359,467,379,97,97,118,118,114,108,2,4,3,2,0.1,0.2
2026-05-02T1400,2517A,108.0496,24.6957,河池市,市环保站,,36,36,35,23,23,88,88,92,76,8,7,5,6,0.7,0.7
2026-05-02T1400,4302A,108.0901,24.6945,河池市,上任中路54号,,34,34,34,18,22,89,89,93,80,6,6,7,8,0.9,0.9
2026-05-02T1400,1697A,114.6962,23.7538,河源市,东埔,,36,28,25,18,16,113,113,94,94,6,8,6,7,0.5,0.5
2026-05-02T1400,1698A,114.6895,23.7232,河源市,老城,,34,27,29,10,15,108,108,92,92,5,8,7,7,0.6,0.6
2026-05-02T1400,3374A,115.5562,35.089,菏泽市,定陶老年大学,,36,36,36,22,16,87,87,89,81,12,13,5,6,0.3,0.3
2026-05-02T1400,4114A,115.4239,35.2593,菏泽市,黄河路600号,,43,43,48,24,16,90,90,86,86,8,10,4,3,0.3,0.3
2026-05-02T1400,4115A,115.5025,35.2727,菏泽市,菏泽市人社局,,31,24,37,21,15,98,98,91,89,8,10,6,7,0.3,0.3
2026-05-02T1400,4184A,115.479691,35.244011,菏泽市,永昌路1号,,33,29,36,23,15,93,93,100,95,9,12,6,5,0.3,0.3
2026-05-02T1400,4193A,115.471542,35.280012,菏泽市,长城路999号,,34,31,37,19,14,106,106,99,99,9,11,7,6,0.3,0.3
2026-05-02T1400,2514A,111.5264,24.4178,贺州市,环保小区,,35,33,39,24,26,79,79,84,70,11,15,8,8,0.5,0.5
2026-05-02T1400,2515A,111.561,24.4074,贺州市,政协大楼,,39,33,34,27,27,86,86,106,90,14,15,12,13,0.7,0.6
2026-05-02T1400,3534A,111.4744,24.455,贺州市,西湾,,45,45,47,22,26,82,82,87,82,10,14,11,12,0.6,0.6
2026-05-02T1400,2385A,114.17,35.9019,鹤壁市,市监测站,,45,35,39,31,22,142,142,88,88,6,8,5,4,0.5,0.4
2026-05-02T1400,2386A,114.2953,35.7512,鹤壁市,市交警支队,,35,31,36,24,17,108,108,82,82,5,7,2,3,0.5,0.4
2026-05-02T1400,2387A,114.2877,35.7302,鹤壁市,迎宾馆,,40,35,38,28,20,112,112,82,82,9,9,4,5,0.5,0.4
2026-05-02T1400,3474A,114.2616,35.6824,鹤壁市,大新区,,40,31,32,28,23,107,107,71,71,8,11,6,5,0.5,0.4
2026-05-02T1400,3596A,114.1573,35.9607,鹤壁市,南山宾馆,,40,35,40,28,27,104,104,77,76,8,8,8,7,0.4,0.4
2026-05-02T1400,2244A,130.2537,47.3416,鹤岗市,哈啤分公司,,29,16,20,3,10,91,91,91,91,6,8,10,10,0.4,0.5
2026-05-02T1400,2245A,130.2683,47.3087,鹤岗市,斯达机电,,29,22,22,3,11,92,92,92,92,4,7,10,11,0.5,0.5
2026-05-02T1400,2246A,130.3114,47.3388,鹤岗市,东山纸板厂,细颗粒物(PM2.5),90,NA,32,55,21,94,94,94,94,5,8,10,12,0.4,0.6
2026-05-02T1400,2263A,127.4832,50.2524,黑河市,交通局,,25,19,22,3,7,79,79,79,79,12,10,13,6,0.3,0.3
2026-05-02T1400,2264A,127.5146,50.2339,黑河市,环保局,,27,18,18,3,8,84,84,76,76,7,8,9,8,0.3,0.3
2026-05-02T1400,1074A,115.6839,37.754,衡水市,电机北厂,,43,31,63,13,21,135,135,121,121,8,14,1,5,0.3,0.3
2026-05-02T1400,1075A,115.6303,37.7318,衡水市,市监测站,,42,36,63,3,15,132,132,114,114,7,12,6,7,0.2,0.3
2026-05-02T1400,3188A,115.6684,37.7216,衡水市,市城管局,,42,37,63,12,21,134,134,117,117,5,10,3,5,0.2,0.3
2026-05-02T1400,3459A,115.599,37.5491,衡水市,地表水厂,,42,34,64,7,18,133,133,109,109,1,9,5,5,0.2,0.3
2026-05-02T1400,2457A,112.6209,26.9268,衡阳市,衡阳化工总厂,,45,45,35,26,21,100,100,93,93,6,11,6,8,0.7,0.7
2026-05-02T1400,2458A,112.621,26.8957,衡阳市,珠晖区环保局,,38,38,31,20,19,103,103,98,98,2,8,8,9,0.9,0.8
2026-05-02T1400,2459A,112.628,26.8654,衡阳市,市委党校,,38,38,34,22,22,98,98,94,94,4,8,10,12,0.7,0.7
2026-05-02T1400,2460A,112.6007,26.8977,衡阳市,市监测站,,36,36,32,21,21,86,86,83,83,8,13,8,10,0.7,0.7
2026-05-02T1400,2461A,112.5658,26.9013,衡阳市,真空机电公司,,35,33,35,24,23,103,103,92,92,6,16,6,12,0.7,1.1
2026-05-02T1400,3399A,112.6703,26.8817,衡阳市,师范学院,,36,36,34,20,21,102,102,97,97,4,7,8,8,0.6,0.6
2026-05-02T1400,3038A,103.3757,23.3679,红河哈尼族彝族自治州,州图书馆,,26,12,16,9,14,83,83,80,80,5,6,5,4,0.3,0.4
2026-05-02T1400,4154A,103.401,23.3561,红河哈尼族彝族自治州,蒙自市朝阳路,,27,15,16,13,17,86,86,77,77,2,4,5,5,0.4,0.4
2026-05-02T1400,1090A,111.6506,40.7517,呼和浩特市,呼市一监,,28,17,40,3,17,87,87,91,85,5,8,6,7,0.3,0.3
2026-05-02T1400,1094A,111.7516,40.8369,呼和浩特市,如意水处理厂,,28,18,29,10,12,88,88,90,86,4,8,7,7,0.2,0.3
2026-05-02T1400,1095A,111.727798,40.806187,呼和浩特市,二十九中,,25,11,32,3,12,80,80,82,78,4,8,8,9,0.4,0.3
2026-05-02T1400,1097A,111.717,40.7617,呼和浩特市,化肥厂生活区,,28,17,40,10,18,88,88,94,85,5,10,6,7,0.4,0.4
2026-05-02T1400,3699A,111.6519,40.8389,呼和浩特市,海东办,,27,14,37,3,11,86,86,90,86,5,8,4,5,0.2,0.2
2026-05-02T1400,4275A,111.591512,40.827312,呼和浩特市,成吉思汗西街8号,,27,27,47,6,14,78,78,79,78,6,12,4,5,0.2,0.3
2026-05-02T1400,4276A,111.6597,40.8077,呼和浩特市,公园东路75号,,26,22,42,3,16,83,83,85,83,7,10,4,5,0.3,0.3
2026-05-02T1400,4277A,111.5427,40.7846,呼和浩特市,金海路35号,,25,15,43,3,20,78,78,81,78,6,10,4,5,0.2,0.3
2026-05-02T1400,3061A,119.7511,49.1576,呼伦贝尔市,国华电力东,,27,17,21,3,8,85,85,80,80,6,6,4,5,0.3,0.3
2026-05-02T1400,4279A,119.7569,49.2222,呼伦贝尔市,伊敏大街东7号,,26,20,22,6,9,82,82,77,77,6,6,6,6,0.5,0.5
2026-05-02T1400,1250A,120.075,30.867,湖州市,城西水厂,,33,23,39,16,25,105,105,104,104,17,19,7,7,0.1,0.2
2026-05-02T1400,2873A,120.083,30.8929,湖州市,仁皇山新区,,31,24,38,16,25,98,98,94,94,21,26,6,6,0.5,0.5
2026-05-02T1400,2907A,120.1846,30.8592,湖州市,吴兴区站,,32,30,38,16,24,100,100,104,104,18,17,6,7,0.4,0.5
2026-05-02T1400,3562A,120.4146,30.8538,湖州市,南浔区站,,34,34,35,19,23,107,107,111,111,16,15,6,7,0.5,0.5
2026-05-02T1400,1607A,120.904878,40.721091,葫芦岛市,龙港区,,50,50,49,26,15,139,139,94,94,15,28,14,26,0.5,0.5
2026-05-02T1400,1608A,120.8382,40.7521,葫芦岛市,化工街,颗粒物(PM10),55,56,61,22,24,132,132,77,77,17,45,17,53,0.4,0.5
2026-05-02T1400,1609A,120.8339,40.7078,葫芦岛市,新区,,50,50,47,22,15,130,130,74,74,18,45,14,15,0.5,0.5
2026-05-02T1400,1610A,120.8697,40.7679,葫芦岛市,东城区,颗粒物(PM10),53,54,63,17,26,142,142,86,86,18,39,12,51,0.5,0.6
2026-05-02T1400,2483A,109.9297,27.5383,怀化市,河西地税局,,22,20,28,15,22,67,67,108,86,8,7,7,8,/,/
2026-05-02T1400,2484A,109.9783,27.5342,怀化市,市四医院,,32,32,33,14,18,62,62,102,82,7,8,4,5,0.4,0.4
2026-05-02T1400,2485A,109.9971,27.5579,怀化市,监测楼,,30,30,30,15,22,60,60,79,73,5,6,3,4,0.7,0.6
2026-05-02T1400,1210A,119.0566,33.5991,淮安市,钵池山,细颗粒物(PM2.5),60,56,46,40,33,73,73,102,83,29,19,11,11,1.0,0.7
2026-05-02T1400,1211A,119.0083,33.578,淮安市,北京南路,细颗粒物(PM2.5),64,48,47,42,33,80,80,106,88,30,20,11,10,0.7,0.5
2026-05-02T1400,1212A,118.9938,33.6083,淮安市,市监测站,细颗粒物(PM2.5),70,48,41,45,32,88,88,120,95,28,17,8,8,0.8,0.6
2026-05-02T1400,1213A,119.135,33.5038,淮安市,楚州区监测站,细颗粒物(PM2.5),74,56,54,47,39,70,70,85,72,26,21,8,8,0.9,0.6
2026-05-02T1400,3426A,118.8757,33.2897,淮安市,新华书店,颗粒物(PM10),53,53,50,30,27,73,73,86,71,24,20,9,9,0.8,0.7
2026-05-02T1400,4092A,119.119691,33.550006,淮安市,枚皋中路89号,细颗粒物(PM2.5),68,51,50,44,36,77,77,105,86,23,15,10,10,0.9,0.6
2026-05-02T1400,4206A,119.028838,33.631911,淮安市,承德北路606号,细颗粒物(PM2.5),62,61,52,41,32,73,73,102,79,27,17,9,9,0.8,0.6
2026-05-02T1400,2282A,116.8005,33.9749,淮北市,监测站,细颗粒物(PM2.5),64,63,45,42,31,83,83,106,90,23,18,8,8,0.6,0.5
2026-05-02T1400,2283A,116.8094,33.9008,淮北市,烈山区政府,细颗粒物(PM2.5),64,50,49,42,23,84,84,104,92,18,14,7,10,0.5,0.4
2026-05-02T1400,4017A,116.7926,33.9534,淮北市,市博物馆,细颗粒物(PM2.5),68,64,45,44,27,86,86,105,91,18,16,4,5,0.7,0.5
2026-05-02T1400,4100A,116.8322,33.9884,淮北市,杜集区第一实验学校,细颗粒物(PM2.5),68,71,52,44,23,89,89,101,89,21,14,8,8,0.7,0.5
2026-05-02T1400,2277A,116.8304,32.7726,淮南市,潘集区政府,,49,NA,37,34,19,71,71,92,61,23,22,7,10,0.6,0.5
2026-05-02T1400,2279A,116.8569,32.5949,淮南市,谢家集区政府,,35,NA,29,24,21,80,80,86,68,10,19,8,10,0.3,0.3
2026-05-02T1400,2280A,116.8279,32.6333,淮南市,八公山区政府,,46,NA,39,32,19,73,73,95,74,11,12,7,8,0.4,0.3
2026-05-02T1400,2894A,117.0561,32.6536,淮南市,经济技术开发区消防队,,43,NA,30,30,18,76,76,90,73,9,13,8,9,0.4,0.4
2026-05-02T1400,3329A,117.011,32.5891,淮南市,山南新区,,33,32,34,23,18,87,87,100,77,15,17,9,10,0.4,0.4
2026-05-02T1400,4209A,117.003137,32.644456,淮南市,国庆中路369号,,40,38,34,28,18,71,71,97,72,14,14,8,8,0.1,0.2
2026-05-02T1400,2446A,114.9021,30.474,黄冈市,职工中心,,23,17,22,16,16,64,64,81,69,8,10,2,7,0.7,0.6
2026-05-02T1400,2929A,114.8858,30.4519,黄冈市,红卫路,,22,21,21,12,14,70,70,89,74,10,10,5,7,0.5,0.4
2026-05-02T1400,3398A,114.9134,30.4446,黄冈市,市林业局,,24,12,26,11,13,75,75,85,73,10,14,5,4,0.1,0.2
2026-05-02T1400,2672A,102.02,35.5101,黄南藏族自治州,同仁县隆务镇,,41,34,31,20,15,131,131,117,117,1,2,10,11,0.2,0.2
2026-05-02T1400,2295A,118.2905,29.6965,黄山市,延安路89号,,29,16,29,9,22,92,92,58,58,3,13,6,6,0.3,0.3
2026-05-02T1400,2297A,118.1369,30.2755,黄山市,黄山区政府5号楼,,21,11,30,8,17,67,67,43,43,4,7,4,3,0.3,0.2
2026-05-02T1400,4210A,118.335445,29.720283,黄山市,滨江东路7-2号,颗粒物(PM10),51,51,43,21,18,72,72,65,65,19,12,/,/,/,/
2026-05-02T1400,2423A,115.0547,30.2332,黄石市,沈家营,,45,40,36,31,15,47,47,55,41,17,25,3,5,0.2,0.5
2026-05-02T1400,2426A,114.899,30.211,黄石市,铁山,,42,42,34,21,14,60,60,65,55,19,18,6,11,0.7,0.5
2026-05-02T1400,2427A,115.0259,30.2108,黄石市,团城山,,39,39,33,27,15,55,55,75,64,18,15,4,7,0.8,0.6
2026-05-02T1400,3149A,115.0174,30.1591,黄石市,笔架山北路,,45,45,45,21,18,49,49,70,57,22,18,10,16,0.5,0.5
2026-05-02T1400,4185A,115.078022,30.21118,黄石市,磁湖东路29号,,42,42,35,22,19,60,60,68,62,15,22,4,5,0.4,0.5
2026-05-02T1400,1392A,114.4181,23.0528,惠州市,河南岸金山湖子站,,37,25,27,18,17,116,116,99,99,6,9,6,7,0.6,0.6
2026-05-02T1400,1393A,114.4055,23.0824,惠州市,下埔横江三路子站,,36,30,30,15,16,113,113,100,100,5,8,5,6,0.6,0.6
2026-05-02T1400,1395A,114.4645,22.7832,惠州市,惠阳区承修路船湖子站,,39,33,29,19,15,124,124,106,106,5,7,6,7,0.5,0.5
2026-05-02T1400,1396A,114.5316,22.7423,惠州市,大亚湾管委会子站,,41,34,30,19,15,131,131,112,112,5,7,6,5,0.4,0.4
2026-05-02T1400,3314A,114.4334,22.8134,惠州市,惠阳秋长,,40,31,24,16,14,128,128,110,110,4,7,/,/,/,/
2026-05-02T1400,3452A,114.6521,22.7755,惠州市,大亚湾霞涌,,42,42,22,22,13,125,125,110,110,5,6,/,/,/,/
2026-05-02T1400,4300A,114.4089,23.1147,惠州市,文华一路1号,NA,NA,NA,26,NA,14,NA,NA,114,NA,NA,7,NA,NA,NA,NA
2026-05-02T1400,2240A,130.9618,45.2926,鸡西市,环保局,,38,38,36,12,19,107,107,100,100,3,9,6,7,0.3,0.3
2026-05-02T1400,2243A,130.9294,45.2959,鸡西市,第一中学,,47,47,36,16,16,106,106,96,96,2,8,6,6,0.2,0.2
2026-05-02T1400,3707A,131.0069,45.2988,鸡西市,欧美日汽修厂,,33,32,40,7,16,103,103,92,92,1,11,4,5,0.3,0.3
2026-05-02T1400,2367A,114.9753,27.0803,吉安市,红声器材厂,NA,NA,25,27,16,11,98,98,69,NA,NA,9,8,8,0.4,0.3
2026-05-02T1400,2369A,114.9903,27.1313,吉安市,市环境监测站,,36,36,26,17,13,102,102,94,94,6,9,10,11,/,/
2026-05-02T1400,2370A,115.009527,27.096792,吉安市,青原区法院,,31,31,28,17,12,96,96,91,91,7,12,7,7,0.3,0.3
2026-05-02T1400,1772A,126.54,43.8622,吉林市,哈达湾,,31,23,34,7,14,98,98,88,88,4,10,6,7,0.1,0.2
2026-05-02T1400,1773A,126.5843,43.8358,吉林市,东局子,,31,24,33,7,15,98,98,87,87,7,14,3,5,0.6,0.7
2026-05-02T1400,1774A,126.5051,43.8243,吉林市,电力学院,,35,17,27,7,12,109,109,97,97,6,13,4,4,0.4,0.4
2026-05-02T1400,1775A,126.6133,43.8971,吉林市,江北,,30,29,40,7,15,94,94,88,88,8,15,12,12,0.4,0.5
2026-05-02T1400,1776A,126.5549,43.8304,吉林市,江南公园,,30,22,31,7,15,93,93,82,82,6,12,6,7,0.5,0.5
2026-05-02T1400,2868A,126.4737,43.953,吉林市,九站,,34,34,40,9,20,93,93,83,83,11,22,15,29,0.4,0.4
2026-05-02T1400,1299A,116.9866,36.6118,济南市,科干所,,37,14,37,3,13,117,117,126,109,8,12,4,6,0.5,0.4
2026-05-02T1400,1300A,116.9379,36.6652,济南市,农科所,,33,17,35,3,13,104,104,112,91,10,13,6,7,0.2,0.3
2026-05-02T1400,1301A,117.1265,36.6736,济南市,开发区,,34,24,33,6,14,107,107,128,110,15,12,6,6,0.5,0.4
2026-05-02T1400,1303A,117.0616,36.6865,济南市,省种子仓库,颗粒物(PM10),56,58,47,13,11,86,86,129,105,28,14,7,10,0.6,0.5
2026-05-02T1400,1304A,116.9495185,36.644937,济南市,机床二厂,,37,17,39,3,14,116,116,119,107,9,13,4,6,0.3,0.4
2026-05-02T1400,1305A,117.0496,36.6629,济南市,市监测站,,35,12,35,3,13,112,112,122,106,9,12,3,4,0.5,0.6
2026-05-02T1400,1306A,116.7674,36.5458,济南市,长清党校,,42,42,40,13,12,72,72,109,84,24,12,4,5,0.5,0.5
2026-05-02T1400,1961A,117.5323,36.6865,济南市,东山小学,,49,49,48,14,16,85,85,120,98,28,19,5,5,0.4,0.4
2026-05-02T1400,3059A,117.7181,36.205,济南市,泰兴公司,,35,19,51,9,19,112,112,104,104,11,40,12,11,0.5,0.5
2026-05-02T1400,3064A,117.6861,36.2172,济南市,莱芜战役纪念馆,,35,22,44,10,16,111,111,110,109,12,24,8,7,0.3,0.3
2026-05-02T1400,3494A,117.1673,36.9782,济南市,济阳区政府,颗粒物(PM10),53,54,56,29,20,92,92,116,95,18,23,9,8,0.5,0.5
2026-05-02T1400,3495A,117.1168,36.6299,济南市,锦屏中学,,33,10,26,6,12,105,105,118,102,9,12,5,6,0.1,0.2
2026-05-02T1400,4108A,117.7107,36.2385,济南市,山财大街5号,,35,17,42,11,18,111,111,109,108,12,33,6,7,0.3,0.4
2026-05-02T1400,4109A,116.9744,36.6889,济南市,无影山路12号,,35,9,35,3,14,110,110,116,98,11,15,4,5,0.3,0.4
2026-05-02T1400,1653A,116.6229,35.4288,济宁市,火炬城,,30,30,35,14,12,79,79,90,74,12,10,4,4,0.5,0.5
2026-05-02T1400,3500A,116.5808,35.3703,济宁市,北湖一中,,31,24,34,13,11,98,98,106,89,13,11,8,9,0.3,0.3
2026-05-02T1400,3501A,116.8251,35.5592,济宁市,服务中心,,34,34,45,14,15,67,67,78,64,15,13,1,2,0.5,0.5
2026-05-02T1400,3678A,116.5907,35.4054,济宁市,市第七中学,,34,34,43,13,10,98,98,108,92,15,14,5,6,0.2,0.3
2026-05-02T1400,4111A,116.6075,35.4566,济宁市,任和路,,32,32,42,11,13,96,96,98,65,12,10,5,5,0.3,0.3
2026-05-02T1400,4112A,116.5648,35.3921,济宁市,文体南路1号,,32,32,37,12,13,95,95,94,79,5,8,4,5,0.5,0.4
2026-05-02T1400,4122A,112.6071,35.1015,济源市,市委党校,,30,25,40,11,15,93,93,77,77,13,18,9,8,0.6,0.6
2026-05-02T1400,4123A,112.596,35.0702,济源市,沁园中路1号,,29,17,30,15,18,90,90,77,77,5,12,4,4,0.5,0.6
2026-05-02T1400,2255A,130.2749,46.8028,佳木斯市,佳纺,,35,35,32,17,14,93,93,86,86,6,16,4,4,0.3,0.3
2026-05-02T1400,2257A,130.3258,46.7975,佳木斯市,环保局,,35,35,27,16,18,91,91,86,86,6,16,2,2,0.4,0.4
2026-05-02T1400,4285A,130.363,46.806,佳木斯市,顺和街,,49,49,26,22,18,94,94,91,91,7,18,2,2,0.3,0.3
2026-05-02T1400,4286A,130.3952,46.8268,佳木斯市,长安路196号,,44,44,25,17,16,87,87,87,87,14,13,2,2,0.2,0.3
2026-05-02T1400,1252A,120.7439,30.778,嘉兴市,清河小学,,37,30,36,12,19,117,117,125,125,14,14,8,8,0.4,0.4
2026-05-02T1400,1253A,120.7261,30.7477,嘉兴市,嘉兴学院,,36,24,29,13,18,114,114,124,124,18,17,6,7,0.4,0.5
2026-05-02T1400,2872A,120.7845,30.7524,嘉兴市,南湖区残联,,41,22,31,15,18,130,130,140,140,15,16,6,7,0.3,0.3
2026-05-02T1400,3407A,120.6915,30.7741,嘉兴市,秀洲住建,,42,27,37,10,15,132,132,142,142,14,17,7,7,0.3,0.4
2026-05-02T1400,1945A,98.291,39.7705,嘉峪关市,气象局,,35,31,47,15,18,110,110,91,91,8,9,22,23,1.0,0.7
2026-05-02T1400,2884A,98.2672,39.7978,嘉峪关市,酒钢宾馆,,39,39,112,22,28,116,116,96,96,2,7,24,20,0.5,0.5
2026-05-02T1400,3248A,98.2644,39.7723,嘉峪关市,雄关区,NA,NA,42,81,14,22,105,105,86,86,NA,12,16,11,0.4,0.3
2026-05-02T1400,1383A,113.1063,22.6058,江门市,北街,,29,28,25,14,14,90,90,81,81,6,11,/,/,/,/
2026-05-02T1400,1384A,113.073,22.5835,江门市,西区,,33,31,34,15,15,103,103,91,91,8,12,/,/,/,/
2026-05-02T1400,1385A,113.0218,22.531,江门市,圭峰西,,32,26,28,12,15,100,100,87,87,7,11,/,/,/,/
2026-05-02T1400,1386A,113.0826,22.5947,江门市,东湖,,31,31,29,12,13,96,96,87,87,7,11,6,6,0.5,0.4
2026-05-02T1400,3311A,113.1077,22.5647,江门市,江海富民,,48,48,37,12,14,100,100,90,90,2,7,/,/,0.4,0.2
2026-05-02T1400,3449A,113.0496,22.4669,江门市,新会银湖,,33,24,25,12,15,105,105,83,83,9,18,8,8,0.5,0.5
2026-05-02T1400,3335A,113.3137,35.2643,焦作市,马村街道办,,38,34,41,26,20,100,100,87,87,7,7,10,8,0.6,0.4
2026-05-02T1400,3336A,113.2464,35.2374,焦作市,焦作技师学院,,38,33,31,26,20,97,97,90,90,7,8,7,6,0.6,0.5
2026-05-02T1400,3477A,113.1656,35.2536,焦作市,中站许衡医院,,48,48,42,28,23,92,92,86,86,10,10,16,11,0.9,0.6
2026-05-02T1400,3981A,113.2456,35.18,焦作市,原李万街道办,,36,33,43,25,23,98,98,82,82,6,8,7,6,0.4,0.3
2026-05-02T1400,4264A,113.234,35.219,焦作市,新安路1731号,,41,41,40,26,20,97,97,88,88,9,14,8,9,0.5,0.4
2026-05-02T1400,4295A,113.2722,35.2121,焦作市,人民路3066号,NA,NA,NA,38,NA,29,93,93,79,79,NA,9,5,5,0.4,0.3
2026-05-02T1400,1708A,116.3701,23.5345,揭阳市,新兴,颗粒物(PM10),55,56,40,32,22,145,145,109,109,16,20,7,11,0.7,0.7
2026-05-02T1400,1709A,116.3261,23.5442,揭阳市,西马,颗粒物(PM10),59,62,44,35,25,153,153,115,115,14,17,7,9,0.7,0.7
2026-05-02T1400,1710A,116.361,23.5627,揭阳市,东兴,颗粒物(PM10),58,61,38,32,25,145,145,114,114,12,15,4,9,/,/
2026-05-02T1400,1711A,116.4151,23.5295,揭阳市,渔湖,,49,49,43,27,23,142,142,104,104,15,21,7,6,/,/
2026-05-02T1400,3320A,116.4028,23.5699,揭阳市,曲溪,,49,45,37,25,23,156,156,115,115,12,18,4,10,0.6,0.6
2026-05-02T1400,1944A,102.1691,38.5166,金昌市,天庆家园,颗粒物(PM10),65,70,57,26,20,117,117,112,106,3,4,5,6,0.5,0.4
2026-05-02T1400,4022A,102.1648,38.5369,金昌市,金川区人防中心,颗粒物(PM10),62,66,55,23,22,114,114,112,105,6,6,7,7,0.3,0.3
2026-05-02T1400,4239A,102.193042,38.531887,金昌市,长春路96号,颗粒物(PM10),62,66,60,23,29,111,111,105,104,2,3,6,6,0.3,0.3
2026-05-02T1400,1262A,119.6478,29.0773,金华市,十五中,,32,21,29,9,13,101,101,113,110,10,16,2,2,0.5,0.4
2026-05-02T1400,1263A,119.6859,29.1032,金华市,监测站,,35,24,27,12,15,110,110,119,119,13,20,4,4,0.3,0.3
2026-05-02T1400,3659A,119.656,29.1132,金华市,气象局,,34,22,28,9,13,106,106,109,109,10,22,4,4,0.3,0.3
2026-05-02T1400,1767A,121.1114,41.0879,锦州市,南山,颗粒物(PM10),52,52,52,19,24,119,119,74,74,19,32,10,12,0.5,0.5
2026-05-02T1400,1768A,121.060361,40.842794,锦州市,开发区,颗粒物(PM10),58,61,72,29,28,132,132,82,82,16,46,11,34,0.5,0.7
2026-05-02T1400,1769A,121.1836,41.1118,锦州市,百股街道,,46,46,41,17,20,109,109,78,78,20,22,11,12,0.6,0.5
2026-05-02T1400,1770A,121.1176,41.1224,锦州市,天安街道,,49,49,54,18,23,114,114,65,65,17,31,10,11,0.4,0.5
2026-05-02T1400,1771A,121.1303,41.1385,锦州市,北湖公园,,37,37,39,22,19,110,110,78,78,15,20,13,14,0.5,0.5
2026-05-02T1400,2160A,112.8496,35.5051,晋城市,自来水公司,,32,26,42,3,9,102,102,107,92,7,9,3,4,0.4,0.4
2026-05-02T1400,2162A,112.8509,35.4886,晋城市,市环保局,,31,12,34,3,12,97,97,97,87,5,10,4,5,0.3,0.3
2026-05-02T1400,3620A,112.8258,35.4804,晋城市,泽州一中,,33,18,24,7,12,105,105,104,92,7,9,3,4,0.2,0.2
2026-05-02T1400,4078A,112.8246,35.5152,晋城市,前书院路,,35,24,24,3,9,109,109,98,94,5,10,7,7,0.5,0.5
2026-05-02T1400,4079A,112.8864,35.4773,晋城市,祥云街666号,,33,20,25,3,14,103,103,88,88,6,14,7,8,0.5,0.5
2026-05-02T1400,2174A,112.6992,37.6984,晋中市,榆次区政府,颗粒物(PM10),70,78,59,25,23,126,126,86,86,12,27,12,14,0.8,0.7
2026-05-02T1400,2865A,112.7195,37.683,晋中市,榆次三中,颗粒物(PM10),93,110,53,30,18,133,133,97,97,8,11,12,13,0.6,0.6
2026-05-02T1400,4080A,112.7375,37.7215,晋中市,广安街188号,颗粒物(PM10),86,100,48,26,21,124,124,90,90,11,12,11,10,0.3,0.3
2026-05-02T1400,4200A,112.7478,37.6954,晋中市,迎宾街26号,颗粒物(PM10),55,56,53,30,21,129,129,94,94,11,14,11,13,0.5,0.5
2026-05-02T1400,2439A,112.2012,31.048,荆门市,竹园小学,,46,46,42,29,26,99,99,96,96,9,11,1,4,0.4,0.5
2026-05-02T1400,2440A,112.1968,30.9892,荆门市,掇刀,,46,42,42,32,28,103,103,101,101,9,11,7,10,0.6,0.6
2026-05-02T1400,3012A,112.1849,31.0361,荆门市,西山林语,,47,47,41,24,25,91,91,96,95,7,9,6,7,0.6,0.7
2026-05-02T1400,3547A,112.1631,31.0134,荆门市,龙泉中学南校,,30,22,29,16,21,96,96,103,102,10,10,4,6,0.6,0.6
2026-05-02T1400,4124A,112.2213,31.0654,荆门市,新台西路6号,,49,41,40,34,29,98,98,92,92,7,12,7,9,0.7,0.7
2026-05-02T1400,1844A,112.2493,30.3198,荆州市,市图书馆,,31,26,32,21,25,99,99,88,88,8,12,6,8,0.5,0.5
2026-05-02T1400,1845A,112.2009,30.3543,荆州市,市委党校,,33,31,33,23,24,76,76,72,72,17,18,7,8,0.5,0.5
2026-05-02T1400,3194A,112.2749,30.3124,荆州市,管委会,,35,NA,35,24,26,89,89,80,80,11,17,6,8,0.5,0.4
2026-05-02T1400,4268A,112.1722,30.3366,荆州市,学苑路85号,,33,NA,29,23,25,102,102,92,92,6,10,2,6,0.6,0.5
2026-05-02T1400,2343A,117.2114,29.2931,景德镇市,老干部活动中心,,36,36,31,19,22,52,52,43,43,20,16,4,5,0.8,0.6
2026-05-02T1400,2344A,117.1893,29.2789,景德镇市,兽医站,,43,41,36,30,20,46,46,43,43,23,16,5,4,0.8,0.6
2026-05-02T1400,2346A,117.246,29.2958,景德镇市,陶研所,,24,24,25,16,19,75,75,73,73,11,13,8,6,0.9,0.7
2026-05-02T1400,4289A,117.154766,29.256967,景德镇市,青少年活动中心,,37,37,33,24,22,56,56,47,47,26,22,37,17,/,/
2026-05-02T1400,1803A,115.9873,29.6816,九江市,十里,细颗粒物(PM2.5),66,50,35,43,24,25,25,43,35,43,38,8,7,1.3,1
2026-05-02T1400,1804A,115.9583,29.7047,九江市,茅山头,细颗粒物(PM2.5),56,39,29,38,22,24,24,41,35,37,33,5,4,0.7,0.6
2026-05-02T1400,1805A,115.9877,29.7295,九江市,西园,,48,34,23,33,18,25,25,50,48,46,40,7,5,0.8,0.6
2026-05-02T1400,1808A,115.9112,29.6038,九江市,综合工业园,,36,NA,17,25,16,92,92,62,62,18,31,13,9,0.7,0.6
2026-05-02T1400,3190A,116.0254,29.6995,九江市,外国语学校,细颗粒物(PM2.5),60,NA,22,40,19,16,16,58,42,44,22,12,12,1.2,0.8
2026-05-02T1400,4253A,116.010205,29.659402,九江市,莲花大道8号,,32,24,20,22,14,22,22,56,29,17,17,4,5,0.7,0.5
2026-05-02T1400,4240A,98.495752,39.733935,酒泉市,玉门东路5号,,36,31,56,25,39,98,98,84,84,2,5,5,7,0.2,0.2
2026-05-02T1400,4241A,98.5099,39.7506,酒泉市,北大街108号,,34,34,121,14,39,96,96,82,82,2,4,6,8,0.2,0.2
2026-05-02T1400,2698A,76.0071,39.466,喀什地区,巡警大队,颗粒物(PM10),419,519,685,177,238,97,97,84,84,6,13,4,4,0.2,0.2
2026-05-02T1400,2699A,75.9756,39.4693,喀什地区,吾办,颗粒物(PM10),390,492,598,181,223,92,92,79,79,6,13,4,4,0.4,0.4
2026-05-02T1400,4027A,75.9485,39.4688,喀什地区,老干局,颗粒物(PM10),388,490,666,183,260,95,95,84,84,3,8,3,3,0.0,0.1
2026-05-02T1400,1824A,114.3389,34.778,开封市,肿瘤医院,,38,30,38,26,23,96,96,81,77,17,17,7,7,0.6,0.6
2026-05-02T1400,1826A,114.2884,34.7966,开封市,世纪星幼儿园,,33,33,41,22,22,93,93,79,75,16,14,6,7,0.5,0.5
2026-05-02T1400,3147A,114.3434,34.8101,开封市,龙亭公园,,38,38,49,22,22,102,102,80,80,17,17,7,7,0.5,0.5
2026-05-02T1400,3210A,114.3645,34.7955,开封市,汴京公园,,38,38,44,21,22,101,101,79,79,11,11,4,4,0.5,0.5
2026-05-02T1400,3473A,114.2485,34.8306,开封市,技师学院,,38,30,37,26,22,98,98,77,76,11,10,7,6,0.8,0.8
2026-05-02T1400,3592A,114.4518,34.7503,开封市,祥符区生态环境局,,36,32,45,25,28,104,104,70,69,11,21,8,9,0.5,0.6
2026-05-02T1400,1951A,84.886,45.6029,克拉玛依市,长征新村,,36,20,25,15,8,113,113,86,86,5,9,6,6,0.5,0.5
2026-05-02T1400,1952A,84.8894,45.5827,克拉玛依市,南林小区,,33,33,28,3,3,101,101,69,69,4,13,2,3,0.1,0.1
2026-05-02T1400,1954A,84.896,44.3328,克拉玛依市,独山子区,,49,49,37,3,5,143,143,113,113,11,10,8,6,0.6,0.5
2026-05-02T1400,1955A,85.6888,46.0909,克拉玛依市,乌尔禾区商贸楼,,37,12,28,10,10,117,117,86,86,5,11,4,4,0.3,0.4
2026-05-02T1400,3612A,85.1045,45.6895,克拉玛依市,白碱滩区新站,,36,19,15,3,6,113,113,86,68,4,11,8,8,0.2,0.2
2026-05-02T1400,2697A,76.1457,39.7143,克孜勒苏柯尔克孜自治州,市人民政府,颗粒物(PM10),219,363,470,112,158,105,105,76,76,2,10,4,6,0.1,0.1
2026-05-02T1400,3665A,76.1654,39.7157,克孜勒苏柯尔克孜自治州,克州文化中心,颗粒物(PM10),200,349,470,125,161,108,108,88,88,2,5,2,2,0.3,0.3
2026-05-02T1400,1450A,102.8203,24.889,昆明市,呈贡新区,,31,6,18,3,13,98,98,78,78,6,6,4,4,0.3,0.8
2026-05-02T1400,1452A,102.7253,25.0904,昆明市,龙泉镇,NA,NA,NA,23,12,13,76,76,56,56,8,11,4,4,0.5,0.5
2026-05-02T1400,1453A,102.7267,25.0378,昆明市,东风东路,,27,NA,18,18,15,86,86,76,76,13,11,2,2,0.4,0.4
2026-05-02T1400,1454A,102.6744,25.0671,昆明市,金鼎山,,28,NA,25,16,14,87,87,71,71,13,13,1,2,0.6,0.7
2026-05-02T1400,1455A,102.6643,25.0401,昆明市,碧鸡广场,,25,13,21,9,12,77,77,61,61,12,14,5,5,0.6,0.6
2026-05-02T1400,3179A,102.7491,25.012,昆明市,官渡区博物馆,,27,NA,18,18,12,86,86,74,74,11,13,3,3,0.6,0.5
2026-05-02T1400,3375A,102.8016,24.8336,昆明市,青年创业园,,30,NA,17,14,13,96,96,77,77,2,4,3,4,0.4,0.5
2026-05-02T1400,3550A,102.8,24.9787,昆明市,昆明学院,,22,12,17,3,8,68,68,61,61,8,8,4,5,0.5,0.5
2026-05-02T1400,3551A,102.5969,24.6738,昆明市,晋宁区生态环境分局,,30,15,19,15,14,94,94,75,75,4,7,3,2,0.2,0.3
2026-05-02T1400,3552A,102.6673,24.9861,昆明市,云天化总部,,28,25,15,8,9,87,87,77,77,9,8,4,4,0.7,0.5
2026-05-02T1400,1456A,91.132,29.6515,拉萨市,八廓街,,36,19,13,7,7,115,115,104,100,4,4,5,5,0.1,0.2
2026-05-02T1400,1457A,91.1221,29.6748,拉萨市,市环保局,,35,13,13,11,7,110,110,100,98,8,8,4,4,0.2,0.2
2026-05-02T1400,1458A,91.0874,29.6476,拉萨市,区监测站,,35,14,10,9,9,109,109,102,97,9,9,5,5,0.3,0.3
2026-05-02T1400,1459A,91.1774,29.6541,拉萨市,西藏大学,,35,12,11,12,6,111,111,98,95,10,9,5,5,0.3,0.3
2026-05-02T1400,1460A,90.9798,29.6586,拉萨市,区辐射站,,33,NA,11,15,11,104,104,95,90,7,11,5,5,0.3,0.3
2026-05-02T1400,1461A,91.0831,29.6292,拉萨市,拉萨火车站,,36,16,11,3,8,114,114,107,99,8,7,4,4,0.3,0.4
2026-05-02T1400,2520A,109.2203,23.7252,来宾市,来宾技工学校,,41,41,50,22,34,99,99,99,93,4,7,16,13,0.7,0.7
2026-05-02T1400,3535A,109.1781,23.7293,来宾市,兴宾区政府,颗粒物(PM10),54,55,60,20,35,96,96,92,88,3,10,7,8,0.7,0.7
2026-05-02T1400,4002A,109.2312,23.7428,来宾市,中南小学,,43,43,45,27,36,105,105,103,98,6,10,9,9,0.7,0.6
2026-05-02T1400,1479A,103.8309,36.0467,兰州市,铁路设计院,颗粒物(PM10),61,65,58,30,22,136,136,111,111,11,12,7,6,0.5,0.5
2026-05-02T1400,3241A,103.7439,36.0841,兰州市,百合公园,颗粒物(PM10),53,53,56,16,23,138,138,100,100,4,11,7,5,0.4,0.3
2026-05-02T1400,3242A,103.9613,35.9985,兰州市,和平,颗粒物(PM10),66,72,59,34,34,133,133,116,116,4,5,10,8,0.4,0.5
2026-05-02T1400,4236A,103.629272,36.093822,兰州市,庄浪东路808号,颗粒物(PM10),66,72,58,27,22,137,137,115,115,2,9,8,7,0.2,0.2
2026-05-02T1400,4237A,103.7251,36.104344,兰州市,安宁西路88号,颗粒物(PM10),80,92,63,20,22,148,148,114,114,5,13,9,8,0.2,0.2
2026-05-02T1400,4238A,103.846982,36.067567,兰州市,北滨河东路1号,颗粒物(PM10),70,77,51,27,22,133,133,101,101,12,13,11,10,0.5,0.5
2026-05-02T1400,1067A,116.6712,39.5109,廊坊市,药材公司,,43,34,61,16,28,135,135,83,83,8,23,2,5,0.3,0.5
2026-05-02T1400,1068A,116.7215,39.5592,廊坊市,开发区,颗粒物(PM10),53,54,68,23,30,145,145,81,81,10,28,3,4,0.4,0.4
2026-05-02T1400,1070A,116.7246,39.5273,廊坊市,北华航天学院,,50,50,70,20,24,145,145,83,83,11,33,2,5,0.3,0.5
2026-05-02T1400,2919A,116.7022,39.5454,廊坊市,河北工业大学,,46,46,68,24,28,147,147,85,85,8,28,4,6,0.3,0.5
2026-05-02T1400,2536A,103.7629,29.5844,乐山市,牛耳桥,,20,15,28,6,24,63,63,63,45,18,16,5,6,0.6,0.6
2026-05-02T1400,2537A,103.7501,29.6002,乐山市,市第三水厂,NA,NA,NA,25,NA,22,75,75,65,57,12,16,5,4,NA,0.6
2026-05-02T1400,2538A,103.7571,29.5664,乐山市,市监测站,,18,15,27,3,20,57,57,62,40,18,15,3,3,0.5,0.5
2026-05-02T1400,3361A,103.7313,29.563,乐山市,理工大学,,26,17,30,3,24,83,83,61,48,6,12,6,6,0.3,0.5
2026-05-02T1400,2599A,100.2497,26.8802,丽江市,丽江古城,,31,19,18,12,8,99,99,95,93,7,8,5,5,0.3,0.3
2026-05-02T1400,2600A,100.2203,26.8906,丽江市,市中心,,31,10,11,3,6,98,98,92,87,6,7,6,6,0.4,0.4
2026-05-02T1400,1267A,119.9141,28.4513,丽水市,监测站大楼,,34,34,29,7,11,104,104,102,102,7,12,4,5,0.4,0.4
2026-05-02T1400,1268A,119.93,28.4589,丽水市,莲都小学,,33,18,22,7,10,103,103,101,101,3,12,/,/,/,/
2026-05-02T1400,1269A,119.8794,28.4232,丽水市,余庄前,,34,16,20,8,11,107,107,89,89,3,8,4,4,0.4,0.3
2026-05-02T1400,1173A,119.1759,34.5885,连云港市,市环境监测站,细颗粒物(PM2.5),58,56,51,39,34,99,99,107,107,20,17,11,12,0.7,0.6
2026-05-02T1400,3000A,119.3577,34.6971,连云港市,德源药业,NA,NA,NA,59,44,33,101,101,106,96,29,21,6,7,0.5,0.5
2026-05-02T1400,3007A,119.178,34.8442,连云港市,新城一中,颗粒物(PM10),64,69,56,35,35,125,125,113,113,21,26,6,7,0.7,0.6
2026-05-02T1400,3008A,119.3607,34.7519,连云港市,胡沟管理处,,49,NA,25,34,21,88,88,134,108,44,20,14,12,0.7,0.5
2026-05-02T1400,3009A,119.1478,34.5913,连云港市,矿山设计院,颗粒物(PM10),60,63,53,39,30,102,102,107,107,21,18,6,8,0.8,0.7
2026-05-02T1400,3434A,119.2414,34.6539,连云港市,工贸学校,细颗粒物(PM2.5),70,65,56,45,30,108,108,137,124,19,13,6,6,0.6,0.6
2026-05-02T1400,3664A,119.4171,34.734,连云港市,连云街道,细颗粒物(PM2.5),60,62,53,40,32,103,103,137,117,30,17,12,12,1.2,0.9
2026-05-02T1400,2573A,102.2629,27.8981,凉山彝族自治州,西昌市政府,,26,21,21,12,13,83,83,85,84,9,9,8,10,0.6,0.8
2026-05-02T1400,2574A,102.2686,27.885,凉山彝族自治州,凉山州政府,,23,20,21,14,13,72,72,72,72,7,8,8,12,0.6,0.7
2026-05-02T1400,4229A,102.2342,27.8859,凉山彝族自治州,凯乐南路30号,,24,22,19,15,13,74,74,78,75,14,9,14,8,1.4,0.7
2026-05-02T1400,2212A,123.1978,41.2036,辽阳市,宏伟区,颗粒物(PM10),53,54,39,10,12,113,113,92,92,8,14,5,6,0.3,0.4
2026-05-02T1400,2213A,123.1684,41.2497,辽阳市,新华园,,50,50,58,25,22,107,107,82,82,29,26,5,5,0.6,0.5
2026-05-02T1400,2214A,123.2355,41.2663,辽阳市,滨河路,,36,25,42,3,15,115,115,85,85,8,22,7,8,0.2,0.3
2026-05-02T1400,4083A,123.153,41.2874,辽阳市,铁西路150号,颗粒物(PM10),51,51,62,16,19,117,117,86,86,15,23,11,10,0.6,0.5
2026-05-02T1400,2227A,125.1359,42.8845,辽源市,环保局,,32,18,27,3,10,102,102,84,84,5,16,5,7,0.3,0.4
2026-05-02T1400,4085A,125.0998,42.9134,辽源市,安宁大街333号,,39,39,41,3,10,99,99,83,83,4,15,4,6,0.3,0.4
2026-05-02T1400,1625A,115.9789,36.4372,聊城市,区政府,,31,29,41,15,10,99,99,99,94,9,11,8,8,0.3,0.3
2026-05-02T1400,3200A,115.9772,36.4986,聊城市,监控中心,,37,24,42,12,10,117,117,110,104,7,11,9,9,0.2,0.2
2026-05-02T1400,3513A,116.0443,36.436,聊城市,九州社区,,35,34,46,14,14,110,110,108,95,10,12,6,6,0.3,0.4
2026-05-02T1400,4018A,116.0564,36.4609,聊城市,星美广场,,43,28,43,11,11,135,135,122,121,7,10,6,7,0.3,0.3
2026-05-02T1400,4113A,116.0091,36.4495,聊城市,利民路,,35,22,28,15,13,110,110,112,101,12,13,10,11,0.5,0.5
2026-05-02T1400,2632A,94.3683,29.6373,林芝市,林芝监测站,,27,NA,3,8,4,86,86,70,70,4,4,4,3,0.5,0.5
2026-05-02T1400,2633A,94.3616,29.6634,林芝市,林芝人民医院,,30,6,5,3,4,93,93,72,72,5,5,3,4,0.4,0.4
2026-05-02T1400,2603A,100.0779,23.8981,临沧市,市环保局,,24,17,24,9,21,74,74,64,64,5,5,3,2,0.6,0.6
2026-05-02T1400,2604A,100.0894,23.882,临沧市,市气象局,,25,10,21,10,22,79,79,63,63,4,6,4,4,0.6,0.7
2026-05-02T1400,1733A,111.5552,36.0791,临汾市,临钢医院,,47,47,35,14,17,75,75,55,55,8,13,8,7,0.6,0.8
2026-05-02T1400,1734A,111.4984,36.0734,临汾市,技工学校,颗粒物(PM10),60,64,41,21,26,72,72,58,49,6,13,7,7,0.4,0.6
2026-05-02T1400,1736A,111.5017,36.0857,临汾市,市委,NA,NA,63,40,11,19,75,75,63,54,4,11,7,7,NA,0.8
2026-05-02T1400,3018A,111.5048,36.1015,临汾市,唐尧大酒店,颗粒物(PM10),58,60,51,16,19,75,75,66,59,6,12,7,7,0.6,0.8
2026-05-02T1400,4244A,111.4879,36.053,临汾市,启星学校,颗粒物(PM10),53,53,37,20,22,71,71,54,47,2,10,7,6,0.6,0.8
2026-05-02T1400,4271A,103.2464,35.6123,临夏回族自治州,滨河东路1号,,36,35,30,12,14,114,114,100,100,5,9,8,9,0.2,0.3
2026-05-02T1400,4310A,103.207136,35.599807,临夏回族自治州,新华街21号,,31,31,27,19,17,88,88,82,82,2,3,6,6,0.2,0.2
2026-05-02T1400,1618A,118.3429,35.0532,临沂市,沂河小区,细颗粒物(PM2.5),64,63,52,42,27,101,101,109,95,26,17,18,19,1.0,0.4
2026-05-02T1400,1619A,118.2962,35.0568,临沂市,鲁南制药厂,颗粒物(PM10),65,70,44,42,24,105,105,112,102,29,19,15,12,1.0,0.4
2026-05-02T1400,1620A,118.2793,34.9976,临沂市,新光毛纺厂,细颗粒物(PM2.5),80,58,46,50,27,103,103,106,99,29,19,17,16,1.0,0.4
2026-05-02T1400,1621A,118.3955,35.0889,临沂市,河东保险公司,细颗粒物(PM2.5),64,66,46,42,26,105,105,104,82,26,22,16,17,0.7,0.3
2026-05-02T1400,3370A,118.3563,35.0215,临沂市,十里堡居委,颗粒物(PM10),62,66,45,38,25,106,106,104,97,25,17,18,19,1.1,0.5
2026-05-02T1400,3496A,118.359,35.1067,临沂市,南坊新区,细颗粒物(PM2.5),78,58,46,49,26,106,106,112,93,28,19,16,17,0.8,0.3
2026-05-02T1400,3860A,118.3915,35.0297,临沂市,皇山花园小区,细颗粒物(PM2.5),62,61,46,41,27,108,108,107,93,34,25,18,18,1.2,0.6
2026-05-02T1400,1870A,109.4854,24.3898,柳州市,柳东小学,细颗粒物(PM2.5),56,NA,35,38,28,97,97,105,95,10,8,4,5,0.7,0.6
2026-05-02T1400,1871A,109.4109,24.3304,柳州市,环保监测站,细颗粒物(PM2.5),52,NA,35,36,28,90,90,98,90,14,11,5,6,0.9,0.8
2026-05-02T1400,1872A,109.3886,24.3408,柳州市,河西水厂,细颗粒物(PM2.5),58,43,45,39,33,100,100,104,98,10,10,5,7,0.8,0.7
2026-05-02T1400,1873A,109.4263,24.2951,柳州市,市四中,细颗粒物(PM2.5),54,53,46,37,29,92,92,94,91,11,11,7,8,0.9,0.8
2026-05-02T1400,1874A,109.396,24.3658,柳州市,市九中,细颗粒物(PM2.5),66,49,51,43,32,91,91,98,90,9,10,5,5,0.6,0.6
2026-05-02T1400,1875A,109.4912,24.3164,柳州市,古亭山,细颗粒物(PM2.5),62,53,38,41,29,95,95,104,90,13,10,6,6,0.9,0.9
2026-05-02T1400,3402A,109.5422,24.3994,柳州市,市二中,细颗粒物(PM2.5),58,44,38,39,32,102,102,106,99,11,10,8,10,0.6,0.6
2026-05-02T1400,2307A,116.5078,31.7369,六安市,监测大楼,,30,NA,21,21,19,88,88,83,63,8,12,4,5,0.3,0.4
2026-05-02T1400,2308A,116.4738,31.7642,六安市,皖西学院,,28,NA,27,19,20,89,89,92,68,10,12,4,6,0.3,0.4
2026-05-02T1400,2309A,116.4997,31.7904,六安市,朝阳厂,,33,NA,16,23,19,75,75,88,63,13,14,6,6,0.3,0.3
2026-05-02T1400,2310A,116.5566,31.7885,六安市,开发区,,33,NA,13,23,16,78,78,88,66,15,17,5,6,0.3,0.4
2026-05-02T1400,2577A,104.8293,26.592,六盘水市,黄土坡,NA,NA,NA,19,NA,13,77,77,59,59,NA,9,NA,8,0.4,0.4
2026-05-02T1400,2579A,104.8481,26.5898,六盘水市,民中,,22,9,17,7,12,69,69,57,55,8,9,7,8,0.4,0.4
2026-05-02T1400,2580A,104.9541,26.5506,六盘水市,双水,,22,7,17,3,13,69,69,64,56,9,8,3,4,0.3,0.3
2026-05-02T1400,4151A,104.8899,26.5685,六盘水市,钟山大道中段564号,,21,13,23,3,14,67,67,60,51,7,8,4,3,0.7,0.5
2026-05-02T1400,2336A,117.022,25.1031,龙岩市,龙岩市监测站,,31,16,22,7,20,97,97,88,88,2,6,4,8,0.3,0.4
2026-05-02T1400,2337A,117.0257,25.0662,龙岩市,闽西职业技术学院,,29,21,22,6,18,91,91,81,81,1,4,5,8,0.5,0.6
2026-05-02T1400,2338A,117.0195,25.0306,龙岩市,龙岩学院,,31,22,21,6,16,97,97,84,84,3,5,4,5,/,/
2026-05-02T1400,2885A,104.9344,33.3827,陇南市,滨江中学,,45,45,47,15,12,102,102,84,84,3,7,5,5,0.5,0.6
2026-05-02T1400,3247A,104.9551,33.3709,陇南市,市总工会,,45,45,31,15,10,103,103,87,87,3,5,4,4,0.4,0.5
2026-05-02T1400,2488A,111.9984,27.7346,娄底市,市监测站,,45,39,39,31,30,87,87,74,74,7,12,6,11,0.6,0.6
2026-05-02T1400,2491A,111.9888,27.7035,娄底市,市政府,,38,31,34,26,27,92,92,83,83,6,11,4,5,0.5,0.5
2026-05-02T1400,4127A,111.9812,27.7591,娄底市,涟钢职大,,30,24,35,20,26,94,94,69,69,5,16,4,8,0.3,0.5
2026-05-02T1400,4128A,112.0303,27.7457,娄底市,娄底体校,,42,NA,37,29,29,91,91,72,72,8,9,5,5,0.5,0.5
2026-05-02T1400,1894A,105.4427,28.9063,泸州市,小市上码头,,24,13,36,8,33,75,75,56,56,6,12,7,7,0.5,0.6
2026-05-02T1400,1895A,105.4241,28.8573,泸州市,兰田宪桥,,28,18,64,8,31,89,89,66,66,4,8,5,5,0.5,0.6
2026-05-02T1400,1896A,105.4378,28.8833,泸州市,市环监站,,28,14,48,7,29,87,87,68,68,10,14,6,6,0.6,0.7
2026-05-02T1400,4272A,105.3689,28.7783,泸州市,纳溪中医医院,,27,27,42,10,34,85,85,68,64,13,11,6,4,0.5,0.6
2026-05-02T1400,2183A,111.1447,37.5212,吕梁市,环保局,,26,19,33,10,13,82,82,50,50,7,22,4,5,0.5,0.3
2026-05-02T1400,2185A,111.1285,37.5338,吕梁市,自来水公司,,25,NA,36,17,21,79,79,56,56,10,19,4,4,0.5,0.5
2026-05-02T1400,2867A,111.1225,37.5093,吕梁市,马茂庄小学,,26,21,43,10,16,82,82,47,47,6,23,1,2,0.3,0.4
2026-05-02T1400,1812A,112.3934,34.6517,洛阳市,市委党校,,30,30,28,18,20,84,84,89,83,10,15,9,7,0.7,0.6
2026-05-02T1400,1815A,112.494,34.6883,洛阳市,河南林校,,39,39,37,17,17,88,88,91,89,12,15,12,10,0.5,0.4
2026-05-02T1400,1816A,112.3843,34.623,洛阳市,开发区管委会,,30,30,31,13,22,88,88,87,77,7,11,11,10,0.6,0.5
2026-05-02T1400,1817A,112.4263,34.6249,洛阳市,市委新办公区,,32,22,33,22,22,88,88,83,81,7,12,10,9,0.6,0.5
2026-05-02T1400,3340A,112.6005,34.6323,洛阳市,伊滨,,32,28,28,22,18,83,83,78,78,10,12,9,8,0.4,0.3
2026-05-02T1400,3341A,112.495,34.6338,洛阳市,中移产业园,,32,32,30,17,19,85,85,86,83,12,17,8,8,0.7,0.6
2026-05-02T1400,3593A,112.5736,34.8993,洛阳市,吉利监测站,,32,32,30,10,14,95,95,86,86,7,10,8,8,0.5,0.4
2026-05-02T1400,3635A,112.3678,34.6623,洛阳市,河科大西苑校区,,35,29,30,24,22,87,87,87,83,10,14,11,8,0.8,0.6
2026-05-02T1400,3636A,112.4387,34.678,洛阳市,英才小学,,42,42,38,19,21,82,82,86,83,6,11,11,8,0.6,0.5
2026-05-02T1400,4214A,112.460027,34.694929,洛阳市,春都路1号院,,34,34,33,9,18,85,85,84,84,6,11,11,9,0.5,0.5
2026-05-02T1400,2399A,114.051,33.5721,漯河市,三五一五工厂,,50,NA,34,35,22,110,110,105,100,14,16,4,5,0.4,0.4
2026-05-02T1400,2400A,114.0055,33.5698,漯河市,漯河大学,,43,NA,24,30,22,108,108,107,97,14,17,4,5,0.4,0.4
2026-05-02T1400,2401A,114.0134,33.5826,漯河市,市水利局,,43,NA,29,30,22,112,112,100,97,10,13,4,4,0.5,0.5
2026-05-02T1400,2402A,114.0261,33.5697,漯河市,市广电局,,36,NA,27,25,22,107,107,104,98,13,16,4,4,0.4,0.3
2026-05-02T1400,3478A,113.9691,33.568,漯河市,市图书馆,,33,23,33,19,20,104,104,101,89,8,13,6,6,0.6,0.5
2026-05-02T1400,4250A,114.089259,33.588274,漯河市,韶山路11号,,35,29,38,23,23,112,112,93,93,9,18,6,7,0.3,0.3
2026-05-02T1400,1798A,118.5084,31.6838,马鞍山市,湖东路四小,颗粒物(PM10),56,58,42,34,21,70,70,121,88,27,20,8,9,0.9,0.5
2026-05-02T1400,1799A,118.5019,31.6449,马鞍山市,开发区,,48,48,59,33,22,61,61,103,71,27,21,7,10,0.9,0.5
2026-05-02T1400,3633A,118.4914,31.681,马鞍山市,雨山,颗粒物(PM10),55,57,42,31,21,64,64,119,84,32,20,7,9,1.3,0.6
2026-05-02T1400,4191A,118.527362,31.722269,马鞍山市,慈湖高新区,颗粒物(PM10),54,55,48,32,22,68,68,115,79,29,24,6,9,0.7,0.4
2026-05-02T1400,1686A,111.0285,21.469,茂名市,电白南海,,27,27,31,11,14,80,80,78,76,5,9,5,6,0.8,0.8
2026-05-02T1400,1687A,110.9294,21.6533,茂名市,茂石化七小,,23,22,30,13,20,72,72,71,68,6,11,6,10,0.6,0.7
2026-05-02T1400,1688A,110.9108,21.6688,茂名市,健康路,,25,14,22,12,17,77,77,81,76,6,11,4,6,0.6,0.6
2026-05-02T1400,1689A,110.8592,21.6826,茂名市,高岭,,27,27,34,15,18,78,78,80,76,3,9,5,6,/,/
2026-05-02T1400,3450A,111.0101,21.5165,茂名市,电白水东,,22,17,21,9,16,70,70,74,70,6,9,2,4,/,/
2026-05-02T1400,2540A,103.8414,30.0871,眉山市,气象局,,33,22,45,3,20,105,105,58,58,5,22,7,8,0.5,0.7
2026-05-02T1400,3148A,103.829,30.0563,眉山市,区人社局,,32,28,48,3,27,102,102,57,57,8,27,5,8,0.6,0.8
2026-05-02T1400,4148A,103.8836,30.0695,眉山市,眉职院,,33,16,48,3,22,104,104,56,56,5,20,8,9,0.7,0.9
2026-05-02T1400,1690A,116.1248,24.3307,梅州市,梅江月梅,,30,27,28,10,25,94,94,79,79,6,10,/,/,/,/
2026-05-02T1400,1691A,116.0798,24.2719,梅州市,梅县新城,,28,28,31,8,23,89,89,69,69,6,14,8,8,0.4,0.5
2026-05-02T1400,3315A,116.1234,24.2994,梅州市,梅龙,,30,17,29,9,23,94,94,82,82,5,10,6,7,0.3,0.4
2026-05-02T1400,1878A,104.7775,31.4741,绵阳市,富乐山,,32,20,36,6,22,100,100,58,58,9,14,8,8,0.6,0.7
2026-05-02T1400,1880A,104.6698,31.4668,绵阳市,高新区自来水公司,,33,9,31,3,20,104,104,62,62,4,15,6,7,0.4,0.5
2026-05-02T1400,3491A,104.6899,31.5324,绵阳市,西科大附属小学,,33,10,31,8,20,104,104,62,62,6,16,5,6,0.3,0.4
2026-05-02T1400,3492A,104.5647,31.5343,绵阳市,安州区旅游局,,33,6,30,3,17,104,104,61,61,2,9,5,6,0.5,0.5
2026-05-02T1400,4146A,104.7092,31.4972,绵阳市,科技城新区公安局,,31,17,35,3,20,98,98,61,61,6,14,6,6,0.5,0.6
2026-05-02T1400,4226A,104.765114,31.453094,绵阳市,绵阳市气象局,,29,10,32,3,20,92,92,56,56,7,19,9,9,0.5,0.6
2026-05-02T1400,1784A,129.61,44.561,牡丹江市,环保大楼,,34,24,33,6,13,106,106,91,91,4,9,2,3,0.1,0.2
2026-05-02T1400,1787A,129.6364,44.6075,牡丹江市,机车工厂,,32,24,37,10,19,101,101,84,84,5,12,6,7,0.1,0.2
2026-05-02T1400,1788A,129.6386,44.5462,牡丹江市,第一中学,,33,14,33,3,14,104,104,89,89,4,8,3,3,0.2,0.2
2026-05-02T1400,4287A,129.5992,44.5964,牡丹江市,东晓云街98号,,41,41,40,8,14,100,100,85,85,3,8,3,4,0.2,0.2
2026-05-02T1400,2531A,105.0703,29.61,内江市,市监测站,,31,24,47,13,31,98,98,75,75,7,10,8,9,0.2,0.3
2026-05-02T1400,2533A,105.0657,29.5807,内江市,内江二中,,31,23,40,13,30,98,98,73,73,7,13,6,7,0.2,0.4
2026-05-02T1400,2534A,105.0407,29.5828,内江市,内江日报社,,32,28,39,14,30,102,102,75,75,8,11,12,14,0.3,0.4
2026-05-02T1400,4147A,105.0433,29.6105,内江市,玉峰路西段888号,,34,34,43,12,30,100,100,74,74,8,12,5,6,0.4,0.5
2026-05-02T1400,2628A,92.0653,31.4846,那曲市,那曲监测站,,41,33,33,16,22,130,130,112,112,6,12,4,6,0.4,0.7
2026-05-02T1400,4243A,92.0515,31.4787,那曲市,那曲市委宣传部,,39,24,22,13,16,124,124,111,111,6,8,8,9,0.4,0.5
2026-05-02T1400,1291A,115.8887,28.7006,南昌市,省林业公司,细颗粒物(PM2.5),56,NA,32,38,27,88,88,45,45,17,39,3,3,0.5,0.5
2026-05-02T1400,1292A,115.813,28.7443,南昌市,林科所,,48,36,22,33,20,106,106,54,54,17,30,16,10,0.5,0.5
2026-05-02T1400,1294A,115.8518,28.687,南昌市,建工学校,细颗粒物(PM2.5),62,NA,38,41,26,92,92,50,50,10,26,12,7,0.8,0.8
2026-05-02T1400,1295A,115.8926,28.6425,南昌市,象湖,细颗粒物(PM2.5),60,NA,31,40,31,80,80,45,45,16,28,14,9,1.0,1
2026-05-02T1400,3046A,115.9084,28.6062,南昌市,机电学校,,49,35,40,34,25,96,96,50,50,8,27,9,6,0.6,0.5
2026-05-02T1400,3690A,115.9718,28.7032,南昌市,外国语学校,,42,31,32,29,26,90,90,52,52,10,21,13,11,0.6,0.6
2026-05-02T1400,4106A,115.7923,28.6873,南昌市,工业二路,,49,45,37,34,21,96,96,49,49,10,28,11,7,0.6,0.6
2026-05-02T1400,4192A,115.931587,28.686774,南昌市,南京东路235号,,48,NA,41,33,28,98,98,60,60,17,26,11,7,0.6,0.5
2026-05-02T1400,1906A,106.0791,30.8022,南充市,南充市委,,30,26,38,14,27,94,94,60,60,5,12,6,5,0.2,0.4
2026-05-02T1400,1907A,106.1038,30.8215,南充市,南充炼油厂,,35,35,42,12,25,90,90,60,60,5,11,6,5,0.2,0.3
2026-05-02T1400,4227A,106.108336,30.788436,南充市,梨树横街98号,,30,25,36,13,25,94,94,64,64,6,12,6,6,0.2,0.3
2026-05-02T1400,4304A,106.1172,30.843,南充市,清泉寺北路188号,,41,41,42,12,23,94,94,61,61,5,9,6,6,0.3,0.4
2026-05-02T1400,4305A,106.067,30.7616,南充市,同庆路1号,,30,28,37,15,24,95,95,58,58,6,14,6,6,0.3,0.4
2026-05-02T1400,1151A,118.8033,32.1085,南京市,迈皋桥,,45,34,32,31,18,85,85,126,85,22,12,3,4,0.5,0.4
2026-05-02T1400,1152A,118.7487,32.057,南京市,草场门,,49,44,35,34,19,65,65,121,84,34,20,6,6,0.6,0.4
2026-05-02T1400,1154A,118.770105,32.004342,南京市,中华门,NA,NA,46,37,25,16,48,48,112,67,26,13,6,7,NA,0.5
2026-05-02T1400,1155A,118.8059,32.0329,南京市,瑞金路,NA,NA,58,37,41,18,53,53,120,76,41,21,NA,7,NA,0.6
2026-05-02T1400,1156A,118.7946,32.0774,南京市,玄武湖,,50,50,34,31,14,53,53,115,75,30,13,5,5,0.6,0.4
2026-05-02T1400,1157A,118.6415,32.0964,南京市,浦口,,44,44,38,29,14,68,68,108,68,32,22,6,6,0.7,0.5
2026-05-02T1400,1158A,118.730129,32.000956,南京市,奥体中心,颗粒物(PM10),53,54,41,31,17,43,43,93,62,34,20,9,10,0.5,0.3
2026-05-02T1400,1159A,118.9072,32.1047,南京市,仙林大学城,细颗粒物(PM2.5),60,56,43,40,19,60,60,121,80,36,18,10,10,0.8,0.6
2026-05-02T1400,3422A,118.8443,31.919,南京市,江宁彩虹桥,颗粒物(PM10),53,53,42,27,15,78,78,118,88,27,16,4,4,0.6,0.5
2026-05-02T1400,3427A,118.8497,32.3599,南京市,六合雄州,颗粒物(PM10),62,66,41,36,17,42,42,103,60,44,28,6,6,0.9,0.6
2026-05-02T1400,4086A,118.7641,32.0841,南京市,新模范马路66号,NA,NA,NA,39,NA,13,NA,NA,162,97,NA,14,NA,4,NA,0.5
2026-05-02T1400,4249A,118.8707617,31.34017673,南京市,汶溪路181号,,45,NA,30,31,17,80,80,121,93,21,17,6,7,0.6,0.5
2026-05-02T1400,4312A,119.019,31.6512,南京市,中山西路1号,,30,27,31,21,15,69,69,90,70,16,19,4,4,0.5,0.5
2026-05-02T1400,1401A,108.3098,22.788,南宁市,二十一中,NA,NA,30,34,12,25,100,100,95,81,7,8,1,2,NA,0.3
2026-05-02T1400,1402A,108.3135,22.8529,南宁市,北湖,,35,25,34,21,28,112,112,103,87,7,8,2,3,0.7,0.7
2026-05-02T1400,1403A,108.3205,22.8222,南宁市,市监测站,,33,33,34,18,24,102,102,98,79,11,9,2,3,0.7,0.6
2026-05-02T1400,1404A,108.3828,22.8038,南宁市,大自然花园,,29,26,32,14,25,92,92,100,81,7,10,4,5,0.5,0.5
2026-05-02T1400,1406A,108.2397,22.8462,南宁市,区农职院,,35,28,34,13,23,109,109,100,90,3,6,2,2,0.7,0.8
2026-05-02T1400,1407A,108.3285,22.7356,南宁市,英华嘉园,,29,29,34,11,24,90,90,91,85,8,12,4,5,0.6,0.6
2026-05-02T1400,3401A,108.4829,22.762,南宁市,红星社区,,30,28,32,11,24,95,95,96,83,4,8,4,5,0.7,0.8
2026-05-02T1400,4132A,108.2927,23.1477,南宁市,起凤路9号,,40,38,40,28,29,110,110,109,89,6,8,6,6,0.7,0.6
2026-05-02T1400,4221A,108.2177,22.7774,南宁市,乐贤路16号,,34,20,32,12,23,107,107,91,91,7,14,5,6,0.6,0.7
2026-05-02T1400,2332A,118.1682,26.6371,南平市,南平市监测站,,34,24,19,15,11,106,106,102,102,4,6,4,5,0.4,0.3
2026-05-02T1400,2334A,118.1757,26.6276,南平市,南平七中,,30,26,19,13,9,95,95,94,94,4,6,3,3,0.4,0.4
2026-05-02T1400,1168A,120.9056,31.9669,南通市,狼山街道,,41,36,41,16,18,129,129,114,114,32,30,4,5,0.4,0.5
2026-05-02T1400,1170A,120.8635,32.0231,南通市,城中,,44,44,52,16,20,138,138,122,122,22,24,5,7,0.5,0.6
2026-05-02T1400,1171A,120.9376,31.9301,南通市,星湖花园,,46,38,44,18,20,145,145,129,129,22,24,6,6,0.4,0.5
2026-05-02T1400,1172A,120.8053,32.046,南通市,紫琅学院,,42,34,41,15,19,134,134,120,120,34,36,6,8,0.6,0.7
2026-05-02T1400,3291A,121.0631,32.0644,南通市,通州监测站,,48,48,56,12,25,146,146,131,131,19,20,6,6,0.5,0.6
2026-05-02T1400,3432A,120.9348,31.9874,南通市,环境教育馆,,45,41,47,15,22,143,143,123,123,20,24,6,7,0.5,0.6
2026-05-02T1400,4091A,120.8692,31.9885,南通市,洪江路,,42,36,43,18,21,133,133,116,116,26,28,6,7,0.7,0.8
2026-05-02T1400,2404A,112.5338,33.0086,南阳市,瓦房庄,,38,34,36,26,21,103,103,92,90,10,12,4,4,0.5,0.5
2026-05-02T1400,2405A,112.5002,32.9734,南阳市,汉画馆,,35,35,40,24,21,99,99,82,81,11,12,6,6,0.5,0.5
2026-05-02T1400,2406A,112.5778,33.0144,南阳市,气象站,,35,32,34,24,21,91,91,87,86,11,10,6,5,0.6,0.4
2026-05-02T1400,2407A,112.548,32.9687,南阳市,理工学院,,34,34,37,22,22,104,104,99,89,7,10,5,6,0.5,0.4
2026-05-02T1400,4008A,112.5233,32.9921,南阳市,卧龙区政府,,32,26,39,22,21,102,102,92,87,8,12,6,6,0.5,0.5
2026-05-02T1400,1234A,121.8352,29.9111,宁波市,区环保大楼,,42,24,34,8,15,132,132,158,135,3,11,6,6,0.3,0.3
2026-05-02T1400,1235A,121.5595,29.8208,宁波市,万里学院,,40,30,31,8,15,125,125,141,134,5,9,3,4,0.3,0.3
2026-05-02T1400,1236A,121.713,29.9564,宁波市,龙赛医院,,41,25,33,8,14,131,131,154,135,7,12,6,6,0.3,0.4
2026-05-02T1400,1240A,121.5855,29.8635,宁波市,太古小学,,36,28,30,8,14,115,115,130,123,3,10,4,4,0.5,0.4
2026-05-02T1400,1241A,121.5239,29.8673,宁波市,市环境监测中心,,37,33,35,9,16,117,117,134,127,8,16,6,8,0.5,0.5
2026-05-02T1400,2871A,121.6156,29.9015,宁波市,万里国际学校,,40,18,30,7,15,126,126,152,136,5,11,4,6,0.4,0.4
2026-05-02T1400,3710A,121.5593,29.8976,宁波市,白沙活动中心,颗粒物(PM10),63,67,33,9,17,122,122,139,132,4,12,5,6,0.2,0.3
2026-05-02T1400,4095A,121.8962,29.7529,宁波市,中科路88号,,50,23,29,12,21,157,157,163,148,2,5,7,7,0.5,0.5
2026-05-02T1400,2341A,119.5387,26.6611,宁德市,宁德市监测站,,46,46,26,17,16,139,139,108,108,10,13,8,8,0.4,0.4
2026-05-02T1400,3209A,119.5231,26.6562,宁德市,宁德一中,,43,32,25,15,18,137,137,105,105,7,11,9,8,0.5,0.5
2026-05-02T1400,2618A,98.859,25.8541,怒江傈僳族自治州,州监测站,,20,12,18,12,13,62,62,56,56,6,6,6,6,0.2,0.2
2026-05-02T1400,2619A,98.8607,25.8168,怒江傈僳族自治州,泸水一中,,26,NA,14,18,15,61,61,54,54,8,8,4,4,0.4,0.4
2026-05-02T1400,1888A,101.6891,26.571,攀枝花市,弄弄坪,,27,27,28,18,9,83,83,72,72,14,17,9,24,0.6,1.1
2026-05-02T1400,1889A,101.577,26.5914,攀枝花市,河门口,,30,26,29,16,12,95,95,71,69,14,13,21,11,1.9,0.7
2026-05-02T1400,1891A,101.7365,26.4986,攀枝花市,仁和,,28,20,17,14,11,88,88,73,70,7,10,16,6,0.4,0.4
2026-05-02T1400,2835A,101.7222,26.567,攀枝花市,四十中小,,30,23,21,21,9,88,88,79,76,13,9,15,9,0.8,0.6
2026-05-02T1400,1604A,122.0303,41.1489,盘锦市,开发区,,47,47,47,7,22,105,105,75,75,10,28,8,10,0.5,0.5
2026-05-02T1400,1605A,122.0486,41.0883,盘锦市,兴隆台,,36,36,49,11,33,109,109,76,76,14,41,10,10,0.5,0.7
2026-05-02T1400,1606A,121.8297,41.1026,盘锦市,新生街道,,33,33,35,9,14,93,93,70,70,24,33,9,9,0.6,0.6
2026-05-02T1400,1832A,113.3257,33.7423,平顶山市,新华旅馆,,45,36,45,31,26,105,105,96,92,8,13,4,4,0.6,0.6
2026-05-02T1400,1833A,113.2917,33.737,平顶山市,规划设计院,,37,37,47,20,25,109,109,97,93,8,14,8,7,0.6,0.5
2026-05-02T1400,1834A,113.182,33.7738,平顶山市,平顶山工学院,,34,33,38,19,25,108,108,86,86,6,11,6,6,0.6,0.5
2026-05-02T1400,3594A,112.8736,33.9068,平顶山市,石龙区,,23,20,42,14,26,72,72,70,70,5,16,7,7,0.4,0.4
2026-05-02T1400,4116A,113.284,33.7139,平顶山市,姚电大道23号,,38,38,55,23,29,112,112,79,77,8,16,6,5,0.5,0.5
2026-05-02T1400,2656A,106.6633,35.5338,平凉市,聚贤嘉苑,颗粒物(PM10),84,97,88,20,23,124,124,107,107,6,7,6,5,0.4,0.4
2026-05-02T1400,2657A,106.7021,35.5307,平凉市,博物馆,颗粒物(PM10),63,67,74,17,23,132,132,111,111,5,5,7,8,0.4,0.4
2026-05-02T1400,2348A,113.8384,27.6436,萍乡市,中医院,,33,16,24,15,19,104,104,73,73,5,15,7,11,0.4,0.6
2026-05-02T1400,2350A,113.8677,27.6438,萍乡市,市环保局,,38,38,37,22,24,103,103,74,74,8,19,10,24,0.7,0.8
2026-05-02T1400,2351A,113.8663,27.6202,萍乡市,安源区政府,,34,34,35,22,24,106,106,72,72,11,20,8,12,0.3,0.7
2026-05-02T1400,4107A,113.8686,27.6668,萍乡市,联洪村委会,,32,22,35,20,20,101,101,68,68,4,13,6,9,0.5,0.3
2026-05-02T1400,2319A,119.0142,25.4324,莆田市,荔城区仓后路,臭氧1小时(O3_1h),64,40,31,22,17,171,171,120,120,6,4,/,/,/,/
2026-05-02T1400,2320A,119.0016,25.4553,莆田市,莆田市监测站,臭氧1小时(O3_1h),55,52,28,19,14,164,164,119,119,12,9,4,3,0.5,0.5
2026-05-02T1400,2321A,119.112,25.4561,莆田市,涵江区六中,,48,42,30,16,15,151,151,123,123,6,7,/,/,0.5,0.5
2026-05-02T1400,2322A,119.1014,25.3215,莆田市,秀屿区政府,,48,37,35,20,20,153,153,119,119,8,11,6,5,0.4,0.5
2026-05-02T1400,2392A,115.0312,35.7636,濮阳市,环保局,,33,18,31,3,13,105,105,98,98,11,14,4,4,0.4,0.5
2026-05-02T1400,3021A,115,35.7667,濮阳市,濮水河管理处,,32,20,28,6,14,102,102,83,83,8,10,3,3,0.5,0.6
2026-05-02T1400,4118A,115.0552,35.7816,濮阳市,中原东路68号,,36,NA,32,11,14,114,114,101,101,6,9,4,4,0.5,0.5
2026-05-02T1400,4216A,115.0923632,35.76857718,濮阳市,任丘路479号,,35,22,35,8,16,110,110,97,97,10,15,3,4,0.5,0.5
2026-05-02T1400,2601A,100.9801,22.7634,普洱市,市环保局,,29,25,45,11,22,92,92,60,60,5,8,4,5,0.7,0.8
2026-05-02T1400,2602A,100.9763,22.8237,普洱市,普洱第二中学,,30,20,37,8,23,94,94,68,68,3,9,7,7,0.7,0.8
2026-05-02T1400,3345A,131.0413,45.7795,七台河市,中波台,,32,30,44,18,27,100,100,96,96,4,12,2,4,0.3,0.4
2026-05-02T1400,3637A,131.0136,45.7688,七台河市,人民广场,,30,27,43,12,20,95,95,92,92,6,14,6,7,0.3,0.4
2026-05-02T1400,3684A,130.8639,45.8144,七台河市,新建矿广场,,46,46,46,15,18,88,88,85,85,9,12,9,9,0.3,0.4
2026-05-02T1400,1779A,123.9307,47.3641,齐齐哈尔市,安居小区,,29,17,25,3,5,91,91,86,86,1,2,10,10,0.2,0.2
2026-05-02T1400,1780A,123.9497,47.3389,齐齐哈尔市,中心广场,,29,14,18,3,6,92,92,87,87,2,3,5,5,0.2,0.2
2026-05-02T1400,1781A,123.9483,47.3229,齐齐哈尔市,农牧车辆厂,,30,22,24,3,4,94,94,89,89,4,4,4,4,0.4,0.3
2026-05-02T1400,1783A,123.9442,47.2994,齐齐哈尔市,市环境监测站,,29,20,25,3,5,91,91,87,87,3,5,3,3,0.2,0.2
2026-05-02T1400,3662A,123.6341,47.2079,齐齐哈尔市,富区青少年活动中心,,28,22,24,3,6,89,89,85,85,2,4,3,3,0.3,0.3
2026-05-02T1400,2591A,107.9765,26.5724,黔东南苗族侗族自治州,市环境监测站,,25,21,33,17,22,50,50,98,71,13,6,3,2,0.6,0.4
2026-05-02T1400,2881A,107.8909,26.531,黔东南苗族侗族自治州,凯里学院,,30,22,27,21,25,51,51,108,75,12,6,4,3,0.7,0.5
2026-05-02T1400,2593A,107.5223,26.2371,黔南布依族苗族自治州,小围寨,,29,24,22,20,20,32,32,94,72,19,6,5,5,0.8,0.6
2026-05-02T1400,3538A,107.5175,26.2977,黔南布依族苗族自治州,沙坝,,19,19,24,10,18,44,44,83,61,5,4,3,4,0.8,0.6
2026-05-02T1400,2589A,104.9022,25.0943,黔西南布依族苗族自治州,场坝街,,26,24,22,18,17,79,79,73,68,3,4,5,6,0.4,0.4
2026-05-02T1400,2590A,104.8812,25.0994,黔西南布依族苗族自治州,坪东大道,,26,26,24,11,18,80,80,70,70,5,7,4,4,0.3,0.3
2026-05-02T1400,2502A,108.6238,21.9667,钦州市,市环保站,,34,34,28,13,12,98,98,99,85,6,10,1,2,0.6,0.6
2026-05-02T1400,2503A,108.655,21.9481,钦州市,沙埠小学,,33,33,39,15,20,103,103,90,89,5,14,2,4,0.6,0.6
2026-05-02T1400,2504A,108.5989,21.7435,钦州市,港区一小,,46,46,38,26,21,104,104,98,93,10,13,2,4,0.6,0.7
2026-05-02T1400,3404A,108.5959,21.9634,钦州市,北职校,,32,32,28,11,17,102,102,96,89,5,10,2,2,0.6,0.5
2026-05-02T1400,1046A,119.5247,39.9346,秦皇岛市,建设大厦,,42,42,50,12,10,115,115,77,77,13,31,6,7,0.3,0.3
2026-05-02T1400,3132A,119.5979,39.938,秦皇岛市,文明里,颗粒物(PM10),53,53,57,16,12,104,104,79,79,27,35,10,10,0.3,0.3
2026-05-02T1400,4066A,119.7458,39.9952,秦皇岛市,南园路157号,,45,45,48,13,14,115,115,79,79,18,46,8,8,0.3,0.3
2026-05-02T1400,4067A,119.5131,39.8858,秦皇岛市,翠岛大街1号,,38,32,41,8,12,121,121,87,87,16,27,9,10,0.2,0.3
2026-05-02T1400,4198A,119.509013,39.825305,秦皇岛市,北戴河轮滑馆,,46,46,49,6,12,111,111,79,79,20,38,10,9,0.3,0.4
2026-05-02T1400,1310A,120.404,36.0625,青岛市,市南区东部子站,,48,48,62,24,35,141,141,110,110,31,24,8,8,0.5,0.5
2026-05-02T1400,1311A,120.362344,36.10282,青岛市,四方区子站,臭氧1小时(O3_1h),57,48,56,31,35,165,165,132,132,24,21,8,9,0.8,0.9
2026-05-02T1400,1312A,120.294373,36.054183,青岛市,市南区西部子站,颗粒物(PM10),55,56,64,32,34,121,121,103,100,60,37,7,7,0.7,0.6
2026-05-02T1400,1313A,120.4581,36.0858,青岛市,崂山区子站,颗粒物(PM10),53,53,66,22,33,157,157,114,114,17,12,11,11,0.4,0.4
2026-05-02T1400,1315A,120.3945,36.3083,青岛市,城阳区子站,颗粒物(PM10),53,53,58,29,26,160,160,124,124,14,17,8,9,0.7,0.8
2026-05-02T1400,3642A,120.3454,36.0735,青岛市,市北区南部,臭氧1小时(O3_1h),54,38,51,26,31,163,163,128,128,16,13,4,5,0.7,0.8
2026-05-02T1400,3643A,120.3897,36.18,青岛市,李沧区北部,,48,48,58,30,30,143,143,116,116,18,19,11,11,0.6,0.7
2026-05-02T1400,4110A,120.5222,36.4089,青岛市,盟旺路653号,臭氧1小时(O3_1h),64,NA,43,24,24,171,171,135,135,6,9,6,6,0.7,0.8
2026-05-02T1400,4290A,120.196923,35.954556,青岛市,珠江路669号,颗粒物(PM10),62,66,63,27,32,151,151,123,123,33,24,6,6,0.7,0.7
2026-05-02T1400,4291A,120.0424,35.8656,青岛市,黄岛区人民政府广场,颗粒物(PM10),51,51,59,29,31,156,156,117,117,15,21,10,10,0.7,0.7
2026-05-02T1400,1703A,113.0218,23.7086,清远市,凤城街办,颗粒物(PM10),57,59,45,35,26,78,78,58,51,24,27,/,/,/,/
2026-05-02T1400,3025A,113.0479,23.6343,清远市,技师学院,,50,50,41,25,23,91,91,64,62,21,21,6,6,0.6,0.6
2026-05-02T1400,3318A,112.9898,23.7403,清远市,清新太和,颗粒物(PM10),65,70,44,41,25,96,96,72,68,23,21,8,7,0.6,0.5
2026-05-02T1400,3455A,113.076,23.72,清远市,清城东城,颗粒物(PM10),59,62,44,27,25,89,89,61,59,22,23,/,/,/,/
2026-05-02T1400,2661A,107.6325,35.7357,庆阳市,庆阳五中,颗粒物(PM10),53,54,37,15,16,100,100,83,83,7,7,3,2,0.3,0.3
2026-05-02T1400,2662A,107.6361,35.7067,庆阳市,市环保局,颗粒物(PM10),54,55,39,15,15,111,111,91,91,8,8,5,5,0.3,0.4
2026-05-02T1400,1916A,103.7897,25.5036,曲靖市,环境监测站,,27,20,20,11,11,85,85,72,72,8,8,6,4,0.5,0.4
2026-05-02T1400,1917A,103.8013,25.5357,曲靖市,烟厂办公区,,25,20,19,9,9,78,78,66,66,9,7,12,4,0.5,0.3
2026-05-02T1400,3376A,103.7926,25.4651,曲靖市,南苑二区,,26,15,16,9,10,81,81,71,71,9,7,4,4,0.4,0.3
2026-05-02T1400,3377A,103.7442,25.5259,曲靖市,曲靖师范学院,,25,24,23,9,15,80,80,65,65,10,10,14,4,0.7,0.4
2026-05-02T1400,1264A,118.8694,28.94,衢州市,环保大楼,,39,35,35,21,22,122,122,97,97,13,16,/,/,/,/
2026-05-02T1400,1266A,118.8622,28.9809,衢州市,衢州学院,,36,28,29,20,19,114,114,90,90,11,17,7,7,0.4,0.4
2026-05-02T1400,4097A,118.9646,28.9832,衢州市,衢州三中,,43,27,34,16,20,135,135,95,95,12,24,9,8,0.6,0.4
2026-05-02T1400,1611A,118.5818,24.9116,泉州市,涂山街,颗粒物(PM10),52,52,34,25,22,142,142,102,102,18,17,6,4,0.5,0.4
2026-05-02T1400,1612A,118.597,24.8976,泉州市,津头埔,"颗粒物(PM10),臭氧1小时(O3_1h)",53,54,36,26,22,162,162,121,121,18,16,5,4,0.4,0.4
2026-05-02T1400,1613A,118.6669,24.9422,泉州市,万安,颗粒物(PM10),52,52,33,26,19,144,144,102,102,14,15,6,4,0.5,0.5
2026-05-02T1400,4105A,118.6355,24.9148,泉州市,霞新路6号,,44,39,28,24,19,138,138,118,118,8,8,/,/,0.5,0.5
2026-05-02T1400,2626A,88.8873,29.2723,日喀则市,日喀则监测站,,38,12,9,3,6,121,121,109,109,7,6,7,7,0.5,0.5
2026-05-02T1400,3726A,88.8775,29.2425,日喀则市,林业技术推广中心,,39,12,15,3,2,123,123,108,108,5,6,9,8,0.6,0.5
2026-05-02T1400,1659A,119.4711,35.421,日照市,监测站,细颗粒物(PM2.5),56,46,50,38,27,144,144,104,104,22,31,9,11,0.5,0.6
2026-05-02T1400,1660A,119.523,35.4216,日照市,市政府广场,细颗粒物(PM2.5),56,44,52,38,28,139,139,116,116,19,28,7,9,0.8,0.8
2026-05-02T1400,1661A,119.5511,35.4113,日照市,港务局,细颗粒物(PM2.5),54,48,64,37,30,143,143,109,109,20,36,6,9,0.7,0.7
2026-05-02T1400,3507A,119.5326,35.4627,日照市,职业技术学院,细颗粒物(PM2.5),56,46,60,38,31,150,150,117,117,21,30,8,12,0.7,0.8
2026-05-02T1400,3604A,119.3267,35.1043,日照市,岚山环保分局,细颗粒物(PM2.5),58,48,53,39,28,135,135,115,115,28,26,11,14,0.7,0.8
2026-05-02T1400,1835A,111.1922,34.7752,三门峡市,市政府,,31,31,28,14,15,56,56,68,55,13,14,12,10,0.8,0.6
2026-05-02T1400,1836A,111.1588,34.794,三门峡市,开发区,,29,22,33,20,19,72,72,70,58,7,11,10,9,0.7,0.6
2026-05-02T1400,3039A,111.1911,34.7829,三门峡市,三门峡市第一小学,,32,32,26,14,19,61,61,70,58,15,12,14,9,0.7,0.4
2026-05-02T1400,3598A,111.1031,34.719,三门峡市,富达温泉假日酒店,,48,48,32,13,21,86,86,60,60,8,12,10,8,0.4,0.4
2026-05-02T1400,2324A,117.621,26.2626,三明市,三钢,,34,34,23,20,17,100,100,69,69,16,15,24,8,1.6,0.7
2026-05-02T1400,2325A,117.6352,26.2714,三明市,三明二中,,38,38,23,21,16,100,100,65,65,8,12,7,6,0.7,0.7
2026-05-02T1400,2326A,117.6028,26.2377,三明市,三元区政府,,33,27,28,21,20,103,103,62,62,6,16,4,7,0.6,0.9
2026-05-02T1400,1877A,109.4962,18.2682,三亚市,河西子站,,24,18,20,13,15,74,74,85,79,2,4,4,4,0.4,0.5
2026-05-02T1400,3540A,109.7348,18.3443,三亚市,君悦子站,,26,26,22,10,13,79,79,74,74,4,8,3,3,0.5,0.5
2026-05-02T1400,4135A,109.1714,18.3739,三亚市,城东小学站,,22,18,24,11,16,69,69,70,70,3,7,/,/,/,/
2026-05-02T1400,2624A,91.7592,29.234,山南市,山南监测站,,35,9,7,3,4,112,112,109,106,1,2,7,7,0.2,0.2
2026-05-02T1400,2625A,91.7701,29.2436,山南市,山南人民医院,,37,10,11,6,5,116,116,111,111,1,2,8,6,0.3,0.3
2026-05-02T1400,1674A,116.6795,23.3666,汕头市,金平子站,,46,40,30,23,19,146,146,125,125,14,13,6,5,0.7,0.6
2026-05-02T1400,1675A,116.7248,23.3632,汕头市,龙湖子站,,49,49,29,22,18,135,135,120,120,10,9,7,6,/,/
2026-05-02T1400,1676A,116.7257,23.2774,汕头市,濠江子站,,44,42,34,21,17,139,139,119,119,13,12,8,8,/,/
2026-05-02T1400,1677A,116.7518,23.4712,汕头市,澄海子站,,48,47,34,26,18,153,153,128,128,24,14,10,9,0.7,0.6
2026-05-02T1400,1678A,116.6088,23.2539,汕头市,潮阳子站,NA,NA,42,28,23,18,148,148,123,123,7,9,NA,6,0.5,0.5
2026-05-02T1400,3444A,116.4539,23.2684,汕头市,潮南峡山,,49,48,37,31,22,156,156,124,124,7,8,8,7,0.8,0.6
2026-05-02T1400,3624A,116.4069,23.2533,汕头市,潮南子站,颗粒物(PM10),62,66,48,36,27,138,138,112,112,12,13,8,6,/,/
2026-05-02T1400,1693A,115.3653,22.7751,汕尾市,市环保局,,41,36,26,15,16,130,130,115,115,4,9,6,6,0.6,0.5
2026-05-02T1400,1695A,115.362,22.7926,汕尾市,新城中学,,48,48,25,15,16,132,132,111,111,5,8,6,7,0.5,0.5
2026-05-02T1400,2645A,109.9155,33.8714,商洛市,监测站,,32,18,37,8,18,101,101,82,82,6,15,5,12,0.4,0.6
2026-05-02T1400,3045A,109.9647,33.8486,商洛市,商州区中学,,48,48,34,9,28,104,104,78,78,7,17,5,13,0.4,0.5
2026-05-02T1400,2408A,115.6701,34.4283,商丘市,环境监测站,,38,28,37,26,22,103,103,98,87,4,6,3,3,0.4,0.3
2026-05-02T1400,2409A,115.6458,34.4047,商丘市,粮食局,,31,27,32,17,22,97,97,98,89,10,13,4,5,0.3,0.3
2026-05-02T1400,3171A,115.6069,34.4465,商丘市,梁园区档案局,,32,26,36,22,19,88,88,91,82,8,10,3,4,0.2,0.2
2026-05-02T1400,4119A,115.6701,34.3767,商丘市,北海东路185号,,30,30,33,20,19,94,94,95,84,5,8,5,5,0.5,0.4
2026-05-02T1400,4120A,115.6172,34.3704,商丘市,中山大街3号,,36,33,38,25,20,92,92,94,84,4,11,4,5,0.3,0.3
2026-05-02T1400,1141A,121.401,31.2382,上海市,普陀,,50,32,39,14,24,159,159,158,158,10,16,6,7,0.4,0.4
2026-05-02T1400,1142A,121.4774,31.2043,上海市,十五厂,NA,NA,28,37,15,25,146,146,151,151,NA,16,7,6,0.7,0.7
2026-05-02T1400,1143A,121.4673,31.3011,上海市,虹口,,45,32,37,19,25,143,143,148,148,13,18,5,5,0.5,0.5
2026-05-02T1400,1147A,121.4253,31.226,上海市,静安监测站,,49,28,33,17,24,156,156,157,157,15,19,9,9,0.5,0.6
2026-05-02T1400,1148A,121.7029,31.1905,上海市,浦东川沙,,49,28,40,14,25,155,155,156,156,13,23,8,8,0.5,0.5
2026-05-02T1400,1149A,121.5339,31.229,上海市,浦东新区监测站,,45,27,36,15,22,142,142,148,148,10,17,6,7,0.4,0.5
2026-05-02T1400,1150A,121.5776,31.2038,上海市,浦东张江,,48,26,37,15,22,152,152,159,159,11,18,7,7,0.1,0.2
2026-05-02T1400,3265A,121.4242,31.3303,上海市,宝山庙行,,49,36,45,15,24,155,155,157,157,11,18,8,8,0.3,0.3
2026-05-02T1400,3266A,121.8789,31.4662,上海市,崇明上实东滩,,48,32,32,16,20,151,151,159,159,16,19,7,8,0.3,0.3
2026-05-02T1400,3268A,121.316,31.2839,上海市,嘉定南翔,,48,27,30,16,20,151,151,150,150,9,16,6,6,0.3,0.4
2026-05-02T1400,3269A,121.3357,30.7455,上海市,金山新城,,44,24,30,15,20,140,140,150,150,5,9,4,5,0.5,0.5
2026-05-02T1400,3270A,121.4996,31.0741,上海市,闵行浦江,,45,27,38,14,25,142,142,149,149,12,15,6,7,0.3,0.3
2026-05-02T1400,3271A,121.2886,31.1663,上海市,青浦徐泾,臭氧1小时(O3_1h),52,30,34,17,22,161,161,164,164,8,12,6,6,0.5,0.5
2026-05-02T1400,3272A,121.2193,31.0382,上海市,松江图书馆,,49,29,33,18,24,155,155,156,156,8,13,8,8,0.3,0.4
2026-05-02T1400,3273A,121.3904,31.206,上海市,长宁仙霞,,46,37,36,17,23,146,146,150,150,12,14,7,7,0.3,0.3
2026-05-02T1400,3274A,121.7964,31.0507,上海市,浦东惠南,,49,44,55,15,26,156,156,151,151,11,26,7,7,0.5,0.5
2026-05-02T1400,3544A,121.4891,30.925,上海市,奉贤南桥新城,,44,25,35,12,23,140,140,148,148,10,16,4,4,0.3,0.3
2026-05-02T1400,4183A,121.417401,31.16637,上海市,冠生园路458号,,47,26,32,16,22,148,148,144,144,11,18,5,5,0.5,0.5
2026-05-02T1400,4205A,121.541914,31.268301,上海市,宁武路151号,,44,44,46,16,27,140,140,147,147,19,26,7,7,0.4,0.4
2026-05-02T1400,2382A,117.9758,28.4439,上饶市,市监测站,,35,27,35,16,20,112,112,84,84,2,10,6,17,/,/
2026-05-02T1400,2383A,117.9521,28.4637,上饶市,凤凰光学,,35,24,29,20,18,112,112,83,83,12,20,7,18,0.6,0.5
2026-05-02T1400,3685A,117.897,28.4316,上饶市,双创科技城,,39,29,33,20,19,124,124,94,94,2,7,9,17,0.5,0.4
2026-05-02T1400,4211A,118.190438,28.444845,上饶市,裕丰大道,,31,18,22,14,15,98,98,101,98,8,10,14,14,0.7,0.7
2026-05-02T1400,1669A,113.5821,24.7733,韶关市,市八中,,44,44,36,23,20,102,102,84,77,14,19,17,15,0.5,0.5
2026-05-02T1400,1671A,113.5916,24.7973,韶关市,园林处,,36,33,29,25,21,90,90,68,68,12,20,12,11,/,/
2026-05-02T1400,1673A,113.5971,24.6864,韶关市,曲江监测站,,42,42,34,24,22,95,95,75,74,12,16,6,6,0.6,0.6
2026-05-02T1400,2809A,113.6668,24.7756,韶关市,大学路288号,颗粒物(PM10),52,52,30,28,20,99,99,86,86,13,13,9,12,/,/
2026-05-02T1400,3622A,113.5556,24.8082,韶关市,碧湖山庄,,41,41,30,24,18,88,88,76,76,15,16,7,8,0.6,0.5
2026-05-02T1400,2464A,111.5277,27.2442,邵阳市,市化工厂,,30,26,35,20,32,96,96,88,88,3,10,9,9,0.5,0.5
2026-05-02T1400,2466A,111.4327,27.2276,邵阳市,市环保局,,31,28,32,14,29,97,97,64,64,4,4,4,6,0.6,0.6
2026-05-02T1400,4218A,111.446,27.2472,邵阳市,北塔二期4-26地块,,33,33,36,9,22,86,86,57,57,6,13,6,7,0.5,0.6
2026-05-02T1400,4219A,111.4739,27.2282,邵阳市,邵水西路287号,,37,37,38,16,30,95,95,62,62,5,12,9,10,0.7,0.8
2026-05-02T1400,1247A,120.6053,29.9927,绍兴市,城东开发委,,32,32,29,19,17,87,87,103,98,18,15,9,9,0.5,0.5
2026-05-02T1400,2921A,120.5482,30.0003,绍兴市,树下王站,,34,30,30,20,19,108,108,118,115,25,19,8,8,0.4,0.3
2026-05-02T1400,3408A,120.5685,29.936,绍兴市,绍兴中专,,35,29,29,16,17,109,109,127,118,11,11,8,9,0.3,0.3
2026-05-02T1400,3409A,120.4905,30.086,绍兴市,柯桥区政府,,32,24,30,15,18,101,101,114,113,13,14,6,6,0.4,0.4
2026-05-02T1400,3410A,120.8751,30.0249,绍兴市,重华小学,,31,23,28,14,18,99,99,128,117,12,15,6,6,0.4,0.4
2026-05-02T1400,3411A,120.837,30.0137,绍兴市,上虞中学,,35,22,29,15,19,110,110,136,126,12,17,8,8,0.4,0.4
2026-05-02T1400,3560A,120.4715,30.0414,绍兴市,柯桥妇保,,32,28,33,16,17,102,102,116,116,17,17,6,6,0.4,0.4
2026-05-02T1400,3658A,120.6156,30.0762,绍兴市,袍江中学,,34,28,32,18,21,107,107,119,115,18,15,6,6,0.3,0.3
2026-05-02T1400,1356A,114.0948,22.5506,深圳市,通心岭子站,,36,29,24,19,15,113,113,105,105,7,6,5,5,0.6,0.6
2026-05-02T1400,1357A,114.1153,22.5713,深圳市,洪湖,,35,34,30,16,13,111,111,102,102,6,8,5,5,0.5,0.4
2026-05-02T1400,1358A,113.9823,22.5398,深圳市,华侨城,,35,30,27,16,14,110,110,93,91,8,13,/,/,/,/
2026-05-02T1400,1359A,113.9181,22.517,深圳市,南海子站,,37,31,29,16,15,116,116,105,105,9,6,4,4,0.6,0.6
2026-05-02T1400,1360A,114.2345,22.565,深圳市,盐田,,36,36,32,16,15,114,114,92,92,11,15,5,5,0.5,0.5
2026-05-02T1400,1363A,114.4911,22.5381,深圳市,南澳,,38,31,25,13,10,121,121,109,109,5,5,/,/,/,/
