timepoint,stationcode,longitude,latitude,area,positionname,primarypollutant,aqi,pm10,pm10_24h,pm2_5,pm2_5_24h,o3,o3_24h,o3_8h,o3_8h_24h,no2,no2_24h,so2,so2_24h,co,co_24h
2026-05-02T0900,2568A,102.2503,31.8896,阿坝藏族羌族自治州,马师校,NA,NA,28,22,14,6,NA,NA,73,73,3,4,6,6,0.3,0.3
2026-05-02T0900,3994A,102.2174,31.9016,阿坝藏族羌族自治州,马尔康中学西区,,24,NA,14,8,7,75,75,80,79,5,5,5,4,0.3,0.3
2026-05-02T0900,2695A,80.2899,41.1684,阿克苏地区,电视台,细颗粒物(PM2.5),172,258,503,130,177,78,78,88,88,10,7,3,3,0.2,0.2
2026-05-02T0900,2696A,80.2592,41.1541,阿克苏地区,艺术中心,颗粒物(PM10),124,180,304,85,144,91,91,97,97,9,10,4,4,0.3,0.3
2026-05-02T0900,2205A,105.699,38.8409,阿拉善盟,蒙二幼,,26,26,93,3,28,82,82,98,95,5,5,10,10,0.4,0.4
2026-05-02T0900,2206A,105.7198,38.8508,阿拉善盟,环保局新楼,,25,25,81,3,31,76,76,96,92,6,5,9,9,0.5,0.5
2026-05-02T0900,2708A,88.1266,47.8515,阿勒泰地区,市站,,28,15,21,3,3,88,88,84,84,4,12,5,5,0.1,0.1
2026-05-02T0900,4166A,88.1198,47.7931,阿勒泰地区,阿勒泰路33号,,25,16,18,3,2,77,77,83,83,9,5,4,3,0.1,0.1
2026-05-02T0900,2630A,80.1171,32.4999,阿里地区,阿里监测站,,38,16,15,7,4,119,119,122,121,3,4,7,8,0.3,0.3
2026-05-02T0900,3192A,80.0906,32.5029,阿里地区,阿里藏医院,,35,19,13,3,4,111,111,124,122,10,4,11,11,0.4,0.3
2026-05-02T0900,2644A,109.0088,32.6974,安康市,汉滨区检察院,,30,28,46,21,29,20,20,18,18,8,15,6,7,0.5,0.4
2026-05-02T0900,4054A,109.0324,32.6913,安康市,市邮政管理局,,30,27,49,21,31,38,38,29,29,7,12,4,11,0.6,0.6
2026-05-02T0900,2291A,117.0806,30.5181,安庆市,环科院,,42,42,28,25,15,22,22,5,5,41,51,7,7,0.4,0.4
2026-05-02T0900,2292A,117.0331,30.5118,安庆市,马山宾馆,,36,31,25,25,15,16,16,10,10,45,44,5,6,0.4,0.3
2026-05-02T0900,2294A,116.9897,30.6146,安庆市,安庆大学,,45,39,26,31,12,11,11,34,28,36,17,4,4,0.7,0.4
2026-05-02T0900,3173A,117.0598,30.5351,安庆市,市人大,,38,31,27,26,16,16,16,16,16,53,37,4,6,0.5,0.4
2026-05-02T0900,3123A,105.9408,26.2431,安顺市,凤凰山,,40,40,34,28,24,73,73,86,83,10,6,7,7,0.6,0.6
2026-05-02T0900,3124A,105.9443,26.2567,安顺市,金钟山,,40,37,30,28,25,68,68,76,74,6,5,6,6,0.6,0.6
2026-05-02T0900,3125A,105.8983,26.248,安顺市,娄家坡,,36,36,29,25,23,64,64,NA,NA,7,4,6,5,0.6,0.6
2026-05-02T0900,1819A,114.3552,36.1017,安阳市,红庙街,,28,28,54,15,19,83,83,82,80,14,14,4,4,0.6,0.4
2026-05-02T0900,1820A,114.361,36.0681,安阳市,银杏小区,,29,NA,49,20,23,78,78,77,76,12,12,5,6,0.4,0.3
2026-05-02T0900,3141A,114.3921,36.0879,安阳市,信访局,,29,23,46,20,22,91,91,92,90,11,10,2,3,0.5,0.5
2026-05-02T0900,3669A,114.4706,36.0634,安阳市,左辅环卫站,,28,28,44,14,20,73,73,70,65,9,10,3,3,0.5,0.5
2026-05-02T0900,4117A,114.2918,36.0769,安阳市,钢三路198号,,27,27,46,8,19,62,62,68,65,11,10,1,3,0.4,0.4
2026-05-02T0900,1748A,123.0441,41.1201,鞍山市,深沟寺,,28,28,34,10,11,82,82,66,66,14,15,8,8,0.5,0.5
2026-05-02T0900,1749A,123.011,41.0931,鞍山市,太阳城,,28,28,26,13,12,82,82,70,70,19,13,8,9,0.6,0.5
2026-05-02T0900,1750A,123.0483,41.1445,鞍山市,太平,,45,45,43,15,15,66,66,69,69,26,19,8,9,0.8,0.8
2026-05-02T0900,1751A,122.964,41.0968,鞍山市,铁西三道街,颗粒物(PM10),67,73,60,24,24,58,58,23,23,47,37,9,11,1.0,0.9
2026-05-02T0900,1753A,123.0219,41.0822,鞍山市,明达新区,,30,30,33,13,13,85,85,63,63,16,15,7,9,0.8,0.8
2026-05-02T0900,4201A,122.944647,41.082639,鞍山市,兴盛南路290号,颗粒物(PM10),81,93,87,35,27,64,64,19,19,43,39,13,10,1.2,0.7
2026-05-02T0900,2195A,107.4206,40.7609,巴彦淖尔市,附二中,,36,36,47,9,16,82,82,83,82,9,8,10,10,0.4,0.4
2026-05-02T0900,2196A,107.37,40.7372,巴彦淖尔市,市环保大楼,,34,34,42,3,16,87,87,88,87,7,7,7,8,0.3,0.4
2026-05-02T0900,1956A,86.1476,41.7529,巴音郭楞蒙古自治州,孔雀公园,颗粒物(PM10),81,93,105,23,30,33,33,65,64,52,21,4,4,0.4,0.2
2026-05-02T0900,1957A,86.1971,41.7166,巴音郭楞蒙古自治州,棉纺厂,颗粒物(PM10),85,98,126,20,34,59,59,55,55,25,24,/,/,/,/
2026-05-02T0900,1958A,86.236,41.7172,巴音郭楞蒙古自治州,经济开发区,颗粒物(PM10),81,93,94,49,31,79,79,82,82,8,6,9,9,0.3,0.2
2026-05-02T0900,3181A,106.776805,31.852614,巴中市,市五中,,22,22,28,15,16,14,14,24,22,18,13,9,9,0.9,0.7
2026-05-02T0900,3183A,106.7419,31.8654,巴中市,圣泉水务公司,,22,20,21,15,14,30,30,33,32,22,12,6,6,0.9,0.8
2026-05-02T0900,3616A,106.7617,31.8343,巴中市,市中心医院,,25,23,27,17,17,20,20,23,22,16,17,5,5,0.6,0.5
2026-05-02T0900,2235A,122.7909,45.608,白城市,洮北区环保局,,29,17,24,3,6,92,92,77,77,4,5,3,4,0.3,0.4
2026-05-02T0900,2236A,122.8741,45.5725,白城市,市环保局,,29,22,19,6,7,90,90,84,84,8,9,2,4,0.3,0.3
2026-05-02T0900,2231A,126.4219,41.9172,白山市,喜丰,颗粒物(PM10),60,64,62,20,17,67,67,32,32,24,23,11,9,1.0,0.9
2026-05-02T0900,2232A,126.4082,41.9416,白山市,环保局,,48,48,37,19,14,59,59,42,42,22,13,13,10,0.9,0.8
2026-05-02T0900,2647A,104.1727,36.5448,白银市,第三小学,,38,38,51,17,21,96,96,92,92,9,3,7,6,0.4,0.3
2026-05-02T0900,2648A,104.1467,36.5482,白银市,动力公司,,43,43,48,21,20,97,97,90,90,8,3,7,6,0.4,0.3
2026-05-02T0900,2512A,106.6102,23.901,百色市,市监测站,细颗粒物(PM2.5),70,67,47,45,28,39,39,45,42,20,16,16,13,0.9,0.7
2026-05-02T0900,2513A,106.6524,23.8842,百色市,市中心血站,细颗粒物(PM2.5),90,68,47,55,34,34,34,81,75,26,12,14,16,1.0,0.8
2026-05-02T0900,4133A,106.6273,23.8798,百色市,龙景西路,细颗粒物(PM2.5),84,66,50,52,35,29,29,68,62,25,15,17,18,0.7,0.5
2026-05-02T0900,2270A,117.396,32.9389,蚌埠市,工人疗养院,颗粒物(PM10),51,51,39,22,12,90,90,101,98,30,21,7,6,0.6,0.4
2026-05-02T0900,2271A,117.3606,32.9428,蚌埠市,百货大楼,,43,43,35,21,13,89,89,103,99,21,11,8,6,0.6,0.4
2026-05-02T0900,2273A,117.4183,32.8909,蚌埠市,蚌埠学院,,41,41,30,26,13,83,83,104,100,21,12,6,5,0.6,0.4
2026-05-02T0900,2274A,117.3534,32.9672,蚌埠市,淮上区政府,颗粒物(PM10),56,58,36,28,13,58,58,102,94,47,20,8,6,0.4,0.3
2026-05-02T0900,2275A,117.3143,32.8977,蚌埠市,高新区,,36,36,32,20,12,87,87,102,99,21,12,10,8,0.6,0.4
2026-05-02T0900,3715A,117.3091,32.9314,蚌埠市,蚌埠田家炳中学,颗粒物(PM10),55,56,40,25,13,84,84,106,101,26,13,8,7,0.5,0.4
2026-05-02T0900,1585A,109.8761,40.6533,包头市,市环境监测站,,29,28,64,3,30,92,92,94,94,8,11,6,7,0.3,0.4
2026-05-02T0900,1587A,109.9992,40.5843,包头市,包头八中,,25,14,61,8,23,80,80,90,88,10,10,9,10,0.4,0.5
2026-05-02T0900,1589A,109.8641,40.6288,包头市,惠龙物流,NA,NA,10,48,3,17,NA,NA,87,87,7,10,NA,8,0.3,0.4
2026-05-02T0900,1590A,110.0376,40.5546,包头市,东河鸿龙湾,,25,NA,55,15,21,80,80,89,88,14,14,13,13,0.5,0.4
2026-05-02T0900,3283A,109.9154,40.5684,包头市,滨河大厦,,26,7,48,3,22,81,81,87,86,8,12,8,11,0.3,0.4
2026-05-02T0900,3419A,109.9449,40.6259,包头市,包头市委党校,,27,15,52,12,20,84,84,87,86,8,11,5,9,0.3,0.5
2026-05-02T0900,3683A,109.8332,40.6577,包头市,昆区政府,,27,9,55,9,21,84,84,93,92,10,11,4,5,0.5,0.6
2026-05-02T0900,1931A,107.0802,34.3129,宝鸡市,竹园沟,,46,46,28,17,34,40,40,48,46,7,6,7,8,0.6,0.7
2026-05-02T0900,1933A,107.1429,34.3549,宝鸡市,监测站,,31,31,25,14,18,37,37,43,42,9,12,6,6,0.3,0.3
2026-05-02T0900,1934A,107.1172,34.3759,宝鸡市,技工学校,,25,25,25,15,20,36,36,41,40,4,9,4,4,0.5,0.6
2026-05-02T0900,1936A,107.2025,34.3518,宝鸡市,文理学院,NA,NA,44,27,14,18,36,36,44,43,NA,12,NA,5,0.4,0.5
2026-05-02T0900,1937A,107.2396,34.3626,宝鸡市,三迪小学,,39,39,27,12,18,35,35,37,36,12,14,5,5,0.5,0.5
2026-05-02T0900,4155A,107.1721,34.3558,宝鸡市,滨河北路,,26,26,25,11,17,32,32,39,38,8,10,7,8,0.5,0.6
2026-05-02T0900,4308A,107.3898,34.3601,宝鸡市,陈仓区北开路21号,,36,36,29,14,19,39,39,37,37,12,13,8,8,0.4,0.5
2026-05-02T0900,1051A,115.4803,38.8568,保定市,游泳馆,颗粒物(PM10),54,55,89,20,52,97,97,72,72,18,22,6,7,0.2,0.4
2026-05-02T0900,1052A,115.509,38.8895,保定市,华电二区,颗粒物(PM10),54,55,73,28,46,75,75,57,57,18,19,4,4,0.5,0.6
2026-05-02T0900,1053A,115.4588,38.9037,保定市,接待中心,颗粒物(PM10),58,61,81,29,45,83,83,67,67,19,19,4,4,0.3,0.4
2026-05-02T0900,1054A,115.4484,38.8344,保定市,地表水厂,颗粒物(PM10),55,56,96,6,43,102,102,72,72,14,19,2,4,0.1,0.3
2026-05-02T0900,3581A,115.3136,38.9511,保定市,满城区生态环境分局,颗粒物(PM10),80,92,114,20,38,99,99,74,74,16,17,6,5,0.3,0.4
2026-05-02T0900,3582A,115.4709,38.7628,保定市,清苑区第二中学,,48,48,104,13,45,90,90,62,62,21,24,7,8,0.2,0.4
2026-05-02T0900,3583A,115.6231,39.0223,保定市,徐水物探局,颗粒物(PM10),81,93,113,33,52,81,81,60,60,22,25,5,5,0.5,0.4
2026-05-02T0900,4004A,115.4199,38.8665,保定市,双鹰农机,颗粒物(PM10),53,54,90,19,49,106,106,76,76,12,18,2,3,0.1,0.4
2026-05-02T0900,4034A,115.515,38.8589,保定市,植保所站,颗粒物(PM10),54,55,92,27,45,92,92,72,72,19,21,2,3,0.3,0.4
2026-05-02T0900,2594A,99.1589,25.1137,保山市,市环境监测站,,24,14,18,3,11,74,74,68,68,7,7,6,6,0.3,0.3
2026-05-02T0900,2595A,99.1616,25.1381,保山市,市环保局,,23,12,22,9,17,72,72,72,71,5,6,7,7,0.3,0.3
2026-05-02T0900,1867A,109.1435,21.4085,北海市,海滩公园,,33,33,34,14,12,79,79,101,96,8,7,6,7,0.7,0.6
2026-05-02T0900,1868A,109.0983,21.466,北海市,新市环保局,,26,14,22,6,14,83,83,103,98,8,8,5,5,0.7,0.6
2026-05-02T0900,1869A,109.1775,21.5232,北海市,北海工业园,,26,20,29,17,19,82,82,108,102,5,5,6,7,0.8,0.8
2026-05-02T0900,3400A,109.1844,21.4396,北海市,龙潭自来水厂,,26,20,23,12,10,82,82,107,102,6,6,8,8,0.9,0.9
2026-05-02T0900,1001A,116.3611,39.8786,北京市,万寿西宫,颗粒物(PM10),61,65,65,24,26,73,73,59,59,28,22,10,7,0.6,0.5
2026-05-02T0900,1003A,116.4174,39.9289,北京市,东四,颗粒物(PM10),63,68,68,32,30,71,71,60,59,29,23,9,7,0.3,0.2
2026-05-02T0900,1004A,116.4073,39.8858,北京市,天坛,颗粒物(PM10),63,67,61,26,25,69,69,42,42,30,20,11,7,0.6,0.5
2026-05-02T0900,1005A,116.4622,39.9364,北京市,农展馆,颗粒物(PM10),62,66,65,28,27,67,67,40,40,22,21,12,7,0.7,0.5
2026-05-02T0900,1006A,116.3399,39.9293,北京市,官园,颗粒物(PM10),65,71,69,28,28,69,69,58,58,33,26,8,6,0.6,0.5
2026-05-02T0900,1007A,116.2879,39.9613,北京市,海淀万柳,颗粒物(PM10),63,67,73,28,30,56,56,30,29,33,30,8,7,0.6,0.6
2026-05-02T0900,1008A,116.6635,40.1349,北京市,顺义新城,颗粒物(PM10),63,67,76,32,29,78,78,54,54,19,18,6,6,0.7,0.6
2026-05-02T0900,1009A,116.6275,40.327,北京市,怀柔镇,颗粒物(PM10),62,66,71,29,29,88,88,83,83,18,10,7,7,0.5,0.5
2026-05-02T0900,1010A,116.2295,40.217,北京市,昌平镇,,48,48,73,23,30,93,93,88,86,15,19,6,6,0.7,0.7
2026-05-02T0900,1011A,116.3968,39.982,北京市,奥体中心,颗粒物(PM10),61,65,64,29,29,68,68,46,46,27,27,10,7,0.6,0.4
2026-05-02T0900,3418A,116.8336,40.4095,北京市,密云新城,颗粒物(PM10),56,58,71,30,30,103,103,76,76,4,9,5,6,0.4,0.4
2026-05-02T0900,3671A,116.0879,39.9725,北京市,门头沟三家店,,47,47,76,23,45,72,72,43,43,17,23,7,5,0.4,0.4
2026-05-02T0900,3672A,116.1507,39.8246,北京市,丰台云岗,颗粒物(PM10),57,59,79,21,36,66,66,52,51,29,24,8,5,0.6,0.6
2026-05-02T0900,3674A,115.9578,39.7602,北京市,房山燕山,颗粒物(PM10),57,59,86,29,42,67,67,59,57,30,20,7,6,0.5,0.5
2026-05-02T0900,3675A,116.4669,39.7734,北京市,大兴旧宫,颗粒物(PM10),63,68,60,31,28,62,62,41,41,30,24,6,4,0.7,0.6
2026-05-02T0900,3694A,115.9859,40.4562,北京市,延庆石河营,颗粒物(PM10),66,72,82,37,36,87,87,84,81,8,10,3,3,0.7,0.7
2026-05-02T0900,3695A,116.6151,40.3052,北京市,怀柔新城,颗粒物(PM10),53,53,67,32,30,94,94,83,83,8,11,7,7,0.6,0.5
2026-05-02T0900,3696A,116.2542,39.8764,北京市,丰台小屯,颗粒物(PM10),59,62,70,25,30,59,59,45,45,30,22,7,5,0.6,0.6
2026-05-02T0900,3697A,116.8399,40.3843,北京市,密云镇,颗粒物(PM10),63,67,71,34,29,70,70,56,54,19,18,5,7,0.7,0.6
2026-05-02T0900,4057A,115.9423,40.4431,北京市,延庆百泉,颗粒物(PM10),64,69,81,32,36,93,93,107,103,15,14,2,2,0.6,0.6
2026-05-02T0900,4058A,116.6598,39.9164,北京市,通州新华,颗粒物(PM10),79,90,79,34,27,54,54,35,34,32,29,10,8,0.8,0.6
2026-05-02T0900,4182A,116.1942,39.9158,北京市,石景山八角,颗粒物(PM10),58,60,79,23,30,80,80,40,40,20,30,9,7,0.5,0.5
2026-05-02T0900,4194A,117.078628,40.151726,北京市,平谷新城,,46,46,65,22,28,74,74,56,56,13,14,6,5,0.8,0.6
2026-05-02T0900,1761A,123.8274146,41.31234549,本溪市,大峪,,44,44,36,14,13,51,51,30,30,22,19,13,7,0.9,0.5
2026-05-02T0900,1763A,123.7169,41.3094,本溪市,彩屯,颗粒物(PM10),65,70,54,42,24,30,30,32,30,63,24,77,14,4.2,0.9
2026-05-02T0900,1764A,123.7672166,41.28649327,本溪市,东明,颗粒物(PM10),63,68,59,27,19,27,27,24,24,49,28,32,8,2.9,0.8
2026-05-02T0900,1765A,123.799345,41.266614,本溪市,新立屯,,40,40,45,3,10,36,36,44,42,28,21,12,9,1.2,0.8
2026-05-02T0900,1766A,123.829144,41.336777,本溪市,威宁,颗粒物(PM10),63,68,57,15,16,51,51,31,31,19,23,11,8,0.8,0.7
2026-05-02T0900,2587A,105.287,27.3133,毕节市,八中,,23,12,28,10,18,72,72,64,64,7,7,7,8,0.6,0.6
2026-05-02T0900,2588A,105.3079,27.2987,毕节市,师专,,21,6,22,3,15,67,67,60,60,7,7,10,10,0.5,0.5
2026-05-02T0900,4263A,105.3688,27.3598,毕节市,工业大道,NA,NA,NA,21,NA,19,67,67,70,70,5,6,10,10,/,/
2026-05-02T0900,1629A,117.9961,37.3604,滨州市,第二水厂,,44,44,73,15,28,95,95,67,67,15,24,12,10,0.6,0.6
2026-05-02T0900,1630A,117.9789,37.3931,滨州市,北中新校,,41,41,58,18,22,98,98,86,84,18,21,11,13,0.4,0.4
2026-05-02T0900,3514A,117.9379,37.3959,滨州市,中海酒店,,39,39,52,22,22,93,93,92,91,21,23,10,11,0.4,0.4
2026-05-02T0900,3515A,117.9381509,37.35547456,滨州市,开发区一中,颗粒物(PM10),51,51,71,18,25,96,96,76,76,19,25,18,13,0.6,0.5
2026-05-02T0900,3516A,118.0914,37.6938,滨州市,金海六路,,34,34,76,21,38,75,75,58,58,23,19,10,10,0.5,0.5
2026-05-02T0900,4028A,117.9955,37.3752,滨州市,滨州市西街道办事处,,44,44,68,16,25,97,97,74,74,17,21,8,8,0.6,0.6
2026-05-02T0900,2311A,115.8071,33.8399,亳州市,污水处理厂,,26,19,30,18,13,78,78,86,83,8,8,6,6,0.1,0.1
2026-05-02T0900,2312A,115.7789,33.8519,亳州市,三国揽胜宫,,25,25,36,17,12,79,79,90,86,8,8,6,6,0.1,0.1
2026-05-02T0900,3332A,115.7631,33.803,亳州市,亳州学院,,28,NA,21,16,12,88,88,99,97,9,8,6,8,0.1,0.1
2026-05-02T0900,2693A,82.0482,44.8553,博尔塔拉蒙古自治州,市党校,颗粒物(PM10),72,80,62,19,14,63,63,78,75,6,5,2,3,0.4,0.4
2026-05-02T0900,2694A,82.0805,44.8966,博尔塔拉蒙古自治州,市环保局,,48,48,59,21,22,59,59,61,61,15,16,4,3,0.3,0.3
2026-05-02T0900,1071A,116.8733,38.2922,沧州市,沧县城建局,颗粒物(PM10),69,76,73,16,34,63,63,87,83,35,21,6,8,0.6,0.7
2026-05-02T0900,1072A,116.8462,38.3189,沧州市,电视转播站,颗粒物(PM10),73,81,69,19,39,67,67,90,86,26,17,9,10,0.3,0.4
2026-05-02T0900,1073A,116.8588,38.3161,沧州市,市环保局,颗粒物(PM10),75,85,82,16,34,77,77,98,95,26,17,6,10,0.5,0.6
2026-05-02T0900,3324A,116.8011,38.294,沧州市,河北水利电力学院,颗粒物(PM10),68,75,70,20,39,72,72,83,82,26,19,9,12,0.2,0.4
2026-05-02T0900,2622A,97.1813,31.1289,昌都市,昌都监测站,,24,14,9,8,4,74,74,79,77,4,5,13,13,0.6,0.5
2026-05-02T0900,3719A,97.1707,31.1428,昌都市,昌都会议中心,,24,11,9,10,7,75,75,80,78,3,4,7,7,0.4,0.4
2026-05-02T0900,2692A,87.2722,44.0298,昌吉回族自治州,新区政务中心,颗粒物(PM10),54,55,30,19,11,36,36,68,67,32,15,6,6,0.7,0.4
2026-05-02T0900,3613A,87.3069,44.0093,昌吉回族自治州,亚心广场,颗粒物(PM10),90,105,47,26,12,65,65,79,79,34,12,6,6,0.4,0.4
2026-05-02T0900,4164A,87.2057,43.9289,昌吉回族自治州,财政所,颗粒物(PM10),78,88,48,16,10,87,87,86,86,10,11,7,8,0.4,0.4
2026-05-02T0900,1120A,125.2874,43.9024,长春市,客车厂,,24,22,37,7,19,74,74,58,58,10,24,6,7,0.3,0.3
2026-05-02T0900,1121A,125.2943,43.8508,长春市,邮电学院,,25,17,37,8,16,78,78,58,58,8,20,7,7,0.3,0.4
2026-05-02T0900,1122A,125.3648,43.8745,长春市,劳动公园,,25,24,36,9,15,78,78,59,59,10,19,9,7,0.4,0.4
2026-05-02T0900,1123A,125.3233,43.8781,长春市,园林处,,28,28,31,9,15,78,78,65,65,9,15,6,7,0.3,0.3
2026-05-02T0900,1124A,125.4604,43.7904,长春市,净月潭,,26,20,27,7,13,82,82,53,53,8,11,6,5,0.3,0.3
2026-05-02T0900,1126A,125.38,43.8422,长春市,经开区环卫处,,26,19,39,7,14,81,81,58,58,10,22,6,5,0.4,0.4
2026-05-02T0900,1127A,125.234,43.7761,长春市,高新区管委会,NA,NA,NA,43,NA,16,NA,NA,43,NA,6,20,NA,8,0.3,0.3
2026-05-02T0900,1128A,125.1695,43.83,长春市,岱山公园,,27,22,41,7,18,86,86,58,58,5,24,4,5,0.3,0.3
2026-05-02T0900,4281A,125.334645,43.916281,长春市,北亚泰大街1068号,,28,28,41,11,19,77,77,62,62,12,24,8,6,0.1,0.2
2026-05-02T0900,1335A,113.082,28.2421,长沙市,经开区环保局,,33,33,30,23,18,69,69,81,77,11,10,8,5,0.6,0.5
2026-05-02T0900,1336A,112.8873,28.2202,长沙市,高开区环保局,,33,29,28,23,18,71,71,78,76,13,11,13,9,0.8,0.5
2026-05-02T0900,1337A,113.0785,28.2012,长沙市,马坡岭,,35,32,30,24,19,65,65,78,74,11,8,9,7,0.9,0.7
2026-05-02T0900,1338A,112.9448,28.1894,长沙市,湖南师范大学,,41,41,33,18,17,74,74,NA,NA,12,13,10,8,0.4,0.4
2026-05-02T0900,1339A,113.0177,28.1322,长沙市,雨花区环保局,,32,32,30,17,16,87,87,83,81,6,9,6,6,0.6,0.6
2026-05-02T0900,1340A,112.9795,28.2593,长沙市,伍家岭,,33,33,31,22,18,62,62,74,69,13,10,7,7,0.8,0.7
2026-05-02T0900,1341A,113.002,28.1944,长沙市,火车新站,,32,31,33,22,19,69,69,73,69,13,12,7,7,0.5,0.4
2026-05-02T0900,1342A,112.9846,28.1177,长沙市,天心区环保局,,30,30,29,20,18,85,85,81,81,10,13,8,8,0.5,0.4
2026-05-02T0900,1343A,112.8906,28.1307,长沙市,湖南中医药大学,,34,34,30,23,18,70,70,70,68,13,16,11,8,0.9,0.7
2026-05-02T0900,1727A,113.1146,36.1547,长治市,清华站,,31,22,20,13,8,98,98,97,97,14,10,8,8,0.6,0.4
2026-05-02T0900,1730A,113.0887,36.2126,长治市,审计局,,29,19,21,16,11,90,90,100,99,9,7,8,8,0.4,0.3
2026-05-02T0900,1731A,113.0845,36.1856,长治市,长治八中,,30,30,27,19,10,78,78,97,95,27,10,9,9,0.6,0.4
2026-05-02T0900,2845A,113.1561,36.1912,长治市,德盛苑,,33,NA,17,19,9,104,104,91,91,14,10,9,8,0.6,0.4
2026-05-02T0900,3568A,113.0603,36.0464,长治市,向阳小学,颗粒物(PM10),63,67,53,18,10,99,99,98,98,17,14,9,8,0.7,0.5
2026-05-02T0900,3569A,112.8788,36.315,长治市,屯留一中,,28,28,20,8,9,60,60,65,61,26,14,9,7,0.7,0.7
2026-05-02T0900,4189A,113.113092,36.199482,长治市,英华南巷50号,,32,23,26,18,10,102,102,103,103,6,7,8,7,0.7,0.5
2026-05-02T0900,4190A,113.23666,36.33435,长治市,学府街1号,,32,29,32,22,8,82,82,81,81,22,11,4,4,0.9,0.5
2026-05-02T0900,1854A,111.696,28.9725,常德市,市二中,细颗粒物(PM2.5),64,NA,35,42,22,62,62,72,67,11,14,11,14,0.9,0.8
2026-05-02T0900,3138A,111.7152,29.0288,常德市,武陵区永安,细颗粒物(PM2.5),96,NA,35,58,19,64,64,81,77,7,4,8,8,0.8,0.7
2026-05-02T0900,3139A,111.6891,28.9881,常德市,鼎城区玉霞,细颗粒物(PM2.5),76,NA,35,48,23,58,58,63,60,12,14,10,13,1.0,0.9
2026-05-02T0900,3140A,111.6651,29.0526,常德市,武陵区长庚,细颗粒物(PM2.5),102,NA,36,62,23,62,62,79,74,13,8,11,10,0.9,0.7
2026-05-02T0900,1196A,119.9524,31.7586,常州市,市监测站,NA,NA,48,38,23,17,NA,NA,109,109,16,18,6,7,0.6,0.7
2026-05-02T0900,1200A,119.9351,31.703,常州市,武进监测站,,46,46,33,23,15,101,101,111,109,17,14,2,3,0.5,0.5
2026-05-02T0900,3002A,119.9701,31.813,常州市,行政中心,,44,44,39,24,17,106,106,107,107,17,18,8,8,0.2,0.4
2026-05-02T0900,3003A,120.0434,31.7726,常州市,经开区,,47,47,38,19,16,110,110,109,108,15,16,16,7,1.8,0.7
2026-05-02T0900,3010A,119.8919,31.7892,常州市,钟楼,,42,42,35,21,16,116,116,129,126,20,19,8,9,0.3,0.3
2026-05-02T0900,3429A,119.8595,31.706,常州市,武进经发区,,44,44,34,28,21,102,102,114,109,23,20,12,10,0.6,0.6
2026-05-02T0900,3430A,119.5812,31.7256,常州市,金坛城区,,46,42,26,32,19,86,86,110,104,20,10,11,9,1.0,0.6
2026-05-02T0900,4089A,119.9551,31.863,常州市,崇义南街5-H号,,39,39,40,21,18,113,113,104,104,13,17,8,8,0.5,0.6
2026-05-02T0900,2220A,120.4318,41.588,朝阳市,西梁,颗粒物(PM10),60,64,37,20,10,39,39,23,23,34,23,16,7,0.8,0.4
2026-05-02T0900,2221A,120.452,41.565,朝阳市,河畔小区,颗粒物(PM10),62,66,27,15,8,50,50,29,29,23,19,20,7,0.7,0.3
2026-05-02T0900,2222A,120.4176,41.5648,朝阳市,八里堡,颗粒物(PM10),63,67,41,24,13,43,43,16,16,33,27,27,8,1.0,0.5
2026-05-02T0900,3026A,116.6179,23.6608,潮州市,市政府,,40,40,39,21,24,92,92,60,59,12,9,6,6,0.6,0.5
2026-05-02T0900,4036A,116.646,23.676,潮州市,金山,,38,38,32,17,20,90,90,50,50,5,7,3,3,0.4,0.4
2026-05-02T0900,2473A,113.0116,25.8228,郴州市,市职中,,34,27,17,21,14,107,107,118,117,9,9,6,6,0.4,0.3
2026-05-02T0900,2475A,113.0381,25.8074,郴州市,市审计局,,30,23,19,21,14,95,95,104,103,7,7,2,3,/,/
2026-05-02T0900,2476A,113.0348,25.7757,郴州市,市环保局,,35,22,19,22,14,109,109,122,121,8,8,6,6,0.4,0.3
2026-05-02T0900,4252A,113.0138,25.8011,郴州市,好美居路49号,,34,28,22,8,11,108,108,118,117,8,9,7,7,/,/
2026-05-02T0900,1431A,103.9727,30.7242,成都市,金泉两河,,33,33,34,22,24,22,22,28,28,14,13,3,3,0.4,0.4
2026-05-02T0900,1432A,104.1423,30.6765,成都市,十里店,,29,22,39,20,25,46,46,50,49,17,12,4,4,0.7,0.6
2026-05-02T0900,1433A,104.0594,30.5765,成都市,三瓦窑,,38,38,40,26,27,35,35,41,39,18,16,4,3,0.5,0.5
2026-05-02T0900,1434A,104.1122,30.6306,成都市,沙河铺,,39,39,44,22,25,22,22,28,27,20,18,2,2,0.7,0.6
2026-05-02T0900,2880A,104.0219,30.6561,成都市,大石西路,,41,41,43,22,27,28,28,35,34,17,15,4,4,0.6,0.6
2026-05-02T0900,3136A,104.2724,30.559,成都市,龙泉驿区区政府,,39,29,32,27,24,42,42,32,32,13,13,7,7,0.6,0.6
2026-05-02T0900,3357A,104.0028,30.6891,成都市,金博路,,25,NA,30,17,23,27,27,29,29,18,14,5,5,0.6,0.6
2026-05-02T0900,3359A,104.056,30.5228,成都市,华阳,,33,27,38,23,24,42,42,44,44,18,16,6,5,0.4,0.4
2026-05-02T0900,3488A,104.387954,30.746684,成都市,青石路225号,,49,41,41,34,28,32,32,22,22,18,18,6,6,0.7,0.6
2026-05-02T0900,3489A,104.0788,30.4054,成都市,科学城,颗粒物(PM10),55,56,41,36,25,40,40,42,41,14,12,6,5,0.5,0.5
2026-05-02T0900,4011A,103.8505,30.6946,成都市,光华大道三段,,22,16,38,15,24,25,25,35,34,12,10,3,3,0.5,0.6
2026-05-02T0900,4144A,104.3257,30.6406,成都市,八角井街185号,,48,48,44,30,26,36,36,24,24,15,14,5,5,0.6,0.6
2026-05-02T0900,4224A,104.2433276,30.53529463,成都市,鲸龙路1057号,,46,41,36,32,22,39,39,34,34,11,14,7,6,0.7,0.6
2026-05-02T0900,1062A,117.9531,40.908,承德市,铁路,NA,NA,51,41,16,15,57,57,64,59,NA,17,4,4,0.5,0.4
2026-05-02T0900,1063A,117.9397,40.9763,承德市,中国银行,颗粒物(PM10),51,51,40,8,13,66,66,55,54,15,10,3,3,0.5,0.4
2026-05-02T0900,4073A,117.9462,40.95,承德市,杏林街1号,颗粒物(PM10),51,51,43,25,16,78,78,82,76,16,9,3,3,0.5,0.4
2026-05-02T0900,4274A,117.7994,40.9605,承德市,滨河大街98号,,43,43,40,6,17,82,82,66,66,16,9,4,7,0.5,0.4
2026-05-02T0900,2314A,117.4698,30.6617,池州市,池州学院,,34,34,25,18,16,38,38,46,42,32,24,4,4,1.8,0.9
2026-05-02T0900,3237A,117.4918,30.6617,池州市,展览馆,,36,36,33,18,13,34,34,41,36,29,20,2,3,1.5,0.8
2026-05-02T0900,3333A,117.5626,30.695,池州市,第八中学,,34,34,26,19,14,38,38,61,59,30,23,4,5,0.6,0.5
2026-05-02T0900,3334A,117.5037,30.6242,池州市,第十二中学,,42,42,28,26,18,31,31,37,32,39,27,6,7,2.4,1.1
2026-05-02T0900,1744A,118.9229,42.2816,赤峰市,松山一中,,36,36,38,8,10,26,26,25,25,34,27,10,11,0.6,0.5
2026-05-02T0900,1745A,118.9588,42.2733,赤峰市,哈达街,,44,44,21,17,10,29,29,38,37,39,24,13,18,0.5,0.5
2026-05-02T0900,1746A,118.8792,42.2551,赤峰市,天义路,,28,28,14,12,9,28,28,35,33,35,22,8,9,0.5,0.5
2026-05-02T0900,3058A,119.2656,42.0356,赤峰市,银河街,,42,42,32,16,11,51,51,30,30,21,18,38,18,0.7,0.5
2026-05-02T0900,3286A,118.9359,42.3146,赤峰市,桥北物流园区,,37,37,19,8,9,32,32,25,25,28,16,4,4,0.4,0.3
2026-05-02T0900,2521A,107.3473,22.4137,崇左市,市环保局江州分局,,48,40,40,33,27,68,68,88,84,12,8,4,3,0.4,0.5
2026-05-02T0900,4256A,107.375,22.3736,崇左市,石景林东路7号,,43,36,36,30,28,69,69,66,64,12,12,4,4,0.6,0.6
2026-05-02T0900,3207A,118.31131,32.3033,滁州市,市政府原办公楼,细颗粒物(PM2.5),60,NA,31,40,24,84,84,108,103,28,15,11,7,0.7,0.4
2026-05-02T0900,3331A,118.3268,32.2633,滁州市,图书馆,,30,28,27,21,14,87,87,104,99,28,17,13,10,0.8,0.6
2026-05-02T0900,4101A,118.3196,32.3335,滁州市,银山路666号,,45,39,31,31,18,88,88,106,103,30,17,13,9,0.7,0.3
2026-05-02T0900,4102A,118.3426,32.2979,滁州市,黄山路555号,颗粒物(PM10),58,61,44,30,19,83,83,112,106,29,12,12,8,1.0,0.7
2026-05-02T0900,2606A,101.5379,25.0492,楚雄彝族自治州,市经济开发区,,23,14,18,14,12,72,72,76,75,6,6,1,1,0.4,0.4
2026-05-02T0900,4153A,101.5536,25.0343,楚雄彝族自治州,团结路562号,,24,11,14,11,12,76,76,74,74,4,4,3,3,0.3,0.3
2026-05-02T0900,2549A,107.5087,31.2186,达州市,市环境监测站,,12,12,42,3,17,27,27,35,35,24,32,5,7,0.3,0.4
2026-05-02T0900,2550A,107.4988,31.2132,达州市,凤凰小区,,17,17,38,6,16,30,30,38,38,23,27,4,7,0.3,0.3
2026-05-02T0900,2551A,107.5081,31.1987,达州市,达县机关宾馆,,16,12,41,3,20,22,22,26,26,32,40,4,7,0.4,0.4
2026-05-02T0900,2552A,107.4644,31.2124,达州市,市政中心,,15,15,41,6,15,30,30,49,46,28,26,4,6,0.3,0.4
2026-05-02T0900,2614A,100.2168,25.5818,大理白族自治州,大理市环境监测站,,30,8,13,6,9,93,93,95,94,9,8,4,4,0.5,0.5
2026-05-02T0900,2615A,100.1542,25.7055,大理白族自治州,大理古城,,22,NA,16,10,14,70,70,78,78,17,8,5,4,0.8,0.8
2026-05-02T0900,1109A,121.6119,38.974,大连市,甘井子,,48,48,51,30,28,86,86,48,48,25,35,14,12,0.4,0.5
2026-05-02T0900,1110A,121.565,38.9509,大连市,周水子,颗粒物(PM10),58,61,74,24,26,48,48,25,25,55,42,8,7,0.9,0.8
2026-05-02T0900,1111A,121.5637,38.8849,大连市,星海三站,,42,42,51,18,24,75,75,56,56,27,20,9,8,0.5,0.5
2026-05-02T0900,1112A,121.6301,38.9117,大连市,青泥洼桥,颗粒物(PM10),54,55,54,21,25,92,92,69,69,24,26,9,7,0.5,0.6
2026-05-02T0900,1113A,121.6248,38.8643,大连市,傅家庄,,45,45,42,20,20,90,90,73,73,17,19,10,9,0.5,0.5
2026-05-02T0900,1114A,121.5117,38.8636,大连市,七贤岭,,50,50,35,23,18,55,55,67,63,34,18,9,7,0.5,0.4
2026-05-02T0900,1116A,121.7507,39.1339,大连市,金州,,36,32,48,13,25,113,113,97,97,8,18,7,10,0.4,0.5
2026-05-02T0900,1117A,121.7811,39.0495,大连市,开发区,颗粒物(PM10),53,54,70,24,28,84,84,71,71,41,34,10,14,0.4,0.4
2026-05-02T0900,1118A,121.9762,39.0631,大连市,双D港,NA,NA,NA,67,24,24,92,92,85,85,13,17,7,8,0.7,0.6
2026-05-02T0900,4082A,121.2548,38.8188,大连市,旅顺,,49,49,59,22,27,61,61,59,58,36,19,9,8,0.5,0.5
2026-05-02T0900,1789A,124.8085,46.0381,大庆市,大同区,,30,21,26,9,9,94,94,80,80,2,4,3,2,0.3,0.3
2026-05-02T0900,1790A,125.1166,46.5255,大庆市,龙凤区,,41,41,35,16,11,73,73,63,63,8,9,5,4,0.2,0.2
2026-05-02T0900,1791A,124.8894,46.4007,大庆市,红岗区,,27,27,26,10,19,80,80,66,66,4,5,11,10,0.2,0.3
2026-05-02T0900,1792A,125.1391,46.578,大庆市,萨尔图区,,29,29,28,15,8,75,75,66,66,12,10,7,7,0.3,0.2
2026-05-02T0900,1793A,124.9026,46.6217,大庆市,让胡路区,,26,26,29,10,11,74,74,64,64,4,4,1,1,0.3,0.3
2026-05-02T0900,3481A,125.127,46.6277,大庆市,萨区政府监测点,,28,28,24,15,9,73,73,60,60,5,4,8,8,0.3,0.3
2026-05-02T0900,1723A,113.2926,40.0759,大同市,云冈宾馆,,48,48,66,30,27,85,85,94,90,9,21,5,10,0.7,0.9
2026-05-02T0900,1724A,113.3437,40.0921,大同市,大同大学,颗粒物(PM10),73,81,76,12,29,78,78,99,92,11,18,3,6,0.3,0.7
2026-05-02T0900,1725A,113.2637,40.129,大同市,安家小村,颗粒物(PM10),88,102,68,26,25,73,73,95,90,8,17,6,10,0.2,0.4
2026-05-02T0900,3282A,113.3399,40.0586,大同市,大同市卫生学校,NA,NA,NA,70,NA,27,NA,NA,102,100,NA,23,NA,9,NA,0.7
2026-05-02T0900,3565A,113.1371,40.1122,大同市,云冈站,颗粒物(PM10),88,103,72,12,20,84,84,62,62,6,19,5,10,0.3,0.5
2026-05-02T0900,3566A,113.1186,40.2556,大同市,图书馆,颗粒物(PM10),77,87,58,13,17,86,86,73,73,5,14,6,8,0.4,0.5
2026-05-02T0900,3567A,113.5931,40.0459,大同市,区一中,,38,38,63,14,22,85,85,108,100,7,16,2,4,0.3,0.5
2026-05-02T0900,4199A,113.2798248,40.09972476,大同市,魏都大道141号,颗粒物(PM10),90,106,76,10,23,84,84,86,82,8,20,7,11,0.4,0.7
2026-05-02T0900,2269A,124.1068,50.4091,大兴安岭地区,科技局,,25,10,18,3,6,78,78,72,72,2,2,5,5,0.3,0.2
2026-05-02T0900,3663A,124.117,50.4279,大兴安岭地区,红旗社区,,28,NA,6,6,5,87,87,73,73,3,5,6,6,0.2,0.2
2026-05-02T0900,1600A,124.33,40.0625,丹东市,江湾东路,,47,47,67,22,39,71,71,58,58,17,19,11,7,0.8,0.7
2026-05-02T0900,1601A,124.4242,40.1513,丹东市,临江后街,,28,27,62,19,43,57,57,52,50,19,18,7,8,0.5,0.6
2026-05-02T0900,1602A,124.3935,40.1461,丹东市,元宝山,,35,35,62,16,43,53,53,35,33,23,24,7,8,0.6,0.7
2026-05-02T0900,1603A,124.3634,40.1093,丹东市,民主桥,NA,NA,40,74,21,49,NA,NA,30,30,24,26,12,9,0.8,0.8
2026-05-02T0900,3541A,109.5726195,19.51688767,儋州市,第一中学子站,,24,24,28,14,16,51,51,57,55,7,6,4,4,0.5,0.5
2026-05-02T0900,3542A,109.5567,19.5187,儋州市,东坡学校子站,,27,27,25,18,16,58,58,64,61,10,6,4,4,0.6,0.5
2026-05-02T0900,2616A,98.5611,24.4273,德宏傣族景颇族自治州,德宏州监测站,,18,NA,14,12,17,51,51,46,46,6,7,7,8,1.0,1.2
2026-05-02T0900,3677A,98.5887,24.4366,德宏傣族景颇族自治州,芒市人民政府综合楼,,26,26,44,13,17,51,51,51,51,8,9,3,3,1.0,0.9
2026-05-02T0900,1901A,104.424,31.1209,德阳市,东山公园,细颗粒物(PM2.5),60,NA,27,40,24,25,25,20,20,20,12,3,3,0.7,0.5
2026-05-02T0900,1902A,104.3827,31.1318,德阳市,西小区,颗粒物(PM10),53,53,45,30,28,29,29,32,32,31,19,6,4,0.8,0.5
2026-05-02T0900,1904A,104.3553,31.1091,德阳市,耐火材料厂,,42,42,41,26,30,36,36,24,24,22,18,3,3,0.5,0.5
2026-05-02T0900,4145A,104.4144,31.1495,德阳市,市林业局,,50,41,35,35,26,32,32,33,33,26,18,4,3,0.6,0.5
2026-05-02T0900,1622A,116.3034,37.4675,德州市,儿童乐园,,34,22,69,7,18,108,108,114,114,12,12,7,9,0.5,0.6
2026-05-02T0900,1624A,116.2992,37.4449,德州市,监理站,,30,19,59,8,18,94,94,106,105,14,12,10,12,0.3,0.4
2026-05-02T0900,3066A,116.2722,37.438,德州市,九衢泉纯净水厂,,29,29,62,10,19,72,72,94,92,22,19,3,6,0.6,0.7
2026-05-02T0900,3371A,116.3693,37.44,德州市,开发区人民医院,,32,31,64,3,18,102,102,110,110,15,15,9,11,0.5,0.5
2026-05-02T0900,3511A,116.5687,37.3331,德州市,陵城艺术中心,,28,27,53,7,19,88,88,101,99,15,14,9,13,0.6,0.7
2026-05-02T0900,4292A,116.352738,37.420875,德州市,新河东路,,34,34,58,6,19,88,88,105,105,19,13,8,10,0.6,0.7
2026-05-02T0900,2621A,99.7054,27.8319,迪庆藏族自治州,迪庆州站,,27,18,15,3,6,86,86,90,88,9,8,7,7,0.2,0.2
2026-05-02T0900,3180A,99.7122,27.8129,迪庆藏族自治州,质量技术监督局,,28,10,13,3,7,88,88,97,95,10,7,8,8,0.3,0.3
2026-05-02T0900,4257A,104.6092,35.5962,定西市,将台街,颗粒物(PM10),62,66,59,11,18,100,100,100,100,8,6,4,3,0.0,0
2026-05-02T0900,4309A,104.6159,35.5701,定西市,正龙路62号,颗粒物(PM10),61,65,60,12,17,97,97,97,97,10,8,3,2,0.2,0.2
2026-05-02T0900,4071A,114.9883,38.5232,定州市,交通局,,48,48,116,16,42,104,104,97,97,13,20,5,5,0.3,0.5
2026-05-02T0900,4072A,115.0045,38.5136,定州市,第五中学,颗粒物(PM10),56,58,119,17,45,104,104,91,91,12,21,4,4,0.3,0.5
2026-05-02T0900,1390A,113.7943,23.0132,东莞市,东城石井,,31,31,27,17,15,82,82,70,69,17,17,6,6,0.7,0.7
2026-05-02T0900,1391A,113.7384,22.9659,东莞市,南城西平,,31,31,26,15,13,77,77,75,75,14,14,5,4,0.5,0.5
2026-05-02T0900,3319A,113.7283,23.041,东莞市,万江金泰,,48,35,30,33,27,75,75,76,75,17,14,6,6,0.3,0.3
2026-05-02T0900,4129A,113.8666,23.1062,东莞市,裕兴路,,37,37,32,18,14,79,79,84,82,10,11,8,7,0.6,0.6
2026-05-02T0900,4130A,114.0076,22.9739,东莞市,教育路1号,,28,28,28,13,14,89,89,79,76,12,12,6,5,0.5,0.5
2026-05-02T0900,4131A,113.7981,22.8124,东莞市,长怡路1号,,35,35,34,16,15,79,79,74,74,17,17,6,7,0.7,0.7
2026-05-02T0900,1666A,118.6612,37.4313,东营市,市环保局,颗粒物(PM10),67,73,66,25,30,75,75,70,70,36,21,18,15,0.7,0.5
2026-05-02T0900,3036A,118.6903,37.4337,东营市,开发区管委会,颗粒物(PM10),73,82,71,33,29,79,79,76,76,41,25,15,13,0.8,0.6
2026-05-02T0900,3365A,118.5721,37.5654,东营市,垦利区民丰路,颗粒物(PM10),67,73,66,29,32,99,99,73,73,28,22,19,15,0.8,0.7
2026-05-02T0900,3498A,118.5063,37.8606,东营市,河口城区,颗粒物(PM10),72,80,73,45,32,85,85,98,93,28,15,17,12,1.0,0.8
2026-05-02T0900,3646A,118.4979,37.4623,东营市,胜利站,细颗粒物(PM2.5),68,61,57,44,37,62,62,71,68,48,27,13,10,1.1,0.9
2026-05-02T0900,3734A,118.5753,37.4405,东营市,理想之城,颗粒物(PM10),83,95,72,42,36,66,66,56,56,39,28,15,11,0.9,0.7
2026-05-02T0900,1591A,110.0024,39.8127,鄂尔多斯市,综合楼,,24,17,54,6,19,75,75,86,84,15,14,4,6,0.4,0.5
2026-05-02T0900,1592A,109.9485,39.8259,鄂尔多斯市,巴音孟克林场办事处,,23,17,39,12,19,72,72,86,82,13,10,4,6,0.2,0.3
2026-05-02T0900,1593A,109.7734,39.5987,鄂尔多斯市,康泽苑,,24,24,44,10,15,75,75,88,84,8,8,9,9,0.3,0.3
2026-05-02T0900,1594A,109.8121,39.5987,鄂尔多斯市,华泰汽车城,,23,19,45,15,19,71,71,83,78,10,8,5,6,0.4,0.4
2026-05-02T0900,1595A,109.9734,39.7884,鄂尔多斯市,奥林花园,,24,24,47,13,13,76,76,86,83,13,12,5,5,0.4,0.4
2026-05-02T0900,2436A,114.894,30.3989,鄂州市,市政府,,32,32,26,13,11,64,64,85,82,31,17,12,11,0.7,0.4
2026-05-02T0900,2437A,114.8986,30.3714,鄂州市,赵家坝,,29,29,24,8,10,58,58,78,74,21,7,14,13,1.1,0.8
2026-05-02T0900,3654A,114.8093,30.4091,鄂州市,精准医疗中心,,45,45,32,19,17,54,54,63,60,30,19,7,14,0.9,1.3
2026-05-02T0900,2454A,109.4978,30.2979,恩施土家族苗族自治州,湖北民院,,30,NA,36,21,27,52,52,47,47,10,18,7,8,0.4,0.5
2026-05-02T0900,3549A,109.5061,30.3771,恩施土家族苗族自治州,龙凤新区,,26,20,52,18,24,30,30,37,36,14,14,7,7,0.5,0.5
2026-05-02T0900,2499A,108.3411,21.6159,防城港市,沙万,,25,18,36,17,20,66,66,82,79,18,19,8,7,0.6,0.6
2026-05-02T0900,2500A,108.3515,21.7733,防城港市,防城档案局,,30,29,35,21,26,54,54,78,72,12,10,7,9,0.7,0.6
2026-05-02T0900,2501A,108.3506,21.6414,防城港市,大海花园,,26,26,33,18,23,70,70,86,84,21,15,11,11,1.3,0.9
2026-05-02T0900,1371A,113.1293,23.0065,佛山市,湾梁,,39,39,25,21,18,62,62,63,62,19,14,/,/,/,/
2026-05-02T0900,1372A,113.1082,23.0477,佛山市,华材职中,,31,31,26,20,16,67,67,67,66,19,15,4,4,0.4,0.4
2026-05-02T0900,1373A,113.1439,23.045,佛山市,南海气象局,,35,35,29,19,19,61,61,64,63,24,18,/,/,/,/
2026-05-02T0900,1374A,113.2879,22.8094,佛山市,顺德苏岗,,24,18,16,13,16,76,76,67,67,12,13,/,/,0.6,0.6
2026-05-02T0900,1376A,112.8384,22.8678,佛山市,高明孔堂,,35,35,27,16,15,62,62,59,57,14,14,/,/,/,/
2026-05-02T0900,1377A,112.8835,23.1584,佛山市,三水监测站,,36,36,26,20,16,40,40,50,46,34,24,3,4,0.6,0.5
2026-05-02T0900,1378A,112.8668,23.185,佛山市,三水云东海,颗粒物(PM10),53,53,39,22,17,45,45,64,59,28,18,/,/,/,/
2026-05-02T0900,3625A,113.2568,22.7629,佛山市,容桂街道办,,24,24,21,14,18,75,75,70,70,15,18,/,/,/,/
2026-05-02T0900,1282A,119.2681,26.0506,福州市,师大,,38,36,29,14,16,119,119,104,104,8,12,4,4,0.4,0.4
2026-05-02T0900,1283A,119.2983,26.1028,福州市,五四北路,,39,39,28,17,15,108,108,104,104,15,16,4,5,0.3,0.3
2026-05-02T0900,1284A,119.2648,26.0769,福州市,杨桥西路,,35,34,27,15,14,112,112,98,98,9,11,4,4,/,/
2026-05-02T0900,3048A,119.5799,26.0937,福州市,九龙,,42,42,25,17,14,99,99,105,102,20,11,6,6,0.3,0.2
2026-05-02T0900,3526A,119.5188,25.9666,福州市,吴航,,35,30,25,20,18,111,111,89,88,17,15,6,6,0.4,0.3
2026-05-02T0900,4104A,119.3106,26.0648,福州市,路通桥巷6号,,35,33,25,19,18,111,111,106,106,11,11,/,/,/,/
2026-05-02T0900,1755A,123.7974,41.8494,抚顺市,望花区,,42,32,49,29,19,62,62,33,33,30,23,14,10,1.0,0.6
2026-05-02T0900,1756A,123.9161,41.8827,抚顺市,顺城区,,38,38,45,17,23,62,62,33,33,26,27,13,11,0.6,0.6
2026-05-02T0900,1757A,124.0437,41.8615,抚顺市,东洲区,,30,30,37,13,14,60,60,50,50,15,15,11,10,0.5,0.5
2026-05-02T0900,1758A,123.9246,41.8638,抚顺市,新抚区,,47,47,54,26,23,57,57,29,29,28,27,11,9,0.6,0.5
2026-05-02T0900,1759A,124.0972,41.8961,抚顺市,大伙房水库,,32,32,36,9,12,67,67,48,48,12,15,9,9,0.4,0.4
2026-05-02T0900,1760A,123.708,41.8386,抚顺市,沈抚新城,颗粒物(PM10),61,65,64,28,19,50,50,21,21,37,33,21,12,1.9,0.8
2026-05-02T0900,2377A,116.3544,27.9833,抚州市,市站,,22,22,21,8,13,53,53,53,53,9,8,2,4,0.7,0.5
2026-05-02T0900,2378A,116.3562,27.9631,抚州市,血防站,,24,24,22,8,9,51,51,56,54,11,9,7,7,0.5,0.5
2026-05-02T0900,2379A,116.3561,28.0007,抚州市,采茶剧团,,29,29,23,15,13,52,52,53,52,11,9,11,10,0.7,0.6
2026-05-02T0900,2380A,116.3854,27.9648,抚州市,医学分院,,27,27,22,8,8,53,53,57,56,10,7,6,6,1.0,0.9
2026-05-02T0900,2207A,121.6095,41.9978,阜新市,工业园区,细颗粒物(PM2.5),107,100,52,67,21,22,22,17,16,52,26,24,8,0.6,0.3
2026-05-02T0900,2208A,121.6567,42.0188,阜新市,长青街,颗粒物(PM10),77,87,33,45,12,14,14,10,10,52,26,20,7,0.6,0.4
2026-05-02T0900,2209A,121.6672,42.07,阜新市,农业园区,颗粒物(PM10),54,55,28,23,5,48,48,64,63,31,12,18,7,0.6,0.4
2026-05-02T0900,2211A,121.6343,42.0455,阜新市,玉龙新城,颗粒物(PM10),75,85,56,38,14,17,17,5,5,51,34,17,8,0.7,0.4
2026-05-02T0900,2301A,115.8276,32.8929,阜阳市,市监测站,颗粒物(PM10),51,51,39,29,15,66,66,88,82,26,14,8,7,0.6,0.4
2026-05-02T0900,2303A,115.8551,32.8606,阜阳市,开发区,颗粒物(PM10),54,55,42,31,16,65,65,82,77,27,16,6,5,0.6,0.5
2026-05-02T0900,2875A,115.783962,32.889217,阜阳市,阜阳职业技术学院,,49,49,31,29,14,69,69,95,88,24,13,10,8,0.6,0.4
2026-05-02T0900,3468A,115.79,32.8614,阜阳市,市规划展馆,,47,47,35,26,14,74,74,97,91,23,10,11,9,0.7,0.5
2026-05-02T0900,3469A,115.835101,32.918568,阜阳市,枣园社区,,49,49,38,34,17,65,65,85,79,24,17,10,8,0.6,0.5
2026-05-02T0900,2669A,102.9097,34.9841,甘南藏族自治州,州政府,,27,19,23,3,9,86,86,89,89,7,5,5,5,0.2,0.2
2026-05-02T0900,3380A,102.8915,34.9618,甘南藏族自治州,甘肃民族师范学院,,32,24,18,8,9,100,100,103,103,3,4,3,2,0.2,0.3
2026-05-02T0900,2570A,101.96,30.048,甘孜藏族自治州,水桥子,,20,6,9,3,3,64,64,76,72,9,5,6,7,0.3,0.2
2026-05-02T0900,3065A,101.9534,29.9976,甘孜藏族自治州,州环保局,,23,6,10,3,6,72,72,80,78,8,8,7,8,0.2,0.2
2026-05-02T0900,2363A,114.9368,25.8663,赣州市,地委,,27,27,27,14,12,79,79,80,80,7,5,2,3,0.6,0.6
2026-05-02T0900,2364A,114.946,25.8483,赣州市,气象台,,29,29,22,16,15,77,77,79,79,7,8,6,5,0.7,0.6
2026-05-02T0900,2365A,114.932,25.8332,赣州市,市图书馆,,25,18,19,11,13,77,77,79,79,8,8,4,4,0.4,0.3
2026-05-02T0900,2366A,114.8905,25.8472,赣州市,华坚鞋城,,24,24,22,16,13,76,76,79,79,10,9,6,8,0.4,0.4
2026-05-02T0900,3109A,115.0094,25.8614,赣州市,赣县区卫计委,,35,35,28,9,12,67,67,81,80,20,12,3,3,0.4,0.3
2026-05-02T0900,2684A,106.2753,36.0057,固原市,监测站,颗粒物(PM10),69,76,56,18,21,95,95,86,86,7,8,7,6,0.3,0.3
2026-05-02T0900,2685A,106.2384,36.0189,固原市,新区,颗粒物(PM10),58,61,52,17,20,95,95,86,86,5,6,6,6,0.4,0.4
2026-05-02T0900,2544A,106.6307,30.4577,广安市,市委,,18,NA,34,12,24,46,46,60,57,11,11,6,7,0.4,0.4
2026-05-02T0900,2545A,106.6266,30.4662,广安市,友谊中学,,16,11,32,11,21,47,47,58,56,13,9,7,7,0.6,0.5
2026-05-02T0900,2547A,106.6386,30.4551,广安市,广电花园,,29,NA,34,20,27,40,40,56,53,18,14,6,6,0.5,0.4
2026-05-02T0900,2902A,106.6347,30.4868,广安市,北辰小学,,19,13,35,13,25,53,53,55,55,10,9,5,7,0.4,0.4
2026-05-02T0900,2524A,105.8211,32.4444,广元市,老城,,24,24,27,10,9,49,49,38,37,25,20,2,2,0.5,0.5
2026-05-02T0900,2526A,105.8629,32.429,广元市,监测站,,41,41,32,11,11,46,46,43,42,21,19,4,4,0.5,0.5
2026-05-02T0900,3617A,105.8047,32.4167,广元市,经开区,,36,36,24,19,13,32,32,44,41,30,20,8,3,0.7,0.6
2026-05-02T0900,1345A,113.2346,23.1423,广州市,广雅中学,,31,31,28,15,15,63,63,61,60,24,19,2,3,0.7,0.7
2026-05-02T0900,1346A,113.2611,23.105,广州市,市五中,,34,34,31,19,18,72,72,69,69,25,21,4,4,/,/
2026-05-02T0900,1348A,113.3477,23.0916,广州市,广东商学院,NA,NA,32,26,8,12,64,64,55,55,21,20,5,5,NA,0.8
2026-05-02T0900,1349A,113.4332,23.105,广州市,市八十六中,,34,34,26,17,12,58,58,60,60,30,24,11,8,/,/
2026-05-02T0900,1350A,113.3506,22.9488,广州市,番禺中学,,34,34,27,15,14,67,67,61,61,18,16,4,5,0.5,0.5
2026-05-02T0900,1351A,113.2147,23.3918,广州市,花都师范,,47,47,36,25,20,48,48,60,56,37,22,7,7,0.8,0.7
2026-05-02T0900,1352A,113.2599,23.1329,广州市,市监测站,,23,21,25,16,18,59,59,58,57,16,14,3,3,/,/
2026-05-02T0900,1353A,113.5618,23.3119,广州市,九龙镇镇龙,,34,34,34,18,20,72,72,64,64,17,18,7,7,0.5,0.5
2026-05-02T0900,1354A,113.2764,23.1544,广州市,麓湖,,30,30,30,16,18,69,69,67,66,21,18,4,4,0.3,0.3
2026-05-02T0900,2846A,113.3209,23.1323,广州市,体育西,,36,36,31,15,14,61,61,60,59,32,24,6,6,0.6,0.6
2026-05-02T0900,3298A,113.5718,23.5493,广州市,从化街口,,36,36,33,21,20,62,62,69,68,14,13,5,5,0.7,0.6
2026-05-02T0900,3299A,113.3463,23.369,广州市,白云竹料,,38,38,33,20,17,61,61,58,56,20,18,4,4,0.7,0.6
2026-05-02T0900,3300A,113.2981,23.2365,广州市,白云嘉禾,,40,40,34,21,17,58,58,52,51,28,24,10,8,/,/
2026-05-02T0900,3301A,113.4256,23.1716,广州市,黄埔科学城,,39,39,31,23,18,52,52,52,50,17,17,6,6,0.7,0.7
2026-05-02T0900,3302A,113.3942,23.0485,广州市,番禺大学城,,33,33,30,16,14,76,76,69,68,25,21,8,8,0.4,0.4
2026-05-02T0900,3303A,113.4923,22.8169,广州市,南沙黄阁,,27,23,27,13,17,84,84,82,82,19,18,6,6,/,/
2026-05-02T0900,3304A,113.534,22.7893,广州市,南沙街,,30,30,26,14,14,81,81,79,79,23,20,6,7,0.4,0.5
2026-05-02T0900,3443A,113.2905,23.5541,广州市,花都梯面,,34,34,33,17,18,66,66,65,65,18,16,8,8,/,/
2026-05-02T0900,3445A,113.786,23.7479,广州市,从化良口,,23,23,20,16,14,46,46,44,43,12,11,5,5,/,/
2026-05-02T0900,3446A,113.805,23.2614,广州市,增城荔城,,28,28,27,16,18,89,89,76,76,10,13,7,7,0.5,0.5
2026-05-02T0900,2506A,109.604387,23.066791,贵港市,江南子站,,44,44,43,25,28,72,72,74,72,23,14,21,13,0.7,0.7
2026-05-02T0900,2508A,109.5669,23.1065,贵港市,荷城子站,,39,36,36,27,27,73,73,74,72,17,14,8,8,0.8,0.8
2026-05-02T0900,3405A,109.5886,23.1172,贵港市,新世纪学校,细颗粒物(PM2.5),66,NA,37,43,31,75,75,77,74,17,15,/,/,0.5,0.5
2026-05-02T0900,4260A,109.5933,23.095,贵港市,中山路155-3号,,47,47,43,32,30,72,72,83,78,20,12,/,/,0.5,0.5
2026-05-02T0900,1439A,106.6863,26.6035,贵阳市,马鞍山,,36,29,27,25,18,48,48,79,74,11,9,2,4,/,/
2026-05-02T0900,1441A,106.6241,26.6266,贵阳市,鉴湖路,,29,29,41,20,19,65,65,84,81,9,8,6,7,0.7,0.7
2026-05-02T0900,1442A,106.7468,26.6344,贵阳市,燕子冲,,43,34,36,30,19,52,52,78,74,10,8,9,9,0.8,0.7
2026-05-02T0900,1443A,106.6556,26.4362,贵阳市,碧云窝,,41,41,40,26,18,61,61,86,82,8,6,5,6,/,/
2026-05-02T0900,1445A,106.6963,26.6063,贵阳市,红边门,,48,NA,36,33,20,57,57,78,75,11,11,4,6,/,/
2026-05-02T0900,1446A,106.7162383,26.56964667,贵阳市,新华路,,40,36,38,28,18,62,62,84,81,15,11,4,9,0.5,0.5
2026-05-02T0900,1447A,106.6742,26.542,贵阳市,太慈桥,,46,34,32,32,21,54,54,71,68,11,8,4,4,/,/
2026-05-02T0900,4230A,106.688212,26.56952,贵阳市,花果园大街66号,,39,NA,20,27,18,57,57,82,78,12,8,2,3,/,/
2026-05-02T0900,4231A,106.687268,26.516892,贵阳市,漓江路57号,,35,34,26,24,19,60,60,77,74,12,9,5,6,0.6,0.6
2026-05-02T0900,1864A,110.3091,25.2705,桂林市,龙隐路小学,,40,38,32,28,21,82,82,86,85,12,8,6,6,0.6,0.5
2026-05-02T0900,1865A,110.2849361,25.22909545,桂林市,八中,,33,33,32,21,14,79,79,82,81,8,8,5,6,0.6,0.6
2026-05-02T0900,3531A,110.296,25.1254,桂林市,旅游学院,,49,41,35,34,20,81,81,87,85,14,8,9,10,0.4,0.4
2026-05-02T0900,4222A,110.1835,25.2444,桂林市,环湖路276号,NA,NA,NA,29,31,21,NA,NA,84,82,7,7,4,4,0.6,0.5
2026-05-02T0900,4301A,110.2803,25.2773,桂林市,信义路13号,,38,30,34,26,17,85,85,90,88,9,8,6,6,0.8,0.7
2026-05-02T0900,2674A,100.2262,34.4854,果洛藏族自治州,玛沁县大武镇,,45,45,45,20,17,92,92,93,93,7,2,23,17,0.5,0.3
2026-05-02T0900,1130A,126.5557,45.8109,哈尔滨市,松北商大,NA,NA,39,29,21,16,NA,NA,60,60,6,11,5,5,0.7,0.6
2026-05-02T0900,1132A,126.6162,45.719,哈尔滨市,南岗学府路,,43,43,39,20,13,85,85,68,68,9,14,6,6,0.2,0.2
2026-05-02T0900,1133A,126.6894,45.7733,哈尔滨市,太平宏伟公园,,33,33,32,19,14,84,84,72,72,11,15,5,6,0.6,0.6
2026-05-02T0900,1134A,126.6361,45.7672,哈尔滨市,道外承德广场,颗粒物(PM10),52,52,48,17,11,81,81,68,68,9,18,7,7,0.6,0.6
2026-05-02T0900,1136A,126.644,45.7261,哈尔滨市,动力和平路,,41,41,34,12,12,86,86,72,72,10,15,6,6,0.2,0.2
2026-05-02T0900,1137A,126.5933,45.7479,哈尔滨市,道里建国路,,45,45,30,24,17,87,87,70,70,8,15,9,9,0,0
2026-05-02T0900,1138A,126.6127,45.6119,哈尔滨市,平房东轻厂,,29,21,31,17,12,91,91,57,57,11,19,12,11,0.5,0.4
2026-05-02T0900,1139A,126.5875,45.9827,哈尔滨市,呼兰师专,,40,40,33,14,9,76,76,59,59,10,16,10,10,0.5,0.4
2026-05-02T0900,1140A,126.6299,45.6799,哈尔滨市,省农科院,,49,49,47,26,15,87,87,69,69,6,14,6,7,0.4,0.3
2026-05-02T0900,4282A,126.6769,45.7379,哈尔滨市,华山路1号,,44,44,31,20,12,87,87,73,73,4,12,1,3,0.4,0.5
2026-05-02T0900,4283A,126.9717,45.5356,哈尔滨市,解放大街52号,颗粒物(PM10),54,55,45,9,10,90,90,57,57,12,17,8,7,0.4,0.4
2026-05-02T0900,2688A,93.5124,42.8176,哈密市,地区监测站,,29,29,33,14,21,80,80,75,75,9,12,10,11,0.0,0.1
2026-05-02T0900,2689A,93.5014,42.8312,哈密市,哈密师范学校,,30,30,41,8,18,70,70,64,64,16,15,11,11,0.1,0.1
2026-05-02T0900,2671A,100.9016,36.9464,海北藏族自治州,海晏县西海镇,,33,13,17,11,12,104,104,104,104,1,2,7,8,0.4,0.4
2026-05-02T0900,3867A,102.074,36.5056,海东市,平安区公安局北苑,,25,25,29,9,16,79,79,94,92,21,15,6,10,0.5,0.5
2026-05-02T0900,4163A,102.0984,36.5119,海东市,滨河路,,21,10,19,10,16,66,66,70,70,26,27,5,7,0.6,0.7
2026-05-02T0900,1410A,110.3189,20.0596,海口市,海南大学,,26,22,22,16,14,83,83,85,84,5,5,5,5,0.5,0.4
2026-05-02T0900,1411A,110.2827,20.0051,海口市,秀英海南医院,,25,22,19,17,16,68,68,61,59,11,11,5,6,0.4,0.4
2026-05-02T0900,1412A,110.3391,19.9979,海口市,海南师范大学,,26,26,22,16,15,73,73,76,74,7,7,3,3,0.5,0.5
2026-05-02T0900,1413A,110.3303,20.0359,海口市,龙华路环保局宿舍,,25,21,21,16,14,78,78,83,82,8,7,/,/,0.3,0.5
2026-05-02T0900,3539A,110.5111,19.9737,海口市,桂林洋子站,,24,24,28,12,15,69,69,62,61,9,7,/,/,/,/
2026-05-02T0900,4134A,110.1952,20.0451,海口市,长滨二路9号,,24,24,17,15,14,71,71,74,72,6,5,/,/,/,/
2026-05-02T0900,2673A,100.6158,36.2985,海南藏族自治州,共和县恰卜恰镇,,42,33,53,14,21,134,134,130,130,2,5,11,11,0.2,0.2
2026-05-02T0900,2676A,97.373,37.376,海西蒙古族藏族自治州,德令哈市,,47,28,63,16,21,148,148,159,156,3,2,16,16,0.5,0.3
2026-05-02T0900,1049A,114.492,36.5712,邯郸市,矿院,,26,21,38,13,22,82,82,96,92,8,6,3,6,0.4,0.4
2026-05-02T0900,1050A,114.4839,36.6136,邯郸市,丛台公园,,29,9,31,3,15,90,90,105,102,6,5,4,6,0.4,0.4
2026-05-02T0900,3458A,114.7893,36.5592,邯郸市,香泉濮院小区,,28,22,50,7,22,88,88,95,94,10,9,1,2,0.2,0.3
2026-05-02T0900,3580A,114.1998,36.4439,邯郸市,峰峰矿区临水派出所,NA,NA,NA,NA,NA,NA,NA,NA,128,NA,NA,NA,NA,NA,NA,NA
2026-05-02T0900,4068A,114.5209,36.7697,邯郸市,建安街268号,,30,29,43,9,15,93,93,96,94,11,9,2,3,0.7,0.4
2026-05-02T0900,4069A,114.5488,36.6177,邯郸市,丛台东路558号,,29,26,36,3,13,90,90,92,89,8,7,4,4,0.4,0.4
2026-05-02T0900,2635A,107.0155,33.0707,汉中市,市监测站,,24,24,31,14,21,47,47,41,41,11,12,4,4,0.6,0.5
2026-05-02T0900,2636A,107.0083,33.114,汉中市,鑫源开发区,,38,38,33,26,24,34,34,30,30,15,14,10,6,0.5,0.4
2026-05-02T0900,2637A,107.0072,33.0323,汉中市,南郑大河坎水厂,,23,23,34,13,20,49,49,33,33,13,13,4,3,0.4,0.5
2026-05-02T0900,1223A,120.2073,30.2111,杭州市,滨江,,33,29,42,17,23,103,103,91,91,14,16,9,9,0.4,0.4
2026-05-02T0900,1224A,120.0625,30.2737,杭州市,西溪,,30,30,45,18,25,91,91,36,36,10,13,6,6,0.5,0.5
2026-05-02T0900,1226A,120.3417,30.315,杭州市,下沙,,34,26,43,13,23,106,106,80,80,15,21,10,10,0.5,0.5
2026-05-02T0900,1227A,120.1252,30.2465,杭州市,卧龙桥,,33,32,37,23,23,89,89,45,45,17,18,8,9,0.4,0.4
2026-05-02T0900,1228A,120.1902,30.2691,杭州市,浙江农大,,33,26,49,18,28,105,105,50,50,10,27,9,9,0.3,0.3
2026-05-02T0900,1230A,120.1195,30.3121,杭州市,和睦小学,,30,22,38,17,28,96,96,58,58,15,24,8,8,0.5,0.5
2026-05-02T0900,1231A,120.3076,30.4146,杭州市,临平镇,,35,30,42,15,23,112,112,82,82,18,21,8,8,0.4,0.4
2026-05-02T0900,1232A,120.2753,30.1839,杭州市,城厢镇,,32,26,40,12,23,100,100,73,73,15,20,8,8,0.4,0.5
2026-05-02T0900,1233A,120.0883,30.1808,杭州市,云栖,颗粒物(PM10),57,59,43,36,22,62,62,34,34,33,26,7,7,0.7,0.6
2026-05-02T0900,3557A,119.9463,30.0496,杭州市,镇二中,,32,28,38,22,23,70,70,48,48,20,21,7,7,0.7,0.5
2026-05-02T0900,3558A,119.7184,30.2367,杭州市,市府大楼,,46,38,34,32,23,59,59,51,51,25,18,8,8,0.5,0.4
2026-05-02T0900,3656A,120.1554,30.2863,杭州市,消防大队,,30,26,45,17,27,95,95,66,66,14,19,8,6,0.4,0.5
2026-05-02T0900,1270A,117.1957,31.7845,合肥市,明珠广场,,36,36,28,22,11,80,80,93,90,21,15,9,9,0.7,0.5
2026-05-02T0900,1271A,117.307,31.8765,合肥市,三里街,,48,48,34,22,13,62,62,73,72,38,26,8,8,0.6,0.5
2026-05-02T0900,1272A,117.2587,31.8703,合肥市,琥珀山庄,,41,41,32,19,12,81,81,87,87,24,18,9,9,0.8,0.6
2026-05-02T0900,1275A,117.2593,31.9376,合肥市,庐阳区,,44,44,33,20,11,85,85,89,88,28,22,8,6,0.8,0.7
2026-05-02T0900,1276A,117.345251,31.861615,合肥市,瑶海区,,46,46,39,20,12,62,62,75,74,44,28,8,8,0.5,0.5
2026-05-02T0900,1277A,117.3033,31.7967,合肥市,包河区,,36,36,36,21,13,81,81,84,81,15,10,11,11,0.6,0.4
2026-05-02T0900,1278A,117.278,31.7392,合肥市,滨湖新区,,39,39,27,22,11,95,95,97,96,16,10,7,6,0.4,0.3
2026-05-02T0900,1279A,117.1324,31.8395,合肥市,高新区,,39,39,32,20,12,87,87,96,94,22,16,8,7,0.6,0.4
2026-05-02T0900,3464A,117.3802,31.9148,合肥市,高教基地,,41,41,32,20,10,51,51,81,75,25,14,10,10,0.6,0.5
2026-05-02T0900,4098A,117.2518,31.8404,合肥市,中国科学技术大学,,39,39,30,19,11,87,87,92,90,17,14,9,9,0.7,0.6
2026-05-02T0900,3614A,79.9241,37.0878,和田地区,地区环保局,颗粒物(PM10),213,359,436,117,96,95,95,105,104,9,7,3,2,0.2,0.2
2026-05-02T0900,3615A,79.9132,37.1137,和田地区,市环保局,颗粒物(PM10),187,324,342,112,84,101,101,114,113,8,6,3,2,0.4,0.2
2026-05-02T0900,2517A,108.0496,24.6957,河池市,市环保站,,35,29,36,24,22,68,68,92,88,8,8,6,8,0.7,0.6
2026-05-02T0900,4302A,108.0901,24.6945,河池市,上任中路54号,,38,37,34,26,21,76,76,93,90,12,6,10,10,0.9,0.9
2026-05-02T0900,1697A,114.6962,23.7538,河源市,东埔,,28,17,22,13,15,89,89,87,86,6,8,6,7,0.4,0.5
2026-05-02T0900,1698A,114.6895,23.7232,河源市,老城,,27,15,30,3,19,86,86,83,82,5,8,6,8,0.6,0.7
2026-05-02T0900,3374A,115.5562,35.089,菏泽市,定陶老年大学,,31,31,40,18,16,68,68,89,85,16,12,8,6,0.4,0.3
2026-05-02T0900,4114A,115.4239,35.2593,菏泽市,黄河路600号,,29,29,54,13,16,81,81,85,84,13,10,4,2,0.3,0.3
2026-05-02T0900,4115A,115.5025,35.2727,菏泽市,菏泽市人社局,,28,28,42,16,15,74,74,91,86,14,10,8,6,0.3,0.3
2026-05-02T0900,4184A,115.479691,35.244011,菏泽市,永昌路1号,,33,33,41,16,15,88,88,100,98,14,11,7,5,0.4,0.2
2026-05-02T0900,4193A,115.471542,35.280012,菏泽市,长城路999号,,29,29,42,13,14,89,89,98,95,13,11,8,6,0.3,0.3
2026-05-02T0900,2514A,111.5264,24.4178,贺州市,环保小区,颗粒物(PM10),52,52,34,28,23,57,57,84,82,27,12,7,8,0.5,0.5
2026-05-02T0900,2515A,111.561,24.4074,贺州市,政协大楼,,38,30,31,26,24,92,92,106,105,16,14,11,13,0.6,0.6
2026-05-02T0900,3534A,111.4744,24.455,贺州市,西湾,,46,46,42,30,23,79,79,86,86,16,13,12,11,0.6,0.6
2026-05-02T0900,2385A,114.17,35.9019,鹤壁市,市监测站,,30,26,45,21,25,59,59,84,79,9,10,4,5,0.4,0.5
2026-05-02T0900,2386A,114.2953,35.7512,鹤壁市,市交警支队,,24,23,43,12,21,76,76,77,75,12,8,3,3,0.4,0.5
2026-05-02T0900,2387A,114.2877,35.7302,鹤壁市,迎宾馆,,25,18,45,17,23,76,76,76,73,14,10,4,6,0.4,0.4
2026-05-02T0900,3474A,114.2616,35.6824,鹤壁市,大新区,,32,32,38,17,26,48,48,69,62,28,12,7,6,0.4,0.4
2026-05-02T0900,3596A,114.1573,35.9607,鹤壁市,南山宾馆,,48,NA,48,33,30,50,50,77,71,13,8,6,7,0.5,0.4
2026-05-02T0900,2244A,130.2537,47.3416,鹤岗市,哈啤分公司,,30,20,18,16,9,94,94,76,76,8,8,11,10,0.4,0.5
2026-05-02T0900,2245A,130.2683,47.3087,鹤岗市,斯达机电,,30,15,21,10,10,96,96,82,82,5,6,12,11,0.5,0.5
2026-05-02T0900,2246A,130.3114,47.3388,鹤岗市,东山纸板厂,,30,21,30,14,17,96,96,71,71,6,7,9,12,0.4,0.6
2026-05-02T0900,2263A,127.4832,50.2524,黑河市,交通局,,26,23,20,3,8,83,83,69,69,8,10,5,6,0.2,0.3
2026-05-02T0900,2264A,127.5146,50.2339,黑河市,环保局,,33,33,17,3,8,74,74,68,68,11,8,17,7,0.3,0.3
2026-05-02T0900,1074A,115.6839,37.754,衡水市,电机北厂,NA,NA,NA,72,10,26,106,106,115,115,17,16,3,7,0.3,0.5
2026-05-02T0900,1075A,115.6303,37.7318,衡水市,市监测站,,42,42,76,3,21,94,94,106,105,17,14,8,9,0.3,0.4
2026-05-02T0900,3188A,115.6684,37.7216,衡水市,市城管局,,35,35,73,3,26,92,92,112,111,17,12,3,7,0.2,0.4
2026-05-02T0900,3459A,115.599,37.5491,衡水市,地表水厂,,32,32,75,3,23,84,84,101,99,12,10,4,6,0.2,0.4
2026-05-02T0900,2457A,112.6209,26.9268,衡阳市,衡阳化工总厂,,38,38,33,25,18,84,84,78,78,14,11,6,8,0.7,0.6
2026-05-02T0900,2458A,112.621,26.8957,衡阳市,珠晖区环保局,,37,37,30,25,17,91,91,86,86,8,8,8,11,0.9,0.8
2026-05-02T0900,2459A,112.628,26.8654,衡阳市,市委党校,,48,36,32,33,20,86,86,84,84,9,9,10,13,0.7,0.7
2026-05-02T0900,2460A,112.6007,26.8977,衡阳市,市监测站,,34,34,31,22,20,79,79,72,72,12,14,8,11,0.7,0.7
2026-05-02T0900,2461A,112.5658,26.9013,衡阳市,真空机电公司,,46,33,33,32,19,81,81,80,80,19,16,16,13,2.1,1
2026-05-02T0900,3399A,112.6703,26.8817,衡阳市,师范学院,,29,26,33,19,20,92,92,86,86,8,7,7,10,0.6,0.6
2026-05-02T0900,3038A,103.3757,23.3679,红河哈尼族彝族自治州,州图书馆,,25,13,17,8,14,78,78,73,73,7,6,4,4,0.3,0.4
2026-05-02T0900,4154A,103.401,23.3561,红河哈尼族彝族自治州,蒙自市朝阳路,,23,15,17,14,18,71,71,68,68,3,4,6,5,0.4,0.4
2026-05-02T0900,1090A,111.6506,40.7517,呼和浩特市,呼市一监,,26,12,47,3,15,81,81,91,91,8,11,6,8,0.3,0.4
2026-05-02T0900,1094A,111.7516,40.8369,呼和浩特市,如意水处理厂,,26,10,36,7,14,83,83,90,90,8,11,7,8,0.3,0.3
2026-05-02T0900,1095A,111.727798,40.806187,呼和浩特市,二十九中,,24,6,40,3,15,76,76,82,82,5,11,8,9,0.4,0.4
2026-05-02T0900,1097A,111.717,40.7617,呼和浩特市,化肥厂生活区,,28,NA,48,19,18,81,81,94,94,8,12,6,8,0.4,0.4
2026-05-02T0900,3699A,111.6519,40.8389,呼和浩特市,海东办,,27,6,44,3,16,84,84,90,90,6,10,4,5,0.3,0.3
2026-05-02T0900,4275A,111.591512,40.827312,呼和浩特市,成吉思汗西街8号,,24,9,55,3,20,75,75,79,79,9,16,5,6,0.3,0.3
2026-05-02T0900,4276A,111.6597,40.8077,呼和浩特市,公园东路75号,,26,12,49,3,15,81,81,85,85,9,12,4,6,0.3,0.4
2026-05-02T0900,4277A,111.5427,40.7846,呼和浩特市,金海路35号,,25,NA,53,10,21,79,79,81,81,8,14,4,7,0.2,0.3
2026-05-02T0900,3061A,119.7511,49.1576,呼伦贝尔市,国华电力东,,25,20,20,3,9,78,78,67,67,6,6,5,5,0.3,0.3
2026-05-02T0900,4279A,119.7569,49.2222,呼伦贝尔市,伊敏大街东7号,,25,23,21,3,9,78,78,64,64,6,6,6,6,0.5,0.5
2026-05-02T0900,1250A,120.075,30.867,湖州市,城西水厂,,40,38,36,28,24,101,101,90,87,24,19,8,7,0.2,0.2
2026-05-02T0900,2873A,120.083,30.8929,湖州市,仁皇山新区,,49,49,35,34,23,82,82,80,76,36,25,7,6,0.6,0.5
2026-05-02T0900,2907A,120.1846,30.8592,湖州市,吴兴区站,,44,44,34,27,22,101,101,88,88,21,15,8,7,0.5,0.4
2026-05-02T0900,3562A,120.4146,30.8538,湖州市,南浔区站,,36,35,32,25,21,111,111,96,96,16,15,7,6,0.5,0.5
2026-05-02T0900,1607A,120.904878,40.721091,葫芦岛市,龙港区,颗粒物(PM10),132,201,43,32,13,82,82,51,51,52,27,158,24,0.9,0.4
2026-05-02T0900,1608A,120.8382,40.7521,葫芦岛市,化工街,颗粒物(PM10),96,114,55,39,20,44,44,12,12,60,42,100,49,1.2,0.4
2026-05-02T0900,1609A,120.8339,40.7078,葫芦岛市,新区,颗粒物(PM10),63,68,43,26,13,46,46,13,13,59,43,46,13,0.8,0.5
2026-05-02T0900,1610A,120.8697,40.7679,葫芦岛市,东城区,颗粒物(PM10),92,108,55,39,22,55,55,26,26,53,36,105,44,1.0,0.5
2026-05-02T0900,2483A,109.9297,27.5383,怀化市,河西地税局,,43,35,28,30,20,96,96,108,106,5,7,7,8,/,/
2026-05-02T0900,2484A,109.9783,27.5342,怀化市,市四医院,,44,44,34,29,18,83,83,102,98,10,9,6,6,0.5,0.4
2026-05-02T0900,2485A,109.9971,27.5579,怀化市,监测楼,,46,43,29,32,20,80,80,NA,NA,7,7,6,5,0.7,0.6
2026-05-02T0900,1210A,119.0566,33.5991,淮安市,钵池山,细颗粒物(PM2.5),64,53,43,42,29,87,87,102,97,25,16,12,11,0.9,0.6
2026-05-02T0900,1211A,119.0083,33.578,淮安市,北京南路,细颗粒物(PM2.5),70,61,45,45,29,92,92,106,102,27,15,14,10,0.7,0.4
2026-05-02T0900,1212A,118.9938,33.6083,淮安市,市监测站,细颗粒物(PM2.5),66,48,38,43,27,99,99,120,114,25,12,10,7,0.8,0.5
2026-05-02T0900,1213A,119.135,33.5038,淮安市,楚州区监测站,细颗粒物(PM2.5),80,76,50,50,33,71,71,85,82,29,16,9,8,0.8,0.5
2026-05-02T0900,3426A,118.8757,33.2897,淮安市,新华书店,颗粒物(PM10),58,60,48,32,26,62,62,86,81,37,16,9,9,0.8,0.7
2026-05-02T0900,4092A,119.119691,33.550006,淮安市,枚皋中路89号,细颗粒物(PM2.5),72,67,46,46,31,89,89,105,100,22,11,11,9,0.8,0.6
2026-05-02T0900,4206A,119.028838,33.631911,淮安市,承德北路606号,"颗粒物(PM10),细颗粒物(PM2.5)",56,58,49,38,29,83,83,102,97,22,13,9,8,0.7,0.6
2026-05-02T0900,2282A,116.8005,33.9749,淮北市,监测站,,50,45,45,35,28,90,90,106,102,24,15,9,8,0.5,0.5
2026-05-02T0900,2283A,116.8094,33.9008,淮北市,烈山区政府,,48,48,48,31,20,86,86,104,100,20,12,10,9,0.4,0.4
2026-05-02T0900,4017A,116.7926,33.9534,淮北市,市博物馆,细颗粒物(PM2.5),52,38,41,36,23,89,89,105,102,23,13,4,5,0.6,0.5
2026-05-02T0900,4100A,116.8322,33.9884,淮北市,杜集区第一实验学校,颗粒物(PM10),59,62,49,36,19,78,78,101,96,24,11,10,8,0.6,0.5
2026-05-02T0900,2277A,116.8304,32.7726,淮南市,潘集区政府,细颗粒物(PM2.5),70,64,33,45,15,59,59,92,85,32,18,12,10,0.7,0.5
2026-05-02T0900,2279A,116.8569,32.5949,淮南市,谢家集区政府,颗粒物(PM10),53,53,26,28,18,64,64,86,81,29,16,12,10,0.4,0.3
2026-05-02T0900,2280A,116.8279,32.6333,淮南市,八公山区政府,,40,40,37,26,16,74,74,95,90,17,10,9,8,0.4,0.3
2026-05-02T0900,2894A,117.0561,32.6536,淮南市,经济技术开发区消防队,,39,36,29,27,14,70,70,90,86,21,11,11,9,0.4,0.3
2026-05-02T0900,3329A,117.011,32.5891,淮南市,山南新区,,41,41,33,26,15,77,77,100,96,24,14,11,9,0.5,0.3
2026-05-02T0900,4209A,117.003137,32.644456,淮南市,国庆中路369号,,44,44,29,23,15,76,76,97,92,20,11,9,8,0.3,0.2
2026-05-02T0900,2446A,114.9021,30.474,黄冈市,职工中心,,24,24,21,14,15,66,66,81,78,17,9,6,7,0.8,0.5
2026-05-02T0900,2929A,114.8858,30.4519,黄冈市,红卫路,,25,25,19,12,14,71,71,89,86,20,9,9,8,0.7,0.4
2026-05-02T0900,3398A,114.9134,30.4446,黄冈市,市林业局,,31,31,27,7,13,69,69,85,82,25,12,4,4,0.2,0.3
2026-05-02T0900,2672A,102.02,35.5101,黄南藏族自治州,同仁县隆务镇,,34,34,33,16,16,107,107,108,108,6,3,10,11,0.3,0.3
2026-05-02T0900,2295A,118.2905,29.6965,黄山市,延安路89号,,43,34,26,30,20,42,42,27,27,15,12,6,6,0.4,0.3
2026-05-02T0900,2297A,118.1369,30.2755,黄山市,黄山区政府5号楼,,47,47,27,20,15,43,43,33,33,10,6,3,3,0.3,0.2
2026-05-02T0900,4210A,118.335445,29.720283,黄山市,滨江东路7-2号,颗粒物(PM10),52,52,40,20,15,65,65,37,37,12,10,/,/,/,/
2026-05-02T0900,2423A,115.0547,30.2332,黄石市,沈家营,,45,45,34,27,13,36,36,55,48,30,24,4,5,0.5,0.6
2026-05-02T0900,2426A,114.899,30.211,黄石市,铁山,,41,41,34,16,14,61,61,65,61,23,15,12,12,0.6,0.4
2026-05-02T0900,2427A,115.0259,30.2108,黄石市,团城山,,37,37,31,11,14,84,84,75,71,11,12,6,7,0.7,0.6
2026-05-02T0900,3149A,115.0174,30.1591,黄石市,笔架山北路,,47,47,46,17,18,61,61,70,66,17,17,14,17,0.6,0.4
2026-05-02T0900,4185A,115.078022,30.21118,黄石市,磁湖东路29号,,39,39,33,11,17,78,78,68,67,16,19,4,5,0.6,0.4
2026-05-02T0900,1392A,114.4181,23.0528,惠州市,河南岸金山湖子站,,28,27,26,16,17,88,88,90,88,10,9,9,8,0.6,0.6
2026-05-02T0900,1393A,114.4055,23.0824,惠州市,下埔横江三路子站,,30,30,29,16,15,89,89,93,91,8,8,7,6,0.7,0.6
2026-05-02T0900,1395A,114.4645,22.7832,惠州市,惠阳区承修路船湖子站,,31,27,28,14,15,99,99,92,90,7,8,7,7,0.5,0.5
2026-05-02T0900,1396A,114.5316,22.7423,惠州市,大亚湾管委会子站,,32,31,28,15,14,100,100,96,94,10,8,6,5,0.4,0.4
2026-05-02T0900,3314A,114.4334,22.8134,惠州市,惠阳秋长,,35,27,23,13,15,110,110,86,85,5,8,/,/,/,/
2026-05-02T0900,3452A,114.6521,22.7755,惠州市,大亚湾霞涌,,32,16,19,14,11,101,101,94,92,6,6,/,/,/,/
2026-05-02T0900,4300A,114.4089,23.1147,惠州市,文华一路1号,NA,NA,NA,24,NA,14,NA,NA,114,95,NA,7,NA,NA,NA,NA
2026-05-02T0900,2240A,130.9618,45.2926,鸡西市,环保局,NA,NA,54,31,19,17,NA,NA,84,83,9,10,7,7,0.3,0.3
2026-05-02T0900,2243A,130.9294,45.2959,鸡西市,第一中学,颗粒物(PM10),52,52,30,18,14,99,99,86,86,4,8,6,6,0.2,0.2
2026-05-02T0900,3707A,131.0069,45.2988,鸡西市,欧美日汽修厂,颗粒物(PM10),59,62,36,19,16,95,95,63,63,7,11,5,5,0.3,0.3
2026-05-02T0900,2367A,114.9753,27.0803,吉安市,红声器材厂,NA,NA,25,24,15,10,NA,NA,69,69,9,9,9,8,0.4,0.3
2026-05-02T0900,2369A,114.9903,27.1313,吉安市,市环境监测站,,28,21,23,19,12,88,88,75,75,7,9,12,12,/,/
2026-05-02T0900,2370A,115.009527,27.096792,吉安市,青原区法院,,30,30,26,14,11,88,88,76,76,10,12,8,7,0.3,0.3
2026-05-02T0900,1772A,126.54,43.8622,吉林市,哈达湾,NA,NA,29,36,NA,15,80,80,72,72,9,10,6,7,0.2,0.2
2026-05-02T0900,1773A,126.5843,43.8358,吉林市,东局子,,30,30,35,14,16,82,82,70,70,12,14,6,5,0.7,0.7
2026-05-02T0900,1774A,126.5051,43.8243,吉林市,电力学院,,29,20,29,12,13,92,92,68,68,9,13,4,5,0.4,0.4
2026-05-02T0900,1775A,126.6133,43.8971,吉林市,江北,,39,39,42,17,16,82,82,NA,NA,16,15,20,12,0.5,0.5
2026-05-02T0900,1776A,126.5549,43.8304,吉林市,江南公园,,26,26,32,14,17,75,75,62,62,12,13,7,7,0.5,0.6
2026-05-02T0900,2868A,126.4737,43.953,吉林市,九站,,37,37,42,16,22,79,79,48,48,10,23,12,29,0.4,0.4
2026-05-02T0900,1299A,116.9866,36.6118,济南市,科干所,,36,36,44,18,15,92,92,126,120,19,11,5,7,0.5,0.4
2026-05-02T0900,1300A,116.9379,36.6652,济南市,农科所,,32,32,42,14,14,79,79,112,106,14,13,6,7,0.3,0.3
2026-05-02T0900,1301A,117.1265,36.6736,济南市,开发区,,34,34,40,14,17,103,103,128,124,14,11,5,6,0.4,0.4
2026-05-02T0900,1303A,117.0616,36.6865,济南市,省种子仓库,,44,44,53,15,12,97,97,129,125,17,13,6,10,0.5,0.5
2026-05-02T0900,1304A,116.9495185,36.644937,济南市,机床二厂,,34,34,49,17,16,95,95,119,115,16,13,6,6,0.4,0.4
2026-05-02T0900,1305A,117.0496,36.6629,济南市,市监测站,,34,34,42,15,14,96,96,122,118,16,12,5,5,0.5,0.6
2026-05-02T0900,1306A,116.7674,36.5458,济南市,长清党校,,37,37,44,11,12,94,94,109,106,14,10,4,6,0.5,0.5
2026-05-02T0900,1961A,117.5323,36.6865,济南市,东山小学,,39,22,53,3,17,122,122,120,120,9,16,4,5,0.4,0.5
2026-05-02T0900,3059A,117.7181,36.205,济南市,泰兴公司,,44,44,59,17,22,86,86,62,62,29,42,13,11,0.5,0.5
2026-05-02T0900,3064A,117.6861,36.2172,济南市,莱芜战役纪念馆,,34,34,52,14,18,102,102,100,100,21,23,7,8,0.3,0.3
2026-05-02T0900,3494A,117.1673,36.9782,济南市,济阳区政府,,37,37,64,17,19,93,93,116,112,20,22,8,7,0.5,0.5
2026-05-02T0900,3495A,117.1168,36.6299,济南市,锦屏中学,,31,10,32,9,14,97,97,118,114,11,12,6,6,0.1,0.2
2026-05-02T0900,4108A,117.7107,36.2385,济南市,山财大街5号,,33,27,51,12,21,103,103,85,85,20,32,8,7,0.4,0.4
2026-05-02T0900,4109A,116.9744,36.6889,济南市,无影山路12号,,30,27,41,16,15,95,95,116,112,16,13,5,5,0.4,0.4
2026-05-02T0900,1653A,116.6229,35.4288,济宁市,火炬城,,22,21,40,15,13,69,69,90,86,15,8,4,4,0.5,0.5
2026-05-02T0900,3500A,116.5808,35.3703,济宁市,北湖一中,,27,21,39,13,13,85,85,106,102,15,10,9,9,0.3,0.3
2026-05-02T0900,3501A,116.8251,35.5592,济宁市,服务中心,,24,24,52,13,18,62,62,78,76,16,12,1,2,0.5,0.5
2026-05-02T0900,3678A,116.5907,35.4054,济宁市,市第七中学,,30,26,51,12,12,93,93,108,105,18,12,9,6,0.3,0.3
2026-05-02T0900,4111A,116.6075,35.4566,济宁市,任和路,,35,28,47,24,14,52,52,98,90,16,8,4,6,0.3,0.3
2026-05-02T0900,4112A,116.5648,35.3921,济宁市,文体南路1号,,23,21,44,13,14,73,73,94,88,10,7,5,5,0.5,0.4
2026-05-02T0900,4122A,112.6071,35.1015,济源市,市委党校,,41,41,45,15,15,73,73,68,66,25,19,12,10,0.9,0.6
2026-05-02T0900,4123A,112.596,35.0702,济源市,沁园中路1号,,24,24,35,9,20,67,67,74,71,18,13,5,6,0.8,0.7
2026-05-02T0900,2255A,130.2749,46.8028,佳木斯市,佳纺,,36,36,28,7,11,81,81,49,49,8,15,4,5,0.3,0.3
2026-05-02T0900,2257A,130.3258,46.7975,佳木斯市,环保局,,33,33,25,12,14,84,84,51,51,6,15,2,2,0.3,0.3
2026-05-02T0900,4285A,130.363,46.806,佳木斯市,顺和街,,27,25,22,14,14,86,86,61,61,11,17,2,2,0.3,0.3
2026-05-02T0900,4286A,130.3952,46.8268,佳木斯市,长安路196号,,28,20,20,19,12,79,79,57,57,16,11,2,2,0.3,0.3
2026-05-02T0900,1252A,120.7439,30.778,嘉兴市,清河小学,,39,33,33,15,16,123,123,110,110,10,14,8,8,0.4,0.4
2026-05-02T0900,1253A,120.7261,30.7477,嘉兴市,嘉兴学院,,38,27,27,17,16,121,121,109,109,14,17,7,7,0.4,0.4
2026-05-02T0900,2872A,120.7845,30.7524,嘉兴市,南湖区残联,,43,33,27,17,17,137,137,124,124,14,17,7,7,0.3,0.3
2026-05-02T0900,3407A,120.6915,30.7741,嘉兴市,秀洲住建,,43,41,33,17,14,135,135,127,127,16,16,7,7,0.3,0.3
2026-05-02T0900,1945A,98.291,39.7705,嘉峪关市,气象局,,39,39,47,3,17,76,76,88,86,16,9,12,20,0.5,0.7
2026-05-02T0900,2884A,98.2672,39.7978,嘉峪关市,酒钢宾馆,颗粒物(PM10),55,56,114,10,29,78,78,93,90,14,8,11,26,0.5,0.6
2026-05-02T0900,3248A,98.2644,39.7723,嘉峪关市,雄关区,,42,42,80,11,21,75,75,78,77,13,13,5,12,0.2,0.4
2026-05-02T0900,1383A,113.1063,22.6058,江门市,北街,,25,24,25,15,14,78,78,71,71,10,15,/,/,/,/
2026-05-02T0900,1384A,113.073,22.5835,江门市,西区,,34,34,34,17,16,83,83,83,82,12,13,/,/,/,/
2026-05-02T0900,1385A,113.0218,22.531,江门市,圭峰西,,40,40,27,16,15,79,79,78,76,12,13,/,/,/,/
2026-05-02T0900,1386A,113.0826,22.5947,江门市,东湖,,31,31,29,16,14,80,80,73,72,12,13,6,7,0.4,0.5
2026-05-02T0900,3311A,113.1077,22.5647,江门市,江海富民,,44,44,36,15,15,83,83,82,82,7,9,/,/,0.2,0.2
2026-05-02T0900,3449A,113.0496,22.4669,江门市,新会银湖,,46,46,23,14,17,80,80,47,47,13,20,8,9,0.5,0.5
2026-05-02T0900,3335A,113.3137,35.2643,焦作市,马村街道办,,36,36,44,16,20,82,82,71,70,10,8,10,9,0.4,0.4
2026-05-02T0900,3336A,113.2464,35.2374,焦作市,焦作技师学院,,35,35,39,20,22,80,80,84,81,10,10,10,9,0.6,0.6
2026-05-02T0900,3477A,113.1656,35.2536,焦作市,中站许衡医院,,34,34,45,16,21,86,86,86,86,8,10,11,11,0.6,0.5
2026-05-02T0900,3981A,113.2456,35.18,焦作市,原李万街道办,,39,39,47,24,24,66,66,70,68,10,10,12,7,0.4,0.3
2026-05-02T0900,4264A,113.234,35.219,焦作市,新安路1731号,,49,49,43,21,20,78,78,83,81,14,16,10,13,0.6,0.5
2026-05-02T0900,4295A,113.2722,35.2121,焦作市,人民路3066号,,43,37,45,30,30,65,65,70,68,11,11,9,7,0.5,0.4
2026-05-02T0900,1708A,116.3701,23.5345,揭阳市,新兴,,42,42,39,21,23,101,101,79,79,20,20,11,11,0.6,0.7
2026-05-02T0900,1709A,116.3261,23.5442,揭阳市,西马,,36,36,41,21,24,105,105,73,73,16,18,15,9,0.7,0.7
2026-05-02T0900,1710A,116.361,23.5627,揭阳市,东兴,,48,48,35,22,26,104,104,78,78,15,16,15,9,/,/
2026-05-02T0900,1711A,116.4151,23.5295,揭阳市,渔湖,,35,35,41,22,25,95,95,66,66,22,21,9,6,/,/
2026-05-02T0900,3320A,116.4028,23.5699,揭阳市,曲溪,,34,29,34,19,24,107,107,66,66,17,18,13,11,0.5,0.6
2026-05-02T0900,1944A,102.1691,38.5166,金昌市,天庆家园,颗粒物(PM10),53,53,70,15,25,108,108,112,112,4,4,5,7,0.5,0.4
2026-05-02T0900,4022A,102.1648,38.5369,金昌市,金川区人防中心,,46,46,66,15,26,107,107,112,111,5,5,7,7,0.3,0.3
2026-05-02T0900,4239A,102.193042,38.531887,金昌市,长春路96号,颗粒物(PM10),55,57,71,22,30,102,102,105,104,3,3,6,7,0.2,0.3
2026-05-02T0900,1262A,119.6478,29.0773,金华市,十五中,,35,24,29,9,13,109,109,112,112,13,16,2,2,0.4,0.4
2026-05-02T0900,1263A,119.6859,29.1032,金华市,监测站,,39,24,25,11,14,124,124,115,115,11,21,4,4,0.3,0.3
2026-05-02T0900,3659A,119.656,29.1132,金华市,气象局,,36,23,27,11,12,113,113,100,100,12,22,4,4,0.3,0.3
2026-05-02T0900,1767A,121.1114,41.0879,锦州市,南山,细颗粒物(PM2.5),70,68,47,45,20,43,43,28,28,40,29,14,10,0.6,0.5
2026-05-02T0900,1768A,121.060361,40.842794,锦州市,开发区,细颗粒物(PM2.5),112,124,65,73,23,38,38,30,29,64,43,82,31,1.3,0.6
2026-05-02T0900,1769A,121.1836,41.1118,锦州市,百股街道,颗粒物(PM10),57,59,38,25,17,54,54,41,41,34,19,20,10,0.6,0.5
2026-05-02T0900,1770A,121.1176,41.1224,锦州市,天安街道,颗粒物(PM10),64,69,47,33,19,41,41,25,25,48,27,14,10,0.6,0.5
2026-05-02T0900,1771A,121.1303,41.1385,锦州市,北湖公园,颗粒物(PM10),63,68,36,29,15,58,58,55,55,33,17,21,12,0.5,0.5
2026-05-02T0900,2160A,112.8496,35.5051,晋城市,自来水公司,,30,30,45,6,10,88,88,107,104,14,9,3,4,0.5,0.4
2026-05-02T0900,2162A,112.8509,35.4886,晋城市,市环保局,,29,29,40,20,12,83,83,97,96,12,10,4,5,0.3,0.3
2026-05-02T0900,3620A,112.8258,35.4804,晋城市,泽州一中,,27,18,28,16,14,86,86,104,101,17,9,3,4,0.2,0.2
2026-05-02T0900,4078A,112.8246,35.5152,晋城市,前书院路,,27,26,26,18,11,84,84,98,95,20,10,7,8,0.5,0.6
2026-05-02T0900,4079A,112.8864,35.4773,晋城市,祥云街666号,,28,18,27,3,14,88,88,87,87,12,14,7,8,0.5,0.5
2026-05-02T0900,2174A,112.6992,37.6984,晋中市,榆次区政府,颗粒物(PM10),65,70,63,40,24,49,49,74,70,62,29,19,14,0.9,0.7
2026-05-02T0900,2865A,112.7195,37.683,晋中市,榆次三中,颗粒物(PM10),53,53,55,26,18,77,77,76,76,18,12,19,13,0.8,0.6
2026-05-02T0900,4080A,112.7375,37.7215,晋中市,广安街188号,,42,42,47,26,21,70,70,80,78,19,12,13,9,0.7,0.4
2026-05-02T0900,4200A,112.7478,37.6954,晋中市,迎宾街26号,,46,46,57,25,20,75,75,79,78,19,15,19,14,0.7,0.5
2026-05-02T0900,2439A,112.2012,31.048,荆门市,竹园小学,,45,45,43,28,26,92,92,90,90,9,11,1,5,0.5,0.5
2026-05-02T0900,2440A,112.1968,30.9892,荆门市,掇刀,,45,45,44,22,30,101,101,97,97,8,11,7,10,0.6,0.6
2026-05-02T0900,3012A,112.1849,31.0361,荆门市,西山林语,,32,30,45,22,25,94,94,96,94,6,9,6,8,0.6,0.6
2026-05-02T0900,3547A,112.1631,31.0134,荆门市,龙泉中学南校,,30,24,32,18,23,96,96,103,103,8,10,4,6,0.8,0.5
2026-05-02T0900,4124A,112.2213,31.0654,荆门市,新台西路6号,颗粒物(PM10),60,63,43,36,30,90,90,81,81,9,13,7,10,0.7,0.7
2026-05-02T0900,1844A,112.2493,30.3198,荆州市,市图书馆,,40,39,34,28,26,81,81,78,78,8,12,6,9,0.5,0.4
2026-05-02T0900,1845A,112.2009,30.3543,荆州市,市委党校,,42,37,34,29,24,73,73,64,64,13,18,7,9,0.5,0.5
2026-05-02T0900,3194A,112.2749,30.3124,荆州市,管委会,,47,47,36,32,26,74,74,68,68,11,18,7,9,0.4,0.4
2026-05-02T0900,4268A,112.1722,30.3366,荆州市,学苑路85号,,48,37,33,33,24,91,91,81,81,6,9,4,6,0.6,0.5
2026-05-02T0900,2343A,117.2114,29.2931,景德镇市,老干部活动中心,,40,40,27,18,20,29,29,34,34,13,13,4,5,0.6,0.6
2026-05-02T0900,2344A,117.1893,29.2789,景德镇市,兽医站,NA,NA,29,30,16,16,NA,NA,39,39,15,13,4,4,0.6,0.6
2026-05-02T0900,2346A,117.246,29.2958,景德镇市,陶研所,,33,25,24,23,18,81,81,41,41,9,13,5,5,0.6,0.6
2026-05-02T0900,4289A,117.154766,29.256967,景德镇市,青少年活动中心,,40,28,29,28,20,32,32,35,35,21,20,6,15,/,/
2026-05-02T0900,1803A,115.9873,29.6816,九江市,十里,,36,26,31,25,19,44,44,41,41,27,34,7,7,1.0,0.9
2026-05-02T0900,1804A,115.9583,29.7047,九江市,茅山头,,43,32,27,30,18,44,44,41,41,25,28,3,4,0.7,0.6
2026-05-02T0900,1805A,115.9877,29.7295,九江市,西园,,38,29,21,26,15,63,63,48,48,20,38,6,5,0.7,0.6
2026-05-02T0900,1808A,115.9112,29.6038,九江市,综合工业园,,28,NA,16,19,14,26,26,58,54,45,31,9,9,0.6,0.5
2026-05-02T0900,3190A,116.0254,29.6995,九江市,外国语学校,,38,NA,18,26,14,56,56,58,55,16,17,12,12,0.8,0.7
2026-05-02T0900,4253A,116.010205,29.659402,九江市,莲花大道8号,,32,NA,19,22,12,32,32,56,51,22,17,5,5,0.6,0.4
2026-05-02T0900,4240A,98.495752,39.733935,酒泉市,玉门东路5号,,34,34,55,16,37,78,78,80,78,5,5,5,7,0.2,0.2
2026-05-02T0900,4241A,98.5099,39.7506,酒泉市,北大街108号,,39,39,121,20,40,77,77,76,75,4,4,6,8,0.2,0.2
2026-05-02T0900,2698A,76.0071,39.466,喀什地区,巡警大队,颗粒物(PM10),276,403,645,152,221,80,80,80,80,16,13,4,4,0.2,0.2
2026-05-02T0900,2699A,75.9756,39.4693,喀什地区,吾办,颗粒物(PM10),239,377,560,148,207,77,77,73,73,13,13,5,4,0.5,0.4
2026-05-02T0900,4027A,75.9485,39.4688,喀什地区,老干局,颗粒物(PM10),288,411,628,165,244,85,85,77,77,6,9,2,3,0.0,0.1
2026-05-02T0900,1824A,114.3389,34.778,开封市,肿瘤医院,,30,30,45,20,25,75,75,81,80,16,16,7,8,0.6,0.6
2026-05-02T0900,1826A,114.2884,34.7966,开封市,世纪星幼儿园,,32,25,49,22,24,68,68,79,77,13,14,6,7,0.5,0.5
2026-05-02T0900,3147A,114.3434,34.8101,开封市,龙亭公园,,33,33,58,21,23,67,67,79,75,22,17,7,8,0.5,0.5
2026-05-02T0900,3210A,114.3645,34.7955,开封市,汴京公园,,31,31,47,18,23,74,74,77,75,11,10,4,5,0.6,0.5
2026-05-02T0900,3473A,114.2485,34.8306,开封市,技师学院,,30,27,46,21,26,59,59,77,74,18,10,6,6,0.8,0.8
2026-05-02T0900,3592A,114.4518,34.7503,开封市,祥符区生态环境局,,42,39,48,29,29,54,54,70,66,22,21,15,9,1.1,0.6
2026-05-02T0900,1951A,84.886,45.6029,克拉玛依市,长征新村,,23,20,25,3,7,71,71,82,79,19,9,5,6,0.5,0.4
2026-05-02T0900,1952A,84.8894,45.5827,克拉玛依市,南林小区,,27,27,26,3,3,41,41,57,55,23,12,2,3,0.1,0.1
2026-05-02T0900,1954A,84.896,44.3328,克拉玛依市,独山子区,,34,34,36,3,5,74,74,92,88,18,9,5,6,0.6,0.5
2026-05-02T0900,1955A,85.6888,46.0909,克拉玛依市,乌尔禾区商贸楼,,38,38,28,8,10,67,67,69,69,9,12,3,4,0.3,0.4
2026-05-02T0900,3612A,85.1045,45.6895,克拉玛依市,白碱滩区新站,,38,38,12,3,6,34,34,86,77,32,10,10,8,0.3,0.2
2026-05-02T0900,2697A,76.1457,39.7143,克孜勒苏柯尔克孜自治州,市人民政府,颗粒物(PM10),334,447,444,156,154,46,46,68,64,42,11,6,7,0.2,0.1
2026-05-02T0900,3665A,76.1654,39.7157,克孜勒苏柯尔克孜自治州,克州文化中心,颗粒物(PM10),263,394,447,150,151,78,78,79,78,10,6,2,3,0.3,0.3
2026-05-02T0900,1450A,102.8203,24.889,昆明市,呈贡新区,,29,22,19,20,14,65,65,69,67,7,6,5,4,0.9,0.9
2026-05-02T0900,1452A,102.7253,25.0904,昆明市,龙泉镇,,46,36,21,32,14,55,55,39,38,12,10,4,4,0.5,0.5
2026-05-02T0900,1453A,102.7267,25.0378,昆明市,东风东路,,22,22,18,12,16,69,69,69,68,12,10,2,2,0.4,0.5
2026-05-02T0900,1454A,102.6744,25.0671,昆明市,金鼎山,,29,29,25,19,14,60,60,62,61,19,12,2,2,0.7,0.7
2026-05-02T0900,1455A,102.6643,25.0401,昆明市,碧鸡广场,,30,30,22,12,14,52,52,47,46,15,13,5,5,0.6,0.6
2026-05-02T0900,3179A,102.7491,25.012,昆明市,官渡区博物馆,,23,23,20,15,14,70,70,68,67,13,12,3,3,0.5,0.5
2026-05-02T0900,3375A,102.8016,24.8336,昆明市,青年创业园,细颗粒物(PM2.5),58,NA,18,39,13,62,62,68,66,7,4,4,4,0.6,0.5
2026-05-02T0900,3550A,102.8,24.9787,昆明市,昆明学院,,27,27,19,10,9,54,54,57,57,8,8,5,4,0.5,0.5
2026-05-02T0900,3551A,102.5969,24.6738,昆明市,晋宁区生态环境分局,,27,27,19,18,14,62,62,57,55,9,7,2,2,0.5,0.3
2026-05-02T0900,3552A,102.6673,24.9861,昆明市,云天化总部,,22,22,16,11,10,66,66,72,70,12,7,4,4,0.6,0.5
2026-05-02T0900,1456A,91.132,29.6515,拉萨市,八廓街,,29,9,16,6,10,90,90,104,102,10,3,4,5,0.1,0.2
2026-05-02T0900,1457A,91.1221,29.6748,拉萨市,市环保局,,28,14,16,9,9,88,88,100,98,12,9,4,4,0.3,0.2
2026-05-02T0900,1458A,91.0874,29.6476,拉萨市,区监测站,,28,7,11,6,10,87,87,102,99,15,9,5,5,0.3,0.3
2026-05-02T0900,1459A,91.1774,29.6541,拉萨市,西藏大学,,28,8,14,3,8,87,87,98,96,14,9,5,5,0.4,0.3
2026-05-02T0900,1460A,90.9798,29.6586,拉萨市,区辐射站,,25,10,12,6,11,78,78,95,93,21,12,5,5,0.3,0.3
2026-05-02T0900,1461A,91.0831,29.6292,拉萨市,拉萨火车站,,27,6,12,6,8,85,85,107,104,16,7,3,4,0.4,0.4
2026-05-02T0900,2520A,109.2203,23.7252,来宾市,来宾技工学校,颗粒物(PM10),55,56,46,37,31,88,88,99,98,11,7,42,10,0.9,0.6
2026-05-02T0900,3535A,109.1781,23.7293,来宾市,兴宾区政府,颗粒物(PM10),70,78,55,34,32,92,92,90,90,9,10,7,9,0.7,0.6
2026-05-02T0900,4002A,109.2312,23.7428,来宾市,中南小学,细颗粒物(PM2.5),54,43,42,37,32,94,94,103,103,12,9,16,8,0.8,0.6
2026-05-02T0900,1479A,103.8309,36.0467,兰州市,铁路设计院,,49,49,56,17,23,91,91,97,95,17,13,9,5,0.6,0.5
2026-05-02T0900,3241A,103.7439,36.0841,兰州市,百合公园,颗粒物(PM10),68,75,53,19,23,99,99,71,71,8,13,11,4,0.3,0.2
2026-05-02T0900,3242A,103.9613,35.9985,兰州市,和平,颗粒物(PM10),52,52,57,23,33,103,103,97,97,9,6,10,8,0.5,0.5
2026-05-02T0900,4236A,103.629272,36.093822,兰州市,庄浪东路808号,颗粒物(PM10),53,53,58,16,24,111,111,97,97,5,12,12,8,0.2,0.3
2026-05-02T0900,4237A,103.7251,36.104344,兰州市,安宁西路88号,颗粒物(PM10),61,65,59,18,22,112,112,83,83,9,14,13,9,0.3,0.2
2026-05-02T0900,4238A,103.846982,36.067567,兰州市,北滨河东路1号,颗粒物(PM10),52,52,48,18,22,87,87,88,86,19,14,13,10,0.5,0.5
2026-05-02T0900,1067A,116.6712,39.5109,廊坊市,药材公司,颗粒物(PM10),60,64,70,30,34,49,49,46,43,40,23,4,6,0.5,0.6
2026-05-02T0900,1068A,116.7215,39.5592,廊坊市,开发区,颗粒物(PM10),72,80,77,35,35,38,38,36,34,40,27,4,5,0.5,0.5
2026-05-02T0900,1070A,116.7246,39.5273,廊坊市,北华航天学院,颗粒物(PM10),68,74,77,35,29,36,36,34,34,54,33,5,6,0.5,0.6
2026-05-02T0900,2919A,116.7022,39.5454,廊坊市,河北工业大学,颗粒物(PM10),68,75,76,30,33,43,43,36,35,38,28,5,6,0.5,0.5
2026-05-02T0900,2536A,103.7629,29.5844,乐山市,牛耳桥,,22,19,34,15,32,35,35,63,57,18,17,4,6,0.6,0.6
2026-05-02T0900,2537A,103.7501,29.6002,乐山市,市第三水厂,NA,NA,16,29,10,29,NA,NA,65,63,22,17,4,4,0.6,0.6
2026-05-02T0900,2538A,103.7571,29.5664,乐山市,市监测站,,18,18,33,10,28,23,23,62,55,26,15,2,3,0.6,0.5
2026-05-02T0900,3361A,103.7313,29.563,乐山市,理工大学,,16,16,35,11,32,28,28,61,55,22,13,6,6,0.5,0.5
2026-05-02T0900,2599A,100.2497,26.8802,丽江市,丽江古城,,28,14,21,10,9,89,89,95,94,12,8,6,5,0.3,0.3
2026-05-02T0900,2600A,100.2203,26.8906,丽江市,市中心,,24,12,12,6,7,74,74,92,89,18,7,6,6,0.5,0.4
2026-05-02T0900,1267A,119.9141,28.4513,丽水市,监测站大楼,,35,35,28,14,11,103,103,96,93,14,12,5,5,0.4,0.4
2026-05-02T0900,1268A,119.93,28.4589,丽水市,莲都小学,,35,25,22,12,10,111,111,82,82,11,13,/,/,/,/
2026-05-02T0900,1269A,119.8794,28.4232,丽水市,余庄前,,33,33,20,20,12,75,75,70,66,20,9,4,4,0.4,0.3
2026-05-02T0900,1173A,119.1759,34.5885,连云港市,市环境监测站,细颗粒物(PM2.5),72,63,49,46,31,111,111,103,103,21,16,13,12,0.8,0.6
2026-05-02T0900,3000A,119.3577,34.6971,连云港市,德源药业,颗粒物(PM10),75,85,56,46,29,83,83,106,103,38,17,8,7,0.6,0.4
2026-05-02T0900,3007A,119.178,34.8442,连云港市,新城一中,细颗粒物(PM2.5),66,58,53,43,32,112,112,97,97,20,24,8,9,0.8,0.6
2026-05-02T0900,3008A,119.3607,34.7519,连云港市,胡沟管理处,细颗粒物(PM2.5),58,39,23,39,18,82,82,134,126,47,16,17,12,0.7,0.5
2026-05-02T0900,3009A,119.1478,34.5913,连云港市,矿山设计院,颗粒物(PM10),62,66,51,39,28,112,112,100,100,24,17,9,8,0.9,0.7
2026-05-02T0900,3434A,119.2414,34.6539,连云港市,工贸学校,颗粒物(PM10),60,64,53,39,28,131,131,137,136,19,11,8,6,0.6,0.5
2026-05-02T0900,3664A,119.4171,34.734,连云港市,连云街道,颗粒物(PM10),53,53,49,34,28,135,135,137,136,16,13,13,12,0.9,0.9
2026-05-02T0900,2573A,102.2629,27.8981,凉山彝族自治州,西昌市政府,,26,20,22,12,13,83,83,85,85,10,8,11,10,0.9,0.8
2026-05-02T0900,2574A,102.2686,27.885,凉山彝族自治州,凉山州政府,,23,21,21,12,13,73,73,72,72,7,8,8,11,0.5,0.7
2026-05-02T0900,4229A,102.2342,27.8859,凉山彝族自治州,凯乐南路30号,,23,19,19,13,13,71,71,78,77,14,8,14,7,1.1,0.6
2026-05-02T0900,2212A,123.1978,41.2036,辽阳市,宏伟区,NA,NA,50,44,16,14,70,70,57,57,NA,14,6,6,0.5,0.4
2026-05-02T0900,2213A,123.1684,41.2497,辽阳市,新华园,细颗粒物(PM2.5),66,69,62,43,22,61,61,38,38,30,23,12,5,0.6,0.5
2026-05-02T0900,2214A,123.2355,41.2663,辽阳市,滨河路,,40,40,47,21,17,61,61,50,50,22,22,7,8,0.5,0.3
2026-05-02T0900,4083A,123.153,41.2874,辽阳市,铁西路150号,颗粒物(PM10),54,55,62,26,18,65,65,43,43,30,20,8,9,0.6,0.5
2026-05-02T0900,2227A,125.1359,42.8845,辽源市,环保局,,41,41,29,15,10,85,85,36,36,13,16,7,7,0.4,0.4
2026-05-02T0900,4085A,125.0998,42.9134,辽源市,安宁大街333号,,41,41,42,11,11,84,84,46,46,10,15,7,5,0.4,0.4
2026-05-02T0900,1625A,115.9789,36.4372,聊城市,区政府,,29,22,50,7,13,90,90,99,98,12,11,8,8,0.3,0.3
2026-05-02T0900,3200A,115.9772,36.4986,聊城市,监控中心,,32,25,51,9,13,100,100,110,107,13,10,8,9,0.2,0.3
2026-05-02T0900,3513A,116.0443,36.436,聊城市,九州社区,,48,48,54,14,17,71,71,108,103,27,12,2,6,0.4,0.4
2026-05-02T0900,4018A,116.0564,36.4609,聊城市,星美广场,,40,40,51,15,14,104,104,122,119,18,10,10,6,0.3,0.4
2026-05-02T0900,4113A,116.0091,36.4495,聊城市,利民路,,28,18,34,15,17,89,89,112,108,21,12,10,11,0.5,0.5
2026-05-02T0900,2632A,94.3683,29.6373,林芝市,林芝监测站,,20,6,4,3,4,63,63,70,69,5,4,3,3,0.5,0.5
2026-05-02T0900,2633A,94.3616,29.6634,林芝市,林芝人民医院,,20,6,6,3,4,62,62,72,70,6,5,4,4,0.4,0.4
2026-05-02T0900,2603A,100.0779,23.8981,临沧市,市环保局,,28,NA,30,19,26,50,50,45,45,6,7,3,2,0.6,0.6
2026-05-02T0900,2604A,100.0894,23.882,临沧市,市气象局,,26,23,26,18,27,48,48,47,47,7,7,3,4,0.8,0.8
2026-05-02T0900,1733A,111.5552,36.0791,临汾市,临钢医院,,45,45,38,22,16,40,40,51,48,14,14,6,7,0.8,0.8
2026-05-02T0900,1734A,111.4984,36.0734,临汾市,技工学校,,34,34,41,18,24,47,47,58,54,17,14,7,7,0.5,0.6
2026-05-02T0900,1736A,111.5017,36.0857,临汾市,市委,NA,NA,32,42,13,17,NA,NA,63,60,15,12,7,8,0.6,0.7
2026-05-02T0900,3018A,111.5048,36.1015,临汾市,唐尧大酒店,颗粒物(PM10),52,52,53,24,17,50,50,66,63,15,13,6,7,0.6,0.7
2026-05-02T0900,4244A,111.4879,36.053,临汾市,启星学校,,24,24,40,15,21,43,43,54,49,16,12,6,7,0.7,0.8
2026-05-02T0900,4271A,103.2464,35.6123,临夏回族自治州,滨河东路1号,,32,19,37,6,18,101,101,73,73,4,11,8,9,0.2,0.3
2026-05-02T0900,4310A,103.207136,35.599807,临夏回族自治州,新华街21号,,38,38,34,10,20,76,76,70,70,3,5,5,6,0.3,0.2
2026-05-02T0900,1618A,118.3429,35.0532,临沂市,沂河小区,,34,34,55,22,30,93,93,109,105,22,15,12,19,0.3,0.4
2026-05-02T0900,1619A,118.2962,35.0568,临沂市,鲁南制药厂,,32,29,49,20,26,102,102,112,109,22,17,8,13,0.3,0.3
2026-05-02T0900,1620A,118.2793,34.9976,临沂市,新光毛纺厂,,32,31,51,20,28,101,101,106,103,18,18,11,17,0.3,0.3
2026-05-02T0900,1621A,118.3955,35.0889,临沂市,河东保险公司,,38,34,48,26,27,64,64,104,94,28,20,12,18,0.2,0.3
2026-05-02T0900,3370A,118.3563,35.0215,临沂市,十里堡居委,,32,29,49,22,26,88,88,104,102,25,15,13,19,0.5,0.5
2026-05-02T0900,3496A,118.359,35.1067,临沂市,南坊新区,,38,34,50,26,27,88,88,112,107,26,18,12,17,0.3,0.3
2026-05-02T0900,3860A,118.3915,35.0297,临沂市,皇山花园小区,,44,44,49,29,27,83,83,107,103,36,22,15,19,0.6,0.6
2026-05-02T0900,1870A,109.4854,24.3898,柳州市,柳东小学,,40,33,34,28,24,98,98,105,104,8,8,6,6,0.6,0.6
2026-05-02T0900,1871A,109.4109,24.3304,柳州市,环保监测站,,42,29,36,29,24,90,90,98,98,11,11,6,6,0.8,0.7
2026-05-02T0900,1872A,109.3886,24.3408,柳州市,河西水厂,,49,43,42,34,28,97,97,103,103,13,9,6,9,0.7,0.7
2026-05-02T0900,1873A,109.4263,24.2951,柳州市,市四中,,48,38,44,33,26,88,88,94,94,12,11,8,8,0.8,0.8
2026-05-02T0900,1874A,109.396,24.3658,柳州市,市九中,颗粒物(PM10),51,51,46,33,27,90,90,98,98,11,9,5,6,0.6,0.6
2026-05-02T0900,1875A,109.4912,24.3164,柳州市,古亭山,,36,28,36,25,24,94,94,104,103,9,9,6,6,0.9,0.8
2026-05-02T0900,3402A,109.5422,24.3994,柳州市,市二中,,34,26,39,23,31,106,106,106,106,8,10,10,13,0.6,0.6
2026-05-02T0900,2307A,116.5078,31.7369,六安市,监测大楼,,39,28,19,27,15,53,53,83,77,22,10,5,5,0.5,0.4
2026-05-02T0900,2308A,116.4738,31.7642,六安市,皖西学院,,40,40,25,26,15,65,65,92,86,19,10,6,6,0.5,0.4
2026-05-02T0900,2309A,116.4997,31.7904,六安市,朝阳厂,,35,NA,13,24,15,65,65,88,82,19,12,7,6,0.4,0.3
2026-05-02T0900,2310A,116.5566,31.7885,六安市,开发区,,40,NA,11,28,12,64,64,88,82,22,14,7,6,0.4,0.3
2026-05-02T0900,2577A,104.8293,26.592,六盘水市,黄土坡,NA,NA,20,22,19,16,NA,NA,58,54,14,10,9,8,0.6,0.4
2026-05-02T0900,2579A,104.8481,26.5898,六盘水市,民中,NA,NA,NA,21,NA,18,NA,NA,92,NA,NA,9,NA,8,NA,0.4
2026-05-02T0900,2580A,104.9541,26.5506,六盘水市,双水,,15,14,21,9,15,47,47,64,59,7,8,3,4,0.3,0.3
2026-05-02T0900,4151A,104.8899,26.5685,六盘水市,钟山大道中段564号,,29,29,26,16,16,37,37,60,54,8,8,3,3,0.5,0.6
2026-05-02T0900,2336A,117.022,25.1031,龙岩市,龙岩市监测站,,30,30,23,15,20,89,89,73,73,4,6,7,8,0.4,0.4
2026-05-02T0900,2337A,117.0257,25.0662,龙岩市,闽西职业技术学院,,26,23,22,13,19,83,83,66,66,3,4,8,8,0.6,0.6
2026-05-02T0900,2338A,117.0195,25.0306,龙岩市,龙岩学院,,26,21,21,15,16,83,83,61,61,5,5,5,5,/,/
2026-05-02T0900,2885A,104.9344,33.3827,陇南市,滨江中学,,43,43,44,8,11,58,58,67,65,12,8,6,5,0.6,0.6
2026-05-02T0900,3247A,104.9551,33.3709,陇南市,市总工会,,28,28,29,3,9,60,60,71,69,9,6,5,4,0.5,0.6
2026-05-02T0900,2488A,111.9984,27.7346,娄底市,市监测站,,43,43,37,29,27,68,68,44,44,7,12,9,11,0.6,0.5
2026-05-02T0900,2491A,111.9888,27.7035,娄底市,市政府,,39,29,33,27,24,68,68,57,57,9,12,6,5,0.5,0.5
2026-05-02T0900,4127A,111.9812,27.7591,娄底市,涟钢职大,,30,30,31,9,23,56,56,30,30,14,15,7,7,0.4,0.3
2026-05-02T0900,4128A,112.0303,27.7457,娄底市,娄底体校,,39,NA,34,27,27,63,63,NA,NA,9,9,6,5,0.5,0.4
2026-05-02T0900,1894A,105.4427,28.9063,泸州市,小市上码头,,28,23,41,19,38,46,46,51,50,11,13,7,7,0.5,0.6
2026-05-02T0900,1895A,105.4241,28.8573,泸州市,兰田宪桥,,45,45,71,22,35,49,49,61,60,9,9,4,4,0.6,0.6
2026-05-02T0900,1896A,105.4378,28.8833,泸州市,市环监站,,28,28,55,15,34,57,57,64,63,13,15,6,6,0.6,0.7
2026-05-02T0900,4272A,105.3689,28.7783,泸州市,纳溪中医医院,,39,35,42,27,37,47,47,68,64,13,11,4,4,0.7,0.6
2026-05-02T0900,2183A,111.1447,37.5212,吕梁市,环保局,颗粒物(PM10),52,52,34,12,11,44,44,43,39,40,24,5,5,0.6,0.3
2026-05-02T0900,2185A,111.1285,37.5338,吕梁市,自来水公司,颗粒物(PM10),52,52,44,20,19,54,54,49,46,24,20,6,5,0.6,0.5
2026-05-02T0900,2867A,111.1225,37.5093,吕梁市,马茂庄小学,颗粒物(PM10),56,58,49,17,16,54,54,36,34,27,22,2,3,0.5,0.4
2026-05-02T0900,1812A,112.3934,34.6517,洛阳市,市委党校,,29,27,33,15,20,90,90,89,88,16,15,7,8,0.7,0.6
2026-05-02T0900,1815A,112.494,34.6883,洛阳市,河南林校,,37,37,40,22,17,97,97,91,91,15,14,10,10,0.5,0.4
2026-05-02T0900,1816A,112.3843,34.623,洛阳市,开发区管委会,,25,24,35,17,23,76,76,87,84,12,12,9,11,0.6,0.5
2026-05-02T0900,1817A,112.4263,34.6249,洛阳市,市委新办公区,,28,25,37,19,23,87,87,83,82,13,13,8,10,0.5,0.5
2026-05-02T0900,3340A,112.6005,34.6323,洛阳市,伊滨,,25,22,33,13,21,77,77,75,75,12,13,8,9,0.3,0.3
2026-05-02T0900,3341A,112.495,34.6338,洛阳市,中移产业园,,30,22,34,21,21,86,86,86,85,17,18,8,9,0.7,0.6
2026-05-02T0900,3593A,112.5736,34.8993,洛阳市,吉利监测站,,25,NA,36,17,17,76,76,NA,NA,8,12,8,9,0.6,0.4
2026-05-02T0900,3635A,112.3678,34.6623,洛阳市,河科大西苑校区,,28,22,35,19,22,89,89,87,87,14,15,9,9,0.8,0.5
2026-05-02T0900,3636A,112.4387,34.678,洛阳市,英才小学,,38,38,42,15,23,86,86,86,86,12,11,7,7,0.7,0.5
2026-05-02T0900,4214A,112.460027,34.694929,洛阳市,春都路1号院,,34,34,38,16,17,89,89,83,83,10,12,9,9,0.7,0.5
2026-05-02T0900,2399A,114.051,33.5721,漯河市,三五一五工厂,,35,28,40,24,22,80,80,105,101,19,15,5,5,0.4,0.4
2026-05-02T0900,2400A,114.0055,33.5698,漯河市,漯河大学,,32,NA,29,22,23,80,80,107,102,20,17,4,5,0.4,0.4
2026-05-02T0900,2401A,114.0134,33.5826,漯河市,市水利局,,26,22,34,15,22,82,82,100,97,15,13,4,5,0.5,0.5
2026-05-02T0900,2402A,114.0261,33.5697,漯河市,市广电局,,38,NA,33,26,22,79,79,104,101,18,16,4,5,0.3,0.3
2026-05-02T0900,3478A,113.9691,33.568,漯河市,市图书馆,,33,31,38,23,20,75,75,101,96,12,14,6,7,0.5,0.5
2026-05-02T0900,4250A,114.089259,33.588274,漯河市,韶山路11号,,28,20,42,19,23,73,73,83,80,15,18,7,7,0.3,0.3
2026-05-02T0900,1798A,118.5084,31.6838,马鞍山市,湖东路四小,颗粒物(PM10),53,54,36,29,17,94,94,121,117,24,18,9,9,0.7,0.4
2026-05-02T0900,1799A,118.5019,31.6449,马鞍山市,开发区,颗粒物(PM10),85,98,52,32,18,63,63,103,96,40,17,10,10,0.8,0.5
2026-05-02T0900,3633A,118.4914,31.681,马鞍山市,雨山,颗粒物(PM10),55,57,34,28,17,90,90,119,114,28,17,9,8,0.9,0.6
2026-05-02T0900,4191A,118.527362,31.722269,马鞍山市,慈湖高新区,颗粒物(PM10),62,66,39,30,18,81,81,115,109,39,20,10,9,0.5,0.3
2026-05-02T0900,1686A,111.0285,21.469,茂名市,电白南海,,26,24,31,10,14,83,83,78,75,6,10,6,6,0.8,0.8
2026-05-02T0900,1687A,110.9294,21.6533,茂名市,茂石化七小,,44,44,30,26,20,53,53,71,68,14,12,15,10,0.8,0.7
2026-05-02T0900,1688A,110.9108,21.6688,茂名市,健康路,,31,31,22,18,18,67,67,81,78,12,11,10,6,0.7,0.6
2026-05-02T0900,1689A,110.8592,21.6826,茂名市,高岭,,34,34,34,16,18,73,73,80,78,11,10,6,8,/,/
2026-05-02T0900,3450A,111.0101,21.5165,茂名市,电白水东,,27,27,21,16,16,67,67,74,70,11,10,4,4,/,/
2026-05-02T0900,2540A,103.8414,30.0871,眉山市,气象局,,38,38,49,9,27,33,33,36,36,28,21,17,7,0.9,0.7
2026-05-02T0900,3148A,103.829,30.0563,眉山市,区人社局,,38,38,52,12,35,29,29,44,42,36,27,14,7,1.0,0.8
2026-05-02T0900,4148A,103.8836,30.0695,眉山市,眉职院,,29,29,57,11,29,38,38,38,38,20,21,9,8,0.9,0.8
2026-05-02T0900,1690A,116.1248,24.3307,梅州市,梅江月梅,,30,NA,26,21,23,71,71,54,54,10,11,/,/,/,/
2026-05-02T0900,1691A,116.0798,24.2719,梅州市,梅县新城,细颗粒物(PM2.5),52,36,29,36,23,42,42,38,35,19,15,9,8,0.6,0.5
2026-05-02T0900,3315A,116.1234,24.2994,梅州市,梅龙,,32,27,28,22,22,76,76,58,56,9,11,12,7,0.3,0.4
2026-05-02T0900,1878A,104.7775,31.4741,绵阳市,富乐山,,42,42,36,26,23,37,37,17,17,18,14,9,8,0.8,0.7
2026-05-02T0900,1880A,104.6698,31.4668,绵阳市,高新区自来水公司,,35,32,33,24,21,34,34,23,23,15,17,8,7,0.5,0.5
2026-05-02T0900,3491A,104.6899,31.5324,绵阳市,西科大附属小学,,42,39,32,29,20,36,36,20,20,17,17,18,5,0.6,0.4
2026-05-02T0900,3492A,104.5647,31.5343,绵阳市,安州区旅游局,,32,23,30,22,17,23,23,24,24,16,10,9,4,0.7,0.4
2026-05-02T0900,4146A,104.7092,31.4972,绵阳市,科技城新区公安局,,36,36,36,22,20,40,40,26,26,16,15,8,6,0.6,0.6
2026-05-02T0900,4226A,104.765114,31.453094,绵阳市,绵阳市气象局,,33,26,34,23,21,34,34,25,25,19,22,10,9,0.7,0.6
2026-05-02T0900,1784A,129.61,44.561,牡丹江市,环保大楼,,30,30,34,6,16,84,84,65,65,9,10,3,3,0.2,0.2
2026-05-02T0900,1787A,129.6364,44.6075,牡丹江市,机车工厂,,27,27,38,3,21,80,80,48,48,11,13,7,7,0.2,0.3
2026-05-02T0900,1788A,129.6386,44.5462,牡丹江市,第一中学,,38,38,35,7,16,82,82,65,65,9,8,4,4,0.2,0.3
2026-05-02T0900,4287A,129.5992,44.5964,牡丹江市,东晓云街98号,,39,39,42,3,16,82,82,53,53,7,9,8,4,0.1,0.2
2026-05-02T0900,2531A,105.0703,29.61,内江市,市监测站,,33,27,54,23,38,52,52,64,62,12,11,8,9,0.4,0.4
2026-05-02T0900,2533A,105.0657,29.5807,内江市,内江二中,,35,NA,53,24,38,46,46,64,60,21,14,6,7,0.4,0.4
2026-05-02T0900,2534A,105.0407,29.5828,内江市,内江日报社,,37,37,48,24,38,37,37,67,62,22,13,12,14,0.5,0.5
2026-05-02T0900,4147A,105.0433,29.6105,内江市,玉峰路西段888号,,35,30,50,24,38,44,44,64,61,19,14,4,6,0.5,0.6
2026-05-02T0900,2628A,92.0653,31.4846,那曲市,那曲监测站,,32,32,28,19,22,99,99,101,101,16,12,6,6,0.6,0.7
2026-05-02T0900,4243A,92.0515,31.4787,那曲市,那曲市委宣传部,,32,25,20,18,16,102,102,104,104,7,8,9,10,0.5,0.5
2026-05-02T0900,1291A,115.8887,28.7006,南昌市,省林业公司,细颗粒物(PM2.5),60,NA,31,40,24,20,20,12,10,55,35,3,3,0.7,0.5
2026-05-02T0900,1292A,115.813,28.7443,南昌市,林科所,,48,NA,18,33,16,29,29,24,24,43,27,9,8,0.5,0.5
2026-05-02T0900,1294A,115.8518,28.687,南昌市,建工学校,细颗粒物(PM2.5),52,37,35,36,22,27,27,16,16,29,24,8,7,1.0,0.8
2026-05-02T0900,1295A,115.8926,28.6425,南昌市,象湖,,42,NA,29,29,27,29,29,13,13,23,27,10,9,1.0,0.9
2026-05-02T0900,3046A,115.9084,28.6062,南昌市,机电学校,,36,30,38,25,23,34,34,12,12,12,27,6,6,0.6,0.5
2026-05-02T0900,3690A,115.9718,28.7032,南昌市,外国语学校,,38,29,30,26,24,34,34,23,23,18,22,13,11,0.8,0.6
2026-05-02T0900,4106A,115.7923,28.6873,南昌市,工业二路,,34,34,33,22,18,21,21,19,18,36,26,5,5,0.6,0.5
2026-05-02T0900,4192A,115.931587,28.686774,南昌市,南京东路235号,,38,37,39,26,26,35,35,24,24,27,24,10,7,0.7,0.5
2026-05-02T0900,1906A,106.0791,30.8022,南充市,南充市委,,23,21,45,16,32,39,39,36,35,10,16,5,6,0.4,0.4
2026-05-02T0900,1907A,106.1038,30.8215,南充市,南充炼油厂,,27,27,46,14,31,40,40,41,40,9,13,5,5,0.3,0.3
2026-05-02T0900,4227A,106.108336,30.788436,南充市,梨树横街98号,,19,18,43,13,30,47,47,45,44,11,14,6,6,0.3,0.3
2026-05-02T0900,4304A,106.1172,30.843,南充市,清泉寺北路188号,,31,31,46,13,29,40,40,43,40,11,10,6,6,0.4,0.4
2026-05-02T0900,4305A,106.067,30.7616,南充市,同庆路1号,,20,19,43,14,29,35,35,42,40,17,17,6,6,0.4,0.4
2026-05-02T0900,1151A,118.8033,32.1085,南京市,迈皋桥,,42,35,30,29,12,70,70,126,115,20,9,4,3,0.4,0.4
2026-05-02T0900,1152A,118.7487,32.057,南京市,草场门,,46,44,32,32,15,87,87,121,114,26,18,8,6,0.5,0.4
2026-05-02T0900,1154A,118.770105,32.004342,南京市,中华门,NA,NA,NA,35,NA,14,67,67,112,104,21,13,NA,9,0.6,0.5
2026-05-02T0900,1155A,118.8059,32.0329,南京市,瑞金路,颗粒物(PM10),51,51,33,33,12,75,75,120,111,36,18,9,7,0.7,0.6
2026-05-02T0900,1156A,118.7946,32.0774,南京市,玄武湖,,36,36,32,23,11,79,79,115,108,23,11,5,5,0.5,0.4
2026-05-02T0900,1157A,118.6415,32.0964,南京市,浦口,,44,44,35,22,9,42,42,108,98,26,18,5,6,0.5,0.4
2026-05-02T0900,1158A,118.730129,32.000956,南京市,奥体中心,颗粒物(PM10),53,54,36,31,13,63,63,93,88,32,18,11,10,0.4,0.4
2026-05-02T0900,1159A,118.9072,32.1047,南京市,仙林大学城,,44,44,38,29,15,88,88,121,115,23,15,11,11,0.7,0.6
2026-05-02T0900,3422A,118.8443,31.919,南京市,江宁彩虹桥,颗粒物(PM10),57,59,38,28,10,92,92,118,114,20,12,5,5,0.6,0.5
2026-05-02T0900,3427A,118.8497,32.3599,南京市,六合雄州,颗粒物(PM10),56,58,34,30,13,63,63,103,97,40,22,7,6,0.7,0.6
2026-05-02T0900,4086A,118.7641,32.0841,南京市,新模范马路66号,,46,46,37,28,10,96,96,133,126,29,12,4,4,0.5,0.4
2026-05-02T0900,4249A,118.8707617,31.34017673,南京市,汶溪路181号,,38,30,32,26,12,95,95,121,118,20,15,8,7,0.6,0.5
2026-05-02T0900,4312A,119.019,31.6512,南京市,中山西路1号,,44,44,27,30,12,64,64,90,86,30,17,3,4,0.7,0.4
2026-05-02T0900,1401A,108.3098,22.788,南宁市,二十一中,,36,35,33,25,25,80,80,95,92,7,8,1,2,0.3,0.3
2026-05-02T0900,1402A,108.3135,22.8529,南宁市,北湖,,40,28,34,28,27,82,82,103,99,9,7,3,4,0.7,0.6
2026-05-02T0900,1403A,108.3205,22.8222,南宁市,市监测站,,35,29,34,24,23,76,76,98,94,10,8,2,4,0.6,0.6
2026-05-02T0900,1404A,108.3828,22.8038,南宁市,大自然花园,,44,44,32,28,24,77,77,100,95,9,10,4,5,0.7,0.5
2026-05-02T0900,1406A,108.2397,22.8462,南宁市,区农职院,,33,33,34,20,23,81,81,100,96,7,6,2,3,0.8,0.8
2026-05-02T0900,1407A,108.3285,22.7356,南宁市,英华嘉园,,36,31,36,25,25,75,75,91,88,14,12,4,5,0.6,0.6
2026-05-02T0900,3401A,108.4829,22.762,南宁市,红星社区,,43,30,32,30,24,72,72,96,92,10,8,4,6,0.8,0.7
2026-05-02T0900,4132A,108.2927,23.1477,南宁市,起凤路9号,,48,41,37,33,27,85,85,109,105,10,7,5,6,0.7,0.6
2026-05-02T0900,4221A,108.2177,22.7774,南宁市,乐贤路16号,,35,33,34,24,23,84,84,89,89,10,14,7,6,0.7,0.7
2026-05-02T0900,2332A,118.1682,26.6371,南平市,南平市监测站,,33,20,18,13,10,104,104,94,92,7,6,5,5,0.4,0.3
2026-05-02T0900,2334A,118.1757,26.6276,南平市,南平七中,,30,22,18,11,9,95,95,93,91,7,6,3,3,0.4,0.4
2026-05-02T0900,1168A,120.9056,31.9669,南通市,狼山街道,,34,34,43,17,19,96,96,98,98,40,28,5,6,0.4,0.6
2026-05-02T0900,1170A,120.8635,32.0231,南通市,城中,,44,44,54,16,22,115,115,108,108,22,25,6,9,0.5,0.8
2026-05-02T0900,1171A,120.9376,31.9301,南通市,星湖花园,,37,37,44,17,21,116,116,112,112,24,23,5,6,0.4,0.6
2026-05-02T0900,1172A,120.8053,32.046,南通市,紫琅学院,,37,37,44,16,21,114,114,114,114,35,34,8,10,0.6,0.9
2026-05-02T0900,3291A,121.0631,32.0644,南通市,通州监测站,,44,44,58,15,27,119,119,95,95,20,21,6,7,0.5,0.7
2026-05-02T0900,3432A,120.9348,31.9874,南通市,环境教育馆,,41,41,49,17,24,115,115,109,109,22,24,6,8,0.5,0.7
2026-05-02T0900,4091A,120.8692,31.9885,南通市,洪江路,,42,42,45,18,24,110,110,101,101,24,28,7,9,0.7,0.9
2026-05-02T0900,2404A,112.5338,33.0086,南阳市,瓦房庄,,29,29,40,17,20,89,89,91,90,11,13,4,5,0.4,0.4
2026-05-02T0900,2405A,112.5002,32.9734,南阳市,汉画馆,,34,34,43,19,19,80,80,82,82,10,12,5,6,0.5,0.4
2026-05-02T0900,2406A,112.5778,33.0144,南阳市,气象站,,25,25,38,17,21,80,80,87,86,8,9,4,5,0.4,0.4
2026-05-02T0900,2407A,112.548,32.9687,南阳市,理工学院,,33,32,40,23,22,80,80,99,96,10,10,5,6,0.4,0.4
2026-05-02T0900,4008A,112.5233,32.9921,南阳市,卧龙区政府,,33,30,41,23,20,78,78,92,90,13,12,6,7,0.5,0.4
2026-05-02T0900,1234A,121.8352,29.9111,宁波市,区环保大楼,,43,19,36,8,17,136,136,158,155,5,15,6,7,0.3,0.3
2026-05-02T0900,1235A,121.5595,29.8208,宁波市,万里学院,,43,21,31,8,16,136,136,141,140,5,10,4,4,0.3,0.3
2026-05-02T0900,1236A,121.713,29.9564,宁波市,龙赛医院,,43,20,34,7,15,137,137,154,152,6,14,6,6,0.3,0.4
2026-05-02T0900,1240A,121.5855,29.8635,宁波市,太古小学,,40,23,28,9,15,125,125,130,130,6,12,4,4,0.5,0.4
2026-05-02T0900,1241A,121.5239,29.8673,宁波市,市环境监测中心,,41,32,34,8,17,129,129,134,134,9,17,8,8,0.5,0.5
2026-05-02T0900,2871A,121.6156,29.9015,宁波市,万里国际学校,,44,20,32,9,15,139,139,152,150,7,12,6,6,0.5,0.4
2026-05-02T0900,3710A,121.5593,29.8976,宁波市,白沙活动中心,,42,27,30,9,17,134,134,138,138,7,13,6,6,0.2,0.3
2026-05-02T0900,4095A,121.8962,29.7529,宁波市,中科路88号,,46,14,31,9,25,145,145,163,163,1,5,7,7,0.5,0.5
2026-05-02T0900,2341A,119.5387,26.6611,宁德市,宁德市监测站,,30,30,24,18,16,90,90,84,83,14,13,8,8,0.5,0.4
2026-05-02T0900,3209A,119.5231,26.6562,宁德市,宁德一中,,36,29,24,25,17,93,93,79,79,12,11,8,8,0.6,0.5
2026-05-02T0900,2618A,98.859,25.8541,怒江傈僳族自治州,州监测站,,18,15,20,10,14,55,55,47,47,5,7,6,6,0.2,0.3
2026-05-02T0900,2619A,98.8607,25.8168,怒江傈僳族自治州,泸水一中,,19,NA,15,13,16,49,49,41,41,8,9,4,4,0.3,0.4
2026-05-02T0900,1888A,101.6891,26.571,攀枝花市,弄弄坪,,32,32,29,12,10,64,64,70,69,25,17,19,25,0.6,1.2
2026-05-02T0900,1889A,101.577,26.5914,攀枝花市,河门口,,43,43,31,18,14,53,53,71,66,26,13,26,12,1.1,0.6
2026-05-02T0900,1891A,101.7365,26.4986,攀枝花市,仁和,,27,27,17,18,11,43,43,73,72,24,10,6,5,0.6,0.4
2026-05-02T0900,2835A,101.7222,26.567,攀枝花市,四十中小,,23,21,23,13,10,72,72,79,78,21,9,33,11,0.7,0.7
2026-05-02T0900,1604A,122.0303,41.1489,盘锦市,开发区,颗粒物(PM10),65,70,44,34,19,54,54,18,18,40,26,22,9,0.8,0.5
2026-05-02T0900,1605A,122.0486,41.0883,盘锦市,兴隆台,细颗粒物(PM2.5),86,71,46,53,28,51,51,13,13,60,38,18,9,1.0,0.6
2026-05-02T0900,1606A,121.8297,41.1026,盘锦市,新生街道,,43,43,33,19,12,68,68,16,16,29,32,12,7,0.7,0.5
2026-05-02T0900,1832A,113.3257,33.7423,平顶山市,新华旅馆,,29,27,48,18,26,90,90,96,94,10,12,5,4,0.5,0.5
2026-05-02T0900,1833A,113.2917,33.737,平顶山市,规划设计院,,48,48,48,22,25,74,74,97,93,13,14,7,7,0.5,0.5
2026-05-02T0900,1834A,113.182,33.7738,平顶山市,平顶山工学院,,38,32,38,26,25,68,68,84,82,11,10,6,6,0.5,0.5
2026-05-02T0900,3594A,112.8736,33.9068,平顶山市,石龙区,,35,33,46,24,26,72,72,63,61,10,15,7,7,0.4,0.4
2026-05-02T0900,4116A,113.284,33.7139,平顶山市,姚电大道23号,,46,44,56,32,28,40,40,79,73,16,16,5,5,0.5,0.5
2026-05-02T0900,2656A,106.6633,35.5338,平凉市,聚贤嘉苑,颗粒物(PM10),88,102,72,27,22,100,100,91,91,6,8,3,6,0.4,0.5
2026-05-02T0900,2657A,106.7021,35.5307,平凉市,博物馆,颗粒物(PM10),75,85,64,23,21,102,102,95,95,5,7,7,8,0.4,0.5
2026-05-02T0900,2348A,113.8384,27.6436,萍乡市,中医院,,38,NA,23,26,18,65,65,59,57,15,14,15,11,0.6,0.6
2026-05-02T0900,2350A,113.8677,27.6438,萍乡市,市环保局,,50,50,34,33,22,60,60,54,50,21,19,29,24,0.9,0.8
2026-05-02T0900,2351A,113.8663,27.6202,萍乡市,安源区政府,颗粒物(PM10),54,55,32,34,22,51,51,47,45,25,20,24,13,1.7,0.9
2026-05-02T0900,4107A,113.8686,27.6668,萍乡市,联洪村委会,,48,48,34,32,19,57,57,55,52,15,13,12,9,0.4,0.3
2026-05-02T0900,2319A,119.0142,25.4324,莆田市,荔城区仓后路,,38,38,30,15,17,101,101,102,98,7,4,/,/,/,/
2026-05-02T0900,2320A,119.0016,25.4553,莆田市,莆田市监测站,,37,37,26,10,14,104,104,99,97,8,9,3,3,0.4,0.5
2026-05-02T0900,2321A,119.112,25.4561,莆田市,涵江区六中,,34,19,28,10,15,107,107,103,101,6,7,/,/,0.5,0.5
2026-05-02T0900,2322A,119.1014,25.3215,莆田市,秀屿区政府,颗粒物(PM10),51,51,33,20,20,103,103,107,105,13,10,5,5,0.6,0.5
2026-05-02T0900,2392A,115.0312,35.7636,濮阳市,环保局,,28,21,39,8,15,88,88,86,84,15,15,4,4,0.5,0.5
2026-05-02T0900,3021A,115,35.7667,濮阳市,濮水河管理处,,25,24,35,9,17,77,77,59,55,10,11,3,4,0.5,0.6
2026-05-02T0900,4118A,115.0552,35.7816,濮阳市,中原东路68号,,31,25,40,8,16,99,99,87,86,8,9,5,4,0.5,0.6
2026-05-02T0900,4216A,115.0923632,35.76857718,濮阳市,任丘路479号,,31,24,41,7,19,97,97,83,83,12,16,8,4,0.5,0.5
2026-05-02T0900,2601A,100.9801,22.7634,普洱市,市环保局,,45,45,44,18,21,26,26,46,44,10,8,5,5,0.9,0.8
2026-05-02T0900,2602A,100.9763,22.8237,普洱市,普洱第二中学,,35,34,39,24,24,43,43,46,46,16,10,7,7,0.9,0.8
2026-05-02T0900,3345A,131.0413,45.7795,七台河市,中波台,颗粒物(PM10),70,77,42,35,27,104,104,81,81,10,13,5,4,0.4,0.4
2026-05-02T0900,3637A,131.0136,45.7688,七台河市,人民广场,颗粒物(PM10),70,78,39,31,18,95,95,83,83,15,14,9,7,0.4,0.4
2026-05-02T0900,3684A,130.8639,45.8144,七台河市,新建矿广场,颗粒物(PM10),60,63,38,18,15,90,90,63,63,13,12,11,9,0.4,0.4
2026-05-02T0900,1779A,123.9307,47.3641,齐齐哈尔市,安居小区,,30,30,26,3,5,83,83,66,66,1,2,9,10,0.2,0.2
2026-05-02T0900,1780A,123.9497,47.3389,齐齐哈尔市,中心广场,,27,12,18,3,6,84,84,75,75,3,3,5,5,0.2,0.2
2026-05-02T0900,1781A,123.9483,47.3229,齐齐哈尔市,农牧车辆厂,,27,27,25,3,5,85,85,73,73,6,4,4,4,0.3,0.3
2026-05-02T0900,1783A,123.9442,47.2994,齐齐哈尔市,市环境监测站,,27,23,25,3,6,85,85,72,72,4,5,3,3,0.2,0.2
2026-05-02T0900,3662A,123.6341,47.2079,齐齐哈尔市,富区青少年活动中心,,27,24,25,3,6,85,85,70,70,2,5,3,3,0.3,0.3
2026-05-02T0900,2591A,107.9765,26.5724,黔东南苗族侗族自治州,市环境监测站,,41,41,31,25,20,86,86,98,96,8,5,3,2,0.4,0.4
2026-05-02T0900,2881A,107.8909,26.531,黔东南苗族侗族自治州,凯里学院,,38,29,25,26,21,95,95,108,106,5,3,2,2,0.5,0.4
2026-05-02T0900,2593A,107.5223,26.2371,黔南布依族苗族自治州,小围寨,,32,24,22,22,18,87,87,94,93,5,5,6,5,0.6,0.6
2026-05-02T0900,3538A,107.5175,26.2977,黔南布依族苗族自治州,沙坝,,36,27,23,25,16,68,68,83,81,4,4,4,4,0.6,0.6
2026-05-02T0900,2589A,104.9022,25.0943,黔西南布依族苗族自治州,场坝街,,24,NA,21,16,17,74,74,73,72,4,3,5,6,0.3,0.4
2026-05-02T0900,2590A,104.8812,25.0994,黔西南布依族苗族自治州,坪东大道,,26,23,22,18,18,71,71,67,67,8,6,4,4,0.3,0.3
2026-05-02T0900,2502A,108.6238,21.9667,钦州市,市环保站,,27,27,29,10,13,83,83,99,97,7,10,1,2,0.6,0.6
2026-05-02T0900,2503A,108.655,21.9481,钦州市,沙埠小学,,38,38,41,12,20,84,84,85,85,6,14,2,4,0.5,0.6
2026-05-02T0900,2504A,108.5989,21.7435,钦州市,港区一小,,34,34,37,16,22,84,84,98,93,11,14,5,5,0.8,0.7
2026-05-02T0900,3404A,108.5959,21.9634,钦州市,北职校,,29,28,28,20,17,84,84,96,96,6,10,5,3,0.6,0.5
2026-05-02T0900,1046A,119.5247,39.9346,秦皇岛市,建设大厦,,49,49,49,18,10,37,37,33,33,52,29,8,6,0.4,0.3
2026-05-02T0900,3132A,119.5979,39.938,秦皇岛市,文明里,颗粒物(PM10),62,66,56,11,11,48,48,40,40,49,32,11,10,0.3,0.3
2026-05-02T0900,4066A,119.7458,39.9952,秦皇岛市,南园路157号,颗粒物(PM10),51,51,49,8,16,50,50,13,13,44,45,10,8,0.4,0.3
2026-05-02T0900,4067A,119.5131,39.8858,秦皇岛市,翠岛大街1号,,39,39,40,18,11,64,64,62,62,37,26,10,10,0.3,0.3
2026-05-02T0900,4198A,119.509013,39.825305,秦皇岛市,北戴河轮滑馆,,50,50,49,17,12,55,55,32,32,40,36,9,9,0.3,0.4
2026-05-02T0900,1310A,120.404,36.0625,青岛市,市南区东部子站,,48,48,67,24,40,113,113,92,92,14,24,8,9,0.5,0.5
2026-05-02T0900,1311A,120.362344,36.10282,青岛市,四方区子站,,48,48,60,32,38,132,132,120,120,22,20,8,9,0.9,0.9
2026-05-02T0900,1312A,120.294373,36.054183,青岛市,市南区西部子站,颗粒物(PM10),56,58,68,26,38,110,110,103,103,36,33,6,8,0.5,0.6
2026-05-02T0900,1313A,120.4581,36.0858,青岛市,崂山区子站,颗粒物(PM10),55,56,70,23,37,95,95,103,100,20,11,10,12,0.3,0.4
2026-05-02T0900,1315A,120.3945,36.3083,青岛市,城阳区子站,颗粒物(PM10),56,58,65,29,30,121,121,110,110,18,18,10,10,0.8,0.8
2026-05-02T0900,3642A,120.3454,36.0735,青岛市,市北区南部,,44,44,55,24,34,128,128,113,113,7,14,4,6,0.8,0.8
2026-05-02T0900,3643A,120.3897,36.18,青岛市,李沧区北部,颗粒物(PM10),56,58,61,30,33,110,110,99,99,19,18,11,12,0.6,0.7
2026-05-02T0900,4110A,120.5222,36.4089,青岛市,盟旺路653号,,44,44,46,27,26,133,133,130,129,11,9,7,6,0.8,0.8
2026-05-02T0900,4290A,120.196923,35.954556,青岛市,珠江路669号,颗粒物(PM10),55,56,74,28,37,116,116,111,111,19,28,6,7,0.7,0.7
2026-05-02T0900,4291A,120.0424,35.8656,青岛市,黄岛区人民政府广场,颗粒物(PM10),53,53,69,24,35,107,107,91,91,20,23,10,10,0.7,0.8
2026-05-02T0900,1703A,113.0218,23.7086,清远市,凤城街办,,41,41,37,22,21,42,42,58,54,33,24,/,/,/,/
2026-05-02T0900,3025A,113.0479,23.6343,清远市,技师学院,,44,44,34,25,19,50,50,64,60,24,20,7,6,0.7,0.6
2026-05-02T0900,3318A,112.9898,23.7403,清远市,清新太和,,41,41,37,23,22,47,47,72,67,26,19,6,8,0.6,0.5
2026-05-02T0900,3455A,113.076,23.72,清远市,清城东城,,44,44,35,24,21,51,51,61,60,24,20,/,/,/,/
2026-05-02T0900,2661A,107.6325,35.7357,庆阳市,庆阳五中,,44,44,32,13,17,75,75,74,74,6,8,2,2,0.2,0.4
2026-05-02T0900,2662A,107.6361,35.7067,庆阳市,市环保局,,48,48,35,12,17,80,80,85,84,8,9,4,5,0.3,0.4
2026-05-02T0900,1916A,103.7897,25.5036,曲靖市,环境监测站,,27,27,20,13,11,60,60,69,68,11,7,4,3,0.5,0.3
2026-05-02T0900,1917A,103.8013,25.5357,曲靖市,烟厂办公区,,21,21,18,14,9,56,56,65,64,10,6,4,3,0.4,0.3
2026-05-02T0900,3376A,103.7926,25.4651,曲靖市,南苑二区,,24,24,15,9,10,62,62,68,68,8,7,3,4,0.4,0.3
2026-05-02T0900,3377A,103.7442,25.5259,曲靖市,曲靖师范学院,细颗粒物(PM2.5),64,NA,20,42,14,50,50,64,62,20,9,7,3,0.5,0.3
2026-05-02T0900,1264A,118.8694,28.94,衢州市,环保大楼,,36,35,32,25,20,90,90,63,63,13,16,/,/,/,/
2026-05-02T0900,1266A,118.8622,28.9809,衢州市,衢州学院,,37,37,27,24,17,72,72,57,57,21,17,7,7,0.4,0.4
2026-05-02T0900,4097A,118.9646,28.9832,衢州市,衢州三中,,47,47,31,28,19,64,64,48,48,26,25,8,8,0.4,0.4
2026-05-02T0900,1611A,118.5818,24.9116,泉州市,涂山街,,38,38,31,26,22,72,72,77,74,25,16,4,4,0.5,0.4
2026-05-02T0900,1612A,118.597,24.8976,泉州市,津头埔,,42,42,32,25,21,86,86,94,89,20,15,4,4,0.5,0.4
2026-05-02T0900,1613A,118.6669,24.9422,泉州市,万安,NA,NA,38,30,18,19,72,72,84,80,23,14,NA,4,0.6,0.5
2026-05-02T0900,4105A,118.6355,24.9148,泉州市,霞新路6号,NA,NA,NA,27,NA,20,151,151,94,94,9,8,/,/,0.5,0.5
2026-05-02T0900,2626A,88.8873,29.2723,日喀则市,日喀则监测站,,33,NA,11,6,4,105,105,NA,NA,10,6,6,8,0.5,0.5
2026-05-02T0900,3726A,88.8775,29.2425,日喀则市,林业技术推广中心,,30,NA,17,12,3,96,96,NA,NA,8,6,10,8,0.6,0.4
2026-05-02T0900,1659A,119.4711,35.421,日照市,监测站,,28,19,53,15,27,87,87,75,75,32,30,9,12,0.5,0.6
2026-05-02T0900,1660A,119.523,35.4216,日照市,市政府广场,,35,17,56,8,27,111,111,98,98,16,28,6,10,0.7,0.8
2026-05-02T0900,1661A,119.5511,35.4113,日照市,港务局,,28,24,76,14,32,88,88,90,90,26,37,7,10,0.8,0.7
2026-05-02T0900,3507A,119.5326,35.4627,日照市,职业技术学院,,34,14,67,9,30,108,108,100,100,19,29,8,12,0.6,0.8
2026-05-02T0900,3604A,119.3267,35.1043,日照市,岚山环保分局,,36,36,54,20,27,102,102,114,111,29,24,14,16,0.8,0.8
2026-05-02T0900,1835A,111.1922,34.7752,三门峡市,市政府,,28,28,33,17,17,50,50,68,64,15,14,9,11,0.6,0.6
2026-05-02T0900,1836A,111.1588,34.794,三门峡市,开发区,,36,36,38,23,20,57,57,70,67,7,12,9,10,0.5,0.6
2026-05-02T0900,3039A,111.1911,34.7829,三门峡市,三门峡市第一小学,,36,26,32,25,21,54,54,70,67,12,12,10,10,0.4,0.4
2026-05-02T0900,3598A,111.1031,34.719,三门峡市,富达温泉假日酒店,,38,33,36,26,25,52,52,52,52,14,13,7,9,0.4,0.4
2026-05-02T0900,2324A,117.621,26.2626,三明市,三钢,,29,20,20,20,15,50,50,25,25,14,13,10,6,0.6,0.5
2026-05-02T0900,2325A,117.6352,26.2714,三明市,三明二中,,25,17,21,17,14,41,41,24,24,14,11,8,5,0.6,0.5
2026-05-02T0900,2326A,117.6028,26.2377,三明市,三元区政府,,39,39,38,26,17,29,29,16,16,23,16,14,7,1.8,0.8
2026-05-02T0900,1877A,109.4962,18.2682,三亚市,河西子站,,25,17,20,16,14,79,79,85,84,5,4,4,4,0.5,0.5
2026-05-02T0900,3540A,109.7348,18.3443,三亚市,君悦子站,,29,29,22,13,13,64,64,60,57,10,8,3,3,0.5,0.5
2026-05-02T0900,4135A,109.1714,18.3739,三亚市,城东小学站,,25,21,26,17,16,64,64,62,62,6,8,/,/,/,/
2026-05-02T0900,2624A,91.7592,29.234,山南市,山南监测站,,32,NA,10,8,4,101,101,109,107,4,3,7,6,0.2,0.2
2026-05-02T0900,2625A,91.7701,29.2436,山南市,山南人民医院,,35,7,12,3,5,110,110,111,110,2,3,6,6,0.3,0.3
2026-05-02T0900,1674A,116.6795,23.3666,汕头市,金平子站,,36,NA,26,23,17,114,114,100,100,16,13,7,5,0.6,0.6
2026-05-02T0900,1675A,116.7248,23.3632,汕头市,龙湖子站,,35,29,26,22,16,111,111,106,106,12,8,8,6,/,/
2026-05-02T0900,1676A,116.7257,23.2774,汕头市,濠江子站,,35,30,32,21,16,111,111,105,102,12,12,9,8,/,/
2026-05-02T0900,1677A,116.7518,23.4712,汕头市,澄海子站,,43,43,30,24,16,115,115,103,103,21,13,10,8,0.6,0.6
2026-05-02T0900,1678A,116.6088,23.2539,汕头市,潮阳子站,,38,26,24,19,16,121,121,97,97,8,8,7,6,0.5,0.5
2026-05-02T0900,3444A,116.4539,23.2684,汕头市,潮南峡山,,42,42,33,26,20,109,109,82,82,10,9,8,7,0.6,0.6
2026-05-02T0900,3624A,116.4069,23.2533,汕头市,潮南子站,颗粒物(PM10),52,52,45,30,26,103,103,69,69,13,14,8,6,/,/
2026-05-02T0900,1693A,115.3653,22.7751,汕尾市,市环保局,,33,23,26,20,16,103,103,95,94,9,9,6,6,0.6,0.5
2026-05-02T0900,1695A,115.362,22.7926,汕尾市,新城中学,,29,26,25,20,16,87,87,90,90,10,8,7,6,0.6,0.5
2026-05-02T0900,2645A,109.9155,33.8714,商洛市,监测站,NA,NA,31,43,18,18,NA,NA,66,64,NA,15,10,12,NA,0.7
2026-05-02T0900,3045A,109.9647,33.8486,商洛市,商州区中学,,38,27,39,26,32,74,74,57,57,14,19,12,14,0.5,0.6
2026-05-02T0900,2408A,115.6701,34.4283,商丘市,环境监测站,,33,NA,43,23,22,86,86,98,94,8,6,3,3,0.3,0.3
2026-05-02T0900,2409A,115.6458,34.4047,商丘市,粮食局,,29,NA,35,18,22,91,91,98,96,14,12,4,4,0.3,0.3
2026-05-02T0900,3171A,115.6069,34.4465,商丘市,梁园区档案局,,27,18,40,3,19,84,84,91,89,13,9,4,4,0.2,0.2
2026-05-02T0900,4119A,115.6701,34.3767,商丘市,北海东路185号,,28,27,33,13,19,87,87,95,93,8,6,4,5,0.4,0.4
2026-05-02T0900,4120A,115.6172,34.3704,商丘市,中山大街3号,,29,26,39,7,20,90,90,94,94,8,10,4,5,0.3,0.3
2026-05-02T0900,1141A,121.401,31.2382,上海市,普陀,,50,42,38,22,24,158,158,137,137,17,18,7,7,0.5,0.4
2026-05-02T0900,1142A,121.4774,31.2043,上海市,十五厂,,50,33,39,23,26,159,159,130,130,11,17,7,6,0.8,0.7
2026-05-02T0900,1143A,121.4673,31.3011,上海市,虹口,,48,40,39,26,27,151,151,131,131,14,20,5,6,0.6,0.5
2026-05-02T0900,1147A,121.4253,31.226,上海市,静安监测站,臭氧1小时(O3_1h),54,36,34,24,25,163,163,137,137,18,21,10,9,0.6,0.6
2026-05-02T0900,1148A,121.7029,31.1905,上海市,浦东川沙,臭氧1小时(O3_1h),55,35,43,22,28,164,164,136,136,16,25,9,8,0.6,0.5
2026-05-02T0900,1149A,121.5339,31.229,上海市,浦东新区监测站,,50,36,38,23,24,157,157,130,130,12,20,7,7,0.5,0.5
2026-05-02T0900,1150A,121.5776,31.2038,上海市,浦东张江,臭氧1小时(O3_1h),60,39,38,23,24,168,168,142,142,12,21,7,7,0.2,0.3
2026-05-02T0900,3265A,121.4242,31.3303,上海市,宝山庙行,,50,50,44,25,26,160,160,137,137,14,19,8,8,0.3,0.3
2026-05-02T0900,3266A,121.8789,31.4662,上海市,崇明上实东滩,臭氧1小时(O3_1h),53,30,34,19,23,162,162,140,140,14,21,8,8,0.3,0.4
2026-05-02T0900,3268A,121.316,31.2839,上海市,嘉定南翔,,48,33,30,20,21,153,153,121,121,11,17,6,6,0.4,0.4
2026-05-02T0900,3269A,121.3357,30.7455,上海市,金山新城,,50,37,33,25,22,159,159,141,141,7,12,5,7,0.5,0.5
2026-05-02T0900,3270A,121.4996,31.0741,上海市,闵行浦江,,50,37,38,23,26,159,159,133,133,12,17,7,7,0.3,0.3
2026-05-02T0900,3271A,121.2886,31.1663,上海市,青浦徐泾,臭氧1小时(O3_1h),67,34,33,22,22,173,173,136,136,10,13,6,6,0.5,0.5
2026-05-02T0900,3272A,121.2193,31.0382,上海市,松江图书馆,臭氧1小时(O3_1h),52,34,32,24,24,161,161,127,127,8,14,8,8,0.4,0.4
2026-05-02T0900,3273A,121.3904,31.206,上海市,长宁仙霞,,48,37,36,22,24,153,153,130,130,12,15,8,7,0.3,0.4
2026-05-02T0900,3274A,121.7964,31.0507,上海市,浦东惠南,颗粒物(PM10),61,65,52,24,28,157,157,125,125,14,27,8,7,0.5,0.5
2026-05-02T0900,3544A,121.4891,30.925,上海市,奉贤南桥新城,,49,35,35,20,23,155,155,136,136,13,16,4,4,0.4,0.3
2026-05-02T0900,4183A,121.417401,31.16637,上海市,冠生园路458号,,47,32,32,21,23,149,149,122,122,15,19,5,5,0.5,0.5
2026-05-02T0900,4205A,121.541914,31.268301,上海市,宁武路151号,颗粒物(PM10),53,53,46,25,28,156,156,134,134,20,27,7,7,0.4,0.4
2026-05-02T0900,2382A,117.9758,28.4439,上饶市,市监测站,,46,46,33,24,18,68,68,57,57,16,9,23,17,/,/
2026-05-02T0900,2383A,117.9521,28.4637,上饶市,凤凰光学,,32,32,27,22,16,64,64,65,64,26,19,23,17,0.6,0.5
2026-05-02T0900,3685A,117.897,28.4316,上饶市,双创科技城,,32,32,32,21,17,75,75,84,81,10,7,21,17,0.5,0.4
2026-05-02T0900,4211A,118.190438,28.444845,上饶市,裕丰大道,,32,22,20,15,13,102,102,98,98,8,9,15,14,0.6,0.6
2026-05-02T0900,1669A,113.5821,24.7733,韶关市,市八中,,42,42,32,23,20,62,62,84,80,21,17,9,16,0.6,0.5
2026-05-02T0900,1671A,113.5916,24.7973,韶关市,园林处,,35,34,26,24,19,58,58,59,58,19,18,8,14,/,/
2026-05-02T0900,1673A,113.5971,24.6864,韶关市,曲江监测站,,46,42,30,32,20,62,62,75,74,19,16,6,8,0.6,0.5
2026-05-02T0900,2809A,113.6668,24.7756,韶关市,大学路288号,,31,31,27,21,19,77,77,80,80,15,13,10,16,/,/
2026-05-02T0900,3622A,113.5556,24.8082,韶关市,碧湖山庄,,38,38,26,22,16,84,84,71,71,25,15,14,9,0.6,0.5
2026-05-02T0900,2464A,111.5277,27.2442,邵阳市,市化工厂,细颗粒物(PM2.5),52,40,33,36,29,63,63,42,42,12,9,9,9,0.5,0.4
2026-05-02T0900,2466A,111.4327,27.2276,邵阳市,市环保局,细颗粒物(PM2.5),60,NA,31,40,28,39,39,43,41,4,4,6,5,0.7,0.6
2026-05-02T0900,4218A,111.446,27.2472,邵阳市,北塔二期4-26地块,,42,42,34,23,20,19,19,28,26,22,13,7,7,0.6,0.6
2026-05-02T0900,4219A,111.4739,27.2282,邵阳市,邵水西路287号,细颗粒物(PM2.5),54,43,36,37,28,33,33,32,31,17,12,10,10,0.9,0.7
2026-05-02T0900,1247A,120.6053,29.9927,绍兴市,城东开发委,,33,19,28,11,16,105,105,103,102,11,15,9,9,0.5,0.5
2026-05-02T0900,2921A,120.5482,30.0003,绍兴市,树下王站,,36,18,29,13,18,115,115,118,116,18,18,8,8,0.3,0.3
2026-05-02T0900,3408A,120.5685,29.936,绍兴市,绍兴中专,,39,20,27,10,16,124,124,127,125,8,11,9,9,0.3,0.3
2026-05-02T0900,3409A,120.4905,30.086,绍兴市,柯桥区政府,,37,22,31,12,18,118,118,112,111,11,15,6,6,0.3,0.4
2026-05-02T0900,3410A,120.8751,30.0249,绍兴市,重华小学,,40,26,27,16,18,126,126,128,128,12,15,6,6,0.3,0.5
2026-05-02T0900,3411A,120.837,30.0137,绍兴市,上虞中学,,41,26,27,16,19,131,131,136,136,16,18,8,8,0.4,0.4
2026-05-02T0900,3560A,120.4715,30.0414,绍兴市,柯桥妇保,,40,18,33,10,16,128,128,95,95,10,17,6,6,0.3,0.4
2026-05-02T0900,3658A,120.6156,30.0762,绍兴市,袍江中学,,38,22,32,15,21,119,119,119,119,11,15,6,6,0.3,0.3
2026-05-02T0900,1356A,114.0948,22.5506,深圳市,通心岭子站,,31,26,22,13,13,98,98,105,103,6,7,5,5,0.6,0.6
2026-05-02T0900,1357A,114.1153,22.5713,深圳市,洪湖,,30,30,27,14,12,94,94,101,99,10,9,5,5,0.5,0.4
2026-05-02T0900,1358A,113.9823,22.5398,深圳市,华侨城,,26,26,26,16,14,76,76,93,90,30,14,/,/,/,/
2026-05-02T0900,1359A,113.9181,22.517,深圳市,南海子站,,32,29,28,16,14,100,100,102,101,5,6,4,4,0.6,0.6
2026-05-02T0900,1360A,114.2345,22.565,深圳市,盐田,,34,34,28,20,14,84,84,91,87,16,14,5,6,0.5,0.5
2026-05-02T0900,1363A,114.4911,22.5381,深圳市,南澳,,32,28,24,11,9,102,102,99,97,6,6,/,/,/,/
2026-05-02T0900,1364A,114.41,22.6346,深圳市,葵涌,,31,25,22,13,11,98,98,106,103,10,8,6,6,0.6,0.6
2026-05-02T0900,1365A,114.2967,22.5978,深圳市,梅沙,,33,31,34,16,12,105,105,112,110,7,7,/,/,/,/
