timepoint,stationcode,longitude,latitude,area,positionname,primarypollutant,aqi,pm10,pm10_24h,pm2_5,pm2_5_24h,o3,o3_24h,o3_8h,o3_8h_24h,no2,no2_24h,so2,so2_24h,co,co_24h
2026-01-26T1300,2568A,102.2503,31.8896,阿坝藏族羌族自治州,马师校,,39,39,36,24,28,84,,56,50,6,17,4,4,0.5,0.6
2026-01-26T1300,3994A,102.2174,31.9016,阿坝藏族羌族自治州,马尔康中学西区,,,37,32,14,21,81,,60,58,,16,,6,0.4,0.5
2026-01-26T1300,2695A,80.2899,41.1684,阿克苏地区,电视台,颗粒物(PM10),298,418,425,93,101,24,,21,20,22,24,12,9,1.3,1.3
2026-01-26T1300,2696A,80.2592,41.1541,阿克苏地区,艺术中心,颗粒物(PM10),212,358,385,104,108,30,,26,25,28,24,5,5,0.9,0.9
2026-01-26T1300,2205A,105.699,38.8409,阿拉善盟,蒙二幼,细颗粒物(PM2.5),95,125,168,71,45,85,,68,66,7,11,10,9,0.5,0.7
2026-01-26T1300,2206A,105.7198,38.8508,阿拉善盟,环保局新楼,,,103,158,24,34,79,,78,78,6,6,,8,0.5,0.5
2026-01-26T1300,2708A,88.1266,47.8515,阿勒泰地区,市站,,21,21,15,13,7,56,,60,50,29,29,10,6,0.5,0.5
2026-01-26T1300,4166A,88.1198,47.7931,阿勒泰地区,阿勒泰路33号,,22,22,18,11,6,43,,62,58,34,26,18,9,0.5,0.4
2026-01-26T1300,2630A,80.1171,32.4999,阿里地区,阿里监测站,,25,6,3,3,3,79,,71,71,2,3,5,8,0.6,0.5
2026-01-26T1300,3192A,80.0906,32.5029,阿里地区,阿里藏医院,,24,19,16,12,8,75,,68,61,6,4,11,12,0.8,0.7
2026-01-26T1300,2644A,109.0088,32.6974,安康市,汉滨区检察院,细颗粒物(PM2.5),59,56,53,42,45,51,,15,15,16,25,5,5,0.8,0.8
2026-01-26T1300,4054A,109.0324,32.6913,安康市,市邮政管理局,细颗粒物(PM2.5),77,85,72,56,54,42,,12,12,20,31,5,6,0.9,0.9
2026-01-26T1300,2291A,117.0806,30.5181,安庆市,环科院,,32,27,113,22,94,42,,30,30,9,28,5,6,0.6,0.9
2026-01-26T1300,2292A,117.0331,30.5118,安庆市,马山宾馆,,39,36,105,27,100,36,,25,25,15,31,4,5,0.7,1
2026-01-26T1300,2294A,116.9897,30.6146,安庆市,安庆大学,,33,24,100,23,86,44,,34,34,18,37,3,4,0.6,0.9
2026-01-26T1300,3173A,117.0598,30.5351,安庆市,市人大,,36,32,117,25,98,36,,26,26,14,30,4,6,0.6,0.9
2026-01-26T1300,3123A,105.9408,26.2431,安顺市,凤凰山,,32,32,27,21,22,68,,56,56,11,14,27,16,0.6,0.5
2026-01-26T1300,3124A,105.9443,26.2567,安顺市,金钟山,细颗粒物(PM2.5),73,,24,53,23,67,,54,54,11,14,25,15,0.7,0.7
2026-01-26T1300,3125A,105.8983,26.248,安顺市,娄家坡,,32,31,26,22,23,67,,55,55,11,17,12,19,0.4,0.6
2026-01-26T1300,1819A,114.3552,36.1017,安阳市,红庙街,细颗粒物(PM2.5),159,,110,121,103,42,,22,22,45,46,16,10,1.4,1
2026-01-26T1300,1820A,114.361,36.0681,安阳市,银杏小区,细颗粒物(PM2.5),169,,112,128,113,48,,22,22,33,40,11,10,1.2,1
2026-01-26T1300,3141A,114.3921,36.0879,安阳市,信访局,细颗粒物(PM2.5),162,,120,123,108,51,,22,22,30,36,14,12,1.2,1
2026-01-26T1300,3669A,114.4706,36.0634,安阳市,左辅环卫站,细颗粒物(PM2.5),156,141,141,119,121,61,,22,22,25,43,15,9,1.1,1
2026-01-26T1300,4117A,114.2918,36.0769,安阳市,钢三路198号,细颗粒物(PM2.5),172,173,148,130,115,41,,22,22,36,39,17,12,1.3,1
2026-01-26T1300,1748A,123.0441,41.1201,鞍山市,深沟寺,,49,49,63,28,41,63,,32,32,21,41,10,10,1.0,1.2
2026-01-26T1300,1749A,123.011,41.0931,鞍山市,太阳城,,50,50,60,31,45,61,,26,26,19,41,14,16,1.0,1.3
2026-01-26T1300,1750A,123.0483,41.1445,鞍山市,太平,,50,50,83,27,44,57,,27,27,25,44,18,15,1.4,1.2
2026-01-26T1300,1751A,122.964,41.0968,鞍山市,铁西三道街,颗粒物(PM10),56,61,84,36,51,54,,24,24,28,52,14,20,1.2,1.3
2026-01-26T1300,1753A,123.0219,41.0822,鞍山市,明达新区,,46,46,66,29,43,67,,34,34,18,26,13,15,0.9,1.3
2026-01-26T1300,4201A,122.944647,41.082639,鞍山市,兴盛南路290号,颗粒物(PM10),67,83,104,45,54,57,,25,25,30,55,17,22,1.4,1.6
2026-01-26T1300,2195A,107.4206,40.7609,巴彦淖尔市,附二中,颗粒物(PM10),84,117,192,49,56,53,,45,22,13,18,14,8,0.5,0.5
2026-01-26T1300,2196A,107.37,40.7372,巴彦淖尔市,市环保大楼,颗粒物(PM10),80,109,189,46,55,54,,46,29,18,18,11,5,0.5,0.5
2026-01-26T1300,1956A,86.1476,41.7529,巴音郭楞蒙古自治州,孔雀公园,颗粒物(PM10),159,268,226,50,47,27,,35,28,27,23,13,8,0.6,0.6
2026-01-26T1300,1957A,86.1971,41.7166,巴音郭楞蒙古自治州,棉纺厂,颗粒物(PM10),174,298,269,51,44,42,,36,34,10,26,/,/,/,/
2026-01-26T1300,1958A,86.236,41.7172,巴音郭楞蒙古自治州,经济开发区,颗粒物(PM10),154,258,229,41,34,35,,33,32,21,27,6,5,0.6,0.7
2026-01-26T1300,3181A,106.776805,31.852614,巴中市,市五中,细颗粒物(PM2.5),89,84,85,66,62,28,,6,6,20,27,6,5,1.1,1.2
2026-01-26T1300,3183A,106.7419,31.8654,巴中市,圣泉水务公司,细颗粒物(PM2.5),82,90,77,60,56,42,,9,9,20,35,6,6,0.8,0.9
2026-01-26T1300,3616A,106.7617,31.8343,巴中市,市中心医院,细颗粒物(PM2.5),87,69,78,64,66,43,,9,9,13,28,7,7,0.9,1
2026-01-26T1300,2235A,122.7909,45.608,白城市,洮北区环保局,,34,34,34,23,25,66,,48,48,8,15,6,5,0.1,0.2
2026-01-26T1300,2236A,122.8741,45.5725,白城市,市环保局,,39,39,32,12,14,65,,36,36,8,21,6,6,0.3,0.3
2026-01-26T1300,2231A,126.4219,41.9172,白山市,喜丰,颗粒物(PM10),51,51,50,18,25,63,,36,36,20,32,23,17,0.8,0.8
2026-01-26T1300,2232A,126.4082,41.9416,白山市,环保局,,41,41,36,22,23,51,,36,36,27,22,26,13,0.8,0.7
2026-01-26T1300,2647A,104.1727,36.5448,白银市,第三小学,颗粒物(PM10),500,861,1129,208,236,40,,21,21,25,36,14,11,1.0,0.8
2026-01-26T1300,2648A,104.1467,36.5482,白银市,动力公司,颗粒物(PM10),500,886,1083,219,242,45,,26,26,21,26,13,8,1.2,1.3
2026-01-26T1300,2512A,106.6102,23.901,百色市,市监测站,细颗粒物(PM2.5),68,67,57,49,37,41,,13,13,18,30,11,19,0.9,1.1
2026-01-26T1300,2513A,106.6524,23.8842,百色市,市中心血站,细颗粒物(PM2.5),73,70,57,53,45,44,,12,12,18,28,12,19,1.1,1.2
2026-01-26T1300,4133A,106.6273,23.8798,百色市,龙景西路,细颗粒物(PM2.5),82,92,75,60,46,35,,6,6,23,33,14,22,0.8,1
2026-01-26T1300,2270A,117.396,32.9389,蚌埠市,工人疗养院,,29,29,47,19,31,62,,58,58,16,18,3,4,0.4,0.4
2026-01-26T1300,2271A,117.3606,32.9428,蚌埠市,百货大楼,,26,25,45,18,33,62,,60,57,14,18,4,5,0.4,0.5
2026-01-26T1300,2273A,117.4183,32.8909,蚌埠市,蚌埠学院,,29,,33,20,33,62,,58,57,18,27,3,4,0.4,0.4
2026-01-26T1300,2274A,117.3534,32.9672,蚌埠市,淮上区政府,,39,,41,27,40,64,,62,60,16,17,3,2,0.4,0.4
2026-01-26T1300,2275A,117.3143,32.8977,蚌埠市,高新区,,36,,35,25,35,60,,60,56,14,15,5,5,0.4,0.4
2026-01-26T1300,3715A,117.3091,32.9314,蚌埠市,蚌埠田家炳中学,,42,31,46,29,38,61,,58,54,14,17,3,4,0.5,0.5
2026-01-26T1300,1585A,109.8761,40.6533,包头市,市环境监测站,颗粒物(PM10),122,193,284,29,44,75,,35,35,10,33,4,11,0.5,1
2026-01-26T1300,1587A,109.9992,40.5843,包头市,包头八中,颗粒物(PM10),82,114,248,30,66,74,,38,38,11,31,2,7,0.4,0.7
2026-01-26T1300,1589A,109.8641,40.6288,包头市,惠龙物流,颗粒物(PM10),94,138,246,34,48,68,,37,37,16,33,8,16,0.6,1
2026-01-26T1300,1590A,110.0376,40.5546,包头市,东河鸿龙湾,颗粒物(PM10),79,108,242,23,45,73,,34,34,14,38,7,9,0.4,0.6
2026-01-26T1300,3283A,109.9154,40.5684,包头市,滨河大厦,颗粒物(PM10),86,121,235,31,55,72,,28,28,12,36,5,9,0.6,0.8
2026-01-26T1300,3419A,109.9449,40.6259,包头市,包头市委党校,颗粒物(PM10),77,103,216,23,50,74,,37,36,11,29,8,11,0.5,0.9
2026-01-26T1300,3683A,109.8332,40.6577,包头市,昆区政府,颗粒物(PM10),107,164,257,52,54,59,,46,46,23,35,8,13,0.7,1.2
2026-01-26T1300,1931A,107.0802,34.3129,宝鸡市,竹园沟,细颗粒物(PM2.5),198,288,333,148,117,42,,15,15,27,25,6,6,0.7,0.6
2026-01-26T1300,1933A,107.1429,34.3549,宝鸡市,监测站,细颗粒物(PM2.5),206,272,300,156,138,31,,9,9,35,35,5,5,1.0,1
2026-01-26T1300,1934A,107.1172,34.3759,宝鸡市,技工学校,细颗粒物(PM2.5),209,282,314,159,136,35,,13,13,33,31,4,5,1.1,1
2026-01-26T1300,1936A,107.2025,34.3518,宝鸡市,文理学院,细颗粒物(PM2.5),208,250,279,158,138,33,,10,10,28,30,4,4,1.1,0.9
2026-01-26T1300,1937A,107.2396,34.3626,宝鸡市,三迪小学,细颗粒物(PM2.5),225,271,276,175,156,29,,10,10,32,36,4,4,1.1,1
2026-01-26T1300,4155A,107.1721,34.3558,宝鸡市,滨河北路,细颗粒物(PM2.5),196,275,297,147,129,32,,11,11,25,26,5,5,1.1,1
2026-01-26T1300,4308A,107.3898,34.3601,宝鸡市,陈仓区北开路21号,细颗粒物(PM2.5),190,268,268,143,152,43,,18,18,30,41,8,8,0.8,0.8
2026-01-26T1300,1051A,115.4803,38.8568,保定市,游泳馆,细颗粒物(PM2.5),193,,69,145,56,50,,20,20,36,48,11,6,1.2,0.6
2026-01-26T1300,1052A,115.509,38.8895,保定市,华电二区,细颗粒物(PM2.5),180,,63,136,48,44,,14,14,32,40,5,4,1.3,0.5
2026-01-26T1300,1053A,115.4588,38.9037,保定市,接待中心,细颗粒物(PM2.5),192,157,75,144,52,44,,15,15,37,38,8,3,1.2,0.5
2026-01-26T1300,1054A,115.4484,38.8344,保定市,地表水厂,细颗粒物(PM2.5),189,182,87,142,51,47,,18,18,35,47,10,6,1.4,0.7
2026-01-26T1300,3581A,115.3136,38.9511,保定市,满城区生态环境分局,细颗粒物(PM2.5),129,136,93,98,58,46,,16,16,25,46,5,4,1.0,0.9
2026-01-26T1300,3582A,115.4709,38.7628,保定市,清苑区第二中学,细颗粒物(PM2.5),165,167,92,125,54,45,,20,20,32,44,12,8,1.2,0.7
2026-01-26T1300,3583A,115.6231,39.0223,保定市,徐水物探局,细颗粒物(PM2.5),119,147,82,90,47,57,,29,26,30,35,9,9,1.0,0.7
2026-01-26T1300,4004A,115.4199,38.8665,保定市,双鹰农机,细颗粒物(PM2.5),195,182,93,146,57,57,,24,24,33,41,12,8,1.4,0.8
2026-01-26T1300,4034A,115.515,38.8589,保定市,植保所站,细颗粒物(PM2.5),188,151,72,141,50,44,,16,16,38,45,4,3,1.4,0.7
2026-01-26T1300,2594A,99.1589,25.1137,保山市,市环境监测站,,34,34,28,19,19,91,,54,52,10,9,4,5,0.3,0.3
2026-01-26T1300,2595A,99.1616,25.1381,保山市,市环保局,,40,40,31,28,22,92,,62,57,10,6,4,4,0.6,0.5
2026-01-26T1300,1867A,109.1435,21.4085,北海市,海滩公园,,40,40,34,27,18,115,,88,88,14,12,12,8,0.6,0.5
2026-01-26T1300,1868A,109.0983,21.466,北海市,新市环保局,,50,50,37,14,22,100,,82,78,10,14,8,7,0.7,0.8
2026-01-26T1300,1869A,109.1775,21.5232,北海市,北海工业园,颗粒物(PM10),51,51,51,17,26,100,,64,64,8,20,7,10,0.3,0.4
2026-01-26T1300,3400A,109.1844,21.4396,北海市,龙潭自来水厂,,37,28,33,14,20,116,,84,84,9,9,12,7,0.9,0.8
2026-01-26T1300,1001A,116.3611,39.8786,北京市,万寿西宫,细颗粒物(PM2.5),70,88,57,51,35,36,,23,21,37,33,4,4,0.7,0.6
2026-01-26T1300,1003A,116.4174,39.9289,北京市,东四,颗粒物(PM10),65,80,54,39,32,44,,24,24,32,31,6,6,0.5,0.5
2026-01-26T1300,1004A,116.4073,39.8858,北京市,天坛,颗粒物(PM10),67,84,52,45,32,41,,24,21,34,31,3,3,1.1,1
2026-01-26T1300,1005A,116.4622,39.9364,北京市,农展馆,颗粒物(PM10),67,84,57,40,33,49,,31,28,25,24,3,5,0.7,0.7
2026-01-26T1300,1006A,116.3399,39.9293,北京市,官园,颗粒物(PM10),66,81,57,45,35,42,,27,22,33,33,6,6,0.6,0.5
2026-01-26T1300,1007A,116.2879,39.9613,北京市,海淀万柳,颗粒物(PM10),65,79,55,44,34,36,,21,17,37,36,4,4,0.6,0.6
2026-01-26T1300,1008A,116.6635,40.1349,北京市,顺义新城,颗粒物(PM10),66,81,55,44,29,45,,22,22,26,30,6,7,0.5,0.5
2026-01-26T1300,1009A,116.6275,40.327,北京市,怀柔镇,颗粒物(PM10),60,70,52,42,32,48,,27,27,22,31,6,7,0.6,0.6
2026-01-26T1300,1010A,116.2295,40.217,北京市,昌平镇,颗粒物(PM10),59,68,60,19,33,66,,29,29,14,35,2,4,0.4,0.6
2026-01-26T1300,1011A,116.3968,39.982,北京市,奥体中心,颗粒物(PM10),64,78,55,36,32,42,,26,22,43,41,5,5,0.7,0.7
2026-01-26T1300,3418A,116.8336,40.4095,北京市,密云新城,颗粒物(PM10),56,62,55,35,30,58,,31,31,11,26,3,5,0.5,0.6
2026-01-26T1300,3671A,116.0879,39.9725,北京市,门头沟三家店,,,,62,27,35,70,,20,20,4,35,4,4,0.4,0.6
2026-01-26T1300,3672A,116.1507,39.8246,北京市,丰台云岗,细颗粒物(PM2.5),94,107,60,70,38,56,,25,25,24,30,5,4,0.7,0.6
2026-01-26T1300,3674A,115.9578,39.7602,北京市,房山燕山,细颗粒物(PM2.5),89,92,63,66,40,49,,28,28,27,32,6,5,0.5,0.5
2026-01-26T1300,3675A,116.4669,39.7734,北京市,大兴旧宫,颗粒物(PM10),71,91,51,46,26,42,,26,24,28,26,5,4,0.6,0.5
2026-01-26T1300,3694A,115.9859,40.4562,北京市,延庆石河营,颗粒物(PM10),51,51,70,19,40,68,,25,25,10,35,4,4,0.3,0.7
2026-01-26T1300,3695A,116.6151,40.3052,北京市,怀柔新城,颗粒物(PM10),59,67,53,41,32,46,,28,28,22,28,6,7,0.4,0.5
2026-01-26T1300,3696A,116.2542,39.8764,北京市,丰台小屯,细颗粒物(PM2.5),78,104,60,57,35,31,,15,14,37,38,5,4,0.7,0.6
2026-01-26T1300,3697A,116.8399,40.3843,北京市,密云镇,颗粒物(PM10),58,65,52,35,28,57,,30,30,12,22,3,4,0.4,0.5
2026-01-26T1300,4057A,115.9423,40.4431,北京市,延庆百泉,,49,49,62,18,40,55,,17,17,8,33,3,2,0.4,0.8
2026-01-26T1300,4058A,116.6598,39.9164,北京市,通州新华,颗粒物(PM10),68,86,50,38,26,33,,28,20,38,31,4,4,0.6,0.5
2026-01-26T1300,4182A,116.1942,39.9158,北京市,石景山八角,颗粒物(PM10),76,101,60,53,34,38,,20,20,34,34,6,4,0.4,0.4
2026-01-26T1300,4194A,117.078628,40.151726,北京市,平谷新城,"颗粒物(PM10),细颗粒物(PM2.5)",60,70,49,43,26,47,,38,30,22,24,5,6,0.6,0.6
2026-01-26T1300,1761A,123.8274146,41.31234549,本溪市,大峪,细颗粒物(PM2.5),68,80,91,49,59,51,,23,23,36,45,25,13,2.5,1.7
2026-01-26T1300,1763A,123.7169,41.3094,本溪市,彩屯,,,53,94,26,59,63,,18,18,19,49,,14,,1.7
2026-01-26T1300,1764A,123.7672166,41.28649327,本溪市,东明,颗粒物(PM10),63,76,85,37,64,63,,24,24,24,48,18,12,1.5,1.6
2026-01-26T1300,1765A,123.799345,41.266614,本溪市,新立屯,,47,47,68,27,44,60,,25,25,22,43,26,13,1.4,1.5
2026-01-26T1300,1766A,123.829144,41.336777,本溪市,威宁,颗粒物(PM10),80,110,91,30,54,55,,22,22,26,47,19,8,1.5,1.6
2026-01-26T1300,2587A,105.287,27.3133,毕节市,八中,颗粒物(PM10),62,73,30,30,19,75,,62,62,14,11,14,9,0.9,0.9
2026-01-26T1300,2588A,105.3079,27.2987,毕节市,师专,,,67,32,32,18,76,,64,64,,13,12,8,0.8,1
2026-01-26T1300,4263A,105.3688,27.3598,毕节市,工业大道,颗粒物(PM10),53,56,31,23,18,77,,60,59,11,14,10,9,/,/
2026-01-26T1300,1629A,117.9961,37.3604,滨州市,第二水厂,细颗粒物(PM2.5),57,58,30,40,16,48,,34,32,18,18,15,10,0.7,0.6
2026-01-26T1300,1630A,117.9789,37.3931,滨州市,北中新校,颗粒物(PM10),53,56,32,31,15,51,,33,31,17,20,11,6,0.5,0.4
2026-01-26T1300,3514A,117.9379,37.3959,滨州市,中海酒店,颗粒物(PM10),56,61,30,39,19,58,,40,38,19,24,16,9,0.7,0.5
2026-01-26T1300,3515A,117.9381509,37.35547456,滨州市,开发区一中,,,63,34,46,18,38,,40,26,18,17,,12,,0.5
2026-01-26T1300,3516A,118.0914,37.6938,滨州市,金海六路,,41,41,25,19,8,73,,53,46,18,18,6,4,0.5,0.3
2026-01-26T1300,4028A,117.9955,37.3752,滨州市,滨州市西街道办事处,颗粒物(PM10),56,61,27,39,18,53,,40,37,15,17,14,9,0.6,0.4
2026-01-26T1300,2311A,115.8071,33.8399,亳州市,污水处理厂,细颗粒物(PM2.5),133,122,131,101,108,29,,16,16,31,36,4,5,0.7,0.8
2026-01-26T1300,2312A,115.7789,33.8519,亳州市,三国揽胜宫,细颗粒物(PM2.5),129,144,156,98,107,28,,15,15,33,38,4,5,0.9,1
2026-01-26T1300,3332A,115.7631,33.803,亳州市,亳州学院,细颗粒物(PM2.5),137,128,137,104,109,30,,19,19,28,32,4,4,1.0,1
2026-01-26T1300,2693A,82.0482,44.8553,博尔塔拉蒙古自治州,市党校,颗粒物(PM10),63,76,84,25,35,56,,56,48,17,20,6,4,0.8,0.9
2026-01-26T1300,2694A,82.0805,44.8966,博尔塔拉蒙古自治州,市环保局,颗粒物(PM10),76,102,109,42,48,45,,45,40,29,31,6,6,0.7,0.7
2026-01-26T1300,1071A,116.8733,38.2922,沧州市,沧县城建局,细颗粒物(PM2.5),63,62,40,45,23,58,,38,38,20,25,10,8,0.6,0.5
2026-01-26T1300,1072A,116.8462,38.3189,沧州市,电视转播站,细颗粒物(PM2.5),67,60,39,48,25,52,,42,40,22,23,5,4,0.6,0.5
2026-01-26T1300,1073A,116.8588,38.3161,沧州市,市环保局,细颗粒物(PM2.5),60,65,44,43,30,45,,37,35,17,19,8,7,0.5,0.5
2026-01-26T1300,3324A,116.8011,38.294,沧州市,河北水利电力学院,细颗粒物(PM2.5),69,78,40,50,26,50,,32,29,14,22,7,5,0.4,0.3
2026-01-26T1300,2622A,97.1813,31.1289,昌都市,昌都监测站,,26,26,42,8,13,65,,52,52,9,14,3,3,0.6,0.6
2026-01-26T1300,3719A,97.1707,31.1428,昌都市,昌都会议中心,,21,12,18,3,8,67,,54,54,1,2,5,4,0.2,0.2
2026-01-26T1300,2692A,87.2722,44.0298,昌吉回族自治州,新区政务中心,细颗粒物(PM2.5),108,132,149,81,99,65,,16,16,28,50,8,9,1.3,1.3
2026-01-26T1300,3613A,87.3069,44.0093,昌吉回族自治州,亚心广场,细颗粒物(PM2.5),160,166,151,122,102,73,,32,32,18,35,8,8,1.5,1.2
2026-01-26T1300,4164A,87.2057,43.9289,昌吉回族自治州,财政所,细颗粒物(PM2.5),89,95,107,66,72,59,,52,50,23,15,5,5,0.9,0.8
2026-01-26T1300,1120A,125.2874,43.9024,长春市,客车厂,细颗粒物(PM2.5),80,81,70,59,56,35,,36,36,56,46,22,11,0.9,0.7
2026-01-26T1300,1121A,125.2943,43.8508,长春市,邮电学院,,43,40,64,30,52,52,,49,49,32,37,15,11,0.5,0.6
2026-01-26T1300,1122A,125.3648,43.8745,长春市,劳动公园,,50,50,69,28,49,65,,50,50,23,35,7,6,0.1,0.3
2026-01-26T1300,1123A,125.3233,43.8781,长春市,园林处,,47,47,64,31,52,53,,37,37,28,33,14,12,0.6,0.6
2026-01-26T1300,1124A,125.4604,43.7904,长春市,净月潭,,38,38,61,23,51,72,,63,63,12,19,7,6,0.4,0.6
2026-01-26T1300,1126A,125.38,43.8422,长春市,经开区环卫处,,41,41,71,27,49,63,,42,42,26,46,5,7,0.5,0.7
2026-01-26T1300,1127A,125.234,43.7761,长春市,高新区管委会,颗粒物(PM10),51,51,84,29,63,79,,52,52,14,45,7,7,0.4,0.9
2026-01-26T1300,1128A,125.1695,43.83,长春市,岱山公园,,46,46,74,27,58,61,,38,38,24,49,6,7,0.5,0.7
2026-01-26T1300,4281A,125.334645,43.916281,长春市,北亚泰大街1068号,细颗粒物(PM2.5),72,64,80,52,63,47,,27,27,36,46,12,11,0.7,0.9
2026-01-26T1300,1335A,113.082,28.2421,长沙市,经开区环保局,细颗粒物(PM2.5),186,,70,140,74,19,,24,24,22,26,2,3,0.9,0.8
2026-01-26T1300,1336A,112.8873,28.2202,长沙市,高开区环保局,细颗粒物(PM2.5),210,,79,160,80,22,,34,29,21,22,4,5,1.0,0.9
2026-01-26T1300,1337A,113.0785,28.2012,长沙市,马坡岭,细颗粒物(PM2.5),159,131,72,121,63,26,,32,32,20,23,4,5,1.1,1
2026-01-26T1300,1338A,112.9448,28.1894,长沙市,湖南师范大学,细颗粒物(PM2.5),166,140,73,126,61,26,,38,34,21,21,4,5,1.1,0.9
2026-01-26T1300,1339A,113.0177,28.1322,长沙市,雨花区环保局,细颗粒物(PM2.5),180,,65,136,69,24,,29,28,21,25,6,7,1.3,1.2
2026-01-26T1300,1340A,112.9795,28.2593,长沙市,伍家岭,细颗粒物(PM2.5),182,148,79,137,68,25,,33,31,21,22,4,5,1.1,0.9
2026-01-26T1300,1341A,113.002,28.1944,长沙市,火车新站,细颗粒物(PM2.5),185,146,74,139,65,27,,35,33,20,23,3,2,1.2,1.1
2026-01-26T1300,1342A,112.9846,28.1177,长沙市,天心区环保局,细颗粒物(PM2.5),150,122,69,115,60,28,,36,34,24,26,5,5,0.9,0.8
2026-01-26T1300,1343A,112.8906,28.1307,长沙市,湖南中医药大学,细颗粒物(PM2.5),155,132,73,118,60,30,,38,32,20,25,5,6,1.1,0.9
2026-01-26T1300,1727A,113.1146,36.1547,长治市,清华站,细颗粒物(PM2.5),147,165,116,112,127,64,,62,54,21,21,13,9,1.4,1.1
2026-01-26T1300,1730A,113.0887,36.2126,长治市,审计局,细颗粒物(PM2.5),134,169,113,102,131,65,,54,48,26,31,11,7,0.9,0.9
2026-01-26T1300,1731A,113.0845,36.1856,长治市,长治八中,细颗粒物(PM2.5),158,204,132,120,142,63,,57,49,14,17,12,8,1.2,1.1
2026-01-26T1300,2845A,113.1561,36.1912,长治市,德盛苑,细颗粒物(PM2.5),169,172,113,128,136,62,,56,50,21,20,12,7,1.4,1.2
2026-01-26T1300,3568A,113.0603,36.0464,长治市,向阳小学,细颗粒物(PM2.5),147,202,147,112,131,65,,66,55,27,33,9,8,1.1,1.3
2026-01-26T1300,3569A,112.8788,36.315,长治市,屯留一中,细颗粒物(PM2.5),123,166,138,93,141,58,,41,41,15,24,8,6,1.2,1.4
2026-01-26T1300,4189A,113.113092,36.199482,长治市,英华南巷50号,细颗粒物(PM2.5),159,186,118,121,130,62,,54,48,19,23,10,6,1.3,1.2
2026-01-26T1300,4190A,113.23666,36.33435,长治市,学府街1号,细颗粒物(PM2.5),143,182,134,109,152,61,,41,41,23,30,13,9,1.3,1.5
2026-01-26T1300,1854A,111.696,28.9725,常德市,市二中,细颗粒物(PM2.5),175,134,80,132,74,52,,47,47,23,21,5,4,1.3,1.2
2026-01-26T1300,3138A,111.7152,29.0288,常德市,武陵区永安,细颗粒物(PM2.5),175,156,84,132,76,51,,45,45,24,22,5,4,1.3,1.1
2026-01-26T1300,3139A,111.6891,28.9881,常德市,鼎城区玉霞,细颗粒物(PM2.5),170,137,75,129,76,52,,48,47,30,26,6,6,1.1,1
2026-01-26T1300,3140A,111.6651,29.0526,常德市,武陵区长庚,细颗粒物(PM2.5),168,143,79,127,72,51,,44,43,22,20,5,4,1.0,0.9
2026-01-26T1300,1196A,119.9524,31.7586,常州市,市监测站,,20,19,38,14,21,48,,58,41,26,27,5,6,0.4,0.4
2026-01-26T1300,1200A,119.9351,31.703,常州市,武进监测站,,28,21,39,19,26,42,,54,39,30,30,10,12,0.7,0.7
2026-01-26T1300,3002A,119.9701,31.813,常州市,行政中心,,17,14,39,10,23,54,,52,44,23,28,4,6,0.5,0.6
2026-01-26T1300,3003A,120.0434,31.7726,常州市,经开区,,19,19,43,7,19,45,,58,38,27,25,12,9,0.4,0.4
2026-01-26T1300,3010A,119.8919,31.7892,常州市,钟楼,,34,34,46,11,21,52,,54,44,21,25,6,7,0.9,0.7
2026-01-26T1300,3429A,119.8595,31.706,常州市,武进经发区,,20,18,42,14,28,39,,48,26,30,35,4,6,0.7,0.7
2026-01-26T1300,3430A,119.5812,31.7256,常州市,金坛城区,,20,16,41,14,31,60,,53,52,14,23,6,7,0.7,0.8
2026-01-26T1300,4089A,119.9551,31.863,常州市,崇义南街5-H号,,19,8,34,3,18,58,,55,50,17,22,4,5,0.6,0.7
2026-01-26T1300,2220A,120.4318,41.588,朝阳市,西梁,细颗粒物(PM2.5),118,111,61,89,43,56,,43,38,35,27,22,13,1.1,0.6
2026-01-26T1300,2221A,120.452,41.565,朝阳市,河畔小区,细颗粒物(PM2.5),84,85,43,62,30,54,,53,51,29,17,23,12,1.2,0.7
2026-01-26T1300,2222A,120.4176,41.5648,朝阳市,八里堡,细颗粒物(PM2.5),79,75,53,58,39,53,,42,39,30,23,20,15,1.1,0.7
2026-01-26T1300,3026A,116.6179,23.6608,潮州市,市政府,细颗粒物(PM2.5),85,67,49,63,58,77,,25,25,15,24,9,7,0.5,0.6
2026-01-26T1300,4036A,116.646,23.676,潮州市,金山,细颗粒物(PM2.5),67,62,42,48,48,80,,27,27,17,22,8,4,0.6,0.7
2026-01-26T1300,2473A,113.0116,25.8228,郴州市,市职中,,34,34,72,22,57,16,,10,10,16,28,4,7,0.6,0.8
2026-01-26T1300,2475A,113.0381,25.8074,郴州市,市审计局,,46,42,98,32,73,9,,5,5,18,36,2,4,/,/
2026-01-26T1300,2476A,113.0348,25.7757,郴州市,市环保局,颗粒物(PM10),51,52,87,33,61,11,,7,7,21,37,4,7,0.6,0.9
2026-01-26T1300,4252A,113.0138,25.8011,郴州市,好美居路49号,,31,31,66,17,60,25,,19,19,22,38,2,6,/,/
2026-01-26T1300,1431A,103.9727,30.7242,成都市,金泉两河,颗粒物(PM10),85,119,91,37,62,37,,12,12,34,43,2,2,0.7,0.9
2026-01-26T1300,1432A,104.1423,30.6765,成都市,十里店,颗粒物(PM10),102,154,102,43,64,46,,15,15,32,48,4,4,0.7,0.9
2026-01-26T1300,1433A,104.0594,30.5765,成都市,三瓦窑,,,,89,35,65,47,,12,12,31,48,7,4,0.8,0.9
2026-01-26T1300,1434A,104.1122,30.6306,成都市,沙河铺,颗粒物(PM10),93,136,90,57,69,30,,8,8,55,54,4,3,1.0,1
2026-01-26T1300,2880A,104.0219,30.6561,成都市,大石西路,颗粒物(PM10),89,127,97,43,62,36,,11,11,32,41,6,5,1.4,1.4
2026-01-26T1300,3136A,104.2724,30.559,成都市,龙泉驿区区政府,颗粒物(PM10),98,146,80,41,51,49,,21,21,32,33,6,6,0.7,0.9
2026-01-26T1300,3357A,104.0028,30.6891,成都市,金博路,颗粒物(PM10),88,126,88,46,61,42,,12,12,33,41,5,4,0.8,1
2026-01-26T1300,3359A,104.056,30.5228,成都市,华阳,颗粒物(PM10),87,124,81,39,56,50,,14,14,25,46,4,3,0.6,0.9
2026-01-26T1300,3488A,104.387954,30.746684,成都市,青石路225号,颗粒物(PM10),152,254,97,66,54,60,,15,15,22,43,6,5,0.7,0.9
2026-01-26T1300,3489A,104.0788,30.4054,成都市,科学城,颗粒物(PM10),58,65,72,36,54,35,,8,8,20,29,7,6,0.6,0.8
2026-01-26T1300,4011A,103.8505,30.6946,成都市,光华大道三段,颗粒物(PM10),92,134,101,50,72,38,,12,12,37,41,4,3,0.8,1
2026-01-26T1300,4144A,104.3257,30.6406,成都市,八角井街185号,颗粒物(PM10),96,141,96,55,54,35,,14,14,37,36,3,3,0.9,1.1
2026-01-26T1300,4224A,104.2433276,30.53529463,成都市,鲸龙路1057号,颗粒物(PM10),68,85,79,36,53,57,,22,22,20,35,5,5,0.5,0.8
2026-01-26T1300,1062A,117.9531,40.908,承德市,铁路,,25,25,53,3,31,72,,31,31,5,35,4,10,0.2,0.8
2026-01-26T1300,1063A,117.9397,40.9763,承德市,中国银行,,35,35,45,12,24,75,,46,46,8,28,2,8,0.3,0.6
2026-01-26T1300,4073A,117.9462,40.95,承德市,杏林街1号,,28,28,44,3,29,76,,45,45,3,19,3,10,0.3,0.6
2026-01-26T1300,4274A,117.7994,40.9605,承德市,滨河大街98号,,29,,39,20,30,72,,48,48,4,18,2,12,0.2,0.5
2026-01-26T1300,2314A,117.4698,30.6617,池州市,池州学院,,28,19,102,19,90,37,,30,30,18,48,3,6,0.6,1
2026-01-26T1300,3237A,117.4918,30.6617,池州市,展览馆,,29,22,117,20,95,38,,29,29,17,46,1,4,0.6,1
2026-01-26T1300,3333A,117.5626,30.695,池州市,第八中学,,29,24,108,20,89,35,,30,30,21,44,2,5,0.5,1
2026-01-26T1300,3334A,117.5037,30.6242,池州市,第十二中学,,23,16,102,16,87,37,,29,29,21,49,2,4,0.8,1.3
2026-01-26T1300,1744A,118.9229,42.2816,赤峰市,松山一中,,37,37,62,3,25,68,,37,37,7,45,2,24,0.6,1.2
2026-01-26T1300,1745A,118.9588,42.2733,赤峰市,哈达街,,37,37,68,3,32,66,,34,34,12,46,5,58,0.4,1.2
2026-01-26T1300,1746A,118.8792,42.2551,赤峰市,天义路,,26,26,44,3,31,63,,34,34,8,42,7,37,0.4,1
2026-01-26T1300,3058A,119.2656,42.0356,赤峰市,银河街,颗粒物(PM10),51,52,75,3,38,82,,40,40,2,24,8,20,0.5,1.2
2026-01-26T1300,3286A,118.9359,42.3146,赤峰市,桥北物流园区,,30,30,47,12,31,80,,47,47,6,31,3,19,0.4,1
2026-01-26T1300,2521A,107.3473,22.4137,崇左市,市环保局江州分局,细颗粒物(PM2.5),122,150,107,92,79,35,,8,8,28,30,6,7,1.2,1.2
2026-01-26T1300,4256A,107.375,22.3736,崇左市,石景林东路7号,细颗粒物(PM2.5),142,143,95,108,91,33,,10,10,32,34,3,3,1.0,1
2026-01-26T1300,3207A,118.31131,32.3033,滁州市,市政府原办公楼,,26,26,40,10,29,60,,63,58,14,20,4,4,0.3,0.3
2026-01-26T1300,3331A,118.3268,32.2633,滁州市,图书馆,,20,8,34,7,24,61,,60,60,14,18,6,7,0.4,0.4
2026-01-26T1300,4101A,118.3196,32.3335,滁州市,银山路666号,,,,32,18,37,65,,67,65,12,13,3,3,0.4,0.4
2026-01-26T1300,4102A,118.3426,32.2979,滁州市,黄山路555号,,22,15,40,14,35,70,,68,67,11,16,14,14,0.6,0.7
2026-01-26T1300,2606A,101.5379,25.0492,楚雄彝族自治州,市经济开发区,,32,31,25,22,17,77,,30,30,12,16,3,3,0.5,0.5
2026-01-26T1300,4153A,101.5536,25.0343,楚雄彝族自治州,团结路562号,,,48,23,21,14,78,,23,23,,16,4,4,0.4,0.4
2026-01-26T1300,2549A,107.5087,31.2186,达州市,市环境监测站,细颗粒物(PM2.5),83,88,90,61,64,21,,11,11,25,36,6,6,0.7,0.8
2026-01-26T1300,2550A,107.4988,31.2132,达州市,凤凰小区,细颗粒物(PM2.5),70,75,90,51,65,24,,10,10,25,36,4,5,0.4,0.5
2026-01-26T1300,2551A,107.5081,31.1987,达州市,达县机关宾馆,细颗粒物(PM2.5),67,78,89,48,66,26,,10,10,27,39,2,3,0.9,1
2026-01-26T1300,2552A,107.4644,31.2124,达州市,市政中心,细颗粒物(PM2.5),67,79,90,48,60,35,,18,18,24,35,6,6,0.6,0.6
2026-01-26T1300,2614A,100.2168,25.5818,大理白族自治州,大理市环境监测站,,26,24,23,18,22,72,,64,63,8,9,6,6,0.6,0.5
2026-01-26T1300,2615A,100.1542,25.7055,大理白族自治州,大理古城,,27,23,25,7,16,86,,63,63,6,9,8,8,0.9,0.8
2026-01-26T1300,1109A,121.6119,38.974,大连市,甘井子,,34,34,41,23,21,77,,48,48,13,25,10,8,0.6,0.8
2026-01-26T1300,1110A,121.565,38.9509,大连市,周水子,,33,32,29,23,17,66,,45,40,16,21,11,10,0.4,0.5
2026-01-26T1300,1111A,121.5637,38.8849,大连市,星海三站,,39,,25,27,19,66,,46,46,16,20,11,9,0.6,0.8
2026-01-26T1300,1112A,121.6301,38.9117,大连市,青泥洼桥,,38,37,29,26,20,64,,43,43,15,26,12,12,0.6,0.6
2026-01-26T1300,1113A,121.6248,38.8643,大连市,傅家庄,,33,,54,23,18,58,,48,48,18,24,10,11,0.6,0.7
2026-01-26T1300,1114A,121.5117,38.8636,大连市,七贤岭,,30,26,24,21,13,63,,60,56,12,9,8,7,0.6,0.6
2026-01-26T1300,1116A,121.7507,39.1339,大连市,金州,,35,35,39,24,25,72,,46,46,16,26,14,11,0.4,0.5
2026-01-26T1300,1117A,121.7811,39.0495,大连市,开发区,,48,48,35,31,27,61,,34,29,22,29,6,4,0.3,0.4
2026-01-26T1300,1118A,121.9762,39.0631,大连市,双D港,颗粒物(PM10),52,53,38,28,20,63,,50,50,25,21,11,10,0.6,0.6
2026-01-26T1300,4082A,121.2548,38.8188,大连市,旅顺,,,24,25,14,17,68,,53,49,,16,10,10,,0.7
2026-01-26T1300,1789A,124.8085,46.0381,大庆市,大同区,,49,45,66,34,41,62,,35,35,13,27,9,9,0.8,1.1
2026-01-26T1300,1790A,125.1166,46.5255,大庆市,龙凤区,,48,48,61,30,45,59,,28,28,15,35,10,15,0.4,0.7
2026-01-26T1300,1791A,124.8894,46.4007,大庆市,红岗区,,49,47,45,34,33,39,,17,17,23,29,7,6,0.7,0.7
2026-01-26T1300,1792A,125.1391,46.578,大庆市,萨尔图区,颗粒物(PM10),53,55,55,32,30,55,,25,25,22,35,8,8,0.6,0.7
2026-01-26T1300,1793A,124.9026,46.6217,大庆市,让胡路区,,39,39,42,22,32,60,,35,35,23,34,9,9,0.5,0.7
2026-01-26T1300,3481A,125.127,46.6277,大庆市,萨区政府监测点,颗粒物(PM10),54,58,48,34,35,56,,27,27,22,30,12,11,0.5,0.7
2026-01-26T1300,1723A,113.2926,40.0759,大同市,云冈宾馆,颗粒物(PM10),108,166,169,39,59,51,,42,33,24,31,9,12,0.9,1
2026-01-26T1300,1724A,113.3437,40.0921,大同市,大同大学,颗粒物(PM10),108,165,185,33,64,63,,41,39,17,27,9,11,0.6,0.9
2026-01-26T1300,1725A,113.2637,40.129,大同市,安家小村,颗粒物(PM10),103,156,193,40,67,61,,38,29,14,28,11,14,,1
2026-01-26T1300,3282A,113.3399,40.0586,大同市,大同市卫生学校,颗粒物(PM10),108,165,189,31,62,59,,44,35,26,32,8,9,0.7,0.9
2026-01-26T1300,3565A,113.1371,40.1122,大同市,云冈站,颗粒物(PM10),90,129,176,35,64,63,,38,35,14,30,6,8,0.5,0.8
2026-01-26T1300,3566A,113.1186,40.2556,大同市,图书馆,颗粒物(PM10),110,170,183,23,71,74,,39,39,10,30,4,10,0.6,1
2026-01-26T1300,3567A,113.5931,40.0459,大同市,区一中,颗粒物(PM10),95,139,167,23,78,70,,38,38,13,29,10,13,1.6,2
2026-01-26T1300,4199A,113.2798248,40.09972476,大同市,魏都大道141号,颗粒物(PM10),115,179,204,39,68,56,,39,30,24,34,7,10,0.6,0.9
2026-01-26T1300,2269A,124.1068,50.4091,大兴安岭地区,科技局,,21,17,18,3,7,65,,59,59,2,3,4,4,0.2,0.2
2026-01-26T1300,3663A,124.117,50.4279,大兴安岭地区,红旗社区,,,,19,8,15,68,,56,56,5,18,4,8,0.3,0.4
2026-01-26T1300,1600A,124.33,40.0625,丹东市,江湾东路,,40,40,39,26,23,61,,53,53,17,20,8,12,0.6,0.8
2026-01-26T1300,1601A,124.4242,40.1513,丹东市,临江后街,,50,50,35,28,24,61,,37,37,18,19,22,10,1.0,0.8
2026-01-26T1300,1602A,124.3935,40.1461,丹东市,元宝山,,38,38,33,25,22,55,,44,40,20,17,16,12,0.5,0.4
2026-01-26T1300,1603A,124.3634,40.1093,丹东市,民主桥,,39,39,42,24,24,62,,47,44,17,24,13,12,0.6,0.7
2026-01-26T1300,3541A,109.5726195,19.51688767,儋州市,第一中学子站,,22,19,22,10,9,68,,60,60,4,5,4,4,0.5,0.5
2026-01-26T1300,3542A,109.5567,19.5187,儋州市,东坡学校子站,,25,22,22,7,8,80,,68,68,2,4,3,3,0.5,0.5
2026-01-26T1300,2616A,98.5611,24.4273,德宏傣族景颇族自治州,德宏州监测站,细颗粒物(PM2.5),62,61,58,44,45,68,,21,21,14,27,11,7,0.6,0.8
2026-01-26T1300,3677A,98.5887,24.4366,德宏傣族景颇族自治州,芒市人民政府综合楼,,,,72,53,31,64,,29,29,13,14,6,5,0.6,0.4
2026-01-26T1300,1901A,104.424,31.1209,德阳市,东山公园,颗粒物(PM10),84,117,91,52,48,40,,22,15,31,27,2,2,0.9,0.8
2026-01-26T1300,1902A,104.3827,31.1318,德阳市,西小区,颗粒物(PM10),95,139,120,58,57,42,,14,14,36,42,4,3,0.9,0.9
2026-01-26T1300,1904A,104.3553,31.1091,德阳市,耐火材料厂,颗粒物(PM10),104,158,114,65,57,34,,10,10,38,43,3,2,0.9,0.8
2026-01-26T1300,4145A,104.4144,31.1495,德阳市,市林业局,颗粒物(PM10),98,145,94,63,56,48,,15,15,30,44,4,4,0.8,0.9
2026-01-26T1300,1622A,116.3034,37.4675,德州市,儿童乐园,"颗粒物(PM10),细颗粒物(PM2.5)",64,78,56,46,32,63,,38,32,25,28,16,15,0.9,0.8
2026-01-26T1300,1624A,116.2992,37.4449,德州市,监理站,颗粒物(PM10),68,85,60,44,26,73,,46,46,27,30,15,13,0.6,0.6
2026-01-26T1300,3066A,116.2722,37.438,德州市,九衢泉纯净水厂,,,,57,,28,53,,32,25,,30,12,10,1.0,0.8
2026-01-26T1300,3371A,116.3693,37.44,德州市,开发区人民医院,颗粒物(PM10),67,83,59,41,27,70,,46,44,24,34,16,14,0.5,0.6
2026-01-26T1300,3511A,116.5687,37.3331,德州市,陵城艺术中心,,,68,55,41,30,48,,30,30,27,29,25,18,,0.6
2026-01-26T1300,4292A,116.352738,37.420875,德州市,新河东路,细颗粒物(PM2.5),64,66,47,46,30,73,,38,35,24,26,18,14,0.7,0.6
2026-01-26T1300,2621A,99.7054,27.8319,迪庆藏族自治州,迪庆州站,,,,31,22,21,83,,57,57,8,9,4,4,,0
2026-01-26T1300,3180A,99.7122,27.8129,迪庆藏族自治州,质量技术监督局,,33,33,26,6,14,89,,62,58,6,11,5,5,0.4,0.5
2026-01-26T1300,4257A,104.6092,35.5962,定西市,将台街,颗粒物(PM10),282,407,668,94,153,72,,14,,10,24,,12,0.4,0.6
2026-01-26T1300,4309A,104.6159,35.5701,定西市,正龙路62号,颗粒物(PM10),335,448,745,86,137,71,,32,32,7,12,9,7,0.5,0.6
2026-01-26T1300,1390A,113.7943,23.0132,东莞市,东城石井,细颗粒物(PM2.5),125,106,66,95,41,,,14,,65,56,10,7,0.9,0.8
2026-01-26T1300,1391A,113.7384,22.9659,东莞市,南城西平,细颗粒物(PM2.5),68,71,62,49,37,134,,37,37,50,71,8,7,0.8,0.7
2026-01-26T1300,3319A,113.7283,23.041,东莞市,万江金泰,细颗粒物(PM2.5),94,94,81,70,49,146,,63,63,42,62,8,6,0.9,0.9
2026-01-26T1300,4129A,113.8666,23.1062,东莞市,裕兴路,颗粒物(PM10),84,118,96,53,47,157,,50,50,44,64,12,7,0.9,1
2026-01-26T1300,4130A,114.0076,22.9739,东莞市,教育路1号,,,,95,,48,,,19,,,70,,7,,0.8
2026-01-26T1300,4131A,113.7981,22.8124,东莞市,长怡路1号,颗粒物(PM10),63,76,65,40,33,134,,42,42,40,62,7,7,0.7,0.8
2026-01-26T1300,1666A,118.6612,37.4313,东营市,市环保局,颗粒物(PM10),56,61,30,36,14,61,,55,42,26,25,20,9,0.8,0.6
2026-01-26T1300,3036A,118.6903,37.4337,东营市,开发区管委会,颗粒物(PM10),57,63,33,39,16,61,,55,43,21,18,6,6,0.7,0.5
2026-01-26T1300,3365A,118.5721,37.5654,东营市,垦利区民丰路,,41,41,21,24,10,68,,57,42,17,19,9,7,0.5,0.5
2026-01-26T1300,3498A,118.5063,37.8606,东营市,河口城区,,44,44,21,15,8,78,,66,64,20,18,8,4,0.6,0.5
2026-01-26T1300,3646A,118.4979,37.4623,东营市,胜利站,颗粒物(PM10),52,54,26,31,13,58,,50,38,27,21,14,7,0.5,0.5
2026-01-26T1300,3734A,118.5753,37.4405,东营市,理想之城,颗粒物(PM10),59,68,32,39,18,57,,44,33,24,20,15,5,0.6,0.5
2026-01-26T1300,1591A,110.0024,39.8127,鄂尔多斯市,综合楼,颗粒物(PM10),107,163,259,31,39,62,,73,62,23,14,10,6,0.5,0.4
2026-01-26T1300,1592A,109.9485,39.8259,鄂尔多斯市,巴音孟克林场办事处,颗粒物(PM10),76,102,212,14,36,71,,69,66,16,12,7,6,0.3,0.4
2026-01-26T1300,1593A,109.7734,39.5987,鄂尔多斯市,康泽苑,颗粒物(PM10),82,114,200,22,37,82,,62,62,9,11,9,9,0.4,0.4
2026-01-26T1300,1594A,109.8121,39.5987,鄂尔多斯市,华泰汽车城,颗粒物(PM10),73,95,202,24,33,80,,58,52,10,14,5,5,0.4,0.4
2026-01-26T1300,1595A,109.9734,39.7884,鄂尔多斯市,奥林花园,,,,244,,36,75,,68,65,17,13,,3,0.5,0.4
2026-01-26T1300,2436A,114.894,30.3989,鄂州市,市政府,细颗粒物(PM2.5),128,104,76,97,79,18,,23,20,31,29,5,5,1.0,0.8
2026-01-26T1300,2437A,114.8986,30.3714,鄂州市,赵家坝,细颗粒物(PM2.5),133,110,81,101,79,22,,27,24,25,19,10,8,1.7,1.3
2026-01-26T1300,3654A,114.8093,30.4091,鄂州市,精准医疗中心,细颗粒物(PM2.5),137,107,87,104,87,22,,28,26,27,21,9,10,0.9,0.7
2026-01-26T1300,2454A,109.4978,30.2979,恩施土家族苗族自治州,湖北民院,细颗粒物(PM2.5),65,50,59,47,60,20,,6,6,17,24,6,6,1.1,1.2
2026-01-26T1300,3549A,109.5061,30.3771,恩施土家族苗族自治州,龙凤新区,细颗粒物(PM2.5),74,60,61,54,52,15,,4,4,26,24,7,7,1.0,1
2026-01-26T1300,2499A,108.3411,21.6159,防城港市,沙万,颗粒物(PM10),55,59,61,23,30,89,,60,60,15,34,8,7,0.7,1
2026-01-26T1300,2500A,108.3515,21.7733,防城港市,防城档案局,,41,41,64,25,42,78,,42,39,15,29,7,5,0.7,1.1
2026-01-26T1300,2501A,108.3506,21.6414,防城港市,大海花园,,42,42,51,23,36,102,,66,62,11,26,8,8,0.7,0.8
2026-01-26T1300,1371A,113.1293,23.0065,佛山市,湾梁,颗粒物(PM10),93,136,133,65,67,129,,31,31,65,70,/,/,/,/
2026-01-26T1300,1372A,113.1082,23.0477,佛山市,华材职中,,,,169,,119,135,,34,34,38,83,12,7,,1
2026-01-26T1300,1373A,113.1439,23.045,佛山市,南海气象局,颗粒物(PM10),92,133,116,64,64,140,,34,34,60,83,/,/,/,/
2026-01-26T1300,1374A,113.2879,22.8094,佛山市,顺德苏岗,细颗粒物(PM2.5),83,90,71,61,52,116,,37,37,62,59,/,/,1.0,1
2026-01-26T1300,1376A,112.8384,22.8678,佛山市,高明孔堂,细颗粒物(PM2.5),100,102,146,75,90,141,,49,49,42,56,/,/,/,/
2026-01-26T1300,1377A,112.8835,23.1584,佛山市,三水监测站,"颗粒物(PM10),细颗粒物(PM2.5)",62,73,174,44,100,138,,52,52,20,91,8,8,0.8,1.2
2026-01-26T1300,1378A,112.8668,23.185,佛山市,三水云东海,细颗粒物(PM2.5),89,95,137,66,105,164,,57,57,32,80,/,/,/,/
2026-01-26T1300,3625A,113.2568,22.7629,佛山市,容桂街道办,细颗粒物(PM2.5),107,112,97,80,69,126,,32,32,60,73,/,/,/,/
2026-01-26T1300,1282A,119.2681,26.0506,福州市,师大,,29,29,41,15,24,84,,49,49,22,33,4,3,0.7,0.8
2026-01-26T1300,1283A,119.2983,26.1028,福州市,五四北路,,26,21,31,18,23,81,,40,40,20,28,5,4,0.7,0.8
2026-01-26T1300,1284A,119.2648,26.0769,福州市,杨桥西路,,28,20,36,3,25,89,,47,47,12,29,5,4,/,/
2026-01-26T1300,3048A,119.5799,26.0937,福州市,九龙,,,20,24,12,17,77,,69,57,,21,5,5,0.7,0.8
2026-01-26T1300,3526A,119.5188,25.9666,福州市,吴航,,28,28,39,17,24,77,,34,34,26,37,4,5,0.5,0.7
2026-01-26T1300,4104A,119.3106,26.0648,福州市,路通桥巷6号,,43,43,43,22,26,80,,40,40,21,29,/,/,/,/
2026-01-26T1300,1755A,123.7974,41.8494,抚顺市,望花区,细颗粒物(PM2.5),67,81,98,48,66,64,,31,31,28,49,10,10,1.0,1.1
2026-01-26T1300,1756A,123.9161,41.8827,抚顺市,顺城区,细颗粒物(PM2.5),109,118,87,82,70,50,,28,28,49,52,17,12,2.0,1.2
2026-01-26T1300,1757A,124.0437,41.8615,抚顺市,东洲区,颗粒物(PM10),108,165,94,69,59,49,,44,44,47,36,11,13,1.7,1
2026-01-26T1300,1758A,123.9246,41.8638,抚顺市,新抚区,颗粒物(PM10),86,121,106,62,73,64,,31,31,33,52,14,9,1.4,1
2026-01-26T1300,1759A,124.0972,41.8961,抚顺市,大伙房水库,细颗粒物(PM2.5),90,90,71,67,49,53,,44,44,36,32,14,13,1.7,1
2026-01-26T1300,1760A,123.708,41.8386,抚顺市,沈抚新城,细颗粒物(PM2.5),84,106,103,62,71,54,,28,28,42,59,11,11,1.1,1.1
2026-01-26T1300,2377A,116.3544,27.9833,抚州市,市站,细颗粒物(PM2.5),85,71,77,63,63,44,,36,36,22,25,8,9,1.3,1.1
2026-01-26T1300,2378A,116.3562,27.9631,抚州市,血防站,细颗粒物(PM2.5),92,74,79,68,61,40,,30,30,27,31,5,7,1.7,1.7
2026-01-26T1300,2379A,116.3561,28.0007,抚州市,采茶剧团,,,74,80,68,65,41,,31,31,15,20,,7,1.6,1.5
2026-01-26T1300,2380A,116.3854,27.9648,抚州市,医学分院,细颗粒物(PM2.5),92,89,93,68,60,43,,33,33,20,25,5,11,1.3,1.3
2026-01-26T1300,2207A,121.6095,41.9978,阜新市,工业园区,颗粒物(PM10),66,82,66,39,34,58,,31,31,18,27,23,21,0.6,0.7
2026-01-26T1300,2208A,121.6567,42.0188,阜新市,长青街,细颗粒物(PM2.5),60,67,48,43,32,59,,35,35,21,21,23,19,0.6,0.6
2026-01-26T1300,2209A,121.6672,42.07,阜新市,农业园区,颗粒物(PM10),69,87,59,47,31,54,,36,36,18,19,19,17,0.6,0.5
2026-01-26T1300,2211A,121.6343,42.0455,阜新市,玉龙新城,颗粒物(PM10),60,70,60,42,31,55,,25,25,19,28,19,12,0.7,0.7
2026-01-26T1300,2301A,115.8276,32.8929,阜阳市,市监测站,细颗粒物(PM2.5),149,134,126,114,102,22,,24,15,31,33,4,4,1.0,0.9
2026-01-26T1300,2303A,115.8551,32.8606,阜阳市,开发区,细颗粒物(PM2.5),142,120,111,108,93,22,,27,15,35,36,5,5,0.8,0.7
2026-01-26T1300,2875A,115.783962,32.889217,阜阳市,阜阳职业技术学院,细颗粒物(PM2.5),125,125,114,95,91,31,,31,22,23,27,6,7,1.1,1.1
2026-01-26T1300,3468A,115.79,32.8614,阜阳市,市规划展馆,细颗粒物(PM2.5),149,147,128,114,106,25,,26,16,26,29,5,5,1.0,0.9
2026-01-26T1300,3469A,115.835101,32.918568,阜阳市,枣园社区,细颗粒物(PM2.5),163,138,129,124,112,22,,24,15,26,28,5,5,1.1,1
2026-01-26T1300,2669A,102.9097,34.9841,甘南藏族自治州,州政府,颗粒物(PM10),138,226,228,55,70,72,,29,29,11,23,8,7,0.6,0.9
2026-01-26T1300,3380A,102.8915,34.9618,甘南藏族自治州,甘肃民族师范学院,颗粒物(PM10),152,254,271,72,79,70,,32,32,16,27,12,12,0.5,0.5
2026-01-26T1300,2570A,101.96,30.048,甘孜藏族自治州,水桥子,颗粒物(PM10),52,54,34,15,13,54,,58,46,10,8,7,6,0.8,0.7
2026-01-26T1300,3065A,101.9534,29.9976,甘孜藏族自治州,州环保局,,27,27,27,3,10,63,,61,54,11,10,5,5,0.7,0.8
2026-01-26T1300,2363A,114.9368,25.8663,赣州市,地委,细颗粒物(PM2.5),68,71,87,49,50,62,,24,24,33,51,11,8,1.3,1.4
2026-01-26T1300,2364A,114.946,25.8483,赣州市,气象台,细颗粒物(PM2.5),77,93,115,56,52,52,,13,13,47,71,10,7,0.6,0.9
2026-01-26T1300,2365A,114.932,25.8332,赣州市,市图书馆,细颗粒物(PM2.5),82,80,104,60,58,45,,14,14,40,61,8,6,1.2,1.5
2026-01-26T1300,2366A,114.8905,25.8472,赣州市,华坚鞋城,颗粒物(PM10),64,77,100,45,54,39,,12,12,38,53,12,11,0.8,1.2
2026-01-26T1300,3109A,115.0094,25.8614,赣州市,赣县区卫计委,细颗粒物(PM2.5),93,95,79,69,60,54,,48,47,33,47,7,7,0.9,1
2026-01-26T1300,2684A,106.2753,36.0057,固原市,监测站,颗粒物(PM10),177,304,371,73,86,67,,38,38,7,17,7,7,0.5,0.7
2026-01-26T1300,2685A,106.2384,36.0189,固原市,新区,颗粒物(PM10),176,301,389,64,77,69,,29,29,7,18,7,7,0.6,0.8
2026-01-26T1300,2544A,106.6307,30.4577,广安市,市委,细颗粒物(PM2.5),94,82,81,70,69,52,,24,24,16,23,10,9,0.9,0.9
2026-01-26T1300,2545A,106.6266,30.4662,广安市,友谊中学,细颗粒物(PM2.5),84,74,76,62,69,52,,26,26,17,22,8,6,0.9,0.9
2026-01-26T1300,2547A,106.6386,30.4551,广安市,广电花园,细颗粒物(PM2.5),100,,70,75,69,47,,20,20,17,20,7,5,0.8,0.8
2026-01-26T1300,2902A,106.6347,30.4868,广安市,北辰小学,细颗粒物(PM2.5),93,89,78,69,70,51,,26,26,19,23,5,4,1.1,1.1
2026-01-26T1300,2524A,105.8211,32.4444,广元市,老城,颗粒物(PM10),162,274,259,90,70,33,,12,12,36,43,2,3,1.0,0.9
2026-01-26T1300,2526A,105.8629,32.429,广元市,监测站,颗粒物(PM10),177,303,263,90,70,29,,10,10,36,34,6,6,1.2,1
2026-01-26T1300,3617A,105.8047,32.4167,广元市,经开区,颗粒物(PM10),189,328,277,84,65,26,,8,8,33,38,6,5,1.0,0.9
2026-01-26T1300,1345A,113.2346,23.1423,广州市,广雅中学,颗粒物(PM10),79,107,111,53,58,109,,24,24,46,86,5,4,1.5,1.7
2026-01-26T1300,1346A,113.2611,23.105,广州市,市五中,细颗粒物(PM2.5),94,128,104,70,61,97,,21,21,82,87,10,8,/,/
2026-01-26T1300,1348A,113.3477,23.0916,广州市,广东商学院,细颗粒物(PM2.5),74,82,102,54,65,103,,23,23,55,87,8,6,0.9,1.1
2026-01-26T1300,1349A,113.4332,23.105,广州市,市八十六中,颗粒物(PM10),62,74,90,40,56,83,,21,21,64,92,12,9,/,/
2026-01-26T1300,1350A,113.3506,22.9488,广州市,番禺中学,颗粒物(PM10),92,133,129,53,54,88,,26,26,80,75,6,4,0.9,1
2026-01-26T1300,1351A,113.2147,23.3918,广州市,花都师范,细颗粒物(PM2.5),72,78,85,52,54,159,,49,49,28,66,9,7,0.7,0.9
2026-01-26T1300,1352A,113.2599,23.1329,广州市,市监测站,细颗粒物(PM2.5),128,,118,97,66,94,,20,20,,89,6,3,/,/
2026-01-26T1300,1353A,113.5618,23.3119,广州市,九龙镇镇龙,颗粒物(PM10),61,72,87,42,53,112,,37,37,28,46,7,6,0.6,0.7
2026-01-26T1300,1354A,113.2764,23.1544,广州市,麓湖,细颗粒物(PM2.5),103,139,85,77,57,88,,22,22,86,75,12,9,0.9,0.9
2026-01-26T1300,2846A,113.3209,23.1323,广州市,体育西,细颗粒物(PM2.5),98,126,110,73,64,88,,22,22,82,82,9,7,1.1,1.1
2026-01-26T1300,3298A,113.5718,23.5493,广州市,从化街口,细颗粒物(PM2.5),67,78,84,48,57,142,,39,39,19,50,18,15,0.6,0.8
2026-01-26T1300,3299A,113.3463,23.369,广州市,白云竹料,"颗粒物(PM10),细颗粒物(PM2.5)",57,64,89,40,57,157,,48,48,31,56,7,6,0.8,1
2026-01-26T1300,3300A,113.2981,23.2365,广州市,白云嘉禾,细颗粒物(PM2.5),84,114,108,62,62,120,,32,32,63,76,10,7,/,/
2026-01-26T1300,3301A,113.4256,23.1716,广州市,黄埔科学城,,,69,82,,52,116,,40,40,48,56,4,3,0.5,0.6
2026-01-26T1300,3302A,113.3942,23.0485,广州市,番禺大学城,颗粒物(PM10),81,112,135,51,60,96,,25,25,71,79,11,8,0.7,0.8
2026-01-26T1300,3303A,113.4923,22.8169,广州市,南沙黄阁,细颗粒物(PM2.5),88,,46,65,34,119,,33,33,68,70,11,6,/,/
2026-01-26T1300,3304A,113.534,22.7893,广州市,南沙街,颗粒物(PM10),75,100,63,48,30,116,,35,35,62,51,10,6,0.9,0.7
2026-01-26T1300,3443A,113.2905,23.5541,广州市,花都梯面,,49,48,65,34,40,124,,47,47,13,38,8,6,/,/
2026-01-26T1300,3445A,113.786,23.7479,广州市,从化良口,,50,42,37,35,31,125,,52,52,11,20,8,7,/,/
2026-01-26T1300,3446A,113.805,23.2614,广州市,增城荔城,,39,35,59,26,41,122,,66,66,14,30,7,6,0.6,0.7
2026-01-26T1300,2506A,109.604387,23.066791,贵港市,江南子站,细颗粒物(PM2.5),82,112,92,60,65,94,,46,46,21,28,12,8,1.0,1.1
2026-01-26T1300,2508A,109.5669,23.1065,贵港市,荷城子站,细颗粒物(PM2.5),64,63,73,46,54,85,,52,48,22,26,9,8,0.9,1
2026-01-26T1300,3405A,109.5886,23.1172,贵港市,新世纪学校,颗粒物(PM10),64,78,82,45,58,97,,55,54,11,22,/,/,0.5,0.6
2026-01-26T1300,4260A,109.5933,23.095,贵港市,中山路155-3号,细颗粒物(PM2.5),70,76,78,51,58,106,,50,50,21,30,/,/,0.7,0.8
2026-01-26T1300,1439A,106.6863,26.6035,贵阳市,马鞍山,,44,44,27,19,21,53,,46,46,23,19,10,6,/,/
2026-01-26T1300,1441A,106.6241,26.6266,贵阳市,鉴湖路,,41,41,33,17,19,55,,50,50,17,18,4,3,0.6,0.7
2026-01-26T1300,1442A,106.7468,26.6344,贵阳市,燕子冲,,39,31,20,27,27,57,,48,48,17,16,12,8,0.7,0.7
2026-01-26T1300,1443A,106.6556,26.4362,贵阳市,碧云窝,颗粒物(PM10),52,53,37,19,19,58,,48,48,16,19,3,7,/,/
2026-01-26T1300,1445A,106.6963,26.6063,贵阳市,红边门,颗粒物(PM10),51,51,30,27,21,57,,50,50,22,22,9,9,/,/
2026-01-26T1300,1446A,106.7162383,26.56964667,贵阳市,新华路,颗粒物(PM10),53,56,38,19,20,57,,50,50,28,25,12,8,0.7,0.7
2026-01-26T1300,1447A,106.6742,26.542,贵阳市,太慈桥,,48,48,29,19,19,57,,52,52,21,21,6,4,/,/
2026-01-26T1300,4230A,106.688212,26.56952,贵阳市,花果园大街66号,颗粒物(PM10),51,51,22,16,22,41,,42,41,27,22,8,5,/,/
2026-01-26T1300,4231A,106.687268,26.516892,贵阳市,漓江路57号,颗粒物(PM10),51,51,32,29,20,55,,49,49,25,24,14,8,0.7,0.8
2026-01-26T1300,1864A,110.3091,25.2705,桂林市,龙隐路小学,,22,22,71,14,63,26,,22,22,15,31,6,17,0.9,0.9
2026-01-26T1300,1865A,110.2849361,25.22909545,桂林市,八中,,26,26,82,14,68,21,,17,17,20,39,7,22,0.6,0.7
2026-01-26T1300,3531A,110.296,25.1254,桂林市,旅游学院,,36,36,84,14,60,21,,13,13,23,41,4,15,0.6,0.7
2026-01-26T1300,4222A,110.1835,25.2444,桂林市,环湖路276号,,20,19,87,14,71,15,,12,12,14,34,9,32,0.9,1.1
2026-01-26T1300,4301A,110.2803,25.2773,桂林市,信义路13号,,21,21,75,7,56,24,,22,22,17,36,5,24,1.2,1.3
2026-01-26T1300,2674A,100.2262,34.4854,果洛藏族自治州,玛沁县大武镇,,,52,130,12,24,96,,67,67,,3,,18,0.5,0.4
2026-01-26T1300,1130A,126.5557,45.8109,哈尔滨市,松北商大,细颗粒物(PM2.5),53,45,61,37,55,58,,24,24,18,40,7,9,0.5,0.8
2026-01-26T1300,1132A,126.6162,45.719,哈尔滨市,南岗学府路,,,64,81,,57,54,,27,27,24,38,,10,,1
2026-01-26T1300,1133A,126.6894,45.7733,哈尔滨市,太平宏伟公园,细颗粒物(PM2.5),170,201,108,129,85,21,,19,19,65,43,22,16,1.4,1.3
2026-01-26T1300,1134A,126.6361,45.7672,哈尔滨市,道外承德广场,颗粒物(PM10),59,68,76,35,46,56,,28,28,30,41,12,12,0.1,0.6
2026-01-26T1300,1136A,126.644,45.7261,哈尔滨市,动力和平路,细颗粒物(PM2.5),68,67,71,49,53,45,,21,21,32,44,24,16,0.8,1
2026-01-26T1300,1137A,126.5933,45.7479,哈尔滨市,道里建国路,细颗粒物(PM2.5),62,71,57,44,47,45,,23,23,33,45,17,11,0.3,0.5
2026-01-26T1300,1138A,126.6127,45.6119,哈尔滨市,平房东轻厂,,23,21,78,16,69,64,,32,32,18,54,8,14,0.6,1.2
2026-01-26T1300,1139A,126.5875,45.9827,哈尔滨市,呼兰师专,细颗粒物(PM2.5),74,85,83,54,65,37,,19,19,40,43,28,15,0.8,1
2026-01-26T1300,1140A,126.6299,45.6799,哈尔滨市,省农科院,细颗粒物(PM2.5),59,60,93,42,77,50,,22,22,22,50,16,18,0.7,1.1
2026-01-26T1300,4282A,126.6769,45.7379,哈尔滨市,华山路1号,细颗粒物(PM2.5),97,112,72,72,52,30,,20,20,49,44,32,19,0.9,0.8
2026-01-26T1300,4283A,126.9717,45.5356,哈尔滨市,解放大街52号,细颗粒物(PM2.5),57,56,72,40,54,61,,40,40,19,30,23,18,0.6,0.8
2026-01-26T1300,2688A,93.5124,42.8176,哈密市,地区监测站,颗粒物(PM10),78,105,103,47,40,44,,31,31,15,22,10,8,0.3,0.3
2026-01-26T1300,2689A,93.5014,42.8312,哈密市,哈密师范学校,颗粒物(PM10),87,123,108,36,35,44,,31,31,25,31,9,6,0.7,0.7
2026-01-26T1300,2671A,100.9016,36.9464,海北藏族自治州,海晏县西海镇,颗粒物(PM10),103,155,215,32,54,73,,52,52,4,11,8,12,0.8,0.7
2026-01-26T1300,3867A,102.074,36.5056,海东市,平安区公安局北苑,颗粒物(PM10),154,257,445,98,134,49,,20,19,32,25,35,19,1.7,1.2
2026-01-26T1300,4163A,102.0984,36.5119,海东市,滨河路,颗粒物(PM10),164,277,501,98,145,66,,24,24,31,43,31,20,1.3,1.1
2026-01-26T1300,1410A,110.3189,20.0596,海口市,海南大学,,31,28,27,13,10,99,,87,87,8,8,6,5,0.4,0.4
2026-01-26T1300,1411A,110.2827,20.0051,海口市,秀英海南医院,,29,28,28,13,10,91,,82,82,9,9,7,7,0.3,0.3
2026-01-26T1300,1412A,110.3391,19.9979,海口市,海南师范大学,,29,27,29,12,11,91,,82,82,13,11,6,6,0.4,0.4
2026-01-26T1300,1413A,110.3303,20.0359,海口市,龙华路环保局宿舍,,31,28,29,16,11,98,,86,86,10,10,/,/,0.7,0.7
2026-01-26T1300,3539A,110.5111,19.9737,海口市,桂林洋子站,,30,29,30,15,11,96,,78,78,10,10,/,/,/,/
2026-01-26T1300,4134A,110.1952,20.0451,海口市,长滨二路9号,,30,20,20,13,10,95,,81,81,5,8,/,/,/,/
2026-01-26T1300,2673A,100.6158,36.2985,海南藏族自治州,共和县恰卜恰镇,颗粒物(PM10),96,142,154,63,48,81,,48,48,4,14,12,11,0.9,0.9
2026-01-26T1300,2676A,97.373,37.376,海西蒙古族藏族自治州,德令哈市,颗粒物(PM10),78,106,307,35,47,96,,88,88,2,3,17,18,0.1,0.2
2026-01-26T1300,1049A,114.492,36.5712,邯郸市,矿院,细颗粒物(PM2.5),176,143,120,133,110,29,,11,11,51,51,26,10,1.8,1.1
2026-01-26T1300,1050A,114.4839,36.6136,邯郸市,丛台公园,细颗粒物(PM2.5),176,158,131,133,112,27,,14,14,68,58,24,9,2.2,1.1
2026-01-26T1300,3458A,114.7893,36.5592,邯郸市,香泉濮院小区,细颗粒物(PM2.5),120,,147,91,104,44,,16,16,37,62,13,9,1.2,1.2
2026-01-26T1300,3580A,114.1998,36.4439,邯郸市,峰峰矿区临水派出所,细颗粒物(PM2.5),160,133,99,122,86,56,,33,28,39,35,19,18,1.7,1.2
2026-01-26T1300,4068A,114.5209,36.7697,邯郸市,建安街268号,细颗粒物(PM2.5),168,136,127,127,112,37,,12,12,53,69,20,9,1.4,1
2026-01-26T1300,4069A,114.5488,36.6177,邯郸市,丛台东路558号,细颗粒物(PM2.5),159,140,126,121,119,29,,11,11,48,55,15,9,1.7,1.2
2026-01-26T1300,2635A,107.0155,33.0707,汉中市,市监测站,细颗粒物(PM2.5),107,152,99,80,72,43,,11,11,23,30,,6,1.2,1.3
2026-01-26T1300,2636A,107.0083,33.114,汉中市,鑫源开发区,细颗粒物(PM2.5),104,126,101,78,87,45,,14,14,20,32,9,6,1.1,1.4
2026-01-26T1300,2637A,107.0072,33.0323,汉中市,南郑大河坎水厂,细颗粒物(PM2.5),105,142,103,79,70,38,,9,9,23,24,7,6,1.1,1.2
2026-01-26T1300,1223A,120.2073,30.2111,杭州市,滨江,细颗粒物(PM2.5),92,89,93,68,66,25,,16,16,35,54,6,7,0.5,0.6
2026-01-26T1300,1224A,120.0625,30.2737,杭州市,西溪,细颗粒物(PM2.5),94,106,101,70,65,27,,13,13,33,45,8,9,0.7,0.9
2026-01-26T1300,1226A,120.3417,30.315,杭州市,下沙,,,74,86,55,58,36,,13,13,23,53,,9,0.6,0.6
2026-01-26T1300,1227A,120.1252,30.2465,杭州市,卧龙桥,细颗粒物(PM2.5),89,93,89,66,68,33,,20,20,28,49,8,8,0.4,0.4
2026-01-26T1300,1228A,120.1902,30.2691,杭州市,浙江农大,细颗粒物(PM2.5),85,84,89,63,64,28,,17,17,34,60,6,6,0.7,0.7
2026-01-26T1300,1230A,120.1195,30.3121,杭州市,和睦小学,细颗粒物(PM2.5),73,93,95,53,62,28,,17,17,20,44,5,6,0.8,0.8
2026-01-26T1300,1231A,120.3076,30.4146,杭州市,临平镇,,43,41,75,30,49,31,,14,14,20,37,7,8,0.7,0.7
2026-01-26T1300,1232A,120.2753,30.1839,杭州市,城厢镇,细颗粒物(PM2.5),95,98,102,71,64,35,,19,19,32,50,8,9,0.5,0.5
2026-01-26T1300,1233A,120.0883,30.1808,杭州市,云栖,细颗粒物(PM2.5),92,93,95,68,67,40,,22,22,28,45,4,5,0.6,0.6
2026-01-26T1300,3557A,119.9463,30.0496,杭州市,镇二中,细颗粒物(PM2.5),118,99,104,89,103,28,,8,8,45,68,6,7,0.9,1.2
2026-01-26T1300,3558A,119.7184,30.2367,杭州市,市府大楼,细颗粒物(PM2.5),112,109,131,84,107,34,,14,14,26,49,11,12,1.1,1.4
2026-01-26T1300,3656A,120.1554,30.2863,杭州市,消防大队,细颗粒物(PM2.5),115,90,95,87,74,25,,16,16,26,46,6,7,0.5,0.5
2026-01-26T1300,1270A,117.1957,31.7845,合肥市,明珠广场,,20,17,60,14,51,37,,40,40,18,30,5,5,0.5,0.7
2026-01-26T1300,1271A,117.307,31.8765,合肥市,三里街,,18,12,49,12,43,38,,47,47,24,29,4,5,0.6,0.7
2026-01-26T1300,1272A,117.2587,31.8703,合肥市,琥珀山庄,,25,22,57,17,50,44,,50,49,17,26,7,7,0.8,0.9
2026-01-26T1300,1275A,117.2593,31.9376,合肥市,庐阳区,,18,17,54,12,43,44,,50,48,24,34,3,10,0.6,0.7
2026-01-26T1300,1276A,117.345251,31.861615,合肥市,瑶海区,,18,14,51,12,44,38,,47,46,27,34,4,4,0.4,0.6
2026-01-26T1300,1277A,117.3033,31.7967,合肥市,包河区,,,9,56,,54,37,,34,34,31,53,6,6,0.6,0.7
2026-01-26T1300,1278A,117.278,31.7392,合肥市,滨湖新区,,32,,62,22,59,35,,33,33,24,39,3,3,0.5,0.7
2026-01-26T1300,1279A,117.1324,31.8395,合肥市,高新区,,22,19,60,15,52,46,,48,47,22,36,3,4,0.6,0.8
2026-01-26T1300,3464A,117.3802,31.9148,合肥市,高教基地,,28,19,48,19,49,40,,51,50,25,30,7,8,0.5,0.6
2026-01-26T1300,4098A,117.2518,31.8404,合肥市,中国科学技术大学,,17,17,53,10,44,44,,50,48,15,24,7,8,0.6,0.8
2026-01-26T1300,3614A,79.9241,37.0878,和田地区,地区环保局,颗粒物(PM10),500,923,998,202,165,29,,23,22,52,28,,9,3.1,1.6
2026-01-26T1300,3615A,79.9132,37.1137,和田地区,市环保局,颗粒物(PM10),500,852,987,135,166,23,,13,12,49,28,5,3,3.4,1.7
2026-01-26T1300,2517A,108.0496,24.6957,河池市,市环保站,,26,,30,18,26,21,,7,7,10,23,2,2,1.0,1.3
2026-01-26T1300,4302A,108.0901,24.6945,河池市,上任中路54号,,17,17,32,7,25,14,,4,4,17,21,4,4,0.9,1.2
2026-01-26T1300,1697A,114.6962,23.7538,河源市,东埔,,42,42,46,28,36,111,,43,43,19,37,6,5,0.5,0.6
2026-01-26T1300,1698A,114.6895,23.7232,河源市,老城,颗粒物(PM10),55,60,47,27,28,109,,41,41,17,29,7,6,0.8,0.8
2026-01-26T1300,3374A,115.5562,35.089,菏泽市,定陶老年大学,细颗粒物(PM2.5),163,175,160,124,118,38,,16,16,47,46,11,10,1.1,1
2026-01-26T1300,4114A,115.4239,35.2593,菏泽市,黄河路600号,细颗粒物(PM2.5),158,157,165,120,124,64,,24,24,32,49,9,5,1.0,1.1
2026-01-26T1300,4115A,115.5025,35.2727,菏泽市,菏泽市人社局,细颗粒物(PM2.5),155,151,160,118,123,53,,19,19,28,44,18,13,1.0,1.1
2026-01-26T1300,4184A,115.479691,35.244011,菏泽市,永昌路1号,细颗粒物(PM2.5),156,157,164,119,122,56,,21,21,31,45,13,9,0.7,0.8
2026-01-26T1300,4193A,115.471542,35.280012,菏泽市,长城路999号,细颗粒物(PM2.5),149,145,158,114,117,58,,18,18,33,50,14,13,1.0,1.1
2026-01-26T1300,2514A,111.5264,24.4178,贺州市,环保小区,细颗粒物(PM2.5),93,84,104,69,70,45,,14,14,20,35,27,6,0.8,1.1
2026-01-26T1300,2515A,111.561,24.4074,贺州市,政协大楼,细颗粒物(PM2.5),97,90,87,72,59,46,,15,15,22,35,28,13,0.9,1.1
2026-01-26T1300,3534A,111.4744,24.455,贺州市,西湾,细颗粒物(PM2.5),87,96,82,64,60,40,,14,14,20,38,27,10,1.0,1.1
2026-01-26T1300,2385A,114.17,35.9019,鹤壁市,市监测站,细颗粒物(PM2.5),169,152,137,128,119,52,,27,27,28,34,12,14,1.3,1.3
2026-01-26T1300,2386A,114.2953,35.7512,鹤壁市,市交警支队,细颗粒物(PM2.5),165,146,137,125,116,32,,13,10,43,47,6,12,1.1,1.1
2026-01-26T1300,2387A,114.2877,35.7302,鹤壁市,迎宾馆,细颗粒物(PM2.5),159,154,135,121,107,37,,18,12,34,39,11,13,1.3,1.2
2026-01-26T1300,3474A,114.2616,35.6824,鹤壁市,大新区,细颗粒物(PM2.5),188,151,122,141,99,37,,15,14,28,29,10,12,1.4,1.2
2026-01-26T1300,3596A,114.1573,35.9607,鹤壁市,南山宾馆,细颗粒物(PM2.5),165,160,139,125,114,60,,37,37,33,35,17,17,1.3,1.2
2026-01-26T1300,2244A,130.2537,47.3416,鹤岗市,哈啤分公司,,29,13,22,6,14,91,,79,79,4,6,7,6,0.2,0.2
2026-01-26T1300,2245A,130.2683,47.3087,鹤岗市,斯达机电,,25,12,25,3,7,79,,89,81,10,7,7,5,0.4,0.4
2026-01-26T1300,2246A,130.3114,47.3388,鹤岗市,东山纸板厂,,26,22,36,3,11,81,,67,64,4,10,6,6,0.6,0.6
2026-01-26T1300,2263A,127.4832,50.2524,黑河市,交通局,,24,14,17,6,13,76,,75,70,8,10,3,4,0.2,0.2
2026-01-26T1300,2264A,127.5146,50.2339,黑河市,环保局,,24,16,14,3,9,75,,74,72,8,9,3,3,0.4,0.4
2026-01-26T1300,1074A,115.6839,37.754,衡水市,电机北厂,细颗粒物(PM2.5),80,92,61,59,37,52,,21,21,24,34,12,10,0.7,0.5
2026-01-26T1300,1075A,115.6303,37.7318,衡水市,市监测站,细颗粒物(PM2.5),88,86,59,65,34,55,,23,23,22,30,13,10,0.6,0.5
2026-01-26T1300,3188A,115.6684,37.7216,衡水市,市城管局,颗粒物(PM10),78,105,66,41,35,52,,22,22,26,33,13,10,0.6,0.5
2026-01-26T1300,3459A,115.599,37.5491,衡水市,地表水厂,,,74,56,57,40,47,,16,16,23,33,,7,0.6,0.5
2026-01-26T1300,2457A,112.6209,26.9268,衡阳市,衡阳化工总厂,,,27,44,27,39,22,,29,23,,15,8,9,1.1,1.2
2026-01-26T1300,2458A,112.621,26.8957,衡阳市,珠晖区环保局,,48,33,47,33,46,19,,25,20,20,21,4,5,1.2,1.1
2026-01-26T1300,2459A,112.628,26.8654,衡阳市,市委党校,,45,,44,31,43,22,,29,23,11,12,8,10,1.3,1.3
2026-01-26T1300,2460A,112.6007,26.8977,衡阳市,市监测站,,42,,62,29,37,25,,27,20,19,22,5,7,1.2,1.2
2026-01-26T1300,2461A,112.5658,26.9013,衡阳市,真空机电公司,,43,,55,30,50,32,,25,25,15,25,5,14,1.3,1.4
2026-01-26T1300,3399A,112.6703,26.8817,衡阳市,师范学院,,38,31,48,26,36,24,,29,25,19,21,2,4,1.1,1
2026-01-26T1300,3038A,103.3757,23.3679,红河哈尼族彝族自治州,州图书馆,,36,,31,25,21,76,,43,43,5,10,6,7,0.6,0.6
2026-01-26T1300,4154A,103.401,23.3561,红河哈尼族彝族自治州,蒙自市朝阳路,,25,19,24,13,19,79,,48,48,2,8,6,8,0.5,0.6
2026-01-26T1300,1090A,111.6506,40.7517,呼和浩特市,呼市一监,颗粒物(PM10),122,193,291,46,60,57,,33,33,12,26,10,15,0.5,0.7
2026-01-26T1300,1094A,111.7516,40.8369,呼和浩特市,如意水处理厂,颗粒物(PM10),125,200,227,51,56,61,,63,56,15,27,9,10,0.5,0.6
2026-01-26T1300,1095A,111.727798,40.806187,呼和浩特市,二十九中,颗粒物(PM10),136,221,254,50,56,57,,47,38,12,22,12,13,0.4,0.5
2026-01-26T1300,1097A,111.717,40.7617,呼和浩特市,化肥厂生活区,颗粒物(PM10),132,213,268,51,63,59,,39,38,13,24,6,7,0.5,0.6
2026-01-26T1300,3699A,111.6519,40.8389,呼和浩特市,海东办,颗粒物(PM10),128,205,255,50,54,56,,40,26,14,30,7,7,,0.7
2026-01-26T1300,4275A,111.591512,40.827312,呼和浩特市,成吉思汗西街8号,颗粒物(PM10),141,232,245,56,54,49,,24,24,19,41,8,10,0.6,0.7
2026-01-26T1300,4276A,111.6597,40.8077,呼和浩特市,公园东路75号,颗粒物(PM10),133,215,292,51,58,53,,42,35,18,28,7,9,0.7,0.8
2026-01-26T1300,4277A,111.5427,40.7846,呼和浩特市,金海路35号,颗粒物(PM10),148,245,268,60,65,50,,26,26,20,38,16,15,0.6,0.8
2026-01-26T1300,3061A,119.7511,49.1576,呼伦贝尔市,国华电力东,,39,38,27,27,22,66,,53,45,26,21,6,8,0.5,0.6
2026-01-26T1300,4279A,119.7569,49.2222,呼伦贝尔市,伊敏大街东7号,,35,35,37,14,24,57,,48,40,16,28,6,10,0.2,0.3
2026-01-26T1300,1250A,120.075,30.867,湖州市,城西水厂,,,28,49,,28,26,,38,20,28,34,6,6,0.4,0.4
2026-01-26T1300,2873A,120.083,30.8929,湖州市,仁皇山新区,,30,30,52,21,35,24,,50,28,42,40,5,7,0.8,0.6
2026-01-26T1300,2907A,120.1846,30.8592,湖州市,吴兴区站,,40,40,57,19,33,18,,29,25,32,40,4,6,0.6,0.5
2026-01-26T1300,3562A,120.4146,30.8538,湖州市,南浔区站,颗粒物(PM10),51,51,45,33,29,31,,46,28,34,31,6,8,0.7,0.5
2026-01-26T1300,1607A,120.904878,40.721091,葫芦岛市,龙港区,细颗粒物(PM2.5),73,79,82,53,52,43,,20,20,36,43,98,27,1.3,0.9
2026-01-26T1300,1608A,120.8382,40.7521,葫芦岛市,化工街,颗粒物(PM10),68,85,83,48,48,41,,22,22,39,41,29,18,0.9,0.7
2026-01-26T1300,1609A,120.8339,40.7078,葫芦岛市,新区,细颗粒物(PM2.5),83,89,61,61,45,40,,22,19,43,39,53,19,1.3,0.8
2026-01-26T1300,1610A,120.8697,40.7679,葫芦岛市,东城区,颗粒物(PM10),60,69,61,41,44,40,,19,19,35,45,19,24,1.1,0.8
2026-01-26T1300,2483A,109.9297,27.5383,怀化市,河西地税局,,30,26,19,21,18,46,,44,44,14,17,1,1,/,/
2026-01-26T1300,2484A,109.9783,27.5342,怀化市,市四医院,,26,25,23,18,18,33,,30,30,11,14,5,6,0.9,0.9
2026-01-26T1300,2485A,109.9971,27.5579,怀化市,监测楼,,21,21,22,10,18,34,,33,33,6,15,2,2,0.5,0.4
2026-01-26T1300,1210A,119.0566,33.5991,淮安市,钵池山,,39,,31,27,37,54,,61,58,13,11,6,6,0.3,0.3
2026-01-26T1300,1211A,119.0083,33.578,淮安市,北京南路,,29,22,32,20,30,52,,61,57,14,11,6,6,0.5,0.4
2026-01-26T1300,1212A,118.9938,33.6083,淮安市,市监测站,,,,23,14,25,58,,67,62,,14,8,8,0.5,0.6
2026-01-26T1300,1213A,119.135,33.5038,淮安市,楚州区监测站,,19,12,27,12,23,59,,64,62,11,13,8,8,0.2,0.2
2026-01-26T1300,3426A,118.8757,33.2897,淮安市,新华书店,,30,,32,21,25,50,,58,58,18,14,8,8,0.7,0.7
2026-01-26T1300,4092A,119.119691,33.550006,淮安市,枚皋中路89号,,22,22,36,11,23,68,,73,71,11,11,8,8,0.0,0.1
2026-01-26T1300,4206A,119.028838,33.631911,淮安市,承德北路606号,,,,35,21,34,58,,62,58,,14,6,6,0.3,0.4
2026-01-26T1300,2282A,116.8005,33.9749,淮北市,监测站,细颗粒物(PM2.5),68,66,68,49,48,46,,44,35,20,16,4,5,0.7,0.6
2026-01-26T1300,2283A,116.8094,33.9008,淮北市,烈山区政府,细颗粒物(PM2.5),74,58,55,54,46,44,,48,38,22,16,3,4,0.5,0.4
2026-01-26T1300,4017A,116.7926,33.9534,淮北市,市博物馆,细颗粒物(PM2.5),74,66,66,54,47,45,,45,36,18,14,6,8,0.7,0.6
2026-01-26T1300,4100A,116.8322,33.9884,淮北市,杜集区第一实验学校,细颗粒物(PM2.5),73,61,65,53,45,44,,46,37,22,16,6,7,0.8,0.7
2026-01-26T1300,2277A,116.8304,32.7726,淮南市,潘集区政府,细颗粒物(PM2.5),58,41,55,41,50,54,,53,53,12,19,4,4,0.4,0.4
2026-01-26T1300,2279A,116.8569,32.5949,淮南市,谢家集区政府,,50,,40,35,36,46,,52,50,16,19,6,7,0.6,0.6
2026-01-26T1300,2280A,116.8279,32.6333,淮南市,八公山区政府,,45,32,45,31,39,48,,53,49,16,17,4,6,0.5,0.5
2026-01-26T1300,2894A,117.0561,32.6536,淮南市,经济技术开发区消防队,,35,35,51,22,30,48,,52,49,23,23,3,4,0.6,0.6
2026-01-26T1300,3329A,117.011,32.5891,淮南市,山南新区,,,31,44,17,28,49,,55,52,,22,6,6,0.8,0.6
2026-01-26T1300,4209A,117.003137,32.644456,淮南市,国庆中路369号,细颗粒物(PM2.5),53,,48,37,37,42,,44,41,19,22,8,8,0.3,0.3
2026-01-26T1300,2446A,114.9021,30.474,黄冈市,职工中心,细颗粒物(PM2.5),123,100,81,93,72,20,,28,26,27,23,6,6,1.2,0.9
2026-01-26T1300,2929A,114.8858,30.4519,黄冈市,红卫路,细颗粒物(PM2.5),133,,73,101,77,24,,30,28,26,21,7,7,0.7,0.6
2026-01-26T1300,3398A,114.9134,30.4446,黄冈市,市林业局,细颗粒物(PM2.5),129,,71,98,72,26,,30,30,24,22,5,4,1.1,0.9
2026-01-26T1300,2672A,102.02,35.5101,黄南藏族自治州,同仁县隆务镇,,,148,246,61,85,72,,51,51,,10,,11,0.6,0.8
2026-01-26T1300,2295A,118.2905,29.6965,黄山市,延安路89号,细颗粒物(PM2.5),110,107,54,83,38,32,,9,9,27,25,4,4,0.9,0.8
2026-01-26T1300,2297A,118.1369,30.2755,黄山市,黄山区政府5号楼,,17,17,85,9,65,26,,32,20,24,23,2,3,0.9,0.9
2026-01-26T1300,4210A,118.335445,29.720283,黄山市,滨江东路7-2号,细颗粒物(PM2.5),134,102,79,102,57,29,,12,12,31,31,/,/,/,/
2026-01-26T1300,2423A,115.0547,30.2332,黄石市,沈家营,细颗粒物(PM2.5),117,118,89,88,69,22,,23,23,21,21,7,7,1.8,1.6
2026-01-26T1300,2426A,114.899,30.211,黄石市,铁山,细颗粒物(PM2.5),150,,65,115,85,16,,24,23,26,24,5,6,1.2,0.7
2026-01-26T1300,2427A,115.0259,30.2108,黄石市,团城山,细颗粒物(PM2.5),128,102,81,97,78,19,,23,22,24,22,6,6,1.0,1.1
2026-01-26T1300,3149A,115.0174,30.1591,黄石市,笔架山北路,细颗粒物(PM2.5),143,,95,109,72,17,,22,22,29,26,6,7,1.3,1.3
2026-01-26T1300,4185A,115.078022,30.21118,黄石市,磁湖东路29号,细颗粒物(PM2.5),144,112,87,110,83,17,,21,20,30,32,6,6,1.4,1.4
2026-01-26T1300,1392A,114.4181,23.0528,惠州市,河南岸金山湖子站,颗粒物(PM10),55,59,58,33,33,116,,44,44,18,31,4,5,0.7,0.8
2026-01-26T1300,1393A,114.4055,23.0824,惠州市,下埔横江三路子站,颗粒物(PM10),53,56,61,30,34,123,,40,40,20,37,9,6,0.8,0.9
2026-01-26T1300,1395A,114.4645,22.7832,惠州市,惠阳区承修路船湖子站,颗粒物(PM10),55,60,45,33,24,126,,49,49,26,27,7,6,0.6,0.6
2026-01-26T1300,1396A,114.5316,22.7423,惠州市,大亚湾管委会子站,,,38,44,16,18,105,,42,39,16,24,8,6,,0.5
2026-01-26T1300,3314A,114.4334,22.8134,惠州市,惠阳秋长,颗粒物(PM10),52,53,53,32,24,160,,64,64,23,31,/,/,/,/
2026-01-26T1300,3452A,114.6521,22.7755,惠州市,大亚湾霞涌,,34,26,34,17,17,108,,63,63,13,25,/,/,/,/
2026-01-26T1300,4300A,114.4089,23.1147,惠州市,文华一路1号,颗粒物(PM10),55,60,56,33,31,138,,48,48,22,38,/,/,/,/
2026-01-26T1300,2240A,130.9618,45.2926,鸡西市,环保局,,,,19,,12,72,,67,64,7,8,6,6,0.3,0.3
2026-01-26T1300,2243A,130.9294,45.2959,鸡西市,第一中学,,24,,17,14,14,75,,70,67,5,7,3,3,0.4,0.3
2026-01-26T1300,3707A,131.0069,45.2988,鸡西市,欧美日汽修厂,,21,20,24,8,13,67,,64,57,10,9,9,7,0.2,0.2
2026-01-26T1300,2367A,114.9753,27.0803,吉安市,红声器材厂,细颗粒物(PM2.5),70,77,70,51,47,66,,34,34,24,32,13,13,1.1,1
2026-01-26T1300,2369A,114.9903,27.1313,吉安市,市环境监测站,,,69,68,48,47,68,,36,36,20,30,,10,/,/
2026-01-26T1300,2370A,115.009527,27.096792,吉安市,青原区法院,细颗粒物(PM2.5),64,71,73,46,50,62,,32,32,23,31,15,15,1.0,1
2026-01-26T1300,1772A,126.54,43.8622,吉林市,哈达湾,细颗粒物(PM2.5),104,84,63,78,52,60,,46,46,41,33,8,9,1.1,1
2026-01-26T1300,1773A,126.5843,43.8358,吉林市,东局子,细颗粒物(PM2.5),54,46,53,38,44,58,,46,46,24,26,7,6,0.9,1
2026-01-26T1300,1774A,126.5051,43.8243,吉林市,电力学院,细颗粒物(PM2.5),57,42,87,40,77,72,,45,45,20,42,33,11,0.7,1.4
2026-01-26T1300,1775A,126.6133,43.8971,吉林市,江北,细颗粒物(PM2.5),69,59,75,50,67,70,,44,44,26,31,14,9,0.8,1.1
2026-01-26T1300,1776A,126.5549,43.8304,吉林市,江南公园,,,52,57,44,49,61,,40,40,,30,22,9,0.8,0.9
2026-01-26T1300,2868A,126.4737,43.953,吉林市,九站,细颗粒物(PM2.5),132,141,88,100,72,54,,24,24,45,53,20,10,2.2,1.1
2026-01-26T1300,1299A,116.9866,36.6118,济南市,科干所,细颗粒物(PM2.5),80,107,83,59,43,29,,9,9,47,55,14,13,0.9,0.9
2026-01-26T1300,1300A,116.9379,36.6652,济南市,农科所,,,,84,56,41,31,,9,9,,48,14,14,0.8,0.9
2026-01-26T1300,1301A,117.1265,36.6736,济南市,开发区,细颗粒物(PM2.5),80,93,86,59,53,27,,8,8,44,51,9,9,0.8,0.9
2026-01-26T1300,1303A,117.0616,36.6865,济南市,省种子仓库,颗粒物(PM10),69,88,89,48,50,39,,13,13,34,45,11,13,0.7,0.9
2026-01-26T1300,1304A,116.9495185,36.644937,济南市,机床二厂,细颗粒物(PM2.5),83,95,89,61,58,38,,8,8,34,47,16,13,0.6,0.8
2026-01-26T1300,1305A,117.0496,36.6629,济南市,市监测站,细颗粒物(PM2.5),80,93,90,59,52,30,,8,8,34,47,9,10,0.8,0.9
2026-01-26T1300,1306A,116.7674,36.5458,济南市,长清党校,细颗粒物(PM2.5),80,88,94,59,52,45,,14,14,24,49,14,14,0.8,0.9
2026-01-26T1300,1961A,117.5323,36.6865,济南市,东山小学,细颗粒物(PM2.5),83,103,88,61,49,35,,14,14,28,40,8,9,0.6,0.6
2026-01-26T1300,3059A,117.7181,36.205,济南市,泰兴公司,细颗粒物(PM2.5),110,110,97,83,75,57,,24,24,30,46,13,7,2.2,1
2026-01-26T1300,3064A,117.6861,36.2172,济南市,莱芜战役纪念馆,细颗粒物(PM2.5),103,92,96,77,77,55,,25,25,33,42,17,11,1.3,0.9
2026-01-26T1300,3494A,117.1673,36.9782,济南市,济阳区政府,颗粒物(PM10),59,68,54,37,27,47,,31,27,26,27,11,10,0.6,0.6
2026-01-26T1300,3495A,117.1168,36.6299,济南市,锦屏中学,颗粒物(PM10),75,100,83,54,50,31,,11,11,43,50,10,8,1.1,1.1
2026-01-26T1300,4108A,117.7107,36.2385,济南市,山财大街5号,,,,86,68,62,60,,31,31,,49,14,10,1.0,1
2026-01-26T1300,4109A,116.9744,36.6889,济南市,无影山路12号,细颗粒物(PM2.5),68,68,76,49,45,45,,16,16,28,46,17,15,0.8,0.9
2026-01-26T1300,1653A,116.6229,35.4288,济宁市,火炬城,细颗粒物(PM2.5),107,94,145,80,128,36,,9,9,30,49,6,7,0.7,1.2
2026-01-26T1300,3500A,116.5808,35.3703,济宁市,北湖一中,细颗粒物(PM2.5),109,100,139,82,120,38,,9,9,30,53,8,9,0.7,1.1
2026-01-26T1300,3501A,116.8251,35.5592,济宁市,服务中心,颗粒物(PM10),102,153,145,,87,53,,22,22,,31,,5,0.5,0.7
2026-01-26T1300,3678A,116.5907,35.4054,济宁市,市第七中学,细颗粒物(PM2.5),94,113,140,70,113,46,,14,14,31,55,12,14,0.9,1.3
2026-01-26T1300,4111A,116.6075,35.4566,济宁市,任和路,细颗粒物(PM2.5),107,129,171,80,116,40,,10,10,32,52,12,13,0.8,1.2
2026-01-26T1300,4112A,116.5648,35.3921,济宁市,文体南路1号,细颗粒物(PM2.5),113,138,170,85,118,39,,9,9,33,56,9,10,0.7,1.1
2026-01-26T1300,2255A,130.2749,46.8028,佳木斯市,佳纺,,34,34,38,9,26,73,,58,58,6,16,4,10,0.5,0.6
2026-01-26T1300,2257A,130.3258,46.7975,佳木斯市,环保局,,24,20,25,3,19,76,,61,60,7,17,5,7,0.4,0.5
2026-01-26T1300,4285A,130.363,46.806,佳木斯市,顺和街,,21,19,21,3,20,66,,58,58,12,15,7,9,0.3,0.4
2026-01-26T1300,4286A,130.3952,46.8268,佳木斯市,长安路196号,,25,13,24,8,19,80,,69,69,7,13,5,7,0.4,0.5
2026-01-26T1300,1252A,120.7439,30.778,嘉兴市,清河小学,颗粒物(PM10),61,72,43,40,27,26,,56,25,39,30,5,8,0.3,0.3
2026-01-26T1300,1253A,120.7261,30.7477,嘉兴市,嘉兴学院,颗粒物(PM10),64,78,50,33,23,35,,62,33,32,30,4,7,1.1,1
2026-01-26T1300,2872A,120.7845,30.7524,嘉兴市,南湖区残联,"颗粒物(PM10),细颗粒物(PM2.5)",59,68,32,42,22,28,,61,28,38,33,4,7,0.8,0.7
2026-01-26T1300,3407A,120.6915,30.7741,嘉兴市,秀洲住建,细颗粒物(PM2.5),54,56,39,38,27,36,,57,29,33,32,6,9,0.6,0.5
2026-01-26T1300,1945A,98.291,39.7705,嘉峪关市,气象局,颗粒物(PM10),162,273,340,46,72,68,,33,33,8,28,10,17,0.5,0.7
2026-01-26T1300,2884A,98.2672,39.7978,嘉峪关市,酒钢宾馆,颗粒物(PM10),157,263,350,56,79,66,,31,30,8,25,15,24,0.5,0.6
2026-01-26T1300,3248A,98.2644,39.7723,嘉峪关市,雄关区,颗粒物(PM10),129,207,275,43,59,64,,30,30,12,29,13,20,0.3,0.6
2026-01-26T1300,1383A,113.1063,22.6058,江门市,北街,,,92,72,,53,141,,51,51,,46,/,/,/,/
2026-01-26T1300,1384A,113.073,22.5835,江门市,西区,细颗粒物(PM2.5),59,56,75,42,43,139,,55,55,40,48,/,/,/,/
2026-01-26T1300,1385A,113.0218,22.531,江门市,圭峰西,细颗粒物(PM2.5),75,,48,55,34,139,,61,61,27,24,/,/,/,/
2026-01-26T1300,1386A,113.0826,22.5947,江门市,东湖,细颗粒物(PM2.5),84,82,74,62,45,142,,56,56,39,38,11,8,0.6,0.6
2026-01-26T1300,3311A,113.1077,22.5647,江门市,江海富民,"颗粒物(PM10),细颗粒物(PM2.5)",97,143,92,72,53,150,,60,60,57,49,/,/,0.6,0.6
2026-01-26T1300,3449A,113.0496,22.4669,江门市,新会银湖,细颗粒物(PM2.5),107,,65,80,50,154,,47,47,33,44,9,7,0.6,0.5
2026-01-26T1300,3335A,113.3137,35.2643,焦作市,马村街道办,细颗粒物(PM2.5),206,168,185,156,163,48,,29,25,25,28,12,8,1.2,1.2
2026-01-26T1300,3336A,113.2464,35.2374,焦作市,焦作技师学院,细颗粒物(PM2.5),192,167,198,144,171,48,,28,28,26,31,10,8,1.3,1.4
2026-01-26T1300,3477A,113.1656,35.2536,焦作市,中站许衡医院,细颗粒物(PM2.5),207,176,204,157,180,44,,27,27,31,36,10,9,1.4,1.5
2026-01-26T1300,3981A,113.2456,35.18,焦作市,原李万街道办,细颗粒物(PM2.5),208,197,174,158,158,45,,29,29,29,33,15,7,1.4,1.2
2026-01-26T1300,4264A,113.234,35.219,焦作市,新安路1731号,细颗粒物(PM2.5),218,179,204,168,177,50,,32,32,24,29,,8,,1.3
2026-01-26T1300,4295A,113.2722,35.2121,焦作市,人民路3066号,细颗粒物(PM2.5),206,185,187,156,152,45,,34,,19,28,,8,1.5,1.5
2026-01-26T1300,1708A,116.3701,23.5345,揭阳市,新兴,细颗粒物(PM2.5),70,58,52,51,50,81,,37,37,29,30,14,9,0.9,0.7
2026-01-26T1300,1709A,116.3261,23.5442,揭阳市,西马,,50,,53,35,49,89,,36,36,14,23,7,7,0.8,0.7
2026-01-26T1300,1710A,116.361,23.5627,揭阳市,东兴,细颗粒物(PM2.5),72,67,53,52,50,97,,36,36,22,28,11,10,/,/
2026-01-26T1300,1711A,116.4151,23.5295,揭阳市,渔湖,颗粒物(PM10),60,70,48,37,24,78,,36,36,23,21,12,6,/,/
2026-01-26T1300,3320A,116.4028,23.5699,揭阳市,曲溪,细颗粒物(PM2.5),58,49,49,41,28,90,,34,34,21,23,8,7,0.8,0.7
2026-01-26T1300,1944A,102.1691,38.5166,金昌市,天庆家园,颗粒物(PM10),303,422,410,104,99,62,,30,30,14,17,56,19,1.1,1
2026-01-26T1300,4022A,102.1648,38.5369,金昌市,金川区人防中心,颗粒物(PM10),313,430,424,103,91,60,,36,36,9,13,12,15,0.8,0.7
2026-01-26T1300,4239A,102.193042,38.531887,金昌市,长春路96号,颗粒物(PM10),317,433,399,96,85,52,,28,28,8,16,8,33,0.7,0.7
2026-01-26T1300,1262A,119.6478,29.0773,金华市,十五中,细颗粒物(PM2.5),128,143,126,97,85,62,,25,25,54,67,6,5,0.6,0.6
2026-01-26T1300,1263A,119.6859,29.1032,金华市,监测站,细颗粒物(PM2.5),128,145,127,97,81,54,,18,18,58,75,5,4,0.7,0.7
2026-01-26T1300,3659A,119.656,29.1132,金华市,气象局,细颗粒物(PM2.5),133,145,130,101,85,51,,17,17,72,76,6,5,0.3,0.4
2026-01-26T1300,1767A,121.1114,41.0879,锦州市,南山,细颗粒物(PM2.5),70,58,52,51,40,42,,20,20,37,38,16,15,1.0,0.8
2026-01-26T1300,1768A,121.060361,40.842794,锦州市,开发区,颗粒物(PM10),53,55,57,36,42,50,,31,28,24,26,11,8,1.0,0.7
2026-01-26T1300,1769A,121.1836,41.1118,锦州市,百股街道,细颗粒物(PM2.5),75,92,64,55,50,47,,21,21,33,44,21,109,1.0,0.8
2026-01-26T1300,1770A,121.1176,41.1224,锦州市,天安街道,细颗粒物(PM2.5),70,52,55,51,40,47,,25,25,33,34,13,75,1.1,0.9
2026-01-26T1300,1771A,121.1303,41.1385,锦州市,北湖公园,细颗粒物(PM2.5),72,58,61,52,45,43,,23,23,30,33,38,120,0.9,0.8
2026-01-26T1300,2160A,112.8496,35.5051,晋城市,自来水公司,颗粒物(PM10),109,168,149,65,111,73,,68,63,13,21,6,4,0.8,0.9
2026-01-26T1300,2162A,112.8509,35.4886,晋城市,市环保局,颗粒物(PM10),125,199,153,73,115,74,,70,61,13,19,5,4,1.1,1.2
2026-01-26T1300,3620A,112.8258,35.4804,晋城市,泽州一中,颗粒物(PM10),116,182,142,75,111,68,,71,58,17,24,3,3,1.0,1
2026-01-26T1300,4078A,112.8246,35.5152,晋城市,前书院路,颗粒物(PM10),123,195,157,55,99,69,,53,50,12,22,6,4,0.8,1
2026-01-26T1300,4079A,112.8864,35.4773,晋城市,祥云街666号,颗粒物(PM10),127,203,166,92,136,69,,65,59,20,22,8,4,1.5,1
2026-01-26T1300,2174A,112.6992,37.6984,晋中市,榆次区政府,颗粒物(PM10),135,219,215,82,177,60,,23,23,26,43,14,12,0.7,1.2
2026-01-26T1300,2865A,112.7195,37.683,晋中市,榆次三中,颗粒物(PM10),144,237,221,88,178,60,,26,26,29,41,12,16,1.0,1.3
2026-01-26T1300,4080A,112.7375,37.7215,晋中市,广安街188号,颗粒物(PM10),135,219,240,90,182,61,,22,22,37,53,15,9,0.7,1.3
2026-01-26T1300,4200A,112.7478,37.6954,晋中市,迎宾街26号,细颗粒物(PM2.5),178,246,221,134,192,57,,26,26,35,44,12,14,1.2,1.4
2026-01-26T1300,2439A,112.2012,31.048,荆门市,竹园小学,细颗粒物(PM2.5),130,125,130,99,119,78,,56,56,23,26,1,2,0.4,0.6
2026-01-26T1300,2440A,112.1968,30.9892,荆门市,掇刀,细颗粒物(PM2.5),120,116,127,91,108,85,,63,63,17,21,3,2,0.7,0.8
2026-01-26T1300,3012A,112.1849,31.0361,荆门市,西山林语,细颗粒物(PM2.5),110,106,120,83,103,81,,62,62,24,24,3,32,0.9,1
2026-01-26T1300,3547A,112.1631,31.0134,荆门市,龙泉中学南校,细颗粒物(PM2.5),104,86,119,78,109,84,,71,71,11,12,3,3,0.7,0.9
2026-01-26T1300,4124A,112.2213,31.0654,荆门市,新台西路6号,细颗粒物(PM2.5),159,121,133,121,127,78,,56,56,25,27,9,7,1.0,1
2026-01-26T1300,1844A,112.2493,30.3198,荆州市,市图书馆,细颗粒物(PM2.5),199,,95,149,117,46,,43,42,25,23,5,6,1.2,1.1
2026-01-26T1300,1845A,112.2009,30.3543,荆州市,市委党校,细颗粒物(PM2.5),192,145,117,144,113,42,,41,41,32,30,6,5,1.1,1
2026-01-26T1300,3194A,112.2749,30.3124,荆州市,管委会,细颗粒物(PM2.5),198,,101,148,113,46,,41,40,25,24,5,5,1.2,1.2
2026-01-26T1300,4268A,112.1722,30.3366,荆州市,学苑路85号,细颗粒物(PM2.5),188,,102,141,110,52,,48,46,28,22,8,7,1.2,1.2
2026-01-26T1300,2343A,117.2114,29.2931,景德镇市,老干部活动中心,细颗粒物(PM2.5),73,55,68,53,63,12,,6,6,28,34,4,6,0.9,0.8
2026-01-26T1300,2344A,117.1893,29.2789,景德镇市,兽医站,细颗粒物(PM2.5),62,56,63,44,39,16,,10,10,31,33,4,4,0.9,0.7
2026-01-26T1300,2346A,117.246,29.2958,景德镇市,陶研所,细颗粒物(PM2.5),92,,53,68,58,11,,6,6,35,30,4,6,1.2,1.1
2026-01-26T1300,4289A,117.154766,29.256967,景德镇市,青少年活动中心,细颗粒物(PM2.5),60,48,88,43,53,16,,10,10,31,42,9,14,/,/
2026-01-26T1300,1803A,115.9873,29.6816,九江市,十里,细颗粒物(PM2.5),94,72,86,70,75,23,,24,17,34,40,4,6,1.4,1.4
2026-01-26T1300,1804A,115.9583,29.7047,九江市,茅山头,细颗粒物(PM2.5),98,78,88,73,68,13,,13,10,35,35,3,5,1.2,1.1
2026-01-26T1300,1805A,115.9877,29.7295,九江市,西园,细颗粒物(PM2.5),87,93,95,64,68,27,,18,18,37,46,4,5,1.0,0.9
2026-01-26T1300,1808A,115.9112,29.6038,九江市,综合工业园,细颗粒物(PM2.5),104,,94,78,92,15,,18,14,40,53,2,4,0.7,0.7
2026-01-26T1300,3190A,116.0254,29.6995,九江市,外国语学校,细颗粒物(PM2.5),88,73,86,65,71,17,,16,14,37,45,4,6,1.0,0.9
2026-01-26T1300,4253A,116.010205,29.659402,九江市,莲花大道8号,细颗粒物(PM2.5),103,87,97,77,88,15,,16,11,27,33,3,4,1.1,1
2026-01-26T1300,4240A,98.495752,39.733935,酒泉市,玉门东路5号,颗粒物(PM10),187,324,352,42,66,61,,31,31,10,22,21,12,0.7,0.6
2026-01-26T1300,4241A,98.5099,39.7506,酒泉市,北大街108号,颗粒物(PM10),168,285,366,47,67,60,,32,32,10,23,20,11,0.6,0.6
2026-01-26T1300,2698A,76.0071,39.466,喀什地区,巡警大队,颗粒物(PM10),500,637,589,188,154,8,,4,4,59,38,6,5,3.4,2.1
2026-01-26T1300,2699A,75.9756,39.4693,喀什地区,吾办,颗粒物(PM10),489,589,516,189,162,18,,8,8,51,43,9,10,2.5,1.8
2026-01-26T1300,4027A,75.9485,39.4688,喀什地区,老干局,颗粒物(PM10),500,740,626,249,163,8,,5,5,60,39,6,4,3.8,2.6
2026-01-26T1300,1824A,114.3389,34.778,开封市,肿瘤医院,细颗粒物(PM2.5),163,157,138,124,112,59,,29,29,29,37,14,14,1.2,1.8
2026-01-26T1300,1826A,114.2884,34.7966,开封市,世纪星幼儿园,细颗粒物(PM2.5),210,,125,160,129,56,,29,29,38,40,10,9,1.1,1
2026-01-26T1300,3147A,114.3434,34.8101,开封市,龙亭公园,细颗粒物(PM2.5),217,,136,167,123,63,,25,25,,42,13,11,1.2,1.2
2026-01-26T1300,3210A,114.3645,34.7955,开封市,汴京公园,细颗粒物(PM2.5),192,168,140,144,123,55,,25,25,32,39,10,8,0.9,0.9
2026-01-26T1300,3473A,114.2485,34.8306,开封市,技师学院,细颗粒物(PM2.5),190,158,125,143,110,63,,29,29,35,40,11,10,1.1,1
2026-01-26T1300,3592A,114.4518,34.7503,开封市,祥符区生态环境局,颗粒物(PM10),129,208,169,96,119,57,,24,24,26,41,8,7,1.0,0.9
2026-01-26T1300,1951A,84.886,45.6029,克拉玛依市,长征新村,细颗粒物(PM2.5),69,79,77,50,43,30,,39,27,27,28,5,6,0.6,0.7
2026-01-26T1300,1952A,84.8894,45.5827,克拉玛依市,南林小区,颗粒物(PM10),61,72,79,34,38,31,,28,25,20,26,3,2,0.7,0.8
2026-01-26T1300,1954A,84.896,44.3328,克拉玛依市,独山子区,颗粒物(PM10),67,84,97,42,56,70,,68,56,40,50,3,2,0.7,0.7
2026-01-26T1300,1955A,85.6888,46.0909,克拉玛依市,乌尔禾区商贸楼,颗粒物(PM10),63,76,60,30,27,42,,27,26,27,33,7,7,0.6,0.5
2026-01-26T1300,3612A,85.1045,45.6895,克拉玛依市,白碱滩区新站,颗粒物(PM10),78,106,94,49,50,20,,18,15,39,33,10,8,0.7,0.7
2026-01-26T1300,2697A,76.1457,39.7143,克孜勒苏柯尔克孜自治州,市人民政府,颗粒物(PM10),402,502,571,121,142,40,,39,36,10,14,3,3,0.3,0.4
2026-01-26T1300,3665A,76.1654,39.7157,克孜勒苏柯尔克孜自治州,克州文化中心,颗粒物(PM10),420,520,590,118,127,26,,39,34,27,13,3,3,1.1,0.8
2026-01-26T1300,1450A,102.8203,24.889,昆明市,呈贡新区,,36,36,35,25,23,87,,45,39,12,25,7,5,0.5,0.6
2026-01-26T1300,1452A,102.7253,25.0904,昆明市,龙泉镇,,29,21,49,20,24,83,,27,27,21,36,4,4,0.4,0.5
2026-01-26T1300,1453A,102.7267,25.0378,昆明市,东风东路,,,38,37,27,28,91,,39,28,16,28,,7,0.5,0.7
2026-01-26T1300,1454A,102.6744,25.0671,昆明市,金鼎山,,41,41,64,14,30,87,,29,29,10,34,4,5,0.3,0.6
2026-01-26T1300,1455A,102.6643,25.0401,昆明市,碧鸡广场,,,34,44,18,24,91,,29,29,,34,4,6,0.5,0.6
2026-01-26T1300,3179A,102.7491,25.012,昆明市,官渡区博物馆,,29,23,47,11,28,92,,30,30,10,32,4,5,0.5,0.8
2026-01-26T1300,3375A,102.8016,24.8336,昆明市,青年创业园,,50,49,35,35,20,103,,38,38,6,22,8,8,0.4,0.4
2026-01-26T1300,3550A,102.8,24.9787,昆明市,昆明学院,,30,22,42,13,23,93,,37,36,6,22,4,5,0.4,0.5
2026-01-26T1300,3551A,102.5969,24.6738,昆明市,晋宁区生态环境分局,,30,14,35,12,21,94,,45,45,6,16,3,3,0.6,0.7
2026-01-26T1300,3552A,102.6673,24.9861,昆明市,云天化总部,,31,31,34,19,20,96,,40,40,8,24,6,7,0.4,0.4
2026-01-26T1300,1456A,91.132,29.6515,拉萨市,八廓街,,28,24,21,16,14,88,,56,50,6,18,6,7,0.4,0.6
2026-01-26T1300,1457A,91.1221,29.6748,拉萨市,市环保局,,35,35,28,19,18,87,,48,48,8,26,6,8,0.6,0.9
2026-01-26T1300,1458A,91.0874,29.6476,拉萨市,区监测站,,28,24,15,15,10,87,,53,53,6,22,4,4,0.7,0.8
2026-01-26T1300,1459A,91.1774,29.6541,拉萨市,西藏大学,,28,23,16,12,10,87,,62,56,9,16,4,5,0.4,0.6
2026-01-26T1300,1460A,90.9798,29.6586,拉萨市,区辐射站,,28,28,26,10,18,87,,51,51,7,26,3,4,0.3,0.6
2026-01-26T1300,1461A,91.0831,29.6292,拉萨市,拉萨火车站,,31,31,15,16,10,86,,64,64,5,18,4,4,0.2,0.4
2026-01-26T1300,2520A,109.2203,23.7252,来宾市,来宾技工学校,"颗粒物(PM10),细颗粒物(PM2.5)",68,86,121,49,101,23,,10,10,16,31,9,14,1.0,1.5
2026-01-26T1300,3535A,109.1781,23.7293,来宾市,兴宾区政府,细颗粒物(PM2.5),133,,125,101,101,27,,12,12,16,25,5,9,0.9,1.3
2026-01-26T1300,4002A,109.2312,23.7428,来宾市,中南小学,颗粒物(PM10),69,87,120,48,100,21,,9,9,18,33,7,11,1.2,1.7
2026-01-26T1300,1479A,103.8309,36.0467,兰州市,铁路设计院,,,,,,,,,,,,,,,,
2026-01-26T1300,3241A,103.7439,36.0841,兰州市,百合公园,颗粒物(PM10),500,694,771,134,145,17,,6,6,55,38,15,8,1.4,0.8
2026-01-26T1300,3242A,103.9613,35.9985,兰州市,和平,颗粒物(PM10),500,756,886,176,161,45,,21,21,25,28,27,11,1.9,1
2026-01-26T1300,4236A,103.629272,36.093822,兰州市,庄浪东路808号,颗粒物(PM10),500,786,812,177,175,38,,20,20,60,37,21,12,1.6,0.8
2026-01-26T1300,4237A,103.7251,36.104344,兰州市,安宁西路88号,颗粒物(PM10),500,786,890,133,138,26,,9,9,48,33,14,8,1.3,0.7
2026-01-26T1300,4238A,103.846982,36.067567,兰州市,北滨河东路1号,颗粒物(PM10),500,770,899,138,158,37,,10,10,35,39,13,8,1.8,1
2026-01-26T1300,1067A,116.6712,39.5109,廊坊市,药材公司,细颗粒物(PM2.5),89,92,43,66,28,51,,31,30,23,27,4,4,0.5,0.4
2026-01-26T1300,1068A,116.7215,39.5592,廊坊市,开发区,细颗粒物(PM2.5),83,109,50,61,28,50,,34,29,30,30,4,3,0.5,0.4
2026-01-26T1300,1070A,116.7246,39.5273,廊坊市,北华航天学院,,,86,46,69,26,55,,38,35,27,24,,5,0.5,0.4
2026-01-26T1300,2919A,116.7022,39.5454,廊坊市,河北工业大学,细颗粒物(PM2.5),82,95,48,60,27,50,,40,36,24,21,3,4,0.6,0.4
2026-01-26T1300,2536A,103.7629,29.5844,乐山市,牛耳桥,细颗粒物(PM2.5),58,49,76,41,62,34,,8,8,22,32,6,6,0.9,1
2026-01-26T1300,2537A,103.7501,29.6002,乐山市,市第三水厂,细颗粒物(PM2.5),60,61,76,43,60,36,,9,9,28,41,7,6,0.9,1
2026-01-26T1300,2538A,103.7571,29.5664,乐山市,市监测站,细颗粒物(PM2.5),65,68,72,47,57,26,,7,7,28,32,7,6,1.0,1
2026-01-26T1300,3361A,103.7313,29.563,乐山市,理工大学,细颗粒物(PM2.5),65,68,70,47,58,26,,7,7,28,27,8,6,1.0,0.9
2026-01-26T1300,2599A,100.2497,26.8802,丽江市,丽江古城,,32,29,28,22,14,81,,74,74,10,11,9,10,0.5,0.4
2026-01-26T1300,2600A,100.2203,26.8906,丽江市,市中心,,30,30,21,3,10,80,,72,69,10,13,5,6,0.5,0.5
2026-01-26T1300,1267A,119.9141,28.4513,丽水市,监测站大楼,,34,34,31,18,25,81,,54,39,24,15,6,5,0.5,0.4
2026-01-26T1300,1268A,119.93,28.4589,丽水市,莲都小学,,34,34,28,13,11,81,,43,34,19,23,/,/,/,/
2026-01-26T1300,1269A,119.8794,28.4232,丽水市,余庄前,,25,25,26,16,16,79,,42,36,22,18,5,4,0.5,0.4
2026-01-26T1300,1173A,119.1759,34.5885,连云港市,市环境监测站,,39,31,35,27,24,53,,76,64,25,15,9,9,0.4,0.3
2026-01-26T1300,3000A,119.3577,34.6971,连云港市,德源药业,,32,,36,22,21,56,,72,56,31,20,5,5,0.4,0.4
2026-01-26T1300,3007A,119.178,34.8442,连云港市,新城一中,,28,28,45,12,18,81,,77,74,16,19,9,9,0.5,0.5
2026-01-26T1300,3008A,119.3607,34.7519,连云港市,胡沟管理处,,20,17,27,12,15,63,,67,62,27,36,6,8,0.3,0.4
2026-01-26T1300,3009A,119.1478,34.5913,连云港市,矿山设计院,,39,39,35,24,22,27,,74,59,45,14,7,7,0.7,0.6
2026-01-26T1300,3434A,119.2414,34.6539,连云港市,工贸学校,,39,34,34,27,26,63,,78,64,23,13,10,10,0.4,0.4
2026-01-26T1300,3664A,119.4171,34.734,连云港市,连云街道,,22,19,31,14,19,47,,86,70,44,22,6,4,0.5,0.5
2026-01-26T1300,2573A,102.2629,27.8981,凉山彝族自治州,西昌市政府,颗粒物(PM10),60,70,50,34,23,81,,62,62,12,11,6,8,0.7,0.6
2026-01-26T1300,2574A,102.2686,27.885,凉山彝族自治州,凉山州政府,颗粒物(PM10),60,70,51,24,26,72,,51,51,14,15,7,10,0.6,0.6
2026-01-26T1300,4229A,102.2342,27.8859,凉山彝族自治州,凯乐南路30号,颗粒物(PM10),62,74,52,28,21,74,,53,53,10,8,7,10,0.6,0.6
2026-01-26T1300,2212A,123.1978,41.2036,辽阳市,宏伟区,细颗粒物(PM2.5),73,79,75,53,44,34,,24,24,36,32,24,15,2.1,0.9
2026-01-26T1300,2213A,123.1684,41.2497,辽阳市,新华园,细颗粒物(PM2.5),93,120,81,69,53,34,,20,20,57,48,30,23,2.2,1
2026-01-26T1300,2214A,123.2355,41.2663,辽阳市,滨河路,细颗粒物(PM2.5),83,101,88,61,56,33,,19,19,51,49,26,14,2.4,1.1
2026-01-26T1300,4083A,123.153,41.2874,辽阳市,铁西路150号,颗粒物(PM10),106,162,94,66,64,35,,12,12,49,49,32,18,2.9,1.6
2026-01-26T1300,2227A,125.1359,42.8845,辽源市,环保局,颗粒物(PM10),56,61,70,34,52,70,,35,35,21,45,11,8,0.8,1.2
2026-01-26T1300,4085A,125.0998,42.9134,辽源市,安宁大街333号,细颗粒物(PM2.5),62,59,68,44,54,74,,41,41,9,22,13,10,0.9,1.1
2026-01-26T1300,1625A,115.9789,36.4372,聊城市,区政府,,,90,86,,48,55,,24,23,24,39,17,17,0.7,0.9
2026-01-26T1300,3200A,115.9772,36.4986,聊城市,监控中心,细颗粒物(PM2.5),77,81,77,56,53,60,,24,23,21,37,9,8,0.6,0.6
2026-01-26T1300,3513A,116.0443,36.436,聊城市,九州社区,细颗粒物(PM2.5),78,91,86,57,52,63,,35,35,15,22,11,11,0.6,0.7
2026-01-26T1300,4018A,116.0564,36.4609,聊城市,星美广场,细颗粒物(PM2.5),70,87,88,51,50,58,,30,28,13,23,9,9,0.7,0.7
2026-01-26T1300,4113A,116.0091,36.4495,聊城市,利民路,细颗粒物(PM2.5),82,85,78,60,47,49,,25,25,25,32,15,14,0.8,0.8
2026-01-26T1300,2632A,94.3683,29.6373,林芝市,林芝监测站,,27,16,15,7,10,86,,72,67,2,3,3,3,0.2,0.2
2026-01-26T1300,2633A,94.3616,29.6634,林芝市,林芝人民医院,,28,12,21,7,11,87,,71,66,2,3,6,6,0.3,0.2
2026-01-26T1300,2603A,100.0779,23.8981,临沧市,市环保局,,43,43,35,21,38,75,,37,37,11,10,8,8,0.6,0.6
2026-01-26T1300,2604A,100.0894,23.882,临沧市,市气象局,,49,49,44,22,25,77,,36,36,12,12,9,12,0.4,0.4
2026-01-26T1300,1733A,111.5552,36.0791,临汾市,临钢医院,颗粒物(PM10),133,215,205,96,171,58,,48,40,22,34,5,4,1.1,1.6
2026-01-26T1300,1734A,111.4984,36.0734,临汾市,技工学校,细颗粒物(PM2.5),160,196,185,122,189,54,,45,36,27,37,5,4,1.2,1.6
2026-01-26T1300,1736A,111.5017,36.0857,临汾市,市委,细颗粒物(PM2.5),134,204,195,102,155,57,,49,38,19,31,7,6,1.3,1.6
2026-01-26T1300,3018A,111.5048,36.1015,临汾市,唐尧大酒店,细颗粒物(PM2.5),134,191,181,102,155,60,,51,38,18,30,2,2,1.3,1.7
2026-01-26T1300,4244A,111.4879,36.053,临汾市,启星学校,"颗粒物(PM10),细颗粒物(PM2.5)",118,185,174,89,142,59,,44,37,26,41,8,5,1.2,1.6
2026-01-26T1300,4271A,103.2464,35.6123,临夏回族自治州,滨河东路1号,颗粒物(PM10),500,614,704,157,158,48,,21,21,32,29,9,7,1.2,1.2
2026-01-26T1300,4310A,103.207136,35.599807,临夏回族自治州,新华街21号,颗粒物(PM10),493,593,768,151,153,57,,18,18,30,25,11,8,1.2,1.1
2026-01-26T1300,1618A,118.3429,35.0532,临沂市,沂河小区,细颗粒物(PM2.5),79,63,56,58,41,44,,44,38,27,23,13,12,1.1,0.7
2026-01-26T1300,1619A,118.2962,35.0568,临沂市,鲁南制药厂,细颗粒物(PM2.5),78,70,51,57,38,28,,48,33,47,30,15,12,1.2,0.7
2026-01-26T1300,1620A,118.2793,34.9976,临沂市,新光毛纺厂,细颗粒物(PM2.5),69,66,46,50,35,30,,49,32,45,31,13,11,1.3,0.9
2026-01-26T1300,1621A,118.3955,35.0889,临沂市,河东保险公司,细颗粒物(PM2.5),77,70,57,56,34,39,,38,31,37,30,11,11,1.1,0.7
2026-01-26T1300,3370A,118.3563,35.0215,临沂市,十里堡居委,细颗粒物(PM2.5),58,56,47,41,25,46,,45,38,29,24,14,12,1.3,0.8
2026-01-26T1300,3496A,118.359,35.1067,临沂市,南坊新区,细颗粒物(PM2.5),64,53,52,46,33,49,,46,37,32,31,12,11,1.3,0.9
2026-01-26T1300,3860A,118.3915,35.0297,临沂市,皇山花园小区,细颗粒物(PM2.5),72,85,52,52,29,38,,45,,46,33,15,14,1.5,0.9
2026-01-26T1300,1870A,109.4854,24.3898,柳州市,柳东小学,,50,40,91,35,83,26,,13,13,6,20,8,12,0.9,1.1
2026-01-26T1300,1871A,109.4109,24.3304,柳州市,环保监测站,,,24,125,,108,19,,7,7,20,38,7,15,1.7,1.6
2026-01-26T1300,1872A,109.3886,24.3408,柳州市,河西水厂,,16,16,139,3,87,24,,9,9,14,33,7,8,1.2,1.3
2026-01-26T1300,1873A,109.4263,24.2951,柳州市,市四中,,13,11,120,3,90,21,,7,7,14,35,12,19,1.3,1.5
2026-01-26T1300,1874A,109.396,24.3658,柳州市,市九中,,,,132,,106,18,,6,6,,36,,22,1.5,1.5
2026-01-26T1300,1875A,109.4912,24.3164,柳州市,古亭山,,17,17,94,3,100,27,,10,10,9,31,6,9,0.7,1
2026-01-26T1300,3402A,109.5422,24.3994,柳州市,市二中,,11,11,92,3,82,25,,9,9,14,27,9,11,0.8,1
2026-01-26T1300,2307A,116.5078,31.7369,六安市,监测大楼,细颗粒物(PM2.5),108,,82,81,83,18,,41,30,27,31,2,3,0.8,0.7
2026-01-26T1300,2308A,116.4738,31.7642,六安市,皖西学院,,,94,96,74,81,20,,46,29,,32,4,4,0.8,0.7
2026-01-26T1300,2309A,116.4997,31.7904,六安市,朝阳厂,细颗粒物(PM2.5),84,65,81,62,75,21,,44,32,28,29,5,5,0.9,0.7
2026-01-26T1300,2310A,116.5566,31.7885,六安市,开发区,细颗粒物(PM2.5),93,78,76,69,73,17,,43,30,30,30,4,4,0.9,0.7
2026-01-26T1300,2577A,104.8293,26.592,六盘水市,黄土坡,,49,49,39,30,31,50,,46,46,19,18,17,10,0.9,0.9
2026-01-26T1300,2579A,104.8481,26.5898,六盘水市,民中,细颗粒物(PM2.5),52,52,38,36,30,44,,41,41,21,18,9,6,0.8,0.8
2026-01-26T1300,2580A,104.9541,26.5506,六盘水市,双水,,46,46,36,29,24,57,,54,54,11,13,8,6,0.6,0.6
2026-01-26T1300,4151A,104.8899,26.5685,六盘水市,钟山大道中段564号,颗粒物(PM10),58,65,44,28,27,41,,35,35,18,16,12,8,1.1,1
2026-01-26T1300,2336A,117.022,25.1031,龙岩市,龙岩市监测站,,40,40,40,17,27,88,,35,35,17,40,8,18,0.5,0.7
2026-01-26T1300,2337A,117.0257,25.0662,龙岩市,闽西职业技术学院,,29,24,36,12,23,92,,36,36,8,23,6,10,0.6,0.7
2026-01-26T1300,2338A,117.0195,25.0306,龙岩市,龙岩学院,,29,24,32,11,22,92,,42,42,7,18,11,10,/,/
2026-01-26T1300,2885A,104.9344,33.3827,陇南市,滨江中学,颗粒物(PM10),355,464,488,97,106,54,,19,19,16,34,4,7,1.0,1.4
2026-01-26T1300,3247A,104.9551,33.3709,陇南市,市总工会,颗粒物(PM10),350,460,479,126,126,56,,36,30,12,20,7,7,0.8,0.8
2026-01-26T1300,2488A,111.9984,27.7346,娄底市,市监测站,,31,31,36,21,29,37,,33,33,25,27,7,7,0.8,0.8
2026-01-26T1300,2491A,111.9888,27.7035,娄底市,市政府,,48,,38,33,34,24,,26,23,24,20,4,5,1.1,1
2026-01-26T1300,4127A,111.9812,27.7591,娄底市,涟钢职大,,,,36,,26,32,,28,28,,17,3,4,0.8,0.8
2026-01-26T1300,4128A,112.0303,27.7457,娄底市,娄底体校,,,,34,43,31,49,,30,30,11,16,1,2,,0.5
2026-01-26T1300,1894A,105.4427,28.9063,泸州市,小市上码头,细颗粒物(PM2.5),53,49,67,37,52,65,,31,31,19,23,6,5,1.0,1
2026-01-26T1300,1895A,105.4241,28.8573,泸州市,兰田宪桥,,46,46,64,32,46,60,,30,30,11,14,9,7,0.8,0.8
2026-01-26T1300,1896A,105.4378,28.8833,泸州市,市环监站,"颗粒物(PM10),细颗粒物(PM2.5)",58,65,71,41,49,65,,31,31,16,23,10,9,1.0,0.9
2026-01-26T1300,4272A,105.3689,28.7783,泸州市,纳溪中医医院,颗粒物(PM10),56,61,63,30,48,46,,16,16,13,21,8,7,0.8,0.9
2026-01-26T1300,2183A,111.1447,37.5212,吕梁市,环保局,颗粒物(PM10),130,210,133,,72,53,,16,16,15,44,6,4,,1
2026-01-26T1300,2185A,111.1285,37.5338,吕梁市,自来水公司,颗粒物(PM10),133,216,148,44,70,52,,31,31,17,32,4,3,0.6,1.1
2026-01-26T1300,2867A,111.1225,37.5093,吕梁市,马茂庄小学,颗粒物(PM10),147,243,163,54,70,48,,21,21,24,44,5,5,0.7,1.3
2026-01-26T1300,1812A,112.3934,34.6517,洛阳市,市委党校,细颗粒物(PM2.5),138,169,171,105,161,51,,39,36,28,35,17,11,,1.3
2026-01-26T1300,1815A,112.494,34.6883,洛阳市,河南林校,细颗粒物(PM2.5),159,172,173,121,166,50,,30,25,30,39,16,10,1.3,1.3
2026-01-26T1300,1816A,112.3843,34.623,洛阳市,开发区管委会,细颗粒物(PM2.5),152,185,201,116,173,61,,34,34,16,30,6,12,1.0,1.1
2026-01-26T1300,1817A,112.4263,34.6249,洛阳市,市委新办公区,细颗粒物(PM2.5),128,169,204,97,157,58,,35,33,20,33,11,10,1.0,1.1
2026-01-26T1300,3340A,112.6005,34.6323,洛阳市,伊滨,细颗粒物(PM2.5),149,169,192,114,148,55,,43,39,29,33,10,8,1.0,1
2026-01-26T1300,3341A,112.495,34.6338,洛阳市,中移产业园,细颗粒物(PM2.5),144,156,169,110,160,52,,27,27,30,47,10,11,1.2,1.3
2026-01-26T1300,3593A,112.5736,34.8993,洛阳市,吉利监测站,细颗粒物(PM2.5),162,141,178,123,176,64,,38,38,13,33,14,9,1.1,1.2
2026-01-26T1300,3635A,112.3678,34.6623,洛阳市,河科大西苑校区,细颗粒物(PM2.5),135,189,185,103,146,50,,43,35,29,39,13,10,1.1,1.1
2026-01-26T1300,3636A,112.4387,34.678,洛阳市,英才小学,细颗粒物(PM2.5),168,185,193,127,164,49,,42,33,34,39,16,11,1.3,1.3
2026-01-26T1300,4214A,112.460027,34.694929,洛阳市,春都路1号院,细颗粒物(PM2.5),143,200,203,109,145,46,,27,24,28,38,13,10,1.1,1.2
2026-01-26T1300,2399A,114.051,33.5721,漯河市,三五一五工厂,细颗粒物(PM2.5),173,182,191,131,150,77,,36,36,20,32,14,10,1.4,1.5
2026-01-26T1300,2400A,114.0055,33.5698,漯河市,漯河大学,细颗粒物(PM2.5),178,147,158,134,144,78,,39,39,23,32,12,9,0.9,1
2026-01-26T1300,2401A,114.0134,33.5826,漯河市,市水利局,细颗粒物(PM2.5),178,161,171,134,144,62,,30,30,22,32,9,7,1.2,1.2
2026-01-26T1300,2402A,114.0261,33.5697,漯河市,市广电局,细颗粒物(PM2.5),186,151,168,140,146,73,,35,35,16,28,13,10,1.1,1.2
2026-01-26T1300,3478A,113.9691,33.568,漯河市,市图书馆,细颗粒物(PM2.5),198,185,196,148,150,69,,35,35,23,30,12,10,1.1,1.2
2026-01-26T1300,4250A,114.089259,33.588274,漯河市,韶山路11号,细颗粒物(PM2.5),179,174,189,135,151,72,,30,30,20,35,13,10,1.0,1.1
2026-01-26T1300,1798A,118.5084,31.6838,马鞍山市,湖东路四小,,43,35,68,30,51,37,,37,29,27,33,4,3,0.8,0.8
2026-01-26T1300,1799A,118.5019,31.6449,马鞍山市,开发区,,29,25,70,20,51,47,,39,32,20,32,4,4,0.6,0.8
2026-01-26T1300,3633A,118.4914,31.681,马鞍山市,雨山,,,,73,,52,42,,34,26,25,36,,8,0.9,0.9
2026-01-26T1300,4191A,118.527362,31.722269,马鞍山市,慈湖高新区,,39,39,63,23,46,36,,37,33,28,31,3,4,0.9,0.7
2026-01-26T1300,1686A,111.0285,21.469,茂名市,电白南海,,31,31,44,11,16,92,,59,58,12,16,8,10,1.0,1
2026-01-26T1300,1687A,110.9294,21.6533,茂名市,茂石化七小,,31,31,44,9,18,93,,61,61,10,15,6,6,0.5,0.6
2026-01-26T1300,1688A,110.9108,21.6688,茂名市,健康路,,,27,38,11,17,107,,68,68,15,20,8,12,,0.7
2026-01-26T1300,1689A,110.8592,21.6826,茂名市,高岭,,44,44,63,9,22,94,,46,42,9,17,9,12,/,/
2026-01-26T1300,3450A,111.0101,21.5165,茂名市,电白水东,,27,27,35,12,19,80,,68,63,7,12,8,9,/,/
2026-01-26T1300,2540A,103.8414,30.0871,眉山市,气象局,细颗粒物(PM2.5),79,95,84,58,68,33,,10,10,43,30,15,14,1.1,1
2026-01-26T1300,3148A,103.829,30.0563,眉山市,区人社局,颗粒物(PM10),70,90,77,46,59,45,,10,10,28,31,8,7,0.9,1
2026-01-26T1300,4148A,103.8836,30.0695,眉山市,眉职院,颗粒物(PM10),63,76,77,38,56,53,,12,12,13,24,3,2,0.9,1
2026-01-26T1300,1690A,116.1248,24.3307,梅州市,梅江月梅,,26,26,45,15,28,83,,38,38,17,32,/,/,/,/
2026-01-26T1300,1691A,116.0798,24.2719,梅州市,梅县新城,,27,26,60,10,37,85,,30,30,14,44,8,8,0.4,0.7
2026-01-26T1300,3315A,116.1234,24.2994,梅州市,梅龙,,,,61,,34,,,73,,,44,,9,,1.3
2026-01-26T1300,1878A,104.7775,31.4741,绵阳市,富乐山,颗粒物(PM10),91,131,130,65,54,25,,9,9,54,36,11,9,0.9,0.7
2026-01-26T1300,1880A,104.6698,31.4668,绵阳市,高新区自来水公司,颗粒物(PM10),98,146,160,61,60,30,,7,7,44,44,11,9,1.0,1.1
2026-01-26T1300,3491A,104.6899,31.5324,绵阳市,西科大附属小学,颗粒物(PM10),106,161,157,79,61,24,,6,6,50,42,12,9,0.7,0.7
2026-01-26T1300,3492A,104.5647,31.5343,绵阳市,安州区旅游局,"颗粒物(PM10),细颗粒物(PM2.5)",92,134,130,68,60,38,,14,14,38,35,10,10,0.8,0.8
2026-01-26T1300,4146A,104.7092,31.4972,绵阳市,科技城新区公安局,颗粒物(PM10),101,151,157,63,54,38,,11,11,54,48,9,7,1.0,0.8
2026-01-26T1300,4226A,104.765114,31.453094,绵阳市,绵阳市气象局,细颗粒物(PM2.5),99,135,147,74,54,16,,4,4,53,41,12,9,1.1,0.9
2026-01-26T1300,1784A,129.61,44.561,牡丹江市,环保大楼,,45,45,34,31,24,68,,52,52,15,20,5,5,0.3,0.4
2026-01-26T1300,1787A,129.6364,44.6075,牡丹江市,机车工厂,,50,42,50,35,35,58,,36,36,17,24,8,8,0.4,0.6
2026-01-26T1300,1788A,129.6386,44.5462,牡丹江市,第一中学,,45,,29,31,26,71,,52,52,10,18,5,6,0.3,0.3
2026-01-26T1300,4287A,129.5992,44.5964,牡丹江市,东晓云街98号,,46,40,44,32,36,61,,40,40,20,22,7,5,0.5,0.6
2026-01-26T1300,2531A,105.0703,29.61,内江市,市监测站,细颗粒物(PM2.5),62,61,74,44,66,79,,28,28,16,29,5,4,0.8,0.9
2026-01-26T1300,2533A,105.0657,29.5807,内江市,内江二中,细颗粒物(PM2.5),58,43,81,41,56,67,,19,19,19,32,5,5,0.4,0.5
2026-01-26T1300,2534A,105.0407,29.5828,内江市,内江日报社,细颗粒物(PM2.5),64,63,70,46,62,70,,24,24,20,32,4,4,0.8,0.9
2026-01-26T1300,4147A,105.0433,29.6105,内江市,玉峰路西段888号,,,,71,,65,62,,20,20,24,35,,1,1.1,1.3
2026-01-26T1300,2628A,92.0653,31.4846,那曲市,那曲监测站,,26,24,32,14,19,81,,66,60,6,21,4,8,0.5,1
2026-01-26T1300,4243A,92.0515,31.4787,那曲市,那曲市委宣传部,,28,10,21,3,14,87,,62,59,1,13,3,6,0.3,0.8
2026-01-26T1300,1291A,115.8887,28.7006,南昌市,省林业公司,细颗粒物(PM2.5),62,,78,44,70,18,,22,14,23,38,3,5,1.0,0.9
2026-01-26T1300,1292A,115.813,28.7443,南昌市,林科所,,,,71,,59,25,,32,19,19,29,3,5,0.9,0.7
2026-01-26T1300,1294A,115.8518,28.687,南昌市,建工学校,细颗粒物(PM2.5),58,49,95,41,74,15,,25,,36,48,7,9,1.2,1.1
2026-01-26T1300,1295A,115.8926,28.6425,南昌市,象湖,细颗粒物(PM2.5),64,,78,46,72,15,,22,14,19,34,7,10,1.1,1
2026-01-26T1300,3046A,115.9084,28.6062,南昌市,机电学校,细颗粒物(PM2.5),67,59,97,48,73,17,,24,16,24,40,4,6,0.8,0.8
2026-01-26T1300,3690A,115.9718,28.7032,南昌市,外国语学校,细颗粒物(PM2.5),74,58,93,54,79,14,,18,11,25,40,11,14,0.9,0.9
2026-01-26T1300,4106A,115.7923,28.6873,南昌市,工业二路,,49,37,79,34,66,22,,33,18,19,28,3,5,1.0,0.8
2026-01-26T1300,4192A,115.931587,28.686774,南昌市,南京东路235号,细颗粒物(PM2.5),67,48,91,48,80,16,,22,14,20,33,5,7,0.8,0.9
2026-01-26T1300,1906A,106.0791,30.8022,南充市,南充市委,细颗粒物(PM2.5),89,76,68,66,57,34,,14,14,25,29,5,4,0.8,0.7
2026-01-26T1300,1907A,106.1038,30.8215,南充市,南充炼油厂,细颗粒物(PM2.5),82,98,75,60,59,41,,18,18,19,20,7,6,0.8,0.7
2026-01-26T1300,4227A,106.108336,30.788436,南充市,梨树横街98号,细颗粒物(PM2.5),83,76,78,61,54,53,,22,22,18,27,7,6,0.8,0.8
2026-01-26T1300,4304A,106.1172,30.843,南充市,清泉寺北路188号,细颗粒物(PM2.5),68,53,62,49,48,47,,22,22,19,22,8,7,0.7,0.6
2026-01-26T1300,4305A,106.067,30.7616,南充市,同庆路1号,细颗粒物(PM2.5),74,88,66,54,51,43,,16,16,24,29,8,6,0.8,0.9
2026-01-26T1300,1151A,118.8033,32.1085,南京市,迈皋桥,,17,9,42,7,25,52,,48,48,18,35,4,5,0.4,0.5
2026-01-26T1300,1152A,118.7487,32.057,南京市,草场门,,14,12,38,9,28,38,,38,38,28,37,2,2,0.6,0.8
2026-01-26T1300,1154A,118.770105,32.004342,南京市,中华门,,20,14,46,14,33,37,,36,,22,27,5,4,0.5,0.7
2026-01-26T1300,1155A,118.8059,32.0329,南京市,瑞金路,,12,12,43,7,33,37,,38,34,18,21,4,4,0.8,0.8
2026-01-26T1300,1156A,118.7946,32.0774,南京市,玄武湖,,16,16,46,3,27,46,,41,41,20,24,4,4,0.8,0.9
2026-01-26T1300,1157A,118.6415,32.0964,南京市,浦口,,26,18,52,18,37,44,,46,46,22,31,6,7,0.3,0.5
2026-01-26T1300,1158A,118.730129,32.000956,南京市,奥体中心,,20,19,51,14,36,50,,50,50,24,33,10,11,0.5,0.6
2026-01-26T1300,1159A,118.9072,32.1047,南京市,仙林大学城,,,0,43,,30,52,,46,46,23,30,8,6,,0.8
2026-01-26T1300,3422A,118.8443,31.919,南京市,江宁彩虹桥,,,16,55,12,32,46,,53,44,32,32,,4,0.6,0.7
2026-01-26T1300,3427A,118.8497,32.3599,南京市,六合雄州,,24,14,32,11,21,74,,66,66,13,16,8,8,0.5,0.5
2026-01-26T1300,4086A,118.7641,32.0841,南京市,新模范马路66号,,22,7,41,3,22,70,,67,67,4,19,5,4,0.3,0.4
2026-01-26T1300,4249A,118.8707617,31.34017673,南京市,汶溪路181号,,43,32,65,30,49,26,,41,33,36,35,5,6,1.3,0.9
2026-01-26T1300,4312A,119.019,31.6512,南京市,中山西路1号,,23,,44,16,42,32,,43,38,26,27,4,4,0.8,0.9
2026-01-26T1300,1401A,108.3098,22.788,南宁市,二十一中,细颗粒物(PM2.5),75,81,98,55,71,35,,8,8,38,47,5,4,1.0,1.2
2026-01-26T1300,1402A,108.3135,22.8529,南宁市,北湖,细颗粒物(PM2.5),82,67,134,60,94,20,,2,2,43,46,4,3,1.1,2
2026-01-26T1300,1403A,108.3205,22.8222,南宁市,市监测站,细颗粒物(PM2.5),79,70,108,58,73,32,,6,6,46,50,7,6,1.2,1.8
2026-01-26T1300,1404A,108.3828,22.8038,南宁市,大自然花园,细颗粒物(PM2.5),70,72,88,51,61,67,,21,21,15,32,7,6,0.9,1.3
2026-01-26T1300,1406A,108.2397,22.8462,南宁市,区农职院,颗粒物(PM10),69,87,105,48,67,46,,8,8,41,39,10,9,0.8,1.2
2026-01-26T1300,1407A,108.3285,22.7356,南宁市,英华嘉园,细颗粒物(PM2.5),83,90,106,61,85,48,,10,10,25,33,4,4,0.7,1.3
2026-01-26T1300,3401A,108.4829,22.762,南宁市,红星社区,细颗粒物(PM2.5),72,66,86,52,68,76,,23,23,16,35,7,4,1.0,1.2
2026-01-26T1300,4132A,108.2927,23.1477,南宁市,起凤路9号,,,,75,63,68,24,,4,4,,22,4,3,1.0,1.3
2026-01-26T1300,4221A,108.2177,22.7774,南宁市,乐贤路16号,细颗粒物(PM2.5),73,68,97,53,84,55,,9,9,32,40,1,3,0.9,1.3
2026-01-26T1300,2332A,118.1682,26.6371,南平市,南平市监测站,,26,17,20,9,14,82,,44,44,7,14,4,5,0.6,0.6
2026-01-26T1300,2334A,118.1757,26.6276,南平市,南平七中,,28,28,20,11,14,85,,47,47,6,15,3,4,0.4,0.5
2026-01-26T1300,1168A,120.9056,31.9669,南通市,狼山街道,,20,6,22,3,11,62,,73,67,14,14,2,3,0.3,0.3
2026-01-26T1300,1170A,120.8635,32.0231,南通市,城中,,20,7,25,6,13,63,,72,65,14,15,3,4,0.4,0.5
2026-01-26T1300,1171A,120.9376,31.9301,南通市,星湖花园,,22,,23,7,14,68,,77,69,15,17,3,3,0.3,0.3
2026-01-26T1300,1172A,120.8053,32.046,南通市,紫琅学院,,21,6,26,3,10,65,,74,67,13,15,2,3,0.4,0.4
2026-01-26T1300,3291A,121.0631,32.0644,南通市,通州监测站,,16,,17,7,10,50,,86,77,15,15,2,3,0.3,0.4
2026-01-26T1300,3432A,120.9348,31.9874,南通市,环境教育馆,,20,,23,7,15,63,,73,67,14,12,4,4,0.3,0.5
2026-01-26T1300,4091A,120.8692,31.9885,南通市,洪江路,,20,8,20,3,9,62,,71,65,14,15,3,4,0.4,0.4
2026-01-26T1300,2404A,112.5338,33.0086,南阳市,瓦房庄,细颗粒物(PM2.5),173,139,126,131,125,52,,71,44,28,20,7,6,1.1,1
2026-01-26T1300,2405A,112.5002,32.9734,南阳市,汉画馆,细颗粒物(PM2.5),182,149,135,137,132,49,,70,43,34,23,8,6,1.0,1
2026-01-26T1300,2406A,112.5778,33.0144,南阳市,气象站,细颗粒物(PM2.5),180,171,150,136,127,50,,66,44,37,22,6,4,1.2,1.1
2026-01-26T1300,2407A,112.548,32.9687,南阳市,理工学院,细颗粒物(PM2.5),145,138,130,111,108,52,,59,40,28,21,6,5,1.1,1
2026-01-26T1300,4008A,112.5233,32.9921,南阳市,卧龙区政府,细颗粒物(PM2.5),180,166,148,136,126,46,,69,43,31,21,6,5,1.1,1.1
2026-01-26T1300,1234A,121.8352,29.9111,宁波市,区环保大楼,,21,15,26,11,19,66,,66,58,20,29,5,5,0.3,0.3
2026-01-26T1300,1235A,121.5595,29.8208,宁波市,万里学院,,26,26,31,17,18,78,,62,62,19,20,4,4,0.7,0.6
2026-01-26T1300,1236A,121.713,29.9564,宁波市,龙赛医院,,,25,24,13,14,35,,74,60,59,22,,3,0.5,0.4
2026-01-26T1300,1240A,121.5855,29.8635,宁波市,太古小学,,37,37,31,20,20,78,,73,66,21,17,4,3,0.6,0.6
2026-01-26T1300,1241A,121.5239,29.8673,宁波市,市环境监测中心,细颗粒物(PM2.5),54,49,36,38,19,67,,62,60,30,18,7,7,0.8,0.7
2026-01-26T1300,2871A,121.6156,29.9015,宁波市,万里国际学校,,32,30,34,22,15,73,,74,73,30,21,4,3,0.7,0.7
2026-01-26T1300,3710A,121.5593,29.8976,宁波市,白沙活动中心,,32,32,37,22,19,69,,66,62,32,24,5,4,0.3,0.2
2026-01-26T1300,4095A,121.8962,29.7529,宁波市,中科路88号,,28,8,20,3,7,87,,79,78,10,14,4,5,0.2,0.3
2026-01-26T1300,2341A,119.5387,26.6611,宁德市,宁德市监测站,,23,19,43,9,32,71,,28,28,14,42,4,4,0.6,0.9
2026-01-26T1300,3209A,119.5231,26.6562,宁德市,宁德一中,,25,18,38,7,31,80,,35,35,13,34,3,4,0.5,0.9
2026-01-26T1300,2618A,98.859,25.8541,怒江傈僳族自治州,州监测站,,32,32,37,20,25,68,,34,34,9,14,5,5,0.4,0.5
2026-01-26T1300,2619A,98.8607,25.8168,怒江傈僳族自治州,泸水一中,细颗粒物(PM2.5),65,,34,47,29,59,,26,26,12,19,4,4,0.6,0.7
2026-01-26T1300,1888A,101.6891,26.571,攀枝花市,弄弄坪,细颗粒物(PM2.5),69,66,105,50,75,87,,22,22,21,51,27,35,0.8,2.3
2026-01-26T1300,1889A,101.577,26.5914,攀枝花市,河门口,细颗粒物(PM2.5),67,76,77,48,53,80,,32,32,30,31,37,28,2.5,1.7
2026-01-26T1300,1891A,101.7365,26.4986,攀枝花市,仁和,,29,22,59,10,44,91,,40,40,20,28,25,14,0.9,1.2
2026-01-26T1300,2835A,101.7222,26.567,攀枝花市,四十中小,细颗粒物(PM2.5),63,67,82,45,55,83,,27,27,20,47,22,21,0.8,1.5
2026-01-26T1300,1604A,122.0303,41.1489,盘锦市,开发区,细颗粒物(PM2.5),82,64,61,60,44,49,,25,25,38,28,12,12,1.2,0.7
2026-01-26T1300,1605A,122.0486,41.0883,盘锦市,兴隆台,,,84,80,46,56,43,,21,18,,28,19,10,1.4,0.7
2026-01-26T1300,1606A,121.8297,41.1026,盘锦市,新生街道,细颗粒物(PM2.5),72,75,59,52,45,47,,28,28,36,30,23,10,1.7,0.6
2026-01-26T1300,1832A,113.3257,33.7423,平顶山市,新华旅馆,细颗粒物(PM2.5),200,168,173,150,136,60,,56,43,22,29,8,8,1.3,1.1
2026-01-26T1300,1833A,113.2917,33.737,平顶山市,规划设计院,细颗粒物(PM2.5),205,218,204,155,149,58,,52,44,21,21,10,8,1.2,1.1
2026-01-26T1300,1834A,113.182,33.7738,平顶山市,平顶山工学院,细颗粒物(PM2.5),201,181,184,151,156,63,,44,44,17,24,8,8,1.1,1.1
2026-01-26T1300,3594A,112.8736,33.9068,平顶山市,石龙区,颗粒物(PM10),130,210,164,92,142,68,,47,47,10,19,6,5,1.0,1.1
2026-01-26T1300,4116A,113.284,33.7139,平顶山市,姚电大道23号,细颗粒物(PM2.5),211,205,205,161,158,62,,55,47,23,28,9,8,1.0,1
2026-01-26T1300,2656A,106.6633,35.5338,平凉市,聚贤嘉苑,颗粒物(PM10),183,316,312,53,60,55,,29,29,14,21,22,18,0.6,0.6
2026-01-26T1300,2657A,106.7021,35.5307,平凉市,博物馆,颗粒物(PM10),168,286,314,57,61,58,,28,28,14,20,16,11,0.8,0.9
2026-01-26T1300,2348A,113.8384,27.6436,萍乡市,中医院,细颗粒物(PM2.5),72,61,99,52,68,20,,10,10,27,44,4,8,1.1,1.3
2026-01-26T1300,2350A,113.8677,27.6438,萍乡市,市环保局,细颗粒物(PM2.5),60,45,76,43,58,22,,13,13,26,38,12,16,1.2,1.4
2026-01-26T1300,2351A,113.8663,27.6202,萍乡市,安源区政府,细颗粒物(PM2.5),63,52,95,45,76,18,,11,11,26,38,8,12,1.2,1.3
2026-01-26T1300,4107A,113.8686,27.6668,萍乡市,联洪村委会,细颗粒物(PM2.5),74,60,92,54,70,24,,15,15,26,39,2,7,1.2,1.2
2026-01-26T1300,2319A,119.0142,25.4324,莆田市,荔城区仓后路,,29,29,33,18,15,82,,42,42,13,20,/,/,/,/
2026-01-26T1300,2320A,119.0016,25.4553,莆田市,莆田市监测站,,32,32,18,7,9,88,,60,53,8,10,3,2,0.6,0.7
2026-01-26T1300,2321A,119.112,25.4561,莆田市,涵江区六中,,33,33,31,22,18,76,,32,32,18,31,/,/,0.6,0.7
2026-01-26T1300,2322A,119.1014,25.3215,莆田市,秀屿区政府,,28,27,27,12,18,87,,63,55,10,16,4,2,0.5,0.7
2026-01-26T1300,2392A,115.0312,35.7636,濮阳市,环保局,细颗粒物(PM2.5),159,134,114,121,104,44,,17,17,58,71,9,8,0.9,1
2026-01-26T1300,3021A,115,35.7667,濮阳市,濮水河管理处,细颗粒物(PM2.5),150,162,141,115,106,49,,20,20,38,52,10,8,1.0,1.2
2026-01-26T1300,4118A,115.0552,35.7816,濮阳市,中原东路68号,细颗粒物(PM2.5),159,157,145,121,108,45,,16,16,36,53,11,8,1.0,1
2026-01-26T1300,4216A,115.0923632,35.76857718,濮阳市,任丘路479号,细颗粒物(PM2.5),168,164,145,127,112,45,,16,16,43,59,10,8,1.5,1.4
2026-01-26T1300,2601A,100.9801,22.7634,普洱市,市环保局,,49,49,43,17,22,88,,39,39,8,11,5,5,0.3,0.4
2026-01-26T1300,2602A,100.9763,22.8237,普洱市,普洱第二中学,,,41,47,12,22,92,,37,37,8,22,,5,0.2,0.3
2026-01-26T1300,3345A,131.0413,45.7795,七台河市,中波台,,40,40,31,22,22,70,,54,54,10,16,7,9,0.4,0.4
2026-01-26T1300,3637A,131.0136,45.7688,七台河市,人民广场,颗粒物(PM10),59,68,34,20,20,70,,54,54,13,22,8,8,0.5,0.5
2026-01-26T1300,3684A,130.8639,45.8144,七台河市,新建矿广场,,,,27,,20,63,,45,45,9,12,8,5,0.4,0.4
2026-01-26T1300,1779A,123.9307,47.3641,齐齐哈尔市,安居小区,颗粒物(PM10),55,59,44,23,22,47,,40,33,20,25,13,11,1.0,1
2026-01-26T1300,1780A,123.9497,47.3389,齐齐哈尔市,中心广场,颗粒物(PM10),57,64,38,36,24,39,,35,25,26,27,11,9,0.6,0.6
2026-01-26T1300,1781A,123.9483,47.3229,齐齐哈尔市,农牧车辆厂,细颗粒物(PM2.5),68,83,45,49,22,35,,27,23,31,26,19,8,0.5,0.5
2026-01-26T1300,1783A,123.9442,47.2994,齐齐哈尔市,市环境监测站,颗粒物(PM10),73,96,42,42,18,31,,29,28,43,26,27,6,0.8,0.6
2026-01-26T1300,3662A,123.6341,47.2079,齐齐哈尔市,富区青少年活动中心,,,,47,,22,61,,42,42,,15,5,4,0.7,0.8
2026-01-26T1300,2591A,107.9765,26.5724,黔东南苗族侗族自治州,市环境监测站,,39,32,31,27,25,42,,24,24,10,13,6,5,0.8,0.9
2026-01-26T1300,2881A,107.8909,26.531,黔东南苗族侗族自治州,凯里学院,,30,24,24,21,22,40,,24,24,14,14,4,3,0.9,0.8
2026-01-26T1300,2593A,107.5223,26.2371,黔南布依族苗族自治州,小围寨,,15,14,19,9,17,47,,30,30,7,12,7,6,1.0,1
2026-01-26T1300,3538A,107.5175,26.2977,黔南布依族苗族自治州,沙坝,,17,14,22,9,17,52,,39,39,9,14,8,5,0.8,0.9
2026-01-26T1300,2589A,104.9022,25.0943,黔西南布依族苗族自治州,场坝街,,40,28,38,28,30,16,,19,11,16,14,5,5,1.0,0.8
2026-01-26T1300,2590A,104.8812,25.0994,黔西南布依族苗族自治州,坪东大道,,41,41,41,25,32,17,,17,14,14,12,6,6,1.1,0.9
2026-01-26T1300,2502A,108.6238,21.9667,钦州市,市环保站,,39,39,95,11,51,96,,62,62,15,39,4,4,0.7,1.3
2026-01-26T1300,2503A,108.655,21.9481,钦州市,沙埠小学,,39,39,59,14,28,104,,70,70,12,36,5,5,0.2,0.4
2026-01-26T1300,2504A,108.5989,21.7435,钦州市,港区一小,,47,47,52,14,24,99,,66,66,13,26,4,3,0.4,0.5
2026-01-26T1300,3404A,108.5959,21.9634,钦州市,北职校,,37,37,69,17,43,97,,63,63,14,34,6,4,0.5,0.8
2026-01-26T1300,1046A,119.5247,39.9346,秦皇岛市,建设大厦,细颗粒物(PM2.5),65,75,34,47,18,58,,47,47,11,20,15,11,0.7,0.5
2026-01-26T1300,3132A,119.5979,39.938,秦皇岛市,文明里,颗粒物(PM10),60,69,38,32,22,56,,48,47,21,24,20,16,0.7,0.5
2026-01-26T1300,4066A,119.7458,39.9952,秦皇岛市,南园路157号,颗粒物(PM10),59,67,40,31,21,60,,38,38,19,38,15,13,0.7,0.6
2026-01-26T1300,4067A,119.5131,39.8858,秦皇岛市,翠岛大街1号,颗粒物(PM10),56,61,41,38,14,52,,37,37,25,23,13,11,0.7,0.5
2026-01-26T1300,4198A,119.509013,39.825305,秦皇岛市,北戴河轮滑馆,颗粒物(PM10),68,85,31,37,12,57,,49,49,22,22,13,8,0.8,0.5
2026-01-26T1300,1310A,120.404,36.0625,青岛市,市南区东部子站,,49,39,32,34,21,59,,73,70,27,12,9,8,0.5,0.4
2026-01-26T1300,1311A,120.362344,36.10282,青岛市,四方区子站,细颗粒物(PM2.5),64,58,37,46,28,28,,69,41,49,19,26,7,1.0,0.7
2026-01-26T1300,1312A,120.294373,36.054183,青岛市,市南区西部子站,颗粒物(PM10),62,73,39,39,22,24,,70,47,53,21,4,3,0.9,0.5
2026-01-26T1300,1313A,120.4581,36.0858,青岛市,崂山区子站,,34,34,32,17,16,77,,73,72,17,14,10,10,0.4,0.4
2026-01-26T1300,1315A,120.3945,36.3083,青岛市,城阳区子站,颗粒物(PM10),74,97,59,44,30,21,,40,21,66,38,13,9,1.0,0.8
2026-01-26T1300,3642A,120.3454,36.0735,青岛市,市北区南部,细颗粒物(PM2.5),62,67,37,44,22,21,,73,50,57,19,3,2,1.0,0.7
2026-01-26T1300,3643A,120.3897,36.18,青岛市,李沧区北部,细颗粒物(PM2.5),64,66,49,46,39,17,,35,20,60,36,29,10,0.9,0.7
2026-01-26T1300,4110A,120.5222,36.4089,青岛市,盟旺路653号,颗粒物(PM10),73,95,46,45,28,30,,47,38,61,28,8,3,1.0,0.8
2026-01-26T1300,4290A,120.196923,35.954556,青岛市,珠江路669号,,32,22,34,22,26,82,,41,41,20,31,5,6,0.7,0.7
2026-01-26T1300,4291A,120.0424,35.8656,青岛市,黄岛区人民政府广场,,48,48,38,31,20,68,,71,49,32,24,8,8,0.8,0.8
2026-01-26T1300,1703A,113.0218,23.7086,清远市,凤城街办,细颗粒物(PM2.5),68,66,77,49,59,133,,41,41,21,51,/,/,/,/
2026-01-26T1300,3025A,113.0479,23.6343,清远市,技师学院,颗粒物(PM10),53,55,89,34,52,128,,44,44,26,57,6,7,1.1,1.3
2026-01-26T1300,3318A,112.9898,23.7403,清远市,清新太和,细颗粒物(PM2.5),84,83,67,62,47,123,,51,50,37,32,10,9,0.8,0.7
2026-01-26T1300,3455A,113.076,23.72,清远市,清城东城,细颗粒物(PM2.5),64,64,62,46,43,116,,45,45,30,31,/,/,/,/
2026-01-26T1300,2661A,107.6325,35.7357,庆阳市,庆阳五中,颗粒物(PM10),205,353,250,79,65,78,,70,68,11,12,5,5,0.4,0.4
2026-01-26T1300,2662A,107.6361,35.7067,庆阳市,市环保局,颗粒物(PM10),193,335,248,68,43,79,,73,67,9,11,6,6,0.5,0.4
2026-01-26T1300,1916A,103.7897,25.5036,曲靖市,环境监测站,,40,40,37,23,16,87,,51,45,11,14,4,5,0.8,0.7
2026-01-26T1300,1917A,103.8013,25.5357,曲靖市,烟厂办公区,,49,49,38,24,17,71,,38,37,12,18,5,4,0.5,0.4
2026-01-26T1300,3376A,103.7926,25.4651,曲靖市,南苑二区,,47,47,33,27,15,75,,54,44,8,10,7,6,0.7,0.5
2026-01-26T1300,3377A,103.7442,25.5259,曲靖市,曲靖师范学院,细颗粒物(PM2.5),58,46,40,41,29,78,,36,33,10,21,6,7,0.5,0.5
2026-01-26T1300,1264A,118.8694,28.94,衢州市,环保大楼,细颗粒物(PM2.5),127,131,116,96,89,57,,18,18,42,68,/,/,/,/
2026-01-26T1300,1266A,118.8622,28.9809,衢州市,衢州学院,细颗粒物(PM2.5),137,140,101,104,77,45,,14,14,51,64,7,6,1.0,0.9
2026-01-26T1300,4097A,118.9646,28.9832,衢州市,衢州三中,细颗粒物(PM2.5),139,143,114,106,88,55,,17,17,46,62,8,6,0.9,0.9
2026-01-26T1300,1611A,118.5818,24.9116,泉州市,涂山街,,49,42,41,34,29,97,,41,41,19,24,4,4,0.6,0.6
2026-01-26T1300,1612A,118.597,24.8976,泉州市,津头埔,,42,41,41,29,27,99,,43,43,20,24,5,4,0.5,0.6
2026-01-26T1300,1613A,118.6669,24.9422,泉州市,万安,,29,29,41,20,23,78,,35,35,14,34,3,3,0.7,0.7
2026-01-26T1300,4105A,118.6355,24.9148,泉州市,霞新路6号,,38,36,39,26,26,85,,31,31,14,37,/,/,0.6,0.7
2026-01-26T1300,2626A,88.8873,29.2723,日喀则市,日喀则监测站,,31,6,17,3,7,98,,91,88,1,7,5,8,0.2,0.3
2026-01-26T1300,3726A,88.8775,29.2425,日喀则市,林业技术推广中心,,30,10,16,3,4,94,,93,92,4,5,8,9,0.3,0.3
2026-01-26T1300,1659A,119.4711,35.421,日照市,监测站,细颗粒物(PM2.5),57,58,41,40,26,49,,54,50,40,26,11,8,0.7,0.6
2026-01-26T1300,1660A,119.523,35.4216,日照市,市政府广场,,46,46,38,29,20,56,,73,58,34,21,8,8,0.4,0.3
2026-01-26T1300,1661A,119.5511,35.4113,日照市,港务局,,40,34,37,28,27,71,,69,63,22,20,7,7,0.5,0.5
2026-01-26T1300,3507A,119.5326,35.4627,日照市,职业技术学院,,44,44,37,24,18,63,,66,55,30,25,8,8,0.8,0.7
2026-01-26T1300,3604A,119.3267,35.1043,日照市,岚山环保分局,,30,24,45,21,21,61,,61,56,30,26,8,9,0.7,0.7
2026-01-26T1300,1835A,111.1922,34.7752,三门峡市,市政府,细颗粒物(PM2.5),182,152,142,137,169,35,,40,26,26,30,9,9,1.1,1.2
2026-01-26T1300,1836A,111.1588,34.794,三门峡市,开发区,细颗粒物(PM2.5),176,175,190,133,168,36,,45,35,22,26,5,6,0.9,0.9
2026-01-26T1300,3039A,111.1911,34.7829,三门峡市,三门峡市第一小学,细颗粒物(PM2.5),170,163,158,129,165,31,,45,28,33,31,8,6,0.9,1
2026-01-26T1300,3598A,111.1031,34.719,三门峡市,富达温泉假日酒店,细颗粒物(PM2.5),175,192,173,132,154,36,,32,28,27,38,7,6,1.0,1.2
2026-01-26T1300,2324A,117.621,26.2626,三明市,三钢,,35,25,28,24,26,71,,29,29,18,21,16,9,1.4,0.8
2026-01-26T1300,2325A,117.6352,26.2714,三明市,三明二中,,36,28,28,25,22,67,,32,32,26,20,19,5,2.0,0.9
2026-01-26T1300,2326A,117.6028,26.2377,三明市,三元区政府,,35,25,35,24,26,69,,27,27,20,24,16,7,1.3,1.1
2026-01-26T1300,1877A,109.4962,18.2682,三亚市,河西子站,,30,30,26,8,9,91,,83,83,6,7,1,2,0.5,0.5
2026-01-26T1300,3540A,109.7348,18.3443,三亚市,君悦子站,,40,40,28,8,11,95,,58,58,6,11,4,5,0.4,0.4
2026-01-26T1300,4135A,109.1714,18.3739,三亚市,城东小学站,,31,20,25,10,12,97,,54,54,7,10,/,/,/,/
2026-01-26T1300,2624A,91.7592,29.234,山南市,山南监测站,,27,6,18,3,8,84,,84,78,2,3,4,4,0.3,0.3
2026-01-26T1300,2625A,91.7701,29.2436,山南市,山南人民医院,,28,17,23,8,10,88,,86,78,2,4,7,7,0.4,0.5
2026-01-26T1300,1674A,116.6795,23.3666,汕头市,金平子站,,33,27,30,23,37,78,,47,39,15,20,5,5,0.8,0.8
2026-01-26T1300,1675A,116.7248,23.3632,汕头市,龙湖子站,,32,,30,22,28,78,,51,43,12,18,9,9,/,/
2026-01-26T1300,1676A,116.7257,23.2774,汕头市,濠江子站,,39,30,31,27,30,74,,54,47,16,19,7,7,/,/
2026-01-26T1300,1677A,116.7518,23.4712,汕头市,澄海子站,,29,24,40,20,43,75,,36,36,10,18,6,7,0.6,0.7
2026-01-26T1300,1678A,116.6088,23.2539,汕头市,潮阳子站,,38,,27,26,26,76,,57,48,9,12,6,6,0.6,0.6
2026-01-26T1300,3444A,116.4539,23.2684,汕头市,潮南峡山,,46,46,39,32,26,66,,50,45,20,14,8,6,0.8,0.8
2026-01-26T1300,3624A,116.4069,23.2533,汕头市,潮南子站,颗粒物(PM10),54,57,51,36,31,65,,43,40,21,20,8,7,/,/
2026-01-26T1300,1693A,115.3653,22.7751,汕尾市,市环保局,,38,,24,26,20,97,,59,57,8,12,7,7,0.7,0.6
2026-01-26T1300,1695A,115.362,22.7926,汕尾市,新城中学,,39,34,28,27,17,96,,59,56,9,11,5,5,0.6,0.5
2026-01-26T1300,2645A,109.9155,33.8714,商洛市,监测站,颗粒物(PM10),161,272,262,75,74,71,,36,36,12,23,4,5,0.5,0.7
2026-01-26T1300,3045A,109.9647,33.8486,商洛市,商州区中学,颗粒物(PM10),169,287,335,79,78,71,,29,29,11,28,4,5,0.6,0.8
2026-01-26T1300,2408A,115.6701,34.4283,商丘市,环境监测站,细颗粒物(PM2.5),166,127,147,126,140,30,,14,14,33,43,5,5,1.2,1.3
2026-01-26T1300,2409A,115.6458,34.4047,商丘市,粮食局,细颗粒物(PM2.5),165,153,154,125,126,26,,14,14,37,41,6,6,0.9,1.1
2026-01-26T1300,3171A,115.6069,34.4465,商丘市,梁园区档案局,细颗粒物(PM2.5),173,137,139,131,132,26,,11,11,34,43,1,3,1.1,1.2
2026-01-26T1300,4119A,115.6701,34.3767,商丘市,北海东路185号,细颗粒物(PM2.5),147,154,172,112,125,28,,14,14,35,41,3,3,0.9,1
2026-01-26T1300,4120A,115.6172,34.3704,商丘市,中山大街3号,细颗粒物(PM2.5),172,181,175,130,131,25,,14,14,39,44,6,7,0.9,1
2026-01-26T1300,1141A,121.401,31.2382,上海市,普陀,颗粒物(PM10),53,55,29,26,18,21,,71,38,66,38,5,6,0.9,0.7
2026-01-26T1300,1142A,121.4774,31.2043,上海市,十五厂,颗粒物(PM10),56,61,31,28,17,16,,58,31,72,46,7,7,0.8,0.6
2026-01-26T1300,1143A,121.4673,31.3011,上海市,虹口,,39,39,30,24,16,20,,49,18,57,39,7,8,0.5,0.4
2026-01-26T1300,1147A,121.4253,31.226,上海市,静安监测站,,46,35,24,32,19,20,,70,41,69,39,6,7,0.6,0.3
2026-01-26T1300,1148A,121.7029,31.1905,上海市,浦东川沙,,45,45,26,24,14,34,,,,46,39,7,7,0.8,0.6
2026-01-26T1300,1149A,121.5339,31.229,上海市,浦东新区监测站,颗粒物(PM10),52,54,28,24,20,33,,50,30,48,37,5,6,0.7,0.6
2026-01-26T1300,1150A,121.5776,31.2038,上海市,浦东张江,颗粒物(PM10),54,57,30,23,14,43,,49,33,44,41,6,7,0.5,0.5
2026-01-26T1300,3265A,121.4242,31.3303,上海市,宝山庙行,,30,,28,21,16,27,,44,16,42,36,7,8,0.3,0.3
2026-01-26T1300,3266A,121.8789,31.4662,上海市,崇明上实东滩,,,6,17,3,8,78,,89,81,9,9,,4,0.4,0
2026-01-26T1300,3268A,121.316,31.2839,上海市,嘉定南翔,,43,33,30,30,18,22,,62,24,57,38,3,3,0.5,0.4
2026-01-26T1300,3269A,121.3357,30.7455,上海市,金山新城,颗粒物(PM10),54,58,26,33,22,33,,79,58,46,25,9,8,0.6,0.5
2026-01-26T1300,3270A,121.4996,31.0741,上海市,闵行浦江,颗粒物(PM10),51,51,32,24,17,8,,68,42,64,25,6,6,0.7,0.5
2026-01-26T1300,3271A,121.2886,31.1663,上海市,青浦徐泾,颗粒物(PM10),58,66,35,30,18,0,,65,26,83,39,5,5,0.5,0.4
2026-01-26T1300,3272A,121.2193,31.0382,上海市,松江图书馆,颗粒物(PM10),52,54,34,31,21,4,,66,34,82,40,6,6,0.9,0.6
2026-01-26T1300,3273A,121.3904,31.206,上海市,长宁仙霞,颗粒物(PM10),55,60,31,25,16,15,,65,36,61,30,6,7,0.1,0
2026-01-26T1300,3274A,121.7964,31.0507,上海市,浦东惠南,,40,40,27,16,17,18,,78,56,71,30,4,4,0.6,0.4
2026-01-26T1300,3544A,121.4891,30.925,上海市,奉贤南桥新城,,39,39,27,20,16,27,,75,62,55,27,2,2,0.6,0.4
2026-01-26T1300,4183A,121.417401,31.16637,上海市,冠生园路458号,颗粒物(PM10),52,54,30,27,19,15,,62,30,68,40,5,5,0.8,0.7
2026-01-26T1300,4205A,121.541914,31.268301,上海市,宁武路151号,颗粒物(PM10),51,52,39,24,18,16,,44,20,66,52,5,6,0.5,0.4
2026-01-26T1300,2382A,117.9758,28.4439,上饶市,市监测站,细颗粒物(PM2.5),80,100,83,59,47,47,,35,31,36,44,27,16,/,/
2026-01-26T1300,2383A,117.9521,28.4637,上饶市,凤凰光学,细颗粒物(PM2.5),77,94,80,56,43,34,,24,19,32,45,23,16,1.2,0.9
2026-01-26T1300,3685A,117.897,28.4316,上饶市,双创科技城,细颗粒物(PM2.5),94,92,78,70,52,51,,38,28,34,49,18,15,1.2,1
