timepoint,stationcode,longitude,latitude,area,positionname,primarypollutant,aqi,pm10,pm10_24h,pm2_5,pm2_5_24h,o3,o3_24h,o3_8h,o3_8h_24h,no2,no2_24h,so2,so2_24h,co,co_24h
2025-03-16T1800,2566A,102.1879,31.914,阿坝藏族羌族自治州,州农科所,,22,,39,11,11,68,,59,59,12,13,10,11,0,0.1
2025-03-16T1800,2568A,102.2502,31.8896,阿坝藏族羌族自治州,马师校,,26,20,15,15,14,82,,73,73,9,13,5,5,0.5,0.5
2025-03-16T1800,3994A,102.2165,31.9024,阿坝藏族羌族自治州,马尔康中学西区,,27,22,13,14,11,85,,75,75,8,9,5,5,0.4,0.4
2025-03-16T1800,2695A,80.292,41.1694,阿克苏地区,电视台,颗粒物(PM10),252,386,383,79,92,102,,84,84,6,14,7,6,,0.6
2025-03-16T1800,2696A,80.2613,41.1551,阿克苏地区,艺术中心,颗粒物(PM10),285,409,404,93,96,97,,75,75,10,24,4,5,0.5,0.7
2025-03-16T1800,2204A,105.6467,38.8363,阿拉善盟,西城区西花园,,33,26,26,10,12,104,,100,100,7,9,9,10,0.9,0.8
2025-03-16T1800,2205A,105.6985,38.8411,阿拉善盟,蒙二幼,,31,13,15,6,6,98,,95,95,8,8,6,6,0.7,0.7
2025-03-16T1800,2206A,105.724,38.8516,阿拉善盟,环保局新楼,,30,14,15,6,5,96,,95,95,4,4,8,8,0.7,0.6
2025-03-16T1800,2708A,88.1264,47.8517,阿勒泰地区,市站,,30,9,7,3,6,94,,96,94,7,6,3,2,0.2,0.3
2025-03-16T1800,2630A,80.1161,32.5,阿里地区,阿里监测站,,35,9,11,3,5,112,,107,107,1,2,6,7,0.4,0.4
2025-03-16T1800,3192A,80.0903,32.5028,阿里地区,阿里藏医院,,35,14,13,3,6,110,,108,108,1,1,6,7,0.4,0.4
2025-03-16T1800,2642A,109.0318,32.6537,安康市,香溪洞,,44,44,29,14,7,91,,86,86,1,4,6,7,0.6,0.5
2025-03-16T1800,2644A,109.0072,32.6975,安康市,汉滨区检察院,,43,43,26,14,10,94,,88,88,7,12,7,8,0.4,0.4
2025-03-16T1800,4054A,109.0325,32.6913,安康市,市邮政管理局,,46,46,32,8,10,96,,89,89,7,13,6,8,0.3,0.4
2025-03-16T1800,2291A,117.0809,30.5177,安庆市,环科院,,35,35,54,20,36,104,,99,99,11,21,6,6,0.4,0.5
2025-03-16T1800,2292A,117.0331,30.5119,安庆市,马山宾馆,,35,35,56,22,38,104,,98,98,11,15,2,3,0.3,0.6
2025-03-16T1800,2294A,116.9896,30.6145,安庆市,安庆大学,,35,33,50,17,30,111,,106,106,2,6,7,7,0.2,0.3
2025-03-16T1800,3173A,117.0598,30.5351,安庆市,市人大,,38,38,56,20,37,103,,99,99,7,14,5,6,0.4,0.5
2025-03-16T1800,3122A,105.9606,26.2611,安顺市,伍家关,,31,24,13,15,6,97,,97,97,13,10,12,8,0.4,0.4
2025-03-16T1800,3123A,105.9408,26.2431,安顺市,凤凰山,,35,27,16,24,14,92,,92,92,14,12,23,16,0.7,0.6
2025-03-16T1800,3124A,105.9439,26.2564,安顺市,金钟山,,39,,14,27,22,91,,89,89,11,9,20,14,0.4,0.5
2025-03-16T1800,3125A,105.8983,26.2481,安顺市,娄家坡,,30,25,17,21,13,88,,89,89,12,9,14,11,0.4,0.4
2025-03-16T1800,1818A,114.4839,36.0621,安阳市,棉研所,,,,,,,,,,,,,,,,
2025-03-16T1800,1819A,114.3551,36.1017,安阳市,红庙街,,37,37,48,11,22,88,,88,88,6,15,5,4,0.7,0.7
2025-03-16T1800,1820A,114.361,36.0681,安阳市,银杏小区,,37,37,45,11,25,97,,95,95,8,12,3,3,0.3,0.4
2025-03-16T1800,3141A,114.3922,36.0878,安阳市,信访局,,32,30,46,15,25,102,,100,100,14,16,6,5,0.2,0.3
2025-03-16T1800,3669A,114.4705,36.0637,安阳市,左辅环卫站,,,30,62,9,32,111,,72,,8,13,,3,0.2,0.5
2025-03-16T1800,3703A,114.2917,36.0949,安阳市,安钢职工学校,,35,35,48,12,26,92,,90,90,10,14,2,3,0.5,0.6
2025-03-16T1800,1748A,123.044,41.1196,鞍山市,深沟寺,,46,46,54,30,34,88,,90,90,10,18,9,13,0.5,0.7
2025-03-16T1800,1749A,123.011,41.0931,鞍山市,太阳城,,45,45,53,28,32,90,,92,92,10,18,7,11,0.5,0.7
2025-03-16T1800,1750A,123.0485,41.1442,鞍山市,太平,颗粒物(PM10),57,64,70,37,35,88,,92,92,11,18,8,14,0.5,0.7
2025-03-16T1800,1751A,122.9642,41.0971,鞍山市,铁西三道街,,45,45,61,25,32,89,,92,92,14,22,8,15,0.5,0.8
2025-03-16T1800,1753A,123.022,41.0821,鞍山市,明达新区,,43,43,51,30,38,88,,88,88,10,17,7,11,0.4,0.6
2025-03-16T1800,1754A,123.1289,41.0228,鞍山市,千山,,,,54,,21,,,59,,,19,,11,,0.6
2025-03-16T1800,4201A,122.9446,41.0826,鞍山市,兴盛南路290号,,49,49,65,24,35,88,,87,87,17,34,7,18,0.4,1
2025-03-16T1800,2195A,107.4212,40.761,巴彦淖尔市,附二中,,,33,33,10,13,93,,92,92,,9,2,4,0.5,0.5
2025-03-16T1800,2196A,107.37,40.7372,巴彦淖尔市,市环保大楼,,32,32,32,6,19,97,,93,93,4,11,4,4,0.3,0.3
2025-03-16T1800,1956A,86.1472,41.7538,巴音郭楞蒙古自治州,孔雀公园,颗粒物(PM10),462,562,175,77,37,92,,82,82,2,37,7,7,0.3,0.5
2025-03-16T1800,1957A,86.1972,41.7166,巴音郭楞蒙古自治州,棉纺厂,颗粒物(PM10),360,468,181,71,29,89,,79,79,9,36,3,4,0.3,0.4
2025-03-16T1800,1958A,86.2357,41.7173,巴音郭楞蒙古自治州,经济开发区,颗粒物(PM10),368,474,168,69,29,90,,84,84,7,13,5,6,0.2,0.3
2025-03-16T1800,2914A,106.7677,31.8794,巴中市,苏山坪,,32,32,28,13,12,91,,85,85,4,3,5,5,0.1,0.1
2025-03-16T1800,3181A,106.7768,31.8526,巴中市,市五中,,32,32,34,11,14,91,,83,83,8,12,4,4,0.3,0.4
2025-03-16T1800,3183A,106.7418,31.8654,巴中市,圣泉水务公司,,30,30,32,13,15,91,,85,85,7,13,6,6,0.3,0.3
2025-03-16T1800,3616A,106.7616,31.8344,巴中市,市中心医院,,31,31,36,15,20,88,,84,84,11,21,6,6,0.3,0.3
2025-03-16T1800,2235A,122.7911,45.6077,白城市,洮北区环保局,,49,49,42,33,34,95,,94,94,10,11,4,4,0.5,0.5
2025-03-16T1800,2236A,122.8738,45.5725,白城市,市环保局,细颗粒物(PM2.5),72,61,48,52,39,74,,95,94,26,14,7,6,0.4,0.4
2025-03-16T1800,2231A,126.4219,41.9171,白山市,喜丰,,42,42,44,14,21,88,,87,87,9,9,4,6,0.8,0.8
2025-03-16T1800,2232A,126.4077,41.9419,白山市,环保局,,46,46,50,20,27,92,,89,89,9,12,6,7,0.8,0.8
2025-03-16T1800,2647A,104.1724,36.5446,白银市,第三小学,颗粒物(PM10),60,69,76,29,46,96,,86,86,16,17,83,89,0.5,0.6
2025-03-16T1800,2648A,104.1465,36.5482,白银市,动力公司,颗粒物(PM10),62,74,64,28,22,103,,92,92,16,14,112,38,0.5,0.6
2025-03-16T1800,2512A,106.6103,23.9011,百色市,市监测站,,30,26,20,13,10,93,,88,88,15,12,8,8,0.6,0.6
2025-03-16T1800,2513A,106.6538,23.8859,百色市,市中心血站,,30,22,18,14,7,93,,89,89,13,9,9,9,0.6,0.6
2025-03-16T1800,3406A,106.6085,23.8798,百色市,祈福高中,,36,36,25,14,10,95,,89,89,14,12,6,8,0.5,0.6
2025-03-16T1800,2270A,117.396,32.939,蚌埠市,工人疗养院,,32,29,70,18,38,100,,98,98,10,17,3,4,0.4,0.5
2025-03-16T1800,2271A,117.3605,32.9427,蚌埠市,百货大楼,,30,25,70,17,39,96,,92,92,17,22,4,5,0.3,0.5
2025-03-16T1800,2273A,117.4185,32.8911,蚌埠市,蚌埠学院,,33,19,60,17,42,103,,101,101,11,15,2,4,0.2,0.4
2025-03-16T1800,2274A,117.3533,32.9673,蚌埠市,淮上区政府,,31,31,71,19,43,99,,97,97,11,18,4,5,0.3,0.4
2025-03-16T1800,2275A,117.3145,32.8977,蚌埠市,高新区,,31,24,65,17,43,98,,94,94,14,22,4,6,0.2,0.4
2025-03-16T1800,3715A,117.3092,32.9314,蚌埠市,蚌埠田家炳中学,,33,33,77,20,44,100,,96,96,20,28,4,6,0.4,0.5
2025-03-16T1800,1585A,109.8756,40.6532,包头市,市环境监测站,颗粒物(PM10),53,56,30,9,13,95,,88,88,10,17,10,11,0.4,0.5
2025-03-16T1800,1587A,109.9991,40.5842,包头市,包头八中,颗粒物(PM10),53,55,40,16,17,92,,85,85,12,26,7,9,0.4,0.5
2025-03-16T1800,1588A,109.8538,40.6821,包头市,青山宾馆,颗粒物(PM10),52,54,28,16,13,94,,88,88,8,19,7,8,0.4,0.4
2025-03-16T1800,1589A,109.8642,40.6288,包头市,惠龙物流,颗粒物(PM10),60,70,39,7,18,97,,90,90,11,21,7,11,0.5,0.8
2025-03-16T1800,1590A,110.0377,40.5546,包头市,东河鸿龙湾,,49,49,36,7,8,95,,86,86,9,22,8,10,0.5,0.5
2025-03-16T1800,3283A,109.9154,40.5685,包头市,滨河大厦,,30,30,30,9,14,94,,87,87,9,19,12,17,0.8,0.7
2025-03-16T1800,3419A,109.9447,40.6261,包头市,包头市委党校,颗粒物(PM10),62,74,41,24,14,96,,84,84,6,21,6,9,0.6,0.6
2025-03-16T1800,3683A,109.8331,40.6576,包头市,昆区政府,颗粒物(PM10),51,51,30,13,13,91,,85,85,13,17,6,8,0.4,0.5
2025-03-16T1800,1930A,107.185,34.3063,宝鸡市,庙沟村,,49,49,50,20,16,100,,92,92,10,8,7,8,0.3,0.3
2025-03-16T1800,1931A,107.0708,34.3017,宝鸡市,竹园沟,,48,48,52,22,16,100,,92,92,10,13,6,6,0.4,0.4
2025-03-16T1800,1932A,107.1906,34.3672,宝鸡市,三陆医院,,50,50,61,22,21,97,,91,91,9,15,5,4,0.4,0.4
2025-03-16T1800,1933A,107.1431,34.3547,宝鸡市,监测站,颗粒物(PM10),52,54,57,21,19,95,,90,90,15,13,7,7,0.6,0.5
2025-03-16T1800,1934A,107.1186,34.3739,宝鸡市,技工学校,,50,50,56,13,19,95,,91,91,15,10,4,6,0.7,0.7
2025-03-16T1800,1935A,107.3906,34.3528,宝鸡市,陈仓区环保局家属楼,颗粒物(PM10),51,52,57,16,20,103,,93,93,11,18,6,10,0.3,0.3
2025-03-16T1800,1936A,107.2058,34.3497,宝鸡市,文理学院,颗粒物(PM10),53,55,57,22,18,99,,93,93,11,12,5,7,0.4,0.4
2025-03-16T1800,1937A,107.2386,34.3622,宝鸡市,三迪小学,颗粒物(PM10),56,61,56,19,19,99,,91,91,18,17,6,8,0.6,0.6
2025-03-16T1800,1051A,115.493,38.8632,保定市,游泳馆,,34,34,33,7,14,98,,98,98,8,13,7,4,0.4,0.4
2025-03-16T1800,1052A,115.5213,38.8959,保定市,华电二区,,33,28,32,17,18,103,,101,101,5,12,7,6,0.1,0.2
2025-03-16T1800,1053A,115.4713,38.9108,保定市,接待中心,,31,30,34,15,17,97,,96,96,10,14,4,3,0,0
2025-03-16T1800,1054A,115.4612,38.8416,保定市,地表水厂,,37,37,41,11,14,96,,98,98,15,16,4,4,0.4,0.4
2025-03-16T1800,3581A,115.31981,38.95208,保定市,满城区生态环境分局,,32,14,18,12,8,102,,101,101,5,9,6,5,0.3,0.3
2025-03-16T1800,3582A,115.47694,38.76408,保定市,清苑区第二中学,,30,27,36,3,14,96,,97,97,10,16,8,7,0.3,0.3
2025-03-16T1800,3583A,115.62909,39.02311,保定市,徐水物探局,,31,24,32,7,17,98,,102,102,12,19,8,6,0.3,0.3
2025-03-16T1800,4004A,115.4202,38.8656,保定市,双鹰农机,,31,31,34,7,19,99,,99,99,6,14,2,2,0.4,0.5
2025-03-16T1800,4034A,115.5150,38.8590,保定市,植保所站,,32,25,32,19,26,100,,99,99,10,13,3,4,0,0
2025-03-16T1800,2594A,99.1678,25.1081,保山市,市环境监测站,颗粒物(PM10),54,58,50,32,30,127,,114,114,8,11,6,6,0.5,0.5
2025-03-16T1800,2595A,99.1711,25.1328,保山市,市环保局,颗粒物(PM10),58,65,55,32,30,132,,122,122,5,8,7,7,0.6,0.6
2025-03-16T1800,1866A,109.2262,21.588,北海市,牛尾岭水库,,,24,13,20,12,63,,61,61,,9,6,10,0.6,0.7
2025-03-16T1800,1867A,109.1436,21.4086,北海市,海滩公园,,34,34,22,20,6,78,,74,74,12,11,6,6,0.3,0.5
2025-03-16T1800,1868A,109.0981,21.4661,北海市,新市环保局,,35,32,24,24,19,79,,74,74,14,13,4,3,0.4,0.5
2025-03-16T1800,1869A,109.1778,21.5233,北海市,北海工业园,,39,34,21,27,18,72,,71,71,14,12,7,8,0.4,0.4
2025-03-16T1800,3400A,109.1911,21.4415,北海市,龙潭自来水厂,,42,30,23,29,16,77,,71,71,10,11,8,6,0.4,0.5
2025-03-16T1800,1001A,116.3621,39.8784,北京市,万寿西宫,,32,15,17,8,9,100,,97,97,10,14,2,2,0.2,0.4
2025-03-16T1800,1002A,116.2202,40.2915,北京市,定陵,,,,,,,,,,,,,,,,
2025-03-16T1800,1003A,116.4174,39.9289,北京市,东四,,31,14,19,8,12,97,,93,93,8,17,4,4,0.2,0.4
2025-03-16T1800,1004A,116.4072,39.8863,北京市,天坛,,30,16,19,7,11,93,,90,90,11,16,2,2,0.4,0.5
2025-03-16T1800,1005A,116.462,39.9365,北京市,农展馆,,31,12,17,3,9,99,,95,95,7,11,6,6,0.3,0.4
2025-03-16T1800,1006A,116.3392,39.9295,北京市,官园,,27,15,17,7,10,85,,81,81,10,16,7,6,0.4,0.4
2025-03-16T1800,1007A,116.2878,39.9611,北京市,海淀万柳,,25,15,18,7,12,80,,76,76,12,25,3,3,0.3,0.4
2025-03-16T1800,1008A,116.6636,40.135,北京市,顺义新城,,29,9,19,6,11,90,,84,84,2,11,4,4,0.3,0.3
2025-03-16T1800,1009A,116.6275,40.3275,北京市,怀柔镇,,29,10,16,7,11,90,,85,85,7,12,3,2,0.4,0.5
2025-03-16T1800,1010A,116.2296,40.217,北京市,昌平镇,,26,18,20,8,10,82,,79,79,12,12,2,1,0.4,0.4
2025-03-16T1800,1011A,116.3966,39.9821,北京市,奥体中心,,29,14,19,7,11,91,,87,87,6,21,4,4,0.4,0.5
2025-03-16T1800,3281A,115.9718,40.4529,北京市,延庆夏都,,29,11,15,9,11,91,,91,91,6,11,6,5,0.3,0.4
2025-03-16T1800,3418A,116.8336,40.4095,北京市,密云新城,,29,8,14,6,11,91,,85,85,6,7,4,3,0.5,0.6
2025-03-16T1800,3671A,116.088,39.9726,北京市,门头沟三家店,,50,50,41,11,11,87,,84,84,12,17,5,4,0.3,0.3
2025-03-16T1800,3672A,116.1541,39.8204,北京市,丰台云岗,,32,18,19,10,9,101,,98,98,2,5,4,4,0.2,0.3
2025-03-16T1800,3673A,116.6804,39.9081,北京市,通州东关,,29,17,18,8,10,91,,87,87,2,9,5,5,0.3,0.5
2025-03-16T1800,3674A,115.9577,39.7603,北京市,房山燕山,,28,14,16,13,11,87,,85,85,5,4,2,2,0.2,0.2
2025-03-16T1800,3675A,116.4672,39.7733,北京市,大兴旧宫,,27,15,19,3,10,86,,81,81,4,17,3,3,0.2,0.2
2025-03-16T1800,3694A,115.986,40.4563,北京市,延庆石河营,,29,11,15,7,10,92,,90,90,3,11,4,4,0.4,0.4
2025-03-16T1800,3695A,116.6151,40.3053,北京市,怀柔新城,,29,8,14,7,10,91,,84,84,3,6,5,4,0.4,0.5
2025-03-16T1800,3696A,116.2545,39.8768,北京市,丰台小屯,,28,16,18,8,10,87,,84,84,10,14,2,2,0.2,0.2
2025-03-16T1800,3697A,116.84,40.3844,北京市,密云镇,,30,10,16,7,11,96,,89,89,6,14,4,4,0.3,0.4
2025-03-16T1800,4182A,116.1942,39.9158,北京市,八角北路9号,,30,16,18,9,10,93,,88,88,8,10,2,2,0,0.1
2025-03-16T1800,4194A,117.0790,40.1518,北京市,洳河巡河路,,30,8,12,7,11,94,,88,88,4,5,2,2,0.2,0.3
2025-03-16T1800,1761A,123.8275,41.3064,本溪市,大峪,颗粒物(PM10),55,60,44,38,28,98,,99,99,9,7,8,8,0.8,0.8
2025-03-16T1800,1762A,123.7567,41.3325,本溪市,溪湖,细颗粒物(PM2.5),60,56,43,43,29,98,,99,99,15,15,5,8,0.6,0.7
2025-03-16T1800,1763A,123.7169,41.3094,本溪市,彩屯,细颗粒物(PM2.5),63,66,58,45,35,92,,91,91,15,19,7,10,0.8,0.9
2025-03-16T1800,1764A,123.7669,41.2864,本溪市,东明,颗粒物(PM10),58,66,48,39,31,89,,90,90,16,15,8,9,0.6,0.6
2025-03-16T1800,1765A,123.7992,41.2664,本溪市,新立屯,细颗粒物(PM2.5),64,63,41,46,32,106,,105,105,16,15,6,7,0.6,0.6
2025-03-16T1800,1766A,123.8142,41.3472,本溪市,威宁,细颗粒物(PM2.5),60,53,52,43,30,97,,98,98,10,16,4,4,0.6,0.6
2025-03-16T1800,2587A,105.2864,27.3125,毕节市,八中,细颗粒物(PM2.5),63,50,9,45,9,62,,58,58,18,9,9,8,0.7,0.6
2025-03-16T1800,2588A,105.31,27.2944,毕节市,师专,,49,49,12,26,7,67,,62,60,17,12,11,7,0.6,0.6
2025-03-16T1800,4263A,105.3688,27.3598,毕节市,工业大道,,35,26,7,24,7,71,,66,64,18,10,11,8,0.4,0.4
2025-03-16T1800,1629A,118.0018,37.3617,滨州市,第二水厂,,,,,,,,,,,,,,,,
2025-03-16T1800,1630A,117.9776,37.393,滨州市,北中新校,,30,27,38,7,18,94,,90,90,15,19,8,8,0.3,0.4
2025-03-16T1800,3514A,117.9378,37.3956,滨州市,中海酒店,,30,22,32,14,23,95,,90,90,9,14,6,6,0.2,0.4
2025-03-16T1800,3515A,117.9378,37.3553,滨州市,开发区一中,,36,36,41,12,18,88,,84,84,16,18,6,9,0.1,0.3
2025-03-16T1800,3516A,118.0917,37.694,滨州市,金海六路,,27,19,26,3,10,84,,83,83,18,23,2,4,0.5,0.5
2025-03-16T1800,4028A,117.9956,37.3753,滨州市,滨州市西街道办事处,,31,27,33,17,23,98,,93,93,10,13,5,6,0.3,0.4
2025-03-16T1800,2311A,115.8072,33.8399,亳州市,污水处理厂,,36,36,56,19,31,103,,99,99,11,11,2,3,0.2,0.2
2025-03-16T1800,2312A,115.7789,33.8518,亳州市,三国揽胜宫,,42,42,66,14,27,98,,93,93,9,12,3,4,0.2,0.3
2025-03-16T1800,3332A,115.7633,33.8034,亳州市,亳州学院,,36,36,55,21,28,99,,95,95,9,10,3,4,0.3,0.3
2025-03-16T1800,2693A,82.0485,44.8556,博尔塔拉蒙古自治州,市党校,,45,45,30,29,22,95,,82,82,10,10,9,8,0.4,0.5
2025-03-16T1800,2694A,82.0806,44.8969,博尔塔拉蒙古自治州,市环保局,,39,39,35,16,16,108,,95,95,18,12,2,5,0.4,0.5
2025-03-16T1800,1071A,116.8842,38.2991,沧州市,沧县城建局,,32,25,36,14,23,100,,96,96,8,13,3,3,0.2,0.2
2025-03-16T1800,1072A,116.8584,38.3254,沧州市,电视转播站,,34,34,36,9,19,97,,94,94,9,16,3,2,0.4,0.4
2025-03-16T1800,1073A,116.8709,38.3228,沧州市,市环保局,,31,31,38,18,24,95,,91,91,10,16,7,6,0.3,0.3
2025-03-16T1800,3324A,116.8136,38.3004,沧州市,河北水利电力学院,,36,29,30,25,24,96,,93,93,11,16,1,3,0.2,0.3
2025-03-16T1800,2622A,97.1806,31.1273,昌都市,昌都监测站,,26,26,18,18,11,75,,76,76,22,12,9,8,1.0,0.7
2025-03-16T1800,3719A,97.1714,31.1406,昌都市,昌都会议中心,,35,22,15,9,8,111,,104,104,4,5,2,2,0.2,0.2
2025-03-16T1800,2690A,88.1236,43.8886,昌吉回族自治州,天山天池,,32,29,20,10,7,101,,97,97,11,4,9,5,0.6,0.4
2025-03-16T1800,2692A,87.2717,44.0297,昌吉回族自治州,新区政务中心,,45,45,43,16,17,98,,89,89,18,17,8,6,0.5,0.5
2025-03-16T1800,3613A,87.3095,44.0142,昌吉回族自治州,亚心广场,颗粒物(PM10),56,61,58,22,25,100,,88,88,13,20,9,7,0.5,0.5
2025-03-16T1800,1119A,125.3325,43.9166,长春市,食品厂,细颗粒物(PM2.5),67,56,44,48,33,82,,91,91,25,31,7,9,0.4,0.5
2025-03-16T1800,1120A,125.2863,43.9027,长春市,客车厂,细颗粒物(PM2.5),80,59,44,59,34,78,,88,88,25,33,5,6,0.4,0.5
2025-03-16T1800,1121A,125.2841,43.8463,长春市,邮电学院,细颗粒物(PM2.5),62,63,37,44,29,93,,96,96,8,13,6,8,0.4,0.4
2025-03-16T1800,1122A,125.3716,43.8772,长春市,劳动公园,细颗粒物(PM2.5),63,57,44,45,30,94,,93,93,9,19,7,8,0.9,0.9
2025-03-16T1800,1123A,125.3297,43.8805,长春市,园林处,细颗粒物(PM2.5),59,54,36,42,31,92,,94,94,11,18,6,8,0.3,0.3
2025-03-16T1800,1124A,125.4605,43.79,长春市,净月潭,细颗粒物(PM2.5),73,62,37,53,27,87,,96,96,16,11,8,6,0.4,0.4
2025-03-16T1800,1125A,125.7194,43.515,长春市,甩湾子,,,,,,,,,,,,,,,,
2025-03-16T1800,1126A,125.3863,43.8447,长春市,经开区环卫处,"颗粒物(PM10),细颗粒物(PM2.5)",57,63,45,40,31,86,,89,89,11,29,5,6,0.3,0.4
2025-03-16T1800,1127A,125.245,43.7783,长春市,高新区管委会,细颗粒物(PM2.5),68,62,47,49,36,82,,91,91,22,36,8,9,0.4,0.5
2025-03-16T1800,1128A,125.1761,43.8325,长春市,岱山公园,细颗粒物(PM2.5),73,63,56,53,46,70,,101,99,38,40,11,11,0.5,0.5
2025-03-16T1800,1335A,113.0833,28.2325,长沙市,经开区环保局,颗粒物(PM10),56,61,52,20,24,116,,111,111,10,21,6,6,0.2,0.3
2025-03-16T1800,1336A,112.8872,28.2189,长沙市,高开区环保局,颗粒物(PM10),62,74,52,27,28,110,,106,106,8,11,4,5,0.5,0.5
2025-03-16T1800,1337A,113.0792,28.2053,长沙市,马坡岭,颗粒物(PM10),54,57,55,17,26,118,,113,113,7,18,4,4,0.4,0.5
2025-03-16T1800,1338A,112.9394,28.19,长沙市,湖南师范大学,颗粒物(PM10),62,74,53,23,24,109,,104,104,8,10,6,6,0.4,0.5
2025-03-16T1800,1339A,113.0178,28.1322,长沙市,雨花区环保局,颗粒物(PM10),55,60,55,21,26,110,,103,103,13,23,5,6,0.4,0.4
2025-03-16T1800,1340A,112.9792,28.2597,长沙市,伍家岭,颗粒物(PM10),60,70,55,24,23,107,,103,103,13,21,4,4,0.3,0.4
2025-03-16T1800,1341A,113.0014,28.1944,长沙市,火车新站,颗粒物(PM10),58,65,53,31,32,114,,107,107,12,18,6,6,0.3,0.4
2025-03-16T1800,1342A,112.9844,28.1178,长沙市,天心区环保局,颗粒物(PM10),54,58,52,25,26,115,,110,110,15,22,3,3,0.3,0.4
2025-03-16T1800,1343A,112.8908,28.1308,长沙市,湖南中医药大学,颗粒物(PM10),63,75,53,38,29,110,,106,106,10,14,4,4,0.0,0.1
2025-03-16T1800,1344A,112.9581,28.3611,长沙市,沙坪,,48,48,36,23,24,104,,102,102,8,11,7,7,0.4,0.4
2025-03-16T1800,1727A,113.1147,36.1547,长治市,清华站,,28,19,30,3,9,88,,87,87,13,16,6,6,0.7,0.8
2025-03-16T1800,1730A,113.0886,36.2125,长治市,审计局,,30,19,44,3,10,93,,92,92,13,16,7,9,0.3,0.3
2025-03-16T1800,1731A,113.0844,36.1856,长治市,长治八中,,30,17,35,7,14,95,,94,94,14,14,8,8,0.3,0.3
2025-03-16T1800,2845A,113.1569,36.1911,长治市,德盛苑,颗粒物(PM10),58,66,35,12,12,93,,92,92,13,14,6,7,0.7,0.7
2025-03-16T1800,3568A,113.06,36.0464,长治市,向阳小学,,47,47,42,15,19,90,,90,90,12,12,8,7,0.3,0.2
2025-03-16T1800,3569A,112.8792,36.3144,长治市,屯留一中,,36,36,32,3,11,93,,94,94,17,21,7,7,0.4,0.3
2025-03-16T1800,4189A,113.1131,36.19948,长治市,英华南巷50号,,30,21,29,9,11,94,,94,94,13,15,9,11,0.5,0.5
2025-03-16T1800,4190A,113.2367,36.3344,长治市,学府街1号,,30,25,34,10,12,95,,94,94,7,14,6,8,0.4,0.6
2025-03-16T1800,1854A,111.6975,28.9703,常德市,市二中,,,,67,,38,105,,102,102,11,11,4,5,0.5,0.4
2025-03-16T1800,1857A,111.7158,29.1456,常德市,白鹤山,,,,,,,,,,,,,,,,
2025-03-16T1800,3138A,111.7153,29.0289,常德市,武陵区永安,颗粒物(PM10),67,83,71,40,36,101,,97,97,8,10,3,4,0.3,0.3
2025-03-16T1800,3139A,111.6892,28.9881,常德市,鼎城区玉霞,颗粒物(PM10),64,77,68,39,34,109,,104,104,9,13,4,4,0.4,0.4
2025-03-16T1800,3140A,111.6625,29.0531,常德市,武陵区长庚,颗粒物(PM10),66,82,70,39,34,105,,100,100,7,9,4,4,0.4,0.4
2025-03-16T1800,1196A,119.9633,31.762,常州市,市监测站,,31,24,62,13,36,99,,96,96,16,18,6,4,0.3,0.5
2025-03-16T1800,1200A,119.9468,31.7069,常州市,武进监测站,,,29,49,13,34,95,,94,94,,29,11,11,0.4,0.6
2025-03-16T1800,1201A,119.9255,31.9087,常州市,安家,,31,31,55,16,32,98,,94,94,18,31,6,7,0.3,0.4
2025-03-16T1800,3002A,119.9805,31.8174,常州市,行政中心,,29,24,47,16,32,92,,89,89,15,25,3,3,0.3,0.4
2025-03-16T1800,3003A,120.0522,31.7748,常州市,经开区,,37,37,52,11,30,103,,100,100,19,28,8,9,0.4,0.5
2025-03-16T1800,3010A,119.9025,31.7964,常州市,钟楼,,30,26,53,11,34,94,,94,94,15,28,6,7,0.3,0.6
2025-03-16T1800,3429A,119.8598,31.7066,常州市,武进经发区,,32,19,56,11,38,100,,99,99,17,27,6,7,0.4,0.5
2025-03-16T1800,3430A,119.5826,31.7245,常州市,金坛城区,,33,16,52,10,33,104,,104,104,9,17,6,7,0.3,0.5
2025-03-16T1800,2220A,120.4318,41.5881,朝阳市,西梁,,27,25,37,14,21,84,,88,88,5,13,2,6,0.3,0.4
2025-03-16T1800,2221A,120.4521,41.5646,朝阳市,河畔小区,,32,32,39,9,19,89,,93,93,7,16,5,7,0.5,0.7
2025-03-16T1800,2222A,120.4176,41.5648,朝阳市,八里堡,,41,41,42,14,19,84,,90,89,5,13,6,8,0.5,0.6
2025-03-16T1800,2223A,120.3806,41.5969,朝阳市,农业园区,,37,37,42,14,19,85,,94,94,12,18,4,7,0.4,0.5
2025-03-16T1800,1705A,116.6367,23.6719,潮州市,西园路,,23,,6,8,5,71,,70,70,12,10,3,2,0.2,0.3
2025-03-16T1800,3026A,116.6183,23.6608,潮州市,市政府,,23,16,8,3,4,72,,71,71,10,9,3,3,0.3,0.4
2025-03-16T1800,4036A,116.6461,23.6761,潮州市,金山,,22,14,8,3,2,68,,67,67,11,9,6,6,0.5,0.6
2025-03-16T1800,2472A,113.0073,25.9061,郴州市,马头岭,,44,44,41,8,18,75,,72,72,9,10,12,9,0.9,1.4
2025-03-16T1800,2473A,113.0116,25.8226,郴州市,市职中,,36,36,31,21,23,87,,84,84,14,15,11,7,0.6,0.5
2025-03-16T1800,2475A,113.0383,25.8071,郴州市,市审计局,,36,36,32,25,23,89,,82,82,13,12,12,5,0.4,0.5
2025-03-16T1800,2476A,113.0348,25.7759,郴州市,市环保局,,36,36,34,17,30,79,,75,75,9,8,11,6,0.4,0.4
2025-03-16T1800,4252A,113.0138,25.8011,郴州市,好美居路49号,,30,30,35,21,28,86,,83,83,14,14,14,8,0.5,0.4
2025-03-16T1800,1431A,103.9728,30.7236,成都市,金泉两河,,40,40,44,15,15,73,,75,75,20,31,2,2,0.4,0.5
2025-03-16T1800,1432A,104.176,30.6872,成都市,十里店,,37,37,45,20,20,79,,80,80,14,32,2,2,0.6,0.7
2025-03-16T1800,1433A,104.079,30.5706,成都市,三瓦窑,,44,44,48,18,18,77,,77,77,18,32,3,4,0.4,0.6
2025-03-16T1800,1434A,104.1114,30.63,成都市,沙河铺,,39,39,47,19,25,76,,74,74,15,28,5,5,0.5,0.7
2025-03-16T1800,1437A,104.0786,30.6531,成都市,君平街,,49,46,47,34,24,80,,78,78,16,35,5,6,0.5,0.6
2025-03-16T1800,1438A,103.613,31.0283,成都市,灵岩寺,,,,,,,,,,,,,,,,
2025-03-16T1800,2880A,104.0239,30.65639,成都市,大石西路,,38,38,46,18,21,78,,76,76,15,32,3,4,0.4,0.6
2025-03-16T1800,3136A,104.2725,30.5589,成都市,龙泉驿区区政府,,25,22,36,12,17,79,,77,77,10,23,4,4,0.4,0.5
2025-03-16T1800,3357A,104.0106,30.6931,成都市,金博路,,30,30,35,6,12,74,,71,71,12,28,5,6,0.4,0.6
2025-03-16T1800,3359A,104.0578,30.5225,成都市,华阳,,34,34,41,17,25,72,,72,72,20,30,5,6,0.5,0.7
2025-03-16T1800,3488A,104.3853,30.7453,成都市,青白江技师分院,,37,37,49,16,25,82,,85,85,13,31,5,5,0.3,0.4
2025-03-16T1800,3489A,104.0789,30.4072,成都市,科学城,,27,27,37,13,21,78,,77,77,12,26,4,4,0.4,0.5
2025-03-16T1800,4011A,103.8506,30.6947,成都市,光华大道三段,,37,37,42,17,18,82,,84,84,22,28,4,4,0.5,0.6
2025-03-16T1800,4224A,104.2433,30.5353,成都市,鲸龙路1057号,,27,27,43,3,9,80,,79,79,15,31,3,4,0.5,0.6
2025-03-16T1800,1062A,117.9531,40.9081,承德市,铁路,,30,22,26,8,14,96,,93,93,6,14,5,5,0.2,0.4
2025-03-16T1800,1063A,117.9392,40.9763,承德市,中国银行,,29,16,23,6,12,90,,90,90,6,11,3,2,0.3,0.3
2025-03-16T1800,1064A,117.9503,40.928,承德市,开发区,,32,21,31,17,22,100,,96,96,6,17,4,3,0.2,0.3
2025-03-16T1800,1065A,117.8051,40.9655,承德市,文化中心,,30,19,30,3,13,96,,95,95,7,17,3,3,0.2,0.3
2025-03-16T1800,1066A,117.9268,41.0026,承德市,离宫,,29,21,27,9,25,91,,89,89,5,11,6,5,0.3,0.3
2025-03-16T1800,2314A,117.47,30.6618,池州市,池州学院,,33,32,51,23,37,102,,94,94,13,16,4,4,0.3,0.4
2025-03-16T1800,3237A,117.4918,30.6617,池州市,展览馆,,32,30,49,20,37,102,,94,94,11,16,4,4,0.3,0.4
2025-03-16T1800,3333A,117.5627,30.695,池州市,第八中学,,34,34,51,21,36,101,,94,94,11,13,4,4,0.3,0.4
2025-03-16T1800,3334A,117.5038,30.6243,池州市,第十二中学,,33,32,47,22,34,103,,96,96,10,14,5,5,0.3,0.5
2025-03-16T1800,1744A,118.9233,42.2816,赤峰市,松山一中,,30,20,30,8,8,93,,94,94,14,16,7,8,0.6,0.6
2025-03-16T1800,1745A,118.9576,42.2728,赤峰市,哈达街,,28,14,26,12,9,87,,88,88,17,15,8,9,0.6,0.6
2025-03-16T1800,1746A,118.8788,42.2554,赤峰市,天义路,,26,26,25,13,15,79,,81,81,14,14,7,9,0.4,0.4
2025-03-16T1800,3058A,119.2658,42.0353,赤峰市,银河街,,39,39,37,9,15,77,,78,78,14,15,13,15,0.4,0.5
2025-03-16T1800,3286A,118.9359,42.3147,赤峰市,桥北物流园区,,25,16,19,10,16,80,,80,80,12,16,7,8,0.5,0.5
2025-03-16T1800,2521A,107.3476,22.4136,崇左市,市环保局江州分局,,31,24,15,11,7,98,,88,88,11,6,6,5,0.4,0.5
2025-03-16T1800,4256A,107.3750,22.3736,崇左市,石景林东路7号,,33,25,15,3,6,103,,90,90,11,9,5,4,0.4,0.4
2025-03-16T1800,2298A,118.3093,32.3153,滁州市,老年大学,,33,22,51,14,34,103,,102,102,12,18,4,5,0.4,0.5
2025-03-16T1800,2299A,118.3244,32.2786,滁州市,人大宾馆,,32,27,55,10,33,101,,99,99,5,17,7,7,0.4,0.5
2025-03-16T1800,3207A,118.3118,32.3038,滁州市,市政府原办公楼,,32,19,46,11,32,102,,101,101,10,15,4,4,0.2,0.3
2025-03-16T1800,3331A,118.3267,32.2634,滁州市,图书馆,,33,21,51,9,32,104,,101,101,18,20,5,6,0.2,0.4
2025-03-16T1800,2605A,101.5482,25.0441,楚雄彝族自治州,州环境监测站,颗粒物(PM10),52,54,57,32,45,129,,111,111,8,23,9,10,0.6,0.7
2025-03-16T1800,2606A,101.538,25.0492,楚雄彝族自治州,市经济开发区,,48,47,58,33,43,126,,107,107,10,19,7,10,0.6,0.7
2025-03-16T1800,2548A,107.5277,31.2827,达州市,达州职业技术学院,,27,27,33,9,11,83,,76,76,9,25,6,8,0.3,0.3
2025-03-16T1800,2549A,107.5086,31.2186,达州市,市环境监测站,,28,28,30,3,5,85,,74,74,15,28,4,6,0.3,0.4
2025-03-16T1800,2550A,107.4988,31.2132,达州市,凤凰小区,,27,27,25,7,8,85,,77,77,14,20,5,7,0.2,0.2
2025-03-16T1800,2551A,107.5082,31.1986,达州市,达县机关宾馆,,26,22,28,7,11,81,,74,74,12,29,3,6,0.4,0.5
2025-03-16T1800,2552A,107.4644,31.2124,达州市,市政中心,,38,38,31,7,6,80,,75,75,14,20,2,4,0.3,0.3
2025-03-16T1800,2614A,100.1542,25.7054,大理白族自治州,大理市环境监测站,,46,46,40,27,30,117,,117,117,6,14,7,7,0.6,0.6
2025-03-16T1800,2615A,100.2171,25.5811,大理白族自治州,大理古城,,,,41,,27,106,,115,115,6,10,7,7,0.5,0.5
2025-03-16T1800,1109A,121.612,38.9741,大连市,甘井子,,43,43,65,18,19,70,,72,72,19,16,5,6,0.6,0.5
2025-03-16T1800,1110A,121.565,38.9511,大连市,周水子,,46,46,57,16,21,94,,93,93,16,15,10,11,0.2,0.3
2025-03-16T1800,1111A,121.5637,38.8845,大连市,星海三站,,36,36,47,18,22,99,,97,97,8,7,9,10,0.6,0.6
2025-03-16T1800,1112A,121.6302,38.9117,大连市,青泥洼桥,,43,43,51,18,19,97,,98,98,9,6,11,10,0.2,0.2
2025-03-16T1800,1113A,121.6251,38.8638,大连市,傅家庄,,38,38,50,20,19,94,,94,94,14,13,11,9,0.5,0.6
2025-03-16T1800,1114A,121.5213,38.8661,大连市,七贤岭,,31,25,33,16,18,97,,94,94,7,8,6,7,0.6,0.6
2025-03-16T1800,1115A,121.2529,38.8061,大连市,旅顺,,30,27,32,16,18,93,,88,88,14,13,7,7,0.4,0.4
2025-03-16T1800,1116A,121.7485,39.1311,大连市,金州,颗粒物(PM10),64,78,83,18,22,98,,97,97,12,14,8,10,0.4,0.5
2025-03-16T1800,1117A,121.7811,39.0496,大连市,开发区,,39,39,49,16,22,90,,92,92,12,12,10,10,0.4,0.5
2025-03-16T1800,1118A,121.9762,39.0631,大连市,双D港,,39,39,52,13,21,106,,105,105,8,12,9,10,0.6,0.7
2025-03-16T1800,1789A,124.81117,46.03138,大庆市,大同区,,30,26,37,21,31,83,,81,81,5,18,3,4,0.5,0.6
2025-03-16T1800,1790A,125.129,46.533,大庆市,龙凤区,,33,33,40,17,20,76,,79,79,12,17,5,9,0.4,0.4
2025-03-16T1800,1791A,124.902,46.408,大庆市,红岗区,,39,,29,27,25,86,,86,86,7,16,4,6,0.3,0.4
2025-03-16T1800,1792A,125.153,46.586,大庆市,萨尔图区,,31,31,34,15,20,78,,77,77,10,16,6,7,0.3,0.4
2025-03-16T1800,1793A,124.9042,46.6215,大庆市,让胡路区,,25,21,27,16,23,80,,80,80,9,20,7,8,0.2,0.4
2025-03-16T1800,3481A,125.141,46.634,大庆市,萨区政府监测点,,29,29,33,9,25,85,,84,84,5,14,5,6,0.5,0.5
2025-03-16T1800,1721A,113.3819,40.1097,大同市,果树场,,27,25,25,3,21,86,,89,89,10,21,8,11,0.4,0.6
2025-03-16T1800,1723A,113.2994,40.0758,大同市,云冈宾馆,,29,18,23,9,13,92,,95,95,9,19,7,13,0.4,0.8
2025-03-16T1800,1724A,113.3444,40.0917,大同市,大同大学,,29,15,28,3,15,91,,93,93,6,15,9,20,0.4,0.7
2025-03-16T1800,1725A,113.2661,40.1269,大同市,安家小村,,29,21,41,6,16,92,,94,94,4,19,7,11,0.4,1.2
2025-03-16T1800,1726A,113.2711,40.0844,大同市,教育学院,,30,25,28,7,14,93,,96,96,10,20,6,9,0.4,0.7
2025-03-16T1800,3282A,113.3397,40.0597,大同市,大同市卫生学校,,28,28,29,11,15,89,,92,92,10,16,6,13,0.2,0.5
2025-03-16T1800,3565A,113.1367,40.1122,大同市,云冈站,,29,16,24,3,12,91,,93,93,6,17,8,14,0.3,0.4
2025-03-16T1800,3566A,113.1186,40.2556,大同市,图书馆,,27,20,23,11,16,86,,90,90,4,10,7,9,0.4,0.6
2025-03-16T1800,3567A,113.5931,40.0461,大同市,区一中,,29,21,28,6,14,90,,92,92,11,12,12,16,0.3,0.5
2025-03-16T1800,4199A,113.2798,40.0997,大同市,魏都大道141号,,29,15,35,11,16,91,,93,93,8,21,10,14,0.4,0.9
2025-03-16T1800,2269A,124.1069,50.4097,大兴安岭地区,科技局,,30,30,21,21,16,85,,87,87,5,4,6,5,0.4,0.4
2025-03-16T1800,3663A,124.1164,50.4278,大兴安岭地区,红旗社区,,29,9,15,3,10,92,,89,89,4,11,5,6,0.3,0.4
2025-03-16T1800,1600A,124.3303,40.0625,丹东市,江湾东路,颗粒物(PM10),52,53,48,32,31,107,,104,104,8,8,7,8,0.5,0.5
2025-03-16T1800,1601A,124.4256,40.1503,丹东市,临江后街,颗粒物(PM10),51,52,44,35,28,97,,97,97,9,6,6,6,0.6,0.6
2025-03-16T1800,1602A,124.3933,40.1461,丹东市,元宝山,,50,50,43,24,25,93,,93,93,9,8,6,6,0.7,0.7
2025-03-16T1800,1603A,124.3633,40.1092,丹东市,民主桥,,47,47,49,28,29,96,,97,97,14,8,7,8,0.5,0.4
2025-03-16T1800,3541A,109.5726,19.5167,儋州市,第一中学子站,,19,6,21,3,12,59,,44,44,9,8,3,4,0.6,0.8
2025-03-16T1800,3542A,109.5567,19.5187,儋州市,东坡学校子站,,26,26,26,3,13,62,,46,46,10,10,5,5,0.6,0.8
2025-03-16T1800,2616A,98.5842,24.428,德宏傣族景颇族自治州,德宏州监测站,颗粒物(PM10),61,71,69,33,44,125,,120,120,11,26,8,11,0.4,0.6
2025-03-16T1800,3677A,98.5881,24.4368,德宏傣族景颇族自治州,芒市人民政府综合楼,颗粒物(PM10),66,82,78,38,41,125,,123,123,9,16,9,11,0.2,0.5
2025-03-16T1800,1901A,104.4239,31.1208,德阳市,东山公园,,33,33,44,17,23,79,,83,83,8,18,2,7,0.5,0.5
2025-03-16T1800,1902A,104.3826,31.1317,德阳市,西小区,,35,35,48,21,24,78,,81,81,12,21,4,5,0.4,0.5
2025-03-16T1800,1904A,104.3553,31.1091,德阳市,耐火材料厂,,35,35,48,19,25,72,,80,80,18,21,5,6,0.2,0.3
2025-03-16T1800,3639A,104.4019,31.1244,德阳市,市教育局,,31,31,43,14,25,78,,83,83,13,22,3,7,0.4,0.5
2025-03-16T1800,1622A,116.3032,37.4674,德州市,儿童乐园,,32,24,42,7,18,101,,97,97,11,20,5,5,0.6,0.7
2025-03-16T1800,1624A,116.2991,37.4451,德州市,监理站,,33,17,32,3,19,104,,100,100,9,14,9,11,0.5,0.5
2025-03-16T1800,3066A,116.2721,37.4379,德州市,九衢泉纯净水厂,,30,27,40,9,20,96,,93,93,18,20,15,10,0.5,0.5
2025-03-16T1800,3371A,116.3728,37.4403,德州市,开发区人民医院,,33,27,40,3,15,103,,99,99,7,14,5,10,0.3,0.7
2025-03-16T1800,3372A,116.3572,37.4094,德州市,太阳城中学,,32,27,38,17,18,101,,98,98,11,11,5,6,0.4,0.4
2025-03-16T1800,3511A,116.5652,37.3319,德州市,陵城艺术中心,,39,39,42,9,18,95,,91,91,16,19,7,8,0.5,0.5
2025-03-16T1800,2621A,99.7056,27.8317,迪庆藏族自治州,迪庆州站,,30,21,25,9,14,95,,98,96,10,11,8,8,0.5,0.5
2025-03-16T1800,3180A,99.7136,27.8094,迪庆藏族自治州,质量技术监督局,,32,15,18,8,10,100,,105,99,11,10,9,8,0.8,0.7
2025-03-16T1800,4257A,104.6092,35.5962,定西市,将台街,颗粒物(PM10),55,59,71,21,24,107,,99,99,9,12,7,8,0.4,0.5
2025-03-16T1800,4309A,104.6159,35.5701,定西市,正龙路62号,,44,44,70,21,25,112,,103,103,6,6,8,7,0.5,0.4
2025-03-16T1800,1389A,113.7547,23.0494,东莞市,莞城梨川,,25,16,7,7,5,77,,72,72,10,11,4,4,0.6,0.8
2025-03-16T1800,1390A,113.7944,23.0128,东莞市,东城石井,,26,12,7,3,3,82,,76,76,10,11,5,5,0.6,0.8
2025-03-16T1800,1391A,113.7383,22.9658,东莞市,南城西平,,26,12,5,3,3,83,,77,77,14,15,5,4,0.6,0.8
2025-03-16T1800,3319A,113.7338,23.0381,东莞市,万江金泰,,29,13,7,7,4,90,,84,84,4,6,3,4,0.6,0.8
2025-03-16T1800,3626A,113.7533,23.0202,东莞市,南城元岭,,25,14,7,3,4,80,,74,74,8,9,5,5,0.5,0.7
2025-03-16T1800,3627A,113.7875,23.0457,东莞市,东城主山,,26,19,10,6,3,83,,77,77,10,12,7,6,0.5,0.8
2025-03-16T1800,1666A,118.6614,37.4309,东营市,市环保局,,28,24,30,7,11,89,,88,88,15,15,3,3,0.5,0.5
2025-03-16T1800,3036A,118.6904,37.4338,东营市,开发区管委会,,38,38,37,7,17,87,,83,83,16,17,3,3,0.6,0.6
2025-03-16T1800,3365A,118.5719,37.565,东营市,垦利区民丰路,,28,22,29,7,14,87,,84,84,13,15,6,7,0.5,0.5
2025-03-16T1800,3498A,118.5055,37.8612,东营市,河口城区,,31,17,31,7,12,97,,91,91,20,17,2,3,0.4,0.5
2025-03-16T1800,3646A,118.4978,37.4623,东营市,胜利站,,28,28,38,9,15,89,,87,87,17,19,8,8,0.5,0.5
2025-03-16T1800,3734A,118.35,37.26,东营市,理想之城,,34,34,36,12,15,88,,88,88,15,15,5,5,0.3,0.3
2025-03-16T1800,1591A,110.0023,39.8129,鄂尔多斯市,综合楼,,36,36,42,3,8,87,,85,85,11,16,5,6,0.2,0.2
2025-03-16T1800,1592A,109.9486,39.8261,鄂尔多斯市,巴音孟克林场办事处,,29,27,40,7,11,91,,90,90,8,13,6,6,0.3,0.3
2025-03-16T1800,1593A,109.7736,39.5986,鄂尔多斯市,康泽苑,,29,29,29,7,9,90,,87,87,5,7,2,2,0.3,0.3
2025-03-16T1800,1594A,109.8119,39.5989,鄂尔多斯市,华泰汽车城,,28,24,30,9,12,88,,86,86,6,8,2,3,0.3,0.3
2025-03-16T1800,1595A,109.9734,39.7884,鄂尔多斯市,奥林花园,,30,29,42,7,9,93,,90,90,8,15,5,6,0.4,0.4
2025-03-16T1800,2436A,114.8938,30.3994,鄂州市,市政府,,36,,57,25,30,105,,102,102,6,18,3,4,0.5,0.7
2025-03-16T1800,2437A,114.8989,30.3714,鄂州市,赵家坝,,37,37,54,18,28,104,,101,101,1,11,3,7,0.4,0.7
2025-03-16T1800,3654A,114.8094,30.4089,鄂州市,精准医疗中心,,32,31,49,11,25,101,,100,100,4,11,3,4,0.5,0.7
2025-03-16T1800,2454A,109.4978,30.2981,恩施土家族苗族自治州,湖北民院,,37,37,22,24,14,75,,86,86,10,9,3,3,0.5,0
2025-03-16T1800,2455A,109.4707,30.2798,恩施土家族苗族自治州,州电力总公司,,38,36,22,26,14,58,,71,71,13,11,7,5,0.4,0
2025-03-16T1800,3549A,109.5061,30.3772,恩施土家族苗族自治州,龙凤新区,,28,28,18,11,10,66,,77,77,10,9,5,6,0.3,0.3
2025-03-16T1800,2499A,108.3411,21.6158,防城港市,沙万,,26,22,16,12,5,81,,71,71,12,9,7,7,1.2,1
2025-03-16T1800,2500A,108.3514,21.7731,防城港市,防城档案局,,37,37,35,16,8,81,,67,67,12,10,8,7,0.2,0.2
2025-03-16T1800,2501A,108.3506,21.6414,防城港市,大海花园,,27,24,16,15,8,86,,72,72,5,4,5,5,0.7,0.7
2025-03-16T1800,1371A,113.1294,23.0067,佛山市,湾梁,,22,17,15,3,4,70,,63,63,20,18,7,8,0.5,0.6
2025-03-16T1800,1372A,113.1083,23.0478,佛山市,华材职中,,26,24,18,7,7,83,,74,74,20,22,6,6,0.5,0.6
2025-03-16T1800,1373A,113.144,23.0453,佛山市,南海气象局,,24,13,12,3,6,76,,69,69,20,19,5,6,0.3,0.5
2025-03-16T1800,1374A,113.2881,22.8094,佛山市,顺德苏岗,,25,25,19,3,4,58,,54,54,18,17,5,5,0.4,0.6
2025-03-16T1800,1376A,112.8383,22.8678,佛山市,高明孔堂,,28,16,14,10,5,87,,80,80,13,14,5,6,0.4,0.5
2025-03-16T1800,1377A,112.8836,23.1588,佛山市,三水监测站,,24,17,11,3,3,76,,73,73,22,18,2,3,0.4,0.5
2025-03-16T1800,1378A,112.867,23.185,佛山市,三水云东海,,26,13,15,8,6,82,,79,79,17,15,1,2,0.5,0.5
2025-03-16T1800,3625A,113.2544,22.7642,佛山市,容桂街道办,,24,19,11,14,8,75,,70,70,22,21,6,7,0.6,0.8
2025-03-16T1800,1280A,119.3903,26.0543,福州市,鼓山,,,,5,,2,,,41,,,11,,3,,0.4
2025-03-16T1800,1282A,119.2681,26.0504,福州市,师大,,32,21,9,3,1,100,,77,77,13,13,3,3,0.3,0.3
2025-03-16T1800,1283A,119.2984,26.1028,福州市,五四北路,,27,20,8,3,2,85,,66,66,17,18,3,3,0.5,0.5
2025-03-16T1800,1284A,119.2648,26.0768,福州市,杨桥西路,,29,25,10,3,1,92,,76,76,17,15,3,3,0.4,0.4
2025-03-16T1800,1285A,119.317,26.0746,福州市,紫阳,,27,24,12,3,1,84,,61,61,25,24,4,4,0.3,0.3
2025-03-16T1800,3048A,119.5799,26.0936,福州市,九龙,,34,17,9,3,2,106,,94,94,8,9,3,3,0.4,0.4
2025-03-16T1800,3526A,119.5189,25.9664,福州市,吴航,,34,14,12,8,8,107,,91,91,11,13,4,3,0.3,0.4
2025-03-16T1800,1755A,123.7977,41.8491,抚顺市,望花区,细颗粒物(PM2.5),72,76,48,52,34,96,,100,100,16,15,3,4,0.6,0.5
2025-03-16T1800,1756A,123.9161,41.8822,抚顺市,顺城区,细颗粒物(PM2.5),58,63,55,41,30,102,,102,102,11,22,6,7,0.5,0.6
2025-03-16T1800,1757A,124.0436,41.8611,抚顺市,东洲区,细颗粒物(PM2.5),55,58,53,39,32,98,,101,101,11,14,3,6,0.6,0.6
2025-03-16T1800,1758A,123.9247,41.8642,抚顺市,新抚区,细颗粒物(PM2.5),64,65,54,46,35,98,,99,99,14,19,4,4,0.5,0.6
2025-03-16T1800,1759A,124.0972,41.8961,抚顺市,大伙房水库,细颗粒物(PM2.5),72,67,53,52,34,98,,101,101,13,16,7,7,0.7,0.6
2025-03-16T1800,1760A,123.7086,41.8391,抚顺市,沈抚新城,细颗粒物(PM2.5),78,73,51,57,38,100,,103,103,13,23,4,4,0.5,0.5
2025-03-16T1800,2376A,116.2127,28.0814,抚州市,桐源党溪,颗粒物(PM10),54,57,42,29,18,96,,94,94,2,2,2,3,0.2,0.3
2025-03-16T1800,2377A,116.3544,27.9831,抚州市,市站,颗粒物(PM10),53,56,36,28,16,91,,88,88,6,6,3,6,0.3,0.8
2025-03-16T1800,2378A,116.3565,27.963,抚州市,血防站,颗粒物(PM10),55,60,40,25,16,92,,90,90,7,8,4,3,0.2,0.2
2025-03-16T1800,2379A,116.3564,28.0007,抚州市,采茶剧团,颗粒物(PM10),52,54,35,29,17,83,,81,81,6,5,4,2,0.3,0.4
2025-03-16T1800,2380A,116.385,27.9647,抚州市,医学分院,颗粒物(PM10),56,62,36,22,16,82,,79,79,3,2,3,3,0.3,0.4
2025-03-16T1800,2207A,121.6094,41.998,阜新市,工业园区,,38,38,52,11,21,93,,95,95,8,17,4,9,0.3,0.4
2025-03-16T1800,2208A,121.6697,42.0279,阜新市,长青街,,29,22,28,10,16,92,,96,96,6,10,4,5,0.3,0.4
2025-03-16T1800,2209A,121.6673,42.0705,阜新市,农业园区,,30,30,26,3,7,95,,98,98,11,12,6,6,0.1,0.2
2025-03-16T1800,2210A,121.6717,42.0224,阜新市,东苑,,39,39,32,15,13,94,,95,95,7,8,4,5,0.4,0.7
2025-03-16T1800,2211A,121.6506,42.0498,阜新市,玉龙新城,,44,44,41,20,20,87,,93,93,8,20,2,4,0.3,0.4
2025-03-16T1800,2301A,115.8277,32.8929,阜阳市,市监测站,,40,29,55,28,36,95,,93,93,14,16,8,6,0.4,0.4
2025-03-16T1800,2303A,115.8554,32.8605,阜阳市,开发区,,44,44,69,18,32,102,,96,96,12,17,8,6,0.5,0.5
2025-03-16T1800,2875A,115.784,32.8892,阜阳市,阜阳职业技术学院,,37,37,58,22,36,98,,93,93,10,15,8,8,0.3,0.4
2025-03-16T1800,3468A,115.7901,32.8613,阜阳市,市规划展馆,,38,38,60,19,31,103,,99,99,12,14,8,7,0.1,0.3
2025-03-16T1800,3469A,115.836,32.9183,阜阳市,枣园社区,,36,36,61,19,31,106,,100,100,9,13,7,7,0.2,0.3
2025-03-16T1800,2669A,102.9099,34.9841,甘南藏族自治州,州政府,,40,40,41,19,24,94,,89,89,5,9,7,5,0.2,0.3
2025-03-16T1800,3380A,102.8914,34.9617,甘南藏族自治州,甘肃民族师范学院,,34,34,35,6,18,101,,96,96,4,6,7,8,0.2,0.3
2025-03-16T1800,2570A,101.9603,30.0475,甘孜藏族自治州,水桥子,,20,,7,6,5,64,,69,65,12,11,4,3,0.4,0.4
2025-03-16T1800,3065A,101.9533,29.9972,甘孜藏族自治州,州环保局,,21,,7,3,5,66,,76,71,12,9,4,4,0.3,0.3
2025-03-16T1800,3414A,115.8347,28.932,赣江新区,桑海产业园,颗粒物(PM10),56,61,49,31,28,88,,93,93,14,16,6,7,0.3,0.3
2025-03-16T1800,2362A,114.9017,25.9149,赣州市,通天岩,,49,49,21,3,4,109,,103,103,4,4,10,10,0.3,0.4
2025-03-16T1800,2363A,114.9367,25.8664,赣州市,地委,,,39,22,15,8,,,82,82,,5,,3,,0.6
2025-03-16T1800,2364A,114.9461,25.8481,赣州市,气象台,,49,49,28,18,7,99,,92,92,15,13,7,6,0.3,0.3
2025-03-16T1800,2365A,114.9322,25.8333,赣州市,市图书馆,,41,41,17,20,10,98,,88,88,10,12,3,4,0.5,0.5
2025-03-16T1800,2366A,114.8905,25.8471,赣州市,华坚鞋城,,42,42,21,16,10,88,,86,86,15,11,6,6,0.1,0.1
2025-03-16T1800,3109A,115.0093,25.8613,赣州市,赣县区卫计委,,47,47,16,25,12,92,,84,84,2,5,3,3,0.4,0.1
2025-03-16T1800,2683A,106.2319,36.1417,固原市,马园,,45,45,56,18,16,97,,92,92,13,20,5,5,0.5,0.7
2025-03-16T1800,2684A,106.2792,36.0022,固原市,监测站,,41,41,50,19,15,103,,96,96,12,13,6,6,0.5,0.6
2025-03-16T1800,2685A,106.2375,36.0211,固原市,新区,,41,41,48,14,12,108,,101,101,3,8,6,6,0.4,0.4
2025-03-16T1800,3522A,106.2177,35.9959,固原市,原州区十五小,,42,42,59,19,16,107,,100,100,6,8,6,6,0.3,0.4
2025-03-16T1800,2543A,106.6308,30.5278,广安市,小平旧居,,,,,,,,,,,,,,,,
2025-03-16T1800,2544A,106.6303,30.4576,广安市,市委,,26,26,35,17,19,73,,74,74,13,15,2,2,0.3,0.4
2025-03-16T1800,2545A,106.6271,30.4663,广安市,友谊中学,,26,26,32,15,16,75,,75,75,13,19,2,2,0.4,0.5
2025-03-16T1800,2547A,106.6388,30.4551,广安市,广电花园,,24,24,31,16,18,61,,65,64,21,20,3,3,0.3,0.4
2025-03-16T1800,2902A,106.6351,30.4865,广安市,北辰小学,,27,27,31,17,16,68,,73,72,14,14,4,3,0.5,0.6
2025-03-16T1800,2523A,105.8945,32.4535,广元市,黑石坡,颗粒物(PM10),56,61,48,20,16,80,,79,79,1,2,6,6,0.4,0.3
2025-03-16T1800,2524A,105.821,32.4444,广元市,老城,颗粒物(PM10),56,61,48,13,14,85,,82,82,8,18,3,2,0.3,0.3
2025-03-16T1800,2526A,105.8628,32.4287,广元市,监测站,,49,49,43,20,14,88,,87,87,7,11,3,3,0.2,0.2
2025-03-16T1800,3617A,105.8047,32.4166,广元市,经开区,,48,48,43,17,16,74,,75,74,13,16,2,2,0.3,0.3
2025-03-16T1800,1345A,113.2347,23.1423,广州市,广雅中学,,25,23,18,11,10,78,,71,71,18,20,4,4,0.1,0.2
2025-03-16T1800,1346A,113.2612,23.105,广州市,市五中,,26,15,10,11,8,81,,72,72,7,11,3,4,0.4,0.6
2025-03-16T1800,1348A,113.3478,23.0916,广州市,广东商学院,,27,16,10,3,3,85,,77,77,12,14,4,4,0.3,0.5
2025-03-16T1800,1349A,113.4332,23.1047,广州市,市八十六中,,23,19,14,10,7,72,,65,65,12,13,2,3,0.4,0.6
2025-03-16T1800,1350A,113.3505,22.9483,广州市,番禺中学,,26,23,13,3,2,82,,80,80,18,17,4,7,0.4,0.6
2025-03-16T1800,1351A,113.2146,23.3916,广州市,花都师范,,24,16,9,3,3,75,,69,69,15,18,5,5,0.3,0.4
2025-03-16T1800,1352A,113.2597,23.1331,广州市,市监测站,,26,19,14,7,5,83,,74,74,9,14,5,6,0.5,0.6
2025-03-16T1800,1353A,113.5618,23.312,广州市,九龙镇镇龙,,27,9,6,3,2,84,,75,75,9,11,4,4,0.4,0.6
2025-03-16T1800,1354A,113.2765,23.1544,广州市,麓湖,,27,25,18,9,8,85,,78,78,32,16,2,4,0.4,0.3
2025-03-16T1800,1355A,113.443,23.3035,广州市,帽峰山森林公园,,28,10,4,8,5,87,,78,78,10,11,3,3,0.5,0.7
2025-03-16T1800,2846A,113.3221,23.1322,广州市,体育西,,26,21,13,3,3,83,,74,74,9,11,4,4,0.4,0.5
2025-03-16T1800,3298A,113.5717,23.5491,广州市,从化街口,,30,12,7,9,4,93,,84,84,8,9,6,7,0.4,0.6
2025-03-16T1800,3299A,113.3472,23.3692,广州市,白云竹料,,29,11,7,7,5,91,,82,82,8,8,7,7,0.5,0.6
2025-03-16T1800,3300A,113.2981,23.237,广州市,白云嘉禾,,,23,13,9,6,79,,72,72,22,19,,4,0.0,0.3
2025-03-16T1800,3301A,113.4256,23.1716,广州市,黄埔科学城,,28,14,7,8,5,88,,80,80,6,8,5,6,0.4,0.6
2025-03-16T1800,3302A,113.3942,23.0483,广州市,番禺大学城,,,17,12,3,3,,,80,80,16,18,3,2,,0.5
2025-03-16T1800,3303A,113.4922,22.8168,广州市,南沙黄阁,,26,25,12,7,4,81,,75,75,17,18,6,6,0.5,0.7
2025-03-16T1800,3304A,113.5342,22.7896,广州市,南沙街,,27,15,21,3,4,86,,79,79,16,21,4,5,0.4,0.7
2025-03-16T1800,3443A,113.2902,23.5544,广州市,花都梯面,,26,11,8,8,6,82,,75,75,10,12,6,5,0.5,0.6
2025-03-16T1800,3445A,113.7858,23.7478,广州市,从化良口,,30,14,8,10,5,94,,84,84,5,7,6,6,0.3,0.5
2025-03-16T1800,3446A,113.8051,23.2614,广州市,增城荔城,,28,11,5,3,3,89,,82,82,8,9,7,6,0.4,0.6
2025-03-16T1800,2505A,109.568,23.1478,贵港市,德智高中,,,,,,,,,,,,,,,,
2025-03-16T1800,2506A,109.6047,23.0666,贵港市,江南子站,,44,44,22,24,12,102,,94,94,14,14,4,4,0.4,0.4
2025-03-16T1800,2507A,109.6014,23.0948,贵港市,贵城子站,,37,37,20,23,10,99,,93,93,13,11,6,6,0.6,0.6
2025-03-16T1800,2508A,109.5669,23.1065,贵港市,荷城子站,,34,34,21,19,9,91,,87,87,11,9,8,8,0.4,0.4
2025-03-16T1800,3405A,109.5886,23.1172,贵港市,新世纪学校,,36,36,23,23,15,96,,91,91,10,7,5,3,0.3,0.2
2025-03-16T1800,1439A,106.6899,26.5998,贵阳市,马鞍山,,29,29,16,17,9,83,,91,91,10,8,5,4,0.2,0.2
2025-03-16T1800,1441A,106.6243,26.6266,贵阳市,鉴湖路,,46,46,28,22,10,84,,88,88,8,6,6,6,0.3,0.4
2025-03-16T1800,1442A,106.7487,26.6343,贵阳市,燕子冲,,39,39,19,24,16,90,,92,92,8,9,5,6,0.1,0.2
2025-03-16T1800,1443A,106.6555,26.4365,贵阳市,碧云窝,,41,41,28,22,10,90,,90,90,13,11,20,10,0.4,0.4
2025-03-16T1800,1445A,106.7109,26.6027,贵阳市,红边门,,39,39,23,27,15,86,,92,92,22,16,8,6,0.1,0.1
2025-03-16T1800,1446A,106.7164,26.5699,贵阳市,新华路,,46,46,22,24,14,87,,90,90,15,10,10,10,0.4,0.3
2025-03-16T1800,1447A,106.674,26.5424,贵阳市,太慈桥,,36,36,21,22,10,90,,88,88,17,13,7,7,0.3,0.3
2025-03-16T1800,1552A,106.805,26.3003,贵阳市,桐木岭,,45,45,30,26,17,83,,86,86,5,2,4,3,0.2,0.2
2025-03-16T1800,4230A,106.6882,26.5695,贵阳市,花果园大街66号,,,27,15,21,14,74,,76,76,16,10,6,6,,0.5
2025-03-16T1800,4231A,106.6873,26.5169,贵阳市,漓江路57号,,36,36,19,22,11,85,,86,86,17,12,9,9,0.5,0.4
2025-03-16T1800,1862A,110.4144,25.3167,桂林市,电子科大尧山校区,,,,,,,,,,,,,,,,
2025-03-16T1800,1864A,110.3089,25.2708,桂林市,龙隐路小学,颗粒物(PM10),56,62,34,23,20,113,,112,112,6,6,8,9,0.5,0.5
2025-03-16T1800,1865A,110.2869,25.2178,桂林市,八中,颗粒物(PM10),52,53,32,23,16,104,,105,105,12,11,7,8,0.3,0.4
2025-03-16T1800,3531A,110.296,25.1253,桂林市,旅游学院,,46,46,27,24,18,88,,88,88,7,7,6,6,0.6,0.6
2025-03-16T1800,4222A,110.1835,25.2444,桂林市,环湖路276号,颗粒物(PM10),54,58,39,31,26,95,,96,96,8,7,9,10,0.3,0.3
2025-03-16T1800,4301A,110.2803,25.2773,桂林市,信义路13号,颗粒物(PM10),51,52,32,31,22,104,,104,104,10,9,11,11,0.3,0.3
2025-03-16T1800,2674A,100.2561,34.4714,果洛藏族自治州,玛沁县大武镇,,34,34,38,23,17,107,,101,101,1,2,9,10,0.3,0.4
2025-03-16T1800,1129A,126.5422,45.755,哈尔滨市,岭北,,28,17,15,10,11,88,,109,104,7,11,12,10,0.6,0.8
2025-03-16T1800,1130A,126.561,45.8167,哈尔滨市,松北商大,,28,18,22,13,13,88,,90,90,6,14,5,10,0.5,0.5
2025-03-16T1800,1131A,126.979,45.5419,哈尔滨市,阿城会宁,,28,25,32,13,20,88,,94,94,8,12,8,9,0.4,0.5
2025-03-16T1800,1132A,126.599,45.7222,哈尔滨市,南岗学府路,,34,34,28,7,10,88,,91,91,7,11,5,9,0.6,0.6
2025-03-16T1800,1133A,126.689,45.7733,哈尔滨市,太平宏伟公园,,28,,25,19,15,89,,90,90,11,17,6,7,0.6,0.5
2025-03-16T1800,1134A,126.635,45.7667,哈尔滨市,道外承德广场,,42,42,32,17,17,87,,87,87,8,11,5,7,0.5,0.5
2025-03-16T1800,1135A,126.685,45.7319,哈尔滨市,香坊红旗大街,,28,17,20,12,11,89,,89,89,8,11,5,6,0.5,0.6
2025-03-16T1800,1136A,126.6411,45.7258,哈尔滨市,动力和平路,,28,18,22,17,15,89,,90,90,9,10,7,8,0.5,0.5
2025-03-16T1800,1137A,126.593,45.7478,哈尔滨市,道里建国路,,28,21,20,19,14,84,,88,88,7,9,3,4,0.4,0.4
2025-03-16T1800,1138A,126.615,45.61,哈尔滨市,平房东轻厂,,38,,32,26,25,78,,86,85,18,31,7,9,0.6,0.5
2025-03-16T1800,1139A,126.595,45.9855,哈尔滨市,呼兰师专,,32,,22,22,15,81,,84,84,12,16,10,10,0.3,0.4
2025-03-16T1800,1140A,126.6206,45.6842,哈尔滨市,省农科院,,34,34,23,15,15,85,,88,88,12,13,6,8,0.5,0.5
2025-03-16T1800,2688A,93.5128,42.8172,哈密市,地区监测站,,35,35,52,17,12,83,,74,74,6,20,4,4,0.2,0.3
2025-03-16T1800,2689A,93.4961,42.8328,哈密市,哈密师范学校,,27,26,45,10,18,86,,77,77,7,27,6,6,0.3,0.6
2025-03-16T1800,2671A,100.9048,36.9639,海北藏族自治州,海晏县西海镇,,35,13,45,12,30,111,,102,102,2,7,7,12,0.2,0.3
2025-03-16T1800,3867A,102.0738,36.5056,海东市,平安区公安北苑,颗粒物(PM10),55,60,50,26,29,92,,93,93,16,11,21,13,0.5,0.5
2025-03-16T1800,1409A,110.576,19.9507,海口市,东寨港,,21,,12,6,8,67,,60,60,6,6,3,3,0.9,0.9
2025-03-16T1800,1410A,110.3232,20.0574,海口市,海南大学,,24,21,24,8,12,74,,67,67,8,8,2,2,0.5,0.6
2025-03-16T1800,1411A,110.283,20.0053,海口市,秀英海南医院,,23,15,23,7,13,72,,65,65,10,10,4,4,0.4,0.5
2025-03-16T1800,1412A,110.338,19.9969,海口市,海南师范大学,,25,14,21,7,11,80,,72,72,5,5,3,3,0.4,0.6
2025-03-16T1800,1413A,110.33,20.0356,海口市,龙华路环保局宿舍,,25,16,24,9,12,78,,69,69,7,8,4,4,0.5,0.6
2025-03-16T1800,3539A,110.5111,19.9736,海口市,桂林洋子站,,25,17,21,7,10,78,,70,70,7,8,3,4,0.2,0.4
2025-03-16T1800,2673A,100.6188,36.2866,海南藏族自治州,共和县恰卜恰镇,,37,33,37,8,20,116,,107,107,1,13,6,6,0.3,0.5
2025-03-16T1800,2676A,97.3731,37.3753,海西蒙古族藏族自治州,德令哈市,,,39,31,12,16,107,,102,102,,3,12,14,0.6,0.5
2025-03-16T1800,1048A,114.5302,36.6116,邯郸市,东污水处理厂,,27,12,31,9,18,85,,85,85,14,17,2,2,0.5,0.4
2025-03-16T1800,1049A,114.4918,36.5713,邯郸市,矿院,,27,27,42,3,15,81,,81,81,9,15,4,4,0.4,0.4
2025-03-16T1800,1050A,114.484,36.6133,邯郸市,丛台公园,,28,28,31,3,17,84,,84,84,13,16,3,3,0.4,0.4
2025-03-16T1800,3458A,114.7895,36.5593,邯郸市,香泉濮院小区,,30,14,37,3,17,93,,91,91,10,18,2,3,0.5,0.4
2025-03-16T1800,3579A,114.50634,36.77178,邯郸市,永年区实验高中,,37,37,45,3,16,80,,87,87,20,16,5,4,0.5,0.6
2025-03-16T1800,3580A,114.20016,36.44293,邯郸市,峰峰矿区临水派出所,,31,29,35,9,15,97,,92,92,3,4,5,4,0.7,0.7
2025-03-16T1800,2634A,106.9893,33.1842,汉中市,汉川机床厂子校,颗粒物(PM10),52,54,46,18,13,93,,92,92,4,2,6,6,0.9,0.8
2025-03-16T1800,2635A,107.0154,33.0706,汉中市,市监测站,颗粒物(PM10),53,56,47,16,18,82,,82,82,12,11,5,5,0.4,0.4
2025-03-16T1800,2636A,107.0089,33.1138,汉中市,鑫源开发区,颗粒物(PM10),52,54,47,23,23,85,,85,85,13,12,5,4,0.4,0.4
2025-03-16T1800,2637A,107.007,33.0323,汉中市,南郑大河坎水厂,颗粒物(PM10),52,54,49,18,21,85,,83,83,9,15,6,7,0.6,0.6
2025-03-16T1800,1223A,120.2072,30.2111,杭州市,滨江,,36,32,43,21,37,113,,94,94,10,18,6,6,0.3,0.4
2025-03-16T1800,1224A,120.0633,30.2747,杭州市,西溪,,34,29,59,18,24,107,,91,91,11,15,6,6,0.6,0.6
2025-03-16T1800,1226A,120.3417,30.3150,杭州市,下沙,,31,31,59,19,42,98,,80,80,15,22,4,4,0.3,0.4
2025-03-16T1800,1227A,120.1269,30.2456,杭州市,卧龙桥,,34,30,48,20,28,106,,90,90,12,16,6,5,0.4,0.5
2025-03-16T1800,1228A,120.1903,30.2692,杭州市,浙江农大,,36,36,56,21,44,103,,86,86,15,24,8,7,0.2,0.4
2025-03-16T1800,1230A,120.1197,30.3119,杭州市,和睦小学,,38,32,49,26,31,108,,91,91,14,19,7,6,0.5,0.6
2025-03-16T1800,1231A,120.3019,30.4183,杭州市,临平镇,,34,32,56,17,42,108,,87,87,15,19,5,5,0.4,0.6
2025-03-16T1800,1232A,120.2753,30.1839,杭州市,城厢镇,,35,31,49,23,33,109,,90,90,14,18,5,6,0.4,0.6
2025-03-16T1800,1233A,120.0883,30.1808,杭州市,云栖,,34,28,42,19,30,107,,94,94,17,21,8,8,0.5,0.6
2025-03-16T1800,3557A,119.9464,30.0494,杭州市,镇二中,,31,24,28,15,18,99,,82,82,19,21,5,6,0.3,0.4
2025-03-16T1800,3558A,119.7183,30.2367,杭州市,市府大楼,,34,31,33,22,25,107,,88,88,17,20,7,7,0.4,0.5
2025-03-16T1800,3656A,120.1556,30.2864,杭州市,消防大队,,35,33,52,22,40,112,,96,96,17,22,6,6,0.4,0.6
2025-03-16T1800,1270A,117.1959,31.7848,合肥市,明珠广场,,32,19,61,12,35,100,,97,97,8,18,4,5,0.3,0.5
2025-03-16T1800,1271A,117.3072,31.8764,合肥市,三里街,,30,24,64,7,35,93,,90,90,11,19,4,4,0.2,0.4
2025-03-16T1800,1272A,117.2588,31.8707,合肥市,琥珀山庄,,30,24,61,12,36,96,,92,92,13,20,2,2,0.4,0.6
2025-03-16T1800,1273A,117.1604,31.9052,合肥市,董铺水库,,31,22,61,7,28,99,,92,92,4,14,3,3,0.3,0.4
2025-03-16T1800,1274A,117.25,31.8571,合肥市,长江中路,,30,24,63,13,38,96,,93,93,13,21,7,7,0.2,0.4
2025-03-16T1800,1275A,117.266,31.9436,合肥市,庐阳区,,30,22,64,9,34,96,,91,91,8,19,4,4,0.2,0.4
2025-03-16T1800,1276A,117.3453,31.8616,合肥市,瑶海区,,28,22,67,3,34,89,,86,86,8,19,6,6,0.2,0.5
2025-03-16T1800,1277A,117.3027,31.7964,合肥市,包河区,,28,22,66,9,38,89,,88,88,9,23,2,3,0.4,0.5
2025-03-16T1800,1278A,117.2776,31.7385,合肥市,滨湖新区,,28,22,68,12,44,88,,87,87,13,23,6,7,0.3,0.4
2025-03-16T1800,1279A,117.1318,31.8403,合肥市,高新区,,30,24,61,10,33,94,,90,90,6,14,1,2,0.3,0.5
2025-03-16T1800,3464A,117.3803,31.9147,合肥市,高教基地,,32,21,62,10,36,100,,98,98,10,18,6,7,0.3,0.4
2025-03-16T1800,3614A,79.924,37.0877,和田地区,地区环保局,颗粒物(PM10),500,976,1315,268,335,78,,59,59,4,4,3,2,0.6,0.4
2025-03-16T1800,3615A,79.9131,37.113,和田地区,市环保局,颗粒物(PM10),500,948,1306,222,283,88,,68,68,11,19,1,2,0.4,0.7
2025-03-16T1800,2516A,108.2011,24.715,河池市,东仁乐园,,32,28,27,22,6,90,,96,96,10,6,8,7,0.5,0.5
2025-03-16T1800,2517A,108.0497,24.6947,河池市,市环保站,,29,23,17,18,8,90,,94,94,8,4,10,9,0.5,0.5
2025-03-16T1800,2518A,108.0983,24.6989,河池市,市疾控中心,,27,25,13,17,10,85,,93,92,11,3,7,6,0.5,0.5
2025-03-16T1800,1696A,114.6778,23.7569,河源市,源西,,34,34,13,10,6,92,,90,90,7,8,4,4,0.4,0.6
2025-03-16T1800,1697A,114.6944,23.7586,河源市,东埔,,28,17,5,10,7,87,,85,85,9,9,4,4,0.5,0.6
2025-03-16T1800,1698A,114.6892,23.7233,河源市,老城,,28,27,11,17,8,88,,84,84,8,8,4,4,0.5,0.6
2025-03-16T1800,1718A,115.4208,35.2464,菏泽市,气象局,,34,32,62,14,33,107,,100,100,6,12,3,5,0.4,0.4
2025-03-16T1800,3374A,115.5564,35.0891,菏泽市,定陶老年大学,,33,27,54,9,25,103,,100,100,14,18,4,5,0.5,0.5
2025-03-16T1800,4184A,115.4797,35.24401,菏泽市,永昌路1号,,36,36,62,17,35,106,,102,102,22,20,9,10,0.4,0.3
2025-03-16T1800,4193A,115.4715,35.2800,菏泽市,长城路999号,,34,31,64,11,29,107,,74,,14,17,4,7,0.4,0.4
2025-03-16T1800,2514A,111.5264,24.4172,贺州市,环保小区,,39,39,29,22,17,95,,95,95,9,10,6,5,0.3,0.3
2025-03-16T1800,2515A,111.5608,24.4078,贺州市,政协大楼,,44,44,31,23,17,94,,91,91,9,11,6,6,0.5,0.2
2025-03-16T1800,3534A,111.4744,24.4553,贺州市,西湾,,32,32,24,19,15,87,,88,88,18,12,7,6,0.4,0.4
2025-03-16T1800,2385A,114.17,35.9019,鹤壁市,市监测站,,43,43,57,19,25,95,,92,92,16,21,2,3,0.6,0.7
2025-03-16T1800,2386A,114.2956,35.7511,鹤壁市,市交警支队,,31,23,52,8,23,99,,94,94,14,15,6,8,0.2,0.3
2025-03-16T1800,2387A,114.2878,35.7306,鹤壁市,迎宾馆,,36,36,56,7,20,101,,97,97,6,11,3,3,0.3,0.4
2025-03-16T1800,3474A,114.2617,35.6822,鹤壁市,大新区,颗粒物(PM10),53,56,58,11,21,97,,95,95,14,14,5,5,0.3,0.4
2025-03-16T1800,3596A,114.1572,35.9603,鹤壁市,南山宾馆,,39,27,53,27,34,100,,94,94,8,13,4,4,0.4,0.5
2025-03-16T1800,2244A,130.2537,47.3416,鹤岗市,哈啤分公司,,28,21,21,19,14,69,,69,69,6,6,13,13,0.6,0.6
2025-03-16T1800,2245A,130.2684,47.3086,鹤岗市,斯达机电,,28,28,27,19,18,85,,85,85,2,6,14,13,0.2,0.3
2025-03-16T1800,2246A,130.3114,47.3388,鹤岗市,东山纸板厂,,34,34,65,17,21,67,,76,75,16,15,19,20,0.2,0.7
2025-03-16T1800,2247A,130.1097,47.3382,鹤岗市,五号水库,,,,,,,,,,,,,,,,
2025-03-16T1800,2263A,127.4833,50.2524,黑河市,交通局,,26,26,18,17,13,78,,88,88,14,9,7,7,0.4,0.3
2025-03-16T1800,2264A,127.5144,50.2341,黑河市,环保局,,30,30,20,20,16,89,,86,86,10,12,5,5,0.3,0.4
2025-03-16T1800,2265A,127.5291,50.2472,黑河市,大黑河岛,,,,,,,56,,60,60,11,10,1,2,,
2025-03-16T1800,1074A,115.6838,37.7541,衡水市,电机北厂,,32,27,42,7,20,100,,97,97,6,12,3,4,0.3,0.3
2025-03-16T1800,1075A,115.6303,37.7316,衡水市,市监测站,,31,29,41,7,16,97,,96,96,9,15,5,6,0.3,0.3
2025-03-16T1800,3188A,115.6683,37.7217,衡水市,市城管局,,31,,36,17,20,98,,96,96,11,16,4,8,0.3,0.4
2025-03-16T1800,3459A,115.5989,37.5491,衡水市,地表水厂,,34,17,35,3,18,106,,104,104,8,15,7,6,0.3,0.3
2025-03-16T1800,2456A,112.5003,26.9167,衡阳市,原169医院,,37,37,35,20,15,87,,78,78,16,14,10,27,0.4,0.4
2025-03-16T1800,2457A,112.6194,26.9258,衡阳市,衡阳化工总厂,颗粒物(PM10),53,56,45,24,26,116,,108,108,11,13,7,5,0.6,0.5
2025-03-16T1800,2458A,112.6211,26.8956,衡阳市,珠晖区环保局,颗粒物(PM10),51,52,41,27,29,117,,107,107,11,17,8,6,0.5,0.6
2025-03-16T1800,2459A,112.6197,26.8733,衡阳市,市委党校,,43,43,41,23,23,124,,114,114,14,17,9,9,0.6,0.7
2025-03-16T1800,2460A,112.6006,26.8919,衡阳市,市监测站,颗粒物(PM10),56,61,53,38,32,115,,107,107,16,17,9,8,0.7,0.6
2025-03-16T1800,2461A,112.5664,26.9056,衡阳市,真空机电公司,颗粒物(PM10),54,57,48,28,28,114,,107,107,12,12,5,6,0.4,0.4
2025-03-16T1800,3399A,112.6703,26.882,衡阳市,师范学院,颗粒物(PM10),51,52,44,32,31,121,,112,112,15,17,8,9,0.5,0.5
2025-03-16T1800,2608A,103.3772,23.3993,红河哈尼族彝族自治州,污水处理厂,,42,,62,29,51,55,,61,58,7,10,7,10,0.5,0.6
2025-03-16T1800,2609A,103.3861,23.35,红河哈尼族彝族自治州,监测站,,28,28,65,19,42,60,,70,62,7,11,8,13,0.6,0.7
2025-03-16T1800,3038A,103.3758,23.368,红河哈尼族彝族自治州,州图书馆,,32,,54,22,43,55,,65,57,7,10,5,8,0.5,0.5
2025-03-16T1800,1090A,111.6507,40.7517,呼和浩特市,呼市一监,颗粒物(PM10),59,68,23,16,12,98,,94,94,7,9,8,9,0.6,0.6
2025-03-16T1800,1091A,111.6572,40.8033,呼和浩特市,小召,颗粒物(PM10),71,92,29,15,11,81,,85,85,20,14,5,3,0.5,0.4
2025-03-16T1800,1094A,111.7516,40.8369,呼和浩特市,如意水处理厂,,31,31,22,12,11,81,,79,79,11,11,8,7,0.3,0.2
2025-03-16T1800,1095A,111.7276,40.8062,呼和浩特市,二十九中,,40,40,23,11,11,87,,84,84,11,10,5,4,0.6,0.6
2025-03-16T1800,1096A,111.5512,40.7866,呼和浩特市,工大金川校区,,46,46,24,12,10,82,,83,83,11,15,8,7,0.5,0.5
2025-03-16T1800,1097A,111.717,40.7612,呼和浩特市,化肥厂生活区,,45,45,25,14,11,89,,86,86,13,12,7,7,0.4,0.4
2025-03-16T1800,3698A,111.5968,40.8178,呼和浩特市,红旗小学,,48,48,23,11,10,91,,89,89,12,15,4,4,0.4,0.4
2025-03-16T1800,3699A,111.6518,40.8389,呼和浩特市,海东办,,36,36,20,11,11,85,,83,83,8,7,6,7,0.6,0.5
2025-03-16T1800,2192A,119.7594,49.2261,呼伦贝尔市,区环保局,,36,34,34,25,25,94,,91,91,14,17,7,7,0.4,0.4
2025-03-16T1800,3061A,119.7512,49.1577,呼伦贝尔市,国华电力东,,34,34,33,19,19,101,,99,99,7,8,4,4,0.4,0.4
2025-03-16T1800,1250A,120.0751,30.8669,湖州市,城西水厂,,30,28,56,18,39,94,,90,90,26,28,6,6,0.2,0.3
2025-03-16T1800,2873A,120.0830,30.8929,湖州市,仁皇山新区,,33,25,55,17,37,104,,96,96,14,23,4,4,0.3,0.5
2025-03-16T1800,2907A,120.1844,30.8596,湖州市,吴兴区站,,31,26,58,18,38,97,,89,89,15,21,5,5,0.3,0.4
2025-03-16T1800,3562A,120.4148,30.8538,湖州市,南浔区站,,34,27,61,18,37,107,,96,96,11,19,3,3,0.3,0.4
2025-03-16T1800,1607A,120.9049,40.7211,葫芦岛市,龙港区,,38,38,40,18,19,81,,85,85,13,21,8,14,0.4,0.5
2025-03-16T1800,1608A,120.8392,40.7514,葫芦岛市,化工街,,41,41,38,9,15,85,,90,90,14,22,9,24,0.4,0.4
2025-03-16T1800,1609A,120.8341,40.7073,葫芦岛市,新区,,41,41,37,15,19,92,,96,96,14,18,9,16,0.4,0.5
2025-03-16T1800,1610A,120.8695,40.7677,葫芦岛市,东城区,,36,36,33,17,14,84,,88,88,18,19,5,11,0.4,0.5
2025-03-16T1800,2482A,109.5981,27.5721,怀化市,林科所,,31,28,24,14,14,99,,98,98,6,6,6,8,0.8,0.7
2025-03-16T1800,2483A,109.9453,27.5444,怀化市,河西地税局,,44,44,39,24,24,82,,86,86,13,13,7,8,0.4,0.4
2025-03-16T1800,2484A,109.9781,27.5342,怀化市,市四医院,,42,42,41,20,22,88,,89,89,10,11,4,5,0.0,0.1
2025-03-16T1800,2485A,109.9972,27.5578,怀化市,监测楼,,42,42,39,26,22,89,,92,92,13,13,8,9,0.2,0.2
2025-03-16T1800,2486A,110.0394,27.583,怀化市,市委党校,,44,44,38,21,23,82,,84,84,10,11,8,8,0.2,0.3
2025-03-16T1800,1210A,119.036,33.5981,淮安市,钵池山,,30,27,49,21,31,94,,94,94,9,20,8,9,0.4,0.6
2025-03-16T1800,1211A,119.007,33.575,淮安市,北京南路,,,24,50,18,28,89,,90,90,,26,7,9,0.5,0.6
2025-03-16T1800,1212A,118.989,33.6067,淮安市,市监测站,,30,22,45,17,33,94,,95,95,15,29,7,8,0.4,0.6
2025-03-16T1800,1213A,119.135,33.5039,淮安市,楚州区监测站,,33,29,55,23,28,90,,90,90,13,24,8,7,0.6,0.7
2025-03-16T1800,3426A,118.8755,33.2894,淮安市,新华书店,,34,34,52,13,33,97,,96,96,9,16,7,8,0.4,0.6
2025-03-16T1800,4206A,119.0288,33.6319,淮安市,承德北路606号,,32,31,56,22,32,91,,92,92,15,27,6,8,0.5,0.6
2025-03-16T1800,2282A,116.8004,33.975,淮北市,监测站,,30,28,72,19,38,96,,93,93,11,14,5,6,0.6,0.7
2025-03-16T1800,2283A,116.8091,33.9007,淮北市,烈山区政府,,37,37,62,19,42,102,,100,100,11,16,4,4,0.6,0.6
2025-03-16T1800,3330A,116.8873,33.9836,淮北市,杜集区检察院,,48,48,75,17,42,95,,94,94,17,21,4,5,0.4,0.6
2025-03-16T1800,4017A,116.7923,33.9535,淮北市,市博物馆,,,,78,15,40,96,,94,94,,15,7,8,0.6,0.6
2025-03-16T1800,2277A,116.8305,32.7727,淮南市,潘集区政府,,31,31,83,15,55,97,,92,92,13,21,3,5,0.3,0.5
2025-03-16T1800,2279A,116.8569,32.5951,淮南市,谢家集区政府,,31,24,76,18,44,97,,92,92,4,11,5,7,0.3,0.4
2025-03-16T1800,2280A,116.8281,32.633,淮南市,八公山区政府,,30,24,74,7,38,95,,90,90,6,12,1,3,0.2,0.3
2025-03-16T1800,2281A,116.6325,32.6201,淮南市,焦岗湖风景区管理处,,24,16,59,11,33,76,,72,72,4,9,13,14,0,0.1
2025-03-16T1800,2894A,117.0566,32.6531,淮南市,经济技术开发区消防队,,33,33,82,18,48,101,,96,96,6,13,5,7,0.2,0.4
2025-03-16T1800,3329A,117.0108,32.5893,淮南市,山南新区,,32,23,74,8,43,101,,96,96,7,12,6,7,0.4,0.5
2025-03-16T1800,4209A,117.0031,32.6445,淮南市,国庆中路369号,,,,80,12,46,101,,95,95,10,18,4,6,0.4,0.5
2025-03-16T1800,2446A,114.9028,30.4742,黄冈市,职工中心,,33,26,41,23,28,100,,98,98,13,20,2,3,0.2,0.4
2025-03-16T1800,2929A,114.8858,30.4519,黄冈市,红卫路,,33,29,48,18,28,104,,104,104,7,15,4,5,0.2,0.4
2025-03-16T1800,3398A,114.9136,30.4445,黄冈市,市林业局,,36,29,47,25,29,99,,97,97,8,14,5,7,0.5,0.6
2025-03-16T1800,2672A,102.0199,35.5102,黄南藏族自治州,同仁县隆务镇,,48,48,48,13,24,100,,96,96,7,4,10,13,0.2,0.2
2025-03-16T1800,2295A,118.2903,29.6963,黄山市,延安路89号,,46,45,33,32,20,102,,89,89,9,8,3,3,0.1,0.2
2025-03-16T1800,2297A,118.1371,30.2756,黄山市,黄山区政府5号楼,,46,43,54,32,31,108,,94,94,8,8,8,7,0.5,0.5
2025-03-16T1800,4210A,118.3354,29.7203,黄山市,滨江东路7-2号,细颗粒物(PM2.5),57,55,36,40,22,100,,84,84,7,8,4,4,0.4,0.4
2025-03-16T1800,2423A,115.0601,30.2313,黄石市,沈家营,,34,31,49,14,23,108,,109,109,7,12,6,6,0.4,0.5
2025-03-16T1800,2426A,114.8988,30.2019,黄石市,铁山,,42,42,52,20,30,104,,104,104,6,10,8,11,0.9,1
2025-03-16T1800,2427A,115.0307,30.2092,黄石市,团城山,,40,40,48,10,22,104,,103,103,9,15,6,8,0.4,0.5
2025-03-16T1800,3149A,115.0235,30.1578,黄石市,笔架山北路,,35,29,42,14,26,111,,110,110,6,14,6,8,0.5,0.7
2025-03-16T1800,4185A,115.0780,30.21118,黄石市,磁湖东路29号,,36,28,49,18,28,114,,114,114,8,12,6,7,0.9,0.8
2025-03-16T1800,1392A,114.4183,23.0528,惠州市,河南岸金山湖子站,,28,13,7,6,4,88,,84,84,12,13,9,9,0.5,0.7
2025-03-16T1800,1393A,114.4053,23.0822,惠州市,下埔横江三路子站,,28,13,7,7,4,88,,85,85,9,10,9,8,0.5,0.7
2025-03-16T1800,1394A,114.4103,23.1142,惠州市,江北云山西路子站,,29,16,7,6,4,91,,88,88,9,10,8,9,0.4,0.5
2025-03-16T1800,1395A,114.4645,22.7833,惠州市,惠阳区承修路船湖子站,,26,19,10,7,4,82,,76,76,13,11,9,8,0.5,0.6
2025-03-16T1800,1396A,114.5317,22.7422,惠州市,大亚湾管委会子站,,27,15,7,3,2,86,,77,77,11,11,7,6,0.5,0.6
2025-03-16T1800,3314A,114.4338,22.8134,惠州市,惠阳秋长,,29,24,12,7,4,92,,87,87,10,8,7,6,0.4,0.6
2025-03-16T1800,3452A,114.6517,22.775,惠州市,大亚湾霞涌,,26,15,9,8,4,83,,77,77,11,12,5,5,0.6,0.7
2025-03-16T1800,2240A,130.9762,45.3001,鸡西市,环保局,,29,16,26,6,14,90,,91,91,7,10,5,7,0.3,0.4
2025-03-16T1800,2243A,130.9429,45.3039,鸡西市,第一中学,,30,20,21,12,12,93,,92,92,4,8,5,7,0.3,0.3
2025-03-16T1800,3707A,131.0207,45.3073,鸡西市,欧美日汽修厂,,30,21,34,21,20,95,,98,98,6,9,7,9,0.3,0.4
2025-03-16T1800,3709A,130.9967,45.3106,鸡西市,市政设施管理处,,26,26,32,10,13,79,,85,85,11,14,4,6,0.2,0.2
2025-03-16T1800,2367A,114.9754,27.0803,吉安市,红声器材厂,颗粒物(PM10),55,60,33,16,12,120,,111,111,13,16,8,10,0.5,0.6
2025-03-16T1800,2368A,114.9658,27.0999,吉安市,市森林工业局,颗粒物(PM10),52,53,25,26,13,115,,108,108,10,12,9,11,0.4,0.3
2025-03-16T1800,2369A,114.99,27.1312,吉安市,市环境监测站,颗粒物(PM10),53,55,27,21,13,119,,110,110,9,10,14,15,0.3,0.3
2025-03-16T1800,2370A,115.0093,27.0968,吉安市,青原区法院,颗粒物(PM10),54,57,32,23,15,128,,,,12,16,7,8,0.3,0.4
2025-03-16T1800,1772A,126.54,43.8622,吉林市,哈达湾,颗粒物(PM10),53,55,58,33,36,89,,88,88,12,21,8,16,0.5,0.6
2025-03-16T1800,1773A,126.5844,43.8358,吉林市,东局子,颗粒物(PM10),51,51,51,33,34,94,,92,92,14,18,66,26,0.5,0.6
2025-03-16T1800,1774A,126.5052,43.8245,吉林市,电力学院,细颗粒物(PM2.5),57,52,42,40,31,93,,94,94,13,15,6,8,0.2,0.4
2025-03-16T1800,1775A,126.6133,43.8972,吉林市,江北,颗粒物(PM10),55,60,49,36,32,95,,94,94,13,16,3,3,0.4,0.4
2025-03-16T1800,1776A,126.555,43.8306,吉林市,江南公园,细颗粒物(PM2.5),64,54,47,46,37,90,,91,91,16,20,6,10,0.5,0.7
2025-03-16T1800,1778A,126.7061,43.7133,吉林市,丰满,细颗粒物(PM2.5),60,46,33,43,28,113,,104,104,8,9,7,8,0.5,0.5
2025-03-16T1800,2868A,126.4739,43.953,吉林市,九站,细颗粒物(PM2.5),77,72,52,56,38,81,,87,87,24,28,18,18,0.7,0.7
2025-03-16T1800,1299A,116.9862,36.6114,济南市,科干所,,31,29,37,7,16,97,,94,94,7,16,5,5,0.3,0.4
2025-03-16T1800,1300A,116.9376,36.665,济南市,农科所,,37,37,45,3,14,98,,95,95,7,17,6,7,0.6,0.6
2025-03-16T1800,1301A,117.1265,36.6734,济南市,开发区,,30,27,32,10,22,95,,92,92,14,17,7,7,0.3,0.4
2025-03-16T1800,1303A,117.0624,36.6868,济南市,省种子仓库,,39,39,47,3,18,98,,95,95,7,16,4,4,0.5,0.6
2025-03-16T1800,1304A,116.9489,36.6447,济南市,机床二厂,,42,42,43,7,17,102,,98,98,12,21,7,7,0.6,0.6
2025-03-16T1800,1305A,117.0495,36.663,济南市,市监测站,,42,42,43,7,17,91,,88,88,10,19,7,8,0.3,0.4
2025-03-16T1800,1306A,116.7675,36.5484,济南市,长清党校,,39,39,46,20,19,102,,98,98,8,18,3,5,0.5,0.5
2025-03-16T1800,1616A,117.6795,36.229,济南市,技术学院,,31,31,36,7,24,97,,93,93,12,19,8,8,0.6,0.7
2025-03-16T1800,1961A,117.532,36.6868,济南市,东山小学,,42,42,44,7,20,98,,94,94,12,22,6,6,0.6,0.6
2025-03-16T1800,3059A,117.7161,36.2049,济南市,泰兴公司,,39,39,43,14,28,98,,95,95,12,18,7,7,0.6,0.8
2025-03-16T1800,3064A,117.6867,36.2171,济南市,莱芜战役纪念馆,,36,36,44,9,22,98,,95,95,14,21,4,4,0.5,0.6
2025-03-16T1800,3494A,117.1673,36.9782,济南市,济阳区政府,,39,39,43,7,18,88,,85,85,12,14,8,10,0.1,0.2
2025-03-16T1800,3495A,117.1171,36.63,济南市,锦屏中学,,32,32,35,3,15,95,,92,92,11,18,8,8,0.2,0.3
2025-03-16T1800,3682A,116.9814,36.6819,济南市,济南四建,,34,34,42,10,20,93,,92,92,12,17,4,4,0.3,0.3
2025-03-16T1800,1653A,116.6251,35.4302,济宁市,火炬城,,34,34,45,22,30,99,,96,96,10,14,7,8,0.4,0.6
2025-03-16T1800,1655A,116.5491,35.4042,济宁市,电化厂,颗粒物(PM10),51,51,66,24,36,99,,95,95,8,14,8,9,0.6,0.7
2025-03-16T1800,3500A,116.5814,35.3707,济宁市,北湖一中,,31,31,47,7,22,98,,94,94,11,17,7,8,0.4,0.5
2025-03-16T1800,3501A,116.8249,35.5593,济宁市,服务中心,,39,39,60,9,27,102,,100,100,13,19,4,6,0.6,0.6
2025-03-16T1800,3678A,116.5907,35.4054,济宁市,市第七中学,,40,40,50,12,25,102,,99,99,17,20,5,7,0.4,0.5
2025-03-16T1800,2255A,130.2751,46.8028,佳木斯市,佳纺,,23,12,27,9,11,73,,85,84,11,13,3,5,0.3,0.4
2025-03-16T1800,2256A,130.3995,46.8307,佳木斯市,发电厂,,25,21,14,7,9,80,,90,89,11,7,3,2,0.3,0.3
2025-03-16T1800,2257A,130.3258,46.7975,佳木斯市,环保局,,22,14,21,3,10,70,,87,86,23,15,4,3,0.3,0.2
2025-03-16T1800,2258A,130.3648,46.8032,佳木斯市,十一中,,21,21,19,9,11,67,,86,84,24,12,5,4,0.5,0.4
2025-03-16T1800,2259A,130.3794,46.7588,佳木斯市,四丰,,23,10,18,3,8,72,,81,81,5,9,1,1,0.6,0.6
2025-03-16T1800,1252A,120.7436,30.778,嘉兴市,清河小学,,,26,50,16,35,94,,83,83,11,21,,4,0.6,0.8
2025-03-16T1800,1253A,120.726,30.7478,嘉兴市,嘉兴学院,,33,31,49,15,32,104,,91,91,17,26,7,8,0.5,0.6
2025-03-16T1800,2872A,120.7846,30.7525,嘉兴市,南湖区残联,,40,40,43,15,32,107,,94,94,9,18,8,8,0.3,0.5
2025-03-16T1800,3407A,120.6916,30.7739,嘉兴市,秀洲住建,,49,,63,34,30,110,,94,94,10,19,4,5,0.2,0.7
2025-03-16T1800,1945A,98.2908,39.7711,嘉峪关市,气象局,颗粒物(PM10),64,78,43,31,16,111,,96,96,12,15,11,3,0.5,0.2
2025-03-16T1800,2884A,98.2672,39.7978,嘉峪关市,酒钢宾馆,颗粒物(PM10),65,80,42,36,17,96,,92,92,27,13,33,10,1.3,0.4
2025-03-16T1800,3248A,98.2643,39.7724,嘉峪关市,雄关区,颗粒物(PM10),57,64,40,29,19,110,,95,95,19,20,8,5,1.1,0.5
2025-03-16T1800,1383A,113.1064,22.6058,江门市,北街,,26,23,16,7,5,81,,72,72,22,21,3,4,0.5,0.6
2025-03-16T1800,1384A,113.0731,22.5835,江门市,西区,,26,20,13,3,4,83,,75,75,18,20,6,6,0.4,0.5
2025-03-16T1800,1385A,113.0219,22.5311,江门市,圭峰西,,25,24,14,3,4,77,,69,69,18,17,6,6,0.3,0.4
2025-03-16T1800,1386A,113.0828,22.5947,江门市,东湖,,28,14,9,11,9,87,,77,77,16,17,7,8,0.3,0.4
2025-03-16T1800,3311A,113.1075,22.5647,江门市,江海富民,,26,22,18,10,10,83,,74,74,15,17,7,7,0.3,0.4
2025-03-16T1800,3449A,113.05,22.4667,江门市,新会银湖,,25,21,15,8,6,79,,72,72,23,21,1,2,0.3,0.5
2025-03-16T1800,1830A,113.1992,35.2590,焦作市,影视城,,,,32,,10,,,,,,6,,10,,0.4
2025-03-16T1800,3169A,113.2725,35.2067,焦作市,太极体育中心,,48,48,72,12,37,91,,92,92,14,23,6,8,0.4,0.5
2025-03-16T1800,3335A,113.3137,35.2641,焦作市,马村街道办,,41,41,68,12,35,90,,92,92,18,22,6,8,0.4,0.5
2025-03-16T1800,3336A,113.2465,35.2373,焦作市,焦作技师学院,,41,41,64,9,30,98,,96,96,11,21,4,6,0.3,0.6
2025-03-16T1800,3477A,113.1656,35.2539,焦作市,中站许衡医院,,44,44,52,16,36,95,,97,97,16,20,8,7,0.4,0.5
2025-03-16T1800,3981A,113.2449,35.1803,焦作市,原李万街道办,颗粒物(PM10),51,52,71,3,30,96,,97,97,15,20,6,7,0.4,0.5
2025-03-16T1800,4264A,113.2340,35.2190,焦作市,新安路1731号,,41,41,74,12,35,95,,95,95,15,19,5,8,0.3,0.6
2025-03-16T1800,1708A,116.3701,23.5345,揭阳市,新兴,,25,9,9,9,9,80,,80,80,10,11,6,5,0.6,0.6
2025-03-16T1800,1709A,116.3264,23.5443,揭阳市,西马,,24,19,11,6,2,76,,80,80,13,8,7,7,0.4,0.5
2025-03-16T1800,1710A,116.3611,23.5626,揭阳市,东兴,,47,47,16,3,1,78,,78,78,7,10,4,5,0.5,0.7
2025-03-16T1800,1711A,116.4151,23.5294,揭阳市,渔湖,,23,23,13,6,4,67,,74,73,22,8,5,5,0.5,0.7
2025-03-16T1800,3320A,116.403,23.5699,揭阳市,曲溪,,25,11,8,9,7,79,,82,82,15,14,3,3,0.4,0.5
2025-03-16T1800,1944A,102.1692,38.5167,金昌市,天庆家园,,49,49,39,24,19,109,,96,96,6,12,8,23,0.8,0.8
2025-03-16T1800,4022A,102.1647,38.5371,金昌市,金川区人防中心,颗粒物(PM10),60,70,48,26,19,104,,89,89,6,11,11,17,0.6,0.6
2025-03-16T1800,4239A,102.1930,38.5319,金昌市,长春路96号,颗粒物(PM10),58,66,61,18,18,106,,92,92,7,14,8,43,0.2,0.7
2025-03-16T1800,1262A,119.647,29.077,金华市,十五中,颗粒物(PM10),51,51,29,25,19,94,,96,96,18,28,4,5,0.4,0.4
2025-03-16T1800,1263A,119.686,29.1029,金华市,监测站,,48,48,28,31,23,90,,94,94,14,25,4,4,0.4,0.4
2025-03-16T1800,3659A,119.656,29.1131,金华市,气象局,,50,50,30,33,21,93,,96,96,14,27,4,4,0.5,0.5
2025-03-16T1800,1767A,121.1115,41.0879,锦州市,南山,,34,34,33,17,16,89,,91,91,8,10,6,10,0.4,0.5
2025-03-16T1800,1768A,121.0604,40.8428,锦州市,开发区,,30,30,47,15,22,88,,92,92,9,22,9,21,0.4,0.6
2025-03-16T1800,1769A,121.1836,41.1119,锦州市,百股街道,,32,32,39,9,17,86,,90,90,8,15,7,10,0.5,0.6
2025-03-16T1800,1770A,121.1178,41.1222,锦州市,天安街道,,33,33,33,13,14,90,,93,93,13,11,7,11,0.5,0.5
2025-03-16T1800,1771A,121.1303,41.1386,锦州市,北湖公园,,28,25,32,16,14,87,,89,89,10,10,6,10,0.4,0.4
2025-03-16T1800,2160A,112.85,35.5051,晋城市,自来水公司,,33,33,39,7,10,90,,90,90,19,15,7,7,0.5,0.5
2025-03-16T1800,2161A,112.8318,35.4936,晋城市,白云商贸,颗粒物(PM10),52,53,45,3,4,99,,98,98,19,18,6,6,0.4,0.4
2025-03-16T1800,2162A,112.8508,35.4887,晋城市,市环保局,,,,41,7,11,94,,92,92,18,17,5,6,0.2,0.2
2025-03-16T1800,2163A,112.8676,35.4897,晋城市,技术学院,,43,43,43,3,7,87,,88,88,19,15,6,6,0.6,0.6
2025-03-16T1800,2165A,112.8453,35.546,晋城市,白马寺,,,,,,,,,,,,10,,5,,0.4
2025-03-16T1800,3620A,112.8271,35.4828,晋城市,泽州一中,,,,,,,80,,,,,,251,251,1.2,1.2
2025-03-16T1800,2173A,112.7249,37.7067,晋中市,南都小区,,34,34,32,14,17,86,,89,89,8,13,4,5,0.3,0.4
2025-03-16T1800,2174A,112.6991,37.6982,晋中市,榆次区政府,,34,34,29,15,16,88,,90,90,13,20,6,5,0.1,0.2
2025-03-16T1800,2865A,112.7195,37.6828,晋中市,榆次三中,,29,24,25,3,7,90,,90,90,9,17,3,4,0.1,0.2
2025-03-16T1800,4200A,112.7478,37.6954,晋中市,迎宾街26号,,29,24,26,3,9,91,,93,93,9,12,3,3,0.5,0.9
2025-03-16T1800,2439A,112.2014,31.0481,荆门市,竹园小学,,47,47,63,23,31,108,,104,104,12,16,5,4,0.0,0.2
2025-03-16T1800,2440A,112.1969,30.9891,荆门市,掇刀,,43,43,60,23,30,108,,105,105,9,12,5,4,0.3,0.3
2025-03-16T1800,2441A,112.2213,31.0386,荆门市,石化一小,,46,46,65,23,32,98,,94,94,12,19,9,9,0,0.2
2025-03-16T1800,3012A,112.1849,31.0362,荆门市,西山林语,,44,44,52,23,28,105,,102,102,13,13,5,5,0.2,0.2
2025-03-16T1800,3547A,112.1632,31.0138,荆门市,龙泉中学南校,,,55,62,16,31,,,98,98,9,12,7,6,0.3,0.4
2025-03-16T1800,1844A,112.2494,30.3197,荆州市,市图书馆,,45,45,53,26,40,104,,100,100,16,20,4,5,0.4,0.4
2025-03-16T1800,1845A,112.2008,30.3544,荆州市,市委党校,,42,42,59,28,42,112,,108,108,17,25,6,7,0.2,0.3
2025-03-16T1800,3194A,112.2747,30.3122,荆州市,管委会,,47,47,55,28,41,112,,106,106,16,19,8,9,0.2,0.3
2025-03-16T1800,4268A,112.1722,30.3366,荆州市,学苑路85号,,38,38,58,25,37,108,,105,105,8,15,5,6,0.4,0.5
2025-03-16T1800,2342A,117.3102,29.3867,景德镇市,王港中学,,,,,,,,,,,,,,,,
2025-03-16T1800,2343A,117.2117,29.2933,景德镇市,老干部活动中心,细颗粒物(PM2.5),52,51,32,36,27,98,,96,96,11,12,4,6,0.3,0.4
2025-03-16T1800,2344A,117.1894,29.2789,景德镇市,兽医站,颗粒物(PM10),51,51,44,28,18,82,,83,83,10,15,3,5,0.5,0.5
2025-03-16T1800,2345A,117.1547,29.2617,景德镇市,台达陶瓷,颗粒物(PM10),52,54,37,25,21,97,,92,92,13,24,12,36,0.5,0.5
2025-03-16T1800,2346A,117.2461,29.2956,景德镇市,陶研所,细颗粒物(PM2.5),59,52,28,42,26,102,,99,99,9,13,6,6,0.5,0.5
2025-03-16T1800,1803A,115.9872,29.6815,九江市,十里,颗粒物(PM10),54,57,41,34,25,101,,89,89,12,21,3,2,0.5,0.5
2025-03-16T1800,1804A,115.9584,29.7046,九江市,茅山头,颗粒物(PM10),53,56,41,31,24,101,,88,88,16,21,6,6,0.3,0.3
2025-03-16T1800,1805A,115.9877,29.7295,九江市,西园,,,52,41,24,28,105,,101,101,,25,6,15,0.5,0.9
2025-03-16T1800,1808A,115.9114,29.6038,九江市,综合工业园,细颗粒物(PM2.5),54,39,40,38,31,104,,95,95,19,32,6,8,0.5,0.6
2025-03-16T1800,1809A,116.0721,29.7535,九江市,石化总厂,细颗粒物(PM2.5),68,55,44,49,35,99,,92,92,20,28,4,6,0.4,0.5
2025-03-16T1800,1810A,115.9773,29.5698,九江市,庐山气象台,颗粒物(PM10),55,60,31,38,25,96,,90,90,7,7,6,6,0.7,0.6
2025-03-16T1800,3190A,116.0254,29.6994,九江市,外国语学校,细颗粒物(PM2.5),53,49,39,37,26,90,,80,80,16,27,6,8,0.4,0.5
2025-03-16T1800,4253A,116.0102,29.6594,九江市,莲花大道8号,"颗粒物(PM10),细颗粒物(PM2.5)",55,60,57,39,33,98,,85,85,12,16,10,7,0.4,0.5
2025-03-16T1800,4240A,98.4958,39.7339,酒泉市,玉门东路5号,颗粒物(PM10),65,80,53,21,22,114,,98,98,5,9,10,7,0.4,0.4
2025-03-16T1800,4241A,98.5099,39.7506,酒泉市,北大街108号,颗粒物(PM10),60,70,44,22,20,97,,86,86,8,11,12,8,0.4,0.4
2025-03-16T1800,2698A,76.0072,39.4467,喀什地区,巡警大队,颗粒物(PM10),402,502,621,119,155,95,,72,72,11,44,3,5,0.3,0.9
2025-03-16T1800,2699A,75.9755,39.4694,喀什地区,吾办,颗粒物(PM10),407,507,646,152,195,96,,71,71,9,39,3,3,0.4,1
2025-03-16T1800,4027A,75.9483,39.4689,喀什地区,老干局,颗粒物(PM10),462,562,715,121,166,92,,63,63,16,40,2,4,0.4,1
2025-03-16T1800,1824A,114.3389,34.7781,开封市,肿瘤医院,,30,26,51,13,32,96,,94,94,13,15,6,6,0.6,0.7
2025-03-16T1800,1826A,114.2885,34.7965,开封市,世纪星幼儿园,,38,38,49,12,31,103,,101,101,15,18,7,7,0.7,0.8
2025-03-16T1800,3147A,114.3438,34.8106,开封市,龙亭公园,颗粒物(PM10),56,61,48,10,25,97,,94,94,24,18,3,3,0.4,0.4
2025-03-16T1800,3210A,114.3644,34.7964,开封市,汴京公园,,39,39,59,10,31,104,,100,100,13,16,5,5,0.5,0.7
2025-03-16T1800,3473A,114.2485,34.8306,开封市,技师学院,,32,32,53,10,31,93,,89,89,17,22,6,6,0.6,0.8
2025-03-16T1800,3592A,114.4644,34.7556,开封市,祥符区生态环境局,,36,36,66,12,32,95,,95,95,17,18,4,7,0.3,0.7
2025-03-16T1800,1951A,84.895,45.6094,克拉玛依市,长征新村,,37,37,32,3,9,81,,79,76,14,16,7,6,0.2,0.3
2025-03-16T1800,1952A,84.8988,45.5893,克拉玛依市,南林小区,,36,36,31,10,13,78,,75,75,4,11,4,3,0.5,0.6
2025-03-16T1800,1954A,84.905,44.3396,克拉玛依市,独山子区,,34,22,26,20,22,108,,100,100,7,9,6,6,0.2,0.2
2025-03-16T1800,1955A,85.6979,46.098,克拉玛依市,乌尔禾区商贸楼,,35,35,27,9,6,92,,78,78,7,7,6,4,0.4,0.4
2025-03-16T1800,3612A,85.1045,45.6899,克拉玛依市,白碱滩区新站,,31,31,29,3,7,77,,83,55,6,14,8,7,0.3,0.4
2025-03-16T1800,2697A,76.1454,39.7142,克孜勒苏柯尔克孜自治州,市人民政府,颗粒物(PM10),416,516,609,143,172,102,,87,87,3,13,4,4,0.4,0.5
2025-03-16T1800,3665A,76.1658,39.7157,克孜勒苏柯尔克孜自治州,克州文化中心,颗粒物(PM10),436,536,596,130,147,103,,89,89,1,16,4,4,0.3,0.4
2025-03-16T1800,1450A,102.8204,24.8886,昆明市,呈贡新区,,46,,35,32,34,60,,55,55,12,12,4,5,0.7,0.6
2025-03-16T1800,1451A,102.6251,24.9608,昆明市,西山森林公园,,,,,,,,,,,,,,,,
2025-03-16T1800,1452A,102.7252,25.0902,昆明市,龙泉镇,,35,26,33,24,28,52,,44,44,18,16,6,7,0.7,0.7
2025-03-16T1800,1453A,102.7266,25.0375,昆明市,东风东路,细颗粒物(PM2.5),54,43,43,38,32,56,,46,46,19,20,6,7,0.7,0.7
2025-03-16T1800,1454A,102.6742,25.0669,昆明市,金鼎山,,46,46,39,24,30,67,,49,49,18,19,7,4,0.8,0.8
2025-03-16T1800,1455A,102.6644,25.0401,昆明市,碧鸡广场,,38,34,44,26,33,59,,48,48,25,21,5,6,0.5,0.5
2025-03-16T1800,3179A,102.7494,25.0119,昆明市,官渡区博物馆,,45,45,40,31,32,54,,46,46,20,22,7,7,0.6,0.7
2025-03-16T1800,3375A,102.8017,24.8336,昆明市,青年创业园,,40,37,45,28,31,76,,74,74,12,11,6,6,0.5,0.5
2025-03-16T1800,3550A,102.7997,24.9786,昆明市,昆明学院,,37,37,50,25,36,57,,51,51,15,18,4,5,0.5,0.6
2025-03-16T1800,3551A,102.5967,24.6736,昆明市,晋宁区生态环境分局,,,39,36,31,30,108,,87,87,,14,8,7,0.7,0.6
2025-03-16T1800,3552A,102.6678,24.9856,昆明市,云天化总部,,36,36,46,19,33,58,,52,52,23,21,6,6,0.7,0.6
2025-03-16T1800,1456A,91.1319,29.6514,拉萨市,八廓街,,36,14,21,7,9,115,,117,117,9,19,7,6,0.5,0.9
2025-03-16T1800,1457A,91.1221,29.6747,拉萨市,市环保局,,35,19,27,3,12,109,,111,111,11,23,8,8,0.6,0.7
2025-03-16T1800,1458A,91.0874,29.6475,拉萨市,区监测站,,35,10,22,6,11,112,,112,112,9,29,6,6,0.2,0.3
2025-03-16T1800,1459A,91.1774,29.6541,拉萨市,西藏大学,,34,18,20,9,8,106,,106,106,11,16,7,6,0.4,0.4
2025-03-16T1800,1460A,90.9798,29.6588,拉萨市,区辐射站,,35,22,33,7,13,112,,111,111,9,20,7,7,0.4,0.5
2025-03-16T1800,1461A,91.0834,29.6292,拉萨市,拉萨火车站,,36,12,17,3,8,114,,115,115,6,13,3,3,0.2,0.4
2025-03-16T1800,2520A,109.2203,23.7256,来宾市,来宾技工学校,,44,44,23,22,6,113,,102,102,10,9,6,8,0.7,0.7
2025-03-16T1800,3535A,109.1781,23.7297,来宾市,兴宾区政府,,44,44,21,26,13,107,,99,99,10,6,6,6,0.6,0.6
2025-03-16T1800,4002A,109.2416,23.7461,来宾市,中南小学,,44,44,26,12,10,114,,105,105,10,8,9,10,0.5,0.5
2025-03-16T1800,1477A,104.1373,35.9454,兰州市,榆中兰大校区,,,,,,,,,,,,,,,,
2025-03-16T1800,1479A,103.831,36.0464,兰州市,铁路设计院,颗粒物(PM10),52,53,68,24,22,96,,76,76,34,31,8,12,0.6,0.6
2025-03-16T1800,3241A,103.7439,36.0842,兰州市,百合公园,颗粒物(PM10),55,59,66,32,27,120,,110,110,14,14,9,13,0.4,0.6
2025-03-16T1800,3242A,103.9611,35.998,兰州市,和平,颗粒物(PM10),58,66,70,27,25,102,,90,90,15,14,10,8,0.4,0.4
2025-03-16T1800,4236A,103.6293,36.0938,兰州市,庄浪东路808号,细颗粒物(PM2.5),60,64,70,43,32,142,,128,128,16,18,10,14,0.5,0.4
2025-03-16T1800,4237A,103.7251,36.1043,兰州市,安宁西路88号,细颗粒物(PM2.5),62,71,80,44,38,136,,126,126,18,14,9,17,0.5,0.5
2025-03-16T1800,4238A,103.8470,36.0676,兰州市,北滨河东路1号,颗粒物(PM10),51,52,64,35,31,103,,83,83,21,28,11,14,0.6,0.7
2025-03-16T1800,3245A,103.6633,36.533,兰州新区,新区管委会,,45,45,51,29,28,113,,101,101,9,12,19,12,0.5,0.5
2025-03-16T1800,3246A,103.6975,36.4789,兰州新区,舟曲中学,颗粒物(PM10),58,66,71,26,23,105,,95,95,8,10,9,13,0.5,0.5
2025-03-16T1800,1067A,116.6708,39.5111,廊坊市,药材公司,,29,13,23,3,13,91,,88,88,9,20,2,2,0.3,0.3
2025-03-16T1800,1068A,116.7214,39.5589,廊坊市,开发区,,,13,20,12,15,96,,92,92,,15,2,2,0.2,0.3
2025-03-16T1800,1070A,116.7244,39.5269,廊坊市,北华航天学院,,29,17,21,6,13,90,,88,88,12,16,3,3,0.2,0.3
2025-03-16T1800,2919A,116.7022,39.5453,廊坊市,河北工业大学,,30,21,19,6,14,94,,90,90,5,15,4,4,0.3,0.3
2025-03-16T1800,2535A,103.7723,29.5462,乐山市,花湖湾,,30,30,28,15,15,35,,52,44,40,23,4,4,0.3,0.3
2025-03-16T1800,2536A,103.7627,29.5844,乐山市,牛耳桥,,34,34,30,17,16,56,,53,53,24,26,7,9,0.4,0.4
2025-03-16T1800,2537A,103.7508,29.6006,乐山市,市第三水厂,,33,33,30,15,15,59,,57,57,21,22,3,4,0.4,0.5
2025-03-16T1800,2538A,103.7571,29.5664,乐山市,市监测站,,27,27,25,16,16,56,,52,51,17,15,4,4,0.6,0.6
2025-03-16T1800,3361A,103.7311,29.5628,乐山市,理工大学,,,29,26,16,15,60,,54,54,,18,7,7,0.2,0.3
2025-03-16T1800,2598A,100.2143,26.8576,丽江市,西南郊,,30,22,33,15,22,93,,86,74,6,13,6,5,1.1,1.1
2025-03-16T1800,2599A,100.2497,26.8802,丽江市,丽江古城,,28,26,35,19,21,76,,78,59,15,19,8,8,0.8,0.8
2025-03-16T1800,2600A,100.2203,26.8906,丽江市,市中心,,24,19,20,16,17,76,,77,68,14,16,6,7,0.9,0.8
2025-03-16T1800,1267A,119.914,28.4514,丽水市,监测站大楼,,49,49,19,30,9,90,,102,102,11,11,3,3,0.3,0.3
2025-03-16T1800,1268A,119.93,28.4586,丽水市,莲都小学,颗粒物(PM10),54,58,21,35,13,92,,103,103,8,9,3,3,0.4,0.3
2025-03-16T1800,1269A,119.879,28.4231,丽水市,余庄前,颗粒物(PM10),55,59,22,38,14,91,,103,103,12,14,4,4,0.4,0.3
2025-03-16T1800,1173A,119.176,34.5885,连云港市,市环境监测站,,31,22,40,12,19,99,,96,96,11,17,9,9,0.6,0.6
2025-03-16T1800,3000A,119.3581,34.6972,连云港市,德源药业,,29,29,44,12,20,89,,89,89,14,21,9,9,0.3,0.5
2025-03-16T1800,3007A,119.178,34.844,连云港市,新城一中,,39,39,45,14,27,91,,90,90,14,21,8,9,0.5,0.6
2025-03-16T1800,3008A,119.3608,34.7519,连云港市,胡沟管理处,,31,19,32,9,17,98,,95,95,10,21,9,11,0.6,0.7
2025-03-16T1800,3009A,119.1478,34.5911,连云港市,矿山设计院,,31,24,40,14,21,97,,94,94,12,21,9,10,0.3,0.4
2025-03-16T1800,3434A,119.2413,34.6539,连云港市,工贸学校,,29,24,43,14,24,92,,92,92,12,15,9,10,0.3,0.5
2025-03-16T1800,3664A,119.4172,34.7341,连云港市,连云街道,,38,38,52,19,23,78,,83,83,26,25,10,9,0.6,0.7
2025-03-16T1800,2571A,102.3431,27.8099,凉山彝族自治州,青龙寺,,14,10,8,3,3,44,,59,58,14,7,5,5,0.9,0.8
2025-03-16T1800,2572A,102.2721,27.8415,凉山彝族自治州,邛海宾馆,,18,6,8,6,5,55,,66,63,16,10,12,13,0.6,0.6
2025-03-16T1800,2573A,102.2625,27.898,凉山彝族自治州,西昌市政府,,38,,11,26,9,35,,47,46,23,11,8,7,0.8,0.6
2025-03-16T1800,2574A,102.2685,27.8851,凉山彝族自治州,凉山州政府,,21,21,11,13,7,49,,54,53,19,12,7,6,0.8,0.7
2025-03-16T1800,4229A,102.2342,27.8859,凉山彝族自治州,凯乐南路30号,,24,24,13,13,6,32,,57,44,35,15,7,8,0.5,0.4
2025-03-16T1800,2212A,123.2,41.1953,辽阳市,宏伟区,,47,47,44,29,31,101,,104,104,8,16,9,11,0.5,0.7
2025-03-16T1800,2213A,123.1683,41.2495,辽阳市,新华园,,46,37,45,32,32,88,,93,93,13,21,9,13,0.7,0.8
2025-03-16T1800,2214A,123.2354,41.2639,辽阳市,滨河路,,42,41,45,29,34,99,,101,101,3,16,6,9,0.4,0.5
2025-03-16T1800,2215A,123.149,41.2991,辽阳市,铁西工业园,颗粒物(PM10),51,52,50,34,38,86,,96,96,15,23,8,9,0.5,0.6
2025-03-16T1800,2227A,125.1358,42.8845,辽源市,环保局,细颗粒物(PM2.5),75,77,69,55,35,103,,99,99,12,15,3,4,0.7,0.6
2025-03-16T1800,3239A,125.0764,42.9078,辽源市,银鹰制药,细颗粒物(PM2.5),82,70,49,60,34,110,,107,107,14,19,6,7,0.8,0.7
2025-03-16T1800,1625A,115.9848,36.4372,聊城市,区政府,,,,42,,21,95,,92,92,12,12,7,10,0.4,0.5
2025-03-16T1800,2878A,116.0072,36.4343,聊城市,聊大东校,,29,27,44,9,23,92,,89,89,14,14,8,8,0.6,0.5
2025-03-16T1800,3200A,115.9819,36.4978,聊城市,监控中心,,30,25,43,3,22,94,,90,90,9,16,10,11,0.4,0.5
2025-03-16T1800,3513A,116.0445,36.4361,聊城市,九州社区,,33,33,43,3,20,99,,96,96,2,8,9,10,0.4,0.5
2025-03-16T1800,4018A,116.0567,36.4608,聊城市,星美广场,,30,28,47,6,20,96,,93,93,6,12,10,12,0.3,0.4
2025-03-16T1800,2632A,94.3681,29.6376,林芝市,林芝监测站,,,66,17,12,7,100,,100,100,5,6,4,4,,0.3
2025-03-16T1800,2633A,94.3616,29.6616,林芝市,林芝人民医院,,46,46,17,11,7,95,,95,95,2,3,7,7,0.3,0.3
2025-03-16T1800,2603A,100.0781,23.8982,临沧市,市环保局,颗粒物(PM10),56,62,59,36,35,130,,118,118,9,13,11,10,0.5,0.5
2025-03-16T1800,2604A,100.0894,23.8822,临沧市,市气象局,颗粒物(PM10),52,54,55,34,37,135,,121,121,10,16,10,9,0.3,0.5
2025-03-16T1800,1733A,111.5531,36.0783,临汾市,临钢医院,,30,11,35,3,6,96,,90,90,1,9,3,2,0.3,0.3
2025-03-16T1800,1734A,111.5028,36.0714,临汾市,技工学校,,32,32,32,12,12,94,,89,89,7,9,4,6,0.3,0.3
2025-03-16T1800,1736A,111.5018,36.0855,临汾市,市委,,,27,35,3,4,96,,91,91,,3,1,2,0.3,0.3
2025-03-16T1800,3018A,111.505,36.1014,临汾市,唐尧大酒店,,30,29,44,9,6,94,,90,90,6,9,4,6,0.3,0.4
2025-03-16T1800,4244A,111.4879,36.0530,临汾市,启星学校,,30,14,28,8,11,94,,90,90,6,7,2,3,0.3,0.4
2025-03-16T1800,4271A,103.2464,35.6123,临夏回族自治州,滨河东路1号,颗粒物(PM10),53,56,52,15,14,113,,98,98,7,7,4,5,0.5,0.4
2025-03-16T1800,4310A,103.2093,35.5995,临夏回族自治州,新华街21号,,43,43,42,14,12,98,,84,84,12,15,9,11,0.4,0.4
2025-03-16T1800,1618A,118.3429,35.0532,临沂市,沂河小区,颗粒物(PM10),51,51,46,15,28,86,,88,88,11,10,10,10,0.5,0.5
2025-03-16T1800,1619A,118.295,35.0583,临沂市,鲁南制药厂,,46,46,43,19,28,92,,96,96,18,18,7,7,0.5,0.6
2025-03-16T1800,1620A,118.2794,34.9976,临沂市,新光毛纺厂,,36,36,39,18,26,89,,89,89,16,18,6,6,0.5,0.6
2025-03-16T1800,1621A,118.3956,35.0888,临沂市,河东保险公司,,39,39,38,14,22,96,,96,96,18,18,4,4,0.2,0.2
2025-03-16T1800,3370A,118.3564,35.0215,临沂市,十里堡居委,,41,41,37,12,22,94,,96,96,17,16,8,8,0.4,0.5
2025-03-16T1800,3496A,118.3604,35.1084,临沂市,南坊新区,,48,48,42,22,25,94,,94,94,11,14,5,5,0.4,0.5
2025-03-16T1800,3860A,118.3920,35.0300,临沂市,皇山花园小区,,46,46,40,14,23,94,,95,95,11,11,4,5,0.2,0.3
2025-03-16T1800,1870A,109.4856,24.3895,柳州市,柳东小学,,41,41,22,24,14,105,,96,96,12,10,10,9,0.3,0.3
2025-03-16T1800,1871A,109.4157,24.3277,柳州市,环保监测站,,49,49,25,24,13,109,,100,100,9,9,10,9,0.4,0.4
2025-03-16T1800,1872A,109.389,24.341,柳州市,河西水厂,,48,48,28,27,16,107,,94,94,10,14,3,6,0.4,0.8
2025-03-16T1800,1873A,109.4311,24.2921,柳州市,市四中,颗粒物(PM10),51,52,24,13,7,111,,103,103,11,8,8,8,0.4,0.4
2025-03-16T1800,1874A,109.4006,24.3631,柳州市,市九中,,42,42,28,24,15,110,,97,97,7,9,8,7,0.5,0.5
2025-03-16T1800,1875A,109.4958,24.3134,柳州市,古亭山,,47,47,22,12,8,112,,103,103,7,5,7,6,0.3,0.3
2025-03-16T1800,3402A,109.5422,24.3996,柳州市,市二中,,44,44,24,20,16,115,,108,108,11,9,10,9,0.3,0.3
2025-03-16T1800,2307A,116.5079,31.737,六安市,监测大楼,,31,20,53,11,31,99,,90,90,12,18,5,4,0.5,0.6
2025-03-16T1800,2308A,116.4738,31.7643,六安市,皖西学院,,33,15,41,12,17,103,,98,98,11,16,4,4,0.3,0.3
2025-03-16T1800,2309A,116.4996,31.7905,六安市,朝阳厂,,35,20,53,19,29,112,,102,102,12,17,3,3,0.5,0.5
2025-03-16T1800,2310A,116.5567,31.7886,六安市,开发区,,32,21,64,21,38,102,,97,97,14,19,3,3,0.4,0.5
2025-03-16T1800,2576A,104.8,26.5892,六盘水市,窑上,,,,21,20,15,55,,51,49,14,9,5,5,0.6,0.6
2025-03-16T1800,2577A,104.83,26.5917,六盘水市,黄土坡,,32,32,14,18,9,52,,63,49,29,14,9,10,0.7,0.5
2025-03-16T1800,2578A,104.89,26.5939,六盘水市,水钢,,48,48,26,33,19,73,,55,54,14,16,7,9,0.5,0.6
2025-03-16T1800,2579A,104.8475,26.5894,六盘水市,民中,,39,,14,27,9,63,,56,50,19,16,9,8,0.6,0.5
2025-03-16T1800,2580A,104.9544,26.5506,六盘水市,双水,,26,24,12,14,11,81,,64,59,14,11,8,8,0.6,0.6
2025-03-16T1800,2335A,117.0189,25.1181,龙岩市,龙岩师专,,,,,,,,,,,,,,,,
2025-03-16T1800,2336A,117.0217,25.1033,龙岩市,龙岩市监测站,,25,20,7,8,2,79,,79,79,9,9,3,5,0.3,0.4
2025-03-16T1800,2337A,117.0258,25.0661,龙岩市,闽西职业技术学院,,26,13,6,3,3,82,,82,82,7,7,3,3,0.3,0.4
2025-03-16T1800,2338A,117.0196,25.0306,龙岩市,龙岩学院,,25,,7,12,4,78,,80,80,7,5,3,3,0.4,0.5
2025-03-16T1800,2665A,105.0822,33.3261,陇南市,汉王镇固水子,,,,,,,,,,,,,,,,
2025-03-16T1800,2885A,104.9339,33.3826,陇南市,滨江中学,颗粒物(PM10),51,51,49,15,18,78,,79,77,6,3,5,5,0.3,0.3
2025-03-16T1800,3247A,104.955,33.371,陇南市,市总工会,颗粒物(PM10),51,52,47,20,17,80,,81,79,5,2,6,6,0.5,0.4
2025-03-16T1800,2487A,111.9589,27.8901,娄底市,电视发射台,颗粒物(PM10),61,72,46,32,28,110,,104,104,10,8,6,6,0.6,0.5
2025-03-16T1800,2488A,111.9975,27.725,娄底市,市监测站,颗粒物(PM10),58,65,56,29,32,99,,95,95,13,22,7,9,0.5,0.6
2025-03-16T1800,2489A,112.0194,27.7314,娄底市,市委党校,颗粒物(PM10),58,65,57,27,33,109,,104,104,12,18,4,3,0.5,0.5
2025-03-16T1800,2490A,111.9561,27.7569,娄底市,涟钢,颗粒物(PM10),63,76,54,36,30,102,,100,100,19,13,8,6,2.8,1.1
2025-03-16T1800,2491A,111.9892,27.7044,娄底市,市政府,颗粒物(PM10),55,60,45,31,28,106,,103,103,9,10,5,6,0.3,0.3
2025-03-16T1800,1893A,105.4324,28.9634,泸州市,九狮山,,,,,,,,,,,,,,,,
2025-03-16T1800,1894A,105.4427,28.9063,泸州市,小市上码头,,28,22,29,19,20,52,,50,50,17,18,5,6,0.4,0.5
2025-03-16T1800,1895A,105.4241,28.8573,泸州市,兰田宪桥,,29,25,25,20,20,40,,44,44,28,14,5,6,0.3,0.4
2025-03-16T1800,1896A,105.4379,28.8833,泸州市,市环监站,,,,,,,,,,,,,,,,
2025-03-16T1800,4272A,105.3689,28.7783,泸州市,纳溪中医医院,,24,24,26,10,17,59,,54,54,10,12,4,5,0.3,0.5
2025-03-16T1800,2183A,111.1406,37.5211,吕梁市,环保局,,27,23,40,16,14,86,,87,87,12,18,3,3,0.3,0.2
2025-03-16T1800,2185A,111.1297,37.5136,吕梁市,自来水公司,,25,16,34,13,13,79,,80,80,11,15,1,3,0.3,0.3
2025-03-16T1800,2867A,111.1283,37.51,吕梁市,马茂庄小学,,29,20,41,10,13,90,,90,90,9,18,2,4,0.2,0.2
2025-03-16T1800,1812A,112.3931,34.6516,洛阳市,市委党校,,40,40,41,11,16,93,,87,87,11,16,4,4,0.3,0.3
2025-03-16T1800,1815A,112.494,34.6886,洛阳市,河南林校,,39,39,48,16,21,94,,90,90,10,13,3,3,0.5,0.5
2025-03-16T1800,1816A,112.3844,34.623,洛阳市,开发区管委会,,31,31,42,13,18,96,,91,91,12,16,5,5,0.5,0.5
2025-03-16T1800,1817A,112.4267,34.6258,洛阳市,市委新办公区,,32,30,45,13,21,101,,94,94,10,16,4,4,0.2,0.3
2025-03-16T1800,3340A,112.6005,34.6326,洛阳市,伊滨,,34,26,54,17,35,106,,100,100,9,21,5,5,0.6,0.7
2025-03-16T1800,3341A,112.4951,34.6332,洛阳市,中移产业园,,46,46,62,25,37,96,,91,91,10,17,6,6,0.1,0.3
2025-03-16T1800,3593A,112.5736,34.8993,洛阳市,吉利监测站,,30,30,42,13,15,95,,90,90,11,15,6,5,0.4,0.5
2025-03-16T1800,3635A,112.3677,34.662,洛阳市,河科大西苑校区,,37,37,44,12,16,98,,90,90,6,13,6,6,0.3,0.3
2025-03-16T1800,3636A,112.4388,34.6781,洛阳市,英才小学,,31,31,45,8,18,99,,94,94,17,18,7,7,0.2,0.3
2025-03-16T1800,4214A,112.4600,34.6949,洛阳市,春都路1号院,颗粒物(PM10),51,51,57,13,20,100,,97,97,15,18,6,6,0.3,0.4
2025-03-16T1800,2399A,114.051,33.5699,漯河市,三五一五工厂,,42,42,67,22,46,97,,94,94,10,18,5,4,0.4,0.5
2025-03-16T1800,2400A,114.0055,33.5698,漯河市,漯河大学,,47,47,76,17,43,96,,92,92,14,20,6,5,0.3,0.4
2025-03-16T1800,2401A,114.0138,33.5828,漯河市,市水利局,,39,39,70,19,43,96,,93,93,10,14,4,4,0.5,0.5
2025-03-16T1800,2402A,114.0261,33.5698,漯河市,市广电局,,39,39,66,15,40,96,,92,92,12,17,5,4,0.3,0.4
2025-03-16T1800,3478A,113.9749,33.5664,漯河市,市图书馆,,39,39,80,14,43,96,,94,94,16,22,6,6,0.4,0.5
2025-03-16T1800,4250A,114.0892,33.5882,漯河市,韶山路11号,,45,45,75,21,45,103,,100,100,15,20,5,5,0.3,0.4
2025-03-16T1800,1798A,118.5092,31.6837,马鞍山市,湖东路四小,,31,24,57,8,32,99,,99,99,10,25,5,11,0.5,0.8
2025-03-16T1800,1799A,118.5024,31.6449,马鞍山市,开发区,,31,25,55,9,35,97,,100,100,16,28,10,6,0.8,0.7
2025-03-16T1800,1802A,118.6245,31.7241,马鞍山市,濮塘,,34,23,52,14,33,107,,107,107,5,20,6,8,0.5,0.6
2025-03-16T1800,3633A,118.4918,31.6809,马鞍山市,雨山,,29,28,59,10,34,90,,94,94,14,27,14,14,1.1,1.3
2025-03-16T1800,4191A,118.5274,31.72227,马鞍山市,慈湖高新区,,31,19,57,16,40,97,,99,99,16,27,11,8,0.5,0.6
2025-03-16T1800,1686A,111.0286,21.4688,茂名市,电白南海,,46,46,28,22,17,53,,62,62,29,9,4,4,0.8,0.9
2025-03-16T1800,1687A,110.9294,21.6533,茂名市,茂石化七小,,27,27,19,12,11,70,,72,72,10,7,3,3,0.4,0.6
2025-03-16T1800,1688A,110.9107,21.6687,茂名市,健康路,,,,16,,10,61,,68,68,14,9,4,7,0.4,0.5
2025-03-16T1800,1689A,110.8592,21.6828,茂名市,高岭,,31,31,23,12,7,59,,61,61,12,9,6,10,0.7,0.5
2025-03-16T1800,3450A,111.01,21.5165,茂名市,电白水东,,29,29,19,19,11,61,,64,64,13,11,4,8,0.9,1
2025-03-16T1800,2539A,104.0308,30.0478,眉山市,黑龙滩水库,颗粒物(PM10),53,55,48,24,25,78,,69,69,2,7,3,3,0.4,0.5
2025-03-16T1800,2540A,103.8416,30.0874,眉山市,气象局,,,,36,,20,,,62,,,19,,5,,0.5
2025-03-16T1800,3137A,103.8578,30.0744,眉山市,市委党校,,,48,34,19,17,70,,63,63,19,21,6,6,,0.5
2025-03-16T1800,3148A,103.8291,30.0564,眉山市,区人社局,,41,41,38,14,14,71,,62,62,23,24,4,4,0.3,0.4
2025-03-16T1800,1690A,116.1231,24.3284,梅州市,梅江月梅,,27,10,7,9,3,86,,82,82,6,6,9,9,0.4,0.5
2025-03-16T1800,1691A,116.0797,24.2719,梅州市,梅县新城,,27,14,7,8,2,86,,84,84,9,8,5,5,0.5,0.6
2025-03-16T1800,1692A,116.1248,24.2654,梅州市,环境监控中心,,27,8,6,6,4,84,,80,80,9,9,6,6,0.4,0.5
2025-03-16T1800,3315A,116.1233,24.2991,梅州市,梅龙,,27,17,9,3,3,86,,83,83,8,7,6,6,0.7,0.8
2025-03-16T1800,1878A,104.7778,31.4741,绵阳市,富乐山,,36,36,40,17,18,85,,84,84,7,11,2,2,0.3,0.3
2025-03-16T1800,1880A,104.6697,31.4668,绵阳市,高新区自来水公司,,37,37,45,12,17,84,,81,81,10,18,2,2,0.2,0.2
2025-03-16T1800,1881A,104.7287,31.5075,绵阳市,三水厂,,34,34,48,14,21,92,,92,92,6,17,5,5,0.3,0.4
2025-03-16T1800,3491A,104.69,31.5322,绵阳市,西科大附属小学,,40,40,46,17,18,84,,86,86,11,20,6,6,0.2,0.3
2025-03-16T1800,3492A,104.5648,31.5343,绵阳市,安州区旅游局,,30,30,44,19,18,85,,82,82,8,17,7,6,0.2,0.3
2025-03-16T1800,4226A,104.7651,31.4531,绵阳市,绵阳市气象局,,40,40,43,16,16,76,,78,76,10,14,8,6,0.3,0.3
2025-03-16T1800,1784A,129.61,44.561,牡丹江市,环保大楼,,35,35,28,21,21,78,,85,85,15,14,5,6,0.3,0.3
2025-03-16T1800,1785A,129.6115,44.5782,牡丹江市,文化广场,,38,31,33,26,25,80,,84,84,13,11,8,11,0.3,0.3
2025-03-16T1800,1786A,129.5904,44.5963,牡丹江市,第一医院,,27,27,25,14,19,84,,87,87,10,9,8,10,0.3,0
2025-03-16T1800,1787A,129.6364,44.6075,牡丹江市,机车工厂,,30,27,32,21,16,82,,88,88,6,7,33,16,0.4,0.3
2025-03-16T1800,1788A,129.6386,44.5462,牡丹江市,第一中学,,28,17,24,14,20,88,,92,92,5,9,7,8,0.3,0.3
2025-03-16T1800,2531A,105.0703,29.61,内江市,市监测站,,25,25,35,12,22,79,,66,66,12,19,5,5,0.7,0.9
2025-03-16T1800,2532A,105.0717,29.5947,内江市,东兴区政府,,27,27,32,9,16,75,,63,63,12,19,3,2,0.2,0.3
2025-03-16T1800,2533A,105.0653,29.5817,内江市,内江二中,,25,22,38,12,18,78,,65,65,11,20,5,6,0.5,0.6
2025-03-16T1800,2534A,105.0406,29.5822,内江市,内江日报社,,34,34,38,12,17,76,,65,65,12,17,6,7,0.3,0.4
2025-03-16T1800,2628A,92.0657,31.4846,那曲市,那曲监测站,,33,20,22,10,11,105,,107,107,6,8,7,8,0.9,0.7
2025-03-16T1800,3128A,92.0506,31.4797,那曲市,那曲会议中心,,,,,,,,,,,,,,,,
2025-03-16T1800,1290A,115.8931,28.6843,南昌市,省外办,细颗粒物(PM2.5),67,67,46,48,34,99,,100,100,16,13,5,5,0.6,0.6
2025-03-16T1800,1291A,115.8886,28.7003,南昌市,省林业公司,颗粒物(PM10),56,61,41,36,29,92,,95,95,12,12,6,6,0.2,0.3
2025-03-16T1800,1292A,115.8126,28.7442,南昌市,林科所,颗粒物(PM10),56,61,41,34,23,102,,105,105,19,15,6,7,0.6,0.6
2025-03-16T1800,1294A,115.8518,28.687,南昌市,建工学校,颗粒物(PM10),63,76,51,38,34,102,,104,104,15,15,9,9,0.4,0.4
2025-03-16T1800,1295A,115.8921,28.6424,南昌市,象湖,颗粒物(PM10),58,65,39,39,27,116,,116,116,8,9,6,6,0.4,0.4
2025-03-16T1800,1296A,115.7423,28.7996,南昌市,武术学校,颗粒物(PM10),55,60,36,34,19,102,,104,104,12,11,1,2,0.3,0.3
2025-03-16T1800,3046A,115.9084,28.6062,南昌市,机电学校,颗粒物(PM10),65,80,51,39,28,104,,106,106,16,14,4,3,0.4,0.4
2025-03-16T1800,3690A,115.9721,28.7031,南昌市,外国语学校,,,66,48,42,25,101,,107,107,,19,3,3,0.3,0.2
2025-03-16T1800,4192A,115.9316,28.68677,南昌市,南京东路235号,颗粒物(PM10),60,70,51,36,28,106,,107,107,18,17,4,4,0.3,0.5
2025-03-16T1800,1905A,106.056,30.8064,南充市,西山风景区,,25,16,31,13,14,80,,82,82,6,5,2,2,0.4,0.3
2025-03-16T1800,1906A,106.0789,30.8023,南充市,南充市委,,31,31,39,14,16,76,,77,77,16,18,3,3,0.4,0.4
2025-03-16T1800,1907A,106.1031,30.8217,南充市,南充炼油厂,,28,28,42,16,22,72,,70,70,14,14,3,4,0.2,0.2
2025-03-16T1800,1909A,106.0642,30.7636,南充市,嘉陵区环保局,,32,28,42,22,18,66,,69,69,16,15,2,3,0.4,0.4
2025-03-16T1800,1910A,106.1087,30.8388,南充市,市环境监测站,,30,28,42,21,20,84,,79,79,10,13,6,6,0.1,0.2
2025-03-16T1800,4227A,106.1083,30.7884,南充市,梨树横街98号,,32,32,40,18,9,78,,77,77,12,14,3,4,0.2,0.2
2025-03-16T1800,1151A,118.8086,32.1065,南京市,迈皋桥,,31,12,39,9,26,98,,97,97,2,16,4,4,0.1,0.4
2025-03-16T1800,1152A,118.7538,32.0551,南京市,草场门,,28,22,44,14,27,87,,88,88,9,21,4,5,0.4,0.6
2025-03-16T1800,1153A,118.7794,32.0745,南京市,山西路,,29,17,50,7,26,91,,91,91,4,16,3,4,0.5,0.6
2025-03-16T1800,1154A,118.7752,32.0023,南京市,中华门,,28,12,44,9,26,88,,88,88,15,27,4,6,0.4,0.5
2025-03-16T1800,1155A,118.8109,32.0309,南京市,瑞金路,,29,24,51,7,26,90,,91,91,17,24,7,6,0.8,0.9
2025-03-16T1800,1156A,118.7997,32.0754,南京市,玄武湖,,26,20,51,7,26,83,,83,83,8,22,4,5,0.3,0.5
2025-03-16T1800,1157A,118.6414,32.0931,南京市,浦口,,32,24,53,10,27,101,,100,100,8,13,6,7,0.4,0.5
2025-03-16T1800,1158A,118.7356,31.9996,南京市,奥体中心,,30,26,46,12,27,94,,96,96,13,26,7,8,0.2,0.3
2025-03-16T1800,1159A,118.9125,32.1028,南京市,仙林大学城,,29,24,46,9,26,91,,90,90,5,25,6,8,0.4,0.7
2025-03-16T1800,3422A,118.8436,31.9198,南京市,江宁彩虹桥,,30,22,52,17,30,96,,96,96,2,17,4,5,0.3,0.5
2025-03-16T1800,3423A,119.0138,31.6494,南京市,溧水永阳,,31,14,38,13,26,97,,100,100,4,18,5,5,0.3,0.5
2025-03-16T1800,3427A,118.8554,32.3578,南京市,六合雄州,,28,18,39,3,17,88,,88,88,12,11,3,4,0.2,0.2
2025-03-16T1800,4249A,118.8708,31.3402,南京市,汶溪路181号,,31,28,53,12,39,98,,100,100,8,22,3,2,0.1,0.3
2025-03-16T1800,1401A,108.3103,22.7881,南宁市,二十一中,,34,25,16,3,3,106,,93,93,12,12,5,4,0.3,0.4
2025-03-16T1800,1402A,108.3141,22.8528,南宁市,北湖,,30,23,12,15,10,95,,86,86,11,10,6,6,0.3,1
2025-03-16T1800,1403A,108.3206,22.8225,南宁市,市监测站,,30,24,15,10,9,94,,87,87,20,12,6,6,0.4,0.5
2025-03-16T1800,1404A,108.3829,22.8037,南宁市,大自然花园,,34,32,14,9,5,107,,94,94,11,8,6,5,0.5,0.6
2025-03-16T1800,1405A,108.4394,22.7904,南宁市,仙葫,,43,34,16,30,10,108,,92,92,11,8,9,8,0.4,0.5
2025-03-16T1800,1406A,108.2397,22.8467,南宁市,区农职院,,34,30,18,13,8,108,,100,100,12,10,11,9,0.6,0.6
2025-03-16T1800,1407A,108.3275,22.735,南宁市,英华嘉园,,33,27,15,8,4,105,,92,92,10,9,6,6,0.4,0.5
2025-03-16T1800,3401A,108.4834,22.7618,南宁市,红星社区,,35,35,13,17,9,112,,96,96,7,6,9,8,0.5,0.5
2025-03-16T1800,4221A,108.2177,22.7774,南宁市,乐贤路16号,,32,28,22,11,10,101,,89,89,10,11,9,9,0.6,0.7
2025-03-16T1800,2331A,118.0966,26.6761,南平市,茫荡山,,,,,,,,,,,,,,,,
2025-03-16T1800,2332A,118.1681,26.6369,南平市,南平市监测站,,30,30,5,8,4,96,,77,77,7,6,3,3,0.5,0.6
2025-03-16T1800,2333A,118.1825,26.6489,南平市,南平铝业有限公司,,30,30,7,12,2,92,,74,74,6,6,4,4,0.6,0.7
2025-03-16T1800,2334A,118.1756,26.6272,南平市,南平七中,,33,33,7,12,5,92,,73,73,8,7,3,3,0.4,0.5
2025-03-16T1800,1168A,120.9098,31.9663,南通市,狼山街道,,46,46,43,30,27,97,,93,93,14,15,5,6,0.2,0.3
2025-03-16T1800,1169A,120.86,32.0005,南通市,虹桥,,47,47,43,29,28,94,,90,90,16,16,5,6,0.2,0.3
2025-03-16T1800,1170A,120.87,32.02,南通市,城中,,50,50,44,29,25,91,,89,89,17,16,6,7,0.4,0.4
2025-03-16T1800,1171A,120.94,31.93,南通市,星湖花园,,46,46,40,29,26,97,,92,92,16,17,5,6,0.3,0.4
2025-03-16T1800,1172A,120.81,32.0417,南通市,紫琅学院,,43,43,39,24,23,97,,95,95,13,14,3,4,0.6,0.6
2025-03-16T1800,3291A,121.067,32.062,南通市,通州监测站,颗粒物(PM10),51,51,43,27,25,100,,94,94,11,13,3,3,0.5,0.5
2025-03-16T1800,3432A,120.9348,31.9883,南通市,环境教育馆,,,46,43,26,26,106,,99,99,,10,4,6,0.3,0.3
2025-03-16T1800,2404A,112.5224,33.0122,南阳市,瓦房庄,,45,45,62,20,33,93,,91,91,12,14,3,4,0.5,0.5
2025-03-16T1800,2405A,112.5003,32.9735,南阳市,汉画馆,,37,37,54,15,32,94,,92,92,9,14,4,4,0.3,0.4
2025-03-16T1800,2406A,112.5573,33.027,南阳市,气象站,颗粒物(PM10),53,55,68,22,30,95,,92,92,10,11,3,3,0.4,0.5
2025-03-16T1800,2407A,112.5481,32.9689,南阳市,理工学院,,43,43,59,18,35,96,,94,94,14,15,3,3,0.4,0.5
2025-03-16T1800,4008A,112.5234,32.9922,南阳市,卧龙区政府,,43,43,60,11,30,96,,93,93,12,14,6,6,0.4,0.4
2025-03-16T1800,1234A,121.8358,29.911,宁波市,区环保大楼,颗粒物(PM10),51,52,45,33,37,92,,77,77,23,21,10,9,0.5,0.6
2025-03-16T1800,1235A,121.56,29.82,宁波市,万里学院,,33,32,44,22,31,104,,84,84,10,15,14,11,0.4,0.5
2025-03-16T1800,1236A,121.713,29.9572,宁波市,龙赛医院,,49,49,47,29,20,95,,75,75,20,21,6,8,0.5,0.5
2025-03-16T1800,1239A,121.633,29.7733,宁波市,钱湖水厂,,35,31,43,22,26,109,,87,87,13,18,6,7,0.5,0.6
2025-03-16T1800,1240A,121.5856,29.8635,宁波市,太古小学,,36,36,43,10,21,110,,89,89,12,17,7,8,0.4,0.5
2025-03-16T1800,1241A,121.524,29.8674,宁波市,市环境监测中心,,34,34,45,16,11,102,,81,81,12,18,6,7,0.4,0.5
2025-03-16T1800,2871A,121.6147,29.9017,宁波市,万里国际学校,,35,35,28,19,21,107,,85,85,11,15,6,7,0.4,0.5
2025-03-16T1800,3710A,121.5594,29.8975,宁波市,白沙活动中心,,,40,33,20,23,,,87,87,,10,5,6,0.6,0.5
2025-03-16T1800,2339A,119.5001,26.6946,宁德市,金涵水库,,,,,,,,,,,,,,,,
2025-03-16T1800,2341A,119.5388,26.6612,宁德市,宁德市监测站,,29,18,9,10,9,92,,68,68,16,12,4,4,0.4,0.5
2025-03-16T1800,3209A,119.5231,26.6562,宁德市,宁德一中,,30,22,8,16,5,95,,71,71,15,14,5,4,0.2,0.2
2025-03-16T1800,2618A,98.8601,25.8567,怒江傈僳族自治州,州监测站,,22,22,20,11,13,64,,59,54,3,4,5,5,0.4,0.3
2025-03-16T1800,2619A,98.8546,25.8417,怒江傈僳族自治州,泸水一中,,18,18,18,12,14,54,,44,44,8,8,6,6,0.4,0.4
2025-03-16T1800,1888A,101.6891,26.571,攀枝花市,弄弄坪,,38,38,47,23,24,63,,63,63,23,23,9,12,0.7,0.7
2025-03-16T1800,1889A,101.5769,26.5928,攀枝花市,河门口,,48,48,54,28,28,70,,68,68,28,23,25,17,1.7,1.1
2025-03-16T1800,1890A,101.7169,26.585,攀枝花市,炳草岗,,37,37,47,20,24,56,,56,56,30,38,12,13,0.7,0.6
2025-03-16T1800,1891A,101.7369,26.5008,攀枝花市,仁和,,37,37,50,21,34,72,,74,74,21,21,9,10,0.8,0.7
2025-03-16T1800,2835A,101.7227,26.567,攀枝花市,四十中小,,36,36,52,15,26,71,,67,67,16,30,12,12,0.7,0.8
2025-03-16T1800,1604A,122.0303,41.1489,盘锦市,开发区,,34,34,29,16,17,96,,98,98,6,7,8,9,0.4,0.4
2025-03-16T1800,1605A,122.0485,41.0883,盘锦市,兴隆台,,32,32,31,13,16,93,,94,94,13,12,6,6,0.5,0.5
2025-03-16T1800,1606A,121.8297,41.1028,盘锦市,新生街道,,34,34,34,12,17,85,,92,92,15,32,5,7,0.5,0.6
2025-03-16T1800,1832A,113.3257,33.742,平顶山市,新华旅馆,,33,33,67,19,38,97,,91,91,10,14,4,4,0.2,0.3
2025-03-16T1800,1833A,113.2919,33.737,平顶山市,规划设计院,,31,28,57,14,30,98,,91,91,10,15,6,6,0.2,0.4
2025-03-16T1800,1834A,113.182,33.774,平顶山市,平顶山工学院,,31,25,51,9,26,98,,93,93,6,10,4,4,0.4,0.5
2025-03-16T1800,3204A,113.3025,33.73,平顶山市,规划局,,34,34,58,18,39,98,,92,92,18,22,4,5,0.4,0.5
2025-03-16T1800,3594A,112.8867,33.9116,平顶山市,石龙区,,35,35,62,10,24,98,,94,94,19,25,4,4,0.3,0.4
2025-03-16T1800,2656A,106.6692,35.5461,平凉市,聚贤嘉苑,,47,47,62,15,17,97,,87,87,15,16,10,10,0.1,0.1
2025-03-16T1800,2657A,106.7021,35.5307,平凉市,博物馆,颗粒物(PM10),51,51,61,19,21,99,,88,88,16,17,18,14,0.3,0.4
2025-03-16T1800,2347A,114.0997,27.5002,萍乡市,武功山,,36,36,25,23,18,97,,97,97,9,12,3,2,0.4,0.5
2025-03-16T1800,2348A,113.8385,27.6434,萍乡市,中医院,,47,47,48,25,28,95,,94,94,14,18,6,9,0.5,0.8
2025-03-16T1800,2349A,113.8493,27.6253,萍乡市,市政府车库,,40,40,41,22,24,99,,95,95,12,17,4,8,0.4,0.5
2025-03-16T1800,2350A,113.8676,27.6435,萍乡市,市环保局,,43,43,41,17,24,101,,96,96,10,18,2,6,0.3,0.5
2025-03-16T1800,2351A,113.866,27.6198,萍乡市,安源区政府,,44,44,38,16,27,98,,92,92,5,10,3,6,0.5,0.7
2025-03-16T1800,2319A,119.0141,25.4325,莆田市,荔城区仓后路,,28,25,14,3,2,89,,72,72,19,18,3,2,0.8,0.6
2025-03-16T1800,2320A,119.0015,25.4553,莆田市,莆田市监测站,,31,31,13,6,2,91,,73,73,18,15,4,3,0.7,0.6
2025-03-16T1800,2321A,119.1119,25.4561,莆田市,涵江区六中,,31,28,15,3,2,98,,77,77,18,20,4,3,0.7,0.5
2025-03-16T1800,2322A,119.1013,25.3215,莆田市,秀屿区政府,,31,19,17,3,3,99,,82,82,15,14,4,4,0.5,0.6
2025-03-16T1800,2323A,118.981,25.4792,莆田市,东圳水库,,,,,,,,,,,,,,,,
2025-03-16T1800,2392A,115.0312,35.7636,濮阳市,环保局,,31,27,45,3,25,98,,95,95,17,19,4,4,0.6,0.6
2025-03-16T1800,2394A,115.0574,35.7609,濮阳市,油田运输公司,,33,30,52,3,24,104,,102,102,11,15,4,5,0.6,0.7
2025-03-16T1800,3021A,115,35.7668,濮阳市,濮水河管理处,,32,15,53,3,24,102,,100,100,16,21,6,5,0.5,0.6
2025-03-16T1800,4216A,115.0924,35.7686,濮阳市,任丘路479号,,35,28,43,3,22,109,,106,106,13,15,5,6,0.3,0.5
2025-03-16T1800,2601A,100.98,22.7633,普洱市,市环保局,细颗粒物(PM2.5),82,106,99,60,45,151,,135,135,9,16,10,8,0.5,0.6
2025-03-16T1800,2602A,100.9817,22.8322,普洱市,普洱第二中学,颗粒物(PM10),89,127,94,51,42,138,,121,121,12,32,10,8,0.5,0.6
2025-03-16T1800,2262A,131.0518,45.8751,七台河市,新一中,,30,16,13,7,9,95,,98,98,6,6,12,11,0.9,0.9
2025-03-16T1800,3345A,131.0577,45.7879,七台河市,中波台,,27,12,27,8,11,86,,88,88,8,15,5,8,0.5,0.6
2025-03-16T1800,3637A,131.0176,45.7761,七台河市,人民广场,,27,25,34,11,20,86,,87,87,10,16,6,8,0.6,0.7
2025-03-16T1800,3684A,130.8781,45.8222,七台河市,新建矿广场,颗粒物(PM10),79,107,32,15,18,82,,86,86,11,10,6,9,0.3,0.4
2025-03-16T1800,1779A,123.9305,47.3636,齐齐哈尔市,安居小区,,28,28,26,9,16,86,,87,87,10,13,6,5,0.2,0.3
2025-03-16T1800,1780A,123.9488,47.3386,齐齐哈尔市,中心广场,,31,31,26,18,12,73,,80,80,18,11,3,4,0.5,0.5
2025-03-16T1800,1781A,123.9483,47.3227,齐齐哈尔市,农牧车辆厂,,28,22,22,7,12,88,,88,88,8,10,4,5,0.3,0.3
2025-03-16T1800,1783A,123.945,47.2988,齐齐哈尔市,市环境监测站,,26,23,23,14,12,81,,84,84,10,8,3,3,0.4,0.4
2025-03-16T1800,3662A,123.6333,47.2075,齐齐哈尔市,富区青少年活动中心,,27,18,28,3,7,85,,84,84,7,11,5,7,0.4,0.5
2025-03-16T1800,2591A,107.9783,26.5747,黔东南苗族侗族自治州,市环境监测站,,33,33,22,20,17,92,,93,93,8,6,3,3,0.2,0.2
2025-03-16T1800,2881A,107.8908,26.5311,黔东南苗族侗族自治州,凯里学院,,36,36,21,21,14,92,,96,96,8,5,2,2,0.5,0.4
2025-03-16T1800,2593A,107.5228,26.2403,黔南布依族苗族自治州,小围寨,,32,29,15,22,11,93,,94,94,6,5,4,5,0.5,0.5
2025-03-16T1800,3538A,107.5175,26.2978,黔南布依族苗族自治州,沙坝,,44,44,20,27,13,92,,91,91,9,7,4,5,0.5,0.4
2025-03-16T1800,2589A,104.9022,25.0925,黔西南布依族苗族自治州,场坝街,,41,41,28,24,19,72,,64,64,14,11,5,6,0.3,0.4
2025-03-16T1800,2590A,104.8811,25.0992,黔西南布依族苗族自治州,坪东大道,,36,27,24,25,17,66,,58,58,19,14,4,5,0.4,0.4
2025-03-16T1800,2502A,108.6236,21.9667,钦州市,市环保站,,46,46,27,19,10,86,,77,77,20,14,6,6,0.8,0.8
2025-03-16T1800,2503A,108.6549,21.9481,钦州市,沙埠小学,,37,37,27,3,4,88,,76,76,15,11,7,6,0.6,0.7
2025-03-16T1800,2504A,108.5989,21.7431,钦州市,港区一小,颗粒物(PM10),54,57,32,18,11,73,,69,69,27,21,8,8,0.6,0.7
2025-03-16T1800,3404A,108.5959,21.9633,钦州市,北职校,,32,32,23,21,12,91,,77,77,10,8,7,6,0.5,0.6
2025-03-16T1800,1043A,119.7493,40.0116,秦皇岛市,第一关,,42,37,25,29,19,93,,93,93,10,22,4,4,0.3,0.3
2025-03-16T1800,1044A,119.5897,39.9499,秦皇岛市,监测站,,30,23,27,3,11,95,,96,96,2,6,2,3,0.3,0.3
2025-03-16T1800,1046A,119.5251,39.9041,秦皇岛市,建设大厦,,28,20,26,16,19,88,,91,91,12,22,2,4,0.3,0.3
2025-03-16T1800,3132A,119.610547,39.943889,秦皇岛市,文明里,,28,18,24,8,12,89,,92,92,5,5,2,3,0.2,0.3
2025-03-16T1800,4198A,119.5090,39.8253,秦皇岛市,北戴河轮滑馆,,29,20,23,13,14,90,,92,92,6,9,4,5,0.3,0.4
2025-03-16T1800,1307A,120.6659,36.2403,青岛市,仰口,,35,35,38,23,24,88,,95,94,10,7,4,5,0.3,0.2
2025-03-16T1800,1310A,120.4134,36.0658,青岛市,市南区东部子站,,44,44,51,24,19,84,,89,89,14,12,8,8,0.5,0.5
2025-03-16T1800,1311A,120.3664,36.1032,青岛市,四方区子站,,44,44,43,24,21,87,,94,94,12,11,4,4,0.4,0.5
2025-03-16T1800,1312A,120.2994,36.054,青岛市,市南区西部子站,,44,44,47,20,16,81,,85,85,16,13,6,7,0.5,0.5
2025-03-16T1800,1313A,120.4581,36.0858,青岛市,崂山区子站,,36,36,39,22,16,89,,96,96,12,8,9,10,0.5,0.5
2025-03-16T1800,1315A,120.3999,36.3083,青岛市,城阳区子站,,36,36,45,15,15,83,,92,92,17,12,8,8,0.6,0.6
2025-03-16T1800,1966A,120.0405,35.8735,青岛市,黄岛区4号,,31,31,40,19,17,90,,94,94,14,13,7,8,0.5,0.5
2025-03-16T1800,3362A,120.5014,36.4034,青岛市,即墨2号,,38,38,45,21,20,81,,90,89,15,10,7,8,0.6,0.6
2025-03-16T1800,3642A,120.3503,36.0736,青岛市,市北区南部,,46,46,49,14,18,69,,78,78,16,13,8,8,0.5,0.5
2025-03-16T1800,3643A,120.3948,36.1805,青岛市,李沧区北部,,39,39,45,24,22,83,,90,89,15,12,6,8,0.5,0.5
2025-03-16T1800,4290A,120.1969,35.9546,青岛市,珠江路669号,,41,41,42,20,21,86,,90,90,14,16,6,7,0.6,0.6
2025-03-16T1800,1702A,113.0426,23.691,清远市,环保大楼,,29,9,8,3,2,92,,89,89,9,6,8,8,0.5,0.6
2025-03-16T1800,1703A,113.0208,23.7106,清远市,凤城街办,,25,11,8,6,4,78,,74,74,15,14,5,6,0.4,0.4
2025-03-16T1800,3025A,113.0477,23.6344,清远市,技师学院,,28,17,10,8,5,89,,86,86,15,14,7,6,0.5,0.5
2025-03-16T1800,3318A,112.9903,23.7403,清远市,清新太和,,27,11,7,8,3,85,,83,83,3,3,7,6,0.5,0.5
2025-03-16T1800,3455A,113.076,23.7198,清远市,清城东城,,26,14,9,7,4,83,,79,79,12,10,6,6,0.6,0.8
2025-03-16T1800,2661A,107.6325,35.7357,庆阳市,庆阳五中,,,32,47,3,24,99,,81,,6,8,2,2,,0.3
2025-03-16T1800,2662A,107.6364,35.7067,庆阳市,市环保局,,36,36,46,12,13,100,,96,96,6,7,6,6,0.3,0.3
2025-03-16T1800,1916A,103.7897,25.5035,曲靖市,环境监测站,,29,29,20,16,10,43,,53,44,18,13,3,3,0.6,0.5
2025-03-16T1800,1917A,103.8,25.5364,曲靖市,烟厂办公区,,26,23,16,18,10,49,,52,48,13,10,5,4,0.5,0.5
2025-03-16T1800,3376A,103.7947,25.462,曲靖市,南苑二区,,32,32,16,18,11,44,,53,46,18,12,6,6,0.6,0.6
2025-03-16T1800,3377A,103.7444,25.5261,曲靖市,曲靖师范学院,,38,,19,26,15,48,,48,48,16,14,4,5,0.6,0.7
2025-03-16T1800,1264A,118.8692,28.9398,衢州市,环保大楼,颗粒物(PM10),52,53,26,35,16,92,,97,97,16,15,2,2,0.4,0.4
2025-03-16T1800,1265A,118.8709,28.9666,衢州市,实验学校,颗粒物(PM10),52,54,25,35,16,85,,86,86,9,12,1,2,0.5,0.5
2025-03-16T1800,1266A,118.8621,28.9808,衢州市,衢州学院,颗粒物(PM10),51,52,25,34,17,81,,84,84,18,20,3,2,0.5,0.5
2025-03-16T1800,1611A,118.5819,24.9117,泉州市,涂山街,,28,24,15,8,10,88,,74,74,18,16,3,3,0.6,0.7
2025-03-16T1800,1612A,118.5972,24.8978,泉州市,津头埔,,28,21,12,7,9,89,,74,74,21,19,3,2,0.6,0.7
2025-03-16T1800,1613A,118.6663,24.9424,泉州市,万安,,31,20,14,6,8,97,,84,84,9,8,4,3,0.6,0.7
2025-03-16T1800,1614A,118.6117,24.9604,泉州市,清源山,,,,,,,,,,,,,,,,
2025-03-16T1800,3529A,118.6333,24.9264,泉州市,城华南路,,28,12,14,7,8,87,,75,75,19,16,3,2,0.5,0.5
2025-03-16T1800,2626A,88.8876,29.2718,日喀则市,日喀则监测站,,35,12,17,3,4,111,,110,110,3,3,4,4,0.3,0.3
2025-03-16T1800,3726A,88.8781,29.2426,日喀则市,林业技术推广中心,,34,19,23,3,4,108,,110,109,2,2,6,6,0.3,0.3
2025-03-16T1800,1659A,119.471,35.4209,日照市,监测站,,29,27,41,11,21,90,,90,90,15,16,6,6,0.5,0.6
2025-03-16T1800,1660A,119.523,35.4216,日照市,市政府广场,,28,27,39,16,19,89,,88,88,10,12,2,3,0.6,0.6
2025-03-16T1800,1661A,119.5587,35.4044,日照市,港务局,,33,29,42,23,25,91,,90,90,11,13,8,8,0.5,0.5
2025-03-16T1800,3507A,119.5328,35.4625,日照市,职业技术学院,,29,29,44,14,20,82,,85,85,17,16,4,4,0.5,0.6
2025-03-16T1800,3604A,119.3266,35.1044,日照市,岚山环保分局,,31,31,45,15,24,92,,94,94,10,15,5,8,0.6,0.8
2025-03-16T1800,1835A,111.1922,34.7752,三门峡市,市政府,,35,22,32,14,15,112,,108,108,12,11,4,4,0.3,0.3
2025-03-16T1800,1836A,111.1587,34.7942,三门峡市,开发区,,34,27,32,7,5,107,,104,104,15,15,7,7,0.2,0.2
2025-03-16T1800,1838A,111.143,34.7955,三门峡市,风景区,,32,18,37,8,10,102,,97,97,9,8,10,9,0.3,0.4
2025-03-16T1800,3039A,111.1911,34.7829,三门峡市,三门峡市第一小学,,42,42,41,15,9,111,,107,107,14,13,2,3,0.3,0.3
2025-03-16T1800,3598A,111.1,34.7167,三门峡市,富达温泉假日酒店,,34,29,40,10,9,108,,104,104,16,14,8,7,0.5,0.4
2025-03-16T1800,2324A,117.6211,26.2625,三明市,三钢,,38,27,11,26,14,74,,70,70,12,8,3,4,0.4,0.8
2025-03-16T1800,2325A,117.635,26.2714,三明市,三明二中,,22,21,7,8,5,70,,64,64,10,9,2,2,0.2,0.2
2025-03-16T1800,2326A,117.6028,26.2378,三明市,三元区政府,,26,21,8,10,4,82,,70,70,12,10,5,4,0.5,0.5
2025-03-16T1800,2327A,117.7275,26.3108,三明市,洋溪,,,,,,,,,,,,,,,,
2025-03-16T1800,1876A,109.5078,18.2489,三亚市,河东子站,,18,16,16,9,10,55,,62,62,11,7,4,3,0.4,0.2
2025-03-16T1800,1877A,109.4964,18.2681,三亚市,河西子站,,18,14,16,3,9,55,,61,61,8,7,3,2,0.6,0.4
2025-03-16T1800,3540A,109.7348,18.3443,三亚市,君悦子站,,32,32,20,11,8,57,,61,61,10,8,3,4,0.5,0.4
2025-03-16T1800,2624A,91.7608,29.2313,山南市,山南监测站,,,,29,,13,,,98,,,4,,5,,0.4
2025-03-16T1800,2625A,91.7706,29.2436,山南市,山南人民医院,颗粒物(PM10),54,57,62,14,17,111,,100,100,4,6,4,4,0.3,0.4
2025-03-16T1800,1674A,116.6794,23.3667,汕头市,金平子站,,28,28,15,18,7,67,,75,75,26,19,6,6,0.7,0.7
2025-03-16T1800,1675A,116.7244,23.3633,汕头市,龙湖子站,,23,20,14,12,4,71,,75,75,16,12,3,4,0.7,0.7
2025-03-16T1800,1676A,116.7258,23.2775,汕头市,濠江子站,,26,22,14,15,7,82,,79,79,14,13,4,4,0.7,0.7
2025-03-16T1800,1677A,116.7519,23.4714,汕头市,澄海子站,,32,32,13,14,5,71,,76,76,20,11,4,3,0.7,0.7
2025-03-16T1800,1678A,116.6092,23.2539,汕头市,潮阳子站,,27,27,27,10,5,72,,78,78,15,11,7,8,0.6,0.6
2025-03-16T1800,3444A,116.454,23.2684,汕头市,潮南峡山,,25,6,5,3,1,77,,82,82,6,6,7,7,0.5,0.6
2025-03-16T1800,3624A,116.4069,23.2533,汕头市,潮南子站,,28,28,14,9,4,69,,75,75,8,5,7,7,0.6,0.7
2025-03-16T1800,1693A,115.3653,22.775,汕尾市,市环保局,,28,16,8,10,5,89,,86,86,6,6,7,6,0.5,0.7
2025-03-16T1800,1694A,115.3706,22.7898,汕尾市,市政府,,26,,7,11,3,81,,81,81,10,7,5,4,0.4,0.6
2025-03-16T1800,1695A,115.3622,22.7925,汕尾市,新城中学,,27,10,10,10,5,86,,81,81,4,4,8,8,0.5,0.7
2025-03-16T1800,2645A,109.9154,33.8715,商洛市,监测站,,33,24,41,11,16,103,,100,100,9,12,4,5,0.2,0.4
2025-03-16T1800,3045A,109.9643,33.8471,商洛市,商州区中学,,43,43,51,13,14,102,,100,100,7,13,4,4,0.4,0.4
2025-03-16T1800,2408A,115.6702,34.4285,商丘市,环境监测站,,38,38,54,20,28,108,,104,104,7,11,2,3,0.3,0.4
2025-03-16T1800,2409A,115.6458,34.4045,商丘市,粮食局,,36,35,52,21,34,114,,109,109,12,16,2,2,0.0,0.2
2025-03-16T1800,2410A,115.6293,34.3948,商丘市,睢阳区环保局,,33,33,55,21,32,97,,93,93,9,12,1,2,0.2,0.2
2025-03-16T1800,3171A,115.6071,34.4465,商丘市,梁园区档案局,,32,32,52,18,36,99,,96,96,6,11,2,2,0.4,0.5
2025-03-16T1800,1141A,121.4,31.238,上海市,普陀,,38,38,50,25,29,85,,82,82,22,28,7,6,0.6,0.6
2025-03-16T1800,1142A,121.478,31.2036,上海市,十五厂,,42,34,47,29,30,88,,85,85,21,25,7,7,0.6,0.7
2025-03-16T1800,1143A,121.467,31.3008,上海市,虹口,,,36,42,3,21,95,,91,91,,32,8,9,0.5,0.6
2025-03-16T1800,1147A,121.425,31.2261,上海市,静安监测站,,39,37,45,27,29,83,,83,83,26,29,9,8,0.8,0.8
2025-03-16T1800,1148A,121.703,31.1907,上海市,浦东川沙,,38,38,46,25,27,95,,84,84,18,23,7,7,0.5,0.5
2025-03-16T1800,1149A,121.533,31.2284,上海市,浦东新区监测站,,35,34,44,24,27,94,,86,86,22,29,6,6,0.5,0.6
2025-03-16T1800,1150A,121.577,31.2071,上海市,浦东张江,,41,41,46,23,28,71,,78,78,38,28,6,6,0.5,0.6
2025-03-16T1800,3265A,121.4316,31.3322,上海市,宝山庙行,,37,37,44,24,28,87,,84,84,22,25,11,9,0.9,0.7
2025-03-16T1800,3266A,121.8791,31.4662,上海市,崇明上实东滩,,34,33,37,20,23,107,,100,100,9,11,5,4,0.5,0.6
2025-03-16T1800,3268A,121.3162,31.2838,上海市,嘉定南翔,,,32,44,30,30,90,,91,91,19,25,7,7,,0.6
2025-03-16T1800,3269A,121.3359,30.7456,上海市,金山新城,,42,29,40,29,30,98,,86,86,14,22,5,6,0.4,0.6
2025-03-16T1800,3270A,121.4996,31.0739,上海市,闵行浦江,,35,35,45,24,26,91,,88,88,24,30,4,5,0.5,0.7
2025-03-16T1800,3271A,121.2886,31.1663,上海市,青浦徐泾,,,35,44,,30,90,,86,86,22,31,6,6,0.5,0.6
2025-03-16T1800,3272A,121.2186,31.0378,上海市,松江图书馆,,42,32,43,29,29,100,,91,91,17,24,6,7,0.6,0.8
2025-03-16T1800,3273A,121.3902,31.2059,上海市,长宁仙霞,,,,45,,26,95,,94,94,18,31,7,7,,0.7
