timepoint,stationcode,longitude,latitude,area,positionname,primarypollutant,aqi,pm10,pm10_24h,pm2_5,pm2_5_24h,o3,o3_24h,o3_8h,o3_8h_24h,no2,no2_24h,so2,so2_24h,co,co_24h
2025-03-09T2000,2566A,102.1879,31.914,阿坝藏族羌族自治州,州农科所,,29,23,43,6,13,90,,100,100,2,9,9,9,0,0
2025-03-09T2000,2568A,102.2502,31.8896,阿坝藏族羌族自治州,马师校,,25,19,18,17,12,79,,97,95,7,11,5,5,0.4,0.4
2025-03-09T2000,3994A,102.2165,31.9024,阿坝藏族羌族自治州,马尔康中学西区,,31,31,19,15,13,81,,103,102,14,7,5,5,0.3,0.4
2025-03-09T2000,2695A,80.292,41.1694,阿克苏地区,电视台,颗粒物(PM10),343,454,115,37,36,119,,111,111,1,19,4,5,0.3,0.6
2025-03-09T2000,2696A,80.2613,41.1551,阿克苏地区,艺术中心,,,,112,,38,112,,111,111,,28,,5,0.5,0.9
2025-03-09T2000,2204A,105.6467,38.8363,阿拉善盟,西城区西花园,颗粒物(PM10),131,212,267,38,52,99,,107,107,17,12,10,11,0.7,0.7
2025-03-09T2000,2205A,105.6985,38.8411,阿拉善盟,蒙二幼,颗粒物(PM10),132,213,256,62,57,85,,102,100,21,12,6,6,0.7,0.6
2025-03-09T2000,2206A,105.724,38.8516,阿拉善盟,环保局新楼,颗粒物(PM10),134,218,221,50,56,88,,100,97,11,7,8,8,1.1,1.1
2025-03-09T2000,2708A,88.1264,47.8517,阿勒泰地区,市站,,21,6,10,3,7,65,,64,64,21,17,2,2,0.4,0.5
2025-03-09T2000,2630A,80.1161,32.5,阿里地区,阿里监测站,,32,6,9,3,5,101,,89,89,1,8,5,7,0.4,0.5
2025-03-09T2000,3192A,80.0903,32.5028,阿里地区,阿里藏医院,,32,13,14,3,9,101,,91,91,1,5,6,8,0.3,0.4
2025-03-09T2000,2642A,109.0318,32.6537,安康市,香溪洞,颗粒物(PM10),56,61,58,33,34,90,,82,82,5,15,6,9,0.6,0.7
2025-03-09T2000,2644A,109.0072,32.6975,安康市,汉滨区检察院,颗粒物(PM10),65,79,68,39,33,37,,73,73,52,27,6,7,0.8,0.6
2025-03-09T2000,4054A,109.0325,32.6913,安康市,市邮政管理局,颗粒物(PM10),61,72,75,34,40,35,,78,78,46,29,7,11,1.1,0.7
2025-03-09T2000,2291A,117.0809,30.5177,安庆市,环科院,细颗粒物(PM2.5),105,99,91,79,69,6,,88,33,87,43,14,12,1.2,0.9
2025-03-09T2000,2292A,117.0331,30.5119,安庆市,马山宾馆,细颗粒物(PM2.5),114,97,95,86,74,4,,94,33,91,38,12,8,1.2,0.9
2025-03-09T2000,2294A,116.9896,30.6145,安庆市,安庆大学,细颗粒物(PM2.5),125,135,94,95,67,9,,93,46,86,33,9,10,0.7,0.5
2025-03-09T2000,3173A,117.0598,30.5351,安庆市,市人大,细颗粒物(PM2.5),124,117,95,94,74,4,,91,40,85,37,19,11,1.6,0.9
2025-03-09T2000,3122A,105.9606,26.2611,安顺市,伍家关,,28,22,23,19,15,43,,50,36,12,11,7,10,0.6,0.5
2025-03-09T2000,3123A,105.9408,26.2431,安顺市,凤凰山,,26,25,19,18,14,36,,48,34,17,13,18,19,0.8,0.7
2025-03-09T2000,3124A,105.9439,26.2564,安顺市,金钟山,,26,22,20,18,15,45,,49,38,10,9,10,17,0.5,0.5
2025-03-09T2000,3125A,105.8983,26.2481,安顺市,娄家坡,,30,24,19,21,15,38,,47,34,14,11,14,15,0.7,0.7
2025-03-09T2000,1818A,114.4839,36.0621,安阳市,棉研所,,,,,,,,,,,,,,,,
2025-03-09T2000,1819A,114.3551,36.1017,安阳市,红庙街,细颗粒物(PM2.5),90,80,88,67,72,126,,129,129,18,21,6,7,0.4,0.4
2025-03-09T2000,1820A,114.361,36.0681,安阳市,银杏小区,细颗粒物(PM2.5),77,74,77,56,67,137,,141,141,18,36,2,6,0.6,0.6
2025-03-09T2000,3141A,114.3922,36.0878,安阳市,信访局,细颗粒物(PM2.5),103,,85,77,79,138,,146,146,20,23,1,2,0.6,0.6
2025-03-09T2000,3669A,114.4705,36.0637,安阳市,左辅环卫站,细颗粒物(PM2.5),102,113,112,76,80,133,,146,146,25,29,3,3,0.6,0.6
2025-03-09T2000,3703A,114.2917,36.0949,安阳市,安钢职工学校,细颗粒物(PM2.5),104,97,90,78,82,132,,135,135,20,25,1,4,0.6,0.6
2025-03-09T2000,1748A,123.044,41.1196,鞍山市,深沟寺,细颗粒物(PM2.5),92,83,88,68,71,114,,116,113,11,19,9,11,0.8,0.9
2025-03-09T2000,1749A,123.011,41.0931,鞍山市,太阳城,细颗粒物(PM2.5),84,92,99,62,73,114,,115,114,12,19,6,8,0.8,1
2025-03-09T2000,1750A,123.0485,41.1442,鞍山市,太平,细颗粒物(PM2.5),94,108,107,70,71,105,,116,112,20,27,8,10,0.8,0.9
2025-03-09T2000,1751A,122.9642,41.0971,鞍山市,铁西三道街,细颗粒物(PM2.5),100,108,124,75,82,84,,117,109,46,43,42,18,0.7,1
2025-03-09T2000,1753A,123.022,41.0821,鞍山市,明达新区,细颗粒物(PM2.5),82,83,91,60,71,115,,116,115,13,18,7,7,0.7,0.9
2025-03-09T2000,1754A,123.1289,41.0228,鞍山市,千山,,,,90,,54,,,78,,,13,,5,,0.6
2025-03-09T2000,4201A,122.9446,41.0826,鞍山市,兴盛南路290号,细颗粒物(PM2.5),93,107,140,69,88,108,,113,112,23,49,10,12,0.7,1
2025-03-09T2000,2195A,107.4212,40.761,巴彦淖尔市,附二中,颗粒物(PM10),90,129,133,32,39,74,,99,97,25,18,8,9,0.6,0.6
2025-03-09T2000,2196A,107.37,40.7372,巴彦淖尔市,市环保大楼,颗粒物(PM10),113,176,124,66,34,65,,104,100,39,18,6,6,0.4,0.3
2025-03-09T2000,1956A,86.1472,41.7538,巴音郭楞蒙古自治州,孔雀公园,颗粒物(PM10),143,235,178,46,38,104,,104,104,19,49,6,6,0.4,0.6
2025-03-09T2000,1957A,86.1972,41.7166,巴音郭楞蒙古自治州,棉纺厂,颗粒物(PM10),164,278,208,44,34,97,,97,97,15,38,3,3,0.3,0.4
2025-03-09T2000,1958A,86.2357,41.7173,巴音郭楞蒙古自治州,经济开发区,颗粒物(PM10),153,256,204,46,31,95,,98,98,14,20,5,5,0.3,0.3
2025-03-09T2000,2914A,106.7677,31.8794,巴中市,苏山坪,,48,48,44,33,31,61,,58,58,15,11,4,4,0.4,0.4
2025-03-09T2000,3181A,106.7768,31.8526,巴中市,市五中,,42,42,56,29,41,52,,46,46,15,21,4,5,0.5,0.5
2025-03-09T2000,3183A,106.7418,31.8654,巴中市,圣泉水务公司,,45,44,43,31,31,42,,49,49,29,22,6,7,0.7,0.6
2025-03-09T2000,3616A,106.7616,31.8344,巴中市,市中心医院,,48,42,48,33,39,48,,50,50,20,22,6,6,0.5,0.5
2025-03-09T2000,2235A,122.7911,45.6077,白城市,洮北区环保局,颗粒物(PM10),138,225,110,100,66,108,,113,113,20,22,7,8,1.1,0.9
2025-03-09T2000,2236A,122.8738,45.5725,白城市,市环保局,颗粒物(PM10),156,261,127,113,72,116,,122,122,14,27,10,9,0.9,0.7
2025-03-09T2000,2231A,126.4219,41.9171,白山市,喜丰,,45,45,75,21,31,69,,105,101,31,30,7,12,0.8,0.8
2025-03-09T2000,2232A,126.4077,41.9419,白山市,环保局,"颗粒物(PM10),细颗粒物(PM2.5)",67,84,65,48,35,32,,102,92,39,22,8,6,1.3,0.8
2025-03-09T2000,2647A,104.1724,36.5446,白银市,第三小学,颗粒物(PM10),86,122,114,35,40,83,,85,85,18,25,90,106,0.7,0.9
2025-03-09T2000,2648A,104.1465,36.5482,白银市,动力公司,颗粒物(PM10),82,113,109,41,43,89,,93,93,14,22,8,57,0.5,0.7
2025-03-09T2000,2512A,106.6103,23.9011,百色市,市监测站,细颗粒物(PM2.5),59,62,58,42,48,55,,64,64,21,16,13,11,1.1,0.8
2025-03-09T2000,2513A,106.6538,23.8859,百色市,市中心血站,颗粒物(PM10),55,60,57,37,57,56,,65,65,19,15,13,12,1.0,0.8
2025-03-09T2000,3406A,106.6085,23.8798,百色市,祈福高中,颗粒物(PM10),57,64,61,38,46,52,,60,60,21,18,13,10,1.1,0.9
2025-03-09T2000,2270A,117.396,32.939,蚌埠市,工人疗养院,细颗粒物(PM2.5),72,72,100,52,72,98,,130,121,25,35,4,6,0.6,0.6
2025-03-09T2000,2271A,117.3605,32.9427,蚌埠市,百货大楼,细颗粒物(PM2.5),73,80,98,53,69,82,,121,112,41,38,5,6,0.6,0.6
2025-03-09T2000,2273A,117.4185,32.8911,蚌埠市,蚌埠学院,细颗粒物(PM2.5),73,68,89,53,71,82,,126,111,37,29,4,6,0.6,0.6
2025-03-09T2000,2274A,117.3533,32.9673,蚌埠市,淮上区政府,细颗粒物(PM2.5),80,80,100,59,78,95,,125,117,29,34,5,6,0.7,0.8
2025-03-09T2000,2275A,117.3145,32.8977,蚌埠市,高新区,细颗粒物(PM2.5),87,80,89,64,74,55,,126,110,67,32,13,8,0.6,0.6
2025-03-09T2000,3715A,117.3092,32.9314,蚌埠市,蚌埠田家炳中学,细颗粒物(PM2.5),80,81,96,59,73,88,,132,122,38,34,7,7,0.7,0.7
2025-03-09T2000,1585A,109.8756,40.6532,包头市,市环境监测站,颗粒物(PM10),114,178,110,39,33,79,,97,97,36,35,19,20,1.4,1.1
2025-03-09T2000,1587A,109.9991,40.5842,包头市,包头八中,颗粒物(PM10),124,197,123,45,45,63,,95,93,49,32,20,20,0.8,0.8
2025-03-09T2000,1588A,109.8538,40.6821,包头市,青山宾馆,颗粒物(PM10),104,158,103,42,41,64,,95,93,42,38,20,16,1.1,0.8
2025-03-09T2000,1589A,109.8642,40.6288,包头市,惠龙物流,颗粒物(PM10),108,165,110,35,32,83,,101,101,31,31,12,16,0.9,0.8
2025-03-09T2000,1590A,110.0377,40.5546,包头市,东河鸿龙湾,颗粒物(PM10),112,173,118,41,38,76,,97,96,27,34,20,30,0.7,0.7
2025-03-09T2000,3283A,109.9154,40.5685,包头市,滨河大厦,颗粒物(PM10),106,162,102,48,37,73,,98,98,33,31,13,14,0.7,0.7
2025-03-09T2000,3419A,109.9447,40.6261,包头市,包头市委党校,颗粒物(PM10),102,154,103,44,36,87,,99,99,25,29,11,22,1.2,1.2
2025-03-09T2000,3683A,109.8331,40.6576,包头市,昆区政府,颗粒物(PM10),107,164,110,34,41,82,,89,89,30,34,18,19,2.0,1
2025-03-09T2000,1930A,107.185,34.3063,宝鸡市,庙沟村,细颗粒物(PM2.5),74,72,66,54,50,86,,106,106,25,16,7,7,0.5,0.5
2025-03-09T2000,1931A,107.0708,34.3017,宝鸡市,竹园沟,细颗粒物(PM2.5),73,70,59,53,41,71,,107,106,26,23,8,7,0.6,0.6
2025-03-09T2000,1932A,107.1906,34.3672,宝鸡市,三陆医院,细颗粒物(PM2.5),60,61,104,43,71,96,,106,106,27,38,5,8,0.5,0.8
2025-03-09T2000,1933A,107.1431,34.3547,宝鸡市,监测站,颗粒物(PM10),63,76,86,44,56,94,,106,106,22,26,8,8,0.7,0.8
2025-03-09T2000,1934A,107.1186,34.3739,宝鸡市,技工学校,细颗粒物(PM2.5),57,62,82,40,55,90,,104,104,28,25,6,8,0.7,0.7
2025-03-09T2000,1935A,107.3906,34.3528,宝鸡市,陈仓区环保局家属楼,细颗粒物(PM2.5),65,72,98,47,70,73,,103,102,40,38,7,8,0.5,0.8
2025-03-09T2000,1936A,107.2058,34.3497,宝鸡市,文理学院,细颗粒物(PM2.5),65,73,83,47,56,99,,110,110,20,28,6,6,0.4,0.6
2025-03-09T2000,1937A,107.2386,34.3622,宝鸡市,三迪小学,细颗粒物(PM2.5),59,63,91,42,68,87,,104,104,30,35,7,7,0.7,0.8
2025-03-09T2000,1051A,115.493,38.8632,保定市,游泳馆,细颗粒物(PM2.5),92,99,121,68,91,135,,144,144,18,38,7,7,0.3,0.5
2025-03-09T2000,1052A,115.5213,38.8959,保定市,华电二区,细颗粒物(PM2.5),85,79,100,63,88,125,,142,142,19,34,7,8,0.7,0.8
2025-03-09T2000,1053A,115.4713,38.9108,保定市,接待中心,细颗粒物(PM2.5),98,96,119,73,98,131,,138,138,18,36,7,8,0.6,0.7
2025-03-09T2000,1054A,115.4612,38.8416,保定市,地表水厂,细颗粒物(PM2.5),87,110,125,64,88,123,,138,138,22,34,5,6,0.6,0.7
2025-03-09T2000,3581A,115.31981,38.95208,保定市,满城区生态环境分局,细颗粒物(PM2.5),92,119,128,68,95,121,,138,138,22,33,12,13,0.6,0.9
2025-03-09T2000,3582A,115.47694,38.76408,保定市,清苑区第二中学,细颗粒物(PM2.5),88,111,126,65,84,112,,133,133,28,38,8,9,0.5,0.6
2025-03-09T2000,3583A,115.62909,39.02311,保定市,徐水物探局,细颗粒物(PM2.5),92,108,122,68,94,125,,139,139,19,45,9,9,0.3,0.5
2025-03-09T2000,4004A,115.4202,38.8656,保定市,双鹰农机,细颗粒物(PM2.5),93,105,110,69,85,123,,136,136,25,40,2,5,0.6,0.8
2025-03-09T2000,4034A,115.5150,38.8590,保定市,植保所站,细颗粒物(PM2.5),114,106,116,86,94,113,,136,136,31,45,3,7,0.6,0.7
2025-03-09T2000,2594A,99.1678,25.1081,保山市,市环境监测站,颗粒物(PM10),56,62,72,36,46,114,,124,123,9,12,3,4,0.4,0.5
2025-03-09T2000,2595A,99.1711,25.1328,保山市,市环保局,细颗粒物(PM2.5),55,58,76,39,46,116,,128,127,6,9,6,7,0.6,0.7
2025-03-09T2000,1866A,109.2262,21.588,北海市,牛尾岭水库,,,32,21,25,19,28,,52,49,,,6,6,0.8,0.9
2025-03-09T2000,1867A,109.1436,21.4086,北海市,海滩公园,,46,46,31,29,19,50,,90,87,19,16,8,7,1.1,0.8
2025-03-09T2000,1868A,109.0981,21.4661,北海市,新市环保局,,42,39,26,29,22,47,,66,66,17,15,7,5,0.8,0.9
2025-03-09T2000,1869A,109.1778,21.5233,北海市,北海工业园,,46,37,32,32,23,44,,68,66,20,15,10,8,0.8,0.9
2025-03-09T2000,3400A,109.1911,21.4415,北海市,龙潭自来水厂,,46,40,26,32,28,46,,90,87,15,13,7,7,0.9,0.9
2025-03-09T2000,1001A,116.3621,39.8784,北京市,万寿西宫,细颗粒物(PM2.5),90,104,153,67,116,133,,136,136,18,46,3,3,0.8,1
2025-03-09T2000,1002A,116.2202,40.2915,北京市,定陵,,,,,,,,,,,,,,,,
2025-03-09T2000,1003A,116.4174,39.9289,北京市,东四,细颗粒物(PM2.5),98,104,152,73,121,125,,130,130,15,41,6,7,0.6,0.8
2025-03-09T2000,1004A,116.4072,39.8863,北京市,天坛,细颗粒物(PM2.5),97,103,150,72,118,118,,126,126,19,41,4,4,0.7,1
2025-03-09T2000,1005A,116.462,39.9365,北京市,农展馆,细颗粒物(PM2.5),95,104,153,71,119,130,,136,136,18,52,6,6,0.7,1
2025-03-09T2000,1006A,116.3392,39.9295,北京市,官园,细颗粒物(PM2.5),104,110,148,78,117,104,,108,108,17,40,7,7,0.7,0.9
2025-03-09T2000,1007A,116.2878,39.9611,北京市,海淀万柳,细颗粒物(PM2.5),109,111,131,82,100,96,,,,29,28,4,4,1.0,1
2025-03-09T2000,1008A,116.6636,40.135,北京市,顺义新城,细颗粒物(PM2.5),102,114,172,76,122,111,,131,131,31,48,5,5,0.5,0.8
2025-03-09T2000,1009A,116.6275,40.3275,北京市,怀柔镇,细颗粒物(PM2.5),109,111,127,82,101,104,,123,123,36,28,3,3,0.8,0.8
2025-03-09T2000,1010A,116.2296,40.217,北京市,昌平镇,细颗粒物(PM2.5),130,161,161,99,108,109,,110,110,27,40,2,2,0.8,0.9
2025-03-09T2000,1011A,116.3966,39.9821,北京市,奥体中心,细颗粒物(PM2.5),94,109,154,70,114,121,,128,128,21,48,4,4,0.7,1
2025-03-09T2000,3281A,115.9718,40.4529,北京市,延庆夏都,细颗粒物(PM2.5),122,122,118,92,91,124,,127,127,19,20,6,6,0.7,0.7
2025-03-09T2000,3418A,116.8336,40.4095,北京市,密云新城,细颗粒物(PM2.5),110,112,126,83,97,120,,129,129,18,20,4,4,0.6,0.7
2025-03-09T2000,3671A,116.088,39.9726,北京市,门头沟三家店,细颗粒物(PM2.5),127,133,134,96,99,112,,115,115,23,31,6,4,0.6,0.5
2025-03-09T2000,3672A,116.1541,39.8204,北京市,丰台云岗,细颗粒物(PM2.5),107,120,154,80,111,124,,139,139,18,39,5,5,0.7,0.8
2025-03-09T2000,3673A,116.6804,39.9081,北京市,通州东关,细颗粒物(PM2.5),93,102,163,69,128,122,,133,133,31,59,6,6,0.4,0.8
2025-03-09T2000,3674A,115.9577,39.7603,北京市,房山燕山,细颗粒物(PM2.5),122,117,124,92,102,120,,127,127,18,23,2,2,0.6,0.6
2025-03-09T2000,3675A,116.4672,39.7733,北京市,大兴旧宫,细颗粒物(PM2.5),92,108,160,68,119,116,,126,126,15,43,1,2,0.5,0.8
2025-03-09T2000,3694A,115.986,40.4563,北京市,延庆石河营,细颗粒物(PM2.5),118,121,118,89,90,127,,128,128,15,19,5,4,0.8,0.8
2025-03-09T2000,3695A,116.6151,40.3053,北京市,怀柔新城,细颗粒物(PM2.5),118,122,129,89,107,107,,127,127,28,21,5,5,0.8,0.9
2025-03-09T2000,3696A,116.2545,39.8768,北京市,丰台小屯,细颗粒物(PM2.5),98,111,153,73,109,110,,122,122,23,55,2,2,0.4,0.7
2025-03-09T2000,3697A,116.84,40.3844,北京市,密云镇,细颗粒物(PM2.5),105,110,134,79,99,125,,134,134,16,32,4,4,0.6,0.8
2025-03-09T2000,4182A,116.1942,39.9158,北京市,八角北路9号,细颗粒物(PM2.5),113,130,159,85,112,113,,122,122,24,47,2,2,0.5,0.7
2025-03-09T2000,4194A,117.0790,40.1518,北京市,洳河巡河路,细颗粒物(PM2.5),98,93,128,73,109,119,,135,135,20,21,3,4,0.5,0.6
2025-03-09T2000,1761A,123.8275,41.3064,本溪市,大峪,细颗粒物(PM2.5),67,69,87,48,60,131,,121,121,11,29,10,10,0.6,1.1
2025-03-09T2000,1762A,123.7567,41.3325,本溪市,溪湖,细颗粒物(PM2.5),83,91,101,61,70,114,,111,111,20,34,11,12,0.8,1.3
2025-03-09T2000,1763A,123.7169,41.3094,本溪市,彩屯,细颗粒物(PM2.5),102,116,114,76,81,90,,103,101,38,34,23,15,3.4,2
2025-03-09T2000,1764A,123.7669,41.2864,本溪市,东明,细颗粒物(PM2.5),82,72,90,60,65,108,,105,105,18,45,7,10,0.7,1.2
2025-03-09T2000,1765A,123.7992,41.2664,本溪市,新立屯,细颗粒物(PM2.5),87,,63,64,61,129,,123,123,16,36,6,6,0.7,0.9
2025-03-09T2000,1766A,123.8142,41.3472,本溪市,威宁,细颗粒物(PM2.5),57,59,107,40,64,122,,116,116,9,29,6,5,0.6,1
2025-03-09T2000,2587A,105.2864,27.3125,毕节市,八中,,34,34,17,21,12,37,,49,49,20,12,9,8,0.8,0.7
2025-03-09T2000,2588A,105.31,27.2944,毕节市,师专,,28,28,14,19,11,49,,52,52,17,13,6,6,0.7,0.7
2025-03-09T2000,4263A,105.3688,27.3598,毕节市,工业大道,,26,26,12,17,9,56,,54,54,13,11,8,8,0.5,0.5
2025-03-09T2000,1629A,118.0018,37.3617,滨州市,第二水厂,细颗粒物(PM2.5),94,105,126,70,86,103,,144,140,30,34,10,11,0.4,0.6
2025-03-09T2000,1630A,117.9776,37.393,滨州市,北中新校,细颗粒物(PM2.5),94,114,132,70,88,93,,148,143,53,45,8,13,0.8,1
2025-03-09T2000,3514A,117.9378,37.3956,滨州市,中海酒店,细颗粒物(PM2.5),83,83,116,61,92,131,,154,154,21,36,8,13,0.4,0.8
2025-03-09T2000,3515A,117.9378,37.3553,滨州市,开发区一中,细颗粒物(PM2.5),89,100,126,66,85,107,,142,135,34,54,9,13,0.4,0.7
2025-03-09T2000,3516A,118.0917,37.694,滨州市,金海六路,细颗粒物(PM2.5),104,107,139,78,100,109,,145,142,32,35,11,15,0.6,1
2025-03-09T2000,4028A,117.9956,37.3753,滨州市,滨州市西街道办事处,细颗粒物(PM2.5),98,110,129,73,97,99,,152,147,36,34,8,10,0.8,1
2025-03-09T2000,2311A,115.8072,33.8399,亳州市,污水处理厂,颗粒物(PM10),66,81,91,47,62,112,,150,148,21,22,8,7,0.5,0.6
2025-03-09T2000,2312A,115.7789,33.8518,亳州市,三国揽胜宫,细颗粒物(PM2.5),69,54,109,50,60,106,,140,138,17,18,5,6,0.4,0.4
2025-03-09T2000,3332A,115.7633,33.8034,亳州市,亳州学院,细颗粒物(PM2.5),75,77,97,55,69,114,,147,145,23,23,4,6,0.5,0.5
2025-03-09T2000,2693A,82.0485,44.8556,博尔塔拉蒙古自治州,市党校,,29,28,37,8,11,91,,85,85,13,12,7,6,1.4,1.2
2025-03-09T2000,2694A,82.0806,44.8969,博尔塔拉蒙古自治州,市环保局,,34,34,41,19,12,97,,106,106,25,20,6,2,0.5,0.5
2025-03-09T2000,1071A,116.8842,38.2991,沧州市,沧县城建局,细颗粒物(PM2.5),105,93,110,79,88,130,,142,142,21,30,4,5,0.7,0.7
2025-03-09T2000,1072A,116.8584,38.3254,沧州市,电视转播站,细颗粒物(PM2.5),92,95,108,68,89,130,,144,144,21,32,6,8,0.6,0.6
2025-03-09T2000,1073A,116.8709,38.3228,沧州市,市环保局,细颗粒物(PM2.5),90,101,102,67,83,119,,134,134,22,30,8,9,0.6,0.6
2025-03-09T2000,3324A,116.8136,38.3004,沧州市,河北水利电力学院,细颗粒物(PM2.5),94,102,114,70,81,115,,133,132,24,27,9,10,0.5,0.6
2025-03-09T2000,2622A,97.1806,31.1273,昌都市,昌都监测站,,26,,10,16,9,83,,85,84,10,5,7,6,0.6,0.4
2025-03-09T2000,3719A,97.1714,31.1406,昌都市,昌都会议中心,,36,9,8,7,8,113,,113,113,1,3,2,2,0.3,0.3
2025-03-09T2000,2690A,88.1236,43.8886,昌吉回族自治州,天山天池,,25,,7,17,17,77,,86,86,2,3,7,6,0.4,0.4
2025-03-09T2000,2692A,87.2717,44.0297,昌吉回族自治州,新区政务中心,颗粒物(PM10),64,77,52,33,24,89,,97,97,24,26,12,5,0.8,0.7
2025-03-09T2000,3613A,87.3095,44.0142,昌吉回族自治州,亚心广场,颗粒物(PM10),74,97,65,48,38,80,,89,89,41,32,9,7,0.7,0.6
2025-03-09T2000,1119A,125.3325,43.9166,长春市,食品厂,细颗粒物(PM2.5),95,93,141,71,99,115,,122,122,20,48,11,11,0.6,0.9
2025-03-09T2000,1120A,125.2863,43.9027,长春市,客车厂,细颗粒物(PM2.5),105,103,134,79,113,106,,115,114,27,53,10,9,0.7,1
2025-03-09T2000,1121A,125.2841,43.8463,长春市,邮电学院,细颗粒物(PM2.5),95,100,130,71,103,77,,118,111,61,51,68,14,0.9,1
2025-03-09T2000,1122A,125.3716,43.8772,长春市,劳动公园,细颗粒物(PM2.5),87,67,122,64,95,114,,126,126,25,43,9,9,0.2,0.6
2025-03-09T2000,1123A,125.3297,43.8805,长春市,园林处,细颗粒物(PM2.5),97,85,117,72,99,119,,127,127,15,36,9,10,0.6,0.8
2025-03-09T2000,1124A,125.4605,43.79,长春市,净月潭,细颗粒物(PM2.5),73,77,103,53,79,111,,121,120,12,18,8,8,0.6,0.7
2025-03-09T2000,1125A,125.7194,43.515,长春市,甩湾子,,,,,,,,,,,,,,,,
2025-03-09T2000,1126A,125.3863,43.8447,长春市,经开区环卫处,细颗粒物(PM2.5),84,78,124,62,94,103,,115,115,19,43,8,8,0.7,0.9
2025-03-09T2000,1127A,125.245,43.7783,长春市,高新区管委会,细颗粒物(PM2.5),92,69,126,68,113,102,,119,118,23,43,9,9,0.6,0.9
2025-03-09T2000,1128A,125.1761,43.8325,长春市,岱山公园,细颗粒物(PM2.5),102,86,148,76,125,106,,122,119,34,56,8,10,0.6,0.9
2025-03-09T2000,1335A,113.0833,28.2325,长沙市,经开区环保局,细颗粒物(PM2.5),77,60,64,56,48,40,,57,55,32,33,3,6,0.6,0.6
2025-03-09T2000,1336A,112.8872,28.2189,长沙市,高开区环保局,细颗粒物(PM2.5),93,77,68,69,51,39,,65,60,30,33,3,5,0.7,0.7
2025-03-09T2000,1337A,113.0792,28.2053,长沙市,马坡岭,细颗粒物(PM2.5),70,65,69,51,49,41,,66,62,29,28,4,5,0.7,0.6
2025-03-09T2000,1338A,112.9394,28.19,长沙市,湖南师范大学,细颗粒物(PM2.5),77,74,65,56,43,36,,63,56,30,25,4,5,0.8,0.7
2025-03-09T2000,1339A,113.0178,28.1322,长沙市,雨花区环保局,细颗粒物(PM2.5),69,66,70,50,50,37,,56,51,28,39,4,6,0.6,0.7
2025-03-09T2000,1340A,112.9792,28.2597,长沙市,伍家岭,细颗粒物(PM2.5),65,74,77,47,45,39,,54,51,28,41,2,4,0.6,0.6
2025-03-09T2000,1341A,113.0014,28.1944,长沙市,火车新站,细颗粒物(PM2.5),89,,73,66,53,26,,61,52,48,45,4,6,1.0,0.9
2025-03-09T2000,1342A,112.9844,28.1178,长沙市,天心区环保局,细颗粒物(PM2.5),69,70,65,50,46,31,,60,52,45,49,2,3,1.1,1
2025-03-09T2000,1343A,112.8908,28.1308,长沙市,湖南中医药大学,细颗粒物(PM2.5),85,68,66,63,46,24,,62,55,43,37,2,4,0.7,0.7
2025-03-09T2000,1344A,112.9581,28.3611,长沙市,沙坪,细颗粒物(PM2.5),65,69,52,47,38,50,,55,55,16,22,5,6,0.9,0.8
2025-03-09T2000,1727A,113.1147,36.1547,长治市,清华站,细颗粒物(PM2.5),64,68,59,46,43,112,,117,117,19,16,11,10,1.0,0.9
2025-03-09T2000,1730A,113.0886,36.2125,长治市,审计局,细颗粒物(PM2.5),67,60,58,48,51,124,,123,123,16,21,6,7,0.5,0.6
2025-03-09T2000,1731A,113.0844,36.1856,长治市,长治八中,细颗粒物(PM2.5),75,88,73,55,53,125,,126,126,15,16,8,8,0.3,0.4
2025-03-09T2000,2845A,113.1569,36.1911,长治市,德盛苑,细颗粒物(PM2.5),64,66,61,46,46,113,,121,120,17,15,5,6,0.7,0.9
2025-03-09T2000,3568A,113.06,36.0464,长治市,向阳小学,细颗粒物(PM2.5),90,88,81,67,53,121,,122,122,10,13,7,9,0.5,0.6
2025-03-09T2000,3569A,112.8792,36.3144,长治市,屯留一中,细颗粒物(PM2.5),69,72,66,50,47,114,,121,121,23,27,9,8,0.4,0.4
2025-03-09T2000,4189A,113.1131,36.19948,长治市,英华南巷50号,细颗粒物(PM2.5),64,74,64,46,48,129,,131,131,17,20,8,9,0.5,0.6
2025-03-09T2000,4190A,113.2367,36.3344,长治市,学府街1号,细颗粒物(PM2.5),64,76,83,46,58,120,,127,126,15,42,2,4,0.5,0.9
2025-03-09T2000,1854A,111.6975,28.9703,常德市,市二中,细颗粒物(PM2.5),59,60,55,42,40,71,,78,78,14,18,4,6,0.5,0.6
2025-03-09T2000,1857A,111.7158,29.1456,常德市,白鹤山,,,,,,,,,,,,,,,,
2025-03-09T2000,3138A,111.7153,29.0289,常德市,武陵区永安,细颗粒物(PM2.5),60,68,60,43,41,66,,55,55,10,12,3,4,0.7,0.7
2025-03-09T2000,3139A,111.6892,28.9881,常德市,鼎城区玉霞,"颗粒物(PM10),细颗粒物(PM2.5)",55,60,56,39,40,73,,80,80,17,21,3,5,0.5,0.6
2025-03-09T2000,3140A,111.6625,29.0531,常德市,武陵区长庚,颗粒物(PM10),60,69,58,40,39,71,,77,77,10,12,4,5,0.6,0.6
2025-03-09T2000,1196A,119.9633,31.762,常州市,市监测站,,,60,81,34,52,94,,91,90,,52,9,11,0.4,0.7
2025-03-09T2000,1200A,119.9468,31.7069,常州市,武进监测站,,45,45,71,29,48,103,,95,95,19,33,3,3,0.4,0.7
2025-03-09T2000,1201A,119.9255,31.9087,常州市,安家,颗粒物(PM10),55,59,73,38,49,72,,103,97,36,33,8,8,0.7,0.7
2025-03-09T2000,3002A,119.9805,31.8174,常州市,行政中心,"颗粒物(PM10),细颗粒物(PM2.5)",52,53,67,36,50,75,,98,94,36,31,10,10,0.4,0.5
2025-03-09T2000,3003A,120.0522,31.7748,常州市,经开区,颗粒物(PM10),57,64,82,32,48,78,,101,96,39,34,8,8,0.5,0.5
2025-03-09T2000,3010A,119.9025,31.7964,常州市,钟楼,颗粒物(PM10),52,54,75,26,51,93,,92,92,24,31,7,9,0.4,0.7
2025-03-09T2000,3429A,119.8598,31.7066,常州市,武进经发区,,40,40,71,28,53,105,,98,98,25,39,11,8,0.6,0.7
2025-03-09T2000,3430A,119.5826,31.7245,常州市,金坛城区,颗粒物(PM10),52,54,85,35,60,110,,109,109,20,27,6,8,0.5,0.7
2025-03-09T2000,2220A,120.4318,41.5881,朝阳市,西梁,细颗粒物(PM2.5),145,115,132,111,98,128,,134,134,22,37,12,12,1.1,1.2
2025-03-09T2000,2221A,120.4521,41.5646,朝阳市,河畔小区,细颗粒物(PM2.5),148,,103,113,98,140,,141,141,22,33,11,12,1.0,1.1
2025-03-09T2000,2222A,120.4176,41.5648,朝阳市,八里堡,细颗粒物(PM2.5),134,,105,102,90,125,,128,128,22,36,12,12,1.0,1.1
2025-03-09T2000,2223A,120.3806,41.5969,朝阳市,农业园区,细颗粒物(PM2.5),169,,106,128,111,129,,130,130,26,37,11,12,1.3,1.2
2025-03-09T2000,1705A,116.6367,23.6719,潮州市,西园路,细颗粒物(PM2.5),63,62,44,45,29,100,,124,124,18,16,5,7,0.3,0.2
2025-03-09T2000,3026A,116.6183,23.6608,潮州市,市政府,,50,50,44,30,25,96,,118,118,22,21,5,8,0.4,0.4
2025-03-09T2000,4036A,116.6461,23.6761,潮州市,金山,细颗粒物(PM2.5),55,40,42,39,28,96,,120,120,18,17,6,8,0.6,0.6
2025-03-09T2000,2472A,113.0073,25.9061,郴州市,马头岭,颗粒物(PM10),53,55,48,27,25,42,,51,51,20,31,10,28,0.6,0.7
2025-03-09T2000,2473A,113.0116,25.8226,郴州市,市职中,颗粒物(PM10),51,52,48,35,39,34,,47,46,21,24,7,24,0.6,0.8
2025-03-09T2000,2475A,113.0383,25.8071,郴州市,市审计局,细颗粒物(PM2.5),57,50,52,40,42,30,,45,43,24,22,4,29,1.2,0.9
2025-03-09T2000,2476A,113.0348,25.7759,郴州市,市环保局,细颗粒物(PM2.5),67,54,58,48,43,26,,38,37,24,20,7,28,0.6,0.7
2025-03-09T2000,4252A,113.0138,25.8011,郴州市,好美居路49号,细颗粒物(PM2.5),62,50,56,44,42,28,,46,44,28,25,8,34,0.7,0.7
2025-03-09T2000,1431A,103.9728,30.7236,成都市,金泉两河,颗粒物(PM10),53,56,57,26,24,48,,68,67,29,22,2,2,0.7,0.5
2025-03-09T2000,1432A,104.176,30.6872,成都市,十里店,颗粒物(PM10),57,63,47,37,33,46,,62,62,43,30,2,2,0.7,0.6
2025-03-09T2000,1433A,104.079,30.5706,成都市,三瓦窑,细颗粒物(PM2.5),57,56,55,40,34,44,,55,55,51,31,4,3,0.8,0.6
2025-03-09T2000,1434A,104.1114,30.63,成都市,沙河铺,细颗粒物(PM2.5),74,,54,54,44,38,,55,54,38,26,5,5,0.9,0.7
2025-03-09T2000,1437A,104.0786,30.6531,成都市,君平街,细颗粒物(PM2.5),57,61,50,40,37,38,,62,60,53,30,6,5,0.7,0.7
2025-03-09T2000,1438A,103.613,31.0283,成都市,灵岩寺,,,,,,,,,,,,,,,,
2025-03-09T2000,2880A,104.0239,30.65639,成都市,大石西路,细颗粒物(PM2.5),62,63,53,44,35,43,,62,61,41,29,5,4,0.8,0.7
2025-03-09T2000,3136A,104.2725,30.5589,成都市,龙泉驿区区政府,,49,48,43,34,32,52,,69,67,24,22,4,4,0.7,0.6
2025-03-09T2000,3357A,104.0106,30.6931,成都市,金博路,颗粒物(PM10),52,54,43,30,28,42,,57,56,35,25,6,5,0.8,0.7
2025-03-09T2000,3359A,104.0578,30.5225,成都市,华阳,细颗粒物(PM2.5),58,56,52,41,39,31,,49,49,51,33,5,5,0.8,0.7
2025-03-09T2000,3488A,104.3853,30.7453,成都市,青白江技师分院,颗粒物(PM10),55,59,43,36,28,45,,76,74,38,26,5,5,0.5,0.5
2025-03-09T2000,3489A,104.0789,30.4072,成都市,科学城,细颗粒物(PM2.5),52,47,41,36,33,61,,72,72,35,26,5,4,0.5,0.4
2025-03-09T2000,4011A,103.8506,30.6947,成都市,光华大道三段,细颗粒物(PM2.5),58,54,50,41,30,63,,72,72,34,25,4,4,0.7,0.6
2025-03-09T2000,4224A,104.2433,30.5353,成都市,鲸龙路1057号,颗粒物(PM10),51,51,49,34,33,47,,70,68,40,29,4,4,0.8,0.7
2025-03-09T2000,1062A,117.9531,40.9081,承德市,铁路,细颗粒物(PM2.5),104,101,95,78,65,116,,124,124,35,32,7,7,0.6,0.7
2025-03-09T2000,1063A,117.9392,40.9763,承德市,中国银行,细颗粒物(PM2.5),92,114,91,68,60,132,,130,130,20,28,4,4,0.6,0.7
2025-03-09T2000,1064A,117.9503,40.928,承德市,开发区,细颗粒物(PM2.5),100,95,92,75,56,141,,138,138,23,34,6,5,0.6,0.7
2025-03-09T2000,1065A,117.8051,40.9655,承德市,文化中心,细颗粒物(PM2.5),97,110,100,72,61,138,,136,136,18,33,5,5,0.4,0.6
2025-03-09T2000,1066A,117.9268,41.0026,承德市,离宫,细颗粒物(PM2.5),104,107,84,78,59,122,,124,124,18,22,6,6,0.5,0.5
2025-03-09T2000,2314A,117.47,30.6618,池州市,池州学院,细颗粒物(PM2.5),90,85,91,67,71,30,,89,50,40,29,4,6,1.0,0.7
2025-03-09T2000,3237A,117.4918,30.6617,池州市,展览馆,细颗粒物(PM2.5),97,83,88,72,69,19,,90,46,46,25,5,6,1.0,0.7
2025-03-09T2000,3333A,117.5627,30.695,池州市,第八中学,细颗粒物(PM2.5),92,83,97,68,69,22,,86,48,40,24,4,6,1.1,0.7
2025-03-09T2000,3334A,117.5038,30.6243,池州市,第十二中学,细颗粒物(PM2.5),95,73,83,71,68,2,,81,32,58,29,6,7,1.1,0.9
2025-03-09T2000,1744A,118.9233,42.2816,赤峰市,松山一中,细颗粒物(PM2.5),74,82,98,54,55,123,,126,126,26,50,12,17,0.9,1.1
2025-03-09T2000,1745A,118.9576,42.2728,赤峰市,哈达街,细颗粒物(PM2.5),84,81,105,62,55,121,,124,124,19,51,11,25,0.8,1.1
2025-03-09T2000,1746A,118.8788,42.2554,赤峰市,天义路,细颗粒物(PM2.5),77,73,90,56,64,105,,107,107,19,35,8,11,0.3,0.5
2025-03-09T2000,3058A,119.2658,42.0353,赤峰市,银河街,颗粒物(PM10),86,121,167,61,78,100,,101,101,23,36,16,27,0.8,1.1
2025-03-09T2000,3286A,118.9359,42.3147,赤峰市,桥北物流园区,细颗粒物(PM2.5),69,75,92,50,85,109,,112,112,20,46,8,14,0.8,1
2025-03-09T2000,2521A,107.3476,22.4136,崇左市,市环保局江州分局,细颗粒物(PM2.5),59,61,49,42,36,34,,49,47,19,12,5,6,0.9,0.8
2025-03-09T2000,4256A,107.3750,22.3736,崇左市,石景林东路7号,细颗粒物(PM2.5),72,56,41,52,41,35,,55,46,22,15,6,6,0.7,0.7
2025-03-09T2000,2298A,118.3093,32.3153,滁州市,老年大学,细颗粒物(PM2.5),72,68,88,52,71,84,,111,105,34,35,6,7,0.6,0.7
2025-03-09T2000,2299A,118.3244,32.2786,滁州市,人大宾馆,细颗粒物(PM2.5),58,56,86,41,71,102,,109,108,28,35,8,9,0.5,0.7
2025-03-09T2000,3207A,118.3118,32.3038,滁州市,市政府原办公楼,细颗粒物(PM2.5),62,53,76,44,64,99,,109,104,26,35,5,7,0.3,0.6
2025-03-09T2000,3331A,118.3267,32.2634,滁州市,图书馆,颗粒物(PM10),56,61,87,33,58,104,,111,110,30,36,5,7,0.4,0.6
2025-03-09T2000,2605A,101.5482,25.0441,楚雄彝族自治州,州环境监测站,细颗粒物(PM2.5),58,58,45,41,34,112,,120,120,12,21,8,8,0.7,0.7
2025-03-09T2000,2606A,101.538,25.0492,楚雄彝族自治州,市经济开发区,细颗粒物(PM2.5),67,75,50,48,35,104,,119,118,20,18,7,7,0.8,0.7
2025-03-09T2000,2548A,107.5277,31.2827,达州市,达州职业技术学院,颗粒物(PM10),53,55,59,28,38,24,,42,42,36,23,5,6,0.4,0.4
2025-03-09T2000,2549A,107.5086,31.2186,达州市,市环境监测站,颗粒物(PM10),56,62,59,31,34,32,,35,35,40,37,5,6,0.6,0.6
2025-03-09T2000,2550A,107.4988,31.2132,达州市,凤凰小区,颗粒物(PM10),56,61,56,34,36,28,,42,42,40,35,6,8,0.5,0.4
2025-03-09T2000,2551A,107.5082,31.1986,达州市,达县机关宾馆,颗粒物(PM10),53,56,59,32,39,30,,40,40,36,32,4,6,0.7,0.7
2025-03-09T2000,2552A,107.4644,31.2124,达州市,市政中心,颗粒物(PM10),70,89,65,41,35,23,,38,38,48,39,4,2,0.7,0.6
2025-03-09T2000,2614A,100.1542,25.7054,大理白族自治州,大理市环境监测站,颗粒物(PM10),52,53,53,34,39,120,,130,128,9,8,7,7,0.7,0.7
2025-03-09T2000,2615A,100.2171,25.5811,大理白族自治州,大理古城,细颗粒物(PM2.5),69,,49,50,39,118,,134,125,8,7,6,9,0.5,0.7
2025-03-09T2000,1109A,121.612,38.9741,大连市,甘井子,细颗粒物(PM2.5),134,106,100,102,64,122,,116,116,27,36,4,6,1.0,0.8
2025-03-09T2000,1110A,121.565,38.9511,大连市,周水子,细颗粒物(PM2.5),169,,107,128,95,111,,105,105,25,33,12,8,0.8,0.7
2025-03-09T2000,1111A,121.5637,38.8845,大连市,星海三站,细颗粒物(PM2.5),144,120,104,110,89,69,,104,100,33,21,8,7,1.4,1.1
2025-03-09T2000,1112A,121.6302,38.9117,大连市,青泥洼桥,细颗粒物(PM2.5),158,138,109,120,90,104,,125,124,24,27,7,8,1.1,0.8
2025-03-09T2000,1113A,121.6251,38.8638,大连市,傅家庄,细颗粒物(PM2.5),127,101,98,96,76,113,,109,109,24,28,6,6,0.9,0.7
2025-03-09T2000,1114A,121.5213,38.8661,大连市,七贤岭,细颗粒物(PM2.5),135,131,116,103,90,68,,96,93,40,26,7,7,1.0,0.7
2025-03-09T2000,1115A,121.2529,38.8061,大连市,旅顺,细颗粒物(PM2.5),144,114,125,110,107,110,,102,102,22,29,4,5,0.9,0.8
2025-03-09T2000,1116A,121.7485,39.1311,大连市,金州,细颗粒物(PM2.5),137,137,122,104,88,125,,133,133,26,28,7,7,0.8,0.8
2025-03-09T2000,1117A,121.7811,39.0496,大连市,开发区,细颗粒物(PM2.5),139,116,86,106,65,111,,108,108,23,33,6,7,1.4,1.2
2025-03-09T2000,1118A,121.9762,39.0631,大连市,双D港,细颗粒物(PM2.5),216,,60,166,79,137,,128,128,15,16,8,8,0.9,0.7
2025-03-09T2000,1789A,124.81117,46.03138,大庆市,大同区,颗粒物(PM10),157,264,134,104,72,95,,107,107,26,23,9,7,1.3,1
2025-03-09T2000,1790A,125.129,46.533,大庆市,龙凤区,"颗粒物(PM10),细颗粒物(PM2.5)",117,184,107,88,60,98,,107,107,21,21,24,11,1.0,0.7
2025-03-09T2000,1791A,124.902,46.408,大庆市,红岗区,细颗粒物(PM2.5),132,190,99,100,59,106,,122,122,22,19,8,10,1.0,0.6
2025-03-09T2000,1792A,125.153,46.586,大庆市,萨尔图区,细颗粒物(PM2.5),149,211,112,114,64,100,,108,108,27,23,10,8,1.0,0.6
2025-03-09T2000,1793A,124.9042,46.6215,大庆市,让胡路区,细颗粒物(PM2.5),128,181,94,97,64,99,,112,112,22,26,10,9,1.1,1
2025-03-09T2000,3481A,125.141,46.634,大庆市,萨区政府监测点,细颗粒物(PM2.5),147,213,103,112,63,113,,119,119,25,18,13,9,1.0,0.7
2025-03-09T2000,1721A,113.3819,40.1097,大同市,果树场,颗粒物(PM10),76,102,77,53,45,99,,110,109,19,22,13,10,0.6,0.6
2025-03-09T2000,1723A,113.2994,40.0758,大同市,云冈宾馆,颗粒物(PM10),86,122,84,60,46,96,,118,114,26,35,14,11,0.8,0.7
2025-03-09T2000,1724A,113.3444,40.0917,大同市,大同大学,细颗粒物(PM2.5),78,102,75,57,44,98,,117,115,25,25,13,12,0.7,0.7
2025-03-09T2000,1725A,113.2661,40.1269,大同市,安家小村,"颗粒物(PM10),细颗粒物(PM2.5)",89,127,91,66,48,98,,115,113,26,25,15,13,0.6,0.5
2025-03-09T2000,1726A,113.2711,40.0844,大同市,教育学院,细颗粒物(PM2.5),88,121,93,65,49,96,,116,114,26,35,13,11,0.7,0.7
2025-03-09T2000,3282A,113.3397,40.0597,大同市,大同市卫生学校,颗粒物(PM10),84,117,85,59,46,94,,115,113,26,28,10,10,0.7,0.6
2025-03-09T2000,3565A,113.1367,40.1122,大同市,云冈站,颗粒物(PM10),89,127,104,58,47,87,,108,107,24,30,17,24,0.7,0.7
2025-03-09T2000,3566A,113.1186,40.2556,大同市,图书馆,颗粒物(PM10),89,128,85,54,43,63,,96,93,49,24,27,14,0.9,0.7
2025-03-09T2000,3567A,113.5931,40.0461,大同市,区一中,颗粒物(PM10),81,111,96,29,32,94,,116,113,30,20,19,18,0.6,0.6
2025-03-09T2000,4199A,113.2798,40.0997,大同市,魏都大道141号,颗粒物(PM10),84,118,100,57,50,97,,113,111,21,34,17,15,0.9,0.9
2025-03-09T2000,2269A,124.1069,50.4097,大兴安岭地区,科技局,"颗粒物(PM10),细颗粒物(PM2.5)",77,103,59,56,34,119,,111,111,15,13,6,7,0.6,0.5
2025-03-09T2000,3663A,124.1164,50.4278,大兴安岭地区,红旗社区,细颗粒物(PM2.5),78,88,47,57,35,112,,115,115,25,20,16,8,0.6,0.5
2025-03-09T2000,1600A,124.3303,40.0625,丹东市,江湾东路,细颗粒物(PM2.5),114,99,72,86,60,90,,106,105,18,19,15,15,0.9,1.1
2025-03-09T2000,1601A,124.4256,40.1503,丹东市,临江后街,细颗粒物(PM2.5),107,104,81,80,61,91,,108,108,16,23,7,10,1.5,1.5
2025-03-09T2000,1602A,124.3933,40.1461,丹东市,元宝山,细颗粒物(PM2.5),104,98,70,78,54,80,,102,100,24,27,6,8,1.1,1
2025-03-09T2000,1603A,124.3633,40.1092,丹东市,民主桥,细颗粒物(PM2.5),117,98,75,88,55,77,,101,100,20,29,10,9,1.2,1.1
2025-03-09T2000,3541A,109.5726,19.5167,儋州市,第一中学子站,,40,40,20,19,12,79,,76,76,6,6,4,4,0.7,0.7
2025-03-09T2000,3542A,109.5567,19.5187,儋州市,东坡学校子站,,36,36,23,20,11,78,,77,77,9,9,4,3,0.7,0.7
2025-03-09T2000,2616A,98.5842,24.428,德宏傣族景颇族自治州,德宏州监测站,细颗粒物(PM2.5),70,77,88,51,65,83,,116,115,26,27,7,9,0.8,0.9
2025-03-09T2000,3677A,98.5881,24.4368,德宏傣族景颇族自治州,芒市人民政府综合楼,颗粒物(PM10),76,102,106,48,64,89,,130,129,31,18,8,8,0.7,0.7
2025-03-09T2000,1901A,104.4239,31.1208,德阳市,东山公园,,38,27,34,26,30,72,,81,81,13,13,2,2,0.6,0.6
2025-03-09T2000,1902A,104.3826,31.1317,德阳市,西小区,,40,35,42,28,33,64,,77,77,25,20,3,3,0.6,0.6
2025-03-09T2000,1904A,104.3553,31.1091,德阳市,耐火材料厂,,43,40,43,30,37,60,,73,73,32,23,6,6,0.5,0.4
2025-03-09T2000,3639A,104.4019,31.1244,德阳市,市教育局,,33,26,34,23,30,63,,79,78,26,21,3,3,0.6,0.6
2025-03-09T2000,1622A,116.3032,37.4674,德州市,儿童乐园,细颗粒物(PM2.5),104,110,120,78,85,142,,157,157,26,31,7,9,0.8,0.9
2025-03-09T2000,1624A,116.2991,37.4451,德州市,监理站,细颗粒物(PM2.5),100,100,112,75,84,139,,156,156,44,36,12,15,0.8,0.9
2025-03-09T2000,3066A,116.2721,37.4379,德州市,九衢泉纯净水厂,细颗粒物(PM2.5),100,110,119,75,79,128,,152,152,34,39,11,13,0.8,0.9
2025-03-09T2000,3371A,116.3728,37.4403,德州市,开发区人民医院,细颗粒物(PM2.5),85,102,117,63,77,116,,148,146,38,35,11,14,0.6,0.8
2025-03-09T2000,3372A,116.3572,37.4094,德州市,太阳城中学,细颗粒物(PM2.5),92,107,124,68,87,125,,148,147,26,44,6,9,0.6,0.8
2025-03-09T2000,3511A,116.5652,37.3319,德州市,陵城艺术中心,细颗粒物(PM2.5),92,105,110,68,79,134,,148,148,24,35,10,12,0.8,0.8
2025-03-09T2000,2621A,99.7056,27.8317,迪庆藏族自治州,迪庆州站,,47,47,36,20,21,103,,105,104,13,10,8,7,0.5,0.5
2025-03-09T2000,3180A,99.7136,27.8094,迪庆藏族自治州,质量技术监督局,,48,34,32,33,25,97,,100,100,14,10,8,8,0.7,0.7
2025-03-09T2000,4257A,104.6092,35.5962,定西市,将台街,颗粒物(PM10),59,67,58,23,27,84,,86,86,21,14,18,9,1.5,0.3
2025-03-09T2000,4309A,104.6159,35.5701,定西市,正龙路62号,颗粒物(PM10),60,69,60,38,34,94,,91,91,10,9,12,7,0.5,0.5
2025-03-09T2000,1389A,113.7547,23.0494,东莞市,莞城梨川,细颗粒物(PM2.5),90,112,59,67,42,132,,139,139,50,36,8,7,0.9,0.8
2025-03-09T2000,1390A,113.7944,23.0128,东莞市,东城石井,细颗粒物(PM2.5),59,66,51,42,33,95,,130,130,23,26,8,8,0.8,0.7
2025-03-09T2000,1391A,113.7383,22.9658,东莞市,南城西平,颗粒物(PM10),61,72,56,41,35,120,,165,165,51,46,12,12,0.7,0.8
2025-03-09T2000,3319A,113.7338,23.0381,东莞市,万江金泰,细颗粒物(PM2.5),87,98,52,64,36,148,,162,162,52,32,8,6,1.2,1
2025-03-09T2000,3626A,113.7533,23.0202,东莞市,南城元岭,细颗粒物(PM2.5),80,95,56,59,37,136,,149,149,45,33,8,6,0.9,0.8
2025-03-09T2000,3627A,113.7875,23.0457,东莞市,东城主山,细颗粒物(PM2.5),84,114,63,62,34,146,,144,144,42,33,10,8,0.9,0.7
2025-03-09T2000,1666A,118.6614,37.4309,东营市,市环保局,细颗粒物(PM2.5),92,105,127,68,88,114,,143,142,25,33,4,7,1.0,0.7
2025-03-09T2000,3036A,118.6904,37.4338,东营市,开发区管委会,细颗粒物(PM2.5),100,101,133,75,103,120,,144,144,27,38,5,7,0.9,1
2025-03-09T2000,3365A,118.5719,37.565,东营市,垦利区民丰路,细颗粒物(PM2.5),77,92,123,56,90,113,,148,146,37,44,2,4,0.7,1
2025-03-09T2000,3498A,118.5055,37.8612,东营市,河口城区,细颗粒物(PM2.5),92,124,140,68,97,112,,152,150,33,27,4,6,0.8,1
2025-03-09T2000,3646A,118.4978,37.4623,东营市,胜利站,"颗粒物(PM10),细颗粒物(PM2.5)",79,108,152,58,96,117,,144,142,30,43,9,13,0.8,1.1
2025-03-09T2000,3734A,118.35,37.26,东营市,理想之城,细颗粒物(PM2.5),92,107,139,68,97,92,,137,134,35,40,6,10,0.6,0.9
2025-03-09T2000,1591A,110.0023,39.8129,鄂尔多斯市,综合楼,颗粒物(PM10),103,156,126,29,37,81,,97,97,27,26,6,8,0.4,0.5
2025-03-09T2000,1592A,109.9486,39.8261,鄂尔多斯市,巴音孟克林场办事处,颗粒物(PM10),93,136,117,24,36,78,,98,98,30,24,6,10,0.5,0.6
2025-03-09T2000,1593A,109.7736,39.5986,鄂尔多斯市,康泽苑,颗粒物(PM10),145,239,116,51,38,83,,106,104,24,22,8,10,0.4,0.5
2025-03-09T2000,1594A,109.8119,39.5989,鄂尔多斯市,华泰汽车城,颗粒物(PM10),157,263,122,61,43,56,,96,92,45,29,10,10,0.6,0.6
2025-03-09T2000,1595A,109.9734,39.7884,鄂尔多斯市,奥林花园,颗粒物(PM10),98,146,126,29,39,62,,99,96,43,27,6,8,0.5,0.7
2025-03-09T2000,2436A,114.8938,30.3994,鄂州市,市政府,细颗粒物(PM2.5),99,86,74,74,64,43,,77,68,44,31,5,7,0.9,0.7
2025-03-09T2000,2437A,114.8989,30.3714,鄂州市,赵家坝,细颗粒物(PM2.5),98,83,77,73,62,31,,70,62,48,28,2,2,1.1,0.9
2025-03-09T2000,3654A,114.8094,30.4089,鄂州市,精准医疗中心,细颗粒物(PM2.5),109,99,83,82,68,26,,65,56,61,44,4,12,1.0,1.6
2025-03-09T2000,2454A,109.4978,30.2981,恩施土家族苗族自治州,湖北民院,"颗粒物(PM10),细颗粒物(PM2.5)",52,54,50,36,40,36,,65,64,44,28,4,4,0.3,0.3
2025-03-09T2000,2455A,109.4707,30.2798,恩施土家族苗族自治州,州电力总公司,"颗粒物(PM10),细颗粒物(PM2.5)",54,58,51,38,39,17,,57,55,50,24,5,5,0.5,0.5
2025-03-09T2000,3549A,109.5061,30.3772,恩施土家族苗族自治州,龙凤新区,,46,42,48,32,35,35,,52,52,18,17,6,6,0.8,0.8
2025-03-09T2000,2499A,108.3411,21.6158,防城港市,沙万,,35,31,26,24,24,34,,44,44,19,13,7,7,0.8,0.7
2025-03-09T2000,2500A,108.3514,21.7731,防城港市,防城档案局,,35,32,29,24,23,31,,32,32,15,17,6,6,0.4,0.5
2025-03-09T2000,2501A,108.3506,21.6414,防城港市,大海花园,,32,31,26,22,27,43,,49,49,12,10,5,4,0.9,0.9
2025-03-09T2000,1371A,113.1294,23.0067,佛山市,湾梁,颗粒物(PM10),82,114,76,50,36,53,,93,93,74,59,8,10,0.9,0.8
2025-03-09T2000,1372A,113.1083,23.0478,佛山市,华材职中,颗粒物(PM10),86,122,77,58,41,65,,104,104,85,61,8,8,0.9,0.8
2025-03-09T2000,1373A,113.144,23.0453,佛山市,南海气象局,细颗粒物(PM2.5),70,74,59,51,36,76,,107,107,47,51,8,8,0.8,0.7
2025-03-09T2000,1374A,113.2881,22.8094,佛山市,顺德苏岗,细颗粒物(PM2.5),107,101,65,80,36,98,,116,116,51,51,6,7,0.9,0.8
2025-03-09T2000,1376A,112.8383,22.8678,佛山市,高明孔堂,颗粒物(PM10),66,81,61,47,44,126,,159,159,29,39,5,10,0.8,0.8
2025-03-09T2000,1377A,112.8836,23.1588,佛山市,三水监测站,细颗粒物(PM2.5),90,122,66,67,45,66,,85,85,87,54,3,4,1.0,0.7
2025-03-09T2000,1378A,112.867,23.185,佛山市,三水云东海,细颗粒物(PM2.5),69,71,51,50,34,78,,88,88,48,46,2,6,0.9,0.7
2025-03-09T2000,3625A,113.2544,22.7642,佛山市,容桂街道办,细颗粒物(PM2.5),113,122,65,85,42,133,,134,134,56,58,9,9,1.0,0.9
2025-03-09T2000,1280A,119.3903,26.0543,福州市,鼓山,,,,33,,16,,,107,,,7,,2,,0.4
2025-03-09T2000,1282A,119.2681,26.0504,福州市,师大,,38,38,38,10,24,91,,119,115,17,15,3,4,0.2,0.3
2025-03-09T2000,1283A,119.2984,26.1028,福州市,五四北路,,30,30,35,10,24,96,,118,115,18,20,4,5,0.4,0.5
2025-03-09T2000,1284A,119.2648,26.0768,福州市,杨桥西路,,31,28,40,9,23,98,,121,116,14,16,4,5,0.3,0.4
2025-03-09T2000,1285A,119.317,26.0746,福州市,紫阳,,34,34,41,9,25,95,,109,106,19,24,4,5,0.4,0.6
2025-03-09T2000,3048A,119.5799,26.0936,福州市,九龙,,32,25,33,3,20,102,,118,116,9,12,3,6,0.3,0.5
2025-03-09T2000,3526A,119.5189,25.9664,福州市,吴航,,34,16,33,8,22,107,,122,117,11,15,3,5,0.2,0.3
2025-03-09T2000,1755A,123.7977,41.8491,抚顺市,望花区,颗粒物(PM10),64,78,145,45,96,106,,122,121,13,43,10,11,0.6,1.1
2025-03-09T2000,1756A,123.9161,41.8822,抚顺市,顺城区,细颗粒物(PM2.5),67,75,135,48,89,108,,121,120,15,45,9,9,0.6,1.1
2025-03-09T2000,1757A,124.0436,41.8611,抚顺市,东洲区,细颗粒物(PM2.5),65,64,113,47,77,106,,81,,15,23,6,7,0.8,0.9
2025-03-09T2000,1758A,123.9247,41.8642,抚顺市,新抚区,细颗粒物(PM2.5),74,79,136,54,95,102,,121,119,17,46,7,6,0.6,1.3
2025-03-09T2000,1759A,124.0972,41.8961,抚顺市,大伙房水库,细颗粒物(PM2.5),72,62,102,52,79,107,,115,115,9,24,8,8,0.7,1
2025-03-09T2000,1760A,123.7086,41.8391,抚顺市,沈抚新城,颗粒物(PM10),63,75,129,44,94,102,,126,123,19,47,7,8,1.0,1.2
2025-03-09T2000,2376A,116.2127,28.0814,抚州市,桐源党溪,颗粒物(PM10),56,61,56,37,33,39,,49,49,9,10,10,14,0.6,0.5
2025-03-09T2000,2377A,116.3544,27.9831,抚州市,市站,细颗粒物(PM2.5),58,63,58,41,36,44,,48,48,32,30,15,16,0.7,0.5
2025-03-09T2000,2378A,116.3565,27.963,抚州市,血防站,"颗粒物(PM10),细颗粒物(PM2.5)",58,65,61,41,37,42,,49,49,26,25,4,7,0.8,0.7
2025-03-09T2000,2379A,116.3564,28.0007,抚州市,采茶剧团,细颗粒物(PM2.5),62,61,56,44,38,35,,43,42,21,13,8,9,1.1,1
2025-03-09T2000,2380A,116.385,27.9647,抚州市,医学分院,颗粒物(PM10),60,69,59,39,34,38,,45,44,20,20,4,6,0.9,0.8
2025-03-09T2000,2207A,121.6094,41.998,阜新市,工业园区,颗粒物(PM10),354,463,243,136,145,172,,154,154,18,32,11,14,1.0,1.2
2025-03-09T2000,2208A,121.6697,42.0279,阜新市,长青街,细颗粒物(PM2.5),168,262,162,127,132,172,,153,153,20,30,10,11,0.9,1
2025-03-09T2000,2209A,121.6673,42.0705,阜新市,农业园区,颗粒物(PM10),159,267,182,119,115,172,,154,154,11,19,13,17,1.0,1.2
2025-03-09T2000,2210A,121.6717,42.0224,阜新市,东苑,细颗粒物(PM2.5),149,232,189,114,125,160,,144,144,21,30,12,18,0.9,1.2
2025-03-09T2000,2211A,121.6506,42.0498,阜新市,玉龙新城,细颗粒物(PM2.5),169,286,200,128,134,169,,152,152,18,41,14,14,0.9,1.1
2025-03-09T2000,2301A,115.8277,32.8929,阜阳市,市监测站,细颗粒物(PM2.5),112,109,104,84,86,102,,139,137,32,30,7,8,0.6,0.7
2025-03-09T2000,2303A,115.8554,32.8605,阜阳市,开发区,细颗粒物(PM2.5),102,144,122,76,79,108,,142,140,37,30,8,8,0.7,0.7
2025-03-09T2000,2875A,115.784,32.8892,阜阳市,阜阳职业技术学院,细颗粒物(PM2.5),105,98,100,79,78,113,,129,129,22,23,7,8,0.7,0.7
2025-03-09T2000,3468A,115.7901,32.8613,阜阳市,市规划展馆,细颗粒物(PM2.5),102,98,102,76,81,120,,142,141,25,23,8,8,0.7,0.7
2025-03-09T2000,3469A,115.836,32.9183,阜阳市,枣园社区,细颗粒物(PM2.5),108,107,111,81,84,110,,142,141,31,25,7,8,0.6,0.6
2025-03-09T2000,2669A,102.9099,34.9841,甘南藏族自治州,州政府,颗粒物(PM10),61,71,57,17,23,74,,87,87,16,23,8,7,0.5,0.6
2025-03-09T2000,3380A,102.8914,34.9617,甘南藏族自治州,甘肃民族师范学院,,49,49,59,19,22,62,,94,94,15,21,9,10,0.3,0.4
2025-03-09T2000,2570A,101.9603,30.0475,甘孜藏族自治州,水桥子,,34,34,21,15,9,31,,53,51,31,17,3,3,0.6,0.5
2025-03-09T2000,3065A,101.9533,29.9972,甘孜藏族自治州,州环保局,,27,27,19,3,8,36,,60,58,32,15,4,4,0.4,0.3
2025-03-09T2000,3414A,115.8347,28.932,赣江新区,桑海产业园,细颗粒物(PM2.5),59,66,57,42,37,30,,43,43,42,49,6,7,0.4,0.3
2025-03-09T2000,2362A,114.9017,25.9149,赣州市,通天岩,,24,24,28,3,6,25,,51,48,7,5,9,10,0.4,0.2
2025-03-09T2000,2363A,114.9367,25.8664,赣州市,地委,,43,43,34,25,20,23,,61,58,55,13,10,10,1.0,0.6
2025-03-09T2000,2364A,114.9461,25.8481,赣州市,气象台,颗粒物(PM10),58,65,41,24,17,31,,62,60,63,18,9,8,1.2,0.6
2025-03-09T2000,2365A,114.9322,25.8333,赣州市,市图书馆,颗粒物(PM10),55,59,35,24,21,27,,60,58,57,19,4,4,1.0,0.6
2025-03-09T2000,2366A,114.8905,25.8471,赣州市,华坚鞋城,,,,32,,20,,,52,,,12,,5,,0.5
2025-03-09T2000,3109A,115.0093,25.8613,赣州市,赣县区卫计委,颗粒物(PM10),59,68,33,37,22,14,,52,48,47,13,4,4,0.7,0.3
2025-03-09T2000,2683A,106.2319,36.1417,固原市,马园,颗粒物(PM10),101,152,67,58,25,51,,95,89,52,15,6,5,0.5,0.5
2025-03-09T2000,2684A,106.2792,36.0022,固原市,监测站,颗粒物(PM10),87,123,90,34,35,101,,106,106,18,22,9,8,0.6,0.7
2025-03-09T2000,2685A,106.2375,36.0211,固原市,新区,,,144,87,35,36,,,98,98,15,18,9,8,0.5,0.6
2025-03-09T2000,3522A,106.2177,35.9959,固原市,原州区十五小,颗粒物(PM10),81,112,75,36,29,98,,99,99,14,13,8,7,0.4,0.4
2025-03-09T2000,2543A,106.6308,30.5278,广安市,小平旧居,,,,,,,,,,,,,,,,
2025-03-09T2000,2544A,106.6303,30.4576,广安市,市委,细颗粒物(PM2.5),82,65,58,60,48,54,,68,67,17,14,3,3,0.5,0.4
2025-03-09T2000,2545A,106.6271,30.4663,广安市,友谊中学,细颗粒物(PM2.5),82,78,62,60,48,49,,67,66,25,18,3,2,0.6,0.6
2025-03-09T2000,2547A,106.6388,30.4551,广安市,广电花园,细颗粒物(PM2.5),79,68,57,58,47,40,,62,60,27,21,3,3,0.6,0.5
2025-03-09T2000,2902A,106.6351,30.4865,广安市,北辰小学,细颗粒物(PM2.5),70,65,58,51,47,52,,67,67,20,16,6,7,0.6,0.5
2025-03-09T2000,2523A,105.8945,32.4535,广元市,黑石坡,,38,34,45,26,31,46,,60,60,13,16,9,10,0.5,0.5
2025-03-09T2000,2524A,105.821,32.4444,广元市,老城,,46,46,51,22,31,51,,63,63,18,26,3,2,0.5,0.7
2025-03-09T2000,2526A,105.8628,32.4287,广元市,监测站,,38,36,42,26,32,54,,65,65,16,23,4,6,0.4,0.6
2025-03-09T2000,3617A,105.8047,32.4166,广元市,经开区,,30,23,51,21,41,53,,56,56,14,28,2,4,0.6,0.8
2025-03-09T2000,1345A,113.2347,23.1423,广州市,广雅中学,细颗粒物(PM2.5),64,65,63,46,43,45,,106,106,62,49,6,6,0.8,0.7
2025-03-09T2000,1346A,113.2612,23.105,广州市,市五中,颗粒物(PM10),69,88,66,49,36,63,,110,110,59,48,5,5,0.8,0.7
2025-03-09T2000,1348A,113.3478,23.0916,广州市,广东商学院,细颗粒物(PM2.5),89,91,55,66,38,64,,116,116,76,44,4,5,0.8,0.6
2025-03-09T2000,1349A,113.4332,23.1047,广州市,市八十六中,细颗粒物(PM2.5),79,93,55,58,35,38,,115,115,143,51,6,5,0.5,0.4
2025-03-09T2000,1350A,113.3505,22.9483,广州市,番禺中学,细颗粒物(PM2.5),70,80,65,51,41,144,,173,173,51,52,8,9,0.8,0.8
2025-03-09T2000,1351A,113.2146,23.3916,广州市,花都师范,"颗粒物(PM10),细颗粒物(PM2.5)",59,68,53,42,35,70,,84,84,42,42,6,9,0.7,0.6
2025-03-09T2000,1352A,113.2597,23.1331,广州市,市监测站,颗粒物(PM10),57,63,60,37,32,46,,109,109,70,49,8,8,0.8,0.8
2025-03-09T2000,1353A,113.5618,23.312,广州市,九龙镇镇龙,细颗粒物(PM2.5),72,74,46,52,35,78,,96,96,48,34,6,6,0.8,0.7
2025-03-09T2000,1354A,113.2765,23.1544,广州市,麓湖,颗粒物(PM10),54,57,54,35,33,51,,116,115,66,44,5,5,0.8,0.8
2025-03-09T2000,1355A,113.443,23.3035,广州市,帽峰山森林公园,,48,48,27,30,27,86,,94,94,30,19,5,6,0.7,0.7
2025-03-09T2000,2846A,113.3221,23.1322,广州市,体育西,细颗粒物(PM2.5),69,77,56,50,38,71,,123,123,66,45,7,7,0.9,0.8
2025-03-09T2000,3298A,113.5717,23.5491,广州市,从化街口,细颗粒物(PM2.5),55,54,49,39,35,75,,97,97,28,32,16,12,0.8,0.7
2025-03-09T2000,3299A,113.3472,23.3692,广州市,白云竹料,颗粒物(PM10),64,77,65,44,37,41,,89,88,72,36,9,10,0.9,0.8
2025-03-09T2000,3300A,113.2981,23.237,广州市,白云嘉禾,,,89,78,52,40,,,31,,69,50,5,5,0.8,0.6
2025-03-09T2000,3301A,113.4256,23.1716,广州市,黄埔科学城,颗粒物(PM10),53,55,38,33,26,87,,120,120,37,30,6,5,0.7,0.6
2025-03-09T2000,3302A,113.3942,23.0483,广州市,番禺大学城,,,97,55,44,32,,,147,147,47,51,4,6,0.6,0.2
2025-03-09T2000,3303A,113.4922,22.8168,广州市,南沙黄阁,颗粒物(PM10),57,64,66,29,38,111,,163,163,40,45,5,6,0.7,0.7
2025-03-09T2000,3304A,113.5342,22.7896,广州市,南沙街,颗粒物(PM10),57,63,58,24,33,95,,174,172,42,46,6,8,0.6,0.7
2025-03-09T2000,3443A,113.2902,23.5544,广州市,花都梯面,,49,46,33,34,27,33,,82,81,44,25,6,11,0.8,0.6
2025-03-09T2000,3445A,113.7858,23.7478,广州市,从化良口,,42,35,20,29,18,48,,72,72,15,15,6,6,0.7,0.7
2025-03-09T2000,3446A,113.8051,23.2614,广州市,增城荔城,,45,43,37,31,24,77,,104,104,20,17,7,8,0.7,0.6
2025-03-09T2000,2505A,109.568,23.1478,贵港市,德智高中,,,,,,,,,,,,,,,,
2025-03-09T2000,2506A,109.6047,23.0666,贵港市,江南子站,细颗粒物(PM2.5),54,48,32,38,30,19,,37,36,31,23,4,5,0.7,0.7
2025-03-09T2000,2507A,109.6014,23.0948,贵港市,贵城子站,细颗粒物(PM2.5),58,52,35,41,27,20,,38,35,28,17,6,6,1.0,0.8
2025-03-09T2000,2508A,109.5669,23.1065,贵港市,荷城子站,细颗粒物(PM2.5),52,44,28,36,20,19,,32,31,27,19,7,7,0.7,0.7
2025-03-09T2000,3405A,109.5886,23.1172,贵港市,新世纪学校,颗粒物(PM10),53,56,33,36,27,20,,34,32,24,18,4,3,0.5,0.4
2025-03-09T2000,1439A,106.6899,26.5998,贵阳市,马鞍山,,19,19,11,12,7,14,,28,24,17,13,4,4,0.7,0.6
2025-03-09T2000,1441A,106.6243,26.6266,贵阳市,鉴湖路,,36,36,23,19,9,21,,28,24,22,17,9,9,0.6,0.5
2025-03-09T2000,1442A,106.7487,26.6343,贵阳市,燕子冲,,32,29,14,22,13,27,,38,38,16,12,8,6,0.5,0.4
2025-03-09T2000,1443A,106.6555,26.4365,贵阳市,碧云窝,,46,46,33,19,13,23,,37,26,29,19,14,10,0.5,0.6
2025-03-09T2000,1445A,106.7109,26.6027,贵阳市,红边门,,42,36,18,29,13,22,,32,32,27,22,11,6,0.9,0.7
2025-03-09T2000,1446A,106.7164,26.5699,贵阳市,新华路,,36,36,20,17,12,28,,37,36,22,17,10,9,0.7,0.5
2025-03-09T2000,1447A,106.674,26.5424,贵阳市,太慈桥,,36,36,22,17,12,25,,28,28,25,25,6,6,0.5,0.5
2025-03-09T2000,1552A,106.805,26.3003,贵阳市,桐木岭,,24,24,28,14,16,30,,45,35,14,4,24,16,0.4,0.4
2025-03-09T2000,4230A,106.6882,26.5695,贵阳市,花果园大街66号,,35,27,13,24,17,22,,25,25,20,19,6,4,0.7,0.6
2025-03-09T2000,4231A,106.6873,26.5169,贵阳市,漓江路57号,,34,34,22,17,14,26,,27,27,23,24,12,11,0.6,0.5
2025-03-09T2000,1862A,110.4144,25.3167,桂林市,电子科大尧山校区,,,,,,,,,,,,,,,,
2025-03-09T2000,1864A,110.3089,25.2708,桂林市,龙隐路小学,,38,,28,26,30,25,,56,41,30,15,7,7,0.9,0.8
2025-03-09T2000,1865A,110.2869,25.2178,桂林市,八中,,30,27,31,21,26,23,,53,36,36,21,6,6,0.7,0.6
2025-03-09T2000,3531A,110.296,25.1253,桂林市,旅游学院,,,,24,,26,,,54,,,11,,6,,0.7
2025-03-09T2000,4222A,110.1835,25.2444,桂林市,环湖路276号,,32,,28,22,27,33,,53,44,29,17,9,9,1.0,0.9
2025-03-09T2000,4301A,110.2803,25.2773,桂林市,信义路13号,,28,23,29,19,25,20,,56,37,36,19,6,6,1.0,0.8
2025-03-09T2000,2674A,100.2561,34.4714,果洛藏族自治州,玛沁县大武镇,,34,34,36,16,17,98,,107,107,2,2,11,12,0.4,0.5
2025-03-09T2000,1129A,126.5422,45.755,哈尔滨市,岭北,细颗粒物(PM2.5),122,108,93,92,69,118,,133,133,27,43,18,20,1.1,1
2025-03-09T2000,1130A,126.561,45.8167,哈尔滨市,松北商大,细颗粒物(PM2.5),114,124,93,86,66,115,,124,124,22,48,10,9,0.9,0.9
2025-03-09T2000,1131A,126.979,45.5419,哈尔滨市,阿城会宁,细颗粒物(PM2.5),80,79,73,59,57,103,,115,115,16,29,12,15,0.6,0.7
2025-03-09T2000,1132A,126.599,45.7222,哈尔滨市,南岗学府路,细颗粒物(PM2.5),108,147,111,81,65,98,,118,118,32,42,12,12,1.1,1
2025-03-09T2000,1133A,126.689,45.7733,哈尔滨市,太平宏伟公园,细颗粒物(PM2.5),120,125,105,91,66,88,,113,112,32,49,15,10,0.9,0.8
2025-03-09T2000,1134A,126.635,45.7667,哈尔滨市,道外承德广场,细颗粒物(PM2.5),132,175,115,100,71,92,,111,111,34,33,24,11,0.6,0.6
2025-03-09T2000,1135A,126.685,45.7319,哈尔滨市,香坊红旗大街,细颗粒物(PM2.5),122,132,105,92,68,85,,109,108,30,38,16,15,1.2,1.1
2025-03-09T2000,1136A,126.6411,45.7258,哈尔滨市,动力和平路,细颗粒物(PM2.5),138,128,92,105,70,92,,114,113,27,34,18,12,1.0,0.9
2025-03-09T2000,1137A,126.593,45.7478,哈尔滨市,道里建国路,细颗粒物(PM2.5),127,134,96,96,71,89,,105,105,40,41,34,20,1.0,1.2
2025-03-09T2000,1138A,126.615,45.61,哈尔滨市,平房东轻厂,细颗粒物(PM2.5),112,115,84,84,59,99,,119,119,15,16,11,9,0.8,0.7
2025-03-09T2000,1139A,126.595,45.9855,哈尔滨市,呼兰师专,细颗粒物(PM2.5),156,144,102,119,81,100,,106,106,32,45,18,12,0.8,0.7
2025-03-09T2000,1140A,126.6206,45.6842,哈尔滨市,省农科院,细颗粒物(PM2.5),122,142,106,92,73,74,,102,100,43,49,15,14,0.9,0.8
2025-03-09T2000,2688A,93.5128,42.8172,哈密市,地区监测站,颗粒物(PM10),122,193,191,40,33,74,,84,84,21,16,3,7,0.4,0.3
2025-03-09T2000,2689A,93.4961,42.8328,哈密市,哈密师范学校,颗粒物(PM10),101,152,137,40,40,74,,86,86,22,22,6,6,0.5,0.5
2025-03-09T2000,2671A,100.9048,36.9639,海北藏族自治州,海晏县西海镇,,39,39,32,9,12,98,,104,104,1,4,9,9,0.3,0.3
2025-03-09T2000,3867A,102.0738,36.5056,海东市,平安区公安北苑,颗粒物(PM10),73,95,63,50,35,90,,109,109,10,5,28,16,1.1,1.1
2025-03-09T2000,1409A,110.576,19.9507,海口市,东寨港,,39,39,31,15,17,98,,101,101,4,5,5,4,0.8,0.9
2025-03-09T2000,1410A,110.3232,20.0574,海口市,海南大学,,47,47,35,18,20,110,,116,116,7,12,2,2,0.4,0.5
2025-03-09T2000,1411A,110.283,20.0053,海口市,秀英海南医院,,48,48,36,16,17,96,,106,106,10,11,4,4,0.4,0.4
2025-03-09T2000,1412A,110.338,19.9969,海口市,海南师范大学,颗粒物(PM10),52,53,36,16,17,104,,116,116,8,8,3,3,0.4,0.5
2025-03-09T2000,1413A,110.33,20.0356,海口市,龙华路环保局宿舍,,48,48,36,16,19,106,,114,114,8,10,3,3,0.4,0.5
2025-03-09T2000,3539A,110.5111,19.9736,海口市,桂林洋子站,,43,43,29,14,15,110,,109,109,3,6,3,3,0.3,0.4
2025-03-09T2000,2673A,100.6188,36.2866,海南藏族自治州,共和县恰卜恰镇,,36,36,34,3,15,93,,104,104,10,19,10,6,0.4,0.5
2025-03-09T2000,2676A,97.3731,37.3753,海西蒙古族藏族自治州,德令哈市,颗粒物(PM10),62,73,37,21,14,101,,106,106,8,4,14,16,0.5,0.5
2025-03-09T2000,1048A,114.5302,36.6116,邯郸市,东污水处理厂,,,89,88,68,69,129,,131,131,,27,1,2,0.6,0.6
2025-03-09T2000,1049A,114.4918,36.5713,邯郸市,矿院,细颗粒物(PM2.5),89,103,106,66,68,122,,125,125,15,26,2,2,0.6,0.6
2025-03-09T2000,1050A,114.484,36.6133,邯郸市,丛台公园,细颗粒物(PM2.5),90,75,82,67,67,122,,121,121,18,22,1,2,0.6,0.5
2025-03-09T2000,3458A,114.7895,36.5593,邯郸市,香泉濮院小区,细颗粒物(PM2.5),88,104,93,65,67,132,,137,137,12,16,3,3,0.6,0.6
2025-03-09T2000,3579A,114.50634,36.77178,邯郸市,永年区实验高中,细颗粒物(PM2.5),84,97,100,62,63,137,,138,138,11,24,2,3,0.9,1
2025-03-09T2000,3580A,114.20016,36.44293,邯郸市,峰峰矿区临水派出所,细颗粒物(PM2.5),88,87,77,65,63,126,,137,137,10,8,5,8,1.0,1
2025-03-09T2000,2634A,106.9893,33.1842,汉中市,汉川机床厂子校,细颗粒物(PM2.5),52,48,49,36,33,72,,89,89,6,8,6,6,0.7,0.7
2025-03-09T2000,2635A,107.0154,33.0706,汉中市,市监测站,,50,50,71,35,45,71,,86,86,27,28,6,7,1.0,1.1
2025-03-09T2000,2636A,107.0089,33.1138,汉中市,鑫源开发区,,49,47,73,34,45,74,,85,85,22,32,5,9,0.7,1
2025-03-09T2000,2637A,107.007,33.0323,汉中市,南郑大河坎水厂,颗粒物(PM10),60,70,76,36,47,66,,84,84,26,23,8,8,0.9,1
2025-03-09T2000,1223A,120.2072,30.2111,杭州市,滨江,,44,44,73,14,48,78,,96,92,31,37,6,8,0.4,0.4
2025-03-09T2000,1224A,120.0633,30.2747,杭州市,西溪,颗粒物(PM10),53,55,75,34,50,81,,92,86,21,26,6,7,0.5,0.5
2025-03-09T2000,1226A,120.3461,30.3153,杭州市,下沙,,40,40,66,22,39,79,,95,91,30,34,5,6,0.3,0.4
2025-03-09T2000,1227A,120.1269,30.2456,杭州市,卧龙桥,,40,39,62,28,45,89,,94,92,22,30,6,7,0.6,0.7
2025-03-09T2000,1228A,120.1903,30.2692,杭州市,浙江农大,,31,31,70,18,46,74,,88,85,24,30,8,9,0.3,0.4
2025-03-09T2000,1230A,120.1197,30.3119,杭州市,和睦小学,,44,44,69,30,49,81,,99,94,32,38,7,8,0.5,0.5
2025-03-09T2000,1231A,120.3019,30.4183,杭州市,临平镇,,39,34,60,27,40,81,,105,99,26,29,5,6,0.4,0.4
2025-03-09T2000,1232A,120.2697,30.1819,杭州市,城厢镇,,46,46,79,28,51,74,,91,86,43,50,7,9,0.4,0.5
2025-03-09T2000,1233A,120.0883,30.1808,杭州市,云栖,颗粒物(PM10),51,51,71,34,48,84,,94,92,29,35,7,8,0.4,0.5
2025-03-09T2000,3557A,119.9464,30.0494,杭州市,镇二中,细颗粒物(PM2.5),72,60,63,52,55,32,,82,64,64,42,6,7,0.7,0.6
2025-03-09T2000,3558A,119.7183,30.2367,杭州市,市府大楼,细颗粒物(PM2.5),85,91,88,63,65,35,,77,64,52,39,7,8,0.7,0.6
2025-03-09T2000,3656A,120.1556,30.2864,杭州市,消防大队,,47,47,72,31,49,86,,100,96,29,36,6,7,0.5,0.5
2025-03-09T2000,1270A,117.1959,31.7848,合肥市,明珠广场,细颗粒物(PM2.5),70,78,96,51,70,104,,127,125,28,30,6,7,0.6,0.7
2025-03-09T2000,1271A,117.3072,31.8764,合肥市,三里街,细颗粒物(PM2.5),79,88,107,58,72,77,,111,106,48,37,8,8,0.7,0.8
2025-03-09T2000,1272A,117.2588,31.8707,合肥市,琥珀山庄,细颗粒物(PM2.5),79,88,97,58,76,95,,120,118,39,36,4,5,0.5,0.6
2025-03-09T2000,1273A,117.1604,31.9052,合肥市,董铺水库,颗粒物(PM10),68,85,101,44,57,110,,127,125,26,28,4,5,0.5,0.6
2025-03-09T2000,1274A,117.25,31.8571,合肥市,长江中路,细颗粒物(PM2.5),89,90,103,66,78,100,,120,118,38,37,10,11,0.7,0.8
2025-03-09T2000,1275A,117.266,31.9436,合肥市,庐阳区,细颗粒物(PM2.5),73,83,100,53,69,93,,125,121,46,43,8,7,0.4,0.6
2025-03-09T2000,1276A,117.336,31.8586,合肥市,瑶海区,细颗粒物(PM2.5),75,95,105,55,72,79,,110,104,46,41,7,7,0.5,0.6
2025-03-09T2000,1277A,117.3027,31.7964,合肥市,包河区,细颗粒物(PM2.5),79,73,104,58,74,104,,126,124,24,45,6,6,0.5,0.8
2025-03-09T2000,1278A,117.2776,31.7385,合肥市,滨湖新区,细颗粒物(PM2.5),83,88,100,61,76,97,,126,124,31,27,6,7,0.4,0.5
2025-03-09T2000,1279A,117.1318,31.8403,合肥市,高新区,,,83,102,56,72,,,128,128,32,30,3,5,0.5,0.6
2025-03-09T2000,3464A,117.3803,31.9147,合肥市,高教基地,细颗粒物(PM2.5),73,84,96,53,73,86,,130,121,37,31,10,9,0.5,0.6
2025-03-09T2000,3614A,79.924,37.0877,和田地区,地区环保局,颗粒物(PM10),166,281,184,38,38,87,,90,90,2,3,1,2,0.7,0.6
2025-03-09T2000,3615A,79.9131,37.113,和田地区,市环保局,颗粒物(PM10),131,212,206,33,36,93,,96,96,4,18,3,2,0.3,1
2025-03-09T2000,2516A,108.2011,24.715,河池市,东仁乐园,颗粒物(PM10),51,51,53,34,46,38,,57,40,13,13,6,7,0.9,0.8
2025-03-09T2000,2517A,108.0497,24.6947,河池市,市环保站,,50,49,51,35,44,38,,58,42,12,12,8,10,0.8,0.8
2025-03-09T2000,2518A,108.0983,24.6989,河池市,市疾控中心,细颗粒物(PM2.5),52,,46,36,44,41,,58,44,10,11,6,7,0.8,0.8
2025-03-09T2000,1696A,114.6778,23.7569,河源市,源西,,36,36,23,25,19,22,,57,55,42,16,5,5,0.6,0.3
2025-03-09T2000,1697A,114.6944,23.7586,河源市,东埔,,40,40,27,23,20,56,,66,66,28,17,4,4,0.7,0.6
2025-03-09T2000,1698A,114.6892,23.7233,河源市,老城,,36,29,27,25,23,56,,68,68,18,15,4,4,0.8,0.7
2025-03-09T2000,1718A,115.4208,35.2464,菏泽市,气象局,细颗粒物(PM2.5),105,109,107,79,80,140,,160,160,26,25,4,4,0.7,0.7
2025-03-09T2000,3374A,115.5564,35.0891,菏泽市,定陶老年大学,细颗粒物(PM2.5),98,95,98,73,73,139,,161,160,27,27,5,5,0.6,0.6
2025-03-09T2000,4184A,115.4797,35.24401,菏泽市,永昌路1号,细颗粒物(PM2.5),108,106,110,81,83,146,,167,167,24,23,7,7,0.6,0.6
2025-03-09T2000,4193A,115.4715,35.2800,菏泽市,长城路999号,细颗粒物(PM2.5),89,99,100,66,68,135,,151,151,38,38,7,7,0.6,0.7
2025-03-09T2000,2514A,111.5264,24.4172,贺州市,环保小区,,46,46,39,25,27,32,,58,40,18,14,7,7,1.1,0.9
2025-03-09T2000,2515A,111.5608,24.4078,贺州市,政协大楼,,50,50,41,26,28,24,,42,29,26,18,6,6,1.0,0.8
2025-03-09T2000,3534A,111.4744,24.4553,贺州市,西湾,,42,32,33,29,30,25,,42,33,15,11,6,6,0.9,0.7
2025-03-09T2000,2385A,114.17,35.9019,鹤壁市,市监测站,细颗粒物(PM2.5),102,110,98,76,66,118,,129,129,33,30,3,4,0.8,0.7
2025-03-09T2000,2386A,114.2956,35.7511,鹤壁市,市交警支队,细颗粒物(PM2.5),90,112,103,67,71,129,,131,131,18,27,8,6,0.6,0.6
2025-03-09T2000,2387A,114.2878,35.7306,鹤壁市,迎宾馆,细颗粒物(PM2.5),89,116,112,66,65,130,,135,135,30,32,7,7,0.9,0.7
2025-03-09T2000,3474A,114.2617,35.6822,鹤壁市,大新区,细颗粒物(PM2.5),104,,83,78,83,122,,127,127,23,39,4,5,0.7,0.7
2025-03-09T2000,3596A,114.1572,35.9603,鹤壁市,南山宾馆,细颗粒物(PM2.5),129,106,98,98,82,123,,133,133,19,19,4,5,0.5,0.5
2025-03-09T2000,2244A,130.2537,47.3416,鹤岗市,哈啤分公司,,40,40,37,28,26,77,,80,80,12,14,14,16,0.8,0.8
2025-03-09T2000,2245A,130.2684,47.3086,鹤岗市,斯达机电,细颗粒物(PM2.5),53,51,48,37,29,77,,86,85,11,13,16,14,0.6,0.5
2025-03-09T2000,2246A,130.3114,47.3388,鹤岗市,东山纸板厂,细颗粒物(PM2.5),54,,111,38,44,61,,70,68,22,32,16,18,0.4,1.9
2025-03-09T2000,2247A,130.1097,47.3382,鹤岗市,五号水库,,,,,,,,,,,,,,,,
2025-03-09T2000,2263A,127.4833,50.2524,黑河市,交通局,,33,33,37,19,22,78,,93,92,10,14,8,7,0.5,0.4
2025-03-09T2000,2264A,127.5144,50.2341,黑河市,环保局,,31,31,27,18,19,86,,100,99,7,9,5,6,0.4,0.5
2025-03-09T2000,2265A,127.5291,50.2472,黑河市,大黑河岛,,,,,,,,,,,,,,,,
2025-03-09T2000,1074A,115.6838,37.7541,衡水市,电机北厂,细颗粒物(PM2.5),98,104,104,73,75,142,,147,147,22,19,3,4,0.6,0.5
2025-03-09T2000,1075A,115.6303,37.7316,衡水市,市监测站,细颗粒物(PM2.5),98,92,90,73,69,145,,146,146,19,22,13,12,0.6,0.6
2025-03-09T2000,3188A,115.6683,37.7217,衡水市,市城管局,细颗粒物(PM2.5),95,83,93,71,74,150,,146,146,20,29,3,3,0.6,0.5
2025-03-09T2000,3459A,115.5989,37.5491,衡水市,地表水厂,细颗粒物(PM2.5),105,93,95,79,79,133,,147,147,26,37,8,8,0.6,0.6
2025-03-09T2000,2456A,112.5003,26.9167,衡阳市,原169医院,,42,42,34,23,23,28,,41,39,29,32,8,28,0.6,0.5
2025-03-09T2000,2457A,112.6194,26.9258,衡阳市,衡阳化工总厂,细颗粒物(PM2.5),58,45,43,41,38,41,,58,55,17,17,4,5,0.7,0.6
2025-03-09T2000,2458A,112.6211,26.8956,衡阳市,珠晖区环保局,细颗粒物(PM2.5),60,,42,43,36,41,,54,53,18,24,6,6,0.7,0.7
2025-03-09T2000,2459A,112.6197,26.8733,衡阳市,市委党校,细颗粒物(PM2.5),52,39,40,36,33,47,,61,60,16,21,9,10,0.8,0.8
2025-03-09T2000,2460A,112.6006,26.8919,衡阳市,市监测站,细颗粒物(PM2.5),55,58,53,39,40,43,,54,52,21,25,7,8,0.9,0.8
2025-03-09T2000,2461A,112.5664,26.9056,衡阳市,真空机电公司,细颗粒物(PM2.5),57,50,50,40,39,45,,52,51,21,29,4,7,0.7,0.7
2025-03-09T2000,3399A,112.6703,26.882,衡阳市,师范学院,,48,41,41,33,31,50,,60,59,16,20,6,8,0.7,0.6
2025-03-09T2000,2608A,103.3772,23.3993,红河哈尼族彝族自治州,污水处理厂,颗粒物(PM10),89,128,42,38,39,76,,81,81,5,7,6,6,0.5,0.5
2025-03-09T2000,2609A,103.3861,23.35,红河哈尼族彝族自治州,监测站,细颗粒物(PM2.5),53,48,42,37,30,74,,78,78,6,7,7,7,0.5,0.5
2025-03-09T2000,3038A,103.3758,23.368,红河哈尼族彝族自治州,州图书馆,,50,,30,35,33,74,,76,76,6,7,6,6,0.4,0.5
2025-03-09T2000,1090A,111.6507,40.7517,呼和浩特市,呼市一监,细颗粒物(PM2.5),90,127,100,67,48,71,,104,102,36,36,11,11,1.0,0.9
2025-03-09T2000,1091A,111.6572,40.8033,呼和浩特市,小召,颗粒物(PM10),92,134,112,55,47,78,,94,93,39,44,10,6,0.8,0.9
2025-03-09T2000,1094A,111.7516,40.8369,呼和浩特市,如意水处理厂,颗粒物(PM10),83,115,108,53,45,87,,92,92,30,48,12,9,0.8,0.7
2025-03-09T2000,1095A,111.7276,40.8062,呼和浩特市,二十九中,颗粒物(PM10),80,110,104,56,46,90,,99,99,30,40,11,6,1.1,1
2025-03-09T2000,1096A,111.5512,40.7866,呼和浩特市,工大金川校区,颗粒物(PM10),92,134,107,63,44,65,,94,90,45,52,13,10,0.9,0.8
2025-03-09T2000,1097A,111.717,40.7612,呼和浩特市,化肥厂生活区,颗粒物(PM10),95,140,116,65,52,72,,94,93,43,44,10,10,0.7,0.7
2025-03-09T2000,3698A,111.5968,40.8178,呼和浩特市,红旗小学,颗粒物(PM10),93,136,105,59,44,62,,99,95,60,50,10,7,0.8,0.7
2025-03-09T2000,3699A,111.6518,40.8389,呼和浩特市,海东办,颗粒物(PM10),86,122,107,56,48,80,,97,96,38,52,14,10,0.8,0.8
2025-03-09T2000,2192A,119.7594,49.2261,呼伦贝尔市,区环保局,颗粒物(PM10),78,106,48,38,24,109,,104,104,12,18,8,7,0.5,0.5
2025-03-09T2000,3061A,119.7512,49.1577,呼伦贝尔市,国华电力东,颗粒物(PM10),66,82,38,29,16,114,,112,112,9,7,5,5,0.6,0.5
2025-03-09T2000,1250A,120.0751,30.8669,湖州市,城西水厂,,49,49,64,30,41,80,,104,100,34,34,7,7,0.3,0.3
2025-03-09T2000,2873A,120.0875,30.8955,湖州市,仁皇山新区,颗粒物(PM10),51,51,59,33,41,78,,107,104,35,27,4,4,0.5,0.4
2025-03-09T2000,2907A,120.1844,30.8596,湖州市,吴兴区站,,46,46,63,29,44,80,,105,103,25,25,6,6,0.4,0.4
2025-03-09T2000,3562A,120.4148,30.8538,湖州市,南浔区站,,49,49,58,29,41,77,,107,103,29,28,4,4,0.4,0.4
2025-03-09T2000,1607A,120.9092,40.7136,葫芦岛市,龙港区,细颗粒物(PM2.5),176,135,109,133,113,130,,126,126,24,26,9,9,1.0,0.9
2025-03-09T2000,1608A,120.8392,40.7514,葫芦岛市,化工街,细颗粒物(PM2.5),163,151,132,124,112,115,,126,126,27,42,8,13,0.8,0.7
2025-03-09T2000,1609A,120.8341,40.7073,葫芦岛市,新区,细颗粒物(PM2.5),178,137,105,134,120,132,,140,140,30,33,8,10,1.2,1
2025-03-09T2000,1610A,120.8695,40.7677,葫芦岛市,东城区,细颗粒物(PM2.5),190,,89,143,129,115,,122,122,38,60,9,12,1.1,1.1
2025-03-09T2000,2482A,109.5981,27.5721,怀化市,林科所,,37,37,31,22,19,38,,56,51,7,17,4,5,1.0,0.9
2025-03-09T2000,2483A,109.9453,27.5444,怀化市,河西地税局,细颗粒物(PM2.5),59,64,49,42,35,9,,43,37,41,26,7,7,0.8,0.7
2025-03-09T2000,2484A,109.9781,27.5342,怀化市,市四医院,"颗粒物(PM10),细颗粒物(PM2.5)",70,89,54,51,34,6,,52,43,57,28,4,4,1.1,0.8
2025-03-09T2000,2485A,109.9972,27.5578,怀化市,监测楼,颗粒物(PM10),56,61,47,34,30,40,,59,54,24,25,6,7,1.2,1.1
2025-03-09T2000,2486A,110.0394,27.583,怀化市,市委党校,细颗粒物(PM2.5),59,55,40,42,31,37,,57,53,21,19,6,7,0.7,0.7
2025-03-09T2000,1210A,119.036,33.5981,淮安市,钵池山,细颗粒物(PM2.5),83,63,83,61,74,98,,123,120,17,19,7,8,0.6,0.7
2025-03-09T2000,1211A,119.007,33.575,淮安市,北京南路,细颗粒物(PM2.5),79,61,78,58,72,100,,123,120,19,25,8,9,0.5,0.5
2025-03-09T2000,1212A,118.989,33.6067,淮安市,市监测站,细颗粒物(PM2.5),77,58,76,56,72,108,,130,128,18,20,7,9,0.6,0.7
2025-03-09T2000,1213A,119.135,33.5039,淮安市,楚州区监测站,细颗粒物(PM2.5),80,66,91,59,78,92,,125,119,24,34,6,8,0.4,0.5
2025-03-09T2000,3426A,118.8755,33.2894,淮安市,新华书店,细颗粒物(PM2.5),79,59,85,58,75,86,,117,113,27,26,8,9,0.7,0.8
2025-03-09T2000,4206A,119.0288,33.6319,淮安市,承德北路606号,细颗粒物(PM2.5),82,73,96,60,74,104,,131,128,23,26,7,7,0.7,0.8
2025-03-09T2000,2282A,116.8004,33.975,淮北市,监测站,细颗粒物(PM2.5),80,76,102,59,73,103,,131,126,23,21,6,6,0.8,0.9
2025-03-09T2000,2283A,116.8091,33.9007,淮北市,烈山区政府,细颗粒物(PM2.5),77,76,95,56,74,107,,141,135,32,28,4,5,0.7,0.8
2025-03-09T2000,3330A,116.8873,33.9836,淮北市,杜集区检察院,细颗粒物(PM2.5),75,65,92,55,73,116,,138,135,21,20,5,5,0.7,0.8
2025-03-09T2000,4017A,116.7923,33.9535,淮北市,市博物馆,细颗粒物(PM2.5),77,78,97,56,74,107,,135,131,22,22,8,9,0.8,0.8
2025-03-09T2000,2277A,116.8305,32.7727,淮南市,潘集区政府,细颗粒物(PM2.5),114,103,122,86,92,78,,130,122,39,32,5,8,0.6,0.7
2025-03-09T2000,2279A,116.8569,32.5951,淮南市,谢家集区政府,,,89,107,63,76,91,,127,120,25,22,7,8,,0.6
2025-03-09T2000,2280A,116.8281,32.633,淮南市,八公山区政府,细颗粒物(PM2.5),85,89,105,63,73,99,,137,131,20,19,10,4,0.5,0.6
2025-03-09T2000,2281A,116.6325,32.6201,淮南市,焦岗湖风景区管理处,细颗粒物(PM2.5),60,66,87,43,58,55,,105,96,26,17,5,5,0.3,0.3
2025-03-09T2000,2894A,117.0566,32.6531,淮南市,经济技术开发区消防队,颗粒物(PM10),69,88,102,47,76,84,,132,124,34,28,6,6,0.6,0.6
2025-03-09T2000,3329A,117.0108,32.5893,淮南市,山南新区,细颗粒物(PM2.5),85,75,94,63,72,95,,137,131,22,22,7,8,0.5,0.6
2025-03-09T2000,4209A,117.0031,32.6445,淮南市,国庆中路369号,细颗粒物(PM2.5),94,88,105,70,76,95,,139,132,39,33,6,7,0.5,0.6
2025-03-09T2000,2446A,114.9028,30.4742,黄冈市,职工中心,细颗粒物(PM2.5),92,84,74,68,61,36,,80,49,48,32,9,10,1.0,0.8
2025-03-09T2000,2929A,114.8858,30.4519,黄冈市,红卫路,细颗粒物(PM2.5),85,86,83,63,63,39,,81,61,48,36,11,12,0.9,0.7
2025-03-09T2000,3398A,114.9136,30.4445,黄冈市,市林业局,细颗粒物(PM2.5),82,82,82,60,69,30,,72,50,50,36,12,15,1.0,0.9
2025-03-09T2000,2672A,102.0199,35.5102,黄南藏族自治州,同仁县隆务镇,颗粒物(PM10),56,61,42,16,17,82,,91,91,3,4,10,13,0.2,0.3
2025-03-09T2000,2295A,118.2903,29.6963,黄山市,延安路89号,细颗粒物(PM2.5),82,64,59,60,43,32,,47,44,20,20,4,4,0.8,0.7
2025-03-09T2000,2297A,118.1371,30.2756,黄山市,黄山区政府5号楼,颗粒物(PM10),53,55,56,33,35,33,,62,53,12,14,7,7,0.7,0.7
2025-03-09T2000,4210A,118.3354,29.7203,黄山市,滨江东路7-2号,细颗粒物(PM2.5),90,87,69,67,44,31,,39,37,29,23,5,5,0.7,0.5
2025-03-09T2000,2423A,115.0601,30.2313,黄石市,沈家营,细颗粒物(PM2.5),89,92,77,66,53,25,,76,51,61,41,12,11,1.2,0.9
2025-03-09T2000,2426A,114.8988,30.2019,黄石市,铁山,细颗粒物(PM2.5),115,,64,87,63,34,,93,62,33,19,10,15,0.8,0.6
2025-03-09T2000,2427A,115.0307,30.2092,黄石市,团城山,细颗粒物(PM2.5),103,89,74,77,56,43,,87,64,36,27,13,16,1.0,0.7
2025-03-09T2000,3149A,115.0235,30.1578,黄石市,笔架山北路,细颗粒物(PM2.5),114,,69,86,61,39,,83,65,40,26,10,10,1.2,1
2025-03-09T2000,4185A,115.0780,30.21118,黄石市,磁湖东路29号,细颗粒物(PM2.5),105,97,84,79,65,59,,90,63,31,35,7,10,1.1,1
2025-03-09T2000,1392A,114.4183,23.0528,惠州市,河南岸金山湖子站,,41,41,45,18,23,94,,106,106,24,18,8,9,0.6,0.7
2025-03-09T2000,1393A,114.4053,23.0822,惠州市,下埔横江三路子站,,37,37,34,21,22,96,,110,110,25,18,8,10,0.7,0.6
2025-03-09T2000,1394A,114.4103,23.1142,惠州市,江北云山西路子站,,37,37,31,22,22,104,,120,118,26,17,8,9,0.6,0.7
2025-03-09T2000,1395A,114.4645,22.7833,惠州市,惠阳区承修路船湖子站,,41,41,39,17,21,115,,128,128,20,21,9,9,0.5,0.6
2025-03-09T2000,1396A,114.5317,22.7422,惠州市,大亚湾管委会子站,,40,40,34,15,17,128,,134,134,19,16,8,7,0.5,0.6
2025-03-09T2000,3314A,114.4338,22.8134,惠州市,惠阳秋长,颗粒物(PM10),52,53,45,14,22,124,,141,141,22,21,8,6,0.5,0.6
2025-03-09T2000,3452A,114.6517,22.775,惠州市,大亚湾霞涌,,45,45,34,20,19,125,,134,134,19,17,8,9,0.6,0.6
2025-03-09T2000,2240A,130.9762,45.3001,鸡西市,环保局,细颗粒物(PM2.5),62,59,64,44,53,63,,89,87,18,21,6,6,0.6,0.6
2025-03-09T2000,2243A,130.9429,45.3039,鸡西市,第一中学,细颗粒物(PM2.5),67,58,57,48,51,68,,94,92,22,23,8,8,0.4,0.4
2025-03-09T2000,3707A,131.0207,45.3073,鸡西市,欧美日汽修厂,细颗粒物(PM2.5),78,,77,57,66,65,,100,98,11,19,9,17,0.4,1.1
2025-03-09T2000,3709A,130.9967,45.3106,鸡西市,市政设施管理处,细颗粒物(PM2.5),83,65,68,61,52,49,,84,82,27,22,10,7,0.7,0.5
2025-03-09T2000,2367A,114.9754,27.0803,吉安市,红声器材厂,颗粒物(PM10),53,56,54,32,33,63,,68,68,21,23,19,16,0.6,0.6
2025-03-09T2000,2368A,114.9658,27.0999,吉安市,市森林工业局,细颗粒物(PM2.5),53,52,45,37,34,63,,68,68,26,27,18,15,0.4,0.3
2025-03-09T2000,2369A,114.99,27.1312,吉安市,市环境监测站,细颗粒物(PM2.5),84,72,46,62,35,60,,65,64,21,19,28,15,0.2,0.3
2025-03-09T2000,2370A,115.0093,27.0968,吉安市,青原区法院,细颗粒物(PM2.5),55,58,48,39,34,59,,70,68,28,29,18,14,0.6,0.5
2025-03-09T2000,1772A,126.54,43.8622,吉林市,哈达湾,颗粒物(PM10),59,68,130,34,75,105,,120,118,18,29,10,12,0.8,1.1
2025-03-09T2000,1773A,126.5844,43.8358,吉林市,东局子,,48,37,112,33,68,107,,117,116,16,31,6,8,0.5,0.8
2025-03-09T2000,1774A,126.5052,43.8245,吉林市,电力学院,细颗粒物(PM2.5),79,73,128,58,86,85,,114,108,26,31,5,6,0.5,0.9
2025-03-09T2000,1775A,126.6133,43.8972,吉林市,江北,细颗粒物(PM2.5),52,50,122,36,77,108,,117,116,11,27,8,9,0.7,1.1
2025-03-09T2000,1776A,126.555,43.8306,吉林市,江南公园,细颗粒物(PM2.5),59,56,113,42,78,102,,115,112,22,31,8,8,0.5,0.8
2025-03-09T2000,1778A,126.7061,43.7133,吉林市,丰满,细颗粒物(PM2.5),55,45,80,39,65,123,,132,132,13,15,7,7,0.6,0.8
2025-03-09T2000,2868A,126.4739,43.953,吉林市,九站,颗粒物(PM10),55,60,132,38,83,103,,118,115,24,45,7,12,0.6,0.9
2025-03-09T2000,1299A,116.9862,36.6114,济南市,科干所,,,83,77,54,49,,,158,158,26,22,6,7,0.6,0.6
2025-03-09T2000,1300A,116.9376,36.665,济南市,农科所,细颗粒物(PM2.5),80,95,96,59,54,131,,148,147,24,35,8,9,0.9,1
2025-03-09T2000,1301A,117.1265,36.6734,济南市,开发区,细颗粒物(PM2.5),95,83,77,71,68,138,,151,151,22,21,6,6,0.7,0.6
2025-03-09T2000,1303A,117.0624,36.6868,济南市,省种子仓库,细颗粒物(PM2.5),83,92,91,61,60,142,,153,153,24,34,4,4,0.7,0.8
2025-03-09T2000,1304A,116.9489,36.6447,济南市,机床二厂,细颗粒物(PM2.5),89,88,96,66,67,121,,126,126,24,33,12,15,0.9,1.1
2025-03-09T2000,1305A,117.0495,36.663,济南市,市监测站,细颗粒物(PM2.5),83,83,79,61,58,131,,142,142,30,27,8,8,0.6,0.6
2025-03-09T2000,1306A,116.7675,36.5484,济南市,长清党校,细颗粒物(PM2.5),89,93,91,66,62,145,,158,158,34,30,6,6,0.7,0.8
2025-03-09T2000,1616A,117.6795,36.229,济南市,技术学院,细颗粒物(PM2.5),107,97,104,80,79,131,,151,150,38,55,10,11,0.9,1.1
2025-03-09T2000,1961A,117.532,36.6868,济南市,东山小学,细颗粒物(PM2.5),85,93,92,63,62,118,,152,148,41,32,7,7,0.7,0.8
2025-03-09T2000,3059A,117.7161,36.2049,济南市,泰兴公司,细颗粒物(PM2.5),107,102,121,80,89,128,,149,147,33,60,8,8,0.8,1
2025-03-09T2000,3064A,117.6867,36.2171,济南市,莱芜战役纪念馆,细颗粒物(PM2.5),100,107,121,75,77,127,,151,149,36,56,6,7,0.8,1
2025-03-09T2000,3494A,117.1673,36.9782,济南市,济阳区政府,细颗粒物(PM2.5),77,100,100,56,67,113,,132,131,28,31,10,12,0.5,0.6
2025-03-09T2000,3495A,117.1171,36.63,济南市,锦屏中学,细颗粒物(PM2.5),85,83,69,63,55,134,,145,145,24,20,8,8,0.6,0.5
2025-03-09T2000,3682A,116.9814,36.6819,济南市,济南四建,细颗粒物(PM2.5),85,83,81,63,60,138,,148,148,26,34,5,6,0.5,0.5
2025-03-09T2000,1653A,116.6251,35.4302,济宁市,火炬城,细颗粒物(PM2.5),107,80,82,80,89,136,,152,151,14,17,9,11,0.9,0.9
2025-03-09T2000,1655A,116.5491,35.4042,济宁市,电化厂,细颗粒物(PM2.5),98,95,108,73,85,147,,158,158,12,16,10,10,1.0,1
2025-03-09T2000,3500A,116.5814,35.3707,济宁市,北湖一中,细颗粒物(PM2.5),83,74,81,61,72,144,,155,155,18,23,11,9,0.8,0.9
2025-03-09T2000,3501A,116.8249,35.5593,济宁市,服务中心,颗粒物(PM10),73,95,107,52,66,128,,161,156,26,26,6,7,0.7,0.8
2025-03-09T2000,3678A,116.5907,35.4054,济宁市,市第七中学,细颗粒物(PM2.5),89,74,82,66,76,146,,160,158,23,27,7,5,0.8,0.8
2025-03-09T2000,2255A,130.2751,46.8028,佳木斯市,佳纺,颗粒物(PM10),51,52,63,35,47,71,,90,84,22,35,6,6,0.4,0.6
2025-03-09T2000,2256A,130.3995,46.8307,佳木斯市,发电厂,细颗粒物(PM2.5),52,51,55,36,44,74,,82,82,21,40,4,3,0.6,0.7
2025-03-09T2000,2257A,130.3258,46.7975,佳木斯市,环保局,,41,41,68,28,44,64,,91,87,27,36,4,4,0.5,0.6
2025-03-09T2000,2258A,130.3648,46.8032,佳木斯市,十一中,,45,45,67,31,53,56,,79,75,37,48,7,8,0.6,0.8
2025-03-09T2000,2259A,130.3794,46.7588,佳木斯市,四丰,,39,39,58,22,25,78,,90,89,11,13,1,1,0.7,0.7
2025-03-09T2000,1252A,120.7436,30.778,嘉兴市,清河小学,,29,22,42,20,30,73,,99,95,20,24,3,4,0.6,0.6
2025-03-09T2000,1253A,120.726,30.7478,嘉兴市,嘉兴学院,,,43,50,19,28,,,108,108,28,26,7,7,0.4,0.4
2025-03-09T2000,2872A,120.7846,30.7525,嘉兴市,南湖区残联,,33,33,55,20,28,86,,114,111,23,22,8,8,0.4,0.3
2025-03-09T2000,3407A,120.6916,30.7739,嘉兴市,秀洲住建,,43,43,45,24,40,81,,114,109,28,24,5,6,0.1,0.1
2025-03-09T2000,1945A,98.2908,39.7711,嘉峪关市,气象局,颗粒物(PM10),195,339,498,73,102,83,,98,98,20,14,9,6,0.3,0.2
2025-03-09T2000,2884A,98.2672,39.7978,嘉峪关市,酒钢宾馆,颗粒物(PM10),190,329,517,63,93,82,,92,92,19,14,9,14,0.4,0.6
2025-03-09T2000,3248A,98.2643,39.7724,嘉峪关市,雄关区,颗粒物(PM10),166,282,388,76,81,86,,97,97,22,20,4,5,0.5,0.5
2025-03-09T2000,1383A,113.1064,22.6058,江门市,北街,细颗粒物(PM2.5),68,66,63,49,45,139,,163,163,38,53,3,6,0.8,0.7
2025-03-09T2000,1384A,113.0731,22.5835,江门市,西区,颗粒物(PM10),71,91,71,51,45,150,,176,176,44,51,7,10,0.8,0.7
2025-03-09T2000,1385A,113.0219,22.5311,江门市,圭峰西,细颗粒物(PM2.5),79,76,62,58,45,133,,153,153,39,46,5,6,0.7,0.7
2025-03-09T2000,1386A,113.0828,22.5947,江门市,东湖,细颗粒物(PM2.5),82,93,68,60,42,150,,176,176,39,47,7,9,0.8,0.7
2025-03-09T2000,3311A,113.1075,22.5647,江门市,江海富民,细颗粒物(PM2.5),89,111,74,66,41,150,,172,172,33,47,7,9,0.5,0.5
2025-03-09T2000,3449A,113.05,22.4667,江门市,新会银湖,细颗粒物(PM2.5),60,51,61,43,52,92,,158,158,39,46,3,4,0.6,0.8
2025-03-09T2000,1830A,113.1992,35.2590,焦作市,影视城,,,,73,,59,,,,,,11,,7,,0.3
2025-03-09T2000,3169A,113.2725,35.2067,焦作市,太极体育中心,细颗粒物(PM2.5),107,125,114,80,76,114,,125,125,25,24,7,9,0.8,0.8
2025-03-09T2000,3335A,113.3137,35.2641,焦作市,马村街道办,细颗粒物(PM2.5),113,118,100,85,77,105,,119,119,28,22,7,8,0.7,0.7
2025-03-09T2000,3336A,113.2465,35.2373,焦作市,焦作技师学院,细颗粒物(PM2.5),107,118,96,80,67,119,,134,134,33,26,6,6,0.9,0.9
2025-03-09T2000,3477A,113.1656,35.2539,焦作市,中站许衡医院,细颗粒物(PM2.5),137,109,94,104,71,126,,138,138,26,18,7,8,0.7,0.7
2025-03-09T2000,3981A,113.2449,35.1803,焦作市,原李万街道办,细颗粒物(PM2.5),104,107,110,78,68,122,,134,134,21,20,10,13,0.5,0.5
2025-03-09T2000,4264A,113.2340,35.2190,焦作市,新安路1731号,,,,102,,73,118,,134,134,25,21,8,8,,0.7
2025-03-09T2000,1708A,116.3701,23.5345,揭阳市,新兴,,47,47,40,30,26,107,,130,127,23,21,7,8,0.7,0.6
2025-03-09T2000,1709A,116.3264,23.5443,揭阳市,西马,颗粒物(PM10),55,60,42,25,24,114,,136,136,16,16,9,10,0.6,0.5
2025-03-09T2000,1710A,116.3611,23.5626,揭阳市,东兴,,45,45,44,25,23,108,,130,130,20,17,9,9,1.0,0.6
2025-03-09T2000,1711A,116.4151,23.5294,揭阳市,渔湖,,41,41,40,28,21,112,,122,122,12,19,8,8,0.9,0.6
2025-03-09T2000,3320A,116.403,23.5699,揭阳市,曲溪,颗粒物(PM10),61,72,45,32,26,110,,137,137,22,23,7,11,0.9,0.5
2025-03-09T2000,1944A,102.1692,38.5167,金昌市,天庆家园,颗粒物(PM10),132,214,310,68,67,88,,96,96,12,11,3,10,0.6,0.7
2025-03-09T2000,4022A,102.1647,38.5371,金昌市,金川区人防中心,颗粒物(PM10),162,274,428,61,64,98,,107,102,11,10,20,19,0.6,0.6
2025-03-09T2000,4239A,102.1930,38.5319,金昌市,长春路96号,细颗粒物(PM2.5),94,128,191,70,77,88,,94,94,11,11,59,26,0.5,0.5
2025-03-09T2000,1262A,119.647,29.077,金华市,十五中,颗粒物(PM10),71,91,92,51,54,60,,85,75,55,52,7,6,0.8,0.8
2025-03-09T2000,1263A,119.686,29.1029,金华市,监测站,细颗粒物(PM2.5),88,102,103,65,69,44,,86,70,65,56,6,6,0.8,0.7
2025-03-09T2000,3659A,119.656,29.1131,金华市,气象局,细颗粒物(PM2.5),77,92,98,56,62,46,,87,74,62,55,6,6,0.5,0.6
2025-03-09T2000,1767A,121.1115,41.0879,锦州市,南山,细颗粒物(PM2.5),195,,116,146,135,131,,132,132,28,40,13,18,1.0,0.9
2025-03-09T2000,1768A,121.0533,40.8434,锦州市,开发区,细颗粒物(PM2.5),169,,128,128,110,124,,121,121,33,52,10,16,1.0,0.9
2025-03-09T2000,1769A,121.1836,41.1119,锦州市,百股街道,细颗粒物(PM2.5),175,136,115,132,111,135,,133,133,32,38,25,13,1.4,1.3
2025-03-09T2000,1770A,121.1178,41.1222,锦州市,天安街道,细颗粒物(PM2.5),209,,118,159,148,135,,134,134,28,35,12,18,1.1,1.1
2025-03-09T2000,1771A,121.1303,41.1386,锦州市,北湖公园,细颗粒物(PM2.5),198,,122,148,133,131,,130,130,32,39,11,15,1.1,1.1
2025-03-09T2000,2160A,112.85,35.5051,晋城市,自来水公司,细颗粒物(PM2.5),98,122,80,73,50,130,,133,133,25,25,7,6,0.7,0.6
2025-03-09T2000,2161A,112.8318,35.4936,晋城市,白云商贸,细颗粒物(PM2.5),100,103,89,75,48,141,,143,143,29,26,7,6,0.8,0.6
2025-03-09T2000,2162A,112.8508,35.4887,晋城市,市环保局,细颗粒物(PM2.5),83,103,91,61,48,133,,136,136,25,26,6,5,0.5,0.5
2025-03-09T2000,2163A,112.8676,35.4897,晋城市,技术学院,颗粒物(PM10),81,112,88,56,42,114,,120,120,28,31,7,7,0.8,0.8
2025-03-09T2000,2165A,112.8453,35.546,晋城市,白马寺,细颗粒物(PM2.5),87,99,76,64,53,143,,141,141,15,11,5,5,0.8,0.8
2025-03-09T2000,3620A,112.8271,35.4828,晋城市,泽州一中,细颗粒物(PM2.5),104,103,83,78,56,138,,140,140,24,23,9,8,0.7,0.7
2025-03-09T2000,2173A,112.7249,37.7067,晋中市,南都小区,细颗粒物(PM2.5),77,101,89,56,48,99,,122,121,18,24,6,8,0.6,0.6
2025-03-09T2000,2174A,112.6991,37.6982,晋中市,榆次区政府,细颗粒物(PM2.5),104,95,86,78,46,92,,125,123,26,27,6,8,1.2,0.3
2025-03-09T2000,2865A,112.7195,37.6828,晋中市,榆次三中,细颗粒物(PM2.5),83,100,91,61,47,93,,124,122,25,31,5,7,0.2,0.2
2025-03-09T2000,4200A,112.7478,37.6954,晋中市,迎宾街26号,,,102,90,56,47,,,124,124,24,25,5,6,0.6,0.5
2025-03-09T2000,2439A,112.2014,31.0481,荆门市,竹园小学,细颗粒物(PM2.5),87,90,80,64,61,64,,101,96,38,23,7,5,0.5,0.5
2025-03-09T2000,2440A,112.1969,30.9891,荆门市,掇刀,细颗粒物(PM2.5),79,81,81,58,60,56,,97,94,45,26,8,5,0.5,0.4
2025-03-09T2000,2441A,112.2213,31.0386,荆门市,石化一小,细颗粒物(PM2.5),88,89,77,65,57,52,,97,89,52,27,11,10,0.5,0.4
2025-03-09T2000,3012A,112.1849,31.0362,荆门市,西山林语,细颗粒物(PM2.5),63,55,68,45,54,71,,104,101,21,18,4,5,0.4,0.3
2025-03-09T2000,3547A,112.1632,31.0138,荆门市,龙泉中学南校,细颗粒物(PM2.5),65,66,78,47,61,82,,94,94,18,20,7,7,0.5,0.5
2025-03-09T2000,1844A,112.2494,30.3197,荆州市,市图书馆,细颗粒物(PM2.5),58,,49,41,54,61,,67,67,29,29,3,3,0.7,0.7
2025-03-09T2000,1845A,112.2008,30.3544,荆州市,市委党校,细颗粒物(PM2.5),57,48,59,40,56,67,,76,76,22,27,6,7,0.6,0.7
2025-03-09T2000,3194A,112.2747,30.3122,荆州市,管委会,细颗粒物(PM2.5),60,54,56,43,54,64,,74,73,30,29,8,10,0.7,0.7
2025-03-09T2000,4268A,112.1722,30.3366,荆州市,学苑路85号,,50,,52,35,51,73,,80,80,14,22,6,7,0.6,0.6
2025-03-09T2000,2342A,117.3102,29.3867,景德镇市,王港中学,,,,,,,,,,,,,,,,
2025-03-09T2000,2343A,117.2117,29.2933,景德镇市,老干部活动中心,细颗粒物(PM2.5),59,61,57,42,40,53,,64,62,16,28,5,7,0.4,0.4
2025-03-09T2000,2344A,117.1894,29.2789,景德镇市,兽医站,颗粒物(PM10),60,69,66,34,35,50,,70,67,21,30,4,7,0.6,0.7
2025-03-09T2000,2345A,117.1547,29.2617,景德镇市,台达陶瓷,细颗粒物(PM2.5),57,58,59,40,36,39,,55,51,36,32,31,37,0.6,0.6
2025-03-09T2000,2346A,117.2461,29.2956,景德镇市,陶研所,细颗粒物(PM2.5),72,,51,52,41,38,,55,51,23,31,6,6,0.6,0.7
2025-03-09T2000,1803A,115.9872,29.6815,九江市,十里,细颗粒物(PM2.5),85,82,75,63,54,44,,60,42,37,42,14,6,0.9,1
2025-03-09T2000,1804A,115.9584,29.7046,九江市,茅山头,细颗粒物(PM2.5),85,66,74,63,53,60,,67,47,37,45,7,9,0.6,0.7
2025-03-09T2000,1805A,115.9877,29.7295,九江市,西园,细颗粒物(PM2.5),78,72,70,57,53,57,,76,60,44,51,10,12,0.9,0.8
2025-03-09T2000,1808A,115.9114,29.6038,九江市,综合工业园,细颗粒物(PM2.5),120,,72,91,66,30,,33,32,74,72,11,9,1.2,1
2025-03-09T2000,1809A,116.0721,29.7535,九江市,石化总厂,细颗粒物(PM2.5),80,68,72,59,62,58,,63,62,35,48,6,8,0.8,0.9
2025-03-09T2000,1810A,115.9773,29.5698,九江市,庐山气象台,,40,,42,28,26,64,,97,77,10,7,6,6,1.0,0.7
2025-03-09T2000,3190A,116.0254,29.6994,九江市,外国语学校,细颗粒物(PM2.5),82,81,75,60,56,42,,69,48,41,54,14,10,0.7,0.7
2025-03-09T2000,4253A,116.0102,29.6594,九江市,莲花大道8号,细颗粒物(PM2.5),103,81,77,77,69,41,,57,36,26,30,11,12,1.0,0.9
2025-03-09T2000,4240A,98.4958,39.7339,酒泉市,玉门东路5号,颗粒物(PM10),296,417,536,95,82,88,,100,100,17,5,13,10,0.9,0.3
2025-03-09T2000,4241A,98.5099,39.7506,酒泉市,北大街108号,颗粒物(PM10),269,398,523,76,77,82,,91,91,16,7,12,9,0.5,0.3
2025-03-09T2000,2698A,76.0072,39.4467,喀什地区,巡警大队,颗粒物(PM10),83,115,153,22,53,83,,84,84,23,56,4,9,0.4,2.2
2025-03-09T2000,2699A,75.9755,39.4694,喀什地区,吾办,颗粒物(PM10),84,117,165,31,64,85,,85,85,24,53,6,7,0.5,2.2
2025-03-09T2000,4027A,75.9483,39.4689,喀什地区,老干局,颗粒物(PM10),83,115,149,24,56,92,,92,92,20,47,4,5,0.6,2.2
2025-03-09T2000,1824A,114.3389,34.7781,开封市,肿瘤医院,细颗粒物(PM2.5),104,88,95,78,82,122,,140,140,25,28,8,8,0.9,1
2025-03-09T2000,1826A,114.2885,34.7965,开封市,世纪星幼儿园,细颗粒物(PM2.5),97,78,80,72,80,141,,155,155,25,24,7,7,0.9,0.9
2025-03-09T2000,3147A,114.3438,34.8106,开封市,龙亭公园,细颗粒物(PM2.5),115,,91,87,82,126,,143,143,,31,3,3,0.7,0.6
2025-03-09T2000,3210A,114.3644,34.7964,开封市,汴京公园,细颗粒物(PM2.5),99,107,99,74,76,119,,144,144,35,28,5,5,0.8,0.8
2025-03-09T2000,3473A,114.2485,34.8306,开封市,技师学院,细颗粒物(PM2.5),107,,78,80,76,134,,139,139,19,20,10,11,0.9,0.9
2025-03-09T2000,3592A,114.4644,34.7556,开封市,祥符区生态环境局,细颗粒物(PM2.5),114,122,105,86,83,112,,135,135,35,30,5,5,0.6,0.6
2025-03-09T2000,1951A,84.895,45.6094,克拉玛依市,长征新村,,28,14,12,12,8,87,,83,83,12,11,8,8,0.3,0.2
2025-03-09T2000,1952A,84.8988,45.5893,克拉玛依市,南林小区,,27,23,13,7,7,86,,83,83,14,17,3,4,0.3,0.3
2025-03-09T2000,1954A,84.905,44.3396,克拉玛依市,独山子区,细颗粒物(PM2.5),77,,48,56,42,102,,97,97,10,18,6,8,0.2,0.5
2025-03-09T2000,1955A,85.6979,46.098,克拉玛依市,乌尔禾区商贸楼,,28,9,10,3,6,88,,87,87,7,11,5,5,0.3,0.4
2025-03-09T2000,3612A,85.1045,45.6899,克拉玛依市,白碱滩区新站,,27,24,18,3,5,85,,84,84,12,8,9,9,0.3,0.3
2025-03-09T2000,2697A,76.1454,39.7142,克孜勒苏柯尔克孜自治州,市人民政府,颗粒物(PM10),94,138,83,32,20,101,,108,108,12,9,6,5,0.5,0.4
2025-03-09T2000,3665A,76.1658,39.7157,克孜勒苏柯尔克孜自治州,克州文化中心,颗粒物(PM10),96,141,88,33,21,96,,107,107,18,14,7,6,0.6,0.4
2025-03-09T2000,1450A,102.8204,24.8886,昆明市,呈贡新区,细颗粒物(PM2.5),60,60,46,43,32,92,,109,107,16,18,4,6,0.6,0.6
2025-03-09T2000,1451A,102.6251,24.9608,昆明市,西山森林公园,,,,,,,,,,,,,,,,
2025-03-09T2000,1452A,102.7252,25.0902,昆明市,龙泉镇,颗粒物(PM10),56,61,48,35,29,90,,111,109,24,32,7,7,0.6,0.7
2025-03-09T2000,1453A,102.7266,25.0375,昆明市,东风东路,细颗粒物(PM2.5),59,57,47,42,33,97,,104,104,19,20,7,8,0.6,0.6
2025-03-09T2000,1454A,102.6742,25.0669,昆明市,金鼎山,细颗粒物(PM2.5),65,66,49,47,30,98,,110,109,20,21,1,5,0.7,0.7
2025-03-09T2000,1455A,102.6644,25.0401,昆明市,碧鸡广场,细颗粒物(PM2.5),69,54,47,50,33,93,,111,109,26,26,7,8,0.5,0.4
2025-03-09T2000,3179A,102.7494,25.0119,昆明市,官渡区博物馆,颗粒物(PM10),57,64,45,38,29,99,,112,112,16,14,8,8,0.6,0.7
2025-03-09T2000,3375A,102.8017,24.8336,昆明市,青年创业园,细颗粒物(PM2.5),54,56,44,38,31,92,,116,114,14,14,6,9,0.6,0.6
2025-03-09T2000,3550A,102.7997,24.9786,昆明市,昆明学院,颗粒物(PM10),56,61,46,39,32,102,,115,115,15,12,4,5,0.5,0.5
2025-03-09T2000,3551A,102.5967,24.6736,昆明市,晋宁区生态环境分局,,49,34,28,34,30,88,,106,104,7,6,5,5,0.5,0.6
2025-03-09T2000,3552A,102.6678,24.9856,昆明市,云天化总部,颗粒物(PM10),52,53,42,34,30,111,,119,119,12,20,7,7,0.7,0.7
2025-03-09T2000,1456A,91.1319,29.6514,拉萨市,八廓街,,34,10,15,6,8,106,,111,111,11,10,6,6,0.4,0.4
2025-03-09T2000,1457A,91.1221,29.6747,拉萨市,市环保局,,29,20,17,8,9,92,,104,104,18,15,6,5,0.2,0.2
2025-03-09T2000,1458A,91.0874,29.6475,拉萨市,区监测站,,29,9,13,6,8,92,,104,104,17,13,6,5,0.6,0.7
2025-03-09T2000,1459A,91.1774,29.6541,拉萨市,西藏大学,,30,19,14,7,7,96,,104,104,14,11,4,4,0.5,0.5
2025-03-09T2000,1460A,90.9798,29.6588,拉萨市,区辐射站,,28,28,18,14,10,78,,104,103,35,15,8,7,0.5,0.4
2025-03-09T2000,1461A,91.0834,29.6292,拉萨市,拉萨火车站,,32,10,12,6,7,100,,105,105,9,9,7,6,0.4,0.4
2025-03-09T2000,2520A,109.2203,23.7256,来宾市,来宾技工学校,,33,,42,23,38,28,,46,38,22,17,6,6,0.9,0.9
2025-03-09T2000,3535A,109.1781,23.7297,来宾市,兴宾区政府,,40,39,43,28,37,23,,42,35,23,14,5,6,0.9,0.8
2025-03-09T2000,4002A,109.2416,23.7461,来宾市,中南小学,,35,27,43,24,36,27,,47,39,23,16,6,8,0.9,1
2025-03-09T2000,1477A,104.1373,35.9454,兰州市,榆中兰大校区,,,,,,,,,,,,,,,,
2025-03-09T2000,1479A,103.831,36.0464,兰州市,铁路设计院,颗粒物(PM10),89,127,110,58,53,70,,93,93,42,54,7,11,0.7,1
2025-03-09T2000,3241A,103.7439,36.0842,兰州市,百合公园,颗粒物(PM10),78,106,116,49,46,74,,89,89,27,48,5,9,0.3,1
2025-03-09T2000,3242A,103.9611,35.998,兰州市,和平,颗粒物(PM10),60,70,107,36,49,74,,94,94,24,27,9,9,0.6,0.6
2025-03-09T2000,4236A,103.6293,36.0938,兰州市,庄浪东路808号,颗粒物(PM10),91,131,117,62,52,56,,94,92,68,46,9,10,0.8,0.8
2025-03-09T2000,4237A,103.7251,36.1043,兰州市,安宁西路88号,颗粒物(PM10),95,140,133,50,52,102,,106,106,17,43,5,10,0.5,0.8
2025-03-09T2000,4238A,103.8470,36.0676,兰州市,北滨河东路1号,颗粒物(PM10),98,146,103,47,47,82,,97,97,30,44,8,12,0.4,0.8
2025-03-09T2000,3245A,103.6633,36.533,兰州新区,新区管委会,颗粒物(PM10),90,129,104,41,45,90,,105,105,12,15,28,27,0.4,0.6
2025-03-09T2000,3246A,103.6975,36.4789,兰州新区,舟曲中学,颗粒物(PM10),115,179,145,43,52,84,,101,101,15,27,44,21,0.5,0.6
2025-03-09T2000,1067A,116.6708,39.5111,廊坊市,药材公司,细颗粒物(PM2.5),100,112,145,75,122,117,,132,132,18,43,3,4,0.6,0.8
2025-03-09T2000,1068A,116.7214,39.5589,廊坊市,开发区,细颗粒物(PM2.5),102,114,154,76,126,122,,134,134,21,43,2,3,0.5,0.8
2025-03-09T2000,1070A,116.7244,39.5269,廊坊市,北华航天学院,细颗粒物(PM2.5),92,113,139,68,113,115,,133,133,24,45,3,4,0.5,0.8
2025-03-09T2000,2919A,116.7022,39.5453,廊坊市,河北工业大学,细颗粒物(PM2.5),100,104,138,75,115,121,,133,133,18,40,6,6,0.5,0.7
2025-03-09T2000,2535A,103.7723,29.5462,乐山市,花湖湾,,50,41,42,35,37,74,,78,78,16,14,5,4,0.4,0.4
2025-03-09T2000,2536A,103.7627,29.5844,乐山市,牛耳桥,细颗粒物(PM2.5),54,49,48,38,37,55,,72,72,28,20,6,6,0.6,0.6
2025-03-09T2000,2537A,103.7508,29.6006,乐山市,市第三水厂,,44,44,38,30,31,54,,78,77,26,14,3,3,0.6,0.5
2025-03-09T2000,2538A,103.7571,29.5664,乐山市,市监测站,,45,40,41,31,30,53,,71,71,21,14,5,4,0.8,0.8
2025-03-09T2000,3361A,103.7311,29.5628,乐山市,理工大学,细颗粒物(PM2.5),52,49,40,36,32,44,,77,75,31,16,6,6,0.4,0.4
2025-03-09T2000,2598A,100.2143,26.8576,丽江市,西南郊,,36,33,42,20,29,113,,117,116,7,11,6,5,0.8,1
2025-03-09T2000,2599A,100.2497,26.8802,丽江市,丽江古城,,,,43,,28,102,,110,109,15,14,,8,0.6,0.6
2025-03-09T2000,2600A,100.2203,26.8906,丽江市,市中心,,33,32,32,23,25,97,,108,106,15,11,6,7,0.7,0.7
2025-03-09T2000,1267A,119.914,28.4514,丽水市,监测站大楼,,42,42,52,25,40,101,,99,99,15,29,3,4,0.2,0.3
2025-03-09T2000,1268A,119.93,28.4586,丽水市,莲都小学,,41,41,57,21,33,104,,103,103,15,28,4,4,0.3,0.4
2025-03-09T2000,1269A,119.879,28.4231,丽水市,余庄前,,33,33,53,22,37,72,,88,87,13,26,4,5,0.3,0.4
2025-03-09T2000,1173A,119.176,34.5885,连云港市,市环境监测站,细颗粒物(PM2.5),89,83,104,66,79,112,,135,133,19,26,8,10,0.5,0.6
2025-03-09T2000,3000A,119.3581,34.6972,连云港市,德源药业,细颗粒物(PM2.5),89,80,105,66,80,95,,134,130,25,25,8,9,0.6,0.7
2025-03-09T2000,3007A,119.178,34.844,连云港市,新城一中,细颗粒物(PM2.5),117,104,115,88,100,108,,129,126,36,44,8,9,0.7,0.8
2025-03-09T2000,3008A,119.3608,34.7519,连云港市,胡沟管理处,细颗粒物(PM2.5),73,66,84,53,68,92,,133,105,42,30,15,12,0.7,0.6
2025-03-09T2000,3009A,119.1478,34.5911,连云港市,矿山设计院,细颗粒物(PM2.5),92,88,111,68,79,112,,138,136,20,26,7,9,0.5,0.6
2025-03-09T2000,3434A,119.2413,34.6539,连云港市,工贸学校,细颗粒物(PM2.5),97,88,107,72,87,116,,137,136,20,21,8,9,0.7,0.8
2025-03-09T2000,3664A,119.4172,34.7341,连云港市,连云街道,细颗粒物(PM2.5),93,90,107,69,81,117,,139,137,21,21,7,8,0.8,0.7
2025-03-09T2000,2571A,102.3431,27.8099,凉山彝族自治州,青龙寺,,37,37,54,11,18,112,,118,118,4,13,4,9,0.6,0.9
2025-03-09T2000,2572A,102.2721,27.8415,凉山彝族自治州,邛海宾馆,,46,46,50,25,34,108,,118,118,19,23,10,16,0.7,1.1
2025-03-09T2000,2573A,102.2625,27.898,凉山彝族自治州,西昌市政府,,40,40,49,28,36,108,,108,108,12,17,16,16,0.7,0.9
2025-03-09T2000,2574A,102.2685,27.8851,凉山彝族自治州,凉山州政府,,38,38,54,26,37,120,,117,117,10,24,19,18,0.5,0.9
2025-03-09T2000,4229A,102.2342,27.8859,凉山彝族自治州,凯乐南路30号,,49,49,61,34,38,89,,109,109,29,31,13,12,0.8,0.8
2025-03-09T2000,2212A,123.2,41.1953,辽阳市,宏伟区,细颗粒物(PM2.5),88,,68,65,62,116,,122,122,16,20,9,11,0.8,0.9
2025-03-09T2000,2213A,123.1683,41.2495,辽阳市,新华园,细颗粒物(PM2.5),99,,94,74,76,106,,113,111,19,36,10,16,0.8,1.1
2025-03-09T2000,2214A,123.2354,41.2639,辽阳市,滨河路,细颗粒物(PM2.5),92,,65,68,68,110,,119,118,16,24,24,18,0.6,0.7
2025-03-09T2000,2215A,123.149,41.2991,辽阳市,铁西工业园,细颗粒物(PM2.5),92,80,109,68,84,108,,115,114,19,33,9,14,0.6,0.9
2025-03-09T2000,2227A,125.1358,42.8845,辽源市,环保局,,49,49,80,34,57,83,,127,120,40,45,7,6,1.1,1.3
2025-03-09T2000,3239A,125.0764,42.9078,辽源市,银鹰制药,细颗粒物(PM2.5),59,60,87,42,64,105,,133,129,24,38,8,7,1.0,1.2
2025-03-09T2000,1625A,115.9848,36.4372,聊城市,区政府,细颗粒物(PM2.5),110,121,110,83,77,144,,157,157,17,17,13,14,0.8,0.8
2025-03-09T2000,2878A,116.0072,36.4343,聊城市,聊大东校,细颗粒物(PM2.5),105,119,119,79,80,142,,153,153,24,25,7,9,1.2,1.1
2025-03-09T2000,3200A,115.9819,36.4978,聊城市,监控中心,细颗粒物(PM2.5),107,122,117,80,82,146,,156,156,21,21,12,13,1.0,0.9
2025-03-09T2000,3513A,116.0445,36.4361,聊城市,九州社区,细颗粒物(PM2.5),103,105,106,77,78,147,,166,164,15,17,6,11,0.7,0.7
2025-03-09T2000,4018A,116.0567,36.4608,聊城市,星美广场,细颗粒物(PM2.5),99,113,113,74,72,141,,161,159,23,21,14,15,0.9,0.9
2025-03-09T2000,2632A,94.3681,29.6376,林芝市,林芝监测站,,33,17,10,10,7,103,,109,109,5,5,6,7,0.3,0.4
2025-03-09T2000,2633A,94.3616,29.6616,林芝市,林芝人民医院,,31,24,13,10,8,99,,104,104,2,4,6,6,0.2,0.3
2025-03-09T2000,2603A,100.0781,23.8982,临沧市,市环保局,细颗粒物(PM2.5),68,69,64,49,42,98,,116,116,14,16,13,12,0.5,0.6
2025-03-09T2000,2604A,100.0894,23.8822,临沧市,市气象局,,49,47,59,34,42,106,,115,115,10,19,12,15,0.6,0.7
2025-03-09T2000,1733A,111.5531,36.0783,临汾市,临钢医院,颗粒物(PM10),72,93,118,42,44,98,,122,122,25,33,8,8,0.6,0.6
2025-03-09T2000,1734A,111.5028,36.0714,临汾市,技工学校,颗粒物(PM10),74,98,98,45,49,96,,120,120,19,24,9,9,0.6,0.6
2025-03-09T2000,1736A,111.5018,36.0855,临汾市,市委,颗粒物(PM10),72,93,109,41,45,100,,123,123,16,22,8,7,0.7,0.7
2025-03-09T2000,3018A,111.505,36.1014,临汾市,唐尧大酒店,颗粒物(PM10),68,86,103,41,45,99,,124,124,32,32,8,7,0.6,0.6
2025-03-09T2000,4244A,111.4879,36.0530,临汾市,启星学校,细颗粒物(PM2.5),87,88,83,64,53,93,,122,121,18,24,5,5,0.6,0.6
2025-03-09T2000,4271A,103.2464,35.6123,临夏回族自治州,滨河东路1号,颗粒物(PM10),72,94,70,11,15,50,,103,99,50,28,6,5,0.8,1
2025-03-09T2000,4310A,103.2093,35.5995,临夏回族自治州,新华街21号,,44,44,58,28,23,81,,100,100,20,25,12,11,0.6,1.1
2025-03-09T2000,1618A,118.3429,35.0532,临沂市,沂河小区,细颗粒物(PM2.5),123,117,113,93,94,113,,134,133,20,25,11,17,0.7,0.8
2025-03-09T2000,1619A,118.295,35.0583,临沂市,鲁南制药厂,细颗粒物(PM2.5),114,119,120,86,88,120,,131,131,31,48,9,15,0.5,0.6
2025-03-09T2000,1620A,118.2794,34.9976,临沂市,新光毛纺厂,细颗粒物(PM2.5),114,110,109,86,89,113,,140,138,34,38,9,15,0.9,0.8
2025-03-09T2000,1621A,118.3956,35.0888,临沂市,河东保险公司,细颗粒物(PM2.5),112,110,117,84,89,115,,144,141,35,45,5,12,0.8,0.9
2025-03-09T2000,3370A,118.3564,35.0215,临沂市,十里堡居委,细颗粒物(PM2.5),100,102,104,75,83,118,,144,142,27,32,10,17,0.7,0.7
2025-03-09T2000,3496A,118.3604,35.1084,临沂市,南坊新区,细颗粒物(PM2.5),119,110,108,90,87,118,,138,137,24,27,5,12,0.7,0.7
2025-03-09T2000,3860A,118.3920,35.0300,临沂市,皇山花园小区,细颗粒物(PM2.5),100,100,109,75,84,115,,142,139,26,31,6,15,0.5,0.6
2025-03-09T2000,1870A,109.4856,24.3895,柳州市,柳东小学,,16,16,25,11,22,27,,44,34,15,14,10,10,0.6,0.6
2025-03-09T2000,1871A,109.4157,24.3277,柳州市,环保监测站,,24,24,32,14,27,28,,49,37,21,16,9,9,0.7,0.6
2025-03-09T2000,1872A,109.389,24.341,柳州市,河西水厂,,36,36,43,25,26,6,,44,24,40,18,2,2,1.0,0.8
2025-03-09T2000,1873A,109.4311,24.2921,柳州市,市四中,,28,27,31,19,26,21,,46,36,27,17,8,8,0.7,0.6
2025-03-09T2000,1874A,109.4006,24.3631,柳州市,市九中,,18,18,30,12,28,30,,47,33,14,13,6,7,0.8,0.8
2025-03-09T2000,1875A,109.4958,24.3134,柳州市,古亭山,,28,24,27,19,25,8,,46,33,37,13,10,9,0.5,0.5
2025-03-09T2000,3402A,109.5422,24.3996,柳州市,市二中,,43,,25,30,24,26,,48,33,21,15,54,14,0.6,0.5
2025-03-09T2000,2307A,116.5079,31.737,六安市,监测大楼,细颗粒物(PM2.5),112,103,94,84,76,93,,114,114,41,31,5,6,0.8,0.8
2025-03-09T2000,2308A,116.4738,31.7643,六安市,皖西学院,细颗粒物(PM2.5),109,114,97,82,73,108,,120,120,30,26,5,6,0.5,0.5
2025-03-09T2000,2309A,116.4996,31.7905,六安市,朝阳厂,细颗粒物(PM2.5),107,107,94,80,70,100,,116,116,38,28,4,5,0.7,0.7
2025-03-09T2000,2310A,116.5567,31.7886,六安市,开发区,细颗粒物(PM2.5),109,119,108,82,74,110,,124,124,30,30,5,5,0.8,0.7
2025-03-09T2000,2576A,104.8,26.5892,六盘水市,窑上,细颗粒物(PM2.5),68,75,47,49,31,25,,30,25,17,14,5,5,0.9,0.9
2025-03-09T2000,2577A,104.83,26.5917,六盘水市,黄土坡,颗粒物(PM10),55,59,39,34,25,19,,33,23,25,21,10,9,0.9,1
2025-03-09T2000,2578A,104.89,26.5939,六盘水市,水钢,,49,41,43,34,34,22,,39,30,17,12,9,7,0.8,0.7
2025-03-09T2000,2579A,104.8475,26.5894,六盘水市,民中,,46,46,31,29,22,12,,34,18,28,18,10,9,0.8,0.9
2025-03-09T2000,2580A,104.9544,26.5506,六盘水市,双水,细颗粒物(PM2.5),52,46,23,36,17,20,,42,29,18,13,9,8,0.6,0.6
2025-03-09T2000,2335A,117.0189,25.1181,龙岩市,龙岩师专,,,,,,,,,,,,,,,,
2025-03-09T2000,2336A,117.0217,25.1033,龙岩市,龙岩市监测站,,45,40,36,31,28,63,,84,81,29,20,17,14,0.8,0.7
2025-03-09T2000,2337A,117.0258,25.0661,龙岩市,闽西职业技术学院,颗粒物(PM10),55,60,38,36,28,46,,84,81,41,20,13,12,0.9,0.7
2025-03-09T2000,2338A,117.0196,25.0306,龙岩市,龙岩学院,细颗粒物(PM2.5),70,56,37,51,30,54,,88,86,18,17,7,12,0.9,0.8
2025-03-09T2000,2665A,105.0822,33.3261,陇南市,汉王镇固水子,,,,,,,,,,,,,,,,
2025-03-09T2000,2885A,104.9339,33.3826,陇南市,滨江中学,颗粒物(PM10),52,53,46,22,21,60,,64,64,7,6,6,6,0.6,0.6
2025-03-09T2000,3247A,104.955,33.371,陇南市,市总工会,,41,41,39,16,16,63,,67,67,4,5,8,7,0.4,0.4
2025-03-09T2000,2487A,111.9589,27.8901,娄底市,电视发射台,细颗粒物(PM2.5),53,44,39,37,33,48,,67,58,11,11,5,6,0.7,0.7
2025-03-09T2000,2488A,111.9975,27.725,娄底市,市监测站,细颗粒物(PM2.5),68,66,60,49,48,52,,63,63,27,28,6,9,0.8,0.8
2025-03-09T2000,2489A,112.0194,27.7314,娄底市,市委党校,,,52,59,34,39,55,,74,73,14,21,8,4,,0.8
2025-03-09T2000,2490A,111.9561,27.7569,娄底市,涟钢,细颗粒物(PM2.5),67,66,65,48,44,54,,66,65,13,23,6,9,1.0,1.1
2025-03-09T2000,2491A,111.9892,27.7044,娄底市,市政府,颗粒物(PM10),52,54,53,33,37,60,,69,69,13,16,5,8,0.6,0.6
2025-03-09T2000,1893A,105.4324,28.9634,泸州市,九狮山,,,,,,,,,,,,,,,,
2025-03-09T2000,1894A,105.4427,28.9063,泸州市,小市上码头,细颗粒物(PM2.5),78,102,106,57,61,51,,59,59,35,29,14,8,0.5,0.5
2025-03-09T2000,1895A,105.4241,28.8573,泸州市,兰田宪桥,细颗粒物(PM2.5),94,102,92,70,62,11,,46,41,59,28,7,6,0.8,0.6
2025-03-09T2000,1896A,105.4379,28.8833,泸州市,市环监站,细颗粒物(PM2.5),80,79,98,59,54,27,,52,49,57,32,8,7,0.5,0.4
2025-03-09T2000,4272A,105.3689,28.7783,泸州市,纳溪中医医院,细颗粒物(PM2.5),98,101,71,73,58,15,,51,46,57,29,6,6,0.7,0.6
2025-03-09T2000,2183A,111.1406,37.5211,吕梁市,环保局,细颗粒物(PM2.5),69,76,116,50,42,89,,94,94,26,43,9,9,0.5,0.5
2025-03-09T2000,2185A,111.1297,37.5136,吕梁市,自来水公司,细颗粒物(PM2.5),63,71,122,45,43,98,,96,96,23,37,7,7,0.6,0.7
2025-03-09T2000,2867A,111.1283,37.51,吕梁市,马茂庄小学,细颗粒物(PM2.5),72,75,126,52,43,81,,97,97,45,42,8,9,0.6,0.6
2025-03-09T2000,1812A,112.3931,34.6516,洛阳市,市委党校,细颗粒物(PM2.5),99,114,99,74,70,115,,118,118,29,42,4,4,0.9,0.9
2025-03-09T2000,1815A,112.494,34.6886,洛阳市,河南林校,细颗粒物(PM2.5),129,101,86,98,83,100,,46,,34,34,5,6,0.8,0.8
2025-03-09T2000,1816A,112.3844,34.623,洛阳市,开发区管委会,细颗粒物(PM2.5),119,121,112,90,81,123,,122,122,20,28,8,8,0.7,0.7
2025-03-09T2000,1817A,112.4267,34.6258,洛阳市,市委新办公区,细颗粒物(PM2.5),98,129,114,73,68,117,,121,121,34,40,4,5,0.7,0.7
2025-03-09T2000,3340A,112.6005,34.6326,洛阳市,伊滨,细颗粒物(PM2.5),114,114,112,86,85,23,,100,,18,34,4,6,0.8,0.8
2025-03-09T2000,3341A,112.4951,34.6332,洛阳市,中移产业园,细颗粒物(PM2.5),130,,97,99,93,114,,117,117,35,44,,5,0.9,1
2025-03-09T2000,3593A,112.5736,34.8993,洛阳市,吉利监测站,细颗粒物(PM2.5),147,115,95,112,91,102,,124,124,35,39,6,6,0.8,0.7
2025-03-09T2000,3635A,112.3677,34.662,洛阳市,河科大西苑校区,细颗粒物(PM2.5),110,114,102,83,73,119,,126,126,30,41,7,8,0.7,0.7
2025-03-09T2000,3636A,112.4388,34.6781,洛阳市,英才小学,细颗粒物(PM2.5),97,122,106,72,63,113,,123,123,31,35,9,9,0.6,0.6
2025-03-09T2000,4214A,112.4600,34.6949,洛阳市,春都路1号院,细颗粒物(PM2.5),100,111,100,75,66,112,,126,126,38,36,7,8,0.7,0.6
2025-03-09T2000,2399A,114.051,33.5699,漯河市,三五一五工厂,细颗粒物(PM2.5),119,115,92,90,80,105,,131,131,22,16,6,5,0.6,0.6
2025-03-09T2000,2400A,114.0055,33.5698,漯河市,漯河大学,细颗粒物(PM2.5),94,105,97,70,69,118,,133,133,21,22,6,6,0.6,0.6
2025-03-09T2000,2401A,114.0138,33.5828,漯河市,市水利局,细颗粒物(PM2.5),98,100,90,73,70,118,,134,134,18,17,4,4,0.5,0.5
2025-03-09T2000,2402A,114.0261,33.5698,漯河市,市广电局,细颗粒物(PM2.5),94,93,87,70,69,113,,133,133,20,19,4,6,0.6,0.6
2025-03-09T2000,3478A,113.9749,33.5664,漯河市,市图书馆,细颗粒物(PM2.5),103,107,99,77,75,107,,129,129,25,22,4,3,0.8,0.7
2025-03-09T2000,4250A,114.0892,33.5882,漯河市,韶山路11号,细颗粒物(PM2.5),110,110,107,83,79,105,,132,132,26,22,4,5,0.6,0.6
2025-03-09T2000,1798A,118.5092,31.6837,马鞍山市,湖东路四小,细颗粒物(PM2.5),57,61,79,40,55,93,,119,117,28,27,7,7,0.5,0.5
2025-03-09T2000,1799A,118.5024,31.6449,马鞍山市,开发区,细颗粒物(PM2.5),65,74,88,47,65,90,,118,116,29,30,6,7,0.5,0.6
2025-03-09T2000,1802A,118.6245,31.7241,马鞍山市,濮塘,细颗粒物(PM2.5),68,61,78,49,64,102,,123,121,18,15,10,10,0.6,0.7
2025-03-09T2000,3633A,118.4918,31.6809,马鞍山市,雨山,颗粒物(PM10),60,69,87,39,56,89,,120,113,37,34,8,9,0.5,0.5
2025-03-09T2000,4191A,118.5274,31.72227,马鞍山市,慈湖高新区,细颗粒物(PM2.5),65,62,79,47,64,91,,116,113,32,28,7,6,0.4,0.5
2025-03-09T2000,1686A,111.0286,21.4688,茂名市,电白南海,,48,48,49,22,33,123,,132,132,11,12,2,4,0.7,0.7
2025-03-09T2000,1687A,110.9294,21.6533,茂名市,茂石化七小,颗粒物(PM10),51,51,46,22,28,119,,128,128,15,12,3,4,0.4,0.5
2025-03-09T2000,1688A,110.9107,21.6687,茂名市,健康路,颗粒物(PM10),52,53,41,24,26,120,,128,128,18,15,4,5,0.5,0.5
2025-03-09T2000,1689A,110.8592,21.6828,茂名市,高岭,颗粒物(PM10),58,66,54,29,27,108,,123,123,20,16,5,9,0.5,0.6
2025-03-09T2000,3450A,111.01,21.5165,茂名市,电白水东,,39,39,41,17,27,113,,120,120,9,14,2,6,0.7,0.9
2025-03-09T2000,2539A,104.0308,30.0478,眉山市,黑龙滩水库,细颗粒物(PM2.5),60,45,42,43,32,64,,82,82,3,3,3,3,0.6,0.5
2025-03-09T2000,2540A,103.8416,30.0874,眉山市,气象局,细颗粒物(PM2.5),70,61,59,51,44,51,,71,71,25,21,5,6,0.7,0.6
2025-03-09T2000,3137A,103.8578,30.0744,眉山市,市委党校,细颗粒物(PM2.5),55,46,45,39,42,47,,70,70,31,24,7,7,0.7,0.6
2025-03-09T2000,3148A,103.8291,30.0564,眉山市,区人社局,细颗粒物(PM2.5),58,46,49,41,42,45,,65,65,36,30,4,4,0.7,0.7
2025-03-09T2000,1690A,116.1231,24.3284,梅州市,梅江月梅,细颗粒物(PM2.5),53,37,29,37,22,79,,98,98,18,17,10,10,0.7,0.6
2025-03-09T2000,1691A,116.0797,24.2719,梅州市,梅县新城,细颗粒物(PM2.5),63,56,30,45,22,25,,91,84,54,17,6,6,0.9,0.6
2025-03-09T2000,1692A,116.1248,24.2654,梅州市,环境监控中心,颗粒物(PM10),62,73,32,38,24,43,,86,81,42,24,6,7,0.9,0.6
2025-03-09T2000,3315A,116.1233,24.2991,梅州市,梅龙,颗粒物(PM10),62,73,27,40,21,37,,95,89,52,19,6,6,1.5,0.7
2025-03-09T2000,1878A,104.7778,31.4741,绵阳市,富乐山,,22,20,31,15,27,58,,77,76,10,15,2,2,0.6,0.6
2025-03-09T2000,1880A,104.6697,31.4668,绵阳市,高新区自来水公司,,35,26,35,24,26,50,,73,71,33,20,4,3,0.8,0.8
2025-03-09T2000,1881A,104.7287,31.5075,绵阳市,三水厂,,23,19,39,16,32,69,,82,82,16,19,5,5,0.6,0.6
2025-03-09T2000,3491A,104.69,31.5322,绵阳市,西科大附属小学,,23,23,35,16,23,60,,78,77,25,21,6,6,0.5,0.6
2025-03-09T2000,3492A,104.5648,31.5343,绵阳市,安州区旅游局,,28,24,26,19,25,55,,79,76,26,16,5,7,0.5,0.4
2025-03-09T2000,4226A,104.7651,31.4531,绵阳市,绵阳市气象局,,35,29,31,24,25,61,,73,73,15,16,6,5,0.4,0.5
2025-03-09T2000,1784A,129.61,44.561,牡丹江市,环保大楼,细颗粒物(PM2.5),67,81,87,48,57,73,,95,93,31,32,7,8,0.5,0.7
2025-03-09T2000,1785A,129.6115,44.5782,牡丹江市,文化广场,细颗粒物(PM2.5),125,156,89,95,68,27,,88,79,78,43,28,13,1.5,1
2025-03-09T2000,1786A,129.5904,44.5963,牡丹江市,第一医院,细颗粒物(PM2.5),90,107,89,67,69,44,,54,,48,32,14,14,1.1,0.8
2025-03-09T2000,1787A,129.6364,44.6075,牡丹江市,机车工厂,颗粒物(PM10),94,138,96,65,57,40,,93,86,46,29,45,30,0.8,0.8
2025-03-09T2000,1788A,129.6386,44.5462,牡丹江市,第一中学,细颗粒物(PM2.5),73,79,75,53,57,67,,96,90,30,30,8,9,0.6,0.7
2025-03-09T2000,2531A,105.0703,29.61,内江市,市监测站,细颗粒物(PM2.5),68,,42,49,43,47,,66,66,26,18,5,5,0.9,0.8
2025-03-09T2000,2532A,105.0717,29.5947,内江市,东兴区政府,细颗粒物(PM2.5),55,52,44,39,34,46,,65,65,29,18,4,4,0.9,0.8
2025-03-09T2000,2533A,105.0653,29.5817,内江市,内江二中,颗粒物(PM10),65,80,54,45,39,32,,66,65,43,20,3,3,0.8,0.7
2025-03-09T2000,2534A,105.0406,29.5822,内江市,内江日报社,细颗粒物(PM2.5),58,57,50,41,39,40,,66,66,39,24,7,7,0.7,0.6
2025-03-09T2000,2628A,92.0657,31.4846,那曲市,那曲监测站,,,21,35,18,25,,,64,,11,16,8,10,0.7,1.1
2025-03-09T2000,3128A,92.0506,31.4797,那曲市,那曲会议中心,,28,13,35,3,18,87,,97,97,1,11,4,6,0.6,0.9
2025-03-09T2000,1290A,115.8931,28.6843,南昌市,省外办,细颗粒物(PM2.5),70,62,70,51,55,45,,45,45,30,59,4,4,0.8,0.8
2025-03-09T2000,1291A,115.8886,28.7003,南昌市,省林业公司,细颗粒物(PM2.5),67,51,68,48,46,47,,46,46,21,50,7,8,0.5,0.5
2025-03-09T2000,1292A,115.8126,28.7442,南昌市,林科所,细颗粒物(PM2.5),67,66,56,48,36,23,,41,38,51,52,4,4,0.7,0.6
2025-03-09T2000,1294A,115.8518,28.687,南昌市,建工学校,细颗粒物(PM2.5),85,68,77,63,54,51,,47,47,26,52,10,9,0.6,0.5
2025-03-09T2000,1295A,115.8921,28.6424,南昌市,象湖,细颗粒物(PM2.5),64,73,67,46,47,52,,50,50,26,44,6,7,0.6,0.6
2025-03-09T2000,1296A,115.7423,28.7996,南昌市,武术学校,细颗粒物(PM2.5),67,52,31,48,27,17,,42,37,16,14,1,1,0.6,0.4
2025-03-09T2000,3046A,115.9084,28.6062,南昌市,机电学校,细颗粒物(PM2.5),70,72,90,51,54,45,,48,48,32,53,15,14,0.6,0.7
2025-03-09T2000,3690A,115.9721,28.7031,南昌市,外国语学校,细颗粒物(PM2.5),60,59,66,43,44,49,,52,52,21,38,4,5,0.5,0.4
2025-03-09T2000,4192A,115.9316,28.68677,南昌市,南京东路235号,颗粒物(PM10),98,146,78,46,51,58,,55,55,23,51,4,5,0.6,0.8
2025-03-09T2000,1905A,106.056,30.8064,南充市,西山风景区,细颗粒物(PM2.5),53,43,41,37,38,60,,65,65,16,12,2,2,0.5,0.4
2025-03-09T2000,1906A,106.0789,30.8023,南充市,南充市委,细颗粒物(PM2.5),67,58,51,48,40,48,,66,66,34,22,4,4,0.8,0.6
2025-03-09T2000,1907A,106.1031,30.8217,南充市,南充炼油厂,细颗粒物(PM2.5),64,67,55,46,44,35,,59,59,44,20,4,4,0.4,0.4
2025-03-09T2000,1909A,106.0642,30.7636,南充市,嘉陵区环保局,颗粒物(PM10),59,67,56,36,37,43,,63,63,34,19,3,3,0.7,0.6
2025-03-09T2000,1910A,106.1087,30.8388,南充市,市环境监测站,细颗粒物(PM2.5),78,68,53,57,43,49,,68,68,31,15,5,6,0.6,0.6
2025-03-09T2000,4227A,106.1083,30.7884,南充市,梨树横街98号,细颗粒物(PM2.5),65,67,55,47,42,54,,63,63,28,21,5,5,0.5,0.4
2025-03-09T2000,1151A,118.8086,32.1065,南京市,迈皋桥,,49,49,71,27,52,102,,112,112,19,24,4,4,0.1,0.4
2025-03-09T2000,1152A,118.7538,32.0551,南京市,草场门,细颗粒物(PM2.5),52,51,73,36,54,75,,86,86,23,27,5,6,0.6,0.8
2025-03-09T2000,1153A,118.7794,32.0745,南京市,山西路,颗粒物(PM10),53,56,80,34,55,93,,104,104,13,14,3,4,0.5,0.7
2025-03-09T2000,1154A,118.7752,32.0023,南京市,中华门,,48,48,74,31,50,88,,102,102,29,33,5,4,0.4,0.5
2025-03-09T2000,1155A,118.8109,32.0309,南京市,瑞金路,颗粒物(PM10),52,53,75,29,53,93,,107,107,23,27,7,6,0.5,0.7
2025-03-09T2000,1156A,118.7997,32.0754,南京市,玄武湖,颗粒物(PM10),52,53,78,29,51,93,,104,104,13,15,4,4,0.3,0.5
2025-03-09T2000,1157A,118.6414,32.0931,南京市,浦口,颗粒物(PM10),54,58,84,36,52,95,,111,111,25,27,6,7,0.4,0.5
2025-03-09T2000,1158A,118.7356,31.9996,南京市,奥体中心,颗粒物(PM10),56,62,82,36,56,96,,112,112,30,31,7,8,0.3,0.5
2025-03-09T2000,1159A,118.9125,32.1028,南京市,仙林大学城,,44,44,73,29,53,90,,104,103,20,21,7,8,0.6,0.7
2025-03-09T2000,3422A,118.8436,31.9198,南京市,江宁彩虹桥,颗粒物(PM10),56,62,89,34,54,91,,112,110,21,23,4,5,0.3,0.5
2025-03-09T2000,3423A,119.0138,31.6494,南京市,溧水永阳,细颗粒物(PM2.5),60,48,64,43,62,91,,113,110,22,22,4,6,0.4,0.5
2025-03-09T2000,3427A,118.8554,32.3578,南京市,六合雄州,颗粒物(PM10),60,69,80,42,47,74,,100,96,28,26,4,6,0.8,0.9
2025-03-09T2000,4249A,118.8708,31.3402,南京市,汶溪路181号,细颗粒物(PM2.5),63,65,80,45,62,95,,109,108,14,18,4,4,0.2,0.2
2025-03-09T2000,1401A,108.3103,22.7881,南宁市,二十一中,细颗粒物(PM2.5),55,45,25,39,29,16,,33,21,37,23,4,4,1.0,0.8
2025-03-09T2000,1402A,108.3141,22.8528,南宁市,北湖,颗粒物(PM10),59,68,31,29,27,21,,32,18,32,23,6,5,0.9,0.7
2025-03-09T2000,1403A,108.3206,22.8225,南宁市,市监测站,,42,34,24,29,24,18,,32,18,34,25,6,5,1.2,1
2025-03-09T2000,1404A,108.3829,22.8037,南宁市,大自然花园,,48,46,29,33,29,33,,32,31,18,15,6,5,1.0,0.8
2025-03-09T2000,1405A,108.4394,22.7904,南宁市,仙葫,,42,33,23,29,23,24,,28,26,20,17,3,3,0.7,0.6
2025-03-09T2000,1406A,108.2397,22.8467,南宁市,区农职院,,46,46,29,31,23,3,,33,16,38,22,9,9,0.9,0.7
2025-03-09T2000,1407A,108.3275,22.735,南宁市,英华嘉园,,39,35,23,27,23,21,,31,28,26,17,6,6,0.8,0.7
2025-03-09T2000,3401A,108.4834,22.7618,南宁市,红星社区,,43,36,23,30,20,28,,34,33,16,11,7,7,0.9,0.8
2025-03-09T2000,4221A,108.2177,22.7774,南宁市,乐贤路16号,,43,42,28,30,24,5,,24,14,45,31,9,7,1.0,0.8
2025-03-09T2000,2331A,118.0966,26.6761,南平市,茫荡山,,,,,,,,,,,,,,,,
2025-03-09T2000,2332A,118.1681,26.6369,南平市,南平市监测站,颗粒物(PM10),53,56,31,36,24,26,,99,85,47,19,5,5,1.8,0.8
2025-03-09T2000,2333A,118.1825,26.6489,南平市,南平铝业有限公司,,39,39,31,25,22,24,,94,81,45,21,8,6,1.0,0.8
2025-03-09T2000,2334A,118.1756,26.6272,南平市,南平七中,,36,36,31,22,22,52,,92,86,27,15,4,4,0.9,0.6
2025-03-09T2000,1168A,120.9098,31.9663,南通市,狼山街道,,30,30,55,21,39,95,,112,109,13,18,5,6,0.4,0.5
2025-03-09T2000,1169A,120.86,32.0005,南通市,虹桥,,29,29,55,19,38,86,,103,99,22,24,4,5,0.0,0.1
2025-03-09T2000,1170A,120.87,32.02,南通市,城中,,33,33,57,13,36,91,,112,108,17,18,4,6,0.4,0.5
2025-03-09T2000,1171A,120.94,31.93,南通市,星湖花园,,29,29,46,20,32,91,,108,104,18,20,5,6,0.3,0.4
2025-03-09T2000,1172A,120.81,32.0417,南通市,紫琅学院,,28,28,50,16,34,89,,106,103,15,20,3,3,0.4,0.5
2025-03-09T2000,3291A,121.067,32.062,南通市,通州监测站,,39,39,55,19,39,99,,119,114,11,15,2,3,0.5,0.5
2025-03-09T2000,3432A,120.9348,31.9883,南通市,环境教育馆,,32,19,52,19,40,102,,125,120,11,22,3,4,0.0,0.2
2025-03-09T2000,2404A,112.5224,33.0122,南阳市,瓦房庄,细颗粒物(PM2.5),77,75,90,56,57,88,,119,118,18,23,4,4,0.6,0.6
2025-03-09T2000,2405A,112.5003,32.9735,南阳市,汉画馆,细颗粒物(PM2.5),73,72,79,53,59,78,,115,112,22,22,4,4,0.6,0.6
2025-03-09T2000,2406A,112.5573,33.027,南阳市,气象站,细颗粒物(PM2.5),70,77,89,51,58,82,,118,116,20,20,6,5,0.4,0.6
2025-03-09T2000,2407A,112.5481,32.9689,南阳市,理工学院,细颗粒物(PM2.5),78,79,86,57,62,79,,116,114,21,19,4,3,0.6,0.6
2025-03-09T2000,4008A,112.5234,32.9922,南阳市,卧龙区政府,细颗粒物(PM2.5),75,71,88,55,64,82,,117,114,20,22,6,6,0.6,0.7
2025-03-09T2000,1234A,121.8358,29.911,宁波市,区环保大楼,,38,38,44,18,26,61,,88,81,51,42,7,7,0.3,0.4
2025-03-09T2000,1235A,121.56,29.82,宁波市,万里学院,,30,18,72,10,46,95,,104,103,14,40,6,7,0.4,0.6
2025-03-09T2000,1236A,121.713,29.9572,宁波市,龙赛医院,,34,34,56,20,35,66,,86,83,36,43,7,9,0.6,0.7
2025-03-09T2000,1239A,121.633,29.7733,宁波市,钱湖水厂,,28,15,55,9,35,87,,106,104,14,27,6,7,0.6,0.8
2025-03-09T2000,1240A,121.5856,29.8635,宁波市,太古小学,,27,22,72,11,42,85,,103,101,21,42,7,9,0.6,0.8
2025-03-09T2000,1241A,121.524,29.8674,宁波市,市环境监测中心,,29,,62,15,55,90,,98,97,27,54,6,8,0.4,0.6
2025-03-09T2000,2871A,121.6147,29.9017,宁波市,万里国际学校,,28,24,50,8,32,89,,96,96,19,43,6,8,0.3,0.5
2025-03-09T2000,3710A,121.5594,29.8975,宁波市,白沙活动中心,,,40,73,14,43,,,105,105,7,42,5,6,0.5,0.7
2025-03-09T2000,2339A,119.5001,26.6946,宁德市,金涵水库,,,,,,,,,,,,,,,,
2025-03-09T2000,2341A,119.5388,26.6612,宁德市,宁德市监测站,,31,23,41,16,32,98,,123,121,13,13,4,5,0.4,0.5
2025-03-09T2000,3209A,119.5231,26.6562,宁德市,宁德一中,,32,26,39,13,31,100,,124,122,12,13,4,5,0.3,0.4
2025-03-09T2000,2618A,98.8601,25.8567,怒江傈僳族自治州,州监测站,,50,49,47,35,32,96,,87,87,11,6,5,5,0.6,0.7
2025-03-09T2000,2619A,98.8546,25.8417,怒江傈僳族自治州,泸水一中,颗粒物(PM10),51,52,43,29,34,67,,67,67,24,14,6,6,0.6,0.5
2025-03-09T2000,1888A,101.6891,26.571,攀枝花市,弄弄坪,颗粒物(PM10),62,73,96,43,53,98,,112,112,36,47,39,53,3.3,3
2025-03-09T2000,1889A,101.5769,26.5928,攀枝花市,河门口,细颗粒物(PM2.5),64,53,63,46,44,121,,126,126,10,22,8,11,0.5,1
2025-03-09T2000,1890A,101.7169,26.585,攀枝花市,炳草岗,颗粒物(PM10),52,54,85,30,52,103,,126,126,31,54,5,12,1.0,2.1
2025-03-09T2000,1891A,101.7369,26.5008,攀枝花市,仁和,颗粒物(PM10),60,70,56,38,41,96,,133,131,28,26,7,10,0.7,1.2
2025-03-09T2000,2835A,101.7227,26.567,攀枝花市,四十中小,颗粒物(PM10),61,71,93,43,54,113,,126,126,29,56,7,32,0.9,3.6
2025-03-09T2000,1604A,122.0303,41.1489,盘锦市,开发区,细颗粒物(PM2.5),120,,82,91,93,122,,134,130,20,28,13,14,0.8,0.8
2025-03-09T2000,1605A,122.0485,41.0883,盘锦市,兴隆台,细颗粒物(PM2.5),120,102,82,91,92,114,,123,120,26,37,7,7,0.8,0.8
2025-03-09T2000,1606A,121.8297,41.1028,盘锦市,新生街道,细颗粒物(PM2.5),122,,60,92,82,117,,128,126,19,30,9,9,0.9,0.9
2025-03-09T2000,1832A,113.3257,33.742,平顶山市,新华旅馆,细颗粒物(PM2.5),85,103,111,63,69,109,,114,114,26,35,4,5,0.5,0.5
2025-03-09T2000,1833A,113.2919,33.737,平顶山市,规划设计院,细颗粒物(PM2.5),102,113,111,76,74,105,,115,115,24,24,2,5,0.6,0.5
2025-03-09T2000,1834A,113.182,33.774,平顶山市,平顶山工学院,细颗粒物(PM2.5),98,110,101,73,68,106,,111,111,13,15,5,6,0.8,0.7
2025-03-09T2000,3204A,113.3025,33.73,平顶山市,规划局,细颗粒物(PM2.5),125,102,101,95,81,104,,115,115,25,27,4,6,0.9,0.8
2025-03-09T2000,3594A,112.8867,33.9116,平顶山市,石龙区,细颗粒物(PM2.5),103,124,117,77,74,101,,119,119,41,33,5,6,0.6,0.6
2025-03-09T2000,2656A,106.6692,35.5461,平凉市,聚贤嘉苑,颗粒物(PM10),60,69,84,30,38,89,,105,105,30,31,12,11,0.3,0.3
2025-03-09T2000,2657A,106.7021,35.5307,平凉市,博物馆,颗粒物(PM10),64,78,87,30,43,83,,104,104,35,32,11,11,0.6,0.8
2025-03-09T2000,2347A,114.0997,27.5002,萍乡市,武功山,,43,,28,30,28,33,,46,44,10,8,4,6,0.8,0.8
2025-03-09T2000,2348A,113.8385,27.6434,萍乡市,中医院,细颗粒物(PM2.5),57,47,59,40,41,56,,56,55,21,23,6,10,0.9,0.9
2025-03-09T2000,2349A,113.8493,27.6253,萍乡市,市政府车库,细颗粒物(PM2.5),53,40,52,37,40,54,,56,55,21,25,5,7,0.7,0.8
2025-03-09T2000,2350A,113.8676,27.6435,萍乡市,市环保局,细颗粒物(PM2.5),60,49,55,43,41,54,,55,54,22,27,5,7,0.6,0.7
2025-03-09T2000,2351A,113.866,27.6198,萍乡市,安源区政府,,45,45,55,31,39,40,,50,49,27,22,3,5,1.0,0.9
2025-03-09T2000,2319A,119.0141,25.4325,莆田市,荔城区仓后路,,35,35,34,18,17,83,,118,111,20,13,2,2,0.5,0.5
2025-03-09T2000,2320A,119.0015,25.4553,莆田市,莆田市监测站,,36,36,32,16,16,80,,120,114,14,9,3,3,0.5,0.5
2025-03-09T2000,2321A,119.1119,25.4561,莆田市,涵江区六中,,28,28,35,14,19,88,,117,112,20,15,3,3,0.2,0.3
2025-03-09T2000,2322A,119.1013,25.3215,莆田市,秀屿区政府,,32,32,33,15,21,93,,118,111,15,16,5,5,0.9,0.5
2025-03-09T2000,2323A,118.981,25.4792,莆田市,东圳水库,,,,,,,,,,,,,,,,
2025-03-09T2000,2392A,115.0312,35.7636,濮阳市,环保局,细颗粒物(PM2.5),97,,78,72,72,148,,156,156,15,15,4,4,0.7,0.7
2025-03-09T2000,2394A,115.0574,35.7609,濮阳市,油田运输公司,细颗粒物(PM2.5),93,112,103,69,70,158,,166,166,19,18,4,5,0.9,0.9
2025-03-09T2000,3021A,115,35.7668,濮阳市,濮水河管理处,细颗粒物(PM2.5),88,112,101,65,63,154,,160,160,19,20,6,6,0.8,0.8
2025-03-09T2000,4216A,115.0924,35.7686,濮阳市,任丘路479号,细颗粒物(PM2.5),95,108,102,71,70,158,,169,169,32,27,5,6,0.6,0.7
2025-03-09T2000,2601A,100.98,22.7633,普洱市,市环保局,细颗粒物(PM2.5),57,47,54,40,24,75,,87,86,11,7,4,4,0.7,0.8
2025-03-09T2000,2602A,100.9817,22.8322,普洱市,普洱第二中学,颗粒物(PM10),53,56,50,22,26,61,,80,78,20,10,6,6,0.6,0.6
2025-03-09T2000,2262A,131.0518,45.8751,七台河市,新一中,细颗粒物(PM2.5),53,49,38,37,29,84,,107,104,15,13,13,11,0.9,0.9
2025-03-09T2000,3345A,131.0577,45.7879,七台河市,中波台,"颗粒物(PM10),细颗粒物(PM2.5)",52,54,51,36,39,84,,88,88,18,22,8,8,0.5,0.5
2025-03-09T2000,3637A,131.0176,45.7761,七台河市,人民广场,颗粒物(PM10),68,86,66,46,46,64,,85,78,34,29,10,10,0.9,0.8
2025-03-09T2000,3684A,130.8781,45.8222,七台河市,新建矿广场,细颗粒物(PM2.5),63,68,76,45,52,51,,90,83,41,28,16,8,0.6,0.6
2025-03-09T2000,1779A,123.9305,47.3636,齐齐哈尔市,安居小区,细颗粒物(PM2.5),150,151,99,115,63,106,,112,112,21,24,12,11,0.8,0.6
2025-03-09T2000,1780A,123.9488,47.3386,齐齐哈尔市,中心广场,细颗粒物(PM2.5),143,187,106,109,55,100,,105,105,24,23,8,8,0.9,0.7
2025-03-09T2000,1781A,123.9483,47.3227,齐齐哈尔市,农牧车辆厂,细颗粒物(PM2.5),105,139,86,79,42,111,,117,117,18,20,7,7,0.5,0.4
2025-03-09T2000,1783A,123.945,47.2988,齐齐哈尔市,市环境监测站,细颗粒物(PM2.5),119,158,93,90,50,104,,112,112,17,17,7,5,0.8,0.6
2025-03-09T2000,3662A,123.6333,47.2075,齐齐哈尔市,富区青少年活动中心,细颗粒物(PM2.5),115,157,106,87,37,82,,107,106,16,13,9,7,0.8,0.6
